timepoint,stationcode,longitude,latitude,area,positionname,primarypollutant,aqi,pm10,pm10_24h,pm2_5,pm2_5_24h,o3,o3_24h,o3_8h,o3_8h_24h,no2,no2_24h,so2,so2_24h,co,co_24h
2026-01-01T1000,2568A,102.2503,31.8896,阿坝藏族羌族自治州,马师校,,32,,19,22,16,35,,42,41,19,14,4,4,0.6,0.5
2026-01-01T1000,3994A,102.2174,31.9016,阿坝藏族羌族自治州,马尔康中学西区,,13,,14,3,10,40,,47,46,18,12,5,5,0.6,0.5
2026-01-01T1000,2695A,80.2899,41.1684,阿克苏地区,电视台,,48,48,54,26,33,46,,44,44,12,19,4,4,0.6,0.7
2026-01-01T1000,2696A,80.2592,41.1541,阿克苏地区,艺术中心,细颗粒物(PM2.5),55,44,51,39,37,48,,49,49,12,14,5,4,0.4,0.5
2026-01-01T1000,2205A,105.699,38.8409,阿拉善盟,蒙二幼,,,38,44,25,27,,,46,46,19,14,12,11,0.9,0.7
2026-01-01T1000,2206A,105.7198,38.8508,阿拉善盟,环保局新楼,,19,19,33,13,20,56,,53,53,12,11,10,10,0.6,0.6
2026-01-01T1000,2708A,88.1266,47.8515,阿勒泰地区,市站,,20,7,26,6,16,47,,77,74,39,38,3,5,0.2,0.3
2026-01-01T1000,4166A,88.1198,47.7931,阿勒泰地区,阿勒泰路33号,,24,14,30,3,14,76,,83,83,9,10,3,7,0.2,0.2
2026-01-01T1000,2630A,80.1171,32.4999,阿里地区,阿里监测站,,19,6,3,3,3,59,,54,51,10,10,12,11,0.4,0.4
2026-01-01T1000,3192A,80.0906,32.5029,阿里地区,阿里藏医院,,25,25,12,13,7,41,,65,57,22,7,11,12,0.6,0.4
2026-01-01T1000,2644A,109.0088,32.6974,安康市,汉滨区检察院,,23,,12,16,13,34,,48,37,12,13,4,4,0.5,0.5
2026-01-01T1000,4054A,109.0324,32.6913,安康市,市邮政管理局,,29,25,16,20,14,15,,46,36,28,15,5,4,0.6,0.6
2026-01-01T1000,2291A,117.0806,30.5181,安庆市,环科院,,23,22,33,16,14,42,,48,46,3,7,4,5,0.3,0.3
2026-01-01T1000,2292A,117.0331,30.5118,安庆市,马山宾馆,,26,,31,18,15,46,,54,51,13,13,3,4,0.7,0.7
2026-01-01T1000,2294A,116.9897,30.6146,安庆市,安庆大学,,19,19,31,13,14,49,,50,48,4,10,3,4,0.4,0.4
2026-01-01T1000,3173A,117.0598,30.5351,安庆市,市人大,,32,28,34,22,15,43,,51,48,4,6,4,6,0.5,0.4
2026-01-01T1000,3123A,105.9408,26.2431,安顺市,凤凰山,,20,20,33,13,27,47,,42,42,12,15,6,7,0.9,0.9
2026-01-01T1000,3124A,105.9443,26.2567,安顺市,金钟山,,19,16,27,13,21,49,,44,44,10,11,8,10,0.9,1
2026-01-01T1000,3125A,105.8983,26.248,安顺市,娄家坡,,18,17,27,12,23,46,,41,41,12,14,16,17,1.0,1
2026-01-01T1000,1819A,114.3552,36.1017,安阳市,红庙街,,43,,40,30,21,32,,32,32,13,22,2,4,0.6,0.6
2026-01-01T1000,1820A,114.361,36.0681,安阳市,银杏小区,细颗粒物(PM2.5),57,,42,40,22,31,,30,30,17,24,2,4,0.3,0.3
2026-01-01T1000,3141A,114.3921,36.0879,安阳市,信访局,,43,37,42,30,27,29,,29,29,22,27,3,2,0.5,0.5
2026-01-01T1000,3669A,114.4706,36.0634,安阳市,左辅环卫站,,,58,51,37,17,36,,24,24,12,21,,4,0.6,0.6
2026-01-01T1000,4117A,114.2918,36.0769,安阳市,钢三路198号,颗粒物(PM10),55,59,51,23,26,34,,29,29,12,20,3,3,0.5,0.5
2026-01-01T1000,1748A,123.0441,41.1201,鞍山市,深沟寺,细颗粒物(PM2.5),122,106,40,92,29,16,,18,15,38,24,15,9,1.9,1
2026-01-01T1000,1749A,123.011,41.0931,鞍山市,太阳城,细颗粒物(PM2.5),88,93,40,65,27,18,,25,20,37,23,20,15,1.8,1
2026-01-01T1000,1750A,123.0483,41.1445,鞍山市,太平,细颗粒物(PM2.5),114,140,59,86,30,13,,17,14,40,25,17,12,1.9,1
2026-01-01T1000,1751A,122.964,41.0968,鞍山市,铁西三道街,细颗粒物(PM2.5),165,191,73,125,40,,,16,14,34,24,,28,4.0,1.4
2026-01-01T1000,1753A,123.0219,41.0822,鞍山市,明达新区,细颗粒物(PM2.5),83,88,44,61,25,18,,23,18,23,19,23,15,1.8,1
2026-01-01T1000,4201A,122.944647,41.082639,鞍山市,兴盛南路290号,细颗粒物(PM2.5),139,146,72,106,41,10,,12,9,50,41,41,15,3.9,1.8
2026-01-01T1000,2195A,107.4206,40.7609,巴彦淖尔市,附二中,颗粒物(PM10),63,76,91,30,68,8,,4,4,36,33,10,11,1.0,0.6
2026-01-01T1000,2196A,107.37,40.7372,巴彦淖尔市,市环保大楼,,36,36,87,20,60,6,,6,5,31,34,4,10,1.0,0.7
2026-01-01T1000,1956A,86.1476,41.7529,巴音郭楞蒙古自治州,孔雀公园,,45,45,54,31,35,44,,45,45,15,23,6,7,0.5,0.6
2026-01-01T1000,1957A,86.1971,41.7166,巴音郭楞蒙古自治州,棉纺厂,颗粒物(PM10),51,52,65,32,24,43,,47,47,15,21,/,/,/,/
2026-01-01T1000,1958A,86.236,41.7172,巴音郭楞蒙古自治州,经济开发区,,38,38,45,16,23,46,,45,45,6,12,4,5,0.5,0.5
2026-01-01T1000,3181A,106.776805,31.852614,巴中市,市五中,,29,26,32,20,28,13,,19,17,23,15,5,5,1.0,1
2026-01-01T1000,3183A,106.7419,31.8654,巴中市,圣泉水务公司,,26,22,24,18,20,18,,25,24,28,19,5,5,0.7,0.7
2026-01-01T1000,3616A,106.7617,31.8343,巴中市,市中心医院,,28,26,27,19,21,8,,16,15,32,22,7,6,1.2,1
2026-01-01T1000,2235A,122.7909,45.608,白城市,洮北区环保局,细颗粒物(PM2.5),104,,45,78,42,28,,27,27,24,23,6,5,1.0,0.4
2026-01-01T1000,2236A,122.8741,45.5725,白城市,市环保局,细颗粒物(PM2.5),93,70,51,69,38,28,,19,19,22,27,6,6,0.7,0.4
2026-01-01T1000,2231A,126.4219,41.9172,白山市,喜丰,颗粒物(PM10),62,73,48,43,23,27,,22,22,24,21,16,13,0.9,0.6
2026-01-01T1000,2232A,126.4082,41.9416,白山市,环保局,,,,49,,34,,,18,17,14,13,15,11,0.6,0.5
2026-01-01T1000,2647A,104.1727,36.5448,白银市,第三小学,,,,47,55,46,,,31,31,30,34,7,9,0.9,0.8
2026-01-01T1000,2648A,104.1467,36.5482,白银市,动力公司,细颗粒物(PM2.5),93,,44,69,44,46,,45,44,30,19,2,3,0.7,0.5
2026-01-01T1000,2512A,106.6102,23.901,百色市,市监测站,,12,6,47,3,29,37,,82,67,12,16,7,14,0.8,0.8
2026-01-01T1000,2513A,106.6524,23.8842,百色市,市中心血站,,13,6,51,3,32,40,,95,78,19,20,6,13,0.8,0.9
2026-01-01T1000,4133A,106.6273,23.8798,百色市,龙景西路,,21,21,69,3,34,41,,93,78,7,11,6,16,0.8,0.9
2026-01-01T1000,2270A,117.396,32.9389,蚌埠市,工人疗养院,细颗粒物(PM2.5),67,56,48,48,29,41,,41,39,12,12,4,4,0.4,0.3
2026-01-01T1000,2271A,117.3606,32.9428,蚌埠市,百货大楼,细颗粒物(PM2.5),53,47,40,37,26,42,,44,41,12,11,4,3,0.4,0.3
2026-01-01T1000,2273A,117.4183,32.8909,蚌埠市,蚌埠学院,细颗粒物(PM2.5),53,51,34,37,24,38,,42,39,17,19,3,4,0.5,0.3
2026-01-01T1000,2274A,117.3534,32.9672,蚌埠市,淮上区政府,细颗粒物(PM2.5),64,51,40,46,28,41,,44,40,11,11,1,2,0.5,0.4
2026-01-01T1000,2275A,117.3143,32.8977,蚌埠市,高新区,细颗粒物(PM2.5),65,48,37,47,27,35,,43,40,14,14,5,5,0.4,0.3
2026-01-01T1000,3715A,117.3091,32.9314,蚌埠市,蚌埠田家炳中学,细颗粒物(PM2.5),72,58,44,52,30,38,,44,40,15,13,3,3,0.4,0.3
2026-01-01T1000,1585A,109.8761,40.6533,包头市,市环境监测站,,27,27,53,11,21,46,,45,45,22,33,7,19,0.8,1
2026-01-01T1000,1587A,109.9992,40.5843,包头市,包头八中,细颗粒物(PM2.5),103,114,67,77,38,,,8,7,44,44,62,15,,1.4
2026-01-01T1000,1589A,109.8641,40.6288,包头市,惠龙物流,,22,22,41,7,17,55,,50,50,18,29,10,19,0.7,0.8
2026-01-01T1000,1590A,110.0376,40.5546,包头市,东河鸿龙湾,,,61,54,40,28,,,8,8,30,43,21,15,0.8,1
2026-01-01T1000,3283A,109.9154,40.5684,包头市,滨河大厦,细颗粒物(PM2.5),67,82,71,48,45,20,,7,7,22,33,42,26,1.3,1.4
2026-01-01T1000,3419A,109.9449,40.6259,包头市,包头市委党校,细颗粒物(PM2.5),54,50,57,38,25,9,,13,13,57,45,14,14,1.5,1
2026-01-01T1000,3683A,109.8332,40.6577,包头市,昆区政府,,29,22,50,20,25,52,,50,50,18,33,9,27,0.8,1.2
2026-01-01T1000,1931A,107.0802,34.3129,宝鸡市,竹园沟,细颗粒物(PM2.5),68,,50,49,54,34,,42,39,15,22,5,5,0.6,0.8
2026-01-01T1000,1933A,107.1429,34.3549,宝鸡市,监测站,细颗粒物(PM2.5),77,,54,56,60,34,,43,40,21,25,4,4,0.6,0.8
2026-01-01T1000,1934A,107.1172,34.3759,宝鸡市,技工学校,细颗粒物(PM2.5),77,,50,56,64,34,,42,40,15,22,2,2,0.7,0.9
2026-01-01T1000,1936A,107.2025,34.3518,宝鸡市,文理学院,细颗粒物(PM2.5),79,,49,58,59,38,,45,43,15,23,3,3,0.6,0.8
2026-01-01T1000,1937A,107.2396,34.3626,宝鸡市,三迪小学,,,,53,,67,34,,46,44,19,24,,2,0.7,1
2026-01-01T1000,4155A,107.1721,34.3558,宝鸡市,滨河北路,细颗粒物(PM2.5),74,60,57,54,51,37,,48,45,20,19,5,5,0.8,0.7
2026-01-01T1000,4308A,107.3898,34.3601,宝鸡市,陈仓区北开路21号,细颗粒物(PM2.5),85,,53,63,62,39,,50,47,14,22,4,4,0.8,0.9
2026-01-01T1000,1051A,115.4803,38.8568,保定市,游泳馆,,,66,41,43,21,17,,13,12,36,27,,4,,0.5
2026-01-01T1000,1052A,115.509,38.8895,保定市,华电二区,细颗粒物(PM2.5),69,65,36,50,29,11,,17,12,42,26,4,4,0.9,0.5
2026-01-01T1000,1053A,115.4588,38.9037,保定市,接待中心,,,,41,,23,,,14,12,25,24,3,2,0.8,0.4
2026-01-01T1000,1054A,115.4484,38.8344,保定市,地表水厂,细颗粒物(PM2.5),85,101,58,63,29,13,,10,10,53,39,4,3,0.9,0.5
2026-01-01T1000,3581A,115.3136,38.9511,保定市,满城区生态环境分局,颗粒物(PM10),68,85,65,41,31,17,,5,5,35,40,6,5,0.7,0.6
2026-01-01T1000,3582A,115.4709,38.7628,保定市,清苑区第二中学,细颗粒物(PM2.5),88,113,65,65,28,9,,4,4,54,41,8,6,0.8,0.5
2026-01-01T1000,3583A,115.6231,39.0223,保定市,徐水物探局,细颗粒物(PM2.5),75,90,63,55,31,11,,6,5,42,42,5,4,1.0,0.6
2026-01-01T1000,4004A,115.4199,38.8665,保定市,双鹰农机,颗粒物(PM10),70,89,55,41,27,24,,14,14,32,33,8,12,0.6,0.4
2026-01-01T1000,4034A,115.515,38.8589,保定市,植保所站,颗粒物(PM10),61,72,44,42,25,9,,9,6,49,37,6,3,0.6,0.4
2026-01-01T1000,2594A,99.1589,25.1137,保山市,市环境监测站,细颗粒物(PM2.5),59,,25,42,21,22,,40,36,22,9,8,4,0.7,0.3
2026-01-01T1000,2595A,99.1616,25.1381,保山市,市环保局,,24,24,28,14,20,30,,52,47,18,6,4,4,0.4,0.3
2026-01-01T1000,1867A,109.1435,21.4085,北海市,海滩公园,,,61,52,39,34,,,98,89,21,15,18,11,0.7,0.8
2026-01-01T1000,1868A,109.0983,21.466,北海市,新市环保局,细颗粒物(PM2.5),55,45,47,39,36,79,,99,88,22,16,13,6,0.6,0.6
2026-01-01T1000,1869A,109.1775,21.5232,北海市,北海工业园,"颗粒物(PM10),细颗粒物(PM2.5)",53,56,61,37,39,67,,83,74,20,15,12,10,0.6,0.7
2026-01-01T1000,3400A,109.1844,21.4396,北海市,龙潭自来水厂,细颗粒物(PM2.5),57,56,49,40,36,70,,90,78,19,12,18,10,1.0,0.9
2026-01-01T1000,1001A,116.3611,39.8786,北京市,万寿西宫,,,,35,,14,,,53,8,,37,,2,,0.4
2026-01-01T1000,1003A,116.4174,39.9289,北京市,东四,,26,26,28,12,13,26,,10,10,26,27,3,2,0.6,0.5
2026-01-01T1000,1004A,116.4073,39.8858,北京市,天坛,,26,26,27,13,12,31,,9,9,29,28,4,2,0.5,0.4
2026-01-01T1000,1005A,116.4622,39.9364,北京市,农展馆,,32,32,28,14,18,21,,7,7,27,26,4,4,0.7,0.5
2026-01-01T1000,1006A,116.3399,39.9293,北京市,官园,,32,32,33,11,14,28,,6,6,31,35,6,4,0.6,0.5
2026-01-01T1000,1007A,116.2879,39.9613,北京市,海淀万柳,,37,37,32,17,15,13,,4,4,46,38,4,3,0.5,0.4
2026-01-01T1000,1008A,116.6635,40.1349,北京市,顺义新城,,20,20,22,11,11,39,,21,21,10,21,4,4,0.4,0.4
2026-01-01T1000,1009A,116.6275,40.327,北京市,怀柔镇,,20,20,16,9,8,34,,26,25,16,13,6,6,0.4,0.4
2026-01-01T1000,1010A,116.2295,40.217,北京市,昌平镇,,25,25,25,13,10,47,,15,15,15,18,7,5,0.5,0.5
2026-01-01T1000,1011A,116.3968,39.982,北京市,奥体中心,,28,28,26,13,12,23,,12,12,33,36,4,4,0.7,0.6
2026-01-01T1000,3418A,116.8336,40.4095,北京市,密云新城,,,,18,,9,,,60,30,,12,,3,,0.4
2026-01-01T1000,3671A,116.0879,39.9725,北京市,门头沟三家店,,45,45,36,21,15,19,,5,5,30,29,3,2,0.5,0.4
2026-01-01T1000,3672A,116.1507,39.8246,北京市,丰台云岗,,44,44,50,13,15,18,,6,6,36,37,3,2,0.5,0.4
2026-01-01T1000,3674A,115.9578,39.7602,北京市,房山燕山,,27,27,30,18,14,29,,18,18,22,22,3,3,0.4,0.3
2026-01-01T1000,3675A,116.4669,39.7734,北京市,大兴旧宫,,,,37,,11,,,50,1,,33,,2,,0.4
2026-01-01T1000,3694A,115.9859,40.4562,北京市,延庆石河营,,46,46,39,31,23,16,,5,5,28,21,3,3,1.3,0.8
2026-01-01T1000,3695A,116.6151,40.3052,北京市,怀柔新城,,22,22,14,15,11,34,,28,27,15,11,4,4,0.4,0.3
2026-01-01T1000,3696A,116.2542,39.8764,北京市,丰台小屯,,39,39,39,16,15,15,,3,3,39,38,5,3,0.7,0.6
2026-01-01T1000,3697A,116.8399,40.3843,北京市,密云镇,,,,21,,8,,,61,6,,26,,1,,0.4
2026-01-01T1000,4057A,115.9423,40.4431,北京市,延庆百泉,颗粒物(PM10),52,53,65,33,43,18,,4,4,26,30,3,1,0.9,0.8
2026-01-01T1000,4058A,116.6598,39.9164,北京市,通州新华,,39,39,41,16,18,17,,5,5,36,49,3,3,0.4,0.5
2026-01-01T1000,4182A,116.1942,39.9158,北京市,石景山八角,颗粒物(PM10),51,51,40,18,13,12,,5,5,46,36,1,3,0.5,0.3
2026-01-01T1000,4194A,117.078628,40.151726,北京市,平谷新城,,,,16,,11,,,52,18,,12,,2,,0.4
2026-01-01T1000,1761A,123.8274146,41.31234549,本溪市,大峪,细颗粒物(PM2.5),75,98,55,55,25,22,,9,9,21,27,11,9,1.5,1.1
2026-01-01T1000,1763A,123.7169,41.3094,本溪市,彩屯,细颗粒物(PM2.5),89,104,74,66,42,16,,5,5,33,35,33,11,1.6,1.4
2026-01-01T1000,1764A,123.7672166,41.28649327,本溪市,东明,细颗粒物(PM2.5),78,90,60,57,38,21,,7,7,22,28,13,8,1.6,1.2
2026-01-01T1000,1765A,123.799345,41.266614,本溪市,新立屯,细颗粒物(PM2.5),59,59,31,42,17,23,,6,6,20,25,14,9,1.4,1.1
2026-01-01T1000,1766A,123.829144,41.336777,本溪市,威宁,颗粒物(PM10),74,98,54,40,27,21,,10,10,23,28,6,6,1.2,1
2026-01-01T1000,2587A,105.287,27.3133,毕节市,八中,,,36,28,32,22,,,46,45,12,10,8,8,1.0,0.8
2026-01-01T1000,2588A,105.3079,27.2987,毕节市,师专,,28,24,22,19,17,42,,52,50,23,11,7,8,0.7,0.7
2026-01-01T1000,4263A,105.3688,27.3598,毕节市,工业大道,,39,30,24,27,20,44,,44,42,12,10,10,10,/,/
2026-01-01T1000,1629A,117.9961,37.3604,滨州市,第二水厂,,44,44,25,23,12,28,,14,11,32,23,14,11,0.8,0.6
2026-01-01T1000,1630A,117.9789,37.3931,滨州市,北中新校,,32,31,32,22,13,28,,11,11,18,25,8,8,0.6,0.5
2026-01-01T1000,3514A,117.9379,37.3959,滨州市,中海酒店,细颗粒物(PM2.5),55,46,27,39,20,24,,11,11,39,33,12,9,0.9,0.8
2026-01-01T1000,3515A,117.9381509,37.35547456,滨州市,开发区一中,,48,48,29,31,15,25,,9,9,29,21,16,12,0.7,0.5
2026-01-01T1000,3516A,118.0914,37.6938,滨州市,金海六路,颗粒物(PM10),58,66,32,39,18,22,,8,8,34,32,25,11,1.0,0.7
2026-01-01T1000,4028A,117.9955,37.3752,滨州市,滨州市西街道办事处,,32,27,20,22,16,38,,19,19,22,20,11,10,0.6,0.5
2026-01-01T1000,2311A,115.8071,33.8399,亳州市,污水处理厂,,50,37,42,35,30,32,,33,31,23,21,5,4,0.3,0.3
2026-01-01T1000,2312A,115.7789,33.8519,亳州市,三国揽胜宫,颗粒物(PM10),63,75,53,28,28,28,,32,28,14,14,4,2,0.4,0.5
2026-01-01T1000,3332A,115.7631,33.803,亳州市,亳州学院,,48,39,45,33,35,30,,35,31,20,17,4,3,0.5,0.5
2026-01-01T1000,2693A,82.0482,44.8553,博尔塔拉蒙古自治州,市党校,,49,49,71,21,38,39,,62,58,16,18,4,4,0,0.2
2026-01-01T1000,2694A,82.0805,44.8966,博尔塔拉蒙古自治州,市环保局,颗粒物(PM10),58,65,77,28,37,33,,46,45,25,24,8,8,1.0,0.9
2026-01-01T1000,1071A,116.8733,38.2922,沧州市,沧县城建局,细颗粒物(PM2.5),54,56,44,38,27,25,,10,10,42,40,5,4,0.6,0.5
2026-01-01T1000,1072A,116.8462,38.3189,沧州市,电视转播站,,49,49,45,22,24,25,,8,8,35,39,7,5,0.5,0.5
2026-01-01T1000,1073A,116.8588,38.3161,沧州市,市环保局,,50,48,44,35,33,25,,12,12,26,31,5,5,0.4,0.4
2026-01-01T1000,3324A,116.8011,38.294,沧州市,河北水利电力学院,颗粒物(PM10),57,63,42,20,22,15,,5,5,45,42,7,6,0.5,0.4
2026-01-01T1000,2622A,97.1813,31.1289,昌都市,昌都监测站,,,,43,,15,,,89,55,,18,,2,,0.6
2026-01-01T1000,3719A,97.1707,31.1428,昌都市,昌都会议中心,,,,19,,13,51,,57,56,5,7,4,5,0.5,0.5
2026-01-01T1000,2692A,87.2722,44.0298,昌吉回族自治州,新区政务中心,细颗粒物(PM2.5),57,60,83,40,54,4,,19,16,62,38,6,6,0.9,0.9
2026-01-01T1000,3613A,87.3069,44.0093,昌吉回族自治州,亚心广场,细颗粒物(PM2.5),83,75,84,61,60,34,,45,45,34,19,7,7,0.9,1
2026-01-01T1000,4164A,87.2057,43.9289,昌吉回族自治州,财政所,细颗粒物(PM2.5),64,63,58,46,45,52,,55,55,11,9,5,5,0.6,0.6
2026-01-01T1000,1120A,125.2874,43.9024,长春市,客车厂,细颗粒物(PM2.5),58,,45,41,39,27,,18,18,25,30,23,10,0.8,0.5
2026-01-01T1000,1121A,125.2943,43.8508,长春市,邮电学院,,33,24,44,23,32,30,,19,19,14,23,20,13,0.4,0.5
2026-01-01T1000,1122A,125.3648,43.8745,长春市,劳动公园,,23,23,41,16,26,30,,22,22,17,24,8,9,0.6,0.7
2026-01-01T1000,1123A,125.3233,43.8781,长春市,园林处,,35,,46,24,34,31,,21,21,12,23,16,12,0.2,0.3
2026-01-01T1000,1124A,125.4604,43.7904,长春市,净月潭,细颗粒物(PM2.5),52,40,44,36,28,25,,12,12,20,20,9,6,0.5,0.5
2026-01-01T1000,1126A,125.38,43.8422,长春市,经开区环卫处,,28,22,80,19,48,32,,11,11,14,30,7,11,0.4,0.6
2026-01-01T1000,1127A,125.234,43.7761,长春市,高新区管委会,,23,23,55,15,47,31,,10,10,12,28,15,8,0.6,0.9
2026-01-01T1000,1128A,125.1695,43.83,长春市,岱山公园,,,46,56,44,46,28,,10,10,,33,20,10,0.5,0.7
2026-01-01T1000,4281A,125.334645,43.916281,长春市,北亚泰大街1068号,,29,20,42,20,34,31,,14,14,16,28,11,10,0.6,0.7
2026-01-01T1000,1335A,113.082,28.2421,长沙市,经开区环保局,,32,22,65,22,54,26,,25,24,14,18,2,3,0.3,0.5
2026-01-01T1000,1336A,112.8873,28.2202,长沙市,高开区环保局,,35,27,58,24,46,30,,26,26,10,11,3,4,0.5,0.7
2026-01-01T1000,1337A,113.0785,28.2012,长沙市,马坡岭,,33,23,69,23,53,26,,28,25,20,22,3,4,0.7,0.6
2026-01-01T1000,1338A,112.9448,28.1894,长沙市,湖南师范大学,,32,29,67,22,46,33,,31,31,12,14,1,1,0.5,0.7
2026-01-01T1000,1339A,113.0177,28.1322,长沙市,雨花区环保局,,39,,64,27,55,28,,28,27,13,16,6,6,0.4,0.6
2026-01-01T1000,1340A,112.9795,28.2593,长沙市,伍家岭,,28,28,67,19,47,30,,28,28,18,22,4,4,0.2,0.3
2026-01-01T1000,1341A,113.002,28.1944,长沙市,火车新站,,45,,72,31,51,28,,28,28,7,10,6,7,0.5,0.6
2026-01-01T1000,1342A,112.9846,28.1177,长沙市,天心区环保局,,39,29,72,27,57,31,,30,30,19,20,6,6,0.3,0.5
2026-01-01T1000,1343A,112.8906,28.1307,长沙市,湖南中医药大学,,36,26,68,25,52,33,,29,29,13,16,5,5,0.5,0.7
2026-01-01T1000,1727A,113.1146,36.1547,长治市,清华站,细颗粒物(PM2.5),83,62,43,61,39,29,,29,29,23,21,12,11,1.0,0.7
2026-01-01T1000,1730A,113.0887,36.2126,长治市,审计局,,,,37,53,33,,,24,22,18,21,14,9,0.9,0.8
2026-01-01T1000,1731A,113.0845,36.1856,长治市,长治八中,细颗粒物(PM2.5),75,61,46,55,38,28,,20,20,22,20,12,9,0.9,0.8
2026-01-01T1000,2845A,113.1561,36.1912,长治市,德盛苑,细颗粒物(PM2.5),94,,43,70,41,32,,24,24,18,14,11,8,1.1,0.8
2026-01-01T1000,3568A,113.0603,36.0464,长治市,向阳小学,细颗粒物(PM2.5),108,106,64,81,42,26,,30,28,29,27,14,9,1.4,0.9
2026-01-01T1000,3569A,112.8788,36.315,长治市,屯留一中,细颗粒物(PM2.5),87,,47,64,34,30,,36,33,19,22,8,10,0.7,0.5
2026-01-01T1000,4189A,113.113092,36.199482,长治市,英华南巷50号,细颗粒物(PM2.5),83,,49,61,45,30,,25,24,21,18,10,7,1.1,0.9
2026-01-01T1000,4190A,113.23666,36.33435,长治市,学府街1号,细颗粒物(PM2.5),93,,39,69,34,30,,32,29,23,18,12,12,1.2,1
2026-01-01T1000,1854A,111.696,28.9725,常德市,市二中,细颗粒物(PM2.5),53,38,52,37,39,36,,36,36,17,18,4,4,0.4,0.6
2026-01-01T1000,3138A,111.7152,29.0288,常德市,武陵区永安,,46,41,53,32,38,35,,36,36,23,24,2,3,0.6,0.8
2026-01-01T1000,3139A,111.6891,28.9881,常德市,鼎城区玉霞,,50,38,46,35,40,36,,36,36,19,22,6,6,0.4,0.6
2026-01-01T1000,3140A,111.6651,29.0526,常德市,武陵区长庚,,49,47,52,34,39,35,,36,36,16,18,3,3,0.5,0.7
2026-01-01T1000,1196A,119.9524,31.7586,常州市,市监测站,,21,21,28,14,13,48,,55,53,15,17,3,5,0.3,0.3
2026-01-01T1000,1200A,119.9351,31.703,常州市,武进监测站,,17,17,25,8,15,52,,55,54,12,15,9,9,0.1,0.1
2026-01-01T1000,3002A,119.9701,31.813,常州市,行政中心,,15,14,30,7,12,48,,54,52,15,13,3,4,0.3,0.3
2026-01-01T1000,3003A,120.0434,31.7726,常州市,经开区,,23,23,29,8,11,50,,53,52,5,10,2,4,0.4,0.4
2026-01-01T1000,3010A,119.8919,31.7892,常州市,钟楼,,18,18,27,10,10,48,,53,52,11,13,5,6,0.2,0.2
2026-01-01T1000,3429A,119.8595,31.706,常州市,武进经发区,,,22,29,11,12,47,,52,51,,15,6,7,0.3,0.4
2026-01-01T1000,3430A,119.5812,31.7256,常州市,金坛城区,,24,24,30,16,14,45,,50,48,10,12,5,6,0.5,0.5
2026-01-01T1000,4089A,119.9551,31.863,常州市,崇义南街5-H号,,17,17,14,9,3,50,,55,54,9,5,4,4,0.4,0.3
2026-01-01T1000,2220A,120.4318,41.588,朝阳市,西梁,,48,48,81,12,52,46,,12,12,14,36,5,12,0.5,1
2026-01-01T1000,2221A,120.452,41.565,朝阳市,河畔小区,,29,29,62,18,49,50,,18,18,9,27,6,9,0.7,0.9
2026-01-01T1000,2222A,120.4176,41.5648,朝阳市,八里堡,,,,70,,50,38,,9,9,23,34,,12,,1.1
2026-01-01T1000,3026A,116.6179,23.6608,潮州市,市政府,,44,44,57,26,33,49,,37,30,15,19,6,11,0.5,0.5
2026-01-01T1000,4036A,116.646,23.676,潮州市,金山,颗粒物(PM10),54,57,46,26,32,45,,31,27,11,15,4,4,0.4,0.4
2026-01-01T1000,2473A,113.0116,25.8228,郴州市,市职中,,15,12,74,10,69,16,,28,23,16,16,2,8,0.5,0.7
2026-01-01T1000,2475A,113.0381,25.8074,郴州市,市审计局,,10,10,80,7,70,19,,30,25,12,15,1,7,/,/
2026-01-01T1000,2476A,113.0348,25.7757,郴州市,市环保局,,8,8,91,3,64,17,,27,23,14,19,1,11,0.5,0.7
2026-01-01T1000,4252A,113.0138,25.8011,郴州市,好美居路49号,,8,,79,3,74,23,,35,30,7,17,3,8,/,/
2026-01-01T1000,1431A,103.9727,30.7242,成都市,金泉两河,,42,42,52,28,37,58,,59,59,24,25,2,2,0.6,0.6
2026-01-01T1000,1432A,104.1423,30.6765,成都市,十里店,细颗粒物(PM2.5),57,42,49,40,39,52,,58,55,26,21,3,3,0.7,0.6
2026-01-01T1000,1433A,104.0594,30.5765,成都市,三瓦窑,细颗粒物(PM2.5),57,,56,40,46,57,,61,60,27,22,3,3,0.6,0.7
2026-01-01T1000,1434A,104.1122,30.6306,成都市,沙河铺,细颗粒物(PM2.5),60,43,61,43,46,47,,54,52,31,25,4,4,0.6,0.7
2026-01-01T1000,2880A,104.0219,30.6561,成都市,大石西路,,43,39,54,30,41,58,,59,59,21,21,4,4,0.4,0.5
2026-01-01T1000,3136A,104.2724,30.559,成都市,龙泉驿区区政府,,42,36,43,29,36,29,,33,32,24,18,5,6,0.6,0.5
2026-01-01T1000,3357A,104.0028,30.6891,成都市,金博路,,48,34,45,33,28,55,,55,55,27,25,3,5,0.7,0.7
2026-01-01T1000,3359A,104.056,30.5228,成都市,华阳,,42,36,46,29,35,55,,57,56,27,25,3,3,0.6,0.6
2026-01-01T1000,3488A,104.387954,30.746684,成都市,青石路225号,,46,44,49,32,43,42,,51,45,30,20,5,5,0.6,0.6
2026-01-01T1000,3489A,104.0788,30.4054,成都市,科学城,,36,36,44,25,37,43,,58,56,25,19,6,6,0.8,0.7
2026-01-01T1000,4011A,103.8505,30.6946,成都市,光华大道三段,,50,39,49,35,39,62,,65,65,21,21,3,3,0.7,0.7
2026-01-01T1000,4144A,104.3257,30.6406,成都市,八角井街185号,颗粒物(PM10),53,56,38,34,24,39,,47,40,30,22,2,3,1.0,0.9
2026-01-01T1000,4224A,104.2433276,30.53529463,成都市,鲸龙路1057号,,50,40,41,35,36,41,,48,47,30,23,6,5,0.8,0.8
2026-01-01T1000,1062A,117.9531,40.908,承德市,铁路,颗粒物(PM10),57,63,45,19,24,13,,7,7,27,27,5,5,1.0,0.7
2026-01-01T1000,1063A,117.9397,40.9763,承德市,中国银行,,41,41,40,19,18,19,,7,7,17,20,3,2,0.7,0.5
2026-01-01T1000,4073A,117.9462,40.95,承德市,杏林街1号,颗粒物(PM10),57,63,55,35,34,14,,4,4,27,34,5,4,1.1,0.9
2026-01-01T1000,4274A,117.7994,40.9605,承德市,滨河大街98号,,32,32,38,3,17,26,,8,8,32,26,5,4,0.6,0.5
2026-01-01T1000,2314A,117.4698,30.6617,池州市,池州学院,,36,28,28,25,18,31,,44,40,22,17,3,4,0.4,0.3
2026-01-01T1000,3237A,117.4918,30.6617,池州市,展览馆,,,28,27,18,15,35,,42,40,21,21,2,3,,0.5
2026-01-01T1000,3333A,117.5626,30.695,池州市,第八中学,,23,22,31,16,18,47,,43,42,15,20,2,3,0.4,0.4
2026-01-01T1000,3334A,117.5037,30.6242,池州市,第十二中学,,20,20,30,14,15,44,,45,44,18,21,2,3,0.5,0.4
2026-01-01T1000,1744A,118.9229,42.2816,赤峰市,松山一中,,24,24,28,3,13,47,,42,42,12,16,7,6,0.6,0.6
2026-01-01T1000,1745A,118.9588,42.2733,赤峰市,哈达街,,21,21,39,6,26,54,,51,51,12,16,8,8,0.5,0.5
2026-01-01T1000,1746A,118.8792,42.2551,赤峰市,天义路,,18,12,19,11,14,56,,47,47,7,12,6,6,0.5,0.5
2026-01-01T1000,3058A,119.2656,42.0356,赤峰市,银河街,,30,30,58,21,34,49,,43,43,8,17,12,15,0.6,0.9
2026-01-01T1000,3286A,118.9359,42.3146,赤峰市,桥北物流园区,,17,17,17,10,14,52,,44,44,11,16,7,6,0.3,0.3
2026-01-01T1000,2521A,107.3473,22.4137,崇左市,市环保局江州分局,细颗粒物(PM2.5),73,76,66,53,44,57,,38,38,21,22,8,8,0.8,0.6
2026-01-01T1000,4256A,107.375,22.3736,崇左市,石景林东路7号,细颗粒物(PM2.5),85,69,52,63,40,67,,62,62,22,18,11,8,0.7,0.5
2026-01-01T1000,3207A,118.31131,32.3033,滁州市,市政府原办公楼,,33,32,39,23,18,45,,54,51,14,12,3,4,0.2,0.2
2026-01-01T1000,3331A,118.3268,32.2633,滁州市,图书馆,,49,,28,34,13,44,,50,47,8,8,7,7,0.4,0.3
2026-01-01T1000,4101A,118.3196,32.3335,滁州市,银山路666号,细颗粒物(PM2.5),52,,20,36,24,42,,51,47,7,4,6,7,0.3,0.3
2026-01-01T1000,4102A,118.3426,32.2979,滁州市,黄山路555号,细颗粒物(PM2.5),59,,27,42,22,47,,53,52,10,6,8,8,0.3,0.3
2026-01-01T1000,2606A,101.5379,25.0492,楚雄彝族自治州,市经济开发区,,50,44,37,35,26,14,,10,9,18,20,6,9,0.5,0.4
2026-01-01T1000,4153A,101.5536,25.0343,楚雄彝族自治州,团结路562号,,39,30,52,27,48,16,,12,12,14,20,4,5,0.5,0.5
2026-01-01T1000,2549A,107.5087,31.2186,达州市,市环境监测站,,26,26,20,9,13,32,,42,40,31,23,9,9,0.5,0.5
2026-01-01T1000,2550A,107.4988,31.2132,达州市,凤凰小区,,17,17,18,9,14,49,,50,49,15,17,7,8,0.4,0.4
2026-01-01T1000,2551A,107.5081,31.1987,达州市,达县机关宾馆,,38,34,23,26,20,30,,36,34,30,27,6,5,0.7,0.7
2026-01-01T1000,2552A,107.4644,31.2124,达州市,市政中心,,36,36,32,9,13,43,,44,43,18,15,10,9,0.5,0.5
2026-01-01T1000,2614A,100.2168,25.5818,大理白族自治州,大理市环境监测站,,25,18,20,17,19,48,,58,53,11,10,6,6,0.7,0.7
2026-01-01T1000,2615A,100.1542,25.7055,大理白族自治州,大理古城,,18,18,30,7,22,47,,50,47,16,17,9,8,0.6,0.5
2026-01-01T1000,1109A,121.6119,38.974,大连市,甘井子,,,33,24,30,17,,,32,32,20,20,12,10,0.8,0.7
2026-01-01T1000,1110A,121.565,38.9509,大连市,周水子,,43,34,25,30,17,34,,29,29,28,25,6,3,0.5,0.5
2026-01-01T1000,1111A,121.5637,38.8849,大连市,星海三站,,33,26,22,23,16,41,,35,35,18,17,8,6,0.6,0.5
2026-01-01T1000,1112A,121.6301,38.9117,大连市,青泥洼桥,,38,38,25,23,13,40,,30,30,17,20,12,9,0.5,0.4
2026-01-01T1000,1113A,121.6248,38.8643,大连市,傅家庄,,32,27,23,22,14,39,,34,34,15,15,11,10,0.3,0.3
2026-01-01T1000,1114A,121.5117,38.8636,大连市,七贤岭,,32,29,23,22,12,39,,44,44,16,15,9,8,0.6,0.5
2026-01-01T1000,1116A,121.7507,39.1339,大连市,金州,,45,38,26,31,16,39,,37,37,18,16,12,9,0.5,0.4
2026-01-01T1000,1117A,121.7811,39.0495,大连市,开发区,,28,28,22,19,18,45,,17,17,8,20,7,7,0.5,0.5
2026-01-01T1000,1118A,121.9762,39.0631,大连市,双D港,,41,41,23,27,12,49,,42,41,12,10,11,9,0.9,0.5
2026-01-01T1000,4082A,121.2548,38.8188,大连市,旅顺,,42,42,37,18,26,45,,38,38,9,13,7,7,0.6,0.7
2026-01-01T1000,1789A,124.8085,46.0381,大庆市,大同区,,43,43,35,26,25,38,,32,32,8,13,5,5,0.3,0.3
2026-01-01T1000,1790A,125.1166,46.5255,大庆市,龙凤区,,23,17,29,16,25,37,,32,32,21,24,7,8,0.7,0.7
2026-01-01T1000,1791A,124.8894,46.4007,大庆市,红岗区,,26,24,26,18,22,35,,30,30,13,14,6,6,0.5,0.6
2026-01-01T1000,1792A,125.1391,46.578,大庆市,萨尔图区,,18,18,30,9,18,37,,38,37,16,14,8,7,0.4,0.5
2026-01-01T1000,1793A,124.9026,46.6217,大庆市,让胡路区,,32,27,30,22,27,45,,41,41,7,9,8,9,0.4,0.4
2026-01-01T1000,3481A,125.127,46.6277,大庆市,萨区政府监测点,,21,21,31,7,18,38,,32,32,15,18,10,9,0.5,0.6
2026-01-01T1000,1723A,113.2926,40.0759,大同市,云冈宾馆,颗粒物(PM10),77,103,85,47,50,16,,6,6,37,42,27,15,2.4,1.6
2026-01-01T1000,1724A,113.3437,40.0921,大同市,大同大学,细颗粒物(PM2.5),70,62,62,51,41,25,,20,20,31,36,29,18,1.4,1
2026-01-01T1000,1725A,113.2637,40.129,大同市,安家小村,细颗粒物(PM2.5),77,91,80,56,36,20,,10,10,32,38,36,19,2.7,2
2026-01-01T1000,3282A,113.3399,40.0586,大同市,大同市卫生学校,颗粒物(PM10),61,71,91,39,45,16,,12,12,40,41,30,20,2.0,1.3
2026-01-01T1000,3565A,113.1371,40.1122,大同市,云冈站,颗粒物(PM10),73,95,60,36,28,22,,7,7,26,31,34,17,0.9,1
2026-01-01T1000,3566A,113.1186,40.2556,大同市,图书馆,细颗粒物(PM2.5),94,,41,70,27,18,,11,11,17,16,10,6,1.4,1.2
2026-01-01T1000,3567A,113.5931,40.0459,大同市,区一中,细颗粒物(PM2.5),129,192,90,98,54,28,,21,21,36,34,38,18,2.3,1.2
2026-01-01T1000,4199A,113.2798248,40.09972476,大同市,魏都大道141号,细颗粒物(PM2.5),82,109,107,60,56,17,,8,8,34,41,27,14,2.5,1.9
2026-01-01T1000,2269A,124.1068,50.4091,大兴安岭地区,科技局,,23,,19,16,17,46,,48,48,2,2,5,6,0.3,0.3
2026-01-01T1000,3663A,124.117,50.4279,大兴安岭地区,红旗社区,,18,,8,6,8,55,,53,53,3,3,6,6,0.2,0.2
2026-01-01T1000,1600A,124.33,40.0625,丹东市,江湾东路,,23,23,29,16,21,41,,24,24,9,15,7,8,0.4,0.6
2026-01-01T1000,1601A,124.4242,40.1513,丹东市,临江后街,,46,46,32,27,17,29,,14,14,17,18,8,10,1.0,0.8
2026-01-01T1000,1602A,124.3935,40.1461,丹东市,元宝山,,42,41,24,29,15,25,,21,18,22,15,12,10,0.9,0.6
2026-01-01T1000,1603A,124.3634,40.1093,丹东市,民主桥,,33,33,33,13,18,40,,26,26,10,15,9,8,0.4,0.5
2026-01-01T1000,3541A,109.5726195,19.51688767,儋州市,第一中学子站,,25,25,30,16,18,74,,65,63,9,13,3,3,0.4,0.5
2026-01-01T1000,3542A,109.5567,19.5187,儋州市,东坡学校子站,,,32,31,14,19,,,66,62,4,6,,5,0.4,0.4
2026-01-01T1000,2616A,98.5611,24.4273,德宏傣族景颇族自治州,德宏州监测站,细颗粒物(PM2.5),59,57,57,42,45,21,,13,9,19,22,6,6,0.7,0.7
2026-01-01T1000,3677A,98.5887,24.4366,德宏傣族景颇族自治州,芒市人民政府综合楼,细颗粒物(PM2.5),58,51,58,41,37,11,,17,13,28,29,9,9,0.9,0.7
2026-01-01T1000,1901A,104.424,31.1209,德阳市,东山公园,,43,35,41,30,37,58,,61,61,17,16,2,3,0.7,0.7
2026-01-01T1000,1902A,104.3827,31.1318,德阳市,西小区,,50,,53,35,41,58,,61,60,22,20,3,2,0.9,0.8
2026-01-01T1000,1904A,104.3553,31.1091,德阳市,耐火材料厂,,50,44,43,35,36,50,,57,56,25,23,1,2,0.8,0.8
2026-01-01T1000,4145A,104.4144,31.1495,德阳市,市林业局,细颗粒物(PM2.5),52,40,35,36,30,46,,55,54,25,18,2,2,0.7,0.6
2026-01-01T1000,1622A,116.3034,37.4675,德州市,儿童乐园,,48,48,42,27,20,33,,24,24,32,32,15,12,1.0,0.9
2026-01-01T1000,1624A,116.2992,37.4449,德州市,监理站,颗粒物(PM10),59,68,37,34,21,33,,28,27,42,31,19,14,0.8,0.6
2026-01-01T1000,3066A,116.2722,37.438,德州市,九衢泉纯净水厂,细颗粒物(PM2.5),79,85,59,58,36,12,,4,4,47,40,8,9,0.6,0.5
2026-01-01T1000,3371A,116.3693,37.44,德州市,开发区人民医院,颗粒物(PM10),52,53,43,34,24,37,,22,22,35,43,16,14,0.8,0.6
2026-01-01T1000,3511A,116.5687,37.3331,德州市,陵城艺术中心,,48,48,37,31,19,34,,24,24,34,33,89,23,0.6,0.5
2026-01-01T1000,4292A,116.352738,37.420875,德州市,新河东路,细颗粒物(PM2.5),67,68,50,48,33,22,,10,10,45,46,18,15,0.9,0.8
2026-01-01T1000,2621A,99.7054,27.8319,迪庆藏族自治州,迪庆州站,颗粒物(PM10),57,63,41,30,26,48,,46,45,14,14,6,6,0.7,0.6
2026-01-01T1000,3180A,99.7122,27.8129,迪庆藏族自治州,质量技术监督局,,47,47,43,31,32,38,,46,44,31,20,5,5,0.8,0.6
2026-01-01T1000,4257A,104.6092,35.5962,定西市,将台街,细颗粒物(PM2.5),69,80,70,50,47,59,,56,56,16,17,7,8,0.5,0.5
2026-01-01T1000,4309A,104.6159,35.5701,定西市,正龙路62号,细颗粒物(PM2.5),89,88,79,66,58,52,,51,51,12,13,6,5,0.7,0.7
2026-01-01T1000,1390A,113.7943,23.0132,东莞市,东城石井,细颗粒物(PM2.5),67,66,67,48,43,61,,24,24,35,44,10,9,0.8,0.8
2026-01-01T1000,1391A,113.7384,22.9659,东莞市,南城西平,细颗粒物(PM2.5),84,93,81,62,49,48,,9,9,46,65,11,9,0.8,0.8
2026-01-01T1000,3319A,113.7283,23.041,东莞市,万江金泰,细颗粒物(PM2.5),84,86,92,62,60,57,,24,24,32,42,8,8,0.9,0.9
2026-01-01T1000,4129A,113.8666,23.1062,东莞市,裕兴路,细颗粒物(PM2.5),75,87,114,55,73,60,,27,27,25,44,7,7,0.8,0.9
2026-01-01T1000,4130A,114.0076,22.9739,东莞市,教育路1号,细颗粒物(PM2.5),64,74,104,46,60,59,,20,17,25,49,7,7,0.8,0.9
2026-01-01T1000,4131A,113.7981,22.8124,东莞市,长怡路1号,颗粒物(PM10),55,59,83,35,43,60,,34,34,22,45,9,8,0.6,0.7
2026-01-01T1000,1666A,118.6612,37.4313,东营市,市环保局,颗粒物(PM10),51,51,24,24,11,26,,24,20,41,29,14,10,0.9,0.7
2026-01-01T1000,3036A,118.6903,37.4337,东营市,开发区管委会,颗粒物(PM10),51,52,28,24,11,32,,29,26,38,24,16,12,0.9,0.8
2026-01-01T1000,3365A,118.5721,37.5654,东营市,垦利区民丰路,,34,34,23,22,10,35,,20,17,36,25,16,6,1.0,0.9
2026-01-01T1000,3498A,118.5063,37.8606,东营市,河口城区,颗粒物(PM10),53,56,22,32,8,29,,22,20,39,30,5,4,0.9,0.6
2026-01-01T1000,3646A,118.4979,37.4623,东营市,胜利站,颗粒物(PM10),51,51,28,29,14,24,,15,12,42,31,18,13,0.9,0.7
2026-01-01T1000,3734A,118.5753,37.4405,东营市,理想之城,,41,41,27,27,16,31,,20,18,33,28,11,7,0.8,0.7
2026-01-01T1000,1591A,110.0024,39.8127,鄂尔多斯市,综合楼,,,,38,,28,,,58,58,18,22,9,11,0.7,0.7
2026-01-01T1000,1592A,109.9485,39.8259,鄂尔多斯市,巴音孟克林场办事处,,19,14,49,7,26,60,,60,60,19,25,10,13,0.7,0.5
2026-01-01T1000,1593A,109.7734,39.5987,鄂尔多斯市,康泽苑,,27,27,22,12,13,42,,43,43,23,18,5,5,0.5,0.4
2026-01-01T1000,1594A,109.8121,39.5987,鄂尔多斯市,华泰汽车城,,24,24,34,14,18,26,,18,18,21,27,3,3,0.4,0.4
2026-01-01T1000,1595A,109.9734,39.7884,鄂尔多斯市,奥林花园,,27,27,65,3,19,65,,44,44,16,36,5,8,0.6,0.7
2026-01-01T1000,2436A,114.894,30.3989,鄂州市,市政府,,17,17,35,8,23,32,,33,30,16,18,3,5,0.4,0.5
2026-01-01T1000,2437A,114.8986,30.3714,鄂州市,赵家坝,,,,44,,27,,,35,33,10,10,,7,0.5,0.7
2026-01-01T1000,3654A,114.8093,30.4091,鄂州市,精准医疗中心,,15,14,44,10,29,37,,40,36,3,8,4,5,0.7,0.6
2026-01-01T1000,2454A,109.4978,30.2979,恩施土家族苗族自治州,湖北民院,,29,21,28,20,23,45,,44,44,10,12,6,5,0.6,0.7
2026-01-01T1000,3549A,109.5061,30.3771,恩施土家族苗族自治州,龙凤新区,,23,22,27,16,23,36,,38,37,9,7,6,6,0.5,0.5
2026-01-01T1000,2499A,108.3411,21.6159,防城港市,沙万,细颗粒物(PM2.5),75,98,77,55,50,64,,89,80,29,29,9,10,0.8,0.9
2026-01-01T1000,2500A,108.3515,21.7733,防城港市,防城档案局,细颗粒物(PM2.5),62,65,79,44,47,56,,43,43,23,24,7,7,0.7,0.8
2026-01-01T1000,2501A,108.3506,21.6414,防城港市,大海花园,细颗粒物(PM2.5),74,93,78,54,56,73,,98,88,22,20,13,13,0.9,0.9
2026-01-01T1000,1371A,113.1293,23.0065,佛山市,湾梁,细颗粒物(PM2.5),109,112,128,82,79,9,,2,2,72,72,/,/,/,/
2026-01-01T1000,1372A,113.1082,23.0477,佛山市,华材职中,细颗粒物(PM2.5),84,107,97,62,54,8,,9,5,63,59,6,7,0.8,0.8
2026-01-01T1000,1373A,113.1439,23.045,佛山市,南海气象局,细颗粒物(PM2.5),85,103,96,63,47,10,,3,3,65,62,/,/,/,/
2026-01-01T1000,1374A,113.2879,22.8094,佛山市,顺德苏岗,颗粒物(PM10),63,76,84,39,54,59,,10,10,32,64,/,/,0.7,0.9
2026-01-01T1000,1376A,112.8384,22.8678,佛山市,高明孔堂,细颗粒物(PM2.5),103,139,75,77,53,5,,16,8,72,48,/,/,/,/
2026-01-01T1000,1377A,112.8835,23.1584,佛山市,三水监测站,细颗粒物(PM2.5),74,85,117,54,64,19,,5,5,44,64,13,9,0.9,1
2026-01-01T1000,1378A,112.8668,23.185,佛山市,三水云东海,细颗粒物(PM2.5),73,75,92,53,62,18,,3,3,46,56,/,/,/,/
2026-01-01T1000,3625A,113.2568,22.7629,佛山市,容桂街道办,细颗粒物(PM2.5),89,92,88,66,57,20,,20,20,55,54,/,/,/,/
2026-01-01T1000,1282A,119.2681,26.0506,福州市,师大,,34,34,28,15,13,68,,77,73,19,18,8,8,0.5,0.4
2026-01-01T1000,1283A,119.2983,26.1028,福州市,五四北路,,40,40,35,16,13,65,,78,73,17,15,6,6,0.6,0.6
2026-01-01T1000,1284A,119.2648,26.0769,福州市,杨桥西路,,34,34,33,14,12,68,,77,74,13,12,6,5,/,/
2026-01-01T1000,3048A,119.5799,26.0937,福州市,九龙,,34,34,32,10,8,69,,77,73,15,15,6,5,0.4,0.4
2026-01-01T1000,3526A,119.5188,25.9666,福州市,吴航,,26,26,25,14,12,69,,77,74,13,13,5,5,0.5,0.4
2026-01-01T1000,4104A,119.3106,26.0648,福州市,路通桥巷6号,,29,29,26,17,15,66,,76,72,10,8,/,/,/,/
2026-01-01T1000,1755A,123.7974,41.8494,抚顺市,望花区,,48,41,57,33,35,27,,14,14,23,28,5,5,1.0,1
2026-01-01T1000,1756A,123.9161,41.8827,抚顺市,顺城区,,44,44,55,26,33,31,,19,19,19,30,11,9,0.8,0.8
2026-01-01T1000,1757A,124.0437,41.8615,抚顺市,东洲区,,33,31,39,23,30,29,,13,13,11,23,12,8,0.7,0.8
2026-01-01T1000,1758A,123.9246,41.8638,抚顺市,新抚区,细颗粒物(PM2.5),52,50,53,36,33,28,,12,12,18,29,13,9,0.8,0.8
2026-01-01T1000,1759A,124.0972,41.8961,抚顺市,大伙房水库,细颗粒物(PM2.5),65,62,35,47,24,27,,17,17,19,19,21,12,1.0,0.7
2026-01-01T1000,1760A,123.708,41.8386,抚顺市,沈抚新城,细颗粒物(PM2.5),64,,52,46,33,28,,17,17,22,27,10,9,1.2,1
2026-01-01T1000,2377A,116.3544,27.9833,抚州市,市站,,19,19,54,11,31,37,,42,39,12,17,7,9,0.6,0.6
2026-01-01T1000,2378A,116.3562,27.9631,抚州市,血防站,,22,22,53,12,33,39,,43,41,13,17,3,7,0.8,1
2026-01-01T1000,2379A,116.3561,28.0007,抚州市,采茶剧团,,23,22,53,16,32,38,,50,47,4,10,3,9,0.5,0.7
2026-01-01T1000,2380A,116.3854,27.9648,抚州市,医学分院,,22,22,59,10,29,43,,46,43,10,13,3,6,0.5,0.6
2026-01-01T1000,2207A,121.6095,41.9978,阜新市,工业园区,,32,32,69,8,36,50,,33,33,5,22,7,14,0.3,0.7
2026-01-01T1000,2208A,121.6567,42.0188,阜新市,长青街,,16,14,52,7,38,49,,37,37,6,20,6,9,0.5,1.1
2026-01-01T1000,2209A,121.6672,42.07,阜新市,农业园区,,18,18,22,9,8,47,,46,46,5,8,5,7,0.3,0.3
2026-01-01T1000,2211A,121.6343,42.0455,阜新市,玉龙新城,,,54,54,3,24,45,,20,20,6,27,,6,0.5,0.8
2026-01-01T1000,2301A,115.8276,32.8929,阜阳市,市监测站,颗粒物(PM10),51,51,52,30,33,42,,47,46,21,18,4,4,0.4,0.4
2026-01-01T1000,2303A,115.8551,32.8606,阜阳市,开发区,,48,,31,33,31,43,,46,46,17,16,4,4,0.3,0.4
2026-01-01T1000,2875A,115.783962,32.889217,阜阳市,阜阳职业技术学院,,,31,42,22,28,,,53,53,13,13,5,5,0.5,0.5
2026-01-01T1000,3468A,115.79,32.8614,阜阳市,市规划展馆,,45,45,44,31,28,55,,53,53,14,17,5,5,0.4,0.5
2026-01-01T1000,3469A,115.835101,32.918568,阜阳市,枣园社区,,43,37,49,30,26,48,,48,48,12,15,4,4,0.4,0.7
2026-01-01T1000,2669A,102.9097,34.9841,甘南藏族自治州,州政府,细颗粒物(PM2.5),82,83,69,60,44,36,,31,31,26,23,3,6,0.9,0.8
2026-01-01T1000,3380A,102.8915,34.9618,甘南藏族自治州,甘肃民族师范学院,细颗粒物(PM2.5),68,73,77,49,41,64,,33,33,16,28,4,7,1.0,0.9
2026-01-01T1000,2570A,101.96,30.048,甘孜藏族自治州,水桥子,,25,25,13,3,7,31,,45,42,28,15,6,7,0.7,0.8
2026-01-01T1000,3065A,101.9534,29.9976,甘孜藏族自治州,州环保局,,27,27,23,9,8,45,,52,52,18,17,6,6,0.6,0.6
2026-01-01T1000,2363A,114.9368,25.8663,赣州市,地委,颗粒物(PM10),63,75,84,38,54,37,,66,57,15,25,6,8,0.5,0.9
2026-01-01T1000,2364A,114.946,25.8483,赣州市,气象台,颗粒物(PM10),55,59,83,28,46,42,,73,61,19,35,1,3,0.6,0.9
2026-01-01T1000,2365A,114.932,25.8332,赣州市,市图书馆,,49,49,80,27,50,36,,66,55,18,34,4,5,0.6,1
2026-01-01T1000,2366A,114.8905,25.8472,赣州市,华坚鞋城,,49,48,80,34,49,37,,67,52,17,29,4,8,0.3,0.7
2026-01-01T1000,3109A,115.0094,25.8614,赣州市,赣县区卫计委,,45,35,69,31,58,39,,47,47,11,36,7,7,0.4,0.6
2026-01-01T1000,2684A,106.2753,36.0057,固原市,监测站,细颗粒物(PM2.5),64,46,48,46,38,47,,50,50,15,17,3,3,0.5,0.5
2026-01-01T1000,2685A,106.2384,36.0189,固原市,新区,细颗粒物(PM2.5),67,,45,48,39,48,,52,52,15,18,2,2,0.6,0.6
2026-01-01T1000,2544A,106.6307,30.4577,广安市,市委,,20,14,38,14,36,37,,43,41,17,18,6,6,0.9,0.9
2026-01-01T1000,2545A,106.6266,30.4662,广安市,友谊中学,,26,,37,18,35,46,,56,52,16,16,4,4,0.9,0.9
2026-01-01T1000,2547A,106.6386,30.4551,广安市,广电花园,,16,13,31,11,36,37,,44,42,16,16,8,8,0.7,0.7
2026-01-01T1000,2902A,106.6347,30.4868,广安市,北辰小学,,18,13,36,12,38,42,,49,46,10,11,9,10,1.0,1
2026-01-01T1000,2524A,105.8211,32.4444,广元市,老城,,26,26,23,16,16,57,,57,52,24,22,2,6,0.6,0.6
2026-01-01T1000,2526A,105.8629,32.429,广元市,监测站,,26,25,25,18,15,55,,67,63,23,17,4,4,0.7,0.7
2026-01-01T1000,3617A,105.8047,32.4167,广元市,经开区,,25,22,20,17,16,53,,53,48,22,23,1,1,0.7,0.7
2026-01-01T1000,1345A,113.2346,23.1423,广州市,广雅中学,细颗粒物(PM2.5),67,79,75,48,44,20,,6,6,43,50,4,4,0.9,0.9
2026-01-01T1000,1346A,113.2611,23.105,广州市,市五中,细颗粒物(PM2.5),79,88,79,58,48,31,,11,11,67,72,8,9,/,/
2026-01-01T1000,1348A,113.3477,23.0916,广州市,广东商学院,细颗粒物(PM2.5),88,88,85,65,57,21,,4,4,53,63,10,9,0.8,0.8
2026-01-01T1000,1349A,113.4332,23.105,广州市,市八十六中,细颗粒物(PM2.5),65,65,70,47,49,31,,8,8,48,60,11,10,/,/
2026-01-01T1000,1350A,113.3506,22.9488,广州市,番禺中学,细颗粒物(PM2.5),109,126,98,82,58,37,,9,9,62,66,10,8,0.9,0.9
2026-01-01T1000,1351A,113.2147,23.3918,广州市,花都师范,细颗粒物(PM2.5),62,70,76,44,42,30,,17,17,43,56,11,7,0.7,0.7
2026-01-01T1000,1352A,113.2599,23.1329,广州市,市监测站,细颗粒物(PM2.5),72,81,91,52,60,28,,9,9,44,57,3,3,/,/
2026-01-01T1000,1353A,113.5618,23.3119,广州市,九龙镇镇龙,细颗粒物(PM2.5),62,66,72,44,47,20,,3,3,36,36,6,6,0.7,0.7
2026-01-01T1000,1354A,113.2764,23.1544,广州市,麓湖,细颗粒物(PM2.5),65,64,66,47,45,29,,6,6,38,54,8,8,0.4,0.5
2026-01-01T1000,2846A,113.3209,23.1323,广州市,体育西,细颗粒物(PM2.5),70,83,79,51,47,30,,11,11,50,60,9,8,0.8,0.8
2026-01-01T1000,3298A,113.5718,23.5493,广州市,从化街口,细颗粒物(PM2.5),98,92,72,73,55,20,,3,3,35,34,34,10,0.8,0.9
2026-01-01T1000,3299A,113.3463,23.369,广州市,白云竹料,细颗粒物(PM2.5),74,77,80,54,50,19,,6,6,38,44,8,5,0.8,0.8
2026-01-01T1000,3300A,113.2981,23.2365,广州市,白云嘉禾,细颗粒物(PM2.5),70,82,72,51,39,18,,6,6,53,52,8,6,/,/
2026-01-01T1000,3301A,113.4256,23.1716,广州市,黄埔科学城,细颗粒物(PM2.5),73,73,73,53,46,48,,14,14,29,43,6,4,0.8,0.8
2026-01-01T1000,3302A,113.3942,23.0485,广州市,番禺大学城,细颗粒物(PM2.5),87,120,113,64,53,34,,9,9,45,55,14,17,0.7,0.7
2026-01-01T1000,3303A,113.4923,22.8169,广州市,南沙黄阁,细颗粒物(PM2.5),62,57,77,44,43,64,,36,36,31,55,7,6,/,/
2026-01-01T1000,3304A,113.534,22.7893,广州市,南沙街,细颗粒物(PM2.5),63,73,76,45,40,68,,43,43,26,43,7,5,0.6,0.7
2026-01-01T1000,3443A,113.2905,23.5541,广州市,花都梯面,细颗粒物(PM2.5),68,69,48,49,31,32,,10,10,26,29,15,7,/,/
2026-01-01T1000,3445A,113.786,23.7479,广州市,从化良口,,30,28,30,21,24,27,,20,15,15,16,8,9,/,/
2026-01-01T1000,3446A,113.805,23.2614,广州市,增城荔城,细颗粒物(PM2.5),64,57,54,46,40,44,,30,30,16,25,12,7,0.6,0.6
2026-01-01T1000,2506A,109.604387,23.066791,贵港市,江南子站,细颗粒物(PM2.5),74,66,91,54,64,50,,38,37,12,23,5,11,0.9,0.9
2026-01-01T1000,2508A,109.5669,23.1065,贵港市,荷城子站,细颗粒物(PM2.5),62,58,74,44,55,43,,50,49,13,19,4,10,1.2,1.1
2026-01-01T1000,3405A,109.5886,23.1172,贵港市,新世纪学校,细颗粒物(PM2.5),65,63,86,47,60,46,,48,48,16,23,/,/,0.8,0.7
2026-01-01T1000,4260A,109.5933,23.095,贵港市,中山路155-3号,细颗粒物(PM2.5),75,62,75,55,58,50,,51,49,14,24,/,/,0.8,0.8
2026-01-01T1000,1439A,106.6863,26.6035,贵阳市,马鞍山,,18,12,13,9,13,57,,50,50,9,12,4,4,/,/
2026-01-01T1000,1441A,106.6241,26.6266,贵阳市,鉴湖路,,18,17,25,7,12,55,,53,53,15,16,2,3,0.7,0.7
2026-01-01T1000,1442A,106.7468,26.6344,贵阳市,燕子冲,,20,14,17,14,17,56,,58,58,10,11,6,6,0.8,0.7
2026-01-01T1000,1443A,106.6556,26.4362,贵阳市,碧云窝,,27,27,26,12,12,52,,51,51,11,13,4,5,/,/
2026-01-01T1000,1445A,106.6963,26.6063,贵阳市,红边门,,18,17,16,12,12,46,,51,51,14,13,6,6,/,/
2026-01-01T1000,1446A,106.7162383,26.56964667,贵阳市,新华路,,24,24,23,9,12,52,,55,55,12,13,4,4,0.7,0.6
2026-01-01T1000,1447A,106.6742,26.542,贵阳市,太慈桥,,20,12,17,9,11,61,,58,58,13,16,4,4,/,/
2026-01-01T1000,4230A,106.688212,26.56952,贵阳市,花果园大街66号,,20,,9,14,17,50,,48,48,12,14,2,2,/,/
2026-01-01T1000,4231A,106.687268,26.516892,贵阳市,漓江路57号,,17,17,20,7,13,48,,52,52,16,18,6,6,0.9,0.9
2026-01-01T1000,1864A,110.3091,25.2705,桂林市,龙隐路小学,,12,6,69,3,62,38,,49,44,12,16,5,7,0.7,0.9
2026-01-01T1000,1865A,110.2849361,25.22909545,桂林市,八中,,11,6,67,3,65,35,,48,42,18,20,6,8,0.6,0.7
2026-01-01T1000,3531A,110.296,25.1254,桂林市,旅游学院,,16,6,65,3,58,50,,57,52,12,16,3,5,0.7,0.8
2026-01-01T1000,4222A,110.1835,25.2444,桂林市,环湖路276号,,13,,72,9,60,31,,42,37,12,16,5,7,0.6,0.6
2026-01-01T1000,4301A,110.2803,25.2773,桂林市,信义路13号,,12,6,64,3,62,37,,49,44,15,17,5,6,0.7,0.8
2026-01-01T1000,2674A,100.2262,34.4854,果洛藏族自治州,玛沁县大武镇,,23,23,40,3,13,32,,34,32,12,5,18,15,0.5,0.4
2026-01-01T1000,1130A,126.5557,45.8109,哈尔滨市,松北商大,颗粒物(PM10),51,52,38,35,25,27,,21,21,19,23,23,13,0.7,0.5
2026-01-01T1000,1132A,126.6162,45.719,哈尔滨市,南岗学府路,,42,30,32,29,21,23,,14,14,21,21,32,23,0.7,0.6
2026-01-01T1000,1133A,126.6894,45.7733,哈尔滨市,太平宏伟公园,,,45,35,26,23,30,,21,21,,20,24,30,0.6,0.8
2026-01-01T1000,1134A,126.6361,45.7672,哈尔滨市,道外承德广场,颗粒物(PM10),51,51,50,34,25,28,,22,22,20,22,22,15,0.6,0.5
2026-01-01T1000,1136A,126.644,45.7261,哈尔滨市,动力和平路,,49,37,36,34,23,27,,20,20,21,19,22,16,0.7,0.6
2026-01-01T1000,1137A,126.5933,45.7479,哈尔滨市,道里建国路,细颗粒物(PM2.5),54,,33,38,28,27,,18,18,16,19,12,11,0.8,0.2
2026-01-01T1000,1138A,126.6127,45.6119,哈尔滨市,平房东轻厂,细颗粒物(PM2.5),57,54,42,40,35,17,,7,7,20,28,11,7,0.7,0.7
2026-01-01T1000,1139A,126.5875,45.9827,哈尔滨市,呼兰师专,,48,38,39,33,32,30,,16,16,10,19,5,5,0.7,0.7
2026-01-01T1000,1140A,126.6299,45.6799,哈尔滨市,省农科院,,50,47,41,35,32,29,,15,15,20,27,12,13,0.7,0.7
2026-01-01T1000,4282A,126.6769,45.7379,哈尔滨市,华山路1号,,45,36,33,31,23,28,,21,21,20,22,34,24,0.6,0.6
2026-01-01T1000,4283A,126.9717,45.5356,哈尔滨市,解放大街52号,细颗粒物(PM2.5),95,,51,71,48,21,,12,12,25,26,12,9,1.2,0.9
2026-01-01T1000,2688A,93.5124,42.8176,哈密市,地区监测站,细颗粒物(PM2.5),82,78,64,60,47,16,,13,13,36,28,4,6,0.6,0.5
2026-01-01T1000,2689A,93.5014,42.8312,哈密市,哈密师范学校,颗粒物(PM10),71,92,72,44,34,12,,6,6,46,34,3,3,0.8,0.5
2026-01-01T1000,2671A,100.9016,36.9464,海北藏族自治州,海晏县西海镇,细颗粒物(PM2.5),55,39,34,39,28,59,,50,50,11,9,7,9,0.7,0.6
2026-01-01T1000,3867A,102.074,36.5056,海东市,平安区公安局北苑,细颗粒物(PM2.5),104,79,78,78,63,38,,54,51,10,17,10,27,1.0,0.9
2026-01-01T1000,4163A,102.0984,36.5119,海东市,滨河路,细颗粒物(PM2.5),85,75,61,63,56,40,,56,54,30,24,9,15,1.1,0.8
2026-01-01T1000,1410A,110.3189,20.0596,海口市,海南大学,,34,34,29,14,15,90,,97,97,7,8,6,6,0.3,0.3
2026-01-01T1000,1411A,110.2827,20.0051,海口市,秀英海南医院,,36,36,36,14,14,83,,88,88,9,10,7,7,0.3,0.3
2026-01-01T1000,1412A,110.3391,19.9979,海口市,海南师范大学,,40,40,38,14,16,89,,95,94,8,9,6,6,0.4,0.4
2026-01-01T1000,1413A,110.3303,20.0359,海口市,龙华路环保局宿舍,,39,39,38,16,17,92,,97,97,9,11,/,/,0.6,0.6
2026-01-01T1000,3539A,110.5111,19.9737,海口市,桂林洋子站,,31,31,26,14,14,84,,82,81,6,8,/,/,/,/
2026-01-01T1000,4134A,110.1952,20.0451,海口市,长滨二路9号,,32,32,30,17,16,89,,94,94,5,6,/,/,/,/
2026-01-01T1000,2673A,100.6158,36.2985,海南藏族自治州,共和县恰卜恰镇,颗粒物(PM10),55,59,33,18,15,37,,44,44,30,20,12,12,0.6,0.4
2026-01-01T1000,2676A,97.373,37.376,海西蒙古族藏族自治州,德令哈市,,25,10,23,6,9,80,,80,79,2,5,15,11,0.4,0.6
2026-01-01T1000,1049A,114.492,36.5712,邯郸市,矿院,细颗粒物(PM2.5),58,44,38,41,32,25,,18,18,34,33,8,6,0.6,0.5
2026-01-01T1000,1050A,114.4839,36.6136,邯郸市,丛台公园,,45,39,30,31,23,35,,36,33,24,26,6,5,0.5,0.4
2026-01-01T1000,3458A,114.7893,36.5592,邯郸市,香泉濮院小区,细颗粒物(PM2.5),65,48,35,47,28,33,,26,25,25,26,6,5,0.7,0.5
2026-01-01T1000,3580A,114.1998,36.4439,邯郸市,峰峰矿区临水派出所,细颗粒物(PM2.5),79,,32,58,30,37,,28,28,19,24,7,8,1.3,0.7
2026-01-01T1000,4068A,114.5209,36.7697,邯郸市,建安街268号,,45,45,48,23,24,18,,7,7,37,51,7,6,0.6,0.5
2026-01-01T1000,4069A,114.5488,36.6177,邯郸市,丛台东路558号,颗粒物(PM10),62,73,74,26,24,27,,10,10,34,49,8,8,0.4,0.4
2026-01-01T1000,2635A,107.0155,33.0707,汉中市,市监测站,,19,13,19,13,18,56,,64,62,14,13,4,4,0.4,0.5
2026-01-01T1000,2636A,107.0083,33.114,汉中市,鑫源开发区,,25,,16,17,18,61,,68,66,13,13,3,4,0.5,0.5
2026-01-01T1000,2637A,107.0072,33.0323,汉中市,南郑大河坎水厂,,23,20,25,16,21,52,,62,59,16,14,6,5,0.5,0.6
2026-01-01T1000,1223A,120.2073,30.2111,杭州市,滨江,,23,23,35,13,16,34,,49,43,22,20,9,9,0.2,0.2
2026-01-01T1000,1224A,120.0625,30.2737,杭州市,西溪,,24,24,40,10,13,41,,52,48,24,26,8,8,0.5,0.5
2026-01-01T1000,1226A,120.3417,30.315,杭州市,下沙,,26,26,35,10,16,38,,46,43,20,22,7,7,0.9,0.7
2026-01-01T1000,1227A,120.1252,30.2465,杭州市,卧龙桥,,22,22,35,9,14,42,,51,47,14,18,8,9,0.5,0.4
2026-01-01T1000,1228A,120.1902,30.2691,杭州市,浙江农大,,23,23,36,12,17,41,,52,47,22,25,2,3,0.2,0.2
2026-01-01T1000,1230A,120.1195,30.3121,杭州市,和睦小学,,22,21,37,15,20,45,,60,57,15,19,4,4,0.4,0.4
2026-01-01T1000,1231A,120.3076,30.4146,杭州市,临平镇,,,21,34,10,14,44,,51,49,,14,,7,0.4,0.4
2026-01-01T1000,1232A,120.2753,30.1839,杭州市,城厢镇,,28,28,43,12,17,41,,54,49,15,18,7,8,0.4,0.3
2026-01-01T1000,1233A,120.0883,30.1808,杭州市,云栖,,22,22,32,10,15,46,,54,49,12,17,4,4,0.5,0.5
2026-01-01T1000,3557A,119.9463,30.0496,杭州市,镇二中,,,10,29,8,16,,,54,,,26,4,5,0.6,0.5
2026-01-01T1000,3558A,119.7184,30.2367,杭州市,市府大楼,,14,14,34,6,16,44,,52,49,10,18,9,10,0.6,0.5
2026-01-01T1000,3656A,120.1554,30.2863,杭州市,消防大队,,24,24,39,13,19,40,,48,44,17,18,6,6,0.2,0.3
2026-01-01T1000,1270A,117.1957,31.7845,合肥市,明珠广场,,20,,26,14,12,45,,47,46,9,9,5,5,0.4,0.4
2026-01-01T1000,1271A,117.307,31.8765,合肥市,三里街,,18,14,24,12,11,43,,45,43,16,17,4,4,0.6,0.6
2026-01-01T1000,1272A,117.2587,31.8703,合肥市,琥珀山庄,,22,22,28,15,15,45,,48,46,14,14,7,7,0.6,0.5
2026-01-01T1000,1275A,117.2593,31.9376,合肥市,庐阳区,,18,17,26,12,12,49,,52,50,15,15,1,2,0.5,0.5
2026-01-01T1000,1276A,117.345251,31.861615,合肥市,瑶海区,,18,14,24,12,9,47,,50,48,12,16,4,4,0.7,0.6
2026-01-01T1000,1277A,117.3033,31.7967,合肥市,包河区,,28,22,28,19,15,35,,40,37,24,25,4,6,0.6,0.7
2026-01-01T1000,1278A,117.278,31.7392,合肥市,滨湖新区,,28,,26,19,18,44,,48,46,15,16,2,4,0.7,0.7
2026-01-01T1000,1279A,117.1324,31.8395,合肥市,高新区,,23,17,26,16,11,43,,52,50,18,14,3,4,0.4,0.4
2026-01-01T1000,3464A,117.3802,31.9148,合肥市,高教基地,,18,,21,12,12,47,,48,46,10,13,5,6,0.4,0.4
2026-01-01T1000,4098A,117.2518,31.8404,合肥市,中国科学技术大学,,,20,14,8,5,,,52,51,11,9,4,4,0.3,0.3
2026-01-01T1000,3614A,79.9241,37.0878,和田地区,地区环保局,颗粒物(PM10),60,70,60,42,27,29,,40,38,17,17,3,2,0.5,0.9
2026-01-01T1000,3615A,79.9132,37.1137,和田地区,市环保局,颗粒物(PM10),77,104,70,22,24,35,,43,41,24,19,1,1,2.0,1.3
2026-01-01T1000,2517A,108.0496,24.6957,河池市,市环保站,,15,,44,7,34,45,,42,42,11,16,2,6,0.9,0.9
2026-01-01T1000,4302A,108.0901,24.6945,河池市,上任中路54号,,14,8,43,3,33,43,,42,42,12,18,4,8,0.9,0.9
2026-01-01T1000,1697A,114.6962,23.7538,河源市,东埔,细颗粒物(PM2.5),58,57,64,41,46,29,,12,12,23,33,8,7,0.9,0.8
2026-01-01T1000,1698A,114.6895,23.7232,河源市,老城,,46,,63,32,45,21,,12,12,20,26,8,7,0.9,0.9
2026-01-01T1000,3374A,115.5562,35.089,菏泽市,定陶老年大学,,44,44,38,24,19,31,,39,36,18,20,6,7,0.7,0.7
2026-01-01T1000,4114A,115.4239,35.2593,菏泽市,黄河路600号,颗粒物(PM10),55,60,40,37,24,34,,27,27,19,25,3,6,0.6,0.6
2026-01-01T1000,4115A,115.5025,35.2727,菏泽市,菏泽市人社局,颗粒物(PM10),56,61,44,35,21,30,,27,27,21,22,10,8,0.4,0.4
2026-01-01T1000,4184A,115.479691,35.244011,菏泽市,永昌路1号,,,67,46,,24,33,,36,35,18,18,,8,0.8,0.7
2026-01-01T1000,4193A,115.471542,35.280012,菏泽市,长城路999号,颗粒物(PM10),57,63,47,39,19,31,,29,28,21,20,7,7,0.8,0.7
2026-01-01T1000,2514A,111.5264,24.4178,贺州市,环保小区,,32,25,71,22,55,34,,46,46,18,24,4,7,0.9,1
2026-01-01T1000,2515A,111.561,24.4074,贺州市,政协大楼,,12,12,61,3,47,33,,45,45,17,24,7,9,0.7,0.7
2026-01-01T1000,3534A,111.4744,24.455,贺州市,西湾,,14,11,64,6,47,42,,49,49,10,22,6,7,0.8,0.8
2026-01-01T1000,2385A,114.17,35.9019,鹤壁市,市监测站,细颗粒物(PM2.5),55,58,41,39,27,26,,38,37,16,21,6,7,0.7,0.6
2026-01-01T1000,2386A,114.2953,35.7512,鹤壁市,市交警支队,,,56,44,42,20,,,23,23,17,21,4,7,0.7,0.5
2026-01-01T1000,2387A,114.2877,35.7302,鹤壁市,迎宾馆,,,,44,,26,31,,46,43,16,20,,6,0.7,0.6
2026-01-01T1000,3474A,114.2616,35.6824,鹤壁市,大新区,细颗粒物(PM2.5),55,47,36,39,20,31,,45,40,20,23,3,5,0.6,0.6
2026-01-01T1000,3596A,114.1573,35.9607,鹤壁市,南山宾馆,颗粒物(PM10),53,55,49,35,26,31,,32,32,9,18,5,6,0.5,0.5
2026-01-01T1000,2244A,130.2537,47.3416,鹤岗市,哈啤分公司,,22,22,21,12,13,50,,48,48,3,3,6,6,0.4,0.4
2026-01-01T1000,2245A,130.2683,47.3087,鹤岗市,斯达机电,,23,16,20,16,17,52,,51,51,4,4,5,5,0.4,0.4
2026-01-01T1000,2246A,130.3114,47.3388,鹤岗市,东山纸板厂,,32,24,20,22,19,53,,54,54,3,2,7,6,0.4,0.2
2026-01-01T1000,2263A,127.4832,50.2524,黑河市,交通局,,22,,14,15,16,55,,54,54,7,6,3,4,0.2,0.2
2026-01-01T1000,2264A,127.5146,50.2339,黑河市,环保局,,18,14,15,12,18,52,,51,51,8,7,4,5,0.3,0.3
2026-01-01T1000,1074A,115.6839,37.754,衡水市,电机北厂,,47,47,30,26,21,27,,10,10,31,35,9,4,0.5,0.4
2026-01-01T1000,1075A,115.6303,37.7318,衡水市,市监测站,颗粒物(PM10),57,63,39,22,21,17,,6,6,44,39,9,5,0.6,0.4
2026-01-01T1000,3188A,115.6684,37.7216,衡水市,市城管局,,,55,44,23,27,,,2,2,39,42,9,6,0.6,0.5
2026-01-01T1000,3459A,115.599,37.5491,衡水市,地表水厂,细颗粒物(PM2.5),77,70,42,56,28,16,,5,5,41,41,9,6,0.8,0.5
2026-01-01T1000,2457A,112.6209,26.9268,衡阳市,衡阳化工总厂,,36,,77,25,68,22,,26,24,19,17,5,7,1.1,1.1
2026-01-01T1000,2458A,112.621,26.8957,衡阳市,珠晖区环保局,,,,74,37,78,,,22,20,18,19,3,4,1.2,1.3
2026-01-01T1000,2459A,112.628,26.8654,衡阳市,市委党校,,35,,69,24,71,22,,28,25,16,17,5,6,0.9,1.1
2026-01-01T1000,2460A,112.6007,26.8977,衡阳市,市监测站,,40,36,95,28,67,21,,27,24,11,13,5,7,0.7,0.9
2026-01-01T1000,2461A,112.5658,26.9013,衡阳市,真空机电公司,,39,33,86,27,70,22,,27,24,15,18,5,8,0.8,1
2026-01-01T1000,3399A,112.6703,26.8817,衡阳市,师范学院,,33,27,76,23,62,23,,30,27,16,19,3,3,1.1,1.2
2026-01-01T1000,3038A,103.3757,23.3679,红河哈尼族彝族自治州,州图书馆,,40,40,33,23,22,58,,56,56,8,6,6,7,0.5,0.4
2026-01-01T1000,4154A,103.401,23.3561,红河哈尼族彝族自治州,蒙自市朝阳路,细颗粒物(PM2.5),54,,28,38,24,61,,61,61,9,6,10,10,0.4,0.4
2026-01-01T1000,1090A,111.6506,40.7517,呼和浩特市,呼市一监,颗粒物(PM10),60,70,78,42,59,24,,8,8,30,37,5,4,0.7,0.6
2026-01-01T1000,1094A,111.7516,40.8369,呼和浩特市,如意水处理厂,细颗粒物(PM2.5),68,73,64,49,40,15,,4,4,50,46,18,13,1.0,0.6
2026-01-01T1000,1095A,111.727798,40.806187,呼和浩特市,二十九中,,50,50,72,32,41,17,,8,8,40,40,15,14,0.6,0.5
2026-01-01T1000,1097A,111.717,40.7617,呼和浩特市,化肥厂生活区,细颗粒物(PM2.5),60,63,78,43,53,17,,10,10,34,38,9,8,0.8,0.6
2026-01-01T1000,3699A,111.6519,40.8389,呼和浩特市,海东办,,,,139,,121,,,52,,,46,,12,,0.7
2026-01-01T1000,4275A,111.591512,40.827312,呼和浩特市,成吉思汗西街8号,细颗粒物(PM2.5),84,70,69,62,52,7,,3,3,50,48,12,11,0.9,0.6
2026-01-01T1000,4276A,111.6597,40.8077,呼和浩特市,公园东路75号,,,44,95,38,57,30,,14,14,39,45,,10,0.6,0.5
2026-01-01T1000,4277A,111.5427,40.7846,呼和浩特市,金海路35号,细颗粒物(PM2.5),117,94,97,88,68,10,,3,3,48,46,12,13,1.0,0.6
2026-01-01T1000,3061A,119.7511,49.1576,呼伦贝尔市,国华电力东,,38,30,31,26,27,37,,33,33,20,20,6,6,0.2,0.3
2026-01-01T1000,4279A,119.7569,49.2222,呼伦贝尔市,伊敏大街东7号,,42,33,39,29,33,35,,32,32,17,17,6,7,0.5,0.4
2026-01-01T1000,1250A,120.075,30.867,湖州市,城西水厂,,20,18,28,9,14,62,,66,64,9,11,8,8,0.3,0.1
2026-01-01T1000,2873A,120.083,30.8929,湖州市,仁皇山新区,,,17,27,9,13,62,,65,63,,17,8,8,0.4,0.2
2026-01-01T1000,2907A,120.1846,30.8592,湖州市,吴兴区站,,23,23,32,9,12,56,,61,58,9,12,4,6,0.5,0.5
2026-01-01T1000,3562A,120.4146,30.8538,湖州市,南浔区站,,15,14,27,6,13,46,,49,48,14,16,4,5,0.3,0.3
2026-01-01T1000,1607A,120.904878,40.721091,葫芦岛市,龙港区,,30,30,47,8,31,51,,26,26,6,25,10,18,0.8,1
2026-01-01T1000,1608A,120.8382,40.7521,葫芦岛市,化工街,,27,27,52,9,34,49,,30,30,8,25,11,31,0.4,0.6
2026-01-01T1000,1609A,120.8339,40.7078,葫芦岛市,新区,,17,14,44,6,30,54,,32,32,7,30,7,15,0.4,0.7
2026-01-01T1000,1610A,120.8697,40.7679,葫芦岛市,东城区,,20,,66,14,58,50,,35,35,7,26,9,28,0.7,1
2026-01-01T1000,2483A,109.9297,27.5383,怀化市,河西地税局,,35,26,31,24,30,25,,33,28,17,17,5,4,/,/
2026-01-01T1000,2484A,109.9783,27.5342,怀化市,市四医院,,28,23,31,19,27,18,,24,20,11,10,10,9,0.6,0.7
2026-01-01T1000,2485A,109.9971,27.5579,怀化市,监测楼,,29,,30,20,21,26,,34,30,40,28,2,2,0.2,0.3
2026-01-01T1000,1210A,119.0566,33.5991,淮安市,钵池山,,44,44,32,30,23,39,,33,30,17,16,6,6,0.4,0.3
2026-01-01T1000,1211A,119.0083,33.578,淮安市,北京南路,,41,41,36,28,20,33,,30,26,13,11,7,6,0.7,0.6
2026-01-01T1000,1212A,118.9938,33.6083,淮安市,市监测站,细颗粒物(PM2.5),52,36,26,36,18,32,,29,26,19,15,8,8,0.6,0.4
2026-01-01T1000,1213A,119.135,33.5038,淮安市,楚州区监测站,细颗粒物(PM2.5),54,39,28,38,18,26,,34,28,15,10,8,8,0.6,0.4
2026-01-01T1000,3426A,118.8757,33.2897,淮安市,新华书店,细颗粒物(PM2.5),72,58,37,52,20,25,,33,27,19,15,8,8,1.0,0.5
2026-01-01T1000,4092A,119.119691,33.550006,淮安市,枚皋中路89号,细颗粒物(PM2.5),64,53,43,46,32,33,,41,35,18,15,8,8,1.1,0.9
2026-01-01T1000,4206A,119.028838,33.631911,淮安市,承德北路606号,,46,46,37,30,21,34,,31,28,16,14,8,6,0.8,0.5
2026-01-01T1000,2282A,116.8005,33.9749,淮北市,监测站,细颗粒物(PM2.5),70,66,48,51,23,30,,48,41,27,23,8,9,0.9,0.8
2026-01-01T1000,2283A,116.8094,33.9008,淮北市,烈山区政府,细颗粒物(PM2.5),67,60,42,48,26,36,,51,44,27,22,9,9,0.4,0.4
2026-01-01T1000,4017A,116.7926,33.9534,淮北市,市博物馆,细颗粒物(PM2.5),72,69,46,52,22,26,,48,40,31,22,9,10,0.4,0.4
2026-01-01T1000,4100A,116.8322,33.9884,淮北市,杜集区第一实验学校,细颗粒物(PM2.5),70,68,50,51,29,32,,48,42,15,12,7,6,0.8,0.7
2026-01-01T1000,2277A,116.8304,32.7726,淮南市,潘集区政府,,,,43,,33,,,44,42,10,12,7,5,0.5,0.4
2026-01-01T1000,2279A,116.8569,32.5949,淮南市,谢家集区政府,,46,46,37,31,18,35,,40,39,16,15,6,6,0.3,0.3
2026-01-01T1000,2280A,116.8279,32.6333,淮南市,八公山区政府,,49,45,36,34,22,37,,44,43,11,12,1,3,0.3,0.3
2026-01-01T1000,2894A,117.0561,32.6536,淮南市,经济技术开发区消防队,细颗粒物(PM2.5),60,51,51,43,26,32,,39,37,18,17,3,4,0.4,0.3
2026-01-01T1000,3329A,117.011,32.5891,淮南市,山南新区,颗粒物(PM10),51,51,41,28,14,39,,45,44,12,12,3,2,0.3,0.3
2026-01-01T1000,4209A,117.003137,32.644456,淮南市,国庆中路369号,细颗粒物(PM2.5),65,47,44,47,26,27,,33,32,17,15,3,4,0.4,0.3
2026-01-01T1000,2446A,114.9021,30.474,黄冈市,职工中心,,15,15,34,10,24,38,,40,39,9,11,5,6,0.5,0.6
2026-01-01T1000,2929A,114.8858,30.4519,黄冈市,红卫路,,,21,35,11,24,,,39,36,9,12,4,6,0.4,0.5
2026-01-01T1000,3398A,114.9134,30.4446,黄冈市,市林业局,,19,16,32,13,26,36,,38,36,10,14,5,5,0.4,0.5
2026-01-01T1000,2672A,102.02,35.5101,黄南藏族自治州,同仁县隆务镇,,37,37,52,17,29,52,,56,54,4,4,10,10,0.6,0.6
2026-01-01T1000,2295A,118.2905,29.6965,黄山市,延安路89号,,16,,22,6,17,50,,58,53,11,12,3,3,0.4,0.4
2026-01-01T1000,2297A,118.1369,30.2755,黄山市,黄山区政府5号楼,,13,,29,9,20,39,,51,46,12,14,6,6,0.5,0.4
2026-01-01T1000,4210A,118.335445,29.720283,黄山市,滨江东路7-2号,,18,,38,12,26,48,,55,51,12,12,/,/,/,/
2026-01-01T1000,2423A,115.0547,30.2332,黄石市,沈家营,,,,44,,16,,,34,31,9,10,,6,,1
2026-01-01T1000,2426A,114.899,30.211,黄石市,铁山,,28,28,41,12,19,28,,37,32,9,7,4,5,1.1,0.8
2026-01-01T1000,2427A,115.0259,30.2108,黄石市,团城山,,21,21,33,3,11,32,,38,34,11,11,6,6,0.4,0.5
2026-01-01T1000,3149A,115.0174,30.1591,黄石市,笔架山北路,,17,17,42,3,13,29,,37,33,9,10,7,7,0.7,0.8
2026-01-01T1000,4185A,115.078022,30.21118,黄石市,磁湖东路29号,,16,16,33,10,20,23,,29,26,8,15,6,7,0.6,0.7
2026-01-01T1000,1392A,114.4181,23.0528,惠州市,河南岸金山湖子站,细颗粒物(PM2.5),73,78,66,53,40,33,,30,26,26,28,13,5,0.7,0.7
2026-01-01T1000,1393A,114.4055,23.0824,惠州市,下埔横江三路子站,细颗粒物(PM2.5),82,87,65,60,40,34,,48,36,25,25,16,9,0.8,0.7
2026-01-01T1000,1395A,114.4645,22.7832,惠州市,惠阳区承修路船湖子站,颗粒物(PM10),57,63,53,37,29,56,,52,40,26,20,7,7,0.6,0.6
2026-01-01T1000,1396A,114.5316,22.7423,惠州市,大亚湾管委会子站,,48,48,44,27,22,74,,76,71,16,15,8,7,0.3,0.4
2026-01-01T1000,3314A,114.4334,22.8134,惠州市,惠阳秋长,颗粒物(PM10),59,68,58,41,30,64,,57,54,26,23,/,/,/,/
2026-01-01T1000,3452A,114.6521,22.7755,惠州市,大亚湾霞涌,,43,43,45,25,24,77,,58,50,14,16,/,/,/,/
2026-01-01T1000,4300A,114.4089,23.1147,惠州市,文华一路1号,细颗粒物(PM2.5),92,90,70,68,44,30,,26,12,29,33,/,/,/,/
2026-01-01T1000,2240A,130.9618,45.2926,鸡西市,环保局,,18,18,23,9,14,41,,41,41,6,5,6,5,0.2,0.2
2026-01-01T1000,2243A,130.9294,45.2959,鸡西市,第一中学,,18,18,19,11,12,46,,44,44,4,5,3,3,0.3,0.3
2026-01-01T1000,3707A,131.0069,45.2988,鸡西市,欧美日汽修厂,,36,36,36,10,12,48,,49,49,8,7,7,5,0.4,0.3
2026-01-01T1000,2367A,114.9753,27.0803,吉安市,红声器材厂,,34,34,80,23,52,39,,46,43,18,24,5,8,0.4,0.8
2026-01-01T1000,2369A,114.9903,27.1313,吉安市,市环境监测站,,29,29,80,18,49,41,,46,44,16,20,9,13,/,/
2026-01-01T1000,2370A,115.009527,27.096792,吉安市,青原区法院,,32,32,77,20,56,32,,42,39,20,18,11,11,0.7,0.8
2026-01-01T1000,1772A,126.54,43.8622,吉林市,哈达湾,细颗粒物(PM2.5),69,62,37,50,26,26,,19,19,23,19,10,6,1.6,1.3
2026-01-01T1000,1773A,126.5843,43.8358,吉林市,东局子,细颗粒物(PM2.5),94,70,44,70,31,4,,8,7,24,22,3,4,1.3,1
2026-01-01T1000,1774A,126.5051,43.8243,吉林市,电力学院,细颗粒物(PM2.5),93,88,53,69,44,25,,14,14,28,25,13,11,1.2,1
2026-01-01T1000,1775A,126.6133,43.8971,吉林市,江北,细颗粒物(PM2.5),117,110,61,88,46,15,,15,15,32,22,9,6,1.3,0.9
2026-01-01T1000,1776A,126.5549,43.8304,吉林市,江南公园,细颗粒物(PM2.5),107,92,54,80,50,19,,14,13,25,19,7,10,1.2,0.9
2026-01-01T1000,2868A,126.4737,43.953,吉林市,九站,细颗粒物(PM2.5),67,74,40,48,27,24,,9,9,24,25,7,6,1.0,0.8
2026-01-01T1000,1299A,116.9866,36.6118,济南市,科干所,,22,22,30,7,10,52,,46,46,17,21,6,7,0.6,0.7
2026-01-01T1000,1300A,116.9379,36.6652,济南市,农科所,,37,37,37,10,13,34,,22,20,33,26,9,7,0.7,0.7
2026-01-01T1000,1301A,117.1265,36.6736,济南市,开发区,,32,32,32,17,16,47,,43,43,20,18,6,6,0.6,0.6
2026-01-01T1000,1303A,117.0616,36.6865,济南市,省种子仓库,,,34,34,12,11,,,46,46,22,22,,7,0.4,0.5
2026-01-01T1000,1304A,116.9495185,36.644937,济南市,机床二厂,,20,20,31,10,11,48,,44,44,25,26,3,4,0.6,0.7
2026-01-01T1000,1305A,117.0496,36.6629,济南市,市监测站,,24,24,29,12,11,47,,41,41,18,16,3,6,0.5,0.6
2026-01-01T1000,1306A,116.7674,36.5458,济南市,长清党校,,15,15,40,10,14,38,,16,16,23,34,7,9,0.6,0.6
2026-01-01T1000,1961A,117.5323,36.6865,济南市,东山小学,,27,27,36,12,16,49,,30,30,18,20,6,10,0.7,0.9
2026-01-01T1000,3059A,117.7181,36.205,济南市,泰兴公司,,44,44,36,19,18,34,,23,20,34,29,12,6,0.7,0.6
2026-01-01T1000,3064A,117.6861,36.2172,济南市,莱芜战役纪念馆,,40,36,35,28,22,39,,24,24,32,28,16,9,0.5,0.3
2026-01-01T1000,3494A,117.1673,36.9782,济南市,济阳区政府,,34,34,37,15,14,45,,21,21,25,27,9,8,0.5,0.5
2026-01-01T1000,3495A,117.1168,36.6299,济南市,锦屏中学,,17,17,26,7,9,49,,43,43,18,18,5,4,0.4,0.4
2026-01-01T1000,4108A,117.7107,36.2385,济南市,山财大街5号,,25,25,48,17,17,39,,23,23,25,31,17,12,0.6,0.5
2026-01-01T1000,4109A,116.9744,36.6889,济南市,无影山路12号,,34,34,41,11,14,38,,28,28,27,33,10,9,0.4,0.5
2026-01-01T1000,1653A,116.6229,35.4288,济宁市,火炬城,,39,39,36,19,21,35,,30,29,23,18,8,7,0.4,0.3
2026-01-01T1000,3500A,116.5808,35.3703,济宁市,北湖一中,,42,34,34,29,24,31,,30,27,32,25,10,7,0.6,0.5
2026-01-01T1000,3501A,116.8251,35.5592,济宁市,服务中心,,44,44,40,24,16,24,,26,22,34,24,14,12,1.0,0.8
2026-01-01T1000,3678A,116.5907,35.4054,济宁市,市第七中学,,39,39,39,14,14,38,,33,32,23,21,11,9,0.5,0.5
2026-01-01T1000,4111A,116.6075,35.4566,济宁市,任和路,,40,40,39,17,11,29,,24,22,25,25,12,8,0.8,0.7
2026-01-01T1000,4112A,116.5648,35.3921,济宁市,文体南路1号,,42,42,42,17,13,34,,28,26,24,24,10,7,0.7,0.7
2026-01-01T1000,2255A,130.2749,46.8028,佳木斯市,佳纺,,35,27,26,24,18,38,,35,35,11,13,9,8,0.2,0.3
2026-01-01T1000,2257A,130.3258,46.7975,佳木斯市,环保局,,26,26,21,18,14,40,,39,38,11,12,8,7,0.4,0.3
2026-01-01T1000,4285A,130.363,46.806,佳木斯市,顺和街,,20,19,24,14,19,36,,32,32,11,13,8,9,0.4,0.4
2026-01-01T1000,4286A,130.3952,46.8268,佳木斯市,长安路196号,,22,22,21,12,13,40,,40,40,10,9,7,5,0.4,0.3
2026-01-01T1000,1252A,120.7439,30.778,嘉兴市,清河小学,,17,15,32,10,15,53,,54,54,11,16,4,5,0.4,0.2
2026-01-01T1000,1253A,120.7261,30.7477,嘉兴市,嘉兴学院,,18,18,32,6,13,51,,54,53,12,15,6,6,0.5,0.5
2026-01-01T1000,2872A,120.7845,30.7524,嘉兴市,南湖区残联,,19,19,37,8,15,56,,58,57,9,13,3,4,0.4,0.4
2026-01-01T1000,3407A,120.6915,30.7741,嘉兴市,秀洲住建,,17,15,34,8,14,52,,56,55,13,17,6,7,0.3,0.3
2026-01-01T1000,1945A,98.291,39.7705,嘉峪关市,气象局,,48,48,71,24,27,61,,55,54,8,9,1,2,0.5,0.5
2026-01-01T1000,2884A,98.2672,39.7978,嘉峪关市,酒钢宾馆,颗粒物(PM10),51,51,72,31,27,64,,51,51,7,11,11,14,0.5,0.7
2026-01-01T1000,3248A,98.2644,39.7723,嘉峪关市,雄关区,颗粒物(PM10),51,51,60,31,28,70,,50,50,9,14,14,15,0.7,0.8
2026-01-01T1000,1383A,113.1063,22.6058,江门市,北街,细颗粒物(PM2.5),63,71,71,45,45,47,,16,14,35,50,/,/,/,/
2026-01-01T1000,1384A,113.073,22.5835,江门市,西区,颗粒物(PM10),63,75,77,35,43,50,,8,8,36,55,/,/,/,/
2026-01-01T1000,1385A,113.0218,22.531,江门市,圭峰西,颗粒物(PM10),72,93,65,46,43,51,,45,37,46,46,/,/,/,/
2026-01-01T1000,1386A,113.0826,22.5947,江门市,东湖,细颗粒物(PM2.5),70,74,79,51,45,46,,8,8,45,57,7,7,0.6,0.8
2026-01-01T1000,3311A,113.1077,22.5647,江门市,江海富民,颗粒物(PM10),74,97,99,51,47,57,,21,21,38,57,/,/,0.6,0.7
2026-01-01T1000,3449A,113.0496,22.4669,江门市,新会银湖,颗粒物(PM10),66,82,61,47,44,45,,8,8,34,39,8,7,0.7,0.6
2026-01-01T1000,3335A,113.3137,35.2643,焦作市,马村街道办,细颗粒物(PM2.5),94,88,48,70,27,22,,35,31,20,16,3,4,0.6,0.4
2026-01-01T1000,3336A,113.2464,35.2374,焦作市,焦作技师学院,细颗粒物(PM2.5),98,87,49,73,30,18,,28,25,19,16,5,6,0.9,0.7
2026-01-01T1000,3477A,113.1656,35.2536,焦作市,中站许衡医院,细颗粒物(PM2.5),128,106,53,97,44,18,,28,24,23,18,3,3,1.1,0.7
2026-01-01T1000,3981A,113.2456,35.18,焦作市,原李万街道办,细颗粒物(PM2.5),58,47,46,41,23,29,,32,31,16,16,2,3,0.5,0.5
2026-01-01T1000,4264A,113.234,35.219,焦作市,新安路1731号,细颗粒物(PM2.5),98,85,51,73,32,25,,30,28,10,10,3,4,0.5,0.4
2026-01-01T1000,4295A,113.2722,35.2121,焦作市,人民路3066号,颗粒物(PM10),54,58,50,37,23,26,,30,29,13,12,3,5,0.4,0.1
2026-01-01T1000,1708A,116.3701,23.5345,揭阳市,新兴,细颗粒物(PM2.5),80,86,58,59,40,41,,35,28,45,30,27,11,0.7,0.7
2026-01-01T1000,1709A,116.3261,23.5442,揭阳市,西马,细颗粒物(PM2.5),80,95,64,59,38,37,,29,20,34,21,20,8,1.0,0.8
2026-01-01T1000,1710A,116.361,23.5627,揭阳市,东兴,颗粒物(PM10),68,85,57,46,33,41,,31,24,35,25,29,11,/,/
2026-01-01T1000,1711A,116.4151,23.5295,揭阳市,渔湖,细颗粒物(PM2.5),67,80,58,48,32,49,,30,24,29,27,17,8,/,/
2026-01-01T1000,3320A,116.4028,23.5699,揭阳市,曲溪,颗粒物(PM10),75,100,64,42,37,35,,36,29,43,26,66,10,0.7,0.5
2026-01-01T1000,1944A,102.1691,38.5166,金昌市,天庆家园,,49,36,68,34,39,47,,48,48,11,14,1,15,0.7,0.6
2026-01-01T1000,4022A,102.1648,38.5369,金昌市,金川区人防中心,细颗粒物(PM2.5),53,,58,37,39,46,,50,50,10,10,4,8,0.6,0.7
2026-01-01T1000,4239A,102.193042,38.531887,金昌市,长春路96号,细颗粒物(PM2.5),54,54,61,38,25,48,,53,51,8,9,4,5,0.7,0.8
2026-01-01T1000,1262A,119.6478,29.0773,金华市,十五中,,18,16,33,12,19,36,,58,53,20,20,2,3,0.4,0.4
2026-01-01T1000,1263A,119.6859,29.1032,金华市,监测站,,14,14,38,9,18,31,,54,48,28,27,1,2,0.3,0.2
2026-01-01T1000,3659A,119.656,29.1132,金华市,气象局,,,12,30,9,14,35,,51,46,20,25,2,2,,
2026-01-01T1000,1767A,121.1114,41.0879,锦州市,南山,,17,,41,8,34,54,,37,37,5,23,8,13,0.5,0.9
2026-01-01T1000,1768A,121.060361,40.842794,锦州市,开发区,,36,36,53,22,31,43,,17,17,13,33,10,16,0.7,0.8
2026-01-01T1000,1769A,121.1836,41.1118,锦州市,百股街道,,36,36,43,3,32,52,,25,25,7,27,16,18,0.7,1.1
2026-01-01T1000,1770A,121.1176,41.1224,锦州市,天安街道,,18,16,35,8,27,57,,42,42,7,23,10,15,0.5,0.9
2026-01-01T1000,1771A,121.1303,41.1385,锦州市,北湖公园,,17,14,33,6,23,52,,38,38,4,19,11,14,0.4,0.6
2026-01-01T1000,2160A,112.8496,35.5051,晋城市,自来水公司,颗粒物(PM10),69,87,71,40,37,23,,24,21,27,20,5,4,0.9,0.7
2026-01-01T1000,2162A,112.8509,35.4886,晋城市,市环保局,细颗粒物(PM2.5),70,60,56,51,34,23,,25,22,28,19,4,4,1.0,0.8
2026-01-01T1000,3620A,112.8258,35.4804,晋城市,泽州一中,细颗粒物(PM2.5),55,53,49,39,36,28,,28,26,26,21,3,3,0.9,0.8
2026-01-01T1000,4078A,112.8246,35.5152,晋城市,前书院路,颗粒物(PM10),55,60,58,36,37,16,,19,17,34,28,4,4,0.8,0.9
2026-01-01T1000,4079A,112.8864,35.4773,晋城市,祥云街666号,细颗粒物(PM2.5),89,88,57,66,46,28,,25,23,21,25,4,4,1.2,0.8
2026-01-01T1000,2174A,112.6992,37.6984,晋中市,榆次区政府,细颗粒物(PM2.5),190,190,100,143,64,10,,4,4,40,39,11,11,2.8,0.9
2026-01-01T1000,2865A,112.7195,37.683,晋中市,榆次三中,细颗粒物(PM2.5),132,163,88,100,45,2,,,,2,28,22,13,2.1,0.8
2026-01-01T1000,4080A,112.7375,37.7215,晋中市,广安街188号,细颗粒物(PM2.5),179,212,172,135,113,10,,4,4,38,43,7,8,1.4,1
2026-01-01T1000,4200A,112.7478,37.6954,晋中市,迎宾街26号,细颗粒物(PM2.5),163,168,93,124,56,11,,4,4,35,34,15,14,1.1,0.8
2026-01-01T1000,2439A,112.2012,31.048,荆门市,竹园小学,细颗粒物(PM2.5),59,53,61,42,52,36,,37,36,21,25,1,1,0,0.2
2026-01-01T1000,2440A,112.1968,30.9892,荆门市,掇刀,细颗粒物(PM2.5),58,54,75,41,52,37,,38,37,14,19,3,2,0.5,0.6
2026-01-01T1000,3012A,112.1849,31.0361,荆门市,西山林语,细颗粒物(PM2.5),75,,63,55,62,38,,38,38,14,19,10,7,0.6,0.7
2026-01-01T1000,3547A,112.1631,31.0134,荆门市,龙泉中学南校,细颗粒物(PM2.5),68,61,62,49,56,44,,42,42,7,11,5,5,0.2,0.4
2026-01-01T1000,4124A,112.2213,31.0654,荆门市,新台西路6号,细颗粒物(PM2.5),70,,48,51,46,39,,38,38,11,11,6,6,0.4,0.4
2026-01-01T1000,1844A,112.2493,30.3198,荆州市,市图书馆,细颗粒物(PM2.5),70,,51,51,66,35,,36,35,14,19,7,5,0.6,0.8
2026-01-01T1000,1845A,112.2009,30.3543,荆州市,市委党校,,,,53,,64,30,,31,31,16,22,,2,,0.8
2026-01-01T1000,3194A,112.2749,30.3124,荆州市,管委会,细颗粒物(PM2.5),65,48,51,47,62,34,,34,34,15,20,6,4,0.6,0.7
2026-01-01T1000,4268A,112.1722,30.3366,荆州市,学苑路85号,细颗粒物(PM2.5),64,50,50,46,52,38,,38,38,18,21,1,1,0.6,0.7
2026-01-01T1000,2343A,117.2114,29.2931,景德镇市,老干部活动中心,,15,13,29,10,21,38,,52,48,7,7,6,7,0.6,0.6
2026-01-01T1000,2344A,117.1893,29.2789,景德镇市,兽医站,,22,,37,15,20,43,,55,52,11,10,6,6,0.2,0.2
2026-01-01T1000,2346A,117.246,29.2958,景德镇市,陶研所,,13,,25,8,20,41,,55,51,4,6,5,4,0.6,0.5
2026-01-01T1000,4289A,117.154766,29.256967,景德镇市,青少年活动中心,,14,10,32,9,20,44,,58,54,11,12,3,6,/,/
2026-01-01T1000,1803A,115.9873,29.6816,九江市,十里,,26,,33,18,24,49,,51,51,15,17,3,4,0.6,0.6
2026-01-01T1000,1804A,115.9583,29.7047,九江市,茅山头,,18,14,37,12,24,44,,46,46,9,12,3,4,0.6,0.6
2026-01-01T1000,1805A,115.9877,29.7295,九江市,西园,,19,14,36,13,18,49,,51,51,17,25,1,2,0.6,0.6
2026-01-01T1000,1808A,115.9112,29.6038,九江市,综合工业园,,20,,33,14,22,49,,50,50,16,21,3,2,0.8,0.8
2026-01-01T1000,3190A,116.0254,29.6995,九江市,外国语学校,,,,33,18,19,,,43,43,12,17,6,7,0.6,0.6
2026-01-01T1000,4253A,116.010205,29.659402,九江市,莲花大道8号,,17,17,42,8,14,42,,46,45,5,8,2,3,0.3,0.3
2026-01-01T1000,4240A,98.495752,39.733935,酒泉市,玉门东路5号,颗粒物(PM10),51,51,80,22,26,48,,53,51,8,6,9,9,0.4,0.4
2026-01-01T1000,4241A,98.5099,39.7506,酒泉市,北大街108号,颗粒物(PM10),52,53,74,15,15,47,,54,53,15,12,7,9,0.4,0.3
2026-01-01T1000,2698A,76.0071,39.466,喀什地区,巡警大队,细颗粒物(PM2.5),100,91,64,75,46,6,,22,18,29,22,4,4,1.8,1.1
2026-01-01T1000,2699A,75.9756,39.4693,喀什地区,吾办,细颗粒物(PM2.5),69,69,62,50,49,8,,38,32,39,20,7,3,1.7,0.9
2026-01-01T1000,4027A,75.9485,39.4688,喀什地区,老干局,细颗粒物(PM2.5),97,100,76,72,52,6,,35,30,32,17,2,2,2.3,1.1
2026-01-01T1000,1824A,114.3389,34.778,开封市,肿瘤医院,,40,28,40,28,21,38,,41,40,14,18,3,5,0.9,0.9
2026-01-01T1000,1826A,114.2884,34.7966,开封市,世纪星幼儿园,,40,,34,28,22,37,,43,42,18,18,2,3,0.4,0.4
2026-01-01T1000,3147A,114.3434,34.8101,开封市,龙亭公园,,39,35,37,27,15,42,,43,43,9,11,2,3,1.1,1.1
2026-01-01T1000,3210A,114.3645,34.7955,开封市,汴京公园,,38,38,45,24,18,39,,43,42,17,16,4,5,0.6,0.7
2026-01-01T1000,3473A,114.2485,34.8306,开封市,技师学院,,38,,36,26,22,44,,42,42,11,16,5,6,0.5,0.5
2026-01-01T1000,3592A,114.4518,34.7503,开封市,祥符区生态环境局,,,47,42,28,20,,,,,26,28,3,8,0.2,0.4
2026-01-01T1000,1951A,84.886,45.6029,克拉玛依市,长征新村,颗粒物(PM10),58,66,62,18,30,10,,40,32,41,34,6,6,0.7,0.8
2026-01-01T1000,1952A,84.8894,45.5827,克拉玛依市,南林小区,颗粒物(PM10),58,65,59,22,28,8,,25,20,36,32,3,3,0.7,1
2026-01-01T1000,1954A,84.896,44.3328,克拉玛依市,独山子区,颗粒物(PM10),65,80,87,39,58,60,,56,56,15,22,5,5,0.6,0.7
2026-01-01T1000,1955A,85.6888,46.0909,克拉玛依市,乌尔禾区商贸楼,颗粒物(PM10),51,51,56,33,31,2,,16,14,40,34,5,6,1.5,0.9
2026-01-01T1000,3612A,85.1045,45.6895,克拉玛依市,白碱滩区新站,颗粒物(PM10),72,93,74,46,36,2,,14,12,32,34,8,8,0.6,0.7
2026-01-01T1000,2697A,76.1457,39.7143,克孜勒苏柯尔克孜自治州,市人民政府,细颗粒物(PM2.5),65,59,62,47,42,14,,37,31,30,16,5,6,0.6,0.4
2026-01-01T1000,3665A,76.1654,39.7157,克孜勒苏柯尔克孜自治州,克州文化中心,细颗粒物(PM2.5),65,64,54,47,42,22,,36,28,25,16,4,4,1.1,0.7
2026-01-01T1000,1450A,102.8203,24.889,昆明市,呈贡新区,颗粒物(PM10),67,83,51,39,29,8,,2,2,42,30,3,4,0.9,0.6
2026-01-01T1000,1452A,102.7253,25.0904,昆明市,龙泉镇,,39,39,44,22,23,21,,6,6,22,31,3,3,0.5,0.5
2026-01-01T1000,1453A,102.7267,25.0378,昆明市,东风东路,颗粒物(PM10),82,113,45,40,26,9,,3,3,35,31,7,5,0.7,0.5
2026-01-01T1000,1454A,102.6744,25.0671,昆明市,金鼎山,颗粒物(PM10),71,92,52,46,31,13,,3,3,33,32,4,3,0.7,0.5
2026-01-01T1000,1455A,102.6643,25.0401,昆明市,碧鸡广场,颗粒物(PM10),54,58,46,34,28,15,,4,4,32,32,5,4,0.7,0.6
2026-01-01T1000,3179A,102.7491,25.012,昆明市,官渡区博物馆,颗粒物(PM10),52,54,47,31,23,12,,3,3,46,33,5,4,0.6,0.5
2026-01-01T1000,3375A,102.8016,24.8336,昆明市,青年创业园,,46,46,29,26,19,29,,14,14,15,17,6,4,0.8,0.6
2026-01-01T1000,3550A,102.8,24.9787,昆明市,昆明学院,颗粒物(PM10),65,80,47,45,26,15,,4,4,46,27,5,3,0.7,0.4
2026-01-01T1000,3551A,102.5969,24.6738,昆明市,晋宁区生态环境分局,颗粒物(PM10),58,65,64,36,33,8,,1,1,26,25,3,4,1.1,0.5
2026-01-01T1000,3552A,102.6673,24.9861,昆明市,云天化总部,颗粒物(PM10),53,56,34,35,20,13,,10,10,40,29,6,7,0.8,0.5
2026-01-01T1000,1456A,91.132,29.6515,拉萨市,八廓街,,21,14,23,11,15,66,,70,70,13,19,7,8,0.5,0.5
2026-01-01T1000,1457A,91.1221,29.6748,拉萨市,市环保局,,15,15,23,10,20,48,,54,54,22,19,8,8,0.6,0.7
2026-01-01T1000,1458A,91.0874,29.6476,拉萨市,区监测站,,17,10,17,7,11,53,,58,58,25,27,4,5,0.8,0.9
2026-01-01T1000,1459A,91.1774,29.6541,拉萨市,西藏大学,,18,11,16,8,9,55,,70,67,20,17,5,6,0.4,0.4
2026-01-01T1000,1460A,90.9798,29.6586,拉萨市,区辐射站,颗粒物(PM10),54,57,30,24,19,13,,39,30,57,33,7,5,1.1,0.8
2026-01-01T1000,1461A,91.0831,29.6292,拉萨市,拉萨火车站,颗粒物(PM10),70,89,27,18,16,32,,42,38,42,29,5,5,0.8,0.7
2026-01-01T1000,2520A,109.2203,23.7252,来宾市,来宾技工学校,,11,7,67,6,49,34,,42,40,6,17,4,8,0.6,0.5
2026-01-01T1000,3535A,109.1781,23.7293,来宾市,兴宾区政府,,20,19,69,14,49,38,,46,44,7,15,4,8,0.8,0.7
2026-01-01T1000,4002A,109.2312,23.7428,来宾市,中南小学,,12,12,66,6,45,32,,42,41,9,22,3,6,0.8,0.8
2026-01-01T1000,1479A,103.8309,36.0467,兰州市,铁路设计院,,,,,,,,,,,,,,,,
2026-01-01T1000,3241A,103.7439,36.0841,兰州市,百合公园,细颗粒物(PM2.5),92,78,68,68,56,29,,34,33,24,22,6,7,1.1,0.8
2026-01-01T1000,3242A,103.9613,35.9985,兰州市,和平,细颗粒物(PM2.5),104,91,85,78,76,45,,33,33,9,19,3,5,0.7,0.9
2026-01-01T1000,4236A,103.629272,36.093822,兰州市,庄浪东路808号,细颗粒物(PM2.5),98,105,79,73,55,32,,31,31,29,30,9,13,0.9,0.7
2026-01-01T1000,4237A,103.7251,36.104344,兰州市,安宁西路88号,细颗粒物(PM2.5),92,95,81,68,55,41,,45,45,20,22,5,5,1.1,0.6
2026-01-01T1000,4238A,103.846982,36.067567,兰州市,北滨河东路1号,细颗粒物(PM2.5),108,99,76,81,57,30,,34,34,26,29,6,8,1.2,1
2026-01-01T1000,1067A,116.6712,39.5109,廊坊市,药材公司,颗粒物(PM10),52,53,34,34,20,11,,4,4,45,36,3,2,0.9,0.6
2026-01-01T1000,1068A,116.7215,39.5592,廊坊市,开发区,颗粒物(PM10),52,54,31,25,16,11,,5,2,52,39,3,1,0.6,0.5
2026-01-01T1000,1070A,116.7246,39.5273,廊坊市,北华航天学院,颗粒物(PM10),55,59,36,20,16,17,,9,6,48,33,3,2,0.5,0.4
2026-01-01T1000,2919A,116.7022,39.5454,廊坊市,河北工业大学,,,,33,,16,12,,7,4,49,34,,2,0.6,0.4
2026-01-01T1000,2536A,103.7629,29.5844,乐山市,牛耳桥,,46,36,50,32,45,27,,40,40,32,24,8,7,0.6,0.6
2026-01-01T1000,2537A,103.7501,29.6002,乐山市,市第三水厂,,36,36,51,24,39,33,,42,42,25,24,6,6,0.5,0.6
2026-01-01T1000,2538A,103.7571,29.5664,乐山市,市监测站,,42,32,50,29,44,34,,40,40,24,17,8,7,1.0,1
2026-01-01T1000,3361A,103.7313,29.563,乐山市,理工大学,,35,29,49,24,40,30,,39,39,20,17,4,4,0.8,0.8
2026-01-01T1000,2599A,100.2497,26.8802,丽江市,丽江古城,,30,30,31,20,17,54,,46,46,17,14,8,8,0.7,0.6
2026-01-01T1000,2600A,100.2203,26.8906,丽江市,市中心,,29,28,27,20,19,53,,42,42,18,18,6,7,0.4,0.4
2026-01-01T1000,1267A,119.9141,28.4513,丽水市,监测站大楼,,,17,38,15,21,,,56,55,12,15,5,5,0.4,0.4
2026-01-01T1000,1268A,119.93,28.4589,丽水市,莲都小学,,17,16,31,7,13,52,,59,56,15,18,/,/,/,/
2026-01-01T1000,1269A,119.8794,28.4232,丽水市,余庄前,,15,15,26,9,16,36,,32,32,24,19,4,4,0.3,0.3
2026-01-01T1000,1173A,119.1759,34.5885,连云港市,市环境监测站,,42,36,34,29,22,37,,34,34,14,16,18,12,1.1,0.8
2026-01-01T1000,3000A,119.3577,34.6971,连云港市,德源药业,,44,44,36,22,18,42,,43,43,22,17,5,3,0.8,0.4
2026-01-01T1000,3007A,119.178,34.8442,连云港市,新城一中,,41,41,41,28,19,37,,35,34,16,18,15,13,0.8,0.5
2026-01-01T1000,3008A,119.3607,34.7519,连云港市,胡沟管理处,,36,36,23,19,15,41,,48,48,22,15,13,6,1.4,0.6
2026-01-01T1000,3009A,119.1478,34.5913,连云港市,矿山设计院,,44,44,36,14,17,40,,40,40,19,17,14,9,1.3,0.9
2026-01-01T1000,3434A,119.2414,34.6539,连云港市,工贸学校,,41,41,32,26,19,30,,37,37,24,14,19,12,1.1,0.7
2026-01-01T1000,3664A,119.4171,34.734,连云港市,连云街道,,26,26,26,14,14,43,,43,43,20,21,5,4,0.5,0.4
2026-01-01T1000,2573A,102.2629,27.8981,凉山彝族自治州,西昌市政府,细颗粒物(PM2.5),54,53,47,38,34,24,,36,30,26,18,8,11,0.8,0.8
2026-01-01T1000,2574A,102.2686,27.885,凉山彝族自治州,凉山州政府,细颗粒物(PM2.5),54,56,57,38,40,17,,27,23,30,23,8,11,0.9,0.9
2026-01-01T1000,4229A,102.2342,27.8859,凉山彝族自治州,凯乐南路30号,颗粒物(PM10),55,59,77,35,51,11,,6,6,38,43,7,9,0.8,0.9
2026-01-01T1000,2212A,123.1978,41.2036,辽阳市,宏伟区,颗粒物(PM10),71,91,44,47,23,21,,14,12,19,13,9,9,1.6,0.7
2026-01-01T1000,2213A,123.1684,41.2497,辽阳市,新华园,细颗粒物(PM2.5),84,90,56,62,35,20,,10,10,29,24,10,26,1.6,0.9
2026-01-01T1000,2214A,123.2355,41.2663,辽阳市,滨河路,细颗粒物(PM2.5),89,111,48,66,28,18,,16,13,29,19,7,6,1.9,0.9
2026-01-01T1000,4083A,123.153,41.2874,辽阳市,铁西路150号,细颗粒物(PM2.5),102,109,87,76,52,17,,6,6,31,35,11,17,1.9,1.6
2026-01-01T1000,2227A,125.1359,42.8845,辽源市,环保局,细颗粒物(PM2.5),105,156,110,79,37,21,,12,12,26,22,5,3,1.6,1
2026-01-01T1000,4085A,125.0998,42.9134,辽源市,安宁大街333号,细颗粒物(PM2.5),127,132,76,96,67,,,12,12,25,30,,3,1.2,0.9
2026-01-01T1000,1625A,115.9789,36.4372,聊城市,区政府,,25,25,27,14,12,48,,38,38,29,29,12,14,0.6,0.6
2026-01-01T1000,3200A,115.9772,36.4986,聊城市,监控中心,,49,42,35,34,19,45,,17,17,35,30,14,13,0.6,0.4
2026-01-01T1000,3513A,116.0443,36.436,聊城市,九州社区,颗粒物(PM10),53,55,41,27,16,44,,41,40,26,21,5,7,0.5,0.5
2026-01-01T1000,4018A,116.0564,36.4609,聊城市,星美广场,颗粒物(PM10),52,53,44,17,15,43,,31,31,26,24,5,8,0.4,0.5
2026-01-01T1000,4113A,116.0091,36.4495,聊城市,利民路,,27,27,30,13,12,47,,34,34,31,38,2,8,0.3,0.4
2026-01-01T1000,2632A,94.3683,29.6373,林芝市,林芝监测站,,15,12,14,8,9,48,,45,45,7,7,4,4,0.3,0.3
2026-01-01T1000,2633A,94.3616,29.6634,林芝市,林芝人民医院,,20,20,16,11,8,38,,49,46,13,8,4,4,0.6,0.5
2026-01-01T1000,2603A,100.0779,23.8981,临沧市,市环保局,细颗粒物(PM2.5),53,,41,37,46,15,,23,18,12,12,7,6,0.6,0.5
2026-01-01T1000,2604A,100.0894,23.882,临沧市,市气象局,颗粒物(PM10),59,67,44,35,30,13,,22,17,16,13,5,6,0.5,0.4
2026-01-01T1000,1733A,111.5552,36.0791,临汾市,临钢医院,细颗粒物(PM2.5),133,128,92,101,66,15,,8,8,24,30,5,10,1.2,0.9
2026-01-01T1000,1734A,111.4984,36.0734,临汾市,技工学校,细颗粒物(PM2.5),128,115,86,97,67,13,,7,7,27,34,4,7,1.5,1.2
2026-01-01T1000,1736A,111.5017,36.0857,临汾市,市委,细颗粒物(PM2.5),130,109,100,99,65,15,,9,9,29,35,7,10,1.8,1.5
2026-01-01T1000,3018A,111.5048,36.1015,临汾市,唐尧大酒店,细颗粒物(PM2.5),124,116,91,94,60,15,,7,7,27,35,3,6,1.7,1.1
2026-01-01T1000,4244A,111.4879,36.053,临汾市,启星学校,细颗粒物(PM2.5),125,100,79,95,62,14,,6,6,28,37,5,6,1.2,1
2026-01-01T1000,4271A,103.2464,35.6123,临夏回族自治州,滨河东路1号,细颗粒物(PM2.5),123,150,126,93,74,11,,8,8,34,29,5,7,1.8,1.2
2026-01-01T1000,4310A,103.207136,35.599807,临夏回族自治州,新华街21号,细颗粒物(PM2.5),119,116,96,90,64,16,,28,23,26,26,7,12,1.1,0.9
2026-01-01T1000,1618A,118.3429,35.0532,临沂市,沂河小区,,49,48,43,34,29,31,,37,35,27,23,12,10,0.6,0.5
2026-01-01T1000,1619A,118.2962,35.0568,临沂市,鲁南制药厂,,48,48,37,31,24,29,,38,35,31,25,12,10,0.6,0.4
2026-01-01T1000,1620A,118.2793,34.9976,临沂市,新光毛纺厂,,48,48,35,26,22,31,,40,37,23,16,15,10,0.5,0.4
2026-01-01T1000,1621A,118.3955,35.0889,临沂市,河东保险公司,颗粒物(PM10),52,53,40,33,23,33,,39,37,20,17,12,9,0.5,0.5
2026-01-01T1000,3370A,118.3563,35.0215,临沂市,十里堡居委,,44,44,35,22,16,32,,38,37,31,25,11,9,0.7,0.5
2026-01-01T1000,3496A,118.359,35.1067,临沂市,南坊新区,颗粒物(PM10),52,53,36,27,21,32,,39,36,25,23,13,10,0.5,0.4
2026-01-01T1000,3860A,118.3915,35.0297,临沂市,皇山花园小区,颗粒物(PM10),51,51,39,27,21,35,,40,40,27,21,14,12,0.7,0.5
2026-01-01T1000,1870A,109.4854,24.3898,柳州市,柳东小学,,14,14,58,6,48,32,,41,38,8,20,7,8,0.8,0.8
2026-01-01T1000,1871A,109.4109,24.3304,柳州市,环保监测站,,17,17,63,3,42,33,,38,36,13,30,5,7,0.8,0.9
2026-01-01T1000,1872A,109.3886,24.3408,柳州市,河西水厂,,28,27,71,10,44,17,,33,30,28,32,11,8,2.8,1.6
2026-01-01T1000,1873A,109.4263,24.2951,柳州市,市四中,,11,,58,3,32,34,,41,39,12,29,8,10,0.9,1
2026-01-01T1000,1874A,109.396,24.3658,柳州市,市九中,,13,13,59,3,45,29,,39,36,18,29,9,11,0.8,0.9
2026-01-01T1000,1875A,109.4912,24.3164,柳州市,古亭山,,10,6,56,3,35,31,,40,38,7,22,8,10,0.8,0.7
2026-01-01T1000,3402A,109.5422,24.3994,柳州市,市二中,,12,,55,8,41,28,,39,35,13,24,7,8,0.9,0.8
2026-01-01T1000,2307A,116.5078,31.7369,六安市,监测大楼,,23,20,24,16,16,40,,44,44,15,16,2,3,0.3,0.3
2026-01-01T1000,2308A,116.4738,31.7642,六安市,皖西学院,,31,31,31,16,15,42,,48,47,19,18,1,2,0.3,0.3
2026-01-01T1000,2309A,116.4997,31.7904,六安市,朝阳厂,,,,22,,15,,,46,44,14,15,,3,0.4,0.3
2026-01-01T1000,2310A,116.5566,31.7885,六安市,开发区,,28,22,23,19,19,37,,46,44,16,16,3,2,0.3,0.3
2026-01-01T1000,2577A,104.8293,26.592,六盘水市,黄土坡,,20,20,32,12,25,51,,47,47,12,13,6,8,0.9,0.7
2026-01-01T1000,2579A,104.8481,26.5898,六盘水市,民中,,15,15,34,7,24,37,,43,43,21,14,4,5,0.6,0.6
2026-01-01T1000,2580A,104.9541,26.5506,六盘水市,双水,,19,19,33,13,22,50,,45,45,11,10,4,4,0.4,0.5
2026-01-01T1000,4151A,104.8899,26.5685,六盘水市,钟山大道中段564号,,34,34,20,9,11,53,,46,46,12,10,8,5,0.6,0.6
2026-01-01T1000,2336A,117.022,25.1031,龙岩市,龙岩市监测站,,24,24,32,12,22,66,,65,65,13,18,16,15,0.5,0.5
2026-01-01T1000,2337A,117.0257,25.0662,龙岩市,闽西职业技术学院,,33,33,38,11,25,66,,48,44,13,17,11,11,0.5,0.5
2026-01-01T1000,2338A,117.0195,25.0306,龙岩市,龙岩学院,,35,35,37,19,28,46,,46,42,21,13,10,10,/,/
2026-01-01T1000,2885A,104.9344,33.3827,陇南市,滨江中学,细颗粒物(PM2.5),77,94,73,56,42,53,,31,29,20,25,6,7,1.0,1
2026-01-01T1000,3247A,104.9551,33.3709,陇南市,市总工会,颗粒物(PM10),74,97,74,47,43,57,,39,37,18,20,3,4,1.1,1.1
2026-01-01T1000,2488A,111.9984,27.7346,娄底市,市监测站,,38,,61,26,53,27,,30,28,16,20,5,5,0.4,0.6
2026-01-01T1000,2491A,111.9888,27.7035,娄底市,市政府,,32,,51,22,50,25,,30,28,11,16,4,5,0.4,0.6
2026-01-01T1000,4127A,111.9812,27.7591,娄底市,涟钢职大,,25,,20,17,13,29,,33,31,12,12,3,3,0.5,0.6
2026-01-01T1000,4128A,112.0303,27.7457,娄底市,娄底体校,,,,11,,10,,,26,,,17,,2,,0.5
2026-01-01T1000,1894A,105.4427,28.9063,泸州市,小市上码头,,15,,56,10,43,14,,9,7,16,22,9,10,0.8,0.8
2026-01-01T1000,1895A,105.4241,28.8573,泸州市,兰田宪桥,,13,,57,9,45,14,,13,13,19,21,7,7,1.0,1
2026-01-01T1000,1896A,105.4378,28.8833,泸州市,市环监站,,8,6,54,3,42,9,,8,6,16,21,8,8,0.7,0.7
2026-01-01T1000,4272A,105.3689,28.7783,泸州市,纳溪中医医院,,8,7,51,3,44,22,,14,14,7,19,6,7,0.8,0.9
2026-01-01T1000,2183A,111.1447,37.5212,吕梁市,环保局,细颗粒物(PM2.5),79,100,96,58,60,10,,3,3,24,38,19,12,0.7,0.7
2026-01-01T1000,2185A,111.1285,37.5338,吕梁市,自来水公司,细颗粒物(PM2.5),77,101,114,56,74,10,,3,3,23,37,18,12,0.7,0.8
2026-01-01T1000,2867A,111.1225,37.5093,吕梁市,马茂庄小学,颗粒物(PM10),81,112,127,54,74,7,,2,2,24,39,17,11,0.7,0.7
2026-01-01T1000,1812A,112.3934,34.6517,洛阳市,市委党校,细颗粒物(PM2.5),55,,37,39,31,42,,38,38,16,22,7,7,0.5,0.5
2026-01-01T1000,1815A,112.494,34.6883,洛阳市,河南林校,,45,42,43,31,24,38,,36,36,17,20,4,4,0.6,0.5
2026-01-01T1000,1816A,112.3843,34.623,洛阳市,开发区管委会,,48,38,42,33,27,37,,36,35,15,19,6,7,0.6,0.5
2026-01-01T1000,1817A,112.4263,34.6249,洛阳市,市委新办公区,细颗粒物(PM2.5),58,,40,41,34,41,,36,36,13,20,7,7,0.5,0.5
2026-01-01T1000,3340A,112.6005,34.6323,洛阳市,伊滨,细颗粒物(PM2.5),59,42,48,42,32,37,,34,34,15,19,5,6,0.7,0.6
2026-01-01T1000,3341A,112.495,34.6338,洛阳市,中移产业园,细颗粒物(PM2.5),57,40,41,40,31,35,,34,34,21,24,7,8,0.5,0.5
2026-01-01T1000,3593A,112.5736,34.8993,洛阳市,吉利监测站,细颗粒物(PM2.5),62,,43,44,26,36,,33,32,19,21,7,6,0.7,0.6
2026-01-01T1000,3635A,112.3678,34.6623,洛阳市,河科大西苑校区,,50,40,41,35,25,44,,39,39,14,19,7,7,0.4,0.5
2026-01-01T1000,3636A,112.4387,34.678,洛阳市,英才小学,,,,44,,33,43,,39,39,19,25,,6,0.6,0.5
2026-01-01T1000,4214A,112.460027,34.694929,洛阳市,春都路1号院,,50,50,48,35,23,37,,33,33,14,18,7,7,0.6,0.6
2026-01-01T1000,2399A,114.051,33.5721,漯河市,三五一五工厂,,49,44,58,34,42,36,,35,34,10,15,6,6,0.7,0.7
2026-01-01T1000,2400A,114.0055,33.5698,漯河市,漯河大学,,49,41,54,34,39,36,,36,36,16,18,5,6,0.5,0.5
2026-01-01T1000,2401A,114.0134,33.5826,漯河市,市水利局,细颗粒物(PM2.5),55,,49,39,40,29,,33,31,19,22,7,7,0.6,0.6
2026-01-01T1000,2402A,114.0261,33.5697,漯河市,市广电局,,50,,50,35,37,37,,36,35,11,15,6,6,0.5,0.5
2026-01-01T1000,3478A,113.9691,33.568,漯河市,市图书馆,细颗粒物(PM2.5),60,43,60,43,42,31,,32,32,17,19,4,4,0.8,0.8
2026-01-01T1000,4250A,114.089259,33.588274,漯河市,韶山路11号,细颗粒物(PM2.5),58,,52,41,43,34,,32,30,15,18,8,8,0.8,0.8
2026-01-01T1000,1798A,118.5084,31.6838,马鞍山市,湖东路四小,,15,,33,10,14,44,,50,47,14,13,2,3,0.3,0.3
2026-01-01T1000,1799A,118.5019,31.6449,马鞍山市,开发区,,,16,32,12,15,45,,53,49,,13,,4,0.4,0.4
2026-01-01T1000,3633A,118.4914,31.681,马鞍山市,雨山,,15,11,32,9,14,46,,53,49,13,12,4,4,0.3,0.4
2026-01-01T1000,4191A,118.527362,31.722269,马鞍山市,慈湖高新区,,15,14,30,9,14,45,,52,49,12,12,3,4,0.2,0.3
2026-01-01T1000,1686A,111.0285,21.469,茂名市,电白南海,颗粒物(PM10),54,58,61,24,36,88,,76,76,15,18,12,12,0.8,0.8
2026-01-01T1000,1687A,110.9294,21.6533,茂名市,茂石化七小,颗粒物(PM10),53,56,59,29,33,83,,81,81,17,21,6,11,0.1,0.2
2026-01-01T1000,1688A,110.9108,21.6688,茂名市,健康路,,46,46,52,22,33,97,,95,94,17,19,9,13,0.6,0.7
2026-01-01T1000,1689A,110.8592,21.6826,茂名市,高岭,颗粒物(PM10),53,56,67,27,30,97,,97,94,20,22,11,17,/,/
2026-01-01T1000,3450A,111.0101,21.5165,茂名市,电白水东,,48,48,53,27,31,84,,84,82,14,17,12,12,/,/
2026-01-01T1000,2540A,103.8414,30.0871,眉山市,气象局,,43,43,58,24,46,38,,46,42,30,21,9,9,0.7,0.7
2026-01-01T1000,3148A,103.829,30.0563,眉山市,区人社局,,42,42,65,19,43,51,,50,49,24,21,4,6,0.6,0.7
2026-01-01T1000,4148A,103.8836,30.0695,眉山市,眉职院,,32,32,28,20,15,36,,48,44,20,14,4,4,0.9,0.8
2026-01-01T1000,1690A,116.1248,24.3307,梅州市,梅江月梅,,43,43,40,29,31,53,,34,28,19,22,/,/,/,/
2026-01-01T1000,1691A,116.0798,24.2719,梅州市,梅县新城,,50,50,64,33,50,31,,10,10,28,35,9,9,0.7,0.7
2026-01-01T1000,3315A,116.1234,24.2994,梅州市,梅龙,"颗粒物(PM10),细颗粒物(PM2.5)",52,53,51,36,34,40,,30,30,23,22,9,10,0.6,0.6
2026-01-01T1000,1878A,104.7775,31.4741,绵阳市,富乐山,,33,32,33,23,30,65,,69,67,17,16,11,11,0.7,0.7
2026-01-01T1000,1880A,104.6698,31.4668,绵阳市,高新区自来水公司,细颗粒物(PM2.5),55,39,33,39,31,53,,63,60,26,20,8,8,0.7,0.6
2026-01-01T1000,3491A,104.6899,31.5324,绵阳市,西科大附属小学,,44,44,32,30,23,54,,63,60,17,15,7,8,1.0,0.9
2026-01-01T1000,3492A,104.5647,31.5343,绵阳市,安州区旅游局,,49,36,30,34,35,49,,57,54,21,19,12,14,0.8,0.8
2026-01-01T1000,4146A,104.7092,31.4972,绵阳市,科技城新区公安局,,50,41,30,35,26,63,,74,71,21,15,4,4,1.0,1
2026-01-01T1000,4226A,104.765114,31.453094,绵阳市,绵阳市气象局,,38,30,28,26,24,64,,70,67,13,13,16,6,1.3,1.2
2026-01-01T1000,1784A,129.61,44.561,牡丹江市,环保大楼,,39,28,43,27,22,43,,39,39,7,9,10,8,0.7,0.7
2026-01-01T1000,1787A,129.6364,44.6075,牡丹江市,机车工厂,,26,26,38,11,19,45,,41,41,8,9,4,2,0.2,0.2
2026-01-01T1000,1788A,129.6386,44.5462,牡丹江市,第一中学,,26,18,28,18,23,41,,33,33,3,6,5,4,0.3,0.3
2026-01-01T1000,4287A,129.5992,44.5964,牡丹江市,东晓云街98号,,35,27,40,24,29,41,,38,38,5,6,5,4,0.6,0.5
2026-01-01T1000,2531A,105.0703,29.61,内江市,市监测站,,30,30,53,12,44,50,,49,49,13,18,4,5,1.0,1
2026-01-01T1000,2533A,105.0657,29.5807,内江市,内江二中,,27,27,59,8,41,40,,38,38,16,22,4,4,0.9,0.9
2026-01-01T1000,2534A,105.0407,29.5828,内江市,内江日报社,,14,12,48,8,34,43,,38,38,17,24,2,3,0.7,0.7
2026-01-01T1000,4147A,105.0433,29.6105,内江市,玉峰路西段888号,,16,16,18,7,5,50,,49,49,12,9,3,3,0.6,0.6
2026-01-01T1000,2628A,92.0653,31.4846,那曲市,那曲监测站,颗粒物(PM10),52,53,58,29,51,23,,37,36,34,32,13,13,1.2,1.5
2026-01-01T1000,4243A,92.0515,31.4787,那曲市,那曲市委宣传部,细颗粒物(PM2.5),64,67,31,46,19,17,,26,26,28,20,27,19,0.6,0.5
2026-01-01T1000,1291A,115.8887,28.7006,南昌市,省林业公司,,20,,59,14,32,47,,48,48,6,13,3,4,0.8,0.8
2026-01-01T1000,1292A,115.813,28.7443,南昌市,林科所,,18,,68,12,26,40,,41,40,17,19,4,5,0.4,0.4
2026-01-01T1000,1294A,115.8518,28.687,南昌市,建工学校,,29,25,84,20,35,36,,37,36,20,24,11,12,0.4,0.5
2026-01-01T1000,1295A,115.8926,28.6425,南昌市,象湖,,18,12,63,12,34,36,,37,36,17,19,7,8,0.6,0.7
2026-01-01T1000,3046A,115.9084,28.6062,南昌市,机电学校,,18,15,73,12,34,40,,44,42,10,16,4,5,0.5,0.6
2026-01-01T1000,3690A,115.9718,28.7032,南昌市,外国语学校,,22,15,68,15,43,36,,38,37,18,19,9,10,0.5,0.5
2026-01-01T1000,4106A,115.7923,28.6873,南昌市,工业二路,,14,11,15,7,11,42,,42,40,9,8,6,6,0.3,0.3
2026-01-01T1000,4192A,115.931587,28.686774,南昌市,南京东路235号,,,2,85,,47,40,,,,13,25,3,5,0.6,0.2
2026-01-01T1000,1906A,106.0791,30.8022,南充市,南充市委,,,12,25,12,24,,,37,34,23,21,4,4,0.7,0.8
2026-01-01T1000,1907A,106.1038,30.8215,南充市,南充炼油厂,,34,34,39,21,32,35,,44,40,19,16,5,5,0.5,0.5
2026-01-01T1000,4227A,106.108336,30.788436,南充市,梨树横街98号,,15,11,24,3,22,46,,51,48,13,17,5,5,0.6,0.7
2026-01-01T1000,4304A,106.1172,30.843,南充市,清泉寺北路188号,,14,,27,9,21,44,,49,46,12,14,6,6,0.8,0.9
2026-01-01T1000,4305A,106.067,30.7616,南充市,同庆路1号,,20,,28,14,25,34,,42,38,23,21,6,6,0.6,1
2026-01-01T1000,1151A,118.8033,32.1085,南京市,迈皋桥,,21,21,26,9,10,46,,55,51,13,7,4,4,0.6,0.8
2026-01-01T1000,1152A,118.7487,32.057,南京市,草场门,,19,19,29,9,12,38,,44,42,17,17,4,5,0.2,0.2
2026-01-01T1000,1154A,118.770105,32.004342,南京市,中华门,,20,,27,14,11,40,,47,42,1,2,4,4,0.2,0.3
2026-01-01T1000,1155A,118.8059,32.0329,南京市,瑞金路,,18,,25,12,14,40,,45,43,20,11,4,4,0.4,0.5
2026-01-01T1000,1156A,118.7946,32.0774,南京市,玄武湖,,17,17,26,6,7,38,,48,44,15,17,4,4,0.3,0.2
2026-01-01T1000,1157A,118.6415,32.0964,南京市,浦口,,,46,33,19,14,,,46,44,17,16,7,7,0.7,0.5
2026-01-01T1000,1158A,118.730129,32.000956,南京市,奥体中心,,,,32,17,13,43,,55,51,11,11,,3,0.2,0.3
2026-01-01T1000,1159A,118.9072,32.1047,南京市,仙林大学城,,22,22,28,14,10,35,,47,43,15,13,4,6,0.5,0.5
2026-01-01T1000,3422A,118.8443,31.919,南京市,江宁彩虹桥,,18,13,30,12,13,44,,49,47,10,10,4,4,0.2,0.2
2026-01-01T1000,3427A,118.8497,32.3599,南京市,六合雄州,,26,26,25,16,12,42,,50,47,12,9,4,6,0.3,0.3
2026-01-01T1000,4086A,118.7641,32.0841,南京市,新模范马路66号,,,,24,,2,,,,,,8,,4,,0.5
2026-01-01T1000,4249A,118.8707617,31.34017673,南京市,汶溪路181号,,16,15,27,11,18,51,,57,55,17,19,5,6,0.3,0.4
2026-01-01T1000,4312A,119.019,31.6512,南京市,中山西路1号,,30,,28,21,16,45,,48,45,15,15,4,4,0.3,0.3
2026-01-01T1000,1401A,108.3098,22.788,南宁市,二十一中,细颗粒物(PM2.5),77,63,70,56,53,38,,76,69,16,20,5,6,0.9,0.8
2026-01-01T1000,1402A,108.3135,22.8529,南宁市,北湖,,,73,77,54,57,,,73,73,24,32,3,5,0.9,0.9
2026-01-01T1000,1403A,108.3205,22.8222,南宁市,市监测站,细颗粒物(PM2.5),74,61,68,54,53,32,,61,57,19,21,6,8,0.8,0.7
2026-01-01T1000,1404A,108.3828,22.8038,南宁市,大自然花园,细颗粒物(PM2.5),69,69,73,50,55,44,,84,77,18,22,6,7,0.8,0.7
2026-01-01T1000,1406A,108.2397,22.8462,南宁市,区农职院,细颗粒物(PM2.5),89,69,80,66,60,38,,50,50,22,32,6,8,1.0,0.9
2026-01-01T1000,1407A,108.3285,22.7356,南宁市,英华嘉园,细颗粒物(PM2.5),68,61,67,49,52,44,,79,74,17,26,3,5,0.8,0.7
2026-01-01T1000,3401A,108.4829,22.762,南宁市,红星社区,颗粒物(PM10),60,69,73,40,54,48,,75,70,9,20,5,6,0.9,0.8
2026-01-01T1000,4132A,108.2927,23.1477,南宁市,起凤路9号,,16,10,72,8,64,51,,108,92,6,12,2,4,0.9,0.8
2026-01-01T1000,4221A,108.2177,22.7774,南宁市,乐贤路16号,细颗粒物(PM2.5),72,69,70,52,47,35,,69,65,26,32,2,3,0.8,0.7
2026-01-01T1000,2332A,118.1682,26.6371,南平市,南平市监测站,,,26,39,15,27,,,64,60,18,19,,5,0.5,0.7
2026-01-01T1000,2334A,118.1757,26.6276,南平市,南平七中,,25,25,38,14,24,51,,64,60,12,15,5,6,0.4,0.6
2026-01-01T1000,1168A,120.9056,31.9669,南通市,狼山街道,,15,10,24,7,10,47,,55,53,9,7,2,2,0.4,0.4
2026-01-01T1000,1170A,120.8635,32.0231,南通市,城中,,16,16,25,11,9,46,,53,51,12,11,2,3,0.5,0.4
2026-01-01T1000,1171A,120.9376,31.9301,南通市,星湖花园,,16,13,23,9,10,49,,56,54,11,10,3,3,0.5,0.4
2026-01-01T1000,1172A,120.8053,32.046,南通市,紫琅学院,,16,,22,11,7,49,,57,55,12,10,4,3,0.6,0.5
2026-01-01T1000,3291A,121.0631,32.0644,南通市,通州监测站,,,14,18,,12,51,,61,58,13,14,2,3,0.4,0.4
2026-01-01T1000,3432A,120.9348,31.9874,南通市,环境教育馆,,16,14,23,10,9,50,,59,56,10,8,4,4,0.3,0.3
2026-01-01T1000,4091A,120.8692,31.9885,南通市,洪江路,,15,13,17,6,2,48,,55,53,12,10,3,3,0.2,0.2
2026-01-01T1000,2404A,112.5338,33.0086,南阳市,瓦房庄,细颗粒物(PM2.5),68,55,58,49,47,35,,42,40,14,14,6,6,0.7,0.7
2026-01-01T1000,2405A,112.5002,32.9734,南阳市,汉画馆,细颗粒物(PM2.5),57,52,56,40,41,33,,41,39,15,15,6,6,0.6,0.6
2026-01-01T1000,2406A,112.5778,33.0144,南阳市,气象站,细颗粒物(PM2.5),64,56,60,46,38,36,,42,40,16,16,5,5,0.5,0.5
2026-01-01T1000,2407A,112.548,32.9687,南阳市,理工学院,,,43,53,37,33,,,42,40,16,16,5,5,0.7,0.6
2026-01-01T1000,4008A,112.5233,32.9921,南阳市,卧龙区政府,细颗粒物(PM2.5),62,58,64,44,43,32,,41,38,18,18,5,5,0.7,0.7
2026-01-01T1000,1234A,121.8352,29.9111,宁波市,区环保大楼,,15,14,29,10,14,48,,61,58,18,17,4,5,0.4,0.4
2026-01-01T1000,1235A,121.5595,29.8208,宁波市,万里学院,,20,20,30,6,11,53,,64,60,13,14,4,4,0.4,0.4
2026-01-01T1000,1236A,121.713,29.9564,宁波市,龙赛医院,,17,14,30,3,9,52,,64,61,12,10,2,3,0.3,0.3
2026-01-01T1000,1240A,121.5855,29.8635,宁波市,太古小学,,18,16,29,7,12,56,,67,63,11,12,2,2,0.4,0.4
2026-01-01T1000,1241A,121.5239,29.8673,宁波市,市环境监测中心,,19,19,29,3,9,52,,62,59,10,11,5,6,0.4,0.5
2026-01-01T1000,2871A,121.6156,29.9015,宁波市,万里国际学校,,20,20,30,3,11,55,,66,63,14,13,3,4,0.3,0.3
2026-01-01T1000,3710A,121.5593,29.8976,宁波市,白沙活动中心,,18,18,27,6,11,53,,64,61,11,11,4,4,0.3,0.3
2026-01-01T1000,4095A,121.8962,29.7529,宁波市,中科路88号,,17,10,18,3,3,54,,66,63,8,5,4,4,0.5,0.4
2026-01-01T1000,2341A,119.5387,26.6611,宁德市,宁德市监测站,,28,28,40,16,17,41,,45,42,29,24,6,8,0.4,0.5
2026-01-01T1000,3209A,119.5231,26.6562,宁德市,宁德一中,,28,26,41,19,23,48,,52,48,23,20,5,7,0.4,0.5
2026-01-01T1000,2618A,98.859,25.8541,怒江傈僳族自治州,州监测站,,,47,33,24,22,,,36,36,16,12,7,7,0.5,0.4
2026-01-01T1000,2619A,98.8607,25.8168,怒江傈僳族自治州,泸水一中,,27,27,34,18,26,10,,15,14,17,19,6,6,0.7,0.7
2026-01-01T1000,1888A,101.6891,26.571,攀枝花市,弄弄坪,颗粒物(PM10),68,86,54,27,25,10,,14,10,34,29,21,14,1.7,1
2026-01-01T1000,1889A,101.577,26.5914,攀枝花市,河门口,,49,49,41,32,23,16,,12,11,40,24,33,25,1.6,1.1
2026-01-01T1000,1891A,101.7365,26.4986,攀枝花市,仁和,,43,43,38,29,23,14,,22,19,27,22,7,11,0.9,0.8
2026-01-01T1000,2835A,101.7222,26.567,攀枝花市,四十中小,颗粒物(PM10),59,68,74,39,48,7,,4,4,35,44,11,14,1.2,1.3
2026-01-01T1000,1604A,122.0303,41.1489,盘锦市,开发区,,32,,36,22,26,41,,30,30,6,18,3,6,0.7,0.8
2026-01-01T1000,1605A,122.0486,41.0883,盘锦市,兴隆台,,22,18,34,15,19,42,,33,33,12,30,5,9,0.6,0.8
2026-01-01T1000,1606A,121.8297,41.1026,盘锦市,新生街道,,15,10,24,8,16,45,,22,22,8,22,6,4,0.4,0.5
2026-01-01T1000,1832A,113.3257,33.7423,平顶山市,新华旅馆,细颗粒物(PM2.5),63,60,60,45,35,25,,38,34,28,21,7,7,0.8,0.7
2026-01-01T1000,1833A,113.2917,33.737,平顶山市,规划设计院,细颗粒物(PM2.5),68,50,51,49,36,32,,40,37,28,24,4,5,0.6,0.5
2026-01-01T1000,1834A,113.182,33.7738,平顶山市,平顶山工学院,细颗粒物(PM2.5),67,50,45,48,32,35,,41,39,19,19,6,6,0.4,0.3
2026-01-01T1000,3594A,112.8736,33.9068,平顶山市,石龙区,细颗粒物(PM2.5),70,,51,51,40,38,,37,35,15,20,4,4,0.7,0.7
2026-01-01T1000,4116A,113.284,33.7139,平顶山市,姚电大道23号,"颗粒物(PM10),细颗粒物(PM2.5)",58,66,63,41,43,34,,37,35,15,14,6,6,0.9,0.8
2026-01-01T1000,2656A,106.6633,35.5338,平凉市,聚贤嘉苑,细颗粒物(PM2.5),59,56,50,42,36,43,,49,48,11,12,8,7,0.8,0.8
2026-01-01T1000,2657A,106.7021,35.5307,平凉市,博物馆,,,55,52,40,38,47,,51,51,15,15,,9,0.8,0.7
2026-01-01T1000,2348A,113.8384,27.6436,萍乡市,中医院,,36,36,88,17,58,16,,29,24,24,25,6,6,2.0,1.2
2026-01-01T1000,2350A,113.8677,27.6438,萍乡市,市环保局,,28,21,70,19,53,15,,33,26,25,24,14,15,0.8,0.6
2026-01-01T1000,2351A,113.8663,27.6202,萍乡市,安源区政府,,32,32,96,17,71,17,,28,24,23,28,10,13,0.9,1.2
2026-01-01T1000,4107A,113.8686,27.6668,萍乡市,联洪村委会,,30,30,18,10,15,18,,31,26,23,20,2,2,1.8,1.1
2026-01-01T1000,2319A,119.0142,25.4324,莆田市,荔城区仓后路,,27,27,31,12,11,68,,76,74,9,8,/,/,/,/
2026-01-01T1000,2320A,119.0016,25.4553,莆田市,莆田市监测站,,25,15,23,10,9,77,,80,79,6,7,3,4,0.4,0.4
2026-01-01T1000,2321A,119.112,25.4561,莆田市,涵江区六中,,24,21,24,11,9,74,,80,78,9,9,/,/,0.4,0.4
2026-01-01T1000,2322A,119.1014,25.3215,莆田市,秀屿区政府,,31,31,29,11,8,73,,78,76,6,7,2,2,0.5,0.4
2026-01-01T1000,2392A,115.0312,35.7636,濮阳市,环保局,,38,26,35,26,12,33,,28,28,17,22,7,8,1.0,1
2026-01-01T1000,3021A,115,35.7667,濮阳市,濮水河管理处,,40,40,43,23,16,34,,22,22,29,36,8,9,0.6,0.6
2026-01-01T1000,4118A,115.0552,35.7816,濮阳市,中原东路68号,颗粒物(PM10),52,53,48,22,21,37,,28,28,18,25,6,7,0.6,0.6
2026-01-01T1000,4216A,115.0923632,35.76857718,濮阳市,任丘路479号,,,44,42,27,22,,,25,24,24,31,6,8,0.5,0.5
2026-01-01T1000,2601A,100.9801,22.7634,普洱市,市环保局,颗粒物(PM10),54,58,47,22,21,16,,22,20,19,11,5,4,0.5,0.3
2026-01-01T1000,2602A,100.9763,22.8237,普洱市,普洱第二中学,,45,45,42,14,21,23,,11,11,18,17,5,5,0.5,0.4
2026-01-01T1000,3345A,131.0413,45.7795,七台河市,中波台,,,34,42,16,18,,,32,30,8,12,,7,0.4,0.4
2026-01-01T1000,3637A,131.0136,45.7688,七台河市,人民广场,,43,43,38,22,22,40,,40,40,13,11,9,6,0.4,0.4
2026-01-01T1000,3684A,130.8639,45.8144,七台河市,新建矿广场,,31,31,29,12,22,41,,38,38,4,5,11,7,0.3,0.3
2026-01-01T1000,1779A,123.9307,47.3641,齐齐哈尔市,安居小区,,39,39,34,20,28,46,,43,43,13,15,8,5,0.4,0.4
2026-01-01T1000,1780A,123.9497,47.3389,齐齐哈尔市,中心广场,,25,19,27,17,16,47,,47,47,8,8,7,7,0.5,0.5
2026-01-01T1000,1781A,123.9483,47.3229,齐齐哈尔市,农牧车辆厂,,24,24,26,14,17,45,,43,43,10,10,4,5,0.6,0.6
2026-01-01T1000,1783A,123.9442,47.2994,齐齐哈尔市,市环境监测站,,25,25,27,10,15,49,,49,49,9,12,8,7,0.4,0.4
2026-01-01T1000,3662A,123.6341,47.2079,齐齐哈尔市,富区青少年活动中心,细颗粒物(PM2.5),52,43,33,36,22,39,,41,40,20,14,8,6,0.7,0.6
2026-01-01T1000,2591A,107.9765,26.5724,黔东南苗族侗族自治州,市环境监测站,,18,11,18,9,16,57,,60,60,13,12,4,4,0.7,0.8
2026-01-01T1000,2881A,107.8909,26.531,黔东南苗族侗族自治州,凯里学院,,19,,15,8,14,58,,56,56,12,14,4,4,0.8,0.8
2026-01-01T1000,2593A,107.5223,26.2371,黔南布依族苗族自治州,小围寨,,15,,13,9,12,46,,44,44,5,9,6,5,0.9,0.8
2026-01-01T1000,3538A,107.5175,26.2977,黔南布依族苗族自治州,沙坝,,16,7,14,3,12,49,,49,49,10,11,4,4,0.9,0.9
2026-01-01T1000,2589A,104.9022,25.0943,黔西南布依族苗族自治州,场坝街,,38,38,45,24,35,31,,35,35,13,12,5,5,0.7,0.6
2026-01-01T1000,2590A,104.8812,25.0994,黔西南布依族苗族自治州,坪东大道,,36,29,38,25,34,30,,33,31,13,11,6,5,0.7,0.5
2026-01-01T1000,2502A,108.6238,21.9667,钦州市,市环保站,颗粒物(PM10),67,83,79,39,50,68,,93,84,28,23,4,6,0.6,0.7
2026-01-01T1000,2503A,108.655,21.9481,钦州市,沙埠小学,颗粒物(PM10),61,71,74,34,46,68,,82,78,22,30,5,7,0.5,0.6
2026-01-01T1000,2504A,108.5989,21.7435,钦州市,港区一小,颗粒物(PM10),56,61,69,28,41,71,,86,73,28,30,23,10,0.6,0.7
2026-01-01T1000,3404A,108.5959,21.9634,钦州市,北职校,颗粒物(PM10),61,71,67,39,51,63,,78,72,27,24,9,10,0.7,0.8
2026-01-01T1000,1046A,119.5247,39.9346,秦皇岛市,建设大厦,,47,47,39,26,31,45,,23,23,14,31,12,8,0.4,0.6
2026-01-01T1000,3132A,119.5979,39.938,秦皇岛市,文明里,,48,48,39,23,22,45,,33,33,8,24,16,11,0.3,0.5
2026-01-01T1000,4066A,119.7458,39.9952,秦皇岛市,南园路157号,,47,47,42,3,14,44,,26,26,15,36,12,8,0.7,0.7
2026-01-01T1000,4067A,119.5131,39.8858,秦皇岛市,翠岛大街1号,颗粒物(PM10),54,58,37,11,15,40,,28,28,20,30,14,11,0.5,0.6
2026-01-01T1000,4198A,119.509013,39.825305,秦皇岛市,北戴河轮滑馆,颗粒物(PM10),52,53,40,19,24,50,,31,31,8,24,9,8,0.4,0.8
2026-01-01T1000,1310A,120.404,36.0625,青岛市,市南区东部子站,,24,24,25,12,14,48,,46,44,11,13,10,8,0.6,0.6
2026-01-01T1000,1311A,120.362344,36.10282,青岛市,四方区子站,,27,27,35,14,18,50,,39,39,8,11,3,3,0.4,0.5
2026-01-01T1000,1312A,120.294373,36.054183,青岛市,市南区西部子站,,19,19,26,12,13,44,,44,44,8,11,6,4,0.3,0.4
2026-01-01T1000,1313A,120.4581,36.0858,青岛市,崂山区子站,,27,27,19,9,10,42,,52,48,24,16,11,9,0.6,0.5
2026-01-01T1000,1315A,120.3945,36.3083,青岛市,城阳区子站,,46,46,39,24,20,39,,33,30,23,17,11,7,0.8,0.7
2026-01-01T1000,3642A,120.3454,36.0735,青岛市,市北区南部,,22,22,30,12,13,45,,39,38,9,12,4,4,0.4,0.4
2026-01-01T1000,3643A,120.3897,36.18,青岛市,李沧区北部,,39,34,29,27,22,37,,36,30,21,16,10,8,0.8,0.8
2026-01-01T1000,4110A,120.5222,36.4089,青岛市,盟旺路653号,,48,48,39,20,22,37,,25,23,34,31,6,4,0.5,0.6
2026-01-01T1000,4290A,120.196923,35.954556,青岛市,珠江路669号,,29,29,24,20,16,50,,43,43,16,19,12,11,0.4,0.4
2026-01-01T1000,4291A,120.0424,35.8656,青岛市,黄岛区人民政府广场,,35,34,30,24,15,41,,35,35,19,18,9,7,0.6,0.6
2026-01-01T1000,1703A,113.0218,23.7086,清远市,凤城街办,细颗粒物(PM2.5),65,63,60,47,44,60,,37,37,15,31,/,/,/,/
2026-01-01T1000,3025A,113.0479,23.6343,清远市,技师学院,颗粒物(PM10),53,55,75,33,46,40,,10,10,29,50,10,14,0.7,0.8
2026-01-01T1000,3318A,112.9898,23.7403,清远市,清新太和,细颗粒物(PM2.5),64,58,52,46,37,49,,33,27,24,25,13,13,0.6,0.5
2026-01-01T1000,3455A,113.076,23.72,清远市,清城东城,,,53,56,41,37,,,21,19,17,30,/,/,/,/
2026-01-01T1000,2661A,107.6325,35.7357,庆阳市,庆阳五中,细颗粒物(PM2.5),53,45,41,37,38,39,,41,40,17,16,4,4,0.6,0.6
2026-01-01T1000,2662A,107.6361,35.7067,庆阳市,市环保局,,,47,46,42,40,,,35,35,14,14,,1,,0.6
2026-01-01T1000,1916A,103.7897,25.5036,曲靖市,环境监测站,颗粒物(PM10),52,53,45,32,19,14,,28,20,31,18,9,5,1.0,0.5
2026-01-01T1000,1917A,103.8013,25.5357,曲靖市,烟厂办公区,颗粒物(PM10),60,69,39,37,17,20,,25,16,28,21,11,5,1.0,0.4
2026-01-01T1000,3376A,103.7926,25.4651,曲靖市,南苑二区,,43,43,32,23,15,21,,43,36,16,8,4,4,0.6,0.4
2026-01-01T1000,3377A,103.7442,25.5259,曲靖市,曲靖师范学院,细颗粒物(PM2.5),57,50,41,40,25,12,,24,19,36,18,7,4,0.7,0.5
2026-01-01T1000,1264A,118.8694,28.94,衢州市,环保大楼,,15,8,31,6,17,48,,63,58,16,19,/,/,/,/
2026-01-01T1000,1266A,118.8622,28.9809,衢州市,衢州学院,,14,9,28,3,14,44,,60,54,16,18,3,3,0.3,0.3
2026-01-01T1000,4097A,118.9646,28.9832,衢州市,衢州三中,,14,10,33,6,18,43,,56,53,12,12,5,5,0.5,0.5
2026-01-01T1000,1611A,118.5818,24.9116,泉州市,涂山街,,28,28,27,13,13,75,,78,76,9,11,3,3,0.4,0.4
2026-01-01T1000,1612A,118.597,24.8976,泉州市,津头埔,,29,29,28,14,14,72,,75,73,12,13,4,4,0.4,0.4
2026-01-01T1000,1613A,118.6669,24.9422,泉州市,万安,,33,33,32,13,11,74,,74,74,8,9,3,3,0.4,0.3
2026-01-01T1000,4105A,118.6355,24.9148,泉州市,霞新路6号,,23,21,15,15,11,72,,72,72,9,8,/,/,0.4,0.4
2026-01-01T1000,2626A,88.8873,29.2723,日喀则市,日喀则监测站,,30,30,30,12,14,18,,34,25,17,20,9,14,0.5,0.7
2026-01-01T1000,3726A,88.8775,29.2425,日喀则市,林业技术推广中心,,43,43,25,25,15,26,,44,40,10,8,11,11,0.7,0.5
2026-01-01T1000,1659A,119.4711,35.421,日照市,监测站,,27,27,32,17,21,41,,38,37,19,19,9,7,0.6,0.5
2026-01-01T1000,1660A,119.523,35.4216,日照市,市政府广场,,34,34,33,22,19,45,,39,39,17,17,10,9,0.3,0.3
2026-01-01T1000,1661A,119.5511,35.4113,日照市,港务局,,35,31,33,24,24,46,,44,44,16,17,9,8,0.4,0.3
2026-01-01T1000,3507A,119.5326,35.4627,日照市,职业技术学院,,29,29,33,14,17,47,,40,40,17,19,9,7,0.6,0.6
2026-01-01T1000,3604A,119.3267,35.1043,日照市,岚山环保分局,,,,45,,28,34,,36,34,20,23,11,16,,1.2
2026-01-01T1000,1835A,111.1922,34.7752,三门峡市,市政府,细颗粒物(PM2.5),68,,41,49,31,33,,41,37,18,19,8,7,0.5,0.4
2026-01-01T1000,1836A,111.1588,34.794,三门峡市,开发区,细颗粒物(PM2.5),62,56,43,44,26,39,,39,37,12,18,7,7,0.5,0.4
2026-01-01T1000,3039A,111.1911,34.7829,三门峡市,三门峡市第一小学,细颗粒物(PM2.5),59,44,39,42,26,34,,38,36,16,17,7,7,0.6,0.5
2026-01-01T1000,3598A,111.1031,34.719,三门峡市,富达温泉假日酒店,细颗粒物(PM2.5),73,70,44,53,28,27,,38,33,25,23,13,11,0.6,0.4
2026-01-01T1000,2324A,117.621,26.2626,三明市,三钢,,,26,38,18,29,,,62,59,16,17,10,11,0.6,0.7
2026-01-01T1000,2325A,117.6352,26.2714,三明市,三明二中,,20,20,36,12,26,54,,62,58,13,14,8,11,0.6,0.7
2026-01-01T1000,2326A,117.6028,26.2377,三明市,三元区政府,,25,21,35,17,26,57,,63,61,15,16,11,10,0.4,0.6
2026-01-01T1000,1877A,109.4962,18.2682,三亚市,河西子站,,38,38,38,21,24,78,,86,80,15,9,5,4,0.5,0.5
2026-01-01T1000,3540A,109.7348,18.3443,三亚市,君悦子站,,47,47,37,20,22,69,,55,54,12,11,5,6,0.5,0.5
2026-01-01T1000,4135A,109.1714,18.3739,三亚市,城东小学站,,40,34,37,28,35,57,,50,50,8,12,/,/,/,/
2026-01-01T1000,2624A,91.7592,29.234,山南市,山南监测站,,30,30,36,10,16,27,,46,41,20,14,6,4,0.4,0.4
2026-01-01T1000,2625A,91.7701,29.2436,山南市,山南人民医院,,24,24,16,16,8,41,,61,54,14,9,2,2,0.4,0.3
2026-01-01T1000,1674A,116.6795,23.3666,汕头市,金平子站,,22,21,34,12,20,70,,57,56,15,16,6,5,0.6,0.6
2026-01-01T1000,1675A,116.7248,23.3632,汕头市,龙湖子站,,23,23,32,11,16,69,,61,60,10,13,10,10,/,/
2026-01-01T1000,1676A,116.7257,23.2774,汕头市,濠江子站,,26,26,28,12,18,72,,68,68,12,12,7,7,/,/
2026-01-01T1000,1677A,116.7518,23.4712,汕头市,澄海子站,,26,26,44,11,28,71,,50,49,13,20,6,8,0.6,0.7
2026-01-01T1000,1678A,116.6088,23.2539,汕头市,潮阳子站,,24,21,28,8,13,76,,71,70,11,12,6,6,0.4,0.5
2026-01-01T1000,3444A,116.4539,23.2684,汕头市,潮南峡山,,35,35,32,22,17,65,,57,52,18,14,12,9,0.5,0.5
2026-01-01T1000,3624A,116.4069,23.2533,汕头市,潮南子站,颗粒物(PM10),51,52,44,28,20,59,,52,48,18,17,10,7,/,/
2026-01-01T1000,1693A,115.3653,22.7751,汕尾市,市环保局,,41,41,36,27,23,63,,69,64,19,19,8,7,0.6,0.6
2026-01-01T1000,1695A,115.362,22.7926,汕尾市,新城中学,颗粒物(PM10),51,52,38,24,23,69,,64,61,13,12,6,5,0.4,0.4
2026-01-01T1000,2645A,109.9155,33.8714,商洛市,监测站,,48,48,59,29,49,39,,45,42,15,16,9,5,1.2,1.1
2026-01-01T1000,3045A,109.9647,33.8486,商洛市,商州区中学,细颗粒物(PM2.5),59,,42,42,53,40,,45,41,16,18,6,6,0.8,0.8
2026-01-01T1000,2408A,115.6701,34.4283,商丘市,环境监测站,,33,33,44,22,30,43,,39,39,14,15,5,5,0.5,0.5
2026-01-01T1000,2409A,115.6458,34.4047,商丘市,粮食局,,31,31,41,20,29,40,,37,37,18,18,6,6,0.2,0.2
2026-01-01T1000,3171A,115.6069,34.4465,商丘市,梁园区档案局,,36,32,36,25,24,44,,38,38,16,17,6,6,0.3,0.3
2026-01-01T1000,4119A,115.6701,34.3767,商丘市,北海东路185号,,32,31,28,22,21,38,,35,35,17,17,4,3,0.6,0.6
2026-01-01T1000,4120A,115.6172,34.3704,商丘市,中山大街3号,,36,36,34,20,24,39,,35,34,15,17,4,2,0.3,0.4
2026-01-01T1000,1141A,121.401,31.2382,上海市,普陀,,17,7,24,3,12,54,,61,58,18,18,5,5,0.5,0.5
2026-01-01T1000,1142A,121.4774,31.2043,上海市,十五厂,,17,7,28,3,13,52,,60,58,15,14,5,6,0.5,0.5
2026-01-01T1000,1143A,121.4673,31.3011,上海市,虹口,,15,10,34,3,12,46,,57,54,16,13,9,10,0.2,0.2
2026-01-01T1000,1147A,121.4253,31.226,上海市,静安监测站,,18,6,23,3,13,56,,63,62,13,13,5,6,0.1,0.2
2026-01-01T1000,1148A,121.7029,31.1905,上海市,浦东川沙,,17,8,26,3,9,54,,60,58,14,12,6,6,0.4,0.4
2026-01-01T1000,1149A,121.5339,31.229,上海市,浦东新区监测站,,15,7,23,3,15,46,,59,56,24,15,5,6,0.5,0.5
2026-01-01T1000,1150A,121.5776,31.2038,上海市,浦东张江,,19,6,22,3,10,60,,63,62,10,12,6,6,0.5,0.5
2026-01-01T1000,3265A,121.4242,31.3303,上海市,宝山庙行,,15,11,26,6,12,46,,56,53,23,19,5,6,0.4,0.3
2026-01-01T1000,3266A,121.8789,31.4662,上海市,崇明上实东滩,,19,6,18,3,8,58,,63,61,4,5,3,3,0.2,0.3
2026-01-01T1000,3268A,121.316,31.2839,上海市,嘉定南翔,,16,8,24,3,7,51,,58,56,13,12,3,4,0.5,0.4
2026-01-01T1000,3269A,121.3357,30.7455,上海市,金山新城,,18,,23,12,17,54,,58,56,17,16,6,6,0.5,0.5
2026-01-01T1000,3270A,121.4996,31.0741,上海市,闵行浦江,,17,8,24,6,11,52,,59,57,15,14,6,6,0.3,0.3
2026-01-01T1000,3271A,121.2886,31.1663,上海市,青浦徐泾,,17,17,23,9,12,46,,59,56,20,18,4,4,0.7,0.4
2026-01-01T1000,3272A,121.2193,31.0382,上海市,松江图书馆,,19,19,22,7,10,44,,59,56,22,16,6,6,0.4,0.3
2026-01-01T1000,3273A,121.3904,31.206,上海市,长宁仙霞,,18,7,24,6,11,55,,61,59,15,15,6,6,0.3,0.3
2026-01-01T1000,3274A,121.7964,31.0507,上海市,浦东惠南,,18,7,25,3,11,57,,63,61,16,10,4,3,0.5,0.5
2026-01-01T1000,3544A,121.4891,30.925,上海市,奉贤南桥新城,,19,11,28,9,14,58,,64,62,11,10,7,7,0.3,0.3
2026-01-01T1000,4183A,121.417401,31.16637,上海市,冠生园路458号,,19,8,26,8,14,59,,64,63,17,18,5,6,0.5,0.6
2026-01-01T1000,4205A,121.541914,31.268301,上海市,宁武路151号,,15,8,29,6,13,45,,56,52,23,16,5,6,0.6,0.6
2026-01-01T1000,2382A,117.9758,28.4439,上饶市,市监测站,,,30,44,22,20,,,60,59,,18,,5,/,/
2026-01-01T1000,2383A,117.9521,28.4637,上饶市,凤凰光学,,31,31,46,14,19,41,,56,53,21,18,6,7,0.6,0.6
2026-01-01T1000,3685A,117.897,28.4316,上饶市,双创科技城,,48,,46,33,29,57,,68,66,27,24,3,4,0.5,0.5
2026-01-01T1000,4211A,118.190438,28.444845,上饶市,裕丰大道,,38,30,48,26,24,57,,59,58,15,22,8,8,0.5,0.5
2026-01-01T1000,1669A,113.5821,24.7733,韶关市,市八中,,22,21,80,15,56,37,,26,26,16,36,6,14,0.8,0.8
2026-01-01T1000,1671A,113.5916,24.7973,韶关市,园林处,,25,18,57,17,54,40,,29,29,15,35,7,17,/,/
2026-01-01T1000,1673A,113.5971,24.6864,韶关市,曲江监测站,,35,32,77,24,61,38,,21,21,16,31,8,16,0.6,1.1
2026-01-01T1000,2809A,113.6668,24.7756,韶关市,大学路288号,,48,39,59,33,49,35,,12,12,17,20,6,17,/,/
2026-01-01T1000,3622A,113.5556,24.8082,韶关市,碧湖山庄,,22,20,73,15,51,38,,31,31,16,26,5,9,0.6,0.7
2026-01-01T1000,2464A,111.5277,27.2442,邵阳市,市化工厂,,29,,75,20,59,27,,33,31,20,23,11,13,0.9,1.1
2026-01-01T1000,2466A,111.4327,27.2276,邵阳市,市环保局,,25,,45,17,51,30,,30,29,13,17,4,6,0.9,1.1
2026-01-01T1000,4218A,111.446,27.2472,邵阳市,北塔二期4-26地块,,43,,61,30,69,27,,27,27,14,22,4,6,1.0,1.1
2026-01-01T1000,4219A,111.4739,27.2282,邵阳市,邵水西路287号,,33,,52,23,63,28,,31,29,18,20,10,12,0.5,0.8
2026-01-01T1000,1247A,120.6053,29.9927,绍兴市,城东开发委,,19,19,29,10,12,40,,53,48,20,17,7,8,0.5,0.4
2026-01-01T1000,2921A,120.5482,30.0003,绍兴市,树下王站,,18,18,29,10,13,42,,51,46,18,16,6,7,0.4,0.4
2026-01-01T1000,3408A,120.5685,29.936,绍兴市,绍兴中专,,20,20,30,12,13,43,,54,48,14,15,6,7,0.5,0.4
2026-01-01T1000,3409A,120.4905,30.086,绍兴市,柯桥区政府,,19,19,31,9,14,44,,53,50,21,19,4,5,0.3,0.4
2026-01-01T1000,3410A,120.8751,30.0249,绍兴市,重华小学,,18,18,28,6,11,49,,58,55,12,14,5,6,0.3,0.3
2026-01-01T1000,3411A,120.837,30.0137,绍兴市,上虞中学,,19,19,27,8,12,45,,62,58,21,15,7,7,0.5,0.4
2026-01-01T1000,3560A,120.4715,30.0414,绍兴市,柯桥妇保,,20,20,31,10,13,47,,54,50,14,18,6,6,0.6,0.6
2026-01-01T1000,3658A,120.6156,30.0762,绍兴市,袍江中学,,15,,22,6,11,45,,54,50,18,19,6,7,0.6,0.5
2026-01-01T1000,1356A,114.0948,22.5506,深圳市,通心岭子站,,38,38,36,21,19,74,,69,64,10,12,6,6,0.5,0.5
2026-01-01T1000,1357A,114.1153,22.5713,深圳市,洪湖,,39,39,39,21,19,70,,67,61,18,20,10,8,0.6,0.5
2026-01-01T1000,1358A,113.9823,22.5398,深圳市,华侨城,,42,42,38,27,20,67,,56,54,20,20,/,/,/,/
2026-01-01T1000,1359A,113.9181,22.517,深圳市,南海子站,,44,44,40,20,21,74,,76,70,9,13,7,6,0.6,0.6
2026-01-01T1000,1360A,114.2345,22.565,深圳市,盐田,,41,41,36,22,22,71,,63,61,16,28,9,9,0.5,0.5
2026-01-01T1000,1363A,114.4911,22.5381,深圳市,南澳,,37,37,32,19,13,80,,71,64,8,9,/,/,/,/
2026-01-01T1000,1364A,114.41,22.6346,深圳市,葵涌,,,30,26,17,16,68,,47,42,19,15,,8,0.6,0.6
2026-01-01T1000,1365A,114.2967,22.5978,深圳市,梅沙,,38,38,39,21,20,81,,71,68,10,12,/,/,/,/
2026-01-01T1000,1366A,114.0563,22.7353,深圳市,观澜,细颗粒物(PM2.5),63,74,73,45,44,59,,33,30,29,34,9,8,0.7,0.7
2026-01-01T1000,3305A,114.0614,22.556,深圳市,莲花,,39,39,37,23,20,69,,57,54,18,20,/,/,/,/
2026-01-01T1000,3306A,114.0144,22.6163,深圳市,民治,,46,46,42,31,25,66,,47,44,26,33,/,/,/,/
2026-01-01T1000,3307A,114.1756,22.6421,深圳市,横岗,,48,48,46,30,27,71,,66,62,16,22,/,/,/,/
2026-01-01T1000,3447A,114.344,22.7115,深圳市,坪山,,48,48,44,32,26,65,,46,44,24,22,11,9,0.6,0.6
2026-01-01T1000,3623A,113.8952,22.586,深圳市,西乡,颗粒物(PM10),51,51,43,33,23,59,,48,44,34,34,6,6,0.7,0.7
2026-01-01T1000,4220A,114.214113,22.713717,深圳市,黄阁路,颗粒物(PM10),52,53,44,35,25,56,,59,51,23,16,8,7,0.7,0.6
2026-01-01T1000,1099A,123.5058,41.7084,沈阳市,浑南东路,,50,48,45,35,29,29,,13,13,29,39,16,10,1.6,0.9
2026-01-01T1000,1100A,123.4238,41.6992,沈阳市,新秀街,,49,,50,34,25,33,,12,12,19,30,13,8,1.6,1
2026-01-01T1000,1102A,123.5903,41.8412,沈阳市,东陵路,,40,33,44,28,27,27,,18,18,20,26,7,8,0.8,0.8
2026-01-01T1000,1103A,123.4267,41.8466,沈阳市,陵东街,细颗粒物(PM2.5),75,71,38,55,25,15,,4,4,31,32,14,13,1.2,1
2026-01-01T1000,1104A,123.4116,41.7654,沈阳市,文化路,,,49,48,31,28,,,3,3,34,30,26,14,1.2,1.1
2026-01-01T1000,1105A,123.4673,41.787,沈阳市,小河沿,,,51,40,37,28,,,4,4,29,33,11,11,,1
2026-01-01T1000,1106A,123.4019,41.7978,沈阳市,太原街,细颗粒物(PM2.5),110,111,51,83,41,13,,3,3,37,34,26,21,1.0,0.9
2026-01-01T1000,1108A,123.3778,41.9233,沈阳市,京沈街,细颗粒物(PM2.5),53,52,48,37,29,27,,11,11,24,35,6,10,0.6,0.6
2026-01-01T1000,2897A,123.2429,41.7341,沈阳市,沈辽西路,细颗粒物(PM2.5),77,92,71,56,40,13,,2,2,42,40,20,13,1.0,0.9
2026-01-01T1000,2900A,123.5951,41.9085,沈阳市,裕农路,细颗粒物(PM2.5),79,67,37,58,24,14,,25,23,37,21,4,4,1.1,0.6
2026-01-01T1000,2429A,110.78,32.6494,十堰市,滨河新村,细颗粒物(PM2.5),64,53,52,46,53,40,,51,49,19,19,/,/,0.8,1
2026-01-01T1000,2430A,110.7305,32.6408,十堰市,刘家沟,细颗粒物(PM2.5),67,51,57,48,56,43,,47,46,16,22,/,/,/,/
2026-01-01T1000,2431A,110.8843,32.5712,十堰市,铁二处,,49,42,49,34,46,30,,44,41,23,27,7,8,1.0,1.2
2026-01-01T1000,3545A,110.8053,32.8401,十堰市,郧阳区金沙路,细颗粒物(PM2.5),58,54,42,41,36,50,,57,54,22,18,5,5,0.8,0.9
2026-01-01T1000,2709A,86.0391,44.298,石河子市,艾青诗歌馆,细颗粒物(PM2.5),77,61,70,56,60,17,,37,37,46,31,7,8,0.8,0.8
