timepoint,stationcode,longitude,latitude,area,positionname,primarypollutant,aqi,pm10,pm10_24h,pm2_5,pm2_5_24h,o3,o3_24h,o3_8h,o3_8h_24h,no2,no2_24h,so2,so2_24h,co,co_24h
2026-01-01T1100,2568A,102.2503,31.8896,阿坝藏族羌族自治州,马师校,,19,,19,13,16,53,,42,42,8,14,4,4,0.5,0.5
2026-01-01T1100,3994A,102.2174,31.9016,阿坝藏族羌族自治州,马尔康中学西区,,15,8,14,3,9,48,,47,46,14,12,5,5,0.6,0.5
2026-01-01T1100,2695A,80.2899,41.1684,阿克苏地区,电视台,颗粒物(PM10),51,51,54,30,33,42,,44,44,16,19,4,4,0.6,0.7
2026-01-01T1100,2696A,80.2592,41.1541,阿克苏地区,艺术中心,细颗粒物(PM2.5),54,52,51,38,37,48,,50,50,9,14,5,4,0.4,0.5
2026-01-01T1100,2205A,105.699,38.8409,阿拉善盟,蒙二幼,,,,44,,27,55,,49,49,14,14,,11,,0.7
2026-01-01T1100,2206A,105.7198,38.8508,阿拉善盟,环保局新楼,,38,35,32,26,20,48,,53,53,16,12,11,10,0.8,0.6
2026-01-01T1100,2708A,88.1266,47.8515,阿勒泰地区,市站,,24,9,26,3,16,42,,77,70,48,37,3,5,0.2,0.3
2026-01-01T1100,4166A,88.1198,47.7931,阿勒泰地区,阿勒泰路33号,,21,17,29,3,13,67,,83,82,21,11,5,6,0.3,0.2
2026-01-01T1100,2630A,80.1171,32.4999,阿里地区,阿里监测站,,20,6,3,3,3,63,,54,52,5,10,10,11,0.4,0.4
2026-01-01T1100,3192A,80.0906,32.5029,阿里地区,阿里藏医院,,24,24,13,12,8,50,,65,54,14,7,11,11,0.6,0.4
2026-01-01T1100,2644A,109.0088,32.6974,安康市,汉滨区检察院,,22,,11,15,13,45,,48,34,9,12,4,4,0.4,0.5
2026-01-01T1100,4054A,109.0324,32.6913,安康市,市邮政管理局,,28,25,16,19,13,30,,46,32,18,15,4,4,0.6,0.6
2026-01-01T1100,2291A,117.0806,30.5181,安庆市,环科院,,23,23,32,16,14,44,,48,45,4,7,4,5,0.3,0.3
2026-01-01T1100,2292A,117.0331,30.5118,安庆市,马山宾馆,,26,25,31,18,15,49,,54,50,13,13,3,4,0.7,0.7
2026-01-01T1100,2294A,116.9897,30.6146,安庆市,安庆大学,,18,18,30,11,14,50,,50,49,4,10,3,3,0.4,0.4
2026-01-01T1100,3173A,117.0598,30.5351,安庆市,市人大,,32,25,34,22,15,46,,51,47,4,6,4,5,0.5,0.4
2026-01-01T1100,3123A,105.9408,26.2431,安顺市,凤凰山,,,,33,,26,48,,44,44,13,15,9,7,0.9,0.9
2026-01-01T1100,3124A,105.9443,26.2567,安顺市,金钟山,,29,,26,20,20,49,,46,46,10,11,9,10,0.9,1
2026-01-01T1100,3125A,105.8983,26.248,安顺市,娄家坡,,22,20,27,15,22,48,,43,43,12,14,14,17,1.0,1
2026-01-01T1100,1819A,114.3552,36.1017,安阳市,红庙街,,45,37,40,31,21,35,,34,34,12,21,2,4,0.6,0.6
2026-01-01T1100,1820A,114.361,36.0681,安阳市,银杏小区,细颗粒物(PM2.5),67,,42,48,24,37,,32,32,15,24,3,4,0.4,0.3
2026-01-01T1100,3141A,114.3921,36.0879,安阳市,信访局,,48,,41,33,27,34,,29,29,19,26,3,2,0.5,0.5
2026-01-01T1100,3669A,114.4706,36.0634,安阳市,左辅环卫站,,,,50,44,18,,,24,24,11,21,4,4,0.6,0.6
2026-01-01T1100,4117A,114.2918,36.0769,安阳市,钢三路198号,颗粒物(PM10),58,66,52,28,27,39,,31,31,12,19,8,4,0.5,0.5
2026-01-01T1100,1748A,123.0441,41.1201,鞍山市,深沟寺,细颗粒物(PM2.5),113,102,43,85,32,22,,18,15,36,24,14,9,1.8,1
2026-01-01T1100,1749A,123.011,41.0931,鞍山市,太阳城,细颗粒物(PM2.5),99,97,43,74,29,22,,25,17,36,24,21,16,1.8,1
2026-01-01T1100,1750A,123.0483,41.1445,鞍山市,太平,细颗粒物(PM2.5),112,138,64,84,33,18,,17,13,38,26,19,13,1.9,1
2026-01-01T1100,1751A,122.964,41.0968,鞍山市,铁西三道街,细颗粒物(PM2.5),189,210,81,142,46,21,,16,15,,25,65,30,3.7,1.5
2026-01-01T1100,1753A,123.0219,41.0822,鞍山市,明达新区,细颗粒物(PM2.5),88,91,47,65,27,24,,23,16,21,19,18,16,1.6,1
2026-01-01T1100,4201A,122.944647,41.082639,鞍山市,兴盛南路290号,细颗粒物(PM2.5),156,160,78,119,46,12,,12,8,51,42,43,16,3.6,1.9
2026-01-01T1100,2195A,107.4206,40.7609,巴彦淖尔市,附二中,颗粒物(PM10),56,62,92,35,69,19,,6,6,32,34,9,11,0.9,0.6
2026-01-01T1100,2196A,107.37,40.7372,巴彦淖尔市,市环保大楼,,41,41,88,15,60,19,,6,6,26,35,5,9,0.9,0.7
2026-01-01T1100,1956A,86.1476,41.7529,巴音郭楞蒙古自治州,孔雀公园,,38,37,53,26,35,45,,45,45,17,23,6,7,0.5,0.6
2026-01-01T1100,1957A,86.1971,41.7166,巴音郭楞蒙古自治州,棉纺厂,颗粒物(PM10),52,53,64,31,24,35,,47,47,24,21,/,/,/,/
2026-01-01T1100,1958A,86.236,41.7172,巴音郭楞蒙古自治州,经济开发区,,36,31,44,25,23,41,,45,45,8,12,4,5,0.5,0.5
2026-01-01T1100,3181A,106.776805,31.852614,巴中市,市五中,,29,27,31,20,27,20,,19,17,28,15,5,5,1.1,1
2026-01-01T1100,3183A,106.7419,31.8654,巴中市,圣泉水务公司,,28,25,23,19,19,29,,25,24,23,19,5,5,0.7,0.7
2026-01-01T1100,3616A,106.7617,31.8343,巴中市,市中心医院,,28,28,27,19,20,11,,16,14,35,23,7,6,1.2,1
2026-01-01T1100,2235A,122.7909,45.608,白城市,洮北区环保局,细颗粒物(PM2.5),75,58,46,55,43,40,,29,29,15,23,6,5,0.9,0.5
2026-01-01T1100,2236A,122.8741,45.5725,白城市,市环保局,细颗粒物(PM2.5),59,46,52,42,39,39,,20,20,14,27,4,6,0.6,0.4
2026-01-01T1100,2231A,126.4219,41.9172,白山市,喜丰,颗粒物(PM10),55,60,48,35,24,34,,23,23,20,21,13,13,0.7,0.6
2026-01-01T1100,2232A,126.4082,41.9416,白山市,环保局,,,54,49,32,33,36,,20,20,,13,,11,0.6,0.5
2026-01-01T1100,2647A,104.1727,36.5448,白银市,第三小学,,,,47,,46,42,,33,33,,35,6,9,,0.8
2026-01-01T1100,2648A,104.1467,36.5482,白银市,动力公司,细颗粒物(PM2.5),129,,45,98,46,47,,45,44,44,20,9,4,0.8,0.6
2026-01-01T1100,2512A,106.6102,23.901,百色市,市监测站,,13,9,43,3,27,40,,82,60,13,15,6,13,0.8,0.8
2026-01-01T1100,2513A,106.6524,23.8842,百色市,市中心血站,,14,7,48,3,30,42,,95,70,19,20,8,13,0.8,0.9
2026-01-01T1100,4133A,106.6273,23.8798,百色市,龙景西路,,14,9,64,3,31,42,,93,70,7,10,6,15,0.8,0.9
2026-01-01T1100,2270A,117.396,32.9389,蚌埠市,工人疗养院,细颗粒物(PM2.5),62,54,46,44,28,47,,41,39,12,12,4,4,0.4,0.3
2026-01-01T1100,2271A,117.3606,32.9428,蚌埠市,百货大楼,细颗粒物(PM2.5),57,41,38,40,25,53,,44,42,10,11,3,3,0.4,0.3
2026-01-01T1100,2273A,117.4183,32.8909,蚌埠市,蚌埠学院,,50,39,34,35,24,42,,42,38,18,18,4,4,0.4,0.3
2026-01-01T1100,2274A,117.3534,32.9672,蚌埠市,淮上区政府,,,48,39,39,27,,,44,39,9,10,,2,0.5,0.4
2026-01-01T1100,2275A,117.3143,32.8977,蚌埠市,高新区,细颗粒物(PM2.5),52,36,35,36,26,47,,43,40,12,13,5,5,0.3,0.3
2026-01-01T1100,3715A,117.3091,32.9314,蚌埠市,蚌埠田家炳中学,细颗粒物(PM2.5),62,48,42,44,29,48,,44,40,13,13,3,3,0.4,0.3
2026-01-01T1100,1585A,109.8761,40.6533,包头市,市环境监测站,,25,25,52,8,21,54,,46,46,21,33,9,18,0.8,1
2026-01-01T1100,1587A,109.9992,40.5843,包头市,包头八中,,,,68,,39,25,,9,9,,44,50,17,1.5,1.4
2026-01-01T1100,1589A,109.8641,40.6288,包头市,惠龙物流,,45,45,42,23,18,44,,50,50,29,29,24,20,1.3,0.8
2026-01-01T1100,1590A,110.0376,40.5546,包头市,东河鸿龙湾,,,61,56,32,30,37,,13,13,26,43,,15,,1
2026-01-01T1100,3283A,109.9154,40.5684,包头市,滨河大厦,细颗粒物(PM2.5),82,75,73,60,47,25,,10,10,21,33,32,28,1.3,1.5
2026-01-01T1100,3419A,109.9449,40.6259,包头市,包头市委党校,细颗粒物(PM2.5),87,68,58,64,27,19,,14,14,51,45,28,15,1.8,1
2026-01-01T1100,3683A,109.8332,40.6577,包头市,昆区政府,,26,24,49,18,24,58,,52,52,18,32,11,26,0.7,1.2
2026-01-01T1100,1931A,107.0802,34.3129,宝鸡市,竹园沟,,,,48,47,52,,,42,39,,21,,5,0.6,0.8
2026-01-01T1100,1933A,107.1429,34.3549,宝鸡市,监测站,细颗粒物(PM2.5),80,,52,59,58,30,,43,38,23,24,3,4,0.6,0.8
2026-01-01T1100,1934A,107.1172,34.3759,宝鸡市,技工学校,细颗粒物(PM2.5),74,,50,54,62,29,,42,39,19,20,2,2,0.7,0.9
2026-01-01T1100,1936A,107.2025,34.3518,宝鸡市,文理学院,细颗粒物(PM2.5),82,,48,60,57,35,,45,42,17,22,3,3,0.7,0.8
2026-01-01T1100,1937A,107.2396,34.3626,宝鸡市,三迪小学,,,94,53,67,65,32,,46,42,,23,4,2,,0.9
2026-01-01T1100,4155A,107.1721,34.3558,宝鸡市,滨河北路,细颗粒物(PM2.5),74,60,58,54,51,36,,48,43,21,19,5,5,0.8,0.8
2026-01-01T1100,4308A,107.3898,34.3601,宝鸡市,陈仓区北开路21号,细颗粒物(PM2.5),89,,52,66,61,39,,50,44,14,21,4,4,0.8,0.9
2026-01-01T1100,1051A,115.4803,38.8568,保定市,游泳馆,,,55,43,34,22,31,,13,13,,27,3,4,,0.5
2026-01-01T1100,1052A,115.509,38.8895,保定市,华电二区,细颗粒物(PM2.5),60,57,38,43,30,22,,17,12,31,27,3,4,0.8,0.6
2026-01-01T1100,1053A,115.4588,38.9037,保定市,接待中心,,,116,45,,24,,,14,,20,24,,2,0.7,0.5
2026-01-01T1100,1054A,115.4484,38.8344,保定市,地表水厂,颗粒物(PM10),71,92,61,51,31,22,,11,11,47,41,4,3,0.8,0.6
2026-01-01T1100,3581A,115.3136,38.9511,保定市,满城区生态环境分局,颗粒物(PM10),56,61,67,29,32,25,,8,8,29,41,5,5,0.5,0.6
2026-01-01T1100,3582A,115.4709,38.7628,保定市,清苑区第二中学,细颗粒物(PM2.5),83,112,64,61,30,16,,6,6,52,42,8,6,0.7,0.5
2026-01-01T1100,3583A,115.6231,39.0223,保定市,徐水物探局,颗粒物(PM10),68,85,65,47,33,19,,6,6,42,44,7,4,0.8,0.6
2026-01-01T1100,4004A,115.4199,38.8665,保定市,双鹰农机,颗粒物(PM10),63,75,58,37,28,36,,16,16,22,33,8,13,0.5,0.4
2026-01-01T1100,4034A,115.515,38.8589,保定市,植保所站,颗粒物(PM10),58,65,46,31,26,23,,9,8,33,38,6,3,0.5,0.4
2026-01-01T1100,2594A,99.1589,25.1137,保山市,市环境监测站,细颗粒物(PM2.5),54,41,25,38,22,36,,40,35,21,9,6,5,0.6,0.3
2026-01-01T1100,2595A,99.1616,25.1381,保山市,市环保局,,39,39,28,17,20,37,,52,45,20,6,5,4,0.5,0.3
2026-01-01T1100,1867A,109.1435,21.4085,北海市,海滩公园,,,49,52,32,34,84,,98,86,,15,,11,0.7,0.8
2026-01-01T1100,1868A,109.0983,21.466,北海市,新市环保局,,50,50,46,31,35,87,,99,86,18,15,10,6,0.6,0.6
2026-01-01T1100,1869A,109.1775,21.5232,北海市,北海工业园,细颗粒物(PM2.5),55,58,59,39,38,77,,83,72,22,16,17,10,0.8,0.7
2026-01-01T1100,3400A,109.1844,21.4396,北海市,龙潭自来水厂,颗粒物(PM10),52,54,49,32,35,84,,90,76,13,12,15,10,1.0,0.9
2026-01-01T1100,1001A,116.3611,39.8786,北京市,万寿西宫,,,,36,,15,,,53,10,,39,,2,,0.4
2026-01-01T1100,1003A,116.4174,39.9289,北京市,东四,,23,23,29,10,13,41,,15,15,17,27,2,2,0.6,0.5
2026-01-01T1100,1004A,116.4073,39.8858,北京市,天坛,,23,23,28,11,12,36,,13,13,24,29,3,2,0.5,0.4
2026-01-01T1100,1005A,116.4622,39.9364,北京市,农展馆,,26,26,29,11,18,36,,11,11,19,27,5,4,0.5,0.5
2026-01-01T1100,1006A,116.3399,39.9293,北京市,官园,,28,28,33,8,14,39,,10,10,19,35,4,4,0.5,0.5
2026-01-01T1100,1007A,116.2879,39.9613,北京市,海淀万柳,,25,25,32,13,16,31,,7,7,27,39,3,3,0.5,0.4
2026-01-01T1100,1008A,116.6635,40.1349,北京市,顺义新城,,17,14,22,7,11,54,,25,25,5,21,5,4,0.3,0.4
2026-01-01T1100,1009A,116.6275,40.327,北京市,怀柔镇,,19,19,16,8,9,45,,27,27,10,13,6,6,0.4,0.4
2026-01-01T1100,1010A,116.2295,40.217,北京市,昌平镇,,21,21,26,10,11,59,,22,22,8,19,5,5,0.4,0.5
2026-01-01T1100,1011A,116.3968,39.982,北京市,奥体中心,,25,25,27,11,13,35,,15,15,24,36,4,4,0.6,0.6
2026-01-01T1100,3418A,116.8336,40.4095,北京市,密云新城,,,,19,,9,,,60,30,,12,,3,,0.4
2026-01-01T1100,3671A,116.0879,39.9725,北京市,门头沟三家店,,40,40,37,16,15,30,,9,9,29,29,4,2,0.5,0.4
2026-01-01T1100,3672A,116.1507,39.8246,北京市,丰台云岗,,43,43,51,15,15,29,,10,10,38,38,3,2,0.5,0.5
2026-01-01T1100,3674A,115.9578,39.7602,北京市,房山燕山,,36,36,31,25,15,36,,21,21,29,23,4,3,0.4,0.3
2026-01-01T1100,3675A,116.4669,39.7734,北京市,大兴旧宫,,,,39,,12,,,50,1,,35,,2,,0.4
2026-01-01T1100,3694A,115.9859,40.4562,北京市,延庆石河营,,24,24,39,15,23,44,,10,10,16,21,4,3,0.6,0.8
2026-01-01T1100,3695A,116.6151,40.3052,北京市,怀柔新城,,20,20,15,11,11,44,,29,29,10,11,4,4,0.3,0.3
2026-01-01T1100,3696A,116.2542,39.8764,北京市,丰台小屯,,32,32,40,14,15,33,,7,7,24,38,5,3,0.6,0.6
2026-01-01T1100,3697A,116.8399,40.3843,北京市,密云镇,,,,22,,8,,,61,7,,28,,1,,0.5
2026-01-01T1100,4057A,115.9423,40.4431,北京市,延庆百泉,,27,27,61,17,40,40,,8,8,15,29,3,1,0.6,0.8
2026-01-01T1100,4058A,116.6598,39.9164,北京市,通州新华,,29,29,40,12,18,33,,9,9,24,46,2,3,0.3,0.5
2026-01-01T1100,4182A,116.1942,39.9158,北京市,石景山八角,,44,44,41,16,13,24,,8,8,34,37,1,3,0.4,0.3
2026-01-01T1100,4194A,117.078628,40.151726,北京市,平谷新城,,,,18,,12,,,52,16,,13,,2,,0.5
2026-01-01T1100,1761A,123.8274146,41.31234549,本溪市,大峪,细颗粒物(PM2.5),73,94,58,53,27,28,,11,11,19,27,15,9,1.2,1.1
2026-01-01T1100,1763A,123.7169,41.3094,本溪市,彩屯,细颗粒物(PM2.5),72,86,77,52,44,22,,7,7,28,35,30,12,1.3,1.4
2026-01-01T1100,1764A,123.7672166,41.28649327,本溪市,东明,细颗粒物(PM2.5),64,75,62,46,40,28,,10,10,19,28,11,8,1.4,1.3
2026-01-01T1100,1765A,123.799345,41.266614,本溪市,新立屯,颗粒物(PM10),56,62,32,36,18,31,,10,10,16,26,13,9,1.1,1.1
2026-01-01T1100,1766A,123.829144,41.336777,本溪市,威宁,颗粒物(PM10),68,85,56,40,28,28,,12,12,20,29,8,6,1.1,1
2026-01-01T1100,2587A,105.287,27.3133,毕节市,八中,,,40,29,35,23,,,46,44,10,10,9,8,0.9,0.8
2026-01-01T1100,2588A,105.3079,27.2987,毕节市,师专,,29,26,23,20,17,54,,52,49,13,11,7,8,0.7,0.7
2026-01-01T1100,4263A,105.3688,27.3598,毕节市,工业大道,,43,33,25,30,21,44,,44,41,16,10,10,10,/,/
2026-01-01T1100,1629A,117.9961,37.3604,滨州市,第二水厂,,29,29,25,20,12,43,,14,14,21,24,12,11,0.5,0.6
2026-01-01T1100,1630A,117.9789,37.3931,滨州市,北中新校,,34,34,32,12,14,38,,14,14,14,24,7,8,0.4,0.5
2026-01-01T1100,3514A,117.9379,37.3959,滨州市,中海酒店,,45,,28,31,21,45,,16,16,21,34,10,9,0.7,0.8
2026-01-01T1100,3515A,117.9381509,37.35547456,滨州市,开发区一中,,42,41,30,29,16,41,,14,14,19,21,15,12,0.6,0.6
2026-01-01T1100,3516A,118.0914,37.6938,滨州市,金海六路,,41,41,33,24,19,41,,12,12,23,33,14,12,0.6,0.7
2026-01-01T1100,4028A,117.9955,37.3752,滨州市,滨州市西街道办事处,,29,29,20,19,17,46,,21,21,18,21,9,10,0.5,0.5
2026-01-01T1100,2311A,115.8071,33.8399,亳州市,污水处理厂,细颗粒物(PM2.5),54,44,41,38,29,38,,33,32,21,21,5,4,0.3,0.3
2026-01-01T1100,2312A,115.7789,33.8519,亳州市,三国揽胜宫,颗粒物(PM10),56,62,51,30,27,33,,32,28,12,14,4,2,0.4,0.5
2026-01-01T1100,3332A,115.7631,33.803,亳州市,亳州学院,,,,43,,33,,,35,31,15,17,4,3,0.6,0.5
2026-01-01T1100,2693A,82.0482,44.8553,博尔塔拉蒙古自治州,市党校,颗粒物(PM10),52,54,69,26,37,30,,62,55,26,18,4,4,0,0.2
2026-01-01T1100,2694A,82.0805,44.8966,博尔塔拉蒙古自治州,市环保局,颗粒物(PM10),73,96,78,38,36,33,,46,43,28,24,8,8,0.9,0.9
2026-01-01T1100,1071A,116.8733,38.2922,沧州市,沧县城建局,,43,43,45,28,28,46,,16,16,22,40,6,4,0.4,0.5
2026-01-01T1100,1072A,116.8462,38.3189,沧州市,电视转播站,,43,43,45,29,24,36,,13,13,30,40,8,5,0.4,0.5
2026-01-01T1100,1073A,116.8588,38.3161,沧州市,市环保局,,49,49,45,32,34,30,,15,15,21,31,5,5,0.4,0.4
2026-01-01T1100,3324A,116.8011,38.294,沧州市,河北水利电力学院,,46,46,43,20,23,29,,8,8,30,43,7,6,0.4,0.4
2026-01-01T1100,2622A,97.1813,31.1289,昌都市,昌都监测站,,,,42,,14,,,57,57,,18,,2,,0.6
2026-01-01T1100,3719A,97.1707,31.1428,昌都市,昌都会议中心,,,,18,,12,52,,57,55,7,7,5,5,0.5,0.5
2026-01-01T1100,2692A,87.2722,44.0298,昌吉回族自治州,新区政务中心,颗粒物(PM10),61,71,84,38,54,24,,19,16,45,39,6,6,0.9,0.9
2026-01-01T1100,3613A,87.3069,44.0093,昌吉回族自治州,亚心广场,细颗粒物(PM2.5),83,83,84,61,60,30,,45,43,41,20,7,7,1.0,1
2026-01-01T1100,4164A,87.2057,43.9289,昌吉回族自治州,财政所,细颗粒物(PM2.5),65,61,59,47,45,54,,55,55,10,9,5,5,0.6,0.6
2026-01-01T1100,1120A,125.2874,43.9024,长春市,客车厂,,42,39,44,29,39,36,,20,20,17,30,11,10,0.5,0.5
2026-01-01T1100,1121A,125.2943,43.8508,长春市,邮电学院,,39,30,44,27,32,35,,22,22,13,23,12,13,0.4,0.5
2026-01-01T1100,1122A,125.3648,43.8745,长春市,劳动公园,,38,30,41,26,27,33,,24,24,18,25,10,9,0.7,0.7
2026-01-01T1100,1123A,125.3233,43.8781,长春市,园林处,,39,37,46,27,34,33,,24,24,12,23,16,12,0.3,0.3
2026-01-01T1100,1124A,125.4604,43.7904,长春市,净月潭,,39,32,44,27,29,29,,14,14,18,20,10,6,0.5,0.5
2026-01-01T1100,1126A,125.38,43.8422,长春市,经开区环卫处,,35,29,80,24,48,33,,14,14,17,30,18,11,0.4,0.6
2026-01-01T1100,1127A,125.234,43.7761,长春市,高新区管委会,,43,,54,30,46,36,,14,14,13,28,12,8,0.6,0.9
2026-01-01T1100,1128A,125.1695,43.83,长春市,岱山公园,细颗粒物(PM2.5),59,64,57,42,47,38,,15,15,16,33,10,10,0.5,0.7
2026-01-01T1100,4281A,125.334645,43.916281,长春市,北亚泰大街1068号,,,50,43,35,35,,,15,15,17,28,10,10,0.6,0.7
2026-01-01T1100,1335A,113.082,28.2421,长沙市,经开区环保局,,,31,59,24,48,,,25,24,14,18,3,3,0.3,0.5
2026-01-01T1100,1336A,112.8873,28.2202,长沙市,高开区环保局,,35,31,52,24,40,30,,27,27,11,11,4,4,0.5,0.7
2026-01-01T1100,1337A,113.0785,28.2012,长沙市,马坡岭,,38,36,63,26,48,28,,28,26,18,22,3,4,0.6,0.6
2026-01-01T1100,1338A,112.9448,28.1894,长沙市,湖南师范大学,,35,33,61,24,41,33,,32,32,13,14,1,1,0.5,0.7
2026-01-01T1100,1339A,113.0177,28.1322,长沙市,雨花区环保局,,43,31,57,30,50,27,,28,27,13,15,6,6,0.4,0.6
2026-01-01T1100,1340A,112.9795,28.2593,长沙市,伍家岭,,33,33,61,20,42,30,,29,29,18,21,4,4,0.2,0.3
2026-01-01T1100,1341A,113.002,28.1944,长沙市,火车新站,,45,40,66,31,46,28,,28,28,8,10,6,7,0.5,0.6
2026-01-01T1100,1342A,112.9846,28.1177,长沙市,天心区环保局,,43,,64,30,51,31,,30,30,20,19,6,6,0.3,0.5
2026-01-01T1100,1343A,112.8906,28.1307,长沙市,湖南中医药大学,,36,,61,25,46,33,,30,30,14,15,4,5,0.5,0.7
2026-01-01T1100,1727A,113.1146,36.1547,长治市,清华站,细颗粒物(PM2.5),85,,45,63,41,38,,30,30,21,21,14,11,0.8,0.7
2026-01-01T1100,1730A,113.0887,36.2126,长治市,审计局,,,,38,,34,40,,24,23,,21,,9,0.9,0.8
2026-01-01T1100,1731A,113.0845,36.1856,长治市,长治八中,细颗粒物(PM2.5),85,,47,63,39,33,,23,23,20,20,15,10,0.9,0.8
2026-01-01T1100,2845A,113.1561,36.1912,长治市,德盛苑,细颗粒物(PM2.5),94,,45,70,43,36,,26,26,18,14,12,8,1.1,0.9
2026-01-01T1100,3568A,113.0603,36.0464,长治市,向阳小学,细颗粒物(PM2.5),127,99,66,96,44,42,,30,29,21,27,17,10,1.1,1
2026-01-01T1100,3569A,112.8788,36.315,长治市,屯留一中,细颗粒物(PM2.5),80,,48,59,36,44,,36,34,18,22,10,10,0.5,0.5
2026-01-01T1100,4189A,113.113092,36.199482,长治市,英华南巷50号,细颗粒物(PM2.5),89,67,51,66,47,42,,26,26,14,18,12,8,1.1,0.9
2026-01-01T1100,4190A,113.23666,36.33435,长治市,学府街1号,细颗粒物(PM2.5),98,,41,73,37,42,,32,31,17,18,14,12,1.2,1
2026-01-01T1100,1854A,111.696,28.9725,常德市,市二中,细颗粒物(PM2.5),54,41,47,38,36,37,,36,36,16,18,4,4,0.4,0.6
2026-01-01T1100,3138A,111.7152,29.0288,常德市,武陵区永安,,49,40,48,34,34,35,,36,36,22,24,3,3,0.6,0.8
2026-01-01T1100,3139A,111.6891,28.9881,常德市,鼎城区玉霞,细颗粒物(PM2.5),52,41,41,36,36,37,,36,36,19,22,6,6,0.4,0.6
2026-01-01T1100,3140A,111.6651,29.0526,常德市,武陵区长庚,,50,38,47,35,36,36,,36,36,16,18,3,3,0.5,0.7
2026-01-01T1100,1196A,119.9524,31.7586,常州市,市监测站,,22,22,28,14,13,50,,55,52,15,17,3,4,0.3,0.3
2026-01-01T1100,1200A,119.9351,31.703,常州市,武进监测站,,20,20,25,10,15,52,,55,54,12,15,8,9,0.0,0.1
2026-01-01T1100,3002A,119.9701,31.813,常州市,行政中心,,,16,30,11,12,,,54,51,14,13,3,4,0.3,0.3
2026-01-01T1100,3003A,120.0434,31.7726,常州市,经开区,,23,23,29,9,11,52,,53,52,5,9,2,4,0.4,0.4
2026-01-01T1100,3010A,119.8919,31.7892,常州市,钟楼,,22,21,27,15,10,46,,53,50,13,12,5,6,0.3,0.2
2026-01-01T1100,3429A,119.8595,31.706,常州市,武进经发区,,26,26,29,13,13,50,,52,50,12,14,6,7,0.3,0.4
2026-01-01T1100,3430A,119.5812,31.7256,常州市,金坛城区,,26,25,30,18,15,45,,50,48,12,12,5,6,0.5,0.5
2026-01-01T1100,4089A,119.9551,31.863,常州市,崇义南街5-H号,,16,15,14,10,4,50,,55,52,10,6,3,4,0.4,0.3
2026-01-01T1100,2220A,120.4318,41.588,朝阳市,西梁,,42,42,81,6,52,54,,19,19,9,35,4,12,0.4,1
2026-01-01T1100,2221A,120.452,41.565,朝阳市,河畔小区,,38,38,62,8,49,55,,24,24,6,27,7,9,0.4,0.9
2026-01-01T1100,2222A,120.4176,41.5648,朝阳市,八里堡,,,50,72,7,50,55,,16,16,,35,8,12,0.4,1.1
2026-01-01T1100,3026A,116.6179,23.6608,潮州市,市政府,,42,42,53,19,32,68,,37,35,11,19,9,10,0.4,0.5
2026-01-01T1100,4036A,116.646,23.676,潮州市,金山,颗粒物(PM10),51,51,46,19,31,65,,31,31,12,15,7,4,0.3,0.4
2026-01-01T1100,2473A,113.0116,25.8228,郴州市,市职中,,13,,69,9,64,16,,28,22,15,16,2,8,0.5,0.7
2026-01-01T1100,2475A,113.0381,25.8074,郴州市,市审计局,,14,14,75,3,65,18,,30,24,12,15,1,7,/,/
2026-01-01T1100,2476A,113.0348,25.7757,郴州市,市环保局,,16,16,86,3,60,16,,27,21,15,19,2,10,0.6,0.7
2026-01-01T1100,4252A,113.0138,25.8011,郴州市,好美居路49号,,10,,73,7,70,22,,35,28,7,16,3,7,/,/
2026-01-01T1100,1431A,103.9727,30.7242,成都市,金泉两河,,49,49,50,21,34,58,,59,59,24,25,2,2,0.6,0.6
2026-01-01T1100,1432A,104.1423,30.6765,成都市,十里店,,38,38,45,22,36,52,,58,55,28,21,4,3,0.7,0.6
2026-01-01T1100,1433A,104.0594,30.5765,成都市,三瓦窑,,46,38,52,32,43,55,,61,59,28,22,3,3,0.7,0.6
2026-01-01T1100,1434A,104.1122,30.6306,成都市,沙河铺,细颗粒物(PM2.5),63,,56,45,43,49,,54,52,30,25,4,4,0.6,0.7
2026-01-01T1100,2880A,104.0219,30.6561,成都市,大石西路,,46,41,52,32,38,59,,59,59,21,21,4,4,0.4,0.5
2026-01-01T1100,3136A,104.2724,30.559,成都市,龙泉驿区区政府,,36,36,39,24,33,29,,33,31,24,18,5,6,0.6,0.5
2026-01-01T1100,3357A,104.0028,30.6891,成都市,金博路,,43,,41,30,28,55,,56,56,28,25,4,5,0.7,0.7
2026-01-01T1100,3359A,104.056,30.5228,成都市,华阳,,39,31,42,27,33,53,,57,56,28,25,3,3,0.6,0.6
2026-01-01T1100,3488A,104.387954,30.746684,成都市,青石路225号,颗粒物(PM10),51,52,46,33,39,45,,51,44,28,20,5,5,0.6,0.6
2026-01-01T1100,3489A,104.0788,30.4054,成都市,科学城,,35,35,42,23,35,50,,58,54,24,19,6,6,0.8,0.7
2026-01-01T1100,4011A,103.8505,30.6946,成都市,光华大道三段,,35,33,47,24,37,65,,65,65,20,21,3,3,0.7,0.7
2026-01-01T1100,4144A,104.3257,30.6406,成都市,八角井街185号,颗粒物(PM10),55,60,40,38,25,41,,47,38,31,23,3,3,1.0,0.9
2026-01-01T1100,4224A,104.2433276,30.53529463,成都市,鲸龙路1057号,,50,41,38,35,34,39,,48,45,34,24,5,5,0.8,0.8
2026-01-01T1100,1062A,117.9531,40.908,承德市,铁路,颗粒物(PM10),56,61,45,22,24,18,,8,8,29,27,6,5,0.9,0.8
2026-01-01T1100,1063A,117.9397,40.9763,承德市,中国银行,,39,39,41,12,19,25,,10,10,16,20,3,3,0.7,0.6
2026-01-01T1100,4073A,117.9462,40.95,承德市,杏林街1号,颗粒物(PM10),54,57,56,30,34,21,,7,7,26,33,5,4,1.0,0.9
2026-01-01T1100,4274A,117.7994,40.9605,承德市,滨河大街98号,,18,18,38,3,17,53,,14,14,11,26,4,4,0.2,0.5
2026-01-01T1100,2314A,117.4698,30.6617,池州市,池州学院,,28,22,28,19,18,41,,44,39,17,17,3,4,0.3,0.3
2026-01-01T1100,3237A,117.4918,30.6617,池州市,展览馆,,22,22,27,14,15,46,,42,40,15,20,2,3,0.5,0.5
2026-01-01T1100,3333A,117.5626,30.695,池州市,第八中学,,23,22,31,16,18,49,,43,43,16,20,2,3,0.4,0.4
2026-01-01T1100,3334A,117.5037,30.6242,池州市,第十二中学,,23,21,30,16,16,44,,45,43,19,21,2,3,0.5,0.4
2026-01-01T1100,1744A,118.9229,42.2816,赤峰市,松山一中,,29,29,28,3,12,55,,44,44,7,16,6,6,0.5,0.6
2026-01-01T1100,1745A,118.9588,42.2733,赤峰市,哈达街,,28,28,39,6,25,61,,52,52,9,16,6,8,0.5,0.5
2026-01-01T1100,1746A,118.8792,42.2551,赤峰市,天义路,,19,18,19,6,14,60,,48,48,5,12,5,6,0.5,0.5
2026-01-01T1100,3058A,119.2656,42.0356,赤峰市,银河街,,43,43,58,18,32,57,,44,44,4,17,10,15,0.5,0.9
2026-01-01T1100,3286A,118.9359,42.3146,赤峰市,桥北物流园区,,,,16,,14,,,56,45,,17,,6,,0.3
2026-01-01T1100,2521A,107.3473,22.4137,崇左市,市环保局江州分局,细颗粒物(PM2.5),82,90,66,60,44,79,,44,44,16,21,7,8,0.8,0.6
2026-01-01T1100,4256A,107.375,22.3736,崇左市,石景林东路7号,细颗粒物(PM2.5),87,70,52,64,40,71,,64,64,22,18,9,8,0.8,0.5
2026-01-01T1100,3207A,118.31131,32.3033,滁州市,市政府原办公楼,,39,36,39,27,19,47,,54,50,12,12,3,4,0.2,0.2
2026-01-01T1100,3331A,118.3268,32.2633,滁州市,图书馆,,49,,28,34,15,45,,50,47,8,8,7,7,0.3,0.3
2026-01-01T1100,4101A,118.3196,32.3335,滁州市,银山路666号,细颗粒物(PM2.5),60,,21,43,26,44,,51,47,6,5,7,7,0.3,0.3
2026-01-01T1100,4102A,118.3426,32.2979,滁州市,黄山路555号,细颗粒物(PM2.5),63,,28,45,24,49,,53,52,10,7,9,8,0.4,0.3
2026-01-01T1100,2606A,101.5379,25.0492,楚雄彝族自治州,市经济开发区,,50,42,37,35,27,30,,10,10,18,20,8,8,0.5,0.4
2026-01-01T1100,4153A,101.5536,25.0343,楚雄彝族自治州,团结路562号,,39,29,50,27,46,29,,14,14,14,19,6,5,0.5,0.5
2026-01-01T1100,2549A,107.5087,31.2186,达州市,市环境监测站,,28,28,19,9,11,44,,42,40,25,22,9,9,0.4,0.5
2026-01-01T1100,2550A,107.4988,31.2132,达州市,凤凰小区,,18,17,17,12,13,52,,50,49,16,16,7,8,0.4,0.4
2026-01-01T1100,2551A,107.5081,31.1987,达州市,达县机关宾馆,,39,39,23,20,19,32,,36,32,31,27,5,5,0.7,0.7
2026-01-01T1100,2552A,107.4644,31.2124,达州市,市政中心,,26,26,30,14,12,43,,44,43,19,14,9,9,0.4,0.4
2026-01-01T1100,2614A,100.2168,25.5818,大理白族自治州,大理市环境监测站,,30,,19,21,19,53,,58,52,9,10,6,6,0.7,0.7
2026-01-01T1100,2615A,100.1542,25.7055,大理白族自治州,大理古城,,20,19,30,14,22,57,,50,48,10,17,8,8,0.5,0.5
2026-01-01T1100,1109A,121.6119,38.974,大连市,甘井子,,,34,24,24,17,50,,35,35,13,20,,10,0.5,0.7
2026-01-01T1100,1110A,121.565,38.9509,大连市,周水子,,35,35,26,22,18,48,,34,34,16,25,4,3,0.5,0.5
2026-01-01T1100,1111A,121.5637,38.8849,大连市,星海三站,,33,28,23,23,16,44,,38,38,17,17,9,6,0.6,0.5
2026-01-01T1100,1112A,121.6301,38.9117,大连市,青泥洼桥,,40,40,26,24,14,41,,31,31,16,20,11,9,0.5,0.4
2026-01-01T1100,1113A,121.6248,38.8643,大连市,傅家庄,,35,27,24,24,15,40,,35,35,15,15,10,10,0.3,0.3
2026-01-01T1100,1114A,121.5117,38.8636,大连市,七贤岭,,33,31,24,23,13,44,,44,43,10,15,10,8,0.7,0.5
2026-01-01T1100,1116A,121.7507,39.1339,大连市,金州,,27,27,26,16,16,53,,39,39,10,16,10,10,0.4,0.4
2026-01-01T1100,1117A,121.7811,39.0495,大连市,开发区,,33,28,22,23,18,46,,22,22,9,20,8,7,0.5,0.5
2026-01-01T1100,1118A,121.9762,39.0631,大连市,双D港,,35,35,24,21,13,55,,43,43,11,10,11,9,0.6,0.5
2026-01-01T1100,4082A,121.2548,38.8188,大连市,旅顺,,38,38,37,18,25,46,,41,41,8,12,8,7,0.6,0.7
2026-01-01T1100,1789A,124.8085,46.0381,大庆市,大同区,,25,23,35,17,25,43,,33,33,6,13,6,5,0.2,0.3
2026-01-01T1100,1790A,125.1166,46.5255,大庆市,龙凤区,,23,23,29,14,25,41,,33,33,18,24,8,8,0.7,0.7
2026-01-01T1100,1791A,124.8894,46.4007,大庆市,红岗区,,22,22,26,12,22,40,,31,31,12,14,10,6,0.5,0.6
2026-01-01T1100,1792A,125.1391,46.578,大庆市,萨尔图区,,26,26,30,11,18,37,,38,37,15,15,8,7,0.4,0.4
2026-01-01T1100,1793A,124.9026,46.6217,大庆市,让胡路区,,25,22,30,17,27,46,,42,42,6,9,8,9,0.4,0.4
2026-01-01T1100,3481A,125.127,46.6277,大庆市,萨区政府监测点,,26,26,31,9,18,41,,33,33,13,18,11,9,0.6,0.6
2026-01-01T1100,1723A,113.2926,40.0759,大同市,云冈宾馆,颗粒物(PM10),78,106,88,53,52,21,,8,8,37,43,28,16,2.4,1.7
2026-01-01T1100,1724A,113.3437,40.0921,大同市,大同大学,细颗粒物(PM2.5),64,74,64,46,42,29,,22,22,30,36,31,19,1.5,1.1
2026-01-01T1100,1725A,113.2637,40.129,大同市,安家小村,颗粒物(PM10),75,99,81,40,36,30,,13,13,32,38,37,20,3.6,2
2026-01-01T1100,3282A,113.3399,40.0586,大同市,大同市卫生学校,,,84,94,46,47,,,12,12,42,41,30,21,2.1,1.3
2026-01-01T1100,3565A,113.1371,40.1122,大同市,云冈站,颗粒物(PM10),68,86,62,42,29,32,,11,11,23,32,29,17,0.8,1
2026-01-01T1100,3566A,113.1186,40.2556,大同市,图书馆,细颗粒物(PM2.5),82,77,42,60,28,31,,14,14,17,16,14,6,1.3,1.2
2026-01-01T1100,3567A,113.5931,40.0459,大同市,区一中,颗粒物(PM10),102,154,94,45,55,30,,23,23,38,35,51,20,2.0,1.2
2026-01-01T1100,4199A,113.2798248,40.09972476,大同市,魏都大道141号,颗粒物(PM10),93,135,109,60,58,23,,10,10,35,41,28,15,2.4,1.9
2026-01-01T1100,2269A,124.1068,50.4091,大兴安岭地区,科技局,,,104,23,14,18,,,48,48,3,2,5,6,0.3,0.3
2026-01-01T1100,3663A,124.117,50.4279,大兴安岭地区,红旗社区,,18,,8,6,8,57,,54,54,2,3,5,6,0.2,0.2
2026-01-01T1100,1600A,124.33,40.0625,丹东市,江湾东路,,25,25,30,17,21,43,,27,27,9,15,9,8,0.4,0.6
2026-01-01T1100,1601A,124.4242,40.1513,丹东市,临江后街,,31,31,32,16,18,40,,18,18,10,18,5,10,0.7,0.8
2026-01-01T1100,1602A,124.3935,40.1461,丹东市,元宝山,,31,31,25,20,16,37,,21,20,14,15,10,10,0.6,0.7
2026-01-01T1100,1603A,124.3634,40.1093,丹东市,民主桥,,35,35,33,15,18,44,,28,28,9,16,7,8,0.4,0.5
2026-01-01T1100,3541A,109.5726195,19.51688767,儋州市,第一中学子站,,24,23,30,16,18,74,,65,63,8,13,4,3,0.4,0.5
2026-01-01T1100,3542A,109.5567,19.5187,儋州市,东坡学校子站,,,29,31,13,18,78,,66,62,,6,5,5,,0.4
2026-01-01T1100,2616A,98.5611,24.4273,德宏傣族景颇族自治州,德宏州监测站,细颗粒物(PM2.5),58,57,56,41,44,24,,13,11,22,22,6,6,0.7,0.7
2026-01-01T1100,3677A,98.5887,24.4366,德宏傣族景颇族自治州,芒市人民政府综合楼,细颗粒物(PM2.5),62,49,58,44,37,26,,17,14,32,29,9,9,0.8,0.7
2026-01-01T1100,1901A,104.424,31.1209,德阳市,东山公园,,43,36,38,30,35,61,,63,63,15,16,2,2,0.7,0.7
2026-01-01T1100,1902A,104.3827,31.1318,德阳市,西小区,,48,,48,33,38,58,,61,60,23,19,2,2,0.9,0.8
2026-01-01T1100,1904A,104.3553,31.1091,德阳市,耐火材料厂,细颗粒物(PM2.5),52,42,40,36,33,56,,57,55,25,22,1,2,0.8,0.8
2026-01-01T1100,4145A,104.4144,31.1495,德阳市,市林业局,细颗粒物(PM2.5),53,45,36,37,30,57,,55,55,18,18,2,2,0.6,0.6
2026-01-01T1100,1622A,116.3034,37.4675,德州市,儿童乐园,,46,46,43,27,21,36,,26,26,34,33,15,13,0.9,0.9
2026-01-01T1100,1624A,116.2992,37.4449,德州市,监理站,颗粒物(PM10),51,51,39,24,22,44,,30,30,36,32,16,14,0.7,0.6
2026-01-01T1100,3066A,116.2722,37.438,德州市,九衢泉纯净水厂,,49,48,60,34,37,34,,7,7,31,40,1,9,0.4,0.5
2026-01-01T1100,3371A,116.3693,37.44,德州市,开发区人民医院,,48,48,44,29,25,44,,25,25,35,43,14,15,0.7,0.6
2026-01-01T1100,3511A,116.5687,37.3331,德州市,陵城艺术中心,颗粒物(PM10),51,51,37,27,19,42,,27,27,30,33,19,24,0.5,0.5
2026-01-01T1100,4292A,116.352738,37.420875,德州市,新河东路,颗粒物(PM10),53,56,50,36,34,31,,13,13,43,47,15,15,0.8,0.8
2026-01-01T1100,2621A,99.7054,27.8319,迪庆藏族自治州,迪庆州站,细颗粒物(PM2.5),53,54,41,37,26,58,,46,46,17,14,6,6,0.7,0.6
2026-01-01T1100,3180A,99.7122,27.8129,迪庆藏族自治州,质量技术监督局,,48,48,42,32,32,58,,46,45,17,20,5,5,0.6,0.6
2026-01-01T1100,4257A,104.6092,35.5962,定西市,将台街,细颗粒物(PM2.5),69,80,70,50,47,57,,57,57,17,17,8,8,0.5,0.5
2026-01-01T1100,4309A,104.6159,35.5701,定西市,正龙路62号,细颗粒物(PM2.5),80,71,79,59,58,55,,52,52,11,12,6,5,0.7,0.7
2026-01-01T1100,1390A,113.7943,23.0132,东莞市,东城石井,细颗粒物(PM2.5),63,63,67,45,43,79,,30,30,32,43,9,9,0.8,0.8
2026-01-01T1100,1391A,113.7384,22.9659,东莞市,南城西平,细颗粒物(PM2.5),70,73,81,51,49,80,,19,19,34,64,10,9,0.7,0.8
2026-01-01T1100,3319A,113.7283,23.041,东莞市,万江金泰,细颗粒物(PM2.5),79,78,93,58,60,76,,28,28,27,41,7,8,0.8,0.9
2026-01-01T1100,4129A,113.8666,23.1062,东莞市,裕兴路,细颗粒物(PM2.5),72,84,111,52,71,86,,37,37,20,42,6,7,0.8,0.9
2026-01-01T1100,4130A,114.0076,22.9739,东莞市,教育路1号,细颗粒物(PM2.5),69,75,101,50,59,78,,26,26,20,46,7,7,0.8,0.9
2026-01-01T1100,4131A,113.7981,22.8124,东莞市,长怡路1号,颗粒物(PM10),54,57,80,35,42,74,,39,39,20,43,9,8,0.7,0.7
2026-01-01T1100,1666A,118.6612,37.4313,东营市,市环保局,,31,31,24,12,11,43,,24,22,28,29,12,10,0.8,0.7
2026-01-01T1100,3036A,118.6903,37.4337,东营市,开发区管委会,,44,44,29,17,11,48,,29,28,24,24,14,12,1.0,0.8
2026-01-01T1100,3365A,118.5721,37.5654,东营市,垦利区民丰路,,39,39,24,19,11,45,,20,20,24,25,9,6,0.9,0.9
2026-01-01T1100,3498A,118.5063,37.8606,东营市,河口城区,颗粒物(PM10),51,51,24,32,10,42,,22,22,33,31,7,4,0.8,0.6
2026-01-01T1100,3646A,118.4979,37.4623,东营市,胜利站,颗粒物(PM10),52,54,30,22,15,40,,15,15,29,31,15,13,0.7,0.7
2026-01-01T1100,3734A,118.5753,37.4405,东营市,理想之城,,34,34,28,19,16,42,,20,20,27,28,10,8,0.8,0.7
2026-01-01T1100,1591A,110.0024,39.8127,鄂尔多斯市,综合楼,,,24,37,7,28,64,,59,59,15,21,,11,0.7,0.7
2026-01-01T1100,1592A,109.9485,39.8259,鄂尔多斯市,巴音孟克林场办事处,,20,19,47,9,27,61,,62,62,19,25,16,13,0.8,0.5
2026-01-01T1100,1593A,109.7734,39.5987,鄂尔多斯市,康泽苑,,27,27,22,9,12,56,,45,45,18,18,5,5,0.5,0.4
2026-01-01T1100,1594A,109.8121,39.5987,鄂尔多斯市,华泰汽车城,,24,24,33,9,17,41,,21,21,18,27,2,3,0.4,0.4
2026-01-01T1100,1595A,109.9734,39.7884,鄂尔多斯市,奥林花园,,31,31,63,7,19,58,,47,47,24,35,7,8,0.8,0.7
2026-01-01T1100,2436A,114.894,30.3989,鄂州市,市政府,,18,18,32,6,19,32,,33,30,17,17,4,5,0.4,0.5
2026-01-01T1100,2437A,114.8986,30.3714,鄂州市,赵家坝,,,17,39,12,24,22,,35,31,,10,7,7,,0.6
2026-01-01T1100,3654A,114.8093,30.4091,鄂州市,精准医疗中心,,18,18,39,9,25,38,,40,36,1,8,4,5,0.7,0.6
2026-01-01T1100,2454A,109.4978,30.2979,恩施土家族苗族自治州,湖北民院,,33,24,26,23,21,44,,44,44,10,12,6,5,0.6,0.7
2026-01-01T1100,3549A,109.5061,30.3771,恩施土家族苗族自治州,龙凤新区,,26,26,25,18,22,41,,38,36,8,7,6,6,0.4,0.5
2026-01-01T1100,2499A,108.3411,21.6159,防城港市,沙万,"颗粒物(PM10),细颗粒物(PM2.5)",57,64,76,40,49,77,,89,77,22,29,8,10,0.7,0.9
2026-01-01T1100,2500A,108.3515,21.7733,防城港市,防城档案局,颗粒物(PM10),55,59,79,32,47,65,,47,47,19,23,7,7,0.6,0.8
2026-01-01T1100,2501A,108.3506,21.6414,防城港市,大海花园,细颗粒物(PM2.5),74,74,77,54,56,82,,98,84,16,19,10,13,0.8,0.9
2026-01-01T1100,1371A,113.1293,23.0065,佛山市,湾梁,细颗粒物(PM2.5),94,97,128,70,80,16,,4,4,60,72,/,/,/,/
2026-01-01T1100,1372A,113.1082,23.0477,佛山市,华材职中,细颗粒物(PM2.5),74,85,97,54,54,21,,9,6,53,58,7,7,0.7,0.8
2026-01-01T1100,1373A,113.1439,23.045,佛山市,南海气象局,细颗粒物(PM2.5),80,92,96,59,47,20,,5,5,52,61,/,/,/,/
2026-01-01T1100,1374A,113.2879,22.8094,佛山市,顺德苏岗,细颗粒物(PM2.5),58,61,83,41,53,64,,18,18,37,62,/,/,0.7,0.9
2026-01-01T1100,1376A,112.8384,22.8678,佛山市,高明孔堂,细颗粒物(PM2.5),94,132,76,70,53,20,,16,8,64,47,/,/,/,/
2026-01-01T1100,1377A,112.8835,23.1584,佛山市,三水监测站,细颗粒物(PM2.5),68,73,116,49,63,44,,11,11,28,63,14,9,0.9,1
2026-01-01T1100,1378A,112.8668,23.185,佛山市,三水云东海,细颗粒物(PM2.5),68,66,92,49,62,42,,8,8,34,55,/,/,/,/
2026-01-01T1100,3625A,113.2568,22.7629,佛山市,容桂街道办,细颗粒物(PM2.5),85,83,88,63,57,35,,24,24,42,53,/,/,/,/
2026-01-01T1100,1282A,119.2681,26.0506,福州市,师大,,32,32,29,18,13,64,,77,72,22,18,8,8,0.5,0.4
2026-01-01T1100,1283A,119.2983,26.1028,福州市,五四北路,,34,34,34,16,12,64,,78,71,17,15,6,6,0.6,0.6
2026-01-01T1100,1284A,119.2648,26.0769,福州市,杨桥西路,,34,34,32,15,11,66,,77,72,15,12,6,5,/,/
2026-01-01T1100,3048A,119.5799,26.0937,福州市,九龙,,22,21,31,6,8,68,,77,72,14,15,6,5,0.3,0.4
2026-01-01T1100,3526A,119.5188,25.9666,福州市,吴航,,22,22,24,12,12,70,,77,72,12,13,4,5,0.5,0.4
2026-01-01T1100,4104A,119.3106,26.0648,福州市,路通桥巷6号,,28,28,26,16,15,64,,76,70,12,8,/,/,/,/
2026-01-01T1100,1755A,123.7974,41.8494,抚顺市,望花区,,,,58,26,36,,,14,14,18,28,5,5,0.9,1
2026-01-01T1100,1756A,123.9161,41.8827,抚顺市,顺城区,,34,34,54,19,33,39,,23,23,14,30,10,9,0.7,0.8
2026-01-01T1100,1757A,124.0437,41.8615,抚顺市,东洲区,,30,30,39,16,31,35,,16,16,9,23,9,8,0.6,0.8
2026-01-01T1100,1758A,123.9246,41.8638,抚顺市,新抚区,细颗粒物(PM2.5),57,51,54,40,34,32,,15,15,18,30,12,9,0.8,0.8
2026-01-01T1100,1759A,124.0972,41.8961,抚顺市,大伙房水库,,44,44,36,27,25,36,,18,18,11,20,18,13,0.8,0.7
2026-01-01T1100,1760A,123.708,41.8386,抚顺市,沈抚新城,细颗粒物(PM2.5),62,,53,44,35,38,,20,20,15,27,8,9,1.0,1
2026-01-01T1100,2377A,116.3544,27.9833,抚州市,市站,,18,18,50,10,29,38,,42,38,12,17,7,8,0.6,0.6
2026-01-01T1100,2378A,116.3562,27.9631,抚州市,血防站,,23,23,50,12,31,40,,43,40,13,17,3,7,0.9,1
2026-01-01T1100,2379A,116.3561,28.0007,抚州市,采茶剧团,,22,18,50,15,29,39,,50,39,6,10,3,8,0.6,0.7
2026-01-01T1100,2380A,116.3854,27.9648,抚州市,医学分院,,21,21,55,10,27,43,,46,43,10,13,4,6,0.5,0.6
2026-01-01T1100,2207A,121.6095,41.9978,阜新市,工业园区,,28,28,69,8,36,51,,39,39,4,22,7,14,0.3,0.7
2026-01-01T1100,2208A,121.6567,42.0188,阜新市,长青街,,19,19,52,7,38,49,,43,43,5,20,6,9,0.5,1.1
2026-01-01T1100,2209A,121.6672,42.07,阜新市,农业园区,,25,25,22,7,8,47,,46,46,5,8,5,7,0.3,0.3
2026-01-01T1100,2211A,121.6343,42.0455,阜新市,玉龙新城,,,36,54,3,24,47,,27,27,6,27,5,6,,0.9
2026-01-01T1100,2301A,115.8276,32.8929,阜阳市,市监测站,,50,41,50,35,33,45,,47,46,20,18,4,4,0.4,0.4
2026-01-01T1100,2303A,115.8551,32.8606,阜阳市,开发区,,,,30,,31,48,,46,46,13,15,,4,0.4,0.4
2026-01-01T1100,2875A,115.783962,32.889217,阜阳市,阜阳职业技术学院,,,36,41,29,28,53,,53,53,,13,,5,0.4,0.5
2026-01-01T1100,3468A,115.79,32.8614,阜阳市,市规划展馆,细颗粒物(PM2.5),53,50,43,37,28,55,,53,53,15,16,4,5,0.5,0.5
2026-01-01T1100,3469A,115.835101,32.918568,阜阳市,枣园社区,细颗粒物(PM2.5),54,42,48,38,26,50,,48,48,12,15,3,4,0.3,0.7
2026-01-01T1100,2669A,102.9097,34.9841,甘南藏族自治州,州政府,细颗粒物(PM2.5),73,79,68,53,44,49,,35,35,17,21,3,5,0.8,0.7
2026-01-01T1100,3380A,102.8915,34.9618,甘南藏族自治州,甘肃民族师范学院,细颗粒物(PM2.5),72,69,76,52,41,67,,38,38,14,27,3,6,1.0,0.9
2026-01-01T1100,2570A,101.96,30.048,甘孜藏族自治州,水桥子,,19,19,12,10,7,36,,45,41,25,15,6,6,0.7,0.8
2026-01-01T1100,3065A,101.9534,29.9976,甘孜藏族自治州,州环保局,,20,20,23,3,8,53,,53,53,12,17,6,6,0.6,0.6
2026-01-01T1100,2363A,114.9368,25.8663,赣州市,地委,颗粒物(PM10),63,75,83,32,53,38,,66,51,14,25,6,8,0.5,0.9
2026-01-01T1100,2364A,114.946,25.8483,赣州市,气象台,颗粒物(PM10),52,53,82,26,45,42,,73,59,20,34,2,3,0.6,0.9
2026-01-01T1100,2365A,114.932,25.8332,赣州市,市图书馆,,39,39,78,26,49,36,,66,50,19,33,4,5,0.6,1
2026-01-01T1100,2366A,114.8905,25.8472,赣州市,华坚鞋城,,42,42,78,25,48,37,,67,50,15,28,4,7,0.3,0.7
2026-01-01T1100,3109A,115.0094,25.8614,赣州市,赣县区卫计委,,40,,67,28,56,43,,51,51,11,35,7,7,0.4,0.6
2026-01-01T1100,2684A,106.2753,36.0057,固原市,监测站,细颗粒物(PM2.5),65,47,48,47,38,48,,50,50,15,17,4,3,0.6,0.5
2026-01-01T1100,2685A,106.2384,36.0189,固原市,新区,细颗粒物(PM2.5),74,,44,54,40,47,,52,51,15,18,3,2,0.7,0.6
2026-01-01T1100,2544A,106.6307,30.4577,广安市,市委,,20,16,35,14,34,37,,43,39,17,17,6,6,1.0,0.9
2026-01-01T1100,2545A,106.6266,30.4662,广安市,友谊中学,,,,34,17,32,,,56,51,14,15,3,4,0.9,0.9
2026-01-01T1100,2547A,106.6386,30.4551,广安市,广电花园,,18,14,29,12,33,33,,44,40,19,16,8,8,0.7,0.7
2026-01-01T1100,2902A,106.6347,30.4868,广安市,北辰小学,,19,14,33,13,36,43,,49,45,9,10,8,10,1.0,0.9
2026-01-01T1100,2524A,105.8211,32.4444,广元市,老城,,33,33,23,21,16,64,,57,51,20,22,3,5,0.6,0.6
2026-01-01T1100,2526A,105.8629,32.429,广元市,监测站,,30,29,25,21,15,56,,67,61,22,17,4,4,0.7,0.7
2026-01-01T1100,3617A,105.8047,32.4167,广元市,经开区,,29,27,20,20,16,57,,53,48,19,23,1,1,0.7,0.7
2026-01-01T1100,1345A,113.2346,23.1423,广州市,广雅中学,细颗粒物(PM2.5),67,79,76,48,45,34,,10,10,36,50,8,4,0.9,0.9
2026-01-01T1100,1346A,113.2611,23.105,广州市,市五中,细颗粒物(PM2.5),62,68,79,44,48,65,,18,18,35,72,11,9,/,/
2026-01-01T1100,1348A,113.3477,23.0916,广州市,广东商学院,细颗粒物(PM2.5),80,80,86,59,57,53,,10,10,29,62,8,9,0.7,0.8
2026-01-01T1100,1349A,113.4332,23.105,广州市,市八十六中,细颗粒物(PM2.5),64,61,70,46,50,56,,15,15,32,60,10,10,/,/
2026-01-01T1100,1350A,113.3506,22.9488,广州市,番禺中学,细颗粒物(PM2.5),98,114,100,73,59,56,,16,16,48,65,9,8,0.8,0.9
2026-01-01T1100,1351A,113.2147,23.3918,广州市,花都师范,细颗粒物(PM2.5),68,74,76,49,42,50,,19,19,28,54,15,7,0.8,0.7
2026-01-01T1100,1352A,113.2599,23.1329,广州市,市监测站,细颗粒物(PM2.5),65,71,91,47,60,45,,14,14,34,57,7,4,/,/
2026-01-01T1100,1353A,113.5618,23.3119,广州市,九龙镇镇龙,细颗粒物(PM2.5),68,72,72,49,47,36,,8,8,31,36,11,6,0.7,0.8
2026-01-01T1100,1354A,113.2764,23.1544,广州市,麓湖,细颗粒物(PM2.5),57,56,66,40,45,49,,12,12,27,54,12,8,0.4,0.4
2026-01-01T1100,2846A,113.3209,23.1323,广州市,体育西,细颗粒物(PM2.5),62,71,79,44,47,58,,18,18,30,59,9,8,0.7,0.8
2026-01-01T1100,3298A,113.5718,23.5493,广州市,从化街口,细颗粒物(PM2.5),103,99,74,77,57,19,,6,6,40,34,26,11,0.9,0.9
2026-01-01T1100,3299A,113.3463,23.369,广州市,白云竹料,细颗粒物(PM2.5),75,79,81,55,51,40,,10,10,31,44,13,5,0.8,0.8
2026-01-01T1100,3300A,113.2981,23.2365,广州市,白云嘉禾,细颗粒物(PM2.5),65,78,73,47,40,26,,8,8,50,53,10,6,/,/
2026-01-01T1100,3301A,113.4256,23.1716,广州市,黄埔科学城,细颗粒物(PM2.5),74,76,74,54,47,60,,21,21,26,43,6,4,0.8,0.8
2026-01-01T1100,3302A,113.3942,23.0485,广州市,番禺大学城,"颗粒物(PM10),细颗粒物(PM2.5)",80,109,115,59,53,62,,16,16,37,54,11,16,0.7,0.7
2026-01-01T1100,3303A,113.4923,22.8169,广州市,南沙黄阁,细颗粒物(PM2.5),78,62,77,57,44,75,,43,43,39,54,8,6,/,/
2026-01-01T1100,3304A,113.534,22.7893,广州市,南沙街,细颗粒物(PM2.5),70,72,77,51,41,82,,49,49,31,42,8,5,0.6,0.7
2026-01-01T1100,3443A,113.2905,23.5541,广州市,花都梯面,细颗粒物(PM2.5),69,70,49,50,32,41,,15,15,24,29,15,7,/,/
2026-01-01T1100,3445A,113.786,23.7479,广州市,从化良口,,36,32,30,25,24,44,,20,18,12,16,9,9,/,/
2026-01-01T1100,3446A,113.805,23.2614,广州市,增城荔城,细颗粒物(PM2.5),65,57,55,47,41,62,,36,36,15,24,12,7,0.6,0.6
2026-01-01T1100,2506A,109.604387,23.066791,贵港市,江南子站,细颗粒物(PM2.5),69,56,90,50,64,57,,39,39,13,23,5,10,0.9,0.9
2026-01-01T1100,2508A,109.5669,23.1065,贵港市,荷城子站,,,53,73,41,55,,,50,48,13,19,4,9,1.2,1.1
2026-01-01T1100,3405A,109.5886,23.1172,贵港市,新世纪学校,细颗粒物(PM2.5),57,61,86,40,60,50,,48,47,16,23,/,/,0.8,0.7
2026-01-01T1100,4260A,109.5933,23.095,贵港市,中山路155-3号,细颗粒物(PM2.5),72,53,75,52,59,56,,51,50,15,23,/,/,0.9,0.8
2026-01-01T1100,1439A,106.6863,26.6035,贵阳市,马鞍山,,17,17,13,9,13,51,,51,51,11,12,4,4,/,/
2026-01-01T1100,1441A,106.6241,26.6266,贵阳市,鉴湖路,,20,19,25,14,12,60,,55,55,16,16,3,3,0.6,0.6
2026-01-01T1100,1442A,106.7468,26.6344,贵阳市,燕子冲,,35,27,17,24,17,50,,58,56,10,11,7,6,0.8,0.7
2026-01-01T1100,1443A,106.6556,26.4362,贵阳市,碧云窝,,34,34,25,14,11,49,,51,51,12,13,4,4,/,/
2026-01-01T1100,1445A,106.6963,26.6063,贵阳市,红边门,,28,24,16,19,13,42,,51,50,11,12,6,6,/,/
2026-01-01T1100,1446A,106.7162383,26.56964667,贵阳市,新华路,,,27,22,19,12,,,55,55,13,12,4,4,0.6,0.6
2026-01-01T1100,1447A,106.6742,26.542,贵阳市,太慈桥,,27,27,17,17,11,53,,58,57,14,15,4,4,/,/
2026-01-01T1100,4230A,106.688212,26.56952,贵阳市,花果园大街66号,,32,,9,22,17,43,,48,48,13,14,2,2,/,/
2026-01-01T1100,4231A,106.687268,26.516892,贵阳市,漓江路57号,,25,24,19,17,12,46,,52,51,14,17,6,6,0.9,0.9
2026-01-01T1100,1864A,110.3091,25.2705,桂林市,龙隐路小学,,14,10,66,3,59,44,,49,43,12,16,5,7,0.6,0.9
2026-01-01T1100,1865A,110.2849361,25.22909545,桂林市,八中,,13,,64,6,62,41,,48,42,16,20,6,8,0.6,0.7
2026-01-01T1100,3531A,110.296,25.1254,桂林市,旅游学院,,17,,62,3,56,53,,57,52,12,16,3,5,0.7,0.8
2026-01-01T1100,4222A,110.1835,25.2444,桂林市,环湖路276号,,11,7,68,7,57,33,,42,36,12,16,4,7,0.6,0.6
2026-01-01T1100,4301A,110.2803,25.2773,桂林市,信义路13号,,14,6,60,3,59,42,,49,43,14,17,4,6,0.7,0.8
2026-01-01T1100,2674A,100.2262,34.4854,果洛藏族自治州,玛沁县大武镇,颗粒物(PM10),59,68,40,6,12,44,,34,34,16,5,24,15,1.0,0.4
2026-01-01T1100,1130A,126.5557,45.8109,哈尔滨市,松北商大,,47,47,38,26,25,35,,23,23,15,23,19,13,0.6,0.5
2026-01-01T1100,1132A,126.6162,45.719,哈尔滨市,南岗学府路,,50,35,32,35,21,29,,16,16,17,21,23,22,0.8,0.6
2026-01-01T1100,1133A,126.6894,45.7733,哈尔滨市,太平宏伟公园,,,72,37,29,24,,,21,21,13,20,29,30,0.6,0.7
2026-01-01T1100,1134A,126.6361,45.7672,哈尔滨市,道外承德广场,,49,49,50,33,25,34,,23,23,19,22,25,15,0.5,0.5
2026-01-01T1100,1136A,126.644,45.7261,哈尔滨市,动力和平路,细颗粒物(PM2.5),54,47,35,38,24,33,,21,21,17,19,17,16,0.7,0.6
2026-01-01T1100,1137A,126.5933,45.7479,哈尔滨市,道里建国路,细颗粒物(PM2.5),58,51,33,41,28,32,,20,20,16,19,13,11,0.8,0.2
2026-01-01T1100,1138A,126.6127,45.6119,哈尔滨市,平房东轻厂,细颗粒物(PM2.5),52,47,42,36,35,27,,10,10,15,28,9,7,0.5,0.7
2026-01-01T1100,1139A,126.5875,45.9827,哈尔滨市,呼兰师专,,35,30,39,24,31,35,,19,19,7,19,5,5,0.7,0.7
2026-01-01T1100,1140A,126.6299,45.6799,哈尔滨市,省农科院,,42,37,40,29,32,37,,19,19,15,27,11,13,0.6,0.7
2026-01-01T1100,4282A,126.6769,45.7379,哈尔滨市,华山路1号,细颗粒物(PM2.5),52,46,33,36,24,32,,22,22,18,22,28,24,0.6,0.6
2026-01-01T1100,4283A,126.9717,45.5356,哈尔滨市,解放大街52号,细颗粒物(PM2.5),60,45,51,43,48,28,,14,14,20,26,16,9,0.9,0.9
2026-01-01T1100,2688A,93.5124,42.8176,哈密市,地区监测站,细颗粒物(PM2.5),79,61,64,58,47,37,,16,16,22,26,4,6,0.5,0.5
2026-01-01T1100,2689A,93.5014,42.8312,哈密市,哈密师范学校,颗粒物(PM10),69,88,73,42,34,32,,10,10,32,33,3,3,0.6,0.5
2026-01-01T1100,2671A,100.9016,36.9464,海北藏族自治州,海晏县西海镇,细颗粒物(PM2.5),59,,33,42,28,60,,52,52,11,9,8,9,0.7,0.6
2026-01-01T1100,3867A,102.074,36.5056,海东市,平安区公安局北苑,细颗粒物(PM2.5),104,79,78,78,63,45,,54,49,11,16,13,26,1.0,0.9
2026-01-01T1100,4163A,102.0984,36.5119,海东市,滨河路,细颗粒物(PM2.5),90,,61,67,57,49,,56,52,23,24,12,15,1.0,0.8
2026-01-01T1100,1410A,110.3189,20.0596,海口市,海南大学,,31,31,29,13,15,94,,97,96,7,8,6,6,0.2,0.3
2026-01-01T1100,1411A,110.2827,20.0051,海口市,秀英海南医院,,,37,35,13,13,,,88,88,7,10,7,7,0.3,0.3
2026-01-01T1100,1412A,110.3391,19.9979,海口市,海南师范大学,,43,43,37,13,15,95,,95,94,6,9,5,6,0.3,0.4
2026-01-01T1100,1413A,110.3303,20.0359,海口市,龙华路环保局宿舍,,40,40,38,14,16,97,,97,97,7,10,/,/,0.6,0.6
2026-01-01T1100,3539A,110.5111,19.9737,海口市,桂林洋子站,,29,26,26,12,14,90,,82,82,6,8,/,/,/,/
2026-01-01T1100,4134A,110.1952,20.0451,海口市,长滨二路9号,,30,30,30,15,16,91,,94,94,5,6,/,/,/,/
2026-01-01T1100,2673A,100.6158,36.2985,海南藏族自治州,共和县恰卜恰镇,颗粒物(PM10),52,53,34,22,15,68,,47,47,6,19,13,12,0.5,0.4
2026-01-01T1100,2676A,97.373,37.376,海西蒙古族藏族自治州,德令哈市,,25,11,23,3,9,77,,80,78,2,5,14,11,0.4,0.6
2026-01-01T1100,1049A,114.492,36.5712,邯郸市,矿院,细颗粒物(PM2.5),52,37,39,36,32,40,,20,20,25,33,5,6,0.5,0.5
2026-01-01T1100,1050A,114.4839,36.6136,邯郸市,丛台公园,,42,31,30,29,23,47,,36,34,19,25,9,5,0.6,0.4
2026-01-01T1100,3458A,114.7893,36.5592,邯郸市,香泉濮院小区,细颗粒物(PM2.5),59,57,36,42,29,46,,27,27,17,26,6,5,0.6,0.5
2026-01-01T1100,3580A,114.1998,36.4439,邯郸市,峰峰矿区临水派出所,,,47,33,36,30,,,28,27,16,24,9,8,1.0,0.7
2026-01-01T1100,4068A,114.5209,36.7697,邯郸市,建安街268号,颗粒物(PM10),51,51,48,28,24,27,,10,10,31,50,8,6,0.6,0.5
2026-01-01T1100,4069A,114.5488,36.6177,邯郸市,丛台东路558号,颗粒物(PM10),62,74,74,24,24,38,,14,14,32,48,8,8,0.3,0.4
2026-01-01T1100,2635A,107.0155,33.0707,汉中市,市监测站,,22,18,18,15,17,59,,64,61,12,13,4,4,0.4,0.5
2026-01-01T1100,2636A,107.0083,33.114,汉中市,鑫源开发区,,26,,14,18,17,64,,68,66,12,13,4,4,0.5,0.5
2026-01-01T1100,2637A,107.0072,33.0323,汉中市,南郑大河坎水厂,,26,23,23,18,20,56,,62,58,14,14,6,5,0.5,0.6
2026-01-01T1100,1223A,120.2073,30.2111,杭州市,滨江,,22,22,35,14,16,35,,49,41,22,19,8,9,0.2,0.2
2026-01-01T1100,1224A,120.0625,30.2737,杭州市,西溪,,23,23,40,9,13,42,,52,46,23,25,8,8,0.5,0.5
2026-01-01T1100,1226A,120.3417,30.315,杭州市,下沙,,26,26,34,10,16,40,,46,42,18,21,6,7,0.9,0.7
2026-01-01T1100,1227A,120.1252,30.2465,杭州市,卧龙桥,,20,20,34,9,14,41,,51,45,16,17,8,9,0.5,0.4
2026-01-01T1100,1228A,120.1902,30.2691,杭州市,浙江农大,,22,22,36,11,17,42,,52,46,22,25,2,3,0.2,0.2
2026-01-01T1100,1230A,120.1195,30.3121,杭州市,和睦小学,,22,22,36,15,20,43,,60,54,16,19,4,4,0.4,0.4
2026-01-01T1100,1231A,120.3076,30.4146,杭州市,临平镇,,,22,34,13,14,44,,51,48,10,14,6,7,,0.4
2026-01-01T1100,1232A,120.2753,30.1839,杭州市,城厢镇,,,28,42,13,17,,,54,47,18,18,7,8,0.4,0.3
2026-01-01T1100,1233A,120.0883,30.1808,杭州市,云栖,,21,21,32,10,15,42,,54,47,16,17,3,4,0.5,0.5
2026-01-01T1100,3557A,119.9463,30.0496,杭州市,镇二中,,,11,29,10,16,30,,54,,,26,4,5,0.6,0.5
2026-01-01T1100,3558A,119.7184,30.2367,杭州市,市府大楼,,15,15,34,6,15,44,,52,48,10,17,9,10,0.5,0.5
2026-01-01T1100,3656A,120.1554,30.2863,杭州市,消防大队,,25,25,39,14,19,38,,48,43,20,18,6,6,0.2,0.2
2026-01-01T1100,1270A,117.1957,31.7845,合肥市,明珠广场,,15,9,25,7,12,47,,47,45,8,9,5,5,0.4,0.4
2026-01-01T1100,1271A,117.307,31.8765,合肥市,三里街,,28,,23,19,12,43,,45,43,16,16,4,4,0.6,0.6
2026-01-01T1100,1272A,117.2587,31.8703,合肥市,琥珀山庄,,28,19,28,19,15,47,,48,45,13,13,7,7,0.6,0.5
2026-01-01T1100,1275A,117.2593,31.9376,合肥市,庐阳区,,24,24,26,14,12,51,,52,50,14,15,3,2,0.5,0.5
2026-01-01T1100,1276A,117.345251,31.861615,合肥市,瑶海区,,22,,24,15,10,48,,50,48,13,15,4,4,0.7,0.6
2026-01-01T1100,1277A,117.3033,31.7967,合肥市,包河区,,18,12,28,12,15,37,,40,36,22,24,4,5,0.6,0.6
2026-01-01T1100,1278A,117.278,31.7392,合肥市,滨湖新区,,18,,25,12,18,48,,48,46,14,15,3,4,0.7,0.7
2026-01-01T1100,1279A,117.1324,31.8395,合肥市,高新区,,18,17,26,12,11,45,,52,49,20,15,3,4,0.4,0.4
2026-01-01T1100,3464A,117.3802,31.9148,合肥市,高教基地,,28,22,21,19,13,47,,48,46,11,12,5,6,0.4,0.4
2026-01-01T1100,4098A,117.2518,31.8404,合肥市,中国科学技术大学,,,18,14,9,5,,,52,50,11,10,4,4,0.3,0.3
2026-01-01T1100,3614A,79.9241,37.0878,和田地区,地区环保局,颗粒物(PM10),64,78,60,35,27,31,,40,37,19,17,1,2,0.4,0.9
2026-01-01T1100,3615A,79.9132,37.1137,和田地区,市环保局,颗粒物(PM10),61,72,71,29,24,32,,43,39,24,19,1,1,4.8,1.5
2026-01-01T1100,2517A,108.0496,24.6957,河池市,市环保站,,16,,40,7,32,49,,44,44,11,15,1,6,0.9,0.9
2026-01-01T1100,4302A,108.0901,24.6945,河池市,上任中路54号,,15,10,42,3,32,45,,43,43,13,18,4,8,0.9,0.9
2026-01-01T1100,1697A,114.6962,23.7538,河源市,东埔,细颗粒物(PM2.5),60,60,64,43,47,46,,18,18,20,32,9,7,0.8,0.8
2026-01-01T1100,1698A,114.6895,23.7232,河源市,老城,细颗粒物(PM2.5),59,53,64,42,46,46,,17,17,17,25,10,7,0.9,0.9
2026-01-01T1100,3374A,115.5562,35.089,菏泽市,定陶老年大学,,42,39,38,29,19,41,,39,36,15,19,8,7,0.7,0.7
2026-01-01T1100,4114A,115.4239,35.2593,菏泽市,黄河路600号,颗粒物(PM10),55,59,41,33,25,40,,28,28,17,24,4,6,0.7,0.6
2026-01-01T1100,4115A,115.5025,35.2727,菏泽市,菏泽市人社局,颗粒物(PM10),51,51,44,32,22,40,,28,28,17,22,8,8,0.4,0.4
2026-01-01T1100,4184A,115.479691,35.244011,菏泽市,永昌路1号,,,,46,,24,,,36,35,13,18,5,7,,0.7
2026-01-01T1100,4193A,115.471542,35.280012,菏泽市,长城路999号,颗粒物(PM10),53,55,47,30,19,43,,30,30,16,20,8,7,0.8,0.7
2026-01-01T1100,2514A,111.5264,24.4178,贺州市,环保小区,,,13,68,13,53,31,,46,44,20,24,,7,0.9,1
2026-01-01T1100,2515A,111.561,24.4074,贺州市,政协大楼,,29,29,60,8,46,33,,45,45,14,23,7,9,0.7,0.7
2026-01-01T1100,3534A,111.4744,24.455,贺州市,西湾,,13,8,62,3,45,40,,49,48,10,22,5,7,0.8,0.8
2026-01-01T1100,2385A,114.17,35.9019,鹤壁市,市监测站,细颗粒物(PM2.5),65,56,41,47,28,33,,38,36,12,21,7,7,0.7,0.6
2026-01-01T1100,2386A,114.2953,35.7512,鹤壁市,市交警支队,,,49,44,37,21,,,23,23,16,21,5,7,0.6,0.5
2026-01-01T1100,2387A,114.2877,35.7302,鹤壁市,迎宾馆,细颗粒物(PM2.5),73,,44,53,28,33,,46,40,11,20,2,6,0.7,0.7
2026-01-01T1100,3474A,114.2616,35.6824,鹤壁市,大新区,细颗粒物(PM2.5),70,53,37,51,22,32,,45,37,17,23,3,5,0.6,0.6
2026-01-01T1100,3596A,114.1573,35.9607,鹤壁市,南山宾馆,颗粒物(PM10),53,56,49,33,26,39,,34,34,8,17,4,6,0.5,0.5
2026-01-01T1100,2244A,130.2537,47.3416,鹤岗市,哈啤分公司,,16,16,21,9,13,50,,48,48,3,3,6,6,0.4,0.4
2026-01-01T1100,2245A,130.2683,47.3087,鹤岗市,斯达机电,,20,,19,14,17,54,,51,51,4,4,5,5,0.4,0.4
2026-01-01T1100,2246A,130.3114,47.3388,鹤岗市,东山纸板厂,,24,24,20,13,19,54,,54,54,2,2,6,6,0.4,0.3
2026-01-01T1100,2263A,127.4832,50.2524,黑河市,交通局,,18,14,14,11,16,57,,55,55,5,6,3,4,0.2,0.2
2026-01-01T1100,2264A,127.5146,50.2339,黑河市,环保局,,,,15,15,18,,,51,51,7,7,4,5,0.3,0.3
2026-01-01T1100,1074A,115.6839,37.754,衡水市,电机北厂,,39,39,31,18,22,37,,15,15,27,36,8,4,0.4,0.4
2026-01-01T1100,1075A,115.6303,37.7318,衡水市,市监测站,,45,45,40,20,22,29,,9,9,33,40,8,6,0.5,0.4
2026-01-01T1100,3188A,115.6684,37.7216,衡水市,市城管局,,,53,46,22,28,33,,7,7,36,43,,6,,0.5
2026-01-01T1100,3459A,115.599,37.5491,衡水市,地表水厂,,48,48,44,31,29,40,,10,10,21,41,6,7,0.5,0.6
2026-01-01T1100,2457A,112.6209,26.9268,衡阳市,衡阳化工总厂,,35,24,70,24,63,20,,26,23,20,17,4,6,1.0,1.1
2026-01-01T1100,2458A,112.621,26.8957,衡阳市,珠晖区环保局,,,,68,39,74,17,,22,19,,19,2,4,0.8,1.3
2026-01-01T1100,2459A,112.628,26.8654,衡阳市,市委党校,,39,,64,27,66,20,,28,24,17,17,4,6,0.9,1.1
2026-01-01T1100,2460A,112.6007,26.8977,衡阳市,市监测站,,43,33,88,30,63,22,,27,24,11,13,5,6,0.7,0.9
2026-01-01T1100,2461A,112.5658,26.9013,衡阳市,真空机电公司,,35,32,80,24,65,22,,27,24,15,18,5,7,0.8,1
2026-01-01T1100,3399A,112.6703,26.8817,衡阳市,师范学院,,35,,70,24,57,23,,30,26,16,19,3,3,1.1,1.2
2026-01-01T1100,3038A,103.3757,23.3679,红河哈尼族彝族自治州,州图书馆,,39,39,34,22,22,60,,56,56,8,6,7,7,0.5,0.4
2026-01-01T1100,4154A,103.401,23.3561,红河哈尼族彝族自治州,蒙自市朝阳路,,46,,28,32,24,72,,63,63,7,6,10,10,0.4,0.4
2026-01-01T1100,1090A,111.6506,40.7517,呼和浩特市,呼市一监,,49,46,79,34,61,41,,13,13,23,38,7,5,0.5,0.6
2026-01-01T1100,1094A,111.7516,40.8369,呼和浩特市,如意水处理厂,,48,48,64,32,41,40,,9,9,28,46,14,13,0.5,0.7
2026-01-01T1100,1095A,111.727798,40.806187,呼和浩特市,二十九中,,46,42,73,32,42,38,,12,12,25,40,14,14,0.4,0.5
2026-01-01T1100,1097A,111.717,40.7617,呼和浩特市,化肥厂生活区,,50,50,80,32,54,35,,14,14,28,38,12,8,0.5,0.6
2026-01-01T1100,3699A,111.6519,40.8389,呼和浩特市,海东办,,,,179,,150,,,50,,,51,,14,,0.7
2026-01-01T1100,4275A,111.591512,40.827312,呼和浩特市,成吉思汗西街8号,细颗粒物(PM2.5),99,100,73,74,55,13,,4,4,46,48,12,11,1.0,0.6
2026-01-01T1100,4276A,111.6597,40.8077,呼和浩特市,公园东路75号,,,,98,,59,,,14,14,33,45,10,10,0.6,0.5
2026-01-01T1100,4277A,111.5427,40.7846,呼和浩特市,金海路35号,细颗粒物(PM2.5),85,99,98,63,68,21,,5,5,39,46,11,13,0.8,0.7
2026-01-01T1100,3061A,119.7511,49.1576,呼伦贝尔市,国华电力东,,22,22,31,15,26,40,,34,34,19,20,7,6,0.2,0.3
2026-01-01T1100,4279A,119.7569,49.2222,呼伦贝尔市,伊敏大街东7号,,26,25,39,18,33,39,,34,34,14,17,7,7,0.5,0.4
2026-01-01T1100,1250A,120.075,30.867,湖州市,城西水厂,,20,16,28,9,14,61,,66,63,9,11,8,8,0.3,0.1
2026-01-01T1100,2873A,120.083,30.8929,湖州市,仁皇山新区,,,14,27,9,13,61,,65,62,,16,8,8,0.4,0.2
2026-01-01T1100,2907A,120.1846,30.8592,湖州市,吴兴区站,,21,21,32,9,12,54,,61,58,9,12,4,6,0.6,0.5
2026-01-01T1100,3562A,120.4146,30.8538,湖州市,南浔区站,,14,13,27,3,13,44,,49,47,15,15,4,5,0.3,0.3
2026-01-01T1100,1607A,120.904878,40.721091,葫芦岛市,龙港区,,35,35,47,3,31,56,,32,32,3,25,9,18,0.7,1.1
2026-01-01T1100,1608A,120.8382,40.7521,葫芦岛市,化工街,,,56,54,24,35,,,33,33,7,26,12,31,0.3,0.7
2026-01-01T1100,1609A,120.8339,40.7078,葫芦岛市,新区,,23,23,44,3,30,55,,38,38,7,30,9,15,0.4,0.7
2026-01-01T1100,1610A,120.8697,40.7679,葫芦岛市,东城区,,27,27,66,11,59,53,,40,40,6,26,10,28,0.6,1
2026-01-01T1100,2483A,109.9297,27.5383,怀化市,河西地税局,,35,27,27,24,27,26,,33,27,17,17,8,4,/,/
2026-01-01T1100,2484A,109.9783,27.5342,怀化市,市四医院,,32,,27,22,24,22,,24,20,11,10,10,9,0.6,0.7
2026-01-01T1100,2485A,109.9971,27.5579,怀化市,监测楼,,33,27,26,23,19,31,,34,29,35,28,1,2,0.2,0.3
2026-01-01T1100,1210A,119.0566,33.5991,淮安市,钵池山,,45,39,32,31,23,43,,33,31,18,16,7,6,0.4,0.3
2026-01-01T1100,1211A,119.0083,33.578,淮安市,北京南路,,41,41,35,27,20,39,,30,27,12,11,6,6,0.7,0.6
2026-01-01T1100,1212A,118.9938,33.6083,淮安市,市监测站,,45,36,26,31,19,39,,29,27,18,16,8,8,0.5,0.4
2026-01-01T1100,1213A,119.135,33.5038,淮安市,楚州区监测站,细颗粒物(PM2.5),54,,28,38,19,34,,34,26,14,10,8,8,0.7,0.4
2026-01-01T1100,3426A,118.8757,33.2897,淮安市,新华书店,,,67,38,,19,,,33,25,18,16,,8,1.0,0.6
2026-01-01T1100,4092A,119.119691,33.550006,淮安市,枚皋中路89号,细颗粒物(PM2.5),59,53,44,42,32,45,,41,35,15,15,8,8,1.1,0.9
2026-01-01T1100,4206A,119.028838,33.631911,淮安市,承德北路606号,,48,48,38,30,21,40,,31,29,15,14,8,7,0.7,0.5
2026-01-01T1100,2282A,116.8005,33.9749,淮北市,监测站,细颗粒物(PM2.5),63,71,48,45,24,33,,48,39,26,23,8,9,0.9,0.8
2026-01-01T1100,2283A,116.8094,33.9008,淮北市,烈山区政府,细颗粒物(PM2.5),70,66,42,51,27,32,,51,42,30,22,8,9,0.4,0.4
2026-01-01T1100,4017A,116.7926,33.9534,淮北市,市博物馆,细颗粒物(PM2.5),67,73,47,48,22,32,,48,38,27,22,10,10,0.4,0.4
2026-01-01T1100,4100A,116.8322,33.9884,淮北市,杜集区第一实验学校,细颗粒物(PM2.5),65,70,52,47,31,36,,48,40,14,12,7,6,0.8,0.8
2026-01-01T1100,2277A,116.8304,32.7726,淮南市,潘集区政府,,,125,45,46,33,39,,44,42,,12,4,5,,0.4
2026-01-01T1100,2279A,116.8569,32.5949,淮南市,谢家集区政府,颗粒物(PM10),52,54,38,31,18,37,,40,38,18,15,6,6,0.3,0.3
2026-01-01T1100,2280A,116.8279,32.6333,淮南市,八公山区政府,细颗粒物(PM2.5),58,51,36,41,23,40,,44,42,12,12,2,3,0.4,0.3
2026-01-01T1100,2894A,117.0561,32.6536,淮南市,经济技术开发区消防队,细颗粒物(PM2.5),68,55,50,49,26,38,,39,37,15,17,3,4,0.4,0.3
2026-01-01T1100,3329A,117.011,32.5891,淮南市,山南新区,,50,50,42,28,15,47,,45,44,11,12,1,2,0.4,0.3
2026-01-01T1100,4209A,117.003137,32.644456,淮南市,国庆中路369号,细颗粒物(PM2.5),67,,43,48,25,32,,33,32,15,15,3,4,0.4,0.3
2026-01-01T1100,2446A,114.9021,30.474,黄冈市,职工中心,,18,14,31,12,22,36,,40,38,10,11,5,6,0.5,0.6
2026-01-01T1100,2929A,114.8858,30.4519,黄冈市,红卫路,,,,32,,21,34,,39,35,10,11,,6,0.5,0.5
2026-01-01T1100,3398A,114.9134,30.4446,黄冈市,市林业局,,20,16,31,14,25,34,,38,36,14,14,4,5,0.4,0.5
2026-01-01T1100,2672A,102.02,35.5101,黄南藏族自治州,同仁县隆务镇,,36,28,51,25,29,57,,56,55,3,4,11,10,0.6,0.6
2026-01-01T1100,2295A,118.2905,29.6965,黄山市,延安路89号,,16,6,21,3,17,49,,58,52,11,12,4,3,0.4,0.4
2026-01-01T1100,2297A,118.1369,30.2755,黄山市,黄山区政府5号楼,,15,,28,10,19,39,,51,44,12,14,5,6,0.5,0.4
2026-01-01T1100,4210A,118.335445,29.720283,黄山市,滨江东路7-2号,,15,14,37,3,25,47,,55,50,13,13,/,/,/,/
2026-01-01T1100,2423A,115.0547,30.2332,黄石市,沈家营,,,21,40,6,14,32,,34,31,,10,,6,0.9,1
2026-01-01T1100,2426A,114.899,30.211,黄石市,铁山,,28,28,37,12,17,31,,37,31,7,6,4,4,1.0,0.8
2026-01-01T1100,2427A,115.0259,30.2108,黄石市,团城山,,20,20,32,3,11,35,,38,34,8,11,6,6,0.4,0.4
2026-01-01T1100,3149A,115.0174,30.1591,黄石市,笔架山北路,,15,15,38,3,11,32,,37,32,8,10,7,7,0.7,0.8
2026-01-01T1100,4185A,115.078022,30.21118,黄石市,磁湖东路29号,,13,11,30,9,18,24,,29,26,16,15,5,6,0.7,0.7
2026-01-01T1100,1392A,114.4181,23.0528,惠州市,河南岸金山湖子站,细颗粒物(PM2.5),79,84,67,58,40,49,,30,26,24,28,6,5,0.7,0.7
2026-01-01T1100,1393A,114.4055,23.0824,惠州市,下埔横江三路子站,细颗粒物(PM2.5),78,83,66,57,41,58,,48,35,20,24,13,9,0.7,0.7
2026-01-01T1100,1395A,114.4645,22.7832,惠州市,惠阳区承修路船湖子站,颗粒物(PM10),55,60,54,36,29,74,,52,40,24,21,7,7,0.6,0.6
2026-01-01T1100,1396A,114.5316,22.7423,惠州市,大亚湾管委会子站,颗粒物(PM10),56,62,45,36,23,85,,76,72,16,15,10,7,0.4,0.4
2026-01-01T1100,3314A,114.4334,22.8134,惠州市,惠阳秋长,颗粒物(PM10),52,53,59,35,30,91,,59,59,19,22,/,/,/,/
2026-01-01T1100,3452A,114.6521,22.7755,惠州市,大亚湾霞涌,颗粒物(PM10),52,53,45,28,24,92,,58,54,13,16,/,/,/,/
2026-01-01T1100,4300A,114.4089,23.1147,惠州市,文华一路1号,细颗粒物(PM2.5),80,81,70,59,45,71,,26,21,18,32,/,/,/,/
2026-01-01T1100,2240A,130.9618,45.2926,鸡西市,环保局,,18,18,23,10,14,43,,42,42,3,5,6,5,0.2,0.2
2026-01-01T1100,2243A,130.9294,45.2959,鸡西市,第一中学,,15,8,19,7,12,47,,45,45,4,5,3,3,0.3,0.3
2026-01-01T1100,3707A,131.0069,45.2988,鸡西市,欧美日汽修厂,,24,24,36,12,13,46,,49,48,6,7,6,5,0.4,0.3
2026-01-01T1100,2367A,114.9753,27.0803,吉安市,红声器材厂,,,25,76,18,49,,,46,43,19,24,5,7,0.4,0.8
2026-01-01T1100,2369A,114.9903,27.1313,吉安市,市环境监测站,,30,30,78,18,48,42,,46,43,18,20,10,12,/,/
2026-01-01T1100,2370A,115.009527,27.096792,吉安市,青原区法院,,29,29,74,20,53,35,,42,38,18,18,9,11,0.7,0.8
2026-01-01T1100,1772A,126.54,43.8622,吉林市,哈达湾,细颗粒物(PM2.5),59,54,37,42,27,31,,21,21,19,19,20,7,1.4,1.3
2026-01-01T1100,1773A,126.5843,43.8358,吉林市,东局子,细颗粒物(PM2.5),77,63,45,56,33,14,,8,7,25,22,6,4,1.2,1
2026-01-01T1100,1774A,126.5051,43.8243,吉林市,电力学院,细颗粒物(PM2.5),70,63,55,51,46,30,,17,17,23,26,15,11,1.0,1
2026-01-01T1100,1775A,126.6133,43.8971,吉林市,江北,细颗粒物(PM2.5),70,64,62,51,47,21,,16,16,26,22,12,6,1.0,0.9
2026-01-01T1100,1776A,126.5549,43.8304,吉林市,江南公园,细颗粒物(PM2.5),87,68,56,64,52,30,,15,15,17,20,8,10,1.0,0.9
2026-01-01T1100,2868A,126.4737,43.953,吉林市,九站,细颗粒物(PM2.5),53,52,40,37,28,32,,12,12,15,25,7,6,0.9,0.8
2026-01-01T1100,1299A,116.9866,36.6118,济南市,科干所,,17,14,28,3,10,54,,48,48,17,21,5,7,0.6,0.7
2026-01-01T1100,1300A,116.9379,36.6652,济南市,农科所,,32,32,36,10,13,47,,22,22,24,27,7,7,0.7,0.7
2026-01-01T1100,1301A,117.1265,36.6736,济南市,开发区,,29,29,31,17,16,50,,44,44,18,18,6,6,0.6,0.6
2026-01-01T1100,1303A,117.0616,36.6865,济南市,省种子仓库,,,,33,,11,49,,47,47,,22,11,7,,0.5
2026-01-01T1100,1304A,116.9495185,36.644937,济南市,机床二厂,,27,27,30,12,11,50,,45,45,26,26,1,4,0.6,0.7
2026-01-01T1100,1305A,117.0496,36.6629,济南市,市监测站,,34,34,29,10,11,47,,43,43,21,16,6,6,0.5,0.6
2026-01-01T1100,1306A,116.7674,36.5458,济南市,长清党校,,24,24,38,7,14,48,,22,22,17,33,7,9,0.5,0.6
2026-01-01T1100,1961A,117.5323,36.6865,济南市,东山小学,,32,32,36,20,16,49,,33,33,21,20,8,10,0.8,0.9
2026-01-01T1100,3059A,117.7181,36.205,济南市,泰兴公司,,36,36,36,19,18,49,,23,22,25,29,12,6,0.7,0.6
2026-01-01T1100,3064A,117.6861,36.2172,济南市,莱芜战役纪念馆,,29,29,35,19,22,49,,26,26,27,28,12,9,0.5,0.3
2026-01-01T1100,3494A,117.1673,36.9782,济南市,济阳区政府,,34,34,36,12,14,45,,24,24,25,27,7,8,0.4,0.5
2026-01-01T1100,3495A,117.1168,36.6299,济南市,锦屏中学,,34,34,26,7,9,51,,45,45,23,18,9,4,0.4,0.4
2026-01-01T1100,4108A,117.7107,36.2385,济南市,山财大街5号,,29,,45,20,17,48,,25,25,22,30,16,12,0.6,0.5
2026-01-01T1100,4109A,116.9744,36.6889,济南市,无影山路12号,,31,31,40,10,14,46,,30,30,22,32,11,9,0.4,0.5
2026-01-01T1100,1653A,116.6229,35.4288,济宁市,火炬城,,35,30,36,24,21,41,,30,30,21,18,10,7,0.4,0.3
2026-01-01T1100,3500A,116.5808,35.3703,济宁市,北湖一中,,,,34,28,24,,,30,26,24,25,11,7,0.6,0.5
2026-01-01T1100,3501A,116.8251,35.5592,济宁市,服务中心,,48,48,40,23,16,33,,26,23,34,24,15,12,1.0,0.8
2026-01-01T1100,3678A,116.5907,35.4054,济宁市,市第七中学,,41,41,39,14,14,43,,33,32,23,21,13,9,0.6,0.5
2026-01-01T1100,4111A,116.6075,35.4566,济宁市,任和路,,39,39,39,16,11,41,,24,23,21,25,13,9,0.8,0.8
2026-01-01T1100,4112A,116.5648,35.3921,济宁市,文体南路1号,,42,42,42,22,14,40,,28,27,22,24,12,8,0.7,0.7
2026-01-01T1100,2255A,130.2749,46.8028,佳木斯市,佳纺,,35,,26,24,18,40,,35,35,9,13,10,8,0.3,0.3
2026-01-01T1100,2257A,130.3258,46.7975,佳木斯市,环保局,,32,26,21,22,15,44,,39,39,8,11,7,7,0.3,0.3
2026-01-01T1100,4285A,130.363,46.806,佳木斯市,顺和街,,22,17,24,15,19,40,,32,32,7,12,8,8,0.4,0.4
2026-01-01T1100,4286A,130.3952,46.8268,佳木斯市,长安路196号,,20,20,20,13,13,42,,40,40,10,9,7,5,0.3,0.3
2026-01-01T1100,1252A,120.7439,30.778,嘉兴市,清河小学,,16,14,32,9,15,51,,54,54,13,16,4,5,0.4,0.3
2026-01-01T1100,1253A,120.7261,30.7477,嘉兴市,嘉兴学院,,17,17,31,6,13,50,,54,53,13,15,5,6,0.6,0.5
2026-01-01T1100,2872A,120.7845,30.7524,嘉兴市,南湖区残联,,17,17,36,7,15,53,,58,57,11,13,3,4,0.4,0.4
2026-01-01T1100,3407A,120.6915,30.7741,嘉兴市,秀洲住建,,16,16,33,9,13,48,,56,54,16,17,5,6,0.4,0.3
2026-01-01T1100,1945A,98.291,39.7705,嘉峪关市,气象局,颗粒物(PM10),53,56,68,36,27,68,,55,55,7,9,2,2,0.5,0.5
2026-01-01T1100,2884A,98.2672,39.7978,嘉峪关市,酒钢宾馆,颗粒物(PM10),58,66,71,36,28,57,,53,53,15,11,11,14,1.3,0.7
2026-01-01T1100,3248A,98.2644,39.7723,嘉峪关市,雄关区,颗粒物(PM10),51,51,60,33,29,72,,53,53,9,13,13,15,0.7,0.8
2026-01-01T1100,1383A,113.1063,22.6058,江门市,北街,细颗粒物(PM2.5),69,66,68,50,44,64,,19,19,31,46,/,/,/,/
2026-01-01T1100,1384A,113.073,22.5835,江门市,西区,颗粒物(PM10),58,66,75,38,42,67,,17,17,33,54,/,/,/,/
2026-01-01T1100,1385A,113.0218,22.531,江门市,圭峰西,细颗粒物(PM2.5),69,74,63,50,42,72,,45,41,34,42,/,/,/,/
2026-01-01T1100,1386A,113.0826,22.5947,江门市,东湖,细颗粒物(PM2.5),67,78,77,48,44,69,,17,17,36,54,7,7,0.5,0.8
2026-01-01T1100,3311A,113.1077,22.5647,江门市,江海富民,颗粒物(PM10),72,94,98,43,46,73,,28,28,35,53,/,/,0.6,0.7
2026-01-01T1100,3449A,113.0496,22.4669,江门市,新会银湖,细颗粒物(PM2.5),65,,56,47,42,76,,17,17,22,37,7,7,0.6,0.6
2026-01-01T1100,3335A,113.3137,35.2643,焦作市,马村街道办,,,,48,,28,26,,35,30,,16,3,4,0.6,0.4
2026-01-01T1100,3336A,113.2464,35.2374,焦作市,焦作技师学院,细颗粒物(PM2.5),122,98,51,92,34,20,,28,24,19,16,6,6,1.0,0.7
2026-01-01T1100,3477A,113.1656,35.2536,焦作市,中站许衡医院,细颗粒物(PM2.5),152,146,57,116,48,21,,28,23,21,18,2,3,1.2,0.8
2026-01-01T1100,3981A,113.2456,35.18,焦作市,原李万街道办,细颗粒物(PM2.5),62,46,46,44,24,33,,32,32,16,16,2,3,0.5,0.5
2026-01-01T1100,4264A,113.234,35.219,焦作市,新安路1731号,细颗粒物(PM2.5),82,,51,60,34,30,,30,28,9,10,4,4,0.5,0.4
2026-01-01T1100,4295A,113.2722,35.2121,焦作市,人民路3066号,细颗粒物(PM2.5),59,57,50,42,24,28,,30,29,14,12,3,5,0.4,0.1
2026-01-01T1100,1708A,116.3701,23.5345,揭阳市,新兴,颗粒物(PM10),60,70,58,22,39,69,,35,32,22,29,13,11,0.5,0.7
2026-01-01T1100,1709A,116.3261,23.5442,揭阳市,西马,颗粒物(PM10),65,80,65,31,38,65,,29,24,19,21,19,9,0.8,0.8
2026-01-01T1100,1710A,116.361,23.5627,揭阳市,东兴,颗粒物(PM10),67,84,57,29,33,64,,31,28,22,25,21,11,/,/
2026-01-01T1100,1711A,116.4151,23.5295,揭阳市,渔湖,"颗粒物(PM10),细颗粒物(PM2.5)",54,58,58,38,32,68,,30,27,15,26,11,8,/,/
2026-01-01T1100,3320A,116.4028,23.5699,揭阳市,曲溪,细颗粒物(PM2.5),65,78,64,47,37,73,,36,35,18,26,16,10,0.5,0.5
2026-01-01T1100,1944A,102.1691,38.5166,金昌市,天庆家园,细颗粒物(PM2.5),59,46,67,42,40,49,,48,48,9,13,1,14,0.7,0.6
2026-01-01T1100,4022A,102.1648,38.5369,金昌市,金川区人防中心,细颗粒物(PM2.5),55,,58,39,39,49,,50,50,9,10,4,8,0.7,0.7
2026-01-01T1100,4239A,102.193042,38.531887,金昌市,长春路96号,细颗粒物(PM2.5),54,52,60,38,26,54,,53,51,9,8,4,5,0.7,0.8
2026-01-01T1100,1262A,119.6478,29.0773,金华市,十五中,,18,17,32,12,19,34,,58,49,21,20,2,3,0.5,0.4
2026-01-01T1100,1263A,119.6859,29.1032,金华市,监测站,,18,18,38,11,18,27,,54,44,30,27,1,1,0.4,0.3
2026-01-01T1100,3659A,119.656,29.1132,金华市,气象局,,,10,30,9,14,38,,51,44,16,24,2,2,,
2026-01-01T1100,1767A,121.1114,41.0879,锦州市,南山,,19,10,40,6,34,60,,44,44,3,22,8,12,0.5,0.9
2026-01-01T1100,1768A,121.060361,40.842794,锦州市,开发区,,,,53,13,31,,,19,19,7,33,6,16,0.5,0.8
2026-01-01T1100,1769A,121.1836,41.1118,锦州市,百股街道,,24,24,42,3,31,56,,32,32,7,27,13,18,0.6,1.1
2026-01-01T1100,1770A,121.1176,41.1224,锦州市,天安街道,,20,10,36,6,27,61,,49,49,6,23,10,15,0.5,0.8
2026-01-01T1100,1771A,121.1303,41.1385,锦州市,北湖公园,,18,18,33,3,23,57,,44,44,3,18,10,14,0.4,0.6
2026-01-01T1100,2160A,112.8496,35.5051,晋城市,自来水公司,细颗粒物(PM2.5),62,50,70,44,37,29,,24,21,24,20,6,4,0.9,0.7
2026-01-01T1100,2162A,112.8509,35.4886,晋城市,市环保局,细颗粒物(PM2.5),64,59,56,46,35,33,,25,22,22,19,4,4,0.9,0.8
2026-01-01T1100,3620A,112.8258,35.4804,晋城市,泽州一中,细颗粒物(PM2.5),67,61,49,48,37,41,,28,27,20,21,3,3,0.9,0.8
2026-01-01T1100,4078A,112.8246,35.5152,晋城市,前书院路,颗粒物(PM10),54,57,58,36,37,26,,19,17,28,28,3,3,0.6,0.9
2026-01-01T1100,4079A,112.8864,35.4773,晋城市,祥云街666号,细颗粒物(PM2.5),103,91,60,77,49,33,,25,24,22,25,5,4,1.6,0.8
2026-01-01T1100,2174A,112.6992,37.6984,晋中市,榆次区政府,细颗粒物(PM2.5),125,136,103,95,67,18,,5,5,36,39,17,11,1.4,0.9
2026-01-01T1100,2865A,112.7195,37.683,晋中市,榆次三中,细颗粒物(PM2.5),140,173,95,107,50,13,,,,2,27,14,13,2.1,0.9
2026-01-01T1100,4080A,112.7375,37.7215,晋中市,广安街188号,细颗粒物(PM2.5),162,174,172,123,114,17,,6,6,37,43,12,9,1.2,1
2026-01-01T1100,4200A,112.7478,37.6954,晋中市,迎宾街26号,细颗粒物(PM2.5),153,173,99,117,60,17,,6,6,32,34,16,14,1.2,0.8
2026-01-01T1100,2439A,112.2012,31.048,荆门市,竹园小学,细颗粒物(PM2.5),62,54,57,44,48,40,,37,36,20,24,1,1,0,0.2
2026-01-01T1100,2440A,112.1968,30.9892,荆门市,掇刀,细颗粒物(PM2.5),59,55,71,42,48,40,,38,37,14,19,5,2,0.6,0.5
2026-01-01T1100,3012A,112.1849,31.0361,荆门市,西山林语,细颗粒物(PM2.5),73,60,59,53,59,42,,38,38,13,18,2,6,0.6,0.7
2026-01-01T1100,3547A,112.1631,31.0134,荆门市,龙泉中学南校,细颗粒物(PM2.5),67,58,58,48,53,48,,42,42,2,11,5,5,0.2,0.4
2026-01-01T1100,4124A,112.2213,31.0654,荆门市,新台西路6号,细颗粒物(PM2.5),65,56,49,47,46,43,,38,38,11,11,6,6,0.4,0.4
2026-01-01T1100,1844A,112.2493,30.3198,荆州市,市图书馆,细颗粒物(PM2.5),73,58,50,53,64,39,,36,36,13,19,6,5,0.6,0.8
2026-01-01T1100,1845A,112.2009,30.3543,荆州市,市委党校,,,57,51,54,61,34,,31,31,,22,3,2,0.6,0.7
2026-01-01T1100,3194A,112.2749,30.3124,荆州市,管委会,细颗粒物(PM2.5),68,49,50,49,60,36,,34,34,14,20,4,4,0.6,0.7
2026-01-01T1100,4268A,112.1722,30.3366,荆州市,学苑路85号,细颗粒物(PM2.5),64,51,48,46,49,42,,38,38,16,20,1,1,0.6,0.7
2026-01-01T1100,2343A,117.2114,29.2931,景德镇市,老干部活动中心,,12,8,26,3,20,38,,52,47,7,7,6,7,0.6,0.6
2026-01-01T1100,2344A,117.1893,29.2789,景德镇市,兽医站,,16,11,34,11,19,42,,55,50,10,10,6,6,0.2,0.2
2026-01-01T1100,2346A,117.246,29.2958,景德镇市,陶研所,,13,,23,7,19,39,,55,49,3,6,5,4,0.6,0.5
2026-01-01T1100,4289A,117.154766,29.256967,景德镇市,青少年活动中心,,14,,29,9,19,43,,58,52,10,12,2,6,/,/
2026-01-01T1100,1803A,115.9873,29.6816,九江市,十里,,25,,32,17,23,48,,51,50,16,17,3,4,0.6,0.6
2026-01-01T1100,1804A,115.9583,29.7047,九江市,茅山头,,28,,36,19,23,44,,46,46,9,11,3,4,0.6,0.6
2026-01-01T1100,1805A,115.9877,29.7295,九江市,西园,,18,16,35,12,18,49,,51,51,17,25,1,2,0.6,0.6
2026-01-01T1100,1808A,115.9112,29.6038,九江市,综合工业园,,19,13,31,13,21,50,,50,50,15,21,3,2,0.8,0.8
2026-01-01T1100,3190A,116.0254,29.6995,九江市,外国语学校,,,,33,,19,38,,43,42,,16,,7,0.5,0.6
2026-01-01T1100,4253A,116.010205,29.659402,九江市,莲花大道8号,,16,16,41,11,14,42,,46,45,5,7,3,3,0.3,0.3
2026-01-01T1100,4240A,98.495752,39.733935,酒泉市,玉门东路5号,颗粒物(PM10),53,56,75,23,26,53,,53,51,6,5,9,9,0.4,0.4
2026-01-01T1100,4241A,98.5099,39.7506,酒泉市,北大街108号,颗粒物(PM10),63,75,71,21,15,48,,54,52,14,12,8,8,0.5,0.3
2026-01-01T1100,2698A,76.0071,39.466,喀什地区,巡警大队,细颗粒物(PM2.5),113,131,67,85,48,6,,22,15,31,22,4,4,2.4,1.1
2026-01-01T1100,2699A,75.9756,39.4693,喀什地区,吾办,细颗粒物(PM2.5),84,82,63,62,50,11,,38,28,34,20,3,3,1.6,1
2026-01-01T1100,4027A,75.9485,39.4688,喀什地区,老干局,细颗粒物(PM2.5),118,132,78,89,53,4,,35,25,36,18,2,2,2.4,1.1
2026-01-01T1100,1824A,114.3389,34.778,开封市,肿瘤医院,,42,,39,29,21,42,,41,40,12,17,4,5,0.9,0.9
2026-01-01T1100,1826A,114.2884,34.7966,开封市,世纪星幼儿园,,43,30,33,30,22,41,,43,42,17,18,2,3,0.3,0.4
2026-01-01T1100,3147A,114.3434,34.8101,开封市,龙亭公园,,43,,35,30,16,44,,44,44,7,11,2,3,1.1,1.1
2026-01-01T1100,3210A,114.3645,34.7955,开封市,汴京公园,,46,46,44,25,18,45,,43,43,13,16,4,5,0.6,0.6
2026-01-01T1100,3473A,114.2485,34.8306,开封市,技师学院,,40,35,36,28,22,45,,42,42,11,16,5,6,0.5,0.5
2026-01-01T1100,3592A,114.4518,34.7503,开封市,祥符区生态环境局,细颗粒物(PM2.5),52,51,43,36,20,43,,,,17,27,3,8,0.4,0.4
2026-01-01T1100,1951A,84.886,45.6029,克拉玛依市,长征新村,颗粒物(PM10),57,64,63,24,29,12,,40,31,44,34,5,6,0.8,0.8
2026-01-01T1100,1952A,84.8894,45.5827,克拉玛依市,南林小区,颗粒物(PM10),56,61,59,23,28,14,,25,19,33,32,3,3,0.7,1
2026-01-01T1100,1954A,84.896,44.3328,克拉玛依市,独山子区,颗粒物(PM10),71,91,84,40,56,60,,58,58,15,21,5,5,0.6,0.7
2026-01-01T1100,1955A,85.6888,46.0909,克拉玛依市,乌尔禾区商贸楼,,,74,58,35,31,,,16,13,,33,,6,,0.9
2026-01-01T1100,3612A,85.1045,45.6895,克拉玛依市,白碱滩区新站,颗粒物(PM10),74,98,76,44,36,6,,14,13,33,34,7,8,0.6,0.7
2026-01-01T1100,2697A,76.1457,39.7143,克孜勒苏柯尔克孜自治州,市人民政府,细颗粒物(PM2.5),57,60,62,40,42,28,,37,29,22,17,5,6,0.4,0.4
2026-01-01T1100,3665A,76.1654,39.7157,克孜勒苏柯尔克孜自治州,克州文化中心,细颗粒物(PM2.5),57,60,54,40,42,23,,36,25,25,16,4,4,1.0,0.7
2026-01-01T1100,1450A,102.8203,24.889,昆明市,呈贡新区,,,,53,,29,,,2,2,32,30,3,4,,0.6
2026-01-01T1100,1452A,102.7253,25.0904,昆明市,龙泉镇,,39,,44,27,24,34,,10,10,21,32,5,3,0.6,0.5
2026-01-01T1100,1453A,102.7267,25.0378,昆明市,东风东路,颗粒物(PM10),65,79,47,33,27,23,,5,5,37,32,8,5,0.7,0.5
2026-01-01T1100,1454A,102.6744,25.0671,昆明市,金鼎山,颗粒物(PM10),61,72,54,43,32,26,,6,6,28,32,6,3,0.6,0.6
2026-01-01T1100,1455A,102.6643,25.0401,昆明市,碧鸡广场,颗粒物(PM10),60,70,47,39,29,22,,6,6,37,33,7,4,0.8,0.6
2026-01-01T1100,3179A,102.7491,25.012,昆明市,官渡区博物馆,颗粒物(PM10),55,59,48,28,23,24,,6,6,46,33,7,4,0.5,0.5
2026-01-01T1100,3375A,102.8016,24.8336,昆明市,青年创业园,颗粒物(PM10),51,51,30,32,19,50,,18,18,13,17,15,5,0.9,0.6
2026-01-01T1100,3550A,102.8,24.9787,昆明市,昆明学院,颗粒物(PM10),59,68,49,40,28,33,,8,8,36,28,5,3,0.6,0.4
2026-01-01T1100,3551A,102.5969,24.6738,昆明市,晋宁区生态环境分局,,39,33,65,27,34,41,,6,6,15,26,2,4,0.8,0.5
2026-01-01T1100,3552A,102.6673,24.9861,昆明市,云天化总部,细颗粒物(PM2.5),64,72,36,46,21,24,,12,12,42,30,11,6,0.8,0.5
2026-01-01T1100,1456A,91.132,29.6515,拉萨市,八廓街,,35,,22,24,15,72,,70,70,12,19,7,8,0.5,0.5
2026-01-01T1100,1457A,91.1221,29.6748,拉萨市,市环保局,,18,18,23,7,20,57,,56,56,17,20,8,8,0.6,0.7
2026-01-01T1100,1458A,91.0874,29.6476,拉萨市,区监测站,,21,11,17,10,11,66,,60,60,14,27,4,5,0.8,0.9
2026-01-01T1100,1459A,91.1774,29.6541,拉萨市,西藏大学,,20,13,16,8,9,63,,70,66,16,17,5,6,0.4,0.4
2026-01-01T1100,1460A,90.9798,29.6586,拉萨市,区辐射站,细颗粒物(PM2.5),63,72,31,45,20,32,,39,29,49,34,8,5,1.1,0.8
2026-01-01T1100,1461A,91.0831,29.6292,拉萨市,拉萨火车站,颗粒物(PM10),54,57,28,26,16,39,,42,38,40,29,5,5,0.8,0.8
2026-01-01T1100,2520A,109.2203,23.7252,来宾市,来宾技工学校,,11,,62,3,46,33,,42,40,7,16,5,8,0.6,0.5
2026-01-01T1100,3535A,109.1781,23.7293,来宾市,兴宾区政府,,18,17,67,12,48,32,,46,44,6,15,4,7,0.8,0.7
2026-01-01T1100,4002A,109.2312,23.7428,来宾市,中南小学,,10,9,62,3,43,32,,42,41,9,21,3,6,0.8,0.8
2026-01-01T1100,1479A,103.8309,36.0467,兰州市,铁路设计院,,,,,,,,,,,,,,,,
2026-01-01T1100,3241A,103.7439,36.0841,兰州市,百合公园,细颗粒物(PM2.5),94,82,69,70,56,29,,34,31,22,22,6,6,1.1,0.8
2026-01-01T1100,3242A,103.9613,35.9985,兰州市,和平,细颗粒物(PM2.5),110,90,86,83,76,51,,38,38,8,19,3,5,0.7,0.9
2026-01-01T1100,4236A,103.629272,36.093822,兰州市,庄浪东路808号,细颗粒物(PM2.5),113,103,80,85,57,30,,32,32,32,30,11,13,1.1,0.7
2026-01-01T1100,4237A,103.7251,36.104344,兰州市,安宁西路88号,细颗粒物(PM2.5),94,94,82,70,56,39,,45,45,20,22,4,4,1.1,0.6
2026-01-01T1100,4238A,103.846982,36.067567,兰州市,北滨河东路1号,细颗粒物(PM2.5),89,89,77,66,58,37,,35,35,23,29,6,7,1.2,1
2026-01-01T1100,1067A,116.6712,39.5109,廊坊市,药材公司,,30,30,35,13,21,30,,7,7,34,37,2,2,0.6,0.6
2026-01-01T1100,1068A,116.7215,39.5592,廊坊市,开发区,,31,31,32,17,17,24,,5,5,42,39,2,1,0.4,0.5
2026-01-01T1100,1070A,116.7246,39.5273,廊坊市,北华航天学院,,40,40,37,16,17,27,,9,8,38,34,2,2,0.4,0.4
2026-01-01T1100,2919A,116.7022,39.5454,廊坊市,河北工业大学,,,56,35,,17,22,,7,6,42,35,3,2,,0.4
2026-01-01T1100,2536A,103.7629,29.5844,乐山市,牛耳桥,细颗粒物(PM2.5),52,39,49,36,45,30,,40,40,30,24,8,7,0.6,0.6
2026-01-01T1100,2537A,103.7501,29.6002,乐山市,市第三水厂,,38,38,49,26,38,36,,42,42,24,24,6,6,0.5,0.6
2026-01-01T1100,2538A,103.7571,29.5664,乐山市,市监测站,,46,36,49,32,43,35,,41,41,23,17,7,7,1.0,1
2026-01-01T1100,3361A,103.7313,29.563,乐山市,理工大学,,38,33,47,26,39,37,,39,39,21,16,5,4,0.8,0.8
2026-01-01T1100,2599A,100.2497,26.8802,丽江市,丽江古城,,32,26,30,22,17,67,,50,50,11,13,8,8,0.6,0.6
2026-01-01T1100,2600A,100.2203,26.8906,丽江市,市中心,,30,28,27,21,20,62,,44,44,15,18,6,7,0.4,0.4
2026-01-01T1100,1267A,119.9141,28.4513,丽水市,监测站大楼,,,,36,,21,49,,56,54,,14,,5,0.4,0.4
2026-01-01T1100,1268A,119.93,28.4589,丽水市,莲都小学,,16,16,30,7,12,50,,59,55,15,18,/,/,/,/
2026-01-01T1100,1269A,119.8794,28.4232,丽水市,余庄前,,12,11,24,7,14,37,,33,33,21,19,4,4,0.2,0.3
2026-01-01T1100,1173A,119.1759,34.5885,连云港市,市环境监测站,,41,41,35,27,22,43,,35,35,12,16,18,12,1.4,0.8
2026-01-01T1100,3000A,119.3577,34.6971,连云港市,德源药业,颗粒物(PM10),56,61,38,36,19,38,,43,43,25,18,10,4,1.5,0.5
2026-01-01T1100,3007A,119.178,34.8442,连云港市,新城一中,,40,40,41,24,19,44,,36,36,15,19,19,13,0.9,0.6
2026-01-01T1100,3008A,119.3607,34.7519,连云港市,胡沟管理处,,49,46,25,34,16,41,,48,48,22,15,19,6,1.6,0.6
2026-01-01T1100,3009A,119.1478,34.5913,连云港市,矿山设计院,,44,44,37,27,18,47,,40,40,17,17,17,10,1.6,0.9
2026-01-01T1100,3434A,119.2414,34.6539,连云港市,工贸学校,,44,44,33,29,20,43,,37,37,15,14,19,13,1.2,0.8
2026-01-01T1100,3664A,119.4171,34.734,连云港市,连云街道,颗粒物(PM10),52,53,27,29,14,36,,43,42,26,21,15,5,1.7,0.5
2026-01-01T1100,2573A,102.2629,27.8981,凉山彝族自治州,西昌市政府,细颗粒物(PM2.5),63,59,46,45,33,30,,36,28,32,18,8,11,0.9,0.8
2026-01-01T1100,2574A,102.2686,27.885,凉山彝族自治州,凉山州政府,颗粒物(PM10),55,59,57,38,40,26,,27,22,29,23,9,11,0.9,0.9
2026-01-01T1100,4229A,102.2342,27.8859,凉山彝族自治州,凯乐南路30号,,,77,77,47,51,20,,8,8,36,43,,9,0.8,0.9
2026-01-01T1100,2212A,123.1978,41.2036,辽阳市,宏伟区,细颗粒物(PM2.5),68,72,46,49,24,28,,14,12,17,14,8,9,1.3,0.7
2026-01-01T1100,2213A,123.1684,41.2497,辽阳市,新华园,细颗粒物(PM2.5),92,97,59,68,37,25,,11,11,31,25,9,26,1.4,0.9
2026-01-01T1100,2214A,123.2355,41.2663,辽阳市,滨河路,细颗粒物(PM2.5),92,111,52,68,30,25,,16,13,26,20,6,6,1.7,1
2026-01-01T1100,4083A,123.153,41.2874,辽阳市,铁西路150号,细颗粒物(PM2.5),119,124,90,90,55,22,,7,7,34,35,11,16,2.1,1.6
2026-01-01T1100,2227A,125.1359,42.8845,辽源市,环保局,细颗粒物(PM2.5),105,146,114,79,40,26,,14,14,27,23,7,3,1.5,1
2026-01-01T1100,4085A,125.0998,42.9134,辽源市,安宁大街333号,细颗粒物(PM2.5),123,,76,93,69,36,,16,16,,30,,3,0.9,0.9
2026-01-01T1100,1625A,115.9789,36.4372,聊城市,区政府,,25,25,26,9,11,50,,40,40,29,29,13,14,0.6,0.6
2026-01-01T1100,3200A,115.9772,36.4986,聊城市,监控中心,,,,35,,19,,,54,17,,30,,13,,0.4
2026-01-01T1100,3513A,116.0443,36.436,聊城市,九州社区,,,,41,,16,,,60,40,,21,,6,,0.5
2026-01-01T1100,4018A,116.0564,36.4609,聊城市,星美广场,,,,44,,15,,,52,31,,24,,8,,0.5
2026-01-01T1100,4113A,116.0091,36.4495,聊城市,利民路,,18,18,29,10,12,51,,37,37,26,37,6,8,0.3,0.4
2026-01-01T1100,2632A,94.3683,29.6373,林芝市,林芝监测站,,17,13,15,8,9,53,,46,46,7,6,4,4,0.3,0.3
2026-01-01T1100,2633A,94.3616,29.6634,林芝市,林芝人民医院,,19,19,16,8,9,47,,49,45,10,8,4,4,0.6,0.5
2026-01-01T1100,2603A,100.0779,23.8981,临沧市,市环保局,,43,40,41,30,46,32,,23,19,10,12,7,6,0.5,0.5
2026-01-01T1100,2604A,100.0894,23.882,临沧市,市气象局,颗粒物(PM10),65,79,45,35,30,24,,22,16,18,13,6,6,0.5,0.4
2026-01-01T1100,1733A,111.5552,36.0791,临汾市,临钢医院,细颗粒物(PM2.5),144,140,93,110,69,20,,10,10,21,30,4,9,1.2,0.9
2026-01-01T1100,1734A,111.4984,36.0734,临汾市,技工学校,细颗粒物(PM2.5),147,142,88,112,69,16,,8,8,25,33,4,7,1.5,1.2
2026-01-01T1100,1736A,111.5017,36.0857,临汾市,市委,细颗粒物(PM2.5),147,144,100,112,68,18,,11,11,25,35,7,10,,1.5
2026-01-01T1100,3018A,111.5048,36.1015,临汾市,唐尧大酒店,,,,90,,61,,,7,7,23,35,,6,1.3,1.1
2026-01-01T1100,4244A,111.4879,36.053,临汾市,启星学校,细颗粒物(PM2.5),139,130,80,106,64,16,,8,8,27,37,5,6,1.2,1
2026-01-01T1100,4271A,103.2464,35.6123,临夏回族自治州,滨河东路1号,细颗粒物(PM2.5),123,153,125,93,74,13,,9,9,30,29,6,7,1.6,1.2
2026-01-01T1100,4310A,103.207136,35.599807,临夏回族自治州,新华街21号,细颗粒物(PM2.5),124,118,94,94,63,15,,28,21,30,26,8,12,1.2,0.9
2026-01-01T1100,1618A,118.3429,35.0532,临沂市,沂河小区,颗粒物(PM10),56,61,44,39,30,31,,37,34,28,23,12,10,0.6,0.5
2026-01-01T1100,1619A,118.2962,35.0568,临沂市,鲁南制药厂,颗粒物(PM10),53,56,38,34,25,35,,38,34,28,25,12,10,0.6,0.5
2026-01-01T1100,1620A,118.2793,34.9976,临沂市,新光毛纺厂,颗粒物(PM10),52,53,36,30,23,32,,40,36,23,17,15,10,0.5,0.4
2026-01-01T1100,1621A,118.3955,35.0889,临沂市,河东保险公司,颗粒物(PM10),51,51,41,33,24,37,,39,36,17,17,13,9,0.5,0.5
2026-01-01T1100,3370A,118.3563,35.0215,临沂市,十里堡居委,,,,35,,16,,,38,36,29,25,12,9,0.7,0.5
2026-01-01T1100,3496A,118.359,35.1067,临沂市,南坊新区,颗粒物(PM10),51,51,37,34,22,37,,39,35,23,23,12,10,0.5,0.4
2026-01-01T1100,3860A,118.3915,35.0297,临沂市,皇山花园小区,,,63,41,32,22,,,40,40,28,22,15,12,,0.5
2026-01-01T1100,1870A,109.4854,24.3898,柳州市,柳东小学,,12,12,55,8,46,31,,41,36,8,19,7,8,0.8,0.8
2026-01-01T1100,1871A,109.4109,24.3304,柳州市,环保监测站,,17,17,60,3,40,27,,38,33,19,29,6,7,1.0,0.9
2026-01-01T1100,1872A,109.3886,24.3408,柳州市,河西水厂,,18,18,67,12,42,29,,33,29,16,30,10,8,1.5,1.6
2026-01-01T1100,1873A,109.4263,24.2951,柳州市,市四中,,10,,55,7,31,32,,41,37,15,28,8,10,0.9,1
2026-01-01T1100,1874A,109.396,24.3658,柳州市,市九中,,11,11,56,3,43,30,,39,34,17,28,10,11,1.0,0.9
2026-01-01T1100,1875A,109.4912,24.3164,柳州市,古亭山,,10,7,54,3,33,31,,40,36,8,20,8,10,0.8,0.7
2026-01-01T1100,3402A,109.5422,24.3994,柳州市,市二中,,10,10,52,7,38,28,,39,33,11,22,7,8,0.8,0.8
2026-01-01T1100,2307A,116.5078,31.7369,六安市,监测大楼,,26,19,24,18,16,41,,44,43,15,16,2,3,0.3,0.3
2026-01-01T1100,2308A,116.4738,31.7642,六安市,皖西学院,,37,37,31,25,15,44,,48,46,18,18,1,1,0.3,0.3
2026-01-01T1100,2309A,116.4997,31.7904,六安市,朝阳厂,,,113,25,19,15,40,,46,43,,15,4,3,,0.3
2026-01-01T1100,2310A,116.5566,31.7885,六安市,开发区,,28,19,23,19,19,43,,46,44,14,15,3,2,0.3,0.3
2026-01-01T1100,2577A,104.8293,26.592,六盘水市,黄土坡,,19,15,30,13,24,52,,49,49,14,13,7,7,0.7,0.7
2026-01-01T1100,2579A,104.8481,26.5898,六盘水市,民中,,28,23,31,19,23,32,,43,43,31,14,6,5,0.7,0.6
2026-01-01T1100,2580A,104.9541,26.5506,六盘水市,双水,,29,29,33,3,21,53,,47,47,12,10,4,4,0.4,0.5
2026-01-01T1100,4151A,104.8899,26.5685,六盘水市,钟山大道中段564号,,,,20,,11,,,48,48,11,10,,5,0.6,0.6
2026-01-01T1100,2336A,117.022,25.1031,龙岩市,龙岩市监测站,,21,14,32,10,22,66,,66,66,13,18,15,15,0.4,0.5
2026-01-01T1100,2337A,117.0257,25.0662,龙岩市,闽西职业技术学院,,23,20,38,8,25,73,,48,46,9,17,13,11,0.4,0.5
2026-01-01T1100,2338A,117.0195,25.0306,龙岩市,龙岩学院,,29,29,36,11,27,66,,46,44,12,13,11,10,/,/
2026-01-01T1100,2885A,104.9344,33.3827,陇南市,滨江中学,细颗粒物(PM2.5),78,101,75,57,43,52,,32,32,20,25,6,7,1.0,1.1
2026-01-01T1100,3247A,104.9551,33.3709,陇南市,市总工会,细颗粒物(PM2.5),80,94,75,59,44,58,,39,39,17,20,3,4,1.1,1.1
2026-01-01T1100,2488A,111.9984,27.7346,娄底市,市监测站,,33,,53,23,48,28,,30,28,15,20,3,5,0.4,0.6
2026-01-01T1100,2491A,111.9888,27.7035,娄底市,市政府,,29,,44,20,45,26,,30,27,11,16,3,4,0.4,0.5
2026-01-01T1100,4127A,111.9812,27.7591,娄底市,涟钢职大,,22,18,20,15,14,28,,33,30,13,12,3,3,0.5,0.6
2026-01-01T1100,4128A,112.0303,27.7457,娄底市,娄底体校,,,,11,11,10,25,,26,,8,15,1,2,0.3,0.4
2026-01-01T1100,1894A,105.4427,28.9063,泸州市,小市上码头,,9,6,54,3,41,21,,9,8,17,22,9,10,0.8,0.8
2026-01-01T1100,1895A,105.4241,28.8573,泸州市,兰田宪桥,,10,,54,6,43,18,,14,14,16,21,7,7,1.0,1
2026-01-01T1100,1896A,105.4378,28.8833,泸州市,市环监站,,8,6,52,3,40,15,,8,7,16,20,8,8,0.7,0.7
2026-01-01T1100,4272A,105.3689,28.7783,泸州市,纳溪中医医院,,8,,48,3,42,24,,17,17,8,18,6,7,0.8,0.9
2026-01-01T1100,2183A,111.1447,37.5212,吕梁市,环保局,颗粒物(PM10),76,102,96,54,60,17,,5,5,21,38,16,12,0.7,0.7
2026-01-01T1100,2185A,111.1285,37.5338,吕梁市,自来水公司,颗粒物(PM10),79,107,115,52,74,16,,5,5,22,37,15,12,0.8,0.8
2026-01-01T1100,2867A,111.1225,37.5093,吕梁市,马茂庄小学,细颗粒物(PM2.5),87,113,128,64,74,13,,3,3,22,39,13,11,0.7,0.7
2026-01-01T1100,1812A,112.3934,34.6517,洛阳市,市委党校,细颗粒物(PM2.5),57,,37,40,32,46,,39,39,16,21,8,7,0.5,0.5
2026-01-01T1100,1815A,112.494,34.6883,洛阳市,河南林校,,45,45,42,30,25,47,,37,37,17,20,6,4,0.6,0.5
2026-01-01T1100,1816A,112.3843,34.623,洛阳市,开发区管委会,,48,38,41,33,28,41,,36,36,15,19,6,7,0.6,0.5
2026-01-01T1100,1817A,112.4263,34.6249,洛阳市,市委新办公区,细颗粒物(PM2.5),58,,40,41,35,45,,37,37,14,19,8,7,0.5,0.5
2026-01-01T1100,3340A,112.6005,34.6323,洛阳市,伊滨,细颗粒物(PM2.5),60,,48,43,34,44,,35,35,15,19,6,6,0.7,0.6
2026-01-01T1100,3341A,112.495,34.6338,洛阳市,中移产业园,细颗粒物(PM2.5),58,,40,41,32,42,,34,34,20,24,8,8,0.5,0.5
2026-01-01T1100,3593A,112.5736,34.8993,洛阳市,吉利监测站,细颗粒物(PM2.5),67,,42,48,27,39,,33,33,18,21,10,6,0.7,0.6
2026-01-01T1100,3635A,112.3678,34.6623,洛阳市,河科大西苑校区,细颗粒物(PM2.5),54,41,40,38,26,49,,39,39,14,18,8,7,0.5,0.5
2026-01-01T1100,3636A,112.4387,34.678,洛阳市,英才小学,,,,43,47,34,51,,40,40,,25,7,6,0.5,0.5
2026-01-01T1100,4214A,112.460027,34.694929,洛阳市,春都路1号院,颗粒物(PM10),52,53,47,35,24,41,,34,34,15,18,8,7,0.6,0.6
2026-01-01T1100,2399A,114.051,33.5721,漯河市,三五一五工厂,细颗粒物(PM2.5),52,51,56,36,41,38,,35,35,12,15,6,6,0.7,0.7
2026-01-01T1100,2400A,114.0055,33.5698,漯河市,漯河大学,,,,52,,39,,,36,36,14,18,5,5,0.6,0.5
2026-01-01T1100,2401A,114.0134,33.5826,漯河市,市水利局,,49,44,47,34,39,30,,33,31,22,22,6,6,0.6,0.6
2026-01-01T1100,2402A,114.0261,33.5697,漯河市,市广电局,细颗粒物(PM2.5),58,44,48,41,36,36,,36,35,13,14,6,6,0.5,0.5
2026-01-01T1100,3478A,113.9691,33.568,漯河市,市图书馆,细颗粒物(PM2.5),62,50,58,44,42,34,,32,32,16,19,4,4,0.8,0.7
2026-01-01T1100,4250A,114.089259,33.588274,漯河市,韶山路11号,细颗粒物(PM2.5),59,43,50,42,42,37,,32,31,14,18,8,8,0.8,0.8
2026-01-01T1100,1798A,118.5084,31.6838,马鞍山市,湖东路四小,,15,15,32,10,14,46,,50,46,13,14,2,3,0.3,0.3
2026-01-01T1100,1799A,118.5019,31.6449,马鞍山市,开发区,,,,33,,16,49,,53,49,11,12,4,4,,0.4
2026-01-01T1100,3633A,118.4914,31.681,马鞍山市,雨山,,16,9,31,9,14,49,,53,49,13,12,4,4,0.3,0.4
2026-01-01T1100,4191A,118.527362,31.722269,马鞍山市,慈湖高新区,,16,15,30,10,14,49,,52,48,12,12,3,4,0.2,0.3
2026-01-01T1100,1686A,111.0285,21.469,茂名市,电白南海,细颗粒物(PM2.5),58,56,60,41,36,98,,78,78,12,18,11,12,0.8,0.8
2026-01-01T1100,1687A,110.9294,21.6533,茂名市,茂石化七小,,,41,58,24,32,97,,82,82,14,21,6,11,,0.2
2026-01-01T1100,1688A,110.9108,21.6688,茂名市,健康路,,44,44,51,22,32,108,,95,95,15,19,8,13,0.6,0.7
2026-01-01T1100,1689A,110.8592,21.6826,茂名市,高岭,颗粒物(PM10),51,51,65,22,29,110,,97,94,16,21,10,16,/,/
2026-01-01T1100,3450A,111.0101,21.5165,茂名市,电白水东,,41,41,51,19,30,95,,84,83,11,16,10,11,/,/
2026-01-01T1100,2540A,103.8414,30.0871,眉山市,气象局,,45,33,57,31,46,41,,46,40,27,21,8,9,0.7,0.7
2026-01-01T1100,3148A,103.829,30.0563,眉山市,区人社局,,38,38,61,22,40,50,,50,48,26,21,4,6,0.7,0.7
2026-01-01T1100,4148A,103.8836,30.0695,眉山市,眉职院,,31,31,28,19,16,42,,48,42,17,14,5,5,0.8,0.8
2026-01-01T1100,1690A,116.1248,24.3307,梅州市,梅江月梅,,38,38,39,23,30,77,,34,32,12,21,/,/,/,/
2026-01-01T1100,1691A,116.0798,24.2719,梅州市,梅县新城,颗粒物(PM10),51,51,64,24,50,62,,18,18,21,35,8,8,0.6,0.7
2026-01-01T1100,3315A,116.1234,24.2994,梅州市,梅龙,,45,44,50,31,33,58,,37,37,17,21,9,10,0.6,0.6
2026-01-01T1100,1878A,104.7775,31.4741,绵阳市,富乐山,,,33,31,24,28,,,69,66,16,16,,11,0.7,0.7
2026-01-01T1100,1880A,104.6698,31.4668,绵阳市,高新区自来水公司,细颗粒物(PM2.5),55,40,31,39,29,54,,63,59,23,19,8,8,0.7,0.6
2026-01-01T1100,3491A,104.6899,31.5324,绵阳市,西科大附属小学,,49,48,30,34,22,55,,63,58,17,14,8,8,1.0,0.9
2026-01-01T1100,3492A,104.5647,31.5343,绵阳市,安州区旅游局,细颗粒物(PM2.5),55,43,31,39,34,52,,57,53,18,19,12,13,0.8,0.8
2026-01-01T1100,4146A,104.7092,31.4972,绵阳市,科技城新区公安局,,48,40,31,33,27,65,,74,69,20,16,4,4,1.0,1
2026-01-01T1100,4226A,104.765114,31.453094,绵阳市,绵阳市气象局,,43,32,27,30,23,64,,70,66,13,13,8,7,1.3,1.2
2026-01-01T1100,1784A,129.61,44.561,牡丹江市,环保大楼,,32,32,42,17,22,45,,40,40,7,9,10,8,0.7,0.7
2026-01-01T1100,1787A,129.6364,44.6075,牡丹江市,机车工厂,,24,24,38,10,19,46,,42,42,7,9,3,2,0.3,0.2
2026-01-01T1100,1788A,129.6386,44.5462,牡丹江市,第一中学,,25,25,28,12,23,42,,34,34,4,6,5,4,0.3,0.3
2026-01-01T1100,4287A,129.5992,44.5964,牡丹江市,东晓云街98号,,28,28,40,14,28,43,,39,39,5,6,4,4,0.5,0.5
2026-01-01T1100,2531A,105.0703,29.61,内江市,市监测站,,22,22,51,12,42,49,,50,50,15,18,5,5,1.0,1
2026-01-01T1100,2533A,105.0657,29.5807,内江市,内江二中,,19,19,57,8,38,38,,39,39,17,22,4,4,0.9,0.9
2026-01-01T1100,2534A,105.0407,29.5828,内江市,内江日报社,,17,17,46,8,31,41,,40,40,17,23,2,3,0.7,0.7
2026-01-01T1100,4147A,105.0433,29.6105,内江市,玉峰路西段888号,,16,16,18,7,5,51,,50,50,11,9,2,3,0.6,0.6
2026-01-01T1100,2628A,92.0653,31.4846,那曲市,那曲监测站,颗粒物(PM10),60,70,57,39,50,34,,37,37,29,31,14,12,1.1,1.5
2026-01-01T1100,4243A,92.0515,31.4787,那曲市,那曲市委宣传部,细颗粒物(PM2.5),74,80,30,54,19,24,,26,26,30,20,29,19,1.0,0.5
2026-01-01T1100,1291A,115.8887,28.7006,南昌市,省林业公司,,15,,55,9,30,48,,48,48,5,12,3,3,0.8,0.8
2026-01-01T1100,1292A,115.813,28.7443,南昌市,林科所,,18,,62,12,24,39,,41,40,17,19,4,5,0.4,0.4
2026-01-01T1100,1294A,115.8518,28.687,南昌市,建工学校,,23,,78,16,33,35,,37,36,22,24,10,11,0.5,0.5
2026-01-01T1100,1295A,115.8926,28.6425,南昌市,象湖,,20,19,60,14,32,36,,37,36,17,19,7,8,0.6,0.7
2026-01-01T1100,3046A,115.9084,28.6062,南昌市,机电学校,,18,13,68,12,31,41,,44,42,10,16,4,5,0.5,0.6
2026-01-01T1100,3690A,115.9718,28.7032,南昌市,外国语学校,,26,19,64,18,40,36,,38,37,18,18,9,10,0.5,0.5
2026-01-01T1100,4106A,115.7923,28.6873,南昌市,工业二路,,13,11,14,6,10,41,,42,41,11,8,6,6,0.3,0.3
2026-01-01T1100,4192A,115.931587,28.686774,南昌市,南京东路235号,,,2,79,,44,41,,,,15,24,3,5,0.5,0.2
2026-01-01T1100,1906A,106.0791,30.8022,南充市,南充市委,,,14,23,14,23,31,,37,34,,21,4,4,,0.8
2026-01-01T1100,1907A,106.1038,30.8215,南充市,南充炼油厂,,35,35,39,24,32,32,,44,39,24,16,5,5,0.5,0.5
2026-01-01T1100,4227A,106.108336,30.788436,南充市,梨树横街98号,,23,,22,16,21,44,,51,47,15,16,5,5,0.6,0.7
2026-01-01T1100,4304A,106.1172,30.843,南充市,清泉寺北路188号,,16,15,25,11,20,46,,49,46,12,14,6,6,0.8,0.9
2026-01-01T1100,4305A,106.067,30.7616,南充市,同庆路1号,,25,,26,17,24,34,,42,37,25,21,5,6,0.6,0.9
2026-01-01T1100,1151A,118.8033,32.1085,南京市,迈皋桥,,19,19,26,12,10,53,,55,50,10,7,4,4,0.7,0.8
2026-01-01T1100,1152A,118.7487,32.057,南京市,草场门,,18,17,28,12,12,40,,44,40,16,17,4,5,0.2,0.2
2026-01-01T1100,1154A,118.770105,32.004342,南京市,中华门,,17,17,27,9,12,38,,47,40,2,2,4,4,0.3,0.3
2026-01-01T1100,1155A,118.8059,32.0329,南京市,瑞金路,,39,,24,27,15,35,,45,41,20,11,4,4,0.5,0.5
2026-01-01T1100,1156A,118.7946,32.0774,南京市,玄武湖,,20,20,26,7,8,42,,48,43,16,17,4,4,0.4,0.2
2026-01-01T1100,1157A,118.6415,32.0964,南京市,浦口,,,43,34,19,15,39,,46,42,16,16,,7,,0.5
2026-01-01T1100,1158A,118.730129,32.000956,南京市,奥体中心,,,19,31,17,14,,,55,50,13,11,4,3,0.3,0.3
2026-01-01T1100,1159A,118.9072,32.1047,南京市,仙林大学城,,20,19,28,14,9,42,,47,42,12,13,4,6,0.5,0.5
2026-01-01T1100,3422A,118.8443,31.919,南京市,江宁彩虹桥,,16,16,30,9,13,46,,49,46,10,10,3,4,0.2,0.2
2026-01-01T1100,3427A,118.8497,32.3599,南京市,六合雄州,,33,33,26,16,12,43,,50,46,12,9,5,6,0.3,0.3
2026-01-01T1100,4086A,118.7641,32.0841,南京市,新模范马路66号,,,,24,,2,,,,,,8,,4,,0.5
2026-01-01T1100,4249A,118.8707617,31.34017673,南京市,汶溪路181号,,18,14,26,12,18,53,,57,54,17,19,6,6,0.3,0.4
2026-01-01T1100,4312A,119.019,31.6512,南京市,中山西路1号,,17,17,27,10,16,46,,48,45,14,15,4,4,0.3,0.3
2026-01-01T1100,1401A,108.3098,22.788,南宁市,二十一中,细颗粒物(PM2.5),55,41,69,39,53,38,,76,65,14,20,5,6,0.8,0.8
2026-01-01T1100,1402A,108.3135,22.8529,南宁市,北湖,,,45,76,29,56,35,,73,68,,33,2,5,0.9,0.9
2026-01-01T1100,1403A,108.3205,22.8222,南宁市,市监测站,,49,,66,34,53,35,,61,54,14,21,5,8,0.8,0.7
2026-01-01T1100,1404A,108.3828,22.8038,南宁市,大自然花园,,48,40,72,33,55,47,,84,72,14,21,5,7,0.8,0.7
2026-01-01T1100,1406A,108.2397,22.8462,南宁市,区农职院,细颗粒物(PM2.5),72,52,80,52,60,35,,51,51,18,32,6,8,1.0,1
2026-01-01T1100,1407A,108.3285,22.7356,南宁市,英华嘉园,,39,31,65,27,52,45,,79,69,15,25,3,5,0.8,0.7
2026-01-01T1100,3401A,108.4829,22.762,南宁市,红星社区,,35,35,72,21,53,49,,75,66,6,20,4,6,0.8,0.8
2026-01-01T1100,4132A,108.2927,23.1477,南宁市,起凤路9号,,16,9,66,7,59,49,,108,82,6,12,2,3,0.9,0.9
2026-01-01T1100,4221A,108.2177,22.7774,南宁市,乐贤路16号,,49,49,70,33,47,40,,69,60,17,32,1,3,0.8,0.7
2026-01-01T1100,2332A,118.1682,26.6371,南平市,南平市监测站,,,26,38,17,26,50,,64,57,,19,4,5,,0.6
2026-01-01T1100,2334A,118.1757,26.6276,南平市,南平七中,,33,33,38,16,23,52,,64,58,12,14,5,6,0.4,0.6
2026-01-01T1100,1168A,120.9056,31.9669,南通市,狼山街道,,17,17,23,7,10,50,,55,52,8,7,2,2,0.4,0.4
2026-01-01T1100,1170A,120.8635,32.0231,南通市,城中,,15,15,24,10,9,48,,53,50,12,11,2,3,0.4,0.4
2026-01-01T1100,1171A,120.9376,31.9301,南通市,星湖花园,,17,17,22,10,10,53,,56,53,9,10,3,3,0.5,0.4
2026-01-01T1100,1172A,120.8053,32.046,南通市,紫琅学院,,,,22,,7,,,57,54,10,10,4,3,0.6,0.5
2026-01-01T1100,3291A,121.0631,32.0644,南通市,通州监测站,,,12,17,,12,55,,61,56,11,14,3,3,0.4,0.4
2026-01-01T1100,3432A,120.9348,31.9874,南通市,环境教育馆,,,19,22,7,9,,,59,56,9,8,4,4,0.3,0.3
2026-01-01T1100,4091A,120.8692,31.9885,南通市,洪江路,,16,16,17,6,2,50,,55,52,12,11,3,3,0.2,0.2
2026-01-01T1100,2404A,112.5338,33.0086,南阳市,瓦房庄,细颗粒物(PM2.5),78,61,56,57,46,36,,42,39,15,14,6,6,0.7,0.7
2026-01-01T1100,2405A,112.5002,32.9734,南阳市,汉画馆,细颗粒物(PM2.5),64,53,53,46,40,34,,41,38,16,15,6,6,0.6,0.6
2026-01-01T1100,2406A,112.5778,33.0144,南阳市,气象站,细颗粒物(PM2.5),70,62,58,51,38,40,,42,39,15,16,5,4,0.5,0.4
2026-01-01T1100,2407A,112.548,32.9687,南阳市,理工学院,,,47,50,44,33,,,42,40,17,16,5,5,0.7,0.6
2026-01-01T1100,4008A,112.5233,32.9921,南阳市,卧龙区政府,细颗粒物(PM2.5),63,60,62,45,42,34,,41,37,17,17,5,5,0.7,0.7
2026-01-01T1100,1234A,121.8352,29.9111,宁波市,区环保大楼,,16,16,28,9,14,40,,61,56,25,17,5,5,0.4,0.4
2026-01-01T1100,1235A,121.5595,29.8208,宁波市,万里学院,,20,20,29,6,11,52,,64,59,13,14,3,4,0.4,0.4
2026-01-01T1100,1236A,121.713,29.9564,宁波市,龙赛医院,,17,14,29,3,9,52,,64,59,13,10,2,3,0.3,0.3
2026-01-01T1100,1240A,121.5855,29.8635,宁波市,太古小学,,17,17,28,7,12,54,,67,62,12,12,1,2,0.4,0.4
2026-01-01T1100,1241A,121.5239,29.8673,宁波市,市环境监测中心,,17,17,29,3,9,51,,62,57,11,11,5,6,0.4,0.5
2026-01-01T1100,2871A,121.6156,29.9015,宁波市,万里国际学校,,21,21,29,3,11,54,,66,61,15,13,3,4,0.3,0.3
2026-01-01T1100,3710A,121.5593,29.8976,宁波市,白沙活动中心,,17,17,26,3,11,51,,64,59,12,11,4,4,0.3,0.3
2026-01-01T1100,4095A,121.8962,29.7529,宁波市,中科路88号,,17,10,17,3,3,54,,66,62,8,5,4,4,0.5,0.5
2026-01-01T1100,2341A,119.5387,26.6611,宁德市,宁德市监测站,,27,27,39,17,16,46,,45,42,27,24,7,8,0.4,0.5
2026-01-01T1100,3209A,119.5231,26.6562,宁德市,宁德一中,,30,30,40,20,22,48,,52,46,24,21,6,7,0.4,0.5
2026-01-01T1100,2618A,98.859,25.8541,怒江傈僳族自治州,州监测站,,,47,33,24,22,29,,36,35,,12,,7,0.5,0.4
2026-01-01T1100,2619A,98.8607,25.8168,怒江傈僳族自治州,泸水一中,,49,,34,34,26,23,,15,15,14,19,6,6,0.7,0.7
2026-01-01T1100,1888A,101.6891,26.571,攀枝花市,弄弄坪,颗粒物(PM10),64,78,51,33,24,18,,14,11,39,28,52,15,3.0,1
2026-01-01T1100,1889A,101.577,26.5914,攀枝花市,河门口,,50,50,40,29,23,28,,13,13,24,24,25,25,1.1,1.1
2026-01-01T1100,1891A,101.7365,26.4986,攀枝花市,仁和,,35,34,37,24,23,35,,22,20,22,22,18,11,1.5,0.8
2026-01-01T1100,2835A,101.7222,26.567,攀枝花市,四十中小,,,69,71,40,46,16,,6,6,,44,24,14,1.6,1.3
2026-01-01T1100,1604A,122.0303,41.1489,盘锦市,开发区,,26,21,36,18,26,45,,36,36,4,18,2,6,0.7,0.9
2026-01-01T1100,1605A,122.0486,41.0883,盘锦市,兴隆台,,32,32,35,14,19,46,,38,38,11,30,4,9,0.6,0.8
2026-01-01T1100,1606A,121.8297,41.1026,盘锦市,新生街道,,16,16,24,8,15,49,,28,28,6,22,4,4,0.4,0.5
2026-01-01T1100,1832A,113.3257,33.7423,平顶山市,新华旅馆,细颗粒物(PM2.5),67,80,60,48,35,33,,38,33,20,21,7,7,0.8,0.7
2026-01-01T1100,1833A,113.2917,33.737,平顶山市,规划设计院,细颗粒物(PM2.5),74,57,50,54,37,35,,40,36,25,24,5,5,0.7,0.5
2026-01-01T1100,1834A,113.182,33.7738,平顶山市,平顶山工学院,细颗粒物(PM2.5),62,46,44,44,32,43,,41,39,17,19,6,6,0.4,0.3
2026-01-01T1100,3594A,112.8736,33.9068,平顶山市,石龙区,细颗粒物(PM2.5),82,62,50,60,41,39,,37,35,16,20,4,4,0.8,0.7
2026-01-01T1100,4116A,113.284,33.7139,平顶山市,姚电大道23号,细颗粒物(PM2.5),70,72,64,51,44,37,,37,34,14,14,6,6,0.9,0.8
2026-01-01T1100,2656A,106.6633,35.5338,平凉市,聚贤嘉苑,细颗粒物(PM2.5),60,58,50,43,36,50,,49,48,8,12,8,7,0.8,0.8
2026-01-01T1100,2657A,106.7021,35.5307,平凉市,博物馆,,,,52,,38,,,51,51,,15,8,9,0.7,0.7
2026-01-01T1100,2348A,113.8384,27.6436,萍乡市,中医院,,45,33,80,31,54,16,,29,22,21,25,5,6,2.1,1.3
2026-01-01T1100,2350A,113.8677,27.6438,萍乡市,市环保局,,30,22,63,21,48,15,,33,23,24,24,13,15,0.7,0.6
2026-01-01T1100,2351A,113.8663,27.6202,萍乡市,安源区政府,,45,36,88,31,66,18,,28,23,23,28,10,12,0.8,1.1
2026-01-01T1100,4107A,113.8686,27.6668,萍乡市,联洪村委会,,24,24,18,16,15,21,,31,25,22,20,1,2,2.2,1.2
2026-01-01T1100,2319A,119.0142,25.4324,莆田市,荔城区仓后路,,29,29,30,11,10,77,,76,74,7,8,/,/,/,/
2026-01-01T1100,2320A,119.0016,25.4553,莆田市,莆田市监测站,,34,34,23,10,9,78,,80,79,7,6,4,4,0.4,0.4
2026-01-01T1100,2321A,119.112,25.4561,莆田市,涵江区六中,,25,25,24,9,9,75,,80,76,9,9,/,/,0.4,0.4
2026-01-01T1100,2322A,119.1014,25.3215,莆田市,秀屿区政府,,44,44,28,10,8,76,,78,75,6,7,2,2,0.4,0.4
2026-01-01T1100,2392A,115.0312,35.7636,濮阳市,环保局,,29,28,35,20,11,38,,28,28,20,21,7,8,0.9,1
2026-01-01T1100,3021A,115,35.7667,濮阳市,濮水河管理处,,36,36,42,23,16,47,,24,24,24,35,8,9,0.5,0.6
2026-01-01T1100,4118A,115.0552,35.7816,濮阳市,中原东路68号,,46,46,48,12,20,47,,31,31,16,24,6,7,0.6,0.6
2026-01-01T1100,4216A,115.0923632,35.76857718,濮阳市,任丘路479号,,,37,42,22,22,40,,27,27,,30,,8,0.5,0.5
2026-01-01T1100,2601A,100.9801,22.7634,普洱市,市环保局,颗粒物(PM10),55,60,47,14,20,40,,22,22,18,11,5,4,0.5,0.3
2026-01-01T1100,2602A,100.9763,22.8237,普洱市,普洱第二中学,颗粒物(PM10),51,51,43,18,21,50,,16,16,14,17,6,5,0.5,0.4
2026-01-01T1100,3345A,131.0413,45.7795,七台河市,中波台,,,36,40,14,17,42,,32,32,,12,5,7,0.4,0.4
2026-01-01T1100,3637A,131.0136,45.7688,七台河市,人民广场,颗粒物(PM10),52,53,37,16,22,44,,40,40,10,11,8,6,0.4,0.4
2026-01-01T1100,3684A,130.8639,45.8144,七台河市,新建矿广场,颗粒物(PM10),51,51,28,14,22,43,,39,39,5,6,13,8,0.4,0.3
2026-01-01T1100,1779A,123.9307,47.3641,齐齐哈尔市,安居小区,,37,37,34,10,28,49,,44,44,10,15,6,6,0.4,0.4
2026-01-01T1100,1780A,123.9497,47.3389,齐齐哈尔市,中心广场,,,20,28,,16,48,,47,47,10,8,10,7,0.5,0.5
2026-01-01T1100,1781A,123.9483,47.3229,齐齐哈尔市,农牧车辆厂,,25,24,26,17,18,47,,43,43,9,10,4,5,0.6,0.6
2026-01-01T1100,1783A,123.9442,47.2994,齐齐哈尔市,市环境监测站,,20,19,27,14,15,53,,49,49,7,12,7,7,0.4,0.4
2026-01-01T1100,3662A,123.6341,47.2079,齐齐哈尔市,富区青少年活动中心,,33,33,33,19,22,48,,41,41,12,14,6,6,0.6,0.6
2026-01-01T1100,2591A,107.9765,26.5724,黔东南苗族侗族自治州,市环境监测站,,17,11,15,9,13,53,,60,59,13,12,4,4,0.7,0.8
2026-01-01T1100,2881A,107.8909,26.531,黔东南苗族侗族自治州,凯里学院,,18,12,15,7,12,55,,56,56,13,14,4,4,0.7,0.8
2026-01-01T1100,2593A,107.5223,26.2371,黔南布依族苗族自治州,小围寨,,,9,12,3,11,,,44,44,6,8,6,5,0.9,0.8
2026-01-01T1100,3538A,107.5175,26.2977,黔南布依族苗族自治州,沙坝,,16,,12,7,10,51,,49,48,10,10,5,4,0.9,0.9
2026-01-01T1100,2589A,104.9022,25.0943,黔西南布依族苗族自治州,场坝街,,42,42,45,26,35,32,,36,36,12,12,7,6,0.7,0.6
2026-01-01T1100,2590A,104.8812,25.0994,黔西南布依族苗族自治州,坪东大道,,40,30,38,28,33,33,,33,31,11,11,5,5,0.6,0.6
2026-01-01T1100,2502A,108.6238,21.9667,钦州市,市环保站,颗粒物(PM10),69,88,78,46,49,71,,93,80,28,23,5,6,0.6,0.7
2026-01-01T1100,2503A,108.655,21.9481,钦州市,沙埠小学,颗粒物(PM10),57,64,73,35,44,95,,82,78,16,30,6,6,0.5,0.6
2026-01-01T1100,2504A,108.5989,21.7435,钦州市,港区一小,,42,42,68,23,40,91,,86,72,17,30,26,10,0.5,0.7
2026-01-01T1100,3404A,108.5959,21.9634,钦州市,北职校,颗粒物(PM10),59,67,66,41,50,77,,78,72,21,24,9,10,0.7,0.7
2026-01-01T1100,1046A,119.5247,39.9346,秦皇岛市,建设大厦,,38,38,40,25,31,47,,27,27,14,30,12,8,0.5,0.6
2026-01-01T1100,3132A,119.5979,39.938,秦皇岛市,文明里,,33,33,40,15,22,47,,38,38,9,24,16,11,0.3,0.5
2026-01-01T1100,4066A,119.7458,39.9952,秦皇岛市,南园路157号,,35,35,42,8,13,46,,27,27,14,34,12,8,0.7,0.7
2026-01-01T1100,4067A,119.5131,39.8858,秦皇岛市,翠岛大街1号,,28,28,36,6,14,42,,31,31,19,29,15,11,0.5,0.6
2026-01-01T1100,4198A,119.509013,39.825305,秦皇岛市,北戴河轮滑馆,,36,36,41,14,24,51,,35,35,9,24,11,9,0.4,0.8
2026-01-01T1100,1310A,120.404,36.0625,青岛市,市南区东部子站,,41,41,25,24,15,51,,46,44,13,13,13,8,0.6,0.6
2026-01-01T1100,1311A,120.362344,36.10282,青岛市,四方区子站,颗粒物(PM10),56,61,36,36,19,48,,39,39,15,11,9,3,0.6,0.5
2026-01-01T1100,1312A,120.294373,36.054183,青岛市,市南区西部子站,,46,39,26,32,14,43,,44,44,14,11,10,4,0.5,0.4
2026-01-01T1100,1313A,120.4581,36.0858,青岛市,崂山区子站,,,39,20,24,10,,,52,47,20,17,13,10,0.6,0.5
2026-01-01T1100,1315A,120.3945,36.3083,青岛市,城阳区子站,颗粒物(PM10),51,51,39,32,21,46,,33,31,17,18,10,7,0.8,0.7
2026-01-01T1100,3642A,120.3454,36.0735,青岛市,市北区南部,细颗粒物(PM2.5),52,,30,36,14,45,,39,38,14,12,8,4,0.6,0.5
2026-01-01T1100,3643A,120.3897,36.18,青岛市,李沧区北部,细颗粒物(PM2.5),55,48,30,39,24,43,,36,30,18,16,13,8,0.9,0.8
2026-01-01T1100,4110A,120.5222,36.4089,青岛市,盟旺路653号,,47,47,40,24,22,42,,25,25,24,30,5,4,0.5,0.6
2026-01-01T1100,4290A,120.196923,35.954556,青岛市,珠江路669号,,35,34,24,24,17,56,,44,44,13,19,13,11,0.4,0.4
2026-01-01T1100,4291A,120.0424,35.8656,青岛市,黄岛区人民政府广场,颗粒物(PM10),51,51,31,31,16,42,,35,35,19,18,10,7,0.8,0.6
2026-01-01T1100,1703A,113.0218,23.7086,清远市,凤城街办,细颗粒物(PM2.5),75,68,61,55,44,61,,41,41,14,30,/,/,/,/
2026-01-01T1100,3025A,113.0479,23.6343,清远市,技师学院,颗粒物(PM10),55,59,75,35,46,56,,18,18,21,49,10,14,0.7,0.8
2026-01-01T1100,3318A,112.9898,23.7403,清远市,清新太和,细颗粒物(PM2.5),75,67,53,55,37,58,,33,33,11,24,11,13,0.6,0.5
2026-01-01T1100,3455A,113.076,23.72,清远市,清城东城,,,62,56,49,38,61,,25,25,,30,/,/,/,/
2026-01-01T1100,2661A,107.6325,35.7357,庆阳市,庆阳五中,,50,45,41,35,38,47,,41,40,16,16,4,4,0.6,0.6
2026-01-01T1100,2662A,107.6361,35.7067,庆阳市,市环保局,,,58,47,34,40,39,,36,36,,15,5,2,0.4,0.6
2026-01-01T1100,1916A,103.7897,25.5036,曲靖市,环境监测站,颗粒物(PM10),58,66,46,33,19,21,,28,17,28,19,8,5,0.9,0.5
2026-01-01T1100,1917A,103.8013,25.5357,曲靖市,烟厂办公区,颗粒物(PM10),62,73,41,41,19,27,,25,17,24,21,10,5,0.7,0.5
2026-01-01T1100,3376A,103.7926,25.4651,曲靖市,南苑二区,颗粒物(PM10),62,73,34,32,16,23,,43,32,22,8,4,4,0.9,0.4
2026-01-01T1100,3377A,103.7442,25.5259,曲靖市,曲靖师范学院,细颗粒物(PM2.5),72,62,42,52,27,28,,24,19,20,18,7,4,0.8,0.5
2026-01-01T1100,1264A,118.8694,28.94,衢州市,环保大楼,,15,7,30,3,16,47,,63,56,15,19,/,/,/,/
2026-01-01T1100,1266A,118.8622,28.9809,衢州市,衢州学院,,14,8,28,3,14,42,,60,51,16,18,3,3,0.3,0.3
2026-01-01T1100,4097A,118.9646,28.9832,衢州市,衢州三中,,13,8,31,3,17,41,,56,51,12,12,5,5,0.5,0.5
2026-01-01T1100,1611A,118.5818,24.9116,泉州市,涂山街,,26,26,26,14,12,76,,78,76,9,10,3,3,0.4,0.4
2026-01-01T1100,1612A,118.597,24.8976,泉州市,津头埔,,31,31,27,15,13,74,,75,73,12,13,4,4,0.4,0.4
2026-01-01T1100,1613A,118.6669,24.9422,泉州市,万安,,42,42,31,16,10,76,,74,74,9,9,3,3,0.4,0.3
2026-01-01T1100,4105A,118.6355,24.9148,泉州市,霞新路6号,,25,24,16,17,12,75,,72,72,10,8,/,/,0.4,0.4
2026-01-01T1100,2626A,88.8873,29.2723,日喀则市,日喀则监测站,,31,31,30,13,14,30,,34,25,21,20,11,14,0.6,0.7
2026-01-01T1100,3726A,88.8775,29.2425,日喀则市,林业技术推广中心,颗粒物(PM10),55,59,26,35,15,35,,44,38,12,8,13,11,0.9,0.5
2026-01-01T1100,1659A,119.4711,35.421,日照市,监测站,,29,29,32,16,21,49,,38,38,16,19,9,7,0.6,0.6
2026-01-01T1100,1660A,119.523,35.4216,日照市,市政府广场,,31,31,33,18,20,50,,41,41,14,17,10,9,0.3,0.3
2026-01-01T1100,1661A,119.5511,35.4113,日照市,港务局,,31,31,33,18,24,51,,46,46,15,17,9,8,0.3,0.3
2026-01-01T1100,3507A,119.5326,35.4627,日照市,职业技术学院,,39,39,33,24,17,47,,41,41,19,19,10,8,0.6,0.6
2026-01-01T1100,3604A,119.3267,35.1043,日照市,岚山环保分局,,,36,45,32,29,,,36,33,16,23,,16,0.7,1.2
2026-01-01T1100,1835A,111.1922,34.7752,三门峡市,市政府,细颗粒物(PM2.5),82,,41,60,32,37,,41,36,16,19,7,7,0.5,0.4
2026-01-01T1100,1836A,111.1588,34.794,三门峡市,开发区,细颗粒物(PM2.5),70,62,44,51,28,39,,39,37,13,18,7,7,0.5,0.4
2026-01-01T1100,3039A,111.1911,34.7829,三门峡市,三门峡市第一小学,细颗粒物(PM2.5),77,,39,56,27,37,,38,36,14,17,8,7,0.6,0.5
2026-01-01T1100,3598A,111.1031,34.719,三门峡市,富达温泉假日酒店,,,61,44,52,29,,,38,32,25,23,13,11,0.6,0.4
2026-01-01T1100,2324A,117.621,26.2626,三明市,三钢,,,,38,22,29,55,,62,57,16,17,,11,,0.7
2026-01-01T1100,2325A,117.6352,26.2714,三明市,三明二中,,28,28,36,19,26,55,,62,57,13,14,6,11,0.6,0.7
2026-01-01T1100,2326A,117.6028,26.2377,三明市,三元区政府,,26,24,34,18,26,56,,63,59,16,16,11,10,0.4,0.6
2026-01-01T1100,1877A,109.4962,18.2682,三亚市,河西子站,,34,34,38,18,24,92,,86,80,9,9,4,4,0.4,0.5
2026-01-01T1100,3540A,109.7348,18.3443,三亚市,君悦子站,,30,30,38,20,22,83,,57,57,9,11,5,6,0.5,0.5
2026-01-01T1100,4135A,109.1714,18.3739,三亚市,城东小学站,,35,35,37,24,34,80,,52,52,8,12,/,/,/,/
2026-01-01T1100,2624A,91.7592,29.234,山南市,山南监测站,颗粒物(PM10),51,51,34,20,15,42,,46,41,18,14,5,4,0.3,0.4
2026-01-01T1100,2625A,91.7701,29.2436,山南市,山南人民医院,,35,35,15,20,8,46,,61,52,12,9,2,2,0.4,0.3
2026-01-01T1100,1674A,116.6795,23.3666,汕头市,金平子站,,27,27,33,11,19,81,,58,58,12,16,5,5,0.6,0.6
2026-01-01T1100,1675A,116.7248,23.3632,汕头市,龙湖子站,,25,17,30,11,16,78,,61,61,9,13,10,10,/,/
2026-01-01T1100,1676A,116.7257,23.2774,汕头市,濠江子站,,26,26,27,12,17,78,,70,70,11,12,6,7,/,/
2026-01-01T1100,1677A,116.7518,23.4712,汕头市,澄海子站,,26,23,42,9,27,81,,51,51,10,20,6,8,0.6,0.7
2026-01-01T1100,1678A,116.6088,23.2539,汕头市,潮阳子站,,27,17,28,8,13,85,,72,72,9,12,6,6,0.4,0.4
2026-01-01T1100,3444A,116.4539,23.2684,汕头市,潮南峡山,,25,18,32,11,17,80,,57,53,11,14,9,9,0.5,0.5
2026-01-01T1100,3624A,116.4069,23.2533,汕头市,潮南子站,,28,28,43,14,20,68,,52,49,17,17,8,7,/,/
2026-01-01T1100,1693A,115.3653,22.7751,汕尾市,市环保局,,40,40,36,27,24,72,,69,64,17,19,8,7,0.6,0.6
2026-01-01T1100,1695A,115.362,22.7926,汕尾市,新城中学,颗粒物(PM10),51,51,39,28,24,82,,64,63,10,12,6,5,0.4,0.4
2026-01-01T1100,2645A,109.9155,33.8714,商洛市,监测站,,50,50,57,35,47,42,,45,42,14,15,9,5,1.2,1.1
2026-01-01T1100,3045A,109.9647,33.8486,商洛市,商州区中学,细颗粒物(PM2.5),63,48,41,45,52,41,,45,40,18,17,7,6,0.9,0.8
2026-01-01T1100,2408A,115.6701,34.4283,商丘市,环境监测站,,33,26,41,23,27,49,,40,40,12,15,5,4,0.5,0.5
2026-01-01T1100,2409A,115.6458,34.4047,商丘市,粮食局,,35,29,38,24,27,46,,38,38,15,17,6,6,0.2,0.2
2026-01-01T1100,3171A,115.6069,34.4465,商丘市,梁园区档案局,,31,31,35,17,23,47,,40,40,14,17,6,6,0.3,0.3
2026-01-01T1100,4119A,115.6701,34.3767,商丘市,北海东路185号,,35,35,29,19,21,42,,36,36,17,17,4,3,0.6,0.6
2026-01-01T1100,4120A,115.6172,34.3704,商丘市,中山大街3号,,,,34,,24,,,35,33,,17,,2,,0.4
2026-01-01T1100,1141A,121.401,31.2382,上海市,普陀,,17,13,24,9,12,53,,61,57,21,18,5,5,0.6,0.5
2026-01-01T1100,1142A,121.4774,31.2043,上海市,十五厂,,17,10,27,3,13,53,,60,57,16,14,5,6,0.5,0.5
2026-01-01T1100,1143A,121.4673,31.3011,上海市,虹口,,16,16,34,3,12,45,,57,53,18,13,9,9,0.3,0.2
2026-01-01T1100,1147A,121.4253,31.226,上海市,静安监测站,,18,9,23,3,13,55,,63,60,15,13,6,6,0.2,0.2
2026-01-01T1100,1148A,121.7029,31.1905,上海市,浦东川沙,,17,11,25,3,9,54,,60,57,15,12,6,6,0.4,0.4
2026-01-01T1100,1149A,121.5339,31.229,上海市,浦东新区监测站,,16,10,22,6,14,51,,59,55,20,16,6,6,0.5,0.5
2026-01-01T1100,1150A,121.5776,31.2038,上海市,浦东张江,,18,7,21,3,8,55,,63,61,14,12,6,6,0.5,0.5
2026-01-01T1100,3265A,121.4242,31.3303,上海市,宝山庙行,,18,18,26,8,12,45,,56,52,25,19,6,6,0.4,0.3
2026-01-01T1100,3266A,121.8789,31.4662,上海市,崇明上实东滩,,19,8,18,3,8,59,,63,61,4,5,3,3,0.2,0.3
2026-01-01T1100,3268A,121.316,31.2839,上海市,嘉定南翔,,16,10,23,3,7,51,,58,55,13,12,3,3,0.5,0.4
2026-01-01T1100,3269A,121.3357,30.7455,上海市,金山新城,,18,,22,12,17,54,,58,55,19,16,6,6,0.5,0.5
2026-01-01T1100,3270A,121.4996,31.0741,上海市,闵行浦江,,17,8,23,3,11,54,,59,57,15,14,6,6,0.3,0.3
2026-01-01T1100,3271A,121.2886,31.1663,上海市,青浦徐泾,,19,13,22,13,12,52,,59,55,17,18,4,4,0.6,0.5
2026-01-01T1100,3272A,121.2193,31.0382,上海市,松江图书馆,,17,17,22,3,10,40,,59,53,26,16,6,6,0.4,0.3
2026-01-01T1100,3273A,121.3904,31.206,上海市,长宁仙霞,,17,11,24,3,11,54,,61,58,17,15,6,6,0.3,0.3
2026-01-01T1100,3274A,121.7964,31.0507,上海市,浦东惠南,,19,8,24,3,11,58,,63,60,16,11,4,3,0.5,0.5
2026-01-01T1100,3544A,121.4891,30.925,上海市,奉贤南桥新城,,19,9,27,6,14,58,,64,61,13,10,7,7,0.3,0.3
2026-01-01T1100,4183A,121.417401,31.16637,上海市,冠生园路458号,,19,9,25,3,13,58,,64,62,18,18,5,6,0.5,0.6
2026-01-01T1100,4205A,121.541914,31.268301,上海市,宁武路151号,,15,12,28,3,12,48,,56,51,20,16,5,6,0.6,0.6
2026-01-01T1100,2382A,117.9758,28.4439,上饶市,市监测站,,25,25,43,16,20,54,,60,58,15,18,7,5,/,/
2026-01-01T1100,2383A,117.9521,28.4637,上饶市,凤凰光学,,24,24,44,9,18,45,,56,52,18,18,7,6,0.6,0.6
2026-01-01T1100,3685A,117.897,28.4316,上饶市,双创科技城,,32,28,44,22,28,57,,68,64,26,24,3,4,0.6,0.5
2026-01-01T1100,4211A,118.190438,28.444845,上饶市,裕丰大道,,,28,47,24,23,,,59,58,,22,,7,,0.5
2026-01-01T1100,1669A,113.5821,24.7733,韶关市,市八中,,16,16,78,10,54,36,,30,30,15,35,7,13,0.7,0.9
2026-01-01T1100,1671A,113.5916,24.7973,韶关市,园林处,,18,14,56,12,52,39,,34,34,14,35,6,12,/,/
2026-01-01T1100,1673A,113.5971,24.6864,韶关市,曲江监测站,,22,22,74,15,59,36,,25,25,16,30,7,15,0.6,1
2026-01-01T1100,2809A,113.6668,24.7756,韶关市,大学路288号,,28,24,58,19,47,36,,16,16,17,19,6,13,/,/
2026-01-01T1100,3622A,113.5556,24.8082,韶关市,碧湖山庄,,15,14,71,10,50,37,,35,35,16,26,5,8,0.6,0.7
2026-01-01T1100,2464A,111.5277,27.2442,邵阳市,市化工厂,,36,26,69,25,55,30,,33,30,19,22,12,13,0.9,1.1
2026-01-01T1100,2466A,111.4327,27.2276,邵阳市,市环保局,,29,20,42,20,47,31,,30,29,13,16,4,5,0.9,1.1
2026-01-01T1100,4218A,111.446,27.2472,邵阳市,北塔二期4-26地块,,46,,54,32,65,29,,27,27,14,20,4,6,1.0,1.1
2026-01-01T1100,4219A,111.4739,27.2282,邵阳市,邵水西路287号,,36,,49,25,59,32,,31,28,17,20,10,11,0.5,0.8
2026-01-01T1100,1247A,120.6053,29.9927,绍兴市,城东开发委,,22,22,29,12,12,39,,53,46,20,16,7,8,0.4,0.4
2026-01-01T1100,2921A,120.5482,30.0003,绍兴市,树下王站,,20,20,29,11,13,38,,51,44,21,15,6,6,0.4,0.4
2026-01-01T1100,3408A,120.5685,29.936,绍兴市,绍兴中专,,21,21,30,12,13,42,,54,46,14,14,6,7,0.5,0.4
2026-01-01T1100,3409A,120.4905,30.086,绍兴市,柯桥区政府,,23,23,31,15,14,43,,53,48,22,19,4,5,0.4,0.4
2026-01-01T1100,3410A,120.8751,30.0249,绍兴市,重华小学,,25,25,28,10,11,39,,58,52,18,14,5,5,0.4,0.3
2026-01-01T1100,3411A,120.837,30.0137,绍兴市,上虞中学,,20,20,27,9,12,42,,62,56,21,15,6,7,0.4,0.4
2026-01-01T1100,3560A,120.4715,30.0414,绍兴市,柯桥妇保,,27,27,31,13,13,44,,54,49,17,18,6,6,0.6,0.6
2026-01-01T1100,3658A,120.6156,30.0762,绍兴市,袍江中学,,,,21,7,11,41,,54,48,21,19,6,7,0.6,0.5
2026-01-01T1100,1356A,114.0948,22.5506,深圳市,通心岭子站,,41,41,36,24,19,80,,69,65,13,12,7,6,0.6,0.5
2026-01-01T1100,1357A,114.1153,22.5713,深圳市,洪湖,,42,42,40,22,20,78,,67,62,18,20,10,9,0.6,0.5
2026-01-01T1100,1358A,113.9823,22.5398,深圳市,华侨城,,46,46,38,28,21,75,,56,55,21,20,/,/,/,/
2026-01-01T1100,1359A,113.9181,22.517,深圳市,南海子站,颗粒物(PM10),51,51,42,24,22,79,,76,70,13,13,7,6,0.6,0.6
2026-01-01T1100,1360A,114.2345,22.565,深圳市,盐田,,45,45,36,24,23,82,,63,61,14,27,9,9,0.5,0.5
2026-01-01T1100,1363A,114.4911,22.5381,深圳市,南澳,,46,46,32,24,14,92,,71,66,9,9,/,/,/,/
2026-01-01T1100,1364A,114.41,22.6346,深圳市,葵涌,,,,26,,16,85,,47,46,16,15,,8,0.6,0.6
2026-01-01T1100,1365A,114.2967,22.5978,深圳市,梅沙,,39,39,39,22,21,90,,71,71,10,12,/,/,/,/
2026-01-01T1100,1366A,114.0563,22.7353,深圳市,观澜,颗粒物(PM10),60,69,74,41,45,82,,37,37,22,33,9,8,0.7,0.7
2026-01-01T1100,3305A,114.0614,22.556,深圳市,莲花,,41,41,37,24,21,73,,57,56,21,20,/,/,/,/
2026-01-01T1100,3306A,114.0144,22.6163,深圳市,民治,,47,47,42,32,25,72,,47,47,27,32,/,/,/,/
2026-01-01T1100,3307A,114.1756,22.6421,深圳市,横岗,,50,50,47,33,28,86,,66,63,15,22,/,/,/,/
2026-01-01T1100,3447A,114.344,22.7115,深圳市,坪山,细颗粒物(PM2.5),54,56,45,38,26,88,,49,49,21,22,11,9,0.6,0.6
2026-01-01T1100,3623A,113.8952,22.586,深圳市,西乡,,50,50,44,33,23,77,,48,47,25,34,7,6,0.7,0.7
2026-01-01T1100,4220A,114.214113,22.713717,深圳市,黄阁路,,,54,45,36,26,69,,59,51,27,17,,7,0.8,0.6
2026-01-01T1100,1099A,123.5058,41.7084,沈阳市,浑南东路,,45,43,46,31,30,40,,17,17,21,40,10,10,0.7,0.9
2026-01-01T1100,1100A,123.4238,41.6992,沈阳市,新秀街,,43,,50,30,26,44,,17,17,13,31,8,8,0.8,1
2026-01-01T1100,1102A,123.5903,41.8412,沈阳市,东陵路,,46,,45,32,28,26,,20,20,24,26,7,8,0.9,0.9
2026-01-01T1100,1103A,123.4267,41.8466,沈阳市,陵东街,细颗粒物(PM2.5),63,65,40,45,27,21,,6,6,27,33,13,13,1.0,1
2026-01-01T1100,1104A,123.4116,41.7654,沈阳市,文化路,,,59,49,38,29,29,,7,7,,31,21,15,,1.1
2026-01-01T1100,1105A,123.4673,41.787,沈阳市,小河沿,,,55,42,39,29,30,,8,8,,34,,11,0.8,1
2026-01-01T1100,1106A,123.4019,41.7978,沈阳市,太原街,细颗粒物(PM2.5),79,74,54,58,43,22,,6,6,30,35,14,21,0.9,0.9
2026-01-01T1100,1108A,123.3778,41.9233,沈阳市,京沈街,细颗粒物(PM2.5),68,,48,49,31,27,,14,14,27,36,10,10,0.6,0.6
2026-01-01T1100,2897A,123.2429,41.7341,沈阳市,沈辽西路,细颗粒物(PM2.5),77,88,73,56,42,24,,5,5,33,40,16,13,0.9,0.9
2026-01-01T1100,2900A,123.5951,41.9085,沈阳市,裕农路,细颗粒物(PM2.5),92,84,39,68,27,22,,25,22,34,22,4,4,1.0,0.6
2026-01-01T1100,2429A,110.78,32.6494,十堰市,滨河新村,细颗粒物(PM2.5),68,56,50,49,50,38,,51,47,21,19,/,/,0.7,1
2026-01-01T1100,2430A,110.7305,32.6408,十堰市,刘家沟,细颗粒物(PM2.5),74,55,54,54,53,39,,47,45,18,22,/,/,/,/
2026-01-01T1100,2431A,110.8843,32.5712,十堰市,铁二处,颗粒物(PM10),53,55,46,32,42,37,,44,39,18,27,8,8,1.0,1.2
2026-01-01T1100,3545A,110.8053,32.8401,十堰市,郧阳区金沙路,细颗粒物(PM2.5),53,50,40,37,35,52,,57,54,20,18,6,5,0.9,0.9
2026-01-01T1100,2709A,86.0391,44.298,石河子市,艾青诗歌馆,细颗粒物(PM2.5),74,66,70,54,61,13,,37,35,56,32,8,8,1.2,0.8
2026-01-01T1100,3442A,86.047,44.2331,石河子市,南区管委会,颗粒物(PM10),65,79,70,45,56,59,,67,63,13,16,6,7,0.8,0.9
2026-01-01T1100,4051A,86.0791,44.3018,石河子市,世纪广场,细颗粒物(PM2.5),69,74,80,50,60,18,,29,29,47,41,5,6,1.0,0.9
2026-01-01T1100,4167A,86.0126,44.2349,石河子市,城南景苑小区,颗粒物(PM10),63,76,77,30,45,54,,64,59,14,9,4,4,0.5,0.6
2026-01-01T1100,1030A,114.5919,38.0328,石家庄市,高新区,细颗粒物(PM2.5),62,61,52,44,27,24,,10,9,35,30,10,5,0.8,0.5
