timepoint,stationcode,longitude,latitude,area,positionname,primarypollutant,aqi,pm10,pm10_24h,pm2_5,pm2_5_24h,o3,o3_24h,o3_8h,o3_8h_24h,no2,no2_24h,so2,so2_24h,co,co_24h
2026-01-01T2100,2568A,102.2503,31.8896,阿坝藏族羌族自治州,马师校,,35,34,18,24,16,29,,63,49,29,17,4,4,0.7,0.5
2026-01-01T2100,3994A,102.2174,31.9016,阿坝藏族羌族自治州,马尔康中学西区,,29,29,13,19,8,39,,67,62,28,14,6,5,0.7,0.5
2026-01-01T2100,2695A,80.2899,41.1684,阿克苏地区,电视台,,50,50,54,27,34,40,,44,44,20,18,4,4,0.7,0.7
2026-01-01T2100,2696A,80.2592,41.1541,阿克苏地区,艺术中心,细颗粒物(PM2.5),63,46,53,45,38,25,,50,,26,15,4,4,0.7,0.5
2026-01-01T2100,2205A,105.699,38.8409,阿拉善盟,蒙二幼,细颗粒物(PM2.5),64,54,44,46,33,47,,65,59,22,17,11,11,0.8,0.7
2026-01-01T2100,2206A,105.7198,38.8508,阿拉善盟,环保局新楼,细颗粒物(PM2.5),52,45,31,36,22,40,,60,57,22,12,10,10,0.8,0.6
2026-01-01T2100,2708A,88.1266,47.8515,阿勒泰地区,市站,,31,20,22,17,14,22,,77,46,61,34,3,5,0.4,0.3
2026-01-01T2100,4166A,88.1198,47.7931,阿勒泰地区,阿勒泰路33号,,35,23,24,9,9,17,,83,54,70,22,7,6,0.6,0.3
2026-01-01T2100,2630A,80.1171,32.4999,阿里地区,阿里监测站,,,6,3,3,3,86,,85,85,2,9,,10,0.3,0.4
2026-01-01T2100,3192A,80.0906,32.5029,阿里地区,阿里藏医院,,27,14,12,3,6,86,,86,86,2,6,20,11,0.3,0.4
2026-01-01T2100,2644A,109.0088,32.6974,安康市,汉滨区检察院,,50,40,17,35,17,17,,59,51,34,14,4,4,0.7,0.5
2026-01-01T2100,4054A,109.0324,32.6913,安康市,市邮政管理局,细颗粒物(PM2.5),69,53,23,50,19,11,,50,39,38,18,4,4,0.9,0.5
2026-01-01T2100,2291A,117.0806,30.5181,安庆市,环科院,,38,30,25,26,17,48,,48,45,3,4,4,4,0.3,0.3
2026-01-01T2100,2292A,117.0331,30.5118,安庆市,马山宾馆,,35,26,24,24,17,52,,54,49,14,13,3,4,0.6,0.7
2026-01-01T2100,2294A,116.9897,30.6146,安庆市,安庆大学,,32,22,21,22,14,54,,50,50,5,6,3,3,0.4,0.4
2026-01-01T2100,3173A,117.0598,30.5351,安庆市,市人大,,39,29,27,27,18,47,,51,46,5,4,4,4,0.4,0.4
2026-01-01T2100,3123A,105.9408,26.2431,安顺市,凤凰山,,48,34,35,33,30,48,,48,48,18,15,6,7,1.0,1
2026-01-01T2100,3124A,105.9443,26.2567,安顺市,金钟山,,46,,26,32,24,51,,50,50,16,13,18,12,1.1,1
2026-01-01T2100,3125A,105.8983,26.248,安顺市,娄家坡,,46,36,31,32,27,52,,48,48,16,14,18,17,1.0,1
2026-01-01T2100,1819A,114.3552,36.1017,安阳市,红庙街,细颗粒物(PM2.5),99,80,44,74,34,16,,45,38,31,20,1,3,0.8,0.6
2026-01-01T2100,1820A,114.361,36.0681,安阳市,银杏小区,细颗粒物(PM2.5),107,81,46,80,41,18,,46,38,29,21,2,3,0.6,0.4
2026-01-01T2100,3141A,114.3921,36.0879,安阳市,信访局,细颗粒物(PM2.5),89,67,45,66,36,16,,46,40,36,24,3,2,0.8,0.6
2026-01-01T2100,3669A,114.4706,36.0634,安阳市,左辅环卫站,细颗粒物(PM2.5),102,102,57,76,38,14,,48,39,26,17,2,3,0.6,0.6
2026-01-01T2100,4117A,114.2918,36.0769,安阳市,钢三路198号,细颗粒物(PM2.5),118,105,66,89,44,18,,46,38,28,20,2,3,0.7,0.5
2026-01-01T2100,1748A,123.0441,41.1201,鞍山市,深沟寺,细颗粒物(PM2.5),73,63,54,53,41,32,,40,39,23,26,9,10,0.9,1.1
2026-01-01T2100,1749A,123.011,41.0931,鞍山市,太阳城,细颗粒物(PM2.5),58,53,52,41,36,38,,45,44,23,25,14,16,0.7,1.1
2026-01-01T2100,1750A,123.0483,41.1445,鞍山市,太平,细颗粒物(PM2.5),82,88,72,60,42,30,,38,38,29,27,14,13,1.0,1.1
2026-01-01T2100,1751A,122.964,41.0968,鞍山市,铁西三道街,,49,49,91,30,55,37,,38,38,27,29,20,35,0.9,1.9
2026-01-01T2100,1753A,123.0219,41.0822,鞍山市,明达新区,细颗粒物(PM2.5),54,52,53,38,34,37,,38,38,18,19,14,15,0.8,1.1
2026-01-01T2100,4201A,122.944647,41.082639,鞍山市,兴盛南路290号,,49,49,78,31,49,30,,44,43,36,38,19,18,1.8,2.1
2026-01-01T2100,2195A,107.4206,40.7609,巴彦淖尔市,附二中,细颗粒物(PM2.5),128,148,102,97,73,3,,44,35,63,40,11,9,1.6,0.7
2026-01-01T2100,2196A,107.37,40.7372,巴彦淖尔市,市环保大楼,颗粒物(PM10),57,63,95,38,66,38,,52,50,27,35,5,7,0.6,0.7
2026-01-01T2100,1956A,86.1476,41.7529,巴音郭楞蒙古自治州,孔雀公园,颗粒物(PM10),51,51,47,32,31,33,,56,52,38,19,6,7,0.6,0.5
2026-01-01T2100,1957A,86.1971,41.7166,巴音郭楞蒙古自治州,棉纺厂,,,96,62,49,25,,,49,,61,22,/,/,/,/
2026-01-01T2100,1958A,86.236,41.7172,巴音郭楞蒙古自治州,经济开发区,,39,39,38,21,22,30,,54,52,26,9,4,5,0.5,0.5
2026-01-01T2100,3181A,106.776805,31.852614,巴中市,市五中,细颗粒物(PM2.5),52,52,32,36,25,66,,63,63,14,16,5,5,0.8,0.9
2026-01-01T2100,3183A,106.7419,31.8654,巴中市,圣泉水务公司,,39,32,23,27,19,53,,66,65,23,21,4,5,0.6,0.6
2026-01-01T2100,3616A,106.7617,31.8343,巴中市,市中心医院,,38,34,29,26,21,61,,67,67,19,22,6,6,0.8,0.9
2026-01-01T2100,2235A,122.7909,45.608,白城市,洮北区环保局,细颗粒物(PM2.5),73,,55,53,53,37,,44,41,27,26,5,6,0.6,0.6
2026-01-01T2100,2236A,122.8741,45.5725,白城市,市环保局,细颗粒物(PM2.5),55,48,46,39,40,10,,43,28,56,29,9,6,0.5,0.5
2026-01-01T2100,2231A,126.4219,41.9172,白山市,喜丰,细颗粒物(PM2.5),58,56,52,41,27,27,,51,46,29,21,11,13,0.7,0.6
2026-01-01T2100,2232A,126.4082,41.9416,白山市,环保局,细颗粒物(PM2.5),94,91,55,70,40,32,,47,44,18,15,18,12,0.7,0.5
2026-01-01T2100,2647A,104.1727,36.5448,白银市,第三小学,细颗粒物(PM2.5),67,,62,48,60,65,,52,52,18,38,26,29,1.0,0.9
2026-01-01T2100,2648A,104.1467,36.5482,白银市,动力公司,细颗粒物(PM2.5),69,53,68,50,63,66,,62,62,19,26,18,24,0.8,0.7
2026-01-01T2100,2512A,106.6102,23.901,百色市,市监测站,,27,27,30,10,18,24,,82,39,22,16,8,11,0.8,0.8
2026-01-01T2100,2513A,106.6524,23.8842,百色市,市中心血站,,23,23,32,10,20,38,,95,40,22,21,10,11,0.9,0.8
2026-01-01T2100,4133A,106.6273,23.8798,百色市,龙景西路,,32,32,40,9,19,30,,93,36,11,11,7,11,0.9,0.9
2026-01-01T2100,2270A,117.396,32.9389,蚌埠市,工人疗养院,细颗粒物(PM2.5),78,75,46,57,36,41,,54,51,23,12,4,4,0.4,0.3
2026-01-01T2100,2271A,117.3606,32.9428,蚌埠市,百货大楼,细颗粒物(PM2.5),74,70,39,54,32,38,,58,53,25,12,3,3,0.4,0.3
2026-01-01T2100,2273A,117.4183,32.8909,蚌埠市,蚌埠学院,细颗粒物(PM2.5),65,53,35,47,31,50,,53,53,21,18,3,3,0.4,0.3
2026-01-01T2100,2274A,117.3534,32.9672,蚌埠市,淮上区政府,细颗粒物(PM2.5),75,73,39,55,34,33,,58,50,28,11,3,2,0.5,0.4
2026-01-01T2100,2275A,117.3143,32.8977,蚌埠市,高新区,细颗粒物(PM2.5),74,56,35,54,33,45,,54,50,20,14,5,5,0.3,0.3
2026-01-01T2100,3715A,117.3091,32.9314,蚌埠市,蚌埠田家炳中学,细颗粒物(PM2.5),79,70,46,58,39,43,,52,47,22,16,3,3,0.4,0.3
2026-01-01T2100,1585A,109.8761,40.6533,包头市,市环境监测站,颗粒物(PM10),71,92,58,36,24,5,,52,34,70,35,9,18,1.1,1.2
2026-01-01T2100,1587A,109.9992,40.5843,包头市,包头八中,细颗粒物(PM2.5),105,104,86,79,52,8,,46,36,72,48,13,22,1.3,1.4
2026-01-01T2100,1589A,109.8641,40.6288,包头市,惠龙物流,"颗粒物(PM10),细颗粒物(PM2.5)",64,77,59,46,27,15,,50,34,57,32,19,23,1.3,1.1
2026-01-01T2100,1590A,110.0376,40.5546,包头市,东河鸿龙湾,颗粒物(PM10),67,83,68,36,33,14,,56,48,80,46,29,17,1.2,1.1
2026-01-01T2100,3283A,109.9154,40.5684,包头市,滨河大厦,颗粒物(PM10),59,68,86,36,55,7,,50,46,49,34,50,35,1.6,1.7
2026-01-01T2100,3419A,109.9449,40.6259,包头市,包头市委党校,颗粒物(PM10),68,86,72,43,36,3,,42,35,72,48,14,19,1.2,1.3
2026-01-01T2100,3683A,109.8332,40.6577,包头市,昆区政府,颗粒物(PM10),66,81,45,26,21,33,,57,31,41,31,7,25,0.6,1.3
2026-01-01T2100,1931A,107.0802,34.3129,宝鸡市,竹园沟,细颗粒物(PM2.5),75,,43,55,48,21,,42,33,13,14,5,5,0.7,0.6
2026-01-01T2100,1933A,107.1429,34.3549,宝鸡市,监测站,细颗粒物(PM2.5),99,75,53,74,59,12,,43,29,34,23,4,4,0.8,0.7
2026-01-01T2100,1934A,107.1172,34.3759,宝鸡市,技工学校,细颗粒物(PM2.5),109,,48,82,57,26,,42,34,22,18,3,2,0.8,0.7
2026-01-01T2100,1936A,107.2025,34.3518,宝鸡市,文理学院,细颗粒物(PM2.5),112,,53,84,60,14,,45,25,40,22,4,3,0.8,0.7
2026-01-01T2100,1937A,107.2396,34.3626,宝鸡市,三迪小学,细颗粒物(PM2.5),122,,57,92,67,13,,46,24,43,23,3,3,0.8,0.7
2026-01-01T2100,4155A,107.1721,34.3558,宝鸡市,滨河北路,细颗粒物(PM2.5),87,78,61,64,54,11,,48,30,45,24,5,5,0.8,0.8
2026-01-01T2100,4308A,107.3898,34.3601,宝鸡市,陈仓区北开路21号,细颗粒物(PM2.5),114,,53,86,60,15,,50,32,38,18,5,4,0.9,0.8
2026-01-01T2100,1051A,115.4803,38.8568,保定市,游泳馆,细颗粒物(PM2.5),72,79,58,52,33,13,,38,32,59,39,5,5,0.7,0.6
2026-01-01T2100,1052A,115.509,38.8895,保定市,华电二区,细颗粒物(PM2.5),74,67,53,54,43,7,,33,26,47,35,4,5,1.0,0.7
2026-01-01T2100,1053A,115.4588,38.9037,保定市,接待中心,细颗粒物(PM2.5),67,71,62,48,37,5,,36,25,57,33,3,2,0.5,0.5
2026-01-01T2100,1054A,115.4484,38.8344,保定市,地表水厂,"颗粒物(PM10),细颗粒物(PM2.5)",72,94,78,52,42,18,,42,36,57,48,4,5,0.7,0.7
2026-01-01T2100,3581A,115.3136,38.9511,保定市,满城区生态环境分局,颗粒物(PM10),76,102,80,46,42,5,,32,20,72,47,6,6,0.6,0.6
2026-01-01T2100,3582A,115.4709,38.7628,保定市,清苑区第二中学,颗粒物(PM10),71,92,78,48,42,12,,35,31,61,49,6,8,0.6,0.6
2026-01-01T2100,3583A,115.6231,39.0223,保定市,徐水物探局,细颗粒物(PM2.5),87,104,84,64,46,3,,32,23,66,50,5,6,0.9,0.7
2026-01-01T2100,4004A,115.4199,38.8665,保定市,双鹰农机,颗粒物(PM10),72,94,73,49,35,18,,44,37,53,38,9,8,0.6,0.5
2026-01-01T2100,4034A,115.515,38.8589,保定市,植保所站,细颗粒物(PM2.5),80,65,58,59,37,9,,30,25,62,47,4,4,0.6,0.5
2026-01-01T2100,2594A,99.1589,25.1137,保山市,市环境监测站,,48,,29,33,22,65,,86,81,8,9,8,6,0.4,0.4
2026-01-01T2100,2595A,99.1616,25.1381,保山市,市环保局,,28,26,27,19,19,79,,89,88,4,6,5,4,0.4,0.3
2026-01-01T2100,1867A,109.1435,21.4085,北海市,海滩公园,细颗粒物(PM2.5),64,53,50,46,30,45,,114,93,17,15,6,9,1.1,0.8
2026-01-01T2100,1868A,109.0983,21.466,北海市,新市环保局,细颗粒物(PM2.5),55,44,47,39,34,43,,108,89,16,15,4,7,0.9,0.6
2026-01-01T2100,1869A,109.1775,21.5232,北海市,北海工业园,细颗粒物(PM2.5),53,52,57,37,37,40,,102,83,15,15,7,11,1.0,0.7
2026-01-01T2100,3400A,109.1844,21.4396,北海市,龙潭自来水厂,细颗粒物(PM2.5),59,59,50,42,35,45,,109,92,15,12,6,9,1.4,1
2026-01-01T2100,1001A,116.3611,39.8786,北京市,万寿西宫,,,,32,,13,,,57,57,,33,,2,,0.4
2026-01-01T2100,1003A,116.4174,39.9289,北京市,东四,,17,17,26,7,12,46,,56,54,17,25,2,2,0.4,0.5
2026-01-01T2100,1004A,116.4073,39.8858,北京市,天坛,,15,15,26,10,12,47,,57,56,16,26,2,2,0.2,0.4
2026-01-01T2100,1005A,116.4622,39.9364,北京市,农展馆,,20,20,26,8,13,49,,59,58,16,24,3,4,0.3,0.5
2026-01-01T2100,1006A,116.3399,39.9293,北京市,官园,,18,18,31,9,13,53,,54,54,13,31,3,4,0.4,0.5
2026-01-01T2100,1007A,116.2879,39.9613,北京市,海淀万柳,,19,19,29,8,13,41,,49,48,22,35,2,3,0.3,0.4
2026-01-01T2100,1008A,116.6635,40.1349,北京市,顺义新城,,20,11,21,3,11,62,,65,65,6,19,4,4,0.3,0.4
2026-01-01T2100,1009A,116.6275,40.327,北京市,怀柔镇,,17,17,17,10,8,52,,58,56,13,14,6,6,0.4,0.4
2026-01-01T2100,1010A,116.2295,40.217,北京市,昌平镇,,30,30,26,13,11,33,,41,41,30,20,4,5,0.5,0.5
2026-01-01T2100,1011A,116.3968,39.982,北京市,奥体中心,,17,15,23,7,11,52,,52,52,19,33,4,4,0.4,0.5
2026-01-01T2100,3418A,116.8336,40.4095,北京市,密云新城,,,,16,,8,,,66,66,,10,,3,,0.4
2026-01-01T2100,3671A,116.0879,39.9725,北京市,门头沟三家店,,50,50,37,20,16,4,,43,35,46,30,2,2,0.5,0.5
2026-01-01T2100,3672A,116.1507,39.8246,北京市,丰台云岗,,21,21,47,9,15,44,,49,48,20,34,1,2,0.3,0.4
2026-01-01T2100,3674A,115.9578,39.7602,北京市,房山燕山,,15,15,36,3,20,43,,33,33,9,27,2,3,0.3,0.4
2026-01-01T2100,3675A,116.4669,39.7734,北京市,大兴旧宫,,,,34,,11,,,58,56,,31,,2,,0.5
2026-01-01T2100,3694A,115.9859,40.4562,北京市,延庆石河营,,20,7,32,3,20,61,,61,61,3,17,3,2,0.3,0.8
2026-01-01T2100,3695A,116.6151,40.3052,北京市,怀柔新城,,18,18,16,11,10,51,,57,56,12,12,4,4,0.2,0.3
2026-01-01T2100,3696A,116.2542,39.8764,北京市,丰台小屯,,27,27,38,10,15,30,,47,45,28,34,3,3,0.5,0.6
2026-01-01T2100,3697A,116.8399,40.3843,北京市,密云镇,,,,18,,8,,,65,65,,23,,1,,0.5
2026-01-01T2100,4057A,115.9423,40.4431,北京市,延庆百泉,,17,6,37,3,24,54,,58,58,6,17,2,2,0.2,0.6
2026-01-01T2100,4058A,116.6598,39.9164,北京市,通州新华,,30,30,29,10,13,24,,57,51,36,30,2,3,0.4,0.4
2026-01-01T2100,4182A,116.1942,39.9158,北京市,石景山八角,,22,22,38,7,13,37,,44,43,25,35,3,3,0.2,0.3
2026-01-01T2100,4194A,117.078628,40.151726,北京市,平谷新城,,,,15,,10,,,62,62,,10,,2,,0.4
2026-01-01T2100,1761A,123.8274146,41.31234549,本溪市,大峪,细颗粒物(PM2.5),67,63,64,48,33,37,,44,42,16,25,8,9,1.0,1.1
2026-01-01T2100,1763A,123.7169,41.3094,本溪市,彩屯,细颗粒物(PM2.5),95,82,84,71,46,27,,46,42,30,32,8,12,1.3,1.4
2026-01-01T2100,1764A,123.7672166,41.28649327,本溪市,东明,细颗粒物(PM2.5),69,,65,50,43,38,,44,43,19,26,10,10,1.2,1.3
2026-01-01T2100,1765A,123.799345,41.266614,本溪市,新立屯,细颗粒物(PM2.5),60,46,35,43,23,33,,45,42,18,22,10,9,1.1,1.2
2026-01-01T2100,1766A,123.829144,41.336777,本溪市,威宁,细颗粒物(PM2.5),70,56,58,51,32,13,,43,36,47,28,6,6,1.1,1
2026-01-01T2100,2587A,105.287,27.3133,毕节市,八中,,39,37,34,27,28,38,,47,41,16,11,8,8,0.9,0.8
2026-01-01T2100,2588A,105.3079,27.2987,毕节市,师专,,38,33,28,26,22,44,,52,46,15,12,9,8,0.9,0.7
2026-01-01T2100,4263A,105.3688,27.3598,毕节市,工业大道,,38,29,28,26,24,34,,48,41,15,11,10,10,/,/
2026-01-01T2100,1629A,117.9961,37.3604,滨州市,第二水厂,,19,19,34,6,17,42,,45,41,14,28,8,12,0.4,0.6
2026-01-01T2100,1630A,117.9789,37.3931,滨州市,北中新校,,24,24,36,7,18,38,,44,40,11,25,5,7,0.2,0.5
2026-01-01T2100,3514A,117.9379,37.3959,滨州市,中海酒店,,16,14,35,7,26,50,,50,48,15,36,7,10,0.3,0.7
2026-01-01T2100,3515A,117.9381509,37.35547456,滨州市,开发区一中,,22,22,38,7,23,50,,49,47,8,25,8,13,0.3,0.6
2026-01-01T2100,3516A,118.0914,37.6938,滨州市,金海六路,,29,29,40,14,22,48,,50,49,13,35,5,12,0.4,0.7
2026-01-01T2100,4028A,117.9955,37.3752,滨州市,滨州市西街道办事处,,18,17,29,12,22,46,,50,45,13,23,7,10,0.3,0.5
2026-01-01T2100,2311A,115.8071,33.8399,亳州市,污水处理厂,细颗粒物(PM2.5),78,69,42,57,35,41,,59,58,32,21,3,4,0.4,0.3
2026-01-01T2100,2312A,115.7789,33.8519,亳州市,三国揽胜宫,细颗粒物(PM2.5),80,70,52,59,34,36,,51,50,22,13,2,2,0.5,0.4
2026-01-01T2100,3332A,115.7631,33.803,亳州市,亳州学院,细颗粒物(PM2.5),80,74,45,59,38,42,,53,53,20,17,2,3,0.5,0.4
2026-01-01T2100,2693A,82.0482,44.8553,博尔塔拉蒙古自治州,市党校,颗粒物(PM10),62,74,65,34,34,40,,62,52,36,17,4,5,0.9,0.4
2026-01-01T2100,2694A,82.0805,44.8966,博尔塔拉蒙古自治州,市环保局,颗粒物(PM10),64,78,75,35,33,33,,53,52,45,25,4,10,0.9,0.8
2026-01-01T2100,1071A,116.8733,38.2922,沧州市,沧县城建局,颗粒物(PM10),53,55,52,29,34,21,,51,39,52,44,1,5,0.7,0.6
2026-01-01T2100,1072A,116.8462,38.3189,沧州市,电视转播站,颗粒物(PM10),53,55,54,27,29,23,,46,37,39,42,13,8,0.7,0.5
2026-01-01T2100,1073A,116.8588,38.3161,沧州市,市环保局,细颗粒物(PM2.5),53,54,54,37,37,18,,36,29,38,34,6,5,0.6,0.5
2026-01-01T2100,3324A,116.8011,38.294,沧州市,河北水利电力学院,,43,31,50,30,29,30,,44,38,34,44,7,7,0.6,0.5
2026-01-01T2100,2622A,97.1813,31.1289,昌都市,昌都监测站,颗粒物(PM10),52,54,40,18,12,81,,93,93,22,14,2,2,0.8,0.5
2026-01-01T2100,3719A,97.1707,31.1428,昌都市,昌都会议中心,,25,17,17,11,11,78,,76,76,3,6,2,4,0.5,0.5
2026-01-01T2100,2692A,87.2722,44.0298,昌吉回族自治州,新区政务中心,细颗粒物(PM2.5),105,127,88,79,54,8,,40,37,72,49,6,6,1.4,1
2026-01-01T2100,3613A,87.3069,44.0093,昌吉回族自治州,亚心广场,细颗粒物(PM2.5),125,136,89,95,60,27,,56,52,62,27,6,7,1.5,1
2026-01-01T2100,4164A,87.2057,43.9289,昌吉回族自治州,财政所,颗粒物(PM10),63,75,68,37,47,65,,70,70,9,9,5,5,0.4,0.6
2026-01-01T2100,1120A,125.2874,43.9024,长春市,客车厂,细颗粒物(PM2.5),59,,47,42,43,30,,38,33,27,28,8,10,0.5,0.5
2026-01-01T2100,1121A,125.2943,43.8508,长春市,邮电学院,细颗粒物(PM2.5),53,,46,37,35,26,,39,35,24,23,13,13,0.4,0.4
2026-01-01T2100,1122A,125.3648,43.8745,长春市,劳动公园,,46,46,45,31,30,26,,38,34,26,25,12,10,0.8,0.7
2026-01-01T2100,1123A,125.3233,43.8781,长春市,园林处,细颗粒物(PM2.5),58,57,43,41,36,20,,38,31,28,22,13,13,0.3,0.3
2026-01-01T2100,1124A,125.4604,43.7904,长春市,净月潭,,36,36,49,24,32,24,,38,34,18,22,6,7,0.4,0.5
2026-01-01T2100,1126A,125.38,43.8422,长春市,经开区环卫处,,50,50,81,32,53,23,,37,31,30,30,14,13,0.5,0.6
2026-01-01T2100,1127A,125.234,43.7761,长春市,高新区管委会,细颗粒物(PM2.5),87,76,55,64,47,12,,43,37,39,26,10,9,0.7,0.9
2026-01-01T2100,1128A,125.1695,43.83,长春市,岱山公园,细颗粒物(PM2.5),88,,58,65,48,19,,44,33,34,31,9,10,0.7,0.7
2026-01-01T2100,4281A,125.334645,43.916281,长春市,北亚泰大街1068号,"颗粒物(PM10),细颗粒物(PM2.5)",59,67,53,42,39,24,,40,31,27,27,10,10,0.5,0.6
2026-01-01T2100,1335A,113.082,28.2421,长沙市,经开区环保局,细颗粒物(PM2.5),60,49,27,43,22,27,,29,29,16,14,2,3,0.3,0.3
2026-01-01T2100,1336A,112.8873,28.2202,长沙市,高开区环保局,细颗粒物(PM2.5),62,44,30,44,24,34,,33,33,10,11,4,4,0.5,0.6
2026-01-01T2100,1337A,113.0785,28.2012,长沙市,马坡岭,细颗粒物(PM2.5),59,48,28,42,22,28,,31,31,23,19,3,3,0.7,0.7
2026-01-01T2100,1338A,112.9448,28.1894,长沙市,湖南师范大学,细颗粒物(PM2.5),52,43,27,36,21,34,,36,36,16,12,3,2,0.4,0.5
2026-01-01T2100,1339A,113.0177,28.1322,长沙市,雨花区环保局,细颗粒物(PM2.5),59,47,25,42,25,31,,32,32,16,12,6,6,0.4,0.4
2026-01-01T2100,1340A,112.9795,28.2593,长沙市,伍家岭,细颗粒物(PM2.5),52,50,29,36,18,32,,33,33,16,17,4,4,0.3,0.2
2026-01-01T2100,1341A,113.002,28.1944,长沙市,火车新站,细颗粒物(PM2.5),64,48,30,46,25,30,,32,32,10,7,6,7,0.5,0.5
2026-01-01T2100,1342A,112.9846,28.1177,长沙市,天心区环保局,细颗粒物(PM2.5),55,45,27,39,24,32,,34,34,19,18,4,6,0.5,0.4
2026-01-01T2100,1343A,112.8906,28.1307,长沙市,湖南中医药大学,细颗粒物(PM2.5),58,48,29,41,25,32,,33,33,16,14,5,5,0.5,0.5
2026-01-01T2100,1727A,113.1146,36.1547,长治市,清华站,细颗粒物(PM2.5),160,,66,122,70,31,,65,60,36,26,15,14,0.8,0.8
2026-01-01T2100,1730A,113.0887,36.2126,长治市,审计局,细颗粒物(PM2.5),117,,55,88,59,36,,61,58,27,24,8,11,0.8,0.9
2026-01-01T2100,1731A,113.0845,36.1856,长治市,长治八中,细颗粒物(PM2.5),104,88,64,78,65,30,,60,56,28,23,10,12,0.9,0.9
2026-01-01T2100,2845A,113.1561,36.1912,长治市,德盛苑,,,,65,70,68,,,66,66,19,19,6,10,1.0,1
2026-01-01T2100,3568A,113.0603,36.0464,长治市,向阳小学,细颗粒物(PM2.5),163,142,86,124,68,32,,77,73,42,27,14,12,1.0,1
2026-01-01T2100,3569A,112.8788,36.315,长治市,屯留一中,细颗粒物(PM2.5),139,,59,106,58,35,,58,54,33,22,4,7,0.8,0.6
2026-01-01T2100,4189A,113.113092,36.199482,长治市,英华南巷50号,细颗粒物(PM2.5),132,,69,100,69,37,,63,60,24,22,9,9,1.1,1.1
2026-01-01T2100,4190A,113.23666,36.33435,长治市,学府街1号,细颗粒物(PM2.5),108,,62,81,68,35,,67,63,26,21,8,14,1.1,1.2
2026-01-01T2100,1854A,111.696,28.9725,常德市,市二中,细颗粒物(PM2.5),69,,41,50,35,46,,49,49,14,17,4,4,0.5,0.5
2026-01-01T2100,3138A,111.7152,29.0288,常德市,武陵区永安,细颗粒物(PM2.5),62,54,39,44,31,50,,49,49,18,22,3,2,0.6,0.6
2026-01-01T2100,3139A,111.6891,28.9881,常德市,鼎城区玉霞,细颗粒物(PM2.5),72,,36,52,34,50,,49,49,17,19,7,6,0.5,0.5
2026-01-01T2100,3140A,111.6651,29.0526,常德市,武陵区长庚,细颗粒物(PM2.5),67,49,38,48,32,50,,51,51,15,17,3,3,0.5,0.5
2026-01-01T2100,1196A,119.9524,31.7586,常州市,市监测站,,33,33,23,20,13,48,,55,47,20,16,4,4,0.4,0.3
2026-01-01T2100,1200A,119.9351,31.703,常州市,武进监测站,,45,42,23,31,14,43,,55,46,20,14,8,9,0.2,0.1
2026-01-01T2100,3002A,119.9701,31.813,常州市,行政中心,,35,27,22,24,13,44,,54,45,21,13,5,4,0.4,0.3
2026-01-01T2100,3003A,120.0434,31.7726,常州市,经开区,,39,39,25,20,11,46,,53,47,14,8,10,4,0.5,0.4
2026-01-01T2100,3010A,119.8919,31.7892,常州市,钟楼,,40,30,22,28,13,28,,53,41,26,12,6,5,0.4,0.2
2026-01-01T2100,3429A,119.8595,31.706,常州市,武进经发区,,38,38,26,26,14,40,,52,45,18,13,6,6,0.5,0.4
2026-01-01T2100,3430A,119.5812,31.7256,常州市,金坛城区,,35,27,25,24,16,45,,50,42,14,12,6,6,0.5,0.4
2026-01-01T2100,4089A,119.9551,31.863,常州市,崇义南街5-H号,,33,30,17,23,9,39,,55,43,22,9,4,4,0.5,0.4
2026-01-01T2100,2220A,120.4318,41.588,朝阳市,西梁,细颗粒物(PM2.5),273,,75,223,43,4,,54,36,56,31,26,11,2.7,1
2026-01-01T2100,2221A,120.452,41.565,朝阳市,河畔小区,细颗粒物(PM2.5),77,,61,56,42,27,,56,49,27,23,7,9,0.8,0.8
2026-01-01T2100,2222A,120.4176,41.5648,朝阳市,八里堡,细颗粒物(PM2.5),147,166,77,112,46,8,,55,38,,36,17,13,2.1,1.1
2026-01-01T2100,3026A,116.6179,23.6608,潮州市,市政府,,32,32,46,22,29,57,,84,77,7,15,5,10,0.5,0.4
2026-01-01T2100,4036A,116.646,23.676,潮州市,金山,,45,35,40,31,28,52,,86,77,10,12,2,4,0.5,0.4
2026-01-01T2100,2473A,113.0116,25.8228,郴州市,市职中,,,,30,20,28,,,28,17,8,14,2,3,0.4,0.5
2026-01-01T2100,2475A,113.0381,25.8074,郴州市,市审计局,,29,20,33,20,28,14,,30,18,15,12,1,2,/,/
2026-01-01T2100,2476A,113.0348,25.7757,郴州市,市环保局,,28,28,42,16,24,14,,27,17,16,15,2,2,0.5,0.6
2026-01-01T2100,4252A,113.0138,25.8011,郴州市,好美居路49号,,29,,29,20,32,21,,35,22,6,9,3,2,/,/
2026-01-01T2100,1431A,103.9727,30.7242,成都市,金泉两河,细颗粒物(PM2.5),92,74,48,68,29,36,,59,52,36,25,2,2,0.8,0.6
2026-01-01T2100,1432A,104.1423,30.6765,成都市,十里店,,48,46,39,33,26,64,,67,67,23,21,3,3,0.6,0.6
2026-01-01T2100,1433A,104.0594,30.5765,成都市,三瓦窑,细颗粒物(PM2.5),52,40,36,36,28,69,,70,70,21,22,3,3,0.6,0.6
2026-01-01T2100,1434A,104.1122,30.6306,成都市,沙河铺,细颗粒物(PM2.5),55,51,44,39,32,61,,60,60,25,25,3,3,0.6,0.6
2026-01-01T2100,2880A,104.0219,30.6561,成都市,大石西路,"颗粒物(PM10),细颗粒物(PM2.5)",52,53,40,36,29,52,,61,61,16,19,3,4,0.5,0.5
2026-01-01T2100,3136A,104.2724,30.559,成都市,龙泉驿区区政府,,42,34,30,29,26,41,,41,41,18,19,6,6,0.5,0.5
2026-01-01T2100,3357A,104.0028,30.6891,成都市,金博路,细颗粒物(PM2.5),55,48,35,39,27,54,,56,55,28,26,4,4,0.7,0.6
2026-01-01T2100,3359A,104.056,30.5228,成都市,华阳,,39,39,32,27,26,63,,64,64,23,23,3,3,0.5,0.5
2026-01-01T2100,3488A,104.387954,30.746684,成都市,青石路225号,细颗粒物(PM2.5),62,54,40,44,33,50,,59,58,26,22,5,5,0.5,0.5
2026-01-01T2100,3489A,104.0788,30.4054,成都市,科学城,,42,40,30,29,23,69,,62,62,13,17,6,6,0.7,0.7
2026-01-01T2100,4011A,103.8505,30.6946,成都市,光华大道三段,细颗粒物(PM2.5),84,84,44,62,33,40,,66,56,34,21,4,3,0.9,0.7
2026-01-01T2100,4144A,104.3257,30.6406,成都市,八角井街185号,,48,48,44,30,28,68,,64,64,15,22,2,3,0.8,0.9
2026-01-01T2100,4224A,104.2433276,30.53529463,成都市,鲸龙路1057号,,48,39,32,33,28,57,,59,59,25,24,6,6,0.7,0.7
2026-01-01T2100,1062A,117.9531,40.908,承德市,铁路,细颗粒物(PM2.5),54,48,41,38,22,32,,56,51,22,22,4,4,0.5,0.7
2026-01-01T2100,1063A,117.9397,40.9763,承德市,中国银行,,46,46,44,29,20,16,,57,48,28,20,2,2,0.6,0.6
2026-01-01T2100,4073A,117.9462,40.95,承德市,杏林街1号,,45,44,40,31,24,21,,59,52,27,22,5,4,0.7,0.7
2026-01-01T2100,4274A,117.7994,40.9605,承德市,滨河大街98号,,21,21,35,10,16,44,,60,54,7,23,2,2,0.3,0.4
2026-01-01T2100,2314A,117.4698,30.6617,池州市,池州学院,,49,40,30,34,23,44,,44,40,12,17,2,3,0.2,0.3
2026-01-01T2100,3237A,117.4918,30.6617,池州市,展览馆,,40,37,31,28,20,46,,42,41,15,20,1,3,0.5,0.6
2026-01-01T2100,3333A,117.5626,30.695,池州市,第八中学,,45,36,32,31,21,47,,46,44,16,19,2,2,0.4,0.5
2026-01-01T2100,3334A,117.5037,30.6242,池州市,第十二中学,,36,33,30,25,19,49,,45,43,17,21,2,2,0.5,0.5
2026-01-01T2100,1744A,118.9229,42.2816,赤峰市,松山一中,,37,37,30,13,11,27,,56,48,33,16,10,6,0.8,0.6
2026-01-01T2100,1745A,118.9588,42.2733,赤峰市,哈达街,,39,30,36,27,25,36,,61,54,24,14,8,7,0.7,0.5
2026-01-01T2100,1746A,118.8792,42.2551,赤峰市,天义路,,36,25,16,25,10,30,,62,53,36,12,14,7,0.8,0.6
2026-01-01T2100,3058A,119.2656,42.0356,赤峰市,银河街,,35,35,50,17,27,44,,60,53,14,14,18,15,0.8,0.9
2026-01-01T2100,3286A,118.9359,42.3146,赤峰市,桥北物流园区,,18,18,24,8,13,51,,56,52,7,15,5,5,0.4,0.3
2026-01-01T2100,2521A,107.3473,22.4137,崇左市,市环保局江州分局,,28,28,58,15,39,32,,56,41,13,21,6,7,0.8,0.7
2026-01-01T2100,4256A,107.375,22.3736,崇左市,石景林东路7号,,18,14,44,12,38,39,,69,44,13,19,6,8,0.7,0.7
2026-01-01T2100,3207A,118.31131,32.3033,滁州市,市政府原办公楼,,39,38,33,27,22,56,,56,56,13,12,3,3,0.3,0.2
2026-01-01T2100,3331A,118.3268,32.2633,滁州市,图书馆,,38,,25,26,20,53,,53,53,8,7,7,7,0.4,0.3
2026-01-01T2100,4101A,118.3196,32.3335,滁州市,银山路666号,细颗粒物(PM2.5),70,,25,51,37,51,,54,54,7,5,7,7,0.4,0.4
2026-01-01T2100,4102A,118.3426,32.2979,滁州市,黄山路555号,细颗粒物(PM2.5),54,38,34,38,30,61,,59,59,10,8,8,8,0.4,0.3
2026-01-01T2100,2606A,101.5379,25.0492,楚雄彝族自治州,市经济开发区,,36,36,40,23,30,49,,69,66,20,20,6,8,0.7,0.5
2026-01-01T2100,4153A,101.5536,25.0343,楚雄彝族自治州,团结路562号,,32,,34,22,31,59,,70,69,6,12,4,4,0.5,0.4
2026-01-01T2100,2549A,107.5087,31.2186,达州市,市环境监测站,细颗粒物(PM2.5),55,49,21,39,12,6,,45,33,45,25,8,11,0.7,0.5
2026-01-01T2100,2550A,107.4988,31.2132,达州市,凤凰小区,细颗粒物(PM2.5),52,51,19,36,13,16,,51,35,42,19,7,10,0.6,0.5
2026-01-01T2100,2551A,107.5081,31.1987,达州市,达县机关宾馆,细颗粒物(PM2.5),65,63,26,47,17,6,,40,25,46,29,6,7,0.9,0.7
2026-01-01T2100,2552A,107.4644,31.2124,达州市,市政中心,颗粒物(PM10),52,54,30,29,13,29,,46,33,30,19,10,10,0.5,0.4
2026-01-01T2100,2614A,100.2168,25.5818,大理白族自治州,大理市环境监测站,,39,,20,27,21,69,,69,69,7,9,6,6,0.5,0.6
2026-01-01T2100,2615A,100.1542,25.7055,大理白族自治州,大理古城,,36,32,35,25,24,74,,81,79,12,16,8,8,0.6,0.5
2026-01-01T2100,1109A,121.6119,38.974,大连市,甘井子,,32,32,30,15,19,47,,60,56,13,20,9,10,0.2,0.6
2026-01-01T2100,1110A,121.565,38.9509,大连市,周水子,,28,28,29,12,18,50,,57,56,12,22,1,3,0.4,0.5
2026-01-01T2100,1111A,121.5637,38.8849,大连市,星海三站,,25,25,24,15,17,49,,57,55,12,17,6,6,0.5,0.6
2026-01-01T2100,1112A,121.6301,38.9117,大连市,青泥洼桥,,30,30,30,13,16,42,,50,48,12,18,8,9,0.3,0.5
2026-01-01T2100,1113A,121.6248,38.8643,大连市,傅家庄,,23,23,25,12,16,41,,48,47,12,14,6,10,0.2,0.3
2026-01-01T2100,1114A,121.5117,38.8636,大连市,七贤岭,,26,26,26,12,13,49,,53,52,5,12,5,8,0.6,0.6
2026-01-01T2100,1116A,121.7507,39.1339,大连市,金州,,31,31,26,17,16,47,,59,56,11,14,6,9,0.4,0.4
2026-01-01T2100,1117A,121.7811,39.0495,大连市,开发区,,30,25,26,21,20,43,,52,50,9,19,6,7,0.5,0.5
2026-01-01T2100,1118A,121.9762,39.0631,大连市,双D港,,37,37,28,20,15,49,,58,55,10,10,9,9,0.4,0.5
2026-01-01T2100,4082A,121.2548,38.8188,大连市,旅顺,,34,34,34,10,19,56,,57,57,3,8,4,6,0.5,0.6
2026-01-01T2100,1789A,124.8085,46.0381,大庆市,大同区,,43,43,33,28,24,30,,49,46,22,11,5,5,0.3,0.2
2026-01-01T2100,1790A,125.1166,46.5255,大庆市,龙凤区,,45,45,32,24,23,27,,45,42,39,23,11,8,0.6,0.6
2026-01-01T2100,1791A,124.8894,46.4007,大庆市,红岗区,,33,30,27,23,20,34,,44,42,25,14,4,6,0.5,0.6
2026-01-01T2100,1792A,125.1391,46.578,大庆市,萨尔图区,,31,31,30,21,18,40,,40,40,14,14,6,7,0.4,0.4
2026-01-01T2100,1793A,124.9026,46.6217,大庆市,让胡路区,,43,39,31,30,27,51,,52,52,12,9,11,9,0.5,0.4
2026-01-01T2100,3481A,125.127,46.6277,大庆市,萨区政府监测点,,25,24,35,17,19,38,,48,47,22,16,9,9,0.8,0.6
2026-01-01T2100,1723A,113.2926,40.0759,大同市,云冈宾馆,细颗粒物(PM2.5),129,160,97,98,58,8,,42,34,67,44,17,18,1.7,1.7
2026-01-01T2100,1724A,113.3437,40.0921,大同市,大同大学,颗粒物(PM10),99,148,75,70,50,12,,48,36,58,38,19,22,1.0,1.1
2026-01-01T2100,1725A,113.2637,40.129,大同市,安家小村,,50,50,84,30,40,22,,47,42,48,38,15,20,1.3,2.1
2026-01-01T2100,3282A,113.3399,40.0586,大同市,大同市卫生学校,细颗粒物(PM2.5),145,188,116,111,56,6,,43,34,69,46,19,25,1.3,1.3
2026-01-01T2100,3565A,113.1371,40.1122,大同市,云冈站,颗粒物(PM10),70,89,71,38,33,4,,50,37,49,32,17,18,0.9,0.9
2026-01-01T2100,3566A,113.1186,40.2556,大同市,图书馆,,45,45,54,22,37,25,,46,42,21,19,7,10,0.7,1.1
2026-01-01T2100,3567A,113.5931,40.0459,大同市,区一中,细颗粒物(PM2.5),112,124,103,84,56,22,,52,46,49,37,41,27,1.5,1.4
2026-01-01T2100,4199A,113.2798248,40.09972476,大同市,魏都大道141号,颗粒物(PM10),102,154,118,61,62,11,,41,32,59,42,12,17,1.2,1.8
2026-01-01T2100,2269A,124.1068,50.4091,大兴安岭地区,科技局,,23,17,25,16,17,53,,50,50,2,2,4,5,0.3,0.3
2026-01-01T2100,3663A,124.117,50.4279,大兴安岭地区,红旗社区,,20,7,8,7,7,61,,60,60,4,3,5,6,0.2,0.2
2026-01-01T2100,1600A,124.33,40.0625,丹东市,江湾东路,,31,31,30,20,22,44,,49,48,12,15,8,9,0.5,0.6
2026-01-01T2100,1601A,124.4242,40.1513,丹东市,临江后街,,25,25,32,14,18,48,,52,51,8,16,6,8,0.6,0.8
2026-01-01T2100,1602A,124.3935,40.1461,丹东市,元宝山,,20,20,26,14,16,44,,53,52,12,14,7,10,0.5,0.7
2026-01-01T2100,1603A,124.3634,40.1093,丹东市,民主桥,,30,30,33,19,18,46,,52,50,10,14,7,8,0.4,0.5
2026-01-01T2100,3541A,109.5726195,19.51688767,儋州市,第一中学子站,,36,36,29,17,18,75,,77,77,3,7,3,3,0.4,0.5
2026-01-01T2100,3542A,109.5567,19.5187,儋州市,东坡学校子站,,38,38,30,16,17,84,,85,85,3,5,5,5,0.3,0.4
2026-01-01T2100,2616A,98.5611,24.4273,德宏傣族景颇族自治州,德宏州监测站,细颗粒物(PM2.5),100,104,55,75,44,27,,74,68,37,21,6,6,1.1,0.7
2026-01-01T2100,3677A,98.5887,24.4366,德宏傣族景颇族自治州,芒市人民政府综合楼,颗粒物(PM10),57,63,56,28,36,41,,70,68,19,23,9,9,0.9,0.7
2026-01-01T2100,1901A,104.424,31.1209,德阳市,东山公园,细颗粒物(PM2.5),85,64,36,63,33,36,,67,56,28,16,2,2,0.9,0.7
2026-01-01T2100,1902A,104.3827,31.1318,德阳市,西小区,细颗粒物(PM2.5),83,83,39,61,35,43,,66,59,24,18,2,2,1.0,0.8
2026-01-01T2100,1904A,104.3553,31.1091,德阳市,耐火材料厂,细颗粒物(PM2.5),93,83,44,69,36,33,,63,54,33,21,1,1,0.9,0.8
2026-01-01T2100,4145A,104.4144,31.1495,德阳市,市林业局,细颗粒物(PM2.5),93,73,45,69,38,26,,63,51,34,19,2,2,0.8,0.6
2026-01-01T2100,1622A,116.3034,37.4675,德州市,儿童乐园,,48,48,51,31,29,33,,51,47,42,37,13,14,1.0,1
2026-01-01T2100,1624A,116.2992,37.4449,德州市,监理站,,46,46,49,24,29,47,,61,58,39,35,15,17,0.7,0.7
2026-01-01T2100,3066A,116.2722,37.438,德州市,九衢泉纯净水厂,,46,46,68,29,45,38,,50,47,33,44,13,13,0.5,0.6
2026-01-01T2100,3371A,116.3693,37.44,德州市,开发区人民医院,颗粒物(PM10),59,68,54,39,33,35,,54,51,52,45,15,17,0.8,0.8
2026-01-01T2100,3511A,116.5687,37.3331,德州市,陵城艺术中心,细颗粒物(PM2.5),107,114,54,80,32,16,,48,34,50,39,27,25,1.0,0.6
2026-01-01T2100,4292A,116.352738,37.420875,德州市,新河东路,细颗粒物(PM2.5),58,58,59,41,41,39,,52,51,44,49,14,16,1.0,0.9
2026-01-01T2100,2621A,99.7054,27.8319,迪庆藏族自治州,迪庆州站,颗粒物(PM10),54,58,41,28,26,72,,93,91,26,13,6,6,0.9,0.5
2026-01-01T2100,3180A,99.7122,27.8129,迪庆藏族自治州,质量技术监督局,,32,,41,22,30,88,,99,98,13,18,6,6,0.4,0.6
2026-01-01T2100,4257A,104.6092,35.5962,定西市,将台街,细颗粒物(PM2.5),73,54,67,53,50,74,,73,73,16,17,8,8,0.4,0.5
2026-01-01T2100,4309A,104.6159,35.5701,定西市,正龙路62号,细颗粒物(PM2.5),70,53,76,51,60,76,,69,69,7,10,4,5,0.5,0.7
2026-01-01T2100,1390A,113.7943,23.0132,东莞市,东城石井,,39,38,61,27,41,65,,91,82,16,34,8,9,0.8,0.8
2026-01-01T2100,1391A,113.7384,22.9659,东莞市,南城西平,,41,41,72,25,45,59,,91,82,23,50,8,9,0.8,0.8
2026-01-01T2100,3319A,113.7283,23.041,东莞市,万江金泰,,35,35,84,24,58,65,,86,79,10,31,5,8,0.8,0.9
2026-01-01T2100,4129A,113.8666,23.1062,东莞市,裕兴路,,42,42,87,26,55,74,,99,92,13,28,3,6,0.8,0.8
2026-01-01T2100,4130A,114.0076,22.9739,东莞市,教育路1号,,45,45,83,21,49,66,,88,81,17,31,5,6,0.9,0.9
2026-01-01T2100,4131A,113.7981,22.8124,东莞市,长怡路1号,颗粒物(PM10),52,54,72,33,40,59,,92,81,15,31,7,8,0.8,0.7
2026-01-01T2100,1666A,118.6612,37.4313,东营市,市环保局,,18,12,29,3,15,57,,53,53,18,31,6,10,0.5,0.8
2026-01-01T2100,3036A,118.6903,37.4337,东营市,开发区管委会,,22,22,34,7,14,64,,59,59,8,25,8,12,0.6,0.8
2026-01-01T2100,3365A,118.5721,37.5654,东营市,垦利区民丰路,,14,12,30,3,15,44,,53,52,21,27,1,6,0.7,0.9
2026-01-01T2100,3498A,118.5063,37.8606,东营市,河口城区,,22,22,30,7,12,56,,58,58,17,32,3,4,0.5,0.7
2026-01-01T2100,3646A,118.4979,37.4623,东营市,胜利站,,17,14,38,3,19,52,,49,49,15,32,10,14,0.5,0.8
2026-01-01T2100,3734A,118.5753,37.4405,东营市,理想之城,,17,17,32,3,19,51,,48,48,11,28,4,8,0.5,0.8
2026-01-01T2100,1591A,110.0024,39.8127,鄂尔多斯市,综合楼,,46,46,34,27,28,44,,68,59,30,21,11,11,0.6,0.6
2026-01-01T2100,1592A,109.9485,39.8259,鄂尔多斯市,巴音孟克林场办事处,,44,44,43,29,27,51,,69,65,20,23,11,14,0.4,0.5
2026-01-01T2100,1593A,109.7734,39.5987,鄂尔多斯市,康泽苑,细颗粒物(PM2.5),73,61,20,53,14,41,,77,68,27,17,7,4,0.4,0.4
2026-01-01T2100,1594A,109.8121,39.5987,鄂尔多斯市,华泰汽车城,,24,24,28,12,14,28,,69,63,43,26,2,2,0.5,0.4
2026-01-01T2100,1595A,109.9734,39.7884,鄂尔多斯市,奥林花园,,36,36,52,17,17,48,,67,63,28,33,4,7,0.5,0.7
2026-01-01T2100,2436A,114.894,30.3989,鄂州市,市政府,,47,47,21,21,8,44,,37,37,17,16,4,4,0.5,0.5
2026-01-01T2100,2437A,114.8986,30.3714,鄂州市,赵家坝,,32,31,18,22,12,45,,37,37,8,8,6,6,0.2,0.4
2026-01-01T2100,3654A,114.8093,30.4091,鄂州市,精准医疗中心,,40,,20,28,13,53,,48,48,1,3,4,5,1.0,0.7
2026-01-01T2100,2454A,109.4978,30.2979,恩施土家族苗族自治州,湖北民院,细颗粒物(PM2.5),59,,25,42,24,26,,52,45,16,11,6,6,0.7,0.6
2026-01-01T2100,3549A,109.5061,30.3771,恩施土家族苗族自治州,龙凤新区,细颗粒物(PM2.5),57,44,24,40,21,15,,48,38,9,7,6,6,0.6,0.5
2026-01-01T2100,2499A,108.3411,21.6159,防城港市,沙万,颗粒物(PM10),108,166,77,19,43,42,,89,56,12,22,5,8,0.7,0.8
2026-01-01T2100,2500A,108.3515,21.7733,防城港市,防城档案局,,42,42,74,14,42,36,,57,42,10,21,4,6,0.8,0.8
2026-01-01T2100,2501A,108.3506,21.6414,防城港市,大海花园,,43,,68,30,55,45,,98,59,7,14,5,9,0.9,0.8
2026-01-01T2100,1371A,113.1293,23.0065,佛山市,湾梁,"颗粒物(PM10),细颗粒物(PM2.5)",53,56,118,37,79,48,,72,68,19,59,/,/,/,/
2026-01-01T2100,1372A,113.1082,23.0477,佛山市,华材职中,细颗粒物(PM2.5),58,61,93,41,56,44,,72,66,20,50,7,8,0.7,0.9
2026-01-01T2100,1373A,113.1439,23.045,佛山市,南海气象局,细颗粒物(PM2.5),57,57,89,40,53,46,,70,65,19,51,/,/,/,/
2026-01-01T2100,1374A,113.2879,22.8094,佛山市,顺德苏岗,细颗粒物(PM2.5),77,70,84,56,57,47,,84,77,23,52,/,/,0.9,0.9
2026-01-01T2100,1376A,112.8384,22.8678,佛山市,高明孔堂,,50,46,71,35,48,42,,72,68,20,38,/,/,/,/
2026-01-01T2100,1377A,112.8835,23.1584,佛山市,三水监测站,,44,44,100,25,55,39,,56,48,16,48,5,9,0.7,1
2026-01-01T2100,1378A,112.8668,23.185,佛山市,三水云东海,,29,29,83,19,54,36,,59,52,21,41,/,/,/,/
2026-01-01T2100,3625A,113.2568,22.7629,佛山市,容桂街道办,细颗粒物(PM2.5),85,90,90,63,61,68,,86,85,21,48,/,/,/,/
2026-01-01T2100,1282A,119.2681,26.0506,福州市,师大,,38,34,31,26,16,46,,77,54,24,19,7,8,0.7,0.5
2026-01-01T2100,1283A,119.2983,26.1028,福州市,五四北路,,36,33,32,25,15,47,,78,53,19,16,5,5,0.7,0.6
2026-01-01T2100,1284A,119.2648,26.0769,福州市,杨桥西路,,35,30,30,24,14,48,,77,55,16,13,5,5,/,/
2026-01-01T2100,3048A,119.5799,26.0937,福州市,九龙,,26,26,26,9,8,62,,77,62,13,14,5,5,0.3,0.4
2026-01-01T2100,3526A,119.5188,25.9666,福州市,吴航,,23,23,24,13,13,63,,77,62,12,13,4,5,0.5,0.5
2026-01-01T2100,4104A,119.3106,26.0648,福州市,路通桥巷6号,,42,37,31,29,19,47,,76,52,14,11,/,/,/,/
2026-01-01T2100,1755A,123.7974,41.8494,抚顺市,望花区,细颗粒物(PM2.5),82,61,63,60,41,24,,50,45,34,27,5,5,1.0,0.9
2026-01-01T2100,1756A,123.9161,41.8827,抚顺市,顺城区,细颗粒物(PM2.5),94,90,51,70,33,9,,49,40,54,28,10,9,1.2,0.8
2026-01-01T2100,1757A,124.0437,41.8615,抚顺市,东洲区,,49,41,40,34,31,40,,44,44,11,22,6,7,0.6,0.7
2026-01-01T2100,1758A,123.9246,41.8638,抚顺市,新抚区,细颗粒物(PM2.5),62,67,54,44,36,12,,47,40,38,27,6,9,0.8,0.8
2026-01-01T2100,1759A,124.0972,41.8961,抚顺市,大伙房水库,,49,40,41,34,27,42,,50,49,14,20,10,13,0.7,0.7
2026-01-01T2100,1760A,123.708,41.8386,抚顺市,沈抚新城,细颗粒物(PM2.5),123,93,62,93,52,12,,45,35,53,30,12,9,1.7,1.2
2026-01-01T2100,2377A,116.3544,27.9833,抚州市,市站,,32,31,33,22,18,43,,42,38,12,14,6,7,0.5,0.5
2026-01-01T2100,2378A,116.3562,27.9631,抚州市,血防站,,36,36,35,21,18,43,,43,40,14,15,3,5,0.4,0.8
2026-01-01T2100,2379A,116.3561,28.0007,抚州市,采茶剧团,,33,27,33,23,21,42,,50,38,7,8,3,6,0.5,0.5
2026-01-01T2100,2380A,116.3854,27.9648,抚州市,医学分院,,37,37,37,19,16,46,,46,43,11,12,4,4,0.4,0.5
2026-01-01T2100,2207A,121.6095,41.9978,阜新市,工业园区,颗粒物(PM10),138,225,72,94,32,7,,53,38,50,20,28,13,1.4,0.6
2026-01-01T2100,2208A,121.6567,42.0188,阜新市,长青街,细颗粒物(PM2.5),115,99,52,87,37,22,,52,45,31,18,11,9,0.8,1.1
2026-01-01T2100,2209A,121.6672,42.07,阜新市,农业园区,,24,24,21,9,8,46,,49,48,7,8,5,6,0.3,0.3
2026-01-01T2100,2211A,121.6343,42.0455,阜新市,玉龙新城,细颗粒物(PM2.5),108,140,57,81,26,9,,49,31,47,27,12,6,1.4,0.8
2026-01-01T2100,2301A,115.8276,32.8929,阜阳市,市监测站,细颗粒物(PM2.5),79,69,49,58,37,47,,49,48,21,19,4,4,0.5,0.4
2026-01-01T2100,2303A,115.8551,32.8606,阜阳市,开发区,,,62,26,47,32,,,51,50,18,14,4,4,0.4,0.3
2026-01-01T2100,2875A,115.783962,32.889217,阜阳市,阜阳职业技术学院,细颗粒物(PM2.5),63,59,40,45,30,52,,58,56,16,12,4,5,0.5,0.4
2026-01-01T2100,3468A,115.79,32.8614,阜阳市,市规划展馆,细颗粒物(PM2.5),75,59,42,55,33,49,,55,53,16,16,5,4,0.5,0.5
2026-01-01T2100,3469A,115.835101,32.918568,阜阳市,枣园社区,细颗粒物(PM2.5),85,,45,63,36,42,,54,50,24,15,3,3,0.3,0.5
2026-01-01T2100,2669A,102.9097,34.9841,甘南藏族自治州,州政府,细颗粒物(PM2.5),87,84,71,64,53,48,,74,70,18,21,3,4,0.7,0.8
2026-01-01T2100,3380A,102.8915,34.9618,甘南藏族自治州,甘肃民族师范学院,细颗粒物(PM2.5),82,89,85,60,53,52,,78,75,26,28,4,5,0.7,1
2026-01-01T2100,2570A,101.96,30.048,甘孜藏族自治州,水桥子,,18,9,8,3,5,56,,64,63,12,13,6,6,1.0,0.9
2026-01-01T2100,3065A,101.9534,29.9976,甘孜藏族自治州,州环保局,,18,14,18,7,6,56,,63,62,11,12,5,6,0.8,0.7
2026-01-01T2100,2363A,114.9368,25.8663,赣州市,地委,,,,92,17,44,59,,66,44,11,17,6,6,0.5,0.7
2026-01-01T2100,2364A,114.946,25.8483,赣州市,气象台,,36,36,69,15,37,65,,73,48,10,21,1,2,0.6,0.8
2026-01-01T2100,2365A,114.932,25.8332,赣州市,市图书馆,,23,,58,16,40,55,,66,42,14,18,4,4,0.5,0.8
2026-01-01T2100,2366A,114.8905,25.8472,赣州市,华坚鞋城,,,,60,,40,,,67,42,13,16,4,5,0.3,0.4
2026-01-01T2100,3109A,115.0094,25.8614,赣州市,赣县区卫计委,,29,,48,20,44,58,,53,47,8,25,7,7,0.4,0.5
2026-01-01T2100,2684A,106.2753,36.0057,固原市,监测站,细颗粒物(PM2.5),70,,43,51,42,53,,66,65,26,16,3,3,0.7,0.5
2026-01-01T2100,2685A,106.2384,36.0189,固原市,新区,细颗粒物(PM2.5),89,,40,66,46,18,,60,53,53,19,2,2,0.9,0.6
2026-01-01T2100,2544A,106.6307,30.4577,广安市,市委,,49,35,22,34,19,34,,43,38,18,14,6,6,1.0,0.9
2026-01-01T2100,2545A,106.6266,30.4662,广安市,友谊中学,颗粒物(PM10),88,126,22,46,19,40,,56,44,8,11,7,5,0.6,0.8
2026-01-01T2100,2547A,106.6386,30.4551,广安市,广电花园,,39,27,19,27,16,35,,44,35,15,14,8,8,0.8,0.7
2026-01-01T2100,2902A,106.6347,30.4868,广安市,北辰小学,,39,33,19,27,18,40,,49,43,11,8,9,9,1.0,0.9
2026-01-01T2100,2524A,105.8211,32.4444,广元市,老城,颗粒物(PM10),51,52,26,32,20,82,,84,84,16,20,6,5,0.6,0.6
2026-01-01T2100,2526A,105.8629,32.429,广元市,监测站,,42,40,29,29,18,74,,79,79,14,16,4,4,0.7,0.7
2026-01-01T2100,3617A,105.8047,32.4167,广元市,经开区,细颗粒物(PM2.5),53,38,24,37,20,71,,72,72,20,21,1,1,0.7,0.7
2026-01-01T2100,1345A,113.2346,23.1423,广州市,广雅中学,细颗粒物(PM2.5),64,64,84,46,51,39,,60,55,15,42,5,5,0.8,1
2026-01-01T2100,1346A,113.2611,23.105,广州市,市五中,细颗粒物(PM2.5),54,47,81,38,54,56,,79,74,20,59,7,10,/,/
2026-01-01T2100,1348A,113.3477,23.0916,广州市,广东商学院,颗粒物(PM10),51,52,83,34,56,50,,78,71,15,48,6,9,0.6,0.8
2026-01-01T2100,1349A,113.4332,23.105,广州市,市八十六中,,50,39,71,35,53,61,,83,78,12,46,7,10,/,/
2026-01-01T2100,1350A,113.3506,22.9488,广州市,番禺中学,细颗粒物(PM2.5),73,77,98,53,62,53,,92,83,24,52,6,9,0.7,0.9
2026-01-01T2100,1351A,113.2147,23.3918,广州市,花都师范,,43,43,76,28,45,40,,61,55,17,44,6,8,0.7,0.8
2026-01-01T2100,1352A,113.2599,23.1329,广州市,市监测站,,,53,97,35,68,,,67,65,16,48,3,4,/,/
2026-01-01T2100,1353A,113.5618,23.3119,广州市,九龙镇镇龙,,36,31,71,25,49,58,,72,71,14,30,5,7,0.7,0.8
2026-01-01T2100,1354A,113.2764,23.1544,广州市,麓湖,,50,48,72,35,50,53,,70,67,12,43,7,9,0.4,0.5
2026-01-01T2100,2846A,113.3209,23.1323,广州市,体育西,细颗粒物(PM2.5),62,54,80,44,53,50,,77,71,19,47,5,9,0.7,0.8
2026-01-01T2100,3298A,113.5718,23.5493,广州市,从化街口,,26,24,79,18,62,60,,69,65,12,29,8,12,0.6,0.9
2026-01-01T2100,3299A,113.3463,23.369,广州市,白云竹料,,32,29,82,22,56,55,,78,74,12,36,5,6,0.5,0.9
2026-01-01T2100,3300A,113.2981,23.2365,广州市,白云嘉禾,,42,41,74,29,46,52,,72,69,17,43,5,7,/,/
2026-01-01T2100,3301A,113.4256,23.1716,广州市,黄埔科学城,,38,35,72,26,50,65,,87,82,12,33,4,6,0.7,0.8
2026-01-01T2100,3302A,113.3942,23.0485,广州市,番禺大学城,颗粒物(PM10),58,65,110,36,55,59,,91,82,12,41,7,14,0.6,0.7
2026-01-01T2100,3303A,113.4923,22.8169,广州市,南沙黄阁,颗粒物(PM10),60,69,77,41,47,59,,90,81,24,44,9,8,/,/
2026-01-01T2100,3304A,113.534,22.7893,广州市,南沙街,颗粒物(PM10),58,66,79,39,46,62,,98,84,20,36,7,7,0.8,0.7
2026-01-01T2100,3443A,113.2905,23.5541,广州市,花都梯面,,35,33,54,24,39,42,,57,54,14,24,6,7,/,/
2026-01-01T2100,3445A,113.786,23.7479,广州市,从化良口,,26,23,39,18,31,54,,75,69,12,16,8,9,/,/
2026-01-01T2100,3446A,113.805,23.2614,广州市,增城荔城,,26,26,54,18,42,68,,79,76,12,18,4,7,0.5,0.6
2026-01-01T2100,2506A,109.604387,23.066791,贵港市,江南子站,,18,17,69,12,50,38,,49,41,18,21,3,7,0.8,0.9
2026-01-01T2100,2508A,109.5669,23.1065,贵港市,荷城子站,,17,17,59,7,45,43,,50,40,14,18,3,7,0.8,1.1
2026-01-01T2100,3405A,109.5886,23.1172,贵港市,新世纪学校,,22,22,68,15,49,42,,48,40,15,21,/,/,0.7,0.8
2026-01-01T2100,4260A,109.5933,23.095,贵港市,中山路155-3号,,29,,60,20,51,45,,51,44,16,22,/,/,0.8,0.9
2026-01-01T2100,1439A,106.6863,26.6035,贵阳市,马鞍山,,22,14,11,9,10,68,,63,63,10,9,6,5,/,/
2026-01-01T2100,1441A,106.6241,26.6266,贵阳市,鉴湖路,,23,19,26,9,12,73,,60,60,16,16,2,3,0.6,0.7
2026-01-01T2100,1442A,106.7468,26.6344,贵阳市,燕子冲,,23,12,15,12,15,72,,69,69,9,9,7,6,0.7,0.8
2026-01-01T2100,1443A,106.6556,26.4362,贵阳市,碧云窝,,36,36,26,19,12,53,,51,49,17,12,7,5,/,/
2026-01-01T2100,1445A,106.6963,26.6063,贵阳市,红边门,,20,,15,14,11,60,,54,54,11,11,6,5,/,/
2026-01-01T2100,1446A,106.7162383,26.56964667,贵阳市,新华路,,19,17,20,12,10,59,,56,56,13,11,3,4,0.5,0.6
2026-01-01T2100,1447A,106.6742,26.542,贵阳市,太慈桥,,22,19,15,12,10,68,,63,63,14,13,5,4,/,/
2026-01-01T2100,4230A,106.688212,26.56952,贵阳市,花果园大街66号,,18,,6,12,15,54,,52,52,12,12,2,2,/,/
2026-01-01T2100,4231A,106.687268,26.516892,贵阳市,漓江路57号,,19,14,18,12,12,60,,55,55,14,15,6,6,0.8,0.9
2026-01-01T2100,1864A,110.3091,25.2705,桂林市,龙隐路小学,,25,,32,17,27,40,,49,48,12,12,6,6,0.5,0.7
2026-01-01T2100,1865A,110.2849361,25.22909545,桂林市,八中,,30,,32,21,30,35,,48,43,14,16,6,6,0.5,0.7
2026-01-01T2100,3531A,110.296,25.1254,桂林市,旅游学院,,18,9,29,7,29,56,,64,63,8,12,3,3,0.5,0.7
2026-01-01T2100,4222A,110.1835,25.2444,桂林市,环湖路276号,,32,,34,22,32,36,,42,40,12,13,5,5,0.5,0.6
2026-01-01T2100,4301A,110.2803,25.2773,桂林市,信义路13号,,23,,30,16,29,39,,49,45,14,14,4,4,0.5,0.7
2026-01-01T2100,2674A,100.2262,34.4854,果洛藏族自治州,玛沁县大武镇,细颗粒物(PM2.5),52,39,34,36,16,69,,90,90,8,6,12,15,0.5,0.4
2026-01-01T2100,1130A,126.5557,45.8109,哈尔滨市,松北商大,,46,43,40,32,26,15,,38,30,36,22,7,11,0.6,0.5
2026-01-01T2100,1132A,126.6162,45.719,哈尔滨市,南岗学府路,,45,42,35,31,23,24,,37,35,24,22,9,23,0.7,0.6
2026-01-01T2100,1133A,126.6894,45.7733,哈尔滨市,太平宏伟公园,,47,47,38,29,24,36,,44,40,20,19,17,31,0.6,0.7
2026-01-01T2100,1134A,126.6361,45.7672,哈尔滨市,道外承德广场,细颗粒物(PM2.5),53,48,49,37,26,31,,38,34,25,23,11,16,0.5,0.4
2026-01-01T2100,1136A,126.644,45.7261,哈尔滨市,动力和平路,,46,39,38,32,26,21,,39,35,30,19,18,16,0.6,0.6
2026-01-01T2100,1137A,126.5933,45.7479,哈尔滨市,道里建国路,,49,,35,34,30,28,,36,34,20,20,6,12,0.6,0.3
2026-01-01T2100,1138A,126.6127,45.6119,哈尔滨市,平房东轻厂,细颗粒物(PM2.5),55,42,43,39,36,18,,27,19,49,31,24,8,0.5,0.6
2026-01-01T2100,1139A,126.5875,45.9827,哈尔滨市,呼兰师专,细颗粒物(PM2.5),100,78,40,75,36,9,,37,26,44,20,8,5,1.1,0.8
2026-01-01T2100,1140A,126.6299,45.6799,哈尔滨市,省农科院,细颗粒物(PM2.5),79,77,40,58,31,13,,40,29,42,27,14,12,1.1,0.7
2026-01-01T2100,4282A,126.6769,45.7379,哈尔滨市,华山路1号,,39,31,33,27,25,31,,36,34,24,21,30,26,0.5,0.5
2026-01-01T2100,4283A,126.9717,45.5356,哈尔滨市,解放大街52号,细颗粒物(PM2.5),58,47,53,41,49,25,,36,32,26,26,10,10,0.9,0.9
2026-01-01T2100,2688A,93.5124,42.8176,哈密市,地区监测站,,48,34,61,33,44,38,,54,51,23,25,4,4,0.2,0.4
2026-01-01T2100,2689A,93.5014,42.8312,哈密市,哈密师范学校,颗粒物(PM10),62,74,76,21,36,35,,54,52,29,33,3,3,0.4,0.5
2026-01-01T2100,2671A,100.9016,36.9464,海北藏族自治州,海晏县西海镇,细颗粒物(PM2.5),83,69,47,61,38,68,,87,86,22,12,19,12,1.1,0.7
2026-01-01T2100,3867A,102.074,36.5056,海东市,平安区公安局北苑,细颗粒物(PM2.5),97,82,75,72,63,47,,63,62,26,14,40,23,1.0,0.9
2026-01-01T2100,4163A,102.0984,36.5119,海东市,滨河路,细颗粒物(PM2.5),83,73,67,61,60,39,,65,62,46,26,34,20,1.0,0.9
2026-01-01T2100,1410A,110.3189,20.0596,海口市,海南大学,,40,40,32,19,15,116,,104,104,9,8,6,6,0.3,0.3
2026-01-01T2100,1411A,110.2827,20.0051,海口市,秀英海南医院,,38,38,37,18,13,105,,98,98,9,8,8,7,0.3,0.3
2026-01-01T2100,1412A,110.3391,19.9979,海口市,海南师范大学,,36,36,38,21,15,112,,108,108,10,8,6,6,0.4,0.4
2026-01-01T2100,1413A,110.3303,20.0359,海口市,龙华路环保局宿舍,,39,39,38,19,16,117,,109,109,10,9,/,/,0.6,0.6
2026-01-01T2100,3539A,110.5111,19.9737,海口市,桂林洋子站,,40,40,30,20,14,104,,102,102,7,7,/,/,/,/
2026-01-01T2100,4134A,110.1952,20.0451,海口市,长滨二路9号,,38,38,29,19,15,113,,104,104,7,5,/,/,/,/
2026-01-01T2100,2673A,100.6158,36.2985,海南藏族自治州,共和县恰卜恰镇,颗粒物(PM10),55,60,39,18,20,35,,91,80,32,22,13,12,0.5,0.5
2026-01-01T2100,2676A,97.373,37.376,海西蒙古族藏族自治州,德令哈市,,30,27,27,21,9,70,,87,87,14,6,14,12,0.6,0.5
2026-01-01T2100,1049A,114.492,36.5712,邯郸市,矿院,细颗粒物(PM2.5),107,91,48,80,44,24,,60,52,50,32,6,7,0.8,0.5
2026-01-01T2100,1050A,114.4839,36.6136,邯郸市,丛台公园,细颗粒物(PM2.5),83,72,40,61,34,45,,65,61,33,25,5,5,0.7,0.5
2026-01-01T2100,3458A,114.7893,36.5592,邯郸市,香泉濮院小区,细颗粒物(PM2.5),84,90,44,62,39,34,,69,61,43,26,8,6,0.8,0.6
2026-01-01T2100,3580A,114.1998,36.4439,邯郸市,峰峰矿区临水派出所,细颗粒物(PM2.5),94,,39,70,43,51,,66,63,21,21,4,7,0.6,0.7
2026-01-01T2100,4068A,114.5209,36.7697,邯郸市,建安街268号,细颗粒物(PM2.5),124,190,71,94,38,6,,42,30,63,48,10,9,1.0,0.7
2026-01-01T2100,4069A,114.5488,36.6177,邯郸市,丛台东路558号,细颗粒物(PM2.5),75,55,73,55,32,12,,63,51,66,43,7,8,0.5,0.4
2026-01-01T2100,2635A,107.0155,33.0707,汉中市,市监测站,细颗粒物(PM2.5),62,,19,44,19,53,,70,67,20,13,5,4,0.6,0.4
2026-01-01T2100,2636A,107.0083,33.114,汉中市,鑫源开发区,细颗粒物(PM2.5),54,48,17,38,19,57,,74,69,15,14,4,4,0.7,0.5
2026-01-01T2100,2637A,107.0072,33.0323,汉中市,南郑大河坎水厂,细颗粒物(PM2.5),98,89,26,73,22,20,,68,55,34,16,6,5,1.1,0.6
2026-01-01T2100,1223A,120.2073,30.2111,杭州市,滨江,,35,31,28,24,16,40,,49,37,17,18,8,8,0.2,0.2
2026-01-01T2100,1224A,120.0625,30.2737,杭州市,西溪,,25,20,30,17,13,43,,52,40,17,22,8,8,0.5,0.5
2026-01-01T2100,1226A,120.3417,30.315,杭州市,下沙,,30,30,29,18,13,36,,46,36,18,18,6,6,1.0,0.8
2026-01-01T2100,1227A,120.1252,30.2465,杭州市,卧龙桥,,28,24,27,19,13,42,,51,40,12,14,8,8,0.5,0.5
2026-01-01T2100,1228A,120.1902,30.2691,杭州市,浙江农大,,38,31,29,26,15,39,,52,39,24,21,2,2,0.2,0.2
2026-01-01T2100,1230A,120.1195,30.3121,杭州市,和睦小学,,28,28,30,18,18,44,,60,41,11,15,4,4,0.5,0.4
2026-01-01T2100,1231A,120.3076,30.4146,杭州市,临平镇,,32,32,28,21,15,38,,51,39,15,12,6,6,0.4,0.4
2026-01-01T2100,1232A,120.2753,30.1839,杭州市,城厢镇,,42,,33,29,16,40,,54,39,15,14,6,7,0.3,0.3
2026-01-01T2100,1233A,120.0883,30.1808,杭州市,云栖,,32,22,26,22,14,36,,54,36,13,14,3,4,0.5,0.5
2026-01-01T2100,3557A,119.9463,30.0496,杭州市,镇二中,,26,24,22,18,14,37,,54,39,17,19,4,4,0.5,0.5
2026-01-01T2100,3558A,119.7184,30.2367,杭州市,市府大楼,,30,26,27,21,14,41,,52,39,10,12,9,9,0.6,0.5
2026-01-01T2100,3656A,120.1554,30.2863,杭州市,消防大队,,32,24,30,22,17,41,,48,38,16,17,5,5,0.2,0.2
2026-01-01T2100,1270A,117.1957,31.7845,合肥市,明珠广场,,49,41,21,34,17,39,,47,43,15,9,5,5,0.5,0.4
2026-01-01T2100,1271A,117.307,31.8765,合肥市,三里街,,,46,20,36,17,44,,47,46,,15,4,4,0.7,0.6
2026-01-01T2100,1272A,117.2587,31.8703,合肥市,琥珀山庄,细颗粒物(PM2.5),53,46,25,37,21,46,,48,47,17,13,7,7,0.6,0.6
2026-01-01T2100,1275A,117.2593,31.9376,合肥市,庐阳区,颗粒物(PM10),51,51,24,34,18,41,,52,48,25,15,1,2,0.6,0.5
2026-01-01T2100,1276A,117.345251,31.861615,合肥市,瑶海区,,46,39,20,32,16,43,,50,48,23,13,4,4,0.7,0.7
2026-01-01T2100,1277A,117.3033,31.7967,合肥市,包河区,细颗粒物(PM2.5),52,39,22,36,19,42,,41,40,18,21,4,5,0.6,0.6
2026-01-01T2100,1278A,117.278,31.7392,合肥市,滨湖新区,,,41,20,34,21,,,48,45,25,16,3,4,0.6,0.7
2026-01-01T2100,1279A,117.1324,31.8395,合肥市,高新区,细颗粒物(PM2.5),53,46,24,37,17,41,,52,49,18,14,3,3,0.5,0.4
2026-01-01T2100,3464A,117.3802,31.9148,合肥市,高教基地,细颗粒物(PM2.5),63,48,22,45,20,37,,49,47,20,12,5,5,0.6,0.5
2026-01-01T2100,4098A,117.2518,31.8404,合肥市,中国科学技术大学,,48,41,26,33,15,48,,52,49,16,12,4,4,0.4,0.4
2026-01-01T2100,3614A,79.9241,37.0878,和田地区,地区环保局,颗粒物(PM10),53,56,58,35,28,37,,51,51,20,18,2,2,0.7,0.7
2026-01-01T2100,3615A,79.9132,37.1137,和田地区,市环保局,,45,42,64,26,26,47,,55,55,23,20,1,1,4.5,1.5
2026-01-01T2100,2517A,108.0496,24.6957,河池市,市环保站,,16,6,13,3,14,50,,54,54,8,10,2,2,0.8,0.9
2026-01-01T2100,4302A,108.0901,24.6945,河池市,上任中路54号,,15,9,17,3,11,45,,50,49,10,12,3,4,0.8,0.9
2026-01-01T2100,1697A,114.6962,23.7538,河源市,东埔,,30,24,63,21,51,58,,73,70,12,28,6,6,0.6,0.8
2026-01-01T2100,1698A,114.6895,23.7232,河源市,老城,,25,25,61,17,43,60,,73,70,10,22,6,7,0.7,0.8
2026-01-01T2100,3374A,115.5562,35.089,菏泽市,定陶老年大学,细颗粒物(PM2.5),94,85,41,70,26,25,,58,49,27,19,3,6,0.5,0.6
2026-01-01T2100,4114A,115.4239,35.2593,菏泽市,黄河路600号,细颗粒物(PM2.5),117,89,48,88,35,17,,54,45,35,24,3,5,0.9,0.6
2026-01-01T2100,4115A,115.5025,35.2727,菏泽市,菏泽市人社局,细颗粒物(PM2.5),109,90,49,82,30,21,,56,48,27,20,3,6,0.6,0.4
2026-01-01T2100,4184A,115.479691,35.244011,菏泽市,永昌路1号,细颗粒物(PM2.5),104,86,47,78,36,26,,62,54,26,19,5,8,0.6,0.6
2026-01-01T2100,4193A,115.471542,35.280012,菏泽市,长城路999号,细颗粒物(PM2.5),100,95,48,75,27,22,,60,52,31,21,5,7,1.0,0.7
2026-01-01T2100,2514A,111.5264,24.4178,贺州市,环保小区,,25,25,49,13,39,33,,46,37,13,19,5,6,0.6,0.9
2026-01-01T2100,2515A,111.561,24.4074,贺州市,政协大楼,,22,19,44,15,34,31,,45,36,10,18,8,8,0.6,0.7
2026-01-01T2100,3534A,111.4744,24.455,贺州市,西湾,,19,19,40,13,31,33,,49,40,13,16,7,7,0.8,0.8
2026-01-01T2100,2385A,114.17,35.9019,鹤壁市,市监测站,细颗粒物(PM2.5),90,108,54,67,42,2,,41,34,38,18,3,5,0.8,0.6
2026-01-01T2100,2386A,114.2953,35.7512,鹤壁市,市交警支队,细颗粒物(PM2.5),103,98,53,77,37,3,,26,16,44,22,7,6,0.9,0.6
2026-01-01T2100,2387A,114.2877,35.7302,鹤壁市,迎宾馆,细颗粒物(PM2.5),104,101,54,78,44,4,,46,20,41,20,1,4,1.0,0.7
2026-01-01T2100,3474A,114.2616,35.6824,鹤壁市,大新区,细颗粒物(PM2.5),97,,46,72,43,3,,45,20,48,25,3,4,0.8,0.6
2026-01-01T2100,3596A,114.1573,35.9607,鹤壁市,南山宾馆,细颗粒物(PM2.5),100,90,55,75,39,22,,46,38,24,16,3,4,0.7,0.5
2026-01-01T2100,2244A,130.2537,47.3416,鹤岗市,哈啤分公司,,28,22,22,19,15,50,,50,50,5,4,6,6,0.3,0.4
2026-01-01T2100,2245A,130.2683,47.3087,鹤岗市,斯达机电,,33,,21,23,18,53,,53,52,6,5,5,5,0.4,0.4
2026-01-01T2100,2246A,130.3114,47.3388,鹤岗市,东山纸板厂,,19,17,24,13,17,53,,54,53,6,3,8,7,0.7,0.4
2026-01-01T2100,2263A,127.4832,50.2524,黑河市,交通局,,30,,15,21,17,59,,58,55,6,6,4,4,0.3,0.2
2026-01-01T2100,2264A,127.5146,50.2339,黑河市,环保局,,29,,16,20,20,56,,54,54,9,8,4,5,0.4,0.3
2026-01-01T2100,1074A,115.6839,37.754,衡水市,电机北厂,细颗粒物(PM2.5),72,78,51,52,32,3,,43,28,58,44,22,9,0.8,0.6
2026-01-01T2100,1075A,115.6303,37.7318,衡水市,市监测站,颗粒物(PM10),61,72,49,34,30,17,,42,36,48,44,10,9,0.8,0.6
2026-01-01T2100,3188A,115.6684,37.7216,衡水市,市城管局,细颗粒物(PM2.5),64,67,60,46,36,20,,45,36,52,50,10,9,0.8,0.7
2026-01-01T2100,3459A,115.599,37.5491,衡水市,地表水厂,细颗粒物(PM2.5),64,53,53,46,39,14,,48,36,48,46,9,9,0.8,0.7
2026-01-01T2100,2457A,112.6209,26.9268,衡阳市,衡阳化工总厂,细颗粒物(PM2.5),67,,22,48,22,26,,26,25,17,16,4,5,0.9,1
2026-01-01T2100,2458A,112.621,26.8957,衡阳市,珠晖区环保局,细颗粒物(PM2.5),65,,24,47,36,18,,22,20,21,16,2,2,0.8,1
2026-01-01T2100,2459A,112.628,26.8654,衡阳市,市委党校,细颗粒物(PM2.5),74,55,23,54,26,23,,28,23,17,16,5,5,0.8,0.9
2026-01-01T2100,2460A,112.6007,26.8977,衡阳市,市监测站,细颗粒物(PM2.5),77,63,34,56,27,25,,27,23,10,10,5,5,0.7,0.7
2026-01-01T2100,2461A,112.5658,26.9013,衡阳市,真空机电公司,细颗粒物(PM2.5),77,63,31,56,24,26,,27,24,16,14,5,5,0.7,0.8
2026-01-01T2100,3399A,112.6703,26.8817,衡阳市,师范学院,细颗粒物(PM2.5),60,47,24,43,23,28,,30,27,14,15,3,3,1.1,1.1
2026-01-01T2100,3038A,103.3757,23.3679,红河哈尼族彝族自治州,州图书馆,,38,38,39,26,27,75,,78,78,6,6,6,7,0.4,0.4
2026-01-01T2100,4154A,103.401,23.3561,红河哈尼族彝族自治州,蒙自市朝阳路,,,,22,,23,,,92,92,,5,,10,,0.4
2026-01-01T2100,1090A,111.6506,40.7517,呼和浩特市,呼市一监,细颗粒物(PM2.5),128,139,97,97,77,5,,44,29,73,45,9,8,1.4,0.9
2026-01-01T2100,1094A,111.7516,40.8369,呼和浩特市,如意水处理厂,细颗粒物(PM2.5),83,98,83,61,55,3,,43,28,67,51,18,16,1.0,0.8
2026-01-01T2100,1095A,111.727798,40.806187,呼和浩特市,二十九中,细颗粒物(PM2.5),112,108,88,84,57,8,,42,31,64,46,18,17,1.0,0.6
2026-01-01T2100,1097A,111.717,40.7617,呼和浩特市,化肥厂生活区,细颗粒物(PM2.5),128,133,98,97,69,5,,42,30,68,44,15,12,1.1,0.7
2026-01-01T2100,3699A,111.6519,40.8389,呼和浩特市,海东办,细颗粒物(PM2.5),108,134,121,81,108,4,,39,28,69,47,14,13,1.0,0.7
2026-01-01T2100,4275A,111.591512,40.827312,呼和浩特市,成吉思汗西街8号,细颗粒物(PM2.5),73,90,87,53,68,4,,32,24,57,49,10,13,1.0,0.8
2026-01-01T2100,4276A,111.6597,40.8077,呼和浩特市,公园东路75号,细颗粒物(PM2.5),99,114,114,74,76,9,,38,29,69,51,13,13,1.0,0.7
2026-01-01T2100,4277A,111.5427,40.7846,呼和浩特市,金海路35号,细颗粒物(PM2.5),94,106,111,70,84,1,,37,27,67,49,15,15,1.0,0.8
2026-01-01T2100,3061A,119.7511,49.1576,呼伦贝尔市,国华电力东,,28,27,29,19,23,43,,44,43,15,17,6,6,0.2,0.2
2026-01-01T2100,4279A,119.7569,49.2222,呼伦贝尔市,伊敏大街东7号,,,31,39,24,33,,,40,39,13,17,6,7,0.5,0.5
2026-01-01T2100,1250A,120.075,30.867,湖州市,城西水厂,,38,36,24,26,14,44,,66,46,20,14,8,8,0.3,0.2
2026-01-01T2100,2873A,120.083,30.8929,湖州市,仁皇山新区,,38,35,24,26,13,45,,65,51,22,17,8,8,0.3,0.3
2026-01-01T2100,2907A,120.1846,30.8592,湖州市,吴兴区站,,35,27,26,24,12,46,,61,47,16,12,5,5,0.3,0.5
2026-01-01T2100,3562A,120.4146,30.8538,湖州市,南浔区站,,38,30,21,26,11,37,,49,40,18,16,4,4,0.4,0.3
2026-01-01T2100,1607A,120.904878,40.721091,葫芦岛市,龙港区,细颗粒物(PM2.5),105,87,52,79,33,11,,56,40,55,26,21,19,1.7,1.2
2026-01-01T2100,1608A,120.8382,40.7521,葫芦岛市,化工街,颗粒物(PM10),79,107,62,56,33,21,,54,44,41,24,28,32,1.1,0.6
2026-01-01T2100,1609A,120.8339,40.7078,葫芦岛市,新区,,,45,47,27,28,,,55,47,42,28,16,16,0.7,0.7
2026-01-01T2100,1610A,120.8697,40.7679,葫芦岛市,东城区,细颗粒物(PM2.5),74,,67,54,58,16,,54,37,47,26,30,28,1.5,1
2026-01-01T2100,2483A,109.9297,27.5383,怀化市,河西地税局,,42,32,23,29,21,39,,37,37,14,15,6,5,/,/
2026-01-01T2100,2484A,109.9783,27.5342,怀化市,市四医院,,45,34,21,31,18,43,,30,30,10,10,9,9,0.5,0.6
2026-01-01T2100,2485A,109.9971,27.5579,怀化市,监测楼,,43,37,20,30,16,53,,40,40,15,32,3,1,0.1,0.2
2026-01-01T2100,1210A,119.0566,33.5991,淮安市,钵池山,细颗粒物(PM2.5),75,95,47,55,31,24,,58,53,44,21,10,8,0.5,0.4
2026-01-01T2100,1211A,119.0083,33.578,淮安市,北京南路,细颗粒物(PM2.5),75,95,51,55,29,27,,51,46,35,17,12,8,0.8,0.7
2026-01-01T2100,1212A,118.9938,33.6083,淮安市,市监测站,细颗粒物(PM2.5),98,90,45,73,38,28,,52,45,40,22,13,10,0.6,0.5
2026-01-01T2100,1213A,119.135,33.5038,淮安市,楚州区监测站,细颗粒物(PM2.5),88,83,43,65,33,28,,52,49,33,14,11,9,0.7,0.5
2026-01-01T2100,3426A,118.8757,33.2897,淮安市,新华书店,细颗粒物(PM2.5),89,88,49,66,34,48,,54,54,23,17,11,9,0.6,0.6
2026-01-01T2100,4092A,119.119691,33.550006,淮安市,枚皋中路89号,细颗粒物(PM2.5),93,80,53,69,39,21,,61,55,44,19,8,9,1.2,1
2026-01-01T2100,4206A,119.028838,33.631911,淮安市,承德北路606号,颗粒物(PM10),76,102,55,53,29,23,,54,47,47,21,11,9,0.8,0.7
2026-01-01T2100,2282A,116.8005,33.9749,淮北市,监测站,,,80,57,57,36,49,,51,51,24,23,,9,,0.8
2026-01-01T2100,2283A,116.8094,33.9008,淮北市,烈山区政府,细颗粒物(PM2.5),77,62,50,56,38,51,,53,53,21,22,8,9,0.4,0.4
2026-01-01T2100,4017A,116.7926,33.9534,淮北市,市博物馆,细颗粒物(PM2.5),79,76,58,58,36,44,,51,51,24,22,8,10,0.5,0.4
2026-01-01T2100,4100A,116.8322,33.9884,淮北市,杜集区第一实验学校,细颗粒物(PM2.5),77,69,58,56,37,59,,58,58,9,12,6,7,0.7,0.8
2026-01-01T2100,2277A,116.8304,32.7726,淮南市,潘集区政府,细颗粒物(PM2.5),67,61,44,48,36,50,,53,52,18,12,5,4,0.5,0.4
2026-01-01T2100,2279A,116.8569,32.5949,淮南市,谢家集区政府,"颗粒物(PM10),细颗粒物(PM2.5)",59,68,33,42,26,43,,47,47,18,16,5,5,0.3,0.2
2026-01-01T2100,2280A,116.8279,32.6333,淮南市,八公山区政府,细颗粒物(PM2.5),64,55,35,46,29,46,,52,52,12,11,2,2,0.4,0.3
2026-01-01T2100,2894A,117.0561,32.6536,淮南市,经济技术开发区消防队,细颗粒物(PM2.5),62,51,45,44,30,49,,54,54,15,16,3,3,0.4,0.3
2026-01-01T2100,3329A,117.011,32.5891,淮南市,山南新区,细颗粒物(PM2.5),67,56,38,48,21,48,,57,56,14,11,3,2,0.4,0.3
2026-01-01T2100,4209A,117.003137,32.644456,淮南市,国庆中路369号,细颗粒物(PM2.5),69,58,38,50,31,35,,46,45,20,14,2,3,0.4,0.3
2026-01-01T2100,2446A,114.9021,30.474,黄冈市,职工中心,,35,27,16,24,13,52,,47,47,8,8,5,5,0.5,0.5
2026-01-01T2100,2929A,114.8858,30.4519,黄冈市,红卫路,,30,30,20,21,13,48,,43,43,10,9,4,4,0.4,0.4
2026-01-01T2100,3398A,114.9134,30.4446,黄冈市,市林业局,,39,,17,27,14,51,,46,46,11,11,5,4,0.4,0.4
2026-01-01T2100,2672A,102.02,35.5101,黄南藏族自治州,同仁县隆务镇,细颗粒物(PM2.5),67,69,53,48,33,62,,72,71,4,5,9,10,0.5,0.6
2026-01-01T2100,2295A,118.2905,29.6965,黄山市,延安路89号,,35,,18,24,17,45,,58,45,9,12,3,3,0.4,0.4
2026-01-01T2100,2297A,118.1369,30.2755,黄山市,黄山区政府5号楼,,29,21,22,20,18,43,,51,42,9,13,5,5,0.4,0.4
2026-01-01T2100,4210A,118.335445,29.720283,黄山市,滨江东路7-2号,,28,22,29,19,22,43,,55,43,13,13,/,/,/,/
2026-01-01T2100,2423A,115.0547,30.2332,黄石市,沈家营,,28,28,21,17,9,40,,35,34,10,10,5,5,0.9,0.9
2026-01-01T2100,2426A,114.899,30.211,黄石市,铁山,,42,38,26,29,15,45,,37,37,7,6,4,4,1.0,1
2026-01-01T2100,2427A,115.0259,30.2108,黄石市,团城山,,33,33,21,17,8,45,,40,40,10,10,6,6,0.5,0.5
2026-01-01T2100,3149A,115.0174,30.1591,黄石市,笔架山北路,,40,40,23,20,7,38,,37,36,10,9,6,7,0.9,0.8
2026-01-01T2100,4185A,115.078022,30.21118,黄石市,磁湖东路29号,细颗粒物(PM2.5),52,43,20,36,13,34,,29,29,14,14,6,5,0.7,0.7
2026-01-01T2100,1392A,114.4181,23.0528,惠州市,河南岸金山湖子站,,33,33,66,19,41,64,,80,76,13,22,3,5,0.6,0.7
2026-01-01T2100,1393A,114.4055,23.0824,惠州市,下埔横江三路子站,,33,33,64,20,40,68,,90,83,11,19,6,8,0.6,0.7
2026-01-01T2100,1395A,114.4645,22.7832,惠州市,惠阳区承修路船湖子站,,46,46,60,28,35,66,,97,88,13,19,6,7,0.7,0.6
2026-01-01T2100,1396A,114.5316,22.7423,惠州市,大亚湾管委会子站,,47,47,52,32,30,68,,102,91,10,15,6,7,0.5,0.4
2026-01-01T2100,3314A,114.4334,22.8134,惠州市,惠阳秋长,,48,48,61,26,35,75,,112,99,13,19,/,/,/,/
2026-01-01T2100,3452A,114.6521,22.7755,惠州市,大亚湾霞涌,颗粒物(PM10),54,58,54,36,32,66,,76,,14,16,/,/,/,/
2026-01-01T2100,4300A,114.4089,23.1147,惠州市,文华一路1号,,34,34,70,21,46,71,,92,86,13,26,/,/,/,/
2026-01-01T2100,2240A,130.9618,45.2926,鸡西市,环保局,,18,16,19,12,12,40,,44,42,6,4,6,6,0.2,0.2
2026-01-01T2100,2243A,130.9294,45.2959,鸡西市,第一中学,,26,18,18,18,12,45,,48,47,6,5,3,3,0.3,0.3
2026-01-01T2100,3707A,131.0069,45.2988,鸡西市,欧美日汽修厂,,30,23,27,21,12,43,,49,46,9,6,6,6,0.4,0.4
2026-01-01T2100,2367A,114.9753,27.0803,吉安市,红声器材厂,,30,30,43,15,25,37,,49,46,22,21,11,7,0.5,0.5
2026-01-01T2100,2369A,114.9903,27.1313,吉安市,市环境监测站,,31,31,40,18,25,33,,48,45,17,17,12,11,/,/
2026-01-01T2100,2370A,115.009527,27.096792,吉安市,青原区法院,,28,28,42,14,28,34,,46,44,18,16,17,10,0.5,0.7
2026-01-01T2100,1772A,126.54,43.8622,吉林市,哈达湾,,40,37,40,28,31,34,,39,37,18,21,7,7,1.3,1.3
2026-01-01T2100,1773A,126.5843,43.8358,吉林市,东局子,,45,38,48,31,37,29,,37,36,19,22,4,5,0.9,1.1
2026-01-01T2100,1774A,126.5051,43.8243,吉林市,电力学院,细颗粒物(PM2.5),125,115,62,95,52,20,,39,33,39,27,14,12,1.7,1.1
2026-01-01T2100,1775A,126.6133,43.8971,吉林市,江北,细颗粒物(PM2.5),73,66,64,53,50,19,,39,35,32,23,12,8,1.1,0.9
2026-01-01T2100,1776A,126.5549,43.8304,吉林市,江南公园,,43,32,57,30,54,34,,40,39,16,20,42,11,0.8,0.9
2026-01-01T2100,2868A,126.4737,43.953,吉林市,九站,细颗粒物(PM2.5),53,50,49,37,35,19,,38,31,32,27,6,10,0.9,0.9
2026-01-01T2100,1299A,116.9866,36.6118,济南市,科干所,,44,44,29,20,12,35,,51,44,34,24,12,8,0.8,0.7
2026-01-01T2100,1300A,116.9379,36.6652,济南市,农科所,,44,44,38,17,16,37,,52,46,28,29,10,7,0.7,0.7
2026-01-01T2100,1301A,117.1265,36.6736,济南市,开发区,颗粒物(PM10),51,51,34,29,18,29,,52,43,34,22,8,6,0.7,0.6
2026-01-01T2100,1303A,117.0616,36.6865,济南市,省种子仓库,颗粒物(PM10),51,51,35,24,15,43,,56,51,29,24,10,8,0.5,0.5
2026-01-01T2100,1304A,116.9495185,36.644937,济南市,机床二厂,,49,49,32,22,13,46,,54,50,28,28,7,4,0.7,0.6
2026-01-01T2100,1305A,117.0496,36.6629,济南市,市监测站,,42,42,33,24,14,43,,49,45,22,20,8,7,0.6,0.6
2026-01-01T2100,1306A,116.7674,36.5458,济南市,长清党校,,44,44,39,24,17,26,,49,43,40,36,12,10,0.7,0.6
2026-01-01T2100,1961A,117.5323,36.6865,济南市,东山小学,颗粒物(PM10),58,66,39,34,19,16,,60,53,51,23,9,9,0.9,0.8
2026-01-01T2100,3059A,117.7181,36.205,济南市,泰兴公司,,46,46,36,27,21,44,,64,60,30,30,11,9,0.7,0.6
2026-01-01T2100,3064A,117.6861,36.2172,济南市,莱芜战役纪念馆,,44,44,34,27,23,39,,60,55,34,30,15,11,0.4,0.4
2026-01-01T2100,3494A,117.1673,36.9782,济南市,济阳区政府,颗粒物(PM10),56,61,42,39,19,29,,53,44,37,31,12,9,0.6,0.5
2026-01-01T2100,3495A,117.1168,36.6299,济南市,锦屏中学,,39,39,31,20,11,34,,53,48,28,22,4,4,0.5,0.4
2026-01-01T2100,4108A,117.7107,36.2385,济南市,山财大街5号,颗粒物(PM10),63,76,48,22,16,41,,61,57,29,25,15,12,0.6,0.5
2026-01-01T2100,4109A,116.9744,36.6889,济南市,无影山路12号,,46,46,40,26,15,35,,49,43,31,28,13,8,0.5,0.4
2026-01-01T2100,1653A,116.6229,35.4288,济宁市,火炬城,细颗粒物(PM2.5),52,50,35,36,21,42,,61,59,26,20,8,7,0.4,0.3
2026-01-01T2100,3500A,116.5808,35.3703,济宁市,北湖一中,细颗粒物(PM2.5),64,63,35,46,25,42,,58,56,32,27,9,7,0.6,0.5
2026-01-01T2100,3501A,116.8251,35.5592,济宁市,服务中心,细颗粒物(PM2.5),57,51,40,40,18,19,,49,42,44,30,13,12,0.5,0.7
2026-01-01T2100,3678A,116.5907,35.4054,济宁市,市第七中学,,46,46,38,27,14,41,,63,60,30,22,9,9,0.6,0.5
2026-01-01T2100,4111A,116.6075,35.4566,济宁市,任和路,颗粒物(PM10),53,56,38,32,14,34,,60,56,34,23,12,9,0.7,0.7
2026-01-01T2100,4112A,116.5648,35.3921,济宁市,文体南路1号,细颗粒物(PM2.5),77,63,43,56,16,39,,58,54,32,24,9,20,0.5,0.5
2026-01-01T2100,2255A,130.2749,46.8028,佳木斯市,佳纺,,39,35,25,27,17,33,,38,32,15,13,10,9,0.3,0.2
2026-01-01T2100,2257A,130.3258,46.7975,佳木斯市,环保局,,35,31,21,24,14,37,,42,38,13,10,6,6,0.6,0.4
2026-01-01T2100,4285A,130.363,46.806,佳木斯市,顺和街,,37,37,24,25,20,33,,37,34,13,11,7,8,0.7,0.5
2026-01-01T2100,4286A,130.3952,46.8268,佳木斯市,长安路196号,,32,28,23,22,15,34,,40,35,16,11,5,6,0.3,0.3
2026-01-01T2100,1252A,120.7439,30.778,嘉兴市,清河小学,,41,41,26,19,13,36,,54,42,23,17,5,4,0.6,0.4
2026-01-01T2100,1253A,120.7261,30.7477,嘉兴市,嘉兴学院,,42,41,26,29,13,34,,54,41,21,15,6,6,0.5,0.5
2026-01-01T2100,2872A,120.7845,30.7524,嘉兴市,南湖区残联,,39,34,30,27,15,39,,58,48,20,13,3,3,0.6,0.4
2026-01-01T2100,3407A,120.6915,30.7741,嘉兴市,秀洲住建,,42,42,26,28,13,35,,56,44,24,17,5,6,0.5,0.4
2026-01-01T2100,1945A,98.291,39.7705,嘉峪关市,气象局,,49,46,56,34,27,59,,70,67,8,8,2,2,0.5,0.5
2026-01-01T2100,2884A,98.2672,39.7978,嘉峪关市,酒钢宾馆,,49,46,63,34,30,62,,66,66,6,11,10,14,0.5,0.8
2026-01-01T2100,3248A,98.2644,39.7723,嘉峪关市,雄关区,颗粒物(PM10),53,55,56,32,31,62,,73,70,11,13,12,15,0.7,0.8
2026-01-01T2100,1383A,113.1063,22.6058,江门市,北街,细颗粒物(PM2.5),62,70,70,44,46,44,,90,79,18,35,/,/,/,/
2026-01-01T2100,1384A,113.073,22.5835,江门市,西区,颗粒物(PM10),56,62,74,35,43,39,,88,74,30,45,/,/,/,/
2026-01-01T2100,1385A,113.0218,22.531,江门市,圭峰西,细颗粒物(PM2.5),57,54,61,40,42,41,,93,80,23,31,/,/,/,/
2026-01-01T2100,1386A,113.0826,22.5947,江门市,东湖,颗粒物(PM10),60,70,78,42,46,46,,91,80,27,45,9,8,0.7,0.7
2026-01-01T2100,3311A,113.1077,22.5647,江门市,江海富民,颗粒物(PM10),68,86,93,37,44,48,,97,85,26,43,/,/,0.9,0.7
2026-01-01T2100,3449A,113.0496,22.4669,江门市,新会银湖,细颗粒物(PM2.5),62,63,61,44,48,38,,93,78,23,34,9,7,0.8,0.7
2026-01-01T2100,3335A,113.3137,35.2643,焦作市,马村街道办,细颗粒物(PM2.5),94,87,62,70,52,24,,35,26,19,18,3,3,0.7,0.5
2026-01-01T2100,3336A,113.2464,35.2374,焦作市,焦作技师学院,细颗粒物(PM2.5),85,78,63,63,56,19,,28,19,20,19,5,5,0.9,0.9
2026-01-01T2100,3477A,113.1656,35.2536,焦作市,中站许衡医院,细颗粒物(PM2.5),89,83,75,66,69,5,,28,17,36,23,3,3,1.2,1
2026-01-01T2100,3981A,113.2456,35.18,焦作市,原李万街道办,细颗粒物(PM2.5),98,75,56,73,45,24,,35,28,17,17,9,2,1.0,0.6
2026-01-01T2100,4264A,113.234,35.219,焦作市,新安路1731号,细颗粒物(PM2.5),89,85,62,66,54,24,,30,24,11,11,3,3,0.6,0.5
2026-01-01T2100,4295A,113.2722,35.2121,焦作市,人民路3066号,细颗粒物(PM2.5),73,84,64,53,41,20,,30,24,17,14,4,3,0.6,0.3
2026-01-01T2100,1708A,116.3701,23.5345,揭阳市,新兴,细颗粒物(PM2.5),60,46,58,43,41,56,,82,70,17,28,8,12,0.7,0.7
2026-01-01T2100,1709A,116.3261,23.5442,揭阳市,西马,,50,50,64,34,39,55,,77,68,12,20,4,9,0.7,0.8
2026-01-01T2100,1710A,116.361,23.5627,揭阳市,东兴,颗粒物(PM10),51,51,57,32,34,51,,79,68,20,25,10,11,/,/
2026-01-01T2100,1711A,116.4151,23.5295,揭阳市,渔湖,,46,32,55,32,31,52,,86,75,17,25,3,8,/,/
2026-01-01T2100,3320A,116.4028,23.5699,揭阳市,曲溪,颗粒物(PM10),52,53,61,35,36,55,,90,78,19,23,1,9,0.6,0.5
2026-01-01T2100,1944A,102.1691,38.5166,金昌市,天庆家园,细颗粒物(PM2.5),58,46,58,41,44,73,,64,64,11,12,2,10,0.9,0.7
2026-01-01T2100,4022A,102.1648,38.5369,金昌市,金川区人防中心,细颗粒物(PM2.5),60,54,53,43,44,73,,64,64,11,10,4,7,0.7,0.7
2026-01-01T2100,4239A,102.193042,38.531887,金昌市,长春路96号,细颗粒物(PM2.5),53,50,55,37,34,66,,62,62,7,8,4,4,0.9,0.8
2026-01-01T2100,1262A,119.6478,29.0773,金华市,十五中,,24,24,25,16,15,29,,58,37,25,19,2,2,0.4,0.4
2026-01-01T2100,1263A,119.6859,29.1032,金华市,监测站,,30,30,28,18,15,28,,54,36,26,24,1,1,0.4,0.3
2026-01-01T2100,3659A,119.656,29.1132,金华市,气象局,,21,21,21,12,12,26,,51,31,27,23,2,2,0.5,0.5
2026-01-01T2100,1767A,121.1114,41.0879,锦州市,南山,,38,37,42,26,32,39,,60,52,20,19,12,12,0.8,0.9
2026-01-01T2100,1768A,121.060361,40.842794,锦州市,开发区,,42,40,58,29,32,16,,56,45,43,31,34,19,0.9,0.8
2026-01-01T2100,1769A,121.1836,41.1118,锦州市,百股街道,细颗粒物(PM2.5),70,51,44,51,30,12,,58,46,49,26,13,17,1.1,1
2026-01-01T2100,1770A,121.1176,41.1224,锦州市,天安街道,,29,29,38,16,25,42,,62,53,21,20,14,14,0.7,0.8
2026-01-01T2100,1771A,121.1303,41.1385,锦州市,北湖公园,,45,44,37,31,22,37,,58,49,18,16,16,14,0.7,0.6
2026-01-01T2100,2160A,112.8496,35.5051,晋城市,自来水公司,细颗粒物(PM2.5),147,145,76,112,57,47,,51,51,22,22,4,4,1.0,0.9
2026-01-01T2100,2162A,112.8509,35.4886,晋城市,市环保局,细颗粒物(PM2.5),125,131,74,95,54,52,,56,56,20,21,5,4,1.1,1
2026-01-01T2100,3620A,112.8258,35.4804,晋城市,泽州一中,细颗粒物(PM2.5),110,89,65,83,56,43,,62,59,16,21,3,3,0.7,0.9
2026-01-01T2100,4078A,112.8246,35.5152,晋城市,前书院路,细颗粒物(PM2.5),99,110,72,74,48,48,,53,52,20,23,3,4,0.9,0.8
2026-01-01T2100,4079A,112.8864,35.4773,晋城市,祥云街666号,细颗粒物(PM2.5),149,126,72,114,63,48,,55,55,23,22,5,4,0.9,0.8
2026-01-01T2100,2174A,112.6992,37.6984,晋中市,榆次区政府,细颗粒物(PM2.5),224,227,141,174,100,7,,40,36,74,46,16,13,1.3,1.2
2026-01-01T2100,2865A,112.7195,37.683,晋中市,榆次三中,细颗粒物(PM2.5),168,207,143,127,89,1,,40,36,66,31,14,15,1.5,1.4
2026-01-01T2100,4080A,112.7375,37.7215,晋中市,广安街188号,细颗粒物(PM2.5),173,222,164,131,108,2,,42,37,70,43,12,11,0.9,1
2026-01-01T2100,4200A,112.7478,37.6954,晋中市,迎宾街26号,细颗粒物(PM2.5),163,171,132,124,89,5,,42,38,65,42,19,16,1.1,1.1
2026-01-01T2100,2439A,112.2012,31.048,荆门市,竹园小学,,,57,54,51,44,,,61,61,19,20,1,1,0.7,0.1
2026-01-01T2100,2440A,112.1968,30.9892,荆门市,掇刀,细颗粒物(PM2.5),69,56,53,50,43,60,,65,65,15,15,2,2,0.5,0.4
2026-01-01T2100,3012A,112.1849,31.0361,荆门市,西山林语,细颗粒物(PM2.5),69,55,61,50,61,58,,66,66,17,15,5,5,1.0,0.6
2026-01-01T2100,3547A,112.1631,31.0134,荆门市,龙泉中学南校,颗粒物(PM10),59,67,54,40,46,63,,69,69,6,6,20,6,0.5,0.2
2026-01-01T2100,4124A,112.2213,31.0654,荆门市,新台西路6号,细颗粒物(PM2.5),72,62,56,52,52,48,,60,59,15,12,6,6,0.5,0.4
2026-01-01T2100,1844A,112.2493,30.3198,荆州市,市图书馆,,,64,42,51,45,61,,63,63,,14,5,5,0.7,0.6
2026-01-01T2100,1845A,112.2009,30.3543,荆州市,市委党校,细颗粒物(PM2.5),64,,40,46,44,56,,57,57,14,16,3,3,0.6,0.6
2026-01-01T2100,3194A,112.2749,30.3124,荆州市,管委会,细颗粒物(PM2.5),62,51,40,44,44,53,,59,59,18,16,4,4,0.6,0.6
2026-01-01T2100,4268A,112.1722,30.3366,荆州市,学苑路85号,细颗粒物(PM2.5),54,,33,38,39,65,,68,68,15,17,1,1,0.6,0.6
2026-01-01T2100,2343A,117.2114,29.2931,景德镇市,老干部活动中心,,13,13,16,7,13,34,,52,36,5,7,6,6,0.6,0.6
2026-01-01T2100,2344A,117.1893,29.2789,景德镇市,兽医站,,21,21,22,10,14,36,,55,39,8,10,6,6,0.1,0.1
2026-01-01T2100,2346A,117.246,29.2958,景德镇市,陶研所,,16,,15,11,14,36,,55,36,2,6,4,4,0.5,0.5
2026-01-01T2100,4289A,117.154766,29.256967,景德镇市,青少年活动中心,,12,11,17,8,13,38,,58,41,9,11,2,3,/,/
2026-01-01T2100,1803A,115.9873,29.6816,九江市,十里,,39,,21,27,23,45,,51,48,20,17,3,3,0.6,0.6
2026-01-01T2100,1804A,115.9583,29.7047,九江市,茅山头,,46,41,27,32,23,43,,46,45,11,10,3,4,0.6,0.6
2026-01-01T2100,1805A,115.9877,29.7295,九江市,西园,,38,26,24,26,18,47,,51,51,22,20,1,1,0.6,0.6
2026-01-01T2100,1808A,115.9112,29.6038,九江市,综合工业园,,30,26,22,21,19,49,,50,48,16,18,3,3,0.8,0.8
2026-01-01T2100,3190A,116.0254,29.6995,九江市,外国语学校,,36,,22,25,20,40,,43,40,15,14,6,7,0.5,0.6
2026-01-01T2100,4253A,116.010205,29.659402,九江市,莲花大道8号,,37,37,29,21,14,43,,46,43,5,6,2,3,0.3,0.3
2026-01-01T2100,4240A,98.495752,39.733935,酒泉市,玉门东路5号,颗粒物(PM10),63,75,64,39,27,50,,61,60,10,5,8,9,0.8,0.4
2026-01-01T2100,4241A,98.5099,39.7506,酒泉市,北大街108号,,49,46,56,34,19,57,,61,60,12,12,7,8,0.4,0.3
2026-01-01T2100,2698A,76.0071,39.466,喀什地区,巡警大队,颗粒物(PM10),54,57,68,37,47,37,,37,37,14,21,3,3,0.6,1.2
2026-01-01T2100,2699A,75.9756,39.4693,喀什地区,吾办,细颗粒物(PM2.5),62,64,60,44,45,43,,45,45,16,18,3,4,0.8,0.9
2026-01-01T2100,4027A,75.9485,39.4688,喀什地区,老干局,颗粒物(PM10),58,66,74,40,48,48,,59,59,19,18,2,2,0.8,1.2
2026-01-01T2100,1824A,114.3389,34.778,开封市,肿瘤医院,细颗粒物(PM2.5),88,68,39,65,31,23,,48,43,33,17,3,4,1.1,0.9
2026-01-01T2100,1826A,114.2884,34.7966,开封市,世纪星幼儿园,细颗粒物(PM2.5),113,,37,85,49,23,,49,45,35,18,2,2,0.6,0.4
2026-01-01T2100,3147A,114.3434,34.8101,开封市,龙亭公园,细颗粒物(PM2.5),118,,38,89,38,21,,50,41,33,13,2,2,1.3,1.1
2026-01-01T2100,3210A,114.3645,34.7955,开封市,汴京公园,细颗粒物(PM2.5),93,84,48,69,31,22,,50,43,37,18,3,4,0.7,0.6
2026-01-01T2100,3473A,114.2485,34.8306,开封市,技师学院,细颗粒物(PM2.5),92,,36,68,34,6,,47,33,50,18,4,5,0.8,0.6
2026-01-01T2100,3592A,114.4518,34.7503,开封市,祥符区生态环境局,细颗粒物(PM2.5),88,90,51,65,31,3,,49,35,61,27,2,3,0.6,0.4
2026-01-01T2100,1951A,84.886,45.6029,克拉玛依市,长征新村,颗粒物(PM10),53,55,65,29,25,36,,41,40,21,24,4,5,0.8,0.6
2026-01-01T2100,1952A,84.8894,45.5827,克拉玛依市,南林小区,颗粒物(PM10),52,54,62,23,23,33,,41,40,20,27,2,3,0.8,0.7
2026-01-01T2100,1954A,84.896,44.3328,克拉玛依市,独山子区,颗粒物(PM10),72,94,87,28,39,41,,70,67,44,18,5,5,0.7,0.6
2026-01-01T2100,1955A,85.6888,46.0909,克拉玛依市,乌尔禾区商贸楼,细颗粒物(PM2.5),62,72,59,44,32,36,,47,47,20,28,5,5,1.1,0.9
2026-01-01T2100,3612A,85.1045,45.6895,克拉玛依市,白碱滩区新站,细颗粒物(PM2.5),58,62,79,41,36,44,,41,41,5,27,8,8,0.7,0.6
2026-01-01T2100,2697A,76.1457,39.7143,克孜勒苏柯尔克孜自治州,市人民政府,颗粒物(PM10),58,66,61,34,41,52,,55,55,13,17,5,6,0.5,0.5
2026-01-01T2100,3665A,76.1654,39.7157,克孜勒苏柯尔克孜自治州,克州文化中心,,47,47,54,31,41,50,,55,55,15,16,3,4,0.6,0.7
2026-01-01T2100,1450A,102.8203,24.889,昆明市,呈贡新区,,41,41,56,27,33,68,,87,86,18,33,7,4,0.4,0.5
2026-01-01T2100,1452A,102.7253,25.0904,昆明市,龙泉镇,,45,45,45,16,26,77,,90,90,15,28,4,3,0.7,0.6
2026-01-01T2100,1453A,102.7267,25.0378,昆明市,东风东路,,33,33,55,20,31,80,,91,91,19,33,6,5,0.7,0.6
2026-01-01T2100,1454A,102.6744,25.0671,昆明市,金鼎山,,38,38,59,23,36,69,,86,86,20,31,5,4,0.7,0.6
2026-01-01T2100,1455A,102.6643,25.0401,昆明市,碧鸡广场,,38,36,53,26,33,69,,86,86,23,33,6,5,0.8,0.6
2026-01-01T2100,3179A,102.7491,25.012,昆明市,官渡区博物馆,,25,25,50,17,28,80,,92,92,16,33,5,4,0.5,0.5
2026-01-01T2100,3375A,102.8016,24.8336,昆明市,青年创业园,,,,37,,26,,,91,91,14,19,8,6,0.9,0.7
2026-01-01T2100,3550A,102.8,24.9787,昆明市,昆明学院,,32,32,54,18,31,78,,90,90,11,29,2,3,0.4,0.5
2026-01-01T2100,3551A,102.5969,24.6738,昆明市,晋宁区生态环境分局,,38,38,65,24,37,64,,82,82,14,28,2,4,0.6,0.6
2026-01-01T2100,3552A,102.6673,24.9861,昆明市,云天化总部,,27,25,40,16,25,86,,93,93,10,31,7,6,0.6,0.6
2026-01-01T2100,1456A,91.132,29.6515,拉萨市,八廓街,,46,46,23,32,15,38,,96,88,58,19,10,8,1.3,0.6
2026-01-01T2100,1457A,91.1221,29.6748,拉萨市,市环保局,细颗粒物(PM2.5),65,50,24,47,21,38,,88,80,39,20,12,8,1.2,0.7
2026-01-01T2100,1458A,91.0874,29.6476,拉萨市,区监测站,,33,27,16,20,11,34,,88,79,66,28,6,5,1.2,0.9
2026-01-01T2100,1459A,91.1774,29.6541,拉萨市,西藏大学,,37,37,16,25,10,55,,90,85,42,17,7,6,0.6,0.4
2026-01-01T2100,1460A,90.9798,29.6586,拉萨市,区辐射站,细颗粒物(PM2.5),62,68,34,44,21,40,,80,74,59,33,10,5,1.3,0.8
2026-01-01T2100,1461A,91.0831,29.6292,拉萨市,拉萨火车站,,28,28,31,18,17,71,,89,88,27,28,5,5,0.7,0.8
2026-01-01T2100,2520A,109.2203,23.7252,来宾市,来宾技工学校,,16,16,37,3,27,33,,42,35,8,13,5,6,0.6,0.6
2026-01-01T2100,3535A,109.1781,23.7293,来宾市,兴宾区政府,,16,14,45,11,32,41,,46,42,8,12,4,5,0.7,0.8
2026-01-01T2100,4002A,109.2312,23.7428,来宾市,中南小学,,15,14,38,10,25,32,,42,34,11,17,4,4,0.8,0.8
2026-01-01T2100,1479A,103.8309,36.0467,兰州市,铁路设计院,,,,,,,,,,,,,,,,
2026-01-01T2100,3241A,103.7439,36.0841,兰州市,百合公园,细颗粒物(PM2.5),107,97,79,80,64,6,,39,30,64,28,13,7,1.3,1
2026-01-01T2100,3242A,103.9613,35.9985,兰州市,和平,细颗粒物(PM2.5),122,98,88,92,88,50,,68,59,26,20,3,5,0.7,1
2026-01-01T2100,4236A,103.629272,36.093822,兰州市,庄浪东路808号,细颗粒物(PM2.5),105,102,95,79,69,10,,34,25,62,37,10,11,1.1,0.9
2026-01-01T2100,4237A,103.7251,36.104344,兰州市,安宁西路88号,细颗粒物(PM2.5),103,129,90,77,64,15,,48,38,59,28,4,4,1.1,0.8
2026-01-01T2100,4238A,103.846982,36.067567,兰州市,北滨河东路1号,,,,76,,60,60,,50,48,29,33,6,6,0.7,1.1
2026-01-01T2100,1067A,116.6712,39.5109,廊坊市,药材公司,,20,20,34,8,18,32,,58,54,39,34,3,2,0.6,0.6
2026-01-01T2100,1068A,116.7215,39.5592,廊坊市,开发区,,17,17,33,6,16,34,,60,57,34,36,3,2,0.4,0.4
2026-01-01T2100,1070A,116.7246,39.5273,廊坊市,北华航天学院,,21,21,38,11,16,44,,56,54,21,33,3,3,0.3,0.4
2026-01-01T2100,2919A,116.7022,39.5454,廊坊市,河北工业大学,,20,20,36,12,17,43,,56,54,24,37,3,2,0.4,0.4
2026-01-01T2100,2536A,103.7629,29.5844,乐山市,牛耳桥,细颗粒物(PM2.5),63,56,41,45,35,30,,40,37,30,25,8,8,0.6,0.6
2026-01-01T2100,2537A,103.7501,29.6002,乐山市,市第三水厂,细颗粒物(PM2.5),57,54,41,40,30,39,,44,42,30,23,7,6,0.6,0.5
2026-01-01T2100,2538A,103.7571,29.5664,乐山市,市监测站,细颗粒物(PM2.5),57,48,38,40,32,30,,42,39,27,20,7,7,0.7,0.9
2026-01-01T2100,3361A,103.7313,29.563,乐山市,理工大学,细颗粒物(PM2.5),58,50,38,41,31,42,,43,42,25,20,5,4,0.9,0.8
2026-01-01T2100,2599A,100.2497,26.8802,丽江市,丽江古城,,37,37,32,13,20,80,,88,88,14,13,10,8,0.6,0.6
2026-01-01T2100,2600A,100.2203,26.8906,丽江市,市中心,,30,24,28,21,20,83,,90,90,15,16,8,7,0.5,0.4
2026-01-01T2100,1267A,119.9141,28.4513,丽水市,监测站大楼,,11,,25,6,16,33,,56,36,16,15,4,5,0.3,0.4
2026-01-01T2100,1268A,119.93,28.4589,丽水市,莲都小学,,22,21,25,15,11,36,,59,38,22,19,/,/,/,/
2026-01-01T2100,1269A,119.8794,28.4232,丽水市,余庄前,,19,19,22,12,13,24,,34,26,23,21,4,4,0.3,0.3
2026-01-01T2100,1173A,119.1759,34.5885,连云港市,市环境监测站,,44,44,42,29,29,24,,53,46,43,18,16,14,1.0,0.9
2026-01-01T2100,3000A,119.3577,34.6971,连云港市,德源药业,,46,46,42,22,25,42,,50,40,32,25,6,5,0.6,0.5
2026-01-01T2100,3007A,119.178,34.8442,连云港市,新城一中,,50,45,42,35,24,23,,53,41,46,25,18,15,0.7,0.7
2026-01-01T2100,3008A,119.3607,34.7519,连云港市,胡沟管理处,,29,29,31,17,22,53,,54,53,22,20,11,9,1.0,0.8
2026-01-01T2100,3009A,119.1478,34.5913,连云港市,矿山设计院,颗粒物(PM10),52,53,45,31,24,19,,56,45,52,22,14,12,1.2,1.1
2026-01-01T2100,3434A,119.2414,34.6539,连云港市,工贸学校,,36,35,41,25,27,46,,55,52,20,17,15,15,0.8,0.9
2026-01-01T2100,3664A,119.4171,34.734,连云港市,连云街道,,31,31,36,16,20,43,,48,47,30,23,7,8,0.6,0.7
2026-01-01T2100,2573A,102.2629,27.8981,凉山彝族自治州,西昌市政府,,39,38,43,27,30,53,,69,67,12,17,7,8,0.5,0.6
2026-01-01T2100,2574A,102.2686,27.885,凉山彝族自治州,凉山州政府,,43,37,47,30,37,47,,71,68,17,19,8,9,0.6,0.7
2026-01-01T2100,4229A,102.2342,27.8859,凉山彝族自治州,凯乐南路30号,颗粒物(PM10),55,59,67,38,45,44,,64,63,26,36,6,7,0.7,0.8
2026-01-01T2100,2212A,123.1978,41.2036,辽阳市,宏伟区,细颗粒物(PM2.5),79,60,57,58,38,27,,37,36,20,17,7,9,0.7,0.9
2026-01-01T2100,2213A,123.1684,41.2497,辽阳市,新华园,细颗粒物(PM2.5),88,,69,65,49,26,,37,36,31,29,8,21,0.9,1
2026-01-01T2100,2214A,123.2355,41.2663,辽阳市,滨河路,,,81,67,61,44,18,,34,31,37,26,,7,1.1,1.1
2026-01-01T2100,4083A,123.153,41.2874,辽阳市,铁西路150号,细颗粒物(PM2.5),93,91,79,69,51,22,,37,35,34,30,10,13,1.2,1.4
2026-01-01T2100,2227A,125.1359,42.8845,辽源市,环保局,颗粒物(PM10),91,131,118,57,45,22,,45,41,33,24,4,4,1.5,1.1
2026-01-01T2100,4085A,125.0998,42.9134,辽源市,安宁大街333号,细颗粒物(PM2.5),74,73,59,54,53,29,,55,51,25,20,3,3,0.8,0.7
2026-01-01T2100,1625A,115.9789,36.4372,聊城市,区政府,颗粒物(PM10),51,51,29,29,15,38,,60,56,39,32,13,13,0.6,0.6
2026-01-01T2100,3200A,115.9772,36.4986,聊城市,监控中心,细颗粒物(PM2.5),67,72,40,48,26,21,,65,54,52,35,22,13,0.6,0.5
2026-01-01T2100,3513A,116.0443,36.436,聊城市,九州社区,颗粒物(PM10),58,65,43,38,21,43,,69,60,32,24,7,6,0.5,0.5
2026-01-01T2100,4018A,116.0564,36.4609,聊城市,星美广场,颗粒物(PM10),57,63,45,28,19,36,,64,56,31,24,7,7,0.5,0.5
2026-01-01T2100,4113A,116.0091,36.4495,聊城市,利民路,颗粒物(PM10),53,56,33,34,16,34,,60,54,45,33,8,7,0.4,0.4
2026-01-01T2100,2632A,94.3683,29.6373,林芝市,林芝监测站,,26,8,15,7,9,83,,88,88,2,6,4,4,0.3,0.3
2026-01-01T2100,2633A,94.3616,29.6634,林芝市,林芝人民医院,,25,14,16,9,8,77,,83,83,3,6,5,4,0.4,0.5
2026-01-01T2100,2603A,100.0779,23.8981,临沧市,市环保局,细颗粒物(PM2.5),107,,41,80,46,43,,76,70,18,10,7,6,0.7,0.5
2026-01-01T2100,2604A,100.0894,23.882,临沧市,市气象局,细颗粒物(PM2.5),68,56,47,49,34,44,,72,68,14,13,6,6,0.6,0.4
2026-01-01T2100,1733A,111.5552,36.0791,临汾市,临钢医院,细颗粒物(PM2.5),160,135,117,122,96,22,,36,35,30,29,4,7,1.2,1.2
2026-01-01T2100,1734A,111.4984,36.0734,临汾市,技工学校,细颗粒物(PM2.5),163,130,110,124,94,29,,32,32,26,31,3,6,1.4,1.5
2026-01-01T2100,1736A,111.5017,36.0857,临汾市,市委,细颗粒物(PM2.5),147,133,121,112,96,34,,35,35,28,34,5,9,1.1,1.5
2026-01-01T2100,3018A,111.5048,36.1015,临汾市,唐尧大酒店,细颗粒物(PM2.5),142,127,115,108,90,27,,33,33,31,32,1,5,1.2,1.4
2026-01-01T2100,4244A,111.4879,36.053,临汾市,启星学校,细颗粒物(PM2.5),144,127,105,110,89,27,,33,33,32,34,4,5,1.2,1.3
2026-01-01T2100,4271A,103.2464,35.6123,临夏回族自治州,滨河东路1号,细颗粒物(PM2.5),105,107,126,79,81,36,,44,44,22,28,6,5,0.9,1.2
2026-01-01T2100,4310A,103.207136,35.599807,临夏回族自治州,新华街21号,细颗粒物(PM2.5),92,96,98,68,71,37,,44,44,26,26,9,9,0.8,0.9
2026-01-01T2100,1618A,118.3429,35.0532,临沂市,沂河小区,颗粒物(PM10),54,58,56,36,38,39,,46,46,34,27,16,12,0.6,0.6
2026-01-01T2100,1619A,118.2962,35.0568,临沂市,鲁南制药厂,,50,48,52,35,35,42,,46,46,36,30,17,13,0.6,0.5
2026-01-01T2100,1620A,118.2793,34.9976,临沂市,新光毛纺厂,,48,48,52,30,32,42,,46,45,28,22,15,12,0.5,0.5
2026-01-01T2100,1621A,118.3955,35.0889,临沂市,河东保险公司,颗粒物(PM10),53,56,50,35,31,31,,48,43,36,22,17,11,0.6,0.5
2026-01-01T2100,3370A,118.3563,35.0215,临沂市,十里堡居委,颗粒物(PM10),52,53,50,22,27,39,,48,45,36,30,16,11,0.7,0.6
2026-01-01T2100,3496A,118.359,35.1067,临沂市,南坊新区,,48,48,50,29,32,33,,47,44,42,27,15,11,0.6,0.5
2026-01-01T2100,3860A,118.3915,35.0297,临沂市,皇山花园小区,颗粒物(PM10),53,56,52,29,31,38,,52,45,38,28,19,13,0.6,0.6
2026-01-01T2100,1870A,109.4854,24.3898,柳州市,柳东小学,,19,17,33,13,28,27,,41,29,8,10,7,7,0.7,0.8
2026-01-01T2100,1871A,109.4109,24.3304,柳州市,环保监测站,,22,22,38,8,23,27,,38,31,13,20,5,6,0.7,0.9
2026-01-01T2100,1872A,109.3886,24.3408,柳州市,河西水厂,,26,,42,18,28,12,,33,21,30,26,11,9,1.5,2.1
2026-01-01T2100,1873A,109.4263,24.2951,柳州市,市四中,,16,12,30,11,18,29,,41,32,12,19,8,8,0.7,0.9
2026-01-01T2100,1874A,109.396,24.3658,柳州市,市九中,,15,15,26,8,21,26,,39,29,14,18,8,9,0.7,0.8
2026-01-01T2100,1875A,109.4912,24.3164,柳州市,古亭山,,9,,29,3,19,27,,40,30,7,13,8,8,0.7,0.8
2026-01-01T2100,3402A,109.5422,24.3994,柳州市,市二中,,20,18,27,14,23,24,,43,43,12,14,7,8,0.8,0.8
2026-01-01T2100,2307A,116.5078,31.7369,六安市,监测大楼,,32,,19,22,17,65,,53,53,11,13,2,2,0.3,0.3
2026-01-01T2100,2308A,116.4738,31.7642,六安市,皖西学院,颗粒物(PM10),67,84,29,20,17,66,,55,55,14,16,1,1,0.3,0.3
2026-01-01T2100,2309A,116.4997,31.7904,六安市,朝阳厂,,35,,22,24,17,63,,53,53,11,12,6,3,0.4,0.3
2026-01-01T2100,2310A,116.5566,31.7885,六安市,开发区,,40,36,18,28,20,63,,53,53,12,13,3,3,0.2,0.3
2026-01-01T2100,2577A,104.8293,26.592,六盘水市,黄土坡,,49,,28,34,22,38,,52,49,19,15,6,6,0.8,0.7
2026-01-01T2100,2579A,104.8481,26.5898,六盘水市,民中,细颗粒物(PM2.5),58,47,30,41,22,36,,45,43,16,16,4,4,0.8,0.6
2026-01-01T2100,2580A,104.9541,26.5506,六盘水市,双水,,43,34,31,30,19,41,,53,49,14,12,3,4,0.5,0.5
2026-01-01T2100,4151A,104.8899,26.5685,六盘水市,钟山大道中段564号,,38,,30,26,18,42,,53,48,10,11,5,6,0.7,0.6
2026-01-01T2100,2336A,117.022,25.1031,龙岩市,龙岩市监测站,,29,22,27,20,21,45,,67,47,12,16,12,16,0.5,0.5
2026-01-01T2100,2337A,117.0257,25.0662,龙岩市,闽西职业技术学院,,25,22,33,17,23,49,,62,53,10,15,5,9,0.4,0.5
2026-01-01T2100,2338A,117.0195,25.0306,龙岩市,龙岩学院,,25,18,32,17,25,43,,57,50,14,13,7,9,/,/
2026-01-01T2100,2885A,104.9344,33.3827,陇南市,滨江中学,,,75,75,44,46,,,59,58,20,25,6,7,0.9,1
2026-01-01T2100,3247A,104.9551,33.3709,陇南市,市总工会,细颗粒物(PM2.5),63,74,80,45,50,61,,62,61,16,19,3,4,1.0,1.1
2026-01-01T2100,2488A,111.9984,27.7346,娄底市,市监测站,细颗粒物(PM2.5),69,,21,50,25,43,,35,35,13,16,3,4,0.4,0.5
2026-01-01T2100,2491A,111.9888,27.7035,娄底市,市政府,细颗粒物(PM2.5),64,,21,46,22,41,,34,34,10,12,3,4,0.3,0.4
2026-01-01T2100,4127A,111.9812,27.7591,娄底市,涟钢职大,细颗粒物(PM2.5),54,52,33,38,20,42,,34,34,12,13,3,3,0.5,0.5
2026-01-01T2100,4128A,112.0303,27.7457,娄底市,娄底体校,细颗粒物(PM2.5),57,50,27,40,22,37,,31,31,13,13,2,2,0.4,0.4
2026-01-01T2100,1894A,105.4427,28.9063,泸州市,小市上码头,,,,33,13,24,23,,29,28,13,19,,9,0.9,0.8
2026-01-01T2100,1895A,105.4241,28.8573,泸州市,兰田宪桥,,13,,32,9,26,28,,28,28,14,18,6,7,1.0,1
2026-01-01T2100,1896A,105.4378,28.8833,泸州市,市环监站,,9,8,31,6,24,24,,23,23,13,18,8,8,0.7,0.7
2026-01-01T2100,4272A,105.3689,28.7783,泸州市,纳溪中医医院,,11,11,31,7,26,33,,34,34,9,14,7,7,0.9,0.9
2026-01-01T2100,2183A,111.1447,37.5212,吕梁市,环保局,颗粒物(PM10),79,107,86,52,51,2,,26,19,52,35,7,12,0.6,0.6
2026-01-01T2100,2185A,111.1285,37.5338,吕梁市,自来水公司,细颗粒物(PM2.5),72,74,102,52,62,12,,26,23,38,33,7,11,0.7,0.7
2026-01-01T2100,2867A,111.1225,37.5093,吕梁市,马茂庄小学,细颗粒物(PM2.5),93,107,114,69,67,1,,24,19,49,34,10,11,0.6,0.6
2026-01-01T2100,1812A,112.3934,34.6517,洛阳市,市委党校,细颗粒物(PM2.5),95,76,50,71,49,49,,51,50,24,20,7,7,0.8,0.6
2026-01-01T2100,1815A,112.494,34.6883,洛阳市,河南林校,细颗粒物(PM2.5),98,77,52,73,44,39,,47,45,25,20,8,6,0.9,0.7
2026-01-01T2100,1816A,112.3843,34.623,洛阳市,开发区管委会,细颗粒物(PM2.5),97,80,52,72,47,49,,51,50,20,18,6,7,0.8,0.7
2026-01-01T2100,1817A,112.4263,34.6249,洛阳市,市委新办公区,细颗粒物(PM2.5),110,86,54,83,52,52,,53,53,21,18,8,7,0.7,0.6
2026-01-01T2100,3340A,112.6005,34.6323,洛阳市,伊滨,细颗粒物(PM2.5),103,88,55,77,50,43,,53,51,31,22,6,6,1.0,0.7
2026-01-01T2100,3341A,112.495,34.6338,洛阳市,中移产业园,细颗粒物(PM2.5),108,,50,81,51,45,,48,47,32,26,8,8,0.8,0.6
2026-01-01T2100,3593A,112.5736,34.8993,洛阳市,吉利监测站,细颗粒物(PM2.5),125,,52,95,58,34,,53,50,38,21,6,6,1.0,0.8
2026-01-01T2100,3635A,112.3678,34.6623,洛阳市,河科大西苑校区,细颗粒物(PM2.5),94,80,50,70,45,42,,49,47,29,19,7,7,0.8,0.6
2026-01-01T2100,3636A,112.4387,34.678,洛阳市,英才小学,细颗粒物(PM2.5),104,82,55,78,55,49,,54,53,32,24,8,7,0.8,0.6
2026-01-01T2100,4214A,112.460027,34.694929,洛阳市,春都路1号院,细颗粒物(PM2.5),89,91,58,66,40,38,,44,43,26,19,9,8,1.0,0.7
2026-01-01T2100,2399A,114.051,33.5721,漯河市,三五一五工厂,细颗粒物(PM2.5),98,86,54,73,42,48,,56,56,22,15,6,6,0.8,0.7
2026-01-01T2100,2400A,114.0055,33.5698,漯河市,漯河大学,细颗粒物(PM2.5),100,79,47,75,42,38,,59,57,31,19,5,5,0.7,0.5
2026-01-01T2100,2401A,114.0134,33.5826,漯河市,市水利局,细颗粒物(PM2.5),100,80,45,75,42,33,,51,49,28,21,7,7,0.7,0.6
2026-01-01T2100,2402A,114.0261,33.5697,漯河市,市广电局,细颗粒物(PM2.5),102,83,45,76,41,31,,62,60,38,15,6,6,0.6,0.5
2026-01-01T2100,3478A,113.9691,33.568,漯河市,市图书馆,细颗粒物(PM2.5),114,96,54,86,44,48,,57,57,19,18,4,4,0.9,0.7
2026-01-01T2100,4250A,114.089259,33.588274,漯河市,韶山路11号,细颗粒物(PM2.5),85,75,44,63,41,1,,53,44,66,21,6,7,0.7,0.8
2026-01-01T2100,1798A,118.5084,31.6838,马鞍山市,湖东路四小,,32,29,26,22,16,54,,50,45,16,15,3,2,0.4,0.3
2026-01-01T2100,1799A,118.5019,31.6449,马鞍山市,开发区,,35,34,26,24,19,61,,53,49,14,15,4,4,0.3,0.3
2026-01-01T2100,3633A,118.4914,31.681,马鞍山市,雨山,,35,30,26,24,16,54,,53,44,21,15,8,5,0.5,0.4
2026-01-01T2100,4191A,118.527362,31.722269,马鞍山市,慈湖高新区,,48,36,27,33,21,47,,52,43,18,15,3,3,0.3,0.2
2026-01-01T2100,1686A,111.0285,21.469,茂名市,电白南海,颗粒物(PM10),57,63,55,36,28,113,,121,121,16,16,8,11,0.7,0.8
2026-01-01T2100,1687A,110.9294,21.6533,茂名市,茂石化七小,颗粒物(PM10),57,63,54,39,29,103,,118,117,19,19,7,10,0.7,0.4
2026-01-01T2100,1688A,110.9108,21.6688,茂名市,健康路,颗粒物(PM10),56,61,48,39,30,96,,132,128,22,18,10,12,0.8,0.6
2026-01-01T2100,1689A,110.8592,21.6826,茂名市,高岭,细颗粒物(PM2.5),67,75,60,48,28,77,,136,127,19,18,7,12,/,/
2026-01-01T2100,3450A,111.0101,21.5165,茂名市,电白水东,,46,46,43,22,26,105,,118,117,12,13,8,11,/,/
2026-01-01T2100,2540A,103.8414,30.0871,眉山市,气象局,,46,46,41,27,29,63,,54,54,18,22,7,8,0.7,0.7
2026-01-01T2100,3148A,103.829,30.0563,眉山市,区人社局,,39,39,41,19,21,67,,55,55,21,22,3,5,0.6,0.6
2026-01-01T2100,4148A,103.8836,30.0695,眉山市,眉职院,,36,36,31,21,18,58,,50,50,15,18,4,4,0.8,0.8
2026-01-01T2100,1690A,116.1248,24.3307,梅州市,梅江月梅,,28,21,36,19,29,52,,63,57,14,20,/,/,/,/
2026-01-01T2100,1691A,116.0798,24.2719,梅州市,梅县新城,,,23,60,20,46,,,64,61,,30,7,8,0.4,0.7
2026-01-01T2100,3315A,116.1234,24.2994,梅州市,梅龙,,23,17,46,16,35,50,,59,55,12,18,8,9,0.5,0.6
2026-01-01T2100,1878A,104.7775,31.4741,绵阳市,富乐山,细颗粒物(PM2.5),67,54,35,48,29,34,,69,53,22,16,11,11,0.9,0.7
2026-01-01T2100,1880A,104.6698,31.4668,绵阳市,高新区自来水公司,细颗粒物(PM2.5),83,76,40,61,37,26,,63,45,38,21,8,8,1.0,0.7
2026-01-01T2100,3491A,104.6899,31.5324,绵阳市,西科大附属小学,细颗粒物(PM2.5),100,90,45,75,35,25,,63,44,30,17,8,8,1.2,0.9
2026-01-01T2100,3492A,104.5647,31.5343,绵阳市,安州区旅游局,细颗粒物(PM2.5),98,79,40,73,40,27,,57,41,30,20,13,13,1.1,0.8
2026-01-01T2100,4146A,104.7092,31.4972,绵阳市,科技城新区公安局,细颗粒物(PM2.5),97,87,42,72,36,19,,74,52,44,20,5,4,1.3,1
2026-01-01T2100,4226A,104.765114,31.453094,绵阳市,绵阳市气象局,细颗粒物(PM2.5),90,70,33,67,29,28,,70,52,37,16,12,8,0.8,1.2
2026-01-01T2100,1784A,129.61,44.561,牡丹江市,环保大楼,,48,44,39,33,26,46,,46,46,11,9,9,8,0.7,0.7
2026-01-01T2100,1787A,129.6364,44.6075,牡丹江市,机车工厂,,39,39,35,26,20,47,,48,47,11,10,3,2,0.3,0.3
2026-01-01T2100,1788A,129.6386,44.5462,牡丹江市,第一中学,细颗粒物(PM2.5),52,42,27,36,25,41,,44,43,8,6,6,4,0.4,0.3
2026-01-01T2100,4287A,129.5992,44.5964,牡丹江市,东晓云街98号,细颗粒物(PM2.5),55,40,35,39,26,44,,44,44,9,7,4,4,0.6,0.5
2026-01-01T2100,2531A,105.0703,29.61,内江市,市监测站,,,48,29,15,18,36,,50,43,10,12,,4,,0.9
2026-01-01T2100,2533A,105.0657,29.5807,内江市,内江二中,,34,34,29,14,14,34,,39,33,18,17,4,4,0.9,0.9
2026-01-01T2100,2534A,105.0407,29.5828,内江市,内江日报社,,30,30,24,19,12,36,,41,36,18,16,2,2,0.6,0.7
2026-01-01T2100,4147A,105.0433,29.6105,内江市,玉峰路西段888号,,23,20,19,16,9,45,,51,45,12,11,3,3,0.6,0.6
2026-01-01T2100,2628A,92.0653,31.4846,那曲市,那曲监测站,细颗粒物(PM2.5),52,52,53,36,40,55,,80,79,46,29,16,12,1.7,1.4
2026-01-01T2100,4243A,92.0515,31.4787,那曲市,那曲市委宣传部,,27,12,30,3,18,84,,86,86,2,19,4,19,0.5,0.5
2026-01-01T2100,1291A,115.8887,28.7006,南昌市,省林业公司,,28,,23,19,19,46,,48,47,5,8,3,3,0.8,0.8
2026-01-01T2100,1292A,115.813,28.7443,南昌市,林科所,,25,,19,17,14,37,,43,42,17,18,4,4,0.4,0.4
2026-01-01T2100,1294A,115.8518,28.687,南昌市,建工学校,,33,25,41,23,20,37,,37,36,20,22,11,11,0.5,0.5
2026-01-01T2100,1295A,115.8926,28.6425,南昌市,象湖,,32,25,33,22,20,39,,38,38,17,17,7,8,0.6,0.6
2026-01-01T2100,3046A,115.9084,28.6062,南昌市,机电学校,,39,27,33,27,19,43,,44,43,10,13,4,4,0.5,0.5
2026-01-01T2100,3690A,115.9718,28.7032,南昌市,外国语学校,,43,,28,30,26,39,,38,38,17,18,9,10,0.5,0.5
2026-01-01T2100,4106A,115.7923,28.6873,南昌市,工业二路,,,,15,,11,,,44,44,,9,,6,,0.3
2026-01-01T2100,4192A,115.931587,28.686774,南昌市,南京东路235号,,27,27,38,15,21,41,,41,41,21,20,3,4,0.3,0.3
2026-01-01T2100,1906A,106.0791,30.8022,南充市,南充市委,,45,36,17,31,16,16,,37,34,36,21,4,4,0.9,0.7
2026-01-01T2100,1907A,106.1038,30.8215,南充市,南充炼油厂,颗粒物(PM10),55,59,33,37,25,36,,44,44,15,16,5,5,0.5,0.5
2026-01-01T2100,4227A,106.108336,30.788436,南充市,梨树横街98号,,45,33,16,31,13,40,,51,48,17,15,5,5,0.6,0.6
2026-01-01T2100,4304A,106.1172,30.843,南充市,清泉寺北路188号,,46,34,17,32,13,37,,53,51,16,11,6,6,0.8,0.8
2026-01-01T2100,4305A,106.067,30.7616,南充市,同庆路1号,,42,34,21,29,19,24,,44,40,33,21,6,6,0.7,0.6
2026-01-01T2100,1151A,118.8033,32.1085,南京市,迈皋桥,,40,40,22,24,11,61,,57,57,7,4,5,4,0.6,0.6
2026-01-01T2100,1152A,118.7487,32.057,南京市,草场门,,42,39,21,29,14,52,,44,44,18,16,5,5,0.2,0.2
2026-01-01T2100,1154A,118.770105,32.004342,南京市,中华门,,42,31,18,29,13,60,,50,50,11,6,5,4,0.4,0.3
2026-01-01T2100,1155A,118.8059,32.0329,南京市,瑞金路,细颗粒物(PM2.5),52,36,18,36,18,55,,46,46,4,12,4,4,0.5,0.5
2026-01-01T2100,1156A,118.7946,32.0774,南京市,玄武湖,,37,37,21,25,10,56,,48,48,15,15,4,4,0.4,0.3
2026-01-01T2100,1157A,118.6415,32.0964,南京市,浦口,,40,40,30,22,19,42,,46,45,20,16,6,6,0.5,0.5
2026-01-01T2100,1158A,118.730129,32.000956,南京市,奥体中心,,39,31,24,27,15,69,,55,54,13,12,5,3,0.3,0.3
2026-01-01T2100,1159A,118.9072,32.1047,南京市,仙林大学城,,45,41,22,31,11,46,,47,46,23,12,5,5,0.6,0.5
2026-01-01T2100,3422A,118.8443,31.919,南京市,江宁彩虹桥,,45,41,24,31,12,57,,52,52,11,9,4,3,0.4,0.3
2026-01-01T2100,3427A,118.8497,32.3599,南京市,六合雄州,颗粒物(PM10),55,60,30,37,17,40,,50,47,28,11,5,6,0.5,0.4
2026-01-01T2100,4086A,118.7641,32.0841,南京市,新模范马路66号,,46,41,23,32,13,52,,48,48,16,11,5,4,0.8,0.6
2026-01-01T2100,4249A,118.8707617,31.34017673,南京市,汶溪路181号,,46,32,22,32,15,39,,57,53,25,18,6,6,0.4,0.3
2026-01-01T2100,4312A,119.019,31.6512,南京市,中山西路1号,,28,24,17,19,16,48,,48,48,17,14,4,4,0.3,0.3
2026-01-01T2100,1401A,108.3098,22.788,南宁市,二十一中,,12,12,52,8,45,30,,76,31,16,20,4,5,0.9,0.9
2026-01-01T2100,1402A,108.3135,22.8529,南宁市,北湖,,20,,61,14,46,41,,73,42,14,31,2,3,0.9,0.9
2026-01-01T2100,1403A,108.3205,22.8222,南宁市,市监测站,,25,,49,17,45,29,,61,31,12,21,5,6,0.8,0.8
2026-01-01T2100,1404A,108.3828,22.8038,南宁市,大自然花园,,23,23,54,13,43,44,,84,42,15,22,5,6,0.8,0.8
2026-01-01T2100,1406A,108.2397,22.8462,南宁市,区农职院,,20,,68,14,52,37,,52,38,16,31,8,7,1.0,1
2026-01-01T2100,1407A,108.3285,22.7356,南宁市,英华嘉园,,19,18,46,13,41,40,,79,37,16,23,2,4,0.9,0.8
2026-01-01T2100,3401A,108.4829,22.762,南宁市,红星社区,,19,19,53,8,38,44,,75,44,8,19,4,5,0.8,0.9
2026-01-01T2100,4132A,108.2927,23.1477,南宁市,起凤路9号,,17,10,40,8,34,52,,108,40,6,10,2,3,0.9,0.9
2026-01-01T2100,4221A,108.2177,22.7774,南宁市,乐贤路16号,,22,16,53,15,39,37,,69,37,18,29,1,3,0.8,0.8
2026-01-01T2100,2332A,118.1682,26.6371,南平市,南平市监测站,,13,12,25,8,17,40,,64,45,11,13,3,4,0.5,0.5
2026-01-01T2100,2334A,118.1757,26.6276,南平市,南平七中,,17,17,26,9,16,42,,64,45,10,12,6,7,0.5,0.5
2026-01-01T2100,1168A,120.9056,31.9669,南通市,狼山街道,,45,38,16,31,10,40,,55,50,13,7,2,2,0.6,0.4
2026-01-01T2100,1170A,120.8635,32.0231,南通市,城中,,46,45,18,32,10,38,,53,47,16,11,2,2,0.6,0.4
2026-01-01T2100,1171A,120.9376,31.9301,南通市,星湖花园,,46,45,17,32,11,43,,56,52,16,9,3,3,0.6,0.5
2026-01-01T2100,1172A,120.8053,32.046,南通市,紫琅学院,颗粒物(PM10),51,51,16,32,9,41,,57,48,15,10,3,3,0.4,0.5
2026-01-01T2100,3291A,121.0631,32.0644,南通市,通州监测站,细颗粒物(PM2.5),55,41,11,39,15,37,,61,54,23,13,2,2,0.5,0.4
2026-01-01T2100,3432A,120.9348,31.9874,南通市,环境教育馆,细颗粒物(PM2.5),54,41,17,38,10,41,,59,48,14,8,4,4,0.4,0.3
2026-01-01T2100,4091A,120.8692,31.9885,南通市,洪江路,细颗粒物(PM2.5),54,40,19,38,8,38,,55,48,18,12,3,3,0.3,0.2
2026-01-01T2100,2404A,112.5338,33.0086,南阳市,瓦房庄,,,64,52,64,49,38,,42,40,,14,,6,0.7,0.7
2026-01-01T2100,2405A,112.5002,32.9734,南阳市,汉画馆,细颗粒物(PM2.5),77,64,52,56,44,29,,41,37,15,14,5,6,0.7,0.6
2026-01-01T2100,2406A,112.5778,33.0144,南阳市,气象站,细颗粒物(PM2.5),73,71,56,53,42,38,,42,42,18,16,4,4,0.6,0.5
2026-01-01T2100,2407A,112.548,32.9687,南阳市,理工学院,细颗粒物(PM2.5),64,63,48,46,35,37,,42,40,17,16,4,5,0.8,0.7
2026-01-01T2100,4008A,112.5233,32.9921,南阳市,卧龙区政府,细颗粒物(PM2.5),83,78,63,61,45,37,,41,39,15,16,4,4,0.8,0.7
2026-01-01T2100,1234A,121.8352,29.9111,宁波市,区环保大楼,,36,36,20,12,11,49,,61,54,19,15,4,4,0.5,0.4
2026-01-01T2100,1235A,121.5595,29.8208,宁波市,万里学院,,32,25,21,22,10,41,,64,47,18,13,4,4,0.5,0.4
2026-01-01T2100,1236A,121.713,29.9564,宁波市,龙赛医院,,31,31,20,15,6,41,,64,49,20,11,3,2,0.4,0.3
2026-01-01T2100,1240A,121.5855,29.8635,宁波市,太古小学,,30,30,20,15,9,44,,67,50,15,11,2,2,0.4,0.4
2026-01-01T2100,1241A,121.5239,29.8673,宁波市,市环境监测中心,,25,25,23,11,7,39,,62,43,17,12,4,5,0.5,0.4
2026-01-01T2100,2871A,121.6156,29.9015,宁波市,万里国际学校,,25,23,22,17,8,44,,66,49,16,13,3,3,0.3,0.3
2026-01-01T2100,3710A,121.5593,29.8976,宁波市,白沙活动中心,,16,16,19,11,8,41,,64,47,16,11,4,4,0.4,0.3
2026-01-01T2100,4095A,121.8962,29.7529,宁波市,中科路88号,,20,20,15,14,4,54,,66,57,8,6,4,4,0.6,0.5
2026-01-01T2100,2341A,119.5387,26.6611,宁德市,宁德市监测站,,35,35,33,15,15,32,,49,44,33,25,6,7,0.4,0.4
2026-01-01T2100,3209A,119.5231,26.6562,宁德市,宁德一中,,23,22,33,16,19,51,,52,51,15,20,5,6,0.4,0.4
2026-01-01T2100,2618A,98.859,25.8541,怒江傈僳族自治州,州监测站,,45,44,34,31,22,44,,72,70,22,11,7,7,0.6,0.4
2026-01-01T2100,2619A,98.8607,25.8168,怒江傈僳族自治州,泸水一中,,44,44,36,25,27,22,,60,55,34,19,6,6,1.0,0.7
2026-01-01T2100,1888A,101.6891,26.571,攀枝花市,弄弄坪,,43,43,53,26,26,55,,79,79,23,29,13,19,0.7,1.2
2026-01-01T2100,1889A,101.577,26.5914,攀枝花市,河门口,,49,49,42,32,25,51,,78,77,24,24,76,26,1.0,1.2
2026-01-01T2100,1891A,101.7365,26.4986,攀枝花市,仁和,颗粒物(PM10),55,59,41,32,25,38,,80,75,23,22,9,12,0.8,1
2026-01-01T2100,2835A,101.7222,26.567,攀枝花市,四十中小,细颗粒物(PM2.5),63,69,71,45,46,31,,68,64,49,44,13,15,1.5,1.4
2026-01-01T2100,1604A,122.0303,41.1489,盘锦市,开发区,,38,36,35,26,24,31,,46,40,12,14,2,6,0.8,0.8
2026-01-01T2100,1605A,122.0486,41.0883,盘锦市,兴隆台,,48,48,36,27,19,29,,46,41,22,24,12,8,0.7,0.7
2026-01-01T2100,1606A,121.8297,41.1026,盘锦市,新生街道,,36,29,26,25,16,19,,49,39,20,20,4,4,0.5,0.5
2026-01-01T2100,1832A,113.3257,33.7423,平顶山市,新华旅馆,细颗粒物(PM2.5),109,108,65,82,47,10,,51,46,55,22,8,7,1.2,0.8
2026-01-01T2100,1833A,113.2917,33.737,平顶山市,规划设计院,细颗粒物(PM2.5),104,102,60,78,50,26,,54,51,43,25,5,5,0.9,0.6
2026-01-01T2100,1834A,113.182,33.7738,平顶山市,平顶山工学院,细颗粒物(PM2.5),98,77,47,73,44,48,,62,61,16,16,6,6,0.5,0.4
2026-01-01T2100,3594A,112.8736,33.9068,平顶山市,石龙区,细颗粒物(PM2.5),99,82,53,74,51,40,,63,62,34,20,5,5,0.9,0.8
2026-01-01T2100,4116A,113.284,33.7139,平顶山市,姚电大道23号,细颗粒物(PM2.5),119,112,78,90,56,22,,54,50,38,16,6,6,0.9,0.8
2026-01-01T2100,2656A,106.6633,35.5338,平凉市,聚贤嘉苑,细颗粒物(PM2.5),54,47,52,38,37,49,,59,54,22,14,8,8,0.8,0.7
2026-01-01T2100,2657A,106.7021,35.5307,平凉市,博物馆,细颗粒物(PM2.5),58,53,52,41,38,56,,59,54,18,17,8,9,0.8,0.7
2026-01-01T2100,2348A,113.8384,27.6436,萍乡市,中医院,,50,46,46,35,32,10,,29,16,27,23,6,5,1.5,1.4
2026-01-01T2100,2350A,113.8677,27.6438,萍乡市,市环保局,细颗粒物(PM2.5),57,43,32,40,29,10,,33,17,28,24,15,13,0.6,0.6
2026-01-01T2100,2351A,113.8663,27.6202,萍乡市,安源区政府,,,60,51,39,38,,,28,16,22,25,,11,0.8,0.9
2026-01-01T2100,4107A,113.8686,27.6668,萍乡市,联洪村委会,细颗粒物(PM2.5),55,46,27,39,22,15,,31,20,29,21,2,2,1.1,1.1
2026-01-01T2100,2319A,119.0142,25.4324,莆田市,荔城区仓后路,,31,31,28,21,12,50,,76,59,15,9,/,/,/,/
2026-01-01T2100,2320A,119.0016,25.4553,莆田市,莆田市监测站,,32,25,22,22,12,53,,80,62,11,7,4,4,0.5,0.4
2026-01-01T2100,2321A,119.112,25.4561,莆田市,涵江区六中,,33,33,22,20,9,58,,80,,11,9,/,/,0.4,0.4
2026-01-01T2100,2322A,119.1014,25.3215,莆田市,秀屿区政府,,20,17,25,11,10,64,,78,66,6,7,2,2,0.5,0.4
2026-01-01T2100,2392A,115.0312,35.7636,濮阳市,环保局,细颗粒物(PM2.5),97,73,38,72,23,12,,49,39,31,22,6,7,1.4,1
2026-01-01T2100,3021A,115,35.7667,濮阳市,濮水河管理处,细颗粒物(PM2.5),85,88,47,63,24,12,,55,42,39,33,6,8,0.9,0.6
2026-01-01T2100,4118A,115.0552,35.7816,濮阳市,中原东路68号,细颗粒物(PM2.5),94,90,48,70,28,17,,58,46,32,22,4,6,0.9,0.6
2026-01-01T2100,4216A,115.0923632,35.76857718,濮阳市,任丘路479号,细颗粒物(PM2.5),97,82,45,72,30,12,,53,42,39,29,4,6,1.0,0.5
2026-01-01T2100,2601A,100.9801,22.7634,普洱市,市环保局,细颗粒物(PM2.5),62,56,47,44,23,31,,70,62,17,11,4,4,0.4,0.3
2026-01-01T2100,2602A,100.9763,22.8237,普洱市,普洱第二中学,,,59,42,34,20,,,76,,9,16,5,5,0.4,0.4
2026-01-01T2100,3345A,131.0413,45.7795,七台河市,中波台,,45,37,33,31,18,26,,43,36,17,11,9,7,0.5,0.4
2026-01-01T2100,3637A,131.0136,45.7688,七台河市,人民广场,颗粒物(PM10),51,52,37,35,24,27,,43,34,24,13,9,7,0.6,0.4
2026-01-01T2100,3684A,130.8639,45.8144,七台河市,新建矿广场,,38,36,32,26,21,28,,41,32,13,7,10,10,0.5,0.4
2026-01-01T2100,1779A,123.9307,47.3641,齐齐哈尔市,安居小区,,37,37,38,24,27,38,,51,46,22,15,5,5,0.6,0.5
2026-01-01T2100,1780A,123.9497,47.3389,齐齐哈尔市,中心广场,,32,31,36,22,19,50,,48,45,12,11,7,8,0.5,0.5
2026-01-01T2100,1781A,123.9483,47.3229,齐齐哈尔市,农牧车辆厂,,31,31,27,11,18,48,,52,51,12,9,4,5,0.6,0.6
2026-01-01T2100,1783A,123.9442,47.2994,齐齐哈尔市,市环境监测站,,48,,26,33,16,56,,54,48,9,11,7,7,0.4,0.4
2026-01-01T2100,3662A,123.6341,47.2079,齐齐哈尔市,富区青少年活动中心,,49,41,37,34,25,43,,48,42,19,16,9,7,0.7,0.6
2026-01-01T2100,2591A,107.9765,26.5724,黔东南苗族侗族自治州,市环境监测站,,39,27,15,27,15,39,,60,45,10,12,4,4,0.6,0.7
2026-01-01T2100,2881A,107.8909,26.531,黔东南苗族侗族自治州,凯里学院,,30,,14,21,11,39,,56,44,13,13,3,4,0.7,0.8
2026-01-01T2100,2593A,107.5223,26.2371,黔南布依族苗族自治州,小围寨,,20,17,9,14,9,44,,53,50,7,7,3,4,0.8,0.8
2026-01-01T2100,3538A,107.5175,26.2977,黔南布依族苗族自治州,沙坝,,25,,12,17,10,45,,54,49,9,10,4,4,0.8,0.9
2026-01-01T2100,2589A,104.9022,25.0943,黔西南布依族苗族自治州,场坝街,,50,40,44,35,35,35,,37,36,11,13,7,7,0.7,0.7
2026-01-01T2100,2590A,104.8812,25.0994,黔西南布依族苗族自治州,坪东大道,,25,19,40,17,36,39,,36,36,10,13,9,6,0.8,0.6
2026-01-01T2100,2502A,108.6238,21.9667,钦州市,市环保站,颗粒物(PM10),51,51,80,19,48,31,,93,50,20,24,3,5,1.7,0.9
2026-01-01T2100,2503A,108.655,21.9481,钦州市,沙埠小学,,32,32,69,12,40,37,,82,54,18,29,4,6,0.8,0.7
2026-01-01T2100,2504A,108.5989,21.7435,钦州市,港区一小,,49,49,66,26,36,21,,86,47,30,28,8,10,1.0,0.7
2026-01-01T2100,3404A,108.5959,21.9634,钦州市,北职校,,25,25,65,17,46,36,,78,50,12,24,6,8,0.9,0.8
2026-01-01T2100,1046A,119.5247,39.9346,秦皇岛市,建设大厦,,35,26,40,24,30,44,,61,58,20,26,6,8,0.4,0.5
2026-01-01T2100,3132A,119.5979,39.938,秦皇岛市,文明里,,48,48,38,16,19,23,,57,52,31,20,12,11,0.4,0.4
2026-01-01T2100,4066A,119.7458,39.9952,秦皇岛市,南园路157号,颗粒物(PM10),59,68,43,30,13,8,,58,50,45,27,10,7,0.6,0.7
2026-01-01T2100,4067A,119.5131,39.8858,秦皇岛市,翠岛大街1号,,28,28,30,3,10,52,,58,58,12,20,8,10,0.4,0.5
2026-01-01T2100,4198A,119.509013,39.825305,秦皇岛市,北戴河轮滑馆,,29,20,36,20,24,55,,60,60,10,20,5,8,0.4,0.8
2026-01-01T2100,1310A,120.404,36.0625,青岛市,市南区东部子站,,27,27,27,17,16,55,,56,55,10,13,8,9,0.5,0.6
2026-01-01T2100,1311A,120.362344,36.10282,青岛市,四方区子站,,31,31,35,17,18,56,,56,55,6,11,2,4,0.4,0.5
2026-01-01T2100,1312A,120.294373,36.054183,青岛市,市南区西部子站,,22,22,25,7,13,54,,54,53,5,11,3,5,0.3,0.4
2026-01-01T2100,1313A,120.4581,36.0858,青岛市,崂山区子站,,19,19,22,7,11,60,,57,57,9,16,9,10,0.4,0.5
2026-01-01T2100,1315A,120.3945,36.3083,青岛市,城阳区子站,,21,19,37,7,20,65,,62,62,5,17,6,8,0.5,0.7
2026-01-01T2100,3642A,120.3454,36.0735,青岛市,市北区南部,颗粒物(PM10),51,51,33,9,15,51,,50,49,7,11,2,4,0.5,0.5
2026-01-01T2100,3643A,120.3897,36.18,青岛市,李沧区北部,,,24,32,,24,56,,54,54,6,16,7,9,0.6,0.8
2026-01-01T2100,4110A,120.5222,36.4089,青岛市,盟旺路653号,,24,24,38,3,17,60,,55,55,14,25,2,4,0.2,0.5
2026-01-01T2100,4290A,120.196923,35.954556,青岛市,珠江路669号,,22,22,27,10,18,53,,62,58,14,19,9,12,0.4,0.4
2026-01-01T2100,4291A,120.0424,35.8656,青岛市,黄岛区人民政府广场,,36,36,31,17,17,52,,58,58,12,18,6,8,0.6,0.7
2026-01-01T2100,1703A,113.0218,23.7086,清远市,凤城街办,,18,17,51,12,39,36,,54,45,16,24,/,/,/,/
2026-01-01T2100,3025A,113.0479,23.6343,清远市,技师学院,,23,23,64,15,40,42,,56,51,18,38,6,10,0.7,0.8
2026-01-01T2100,3318A,112.9898,23.7403,清远市,清新太和,,17,17,44,11,32,42,,53,48,12,20,11,11,0.6,0.6
2026-01-01T2100,3455A,113.076,23.72,清远市,清城东城,,18,16,50,12,35,43,,58,50,16,25,/,/,/,/
2026-01-01T2100,2661A,107.6325,35.7357,庆阳市,庆阳五中,细颗粒物(PM2.5),62,48,44,44,39,74,,73,73,16,16,3,4,0.6,0.6
2026-01-01T2100,2662A,107.6361,35.7067,庆阳市,市环保局,细颗粒物(PM2.5),60,49,50,43,42,74,,71,71,12,14,2,2,0.4,0.5
2026-01-01T2100,1916A,103.7897,25.5036,曲靖市,环境监测站,,29,28,47,20,24,32,,55,53,16,20,2,5,0.8,0.7
2026-01-01T2100,1917A,103.8013,25.5357,曲靖市,烟厂办公区,,36,36,49,20,25,35,,57,55,18,24,5,5,0.6,0.6
2026-01-01T2100,3376A,103.7926,25.4651,曲靖市,南苑二区,,34,34,44,18,23,36,,59,57,12,10,4,4,0.7,0.6
2026-01-01T2100,3377A,103.7442,25.5259,曲靖市,曲靖师范学院,,45,41,50,31,35,34,,57,55,14,20,2,4,0.6,0.6
2026-01-01T2100,1264A,118.8694,28.94,衢州市,环保大楼,,18,15,22,12,13,41,,63,43,19,17,/,/,/,/
2026-01-01T2100,1266A,118.8622,28.9809,衢州市,衢州学院,,15,15,21,10,11,25,,60,37,29,18,3,3,0.4,0.3
2026-01-01T2100,4097A,118.9646,28.9832,衢州市,衢州三中,,18,17,21,12,12,35,,56,40,14,13,5,5,0.5,0.5
2026-01-01T2100,1611A,118.5818,24.9116,泉州市,涂山街,,33,33,24,18,12,48,,80,66,18,10,4,3,0.5,0.4
2026-01-01T2100,1612A,118.597,24.8976,泉州市,津头埔,,,32,24,20,13,46,,77,64,19,12,,4,0.5,0.4
2026-01-01T2100,1613A,118.6669,24.9422,泉州市,万安,,35,35,29,18,12,52,,79,66,13,9,4,3,0.4,0.3
2026-01-01T2100,4105A,118.6355,24.9148,泉州市,霞新路6号,,32,32,23,19,14,48,,77,63,17,11,/,/,0.4,0.4
2026-01-01T2100,2626A,88.8873,29.2723,日喀则市,日喀则监测站,,43,43,31,29,17,57,,93,90,34,18,15,12,0.6,0.6
2026-01-01T2100,3726A,88.8775,29.2425,日喀则市,林业技术推广中心,,25,17,27,6,16,80,,92,92,6,8,14,12,0.3,0.5
2026-01-01T2100,1659A,119.4711,35.421,日照市,监测站,细颗粒物(PM2.5),53,51,31,37,20,39,,57,53,29,20,10,9,0.7,0.6
2026-01-01T2100,1660A,119.523,35.4216,日照市,市政府广场,,48,48,32,33,20,42,,57,54,27,19,11,10,0.4,0.3
2026-01-01T2100,1661A,119.5511,35.4113,日照市,港务局,,46,41,32,32,24,45,,57,56,24,18,9,9,0.4,0.4
2026-01-01T2100,3507A,119.5326,35.4627,日照市,职业技术学院,,41,41,32,22,15,43,,58,55,27,21,9,9,0.6,0.6
2026-01-01T2100,3604A,119.3267,35.1043,日照市,岚山环保分局,细颗粒物(PM2.5),52,51,41,36,28,51,,64,60,26,22,19,16,1.0,1.1
2026-01-01T2100,1835A,111.1922,34.7752,三门峡市,市政府,细颗粒物(PM2.5),98,,46,73,49,36,,44,44,26,20,6,8,0.6,0.5
2026-01-01T2100,1836A,111.1588,34.794,三门峡市,开发区,细颗粒物(PM2.5),103,82,58,77,46,37,,44,42,21,18,7,8,0.6,0.5
2026-01-01T2100,3039A,111.1911,34.7829,三门峡市,三门峡市第一小学,细颗粒物(PM2.5),99,,47,74,46,35,,42,42,24,18,5,7,0.7,0.6
2026-01-01T2100,3598A,111.1031,34.719,三门峡市,富达温泉假日酒店,细颗粒物(PM2.5),97,78,53,72,48,27,,45,40,44,28,14,13,0.9,0.6
2026-01-01T2100,2324A,117.621,26.2626,三明市,三钢,,26,,30,18,23,33,,62,44,13,15,4,7,0.6,0.6
2026-01-01T2100,2325A,117.6352,26.2714,三明市,三明二中,,25,17,29,17,20,26,,62,42,16,12,3,7,0.7,0.6
2026-01-01T2100,2326A,117.6028,26.2377,三明市,三元区政府,,22,,26,15,21,33,,63,47,16,14,4,7,0.8,0.5
2026-01-01T2100,1877A,109.4962,18.2682,三亚市,河西子站,,44,44,37,19,19,84,,96,93,6,8,4,4,0.4,0.4
2026-01-01T2100,3540A,109.7348,18.3443,三亚市,君悦子站,,35,35,38,18,20,83,,94,90,6,10,5,5,0.4,0.5
2026-01-01T2100,4135A,109.1714,18.3739,三亚市,城东小学站,细颗粒物(PM2.5),55,41,33,39,27,65,,103,98,19,11,/,/,/,/
2026-01-01T2100,2624A,91.7592,29.234,山南市,山南监测站,,37,37,29,16,14,58,,85,83,26,12,6,5,0.5,0.3
2026-01-01T2100,2625A,91.7701,29.2436,山南市,山南人民医院,,25,25,15,16,8,64,,81,79,21,9,3,2,0.5,0.3
2026-01-01T2100,1674A,116.6795,23.3666,汕头市,金平子站,,34,34,31,20,16,83,,102,100,15,15,5,5,0.6,0.6
2026-01-01T2100,1675A,116.7248,23.3632,汕头市,龙湖子站,,33,33,27,15,14,83,,98,97,12,11,9,10,/,/
2026-01-01T2100,1676A,116.7257,23.2774,汕头市,濠江子站,,28,28,23,17,14,82,,95,94,11,12,6,7,/,/
2026-01-01T2100,1677A,116.7518,23.4712,汕头市,澄海子站,,38,32,37,26,24,70,,100,96,13,17,6,7,0.7,0.6
2026-01-01T2100,1678A,116.6088,23.2539,汕头市,潮阳子站,,32,29,25,22,12,74,,104,101,16,11,6,6,0.6,0.4
2026-01-01T2100,3444A,116.4539,23.2684,汕头市,潮南峡山,,,76,34,64,20,54,,104,97,15,14,8,9,,0.5
2026-01-01T2100,3624A,116.4069,23.2533,汕头市,潮南子站,颗粒物(PM10),63,75,44,44,21,49,,99,89,18,17,7,7,/,/
2026-01-01T2100,1693A,115.3653,22.7751,汕尾市,市环保局,细颗粒物(PM2.5),67,50,36,48,25,66,,95,91,12,14,7,7,0.7,0.5
2026-01-01T2100,1695A,115.362,22.7926,汕尾市,新城中学,细颗粒物(PM2.5),63,,37,45,25,69,,101,93,10,11,4,5,0.5,0.4
2026-01-01T2100,2645A,109.9155,33.8714,商洛市,监测站,细颗粒物(PM2.5),147,,52,112,55,66,,72,72,26,14,4,5,1.0,1.1
2026-01-01T2100,3045A,109.9647,33.8486,商洛市,商州区中学,细颗粒物(PM2.5),88,,43,65,48,60,,73,73,28,17,5,5,0.9,0.8
2026-01-01T2100,2408A,115.6701,34.4283,商丘市,环境监测站,细颗粒物(PM2.5),73,,37,53,30,51,,60,60,11,12,1,3,0.6,0.5
2026-01-01T2100,2409A,115.6458,34.4047,商丘市,粮食局,细颗粒物(PM2.5),79,,37,58,31,48,,56,55,15,16,2,5,0.5,0.2
2026-01-01T2100,3171A,115.6069,34.4465,商丘市,梁园区档案局,细颗粒物(PM2.5),64,49,32,46,26,38,,52,50,20,15,4,5,0.4,0.3
2026-01-01T2100,4119A,115.6701,34.3767,商丘市,北海东路185号,细颗粒物(PM2.5),72,72,43,52,31,50,,57,57,14,15,1,3,0.7,0.6
2026-01-01T2100,4120A,115.6172,34.3704,商丘市,中山大街3号,细颗粒物(PM2.5),93,75,49,69,34,45,,54,52,15,16,1,2,0.5,0.4
2026-01-01T2100,1141A,121.401,31.2382,上海市,普陀,,26,21,17,18,10,50,,61,53,19,18,5,5,0.5,0.6
2026-01-01T2100,1142A,121.4774,31.2043,上海市,十五厂,,19,19,16,13,8,56,,60,52,14,15,5,5,0.6,0.5
2026-01-01T2100,1143A,121.4673,31.3011,上海市,虹口,,28,28,21,12,9,47,,57,45,16,15,10,9,0.3,0.3
2026-01-01T2100,1147A,121.4253,31.226,上海市,静安监测站,,,20,15,3,8,55,,63,54,13,13,6,6,,0.1
2026-01-01T2100,1148A,121.7029,31.1905,上海市,浦东川沙,,25,25,19,11,7,54,,60,54,11,13,6,6,0.4,0.4
2026-01-01T2100,1149A,121.5339,31.229,上海市,浦东新区监测站,,20,20,16,10,11,58,,59,56,15,16,5,5,0.5,0.5
2026-01-01T2100,1150A,121.5776,31.2038,上海市,浦东张江,,20,15,13,9,5,61,,63,60,9,11,6,6,0.5,0.5
2026-01-01T2100,3265A,121.4242,31.3303,上海市,宝山庙行,,,27,17,3,8,51,,56,50,12,19,6,6,,0.3
2026-01-01T2100,3266A,121.8789,31.4662,上海市,崇明上实东滩,,26,26,12,17,5,52,,63,59,6,4,4,3,0.2,0.2
2026-01-01T2100,3268A,121.316,31.2839,上海市,嘉定南翔,,22,22,15,3,3,49,,58,51,16,13,3,3,0.5,0.4
2026-01-01T2100,3269A,121.3357,30.7455,上海市,金山新城,,33,,18,23,15,51,,58,46,19,20,6,6,0.6,0.5
2026-01-01T2100,3270A,121.4996,31.0741,上海市,闵行浦江,,,23,17,8,8,57,,59,53,,14,,6,0.2,0.3
2026-01-01T2100,3271A,121.2886,31.1663,上海市,青浦徐泾,,19,19,15,11,9,46,,59,48,19,17,4,4,0.5,0.5
2026-01-01T2100,3272A,121.2193,31.0382,上海市,松江图书馆,,20,20,19,10,8,45,,59,44,20,17,6,6,0.2,0.2
2026-01-01T2100,3273A,121.3904,31.206,上海市,长宁仙霞,,23,23,17,12,8,48,,61,51,20,16,7,6,0.3,0.3
2026-01-01T2100,3274A,121.7964,31.0507,上海市,浦东惠南,,22,22,17,13,9,51,,63,52,16,14,4,3,0.4,0.5
2026-01-01T2100,3544A,121.4891,30.925,上海市,奉贤南桥新城,,19,18,20,8,11,60,,64,52,10,12,6,7,0.3,0.3
2026-01-01T2100,4183A,121.417401,31.16637,上海市,冠生园路458号,,20,20,16,11,10,57,,64,58,19,17,6,6,0.5,0.5
2026-01-01T2100,4205A,121.541914,31.268301,上海市,宁武路151号,,22,22,17,11,8,54,,56,55,15,15,5,5,0.6,0.6
2026-01-01T2100,2382A,117.9758,28.4439,上饶市,市监测站,,22,22,33,3,15,39,,60,44,15,17,3,5,/,/
2026-01-01T2100,2383A,117.9521,28.4637,上饶市,凤凰光学,,23,23,33,9,14,32,,56,38,16,17,6,7,0.5,0.6
2026-01-01T2100,3685A,117.897,28.4316,上饶市,双创科技城,,33,33,34,16,23,45,,68,50,24,24,4,4,0.5,0.5
2026-01-01T2100,4211A,118.190438,28.444845,上饶市,裕丰大道,,19,19,34,13,20,40,,59,40,18,19,6,7,0.4,0.5
2026-01-01T2100,1669A,113.5821,24.7733,韶关市,市八中,,16,16,58,10,40,27,,37,35,15,29,6,9,0.7,0.8
2026-01-01T2100,1671A,113.5916,24.7973,韶关市,园林处,,18,15,43,12,40,30,,41,38,16,27,6,8,/,/
2026-01-01T2100,1673A,113.5971,24.6864,韶关市,曲江监测站,,18,17,52,12,39,31,,34,34,15,24,7,8,0.4,0.7
2026-01-01T2100,2809A,113.6668,24.7756,韶关市,大学路288号,,19,19,47,12,38,36,,40,40,14,19,5,6,/,/
2026-01-01T2100,3622A,113.5556,24.8082,韶关市,碧湖山庄,,15,14,50,10,37,27,,38,34,15,20,5,6,0.5,0.6
2026-01-01T2100,2464A,111.5277,27.2442,邵阳市,市化工厂,,45,,18,31,17,45,,38,38,18,18,12,11,0.7,0.9
2026-01-01T2100,2466A,111.4327,27.2276,邵阳市,市环保局,,40,,13,28,15,48,,40,40,12,13,4,4,0.8,0.9
2026-01-01T2100,4218A,111.446,27.2472,邵阳市,北塔二期4-26地块,,43,,11,30,22,45,,38,38,12,14,4,4,0.9,1
2026-01-01T2100,4219A,111.4739,27.2282,邵阳市,邵水西路287号,,39,,17,27,17,46,,39,39,17,18,9,10,0.4,0.6
2026-01-01T2100,1247A,120.6053,29.9927,绍兴市,城东开发委,,43,34,24,30,13,37,,53,37,18,16,7,7,0.6,0.4
2026-01-01T2100,2921A,120.5482,30.0003,绍兴市,树下王站,,36,36,24,24,13,34,,51,33,22,18,6,6,0.5,0.4
2026-01-01T2100,3408A,120.5685,29.936,绍兴市,绍兴中专,,43,34,26,30,17,39,,54,36,14,14,7,6,0.5,0.4
2026-01-01T2100,3409A,120.4905,30.086,绍兴市,柯桥区政府,,40,36,26,28,14,31,,53,36,29,20,4,5,0.5,0.4
2026-01-01T2100,3410A,120.8751,30.0249,绍兴市,重华小学,,38,38,22,25,11,31,,58,36,23,15,6,5,0.5,0.4
2026-01-01T2100,3411A,120.837,30.0137,绍兴市,上虞中学,,38,35,21,26,11,33,,62,40,24,16,6,6,0.6,0.4
2026-01-01T2100,3560A,120.4715,30.0414,绍兴市,柯桥妇保,,39,37,27,27,13,35,,54,38,21,17,5,5,0.7,0.6
2026-01-01T2100,3658A,120.6156,30.0762,绍兴市,袍江中学,,40,40,16,21,10,38,,54,36,19,18,6,7,0.7,0.6
2026-01-01T2100,1356A,114.0948,22.5506,深圳市,通心岭子站,,49,49,47,26,26,73,,100,93,12,13,6,6,0.8,0.6
2026-01-01T2100,1357A,114.1153,22.5713,深圳市,洪湖,,47,47,51,28,27,76,,101,94,15,19,7,9,0.8,0.6
2026-01-01T2100,1358A,113.9823,22.5398,深圳市,华侨城,细颗粒物(PM2.5),53,50,46,37,29,73,,98,93,19,19,/,/,/,/
2026-01-01T2100,1359A,113.9181,22.517,深圳市,南海子站,细颗粒物(PM2.5),92,81,58,68,33,63,,87,84,20,16,6,7,0.9,0.7
2026-01-01T2100,1360A,114.2345,22.565,深圳市,盐田,,50,50,46,35,27,77,,88,83,11,27,7,9,0.7,0.6
2026-01-01T2100,1363A,114.4911,22.5381,深圳市,南澳,颗粒物(PM10),54,57,40,35,20,69,,110,100,10,9,/,/,/,/
2026-01-01T2100,1364A,114.41,22.6346,深圳市,葵涌,,42,42,34,27,21,69,,102,91,12,14,7,8,0.8,0.6
2026-01-01T2100,1365A,114.2967,22.5978,深圳市,梅沙,,42,42,46,28,26,77,,108,99,13,12,/,/,/,/
2026-01-01T2100,1366A,114.0563,22.7353,深圳市,观澜,颗粒物(PM10),54,58,83,37,52,73,,98,89,15,28,8,8,0.8,0.7
2026-01-01T2100,3305A,114.0614,22.556,深圳市,莲花,,43,43,46,28,27,75,,93,89,16,19,/,/,/,/
2026-01-01T2100,3306A,114.0144,22.6163,深圳市,民治,,44,44,52,28,33,72,,97,89,17,28,/,/,/,/
2026-01-01T2100,3307A,114.1756,22.6421,深圳市,横岗,,43,43,55,27,35,75,,104,95,14,17,/,/,/,/
2026-01-01T2100,3447A,114.344,22.7115,深圳市,坪山,,46,46,54,29,34,67,,97,84,18,24,8,9,0.8,0.7
