timepoint,stationcode,longitude,latitude,area,positionname,primarypollutant,aqi,pm10,pm10_24h,pm2_5,pm2_5_24h,o3,o3_24h,o3_8h,o3_8h_24h,no2,no2_24h,so2,so2_24h,co,co_24h
2024-11-08T1300,2566A,102.1879,31.914,阿坝藏族羌族自治州,州农科所,,26,26,22,7,7,54,,36,36,6,10,8,9,0,0
2024-11-08T1300,2568A,102.2502,31.8896,阿坝藏族羌族自治州,马师校,,14,9,13,6,13,43,,22,22,12,14,4,4,0.4,0.3
2024-11-08T1300,3994A,102.2165,31.9024,阿坝藏族羌族自治州,马尔康中学西区,,25,,17,17,14,73,,31,31,10,13,5,5,0.4,0.4
2024-11-08T1300,2695A,80.292,41.1694,阿克苏地区,电视台,颗粒物(PM10),69,87,103,31,36,64,,41,41,21,43,7,6,0.4,0.8
2024-11-08T1300,2696A,80.2613,41.1551,阿克苏地区,艺术中心,颗粒物(PM10),69,87,104,24,33,65,,47,47,22,45,4,4,0.7,1
2024-11-08T1300,2204A,105.6467,38.8363,阿拉善盟,西城区西花园,颗粒物(PM10),60,70,37,27,24,94,,72,68,14,16,18,11,1.0,0.7
2024-11-08T1300,2205A,105.6985,38.8411,阿拉善盟,蒙二幼,,47,47,37,24,17,76,,72,67,14,17,9,8,0.6,0.6
2024-11-08T1300,2206A,105.724,38.8516,阿拉善盟,环保局新楼,,49,49,27,22,12,75,,92,83,15,11,9,9,0.6,0.5
2024-11-08T1300,2708A,88.1264,47.8517,阿勒泰地区,市站,,13,13,8,3,4,37,,38,32,18,12,8,7,0.2,0.5
2024-11-08T1300,2630A,80.1161,32.5,阿里地区,阿里监测站,,25,13,18,3,8,80,,63,63,11,14,6,7,0.5,0.6
2024-11-08T1300,3192A,80.0903,32.5028,阿里地区,阿里藏医院,,35,,17,24,9,93,,61,61,8,15,7,7,0.5,0.6
2024-11-08T1300,2642A,109.0318,32.6537,安康市,香溪洞,颗粒物(PM10),56,62,63,35,35,59,,40,40,17,21,10,10,0.5,0.5
2024-11-08T1300,2644A,109.0072,32.6975,安康市,汉滨区检察院,细颗粒物(PM2.5),85,94,76,63,44,40,,24,24,36,31,8,7,0.7,0.6
2024-11-08T1300,4054A,109.0325,32.6913,安康市,市邮政管理局,"颗粒物(PM10),细颗粒物(PM2.5)",67,84,81,48,43,44,,25,25,28,34,10,10,0.7,0.8
2024-11-08T1300,2291A,117.0809,30.5177,安庆市,环科院,,49,48,48,34,31,98,,53,53,20,24,11,11,0.6,0.6
2024-11-08T1300,2292A,117.0331,30.5119,安庆市,马山宾馆,颗粒物(PM10),51,52,47,30,28,110,,65,65,22,29,10,10,0.4,0.4
2024-11-08T1300,2294A,116.9896,30.6145,安庆市,安庆大学,,40,40,50,26,30,99,,58,58,17,17,10,9,0.5,0.5
2024-11-08T1300,3173A,117.0598,30.5351,安庆市,市人大,颗粒物(PM10),51,52,45,30,28,103,,60,60,23,34,12,13,0.4,0.4
2024-11-08T1300,3122A,105.9606,26.2611,安顺市,伍家关,,,38,62,26,53,,,67,67,10,17,8,20,,0.8
2024-11-08T1300,3123A,105.9408,26.2431,安顺市,凤凰山,,37,37,62,23,50,115,,80,80,11,16,12,18,0.5,0.6
2024-11-08T1300,3124A,105.9439,26.2564,安顺市,金钟山,,39,35,69,27,56,115,,82,82,10,13,12,20,0.6,0.7
2024-11-08T1300,3125A,105.8983,26.2481,安顺市,娄家坡,,40,34,69,28,55,115,,77,77,8,16,10,20,0.4,0.6
2024-11-08T1300,1818A,114.4839,36.0621,安阳市,棉研所,细颗粒物(PM2.5),64,50,80,46,59,100,,56,56,24,36,9,8,0.3,0.2
2024-11-08T1300,1819A,114.3551,36.1017,安阳市,红庙街,,44,44,66,26,47,98,,61,61,13,25,4,3,0.4,0.4
2024-11-08T1300,1820A,114.361,36.0681,安阳市,银杏小区,颗粒物(PM10),53,56,72,28,45,99,,62,62,14,26,4,3,0.4,0.6
2024-11-08T1300,3141A,114.3922,36.0878,安阳市,信访局,,48,44,75,33,49,99,,60,60,13,25,4,4,0.5,0.5
2024-11-08T1300,3669A,114.4705,36.0637,安阳市,左辅环卫站,颗粒物(PM10),58,66,92,33,50,97,,54,54,14,26,4,3,0.6,0.6
2024-11-08T1300,3703A,114.2917,36.0949,安阳市,安钢职工学校,,50,40,76,35,54,95,,54,54,16,31,4,4,0.4,0.4
2024-11-08T1300,1748A,123.044,41.1196,鞍山市,深沟寺,,47,47,47,25,28,106,,85,85,15,14,7,5,0.9,0.7
2024-11-08T1300,1749A,123.011,41.0931,鞍山市,太阳城,,42,42,46,26,30,106,,94,94,20,17,8,7,0.7,0.5
2024-11-08T1300,1750A,123.0485,41.1442,鞍山市,太平,,48,48,48,29,29,97,,74,74,23,23,12,11,0.7,0.6
2024-11-08T1300,1751A,122.9642,41.0971,鞍山市,铁西三道街,颗粒物(PM10),53,56,67,28,36,102,,64,64,22,47,9,102,0.6,0.6
2024-11-08T1300,1752A,122.9341,41.0833,鞍山市,铁西工业园区,颗粒物(PM10),52,54,70,29,42,105,,70,70,15,32,10,12,0.7,1.4
2024-11-08T1300,1753A,123.022,41.0821,鞍山市,明达新区,,41,41,48,25,31,105,,95,95,13,12,10,9,0.7,0.6
2024-11-08T1300,2195A,107.4212,40.761,巴彦淖尔市,附二中,颗粒物(PM10),62,73,147,40,74,73,,24,24,11,50,9,13,0.6,1
2024-11-08T1300,2196A,107.37,40.7372,巴彦淖尔市,市环保大楼,颗粒物(PM10),67,83,122,40,67,74,,28,28,12,49,7,8,0.3,0.8
2024-11-08T1300,1956A,86.1472,41.7538,巴音郭楞蒙古自治州,孔雀公园,颗粒物(PM10),60,69,125,18,35,80,,85,65,22,28,4,7,0.4,0.4
2024-11-08T1300,1957A,86.1972,41.7166,巴音郭楞蒙古自治州,棉纺厂,颗粒物(PM10),62,74,137,18,35,71,,78,66,30,24,2,4,0.4,0.4
2024-11-08T1300,1958A,86.2357,41.7173,巴音郭楞蒙古自治州,经济开发区,,45,45,108,28,36,89,,88,82,13,12,2,4,0.5,0.5
2024-11-08T1300,2914A,106.7677,31.8794,巴中市,苏山坪,,50,49,41,35,32,36,,60,54,20,11,4,5,0.6,0.5
2024-11-08T1300,3182A,106.7656,31.8545,巴中市,丽阳花园,细颗粒物(PM2.5),114,,57,86,48,6,,5,5,37,32,6,4,1.2,0.8
2024-11-08T1300,3183A,106.7418,31.8654,巴中市,圣泉水务公司,,46,43,49,32,37,8,,4,4,26,30,4,4,0.6,0.7
2024-11-08T1300,3616A,106.7616,31.8344,巴中市,市中心医院,细颗粒物(PM2.5),62,61,69,44,49,6,,3,3,34,26,5,4,0.9,0.9
2024-11-08T1300,2235A,122.7911,45.6077,白城市,洮北区环保局,细颗粒物(PM2.5),159,131,99,121,96,75,,40,40,31,32,9,7,0.5,0.5
2024-11-08T1300,2236A,122.8738,45.5725,白城市,市环保局,细颗粒物(PM2.5),152,136,118,116,101,73,,40,40,26,34,5,5,0.7,0.7
2024-11-08T1300,2231A,126.4219,41.9171,白山市,喜丰,,,,70,,24,55,,22,22,28,39,,32,0.6,0.6
2024-11-08T1300,2232A,126.4077,41.9419,白山市,环保局,颗粒物(PM10),61,71,62,37,24,41,,25,25,42,34,14,13,0.8,0.8
2024-11-08T1300,2647A,104.1724,36.5446,白银市,第三小学,细颗粒物(PM2.5),85,83,65,63,49,64,,22,22,29,36,42,45,1.1,1.2
2024-11-08T1300,2648A,104.1465,36.5482,白银市,动力公司,细颗粒物(PM2.5),84,69,62,62,41,66,,33,33,23,25,37,24,1.0,1.3
2024-11-08T1300,2512A,106.6103,23.9011,百色市,市监测站,,40,40,51,24,36,106,,42,42,8,17,5,7,0.7,0.8
2024-11-08T1300,2513A,106.6538,23.8859,百色市,市中心血站,颗粒物(PM10),54,57,77,36,46,107,,46,46,8,29,6,9,0.6,0.8
2024-11-08T1300,3406A,106.6085,23.8798,百色市,祈福高中,,49,49,67,29,34,104,,44,44,9,26,5,6,0.6,0.7
2024-11-08T1300,2270A,117.396,32.939,蚌埠市,工人疗养院,,29,28,47,12,23,92,,54,54,11,39,5,8,0.3,0.4
2024-11-08T1300,2271A,117.3605,32.9427,蚌埠市,百货大楼,,28,28,43,7,17,89,,53,53,14,36,6,6,0.3,0.4
2024-11-08T1300,2273A,117.4185,32.8911,蚌埠市,蚌埠学院,,30,24,41,7,22,95,,63,63,11,26,6,6,0.2,0.3
2024-11-08T1300,2274A,117.3533,32.9673,蚌埠市,淮上区政府,,31,31,48,12,24,88,,53,53,13,31,7,7,0.2,0.3
2024-11-08T1300,2275A,117.3145,32.8977,蚌埠市,高新区,,30,24,42,3,22,93,,66,66,10,25,6,6,0.2,0.3
2024-11-08T1300,3715A,117.3092,32.9314,蚌埠市,蚌埠田家炳中学,,30,28,40,8,18,93,,72,72,11,22,5,5,0.2,0.3
2024-11-08T1300,1585A,109.8756,40.6532,包头市,市环境监测站,颗粒物(PM10),60,70,93,33,47,62,,24,24,34,68,17,20,1.0,1.8
2024-11-08T1300,1587A,109.9991,40.5842,包头市,包头八中,细颗粒物(PM2.5),74,76,109,54,67,58,,28,28,32,67,19,33,1.0,1.3
2024-11-08T1300,1588A,109.8538,40.6821,包头市,青山宾馆,细颗粒物(PM2.5),80,71,90,59,65,63,,21,21,32,62,20,20,1.0,1.6
2024-11-08T1300,1589A,109.8642,40.6288,包头市,惠龙物流,颗粒物(PM10),60,70,90,30,46,62,,25,25,30,70,15,23,0.8,1.3
2024-11-08T1300,1590A,110.0377,40.5546,包头市,东河鸿龙湾,颗粒物(PM10),64,78,81,40,51,60,,24,24,26,56,17,15,0.9,1
2024-11-08T1300,3283A,109.9154,40.5685,包头市,滨河大厦,颗粒物(PM10),59,68,79,41,44,66,,36,36,31,55,19,18,0.8,0.9
2024-11-08T1300,3419A,109.9447,40.6261,包头市,包头市委党校,颗粒物(PM10),67,84,91,42,45,61,,26,26,33,66,26,25,1.1,1.6
2024-11-08T1300,3683A,109.8331,40.6576,包头市,昆区政府,细颗粒物(PM2.5),82,69,101,60,77,61,,21,21,31,67,16,21,0.9,1.8
2024-11-08T1300,1930A,107.185,34.3063,宝鸡市,庙沟村,细颗粒物(PM2.5),139,133,122,106,86,77,,53,50,22,23,12,10,0.9,0.8
2024-11-08T1300,1931A,107.0708,34.3017,宝鸡市,竹园沟,细颗粒物(PM2.5),183,152,119,138,110,100,,31,31,20,22,12,7,0.9,0.8
2024-11-08T1300,1932A,107.1906,34.3672,宝鸡市,三陆医院,细颗粒物(PM2.5),178,164,140,134,127,96,,25,25,31,46,12,9,1.0,1
2024-11-08T1300,1933A,107.1431,34.3547,宝鸡市,监测站,细颗粒物(PM2.5),183,173,128,138,114,84,,29,29,36,33,14,8,1.0,0.9
2024-11-08T1300,1934A,107.1186,34.3739,宝鸡市,技工学校,细颗粒物(PM2.5),166,130,120,126,116,92,,34,34,43,37,14,10,1.1,1
2024-11-08T1300,1935A,107.3906,34.3528,宝鸡市,陈仓区环保局家属楼,细颗粒物(PM2.5),155,137,140,118,122,102,,24,24,27,50,11,8,0.8,0.9
2024-11-08T1300,1936A,107.2058,34.3497,宝鸡市,文理学院,细颗粒物(PM2.5),180,156,127,136,115,76,,23,23,41,40,15,11,1.0,0.9
2024-11-08T1300,1937A,107.2386,34.3622,宝鸡市,三迪小学,细颗粒物(PM2.5),170,160,133,129,119,92,,24,24,39,56,13,10,1.0,1
2024-11-08T1300,1051A,115.493,38.8632,保定市,游泳馆,细颗粒物(PM2.5),144,153,153,110,116,49,,20,20,62,93,6,5,0.5,0.7
2024-11-08T1300,1052A,115.5213,38.8959,保定市,华电二区,细颗粒物(PM2.5),147,147,147,112,124,37,,13,13,67,85,8,7,0.7,0.8
2024-11-08T1300,1053A,115.4713,38.9108,保定市,接待中心,细颗粒物(PM2.5),169,161,157,128,112,42,,15,15,60,80,6,6,0.6,0.6
2024-11-08T1300,1054A,115.4612,38.8416,保定市,地表水厂,细颗粒物(PM2.5),159,151,163,121,119,48,,18,18,61,88,4,3,0.4,0.6
2024-11-08T1300,3581A,115.31981,38.95208,保定市,满城区生态环境分局,,,,162,,107,69,,23,23,68,86,8,6,,0.8
2024-11-08T1300,3582A,115.47694,38.76408,保定市,清苑区第二中学,细颗粒物(PM2.5),104,122,168,78,110,63,,20,20,41,84,6,7,0.5,0.8
2024-11-08T1300,3583A,115.62909,39.02311,保定市,徐水物探局,细颗粒物(PM2.5),153,155,156,117,114,38,,12,12,69,77,9,8,0.3,0.6
2024-11-08T1300,4004A,115.4202,38.8656,保定市,双鹰农机,细颗粒物(PM2.5),168,141,154,127,110,48,,22,22,65,78,6,5,0.7,0.7
2024-11-08T1300,4034A,115.5150,38.8590,保定市,植保所站,细颗粒物(PM2.5),117,126,164,88,122,39,,13,13,54,79,10,9,0.4,0.7
2024-11-08T1300,2594A,99.1678,25.1081,保山市,市环境监测站,,17,15,15,3,5,53,,42,42,6,11,5,4,0.5,0.6
2024-11-08T1300,2595A,99.1711,25.1328,保山市,市环保局,,,14,13,9,9,59,,49,49,3,5,,5,0.5,0.5
2024-11-08T1300,1866A,109.2262,21.588,北海市,牛尾岭水库,,,35,39,26,34,113,,60,60,,6,8,7,0.6,0.6
2024-11-08T1300,1867A,109.1436,21.4086,北海市,海滩公园,颗粒物(PM10),51,52,50,32,34,156,,114,114,15,14,16,14,0.8,0.8
2024-11-08T1300,1868A,109.0981,21.4661,北海市,新市环保局,,46,44,54,31,40,145,,104,104,12,18,12,12,0.6,0.7
2024-11-08T1300,1869A,109.1778,21.5233,北海市,北海工业园,颗粒物(PM10),53,55,56,22,39,133,,90,90,9,20,11,14,0.4,0.6
2024-11-08T1300,3400A,109.1911,21.4415,北海市,龙潭自来水厂,,47,37,56,30,47,148,,86,86,13,16,14,11,0.7,0.7
2024-11-08T1300,1001A,116.3621,39.8784,北京市,万寿西宫,细颗粒物(PM2.5),178,189,160,134,107,37,,12,12,69,87,7,5,1.0,1.1
2024-11-08T1300,1002A,116.2202,40.2915,北京市,定陵,细颗粒物(PM2.5),182,172,134,137,99,48,,17,17,36,38,4,3,0.8,0.7
2024-11-08T1300,1003A,116.4174,39.9289,北京市,东四,细颗粒物(PM2.5),166,188,182,126,112,37,,13,13,71,81,10,9,1.0,1.3
2024-11-08T1300,1004A,116.4072,39.8863,北京市,天坛,细颗粒物(PM2.5),180,185,136,136,105,33,,10,10,80,59,4,2,1.0,1.1
2024-11-08T1300,1005A,116.462,39.9365,北京市,农展馆,细颗粒物(PM2.5),169,181,154,128,102,38,,12,12,73,83,5,3,0.8,1
2024-11-08T1300,1006A,116.3392,39.9295,北京市,官园,细颗粒物(PM2.5),165,182,156,125,101,34,,12,12,66,82,10,8,1.0,1.2
2024-11-08T1300,1007A,116.2878,39.9611,北京市,海淀万柳,细颗粒物(PM2.5),158,177,139,120,87,36,,16,16,52,52,5,4,0.9,1
2024-11-08T1300,1008A,116.6636,40.135,北京市,顺义新城,细颗粒物(PM2.5),180,192,152,136,102,57,,20,20,63,63,8,3,0.9,0.8
2024-11-08T1300,1009A,116.6275,40.3275,北京市,怀柔镇,细颗粒物(PM2.5),148,154,123,113,90,80,,30,30,27,42,6,4,0.5,0.5
2024-11-08T1300,1010A,116.2296,40.217,北京市,昌平镇,细颗粒物(PM2.5),156,182,145,119,89,64,,20,20,52,62,9,7,0.7,0.7
2024-11-08T1300,1011A,116.3966,39.9821,北京市,奥体中心,细颗粒物(PM2.5),162,185,151,123,97,27,,11,11,74,85,4,4,1.2,1.2
2024-11-08T1300,1012A,116.184,39.9136,北京市,古城,细颗粒物(PM2.5),175,198,170,132,106,41,,13,13,35,46,8,6,1.1,1
2024-11-08T1300,3281A,115.9718,40.4529,北京市,延庆夏都,细颗粒物(PM2.5),169,165,124,128,89,99,,43,43,16,32,4,3,0.5,0.6
2024-11-08T1300,3417A,117.0709,40.1465,北京市,平谷新城,细颗粒物(PM2.5),130,135,147,99,108,55,,26,26,42,37,5,3,0.9,0.7
2024-11-08T1300,3418A,116.8336,40.4095,北京市,密云新城,细颗粒物(PM2.5),143,152,148,109,96,79,,36,36,25,46,4,3,0.6,0.6
2024-11-08T1300,3671A,116.088,39.9726,北京市,门头沟三家店,细颗粒物(PM2.5),173,184,166,131,98,57,,24,24,49,64,9,7,0.7,0.7
2024-11-08T1300,3672A,116.1541,39.8204,北京市,丰台云岗,细颗粒物(PM2.5),196,193,156,147,110,41,,15,15,61,78,7,5,0.8,0.7
2024-11-08T1300,3673A,116.6804,39.9081,北京市,通州东关,细颗粒物(PM2.5),204,226,190,154,121,36,,10,10,85,84,6,5,0.9,1
2024-11-08T1300,3674A,115.9577,39.7603,北京市,房山燕山,细颗粒物(PM2.5),190,190,146,143,107,67,,26,26,36,53,2,3,0.7,0.7
2024-11-08T1300,3675A,116.4672,39.7733,北京市,大兴旧宫,颗粒物(PM10),236,375,176,137,100,37,,10,10,73,57,1,2,0.8,0.8
2024-11-08T1300,3694A,115.986,40.4563,北京市,延庆石河营,细颗粒物(PM2.5),165,169,116,125,84,99,,40,40,16,34,2,2,0.6,0.6
2024-11-08T1300,3695A,116.6151,40.3053,北京市,怀柔新城,细颗粒物(PM2.5),155,160,134,118,93,67,,30,30,29,38,3,3,0.7,0.6
2024-11-08T1300,3696A,116.2545,39.8768,北京市,丰台小屯,细颗粒物(PM2.5),170,186,164,129,101,35,,11,11,62,81,5,4,1.0,1.1
2024-11-08T1300,3697A,116.84,40.3844,北京市,密云镇,细颗粒物(PM2.5),159,166,152,121,100,68,,22,22,24,54,1,3,0.6,0.7
2024-11-08T1300,1761A,123.8275,41.3064,本溪市,大峪,,42,42,48,28,31,101,,52,52,13,25,13,11,0.7,0.8
2024-11-08T1300,1762A,123.7567,41.3325,本溪市,溪湖,颗粒物(PM10),53,56,76,28,47,90,,58,58,20,30,14,12,0.9,1.1
2024-11-08T1300,1763A,123.7169,41.3094,本溪市,彩屯,细颗粒物(PM2.5),57,56,72,40,48,79,,38,38,27,35,18,15,1.4,1.6
2024-11-08T1300,1764A,123.7669,41.2864,本溪市,东明,,39,34,44,27,31,94,,57,57,17,29,10,10,0.7,0.8
2024-11-08T1300,1765A,123.7992,41.2664,本溪市,新立屯,,31,30,31,17,19,97,,85,85,19,19,7,7,0.6,0.6
2024-11-08T1300,1766A,123.8142,41.3472,本溪市,威宁,颗粒物(PM10),56,61,67,24,32,98,,34,34,14,28,11,9,0.8,0.9
2024-11-08T1300,2587A,105.2864,27.3125,毕节市,八中,细颗粒物(PM2.5),87,76,68,64,57,35,,59,48,28,19,7,8,0.8,0.7
2024-11-08T1300,2588A,105.31,27.2944,毕节市,师专,细颗粒物(PM2.5),87,73,65,64,55,31,,63,49,31,20,6,9,0.8,0.7
2024-11-08T1300,3537A,105.3631,27.3533,毕节市,长征村,细颗粒物(PM2.5),93,80,59,69,50,60,,66,64,10,16,8,9,0.6,0.7
2024-11-08T1300,1629A,118.0018,37.3617,滨州市,第二水厂,颗粒物(PM10),69,88,101,46,54,114,,44,44,33,65,15,13,0.7,0.8
2024-11-08T1300,1630A,117.9776,37.393,滨州市,北中新校,,,88,98,36,48,109,,44,44,,70,12,9,0.8,1
2024-11-08T1300,3514A,117.9378,37.3956,滨州市,中海酒店,颗粒物(PM10),64,78,94,39,51,128,,61,61,27,56,11,10,0.6,0.9
2024-11-08T1300,3515A,117.9378,37.3553,滨州市,开发区一中,颗粒物(PM10),63,75,103,39,51,120,,55,55,27,69,12,13,0.6,0.8
2024-11-08T1300,3516A,118.0917,37.694,滨州市,金海六路,"颗粒物(PM10),细颗粒物(PM2.5)",64,78,98,46,50,133,,53,53,22,55,12,11,0.7,0.7
2024-11-08T1300,4028A,117.9956,37.3753,滨州市,滨州市西街道办事处,细颗粒物(PM2.5),73,88,102,53,62,120,,49,49,34,64,13,11,0.7,0.9
2024-11-08T1300,2311A,115.8072,33.8399,亳州市,污水处理厂,,39,39,56,14,34,100,,51,51,13,24,6,9,0.4,0.5
2024-11-08T1300,2312A,115.7789,33.8518,亳州市,三国揽胜宫,,47,47,59,22,34,103,,54,54,14,21,3,5,0.3,0.5
2024-11-08T1300,3332A,115.7633,33.8034,亳州市,亳州学院,,46,46,62,13,27,100,,54,54,15,25,4,4,0.4,0.4
2024-11-08T1300,2693A,82.0485,44.8556,博尔塔拉蒙古自治州,市党校,,26,26,22,15,15,40,,43,42,12,12,4,4,0.2,0.3
2024-11-08T1300,2694A,82.0806,44.8969,博尔塔拉蒙古自治州,市环保局,,36,36,27,16,11,35,,37,35,10,10,3,2,0.3,0.2
2024-11-08T1300,1071A,116.8842,38.2991,沧州市,沧县城建局,颗粒物(PM10),51,52,73,22,43,99,,54,54,17,36,6,7,0.5,0.6
2024-11-08T1300,1072A,116.8584,38.3254,沧州市,电视转播站,颗粒物(PM10),52,54,76,24,43,107,,58,58,13,32,5,5,0.4,0.5
2024-11-08T1300,1073A,116.8709,38.3228,沧州市,市环保局,颗粒物(PM10),52,53,74,31,48,95,,51,51,14,32,5,6,0.4,0.6
2024-11-08T1300,2622A,97.1806,31.1273,昌都市,昌都监测站,,23,16,26,3,16,71,,46,46,6,23,8,8,0.6,1
2024-11-08T1300,3719A,97.1714,31.1406,昌都市,昌都会议中心,,24,6,11,3,7,76,,55,55,8,8,6,6,0.6,0.5
2024-11-08T1300,2690A,88.1236,43.8886,昌吉回族自治州,天山天池,,18,10,16,7,9,56,,60,57,5,8,8,8,0.5,0.6
2024-11-08T1300,2692A,87.2717,44.0297,昌吉回族自治州,新区政务中心,,20,15,22,11,14,61,,49,46,12,15,5,6,0.2,0.3
2024-11-08T1300,3613A,87.3095,44.0142,昌吉回族自治州,亚心广场,,19,9,20,3,8,58,,52,49,14,17,1,2,0.4,0.4
2024-11-08T1300,1119A,125.3325,43.9166,长春市,食品厂,细颗粒物(PM2.5),80,78,64,59,45,60,,22,22,40,44,13,12,0.8,0.6
2024-11-08T1300,1120A,125.2863,43.9027,长春市,客车厂,细颗粒物(PM2.5),92,,57,68,47,72,,28,28,30,44,14,18,0.6,0.5
2024-11-08T1300,1121A,125.2841,43.8463,长春市,邮电学院,细颗粒物(PM2.5),87,68,53,64,40,79,,33,33,34,38,16,11,0.7,0.5
2024-11-08T1300,1122A,125.3716,43.8772,长春市,劳动公园,细颗粒物(PM2.5),87,83,63,64,43,83,,33,33,28,40,17,11,0.7,0.9
2024-11-08T1300,1123A,125.3297,43.8805,长春市,园林处,细颗粒物(PM2.5),92,78,59,68,41,70,,30,30,32,38,14,10,0.8,0.7
2024-11-08T1300,1124A,125.4605,43.79,长春市,净月潭,细颗粒物(PM2.5),79,70,42,58,34,87,,51,51,12,11,11,8,0.6,0.5
2024-11-08T1300,1126A,125.3863,43.8447,长春市,经开区环卫处,细颗粒物(PM2.5),84,79,56,62,36,74,,24,24,30,41,15,12,0.7,0.6
2024-11-08T1300,1127A,125.245,43.7783,长春市,高新区管委会,细颗粒物(PM2.5),82,,49,60,38,83,,38,38,23,30,12,9,0.6,0.5
2024-11-08T1300,1128A,125.1761,43.8325,长春市,岱山公园,细颗粒物(PM2.5),83,62,54,61,40,79,,31,31,19,38,12,9,0.7,0.5
2024-11-08T1300,1335A,113.0833,28.2325,长沙市,经开区环保局,颗粒物(PM10),54,58,72,26,38,103,,78,78,38,40,4,4,0.4,0.5
2024-11-08T1300,1336A,112.8872,28.2189,长沙市,高开区环保局,颗粒物(PM10),52,54,78,24,47,123,,65,65,22,44,7,7,0.4,0.6
2024-11-08T1300,1337A,113.0792,28.2053,长沙市,马坡岭,,48,48,69,27,44,120,,70,70,20,46,6,6,0.4,0.5
2024-11-08T1300,1338A,112.9394,28.19,长沙市,湖南师范大学,颗粒物(PM10),53,56,69,30,36,122,,76,76,25,29,7,7,0.5,0.5
2024-11-08T1300,1339A,113.0178,28.1322,长沙市,雨花区环保局,,47,47,62,20,29,129,,72,72,15,36,7,8,0.4,0.5
2024-11-08T1300,1340A,112.9792,28.2597,长沙市,伍家岭,颗粒物(PM10),56,61,91,23,49,120,,47,47,23,47,4,5,0.6,0.8
2024-11-08T1300,1341A,113.0014,28.1944,长沙市,火车新站,颗粒物(PM10),58,65,72,29,38,104,,75,75,29,38,4,5,0.4,0.5
2024-11-08T1300,1342A,112.9844,28.1178,长沙市,天心区环保局,,45,45,67,22,33,126,,74,74,27,48,6,7,0.4,0.4
2024-11-08T1300,1344A,112.9581,28.3611,长沙市,沙坪,,39,32,49,27,39,123,,74,74,17,16,10,9,0.2,0.4
2024-11-08T1300,1727A,113.1147,36.1547,长治市,清华站,细颗粒物(PM2.5),122,139,78,92,63,28,,44,19,66,36,15,10,1.1,0.7
2024-11-08T1300,1728A,113.1031,36.1989,长治市,监测站,细颗粒物(PM2.5),138,126,75,105,65,39,,35,10,56,31,51,15,2.1,1
2024-11-08T1300,1730A,113.0886,36.2125,长治市,审计局,细颗粒物(PM2.5),125,100,77,95,70,62,,42,23,39,28,46,11,1.7,0.9
2024-11-08T1300,1731A,113.0844,36.1856,长治市,长治八中,,,146,94,,43,33,,38,8,62,36,21,9,1.6,0.8
2024-11-08T1300,2845A,113.1569,36.1911,长治市,德盛苑,细颗粒物(PM2.5),144,152,83,110,68,47,,75,36,54,28,30,13,1.9,1
2024-11-08T1300,3568A,113.06,36.0464,长治市,向阳小学,细颗粒物(PM2.5),115,142,98,87,69,54,,73,37,58,38,13,11,1.0,0.7
2024-11-08T1300,3569A,112.8792,36.3144,长治市,屯留一中,细颗粒物(PM2.5),88,84,80,65,66,85,,32,32,37,34,23,9,0.6,0.9
2024-11-08T1300,3570A,113.235,36.3489,长治市,潞城四中,细颗粒物(PM2.5),129,175,107,98,73,65,,31,31,58,58,18,12,1.7,1.1
2024-11-08T1300,1854A,111.6975,28.9703,常德市,市二中,,,87,94,56,57,,,36,36,23,37,9,8,0.7,0.7
2024-11-08T1300,3138A,111.7153,29.0289,常德市,武陵区永安,颗粒物(PM10),55,60,81,24,49,150,,70,70,15,40,7,7,0.7,0.9
2024-11-08T1300,3139A,111.6892,28.9881,常德市,鼎城区玉霞,细颗粒物(PM2.5),79,101,101,58,61,127,,55,55,24,40,10,9,0.8,0.8
2024-11-08T1300,3140A,111.6625,29.0531,常德市,武陵区长庚,颗粒物(PM10),61,71,87,40,53,141,,69,69,20,36,7,6,0.6,0.8
2024-11-08T1300,1196A,119.9633,31.762,常州市,市监测站,,31,31,39,15,18,90,,48,48,24,41,12,9,0.9,0.6
2024-11-08T1300,1200A,119.9468,31.7069,常州市,武进监测站,,33,33,32,13,18,91,,54,54,15,30,10,6,0.7,0.6
2024-11-08T1300,1201A,119.9255,31.9087,常州市,安家,,31,31,34,14,17,94,,63,63,18,37,8,8,0.4,0.4
2024-11-08T1300,3002A,119.9805,31.8174,常州市,行政中心,,29,29,33,10,16,85,,46,46,18,40,11,9,0.6,0.6
2024-11-08T1300,3003A,120.0522,31.7748,常州市,经开区,,36,36,45,11,20,94,,46,46,20,61,10,10,0.6,0.5
2024-11-08T1300,3010A,119.9025,31.7964,常州市,钟楼,,31,31,40,16,17,88,,49,49,22,38,9,9,0.7,0.6
2024-11-08T1300,3429A,119.8598,31.7066,常州市,武进经发区,,37,37,41,17,19,93,,47,47,19,41,12,10,0.9,0.6
2024-11-08T1300,3430A,119.5826,31.7245,常州市,金坛城区,,29,26,40,12,20,90,,56,56,20,35,8,8,0.4,0.4
2024-11-08T1300,2220A,120.4318,41.5881,朝阳市,西梁,细颗粒物(PM2.5),170,187,153,129,109,49,,16,16,48,54,26,22,1.6,1.5
2024-11-08T1300,2221A,120.4521,41.5646,朝阳市,河畔小区,细颗粒物(PM2.5),144,,105,110,85,40,,18,18,52,58,21,16,1.7,1.6
2024-11-08T1300,2222A,120.4176,41.5648,朝阳市,八里堡,细颗粒物(PM2.5),160,168,124,122,92,40,,13,13,61,56,34,19,1.7,1.7
2024-11-08T1300,2223A,120.3806,41.5969,朝阳市,农业园区,细颗粒物(PM2.5),186,152,106,140,112,46,,16,16,64,57,32,16,1.9,1.4
2024-11-08T1300,1705A,116.6367,23.6719,潮州市,西园路,,26,24,32,13,20,83,,63,63,6,11,5,5,0.1,0.2
2024-11-08T1300,3026A,116.6183,23.6608,潮州市,市政府,,28,28,34,10,17,87,,64,64,6,15,6,8,0.4,0.5
2024-11-08T1300,4036A,116.6461,23.6761,潮州市,金山,,34,34,29,16,17,86,,64,64,5,11,8,9,0.5,0.6
2024-11-08T1300,2472A,113.0073,25.9061,郴州市,马头岭,颗粒物(PM10),52,53,55,28,25,121,,62,62,16,24,50,20,0.7,0.7
2024-11-08T1300,2473A,113.0116,25.8226,郴州市,市职中,,50,46,48,35,35,133,,67,67,6,19,31,16,0.7,0.7
2024-11-08T1300,2474A,113.0161,25.8001,郴州市,兴隆步行街,细颗粒物(PM2.5),58,62,55,41,35,126,,64,64,12,25,28,16,0.6,0.6
2024-11-08T1300,2475A,113.0383,25.8071,郴州市,市审计局,细颗粒物(PM2.5),55,55,49,39,35,130,,69,69,14,24,28,18,0.6,0.6
2024-11-08T1300,2476A,113.0348,25.7759,郴州市,市环保局,颗粒物(PM10),55,59,57,37,35,122,,56,56,13,29,32,16,0.7,0.7
2024-11-08T1300,1431A,103.9728,30.7236,成都市,金泉两河,细颗粒物(PM2.5),98,110,77,73,57,14,,8,8,37,40,3,3,0.6,0.6
2024-11-08T1300,1432A,104.176,30.6872,成都市,十里店,细颗粒物(PM2.5),93,102,65,69,48,12,,7,7,48,39,2,2,0.7,0.6
2024-11-08T1300,1433A,104.079,30.5706,成都市,三瓦窑,细颗粒物(PM2.5),103,102,73,77,56,24,,10,10,35,37,2,2,0.7,0.6
2024-11-08T1300,1434A,104.1114,30.63,成都市,沙河铺,细颗粒物(PM2.5),108,101,67,81,49,17,,7,7,40,28,5,4,0.8,0.6
2024-11-08T1300,1437A,104.0786,30.6531,成都市,君平街,,,91,71,75,47,10,,16,8,44,39,,5,0.8,0.7
2024-11-08T1300,2880A,104.0239,30.65639,成都市,大石西路,细颗粒物(PM2.5),92,94,73,68,51,4,,9,5,44,36,5,3,0.9,0.7
2024-11-08T1300,3136A,104.2725,30.5589,成都市,龙泉驿区区政府,细颗粒物(PM2.5),73,63,47,53,38,47,,26,26,20,19,3,2,0.6,0.5
2024-11-08T1300,3357A,104.0106,30.6931,成都市,金博路,细颗粒物(PM2.5),102,113,83,76,53,3,,4,3,42,39,1,2,0.7,0.7
2024-11-08T1300,3359A,104.0578,30.5225,成都市,华阳,细颗粒物(PM2.5),83,85,62,61,45,29,,20,17,22,21,2,2,0.7,0.7
2024-11-08T1300,3487A,104.2394,30.5319,成都市,车城东七路,细颗粒物(PM2.5),88,90,60,65,47,40,,29,29,25,20,2,2,0.7,0.5
2024-11-08T1300,3488A,104.3853,30.7453,成都市,青白江技师分院,细颗粒物(PM2.5),85,95,73,63,52,46,,30,27,22,19,2,2,0.7,0.6
2024-11-08T1300,3489A,104.0789,30.4072,成都市,科学城,细颗粒物(PM2.5),103,84,62,77,52,60,,33,33,13,20,4,4,0.6,0.6
2024-11-08T1300,4011A,103.8506,30.6947,成都市,光华大道三段,细颗粒物(PM2.5),115,108,84,87,65,11,,7,6,39,33,5,4,0.7,0.7
2024-11-08T1300,1062A,117.9531,40.9081,承德市,铁路,颗粒物(PM10),78,105,110,56,69,29,,10,10,52,56,6,5,0.8,0.9
2024-11-08T1300,1063A,117.9392,40.9763,承德市,中国银行,细颗粒物(PM2.5),84,111,102,62,61,48,,17,17,33,46,4,2,0.7,0.8
2024-11-08T1300,1064A,117.9503,40.928,承德市,开发区,细颗粒物(PM2.5),110,128,121,83,61,44,,17,17,52,60,6,5,0.8,0.8
2024-11-08T1300,1065A,117.8051,40.9655,承德市,文化中心,细颗粒物(PM2.5),127,171,137,96,72,26,,8,8,58,54,14,6,1.8,1.1
2024-11-08T1300,1066A,117.9268,41.0026,承德市,离宫,细颗粒物(PM2.5),104,122,104,78,75,56,,19,19,32,42,4,3,0.7,0.7
2024-11-08T1300,2314A,117.47,30.6618,池州市,池州学院,,42,42,43,24,23,90,,52,52,25,26,11,7,0.5,0.5
2024-11-08T1300,3237A,117.4918,30.6617,池州市,展览馆,,42,42,44,23,25,93,,54,54,21,25,8,6,0.4,0.5
2024-11-08T1300,3333A,117.5627,30.695,池州市,第八中学,,42,42,44,25,24,88,,46,46,21,24,8,5,0.4,0.6
2024-11-08T1300,3334A,117.5038,30.6243,池州市,第十二中学,,41,41,42,23,24,100,,52,52,15,21,5,4,0.4,0.5
2024-11-08T1300,1744A,118.9233,42.2816,赤峰市,松山一中,颗粒物(PM10),123,196,126,88,63,20,,12,12,68,60,128,45,2.9,1.5
2024-11-08T1300,1745A,118.9576,42.2728,赤峰市,哈达街,细颗粒物(PM2.5),137,203,130,104,73,18,,11,11,56,49,177,73,2.2,1.4
2024-11-08T1300,1746A,118.8788,42.2554,赤峰市,天义路,细颗粒物(PM2.5),133,170,101,101,63,22,,9,9,67,57,64,21,1.5,1.1
2024-11-08T1300,3058A,119.2658,42.0353,赤峰市,银河街,细颗粒物(PM2.5),173,,130,131,88,60,,27,27,34,39,36,21,2.1,1.3
2024-11-08T1300,3286A,118.9359,42.3147,赤峰市,桥北物流园区,细颗粒物(PM2.5),168,154,104,127,75,36,,18,18,48,52,106,30,2.1,1.4
2024-11-08T1300,2521A,107.3476,22.4136,崇左市,市环保局江州分局,颗粒物(PM10),53,56,68,27,38,141,,72,72,8,16,7,5,0.5,0.7
2024-11-08T1300,2522A,107.3702,22.3707,崇左市,城南新区,,48,37,52,30,35,153,,76,76,8,18,8,7,0.4,0.6
2024-11-08T1300,2298A,118.3093,32.3153,滁州市,老年大学,,29,29,45,10,23,88,,47,47,14,36,4,3,0.2,0.4
2024-11-08T1300,2299A,118.3244,32.2786,滁州市,人大宾馆,,30,30,48,14,23,96,,49,49,22,41,10,9,0.3,0.5
2024-11-08T1300,3207A,118.3118,32.3038,滁州市,市政府原办公楼,,29,27,45,18,26,91,,,,17,41,7,8,0.4,0.5
2024-11-08T1300,3331A,118.3267,32.2634,滁州市,图书馆,,33,33,51,10,23,102,,49,49,12,34,7,6,0.2,0.4
2024-11-08T1300,2605A,101.5482,25.0441,楚雄彝族自治州,州环境监测站,,19,,7,3,6,58,,51,51,8,13,8,9,0.7,0.8
2024-11-08T1300,2606A,101.538,25.0492,楚雄彝族自治州,市经济开发区,,18,9,9,3,6,56,,50,50,10,16,10,9,0.7,0.8
2024-11-08T1300,2548A,107.5277,31.2827,达州市,达州职业技术学院,细颗粒物(PM2.5),63,60,54,45,38,18,,7,7,28,35,8,6,0.7,0.7
2024-11-08T1300,2549A,107.5086,31.2186,达州市,市环境监测站,颗粒物(PM10),62,74,57,39,27,11,,4,4,39,42,10,6,0.6,0.6
2024-11-08T1300,2550A,107.4988,31.2132,达州市,凤凰小区,"颗粒物(PM10),细颗粒物(PM2.5)",62,73,53,44,32,14,,7,7,38,41,12,8,0.7,0.7
2024-11-08T1300,2551A,107.5082,31.1986,达州市,达县机关宾馆,细颗粒物(PM2.5),67,48,52,48,36,31,,10,10,26,41,9,6,0.6,0.7
2024-11-08T1300,2552A,107.4644,31.2124,达州市,市政中心,颗粒物(PM10),69,88,59,46,32,9,,6,6,51,46,15,7,1.3,0.8
2024-11-08T1300,2614A,100.1542,25.7054,大理白族自治州,大理市环境监测站,,21,13,13,12,14,65,,66,64,6,6,8,6,0.6,0.6
2024-11-08T1300,2615A,100.2171,25.5811,大理白族自治州,大理古城,,16,16,11,10,8,50,,52,48,14,9,7,6,0.6,0.5
2024-11-08T1300,1109A,121.612,38.9741,大连市,甘井子,,33,31,42,12,21,104,,91,84,19,33,8,12,0.3,0.3
2024-11-08T1300,1110A,121.565,38.9511,大连市,周水子,,38,38,51,14,27,97,,81,71,14,29,7,9,0.5,0.7
2024-11-08T1300,1111A,121.5637,38.8845,大连市,星海三站,,35,29,39,12,21,109,,96,90,9,16,8,10,0.5,0.5
2024-11-08T1300,1112A,121.6302,38.9117,大连市,青泥洼桥,,32,22,35,12,20,102,,98,92,10,13,9,10,0.5,0.5
2024-11-08T1300,1113A,121.6251,38.8638,大连市,傅家庄,,35,23,34,9,17,110,,106,101,13,15,10,11,0.4,0.4
2024-11-08T1300,1114A,121.5213,38.8661,大连市,七贤岭,,33,24,40,10,20,104,,95,89,10,18,9,10,0.4,0.5
2024-11-08T1300,1115A,121.2529,38.8061,大连市,旅顺,,35,23,40,13,23,112,,100,98,17,23,10,9,0.6,0.6
2024-11-08T1300,1116A,121.7485,39.1311,大连市,金州,,34,26,40,16,29,107,,88,87,17,23,8,8,0.6,0.6
2024-11-08T1300,1117A,121.7811,39.0496,大连市,开发区,,34,34,43,15,20,108,,96,93,11,14,6,6,0.2,0.3
2024-11-08T1300,1118A,121.9762,39.0631,大连市,双D港,,39,21,32,10,18,124,,108,108,14,17,9,9,0.6,0.6
2024-11-08T1300,1789A,124.81117,46.03138,大庆市,大同区,细颗粒物(PM2.5),104,90,161,78,137,51,,21,21,24,38,11,22,0.1,0.4
2024-11-08T1300,1790A,125.129,46.533,大庆市,龙凤区,细颗粒物(PM2.5),82,85,115,60,92,68,,37,37,29,29,10,8,0.6,0.7
2024-11-08T1300,1791A,124.902,46.408,大庆市,红岗区,细颗粒物(PM2.5),59,54,133,42,86,58,,29,29,18,41,12,20,0.4,0.8
2024-11-08T1300,1792A,125.153,46.586,大庆市,萨尔图区,细颗粒物(PM2.5),77,74,127,56,102,68,,37,37,31,33,12,10,0.4,0.5
2024-11-08T1300,1793A,124.9042,46.6215,大庆市,让胡路区,细颗粒物(PM2.5),85,69,126,63,100,52,,25,25,30,35,9,9,0.5,0.7
2024-11-08T1300,3481A,125.141,46.634,大庆市,萨区政府监测点,细颗粒物(PM2.5),83,78,121,61,103,54,,30,30,30,31,14,8,0.5,0.6
2024-11-08T1300,1721A,113.3819,40.1097,大同市,果树场,细颗粒物(PM2.5),93,101,115,69,64,62,,14,14,38,53,14,12,0.9,1.2
2024-11-08T1300,1723A,113.2994,40.0758,大同市,云冈宾馆,细颗粒物(PM2.5),108,149,122,81,68,51,,17,17,57,60,16,15,1.5,1.5
2024-11-08T1300,1724A,113.3444,40.0917,大同市,大同大学,细颗粒物(PM2.5),88,110,95,65,55,65,,24,24,42,55,15,16,1.1,1.1
2024-11-08T1300,1725A,113.2661,40.1269,大同市,安家小村,细颗粒物(PM2.5),97,135,124,72,64,67,,30,30,48,53,21,25,1.1,2.3
2024-11-08T1300,1726A,113.2711,40.0844,大同市,教育学院,细颗粒物(PM2.5),100,147,142,75,73,41,,14,14,74,79,17,18,1.3,1.7
2024-11-08T1300,3282A,113.3397,40.0597,大同市,大同市卫生学校,"颗粒物(PM10),细颗粒物(PM2.5)",90,130,112,67,58,62,,20,20,39,60,14,15,0.8,0.9
2024-11-08T1300,3565A,113.1367,40.1122,大同市,云冈站,细颗粒物(PM2.5),114,159,141,86,76,60,,21,21,64,52,21,18,1.1,0.9
2024-11-08T1300,3566A,113.1186,40.2556,大同市,图书馆,细颗粒物(PM2.5),145,148,114,111,68,67,,23,23,46,31,56,24,1.1,0.9
2024-11-08T1300,3567A,113.5931,40.0461,大同市,区一中,颗粒物(PM10),53,55,90,33,33,80,,40,40,29,36,22,24,1.0,0.9
2024-11-08T1300,3676A,113.2802,40.0995,大同市,第二人民医院,颗粒物(PM10),101,151,135,71,64,59,,23,23,56,62,18,21,1.3,1.8
2024-11-08T1300,2269A,124.1069,50.4097,大兴安岭地区,科技局,,19,,40,13,27,52,,38,38,4,9,5,5,0.3,0.4
2024-11-08T1300,3663A,124.1164,50.4278,大兴安岭地区,红旗社区,,15,9,47,6,30,47,,27,27,7,20,4,6,0.3,0.5
2024-11-08T1300,1600A,124.3303,40.0625,丹东市,江湾东路,,,65,95,30,54,69,,34,34,12,44,,19,0.6,1.4
2024-11-08T1300,1601A,124.4256,40.1503,丹东市,临江后街,细颗粒物(PM2.5),77,102,69,56,38,58,,19,19,33,42,18,15,1.4,0.9
2024-11-08T1300,1602A,124.3933,40.1461,丹东市,元宝山,,,71,66,38,35,66,,18,18,22,39,12,12,,1
2024-11-08T1300,1603A,124.3633,40.1092,丹东市,民主桥,颗粒物(PM10),56,61,58,32,33,72,,24,24,14,42,10,12,0.6,0.8
2024-11-08T1300,3541A,109.5726,19.5167,儋州市,第一中学子站,臭氧1小时,53,39,45,22,29,162,,129,129,10,10,7,7,0.4,0.5
2024-11-08T1300,3542A,109.5567,19.5187,儋州市,东坡学校子站,臭氧1小时,65,48,49,24,28,172,,117,117,9,11,9,7,0.5,0.6
2024-11-08T1300,2616A,98.5842,24.428,德宏傣族景颇族自治州,德宏州监测站,,37,37,25,20,16,27,,21,18,22,24,49,15,0.7,0.7
2024-11-08T1300,3677A,98.5881,24.4368,德宏傣族景颇族自治州,芒市人民政府综合楼,,39,32,24,27,16,24,,19,,20,21,20,9,0.7,0.8
2024-11-08T1300,1901A,104.4239,31.1208,德阳市,东山公园,颗粒物(PM10),72,94,73,47,39,35,,22,18,15,14,1,1,0.7,0.7
2024-11-08T1300,1902A,104.3826,31.1317,德阳市,西小区,细颗粒物(PM2.5),84,83,65,62,48,32,,10,10,23,26,2,2,0.8,0.8
2024-11-08T1300,1904A,104.3553,31.1091,德阳市,耐火材料厂,细颗粒物(PM2.5),75,91,69,55,46,22,,9,7,28,27,4,3,0.7,0.7
2024-11-08T1300,3639A,104.4019,31.1244,德阳市,市教育局,细颗粒物(PM2.5),72,80,59,52,42,34,,12,12,20,23,2,2,0.7,0.7
2024-11-08T1300,1622A,116.3032,37.4674,德州市,儿童乐园,颗粒物(PM10),59,68,70,29,36,104,,74,74,20,28,14,12,0.6,0.6
2024-11-08T1300,1624A,116.2991,37.4451,德州市,监理站,颗粒物(PM10),53,56,63,31,34,108,,76,76,20,28,14,12,0.6,0.6
2024-11-08T1300,3066A,116.2721,37.4379,德州市,九衢泉纯净水厂,颗粒物(PM10),56,61,75,24,34,107,,66,66,16,33,13,11,0.6,0.6
2024-11-08T1300,3371A,116.3728,37.4403,德州市,开发区人民医院,颗粒物(PM10),58,66,67,22,32,99,,64,64,18,38,12,11,0.7,0.6
2024-11-08T1300,3372A,116.3572,37.4094,德州市,太阳城中学,颗粒物(PM10),58,66,71,31,35,106,,71,71,24,34,11,9,0.6,0.6
2024-11-08T1300,3511A,116.5652,37.3319,德州市,陵城艺术中心,,44,44,62,17,32,100,,71,71,14,26,10,12,0.5,0.6
2024-11-08T1300,2621A,99.7056,27.8317,迪庆藏族自治州,迪庆州站,,26,19,19,18,16,75,,65,65,12,15,7,7,0.5,0.6
2024-11-08T1300,3180A,99.7136,27.8094,迪庆藏族自治州,质量技术监督局,,26,26,18,15,12,67,,58,56,17,17,7,7,0.7,0.7
2024-11-08T1300,2663A,104.6241,35.5734,定西市,东关小学,,41,41,43,21,24,57,,46,46,4,11,2,2,0.2,0.3
2024-11-08T1300,2664A,104.6194,35.5934,定西市,供电公司,,32,30,36,22,26,60,,46,46,2,11,6,6,0.3,0.3
2024-11-08T1300,1389A,113.7547,23.0494,东莞市,莞城梨川,,45,36,39,21,21,142,,104,104,17,22,10,10,0.6,0.5
2024-11-08T1300,1390A,113.7944,23.0128,东莞市,东城石井,,43,35,34,19,18,135,,96,96,14,20,12,11,0.6,0.6
2024-11-08T1300,1391A,113.7383,22.9658,东莞市,南城西平,,44,38,38,18,18,139,,84,84,15,41,9,8,0.6,0.5
2024-11-08T1300,3319A,113.7338,23.0381,东莞市,万江金泰,,43,36,35,21,18,136,,101,101,13,17,8,9,0.6,0.6
2024-11-08T1300,3626A,113.7533,23.0202,东莞市,南城元岭,,47,47,36,24,17,145,,97,97,12,15,10,10,0.6,0.6
2024-11-08T1300,3627A,113.7875,23.0457,东莞市,东城主山,,48,46,38,23,20,153,,101,101,16,23,11,11,0.6,0.6
2024-11-08T1300,1666A,118.6614,37.4309,东营市,市环保局,颗粒物(PM10),62,73,74,34,36,103,,52,52,29,43,9,9,0.5,0.7
2024-11-08T1300,3036A,118.6904,37.4338,东营市,开发区管委会,颗粒物(PM10),65,79,80,44,40,105,,58,58,22,32,12,12,0.5,0.7
2024-11-08T1300,3365A,118.5719,37.565,东营市,垦利区民丰路,颗粒物(PM10),54,58,68,31,34,102,,51,51,26,42,12,10,0.5,0.5
2024-11-08T1300,3498A,118.5055,37.8612,东营市,河口城区,颗粒物(PM10),69,88,96,49,45,120,,57,57,23,37,11,9,0.7,0.7
2024-11-08T1300,3646A,118.4978,37.4623,东营市,胜利站,颗粒物(PM10),57,64,76,29,34,110,,53,53,24,46,10,8,0.5,0.6
2024-11-08T1300,3734A,118.35,37.26,东营市,理想之城,颗粒物(PM10),54,58,72,29,38,111,,49,49,23,45,7,6,0.4,0.5
2024-11-08T1300,1591A,110.0023,39.8129,鄂尔多斯市,综合楼,颗粒物(PM10),64,78,79,41,41,89,,58,58,23,34,10,11,0.8,0.8
2024-11-08T1300,1592A,109.9486,39.8261,鄂尔多斯市,巴音孟克林场办事处,颗粒物(PM10),58,66,78,36,41,79,,55,55,27,36,12,13,0.9,0.9
2024-11-08T1300,1593A,109.7736,39.5986,鄂尔多斯市,康泽苑,,42,41,64,29,38,95,,31,31,12,40,8,8,0.5,0.7
2024-11-08T1300,1594A,109.8119,39.5989,鄂尔多斯市,华泰汽车城,,41,41,64,27,37,91,,26,26,14,44,7,7,0.5,0.7
2024-11-08T1300,1595A,109.9734,39.7884,鄂尔多斯市,奥林花园,细颗粒物(PM2.5),62,70,86,44,41,75,,42,42,27,40,9,9,1.0,1
2024-11-08T1300,2436A,114.8938,30.3994,鄂州市,市政府,,35,35,58,16,35,105,,74,74,23,33,8,10,0.8,0.8
2024-11-08T1300,2437A,114.8989,30.3714,鄂州市,赵家坝,,,36,56,23,36,105,,69,69,24,34,,11,0.5,0.7
2024-11-08T1300,3654A,114.8094,30.4089,鄂州市,精准医疗中心,,46,46,63,21,37,105,,69,69,26,38,21,23,1.3,1.9
2024-11-08T1300,2454A,109.4978,30.2981,恩施土家族苗族自治州,湖北民院,细颗粒物(PM2.5),67,63,58,48,44,33,,29,21,25,22,6,6,0.5,0.5
2024-11-08T1300,2455A,109.4707,30.2798,恩施土家族苗族自治州,州电力总公司,细颗粒物(PM2.5),62,63,63,44,46,28,,18,18,37,37,7,7,0.6,0.6
2024-11-08T1300,3549A,109.5061,30.3772,恩施土家族苗族自治州,龙凤新区,细颗粒物(PM2.5),64,70,58,46,40,29,,20,20,25,19,6,6,0.8,0.8
2024-11-08T1300,2499A,108.3411,21.6158,防城港市,沙万,颗粒物(PM10),52,53,52,32,33,140,,103,103,13,18,8,7,0.5,0.5
2024-11-08T1300,2500A,108.3514,21.7731,防城港市,防城档案局,,,68,90,31,38,,,91,91,13,30,8,7,0.5,0.5
2024-11-08T1300,2501A,108.3506,21.6414,防城港市,大海花园,颗粒物(PM10),60,70,54,31,35,142,,106,106,13,16,7,7,0.6,0.6
2024-11-08T1300,1371A,113.1294,23.0067,佛山市,湾梁,颗粒物(PM10),51,51,46,19,16,136,,92,92,28,36,8,8,0.6,0.6
2024-11-08T1300,1372A,113.1083,23.0478,佛山市,华材职中,,44,44,49,26,25,136,,91,91,25,42,9,10,0.5,0.5
2024-11-08T1300,1373A,113.144,23.0453,佛山市,南海气象局,,50,50,44,19,18,139,,87,87,21,32,9,9,0.3,0.4
2024-11-08T1300,1374A,113.2881,22.8094,佛山市,顺德苏岗,,40,29,40,19,18,126,,82,82,19,33,9,9,0.6,0.6
2024-11-08T1300,1376A,112.8383,22.8678,佛山市,高明孔堂,,50,50,48,27,24,148,,92,92,19,25,11,10,0.5,0.5
2024-11-08T1300,1377A,112.8836,23.1588,佛山市,三水监测站,,42,34,43,26,25,134,,91,91,18,30,8,10,0.4,0.5
2024-11-08T1300,1378A,112.867,23.185,佛山市,三水云东海,,41,30,40,19,23,131,,84,84,16,32,12,12,0.6,0.6
2024-11-08T1300,3625A,113.2544,22.7642,佛山市,容桂街道办,,46,46,38,19,22,129,,90,90,24,30,8,8,0.5,0.5
2024-11-08T1300,1282A,119.2681,26.0504,福州市,师大,,32,20,27,3,7,101,,73,73,5,10,2,2,0.4,0.3
2024-11-08T1300,1283A,119.2984,26.1028,福州市,五四北路,,30,19,23,6,6,93,,75,75,7,9,3,3,0.4,0.3
2024-11-08T1300,1284A,119.2648,26.0768,福州市,杨桥西路,,32,21,27,3,7,100,,73,73,5,9,1,1,0.4,0.3
2024-11-08T1300,1285A,119.317,26.0746,福州市,紫阳,,28,27,42,3,8,88,,68,66,8,14,3,3,0.6,0.5
2024-11-08T1300,3526A,119.5189,25.9664,福州市,吴航,,30,18,25,8,12,96,,82,82,6,8,4,3,0.1,0.2
2024-11-08T1300,1755A,123.7977,41.8491,抚顺市,望花区,颗粒物(PM10),73,95,75,41,42,57,,30,20,39,38,12,16,0.9,0.9
2024-11-08T1300,1756A,123.9161,41.8822,抚顺市,顺城区,颗粒物(PM10),62,73,56,41,34,43,,38,38,42,34,8,8,0.5,0.4
2024-11-08T1300,1757A,124.0436,41.8611,抚顺市,东洲区,细颗粒物(PM2.5),73,66,47,53,35,53,,57,43,18,14,8,10,0.6,0.5
2024-11-08T1300,1758A,123.9247,41.8642,抚顺市,新抚区,颗粒物(PM10),61,71,62,37,38,42,,24,21,40,33,8,8,0.5,0.4
2024-11-08T1300,1759A,124.0972,41.8961,抚顺市,大伙房水库,,43,33,40,30,28,78,,66,66,12,12,8,8,0.6,0.5
2024-11-08T1300,1760A,123.7086,41.8391,抚顺市,沈抚新城,颗粒物(PM10),63,75,70,42,42,93,,46,34,17,28,15,14,0.5,0.8
2024-11-08T1300,2376A,116.2127,28.0814,抚州市,桐源党溪,,44,44,61,19,29,110,,57,57,5,13,7,7,0.4,0.5
2024-11-08T1300,2377A,116.3544,27.9831,抚州市,市站,,38,38,45,13,22,101,,64,64,13,19,8,11,0.6,0.7
2024-11-08T1300,2378A,116.3565,27.963,抚州市,血防站,,,36,48,24,22,,,52,,10,16,10,10,0.5,0.5
2024-11-08T1300,2379A,116.3564,28.0007,抚州市,采茶剧团,,35,31,47,11,27,112,,66,66,8,15,8,12,0.6,0.6
2024-11-08T1300,2380A,116.385,27.9647,抚州市,医学分院,,34,30,48,13,22,106,,63,63,9,14,5,12,0.6,0.6
2024-11-08T1300,2207A,121.6094,41.998,阜新市,工业园区,细颗粒物(PM2.5),155,197,146,118,103,47,,15,15,66,50,61,28,1.8,1.7
2024-11-08T1300,2208A,121.6697,42.0279,阜新市,长青街,细颗粒物(PM2.5),158,163,146,120,104,49,,16,16,49,42,55,28,1.5,3
2024-11-08T1300,2209A,121.6673,42.0705,阜新市,农业园区,细颗粒物(PM2.5),156,147,129,119,101,63,,33,33,42,43,73,42,1.2,1.3
2024-11-08T1300,2210A,121.6717,42.0224,阜新市,东苑,"颗粒物(PM10),细颗粒物(PM2.5)",149,247,142,114,99,47,,18,18,45,46,64,35,1.9,3.7
2024-11-08T1300,2211A,121.6506,42.0498,阜新市,玉龙新城,细颗粒物(PM2.5),142,139,134,108,93,58,,21,21,51,50,63,26,1.5,1.9
2024-11-08T1300,2301A,115.8277,32.8929,阜阳市,市监测站,,43,43,52,24,34,94,,52,52,11,26,7,6,0.6,0.6
2024-11-08T1300,2303A,115.8554,32.8605,阜阳市,开发区,,,,69,,31,,,50,45,,29,,8,,0.6
2024-11-08T1300,2875A,115.784,32.8892,阜阳市,阜阳职业技术学院,,40,40,46,20,27,91,,60,53,11,19,6,6,0.5,0.5
2024-11-08T1300,3468A,115.7901,32.8613,阜阳市,市规划展馆,,46,46,43,21,23,99,,62,56,16,22,7,7,0.4,0.4
2024-11-08T1300,3469A,115.836,32.9183,阜阳市,枣园社区,,41,41,50,22,29,96,,52,52,14,24,7,8,0.4,0.5
2024-11-08T1300,2669A,102.9099,34.9841,甘南藏族自治州,州政府,,23,20,33,9,16,72,,22,22,13,36,5,5,0.5,0.8
2024-11-08T1300,3380A,102.8914,34.9617,甘南藏族自治州,甘肃民族师范学院,,23,7,37,6,14,72,,20,20,12,39,9,8,0.2,0.4
2024-11-08T1300,2570A,101.9603,30.0475,甘孜藏族自治州,水桥子,,26,26,24,15,12,8,,6,6,20,21,7,7,0.3,0.4
2024-11-08T1300,3065A,101.9533,29.9972,甘孜藏族自治州,州环保局,,25,25,27,6,6,18,,14,14,24,24,4,3,0.3,0.3
2024-11-08T1300,3414A,115.8347,28.932,赣江新区,桑海产业园,,36,36,67,25,39,106,,50,50,16,47,12,13,0.6,0.5
2024-11-08T1300,2362A,114.9017,25.9149,赣州市,通天岩,,46,46,38,17,25,132,,91,91,12,10,1,1,0.3,0.3
2024-11-08T1300,2363A,114.9367,25.8664,赣州市,地委,,40,31,45,23,29,125,,92,92,7,15,1,1,0.6,0.6
2024-11-08T1300,2364A,114.9461,25.8481,赣州市,气象台,,40,34,37,26,31,125,,82,82,8,18,6,9,0.6,0.6
2024-11-08T1300,2365A,114.9322,25.8333,赣州市,市图书馆,,42,34,41,18,20,132,,97,97,10,17,8,9,0.5,0.5
2024-11-08T1300,2366A,114.8905,25.8471,赣州市,华坚鞋城,,38,36,43,14,21,120,,98,98,8,12,5,7,0.6,0.5
2024-11-08T1300,3109A,115.0093,25.8613,赣州市,赣县区卫计委,颗粒物(PM10),51,51,42,30,22,116,,67,67,14,24,6,5,0.5,0.5
2024-11-08T1300,2683A,106.2319,36.1417,固原市,马园,,26,26,45,15,29,45,,28,28,18,23,6,6,0.8,0.9
2024-11-08T1300,2684A,106.2792,36.0022,固原市,监测站,,35,,28,24,32,47,,43,41,11,18,4,5,0.5,0.6
2024-11-08T1300,2685A,106.2375,36.0211,固原市,新区,,28,22,30,19,26,52,,36,36,9,21,3,4,0.5,0.6
2024-11-08T1300,3522A,106.2177,35.9959,固原市,原州区十五小,,34,34,27,22,15,65,,77,62,10,13,6,6,0.6,0.5
2024-11-08T1300,2544A,106.6303,30.4576,广安市,市委,,,74,78,52,53,35,,25,25,21,25,,10,0.7,0.6
2024-11-08T1300,2545A,106.6271,30.4663,广安市,友谊中学,细颗粒物(PM2.5),65,65,67,47,48,32,,20,20,22,24,3,4,0.8,0.7
2024-11-08T1300,2547A,106.6388,30.4551,广安市,广电花园,颗粒物(PM10),66,81,71,44,48,37,,22,22,19,25,5,7,0.8,0.7
2024-11-08T1300,2902A,106.6351,30.4865,广安市,北辰小学,"颗粒物(PM10),细颗粒物(PM2.5)",64,77,68,46,45,42,,24,24,14,19,5,5,0.7,0.7
2024-11-08T1300,2523A,105.8945,32.4535,广元市,黑石坡,,36,34,39,25,28,17,,46,30,16,12,5,5,0.6,0.6
2024-11-08T1300,2524A,105.821,32.4444,广元市,老城,颗粒物(PM10),54,57,53,23,28,30,,37,24,27,31,4,4,1.1,1
2024-11-08T1300,2526A,105.8628,32.4287,广元市,监测站,细颗粒物(PM2.5),52,,43,36,35,46,,33,24,22,32,5,4,0.7,0.9
2024-11-08T1300,3617A,105.8047,32.4166,广元市,经开区,,,,56,,34,22,,29,20,32,33,4,4,1.0,0.8
2024-11-08T1300,1345A,113.2347,23.1423,广州市,广雅中学,颗粒物(PM10),54,57,52,26,24,139,,95,95,22,33,8,9,0.9,0.8
2024-11-08T1300,1346A,113.2612,23.105,广州市,市五中,,47,47,40,28,22,145,,108,108,19,22,7,7,0.5,0.5
2024-11-08T1300,1348A,113.3478,23.0916,广州市,广东商学院,,41,37,35,20,18,129,,101,101,14,22,8,8,0.4,0.4
2024-11-08T1300,1349A,113.4332,23.1047,广州市,市八十六中,,37,35,46,15,21,118,,90,90,12,33,6,5,0.4,0.5
2024-11-08T1300,1350A,113.3505,22.9483,广州市,番禺中学,,42,40,43,20,19,132,,96,96,18,33,8,7,0.4,0.4
2024-11-08T1300,1351A,113.2146,23.3916,广州市,花都师范,,39,33,39,17,20,123,,111,111,14,20,7,9,0.6,0.6
2024-11-08T1300,1352A,113.2597,23.1331,广州市,市监测站,,47,47,46,23,22,139,,96,96,16,26,7,7,0.4,0.4
2024-11-08T1300,1353A,113.5618,23.312,广州市,九龙镇镇龙,,,31,39,19,21,111,,81,81,9,25,,6,0.5,0.5
2024-11-08T1300,1354A,113.2765,23.1544,广州市,麓湖,,45,44,39,26,23,144,,99,99,19,28,6,6,0.5,0.5
2024-11-08T1300,1355A,113.443,23.3035,广州市,帽峰山森林公园,,44,32,28,16,14,139,,107,107,11,14,9,9,0.5,0.5
2024-11-08T1300,2846A,113.3221,23.1322,广州市,体育西,,41,41,39,25,20,127,,96,96,12,21,4,7,0.5,0.7
2024-11-08T1300,3298A,113.5717,23.5491,广州市,从化街口,,37,29,35,17,19,116,,93,93,8,20,8,9,0.4,0.5
2024-11-08T1300,3299A,113.3472,23.3692,广州市,白云竹料,,41,33,43,17,21,131,,109,109,9,20,8,8,0.6,0.6
2024-11-08T1300,3300A,113.2981,23.237,广州市,白云嘉禾,,49,49,54,23,22,135,,93,93,20,45,8,8,0.5,0.6
2024-11-08T1300,3301A,113.4256,23.1716,广州市,黄埔科学城,,42,35,38,20,21,132,,92,92,12,23,8,7,0.6,0.6
2024-11-08T1300,3302A,113.3942,23.0483,广州市,番禺大学城,,41,41,42,15,19,124,,86,86,14,35,8,7,0.0,0.2
2024-11-08T1300,3303A,113.4922,22.8168,广州市,南沙黄阁,颗粒物(PM10),59,67,51,28,24,152,,97,97,25,41,11,12,0.5,0.6
2024-11-08T1300,3304A,113.5342,22.7896,广州市,南沙街,颗粒物(PM10),56,61,48,26,22,162,,100,100,21,27,9,10,0.5,0.5
2024-11-08T1300,3443A,113.2902,23.5544,广州市,花都梯面,,40,30,34,15,20,127,,109,109,7,19,9,10,0.3,0.4
2024-11-08T1300,3445A,113.7858,23.7478,广州市,从化良口,,38,27,26,18,15,119,,94,94,7,9,7,6,0.5,0.5
2024-11-08T1300,3446A,113.8051,23.2614,广州市,增城荔城,,38,30,33,17,18,119,,101,101,14,19,9,9,0.6,0.5
2024-11-08T1300,2506A,109.6047,23.0666,贵港市,江南子站,颗粒物(PM10),56,61,95,26,46,141,,65,65,15,36,14,11,0.7,0.9
2024-11-08T1300,2507A,109.6014,23.0948,贵港市,贵城子站,颗粒物(PM10),51,52,71,28,43,138,,81,81,14,30,12,10,0.8,1
2024-11-08T1300,2508A,109.5669,23.1065,贵港市,荷城子站,颗粒物(PM10),51,51,65,22,35,138,,68,68,13,26,17,12,0.6,0.6
2024-11-08T1300,3405A,109.5886,23.1172,贵港市,新世纪学校,颗粒物(PM10),51,51,59,28,35,140,,82,82,12,18,14,11,0.6,0.7
2024-11-08T1300,1439A,106.6899,26.5998,贵阳市,马鞍山,,39,36,38,27,28,104,,64,64,24,16,5,4,0.7,0.7
2024-11-08T1300,1440A,106.6971,26.5694,贵阳市,市环保站,,42,39,43,29,31,116,,104,101,21,14,8,6,0.5,0.5
2024-11-08T1300,1441A,106.6243,26.6266,贵阳市,鉴湖路,颗粒物(PM10),51,51,49,29,32,98,,87,82,25,15,8,6,0.6,0.5
2024-11-08T1300,1442A,106.7487,26.6343,贵阳市,燕子冲,,37,31,38,22,33,118,,83,83,11,12,8,7,0.4,0.4
2024-11-08T1300,1443A,106.6555,26.4365,贵阳市,碧云窝,,44,44,52,17,27,105,,66,66,20,20,7,7,0.4,0.5
2024-11-08T1300,1444A,106.694,26.5161,贵阳市,中院村,,39,39,46,27,30,111,,82,80,16,20,6,6,0.6,0.7
2024-11-08T1300,1445A,106.7109,26.6027,贵阳市,红边门,,42,41,44,29,34,111,,84,82,25,19,6,6,0.7,0.6
2024-11-08T1300,1446A,106.7164,26.5699,贵阳市,新华路,,36,36,41,22,28,112,,95,95,18,13,5,6,0.5,0.4
2024-11-08T1300,1447A,106.674,26.5424,贵阳市,太慈桥,,48,48,41,19,27,106,,66,64,24,20,8,6,0.5,0.5
2024-11-08T1300,1552A,106.805,26.3003,贵阳市,桐木岭,颗粒物(PM10),53,56,52,34,33,116,,93,93,3,5,7,11,0.5,0.6
2024-11-08T1300,1862A,110.4144,25.3167,桂林市,电子科大尧山校区,,50,38,46,35,21,148,,125,125,12,12,8,11,0.5,0.5
2024-11-08T1300,1863A,110.2819,25.2697,桂林市,监测站,颗粒物(PM10),52,53,46,27,32,152,,124,124,13,17,15,14,0.6,0.6
2024-11-08T1300,1864A,110.3089,25.2708,桂林市,龙隐路小学,,50,46,43,30,31,159,,125,125,11,13,14,21,0.6,0.6
2024-11-08T1300,1865A,110.2869,25.2178,桂林市,八中,,48,46,46,28,28,151,,115,115,16,17,13,16,0.8,0.8
2024-11-08T1300,3403A,110.1764,25.2381,桂林市,创业大厦,,47,44,48,27,31,149,,118,118,12,15,11,19,0.4,0.4
2024-11-08T1300,3531A,110.296,25.1253,桂林市,旅游学院,,48,34,42,19,27,151,,95,95,10,18,13,13,0.5,0.5
2024-11-08T1300,2674A,100.2561,34.4714,果洛藏族自治州,玛沁县大武镇,,27,21,32,3,21,86,,45,45,4,10,18,14,0.5,0.5
2024-11-08T1300,1129A,126.5422,45.755,哈尔滨市,岭北,细颗粒物(PM2.5),94,102,83,70,66,61,,56,56,62,47,19,15,0.3,0.4
2024-11-08T1300,1130A,126.561,45.8167,哈尔滨市,松北商大,细颗粒物(PM2.5),105,,98,79,64,27,,17,17,,41,14,10,,0.7
2024-11-08T1300,1131A,126.979,45.5419,哈尔滨市,阿城会宁,,,66,147,46,98,52,,11,11,,40,,11,0.5,1.3
2024-11-08T1300,1132A,126.599,45.7222,哈尔滨市,南岗学府路,"颗粒物(PM10),细颗粒物(PM2.5)",84,118,105,62,64,28,,18,18,62,50,12,10,0.9,1
2024-11-08T1300,1133A,126.689,45.7733,哈尔滨市,太平宏伟公园,细颗粒物(PM2.5),103,143,102,77,68,24,,12,12,66,48,16,10,0.9,0.7
2024-11-08T1300,1134A,126.635,45.7667,哈尔滨市,道外承德广场,颗粒物(PM10),125,200,112,93,64,22,,13,13,82,58,16,10,1.3,1.1
2024-11-08T1300,1135A,126.685,45.7319,哈尔滨市,香坊红旗大街,细颗粒物(PM2.5),84,107,128,62,87,45,,30,30,55,46,30,17,0.6,0.9
2024-11-08T1300,1136A,126.6411,45.7258,哈尔滨市,动力和平路,细颗粒物(PM2.5),88,102,103,65,71,25,,13,13,65,51,26,17,0.8,0.9
2024-11-08T1300,1137A,126.593,45.7478,哈尔滨市,道里建国路,细颗粒物(PM2.5),107,132,92,80,67,20,,11,11,74,50,30,16,0.9,0.9
2024-11-08T1300,1138A,126.615,45.61,哈尔滨市,平房东轻厂,细颗粒物(PM2.5),67,64,118,48,77,66,,28,28,13,44,11,9,0.5,0.6
2024-11-08T1300,1139A,126.595,45.9855,哈尔滨市,呼兰师专,,,88,86,67,67,54,,29,29,38,36,,5,0.5,0.5
2024-11-08T1300,1140A,126.6206,45.6842,哈尔滨市,省农科院,细颗粒物(PM2.5),82,111,112,60,72,40,,17,17,48,49,10,14,0.7,0.9
2024-11-08T1300,2688A,93.5128,42.8172,哈密市,地区监测站,颗粒物(PM10),113,176,111,29,32,63,,37,37,19,37,7,8,0.4,0.6
2024-11-08T1300,2689A,93.4961,42.8328,哈密市,哈密师范学校,颗粒物(PM10),87,123,98,40,33,66,,42,41,19,35,7,8,0.6,0.7
2024-11-08T1300,3867A,102.0738,36.5056,海东市,平安区公安北苑,颗粒物(PM10),52,53,48,30,21,55,,28,28,41,26,62,16,1.4,0.8
2024-11-08T1300,1410A,110.3232,20.0574,海口市,海南大学,臭氧1小时,59,48,48,25,27,167,,158,139,12,13,8,6,0.5,0.5
2024-11-08T1300,1411A,110.283,20.0053,海口市,秀英海南医院,臭氧1小时,55,49,51,27,28,164,,149,137,13,15,9,8,0.4,0.5
2024-11-08T1300,1412A,110.338,19.9969,海口市,海南师范大学,臭氧1小时,57,49,52,25,28,165,,148,138,13,15,10,8,0.4,0.5
2024-11-08T1300,1413A,110.33,20.0356,海口市,龙华路环保局宿舍,臭氧1小时,52,49,51,25,27,161,,152,136,14,14,8,7,0.5,0.5
2024-11-08T1300,3539A,110.5111,19.9736,海口市,桂林洋子站,臭氧1小时,65,47,46,26,29,172,,147,144,12,11,9,8,0.3,0.4
2024-11-08T1300,2673A,100.6188,36.2866,海南藏族自治州,共和县恰卜恰镇,,48,,37,33,14,74,,36,36,17,26,11,11,0.5,0.6
2024-11-08T1300,2676A,97.3731,37.3753,海西蒙古族藏族自治州,德令哈市,,28,21,41,6,13,88,,84,84,12,5,13,12,0.7,0.5
2024-11-08T1300,1048A,114.5302,36.6116,邯郸市,东污水处理厂,颗粒物(PM10),53,55,75,36,48,76,,36,36,12,29,4,4,0.5,0.5
2024-11-08T1300,1049A,114.4918,36.5713,邯郸市,矿院,颗粒物(PM10),61,71,78,41,48,75,,34,34,17,32,2,3,0.4,0.4
2024-11-08T1300,1050A,114.484,36.6133,邯郸市,丛台公园,细颗粒物(PM2.5),60,53,76,43,50,69,,31,26,21,35,5,4,0.4,0.5
2024-11-08T1300,3458A,114.7895,36.5593,邯郸市,香泉濮院小区,,,47,71,29,34,103,,60,60,,20,6,9,0.5,0.4
2024-11-08T1300,3579A,114.50634,36.77178,邯郸市,永年区实验高中,细颗粒物(PM2.5),69,79,118,50,64,75,,26,26,24,51,6,5,0.3,0.4
2024-11-08T1300,3580A,114.20016,36.44293,邯郸市,峰峰矿区临水派出所,,,78,78,59,51,56,,35,32,27,29,10,8,,0.8
2024-11-08T1300,2634A,106.9893,33.1842,汉中市,汉川机床厂子校,颗粒物(PM10),55,60,49,32,29,30,,24,24,21,17,8,7,0.7,0.6
2024-11-08T1300,2635A,107.0154,33.0706,汉中市,市监测站,颗粒物(PM10),66,82,66,44,40,18,,13,12,24,19,10,10,1.0,0.8
2024-11-08T1300,2636A,107.0089,33.1138,汉中市,鑫源开发区,细颗粒物(PM2.5),62,67,64,44,41,15,,6,6,40,35,12,11,0.8,0.8
2024-11-08T1300,2637A,107.007,33.0323,汉中市,南郑大河坎水厂,,,81,67,52,45,15,,12,12,32,25,8,9,,0.8
2024-11-08T1300,1223A,120.2072,30.2111,杭州市,滨江,颗粒物(PM10),55,60,47,31,24,75,,34,34,39,46,7,7,0.4,0.4
2024-11-08T1300,1224A,120.0633,30.2747,杭州市,西溪,,28,28,23,18,21,84,,31,31,29,36,8,7,0.5,0.5
2024-11-08T1300,1226A,120.3461,30.3153,杭州市,下沙,,31,31,42,20,19,99,,40,40,28,55,8,8,0.5,0.6
2024-11-08T1300,1227A,120.1269,30.2456,杭州市,卧龙桥,,41,41,28,20,17,93,,40,40,27,29,8,7,0.4,0.5
2024-11-08T1300,1228A,120.1903,30.2692,杭州市,浙江农大,,38,38,40,23,25,79,,31,31,29,43,6,5,0.5,0.5
2024-11-08T1300,1230A,120.1197,30.3119,杭州市,和睦小学,,32,32,41,22,23,91,,37,37,28,43,10,9,0.3,0.5
2024-11-08T1300,1231A,120.3019,30.4183,杭州市,临平镇,,28,27,48,10,21,89,,40,40,23,51,7,6,0.3,0.4
2024-11-08T1300,1232A,120.2697,30.1819,杭州市,城厢镇,,,59,49,32,23,90,,28,28,,45,7,6,0.6,0.6
2024-11-08T1300,1233A,120.0883,30.1808,杭州市,云栖,,43,43,29,21,14,80,,35,35,40,40,8,6,0.5,0.4
2024-11-08T1300,3557A,119.9464,30.0494,杭州市,镇二中,,30,29,42,21,28,82,,35,35,24,32,7,7,0.6,0.7
2024-11-08T1300,3558A,119.7183,30.2367,杭州市,市府大楼,,31,31,43,19,26,87,,46,46,31,37,8,7,0.5,0.5
2024-11-08T1300,3656A,120.1556,30.2864,杭州市,消防大队,,42,42,51,21,25,92,,39,39,29,46,9,8,0.2,0.3
2024-11-08T1300,1270A,117.1959,31.7848,合肥市,明珠广场,,36,36,42,19,19,91,,47,47,24,39,9,8,0.5,0.5
2024-11-08T1300,1271A,117.3072,31.8764,合肥市,三里街,,,39,45,12,21,86,,31,31,20,43,7,7,,0.7
2024-11-08T1300,1272A,117.2588,31.8707,合肥市,琥珀山庄,,32,31,38,16,18,100,,55,55,17,31,10,10,0.8,0.8
2024-11-08T1300,1273A,117.1604,31.9052,合肥市,董铺水库,,46,46,45,14,16,89,,43,43,19,34,5,5,0.5,0.4
2024-11-08T1300,1274A,117.25,31.8571,合肥市,长江中路,,41,41,48,16,23,96,,46,46,20,39,9,9,0.7,0.7
2024-11-08T1300,1275A,117.266,31.9436,合肥市,庐阳区,,34,34,51,12,21,101,,45,45,14,41,4,3,0.8,0.8
2024-11-08T1300,1276A,117.336,31.8586,合肥市,瑶海区,,36,36,43,10,17,94,,47,47,21,47,7,7,0.5,0.5
2024-11-08T1300,1277A,117.3027,31.7964,合肥市,包河区,,44,44,51,17,22,92,,41,41,20,54,6,5,0.6,0.7
2024-11-08T1300,1278A,117.2776,31.7385,合肥市,滨湖新区,,34,34,43,14,18,94,,52,52,13,26,6,6,0.5,0.5
2024-11-08T1300,1279A,117.1318,31.8403,合肥市,高新区,,41,41,42,14,19,92,,50,50,20,31,2,2,0.7,0.7
2024-11-08T1300,3464A,117.3803,31.9147,合肥市,高教基地,,38,38,40,13,20,96,,45,45,15,31,8,6,0.5,0.5
2024-11-08T1300,3614A,79.924,37.0877,和田地区,地区环保局,颗粒物(PM10),99,148,135,44,36,87,,72,67,9,16,8,10,0.8,0.9
2024-11-08T1300,3615A,79.9131,37.113,和田地区,市环保局,颗粒物(PM10),100,149,133,57,48,83,,47,45,14,36,11,12,0.9,2.1
2024-11-08T1300,2516A,108.2011,24.715,河池市,东仁乐园,颗粒物(PM10),91,132,65,29,31,115,,52,52,9,12,7,5,0.6,0.6
2024-11-08T1300,2517A,108.0497,24.6947,河池市,市环保站,颗粒物(PM10),52,54,51,24,35,117,,57,57,9,24,11,12,0.5,0.6
2024-11-08T1300,2518A,108.0983,24.6989,河池市,市疾控中心,,49,49,64,26,38,119,,43,43,14,35,10,9,0.5,0.6
2024-11-08T1300,1696A,114.6778,23.7569,河源市,源西,,35,35,36,19,23,109,,89,89,9,18,9,12,0.5,0.5
2024-11-08T1300,1697A,114.6944,23.7586,河源市,东埔,颗粒物(PM10),51,51,36,16,20,121,,98,98,14,16,6,9,0.5,0.5
2024-11-08T1300,1698A,114.6892,23.7233,河源市,老城,,40,40,36,21,17,123,,96,96,12,14,6,8,0.5,0.4
2024-11-08T1300,1718A,115.4208,35.2464,菏泽市,气象局,颗粒物(PM10),57,63,67,35,32,106,,74,74,14,24,5,5,0.4,0.4
2024-11-08T1300,1719A,115.4747,35.2375,菏泽市,市政协,颗粒物(PM10),58,66,66,24,33,105,,69,69,17,26,6,5,0.4,0.3
2024-11-08T1300,3374A,115.5564,35.0891,菏泽市,定陶老年大学,,48,48,60,22,27,82,,60,60,22,27,7,7,0.2,0.2
2024-11-08T1300,3647A,115.4702,35.2706,菏泽市,菏泽医专,颗粒物(PM10),54,57,65,29,27,102,,69,69,18,31,8,8,0.4,0.4
2024-11-08T1300,2514A,111.5264,24.4172,贺州市,环保小区,,45,27,44,3,28,142,,83,83,16,22,9,6,0.5,0.5
2024-11-08T1300,2515A,111.5608,24.4078,贺州市,政协大楼,颗粒物(PM10),51,52,51,18,28,140,,73,73,12,23,9,7,0.5,0.7
2024-11-08T1300,3534A,111.4744,24.4553,贺州市,西湾,颗粒物(PM10),61,71,52,36,33,135,,76,76,16,22,8,8,0.5,0.6
2024-11-08T1300,2385A,114.17,35.9019,鹤壁市,市监测站,,,,84,,48,92,,55,54,19,32,,5,0.6,0.6
2024-11-08T1300,2386A,114.2956,35.7511,鹤壁市,市交警支队,颗粒物(PM10),54,57,86,26,43,93,,57,57,19,36,3,5,0.6,0.6
2024-11-08T1300,2387A,114.2878,35.7306,鹤壁市,迎宾馆,颗粒物(PM10),61,71,94,30,45,99,,58,58,20,49,1,4,0.6,0.6
2024-11-08T1300,3474A,114.2617,35.6822,鹤壁市,大新区,颗粒物(PM10),63,75,79,30,55,91,,45,45,15,47,4,4,0.5,0.5
2024-11-08T1300,3596A,114.1572,35.9603,鹤壁市,南山宾馆,细颗粒物(PM2.5),53,41,81,37,58,95,,57,57,12,28,4,4,0.2,0.3
2024-11-08T1300,2244A,130.2537,47.3416,鹤岗市,哈啤分公司,,29,29,26,14,21,43,,30,30,18,13,23,13,0.5,0.6
2024-11-08T1300,2245A,130.2684,47.3086,鹤岗市,斯达机电,,28,26,28,19,18,49,,39,35,18,22,20,14,0.3,0.4
2024-11-08T1300,2246A,130.3114,47.3388,鹤岗市,东山纸板厂,颗粒物(PM10),52,54,159,35,31,47,,21,21,15,30,15,14,0.3,1.5
2024-11-08T1300,2247A,130.1097,47.3382,鹤岗市,五号水库,,24,18,14,3,9,74,,50,50,4,7,9,7,0.5,0.5
2024-11-08T1300,2263A,127.4833,50.2524,黑河市,交通局,细颗粒物(PM2.5),118,115,120,89,93,79,,42,42,14,31,7,8,0.6,0.8
2024-11-08T1300,2264A,127.5144,50.2341,黑河市,环保局,细颗粒物(PM2.5),108,100,98,81,88,85,,50,50,12,22,4,8,0.5,0.6
2024-11-08T1300,2265A,127.5291,50.2472,黑河市,大黑河岛,细颗粒物(PM2.5),178,150,121,134,109,69,,42,42,17,26,1,1,0.8,0.9
2024-11-08T1300,1074A,115.6838,37.7541,衡水市,电机北厂,颗粒物(PM10),54,58,67,18,39,94,,60,60,16,22,4,4,0.4,0.4
2024-11-08T1300,1075A,115.6303,37.7316,衡水市,市监测站,颗粒物(PM10),55,60,72,31,32,92,,51,51,25,33,4,5,0.4,0.4
2024-11-08T1300,3188A,115.6683,37.7217,衡水市,市城管局,颗粒物(PM10),54,57,69,27,37,94,,56,56,21,30,9,9,0.5,0.4
2024-11-08T1300,3459A,115.5989,37.5491,衡水市,地表水厂,颗粒物(PM10),55,59,67,31,41,96,,43,43,16,34,6,5,0.4,0.4
2024-11-08T1300,2456A,112.5003,26.9167,衡阳市,原169医院,,36,36,53,25,32,104,,55,55,5,26,8,8,0.3,0.6
2024-11-08T1300,2457A,112.6194,26.9258,衡阳市,衡阳化工总厂,,43,43,58,21,37,134,,92,92,11,18,13,18,0.5,0.6
2024-11-08T1300,2458A,112.6211,26.8956,衡阳市,珠晖区环保局,,43,39,56,24,39,136,,88,88,9,28,13,19,0.5,0.7
2024-11-08T1300,2459A,112.6197,26.8733,衡阳市,市委党校,,47,47,49,23,28,141,,102,102,14,21,16,16,0.6,0.7
2024-11-08T1300,2460A,112.6006,26.8919,衡阳市,市监测站,,,53,56,31,36,143,,99,99,,22,15,17,,0.8
2024-11-08T1300,2461A,112.5664,26.9056,衡阳市,真空机电公司,颗粒物(PM10),51,51,51,27,40,140,,95,95,14,25,12,12,0.5,0.8
2024-11-08T1300,3399A,112.6703,26.882,衡阳市,师范学院,颗粒物(PM10),53,56,54,36,34,140,,96,96,17,24,13,14,0.5,0.7
2024-11-08T1300,2608A,103.3772,23.3993,红河哈尼族彝族自治州,污水处理厂,,50,,34,35,34,99,,93,93,4,6,4,4,0.5,0.6
2024-11-08T1300,2609A,103.3861,23.35,红河哈尼族彝族自治州,监测站,,50,35,47,35,36,103,,92,92,7,9,4,5,0.4,0.5
2024-11-08T1300,3038A,103.3758,23.368,红河哈尼族彝族自治州,州图书馆,,42,32,37,29,31,97,,87,87,6,8,7,7,0.5,0.6
2024-11-08T1300,1090A,111.6507,40.7517,呼和浩特市,呼市一监,细颗粒物(PM2.5),55,48,78,39,50,84,,34,34,30,59,14,11,0.7,1
2024-11-08T1300,1091A,111.6572,40.8033,呼和浩特市,小召,细颗粒物(PM2.5),63,61,81,45,52,78,,30,30,28,64,14,12,0.7,1
2024-11-08T1300,1094A,111.7516,40.8369,呼和浩特市,如意水处理厂,颗粒物(PM10),63,76,92,43,49,69,,19,19,29,65,12,10,0.8,1
2024-11-08T1300,1095A,111.7276,40.8062,呼和浩特市,二十九中,细颗粒物(PM2.5),60,60,82,43,51,75,,26,26,23,56,13,10,0.8,1.1
2024-11-08T1300,1096A,111.5512,40.7866,呼和浩特市,工大金川校区,细颗粒物(PM2.5),70,70,94,51,56,74,,28,28,33,66,12,8,0.9,0.9
2024-11-08T1300,1097A,111.717,40.7612,呼和浩特市,化肥厂生活区,颗粒物(PM10),62,74,93,43,54,77,,33,33,26,51,15,12,0.7,1.1
2024-11-08T1300,3698A,111.5968,40.8178,呼和浩特市,红旗小学,细颗粒物(PM2.5),70,75,99,51,61,71,,20,20,32,66,15,10,0.8,1
2024-11-08T1300,3699A,111.6518,40.8389,呼和浩特市,海东办,细颗粒物(PM2.5),65,56,89,47,59,77,,23,23,27,66,12,10,0.9,1.2
2024-11-08T1300,2192A,119.7594,49.2261,呼伦贝尔市,区环保局,,20,20,49,6,22,34,,15,15,15,30,5,8,0.4,0.6
2024-11-08T1300,3061A,119.7512,49.1577,呼伦贝尔市,国华电力东,,16,9,31,3,19,50,,26,26,5,19,3,5,0.2,0.3
2024-11-08T1300,1250A,120.0751,30.8669,湖州市,城西水厂,,,26,35,15,17,90,,42,42,21,36,7,6,,0.3
2024-11-08T1300,2873A,120.0875,30.8955,湖州市,仁皇山新区,,31,21,31,11,15,98,,45,45,18,43,7,6,0.4,0.4
2024-11-08T1300,2907A,120.1844,30.8596,湖州市,吴兴区站,,26,26,34,16,16,80,,41,41,19,31,8,7,0.6,0.5
2024-11-08T1300,3562A,120.4148,30.8538,湖州市,南浔区站,,26,15,34,10,17,82,,42,42,19,40,4,4,0.3,0.3
2024-11-08T1300,1607A,120.9092,40.7136,葫芦岛市,龙港区,细颗粒物(PM2.5),75,79,76,55,62,88,,60,60,21,27,14,17,0.8,0.8
2024-11-08T1300,1608A,120.8392,40.7514,葫芦岛市,化工街,细颗粒物(PM2.5),67,75,119,48,65,94,,37,37,29,53,27,30,1.0,1
2024-11-08T1300,1609A,120.8341,40.7073,葫芦岛市,新区,细颗粒物(PM2.5),82,86,76,60,63,95,,38,38,28,50,21,18,1.1,1
2024-11-08T1300,1610A,120.8695,40.7677,葫芦岛市,东城区,细颗粒物(PM2.5),74,56,84,54,69,98,,35,35,31,57,20,19,1.1,1.1
2024-11-08T1300,2482A,109.5981,27.5721,怀化市,林科所,,49,42,38,34,28,108,,82,82,16,21,32,26,0.8,0.9
2024-11-08T1300,2483A,109.9453,27.5444,怀化市,河西地税局,颗粒物(PM10),65,79,52,40,32,115,,63,63,14,21,24,14,0.6,0.6
2024-11-08T1300,2484A,109.9781,27.5342,怀化市,市四医院,颗粒物(PM10),64,78,69,42,38,108,,53,53,13,27,18,15,0.7,0.6
2024-11-08T1300,2485A,109.9972,27.5578,怀化市,监测楼,颗粒物(PM10),57,64,91,37,35,107,,53,53,14,31,13,12,0.6,0.6
2024-11-08T1300,2486A,110.0394,27.583,怀化市,市委党校,颗粒物(PM10),55,59,68,37,38,111,,48,48,11,30,10,23,0.6,0.6
2024-11-08T1300,1210A,119.036,33.5981,淮安市,钵池山,,29,22,42,17,25,90,,47,47,12,38,6,5,0.4,0.5
2024-11-08T1300,1211A,119.007,33.575,淮安市,北京南路,,29,22,41,15,22,90,,50,50,12,33,6,7,0.3,0.4
2024-11-08T1300,1212A,118.989,33.6067,淮安市,市监测站,,28,14,32,9,23,89,,57,57,14,30,9,8,0.5,0.6
2024-11-08T1300,1213A,119.135,33.5039,淮安市,楚州区监测站,,27,17,39,8,20,86,,53,53,14,38,6,7,0.4,0.5
2024-11-08T1300,1214A,119.0186,33.6297,淮安市,淮阴区监测站,,28,19,53,19,24,88,,39,39,18,48,5,5,0.6,0.7
2024-11-08T1300,3426A,118.8755,33.2894,淮安市,新华书店,,28,16,38,7,18,87,,53,53,16,40,4,5,0.4,0.5
2024-11-08T1300,2282A,116.8004,33.975,淮北市,监测站,,37,37,36,19,17,88,,65,65,11,18,2,2,0.4,0.5
2024-11-08T1300,2283A,116.8091,33.9007,淮北市,烈山区政府,,37,37,42,15,19,88,,66,66,15,22,2,2,0.1,0.2
2024-11-08T1300,3330A,116.8873,33.9836,淮北市,杜集区检察院,,45,45,43,17,16,92,,71,71,10,14,2,2,0.3,0.4
2024-11-08T1300,4017A,116.7923,33.9535,淮北市,市博物馆,,38,36,40,26,18,94,,72,72,14,18,5,5,0.4,0.5
2024-11-08T1300,2277A,116.8305,32.7727,淮南市,潘集区政府,,50,50,68,30,40,102,,54,54,17,30,11,11,0.5,0.6
2024-11-08T1300,2278A,117.0067,32.6524,淮南市,师范学院,,42,42,63,9,30,109,,64,64,15,27,13,12,0.3,0.5
2024-11-08T1300,2279A,116.8569,32.5951,淮南市,谢家集区政府,,34,34,49,16,25,91,,52,52,18,26,9,10,0.3,0.5
2024-11-08T1300,2280A,116.8281,32.633,淮南市,八公山区政府,,36,36,51,12,26,100,,64,64,12,24,9,10,0.3,0.4
2024-11-08T1300,2281A,116.6325,32.6201,淮南市,焦岗湖风景区管理处,,29,23,36,11,20,92,,52,52,11,27,5,4,0.1,0.2
2024-11-08T1300,2894A,117.0566,32.6531,淮南市,经济技术开发区消防队,,40,40,56,22,26,100,,53,53,10,23,8,6,0.5,0.5
2024-11-08T1300,3329A,117.0108,32.5893,淮南市,山南新区,,34,32,54,10,30,106,,62,62,12,22,3,4,0.4,0.5
2024-11-08T1300,2446A,114.9028,30.4742,黄冈市,职工中心,,44,44,69,20,43,112,,77,77,16,28,10,13,0.5,0.6
2024-11-08T1300,2929A,114.8858,30.4519,黄冈市,红卫路,,37,37,63,20,41,113,,78,78,20,31,9,10,0.5,0.6
2024-11-08T1300,3398A,114.9136,30.4445,黄冈市,市林业局,,49,49,84,26,43,117,,84,84,17,31,10,13,0.5,0.6
2024-11-08T1300,2672A,102.0199,35.5102,黄南藏族自治州,同仁县隆务镇,,,32,27,16,10,76,,61,59,12,6,,8,0.5,0.4
2024-11-08T1300,2295A,118.2903,29.6963,黄山市,延安路89号,,39,39,26,12,16,96,,46,46,9,11,7,7,0.2,0.2
2024-11-08T1300,2296A,118.327,29.7178,黄山市,黄山东路89号,,30,30,34,3,15,93,,48,48,6,13,6,6,0.2,0.2
2024-11-08T1300,2297A,118.1371,30.2756,黄山市,黄山区政府5号楼,,33,33,38,3,24,97,,41,41,8,9,8,7,0.3,0.4
2024-11-08T1300,2423A,115.0601,30.2313,黄石市,沈家营,,45,45,48,22,28,100,,74,74,28,27,14,15,0.8,0.8
2024-11-08T1300,2424A,115.0817,30.2006,黄石市,陈家湾,,38,27,40,13,26,120,,98,98,9,17,8,9,0.4,0.6
2024-11-08T1300,2426A,114.8988,30.2019,黄石市,铁山,,39,39,44,18,28,119,,102,102,17,19,7,6,0.7,0.7
2024-11-08T1300,2427A,115.0307,30.2092,黄石市,团城山,,38,32,42,10,19,119,,103,103,15,18,8,8,0.5,0.6
2024-11-08T1300,3149A,115.0235,30.1578,黄石市,笔架山北路,,38,28,41,14,23,119,,94,94,18,25,9,9,0.6,0.6
2024-11-08T1300,1392A,114.4183,23.0528,惠州市,河南岸金山湖子站,,35,32,39,19,22,112,,99,99,5,11,8,9,0.7,0.7
2024-11-08T1300,1393A,114.4053,23.0822,惠州市,下埔横江三路子站,,36,31,39,16,22,114,,98,98,8,13,8,9,0.4,0.5
2024-11-08T1300,1394A,114.4103,23.1142,惠州市,江北云山西路子站,,38,29,39,19,21,121,,104,104,8,13,9,10,0.6,0.6
2024-11-08T1300,1395A,114.4645,22.7833,惠州市,惠阳区承修路船湖子站,,36,36,47,17,22,112,,87,87,8,17,9,10,0.4,0.4
2024-11-08T1300,1396A,114.5317,22.7422,惠州市,大亚湾管委会子站,,39,37,35,17,17,124,,98,98,10,15,4,5,0.4,0.4
2024-11-08T1300,3314A,114.4338,22.8134,惠州市,惠阳秋长,,36,24,34,16,19,115,,98,98,10,16,8,9,0.4,0.5
2024-11-08T1300,3452A,114.6517,22.775,惠州市,大亚湾霞涌,,35,27,35,19,23,110,,89,89,9,13,8,8,0.4,0.4
2024-11-08T1300,2240A,130.9762,45.3001,鸡西市,环保局,细颗粒物(PM2.5),59,62,57,42,33,45,,26,26,14,23,8,8,0.3,0.4
2024-11-08T1300,2243A,130.9429,45.3039,鸡西市,第一中学,细颗粒物(PM2.5),52,51,50,36,29,51,,29,29,15,28,7,7,0.3,0.4
2024-11-08T1300,3707A,131.0207,45.3073,鸡西市,欧美日汽修厂,颗粒物(PM10),68,85,77,42,45,40,,18,18,30,31,14,16,0.5,0.7
2024-11-08T1300,3709A,130.9967,45.3106,鸡西市,市政设施管理处,颗粒物(PM10),75,99,66,43,34,39,,17,17,27,33,9,9,0.4,0.5
2024-11-08T1300,2367A,114.9754,27.0803,吉安市,红声器材厂,颗粒物(PM10),55,60,52,26,25,114,,67,67,26,30,19,16,0.5,0.5
2024-11-08T1300,2368A,114.9658,27.0999,吉安市,市森林工业局,,50,50,46,25,25,114,,75,75,21,23,19,18,0.5,0.5
2024-11-08T1300,2369A,114.99,27.1312,吉安市,市环境监测站,,48,48,43,24,24,118,,75,75,26,29,17,17,0.4,0.4
2024-11-08T1300,2370A,115.0093,27.0968,吉安市,青原区法院,颗粒物(PM10),53,55,50,25,26,118,,65,65,24,29,18,15,0.4,0.5
2024-11-08T1300,1772A,126.54,43.8622,吉林市,哈达湾,细颗粒物(PM2.5),80,63,34,59,24,80,,49,49,24,24,9,7,0.8,0.6
2024-11-08T1300,1773A,126.5844,43.8358,吉林市,东局子,细颗粒物(PM2.5),70,78,31,51,22,83,,57,57,21,18,8,6,0.8,0.6
2024-11-08T1300,1774A,126.5052,43.8245,吉林市,电力学院,细颗粒物(PM2.5),65,73,54,47,41,80,,35,35,17,33,11,9,0.8,1
2024-11-08T1300,1775A,126.6133,43.8972,吉林市,江北,颗粒物(PM10),65,79,49,45,32,77,,51,51,23,24,12,10,0.8,0.8
2024-11-08T1300,1776A,126.555,43.8306,吉林市,江南公园,细颗粒物(PM2.5),103,95,39,77,30,83,,51,49,18,23,12,9,0.7,0.5
2024-11-08T1300,1778A,126.7061,43.7133,吉林市,丰满,,,,18,35,18,62,,58,57,9,6,,8,,0.5
2024-11-08T1300,2868A,126.4739,43.953,吉林市,九站,细颗粒物(PM2.5),89,104,69,66,49,73,,25,25,27,38,12,16,0.9,0.8
2024-11-08T1300,1299A,116.9862,36.6114,济南市,科干所,,39,39,48,12,22,106,,79,79,18,27,8,8,0.6,0.7
2024-11-08T1300,1300A,116.9376,36.665,济南市,农科所,,34,34,61,10,21,98,,56,56,19,50,6,6,0.5,0.7
2024-11-08T1300,1301A,117.1265,36.6734,济南市,开发区,,37,24,53,17,29,117,,75,75,9,48,5,6,0.4,0.6
2024-11-08T1300,1303A,117.0624,36.6868,济南市,省种子仓库,,36,36,71,17,32,111,,49,49,11,58,4,5,0.4,0.7
2024-11-08T1300,1304A,116.9489,36.6447,济南市,机床二厂,,49,49,83,17,32,103,,53,53,17,52,5,6,0.4,0.6
2024-11-08T1300,1305A,117.0495,36.663,济南市,市监测站,,37,34,59,15,30,116,,62,62,16,66,5,5,0.3,0.9
2024-11-08T1300,1306A,116.7675,36.5484,济南市,长清党校,,33,32,44,22,25,104,,103,101,26,30,9,8,0.6,0.6
2024-11-08T1300,1616A,117.6795,36.229,济南市,技术学院,,,44,66,17,38,,,42,42,13,45,7,8,0.8,0.9
2024-11-08T1300,1961A,117.532,36.6868,济南市,东山小学,,39,39,57,17,28,99,,68,68,21,34,9,9,0.9,0.8
2024-11-08T1300,3059A,117.7161,36.2049,济南市,泰兴公司,,39,39,72,14,39,99,,48,48,13,58,10,11,0.3,0.6
2024-11-08T1300,3064A,117.6867,36.2171,济南市,莱芜战役纪念馆,,34,34,72,14,36,97,,52,52,18,55,6,7,0.4,0.7
2024-11-08T1300,3494A,117.1673,36.9782,济南市,济阳区政府,颗粒物(PM10),51,51,78,20,35,74,,47,47,34,51,7,8,0.3,0.5
2024-11-08T1300,3495A,117.1171,36.63,济南市,锦屏中学,,37,24,37,10,22,116,,83,83,20,30,6,5,0.4,0.5
2024-11-08T1300,3682A,116.9814,36.6819,济南市,济南四建,,31,31,62,12,29,98,,48,48,14,51,4,5,0.4,0.7
2024-11-08T1300,1653A,116.6251,35.4302,济宁市,火炬城,,44,44,45,19,33,91,,66,66,19,27,10,10,0.6,0.6
2024-11-08T1300,1655A,116.5491,35.4042,济宁市,电化厂,颗粒物(PM10),52,53,57,22,25,81,,62,62,24,27,10,8,0.6,0.7
2024-11-08T1300,3500A,116.5814,35.3707,济宁市,北湖一中,,39,39,43,22,30,86,,62,62,21,26,5,4,0.6,0.5
2024-11-08T1300,3501A,116.8249,35.5593,济宁市,服务中心,,37,37,61,11,27,90,,50,50,14,31,9,10,0.6,0.7
2024-11-08T1300,3678A,116.5907,35.4054,济宁市,市第七中学,,42,42,46,29,29,91,,65,65,20,28,5,4,0.6,0.6
2024-11-08T1300,2255A,130.2751,46.8028,佳木斯市,佳纺,,43,41,39,30,24,54,,32,32,18,32,9,6,0.6,0.7
2024-11-08T1300,2256A,130.3995,46.8307,佳木斯市,发电厂,细颗粒物(PM2.5),55,48,26,39,22,47,,24,24,19,31,6,5,0.4,0.5
2024-11-08T1300,2257A,130.3258,46.7975,佳木斯市,环保局,细颗粒物(PM2.5),54,51,35,38,23,46,,23,23,23,30,9,9,0.5,0.5
2024-11-08T1300,2258A,130.3648,46.8032,佳木斯市,十一中,,43,41,33,30,24,49,,28,28,23,35,7,6,0.4,0.6
2024-11-08T1300,2259A,130.3794,46.7588,佳木斯市,四丰,,,,,,,62,,48,48,,,1,1,0.1,0.1
2024-11-08T1300,1252A,120.7436,30.778,嘉兴市,清河小学,,23,20,31,3,11,73,,40,40,23,43,8,8,0,0.3
2024-11-08T1300,1253A,120.726,30.7478,嘉兴市,嘉兴学院,,25,25,31,6,13,72,,44,44,22,37,4,5,0.5,0.6
2024-11-08T1300,2872A,120.7846,30.7525,嘉兴市,南湖区残联,,,29,31,6,14,86,,43,43,17,41,6,6,,0.3
2024-11-08T1300,3407A,120.6916,30.7739,嘉兴市,秀洲住建,,25,16,33,7,16,78,,40,40,16,37,8,8,0.2,0.3
2024-11-08T1300,1945A,98.2908,39.7711,嘉峪关市,气象局,颗粒物(PM10),52,53,83,19,25,108,,70,70,6,31,5,10,0.2,0.4
2024-11-08T1300,2884A,98.2672,39.7978,嘉峪关市,酒钢宾馆,颗粒物(PM10),56,61,91,19,24,93,,72,72,23,29,12,22,0.7,0.7
2024-11-08T1300,3248A,98.2643,39.7724,嘉峪关市,雄关区,,36,36,78,14,25,108,,62,62,10,40,6,12,0.3,0.4
2024-11-08T1300,1383A,113.1064,22.6058,江门市,北街,颗粒物(PM10),54,57,50,26,22,136,,90,90,20,36,8,8,0.5,0.6
2024-11-08T1300,1384A,113.0731,22.5835,江门市,西区,颗粒物(PM10),52,54,55,15,14,140,,85,85,19,34,9,9,0.3,0.4
2024-11-08T1300,1385A,113.0219,22.5311,江门市,圭峰西,,50,50,43,26,22,140,,98,98,24,31,5,6,0.3,0.3
2024-11-08T1300,1386A,113.0828,22.5947,江门市,东湖,,43,43,43,25,22,137,,85,85,20,33,8,8,0.4,0.5
2024-11-08T1300,3311A,113.1075,22.5647,江门市,江海富民,颗粒物(PM10),53,55,53,21,22,137,,88,88,23,37,8,8,0.5,0.5
2024-11-08T1300,3449A,113.05,22.4667,江门市,新会银湖,,46,46,48,23,25,142,,85,85,22,46,8,7,0.3,0.4
2024-11-08T1300,1828A,113.227,35.2125,焦作市,市环保局,细颗粒物(PM2.5),75,93,102,55,61,72,,64,54,30,35,6,6,0.4,0.4
2024-11-08T1300,3169A,113.2725,35.2067,焦作市,太极体育中心,细颗粒物(PM2.5),78,101,94,57,57,66,,47,45,29,36,6,6,0.5,0.7
2024-11-08T1300,3335A,113.3137,35.2641,焦作市,马村街道办,细颗粒物(PM2.5),79,77,91,58,59,73,,55,52,24,30,8,6,0.4,0.5
2024-11-08T1300,3336A,113.2465,35.2373,焦作市,焦作技师学院,细颗粒物(PM2.5),73,94,95,53,53,71,,65,54,26,30,8,7,0.6,0.6
2024-11-08T1300,3477A,113.1656,35.2539,焦作市,中站许衡医院,,,73,84,47,51,78,,83,71,,21,8,7,0.5,0.5
2024-11-08T1300,3981A,113.2449,35.1803,焦作市,原李万街道办,颗粒物(PM10),80,109,110,44,53,65,,47,45,31,36,9,10,0.6,0.7
2024-11-08T1300,1708A,116.3701,23.5345,揭阳市,新兴,,35,35,41,14,23,104,,68,68,10,25,9,8,0.4,0.5
2024-11-08T1300,1709A,116.3264,23.5443,揭阳市,西马,,32,19,46,9,25,100,,71,71,4,21,7,8,0.5,0.6
2024-11-08T1300,1710A,116.3611,23.5626,揭阳市,东兴,,31,18,48,13,21,97,,56,56,3,29,8,10,0.6,0.8
2024-11-08T1300,1711A,116.4151,23.5294,揭阳市,渔湖,,45,45,52,14,26,112,,56,56,11,30,13,10,0.5,0.6
2024-11-08T1300,3320A,116.403,23.5699,揭阳市,曲溪,,33,20,41,12,23,105,,68,68,8,22,10,10,0.5,0.6
2024-11-08T1300,1944A,102.1692,38.5167,金昌市,天庆家园,细颗粒物(PM2.5),104,94,125,78,74,78,,54,54,19,38,16,24,0.7,0.8
2024-11-08T1300,3170A,102.1864,38.5253,金昌市,市委党校,细颗粒物(PM2.5),109,138,188,82,106,82,,62,62,16,40,11,13,0.7,1.1
2024-11-08T1300,4022A,102.1647,38.5371,金昌市,金川区人防中心,细颗粒物(PM2.5),114,124,157,86,99,81,,57,57,16,24,16,18,0.8,0.9
2024-11-08T1300,1262A,119.647,29.077,金华市,十五中,,48,48,43,25,19,104,,47,47,23,38,4,4,0.4,0.4
2024-11-08T1300,1263A,119.686,29.1029,金华市,监测站,,46,46,42,22,22,101,,46,46,22,38,4,4,0.3,0.3
2024-11-08T1300,3659A,119.656,29.1131,金华市,气象局,,42,42,49,20,23,97,,39,39,25,47,5,4,0.4,0.5
2024-11-08T1300,1767A,121.1115,41.0879,锦州市,南山,细颗粒物(PM2.5),83,,85,61,80,100,,32,32,29,63,25,22,0.9,1.1
2024-11-08T1300,1768A,121.0533,40.8434,锦州市,开发区,细颗粒物(PM2.5),93,99,109,69,79,73,,26,26,45,91,13,49,1.0,1.2
2024-11-08T1300,1769A,121.1836,41.1119,锦州市,百股街道,颗粒物(PM10),58,66,70,34,58,98,,27,27,30,53,20,22,1.0,1.2
2024-11-08T1300,1770A,121.1178,41.1222,锦州市,天安街道,细颗粒物(PM2.5),85,69,102,63,86,95,,30,30,31,59,23,23,1.2,1.4
2024-11-08T1300,1771A,121.1303,41.1386,锦州市,北湖公园,细颗粒物(PM2.5),83,78,95,61,83,92,,32,32,33,56,22,22,1.1,1.2
2024-11-08T1300,2160A,112.85,35.5051,晋城市,自来水公司,颗粒物(PM10),53,55,84,31,61,105,,43,43,22,44,6,8,0.6,0.9
2024-11-08T1300,2161A,112.8318,35.4936,晋城市,白云商贸,颗粒物(PM10),57,63,98,29,59,116,,53,53,22,45,5,6,0.6,0.8
2024-11-08T1300,2162A,112.8508,35.4887,晋城市,市环保局,颗粒物(PM10),58,66,97,29,57,106,,41,41,18,46,6,8,0.7,0.9
2024-11-08T1300,2163A,112.8676,35.4897,晋城市,技术学院,,45,45,95,22,50,102,,39,39,25,54,5,7,0.7,1
2024-11-08T1300,3620A,112.8271,35.4828,晋城市,泽州一中,,,76,89,27,61,107,,43,43,16,38,,8,0.8,1.1
2024-11-08T1300,2171A,112.7532,37.6945,晋中市,锦纶小区,细颗粒物(PM2.5),89,105,142,66,92,114,,43,43,25,52,10,11,0.6,0.9
2024-11-08T1300,2173A,112.7249,37.7067,晋中市,南都小区,细颗粒物(PM2.5),85,94,153,63,88,109,,36,36,28,61,9,9,0.7,0.9
2024-11-08T1300,2174A,112.6991,37.6982,晋中市,榆次区政府,颗粒物(PM10),93,136,149,58,79,102,,38,38,40,55,12,12,0.7,0.9
2024-11-08T1300,2865A,112.7195,37.6828,晋中市,榆次三中,细颗粒物(PM2.5),100,117,156,75,94,108,,35,35,29,51,12,13,1.0,1.1
2024-11-08T1300,2439A,112.2014,31.0481,荆门市,竹园小学,细颗粒物(PM2.5),74,93,82,54,49,96,,67,67,32,38,19,16,0.9,0.8
2024-11-08T1300,2440A,112.1969,30.9891,荆门市,掇刀,细颗粒物(PM2.5),64,69,87,46,55,114,,78,78,30,44,12,16,0.6,0.7
2024-11-08T1300,2441A,112.2213,31.0386,荆门市,石化一小,细颗粒物(PM2.5),75,94,100,55,56,104,,58,58,31,50,17,17,0.7,0.8
2024-11-08T1300,3012A,112.1849,31.0362,荆门市,西山林语,细颗粒物(PM2.5),74,84,68,54,45,100,,82,80,45,32,15,11,0.7,0.6
2024-11-08T1300,3547A,112.1632,31.0138,荆门市,龙泉中学南校,细颗粒物(PM2.5),70,79,81,51,52,115,,86,85,34,33,18,14,0.6,0.6
2024-11-08T1300,1844A,112.2494,30.3197,荆州市,市图书馆,细颗粒物(PM2.5),89,86,70,66,51,89,,50,50,45,49,26,15,0.8,0.8
2024-11-08T1300,1845A,112.2008,30.3544,荆州市,市委党校,细颗粒物(PM2.5),79,64,67,58,50,90,,49,49,32,45,11,13,0.9,0.8
2024-11-08T1300,3194A,112.2747,30.3122,荆州市,管委会,细颗粒物(PM2.5),82,65,66,60,52,103,,52,44,36,48,35,19,0.8,0.8
2024-11-08T1300,3548A,112.1655,30.3364,荆州市,学苑路,,,86,77,,52,,,50,50,29,37,14,16,0.9,0.8
2024-11-08T1300,2343A,117.2117,29.2933,景德镇市,老干部活动中心,,31,24,31,14,17,98,,57,57,7,21,6,6,0.2,0.2
2024-11-08T1300,2344A,117.1894,29.2789,景德镇市,兽医站,,31,31,33,8,15,95,,57,57,3,14,6,6,0.2,0.2
2024-11-08T1300,2345A,117.1547,29.2617,景德镇市,台达陶瓷,,31,31,32,9,17,88,,56,56,8,20,11,8,0.3,0.4
2024-11-08T1300,2346A,117.2461,29.2956,景德镇市,陶研所,,29,21,32,10,17,92,,40,40,6,21,6,6,0.2,0.3
2024-11-08T1300,1803A,115.9872,29.6815,九江市,十里,,49,49,54,32,36,96,,66,66,29,32,10,9,0.6,0.6
2024-11-08T1300,1804A,115.9584,29.7046,九江市,茅山头,,40,40,48,23,31,95,,65,65,22,26,11,10,0.6,0.7
2024-11-08T1300,1805A,115.9877,29.7295,九江市,西园,,46,46,48,26,31,109,,76,76,18,25,10,9,0.4,0.4
2024-11-08T1300,1806A,116.0172,29.6547,九江市,五七二七厂,,40,40,52,28,32,97,,66,66,22,23,10,13,0.6,0.7
2024-11-08T1300,1808A,115.9114,29.6038,九江市,综合工业园,细颗粒物(PM2.5),64,,51,46,42,94,,51,51,40,43,17,19,0.8,0.6
2024-11-08T1300,1809A,116.0721,29.7535,九江市,石化总厂,颗粒物(PM10),51,52,56,25,40,98,,66,66,28,34,11,10,0.7,0.7
2024-11-08T1300,1810A,115.9773,29.5698,九江市,庐山气象台,,36,6,10,3,10,115,,109,109,2,3,7,7,0.8,0.8
2024-11-08T1300,3190A,116.0254,29.6994,九江市,外国语学校,,44,44,55,24,36,93,,61,61,27,28,14,15,0.5,0.5
2024-11-08T1300,2658A,98.5061,39.7443,酒泉市,仓门街子站,颗粒物(PM10),52,53,83,23,31,100,,66,66,6,28,4,20,0.3,0.4
2024-11-08T1300,2659A,98.4989,39.7256,酒泉市,油田生活基地,颗粒物(PM10),53,56,91,18,36,96,,51,51,7,29,4,18,0.3,0.4
2024-11-08T1300,2698A,76.0072,39.4467,喀什地区,巡警大队,颗粒物(PM10),142,234,210,34,60,34,,7,7,,63,,11,1.0,1.9
2024-11-08T1300,2699A,75.9755,39.4694,喀什地区,吾办,颗粒物(PM10),128,206,191,68,69,25,,4,4,56,59,8,5,1.5,1.9
2024-11-08T1300,4027A,75.9483,39.4689,喀什地区,老干局,颗粒物(PM10),120,189,197,39,46,40,,13,13,55,59,7,4,1.6,1.8
2024-11-08T1300,1824A,114.3389,34.7781,开封市,肿瘤医院,颗粒物(PM10),59,67,74,40,55,98,,58,58,17,32,5,7,0.4,0.5
2024-11-08T1300,1826A,114.2885,34.7965,开封市,世纪星幼儿园,,50,50,68,34,45,108,,67,67,17,26,2,2,0.4,0.4
2024-11-08T1300,3147A,114.3438,34.8106,开封市,龙亭公园,"颗粒物(PM10),细颗粒物(PM2.5)",52,53,66,36,47,104,,65,65,16,25,3,3,0.6,0.7
2024-11-08T1300,3210A,114.3644,34.7964,开封市,汴京公园,颗粒物(PM10),56,62,74,38,46,100,,62,62,15,25,5,5,0.4,0.4
2024-11-08T1300,3473A,114.2485,34.8306,开封市,技师学院,,,,68,,42,101,,74,72,18,22,2,4,0.4,0.4
2024-11-08T1300,3592A,114.4644,34.7556,开封市,祥符区生态环境局,颗粒物(PM10),61,71,86,40,49,98,,51,51,19,33,4,4,0.5,0.5
2024-11-08T1300,1951A,84.895,45.6094,克拉玛依市,长征新村,,16,9,7,6,5,50,,54,46,6,6,5,6,0.2,0.2
2024-11-08T1300,1952A,84.8988,45.5893,克拉玛依市,南林小区,,16,14,6,9,6,50,,55,46,8,7,3,3,0.2,0.2
2024-11-08T1300,1954A,84.905,44.3396,克拉玛依市,独山子区,,17,6,14,3,5,52,,55,50,8,9,8,8,0.2,0.3
2024-11-08T1300,1955A,85.6979,46.098,克拉玛依市,乌尔禾区商贸楼,,21,11,13,3,4,65,,63,59,3,5,6,4,0.4,0.4
2024-11-08T1300,3612A,85.1045,45.6899,克拉玛依市,白碱滩区新站,,22,,10,15,7,55,,41,38,10,18,8,8,0,0
2024-11-08T1300,2697A,76.1454,39.7142,克孜勒苏柯尔克孜自治州,市人民政府,颗粒物(PM10),75,99,101,31,35,105,,73,70,11,20,5,13,0.4,0.5
2024-11-08T1300,3665A,76.1658,39.7157,克孜勒苏柯尔克孜自治州,克州文化中心,颗粒物(PM10),83,115,99,38,37,97,,72,70,15,28,9,20,0.4,0.6
2024-11-08T1300,1450A,102.8204,24.8886,昆明市,呈贡新区,,18,18,27,12,17,47,,56,53,26,15,5,4,0.8,0.7
2024-11-08T1300,1452A,102.7252,25.0902,昆明市,龙泉镇,,,12,19,11,14,50,,48,48,,14,6,6,0.9,0.8
2024-11-08T1300,1453A,102.7266,25.0375,昆明市,东风东路,,19,15,21,13,18,46,,48,47,30,21,7,7,0.9,0.8
2024-11-08T1300,1454A,102.6742,25.0669,昆明市,金鼎山,,30,30,24,9,13,47,,50,50,37,21,2,3,0.8,0.7
2024-11-08T1300,1455A,102.6644,25.0401,昆明市,碧鸡广场,,23,16,20,16,16,47,,46,43,37,24,4,4,0.8,0.6
2024-11-08T1300,3179A,102.7494,25.0119,昆明市,官渡区博物馆,,19,,25,13,18,48,,34,34,32,35,6,6,0.8,0.7
2024-11-08T1300,3375A,102.8017,24.8336,昆明市,青年创业园,,26,13,19,12,18,83,,58,58,8,12,4,4,0.5,0.5
2024-11-08T1300,3550A,102.7997,24.9786,昆明市,昆明学院,,21,12,32,6,26,67,,46,46,18,27,6,6,0.6,0.6
2024-11-08T1300,3551A,102.5967,24.6736,昆明市,晋宁区生态环境分局,,25,,25,17,23,61,,52,52,14,14,1,2,0.3,0.3
2024-11-08T1300,3552A,102.6678,24.9856,昆明市,云天化总部,,20,17,23,14,20,56,,52,52,28,25,4,4,0.6,0.6
2024-11-08T1300,1456A,91.1319,29.6514,拉萨市,八廓街,,27,16,16,11,10,85,,63,63,13,24,20,10,0.2,0.3
2024-11-08T1300,1457A,91.1221,29.6747,拉萨市,市环保局,,32,32,41,6,17,82,,52,52,16,24,19,10,0.2,0.4
2024-11-08T1300,1458A,91.0874,29.6475,拉萨市,区监测站,,24,13,16,10,9,74,,51,51,13,30,15,9,0.5,0.5
2024-11-08T1300,1459A,91.1774,29.6541,拉萨市,西藏大学,,25,22,18,6,8,78,,58,58,4,17,20,7,0.2,0.6
2024-11-08T1300,1460A,90.9798,29.6588,拉萨市,区辐射站,,22,21,21,9,10,69,,53,43,24,25,14,9,0.4,0.4
2024-11-08T1300,1461A,91.0834,29.6292,拉萨市,拉萨火车站,,22,13,14,6,9,69,,41,41,16,25,14,8,0.4,0.5
2024-11-08T1300,2520A,109.2203,23.7256,来宾市,来宾技工学校,颗粒物(PM10),51,51,64,28,35,155,,76,76,12,28,9,16,0.8,0.8
2024-11-08T1300,3535A,109.1781,23.7297,来宾市,兴宾区政府,,50,45,51,32,32,157,,85,85,12,12,9,6,1.0,0.9
2024-11-08T1300,4002A,109.2416,23.7461,来宾市,中南小学,颗粒物(PM10),51,52,61,33,32,154,,74,74,9,34,8,6,0.7,0.7
2024-11-08T1300,1476A,103.631,36.1031,兰州市,兰炼宾馆,颗粒物(PM10),75,99,109,53,67,110,,32,32,53,68,23,16,0.8,1.2
2024-11-08T1300,1478A,103.8412,36.0726,兰州市,生物制品所,细颗粒物(PM2.5),59,62,75,42,43,32,,11,11,62,59,13,12,1.0,0.9
2024-11-08T1300,1479A,103.831,36.0464,兰州市,铁路设计院,细颗粒物(PM2.5),87,99,80,64,55,29,,10,10,78,68,10,11,1.2,1.3
2024-11-08T1300,3186A,103.7158,36.1058,兰州市,教育港,颗粒物(PM10),73,95,101,50,56,62,,19,19,60,61,16,13,1.0,1.1
2024-11-08T1300,3241A,103.7439,36.0842,兰州市,百合公园,,,99,84,,27,48,,17,17,64,57,14,9,1.0,1.2
2024-11-08T1300,3242A,103.9611,35.998,兰州市,和平,,31,31,45,21,28,64,,35,35,16,33,10,10,0.5,0.5
2024-11-08T1300,3245A,103.6633,36.533,兰州新区,新区管委会,细颗粒物(PM2.5),64,64,97,46,61,82,,28,28,22,46,27,17,0.8,1
2024-11-08T1300,3246A,103.6975,36.4789,兰州新区,舟曲中学,细颗粒物(PM2.5),82,90,101,60,62,80,,28,28,26,49,31,21,0.8,0.9
2024-11-08T1300,1067A,116.6708,39.5111,廊坊市,药材公司,细颗粒物(PM2.5),110,114,173,83,126,73,,18,18,40,63,10,7,0.7,1.6
2024-11-08T1300,1068A,116.7214,39.5589,廊坊市,开发区,细颗粒物(PM2.5),123,140,154,93,109,65,,15,15,54,70,7,6,,1
2024-11-08T1300,1070A,116.7244,39.5269,廊坊市,北华航天学院,细颗粒物(PM2.5),112,118,182,84,121,73,,19,19,35,63,8,8,0.6,1.3
2024-11-08T1300,2919A,116.7022,39.5453,廊坊市,河北工业大学,细颗粒物(PM2.5),120,120,179,91,127,72,,19,19,39,76,9,9,0.5,1.1
2024-11-08T1300,2535A,103.7723,29.5462,乐山市,花湖湾,细颗粒物(PM2.5),64,58,51,46,41,27,,12,12,14,13,4,4,0.8,0.8
2024-11-08T1300,2536A,103.7627,29.5844,乐山市,牛耳桥,细颗粒物(PM2.5),73,59,52,53,45,30,,15,15,23,20,4,4,0.7,0.7
2024-11-08T1300,2537A,103.7508,29.6006,乐山市,市第三水厂,细颗粒物(PM2.5),69,56,51,50,45,29,,17,17,26,22,4,4,0.9,0.8
2024-11-08T1300,2538A,103.7571,29.5664,乐山市,市监测站,细颗粒物(PM2.5),65,54,51,47,43,32,,16,16,18,16,5,5,0.7,0.6
2024-11-08T1300,3361A,103.7311,29.5628,乐山市,理工大学,细颗粒物(PM2.5),68,59,50,49,43,36,,19,19,15,15,4,4,0.8,0.7
2024-11-08T1300,2598A,100.2143,26.8576,丽江市,西南郊,,19,,3,3,3,58,,61,,12,8,4,4,1.0,1.1
2024-11-08T1300,2599A,100.2497,26.8802,丽江市,丽江古城,,19,13,12,12,8,59,,56,56,9,10,8,9,0.7,0.6
2024-11-08T1300,2600A,100.2203,26.8906,丽江市,市中心,,,,6,,8,57,,56,54,,8,7,7,0.7,0.7
2024-11-08T1300,1267A,119.914,28.4514,丽水市,监测站大楼,,46,46,31,24,17,90,,42,42,17,21,8,7,0.2,0.2
2024-11-08T1300,1268A,119.93,28.4586,丽水市,莲都小学,,46,46,34,22,16,89,,39,39,19,24,6,5,0.3,0.3
2024-11-08T1300,1269A,119.879,28.4231,丽水市,余庄前,,36,36,26,20,16,95,,41,41,19,15,6,5,0.2,0.1
2024-11-08T1300,1173A,119.176,34.5885,连云港市,市环境监测站,,36,34,46,17,20,114,,68,68,12,23,9,8,0,0
2024-11-08T1300,3000A,119.3581,34.6972,连云港市,德源药业,,34,14,54,7,19,108,,52,52,6,34,6,6,0.2,0.2
2024-11-08T1300,3007A,119.178,34.844,连云港市,新城一中,,46,46,42,22,23,94,,48,48,21,40,9,7,0.5,0.5
2024-11-08T1300,3008A,119.3608,34.7519,连云港市,胡沟管理处,,31,19,27,7,10,98,,84,84,11,14,10,10,0.2,0.3
2024-11-08T1300,3009A,119.1478,34.5911,连云港市,矿山设计院,,36,36,43,17,22,112,,69,69,14,24,8,6,0.5,0.5
2024-11-08T1300,3434A,119.2413,34.6539,连云港市,工贸学校,,36,31,30,18,15,114,,87,87,12,13,8,7,0.5,0.4
2024-11-08T1300,3664A,119.4172,34.7341,连云港市,连云街道,,34,12,26,6,13,108,,94,94,6,11,6,6,0.4,0.4
2024-11-08T1300,2571A,102.3431,27.8099,凉山彝族自治州,青龙寺,,16,11,8,3,3,50,,,,7,5,4,3,0.7,0.6
2024-11-08T1300,2572A,102.2721,27.8415,凉山彝族自治州,邛海宾馆,,19,15,13,12,12,60,,32,32,9,13,10,8,1.1,0.9
2024-11-08T1300,2573A,102.2625,27.898,凉山彝族自治州,西昌市政府,,35,,16,24,14,50,,36,36,19,18,14,8,1.3,0.9
2024-11-08T1300,2574A,102.2685,27.8851,凉山彝族自治州,凉山州政府,,25,22,14,17,12,49,,34,34,19,18,15,9,1.3,1.1
2024-11-08T1300,2575A,102.237,27.8914,凉山彝族自治州,长安,,37,37,28,19,12,44,,29,29,22,28,16,11,1.2,0.7
2024-11-08T1300,2212A,123.2,41.1953,辽阳市,宏伟区,,38,37,32,26,26,101,,81,81,14,12,8,8,0.5,0.4
2024-11-08T1300,2213A,123.1683,41.2495,辽阳市,新华园,,40,33,34,28,31,95,,70,70,19,18,9,7,0.7,0.5
2024-11-08T1300,2214A,123.2354,41.2639,辽阳市,滨河路,,38,34,30,26,29,93,,72,72,16,16,11,11,0.5,0.5
2024-11-08T1300,2215A,123.149,41.2991,辽阳市,铁西工业园,,50,50,45,23,26,91,,68,68,16,13,16,12,1.1,0.9
2024-11-08T1300,2227A,125.1358,42.8845,辽源市,环保局,,40,40,47,21,28,99,,41,41,13,37,9,13,0.7,0.8
2024-11-08T1300,3239A,125.0764,42.9078,辽源市,银鹰制药,,40,40,52,25,33,97,,43,43,13,38,8,12,0.8,0.8
2024-11-08T1300,1625A,115.9848,36.4372,聊城市,区政府,,50,50,58,25,27,91,,70,70,15,22,10,10,0.7,0.7
2024-11-08T1300,2878A,116.0072,36.4343,聊城市,聊大东校,颗粒物(PM10),52,53,64,31,32,95,,74,74,16,22,9,9,0.6,0.6
2024-11-08T1300,3200A,115.9819,36.4978,聊城市,监控中心,颗粒物(PM10),53,55,56,27,30,97,,76,76,20,26,8,9,0.5,0.5
2024-11-08T1300,3513A,116.0445,36.4361,聊城市,九州社区,颗粒物(PM10),52,53,59,17,24,90,,68,68,18,26,9,8,0.5,0.5
2024-11-08T1300,4018A,116.0567,36.4608,聊城市,星美广场,,,53,62,23,26,101,,90,90,18,25,8,8,,0.5
2024-11-08T1300,2632A,94.3681,29.6376,林芝市,林芝监测站,,22,13,10,3,6,70,,57,52,7,9,6,6,0.2,0.2
2024-11-08T1300,2633A,94.3616,29.6616,林芝市,林芝人民医院,,23,6,12,3,6,73,,54,50,4,8,6,6,0.5,0.4
2024-11-08T1300,2603A,100.0781,23.8982,临沧市,市环保局,,20,,10,9,14,64,,61,61,9,8,7,7,0.5,0.6
2024-11-08T1300,2604A,100.0894,23.8822,临沧市,市气象局,,21,11,12,9,9,65,,60,60,10,9,8,8,0.6,0.6
2024-11-08T1300,1733A,111.5531,36.0783,临汾市,临钢医院,,,103,108,72,66,83,,26,26,,51,,6,0.8,0.7
2024-11-08T1300,1734A,111.5028,36.0714,临汾市,技工学校,细颗粒物(PM2.5),95,86,103,71,77,99,,52,52,23,48,7,6,0.8,0.8
2024-11-08T1300,1736A,111.5018,36.0855,临汾市,市委,细颗粒物(PM2.5),89,99,115,66,71,107,,50,50,21,43,8,7,0.8,0.8
2024-11-08T1300,3018A,111.505,36.1014,临汾市,唐尧大酒店,细颗粒物(PM2.5),93,100,104,69,72,104,,41,41,23,42,7,6,0.8,0.8
2024-11-08T1300,3668A,111.5036,36.0414,临汾市,城南,细颗粒物(PM2.5),88,85,100,65,67,103,,36,36,26,44,7,6,0.7,0.7
2024-11-08T1300,2667A,103.2069,35.5993,临夏回族自治州,环保局,,37,37,69,16,19,59,,16,16,18,43,10,8,0.6,1.3
2024-11-08T1300,2668A,103.2417,35.6057,临夏回族自治州,建设大厦,,35,35,48,14,21,64,,27,27,16,30,9,7,0.5,0.7
2024-11-08T1300,1618A,118.3429,35.0532,临沂市,沂河小区,,46,46,62,31,37,110,,62,62,8,33,8,8,0.3,0.4
2024-11-08T1300,1619A,118.295,35.0583,临沂市,鲁南制药厂,,43,34,52,30,32,96,,45,45,24,41,6,7,0.6,0.7
2024-11-08T1300,1620A,118.2794,34.9976,临沂市,新光毛纺厂,,35,31,59,24,34,108,,65,65,16,47,6,9,0.6,0.7
2024-11-08T1300,1621A,118.3956,35.0888,临沂市,河东保险公司,,37,31,65,19,37,117,,51,51,8,44,4,4,0.5,0.6
2024-11-08T1300,3370A,118.3564,35.0215,临沂市,十里堡居委,,,27,47,17,28,112,,40,,11,33,,8,0.3,0.4
2024-11-08T1300,3496A,118.3604,35.1084,临沂市,南坊新区,,38,36,59,19,35,119,,60,60,19,43,5,5,0.6,0.6
2024-11-08T1300,3860A,118.3920,35.0300,临沂市,皇山花园小区,,39,39,62,27,34,113,,52,52,13,48,4,5,0.5,0.6
2024-11-08T1300,1871A,109.4157,24.3277,柳州市,环保监测站,细颗粒物(PM2.5),53,48,62,37,35,137,,74,74,11,25,11,13,0.5,0.6
2024-11-08T1300,1872A,109.389,24.341,柳州市,河西水厂,颗粒物(PM10),51,51,84,28,44,127,,59,59,18,34,12,19,0.8,0.9
2024-11-08T1300,1873A,109.4311,24.2921,柳州市,市四中,,50,50,48,29,26,143,,103,103,9,19,10,12,0.6,0.6
2024-11-08T1300,1874A,109.4006,24.3631,柳州市,市九中,细颗粒物(PM2.5),54,53,80,38,44,137,,67,67,10,33,9,13,0.7,0.8
2024-11-08T1300,1875A,109.4958,24.3134,柳州市,古亭山,,,78,44,30,24,,,113,113,12,22,12,12,0.6,0.8
2024-11-08T1300,3402A,109.5422,24.3996,柳州市,市二中,颗粒物(PM10),51,52,44,22,27,137,,78,78,13,22,12,11,0.6,0.6
2024-11-08T1300,2307A,116.5079,31.737,六安市,监测大楼,,40,40,52,14,30,93,,59,59,21,23,6,6,0.5,0.5
2024-11-08T1300,2308A,116.4738,31.7643,六安市,皖西学院,,49,49,55,12,25,93,,57,57,21,25,6,6,0.6,0.6
2024-11-08T1300,2309A,116.4996,31.7905,六安市,朝阳厂,,37,37,46,16,24,92,,49,49,19,25,3,3,0.5,0.5
2024-11-08T1300,2310A,116.5567,31.7886,六安市,开发区,,47,47,61,25,28,100,,48,48,16,26,5,5,0.4,0.4
2024-11-08T1300,2576A,104.8,26.5892,六盘水市,窑上,细颗粒物(PM2.5),54,45,52,38,46,58,,47,47,16,10,5,5,0.7,0.7
2024-11-08T1300,2577A,104.83,26.5917,六盘水市,黄土坡,,48,34,50,33,40,54,,58,57,34,21,10,7,1.1,0.8
2024-11-08T1300,2578A,104.89,26.5939,六盘水市,水钢,细颗粒物(PM2.5),75,57,73,55,58,74,,70,70,16,16,3,5,0.5,0.5
2024-11-08T1300,2579A,104.8475,26.5894,六盘水市,民中,细颗粒物(PM2.5),58,,52,41,43,65,,61,61,25,24,8,8,0.8,0.7
2024-11-08T1300,2580A,104.9544,26.5506,六盘水市,双水,细颗粒物(PM2.5),53,,57,37,44,81,,77,77,13,14,6,6,0.4,0.4
2024-11-08T1300,2336A,117.0217,25.1033,龙岩市,龙岩市监测站,,32,16,24,12,17,101,,81,81,8,12,2,6,0.3,0.3
2024-11-08T1300,2337A,117.0258,25.0661,龙岩市,闽西职业技术学院,,33,18,26,10,14,104,,84,84,4,8,2,3,0.4,0.4
2024-11-08T1300,2338A,117.0196,25.0306,龙岩市,龙岩学院,,33,24,23,9,13,104,,80,80,7,12,9,9,0.5,0.4
2024-11-08T1300,2885A,104.9339,33.3826,陇南市,滨江中学,,,26,34,8,12,54,,29,29,,14,6,6,0.3,0.7
2024-11-08T1300,3247A,104.955,33.371,陇南市,市总工会,,28,28,30,13,14,58,,37,37,5,9,5,5,0.3,0.3
2024-11-08T1300,2487A,111.9589,27.8901,娄底市,电视发射台,细颗粒物(PM2.5),55,48,45,39,36,142,,96,96,14,13,10,7,1.0,0.9
2024-11-08T1300,2488A,111.9975,27.725,娄底市,市监测站,细颗粒物(PM2.5),55,55,76,39,53,154,,66,66,14,38,11,12,0.7,1
2024-11-08T1300,2489A,112.0194,27.7314,娄底市,市委党校,细颗粒物(PM2.5),65,72,72,47,47,144,,64,64,15,24,10,5,0.7,0.7
2024-11-08T1300,2490A,111.9561,27.7569,娄底市,涟钢,细颗粒物(PM2.5),62,57,75,44,48,149,,70,70,19,27,12,9,0.4,0.6
2024-11-08T1300,2491A,111.9892,27.7044,娄底市,市政府,细颗粒物(PM2.5),63,70,78,45,54,145,,60,60,16,27,13,9,0.5,0.8
2024-11-08T1300,1893A,105.4324,28.9634,泸州市,九狮山,细颗粒物(PM2.5),62,63,50,44,31,30,,23,23,21,19,5,5,0.6,0.5
2024-11-08T1300,1894A,105.4427,28.9063,泸州市,小市上码头,细颗粒物(PM2.5),85,79,64,63,46,44,,40,40,21,24,5,5,0.7,0.6
2024-11-08T1300,1895A,105.4241,28.8573,泸州市,兰田宪桥,细颗粒物(PM2.5),83,,47,61,46,41,,34,34,17,20,4,4,0.8,0.7
2024-11-08T1300,1896A,105.4379,28.8833,泸州市,市环监站,,,,67,,48,31,,32,32,23,25,6,6,0.8,0.7
2024-11-08T1300,3490A,105.3617,28.7703,泸州市,纳溪区环保局,细颗粒物(PM2.5),54,54,39,38,33,42,,24,24,15,24,4,4,0.7,0.7
2024-11-08T1300,2183A,111.1406,37.5211,吕梁市,环保局,颗粒物(PM10),55,60,92,21,40,106,,43,43,10,42,2,4,0.4,0.7
2024-11-08T1300,2185A,111.1297,37.5136,吕梁市,自来水公司,,50,50,100,30,39,109,,44,44,10,35,3,8,0.6,0.7
2024-11-08T1300,2867A,111.1283,37.51,吕梁市,马茂庄小学,颗粒物(PM10),57,63,112,24,43,114,,44,44,13,47,3,9,0.5,0.7
2024-11-08T1300,1812A,112.3931,34.6516,洛阳市,市委党校,细颗粒物(PM2.5),94,102,133,70,94,65,,28,28,39,61,6,6,0.6,0.8
2024-11-08T1300,1814A,112.4657,34.6871,洛阳市,豫西宾馆,颗粒物(PM10),77,104,134,53,76,73,,34,34,30,53,7,7,0.5,0.7
2024-11-08T1300,1815A,112.494,34.6886,洛阳市,河南林校,细颗粒物(PM2.5),104,94,120,78,95,64,,28,28,33,50,8,7,0.5,0.5
2024-11-08T1300,1816A,112.3844,34.623,洛阳市,开发区管委会,细颗粒物(PM2.5),105,109,146,79,100,78,,31,31,28,49,12,10,0.4,0.6
2024-11-08T1300,1817A,112.4267,34.6258,洛阳市,市委新办公区,细颗粒物(PM2.5),89,108,153,66,94,76,,31,31,31,49,8,6,0.4,0.6
2024-11-08T1300,3340A,112.6005,34.6326,洛阳市,伊滨,颗粒物(PM10),92,133,154,64,92,76,,24,24,34,54,10,7,0.5,0.7
2024-11-08T1300,3341A,112.4951,34.6332,洛阳市,中移产业园,细颗粒物(PM2.5),92,91,121,68,92,82,,31,31,33,57,9,8,0.6,0.8
2024-11-08T1300,3593A,112.5736,34.8993,洛阳市,吉利监测站,细颗粒物(PM2.5),75,75,111,55,81,68,,32,32,26,54,8,5,0.4,0.6
2024-11-08T1300,3635A,112.3677,34.662,洛阳市,河科大西苑校区,细颗粒物(PM2.5),93,98,135,69,90,71,,29,29,37,58,6,6,0.6,0.8
2024-11-08T1300,3636A,112.4388,34.6781,洛阳市,英才小学,颗粒物(PM10),80,110,148,52,80,65,,28,28,34,56,6,6,0.5,0.7
2024-11-08T1300,2399A,114.051,33.5699,漯河市,三五一五工厂,颗粒物(PM10),64,78,73,44,44,90,,63,63,23,26,7,6,0.6,0.5
2024-11-08T1300,2400A,114.0055,33.5698,漯河市,漯河大学,颗粒物(PM10),69,87,81,44,41,95,,68,68,21,25,7,7,0.5,0.5
2024-11-08T1300,2401A,114.0138,33.5828,漯河市,市水利局,颗粒物(PM10),63,75,70,41,39,92,,66,65,16,19,8,7,0.6,0.6
2024-11-08T1300,2402A,114.0261,33.5698,漯河市,市广电局,细颗粒物(PM2.5),64,73,69,46,44,95,,66,66,16,22,8,7,0.6,0.5
2024-11-08T1300,3478A,113.9749,33.5664,漯河市,市图书馆,颗粒物(PM10),65,80,72,40,38,93,,70,67,17,20,5,5,0.5,0.4
2024-11-08T1300,3479A,114.0967,33.5906,漯河市,召陵区卫健委,细颗粒物(PM2.5),62,68,76,44,45,93,,62,62,18,26,10,11,0.6,0.6
2024-11-08T1300,1798A,118.5092,31.6837,马鞍山市,湖东路四小,,31,31,38,3,16,99,,53,53,9,22,4,4,0.5,0.6
2024-11-08T1300,1799A,118.5024,31.6449,马鞍山市,开发区,,30,29,54,17,24,96,,49,49,19,44,8,7,0.6,0.7
2024-11-08T1300,1800A,118.5228,31.7231,马鞍山市,慈湖,,33,19,25,15,20,104,,65,65,15,28,8,8,0.7,0.7
2024-11-08T1300,1802A,118.6245,31.7241,马鞍山市,濮塘,,34,27,30,12,18,106,,63,63,13,18,8,8,0.8,0.8
2024-11-08T1300,3633A,118.4918,31.6809,马鞍山市,雨山,,38,38,35,13,16,98,,60,60,11,23,6,5,0.6,0.6
2024-11-08T1300,1686A,111.0286,21.4688,茂名市,电白南海,,44,44,57,17,27,136,,93,93,10,20,9,11,0.4,0.5
2024-11-08T1300,1687A,110.9294,21.6533,茂名市,茂石化七小,,42,27,55,19,34,132,,98,98,8,16,10,15,0.6,0.8
2024-11-08T1300,1688A,110.9107,21.6687,茂名市,健康路,,45,34,56,27,36,141,,82,82,7,18,15,26,0.5,0.6
2024-11-08T1300,1689A,110.8592,21.6828,茂名市,高岭,,48,48,75,29,42,138,,68,68,11,26,16,18,0.6,0.7
2024-11-08T1300,3450A,111.01,21.5165,茂名市,电白水东,,40,36,47,22,29,128,,95,95,10,16,11,15,0.5,0.6
2024-11-08T1300,2539A,104.0308,30.0478,眉山市,黑龙滩水库,细颗粒物(PM2.5),62,46,50,44,47,49,,40,32,2,3,4,3,0.6,0.6
2024-11-08T1300,2540A,103.8416,30.0874,眉山市,气象局,细颗粒物(PM2.5),70,51,50,51,45,42,,14,14,19,21,7,7,0.7,0.7
2024-11-08T1300,3137A,103.8578,30.0744,眉山市,市委党校,细颗粒物(PM2.5),62,61,52,44,37,42,,18,18,21,24,7,6,0.7,0.6
2024-11-08T1300,3148A,103.8291,30.0564,眉山市,区人社局,细颗粒物(PM2.5),67,52,45,48,40,47,,23,23,24,27,5,4,0.6,0.6
2024-11-08T1300,1690A,116.1231,24.3284,梅州市,梅江月梅,,32,17,34,10,18,101,,58,58,4,25,8,8,0.4,0.5
2024-11-08T1300,1691A,116.0797,24.2719,梅州市,梅县新城,,33,21,35,17,19,103,,61,61,6,25,6,5,0.5,0.5
2024-11-08T1300,1692A,116.1248,24.2654,梅州市,环境监控中心,,31,28,47,16,22,98,,53,53,7,33,10,17,0.4,0.5
2024-11-08T1300,3315A,116.1233,24.2991,梅州市,梅龙,,30,19,39,10,19,95,,58,58,6,20,6,7,0.4,0.5
2024-11-08T1300,1878A,104.7778,31.4741,绵阳市,富乐山,细颗粒物(PM2.5),78,66,65,57,54,49,,28,28,21,16,3,2,0.7,0.7
2024-11-08T1300,1879A,104.7563,31.4535,绵阳市,市人大,细颗粒物(PM2.5),80,81,78,59,53,44,,45,38,27,18,9,5,0.6,0.5
2024-11-08T1300,1880A,104.6697,31.4668,绵阳市,高新区自来水公司,颗粒物(PM10),51,51,58,34,39,48,,35,35,22,23,4,4,0.8,0.8
2024-11-08T1300,1881A,104.7287,31.5075,绵阳市,三水厂,细颗粒物(PM2.5),79,66,65,58,59,62,,37,32,19,24,6,6,0.7,0.7
2024-11-08T1300,3491A,104.69,31.5322,绵阳市,西科大附属小学,细颗粒物(PM2.5),59,64,69,42,43,41,,24,18,32,27,5,5,0.8,0.7
2024-11-08T1300,3492A,104.5648,31.5343,绵阳市,安州区旅游局,细颗粒物(PM2.5),77,62,59,56,57,46,,26,25,29,21,8,7,0.8,0.7
2024-11-08T1300,1784A,129.61,44.561,牡丹江市,环保大楼,细颗粒物(PM2.5),79,64,90,58,60,41,,22,22,31,37,17,11,0.5,0.6
2024-11-08T1300,1785A,129.6115,44.5782,牡丹江市,文化广场,细颗粒物(PM2.5),70,78,114,51,78,34,,17,17,39,45,24,28,0.6,0.8
2024-11-08T1300,1786A,129.5904,44.5963,牡丹江市,第一医院,细颗粒物(PM2.5),84,97,95,62,82,39,,27,27,38,35,24,10,0.6,0.7
2024-11-08T1300,1787A,129.6364,44.6075,牡丹江市,机车工厂,细颗粒物(PM2.5),69,76,99,50,61,33,,20,20,38,35,19,27,0.6,0.7
2024-11-08T1300,1788A,129.6386,44.5462,牡丹江市,第一中学,细颗粒物(PM2.5),75,95,66,55,50,40,,24,24,32,33,12,6,0.5,0.4
2024-11-08T1300,2531A,105.0703,29.61,内江市,市监测站,细颗粒物(PM2.5),53,,43,37,49,26,,25,20,33,27,10,10,0.8,0.8
2024-11-08T1300,2532A,105.0717,29.5947,内江市,东兴区政府,细颗粒物(PM2.5),55,39,42,39,39,34,,29,25,32,23,7,6,0.7,0.7
2024-11-08T1300,2533A,105.0653,29.5817,内江市,内江二中,细颗粒物(PM2.5),64,52,49,46,52,31,,31,27,37,26,7,7,0.8,0.7
2024-11-08T1300,2534A,105.0406,29.5822,内江市,内江日报社,,,53,49,27,44,17,,28,18,33,28,,7,0.6,0.6
2024-11-08T1300,2628A,92.0657,31.4846,那曲市,那曲监测站,,43,43,74,23,39,82,,32,32,15,27,10,12,0.5,1
2024-11-08T1300,3128A,92.0506,31.4797,那曲市,那曲会议中心,颗粒物(PM10),51,52,72,20,29,79,,29,29,14,21,8,6,0.8,0.9
2024-11-08T1300,1290A,115.8931,28.6843,南昌市,省外办,,48,48,61,24,42,113,,73,73,14,30,3,12,0.4,0.6
2024-11-08T1300,1291A,115.8886,28.7003,南昌市,省林业公司,,36,34,59,17,36,114,,66,66,12,33,7,10,0.4,0.4
2024-11-08T1300,1292A,115.8126,28.7442,南昌市,林科所,,38,34,43,17,27,119,,80,80,16,23,11,12,0.4,0.5
2024-11-08T1300,1294A,115.8518,28.687,南昌市,建工学校,,36,30,50,20,30,114,,75,75,13,24,10,12,0.3,0.5
2024-11-08T1300,1295A,115.8921,28.6424,南昌市,象湖,,41,41,51,23,36,124,,80,80,16,30,9,12,0.3,0.5
2024-11-08T1300,1296A,115.7423,28.7996,南昌市,武术学校,,42,42,24,7,11,98,,45,45,12,11,1,1,0.4,0.4
2024-11-08T1300,1298A,115.9314,28.6842,南昌市,省站,颗粒物(PM10),56,62,73,23,41,107,,68,68,14,27,8,12,0.4,0.5
2024-11-08T1300,3046A,115.9084,28.6062,南昌市,机电学校,,43,43,66,22,36,116,,77,77,17,31,8,10,0.3,0.4
2024-11-08T1300,3690A,115.9721,28.7031,南昌市,外国语学校,,35,32,61,15,36,112,,73,73,13,28,7,10,0.5,0.6
2024-11-08T1300,1905A,106.056,30.8064,南充市,西山风景区,细颗粒物(PM2.5),78,57,46,57,43,39,,8,8,24,18,1,2,0.8,0.7
2024-11-08T1300,1906A,106.0789,30.8023,南充市,南充市委,细颗粒物(PM2.5),103,96,59,77,46,32,,8,8,34,24,4,2,0.8,0.6
2024-11-08T1300,1907A,106.1031,30.8217,南充市,南充炼油厂,细颗粒物(PM2.5),87,86,67,64,50,34,,7,7,25,27,4,3,0.8,0.7
2024-11-08T1300,1908A,106.1064,30.7856,南充市,高坪区监测站,细颗粒物(PM2.5),87,91,68,64,51,36,,10,10,30,30,3,3,0.6,0.5
2024-11-08T1300,1909A,106.0642,30.7636,南充市,嘉陵区环保局,细颗粒物(PM2.5),77,85,60,56,40,49,,10,10,26,30,4,4,0.8,0.7
2024-11-08T1300,1910A,106.1087,30.8388,南充市,市环境监测站,细颗粒物(PM2.5),79,81,62,58,46,43,,12,12,21,19,4,4,0.6,0.5
2024-11-08T1300,1151A,118.8086,32.1065,南京市,迈皋桥,,29,19,23,7,11,92,,55,55,11,26,4,4,0.3,0.5
2024-11-08T1300,1152A,118.7538,32.0551,南京市,草场门,,29,24,24,3,9,91,,72,72,19,30,3,4,0.2,0.3
2024-11-08T1300,1153A,118.7794,32.0745,南京市,山西路,,37,17,25,3,10,116,,102,102,2,9,5,4,0.4,0.5
2024-11-08T1300,1154A,118.7752,32.0023,南京市,中华门,,30,19,27,7,10,94,,60,60,12,31,4,4,0.3,0.4
2024-11-08T1300,1155A,118.8109,32.0309,南京市,瑞金路,,29,17,29,7,13,92,,64,64,2,22,5,4,0.4,0.4
2024-11-08T1300,1156A,118.7997,32.0754,南京市,玄武湖,,,20,26,,5,79,,60,60,22,35,5,5,0.4,0.5
2024-11-08T1300,1157A,118.6414,32.0931,南京市,浦口,,21,21,31,8,15,67,,48,48,22,29,6,6,0.7,0.7
2024-11-08T1300,1158A,118.7356,31.9996,南京市,奥体中心,,30,25,32,9,15,95,,66,66,14,29,6,7,0.2,0.3
2024-11-08T1300,1159A,118.9125,32.1028,南京市,仙林大学城,,30,17,25,7,10,96,,64,64,10,20,4,5,0.3,0.4
2024-11-08T1300,3422A,118.8436,31.9198,南京市,江宁彩虹桥,,31,27,37,9,14,97,,64,64,11,32,5,5,0.5,0.6
2024-11-08T1300,3423A,119.0138,31.6494,南京市,溧水永阳,,30,27,31,14,17,95,,48,48,17,34,3,4,0.5,0.5
2024-11-08T1300,3424A,118.879,31.3302,南京市,高淳老职中,,40,40,32,9,18,100,,56,56,11,26,4,6,0.8,0.9
2024-11-08T1300,3427A,118.8554,32.3578,南京市,六合雄州,,26,16,42,10,19,81,,40,40,2,28,5,6,0.3,0.4
2024-11-08T1300,1401A,108.3103,22.7881,南宁市,二十一中,,48,45,68,25,46,152,,58,58,16,43,8,10,0.7,0.9
2024-11-08T1300,1402A,108.3141,22.8528,南宁市,北湖,,48,48,69,30,46,139,,52,52,19,51,10,12,0.7,0.8
2024-11-08T1300,1403A,108.3206,22.8225,南宁市,市监测站,颗粒物(PM10),57,64,67,31,45,142,,59,59,20,39,12,17,0.5,0.7
2024-11-08T1300,1404A,108.3829,22.8037,南宁市,大自然花园,,46,43,50,29,34,147,,95,95,16,23,11,10,0.6,0.7
2024-11-08T1300,1405A,108.4394,22.7904,南宁市,仙葫,,41,41,59,19,43,127,,70,70,10,37,8,11,0.6,0.7
2024-11-08T1300,1406A,108.2397,22.8467,南宁市,区农职院,颗粒物(PM10),60,69,61,35,38,133,,59,59,28,25,12,12,0.8,0.9
2024-11-08T1300,1407A,108.3275,22.735,南宁市,英华嘉园,颗粒物(PM10),54,57,70,21,47,144,,68,68,15,46,10,13,0.6,0.8
2024-11-08T1300,1408A,108.2257,22.7757,南宁市,沙井镇街道办,细颗粒物(PM2.5),73,83,80,53,53,126,,43,43,35,42,16,10,0.8,0.8
2024-11-08T1300,3401A,108.4834,22.7618,南宁市,红星社区,,44,41,55,22,36,138,,75,75,11,31,9,9,0.6,0.8
2024-11-08T1300,2332A,118.1681,26.6369,南平市,南平市监测站,,30,16,26,15,16,94,,51,51,6,21,3,3,0.2,0.4
2024-11-08T1300,2333A,118.1825,26.6489,南平市,南平铝业有限公司,,29,16,25,12,16,92,,49,49,5,20,2,3,0.2,0.3
2024-11-08T1300,2334A,118.1756,26.6272,南平市,南平七中,,31,29,27,11,16,97,,45,45,8,19,3,3,0.3,0.4
2024-11-08T1300,1168A,120.9098,31.9663,南通市,狼山街道,,,17,24,3,10,103,,71,71,,14,6,6,0.4,0.4
2024-11-08T1300,1169A,120.86,32.0005,南通市,虹桥,,30,15,28,3,16,96,,62,62,9,24,6,6,0.2,0.3
2024-11-08T1300,1170A,120.87,32.02,南通市,城中,,30,17,34,3,15,94,,61,61,11,25,5,6,0.3,0.3
2024-11-08T1300,1171A,120.94,31.93,南通市,星湖花园,,31,15,24,8,14,98,,62,62,9,22,6,5,0.6,0.5
2024-11-08T1300,1172A,120.81,32.0417,南通市,紫琅学院,,30,12,27,3,12,93,,55,55,10,31,3,3,0.2,0.3
2024-11-08T1300,3291A,121.067,32.062,南通市,通州监测站,,32,12,25,3,11,102,,79,79,7,14,2,2,0.3,0.3
2024-11-08T1300,3432A,120.9348,31.9883,南通市,环境教育馆,,34,17,28,3,13,106,,65,65,8,23,3,3,0.3,0.4
2024-11-08T1300,2404A,112.5224,33.0122,南阳市,瓦房庄,细颗粒物(PM2.5),69,70,78,50,56,135,,82,82,19,32,7,6,0.6,0.7
2024-11-08T1300,2405A,112.5003,32.9735,南阳市,汉画馆,颗粒物(PM10),65,79,79,39,43,130,,80,80,25,35,10,8,0.5,0.6
2024-11-08T1300,2406A,112.5573,33.027,南阳市,气象站,,,67,80,44,46,133,,82,82,22,33,8,7,,0.8
2024-11-08T1300,2407A,112.5481,32.9689,南阳市,理工学院,细颗粒物(PM2.5),59,65,72,42,49,129,,81,81,19,28,7,6,0.6,0.6
2024-11-08T1300,4008A,112.5234,32.9922,南阳市,卧龙区政府,细颗粒物(PM2.5),68,74,82,49,52,133,,82,82,20,36,7,6,0.6,0.7
2024-11-08T1300,1234A,121.8358,29.911,宁波市,区环保大楼,,29,29,25,10,8,72,,64,64,26,26,7,6,0.4,0.4
2024-11-08T1300,1235A,121.56,29.82,宁波市,万里学院,,30,30,31,10,15,84,,49,49,18,31,7,7,0.5,0.5
2024-11-08T1300,1236A,121.713,29.9572,宁波市,龙赛医院,,25,23,23,3,5,78,,74,74,21,20,8,8,0.5,0.5
2024-11-08T1300,1239A,121.633,29.7733,宁波市,钱湖水厂,,24,20,40,7,16,75,,42,42,21,36,10,9,0.5,0.5
2024-11-08T1300,1240A,121.5856,29.8635,宁波市,太古小学,,26,22,32,16,14,82,,48,48,17,27,9,8,0.6,0.6
2024-11-08T1300,1241A,121.524,29.8674,宁波市,市环境监测中心,,28,22,30,10,10,87,,56,56,15,29,10,11,0.4,0.5
2024-11-08T1300,2871A,121.6147,29.9017,宁波市,万里国际学校,,26,18,22,10,10,82,,49,49,21,37,8,8,0.5,0.5
2024-11-08T1300,3710A,121.5594,29.8975,宁波市,白沙活动中心,,27,20,24,7,9,85,,55,55,17,27,9,9,0.6,0.6
2024-11-08T1300,2341A,119.5388,26.6612,宁德市,宁德市监测站,颗粒物(PM10),53,55,31,11,15,87,,56,56,9,18,2,3,0.3,0.4
2024-11-08T1300,3209A,119.5231,26.6562,宁德市,宁德一中,,31,22,28,16,15,97,,66,66,7,12,1,2,0.2,0.3
2024-11-08T1300,2618A,98.8601,25.8567,怒江傈僳族自治州,州监测站,,22,22,16,9,10,26,,28,28,14,6,6,6,0.6,0.5
2024-11-08T1300,2619A,98.8546,25.8417,怒江傈僳族自治州,泸水一中,,16,16,9,6,6,22,,24,21,12,11,7,7,0.5,0.5
2024-11-08T1300,1888A,101.6891,26.571,攀枝花市,弄弄坪,,18,16,12,3,6,57,,60,58,12,16,9,12,0.4,0.8
2024-11-08T1300,1889A,101.5769,26.5928,攀枝花市,河门口,,18,7,9,3,6,55,,52,52,14,14,6,6,0.7,0.8
2024-11-08T1300,1890A,101.7169,26.585,攀枝花市,炳草岗,,16,7,16,3,10,50,,41,36,20,28,9,12,0.8,1.3
2024-11-08T1300,1891A,101.7369,26.5008,攀枝花市,仁和,,33,19,16,14,12,48,,36,36,31,23,23,14,3.3,1.8
2024-11-08T1300,2835A,101.7227,26.567,攀枝花市,四十中小,,20,11,19,6,14,61,,61,57,7,10,3,9,0.6,1.1
2024-11-08T1300,1604A,122.0303,41.1489,盘锦市,开发区,,46,41,42,32,44,98,,74,74,17,24,7,13,0.5,0.5
2024-11-08T1300,1605A,122.0485,41.0883,盘锦市,兴隆台,,46,,44,32,44,102,,71,71,16,28,15,27,0.5,0.6
2024-11-08T1300,1606A,121.8297,41.1028,盘锦市,新生街道,,45,31,36,31,44,105,,84,84,19,22,11,11,0.5,0.6
2024-11-08T1300,1832A,113.3257,33.742,平顶山市,新华旅馆,,,106,98,55,51,,,55,55,26,29,9,10,0.5,0.5
2024-11-08T1300,1833A,113.2919,33.737,平顶山市,规划设计院,细颗粒物(PM2.5),83,99,97,61,54,96,,62,62,27,28,10,10,0.7,0.6
2024-11-08T1300,1834A,113.182,33.774,平顶山市,平顶山工学院,细颗粒物(PM2.5),85,101,83,63,45,96,,59,59,21,21,12,9,0.7,0.7
2024-11-08T1300,3204A,113.3025,33.73,平顶山市,规划局,细颗粒物(PM2.5),87,102,90,64,55,98,,62,62,27,30,8,11,0.6,0.5
2024-11-08T1300,3594A,112.8867,33.9116,平顶山市,石龙区,细颗粒物(PM2.5),85,113,102,63,55,78,,48,48,28,26,17,13,0.9,0.9
2024-11-08T1300,2656A,106.6692,35.5461,平凉市,聚贤嘉苑,细颗粒物(PM2.5),67,82,89,48,60,40,,26,26,35,43,9,10,0.8,0.8
2024-11-08T1300,2347A,114.0997,27.5002,萍乡市,武功山,,33,10,17,3,6,105,,72,72,7,7,7,7,0.2,0.2
2024-11-08T1300,2348A,113.8385,27.6434,萍乡市,中医院,,36,34,57,14,29,115,,72,72,10,21,16,30,0.5,0.7
2024-11-08T1300,2349A,113.8493,27.6253,萍乡市,市政府车库,,35,35,54,20,36,111,,67,67,14,25,11,23,1.2,1.3
2024-11-08T1300,2350A,113.8676,27.6435,萍乡市,市环保局,,41,41,58,21,34,109,,66,66,11,24,14,31,0.6,0.6
2024-11-08T1300,2351A,113.866,27.6198,萍乡市,安源区政府,,41,41,58,17,31,113,,68,68,12,22,16,24,0.5,0.9
2024-11-08T1300,2319A,119.0141,25.4325,莆田市,荔城区仓后路,,,35,23,7,6,101,,88,88,5,7,,2,0.3,0.3
2024-11-08T1300,2320A,119.0015,25.4553,莆田市,莆田市监测站,,32,10,21,3,7,100,,91,91,2,4,2,2,0.3,0.3
2024-11-08T1300,2321A,119.1119,25.4561,莆田市,涵江区六中,,32,29,23,3,6,102,,85,85,5,6,2,2,0.4,0.3
2024-11-08T1300,2322A,119.1013,25.3215,莆田市,秀屿区政府,,32,30,29,7,9,101,,84,84,6,7,2,2,0.2,0.2
2024-11-08T1300,2392A,115.0312,35.7636,濮阳市,环保局,,44,44,52,25,37,106,,64,64,10,23,4,4,0.4,0.4
2024-11-08T1300,2394A,115.0574,35.7609,濮阳市,油田运输公司,,41,41,61,28,36,104,,65,65,12,22,4,5,0.4,0.4
2024-11-08T1300,2395A,115.0866,35.7754,濮阳市,油田物探公司,,49,49,66,28,40,99,,62,62,15,26,6,7,0.3,0.3
2024-11-08T1300,3021A,115,35.7668,濮阳市,濮水河管理处,颗粒物(PM10),52,54,67,28,35,93,,56,56,12,23,4,4,0.4,0.4
2024-11-08T1300,2601A,100.98,22.7633,普洱市,市环保局,,26,,23,18,23,61,,64,64,15,11,6,6,0.6,0.5
2024-11-08T1300,2602A,100.9817,22.8322,普洱市,普洱第二中学,,25,,22,17,18,62,,62,62,14,13,7,7,0.4,0.4
2024-11-08T1300,2262A,131.0518,45.8751,七台河市,新一中,颗粒物(PM10),54,57,27,37,16,76,,40,40,20,18,20,12,1.1,0.9
2024-11-08T1300,3345A,131.0577,45.7879,七台河市,中波台,颗粒物(PM10),56,61,39,36,22,44,,28,28,26,28,16,11,0.8,1
2024-11-08T1300,3637A,131.0176,45.7761,七台河市,人民广场,细颗粒物(PM2.5),69,83,45,50,28,40,,28,28,34,31,35,10,0.8,0.8
2024-11-08T1300,3684A,130.8781,45.8222,七台河市,新建矿广场,颗粒物(PM10),68,85,98,43,30,60,,27,27,32,42,21,13,0.7,0.7
2024-11-08T1300,1779A,123.9305,47.3636,齐齐哈尔市,安居小区,细颗粒物(PM2.5),214,180,164,164,147,66,,30,30,45,36,9,8,0.9,0.8
2024-11-08T1300,1780A,123.9488,47.3386,齐齐哈尔市,中心广场,细颗粒物(PM2.5),230,205,191,180,171,53,,28,27,44,34,8,6,0.9,0.8
2024-11-08T1300,1781A,123.9483,47.3227,齐齐哈尔市,农牧车辆厂,细颗粒物(PM2.5),195,200,168,146,125,58,,26,26,43,34,10,8,0.9,0.9
2024-11-08T1300,1783A,123.945,47.2988,齐齐哈尔市,市环境监测站,细颗粒物(PM2.5),214,194,176,164,148,68,,32,32,39,32,8,6,0.7,0.7
2024-11-08T1300,3662A,123.6333,47.2075,齐齐哈尔市,富区青少年活动中心,细颗粒物(PM2.5),175,190,161,132,107,66,,28,28,31,27,23,9,1.4,0.7
2024-11-08T1300,2591A,107.9783,26.5747,黔东南苗族侗族自治州,市环境监测站,,45,42,40,31,30,113,,58,58,17,24,8,6,0.4,0.4
2024-11-08T1300,2881A,107.8908,26.5311,黔东南苗族侗族自治州,凯里学院,,39,36,32,24,27,122,,67,67,10,19,6,6,0.4,0.4
2024-11-08T1300,2593A,107.5228,26.2403,黔南布依族苗族自治州,小围寨,,,,34,,26,125,,76,76,9,12,10,6,0.2,0.3
2024-11-08T1300,3538A,107.5175,26.2978,黔南布依族苗族自治州,沙坝,,40,34,39,14,26,126,,73,73,12,16,10,5,0.5,0.5
2024-11-08T1300,2589A,104.9022,25.0925,黔西南布依族苗族自治州,场坝街,,42,38,50,29,42,94,,51,51,13,18,13,16,0.5,0.6
2024-11-08T1300,2590A,104.8811,25.0992,黔西南布依族苗族自治州,坪东大道,细颗粒物(PM2.5),60,52,44,43,41,82,,52,52,17,21,16,5,0.5,0.6
2024-11-08T1300,2502A,108.6236,21.9667,钦州市,市环保站,颗粒物(PM10),53,56,94,27,47,134,,82,82,15,35,10,12,0.8,1.5
2024-11-08T1300,2503A,108.6549,21.9481,钦州市,沙埠小学,颗粒物(PM10),55,60,89,27,47,137,,79,79,17,35,10,11,0.7,0.8
2024-11-08T1300,2504A,108.5989,21.7431,钦州市,港区一小,颗粒物(PM10),58,65,94,31,43,138,,86,86,17,37,9,11,0.7,0.9
2024-11-08T1300,3404A,108.5959,21.9633,钦州市,北职校,,,45,77,27,52,,,68,68,12,26,10,11,0.7,1.4
2024-11-08T1300,1042A,119.5134,39.8207,秦皇岛市,北戴河环保局,细颗粒物(PM2.5),72,72,81,52,51,89,,52,52,22,31,7,8,0.7,0.9
2024-11-08T1300,1043A,119.7493,40.0116,秦皇岛市,第一关,细颗粒物(PM2.5),134,150,97,102,71,73,,32,32,,73,12,8,,0.9
2024-11-08T1300,1044A,119.5897,39.9499,秦皇岛市,监测站,细颗粒物(PM2.5),68,83,99,49,54,80,,30,30,45,59,16,10,1.2,1
2024-11-08T1300,1046A,119.5251,39.9041,秦皇岛市,建设大厦,细颗粒物(PM2.5),72,92,101,52,57,82,,35,34,36,47,14,10,1.1,0.9
2024-11-08T1300,3132A,119.610547,39.943889,秦皇岛市,文明里,颗粒物(PM10),78,106,110,52,64,83,,33,32,47,53,13,8,1.1,0.9
2024-11-08T1300,1307A,120.6659,36.2403,青岛市,仰口,,35,16,14,16,12,109,,99,99,5,5,7,7,0.5,0.5
2024-11-08T1300,1310A,120.4134,36.0658,青岛市,市南区东部子站,,36,17,22,3,7,115,,110,110,9,9,9,9,0.5,0.5
2024-11-08T1300,1311A,120.3664,36.1032,青岛市,四方区子站,,37,12,27,12,15,117,,71,71,13,31,10,10,0.6,0.7
2024-11-08T1300,1312A,120.2994,36.054,青岛市,市南区西部子站,,37,12,21,7,10,117,,74,74,12,25,10,10,0.5,0.5
2024-11-08T1300,1313A,120.4581,36.0858,青岛市,崂山区子站,,37,12,11,7,5,118,,105,105,16,18,10,9,0.5,0.5
2024-11-08T1300,1314A,120.1983,35.9608,青岛市,黄岛区子站,,37,14,22,10,14,117,,82,82,12,22,8,9,0.6,0.6
2024-11-08T1300,1315A,120.3999,36.3083,青岛市,城阳区子站,,40,24,47,12,22,125,,67,67,12,55,10,9,0.5,0.9
2024-11-08T1300,1966A,120.0405,35.8735,青岛市,黄岛区4号,,40,22,27,3,10,127,,78,78,13,30,9,9,0.5,0.5
2024-11-08T1300,3362A,120.5014,36.4034,青岛市,即墨2号,,37,20,33,11,14,118,,102,102,11,27,8,8,0.4,0.5
2024-11-08T1300,3642A,120.3503,36.0736,青岛市,市北区南部,,35,29,25,9,8,111,,108,108,18,17,10,10,0.6,0.6
2024-11-08T1300,3643A,120.3948,36.1805,青岛市,李沧区北部,,37,22,32,9,16,116,,92,90,18,38,10,10,0.7,0.8
2024-11-08T1300,1702A,113.0426,23.691,清远市,环保大楼,,45,31,30,19,20,143,,116,116,12,16,7,10,0.7,0.7
2024-11-08T1300,1703A,113.0208,23.7106,清远市,凤城街办,,42,24,30,18,16,133,,112,112,9,13,6,12,0.6,0.7
2024-11-08T1300,3025A,113.0477,23.6344,清远市,技师学院,,42,31,35,15,16,133,,99,99,8,15,11,13,0.4,0.5
2024-11-08T1300,3318A,112.9903,23.7403,清远市,清新太和,,43,25,20,19,13,135,,119,119,6,8,5,7,0.6,0.6
2024-11-08T1300,3455A,113.076,23.7198,清远市,清城东城,,42,31,31,17,17,133,,112,112,6,10,8,10,0.5,0.7
2024-11-08T1300,2661A,107.6325,35.7357,庆阳市,庆阳五中,细颗粒物(PM2.5),122,118,100,92,79,99,,81,79,26,32,15,16,0.7,0.7
2024-11-08T1300,2662A,107.6364,35.7067,庆阳市,市环保局,细颗粒物(PM2.5),98,91,90,73,64,103,,95,92,16,22,12,12,0.7,0.6
2024-11-08T1300,1916A,103.7897,25.5035,曲靖市,环境监测站,,38,,43,26,28,75,,72,72,24,22,3,1,0.9,0.8
2024-11-08T1300,1917A,103.8,25.5364,曲靖市,烟厂办公区,,25,25,38,16,26,75,,69,69,18,17,4,4,0.6,0.6
2024-11-08T1300,3376A,103.7947,25.462,曲靖市,南苑二区,,32,23,42,22,30,81,,78,78,14,12,5,5,0.7,0.7
2024-11-08T1300,3377A,103.7444,25.5261,曲靖市,曲靖师范学院,,25,20,37,16,29,80,,82,82,15,14,4,5,0.8,0.8
2024-11-08T1300,1264A,118.8692,28.9398,衢州市,环保大楼,,38,38,43,21,24,100,,51,51,16,31,5,5,0.4,0.5
2024-11-08T1300,1265A,118.8709,28.9666,衢州市,实验学校,,33,32,36,20,21,104,,56,56,14,28,10,9,0.4,0.4
2024-11-08T1300,1266A,118.8621,28.9808,衢州市,衢州学院,,,31,35,17,19,105,,48,48,,31,8,8,0.3,0.3
2024-11-08T1300,1611A,118.5819,24.9117,泉州市,涂山街,,33,17,24,7,10,104,,83,83,6,8,3,2,0.2,0.3
2024-11-08T1300,1612A,118.5972,24.8978,泉州市,津头埔,,32,21,28,9,11,101,,77,77,8,10,1,2,0.3,0.2
2024-11-08T1300,1613A,118.6663,24.9424,泉州市,万安,,33,27,28,10,10,105,,85,85,6,9,1,2,0.4,0.4
2024-11-08T1300,3529A,118.6333,24.9264,泉州市,城华南路,,,20,23,3,10,105,,87,87,,7,1,1,0.2,0.2
2024-11-08T1300,2626A,88.8876,29.2718,日喀则市,日喀则监测站,,23,22,27,8,14,72,,32,32,12,23,4,4,0.2,0.3
2024-11-08T1300,3726A,88.8781,29.2426,日喀则市,林业技术推广中心,,24,13,28,3,11,75,,36,36,4,16,7,8,0.4,0.6
2024-11-08T1300,1659A,119.471,35.4209,日照市,监测站,,36,22,50,11,30,114,,36,36,14,50,6,8,0.4,0.8
2024-11-08T1300,1660A,119.523,35.4216,日照市,市政府广场,,36,31,42,9,17,114,,40,40,14,45,7,7,0.4,0.6
2024-11-08T1300,1661A,119.5587,35.4044,日照市,港务局,,33,27,43,23,23,104,,40,40,18,43,7,7,0.7,0.8
2024-11-08T1300,3507A,119.5328,35.4625,日照市,职业技术学院,,38,29,40,9,17,119,,51,51,14,35,6,5,0.4,0.5
2024-11-08T1300,3604A,119.3266,35.1044,日照市,岚山环保分局,,,31,34,14,20,,,69,69,15,20,6,6,,0.4
2024-11-08T1300,1835A,111.1922,34.7752,三门峡市,市政府,细颗粒物(PM2.5),92,74,84,68,80,105,,70,70,24,26,15,11,0.6,0.6
2024-11-08T1300,1836A,111.1587,34.7942,三门峡市,开发区,细颗粒物(PM2.5),88,102,119,65,81,96,,63,63,24,25,10,10,0.8,0.8
2024-11-08T1300,1838A,111.143,34.7955,三门峡市,风景区,细颗粒物(PM2.5),88,93,93,65,78,103,,67,66,27,28,17,17,0.8,0.8
2024-11-08T1300,3039A,111.1911,34.7829,三门峡市,三门峡市第一小学,细颗粒物(PM2.5),84,81,82,62,79,101,,67,67,21,22,11,11,0.6,0.6
2024-11-08T1300,3598A,111.1,34.7167,三门峡市,富达温泉假日酒店,细颗粒物(PM2.5),99,102,120,74,82,104,,65,65,19,22,10,10,0.8,0.8
2024-11-08T1300,2324A,117.6211,26.2625,三明市,三钢,,32,20,28,14,22,102,,60,60,5,16,4,4,0.4,0.4
2024-11-08T1300,2325A,117.635,26.2714,三明市,三明二中,,30,,26,17,19,96,,54,54,7,17,3,2,0.3,0.3
2024-11-08T1300,2326A,117.6028,26.2378,三明市,三元区政府,,32,27,36,18,20,100,,50,50,7,22,4,4,0.3,0.5
2024-11-08T1300,1876A,109.5078,18.2489,三亚市,河东子站,,50,35,33,21,19,160,,139,139,6,5,3,2,0.4,0.4
2024-11-08T1300,1877A,109.4964,18.2681,三亚市,河西子站,,48,33,31,20,18,151,,126,126,7,7,5,4,0.5,0.5
2024-11-08T1300,3540A,109.7348,18.3443,三亚市,君悦子站,,49,48,41,21,19,156,,114,114,7,8,4,4,0.5,0.5
2024-11-08T1300,2624A,91.7608,29.2313,山南市,山南监测站,,25,14,14,10,8,79,,48,48,6,11,5,5,0.3,0.3
2024-11-08T1300,2625A,91.7706,29.2436,山南市,山南人民医院,,25,18,28,10,19,78,,53,49,8,13,4,4,0.4,0.5
2024-11-08T1300,1674A,116.6794,23.3667,汕头市,金平子站,,34,29,34,23,23,106,,72,72,7,21,7,13,0.6,0.7
