timepoint,stationcode,longitude,latitude,area,positionname,primarypollutant,aqi,pm10,pm10_24h,pm2_5,pm2_5_24h,o3,o3_24h,o3_8h,o3_8h_24h,no2,no2_24h,so2,so2_24h,co,co_24h
2024-11-08T0900,2566A,102.1879,31.914,阿坝藏族羌族自治州,州农科所,,21,21,27,7,10,24,,34,33,12,10,9,9,0.1,0
2024-11-08T0900,2568A,102.2502,31.8896,阿坝藏族羌族自治州,马师校,,28,,13,19,12,12,,18,18,18,13,4,4,0.4,0.3
2024-11-08T0900,3994A,102.2165,31.9024,阿坝藏族羌族自治州,马尔康中学西区,,19,16,17,13,14,16,,22,21,16,13,5,5,0.4,0.4
2024-11-08T0900,2695A,80.292,41.1694,阿克苏地区,电视台,颗粒物(PM10),74,97,106,31,36,20,,37,37,44,45,4,6,1.0,0.8
2024-11-08T0900,2696A,80.2613,41.1551,阿克苏地区,艺术中心,颗粒物(PM10),68,86,109,28,34,28,,44,44,39,47,4,4,0.9,1.1
2024-11-08T0900,2204A,105.6467,38.8363,阿拉善盟,西城区西花园,,34,34,37,20,26,66,,72,69,26,15,10,11,0.9,0.7
2024-11-08T0900,2205A,105.6985,38.8411,阿拉善盟,蒙二幼,,46,46,38,11,19,71,,72,70,25,16,7,9,0.6,0.6
2024-11-08T0900,2206A,105.724,38.8516,阿拉善盟,环保局新楼,,29,13,29,6,14,92,,92,91,9,10,8,9,0.5,0.5
2024-11-08T0900,2708A,88.1264,47.8517,阿勒泰地区,市站,,13,10,10,3,5,41,,38,37,14,12,7,7,0.5,0.5
2024-11-08T0900,2630A,80.1161,32.5,阿里地区,阿里监测站,,20,9,19,3,8,62,,62,62,3,14,3,8,0.5,0.6
2024-11-08T0900,3192A,80.0903,32.5028,阿里地区,阿里藏医院,,17,17,16,6,7,46,,56,56,23,14,6,7,0.5,0.5
2024-11-08T0900,2642A,109.0318,32.6537,安康市,香溪洞,颗粒物(PM10),59,68,61,33,33,35,,40,38,14,21,10,10,0.5,0.5
2024-11-08T0900,2644A,109.0072,32.6975,安康市,汉滨区检察院,细颗粒物(PM2.5),58,64,73,41,42,15,,21,20,24,30,6,8,0.6,0.6
2024-11-08T0900,4054A,109.0325,32.6913,安康市,市邮政管理局,颗粒物(PM10),64,78,79,42,43,13,,15,15,28,33,13,10,0.9,0.8
2024-11-08T0900,2291A,117.0809,30.5177,安庆市,环科院,细颗粒物(PM2.5),55,55,46,39,30,34,,53,48,34,24,14,11,0.7,0.5
2024-11-08T0900,2292A,117.0331,30.5119,安庆市,马山宾馆,,49,48,47,34,29,46,,63,58,36,30,12,10,0.6,0.4
2024-11-08T0900,2294A,116.9896,30.6145,安庆市,安庆大学,颗粒物(PM10),60,69,49,38,30,42,,49,46,20,18,10,10,0.5,0.5
2024-11-08T0900,3173A,117.0598,30.5351,安庆市,市人大,,,45,45,37,27,,,54,51,41,35,16,13,,0.4
2024-11-08T0900,3122A,105.9606,26.2611,安顺市,伍家关,细颗粒物(PM2.5),70,62,64,51,56,44,,57,52,26,16,26,19,0.9,0.8
2024-11-08T0900,3123A,105.9408,26.2431,安顺市,凤凰山,细颗粒物(PM2.5),55,52,63,39,51,67,,70,68,21,15,20,18,0.7,0.6
2024-11-08T0900,3124A,105.9439,26.2564,安顺市,金钟山,细颗粒物(PM2.5),75,66,71,55,58,59,,72,70,18,12,29,19,0.7,0.7
2024-11-08T0900,3125A,105.8983,26.2481,安顺市,娄家坡,细颗粒物(PM2.5),83,75,70,61,55,41,,71,66,33,15,37,20,0.8,0.6
2024-11-08T0900,1818A,114.4839,36.0621,安阳市,棉研所,细颗粒物(PM2.5),74,66,83,54,62,35,,35,34,35,36,8,8,0.3,0.2
2024-11-08T0900,1819A,114.3551,36.1017,安阳市,红庙街,细颗粒物(PM2.5),65,54,68,47,50,44,,58,55,27,25,4,3,0.4,0.4
2024-11-08T0900,1820A,114.361,36.0681,安阳市,银杏小区,,,,70,44,48,,,53,51,,26,3,3,0.7,0.7
2024-11-08T0900,3141A,114.3922,36.0878,安阳市,信访局,细颗粒物(PM2.5),58,56,87,41,52,45,,53,51,27,26,4,4,0.5,0.5
2024-11-08T0900,3669A,114.4705,36.0637,安阳市,左辅环卫站,颗粒物(PM10),63,76,96,43,54,32,,40,38,27,26,2,3,0.6,0.5
2024-11-08T0900,3703A,114.2917,36.0949,安阳市,安钢职工学校,细颗粒物(PM2.5),75,79,79,55,57,31,,46,43,40,32,4,4,0.4,0.4
2024-11-08T0900,1748A,123.044,41.1196,鞍山市,深沟寺,颗粒物(PM10),53,56,48,35,28,66,,73,72,23,15,5,6,0.8,0.7
2024-11-08T0900,1749A,123.011,41.0931,鞍山市,太阳城,颗粒物(PM10),51,51,47,34,30,88,,91,90,20,18,6,7,0.5,0.5
2024-11-08T0900,1750A,123.0485,41.1442,鞍山市,太平,颗粒物(PM10),55,59,51,37,30,56,,67,65,37,24,12,12,0.6,0.6
2024-11-08T0900,1751A,122.9642,41.0971,鞍山市,铁西三道街,,,81,71,46,37,44,,53,52,61,46,,101,0.7,0.6
2024-11-08T0900,1752A,122.9341,41.0833,鞍山市,铁西工业园区,细颗粒物(PM2.5),73,86,73,53,43,54,,52,52,44,33,15,12,2.1,1.5
2024-11-08T0900,1753A,123.022,41.0821,鞍山市,明达新区,颗粒物(PM10),52,53,49,35,33,83,,93,92,17,13,9,9,0.6,0.6
2024-11-08T0900,1754A,123.1289,41.0228,鞍山市,千山,,,,39,,28,,,50,,,7,,4,,0.4
2024-11-08T0900,2195A,107.4212,40.761,巴彦淖尔市,附二中,颗粒物(PM10),100,150,148,71,73,4,,8,7,44,53,18,13,1.2,1
2024-11-08T0900,2196A,107.37,40.7372,巴彦淖尔市,市环保大楼,颗粒物(PM10),78,106,118,34,63,6,,13,12,41,51,4,8,1.0,0.8
2024-11-08T0900,1956A,86.1472,41.7538,巴音郭楞蒙古自治州,孔雀公园,颗粒物(PM10),77,103,136,44,38,74,,85,85,27,27,11,7,0.5,0.4
2024-11-08T0900,1957A,86.1972,41.7166,巴音郭楞蒙古自治州,棉纺厂,颗粒物(PM10),80,110,149,36,38,81,,78,78,18,25,4,5,0.4,0.4
2024-11-08T0900,1958A,86.2357,41.7173,巴音郭楞蒙古自治州,经济开发区,颗粒物(PM10),79,108,121,33,39,84,,88,87,10,13,4,4,0.6,0.5
2024-11-08T0900,2914A,106.7677,31.8794,巴中市,苏山坪,,,31,46,24,35,,,57,56,,11,,5,0.5,0.5
2024-11-08T0900,3182A,106.7656,31.8545,巴中市,丽阳花园,,,,58,,43,4,,4,4,,32,4,4,1.0,0.8
2024-11-08T0900,3183A,106.7418,31.8654,巴中市,圣泉水务公司,,43,40,49,30,37,3,,2,2,20,31,5,4,0.7,0.7
2024-11-08T0900,3616A,106.7616,31.8344,巴中市,市中心医院,细颗粒物(PM2.5),57,56,71,40,52,2,,2,2,16,27,4,4,0.9,0.9
2024-11-08T0900,2235A,122.7911,45.6077,白城市,洮北区环保局,细颗粒物(PM2.5),211,172,82,161,77,26,,20,20,29,30,7,7,0.7,0.4
2024-11-08T0900,2236A,122.8738,45.5725,白城市,市环保局,细颗粒物(PM2.5),246,,100,196,86,24,,27,27,32,33,,4,,0.7
2024-11-08T0900,2231A,126.4219,41.9171,白山市,喜丰,颗粒物(PM10),72,93,64,26,21,12,,9,9,39,36,47,29,0.8,0.6
2024-11-08T0900,2232A,126.4077,41.9419,白山市,环保局,颗粒物(PM10),59,68,58,23,23,12,,19,18,36,31,15,12,0.9,0.7
2024-11-08T0900,2647A,104.1724,36.5446,白银市,第三小学,,,71,61,43,47,7,,9,8,39,37,,39,1.8,1.2
2024-11-08T0900,2648A,104.1465,36.5482,白银市,动力公司,,,68,56,40,41,,,19,17,23,26,,20,2.1,1.4
2024-11-08T0900,2512A,106.6103,23.9011,百色市,市监测站,细颗粒物(PM2.5),54,47,52,38,36,19,,22,19,19,18,5,7,0.8,0.8
2024-11-08T0900,2513A,106.6538,23.8859,百色市,市中心血站,细颗粒物(PM2.5),62,59,85,44,47,29,,24,24,20,31,5,10,0.7,0.8
2024-11-08T0900,3406A,106.6085,23.8798,百色市,祈福高中,颗粒物(PM10),58,66,70,32,36,26,,20,20,19,27,4,7,0.8,0.7
2024-11-08T0900,2270A,117.396,32.939,蚌埠市,工人疗养院,,,58,46,27,22,,,34,34,46,37,9,7,0.4,0.4
2024-11-08T0900,2271A,117.3605,32.9427,蚌埠市,百货大楼,颗粒物(PM10),55,60,44,19,17,25,,44,42,52,35,8,6,0.4,0.4
2024-11-08T0900,2273A,117.4185,32.8911,蚌埠市,蚌埠学院,,41,41,42,21,22,46,,46,45,28,25,6,6,0.3,0.3
2024-11-08T0900,2274A,117.3533,32.9673,蚌埠市,淮上区政府,颗粒物(PM10),52,53,48,27,24,41,,39,38,31,30,7,7,0.3,0.3
2024-11-08T0900,2275A,117.3145,32.8977,蚌埠市,高新区,,,29,42,13,22,55,,51,51,23,25,,6,0.3,0.3
2024-11-08T0900,3715A,117.3092,32.9314,蚌埠市,蚌埠田家炳中学,,34,34,41,11,19,65,,60,59,19,22,4,5,0.3,0.3
2024-11-08T0900,1585A,109.8756,40.6532,包头市,市环境监测站,细颗粒物(PM2.5),78,93,94,57,46,8,,6,6,52,71,15,21,2.5,1.8
2024-11-08T0900,1587A,109.9991,40.5842,包头市,包头八中,细颗粒物(PM2.5),104,104,112,78,65,14,,7,7,52,70,45,36,1.6,1.4
2024-11-08T0900,1588A,109.8538,40.6821,包头市,青山宾馆,细颗粒物(PM2.5),103,91,88,77,64,5,,5,5,50,64,14,21,2.0,1.6
2024-11-08T0900,1589A,109.8642,40.6288,包头市,惠龙物流,"颗粒物(PM10),细颗粒物(PM2.5)",65,80,90,47,46,8,,4,4,63,73,26,26,2.5,1.4
2024-11-08T0900,1590A,110.0377,40.5546,包头市,东河鸿龙湾,细颗粒物(PM2.5),70,69,80,51,50,16,,8,8,42,57,13,16,1.0,1
2024-11-08T0900,3283A,109.9154,40.5685,包头市,滨河大厦,细颗粒物(PM2.5),64,72,78,46,42,30,,16,16,47,58,18,19,0.9,1
2024-11-08T0900,3419A,109.9447,40.6261,包头市,包头市委党校,颗粒物(PM10),70,90,91,50,44,8,,6,6,55,69,16,25,1.8,1.7
2024-11-08T0900,3683A,109.8331,40.6576,包头市,昆区政府,细颗粒物(PM2.5),113,93,101,85,75,5,,4,4,58,69,27,22,2.3,1.9
2024-11-08T0900,1930A,107.185,34.3063,宝鸡市,庙沟村,细颗粒物(PM2.5),110,101,122,83,85,27,,53,47,31,23,8,8,0.7,0.8
2024-11-08T0900,1931A,107.0708,34.3017,宝鸡市,竹园沟,细颗粒物(PM2.5),124,106,117,94,109,9,,16,14,15,22,6,7,0.8,0.8
2024-11-08T0900,1932A,107.1906,34.3672,宝鸡市,三陆医院,细颗粒物(PM2.5),172,,138,130,127,7,,4,4,33,45,11,10,1.1,1
2024-11-08T0900,1933A,107.1431,34.3547,宝鸡市,监测站,细颗粒物(PM2.5),135,122,128,103,113,11,,13,12,26,32,7,9,1.0,0.9
2024-11-08T0900,1934A,107.1186,34.3739,宝鸡市,技工学校,细颗粒物(PM2.5),144,,119,110,115,17,,23,21,32,37,20,10,1.1,1
2024-11-08T0900,1935A,107.3906,34.3528,宝鸡市,陈仓区环保局家属楼,细颗粒物(PM2.5),165,137,138,125,120,3,,2,2,39,49,7,8,1.3,0.9
2024-11-08T0900,1936A,107.2058,34.3497,宝鸡市,文理学院,细颗粒物(PM2.5),144,,125,110,114,6,,10,9,31,40,10,12,1.0,0.9
2024-11-08T0900,1937A,107.2386,34.3622,宝鸡市,三迪小学,细颗粒物(PM2.5),153,,131,117,118,6,,5,5,37,55,10,11,1.2,1
2024-11-08T0900,1051A,115.493,38.8632,保定市,游泳馆,细颗粒物(PM2.5),159,161,147,121,110,12,,6,6,82,92,4,5,0.7,0.7
2024-11-08T0900,1052A,115.5213,38.8959,保定市,华电二区,细颗粒物(PM2.5),143,135,142,109,118,5,,2,2,61,84,5,7,0.8,0.8
2024-11-08T0900,1053A,115.4713,38.9108,保定市,接待中心,细颗粒物(PM2.5),148,149,150,113,105,8,,4,4,68,80,5,6,0.6,0.6
2024-11-08T0900,1054A,115.4612,38.8416,保定市,地表水厂,细颗粒物(PM2.5),163,158,157,124,113,9,,4,4,81,88,3,3,0.7,0.6
2024-11-08T0900,3581A,115.31981,38.95208,保定市,满城区生态环境分局,细颗粒物(PM2.5),153,178,156,117,99,6,,3,3,80,86,5,6,0.9,0.8
2024-11-08T0900,3582A,115.47694,38.76408,保定市,清苑区第二中学,细颗粒物(PM2.5),152,171,165,116,106,9,,6,6,80,86,4,7,0.9,0.8
2024-11-08T0900,3583A,115.62909,39.02311,保定市,徐水物探局,细颗粒物(PM2.5),147,160,150,112,107,4,,2,2,65,76,7,8,1.1,0.6
2024-11-08T0900,4004A,115.4202,38.8656,保定市,双鹰农机,细颗粒物(PM2.5),159,163,148,121,102,13,,6,6,68,78,5,6,0.8,0.7
2024-11-08T0900,4034A,115.5150,38.8590,保定市,植保所站,细颗粒物(PM2.5),147,167,159,112,119,7,,4,4,68,79,8,7,0.9,0.6
2024-11-08T0900,2594A,99.1678,25.1081,保山市,市环境监测站,,16,16,16,3,6,31,,39,38,15,11,5,4,0.7,0.6
2024-11-08T0900,2595A,99.1711,25.1328,保山市,市环保局,,18,14,14,8,9,57,,44,44,3,6,5,5,0.5,0.5
2024-11-08T0900,1866A,109.2262,21.588,北海市,牛尾岭水库,,,,40,49,35,39,,35,32,,6,11,7,0.7,0.7
2024-11-08T0900,1867A,109.1436,21.4086,北海市,海滩公园,细颗粒物(PM2.5),53,47,52,37,35,91,,103,101,16,14,20,14,0.7,0.8
2024-11-08T0900,1868A,109.0981,21.4661,北海市,新市环保局,"颗粒物(PM10),细颗粒物(PM2.5)",52,53,55,36,42,89,,81,80,22,17,13,12,0.7,0.7
2024-11-08T0900,1869A,109.1778,21.5233,北海市,北海工业园,细颗粒物(PM2.5),62,66,57,44,41,72,,70,68,23,20,25,13,0.7,0.6
2024-11-08T0900,3400A,109.1911,21.4415,北海市,龙潭自来水厂,细颗粒物(PM2.5),79,70,57,58,48,64,,51,51,19,16,16,10,0.8,0.7
2024-11-08T0900,1001A,116.3621,39.8784,北京市,万寿西宫,细颗粒物(PM2.5),147,160,150,112,96,2,,0,0,66,87,4,5,1.0,1.1
2024-11-08T0900,1002A,116.2202,40.2915,北京市,定陵,细颗粒物(PM2.5),175,171,120,132,85,0,,5,3,33,39,3,3,0.7,0.7
2024-11-08T0900,1003A,116.4174,39.9289,北京市,东四,细颗粒物(PM2.5),149,167,173,114,104,8,,2,2,59,80,8,9,0.9,1.2
2024-11-08T0900,1004A,116.4072,39.8863,北京市,天坛,细颗粒物(PM2.5),147,137,126,112,96,2,,0,0,43,58,1,3,0.9,1
2024-11-08T0900,1005A,116.462,39.9365,北京市,农展馆,细颗粒物(PM2.5),147,151,145,112,93,3,,0,0,61,82,1,3,0.9,1
2024-11-08T0900,1006A,116.3392,39.9295,北京市,官园,细颗粒物(PM2.5),155,171,146,118,92,6,,1,1,60,82,7,8,1.0,1.2
2024-11-08T0900,1007A,116.2878,39.9611,北京市,海淀万柳,细颗粒物(PM2.5),123,143,127,93,77,8,,7,7,52,51,5,5,1.1,1
2024-11-08T0900,1008A,116.6636,40.135,北京市,顺义新城,细颗粒物(PM2.5),144,156,138,110,92,8,,2,2,45,62,1,3,0.8,0.7
2024-11-08T0900,1009A,116.6275,40.3275,北京市,怀柔镇,细颗粒物(PM2.5),150,142,113,115,80,17,,17,16,32,43,2,4,0.5,0.5
2024-11-08T0900,1010A,116.2296,40.217,北京市,昌平镇,细颗粒物(PM2.5),147,169,131,112,79,4,,7,5,58,62,5,7,0.9,0.7
2024-11-08T0900,1011A,116.3966,39.9821,北京市,奥体中心,细颗粒物(PM2.5),149,161,140,114,87,7,,2,2,60,83,4,4,1.1,1.2
2024-11-08T0900,1012A,116.184,39.9136,北京市,古城,细颗粒物(PM2.5),142,168,159,108,97,3,,1,1,41,45,5,6,1.0,1
2024-11-08T0900,3281A,115.9718,40.4529,北京市,延庆夏都,细颗粒物(PM2.5),145,144,111,111,78,16,,20,20,29,35,3,3,0.7,0.5
2024-11-08T0900,3417A,117.0709,40.1465,北京市,平谷新城,细颗粒物(PM2.5),142,138,139,108,100,20,,13,13,23,37,3,3,0.7,0.7
2024-11-08T0900,3418A,116.8336,40.4095,北京市,密云新城,细颗粒物(PM2.5),142,149,136,108,85,29,,15,15,25,47,3,3,0.6,0.6
2024-11-08T0900,3671A,116.088,39.9726,北京市,门头沟三家店,细颗粒物(PM2.5),133,153,154,101,88,14,,6,6,37,64,7,7,0.6,0.7
2024-11-08T0900,3672A,116.1541,39.8204,北京市,丰台云岗,细颗粒物(PM2.5),156,161,145,119,98,5,,1,1,47,78,4,6,0.7,0.7
2024-11-08T0900,3673A,116.6804,39.9081,北京市,通州东关,细颗粒物(PM2.5),144,161,180,110,110,2,,2,2,64,81,3,5,1.1,0.9
2024-11-08T0900,3674A,115.9577,39.7603,北京市,房山燕山,细颗粒物(PM2.5),145,143,133,111,96,12,,7,7,33,54,3,3,0.7,0.7
2024-11-08T0900,3675A,116.4672,39.7733,北京市,大兴旧宫,细颗粒物(PM2.5),132,181,158,100,91,3,,1,1,68,57,3,3,1.0,0.8
2024-11-08T0900,3694A,115.986,40.4563,北京市,延庆石河营,细颗粒物(PM2.5),140,132,104,107,73,13,,11,11,30,38,3,2,0.6,0.6
2024-11-08T0900,3695A,116.6151,40.3053,北京市,怀柔新城,细颗粒物(PM2.5),150,151,121,115,82,21,,19,18,28,39,3,3,0.6,0.6
2024-11-08T0900,3696A,116.2545,39.8768,北京市,丰台小屯,细颗粒物(PM2.5),125,143,152,95,91,3,,1,1,69,80,3,4,1.2,1
2024-11-08T0900,3697A,116.84,40.3844,北京市,密云镇,细颗粒物(PM2.5),139,154,139,106,88,4,,1,1,43,55,3,3,0.7,0.7
2024-11-08T0900,1761A,123.8275,41.3064,本溪市,大峪,颗粒物(PM10),60,70,49,41,29,19,,41,37,53,26,11,11,1.1,0.8
2024-11-08T0900,1762A,123.7567,41.3325,本溪市,溪湖,颗粒物(PM10),58,66,75,33,46,38,,38,38,46,31,11,11,1.0,1
2024-11-08T0900,1763A,123.7169,41.3094,本溪市,彩屯,细颗粒物(PM2.5),93,110,73,69,47,25,,24,22,56,37,14,17,1.8,1.6
2024-11-08T0900,1764A,123.7669,41.2864,本溪市,东明,颗粒物(PM10),71,91,48,43,31,33,,46,42,59,31,10,10,1.2,0.8
2024-11-08T0900,1765A,123.7992,41.2664,本溪市,新立屯,,37,37,34,20,18,78,,85,85,27,20,7,7,0.6,0.7
2024-11-08T0900,1766A,123.8142,41.3472,本溪市,威宁,颗粒物(PM10),79,108,62,38,30,18,,22,20,48,27,9,9,1.0,0.9
2024-11-08T0900,2587A,105.2864,27.3125,毕节市,八中,细颗粒物(PM2.5),78,70,67,57,57,48,,59,59,19,19,8,8,0.7,0.7
2024-11-08T0900,2588A,105.31,27.2944,毕节市,师专,细颗粒物(PM2.5),70,62,66,51,56,54,,63,63,18,19,9,9,0.7,0.7
2024-11-08T0900,3537A,105.3631,27.3533,毕节市,长征村,细颗粒物(PM2.5),69,58,58,50,49,69,,65,65,15,16,14,9,0.6,0.7
2024-11-08T0900,1629A,118.0018,37.3617,滨州市,第二水厂,"颗粒物(PM10),细颗粒物(PM2.5)",89,127,99,66,52,18,,10,9,70,65,13,14,0.9,0.8
2024-11-08T0900,1630A,117.9776,37.393,滨州市,北中新校,颗粒物(PM10),97,144,96,53,46,19,,13,13,76,68,11,10,1.3,1
2024-11-08T0900,3514A,117.9378,37.3956,滨州市,中海酒店,细颗粒物(PM2.5),83,112,92,61,51,37,,27,27,63,58,12,11,1.1,0.9
2024-11-08T0900,3515A,117.9378,37.3553,滨州市,开发区一中,颗粒物(PM10),89,127,102,63,50,32,,27,27,80,70,13,14,0.9,0.9
2024-11-08T0900,3516A,118.0917,37.694,滨州市,金海六路,颗粒物(PM10),86,122,96,63,49,25,,12,12,50,56,14,11,0.9,0.7
2024-11-08T0900,4028A,117.9956,37.3753,滨州市,滨州市西街道办事处,细颗粒物(PM2.5),92,117,100,68,60,27,,14,13,62,65,14,12,1.0,1
2024-11-08T0900,2311A,115.8072,33.8399,亳州市,污水处理厂,颗粒物(PM10),52,53,58,35,34,31,,35,34,27,24,8,9,0.4,0.5
2024-11-08T0900,2312A,115.7789,33.8518,亳州市,三国揽胜宫,颗粒物(PM10),55,60,61,35,34,30,,37,36,27,21,4,5,0.5,0.5
2024-11-08T0900,3332A,115.7633,33.8034,亳州市,亳州学院,颗粒物(PM10),59,67,62,26,29,34,,43,41,31,25,5,4,0.4,0.4
2024-11-08T0900,2693A,82.0485,44.8556,博尔塔拉蒙古自治州,市党校,,25,,23,17,16,44,,43,43,10,12,4,4,0.2,0.3
2024-11-08T0900,2694A,82.0806,44.8969,博尔塔拉蒙古自治州,市环保局,,30,30,28,10,12,36,,37,37,8,10,1,2,0.2,0.2
2024-11-08T0900,1071A,116.8842,38.2991,沧州市,沧县城建局,细颗粒物(PM2.5),75,79,75,55,44,30,,46,43,52,38,8,7,0.7,0.6
2024-11-08T0900,1072A,116.8584,38.3254,沧州市,电视转播站,细颗粒物(PM2.5),73,84,77,53,44,31,,45,42,45,32,6,5,0.6,0.5
2024-11-08T0900,1073A,116.8709,38.3228,沧州市,市环保局,细颗粒物(PM2.5),72,88,76,52,49,27,,38,36,44,32,7,6,0.6,0.6
2024-11-08T0900,3324A,116.8136,38.3004,沧州市,河北水利电力学院,"颗粒物(PM10),细颗粒物(PM2.5)",70,90,83,51,52,31,,40,39,41,33,4,6,0.5,0.5
2024-11-08T0900,2622A,97.1806,31.1273,昌都市,昌都监测站,,17,17,25,10,16,34,,44,44,15,22,7,8,0.8,1
2024-11-08T0900,3719A,97.1714,31.1406,昌都市,昌都会议中心,,15,10,12,8,7,45,,52,51,6,8,6,6,0.5,0.5
2024-11-08T0900,2690A,88.1236,43.8886,昌吉回族自治州,天山天池,,18,6,19,3,9,57,,60,60,5,9,9,9,0.6,0.7
2024-11-08T0900,2692A,87.2717,44.0297,昌吉回族自治州,新区政务中心,,14,14,40,6,23,43,,49,47,20,18,6,8,0.3,0.3
2024-11-08T0900,3613A,87.3095,44.0142,昌吉回族自治州,亚心广场,,15,12,42,3,19,48,,52,52,19,20,1,4,0.4,0.5
2024-11-08T0900,1119A,125.3325,43.9166,长春市,食品厂,细颗粒物(PM2.5),70,82,57,51,39,11,,16,14,52,39,15,11,1.1,0.5
2024-11-08T0900,1120A,125.2863,43.9027,长春市,客车厂,细颗粒物(PM2.5),69,75,49,50,38,13,,18,15,56,41,35,17,0.8,0.5
2024-11-08T0900,1121A,125.2841,43.8463,长春市,邮电学院,细颗粒物(PM2.5),67,65,45,48,33,16,,22,21,50,33,15,9,0.7,0.4
2024-11-08T0900,1122A,125.3716,43.8772,长春市,劳动公园,细颗粒物(PM2.5),70,77,54,51,36,16,,23,21,54,37,14,10,1.3,0.8
2024-11-08T0900,1123A,125.3297,43.8805,长春市,园林处,细颗粒物(PM2.5),62,70,53,44,34,16,,25,23,46,33,9,9,0.9,0.6
2024-11-08T0900,1124A,125.4605,43.79,长春市,净月潭,细颗粒物(PM2.5),54,39,39,38,29,37,,36,36,14,10,8,8,0.6,0.4
2024-11-08T0900,1125A,125.7194,43.515,长春市,甩湾子,,,,,,23,,,17,,,11,,7,,1.0
2024-11-08T0900,1126A,125.3863,43.8447,长春市,经开区环卫处,颗粒物(PM10),63,76,56,44,30,9,,19,16,54,37,12,11,0.9,0.6
2024-11-08T0900,1127A,125.245,43.7783,长春市,高新区管委会,细颗粒物(PM2.5),84,79,45,62,30,20,,26,23,44,28,10,8,0.7,0.4
2024-11-08T0900,1128A,125.1761,43.8325,长春市,岱山公园,细颗粒物(PM2.5),97,100,46,72,33,8,,14,11,62,35,11,8,0.9,0.5
2024-11-08T0900,1335A,113.0833,28.2325,长沙市,经开区环保局,颗粒物(PM10),52,53,71,24,37,65,,51,51,35,39,6,4,0.4,0.5
2024-11-08T0900,1336A,112.8872,28.2189,长沙市,高开区环保局,颗粒物(PM10),55,60,76,33,46,42,,18,18,45,44,7,7,0.5,0.6
2024-11-08T0900,1337A,113.0792,28.2053,长沙市,马坡岭,颗粒物(PM10),52,54,68,30,42,61,,36,36,32,45,8,6,0.5,0.5
2024-11-08T0900,1338A,112.9394,28.19,长沙市,湖南师范大学,颗粒物(PM10),58,65,69,35,35,66,,55,55,37,29,8,7,0.6,0.6
2024-11-08T0900,1339A,113.0178,28.1322,长沙市,雨花区环保局,颗粒物(PM10),54,58,61,30,29,50,,62,55,43,35,10,8,0.5,0.5
2024-11-08T0900,1340A,112.9792,28.2597,长沙市,伍家岭,颗粒物(PM10),65,79,90,37,48,20,,4,4,49,45,5,5,0.8,0.8
2024-11-08T0900,1341A,113.0014,28.1944,长沙市,火车新站,,50,50,68,27,37,68,,64,64,33,35,6,5,0.5,0.5
2024-11-08T0900,1342A,112.9844,28.1178,长沙市,天心区环保局,颗粒物(PM10),60,69,67,37,32,55,,62,58,57,46,8,7,0.5,0.4
2024-11-08T0900,1343A,112.8908,28.1308,长沙市,湖南中医药大学,,,,82,,57,,,101,,,57,,9,,0.8
2024-11-08T0900,1344A,112.9581,28.3611,长沙市,沙坪,细颗粒物(PM2.5),64,,50,46,39,63,,56,54,20,15,11,9,0.4,0.3
2024-11-08T0900,1727A,113.1147,36.1547,长治市,清华站,细颗粒物(PM2.5),119,93,74,90,59,8,,44,34,63,32,9,10,0.9,0.6
2024-11-08T0900,1728A,113.1031,36.1989,长治市,监测站,细颗粒物(PM2.5),100,91,71,75,62,3,,35,26,49,28,11,12,1.2,0.8
2024-11-08T0900,1730A,113.0886,36.2125,长治市,审计局,细颗粒物(PM2.5),104,114,76,78,67,12,,42,31,39,26,7,8,1.1,0.8
2024-11-08T0900,1731A,113.0844,36.1856,长治市,长治八中,颗粒物(PM10),97,144,88,65,43,3,,38,27,57,34,7,9,1.1,0.8
2024-11-08T0900,2845A,113.1569,36.1911,长治市,德盛苑,细颗粒物(PM2.5),132,116,76,100,63,9,,75,63,58,24,10,7,1.3,0.9
2024-11-08T0900,3568A,113.06,36.0464,长治市,向阳小学,细颗粒物(PM2.5),105,126,89,79,64,11,,73,63,57,33,12,11,1.0,0.6
2024-11-08T0900,3569A,112.8792,36.3144,长治市,屯留一中,细颗粒物(PM2.5),99,84,79,74,67,24,,28,21,36,32,8,8,0.8,0.9
2024-11-08T0900,3570A,113.235,36.3489,长治市,潞城四中,细颗粒物(PM2.5),124,124,105,94,73,14,,11,11,64,54,12,9,2.5,1
2024-11-08T0900,1854A,111.6975,28.9703,常德市,市二中,细颗粒物(PM2.5),87,81,94,64,56,29,,25,22,33,36,15,8,0.8,0.7
2024-11-08T0900,1857A,111.7158,29.1456,常德市,白鹤山,,,,,,,,,,,,,,,,
2024-11-08T0900,3138A,111.7153,29.0289,常德市,武陵区永安,细颗粒物(PM2.5),78,82,83,57,51,43,,23,23,42,40,7,8,1.1,1
2024-11-08T0900,3139A,111.6892,28.9881,常德市,鼎城区玉霞,细颗粒物(PM2.5),77,94,101,56,60,32,,11,11,31,39,18,9,0.8,0.8
2024-11-08T0900,3140A,111.6625,29.0531,常德市,武陵区长庚,细颗粒物(PM2.5),88,96,90,65,54,30,,29,29,45,36,6,6,0.9,0.8
2024-11-08T0900,1196A,119.9633,31.762,常州市,市监测站,,29,29,38,15,18,42,,20,20,40,40,10,9,0.7,0.5
2024-11-08T0900,1200A,119.9468,31.7069,常州市,武进监测站,,34,34,31,23,17,38,,32,32,41,28,15,5,1.4,0.6
2024-11-08T0900,1201A,119.9255,31.9087,常州市,安家,,26,26,32,10,17,56,,40,40,29,36,7,8,0.3,0.4
2024-11-08T0900,3002A,119.9805,31.8174,常州市,行政中心,,40,40,31,17,15,26,,19,19,48,38,13,8,0.9,0.6
2024-11-08T0900,3003A,120.0522,31.7748,常州市,经开区,颗粒物(PM10),51,52,44,27,20,25,,8,8,62,59,11,9,0.6,0.5
2024-11-08T0900,3010A,119.9025,31.7964,常州市,钟楼,,45,45,39,16,16,36,,20,20,46,36,12,8,0.9,0.6
2024-11-08T0900,3429A,119.8598,31.7066,常州市,武进经发区,,38,38,40,18,18,39,,16,16,39,39,17,9,1.2,0.5
2024-11-08T0900,3430A,119.5826,31.7245,常州市,金坛城区,,45,45,39,27,19,42,,24,24,36,34,12,7,0.8,0.4
2024-11-08T0900,2220A,120.4318,41.5881,朝阳市,西梁,细颗粒物(PM2.5),193,196,134,145,96,8,,6,6,52,50,38,19,1.8,1.4
2024-11-08T0900,2221A,120.4521,41.5646,朝阳市,河畔小区,细颗粒物(PM2.5),133,129,97,101,73,7,,4,4,46,54,23,13,1.7,1.5
2024-11-08T0900,2222A,120.4176,41.5648,朝阳市,八里堡,细颗粒物(PM2.5),139,147,109,106,80,6,,5,5,50,51,15,16,2.1,1.6
2024-11-08T0900,2223A,120.3806,41.5969,朝阳市,农业园区,细颗粒物(PM2.5),173,,98,131,101,9,,7,7,43,53,13,15,1.5,1.3
2024-11-08T0900,1705A,116.6367,23.6719,潮州市,西园路,,45,45,31,14,20,56,,54,54,10,11,5,5,0.2,0.2
2024-11-08T0900,3026A,116.6183,23.6608,潮州市,市政府,,34,34,35,15,17,51,,57,55,16,15,8,8,0.6,0.5
2024-11-08T0900,4036A,116.6461,23.6761,潮州市,金山,,29,29,30,10,16,56,,56,55,9,11,9,9,0.6,0.6
2024-11-08T0900,2472A,113.0073,25.9061,郴州市,马头岭,,,,54,53,23,43,,27,27,36,24,42,20,0.5,0.7
2024-11-08T0900,2473A,113.0116,25.8226,郴州市,市职中,细颗粒物(PM2.5),64,57,48,46,34,43,,31,31,20,19,39,14,0.9,0.7
2024-11-08T0900,2474A,113.0161,25.8001,郴州市,兴隆步行街,细颗粒物(PM2.5),54,54,55,38,34,49,,25,25,21,25,41,15,0.8,0.6
2024-11-08T0900,2475A,113.0383,25.8071,郴州市,市审计局,细颗粒物(PM2.5),58,52,48,41,34,55,,28,28,23,24,51,17,0.8,0.6
2024-11-08T0900,2476A,113.0348,25.7759,郴州市,市环保局,细颗粒物(PM2.5),62,62,56,44,34,19,,9,9,31,28,13,14,0.8,0.6
2024-11-08T0900,1431A,103.9728,30.7236,成都市,金泉两河,细颗粒物(PM2.5),85,77,75,63,53,3,,1,1,34,41,3,3,0.6,0.6
2024-11-08T0900,1432A,104.176,30.6872,成都市,十里店,细颗粒物(PM2.5),77,72,57,56,42,4,,5,5,38,37,2,2,0.7,0.6
2024-11-08T0900,1433A,104.079,30.5706,成都市,三瓦窑,细颗粒物(PM2.5),94,83,69,70,54,3,,7,7,36,38,4,2,0.7,0.5
2024-11-08T0900,1434A,104.1114,30.63,成都市,沙河铺,细颗粒物(PM2.5),77,68,63,56,45,5,,6,4,26,29,4,3,0.7,0.6
2024-11-08T0900,1437A,104.0786,30.6531,成都市,君平街,细颗粒物(PM2.5),90,81,67,67,44,4,,16,15,36,38,6,5,0.8,0.7
2024-11-08T0900,1438A,103.613,31.0283,成都市,灵岩寺,,,,,,,,,,,,,,,,
2024-11-08T0900,2880A,104.0239,30.65639,成都市,大石西路,细颗粒物(PM2.5),79,85,69,58,48,2,,9,9,34,35,4,3,0.8,0.7
2024-11-08T0900,3136A,104.2725,30.5589,成都市,龙泉驿区区政府,细颗粒物(PM2.5),58,53,43,41,35,10,,20,19,23,19,2,3,0.6,0.5
2024-11-08T0900,3357A,104.0106,30.6931,成都市,金博路,细颗粒物(PM2.5),80,85,79,59,50,4,,4,4,31,38,2,2,0.7,0.7
2024-11-08T0900,3359A,104.0578,30.5225,成都市,华阳,细颗粒物(PM2.5),73,73,59,53,43,5,,20,19,24,22,3,2,0.7,0.7
2024-11-08T0900,3487A,104.2394,30.5319,成都市,车城东七路,细颗粒物(PM2.5),65,60,57,47,45,18,,26,25,23,21,2,2,0.7,0.5
2024-11-08T0900,3488A,104.3853,30.7453,成都市,青白江技师分院,细颗粒物(PM2.5),79,72,65,58,47,8,,30,28,32,18,1,2,0.7,0.6
2024-11-08T0900,3489A,104.0789,30.4072,成都市,科学城,细颗粒物(PM2.5),73,61,62,53,52,29,,19,19,17,21,4,4,0.6,0.6
2024-11-08T0900,4011A,103.8506,30.6947,成都市,光华大道三段,细颗粒物(PM2.5),83,78,79,61,61,5,,7,6,24,32,5,4,0.7,0.6
2024-11-08T0900,1062A,117.9531,40.9081,承德市,铁路,细颗粒物(PM2.5),88,105,100,65,62,4,,5,4,51,54,4,5,0.9,0.9
2024-11-08T0900,1063A,117.9392,40.9763,承德市,中国银行,"颗粒物(PM10),细颗粒物(PM2.5)",75,100,94,55,53,8,,3,3,38,44,1,2,0.8,0.8
2024-11-08T0900,1064A,117.9503,40.928,承德市,开发区,颗粒物(PM10),92,134,111,64,54,8,,5,5,59,58,6,5,1.1,0.8
2024-11-08T0900,1065A,117.8051,40.9655,承德市,文化中心,细颗粒物(PM2.5),112,163,120,84,60,4,,1,1,46,50,3,6,1.0,1
2024-11-08T0900,1066A,117.9268,41.0026,承德市,离宫,细颗粒物(PM2.5),102,105,92,76,67,11,,3,3,37,41,3,3,0.7,0.6
2024-11-08T0900,2314A,117.47,30.6618,池州市,池州学院,,46,46,42,28,23,38,,42,38,26,25,7,7,0.6,0.5
2024-11-08T0900,3237A,117.4918,30.6617,池州市,展览馆,,50,50,42,30,24,40,,39,36,25,24,6,6,0.6,0.5
2024-11-08T0900,3333A,117.5627,30.695,池州市,第八中学,颗粒物(PM10),51,52,41,30,23,31,,30,28,24,23,6,5,0.7,0.5
2024-11-08T0900,3334A,117.5038,30.6243,池州市,第十二中学,,44,44,40,28,24,45,,35,33,20,21,5,4,0.5,0.4
2024-11-08T0900,1744A,118.9233,42.2816,赤峰市,松山一中,颗粒物(PM10),82,113,111,56,55,8,,7,7,51,55,88,31,1.5,1.3
2024-11-08T0900,1745A,118.9576,42.2728,赤峰市,哈达街,细颗粒物(PM2.5),97,133,110,72,63,10,,7,7,46,46,148,50,1.6,1.2
2024-11-08T0900,1746A,118.8788,42.2554,赤峰市,天义路,细颗粒物(PM2.5),80,106,90,59,54,7,,4,4,52,50,38,12,1.2,1
2024-11-08T0900,3058A,119.2658,42.0353,赤峰市,银河街,细颗粒物(PM2.5),122,121,130,92,77,20,,19,17,34,37,18,22,1.2,1.1
2024-11-08T0900,3286A,118.9359,42.3147,赤峰市,桥北物流园区,细颗粒物(PM2.5),95,82,95,71,67,14,,10,10,34,51,22,17,1.4,1.2
2024-11-08T0900,2521A,107.3476,22.4136,崇左市,市环保局江州分局,,,61,68,37,39,37,,42,42,,15,,6,0.8,0.7
2024-11-08T0900,2522A,107.3702,22.3707,崇左市,城南新区,细颗粒物(PM2.5),52,52,53,36,36,40,,44,40,24,18,5,7,0.6,0.6
2024-11-08T0900,2298A,118.3093,32.3153,滁州市,老年大学,颗粒物(PM10),52,53,45,28,23,35,,21,21,40,36,5,2,0.4,0.4
2024-11-08T0900,2299A,118.3244,32.2786,滁州市,人大宾馆,颗粒物(PM10),55,59,47,30,22,32,,16,16,49,40,10,9,0.4,0.5
2024-11-08T0900,3207A,118.3118,32.3038,滁州市,市政府原办公楼,,50,50,45,31,26,33,,,,46,40,10,7,0.6,0.5
2024-11-08T0900,3331A,118.3267,32.2634,滁州市,图书馆,颗粒物(PM10),54,58,50,30,22,34,,16,16,37,33,8,6,0.4,0.4
2024-11-08T0900,2605A,101.5482,25.0441,楚雄彝族自治州,州环境监测站,,13,,9,3,9,41,,44,44,17,14,8,9,0.8,0.8
2024-11-08T0900,2606A,101.538,25.0492,楚雄彝族自治州,市经济开发区,,12,7,11,3,9,37,,44,44,22,17,9,9,0.7,0.8
2024-11-08T0900,2548A,107.5277,31.2827,达州市,达州职业技术学院,颗粒物(PM10),57,64,51,39,36,4,,4,4,25,34,5,5,0.8,0.7
2024-11-08T0900,2549A,107.5086,31.2186,达州市,市环境监测站,颗粒物(PM10),58,66,54,29,25,2,,2,2,31,42,6,6,0.7,0.6
2024-11-08T0900,2550A,107.4988,31.2132,达州市,凤凰小区,颗粒物(PM10),53,56,49,34,30,5,,4,4,31,40,8,8,0.7,0.6
2024-11-08T0900,2551A,107.5082,31.1986,达州市,达县机关宾馆,细颗粒物(PM2.5),63,53,50,45,34,6,,3,3,34,41,7,6,0.8,0.6
2024-11-08T0900,2552A,107.4644,31.2124,达州市,市政中心,颗粒物(PM10),57,64,57,34,30,5,,4,4,32,45,6,6,0.9,0.8
2024-11-08T0900,2614A,100.1542,25.7054,大理白族自治州,大理市环境监测站,,18,17,12,11,14,56,,66,65,13,6,7,6,0.7,0.6
2024-11-08T0900,2615A,100.2171,25.5811,大理白族自治州,大理古城,,14,12,11,3,8,42,,52,51,13,8,6,6,0.5,0.5
2024-11-08T0900,1109A,121.612,38.9741,大连市,甘井子,,40,40,44,17,23,69,,91,86,40,34,14,12,0.4,0.3
2024-11-08T0900,1110A,121.565,38.9511,大连市,周水子,,46,46,52,25,30,69,,81,76,31,32,9,9,0.8,0.8
2024-11-08T0900,1111A,121.5637,38.8845,大连市,星海三站,,38,38,41,18,24,86,,96,92,15,17,10,11,0.6,0.5
2024-11-08T0900,1112A,121.6302,38.9117,大连市,青泥洼桥,,30,30,38,16,22,85,,98,95,13,14,10,10,0.6,0.5
2024-11-08T0900,1113A,121.6251,38.8638,大连市,傅家庄,,30,27,35,11,19,96,,106,104,14,16,10,11,0.4,0.4
2024-11-08T0900,1114A,121.5213,38.8661,大连市,七贤岭,,35,35,42,16,22,84,,95,92,16,19,9,10,0.5,0.5
2024-11-08T0900,1115A,121.2529,38.8061,大连市,旅顺,,30,30,43,17,24,94,,100,97,19,25,10,9,0.6,0.6
2024-11-08T0900,1116A,121.7485,39.1311,大连市,金州,,41,41,41,26,31,61,,88,84,37,24,8,8,0.7,0.6
2024-11-08T0900,1117A,121.7811,39.0496,大连市,开发区,,38,38,46,15,23,86,,96,94,16,15,6,6,0.3,0.3
2024-11-08T0900,1118A,121.9762,39.0631,大连市,双D港,,34,24,35,11,21,106,,105,104,15,18,9,10,0.6,0.6
2024-11-08T0900,1789A,124.81117,46.03138,大庆市,大同区,细颗粒物(PM2.5),152,150,177,116,152,10,,10,9,36,41,6,26,0.3,0.4
2024-11-08T0900,1790A,125.129,46.533,大庆市,龙凤区,细颗粒物(PM2.5),92,96,114,68,93,29,,25,25,28,28,13,7,0.7,0.7
2024-11-08T0900,1791A,124.902,46.408,大庆市,红岗区,细颗粒物(PM2.5),74,56,136,54,86,22,,18,18,21,40,15,19,0.4,0.8
2024-11-08T0900,1792A,125.153,46.586,大庆市,萨尔图区,细颗粒物(PM2.5),85,88,126,63,105,26,,30,29,31,30,10,10,0.4,0.5
2024-11-08T0900,1793A,124.9042,46.6215,大庆市,让胡路区,细颗粒物(PM2.5),94,90,128,70,101,13,,18,17,48,31,13,9,0.8,0.7
2024-11-08T0900,3481A,125.141,46.634,大庆市,萨区政府监测点,细颗粒物(PM2.5),73,66,125,53,106,25,,23,22,26,29,7,8,0.5,0.6
2024-11-08T0900,1721A,113.3819,40.1097,大同市,果树场,细颗粒物(PM2.5),125,172,108,95,60,2,,2,2,53,51,12,12,1.9,1
2024-11-08T0900,1723A,113.2994,40.0758,大同市,云冈宾馆,细颗粒物(PM2.5),117,152,114,88,62,7,,4,4,54,56,16,17,2.4,1.4
2024-11-08T0900,1724A,113.3444,40.0917,大同市,大同大学,细颗粒物(PM2.5),88,122,90,65,51,11,,16,14,60,53,22,17,1.6,1.1
2024-11-08T0900,1725A,113.2661,40.1269,大同市,安家小村,细颗粒物(PM2.5),110,146,122,83,61,13,,11,11,54,52,26,25,2.7,2.1
2024-11-08T0900,1726A,113.2711,40.0844,大同市,教育学院,细颗粒物(PM2.5),149,212,132,114,68,6,,2,2,83,75,22,19,3.3,1.6
2024-11-08T0900,3282A,113.3397,40.0597,大同市,大同市卫生学校,,,135,105,75,55,,,5,5,64,59,18,17,1.8,0.8
2024-11-08T0900,3565A,113.1367,40.1122,大同市,云冈站,细颗粒物(PM2.5),100,148,132,75,71,8,,7,7,37,49,19,19,1.0,0.9
2024-11-08T0900,3566A,113.1186,40.2556,大同市,图书馆,细颗粒物(PM2.5),83,111,106,61,60,14,,14,13,25,30,12,16,1.0,0.8
2024-11-08T0900,3567A,113.5931,40.0461,大同市,区一中,颗粒物(PM10),85,119,88,44,31,32,,32,31,41,36,30,26,1.2,0.9
2024-11-08T0900,3676A,113.2802,40.0995,大同市,第二人民医院,细颗粒物(PM2.5),118,169,129,89,60,11,,6,6,61,59,26,23,2.6,1.8
2024-11-08T0900,2269A,124.1069,50.4097,大兴安岭地区,科技局,,23,22,42,16,27,36,,33,33,4,9,4,5,0.3,0.4
2024-11-08T0900,3663A,124.1164,50.4278,大兴安岭地区,红旗社区,,46,46,47,26,30,19,,14,14,19,21,6,6,0.5,0.5
2024-11-08T0900,1600A,124.3303,40.0625,丹东市,江湾东路,,,91,89,57,50,,,16,16,48,45,27,18,1.8,1.3
2024-11-08T0900,1601A,124.4256,40.1503,丹东市,临江后街,颗粒物(PM10),56,61,61,36,33,6,,6,6,41,42,24,14,0.9,0.8
2024-11-08T0900,1602A,124.3933,40.1461,丹东市,元宝山,细颗粒物(PM2.5),77,102,58,56,31,6,,9,9,41,37,19,11,1.4,0.9
2024-11-08T0900,1603A,124.3633,40.1092,丹东市,民主桥,颗粒物(PM10),54,58,54,34,30,7,,10,9,51,41,16,11,0.9,0.8
2024-11-08T0900,3541A,109.5726,19.5167,儋州市,第一中学子站,,44,44,47,29,30,129,,119,118,14,10,8,7,0.5,0.5
2024-11-08T0900,3542A,109.5567,19.5187,儋州市,东坡学校子站,颗粒物(PM10),51,51,49,28,30,90,,104,98,20,11,8,7,0.8,0.7
2024-11-08T0900,2616A,98.5842,24.428,德宏傣族景颇族自治州,德宏州监测站,,26,23,23,18,16,11,,21,21,24,24,12,13,0.8,0.7
2024-11-08T0900,3677A,98.5881,24.4368,德宏傣族景颇族自治州,芒市人民政府综合楼,,25,25,22,14,15,10,,19,18,22,22,7,11,1.0,0.8
2024-11-08T0900,1901A,104.4239,31.1208,德阳市,东山公园,颗粒物(PM10),66,81,69,45,37,2,,22,19,21,14,2,1,0.8,0.7
2024-11-08T0900,1902A,104.3826,31.1317,德阳市,西小区,细颗粒物(PM2.5),75,76,61,55,45,3,,6,6,28,25,1,2,0.9,0.7
2024-11-08T0900,1904A,104.3553,31.1091,德阳市,耐火材料厂,细颗粒物(PM2.5),72,85,68,52,44,2,,9,9,29,27,3,4,0.9,0.7
2024-11-08T0900,3639A,104.4019,31.1244,德阳市,市教育局,细颗粒物(PM2.5),69,73,55,50,38,3,,11,9,34,23,3,2,0.8,0.7
2024-11-08T0900,1622A,116.3032,37.4674,德州市,儿童乐园,颗粒物(PM10),63,75,74,36,36,63,,64,64,30,28,14,12,0.8,0.6
2024-11-08T0900,1624A,116.2991,37.4451,德州市,监理站,颗粒物(PM10),59,68,66,36,36,62,,66,65,32,28,14,12,0.9,0.6
2024-11-08T0900,3066A,116.2721,37.4379,德州市,九衢泉纯净水厂,颗粒物(PM10),69,88,79,41,34,46,,51,50,42,34,14,11,0.9,0.6
2024-11-08T0900,3371A,116.3728,37.4403,德州市,开发区人民医院,颗粒物(PM10),63,75,71,34,34,39,,49,49,44,38,12,11,0.8,0.6
2024-11-08T0900,3372A,116.3572,37.4094,德州市,太阳城中学,颗粒物(PM10),62,73,75,36,36,54,,54,53,38,35,10,9,0.7,0.6
2024-11-08T0900,3511A,116.5652,37.3319,德州市,陵城艺术中心,颗粒物(PM10),60,70,66,36,33,58,,56,56,33,27,12,12,0.6,0.6
2024-11-08T0900,2621A,99.7056,27.8317,迪庆藏族自治州,迪庆州站,,22,16,19,15,16,55,,63,63,23,15,7,7,0.7,0.6
2024-11-08T0900,3180A,99.7136,27.8094,迪庆藏族自治州,质量技术监督局,,20,20,17,10,10,50,,58,58,24,16,7,7,0.8,0.7
2024-11-08T0900,2663A,104.6241,35.5734,定西市,东关小学,,45,45,43,20,23,40,,44,44,11,11,2,2,0.3,0.3
2024-11-08T0900,2664A,104.6194,35.5934,定西市,供电公司,,36,33,37,25,25,38,,45,45,12,11,6,6,0.3,0.3
2024-11-08T0900,1389A,113.7547,23.0494,东莞市,莞城梨川,,40,40,38,21,21,83,,92,89,28,21,9,10,0.6,0.5
2024-11-08T0900,1390A,113.7944,23.0128,东莞市,东城石井,,35,35,35,17,18,87,,77,76,24,20,16,11,0.6,0.6
2024-11-08T0900,1391A,113.7383,22.9658,东莞市,南城西平,,37,37,38,17,18,76,,45,44,33,40,10,9,0.6,0.6
2024-11-08T0900,3319A,113.7338,23.0381,东莞市,万江金泰,,33,33,35,17,18,86,,86,85,18,16,8,9,0.6,0.6
2024-11-08T0900,3626A,113.7533,23.0202,东莞市,南城元岭,,36,36,36,17,17,76,,85,83,21,14,10,10,0.6,0.6
2024-11-08T0900,3627A,113.7875,23.0457,东莞市,东城主山,,38,38,38,20,21,79,,82,81,30,23,12,11,0.6,0.6
2024-11-08T0900,1666A,118.6614,37.4309,东营市,市环保局,颗粒物(PM10),78,105,73,46,35,34,,31,31,49,45,13,9,0.8,0.7
2024-11-08T0900,3036A,118.6904,37.4338,东营市,开发区管委会,颗粒物(PM10),75,99,79,51,39,39,,41,40,37,34,15,12,0.8,0.7
2024-11-08T0900,3365A,118.5719,37.565,东营市,垦利区民丰路,颗粒物(PM10),67,83,65,46,32,27,,32,31,52,42,11,10,0.7,0.5
2024-11-08T0900,3498A,118.5055,37.8612,东营市,河口城区,颗粒物(PM10),76,102,93,54,42,32,,30,29,45,37,9,8,0.9,0.7
2024-11-08T0900,3646A,118.4978,37.4623,东营市,胜利站,颗粒物(PM10),71,91,75,44,33,21,,34,32,60,47,13,8,1.0,0.6
2024-11-08T0900,3734A,118.35,37.26,东营市,理想之城,颗粒物(PM10),68,85,70,48,37,22,,20,20,54,46,7,6,0.9,0.5
2024-11-08T0900,1591A,110.0023,39.8129,鄂尔多斯市,综合楼,细颗粒物(PM2.5),64,68,81,46,42,42,,51,49,38,35,13,12,1.0,0.8
2024-11-08T0900,1592A,109.9486,39.8261,鄂尔多斯市,巴音孟克林场办事处,颗粒物(PM10),60,70,80,41,42,46,,54,52,35,38,12,14,1.0,0.9
2024-11-08T0900,1593A,109.7736,39.5986,鄂尔多斯市,康泽苑,颗粒物(PM10),51,51,68,34,39,8,,8,7,49,42,6,9,1.3,0.7
2024-11-08T0900,1594A,109.8119,39.5989,鄂尔多斯市,华泰汽车城,,45,39,70,31,38,10,,8,8,43,46,6,8,1.0,0.7
2024-11-08T0900,1595A,109.9734,39.7884,鄂尔多斯市,奥林花园,颗粒物(PM10),69,88,88,36,41,23,,36,33,44,41,8,9,1.2,1
2024-11-08T0900,2436A,114.8938,30.3994,鄂州市,市政府,颗粒物(PM10),54,57,59,29,36,60,,59,57,39,34,11,11,0.9,0.9
2024-11-08T0900,2437A,114.8989,30.3714,鄂州市,赵家坝,颗粒物(PM10),56,62,56,32,37,52,,55,52,41,34,10,12,0.8,0.7
2024-11-08T0900,3654A,114.8094,30.4089,鄂州市,精准医疗中心,颗粒物(PM10),57,64,63,32,38,61,,57,55,46,37,48,22,2.7,1.9
2024-11-08T0900,2454A,109.4978,30.2981,恩施土家族苗族自治州,湖北民院,细颗粒物(PM2.5),59,53,56,42,43,19,,29,27,23,22,6,6,0.5,0.4
2024-11-08T0900,2455A,109.4707,30.2798,恩施土家族苗族自治州,州电力总公司,细颗粒物(PM2.5),70,64,62,51,44,15,,14,14,32,36,7,7,0.6,0.6
2024-11-08T0900,3549A,109.5061,30.3772,恩施土家族苗族自治州,龙凤新区,细颗粒物(PM2.5),57,49,56,40,38,16,,20,19,19,17,6,6,0.9,0.7
2024-11-08T0900,2499A,108.3411,21.6158,防城港市,沙万,细颗粒物(PM2.5),53,47,52,37,34,93,,98,96,22,18,8,7,0.6,0.5
2024-11-08T0900,2500A,108.3514,21.7731,防城港市,防城档案局,颗粒物(PM10),62,74,90,36,39,79,,81,81,28,30,8,7,0.5,0.5
2024-11-08T0900,2501A,108.3506,21.6414,防城港市,大海花园,细颗粒物(PM2.5),53,53,57,37,37,98,,95,94,20,15,8,7,0.6,0.6
2024-11-08T0900,1371A,113.1294,23.0067,佛山市,湾梁,,44,44,46,18,16,77,,73,72,44,36,9,8,0.6,0.6
2024-11-08T0900,1372A,113.1083,23.0478,佛山市,华材职中,,44,44,49,24,25,81,,69,69,41,41,10,10,0.5,0.5
2024-11-08T0900,1373A,113.144,23.0453,佛山市,南海气象局,,40,40,44,18,19,77,,62,62,36,32,9,9,0.4,0.4
2024-11-08T0900,1374A,113.2881,22.8094,佛山市,顺德苏岗,,38,38,41,14,19,71,,55,55,34,33,9,9,0.6,0.6
2024-11-08T0900,1376A,112.8383,22.8678,佛山市,高明孔堂,,40,40,48,25,24,78,,64,64,31,24,15,10,0.5,0.5
2024-11-08T0900,1377A,112.8836,23.1588,佛山市,三水监测站,颗粒物(PM10),51,51,43,24,25,79,,68,68,31,30,14,10,0.6,0.5
2024-11-08T0900,1378A,112.867,23.185,佛山市,三水云东海,,43,43,39,27,24,75,,52,52,33,32,19,12,0.7,0.6
2024-11-08T0900,3625A,113.2544,22.7642,佛山市,容桂街道办,,34,34,38,17,22,81,,68,68,33,30,9,8,0.5,0.5
2024-11-08T0900,1280A,119.3903,26.0543,福州市,鼓山,,,,20,,7,,,103,,,6,,2,,0.3
2024-11-08T0900,1282A,119.2681,26.0504,福州市,师大,,32,32,28,13,7,60,,67,65,15,10,3,2,0.4,0.3
2024-11-08T0900,1283A,119.2984,26.1028,福州市,五四北路,,36,36,24,9,7,65,,74,71,13,9,3,2,0.3,0.3
2024-11-08T0900,1284A,119.2648,26.0768,福州市,杨桥西路,,39,39,28,15,7,60,,67,65,15,9,1,1,0.4,0.3
2024-11-08T0900,1285A,119.317,26.0746,福州市,紫阳,颗粒物(PM10),58,66,42,13,9,52,,68,64,31,16,3,3,0.5,0.4
2024-11-08T0900,3048A,119.5799,26.0936,福州市,九龙,,,,,,,,,,,,,,,,
2024-11-08T0900,3526A,119.5189,25.9664,福州市,吴航,,25,22,26,10,11,77,,80,78,10,8,4,3,0.2,0.2
2024-11-08T0900,1755A,123.7977,41.8491,抚顺市,望花区,颗粒物(PM10),67,83,67,46,38,10,,30,26,63,33,9,15,1.1,0.9
2024-11-08T0900,1756A,123.9161,41.8822,抚顺市,顺城区,细颗粒物(PM2.5),62,64,50,44,30,32,,35,34,42,30,6,7,0.5,0.4
2024-11-08T0900,1757A,124.0436,41.8611,抚顺市,东洲区,细颗粒物(PM2.5),60,58,41,43,30,38,,57,54,21,13,10,9,0.6,0.5
2024-11-08T0900,1758A,123.9247,41.8642,抚顺市,新抚区,"颗粒物(PM10),细颗粒物(PM2.5)",64,78,56,46,34,9,,24,19,54,30,6,8,0.6,0.4
2024-11-08T0900,1759A,124.0972,41.8961,抚顺市,大伙房水库,,45,38,37,31,25,62,,65,65,12,11,8,8,0.6,0.5
2024-11-08T0900,1760A,123.7086,41.8391,抚顺市,沈抚新城,颗粒物(PM10),80,110,66,58,39,12,,46,39,62,28,18,15,1.8,1
2024-11-08T0900,2376A,116.2127,28.0814,抚州市,桐源党溪,颗粒物(PM10),69,88,59,38,28,44,,26,26,18,13,10,8,0.6,0.5
2024-11-08T0900,2377A,116.3544,27.9831,抚州市,市站,,49,49,44,26,22,52,,54,52,25,19,20,11,0.8,0.7
2024-11-08T0900,2378A,116.3565,27.963,抚州市,血防站,,47,47,47,19,21,59,,52,51,22,16,14,9,0.5,0.5
2024-11-08T0900,2379A,116.3564,28.0007,抚州市,采茶剧团,颗粒物(PM10),52,53,47,29,27,40,,56,51,23,14,20,12,0.7,0.6
2024-11-08T0900,2380A,116.385,27.9647,抚州市,医学分院,,50,50,48,20,22,52,,50,49,20,13,16,12,0.6,0.6
2024-11-08T0900,2207A,121.6094,41.998,阜新市,工业园区,细颗粒物(PM2.5),169,215,126,128,92,18,,5,5,49,45,37,25,2.3,1.6
2024-11-08T0900,2208A,121.6697,42.0279,阜新市,长青街,细颗粒物(PM2.5),190,217,131,143,93,6,,4,4,40,41,63,27,2.5,3
2024-11-08T0900,2209A,121.6673,42.0705,阜新市,农业园区,细颗粒物(PM2.5),178,154,115,134,88,21,,25,23,43,41,57,35,1.8,1.2
2024-11-08T0900,2210A,121.6717,42.0224,阜新市,东苑,细颗粒物(PM2.5),183,173,122,138,89,7,,5,5,44,45,74,31,2.9,3.5
2024-11-08T0900,2211A,121.6506,42.0498,阜新市,玉龙新城,细颗粒物(PM2.5),178,172,118,134,82,10,,7,7,50,47,30,23,2.1,1.8
2024-11-08T0900,2301A,115.8277,32.8929,阜阳市,市监测站,颗粒物(PM10),57,63,52,39,34,35,,46,43,28,26,7,7,0.7,0.6
2024-11-08T0900,2303A,115.8554,32.8605,阜阳市,开发区,颗粒物(PM10),64,77,68,35,30,33,,50,45,32,28,8,8,0.7,0.6
2024-11-08T0900,2875A,115.784,32.8892,阜阳市,阜阳职业技术学院,,,,46,,28,,,60,56,,19,,7,,0.5
2024-11-08T0900,3468A,115.7901,32.8613,阜阳市,市规划展馆,颗粒物(PM10),54,58,44,32,24,39,,62,56,28,22,8,7,0.5,0.4
2024-11-08T0900,3469A,115.836,32.9183,阜阳市,枣园社区,颗粒物(PM10),54,57,50,32,29,31,,49,45,28,24,8,8,0.6,0.5
2024-11-08T0900,2669A,102.9099,34.9841,甘南藏族自治州,州政府,,36,36,31,20,15,8,,3,3,36,34,5,4,1.5,0.7
2024-11-08T0900,3380A,102.8914,34.9617,甘南藏族自治州,甘肃民族师范学院,颗粒物(PM10),56,61,33,32,12,5,,2,2,39,37,8,7,0.5,0.3
2024-11-08T0900,2570A,101.9603,30.0475,甘孜藏族自治州,水桥子,,25,22,23,17,12,4,,4,4,12,20,8,7,0.6,0.4
2024-11-08T0900,3065A,101.9533,29.9972,甘孜藏族自治州,州环保局,,43,43,25,3,6,12,,10,10,17,22,3,3,0.3,0.2
2024-11-08T0900,3414A,115.8347,28.932,赣江新区,桑海产业园,细颗粒物(PM2.5),68,75,66,49,38,38,,8,8,41,47,17,13,0.7,0.4
2024-11-08T0900,2362A,114.9017,25.9149,赣州市,通天岩,,35,35,39,12,25,82,,59,59,9,9,2,1,0.1,0.3
2024-11-08T0900,2363A,114.9367,25.8664,赣州市,地委,颗粒物(PM10),55,59,46,32,29,89,,65,65,15,15,1,1,0.6,0.6
2024-11-08T0900,2364A,114.9461,25.8481,赣州市,气象台,,50,50,38,34,30,60,,58,55,32,17,20,9,0.6,0.6
2024-11-08T0900,2365A,114.9322,25.8333,赣州市,市图书馆,,44,44,40,28,20,82,,76,73,24,17,14,9,0.5,0.5
2024-11-08T0900,2366A,114.8905,25.8471,赣州市,华坚鞋城,,44,44,43,23,22,79,,93,90,20,12,8,7,0.6,0.5
2024-11-08T0900,3109A,115.0093,25.8613,赣州市,赣县区卫计委,,,63,40,29,22,,,32,32,23,23,,5,0.5,0.5
2024-11-08T0900,2683A,106.2319,36.1417,固原市,马园,,38,38,43,22,28,19,,19,19,28,21,6,6,1.0,0.8
2024-11-08T0900,2684A,106.2792,36.0022,固原市,监测站,,28,,31,19,33,38,,43,42,14,21,4,5,0.6,0.6
2024-11-08T0900,2685A,106.2375,36.0211,固原市,新区,,33,24,33,23,26,23,,31,31,23,22,3,4,0.8,0.6
2024-11-08T0900,3522A,106.2177,35.9959,固原市,原州区十五小,,26,26,28,16,15,57,,77,74,21,14,6,6,0.7,0.5
2024-11-08T0900,2543A,106.6308,30.5278,广安市,小平旧居,,,,,,,,,,,,,,,,
2024-11-08T0900,2544A,106.6303,30.4576,广安市,市委,细颗粒物(PM2.5),69,76,78,50,51,20,,19,19,21,26,10,16,0.6,0.6
2024-11-08T0900,2545A,106.6271,30.4663,广安市,友谊中学,细颗粒物(PM2.5),72,66,66,52,48,12,,16,16,26,25,3,4,0.8,0.7
2024-11-08T0900,2547A,106.6388,30.4551,广安市,广电花园,细颗粒物(PM2.5),68,68,71,49,47,16,,17,17,21,26,4,7,0.7,0.7
2024-11-08T0900,2902A,106.6351,30.4865,广安市,北辰小学,细颗粒物(PM2.5),62,71,65,44,43,17,,18,17,18,19,4,5,0.7,0.7
2024-11-08T0900,2523A,105.8945,32.4535,广元市,黑石坡,,42,40,38,29,27,24,,46,45,12,13,5,5,0.7,0.5
2024-11-08T0900,2524A,105.821,32.4444,广元市,老城,颗粒物(PM10),53,56,51,33,27,12,,37,36,33,31,4,4,1.1,1
2024-11-08T0900,2526A,105.8628,32.4287,广元市,监测站,细颗粒物(PM2.5),64,,43,46,34,14,,33,32,33,32,5,4,0.9,0.9
2024-11-08T0900,3617A,105.8047,32.4166,广元市,经开区,颗粒物(PM10),53,56,55,34,34,11,,29,29,38,33,5,4,0.9,0.8
2024-11-08T0900,1345A,113.2347,23.1423,广州市,广雅中学,,50,50,51,23,24,87,,80,80,30,32,9,8,0.8,0.8
2024-11-08T0900,1346A,113.2612,23.105,广州市,市五中,,36,36,39,20,22,101,,95,95,21,22,8,7,0.5,0.5
2024-11-08T0900,1348A,113.3478,23.0916,广州市,广东商学院,,34,34,35,18,18,89,,90,90,25,22,9,8,0.4,0.4
2024-11-08T0900,1349A,113.4332,23.1047,广州市,市八十六中,,45,45,47,21,22,85,,66,66,22,33,6,5,0.5,0.5
2024-11-08T0900,1350A,113.3505,22.9483,广州市,番禺中学,,42,42,44,18,19,90,,73,73,30,33,8,7,0.4,0.4
2024-11-08T0900,1351A,113.2146,23.3916,广州市,花都师范,,38,38,39,20,19,102,,106,106,19,19,9,9,0.6,0.7
2024-11-08T0900,1352A,113.2597,23.1331,广州市,市监测站,,43,43,46,21,22,84,,77,77,27,25,8,7,0.4,0.4
2024-11-08T0900,1353A,113.5618,23.312,广州市,九龙镇镇龙,,39,39,39,20,21,80,,59,59,19,25,7,6,0.5,0.6
2024-11-08T0900,1354A,113.2765,23.1544,广州市,麓湖,,37,37,39,24,23,92,,76,76,25,27,7,6,0.6,0.5
2024-11-08T0900,1355A,113.443,23.3035,广州市,帽峰山森林公园,,30,29,28,15,14,95,,94,94,17,14,10,8,0.5,0.5
2024-11-08T0900,2846A,113.3221,23.1322,广州市,体育西,,35,35,39,19,20,88,,84,84,18,20,8,7,0.7,0.7
2024-11-08T0900,3298A,113.5717,23.5491,广州市,从化街口,,40,40,34,21,19,86,,85,85,25,20,10,9,0.6,0.5
2024-11-08T0900,3299A,113.3472,23.3692,广州市,白云竹料,,36,36,43,19,21,104,,89,89,15,19,9,8,0.6,0.6
2024-11-08T0900,3300A,113.2981,23.237,广州市,白云嘉禾,,47,47,53,20,22,86,,69,69,36,44,9,8,0.5,0.6
2024-11-08T0900,3301A,113.4256,23.1716,广州市,黄埔科学城,,41,41,38,24,22,80,,72,72,28,23,8,7,0.7,0.6
2024-11-08T0900,3302A,113.3942,23.0483,广州市,番禺大学城,,36,36,43,18,19,84,,63,63,29,35,8,7,0.1,0.2
2024-11-08T0900,3303A,113.4922,22.8168,广州市,南沙黄阁,颗粒物(PM10),51,52,52,21,24,78,,76,76,42,40,16,12,0.6,0.6
2024-11-08T0900,3304A,113.5342,22.7896,广州市,南沙街,,44,44,49,22,23,83,,79,78,28,26,12,10,0.5,0.5
2024-11-08T0900,3443A,113.2902,23.5544,广州市,花都梯面,,34,30,34,19,20,106,,104,104,10,19,11,10,0.3,0.5
2024-11-08T0900,3445A,113.7858,23.7478,广州市,从化良口,,29,27,26,16,15,91,,83,83,10,9,7,6,0.5,0.5
2024-11-08T0900,3446A,113.8051,23.2614,广州市,增城荔城,,33,33,33,17,17,88,,100,98,21,19,10,9,0.5,0.5
2024-11-08T0900,2505A,109.568,23.1478,贵港市,德智高中,,,,,,,,,,,,,,,,
2024-11-08T0900,2506A,109.6047,23.0666,贵港市,江南子站,颗粒物(PM10),60,70,98,41,48,58,,15,15,31,36,18,12,1.1,0.9
2024-11-08T0900,2507A,109.6014,23.0948,贵港市,贵城子站,,47,47,72,32,44,69,,46,46,24,29,21,11,0.9,1
2024-11-08T0900,2508A,109.5669,23.1065,贵港市,荷城子站,"颗粒物(PM10),细颗粒物(PM2.5)",58,66,66,41,37,57,,48,48,34,26,16,12,0.7,0.7
2024-11-08T0900,3405A,109.5886,23.1172,贵港市,新世纪学校,颗粒物(PM10),59,68,61,35,37,58,,72,72,32,18,17,10,0.8,0.7
2024-11-08T0900,1439A,106.6899,26.5998,贵阳市,马鞍山,,36,36,38,24,29,38,,56,52,20,14,4,4,0.7,0.7
2024-11-08T0900,1440A,106.6971,26.5694,贵阳市,市环保站,,39,36,45,27,33,90,,104,102,22,13,6,6,0.5,0.5
2024-11-08T0900,1441A,106.6243,26.6266,贵阳市,鉴湖路,颗粒物(PM10),51,51,50,29,32,67,,87,84,26,14,6,6,0.5,0.5
2024-11-08T0900,1442A,106.7487,26.6343,贵阳市,燕子冲,,42,41,40,29,35,71,,73,72,19,11,8,7,0.5,0.5
2024-11-08T0900,1443A,106.6555,26.4365,贵阳市,碧云窝,颗粒物(PM10),56,61,53,34,29,44,,63,58,26,18,7,7,0.5,0.5
2024-11-08T0900,1444A,106.694,26.5161,贵阳市,中院村,颗粒物(PM10),57,63,49,31,31,65,,82,78,34,20,8,6,0.8,0.7
2024-11-08T0900,1445A,106.7109,26.6027,贵阳市,红边门,细颗粒物(PM2.5),52,44,44,36,36,61,,84,80,31,18,7,6,0.7,0.6
2024-11-08T0900,1446A,106.7164,26.5699,贵阳市,新华路,颗粒物(PM10),51,51,43,34,31,71,,93,90,26,13,5,6,0.6,0.4
2024-11-08T0900,1447A,106.674,26.5424,贵阳市,太慈桥,,41,41,42,27,29,42,,66,61,24,19,4,6,0.5,0.5
2024-11-08T0900,1552A,106.805,26.3003,贵阳市,桐木岭,,46,46,54,29,34,66,,92,88,12,5,16,11,0.7,0.6
2024-11-08T0900,1862A,110.4144,25.3167,桂林市,电子科大尧山校区,颗粒物(PM10),60,69,47,26,21,121,,107,107,15,12,12,10,0.5,0.5
2024-11-08T0900,1863A,110.2819,25.2697,桂林市,监测站,颗粒物(PM10),54,58,47,29,34,107,,119,116,23,17,12,13,0.7,0.6
2024-11-08T0900,1864A,110.3089,25.2708,桂林市,龙隐路小学,颗粒物(PM10),55,59,44,37,33,106,,114,112,20,13,20,21,0.7,0.6
2024-11-08T0900,1865A,110.2869,25.2178,桂林市,八中,颗粒物(PM10),55,59,47,36,29,97,,104,101,26,17,12,15,0.8,0.8
2024-11-08T0900,3403A,110.1764,25.2381,桂林市,创业大厦,颗粒物(PM10),53,56,50,36,33,104,,103,99,24,15,18,18,0.4,0.4
2024-11-08T0900,3531A,110.296,25.1253,桂林市,旅游学院,颗粒物(PM10),57,63,43,39,27,63,,84,77,39,18,17,13,0.6,0.5
2024-11-08T0900,2674A,100.2561,34.4714,果洛藏族自治州,玛沁县大武镇,,15,15,34,9,24,24,,30,30,12,11,12,14,0.5,0.5
2024-11-08T0900,1129A,126.5422,45.755,哈尔滨市,岭北,细颗粒物(PM2.5),104,105,96,78,86,56,,53,53,43,44,16,15,0.6,0.4
2024-11-08T0900,1130A,126.561,45.8167,哈尔滨市,松北商大,细颗粒物(PM2.5),107,136,107,80,82,15,,14,12,44,40,12,11,0.9,0.7
2024-11-08T0900,1131A,126.979,45.5419,哈尔滨市,阿城会宁,细颗粒物(PM2.5),139,209,146,106,101,4,,2,2,43,37,21,10,1.9,1.2
2024-11-08T0900,1132A,126.599,45.7222,哈尔滨市,南岗学府路,细颗粒物(PM2.5),104,136,126,78,84,12,,9,8,58,47,15,10,1.7,0.9
2024-11-08T0900,1133A,126.689,45.7733,哈尔滨市,太平宏伟公园,细颗粒物(PM2.5),100,133,104,75,79,9,,12,10,49,44,10,10,0.9,0.7
2024-11-08T0900,1134A,126.635,45.7667,哈尔滨市,道外承德广场,细颗粒物(PM2.5),84,115,114,62,76,11,,8,8,59,53,12,9,1.7,1
2024-11-08T0900,1135A,126.685,45.7319,哈尔滨市,香坊红旗大街,细颗粒物(PM2.5),133,178,134,101,102,28,,27,27,47,42,22,16,1.1,0.8
2024-11-08T0900,1136A,126.6411,45.7258,哈尔滨市,动力和平路,细颗粒物(PM2.5),110,135,117,83,94,7,,10,8,60,47,24,16,1.4,0.9
2024-11-08T0900,1137A,126.593,45.7478,哈尔滨市,道里建国路,细颗粒物(PM2.5),95,105,106,71,88,9,,10,10,60,45,18,14,1.4,0.8
2024-11-08T0900,1138A,126.615,45.61,哈尔滨市,平房东轻厂,细颗粒物(PM2.5),110,163,133,83,90,13,,8,8,49,44,12,9,0.9,0.6
2024-11-08T0900,1139A,126.595,45.9855,哈尔滨市,呼兰师专,细颗粒物(PM2.5),118,115,85,89,70,20,,26,24,44,35,6,5,0.7,0.5
2024-11-08T0900,1140A,126.6206,45.6842,哈尔滨市,省农科院,细颗粒物(PM2.5),123,143,127,93,99,13,,11,11,55,46,40,14,1.7,0.8
2024-11-08T0900,2688A,93.5128,42.8172,哈密市,地区监测站,颗粒物(PM10),98,146,101,32,31,22,,36,35,51,38,8,8,0.9,0.6
2024-11-08T0900,2689A,93.4961,42.8328,哈密市,哈密师范学校,颗粒物(PM10),107,163,91,42,32,20,,42,39,56,37,8,7,1.3,0.7
2024-11-08T0900,2671A,100.9048,36.9639,海北藏族自治州,海晏县西海镇,,,,10,,8,,,79,,,4,,8,,0.3
2024-11-08T0900,3867A,102.0738,36.5056,海东市,平安区公安北苑,颗粒物(PM10),56,62,48,32,23,16,,25,23,34,25,12,14,1.1,0.8
2024-11-08T0900,1409A,110.576,19.9507,海口市,东寨港,,,,,,,,,,,,,,,,
2024-11-08T0900,1410A,110.3232,20.0574,海口市,海南大学,,47,47,50,22,29,127,,158,152,18,13,7,6,0.4,0.5
2024-11-08T0900,1411A,110.283,20.0053,海口市,秀英海南医院,,47,47,52,22,30,124,,149,145,21,15,8,8,0.4,0.5
2024-11-08T0900,1412A,110.338,19.9969,海口市,海南师范大学,,49,49,53,23,30,126,,148,145,21,15,9,8,0.4,0.5
2024-11-08T0900,1413A,110.33,20.0356,海口市,龙华路环保局宿舍,,49,49,52,23,30,125,,152,149,18,13,7,7,0.5,0.5
2024-11-08T0900,3539A,110.5111,19.9736,海口市,桂林洋子站,,,,52,,35,,,152,,,11,,7,,0.5
2024-11-08T0900,2673A,100.6188,36.2866,海南藏族自治州,共和县恰卜恰镇,颗粒物(PM10),73,96,34,16,12,13,,36,34,48,25,10,12,0.9,0.6
2024-11-08T0900,2676A,97.3731,37.3753,海西蒙古族藏族自治州,德令哈市,,26,16,42,9,13,81,,82,82,2,5,13,11,0.4,0.5
2024-11-08T0900,1048A,114.5302,36.6116,邯郸市,东污水处理厂,细颗粒物(PM2.5),67,74,77,48,49,25,,24,24,26,28,4,4,0.5,0.5
2024-11-08T0900,1049A,114.4918,36.5713,邯郸市,矿院,细颗粒物(PM2.5),83,82,78,61,50,16,,26,22,40,31,2,3,0.5,0.4
2024-11-08T0900,1050A,114.484,36.6133,邯郸市,丛台公园,细颗粒物(PM2.5),102,114,75,76,50,9,,31,25,62,33,4,4,0.7,0.4
2024-11-08T0900,3458A,114.7895,36.5593,邯郸市,香泉濮院小区,颗粒物(PM10),55,59,74,33,35,47,,43,41,19,19,13,9,0.2,0.4
2024-11-08T0900,3579A,114.50634,36.77178,邯郸市,永年区实验高中,细颗粒物(PM2.5),156,194,115,119,60,14,,4,4,49,50,7,5,0.9,0.4
2024-11-08T0900,3580A,114.20016,36.44293,邯郸市,峰峰矿区临水派出所,细颗粒物(PM2.5),90,98,80,67,53,29,,35,32,36,28,8,9,0.9,0.8
2024-11-08T0900,2634A,106.9893,33.1842,汉中市,汉川机床厂子校,颗粒物(PM10),51,52,46,30,28,17,,20,20,17,17,6,6,0.7,0.6
2024-11-08T0900,2635A,107.0154,33.0706,汉中市,市监测站,颗粒物(PM10),56,62,64,39,39,7,,13,12,20,20,8,10,0.9,0.8
2024-11-08T0900,2636A,107.0089,33.1138,汉中市,鑫源开发区,颗粒物(PM10),59,67,61,41,40,4,,3,3,37,33,12,11,0.8,0.8
2024-11-08T0900,2637A,107.007,33.0323,汉中市,南郑大河坎水厂,颗粒物(PM10),55,60,64,38,43,9,,12,12,18,25,9,9,0.9,0.8
2024-11-08T0900,1223A,120.2072,30.2111,杭州市,滨江,颗粒物(PM10),54,57,43,29,22,26,,12,11,43,44,8,7,0.6,0.4
2024-11-08T0900,1224A,120.0633,30.2747,杭州市,西溪,,38,,22,26,19,13,,4,4,46,35,7,7,0.6,0.5
2024-11-08T0900,1226A,120.3461,30.3153,杭州市,下沙,颗粒物(PM10),55,60,40,27,17,20,,5,5,55,53,9,8,0.8,0.5
2024-11-08T0900,1227A,120.1269,30.2456,杭州市,卧龙桥,,38,34,25,26,15,36,,10,10,29,27,8,6,0.5,0.5
2024-11-08T0900,1228A,120.1903,30.2692,杭州市,浙江农大,细颗粒物(PM2.5),58,53,38,41,23,16,,5,5,46,41,6,5,0.6,0.5
2024-11-08T0900,1230A,120.1197,30.3119,杭州市,和睦小学,,48,48,39,32,22,22,,6,6,40,41,10,9,0.5,0.5
2024-11-08T0900,1231A,120.3019,30.4183,杭州市,临平镇,颗粒物(PM10),54,57,46,26,20,29,,8,8,51,51,8,6,0.5,0.4
2024-11-08T0900,1232A,120.2697,30.1819,杭州市,城厢镇,颗粒物(PM10),60,69,46,31,21,16,,10,10,46,42,6,6,0.7,0.5
2024-11-08T0900,1233A,120.0883,30.1808,杭州市,云栖,,34,34,27,18,12,14,,6,6,49,37,7,6,0.5,0.4
2024-11-08T0900,3557A,119.9464,30.0494,杭州市,镇二中,,49,45,40,34,26,19,,6,6,32,31,13,7,0.8,0.6
2024-11-08T0900,3558A,119.7183,30.2367,杭州市,市府大楼,,39,34,41,27,25,31,,12,12,31,37,7,7,0.6,0.5
2024-11-08T0900,3656A,120.1556,30.2864,杭州市,消防大队,颗粒物(PM10),57,64,48,35,23,23,,10,10,43,45,8,8,0.4,0.3
2024-11-08T0900,1270A,117.1959,31.7848,合肥市,明珠广场,,46,46,42,19,19,33,,20,19,38,39,10,8,0.6,0.5
2024-11-08T0900,1271A,117.3072,31.8764,合肥市,三里街,颗粒物(PM10),54,58,44,22,21,15,,9,9,46,42,8,7,0.9,0.6
2024-11-08T0900,1272A,117.2588,31.8707,合肥市,琥珀山庄,,39,39,39,24,18,41,,38,35,35,31,12,10,1.0,0.8
2024-11-08T0900,1273A,117.1604,31.9052,合肥市,董铺水库,颗粒物(PM10),52,53,45,22,16,27,,25,23,41,33,5,5,0.6,0.4
2024-11-08T0900,1274A,117.25,31.8571,合肥市,长江中路,颗粒物(PM10),57,63,47,25,22,26,,29,26,43,38,11,9,0.9,0.7
2024-11-08T0900,1275A,117.266,31.9436,合肥市,庐阳区,颗粒物(PM10),57,63,51,22,21,25,,19,17,41,41,5,3,1.0,0.8
2024-11-08T0900,1276A,117.336,31.8586,合肥市,瑶海区,,48,48,44,15,18,31,,24,22,46,47,8,6,0.7,0.5
2024-11-08T0900,1277A,117.3027,31.7964,合肥市,包河区,颗粒物(PM10),57,63,51,27,22,18,,5,5,53,55,7,5,0.9,0.6
2024-11-08T0900,1278A,117.2776,31.7385,合肥市,滨湖新区,,48,48,43,17,18,39,,30,28,27,26,7,6,0.7,0.5
2024-11-08T0900,1279A,117.1318,31.8403,合肥市,高新区,,46,46,41,19,19,34,,34,31,36,31,2,2,0.8,0.7
2024-11-08T0900,3464A,117.3803,31.9147,合肥市,高教基地,,46,46,39,17,19,26,,18,16,36,30,7,6,0.6,0.5
2024-11-08T0900,3614A,79.924,37.0877,和田地区,地区环保局,颗粒物(PM10),120,190,137,37,37,57,,72,70,19,17,28,9,0.8,0.8
2024-11-08T0900,3615A,79.9131,37.113,和田地区,市环保局,颗粒物(PM10),102,154,138,36,48,36,,47,47,38,36,9,11,6.7,1.8
2024-11-08T0900,2516A,108.2011,24.715,河池市,东仁乐园,,43,41,55,30,31,19,,29,27,18,12,4,5,0.7,0.6
2024-11-08T0900,2517A,108.0497,24.6947,河池市,市环保站,细颗粒物(PM2.5),52,43,52,36,36,32,,30,30,21,24,18,11,0.6,0.6
2024-11-08T0900,2518A,108.0983,24.6989,河池市,市疾控中心,细颗粒物(PM2.5),64,70,64,46,39,8,,10,9,36,35,9,9,0.7,0.6
2024-11-08T0900,1696A,114.6778,23.7569,河源市,源西,,28,24,37,19,23,81,,79,79,17,17,22,11,0.6,0.5
2024-11-08T0900,1697A,114.6944,23.7586,河源市,东埔,,38,38,34,19,20,91,,89,89,16,15,22,8,0.6,0.5
2024-11-08T0900,1698A,114.6892,23.7233,河源市,老城,,30,30,36,15,16,92,,87,87,12,14,18,8,0.4,0.4
2024-11-08T0900,1718A,115.4208,35.2464,菏泽市,气象局,颗粒物(PM10),58,66,68,29,33,60,,72,72,28,24,4,5,0.4,0.4
2024-11-08T0900,1719A,115.4747,35.2375,菏泽市,市政协,颗粒物(PM10),57,63,67,28,33,50,,66,65,30,26,5,5,0.3,0.3
2024-11-08T0900,3374A,115.5564,35.0891,菏泽市,定陶老年大学,颗粒物(PM10),52,53,59,24,28,47,,58,56,29,36,6,7,0.2,0.2
2024-11-08T0900,3647A,115.4702,35.2706,菏泽市,菏泽医专,颗粒物(PM10),62,73,66,30,27,47,,68,66,39,31,7,8,0.4,0.4
2024-11-08T0900,2514A,111.5264,24.4172,贺州市,环保小区,颗粒物(PM10),51,52,46,33,28,59,,47,47,20,20,7,6,0.6,0.6
2024-11-08T0900,2515A,111.5608,24.4078,贺州市,政协大楼,,50,43,51,35,28,49,,45,45,23,23,8,8,0.8,0.7
2024-11-08T0900,3534A,111.4744,24.4553,贺州市,西湾,细颗粒物(PM2.5),57,52,50,40,33,45,,43,42,27,22,9,8,0.6,0.6
2024-11-08T0900,2385A,114.17,35.9019,鹤壁市,市监测站,颗粒物(PM10),68,86,84,47,48,44,,55,54,37,32,5,5,0.6,0.6
2024-11-08T0900,2386A,114.2956,35.7511,鹤壁市,市交警支队,颗粒物(PM10),61,71,88,40,47,43,,44,41,34,36,1,6,0.6,0.6
2024-11-08T0900,2387A,114.2878,35.7306,鹤壁市,迎宾馆,颗粒物(PM10),67,83,97,43,47,36,,41,37,46,49,5,5,0.6,0.6
2024-11-08T0900,3474A,114.2617,35.6822,鹤壁市,大新区,细颗粒物(PM2.5),65,74,82,47,59,21,,15,14,42,48,5,5,0.5,0.5
2024-11-08T0900,3596A,114.1572,35.9603,鹤壁市,南山宾馆,细颗粒物(PM2.5),78,78,85,57,61,47,,46,46,25,27,2,4,0.3,0.3
2024-11-08T0900,2244A,130.2537,47.3416,鹤岗市,哈啤分公司,细颗粒物(PM2.5),52,42,23,36,20,29,,27,26,17,11,14,13,0.9,0.6
2024-11-08T0900,2245A,130.2684,47.3086,鹤岗市,斯达机电,,32,29,25,22,16,29,,39,37,25,18,13,13,0.6,0.4
2024-11-08T0900,2246A,130.3114,47.3388,鹤岗市,东山纸板厂,颗粒物(PM10),103,156,153,41,29,12,,9,9,46,26,14,12,2.6,1.4
2024-11-08T0900,2247A,130.1097,47.3382,鹤岗市,五号水库,,15,8,13,8,9,46,,34,34,8,7,7,7,0.5,0.5
2024-11-08T0900,2263A,127.4833,50.2524,黑河市,交通局,细颗粒物(PM2.5),210,190,100,160,76,19,,34,29,45,31,6,8,1.1,0.8
2024-11-08T0900,2264A,127.5144,50.2341,黑河市,环保局,细颗粒物(PM2.5),200,172,81,150,73,18,,43,38,48,22,8,9,1.3,0.6
2024-11-08T0900,2265A,127.5291,50.2472,黑河市,大黑河岛,细颗粒物(PM2.5),210,179,98,160,86,30,,29,27,31,26,1,1,1.1,0.8
2024-11-08T0900,1074A,115.6838,37.7541,衡水市,电机北厂,颗粒物(PM10),56,62,70,39,40,50,,60,57,22,22,4,5,0.4,0.4
2024-11-08T0900,1075A,115.6303,37.7316,衡水市,市监测站,颗粒物(PM10),58,65,75,28,35,36,,51,48,38,33,4,5,0.4,0.4
2024-11-08T0900,3188A,115.6683,37.7217,衡水市,市城管局,颗粒物(PM10),59,68,72,40,39,42,,53,51,28,30,9,9,0.5,0.4
2024-11-08T0900,3459A,115.5989,37.5491,衡水市,地表水厂,细颗粒物(PM2.5),68,65,71,49,42,25,,28,26,38,33,6,6,0.4,0.4
2024-11-08T0900,2456A,112.5003,26.9167,衡阳市,原169医院,,,55,54,36,33,38,,30,30,25,25,13,8,,0.6
2024-11-08T0900,2457A,112.6194,26.9258,衡阳市,衡阳化工总厂,,42,38,61,29,39,84,,65,65,16,17,11,19,0.5,0.6
2024-11-08T0900,2458A,112.6211,26.8956,衡阳市,珠晖区环保局,,47,47,60,32,41,77,,60,60,20,29,13,19,0.7,0.7
2024-11-08T0900,2459A,112.6197,26.8733,衡阳市,市委党校,,46,46,51,28,28,80,,86,84,27,21,17,16,0.7,0.7
2024-11-08T0900,2460A,112.6006,26.8919,衡阳市,市监测站,,46,46,59,26,38,94,,80,80,20,22,14,17,0.7,0.8
2024-11-08T0900,2461A,112.5664,26.9056,衡阳市,真空机电公司,细颗粒物(PM2.5),52,,55,36,43,83,,51,51,23,26,11,14,0.7,0.8
2024-11-08T0900,3399A,112.6703,26.882,衡阳市,师范学院,细颗粒物(PM2.5),57,48,55,40,33,85,,73,73,27,23,17,14,0.7,0.7
2024-11-08T0900,2608A,103.3772,23.3993,红河哈尼族彝族自治州,污水处理厂,细颗粒物(PM2.5),63,,35,45,34,92,,78,78,8,6,4,5,0.6,0.6
2024-11-08T0900,2609A,103.3861,23.35,红河哈尼族彝族自治州,监测站,细颗粒物(PM2.5),54,52,47,38,35,82,,80,80,15,9,4,5,0.5,0.5
2024-11-08T0900,3038A,103.3758,23.368,红河哈尼族彝族自治州,州图书馆,,49,39,36,34,31,82,,78,78,10,7,7,7,0.6,0.6
2024-11-08T0900,1090A,111.6507,40.7517,呼和浩特市,呼市一监,细颗粒物(PM2.5),78,100,79,57,50,9,,14,13,64,59,10,12,1.6,1
2024-11-08T0900,1091A,111.6572,40.8033,呼和浩特市,小召,细颗粒物(PM2.5),82,102,80,60,51,12,,9,9,63,65,11,13,1.4,1
2024-11-08T0900,1094A,111.7516,40.8369,呼和浩特市,如意水处理厂,细颗粒物(PM2.5),79,94,91,58,48,3,,1,1,55,65,8,11,1.2,0.9
2024-11-08T0900,1095A,111.7276,40.8062,呼和浩特市,二十九中,细颗粒物(PM2.5),82,94,79,60,50,8,,12,12,58,56,9,10,1.7,1.1
2024-11-08T0900,1096A,111.5512,40.7866,呼和浩特市,工大金川校区,细颗粒物(PM2.5),82,95,93,60,54,6,,8,8,66,67,6,9,1.0,0.9
2024-11-08T0900,1097A,111.717,40.7612,呼和浩特市,化肥厂生活区,细颗粒物(PM2.5),82,95,94,60,53,11,,21,20,54,52,10,12,1.8,1.1
2024-11-08T0900,3698A,111.5968,40.8178,呼和浩特市,红旗小学,颗粒物(PM10),101,151,97,72,57,4,,2,2,69,66,11,11,1.5,1
2024-11-08T0900,3699A,111.6518,40.8389,呼和浩特市,海东办,细颗粒物(PM2.5),88,100,89,65,57,5,,4,4,64,67,10,11,1.4,1.2
2024-11-08T0900,2192A,119.7594,49.2261,呼伦贝尔市,区环保局,,36,36,50,14,24,10,,5,5,24,30,6,9,0.6,0.6
2024-11-08T0900,3061A,119.7512,49.1577,呼伦贝尔市,国华电力东,,19,19,32,9,20,22,,7,7,10,19,3,5,0.2,0.3
2024-11-08T0900,1250A,120.0751,30.8669,湖州市,城西水厂,,50,50,34,26,16,15,,14,10,55,35,8,6,0.4,0.3
2024-11-08T0900,2873A,120.0875,30.8955,湖州市,仁皇山新区,,44,44,29,24,14,23,,14,14,51,41,7,5,0.5,0.4
2024-11-08T0900,2907A,120.1844,30.8596,湖州市,吴兴区站,,46,46,31,26,15,28,,17,16,46,29,8,6,0.6,0.4
2024-11-08T0900,3562A,120.4148,30.8538,湖州市,南浔区站,,42,42,33,23,16,36,,18,18,49,38,6,4,0.4,0.3
2024-11-08T0900,1607A,120.9092,40.7136,葫芦岛市,龙港区,细颗粒物(PM2.5),77,101,85,56,64,61,,56,53,26,32,15,22,0.8,0.8
2024-11-08T0900,1608A,120.8392,40.7514,葫芦岛市,化工街,细颗粒物(PM2.5),168,278,124,127,66,10,,14,10,106,56,52,30,1.9,1
2024-11-08T0900,1609A,120.8341,40.7073,葫芦岛市,新区,细颗粒物(PM2.5),113,91,77,85,59,20,,26,22,76,51,22,20,1.4,1
2024-11-08T0900,1610A,120.8695,40.7677,葫芦岛市,东城区,细颗粒物(PM2.5),158,140,87,120,67,10,,12,9,108,57,36,20,1.7,1.1
2024-11-08T0900,2482A,109.5981,27.5721,怀化市,林科所,,48,45,40,33,30,61,,61,61,29,21,30,24,1.3,0.9
2024-11-08T0900,2483A,109.9453,27.5444,怀化市,河西地税局,颗粒物(PM10),52,53,52,31,34,35,,26,26,26,22,14,13,0.6,0.6
2024-11-08T0900,2484A,109.9781,27.5342,怀化市,市四医院,颗粒物(PM10),67,84,68,45,39,22,,24,22,36,26,19,15,0.8,0.6
2024-11-08T0900,2485A,109.9972,27.5578,怀化市,监测楼,颗粒物(PM10),78,106,92,32,38,28,,16,16,27,31,19,12,0.7,0.6
2024-11-08T0900,2486A,110.0394,27.583,怀化市,市委党校,颗粒物(PM10),70,90,67,45,38,24,,8,8,27,30,34,20,0.7,0.6
2024-11-08T0900,1210A,119.036,33.5981,淮安市,钵池山,颗粒物(PM10),62,73,41,31,24,22,,28,26,59,38,5,5,0.7,0.5
2024-11-08T0900,1211A,119.007,33.575,淮安市,北京南路,颗粒物(PM10),53,56,40,26,22,45,,29,29,45,32,7,7,0.5,0.4
2024-11-08T0900,1212A,118.989,33.6067,淮安市,市监测站,颗粒物(PM10),51,51,31,31,23,39,,47,46,50,29,8,8,0.7,0.6
2024-11-08T0900,1213A,119.135,33.5039,淮安市,楚州区监测站,,44,44,40,23,20,41,,32,32,45,38,11,7,0.5,0.5
2024-11-08T0900,1214A,119.0186,33.6297,淮安市,淮阴区监测站,颗粒物(PM10),74,97,52,34,23,14,,22,20,75,47,6,5,0.9,0.6
2024-11-08T0900,3426A,118.8755,33.2894,淮安市,新华书店,,,,39,,18,35,,30,30,,39,,5,0.6,0.5
2024-11-08T0900,2282A,116.8004,33.975,淮北市,监测站,,43,43,39,19,18,53,,65,61,23,18,2,2,0.5,0.5
2024-11-08T0900,2283A,116.8091,33.9007,淮北市,烈山区政府,,49,49,43,30,20,57,,61,59,23,22,3,3,0.2,0.2
2024-11-08T0900,3330A,116.8873,33.9836,淮北市,杜集区检察院,,39,39,45,17,16,66,,69,66,13,14,2,2,0.4,0.4
2024-11-08T0900,4017A,116.7923,33.9535,淮北市,市博物馆,,42,42,41,20,18,66,,69,66,19,19,6,5,0.5,0.5
2024-11-08T0900,2277A,116.8305,32.7727,淮南市,潘集区政府,"颗粒物(PM10),细颗粒物(PM2.5)",59,67,68,42,40,38,,38,34,29,30,14,11,0.7,0.6
2024-11-08T0900,2278A,117.0067,32.6524,淮南市,师范学院,颗粒物(PM10),56,62,64,22,32,54,,41,40,23,27,15,12,0.6,0.5
2024-11-08T0900,2279A,116.8569,32.5951,淮南市,谢家集区政府,颗粒物(PM10),51,51,51,24,25,44,,36,35,25,26,11,10,0.6,0.5
2024-11-08T0900,2280A,116.8281,32.633,淮南市,八公山区政府,,,39,52,26,25,52,,46,44,,24,10,10,0.6,0.4
2024-11-08T0900,2281A,116.6325,32.6201,淮南市,焦岗湖风景区管理处,,39,38,36,27,20,41,,35,33,25,27,3,4,0.3,0.2
2024-11-08T0900,2894A,117.0566,32.6531,淮南市,经济技术开发区消防队,颗粒物(PM10),51,52,57,30,27,44,,32,30,23,22,8,6,0.7,0.5
2024-11-08T0900,3329A,117.0108,32.5893,淮南市,山南新区,,43,43,55,28,31,52,,42,41,21,22,4,4,0.5,0.5
2024-11-08T0900,2446A,114.9028,30.4742,黄冈市,职工中心,颗粒物(PM10),52,54,71,29,43,67,,65,63,28,28,15,13,0.6,0.6
2024-11-08T0900,2929A,114.8858,30.4519,黄冈市,红卫路,,48,48,65,29,41,71,,61,60,32,31,10,11,0.5,0.6
2024-11-08T0900,3398A,114.9136,30.4445,黄冈市,市林业局,颗粒物(PM10),61,71,87,36,43,77,,67,66,32,32,13,13,0.6,0.6
2024-11-08T0900,2672A,102.0199,35.5102,黄南藏族自治州,同仁县隆务镇,,23,23,28,16,10,48,,61,58,8,6,12,8,0.3,0.4
2024-11-08T0900,2295A,118.2903,29.6963,黄山市,延安路89号,,49,49,23,6,15,35,,21,21,13,11,7,7,0.2,0.2
2024-11-08T0900,2296A,118.327,29.7178,黄山市,黄山东路89号,,41,41,34,13,15,33,,26,26,15,13,6,6,0.2,0.2
2024-11-08T0900,2297A,118.1371,30.2756,黄山市,黄山区政府5号楼,,29,25,36,20,24,17,,12,12,9,9,7,7,0.3,0.4
2024-11-08T0900,2423A,115.0601,30.2313,黄石市,沈家营,,50,50,48,20,29,75,,62,60,30,26,29,15,1.0,0.8
2024-11-08T0900,2424A,115.0817,30.2006,黄石市,陈家湾,,36,36,40,20,26,89,,94,91,22,17,11,10,0.6,0.6
2024-11-08T0900,2426A,114.8988,30.2019,黄石市,铁山,,38,38,44,21,28,94,,94,92,21,19,8,7,0.7,0.7
2024-11-08T0900,2427A,115.0307,30.2092,黄石市,团城山,,41,41,42,9,20,98,,103,100,18,18,9,8,0.5,0.6
2024-11-08T0900,3149A,115.0235,30.1578,黄石市,笔架山北路,,38,38,40,17,23,82,,89,87,27,24,9,9,0.6,0.6
2024-11-08T0900,1392A,114.4183,23.0528,惠州市,河南岸金山湖子站,,36,36,39,19,22,92,,91,91,10,11,10,9,0.7,0.7
2024-11-08T0900,1393A,114.4053,23.0822,惠州市,下埔横江三路子站,,37,37,39,21,22,90,,90,89,13,13,10,9,0.5,0.5
2024-11-08T0900,1394A,114.4103,23.1142,惠州市,江北云山西路子站,,36,36,39,21,21,97,,99,98,15,14,12,10,0.6,0.6
2024-11-08T0900,1395A,114.4645,22.7833,惠州市,惠阳区承修路船湖子站,,40,40,48,18,22,79,,71,71,13,16,12,11,0.4,0.5
2024-11-08T0900,1396A,114.5317,22.7422,惠州市,大亚湾管委会子站,,36,36,35,16,18,87,,96,93,15,15,7,5,0.4,0.4
2024-11-08T0900,3314A,114.4338,22.8134,惠州市,惠阳秋长,,31,31,35,18,20,89,,90,89,15,16,11,9,0.4,0.5
2024-11-08T0900,3452A,114.6517,22.775,惠州市,大亚湾霞涌,,30,30,37,20,23,82,,80,80,10,13,9,8,0.4,0.4
2024-11-08T0900,2240A,130.9762,45.3001,鸡西市,环保局,颗粒物(PM10),59,68,53,36,32,20,,7,7,30,21,9,8,0.5,0.4
2024-11-08T0900,2243A,130.9429,45.3039,鸡西市,第一中学,,44,44,48,26,28,24,,9,9,25,27,8,7,0.4,0.4
2024-11-08T0900,3707A,131.0207,45.3073,鸡西市,欧美日汽修厂,颗粒物(PM10),83,116,65,60,40,14,,6,6,40,27,17,14,2.1,0.7
2024-11-08T0900,3709A,130.9967,45.3106,鸡西市,市政设施管理处,"颗粒物(PM10),细颗粒物(PM2.5)",69,88,61,50,32,9,,3,3,38,31,14,8,0.9,0.5
2024-11-08T0900,2367A,114.9754,27.0803,吉安市,红声器材厂,,50,50,51,34,24,38,,55,51,38,28,18,15,0.6,0.5
2024-11-08T0900,2368A,114.9658,27.0999,吉安市,市森林工业局,颗粒物(PM10),52,54,45,32,24,52,,64,61,34,22,23,16,0.7,0.5
2024-11-08T0900,2369A,114.99,27.1312,吉安市,市环境监测站,颗粒物(PM10),51,52,42,33,23,57,,62,60,37,28,24,16,0.5,0.4
2024-11-08T0900,2370A,115.0093,27.0968,吉安市,青原区法院,颗粒物(PM10),54,58,49,34,25,62,,43,41,38,28,22,14,0.6,0.5
2024-11-08T0900,1772A,126.54,43.8622,吉林市,哈达湾,,42,37,31,29,20,30,,47,45,42,21,10,6,0.8,0.5
2024-11-08T0900,1773A,126.5844,43.8358,吉林市,东局子,,38,38,26,22,19,48,,56,55,23,17,6,6,0.6,0.5
2024-11-08T0900,1774A,126.5052,43.8245,吉林市,电力学院,"颗粒物(PM10),细颗粒物(PM2.5)",58,65,50,41,39,16,,20,20,51,31,14,8,1.2,0.9
2024-11-08T0900,1775A,126.6133,43.8972,吉林市,江北,颗粒物(PM10),52,53,44,32,29,42,,39,39,33,23,11,10,0.9,0.8
2024-11-08T0900,1776A,126.555,43.8306,吉林市,江南公园,,48,48,33,33,25,39,,51,49,30,21,10,9,0.6,0.5
2024-11-08T0900,1778A,126.7061,43.7133,吉林市,丰满,,30,22,19,21,18,55,,58,57,8,6,9,8,0.5,0.5
2024-11-08T0900,2868A,126.4739,43.953,吉林市,九站,颗粒物(PM10),53,56,65,35,47,10,,22,20,50,35,10,18,0.9,0.8
2024-11-08T0900,1299A,116.9862,36.6114,济南市,科干所,颗粒物(PM10),58,66,49,27,24,56,,77,72,44,28,6,9,0.8,0.7
2024-11-08T0900,1300A,116.9376,36.665,济南市,农科所,颗粒物(PM10),69,88,64,32,22,26,,41,38,70,52,6,6,1.0,0.7
2024-11-08T0900,1301A,117.1265,36.6734,济南市,开发区,颗粒物(PM10),56,61,52,27,29,58,,39,39,41,48,6,6,0.6,0.6
2024-11-08T0900,1303A,117.0624,36.6868,济南市,省种子仓库,颗粒物(PM10),64,78,72,31,33,29,,9,9,57,59,4,5,0.7,0.7
2024-11-08T0900,1304A,116.9489,36.6447,济南市,机床二厂,颗粒物(PM10),86,122,86,46,32,40,,42,40,60,53,7,6,0.8,0.6
2024-11-08T0900,1305A,117.0495,36.663,济南市,市监测站,颗粒物(PM10),63,76,59,32,30,28,,19,19,80,66,5,5,1.1,1
2024-11-08T0900,1306A,116.7675,36.5484,济南市,长清党校,,34,34,47,20,26,105,,103,102,25,30,8,8,0.6,0.7
2024-11-08T0900,1616A,117.6795,36.229,济南市,技术学院,,,85,67,51,39,33,,36,36,51,47,,9,1.1,0.9
2024-11-08T0900,1961A,117.532,36.6868,济南市,东山小学,颗粒物(PM10),61,71,58,27,27,52,,66,62,47,34,8,9,0.9,0.8
2024-11-08T0900,3059A,117.7161,36.2049,济南市,泰兴公司,颗粒物(PM10),75,100,75,46,41,24,,10,10,63,60,11,11,0.4,0.6
2024-11-08T0900,3064A,117.6867,36.2171,济南市,莱芜战役纪念馆,颗粒物(PM10),68,85,75,44,38,25,,21,21,65,57,7,8,0.8,0.7
2024-11-08T0900,3494A,117.1673,36.9782,济南市,济阳区政府,颗粒物(PM10),74,98,79,37,36,29,,37,37,57,51,8,8,0.5,0.5
2024-11-08T0900,3495A,117.1171,36.63,济南市,锦屏中学,,39,39,37,24,23,58,,66,64,40,31,5,6,0.7,0.5
2024-11-08T0900,3682A,116.9814,36.6819,济南市,济南四建,颗粒物(PM10),76,102,63,44,30,16,,11,11,82,53,6,5,1.1,0.7
2024-11-08T0900,1653A,116.6251,35.4302,济宁市,火炬城,颗粒物(PM10),53,56,45,34,32,50,,65,62,34,27,10,10,0.9,0.6
2024-11-08T0900,1655A,116.5491,35.4042,济宁市,电化厂,颗粒物(PM10),56,62,58,29,25,50,,62,59,32,27,8,8,0.8,0.7
2024-11-08T0900,3500A,116.5814,35.3707,济宁市,北湖一中,,49,48,44,34,30,52,,60,57,31,25,6,4,0.6,0.5
2024-11-08T0900,3501A,116.8249,35.5593,济宁市,服务中心,颗粒物(PM10),66,81,64,42,28,26,,33,31,46,32,14,10,1.0,0.7
2024-11-08T0900,3678A,116.5907,35.4054,济宁市,市第七中学,颗粒物(PM10),53,55,47,31,29,49,,57,56,34,27,6,4,0.7,0.6
2024-11-08T0900,2255A,130.2751,46.8028,佳木斯市,佳纺,颗粒物(PM10),62,73,34,42,21,24,,20,19,43,30,14,5,1.1,0.7
2024-11-08T0900,2256A,130.3995,46.8307,佳木斯市,发电厂,,46,39,20,32,19,20,,17,17,30,27,7,5,0.6,0.4
2024-11-08T0900,2257A,130.3258,46.7975,佳木斯市,环保局,颗粒物(PM10),56,62,30,35,18,18,,12,12,51,27,12,9,0.9,0.5
2024-11-08T0900,2258A,130.3648,46.8032,佳木斯市,十一中,细颗粒物(PM2.5),59,55,28,42,20,16,,18,18,52,33,12,6,1.2,0.6
2024-11-08T0900,2259A,130.3794,46.7588,佳木斯市,四丰,,,,,,,37,,45,43,,,1,1,0.3,0.1
2024-11-08T0900,1252A,120.7436,30.778,嘉兴市,清河小学,,26,26,30,9,11,38,,14,14,36,40,9,8,0.4,0.3
2024-11-08T0900,1253A,120.726,30.7478,嘉兴市,嘉兴学院,,28,28,30,13,13,40,,22,22,38,34,6,5,0.6,0.5
2024-11-08T0900,2872A,120.7846,30.7525,嘉兴市,南湖区残联,,32,32,31,17,14,35,,24,24,47,39,7,6,0.3,0.3
2024-11-08T0900,3407A,120.6916,30.7739,嘉兴市,秀洲住建,,40,40,32,21,15,27,,8,8,41,35,9,8,0.4,0.3
2024-11-08T0900,1945A,98.2908,39.7711,嘉峪关市,气象局,颗粒物(PM10),59,68,94,19,27,62,,40,40,35,34,10,12,0.6,0.4
2024-11-08T0900,2884A,98.2672,39.7978,嘉峪关市,酒钢宾馆,颗粒物(PM10),64,78,100,27,26,68,,51,51,43,30,125,23,2.3,0.7
2024-11-08T0900,3248A,98.2643,39.7724,嘉峪关市,雄关区,颗粒物(PM10),57,63,86,20,26,62,,26,26,38,44,10,13,0.6,0.5
2024-11-08T0900,1383A,113.1064,22.6058,江门市,北街,,48,48,50,21,23,72,,60,60,42,36,11,8,0.6,0.6
2024-11-08T0900,1384A,113.0731,22.5835,江门市,西区,颗粒物(PM10),54,57,55,18,14,66,,51,51,38,34,12,8,0.5,0.4
2024-11-08T0900,1385A,113.0219,22.5311,江门市,圭峰西,,31,31,43,19,21,91,,71,71,27,30,7,6,0.3,0.3
2024-11-08T0900,1386A,113.0828,22.5947,江门市,东湖,,42,42,44,17,23,69,,54,54,39,33,12,8,0.5,0.5
2024-11-08T0900,3311A,113.1075,22.5647,江门市,江海富民,颗粒物(PM10),56,61,54,22,23,73,,58,58,38,37,11,8,0.5,0.5
2024-11-08T0900,3449A,113.05,22.4667,江门市,新会银湖,,45,45,48,23,25,69,,32,32,40,46,10,7,0.4,0.4
2024-11-08T0900,1828A,113.227,35.2125,焦作市,市环保局,细颗粒物(PM2.5),87,98,105,64,64,46,,64,60,36,36,5,7,0.5,0.4
2024-11-08T0900,1830A,113.1992,35.2590,焦作市,影视城,细颗粒物(PM2.5),84,88,79,62,61,79,,99,96,19,20,9,9,0.8,0.8
2024-11-08T0900,3169A,113.2725,35.2067,焦作市,太极体育中心,细颗粒物(PM2.5),84,96,96,62,60,35,,47,44,41,36,4,7,0.7,0.7
2024-11-08T0900,3335A,113.3137,35.2641,焦作市,马村街道办,细颗粒物(PM2.5),78,93,95,57,62,45,,55,52,30,31,6,7,0.4,0.5
2024-11-08T0900,3336A,113.2465,35.2373,焦作市,焦作技师学院,颗粒物(PM10),75,100,101,53,57,46,,65,60,34,31,6,8,0.5,0.6
2024-11-08T0900,3477A,113.1656,35.2539,焦作市,中站许衡医院,细颗粒物(PM2.5),75,94,87,55,53,66,,83,79,18,21,7,8,0.5,0.5
2024-11-08T0900,3981A,113.2449,35.1803,焦作市,原李万街道办,颗粒物(PM10),94,137,113,58,56,35,,47,44,38,37,8,11,0.7,0.7
2024-11-08T0900,1708A,116.3701,23.5345,揭阳市,新兴,,36,36,40,21,24,58,,44,44,24,25,8,8,0.6,0.5
2024-11-08T0900,1709A,116.3264,23.5443,揭阳市,西马,,27,27,48,17,26,58,,48,48,18,22,8,8,0.6,0.6
2024-11-08T0900,1710A,116.3611,23.5626,揭阳市,东兴,颗粒物(PM10),63,75,48,25,22,44,,26,26,33,29,10,10,0.9,0.8
2024-11-08T0900,1711A,116.4151,23.5294,揭阳市,渔湖,颗粒物(PM10),51,51,52,33,26,63,,28,25,21,29,8,10,0.5,0.6
2024-11-08T0900,3320A,116.403,23.5699,揭阳市,曲溪,,48,48,42,26,23,64,,38,37,20,23,10,10,0.6,0.6
2024-11-08T0900,1944A,102.1692,38.5167,金昌市,天庆家园,颗粒物(PM10),109,167,147,71,81,36,,40,40,41,45,13,44,0.9,0.8
2024-11-08T0900,3170A,102.1864,38.5253,金昌市,市委党校,细颗粒物(PM2.5),89,115,208,66,117,46,,47,47,39,46,13,34,0.9,1.1
2024-11-08T0900,4022A,102.1647,38.5371,金昌市,金川区人防中心,细颗粒物(PM2.5),133,152,174,101,105,35,,51,49,39,28,14,36,1.1,0.9
2024-11-08T0900,1262A,119.647,29.077,金华市,十五中,颗粒物(PM10),52,53,39,20,18,32,,21,21,37,37,4,4,0.5,0.4
2024-11-08T0900,1263A,119.686,29.1029,金华市,监测站,,50,50,39,28,21,23,,14,14,35,38,4,4,0.3,0.3
2024-11-08T0900,3659A,119.656,29.1131,金华市,气象局,颗粒物(PM10),52,53,46,24,22,21,,7,7,40,47,5,4,0.6,0.6
2024-11-08T0900,1767A,121.1115,41.0879,锦州市,南山,细颗粒物(PM2.5),158,,84,120,76,11,,17,14,65,64,14,26,2.2,1.1
2024-11-08T0900,1768A,121.0533,40.8434,锦州市,开发区,细颗粒物(PM2.5),186,196,111,140,79,6,,6,5,149,91,35,66,1.5,1.3
2024-11-08T0900,1769A,121.1836,41.1119,锦州市,百股街道,细颗粒物(PM2.5),110,,82,83,58,8,,20,14,53,54,17,30,1.5,1.2
2024-11-08T0900,1770A,121.1178,41.1222,锦州市,天安街道,细颗粒物(PM2.5),139,121,99,106,83,10,,13,11,63,60,19,26,1.9,1.4
2024-11-08T0900,1771A,121.1303,41.1386,锦州市,北湖公园,细颗粒物(PM2.5),133,113,91,101,79,16,,22,20,48,56,18,25,1.4,1.2
2024-11-08T0900,2160A,112.85,35.5051,晋城市,自来水公司,细颗粒物(PM2.5),104,103,86,78,64,18,,24,22,62,45,8,8,1.5,1
2024-11-08T0900,2161A,112.8318,35.4936,晋城市,白云商贸,细颗粒物(PM2.5),92,125,106,68,61,21,,33,31,67,45,6,6,1.2,0.8
2024-11-08T0900,2162A,112.8508,35.4887,晋城市,市环保局,细颗粒物(PM2.5),94,129,98,70,60,12,,17,15,67,47,7,8,1.5,1
2024-11-08T0900,2163A,112.8676,35.4897,晋城市,技术学院,"颗粒物(PM10),细颗粒物(PM2.5)",89,127,96,66,52,17,,12,11,66,54,8,8,1.8,1
2024-11-08T0900,2165A,112.8453,35.546,晋城市,白马寺,细颗粒物(PM2.5),70,82,85,51,53,81,,90,89,24,24,10,12,0.7,0.8
2024-11-08T0900,3620A,112.8271,35.4828,晋城市,泽州一中,细颗粒物(PM2.5),100,109,91,75,66,12,,32,28,61,39,6,8,1.5,1.1
2024-11-08T0900,2171A,112.7532,37.6945,晋中市,锦纶小区,细颗粒物(PM2.5),134,149,140,102,90,,,12,12,42,53,10,12,1.0,0.9
2024-11-08T0900,2173A,112.7249,37.7067,晋中市,南都小区,细颗粒物(PM2.5),127,155,149,96,85,13,,8,8,51,62,7,10,1.1,0.9
2024-11-08T0900,2174A,112.6991,37.6982,晋中市,榆次区政府,颗粒物(PM10),114,178,145,80,77,12,,13,12,52,54,9,12,1.2,0.9
2024-11-08T0900,2865A,112.7195,37.6828,晋中市,榆次三中,细颗粒物(PM2.5),134,185,154,102,92,10,,9,8,49,51,11,14,1.3,1.1
2024-11-08T0900,2439A,112.2014,31.0481,荆门市,竹园小学,细颗粒物(PM2.5),88,114,82,65,48,62,,59,59,52,37,25,16,1.1,0.8
2024-11-08T0900,2440A,112.1969,30.9891,荆门市,掇刀,细颗粒物(PM2.5),90,107,86,67,55,81,,77,75,43,42,28,15,0.7,0.7
2024-11-08T0900,2441A,112.2213,31.0386,荆门市,石化一小,颗粒物(PM10),97,143,101,69,56,56,,49,48,60,49,19,17,0.9,0.8
2024-11-08T0900,3012A,112.1849,31.0362,荆门市,西山林语,细颗粒物(PM2.5),88,92,68,65,45,67,,82,79,55,30,15,10,0.7,0.6
2024-11-08T0900,3547A,112.1632,31.0138,荆门市,龙泉中学南校,细颗粒物(PM2.5),89,108,82,66,52,63,,86,82,54,32,21,14,0.9,0.6
2024-11-08T0900,1844A,112.2494,30.3197,荆州市,市图书馆,细颗粒物(PM2.5),74,78,67,54,49,45,,50,49,48,47,11,15,0.8,0.7
2024-11-08T0900,1845A,112.2008,30.3544,荆州市,市委党校,细颗粒物(PM2.5),92,100,66,68,49,40,,46,40,45,45,11,15,1.0,0.8
2024-11-08T0900,3194A,112.2747,30.3122,荆州市,管委会,细颗粒物(PM2.5),89,94,63,66,50,27,,52,46,56,46,15,20,0.9,0.8
2024-11-08T0900,3548A,112.1655,30.3364,荆州市,学苑路,细颗粒物(PM2.5),105,93,77,79,50,49,,50,45,43,37,15,17,1.0,0.8
2024-11-08T0900,2342A,117.3102,29.3867,景德镇市,王港中学,,,,,,,,,,,,,,,,
2024-11-08T0900,2343A,117.2117,29.2933,景德镇市,老干部活动中心,,25,25,30,15,17,49,,28,28,15,21,6,6,0.2,0.2
2024-11-08T0900,2344A,117.1894,29.2789,景德镇市,兽医站,,37,37,35,21,15,52,,36,36,10,15,6,6,0.2,0.2
2024-11-08T0900,2345A,117.1547,29.2617,景德镇市,台达陶瓷,,33,33,30,18,17,52,,39,39,10,19,10,7,0.4,0.4
2024-11-08T0900,2346A,117.2461,29.2956,景德镇市,陶研所,,32,29,31,22,17,28,,8,8,18,20,5,6,0.3,0.3
2024-11-08T0900,1803A,115.9872,29.6815,九江市,十里,颗粒物(PM10),56,61,52,39,35,46,,61,58,36,31,9,10,0.6,0.7
2024-11-08T0900,1804A,115.9584,29.7046,九江市,茅山头,颗粒物(PM10),52,54,48,33,30,52,,65,62,30,26,11,10,0.7,0.7
2024-11-08T0900,1805A,115.9877,29.7295,九江市,西园,,50,42,48,35,29,62,,69,67,24,25,10,9,0.4,0.4
2024-11-08T0900,1806A,116.0172,29.6547,九江市,五七二七厂,细颗粒物(PM2.5),58,44,50,41,30,48,,64,60,32,23,26,14,0.8,0.7
2024-11-08T0900,1808A,115.9114,29.6038,九江市,综合工业园,细颗粒物(PM2.5),69,54,47,50,40,43,,51,47,43,41,21,23,0.7,0.6
2024-11-08T0900,1809A,116.0721,29.7535,九江市,石化总厂,细颗粒物(PM2.5),57,52,55,40,38,52,,60,59,31,35,11,10,0.7,0.7
2024-11-08T0900,1810A,115.9773,29.5698,九江市,庐山气象台,,34,6,14,3,12,108,,106,106,2,4,6,8,1.1,0.8
2024-11-08T0900,3190A,116.0254,29.6994,九江市,外国语学校,细颗粒物(PM2.5),57,55,52,40,35,44,,57,54,36,26,16,14,0.5,0.5
2024-11-08T0900,2658A,98.5061,39.7443,酒泉市,仓门街子站,颗粒物(PM10),65,80,97,26,31,38,,36,36,44,30,6,27,0.5,0.5
2024-11-08T0900,2659A,98.4989,39.7256,酒泉市,油田生活基地,颗粒物(PM10),70,90,108,37,37,14,,28,27,69,32,6,25,0.6,0.5
2024-11-08T0900,2698A,76.0072,39.4467,喀什地区,巡警大队,颗粒物(PM10),94,137,207,43,58,0,,3,3,58,61,8,11,1.9,1.7
2024-11-08T0900,2699A,75.9755,39.4694,喀什地区,吾办,颗粒物(PM10),93,135,188,58,66,0,,1,1,50,58,3,5,2.4,1.7
2024-11-08T0900,4027A,75.9483,39.4689,喀什地区,老干局,颗粒物(PM10),90,130,205,31,48,7,,6,6,47,57,2,4,1.8,1.8
2024-11-08T0900,1824A,114.3389,34.7781,开封市,肿瘤医院,细颗粒物(PM2.5),77,76,74,56,56,45,,51,49,32,33,6,7,0.5,0.5
2024-11-08T0900,1826A,114.2885,34.7965,开封市,世纪星幼儿园,细颗粒物(PM2.5),60,67,68,43,46,54,,64,61,31,26,3,3,0.4,0.4
2024-11-08T0900,3147A,114.3438,34.8106,开封市,龙亭公园,"颗粒物(PM10),细颗粒物(PM2.5)",59,68,67,42,48,53,,60,58,30,24,3,3,0.7,0.6
2024-11-08T0900,3210A,114.3644,34.7964,开封市,汴京公园,颗粒物(PM10),63,75,74,44,47,48,,58,55,32,26,6,5,0.4,0.4
2024-11-08T0900,3473A,114.2485,34.8306,开封市,技师学院,颗粒物(PM10),61,72,67,42,43,60,,74,71,26,21,5,5,0.5,0.4
2024-11-08T0900,3592A,114.4644,34.7556,开封市,祥符区生态环境局,细颗粒物(PM2.5),72,88,85,52,50,30,,40,37,35,33,3,4,0.6,0.5
2024-11-08T0900,1951A,84.895,45.6094,克拉玛依市,长征新村,,12,,6,8,5,38,,54,51,8,5,6,6,0.2,0.2
2024-11-08T0900,1952A,84.8988,45.5893,克拉玛依市,南林小区,,12,7,5,3,6,37,,55,52,10,6,4,3,0.2,0.3
2024-11-08T0900,1954A,84.905,44.3396,克拉玛依市,独山子区,,17,13,30,3,10,53,,55,54,10,9,8,8,0.3,0.3
2024-11-08T0900,1955A,85.6979,46.098,克拉玛依市,乌尔禾区商贸楼,,16,,11,11,5,48,,63,60,12,5,4,4,0.4,0.4
2024-11-08T0900,3612A,85.1045,45.6899,克拉玛依市,白碱滩区新站,,14,6,12,3,7,42,,41,39,13,18,8,8,0,0
2024-11-08T0900,2697A,76.1454,39.7142,克孜勒苏柯尔克孜自治州,市人民政府,颗粒物(PM10),68,86,105,21,36,54,,73,71,16,22,30,11,0.4,0.5
2024-11-08T0900,3665A,76.1658,39.7157,克孜勒苏柯尔克孜自治州,克州文化中心,颗粒物(PM10),60,69,100,23,36,61,,72,72,24,27,11,19,0.4,0.6
2024-11-08T0900,1450A,102.8204,24.8886,昆明市,呈贡新区,,19,19,26,13,18,50,,54,54,24,13,5,4,0.8,0.7
2024-11-08T0900,1451A,102.6251,24.9608,昆明市,西山森林公园,,,,,,,,,,,,,,,,
2024-11-08T0900,1452A,102.7252,25.0902,昆明市,龙泉镇,,13,9,21,8,14,39,,44,44,20,14,6,6,0.9,0.8
2024-11-08T0900,1453A,102.7266,25.0375,昆明市,东风东路,,16,,23,11,19,40,,44,44,22,20,7,7,0.8,0.8
2024-11-08T0900,1454A,102.6742,25.0669,昆明市,金鼎山,,17,12,25,6,15,52,,48,48,17,21,3,3,0.8,0.7
2024-11-08T0900,1455A,102.6644,25.0401,昆明市,碧鸡广场,,18,,22,12,16,30,,46,44,36,23,4,4,0.8,0.6
2024-11-08T0900,3179A,102.7494,25.0119,昆明市,官渡区博物馆,,23,19,27,12,19,16,,26,26,46,33,6,6,0.8,0.7
2024-11-08T0900,3375A,102.8017,24.8336,昆明市,青年创业园,,16,11,20,11,19,47,,46,46,15,12,4,4,0.6,0.5
2024-11-08T0900,3550A,102.7997,24.9786,昆明市,昆明学院,,23,21,33,16,27,34,,42,42,36,25,6,6,0.7,0.6
2024-11-08T0900,3551A,102.5967,24.6736,昆明市,晋宁区生态环境分局,,32,,25,22,22,46,,48,48,18,13,1,2,0.3,0.3
2024-11-08T0900,3552A,102.6678,24.9856,昆明市,云天化总部,,18,14,24,12,20,42,,48,48,29,23,4,4,0.6,0.6
2024-11-08T0900,1456A,91.1319,29.6514,拉萨市,八廓街,,19,13,16,13,10,47,,55,55,22,23,10,11,0.2,0.3
2024-11-08T0900,1457A,91.1221,29.6747,拉萨市,市环保局,颗粒物(PM10),64,77,41,18,18,29,,48,45,31,24,11,11,0.5,0.4
2024-11-08T0900,1458A,91.0874,29.6475,拉萨市,区监测站,,19,15,15,8,9,30,,40,40,38,30,10,10,0.6,0.5
2024-11-08T0900,1459A,91.1774,29.6541,拉萨市,西藏大学,,15,15,18,6,8,44,,52,52,18,17,6,9,0.7,0.6
2024-11-08T0900,1460A,90.9798,29.6588,拉萨市,区辐射站,,41,41,21,22,10,17,,53,47,52,24,9,10,0.8,0.4
2024-11-08T0900,1461A,91.0834,29.6292,拉萨市,拉萨火车站,,20,20,13,9,8,22,,34,30,39,23,6,8,0.5,0.5
2024-11-08T0900,2520A,109.2203,23.7256,来宾市,来宾技工学校,颗粒物(PM10),54,57,66,32,36,54,,26,26,23,29,11,16,0.8,0.8
2024-11-08T0900,3535A,109.1781,23.7297,来宾市,兴宾区政府,,44,44,52,28,32,55,,54,52,10,12,6,6,0.9,0.9
2024-11-08T0900,4002A,109.2416,23.7461,来宾市,中南小学,颗粒物(PM10),60,69,62,32,32,46,,36,36,34,34,8,7,0.8,0.7
2024-11-08T0900,1476A,103.631,36.1031,兰州市,兰炼宾馆,细颗粒物(PM2.5),107,124,110,80,68,10,,9,9,47,69,18,15,1.3,1.2
2024-11-08T0900,1477A,104.1373,35.9454,兰州市,榆中兰大校区,,,,,,,,,,,,,,,,
2024-11-08T0900,1478A,103.8412,36.0726,兰州市,生物制品所,细颗粒物(PM2.5),68,77,74,49,43,4,,3,3,45,57,12,12,1.1,0.9
2024-11-08T0900,1479A,103.831,36.0464,兰州市,铁路设计院,细颗粒物(PM2.5),130,105,80,99,54,4,,3,3,54,66,16,11,1.5,1.4
2024-11-08T0900,3186A,103.7158,36.1058,兰州市,教育港,颗粒物(PM10),87,123,100,63,56,3,,1,1,50,60,11,13,1.2,1.1
2024-11-08T0900,3241A,103.7439,36.0842,兰州市,百合公园,颗粒物(PM10),64,78,83,21,31,7,,5,5,41,57,7,9,1.2,1.2
2024-11-08T0900,3242A,103.9611,35.998,兰州市,和平,,40,40,48,26,30,20,,24,23,44,34,12,11,0.6,0.5
2024-11-08T0900,3245A,103.6633,36.533,兰州新区,新区管委会,细颗粒物(PM2.5),83,105,100,61,61,9,,6,6,45,45,17,18,1.4,1
2024-11-08T0900,3246A,103.6975,36.4789,兰州新区,舟曲中学,细颗粒物(PM2.5),87,101,104,64,62,11,,6,6,54,48,24,21,1.0,0.9
2024-11-08T0900,1067A,116.6708,39.5111,廊坊市,药材公司,细颗粒物(PM2.5),195,196,167,146,121,4,,2,2,69,63,7,8,1.8,1.5
2024-11-08T0900,1068A,116.7214,39.5589,廊坊市,开发区,细颗粒物(PM2.5),149,212,146,114,102,0,,0,0,84,68,5,6,1.2,1
2024-11-08T0900,1070A,116.7244,39.5269,廊坊市,北华航天学院,细颗粒物(PM2.5),178,191,174,134,115,4,,2,2,76,63,9,8,1.3,1.3
2024-11-08T0900,2919A,116.7022,39.5453,廊坊市,河北工业大学,细颗粒物(PM2.5),186,195,170,140,121,3,,2,2,86,74,8,10,1.2,1.1
2024-11-08T0900,2535A,103.7723,29.5462,乐山市,花湖湾,细颗粒物(PM2.5),60,58,51,43,41,5,,6,5,13,12,4,4,0.9,0.8
2024-11-08T0900,2536A,103.7627,29.5844,乐山市,牛耳桥,细颗粒物(PM2.5),69,56,52,50,45,9,,10,8,20,20,4,4,0.8,0.6
2024-11-08T0900,2537A,103.7508,29.6006,乐山市,市第三水厂,细颗粒物(PM2.5),68,58,53,49,45,15,,14,12,23,22,3,4,0.9,0.8
2024-11-08T0900,2538A,103.7571,29.5664,乐山市,市监测站,细颗粒物(PM2.5),70,56,51,51,43,13,,13,12,17,16,4,5,0.7,0.6
2024-11-08T0900,3361A,103.7311,29.5628,乐山市,理工大学,细颗粒物(PM2.5),73,55,50,53,43,11,,13,12,19,15,4,5,0.8,0.7
2024-11-08T0900,2598A,100.2143,26.8576,丽江市,西南郊,,15,9,5,3,3,48,,61,59,19,10,4,5,1.0,1.1
2024-11-08T0900,2599A,100.2497,26.8802,丽江市,丽江古城,,16,,12,10,8,51,,55,54,9,11,9,9,0.7,0.6
2024-11-08T0900,2600A,100.2203,26.8906,丽江市,市中心,,15,6,6,6,7,48,,56,55,10,9,8,7,0.8,0.7
2024-11-08T0900,1267A,119.914,28.4514,丽水市,监测站大楼,,29,26,27,20,15,23,,22,20,21,20,10,7,0.3,0.2
2024-11-08T0900,1268A,119.93,28.4586,丽水市,莲都小学,,43,43,31,20,14,17,,13,13,26,23,5,5,0.4,0.3
2024-11-08T0900,1269A,119.879,28.4231,丽水市,余庄前,,38,38,23,26,14,20,,11,11,23,14,7,5,0.2,0.1
2024-11-08T0900,1173A,119.176,34.5885,连云港市,市环境监测站,颗粒物(PM10),65,80,45,29,19,32,,48,44,58,22,8,7,0.3,0.1
2024-11-08T0900,3000A,119.3581,34.6972,连云港市,德源药业,颗粒物(PM10),69,88,53,39,17,25,,18,18,50,32,7,6,0.3,0.2
2024-11-08T0900,3007A,119.178,34.844,连云港市,新城一中,细颗粒物(PM2.5),60,61,40,43,21,23,,27,25,44,40,10,7,0.6,0.5
2024-11-08T0900,3008A,119.3608,34.7519,连云港市,胡沟管理处,,39,39,26,19,10,82,,84,84,16,13,11,10,0.3,0.3
2024-11-08T0900,3009A,119.1478,34.5911,连云港市,矿山设计院,颗粒物(PM10),56,61,41,22,20,34,,45,42,46,24,7,6,0.7,0.5
2024-11-08T0900,3434A,119.2413,34.6539,连云港市,工贸学校,,31,31,25,17,12,72,,77,75,14,13,7,7,0.5,0.4
2024-11-08T0900,3664A,119.4172,34.7341,连云港市,连云街道,,31,31,27,16,13,44,,87,81,49,11,8,6,0.5,0.4
2024-11-08T0900,2571A,102.3431,27.8099,凉山彝族自治州,青龙寺,,,,7,,3,,,,,,5,,4,,0.6
2024-11-08T0900,2572A,102.2721,27.8415,凉山彝族自治州,邛海宾馆,,20,15,13,14,11,17,,31,28,20,12,8,7,1.0,0.8
2024-11-08T0900,2573A,102.2625,27.898,凉山彝族自治州,西昌市政府,,20,14,16,14,13,26,,35,32,25,17,13,7,1.1,0.8
2024-11-08T0900,2574A,102.2685,27.8851,凉山彝族自治州,凉山州政府,,22,16,14,15,11,25,,34,32,28,17,15,9,1.4,1
2024-11-08T0900,2575A,102.237,27.8914,凉山彝族自治州,长安,,21,21,24,11,11,20,,27,27,33,27,12,10,0.7,0.6
2024-11-08T0900,2212A,123.2,41.1953,辽阳市,宏伟区,,46,38,32,32,26,70,,76,75,16,12,8,8,0.5,0.4
2024-11-08T0900,2213A,123.1683,41.2495,辽阳市,新华园,,48,39,34,33,30,61,,64,64,25,18,9,7,0.5,0.5
2024-11-08T0900,2214A,123.2354,41.2639,辽阳市,滨河路,,48,,29,33,28,62,,68,68,21,16,10,11,0.6,0.5
2024-11-08T0900,2215A,123.149,41.2991,辽阳市,铁西工业园,颗粒物(PM10),52,54,43,26,27,55,,65,64,21,13,12,12,1.0,0.9
2024-11-08T0900,2227A,125.1358,42.8845,辽源市,环保局,颗粒物(PM10),54,57,45,31,27,22,,17,17,50,35,16,14,1.1,0.8
2024-11-08T0900,3239A,125.0764,42.9078,辽源市,银鹰制药,颗粒物(PM10),61,72,48,37,31,18,,9,9,54,38,14,12,1.1,0.8
2024-11-08T0900,1625A,115.9848,36.4372,聊城市,区政府,颗粒物(PM10),56,62,61,29,27,59,,66,64,26,22,10,10,0.7,0.7
2024-11-08T0900,2878A,116.0072,36.4343,聊城市,聊大东校,颗粒物(PM10),62,73,68,33,32,57,,71,68,28,23,9,9,0.6,0.6
2024-11-08T0900,3200A,115.9819,36.4978,聊城市,监控中心,颗粒物(PM10),51,52,59,27,31,66,,76,74,31,27,9,9,0.5,0.5
2024-11-08T0900,3513A,116.0445,36.4361,聊城市,九州社区,颗粒物(PM10),57,64,61,19,25,46,,64,61,36,28,8,8,0.6,0.5
2024-11-08T0900,4018A,116.0567,36.4608,聊城市,星美广场,颗粒物(PM10),52,54,62,28,27,61,,73,71,29,25,8,8,0.5,0.5
2024-11-08T0900,2632A,94.3681,29.6376,林芝市,林芝监测站,,13,,9,9,6,30,,57,52,24,8,7,6,0.4,0.2
2024-11-08T0900,2633A,94.3616,29.6616,林芝市,林芝人民医院,,37,37,11,18,6,23,,54,49,49,8,6,6,0.8,0.4
2024-11-08T0900,2603A,100.0781,23.8982,临沧市,市环保局,,20,,10,12,15,62,,48,48,9,9,7,7,0.5,0.6
2024-11-08T0900,2604A,100.0894,23.8822,临沧市,市气象局,,19,12,12,7,9,58,,49,49,9,10,8,8,0.5,0.6
2024-11-08T0900,1733A,111.5531,36.0783,临汾市,临钢医院,细颗粒物(PM2.5),94,124,108,70,66,8,,17,17,53,48,12,6,1.0,0.7
2024-11-08T0900,1734A,111.5028,36.0714,临汾市,技工学校,细颗粒物(PM2.5),112,98,106,84,77,39,,41,41,36,48,7,6,0.8,0.8
2024-11-08T0900,1736A,111.5018,36.0855,临汾市,市委,细颗粒物(PM2.5),95,117,114,71,72,35,,40,40,36,43,7,7,0.8,0.8
2024-11-08T0900,3018A,111.505,36.1014,临汾市,唐尧大酒店,细颗粒物(PM2.5),97,113,105,72,72,20,,37,37,42,42,5,6,0.8,0.8
2024-11-08T0900,3668A,111.5036,36.0414,临汾市,城南,细颗粒物(PM2.5),90,111,102,67,66,6,,2,2,35,45,5,6,0.8,0.7
2024-11-08T0900,2667A,103.2069,35.5993,临夏回族自治州,环保局,颗粒物(PM10),69,88,69,23,18,4,,1,1,43,44,9,8,1.9,1.4
2024-11-08T0900,2668A,103.2417,35.6057,临夏回族自治州,建设大厦,,41,41,48,22,22,8,,21,20,33,30,6,6,1.0,0.7
2024-11-08T0900,1618A,118.3429,35.0532,临沂市,沂河小区,"颗粒物(PM10),细颗粒物(PM2.5)",58,66,64,41,37,43,,34,34,38,34,8,8,0.5,0.4
2024-11-08T0900,1619A,118.295,35.0583,临沂市,鲁南制药厂,,48,48,54,27,33,36,,36,36,52,42,7,7,0.8,0.7
2024-11-08T0900,1620A,118.2794,34.9976,临沂市,新光毛纺厂,颗粒物(PM10),59,68,63,41,36,56,,29,29,36,48,18,9,0.8,0.7
2024-11-08T0900,1621A,118.3956,35.0888,临沂市,河东保险公司,颗粒物(PM10),74,97,68,44,38,15,,10,10,55,45,5,4,0.8,0.6
2024-11-08T0900,3370A,118.3564,35.0215,临沂市,十里堡居委,细颗粒物(PM2.5),52,46,49,36,30,48,,40,40,32,34,7,8,0.6,0.4
2024-11-08T0900,3496A,118.3604,35.1084,临沂市,南坊新区,"颗粒物(PM10),细颗粒物(PM2.5)",58,66,60,41,35,31,,28,28,52,44,5,5,0.7,0.6
2024-11-08T0900,3860A,118.3920,35.0300,临沂市,皇山花园小区,颗粒物(PM10),68,85,65,47,36,20,,17,17,57,49,5,5,0.8,0.6
2024-11-08T0900,1870A,109.4856,24.3895,柳州市,柳东小学,,43,34,43,30,28,77,,102,100,12,9,16,11,0.5,0.4
2024-11-08T0900,1871A,109.4157,24.3277,柳州市,环保监测站,颗粒物(PM10),62,73,61,42,33,42,,66,64,33,24,30,12,0.8,0.6
2024-11-08T0900,1872A,109.389,24.341,柳州市,河西水厂,颗粒物(PM10),71,91,81,48,41,38,,27,27,26,33,51,14,0.9,0.9
2024-11-08T0900,1873A,109.4311,24.2921,柳州市,市四中,颗粒物(PM10),51,52,47,26,26,74,,97,94,20,19,17,11,0.8,0.6
2024-11-08T0900,1874A,109.4006,24.3631,柳州市,市九中,颗粒物(PM10),81,111,79,51,42,41,,28,28,28,32,67,11,0.9,0.8
2024-11-08T0900,1875A,109.4958,24.3134,柳州市,古亭山,,42,42,45,28,25,110,,110,110,15,22,14,12,0.9,0.8
2024-11-08T0900,3402A,109.5422,24.3996,柳州市,市二中,,45,40,44,31,28,57,,55,54,24,22,13,10,0.6,0.6
2024-11-08T0900,2307A,116.5079,31.737,六安市,监测大楼,细颗粒物(PM2.5),55,55,52,39,30,36,,58,52,29,23,7,6,0.6,0.6
2024-11-08T0900,2308A,116.4738,31.7643,六安市,皖西学院,颗粒物(PM10),60,69,54,34,25,36,,56,52,31,25,7,6,0.7,0.6
2024-11-08T0900,2309A,116.4996,31.7905,六安市,朝阳厂,颗粒物(PM10),53,55,44,32,23,27,,48,42,32,25,3,2,0.7,0.5
2024-11-08T0900,2310A,116.5567,31.7886,六安市,开发区,颗粒物(PM10),60,70,60,33,27,26,,33,30,32,26,6,5,0.5,0.4
2024-11-08T0900,2576A,104.8,26.5892,六盘水市,窑上,细颗粒物(PM2.5),60,50,52,43,45,43,,39,39,14,9,5,5,0.8,0.6
2024-11-08T0900,2577A,104.83,26.5917,六盘水市,黄土坡,细颗粒物(PM2.5),67,52,49,48,39,53,,50,50,25,20,7,6,1.0,0.8
2024-11-08T0900,2578A,104.89,26.5939,六盘水市,水钢,细颗粒物(PM2.5),112,99,73,84,57,62,,70,69,19,15,4,5,0.6,0.5
2024-11-08T0900,2579A,104.8475,26.5894,六盘水市,民中,细颗粒物(PM2.5),67,56,51,48,42,51,,57,57,29,22,8,8,0.8,0.7
2024-11-08T0900,2580A,104.9544,26.5506,六盘水市,双水,细颗粒物(PM2.5),90,80,57,67,43,64,,66,66,17,14,7,6,0.5,0.4
2024-11-08T0900,2335A,117.0189,25.1181,龙岩市,龙岩师专,,,,,,,,,,,,,,,,
2024-11-08T0900,2336A,117.0217,25.1033,龙岩市,龙岩市监测站,,24,20,25,14,17,76,,69,69,13,12,5,6,0.4,0.3
2024-11-08T0900,2337A,117.0258,25.0661,龙岩市,闽西职业技术学院,,25,22,27,11,14,80,,72,72,9,8,4,3,0.5,0.4
2024-11-08T0900,2338A,117.0196,25.0306,龙岩市,龙岩学院,,26,25,23,13,13,81,,56,56,11,12,9,9,0.4,0.4
2024-11-08T0900,2665A,105.0822,33.3261,陇南市,汉王镇固水子,,,,,,,,,,,,,,,,
2024-11-08T0900,2885A,104.9339,33.3826,陇南市,滨江中学,,38,38,34,14,12,14,,20,18,27,14,7,6,0.9,0.7
2024-11-08T0900,3247A,104.955,33.371,陇南市,市总工会,,42,42,31,26,14,18,,32,29,27,10,6,4,0.5,0.4
2024-11-08T0900,2487A,111.9589,27.8901,娄底市,电视发射台,细颗粒物(PM2.5),57,47,44,40,34,86,,81,80,12,13,8,7,1.0,1.2
2024-11-08T0900,2488A,111.9975,27.725,娄底市,市监测站,细颗粒物(PM2.5),99,109,74,74,53,23,,26,22,57,37,33,13,1.9,1
2024-11-08T0900,2489A,112.0194,27.7314,娄底市,市委党校,细颗粒物(PM2.5),88,88,71,65,46,18,,46,41,39,25,5,5,1.0,0.7
2024-11-08T0900,2490A,111.9561,27.7569,娄底市,涟钢,细颗粒物(PM2.5),74,80,73,54,46,37,,34,32,26,27,8,9,0.4,0.6
2024-11-08T0900,2491A,111.9892,27.7044,娄底市,市政府,细颗粒物(PM2.5),75,77,79,55,54,24,,21,21,22,27,10,9,0.9,0.9
2024-11-08T0900,1893A,105.4324,28.9634,泸州市,九狮山,细颗粒物(PM2.5),58,59,47,41,28,21,,20,20,22,18,5,5,0.6,0.5
2024-11-08T0900,1894A,105.4427,28.9063,泸州市,小市上码头,细颗粒物(PM2.5),93,86,58,69,39,35,,39,39,25,24,6,5,0.7,0.6
2024-11-08T0900,1895A,105.4241,28.8573,泸州市,兰田宪桥,细颗粒物(PM2.5),89,,43,66,40,27,,31,31,28,19,4,4,0.8,0.7
2024-11-08T0900,1896A,105.4379,28.8833,泸州市,市环监站,细颗粒物(PM2.5),82,88,61,60,44,23,,32,32,29,24,5,6,0.7,0.6
2024-11-08T0900,3490A,105.3617,28.7703,泸州市,纳溪区环保局,细颗粒物(PM2.5),59,43,37,42,32,20,,16,16,30,25,4,4,0.8,0.7
2024-11-08T0900,2183A,111.1406,37.5211,吕梁市,环保局,颗粒物(PM10),80,110,91,40,39,6,,1,1,41,43,6,5,0.8,0.7
2024-11-08T0900,2185A,111.1297,37.5136,吕梁市,自来水公司,颗粒物(PM10),89,128,101,32,37,7,,1,1,38,37,12,8,0.9,0.8
2024-11-08T0900,2867A,111.1283,37.51,吕梁市,马茂庄小学,颗粒物(PM10),89,128,112,48,41,9,,3,3,44,48,14,10,0.7,0.7
2024-11-08T0900,1812A,112.3931,34.6516,洛阳市,市委党校,细颗粒物(PM2.5),118,139,139,89,99,12,,4,4,60,63,7,6,0.9,0.8
2024-11-08T0900,1814A,112.4657,34.6871,洛阳市,豫西宾馆,细颗粒物(PM2.5),95,129,142,71,81,28,,9,9,42,56,8,7,0.7,0.7
2024-11-08T0900,1815A,112.494,34.6886,洛阳市,河南林校,细颗粒物(PM2.5),115,112,125,87,99,22,,14,14,41,51,8,8,0.5,0.5
2024-11-08T0900,1816A,112.3844,34.623,洛阳市,开发区管委会,细颗粒物(PM2.5),159,168,150,121,104,9,,4,4,39,49,8,10,0.8,0.6
2024-11-08T0900,1817A,112.4267,34.6258,洛阳市,市委新办公区,细颗粒物(PM2.5),147,171,158,112,97,12,,5,5,40,49,5,6,0.7,0.6
2024-11-08T0900,3340A,112.6005,34.6326,洛阳市,伊滨,细颗粒物(PM2.5),120,137,156,91,94,6,,2,2,52,54,5,6,1.1,0.7
2024-11-08T0900,3341A,112.4951,34.6332,洛阳市,中移产业园,细颗粒物(PM2.5),134,130,124,102,96,14,,8,7,48,59,5,7,0.9,0.8
2024-11-08T0900,3593A,112.5736,34.8993,洛阳市,吉利监测站,细颗粒物(PM2.5),97,88,115,72,87,18,,7,7,56,56,4,6,0.6,0.6
2024-11-08T0900,3635A,112.3677,34.662,洛阳市,河科大西苑校区,细颗粒物(PM2.5),110,143,142,83,96,10,,5,5,57,61,7,6,0.9,0.8
2024-11-08T0900,3636A,112.4388,34.6781,洛阳市,英才小学,细颗粒物(PM2.5),97,142,157,72,85,16,,3,3,54,60,7,6,0.7,0.7
2024-11-08T0900,2399A,114.051,33.5699,漯河市,三五一五工厂,细颗粒物(PM2.5),68,83,74,49,44,47,,62,59,34,26,6,6,0.6,0.5
2024-11-08T0900,2400A,114.0055,33.5698,漯河市,漯河大学,颗粒物(PM10),69,88,81,46,41,55,,67,65,31,25,6,6,0.6,0.5
2024-11-08T0900,2401A,114.0138,33.5828,漯河市,市水利局,颗粒物(PM10),62,73,70,41,39,48,,66,63,30,18,8,7,0.7,0.6
2024-11-08T0900,2402A,114.0261,33.5698,漯河市,市广电局,细颗粒物(PM2.5),64,71,68,46,44,54,,64,62,27,22,8,7,0.6,0.5
2024-11-08T0900,3478A,113.9749,33.5664,漯河市,市图书馆,细颗粒物(PM2.5),64,75,71,46,37,52,,70,68,29,20,5,5,0.5,0.4
2024-11-08T0900,3479A,114.0967,33.5906,漯河市,召陵区卫健委,颗粒物(PM10),66,82,78,43,45,46,,55,53,32,25,11,11,0.6,0.5
2024-11-08T0900,1798A,118.5092,31.6837,马鞍山市,湖东路四小,,50,50,38,20,16,50,,32,32,24,22,7,4,0.8,0.6
2024-11-08T0900,1799A,118.5024,31.6449,马鞍山市,开发区,,,,54,,24,28,,5,5,,44,,7,1.0,0.7
2024-11-08T0900,1800A,118.5228,31.7231,马鞍山市,慈湖,,32,,25,22,20,58,,38,38,22,28,10,8,0.8,0.7
2024-11-08T0900,1802A,118.6245,31.7241,马鞍山市,濮塘,,32,32,30,21,18,61,,35,35,22,17,8,8,0.8,0.8
2024-11-08T0900,3633A,118.4918,31.6809,马鞍山市,雨山,,45,45,35,20,16,49,,33,33,26,23,8,5,0.9,0.6
2024-11-08T0900,1686A,111.0286,21.4688,茂名市,电白南海,颗粒物(PM10),58,66,58,36,29,72,,76,76,22,20,19,11,0.6,0.6
2024-11-08T0900,1687A,110.9294,21.6533,茂名市,茂石化七小,颗粒物(PM10),59,68,56,34,36,73,,86,85,24,16,15,15,0.8,0.8
2024-11-08T0900,1688A,110.9107,21.6687,茂名市,健康路,颗粒物(PM10),52,53,57,31,37,69,,58,57,22,18,26,26,0.7,0.7
2024-11-08T0900,1689A,110.8592,21.6828,茂名市,高岭,颗粒物(PM10),62,73,76,36,44,40,,24,24,25,25,23,18,0.7,0.7
2024-11-08T0900,3450A,111.01,21.5165,茂名市,电白水东,颗粒物(PM10),51,51,48,29,30,74,,83,82,21,16,14,15,0.6,0.7
2024-11-08T0900,2539A,104.0308,30.0478,眉山市,黑龙滩水库,细颗粒物(PM2.5),63,54,50,45,47,8,,40,36,9,3,4,3,0.6,0.6
2024-11-08T0900,2540A,103.8416,30.0874,眉山市,气象局,细颗粒物(PM2.5),58,50,49,41,44,4,,12,8,25,22,8,7,0.8,0.7
2024-11-08T0900,3137A,103.8578,30.0744,眉山市,市委党校,细颗粒物(PM2.5),58,63,52,41,36,5,,18,14,33,24,8,6,0.8,0.6
2024-11-08T0900,3148A,103.8291,30.0564,眉山市,区人社局,细颗粒物(PM2.5),58,47,45,41,38,5,,19,17,37,28,5,4,0.8,0.6
2024-11-08T0900,1690A,116.1231,24.3284,梅州市,梅江月梅,,35,35,34,20,19,48,,28,28,24,25,10,9,0.6,0.5
2024-11-08T0900,1691A,116.0797,24.2719,梅州市,梅县新城,,41,41,35,18,20,30,,38,38,33,24,6,5,0.7,0.5
2024-11-08T0900,1692A,116.1248,24.2654,梅州市,环境监控中心,,48,48,48,23,22,52,,14,14,23,34,11,17,0.5,0.5
2024-11-08T0900,3315A,116.1233,24.2991,梅州市,梅龙,,36,36,40,18,19,51,,36,36,17,20,8,7,0.5,0.5
2024-11-08T0900,1878A,104.7778,31.4741,绵阳市,富乐山,细颗粒物(PM2.5),84,74,60,62,50,17,,25,24,13,15,2,3,0.7,0.7
2024-11-08T0900,1879A,104.7563,31.4535,绵阳市,市人大,颗粒物(PM10),68,86,73,42,50,50,,45,45,21,16,5,5,0.6,0.5
2024-11-08T0900,1880A,104.6697,31.4668,绵阳市,高新区自来水公司,细颗粒物(PM2.5),67,63,59,48,39,20,,31,29,28,25,3,4,0.9,0.8
2024-11-08T0900,1881A,104.7287,31.5075,绵阳市,三水厂,细颗粒物(PM2.5),93,,64,69,55,29,,37,35,37,24,6,6,0.8,0.7
2024-11-08T0900,3491A,104.69,31.5322,绵阳市,西科大附属小学,细颗粒物(PM2.5),64,72,69,46,41,8,,24,23,25,25,5,5,0.8,0.7
2024-11-08T0900,3492A,104.5648,31.5343,绵阳市,安州区旅游局,细颗粒物(PM2.5),94,,55,70,54,12,,26,24,23,19,7,6,0.9,0.7
2024-11-08T0900,1784A,129.61,44.561,牡丹江市,环保大楼,细颗粒物(PM2.5),84,103,88,62,58,13,,14,13,41,34,15,9,0.8,0.5
2024-11-08T0900,1785A,129.6115,44.5782,牡丹江市,文化广场,细颗粒物(PM2.5),82,,110,60,78,7,,10,9,48,42,20,26,1.2,0.7
2024-11-08T0900,1786A,129.5904,44.5963,牡丹江市,第一医院,,,,91,,83,,,27,27,44,32,20,9,,0.6
2024-11-08T0900,1787A,129.6364,44.6075,牡丹江市,机车工厂,颗粒物(PM10),103,155,95,54,58,14,,13,12,40,31,125,25,1.3,0.6
2024-11-08T0900,1788A,129.6386,44.5462,牡丹江市,第一中学,细颗粒物(PM2.5),57,60,64,40,48,15,,17,17,35,30,7,5,0.6,0.4
2024-11-08T0900,2531A,105.0703,29.61,内江市,市监测站,细颗粒物(PM2.5),62,,41,44,48,12,,25,23,38,25,10,10,0.8,0.8
2024-11-08T0900,2532A,105.0717,29.5947,内江市,东兴区政府,细颗粒物(PM2.5),53,38,41,37,39,20,,29,28,23,22,7,6,0.7,0.7
2024-11-08T0900,2533A,105.0653,29.5817,内江市,内江二中,细颗粒物(PM2.5),63,50,49,45,52,16,,31,30,30,25,7,7,0.7,0.7
2024-11-08T0900,2534A,105.0406,29.5822,内江市,内江日报社,细颗粒物(PM2.5),52,,48,36,45,17,,28,26,27,26,6,7,0.7,0.6
2024-11-08T0900,2628A,92.0657,31.4846,那曲市,那曲监测站,颗粒物(PM10),109,167,79,80,43,10,,22,21,32,28,18,12,1.2,1
2024-11-08T0900,3128A,92.0506,31.4797,那曲市,那曲会议中心,细颗粒物(PM2.5),87,119,66,64,32,9,,10,10,28,21,9,6,1.5,0.9
2024-11-08T0900,1290A,115.8931,28.6843,南昌市,省外办,,,83,60,61,41,51,,56,54,,29,10,13,0.7,0.6
2024-11-08T0900,1291A,115.8886,28.7003,南昌市,省林业公司,颗粒物(PM10),63,75,58,44,35,50,,45,44,32,33,12,10,0.7,0.3
2024-11-08T0900,1292A,115.8126,28.7442,南昌市,林科所,颗粒物(PM10),52,53,42,31,26,71,,72,69,31,23,15,11,0.5,0.5
2024-11-08T0900,1294A,115.8518,28.687,南昌市,建工学校,"颗粒物(PM10),细颗粒物(PM2.5)",58,65,49,41,29,52,,68,63,35,23,13,12,0.6,0.5
2024-11-08T0900,1295A,115.8921,28.6424,南昌市,象湖,颗粒物(PM10),57,64,49,38,36,64,,66,64,34,29,14,12,0.6,0.5
2024-11-08T0900,1296A,115.7423,28.7996,南昌市,武术学校,,22,22,25,14,12,8,,11,9,12,11,1,1,0.6,0.4
2024-11-08T0900,1298A,115.9314,28.6842,南昌市,省站,颗粒物(PM10),73,95,69,47,41,53,,53,51,32,27,12,12,0.6,0.5
2024-11-08T0900,3046A,115.9084,28.6062,南昌市,机电学校,,,72,64,39,35,64,,59,58,31,31,12,10,,0.3
2024-11-08T0900,3690A,115.9721,28.7031,南昌市,外国语学校,细颗粒物(PM2.5),72,79,60,52,34,59,,54,53,28,28,11,10,0.8,0.6
2024-11-08T0900,1905A,106.056,30.8064,南充市,西山风景区,细颗粒物(PM2.5),64,,44,46,41,1,,7,5,19,17,1,2,0.7,0.6
2024-11-08T0900,1906A,106.0789,30.8023,南充市,南充市委,细颗粒物(PM2.5),69,60,55,50,44,3,,2,2,20,23,2,3,0.7,0.5
2024-11-08T0900,1907A,106.1031,30.8217,南充市,南充炼油厂,细颗粒物(PM2.5),72,77,64,52,47,0,,0,0,20,26,3,3,0.8,0.7
2024-11-08T0900,1908A,106.1064,30.7856,南充市,高坪区监测站,,,73,65,60,48,2,,1,1,25,30,3,3,,0.5
2024-11-08T0900,1909A,106.0642,30.7636,南充市,嘉陵区环保局,细颗粒物(PM2.5),62,72,54,44,38,2,,2,2,23,29,4,4,0.9,0.6
2024-11-08T0900,1910A,106.1087,30.8388,南充市,市环境监测站,细颗粒物(PM2.5),68,61,58,49,45,6,,4,2,16,18,3,4,0.5,0.5
2024-11-08T0900,1151A,118.8086,32.1065,南京市,迈皋桥,,22,22,25,14,11,44,,30,30,34,25,4,4,0.4,0.5
2024-11-08T0900,1152A,118.7538,32.0551,南京市,草场门,,22,14,24,3,9,69,,63,63,25,30,4,4,0.2,0.3
2024-11-08T0900,1153A,118.7794,32.0745,南京市,山西路,,31,19,27,7,11,97,,97,97,10,8,4,4,0.4,0.5
2024-11-08T0900,1154A,118.7752,32.0023,南京市,中华门,,22,22,28,7,10,59,,38,38,26,31,3,4,0.4,0.5
2024-11-08T0900,1155A,118.8109,32.0309,南京市,瑞金路,,24,24,31,7,13,53,,48,48,25,21,4,4,0.3,0.4
2024-11-08T0900,1156A,118.7997,32.0754,南京市,玄武湖,,23,23,27,3,4,48,,54,53,40,34,5,6,0.4,0.5
2024-11-08T0900,1157A,118.6414,32.0931,南京市,浦口,,32,32,31,15,15,28,,38,37,41,28,6,6,0.7,0.7
2024-11-08T0900,1158A,118.7356,31.9996,南京市,奥体中心,,24,24,32,12,15,56,,50,50,34,29,7,7,0.3,0.3
2024-11-08T0900,1159A,118.9125,32.1028,南京市,仙林大学城,,31,31,27,9,10,46,,48,46,32,20,5,5,0.4,0.4
2024-11-08T0900,3422A,118.8436,31.9198,南京市,江宁彩虹桥,,35,35,37,14,13,62,,40,40,27,31,7,5,0.7,0.6
2024-11-08T0900,3423A,119.0138,31.6494,南京市,溧水永阳,,36,36,31,14,17,43,,16,16,37,33,4,4,0.6,0.4
2024-11-08T0900,3424A,118.879,31.3302,南京市,高淳老职中,,35,30,29,24,18,42,,28,28,36,25,12,6,1.2,1
2024-11-08T0900,3427A,118.8554,32.3578,南京市,六合雄州,颗粒物(PM10),52,53,42,25,18,19,,13,13,36,28,10,6,0.5,0.4
2024-11-08T0900,1401A,108.3103,22.7881,南宁市,二十一中,细颗粒物(PM2.5),88,87,68,65,46,14,,10,6,60,42,12,10,1.1,0.9
2024-11-08T0900,1402A,108.3141,22.8528,南宁市,北湖,细颗粒物(PM2.5),68,78,67,49,46,14,,10,10,66,48,21,12,1.1,0.7
2024-11-08T0900,1403A,108.3206,22.8225,南宁市,市监测站,细颗粒物(PM2.5),72,77,66,52,45,22,,26,20,56,38,19,17,0.8,0.7
2024-11-08T0900,1404A,108.3829,22.8037,南宁市,大自然花园,,39,39,51,26,34,60,,82,78,33,22,14,10,0.7,0.7
2024-11-08T0900,1405A,108.4394,22.7904,南宁市,仙葫,颗粒物(PM10),54,58,60,34,44,49,,32,32,41,37,14,10,0.7,0.7
2024-11-08T0900,1406A,108.2397,22.8467,南宁市,区农职院,细颗粒物(PM2.5),67,73,58,48,36,16,,44,38,41,22,23,10,1.1,0.8
2024-11-08T0900,1407A,108.3275,22.735,南宁市,英华嘉园,细颗粒物(PM2.5),82,82,67,60,48,40,,20,20,38,44,42,12,0.9,0.8
2024-11-08T0900,1408A,108.2257,22.7757,南宁市,沙井镇街道办,细颗粒物(PM2.5),80,84,77,59,50,19,,7,7,37,41,16,8,0.8,0.8
2024-11-08T0900,3401A,108.4834,22.7618,南宁市,红星社区,,43,32,55,30,37,46,,39,39,34,30,8,9,0.8,0.8
2024-11-08T0900,2331A,118.0966,26.6761,南平市,茫荡山,,,,,,,,,,,,,,,,
2024-11-08T0900,2332A,118.1681,26.6369,南平市,南平市监测站,,24,24,28,14,16,38,,17,17,15,21,4,3,0.4,0.4
2024-11-08T0900,2333A,118.1825,26.6489,南平市,南平铝业有限公司,,26,21,27,18,16,30,,19,19,13,20,3,3,0.4,0.4
2024-11-08T0900,2334A,118.1756,26.6272,南平市,南平七中,,25,23,27,17,16,26,,10,10,18,19,4,3,0.6,0.4
2024-11-08T0900,1168A,120.9098,31.9663,南通市,狼山街道,,40,40,25,16,10,50,,47,47,30,15,7,7,0.5,0.4
2024-11-08T0900,1169A,120.86,32.0005,南通市,虹桥,,35,35,29,19,16,49,,41,40,34,25,7,6,0.3,0.3
2024-11-08T0900,1170A,120.87,32.02,南通市,城中,颗粒物(PM10),51,52,35,21,16,43,,42,41,40,26,7,7,0.5,0.3
2024-11-08T0900,1171A,120.94,31.93,南通市,星湖花园,,24,24,24,11,14,53,,37,37,29,24,5,5,0.5,0.5
2024-11-08T0900,1172A,120.81,32.0417,南通市,紫琅学院,,29,29,29,9,13,48,,31,31,33,32,4,3,0.3,0.4
2024-11-08T0900,3291A,121.067,32.062,南通市,通州监测站,,24,22,28,9,13,76,,59,59,14,15,2,2,0.3,0.3
2024-11-08T0900,3432A,120.9348,31.9883,南通市,环境教育馆,,44,44,30,23,14,38,,33,33,43,25,5,4,0.4,0.4
2024-11-08T0900,2404A,112.5224,33.0122,南阳市,瓦房庄,细颗粒物(PM2.5),69,80,80,50,58,56,,74,70,34,33,5,6,0.6,0.7
2024-11-08T0900,2405A,112.5003,32.9735,南阳市,汉画馆,颗粒物(PM10),62,74,81,35,45,65,,69,68,32,34,8,9,0.5,0.6
2024-11-08T0900,2406A,112.5573,33.027,南阳市,气象站,颗粒物(PM10),67,83,82,46,47,47,,71,66,42,32,6,7,0.8,0.8
2024-11-08T0900,2407A,112.5481,32.9689,南阳市,理工学院,颗粒物(PM10),55,60,74,38,51,67,,68,67,26,29,6,7,0.5,0.6
2024-11-08T0900,4008A,112.5234,32.9922,南阳市,卧龙区政府,颗粒物(PM10),68,86,84,44,53,65,,70,68,31,36,5,6,0.6,0.7
2024-11-08T0900,1234A,121.8358,29.911,宁波市,区环保大楼,,24,24,25,8,8,72,,60,60,15,24,6,6,0.4,0.4
2024-11-08T0900,1235A,121.56,29.82,宁波市,万里学院,,35,35,31,20,16,25,,36,32,44,32,8,7,0.6,0.5
2024-11-08T0900,1236A,121.713,29.9572,宁波市,龙赛医院,,24,18,23,3,6,74,,71,70,18,20,8,8,0.5,0.5
2024-11-08T0900,1239A,121.633,29.7733,宁波市,钱湖水厂,,43,43,40,19,17,20,,25,25,44,37,10,9,0.6,0.5
2024-11-08T0900,1240A,121.5856,29.8635,宁波市,太古小学,,43,43,34,17,14,26,,32,30,44,28,9,8,0.9,0.6
2024-11-08T0900,1241A,121.524,29.8674,宁波市,市环境监测中心,,39,39,31,10,10,32,,38,36,38,32,11,11,0.6,0.5
2024-11-08T0900,2871A,121.6147,29.9017,宁波市,万里国际学校,,34,34,22,14,11,21,,30,30,55,39,8,8,0.7,0.5
2024-11-08T0900,3710A,121.5594,29.8975,宁波市,白沙活动中心,,28,28,24,11,10,32,,37,36,41,28,10,9,0.7,0.6
2024-11-08T0900,2339A,119.5001,26.6946,宁德市,金涵水库,,,,,,,,,,,,,,,,
2024-11-08T0900,2341A,119.5388,26.6612,宁德市,宁德市监测站,,40,40,29,13,15,38,,47,45,25,17,2,3,0.4,0.4
2024-11-08T0900,3209A,119.5231,26.6562,宁德市,宁德一中,,23,23,27,14,14,44,,60,58,21,12,1,2,0.4,0.3
2024-11-08T0900,2618A,98.8601,25.8567,怒江傈僳族自治州,州监测站,,16,16,17,8,10,27,,28,28,6,6,6,6,0.5,0.5
2024-11-08T0900,2619A,98.8546,25.8417,怒江傈僳族自治州,泸水一中,,8,6,9,3,6,17,,24,24,12,11,7,7,0.5,0.5
2024-11-08T0900,1888A,101.6891,26.571,攀枝花市,弄弄坪,,18,6,15,3,11,57,,60,60,11,18,8,11,0.4,0.9
2024-11-08T0900,1889A,101.5769,26.5928,攀枝花市,河门口,,17,6,13,3,9,52,,51,51,10,16,6,6,0.5,0.8
2024-11-08T0900,1890A,101.7169,26.585,攀枝花市,炳草岗,,17,11,18,3,14,25,,41,38,33,28,7,12,0.9,1.3
2024-11-08T0900,1891A,101.7369,26.5008,攀枝花市,仁和,,21,16,16,11,13,27,,36,34,32,20,19,10,2.1,1.4
2024-11-08T0900,2835A,101.7227,26.567,攀枝花市,四十中小,,17,11,23,7,17,53,,61,60,8,10,3,10,0.6,1.2
2024-11-08T0900,1604A,122.0303,41.1489,盘锦市,开发区,细颗粒物(PM2.5),63,,44,45,46,58,,65,64,32,26,12,14,0.5,0.5
2024-11-08T0900,1605A,122.0485,41.0883,盘锦市,兴隆台,细颗粒物(PM2.5),64,,47,46,45,51,,59,58,41,29,29,28,0.6,0.6
2024-11-08T0900,1606A,121.8297,41.1028,盘锦市,新生街道,细颗粒物(PM2.5),60,,39,43,45,71,,73,72,20,23,10,12,0.5,0.6
2024-11-08T0900,1832A,113.3257,33.742,平顶山市,新华旅馆,颗粒物(PM10),75,99,99,50,52,50,,50,49,32,29,8,10,0.4,0.5
2024-11-08T0900,1833A,113.2919,33.737,平顶山市,规划设计院,细颗粒物(PM2.5),75,97,100,55,55,49,,58,55,34,28,8,11,0.6,0.6
2024-11-08T0900,1834A,113.182,33.774,平顶山市,平顶山工学院,颗粒物(PM10),69,87,85,46,46,46,,55,52,27,20,8,9,0.7,0.7
2024-11-08T0900,3204A,113.3025,33.73,平顶山市,规划局,颗粒物(PM10),73,95,92,51,56,47,,56,53,38,30,8,12,0.6,0.5
2024-11-08T0900,3594A,112.8867,33.9116,平顶山市,石龙区,细颗粒物(PM2.5),82,96,105,60,57,37,,40,38,29,27,13,13,1.1,0.9
2024-11-08T0900,2656A,106.6692,35.5461,平凉市,聚贤嘉苑,颗粒物(PM10),59,68,87,36,59,22,,22,22,36,43,9,10,0.7,0.8
2024-11-08T0900,2657A,106.7021,35.5307,平凉市,博物馆,,,,,,,,,,,,,,,,
2024-11-08T0900,2347A,114.0997,27.5002,萍乡市,武功山,,18,7,17,3,6,55,,53,52,7,7,6,7,0.2,0.2
2024-11-08T0900,2348A,113.8385,27.6434,萍乡市,中医院,细颗粒物(PM2.5),63,65,58,45,29,65,,61,58,26,20,57,31,0.7,0.7
2024-11-08T0900,2349A,113.8493,27.6253,萍乡市,市政府车库,,,66,54,44,35,55,,57,54,32,24,37,22,,1.1
2024-11-08T0900,2350A,113.8676,27.6435,萍乡市,市环保局,颗粒物(PM10),62,74,57,38,33,54,,53,48,29,22,40,31,0.6,0.6
2024-11-08T0900,2351A,113.866,27.6198,萍乡市,安源区政府,颗粒物(PM10),59,68,57,37,31,48,,54,52,34,22,34,24,3.0,1
2024-11-08T0900,2319A,119.0141,25.4325,莆田市,荔城区仓后路,,26,26,24,3,6,83,,87,86,7,7,2,1,0.3,0.3
2024-11-08T0900,2320A,119.0015,25.4553,莆田市,莆田市监测站,,27,10,21,3,7,86,,90,89,4,4,2,2,0.3,0.3
2024-11-08T0900,2321A,119.1119,25.4561,莆田市,涵江区六中,,25,15,24,6,6,80,,82,80,8,6,2,2,0.4,0.3
2024-11-08T0900,2322A,119.1013,25.3215,莆田市,秀屿区政府,,25,19,30,8,9,78,,81,80,9,8,3,2,0.2,0.2
2024-11-08T0900,2323A,118.981,25.4792,莆田市,东圳水库,,,,,,,,,,,,,,,,
2024-11-08T0900,2392A,115.0312,35.7636,濮阳市,环保局,,48,43,53,33,39,50,,46,45,23,23,3,4,0.5,0.4
2024-11-08T0900,2394A,115.0574,35.7609,濮阳市,油田运输公司,,50,50,63,28,37,50,,47,47,22,24,4,5,0.4,0.4
2024-11-08T0900,2395A,115.0866,35.7754,濮阳市,油田物探公司,颗粒物(PM10),54,57,68,33,41,49,,46,46,27,26,6,7,0.3,0.3
2024-11-08T0900,3021A,115,35.7668,濮阳市,濮水河管理处,颗粒物(PM10),59,68,69,31,36,42,,45,43,28,23,4,4,0.4,0.4
2024-11-08T0900,2601A,100.98,22.7633,普洱市,市环保局,,28,,24,19,24,70,,60,60,16,9,6,6,0.5,0.5
2024-11-08T0900,2602A,100.9817,22.8322,普洱市,普洱第二中学,,32,,23,22,17,75,,56,56,12,10,6,7,0.3,0.4
2024-11-08T0900,2262A,131.0518,45.8751,七台河市,新一中,,42,42,25,20,13,34,,23,23,21,16,19,10,0.8,0.9
2024-11-08T0900,3345A,131.0577,45.7879,七台河市,中波台,,38,38,37,22,21,25,,23,23,17,27,14,10,0.8,1
2024-11-08T0900,3637A,131.0176,45.7761,七台河市,人民广场,,50,50,39,27,24,24,,24,24,22,28,10,8,0.8,0.8
2024-11-08T0900,3684A,130.8781,45.8222,七台河市,新建矿广场,颗粒物(PM10),82,114,93,49,28,20,,7,7,47,38,38,10,1.2,0.6
2024-11-08T0900,1779A,123.9305,47.3636,齐齐哈尔市,安居小区,细颗粒物(PM2.5),271,239,146,221,128,13,,22,19,51,33,8,8,1.2,0.7
2024-11-08T0900,1780A,123.9488,47.3386,齐齐哈尔市,中心广场,细颗粒物(PM2.5),242,212,168,192,149,12,,28,24,49,29,7,6,1.2,0.7
2024-11-08T0900,1781A,123.9483,47.3227,齐齐哈尔市,农牧车辆厂,细颗粒物(PM2.5),232,251,146,182,108,12,,15,13,50,29,7,8,1.3,0.8
2024-11-08T0900,1783A,123.945,47.2988,齐齐哈尔市,市环境监测站,细颗粒物(PM2.5),262,265,153,212,130,17,,23,20,46,27,5,6,1.1,0.6
2024-11-08T0900,3662A,123.6333,47.2075,齐齐哈尔市,富区青少年活动中心,细颗粒物(PM2.5),222,295,136,172,87,13,,26,22,40,22,8,6,1.0,0.5
2024-11-08T0900,2591A,107.9783,26.5747,黔东南苗族侗族自治州,市环境监测站,,48,44,41,33,31,21,,48,43,39,24,6,6,0.5,0.4
2024-11-08T0900,2881A,107.8908,26.5311,黔东南苗族侗族自治州,凯里学院,,35,27,34,24,29,39,,41,38,19,20,5,5,0.4,0.4
2024-11-08T0900,2593A,107.5228,26.2403,黔南布依族苗族自治州,小围寨,,35,31,36,24,28,51,,58,57,10,12,6,6,0.3,0.3
2024-11-08T0900,3538A,107.5175,26.2978,黔南布依族苗族自治州,沙坝,,48,48,41,27,29,42,,43,42,20,15,5,4,0.5,0.6
2024-11-08T0900,2589A,104.9022,25.0925,黔西南布依族苗族自治州,场坝街,细颗粒物(PM2.5),69,65,52,50,42,33,,40,40,27,18,46,14,0.7,0.6
2024-11-08T0900,2590A,104.8811,25.0992,黔西南布依族苗族自治州,坪东大道,细颗粒物(PM2.5),68,52,43,49,41,32,,33,33,27,21,4,4,0.7,0.6
2024-11-08T0900,2502A,108.6236,21.9667,钦州市,市环保站,颗粒物(PM10),76,102,95,53,48,58,,44,44,33,34,20,12,1.7,1.5
2024-11-08T0900,2503A,108.6549,21.9481,钦州市,沙埠小学,细颗粒物(PM2.5),74,92,88,54,48,49,,48,47,38,35,13,10,0.7,0.8
2024-11-08T0900,2504A,108.5989,21.7431,钦州市,港区一小,颗粒物(PM10),75,100,93,47,44,67,,66,60,40,37,14,11,0.8,0.9
2024-11-08T0900,3404A,108.5959,21.9633,钦州市,北职校,颗粒物(PM10),82,114,76,59,53,56,,44,44,28,26,16,11,2.1,1.4
2024-11-08T0900,1042A,119.5134,39.8207,秦皇岛市,北戴河环保局,细颗粒物(PM2.5),80,96,77,59,47,39,,52,50,29,31,9,8,1.4,0.8
2024-11-08T0900,1043A,119.7493,40.0116,秦皇岛市,第一关,细颗粒物(PM2.5),92,113,90,68,65,10,,19,17,80,70,13,8,1.5,0.8
2024-11-08T0900,1044A,119.5897,39.9499,秦皇岛市,监测站,细颗粒物(PM2.5),110,149,96,83,51,4,,19,14,78,58,9,9,1.7,0.9
2024-11-08T0900,1046A,119.5251,39.9041,秦皇岛市,建设大厦,颗粒物(PM10),90,130,97,61,54,10,,35,29,66,47,14,9,1.5,0.9
2024-11-08T0900,3132A,119.610547,39.943889,秦皇岛市,文明里,"颗粒物(PM10),细颗粒物(PM2.5)",110,170,106,83,62,7,,33,28,76,53,7,7,1.5,0.8
2024-11-08T0900,1307A,120.6659,36.2403,青岛市,仰口,,33,27,17,23,15,78,,96,94,14,7,7,7,0.6,0.6
2024-11-08T0900,1310A,120.4134,36.0658,青岛市,市南区东部子站,,39,39,24,9,7,108,,109,109,12,11,10,10,0.5,0.5
2024-11-08T0900,1311A,120.3664,36.1032,青岛市,四方区子站,颗粒物(PM10),53,56,29,24,15,55,,45,44,66,35,10,10,0.9,0.7
2024-11-08T0900,1312A,120.2994,36.054,青岛市,市南区西部子站,,35,19,23,17,10,111,,59,59,16,31,12,11,0.5,0.6
2024-11-08T0900,1313A,120.4581,36.0858,青岛市,崂山区子站,,36,22,12,7,5,114,,92,92,15,19,10,9,0.4,0.5
2024-11-08T0900,1314A,120.1983,35.9608,青岛市,黄岛区子站,颗粒物(PM10),60,70,24,39,15,21,,80,70,94,23,17,9,0.8,0.6
2024-11-08T0900,1315A,120.3999,36.3083,青岛市,城阳区子站,,48,48,49,24,23,23,,23,23,78,59,10,10,1.0,0.9
2024-11-08T0900,1966A,120.0405,35.8735,青岛市,黄岛区4号,颗粒物(PM10),51,51,28,19,10,38,,75,70,71,31,9,9,0.7,0.5
2024-11-08T0900,3362A,120.5014,36.4034,青岛市,即墨2号,,27,27,38,10,17,68,,90,90,40,30,7,8,0.6,0.5
2024-11-08T0900,3642A,120.3503,36.0736,青岛市,市北区南部,,34,26,28,14,9,107,,104,104,17,20,12,10,0.7,0.6
2024-11-08T0900,3643A,120.3948,36.1805,青岛市,李沧区北部,颗粒物(PM10),60,70,33,31,17,39,,92,86,76,41,12,10,1.2,0.8
2024-11-08T0900,1702A,113.0426,23.691,清远市,环保大楼,,34,32,29,20,20,106,,99,99,18,16,9,10,0.8,0.7
2024-11-08T0900,1703A,113.0208,23.7106,清远市,凤城街办,,,31,30,16,16,,,99,99,15,13,12,13,0.7,0.7
2024-11-08T0900,3025A,113.0477,23.6344,清远市,技师学院,,41,41,35,19,16,85,,85,83,21,14,15,13,0.6,0.5
2024-11-08T0900,3318A,112.9903,23.7403,清远市,清新太和,,38,20,20,14,13,120,,108,108,6,8,7,6,0.6,0.6
2024-11-08T0900,3455A,113.076,23.7198,清远市,清城东城,,31,30,31,20,16,97,,,,12,10,11,11,0.6,0.7
2024-11-08T0900,2661A,107.6325,35.7357,庆阳市,庆阳五中,细颗粒物(PM2.5),128,118,94,97,75,81,,81,81,36,30,16,15,0.8,0.7
2024-11-08T0900,2662A,107.6364,35.7067,庆阳市,市环保局,细颗粒物(PM2.5),95,100,88,71,63,99,,95,95,15,23,7,14,0.7,0.6
