timepoint,stationcode,longitude,latitude,area,positionname,primarypollutant,aqi,pm10,pm10_24h,pm2_5,pm2_5_24h,o3,o3_24h,o3_8h,o3_8h_24h,no2,no2_24h,so2,so2_24h,co,co_24h
2024-11-08T2000,2566A,102.1879,31.914,阿坝藏族羌族自治州,州农科所,,31,31,20,16,7,33,,51,49,18,10,8,9,0.1,0
2024-11-08T2000,2568A,102.2502,31.8896,阿坝藏族羌族自治州,马师校,,35,35,14,22,13,11,,44,41,31,15,4,4,0.5,0.3
2024-11-08T2000,3994A,102.2165,31.9024,阿坝藏族羌族自治州,马尔康中学西区,,36,,17,25,15,33,,59,58,17,14,5,5,0.5,0.4
2024-11-08T2000,2695A,80.292,41.1694,阿克苏地区,电视台,,,,98,,34,79,,89,89,29,39,,5,0.5,0.7
2024-11-08T2000,2696A,80.2613,41.1551,阿克苏地区,艺术中心,颗粒物(PM10),78,106,99,18,30,87,,93,93,19,41,4,4,0.7,1
2024-11-08T2000,2204A,105.6467,38.8363,阿拉善盟,西城区西花园,细颗粒物(PM2.5),122,127,50,92,33,65,,94,94,38,18,14,11,1.3,0.8
2024-11-08T2000,2205A,105.6985,38.8411,阿拉善盟,蒙二幼,颗粒物(PM10),98,146,44,69,23,20,,81,74,82,21,10,8,1.4,0.7
2024-11-08T2000,2206A,105.724,38.8516,阿拉善盟,环保局新楼,颗粒物(PM10),51,51,32,28,16,59,,92,77,37,14,10,9,0.8,0.5
2024-11-08T2000,2708A,88.1264,47.8517,阿勒泰地区,市站,,16,10,11,8,5,50,,38,,15,11,8,7,0.1,0.4
2024-11-08T2000,2630A,80.1161,32.5,阿里地区,阿里监测站,,36,10,19,3,8,114,,110,110,4,14,9,7,0.5,0.6
2024-11-08T2000,3192A,80.0903,32.5028,阿里地区,阿里藏医院,,38,15,17,3,9,119,,119,119,2,14,5,7,0.4,0.6
2024-11-08T2000,2642A,109.0318,32.6537,安康市,香溪洞,颗粒物(PM10),57,64,63,39,37,78,,68,68,16,22,9,10,0.5,0.5
2024-11-08T2000,2644A,109.0072,32.6975,安康市,汉滨区检察院,细颗粒物(PM2.5),82,102,82,60,46,37,,53,53,43,33,8,7,0.9,0.6
2024-11-08T2000,4054A,109.0325,32.6913,安康市,市邮政管理局,"颗粒物(PM10),细颗粒物(PM2.5)",73,95,84,53,46,27,,54,52,51,36,8,10,1.1,0.8
2024-11-08T2000,2291A,117.0809,30.5177,安庆市,环科院,颗粒物(PM10),52,53,51,33,33,91,,110,110,25,25,11,12,0.6,0.6
2024-11-08T2000,2292A,117.0331,30.5119,安庆市,马山宾馆,,38,37,48,26,29,99,,117,117,27,29,8,10,0.5,0.4
2024-11-08T2000,2294A,116.9896,30.6145,安庆市,安庆大学,颗粒物(PM10),51,51,53,28,32,103,,110,110,16,18,10,9,0.5,0.5
2024-11-08T2000,3173A,117.0598,30.5351,安庆市,市人大,,43,40,51,30,29,89,,108,108,25,32,12,13,0.4,0.4
2024-11-08T2000,3122A,105.9606,26.2611,安顺市,伍家关,细颗粒物(PM2.5),60,53,58,43,47,68,,99,93,19,15,12,17,0.9,0.8
2024-11-08T2000,3123A,105.9408,26.2431,安顺市,凤凰山,细颗粒物(PM2.5),60,53,59,43,45,88,,109,106,17,16,12,18,0.6,0.6
2024-11-08T2000,3124A,105.9439,26.2564,安顺市,金钟山,细颗粒物(PM2.5),57,51,62,40,50,84,,112,108,14,13,13,19,0.7,0.7
2024-11-08T2000,3125A,105.8983,26.2481,安顺市,娄家坡,,,,61,,49,,,88,,,15,,20,,0.6
2024-11-08T2000,1818A,114.4839,36.0621,安阳市,棉研所,细颗粒物(PM2.5),73,77,78,53,57,70,,100,97,39,36,8,8,0.3,0.3
2024-11-08T2000,1819A,114.3551,36.1017,安阳市,红庙街,细颗粒物(PM2.5),63,62,65,45,46,80,,95,94,26,25,3,3,0.5,0.4
2024-11-08T2000,1820A,114.361,36.0681,安阳市,银杏小区,颗粒物(PM10),58,65,70,40,44,86,,99,98,25,28,4,3,0.4,0.6
2024-11-08T2000,3141A,114.3922,36.0878,安阳市,信访局,颗粒物(PM10),62,74,74,42,47,80,,98,97,24,25,3,3,0.5,0.5
2024-11-08T2000,3669A,114.4705,36.0637,安阳市,左辅环卫站,颗粒物(PM10),72,94,90,50,49,67,,97,94,27,26,2,3,0.6,0.6
2024-11-08T2000,3703A,114.2917,36.0949,安阳市,安钢职工学校,细颗粒物(PM2.5),65,68,73,47,51,73,,92,91,29,32,3,4,0.4,0.4
2024-11-08T2000,1748A,123.044,41.1196,鞍山市,深沟寺,细颗粒物(PM2.5),62,71,51,44,30,63,,97,83,18,14,4,5,0.8,0.8
2024-11-08T2000,1749A,123.011,41.0931,鞍山市,太阳城,细颗粒物(PM2.5),63,61,48,45,32,67,,101,90,22,18,5,6,0.6,0.5
2024-11-08T2000,1750A,123.0485,41.1442,鞍山市,太平,细颗粒物(PM2.5),63,66,50,45,32,65,,91,78,25,24,10,11,0.7,0.6
2024-11-08T2000,1751A,122.9642,41.0971,鞍山市,铁西三道街,细颗粒物(PM2.5),69,86,68,50,38,34,,89,67,56,46,144,102,0.6,0.6
2024-11-08T2000,1752A,122.9341,41.0833,鞍山市,铁西工业园区,,,207,77,,43,25,,96,76,66,34,10,12,1.8,1.5
2024-11-08T2000,1753A,123.022,41.0821,鞍山市,明达新区,细颗粒物(PM2.5),57,59,49,40,32,79,,100,90,13,13,7,9,0.6,0.6
2024-11-08T2000,1754A,123.1289,41.0228,鞍山市,千山,,,,37,,28,,,66,,,7,,4,,0.4
2024-11-08T2000,2195A,107.4212,40.761,巴彦淖尔市,附二中,细颗粒物(PM2.5),68,68,130,49,69,62,,80,80,28,39,11,11,0.7,0.9
2024-11-08T2000,2196A,107.37,40.7372,巴彦淖尔市,市环保大楼,颗粒物(PM10),66,81,109,21,58,43,,81,79,46,38,4,6,0.6,0.7
2024-11-08T2000,1956A,86.1472,41.7538,巴音郭楞蒙古自治州,孔雀公园,颗粒物(PM10),62,73,107,27,34,44,,85,69,43,30,4,6,0.5,0.5
2024-11-08T2000,1957A,86.1972,41.7166,巴音郭楞蒙古自治州,棉纺厂,颗粒物(PM10),63,75,116,36,33,52,,78,74,43,25,2,4,0.5,0.4
2024-11-08T2000,1958A,86.2357,41.7173,巴音郭楞蒙古自治州,经济开发区,颗粒物(PM10),55,60,90,25,34,53,,88,82,43,14,3,3,0.6,0.5
2024-11-08T2000,2914A,106.7677,31.8794,巴中市,苏山坪,细颗粒物(PM2.5),74,69,47,54,35,65,,60,44,9,12,6,5,0.5,0.5
2024-11-08T2000,3182A,106.7656,31.8545,巴中市,丽阳花园,细颗粒物(PM2.5),89,91,57,66,53,4,,7,6,46,33,4,4,1.0,0.8
2024-11-08T2000,3183A,106.7418,31.8654,巴中市,圣泉水务公司,细颗粒物(PM2.5),72,66,45,52,34,10,,15,15,42,28,5,4,0.7,0.6
2024-11-08T2000,3616A,106.7616,31.8344,巴中市,市中心医院,细颗粒物(PM2.5),83,89,68,61,47,3,,5,4,45,28,4,4,1.2,0.9
2024-11-08T2000,2235A,122.7911,45.6077,白城市,洮北区环保局,细颗粒物(PM2.5),237,193,129,187,121,22,,66,52,81,39,9,8,0.9,0.6
2024-11-08T2000,2236A,122.8738,45.5725,白城市,市环保局,细颗粒物(PM2.5),173,156,138,131,121,52,,64,56,45,38,3,5,0.8,0.8
2024-11-08T2000,2231A,126.4219,41.9171,白山市,喜丰,颗粒物(PM10),86,122,82,41,26,7,,35,28,69,44,24,32,0.8,0.7
2024-11-08T2000,2232A,126.4077,41.9419,白山市,环保局,颗粒物(PM10),95,139,74,54,28,12,,29,21,51,42,10,13,1.1,0.8
2024-11-08T2000,2647A,104.1724,36.5446,白银市,第三小学,细颗粒物(PM2.5),74,88,61,54,46,6,,62,58,80,39,16,35,2.3,1.2
2024-11-08T2000,2648A,104.1465,36.5482,白银市,动力公司,颗粒物(PM10),65,80,59,40,41,3,,75,69,74,27,10,19,1.1,1.2
2024-11-08T2000,2512A,106.6103,23.9011,百色市,市监测站,,44,44,46,25,32,64,,106,103,18,16,5,5,0.6,0.7
2024-11-08T2000,2513A,106.6538,23.8859,百色市,市中心血站,颗粒物(PM10),76,102,69,35,41,35,,111,106,66,29,24,8,1.0,0.8
2024-11-08T2000,3406A,106.6085,23.8798,百色市,祈福高中,颗粒物(PM10),67,84,62,30,32,34,,102,97,47,25,4,4,0.7,0.7
2024-11-08T2000,2270A,117.396,32.939,蚌埠市,工人疗养院,颗粒物(PM10),54,58,44,26,21,59,,88,84,24,34,4,6,0.3,0.3
2024-11-08T2000,2271A,117.3605,32.9427,蚌埠市,百货大楼,颗粒物(PM10),52,53,43,25,16,55,,84,80,32,34,4,6,0.3,0.3
2024-11-08T2000,2273A,117.4185,32.8911,蚌埠市,蚌埠学院,,41,41,39,15,20,69,,93,88,30,25,6,6,0.2,0.3
2024-11-08T2000,2274A,117.3533,32.9673,蚌埠市,淮上区政府,颗粒物(PM10),64,78,48,44,24,48,,83,77,37,29,6,7,0.3,0.3
2024-11-08T2000,2275A,117.3145,32.8977,蚌埠市,高新区,,44,44,39,20,19,40,,89,80,58,26,11,6,0.3,0.3
2024-11-08T2000,3715A,117.3092,32.9314,蚌埠市,蚌埠田家炳中学,,50,50,39,23,17,63,,90,87,26,22,4,5,0.3,0.3
2024-11-08T2000,1585A,109.8756,40.6532,包头市,市环境监测站,颗粒物(PM10),63,75,89,42,47,11,,64,56,93,64,12,19,1.4,1.7
2024-11-08T2000,1587A,109.9991,40.5842,包头市,包头八中,颗粒物(PM10),69,88,104,49,66,34,,61,58,67,61,28,35,1.3,1.4
2024-11-08T2000,1588A,109.8538,40.6821,包头市,青山宾馆,细颗粒物(PM2.5),70,82,88,51,63,6,,64,56,97,59,15,18,1.3,1.6
2024-11-08T2000,1589A,109.8642,40.6288,包头市,惠龙物流,颗粒物(PM10),67,83,89,35,45,21,,66,61,80,67,43,25,1.4,1.4
2024-11-08T2000,1590A,110.0377,40.5546,包头市,东河鸿龙湾,"颗粒物(PM10),细颗粒物(PM2.5)",70,90,80,51,52,28,,66,60,58,52,14,16,0.9,1
2024-11-08T2000,3283A,109.9154,40.5685,包头市,滨河大厦,颗粒物(PM10),65,79,76,41,44,38,,70,68,57,51,15,18,0.8,0.9
2024-11-08T2000,3419A,109.9447,40.6261,包头市,包头市委党校,颗粒物(PM10),64,78,87,40,45,21,,65,58,80,62,16,22,1.1,1.5
2024-11-08T2000,3683A,109.8331,40.6576,包头市,昆区政府,细颗粒物(PM2.5),67,75,98,48,74,6,,63,57,97,63,14,21,1.5,1.8
2024-11-08T2000,1930A,107.185,34.3063,宝鸡市,庙沟村,细颗粒物(PM2.5),120,126,120,91,89,86,,104,104,36,24,9,10,0.9,0.8
2024-11-08T2000,1931A,107.0708,34.3017,宝鸡市,竹园沟,细颗粒物(PM2.5),162,135,124,123,113,67,,107,107,25,21,7,8,0.9,0.8
2024-11-08T2000,1932A,107.1906,34.3672,宝鸡市,三陆医院,细颗粒物(PM2.5),188,146,144,141,131,70,,110,110,52,43,7,9,1.0,1
2024-11-08T2000,1933A,107.1431,34.3547,宝鸡市,监测站,细颗粒物(PM2.5),199,182,132,149,117,50,,102,101,46,32,7,8,1.0,0.9
2024-11-08T2000,1934A,107.1186,34.3739,宝鸡市,技工学校,细颗粒物(PM2.5),189,142,121,142,118,70,,107,106,57,37,9,10,1.3,1.1
2024-11-08T2000,1935A,107.3906,34.3528,宝鸡市,陈仓区环保局家属楼,细颗粒物(PM2.5),221,,147,171,131,82,,112,112,44,47,9,8,1.0,0.9
2024-11-08T2000,1936A,107.2058,34.3497,宝鸡市,文理学院,细颗粒物(PM2.5),170,149,130,129,118,29,,108,105,73,38,9,11,1.1,0.9
2024-11-08T2000,1937A,107.2386,34.3622,宝鸡市,三迪小学,细颗粒物(PM2.5),186,148,138,140,125,81,,113,113,57,51,8,10,1.1,1
2024-11-08T2000,1051A,115.493,38.8632,保定市,游泳馆,细颗粒物(PM2.5),205,187,151,155,117,24,,67,65,80,80,7,6,0.9,0.7
2024-11-08T2000,1052A,115.5213,38.8959,保定市,华电二区,细颗粒物(PM2.5),169,147,141,128,119,10,,64,62,81,72,8,7,1.4,0.8
2024-11-08T2000,1053A,115.4713,38.9108,保定市,接待中心,细颗粒物(PM2.5),175,161,155,132,115,16,,55,53,82,70,5,6,0.8,0.6
2024-11-08T2000,1054A,115.4612,38.8416,保定市,地表水厂,细颗粒物(PM2.5),214,213,162,164,122,5,,59,53,102,80,6,4,0.8,0.6
2024-11-08T2000,3581A,115.31981,38.95208,保定市,满城区生态环境分局,细颗粒物(PM2.5),208,212,175,158,122,,,64,64,103,82,4,5,1.0,0.8
2024-11-08T2000,3582A,115.47694,38.76408,保定市,清苑区第二中学,细颗粒物(PM2.5),165,184,159,125,107,10,,69,65,91,74,8,6,0.8,0.7
2024-11-08T2000,3583A,115.62909,39.02311,保定市,徐水物探局,细颗粒物(PM2.5),153,169,148,117,110,6,,59,57,80,68,6,8,0.9,0.6
2024-11-08T2000,4004A,115.4202,38.8656,保定市,双鹰农机,细颗粒物(PM2.5),205,196,158,155,115,36,,62,61,61,69,6,6,0.7,0.7
2024-11-08T2000,4034A,115.5150,38.8590,保定市,植保所站,细颗粒物(PM2.5),214,196,157,164,121,10,,59,58,84,70,8,9,1.5,0.7
2024-11-08T2000,2594A,99.1678,25.1081,保山市,市环境监测站,,17,17,14,6,4,26,,58,56,7,8,5,4,0.6,0.6
2024-11-08T2000,2595A,99.1711,25.1328,保山市,市环保局,,23,17,14,16,10,41,,63,60,2,4,5,5,0.5,0.5
2024-11-08T2000,1866A,109.2262,21.588,北海市,牛尾岭水库,,,50,40,32,33,109,,126,126,,5,6,7,0.8,0.6
2024-11-08T2000,1867A,109.1436,21.4086,北海市,海滩公园,臭氧1小时,57,47,49,32,31,165,,165,165,26,14,10,14,0.8,0.8
2024-11-08T2000,1868A,109.0981,21.4661,北海市,新市环保局,细颗粒物(PM2.5),62,56,55,44,40,147,,164,164,31,19,9,13,0.8,0.7
2024-11-08T2000,1869A,109.1778,21.5233,北海市,北海工业园,细颗粒物(PM2.5),53,43,53,37,38,141,,147,147,31,18,11,14,0.7,0.6
2024-11-08T2000,3400A,109.1911,21.4415,北海市,龙潭自来水厂,颗粒物(PM10),53,55,55,36,44,118,,150,149,23,18,9,12,0.7,0.7
2024-11-08T2000,1001A,116.3621,39.8784,北京市,万寿西宫,细颗粒物(PM2.5),144,157,164,110,112,12,,49,47,99,81,3,4,1.2,1.2
2024-11-08T2000,1002A,116.2202,40.2915,北京市,定陵,细颗粒物(PM2.5),186,183,156,140,117,34,,53,51,34,36,3,3,0.8,0.7
2024-11-08T2000,1003A,116.4174,39.9289,北京市,东四,细颗粒物(PM2.5),168,184,171,127,112,19,,48,47,92,80,7,8,1.7,1.3
2024-11-08T2000,1004A,116.4072,39.8863,北京市,天坛,细颗粒物(PM2.5),134,129,140,102,111,8,,41,39,40,54,3,2,0.7,1
2024-11-08T2000,1005A,116.462,39.9365,北京市,农展馆,细颗粒物(PM2.5),134,152,160,102,109,8,,46,44,93,79,3,2,1.0,0.9
2024-11-08T2000,1006A,116.3392,39.9295,北京市,官园,细颗粒物(PM2.5),170,206,167,129,110,0,,43,38,113,80,6,8,1.7,1.3
2024-11-08T2000,1007A,116.2878,39.9611,北京市,海淀万柳,细颗粒物(PM2.5),190,210,162,143,105,7,,34,28,74,56,4,4,1.5,1
2024-11-08T2000,1008A,116.6636,40.135,北京市,顺义新城,细颗粒物(PM2.5),159,172,161,121,111,8,,48,43,94,65,1,3,0.9,0.8
2024-11-08T2000,1009A,116.6275,40.3275,北京市,怀柔镇,细颗粒物(PM2.5),183,181,138,138,104,44,,67,65,54,41,3,3,0.7,0.5
2024-11-08T2000,1010A,116.2296,40.217,北京市,昌平镇,细颗粒物(PM2.5),173,203,165,131,105,44,,62,62,62,60,5,6,0.9,0.7
2024-11-08T2000,1011A,116.3966,39.9821,北京市,奥体中心,细颗粒物(PM2.5),169,202,164,128,107,2,,34,32,121,84,3,4,1.5,1.2
2024-11-08T2000,1012A,116.184,39.9136,北京市,古城,细颗粒物(PM2.5),207,234,187,157,120,8,,32,27,61,46,5,6,1.2,1
2024-11-08T2000,3281A,115.9718,40.4529,北京市,延庆夏都,细颗粒物(PM2.5),182,179,141,137,105,58,,99,96,47,28,1,3,0.7,0.6
2024-11-08T2000,3417A,117.0709,40.1465,北京市,平谷新城,细颗粒物(PM2.5),135,144,140,103,104,48,,64,64,39,33,1,3,0.6,0.7
2024-11-08T2000,3418A,116.8336,40.4095,北京市,密云新城,细颗粒物(PM2.5),150,184,153,115,102,20,,71,61,72,45,3,2,0.9,0.6
2024-11-08T2000,3671A,116.088,39.9726,北京市,门头沟三家店,细颗粒物(PM2.5),189,206,178,142,112,5,,50,41,69,60,6,7,0.9,0.7
2024-11-08T2000,3672A,116.1541,39.8204,北京市,丰台云岗,细颗粒物(PM2.5),198,204,169,148,122,23,,51,49,84,71,5,5,0.7,0.7
2024-11-08T2000,3673A,116.6804,39.9081,北京市,通州东关,细颗粒物(PM2.5),132,157,184,100,121,5,,45,43,94,80,2,4,0.9,0.9
2024-11-08T2000,3674A,115.9577,39.7603,北京市,房山燕山,细颗粒物(PM2.5),200,190,164,150,124,49,,66,66,43,47,3,2,0.7,0.7
2024-11-08T2000,3675A,116.4672,39.7733,北京市,大兴旧宫,细颗粒物(PM2.5),127,,192,96,98,32,,56,56,27,54,3,2,0.5,0.8
2024-11-08T2000,3694A,115.986,40.4563,北京市,延庆石河营,细颗粒物(PM2.5),179,176,134,135,101,63,,101,99,44,30,3,2,0.8,0.6
2024-11-08T2000,3695A,116.6151,40.3053,北京市,怀柔新城,细颗粒物(PM2.5),188,200,151,141,108,50,,60,60,46,39,1,3,0.8,0.7
2024-11-08T2000,3696A,116.2545,39.8768,北京市,丰台小屯,细颗粒物(PM2.5),168,183,172,127,111,2,,46,44,91,73,2,3,1.3,1.1
2024-11-08T2000,3697A,116.84,40.3844,北京市,密云镇,细颗粒物(PM2.5),159,201,160,121,107,0,,62,52,92,53,3,3,1.0,0.7
2024-11-08T2000,1761A,123.8275,41.3064,本溪市,大峪,颗粒物(PM10),54,58,49,36,32,60,,91,85,32,26,11,11,0.8,0.8
2024-11-08T2000,1762A,123.7567,41.3325,本溪市,溪湖,颗粒物(PM10),59,67,74,41,46,78,,84,82,18,29,9,11,0.6,1
2024-11-08T2000,1763A,123.7169,41.3094,本溪市,彩屯,细颗粒物(PM2.5),87,86,76,64,51,53,,69,66,30,34,12,15,1.6,1.5
2024-11-08T2000,1764A,123.7669,41.2864,本溪市,东明,细颗粒物(PM2.5),57,46,46,40,34,89,,89,88,16,29,9,10,0.7,0.9
2024-11-08T2000,1765A,123.7992,41.2664,本溪市,新立屯,,36,36,34,24,19,88,,88,87,19,21,6,7,0.6,0.6
2024-11-08T2000,1766A,123.8142,41.3472,本溪市,威宁,颗粒物(PM10),63,76,68,38,32,45,,77,74,36,29,8,9,0.9,0.9
2024-11-08T2000,2587A,105.2864,27.3125,毕节市,八中,细颗粒物(PM2.5),59,49,65,42,54,47,,59,43,23,20,7,7,0.8,0.7
2024-11-08T2000,2588A,105.31,27.2944,毕节市,师专,细颗粒物(PM2.5),59,48,61,42,52,43,,63,44,26,20,6,7,0.8,0.7
2024-11-08T2000,3537A,105.3631,27.3533,毕节市,长征村,,42,37,56,29,47,72,,70,70,8,13,6,9,0.6,0.7
2024-11-08T2000,1629A,118.0018,37.3617,滨州市,第二水厂,颗粒物(PM10),75,100,98,53,52,70,,103,99,57,63,18,12,0.7,0.7
2024-11-08T2000,1630A,117.9776,37.393,滨州市,北中新校,颗粒物(PM10),81,112,96,58,46,12,,95,72,105,71,8,8,1.1,0.9
2024-11-08T2000,3514A,117.9378,37.3956,滨州市,中海酒店,颗粒物(PM10),75,100,89,53,48,54,,113,104,62,54,10,9,1.0,0.9
2024-11-08T2000,3515A,117.9378,37.3553,滨州市,开发区一中,颗粒物(PM10),76,102,101,53,50,75,,102,99,54,67,17,12,0.9,0.8
2024-11-08T2000,3516A,118.0917,37.694,滨州市,金海六路,颗粒物(PM10),85,120,97,51,49,54,,124,118,56,48,6,10,0.6,0.7
2024-11-08T2000,4028A,117.9956,37.3753,滨州市,滨州市西街道办事处,细颗粒物(PM2.5),104,127,96,78,59,28,,108,98,88,59,14,11,1.2,0.8
2024-11-08T2000,2311A,115.8072,33.8399,亳州市,污水处理厂,颗粒物(PM10),54,58,55,29,32,56,,94,91,30,24,13,8,0.5,0.4
2024-11-08T2000,2312A,115.7789,33.8518,亳州市,三国揽胜宫,颗粒物(PM10),59,67,59,36,33,55,,98,93,38,23,7,4,0.4,0.5
2024-11-08T2000,3332A,115.7633,33.8034,亳州市,亳州学院,颗粒物(PM10),54,58,60,20,24,64,,95,92,29,25,4,4,0.4,0.4
2024-11-08T2000,2693A,82.0485,44.8556,博尔塔拉蒙古自治州,市党校,,20,20,24,8,15,38,,43,38,15,12,4,4,0.3,0.2
2024-11-08T2000,2694A,82.0806,44.8969,博尔塔拉蒙古自治州,市环保局,,39,39,31,12,11,29,,37,32,18,10,6,2,0.3,0.2
2024-11-08T2000,1071A,116.8842,38.2991,沧州市,沧县城建局,颗粒物(PM10),69,88,69,47,40,52,,93,88,50,35,6,6,0.7,0.6
2024-11-08T2000,1072A,116.8584,38.3254,沧州市,电视转播站,颗粒物(PM10),65,79,70,39,39,54,,105,100,46,30,4,5,0.6,0.5
2024-11-08T2000,1073A,116.8709,38.3228,沧州市,市环保局,"颗粒物(PM10),细颗粒物(PM2.5)",65,79,69,47,45,45,,93,88,50,31,4,6,0.7,0.5
2024-11-08T2000,3324A,116.8136,38.3004,沧州市,河北水利电力学院,"颗粒物(PM10),细颗粒物(PM2.5)",57,63,73,40,47,66,,94,92,33,31,4,5,0.4,0.4
2024-11-08T2000,2622A,97.1806,31.1273,昌都市,昌都监测站,,50,38,23,35,13,20,,75,71,66,19,9,8,2.1,0.9
2024-11-08T2000,3719A,97.1714,31.1406,昌都市,昌都会议中心,,,63,11,19,7,,,88,88,27,7,7,6,0.8,0.5
2024-11-08T2000,2690A,88.1236,43.8886,昌吉回族自治州,天山天池,,16,,4,6,3,50,,60,58,4,5,7,8,0.5,0.6
2024-11-08T2000,2692A,87.2717,44.0297,昌吉回族自治州,新区政务中心,,19,,12,13,7,38,,56,54,17,14,6,6,0.2,0.2
2024-11-08T2000,3613A,87.3095,44.0142,昌吉回族自治州,亚心广场,,15,12,10,3,3,48,,56,56,18,15,3,2,0.3,0.3
2024-11-08T2000,1119A,125.3325,43.9166,长春市,食品厂,细颗粒物(PM2.5),155,130,79,118,60,7,,43,34,91,56,17,13,1.4,0.8
2024-11-08T2000,1120A,125.2863,43.9027,长春市,客车厂,细颗粒物(PM2.5),205,180,75,155,67,12,,51,40,99,56,18,20,2.0,0.8
2024-11-08T2000,1121A,125.2841,43.8463,长春市,邮电学院,细颗粒物(PM2.5),160,122,70,122,59,9,,59,47,99,51,10,13,1.2,0.7
2024-11-08T2000,1122A,125.3716,43.8772,长春市,劳动公园,细颗粒物(PM2.5),175,,74,132,57,13,,65,57,91,47,9,12,1.8,0.9
2024-11-08T2000,1123A,125.3297,43.8805,长春市,园林处,细颗粒物(PM2.5),145,148,74,111,57,22,,60,54,76,44,10,11,1.2,0.8
2024-11-08T2000,1124A,125.4605,43.79,长春市,净月潭,细颗粒物(PM2.5),107,,52,80,47,67,,83,83,17,13,8,9,0.7,0.6
2024-11-08T2000,1125A,125.7194,43.515,长春市,甩湾子,,,,,,,,,,,,,,,,
2024-11-08T2000,1126A,125.3863,43.8447,长春市,经开区环卫处,细颗粒物(PM2.5),132,164,72,100,51,4,,58,49,99,48,12,12,1.4,0.7
2024-11-08T2000,1127A,125.245,43.7783,长春市,高新区管委会,细颗粒物(PM2.5),260,,68,210,66,27,,66,52,82,38,9,10,1.7,0.6
2024-11-08T2000,1128A,125.1761,43.8325,长春市,岱山公园,细颗粒物(PM2.5),159,174,73,121,65,10,,63,49,90,46,9,10,1.0,0.7
2024-11-08T2000,1335A,113.0833,28.2325,长沙市,经开区环保局,细颗粒物(PM2.5),84,97,73,62,39,106,,121,121,44,43,4,4,0.6,0.5
2024-11-08T2000,1336A,112.8872,28.2189,长沙市,高开区环保局,细颗粒物(PM2.5),97,93,78,72,48,121,,129,129,29,46,9,7,0.5,0.6
2024-11-08T2000,1337A,113.0792,28.2053,长沙市,马坡岭,细颗粒物(PM2.5),92,91,70,68,44,98,,122,121,45,48,7,7,0.7,0.6
2024-11-08T2000,1338A,112.9394,28.19,长沙市,湖南师范大学,细颗粒物(PM2.5),72,85,70,52,36,111,,126,126,35,32,8,7,0.6,0.5
2024-11-08T2000,1339A,113.0178,28.1322,长沙市,雨花区环保局,颗粒物(PM10),61,72,62,37,29,99,,129,127,45,38,8,8,0.6,0.5
2024-11-08T2000,1340A,112.9792,28.2597,长沙市,伍家岭,细颗粒物(PM2.5),92,96,90,68,50,110,,124,124,38,50,5,5,0.8,0.8
2024-11-08T2000,1341A,113.0014,28.1944,长沙市,火车新站,细颗粒物(PM2.5),77,86,71,56,39,114,,122,122,36,41,6,5,0.6,0.5
2024-11-08T2000,1342A,112.9844,28.1178,长沙市,天心区环保局,细颗粒物(PM2.5),64,74,65,46,34,106,,126,125,50,51,8,7,0.7,0.5
2024-11-08T2000,1343A,112.8908,28.1308,长沙市,湖南中医药大学,细颗粒物(PM2.5),73,79,83,53,57,98,,134,134,51,58,12,9,0.8,0.8
2024-11-08T2000,1344A,112.9581,28.3611,长沙市,沙坪,细颗粒物(PM2.5),80,65,50,59,39,128,,127,127,18,17,11,9,0.4,0.3
2024-11-08T2000,1727A,113.1147,36.1547,长治市,清华站,细颗粒物(PM2.5),98,95,94,73,75,66,,50,50,33,45,11,11,1.0,0.8
2024-11-08T2000,1728A,113.1031,36.1989,长治市,监测站,细颗粒物(PM2.5),92,92,87,68,76,42,,49,49,45,40,14,17,1.4,1.2
2024-11-08T2000,1730A,113.0886,36.2125,长治市,审计局,细颗粒物(PM2.5),100,87,87,75,79,61,,63,63,37,35,10,13,1.2,1
2024-11-08T2000,1731A,113.0844,36.1856,长治市,长治八中,细颗粒物(PM2.5),118,102,108,89,64,59,,52,52,39,45,10,10,1.3,1
2024-11-08T2000,2845A,113.1569,36.1911,长治市,德盛苑,细颗粒物(PM2.5),79,75,100,58,80,76,,75,59,27,35,7,16,1.2,1.2
2024-11-08T2000,3568A,113.06,36.0464,长治市,向阳小学,颗粒物(PM10),56,62,98,33,68,138,,109,109,20,37,9,11,0.4,0.7
2024-11-08T2000,3569A,112.8792,36.3144,长治市,屯留一中,细颗粒物(PM2.5),112,95,79,84,65,59,,95,95,40,34,8,9,1.0,0.8
2024-11-08T2000,3570A,113.235,36.3489,长治市,潞城四中,细颗粒物(PM2.5),98,98,118,73,79,52,,77,77,48,59,9,12,1.0,1.3
2024-11-08T2000,1854A,111.6975,28.9703,常德市,市二中,细颗粒物(PM2.5),105,131,97,79,58,102,,130,126,28,38,8,9,0.8,0.7
2024-11-08T2000,1857A,111.7158,29.1456,常德市,白鹤山,,,,,,,,,,,,,,,,
2024-11-08T2000,3138A,111.7153,29.0289,常德市,武陵区永安,细颗粒物(PM2.5),93,107,83,69,52,116,,138,137,24,39,8,7,0.9,0.9
2024-11-08T2000,3139A,111.6892,28.9881,常德市,鼎城区玉霞,细颗粒物(PM2.5),97,123,100,72,57,113,,131,131,22,39,9,9,0.9,0.8
2024-11-08T2000,3140A,111.6625,29.0531,常德市,武陵区长庚,细颗粒物(PM2.5),89,107,89,66,54,115,,141,139,24,35,8,6,0.8,0.8
2024-11-08T2000,1196A,119.9633,31.762,常州市,市监测站,颗粒物(PM10),65,80,44,28,20,30,,88,77,64,45,9,10,0.7,0.6
2024-11-08T2000,1200A,119.9468,31.7069,常州市,武进监测站,,44,44,35,26,19,46,,87,79,44,32,7,8,0.7,0.7
2024-11-08T2000,1201A,119.9255,31.9087,常州市,安家,颗粒物(PM10),56,61,38,22,19,7,,87,60,86,41,8,8,0.7,0.4
2024-11-08T2000,3002A,119.9805,31.8174,常州市,行政中心,,40,40,36,18,17,43,,76,66,45,42,9,11,0.5,0.6
2024-11-08T2000,3003A,120.0522,31.7748,常州市,经开区,颗粒物(PM10),53,56,47,33,22,19,,87,72,76,64,9,10,0.6,0.6
2024-11-08T2000,3010A,119.9025,31.7964,常州市,钟楼,,49,49,42,25,19,42,,80,71,53,42,8,9,0.6,0.6
2024-11-08T2000,3429A,119.8598,31.7066,常州市,武进经发区,,49,49,42,22,20,36,,87,72,56,44,9,10,0.8,0.7
2024-11-08T2000,3430A,119.5826,31.7245,常州市,金坛城区,颗粒物(PM10),55,60,44,30,21,37,,88,79,60,39,8,8,0.7,0.5
2024-11-08T2000,2220A,120.4318,41.5881,朝阳市,西梁,细颗粒物(PM2.5),277,315,175,227,127,10,,39,36,102,60,21,22,2.7,1.7
2024-11-08T2000,2221A,120.4521,41.5646,朝阳市,河畔小区,细颗粒物(PM2.5),202,197,114,152,98,8,,52,46,107,60,14,16,2.7,1.7
2024-11-08T2000,2222A,120.4176,41.5648,朝阳市,八里堡,细颗粒物(PM2.5),148,198,141,113,105,13,,33,32,90,63,13,18,1.8,1.9
2024-11-08T2000,2223A,120.3806,41.5969,朝阳市,农业园区,细颗粒物(PM2.5),172,,122,130,122,8,,41,38,103,66,16,17,1.5,1.5
2024-11-08T2000,1705A,116.6367,23.6719,潮州市,西园路,颗粒物(PM10),59,67,29,30,19,93,,88,88,19,11,8,5,0.3,0.2
2024-11-08T2000,3026A,116.6183,23.6608,潮州市,市政府,颗粒物(PM10),58,66,35,34,18,84,,87,87,28,15,13,8,0.7,0.5
2024-11-08T2000,4036A,116.6461,23.6761,潮州市,金山,颗粒物(PM10),53,55,29,29,17,98,,90,90,17,11,12,9,0.6,0.6
2024-11-08T2000,2472A,113.0073,25.9061,郴州市,马头岭,颗粒物(PM10),61,71,55,22,26,66,,122,117,39,24,16,24,0.7,0.7
2024-11-08T2000,2473A,113.0116,25.8226,郴州市,市职中,细颗粒物(PM2.5),67,79,51,48,38,37,,130,114,47,19,9,19,0.9,0.8
2024-11-08T2000,2474A,113.0161,25.8001,郴州市,兴隆步行街,颗粒物(PM10),57,64,59,36,37,74,,128,123,38,25,10,19,0.7,0.7
2024-11-08T2000,2475A,113.0383,25.8071,郴州市,市审计局,细颗粒物(PM2.5),58,54,51,41,38,80,,132,127,27,24,14,21,0.7,0.6
2024-11-08T2000,2476A,113.0348,25.7759,郴州市,市环保局,颗粒物(PM10),66,82,63,36,38,78,,121,117,26,29,17,19,0.7,0.7
2024-11-08T2000,1431A,103.9728,30.7236,成都市,金泉两河,细颗粒物(PM2.5),104,98,85,78,64,26,,19,19,36,38,2,3,0.6,0.6
2024-11-08T2000,1432A,104.176,30.6872,成都市,十里店,细颗粒物(PM2.5),132,110,82,100,65,9,,12,12,58,45,2,2,0.8,0.7
2024-11-08T2000,1433A,104.079,30.5706,成都市,三瓦窑,细颗粒物(PM2.5),105,92,82,79,69,18,,18,18,45,41,2,2,0.7,0.6
2024-11-08T2000,1434A,104.1114,30.63,成都市,沙河铺,细颗粒物(PM2.5),130,117,82,99,63,15,,10,10,50,35,2,4,0.8,0.7
2024-11-08T2000,1437A,104.0786,30.6531,成都市,君平街,,,101,79,72,57,20,,19,19,52,41,3,5,,0.8
2024-11-08T2000,1438A,103.613,31.0283,成都市,灵岩寺,,,,,,,,,,,,,,,,
2024-11-08T2000,2880A,104.0239,30.65639,成都市,大石西路,细颗粒物(PM2.5),98,93,82,73,59,15,,12,12,45,39,2,3,0.8,0.8
2024-11-08T2000,3136A,104.2725,30.5589,成都市,龙泉驿区区政府,细颗粒物(PM2.5),64,53,49,46,41,56,,52,52,12,18,2,2,0.6,0.5
2024-11-08T2000,3357A,104.0106,30.6931,成都市,金博路,细颗粒物(PM2.5),102,86,90,76,61,25,,14,14,33,40,3,2,0.6,0.7
2024-11-08T2000,3359A,104.0578,30.5225,成都市,华阳,细颗粒物(PM2.5),83,85,67,61,49,1,,35,29,54,22,1,2,1.0,0.7
2024-11-08T2000,3487A,104.2394,30.5319,成都市,车城东七路,细颗粒物(PM2.5),62,64,64,44,48,44,,46,46,20,21,2,2,0.6,0.6
2024-11-08T2000,3488A,104.3853,30.7453,成都市,青白江技师分院,细颗粒物(PM2.5),80,87,77,59,55,17,,46,43,38,21,3,2,0.7,0.7
2024-11-08T2000,3489A,104.0789,30.4072,成都市,科学城,细颗粒物(PM2.5),69,57,61,50,53,45,,56,56,17,20,3,4,0.6,0.6
2024-11-08T2000,4011A,103.8506,30.6947,成都市,光华大道三段,,,99,84,70,64,,,15,15,55,35,4,4,0.8,0.7
2024-11-08T2000,1062A,117.9531,40.9081,承德市,铁路,细颗粒物(PM2.5),124,154,120,94,74,7,,33,32,73,60,4,5,1.1,0.9
2024-11-08T2000,1063A,117.9392,40.9763,承德市,中国银行,细颗粒物(PM2.5),152,167,112,116,69,21,,52,50,58,46,2,2,1.1,0.9
2024-11-08T2000,1064A,117.9503,40.928,承德市,开发区,细颗粒物(PM2.5),110,151,121,83,69,5,,44,39,83,60,4,4,0.9,0.9
2024-11-08T2000,1065A,117.8051,40.9655,承德市,文化中心,细颗粒物(PM2.5),134,172,151,102,83,4,,40,38,76,56,5,6,1.1,1.2
2024-11-08T2000,1066A,117.9268,41.0026,承德市,离宫,细颗粒物(PM2.5),130,129,113,99,81,49,,62,62,34,42,2,3,0.7,0.7
2024-11-08T2000,2314A,117.47,30.6618,池州市,池州学院,颗粒物(PM10),51,52,45,26,24,70,,98,96,36,27,7,7,0.5,0.5
2024-11-08T2000,3237A,117.4918,30.6617,池州市,展览馆,颗粒物(PM10),55,59,47,28,26,65,,95,91,31,26,6,6,0.4,0.5
2024-11-08T2000,3333A,117.5627,30.695,池州市,第八中学,颗粒物(PM10),51,52,47,26,26,57,,95,92,42,26,5,6,0.5,0.6
2024-11-08T2000,3334A,117.5038,30.6243,池州市,第十二中学,,50,50,45,30,26,86,,106,106,20,22,4,4,0.4,0.5
2024-11-08T2000,1744A,118.9233,42.2816,赤峰市,松山一中,细颗粒物(PM2.5),150,209,153,115,79,6,,23,20,78,65,88,62,2.3,1.8
2024-11-08T2000,1745A,118.9576,42.2728,赤峰市,哈达街,细颗粒物(PM2.5),152,219,157,116,89,7,,17,15,58,54,65,104,2.5,1.6
2024-11-08T2000,1746A,118.8788,42.2554,赤峰市,天义路,细颗粒物(PM2.5),155,187,124,118,79,6,,25,24,90,62,52,30,2.0,1.2
2024-11-08T2000,3058A,119.2658,42.0353,赤峰市,银河街,细颗粒物(PM2.5),198,244,139,148,105,10,,52,46,63,44,21,23,2.1,1.4
2024-11-08T2000,3286A,118.9359,42.3147,赤峰市,桥北物流园区,细颗粒物(PM2.5),168,179,124,127,92,12,,38,34,74,56,25,39,1.6,1.5
2024-11-08T2000,2521A,107.3476,22.4136,崇左市,市环保局江州分局,颗粒物(PM10),63,76,68,33,37,97,,140,136,27,18,5,5,0.7,0.7
2024-11-08T2000,2522A,107.3702,22.3707,崇左市,城南新区,,50,50,50,31,33,86,,146,137,31,19,6,7,0.6,0.5
2024-11-08T2000,2298A,118.3093,32.3153,滁州市,老年大学,,50,50,43,21,21,63,,88,85,31,33,2,3,0.3,0.3
2024-11-08T2000,2299A,118.3244,32.2786,滁州市,人大宾馆,,50,50,46,19,22,60,,91,85,40,41,6,8,0.3,0.4
2024-11-08T2000,3207A,118.3118,32.3038,滁州市,市政府原办公楼,,43,43,40,23,25,52,,88,83,44,38,5,7,0.5,0.5
2024-11-08T2000,3331A,118.3267,32.2634,滁州市,图书馆,,42,42,48,16,21,69,,93,90,26,32,4,6,0.3,0.4
2024-11-08T2000,2605A,101.5482,25.0441,楚雄彝族自治州,州环境监测站,,15,14,7,10,7,28,,57,50,29,14,18,8,0.8,0.8
2024-11-08T2000,2606A,101.538,25.0492,楚雄彝族自治州,市经济开发区,,20,20,8,10,6,30,,56,50,30,16,20,9,0.9,0.7
2024-11-08T2000,2548A,107.5277,31.2827,达州市,达州职业技术学院,细颗粒物(PM2.5),87,93,61,64,42,4,,16,15,42,36,5,6,0.9,0.7
2024-11-08T2000,2549A,107.5086,31.2186,达州市,市环境监测站,颗粒物(PM10),65,80,63,34,31,5,,11,11,56,44,6,6,0.7,0.6
2024-11-08T2000,2550A,107.4988,31.2132,达州市,凤凰小区,细颗粒物(PM2.5),64,75,59,46,36,7,,17,16,60,44,8,8,0.9,0.7
2024-11-08T2000,2551A,107.5082,31.1986,达州市,达县机关宾馆,细颗粒物(PM2.5),68,80,58,49,41,3,,19,16,55,43,6,7,0.9,0.7
2024-11-08T2000,2552A,107.4644,31.2124,达州市,市政中心,颗粒物(PM10),71,91,65,48,36,4,,16,15,70,48,7,7,1.2,0.8
2024-11-08T2000,2614A,100.1542,25.7054,大理白族自治州,大理市环境监测站,,30,21,12,21,14,33,,66,57,16,7,7,7,0.7,0.6
2024-11-08T2000,2615A,100.2171,25.5811,大理白族自治州,大理古城,,26,26,13,16,7,25,,52,44,22,10,7,6,0.7,0.5
2024-11-08T2000,1109A,121.612,38.9741,大连市,甘井子,,43,43,39,28,18,88,,103,101,39,30,10,11,0.5,0.4
2024-11-08T2000,1110A,121.565,38.9511,大连市,周水子,颗粒物(PM10),56,62,48,37,24,38,,94,84,80,29,9,8,0.8,0.7
2024-11-08T2000,1111A,121.5637,38.8845,大连市,星海三站,,37,36,37,19,18,118,,114,114,14,14,8,10,0.5,0.5
2024-11-08T2000,1112A,121.6302,38.9117,大连市,青泥洼桥,颗粒物(PM10),52,53,32,28,17,79,,104,101,40,13,11,9,0.7,0.5
2024-11-08T2000,1113A,121.6251,38.8638,大连市,傅家庄,,38,32,32,14,14,121,,117,117,14,14,10,10,0.4,0.4
2024-11-08T2000,1114A,121.5213,38.8661,大连市,七贤岭,颗粒物(PM10),51,51,37,24,17,84,,105,103,26,16,8,9,0.6,0.5
2024-11-08T2000,1115A,121.2529,38.8061,大连市,旅顺,,39,29,34,21,20,124,,116,116,19,21,8,9,0.6,0.6
2024-11-08T2000,1116A,121.7485,39.1311,大连市,金州,,31,30,38,21,28,98,,106,105,20,21,7,8,0.6,0.6
2024-11-08T2000,1117A,121.7811,39.0496,大连市,开发区,,36,36,39,23,19,101,,107,107,20,14,5,5,0.3,0.3
2024-11-08T2000,1118A,121.9762,39.0631,大连市,双D港,,,26,28,15,15,122,,121,121,15,16,9,9,,0.6
2024-11-08T2000,1789A,124.81117,46.03138,大庆市,大同区,细颗粒物(PM2.5),410,412,224,365,196,23,,47,44,99,54,19,11,1.2,0.5
2024-11-08T2000,1790A,125.129,46.533,大庆市,龙凤区,细颗粒物(PM2.5),406,408,135,359,110,61,,54,54,98,36,18,9,2.0,0.8
2024-11-08T2000,1791A,124.902,46.408,大庆市,红岗区,细颗粒物(PM2.5),150,155,135,115,91,20,,58,54,57,37,17,20,0.9,0.7
2024-11-08T2000,1792A,125.153,46.586,大庆市,萨尔图区,细颗粒物(PM2.5),411,400,142,366,118,62,,60,60,92,39,18,11,1.4,0.6
2024-11-08T2000,1793A,124.9042,46.6215,大庆市,让胡路区,细颗粒物(PM2.5),330,,126,280,98,31,,45,40,90,44,18,10,1.2,0.7
2024-11-08T2000,3481A,125.141,46.634,大庆市,萨区政府监测点,细颗粒物(PM2.5),419,384,128,378,115,29,,48,46,81,37,18,9,1.4,0.7
2024-11-08T2000,1721A,113.3819,40.1097,大同市,果树场,细颗粒物(PM2.5),173,199,117,131,72,22,,57,56,56,49,10,11,1.9,1.2
2024-11-08T2000,1723A,113.2994,40.0758,大同市,云冈宾馆,细颗粒物(PM2.5),120,133,131,91,75,43,,72,72,67,59,11,15,1.3,1.5
2024-11-08T2000,1724A,113.3444,40.0917,大同市,大同大学,细颗粒物(PM2.5),108,127,102,81,60,38,,73,72,67,56,11,16,1.0,1.2
2024-11-08T2000,1725A,113.2661,40.1269,大同市,安家小村,细颗粒物(PM2.5),107,126,128,80,71,64,,82,82,46,53,20,24,0.8,2.3
2024-11-08T2000,1726A,113.2711,40.0844,大同市,教育学院,细颗粒物(PM2.5),114,147,149,86,78,44,,68,68,71,76,11,18,1.1,1.7
2024-11-08T2000,3282A,113.3397,40.0597,大同市,大同市卫生学校,细颗粒物(PM2.5),118,153,122,89,66,44,,75,75,61,60,11,15,0.7,0.9
2024-11-08T2000,3565A,113.1367,40.1122,大同市,云冈站,细颗粒物(PM2.5),118,143,145,89,80,55,,85,85,54,50,14,18,0.9,0.9
2024-11-08T2000,3566A,113.1186,40.2556,大同市,图书馆,细颗粒物(PM2.5),125,171,121,95,74,19,,75,72,64,34,28,25,0.9,0.9
2024-11-08T2000,3567A,113.5931,40.0461,大同市,区一中,颗粒物(PM10),102,154,101,51,40,64,,86,81,46,38,21,23,1.3,1
2024-11-08T2000,3676A,113.2802,40.0995,大同市,第二人民医院,细颗粒物(PM2.5),102,134,143,76,70,58,,81,81,54,62,14,20,1.0,1.9
2024-11-08T2000,2269A,124.1069,50.4097,大兴安岭地区,科技局,,38,38,33,23,24,45,,49,49,11,8,4,5,0.3,0.4
2024-11-08T2000,3663A,124.1164,50.4278,大兴安岭地区,红旗社区,,48,48,42,33,27,35,,44,44,23,19,18,6,0.5,0.5
2024-11-08T2000,1600A,124.3303,40.0625,丹东市,江湾东路,细颗粒物(PM2.5),110,118,91,83,52,15,,63,53,69,39,14,18,1.6,1.3
2024-11-08T2000,1601A,124.4256,40.1503,丹东市,临江后街,颗粒物(PM10),100,149,77,69,42,18,,51,47,64,42,27,19,1.6,1
2024-11-08T2000,1602A,124.3933,40.1461,丹东市,元宝山,细颗粒物(PM2.5),100,147,73,75,40,30,,65,56,57,38,14,12,2.1,1.1
2024-11-08T2000,1603A,124.3633,40.1092,丹东市,民主桥,细颗粒物(PM2.5),88,98,59,65,32,20,,69,64,62,36,10,12,1.5,0.8
2024-11-08T2000,3541A,109.5726,19.5167,儋州市,第一中学子站,,49,49,44,25,26,154,,166,165,11,10,7,7,0.4,0.5
2024-11-08T2000,3542A,109.5567,19.5187,儋州市,东坡学校子站,臭氧1小时,53,52,48,27,27,162,,178,177,11,11,9,8,0.6,0.6
2024-11-08T2000,2616A,98.5842,24.428,德宏傣族景颇族自治州,德宏州监测站,,49,49,26,23,15,17,,39,39,36,23,8,16,1.1,0.7
2024-11-08T2000,3677A,98.5881,24.4368,德宏傣族景颇族自治州,芒市人民政府综合楼,,35,33,25,24,17,18,,42,38,18,20,5,10,0.9,0.8
2024-11-08T2000,1901A,104.4239,31.1208,德阳市,东山公园,颗粒物(PM10),62,73,82,38,44,42,,48,48,23,16,2,1,0.7,0.7
2024-11-08T2000,1902A,104.3826,31.1317,德阳市,西小区,细颗粒物(PM2.5),63,66,72,45,53,23,,41,41,40,28,2,2,0.9,0.8
2024-11-08T2000,1904A,104.3553,31.1091,德阳市,耐火材料厂,细颗粒物(PM2.5),64,63,76,46,52,39,,37,37,27,29,3,3,0.7,0.7
2024-11-08T2000,3639A,104.4019,31.1244,德阳市,市教育局,细颗粒物(PM2.5),58,59,67,41,47,35,,43,43,34,25,2,2,0.8,0.7
2024-11-08T2000,1622A,116.3032,37.4674,德州市,儿童乐园,颗粒物(PM10),65,80,69,36,36,60,,94,88,48,29,10,13,0.6,0.6
2024-11-08T2000,1624A,116.2991,37.4451,德州市,监理站,颗粒物(PM10),60,70,62,36,34,66,,99,95,42,28,11,13,0.6,0.6
2024-11-08T2000,3066A,116.2721,37.4379,德州市,九衢泉纯净水厂,颗粒物(PM10),70,90,73,34,33,56,,95,88,48,34,10,12,0.6,0.6
2024-11-08T2000,3371A,116.3728,37.4403,德州市,开发区人民医院,,,68,65,29,32,,,93,93,46,39,10,11,0.6,0.6
2024-11-08T2000,3372A,116.3572,37.4094,德州市,太阳城中学,颗粒物(PM10),71,92,72,48,36,26,,102,87,82,38,9,9,0.6,0.6
2024-11-08T2000,3511A,116.5652,37.3319,德州市,陵城艺术中心,颗粒物(PM10),78,105,62,53,32,28,,95,80,69,30,10,11,0.7,0.6
2024-11-08T2000,2621A,99.7056,27.8317,迪庆藏族自治州,迪庆州站,,38,38,19,22,14,44,,73,70,31,15,7,7,1.1,0.6
2024-11-08T2000,3180A,99.7136,27.8094,迪庆藏族自治州,质量技术监督局,,42,42,19,25,11,33,,64,62,32,16,7,7,1.0,0.7
2024-11-08T2000,2663A,104.6241,35.5734,定西市,东关小学,,38,38,42,17,22,50,,60,60,9,10,3,2,0.3,0.3
2024-11-08T2000,2664A,104.6194,35.5934,定西市,供电公司,,38,33,35,26,23,53,,62,62,8,9,7,6,0.3,0.3
2024-11-08T2000,1389A,113.7547,23.0494,东莞市,莞城梨川,颗粒物(PM10),58,66,40,32,22,74,,125,113,46,23,10,9,0.7,0.6
2024-11-08T2000,1390A,113.7944,23.0128,东莞市,东城石井,,35,35,34,20,18,79,,130,122,21,19,9,11,0.7,0.6
2024-11-08T2000,1391A,113.7383,22.9658,东莞市,南城西平,,50,50,40,24,19,50,,131,119,66,42,8,9,0.7,0.6
2024-11-08T2000,3319A,113.7338,23.0381,东莞市,万江金泰,颗粒物(PM10),54,57,36,32,19,81,,121,111,34,18,10,9,0.7,0.6
2024-11-08T2000,3626A,113.7533,23.0202,东莞市,南城元岭,颗粒物(PM10),53,55,37,28,18,83,,119,112,27,15,10,10,0.6,0.6
2024-11-08T2000,3627A,113.7875,23.0457,东莞市,东城主山,颗粒物(PM10),54,57,39,32,20,90,,131,125,30,23,8,11,0.6,0.6
2024-11-08T2000,1666A,118.6614,37.4309,东营市,市环保局,颗粒物(PM10),57,63,71,27,35,76,,98,97,37,41,5,8,0.5,0.7
2024-11-08T2000,3036A,118.6904,37.4338,东营市,开发区管委会,颗粒物(PM10),57,63,76,29,38,88,,102,101,27,31,10,12,0.4,0.6
2024-11-08T2000,3365A,118.5719,37.565,东营市,垦利区民丰路,颗粒物(PM10),56,61,66,27,34,44,,92,84,62,42,9,10,0.6,0.5
2024-11-08T2000,3498A,118.5055,37.8612,东营市,河口城区,颗粒物(PM10),62,73,90,34,45,82,,115,112,24,35,3,8,0.7,0.7
2024-11-08T2000,3646A,118.4978,37.4623,东营市,胜利站,,50,50,77,22,34,72,,89,84,41,46,6,8,0.6,0.6
2024-11-08T2000,3734A,118.35,37.26,东营市,理想之城,颗粒物(PM10),58,66,70,29,37,69,,96,92,43,46,8,6,0.8,0.6
2024-11-08T2000,1591A,110.0023,39.8129,鄂尔多斯市,综合楼,颗粒物(PM10),65,80,75,31,37,77,,102,101,34,30,8,10,0.7,0.8
2024-11-08T2000,1592A,109.9486,39.8261,鄂尔多斯市,巴音孟克林场办事处,颗粒物(PM10),62,73,72,34,37,79,,93,93,32,32,8,11,0.7,0.8
2024-11-08T2000,1593A,109.7736,39.5986,鄂尔多斯市,康泽苑,,46,46,60,24,35,91,,102,102,19,36,10,8,0.5,0.7
2024-11-08T2000,1594A,109.8119,39.5989,鄂尔多斯市,华泰汽车城,,41,41,60,27,34,88,,101,101,17,39,7,7,0.5,0.7
2024-11-08T2000,1595A,109.9734,39.7884,鄂尔多斯市,奥林花园,颗粒物(PM10),63,75,78,31,37,59,,84,83,39,35,7,8,0.9,1
2024-11-08T2000,2436A,114.8938,30.3994,鄂州市,市政府,细颗粒物(PM2.5),83,84,60,61,37,69,,104,98,48,37,11,10,1.1,0.9
2024-11-08T2000,2437A,114.8989,30.3714,鄂州市,赵家坝,细颗粒物(PM2.5),80,80,59,59,38,68,,98,90,50,38,12,11,1.0,0.7
2024-11-08T2000,3654A,114.8094,30.4089,鄂州市,精准医疗中心,细颗粒物(PM2.5),74,89,65,54,39,81,,100,96,43,40,16,24,0.8,1.9
2024-11-08T2000,2454A,109.4978,30.2981,恩施土家族苗族自治州,湖北民院,细颗粒物(PM2.5),75,68,61,55,47,6,,29,26,45,26,7,6,0.7,0.5
2024-11-08T2000,2455A,109.4707,30.2798,恩施土家族苗族自治州,州电力总公司,细颗粒物(PM2.5),70,70,66,51,49,17,,27,26,48,39,7,7,0.7,0.7
2024-11-08T2000,3549A,109.5061,30.3772,恩施土家族苗族自治州,龙凤新区,细颗粒物(PM2.5),62,66,63,44,45,23,,32,32,36,25,6,6,0.9,0.8
2024-11-08T2000,2499A,108.3411,21.6158,防城港市,沙万,,45,44,55,31,33,115,,139,137,21,18,5,7,0.5,0.5
2024-11-08T2000,2500A,108.3514,21.7731,防城港市,防城档案局,颗粒物(PM10),77,104,88,46,38,42,,131,115,48,31,6,7,0.8,0.5
2024-11-08T2000,2501A,108.3506,21.6414,防城港市,大海花园,,46,46,54,32,34,129,,144,144,15,15,5,7,0.6,0.6
2024-11-08T2000,1371A,113.1294,23.0067,佛山市,湾梁,颗粒物(PM10),53,56,46,25,19,106,,136,134,37,37,11,8,0.7,0.6
2024-11-08T2000,1372A,113.1083,23.0478,佛山市,华材职中,颗粒物(PM10),63,75,50,29,26,78,,130,125,67,44,13,10,0.6,0.5
2024-11-08T2000,1373A,113.144,23.0453,佛山市,南海气象局,颗粒物(PM10),51,52,46,23,20,103,,136,134,35,33,13,9,0.5,0.4
2024-11-08T2000,1374A,113.2881,22.8094,佛山市,顺德苏岗,颗粒物(PM10),53,56,41,22,19,89,,135,132,39,33,9,9,0.6,0.6
2024-11-08T2000,1376A,112.8383,22.8678,佛山市,高明孔堂,颗粒物(PM10),54,58,48,26,25,90,,146,142,31,27,7,10,0.6,0.5
2024-11-08T2000,1377A,112.8836,23.1588,佛山市,三水监测站,颗粒物(PM10),56,61,46,33,27,78,,132,124,59,34,8,10,0.6,0.5
2024-11-08T2000,1378A,112.867,23.185,佛山市,三水云东海,,36,34,40,25,24,89,,130,125,30,31,10,12,0.6,0.6
2024-11-08T2000,3625A,113.2544,22.7642,佛山市,容桂街道办,,41,41,38,24,22,107,,143,143,31,31,8,8,0.6,0.5
2024-11-08T2000,1280A,119.3903,26.0543,福州市,鼓山,,,,19,,7,,,85,,,7,,2,,0.3
2024-11-08T2000,1282A,119.2681,26.0504,福州市,师大,,35,35,27,14,8,105,,98,98,9,11,3,3,0.4,0.4
2024-11-08T2000,1283A,119.2984,26.1028,福州市,五四北路,,38,38,23,17,8,97,,92,92,11,10,1,2,0.4,0.4
2024-11-08T2000,1284A,119.2648,26.0768,福州市,杨桥西路,,41,41,28,16,7,87,,96,94,14,10,2,2,0.5,0.4
2024-11-08T2000,1285A,119.317,26.0746,福州市,紫阳,,50,50,40,18,9,88,,88,88,16,14,3,3,0.5,0.5
2024-11-08T2000,3048A,119.5799,26.0936,福州市,九龙,,,,,,,,,,,,,,,,
2024-11-08T2000,3526A,119.5189,25.9664,福州市,吴航,,32,27,24,14,11,101,,102,102,9,8,3,3,0.2,0.2
2024-11-08T2000,1755A,123.7977,41.8491,抚顺市,望花区,颗粒物(PM10),66,82,74,44,43,60,,73,73,25,36,23,11,0.9,0.9
2024-11-08T2000,1756A,123.9161,41.8822,抚顺市,顺城区,细颗粒物(PM2.5),83,82,65,61,41,32,,39,38,58,41,11,7,1.0,0.5
2024-11-08T2000,1757A,124.0436,41.8611,抚顺市,东洲区,颗粒物(PM10),54,57,51,31,35,72,,70,70,11,15,11,9,0.5,0.5
2024-11-08T2000,1758A,123.9247,41.8642,抚顺市,新抚区,颗粒物(PM10),64,78,65,40,39,31,,36,35,49,40,6,6,0.8,0.5
2024-11-08T2000,1759A,124.0972,41.8961,抚顺市,大伙房水库,,45,32,40,31,30,82,,82,82,11,13,7,7,0.6,0.5
2024-11-08T2000,1760A,123.7086,41.8391,抚顺市,沈抚新城,细颗粒物(PM2.5),78,80,71,57,44,53,,82,79,30,29,8,13,0.6,0.8
2024-11-08T2000,2376A,116.2127,28.0814,抚州市,桐源党溪,细颗粒物(PM2.5),52,52,60,36,31,71,,110,106,8,13,7,7,0.4,0.5
2024-11-08T2000,2377A,116.3544,27.9831,抚州市,市站,颗粒物(PM10),53,55,46,28,23,92,,104,104,18,19,4,11,0.6,0.7
2024-11-08T2000,2378A,116.3565,27.963,抚州市,血防站,颗粒物(PM10),52,54,46,25,25,106,,124,121,14,16,7,9,0.6,0.5
2024-11-08T2000,2379A,116.3564,28.0007,抚州市,采茶剧团,颗粒物(PM10),55,59,46,37,27,87,,113,111,18,14,6,11,0.7,0.6
2024-11-08T2000,2380A,116.385,27.9647,抚州市,医学分院,颗粒物(PM10),58,65,48,33,23,87,,105,104,15,14,4,12,0.7,0.6
2024-11-08T2000,2207A,121.6094,41.998,阜新市,工业园区,细颗粒物(PM2.5),135,181,159,103,112,3,,37,32,64,53,20,29,1.8,1.8
2024-11-08T2000,2208A,121.6697,42.0279,阜新市,长青街,细颗粒物(PM2.5),159,139,155,121,112,4,,33,27,49,44,19,29,1.4,3
2024-11-08T2000,2209A,121.6673,42.0705,阜新市,农业园区,细颗粒物(PM2.5),132,130,140,100,109,33,,49,44,38,43,18,49,1.0,1.3
2024-11-08T2000,2210A,121.6717,42.0224,阜新市,东苑,细颗粒物(PM2.5),140,,151,107,109,6,,38,26,55,45,31,38,1.7,3.5
2024-11-08T2000,2211A,121.6506,42.0498,阜新市,玉龙新城,细颗粒物(PM2.5),153,124,141,117,104,7,,41,35,60,50,15,32,1.3,1.8
2024-11-08T2000,2301A,115.8277,32.8929,阜阳市,市监测站,"颗粒物(PM10),细颗粒物(PM2.5)",58,65,53,41,34,56,,93,90,39,25,10,6,0.7,0.6
2024-11-08T2000,2303A,115.8554,32.8605,阜阳市,开发区,颗粒物(PM10),70,90,72,32,31,55,,92,88,42,29,8,8,0.6,0.6
2024-11-08T2000,2875A,115.784,32.8892,阜阳市,阜阳职业技术学院,颗粒物(PM10),55,59,45,26,25,76,,95,95,28,19,7,6,0.6,0.5
2024-11-08T2000,3468A,115.7901,32.8613,阜阳市,市规划展馆,颗粒物(PM10),52,53,45,32,24,84,,100,100,31,23,8,7,0.4,0.4
2024-11-08T2000,3469A,115.836,32.9183,阜阳市,枣园社区,,46,46,51,32,29,67,,94,91,34,25,9,8,0.5,0.5
2024-11-08T2000,2669A,102.9099,34.9841,甘南藏族自治州,州政府,,32,31,33,16,14,12,,72,67,64,38,12,9,1.1,0.8
2024-11-08T2000,3380A,102.8914,34.9617,甘南藏族自治州,甘肃民族师范学院,颗粒物(PM10),51,51,35,16,14,7,,78,74,67,37,8,7,0.4,0.4
2024-11-08T2000,2570A,101.9603,30.0475,甘孜藏族自治州,水桥子,,37,37,24,24,12,4,,10,10,25,20,7,7,0.5,0.4
2024-11-08T2000,3065A,101.9533,29.9972,甘孜藏族自治州,州环保局,颗粒物(PM10),62,73,30,19,7,9,,18,16,25,23,4,4,0.3,0.3
2024-11-08T2000,3414A,115.8347,28.932,赣江新区,桑海产业园,细颗粒物(PM2.5),94,97,70,70,40,71,,104,100,33,48,14,13,1.1,0.6
2024-11-08T2000,2362A,114.9017,25.9149,赣州市,通天岩,,45,43,37,31,27,79,,131,122,10,10,1,1,0.3,0.2
2024-11-08T2000,2363A,114.9367,25.8664,赣州市,地委,颗粒物(PM10),56,61,44,30,28,130,,131,131,16,15,3,2,0.7,0.6
2024-11-08T2000,2364A,114.9461,25.8481,赣州市,气象台,,48,48,38,31,30,125,,126,126,21,18,7,9,0.6,0.6
2024-11-08T2000,2365A,114.9322,25.8333,赣州市,市图书馆,,,54,41,25,20,138,,135,135,18,17,,9,0.6,0.5
2024-11-08T2000,2366A,114.8905,25.8471,赣州市,华坚鞋城,颗粒物(PM10),51,52,42,31,21,133,,123,123,16,13,8,7,0.6,0.6
2024-11-08T2000,3109A,115.0093,25.8613,赣州市,赣县区卫计委,细颗粒物(PM2.5),54,56,45,38,25,89,,117,115,37,25,6,5,0.6,0.5
2024-11-08T2000,2683A,106.2319,36.1417,固原市,马园,细颗粒物(PM2.5),112,108,58,84,40,55,,50,50,39,28,6,6,1.0,0.9
2024-11-08T2000,2684A,106.2792,36.0022,固原市,监测站,细颗粒物(PM2.5),113,,32,85,42,70,,56,56,19,19,4,4,0.7,0.6
2024-11-08T2000,2685A,106.2375,36.0211,固原市,新区,细颗粒物(PM2.5),88,,35,65,34,56,,53,53,23,21,4,4,0.8,0.7
2024-11-08T2000,3522A,106.2177,35.9959,固原市,原州区十五小,细颗粒物(PM2.5),82,80,36,60,24,69,,77,66,20,13,5,5,0.8,0.6
2024-11-08T2000,2543A,106.6308,30.5278,广安市,小平旧居,,,,,,,,,,,,,,,,
2024-11-08T2000,2544A,106.6303,30.4576,广安市,市委,细颗粒物(PM2.5),82,81,78,60,54,43,,56,56,24,25,4,9,0.7,0.6
2024-11-08T2000,2545A,106.6271,30.4663,广安市,友谊中学,细颗粒物(PM2.5),84,87,70,62,49,47,,53,53,24,25,4,3,0.8,0.7
2024-11-08T2000,2547A,106.6388,30.4551,广安市,广电花园,细颗粒物(PM2.5),69,83,75,50,48,38,,52,52,25,25,5,5,0.8,0.7
2024-11-08T2000,2902A,106.6351,30.4865,广安市,北辰小学,细颗粒物(PM2.5),72,84,73,52,47,48,,61,61,19,18,5,4,0.7,0.7
2024-11-08T2000,2523A,105.8945,32.4535,广元市,黑石坡,细颗粒物(PM2.5),65,,41,47,30,32,,46,34,12,12,5,5,0.6,0.6
2024-11-08T2000,2524A,105.821,32.4444,广元市,老城,,48,48,53,31,31,46,,43,43,23,26,3,4,1.0,1
2024-11-08T2000,2526A,105.8628,32.4287,广元市,监测站,颗粒物(PM10),52,53,42,33,36,52,,58,58,24,26,4,4,0.8,0.8
2024-11-08T2000,3617A,105.8047,32.4166,广元市,经开区,"颗粒物(PM10),细颗粒物(PM2.5)",57,63,57,40,35,30,,45,45,42,29,5,4,0.8,0.8
2024-11-08T2000,1345A,113.2347,23.1423,广州市,广雅中学,颗粒物(PM10),65,79,55,34,25,84,,126,117,54,36,13,9,1.0,0.8
2024-11-08T2000,1346A,113.2612,23.105,广州市,市五中,颗粒物(PM10),58,65,42,38,24,99,,141,137,37,24,10,7,0.7,0.5
2024-11-08T2000,1348A,113.3478,23.0916,广州市,广东商学院,颗粒物(PM10),51,52,37,28,19,78,,136,130,49,25,9,8,0.5,0.4
2024-11-08T2000,1349A,113.4332,23.1047,广州市,市八十六中,,50,50,46,25,21,87,,122,120,33,34,6,6,0.6,0.5
2024-11-08T2000,1350A,113.3505,22.9483,广州市,番禺中学,,49,49,43,27,21,95,,140,138,40,34,8,7,0.5,0.4
2024-11-08T2000,1351A,113.2146,23.3916,广州市,花都师范,颗粒物(PM10),51,51,39,25,20,115,,127,126,33,20,14,9,0.8,0.6
2024-11-08T2000,1352A,113.2597,23.1331,广州市,市监测站,,50,50,45,28,23,81,,130,122,46,28,10,7,0.5,0.4
2024-11-08T2000,1353A,113.5618,23.312,广州市,九龙镇镇龙,颗粒物(PM10),51,52,42,27,23,83,,116,108,24,28,6,6,0.5,0.5
2024-11-08T2000,1354A,113.2765,23.1544,广州市,麓湖,,42,42,39,26,23,84,,133,125,34,28,7,6,0.6,0.5
2024-11-08T2000,1355A,113.443,23.3035,广州市,帽峰山森林公园,,32,30,27,17,14,100,,134,129,17,14,10,9,0.5,0.5
2024-11-08T2000,2846A,113.3221,23.1322,广州市,体育西,颗粒物(PM10),55,59,41,34,22,92,,127,120,28,21,7,6,0.6,0.6
2024-11-08T2000,3298A,113.5717,23.5491,广州市,从化街口,,48,48,36,26,20,70,,117,109,32,20,8,9,0.6,0.5
2024-11-08T2000,3299A,113.3472,23.3692,广州市,白云竹料,颗粒物(PM10),58,65,43,38,21,93,,131,124,39,20,11,8,0.8,0.6
2024-11-08T2000,3300A,113.2981,23.237,广州市,白云嘉禾,颗粒物(PM10),61,71,55,32,23,95,,128,121,46,42,11,8,0.8,0.6
2024-11-08T2000,3301A,113.4256,23.1716,广州市,黄埔科学城,,40,40,38,21,21,90,,130,127,25,23,8,7,0.6,0.6
2024-11-08T2000,3302A,113.3942,23.0483,广州市,番禺大学城,,41,41,40,24,19,90,,132,129,34,35,8,8,0.0,0.1
2024-11-08T2000,3303A,113.4922,22.8168,广州市,南沙黄阁,,47,47,52,26,24,96,,133,127,44,41,8,12,0.6,0.6
2024-11-08T2000,3304A,113.5342,22.7896,广州市,南沙街,颗粒物(PM10),54,58,49,24,23,91,,137,130,40,29,6,10,0.5,0.5
2024-11-08T2000,3443A,113.2902,23.5544,广州市,花都梯面,,40,34,32,22,19,127,,131,131,15,15,11,10,0.4,0.4
2024-11-08T2000,3445A,113.7858,23.7478,广州市,从化良口,,27,26,26,17,16,86,,116,112,12,9,6,6,0.5,0.5
2024-11-08T2000,3446A,113.8051,23.2614,广州市,增城荔城,"颗粒物(PM10),细颗粒物(PM2.5)",52,54,33,36,19,64,,115,104,39,19,7,9,0.8,0.6
2024-11-08T2000,2505A,109.568,23.1478,贵港市,德智高中,,,,,,,,,,,,,,,,
2024-11-08T2000,2506A,109.6047,23.0666,贵港市,江南子站,颗粒物(PM10),58,66,95,33,46,124,,147,147,21,36,10,11,0.7,0.9
2024-11-08T2000,2507A,109.6014,23.0948,贵港市,贵城子站,颗粒物(PM10),51,52,71,31,42,118,,135,135,23,30,9,10,0.7,1
2024-11-08T2000,2508A,109.5669,23.1065,贵港市,荷城子站,颗粒物(PM10),53,56,65,31,35,121,,132,132,22,27,14,13,0.6,0.6
2024-11-08T2000,3405A,109.5886,23.1172,贵港市,新世纪学校,颗粒物(PM10),54,58,58,30,34,119,,136,136,21,19,11,11,0.7,0.7
2024-11-08T2000,1439A,106.6899,26.5998,贵阳市,马鞍山,,42,36,37,29,25,64,,98,93,22,17,4,4,0.7,0.7
2024-11-08T2000,1440A,106.6971,26.5694,贵阳市,市环保站,细颗粒物(PM2.5),57,53,43,40,30,88,,113,110,22,16,6,7,0.5,0.5
2024-11-08T2000,1441A,106.6243,26.6266,贵阳市,鉴湖路,,46,46,46,29,29,85,,102,99,20,18,6,6,0.5,0.5
2024-11-08T2000,1442A,106.7487,26.6343,贵阳市,燕子冲,,49,44,36,34,31,87,,108,104,14,13,8,7,0.4,0.4
2024-11-08T2000,1443A,106.6555,26.4365,贵阳市,碧云窝,颗粒物(PM10),62,73,50,36,25,56,,105,100,39,20,9,8,0.7,0.5
2024-11-08T2000,1444A,106.694,26.5161,贵阳市,中院村,颗粒物(PM10),57,63,47,39,29,49,,104,97,55,23,6,6,0.7,0.7
2024-11-08T2000,1445A,106.7109,26.6027,贵阳市,红边门,细颗粒物(PM2.5),62,46,43,44,33,90,,112,110,21,21,7,6,0.6,0.6
2024-11-08T2000,1446A,106.7164,26.5699,贵阳市,新华路,细颗粒物(PM2.5),55,56,44,39,28,86,,113,105,21,16,5,5,0.5,0.5
2024-11-08T2000,1447A,106.674,26.5424,贵阳市,太慈桥,颗粒物(PM10),52,53,41,31,26,75,,100,95,33,23,6,5,0.5,0.5
2024-11-08T2000,1552A,106.805,26.3003,贵阳市,桐木岭,"颗粒物(PM10),细颗粒物(PM2.5)",58,66,52,41,32,84,,117,111,8,5,33,13,0.7,0.5
2024-11-08T2000,1862A,110.4144,25.3167,桂林市,电子科大尧山校区,,42,42,44,10,21,122,,138,133,10,12,7,11,0.4,0.5
2024-11-08T2000,1863A,110.2819,25.2697,桂林市,监测站,,,35,46,34,30,,,140,138,29,17,14,14,0.5,0.6
2024-11-08T2000,1864A,110.3089,25.2708,桂林市,龙隐路小学,,34,,42,23,31,107,,148,139,17,14,10,21,0.5,0.6
2024-11-08T2000,1865A,110.2869,25.2178,桂林市,八中,,46,46,46,27,28,81,,138,124,37,20,9,16,0.8,0.8
2024-11-08T2000,3403A,110.1764,25.2381,桂林市,创业大厦,,39,36,48,27,31,90,,140,129,26,16,13,19,0.4,0.4
2024-11-08T2000,3531A,110.296,25.1253,桂林市,旅游学院,,39,39,42,22,26,104,,146,137,19,19,10,13,0.5,0.5
2024-11-08T2000,2674A,100.2561,34.4714,果洛藏族自治州,玛沁县大武镇,颗粒物(PM10),59,67,32,38,21,36,,88,82,38,10,18,14,0.6,0.5
2024-11-08T2000,1129A,126.5422,45.755,哈尔滨市,岭北,细颗粒物(PM2.5),127,168,105,96,77,30,,56,47,65,57,18,16,0.2,0.5
2024-11-08T2000,1130A,126.561,45.8167,哈尔滨市,松北商大,细颗粒物(PM2.5),139,154,115,106,76,26,,28,28,58,53,12,12,1.0,0.8
2024-11-08T2000,1131A,126.979,45.5419,哈尔滨市,阿城会宁,细颗粒物(PM2.5),190,207,161,143,110,23,,58,53,51,43,8,12,0.9,1.3
2024-11-08T2000,1132A,126.599,45.7222,哈尔滨市,南岗学府路,细颗粒物(PM2.5),175,169,121,132,76,20,,38,36,68,57,13,11,1.2,1.1
2024-11-08T2000,1133A,126.689,45.7733,哈尔滨市,太平宏伟公园,细颗粒物(PM2.5),158,120,128,120,86,9,,26,24,74,58,15,11,1.1,0.8
2024-11-08T2000,1134A,126.635,45.7667,哈尔滨市,道外承德广场,细颗粒物(PM2.5),159,148,141,121,82,22,,22,22,70,69,13,12,1.2,1.2
2024-11-08T2000,1135A,126.685,45.7319,哈尔滨市,香坊红旗大街,细颗粒物(PM2.5),215,215,148,165,101,31,,45,44,78,57,19,20,1.0,0.9
2024-11-08T2000,1136A,126.6411,45.7258,哈尔滨市,动力和平路,细颗粒物(PM2.5),166,129,121,126,85,13,,32,31,71,58,20,19,1.0,0.9
2024-11-08T2000,1137A,126.593,45.7478,哈尔滨市,道里建国路,细颗粒物(PM2.5),186,,117,140,87,18,,19,19,68,64,22,19,1.9,1.1
2024-11-08T2000,1138A,126.615,45.61,哈尔滨市,平房东轻厂,细颗粒物(PM2.5),170,198,131,129,87,27,,60,51,52,46,15,12,1.1,0.8
2024-11-08T2000,1139A,126.595,45.9855,哈尔滨市,呼兰师专,细颗粒物(PM2.5),172,147,94,130,73,42,,43,42,52,43,10,6,0.9,0.6
2024-11-08T2000,1140A,126.6206,45.6842,哈尔滨市,省农科院,细颗粒物(PM2.5),189,187,127,142,86,17,,40,40,69,54,22,15,1.0,0.9
2024-11-08T2000,2688A,93.5128,42.8172,哈密市,地区监测站,颗粒物(PM10),69,87,120,34,33,45,,55,54,29,34,7,8,0.4,0.6
2024-11-08T2000,2689A,93.4961,42.8328,哈密市,哈密师范学校,颗粒物(PM10),61,72,109,31,36,51,,59,58,25,33,6,8,0.6,0.8
2024-11-08T2000,2671A,100.9048,36.9639,海北藏族自治州,海晏县西海镇,,16,16,10,7,8,51,,46,,10,7,11,8,0.6,0.4
2024-11-08T2000,3867A,102.0738,36.5056,海东市,平安区公安北苑,细颗粒物(PM2.5),70,79,52,51,24,52,,75,75,26,27,13,18,0.7,0.9
2024-11-08T2000,1409A,110.576,19.9507,海口市,东寨港,,,,,,,,,,,,,,,,
2024-11-08T2000,1410A,110.3232,20.0574,海口市,海南大学,,45,40,45,20,23,141,,162,161,14,13,6,7,0.4,0.5
2024-11-08T2000,1411A,110.283,20.0053,海口市,秀英海南医院,颗粒物(PM10),51,52,49,23,25,145,,160,159,13,14,8,8,0.4,0.4
2024-11-08T2000,1412A,110.338,19.9969,海口市,海南师范大学,,45,40,48,20,24,142,,163,161,14,15,8,9,0.4,0.4
2024-11-08T2000,1413A,110.33,20.0356,海口市,龙华路环保局宿舍,,44,43,48,22,24,140,,158,157,13,13,7,7,0.4,0.5
2024-11-08T2000,3539A,110.5111,19.9736,海口市,桂林洋子站,颗粒物(PM10),51,51,44,29,26,138,,169,166,13,11,8,8,0.5,0.4
2024-11-08T2000,2673A,100.6188,36.2866,海南藏族自治州,共和县恰卜恰镇,颗粒物(PM10),56,61,37,12,16,22,,76,72,46,25,13,10,0.8,0.6
2024-11-08T2000,2676A,97.3731,37.3753,海西蒙古族藏族自治州,德令哈市,颗粒物(PM10),83,116,30,29,14,23,,87,71,48,10,19,13,0.8,0.5
2024-11-08T2000,1048A,114.5302,36.6116,邯郸市,东污水处理厂,颗粒物(PM10),53,56,73,34,47,75,,93,93,24,28,4,4,0.5,0.5
2024-11-08T2000,1049A,114.4918,36.5713,邯郸市,矿院,颗粒物(PM10),62,73,76,36,47,73,,92,92,28,30,3,3,0.4,0.4
2024-11-08T2000,1050A,114.484,36.6133,邯郸市,丛台公园,颗粒物(PM10),54,58,74,37,49,79,,89,89,27,34,5,4,0.5,0.5
2024-11-08T2000,3458A,114.7895,36.5593,邯郸市,香泉濮院小区,颗粒物(PM10),61,72,70,30,35,84,,109,108,22,20,6,8,0.7,0.4
2024-11-08T2000,3579A,114.50634,36.77178,邯郸市,永年区实验高中,颗粒物(PM10),65,80,113,39,63,79,,96,96,30,50,4,5,0.3,0.4
2024-11-08T2000,3580A,114.20016,36.44293,邯郸市,峰峰矿区临水派出所,颗粒物(PM10),51,52,74,35,49,79,,84,84,18,28,5,8,0.4,0.7
2024-11-08T2000,2634A,106.9893,33.1842,汉中市,汉川机床厂子校,,45,45,51,29,31,18,,37,34,16,18,5,6,0.7,0.7
2024-11-08T2000,2635A,107.0154,33.0706,汉中市,市监测站,细颗粒物(PM2.5),70,87,73,51,43,17,,33,33,48,22,10,9,1.0,0.9
2024-11-08T2000,2636A,107.0089,33.1138,汉中市,鑫源开发区,颗粒物(PM10),59,67,68,37,42,8,,27,27,49,38,11,11,0.8,0.8
2024-11-08T2000,2637A,107.007,33.0323,汉中市,南郑大河坎水厂,颗粒物(PM10),65,80,72,45,47,14,,30,30,48,26,10,9,0.9,0.8
2024-11-08T2000,1223A,120.2072,30.2111,杭州市,滨江,,49,49,46,24,24,50,,81,79,49,45,7,7,0.4,0.4
2024-11-08T2000,1224A,120.0633,30.2747,杭州市,西溪,,22,22,25,13,23,35,,81,77,24,36,7,7,0.5,0.6
2024-11-08T2000,1226A,120.3461,30.3153,杭州市,下沙,,48,48,42,20,20,47,,98,93,60,54,7,8,0.5,0.6
2024-11-08T2000,1227A,120.1269,30.2456,杭州市,卧龙桥,,30,30,31,11,17,26,,88,79,39,29,6,7,0.4,0.4
2024-11-08T2000,1228A,120.1903,30.2692,杭州市,浙江农大,,35,35,40,20,25,55,,84,83,44,44,5,5,0.5,0.5
2024-11-08T2000,1230A,120.1197,30.3119,杭州市,和睦小学,,39,39,42,19,24,75,,102,101,44,44,9,9,0.2,0.4
2024-11-08T2000,1231A,120.3019,30.4183,杭州市,临平镇,颗粒物(PM10),56,62,48,22,20,45,,100,96,56,51,6,6,0.5,0.4
2024-11-08T2000,1232A,120.2697,30.1819,杭州市,城厢镇,,43,43,50,23,24,54,,94,86,42,46,7,6,0.5,0.6
2024-11-08T2000,1233A,120.0883,30.1808,杭州市,云栖,,20,20,30,8,15,33,,82,74,35,40,6,7,0.5,0.4
2024-11-08T2000,3557A,119.9464,30.0494,杭州市,镇二中,,44,44,41,29,29,61,,82,80,27,34,6,7,0.7,0.7
2024-11-08T2000,3558A,119.7183,30.2367,杭州市,市府大楼,,,,46,76,30,34,,87,77,62,42,8,7,0.8,0.6
2024-11-08T2000,3656A,120.1556,30.2864,杭州市,消防大队,,40,40,51,18,26,65,,96,95,48,47,8,8,0.3,0.3
2024-11-08T2000,1270A,117.1959,31.7848,合肥市,明珠广场,,46,46,43,22,19,71,,94,90,43,41,8,9,0.5,0.5
2024-11-08T2000,1271A,117.3072,31.8764,合肥市,三里街,颗粒物(PM10),53,56,47,22,22,58,,85,82,46,46,6,6,0.8,0.7
2024-11-08T2000,1272A,117.2588,31.8707,合肥市,琥珀山庄,,44,44,38,23,19,76,,100,98,35,31,10,10,0.9,0.9
2024-11-08T2000,1273A,117.1604,31.9052,合肥市,董铺水库,颗粒物(PM10),51,51,44,14,16,70,,92,91,34,34,5,5,0.5,0.5
2024-11-08T2000,1274A,117.25,31.8571,合肥市,长江中路,颗粒物(PM10),59,68,48,39,23,70,,96,94,44,39,9,9,0.9,0.7
2024-11-08T2000,1275A,117.266,31.9436,合肥市,庐阳区,颗粒物(PM10),58,66,51,19,21,33,,97,90,73,40,4,3,0.9,0.8
2024-11-08T2000,1276A,117.336,31.8586,合肥市,瑶海区,颗粒物(PM10),59,68,43,29,18,45,,94,88,68,48,6,7,0.7,0.5
2024-11-08T2000,1277A,117.3027,31.7964,合肥市,包河区,颗粒物(PM10),60,70,52,34,23,31,,88,77,74,59,5,6,0.8,0.7
2024-11-08T2000,1278A,117.2776,31.7385,合肥市,滨湖新区,颗粒物(PM10),53,56,43,31,17,72,,96,94,34,27,6,6,0.6,0.6
2024-11-08T2000,1279A,117.1318,31.8403,合肥市,高新区,,41,41,41,18,19,78,,94,92,33,32,1,2,0.8,0.7
2024-11-08T2000,3464A,117.3803,31.9147,合肥市,高教基地,颗粒物(PM10),53,56,41,27,20,28,,98,89,61,31,6,6,0.5,0.5
2024-11-08T2000,3614A,79.924,37.0877,和田地区,地区环保局,,,131,138,44,38,,,94,94,29,17,7,11,0.6,0.8
2024-11-08T2000,3615A,79.9131,37.113,和田地区,市环保局,颗粒物(PM10),84,117,132,33,45,64,,92,92,32,34,7,12,0.7,2
2024-11-08T2000,2516A,108.2011,24.715,河池市,东仁乐园,,40,40,62,28,29,69,,106,102,12,12,5,5,0.6,0.6
2024-11-08T2000,2517A,108.0497,24.6947,河池市,市环保站,,43,34,49,30,34,85,,120,118,21,24,16,12,0.6,0.6
2024-11-08T2000,2518A,108.0983,24.6989,河池市,市疾控中心,颗粒物(PM10),70,89,62,47,37,38,,111,103,57,35,12,10,0.8,0.6
2024-11-08T2000,1696A,114.6778,23.7569,河源市,源西,,40,40,34,22,23,97,,103,101,14,18,12,12,0.5,0.5
2024-11-08T2000,1697A,114.6944,23.7586,河源市,东埔,,38,38,36,22,20,104,,114,112,15,16,8,9,0.5,0.5
2024-11-08T2000,1698A,114.6892,23.7233,河源市,老城,,37,37,34,22,18,98,,113,110,15,14,7,8,0.5,0.4
2024-11-08T2000,1718A,115.4208,35.2464,菏泽市,气象局,颗粒物(PM10),67,84,63,41,31,86,,106,106,30,24,6,4,0.4,0.4
2024-11-08T2000,1719A,115.4747,35.2375,菏泽市,市政协,颗粒物(PM10),66,81,64,40,32,82,,102,102,31,26,8,5,0.4,0.3
2024-11-08T2000,3374A,115.5564,35.0891,菏泽市,定陶老年大学,颗粒物(PM10),64,78,58,44,27,56,,92,85,44,28,6,6,0.2,0.2
2024-11-08T2000,3647A,115.4702,35.2706,菏泽市,菏泽医专,颗粒物(PM10),65,80,65,30,27,76,,99,98,41,31,13,8,0.4,0.4
2024-11-08T2000,2514A,111.5264,24.4172,贺州市,环保小区,颗粒物(PM10),53,56,44,34,29,101,,133,130,21,21,8,7,0.5,0.5
2024-11-08T2000,2515A,111.5608,24.4078,贺州市,政协大楼,颗粒物(PM10),63,75,51,31,29,59,,138,125,44,23,8,7,0.7,0.6
2024-11-08T2000,3534A,111.4744,24.4553,贺州市,西湾,,48,48,52,24,33,98,,129,125,23,22,10,8,0.6,0.6
2024-11-08T2000,2385A,114.17,35.9019,鹤壁市,市监测站,颗粒物(PM10),66,81,79,38,45,38,,93,82,46,34,4,4,0.8,0.6
2024-11-08T2000,2386A,114.2956,35.7511,鹤壁市,市交警支队,颗粒物(PM10),74,98,83,45,41,22,,92,80,72,39,3,4,0.9,0.6
2024-11-08T2000,2387A,114.2878,35.7306,鹤壁市,迎宾馆,颗粒物(PM10),74,98,89,49,45,39,,97,88,69,47,2,3,0.8,0.6
2024-11-08T2000,3474A,114.2617,35.6822,鹤壁市,大新区,细颗粒物(PM2.5),62,60,75,44,52,27,,88,80,53,46,3,4,0.6,0.5
2024-11-08T2000,3596A,114.1572,35.9603,鹤壁市,南山宾馆,细颗粒物(PM2.5),77,93,75,56,52,63,,90,90,31,25,1,3,0.4,0.3
2024-11-08T2000,2244A,130.2537,47.3416,鹤岗市,哈啤分公司,颗粒物(PM10),59,67,37,40,25,35,,35,29,20,19,13,15,0.8,0.7
2024-11-08T2000,2245A,130.2684,47.3086,鹤岗市,斯达机电,细颗粒物(PM2.5),59,63,35,42,23,40,,39,35,22,23,15,15,0.4,0.4
2024-11-08T2000,2246A,130.3114,47.3388,鹤岗市,东山纸板厂,颗粒物(PM10),137,223,169,61,35,5,,30,21,45,34,13,14,0.7,1.5
2024-11-08T2000,2247A,130.1097,47.3382,鹤岗市,五号水库,,30,30,17,12,9,54,,67,60,12,8,8,7,0.6,0.5
2024-11-08T2000,2263A,127.4833,50.2524,黑河市,交通局,细颗粒物(PM2.5),163,145,137,124,110,60,,60,54,30,33,7,8,0.8,0.8
2024-11-08T2000,2264A,127.5144,50.2341,黑河市,环保局,细颗粒物(PM2.5),147,151,116,112,101,75,,70,69,25,25,15,8,0.6,0.6
2024-11-08T2000,2265A,127.5291,50.2472,黑河市,大黑河岛,细颗粒物(PM2.5),168,145,138,127,122,52,,58,54,22,27,2,2,0.9,0.9
2024-11-08T2000,1074A,115.6838,37.7541,衡水市,电机北厂,细颗粒物(PM2.5),65,78,64,47,38,70,,97,97,31,22,4,4,0.5,0.4
2024-11-08T2000,1075A,115.6303,37.7316,衡水市,市监测站,颗粒物(PM10),68,86,69,36,32,71,,92,92,38,32,4,4,0.5,0.4
2024-11-08T2000,3188A,115.6683,37.7217,衡水市,市城管局,颗粒物(PM10),60,69,66,37,36,69,,92,92,37,30,8,8,0.6,0.5
2024-11-08T2000,3459A,115.5989,37.5491,衡水市,地表水厂,颗粒物(PM10),104,158,72,42,41,45,,85,79,49,37,6,5,0.4,0.4
2024-11-08T2000,2456A,112.5003,26.9167,衡阳市,原169医院,颗粒物(PM10),51,52,51,30,31,50,,100,95,57,28,10,9,0.5,0.5
2024-11-08T2000,2457A,112.6194,26.9258,衡阳市,衡阳化工总厂,,50,48,57,35,38,111,,130,128,21,19,11,18,0.6,0.6
2024-11-08T2000,2458A,112.6211,26.8956,衡阳市,珠晖区环保局,颗粒物(PM10),62,74,56,36,38,107,,130,127,27,25,21,15,0.7,0.7
2024-11-08T2000,2459A,112.6197,26.8733,衡阳市,市委党校,,42,36,48,27,29,134,,139,139,20,21,9,16,0.6,0.7
2024-11-08T2000,2460A,112.6006,26.8919,衡阳市,市监测站,细颗粒物(PM2.5),67,74,59,48,38,120,,140,136,27,24,15,16,0.8,0.8
2024-11-08T2000,2461A,112.5664,26.9056,衡阳市,真空机电公司,,42,41,49,29,38,118,,137,135,28,25,11,12,0.7,0.7
2024-11-08T2000,3399A,112.6703,26.882,衡阳市,师范学院,颗粒物(PM10),51,51,55,29,34,135,,141,141,14,24,13,14,0.6,0.7
2024-11-08T2000,2608A,103.3772,23.3993,红河哈尼族彝族自治州,污水处理厂,细颗粒物(PM2.5),57,55,42,40,38,64,,94,74,19,9,13,7,0.7,0.6
2024-11-08T2000,2609A,103.3861,23.35,红河哈尼族彝族自治州,监测站,细颗粒物(PM2.5),84,86,53,62,41,68,,95,86,19,11,123,19,0.6,0.5
2024-11-08T2000,3038A,103.3758,23.368,红河哈尼族彝族自治州,州图书馆,细颗粒物(PM2.5),84,62,44,62,35,65,,89,81,18,9,95,20,0.7,0.6
2024-11-08T2000,1090A,111.6507,40.7517,呼和浩特市,呼市一监,颗粒物(PM10),95,139,75,59,48,6,,81,69,100,59,10,11,1.4,1
2024-11-08T2000,1091A,111.6572,40.8033,呼和浩特市,小召,"颗粒物(PM10),细颗粒物(PM2.5)",68,85,76,49,51,31,,78,74,76,61,11,11,1.1,1
2024-11-08T2000,1094A,111.7516,40.8369,呼和浩特市,如意水处理厂,颗粒物(PM10),77,103,88,48,48,2,,63,55,92,62,8,9,1.0,0.9
2024-11-08T2000,1095A,111.7276,40.8062,呼和浩特市,二十九中,颗粒物(PM10),83,115,80,55,50,9,,70,62,90,56,10,9,1.3,1.1
2024-11-08T2000,1096A,111.5512,40.7866,呼和浩特市,工大金川校区,颗粒物(PM10),91,131,89,66,55,4,,76,65,102,64,8,8,1.2,0.8
2024-11-08T2000,1097A,111.717,40.7612,呼和浩特市,化肥厂生活区,细颗粒物(PM2.5),95,119,87,71,52,11,,74,65,90,50,12,11,1.2,1
2024-11-08T2000,3698A,111.5968,40.8178,呼和浩特市,红旗小学,颗粒物(PM10),71,92,97,50,60,15,,68,63,80,68,8,10,0.8,1
2024-11-08T2000,3699A,111.6518,40.8389,呼和浩特市,海东办,细颗粒物(PM2.5),85,114,89,63,58,4,,74,64,97,63,11,10,1.4,1.2
2024-11-08T2000,2192A,119.7594,49.2261,呼伦贝尔市,区环保局,,47,47,42,24,19,10,,32,30,41,28,7,7,0.4,0.5
2024-11-08T2000,3061A,119.7512,49.1577,呼伦贝尔市,国华电力东,,33,33,29,20,18,24,,41,34,17,18,4,4,0.2,0.3
2024-11-08T2000,1250A,120.0751,30.8669,湖州市,城西水厂,,26,26,36,12,18,82,,86,86,25,36,6,6,0.3,0.3
2024-11-08T2000,2873A,120.0875,30.8955,湖州市,仁皇山新区,,26,26,31,13,15,74,,92,90,35,41,5,6,0.4,0.4
2024-11-08T2000,2907A,120.1844,30.8596,湖州市,吴兴区站,,31,31,34,14,17,70,,78,77,29,33,6,7,0.5,0.5
2024-11-08T2000,3562A,120.4148,30.8538,湖州市,南浔区站,,32,32,35,14,17,52,,77,70,33,41,5,4,0.4,0.4
2024-11-08T2000,1607A,120.9092,40.7136,葫芦岛市,龙港区,细颗粒物(PM2.5),60,56,75,43,59,98,,105,105,12,24,10,14,0.6,0.8
2024-11-08T2000,1608A,120.8392,40.7514,葫芦岛市,化工街,颗粒物(PM10),90,129,113,41,63,61,,95,94,49,50,24,29,0.8,1
2024-11-08T2000,1609A,120.8341,40.7073,葫芦岛市,新区,颗粒物(PM10),62,73,71,38,61,92,,106,106,29,46,14,17,0.7,1
2024-11-08T2000,1610A,120.8695,40.7677,葫芦岛市,东城区,"颗粒物(PM10),细颗粒物(PM2.5)",69,88,76,50,67,66,,96,94,50,54,16,18,0.9,1.1
2024-11-08T2000,2482A,109.5981,27.5721,怀化市,林科所,,42,42,40,25,28,101,,107,107,15,21,32,26,1.1,0.9
2024-11-08T2000,2483A,109.9453,27.5444,怀化市,河西地税局,"颗粒物(PM10),细颗粒物(PM2.5)",64,77,54,46,34,64,,104,96,32,22,15,14,0.7,0.6
2024-11-08T2000,2484A,109.9781,27.5342,怀化市,市四医院,细颗粒物(PM2.5),73,81,72,53,40,56,,101,96,33,27,18,16,0.9,0.7
2024-11-08T2000,2485A,109.9972,27.5578,怀化市,监测楼,细颗粒物(PM2.5),74,93,95,54,37,56,,102,96,42,32,16,13,0.7,0.6
2024-11-08T2000,2486A,110.0394,27.583,怀化市,市委党校,颗粒物(PM10),64,78,71,43,40,50,,103,96,26,29,14,26,0.7,0.6
2024-11-08T2000,1210A,119.036,33.5981,淮安市,钵池山,,46,46,44,21,25,41,,87,80,48,39,5,5,0.6,0.5
2024-11-08T2000,1211A,119.007,33.575,淮安市,北京南路,,44,44,44,19,22,50,,85,80,41,33,6,7,0.4,0.4
2024-11-08T2000,1212A,118.989,33.6067,淮安市,市监测站,,42,36,34,29,24,59,,86,83,33,31,8,8,0.6,0.6
2024-11-08T2000,1213A,119.135,33.5039,淮安市,楚州区监测站,,,103,43,,20,42,,80,71,45,38,6,7,0.6,0.5
2024-11-08T2000,1214A,119.0186,33.6297,淮安市,淮阴区监测站,颗粒物(PM10),53,56,56,20,24,35,,81,73,62,48,4,5,0.6,0.7
2024-11-08T2000,3426A,118.8755,33.2894,淮安市,新华书店,,34,34,34,15,17,47,,84,77,49,39,4,5,0.4,0.5
2024-11-08T2000,2282A,116.8004,33.975,淮北市,监测站,,40,40,37,18,18,62,,84,81,28,18,2,2,0.5,0.5
2024-11-08T2000,2283A,116.8091,33.9007,淮北市,烈山区政府,,40,40,42,16,20,74,,90,89,21,21,1,2,0.2,0.2
2024-11-08T2000,3330A,116.8873,33.9836,淮北市,杜集区检察院,,45,45,42,14,16,77,,94,93,15,14,2,2,0.4,0.4
2024-11-08T2000,4017A,116.7923,33.9535,淮北市,市博物馆,,41,41,41,19,21,74,,94,92,23,18,4,5,0.5,0.5
2024-11-08T2000,2277A,116.8305,32.7727,淮南市,潘集区政府,颗粒物(PM10),66,81,64,41,37,26,,93,78,62,31,9,11,0.4,0.6
2024-11-08T2000,2278A,117.0067,32.6524,淮南市,师范学院,颗粒物(PM10),62,73,62,25,30,67,,100,96,34,25,12,13,0.3,0.4
2024-11-08T2000,2279A,116.8569,32.5951,淮南市,谢家集区政府,,38,38,45,21,24,62,,90,88,28,25,11,11,0.3,0.4
2024-11-08T2000,2280A,116.8281,32.633,淮南市,八公山区政府,颗粒物(PM10),54,58,51,28,25,68,,99,95,29,24,8,10,0.5,0.5
2024-11-08T2000,2281A,116.6325,32.6201,淮南市,焦岗湖风景区管理处,,42,42,35,14,20,44,,88,83,50,28,4,4,0.1,0.2
2024-11-08T2000,2894A,117.0566,32.6531,淮南市,经济技术开发区消防队,颗粒物(PM10),55,59,55,32,24,46,,92,84,38,23,6,6,0.4,0.5
2024-11-08T2000,3329A,117.0108,32.5893,淮南市,山南新区,颗粒物(PM10),55,60,52,26,29,76,,100,98,20,22,2,4,0.3,0.4
2024-11-08T2000,2446A,114.9028,30.4742,黄冈市,职工中心,颗粒物(PM10),70,90,71,45,44,60,,102,95,52,30,18,13,1.0,0.6
2024-11-08T2000,2929A,114.8858,30.4519,黄冈市,红卫路,细颗粒物(PM2.5),74,91,65,54,42,65,,105,97,51,33,14,10,0.9,0.6
2024-11-08T2000,3398A,114.9136,30.4445,黄冈市,市林业局,,,,86,51,43,72,,111,104,57,34,16,13,1.0,0.6
2024-11-08T2000,2672A,102.0199,35.5102,黄南藏族自治州,同仁县隆务镇,颗粒物(PM10),51,51,29,16,13,65,,78,76,4,7,8,8,0.4,0.4
2024-11-08T2000,2295A,118.2903,29.6963,黄山市,延安路89号,颗粒物(PM10),64,77,32,44,16,37,,86,79,13,12,7,7,0.5,0.2
2024-11-08T2000,2296A,118.327,29.7178,黄山市,黄山东路89号,颗粒物(PM10),54,58,35,27,16,44,,87,78,23,13,6,6,0.4,0.2
2024-11-08T2000,2297A,118.1371,30.2756,黄山市,黄山区政府5号楼,颗粒物(PM10),58,66,35,38,22,40,,92,84,14,9,7,7,0.5,0.4
2024-11-08T2000,2423A,115.0601,30.2313,黄石市,沈家营,,50,50,48,28,28,101,,106,106,20,27,6,14,0.6,0.8
2024-11-08T2000,2424A,115.0817,30.2006,黄石市,陈家湾,,48,48,40,26,25,115,,118,118,17,18,11,9,0.5,0.6
2024-11-08T2000,2426A,114.8988,30.2019,黄石市,铁山,细颗粒物(PM2.5),78,64,45,57,29,73,,115,107,38,20,8,7,0.7,0.7
2024-11-08T2000,2427A,115.0307,30.2092,黄石市,团城山,,49,49,41,16,18,111,,117,117,20,18,7,8,0.5,0.6
2024-11-08T2000,3149A,115.0235,30.1578,黄石市,笔架山北路,颗粒物(PM10),57,63,42,33,24,87,,114,112,34,26,10,9,0.7,0.6
2024-11-08T2000,1392A,114.4183,23.0528,惠州市,河南岸金山湖子站,,45,45,38,24,21,89,,112,108,16,11,8,9,0.7,0.7
2024-11-08T2000,1393A,114.4053,23.0822,惠州市,下埔横江三路子站,,42,42,37,22,21,91,,114,111,18,13,8,9,0.5,0.5
2024-11-08T2000,1394A,114.4103,23.1142,惠州市,江北云山西路子站,,,41,36,26,21,,,122,122,19,13,8,10,0.6,0.5
2024-11-08T2000,1395A,114.4645,22.7833,惠州市,惠阳区承修路船湖子站,,47,47,46,22,22,87,,110,108,16,16,12,10,0.5,0.4
2024-11-08T2000,1396A,114.5317,22.7422,惠州市,大亚湾管委会子站,,42,42,37,19,17,86,,113,110,29,18,4,5,0.4,0.4
2024-11-08T2000,3314A,114.4338,22.8134,惠州市,惠阳秋长,,34,34,32,20,19,98,,115,113,16,16,8,9,0.5,0.4
2024-11-08T2000,3452A,114.6517,22.775,惠州市,大亚湾霞涌,,38,38,38,20,21,90,,105,104,10,12,9,8,0.3,0.4
2024-11-08T2000,2240A,130.9762,45.3001,鸡西市,环保局,细颗粒物(PM2.5),114,163,78,86,43,4,,33,19,75,33,18,10,1.6,0.6
2024-11-08T2000,2243A,130.9429,45.3039,鸡西市,第一中学,细颗粒物(PM2.5),104,135,73,78,40,6,,39,23,69,39,10,8,1.2,0.5
2024-11-08T2000,3707A,131.0207,45.3073,鸡西市,欧美日汽修厂,细颗粒物(PM2.5),205,243,107,155,64,5,,30,22,52,38,29,19,1.7,0.9
2024-11-08T2000,3709A,130.9967,45.3106,鸡西市,市政设施管理处,细颗粒物(PM2.5),204,211,90,154,52,5,,26,17,61,43,32,12,1.8,0.8
2024-11-08T2000,2367A,114.9754,27.0803,吉安市,红声器材厂,颗粒物(PM10),51,51,52,24,26,110,,124,124,33,29,16,16,0.5,0.5
2024-11-08T2000,2368A,114.9658,27.0999,吉安市,市森林工业局,,44,44,46,25,25,117,,124,124,22,22,13,18,0.5,0.5
2024-11-08T2000,2369A,114.99,27.1312,吉安市,市环境监测站,,44,44,43,17,25,117,,127,127,29,29,15,17,0.5,0.4
2024-11-08T2000,2370A,115.0093,27.0968,吉安市,青原区法院,颗粒物(PM10),52,54,50,28,27,111,,127,125,31,29,15,15,0.4,0.5
2024-11-08T2000,1772A,126.54,43.8622,吉林市,哈达湾,细颗粒物(PM2.5),129,122,48,98,38,19,,76,68,77,30,8,7,1.3,0.7
2024-11-08T2000,1773A,126.5844,43.8358,吉林市,东局子,细颗粒物(PM2.5),62,65,42,44,29,46,,73,68,35,21,6,6,0.9,0.6
2024-11-08T2000,1774A,126.5052,43.8245,吉林市,电力学院,细颗粒物(PM2.5),237,271,78,187,60,9,,65,52,75,40,11,10,2.4,1.1
2024-11-08T2000,1775A,126.6133,43.8972,吉林市,江北,细颗粒物(PM2.5),124,150,61,94,37,33,,69,61,43,27,12,10,1.6,0.8
2024-11-08T2000,1776A,126.555,43.8306,吉林市,江南公园,细颗粒物(PM2.5),87,90,54,64,41,42,,71,68,36,24,9,10,0.9,0.6
2024-11-08T2000,1778A,126.7061,43.7133,吉林市,丰满,细颗粒物(PM2.5),57,48,26,40,25,58,,71,70,10,7,7,8,0.8,0.6
2024-11-08T2000,2868A,126.4739,43.953,吉林市,九站,细颗粒物(PM2.5),100,103,82,75,58,41,,61,60,43,43,11,15,0.9,0.9
2024-11-08T2000,1299A,116.9862,36.6114,济南市,科干所,颗粒物(PM10),59,68,47,34,22,66,,104,94,42,28,9,8,0.8,0.7
2024-11-08T2000,1300A,116.9376,36.665,济南市,农科所,颗粒物(PM10),83,115,62,39,22,12,,92,74,94,50,6,6,1.3,0.7
2024-11-08T2000,1301A,117.1265,36.6734,济南市,开发区,颗粒物(PM10),59,68,51,34,27,30,,106,94,78,48,6,6,0.8,0.6
2024-11-08T2000,1303A,117.0624,36.6868,济南市,省种子仓库,颗粒物(PM10),76,102,74,44,31,31,,97,82,69,59,4,5,0.7,0.7
2024-11-08T2000,1304A,116.9489,36.6447,济南市,机床二厂,颗粒物(PM10),78,105,83,42,31,12,,95,76,102,53,6,6,1.4,0.6
2024-11-08T2000,1305A,117.0495,36.663,济南市,市监测站,颗粒物(PM10),70,90,59,44,28,26,,108,84,92,65,6,5,0.6,0.7
2024-11-08T2000,1306A,116.7675,36.5484,济南市,长清党校,细颗粒物(PM2.5),59,61,44,42,26,68,,104,98,57,32,8,8,0.8,0.6
2024-11-08T2000,1616A,117.6795,36.229,济南市,技术学院,细颗粒物(PM2.5),73,92,62,53,36,37,,91,80,73,47,9,8,1.3,0.9
2024-11-08T2000,1961A,117.532,36.6868,济南市,东山小学,颗粒物(PM10),61,71,59,34,28,34,,94,80,68,35,7,9,0.9,0.9
2024-11-08T2000,3059A,117.7161,36.2049,济南市,泰兴公司,颗粒物(PM10),82,114,68,56,37,10,,92,74,104,59,11,10,0.7,0.5
2024-11-08T2000,3064A,117.6867,36.2171,济南市,莱芜战役纪念馆,颗粒物(PM10),75,100,69,46,34,31,,92,81,90,56,8,6,1.0,0.7
2024-11-08T2000,3494A,117.1673,36.9782,济南市,济阳区政府,细颗粒物(PM2.5),89,110,79,66,36,33,,69,60,80,56,12,8,0.5,0.4
2024-11-08T2000,3495A,117.1171,36.63,济南市,锦屏中学,细颗粒物(PM2.5),53,51,35,37,22,50,,110,97,49,30,5,5,0.7,0.5
2024-11-08T2000,3682A,116.9814,36.6819,济南市,济南四建,颗粒物(PM10),84,117,64,44,29,5,,92,72,104,55,5,5,0.9,0.7
2024-11-08T2000,1653A,116.6251,35.4302,济宁市,火炬城,,49,49,45,27,30,84,,93,93,28,26,9,10,0.7,0.6
2024-11-08T2000,1655A,116.5491,35.4042,济宁市,电化厂,颗粒物(PM10),51,52,55,22,24,83,,91,91,27,26,6,8,0.8,0.7
2024-11-08T2000,3500A,116.5814,35.3707,济宁市,北湖一中,,38,38,42,17,27,85,,94,94,26,25,4,4,0.6,0.5
2024-11-08T2000,3501A,116.8249,35.5593,济宁市,服务中心,颗粒物(PM10),62,73,61,29,27,60,,91,88,37,31,9,10,0.7,0.7
2024-11-08T2000,3678A,116.5907,35.4054,济宁市,市第七中学,,,,48,22,26,91,,95,95,,28,3,4,0.6,0.6
2024-11-08T2000,2255A,130.2751,46.8028,佳木斯市,佳纺,细颗粒物(PM2.5),109,116,52,82,34,14,,44,31,60,38,14,7,1.5,0.8
2024-11-08T2000,2256A,130.3995,46.8307,佳木斯市,发电厂,细颗粒物(PM2.5),62,52,35,44,28,8,,40,34,56,34,5,5,0.7,0.5
2024-11-08T2000,2257A,130.3258,46.7975,佳木斯市,环保局,细颗粒物(PM2.5),70,80,44,51,30,7,,41,31,69,37,14,10,1.4,0.6
2024-11-08T2000,2258A,130.3648,46.8032,佳木斯市,十一中,细颗粒物(PM2.5),75,84,40,55,30,13,,41,31,69,42,8,6,1.5,0.7
2024-11-08T2000,2259A,130.3794,46.7588,佳木斯市,四丰,,,,,,,59,,66,66,,,1,1,0.2,0.2
2024-11-08T2000,1252A,120.7436,30.778,嘉兴市,清河小学,,32,32,31,10,12,57,,71,69,31,43,8,8,0.0,0.2
2024-11-08T2000,1253A,120.726,30.7478,嘉兴市,嘉兴学院,,29,29,32,13,13,57,,71,69,31,38,4,5,0.6,0.6
2024-11-08T2000,2872A,120.7846,30.7525,嘉兴市,南湖区残联,,31,31,31,13,14,58,,78,72,32,42,6,6,0.4,0.3
2024-11-08T2000,3407A,120.6916,30.7739,嘉兴市,秀洲住建,,23,23,30,10,14,60,,73,70,26,37,7,8,0.3,0.3
2024-11-08T2000,1945A,98.2908,39.7711,嘉峪关市,气象局,颗粒物(PM10),84,117,74,27,24,93,,109,107,20,28,13,10,0.4,0.4
2024-11-08T2000,2884A,98.2672,39.7978,嘉峪关市,酒钢宾馆,颗粒物(PM10),84,117,86,24,23,98,,104,104,19,27,17,22,0.5,0.7
2024-11-08T2000,3248A,98.2643,39.7724,嘉峪关市,雄关区,颗粒物(PM10),83,116,73,31,23,87,,110,106,30,36,8,10,0.4,0.4
2024-11-08T2000,1383A,113.1064,22.6058,江门市,北街,颗粒物(PM10),53,55,50,29,24,113,,158,157,44,38,9,8,0.6,0.6
2024-11-08T2000,1384A,113.0731,22.5835,江门市,西区,颗粒物(PM10),60,69,56,24,20,118,,157,156,33,36,11,9,0.5,0.4
2024-11-08T2000,1385A,113.0219,22.5311,江门市,圭峰西,,42,40,45,27,24,132,,164,164,30,32,8,6,0.4,0.4
2024-11-08T2000,1386A,113.0828,22.5947,江门市,东湖,颗粒物(PM10),53,56,46,30,23,120,,157,157,32,34,10,8,0.6,0.5
2024-11-08T2000,3311A,113.1075,22.5647,江门市,江海富民,颗粒物(PM10),51,51,53,22,23,111,,160,159,47,38,9,8,0.7,0.6
2024-11-08T2000,3449A,113.05,22.4667,江门市,新会银湖,颗粒物(PM10),59,68,50,31,26,95,,160,157,60,47,9,7,0.5,0.4
2024-11-08T2000,1828A,113.227,35.2125,焦作市,市环保局,细颗粒物(PM2.5),85,97,97,63,58,77,,85,85,33,32,7,5,0.5,0.4
2024-11-08T2000,1830A,113.1992,35.2590,焦作市,影视城,细颗粒物(PM2.5),75,70,74,55,56,101,,99,99,15,17,10,9,0.5,0.7
2024-11-08T2000,3169A,113.2725,35.2067,焦作市,太极体育中心,颗粒物(PM10),78,106,91,51,56,69,,79,79,30,32,6,6,0.5,0.7
2024-11-08T2000,3335A,113.3137,35.2641,焦作市,马村街道办,细颗粒物(PM2.5),74,85,86,54,56,66,,83,83,35,27,8,6,0.4,0.5
2024-11-08T2000,3336A,113.2465,35.2373,焦作市,焦作技师学院,"颗粒物(PM10),细颗粒物(PM2.5)",70,89,89,51,50,80,,83,83,27,28,8,6,1.1,0.6
2024-11-08T2000,3477A,113.1656,35.2539,焦作市,中站许衡医院,细颗粒物(PM2.5),70,66,82,51,49,91,,88,88,24,20,8,7,0.4,0.5
2024-11-08T2000,3981A,113.2449,35.1803,焦作市,原李万街道办,细颗粒物(PM2.5),70,72,107,51,52,69,,85,85,33,32,7,11,0.4,0.7
2024-11-08T2000,1708A,116.3701,23.5345,揭阳市,新兴,颗粒物(PM10),52,54,43,30,24,94,,106,106,27,26,12,9,0.7,0.5
2024-11-08T2000,1709A,116.3264,23.5443,揭阳市,西马,颗粒物(PM10),56,61,46,27,25,99,,107,107,19,22,11,9,0.8,0.6
2024-11-08T2000,1710A,116.3611,23.5626,揭阳市,东兴,颗粒物(PM10),58,66,49,20,21,108,,101,101,17,29,12,10,0.7,0.8
2024-11-08T2000,1711A,116.4151,23.5294,揭阳市,渔湖,,47,47,52,27,25,102,,110,110,22,30,12,10,0.6,0.6
2024-11-08T2000,3320A,116.403,23.5699,揭阳市,曲溪,颗粒物(PM10),55,60,40,24,22,113,,108,108,17,22,13,10,0.6,0.6
2024-11-08T2000,1944A,102.1692,38.5167,金昌市,天庆家园,细颗粒物(PM2.5),113,115,104,85,69,48,,86,83,50,31,10,13,1.6,0.8
2024-11-08T2000,3170A,102.1864,38.5253,金昌市,市委党校,细颗粒物(PM2.5),95,138,158,71,88,65,,91,90,45,35,9,10,1.0,1.1
2024-11-08T2000,4022A,102.1647,38.5371,金昌市,金川区人防中心,细颗粒物(PM2.5),118,137,135,89,86,60,,87,85,41,21,11,14,1.1,0.8
2024-11-08T2000,1262A,119.647,29.077,金华市,十五中,颗粒物(PM10),53,56,48,29,21,64,,99,96,48,39,4,4,0.4,0.4
2024-11-08T2000,1263A,119.686,29.1029,金华市,监测站,颗粒物(PM10),56,62,48,28,24,60,,96,92,46,39,4,4,0.3,0.3
2024-11-08T2000,3659A,119.656,29.1131,金华市,气象局,颗粒物(PM10),58,65,53,33,25,62,,97,91,45,45,5,4,0.4,0.5
2024-11-08T2000,1767A,121.1115,41.0879,锦州市,南山,细颗粒物(PM2.5),90,94,79,67,76,54,,92,90,59,57,24,17,1.0,1
2024-11-08T2000,1768A,121.0533,40.8434,锦州市,开发区,细颗粒物(PM2.5),80,70,102,59,76,60,,72,72,56,86,10,34,0.8,1.1
2024-11-08T2000,1769A,121.1836,41.1119,锦州市,百股街道,细颗粒物(PM2.5),62,,63,44,57,80,,96,96,34,47,24,17,1.0,1.1
2024-11-08T2000,1770A,121.1178,41.1222,锦州市,天安街道,细颗粒物(PM2.5),99,89,100,74,83,63,,89,89,47,53,21,18,1.2,1.3
2024-11-08T2000,1771A,121.1303,41.1386,锦州市,北湖公园,细颗粒物(PM2.5),90,82,89,67,80,67,,90,90,44,49,20,17,1.1,1.2
2024-11-08T2000,2160A,112.85,35.5051,晋城市,自来水公司,颗粒物(PM10),69,87,77,41,53,112,,123,123,31,42,7,7,0.5,0.8
2024-11-08T2000,2161A,112.8318,35.4936,晋城市,白云商贸,颗粒物(PM10),68,86,91,39,52,116,,127,127,28,42,6,5,0.7,0.8
2024-11-08T2000,2162A,112.8508,35.4887,晋城市,市环保局,颗粒物(PM10),65,80,89,34,52,109,,122,122,25,44,7,7,0.7,0.9
2024-11-08T2000,2163A,112.8676,35.4897,晋城市,技术学院,颗粒物(PM10),65,79,84,31,44,107,,119,119,31,53,6,6,0.8,1
2024-11-08T2000,2165A,112.8453,35.546,晋城市,白马寺,颗粒物(PM10),56,62,74,38,46,111,,120,120,22,24,11,11,0.7,0.7
2024-11-08T2000,3620A,112.8271,35.4828,晋城市,泽州一中,颗粒物(PM10),58,66,93,39,55,98,,115,115,27,38,7,6,0.8,1
2024-11-08T2000,2171A,112.7532,37.6945,晋中市,锦纶小区,细颗粒物(PM2.5),64,73,125,46,83,101,,119,119,31,43,9,9,0.4,0.7
2024-11-08T2000,2173A,112.7249,37.7067,晋中市,南都小区,颗粒物(PM10),64,77,134,45,80,113,,118,118,20,52,8,8,0.5,0.8
2024-11-08T2000,2174A,112.6991,37.6982,晋中市,榆次区政府,颗粒物(PM10),64,78,132,41,69,117,,118,118,23,48,9,10,0.5,0.8
2024-11-08T2000,2865A,112.7195,37.6828,晋中市,榆次三中,颗粒物(PM10),67,83,137,46,83,108,,114,114,22,45,11,11,0.6,1
2024-11-08T2000,2439A,112.2014,31.0481,荆门市,竹园小学,细颗粒物(PM2.5),90,99,88,67,54,60,,104,99,62,41,14,17,0.9,0.9
2024-11-08T2000,2440A,112.1969,30.9891,荆门市,掇刀,细颗粒物(PM2.5),98,105,92,73,60,56,,105,101,70,45,12,16,0.8,0.7
2024-11-08T2000,2441A,112.2213,31.0386,荆门市,石化一小,"颗粒物(PM10),细颗粒物(PM2.5)",80,110,105,59,60,32,,103,94,95,55,20,18,0.7,0.9
2024-11-08T2000,3012A,112.1849,31.0362,荆门市,西山林语,细颗粒物(PM2.5),62,65,72,44,49,71,,105,100,39,35,9,11,0.6,0.6
2024-11-08T2000,3547A,112.1632,31.0138,荆门市,龙泉中学南校,颗粒物(PM10),69,88,89,49,54,53,,107,100,54,37,10,15,0.6,0.6
2024-11-08T2000,1844A,112.2494,30.3197,荆州市,市图书馆,颗粒物(PM10),71,92,75,50,54,54,,91,90,68,52,7,13,1.0,0.8
2024-11-08T2000,1845A,112.2008,30.3544,荆州市,市委党校,细颗粒物(PM2.5),73,79,71,53,54,39,,90,85,72,48,10,11,1.1,0.9
2024-11-08T2000,3194A,112.2747,30.3122,荆州市,管委会,颗粒物(PM10),65,80,71,46,56,44,,97,93,76,51,12,16,1.1,0.9
2024-11-08T2000,3548A,112.1655,30.3364,荆州市,学苑路,细颗粒物(PM2.5),92,93,82,68,59,71,,98,98,47,41,13,15,1.1,0.9
2024-11-08T2000,2342A,117.3102,29.3867,景德镇市,王港中学,,,,,,,,,,,,,,,,
2024-11-08T2000,2343A,117.2117,29.2933,景德镇市,老干部活动中心,,42,42,33,28,19,48,,91,85,27,21,7,6,0.3,0.2
2024-11-08T2000,2344A,117.1894,29.2789,景德镇市,兽医站,颗粒物(PM10),54,58,38,30,16,46,,90,81,21,15,7,6,0.4,0.3
2024-11-08T2000,2345A,117.1547,29.2617,景德镇市,台达陶瓷,颗粒物(PM10),55,60,33,26,18,21,,83,72,52,19,13,8,0.7,0.4
2024-11-08T2000,2346A,117.2461,29.2956,景德镇市,陶研所,,36,36,31,12,17,45,,84,78,19,21,6,6,0.3,0.3
2024-11-08T2000,1803A,115.9872,29.6815,九江市,十里,细颗粒物(PM2.5),67,71,54,48,37,81,,103,102,40,32,12,9,0.6,0.6
2024-11-08T2000,1804A,115.9584,29.7046,九江市,茅山头,细颗粒物(PM2.5),63,64,47,45,30,82,,99,98,33,25,8,9,0.7,0.6
2024-11-08T2000,1805A,115.9877,29.7295,九江市,西园,颗粒物(PM10),52,53,49,35,31,95,,111,110,30,24,8,9,0.5,0.4
2024-11-08T2000,1806A,116.0172,29.6547,九江市,五七二七厂,颗粒物(PM10),56,61,52,33,32,96,,100,100,21,23,9,12,0.6,0.7
2024-11-08T2000,1808A,115.9114,29.6038,九江市,综合工业园,细颗粒物(PM2.5),63,53,52,45,41,69,,100,96,62,43,10,16,0.5,0.6
2024-11-08T2000,1809A,116.0721,29.7535,九江市,石化总厂,"颗粒物(PM10),细颗粒物(PM2.5)",64,77,57,46,37,86,,101,101,35,33,9,10,0.7,0.7
2024-11-08T2000,1810A,115.9773,29.5698,九江市,庐山气象台,,33,6,4,6,5,105,,112,110,2,2,8,7,1.1,0.8
2024-11-08T2000,3190A,116.0254,29.6994,九江市,外国语学校,细颗粒物(PM2.5),85,91,56,63,35,75,,96,95,38,30,11,14,0.6,0.5
2024-11-08T2000,2658A,98.5061,39.7443,酒泉市,仓门街子站,颗粒物(PM10),79,107,79,39,30,83,,102,101,24,26,5,18,0.4,0.4
2024-11-08T2000,2659A,98.4989,39.7256,酒泉市,油田生活基地,颗粒物(PM10),82,114,86,43,37,73,,98,96,31,30,6,10,0.5,0.5
2024-11-08T2000,2698A,76.0072,39.4467,喀什地区,巡警大队,颗粒物(PM10),60,70,199,15,57,74,,69,69,31,63,4,10,0.5,1.9
2024-11-08T2000,2699A,75.9755,39.4694,喀什地区,吾办,颗粒物(PM10),69,88,179,19,64,47,,65,65,51,60,4,5,0.9,1.9
2024-11-08T2000,4027A,75.9483,39.4689,喀什地区,老干局,颗粒物(PM10),63,75,187,9,44,63,,79,79,48,60,4,4,0.8,1.8
2024-11-08T2000,1824A,114.3389,34.7781,开封市,肿瘤医院,颗粒物(PM10),62,74,69,42,52,81,,99,98,31,29,4,6,0.5,0.5
2024-11-08T2000,1826A,114.2885,34.7965,开封市,世纪星幼儿园,,,,64,43,42,90,,110,110,31,25,1,2,0.4,0.4
2024-11-08T2000,3147A,114.3438,34.8106,开封市,龙亭公园,颗粒物(PM10),60,69,63,40,43,80,,106,105,32,24,3,3,0.9,0.7
2024-11-08T2000,3210A,114.3644,34.7964,开封市,汴京公园,细颗粒物(PM2.5),69,76,70,50,44,77,,100,99,35,25,6,5,0.8,0.4
2024-11-08T2000,3473A,114.2485,34.8306,开封市,技师学院,"颗粒物(PM10),细颗粒物(PM2.5)",58,65,65,41,40,86,,105,105,27,20,3,4,0.6,0.4
2024-11-08T2000,3592A,114.4644,34.7556,开封市,祥符区生态环境局,颗粒物(PM10),69,87,82,42,45,57,,98,91,48,33,4,4,0.5,0.5
2024-11-08T2000,1951A,84.895,45.6094,克拉玛依市,长征新村,,15,11,7,3,5,46,,54,46,11,6,5,5,0.2,0.2
2024-11-08T2000,1952A,84.8988,45.5893,克拉玛依市,南林小区,,14,6,6,6,7,43,,55,47,14,8,3,3,0.2,0.2
2024-11-08T2000,1954A,84.905,44.3396,克拉玛依市,独山子区,,29,29,10,11,5,33,,55,48,17,9,8,8,0.4,0.3
2024-11-08T2000,1955A,85.6979,46.098,克拉玛依市,乌尔禾区商贸楼,,,26,17,11,7,51,,63,56,13,6,3,3,,0.4
2024-11-08T2000,3612A,85.1045,45.6899,克拉玛依市,白碱滩区新站,,20,8,7,3,7,27,,52,47,39,19,8,8,0,0
2024-11-08T2000,2697A,76.1454,39.7142,克孜勒苏柯尔克孜自治州,市人民政府,颗粒物(PM10),51,51,89,16,31,71,,97,97,26,20,4,13,0.4,0.4
2024-11-08T2000,3665A,76.1658,39.7157,克孜勒苏柯尔克孜自治州,克州文化中心,颗粒物(PM10),54,58,86,15,32,80,,98,98,28,28,8,20,1.4,0.6
2024-11-08T2000,1450A,102.8204,24.8886,昆明市,呈贡新区,,26,26,24,18,15,41,,61,58,28,19,4,4,0.9,0.7
2024-11-08T2000,1451A,102.6251,24.9608,昆明市,西山森林公园,,,,,,,,,,,,,,,,
2024-11-08T2000,1452A,102.7252,25.0902,昆明市,龙泉镇,,25,23,17,17,12,33,,50,46,45,20,6,6,1.1,0.9
2024-11-08T2000,1453A,102.7266,25.0375,昆明市,东风东路,,25,22,16,17,14,25,,53,50,50,23,7,7,1.1,0.8
2024-11-08T2000,1454A,102.6742,25.0669,昆明市,金鼎山,,20,15,20,13,10,45,,56,56,39,22,1,2,0.9,0.8
2024-11-08T2000,1455A,102.6644,25.0401,昆明市,碧鸡广场,,18,14,15,10,12,45,,59,59,35,24,4,4,0.8,0.7
2024-11-08T2000,3179A,102.7494,25.0119,昆明市,官渡区博物馆,,33,20,20,14,14,12,,56,50,65,34,8,6,1.0,0.7
2024-11-08T2000,3375A,102.8017,24.8336,昆明市,青年创业园,,19,16,16,13,16,37,,73,66,26,14,4,4,0.8,0.6
2024-11-08T2000,3550A,102.7997,24.9786,昆明市,昆明学院,,30,23,25,21,20,19,,58,53,59,31,6,6,0.8,0.7
2024-11-08T2000,3551A,102.5967,24.6736,昆明市,晋宁区生态环境分局,,35,,24,24,20,46,,64,62,24,15,1,1,0.5,0.3
2024-11-08T2000,3552A,102.6678,24.9856,昆明市,云天化总部,,16,14,17,11,15,50,,70,70,24,22,5,4,0.7,0.6
2024-11-08T2000,1456A,91.1319,29.6514,拉萨市,八廓街,,20,20,17,10,10,57,,96,94,37,25,7,10,0.4,0.3
2024-11-08T2000,1457A,91.1221,29.6747,拉萨市,市环保局,,46,46,39,22,17,72,,96,96,31,24,8,10,0.5,0.4
2024-11-08T2000,1458A,91.0874,29.6475,拉萨市,区监测站,,32,23,16,9,9,41,,88,85,63,31,6,8,0.7,0.6
2024-11-08T2000,1459A,91.1774,29.6541,拉萨市,西藏大学,,23,20,19,10,8,71,,90,90,4,15,6,8,0.2,0.5
2024-11-08T2000,1460A,90.9798,29.6588,拉萨市,区辐射站,,38,38,20,10,10,60,,84,84,64,25,10,9,0.7,0.4
2024-11-08T2000,1461A,91.0834,29.6292,拉萨市,拉萨火车站,,23,18,14,7,9,72,,84,84,20,26,6,7,0.5,0.5
2024-11-08T2000,2520A,109.2203,23.7256,来宾市,来宾技工学校,颗粒物(PM10),57,64,64,32,35,119,,163,160,30,29,8,16,0.9,0.8
2024-11-08T2000,3535A,109.1781,23.7297,来宾市,兴宾区政府,细颗粒物(PM2.5),53,54,51,37,32,128,,158,157,22,13,8,7,0.8,0.9
2024-11-08T2000,4002A,109.2416,23.7461,来宾市,中南小学,颗粒物(PM10),64,78,62,35,32,83,,157,150,36,34,6,7,0.9,0.7
2024-11-08T2000,1476A,103.631,36.1031,兰州市,兰炼宾馆,细颗粒物(PM2.5),132,146,108,100,66,17,,80,74,114,66,14,16,1.3,1.1
2024-11-08T2000,1477A,104.1373,35.9454,兰州市,榆中兰大校区,,,,,,,,,,,,,,,,
2024-11-08T2000,1478A,103.8412,36.0726,兰州市,生物制品所,颗粒物(PM10),75,99,74,44,42,4,,43,40,98,62,12,12,1.4,0.9
2024-11-08T2000,1479A,103.831,36.0464,兰州市,铁路设计院,细颗粒物(PM2.5),88,98,78,65,54,5,,35,33,107,70,10,10,1.5,1.3
2024-11-08T2000,3186A,103.7158,36.1058,兰州市,教育港,细颗粒物(PM2.5),115,160,102,87,57,4,,63,55,118,63,16,13,1.9,1.1
2024-11-08T2000,3241A,103.7439,36.0842,兰州市,百合公园,颗粒物(PM10),97,144,84,61,26,5,,50,46,99,56,15,9,1.8,1.2
2024-11-08T2000,3242A,103.9611,35.998,兰州市,和平,颗粒物(PM10),75,100,46,50,27,7,,65,54,74,35,14,10,0.9,0.5
2024-11-08T2000,3245A,103.6633,36.533,兰州新区,新区管委会,细颗粒物(PM2.5),70,78,92,51,59,38,,85,82,60,45,8,16,1.0,1
2024-11-08T2000,3246A,103.6975,36.4789,兰州新区,舟曲中学,颗粒物(PM10),56,62,93,36,58,28,,82,77,81,50,9,20,0.7,0.9
2024-11-08T2000,1067A,116.6708,39.5111,廊坊市,药材公司,细颗粒物(PM2.5),107,113,155,80,114,64,,76,76,46,55,6,6,0.9,1.4
2024-11-08T2000,1068A,116.7214,39.5589,廊坊市,开发区,颗粒物(PM10),80,110,145,58,99,22,,67,64,61,68,3,4,0.6,1
2024-11-08T2000,1070A,116.7244,39.5269,廊坊市,北华航天学院,细颗粒物(PM2.5),119,130,161,90,109,8,,67,61,80,57,5,7,1.0,1.1
2024-11-08T2000,2919A,116.7022,39.5453,廊坊市,河北工业大学,,,,163,,116,27,,72,70,,69,5,8,0.7,1
2024-11-08T2000,2535A,103.7723,29.5462,乐山市,花湖湾,细颗粒物(PM2.5),65,57,55,47,43,35,,44,44,23,14,5,4,0.9,0.8
2024-11-08T2000,2536A,103.7627,29.5844,乐山市,牛耳桥,细颗粒物(PM2.5),59,51,54,42,47,20,,39,38,39,22,4,4,0.8,0.7
2024-11-08T2000,2537A,103.7508,29.6006,乐山市,市第三水厂,细颗粒物(PM2.5),62,53,52,44,45,30,,46,46,40,24,4,4,0.9,0.9
2024-11-08T2000,2538A,103.7571,29.5664,乐山市,市监测站,细颗粒物(PM2.5),58,53,52,41,44,27,,42,42,31,18,4,5,0.7,0.7
2024-11-08T2000,3361A,103.7311,29.5628,乐山市,理工大学,细颗粒物(PM2.5),69,54,51,50,47,19,,44,42,38,18,5,4,0.9,0.8
2024-11-08T2000,2598A,100.2143,26.8576,丽江市,西南郊,,16,11,3,9,3,44,,63,60,18,12,4,5,1.6,1
2024-11-08T2000,2599A,100.2497,26.8802,丽江市,丽江古城,,20,17,12,14,9,48,,60,59,16,8,9,9,0.5,0.6
2024-11-08T2000,2600A,100.2203,26.8906,丽江市,市中心,,17,17,6,11,8,48,,57,56,18,8,6,7,0.6,0.6
2024-11-08T2000,1267A,119.914,28.4514,丽水市,监测站大楼,,38,38,32,26,20,89,,95,95,18,22,8,8,0.3,0.2
2024-11-08T2000,1268A,119.93,28.4586,丽水市,莲都小学,,38,38,38,17,17,90,,96,96,19,25,5,5,0.3,0.3
2024-11-08T2000,1269A,119.879,28.4231,丽水市,余庄前,,24,24,28,14,17,39,,87,80,13,16,5,5,0.2,0.2
2024-11-08T2000,1173A,119.176,34.5885,连云港市,市环境监测站,,29,19,39,9,18,91,,106,103,14,21,8,8,0,0
2024-11-08T2000,3000A,119.3581,34.6972,连云港市,德源药业,,48,48,51,9,18,36,,96,84,59,33,6,6,0.2,0.2
2024-11-08T2000,3007A,119.178,34.844,连云港市,新城一中,,30,30,42,3,21,66,,94,90,39,38,7,7,0.4,0.5
2024-11-08T2000,3008A,119.3608,34.7519,连云港市,胡沟管理处,,26,19,24,7,10,81,,88,86,18,14,8,10,0.2,0.3
2024-11-08T2000,3009A,119.1478,34.5911,连云港市,矿山设计院,,28,22,39,9,20,89,,105,101,18,22,6,7,0.5,0.5
2024-11-08T2000,3434A,119.2413,34.6539,连云港市,工贸学校,,29,20,26,11,13,92,,108,104,12,12,8,8,0.5,0.4
2024-11-08T2000,3664A,119.4172,34.7341,连云港市,连云街道,,32,8,23,3,11,101,,104,102,7,10,6,6,0.3,0.4
2024-11-08T2000,2571A,102.3431,27.8099,凉山彝族自治州,青龙寺,,11,11,8,7,4,24,,50,44,5,5,3,3,0.7,0.6
2024-11-08T2000,2572A,102.2721,27.8415,凉山彝族自治州,邛海宾馆,,12,11,14,8,12,35,,52,50,13,13,7,8,0.8,0.9
2024-11-08T2000,2573A,102.2625,27.898,凉山彝族自治州,西昌市政府,,25,23,18,17,17,35,,44,42,18,19,7,10,1.0,1
2024-11-08T2000,2574A,102.2685,27.8851,凉山彝族自治州,凉山州政府,,22,19,18,15,15,41,,48,48,16,18,8,11,1.0,1.1
2024-11-08T2000,2575A,102.237,27.8914,凉山彝族自治州,长安,,25,25,28,11,14,21,,39,37,36,28,13,12,1.0,0.8
2024-11-08T2000,2212A,123.2,41.1953,辽阳市,宏伟区,细颗粒物(PM2.5),52,47,35,36,28,76,,88,83,15,13,8,8,0.5,0.5
2024-11-08T2000,2213A,123.1683,41.2495,辽阳市,新华园,细颗粒物(PM2.5),59,48,37,42,32,69,,82,77,20,19,9,7,0.6,0.5
2024-11-08T2000,2214A,123.2354,41.2639,辽阳市,滨河路,细颗粒物(PM2.5),59,,33,42,32,66,,80,76,19,16,10,10,0.5,0.5
2024-11-08T2000,2215A,123.149,41.2991,辽阳市,铁西工业园,颗粒物(PM10),51,51,48,32,26,69,,80,76,11,13,11,12,0.9,0.9
2024-11-08T2000,2227A,125.1358,42.8845,辽源市,环保局,细颗粒物(PM2.5),74,82,51,54,31,21,,76,64,53,38,9,12,1.3,0.9
2024-11-08T2000,3239A,125.0764,42.9078,辽源市,银鹰制药,细颗粒物(PM2.5),84,83,57,62,38,40,,74,58,41,43,5,14,1.0,0.9
2024-11-08T2000,1625A,115.9848,36.4372,聊城市,区政府,颗粒物(PM10),54,57,55,28,26,59,,87,82,41,23,9,10,0.7,0.7
2024-11-08T2000,2878A,116.0072,36.4343,聊城市,聊大东校,颗粒物(PM10),62,73,61,34,31,48,,92,85,53,23,9,9,0.7,0.6
2024-11-08T2000,3200A,115.9819,36.4978,聊城市,监控中心,颗粒物(PM10),55,59,52,34,29,61,,89,85,46,28,8,9,0.5,0.5
2024-11-08T2000,3513A,116.0445,36.4361,聊城市,九州社区,颗粒物(PM10),58,65,56,24,23,41,,89,81,59,28,8,8,0.5,0.5
2024-11-08T2000,4018A,116.0567,36.4608,聊城市,星美广场,颗粒物(PM10),74,97,63,51,26,43,,110,89,64,26,9,8,0.5,0.5
2024-11-08T2000,2632A,94.3681,29.6376,林芝市,林芝监测站,,36,28,13,25,7,21,,77,72,61,12,6,6,0.8,0.3
2024-11-08T2000,2633A,94.3616,29.6616,林芝市,林芝人民医院,,38,38,14,19,6,39,,78,75,33,10,6,5,0.6,0.4
2024-11-08T2000,2603A,100.0781,23.8982,临沧市,市环保局,,40,29,10,28,13,43,,65,58,15,8,7,7,0.7,0.6
2024-11-08T2000,2604A,100.0894,23.8822,临沧市,市气象局,,20,,12,14,8,48,,64,60,11,8,8,8,0.6,0.5
2024-11-08T2000,1733A,111.5531,36.0783,临汾市,临钢医院,细颗粒物(PM2.5),83,98,105,61,66,68,,77,77,46,54,5,6,0.7,0.7
2024-11-08T2000,1734A,111.5028,36.0714,临汾市,技工学校,细颗粒物(PM2.5),90,96,101,67,74,70,,104,101,43,45,7,7,0.7,0.8
2024-11-08T2000,1736A,111.5018,36.0855,临汾市,市委,颗粒物(PM10),78,106,112,54,68,80,,112,110,34,41,7,7,0.8,0.8
2024-11-08T2000,3018A,111.505,36.1014,临汾市,唐尧大酒店,"颗粒物(PM10),细颗粒物(PM2.5)",79,108,102,58,69,53,,105,101,51,40,5,6,0.8,0.8
2024-11-08T2000,3668A,111.5036,36.0414,临汾市,城南,细颗粒物(PM2.5),87,102,96,64,66,50,,104,96,53,44,5,5,0.7,0.7
2024-11-08T2000,2667A,103.2069,35.5993,临夏回族自治州,环保局,颗粒物(PM10),67,84,73,17,19,28,,67,66,60,43,9,8,1.1,1.4
2024-11-08T2000,2668A,103.2417,35.6057,临夏回族自治州,建设大厦,颗粒物(PM10),64,78,47,24,21,9,,79,74,82,27,8,7,1.0,0.7
2024-11-08T2000,1618A,118.3429,35.0532,临沂市,沂河小区,,36,36,61,21,37,77,,105,100,18,32,6,8,0.2,0.4
2024-11-08T2000,1619A,118.295,35.0583,临沂市,鲁南制药厂,,29,29,51,15,31,64,,94,89,36,38,4,7,0.6,0.7
2024-11-08T2000,1620A,118.2794,34.9976,临沂市,新光毛纺厂,,25,24,56,17,34,71,,108,101,31,46,6,9,0.6,0.7
2024-11-08T2000,1621A,118.3956,35.0888,临沂市,河东保险公司,,44,44,59,27,33,53,,108,97,34,41,3,4,0.5,0.6
2024-11-08T2000,3370A,118.3564,35.0215,临沂市,十里堡居委,,24,24,45,12,28,75,,108,101,22,32,5,8,0.3,0.4
2024-11-08T2000,3496A,118.3604,35.1084,临沂市,南坊新区,颗粒物(PM10),51,51,55,31,32,65,,112,104,41,41,4,5,0.6,0.6
2024-11-08T2000,3860A,118.3920,35.0300,临沂市,皇山花园小区,,,36,58,18,34,64,,105,97,,45,,4,0.5,0.6
2024-11-08T2000,1870A,109.4856,24.3895,柳州市,柳东小学,颗粒物(PM10),67,83,50,40,29,126,,103,,17,11,14,12,0.6,0.4
2024-11-08T2000,1871A,109.4157,24.3277,柳州市,环保监测站,颗粒物(PM10),68,86,65,34,36,72,,135,127,39,26,10,14,0.9,0.6
2024-11-08T2000,1872A,109.389,24.341,柳州市,河西水厂,细颗粒物(PM2.5),98,128,88,73,46,60,,129,121,48,36,25,20,1.0,0.9
2024-11-08T2000,1873A,109.4311,24.2921,柳州市,市四中,颗粒物(PM10),73,95,50,37,27,61,,144,135,57,20,11,12,1.2,0.6
2024-11-08T2000,1874A,109.4006,24.3631,柳州市,市九中,颗粒物(PM10),89,127,83,36,43,71,,137,130,50,35,9,13,0.9,0.8
2024-11-08T2000,1875A,109.4958,24.3134,柳州市,古亭山,颗粒物(PM10),54,57,46,35,26,58,,138,123,65,24,10,12,0.7,0.7
2024-11-08T2000,3402A,109.5422,24.3996,柳州市,市二中,细颗粒物(PM2.5),68,69,46,49,30,69,,136,130,42,23,10,11,0.8,0.6
2024-11-08T2000,2307A,116.5079,31.737,六安市,监测大楼,颗粒物(PM10),52,53,51,29,29,97,,104,104,20,23,6,6,0.6,0.5
2024-11-08T2000,2308A,116.4738,31.7643,六安市,皖西学院,,,57,57,24,26,,,105,105,23,25,6,6,,0.6
2024-11-08T2000,2309A,116.4996,31.7905,六安市,朝阳厂,颗粒物(PM10),52,53,46,27,24,93,,101,101,24,24,3,3,0.6,0.6
2024-11-08T2000,2310A,116.5567,31.7886,六安市,开发区,颗粒物(PM10),57,64,63,28,28,83,,99,98,28,30,6,6,0.5,0.4
2024-11-08T2000,2576A,104.8,26.5892,六盘水市,窑上,,46,34,47,32,43,51,,57,57,15,13,5,5,0.7,0.7
2024-11-08T2000,2577A,104.83,26.5917,六盘水市,黄土坡,,33,32,45,23,36,57,,58,57,24,24,7,7,0.9,0.9
2024-11-08T2000,2578A,104.89,26.5939,六盘水市,水钢,,,,68,,55,,,74,,,17,,5,,0.5
2024-11-08T2000,2579A,104.8475,26.5894,六盘水市,民中,,39,32,46,27,40,58,,61,59,23,26,7,8,0.8,0.7
2024-11-08T2000,2580A,104.9544,26.5506,六盘水市,双水,,36,31,51,25,42,74,,82,79,13,14,6,6,0.4,0.4
2024-11-08T2000,2335A,117.0189,25.1181,龙岩市,龙岩师专,,,,,,,,,,,,,,,,
2024-11-08T2000,2336A,117.0217,25.1033,龙岩市,龙岩市监测站,,32,25,22,22,16,67,,99,93,25,13,9,6,0.5,0.4
2024-11-08T2000,2337A,117.0258,25.0661,龙岩市,闽西职业技术学院,,33,33,25,16,13,60,,100,92,26,10,6,4,0.7,0.4
2024-11-08T2000,2338A,117.0196,25.0306,龙岩市,龙岩学院,,24,24,21,13,13,62,,100,91,11,12,9,10,0.5,0.4
2024-11-08T2000,2665A,105.0822,33.3261,陇南市,汉王镇固水子,,,,,,,,,,,,,,,,
2024-11-08T2000,2885A,104.9339,33.3826,陇南市,滨江中学,,44,44,34,22,13,36,,51,48,17,14,5,6,0.5,0.6
2024-11-08T2000,3247A,104.955,33.371,陇南市,市总工会,,29,29,29,10,14,52,,57,56,8,9,4,5,0.3,0.3
2024-11-08T2000,2487A,111.9589,27.8901,娄底市,电视发射台,,42,41,46,29,37,102,,133,130,13,13,8,7,0.9,0.9
2024-11-08T2000,2488A,111.9975,27.725,娄底市,市监测站,细颗粒物(PM2.5),73,81,80,53,56,124,,150,150,23,39,8,12,0.8,1
2024-11-08T2000,2489A,112.0194,27.7314,娄底市,市委党校,细颗粒物(PM2.5),59,56,75,42,51,131,,143,143,14,25,3,6,0.6,0.7
2024-11-08T2000,2490A,111.9561,27.7569,娄底市,涟钢,细颗粒物(PM2.5),90,97,82,67,53,92,,145,139,42,27,7,8,1.2,0.6
2024-11-08T2000,2491A,111.9892,27.7044,娄底市,市政府,细颗粒物(PM2.5),74,74,82,54,58,112,,142,140,29,27,9,10,0.7,0.8
2024-11-08T2000,1893A,105.4324,28.9634,泸州市,九狮山,"颗粒物(PM10),细颗粒物(PM2.5)",54,58,53,38,34,33,,46,46,19,18,4,5,0.6,0.5
2024-11-08T2000,1894A,105.4427,28.9063,泸州市,小市上码头,细颗粒物(PM2.5),63,59,66,45,48,44,,56,56,25,20,6,5,0.6,0.6
2024-11-08T2000,1895A,105.4241,28.8573,泸州市,兰田宪桥,细颗粒物(PM2.5),74,,48,54,48,41,,48,48,28,21,5,4,0.7,0.7
2024-11-08T2000,1896A,105.4379,28.8833,泸州市,市环监站,细颗粒物(PM2.5),70,64,68,51,49,37,,46,46,33,21,6,6,0.7,0.7
2024-11-08T2000,3490A,105.3617,28.7703,泸州市,纳溪区环保局,细颗粒物(PM2.5),52,48,42,36,35,31,,44,44,28,22,4,4,0.7,0.7
2024-11-08T2000,2183A,111.1406,37.5211,吕梁市,环保局,细颗粒物(PM2.5),117,138,97,88,47,78,,107,104,48,40,4,4,1.0,0.7
2024-11-08T2000,2185A,111.1297,37.5136,吕梁市,自来水公司,细颗粒物(PM2.5),115,128,108,87,46,95,,112,110,33,34,6,8,1.1,0.8
2024-11-08T2000,2867A,111.1283,37.51,吕梁市,马茂庄小学,细颗粒物(PM2.5),120,134,117,91,50,120,,119,119,27,43,8,10,0.9,0.8
2024-11-08T2000,1812A,112.3931,34.6516,洛阳市,市委党校,细颗粒物(PM2.5),79,97,124,58,85,71,,79,79,38,57,3,5,0.6,0.7
2024-11-08T2000,1814A,112.4657,34.6871,洛阳市,豫西宾馆,颗粒物(PM10),76,102,122,49,68,70,,82,82,33,49,4,6,0.5,0.6
2024-11-08T2000,1815A,112.494,34.6886,洛阳市,河南林校,细颗粒物(PM2.5),78,97,109,57,81,64,,75,75,36,47,5,7,0.5,0.5
2024-11-08T2000,1816A,112.3844,34.623,洛阳市,开发区管委会,细颗粒物(PM2.5),84,101,135,62,90,76,,84,84,27,45,9,10,0.4,0.5
2024-11-08T2000,1817A,112.4267,34.6258,洛阳市,市委新办公区,细颗粒物(PM2.5),78,104,139,57,85,68,,79,79,35,45,4,5,0.4,0.6
2024-11-08T2000,3340A,112.6005,34.6326,洛阳市,伊滨,颗粒物(PM10),76,102,138,51,79,66,,81,81,30,49,5,6,0.4,0.6
2024-11-08T2000,3341A,112.4951,34.6332,洛阳市,中移产业园,细颗粒物(PM2.5),75,89,113,55,81,64,,86,85,44,53,5,6,0.6,0.7
2024-11-08T2000,3593A,112.5736,34.8993,洛阳市,吉利监测站,细颗粒物(PM2.5),70,78,98,51,70,77,,81,81,28,48,4,4,0.4,0.5
2024-11-08T2000,3635A,112.3677,34.662,洛阳市,河科大西苑校区,"颗粒物(PM10),细颗粒物(PM2.5)",72,93,124,52,81,78,,86,86,34,53,4,5,0.5,0.7
2024-11-08T2000,3636A,112.4388,34.6781,洛阳市,英才小学,颗粒物(PM10),83,115,138,49,73,68,,77,77,34,51,3,5,0.5,0.6
2024-11-08T2000,2399A,114.051,33.5699,漯河市,三五一五工厂,"颗粒物(PM10),细颗粒物(PM2.5)",75,100,76,55,45,64,,97,96,42,27,6,6,0.6,0.6
2024-11-08T2000,2400A,114.0055,33.5698,漯河市,漯河大学,颗粒物(PM10),74,97,82,51,42,77,,104,104,31,26,6,6,0.6,0.5
2024-11-08T2000,2401A,114.0138,33.5828,漯河市,市水利局,颗粒物(PM10),74,97,72,46,40,74,,101,100,27,20,7,7,0.6,0.6
2024-11-08T2000,2402A,114.0261,33.5698,漯河市,市广电局,颗粒物(PM10),70,90,69,50,45,76,,102,101,30,22,6,7,0.6,0.6
2024-11-08T2000,3478A,113.9749,33.5664,漯河市,市图书馆,颗粒物(PM10),67,84,73,44,37,69,,100,99,34,22,5,5,0.5,0.5
2024-11-08T2000,3479A,114.0967,33.5906,漯河市,召陵区卫健委,细颗粒物(PM2.5),82,107,81,60,47,67,,97,94,37,27,10,11,0.6,0.6
2024-11-08T2000,1798A,118.5092,31.6837,马鞍山市,湖东路四小,,42,42,41,19,16,71,,102,94,32,24,4,4,0.6,0.6
2024-11-08T2000,1799A,118.5024,31.6449,马鞍山市,开发区,颗粒物(PM10),51,52,54,28,25,64,,93,90,46,44,7,7,0.6,0.7
2024-11-08T2000,1800A,118.5228,31.7231,马鞍山市,慈湖,,35,34,27,24,21,77,,101,99,34,28,8,8,0.7,0.7
2024-11-08T2000,1802A,118.6245,31.7241,马鞍山市,濮塘,,36,36,32,21,20,78,,101,98,15,19,8,8,0.8,0.8
2024-11-08T2000,3633A,118.4918,31.6809,马鞍山市,雨山,颗粒物(PM10),51,51,38,23,18,70,,92,88,34,24,5,6,0.7,0.7
2024-11-08T2000,1686A,111.0286,21.4688,茂名市,电白南海,颗粒物(PM10),78,105,58,29,26,106,,147,144,52,21,8,11,0.6,0.5
2024-11-08T2000,1687A,110.9294,21.6533,茂名市,茂石化七小,细颗粒物(PM2.5),83,92,54,61,34,110,,142,140,22,16,43,17,0.9,0.7
2024-11-08T2000,1688A,110.9107,21.6687,茂名市,健康路,细颗粒物(PM2.5),70,80,54,51,35,122,,146,144,24,18,38,27,0.8,0.6
2024-11-08T2000,1689A,110.8592,21.6828,茂名市,高岭,细颗粒物(PM2.5),104,127,78,78,44,76,,131,121,44,28,16,20,0.7,0.7
2024-11-08T2000,3450A,111.01,21.5165,茂名市,电白水东,,49,48,46,34,27,141,,143,143,16,15,10,15,0.7,0.6
2024-11-08T2000,2539A,104.0308,30.0478,眉山市,黑龙滩水库,细颗粒物(PM2.5),70,,50,51,48,47,,52,52,5,4,4,4,0.7,0.6
2024-11-08T2000,2540A,103.8416,30.0874,眉山市,气象局,细颗粒物(PM2.5),64,53,49,46,45,18,,42,40,33,21,7,7,0.8,0.7
2024-11-08T2000,3137A,103.8578,30.0744,眉山市,市委党校,细颗粒物(PM2.5),58,63,53,41,36,30,,46,44,33,24,6,7,0.8,0.7
2024-11-08T2000,3148A,103.8291,30.0564,眉山市,区人社局,细颗粒物(PM2.5),62,53,45,44,39,36,,49,48,29,26,4,4,0.7,0.6
2024-11-08T2000,1690A,116.1231,24.3284,梅州市,梅江月梅,,45,38,32,31,18,52,,104,97,40,27,9,9,0.5,0.5
2024-11-08T2000,1691A,116.0797,24.2719,梅州市,梅县新城,,45,45,34,30,20,66,,103,98,29,25,5,5,0.6,0.5
2024-11-08T2000,1692A,116.1248,24.2654,梅州市,环境监控中心,颗粒物(PM10),56,61,46,30,23,13,,97,84,74,34,6,17,0.7,0.5
2024-11-08T2000,3315A,116.1233,24.2991,梅州市,梅龙,,48,48,38,33,19,52,,96,89,32,21,6,7,0.7,0.5
2024-11-08T2000,1878A,104.7778,31.4741,绵阳市,富乐山,细颗粒物(PM2.5),75,73,70,55,58,40,,50,50,13,15,2,2,0.7,0.7
2024-11-08T2000,1879A,104.7563,31.4535,绵阳市,市人大,细颗粒物(PM2.5),75,90,85,55,56,32,,50,49,25,19,5,6,0.6,0.6
2024-11-08T2000,1880A,104.6697,31.4668,绵阳市,高新区自来水公司,细颗粒物(PM2.5),62,66,60,44,41,20,,53,46,33,22,3,4,0.8,0.8
2024-11-08T2000,1881A,104.7287,31.5075,绵阳市,三水厂,细颗粒物(PM2.5),83,77,69,61,63,24,,53,51,32,24,6,6,0.8,0.7
2024-11-08T2000,3491A,104.69,31.5322,绵阳市,西科大附属小学,颗粒物(PM10),66,82,71,46,46,10,,42,40,41,28,5,5,0.9,0.7
2024-11-08T2000,3492A,104.5648,31.5343,绵阳市,安州区旅游局,细颗粒物(PM2.5),89,68,63,66,61,32,,42,42,22,23,7,7,0.9,0.8
2024-11-08T2000,1784A,129.61,44.561,牡丹江市,环保大楼,细颗粒物(PM2.5),93,122,95,69,62,6,,30,20,65,44,15,13,1.1,0.7
2024-11-08T2000,1785A,129.6115,44.5782,牡丹江市,文化广场,细颗粒物(PM2.5),113,135,113,85,72,6,,26,18,66,49,21,31,1.4,0.8
2024-11-08T2000,1786A,129.5904,44.5963,牡丹江市,第一医院,细颗粒物(PM2.5),103,107,95,77,76,13,,34,26,53,39,13,12,1.2,0.8
2024-11-08T2000,1787A,129.6364,44.6075,牡丹江市,机车工厂,细颗粒物(PM2.5),127,156,109,96,63,12,,23,16,47,42,28,29,1.0,0.7
2024-11-08T2000,1788A,129.6386,44.5462,牡丹江市,第一中学,细颗粒物(PM2.5),192,194,74,144,53,4,,32,20,47,36,7,7,1.1,0.5
2024-11-08T2000,2531A,105.0703,29.61,内江市,市监测站,细颗粒物(PM2.5),74,,40,54,46,26,,29,29,34,27,10,10,0.8,0.8
2024-11-08T2000,2532A,105.0717,29.5947,内江市,东兴区政府,细颗粒物(PM2.5),64,48,41,46,37,19,,29,28,44,26,7,6,0.9,0.7
2024-11-08T2000,2533A,105.0653,29.5817,内江市,内江二中,细颗粒物(PM2.5),75,62,50,55,49,25,,31,26,39,28,7,7,0.8,0.7
2024-11-08T2000,2534A,105.0406,29.5822,内江市,内江日报社,细颗粒物(PM2.5),84,,47,62,42,19,,28,17,41,30,7,7,0.7,0.6
2024-11-08T2000,2628A,92.0657,31.4846,那曲市,那曲监测站,,49,49,73,29,39,43,,86,84,55,26,18,12,1.4,1
2024-11-08T2000,3128A,92.0506,31.4797,那曲市,那曲会议中心,颗粒物(PM10),53,56,78,19,31,69,,84,84,16,20,4,6,0.7,1
2024-11-08T2000,1290A,115.8931,28.6843,南昌市,省外办,"颗粒物(PM10),细颗粒物(PM2.5)",52,53,61,36,41,80,,107,104,31,30,7,10,0.7,0.6
2024-11-08T2000,1291A,115.8886,28.7003,南昌市,省林业公司,颗粒物(PM10),56,61,60,34,37,74,,109,105,34,33,14,10,0.6,0.4
2024-11-08T2000,1292A,115.8126,28.7442,南昌市,林科所,,44,44,43,27,26,74,,115,109,41,25,12,12,0.6,0.5
2024-11-08T2000,1294A,115.8518,28.687,南昌市,建工学校,颗粒物(PM10),57,64,53,32,31,80,,112,110,37,25,16,12,0.6,0.5
2024-11-08T2000,1295A,115.8921,28.6424,南昌市,象湖,颗粒物(PM10),51,51,50,33,34,89,,123,120,36,29,10,12,0.6,0.5
2024-11-08T2000,1296A,115.7423,28.7996,南昌市,武术学校,,33,27,25,23,11,41,,84,75,15,12,1,1,0.5,0.4
2024-11-08T2000,1298A,115.9314,28.6842,南昌市,省站,细颗粒物(PM2.5),77,96,78,56,41,76,,106,103,34,28,12,11,0.7,0.6
2024-11-08T2000,3046A,115.9084,28.6062,南昌市,机电学校,颗粒物(PM10),60,70,66,31,34,77,,113,110,42,32,10,10,0.5,0.4
2024-11-08T2000,3690A,115.9721,28.7031,南昌市,外国语学校,颗粒物(PM10),65,79,61,41,36,79,,110,107,36,29,12,10,0.9,0.7
2024-11-08T2000,1905A,106.056,30.8064,南充市,西山风景区,细颗粒物(PM2.5),84,84,55,62,49,35,,60,60,29,20,3,2,0.8,0.7
2024-11-08T2000,1906A,106.0789,30.8023,南充市,南充市委,细颗粒物(PM2.5),83,81,68,61,53,16,,50,50,49,27,3,3,0.9,0.6
2024-11-08T2000,1907A,106.1031,30.8217,南充市,南充炼油厂,细颗粒物(PM2.5),79,103,77,58,56,16,,47,47,40,26,3,3,0.8,0.7
2024-11-08T2000,1908A,106.1064,30.7856,南充市,高坪区监测站,细颗粒物(PM2.5),97,104,76,72,58,43,,56,56,48,31,8,3,0.6,0.5
2024-11-08T2000,1909A,106.0642,30.7636,南充市,嘉陵区环保局,细颗粒物(PM2.5),98,97,71,73,47,43,,66,66,44,30,5,4,0.8,0.7
2024-11-08T2000,1910A,106.1087,30.8388,南充市,市环境监测站,细颗粒物(PM2.5),85,97,71,63,52,28,,52,52,23,20,3,4,0.6,0.6
2024-11-08T2000,1151A,118.8086,32.1065,南京市,迈皋桥,,41,41,21,17,9,34,,91,83,53,26,4,4,0.7,0.4
2024-11-08T2000,1152A,118.7538,32.0551,南京市,草场门,,44,44,24,17,8,41,,91,83,62,31,4,4,0.4,0.3
2024-11-08T2000,1153A,118.7794,32.0745,南京市,山西路,,44,44,24,14,10,86,,116,110,31,10,4,4,0.5,0.4
2024-11-08T2000,1154A,118.7752,32.0023,南京市,中华门,颗粒物(PM10),51,51,27,19,11,18,,99,84,83,34,4,4,0.6,0.4
2024-11-08T2000,1155A,118.8109,32.0309,南京市,瑞金路,,46,46,27,22,12,42,,95,84,44,19,6,4,0.7,0.4
2024-11-08T2000,1156A,118.7997,32.0754,南京市,玄武湖,,44,43,25,10,4,23,,77,63,88,39,6,5,0.7,0.5
2024-11-08T2000,1157A,118.6414,32.0931,南京市,浦口,,37,37,30,24,14,52,,74,70,32,30,6,6,0.7,0.7
2024-11-08T2000,1158A,118.7356,31.9996,南京市,奥体中心,,47,47,30,14,14,59,,100,95,47,28,7,7,0.3,0.3
2024-11-08T2000,1159A,118.9125,32.1028,南京市,仙林大学城,,34,34,24,17,9,50,,94,86,38,21,5,5,0.5,0.4
2024-11-08T2000,3422A,118.8436,31.9198,南京市,江宁彩虹桥,颗粒物(PM10),55,59,37,19,14,25,,96,82,81,32,5,5,0.7,0.6
2024-11-08T2000,3423A,119.0138,31.6494,南京市,溧水永阳,颗粒物(PM10),53,56,36,24,18,54,,94,83,45,37,4,4,0.6,0.5
2024-11-08T2000,3424A,118.879,31.3302,南京市,高淳老职中,,35,35,36,23,20,80,,98,96,21,27,4,6,0.3,0.9
2024-11-08T2000,3427A,118.8554,32.3578,南京市,六合雄州,颗粒物(PM10),60,70,41,38,18,25,,78,71,48,26,5,6,0.5,0.4
2024-11-08T2000,1401A,108.3103,22.7881,南宁市,二十一中,,50,50,70,32,46,108,,166,163,41,44,9,11,0.9,0.9
2024-11-08T2000,1402A,108.3141,22.8528,南宁市,北湖,细颗粒物(PM2.5),62,52,70,44,44,98,,154,152,43,52,8,13,1.0,0.9
2024-11-08T2000,1403A,108.3206,22.8225,南宁市,市监测站,"颗粒物(PM10),细颗粒物(PM2.5)",52,54,69,36,45,104,,148,146,41,41,11,18,0.7,0.7
2024-11-08T2000,1404A,108.3829,22.8037,南宁市,大自然花园,颗粒物(PM10),54,57,51,32,33,115,,152,150,30,23,10,11,0.7,0.7
2024-11-08T2000,1405A,108.4394,22.7904,南宁市,仙葫,细颗粒物(PM2.5),75,,58,55,42,91,,130,127,34,38,9,11,0.9,0.7
2024-11-08T2000,1406A,108.2397,22.8467,南宁市,区农职院,颗粒物(PM10),67,83,63,39,39,93,,150,148,37,26,6,12,0.8,0.8
2024-11-08T2000,1407A,108.3275,22.735,南宁市,英华嘉园,,,157,74,,47,18,,158,140,108,52,10,13,1.3,0.8
2024-11-08T2000,1408A,108.2257,22.7757,南宁市,沙井镇街道办,颗粒物(PM10),108,166,87,60,52,12,,146,129,127,48,11,12,0.9,0.8
2024-11-08T2000,3401A,108.4834,22.7618,南宁市,红星社区,细颗粒物(PM2.5),69,68,54,50,35,92,,139,134,34,33,9,9,0.8,0.8
2024-11-08T2000,2331A,118.0966,26.6761,南平市,茫荡山,,,,,,,,,,,,,,,,
2024-11-08T2000,2332A,118.1681,26.6369,南平市,南平市监测站,,42,32,25,29,17,44,,90,79,29,22,3,3,0.6,0.4
2024-11-08T2000,2333A,118.1825,26.6489,南平市,南平铝业有限公司,,46,46,25,28,17,29,,88,74,40,21,4,3,0.5,0.4
2024-11-08T2000,2334A,118.1756,26.6272,南平市,南平七中,,33,,26,23,16,55,,91,83,19,19,3,3,0.5,0.4
2024-11-08T2000,1168A,120.9098,31.9663,南通市,狼山街道,,24,23,24,10,10,74,,96,92,16,14,6,6,0.4,0.4
2024-11-08T2000,1169A,120.86,32.0005,南通市,虹桥,,31,31,29,16,16,67,,91,86,23,22,6,6,0.4,0.3
2024-11-08T2000,1170A,120.87,32.02,南通市,城中,,35,35,34,15,15,60,,88,83,35,25,6,6,0.4,0.3
2024-11-08T2000,1171A,120.94,31.93,南通市,星湖花园,,25,25,25,12,15,69,,91,87,24,22,5,5,0.5,0.5
2024-11-08T2000,1172A,120.81,32.0417,南通市,紫琅学院,,35,35,25,16,12,51,,87,78,35,29,4,3,0.4,0.3
2024-11-08T2000,3291A,121.067,32.062,南通市,通州监测站,,34,34,26,19,12,83,,99,96,14,14,2,2,0.4,0.3
2024-11-08T2000,3432A,120.9348,31.9883,南通市,环境教育馆,,,,28,,13,72,,97,92,,22,5,4,0.4,0.4
2024-11-08T2000,2404A,112.5224,33.0122,南阳市,瓦房庄,颗粒物(PM10),77,103,72,55,52,46,,126,112,71,33,6,5,1.1,0.7
2024-11-08T2000,2405A,112.5003,32.9735,南阳市,汉画馆,颗粒物(PM10),74,98,74,49,41,22,,122,107,92,36,8,8,0.9,0.6
2024-11-08T2000,2406A,112.5573,33.027,南阳市,气象站,颗粒物(PM10),72,94,71,48,42,63,,131,123,68,34,7,6,0.8,0.7
2024-11-08T2000,2407A,112.5481,32.9689,南阳市,理工学院,细颗粒物(PM2.5),78,90,66,57,44,53,,122,116,64,29,7,6,0.8,0.6
2024-11-08T2000,4008A,112.5234,32.9922,南阳市,卧龙区政府,颗粒物(PM10),73,95,78,48,48,44,,120,106,78,37,6,5,1.0,0.7
2024-11-08T2000,1234A,121.8358,29.911,宁波市,区环保大楼,,40,40,31,10,9,38,,69,59,54,33,7,7,0.5,0.4
2024-11-08T2000,1235A,121.56,29.82,宁波市,万里学院,细颗粒物(PM2.5),53,45,34,37,17,46,,82,73,36,31,6,7,0.7,0.5
2024-11-08T2000,1236A,121.713,29.9572,宁波市,龙赛医院,,25,25,23,6,5,75,,85,85,27,20,8,8,0.6,0.5
2024-11-08T2000,1239A,121.633,29.7733,宁波市,钱湖水厂,颗粒物(PM10),59,68,46,32,19,31,,68,58,46,39,9,9,0.7,0.6
2024-11-08T2000,1240A,121.5856,29.8635,宁波市,太古小学,,41,41,34,18,16,74,,77,75,25,28,8,8,0.8,0.6
2024-11-08T2000,1241A,121.524,29.8674,宁波市,市环境监测中心,颗粒物(PM10),57,64,35,22,12,51,,81,72,38,29,10,10,0.7,0.5
2024-11-08T2000,2871A,121.6147,29.9017,宁波市,万里国际学校,,25,25,24,11,11,77,,79,76,33,38,8,8,0.6,0.5
2024-11-08T2000,3710A,121.5594,29.8975,宁波市,白沙活动中心,,27,27,25,10,9,85,,81,81,23,27,9,9,0.6,0.6
2024-11-08T2000,2339A,119.5001,26.6946,宁德市,金涵水库,,,,,,,,,,,,,,,,
2024-11-08T2000,2341A,119.5388,26.6612,宁德市,宁德市监测站,,39,39,34,25,16,65,,88,86,20,18,4,3,0.7,0.4
2024-11-08T2000,3209A,119.5231,26.6562,宁德市,宁德一中,,39,39,28,25,16,72,,94,91,16,13,2,2,0.5,0.3
2024-11-08T2000,2618A,98.8601,25.8567,怒江傈僳族自治州,州监测站,,39,39,19,19,11,11,,33,30,28,9,6,6,0.9,0.5
2024-11-08T2000,2619A,98.8546,25.8417,怒江傈僳族自治州,泸水一中,,34,34,12,18,6,5,,26,23,22,11,8,7,0.9,0.5
2024-11-08T2000,1888A,101.6891,26.571,攀枝花市,弄弄坪,,34,34,12,13,3,8,,60,44,46,14,14,9,1.3,0.6
2024-11-08T2000,1889A,101.5769,26.5928,攀枝花市,河门口,,20,20,7,10,4,23,,53,42,29,15,6,6,1.1,0.7
2024-11-08T2000,1890A,101.7169,26.585,攀枝花市,炳草岗,,22,22,12,8,5,6,,41,31,42,25,9,8,1.1,1
2024-11-08T2000,1891A,101.7369,26.5008,攀枝花市,仁和,,27,27,16,16,11,14,,42,35,31,27,8,18,2.2,2.3
2024-11-08T2000,2835A,101.7227,26.567,攀枝花市,四十中小,,26,20,14,7,9,6,,61,43,51,11,9,5,1.3,0.7
2024-11-08T2000,1604A,122.0303,41.1489,盘锦市,开发区,细颗粒物(PM2.5),63,,40,45,43,92,,97,96,18,23,7,12,0.5,0.5
2024-11-08T2000,1605A,122.0485,41.0883,盘锦市,兴隆台,细颗粒物(PM2.5),53,,40,37,41,99,,99,99,16,26,11,25,0.6,0.6
2024-11-08T2000,1606A,121.8297,41.1028,盘锦市,新生街道,,45,,34,31,42,107,,110,110,17,20,10,11,0.5,0.6
2024-11-08T2000,1832A,113.3257,33.742,平顶山市,新华旅馆,颗粒物(PM10),88,125,99,48,51,63,,99,97,49,33,9,8,0.5,0.5
2024-11-08T2000,1833A,113.2919,33.737,平顶山市,规划设计院,细颗粒物(PM2.5),77,102,95,56,53,72,,98,97,45,30,8,10,0.9,0.6
2024-11-08T2000,1834A,113.182,33.774,平顶山市,平顶山工学院,,,,83,,44,83,,104,104,,23,7,9,0.7,0.7
2024-11-08T2000,3204A,113.3025,33.73,平顶山市,规划局,颗粒物(PM10),80,110,92,50,53,74,,105,104,45,31,8,10,0.6,0.5
2024-11-08T2000,3594A,112.8867,33.9116,平顶山市,石龙区,颗粒物(PM10),78,105,101,52,53,76,,104,104,27,27,13,13,0.9,0.9
2024-11-08T2000,2656A,106.6692,35.5461,平凉市,聚贤嘉苑,细颗粒物(PM2.5),117,116,90,88,62,96,,83,83,33,39,10,10,0.7,0.8
2024-11-08T2000,2657A,106.7021,35.5307,平凉市,博物馆,,,,,,,,,,,,,,,,
2024-11-08T2000,2347A,114.0997,27.5002,萍乡市,武功山,,26,22,14,3,6,83,,72,,10,6,9,7,0.2,0.2
2024-11-08T2000,2348A,113.8385,27.6434,萍乡市,中医院,颗粒物(PM10),58,66,57,33,30,93,,118,116,32,22,13,31,0.6,0.7
2024-11-08T2000,2349A,113.8493,27.6253,萍乡市,市政府车库,细颗粒物(PM2.5),59,59,54,42,34,84,,114,112,33,25,9,22,1.0,1.2
2024-11-08T2000,2350A,113.8676,27.6435,萍乡市,市环保局,,48,48,57,29,33,93,,112,111,31,24,12,30,0.5,0.6
2024-11-08T2000,2351A,113.866,27.6198,萍乡市,安源区政府,细颗粒物(PM2.5),72,69,57,52,29,87,,117,115,30,23,20,24,0.7,0.9
2024-11-08T2000,2319A,119.0141,25.4325,莆田市,荔城区仓后路,,26,23,23,16,8,83,,96,94,13,7,2,2,0.4,0.3
2024-11-08T2000,2320A,119.0015,25.4553,莆田市,莆田市监测站,,30,17,19,8,6,94,,98,98,6,4,3,2,0.4,0.3
2024-11-08T2000,2321A,119.1119,25.4561,莆田市,涵江区六中,,,33,22,13,7,,,98,98,10,7,,2,0.4,0.4
2024-11-08T2000,2322A,119.1013,25.3215,莆田市,秀屿区政府,,32,32,28,12,8,95,,98,98,9,7,2,2,0.2,0.2
2024-11-08T2000,2323A,118.981,25.4792,莆田市,东圳水库,,,,,,,,,,,,,,,,
2024-11-08T2000,2392A,115.0312,35.7636,濮阳市,环保局,细颗粒物(PM2.5),57,55,49,40,36,78,,102,100,23,22,3,3,0.4,0.4
2024-11-08T2000,2394A,115.0574,35.7609,濮阳市,油田运输公司,颗粒物(PM10),62,74,56,42,35,68,,101,98,29,20,4,4,0.5,0.4
2024-11-08T2000,2395A,115.0866,35.7754,濮阳市,油田物探公司,,,70,62,42,38,,,101,101,30,26,6,6,0.3,0.3
2024-11-08T2000,3021A,115,35.7668,濮阳市,濮水河管理处,颗粒物(PM10),64,77,64,42,34,56,,89,84,34,24,3,3,0.5,0.4
2024-11-08T2000,2601A,100.98,22.7633,普洱市,市环保局,,30,,19,21,18,43,,64,53,10,11,6,6,0.6,0.5
2024-11-08T2000,2602A,100.9817,22.8322,普洱市,普洱第二中学,,23,17,18,16,15,36,,63,52,17,15,7,7,0.5,0.4
2024-11-08T2000,2262A,131.0518,45.8751,七台河市,新一中,细颗粒物(PM2.5),55,57,41,39,27,30,,58,46,32,24,12,13,1.0,1
2024-11-08T2000,3345A,131.0577,45.7879,七台河市,中波台,细颗粒物(PM2.5),79,105,55,58,32,8,,38,31,61,34,16,13,1.5,1.1
2024-11-08T2000,3637A,131.0176,45.7761,七台河市,人民广场,颗粒物(PM10),101,152,69,75,40,9,,33,22,60,38,10,12,1.4,1
2024-11-08T2000,3684A,130.8781,45.8222,七台河市,新建矿广场,颗粒物(PM10),111,171,127,62,40,4,,38,24,71,51,19,20,1.2,0.8
2024-11-08T2000,1779A,123.9305,47.3636,齐齐哈尔市,安居小区,,,143,185,,180,32,,58,53,61,44,11,9,1.0,0.9
2024-11-08T2000,1780A,123.9488,47.3386,齐齐哈尔市,中心广场,细颗粒物(PM2.5),125,117,193,95,176,32,,55,53,49,39,8,7,0.8,0.9
2024-11-08T2000,1781A,123.9483,47.3227,齐齐哈尔市,农牧车辆厂,,,117,183,74,142,35,,62,,50,39,7,8,,1
2024-11-08T2000,1783A,123.945,47.2988,齐齐哈尔市,市环境监测站,细颗粒物(PM2.5),94,101,189,70,161,70,,71,71,24,35,8,7,0.5,0.7
2024-11-08T2000,3662A,123.6333,47.2075,齐齐哈尔市,富区青少年活动中心,细颗粒物(PM2.5),159,178,184,121,128,66,,74,74,28,29,9,10,0.6,0.7
2024-11-08T2000,2591A,107.9783,26.5747,黔东南苗族侗族自治州,市环境监测站,,46,43,40,32,30,88,,109,106,27,24,8,6,0.5,0.4
2024-11-08T2000,2881A,107.8908,26.5311,黔东南苗族侗族自治州,凯里学院,,34,34,31,23,25,92,,117,113,23,18,6,6,0.4,0.4
2024-11-08T2000,2593A,107.5228,26.2403,黔南布依族苗族自治州,小围寨,,46,46,34,29,27,95,,118,113,14,13,7,7,0.2,0.2
2024-11-08T2000,3538A,107.5175,26.2978,黔南布依族苗族自治州,沙坝,,,56,41,31,26,86,,120,115,19,16,6,6,,0.5
2024-11-08T2000,2589A,104.9022,25.0925,黔西南布依族苗族自治州,场坝街,细颗粒物(PM2.5),82,71,55,60,46,52,,84,80,35,22,65,22,0.6,0.6
2024-11-08T2000,2590A,104.8811,25.0992,黔西南布依族苗族自治州,坪东大道,细颗粒物(PM2.5),77,62,49,56,46,21,,79,66,48,26,6,7,0.8,0.6
2024-11-08T2000,2502A,108.6236,21.9667,钦州市,市环保站,颗粒物(PM10),71,92,91,51,45,107,,135,133,29,35,14,13,1.2,1.5
2024-11-08T2000,2503A,108.6549,21.9481,钦州市,沙埠小学,颗粒物(PM10),75,100,86,40,44,82,,134,128,53,36,10,11,0.7,0.8
2024-11-08T2000,2504A,108.5989,21.7431,钦州市,港区一小,颗粒物(PM10),91,132,92,50,42,71,,140,134,74,37,12,11,0.8,0.9
2024-11-08T2000,3404A,108.5959,21.9633,钦州市,北职校,细颗粒物(PM2.5),88,96,76,65,52,77,,129,120,48,29,10,11,0.9,1.4
2024-11-08T2000,1042A,119.5134,39.8207,秦皇岛市,北戴河环保局,细颗粒物(PM2.5),69,74,81,50,52,84,,89,89,21,30,4,8,0.5,0.9
2024-11-08T2000,1043A,119.7493,40.0116,秦皇岛市,第一关,细颗粒物(PM2.5),107,89,94,80,72,69,,82,81,34,69,3,8,0.6,0.8
2024-11-08T2000,1044A,119.5897,39.9499,秦皇岛市,监测站,颗粒物(PM10),68,86,97,37,52,70,,82,81,49,60,5,9,0.6,1
2024-11-08T2000,1046A,119.5251,39.9041,秦皇岛市,建设大厦,细颗粒物(PM2.5),78,88,98,57,56,71,,85,84,38,47,14,10,0.5,0.9
2024-11-08T2000,3132A,119.610547,39.943889,秦皇岛市,文明里,细颗粒物(PM2.5),73,83,106,53,63,71,,84,84,46,53,4,7,0.4,0.8
