timepoint,stationcode,longitude,latitude,area,positionname,primarypollutant,aqi,pm10,pm10_24h,pm2_5,pm2_5_24h,o3,o3_24h,o3_8h,o3_8h_24h,no2,no2_24h,so2,so2_24h,co,co_24h
2026-03-23T1900,2568A,102.2503,31.8896,阿坝藏族羌族自治州,马师校,,27,27,18,7,7,48,48,68,66,13,10,5,5,0.4,0.4
2026-03-23T1900,3994A,102.2174,31.9016,阿坝藏族羌族自治州,马尔康中学西区,,19,15,15,3,8,58,58,71,70,9,8,4,4,0.3,0.3
2026-03-23T1900,2695A,80.2899,41.1684,阿克苏地区,电视台,颗粒物(PM10),120,170,134,61,60,120,120,108,108,5,27,4,3,0.7,0.9
2026-03-23T1900,2696A,80.2592,41.1541,阿克苏地区,艺术中心,细颗粒物(PM2.5),113,150,141,74,60,127,127,113,113,7,37,5,5,0.1,0.6
2026-03-23T1900,2205A,105.699,38.8409,阿拉善盟,蒙二幼,颗粒物(PM10),79,90,63,17,16,95,95,100,100,6,6,7,8,0.5,0.5
2026-03-23T1900,2206A,105.7198,38.8508,阿拉善盟,环保局新楼,颗粒物(PM10),63,67,58,23,15,90,90,94,94,6,6,7,8,0.3,0.4
2026-03-23T1900,2708A,88.1266,47.8515,阿勒泰地区,市站,,30,24,22,8,3,95,95,102,94,10,8,7,6,0.2,0.2
2026-03-23T1900,4166A,88.1198,47.7931,阿勒泰地区,阿勒泰路33号,,32,26,22,3,2,100,100,97,97,4,8,6,6,0.3,0.2
2026-03-23T1900,2630A,80.1171,32.4999,阿里地区,阿里监测站,,33,6,9,3,2,105,105,104,104,1,5,8,10,0.2,0.3
2026-03-23T1900,3192A,80.0906,32.5029,阿里地区,阿里藏医院,,35,6,7,3,3,109,109,110,110,1,4,5,6,0.1,0.2
2026-03-23T1900,2644A,109.0088,32.6974,安康市,汉滨区检察院,颗粒物(PM10),75,84,67,41,33,76,76,55,55,21,23,4,4,0.6,0.5
2026-03-23T1900,4054A,109.0324,32.6913,安康市,市邮政管理局,颗粒物(PM10),79,90,83,44,40,84,84,54,54,21,28,4,11,0.8,0.8
2026-03-23T1900,2291A,117.0806,30.5181,安庆市,环科院,细颗粒物(PM2.5),116,NA,53,77,51,108,108,97,97,19,43,9,9,1.0,1
2026-03-23T1900,2292A,117.0331,30.5118,安庆市,马山宾馆,细颗粒物(PM2.5),119,NA,50,80,51,99,99,95,95,23,36,6,6,1.1,1.1
2026-03-23T1900,2294A,116.9897,30.6146,安庆市,安庆大学,细颗粒物(PM2.5),101,72,56,61,44,120,120,110,110,13,24,4,4,0.9,0.9
2026-03-23T1900,3173A,117.0598,30.5351,安庆市,市人大,细颗粒物(PM2.5),107,70,54,67,45,96,96,94,94,32,37,8,8,1.0,0.9
2026-03-23T1900,3123A,105.9408,26.2431,安顺市,凤凰山,颗粒物(PM10),70,77,23,37,17,57,57,102,99,14,8,23,11,0.8,0.5
2026-03-23T1900,3124A,105.9443,26.2567,安顺市,金钟山,颗粒物(PM10),63,68,20,39,19,54,54,94,92,10,6,15,8,0.8,0.6
2026-03-23T1900,3125A,105.8983,26.248,安顺市,娄家坡,颗粒物(PM10),56,58,21,26,18,60,60,99,97,13,6,12,8,0.9,0.6
2026-03-23T1900,1819A,114.3552,36.1017,安阳市,红庙街,细颗粒物(PM2.5),135,143,106,98,58,132,132,116,116,18,34,5,6,0.6,0.6
2026-03-23T1900,1820A,114.361,36.0681,安阳市,银杏小区,细颗粒物(PM2.5),153,150,112,117,65,135,135,120,120,19,35,6,5,0.4,0.4
2026-03-23T1900,3141A,114.3921,36.0879,安阳市,信访局,细颗粒物(PM2.5),140,115,102,104,60,138,138,125,125,19,31,4,5,0.3,0.3
2026-03-23T1900,3669A,114.4706,36.0634,安阳市,左辅环卫站,细颗粒物(PM2.5),166,172,122,126,61,121,121,123,123,22,27,6,6,0.7,0.4
2026-03-23T1900,4117A,114.2918,36.0769,安阳市,钢三路198号,细颗粒物(PM2.5),201,215,139,151,63,108,108,106,106,26,34,6,6,0.8,0.6
2026-03-23T1900,1748A,123.0441,41.1201,鞍山市,深沟寺,细颗粒物(PM2.5),101,77,140,61,101,94,94,104,104,29,35,11,11,1.2,1.4
2026-03-23T1900,1749A,123.011,41.0931,鞍山市,太阳城,细颗粒物(PM2.5),110,75,153,71,122,99,99,102,102,26,42,12,14,1.3,1.7
2026-03-23T1900,1750A,123.0483,41.1445,鞍山市,太平,细颗粒物(PM2.5),126,120,153,88,111,NA,NA,109,109,66,41,14,12,1.8,1.7
2026-03-23T1900,1751A,122.964,41.0968,鞍山市,铁西三道街,细颗粒物(PM2.5),107,84,152,67,124,57,57,106,106,76,49,10,8,1.4,1.7
2026-03-23T1900,1753A,123.0219,41.0822,鞍山市,明达新区,细颗粒物(PM2.5),109,83,148,69,118,83,83,96,96,30,36,14,13,1.3,1.8
2026-03-23T1900,4201A,122.944647,41.082639,鞍山市,兴盛南路290号,细颗粒物(PM2.5),108,97,202,68,112,67,67,102,102,61,50,9,9,1.1,1.8
2026-03-23T1900,2195A,107.4206,40.7609,巴彦淖尔市,附二中,颗粒物(PM10),94,111,67,41,28,105,105,102,102,10,15,10,11,0.4,0.4
2026-03-23T1900,2196A,107.37,40.7372,巴彦淖尔市,市环保大楼,颗粒物(PM10),100,120,69,33,25,101,101,105,105,12,17,8,10,0.5,0.5
2026-03-23T1900,1956A,86.1476,41.7529,巴音郭楞蒙古自治州,孔雀公园,颗粒物(PM10),103,127,181,40,56,100,100,97,97,7,41,9,10,0.3,0.5
2026-03-23T1900,1957A,86.1971,41.7166,巴音郭楞蒙古自治州,棉纺厂,颗粒物(PM10),132,202,236,57,62,108,108,101,101,2,24,/,/,/,/
2026-03-23T1900,1958A,86.236,41.7172,巴音郭楞蒙古自治州,经济开发区,颗粒物(PM10),114,156,193,52,53,91,91,88,88,9,17,7,7,0.3,0.3
2026-03-23T1900,3181A,106.776805,31.852614,巴中市,市五中,,29,29,39,16,20,28,28,33,33,22,20,8,8,0.7,0.7
2026-03-23T1900,3183A,106.7419,31.8654,巴中市,圣泉水务公司,,33,33,36,18,18,24,24,47,45,28,15,9,9,0.9,0.7
2026-03-23T1900,3616A,106.7617,31.8343,巴中市,市中心医院,,27,27,40,17,23,28,28,36,36,22,24,10,10,0.7,0.7
2026-03-23T1900,2235A,122.7909,45.608,白城市,洮北区环保局,颗粒物(PM10),76,86,167,40,118,58,58,112,100,36,34,9,9,0.4,0.8
2026-03-23T1900,2236A,122.8741,45.5725,白城市,市环保局,颗粒物(PM10),63,68,163,37,118,17,17,98,87,65,42,9,9,0.4,0.8
2026-03-23T1900,2231A,126.4219,41.9172,白山市,喜丰,细颗粒物(PM2.5),80,75,89,50,72,70,70,104,101,32,17,10,9,1.0,1
2026-03-23T1900,2232A,126.4082,41.9416,白山市,环保局,细颗粒物(PM2.5),120,90,88,81,83,41,41,100,94,35,18,12,9,1.3,0.8
2026-03-23T1900,2647A,104.1727,36.5448,白银市,第三小学,颗粒物(PM10),65,71,130,27,46,102,102,104,104,8,15,14,11,0.3,0.2
2026-03-23T1900,2648A,104.1467,36.5482,白银市,动力公司,颗粒物(PM10),65,70,133,27,45,92,92,98,98,11,14,5,6,0.4,0.5
2026-03-23T1900,2512A,106.6102,23.901,百色市,市监测站,,28,27,66,19,57,60,60,55,55,10,24,15,21,0.5,0.9
2026-03-23T1900,2513A,106.6524,23.8842,百色市,市中心血站,,30,30,68,10,54,60,60,56,56,10,23,14,20,0.5,0.8
2026-03-23T1900,4133A,106.6273,23.8798,百色市,龙景西路,,29,29,91,11,62,64,64,54,54,9,25,16,24,0.4,0.8
2026-03-23T1900,2270A,117.396,32.9389,蚌埠市,工人疗养院,细颗粒物(PM2.5),112,109,113,73,73,136,136,143,143,26,39,5,6,0.4,0.5
2026-03-23T1900,2271A,117.3606,32.9428,蚌埠市,百货大楼,细颗粒物(PM2.5),108,100,101,68,72,131,131,141,140,26,39,5,6,0.5,0.6
2026-03-23T1900,2273A,117.4183,32.8909,蚌埠市,蚌埠学院,细颗粒物(PM2.5),104,95,93,64,73,110,110,135,132,50,44,15,9,0.5,0.6
2026-03-23T1900,2274A,117.3534,32.9672,蚌埠市,淮上区政府,细颗粒物(PM2.5),119,100,102,80,77,138,138,150,150,23,30,6,6,0.5,0.5
2026-03-23T1900,2275A,117.3143,32.8977,蚌埠市,高新区,细颗粒物(PM2.5),107,95,92,67,61,132,132,138,138,24,26,7,8,0.5,0.6
2026-03-23T1900,3715A,117.3091,32.9314,蚌埠市,蚌埠田家炳中学,细颗粒物(PM2.5),114,112,109,75,75,138,138,147,147,22,29,5,6,0.4,0.5
2026-03-23T1900,1585A,109.8761,40.6533,包头市,市环境监测站,颗粒物(PM10),72,80,105,32,59,108,108,130,130,28,48,14,14,0.8,0.8
2026-03-23T1900,1587A,109.9992,40.5843,包头市,包头八中,"颗粒物(PM10),细颗粒物(PM2.5)",78,89,93,49,64,108,108,120,120,30,43,14,14,0.6,0.7
2026-03-23T1900,1589A,109.8641,40.6288,包头市,惠龙物流,颗粒物(PM10),56,58,86,30,63,109,109,123,123,19,40,12,14,0.6,0.7
2026-03-23T1900,1590A,110.0376,40.5546,包头市,东河鸿龙湾,细颗粒物(PM2.5),100,69,84,60,61,119,119,128,128,31,52,15,13,0.6,0.8
2026-03-23T1900,3283A,109.9154,40.5684,包头市,滨河大厦,颗粒物(PM10),68,74,81,43,59,116,116,129,129,22,50,16,12,0.7,0.9
2026-03-23T1900,3419A,109.9449,40.6259,包头市,包头市委党校,颗粒物(PM10),55,56,80,35,57,116,116,123,123,21,47,14,16,0.5,0.9
2026-03-23T1900,3683A,109.8332,40.6577,包头市,昆区政府,颗粒物(PM10),65,70,84,26,63,92,92,124,124,45,46,15,15,1.1,0.9
2026-03-23T1900,1931A,107.0802,34.3129,宝鸡市,竹园沟,颗粒物(PM10),104,130,126,54,43,78,78,86,86,23,20,8,7,0.5,0.4
2026-03-23T1900,1933A,107.1429,34.3549,宝鸡市,监测站,颗粒物(PM10),110,144,137,57,44,78,78,73,73,30,27,9,7,0.4,0.3
2026-03-23T1900,1934A,107.1172,34.3759,宝鸡市,技工学校,颗粒物(PM10),109,143,137,53,43,80,80,78,78,32,23,6,6,0.6,0.5
2026-03-23T1900,1936A,107.2025,34.3518,宝鸡市,文理学院,颗粒物(PM10),112,150,143,60,47,83,83,73,73,24,27,6,5,0.6,0.5
2026-03-23T1900,1937A,107.2396,34.3626,宝鸡市,三迪小学,颗粒物(PM10),110,145,148,55,48,79,79,72,72,26,33,6,5,0.6,0.5
2026-03-23T1900,4155A,107.1721,34.3558,宝鸡市,滨河北路,颗粒物(PM10),119,169,164,54,44,75,75,72,72,33,29,7,7,0.7,0.6
2026-03-23T1900,4308A,107.3898,34.3601,宝鸡市,陈仓区北开路21号,颗粒物(PM10),101,121,152,56,53,86,86,80,80,22,37,8,20,0.5,0.6
2026-03-23T1900,1051A,115.4803,38.8568,保定市,游泳馆,细颗粒物(PM2.5),122,128,113,84,78,130,130,136,136,18,32,10,10,0.6,0.7
2026-03-23T1900,1052A,115.509,38.8895,保定市,华电二区,细颗粒物(PM2.5),120,110,97,81,72,129,129,138,138,17,29,3,3,0.7,0.7
2026-03-23T1900,1053A,115.4588,38.9037,保定市,接待中心,细颗粒物(PM2.5),122,116,109,84,76,131,131,139,139,19,30,4,4,0.5,0.5
2026-03-23T1900,1054A,115.4484,38.8344,保定市,地表水厂,细颗粒物(PM2.5),114,141,116,75,65,128,128,139,139,23,32,6,7,0.6,0.6
2026-03-23T1900,3581A,115.3136,38.9511,保定市,满城区生态环境分局,细颗粒物(PM2.5),106,132,127,66,63,131,131,146,146,18,32,7,7,0.5,0.6
2026-03-23T1900,3582A,115.4709,38.7628,保定市,清苑区第二中学,细颗粒物(PM2.5),123,147,120,85,70,114,114,132,132,24,29,6,7,0.5,0.5
2026-03-23T1900,3583A,115.6231,39.0223,保定市,徐水物探局,细颗粒物(PM2.5),122,146,137,84,83,134,134,143,143,22,32,3,3,0.6,0.6
2026-03-23T1900,4004A,115.4199,38.8665,保定市,双鹰农机,细颗粒物(PM2.5),128,149,134,90,78,134,134,144,144,22,28,4,5,0.6,0.5
2026-03-23T1900,4034A,115.515,38.8589,保定市,植保所站,细颗粒物(PM2.5),125,145,126,87,76,124,124,137,137,24,37,3,4,0.4,0.5
2026-03-23T1900,2594A,99.1589,25.1137,保山市,市环境监测站,,33,24,19,11,10,105,105,99,99,6,9,5,5,0.2,0.3
2026-03-23T1900,2595A,99.1616,25.1381,保山市,市环保局,,34,26,19,18,14,108,108,103,103,4,6,5,5,0.3,0.3
2026-03-23T1900,1867A,109.1435,21.4085,北海市,海滩公园,,43,43,32,18,14,81,81,89,89,18,8,7,7,0.6,0.5
2026-03-23T1900,1868A,109.0983,21.466,北海市,新市环保局,,33,33,30,17,13,82,82,83,83,10,8,8,8,0.4,0.5
2026-03-23T1900,1869A,109.1775,21.5232,北海市,北海工业园,,32,32,28,14,15,58,58,71,71,6,4,6,6,0.6,0.6
2026-03-23T1900,3400A,109.1844,21.4396,北海市,龙潭自来水厂,,38,38,31,12,15,75,75,81,81,8,5,6,4,0.6,0.6
2026-03-23T1900,1001A,116.3611,39.8786,北京市,万寿西宫,细颗粒物(PM2.5),108,99,125,68,83,147,147,146,146,21,25,3,4,0.7,0.9
2026-03-23T1900,1003A,116.4174,39.9289,北京市,东四,细颗粒物(PM2.5),106,101,131,66,85,143,143,144,144,19,24,7,8,0.5,0.7
2026-03-23T1900,1004A,116.4073,39.8858,北京市,天坛,细颗粒物(PM2.5),98,89,129,59,76,127,127,131,131,18,23,4,4,0.8,1
2026-03-23T1900,1005A,116.4622,39.9364,北京市,农展馆,细颗粒物(PM2.5),100,92,123,60,80,141,141,142,142,19,27,5,6,0.6,0.8
2026-03-23T1900,1006A,116.3399,39.9293,北京市,官园,细颗粒物(PM2.5),116,106,126,77,85,138,138,128,128,23,26,3,4,0.5,0.7
2026-03-23T1900,1007A,116.2879,39.9613,北京市,海淀万柳,细颗粒物(PM2.5),114,106,120,75,79,119,119,114,114,17,24,4,5,0.4,0.6
2026-03-23T1900,1008A,116.6635,40.1349,北京市,顺义新城,细颗粒物(PM2.5),88,93,137,54,88,120,120,139,139,19,16,6,7,0.4,0.6
2026-03-23T1900,1009A,116.6275,40.327,北京市,怀柔镇,细颗粒物(PM2.5),107,96,119,67,80,108,108,132,131,34,21,6,6,0.8,0.9
2026-03-23T1900,1010A,116.2295,40.217,北京市,昌平镇,细颗粒物(PM2.5),120,122,117,82,78,139,139,142,142,23,18,4,4,0.8,0.8
2026-03-23T1900,1011A,116.3968,39.982,北京市,奥体中心,细颗粒物(PM2.5),106,100,126,66,81,129,129,126,126,19,33,5,6,0.6,0.9
2026-03-23T1900,3418A,116.8336,40.4095,北京市,密云新城,细颗粒物(PM2.5),104,96,112,64,71,124,124,136,136,17,22,4,4,0.7,0.8
2026-03-23T1900,3671A,116.0879,39.9725,北京市,门头沟三家店,细颗粒物(PM2.5),131,147,137,94,81,132,132,136,136,27,40,5,5,0.7,0.7
2026-03-23T1900,3672A,116.1507,39.8246,北京市,丰台云岗,细颗粒物(PM2.5),110,113,123,71,77,142,142,145,145,20,22,5,5,0.7,0.8
2026-03-23T1900,3674A,115.9578,39.7602,北京市,房山燕山,细颗粒物(PM2.5),114,122,117,75,76,141,141,141,141,18,18,4,5,0.7,0.7
2026-03-23T1900,3675A,116.4669,39.7734,北京市,大兴旧宫,颗粒物(PM10),63,67,120,41,74,116,116,132,132,17,24,5,5,0.5,0.7
2026-03-23T1900,3694A,115.9859,40.4562,北京市,延庆石河营,细颗粒物(PM2.5),116,116,82,77,48,143,143,146,146,18,29,3,3,0.7,0.6
2026-03-23T1900,3695A,116.6151,40.3052,北京市,怀柔新城,细颗粒物(PM2.5),108,104,118,68,82,101,101,133,131,34,18,5,5,0.7,0.8
2026-03-23T1900,3696A,116.2542,39.8764,北京市,丰台小屯,细颗粒物(PM2.5),104,105,133,64,82,120,120,127,127,33,39,5,6,0.4,0.6
2026-03-23T1900,3697A,116.8399,40.3843,北京市,密云镇,细颗粒物(PM2.5),94,101,107,57,69,126,126,136,136,20,35,7,5,0.7,0.7
2026-03-23T1900,4057A,115.9423,40.4431,北京市,延庆百泉,细颗粒物(PM2.5),109,117,82,69,48,134,134,134,134,18,21,2,2,0.7,0.6
2026-03-23T1900,4058A,116.6598,39.9164,北京市,通州新华,细颗粒物(PM2.5),72,75,141,46,83,111,111,115,115,22,32,4,6,0.4,0.7
2026-03-23T1900,4182A,116.1942,39.9158,北京市,石景山八角,细颗粒物(PM2.5),112,124,132,73,77,124,124,128,128,23,27,2,5,0.6,0.7
2026-03-23T1900,4194A,117.078628,40.151726,北京市,平谷新城,细颗粒物(PM2.5),107,100,151,67,102,116,116,129,129,21,18,4,4,0.8,1
2026-03-23T1900,1761A,123.8274146,41.31234549,本溪市,大峪,细颗粒物(PM2.5),64,58,101,42,74,88,88,105,105,21,24,9,10,0.7,1.1
2026-03-23T1900,1763A,123.7169,41.3094,本溪市,彩屯,细颗粒物(PM2.5),134,133,126,97,77,NA,NA,123,123,45,27,9,10,1.1,1.4
2026-03-23T1900,1764A,123.7672166,41.28649327,本溪市,东明,细颗粒物(PM2.5),86,85,89,53,74,88,88,109,109,37,28,9,10,1.0,1.2
2026-03-23T1900,1765A,123.799345,41.266614,本溪市,新立屯,细颗粒物(PM2.5),82,81,82,51,72,34,34,106,101,62,20,7,7,0.8,1.1
2026-03-23T1900,1766A,123.829144,41.336777,本溪市,威宁,颗粒物(PM10),79,90,110,49,63,54,54,107,106,55,23,6,6,0.7,1.1
2026-03-23T1900,2587A,105.287,27.3133,毕节市,八中,,32,32,34,22,22,58,58,63,63,9,8,10,10,0.7,0.6
2026-03-23T1900,2588A,105.3079,27.2987,毕节市,师专,NA,NA,34,33,24,21,53,53,57,55,NA,9,8,9,0.6,0.6
2026-03-23T1900,4263A,105.3688,27.3598,毕节市,工业大道,,35,28,32,24,22,67,67,65,65,9,9,12,11,/,/
2026-03-23T1900,1629A,117.9961,37.3604,滨州市,第二水厂,细颗粒物(PM2.5),88,95,119,54,94,106,106,133,132,21,19,15,20,0.6,0.8
2026-03-23T1900,1630A,117.9789,37.3931,滨州市,北中新校,颗粒物(PM10),72,80,111,44,86,106,106,131,130,26,25,9,10,0.3,0.4
2026-03-23T1900,3514A,117.9379,37.3959,滨州市,中海酒店,颗粒物(PM10),67,73,106,43,82,113,113,134,134,23,21,11,11,0.5,0.7
2026-03-23T1900,3515A,117.9381509,37.35547456,滨州市,开发区一中,细颗粒物(PM2.5),101,105,121,61,90,107,107,128,127,15,12,39,25,0.7,0.8
2026-03-23T1900,3516A,118.0914,37.6938,滨州市,金海六路,细颗粒物(PM2.5),76,76,113,48,98,103,103,119,117,16,20,5,6,0.4,0.8
2026-03-23T1900,4028A,117.9955,37.3752,滨州市,滨州市西街道办事处,细颗粒物(PM2.5),84,92,119,52,87,107,107,133,131,19,19,12,14,0.7,0.9
2026-03-23T1900,2311A,115.8071,33.8399,亳州市,污水处理厂,细颗粒物(PM2.5),108,116,136,68,81,136,136,150,150,17,25,9,10,0.2,0.3
2026-03-23T1900,2312A,115.7789,33.8519,亳州市,三国揽胜宫,细颗粒物(PM2.5),111,NA,192,72,83,126,126,138,138,14,18,7,8,0.3,0.3
2026-03-23T1900,3332A,115.7631,33.803,亳州市,亳州学院,细颗粒物(PM2.5),104,113,128,64,80,133,133,141,141,12,13,7,8,0.3,0.3
2026-03-23T1900,2693A,82.0482,44.8553,博尔塔拉蒙古自治州,市党校,颗粒物(PM10),71,79,68,14,18,115,115,100,100,8,8,3,4,0.2,0.3
2026-03-23T1900,2694A,82.0805,44.8966,博尔塔拉蒙古自治州,市环保局,颗粒物(PM10),62,66,61,24,25,107,107,92,92,15,23,1,3,0.5,0.5
2026-03-23T1900,1071A,116.8733,38.2922,沧州市,沧县城建局,细颗粒物(PM2.5),145,128,120,109,86,91,91,112,112,41,29,7,5,1.0,0.9
2026-03-23T1900,1072A,116.8462,38.3189,沧州市,电视转播站,细颗粒物(PM2.5),149,140,117,113,97,99,99,115,115,37,26,6,3,0.7,0.6
2026-03-23T1900,1073A,116.8588,38.3161,沧州市,市环保局,细颗粒物(PM2.5),145,172,130,109,85,NA,NA,115,115,37,23,13,12,0.8,0.6
2026-03-23T1900,3324A,116.8011,38.294,沧州市,河北水利电力学院,细颗粒物(PM2.5),146,144,123,110,95,98,98,110,110,32,24,11,10,0.7,0.6
2026-03-23T1900,2622A,97.1813,31.1289,昌都市,昌都监测站,,35,16,13,3,5,110,110,97,97,5,8,5,5,0.6,0.7
2026-03-23T1900,3719A,97.1707,31.1428,昌都市,昌都会议中心,,38,9,10,6,7,119,119,106,106,5,5,6,5,0.4,0.4
2026-03-23T1900,2692A,87.2722,44.0298,昌吉回族自治州,新区政务中心,细颗粒物(PM2.5),100,NA,53,60,39,125,125,113,113,20,35,15,8,0.7,0.7
2026-03-23T1900,3613A,87.3069,44.0093,昌吉回族自治州,亚心广场,细颗粒物(PM2.5),92,80,75,56,37,133,133,115,115,21,36,18,13,0.8,0.8
2026-03-23T1900,4164A,87.2057,43.9289,昌吉回族自治州,财政所,细颗粒物(PM2.5),84,90,59,52,24,130,130,111,111,16,13,13,8,0.7,0.5
2026-03-23T1900,1120A,125.2874,43.9024,长春市,客车厂,细颗粒物(PM2.5),68,55,149,44,112,67,67,100,99,47,59,8,9,0.7,1.1
2026-03-23T1900,1121A,125.2943,43.8508,长春市,邮电学院,颗粒物(PM10),64,69,131,40,100,88,88,107,107,28,43,8,9,0.7,1
2026-03-23T1900,1122A,125.3648,43.8745,长春市,劳动公园,细颗粒物(PM2.5),62,59,142,41,110,82,82,105,105,30,41,9,9,0.6,1
2026-03-23T1900,1123A,125.3233,43.8781,长春市,园林处,细颗粒物(PM2.5),68,61,126,44,102,77,77,105,104,37,38,10,8,0.5,0.8
2026-03-23T1900,1124A,125.4604,43.7904,长春市,净月潭,细颗粒物(PM2.5),82,52,119,51,97,84,84,113,110,20,28,8,6,0.5,0.7
2026-03-23T1900,1126A,125.38,43.8422,长春市,经开区环卫处,细颗粒物(PM2.5),62,62,160,41,126,80,80,107,107,32,49,7,6,0.7,1.2
2026-03-23T1900,1127A,125.234,43.7761,长春市,高新区管委会,细颗粒物(PM2.5),76,71,129,48,101,45,45,108,102,57,46,8,7,0.7,1.1
2026-03-23T1900,1128A,125.1695,43.83,长春市,岱山公园,细颗粒物(PM2.5),86,69,124,53,94,42,42,108,100,74,54,7,7,0.5,0.7
2026-03-23T1900,4281A,125.334645,43.916281,长春市,北亚泰大街1068号,细颗粒物(PM2.5),64,63,147,42,105,62,62,93,92,48,54,10,10,0.5,1
2026-03-23T1900,1335A,113.082,28.2421,长沙市,经开区环保局,,35,29,23,24,16,25,25,28,28,34,30,3,3,0.8,0.7
2026-03-23T1900,1336A,112.8873,28.2202,长沙市,高开区环保局,,30,28,26,21,21,38,38,36,36,18,28,4,4,1.0,1
2026-03-23T1900,1337A,113.0785,28.2012,长沙市,马坡岭,,32,25,24,22,18,27,27,28,28,28,31,4,4,0.9,0.8
2026-03-23T1900,1338A,112.9448,28.1894,长沙市,湖南师范大学,,37,37,28,19,17,41,41,40,40,19,26,4,4,1.1,1.2
2026-03-23T1900,1339A,113.0177,28.1322,长沙市,雨花区环保局,,30,23,28,21,21,29,29,31,31,25,34,3,3,1.0,1.1
2026-03-23T1900,1340A,112.9795,28.2593,长沙市,伍家岭,,33,25,27,23,20,41,41,37,37,24,30,3,3,0.7,0.8
2026-03-23T1900,1341A,113.002,28.1944,长沙市,火车新站,,40,28,29,28,24,29,29,34,34,28,31,3,3,0.9,0.9
2026-03-23T1900,1342A,112.9846,28.1177,长沙市,天心区环保局,,43,NA,26,30,24,38,38,35,35,25,35,5,5,1.0,1.1
2026-03-23T1900,1343A,112.8906,28.1307,长沙市,湖南中医药大学,,23,22,23,16,18,42,42,43,43,16,25,5,5,0.8,0.9
2026-03-23T1900,1727A,113.1146,36.1547,长治市,清华站,细颗粒物(PM2.5),98,78,66,59,27,127,127,117,117,16,21,8,9,0.6,0.6
2026-03-23T1900,1730A,113.0887,36.2126,长治市,审计局,细颗粒物(PM2.5),96,88,54,58,23,122,122,117,117,22,16,9,9,0.6,0.5
2026-03-23T1900,1731A,113.0845,36.1856,长治市,长治八中,细颗粒物(PM2.5),98,100,85,59,32,125,125,116,116,14,16,10,11,0.6,0.6
2026-03-23T1900,2845A,113.1561,36.1912,长治市,德盛苑,细颗粒物(PM2.5),108,88,53,68,24,136,136,126,126,15,12,9,9,0.7,0.5
2026-03-23T1900,3568A,113.0603,36.0464,长治市,向阳小学,颗粒物(PM10),106,134,111,54,35,134,134,129,129,27,29,14,16,0.5,0.4
2026-03-23T1900,3569A,112.8788,36.315,长治市,屯留一中,NA,NA,89,76,46,27,107,107,115,115,21,27,NA,11,0.8,0.8
2026-03-23T1900,4189A,113.113092,36.199482,长治市,英华南巷50号,细颗粒物(PM2.5),96,91,65,58,25,129,129,122,122,22,18,6,7,0.7,0.6
2026-03-23T1900,4190A,113.23666,36.33435,长治市,学府街1号,细颗粒物(PM2.5),117,100,54,78,22,129,129,124,124,17,14,4,4,0.8,0.5
2026-03-23T1900,1854A,111.696,28.9725,常德市,市二中,,46,46,26,30,22,68,68,80,80,24,10,6,6,1.2,1.2
2026-03-23T1900,3138A,111.7152,29.0288,常德市,武陵区永安,NA,NA,40,25,30,20,NA,NA,84,84,13,10,5,3,0.9,0.9
2026-03-23T1900,3139A,111.6891,28.9881,常德市,鼎城区玉霞,,40,38,22,28,20,83,83,85,85,16,13,6,7,1.0,1
2026-03-23T1900,3140A,111.6651,29.0526,常德市,武陵区长庚,,42,35,23,29,22,78,78,81,81,10,8,6,6,1.1,1.1
2026-03-23T1900,1196A,119.9524,31.7586,常州市,市监测站,,43,43,92,19,50,88,88,99,99,26,42,10,13,0.6,0.9
2026-03-23T1900,1200A,119.9351,31.703,常州市,武进监测站,,37,37,82,14,48,81,81,93,93,22,34,6,11,0.4,0.7
2026-03-23T1900,3002A,119.9701,31.813,常州市,行政中心,,49,49,87,16,50,72,72,88,88,35,50,6,9,0.4,0.8
2026-03-23T1900,3003A,120.0434,31.7726,常州市,经开区,,44,44,88,17,41,85,85,98,98,24,45,10,14,1.0,1
2026-03-23T1900,3010A,119.8919,31.7892,常州市,钟楼,,40,40,72,15,46,87,87,100,100,32,42,8,11,0.2,0.4
2026-03-23T1900,3429A,119.8595,31.706,常州市,武进经发区,,33,33,64,19,39,83,83,97,97,28,50,9,10,0.8,1
2026-03-23T1900,3430A,119.5812,31.7256,常州市,金坛城区,,38,27,63,26,56,82,82,98,98,23,43,8,11,0.6,0.9
2026-03-23T1900,4089A,119.9551,31.863,常州市,崇义南街5-H号,,45,45,89,14,50,67,67,84,83,44,57,6,8,0.5,0.9
2026-03-23T1900,2220A,120.4318,41.588,朝阳市,西梁,细颗粒物(PM2.5),106,104,127,66,98,122,122,118,118,20,36,11,14,0.7,1
2026-03-23T1900,2221A,120.452,41.565,朝阳市,河畔小区,细颗粒物(PM2.5),102,74,117,62,86,NA,NA,124,124,15,31,8,12,0.5,0.7
2026-03-23T1900,2222A,120.4176,41.5648,朝阳市,八里堡,细颗粒物(PM2.5),96,104,117,58,92,121,121,118,118,19,37,10,12,0.6,0.8
2026-03-23T1900,3026A,116.6179,23.6608,潮州市,市政府,细颗粒物(PM2.5),56,55,57,38,38,125,125,160,160,14,16,4,6,0.6,0.6
2026-03-23T1900,4036A,116.646,23.676,潮州市,金山,细颗粒物(PM2.5),56,45,52,38,38,126,126,161,161,18,21,4,6,0.5,0.6
2026-03-23T1900,2473A,113.0116,25.8228,郴州市,市职中,"颗粒物(PM10),细颗粒物(PM2.5)",54,55,56,37,43,14,14,33,33,17,22,4,13,1.1,1.1
2026-03-23T1900,2475A,113.0381,25.8074,郴州市,市审计局,细颗粒物(PM2.5),64,54,56,42,44,8,8,28,28,17,18,4,17,/,/
2026-03-23T1900,2476A,113.0348,25.7757,郴州市,市环保局,细颗粒物(PM2.5),78,65,67,49,48,12,12,31,31,24,21,6,24,0.5,0.5
2026-03-23T1900,4252A,113.0138,25.8011,郴州市,好美居路49号,细颗粒物(PM2.5),68,59,52,44,43,12,12,33,32,23,24,3,15,/,/
2026-03-23T1900,1431A,103.9727,30.7242,成都市,金泉两河,颗粒物(PM10),63,67,48,24,22,66,66,74,74,22,19,1,2,0.3,0.3
2026-03-23T1900,1432A,104.1423,30.6765,成都市,十里店,颗粒物(PM10),61,65,49,27,23,69,69,69,69,16,18,5,5,0.4,0.4
2026-03-23T1900,1433A,104.0594,30.5765,成都市,三瓦窑,颗粒物(PM10),62,66,50,26,24,58,58,59,59,20,18,2,2,0.7,0.8
2026-03-23T1900,1434A,104.1122,30.6306,成都市,沙河铺,颗粒物(PM10),58,61,44,24,21,59,59,61,61,31,26,4,5,0.4,0.4
2026-03-23T1900,2880A,104.0219,30.6561,成都市,大石西路,颗粒物(PM10),58,60,48,21,22,72,72,51,NA,13,19,7,7,0.1,0.6
2026-03-23T1900,3136A,104.2724,30.559,成都市,龙泉驿区区政府,颗粒物(PM10),55,56,44,23,20,64,64,67,67,12,16,7,7,0.5,0.5
2026-03-23T1900,3357A,104.0028,30.6891,成都市,金博路,,48,48,38,21,21,75,75,75,75,21,24,5,6,0.6,0.6
2026-03-23T1900,3359A,104.056,30.5228,成都市,华阳,颗粒物(PM10),58,61,49,23,19,56,56,61,58,30,25,3,3,0.5,0.5
2026-03-23T1900,3488A,104.387954,30.746684,成都市,青石路225号,NA,NA,69,49,31,23,NA,NA,63,63,17,24,6,6,0.6,0.6
2026-03-23T1900,3489A,104.0788,30.4054,成都市,科学城,颗粒物(PM10),55,56,38,30,20,54,54,58,49,21,20,7,7,0.9,0.8
2026-03-23T1900,4011A,103.8505,30.6946,成都市,光华大道三段,颗粒物(PM10),61,65,45,38,19,67,67,82,82,33,21,3,3,0.5,0.5
2026-03-23T1900,4144A,104.3257,30.6406,成都市,八角井街185号,颗粒物(PM10),83,96,52,40,21,55,55,54,54,16,21,6,4,0.6,0.6
2026-03-23T1900,4224A,104.2433276,30.53529463,成都市,鲸龙路1057号,颗粒物(PM10),53,54,41,23,20,67,67,66,66,16,22,7,7,0.4,0.5
2026-03-23T1900,1062A,117.9531,40.908,承德市,铁路,细颗粒物(PM2.5),101,99,105,61,63,127,127,122,122,22,26,4,4,0.6,0.6
2026-03-23T1900,1063A,117.9397,40.9763,承德市,中国银行,细颗粒物(PM2.5),110,121,108,71,66,121,121,122,122,24,22,16,5,0.9,0.6
2026-03-23T1900,4073A,117.9462,40.95,承德市,杏林街1号,细颗粒物(PM2.5),117,114,112,78,72,142,142,132,132,12,18,5,6,0.6,0.6
2026-03-23T1900,4274A,117.7994,40.9605,承德市,滨河大街98号,细颗粒物(PM2.5),124,100,114,86,77,129,129,127,127,18,24,62,18,0.6,0.8
2026-03-23T1900,2314A,117.4698,30.6617,池州市,池州学院,细颗粒物(PM2.5),90,69,56,55,38,114,114,104,104,29,45,4,7,0.7,0.9
2026-03-23T1900,3237A,117.4918,30.6617,池州市,展览馆,细颗粒物(PM2.5),78,68,57,49,37,109,109,98,98,22,40,3,5,0.8,1
2026-03-23T1900,3333A,117.5626,30.695,池州市,第八中学,细颗粒物(PM2.5),64,61,54,42,33,104,104,97,97,24,42,4,5,0.7,1
2026-03-23T1900,3334A,117.5037,30.6242,池州市,第十二中学,细颗粒物(PM2.5),68,58,49,44,34,97,97,94,94,26,41,4,5,0.6,0.9
2026-03-23T1900,1744A,118.9229,42.2816,赤峰市,松山一中,细颗粒物(PM2.5),130,NA,62,92,45,111,111,100,100,21,32,6,6,0.7,0.6
2026-03-23T1900,1745A,118.9588,42.2733,赤峰市,哈达街,细颗粒物(PM2.5),122,91,70,84,48,95,95,94,94,25,29,10,15,0.8,0.7
2026-03-23T1900,1746A,118.8792,42.2551,赤峰市,天义路,细颗粒物(PM2.5),103,70,60,63,45,114,114,112,112,20,27,5,10,0.6,0.6
2026-03-23T1900,3058A,119.2656,42.0356,赤峰市,银河街,细颗粒物(PM2.5),135,122,131,98,83,115,115,132,131,26,27,38,19,0.8,0.9
2026-03-23T1900,3286A,118.9359,42.3146,赤峰市,桥北物流园区,细颗粒物(PM2.5),111,76,58,72,39,106,106,110,110,27,34,5,4,0.8,0.6
2026-03-23T1900,2521A,107.3473,22.4137,崇左市,市环保局江州分局,,48,48,114,26,88,67,67,65,65,9,18,8,9,0.5,0.8
2026-03-23T1900,4256A,107.375,22.3736,崇左市,石景林东路7号,颗粒物(PM10),55,57,68,28,57,79,79,70,70,11,18,3,4,0.6,0.8
2026-03-23T1900,3207A,118.31131,32.3033,滁州市,市政府原办公楼,细颗粒物(PM2.5),62,51,61,41,54,96,96,110,109,16,20,4,5,0.3,0.4
2026-03-23T1900,3331A,118.3268,32.2633,滁州市,图书馆,,45,45,70,26,40,97,97,110,109,15,20,9,9,0.3,0.4
2026-03-23T1900,4101A,118.3196,32.3335,滁州市,银山路666号,颗粒物(PM10),52,52,62,34,50,101,101,117,116,16,19,9,10,0.5,0.6
2026-03-23T1900,4102A,118.3426,32.2979,滁州市,黄山路555号,颗粒物(PM10),54,55,77,30,50,100,100,113,113,25,34,6,6,0.5,0.7
2026-03-23T1900,2606A,101.5379,25.0492,楚雄彝族自治州,市经济开发区,,34,26,25,21,18,107,107,111,111,9,15,4,14,0.6,0.5
2026-03-23T1900,4153A,101.5536,25.0343,楚雄彝族自治州,团结路562号,,37,23,19,15,14,117,117,119,119,5,9,2,4,0.3,0.3
2026-03-23T1900,2549A,107.5087,31.2186,达州市,市环境监测站,,23,23,39,8,18,48,48,46,46,21,31,5,6,0.3,0.3
2026-03-23T1900,2550A,107.4988,31.2132,达州市,凤凰小区,,24,24,39,8,20,47,47,50,50,23,30,4,6,0.4,0.4
2026-03-23T1900,2551A,107.5081,31.1987,达州市,达县机关宾馆,,24,24,39,14,26,44,44,42,42,29,37,3,5,0.6,0.5
2026-03-23T1900,2552A,107.4644,31.2124,达州市,市政中心,,26,26,42,14,20,27,27,41,40,29,31,6,6,0.5,0.5
2026-03-23T1900,2614A,100.2168,25.5818,大理白族自治州,大理市环境监测站,,23,NA,10,16,11,37,37,96,91,6,5,7,7,0.4,0.5
2026-03-23T1900,2615A,100.1542,25.7055,大理白族自治州,大理古城,,31,NA,13,16,10,99,99,109,109,11,8,5,5,0.3,0.3
2026-03-23T1900,1109A,121.6119,38.974,大连市,甘井子,细颗粒物(PM2.5),150,152,114,114,89,131,131,147,147,48,35,8,8,1.0,0.7
2026-03-23T1900,1110A,121.565,38.9509,大连市,周水子,细颗粒物(PM2.5),142,126,113,106,89,87,87,127,127,60,43,8,8,1.4,1
2026-03-23T1900,1111A,121.5637,38.8849,大连市,星海三站,细颗粒物(PM2.5),182,157,128,137,107,126,126,154,154,31,34,6,8,1.1,1.1
2026-03-23T1900,1112A,121.6301,38.9117,大连市,青泥洼桥,细颗粒物(PM2.5),173,155,132,131,106,134,134,156,156,34,40,6,6,1.8,1
2026-03-23T1900,1113A,121.6248,38.8643,大连市,傅家庄,细颗粒物(PM2.5),156,148,137,119,107,149,149,161,161,21,37,7,8,0.9,1
2026-03-23T1900,1114A,121.5117,38.8636,大连市,七贤岭,细颗粒物(PM2.5),185,182,129,139,102,117,117,156,154,43,26,10,8,1.3,0.9
2026-03-23T1900,1116A,121.7507,39.1339,大连市,金州,细颗粒物(PM2.5),135,117,119,98,91,52,52,112,105,59,30,9,10,1.4,1.1
2026-03-23T1900,1117A,121.7811,39.0495,大连市,开发区,细颗粒物(PM2.5),162,137,113,123,96,104,104,134,130,56,38,9,8,1.4,1
2026-03-23T1900,1118A,121.9762,39.0631,大连市,双D港,细颗粒物(PM2.5),140,146,134,104,101,118,118,161,156,51,23,7,6,1.0,1.2
2026-03-23T1900,4082A,121.2548,38.8188,大连市,旅顺,细颗粒物(PM2.5),180,155,99,136,73,NA,NA,135,135,37,25,7,8,1.1,0.8
2026-03-23T1900,1789A,124.8085,46.0381,大庆市,大同区,细颗粒物(PM2.5),128,141,172,90,122,60,60,108,100,62,51,15,18,0.8,1.1
2026-03-23T1900,1790A,125.1166,46.5255,大庆市,龙凤区,细颗粒物(PM2.5),112,129,95,73,66,52,52,97,92,66,36,6,8,0.7,0.5
2026-03-23T1900,1791A,124.8894,46.4007,大庆市,红岗区,NA,NA,NA,72,NA,58,105,105,102,102,33,31,NA,11,0.6,0.6
2026-03-23T1900,1792A,125.1391,46.578,大庆市,萨尔图区,细颗粒物(PM2.5),80,82,83,50,54,62,62,95,92,46,34,7,7,0.7,0.7
2026-03-23T1900,1793A,124.9026,46.6217,大庆市,让胡路区,颗粒物(PM10),68,74,75,42,57,81,81,99,97,32,25,4,6,0.8,0.8
2026-03-23T1900,3481A,125.127,46.6277,大庆市,萨区政府监测点,颗粒物(PM10),61,65,75,36,51,75,75,96,94,32,25,8,10,0.4,0.5
2026-03-23T1900,1723A,113.2926,40.0759,大同市,云冈宾馆,颗粒物(PM10),85,99,61,38,27,98,98,110,110,28,28,17,13,0.7,1.1
2026-03-23T1900,1724A,113.3437,40.0921,大同市,大同大学,颗粒物(PM10),74,83,61,34,24,119,119,125,125,18,25,6,13,0.6,0.8
2026-03-23T1900,1725A,113.2637,40.129,大同市,安家小村,颗粒物(PM10),79,90,75,43,31,110,110,115,115,17,27,17,19,0.6,1.3
2026-03-23T1900,3282A,113.3399,40.0586,大同市,大同市卫生学校,颗粒物(PM10),77,87,61,41,25,111,111,121,121,17,23,6,12,0.4,0.6
2026-03-23T1900,3565A,113.1371,40.1122,大同市,云冈站,颗粒物(PM10),80,91,83,33,27,104,104,112,112,17,32,8,13,0.7,0.8
2026-03-23T1900,3566A,113.1186,40.2556,大同市,图书馆,颗粒物(PM10),83,96,58,33,25,104,104,112,112,20,15,7,8,0.8,0.9
2026-03-23T1900,3567A,113.5931,40.0459,大同市,区一中,细颗粒物(PM2.5),96,81,56,58,27,115,115,122,122,23,12,13,12,1.1,1.1
2026-03-23T1900,4199A,113.2798248,40.09972476,大同市,魏都大道141号,颗粒物(PM10),76,86,72,42,31,109,109,116,116,17,26,12,13,0.6,1.1
2026-03-23T1900,2269A,124.1068,50.4091,大兴安岭地区,科技局,,33,33,22,10,11,84,84,87,87,4,3,8,7,0.5,0.5
2026-03-23T1900,3663A,124.117,50.4279,大兴安岭地区,红旗社区,,28,19,15,17,11,87,87,91,91,11,11,15,13,0.6,0.6
2026-03-23T1900,1600A,124.33,40.0625,丹东市,江湾东路,细颗粒物(PM2.5),92,64,81,56,68,70,70,116,110,46,22,9,9,0.8,0.7
2026-03-23T1900,1601A,124.4242,40.1513,丹东市,临江后街,细颗粒物(PM2.5),82,60,80,51,67,75,75,103,99,32,16,6,8,0.6,0.6
2026-03-23T1900,1602A,124.3935,40.1461,丹东市,元宝山,细颗粒物(PM2.5),66,51,80,43,67,96,96,101,101,16,17,6,6,0.5,0.7
2026-03-23T1900,1603A,124.3634,40.1093,丹东市,民主桥,细颗粒物(PM2.5),92,70,88,56,71,48,48,112,102,63,23,6,5,0.7,0.5
2026-03-23T1900,3541A,109.5726195,19.51688767,儋州市,第一中学子站,,31,31,28,16,15,77,77,76,76,5,6,6,7,0.4,0.4
2026-03-23T1900,3542A,109.5567,19.5187,儋州市,东坡学校子站,,28,28,26,18,17,83,83,83,83,6,6,6,7,0.4,0.4
2026-03-23T1900,2616A,98.5611,24.4273,德宏傣族景颇族自治州,德宏州监测站,,33,NA,17,23,21,103,103,90,90,6,9,7,7,0.7,0.9
2026-03-23T1900,3677A,98.5887,24.4366,德宏傣族景颇族自治州,芒市人民政府综合楼,,41,41,33,19,17,96,96,82,82,12,12,3,2,0.6,0.8
2026-03-23T1900,1901A,104.424,31.1209,德阳市,东山公园,颗粒物(PM10),53,53,45,24,17,77,77,74,74,7,15,3,4,0.5,0.5
2026-03-23T1900,1902A,104.3827,31.1318,德阳市,西小区,颗粒物(PM10),58,61,54,23,17,76,76,73,73,12,17,5,6,0.6,0.7
2026-03-23T1900,1904A,104.3553,31.1091,德阳市,耐火材料厂,颗粒物(PM10),56,58,51,24,17,80,80,75,75,12,18,2,3,0.4,0.5
2026-03-23T1900,4145A,104.4144,31.1495,德阳市,市林业局,颗粒物(PM10),59,62,49,25,19,74,74,76,76,11,15,6,7,0.4,0.5
2026-03-23T1900,1622A,116.3034,37.4675,德州市,儿童乐园,细颗粒物(PM2.5),119,127,119,80,77,132,132,137,137,26,25,15,14,0.7,0.8
2026-03-23T1900,1624A,116.2992,37.4449,德州市,监理站,细颗粒物(PM2.5),114,129,114,75,71,142,142,147,147,30,27,5,6,0.8,0.9
2026-03-23T1900,3066A,116.2722,37.438,德州市,九衢泉纯净水厂,细颗粒物(PM2.5),116,122,106,77,69,139,139,143,143,26,26,8,7,0.6,0.7
2026-03-23T1900,3371A,116.3693,37.44,德州市,开发区人民医院,细颗粒物(PM2.5),115,124,114,76,71,125,125,135,135,32,27,11,10,0.6,0.6
2026-03-23T1900,3511A,116.5687,37.3331,德州市,陵城艺术中心,细颗粒物(PM2.5),119,117,113,80,80,128,128,135,135,20,18,12,11,0.9,0.9
2026-03-23T1900,4292A,116.352738,37.420875,德州市,新河东路,细颗粒物(PM2.5),115,122,111,76,68,127,127,135,135,22,23,13,12,0.7,0.7
2026-03-23T1900,2621A,99.7054,27.8319,迪庆藏族自治州,迪庆州站,,33,21,12,6,7,104,104,98,98,8,7,6,6,0.6,0.6
2026-03-23T1900,3180A,99.7122,27.8129,迪庆藏族自治州,质量技术监督局,,35,25,16,8,6,112,112,107,107,9,7,6,6,0.5,0.4
2026-03-23T1900,4257A,104.6092,35.5962,定西市,将台街,颗粒物(PM10),108,139,115,54,36,NA,NA,105,105,9,17,12,10,NA,0.4
2026-03-23T1900,4309A,104.6159,35.5701,定西市,正龙路62号,颗粒物(PM10),112,150,124,51,40,101,101,95,95,15,14,7,5,0.5,0.5
2026-03-23T1900,4071A,114.9883,38.5232,定州市,交通局,细颗粒物(PM2.5),119,134,103,80,55,114,114,134,134,28,32,12,13,0.6,0.6
2026-03-23T1900,4072A,115.0045,38.5136,定州市,第五中学,颗粒物(PM10),108,139,113,NA,52,117,117,137,134,24,33,8,9,0.5,0.5
2026-03-23T1900,1390A,113.7943,23.0132,东莞市,东城石井,,40,40,36,23,22,125,125,141,141,29,25,5,4,0.6,0.6
2026-03-23T1900,1391A,113.7384,22.9659,东莞市,南城西平,,39,36,34,21,22,122,122,129,129,25,21,6,5,0.6,0.6
2026-03-23T1900,3319A,113.7283,23.041,东莞市,万江金泰,,39,39,47,12,25,110,110,136,136,28,25,6,6,0.7,0.7
2026-03-23T1900,4129A,113.8666,23.1062,东莞市,裕兴路,,39,38,48,19,26,123,123,162,162,28,25,7,7,0.7,0.7
2026-03-23T1900,4130A,114.0076,22.9739,东莞市,教育路1号,颗粒物(PM10),57,59,59,30,32,95,95,156,155,44,32,6,6,0.7,0.8
2026-03-23T1900,4131A,113.7981,22.8124,东莞市,长怡路1号,,45,45,42,24,23,109,109,110,110,29,29,5,5,0.7,0.7
2026-03-23T1900,1666A,118.6612,37.4313,东营市,市环保局,细颗粒物(PM2.5),109,85,108,69,94,119,119,124,124,22,14,6,8,0.6,0.6
2026-03-23T1900,3036A,118.6903,37.4337,东营市,开发区管委会,细颗粒物(PM2.5),115,91,104,76,97,132,132,132,132,25,18,6,8,0.6,0.6
2026-03-23T1900,3365A,118.5721,37.5654,东营市,垦利区民丰路,细颗粒物(PM2.5),104,80,88,64,85,124,124,130,130,20,16,2,2,0.9,0.9
2026-03-23T1900,3498A,118.5063,37.8606,东营市,河口城区,细颗粒物(PM2.5),123,127,110,85,94,126,126,134,134,21,18,12,10,0.8,0.7
2026-03-23T1900,3646A,118.4979,37.4623,东营市,胜利站,细颗粒物(PM2.5),78,74,112,49,84,104,104,116,116,22,14,7,8,0.7,0.8
2026-03-23T1900,3734A,118.5753,37.4405,东营市,理想之城,NA,NA,78,109,NA,86,123,123,128,128,NA,23,3,5,0.8,0.9
2026-03-23T1900,1591A,110.0024,39.8127,鄂尔多斯市,综合楼,颗粒物(PM10),78,88,83,27,43,108,108,106,106,19,32,7,11,0.5,0.5
2026-03-23T1900,1592A,109.9485,39.8259,鄂尔多斯市,巴音孟克林场办事处,颗粒物(PM10),79,90,80,22,41,116,116,110,110,12,30,5,10,0.3,0.5
2026-03-23T1900,1593A,109.7734,39.5987,鄂尔多斯市,康泽苑,颗粒物(PM10),88,102,65,31,23,124,124,117,117,13,27,8,9,0.3,0.4
2026-03-23T1900,1594A,109.8121,39.5987,鄂尔多斯市,华泰汽车城,颗粒物(PM10),84,97,68,30,25,124,124,119,119,16,42,6,7,0.4,0.5
2026-03-23T1900,1595A,109.9734,39.7884,鄂尔多斯市,奥林花园,颗粒物(PM10),79,90,87,28,40,113,113,110,110,14,39,5,8,0.3,0.5
2026-03-23T1900,2436A,114.894,30.3989,鄂州市,市政府,颗粒物(PM10),73,82,86,46,52,41,41,60,60,35,39,8,10,0.7,0.8
2026-03-23T1900,2437A,114.8986,30.3714,鄂州市,赵家坝,细颗粒物(PM2.5),82,72,94,51,52,47,47,72,72,28,28,7,9,1.0,1.1
2026-03-23T1900,3654A,114.8093,30.4091,鄂州市,精准医疗中心,细颗粒物(PM2.5),84,77,91,52,57,42,42,59,59,44,40,4,13,0.9,1
2026-03-23T1900,2454A,109.4978,30.2979,恩施土家族苗族自治州,湖北民院,,43,30,41,30,27,45,45,53,50,21,17,6,6,0.9,0.7
2026-03-23T1900,3549A,109.5061,30.3771,恩施土家族苗族自治州,龙凤新区,,26,19,33,18,22,39,39,42,42,17,9,7,7,0.5,0.4
2026-03-23T1900,2499A,108.3411,21.6159,防城港市,沙万,,43,43,44,14,19,61,61,59,59,12,22,6,6,0.5,0.6
2026-03-23T1900,2500A,108.3515,21.7733,防城港市,防城档案局,,32,32,39,15,24,69,69,66,66,7,13,5,6,0.4,0.6
2026-03-23T1900,2501A,108.3506,21.6414,防城港市,大海花园,,34,34,42,19,22,70,70,70,70,17,23,8,11,0.4,0.5
2026-03-23T1900,1371A,113.1293,23.0065,佛山市,湾梁,,46,46,43,29,31,137,137,142,142,15,16,/,/,/,/
2026-03-23T1900,1372A,113.1082,23.0477,佛山市,华材职中,细颗粒物(PM2.5),52,51,46,36,32,138,138,143,143,18,18,7,7,0.5,0.4
2026-03-23T1900,1373A,113.1439,23.045,佛山市,南海气象局,,46,41,44,32,30,124,124,138,138,21,20,/,/,/,/
2026-03-23T1900,1374A,113.2879,22.8094,佛山市,顺德苏岗,颗粒物(PM10),55,57,43,28,28,117,117,134,134,20,19,/,/,0.5,0.6
2026-03-23T1900,1376A,112.8384,22.8678,佛山市,高明孔堂,,44,44,31,25,19,101,101,98,98,16,14,/,/,/,/
2026-03-23T1900,1377A,112.8835,23.1584,佛山市,三水监测站,颗粒物(PM10),56,58,47,33,32,81,81,104,104,46,33,4,5,0.5,0.5
2026-03-23T1900,1378A,112.8668,23.185,佛山市,三水云东海,颗粒物(PM10),56,58,54,31,29,83,83,106,106,20,24,/,/,/,/
2026-03-23T1900,3625A,113.2568,22.7629,佛山市,容桂街道办,,44,44,37,24,28,107,107,124,124,26,23,/,/,/,/
2026-03-23T1900,1282A,119.2681,26.0506,福州市,师大,,30,16,34,3,22,96,96,96,96,16,22,3,4,0.3,0.4
2026-03-23T1900,1283A,119.2983,26.1028,福州市,五四北路,,26,26,34,12,25,83,83,94,94,22,24,4,5,0.4,0.6
2026-03-23T1900,1284A,119.2648,26.0769,福州市,杨桥西路,,31,16,33,7,22,98,98,100,100,15,21,4,5,/,/
2026-03-23T1900,3048A,119.5799,26.0937,福州市,九龙,,33,10,19,3,16,103,103,99,99,8,15,4,4,0.3,0.3
2026-03-23T1900,3526A,119.5188,25.9666,福州市,吴航,,32,6,28,3,18,102,102,95,95,10,20,4,5,0.6,0.6
2026-03-23T1900,4104A,119.3106,26.0648,福州市,路通桥巷6号,,28,17,35,12,25,87,87,94,94,13,19,/,/,/,/
2026-03-23T1900,1755A,123.7974,41.8494,抚顺市,望花区,颗粒物(PM10),65,71,152,38,103,93,93,114,114,30,27,13,18,0.6,1.1
2026-03-23T1900,1756A,123.9161,41.8827,抚顺市,顺城区,,49,47,127,34,104,70,70,115,115,45,25,10,11,0.9,1.1
2026-03-23T1900,1757A,124.0437,41.8615,抚顺市,东洲区,颗粒物(PM10),55,56,123,25,86,86,86,112,112,21,15,55,13,0.6,0.9
2026-03-23T1900,1758A,123.9246,41.8638,抚顺市,新抚区,颗粒物(PM10),60,63,136,25,94,66,66,119,118,40,22,8,9,0.6,1
2026-03-23T1900,1759A,124.0972,41.8961,抚顺市,大伙房水库,,48,48,98,28,61,126,126,127,127,10,12,9,10,0.5,0.8
2026-03-23T1900,1760A,123.708,41.8386,抚顺市,沈抚新城,颗粒物(PM10),69,76,139,40,89,81,81,102,102,40,36,8,10,0.7,1.4
2026-03-23T1900,2377A,116.3544,27.9833,抚州市,市站,,16,16,22,3,15,35,35,32,32,15,9,6,11,1.1,1.1
2026-03-23T1900,2378A,116.3562,27.9631,抚州市,血防站,,18,18,26,10,17,31,31,29,29,20,13,4,7,0.9,1
2026-03-23T1900,2379A,116.3561,28.0007,抚州市,采茶剧团,NA,NA,NA,26,4,13,34,34,30,30,20,11,5,9,0.8,0.8
2026-03-23T1900,2380A,116.3854,27.9648,抚州市,医学分院,,37,37,31,3,13,41,41,35,35,16,12,5,8,1.3,1.2
2026-03-23T1900,2207A,121.6095,41.9978,阜新市,工业园区,细颗粒物(PM2.5),100,94,112,60,76,99,99,116,113,19,34,14,14,0.6,0.8
2026-03-23T1900,2208A,121.6567,42.0188,阜新市,长青街,细颗粒物(PM2.5),84,56,76,52,62,108,108,114,113,21,36,11,11,0.6,1
2026-03-23T1900,2209A,121.6672,42.07,阜新市,农业园区,细颗粒物(PM2.5),86,80,73,53,49,112,112,112,112,20,19,8,10,0.5,0.8
2026-03-23T1900,2211A,121.6343,42.0455,阜新市,玉龙新城,细颗粒物(PM2.5),98,75,92,59,64,104,104,116,115,20,43,16,11,0.7,0.9
2026-03-23T1900,2301A,115.8276,32.8929,阜阳市,市监测站,颗粒物(PM10),87,101,109,46,63,124,124,126,126,16,33,5,6,0.5,0.5
2026-03-23T1900,2303A,115.8551,32.8606,阜阳市,开发区,颗粒物(PM10),92,108,122,43,62,112,112,120,120,16,22,5,6,0.6,0.6
2026-03-23T1900,2875A,115.783962,32.889217,阜阳市,阜阳职业技术学院,颗粒物(PM10),72,80,97,42,49,128,128,131,131,14,18,6,8,0.7,0.8
2026-03-23T1900,3468A,115.79,32.8614,阜阳市,市规划展馆,颗粒物(PM10),88,102,109,45,62,131,131,137,137,16,19,8,9,0.5,0.6
2026-03-23T1900,3469A,115.835101,32.918568,阜阳市,枣园社区,颗粒物(PM10),91,107,113,52,71,115,115,122,122,16,26,6,6,0.4,0.5
2026-03-23T1900,2669A,102.9097,34.9841,甘南藏族自治州,州政府,颗粒物(PM10),97,115,90,48,42,101,101,93,93,7,9,7,5,0.5,0.4
2026-03-23T1900,3380A,102.8915,34.9618,甘南藏族自治州,甘肃民族师范学院,颗粒物(PM10),105,132,101,48,36,116,116,110,110,12,14,9,3,0.8,0.6
2026-03-23T1900,2570A,101.96,30.048,甘孜藏族自治州,水桥子,,22,10,11,3,4,69,69,70,70,5,9,6,6,0.2,0.2
2026-03-23T1900,3065A,101.9534,29.9976,甘孜藏族自治州,州环保局,NA,NA,NA,9,7,6,62,62,69,69,14,12,4,5,NA,0.3
2026-03-23T1900,2363A,114.9368,25.8663,赣州市,地委,颗粒物(PM10),55,56,41,36,29,44,44,102,102,16,14,4,4,1.1,1
2026-03-23T1900,2364A,114.946,25.8483,赣州市,气象台,细颗粒物(PM2.5),58,57,44,39,32,65,65,114,114,15,16,5,5,0.9,0.8
2026-03-23T1900,2365A,114.932,25.8332,赣州市,市图书馆,细颗粒物(PM2.5),74,57,40,47,30,71,71,102,102,18,14,4,4,1.0,0.9
2026-03-23T1900,2366A,114.8905,25.8472,赣州市,华坚鞋城,细颗粒物(PM2.5),68,63,43,44,29,56,56,108,108,18,16,5,7,0.6,0.5
2026-03-23T1900,3109A,115.0094,25.8614,赣州市,赣县区卫计委,细颗粒物(PM2.5),72,57,40,46,29,81,81,99,96,22,20,3,3,0.8,0.8
2026-03-23T1900,2684A,106.2753,36.0057,固原市,监测站,颗粒物(PM10),101,122,88,42,29,106,106,106,106,12,13,10,9,0.3,0.3
2026-03-23T1900,2685A,106.2384,36.0189,固原市,新区,颗粒物(PM10),100,120,99,37,29,107,107,113,113,12,12,8,8,0.3,0.3
2026-03-23T1900,2544A,106.6307,30.4577,广安市,市委,,18,18,34,9,26,44,44,48,45,12,13,6,6,0.5,0.6
2026-03-23T1900,2545A,106.6266,30.4662,广安市,友谊中学,,19,19,35,12,23,47,47,51,51,11,12,7,6,0.8,0.8
2026-03-23T1900,2547A,106.6386,30.4551,广安市,广电花园,,26,26,42,13,28,45,45,46,46,12,14,4,5,0.7,0.7
2026-03-23T1900,2902A,106.6347,30.4868,广安市,北辰小学,,20,18,33,14,28,43,43,46,46,9,11,6,6,0.7,0.7
2026-03-23T1900,2524A,105.8211,32.4444,广元市,老城,,30,30,54,10,19,88,88,81,81,18,34,9,10,0.6,0.8
2026-03-23T1900,2526A,105.8629,32.429,广元市,监测站,,30,30,52,10,19,91,91,81,81,13,28,5,5,0.5,0.7
2026-03-23T1900,3617A,105.8047,32.4167,广元市,经开区,,33,33,62,15,23,83,83,76,76,18,36,4,4,0.5,0.7
2026-03-23T1900,1345A,113.2346,23.1423,广州市,广雅中学,,44,44,47,26,27,124,124,129,129,21,25,3,4,0.8,0.8
2026-03-23T1900,1346A,113.2611,23.105,广州市,市五中,,45,42,44,30,31,142,142,158,158,23,26,8,9,/,/
2026-03-23T1900,1348A,113.3477,23.0916,广州市,广东商学院,,48,48,47,29,29,125,125,134,134,23,31,5,5,0.7,0.8
2026-03-23T1900,1349A,113.4332,23.105,广州市,市八十六中,,34,32,39,18,24,108,108,139,139,40,36,5,5,/,/
2026-03-23T1900,1350A,113.3506,22.9488,广州市,番禺中学,,38,29,46,26,28,121,121,149,149,20,21,4,4,0.8,0.8
2026-03-23T1900,1351A,113.2147,23.3918,广州市,花都师范,"颗粒物(PM10),细颗粒物(PM2.5)",58,60,51,39,31,154,154,137,137,25,30,5,7,0.9,0.8
2026-03-23T1900,1352A,113.2599,23.1329,广州市,市监测站,,46,46,48,27,27,120,120,136,136,21,22,2,3,/,/
2026-03-23T1900,1353A,113.5618,23.3119,广州市,九龙镇镇龙,颗粒物(PM10),57,59,54,37,31,141,141,138,138,40,38,6,6,0.5,0.6
2026-03-23T1900,1354A,113.2764,23.1544,广州市,麓湖,,44,44,47,27,28,134,134,148,148,17,24,4,4,0.7,0.8
2026-03-23T1900,2846A,113.3209,23.1323,广州市,体育西,,46,45,48,32,28,137,137,144,144,27,26,6,7,0.8,0.8
2026-03-23T1900,3298A,113.5718,23.5493,广州市,从化街口,细颗粒物(PM2.5),82,86,59,51,40,151,151,140,140,27,25,6,6,0.9,0.8
2026-03-23T1900,3299A,113.3463,23.369,广州市,白云竹料,颗粒物(PM10),62,66,54,40,31,148,148,148,148,28,30,4,4,0.8,0.7
2026-03-23T1900,3300A,113.2981,23.2365,广州市,白云嘉禾,颗粒物(PM10),60,63,54,34,30,138,138,152,152,36,34,8,8,/,/
2026-03-23T1900,3301A,113.4256,23.1716,广州市,黄埔科学城,,50,50,48,33,32,143,143,168,168,38,28,8,8,0.6,0.6
2026-03-23T1900,3302A,113.3942,23.0485,广州市,番禺大学城,,43,40,46,21,31,135,135,163,163,24,25,6,6,0.5,0.6
2026-03-23T1900,3303A,113.4923,22.8169,广州市,南沙黄阁,,39,34,37,18,24,122,122,132,132,16,21,6,6,/,/
2026-03-23T1900,3304A,113.534,22.7893,广州市,南沙街,,48,48,33,16,22,108,108,120,120,13,13,8,8,0.5,0.5
2026-03-23T1900,3443A,113.2905,23.5541,广州市,花都梯面,颗粒物(PM10),60,64,50,34,29,122,122,119,119,19,27,8,8,/,/
2026-03-23T1900,3445A,113.786,23.7479,广州市,从化良口,细颗粒物(PM2.5),66,59,39,43,30,118,118,126,126,27,16,4,4,/,/
2026-03-23T1900,3446A,113.805,23.2614,广州市,增城荔城,,42,36,52,22,35,133,133,166,166,21,28,7,6,0.5,0.6
2026-03-23T1900,2506A,109.604387,23.066791,贵港市,江南子站,颗粒物(PM10),67,73,105,33,61,63,63,70,70,18,32,9,10,0.7,0.9
2026-03-23T1900,2508A,109.5669,23.1065,贵港市,荷城子站,颗粒物(PM10),58,61,80,32,62,65,65,69,69,15,32,9,10,0.7,0.9
2026-03-23T1900,3405A,109.5886,23.1172,贵港市,新世纪学校,颗粒物(PM10),68,75,94,32,68,65,65,76,75,23,41,/,/,0.7,0.9
2026-03-23T1900,4260A,109.5933,23.095,贵港市,中山路155-3号,颗粒物(PM10),66,72,106,30,66,62,62,70,70,19,28,/,/,0.7,0.9
2026-03-23T1900,1439A,106.6863,26.6035,贵阳市,马鞍山,NA,NA,24,20,10,13,NA,NA,53,53,13,12,4,4,/,/
2026-03-23T1900,1441A,106.6241,26.6266,贵阳市,鉴湖路,,34,34,31,21,15,29,29,65,52,15,13,4,6,0.6,0.5
2026-03-23T1900,1442A,106.7468,26.6344,贵阳市,燕子冲,,27,27,27,16,15,23,23,54,51,14,14,4,6,1.1,1.1
2026-03-23T1900,1443A,106.6556,26.4362,贵阳市,碧云窝,,31,31,25,15,12,23,23,76,69,18,10,8,8,/,/
2026-03-23T1900,1445A,106.6963,26.6063,贵阳市,红边门,,27,27,34,17,18,18,18,55,51,18,23,8,15,/,/
2026-03-23T1900,1446A,106.7162383,26.56964667,贵阳市,新华路,,29,29,38,15,15,18,18,60,54,16,21,9,15,0.4,0.7
2026-03-23T1900,1447A,106.6742,26.542,贵阳市,太慈桥,,29,27,25,20,15,22,22,64,60,19,13,5,6,/,/
2026-03-23T1900,4230A,106.688212,26.56952,贵阳市,花果园大街66号,,25,NA,18,17,15,20,20,52,49,15,16,2,3,/,/
2026-03-23T1900,4231A,106.687268,26.516892,贵阳市,漓江路57号,,18,17,17,12,15,14,14,66,60,19,15,6,10,0.9,0.8
2026-03-23T1900,1864A,110.3091,25.2705,桂林市,龙隐路小学,,49,49,23,29,15,2,2,13,11,43,29,6,4,1.1,1
2026-03-23T1900,1865A,110.2849361,25.22909545,桂林市,八中,,42,42,23,25,11,2,2,11,10,38,28,3,3,1.2,1.1
2026-03-23T1900,3531A,110.296,25.1254,桂林市,旅游学院,,39,36,30,27,18,2,2,16,14,37,29,5,6,1.1,1.1
2026-03-23T1900,4222A,110.1835,25.2444,桂林市,环湖路276号,细颗粒物(PM2.5),64,44,23,42,18,2,2,12,9,37,30,18,6,1.3,1
2026-03-23T1900,4301A,110.2803,25.2773,桂林市,信义路13号,,43,41,22,30,15,0,0,12,8,45,30,5,4,1.6,1.4
2026-03-23T1900,2674A,100.2262,34.4854,果洛藏族自治州,玛沁县大武镇,,32,29,53,10,22,100,100,103,103,3,1,10,8,0.3,0.3
2026-03-23T1900,1130A,126.5557,45.8109,哈尔滨市,松北商大,细颗粒物(PM2.5),182,174,164,137,152,49,49,127,119,80,39,11,12,0.9,0.9
2026-03-23T1900,1132A,126.6162,45.719,哈尔滨市,南岗学府路,细颗粒物(PM2.5),188,221,158,141,111,84,84,135,132,56,39,11,12,0.4,0.2
2026-03-23T1900,1133A,126.6894,45.7733,哈尔滨市,太平宏伟公园,细颗粒物(PM2.5),178,159,138,134,108,106,106,130,129,39,38,1,6,0.6,0.7
2026-03-23T1900,1134A,126.6361,45.7672,哈尔滨市,道外承德广场,NA,NA,NA,194,NA,121,NA,NA,118,NA,NA,54,NA,14,NA,0.8
2026-03-23T1900,1136A,126.644,45.7261,哈尔滨市,动力和平路,细颗粒物(PM2.5),182,160,141,137,108,100,100,129,128,45,35,17,18,1.5,1.4
2026-03-23T1900,1137A,126.5933,45.7479,哈尔滨市,道里建国路,细颗粒物(PM2.5),186,171,156,140,128,41,41,122,114,100,52,14,18,1.3,1
2026-03-23T1900,1138A,126.6127,45.6119,哈尔滨市,平房东轻厂,细颗粒物(PM2.5),189,197,143,142,133,38,38,102,96,203,120,89,76,0.8,0.6
2026-03-23T1900,1139A,126.5875,45.9827,哈尔滨市,呼兰师专,细颗粒物(PM2.5),180,172,143,136,123,86,86,113,111,59,38,17,14,1.0,0.8
2026-03-23T1900,1140A,126.6299,45.6799,哈尔滨市,省农科院,细颗粒物(PM2.5),189,254,177,142,116,84,84,126,123,48,40,18,14,0.7,0.6
2026-03-23T1900,4282A,126.6769,45.7379,哈尔滨市,华山路1号,细颗粒物(PM2.5),180,168,129,136,100,90,90,121,119,54,40,13,14,1.2,1
2026-03-23T1900,4283A,126.9717,45.5356,哈尔滨市,解放大街52号,颗粒物(PM10),329,443,393,199,180,45,45,146,133,99,47,24,16,1.8,1.1
2026-03-23T1900,2688A,93.5124,42.8176,哈密市,地区监测站,颗粒物(PM10),81,93,68,31,28,102,102,96,96,5,24,6,6,0.2,0.4
2026-03-23T1900,2689A,93.5014,42.8312,哈密市,哈密师范学校,颗粒物(PM10),83,95,69,33,24,108,108,102,102,7,33,7,8,0.3,0.5
2026-03-23T1900,2671A,100.9016,36.9464,海北藏族自治州,海晏县西海镇,,33,24,66,7,32,104,104,101,101,1,8,4,8,0.5,0.5
2026-03-23T1900,3867A,102.074,36.5056,海东市,平安区公安局北苑,颗粒物(PM10),108,140,138,58,58,108,108,101,101,15,23,30,17,0.7,0.9
2026-03-23T1900,4163A,102.0984,36.5119,海东市,滨河路,颗粒物(PM10),111,148,152,51,56,74,74,79,79,38,40,31,15,0.8,1
2026-03-23T1900,1410A,110.3189,20.0596,海口市,海南大学,,26,26,30,16,17,62,62,75,75,5,4,6,5,0.3,0.4
2026-03-23T1900,1411A,110.2827,20.0051,海口市,秀英海南医院,,24,24,25,14,17,57,57,71,70,6,10,8,8,0.3,0.3
2026-03-23T1900,1412A,110.3391,19.9979,海口市,海南师范大学,,31,31,31,15,17,63,63,75,75,5,6,6,6,0.4,0.4
2026-03-23T1900,1413A,110.3303,20.0359,海口市,龙华路环保局宿舍,,30,30,30,18,18,63,63,77,76,7,7,/,/,0.5,0.5
2026-03-23T1900,3539A,110.5111,19.9737,海口市,桂林洋子站,,26,26,32,14,18,59,59,74,72,8,7,/,/,/,/
2026-03-23T1900,4134A,110.1952,20.0451,海口市,长滨二路9号,,36,36,34,14,17,63,63,71,71,4,5,/,/,/,/
2026-03-23T1900,2673A,100.6158,36.2985,海南藏族自治州,共和县恰卜恰镇,,39,39,54,15,26,106,106,107,107,4,12,12,12,0.4,0.3
2026-03-23T1900,2676A,97.373,37.376,海西蒙古族藏族自治州,德令哈市,,44,29,34,12,15,139,139,138,138,1,4,17,16,0.3,0.4
2026-03-23T1900,1049A,114.492,36.5712,邯郸市,矿院,细颗粒物(PM2.5),134,140,92,97,45,126,126,116,116,18,40,5,11,0.7,0.6
2026-03-23T1900,1050A,114.4839,36.6136,邯郸市,丛台公园,细颗粒物(PM2.5),158,149,100,120,61,126,126,115,115,17,37,6,15,0.7,0.6
2026-03-23T1900,3458A,114.7893,36.5592,邯郸市,香泉濮院小区,颗粒物(PM10),115,158,124,68,45,125,125,114,114,20,40,3,6,0.8,0.6
2026-03-23T1900,3580A,114.1998,36.4439,邯郸市,峰峰矿区临水派出所,细颗粒物(PM2.5),140,123,68,104,34,135,135,126,126,18,14,5,11,0.7,0.7
2026-03-23T1900,4068A,114.5209,36.7697,邯郸市,建安街268号,细颗粒物(PM2.5),160,132,115,122,76,98,98,112,112,41,46,4,5,0.6,0.6
2026-03-23T1900,4069A,114.5488,36.6177,邯郸市,丛台东路558号,细颗粒物(PM2.5),163,133,97,124,70,127,127,117,117,13,44,3,5,0.8,0.6
2026-03-23T1900,2635A,107.0155,33.0707,汉中市,市监测站,颗粒物(PM10),51,51,67,29,42,81,81,63,63,14,28,6,7,0.6,0.9
2026-03-23T1900,2636A,107.0083,33.114,汉中市,鑫源开发区,,48,47,75,33,53,72,72,67,67,16,31,4,5,0.5,0.9
2026-03-23T1900,2637A,107.0072,33.0323,汉中市,南郑大河坎水厂,颗粒物(PM10),59,62,65,34,40,78,78,58,58,14,24,4,4,0.7,0.9
2026-03-23T1900,1223A,120.2073,30.2111,杭州市,滨江,,28,26,60,16,38,89,89,80,80,23,43,7,7,0.8,1.1
2026-03-23T1900,1224A,120.0625,30.2737,杭州市,西溪,,31,19,50,13,33,98,98,88,88,18,26,8,8,0.5,0.9
2026-03-23T1900,1226A,120.3417,30.315,杭州市,下沙,,26,23,78,10,39,81,81,84,84,22,38,8,8,0.6,0.8
2026-03-23T1900,1227A,120.1252,30.2465,杭州市,卧龙桥,,31,21,46,12,32,99,99,92,92,22,25,7,7,0.2,0.4
2026-03-23T1900,1228A,120.1902,30.2691,杭州市,浙江农大,,26,18,41,11,38,82,82,85,85,39,41,6,6,0.6,0.8
2026-03-23T1900,1230A,120.1195,30.3121,杭州市,和睦小学,,31,27,76,11,39,98,98,90,90,14,29,6,7,0.6,0.8
2026-03-23T1900,1231A,120.3076,30.4146,杭州市,临平镇,,14,14,53,6,35,31,31,68,55,15,33,6,6,0.5,0.9
2026-03-23T1900,1232A,120.2753,30.1839,杭州市,城厢镇,NA,NA,38,57,17,40,NA,NA,75,75,NA,33,10,10,0.5,0.8
2026-03-23T1900,1233A,120.0883,30.1808,杭州市,云栖,,28,20,46,13,26,89,89,80,80,27,29,6,6,0.5,0.7
2026-03-23T1900,3557A,119.9463,30.0496,杭州市,镇二中,,48,NA,43,33,40,72,72,70,70,29,36,4,4,0.6,0.9
2026-03-23T1900,3558A,119.7184,30.2367,杭州市,市府大楼,,32,17,47,12,36,101,101,86,86,19,23,6,6,0.2,0.4
2026-03-23T1900,3656A,120.1554,30.2863,杭州市,消防大队,,37,37,83,16,41,90,90,80,80,21,29,8,8,0.7,0.9
2026-03-23T1900,1270A,117.1957,31.7845,合肥市,明珠广场,颗粒物(PM10),56,58,92,20,51,116,116,136,136,18,30,7,7,0.5,0.8
2026-03-23T1900,1271A,117.307,31.8765,合肥市,三里街,颗粒物(PM10),53,53,84,23,48,99,99,124,124,26,39,6,6,0.7,0.9
2026-03-23T1900,1272A,117.2587,31.8703,合肥市,琥珀山庄,颗粒物(PM10),53,53,84,23,53,112,112,135,134,29,38,7,7,0.5,0.8
2026-03-23T1900,1275A,117.2593,31.9376,合肥市,庐阳区,颗粒物(PM10),53,53,88,24,44,109,109,131,128,20,28,4,5,0.7,0.9
2026-03-23T1900,1276A,117.345251,31.861615,合肥市,瑶海区,颗粒物(PM10),53,53,91,21,49,106,106,132,131,26,38,6,7,0.5,0.8
2026-03-23T1900,1277A,117.3033,31.7967,合肥市,包河区,颗粒物(PM10),58,61,100,20,52,89,89,118,116,57,79,9,10,0.7,1.1
2026-03-23T1900,1278A,117.278,31.7392,合肥市,滨湖新区,,48,48,95,22,55,111,111,130,129,14,21,5,5,0.7,0.9
2026-03-23T1900,1279A,117.1324,31.8395,合肥市,高新区,颗粒物(PM10),53,53,80,21,48,117,117,133,133,18,27,5,5,0.7,0.9
2026-03-23T1900,3464A,117.3802,31.9148,合肥市,高教基地,颗粒物(PM10),51,51,80,23,50,105,105,135,132,21,30,11,9,0.5,0.7
2026-03-23T1900,4098A,117.2518,31.8404,合肥市,中国科学技术大学,颗粒物(PM10),55,56,82,22,49,118,118,141,140,20,24,7,7,0.7,0.9
2026-03-23T1900,3614A,79.9241,37.0878,和田地区,地区环保局,颗粒物(PM10),161,271,214,44,44,105,105,95,95,5,11,3,4,0.3,0.4
2026-03-23T1900,3615A,79.9132,37.1137,和田地区,市环保局,颗粒物(PM10),162,273,213,55,54,98,98,90,90,5,20,1,8,0.4,0.6
2026-03-23T1900,2517A,108.0496,24.6957,河池市,市环保站,NA,NA,71,51,58,39,5,5,13,13,26,20,NA,4,1.2,1
2026-03-23T1900,4302A,108.0901,24.6945,河池市,上任中路54号,NA,NA,NA,36,NA,27,NA,NA,11,NA,NA,21,NA,6,NA,1.0
2026-03-23T1900,1697A,114.6962,23.7538,河源市,东埔,细颗粒物(PM2.5),52,50,46,36,35,157,157,147,147,16,17,6,6,0.9,0.8
2026-03-23T1900,1698A,114.6895,23.7232,河源市,老城,颗粒物(PM10),63,68,49,40,34,157,157,151,151,16,15,7,7,0.8,0.7
2026-03-23T1900,3374A,115.5562,35.089,菏泽市,定陶老年大学,细颗粒物(PM2.5),110,136,145,70,79,140,140,152,150,17,28,6,8,0.6,0.6
2026-03-23T1900,4114A,115.4239,35.2593,菏泽市,黄河路600号,颗粒物(PM10),113,153,168,73,84,136,136,134,134,16,29,6,6,0.6,0.6
2026-03-23T1900,4115A,115.5025,35.2727,菏泽市,菏泽市人社局,细颗粒物(PM2.5),108,133,145,68,88,130,130,130,130,22,31,6,8,0.5,0.5
2026-03-23T1900,4184A,115.479691,35.244011,菏泽市,永昌路1号,细颗粒物(PM2.5),115,153,159,76,86,147,147,151,151,22,29,5,6,0.5,0.5
2026-03-23T1900,4193A,115.471542,35.280012,菏泽市,长城路999号,颗粒物(PM10),110,144,155,68,84,145,145,139,139,15,26,11,8,0.5,0.5
2026-03-23T1900,2514A,111.5264,24.4178,贺州市,环保小区,细颗粒物(PM2.5),116,93,81,77,56,16,16,43,43,53,33,6,6,1.1,1.1
2026-03-23T1900,2515A,111.561,24.4074,贺州市,政协大楼,NA,NA,NA,70,58,55,19,19,57,57,57,38,7,7,1.3,1.3
2026-03-23T1900,3534A,111.4744,24.455,贺州市,西湾,颗粒物(PM10),75,85,100,47,57,32,32,49,49,31,27,7,7,0.9,1
2026-03-23T1900,2385A,114.17,35.9019,鹤壁市,市监测站,细颗粒物(PM2.5),180,186,106,136,57,122,122,120,120,30,28,9,11,0.9,0.7
2026-03-23T1900,2386A,114.2953,35.7512,鹤壁市,市交警支队,细颗粒物(PM2.5),189,191,111,142,59,103,103,114,114,38,34,11,10,0.8,0.7
2026-03-23T1900,2387A,114.2877,35.7302,鹤壁市,迎宾馆,细颗粒物(PM2.5),172,201,116,130,56,113,113,121,121,29,28,13,13,0.8,0.6
2026-03-23T1900,3474A,114.2616,35.6824,鹤壁市,大新区,细颗粒物(PM2.5),178,176,97,134,65,125,125,125,125,27,24,11,9,1.0,0.7
2026-03-23T1900,3596A,114.1573,35.9607,鹤壁市,南山宾馆,细颗粒物(PM2.5),182,194,107,137,53,113,113,112,112,26,16,10,12,0.8,0.7
2026-03-23T1900,2244A,130.2537,47.3416,鹤岗市,哈啤分公司,NA,NA,19,28,16,19,NA,NA,94,94,9,9,7,10,0.4,0.3
2026-03-23T1900,2245A,130.2683,47.3087,鹤岗市,斯达机电,,29,27,33,11,19,90,90,98,96,10,9,10,9,0.5,0.5
2026-03-23T1900,2246A,130.3114,47.3388,鹤岗市,东山纸板厂,,47,47,63,18,23,85,85,94,92,8,17,7,9,0.5,0.7
2026-03-23T1900,2263A,127.4832,50.2524,黑河市,交通局,,40,40,34,23,16,69,69,84,84,22,20,7,8,0.3,0.3
2026-03-23T1900,2264A,127.5146,50.2339,黑河市,环保局,,34,34,25,21,15,82,82,88,88,19,20,7,7,0.5,0.4
2026-03-23T1900,1074A,115.6839,37.754,衡水市,电机北厂,细颗粒物(PM2.5),113,128,117,74,70,126,126,137,137,24,33,7,9,0.3,0.5
2026-03-23T1900,1075A,115.6303,37.7318,衡水市,市监测站,颗粒物(PM10),91,107,99,55,61,126,126,136,136,22,24,5,6,0.5,0.5
2026-03-23T1900,3188A,115.6684,37.7216,衡水市,市城管局,细颗粒物(PM2.5),105,117,108,65,62,117,117,134,134,25,30,10,9,0.6,0.6
2026-03-23T1900,3459A,115.599,37.5491,衡水市,地表水厂,细颗粒物(PM2.5),116,120,99,77,58,107,107,135,135,32,37,5,6,0.5,0.5
2026-03-23T1900,2457A,112.6209,26.9268,衡阳市,衡阳化工总厂,,19,19,27,13,19,23,23,23,23,16,17,4,7,1.2,1.2
2026-03-23T1900,2458A,112.621,26.8957,衡阳市,珠晖区环保局,,28,28,27,15,17,18,18,20,20,24,21,6,7,1.3,1.3
2026-03-23T1900,2459A,112.628,26.8654,衡阳市,市委党校,,18,NA,25,12,19,26,26,21,21,16,17,8,11,1.3,1.3
2026-03-23T1900,2460A,112.6007,26.8977,衡阳市,市监测站,,33,29,28,23,19,26,26,24,24,24,21,7,11,1.2,1.1
2026-03-23T1900,2461A,112.5658,26.9013,衡阳市,真空机电公司,,28,NA,27,19,20,15,15,20,20,32,21,11,9,1.6,1.4
2026-03-23T1900,3399A,112.6703,26.8817,衡阳市,师范学院,,26,25,28,18,17,25,25,24,24,15,14,14,12,1.1,1.1
2026-03-23T1900,3038A,103.3757,23.3679,红河哈尼族彝族自治州,州图书馆,,38,27,27,26,22,92,92,100,100,8,8,4,5,0.4,0.5
2026-03-23T1900,4154A,103.401,23.3561,红河哈尼族彝族自治州,蒙自市朝阳路,,31,NA,17,21,20,99,99,102,102,6,8,9,9,0.3,0.4
2026-03-23T1900,1090A,111.6506,40.7517,呼和浩特市,呼市一监,颗粒物(PM10),95,112,87,54,47,95,95,103,103,25,27,18,12,0.5,0.7
2026-03-23T1900,1094A,111.7516,40.8369,呼和浩特市,如意水处理厂,颗粒物(PM10),74,83,59,33,36,106,106,108,108,24,34,14,11,0.4,0.4
2026-03-23T1900,1095A,111.727798,40.806187,呼和浩特市,二十九中,颗粒物(PM10),80,92,79,30,40,94,94,97,97,25,28,13,11,0.5,0.6
2026-03-23T1900,1097A,111.717,40.7617,呼和浩特市,化肥厂生活区,颗粒物(PM10),82,94,79,46,55,93,93,102,102,34,28,15,10,0.5,0.6
2026-03-23T1900,3699A,111.6519,40.8389,呼和浩特市,海东办,颗粒物(PM10),68,75,61,36,34,97,97,98,98,24,35,8,7,0.4,0.5
2026-03-23T1900,4275A,111.591512,40.827312,呼和浩特市,成吉思汗西街8号,颗粒物(PM10),78,88,59,33,28,92,92,97,97,31,28,7,7,0.5,0.4
2026-03-23T1900,4276A,111.6597,40.8077,呼和浩特市,公园东路75号,颗粒物(PM10),84,97,76,37,40,99,99,96,96,21,30,12,11,0.6,0.6
2026-03-23T1900,4277A,111.5427,40.7846,呼和浩特市,金海路35号,颗粒物(PM10),85,99,61,38,36,90,90,92,92,26,22,12,10,0.4,0.4
2026-03-23T1900,3061A,119.7511,49.1576,呼伦贝尔市,国华电力东,,28,28,23,11,16,79,79,87,85,10,11,4,4,0.2,0.2
2026-03-23T1900,4279A,119.7569,49.2222,呼伦贝尔市,伊敏大街东7号,,24,18,21,12,10,74,74,84,81,12,11,7,6,0.3,0.2
2026-03-23T1900,1250A,120.075,30.867,湖州市,城西水厂,,29,25,48,14,33,92,92,92,92,21,47,7,6,0.4,0.6
2026-03-23T1900,2873A,120.083,30.8929,湖州市,仁皇山新区,,30,23,47,14,33,96,96,87,87,21,40,6,5,0.5,0.7
2026-03-23T1900,2907A,120.1846,30.8592,湖州市,吴兴区站,,33,33,64,13,38,103,103,103,103,18,29,7,6,0.5,0.6
2026-03-23T1900,3562A,120.4146,30.8538,湖州市,南浔区站,,32,25,73,11,39,102,102,99,99,22,27,5,6,0.5,0.7
2026-03-23T1900,1607A,120.904878,40.721091,葫芦岛市,龙港区,细颗粒物(PM2.5),176,148,155,133,125,135,135,146,146,21,39,10,18,1.1,1.2
2026-03-23T1900,1608A,120.8382,40.7521,葫芦岛市,化工街,细颗粒物(PM2.5),168,153,185,127,138,110,110,128,128,34,61,16,38,0.9,1.1
2026-03-23T1900,1609A,120.8339,40.7078,葫芦岛市,新区,细颗粒物(PM2.5),195,NA,156,146,158,115,115,134,134,26,58,11,17,1.0,1.2
2026-03-23T1900,1610A,120.8697,40.7679,葫芦岛市,东城区,细颗粒物(PM2.5),199,NA,149,149,132,110,110,131,131,38,56,15,34,1.2,1.2
2026-03-23T1900,2483A,109.9297,27.5383,怀化市,河西地税局,,11,11,22,6,16,34,34,49,44,21,15,3,3,/,/
2026-03-23T1900,2484A,109.9783,27.5342,怀化市,市四医院,,15,13,21,3,16,45,45,45,45,11,14,6,7,0.6,0.6
2026-03-23T1900,2485A,109.9971,27.5579,怀化市,监测楼,NA,NA,NA,22,NA,19,NA,NA,46,NA,NA,12,NA,3,NA,0.4
2026-03-23T1900,1210A,119.0566,33.5991,淮安市,钵池山,细颗粒物(PM2.5),106,95,86,66,64,108,108,122,122,31,36,8,8,0.5,0.4
2026-03-23T1900,1211A,119.0083,33.578,淮安市,北京南路,细颗粒物(PM2.5),119,90,84,80,72,108,108,119,119,21,24,8,8,0.6,0.6
2026-03-23T1900,1212A,118.9938,33.6083,淮安市,市监测站,NA,NA,NA,73,NA,72,NA,NA,127,127,26,28,7,6,0.4,0.4
2026-03-23T1900,1213A,119.135,33.5038,淮安市,楚州区监测站,细颗粒物(PM2.5),120,98,84,82,69,93,93,120,120,25,26,6,6,0.8,0.7
2026-03-23T1900,3426A,118.8757,33.2897,淮安市,新华书店,细颗粒物(PM2.5),100,98,94,60,51,105,105,120,120,20,26,7,7,0.4,0.5
2026-03-23T1900,4092A,119.119691,33.550006,淮安市,枚皋中路89号,细颗粒物(PM2.5),127,113,89,89,70,101,101,121,121,26,26,10,10,0.7,0.6
2026-03-23T1900,4206A,119.028838,33.631911,淮安市,承德北路606号,细颗粒物(PM2.5),104,119,121,64,65,93,93,115,115,25,31,9,9,0.4,0.5
2026-03-23T1900,2282A,116.8005,33.9749,淮北市,监测站,细颗粒物(PM2.5),120,122,131,81,80,139,139,153,152,20,23,6,7,0.7,0.8
2026-03-23T1900,2283A,116.8094,33.9008,淮北市,烈山区政府,细颗粒物(PM2.5),113,105,124,74,82,145,145,150,150,14,17,5,6,0.5,0.6
2026-03-23T1900,4017A,116.7926,33.9534,淮北市,市博物馆,细颗粒物(PM2.5),118,118,121,79,86,138,138,147,147,17,20,5,6,0.7,0.8
2026-03-23T1900,4100A,116.8322,33.9884,淮北市,杜集区第一实验学校,细颗粒物(PM2.5),121,127,151,83,91,127,127,139,139,17,24,8,10,0.7,0.8
2026-03-23T1900,2277A,116.8304,32.7726,淮南市,潘集区政府,细颗粒物(PM2.5),84,90,101,52,60,117,117,133,133,24,26,7,7,0.5,0.6
2026-03-23T1900,2279A,116.8569,32.5949,淮南市,谢家集区政府,颗粒物(PM10),75,85,87,47,57,108,108,137,132,28,23,8,9,0.6,0.7
2026-03-23T1900,2280A,116.8279,32.6333,淮南市,八公山区政府,细颗粒物(PM2.5),84,82,96,52,60,114,114,133,130,18,16,9,8,0.5,0.7
2026-03-23T1900,2894A,117.0561,32.6536,淮南市,经济技术开发区消防队,细颗粒物(PM2.5),92,88,94,56,59,104,104,127,125,30,23,7,7,0.5,0.5
2026-03-23T1900,3329A,117.011,32.5891,淮南市,山南新区,细颗粒物(PM2.5),90,89,105,55,63,120,120,139,135,22,21,7,8,0.4,0.6
2026-03-23T1900,4209A,117.003137,32.644456,淮南市,国庆中路369号,细颗粒物(PM2.5),103,98,95,63,62,101,101,123,120,26,17,10,9,0.6,0.7
2026-03-23T1900,2446A,114.9021,30.474,黄冈市,职工中心,颗粒物(PM10),77,87,94,48,58,54,54,63,63,16,20,5,7,1.2,1.3
2026-03-23T1900,2929A,114.8858,30.4519,黄冈市,红卫路,细颗粒物(PM2.5),92,82,87,56,59,52,52,70,70,20,25,5,5,0.6,0.7
2026-03-23T1900,3398A,114.9134,30.4446,黄冈市,市林业局,细颗粒物(PM2.5),90,87,103,55,58,66,66,75,75,12,27,3,4,0.8,1
2026-03-23T1900,2672A,102.02,35.5101,黄南藏族自治州,同仁县隆务镇,颗粒物(PM10),63,67,95,25,38,107,107,101,101,7,4,13,10,0.3,0.4
2026-03-23T1900,2295A,118.2905,29.6965,黄山市,延安路89号,细颗粒物(PM2.5),60,44,27,40,21,66,66,68,68,12,16,4,4,0.6,0.6
2026-03-23T1900,2297A,118.1369,30.2755,黄山市,黄山区政府5号楼,,35,33,24,24,14,34,34,46,46,13,10,3,3,0.8,0.7
2026-03-23T1900,4210A,118.335445,29.720283,黄山市,滨江东路7-2号,,50,50,38,32,20,70,70,73,73,14,19,/,/,/,/
2026-03-23T1900,2423A,115.0547,30.2332,黄石市,沈家营,细颗粒物(PM2.5),74,79,91,47,46,41,41,55,55,26,34,8,13,0.9,1
2026-03-23T1900,2426A,114.899,30.211,黄石市,铁山,细颗粒物(PM2.5),92,72,58,56,48,54,54,75,75,18,23,8,10,1.0,1
2026-03-23T1900,2427A,115.0259,30.2108,黄石市,团城山,细颗粒物(PM2.5),80,68,81,50,53,60,60,68,68,28,31,7,12,1.0,1.2
2026-03-23T1900,3149A,115.0174,30.1591,黄石市,笔架山北路,颗粒物(PM10),82,94,104,45,48,58,58,67,67,15,20,9,10,0.9,1.2
2026-03-23T1900,4185A,115.078022,30.21118,黄石市,磁湖东路29号,颗粒物(PM10),82,94,98,44,52,41,41,54,54,25,39,6,6,1.3,1.4
2026-03-23T1900,1392A,114.4181,23.0528,惠州市,河南岸金山湖子站,,36,34,49,22,30,115,115,141,140,14,15,6,7,0.6,0.7
2026-03-23T1900,1393A,114.4055,23.0824,惠州市,下埔横江三路子站,,41,41,55,22,31,114,114,147,146,17,17,4,4,0.6,0.7
2026-03-23T1900,1395A,114.4645,22.7832,惠州市,惠阳区承修路船湖子站,,35,35,42,21,25,105,105,118,118,13,12,6,6,0.6,0.6
2026-03-23T1900,1396A,114.5316,22.7423,惠州市,大亚湾管委会子站,,34,34,39,17,22,103,103,111,111,11,12,4,3,0.5,0.6
2026-03-23T1900,3314A,114.4334,22.8134,惠州市,惠阳秋长,,35,34,36,17,25,109,109,124,124,14,16,/,/,/,/
2026-03-23T1900,3452A,114.6521,22.7755,惠州市,大亚湾霞涌,,36,25,27,16,21,113,113,116,116,7,13,/,/,/,/
2026-03-23T1900,4300A,114.4089,23.1147,惠州市,文华一路1号,,36,36,48,19,30,111,111,153,150,18,18,/,/,/,/
2026-03-23T1900,2240A,130.9618,45.2926,鸡西市,环保局,,40,31,72,28,52,70,70,100,95,27,10,12,11,0.4,0.3
2026-03-23T1900,2243A,130.9294,45.2959,鸡西市,第一中学,,46,44,65,32,61,72,72,93,88,21,9,8,4,0.2,0.2
2026-03-23T1900,3707A,131.0069,45.2988,鸡西市,欧美日汽修厂,,43,38,79,30,61,71,71,97,93,25,19,13,9,0.7,0.8
2026-03-23T1900,2367A,114.9753,27.0803,吉安市,红声器材厂,,21,21,41,10,18,29,29,28,28,24,25,6,6,1.1,1.1
2026-03-23T1900,2369A,114.9903,27.1313,吉安市,市环境监测站,,16,16,32,7,18,34,34,32,32,19,20,8,8,/,/
2026-03-23T1900,2370A,115.009527,27.096792,吉安市,青原区法院,,19,19,34,6,20,30,30,31,31,23,22,3,3,0.8,0.8
2026-03-23T1900,1772A,126.54,43.8622,吉林市,哈达湾,细颗粒物(PM2.5),105,85,117,65,89,113,113,108,108,19,21,7,7,0.8,0.9
2026-03-23T1900,1773A,126.5843,43.8358,吉林市,东局子,细颗粒物(PM2.5),126,NA,97,88,121,78,78,103,103,57,19,4,4,0.9,0.9
2026-03-23T1900,1774A,126.5051,43.8243,吉林市,电力学院,细颗粒物(PM2.5),137,128,123,100,85,87,87,115,115,46,23,8,6,1.3,1
2026-03-23T1900,1775A,126.6133,43.8971,吉林市,江北,细颗粒物(PM2.5),139,111,113,102,107,68,68,106,105,50,21,8,7,1.0,0.9
2026-03-23T1900,1776A,126.5549,43.8304,吉林市,江南公园,细颗粒物(PM2.5),110,86,107,71,85,NA,NA,107,107,NA,19,8,7,0.8,0.9
2026-03-23T1900,2868A,126.4737,43.953,吉林市,九站,细颗粒物(PM2.5),100,69,122,60,100,108,108,108,108,31,33,7,8,0.7,1
2026-03-23T1900,1299A,116.9866,36.6118,济南市,科干所,细颗粒物(PM2.5),126,144,123,88,67,146,146,145,145,36,32,12,8,1.1,0.8
2026-03-23T1900,1300A,116.9379,36.6652,济南市,农科所,细颗粒物(PM2.5),136,151,147,99,86,144,144,147,146,36,51,11,8,0.8,0.8
2026-03-23T1900,1301A,117.1265,36.6736,济南市,开发区,细颗粒物(PM2.5),123,142,127,85,70,135,135,150,150,45,39,10,7,1.1,0.9
2026-03-23T1900,1303A,117.0616,36.6865,济南市,省种子仓库,细颗粒物(PM2.5),128,168,153,90,80,134,134,148,148,37,43,11,8,1.0,0.9
2026-03-23T1900,1304A,116.9495185,36.644937,济南市,机床二厂,细颗粒物(PM2.5),135,159,144,98,79,144,144,146,146,37,43,11,9,0.9,0.9
2026-03-23T1900,1305A,117.0496,36.6629,济南市,市监测站,细颗粒物(PM2.5),129,161,144,91,72,137,137,147,147,39,39,10,7,1.0,0.8
2026-03-23T1900,1306A,116.7674,36.5458,济南市,长清党校,细颗粒物(PM2.5),124,147,130,86,61,158,158,147,147,30,33,8,5,0.8,0.6
2026-03-23T1900,1961A,117.5323,36.6865,济南市,东山小学,颗粒物(PM10),103,127,133,58,70,133,133,146,146,34,34,7,8,0.8,0.9
2026-03-23T1900,3059A,117.7181,36.205,济南市,泰兴公司,颗粒物(PM10),67,73,100,29,50,103,103,130,127,33,29,7,8,0.7,0.8
2026-03-23T1900,3064A,117.6861,36.2172,济南市,莱芜战役纪念馆,颗粒物(PM10),63,68,96,28,46,127,127,139,138,25,25,4,5,0.7,0.7
2026-03-23T1900,3494A,117.1673,36.9782,济南市,济阳区政府,细颗粒物(PM2.5),117,132,147,78,104,128,128,138,138,24,27,11,13,0.7,0.9
2026-03-23T1900,3495A,117.1168,36.6299,济南市,锦屏中学,细颗粒物(PM2.5),113,125,108,74,58,141,141,145,145,30,22,11,9,0.9,0.8
2026-03-23T1900,4108A,117.7107,36.2385,济南市,山财大街5号,颗粒物(PM10),63,68,86,34,46,117,117,127,126,21,26,7,8,0.4,0.4
2026-03-23T1900,4109A,116.9744,36.6889,济南市,无影山路12号,细颗粒物(PM2.5),131,141,137,94,86,131,131,139,139,38,47,11,9,0.9,1
2026-03-23T1900,1653A,116.6229,35.4288,济宁市,火炬城,细颗粒物(PM2.5),114,NA,128,75,78,NA,NA,142,142,17,24,7,3,0.7,0.7
2026-03-23T1900,3500A,116.5808,35.3703,济宁市,北湖一中,细颗粒物(PM2.5),119,92,116,80,78,152,152,148,148,18,20,8,9,0.6,0.6
2026-03-23T1900,3501A,116.8251,35.5592,济宁市,服务中心,细颗粒物(PM2.5),68,64,137,44,71,120,120,135,135,14,21,1,5,0.5,0.7
2026-03-23T1900,3678A,116.5907,35.4054,济宁市,市第七中学,细颗粒物(PM2.5),114,82,119,75,76,158,158,155,155,17,23,7,9,0.7,0.8
2026-03-23T1900,4111A,116.6075,35.4566,济宁市,任和路,细颗粒物(PM2.5),104,107,148,64,77,145,145,148,148,18,24,7,8,0.6,0.7
2026-03-23T1900,4112A,116.5648,35.3921,济宁市,文体南路1号,细颗粒物(PM2.5),112,112,143,73,75,159,159,156,156,18,22,5,7,0.7,0.7
2026-03-23T1900,4122A,112.6071,35.1015,济源市,市委党校,细颗粒物(PM2.5),131,191,146,94,52,106,106,105,105,30,29,9,14,0.7,0.6
2026-03-23T1900,4123A,112.596,35.0702,济源市,沁园中路1号,细颗粒物(PM2.5),131,158,130,94,53,107,107,100,100,30,31,7,7,0.7,0.7
2026-03-23T1900,2255A,130.2749,46.8028,佳木斯市,佳纺,,42,30,76,29,42,76,76,94,90,23,27,6,6,0.4,0.6
2026-03-23T1900,2257A,130.3258,46.7975,佳木斯市,环保局,,36,NA,53,25,35,90,90,98,96,12,23,3,4,0.3,0.5
2026-03-23T1900,4285A,130.363,46.806,佳木斯市,顺和街,,32,23,48,22,35,82,82,88,87,16,27,4,4,0.3,0.5
2026-03-23T1900,4286A,130.3952,46.8268,佳木斯市,长安路196号,,35,NA,44,24,30,84,84,92,91,10,22,5,5,0.1,0.3
2026-03-23T1900,1252A,120.7439,30.778,嘉兴市,清河小学,NA,NA,14,40,3,29,89,89,98,98,NA,33,7,7,0.4,0.3
2026-03-23T1900,1253A,120.7261,30.7477,嘉兴市,嘉兴学院,,29,17,59,8,34,92,92,102,102,26,30,6,6,0.6,0.7
2026-03-23T1900,2872A,120.7845,30.7524,嘉兴市,南湖区残联,,29,21,34,7,33,92,92,101,101,27,30,6,5,0.6,0.6
2026-03-23T1900,3407A,120.6915,30.7741,嘉兴市,秀洲住建,,30,16,42,3,33,94,94,103,103,29,38,8,8,0.4,0.4
2026-03-23T1900,1945A,98.291,39.7705,嘉峪关市,气象局,颗粒物(PM10),84,97,100,32,27,106,106,110,110,5,9,8,11,0.3,0.3
2026-03-23T1900,2884A,98.2672,39.7978,嘉峪关市,酒钢宾馆,NA,NA,114,109,34,30,105,105,109,109,NA,13,13,15,NA,0.5
2026-03-23T1900,3248A,98.2644,39.7723,嘉峪关市,雄关区,颗粒物(PM10),80,92,91,34,28,104,104,107,107,7,13,6,8,0.1,0.2
2026-03-23T1900,1383A,113.1063,22.6058,江门市,北街,,44,44,37,18,23,105,105,114,114,13,15,/,/,/,/
2026-03-23T1900,1384A,113.073,22.5835,江门市,西区,,42,42,39,19,26,106,106,119,119,16,17,/,/,/,/
2026-03-23T1900,1385A,113.0218,22.531,江门市,圭峰西,,45,45,39,16,24,92,92,114,114,12,13,/,/,/,/
2026-03-23T1900,1386A,113.0826,22.5947,江门市,东湖,,36,36,40,17,24,108,108,117,117,12,14,7,7,0.5,0.5
2026-03-23T1900,3311A,113.1077,22.5647,江门市,江海富民,,49,49,50,19,25,112,112,122,122,12,14,/,/,0.5,0.5
2026-03-23T1900,3449A,113.0496,22.4669,江门市,新会银湖,,42,42,36,15,22,84,84,110,109,14,21,7,6,0.4,0.4
2026-03-23T1900,3335A,113.3137,35.2643,焦作市,马村街道办,细颗粒物(PM2.5),146,178,110,110,42,102,102,110,110,30,24,11,9,0.8,0.7
2026-03-23T1900,3336A,113.2464,35.2374,焦作市,焦作技师学院,细颗粒物(PM2.5),126,151,104,88,42,110,110,112,112,22,19,10,10,0.7,0.5
2026-03-23T1900,3477A,113.1656,35.2536,焦作市,中站许衡医院,细颗粒物(PM2.5),134,191,101,97,38,106,106,119,119,36,15,13,10,0.7,0.5
2026-03-23T1900,3981A,113.2456,35.18,焦作市,原李万街道办,细颗粒物(PM2.5),129,148,104,91,42,NA,NA,103,103,22,19,13,15,0.6,0.7
2026-03-23T1900,4264A,113.234,35.219,焦作市,新安路1731号,细颗粒物(PM2.5),123,155,114,85,44,124,124,122,122,22,25,12,12,0.8,0.7
2026-03-23T1900,4295A,113.2722,35.2121,焦作市,人民路3066号,细颗粒物(PM2.5),128,168,115,90,47,113,113,116,116,22,22,10,11,0.4,0.4
2026-03-23T1900,1708A,116.3701,23.5345,揭阳市,新兴,,39,39,55,26,36,114,114,137,137,18,24,8,10,0.9,1
2026-03-23T1900,1709A,116.3261,23.5442,揭阳市,西马,NA,NA,47,58,24,36,NA,NA,145,145,16,21,6,9,0.8,1
2026-03-23T1900,1710A,116.361,23.5627,揭阳市,东兴,,36,NA,58,24,39,115,115,147,147,16,23,5,9,/,/
2026-03-23T1900,1711A,116.4151,23.5295,揭阳市,渔湖,,50,50,56,30,42,138,138,169,169,14,22,5,7,/,/
2026-03-23T1900,3320A,116.4028,23.5699,揭阳市,曲溪,,47,47,53,24,36,130,130,161,161,11,19,6,11,0.6,0.9
2026-03-23T1900,1944A,102.1691,38.5166,金昌市,天庆家园,颗粒物(PM10),74,83,118,26,37,113,113,112,112,2,6,16,3,0.6,0.7
2026-03-23T1900,4022A,102.1648,38.5369,金昌市,金川区人防中心,颗粒物(PM10),81,93,128,30,40,107,107,107,107,4,9,5,6,0.6,0.5
2026-03-23T1900,4239A,102.193042,38.531887,金昌市,长春路96号,颗粒物(PM10),70,77,118,23,35,106,106,105,105,3,9,5,8,0.6,0.7
2026-03-23T1900,1262A,119.6478,29.0773,金华市,十五中,,38,38,45,21,28,64,64,67,67,28,29,4,4,0.7,0.8
2026-03-23T1900,1263A,119.6859,29.1032,金华市,监测站,,48,41,44,33,32,50,50,55,55,38,41,3,4,0.7,0.7
2026-03-23T1900,3659A,119.656,29.1132,金华市,气象局,,43,37,46,30,32,34,34,38,38,32,37,2,2,0.7,0.8
2026-03-23T1900,1767A,121.1114,41.0879,锦州市,南山,细颗粒物(PM2.5),156,NA,139,119,124,115,115,125,125,43,44,23,15,0.9,1.1
2026-03-23T1900,1768A,121.060361,40.842794,锦州市,开发区,细颗粒物(PM2.5),208,225,190,158,141,98,98,119,119,52,59,12,28,1.1,1.2
2026-03-23T1900,1769A,121.1836,41.1118,锦州市,百股街道,细颗粒物(PM2.5),163,125,142,124,128,100,100,125,123,50,39,14,16,1.0,1.2
2026-03-23T1900,1770A,121.1176,41.1224,锦州市,天安街道,细颗粒物(PM2.5),144,111,156,108,126,112,112,116,116,36,53,18,16,0.7,1.4
2026-03-23T1900,1771A,121.1303,41.1385,锦州市,北湖公园,细颗粒物(PM2.5),125,99,128,87,109,121,121,125,125,32,34,15,15,0.7,1.1
2026-03-23T1900,2160A,112.8496,35.5051,晋城市,自来水公司,颗粒物(PM10),112,151,101,68,28,137,137,129,129,20,19,7,6,0.5,0.4
2026-03-23T1900,2162A,112.8509,35.4886,晋城市,市环保局,细颗粒物(PM2.5),120,119,100,82,36,131,131,126,126,14,15,8,7,0.7,0.6
2026-03-23T1900,3620A,112.8258,35.4804,晋城市,泽州一中,细颗粒物(PM2.5),103,118,106,63,33,138,138,130,130,23,18,7,5,0.6,0.8
2026-03-23T1900,4078A,112.8246,35.5152,晋城市,前书院路,细颗粒物(PM2.5),109,136,108,69,33,132,132,133,133,14,17,8,7,0.9,0.8
2026-03-23T1900,4079A,112.8864,35.4773,晋城市,祥云街666号,NA,NA,NA,87,NA,37,NA,NA,124,124,20,18,9,8,NA,0.5
2026-03-23T1900,2174A,112.6992,37.6984,晋中市,榆次区政府,颗粒物(PM10),62,66,56,20,20,101,101,96,96,18,27,12,10,0.6,0.5
2026-03-23T1900,2865A,112.7195,37.683,晋中市,榆次三中,颗粒物(PM10),70,78,57,24,19,109,109,101,101,11,27,14,11,0.4,0.4
2026-03-23T1900,4080A,112.7375,37.7215,晋中市,广安街188号,颗粒物(PM10),59,62,54,30,19,108,108,100,100,10,23,15,13,0.3,0.3
2026-03-23T1900,4200A,112.7478,37.6954,晋中市,迎宾街26号,颗粒物(PM10),63,68,54,22,19,115,115,105,105,12,23,12,10,0.5,0.4
2026-03-23T1900,2439A,112.2012,31.048,荆门市,竹园小学,细颗粒物(PM2.5),111,121,95,72,53,86,86,77,77,20,18,1,1,NA,1.5
2026-03-23T1900,2440A,112.1968,30.9892,荆门市,掇刀,细颗粒物(PM2.5),104,114,98,64,57,91,91,84,84,17,17,7,6,0.7,0.8
2026-03-23T1900,3012A,112.1849,31.0361,荆门市,西山林语,颗粒物(PM10),86,100,85,48,46,91,91,82,82,14,13,5,5,0.8,1
2026-03-23T1900,3547A,112.1631,31.0134,荆门市,龙泉中学南校,细颗粒物(PM2.5),110,110,98,70,58,103,103,97,97,12,13,3,4,0.4,0.5
2026-03-23T1900,4124A,112.2213,31.0654,荆门市,新台西路6号,细颗粒物(PM2.5),92,96,85,56,60,81,81,72,72,21,34,5,6,0.6,0.7
2026-03-23T1900,1844A,112.2493,30.3198,荆州市,市图书馆,,43,42,45,30,39,83,83,74,74,18,23,5,6,0.6,0.8
2026-03-23T1900,1845A,112.2009,30.3543,荆州市,市委党校,细颗粒物(PM2.5),58,48,57,39,43,81,81,64,64,14,25,7,8,0.8,1
2026-03-23T1900,3194A,112.2749,30.3124,荆州市,管委会,NA,NA,61,52,40,45,79,79,70,70,NA,26,8,11,NA,0.8
2026-03-23T1900,4268A,112.1722,30.3366,荆州市,学苑路85号,细颗粒物(PM2.5),68,48,58,44,47,100,100,78,78,5,14,1,1,0.7,1.1
2026-03-23T1900,2343A,117.2114,29.2931,景德镇市,老干部活动中心,,20,20,12,12,10,47,47,36,36,13,11,5,5,0.5,0.5
2026-03-23T1900,2344A,117.1893,29.2789,景德镇市,兽医站,,28,24,21,19,11,54,54,43,43,14,12,3,4,0.9,0.8
2026-03-23T1900,2346A,117.246,29.2958,景德镇市,陶研所,,35,NA,11,24,9,46,46,38,38,20,15,4,4,1.0,1
2026-03-23T1900,4289A,117.154766,29.256967,景德镇市,青少年活动中心,,26,21,13,18,11,53,53,38,38,13,14,4,4,/,/
2026-03-23T1900,1803A,115.9873,29.6816,九江市,十里,细颗粒物(PM2.5),102,90,66,62,44,66,66,49,49,32,37,6,11,1.3,1.2
2026-03-23T1900,1804A,115.9583,29.7047,九江市,茅山头,细颗粒物(PM2.5),112,88,55,73,48,86,86,70,70,26,37,3,4,1.0,0.9
2026-03-23T1900,1805A,115.9877,29.7295,九江市,西园,细颗粒物(PM2.5),107,87,57,67,45,81,81,70,70,45,54,4,4,1.1,1
2026-03-23T1900,1808A,115.9112,29.6038,九江市,综合工业园,细颗粒物(PM2.5),92,78,48,56,34,90,90,60,60,22,38,8,9,0.9,0.8
2026-03-23T1900,3190A,116.0254,29.6995,九江市,外国语学校,细颗粒物(PM2.5),102,NA,44,62,42,76,76,60,60,26,32,6,7,1.2,1.1
2026-03-23T1900,4253A,116.010205,29.659402,九江市,莲花大道8号,细颗粒物(PM2.5),96,74,52,58,38,66,66,51,51,24,25,5,6,1.0,0.9
2026-03-23T1900,4240A,98.495752,39.733935,酒泉市,玉门东路5号,颗粒物(PM10),113,153,113,39,31,93,93,96,96,5,7,5,7,0.3,0.3
2026-03-23T1900,4241A,98.5099,39.7506,酒泉市,北大街108号,颗粒物(PM10),110,144,107,40,34,86,86,91,91,6,10,7,8,0.2,0.3
2026-03-23T1900,2698A,76.0071,39.466,喀什地区,巡警大队,颗粒物(PM10),136,212,189,73,60,111,111,96,96,4,35,3,4,0.3,0.7
2026-03-23T1900,2699A,75.9756,39.4693,喀什地区,吾办,颗粒物(PM10),135,209,188,61,65,109,109,95,95,7,36,3,3,0.3,0.7
2026-03-23T1900,4027A,75.9485,39.4688,喀什地区,老干局,颗粒物(PM10),139,219,185,52,51,116,116,98,98,NA,33,2,3,0.5,0.9
2026-03-23T1900,1824A,114.3389,34.778,开封市,肿瘤医院,细颗粒物(PM2.5),155,127,120,118,73,128,128,138,138,NA,45,8,11,0.9,0.8
2026-03-23T1900,1826A,114.2884,34.7966,开封市,世纪星幼儿园,细颗粒物(PM2.5),268,NA,112,218,67,114,114,130,130,25,35,10,11,1.0,0.9
2026-03-23T1900,3147A,114.3434,34.8101,开封市,龙亭公园,细颗粒物(PM2.5),274,NA,121,224,68,121,121,144,140,26,50,10,11,0.7,0.9
2026-03-23T1900,3210A,114.3645,34.7955,开封市,汴京公园,细颗粒物(PM2.5),158,140,120,120,72,124,124,142,142,27,44,5,7,0.8,0.6
2026-03-23T1900,3473A,114.2485,34.8306,开封市,技师学院,细颗粒物(PM2.5),173,162,128,131,65,104,104,121,121,27,41,9,9,1.3,1.1
2026-03-23T1900,3592A,114.4518,34.7503,开封市,祥符区生态环境局,细颗粒物(PM2.5),150,141,165,115,77,128,128,134,134,NA,52,7,9,0.8,0.7
2026-03-23T1900,1951A,84.886,45.6029,克拉玛依市,长征新村,颗粒物(PM10),53,54,41,18,16,124,124,110,110,11,17,9,7,0.5,0.5
2026-03-23T1900,1952A,84.8894,45.5827,克拉玛依市,南林小区,颗粒物(PM10),53,54,45,17,14,133,133,117,117,3,12,5,5,0.1,0.2
2026-03-23T1900,1954A,84.896,44.3328,克拉玛依市,独山子区,颗粒物(PM10),88,103,81,53,39,134,134,126,126,22,23,10,6,0.7,0.7
2026-03-23T1900,1955A,85.6888,46.0909,克拉玛依市,乌尔禾区商贸楼,,39,39,44,26,16,109,109,94,94,8,18,4,3,0.2,0.3
2026-03-23T1900,3612A,85.1045,45.6895,克拉玛依市,白碱滩区新站,,48,48,42,22,20,128,128,121,121,13,16,9,7,0.6,0.6
2026-03-23T1900,2697A,76.1457,39.7143,克孜勒苏柯尔克孜自治州,市人民政府,颗粒物(PM10),127,188,163,52,47,113,113,107,107,2,10,4,4,0.2,0.2
2026-03-23T1900,3665A,76.1654,39.7157,克孜勒苏柯尔克孜自治州,克州文化中心,颗粒物(PM10),130,196,181,58,54,113,113,106,106,2,15,6,6,0.2,0.4
2026-03-23T1900,1450A,102.8203,24.889,昆明市,呈贡新区,,35,29,21,16,16,109,109,121,121,13,15,6,6,0.6,0.6
2026-03-23T1900,1452A,102.7253,25.0904,昆明市,龙泉镇,,33,29,25,18,12,105,105,113,113,10,24,4,4,0.5,0.6
2026-03-23T1900,1453A,102.7267,25.0378,昆明市,东风东路,,34,24,22,13,15,108,108,116,116,10,12,2,4,0.4,0.6
2026-03-23T1900,1454A,102.6744,25.0671,昆明市,金鼎山,,37,37,25,17,14,107,107,115,115,12,15,3,3,0.5,0.6
2026-03-23T1900,1455A,102.6643,25.0401,昆明市,碧鸡广场,NA,NA,20,22,16,16,NA,NA,112,112,13,21,4,6,0.7,0.5
2026-03-23T1900,3179A,102.7491,25.012,昆明市,官渡区博物馆,,33,29,25,12,14,105,105,114,114,10,16,3,4,0.5,0.6
2026-03-23T1900,3375A,102.8016,24.8336,昆明市,青年创业园,,36,NA,20,15,13,114,114,121,121,3,18,4,4,0.4,0.5
2026-03-23T1900,3550A,102.8,24.9787,昆明市,昆明学院,,34,18,24,13,14,107,107,117,117,9,17,4,6,0.4,0.6
2026-03-23T1900,3551A,102.5969,24.6738,昆明市,晋宁区生态环境分局,,36,NA,24,16,16,114,114,121,121,6,22,10,6,0.5,0.5
2026-03-23T1900,3552A,102.6673,24.9861,昆明市,云天化总部,,35,17,23,12,13,110,110,117,117,8,22,4,6,0.3,0.6
2026-03-23T1900,1456A,91.132,29.6515,拉萨市,八廓街,,45,10,15,3,6,141,141,133,133,6,8,5,5,0.2,0.3
2026-03-23T1900,1457A,91.1221,29.6748,拉萨市,市环保局,,41,11,16,3,7,129,129,122,122,10,10,3,3,0.4,0.4
2026-03-23T1900,1458A,91.0874,29.6476,拉萨市,区监测站,,41,NA,11,8,7,129,129,125,125,11,11,4,4,0.3,0.4
2026-03-23T1900,1459A,91.1774,29.6541,拉萨市,西藏大学,,43,9,12,3,7,137,137,130,130,9,10,4,4,0.2,0.3
2026-03-23T1900,1460A,90.9798,29.6586,拉萨市,区辐射站,,40,13,19,3,8,125,125,119,119,14,17,4,5,0.3,0.4
2026-03-23T1900,1461A,91.0831,29.6292,拉萨市,拉萨火车站,,42,15,14,7,7,134,134,127,127,6,8,4,4,0.4,0.4
2026-03-23T1900,2520A,109.2203,23.7252,来宾市,来宾技工学校,,47,47,90,20,72,65,65,66,66,9,23,4,6,0.7,1.1
2026-03-23T1900,3535A,109.1781,23.7293,来宾市,兴宾区政府,,38,37,98,26,73,73,73,72,72,9,23,7,9,0.6,1
2026-03-23T1900,4002A,109.2312,23.7428,来宾市,中南小学,NA,NA,NA,85,NA,86,NA,NA,72,72,NA,23,NA,7,NA,1.1
2026-03-23T1900,1479A,103.8309,36.0467,兰州市,铁路设计院,颗粒物(PM10),88,102,142,42,52,102,102,99,99,21,37,3,9,0.5,0.3
2026-03-23T1900,3241A,103.7439,36.0841,兰州市,百合公园,颗粒物(PM10),87,101,138,44,59,103,103,93,93,9,38,5,11,0.2,0.6
2026-03-23T1900,3242A,103.9613,35.9985,兰州市,和平,颗粒物(PM10),96,114,161,37,51,108,108,106,106,10,18,10,14,0.4,0.6
2026-03-23T1900,4236A,103.629272,36.093822,兰州市,庄浪东路808号,颗粒物(PM10),102,123,148,51,57,105,105,105,105,10,21,9,18,0.4,0.5
2026-03-23T1900,4237A,103.7251,36.104344,兰州市,安宁西路88号,颗粒物(PM10),99,118,171,45,66,116,116,105,105,4,34,9,13,0.3,0.5
2026-03-23T1900,4238A,103.846982,36.067567,兰州市,北滨河东路1号,颗粒物(PM10),87,101,136,47,58,103,103,102,102,18,45,8,11,0.6,0.8
2026-03-23T1900,1067A,116.6712,39.5109,廊坊市,药材公司,颗粒物(PM10),65,71,110,40,82,103,103,120,119,17,24,1,3,0.4,0.7
2026-03-23T1900,1068A,116.7215,39.5592,廊坊市,开发区,细颗粒物(PM2.5),60,60,113,40,82,105,105,120,120,14,22,1,2,0.4,0.7
2026-03-23T1900,1070A,116.7246,39.5273,廊坊市,北华航天学院,颗粒物(PM10),58,60,119,35,79,105,105,121,121,16,25,3,4,0.6,0.8
2026-03-23T1900,2919A,116.7022,39.5454,廊坊市,河北工业大学,细颗粒物(PM2.5),66,55,118,43,81,106,106,120,120,16,23,2,4,0.4,0.7
2026-03-23T1900,2536A,103.7629,29.5844,乐山市,牛耳桥,颗粒物(PM10),51,51,45,24,25,51,51,55,53,29,23,8,7,0.6,0.5
2026-03-23T1900,2537A,103.7501,29.6002,乐山市,市第三水厂,,48,48,41,24,26,60,60,56,56,23,24,6,5,0.6,0.6
2026-03-23T1900,2538A,103.7571,29.5664,乐山市,市监测站,,49,49,43,22,25,56,56,54,50,22,20,5,3,0.7,0.7
2026-03-23T1900,3361A,103.7313,29.563,乐山市,理工大学,,44,44,39,25,28,53,53,52,48,21,20,9,8,0.7,0.7
2026-03-23T1900,2599A,100.2497,26.8802,丽江市,丽江古城,,34,21,16,9,6,108,108,104,104,11,9,9,8,0.5,0.5
2026-03-23T1900,2600A,100.2203,26.8906,丽江市,市中心,NA,NA,NA,7,12,7,108,108,107,107,14,11,11,9,0.3,0.3
2026-03-23T1900,1267A,119.9141,28.4513,丽水市,监测站大楼,,22,22,26,13,20,46,46,33,33,30,25,4,4,0.7,0.7
2026-03-23T1900,1268A,119.93,28.4589,丽水市,莲都小学,,20,20,28,13,17,37,37,35,35,33,26,/,/,/,/
2026-03-23T1900,1269A,119.8794,28.4232,丽水市,余庄前,,16,16,28,9,19,50,50,27,27,17,22,3,4,0.7,0.7
2026-03-23T1900,1173A,119.1759,34.5885,连云港市,市环境监测站,细颗粒物(PM2.5),96,75,100,58,76,109,109,122,122,19,26,9,10,0.6,0.6
2026-03-23T1900,3000A,119.3577,34.6971,连云港市,德源药业,细颗粒物(PM2.5),86,78,112,53,61,102,102,120,119,20,39,5,6,0.7,0.8
2026-03-23T1900,3007A,119.178,34.8442,连云港市,新城一中,细颗粒物(PM2.5),107,90,99,67,80,103,103,117,117,30,35,7,8,0.5,0.6
2026-03-23T1900,3008A,119.3607,34.7519,连云港市,胡沟管理处,"颗粒物(PM10),细颗粒物(PM2.5)",68,75,94,44,53,84,84,106,103,45,53,11,11,0.7,0.7
2026-03-23T1900,3009A,119.1478,34.5913,连云港市,矿山设计院,细颗粒物(PM2.5),82,83,108,51,69,110,110,123,123,32,37,8,9,0.8,0.8
2026-03-23T1900,3434A,119.2414,34.6539,连云港市,工贸学校,细颗粒物(PM2.5),74,65,98,47,71,129,129,121,121,14,23,9,11,0.3,0.6
2026-03-23T1900,3664A,119.4171,34.734,连云港市,连云街道,细颗粒物(PM2.5),78,71,98,49,63,146,146,120,120,14,29,5,5,0.5,0.6
2026-03-23T1900,2573A,102.2629,27.8981,凉山彝族自治州,西昌市政府,,34,16,19,3,10,106,106,109,109,5,7,6,11,0.5,0.8
2026-03-23T1900,2574A,102.2686,27.885,凉山彝族自治州,凉山州政府,,29,14,17,3,8,92,92,94,94,5,7,3,8,0.4,0.6
2026-03-23T1900,4229A,102.2342,27.8859,凉山彝族自治州,凯乐南路30号,,31,14,19,3,8,97,97,100,100,7,7,2,9,0.4,0.6
2026-03-23T1900,2212A,123.1978,41.2036,辽阳市,宏伟区,细颗粒物(PM2.5),111,98,120,72,100,99,99,120,120,26,23,9,9,0.8,1.2
2026-03-23T1900,2213A,123.1684,41.2497,辽阳市,新华园,细颗粒物(PM2.5),110,87,128,70,97,102,102,116,116,30,36,9,9,0.8,1.4
2026-03-23T1900,2214A,123.2355,41.2663,辽阳市,滨河路,细颗粒物(PM2.5),100,83,106,60,93,98,98,108,108,31,33,6,6,0.7,1.4
2026-03-23T1900,4083A,123.153,41.2874,辽阳市,铁西路150号,细颗粒物(PM2.5),125,114,125,87,92,89,89,103,103,39,38,10,10,0.9,1.7
2026-03-23T1900,2227A,125.1359,42.8845,辽源市,环保局,NA,NA,59,108,36,87,63,63,99,99,NA,23,5,6,0.6,0.9
2026-03-23T1900,4085A,125.0998,42.9134,辽源市,安宁大街333号,颗粒物(PM10),71,79,111,41,97,76,76,105,105,28,27,6,4,0.6,1
2026-03-23T1900,1625A,115.9789,36.4372,聊城市,区政府,细颗粒物(PM2.5),131,NA,131,94,66,NA,NA,129,129,29,38,8,12,0.9,0.8
2026-03-23T1900,3200A,115.9772,36.4986,聊城市,监控中心,细颗粒物(PM2.5),132,175,146,95,73,128,128,140,140,26,48,13,14,0.9,0.9
2026-03-23T1900,3513A,116.0443,36.436,聊城市,九州社区,细颗粒物(PM2.5),108,128,136,68,73,144,144,138,138,20,42,4,5,0.8,0.8
2026-03-23T1900,4018A,116.0564,36.4609,聊城市,星美广场,"颗粒物(PM10),细颗粒物(PM2.5)",111,147,151,72,73,126,126,125,125,28,45,9,9,0.8,0.8
2026-03-23T1900,4113A,116.0091,36.4495,聊城市,利民路,细颗粒物(PM2.5),114,136,130,75,67,149,149,146,146,24,44,10,11,0.9,0.8
2026-03-23T1900,2632A,94.3683,29.6373,林芝市,林芝监测站,,34,NA,5,16,5,106,106,96,96,3,2,2,2,0.4,0.4
2026-03-23T1900,2633A,94.3616,29.6634,林芝市,林芝人民医院,,34,NA,9,17,6,106,106,98,98,8,3,1,2,0.6,0.5
2026-03-23T1900,2603A,100.0779,23.8981,临沧市,市环保局,,38,37,28,26,21,106,106,102,102,8,7,7,6,0.4,0.6
2026-03-23T1900,2604A,100.0894,23.882,临沧市,市气象局,,38,31,26,26,23,114,114,102,102,9,9,6,6,0.1,0.3
2026-03-23T1900,1733A,111.5552,36.0791,临汾市,临钢医院,颗粒物(PM10),90,105,118,38,32,73,73,93,93,34,26,10,8,0.8,0.6
2026-03-23T1900,1734A,111.4984,36.0734,临汾市,技工学校,颗粒物(PM10),84,97,128,46,41,91,91,92,92,18,28,9,9,0.5,0.5
2026-03-23T1900,1736A,111.5017,36.0857,临汾市,市委,颗粒物(PM10),78,89,133,30,36,91,91,96,96,21,29,7,7,0.7,0.7
2026-03-23T1900,3018A,111.5048,36.1015,临汾市,唐尧大酒店,颗粒物(PM10),87,101,126,28,36,91,91,92,92,22,32,10,10,0.7,0.6
2026-03-23T1900,4244A,111.4879,36.053,临汾市,启星学校,颗粒物(PM10),82,94,127,41,38,81,81,91,91,31,42,8,7,0.6,0.6
2026-03-23T1900,4271A,103.2464,35.6123,临夏回族自治州,滨河东路1号,颗粒物(PM10),119,169,210,51,77,110,110,101,101,26,31,14,12,0.4,0.8
2026-03-23T1900,4310A,103.207136,35.599807,临夏回族自治州,新华街21号,颗粒物(PM10),117,164,189,56,68,95,95,89,89,7,14,13,11,0.6,0.9
2026-03-23T1900,1618A,118.3429,35.0532,临沂市,沂河小区,细颗粒物(PM2.5),88,90,146,54,104,119,119,132,132,15,29,10,14,0.4,0.8
2026-03-23T1900,1619A,118.2962,35.0568,临沂市,鲁南制药厂,细颗粒物(PM2.5),88,80,139,54,103,122,122,135,135,22,33,11,15,0.4,0.9
2026-03-23T1900,1620A,118.2793,34.9976,临沂市,新光毛纺厂,细颗粒物(PM2.5),102,75,133,62,106,117,117,130,130,27,36,8,13,0.4,0.9
2026-03-23T1900,1621A,118.3955,35.0889,临沂市,河东保险公司,细颗粒物(PM2.5),94,83,139,57,105,124,124,141,141,20,35,8,14,0.3,0.9
2026-03-23T1900,3370A,118.3563,35.0215,临沂市,十里堡居委,细颗粒物(PM2.5),94,80,132,57,106,122,122,135,135,26,38,9,14,0.5,1
2026-03-23T1900,3496A,118.359,35.1067,临沂市,南坊新区,细颗粒物(PM2.5),98,75,132,59,107,121,121,135,135,21,34,10,14,0.4,0.9
2026-03-23T1900,3860A,118.3915,35.0297,临沂市,皇山花园小区,细颗粒物(PM2.5),94,78,139,57,109,125,125,139,139,22,38,11,16,0.5,1.1
2026-03-23T1900,1870A,109.4854,24.3898,柳州市,柳东小学,细颗粒物(PM2.5),112,80,70,73,60,35,35,50,50,40,22,10,6,1.0,1
2026-03-23T1900,1871A,109.4109,24.3304,柳州市,环保监测站,颗粒物(PM10),60,64,96,36,72,43,43,51,51,33,29,5,12,1.0,1.3
2026-03-23T1900,1872A,109.3886,24.3408,柳州市,河西水厂,颗粒物(PM10),65,70,105,42,71,44,44,58,58,35,27,7,16,0.7,1
2026-03-23T1900,1873A,109.4263,24.2951,柳州市,市四中,细颗粒物(PM2.5),60,62,110,40,77,55,55,53,53,21,29,8,12,1.0,1.5
2026-03-23T1900,1874A,109.396,24.3658,柳州市,市九中,颗粒物(PM10),83,96,102,48,67,30,30,44,44,30,24,9,14,1.0,1.3
2026-03-23T1900,1875A,109.4912,24.3164,柳州市,古亭山,颗粒物(PM10),63,67,99,30,67,51,51,52,52,22,26,6,8,0.8,1.2
2026-03-23T1900,3402A,109.5422,24.3994,柳州市,市二中,颗粒物(PM10),125,185,81,81,61,NA,NA,35,35,39,26,10,8,1.0,1.1
2026-03-23T1900,2307A,116.5078,31.7369,六安市,监测大楼,,50,50,65,22,46,101,101,119,119,27,24,4,4,0.4,0.5
2026-03-23T1900,2308A,116.4738,31.7642,六安市,皖西学院,,47,47,71,20,50,107,107,128,128,20,22,5,5,0.3,0.5
2026-03-23T1900,2309A,116.4997,31.7904,六安市,朝阳厂,,44,44,69,19,51,106,106,126,126,24,33,5,6,0.3,0.5
2026-03-23T1900,2310A,116.5566,31.7885,六安市,开发区,,46,46,69,20,46,90,90,125,123,36,26,5,6,0.3,0.5
2026-03-23T1900,2577A,104.8293,26.592,六盘水市,黄土坡,颗粒物(PM10),52,52,36,28,23,76,76,113,113,14,15,7,7,0.5,0.5
2026-03-23T1900,2579A,104.8481,26.5898,六盘水市,民中,颗粒物(PM10),55,57,37,26,24,71,71,109,108,14,15,4,5,0.6,0.7
2026-03-23T1900,2580A,104.9541,26.5506,六盘水市,双水,颗粒物(PM10),58,61,35,28,22,73,73,104,104,14,10,4,4,0.6,0.4
2026-03-23T1900,4151A,104.8899,26.5685,六盘水市,钟山大道中段564号,颗粒物(PM10),74,83,45,35,26,72,72,110,109,13,11,9,9,1.5,0.7
2026-03-23T1900,2336A,117.022,25.1031,龙岩市,龙岩市监测站,,40,NA,33,28,24,98,98,107,107,10,15,6,8,0.9,0.9
2026-03-23T1900,2337A,117.0257,25.0662,龙岩市,闽西职业技术学院,,38,28,35,26,22,91,91,103,103,10,12,6,7,0.6,0.6
2026-03-23T1900,2338A,117.0195,25.0306,龙岩市,龙岩学院,,40,31,29,28,21,91,91,103,103,6,7,5,4,/,/
2026-03-23T1900,2885A,104.9344,33.3827,陇南市,滨江中学,,39,39,64,17,23,61,61,64,64,15,12,6,6,0.7,0.6
2026-03-23T1900,3247A,104.9551,33.3709,陇南市,市总工会,颗粒物(PM10),67,73,65,22,22,55,55,62,62,22,12,6,5,0.7,0.7
2026-03-23T1900,2488A,111.9984,27.7346,娄底市,市监测站,,27,27,26,13,17,45,45,53,53,20,21,5,6,0.8,0.9
2026-03-23T1900,2491A,111.9888,27.7035,娄底市,市政府,,20,15,28,14,22,43,43,49,49,16,16,5,5,0.8,0.9
2026-03-23T1900,4127A,111.9812,27.7591,娄底市,涟钢职大,,35,27,22,24,15,48,48,51,51,18,19,6,2,0.5,0.7
2026-03-23T1900,4128A,112.0303,27.7457,娄底市,娄底体校,,25,25,29,11,15,47,47,48,48,4,14,2,2,0.6,0.8
2026-03-23T1900,1894A,105.4427,28.9063,泸州市,小市上码头,细颗粒物(PM2.5),56,45,40,38,34,39,39,62,50,26,17,8,8,0.7,0.7
2026-03-23T1900,1895A,105.4241,28.8573,泸州市,兰田宪桥,颗粒物(PM10),51,51,45,32,29,35,35,54,43,19,18,6,6,0.8,0.8
2026-03-23T1900,1896A,105.4378,28.8833,泸州市,市环监站,颗粒物(PM10),56,58,53,33,30,30,30,62,44,31,21,4,4,0.7,0.7
2026-03-23T1900,4272A,105.3689,28.7783,泸州市,纳溪中医医院,,39,37,41,27,30,49,49,58,52,17,15,6,6,0.7,0.7
2026-03-23T1900,2183A,111.1447,37.5212,吕梁市,环保局,颗粒物(PM10),80,91,106,29,32,102,102,94,94,16,28,7,10,0.4,0.3
2026-03-23T1900,2185A,111.1285,37.5338,吕梁市,自来水公司,颗粒物(PM10),81,93,120,31,31,99,99,97,97,19,28,6,9,0.5,0.5
2026-03-23T1900,2867A,111.1225,37.5093,吕梁市,马茂庄小学,颗粒物(PM10),96,114,121,30,29,95,95,87,87,22,39,5,8,0.4,0.5
2026-03-23T1900,1812A,112.3934,34.6517,洛阳市,市委党校,细颗粒物(PM2.5),128,139,130,90,58,105,105,97,97,29,32,12,11,0.8,0.7
2026-03-23T1900,1815A,112.494,34.6883,洛阳市,河南林校,细颗粒物(PM2.5),126,141,131,88,53,107,107,106,106,35,40,16,15,0.7,0.6
2026-03-23T1900,1816A,112.3843,34.623,洛阳市,开发区管委会,细颗粒物(PM2.5),130,162,148,92,54,109,109,105,105,30,34,NA,14,0.6,0.5
2026-03-23T1900,1817A,112.4263,34.6249,洛阳市,市委新办公区,细颗粒物(PM2.5),129,155,145,91,61,103,103,101,101,27,30,12,12,0.7,0.6
2026-03-23T1900,3340A,112.6005,34.6323,洛阳市,伊滨,细颗粒物(PM2.5),116,154,149,77,59,86,86,98,97,40,44,10,11,0.8,0.7
2026-03-23T1900,3341A,112.495,34.6338,洛阳市,中移产业园,细颗粒物(PM2.5),125,140,139,87,63,97,97,97,97,34,37,12,13,0.6,0.5
2026-03-23T1900,3593A,112.5736,34.8993,洛阳市,吉利监测站,细颗粒物(PM2.5),122,133,121,84,50,106,106,110,110,30,29,15,13,0.7,0.5
2026-03-23T1900,3635A,112.3678,34.6623,洛阳市,河科大西苑校区,细颗粒物(PM2.5),134,143,136,97,59,118,118,109,109,32,37,13,12,0.6,0.6
2026-03-23T1900,3636A,112.4387,34.678,洛阳市,英才小学,细颗粒物(PM2.5),121,158,139,83,56,111,111,103,103,34,41,15,14,0.8,0.7
2026-03-23T1900,4214A,112.460027,34.694929,洛阳市,春都路1号院,细颗粒物(PM2.5),120,152,148,82,54,108,108,105,105,30,34,13,13,0.8,0.7
2026-03-23T1900,2399A,114.051,33.5721,漯河市,三五一五工厂,颗粒物(PM10),107,138,156,57,72,122,122,131,131,20,23,6,7,0.5,0.5
2026-03-23T1900,2400A,114.0055,33.5698,漯河市,漯河大学,颗粒物(PM10),103,127,135,59,78,129,129,135,135,22,24,6,8,0.6,0.6
2026-03-23T1900,2401A,114.0134,33.5826,漯河市,市水利局,细颗粒物(PM2.5),106,127,137,66,77,119,119,128,128,19,23,6,8,0.6,0.7
2026-03-23T1900,2402A,114.0261,33.5697,漯河市,市广电局,细颗粒物(PM2.5),107,122,134,67,79,125,125,132,132,18,20,6,8,0.6,0.6
2026-03-23T1900,3478A,113.9691,33.568,漯河市,市图书馆,颗粒物(PM10),108,139,151,66,77,117,117,126,126,23,21,6,7,0.6,0.7
2026-03-23T1900,4250A,114.089259,33.588274,漯河市,韶山路11号,细颗粒物(PM2.5),109,138,151,69,79,99,99,117,117,28,30,7,9,0.5,0.5
2026-03-23T1900,1798A,118.5084,31.6838,马鞍山市,湖东路四小,颗粒物(PM10),58,61,78,31,59,103,103,134,132,21,26,8,9,0.7,0.9
2026-03-23T1900,1799A,118.5019,31.6449,马鞍山市,开发区,颗粒物(PM10),64,69,82,33,57,103,103,134,133,26,26,6,8,0.6,0.7
2026-03-23T1900,3633A,118.4914,31.681,马鞍山市,雨山,颗粒物(PM10),61,65,73,29,44,106,106,140,135,22,23,6,8,0.7,0.9
2026-03-23T1900,4191A,118.527362,31.722269,马鞍山市,慈湖高新区,颗粒物(PM10),54,55,100,29,56,108,108,137,135,19,21,7,9,0.5,0.7
2026-03-23T1900,1686A,111.0285,21.469,茂名市,电白南海,,31,31,38,17,15,73,73,72,72,9,9,5,5,0.9,0.9
2026-03-23T1900,1687A,110.9294,21.6533,茂名市,茂石化七小,,44,44,43,21,22,59,59,66,66,14,13,5,6,0.6,0.5
2026-03-23T1900,1688A,110.9108,21.6688,茂名市,健康路,,39,39,35,17,18,64,64,72,72,12,12,3,4,0.7,0.6
2026-03-23T1900,1689A,110.8592,21.6826,茂名市,高岭,,48,48,47,20,21,61,61,70,69,15,11,3,4,/,/
2026-03-23T1900,3450A,111.0101,21.5165,茂名市,电白水东,,27,27,29,15,17,70,70,68,68,10,10,4,4,/,/
2026-03-23T1900,2540A,103.8414,30.0871,眉山市,气象局,颗粒物(PM10),58,61,56,16,20,70,70,65,65,20,20,8,8,0.6,0.6
2026-03-23T1900,3148A,103.829,30.0563,眉山市,区人社局,颗粒物(PM10),58,60,54,23,22,58,58,61,61,27,24,10,10,0.7,0.7
2026-03-23T1900,4148A,103.8836,30.0695,眉山市,眉职院,NA,NA,58,51,18,20,60,60,63,63,26,23,NA,8,0.7,0.7
2026-03-23T1900,1690A,116.1248,24.3307,梅州市,梅江月梅,细颗粒物(PM2.5),68,55,47,44,33,129,129,120,120,15,22,/,/,/,/
2026-03-23T1900,1691A,116.0798,24.2719,梅州市,梅县新城,细颗粒物(PM2.5),64,56,49,42,33,117,117,117,117,19,25,8,9,0.8,0.7
2026-03-23T1900,3315A,116.1234,24.2994,梅州市,梅龙,"颗粒物(PM10),细颗粒物(PM2.5)",58,61,46,39,34,109,109,116,116,19,19,7,8,1.0,0.8
2026-03-23T1900,1878A,104.7775,31.4741,绵阳市,富乐山,颗粒物(PM10),54,55,46,22,17,86,86,86,86,7,12,6,6,0.7,0.7
2026-03-23T1900,1880A,104.6698,31.4668,绵阳市,高新区自来水公司,,48,48,50,17,17,82,82,83,83,14,17,8,8,0.6,0.6
2026-03-23T1900,3491A,104.6899,31.5324,绵阳市,西科大附属小学,,37,37,52,15,19,90,90,85,85,10,20,7,7,0.6,0.6
2026-03-23T1900,3492A,104.5647,31.5343,绵阳市,安州区旅游局,颗粒物(PM10),53,54,59,16,17,89,89,88,88,8,12,5,5,0.5,0.5
2026-03-23T1900,4146A,104.7092,31.4972,绵阳市,科技城新区公安局,颗粒物(PM10),51,51,52,18,17,79,79,78,78,11,16,7,7,0.6,0.6
2026-03-23T1900,4226A,104.765114,31.453094,绵阳市,绵阳市气象局,颗粒物(PM10),55,57,52,19,17,75,75,76,76,15,18,8,8,0.5,0.6
2026-03-23T1900,1784A,129.61,44.561,牡丹江市,环保大楼,细颗粒物(PM2.5),88,99,57,54,47,55,55,96,91,48,21,3,2,0.7,0.6
2026-03-23T1900,1787A,129.6364,44.6075,牡丹江市,机车工厂,细颗粒物(PM2.5),106,86,75,66,64,68,68,91,89,21,26,6,4,0.6,0.7
2026-03-23T1900,1788A,129.6386,44.5462,牡丹江市,第一中学,细颗粒物(PM2.5),90,101,54,55,49,30,30,94,86,57,23,5,3,0.6,0.5
2026-03-23T1900,4287A,129.5992,44.5964,牡丹江市,东晓云街98号,细颗粒物(PM2.5),104,111,73,64,61,54,54,94,90,33,21,6,3,0.9,0.7
2026-03-23T1900,2531A,105.0703,29.61,内江市,市监测站,,45,45,39,24,29,62,62,70,63,11,14,7,7,0.5,0.5
2026-03-23T1900,2533A,105.0657,29.5807,内江市,内江二中,,40,40,50,22,27,64,64,75,64,18,20,8,8,0.5,0.5
2026-03-23T1900,2534A,105.0407,29.5828,内江市,内江日报社,,45,45,38,20,27,65,65,74,64,14,17,14,14,0.5,0.6
2026-03-23T1900,4147A,105.0433,29.6105,内江市,玉峰路西段888号,NA,NA,107,43,29,33,69,69,77,70,NA,17,NA,9,0.4,0.5
2026-03-23T1900,2628A,92.0653,31.4846,那曲市,那曲监测站,,39,NA,23,15,20,122,122,115,115,7,13,9,9,0.5,0.6
2026-03-23T1900,4243A,92.0515,31.4787,那曲市,那曲市委宣传部,,41,19,12,3,9,129,129,124,124,4,6,7,8,0.5,0.5
2026-03-23T1900,1291A,115.8887,28.7006,南昌市,省林业公司,,33,NA,15,23,15,26,26,39,39,31,23,3,3,0.5,0.3
2026-03-23T1900,1292A,115.813,28.7443,南昌市,林科所,,40,NA,13,28,11,38,38,40,40,22,26,7,7,0.7,0.4
2026-03-23T1900,1294A,115.8518,28.687,南昌市,建工学校,,39,32,26,27,15,31,31,43,41,38,26,8,8,1.1,0.9
2026-03-23T1900,1295A,115.8926,28.6425,南昌市,象湖,NA,NA,NA,12,NA,16,NA,NA,41,41,27,19,7,7,1.1,0.9
2026-03-23T1900,3046A,115.9084,28.6062,南昌市,机电学校,,40,39,27,28,18,34,34,40,40,31,22,4,4,0.9,0.8
2026-03-23T1900,3690A,115.9718,28.7032,南昌市,外国语学校,细颗粒物(PM2.5),64,NA,18,42,18,37,37,43,42,27,15,8,7,1.1,0.8
2026-03-23T1900,4106A,115.7923,28.6873,南昌市,工业二路,,38,35,30,26,19,33,33,37,37,31,25,4,4,1.0,0.9
2026-03-23T1900,4192A,115.931587,28.686774,南昌市,南京东路235号,,40,29,28,28,15,30,30,45,43,26,10,5,4,0.9,0.7
2026-03-23T1900,1906A,106.0791,30.8022,南充市,南充市委,,19,19,35,12,21,46,46,48,48,17,21,6,6,0.5,0.6
2026-03-23T1900,1907A,106.1038,30.8215,南充市,南充炼油厂,,19,19,41,9,20,48,48,43,43,11,17,4,5,0.4,0.4
2026-03-23T1900,4227A,106.108336,30.788436,南充市,梨树横街98号,,19,12,35,7,21,58,58,56,56,10,15,5,6,0.2,0.3
2026-03-23T1900,4304A,106.1172,30.843,南充市,清泉寺北路188号,,19,15,36,6,14,58,58,56,56,6,10,5,6,0.3,0.4
2026-03-23T1900,4305A,106.067,30.7616,南充市,同庆路1号,,22,22,39,3,12,51,51,50,50,13,19,5,6,0.5,0.6
2026-03-23T1900,1151A,118.8033,32.1085,南京市,迈皋桥,,41,41,68,13,46,112,112,122,122,13,38,5,7,0.1,0.3
2026-03-23T1900,1152A,118.7487,32.057,南京市,草场门,,44,44,67,11,40,94,94,110,108,36,48,9,10,0.4,0.6
2026-03-23T1900,1154A,118.770105,32.004342,南京市,中华门,,46,46,71,15,41,109,109,119,118,16,25,4,5,0.6,0.7
2026-03-23T1900,1155A,118.8059,32.0329,南京市,瑞金路,,46,46,68,18,43,101,101,109,108,41,46,4,4,0.9,1
2026-03-23T1900,1156A,118.7946,32.0774,南京市,玄武湖,,42,42,72,19,46,80,80,102,99,27,34,7,9,0.6,0.8
2026-03-23T1900,1157A,118.6415,32.0964,南京市,浦口,颗粒物(PM10),55,56,75,17,46,87,87,101,101,26,28,5,6,0.4,0.5
2026-03-23T1900,1158A,118.730129,32.000956,南京市,奥体中心,,47,47,74,17,39,114,114,124,123,22,28,6,7,0.4,0.4
2026-03-23T1900,1159A,118.9072,32.1047,南京市,仙林大学城,,44,44,75,12,45,91,91,105,105,23,42,8,8,0.5,0.7
2026-03-23T1900,3422A,118.8443,31.919,南京市,江宁彩虹桥,颗粒物(PM10),53,53,66,13,36,111,111,130,127,23,30,3,4,0.6,0.8
2026-03-23T1900,3427A,118.8497,32.3599,南京市,六合雄州,,37,37,61,24,47,95,95,102,102,20,28,4,4,0.5,0.7
2026-03-23T1900,4086A,118.7641,32.0841,南京市,新模范马路66号,,44,44,73,10,40,93,93,109,108,26,42,5,4,0.9,1
2026-03-23T1900,4249A,118.8707617,31.34017673,南京市,汶溪路181号,颗粒物(PM10),63,67,67,14,43,88,88,106,106,25,38,6,7,0.5,0.6
2026-03-23T1900,4312A,119.019,31.6512,南京市,中山西路1号,颗粒物(PM10),51,51,81,24,55,74,74,102,99,20,22,4,4,0.5,0.8
2026-03-23T1900,1401A,108.3098,22.788,南宁市,二十一中,,29,20,32,20,21,72,72,67,67,8,13,4,5,0.6,0.7
2026-03-23T1900,1402A,108.3135,22.8529,南宁市,北湖,,38,38,43,23,31,71,71,68,68,8,20,2,3,0.7,0.8
2026-03-23T1900,1403A,108.3205,22.8222,南宁市,市监测站,,30,30,35,18,20,69,69,65,65,4,12,1,2,0.6,0.6
2026-03-23T1900,1404A,108.3828,22.8038,南宁市,大自然花园,,30,30,34,20,23,77,77,74,74,7,12,5,6,0.4,0.4
2026-03-23T1900,1406A,108.2397,22.8462,南宁市,区农职院,,40,40,38,21,20,65,65,61,61,11,21,6,6,0.2,0.3
2026-03-23T1900,1407A,108.3285,22.7356,南宁市,英华嘉园,颗粒物(PM10),63,68,48,32,24,70,70,67,67,15,21,4,5,0.6,0.6
2026-03-23T1900,3401A,108.4829,22.762,南宁市,红星社区,,43,43,43,21,31,75,75,70,70,7,18,5,5,0.6,0.7
2026-03-23T1900,4132A,108.2927,23.1477,南宁市,起凤路9号,,36,36,36,23,26,65,65,70,70,10,11,3,3,0.4,0.5
2026-03-23T1900,4221A,108.2177,22.7774,南宁市,乐贤路16号,,40,40,36,18,20,65,65,67,67,12,20,3,5,0.7,0.8
2026-03-23T1900,2332A,118.1682,26.6371,南平市,南平市监测站,,48,48,35,29,24,85,85,96,96,17,12,4,5,1.0,0.7
2026-03-23T1900,2334A,118.1757,26.6276,南平市,南平七中,,33,27,32,23,23,98,98,102,102,12,13,3,3,0.8,0.7
2026-03-23T1900,1168A,120.9056,31.9669,南通市,狼山街道,NA,NA,36,54,16,33,NA,NA,100,100,18,29,4,4,0.6,0.5
2026-03-23T1900,1170A,120.8635,32.0231,南通市,城中,,44,44,60,24,31,87,87,98,98,13,23,3,4,0.6,0.6
2026-03-23T1900,1171A,120.9376,31.9301,南通市,星湖花园,,44,44,47,20,32,83,83,98,98,24,24,6,5,1.0,0.5
2026-03-23T1900,1172A,120.8053,32.046,南通市,紫琅学院,,32,32,62,16,37,93,93,106,106,17,34,4,5,0.7,0.8
2026-03-23T1900,3291A,121.0631,32.0644,南通市,通州监测站,颗粒物(PM10),51,51,47,32,30,90,90,105,105,11,15,3,3,0.5,0.5
2026-03-23T1900,3432A,120.9348,31.9874,南通市,环境教育馆,,44,44,50,24,30,83,83,99,99,22,27,3,5,0.6,0.6
2026-03-23T1900,4091A,120.8692,31.9885,南通市,洪江路,,32,32,51,19,39,90,90,97,97,15,21,4,5,0.7,0.7
2026-03-23T1900,2404A,112.5338,33.0086,南阳市,瓦房庄,NA,NA,120,121,NA,59,112,112,121,120,16,15,5,6,0.8,0.7
2026-03-23T1900,2405A,112.5002,32.9734,南阳市,汉画馆,细颗粒物(PM2.5),130,134,130,93,73,117,117,126,125,20,18,6,7,0.8,0.7
2026-03-23T1900,2406A,112.5778,33.0144,南阳市,气象站,颗粒物(PM10),109,142,149,63,57,113,113,117,117,20,21,7,7,0.7,0.6
2026-03-23T1900,2407A,112.548,32.9687,南阳市,理工学院,细颗粒物(PM2.5),116,123,124,77,63,113,113,120,117,16,16,7,8,0.7,0.6
2026-03-23T1900,4008A,112.5233,32.9921,南阳市,卧龙区政府,细颗粒物(PM2.5),120,147,150,82,62,109,109,118,116,17,15,8,8,0.8,0.6
2026-03-23T1900,1234A,121.8352,29.9111,宁波市,区环保大楼,,25,24,51,7,21,77,77,76,76,40,68,6,8,0.3,0.4
2026-03-23T1900,1235A,121.5595,29.8208,宁波市,万里学院,,25,18,42,6,30,80,80,79,79,21,30,4,6,0.5,0.6
2026-03-23T1900,1236A,121.713,29.9564,宁波市,龙赛医院,,24,24,48,3,23,74,74,68,68,30,47,6,6,0.4,0.4
2026-03-23T1900,1240A,121.5855,29.8635,宁波市,太古小学,,25,16,46,6,26,80,80,78,78,34,36,4,5,0.5,0.7
2026-03-23T1900,1241A,121.5239,29.8673,宁波市,市环境监测中心,,27,27,47,8,29,75,75,73,73,38,35,8,9,0.6,0.7
2026-03-23T1900,2871A,121.6156,29.9015,宁波市,万里国际学校,,26,26,48,6,26,69,69,76,76,40,40,4,5,0.4,0.6
2026-03-23T1900,3710A,121.5593,29.8976,宁波市,白沙活动中心,,24,24,36,6,27,66,66,70,70,42,35,5,6,0.4,0.4
2026-03-23T1900,4095A,121.8962,29.7529,宁波市,中科路88号,,33,18,25,6,15,104,104,101,101,23,27,6,6,0.4,0.4
2026-03-23T1900,2341A,119.5387,26.6611,宁德市,宁德市监测站,,38,38,24,11,21,89,89,94,94,18,19,4,4,0.6,0.6
2026-03-23T1900,3209A,119.5231,26.6562,宁德市,宁德一中,,36,36,30,13,21,86,86,94,94,16,17,4,5,0.3,0.4
2026-03-23T1900,2618A,98.859,25.8541,怒江傈僳族自治州,州监测站,,33,28,24,23,13,68,68,70,70,17,11,7,7,0.7,0.6
2026-03-23T1900,2619A,98.8607,25.8168,怒江傈僳族自治州,泸水一中,,29,26,19,20,16,62,62,65,65,20,14,5,5,0.6,0.6
2026-03-23T1900,1888A,101.6891,26.571,攀枝花市,弄弄坪,,36,24,38,3,18,113,113,115,115,22,34,40,14,3.2,1.4
2026-03-23T1900,1889A,101.577,26.5914,攀枝花市,河门口,,41,13,31,7,16,130,130,114,114,5,15,6,14,0.5,0.9
2026-03-23T1900,1891A,101.7365,26.4986,攀枝花市,仁和,,38,12,19,6,13,119,119,114,114,10,11,8,8,0.6,0.6
2026-03-23T1900,2835A,101.7222,26.567,攀枝花市,四十中小,,39,22,39,3,19,124,124,120,120,10,27,3,10,0.6,1.2
2026-03-23T1900,1604A,122.0303,41.1489,盘锦市,开发区,细颗粒物(PM2.5),111,85,120,72,107,97,97,118,118,25,44,13,7,0.6,1.1
2026-03-23T1900,1605A,122.0486,41.0883,盘锦市,兴隆台,细颗粒物(PM2.5),130,NA,94,92,104,80,80,110,110,47,58,9,7,0.8,1.2
2026-03-23T1900,1606A,121.8297,41.1026,盘锦市,新生街道,细颗粒物(PM2.5),104,71,90,64,95,80,80,116,114,41,54,7,9,0.6,1.1
2026-03-23T1900,1832A,113.3257,33.7423,平顶山市,新华旅馆,细颗粒物(PM2.5),120,148,150,82,68,133,133,124,124,20,29,4,5,0.4,0.4
2026-03-23T1900,1833A,113.2917,33.737,平顶山市,规划设计院,细颗粒物(PM2.5),124,161,161,86,69,126,126,116,116,19,25,9,10,0.7,0.6
2026-03-23T1900,1834A,113.182,33.7738,平顶山市,平顶山工学院,细颗粒物(PM2.5),117,144,151,78,62,132,132,124,124,17,21,6,7,0.6,0.6
2026-03-23T1900,3594A,112.8736,33.9068,平顶山市,石龙区,细颗粒物(PM2.5),129,157,167,91,66,124,124,121,121,35,41,10,12,0.5,0.4
2026-03-23T1900,4116A,113.284,33.7139,平顶山市,姚电大道23号,颗粒物(PM10),116,161,189,66,70,134,134,126,126,19,24,8,9,0.5,0.8
2026-03-23T1900,2656A,106.6633,35.5338,平凉市,聚贤嘉苑,颗粒物(PM10),112,151,150,49,42,93,93,100,100,25,26,9,8,0.6,0.6
2026-03-23T1900,2657A,106.7021,35.5307,平凉市,博物馆,颗粒物(PM10),115,157,157,45,49,95,95,98,98,26,28,13,14,0.4,0.8
2026-03-23T1900,2348A,113.8384,27.6436,萍乡市,中医院,NA,NA,25,19,6,12,31,31,37,37,22,19,NA,4,1.0,1.1
2026-03-23T1900,2350A,113.8677,27.6438,萍乡市,市环保局,,19,18,21,13,16,42,42,45,45,13,15,5,6,0.8,1
2026-03-23T1900,2351A,113.8663,27.6202,萍乡市,安源区政府,,26,18,21,18,18,27,27,29,29,22,20,6,5,1.2,0.9
2026-03-23T1900,4107A,113.8686,27.6668,萍乡市,联洪村委会,,13,13,18,8,13,35,35,39,39,12,14,1,2,0.5,0.7
2026-03-23T1900,2319A,119.0142,25.4324,莆田市,荔城区仓后路,,29,17,36,7,29,90,90,104,104,19,24,/,/,/,/
2026-03-23T1900,2320A,119.0016,25.4553,莆田市,莆田市监测站,,30,16,34,8,25,93,93,108,108,15,15,3,3,0.5,0.6
2026-03-23T1900,2321A,119.112,25.4561,莆田市,涵江区六中,,29,24,28,6,18,91,91,104,103,15,24,/,/,0.7,0.6
2026-03-23T1900,2322A,119.1014,25.3215,莆田市,秀屿区政府,,32,20,26,3,18,100,100,105,105,11,11,4,4,0.4,0.5
2026-03-23T1900,2392A,115.0312,35.7636,濮阳市,环保局,细颗粒物(PM2.5),142,120,104,106,62,108,108,139,139,32,44,9,8,0.8,0.6
2026-03-23T1900,3021A,115,35.7667,濮阳市,濮水河管理处,细颗粒物(PM2.5),176,174,112,133,59,89,89,145,144,36,37,10,10,0.7,0.5
2026-03-23T1900,4118A,115.0552,35.7816,濮阳市,中原东路68号,细颗粒物(PM2.5),155,193,123,118,58,91,91,137,137,32,38,11,9,0.9,0.7
2026-03-23T1900,4216A,115.0923632,35.76857718,濮阳市,任丘路479号,细颗粒物(PM2.5),155,178,118,118,61,117,117,144,144,38,46,11,9,1.1,0.7
2026-03-23T1900,2601A,100.9801,22.7634,普洱市,市环保局,颗粒物(PM10),54,55,55,28,27,113,113,117,117,11,11,6,6,0.6,0.6
2026-03-23T1900,2602A,100.9763,22.8237,普洱市,普洱第二中学,颗粒物(PM10),55,56,51,34,28,109,109,115,115,16,15,6,6,0.3,0.6
2026-03-23T1900,3345A,131.0413,45.7795,七台河市,中波台,颗粒物(PM10),112,151,111,72,84,80,80,125,122,30,23,6,9,0.4,0.5
2026-03-23T1900,3637A,131.0136,45.7688,七台河市,人民广场,细颗粒物(PM2.5),100,65,124,60,82,67,67,113,109,35,33,10,13,0.7,0.8
2026-03-23T1900,3684A,130.8639,45.8144,七台河市,新建矿广场,细颗粒物(PM2.5),113,95,132,74,91,83,83,114,112,20,24,6,7,0.6,0.6
2026-03-23T1900,1779A,123.9307,47.3641,齐齐哈尔市,安居小区,颗粒物(PM10),111,147,137,NA,122,87,87,121,118,45,27,14,10,1.1,1
2026-03-23T1900,1780A,123.9497,47.3389,齐齐哈尔市,中心广场,细颗粒物(PM2.5),188,196,102,141,72,92,92,120,120,39,20,20,12,1.3,1
2026-03-23T1900,1781A,123.9483,47.3229,齐齐哈尔市,农牧车辆厂,细颗粒物(PM2.5),140,175,138,103,114,84,84,123,121,40,23,16,11,0.7,0.7
2026-03-23T1900,1783A,123.9442,47.2994,齐齐哈尔市,市环境监测站,细颗粒物(PM2.5),142,149,148,106,126,98,98,123,123,29,28,8,7,0.8,0.9
2026-03-23T1900,3662A,123.6341,47.2079,齐齐哈尔市,富区青少年活动中心,NA,NA,NA,157,NA,116,99,99,117,117,17,28,4,9,NA,1.2
2026-03-23T1900,2591A,107.9765,26.5724,黔东南苗族侗族自治州,市环境监测站,,38,38,28,17,17,31,31,26,26,12,11,3,3,0.8,0.8
2026-03-23T1900,2881A,107.8909,26.531,黔东南苗族侗族自治州,凯里学院,,27,27,20,18,16,37,37,31,31,11,10,4,4,0.8,0.9
2026-03-23T1900,2593A,107.5223,26.2371,黔南布依族苗族自治州,小围寨,,35,27,18,24,15,17,17,40,23,13,10,5,6,0.6,0.6
2026-03-23T1900,3538A,107.5175,26.2977,黔南布依族苗族自治州,沙坝,,27,27,24,10,12,13,13,25,15,12,9,4,4,1.0,1
2026-03-23T1900,2589A,104.9022,25.0943,黔西南布依族苗族自治州,场坝街,,38,NA,19,26,18,112,112,98,98,9,7,6,4,0.4,0.4
2026-03-23T1900,2590A,104.8812,25.0994,黔西南布依族苗族自治州,坪东大道,,37,31,25,20,18,118,118,101,101,7,9,6,5,0.4,0.5
2026-03-23T1900,2502A,108.6238,21.9667,钦州市,市环保站,颗粒物(PM10),58,61,43,33,21,78,78,72,72,18,18,11,5,0.8,0.7
2026-03-23T1900,2503A,108.655,21.9481,钦州市,沙埠小学,颗粒物(PM10),53,54,49,25,23,72,72,70,70,18,24,4,4,0.8,0.6
2026-03-23T1900,2504A,108.5989,21.7435,钦州市,港区一小,颗粒物(PM10),57,59,47,20,21,70,70,75,75,10,9,2,3,0.5,0.6
2026-03-23T1900,3404A,108.5959,21.9634,钦州市,北职校,,46,46,40,29,25,77,77,72,72,13,20,9,7,0.6,0.6
2026-03-23T1900,1046A,119.5247,39.9346,秦皇岛市,建设大厦,细颗粒物(PM2.5),115,113,125,76,94,120,120,128,128,17,35,5,7,0.6,0.8
2026-03-23T1900,3132A,119.5979,39.938,秦皇岛市,文明里,细颗粒物(PM2.5),169,169,141,128,101,118,118,127,127,31,37,8,9,0.9,0.8
2026-03-23T1900,4066A,119.7458,39.9952,秦皇岛市,南园路157号,细颗粒物(PM2.5),214,184,147,164,118,140,140,132,132,34,54,7,8,1.0,0.9
2026-03-23T1900,4067A,119.5131,39.8858,秦皇岛市,翠岛大街1号,细颗粒物(PM2.5),198,181,115,148,99,134,134,129,129,20,32,8,8,0.9,0.7
2026-03-23T1900,4198A,119.509013,39.825305,秦皇岛市,北戴河轮滑馆,细颗粒物(PM2.5),221,194,135,171,97,117,117,123,123,25,40,7,7,0.9,0.9
2026-03-23T1900,1310A,120.404,36.0625,青岛市,市南区东部子站,细颗粒物(PM2.5),110,97,95,71,72,100,100,117,117,29,31,9,10,0.6,0.7
2026-03-23T1900,1311A,120.362344,36.10282,青岛市,四方区子站,细颗粒物(PM2.5),119,105,120,80,89,91,91,114,114,38,50,6,8,0.9,0.9
2026-03-23T1900,1312A,120.294373,36.054183,青岛市,市南区西部子站,细颗粒物(PM2.5),110,92,97,71,81,NA,NA,106,106,32,48,2,5,0.7,0.8
2026-03-23T1900,1313A,120.4581,36.0858,青岛市,崂山区子站,细颗粒物(PM2.5),90,85,87,55,63,115,115,125,125,28,34,7,8,0.6,0.7
2026-03-23T1900,1315A,120.3945,36.3083,青岛市,城阳区子站,细颗粒物(PM2.5),103,117,117,63,82,80,80,125,118,57,34,7,6,0.9,0.9
2026-03-23T1900,3642A,120.3454,36.0735,青岛市,市北区南部,细颗粒物(PM2.5),94,88,107,57,72,112,112,116,116,25,43,3,5,0.8,1
2026-03-23T1900,3643A,120.3897,36.18,青岛市,李沧区北部,细颗粒物(PM2.5),111,110,123,72,90,90,90,117,116,38,44,8,10,0.8,0.9
2026-03-23T1900,4110A,120.5222,36.4089,青岛市,盟旺路653号,细颗粒物(PM2.5),92,87,108,56,76,118,118,128,127,10,14,3,3,0.7,0.9
2026-03-23T1900,4290A,120.196923,35.954556,青岛市,珠江路669号,细颗粒物(PM2.5),114,100,100,75,75,124,124,126,126,16,36,4,5,0.6,0.7
2026-03-23T1900,4291A,120.0424,35.8656,青岛市,黄岛区人民政府广场,细颗粒物(PM2.5),94,97,87,57,60,111,111,124,124,20,30,6,8,0.7,0.7
2026-03-23T1900,1703A,113.0218,23.7086,清远市,凤城街办,细颗粒物(PM2.5),72,68,61,46,46,117,117,110,110,28,30,/,/,/,/
2026-03-23T1900,3025A,113.0479,23.6343,清远市,技师学院,颗粒物(PM10),58,60,65,36,38,129,129,117,117,21,29,6,6,0.5,0.5
2026-03-23T1900,3318A,112.9898,23.7403,清远市,清新太和,颗粒物(PM10),53,54,61,33,36,102,102,116,116,20,23,8,7,0.6,0.6
2026-03-23T1900,3455A,113.076,23.72,清远市,清城东城,颗粒物(PM10),65,71,74,41,42,107,107,112,112,32,24,/,/,/,/
2026-03-23T1900,2661A,107.6325,35.7357,庆阳市,庆阳五中,颗粒物(PM10),96,114,115,50,41,95,95,96,96,16,15,5,12,0.5,0.3
2026-03-23T1900,2662A,107.6361,35.7067,庆阳市,市环保局,颗粒物(PM10),89,104,111,52,42,101,101,77,NA,16,16,6,9,0.5,0.4
2026-03-23T1900,1916A,103.7897,25.5036,曲靖市,环境监测站,,44,44,24,13,11,120,120,130,130,11,10,7,7,0.2,0.3
2026-03-23T1900,1917A,103.8013,25.5357,曲靖市,烟厂办公区,,35,28,21,12,10,110,110,120,119,7,7,4,4,0.4,0.5
2026-03-23T1900,3376A,103.7926,25.4651,曲靖市,南苑二区,,34,32,18,17,10,108,108,116,116,13,11,4,4,0.4,0.4
2026-03-23T1900,3377A,103.7442,25.5259,曲靖市,曲靖师范学院,,36,24,23,14,14,114,114,123,123,7,8,2,3,0.2,0.3
2026-03-23T1900,1264A,118.8694,28.94,衢州市,环保大楼,,33,30,27,23,20,66,66,69,69,19,19,/,/,/,/
2026-03-23T1900,1266A,118.8622,28.9809,衢州市,衢州学院,,22,19,21,15,16,68,68,73,73,20,22,3,4,0.5,0.6
2026-03-23T1900,4097A,118.9646,28.9832,衢州市,衢州三中,,35,30,26,24,19,53,53,66,65,25,23,6,6,0.7,0.7
2026-03-23T1900,1611A,118.5818,24.9116,泉州市,涂山街,,24,20,38,8,28,76,76,97,97,15,21,3,4,0.6,0.7
2026-03-23T1900,1612A,118.597,24.8976,泉州市,津头埔,,26,17,35,7,30,82,82,103,103,12,20,2,3,0.5,0.6
2026-03-23T1900,1613A,118.6669,24.9422,泉州市,万安,,23,19,40,9,32,71,71,99,99,16,25,3,4,0.6,0.7
2026-03-23T1900,4105A,118.6355,24.9148,泉州市,霞新路6号,,23,9,39,3,29,71,71,99,99,13,21,/,/,0.5,0.6
2026-03-23T1900,2626A,88.8873,29.2723,日喀则市,日喀则监测站,,41,12,10,3,6,131,131,126,126,5,5,7,7,0.4,0.5
2026-03-23T1900,3726A,88.8775,29.2425,日喀则市,林业技术推广中心,NA,NA,NA,16,NA,3,NA,NA,123,123,5,7,5,11,0.3,0.5
2026-03-23T1900,1659A,119.4711,35.421,日照市,监测站,细颗粒物(PM2.5),92,88,107,56,82,112,112,128,126,26,41,7,8,0.7,0.8
2026-03-23T1900,1660A,119.523,35.4216,日照市,市政府广场,细颗粒物(PM2.5),98,90,101,59,79,118,118,126,126,18,23,5,6,0.6,0.7
2026-03-23T1900,1661A,119.5511,35.4113,日照市,港务局,细颗粒物(PM2.5),107,92,100,67,74,116,116,126,126,22,22,4,5,0.6,0.7
2026-03-23T1900,3507A,119.5326,35.4627,日照市,职业技术学院,细颗粒物(PM2.5),94,85,102,57,78,120,120,130,130,21,26,6,8,0.8,0.9
2026-03-23T1900,3604A,119.3267,35.1043,日照市,岚山环保分局,细颗粒物(PM2.5),92,92,108,56,78,107,107,116,116,30,33,12,21,0.7,1.6
2026-03-23T1900,1835A,111.1922,34.7752,三门峡市,市政府,细颗粒物(PM2.5),92,93,116,56,42,105,105,100,100,21,22,12,12,0.6,0.6
2026-03-23T1900,1836A,111.1588,34.794,三门峡市,开发区,颗粒物(PM10),110,144,163,58,46,NA,NA,101,101,26,18,13,14,NA,0.5
2026-03-23T1900,3039A,111.1911,34.7829,三门峡市,三门峡市第一小学,颗粒物(PM10),91,107,126,54,43,110,110,103,103,21,20,16,16,0.5,0.5
