timepoint,stationcode,longitude,latitude,area,positionname,primarypollutant,aqi,pm10,pm10_24h,pm2_5,pm2_5_24h,o3,o3_24h,o3_8h,o3_8h_24h,no2,no2_24h,so2,so2_24h,co,co_24h
2026-03-23T0000,2568A,102.2503,31.8896,阿坝藏族羌族自治州,马师校,,22,22,21,7,9,45,45,106,77,19,9,5,5,0.3,0.3
2026-03-23T0000,3994A,102.2174,31.9016,阿坝藏族羌族自治州,马尔康中学西区,,21,11,22,6,10,67,67,106,85,7,8,3,3,0.2,0.3
2026-03-23T0000,2695A,80.2899,41.1684,阿克苏地区,电视台,细颗粒物(PM2.5),130,185,146,92,80,24,24,106,82,67,33,4,3,1.4,1.2
2026-03-23T0000,2696A,80.2592,41.1541,阿克苏地区,艺术中心,颗粒物(PM10),122,175,143,76,65,23,23,110,82,82,33,5,5,0.4,0.5
2026-03-23T0000,2205A,105.699,38.8409,阿拉善盟,蒙二幼,,40,40,77,8,21,83,83,90,83,3,6,7,7,0.5,0.5
2026-03-23T0000,2206A,105.7198,38.8508,阿拉善盟,环保局新楼,,42,42,76,6,19,79,79,86,80,4,5,7,7,0.4,0.3
2026-03-23T0000,2708A,88.1266,47.8515,阿勒泰地区,市站,,30,22,14,3,2,94,94,94,87,6,7,5,5,0.2,0.2
2026-03-23T0000,4166A,88.1198,47.7931,阿勒泰地区,阿勒泰路33号,,30,24,14,3,2,93,93,93,87,7,7,5,6,0.2,0.2
2026-03-23T0000,2630A,80.1171,32.4999,阿里地区,阿里监测站,,30,12,8,3,2,94,94,120,106,6,3,12,10,0.3,0.2
2026-03-23T0000,3192A,80.0906,32.5029,阿里地区,阿里藏医院,,32,9,5,3,2,101,101,127,113,4,2,8,5,0.2,0.1
2026-03-23T0000,2644A,109.0088,32.6974,安康市,汉滨区检察院,颗粒物(PM10),61,65,67,26,31,14,14,51,22,25,26,3,5,0.5,0.6
2026-03-23T0000,4054A,109.0324,32.6913,安康市,市邮政管理局,颗粒物(PM10),78,89,79,39,34,3,3,57,13,35,29,12,9,0.8,0.8
2026-03-23T0000,2291A,117.0806,30.5181,安庆市,环科院,细颗粒物(PM2.5),64,48,42,42,38,2,2,56,16,68,51,9,8,1.0,0.9
2026-03-23T0000,2292A,117.0331,30.5118,安庆市,马山宾馆,细颗粒物(PM2.5),64,43,39,42,40,2,2,49,23,66,39,8,6,1.1,0.9
2026-03-23T0000,2294A,116.9897,30.6146,安庆市,安庆大学,,47,47,48,32,36,9,9,50,11,35,36,4,5,1.2,1
2026-03-23T0000,3173A,117.0598,30.5351,安庆市,市人大,,50,43,43,35,33,14,14,58,29,38,42,8,7,0.9,0.8
2026-03-23T0000,3123A,105.9408,26.2431,安顺市,凤凰山,,25,25,23,10,19,77,77,67,67,6,13,9,17,0.5,0.7
2026-03-23T0000,3124A,105.9443,26.2567,安顺市,金钟山,,23,22,19,16,19,70,70,66,66,5,9,7,13,0.6,0.7
2026-03-23T0000,3125A,105.8983,26.248,安顺市,娄家坡,,25,25,22,17,18,75,75,73,73,4,10,7,14,0.7,0.8
2026-03-23T0000,1819A,114.3552,36.1017,安阳市,红庙街,颗粒物(PM10),68,74,86,24,43,44,44,95,66,31,17,4,4,0.3,0.5
2026-03-23T0000,1820A,114.361,36.0681,安阳市,银杏小区,颗粒物(PM10),83,95,91,39,46,10,10,99,59,54,19,3,4,0.2,0.3
2026-03-23T0000,3141A,114.3921,36.0879,安阳市,信访局,颗粒物(PM10),73,81,87,27,46,38,38,102,74,39,16,3,4,0.1,0.2
2026-03-23T0000,3669A,114.4706,36.0634,安阳市,左辅环卫站,颗粒物(PM10),76,86,105,33,45,39,39,98,73,36,13,3,4,0.3,0.4
2026-03-23T0000,4117A,114.2918,36.0769,安阳市,钢三路198号,颗粒物(PM10),86,100,92,41,46,21,21,93,58,46,21,4,7,0.6,0.6
2026-03-23T0000,1748A,123.0441,41.1201,鞍山市,深沟寺,细颗粒物(PM2.5),134,143,116,97,82,28,28,105,39,24,25,8,11,1.0,1.1
2026-03-23T0000,1749A,123.011,41.0931,鞍山市,太阳城,细颗粒物(PM2.5),166,166,119,126,90,49,49,113,55,31,22,7,9,1.1,1
2026-03-23T0000,1750A,123.0483,41.1445,鞍山市,太平,细颗粒物(PM2.5),131,135,122,94,81,9,9,104,39,39,26,8,11,1.5,1.1
2026-03-23T0000,1751A,122.964,41.0968,鞍山市,铁西三道街,细颗粒物(PM2.5),170,166,126,129,89,6,6,104,40,60,33,8,12,1.8,1.1
2026-03-23T0000,1753A,123.0219,41.0822,鞍山市,明达新区,细颗粒物(PM2.5),163,157,116,124,89,32,32,112,50,27,20,7,10,0.9,0.8
2026-03-23T0000,4201A,122.944647,41.082639,鞍山市,兴盛南路290号,细颗粒物(PM2.5),189,211,138,142,94,1,1,101,34,63,32,8,11,2.2,1.4
2026-03-23T0000,2195A,107.4206,40.7609,巴彦淖尔市,附二中,颗粒物(PM10),68,75,73,43,20,68,68,99,88,21,10,10,10,0.6,0.3
2026-03-23T0000,2196A,107.37,40.7372,巴彦淖尔市,市环保大楼,颗粒物(PM10),63,68,70,38,19,76,76,102,92,22,12,11,8,0.6,0.4
2026-03-23T0000,1956A,86.1476,41.7529,巴音郭楞蒙古自治州,孔雀公园,颗粒物(PM10),126,186,162,87,51,6,6,89,74,78,17,10,10,1.0,0.4
2026-03-23T0000,1957A,86.1971,41.7166,巴音郭楞蒙古自治州,棉纺厂,颗粒物(PM10),133,205,211,67,51,55,55,94,80,23,7,/,/,/,/
2026-03-23T0000,1958A,86.236,41.7172,巴音郭楞蒙古自治州,经济开发区,颗粒物(PM10),139,220,167,61,48,32,32,81,70,38,9,7,7,0.5,0.3
2026-03-23T0000,3181A,106.776805,31.852614,巴中市,市五中,,44,44,33,25,19,16,16,60,44,26,19,8,8,0.7,0.8
2026-03-23T0000,3183A,106.7419,31.8654,巴中市,圣泉水务公司,,42,42,27,21,15,51,51,65,54,13,15,9,9,0.6,0.7
2026-03-23T0000,3616A,106.7617,31.8343,巴中市,市中心医院,颗粒物(PM10),56,58,36,33,21,2,2,63,36,38,21,10,10,0.8,0.7
2026-03-23T0000,2235A,122.7909,45.608,白城市,洮北区环保局,细颗粒物(PM2.5),163,208,136,124,96,32,32,110,69,64,27,9,6,1.2,0.6
2026-03-23T0000,2236A,122.8741,45.5725,白城市,市环保局,细颗粒物(PM2.5),148,161,153,112,107,14,14,105,42,73,31,9,8,0.9,0.7
2026-03-23T0000,2231A,126.4219,41.9172,白山市,喜丰,细颗粒物(PM2.5),84,65,76,52,51,66,66,92,74,15,26,10,13,1.0,0.9
2026-03-23T0000,2232A,126.4082,41.9416,白山市,环保局,细颗粒物(PM2.5),94,NA,62,57,54,76,76,98,56,13,23,9,11,0.8,0.8
2026-03-23T0000,2647A,104.1727,36.5448,白银市,第三小学,颗粒物(PM10),105,133,179,50,67,65,65,91,79,14,16,4,45,0.1,0.2
2026-03-23T0000,2648A,104.1467,36.5482,白银市,动力公司,颗粒物(PM10),105,132,193,45,66,67,67,84,77,13,22,3,26,0.5,0.6
2026-03-23T0000,2512A,106.6102,23.901,百色市,市监测站,细颗粒物(PM2.5),111,88,57,72,46,6,6,51,33,37,22,21,21,1.2,0.9
2026-03-23T0000,2513A,106.6524,23.8842,百色市,市中心血站,细颗粒物(PM2.5),110,82,63,70,52,3,3,51,33,44,22,16,19,1.1,0.9
2026-03-23T0000,4133A,106.6273,23.8798,百色市,龙景西路,细颗粒物(PM2.5),119,89,77,80,55,1,1,50,29,42,23,26,24,1.0,0.8
2026-03-23T0000,2270A,117.396,32.9389,蚌埠市,工人疗养院,细颗粒物(PM2.5),121,132,104,83,59,26,26,136,94,101,37,13,6,0.6,0.5
2026-03-23T0000,2271A,117.3606,32.9428,蚌埠市,百货大楼,细颗粒物(PM2.5),120,103,87,82,52,33,33,139,104,90,32,8,7,0.7,0.6
2026-03-23T0000,2273A,117.4183,32.8909,蚌埠市,蚌埠学院,细颗粒物(PM2.5),111,83,83,72,53,104,104,137,92,24,34,5,6,0.6,0.6
2026-03-23T0000,2274A,117.3534,32.9672,蚌埠市,淮上区政府,细颗粒物(PM2.5),120,105,87,81,56,100,100,144,118,42,34,7,7,0.6,0.5
2026-03-23T0000,2275A,117.3143,32.8977,蚌埠市,高新区,细颗粒物(PM2.5),102,95,84,62,53,106,106,131,110,25,27,7,8,0.6,0.6
2026-03-23T0000,3715A,117.3091,32.9314,蚌埠市,蚌埠田家炳中学,细颗粒物(PM2.5),121,123,103,83,55,52,52,135,105,62,27,6,7,0.6,0.5
2026-03-23T0000,1585A,109.8761,40.6533,包头市,市环境监测站,颗粒物(PM10),103,127,53,59,24,14,14,117,83,90,22,8,9,0.8,0.5
2026-03-23T0000,1587A,109.9992,40.5843,包头市,包头八中,细颗粒物(PM2.5),82,88,51,51,24,63,63,102,82,42,20,10,10,0.7,0.5
2026-03-23T0000,1589A,109.8641,40.6288,包头市,惠龙物流,细颗粒物(PM2.5),106,109,46,66,26,33,33,110,88,72,19,9,9,0.7,0.4
2026-03-23T0000,1590A,110.0376,40.5546,包头市,东河鸿龙湾,"颗粒物(PM10),细颗粒物(PM2.5)",86,100,49,53,23,28,28,109,82,97,32,11,10,1.0,0.5
2026-03-23T0000,3283A,109.9154,40.5684,包头市,滨河大厦,细颗粒物(PM2.5),82,84,48,51,30,44,44,112,92,71,21,11,10,0.9,0.6
2026-03-23T0000,3419A,109.9449,40.6259,包头市,包头市委党校,细颗粒物(PM2.5),76,75,42,48,21,32,32,108,85,74,19,11,9,0.6,0.5
2026-03-23T0000,3683A,109.8332,40.6577,包头市,昆区政府,颗粒物(PM10),88,103,47,40,24,65,65,109,82,36,25,18,8,0.9,0.6
2026-03-23T0000,1931A,107.0802,34.3129,宝鸡市,竹园沟,颗粒物(PM10),104,128,145,42,40,48,48,106,76,19,15,6,6,0.4,0.4
2026-03-23T0000,1933A,107.1429,34.3549,宝鸡市,监测站,颗粒物(PM10),109,142,136,48,37,38,38,91,67,30,22,6,7,0.2,0.3
2026-03-23T0000,1934A,107.1172,34.3759,宝鸡市,技工学校,颗粒物(PM10),111,147,132,47,35,48,48,102,78,27,20,5,6,0.4,0.4
2026-03-23T0000,1936A,107.2025,34.3518,宝鸡市,文理学院,颗粒物(PM10),111,148,132,50,38,28,28,99,67,42,21,4,5,0.5,0.5
2026-03-23T0000,1937A,107.2396,34.3626,宝鸡市,三迪小学,颗粒物(PM10),114,156,140,50,41,31,31,99,69,45,29,4,5,0.7,0.5
2026-03-23T0000,4155A,107.1721,34.3558,宝鸡市,滨河北路,颗粒物(PM10),120,172,138,49,41,36,36,99,70,32,23,5,6,0.6,0.6
2026-03-23T0000,4308A,107.3898,34.3601,宝鸡市,陈仓区北开路21号,颗粒物(PM10),122,175,158,64,50,17,17,100,68,67,29,8,30,0.5,0.6
2026-03-23T0000,1051A,115.4803,38.8568,保定市,游泳馆,颗粒物(PM10),102,124,77,54,41,23,23,95,66,66,24,9,10,1.0,0.6
2026-03-23T0000,1052A,115.509,38.8895,保定市,华电二区,颗粒物(PM10),68,75,68,38,35,9,9,94,63,61,18,1,2,0.6,0.5
2026-03-23T0000,1053A,115.4588,38.9037,保定市,接待中心,颗粒物(PM10),76,86,71,47,40,23,23,95,67,56,21,3,3,0.5,0.3
2026-03-23T0000,1054A,115.4484,38.8344,保定市,地表水厂,颗粒物(PM10),88,102,80,33,32,40,40,96,67,53,26,7,5,0.4,0.4
2026-03-23T0000,3581A,115.3136,38.9511,保定市,满城区生态环境分局,颗粒物(PM10),88,102,81,44,30,28,28,97,70,48,19,5,6,0.5,0.4
2026-03-23T0000,3582A,115.4709,38.7628,保定市,清苑区第二中学,颗粒物(PM10),90,106,88,50,40,43,43,97,70,41,21,7,6,0.5,0.4
2026-03-23T0000,3583A,115.6231,39.0223,保定市,徐水物探局,颗粒物(PM10),103,127,101,44,48,6,6,98,60,75,27,2,2,0.5,0.4
2026-03-23T0000,4004A,115.4199,38.8665,保定市,双鹰农机,颗粒物(PM10),99,118,96,42,41,34,34,100,72,48,22,4,4,0.4,0.4
2026-03-23T0000,4034A,115.515,38.8589,保定市,植保所站,颗粒物(PM10),104,128,94,53,41,4,4,93,55,78,27,5,3,0.5,0.3
2026-03-23T0000,2594A,99.1589,25.1137,保山市,市环境监测站,,20,17,26,7,21,64,64,92,83,7,13,5,5,0.3,0.3
2026-03-23T0000,2595A,99.1616,25.1381,保山市,市环保局,,24,15,27,9,23,76,76,95,87,3,9,5,5,0.3,0.4
2026-03-23T0000,1867A,109.1435,21.4085,北海市,海滩公园,,39,39,27,19,14,54,54,75,66,10,9,8,7,0.6,0.5
2026-03-23T0000,1868A,109.0983,21.466,北海市,新市环保局,,39,39,24,26,16,53,53,73,66,10,8,10,8,0.7,0.5
2026-03-23T0000,1869A,109.1775,21.5232,北海市,北海工业园,,32,NA,30,22,16,46,46,70,60,7,5,8,7,0.7,0.4
2026-03-23T0000,3400A,109.1844,21.4396,北海市,龙潭自来水厂,,36,36,23,25,13,47,47,69,62,6,6,4,4,0.8,0.6
2026-03-23T0000,1001A,116.3611,39.8786,北京市,万寿西宫,细颗粒物(PM2.5),135,186,95,98,55,67,67,97,73,40,43,6,3,0.9,0.7
2026-03-23T0000,1003A,116.4174,39.9289,北京市,东四,细颗粒物(PM2.5),135,177,101,98,57,74,74,97,89,40,38,10,7,0.8,0.6
2026-03-23T0000,1004A,116.4073,39.8858,北京市,天坛,"颗粒物(PM10),细颗粒物(PM2.5)",132,202,91,95,54,56,56,84,60,43,30,6,4,1.0,0.8
2026-03-23T0000,1005A,116.4622,39.9364,北京市,农展馆,细颗粒物(PM2.5),128,165,98,90,59,69,69,97,78,36,38,8,5,0.9,0.6
2026-03-23T0000,1006A,116.3399,39.9293,北京市,官园,细颗粒物(PM2.5),138,183,92,101,53,59,59,84,72,44,43,6,3,0.7,0.5
2026-03-23T0000,1007A,116.2879,39.9613,北京市,海淀万柳,颗粒物(PM10),119,168,78,78,43,48,48,73,46,40,40,6,4,0.6,0.4
2026-03-23T0000,1008A,116.6635,40.1349,北京市,顺义新城,细颗粒物(PM2.5),130,167,98,92,61,80,80,102,87,23,22,8,6,0.8,0.5
2026-03-23T0000,1009A,116.6275,40.327,北京市,怀柔镇,颗粒物(PM10),62,66,81,33,51,55,55,90,61,18,19,5,5,0.6,0.7
2026-03-23T0000,1010A,116.2295,40.217,北京市,昌平镇,细颗粒物(PM2.5),111,141,63,72,38,91,91,82,79,22,21,6,3,0.8,0.5
2026-03-23T0000,1011A,116.3968,39.982,北京市,奥体中心,细颗粒物(PM2.5),127,171,93,89,53,52,52,81,65,46,48,7,5,0.9,0.7
2026-03-23T0000,3418A,116.8336,40.4095,北京市,密云新城,,29,29,89,8,52,35,35,94,64,34,22,3,3,0.4,0.6
2026-03-23T0000,3671A,116.0879,39.9725,北京市,门头沟三家店,颗粒物(PM10),68,74,70,28,41,26,26,86,36,43,32,5,4,0.4,0.5
2026-03-23T0000,3672A,116.1507,39.8246,北京市,丰台云岗,颗粒物(PM10),100,119,77,47,39,31,31,92,76,62,27,4,3,0.6,0.5
2026-03-23T0000,3674A,115.9578,39.7602,北京市,房山燕山,,36,36,56,10,32,51,51,82,73,18,15,3,4,0.3,0.4
2026-03-23T0000,3675A,116.4669,39.7734,北京市,大兴旧宫,细颗粒物(PM2.5),129,182,99,91,52,64,64,90,71,36,38,7,5,0.9,0.6
2026-03-23T0000,3694A,115.9859,40.4562,北京市,延庆石河营,,27,27,60,9,35,21,21,88,46,37,32,1,2,0.4,0.6
2026-03-23T0000,3695A,116.6151,40.3052,北京市,怀柔新城,颗粒物(PM10),59,62,77,30,52,56,56,91,65,17,14,4,4,0.5,0.5
2026-03-23T0000,3696A,116.2542,39.8764,北京市,丰台小屯,颗粒物(PM10),135,209,96,95,46,55,55,83,45,48,52,7,5,0.6,0.4
2026-03-23T0000,3697A,116.8399,40.3843,北京市,密云镇,颗粒物(PM10),52,52,89,21,58,26,26,96,51,55,33,4,4,0.4,0.5
2026-03-23T0000,4057A,115.9423,40.4431,北京市,延庆百泉,,14,14,56,3,33,44,44,80,60,21,23,1,2,0.3,0.5
2026-03-23T0000,4058A,116.6598,39.9164,北京市,通州新华,细颗粒物(PM2.5),131,193,135,94,76,62,62,90,74,34,51,8,6,0.8,0.6
2026-03-23T0000,4182A,116.1942,39.9158,北京市,石景山八角,颗粒物(PM10),94,111,81,45,42,37,37,83,54,39,33,4,3,0.4,0.5
2026-03-23T0000,4194A,117.078628,40.151726,北京市,平谷新城,细颗粒物(PM2.5),134,171,133,97,86,102,102,104,104,14,20,4,2,1.1,0.7
2026-03-23T0000,1761A,123.8274146,41.31234549,本溪市,大峪,细颗粒物(PM2.5),100,100,97,60,62,9,9,108,15,35,26,9,11,1.2,0.9
2026-03-23T0000,1763A,123.7169,41.3094,本溪市,彩屯,细颗粒物(PM2.5),122,145,105,84,72,6,6,98,15,32,30,10,13,1.6,1.9
2026-03-23T0000,1764A,123.7672166,41.28649327,本溪市,东明,细颗粒物(PM2.5),120,NA,67,81,64,12,12,110,20,35,26,10,10,1.2,0.9
2026-03-23T0000,1765A,123.799345,41.266614,本溪市,新立屯,细颗粒物(PM2.5),123,95,63,85,59,10,10,113,14,18,19,7,8,1.0,0.7
2026-03-23T0000,1766A,123.829144,41.336777,本溪市,威宁,颗粒物(PM10),73,82,88,44,55,12,12,104,17,26,23,6,9,1.1,0.8
2026-03-23T0000,2587A,105.287,27.3133,毕节市,八中,颗粒物(PM10),53,53,39,36,24,46,46,76,60,8,12,10,11,0.6,0.6
2026-03-23T0000,2588A,105.3079,27.2987,毕节市,师专,细颗粒物(PM2.5),56,54,35,38,22,42,42,68,55,9,12,10,11,0.6,0.6
2026-03-23T0000,4263A,105.3688,27.3598,毕节市,工业大道,颗粒物(PM10),52,52,36,28,21,49,49,88,63,9,11,10,10,/,/
2026-03-23T0000,1629A,117.9961,37.3604,滨州市,第二水厂,细颗粒物(PM2.5),166,151,131,126,89,90,90,132,110,25,20,28,16,0.9,0.8
2026-03-23T0000,1630A,117.9789,37.3931,滨州市,北中新校,细颗粒物(PM2.5),156,146,124,119,87,88,88,132,107,32,23,10,9,0.5,0.4
2026-03-23T0000,3514A,117.9379,37.3959,滨州市,中海酒店,细颗粒物(PM2.5),150,139,125,115,84,95,95,134,115,28,23,13,13,0.8,0.7
2026-03-23T0000,3515A,117.9381509,37.35547456,滨州市,开发区一中,细颗粒物(PM2.5),156,146,135,119,87,93,93,122,108,16,15,37,20,0.9,0.8
2026-03-23T0000,3516A,118.0914,37.6938,滨州市,金海六路,细颗粒物(PM2.5),179,137,118,135,89,91,91,131,108,22,24,6,9,1.0,0.8
2026-03-23T0000,4028A,117.9955,37.3752,滨州市,滨州市西街道办事处,细颗粒物(PM2.5),145,141,133,109,86,94,94,129,109,25,21,14,12,1.0,0.9
2026-03-23T0000,2311A,115.8071,33.8399,亳州市,污水处理厂,细颗粒物(PM2.5),125,146,118,87,69,85,85,138,118,35,20,17,8,0.3,0.3
2026-03-23T0000,2312A,115.7789,33.8519,亳州市,三国揽胜宫,颗粒物(PM10),245,381,143,85,74,96,96,130,115,21,16,14,7,0.4,0.3
2026-03-23T0000,3332A,115.7631,33.803,亳州市,亳州学院,细颗粒物(PM2.5),121,134,111,83,68,117,117,136,127,14,12,9,7,0.4,0.3
2026-03-23T0000,2693A,82.0482,44.8553,博尔塔拉蒙古自治州,市党校,颗粒物(PM10),88,103,65,22,21,63,63,107,97,13,7,3,3,0.2,0.3
2026-03-23T0000,2694A,82.0805,44.8966,博尔塔拉蒙古自治州,市环保局,颗粒物(PM10),86,100,58,35,25,25,25,97,81,60,23,2,3,0.6,0.5
2026-03-23T0000,1071A,116.8733,38.2922,沧州市,沧县城建局,细颗粒物(PM2.5),94,107,109,57,73,89,89,103,86,30,26,4,4,0.8,0.7
2026-03-23T0000,1072A,116.8462,38.3189,沧州市,电视转播站,细颗粒物(PM2.5),109,108,100,69,69,108,108,103,95,20,22,3,3,0.5,0.5
2026-03-23T0000,1073A,116.8588,38.3161,沧州市,市环保局,颗粒物(PM10),105,133,113,60,68,104,104,104,92,17,19,11,12,0.4,0.4
2026-03-23T0000,3324A,116.8011,38.294,沧州市,河北水利电力学院,细颗粒物(PM2.5),115,124,106,76,70,95,95,101,92,26,24,9,10,0.5,0.5
2026-03-23T0000,2622A,97.1813,31.1289,昌都市,昌都监测站,,29,14,11,3,5,90,90,101,83,5,8,5,4,0.6,0.6
2026-03-23T0000,3719A,97.1707,31.1428,昌都市,昌都会议中心,,32,NA,9,12,7,101,101,113,99,4,5,5,5,0.4,0.4
2026-03-23T0000,2692A,87.2722,44.0298,昌吉回族自治州,新区政务中心,细颗粒物(PM2.5),76,62,40,48,30,71,71,100,93,43,30,8,8,0.9,0.7
2026-03-23T0000,3613A,87.3069,44.0093,昌吉回族自治州,亚心广场,颗粒物(PM10),84,97,52,40,28,58,58,112,105,54,26,13,13,0.9,0.9
2026-03-23T0000,4164A,87.2057,43.9289,昌吉回族自治州,财政所,颗粒物(PM10),74,83,51,41,24,19,19,92,73,22,14,8,10,0.7,0.6
2026-03-23T0000,1120A,125.2874,43.9024,长春市,客车厂,细颗粒物(PM2.5),205,200,153,155,129,13,13,107,47,82,54,8,12,1.6,1.1
2026-03-23T0000,1121A,125.2943,43.8508,长春市,邮电学院,细颗粒物(PM2.5),135,135,152,98,116,44,44,110,75,50,38,8,11,0.9,0.9
2026-03-23T0000,1122A,125.3648,43.8745,长春市,劳动公园,细颗粒物(PM2.5),140,139,158,103,124,36,36,112,79,51,37,9,10,1.0,1.1
2026-03-23T0000,1123A,125.3233,43.8781,长春市,园林处,细颗粒物(PM2.5),130,127,141,93,118,56,56,117,82,36,31,9,10,0.7,0.9
2026-03-23T0000,1124A,125.4604,43.7904,长春市,净月潭,细颗粒物(PM2.5),150,118,140,115,114,48,48,106,87,24,24,6,9,0.8,0.8
2026-03-23T0000,1126A,125.38,43.8422,长春市,经开区环卫处,细颗粒物(PM2.5),241,235,173,191,135,2,2,108,63,92,54,7,8,1.7,1.1
2026-03-23T0000,1127A,125.234,43.7761,长春市,高新区管委会,细颗粒物(PM2.5),163,163,144,124,112,3,3,108,52,86,44,7,9,1.2,1
2026-03-23T0000,1128A,125.1695,43.83,长春市,岱山公园,细颗粒物(PM2.5),139,129,131,102,108,3,3,115,75,103,42,8,8,0.8,0.7
2026-03-23T0000,4281A,125.334645,43.916281,长春市,北亚泰大街1068号,细颗粒物(PM2.5),140,153,158,104,125,3,3,99,52,88,50,10,11,1.1,1
2026-03-23T0000,1335A,113.082,28.2421,长沙市,经开区环保局,,39,34,29,27,20,9,9,51,28,38,30,3,3,0.7,0.7
2026-03-23T0000,1336A,112.8873,28.2202,长沙市,高开区环保局,,50,50,31,30,21,3,3,52,NA,48,29,4,4,1.2,1
2026-03-23T0000,1337A,113.0785,28.2012,长沙市,马坡岭,,46,36,29,32,23,1,1,49,26,49,33,4,4,1.1,0.9
2026-03-23T0000,1338A,112.9448,28.1894,长沙市,湖南师范大学,,47,47,30,30,19,12,12,45,25,33,24,4,4,1.4,1.2
2026-03-23T0000,1339A,113.0177,28.1322,长沙市,雨花区环保局,细颗粒物(PM2.5),54,45,32,37,24,4,4,44,27,53,32,3,3,1.4,1.2
2026-03-23T0000,1340A,112.9795,28.2593,长沙市,伍家岭,,46,44,32,32,26,2,2,59,33,52,27,3,3,1.1,0.6
2026-03-23T0000,1341A,113.002,28.1944,长沙市,火车新站,细颗粒物(PM2.5),66,51,34,43,27,10,10,49,30,49,33,3,3,1.2,1
2026-03-23T0000,1342A,112.9846,28.1177,长沙市,天心区环保局,,48,36,27,33,24,1,1,46,32,62,33,5,5,1.2,1
2026-03-23T0000,1343A,112.8906,28.1307,长沙市,湖南中医药大学,,38,38,25,26,19,2,2,49,19,33,26,5,5,1.0,0.9
2026-03-23T0000,1727A,113.1146,36.1547,长治市,清华站,颗粒物(PM10),59,62,69,13,26,82,82,106,92,14,17,9,12,0.5,0.6
2026-03-23T0000,1730A,113.0887,36.2126,长治市,审计局,颗粒物(PM10),56,58,65,15,25,91,91,106,95,13,17,9,14,0.5,0.6
2026-03-23T0000,1731A,113.0845,36.1856,长治市,长治八中,颗粒物(PM10),75,84,83,23,28,83,83,104,92,10,13,10,14,0.6,0.7
2026-03-23T0000,2845A,113.1561,36.1912,长治市,德盛苑,颗粒物(PM10),54,55,69,21,29,95,95,111,102,10,13,9,13,0.5,0.7
2026-03-23T0000,3568A,113.0603,36.0464,长治市,向阳小学,颗粒物(PM10),82,94,107,26,30,86,86,113,98,23,27,15,16,0.2,0.4
2026-03-23T0000,3569A,112.8788,36.315,长治市,屯留一中,颗粒物(PM10),58,61,80,16,23,83,83,106,88,14,25,8,9,0.6,0.6
2026-03-23T0000,4189A,113.113092,36.199482,长治市,英华南巷50号,颗粒物(PM10),61,65,79,22,28,88,88,109,96,18,19,7,13,0.6,0.7
2026-03-23T0000,4190A,113.23666,36.33435,长治市,学府街1号,颗粒物(PM10),53,53,70,16,23,74,74,94,87,20,19,4,8,0.6,0.7
2026-03-23T0000,1854A,111.696,28.9725,常德市,市二中,,36,29,38,25,25,43,43,77,62,13,12,6,6,1.1,1
2026-03-23T0000,3138A,111.7152,29.0288,常德市,武陵区永安,,36,NA,38,25,31,50,50,77,68,11,13,3,4,0.9,0.9
2026-03-23T0000,3139A,111.6891,28.9881,常德市,鼎城区玉霞,,33,NA,32,23,25,50,50,78,63,11,18,7,8,1.0,0.9
2026-03-23T0000,3140A,111.6651,29.0526,常德市,武陵区长庚,,38,NA,39,26,35,58,58,80,71,9,12,6,7,1.1,1.1
2026-03-23T0000,1196A,119.9524,31.7586,常州市,市监测站,细颗粒物(PM2.5),112,144,84,73,46,26,26,124,82,79,34,10,10,1.0,0.7
2026-03-23T0000,1200A,119.9351,31.703,常州市,武进监测站,细颗粒物(PM2.5),117,131,72,78,41,46,46,117,91,59,24,12,8,0.9,0.5
2026-03-23T0000,3002A,119.9701,31.813,常州市,行政中心,细颗粒物(PM2.5),106,114,82,66,54,17,17,118,75,95,37,9,7,0.7,0.5
2026-03-23T0000,3003A,120.0434,31.7726,常州市,经开区,颗粒物(PM10),105,132,93,63,52,6,6,129,68,103,46,14,11,1.1,1
2026-03-23T0000,3010A,119.8919,31.7892,常州市,钟楼,细颗粒物(PM2.5),107,94,66,67,40,46,46,130,98,62,29,9,8,0.4,0.2
2026-03-23T0000,3429A,119.8595,31.706,常州市,武进经发区,细颗粒物(PM2.5),92,96,58,56,39,4,4,120,65,116,39,9,10,1.1,0.8
2026-03-23T0000,3430A,119.5812,31.7256,常州市,金坛城区,细颗粒物(PM2.5),112,98,53,73,47,24,24,122,92,83,21,9,9,0.9,0.7
2026-03-23T0000,4089A,119.9551,31.863,常州市,崇义南街5-H号,细颗粒物(PM2.5),105,112,78,65,51,6,6,117,61,105,43,7,6,0.9,0.6
2026-03-23T0000,2220A,120.4318,41.588,朝阳市,西梁,细颗粒物(PM2.5),149,149,152,113,125,48,48,116,78,40,29,11,14,0.9,1.1
2026-03-23T0000,2221A,120.452,41.565,朝阳市,河畔小区,细颗粒物(PM2.5),121,99,123,83,104,55,55,124,94,40,23,10,12,0.8,0.9
2026-03-23T0000,2222A,120.4176,41.5648,朝阳市,八里堡,细颗粒物(PM2.5),142,147,131,106,118,24,24,117,76,62,29,10,13,1.0,1.1
2026-03-23T0000,3026A,116.6179,23.6608,潮州市,市政府,,42,33,55,29,36,99,99,147,123,17,17,5,4,0.6,0.6
2026-03-23T0000,4036A,116.646,23.676,潮州市,金山,,40,32,48,28,35,100,100,150,122,19,19,5,5,0.5,0.5
2026-03-23T0000,2473A,113.0116,25.8228,郴州市,市职中,细颗粒物(PM2.5),58,52,52,39,42,6,6,25,16,26,22,4,7,0.9,1
2026-03-23T0000,2475A,113.0381,25.8074,郴州市,市审计局,细颗粒物(PM2.5),58,49,54,39,44,0,0,24,13,23,19,7,12,/,/
2026-03-23T0000,2476A,113.0348,25.7757,郴州市,市环保局,细颗粒物(PM2.5),60,49,63,40,45,7,7,27,18,22,22,8,15,0.4,0.6
2026-03-23T0000,4252A,113.0138,25.8011,郴州市,好美居路49号,,48,41,46,33,40,5,5,27,18,28,23,4,9,/,/
2026-03-23T0000,1431A,103.9727,30.7242,成都市,金泉两河,,40,40,53,22,39,64,64,99,86,12,20,1,1,0.3,0.4
2026-03-23T0000,1432A,104.1423,30.6765,成都市,十里店,,41,41,56,23,35,71,71,94,84,13,21,4,4,0.4,0.5
2026-03-23T0000,1433A,104.0594,30.5765,成都市,三瓦窑,颗粒物(PM10),56,58,57,29,39,70,70,95,80,12,20,2,2,0.8,0.8
2026-03-23T0000,1434A,104.1122,30.6306,成都市,沙河铺,,36,29,52,25,34,67,67,84,73,25,31,5,5,0.5,0.5
2026-03-23T0000,2880A,104.0219,30.6561,成都市,大石西路,,47,47,62,27,44,68,68,94,83,14,22,6,7,0.6,0.7
2026-03-23T0000,3136A,104.2724,30.559,成都市,龙泉驿区区政府,,35,34,48,24,29,64,64,93,74,17,17,6,7,0.5,0.6
2026-03-23T0000,3357A,104.0028,30.6891,成都市,金博路,,35,30,50,24,40,71,71,101,88,18,28,5,5,0.6,0.7
2026-03-23T0000,3359A,104.056,30.5228,成都市,华阳,,41,41,56,23,36,75,75,96,82,19,25,3,3,0.5,0.5
2026-03-23T0000,3488A,104.387954,30.746684,成都市,青石路225号,,40,40,54,22,35,58,58,91,66,16,29,5,6,0.6,0.7
2026-03-23T0000,3489A,104.0788,30.4054,成都市,科学城,,38,38,53,23,38,68,68,102,86,22,17,7,7,0.8,0.8
2026-03-23T0000,4011A,103.8505,30.6946,成都市,光华大道三段,,41,41,64,15,37,66,66,108,94,18,23,3,3,0.5,0.6
2026-03-23T0000,4144A,104.3257,30.6406,成都市,八角井街185号,,44,44,55,20,32,55,55,82,63,17,20,4,4,0.6,0.7
2026-03-23T0000,4224A,104.2433276,30.53529463,成都市,鲸龙路1057号,,41,41,50,22,32,66,66,95,72,20,23,6,6,0.5,0.5
2026-03-23T0000,1062A,117.9531,40.908,承德市,铁路,细颗粒物(PM2.5),100,85,117,60,68,72,72,116,86,20,27,4,4,0.5,0.6
2026-03-23T0000,1063A,117.9397,40.9763,承德市,中国银行,细颗粒物(PM2.5),110,106,109,70,64,61,61,111,89,21,21,2,3,0.5,0.6
2026-03-23T0000,4073A,117.9462,40.95,承德市,杏林街1号,细颗粒物(PM2.5),113,103,117,74,72,77,77,120,104,23,20,4,5,0.6,0.6
2026-03-23T0000,4274A,117.7994,40.9605,承德市,滨河大街98号,细颗粒物(PM2.5),113,122,100,74,66,66,66,113,94,29,25,4,5,0.5,0.5
2026-03-23T0000,2314A,117.4698,30.6617,池州市,池州学院,,40,40,34,25,23,13,13,81,45,45,30,5,5,0.9,1
2026-03-23T0000,3237A,117.4918,30.6617,池州市,展览馆,,44,44,35,29,24,16,16,82,47,38,27,4,4,1.0,1.1
2026-03-23T0000,3333A,117.5626,30.695,池州市,第八中学,,45,45,32,27,20,24,24,81,46,32,28,6,5,1.1,0.9
2026-03-23T0000,3334A,117.5037,30.6242,池州市,第十二中学,,39,39,31,26,22,5,5,78,35,49,35,4,5,0.8,1.1
2026-03-23T0000,1744A,118.9229,42.2816,赤峰市,松山一中,颗粒物(PM10),51,51,79,30,53,56,56,113,67,26,23,6,6,0.5,0.6
2026-03-23T0000,1745A,118.9588,42.2733,赤峰市,哈达街,细颗粒物(PM2.5),84,85,91,52,58,22,22,91,51,53,27,12,14,0.8,0.7
2026-03-23T0000,1746A,118.8792,42.2551,赤峰市,天义路,细颗粒物(PM2.5),88,71,72,54,50,22,22,106,52,39,24,7,7,0.8,0.6
2026-03-23T0000,3058A,119.2656,42.0356,赤峰市,银河街,细颗粒物(PM2.5),90,99,122,55,79,51,51,121,72,24,21,16,12,0.6,0.6
2026-03-23T0000,3286A,118.9359,42.3146,赤峰市,桥北物流园区,颗粒物(PM10),69,76,80,24,49,21,21,108,49,62,26,4,4,0.6,0.6
2026-03-23T0000,2521A,107.3473,22.4137,崇左市,市环保局江州分局,细颗粒物(PM2.5),182,162,119,137,88,31,31,87,60,24,24,9,10,1.1,1
2026-03-23T0000,4256A,107.375,22.3736,崇左市,石景林东路7号,细颗粒物(PM2.5),136,106,100,99,83,24,24,92,61,30,27,4,6,1.1,1.1
2026-03-23T0000,3207A,118.31131,32.3033,滁州市,市政府原办公楼,细颗粒物(PM2.5),103,75,72,63,67,91,91,131,111,25,24,5,6,0.5,0.5
2026-03-23T0000,3331A,118.3268,32.2633,滁州市,图书馆,颗粒物(PM10),69,76,78,43,48,90,90,132,110,25,24,9,10,0.5,0.6
2026-03-23T0000,4101A,118.3196,32.3335,滁州市,银山路666号,细颗粒物(PM2.5),96,68,73,58,59,73,73,144,114,28,27,9,11,0.8,0.7
2026-03-23T0000,4102A,118.3426,32.2979,滁州市,黄山路555号,细颗粒物(PM2.5),92,86,90,56,59,84,84,147,117,54,33,6,7,0.8,0.8
2026-03-23T0000,2606A,101.5379,25.0492,楚雄彝族自治州,市经济开发区,,26,26,34,16,25,47,47,89,68,12,15,4,4,0.6,0.6
2026-03-23T0000,4153A,101.5536,25.0343,楚雄彝族自治州,团结路562号,,20,NA,28,12,24,62,62,95,75,3,13,2,4,0.3,0.4
2026-03-23T0000,2549A,107.5087,31.2186,达州市,市环境监测站,,41,41,45,23,19,3,3,63,29,45,30,7,8,0.3,0.4
2026-03-23T0000,2550A,107.4988,31.2132,达州市,凤凰小区,颗粒物(PM10),51,51,46,28,21,3,3,66,31,48,30,7,7,0.4,0.4
2026-03-23T0000,2551A,107.5081,31.1987,达州市,达县机关宾馆,颗粒物(PM10),55,56,49,33,24,2,2,65,27,51,34,7,7,0.6,0.6
2026-03-23T0000,2552A,107.4644,31.2124,达州市,市政中心,颗粒物(PM10),55,56,50,26,18,4,4,72,38,54,31,6,7,0.7,0.5
2026-03-23T0000,2614A,100.2168,25.5818,大理白族自治州,大理市环境监测站,,31,NA,20,15,17,98,98,88,84,4,8,7,7,0.5,0.5
2026-03-23T0000,2615A,100.1542,25.7055,大理白族自治州,大理古城,,30,NA,22,20,20,94,94,87,84,5,10,4,7,0.3,0.5
2026-03-23T0000,1109A,121.6119,38.974,大连市,甘井子,细颗粒物(PM2.5),129,126,96,91,68,58,58,97,58,45,34,8,8,0.9,0.7
2026-03-23T0000,1110A,121.565,38.9509,大连市,周水子,细颗粒物(PM2.5),136,137,109,99,70,14,14,84,36,68,37,8,10,1.1,0.8
2026-03-23T0000,1111A,121.5637,38.8849,大连市,星海三站,细颗粒物(PM2.5),142,117,82,106,67,29,29,92,44,48,28,6,4,1.2,0.8
2026-03-23T0000,1112A,121.6301,38.9117,大连市,青泥洼桥,细颗粒物(PM2.5),140,139,93,104,65,28,28,100,42,59,29,6,5,1.1,0.9
2026-03-23T0000,1113A,121.6248,38.8643,大连市,傅家庄,细颗粒物(PM2.5),132,130,94,95,61,25,25,97,56,63,28,7,7,1.3,0.7
2026-03-23T0000,1114A,121.5117,38.8636,大连市,七贤岭,细颗粒物(PM2.5),127,120,87,89,59,68,68,88,56,26,28,7,7,0.9,0.7
2026-03-23T0000,1116A,121.7507,39.1339,大连市,金州,细颗粒物(PM2.5),113,96,95,74,70,105,105,100,83,13,24,9,8,0.8,0.8
2026-03-23T0000,1117A,121.7811,39.0495,大连市,开发区,细颗粒物(PM2.5),115,98,87,76,66,86,86,97,56,25,32,6,8,0.8,0.7
2026-03-23T0000,1118A,121.9762,39.0631,大连市,双D港,细颗粒物(PM2.5),115,94,79,76,63,106,106,100,95,15,21,6,5,1.7,0.9
2026-03-23T0000,4082A,121.2548,38.8188,大连市,旅顺,细颗粒物(PM2.5),130,126,88,93,63,26,26,84,39,27,23,8,7,1.0,0.6
2026-03-23T0000,1789A,124.8085,46.0381,大庆市,大同区,NA,NA,NA,132,NA,97,145,145,111,106,116,33,33,15,2.4,0.9
2026-03-23T0000,1790A,125.1166,46.5255,大庆市,龙凤区,细颗粒物(PM2.5),119,117,112,80,85,51,51,97,69,35,27,26,6,0.4,0.4
2026-03-23T0000,1791A,124.8894,46.4007,大庆市,红岗区,细颗粒物(PM2.5),106,83,76,66,63,36,36,102,72,52,19,16,10,1.0,0.6
2026-03-23T0000,1792A,125.1391,46.578,大庆市,萨尔图区,细颗粒物(PM2.5),112,90,119,73,84,50,50,99,70,38,29,11,6,0.8,0.8
2026-03-23T0000,1793A,124.9026,46.6217,大庆市,让胡路区,细颗粒物(PM2.5),113,98,85,74,65,26,26,106,60,59,22,8,6,1.0,0.7
2026-03-23T0000,3481A,125.127,46.6277,大庆市,萨区政府监测点,细颗粒物(PM2.5),103,81,112,63,81,38,38,95,71,39,24,11,9,0.6,0.5
2026-03-23T0000,1723A,113.2926,40.0759,大同市,云冈宾馆,,45,45,61,19,17,47,47,91,72,29,20,16,9,0.7,0.7
2026-03-23T0000,1724A,113.3437,40.0921,大同市,大同大学,,39,39,65,12,17,64,64,96,77,21,23,8,8,0.5,0.6
2026-03-23T0000,1725A,113.2637,40.129,大同市,安家小村,颗粒物(PM10),66,72,64,28,21,32,32,93,68,42,21,23,16,1.0,0.8
2026-03-23T0000,3282A,113.3399,40.0586,大同市,大同市卫生学校,,41,41,67,14,19,58,58,100,80,21,21,5,6,0.3,0.4
2026-03-23T0000,3565A,113.1371,40.1122,大同市,云冈站,颗粒物(PM10),63,68,56,27,16,8,8,90,52,56,20,19,8,0.7,0.5
2026-03-23T0000,3566A,113.1186,40.2556,大同市,图书馆,,48,48,59,32,17,35,35,88,65,17,12,8,7,1.1,0.7
2026-03-23T0000,3567A,113.5931,40.0459,大同市,区一中,,24,22,62,3,17,75,75,96,87,7,10,8,11,1.0,1
2026-03-23T0000,4199A,113.2798248,40.09972476,大同市,魏都大道141号,颗粒物(PM10),54,55,71,26,17,39,39,95,74,31,19,10,10,0.8,0.7
2026-03-23T0000,2269A,124.1068,50.4091,大兴安岭地区,科技局,,27,20,18,13,10,84,84,84,79,3,2,7,6,0.4,0.4
2026-03-23T0000,3663A,124.117,50.4279,大兴安岭地区,红旗社区,,24,NA,14,10,11,75,75,84,74,6,9,12,11,0.6,0.5
2026-03-23T0000,1600A,124.33,40.0625,丹东市,江湾东路,细颗粒物(PM2.5),101,73,72,61,56,83,83,118,88,17,18,8,9,0.5,0.7
2026-03-23T0000,1601A,124.4242,40.1513,丹东市,临江后街,细颗粒物(PM2.5),100,72,88,60,65,85,85,112,86,9,19,10,13,0.5,0.8
2026-03-23T0000,1602A,124.3935,40.1461,丹东市,元宝山,细颗粒物(PM2.5),103,78,78,63,57,61,61,107,72,16,19,6,11,0.7,0.8
2026-03-23T0000,1603A,124.3634,40.1093,丹东市,民主桥,细颗粒物(PM2.5),104,81,84,64,58,74,74,117,80,14,18,4,6,0.5,0.5
2026-03-23T0000,3541A,109.5726195,19.51688767,儋州市,第一中学子站,,25,25,24,14,13,48,48,69,68,7,5,6,6,0.4,0.3
2026-03-23T0000,3542A,109.5567,19.5187,儋州市,东坡学校子站,,24,24,22,16,13,55,55,75,75,8,5,7,7,0.4,0.3
2026-03-23T0000,2616A,98.5611,24.4273,德宏傣族景颇族自治州,德宏州监测站,,40,NA,28,28,34,26,26,76,59,13,13,6,6,1.0,0.9
2026-03-23T0000,3677A,98.5887,24.4366,德宏傣族景颇族自治州,芒市人民政府综合楼,,41,41,46,10,29,32,32,72,58,11,14,2,2,0.8,0.8
2026-03-23T0000,1901A,104.424,31.1209,德阳市,东山公园,,38,38,53,15,33,51,51,94,76,17,19,4,4,0.6,0.7
2026-03-23T0000,1902A,104.3827,31.1318,德阳市,西小区,,43,43,67,13,36,52,52,93,71,14,27,6,7,0.7,0.8
2026-03-23T0000,1904A,104.3553,31.1091,德阳市,耐火材料厂,,34,34,66,11,39,56,56,95,76,15,27,4,3,0.5,0.6
2026-03-23T0000,4145A,104.4144,31.1495,德阳市,市林业局,,41,41,55,15,34,55,55,95,71,8,22,7,6,0.5,0.7
2026-03-23T0000,1622A,116.3034,37.4675,德州市,儿童乐园,细颗粒物(PM2.5),104,124,110,64,50,94,94,103,78,26,24,13,12,0.7,0.7
2026-03-23T0000,1624A,116.2992,37.4449,德州市,监理站,颗粒物(PM10),103,127,103,56,47,107,107,112,93,29,27,4,4,0.7,0.8
2026-03-23T0000,3066A,116.2722,37.438,德州市,九衢泉纯净水厂,颗粒物(PM10),100,119,98,59,48,96,96,104,84,31,29,6,5,0.6,0.5
2026-03-23T0000,3371A,116.3693,37.44,德州市,开发区人民医院,颗粒物(PM10),105,132,107,60,49,81,81,103,78,33,25,10,8,0.7,0.6
2026-03-23T0000,3511A,116.5687,37.3331,德州市,陵城艺术中心,细颗粒物(PM2.5),110,129,116,70,63,66,66,103,76,23,18,12,9,0.9,0.8
2026-03-23T0000,4292A,116.352738,37.420875,德州市,新河东路,颗粒物(PM10),102,124,104,55,46,79,79,101,72,32,23,13,10,0.7,0.6
2026-03-23T0000,2621A,99.7054,27.8319,迪庆藏族自治州,迪庆州站,,26,11,13,7,9,83,83,94,87,6,7,5,7,0.6,0.6
2026-03-23T0000,3180A,99.7122,27.8129,迪庆藏族自治州,质量技术监督局,,30,11,19,7,9,95,95,107,97,5,6,6,6,0.4,0.4
2026-03-23T0000,4257A,104.6092,35.5962,定西市,将台街,颗粒物(PM10),91,107,140,36,46,85,85,110,98,14,8,9,8,0.4,0.3
2026-03-23T0000,4309A,104.6159,35.5701,定西市,正龙路62号,颗粒物(PM10),96,114,149,40,43,68,68,103,89,20,10,3,4,0.4,0.3
2026-03-23T0000,4071A,114.9883,38.5232,定州市,交通局,颗粒物(PM10),63,67,67,19,21,77,77,93,82,28,17,12,12,0.3,0.5
2026-03-23T0000,4072A,115.0045,38.5136,定州市,第五中学,颗粒物(PM10),71,79,75,24,22,51,51,93,76,57,18,8,8,0.3,0.4
2026-03-23T0000,1390A,113.7943,23.0132,东莞市,东城石井,,38,38,33,20,19,63,63,128,86,21,18,3,4,0.6,0.6
2026-03-23T0000,1391A,113.7384,22.9659,东莞市,南城西平,,43,43,31,25,17,77,77,112,86,20,17,4,4,0.6,0.6
2026-03-23T0000,3319A,113.7283,23.041,东莞市,万江金泰,颗粒物(PM10),62,66,36,33,22,71,71,122,88,28,17,5,5,0.7,0.7
2026-03-23T0000,4129A,113.8666,23.1062,东莞市,裕兴路,颗粒物(PM10),53,54,42,25,20,64,64,137,90,28,17,6,7,0.7,0.7
2026-03-23T0000,4130A,114.0076,22.9739,东莞市,教育路1号,,47,47,41,24,20,67,67,134,91,24,18,5,5,0.6,0.7
2026-03-23T0000,4131A,113.7981,22.8124,东莞市,长怡路1号,,37,37,36,19,17,69,69,116,92,31,18,5,4,0.7,0.7
2026-03-23T0000,1666A,118.6612,37.4313,东营市,市环保局,细颗粒物(PM2.5),160,129,123,122,96,112,112,142,135,13,23,8,16,0.7,0.7
2026-03-23T0000,3036A,118.6903,37.4337,东营市,开发区管委会,细颗粒物(PM2.5),156,NA,115,119,96,121,121,153,144,17,30,8,15,0.7,0.8
2026-03-23T0000,3365A,118.5721,37.5654,东营市,垦利区民丰路,细颗粒物(PM2.5),145,NA,108,109,89,107,107,136,NA,14,21,2,5,1.0,1
2026-03-23T0000,3498A,118.5063,37.8606,东营市,河口城区,细颗粒物(PM2.5),179,NA,128,135,102,88,88,149,124,16,22,9,16,0.8,0.8
2026-03-23T0000,3646A,118.4979,37.4623,东营市,胜利站,细颗粒物(PM2.5),155,139,131,118,89,99,99,128,119,14,22,7,12,0.9,1
2026-03-23T0000,3734A,118.5753,37.4405,东营市,理想之城,细颗粒物(PM2.5),145,132,126,109,88,114,114,141,133,22,31,5,10,1.0,1
2026-03-23T0000,1591A,110.0024,39.8127,鄂尔多斯市,综合楼,,34,34,63,23,20,54,54,91,80,57,22,8,8,0.3,0.4
2026-03-23T0000,1592A,109.9485,39.8259,鄂尔多斯市,巴音孟克林场办事处,细颗粒物(PM2.5),62,61,65,41,19,49,49,96,80,56,21,9,7,0.5,0.4
2026-03-23T0000,1593A,109.7734,39.5987,鄂尔多斯市,康泽苑,颗粒物(PM10),51,51,67,20,19,38,38,94,70,38,16,8,8,0.5,0.3
2026-03-23T0000,1594A,109.8121,39.5987,鄂尔多斯市,华泰汽车城,颗粒物(PM10),67,73,69,28,21,6,6,96,52,78,25,6,6,0.6,0.4
2026-03-23T0000,1595A,109.9734,39.7884,鄂尔多斯市,奥林花园,颗粒物(PM10),58,61,67,23,20,53,53,93,71,47,27,6,7,0.5,0.4
2026-03-23T0000,2436A,114.894,30.3989,鄂州市,市政府,细颗粒物(PM2.5),102,105,76,62,48,13,13,79,58,54,28,9,10,1.0,0.9
2026-03-23T0000,2437A,114.8986,30.3714,鄂州市,赵家坝,细颗粒物(PM2.5),96,106,80,58,51,31,31,93,67,28,24,8,10,1.3,1.2
2026-03-23T0000,3654A,114.8093,30.4091,鄂州市,精准医疗中心,"颗粒物(PM10),细颗粒物(PM2.5)",86,100,78,53,46,33,33,100,80,35,23,5,15,1.3,1
2026-03-23T0000,2454A,109.4978,30.2979,恩施土家族苗族自治州,湖北民院,颗粒物(PM10),53,54,41,26,25,12,12,52,28,19,16,6,7,0.7,0.6
2026-03-23T0000,3549A,109.5061,30.3771,恩施土家族苗族自治州,龙凤新区,,46,46,39,31,20,21,21,47,30,6,7,7,7,0.4,0.4
2026-03-23T0000,2499A,108.3411,21.6159,防城港市,沙万,NA,NA,NA,53,26,29,23,23,39,26,36,26,6,7,0.6,0.7
2026-03-23T0000,2500A,108.3515,21.7733,防城港市,防城档案局,颗粒物(PM10),51,51,56,31,34,10,10,47,32,20,18,6,7,0.6,0.8
2026-03-23T0000,2501A,108.3506,21.6414,防城港市,大海花园,颗粒物(PM10),55,57,47,23,34,12,12,47,35,35,24,10,10,0.4,0.8
2026-03-23T0000,1371A,113.1293,23.0065,佛山市,湾梁,,39,34,38,27,28,74,74,109,93,14,18,/,/,/,/
2026-03-23T0000,1372A,113.1082,23.0477,佛山市,华材职中,,40,36,40,28,28,71,71,106,92,17,21,7,7,0.4,0.4
2026-03-23T0000,1373A,113.1439,23.045,佛山市,南海气象局,,39,29,41,27,27,71,71,97,80,16,22,/,/,/,/
2026-03-23T0000,1374A,113.2879,22.8094,佛山市,顺德苏岗,,31,31,40,20,20,72,72,112,96,16,17,/,/,0.5,0.5
2026-03-23T0000,1376A,112.8384,22.8678,佛山市,高明孔堂,,27,27,32,14,17,56,56,93,80,12,13,/,/,/,/
2026-03-23T0000,1377A,112.8835,23.1584,佛山市,三水监测站,,44,44,48,29,33,48,48,74,50,27,38,4,4,0.6,0.6
2026-03-23T0000,1378A,112.8668,23.185,佛山市,三水云东海,颗粒物(PM10),56,58,61,31,32,44,44,74,42,33,29,/,/,/,/
2026-03-23T0000,3625A,113.2568,22.7629,佛山市,容桂街道办,,30,29,32,21,22,70,70,102,87,18,21,/,/,/,/
2026-03-23T0000,1282A,119.2681,26.0506,福州市,师大,,33,33,38,19,23,71,71,120,99,26,22,4,4,0.5,0.5
2026-03-23T0000,1283A,119.2983,26.1028,福州市,五四北路,,26,21,38,14,27,82,82,117,99,19,23,5,5,0.6,0.7
2026-03-23T0000,1284A,119.2648,26.0769,福州市,杨桥西路,,26,25,36,15,23,82,82,126,105,19,20,4,5,/,/
2026-03-23T0000,3048A,119.5799,26.0937,福州市,九龙,,28,22,24,19,22,68,68,120,98,19,17,4,5,0.4,0.5
2026-03-23T0000,3526A,119.5188,25.9666,福州市,吴航,,47,47,35,30,23,58,58,112,86,33,23,5,6,0.6,0.7
2026-03-23T0000,4104A,119.3106,26.0648,福州市,路通桥巷6号,,27,27,36,18,26,75,75,116,92,16,19,/,/,/,/
2026-03-23T0000,1755A,123.7974,41.8494,抚顺市,望花区,细颗粒物(PM2.5),152,192,116,116,81,32,32,114,23,27,30,18,21,1.1,1.1
2026-03-23T0000,1756A,123.9161,41.8827,抚顺市,顺城区,细颗粒物(PM2.5),149,144,97,113,85,41,41,112,25,26,31,12,14,1.1,1
2026-03-23T0000,1757A,124.0437,41.8615,抚顺市,东洲区,细颗粒物(PM2.5),129,123,106,91,78,49,49,118,36,14,16,9,13,0.9,0.8
2026-03-23T0000,1758A,123.9246,41.8638,抚顺市,新抚区,细颗粒物(PM2.5),136,133,104,99,78,48,48,102,28,20,32,9,11,1.0,0.9
2026-03-23T0000,1759A,124.0972,41.8961,抚顺市,大伙房水库,颗粒物(PM10),80,91,88,35,64,50,50,127,54,14,11,11,12,0.9,0.7
2026-03-23T0000,1760A,123.708,41.8386,抚顺市,沈抚新城,细颗粒物(PM2.5),114,141,104,75,75,3,3,105,14,46,38,10,14,1.9,1.1
2026-03-23T0000,2377A,116.3544,27.9833,抚州市,市站,,20,20,36,14,28,33,33,32,32,10,15,10,8,1.0,1.1
2026-03-23T0000,2378A,116.3562,27.9631,抚州市,血防站,,31,31,39,20,27,25,25,29,29,15,19,7,6,1.0,1
2026-03-23T0000,2379A,116.3561,28.0007,抚州市,采茶剧团,,30,30,42,19,26,33,33,30,30,12,19,20,6,0.8,0.9
2026-03-23T0000,2380A,116.3854,27.9648,抚州市,医学分院,,27,27,45,18,25,34,34,35,35,13,18,8,9,1.2,1.3
2026-03-23T0000,2207A,121.6095,41.9978,阜新市,工业园区,细颗粒物(PM2.5),139,149,131,102,104,22,22,116,58,43,30,9,11,1.0,0.9
2026-03-23T0000,2208A,121.6567,42.0188,阜新市,长青街,细颗粒物(PM2.5),142,124,108,106,99,6,6,113,66,64,24,9,8,1.6,0.9
2026-03-23T0000,2209A,121.6672,42.07,阜新市,农业园区,颗粒物(PM10),59,62,133,39,92,92,92,113,94,14,20,11,8,1.7,0.9
2026-03-23T0000,2211A,121.6343,42.0455,阜新市,玉龙新城,细颗粒物(PM2.5),113,98,134,74,106,2,2,112,42,60,34,9,11,1.1,1
2026-03-23T0000,2301A,115.8276,32.8929,阜阳市,市监测站,细颗粒物(PM2.5),110,114,91,70,45,39,39,125,68,65,29,6,6,0.6,0.5
2026-03-23T0000,2303A,115.8551,32.8606,阜阳市,开发区,细颗粒物(PM2.5),103,116,103,63,45,64,64,127,85,27,21,6,6,0.6,0.6
2026-03-23T0000,2875A,115.783962,32.889217,阜阳市,阜阳职业技术学院,颗粒物(PM10),87,101,78,50,35,84,84,130,104,22,16,8,8,0.8,0.8
2026-03-23T0000,3468A,115.79,32.8614,阜阳市,市规划展馆,细颗粒物(PM2.5),94,107,88,57,44,99,99,137,116,24,17,9,8,0.6,0.5
2026-03-23T0000,3469A,115.835101,32.918568,阜阳市,枣园社区,细颗粒物(PM2.5),116,127,96,77,47,51,51,126,78,42,23,6,6,0.5,0.5
2026-03-23T0000,2669A,102.9097,34.9841,甘南藏族自治州,州政府,颗粒物(PM10),67,73,79,38,29,81,81,85,81,2,3,4,5,0.3,0.3
2026-03-23T0000,3380A,102.8915,34.9618,甘南藏族自治州,甘肃民族师范学院,颗粒物(PM10),88,102,92,32,28,93,93,104,99,9,4,2,2,0.5,0.4
2026-03-23T0000,2570A,101.96,30.048,甘孜藏族自治州,水桥子,,24,24,11,7,4,51,51,80,66,13,8,6,6,0.2,0.2
2026-03-23T0000,3065A,101.9534,29.9976,甘孜藏族自治州,州环保局,,16,16,10,11,6,48,48,96,NA,17,14,5,6,0.3,0.6
2026-03-23T0000,2363A,114.9368,25.8663,赣州市,地委,,33,33,32,19,17,48,48,70,56,10,21,4,4,0.9,1.1
2026-03-23T0000,2364A,114.946,25.8483,赣州市,气象台,,35,35,36,19,21,62,62,85,71,12,23,4,5,0.7,0.7
2026-03-23T0000,2365A,114.932,25.8332,赣州市,市图书馆,,29,24,30,20,20,61,61,74,66,8,20,4,4,0.8,0.8
2026-03-23T0000,2366A,114.8905,25.8472,赣州市,华坚鞋城,,30,30,41,17,21,56,56,77,62,9,20,5,6,0.5,0.5
2026-03-23T0000,3109A,115.0094,25.8614,赣州市,赣县区卫计委,,33,33,29,23,16,47,47,68,56,14,20,3,3,0.8,0.8
2026-03-23T0000,2684A,106.2753,36.0057,固原市,监测站,颗粒物(PM10),58,60,154,17,42,80,80,100,93,8,13,9,9,0.2,0.3
2026-03-23T0000,2685A,106.2384,36.0189,固原市,新区,颗粒物(PM10),59,62,156,15,43,86,86,104,97,6,14,7,7,0.2,0.3
2026-03-23T0000,2544A,106.6307,30.4577,广安市,市委,细颗粒物(PM2.5),52,45,41,36,30,70,70,95,84,13,18,8,7,0.6,0.7
2026-03-23T0000,2545A,106.6266,30.4662,广安市,友谊中学,,50,50,37,28,21,60,60,99,81,19,17,7,7,0.8,0.8
2026-03-23T0000,2547A,106.6386,30.4551,广安市,广电花园,颗粒物(PM10),58,60,47,35,28,62,62,94,80,18,19,6,6,0.7,0.8
2026-03-23T0000,2902A,106.6347,30.4868,广安市,北辰小学,,49,44,40,34,27,58,58,94,82,18,14,7,7,0.8,0.8
2026-03-23T0000,2524A,105.8211,32.4444,广元市,老城,,39,39,52,19,17,6,6,39,19,46,38,10,12,0.8,0.8
2026-03-23T0000,2526A,105.8629,32.429,广元市,监测站,颗粒物(PM10),58,60,45,20,13,8,8,48,28,39,28,5,5,0.7,0.6
2026-03-23T0000,3617A,105.8047,32.4167,广元市,经开区,颗粒物(PM10),58,61,52,22,24,14,14,42,27,46,38,4,10,0.7,0.7
2026-03-23T0000,1345A,113.2346,23.1423,广州市,广雅中学,,50,50,38,25,23,58,58,99,73,28,27,6,2,0.7,0.7
2026-03-23T0000,1346A,113.2611,23.105,广州市,市五中,,43,43,36,26,27,67,67,117,84,26,28,11,7,/,/
2026-03-23T0000,1348A,113.3477,23.0916,广州市,广东商学院,,47,47,35,26,22,37,37,101,69,41,29,5,5,0.8,0.8
2026-03-23T0000,1349A,113.4332,23.105,广州市,市八十六中,,45,45,32,26,18,30,30,105,63,58,32,5,5,/,/
2026-03-23T0000,1350A,113.3506,22.9488,广州市,番禺中学,,43,43,37,22,21,70,70,121,90,15,20,4,4,0.8,0.8
2026-03-23T0000,1351A,113.2147,23.3918,广州市,花都师范,颗粒物(PM10),53,54,46,30,31,35,35,100,74,44,38,6,6,0.8,0.9
2026-03-23T0000,1352A,113.2599,23.1329,广州市,市监测站,,46,46,39,25,22,59,59,102,76,22,24,3,1,/,/
2026-03-23T0000,1353A,113.5618,23.3119,广州市,九龙镇镇龙,,47,47,44,27,27,28,28,107,61,52,30,7,6,0.6,0.5
2026-03-23T0000,1354A,113.2764,23.1544,广州市,麓湖,,43,43,34,24,21,54,54,105,78,24,23,3,3,0.7,0.7
2026-03-23T0000,2846A,113.3209,23.1323,广州市,体育西,,46,46,37,24,20,68,68,109,80,22,30,6,6,0.7,0.7
2026-03-23T0000,3298A,113.5718,23.5493,广州市,从化街口,细颗粒物(PM2.5),72,63,57,46,40,24,24,111,70,39,26,6,6,0.9,0.8
2026-03-23T0000,3299A,113.3463,23.369,广州市,白云竹料,颗粒物(PM10),51,51,50,29,32,33,33,108,77,44,30,4,4,0.7,0.8
2026-03-23T0000,3300A,113.2981,23.2365,广州市,白云嘉禾,颗粒物(PM10),55,56,48,29,28,45,45,111,75,44,35,7,7,/,/
2026-03-23T0000,3301A,113.4256,23.1716,广州市,黄埔科学城,颗粒物(PM10),51,51,38,28,27,63,63,118,81,32,31,9,8,0.6,0.6
2026-03-23T0000,3302A,113.3942,23.0485,广州市,番禺大学城,,39,39,37,25,24,72,72,129,95,24,26,6,6,0.6,0.6
2026-03-23T0000,3303A,113.4923,22.8169,广州市,南沙黄阁,,37,37,37,25,20,82,82,114,97,24,20,7,6,/,/
2026-03-23T0000,3304A,113.534,22.7893,广州市,南沙街,,36,32,34,25,18,75,75,108,93,14,12,8,8,0.5,0.5
2026-03-23T0000,3443A,113.2905,23.5541,广州市,花都梯面,,47,47,43,29,28,28,28,93,46,36,24,8,7,/,/
2026-03-23T0000,3445A,113.786,23.7479,广州市,从化良口,,35,30,35,24,26,20,20,86,54,22,18,4,4,/,/
2026-03-23T0000,3446A,113.805,23.2614,广州市,增城荔城,,43,43,45,30,30,35,35,154,86,35,21,5,6,0.6,0.5
2026-03-23T0000,2506A,109.604387,23.066791,贵港市,江南子站,细颗粒物(PM2.5),133,180,125,96,52,2,2,39,18,49,42,9,10,1.1,1.1
2026-03-23T0000,2508A,109.5669,23.1065,贵港市,荷城子站,细颗粒物(PM2.5),129,114,97,91,67,5,5,35,19,50,41,10,11,1.1,1
2026-03-23T0000,3405A,109.5886,23.1172,贵港市,新世纪学校,细颗粒物(PM2.5),142,141,98,106,65,4,4,42,22,62,41,/,/,1.1,1
2026-03-23T0000,4260A,109.5933,23.095,贵港市,中山路155-3号,细颗粒物(PM2.5),127,154,120,89,73,0,0,40,21,52,36,/,/,1.1,1.1
2026-03-23T0000,1439A,106.6863,26.6035,贵阳市,马鞍山,,39,NA,25,27,21,38,38,34,22,11,17,6,6,/,/
2026-03-23T0000,1441A,106.6241,26.6266,贵阳市,鉴湖路,,24,24,30,10,14,52,52,42,38,10,18,6,6,0.4,0.5
2026-03-23T0000,1442A,106.7468,26.6344,贵阳市,燕子冲,,46,NA,27,32,18,22,22,44,23,24,17,8,7,1.2,1.3
2026-03-23T0000,1443A,106.6556,26.4362,贵阳市,碧云窝,,19,19,26,12,15,51,51,49,49,7,14,7,10,/,/
2026-03-23T0000,1445A,106.6963,26.6063,贵阳市,红边门,,33,31,36,23,20,29,29,38,15,21,25,14,15,/,/
2026-03-23T0000,1446A,106.7162383,26.56964667,贵阳市,新华路,,46,NA,39,32,18,27,27,39,18,24,22,10,10,0.8,0.8
2026-03-23T0000,1447A,106.6742,26.542,贵阳市,太慈桥,,29,NA,29,20,19,47,47,40,36,9,18,5,7,/,/
2026-03-23T0000,4230A,106.688212,26.56952,贵阳市,花果园大街66号,,25,NA,27,17,19,38,38,32,24,11,21,3,4,/,/
2026-03-23T0000,4231A,106.687268,26.516892,贵阳市,漓江路57号,,33,NA,21,23,20,40,40,36,33,14,20,11,12,0.7,0.9
2026-03-23T0000,1864A,110.3091,25.2705,桂林市,龙隐路小学,,16,13,34,11,28,16,16,19,4,26,29,3,7,0.9,1
2026-03-23T0000,1865A,110.2849361,25.22909545,桂林市,八中,,13,8,34,3,16,10,10,14,3,26,31,3,4,1.0,1.2
2026-03-23T0000,3531A,110.296,25.1254,桂林市,旅游学院,,39,39,39,16,29,0,0,17,1,35,28,6,6,1.3,1.1
2026-03-23T0000,4222A,110.1835,25.2444,桂林市,环湖路276号,,26,NA,36,18,30,11,11,16,3,30,32,12,9,1.0,1.1
2026-03-23T0000,4301A,110.2803,25.2773,桂林市,信义路13号,,13,6,34,3,28,19,19,14,4,22,33,3,10,1.3,1.5
2026-03-23T0000,2674A,100.2262,34.4854,果洛藏族自治州,玛沁县大武镇,颗粒物(PM10),60,64,42,22,20,81,81,104,86,1,3,8,8,0.4,0.4
2026-03-23T0000,1130A,126.5557,45.8109,哈尔滨市,松北商大,细颗粒物(PM2.5),102,64,201,62,168,8,8,111,67,65,33,10,14,0.8,1.1
2026-03-23T0000,1132A,126.6162,45.719,哈尔滨市,南岗学府路,颗粒物(PM10),54,55,210,36,139,28,28,116,78,49,30,8,12,0.0,0.3
2026-03-23T0000,1133A,126.6894,45.7733,哈尔滨市,太平宏伟公园,细颗粒物(PM2.5),86,59,207,53,157,33,33,112,72,39,31,13,7,0.5,1
2026-03-23T0000,1134A,126.6361,45.7672,哈尔滨市,道外承德广场,NA,NA,NA,276,NA,168,NA,NA,119,NA,NA,34,NA,13,NA,0.9
2026-03-23T0000,1136A,126.644,45.7261,哈尔滨市,动力和平路,,40,37,215,28,144,55,55,113,83,31,31,12,19,1.2,1.5
2026-03-23T0000,1137A,126.5933,45.7479,哈尔滨市,道里建国路,细颗粒物(PM2.5),72,55,198,46,149,45,45,108,72,42,37,11,16,0.8,1
2026-03-23T0000,1138A,126.6127,45.6119,哈尔滨市,平房东轻厂,二氧化氮(NO2),80,63,193,38,149,3,3,90,46,160,93,67,64,0.4,0.7
2026-03-23T0000,1139A,126.5875,45.9827,哈尔滨市,呼兰师专,细颗粒物(PM2.5),172,143,227,130,174,13,13,102,56,68,39,14,13,0.9,1
2026-03-23T0000,1140A,126.6299,45.6799,哈尔滨市,省农科院,,44,44,223,27,146,34,34,112,81,32,31,9,13,0.4,0.7
2026-03-23T0000,4282A,126.6769,45.7379,哈尔滨市,华山路1号,细颗粒物(PM2.5),52,51,211,36,145,53,53,110,80,33,37,10,12,0.8,1.1
2026-03-23T0000,4283A,126.9717,45.5356,哈尔滨市,解放大街52号,细颗粒物(PM2.5),148,170,270,112,156,20,20,130,73,53,35,11,14,0.6,0.4
2026-03-23T0000,2688A,93.5124,42.8176,哈密市,地区监测站,颗粒物(PM10),70,77,42,34,16,27,27,94,69,50,18,6,6,0.6,0.4
2026-03-23T0000,2689A,93.5014,42.8312,哈密市,哈密师范学校,颗粒物(PM10),65,71,47,26,17,26,26,99,74,65,26,8,8,0.8,0.5
2026-03-23T0000,2671A,100.9016,36.9464,海北藏族自治州,海晏县西海镇,颗粒物(PM10),59,62,121,34,43,46,46,96,73,11,6,8,10,0.5,0.5
2026-03-23T0000,3867A,102.074,36.5056,海东市,平安区公安局北苑,颗粒物(PM10),108,140,146,55,57,60,60,97,78,8,10,6,17,0.7,0.8
2026-03-23T0000,4163A,102.0984,36.5119,海东市,滨河路,颗粒物(PM10),114,156,162,56,54,16,16,78,35,41,31,8,15,0.9,0.9
2026-03-23T0000,1410A,110.3189,20.0596,海口市,海南大学,,28,28,24,15,17,54,54,71,61,4,5,5,5,0.3,0.4
2026-03-23T0000,1411A,110.2827,20.0051,海口市,秀英海南医院,,26,26,32,15,16,43,43,66,52,11,8,8,8,0.2,0.3
2026-03-23T0000,1412A,110.3391,19.9979,海口市,海南师范大学,,38,38,29,14,16,50,50,73,58,7,7,6,6,0.4,0.4
2026-03-23T0000,1413A,110.3303,20.0359,海口市,龙华路环保局宿舍,,33,33,30,15,18,56,56,73,62,6,7,/,/,0.5,0.5
2026-03-23T0000,3539A,110.5111,19.9737,海口市,桂林洋子站,,42,42,28,24,17,39,39,70,54,8,7,/,/,/,/
2026-03-23T0000,4134A,110.1952,20.0451,海口市,长滨二路9号,,28,28,25,16,17,50,50,68,59,5,4,/,/,/,/
2026-03-23T0000,2673A,100.6158,36.2985,海南藏族自治州,共和县恰卜恰镇,颗粒物(PM10),55,56,88,29,40,62,62,96,87,20,8,10,12,0.3,0.3
2026-03-23T0000,2676A,97.373,37.376,海西蒙古族藏族自治州,德令哈市,颗粒物(PM10),55,56,46,21,21,91,91,130,120,15,4,17,15,0.7,0.4
2026-03-23T0000,1049A,114.492,36.5712,邯郸市,矿院,颗粒物(PM10),65,70,72,21,30,16,16,99,61,58,18,9,4,0.6,0.5
2026-03-23T0000,1050A,114.4839,36.6136,邯郸市,丛台公园,颗粒物(PM10),65,71,76,37,41,14,14,99,64,56,16,3,3,0.5,0.5
2026-03-23T0000,3458A,114.7893,36.5592,邯郸市,香泉濮院小区,颗粒物(PM10),90,106,88,29,26,38,38,100,75,41,14,3,2,0.4,0.4
2026-03-23T0000,3580A,114.1998,36.4439,邯郸市,峰峰矿区临水派出所,,40,40,68,7,24,96,96,102,92,4,8,4,6,0.5,0.6
2026-03-23T0000,4068A,114.5209,36.7697,邯郸市,建安街268号,细颗粒物(PM2.5),101,99,83,61,49,9,9,93,37,54,29,3,3,0.5,0.5
2026-03-23T0000,4069A,114.5488,36.6177,邯郸市,丛台东路558号,颗粒物(PM10),64,69,72,41,42,3,3,99,52,73,26,2,2,0.5,0.4
2026-03-23T0000,2635A,107.0155,33.0707,汉中市,市监测站,细颗粒物(PM2.5),98,85,64,59,36,5,5,42,17,34,31,7,8,1.0,0.9
2026-03-23T0000,2636A,107.0083,33.114,汉中市,鑫源开发区,细颗粒物(PM2.5),122,115,65,84,41,6,6,48,21,44,33,6,7,1.2,0.9
2026-03-23T0000,2637A,107.0072,33.0323,汉中市,南郑大河坎水厂,细颗粒物(PM2.5),94,86,59,57,35,3,3,37,12,28,26,4,5,1.0,0.8
2026-03-23T0000,1223A,120.2073,30.2111,杭州市,滨江,颗粒物(PM10),64,69,72,39,42,3,3,61,25,61,39,7,8,1.2,1
2026-03-23T0000,1224A,120.0625,30.2737,杭州市,西溪,颗粒物(PM10),58,60,74,36,38,4,4,68,29,46,28,8,9,1.1,0.8
2026-03-23T0000,1226A,120.3417,30.315,杭州市,下沙,颗粒物(PM10),82,94,89,46,49,7,7,76,38,78,43,8,9,1.0,0.7
2026-03-23T0000,1227A,120.1252,30.2465,杭州市,卧龙桥,颗粒物(PM10),55,57,66,37,37,23,23,64,32,26,28,7,8,0.5,0.4
2026-03-23T0000,1228A,120.1902,30.2691,杭州市,浙江农大,细颗粒物(PM2.5),64,51,58,42,43,33,33,66,31,39,45,6,7,1.0,0.8
2026-03-23T0000,1230A,120.1195,30.3121,杭州市,和睦小学,颗粒物(PM10),73,82,88,44,52,18,18,68,33,42,34,7,8,1.0,0.8
2026-03-23T0000,1231A,120.3076,30.4146,杭州市,临平镇,细颗粒物(PM2.5),60,62,64,40,44,21,21,99,73,58,32,6,7,1.2,0.7
2026-03-23T0000,1232A,120.2753,30.1839,杭州市,城厢镇,颗粒物(PM10),59,62,67,37,43,0,0,60,22,43,28,9,9,1.0,0.8
2026-03-23T0000,1233A,120.0883,30.1808,杭州市,云栖,颗粒物(PM10),56,58,64,34,29,24,24,53,21,26,37,5,6,0.8,0.7
2026-03-23T0000,3557A,119.9463,30.0496,杭州市,镇二中,细颗粒物(PM2.5),52,40,50,36,48,1,1,42,16,42,38,4,5,1.0,0.8
2026-03-23T0000,3558A,119.7184,30.2367,杭州市,市府大楼,,50,48,53,35,38,32,32,79,55,22,22,6,7,0.5,0.4
2026-03-23T0000,3656A,120.1554,30.2863,杭州市,消防大队,颗粒物(PM10),73,81,79,45,53,31,31,65,42,33,33,8,8,1.0,0.9
2026-03-23T0000,1270A,117.1957,31.7845,合肥市,明珠广场,颗粒物(PM10),93,110,74,55,39,29,29,118,73,87,28,6,6,1.0,0.8
2026-03-23T0000,1271A,117.307,31.8765,合肥市,三里街,细颗粒物(PM2.5),80,90,77,50,43,61,61,112,60,54,45,6,6,0.8,0.9
2026-03-23T0000,1272A,117.2587,31.8703,合肥市,琥珀山庄,细颗粒物(PM2.5),92,85,72,56,41,74,74,117,65,53,39,8,7,0.7,0.8
2026-03-23T0000,1275A,117.2593,31.9376,合肥市,庐阳区,细颗粒物(PM2.5),88,90,72,54,37,101,101,116,92,31,30,4,5,0.9,0.9
2026-03-23T0000,1276A,117.345251,31.861615,合肥市,瑶海区,颗粒物(PM10),90,105,84,53,41,63,63,117,76,58,40,6,6,0.8,0.8
2026-03-23T0000,1277A,117.3033,31.7967,合肥市,包河区,颗粒物(PM10),100,119,83,51,39,4,4,119,58,146,60,10,9,1.0,0.9
2026-03-23T0000,1278A,117.278,31.7392,合肥市,滨湖新区,颗粒物(PM10),88,102,82,47,39,98,98,134,113,29,20,4,4,0.9,0.8
2026-03-23T0000,1279A,117.1324,31.8395,合肥市,高新区,颗粒物(PM10),72,80,62,38,34,57,57,116,85,52,23,5,5,0.9,0.8
2026-03-23T0000,3464A,117.3802,31.9148,合肥市,高教基地,细颗粒物(PM2.5),90,92,76,55,41,84,84,126,73,37,33,10,8,0.6,0.6
2026-03-23T0000,4098A,117.2518,31.8404,合肥市,中国科学技术大学,颗粒物(PM10),84,97,65,48,33,80,80,125,92,44,25,7,6,0.9,0.8
2026-03-23T0000,3614A,79.9241,37.0878,和田地区,地区环保局,颗粒物(PM10),132,202,226,53,54,74,74,103,94,17,8,2,3,0.5,0.4
2026-03-23T0000,3615A,79.9132,37.1137,和田地区,市环保局,颗粒物(PM10),137,214,227,54,60,67,67,96,86,19,14,3,3,NA,0.7
2026-03-23T0000,2517A,108.0496,24.6957,河池市,市环保站,,38,33,31,26,23,3,3,21,10,18,11,4,4,1.0,0.8
2026-03-23T0000,4302A,108.0901,24.6945,河池市,上任中路54号,,34,34,33,23,22,0,0,13,4,22,15,6,6,1.0,0.8
2026-03-23T0000,1697A,114.6962,23.7538,河源市,东埔,,38,36,33,26,26,64,64,96,83,15,12,5,5,0.7,0.8
2026-03-23T0000,1698A,114.6895,23.7232,河源市,老城,,43,43,35,26,26,54,54,96,81,13,11,6,6,0.7,0.8
2026-03-23T0000,3374A,115.5562,35.089,菏泽市,定陶老年大学,颗粒物(PM10),104,129,131,56,72,80,80,134,103,24,19,6,6,0.4,0.4
2026-03-23T0000,4114A,115.4239,35.2593,菏泽市,黄河路600号,颗粒物(PM10),124,182,150,64,71,18,18,126,82,69,21,4,4,0.5,0.5
2026-03-23T0000,4115A,115.5025,35.2727,菏泽市,菏泽市人社局,颗粒物(PM10),110,144,128,62,73,34,34,128,86,58,24,7,6,0.4,0.5
2026-03-23T0000,4184A,115.479691,35.244011,菏泽市,永昌路1号,颗粒物(PM10),119,169,137,63,71,61,61,144,105,48,23,6,4,0.4,0.4
2026-03-23T0000,4193A,115.471542,35.280012,菏泽市,长城路999号,颗粒物(PM10),113,152,136,65,69,43,43,131,93,48,19,12,11,0.4,0.4
2026-03-23T0000,2514A,111.5264,24.4178,贺州市,环保小区,细颗粒物(PM2.5),106,123,70,66,47,4,4,24,13,40,36,6,6,1.3,1.1
2026-03-23T0000,2515A,111.561,24.4074,贺州市,政协大楼,细颗粒物(PM2.5),112,98,65,73,49,0,0,21,6,46,43,7,7,1.6,1.2
2026-03-23T0000,3534A,111.4744,24.455,贺州市,西湾,细颗粒物(PM2.5),122,159,77,84,47,5,5,28,18,34,29,8,7,1.3,1
2026-03-23T0000,2385A,114.17,35.9019,鹤壁市,市监测站,颗粒物(PM10),88,102,93,43,45,50,50,101,70,26,20,11,10,0.4,0.9
2026-03-23T0000,2386A,114.2953,35.7512,鹤壁市,市交警支队,颗粒物(PM10),75,85,98,29,39,40,40,95,62,37,26,8,8,0.5,0.6
2026-03-23T0000,2387A,114.2877,35.7302,鹤壁市,迎宾馆,颗粒物(PM10),68,74,106,27,43,41,41,99,60,29,23,13,10,0.7,0.6
2026-03-23T0000,3474A,114.2616,35.6824,鹤壁市,大新区,细颗粒物(PM2.5),70,75,95,45,48,51,51,102,68,26,24,6,8,0.7,0.8
2026-03-23T0000,3596A,114.1573,35.9607,鹤壁市,南山宾馆,颗粒物(PM10),55,57,103,25,42,86,86,101,90,3,11,7,10,0.2,0.7
2026-03-23T0000,2244A,130.2537,47.3416,鹤岗市,哈啤分公司,,48,47,48,33,42,80,80,90,71,10,12,10,11,0.4,0.4
2026-03-23T0000,2245A,130.2683,47.3087,鹤岗市,斯达机电,细颗粒物(PM2.5),62,61,56,41,42,71,71,94,73,14,14,10,11,0.7,0.6
2026-03-23T0000,2246A,130.3114,47.3388,鹤岗市,东山纸板厂,颗粒物(PM10),136,213,97,58,50,15,15,89,35,45,28,13,11,1.1,0.9
2026-03-23T0000,2263A,127.4832,50.2524,黑河市,交通局,,43,43,37,23,17,42,42,84,52,25,21,8,8,0.4,0.4
2026-03-23T0000,2264A,127.5146,50.2339,黑河市,环保局,,26,24,42,18,30,56,56,84,71,24,32,7,8,0.4,0.6
2026-03-23T0000,1074A,115.6839,37.754,衡水市,电机北厂,颗粒物(PM10),115,158,100,65,48,13,13,99,66,95,28,3,4,0.4,0.5
2026-03-23T0000,1075A,115.6303,37.7318,衡水市,市监测站,颗粒物(PM10),88,102,87,42,45,18,18,96,72,60,18,2,3,0.5,0.4
2026-03-23T0000,3188A,115.6684,37.7216,衡水市,市城管局,颗粒物(PM10),88,103,97,45,47,19,19,98,69,89,23,4,5,0.5,0.5
2026-03-23T0000,3459A,115.599,37.5491,衡水市,地表水厂,颗粒物(PM10),79,90,92,33,48,21,21,100,55,72,26,4,5,0.4,0.4
2026-03-23T0000,2457A,112.6209,26.9268,衡阳市,衡阳化工总厂,,36,36,32,23,24,23,23,27,17,13,17,12,6,1.1,1.1
2026-03-23T0000,2458A,112.621,26.8957,衡阳市,珠晖区环保局,,28,22,31,19,22,16,16,26,15,16,24,11,6,1.1,1.2
2026-03-23T0000,2459A,112.628,26.8654,衡阳市,市委党校,,26,18,32,18,24,19,19,28,17,13,18,16,7,1.2,1.3
2026-03-23T0000,2460A,112.6007,26.8977,衡阳市,市监测站,,35,31,34,24,24,21,21,27,18,17,25,18,8,1.0,1
2026-03-23T0000,2461A,112.5658,26.9013,衡阳市,真空机电公司,,39,32,32,27,26,18,18,28,19,20,22,18,8,1.4,1.4
2026-03-23T0000,3399A,112.6703,26.8817,衡阳市,师范学院,,29,29,33,15,21,20,20,30,22,12,15,10,7,1.1,1.1
2026-03-23T0000,3038A,103.3757,23.3679,红河哈尼族彝族自治州,州图书馆,,32,23,20,22,18,79,79,86,75,6,7,4,5,0.4,0.4
2026-03-23T0000,4154A,103.401,23.3561,红河哈尼族彝族自治州,蒙自市朝阳路,,25,18,18,16,17,80,80,92,78,6,7,8,9,0.3,0.3
2026-03-23T0000,1090A,111.6506,40.7517,呼和浩特市,呼市一监,细颗粒物(PM2.5),250,219,63,200,40,64,64,115,94,37,16,12,9,1.2,0.5
2026-03-23T0000,1094A,111.7516,40.8369,呼和浩特市,如意水处理厂,细颗粒物(PM2.5),168,134,44,127,30,44,44,108,92,66,14,13,9,0.8,0.3
2026-03-23T0000,1095A,111.727798,40.806187,呼和浩特市,二十九中,细颗粒物(PM2.5),218,202,59,168,39,63,63,102,91,36,15,13,9,0.9,0.4
2026-03-23T0000,1097A,111.717,40.7617,呼和浩特市,化肥厂生活区,细颗粒物(PM2.5),305,310,76,255,59,65,65,112,95,50,20,13,8,1.3,0.4
2026-03-23T0000,3699A,111.6519,40.8389,呼和浩特市,海东办,细颗粒物(PM2.5),145,163,39,109,18,61,61,97,78,40,13,9,5,0.8,0.3
2026-03-23T0000,4275A,111.591512,40.827312,呼和浩特市,成吉思汗西街8号,细颗粒物(PM2.5),82,78,34,51,14,30,30,94,76,57,16,6,4,0.5,0.3
2026-03-23T0000,4276A,111.6597,40.8077,呼和浩特市,公园东路75号,细颗粒物(PM2.5),188,195,53,141,26,78,78,99,90,32,14,14,9,0.9,0.4
2026-03-23T0000,4277A,111.5427,40.7846,呼和浩特市,金海路35号,细颗粒物(PM2.5),86,NA,47,53,26,37,37,106,87,43,15,9,8,0.5,0.3
2026-03-23T0000,3061A,119.7511,49.1576,呼伦贝尔市,国华电力东,,30,30,29,17,20,87,87,105,90,12,13,5,5,0.3,0.3
2026-03-23T0000,4279A,119.7569,49.2222,呼伦贝尔市,伊敏大街东7号,,27,19,31,14,20,86,86,104,96,10,13,6,6,0.3,0.3
2026-03-23T0000,1250A,120.075,30.867,湖州市,城西水厂,,46,46,49,31,35,11,11,102,48,85,39,6,6,0.6,0.5
2026-03-23T0000,2873A,120.083,30.8929,湖州市,仁皇山新区,,38,38,52,24,32,21,21,99,63,69,32,5,5,0.8,0.7
2026-03-23T0000,2907A,120.1846,30.8592,湖州市,吴兴区站,颗粒物(PM10),54,55,65,31,34,27,27,118,79,56,25,6,6,0.6,0.5
2026-03-23T0000,3562A,120.4146,30.8538,湖州市,南浔区站,颗粒物(PM10),63,67,57,38,35,68,68,112,92,24,20,5,5,0.8,0.7
2026-03-23T0000,1607A,120.904878,40.721091,葫芦岛市,龙港区,细颗粒物(PM2.5),160,159,134,122,104,17,17,96,60,52,25,9,24,1.2,1
2026-03-23T0000,1608A,120.8382,40.7521,葫芦岛市,化工街,细颗粒物(PM2.5),234,244,179,184,129,2,2,80,36,78,48,17,20,1.4,1
2026-03-23T0000,1609A,120.8339,40.7078,葫芦岛市,新区,细颗粒物(PM2.5),216,167,121,166,120,1,1,89,43,86,32,10,10,1.4,0.9
2026-03-23T0000,1610A,120.8697,40.7679,葫芦岛市,东城区,细颗粒物(PM2.5),233,213,130,183,128,2,2,82,38,77,43,42,17,1.6,1.1
2026-03-23T0000,2483A,109.9297,27.5383,怀化市,河西地税局,,34,34,21,16,12,23,23,48,21,16,15,3,3,/,/
2026-03-23T0000,2484A,109.9783,27.5342,怀化市,市四医院,,26,22,18,18,11,19,19,45,30,17,16,7,6,0.6,0.5
2026-03-23T0000,2485A,109.9971,27.5579,怀化市,监测楼,,28,21,18,19,13,20,20,48,28,14,11,3,3,0.4,0.4
2026-03-23T0000,1210A,119.0566,33.5991,淮安市,钵池山,细颗粒物(PM2.5),109,92,86,69,64,73,73,134,103,38,33,7,9,0.4,0.6
2026-03-23T0000,1211A,119.0083,33.578,淮安市,北京南路,细颗粒物(PM2.5),122,85,82,84,71,72,72,126,103,26,25,8,10,0.6,0.7
2026-03-23T0000,1212A,118.9938,33.6083,淮安市,市监测站,细颗粒物(PM2.5),130,NA,76,92,75,74,74,138,110,33,28,5,8,0.5,0.6
2026-03-23T0000,1213A,119.135,33.5038,淮安市,楚州区监测站,细颗粒物(PM2.5),123,98,90,85,74,39,39,120,90,44,29,6,7,0.8,0.8
2026-03-23T0000,3426A,118.8757,33.2897,淮安市,新华书店,细颗粒物(PM2.5),108,101,93,68,56,58,58,122,90,30,25,7,8,0.5,0.6
2026-03-23T0000,4092A,119.119691,33.550006,淮安市,枚皋中路89号,细颗粒物(PM2.5),131,NA,97,94,78,60,60,126,107,31,24,10,11,0.7,0.8
2026-03-23T0000,4206A,119.028838,33.631911,淮安市,承德北路606号,细颗粒物(PM2.5),116,127,109,77,66,63,63,128,96,32,27,8,10,0.5,0.6
2026-03-23T0000,2282A,116.8005,33.9749,淮北市,监测站,细颗粒物(PM2.5),118,142,123,79,71,81,81,145,121,31,24,8,8,0.9,0.8
2026-03-23T0000,2283A,116.8094,33.9008,淮北市,烈山区政府,细颗粒物(PM2.5),130,146,115,92,73,70,70,145,114,24,23,6,8,0.6,0.6
2026-03-23T0000,4017A,116.7926,33.9534,淮北市,市博物馆,细颗粒物(PM2.5),126,121,118,88,76,77,77,140,119,31,23,6,6,0.8,0.8
2026-03-23T0000,4100A,116.8322,33.9884,淮北市,杜集区第一实验学校,细颗粒物(PM2.5),122,158,129,84,71,75,75,136,105,28,22,11,9,0.8,0.7
2026-03-23T0000,2277A,116.8304,32.7726,淮南市,潘集区政府,细颗粒物(PM2.5),98,103,93,59,43,55,55,128,86,38,26,7,8,0.6,0.6
2026-03-23T0000,2279A,116.8569,32.5949,淮南市,谢家集区政府,"颗粒物(PM10),细颗粒物(PM2.5)",82,94,79,51,42,109,109,136,108,24,26,8,9,0.7,0.6
2026-03-23T0000,2280A,116.8279,32.6333,淮南市,八公山区政府,细颗粒物(PM2.5),102,105,80,62,44,82,82,133,105,25,16,9,12,0.7,0.6
2026-03-23T0000,2894A,117.0561,32.6536,淮南市,经济技术开发区消防队,细颗粒物(PM2.5),101,95,83,61,46,89,89,124,104,31,25,8,9,0.6,0.6
2026-03-23T0000,3329A,117.011,32.5891,淮南市,山南新区,细颗粒物(PM2.5),96,111,94,58,45,115,115,140,123,27,24,9,8,0.7,0.6
2026-03-23T0000,4209A,117.003137,32.644456,淮南市,国庆中路369号,细颗粒物(PM2.5),90,99,78,55,46,105,105,117,104,17,19,9,10,0.7,0.6
2026-03-23T0000,2446A,114.9021,30.474,黄冈市,职工中心,细颗粒物(PM2.5),110,102,75,70,49,22,22,96,75,37,19,7,7,1.4,1.2
2026-03-23T0000,2929A,114.8858,30.4519,黄冈市,红卫路,细颗粒物(PM2.5),104,96,70,64,50,31,31,98,75,34,21,5,5,0.9,0.7
2026-03-23T0000,3398A,114.9134,30.4446,黄冈市,市林业局,"颗粒物(PM10),细颗粒物(PM2.5)",101,121,87,61,50,21,21,98,75,52,22,4,4,1.1,1
2026-03-23T0000,2672A,102.02,35.5101,黄南藏族自治州,同仁县隆务镇,颗粒物(PM10),92,108,108,38,39,78,78,96,88,2,4,10,11,0.4,0.4
2026-03-23T0000,2295A,118.2905,29.6965,黄山市,延安路89号,,28,25,31,19,23,19,19,36,24,19,16,4,4,0.6,0.5
2026-03-23T0000,2297A,118.1369,30.2755,黄山市,黄山区政府5号楼,,16,16,24,7,8,12,12,56,27,9,11,2,3,0.7,0.6
2026-03-23T0000,4210A,118.335445,29.720283,黄山市,滨江东路7-2号,,47,47,41,22,24,13,13,38,24,25,21,/,/,/,/
2026-03-23T0000,2423A,115.0547,30.2332,黄石市,沈家营,颗粒物(PM10),90,106,85,44,46,19,19,78,54,69,30,6,12,1.4,1.1
2026-03-23T0000,2426A,114.899,30.211,黄石市,铁山,细颗粒物(PM2.5),104,64,57,64,53,31,31,75,49,31,22,9,10,0.6,1.3
2026-03-23T0000,2427A,115.0259,30.2108,黄石市,团城山,细颗粒物(PM2.5),94,88,74,57,49,59,59,81,66,19,24,17,11,1.5,1.2
2026-03-23T0000,3149A,115.0174,30.1591,黄石市,笔架山北路,颗粒物(PM10),103,126,106,58,53,42,42,80,56,18,18,8,10,1.3,1.3
2026-03-23T0000,4185A,115.078022,30.21118,黄石市,磁湖东路29号,细颗粒物(PM2.5),101,116,91,61,52,5,5,80,51,65,33,6,6,1.7,1.4
2026-03-23T0000,1392A,114.4181,23.0528,惠州市,河南岸金山湖子站,颗粒物(PM10),53,53,37,31,23,62,62,130,99,20,10,7,8,0.7,0.6
2026-03-23T0000,1393A,114.4055,23.0824,惠州市,下埔横江三路子站,颗粒物(PM10),62,66,43,33,23,61,61,130,100,24,12,4,5,0.8,0.7
2026-03-23T0000,1395A,114.4645,22.7832,惠州市,惠阳区承修路船湖子站,,48,48,38,28,21,88,88,113,97,17,11,6,6,0.6,0.6
2026-03-23T0000,1396A,114.5316,22.7423,惠州市,大亚湾管委会子站,,42,42,38,25,20,103,103,110,102,10,10,3,3,0.6,0.6
2026-03-23T0000,3314A,114.4334,22.8134,惠州市,惠阳秋长,,40,31,31,28,20,82,82,120,102,22,11,/,/,/,/
2026-03-23T0000,3452A,114.6521,22.7755,惠州市,大亚湾霞涌,,38,38,27,22,18,48,48,122,102,26,11,/,/,/,/
2026-03-23T0000,4300A,114.4089,23.1147,惠州市,文华一路1号,颗粒物(PM10),55,56,38,31,23,66,66,135,104,26,13,/,/,/,/
2026-03-23T0000,2240A,130.9618,45.2926,鸡西市,环保局,细颗粒物(PM2.5),136,NA,115,99,82,78,78,88,72,12,31,12,14,0.4,0.6
2026-03-23T0000,2243A,130.9294,45.2959,鸡西市,第一中学,细颗粒物(PM2.5),132,100,96,95,78,69,69,91,71,12,20,4,5,0.4,0.4
2026-03-23T0000,3707A,131.0069,45.2988,鸡西市,欧美日汽修厂,细颗粒物(PM2.5),124,109,132,86,84,33,33,79,56,34,36,9,13,1.0,1
2026-03-23T0000,2367A,114.9753,27.0803,吉安市,红声器材厂,,31,31,43,16,26,9,9,26,14,26,27,6,7,1.1,1
2026-03-23T0000,2369A,114.9903,27.1313,吉安市,市环境监测站,,28,26,37,19,25,12,12,27,17,21,19,8,9,/,/
2026-03-23T0000,2370A,115.009527,27.096792,吉安市,青原区法院,,27,27,41,16,25,15,15,26,19,21,25,3,4,0.7,0.7
2026-03-23T0000,1772A,126.54,43.8622,吉林市,哈达湾,细颗粒物(PM2.5),163,154,124,124,97,36,36,108,56,30,19,7,8,1.2,0.9
2026-03-23T0000,1773A,126.5843,43.8358,吉林市,东局子,细颗粒物(PM2.5),215,NA,123,165,132,10,10,112,48,37,21,4,7,1.2,0.9
2026-03-23T0000,1774A,126.5051,43.8243,吉林市,电力学院,细颗粒物(PM2.5),139,203,133,102,95,14,14,109,51,31,22,6,8,1.6,1
2026-03-23T0000,1775A,126.6133,43.8971,吉林市,江北,细颗粒物(PM2.5),182,148,126,137,109,22,22,111,49,22,21,7,8,1.1,0.8
2026-03-23T0000,1776A,126.5549,43.8304,吉林市,江南公园,细颗粒物(PM2.5),136,118,112,99,90,38,38,110,55,17,19,7,9,1.0,0.9
2026-03-23T0000,2868A,126.4737,43.953,吉林市,九站,细颗粒物(PM2.5),163,159,137,124,104,4,4,105,40,61,32,8,10,1.2,0.9
2026-03-23T0000,1299A,116.9866,36.6118,济南市,科干所,颗粒物(PM10),104,129,116,55,64,58,58,136,98,52,20,8,7,0.7,0.7
2026-03-23T0000,1300A,116.9379,36.6652,济南市,农科所,细颗粒物(PM2.5),116,156,125,77,75,5,5,127,61,91,32,7,7,1.0,0.7
2026-03-23T0000,1301A,117.1265,36.6736,济南市,开发区,颗粒物(PM10),114,154,112,58,61,56,56,137,92,51,25,4,5,0.7,0.7
2026-03-23T0000,1303A,117.0616,36.6865,济南市,省种子仓库,颗粒物(PM10),119,168,126,66,64,28,28,132,77,74,27,5,5,0.8,0.7
2026-03-23T0000,1304A,116.9495185,36.644937,济南市,机床二厂,颗粒物(PM10),112,151,125,67,71,22,22,128,85,70,24,11,7,1.1,0.7
2026-03-23T0000,1305A,117.0496,36.6629,济南市,市监测站,颗粒物(PM10),109,142,127,62,62,52,52,134,93,54,21,4,5,0.7,0.6
2026-03-23T0000,1306A,116.7674,36.5458,济南市,长清党校,颗粒物(PM10),105,132,129,52,69,79,79,128,101,34,24,4,5,0.5,0.6
2026-03-23T0000,1961A,117.5323,36.6865,济南市,东山小学,颗粒物(PM10),124,181,129,83,66,54,54,138,95,59,25,12,5,1.1,0.7
2026-03-23T0000,3059A,117.7181,36.205,济南市,泰兴公司,颗粒物(PM10),110,144,133,62,68,36,36,144,98,78,30,10,31,0.9,1
2026-03-23T0000,3064A,117.6861,36.2172,济南市,莱芜战役纪念馆,颗粒物(PM10),106,134,122,58,62,72,72,153,116,51,24,8,18,0.7,0.8
2026-03-23T0000,3494A,117.1673,36.9782,济南市,济阳区政府,细颗粒物(PM2.5),160,168,133,122,80,83,83,116,93,30,23,14,9,0.9,0.6
2026-03-23T0000,3495A,117.1168,36.6299,济南市,锦屏中学,颗粒物(PM10),90,105,110,54,64,69,69,128,92,21,18,8,9,0.7,0.7
2026-03-23T0000,4108A,117.7107,36.2385,济南市,山财大街5号,颗粒物(PM10),100,119,120,58,65,76,76,140,105,50,29,11,27,0.5,0.6
2026-03-23T0000,4109A,116.9744,36.6889,济南市,无影山路12号,颗粒物(PM10),121,173,113,73,71,15,15,122,74,94,28,8,6,1.0,0.8
2026-03-23T0000,1653A,116.6229,35.4288,济宁市,火炬城,细颗粒物(PM2.5),105,122,109,65,77,67,67,135,106,30,21,3,3,0.6,0.7
2026-03-23T0000,3500A,116.5808,35.3703,济宁市,北湖一中,细颗粒物(PM2.5),101,109,101,61,77,82,82,143,119,24,18,8,8,0.5,0.6
2026-03-23T0000,3501A,116.8251,35.5592,济宁市,服务中心,颗粒物(PM10),114,155,137,61,79,76,76,141,105,27,19,4,4,0.7,0.8
2026-03-23T0000,3678A,116.5907,35.4054,济宁市,市第七中学,细颗粒物(PM2.5),105,120,104,65,76,81,81,150,120,28,20,8,7,0.7,0.8
2026-03-23T0000,4111A,116.6075,35.4566,济宁市,任和路,颗粒物(PM10),110,146,141,67,79,64,64,143,108,36,20,8,7,0.6,0.7
2026-03-23T0000,4112A,116.5648,35.3921,济宁市,文体南路1号,颗粒物(PM10),109,141,134,62,76,85,85,147,117,26,21,6,6,0.6,0.7
2026-03-23T0000,4122A,112.6071,35.1015,济源市,市委党校,颗粒物(PM10),108,140,191,47,50,73,73,114,98,26,21,15,9,0.6,0.5
2026-03-23T0000,4123A,112.596,35.0702,济源市,沁园中路1号,颗粒物(PM10),101,122,187,41,52,58,58,113,93,33,24,6,6,0.6,0.6
2026-03-23T0000,2255A,130.2749,46.8028,佳木斯市,佳纺,细颗粒物(PM2.5),138,160,113,101,83,14,14,85,22,45,40,6,6,0.9,0.8
2026-03-23T0000,2257A,130.3258,46.7975,佳木斯市,环保局,细颗粒物(PM2.5),125,117,98,87,78,15,15,82,22,45,40,7,5,0.7,0.7
2026-03-23T0000,4285A,130.363,46.806,佳木斯市,顺和街,细颗粒物(PM2.5),118,109,90,79,81,15,15,81,26,49,38,5,6,0.7,0.7
2026-03-23T0000,4286A,130.3952,46.8268,佳木斯市,长安路196号,细颗粒物(PM2.5),117,106,86,78,72,7,7,82,34,62,28,6,5,0.8,0.5
2026-03-23T0000,1252A,120.7439,30.778,嘉兴市,清河小学,细颗粒物(PM2.5),101,75,49,61,31,26,26,102,76,64,29,6,6,0.5,0.4
2026-03-23T0000,1253A,120.7261,30.7477,嘉兴市,嘉兴学院,细颗粒物(PM2.5),92,102,57,56,29,40,40,105,79,44,30,6,6,0.8,0.6
2026-03-23T0000,2872A,120.7845,30.7524,嘉兴市,南湖区残联,细颗粒物(PM2.5),96,63,39,58,32,47,47,104,82,49,27,5,5,0.8,0.7
2026-03-23T0000,3407A,120.6915,30.7741,嘉兴市,秀洲住建,细颗粒物(PM2.5),88,65,51,54,30,4,4,106,52,84,36,8,8,0.6,0.5
2026-03-23T0000,1945A,98.291,39.7705,嘉峪关市,气象局,颗粒物(PM10),80,92,126,27,28,66,66,94,88,24,17,8,33,0.3,0.8
2026-03-23T0000,2884A,98.2672,39.7978,嘉峪关市,酒钢宾馆,颗粒物(PM10),88,102,129,34,30,69,69,98,89,16,14,15,44,0.4,0.7
2026-03-23T0000,3248A,98.2644,39.7723,嘉峪关市,雄关区,颗粒物(PM10),78,88,97,26,28,64,64,96,82,19,17,6,24,0.2,0.5
2026-03-23T0000,1383A,113.1063,22.6058,江门市,北街,,24,24,32,16,18,64,64,96,81,13,15,/,/,/,/
2026-03-23T0000,1384A,113.073,22.5835,江门市,西区,,35,35,34,21,20,67,67,106,89,19,14,/,/,/,/
2026-03-23T0000,1385A,113.0218,22.531,江门市,圭峰西,,40,NA,30,28,19,70,70,102,88,11,10,/,/,/,/
2026-03-23T0000,1386A,113.0826,22.5947,江门市,东湖,,35,35,32,23,20,67,67,102,86,15,14,7,6,0.6,0.5
2026-03-23T0000,3311A,113.1077,22.5647,江门市,江海富民,,34,34,49,20,20,74,74,109,93,14,13,/,/,0.4,0.4
2026-03-23T0000,3449A,113.0496,22.4669,江门市,新会银湖,,38,37,32,26,18,50,50,105,83,22,19,6,6,0.4,0.3
2026-03-23T0000,3335A,113.3137,35.2643,焦作市,马村街道办,颗粒物(PM10),82,94,123,26,48,74,74,113,92,25,23,7,10,0.5,0.7
2026-03-23T0000,3336A,113.2464,35.2374,焦作市,焦作技师学院,颗粒物(PM10),75,84,124,21,41,78,78,116,96,14,17,7,9,0.4,0.5
2026-03-23T0000,3477A,113.1656,35.2536,焦作市,中站许衡医院,颗粒物(PM10),80,91,123,22,39,97,97,123,110,11,14,9,10,0.3,0.6
2026-03-23T0000,3981A,113.2456,35.18,焦作市,原李万街道办,颗粒物(PM10),101,121,123,36,44,63,63,112,90,19,17,27,13,0.8,0.7
2026-03-23T0000,4264A,113.234,35.219,焦作市,新安路1731号,颗粒物(PM10),84,97,132,29,45,78,78,124,103,23,20,9,11,0.6,0.7
2026-03-23T0000,4295A,113.2722,35.2121,焦作市,人民路3066号,颗粒物(PM10),103,127,130,29,50,66,66,125,97,28,29,10,10,0.5,0.4
2026-03-23T0000,1708A,116.3701,23.5345,揭阳市,新兴,,49,NA,45,34,31,82,82,124,103,24,20,11,8,1.0,0.8
2026-03-23T0000,1709A,116.3261,23.5442,揭阳市,西马,,49,37,52,34,33,81,81,130,103,19,18,9,6,0.9,0.8
2026-03-23T0000,1710A,116.361,23.5627,揭阳市,东兴,细颗粒物(PM2.5),64,66,51,42,32,77,77,134,108,25,18,9,7,/,/
2026-03-23T0000,1711A,116.4151,23.5295,揭阳市,渔湖,,50,36,46,35,33,105,105,151,128,15,17,5,5,/,/
2026-03-23T0000,3320A,116.4028,23.5699,揭阳市,曲溪,细颗粒物(PM2.5),60,56,48,40,30,87,87,147,121,21,15,10,8,1.1,0.7
2026-03-23T0000,1944A,102.1691,38.5166,金昌市,天庆家园,颗粒物(PM10),107,136,144,55,50,87,87,97,92,6,7,1,10,0.7,0.6
2026-03-23T0000,4022A,102.1648,38.5369,金昌市,金川区人防中心,颗粒物(PM10),113,152,151,52,52,79,79,92,85,7,9,7,20,0.5,0.5
2026-03-23T0000,4239A,102.193042,38.531887,金昌市,长春路96号,颗粒物(PM10),111,148,144,19,45,78,78,90,85,7,7,8,17,0.7,0.8
2026-03-23T0000,1262A,119.6478,29.0773,金华市,十五中,颗粒物(PM10),55,57,38,37,23,15,15,57,23,55,29,4,4,0.8,0.6
2026-03-23T0000,1263A,119.6859,29.1032,金华市,监测站,颗粒物(PM10),53,53,29,35,20,0,0,40,12,66,42,4,4,0.8,0.6
2026-03-23T0000,3659A,119.656,29.1132,金华市,气象局,颗粒物(PM10),53,53,36,33,20,2,2,26,5,63,37,3,3,0.8,0.7
2026-03-23T0000,1767A,121.1114,41.0879,锦州市,南山,细颗粒物(PM2.5),250,223,143,200,134,6,6,104,54,74,36,9,11,1.9,1.1
2026-03-23T0000,1768A,121.060361,40.842794,锦州市,开发区,细颗粒物(PM2.5),218,243,132,168,109,1,1,89,28,98,39,8,7,1.5,0.9
2026-03-23T0000,1769A,121.1836,41.1118,锦州市,百股街道,细颗粒物(PM2.5),251,202,148,201,144,31,31,106,62,49,31,14,12,1.6,1.1
2026-03-23T0000,1770A,121.1176,41.1224,锦州市,天安街道,细颗粒物(PM2.5),243,245,151,193,136,6,6,99,46,77,40,12,12,2.9,1.4
2026-03-23T0000,1771A,121.1303,41.1385,锦州市,北湖公园,细颗粒物(PM2.5),236,227,151,186,134,25,25,108,67,56,31,12,11,2.6,1.1
2026-03-23T0000,2160A,112.8496,35.5051,晋城市,自来水公司,颗粒物(PM10),83,96,126,23,29,100,100,113,112,14,18,5,8,0.2,0.6
2026-03-23T0000,2162A,112.8509,35.4886,晋城市,市环保局,颗粒物(PM10),78,89,116,28,38,99,99,117,113,8,11,5,9,0.4,0.8
2026-03-23T0000,3620A,112.8258,35.4804,晋城市,泽州一中,颗粒物(PM10),92,108,121,29,33,89,89,119,116,21,13,5,7,0.7,0.9
2026-03-23T0000,4078A,112.8246,35.5152,晋城市,前书院路,颗粒物(PM10),80,91,119,23,29,76,76,111,107,18,13,7,9,0.7,0.8
2026-03-23T0000,4079A,112.8864,35.4773,晋城市,祥云街666号,颗粒物(PM10),65,70,109,23,43,100,100,114,112,8,13,7,8,0.2,0.5
2026-03-23T0000,2174A,112.6992,37.6984,晋中市,榆次区政府,颗粒物(PM10),58,61,64,25,23,42,42,91,74,42,24,10,10,0.5,0.6
2026-03-23T0000,2865A,112.7195,37.683,晋中市,榆次三中,颗粒物(PM10),55,56,64,15,21,48,48,96,80,32,22,13,10,0.3,0.5
2026-03-23T0000,4080A,112.7375,37.7215,晋中市,广安街188号,,47,47,62,17,20,41,41,96,72,35,22,11,11,0.3,0.2
2026-03-23T0000,4200A,112.7478,37.6954,晋中市,迎宾街26号,颗粒物(PM10),51,51,60,22,21,56,56,99,80,31,21,10,9,0.4,0.5
2026-03-23T0000,2439A,112.2012,31.048,荆门市,竹园小学,细颗粒物(PM2.5),90,89,71,55,43,98,98,116,104,15,19,1,2,1.0,1.3
2026-03-23T0000,2440A,112.1968,30.9892,荆门市,掇刀,细颗粒物(PM2.5),92,89,69,56,45,95,95,120,105,15,18,8,7,0.8,0.8
2026-03-23T0000,3012A,112.1849,31.0361,荆门市,西山林语,颗粒物(PM10),72,80,67,45,41,83,83,114,100,12,14,4,6,0.9,0.9
2026-03-23T0000,3547A,112.1631,31.0134,荆门市,龙泉中学南校,细颗粒物(PM2.5),94,94,76,57,47,86,86,122,103,14,13,3,6,0.5,0.5
2026-03-23T0000,4124A,112.2213,31.0654,荆门市,新台西路6号,细颗粒物(PM2.5),92,82,66,56,45,80,80,108,96,33,28,6,7,0.7,0.7
2026-03-23T0000,1844A,112.2493,30.3198,荆州市,市图书馆,NA,NA,43,47,26,40,36,36,117,NA,NA,25,8,7,0.9,0.8
2026-03-23T0000,1845A,112.2009,30.3543,荆州市,市委党校,细颗粒物(PM2.5),56,57,55,38,46,24,24,90,58,37,29,7,7,1.0,0.9
2026-03-23T0000,3194A,112.2749,30.3124,荆州市,管委会,细颗粒物(PM2.5),86,64,55,53,47,29,29,104,65,35,23,13,12,1.0,0.9
2026-03-23T0000,4268A,112.1722,30.3366,荆州市,学苑路85号,细颗粒物(PM2.5),90,65,55,55,43,35,35,113,72,25,16,2,1,1.2,1.2
2026-03-23T0000,2343A,117.2114,29.2931,景德镇市,老干部活动中心,,33,NA,21,23,18,28,28,30,24,10,14,4,5,0.5,0.6
2026-03-23T0000,2344A,117.1893,29.2789,景德镇市,兽医站,,16,16,28,9,16,31,31,40,29,12,14,4,4,0.8,0.8
2026-03-23T0000,2346A,117.246,29.2958,景德镇市,陶研所,,15,15,19,9,16,22,22,30,26,17,19,4,4,1.0,1
2026-03-23T0000,4289A,117.154766,29.256967,景德镇市,青少年活动中心,,22,NA,21,15,18,28,28,30,24,13,17,3,4,/,/
2026-03-23T0000,1803A,115.9873,29.6816,九江市,十里,颗粒物(PM10),58,61,53,37,37,13,13,63,41,43,46,12,9,1.1,1.2
2026-03-23T0000,1804A,115.9583,29.7047,九江市,茅山头,细颗粒物(PM2.5),60,51,52,40,43,14,14,56,37,50,47,3,4,0.9,0.8
2026-03-23T0000,1805A,115.9877,29.7295,九江市,西园,,50,44,53,35,37,29,29,60,37,63,66,3,4,0.9,0.9
2026-03-23T0000,1808A,115.9112,29.6038,九江市,综合工业园,,42,42,41,23,31,6,6,54,28,46,43,8,8,0.7,0.7
2026-03-23T0000,3190A,116.0254,29.6995,九江市,外国语学校,,50,NA,37,35,33,28,28,59,41,31,40,9,4,1.0,1
2026-03-23T0000,4253A,116.010205,29.659402,九江市,莲花大道8号,颗粒物(PM10),54,55,41,30,29,16,16,54,39,19,29,4,4,0.8,0.8
2026-03-23T0000,4240A,98.495752,39.733935,酒泉市,玉门东路5号,颗粒物(PM10),108,139,109,40,31,67,67,90,80,7,6,5,6,0.3,0.3
2026-03-23T0000,4241A,98.5099,39.7506,酒泉市,北大街108号,颗粒物(PM10),107,136,103,36,31,64,64,87,78,10,9,7,7,0.3,0.3
2026-03-23T0000,2698A,76.0071,39.466,喀什地区,巡警大队,颗粒物(PM10),127,189,188,87,64,14,14,114,98,90,35,8,4,1.6,0.9
2026-03-23T0000,2699A,75.9756,39.4693,喀什地区,吾办,颗粒物(PM10),124,180,184,74,67,12,12,111,92,79,33,2,3,1.4,0.9
2026-03-23T0000,4027A,75.9485,39.4688,喀什地区,老干局,颗粒物(PM10),120,172,182,54,50,48,48,114,102,51,27,5,3,1.2,1
2026-03-23T0000,1824A,114.3389,34.778,开封市,肿瘤医院,细颗粒物(PM2.5),114,131,116,75,64,50,50,126,88,58,33,10,9,0.8,0.8
2026-03-23T0000,1826A,114.2884,34.7966,开封市,世纪星幼儿园,颗粒物(PM10),104,128,107,60,54,52,52,119,90,44,22,10,10,0.9,0.8
2026-03-23T0000,3147A,114.3434,34.8101,开封市,龙亭公园,颗粒物(PM10),106,135,116,57,53,24,24,122,85,78,30,10,11,1.0,0.9
2026-03-23T0000,3210A,114.3645,34.7955,开封市,汴京公园,细颗粒物(PM2.5),107,132,112,67,62,28,28,127,83,72,31,6,6,0.6,0.6
2026-03-23T0000,3473A,114.2485,34.8306,开封市,技师学院,颗粒物(PM10),100,119,91,49,54,6,6,122,88,110,22,7,8,1.0,1
2026-03-23T0000,3592A,114.4518,34.7503,开封市,祥符区生态环境局,颗粒物(PM10),125,184,127,66,64,13,13,123,72,94,39,7,10,0.6,0.7
2026-03-23T0000,1951A,84.886,45.6029,克拉玛依市,长征新村,,50,50,31,20,10,66,66,98,94,33,14,6,6,0.6,0.4
2026-03-23T0000,1952A,84.8894,45.5827,克拉玛依市,南林小区,颗粒物(PM10),62,66,34,28,5,54,54,107,98,30,12,4,4,0.6,0.2
2026-03-23T0000,1954A,84.896,44.3328,克拉玛依市,独山子区,细颗粒物(PM2.5),78,73,85,49,42,26,26,121,75,43,20,5,7,1.0,0.9
2026-03-23T0000,1955A,85.6888,46.0909,克拉玛依市,乌尔禾区商贸楼,颗粒物(PM10),58,60,38,25,13,29,29,88,72,40,14,2,2,0.3,0.2
2026-03-23T0000,3612A,85.1045,45.6895,克拉玛依市,白碱滩区新站,,42,42,27,27,6,61,61,103,94,41,11,5,5,0.6,0.5
2026-03-23T0000,2697A,76.1457,39.7143,克孜勒苏柯尔克孜自治州,市人民政府,颗粒物(PM10),117,164,169,53,49,94,94,113,109,21,7,4,4,0.3,0.3
2026-03-23T0000,3665A,76.1654,39.7157,克孜勒苏柯尔克孜自治州,克州文化中心,颗粒物(PM10),120,172,171,55,55,80,80,111,106,32,12,7,6,0.4,0.3
2026-03-23T0000,1450A,102.8203,24.889,昆明市,呈贡新区,,18,17,38,6,34,55,55,96,71,26,16,4,6,0.6,0.7
2026-03-23T0000,1452A,102.7253,25.0904,昆明市,龙泉镇,,31,31,47,10,33,0,0,89,54,57,26,3,4,0.6,0.7
2026-03-23T0000,1453A,102.7267,25.0378,昆明市,东风东路,,22,13,46,10,36,70,70,94,76,14,15,3,7,0.5,0.7
2026-03-23T0000,1454A,102.6744,25.0671,昆明市,金鼎山,,20,15,49,9,34,64,64,92,74,15,20,1,3,0.5,0.7
2026-03-23T0000,1455A,102.6643,25.0401,昆明市,碧鸡广场,,18,17,47,8,36,39,39,88,67,36,23,4,8,0.5,0.6
2026-03-23T0000,3179A,102.7491,25.012,昆明市,官渡区博物馆,,26,26,45,13,33,59,59,92,68,15,16,4,6,0.7,0.7
2026-03-23T0000,3375A,102.8016,24.8336,昆明市,青年创业园,,23,21,51,14,36,14,14,92,64,45,19,4,7,0.6,0.7
2026-03-23T0000,3550A,102.8,24.9787,昆明市,昆明学院,,21,16,47,9,31,65,65,91,70,16,13,6,6,0.7,0.7
2026-03-23T0000,3551A,102.5969,24.6738,昆明市,晋宁区生态环境分局,,20,20,49,13,34,49,49,94,71,27,25,8,8,0.5,0.6
2026-03-23T0000,3552A,102.6673,24.9861,昆明市,云天化总部,,15,14,45,8,32,48,48,97,74,28,19,7,9,0.6,0.7
2026-03-23T0000,1456A,91.132,29.6515,拉萨市,八廓街,,36,24,15,6,6,113,113,130,122,4,9,5,5,0.3,0.3
2026-03-23T0000,1457A,91.1221,29.6748,拉萨市,市环保局,,35,25,15,3,6,112,112,126,120,6,12,3,3,0.5,0.5
2026-03-23T0000,1458A,91.0874,29.6476,拉萨市,区监测站,,35,20,12,12,7,112,112,122,115,6,13,4,4,0.4,0.5
2026-03-23T0000,1459A,91.1774,29.6541,拉萨市,西藏大学,,35,15,13,3,7,112,112,126,122,6,11,3,4,0.3,0.4
2026-03-23T0000,1460A,90.9798,29.6586,拉萨市,区辐射站,颗粒物(PM10),57,59,17,18,8,109,109,119,105,7,16,4,4,0.4,0.4
2026-03-23T0000,1461A,91.0831,29.6292,拉萨市,拉萨火车站,,37,37,13,10,6,108,108,123,118,6,8,4,4,0.4,0.5
2026-03-23T0000,2520A,109.2203,23.7252,来宾市,来宾技工学校,细颗粒物(PM2.5),129,92,88,91,77,2,2,24,15,36,29,3,6,1.3,1.4
2026-03-23T0000,3535A,109.1781,23.7293,来宾市,兴宾区政府,细颗粒物(PM2.5),128,116,98,90,75,2,2,24,16,33,29,6,10,1.1,1.2
2026-03-23T0000,4002A,109.2312,23.7428,来宾市,中南小学,细颗粒物(PM2.5),141,NA,82,105,79,1,1,27,16,32,27,6,8,1.2,1.2
2026-03-23T0000,1479A,103.8309,36.0467,兰州市,铁路设计院,颗粒物(PM10),111,147,172,51,56,26,26,77,64,60,30,6,5,0.3,0.2
2026-03-23T0000,3241A,103.7439,36.0841,兰州市,百合公园,颗粒物(PM10),115,158,167,74,68,2,2,75,44,71,28,9,7,0.7,0.4
2026-03-23T0000,3242A,103.9613,35.9985,兰州市,和平,颗粒物(PM10),118,165,190,47,59,58,58,92,74,18,14,12,10,0.5,0.5
2026-03-23T0000,4236A,103.629272,36.093822,兰州市,庄浪东路808号,颗粒物(PM10),109,141,172,61,66,46,46,79,60,28,22,10,9,0.4,0.5
2026-03-23T0000,4237A,103.7251,36.104344,兰州市,安宁西路88号,颗粒物(PM10),112,150,196,63,73,32,32,88,64,44,16,9,9,0.5,0.4
2026-03-23T0000,4238A,103.846982,36.067567,兰州市,北滨河东路1号,颗粒物(PM10),112,149,172,65,72,3,3,77,51,73,32,9,9,0.8,0.7
2026-03-23T0000,1067A,116.6712,39.5109,廊坊市,药材公司,细颗粒物(PM2.5),142,149,112,106,71,70,70,95,81,36,24,8,3,0.8,0.5
2026-03-23T0000,1068A,116.7215,39.5592,廊坊市,开发区,细颗粒物(PM2.5),139,134,114,102,70,80,80,96,82,24,24,6,2,0.6,0.5
2026-03-23T0000,1070A,116.7246,39.5273,廊坊市,北华航天学院,细颗粒物(PM2.5),130,163,118,93,68,79,79,100,88,30,23,8,4,0.6,0.5
2026-03-23T0000,2919A,116.7022,39.5454,廊坊市,河北工业大学,细颗粒物(PM2.5),141,169,118,105,67,70,70,98,85,31,20,8,4,0.7,0.5
2026-03-23T0000,2536A,103.7629,29.5844,乐山市,牛耳桥,,46,46,51,30,37,80,80,98,80,15,19,7,6,0.5,0.6
2026-03-23T0000,2537A,103.7501,29.6002,乐山市,市第三水厂,,40,36,44,28,35,85,85,100,82,15,22,4,4,0.6,0.7
2026-03-23T0000,2538A,103.7571,29.5664,乐山市,市监测站,,43,43,50,30,36,80,80,99,88,12,16,2,3,0.8,0.8
2026-03-23T0000,3361A,103.7313,29.563,乐山市,理工大学,,46,36,44,32,38,67,67,100,83,13,15,7,7,0.7,0.7
2026-03-23T0000,2599A,100.2497,26.8802,丽江市,丽江古城,,24,17,27,8,14,76,76,88,83,9,10,9,8,0.5,0.5
2026-03-23T0000,2600A,100.2203,26.8906,丽江市,市中心,,25,9,18,8,15,79,79,87,83,10,14,9,10,0.3,0.3
2026-03-23T0000,1267A,119.9141,28.4513,丽水市,监测站大楼,,44,44,23,28,13,37,37,82,51,24,17,4,4,0.6,0.4
2026-03-23T0000,1268A,119.93,28.4589,丽水市,莲都小学,,50,50,24,27,12,36,36,79,53,23,19,/,/,/,/
2026-03-23T0000,1269A,119.8794,28.4232,丽水市,余庄前,,43,43,23,28,14,20,20,71,29,23,18,4,4,0.7,0.5
2026-03-23T0000,1173A,119.1759,34.5885,连云港市,市环境监测站,细颗粒物(PM2.5),132,114,80,95,61,78,78,134,117,27,26,10,11,0.6,0.5
2026-03-23T0000,3000A,119.3577,34.6971,连云港市,德源药业,颗粒物(PM10),123,178,95,70,52,19,19,126,98,85,30,6,7,0.8,0.7
2026-03-23T0000,3007A,119.178,34.8442,连云港市,新城一中,细颗粒物(PM2.5),104,88,85,64,66,78,78,103,82,26,37,6,8,0.5,0.6
2026-03-23T0000,3008A,119.3607,34.7519,连云港市,胡沟管理处,颗粒物(PM10),113,153,95,63,49,12,12,78,24,138,58,27,12,0.8,0.8
2026-03-23T0000,3009A,119.1478,34.5913,连云港市,矿山设计院,细颗粒物(PM2.5),123,132,91,85,54,83,83,138,121,42,36,10,10,0.8,0.8
2026-03-23T0000,3434A,119.2414,34.6539,连云港市,工贸学校,细颗粒物(PM2.5),116,106,84,77,59,120,120,148,143,19,20,11,12,0.7,0.5
2026-03-23T0000,3664A,119.4171,34.734,连云港市,连云街道,细颗粒物(PM2.5),105,105,92,65,55,141,141,132,132,14,27,6,7,0.7,0.7
2026-03-23T0000,2573A,102.2629,27.8981,凉山彝族自治州,西昌市政府,,30,25,28,14,20,96,96,106,102,8,9,12,12,1.0,0.8
2026-03-23T0000,2574A,102.2686,27.885,凉山彝族自治州,凉山州政府,,25,20,28,12,17,80,80,89,86,9,9,10,8,0.9,0.6
2026-03-23T0000,4229A,102.2342,27.8859,凉山彝族自治州,凯乐南路30号,,29,21,30,9,14,91,91,95,94,6,10,9,16,0.5,0.6
2026-03-23T0000,2212A,123.1978,41.2036,辽阳市,宏伟区,细颗粒物(PM2.5),162,133,91,123,85,4,4,93,21,28,17,8,9,1.3,0.8
2026-03-23T0000,2213A,123.1684,41.2497,辽阳市,新华园,细颗粒物(PM2.5),183,151,107,138,92,0,0,111,19,52,28,9,10,2.2,1
2026-03-23T0000,2214A,123.2355,41.2663,辽阳市,滨河路,细颗粒物(PM2.5),137,105,90,100,81,0,0,99,20,40,27,6,8,1.3,0.9
2026-03-23T0000,4083A,123.153,41.2874,辽阳市,铁西路150号,细颗粒物(PM2.5),121,129,107,83,89,2,2,105,22,54,29,9,12,2.0,1
2026-03-23T0000,2227A,125.1359,42.8845,辽源市,环保局,细颗粒物(PM2.5),142,165,138,106,125,10,10,99,23,28,36,5,9,1.2,1.1
2026-03-23T0000,4085A,125.0998,42.9134,辽源市,安宁大街333号,细颗粒物(PM2.5),217,191,144,167,128,5,5,105,21,37,34,3,7,1.7,1
2026-03-23T0000,1625A,115.9789,36.4372,聊城市,区政府,颗粒物(PM10),102,123,120,52,61,57,57,106,78,40,19,11,10,0.7,0.7
2026-03-23T0000,3200A,115.9772,36.4986,聊城市,监控中心,颗粒物(PM10),114,156,125,58,62,14,14,114,60,82,26,14,11,0.8,0.8
2026-03-23T0000,3513A,116.0443,36.436,聊城市,九州社区,"颗粒物(PM10),细颗粒物(PM2.5)",110,144,121,70,67,68,68,119,90,44,22,5,3,0.7,0.7
2026-03-23T0000,4018A,116.0564,36.4609,聊城市,星美广场,颗粒物(PM10),107,138,135,60,68,71,71,113,80,40,15,7,6,0.7,0.8
2026-03-23T0000,4113A,116.0091,36.4495,聊城市,利民路,颗粒物(PM10),100,120,117,52,63,61,61,119,85,53,25,10,9,0.7,0.7
2026-03-23T0000,2632A,94.3683,29.6373,林芝市,林芝监测站,,29,NA,8,7,4,91,91,103,98,1,2,2,2,0.4,0.4
2026-03-23T0000,2633A,94.3616,29.6634,林芝市,林芝人民医院,,29,NA,17,9,11,91,91,106,100,1,2,2,2,0.5,0.5
2026-03-23T0000,2603A,100.0779,23.8981,临沧市,市环保局,,28,22,44,19,38,26,26,70,54,9,10,5,6,0.7,0.7
2026-03-23T0000,2604A,100.0894,23.882,临沧市,市气象局,,38,30,44,26,40,29,29,78,58,14,11,6,6,0.4,0.9
2026-03-23T0000,1733A,111.5552,36.0791,临汾市,临钢医院,颗粒物(PM10),107,138,185,33,38,16,16,97,57,47,24,7,8,0.6,0.5
2026-03-23T0000,1734A,111.4984,36.0734,临汾市,技工学校,颗粒物(PM10),120,172,196,47,48,40,40,93,58,36,22,9,8,0.6,0.5
2026-03-23T0000,1736A,111.5017,36.0857,临汾市,市委,颗粒物(PM10),126,187,203,46,44,37,37,96,63,38,22,6,6,0.8,0.7
2026-03-23T0000,3018A,111.5048,36.1015,临汾市,唐尧大酒店,颗粒物(PM10),114,155,190,41,43,36,36,92,63,38,24,9,8,0.6,0.5
2026-03-23T0000,4244A,111.4879,36.053,临汾市,启星学校,颗粒物(PM10),130,197,178,61,43,12,12,94,52,76,34,8,6,0.9,0.5
2026-03-23T0000,4271A,103.2464,35.6123,临夏回族自治州,滨河东路1号,颗粒物(PM10),187,324,181,110,58,0,0,79,48,53,23,9,11,1.2,0.5
2026-03-23T0000,4310A,103.207136,35.599807,临夏回族自治州,新华街21号,颗粒物(PM10),132,203,173,75,50,40,40,72,60,16,6,10,9,0.9,0.5
2026-03-23T0000,1618A,118.3429,35.0532,临沂市,沂河小区,细颗粒物(PM2.5),153,163,120,117,74,65,65,153,117,38,24,13,17,0.6,0.5
2026-03-23T0000,1619A,118.2962,35.0568,临沂市,鲁南制药厂,细颗粒物(PM2.5),158,156,115,120,74,77,77,154,119,44,34,13,18,0.6,0.5
2026-03-23T0000,1620A,118.2793,34.9976,临沂市,新光毛纺厂,细颗粒物(PM2.5),162,141,108,123,73,75,75,150,117,44,38,11,17,0.6,0.6
2026-03-23T0000,1621A,118.3955,35.0889,临沂市,河东保险公司,细颗粒物(PM2.5),142,136,110,106,74,68,68,162,106,39,35,10,14,0.4,0.4
2026-03-23T0000,3370A,118.3563,35.0215,临沂市,十里堡居委,细颗粒物(PM2.5),172,146,104,130,75,73,73,158,119,47,35,12,16,0.8,0.6
2026-03-23T0000,3496A,118.359,35.1067,临沂市,南坊新区,细颗粒物(PM2.5),150,141,109,115,77,63,63,150,112,45,31,11,15,0.5,0.5
2026-03-23T0000,3860A,118.3915,35.0297,临沂市,皇山花园小区,细颗粒物(PM2.5),165,144,112,125,78,59,59,164,116,53,34,13,17,0.8,0.6
2026-03-23T0000,1870A,109.4854,24.3898,柳州市,柳东小学,细颗粒物(PM2.5),103,83,54,63,48,9,9,29,14,20,17,6,9,1.0,1
2026-03-23T0000,1871A,109.4109,24.3304,柳州市,环保监测站,细颗粒物(PM2.5),115,120,71,76,54,0,0,15,3,30,29,10,12,1.4,1.4
2026-03-23T0000,1872A,109.3886,24.3408,柳州市,河西水厂,细颗粒物(PM2.5),113,118,85,74,56,0,0,14,3,26,27,11,13,1.1,1.1
2026-03-23T0000,1873A,109.4263,24.2951,柳州市,市四中,细颗粒物(PM2.5),125,129,74,87,56,0,0,21,4,34,29,13,12,1.7,1.3
2026-03-23T0000,1874A,109.396,24.3658,柳州市,市九中,细颗粒物(PM2.5),114,131,85,75,59,0,0,11,2,23,24,12,16,1.4,1.2
2026-03-23T0000,1875A,109.4912,24.3164,柳州市,古亭山,细颗粒物(PM2.5),124,105,63,86,51,0,0,22,6,33,23,8,9,1.3,1.2
2026-03-23T0000,3402A,109.5422,24.3994,柳州市,市二中,细颗粒物(PM2.5),80,69,55,50,47,3,3,25,12,22,18,8,7,1.0,1
2026-03-23T0000,2307A,116.5078,31.7369,六安市,监测大楼,,38,38,49,24,33,81,81,113,94,23,21,4,4,0.5,0.5
2026-03-23T0000,2308A,116.4738,31.7642,六安市,皖西学院,细颗粒物(PM2.5),54,47,54,37,35,51,51,117,83,41,17,5,4,0.5,0.5
2026-03-23T0000,2309A,116.4997,31.7904,六安市,朝阳厂,颗粒物(PM10),57,59,51,37,36,32,32,113,73,69,28,6,6,0.7,0.5
2026-03-23T0000,2310A,116.5566,31.7885,六安市,开发区,"颗粒物(PM10),细颗粒物(PM2.5)",58,61,52,39,39,35,35,119,79,59,31,6,5,0.5,0.5
2026-03-23T0000,2577A,104.8293,26.592,六盘水市,黄土坡,,48,44,44,33,30,49,49,71,68,21,14,8,6,0.7,0.6
2026-03-23T0000,2579A,104.8481,26.5898,六盘水市,民中,,49,39,44,34,29,54,54,69,68,15,12,5,4,0.7,0.6
2026-03-23T0000,2580A,104.9541,26.5506,六盘水市,双水,,39,39,41,24,25,65,65,73,73,9,10,4,4,0.4,0.5
2026-03-23T0000,4151A,104.8899,26.5685,六盘水市,钟山大道中段564号,,43,39,46,30,27,60,60,73,73,10,9,8,7,0.7,0.7
2026-03-23T0000,2336A,117.022,25.1031,龙岩市,龙岩市监测站,,36,31,30,25,24,38,38,93,72,23,14,7,7,0.9,0.8
2026-03-23T0000,2337A,117.0257,25.0662,龙岩市,闽西职业技术学院,,32,28,30,22,22,34,34,90,65,20,11,8,7,0.5,0.6
2026-03-23T0000,2338A,117.0195,25.0306,龙岩市,龙岩学院,,30,30,29,21,21,45,45,90,68,9,9,3,4,/,/
2026-03-23T0000,2885A,104.9344,33.3827,陇南市,滨江中学,颗粒物(PM10),76,86,90,29,29,69,69,86,78,9,14,6,6,0.7,0.7
2026-03-23T0000,3247A,104.9551,33.3709,陇南市,市总工会,颗粒物(PM10),80,92,96,30,28,69,69,84,77,10,13,6,5,0.6,0.6
2026-03-23T0000,2488A,111.9984,27.7346,娄底市,市监测站,,29,26,36,20,28,18,18,34,29,24,22,5,7,1.1,1.3
2026-03-23T0000,2491A,111.9888,27.7035,娄底市,市政府,,38,26,32,26,38,5,5,32,20,24,15,6,5,1.2,0.8
2026-03-23T0000,4127A,111.9812,27.7591,娄底市,涟钢职大,,30,26,36,21,27,5,5,34,22,30,19,1,2,0.8,0.9
2026-03-23T0000,4128A,112.0303,27.7457,娄底市,娄底体校,,23,22,41,16,28,12,12,29,23,13,16,2,2,1.0,1
2026-03-23T0000,1894A,105.4427,28.9063,泸州市,小市上码头,,50,41,39,35,32,70,70,103,87,15,19,8,9,0.7,0.7
2026-03-23T0000,1895A,105.4241,28.8573,泸州市,兰田宪桥,,42,42,44,27,28,68,68,91,69,13,17,6,7,0.7,0.7
2026-03-23T0000,1896A,105.4378,28.8833,泸州市,市环监站,颗粒物(PM10),53,53,52,30,30,70,70,92,74,17,24,5,6,0.7,0.7
2026-03-23T0000,4272A,105.3689,28.7783,泸州市,纳溪中医医院,,49,49,49,29,30,69,69,95,72,13,20,7,9,0.7,0.8
2026-03-23T0000,2183A,111.1447,37.5212,吕梁市,环保局,颗粒物(PM10),90,105,98,33,32,1,1,67,36,35,30,6,7,0.2,0.2
2026-03-23T0000,2185A,111.1285,37.5338,吕梁市,自来水公司,颗粒物(PM10),110,146,98,34,30,5,5,72,49,44,25,6,6,0.4,0.4
2026-03-23T0000,2867A,111.1225,37.5093,吕梁市,马茂庄小学,颗粒物(PM10),98,116,104,27,27,0,0,68,37,56,33,4,5,0.4,0.4
2026-03-23T0000,1812A,112.3934,34.6517,洛阳市,市委党校,颗粒物(PM10),108,139,162,45,52,61,61,118,94,36,27,12,9,0.7,0.7
2026-03-23T0000,1815A,112.494,34.6883,洛阳市,河南林校,颗粒物(PM10),104,130,165,48,56,53,53,121,90,49,36,12,12,0.6,0.6
2026-03-23T0000,1816A,112.3843,34.623,洛阳市,开发区管委会,颗粒物(PM10),115,159,170,47,47,73,73,123,102,31,24,13,12,0.5,0.5
2026-03-23T0000,1817A,112.4263,34.6249,洛阳市,市委新办公区,颗粒物(PM10),115,159,164,55,50,68,68,121,92,27,21,12,10,0.6,0.6
2026-03-23T0000,3340A,112.6005,34.6323,洛阳市,伊滨,颗粒物(PM10),116,160,163,57,54,57,57,116,90,41,28,11,9,0.7,0.7
2026-03-23T0000,3341A,112.495,34.6338,洛阳市,中移产业园,颗粒物(PM10),113,153,161,61,52,60,60,121,93,39,30,12,11,0.5,0.5
2026-03-23T0000,3593A,112.5736,34.8993,洛阳市,吉利监测站,颗粒物(PM10),99,118,158,43,51,81,81,120,104,26,21,12,11,0.5,0.5
2026-03-23T0000,3635A,112.3678,34.6623,洛阳市,河科大西苑校区,颗粒物(PM10),109,143,174,61,56,68,68,129,99,44,30,12,11,0.5,0.9
2026-03-23T0000,3636A,112.4387,34.678,洛阳市,英才小学,颗粒物(PM10),107,138,186,51,61,54,54,122,93,50,40,11,12,0.6,0.8
2026-03-23T0000,4214A,112.460027,34.694929,洛阳市,春都路1号院,颗粒物(PM10),112,151,201,47,60,62,62,121,93,39,32,9,10,0.7,0.8
2026-03-23T0000,2399A,114.051,33.5721,漯河市,三五一五工厂,颗粒物(PM10),114,156,125,65,50,111,111,133,119,23,19,7,7,0.5,0.5
2026-03-23T0000,2400A,114.0055,33.5698,漯河市,漯河大学,细颗粒物(PM2.5),110,129,110,70,55,121,121,137,128,21,21,8,8,0.6,0.6
2026-03-23T0000,2401A,114.0134,33.5826,漯河市,市水利局,颗粒物(PM10),107,136,114,65,51,113,113,129,120,20,19,10,7,0.7,0.6
2026-03-23T0000,2402A,114.0261,33.5697,漯河市,市广电局,细颗粒物(PM2.5),111,129,112,72,53,120,120,133,125,18,17,8,8,0.6,0.6
2026-03-23T0000,3478A,113.9691,33.568,漯河市,市图书馆,颗粒物(PM10),114,154,121,68,52,117,117,130,123,19,19,7,7,0.6,0.6
2026-03-23T0000,4250A,114.089259,33.588274,漯河市,韶山路11号,颗粒物(PM10),113,152,122,70,56,85,85,119,96,31,24,11,8,0.5,0.4
2026-03-23T0000,1798A,118.5084,31.6838,马鞍山市,湖东路四小,细颗粒物(PM2.5),90,80,75,55,52,70,70,126,89,40,29,8,10,0.9,0.9
2026-03-23T0000,1799A,118.5019,31.6449,马鞍山市,开发区,细颗粒物(PM2.5),76,79,79,48,55,108,108,128,97,22,35,7,9,0.6,0.8
2026-03-23T0000,3633A,118.4914,31.681,马鞍山市,雨山,颗粒物(PM10),63,67,71,39,40,101,101,128,99,24,26,7,10,0.8,0.9
2026-03-23T0000,4191A,118.527362,31.722269,马鞍山市,慈湖高新区,颗粒物(PM10),90,106,88,48,48,100,100,132,110,26,28,8,10,0.6,0.8
2026-03-23T0000,1686A,111.0285,21.469,茂名市,电白南海,,36,36,37,15,16,65,65,76,72,10,9,5,5,0.8,0.8
2026-03-23T0000,1687A,110.9294,21.6533,茂名市,茂石化七小,,36,36,41,20,24,56,56,71,62,14,13,5,8,0.5,0.5
2026-03-23T0000,1688A,110.9108,21.6688,茂名市,健康路,,34,34,32,16,20,63,63,75,69,12,12,4,6,0.6,0.6
2026-03-23T0000,1689A,110.8592,21.6826,茂名市,高岭,,48,48,46,18,22,71,71,76,69,8,12,6,5,/,/
2026-03-23T0000,3450A,111.0101,21.5165,茂名市,电白水东,,27,27,28,17,18,69,69,76,73,8,9,4,4,/,/
2026-03-23T0000,2540A,103.8414,30.0871,眉山市,气象局,颗粒物(PM10),63,67,62,28,33,70,70,108,90,22,23,8,8,0.6,0.7
2026-03-23T0000,3148A,103.829,30.0563,眉山市,区人社局,颗粒物(PM10),65,70,59,31,35,70,70,99,79,23,26,9,13,0.7,0.8
2026-03-23T0000,4148A,103.8836,30.0695,眉山市,眉职院,颗粒物(PM10),69,76,59,34,34,56,56,102,76,32,23,6,9,0.7,0.7
2026-03-23T0000,1690A,116.1248,24.3307,梅州市,梅江月梅,,48,47,41,33,27,30,30,105,63,33,17,/,/,/,/
2026-03-23T0000,1691A,116.0798,24.2719,梅州市,梅县新城,颗粒物(PM10),53,54,47,35,33,16,16,106,54,39,23,8,9,0.7,0.7
2026-03-23T0000,3315A,116.1234,24.2994,梅州市,梅龙,颗粒物(PM10),56,58,44,37,32,23,23,105,61,42,16,8,7,0.8,0.8
2026-03-23T0000,1878A,104.7775,31.4741,绵阳市,富乐山,,40,40,44,14,21,58,58,79,65,11,20,6,6,0.7,0.8
2026-03-23T0000,1880A,104.6698,31.4668,绵阳市,高新区自来水公司,,49,49,50,19,25,40,40,75,59,24,24,8,8,0.6,0.6
2026-03-23T0000,3491A,104.6899,31.5324,绵阳市,西科大附属小学,颗粒物(PM10),51,51,51,21,28,29,29,76,54,34,25,8,8,0.7,0.7
2026-03-23T0000,3492A,104.5647,31.5343,绵阳市,安州区旅游局,颗粒物(PM10),54,55,61,12,27,62,62,73,60,7,15,4,5,0.5,0.6
2026-03-23T0000,4146A,104.7092,31.4972,绵阳市,科技城新区公安局,颗粒物(PM10),51,51,55,20,24,30,30,69,55,31,22,7,8,0.6,0.7
2026-03-23T0000,4226A,104.765114,31.453094,绵阳市,绵阳市气象局,,44,44,47,14,24,48,48,68,59,18,26,8,8,0.6,0.7
2026-03-23T0000,1784A,129.61,44.561,牡丹江市,环保大楼,细颗粒物(PM2.5),88,58,93,54,82,44,44,78,60,24,32,2,5,0.8,0.9
2026-03-23T0000,1787A,129.6364,44.6075,牡丹江市,机车工厂,细颗粒物(PM2.5),114,80,118,75,94,39,39,64,42,30,45,4,11,0.9,1
2026-03-23T0000,1788A,129.6386,44.5462,牡丹江市,第一中学,细颗粒物(PM2.5),78,54,77,49,74,32,32,71,44,38,40,3,6,0.7,0.7
2026-03-23T0000,4287A,129.5992,44.5964,牡丹江市,东晓云街98号,细颗粒物(PM2.5),120,NA,107,81,89,48,48,72,42,21,31,3,6,0.7,0.9
2026-03-23T0000,2531A,105.0703,29.61,内江市,市监测站,,49,47,44,34,28,74,74,92,75,13,16,7,8,0.5,0.5
2026-03-23T0000,2533A,105.0657,29.5807,内江市,内江二中,颗粒物(PM10),55,57,49,29,26,88,88,95,81,18,23,9,9,0.5,0.5
2026-03-23T0000,2534A,105.0407,29.5828,内江市,内江日报社,,42,42,39,29,26,90,90,96,80,15,19,15,14,0.6,0.6
2026-03-23T0000,4147A,105.0433,29.6105,内江市,玉峰路西段888号,,49,46,39,34,29,87,87,100,82,16,20,9,9,0.5,0.5
2026-03-23T0000,2628A,92.0653,31.4846,那曲市,那曲监测站,,38,28,22,26,18,91,91,122,106,19,12,10,10,0.8,0.6
2026-03-23T0000,4243A,92.0515,31.4787,那曲市,那曲市委宣传部,,31,NA,16,14,10,98,98,133,116,9,6,9,8,0.7,0.6
2026-03-23T0000,1291A,115.8887,28.7006,南昌市,省林业公司,NA,NA,19,33,16,30,NA,NA,46,NA,22,26,3,3,0.2,0.3
2026-03-23T0000,1292A,115.813,28.7443,南昌市,林科所,,20,17,33,9,26,6,6,38,23,39,31,7,7,0.4,0.4
2026-03-23T0000,1294A,115.8518,28.687,南昌市,建工学校,,30,30,51,20,32,11,11,45,33,44,32,8,8,0.9,0.9
2026-03-23T0000,1295A,115.8926,28.6425,南昌市,象湖,,29,NA,32,20,33,7,7,44,33,41,28,7,7,1.0,0.9
2026-03-23T0000,3046A,115.9084,28.6062,南昌市,机电学校,,42,35,53,29,36,13,13,38,29,31,30,4,4,0.8,0.8
2026-03-23T0000,3690A,115.9718,28.7032,南昌市,外国语学校,,30,22,34,21,37,38,38,49,43,13,16,7,8,0.8,0.8
2026-03-23T0000,4106A,115.7923,28.6873,南昌市,工业二路,,46,46,55,29,36,24,24,37,32,26,28,4,4,0.9,0.9
2026-03-23T0000,4192A,115.931587,28.686774,南昌市,南京东路235号,,40,40,49,17,31,34,34,52,46,10,14,4,5,0.7,0.7
2026-03-23T0000,1906A,106.0791,30.8022,南充市,南充市委,,42,42,35,23,21,40,40,74,54,25,24,7,7,0.6,0.6
2026-03-23T0000,1907A,106.1038,30.8215,南充市,南充炼油厂,,47,47,40,27,24,45,45,70,58,15,19,6,5,0.5,0.5
2026-03-23T0000,4227A,106.108336,30.788436,南充市,梨树横街98号,,46,46,42,29,26,51,51,84,72,22,22,6,6,0.4,0.4
2026-03-23T0000,4304A,106.1172,30.843,南充市,清泉寺北路188号,,39,39,40,19,19,54,54,84,74,13,17,6,6,0.4,0.5
2026-03-23T0000,4305A,106.067,30.7616,南充市,同庆路1号,,49,49,36,15,14,54,54,87,60,18,21,7,7,0.6,0.6
2026-03-23T0000,1151A,118.8033,32.1085,南京市,迈皋桥,细颗粒物(PM2.5),84,79,69,52,47,42,42,152,119,53,21,6,8,0.4,0.4
2026-03-23T0000,1152A,118.7487,32.057,南京市,草场门,颗粒物(PM10),63,68,65,39,39,93,93,140,122,46,39,9,10,0.6,0.5
2026-03-23T0000,1154A,118.770105,32.004342,南京市,中华门,细颗粒物(PM2.5),70,70,67,45,40,107,107,138,122,20,20,4,6,0.8,0.7
2026-03-23T0000,1155A,118.8059,32.0329,南京市,瑞金路,细颗粒物(PM2.5),68,66,71,44,45,94,94,130,110,43,43,4,5,1.1,0.9
2026-03-23T0000,1156A,118.7946,32.0774,南京市,玄武湖,颗粒物(PM10),74,83,68,46,44,83,83,130,107,26,18,9,9,0.9,0.9
2026-03-23T0000,1157A,118.6415,32.0964,南京市,浦口,细颗粒物(PM2.5),86,80,75,53,46,95,95,137,121,22,21,5,6,0.5,0.5
2026-03-23T0000,1158A,118.730129,32.000956,南京市,奥体中心,颗粒物(PM10),65,71,72,40,40,107,107,139,122,28,27,7,8,0.5,0.4
2026-03-23T0000,1159A,118.9072,32.1047,南京市,仙林大学城,颗粒物(PM10),68,75,71,42,41,70,70,143,108,42,27,8,9,0.7,0.7
2026-03-23T0000,3422A,118.8443,31.919,南京市,江宁彩虹桥,颗粒物(PM10),67,73,66,38,36,88,88,139,119,49,27,3,4,0.7,0.7
2026-03-23T0000,3427A,118.8497,32.3599,南京市,六合雄州,细颗粒物(PM2.5),74,68,65,47,49,68,68,131,94,34,30,4,4,0.7,0.7
2026-03-23T0000,4086A,118.7641,32.0841,南京市,新模范马路66号,"颗粒物(PM10),细颗粒物(PM2.5)",72,80,72,46,40,67,67,149,117,51,29,4,4,1.1,1
2026-03-23T0000,4249A,118.8707617,31.34017673,南京市,汶溪路181号,颗粒物(PM10),53,53,48,29,32,38,38,123,88,48,24,5,6,0.7,0.5
2026-03-23T0000,4312A,119.019,31.6512,南京市,中山西路1号,细颗粒物(PM2.5),86,80,58,53,42,68,68,115,89,24,16,4,4,0.7,0.7
2026-03-23T0000,1401A,108.3098,22.788,南宁市,二十一中,,25,25,55,15,40,26,26,42,36,16,21,5,4,0.6,0.8
2026-03-23T0000,1402A,108.3135,22.8529,南宁市,北湖,细颗粒物(PM2.5),60,43,59,40,48,3,3,40,28,40,26,3,3,0.9,0.9
2026-03-23T0000,1403A,108.3205,22.8222,南宁市,市监测站,,32,32,54,14,38,14,14,38,30,22,20,2,2,0.6,0.8
2026-03-23T0000,1404A,108.3828,22.8038,南宁市,大自然花园,,25,24,56,17,43,34,34,49,44,14,18,6,5,0.3,0.6
2026-03-23T0000,1406A,108.2397,22.8462,南宁市,区农职院,,37,37,64,22,35,6,6,36,26,33,28,6,7,0.3,0.5
2026-03-23T0000,1407A,108.3285,22.7356,南宁市,英华嘉园,,45,45,66,17,39,11,11,38,29,35,27,5,4,0.5,0.8
2026-03-23T0000,3401A,108.4829,22.762,南宁市,红星社区,细颗粒物(PM2.5),58,54,55,39,48,8,8,38,21,26,22,5,5,0.8,0.9
2026-03-23T0000,4132A,108.2927,23.1477,南宁市,起凤路9号,,35,34,70,24,57,19,19,40,30,19,21,4,8,0.5,0.7
2026-03-23T0000,4221A,108.2177,22.7774,南宁市,乐贤路16号,,38,38,56,17,37,6,6,39,30,39,27,4,5,0.7,0.8
2026-03-23T0000,2332A,118.1682,26.6371,南平市,南平市监测站,,33,32,23,23,15,30,30,79,52,15,10,5,4,0.6,0.6
2026-03-23T0000,2334A,118.1757,26.6276,南平市,南平七中,,33,NA,24,23,14,24,24,80,50,17,11,2,4,0.8,0.7
2026-03-23T0000,1168A,120.9056,31.9669,南通市,狼山街道,细颗粒物(PM2.5),66,63,55,43,31,29,29,105,72,44,34,3,6,0.4,0.5
2026-03-23T0000,1170A,120.8635,32.0231,南通市,城中,颗粒物(PM10),72,80,62,38,32,42,42,104,79,36,27,4,6,0.7,0.7
2026-03-23T0000,1171A,120.9376,31.9301,南通市,星湖花园,细颗粒物(PM2.5),70,67,51,45,30,38,38,103,74,32,31,4,6,0.5,0.5
2026-03-23T0000,1172A,120.8053,32.046,南通市,紫琅学院,细颗粒物(PM2.5),98,95,60,59,34,13,13,114,65,60,37,5,7,1.0,0.9
2026-03-23T0000,3291A,121.0631,32.0644,南通市,通州监测站,颗粒物(PM10),56,58,57,37,39,46,46,101,78,22,20,3,4,0.5,0.5
2026-03-23T0000,3432A,120.9348,31.9874,南通市,环境教育馆,细颗粒物(PM2.5),70,56,54,45,33,32,32,110,70,34,31,4,6,0.5,0.5
2026-03-23T0000,4091A,120.8692,31.9885,南通市,洪江路,细颗粒物(PM2.5),82,61,56,51,34,47,47,96,76,29,34,5,6,0.7,0.8
2026-03-23T0000,2404A,112.5338,33.0086,南阳市,瓦房庄,颗粒物(PM10),97,115,93,38,34,96,96,123,112,15,13,6,6,0.6,0.6
2026-03-23T0000,2405A,112.5002,32.9734,南阳市,汉画馆,颗粒物(PM10),99,118,100,54,55,102,102,124,112,16,18,6,7,0.6,0.7
2026-03-23T0000,2406A,112.5778,33.0144,南阳市,气象站,颗粒物(PM10),112,151,114,44,36,89,89,127,110,25,19,6,7,0.6,0.6
2026-03-23T0000,2407A,112.548,32.9687,南阳市,理工学院,颗粒物(PM10),98,116,93,43,39,97,97,120,107,14,15,6,7,0.5,0.6
2026-03-23T0000,4008A,112.5233,32.9921,南阳市,卧龙区政府,颗粒物(PM10),107,137,95,38,41,96,96,122,111,15,15,7,8,0.5,0.6
2026-03-23T0000,1234A,121.8352,29.9111,宁波市,区环保大楼,颗粒物(PM10),61,65,48,24,16,0,0,81,24,109,50,11,8,0.4,0.4
2026-03-23T0000,1235A,121.5595,29.8208,宁波市,万里学院,颗粒物(PM10),55,56,38,35,18,48,48,90,71,43,24,7,6,0.7,0.5
2026-03-23T0000,1236A,121.713,29.9564,宁波市,龙赛医院,颗粒物(PM10),59,62,38,31,19,37,37,85,58,43,30,6,5,0.4,0.4
2026-03-23T0000,1240A,121.5855,29.8635,宁波市,太古小学,颗粒物(PM10),53,53,37,29,16,67,67,92,73,36,29,7,5,0.6,0.5
2026-03-23T0000,1241A,121.5239,29.8673,宁波市,市环境监测中心,颗粒物(PM10),53,54,38,34,20,62,62,94,71,36,28,12,10,0.8,0.6
2026-03-23T0000,2871A,121.6156,29.9015,宁波市,万里国际学校,,47,47,34,27,15,57,57,91,63,42,28,7,5,0.6,0.5
2026-03-23T0000,3710A,121.5593,29.8976,宁波市,白沙活动中心,细颗粒物(PM2.5),52,44,33,36,20,53,53,94,66,40,25,7,7,0.5,0.4
2026-03-23T0000,4095A,121.8962,29.7529,宁波市,中科路88号,,34,34,24,20,9,80,80,100,90,16,14,6,6,0.4,0.4
2026-03-23T0000,2341A,119.5387,26.6611,宁德市,宁德市监测站,,32,32,34,16,26,88,88,123,107,22,21,5,5,0.6,0.8
2026-03-23T0000,3209A,119.5231,26.6562,宁德市,宁德一中,,28,23,33,19,28,82,82,117,101,16,18,6,6,0.4,0.6
2026-03-23T0000,2618A,98.859,25.8541,怒江傈僳族自治州,州监测站,,25,25,36,12,24,38,38,67,56,10,11,7,7,0.7,0.6
2026-03-23T0000,2619A,98.8607,25.8168,怒江傈僳族自治州,泸水一中,,32,NA,31,22,29,25,25,56,44,16,17,5,5,0.6,0.6
2026-03-23T0000,1888A,101.6891,26.571,攀枝花市,弄弄坪,,48,48,47,31,25,10,10,100,67,58,25,5,10,1.2,0.9
2026-03-23T0000,1889A,101.577,26.5914,攀枝花市,河门口,,40,40,75,18,33,38,38,91,76,24,27,11,23,1.1,1.1
2026-03-23T0000,1891A,101.7365,26.4986,攀枝花市,仁和,,24,24,37,16,28,31,31,100,63,15,13,8,11,0.7,0.8
2026-03-23T0000,2835A,101.7222,26.567,攀枝花市,四十中小,细颗粒物(PM2.5),54,50,41,37,29,24,24,103,70,43,28,4,9,1.1,1
2026-03-23T0000,1604A,122.0303,41.1489,盘锦市,开发区,细颗粒物(PM2.5),200,173,111,150,110,3,3,92,52,53,25,7,7,1.7,0.8
2026-03-23T0000,1605A,122.0486,41.0883,盘锦市,兴隆台,细颗粒物(PM2.5),175,NA,84,132,103,1,1,90,34,88,33,6,7,1.4,0.8
2026-03-23T0000,1606A,121.8297,41.1026,盘锦市,新生街道,细颗粒物(PM2.5),126,96,83,88,101,2,2,92,48,83,34,8,8,1.2,0.7
2026-03-23T0000,1832A,113.3257,33.7423,平顶山市,新华旅馆,颗粒物(PM10),114,154,135,54,45,99,99,130,110,29,24,6,5,0.3,0.3
2026-03-23T0000,1833A,113.2917,33.737,平顶山市,规划设计院,颗粒物(PM10),111,148,140,54,46,96,96,123,109,25,22,13,9,0.5,0.5
2026-03-23T0000,1834A,113.182,33.7738,平顶山市,平顶山工学院,颗粒物(PM10),107,138,131,44,41,98,98,135,122,24,16,6,7,0.5,0.5
2026-03-23T0000,3594A,112.8736,33.9068,平顶山市,石龙区,颗粒物(PM10),120,172,190,54,44,71,71,126,109,46,34,10,11,0.4,0.4
2026-03-23T0000,4116A,113.284,33.7139,平顶山市,姚电大道23号,颗粒物(PM10),130,198,148,55,46,93,93,131,120,29,23,10,8,0.8,0.8
2026-03-23T0000,2656A,106.6633,35.5338,平凉市,聚贤嘉苑,颗粒物(PM10),123,178,183,45,52,90,90,111,106,17,21,7,7,0.4,0.4
2026-03-23T0000,2657A,106.7021,35.5307,平凉市,博物馆,颗粒物(PM10),122,175,180,50,57,94,94,114,107,16,19,10,9,0.6,0.4
2026-03-23T0000,2348A,113.8384,27.6436,萍乡市,中医院,,33,NA,31,23,23,4,4,43,8,31,22,4,4,1.6,1.3
2026-03-23T0000,2350A,113.8677,27.6438,萍乡市,市环保局,,29,26,30,20,27,8,8,45,10,26,20,9,7,1.3,1.3
2026-03-23T0000,2351A,113.8663,27.6202,萍乡市,安源区政府,NA,NA,36,32,28,28,0,0,26,2,30,22,6,5,NA,1
2026-03-23T0000,4107A,113.8686,27.6668,萍乡市,联洪村委会,,30,30,35,17,23,8,8,40,8,19,19,2,3,0.8,0.9
2026-03-23T0000,2319A,119.0142,25.4324,莆田市,荔城区仓后路,颗粒物(PM10),66,72,36,33,26,41,41,120,83,41,21,/,/,/,/
2026-03-23T0000,2320A,119.0016,25.4553,莆田市,莆田市监测站,,33,NA,26,23,19,63,63,128,95,12,12,2,3,0.6,0.5
2026-03-23T0000,2321A,119.112,25.4561,莆田市,涵江区六中,,23,19,29,16,18,52,52,118,83,39,21,/,/,0.4,0.5
2026-03-23T0000,2322A,119.1014,25.3215,莆田市,秀屿区政府,,32,24,31,22,24,61,61,131,94,14,13,4,5,0.4,0.5
2026-03-23T0000,2392A,115.0312,35.7636,濮阳市,环保局,颗粒物(PM10),79,90,91,41,45,13,13,103,60,78,25,6,6,0.8,0.5
2026-03-23T0000,3021A,115,35.7667,濮阳市,濮水河管理处,颗粒物(PM10),62,66,97,23,47,26,26,109,66,48,22,8,8,0.3,0.4
2026-03-23T0000,4118A,115.0552,35.7816,濮阳市,中原东路68号,颗粒物(PM10),87,101,103,30,46,2,2,104,56,64,20,6,6,0.8,0.6
2026-03-23T0000,4216A,115.0923632,35.76857718,濮阳市,任丘路479号,颗粒物(PM10),76,86,103,29,50,20,20,110,59,61,29,6,6,0.5,0.5
2026-03-23T0000,2601A,100.9801,22.7634,普洱市,市环保局,颗粒物(PM10),52,52,62,24,32,64,64,101,77,13,10,6,6,0.7,0.7
2026-03-23T0000,2602A,100.9763,22.8237,普洱市,普洱第二中学,,44,44,56,25,34,51,51,104,74,22,16,7,6,0.7,0.6
2026-03-23T0000,3345A,131.0413,45.7795,七台河市,中波台,细颗粒物(PM2.5),178,151,124,134,101,75,75,115,84,30,24,7,7,0.8,0.6
2026-03-23T0000,3637A,131.0136,45.7688,七台河市,人民广场,细颗粒物(PM2.5),153,165,152,117,97,62,62,100,62,35,35,10,12,1.0,0.9
2026-03-23T0000,3684A,130.8639,45.8144,七台河市,新建矿广场,细颗粒物(PM2.5),206,224,168,156,118,31,31,99,62,44,40,6,11,1.0,0.9
2026-03-23T0000,1779A,123.9307,47.3641,齐齐哈尔市,安居小区,细颗粒物(PM2.5),225,202,73,175,52,54,54,103,68,37,18,10,6,1.3,0.7
2026-03-23T0000,1780A,123.9497,47.3389,齐齐哈尔市,中心广场,NA,NA,NA,56,NA,37,NA,NA,100,87,NA,14,NA,10,NA,0.7
2026-03-23T0000,1781A,123.9483,47.3229,齐齐哈尔市,农牧车辆厂,细颗粒物(PM2.5),190,175,67,143,46,46,46,101,NA,32,14,11,8,0.9,0.4
2026-03-23T0000,1783A,123.9442,47.2994,齐齐哈尔市,市环境监测站,细颗粒物(PM2.5),255,246,77,205,50,57,57,98,77,51,16,10,4,1.2,0.5
2026-03-23T0000,3662A,123.6341,47.2079,齐齐哈尔市,富区青少年活动中心,细颗粒物(PM2.5),237,278,148,187,96,37,37,103,66,47,24,17,8,1.6,1.1
2026-03-23T0000,2591A,107.9765,26.5724,黔东南苗族侗族自治州,市环境监测站,,32,32,20,16,14,16,16,30,22,15,14,3,3,0.9,0.8
2026-03-23T0000,2881A,107.8909,26.531,黔东南苗族侗族自治州,凯里学院,,24,24,16,15,10,24,24,34,23,10,14,4,4,0.9,0.9
2026-03-23T0000,2593A,107.5223,26.2371,黔南布依族苗族自治州,小围寨,,33,NA,18,23,16,27,27,28,25,8,9,6,6,0.6,0.7
2026-03-23T0000,3538A,107.5175,26.2977,黔南布依族苗族自治州,沙坝,,39,39,24,24,14,4,4,21,12,15,10,4,4,1.1,1
2026-03-23T0000,2589A,104.9022,25.0943,黔西南布依族苗族自治州,场坝街,,26,26,35,18,32,62,62,76,69,4,8,4,4,0.4,0.5
2026-03-23T0000,2590A,104.8812,25.0994,黔西南布依族苗族自治州,坪东大道,,40,40,42,20,30,57,57,74,58,6,10,4,5,0.6,0.7
2026-03-23T0000,2502A,108.6238,21.9667,钦州市,市环保站,颗粒物(PM10),55,56,58,17,34,20,20,44,32,33,21,8,5,0.7,1.1
2026-03-23T0000,2503A,108.655,21.9481,钦州市,沙埠小学,,50,50,60,24,39,17,17,50,31,38,22,4,4,0.5,1.1
2026-03-23T0000,2504A,108.5989,21.7435,钦州市,港区一小,颗粒物(PM10),55,56,54,28,30,44,44,56,47,13,13,3,4,0.5,0.8
2026-03-23T0000,3404A,108.5959,21.9634,钦州市,北职校,颗粒物(PM10),51,51,49,25,37,6,6,46,29,40,18,12,5,0.6,0.9
2026-03-23T0000,1046A,119.5247,39.9346,秦皇岛市,建设大厦,细颗粒物(PM2.5),120,109,113,82,88,9,9,97,63,65,20,4,6,0.8,0.8
2026-03-23T0000,3132A,119.5979,39.938,秦皇岛市,文明里,细颗粒物(PM2.5),120,126,116,82,80,41,41,92,66,33,24,8,9,0.7,0.6
2026-03-23T0000,4066A,119.7458,39.9952,秦皇岛市,南园路157号,细颗粒物(PM2.5),113,87,109,74,87,5,5,97,52,79,40,6,8,0.7,0.7
2026-03-23T0000,4067A,119.5131,39.8858,秦皇岛市,翠岛大街1号,细颗粒物(PM2.5),100,88,110,60,82,33,33,97,78,38,21,6,8,0.5,0.6
2026-03-23T0000,4198A,119.509013,39.825305,秦皇岛市,北戴河轮滑馆,细颗粒物(PM2.5),66,62,105,43,76,71,71,93,82,23,26,6,7,0.5,0.7
2026-03-23T0000,1310A,120.404,36.0625,青岛市,市南区东部子站,细颗粒物(PM2.5),110,100,74,71,52,37,37,117,80,52,15,10,9,0.7,0.6
2026-03-23T0000,1311A,120.362344,36.10282,青岛市,四方区子站,细颗粒物(PM2.5),131,161,87,94,59,0,0,118,70,100,27,9,7,1.2,0.9
2026-03-23T0000,1312A,120.294373,36.054183,青岛市,市南区西部子站,细颗粒物(PM2.5),121,122,64,83,50,23,23,104,66,76,28,6,3,0.9,0.6
2026-03-23T0000,1313A,120.4581,36.0858,青岛市,崂山区子站,细颗粒物(PM2.5),90,78,71,55,46,55,55,126,88,48,22,8,8,0.6,0.6
2026-03-23T0000,1315A,120.3945,36.3083,青岛市,城阳区子站,细颗粒物(PM2.5),131,127,103,94,61,85,85,121,67,25,35,7,8,0.9,0.9
2026-03-23T0000,3642A,120.3454,36.0735,青岛市,市北区南部,细颗粒物(PM2.5),121,113,76,83,47,22,22,120,78,72,20,10,3,1.3,0.9
2026-03-23T0000,3643A,120.3897,36.18,青岛市,李沧区北部,细颗粒物(PM2.5),139,134,89,102,60,77,77,112,79,34,28,10,10,1.1,0.8
2026-03-23T0000,4110A,120.5222,36.4089,青岛市,盟旺路653号,细颗粒物(PM2.5),129,117,87,91,54,77,77,140,96,12,15,3,4,0.9,0.8
2026-03-23T0000,4290A,120.196923,35.954556,青岛市,珠江路669号,细颗粒物(PM2.5),116,110,70,77,52,44,44,124,95,53,18,5,5,0.8,0.6
2026-03-23T0000,4291A,120.0424,35.8656,青岛市,黄岛区人民政府广场,颗粒物(PM10),56,58,59,37,38,68,68,110,89,13,16,7,8,0.6,0.6
2026-03-23T0000,1703A,113.0218,23.7086,清远市,凤城街办,细颗粒物(PM2.5),96,80,56,58,48,26,26,62,50,44,36,/,/,/,/
2026-03-23T0000,3025A,113.0479,23.6343,清远市,技师学院,细颗粒物(PM2.5),92,94,55,56,37,20,20,79,54,48,31,6,6,0.6,0.7
2026-03-23T0000,3318A,112.9898,23.7403,清远市,清新太和,颗粒物(PM10),55,56,54,30,34,32,32,73,60,34,27,6,6,0.7,0.7
2026-03-23T0000,3455A,113.076,23.72,清远市,清城东城,细颗粒物(PM2.5),84,95,67,52,42,21,21,64,53,32,29,/,/,/,/
2026-03-23T0000,2661A,107.6325,35.7357,庆阳市,庆阳五中,颗粒物(PM10),65,71,133,30,41,74,74,99,85,10,8,13,6,0.3,0.2
2026-03-23T0000,2662A,107.6361,35.7067,庆阳市,市环保局,颗粒物(PM10),67,73,127,21,39,82,82,101,88,10,11,7,8,0.3,0.2
2026-03-23T0000,1916A,103.7897,25.5036,曲靖市,环境监测站,,25,22,48,9,33,80,80,107,84,12,15,8,8,0.3,0.5
2026-03-23T0000,1917A,103.8013,25.5357,曲靖市,烟厂办公区,,23,18,49,8,31,73,73,95,76,9,13,5,5,0.6,0.6
2026-03-23T0000,3376A,103.7926,25.4651,曲靖市,南苑二区,,22,14,44,3,32,69,69,97,76,11,14,4,4,0.5,0.5
2026-03-23T0000,3377A,103.7442,25.5259,曲靖市,曲靖师范学院,,25,13,50,3,36,77,77,102,79,9,12,6,4,0.5,0.5
2026-03-23T0000,1264A,118.8694,28.94,衢州市,环保大楼,,39,36,37,27,26,20,20,48,36,25,26,/,/,/,/
2026-03-23T0000,1266A,118.8622,28.9809,衢州市,衢州学院,,30,27,32,21,23,19,19,47,32,29,27,3,4,0.6,0.6
2026-03-23T0000,4097A,118.9646,28.9832,衢州市,衢州三中,,29,27,37,20,25,10,10,46,29,34,27,6,7,0.7,0.6
2026-03-23T0000,1611A,118.5818,24.9116,泉州市,涂山街,,35,33,35,24,24,64,64,116,81,22,22,4,4,0.7,0.7
2026-03-23T0000,1612A,118.597,24.8976,泉州市,津头埔,,40,31,34,28,24,52,52,122,85,34,21,3,4,0.7,0.6
2026-03-23T0000,1613A,118.6669,24.9422,泉州市,万安,,49,49,34,28,24,17,17,106,74,62,20,3,4,0.7,0.6
2026-03-23T0000,4105A,118.6355,24.9148,泉州市,霞新路6号,,34,34,32,22,21,40,40,103,76,33,20,/,/,0.6,0.6
2026-03-23T0000,2626A,88.8873,29.2723,日喀则市,日喀则监测站,,36,16,14,10,5,114,114,127,120,4,6,7,8,0.5,0.5
2026-03-23T0000,3726A,88.8775,29.2425,日喀则市,林业技术推广中心,,36,29,24,3,5,114,114,123,118,4,8,9,10,0.4,0.5
2026-03-23T0000,1659A,119.4711,35.421,日照市,监测站,细颗粒物(PM2.5),131,127,89,94,56,7,7,101,66,82,44,8,12,1.0,0.9
2026-03-23T0000,1660A,119.523,35.4216,日照市,市政府广场,细颗粒物(PM2.5),110,102,85,70,51,46,46,101,87,32,37,6,9,0.8,0.7
2026-03-23T0000,1661A,119.5511,35.4113,日照市,港务局,细颗粒物(PM2.5),78,73,79,49,44,77,77,104,92,19,31,4,6,0.6,0.6
2026-03-23T0000,3507A,119.5326,35.4627,日照市,职业技术学院,细颗粒物(PM2.5),114,97,84,75,49,75,75,109,97,28,32,8,10,1.0,0.9
2026-03-23T0000,3604A,119.3267,35.1043,日照市,岚山环保分局,细颗粒物(PM2.5),108,95,88,68,55,82,82,123,119,33,33,11,12,0.9,0.8
2026-03-23T0000,1835A,111.1922,34.7752,三门峡市,市政府,颗粒物(PM10),111,147,149,37,47,68,68,110,81,17,33,10,10,0.7,0.6
2026-03-23T0000,1836A,111.1588,34.794,三门峡市,开发区,颗粒物(PM10),129,193,159,39,55,63,63,110,91,16,22,11,11,0.6,0.5
2026-03-23T0000,3039A,111.1911,34.7829,三门峡市,三门峡市第一小学,颗粒物(PM10),116,160,168,40,50,68,68,112,89,18,28,14,13,0.6,0.6
2026-03-23T0000,3598A,111.1031,34.719,三门峡市,富达温泉假日酒店,颗粒物(PM10),124,182,177,48,52,48,48,116,88,32,27,12,15,0.6,0.7
2026-03-23T0000,2324A,117.621,26.2626,三明市,三钢,,40,30,30,28,26,14,14,81,51,28,18,5,10,0.7,0.9
2026-03-23T0000,2325A,117.6352,26.2714,三明市,三明二中,,32,27,33,22,22,21,21,72,44,19,17,5,8,0.6,1
2026-03-23T0000,2326A,117.6028,26.2377,三明市,三元区政府,,49,41,33,34,28,3,3,78,32,32,20,4,8,1.1,1.1
2026-03-23T0000,1877A,109.4962,18.2682,三亚市,河西子站,,18,16,20,12,12,45,45,57,50,5,5,4,4,0.3,0.4
2026-03-23T0000,3540A,109.7348,18.3443,三亚市,君悦子站,,29,29,21,16,14,37,37,60,53,12,6,4,4,0.4,0.4
2026-03-23T0000,4135A,109.1714,18.3739,三亚市,城东小学站,,24,24,27,13,14,33,33,62,49,13,8,/,/,/,/
2026-03-23T0000,2624A,91.7592,29.234,山南市,山南监测站,,30,6,8,3,3,94,94,120,114,1,4,4,4,0.3,0.3
2026-03-23T0000,2625A,91.7701,29.2436,山南市,山南人民医院,,31,8,12,3,3,97,97,124,117,2,4,7,6,0.3,0.3
2026-03-23T0000,1674A,116.6795,23.3666,汕头市,金平子站,,34,NA,29,21,23,106,106,140,125,15,16,5,5,0.6,0.6
2026-03-23T0000,1675A,116.7248,23.3632,汕头市,龙湖子站,,33,NA,28,23,21,102,102,129,119,13,14,5,5,/,/
2026-03-23T0000,1676A,116.7257,23.2774,汕头市,濠江子站,,45,NA,27,31,19,85,85,120,107,16,15,7,7,/,/
2026-03-23T0000,1677A,116.7518,23.4712,汕头市,澄海子站,,33,30,36,23,24,95,95,137,117,16,14,7,7,0.8,0.7
