timepoint,stationcode,longitude,latitude,area,positionname,primarypollutant,aqi,pm10,pm10_24h,pm2_5,pm2_5_24h,o3,o3_24h,o3_8h,o3_8h_24h,no2,no2_24h,so2,so2_24h,co,co_24h
2024-02-07T2200,2566A,102.1879,31.914,阿坝藏族羌族自治州,州农科所,,22,22,24,10,9,21,,30,28,7,7,6,6,0.8,0.9
2024-02-07T2200,2568A,102.2502,31.8896,阿坝藏族羌族自治州,马师校,,20,16,13,9,9,63,,87,83,8,5,4,4,0.6,0.6
2024-02-07T2200,3994A,102.2165,31.9024,阿坝藏族羌族自治州,马尔康中学西区,,23,12,12,5,7,71,,88,85,4,3,5,5,0.5,0.5
2024-02-07T2200,2695A,80.292,41.1694,阿克苏地区,电视台,颗粒物(PM10),78,105,71,46,38,25,,79,73,69,30,7,5,1.2,1
2024-02-07T2200,2696A,80.2613,41.1551,阿克苏地区,艺术中心,颗粒物(PM10),74,97,74,48,39,25,,71,64,63,33,10,7,0.9,1
2024-02-07T2200,2204A,105.6467,38.8363,阿拉善盟,西城区西花园,细颗粒物(PM2.5),102,93,73,76,53,76,,93,91,13,14,12,10,0.7,0.6
2024-02-07T2200,2205A,105.6985,38.8411,阿拉善盟,蒙二幼,细颗粒物(PM2.5),75,80,73,55,50,80,,91,90,11,13,10,10,1.2,1.1
2024-02-07T2200,2206A,105.724,38.8516,阿拉善盟,环保局新楼,细颗粒物(PM2.5),74,65,69,54,52,85,,95,94,11,11,7,7,0.7,0.7
2024-02-07T2200,2708A,88.1264,47.8517,阿勒泰地区,市站,,,,7,11,6,,,77,73,22,14,4,4,0.5,0.3
2024-02-07T2200,2630A,80.1161,32.5,阿里地区,阿里监测站,,31,4,13,3,6,99,,99,99,2,7,7,16,0.4,0.5
2024-02-07T2200,3192A,80.0903,32.5028,阿里地区,阿里藏医院,,32,14,12,2,7,101,,95,95,2,6,6,11,0.4,0.5
2024-02-07T2200,2642A,109.0318,32.6537,安康市,香溪洞,细颗粒物(PM2.5),68,,52,49,46,72,,74,74,6,7,5,6,0.8,0.8
2024-02-07T2200,2643A,109.0281,32.6939,安康市,安康市监测站,细颗粒物(PM2.5),85,66,63,63,60,54,,68,66,25,20,9,14,1.2,1
2024-02-07T2200,2644A,109.0072,32.6975,安康市,汉滨区检察院,细颗粒物(PM2.5),77,63,63,56,56,68,,76,75,16,15,8,11,0.9,0.9
2024-02-07T2200,2291A,117.0809,30.5177,安庆市,环科院,细颗粒物(PM2.5),102,95,93,76,72,83,,81,81,18,15,9,8,0.9,0.8
2024-02-07T2200,2292A,117.0331,30.5119,安庆市,马山宾馆,细颗粒物(PM2.5),100,97,110,75,75,84,,83,82,16,12,7,6,0.9,0.9
2024-02-07T2200,2294A,116.9896,30.6145,安庆市,安庆大学,细颗粒物(PM2.5),104,96,89,78,74,86,,88,88,17,15,7,7,0.9,0.8
2024-02-07T2200,3173A,117.0598,30.5351,安庆市,市人大,细颗粒物(PM2.5),105,98,93,79,76,82,,81,81,22,19,7,6,0.9,0.9
2024-02-07T2200,3123A,105.9408,26.2431,安顺市,凤凰山,,48,40,27,33,23,45,,52,46,12,9,16,16,0.6,0.7
2024-02-07T2200,3124A,105.9439,26.2564,安顺市,金钟山,,49,40,29,34,25,45,,52,46,10,7,16,16,0.6,0.6
2024-02-07T2200,3125A,105.8983,26.2481,安顺市,娄家坡,,36,32,31,25,24,48,,52,46,12,8,17,15,0.7,0.8
2024-02-07T2200,1819A,114.3551,36.1017,安阳市,红庙街,细颗粒物(PM2.5),172,140,160,130,147,86,,108,105,21,24,5,8,1.1,1.7
2024-02-07T2200,1820A,114.361,36.0681,安阳市,银杏小区,细颗粒物(PM2.5),179,,141,135,153,90,,107,103,16,20,5,6,1.4,1.8
2024-02-07T2200,3141A,114.3922,36.0878,安阳市,信访局,细颗粒物(PM2.5),179,,152,135,154,103,,112,110,20,28,6,7,1.1,1.5
2024-02-07T2200,3669A,114.4705,36.0637,安阳市,左辅环卫站,细颗粒物(PM2.5),206,171,163,156,151,79,,103,98,30,42,5,6,1.4,1.5
2024-02-07T2200,3703A,114.2917,36.0949,安阳市,安钢职工学校,细颗粒物(PM2.5),178,141,183,134,155,84,,105,102,26,28,7,12,1.2,1.7
2024-02-07T2200,1748A,123.044,41.1196,鞍山市,深沟寺,细颗粒物(PM2.5),107,104,92,80,68,50,,76,67,44,42,9,10,1.0,0.9
2024-02-07T2200,1749A,123.011,41.0931,鞍山市,太阳城,细颗粒物(PM2.5),99,98,80,74,60,58,,80,75,38,33,10,14,1.0,1
2024-02-07T2200,1750A,123.0485,41.1442,鞍山市,太平,细颗粒物(PM2.5),159,166,118,121,84,16,,76,58,82,55,15,13,1.6,1.6
2024-02-07T2200,1751A,122.9642,41.0971,鞍山市,铁西三道街,细颗粒物(PM2.5),180,203,135,136,98,7,,58,45,90,65,12,19,1.9,2
2024-02-07T2200,1752A,122.9341,41.0833,鞍山市,铁西工业园区,细颗粒物(PM2.5),336,317,147,286,125,13,,58,38,89,67,17,22,4.1,2.4
2024-02-07T2200,1753A,123.022,41.0821,鞍山市,明达新区,细颗粒物(PM2.5),102,88,69,76,57,42,,73,63,49,36,12,15,1.1,1
2024-02-07T2200,2195A,107.4212,40.761,巴彦淖尔市,附二中,颗粒物(PM10),54,57,50,30,33,74,,79,79,14,18,80,29,0.5,0.5
2024-02-07T2200,2196A,107.37,40.7372,巴彦淖尔市,市环保大楼,,36,35,43,25,26,60,,80,74,27,26,5,6,0.6,0.6
2024-02-07T2200,1956A,86.1472,41.7538,巴音郭楞蒙古自治州,孔雀公园,颗粒物(PM10),88,126,92,36,37,62,,79,76,17,25,4,4,0.5,0.7
2024-02-07T2200,1957A,86.1972,41.7166,巴音郭楞蒙古自治州,棉纺厂,颗粒物(PM10),318,434,171,54,37,59,,78,76,20,29,2,2,0.6,0.6
2024-02-07T2200,1958A,86.2357,41.7173,巴音郭楞蒙古自治州,经济开发区,颗粒物(PM10),147,244,164,28,34,64,,82,80,22,24,5,4,0.5,0.5
2024-02-07T2200,2914A,106.7677,31.8794,巴中市,苏山坪,细颗粒物(PM2.5),77,69,40,56,34,49,,77,71,27,9,5,4,0.9,0.6
2024-02-07T2200,3182A,106.7656,31.8545,巴中市,丽阳花园,细颗粒物(PM2.5),85,78,47,63,38,23,,70,57,39,23,4,4,1.2,0.9
2024-02-07T2200,3183A,106.7418,31.8654,巴中市,圣泉水务公司,细颗粒物(PM2.5),94,79,47,70,38,22,,66,55,41,25,4,3,1.0,0.8
2024-02-07T2200,3616A,106.7616,31.8344,巴中市,市中心医院,细颗粒物(PM2.5),80,67,50,59,42,32,,77,65,29,21,5,5,0.9,0.8
2024-02-07T2200,2235A,122.7911,45.6077,白城市,洮北区环保局,颗粒物(PM10),53,56,64,35,42,70,,82,75,10,14,6,7,0.6,0.7
2024-02-07T2200,2236A,122.8738,45.5725,白城市,市环保局,细颗粒物(PM2.5),63,63,57,45,44,46,,81,66,30,26,7,7,0.7,0.7
2024-02-07T2200,2231A,126.4219,41.9171,白山市,喜丰,,48,48,67,32,39,56,,79,73,26,26,15,19,1.0,1.1
2024-02-07T2200,2232A,126.4077,41.9419,白山市,环保局,颗粒物(PM10),89,128,88,64,46,24,,75,56,57,32,18,19,1.2,1.3
2024-02-07T2200,2647A,104.1724,36.5446,白银市,第三小学,细颗粒物(PM2.5),83,91,59,61,37,72,,88,86,21,17,4,46,1.1,1
2024-02-07T2200,2648A,104.1465,36.5482,白银市,动力公司,细颗粒物(PM2.5),99,76,55,74,46,86,,96,94,15,19,5,26,0.9,0.9
2024-02-07T2200,2512A,106.6103,23.9011,百色市,市监测站,,21,21,23,7,9,41,,43,43,9,11,7,10,0.8,0.8
2024-02-07T2200,2513A,106.6538,23.8859,百色市,市中心血站,,16,16,19,4,7,44,,45,45,7,10,7,9,0.8,0.8
2024-02-07T2200,3406A,106.6085,23.8798,百色市,祈福高中,,,13,19,10,13,42,,44,44,6,10,7,9,,0.8
2024-02-07T2200,2270A,117.396,32.939,蚌埠市,工人疗养院,细颗粒物(PM2.5),204,163,116,154,106,69,,138,119,88,25,9,11,1.5,0.9
2024-02-07T2200,2271A,117.3605,32.9427,蚌埠市,百货大楼,细颗粒物(PM2.5),224,195,117,174,103,77,,140,126,86,35,6,8,1.8,1.3
2024-02-07T2200,2273A,117.4185,32.8911,蚌埠市,蚌埠学院,细颗粒物(PM2.5),196,168,115,147,101,116,,138,134,30,22,8,11,1.3,1.1
2024-02-07T2200,2274A,117.3533,32.9673,蚌埠市,淮上区政府,细颗粒物(PM2.5),208,171,124,158,109,122,,140,136,48,25,8,10,1.4,1.2
2024-02-07T2200,2275A,117.3145,32.8977,蚌埠市,高新区,细颗粒物(PM2.5),163,136,108,124,99,65,,134,111,62,33,5,11,1.3,1.1
2024-02-07T2200,3715A,117.3092,32.9314,蚌埠市,蚌埠田家炳中学,细颗粒物(PM2.5),192,158,125,144,107,128,,141,139,40,31,9,11,1.1,0.9
2024-02-07T2200,1585A,109.8756,40.6532,包头市,市环境监测站,细颗粒物(PM2.5),180,154,77,136,63,12,,69,56,114,44,21,26,3.2,1.7
2024-02-07T2200,1587A,109.9991,40.5842,包头市,包头八中,细颗粒物(PM2.5),216,175,110,166,96,28,,73,64,96,60,24,26,3.1,2
2024-02-07T2200,1588A,109.8538,40.6821,包头市,青山宾馆,细颗粒物(PM2.5),250,209,90,200,79,7,,62,43,115,51,12,19,4.0,2
2024-02-07T2200,1589A,109.8642,40.6288,包头市,惠龙物流,细颗粒物(PM2.5),150,147,79,115,60,16,,75,65,105,44,28,27,3.2,1.8
2024-02-07T2200,1590A,110.0377,40.5546,包头市,东河鸿龙湾,细颗粒物(PM2.5),134,118,98,102,81,47,,94,90,63,45,22,14,1.8,1.4
2024-02-07T2200,3283A,109.9154,40.5685,包头市,滨河大厦,细颗粒物(PM2.5),160,150,97,122,80,47,,80,74,70,49,21,14,3.0,1.7
2024-02-07T2200,3419A,109.9447,40.6261,包头市,包头市委党校,细颗粒物(PM2.5),139,142,86,106,70,8,,69,54,101,58,24,27,2.5,1.7
2024-02-07T2200,3683A,109.8331,40.6576,包头市,昆区政府,细颗粒物(PM2.5),240,,90,190,83,7,,62,51,116,48,26,27,3.2,2.2
2024-02-07T2200,1930A,107.185,34.3063,宝鸡市,庙沟村,细颗粒物(PM2.5),152,125,117,116,120,28,,35,33,28,20,4,4,1.2,1.3
2024-02-07T2200,1931A,107.0708,34.3017,宝鸡市,竹园沟,细颗粒物(PM2.5),158,,113,120,112,32,,52,47,24,23,4,4,1.3,1.3
2024-02-07T2200,1932A,107.1906,34.3672,宝鸡市,三陆医院,细颗粒物(PM2.5),168,,117,127,121,48,,59,59,40,36,4,4,1.2,1.2
2024-02-07T2200,1933A,107.1431,34.3547,宝鸡市,监测站,细颗粒物(PM2.5),169,138,116,128,114,29,,49,45,40,30,4,4,1.4,1.2
2024-02-07T2200,1934A,107.1186,34.3739,宝鸡市,技工学校,细颗粒物(PM2.5),163,,107,124,116,41,,57,55,37,29,6,6,1.3,1.2
2024-02-07T2200,1935A,107.3906,34.3528,宝鸡市,陈仓区环保局家属楼,细颗粒物(PM2.5),193,151,125,145,122,21,,62,51,60,39,7,7,1.4,1.3
2024-02-07T2200,1936A,107.2058,34.3497,宝鸡市,文理学院,细颗粒物(PM2.5),168,133,116,127,112,35,,52,49,45,34,6,6,1.2,1.4
2024-02-07T2200,1937A,107.2386,34.3622,宝鸡市,三迪小学,细颗粒物(PM2.5),162,127,112,123,116,38,,54,53,44,34,6,7,1.3,1.3
2024-02-07T2200,1051A,115.493,38.8632,保定市,游泳馆,细颗粒物(PM2.5),155,157,106,118,83,34,,87,79,55,37,2,2,1.2,1
2024-02-07T2200,1052A,115.5213,38.8959,保定市,华电二区,细颗粒物(PM2.5),128,100,95,97,92,62,,77,76,19,31,4,3,0.6,0.7
2024-02-07T2200,1053A,115.4713,38.9108,保定市,接待中心,细颗粒物(PM2.5),134,133,99,102,92,60,,78,76,16,23,5,5,0.9,0.9
2024-02-07T2200,1054A,115.4612,38.8416,保定市,地表水厂,细颗粒物(PM2.5),143,146,117,109,85,54,,83,76,28,37,3,3,1.3,1.1
2024-02-07T2200,3581A,115.31981,38.95208,保定市,满城区生态环境分局,,,,109,,91,,,85,80,41,38,,4,1.1,1.1
2024-02-07T2200,3582A,115.47694,38.76408,保定市,清苑区第二中学,细颗粒物(PM2.5),138,136,102,105,76,64,,86,81,28,29,5,4,0.9,0.8
2024-02-07T2200,3583A,115.62909,39.02311,保定市,徐水物探局,细颗粒物(PM2.5),132,134,103,100,77,68,,77,74,22,35,3,2,0.7,0.8
2024-02-07T2200,4004A,115.4202,38.8656,保定市,双鹰农机,细颗粒物(PM2.5),153,130,102,117,86,57,,89,82,32,37,3,3,0.9,0.8
2024-02-07T2200,4034A,115.5150,38.8590,保定市,植保所站,细颗粒物(PM2.5),178,,85,134,85,37,,85,79,58,35,4,4,1.0,0.7
2024-02-07T2200,2594A,99.1678,25.1081,保山市,市环境监测站,颗粒物(PM10),53,56,48,36,29,89,,90,89,6,6,6,6,0.4,0.4
2024-02-07T2200,2595A,99.1711,25.1328,保山市,市环保局,细颗粒物(PM2.5),57,55,46,40,31,91,,89,87,4,4,7,7,0.5,0.6
2024-02-07T2200,1867A,109.1436,21.4086,北海市,海滩公园,,23,23,18,12,11,28,,30,30,10,10,6,6,0.8,0.7
2024-02-07T2200,1868A,109.0981,21.4661,北海市,新市环保局,,35,,14,24,16,33,,34,34,9,9,5,6,0.9,1
2024-02-07T2200,1869A,109.1778,21.5233,北海市,北海工业园,,29,25,15,20,14,29,,32,32,11,10,11,8,1.1,0.9
2024-02-07T2200,3400A,109.1911,21.4415,北海市,龙潭自来水厂,,23,22,17,16,14,29,,31,31,10,9,7,7,0.8,0.8
2024-02-07T2200,1001A,116.3621,39.8784,北京市,万寿西宫,细颗粒物(PM2.5),58,59,28,41,19,40,,78,66,52,18,1,1,0.5,0.3
2024-02-07T2200,1002A,116.2202,40.2915,北京市,定陵,,25,16,18,13,14,77,,82,81,6,5,3,2,0.3,0.3
2024-02-07T2200,1003A,116.4174,39.9289,北京市,东四,,24,24,25,16,17,63,,81,70,22,12,3,3,0.4,0.4
2024-02-07T2200,1004A,116.4072,39.8863,北京市,天坛,细颗粒物(PM2.5),60,54,26,43,19,50,,82,70,26,15,3,2,0.5,0.3
2024-02-07T2200,1005A,116.462,39.9365,北京市,农展馆,,22,22,22,15,15,69,,73,68,18,12,3,2,0.3,0.2
2024-02-07T2200,1006A,116.3392,39.9295,北京市,官园,,24,23,27,16,19,74,,89,81,19,15,2,2,0.4,0.3
2024-02-07T2200,1007A,116.2878,39.9611,北京市,海淀万柳,,33,33,29,18,16,57,,82,70,29,19,3,3,0.3,0.3
2024-02-07T2200,1008A,116.6636,40.135,北京市,顺义新城,,26,24,23,18,18,74,,87,78,7,4,1,1,0.3,0.3
2024-02-07T2200,1009A,116.6275,40.3275,北京市,怀柔镇,,22,21,21,15,15,67,,80,78,11,7,4,4,0.4,0.3
2024-02-07T2200,1010A,116.2296,40.217,北京市,昌平镇,,27,19,22,13,14,86,,92,91,3,2,3,3,0.2,0.2
2024-02-07T2200,1011A,116.3966,39.9821,北京市,奥体中心,,,19,21,,14,69,,84,76,11,6,4,4,0.3,0.4
2024-02-07T2200,1012A,116.184,39.9136,北京市,古城,,25,24,28,17,18,75,,82,76,7,6,3,3,0.3,0.3
2024-02-07T2200,3281A,115.9718,40.4529,北京市,延庆夏都,,24,24,24,16,16,65,,76,74,5,4,4,3,0.3,0.3
2024-02-07T2200,3417A,117.0709,40.1465,北京市,平谷新城,,46,43,22,32,16,47,,,,14,4,2,2,0.7,0.3
2024-02-07T2200,3418A,116.8336,40.4095,北京市,密云新城,,23,19,21,11,13,71,,88,78,8,4,3,1,0.3,0.2
2024-02-07T2200,3672A,116.1541,39.8204,北京市,丰台云岗,细颗粒物(PM2.5),58,62,32,41,21,76,,86,81,14,12,3,3,0.4,0.2
2024-02-07T2200,3673A,116.6804,39.9081,北京市,通州东关,,23,23,29,15,16,66,,77,72,10,4,3,2,0.3,0.3
2024-02-07T2200,3674A,115.9577,39.7603,北京市,房山燕山,,48,41,39,33,32,55,,83,68,21,18,3,3,0.4,0.4
2024-02-07T2200,3675A,116.4672,39.7733,北京市,大兴旧宫,细颗粒物(PM2.5),58,62,25,41,17,53,,75,67,26,13,3,1,0.5,0.3
2024-02-07T2200,3694A,115.986,40.4563,北京市,延庆石河营,,22,22,25,14,16,70,,83,79,4,3,2,2,0.4,0.3
2024-02-07T2200,3695A,116.6151,40.3053,北京市,怀柔新城,,25,22,23,14,15,78,,81,80,1,3,2,2,0.2,0.2
2024-02-07T2200,3696A,116.2545,39.8768,北京市,丰台小屯,细颗粒物(PM2.5),65,77,33,47,19,29,,82,69,53,19,3,1,0.6,0.3
2024-02-07T2200,3697A,116.84,40.3844,北京市,密云镇,,36,36,24,22,16,38,,82,56,31,11,2,2,0.4,0.3
2024-02-07T2200,1761A,123.8275,41.3064,本溪市,大峪,细颗粒物(PM2.5),92,96,92,68,60,45,,84,74,55,47,10,10,2.1,1.8
2024-02-07T2200,1762A,123.7567,41.3325,本溪市,溪湖,细颗粒物(PM2.5),166,180,101,126,69,11,,84,58,84,40,16,13,1.8,1.2
2024-02-07T2200,1763A,123.7169,41.3094,本溪市,彩屯,细颗粒物(PM2.5),183,174,97,138,78,17,,73,51,89,49,9,11,1.6,1.2
2024-02-07T2200,1764A,123.7669,41.2864,本溪市,东明,细颗粒物(PM2.5),166,137,88,126,79,20,,83,63,75,50,10,10,1.4,1.2
2024-02-07T2200,1765A,123.7992,41.2664,本溪市,新立屯,细颗粒物(PM2.5),87,74,75,64,62,37,,81,65,61,43,10,10,1.1,1
2024-02-07T2200,1766A,123.8142,41.3472,本溪市,威宁,细颗粒物(PM2.5),110,126,105,83,75,21,,78,55,75,50,5,7,1.2,1
2024-02-07T2200,2587A,105.2864,27.3125,毕节市,八中,,10,9,10,7,7,30,,44,36,10,8,6,6,0.7,0.8
2024-02-07T2200,2588A,105.31,27.2944,毕节市,师专,,20,14,11,14,9,31,,42,39,10,9,6,6,0.7,0.8
2024-02-07T2200,3537A,105.3631,27.3533,毕节市,长征村,,15,13,11,10,8,33,,42,40,9,8,6,6,0.8,0.9
2024-02-07T2200,1629A,118.0018,37.3617,滨州市,第二水厂,细颗粒物(PM2.5),110,124,101,83,73,32,,86,69,55,37,15,10,2.1,1.2
2024-02-07T2200,1630A,117.9776,37.393,滨州市,北中新校,细颗粒物(PM2.5),124,146,121,94,90,14,,84,66,90,47,17,12,2.2,1.3
2024-02-07T2200,3514A,117.9378,37.3956,滨州市,中海酒店,细颗粒物(PM2.5),105,108,113,79,96,43,,88,78,51,41,14,13,1.9,1.3
2024-02-07T2200,3515A,117.9378,37.3553,滨州市,开发区一中,细颗粒物(PM2.5),122,118,113,92,87,50,,88,79,41,36,20,17,1.6,1.1
2024-02-07T2200,3516A,118.0917,37.694,滨州市,金海六路,细颗粒物(PM2.5),218,212,132,168,97,7,,74,42,77,52,22,15,2.3,1.5
2024-02-07T2200,4028A,117.9956,37.3753,滨州市,滨州市西街道办事处,细颗粒物(PM2.5),113,134,111,85,82,35,,83,66,55,33,20,14,2.0,1.3
2024-02-07T2200,2311A,115.8072,33.8399,亳州市,污水处理厂,细颗粒物(PM2.5),176,159,141,133,129,52,,135,110,52,21,6,7,1.2,1.1
2024-02-07T2200,2312A,115.7789,33.8518,亳州市,三国揽胜宫,细颗粒物(PM2.5),193,189,168,145,123,55,,132,107,55,25,8,8,1.5,1.2
2024-02-07T2200,3332A,115.7633,33.8034,亳州市,亳州学院,细颗粒物(PM2.5),198,179,142,148,120,95,,134,122,30,19,6,6,1.4,1.2
2024-02-07T2200,2693A,82.0485,44.8556,博尔塔拉蒙古自治州,市党校,细颗粒物(PM2.5),119,137,109,90,72,89,,92,90,29,24,16,14,1.3,1
2024-02-07T2200,2694A,82.0806,44.8969,博尔塔拉蒙古自治州,市环保局,细颗粒物(PM2.5),99,123,116,74,68,89,,85,85,33,37,14,14,1.1,1.1
2024-02-07T2200,1071A,116.8842,38.2991,沧州市,沧县城建局,细颗粒物(PM2.5),117,116,61,88,46,33,,88,71,66,29,7,7,1.2,0.7
2024-02-07T2200,1072A,116.8584,38.3254,沧州市,电视转播站,细颗粒物(PM2.5),117,124,67,88,50,39,,90,74,50,25,6,7,0.9,0.6
2024-02-07T2200,1073A,116.8709,38.3228,沧州市,市环保局,细颗粒物(PM2.5),88,97,60,65,48,58,,87,77,33,24,7,5,0.8,0.6
2024-02-07T2200,3324A,116.8136,38.3004,沧州市,河北水利电力学院,细颗粒物(PM2.5),110,83,57,83,50,64,,87,80,24,19,11,9,0.7,0.5
2024-02-07T2200,2622A,97.1806,31.1273,昌都市,昌都监测站,细颗粒物(PM2.5),63,53,29,45,14,23,,81,67,60,20,9,7,1.5,0.7
2024-02-07T2200,3719A,97.1714,31.1406,昌都市,昌都会议中心,,22,15,10,15,8,69,,98,92,15,7,4,4,0.5,0.4
2024-02-07T2200,2690A,88.1236,43.8886,昌吉回族自治州,天山天池,,25,20,10,10,6,80,,92,90,5,5,7,7,0.5,0.5
2024-02-07T2200,2692A,87.2717,44.0297,昌吉回族自治州,新区政务中心,细颗粒物(PM2.5),267,295,220,217,163,60,,92,90,52,51,3,3,2.3,2.1
2024-02-07T2200,3613A,87.3095,44.0142,昌吉回族自治州,亚心广场,细颗粒物(PM2.5),284,290,262,234,216,79,,90,90,47,48,7,6,2.2,2.1
2024-02-07T2200,1119A,125.3325,43.9166,长春市,食品厂,细颗粒物(PM2.5),108,94,119,81,104,50,,83,77,55,60,27,13,0.8,1.2
2024-02-07T2200,1120A,125.2863,43.9027,长春市,客车厂,细颗粒物(PM2.5),110,88,100,83,95,67,,87,84,40,66,18,14,0.7,1
2024-02-07T2200,1121A,125.2841,43.8463,长春市,邮电学院,细颗粒物(PM2.5),145,163,123,111,101,33,,80,68,75,63,17,15,0.9,1
2024-02-07T2200,1122A,125.3716,43.8772,长春市,劳动公园,细颗粒物(PM2.5),127,128,119,96,97,34,,76,69,69,57,6,7,0.9,1
2024-02-07T2200,1123A,125.3297,43.8805,长春市,园林处,细颗粒物(PM2.5),100,100,107,75,92,59,,78,75,53,63,17,19,0.8,1.2
2024-02-07T2200,1124A,125.4605,43.79,长春市,净月潭,细颗粒物(PM2.5),119,106,86,90,75,78,,99,96,21,19,8,9,0.9,0.8
2024-02-07T2200,1126A,125.3863,43.8447,长春市,经开区环卫处,细颗粒物(PM2.5),109,103,115,82,90,49,,88,81,57,55,11,9,1.1,1.2
2024-02-07T2200,1127A,125.245,43.7783,长春市,高新区管委会,细颗粒物(PM2.5),153,146,118,117,112,51,,97,85,48,46,8,9,1.1,1.4
2024-02-07T2200,1128A,125.1761,43.8325,长春市,岱山公园,细颗粒物(PM2.5),113,85,104,85,99,72,,110,104,42,53,12,9,0.9,1.1
2024-02-07T2200,1335A,113.0833,28.2325,长沙市,经开区环保局,细颗粒物(PM2.5),132,118,85,100,76,102,,88,88,17,15,3,3,0.9,0.8
2024-02-07T2200,1336A,112.8872,28.2189,长沙市,高开区环保局,细颗粒物(PM2.5),120,114,91,91,73,112,,98,98,13,12,2,2,0.9,0.8
2024-02-07T2200,1337A,113.0792,28.2053,长沙市,马坡岭,细颗粒物(PM2.5),130,122,92,99,76,92,,79,,16,15,5,4,0.9,0.8
2024-02-07T2200,1338A,112.9394,28.19,长沙市,湖南师范大学,细颗粒物(PM2.5),128,120,85,97,75,105,,94,94,20,15,7,7,0.9,0.8
2024-02-07T2200,1339A,113.0178,28.1322,长沙市,雨花区环保局,细颗粒物(PM2.5),120,115,82,91,67,89,,81,81,20,14,2,2,1.1,0.9
2024-02-07T2200,1340A,112.9792,28.2597,长沙市,伍家岭,细颗粒物(PM2.5),132,126,101,100,78,104,,90,90,15,15,4,4,1.0,0.9
2024-02-07T2200,1341A,113.0014,28.1944,长沙市,火车新站,细颗粒物(PM2.5),132,114,90,100,77,106,,95,95,15,12,2,2,0.9,0.8
2024-02-07T2200,1342A,112.9844,28.1178,长沙市,天心区环保局,细颗粒物(PM2.5),124,120,82,94,72,108,,93,93,17,13,3,3,0.6,0.6
2024-02-07T2200,1343A,112.8908,28.1308,长沙市,湖南中医药大学,细颗粒物(PM2.5),132,119,89,100,78,113,,99,99,11,11,3,3,0.8,0.7
2024-02-07T2200,1344A,112.9581,28.3611,长沙市,沙坪,细颗粒物(PM2.5),119,147,81,90,70,103,,82,82,10,7,3,3,1.0,0.9
2024-02-07T2200,1727A,113.1147,36.1547,长治市,清华站,细颗粒物(PM2.5),163,147,122,124,113,78,,98,97,29,39,15,17,1.7,1.4
2024-02-07T2200,1728A,113.1031,36.1989,长治市,监测站,细颗粒物(PM2.5),180,,110,136,109,68,,99,98,39,50,17,22,1.7,1.4
2024-02-07T2200,1730A,113.0886,36.2125,长治市,审计局,细颗粒物(PM2.5),178,145,117,134,108,67,,102,99,34,42,20,25,1.9,1.7
2024-02-07T2200,1731A,113.0844,36.1856,长治市,长治八中,细颗粒物(PM2.5),188,163,126,141,106,58,,104,100,49,49,14,17,2.0,1.5
2024-02-07T2200,2845A,113.1569,36.1911,长治市,德盛苑,细颗粒物(PM2.5),168,131,111,127,108,82,,109,107,30,27,19,17,1.9,1.9
2024-02-07T2200,3568A,113.06,36.0464,长治市,向阳小学,细颗粒物(PM2.5),180,162,143,136,126,72,,109,102,42,35,21,24,2.1,1.7
2024-02-07T2200,3569A,112.8792,36.3144,长治市,屯留一中,细颗粒物(PM2.5),143,125,108,109,99,70,,112,102,48,36,45,25,1.5,1.4
2024-02-07T2200,3570A,113.235,36.3489,长治市,潞城四中,细颗粒物(PM2.5),185,143,149,139,134,74,,98,83,33,40,22,14,1.8,1.9
2024-02-07T2200,1854A,111.6975,28.9703,常德市,市二中,细颗粒物(PM2.5),104,93,90,78,85,111,,104,104,15,15,8,7,0.7,0.9
2024-02-07T2200,1857A,111.7158,29.1456,常德市,白鹤山,细颗粒物(PM2.5),89,91,104,66,80,68,,63,63,5,6,2,2,0.6,0.8
2024-02-07T2200,3138A,111.7153,29.0289,常德市,武陵区永安,细颗粒物(PM2.5),112,109,94,84,77,86,,95,95,27,18,8,8,1.0,0.9
2024-02-07T2200,3139A,111.6892,28.9881,常德市,鼎城区玉霞,细颗粒物(PM2.5),113,93,91,85,88,104,,100,100,19,18,10,8,0.9,1
2024-02-07T2200,3140A,111.6625,29.0531,常德市,武陵区长庚,细颗粒物(PM2.5),134,125,100,102,85,71,,95,93,29,18,4,4,1.2,0.9
2024-02-07T2200,1196A,119.9633,31.762,常州市,市监测站,细颗粒物(PM2.5),143,150,77,109,56,87,,98,97,31,20,9,10,1.1,0.8
2024-02-07T2200,1200A,119.9468,31.7069,常州市,武进监测站,细颗粒物(PM2.5),125,136,69,95,49,88,,94,94,26,22,9,4,1.0,0.7
2024-02-07T2200,1201A,119.9255,31.9087,常州市,安家,细颗粒物(PM2.5),162,159,75,123,59,97,,103,103,26,18,8,8,1.2,0.8
2024-02-07T2200,3002A,119.9805,31.8174,常州市,行政中心,细颗粒物(PM2.5),140,134,69,107,54,82,,94,92,27,19,9,9,1.2,0.9
2024-02-07T2200,3003A,120.0522,31.7748,常州市,经开区,细颗粒物(PM2.5),124,125,70,94,52,82,,98,95,25,18,10,9,0.8,0.6
2024-02-07T2200,3010A,119.9025,31.7964,常州市,钟楼,细颗粒物(PM2.5),158,137,69,120,57,89,,95,94,28,21,8,8,1.2,0.9
2024-02-07T2200,3429A,119.8598,31.7066,常州市,武进经发区,细颗粒物(PM2.5),134,121,70,102,54,94,,100,99,34,25,8,7,1.2,1.1
2024-02-07T2200,3430A,119.5826,31.7245,常州市,金坛城区,细颗粒物(PM2.5),155,137,80,118,64,104,,99,99,25,19,9,9,1.3,0.8
2024-02-07T2200,2220A,120.4318,41.5881,朝阳市,西梁,细颗粒物(PM2.5),179,176,107,135,75,27,,75,50,58,39,25,19,2.5,1.8
2024-02-07T2200,2221A,120.4521,41.5646,朝阳市,河畔小区,细颗粒物(PM2.5),163,130,74,124,55,15,,76,56,59,33,18,10,1.9,1.3
2024-02-07T2200,2222A,120.4176,41.5648,朝阳市,八里堡,细颗粒物(PM2.5),206,239,108,156,74,17,,73,48,63,42,28,15,2.4,1.8
2024-02-07T2200,2223A,120.3806,41.5969,朝阳市,农业园区,细颗粒物(PM2.5),105,,79,79,66,30,,74,57,44,37,13,14,1.0,1.1
2024-02-07T2200,1705A,116.6367,23.6719,潮州市,西园路,,5,,21,3,17,13,,60,15,6,9,3,3,0.3,0.4
2024-02-07T2200,3026A,116.6183,23.6608,潮州市,市政府,,9,,18,3,16,16,,60,18,8,10,4,4,0.9,0.8
2024-02-07T2200,4036A,116.6461,23.6761,潮州市,金山,,8,6,16,3,17,12,,57,14,8,9,5,5,0.8,0.7
2024-02-07T2200,2472A,113.0073,25.9061,郴州市,马头岭,,32,32,17,17,10,65,,69,67,8,5,3,3,0.8,1.2
2024-02-07T2200,2473A,113.0116,25.8226,郴州市,市职中,,43,34,14,30,13,68,,69,69,8,8,2,2,0.9,0.9
2024-02-07T2200,2474A,113.0161,25.8001,郴州市,兴隆步行街,,48,36,15,33,14,67,,66,66,10,9,3,2,0.9,0.8
2024-02-07T2200,2475A,113.0383,25.8071,郴州市,市审计局,,35,32,13,24,12,63,,65,65,10,10,3,3,1.1,1
2024-02-07T2200,2476A,113.0348,25.7759,郴州市,市环保局,细颗粒物(PM2.5),57,,15,40,15,58,,60,59,16,14,2,2,0.9,0.9
2024-02-07T2200,1431A,103.9728,30.7236,成都市,金泉两河,细颗粒物(PM2.5),60,57,41,43,32,0,,55,40,43,19,3,3,1.4,0.8
2024-02-07T2200,1432A,104.176,30.6872,成都市,十里店,细颗粒物(PM2.5),59,48,33,42,31,46,,68,62,22,16,1,3,0.6,0.6
2024-02-07T2200,1433A,104.079,30.5706,成都市,三瓦窑,颗粒物(PM10),63,75,39,40,22,1,,61,52,53,22,3,3,0.8,0.7
2024-02-07T2200,1434A,104.1114,30.63,成都市,沙河铺,细颗粒物(PM2.5),59,49,39,42,31,29,,63,56,32,17,1,2,0.7,0.6
2024-02-07T2200,1437A,104.0786,30.6531,成都市,君平街,细颗粒物(PM2.5),62,54,37,44,32,32,,66,60,41,20,4,3,0.9,0.7
2024-02-07T2200,1438A,103.613,31.0283,成都市,灵岩寺,二氧化氮,56,35,32,33,35,68,,70,70,112,117,8,8,0.8,0.8
2024-02-07T2200,2880A,104.0239,30.65639,成都市,大石西路,细颗粒物(PM2.5),57,47,36,40,31,27,,65,59,39,24,2,3,0.8,0.7
2024-02-07T2200,3136A,104.2725,30.5589,成都市,龙泉驿区区政府,细颗粒物(PM2.5),89,73,35,66,32,33,,66,56,20,14,1,1,0.8,0.7
2024-02-07T2200,3357A,104.0106,30.6931,成都市,金博路,细颗粒物(PM2.5),64,62,45,46,36,8,,33,,57,26,3,3,0.9,0.8
2024-02-07T2200,3359A,104.0578,30.5225,成都市,华阳,细颗粒物(PM2.5),83,70,39,61,34,13,,58,49,27,17,1,2,0.8,0.7
2024-02-07T2200,3487A,104.2394,30.5319,成都市,车城东七路,细颗粒物(PM2.5),74,66,41,54,34,35,,67,59,22,18,1,2,1.0,0.8
2024-02-07T2200,3488A,104.3853,30.7453,成都市,青白江技师分院,细颗粒物(PM2.5),65,60,37,47,28,35,,74,58,27,22,6,6,0.9,0.8
2024-02-07T2200,3489A,104.0789,30.4072,成都市,科学城,细颗粒物(PM2.5),79,67,46,58,39,25,,54,44,19,12,3,3,1.0,0.8
2024-02-07T2200,4011A,103.8506,30.6947,成都市,光华大道三段,细颗粒物(PM2.5),65,73,50,47,35,3,,55,45,40,17,3,3,1.3,0.9
2024-02-07T2200,1062A,117.9531,40.9081,承德市,铁路,,30,30,37,14,19,77,,79,72,11,18,9,10,0.3,0.5
2024-02-07T2200,1063A,117.9392,40.9763,承德市,中国银行,颗粒物(PM10),67,83,43,42,20,19,,82,55,52,24,11,8,0.9,0.5
2024-02-07T2200,1064A,117.9503,40.928,承德市,开发区,,41,41,46,19,25,83,,82,74,11,29,5,6,0.2,0.5
2024-02-07T2200,1065A,117.8051,40.9655,承德市,文化中心,,26,22,34,4,12,81,,90,78,9,10,6,6,0.3,0.3
2024-02-07T2200,1066A,117.9268,41.0026,承德市,离宫,,28,25,27,19,24,70,,79,76,5,10,4,4,0.3,0.4
2024-02-07T2200,2314A,117.47,30.6618,池州市,池州学院,细颗粒物(PM2.5),120,109,103,91,87,68,,69,69,16,15,8,8,0.8,0.8
2024-02-07T2200,3237A,117.4918,30.6617,池州市,展览馆,细颗粒物(PM2.5),115,109,104,87,86,69,,70,70,16,16,12,12,0.8,0.9
2024-02-07T2200,3333A,117.5627,30.695,池州市,第八中学,细颗粒物(PM2.5),110,104,98,83,81,73,,72,70,15,15,6,5,0.8,0.8
2024-02-07T2200,3334A,117.5038,30.6243,池州市,第十二中学,细颗粒物(PM2.5),125,119,103,95,86,67,,71,68,15,15,6,5,0.8,0.9
2024-02-07T2200,1744A,118.9233,42.2816,赤峰市,松山一中,颗粒物(PM10),71,92,43,47,25,26,,75,44,57,36,26,17,1.3,0.9
2024-02-07T2200,1745A,118.9576,42.2728,赤峰市,哈达街,细颗粒物(PM2.5),93,92,42,69,28,20,,68,46,57,29,26,18,1.2,0.8
2024-02-07T2200,1746A,118.8788,42.2554,赤峰市,天义路,细颗粒物(PM2.5),57,55,35,40,26,21,,72,44,53,27,14,10,1.1,0.7
2024-02-07T2200,3058A,119.2658,42.0353,赤峰市,银河街,细颗粒物(PM2.5),77,95,56,56,38,22,,72,55,44,27,21,23,1.3,1
2024-02-07T2200,3286A,118.9359,42.3147,赤峰市,桥北物流园区,,30,30,27,16,21,64,,88,68,23,17,10,11,0.6,0.6
2024-02-07T2200,2521A,107.3476,22.4136,崇左市,市环保局江州分局,,27,27,18,14,10,32,,30,30,7,8,6,6,0.5,0.5
2024-02-07T2200,2522A,107.3702,22.3707,崇左市,城南新区,,22,22,13,4,5,30,,29,29,10,9,6,6,0.6,0.5
2024-02-07T2200,2298A,118.3093,32.3153,滁州市,老年大学,细颗粒物(PM2.5),149,123,91,114,84,110,,124,122,27,22,8,9,1.3,1.1
2024-02-07T2200,2299A,118.3244,32.2786,滁州市,人大宾馆,细颗粒物(PM2.5),147,130,96,112,81,96,,115,112,41,28,19,11,1.2,0.9
2024-02-07T2200,3207A,118.3118,32.3038,滁州市,市政府原办公楼,细颗粒物(PM2.5),135,116,84,103,72,112,,118,117,30,24,7,7,1.0,0.8
2024-02-07T2200,3331A,118.3267,32.2634,滁州市,图书馆,细颗粒物(PM2.5),135,125,92,103,74,98,,115,113,30,23,20,12,1.2,1
2024-02-07T2200,2605A,101.5482,25.0441,楚雄彝族自治州,州环境监测站,,42,36,32,29,26,96,,99,94,5,5,6,5,0.4,0.5
2024-02-07T2200,2606A,101.538,25.0492,楚雄彝族自治州,市经济开发区,颗粒物(PM10),52,54,37,33,29,84,,89,84,9,8,6,6,0.5,0.5
2024-02-07T2200,2548A,107.5277,31.2827,达州市,达州职业技术学院,颗粒物(PM10),53,56,39,36,28,6,,58,34,39,29,8,12,0.9,0.8
2024-02-07T2200,2549A,107.5086,31.2186,达州市,市环境监测站,细颗粒物(PM2.5),62,59,40,44,29,7,,46,29,50,34,9,10,1.0,0.8
2024-02-07T2200,2550A,107.4988,31.2132,达州市,凤凰小区,细颗粒物(PM2.5),58,53,35,41,27,12,,48,34,48,31,9,9,0.9,0.7
2024-02-07T2200,2551A,107.5082,31.1986,达州市,达县机关宾馆,细颗粒物(PM2.5),62,70,40,44,31,17,,40,28,40,37,9,9,1.0,0.9
2024-02-07T2200,2552A,107.4644,31.2124,达州市,市政中心,"颗粒物(PM10),细颗粒物(PM2.5)",58,65,42,41,28,8,,47,29,54,32,11,11,1.2,1
2024-02-07T2200,2614A,100.1542,25.7054,大理白族自治州,大理市环境监测站,,45,38,22,31,20,88,,92,92,6,5,6,6,0.5,0.5
2024-02-07T2200,2615A,100.2171,25.5811,大理白族自治州,大理古城,,30,20,13,16,12,95,,96,96,4,6,6,6,0.5,0.5
2024-02-07T2200,1109A,121.612,38.9741,大连市,甘井子,细颗粒物(PM2.5),55,42,32,39,28,85,,89,87,16,12,8,7,0.7,0.7
2024-02-07T2200,1110A,121.565,38.9511,大连市,周水子,细颗粒物(PM2.5),65,53,34,47,29,65,,92,82,34,18,15,10,1.0,0.7
2024-02-07T2200,1111A,121.5637,38.8845,大连市,星海三站,,50,42,36,35,31,89,,89,87,17,16,15,14,0.6,0.6
2024-02-07T2200,1112A,121.6302,38.9117,大连市,青泥洼桥,细颗粒物(PM2.5),60,52,36,43,29,66,,79,72,32,18,23,16,0.8,0.7
2024-02-07T2200,1113A,121.6251,38.8638,大连市,傅家庄,,47,47,38,32,27,77,,86,81,22,13,20,17,0.7,0.6
2024-02-07T2200,1114A,121.5213,38.8661,大连市,七贤岭,,35,35,30,24,25,82,,88,85,18,13,19,16,0.6,0.6
2024-02-07T2200,1115A,121.2529,38.8061,大连市,旅顺,,39,31,31,27,28,73,,83,82,17,16,10,11,0.8,0.8
2024-02-07T2200,1116A,121.7485,39.1311,大连市,金州,细颗粒物(PM2.5),64,52,32,46,27,78,,92,87,14,11,9,7,0.8,0.7
2024-02-07T2200,1117A,121.7811,39.0496,大连市,开发区,细颗粒物(PM2.5),64,52,33,46,26,74,,84,78,24,20,19,16,0.9,0.8
2024-02-07T2200,1118A,121.9762,39.0631,大连市,双D港,细颗粒物(PM2.5),57,55,36,40,25,80,,92,89,14,13,12,11,1.0,0.9
2024-02-07T2200,1789A,124.81117,46.03138,大庆市,大同区,细颗粒物(PM2.5),108,104,112,81,92,54,,69,63,24,28,16,11,0.9,1
2024-02-07T2200,1790A,125.129,46.533,大庆市,龙凤区,细颗粒物(PM2.5),89,101,97,66,71,18,,67,49,62,49,10,8,1.1,1.2
2024-02-07T2200,1791A,124.902,46.408,大庆市,红岗区,,40,37,52,28,40,60,,77,72,20,23,10,9,0.6,0.8
2024-02-07T2200,1792A,125.153,46.586,大庆市,萨尔图区,细颗粒物(PM2.5),59,52,87,42,69,42,,68,58,48,49,10,9,0.9,1
2024-02-07T2200,1793A,124.9042,46.6215,大庆市,让胡路区,,46,46,75,25,47,55,,71,57,27,34,7,9,0.5,0.7
2024-02-07T2200,3481A,125.141,46.634,大庆市,萨区政府监测点,细颗粒物(PM2.5),58,42,77,41,64,32,,77,63,55,41,14,11,1.2,1
2024-02-07T2200,1723A,113.2994,40.0758,大同市,云冈宾馆,细颗粒物(PM2.5),52,42,38,36,28,64,,91,85,30,21,16,18,1.1,0.9
2024-02-07T2200,1724A,113.3444,40.0917,大同市,大同大学,,43,37,33,30,25,65,,87,84,38,22,18,18,1.0,0.9
2024-02-07T2200,1725A,113.2661,40.1269,大同市,安家小村,颗粒物(PM10),52,54,44,34,31,49,,86,78,32,20,16,21,1.4,1.2
2024-02-07T2200,1726A,113.2711,40.0844,大同市,教育学院,细颗粒物(PM2.5),67,56,45,48,32,34,,83,72,57,31,10,19,1.3,1.2
2024-02-07T2200,3282A,113.3397,40.0597,大同市,大同市卫生学校,,45,40,28,31,24,56,,89,84,38,17,12,14,1.3,1
2024-02-07T2200,3565A,113.1367,40.1122,大同市,云冈站,,41,41,52,25,34,49,,92,80,23,20,28,25,1.1,0.9
2024-02-07T2200,3566A,113.1186,40.2556,大同市,图书馆,,48,48,53,18,42,46,,83,73,20,18,11,14,1.1,0.9
2024-02-07T2200,3567A,113.5931,40.0461,大同市,区一中,细颗粒物(PM2.5),73,88,54,53,35,42,,81,71,20,17,31,39,0.8,0.7
2024-02-07T2200,3676A,113.2802,40.0995,大同市,第二人民医院,细颗粒物(PM2.5),57,61,52,40,32,45,,92,81,46,25,9,14,1.1,1.1
2024-02-07T2200,2269A,124.1069,50.4097,大兴安岭地区,科技局,细颗粒物(PM2.5),53,41,22,37,20,58,,77,65,14,8,10,9,0.5,0.4
2024-02-07T2200,3663A,124.1164,50.4278,大兴安岭地区,红旗社区,细颗粒物(PM2.5),57,51,32,40,22,30,,73,52,34,27,10,9,0.6,0.4
2024-02-07T2200,1600A,124.3303,40.0625,丹东市,江湾东路,细颗粒物(PM2.5),58,48,47,41,39,74,,91,74,18,17,15,14,1.1,0.9
2024-02-07T2200,1601A,124.4256,40.1503,丹东市,临江后街,细颗粒物(PM2.5),59,58,49,42,35,64,,92,75,30,21,14,10,1.3,0.8
2024-02-07T2200,1602A,124.3933,40.1461,丹东市,元宝山,细颗粒物(PM2.5),58,53,52,41,38,68,,86,73,22,20,13,11,1.1,0.8
2024-02-07T2200,1603A,124.3633,40.1092,丹东市,民主桥,颗粒物(PM10),54,58,54,36,34,62,,80,62,27,25,15,13,1.1,0.8
2024-02-07T2200,3541A,109.5726,19.5167,儋州市,第一中学子站,,49,49,42,30,28,30,,58,50,9,7,6,6,0.9,0.6
2024-02-07T2200,3542A,109.5567,19.5187,儋州市,东坡学校子站,"颗粒物(PM10),细颗粒物(PM2.5)",52,53,46,36,30,26,,56,46,10,8,4,5,1.0,0.7
2024-02-07T2200,2616A,98.5842,24.428,德宏傣族景颇族自治州,德宏州监测站,细颗粒物(PM2.5),109,97,67,82,49,38,,81,75,36,27,3,7,0.8,0.7
2024-02-07T2200,3677A,98.5881,24.4368,德宏傣族景颇族自治州,芒市人民政府综合楼,"颗粒物(PM10),细颗粒物(PM2.5)",67,83,65,48,42,53,,77,74,15,20,6,9,0.7,0.7
2024-02-07T2200,1901A,104.4239,31.1208,德阳市,东山公园,细颗粒物(PM2.5),59,51,35,42,30,64,,70,70,9,7,2,3,0.7,0.6
2024-02-07T2200,1902A,104.3826,31.1317,德阳市,西小区,细颗粒物(PM2.5),83,,41,61,35,10,,64,56,59,19,1,2,1.0,0.8
2024-02-07T2200,1904A,104.3553,31.1091,德阳市,耐火材料厂,细颗粒物(PM2.5),165,136,44,125,38,25,,66,57,36,16,4,2,0.9,0.6
2024-02-07T2200,3639A,104.4019,31.1244,德阳市,市教育局,细颗粒物(PM2.5),72,,38,52,32,11,,65,54,59,20,2,1,1.0,0.7
2024-02-07T2200,1622A,116.3032,37.4674,德州市,儿童乐园,细颗粒物(PM2.5),132,132,104,100,87,75,,99,94,29,29,9,8,1.2,1.1
2024-02-07T2200,1624A,116.2991,37.4451,德州市,监理站,细颗粒物(PM2.5),134,134,99,102,80,62,,102,97,50,29,12,10,1.3,1
2024-02-07T2200,3066A,116.2721,37.4379,德州市,九衢泉纯净水厂,细颗粒物(PM2.5),134,127,106,102,80,77,,96,94,32,31,15,10,1.1,1
2024-02-07T2200,3371A,116.3728,37.4403,德州市,开发区人民医院,细颗粒物(PM2.5),125,153,111,95,78,21,,98,84,80,33,9,8,1.2,1
2024-02-07T2200,3372A,116.3572,37.4094,德州市,太阳城中学,细颗粒物(PM2.5),134,122,101,102,83,61,,94,87,39,26,9,8,1.2,1.1
2024-02-07T2200,3511A,116.5652,37.3319,德州市,陵城艺术中心,细颗粒物(PM2.5),221,259,149,171,106,15,,95,69,72,35,10,10,1.7,1.2
2024-02-07T2200,2621A,99.7056,27.8317,迪庆藏族自治州,迪庆州站,,28,22,20,15,12,89,,93,92,9,8,9,8,0.4,0.4
2024-02-07T2200,3180A,99.7136,27.8094,迪庆藏族自治州,质量技术监督局,,30,,15,21,14,86,,90,90,5,5,8,8,0.4,0.4
2024-02-07T2200,2663A,104.6241,35.5734,定西市,东关小学,细颗粒物(PM2.5),67,72,65,48,46,61,,80,74,14,15,12,11,0.7,0.8
2024-02-07T2200,2664A,104.6194,35.5934,定西市,供电公司,细颗粒物(PM2.5),74,60,65,54,50,63,,87,80,7,14,5,6,0.5,0.6
2024-02-07T2200,1389A,113.7547,23.0494,东莞市,莞城梨川,,10,3,13,1,8,30,,26,26,12,16,6,6,0.9,0.9
2024-02-07T2200,1390A,113.7944,23.0128,东莞市,东城石井,,10,7,14,3,8,28,,24,24,10,14,6,6,1.0,1
2024-02-07T2200,1391A,113.7383,22.9658,东莞市,南城西平,,10,4,16,2,9,24,,21,21,11,17,6,6,1.0,1.1
2024-02-07T2200,3319A,113.7338,23.0381,东莞市,万江金泰,,10,3,13,1,8,24,,20,20,7,12,6,7,1.0,1.1
2024-02-07T2200,3626A,113.7533,23.0202,东莞市,南城元岭,,10,2,13,1,7,25,,22,22,7,11,8,8,1.0,1.1
2024-02-07T2200,3627A,113.7875,23.0457,东莞市,东城主山,,10,1,10,1,7,27,,22,22,7,12,7,7,1.0,1.1
2024-02-07T2200,1666A,118.6614,37.4309,东营市,市环保局,细颗粒物(PM2.5),185,161,92,139,70,15,,82,54,77,37,8,12,1.4,0.9
2024-02-07T2200,3036A,118.6904,37.4338,东营市,开发区管委会,细颗粒物(PM2.5),188,160,92,141,74,21,,87,64,82,38,3,7,1.3,0.8
2024-02-07T2200,3365A,118.5719,37.565,东营市,垦利区民丰路,细颗粒物(PM2.5),180,161,104,136,80,7,,71,42,79,44,8,12,1.2,1.1
2024-02-07T2200,3498A,118.5055,37.8612,东营市,河口城区,细颗粒物(PM2.5),134,127,111,102,83,15,,59,33,55,37,2,4,1.1,1
2024-02-07T2200,3646A,118.4978,37.4623,东营市,胜利站,细颗粒物(PM2.5),201,204,116,151,90,9,,76,48,80,45,8,17,1.4,1.1
2024-02-07T2200,3734A,118.35,37.26,东营市,理想之城,细颗粒物(PM2.5),188,193,105,141,71,7,,80,51,92,50,5,8,1.8,1.2
2024-02-07T2200,1591A,110.0023,39.8129,鄂尔多斯市,综合楼,细颗粒物(PM2.5),113,114,64,85,47,62,,84,75,47,31,9,16,1.2,1
2024-02-07T2200,1592A,109.9486,39.8261,鄂尔多斯市,巴音孟克林场办事处,细颗粒物(PM2.5),104,105,56,78,43,58,,75,70,42,32,10,13,1.1,1
2024-02-07T2200,1593A,109.7736,39.5986,鄂尔多斯市,康泽苑,细颗粒物(PM2.5),52,46,35,36,30,55,,93,78,32,22,6,6,0.8,0.9
2024-02-07T2200,1594A,109.8119,39.5989,鄂尔多斯市,华泰汽车城,颗粒物(PM10),52,53,39,34,30,12,,87,64,74,31,6,7,0.9,0.8
2024-02-07T2200,1595A,109.9734,39.7884,鄂尔多斯市,奥林花园,细颗粒物(PM2.5),110,114,66,83,46,64,,78,71,40,32,10,12,1.3,1
2024-02-07T2200,2436A,114.8938,30.3994,鄂州市,市政府,细颗粒物(PM2.5),124,,73,94,76,64,,75,72,35,26,5,5,1.4,1.3
2024-02-07T2200,2437A,114.8989,30.3714,鄂州市,赵家坝,细颗粒物(PM2.5),117,,62,88,76,77,,81,81,25,20,4,4,1.1,1
2024-02-07T2200,3654A,114.8094,30.4089,鄂州市,精准医疗中心,细颗粒物(PM2.5),107,106,90,80,74,90,,104,100,14,11,5,7,1.2,1
2024-02-07T2200,2454A,109.4978,30.2981,恩施土家族苗族自治州,湖北民院,细颗粒物(PM2.5),65,57,49,47,31,62,,77,74,18,12,6,9,1.1,1.1
2024-02-07T2200,2455A,109.4707,30.2798,恩施土家族苗族自治州,州电力总公司,细颗粒物(PM2.5),64,52,38,46,31,67,,70,70,18,20,5,5,1.1,1
2024-02-07T2200,3549A,109.5061,30.3772,恩施土家族苗族自治州,龙凤新区,细颗粒物(PM2.5),58,,28,41,31,54,,75,70,15,14,7,7,1.1,1
2024-02-07T2200,2499A,108.3411,21.6158,防城港市,沙万,,15,15,8,5,2,39,,33,33,7,9,2,2,0.6,0.5
2024-02-07T2200,2500A,108.3514,21.7731,防城港市,防城档案局,,19,19,13,5,4,41,,32,32,8,11,5,5,0.6,0.6
2024-02-07T2200,2501A,108.3506,21.6414,防城港市,大海花园,,16,16,9,3,2,39,,33,33,6,7,3,3,0.7,0.7
2024-02-07T2200,1371A,113.1294,23.0067,佛山市,湾梁,,10,9,12,7,8,22,,22,22,11,12,8,8,0.9,0.9
2024-02-07T2200,1372A,113.1083,23.0478,佛山市,华材职中,,10,,8,5,8,22,,21,21,19,18,6,7,1.0,1
2024-02-07T2200,1373A,113.144,23.0453,佛山市,南海气象局,,10,8,8,4,6,20,,19,19,17,18,6,5,1.0,0.9
2024-02-07T2200,1374A,113.2881,22.8094,佛山市,顺德苏岗,,8,2,7,2,4,19,,18,18,15,15,7,7,0.8,0.8
2024-02-07T2200,1376A,112.8383,22.8678,佛山市,高明孔堂,,10,7,9,0,2,32,,31,31,5,6,4,4,0.9,0.9
2024-02-07T2200,1377A,112.8836,23.1588,佛山市,三水监测站,,,,3,4,3,27,,27,27,12,9,6,5,1.0,0.9
2024-02-07T2200,1378A,112.867,23.185,佛山市,三水云东海,,15,15,5,3,3,28,,29,29,11,12,7,6,0.9,0.9
2024-02-07T2200,3625A,113.2544,22.7642,佛山市,容桂街道办,,9,2,6,0,4,22,,21,21,13,13,5,4,0.9,0.9
2024-02-07T2200,1282A,119.2681,26.0504,福州市,师大,,17,9,6,0,1,52,,53,53,15,14,5,5,0.7,0.7
2024-02-07T2200,1283A,119.2984,26.1028,福州市,五四北路,,,,4,0,0,62,,53,53,10,12,3,2,0.4,0.5
2024-02-07T2200,1284A,119.2648,26.0768,福州市,杨桥西路,,19,5,6,0,1,58,,54,54,12,12,3,3,0.4,0.5
2024-02-07T2200,1285A,119.317,26.0746,福州市,紫阳,,19,5,5,0,1,58,,50,50,11,13,5,5,0.5,0.7
2024-02-07T2200,3048A,119.5799,26.0936,福州市,九龙,,23,8,4,0,0,71,,71,71,5,7,2,2,0.5,0.5
2024-02-07T2200,3526A,119.5189,25.9664,福州市,吴航,,23,3,3,2,2,71,,69,69,5,8,3,3,0.4,0.5
2024-02-07T2200,1755A,123.7977,41.8491,抚顺市,望花区,细颗粒物(PM2.5),153,127,96,117,75,10,,76,64,87,47,18,15,1.9,1.3
2024-02-07T2200,1756A,123.9161,41.8822,抚顺市,顺城区,细颗粒物(PM2.5),208,169,110,158,90,25,,81,68,73,47,8,9,1.7,1.2
2024-02-07T2200,1757A,124.0436,41.8611,抚顺市,东洲区,细颗粒物(PM2.5),149,158,106,114,79,31,,78,54,62,34,15,13,1.5,1
2024-02-07T2200,1758A,123.9247,41.8642,抚顺市,新抚区,细颗粒物(PM2.5),122,129,100,92,71,13,,81,69,80,47,7,10,1.4,1.2
2024-02-07T2200,1759A,124.0972,41.8961,抚顺市,大伙房水库,细颗粒物(PM2.5),134,127,94,102,73,54,,89,72,42,25,9,11,1.5,0.8
2024-02-07T2200,1760A,123.7086,41.8391,抚顺市,沈抚新城,细颗粒物(PM2.5),143,148,100,109,68,22,,85,72,81,45,9,12,2.0,1.6
2024-02-07T2200,2376A,116.2127,28.0814,抚州市,桐源党溪,细颗粒物(PM2.5),84,82,63,62,48,44,,54,49,6,8,2,2,0.8,0.9
2024-02-07T2200,2377A,116.3544,27.9831,抚州市,市站,细颗粒物(PM2.5),70,72,58,51,44,48,,60,55,12,13,7,6,1.1,1.3
2024-02-07T2200,2378A,116.3565,27.963,抚州市,血防站,细颗粒物(PM2.5),78,82,65,57,45,46,,57,52,7,7,6,4,1.1,1.2
2024-02-07T2200,2379A,116.3564,28.0007,抚州市,采茶剧团,细颗粒物(PM2.5),89,78,52,66,47,45,,56,51,9,10,2,4,1.0,1
2024-02-07T2200,2380A,116.385,27.9647,抚州市,医学分院,颗粒物(PM10),61,71,56,43,38,46,,57,52,10,10,4,4,1.1,1.1
2024-02-07T2200,2207A,121.6094,41.998,阜新市,工业园区,颗粒物(PM10),329,443,92,179,59,8,,85,49,64,33,26,14,2.6,1.2
2024-02-07T2200,2209A,121.6673,42.0705,阜新市,农业园区,细颗粒物(PM2.5),92,81,40,68,22,59,,87,77,32,14,31,14,0.9,0.6
2024-02-07T2200,2210A,121.6717,42.0224,阜新市,东苑,细颗粒物(PM2.5),201,218,92,151,62,9,,85,53,74,42,36,15,2.3,3.5
2024-02-07T2200,2211A,121.6506,42.0498,阜新市,玉龙新城,细颗粒物(PM2.5),109,84,53,82,42,18,,83,41,52,38,10,8,1.3,1.5
2024-02-07T2200,2301A,115.8277,32.8929,阜阳市,市监测站,细颗粒物(PM2.5),172,140,123,130,117,21,,127,98,98,34,7,8,1.8,1.1
2024-02-07T2200,2303A,115.8554,32.8605,阜阳市,开发区,细颗粒物(PM2.5),163,180,155,124,108,47,,126,99,78,36,6,7,1.8,1.4
2024-02-07T2200,2875A,115.784,32.8892,阜阳市,阜阳职业技术学院,细颗粒物(PM2.5),139,131,117,106,103,36,,126,101,86,30,6,6,1.4,1.1
2024-02-07T2200,3468A,115.7901,32.8613,阜阳市,市规划展馆,细颗粒物(PM2.5),133,125,121,101,97,65,,128,114,64,28,11,8,1.2,1
2024-02-07T2200,3469A,115.836,32.9183,阜阳市,枣园社区,细颗粒物(PM2.5),156,169,141,119,114,6,,131,99,112,34,8,8,1.5,1
2024-02-07T2200,2669A,102.9099,34.9841,甘南藏族自治州,州政府,,43,43,49,23,39,75,,92,90,15,13,10,12,0.6,0.8
2024-02-07T2200,3380A,102.8914,34.9617,甘南藏族自治州,甘肃民族师范学院,,,38,57,23,47,,,89,89,16,12,13,16,0.6,0.9
2024-02-07T2200,2570A,101.9603,30.0475,甘孜藏族自治州,水桥子,,19,,6,8,6,58,,60,60,5,5,10,10,0.6,0.7
2024-02-07T2200,3065A,101.9533,29.9972,甘孜藏族自治州,州环保局,,18,8,9,6,5,56,,60,60,6,6,8,8,0.6,0.6
2024-02-07T2200,3414A,115.8347,28.932,赣江新区,桑海产业园,细颗粒物(PM2.5),85,75,81,63,70,65,,65,64,18,16,4,3,0.8,0.9
2024-02-07T2200,2363A,114.9367,25.8664,赣州市,地委,,23,23,10,15,11,58,,55,55,10,10,9,10,1.1,1.1
2024-02-07T2200,2364A,114.9461,25.8481,赣州市,气象台,,29,,8,20,13,57,,53,53,4,8,6,6,0.7,1
2024-02-07T2200,2365A,114.9322,25.8333,赣州市,市图书馆,,26,26,12,18,7,50,,46,46,8,8,16,10,1.5,1.5
2024-02-07T2200,2366A,114.8905,25.8471,赣州市,华坚鞋城,,17,16,12,2,8,49,,46,46,6,8,2,4,1.7,1.4
2024-02-07T2200,3109A,115.0093,25.8613,赣州市,赣县区卫计委,,16,10,7,6,6,49,,45,45,8,8,6,6,1.0,1.1
2024-02-07T2200,2683A,106.2319,36.1417,固原市,马园,细颗粒物(PM2.5),94,91,76,70,57,55,,82,74,24,21,6,5,1.0,0.9
2024-02-07T2200,2684A,106.2792,36.0022,固原市,监测站,细颗粒物(PM2.5),92,71,62,68,60,71,,85,82,19,16,5,5,0.9,0.8
2024-02-07T2200,2685A,106.2375,36.0211,固原市,新区,细颗粒物(PM2.5),80,68,63,59,54,63,,79,75,21,16,5,5,0.7,0.6
2024-02-07T2200,3522A,106.2177,35.9959,固原市,原州区十五小,细颗粒物(PM2.5),92,84,71,68,57,57,,78,73,27,15,8,7,1.1,0.9
2024-02-07T2200,2544A,106.6303,30.4576,广安市,市委,细颗粒物(PM2.5),57,40,43,40,38,34,,37,31,13,12,5,5,0.8,0.8
2024-02-07T2200,2545A,106.6271,30.4663,广安市,友谊中学,,46,43,39,32,31,39,,40,36,15,13,3,4,0.7,0.8
2024-02-07T2200,2547A,106.6388,30.4551,广安市,广电花园,细颗粒物(PM2.5),57,,34,40,37,37,,39,34,14,12,3,3,0.9,0.9
2024-02-07T2200,2902A,106.6351,30.4865,广安市,北辰小学,细颗粒物(PM2.5),55,40,37,39,37,37,,38,35,14,12,4,5,0.8,0.8
2024-02-07T2200,2523A,105.8945,32.4535,广元市,黑石坡,细颗粒物(PM2.5),64,52,43,46,41,90,,91,91,10,10,4,4,0.7,0.7
2024-02-07T2200,2524A,105.821,32.4444,广元市,老城,颗粒物(PM10),52,54,49,25,32,72,,76,76,15,12,1,2,0.8,0.8
2024-02-07T2200,2526A,105.8628,32.4287,广元市,监测站,,49,34,40,34,31,81,,84,84,9,9,3,2,0.8,0.9
2024-02-07T2200,3617A,105.8047,32.4166,广元市,经开区,,49,44,42,34,34,73,,78,76,14,13,4,3,0.8,0.8
2024-02-07T2200,1345A,113.2347,23.1423,广州市,广雅中学,,12,8,8,4,5,18,,19,19,20,18,4,4,1.2,1.1
2024-02-07T2200,1346A,113.2612,23.105,广州市,市五中,,11,7,9,3,5,21,,22,22,21,19,5,5,1.1,1.1
2024-02-07T2200,1348A,113.3478,23.0916,广州市,广东商学院,,10,4,9,2,5,30,,29,29,8,13,4,4,0.9,1
2024-02-07T2200,1349A,113.4332,23.1047,广州市,市八十六中,,10,6,12,3,6,32,,31,31,7,11,4,4,0.8,0.9
2024-02-07T2200,1350A,113.3505,22.9483,广州市,番禺中学,,10,5,12,3,6,27,,29,29,17,19,3,4,1.0,1.1
2024-02-07T2200,1351A,113.2146,23.3916,广州市,花都师范,,10,3,4,3,2,27,,26,26,13,12,5,4,1.0,1
2024-02-07T2200,1352A,113.2597,23.1331,广州市,市监测站,,12,6,8,5,5,19,,20,20,23,21,4,4,1.0,1.1
2024-02-07T2200,1353A,113.5618,23.312,广州市,九龙镇镇龙,,10,4,5,3,4,28,,32,31,9,10,5,5,1.0,1
2024-02-07T2200,1354A,113.2765,23.1544,广州市,麓湖,,10,6,8,3,4,19,,22,22,19,18,4,4,1.0,1.1
2024-02-07T2200,1355A,113.443,23.3035,广州市,帽峰山森林公园,,11,1,4,1,3,35,,36,36,6,7,5,5,1.0,1
2024-02-07T2200,2846A,113.3221,23.1322,广州市,体育西,,10,6,9,4,6,28,,28,27,12,14,6,6,1.0,1
2024-02-07T2200,3298A,113.5717,23.5491,广州市,从化街口,,11,2,5,1,3,33,,34,33,8,9,4,4,0.8,0.9
2024-02-07T2200,3299A,113.3472,23.3692,广州市,白云竹料,,,2,4,2,4,32,,34,34,8,9,,5,1.1,1.1
2024-02-07T2200,3300A,113.2981,23.237,广州市,白云嘉禾,,10,3,6,2,4,31,,27,27,14,21,6,6,0.9,1
2024-02-07T2200,3301A,113.4256,23.1716,广州市,黄埔科学城,,10,2,7,1,4,30,,30,30,8,9,3,3,1.0,1
2024-02-07T2200,3302A,113.3942,23.0483,广州市,番禺大学城,,10,8,20,2,6,31,,30,30,12,16,4,4,0.6,0.8
2024-02-07T2200,3303A,113.4922,22.8168,广州市,南沙黄阁,,10,7,15,2,8,25,,23,23,12,16,4,4,1.0,1.1
2024-02-07T2200,3304A,113.5342,22.7896,广州市,南沙街,,11,10,19,4,10,16,,16,16,22,22,4,4,0.9,1
2024-02-07T2200,3443A,113.2902,23.5544,广州市,花都梯面,,10,3,3,3,2,28,,27,27,13,15,5,5,1.0,1
2024-02-07T2200,3445A,113.7858,23.7478,广州市,从化良口,,12,1,3,1,2,37,,36,36,6,7,6,6,0.7,0.7
2024-02-07T2200,3446A,113.8051,23.2614,广州市,增城荔城,,9,2,9,1,7,27,,25,25,6,9,6,6,0.8,0.8
2024-02-07T2200,2505A,109.568,23.1478,贵港市,德智高中,,17,10,9,9,7,52,,48,48,6,7,4,4,1.0,1
2024-02-07T2200,2506A,109.6047,23.0666,贵港市,江南子站,,15,9,11,9,9,48,,44,44,7,8,5,5,0.9,1
2024-02-07T2200,2507A,109.6014,23.0948,贵港市,贵城子站,,17,17,13,8,10,44,,39,39,9,10,6,6,1.0,1.1
2024-02-07T2200,2508A,109.5669,23.1065,贵港市,荷城子站,,15,14,11,5,4,46,,42,42,7,7,8,8,1.1,1.1
2024-02-07T2200,3405A,109.5886,23.1172,贵港市,新世纪学校,,17,17,13,9,8,46,,42,42,6,7,4,4,1.0,1.1
2024-02-07T2200,1439A,106.6899,26.5998,贵阳市,马鞍山,,35,24,12,24,11,54,,50,49,7,7,8,8,0.5,0.5
2024-02-07T2200,1440A,106.6971,26.5694,贵阳市,市环保站,,39,,12,27,17,59,,59,51,11,10,7,7,0.4,0.5
2024-02-07T2200,1441A,106.6243,26.6266,贵阳市,鉴湖路,,42,39,19,29,10,50,,55,51,8,5,4,4,0.4,0.5
2024-02-07T2200,1442A,106.7487,26.6343,贵阳市,燕子冲,,28,27,15,19,14,57,,53,51,5,6,7,8,0.6,0.6
2024-02-07T2200,1443A,106.6555,26.4365,贵阳市,碧云窝,,41,41,24,27,12,55,,53,52,9,7,17,13,0.5,0.6
2024-02-07T2200,1444A,106.694,26.5161,贵阳市,中院村,,39,29,17,27,14,60,,59,54,11,10,13,11,0.5,0.5
2024-02-07T2200,1445A,106.7109,26.6027,贵阳市,红边门,,35,29,19,24,15,58,,52,47,5,8,7,9,0.4,0.6
2024-02-07T2200,1446A,106.7164,26.5699,贵阳市,新华路,,35,29,20,24,14,59,,57,52,10,8,4,5,0.9,0.6
2024-02-07T2200,1447A,106.674,26.5424,贵阳市,太慈桥,,32,29,20,22,10,58,,53,49,10,9,6,6,0.5,0.5
2024-02-07T2200,1862A,110.4144,25.3167,桂林市,电子科大尧山校区,,24,23,9,12,8,75,,75,74,5,5,4,4,0.7,0.8
2024-02-07T2200,1863A,110.2819,25.2697,桂林市,监测站,,29,29,12,20,12,68,,65,65,9,10,6,7,0.7,0.8
2024-02-07T2200,1864A,110.3089,25.2708,桂林市,龙隐路小学,,29,22,12,20,13,70,,69,69,6,7,4,4,0.7,0.8
2024-02-07T2200,1865A,110.2869,25.2178,桂林市,八中,,32,,9,22,12,67,,64,64,8,9,4,4,0.7,0.8
2024-02-07T2200,3403A,110.1764,25.2381,桂林市,创业大厦,,32,22,7,22,7,68,,67,67,5,5,5,6,0.7,0.8
2024-02-07T2200,3531A,110.296,25.1253,桂林市,旅游学院,,25,17,2,17,6,70,,70,70,5,7,4,3,0.8,0.9
2024-02-07T2200,2674A,100.2561,34.4714,果洛藏族自治州,玛沁县大武镇,,26,24,35,18,20,79,,98,94,15,13,13,14,0.4,0.5
2024-02-07T2200,1129A,126.5422,45.755,哈尔滨市,岭北,细颗粒物(PM2.5),173,131,182,131,161,106,,126,125,31,57,3,14,0.1,0.7
2024-02-07T2200,1130A,126.561,45.8167,哈尔滨市,松北商大,细颗粒物(PM2.5),183,155,163,138,141,102,,119,116,26,42,7,8,1.1,1.3
2024-02-07T2200,1131A,126.979,45.5419,哈尔滨市,阿城会宁,细颗粒物(PM2.5),211,162,153,161,140,98,,131,126,32,27,15,18,1.2,1.1
2024-02-07T2200,1132A,126.599,45.7222,哈尔滨市,南岗学府路,细颗粒物(PM2.5),175,207,212,132,151,89,,113,111,35,60,12,12,1.2,1.5
2024-02-07T2200,1133A,126.689,45.7733,哈尔滨市,太平宏伟公园,细颗粒物(PM2.5),180,178,230,136,181,86,,106,104,37,60,19,19,1.0,1.8
2024-02-07T2200,1134A,126.635,45.7667,哈尔滨市,道外承德广场,细颗粒物(PM2.5),212,205,180,162,141,60,,92,89,70,68,7,12,1.3,1.2
2024-02-07T2200,1135A,126.685,45.7319,哈尔滨市,香坊红旗大街,细颗粒物(PM2.5),261,223,201,211,188,50,,83,80,82,76,7,18,1.6,1.7
2024-02-07T2200,1136A,126.6411,45.7258,哈尔滨市,动力和平路,细颗粒物(PM2.5),196,176,176,147,161,84,,115,111,40,57,14,15,1.3,1.4
2024-02-07T2200,1137A,126.593,45.7478,哈尔滨市,道里建国路,细颗粒物(PM2.5),239,208,174,189,151,68,,98,93,53,56,7,10,1.1,1
2024-02-07T2200,1138A,126.615,45.61,哈尔滨市,平房东轻厂,细颗粒物(PM2.5),248,202,176,198,163,99,,128,121,41,36,11,11,1.7,1.2
2024-02-07T2200,1139A,126.595,45.9855,哈尔滨市,呼兰师专,细颗粒物(PM2.5),242,208,175,192,157,98,,107,107,36,46,11,16,1.3,1.3
2024-02-07T2200,1140A,126.6206,45.6842,哈尔滨市,省农科院,细颗粒物(PM2.5),248,232,196,198,161,103,,123,120,46,53,9,10,1.5,1.4
2024-02-07T2200,2688A,93.5128,42.8172,哈密市,地区监测站,颗粒物(PM10),56,61,55,24,32,58,,77,73,40,30,3,5,0.4,0.6
2024-02-07T2200,2689A,93.4961,42.8328,哈密市,哈密师范学校,,46,38,58,32,29,70,,79,77,28,37,6,6,0.5,0.6
2024-02-07T2200,2671A,100.9048,36.9639,海北藏族自治州,海晏县西海镇,,35,35,50,16,37,62,,92,82,9,14,3,15,0.3,0.7
2024-02-07T2200,3867A,102.0738,36.5056,海东市,平安区公安北苑,细颗粒物(PM2.5),83,82,67,61,53,81,,91,89,25,17,28,19,0.8,0.7
2024-02-07T2200,1410A,110.3232,20.0574,海口市,海南大学,,24,24,31,13,17,20,,53,34,13,8,9,9,0.9,0.5
2024-02-07T2200,1411A,110.283,20.0053,海口市,秀英海南医院,,18,18,25,11,17,20,,52,39,11,9,7,7,0.9,0.5
2024-02-07T2200,1412A,110.338,19.9969,海口市,海南师范大学,,18,17,25,12,17,21,,51,36,12,7,7,7,0.9,0.6
2024-02-07T2200,1413A,110.33,20.0356,海口市,龙华路环保局宿舍,,19,19,33,10,17,19,,50,33,13,9,7,7,1.0,0.5
2024-02-07T2200,3539A,110.5111,19.9736,海口市,桂林洋子站,,17,17,26,11,17,35,,48,,7,6,6,6,0.6,0.4
2024-02-07T2200,2673A,100.6188,36.2866,海南藏族自治州,共和县恰卜恰镇,,42,42,38,21,27,54,,95,82,30,16,12,11,0.8,0.5
2024-02-07T2200,2676A,97.3731,37.3753,海西蒙古族藏族自治州,德令哈市,,33,31,27,23,12,91,,103,102,14,8,13,13,0.5,0.5
2024-02-07T2200,1048A,114.5302,36.6116,邯郸市,东污水处理厂,细颗粒物(PM2.5),195,151,154,146,152,85,,100,95,17,30,5,7,1.1,1.3
2024-02-07T2200,1049A,114.4918,36.5713,邯郸市,矿院,细颗粒物(PM2.5),208,165,160,158,148,62,,92,87,32,32,6,7,1.1,1.3
2024-02-07T2200,1050A,114.484,36.6133,邯郸市,丛台公园,细颗粒物(PM2.5),175,152,159,132,139,82,,105,101,39,44,5,6,1.1,1.4
2024-02-07T2200,3458A,114.7895,36.5593,邯郸市,香泉濮院小区,细颗粒物(PM2.5),212,166,154,162,146,94,,112,109,21,27,13,15,1.2,1.2
2024-02-07T2200,3580A,114.20016,36.44293,邯郸市,峰峰矿区临水派出所,细颗粒物(PM2.5),173,138,163,131,156,93,,108,104,19,25,5,17,0.9,1.5
2024-02-07T2200,2634A,106.9893,33.1842,汉中市,汉川机床厂子校,细颗粒物(PM2.5),72,53,44,52,43,49,,83,71,7,6,3,3,0.8,0.7
2024-02-07T2200,2635A,107.0154,33.0706,汉中市,市监测站,细颗粒物(PM2.5),83,70,50,61,47,39,,72,61,29,16,8,7,1.3,0.9
2024-02-07T2200,2636A,107.0089,33.1138,汉中市,鑫源开发区,细颗粒物(PM2.5),92,69,46,68,52,75,,75,73,25,16,8,7,1.4,0.9
2024-02-07T2200,2637A,107.007,33.0323,汉中市,南郑大河坎水厂,细颗粒物(PM2.5),102,80,52,76,50,38,,85,79,20,13,10,9,1.3,0.9
2024-02-07T2200,1223A,120.2072,30.2111,杭州市,滨江,细颗粒物(PM2.5),84,78,67,62,58,62,,65,65,25,22,8,7,0.9,0.9
2024-02-07T2200,1224A,120.0633,30.2747,杭州市,西溪,细颗粒物(PM2.5),68,79,71,49,53,34,,66,60,18,17,7,7,0.8,0.8
2024-02-07T2200,1226A,120.3461,30.3153,杭州市,下沙,细颗粒物(PM2.5),104,102,84,78,64,58,,67,66,21,16,8,7,0.9,0.9
2024-02-07T2200,1227A,120.1269,30.2456,杭州市,卧龙桥,细颗粒物(PM2.5),78,70,69,57,59,32,,62,55,13,13,5,5,0.8,1
2024-02-07T2200,1228A,120.1903,30.2692,杭州市,浙江农大,细颗粒物(PM2.5),89,90,74,66,59,49,,62,60,26,21,8,9,0.9,0.9
2024-02-07T2200,1230A,120.1197,30.3119,杭州市,和睦小学,细颗粒物(PM2.5),77,77,64,56,51,45,,61,57,25,20,6,6,0.8,0.9
2024-02-07T2200,1231A,120.3019,30.4183,杭州市,临平镇,细颗粒物(PM2.5),104,115,93,78,65,54,,64,63,21,14,7,6,1.2,1.1
2024-02-07T2200,1232A,120.2697,30.1819,杭州市,城厢镇,细颗粒物(PM2.5),89,87,72,66,58,61,,64,64,27,23,7,6,1.0,0.9
2024-02-07T2200,1233A,120.0883,30.1808,杭州市,云栖,细颗粒物(PM2.5),64,63,62,46,49,34,,60,53,16,18,7,7,0.9,0.9
2024-02-07T2200,3557A,119.9464,30.0494,杭州市,镇二中,细颗粒物(PM2.5),80,,52,59,55,40,,56,54,25,21,6,6,0.9,0.9
2024-02-07T2200,3558A,119.7183,30.2367,杭州市,市府大楼,细颗粒物(PM2.5),83,72,63,61,57,46,,68,66,19,15,4,4,0.9,0.9
2024-02-07T2200,3656A,120.1556,30.2864,杭州市,消防大队,细颗粒物(PM2.5),87,84,68,64,58,47,,64,61,33,23,8,8,0.9,0.9
2024-02-07T2200,1270A,117.1959,31.7848,合肥市,明珠广场,细颗粒物(PM2.5),119,112,83,90,61,69,,101,97,43,28,7,8,1.2,1
2024-02-07T2200,1271A,117.3072,31.8764,合肥市,三里街,细颗粒物(PM2.5),153,136,85,117,69,85,,106,104,55,29,8,7,1.1,0.8
2024-02-07T2200,1272A,117.2588,31.8707,合肥市,琥珀山庄,细颗粒物(PM2.5),128,124,82,97,58,76,,109,106,57,23,7,7,1.3,1
2024-02-07T2200,1273A,117.1604,31.9052,合肥市,董铺水库,细颗粒物(PM2.5),104,105,88,78,63,89,,113,111,17,8,4,4,0.9,0.8
2024-02-07T2200,1274A,117.25,31.8571,合肥市,长江中路,细颗粒物(PM2.5),142,122,81,108,70,93,,109,109,46,24,9,8,1.2,1
2024-02-07T2200,1275A,117.266,31.9436,合肥市,庐阳区,细颗粒物(PM2.5),100,100,84,75,57,95,,107,106,31,20,5,6,1.1,1
2024-02-07T2200,1276A,117.336,31.8586,合肥市,瑶海区,细颗粒物(PM2.5),150,139,84,115,68,100,,107,107,46,22,7,4,1.1,0.8
2024-02-07T2200,1277A,117.3027,31.7964,合肥市,包河区,细颗粒物(PM2.5),147,129,84,112,66,84,,98,96,49,29,5,4,1.3,1.1
2024-02-07T2200,1278A,117.2776,31.7385,合肥市,滨湖新区,细颗粒物(PM2.5),125,122,87,95,67,,,101,101,47,19,7,6,1.1,0.9
2024-02-07T2200,1279A,117.1318,31.8403,合肥市,高新区,细颗粒物(PM2.5),125,117,85,95,67,94,,108,108,37,24,5,5,1.1,0.9
2024-02-07T2200,3464A,117.3803,31.9147,合肥市,高教基地,细颗粒物(PM2.5),132,129,86,100,61,107,,111,111,19,17,6,6,1.0,0.8
2024-02-07T2200,3614A,79.924,37.0877,和田地区,地区环保局,颗粒物(PM10),63,76,70,44,39,55,,72,67,38,29,10,13,0.9,0.8
2024-02-07T2200,3615A,79.9131,37.113,和田地区,市环保局,,49,46,51,34,33,62,,78,74,34,32,6,7,2.6,3.4
2024-02-07T2200,2516A,108.2011,24.715,河池市,东仁乐园,,14,11,8,7,6,43,,42,42,3,3,3,3,0.8,0.8
2024-02-07T2200,2517A,108.0497,24.6947,河池市,市环保站,,16,10,9,10,7,51,,55,53,7,8,6,6,0.6,0.6
2024-02-07T2200,2518A,108.0983,24.6989,河池市,市疾控中心,,18,7,8,7,4,57,,57,57,7,7,7,7,0.6,0.6
2024-02-07T2200,1696A,114.6778,23.7569,河源市,源西,,11,2,6,1,3,35,,33,33,5,6,4,4,0.9,0.9
2024-02-07T2200,1697A,114.6944,23.7586,河源市,东埔,,11,6,8,4,6,35,,32,32,7,6,6,6,0.7,0.8
2024-02-07T2200,1698A,114.6892,23.7233,河源市,老城,,11,,9,3,5,35,,32,32,8,8,5,5,0.8,0.9
2024-02-07T2200,1718A,115.4208,35.2464,菏泽市,气象局,细颗粒物(PM2.5),201,185,136,151,119,74,,125,114,50,28,5,5,1.4,1
2024-02-07T2200,1719A,115.4747,35.2375,菏泽市,市政协,细颗粒物(PM2.5),192,188,141,144,116,72,,118,109,45,28,6,6,1.3,1
2024-02-07T2200,3374A,115.5564,35.0891,菏泽市,定陶老年大学,细颗粒物(PM2.5),233,202,143,183,123,80,,120,110,42,30,5,5,1.4,1
2024-02-07T2200,3647A,115.4702,35.2706,菏泽市,菏泽医专,细颗粒物(PM2.5),155,146,129,118,114,99,,123,118,28,24,6,7,1.0,1
2024-02-07T2200,2514A,111.5264,24.4172,贺州市,环保小区,,18,,9,12,8,55,,60,60,13,9,7,8,0.7,0.8
2024-02-07T2200,2515A,111.5608,24.4078,贺州市,政协大楼,,18,18,14,9,6,55,,55,55,9,8,7,7,0.9,1
2024-02-07T2200,3534A,111.4744,24.4553,贺州市,西湾,,22,16,11,15,10,57,,57,57,7,7,6,7,0.7,0.9
2024-02-07T2200,2385A,114.17,35.9019,鹤壁市,市监测站,细颗粒物(PM2.5),207,198,172,157,152,30,,97,82,38,28,3,6,1.3,1.4
2024-02-07T2200,2386A,114.2956,35.7511,鹤壁市,市交警支队,细颗粒物(PM2.5),180,165,166,136,139,67,,98,92,32,32,12,8,1.0,1.3
2024-02-07T2200,2387A,114.2878,35.7306,鹤壁市,迎宾馆,细颗粒物(PM2.5),170,134,136,129,143,74,,101,96,31,33,11,10,1.0,1.4
2024-02-07T2200,3474A,114.2617,35.6822,鹤壁市,大新区,细颗粒物(PM2.5),186,148,140,140,142,53,,99,86,48,36,8,8,1.2,1.2
2024-02-07T2200,3596A,114.1572,35.9603,鹤壁市,南山宾馆,细颗粒物(PM2.5),179,148,165,135,156,78,,100,94,20,21,15,13,1.2,1.6
2024-02-07T2200,2244A,130.2537,47.3416,鹤岗市,哈啤分公司,,33,33,28,22,19,83,,73,73,6,11,17,17,0.7,0.8
2024-02-07T2200,2245A,130.2684,47.3086,鹤岗市,斯达机电,,43,37,42,30,27,88,,84,84,9,15,13,12,0.3,0.4
2024-02-07T2200,2246A,130.3114,47.3388,鹤岗市,东山纸板厂,,46,,60,32,41,98,,82,82,6,32,14,18,0.4,1.2
2024-02-07T2200,2247A,130.1097,47.3382,鹤岗市,五号水库,,30,30,17,14,12,95,,88,88,6,8,13,10,0.5,0.5
2024-02-07T2200,2263A,127.4833,50.2524,黑河市,交通局,,30,,25,21,18,69,,66,65,8,14,6,7,0.4,0.5
2024-02-07T2200,2264A,127.5144,50.2341,黑河市,环保局,,32,,35,22,28,69,,62,62,8,24,4,7,0.4,0.6
2024-02-07T2200,2265A,127.5291,50.2472,黑河市,大黑河岛,,,16,31,10,27,70,,67,67,82,111,10,16,,
2024-02-07T2200,1074A,115.6838,37.7541,衡水市,电机北厂,细颗粒物(PM2.5),159,172,112,121,93,32,,92,82,45,26,6,4,1.2,0.9
2024-02-07T2200,1075A,115.6303,37.7316,衡水市,市监测站,细颗粒物(PM2.5),168,150,96,127,85,46,,89,81,41,26,6,4,1.1,0.8
2024-02-07T2200,3188A,115.6683,37.7217,衡水市,市城管局,细颗粒物(PM2.5),149,120,96,114,90,53,,92,87,32,22,6,7,1.0,0.9
2024-02-07T2200,3459A,115.5989,37.5491,衡水市,地表水厂,细颗粒物(PM2.5),166,128,97,126,94,5,,98,72,101,42,16,4,1.2,1
2024-02-07T2200,2456A,112.5003,26.9167,衡阳市,原169医院,细颗粒物(PM2.5),62,58,41,44,28,77,,89,82,17,12,7,3,1.0,1
2024-02-07T2200,2457A,112.6194,26.9258,衡阳市,衡阳化工总厂,细颗粒物(PM2.5),89,,40,66,43,77,,79,75,13,11,5,5,1.1,1
2024-02-07T2200,2458A,112.6211,26.8956,衡阳市,珠晖区环保局,细颗粒物(PM2.5),84,,37,62,40,72,,71,70,13,12,6,6,1.1,1
2024-02-07T2200,2459A,112.6197,26.8733,衡阳市,市委党校,细颗粒物(PM2.5),105,84,40,79,43,76,,81,81,14,11,9,7,1.0,0.9
2024-02-07T2200,2460A,112.6006,26.8919,衡阳市,市监测站,细颗粒物(PM2.5),99,80,45,74,43,81,,80,79,15,14,6,6,1.0,0.9
2024-02-07T2200,2461A,112.5664,26.9056,衡阳市,真空机电公司,细颗粒物(PM2.5),82,,36,60,42,79,,78,78,15,13,5,5,0.9,1
2024-02-07T2200,3399A,112.6703,26.882,衡阳市,师范学院,细颗粒物(PM2.5),95,72,40,71,39,84,,83,83,10,9,7,8,0.9,0.9
2024-02-07T2200,2608A,103.3772,23.3993,红河哈尼族彝族自治州,污水处理厂,细颗粒物(PM2.5),68,75,53,49,41,82,,100,95,8,7,7,8,0.5,0.4
2024-02-07T2200,2609A,103.3861,23.35,红河哈尼族彝族自治州,监测站,细颗粒物(PM2.5),100,81,52,75,40,62,,99,89,20,7,9,12,0.8,0.5
2024-02-07T2200,3038A,103.3758,23.368,红河哈尼族彝族自治州,州图书馆,细颗粒物(PM2.5),69,63,43,50,36,71,,95,89,14,6,8,7,0.6,0.5
2024-02-07T2200,1090A,111.6507,40.7517,呼和浩特市,呼市一监,细颗粒物(PM2.5),135,110,68,103,61,59,,83,77,39,32,4,6,0.9,0.7
2024-02-07T2200,1091A,111.6572,40.8033,呼和浩特市,小召,细颗粒物(PM2.5),112,124,62,84,41,41,,74,67,64,41,7,7,1.4,0.8
2024-02-07T2200,1094A,111.7516,40.8369,呼和浩特市,如意水处理厂,细颗粒物(PM2.5),104,78,42,78,40,20,,78,51,78,47,14,11,1.0,0.7
2024-02-07T2200,1095A,111.7276,40.8062,呼和浩特市,二十九中,细颗粒物(PM2.5),115,119,52,87,37,32,,75,55,56,37,10,10,0.9,0.7
2024-02-07T2200,1096A,111.5512,40.7866,呼和浩特市,工大金川校区,细颗粒物(PM2.5),134,111,90,102,68,43,,75,68,52,38,6,8,0.9,0.9
2024-02-07T2200,1097A,111.717,40.7612,呼和浩特市,化肥厂生活区,细颗粒物(PM2.5),150,128,54,115,45,39,,81,69,60,29,14,10,1.2,0.8
2024-02-07T2200,3698A,111.5968,40.8178,呼和浩特市,红旗小学,细颗粒物(PM2.5),118,107,60,89,43,10,,68,55,86,44,8,8,1.0,0.7
2024-02-07T2200,3699A,111.6518,40.8389,呼和浩特市,海东办,细颗粒物(PM2.5),90,88,51,67,36,25,,70,61,74,48,21,10,0.7,0.6
2024-02-07T2200,2192A,119.7594,49.2261,呼伦贝尔市,区环保局,,40,34,20,28,16,53,,84,76,35,14,4,4,0.5,0.4
2024-02-07T2200,3061A,119.7512,49.1577,呼伦贝尔市,国华电力东,,48,,20,33,17,78,,87,80,9,8,3,4,0.2,0.2
2024-02-07T2200,1250A,120.0751,30.8669,湖州市,城西水厂,细颗粒物(PM2.5),80,79,72,59,59,39,,71,65,35,24,4,4,0.7,0.8
2024-02-07T2200,2873A,120.0875,30.8955,湖州市,仁皇山新区,细颗粒物(PM2.5),84,77,68,62,56,51,,71,67,27,24,6,6,0.8,0.8
2024-02-07T2200,2907A,120.1844,30.8596,湖州市,吴兴区站,细颗粒物(PM2.5),85,82,68,63,55,51,,74,70,25,22,6,6,0.8,0.7
2024-02-07T2200,3562A,120.4148,30.8538,湖州市,南浔区站,细颗粒物(PM2.5),99,97,64,74,50,69,,72,72,24,25,7,8,0.7,0.7
2024-02-07T2200,1607A,120.9092,40.7136,葫芦岛市,龙港区,细颗粒物(PM2.5),54,48,85,38,63,74,,89,83,25,36,31,24,0.5,0.8
2024-02-07T2200,1608A,120.8392,40.7514,葫芦岛市,化工街,细颗粒物(PM2.5),144,158,91,110,61,11,,76,58,71,35,26,21,1.7,1.4
2024-02-07T2200,1609A,120.8341,40.7073,葫芦岛市,新区,细颗粒物(PM2.5),84,76,92,62,69,54,,82,73,40,47,16,19,0.7,1
2024-02-07T2200,1610A,120.8695,40.7677,葫芦岛市,东城区,细颗粒物(PM2.5),168,,83,127,67,10,,78,52,78,42,25,33,2.0,1.5
2024-02-07T2200,2482A,109.5981,27.5721,怀化市,林科所,细颗粒物(PM2.5),62,46,32,44,33,77,,82,81,4,4,9,9,1.0,0.8
2024-02-07T2200,2483A,109.9453,27.5444,怀化市,河西地税局,细颗粒物(PM2.5),88,69,52,65,49,73,,78,77,5,3,4,3,1.1,1
2024-02-07T2200,2484A,109.9781,27.5342,怀化市,市四医院,细颗粒物(PM2.5),88,69,55,65,51,68,,73,68,4,4,3,2,0.9,0.7
2024-02-07T2200,2485A,109.9972,27.5578,怀化市,监测楼,细颗粒物(PM2.5),73,62,45,53,41,61,,72,64,7,6,4,4,0.8,0.7
2024-02-07T2200,2486A,110.0394,27.583,怀化市,市委党校,细颗粒物(PM2.5),84,69,53,62,49,64,,72,68,5,3,4,4,0.7,0.7
2024-02-07T2200,1210A,119.036,33.5981,淮安市,钵池山,细颗粒物(PM2.5),182,151,111,137,100,84,,117,111,42,30,8,10,1.3,1.1
2024-02-07T2200,1211A,119.007,33.575,淮安市,北京南路,细颗粒物(PM2.5),163,146,111,124,94,57,,134,117,70,32,7,10,1.5,1.3
2024-02-07T2200,1212A,118.989,33.6067,淮安市,市监测站,细颗粒物(PM2.5),185,151,120,139,105,80,,134,121,44,30,8,10,1.8,1.5
2024-02-07T2200,1213A,119.135,33.5039,淮安市,楚州区监测站,细颗粒物(PM2.5),175,166,114,132,93,77,,130,119,47,30,8,10,1.6,1.3
2024-02-07T2200,1214A,119.0186,33.6297,淮安市,淮阴区监测站,细颗粒物(PM2.5),203,195,138,153,108,81,,130,118,58,37,8,8,1.4,1.2
2024-02-07T2200,3426A,118.8755,33.2894,淮安市,新华书店,细颗粒物(PM2.5),176,146,133,133,113,93,,119,102,46,40,8,12,1.2,1.3
2024-02-07T2200,2282A,116.8004,33.975,淮北市,监测站,细颗粒物(PM2.5),186,188,141,140,107,105,,116,115,28,34,7,9,1.1,1.2
2024-02-07T2200,2283A,116.8091,33.9007,淮北市,烈山区政府,细颗粒物(PM2.5),207,185,146,157,124,100,,117,112,29,29,6,7,1.1,1
2024-02-07T2200,3330A,116.8873,33.9836,淮北市,杜集区检察院,细颗粒物(PM2.5),215,185,156,165,130,116,,127,125,22,23,9,9,1.1,1.1
2024-02-07T2200,4017A,116.7923,33.9535,淮北市,市博物馆,细颗粒物(PM2.5),215,216,158,165,125,100,,119,117,33,36,8,10,1.2,1.2
2024-02-07T2200,2277A,116.8305,32.7727,淮南市,潘集区政府,细颗粒物(PM2.5),205,176,150,155,129,134,,147,147,39,34,10,9,1.2,1
2024-02-07T2200,2278A,117.0067,32.6524,淮南市,师范学院,细颗粒物(PM2.5),215,211,141,165,112,100,,141,136,66,32,10,10,1.4,1
2024-02-07T2200,2279A,116.8569,32.5951,淮南市,谢家集区政府,细颗粒物(PM2.5),163,147,123,124,106,155,,148,148,33,31,10,10,1.0,1
2024-02-07T2200,2280A,116.8281,32.633,淮南市,八公山区政府,细颗粒物(PM2.5),149,136,126,114,103,160,,151,151,25,25,8,6,1.0,0.9
2024-02-07T2200,2281A,116.6325,32.6201,淮南市,焦岗湖风景区管理处,细颗粒物(PM2.5),159,164,116,121,91,102,,129,124,37,25,3,3,0.9,0.6
2024-02-07T2200,2894A,117.0566,32.6531,淮南市,经济技术开发区消防队,细颗粒物(PM2.5),229,200,139,179,113,133,,142,142,28,20,12,8,1.3,1
2024-02-07T2200,3329A,117.0108,32.5893,淮南市,山南新区,细颗粒物(PM2.5),216,171,119,166,105,135,,141,141,35,22,9,8,1.1,0.8
2024-02-07T2200,2446A,114.9028,30.4742,黄冈市,职工中心,细颗粒物(PM2.5),109,97,80,82,74,79,,92,89,15,9,7,8,0.7,0.7
2024-02-07T2200,2929A,114.8858,30.4519,黄冈市,红卫路,细颗粒物(PM2.5),109,91,80,82,73,73,,82,78,14,12,5,5,0.8,0.8
2024-02-07T2200,3398A,114.9136,30.4445,黄冈市,市林业局,细颗粒物(PM2.5),103,88,74,77,66,77,,86,86,22,13,8,7,0.7,0.6
2024-02-07T2200,2672A,102.0199,35.5102,黄南藏族自治州,同仁县隆务镇,,41,41,55,23,44,78,,92,85,8,12,3,10,0.5,0.7
2024-02-07T2200,2295A,118.2903,29.6963,黄山市,延安路89号,细颗粒物(PM2.5),57,59,55,40,35,60,,59,59,10,10,5,5,0.4,0.5
2024-02-07T2200,2296A,118.327,29.7178,黄山市,黄山东路89号,,43,42,45,30,35,57,,56,56,12,11,4,4,0.6,0.8
2024-02-07T2200,2297A,118.1371,30.2756,黄山市,黄山区政府5号楼,细颗粒物(PM2.5),59,58,70,42,56,35,,56,53,16,17,4,4,0.8,0.8
2024-02-07T2200,2423A,115.0601,30.2313,黄石市,沈家营,细颗粒物(PM2.5),132,103,82,100,74,79,,67,,21,19,17,8,1.0,0.9
2024-02-07T2200,2424A,115.0817,30.2006,黄石市,陈家湾,细颗粒物(PM2.5),153,,89,117,95,68,,68,66,24,24,9,7,1.0,0.8
2024-02-07T2200,2426A,114.8988,30.2019,黄石市,铁山,细颗粒物(PM2.5),144,,72,110,98,85,,84,84,25,22,6,5,1.1,0.9
2024-02-07T2200,2427A,115.0307,30.2092,黄石市,团城山,细颗粒物(PM2.5),108,100,84,81,72,84,,75,75,18,16,6,5,1.1,0.9
2024-02-07T2200,3149A,115.0235,30.1578,黄石市,笔架山北路,细颗粒物(PM2.5),124,,77,94,80,73,,73,73,25,20,6,6,1.4,1.2
2024-02-07T2200,1392A,114.4183,23.0528,惠州市,河南岸金山湖子站,,9,4,11,2,7,28,,41,30,10,8,5,4,0.8,0.7
2024-02-07T2200,1393A,114.4053,23.0822,惠州市,下埔横江三路子站,,10,2,11,2,7,32,,40,32,10,9,4,4,0.9,0.8
2024-02-07T2200,1394A,114.4103,23.1142,惠州市,江北云山西路子站,,10,,10,4,6,30,,38,30,6,6,7,7,0.7,0.8
2024-02-07T2200,1395A,114.4645,22.7833,惠州市,惠阳区承修路船湖子站,,8,4,16,2,8,24,,51,25,10,10,6,6,0.8,0.8
2024-02-07T2200,1396A,114.5317,22.7422,惠州市,大亚湾管委会子站,,8,6,16,2,8,22,,65,24,10,10,5,5,0.8,0.7
2024-02-07T2200,3314A,114.4338,22.8134,惠州市,惠阳秋长,,9,5,16,0,6,28,,57,28,2,4,6,6,0.7,0.8
2024-02-07T2200,3452A,114.6517,22.775,惠州市,大亚湾霞涌,,8,4,14,2,9,20,,55,20,7,7,7,6,0.8,0.8
2024-02-07T2200,2240A,130.9762,45.3001,鸡西市,环保局,细颗粒物(PM2.5),55,43,38,39,33,77,,69,67,13,13,7,8,0.1,0.3
2024-02-07T2200,2243A,130.9429,45.3039,鸡西市,第一中学,细颗粒物(PM2.5),53,38,41,37,33,84,,88,87,11,12,10,11,0.3,0.3
2024-02-07T2200,3707A,131.0207,45.3073,鸡西市,欧美日汽修厂,细颗粒物(PM2.5),74,55,59,54,53,68,,73,71,23,30,25,49,1.3,2.2
2024-02-07T2200,3709A,130.9967,45.3106,鸡西市,市政设施管理处,细颗粒物(PM2.5),84,64,50,62,40,64,,87,75,30,29,2,3,0.6,0.6
2024-02-07T2200,2367A,114.9754,27.0803,吉安市,红声器材厂,细颗粒物(PM2.5),63,64,37,45,17,50,,50,50,17,17,10,11,1.1,0.9
2024-02-07T2200,2368A,114.9658,27.0999,吉安市,市森林工业局,细颗粒物(PM2.5),68,57,26,49,20,51,,52,52,13,11,6,6,0.5,0.4
2024-02-07T2200,2369A,114.99,27.1312,吉安市,市环境监测站,细颗粒物(PM2.5),64,58,27,46,19,51,,50,50,18,17,5,6,0.6,0.6
2024-02-07T2200,2370A,115.0093,27.0968,吉安市,青原区法院,细颗粒物(PM2.5),72,56,26,52,19,48,,54,54,18,15,11,8,0.8,0.7
2024-02-07T2200,1772A,126.54,43.8622,吉林市,哈达湾,细颗粒物(PM2.5),90,81,99,67,84,97,,102,101,26,36,9,13,0.9,1
2024-02-07T2200,1773A,126.5844,43.8358,吉林市,东局子,细颗粒物(PM2.5),170,152,113,129,96,14,,83,54,83,50,12,13,1.8,1.4
2024-02-07T2200,1774A,126.5052,43.8245,吉林市,电力学院,细颗粒物(PM2.5),251,205,127,201,117,17,,106,70,81,42,24,16,2.9,1.5
2024-02-07T2200,1775A,126.6133,43.8972,吉林市,江北,细颗粒物(PM2.5),180,160,132,136,105,36,,84,61,66,48,15,17,2.1,1.6
2024-02-07T2200,1776A,126.555,43.8306,吉林市,江南公园,细颗粒物(PM2.5),234,202,128,184,115,16,,88,66,92,55,10,13,2.2,1.4
2024-02-07T2200,2868A,126.4739,43.953,吉林市,九站,细颗粒物(PM2.5),92,79,146,68,124,96,,111,105,29,57,12,9,1.1,1.4
2024-02-07T2200,1299A,116.9862,36.6114,济南市,科干所,细颗粒物(PM2.5),70,61,87,51,68,68,,91,83,30,35,9,10,1.0,1
2024-02-07T2200,1300A,116.9376,36.665,济南市,农科所,细颗粒物(PM2.5),77,78,97,56,73,52,,89,78,38,47,11,11,0.8,1.1
2024-02-07T2200,1301A,117.1265,36.6734,济南市,开发区,细颗粒物(PM2.5),70,68,83,51,65,37,,82,64,48,38,7,7,1.3,1
2024-02-07T2200,1303A,117.0624,36.6868,济南市,省种子仓库,细颗粒物(PM2.5),83,95,96,61,69,64,,92,82,36,44,16,9,0.9,0.9
2024-02-07T2200,1304A,116.9489,36.6447,济南市,机床二厂,细颗粒物(PM2.5),108,115,102,81,82,45,,99,88,52,46,43,27,1.3,1.5
2024-02-07T2200,1305A,117.0495,36.663,济南市,市监测站,细颗粒物(PM2.5),77,81,87,56,68,63,,93,85,50,46,17,13,0.8,0.8
2024-02-07T2200,1306A,116.7675,36.5484,济南市,长清党校,细颗粒物(PM2.5),119,112,115,90,92,71,,101,95,37,43,12,11,1.0,1
2024-02-07T2200,1616A,117.6795,36.229,济南市,技术学院,细颗粒物(PM2.5),98,92,104,73,88,59,,94,86,48,55,10,10,1.3,1.4
2024-02-07T2200,1961A,117.532,36.6868,济南市,东山小学,细颗粒物(PM2.5),98,85,84,73,67,63,,97,83,29,24,10,7,0.5,0.5
2024-02-07T2200,3059A,117.7161,36.2049,济南市,泰兴公司,细颗粒物(PM2.5),140,149,121,107,98,6,,93,78,93,51,17,10,1.3,1.5
2024-02-07T2200,3064A,117.6867,36.2171,济南市,莱芜战役纪念馆,细颗粒物(PM2.5),104,129,117,78,92,36,,90,80,60,52,12,10,1.0,1.2
2024-02-07T2200,3494A,117.1673,36.9782,济南市,济阳区政府,细颗粒物(PM2.5),110,105,104,83,79,78,,94,88,26,30,16,13,0.8,0.8
2024-02-07T2200,3495A,117.1171,36.63,济南市,锦屏中学,细颗粒物(PM2.5),62,56,76,44,63,54,,91,74,38,33,6,7,0.7,0.7
2024-02-07T2200,3682A,116.9814,36.6819,济南市,济南四建,细颗粒物(PM2.5),89,78,89,66,79,65,,88,85,36,49,15,18,0.9,1.1
2024-02-07T2200,1653A,116.6251,35.4302,济宁市,火炬城,细颗粒物(PM2.5),144,114,114,110,102,71,,96,91,38,32,10,6,1.2,1.2
2024-02-07T2200,1655A,116.5491,35.4042,济宁市,电化厂,细颗粒物(PM2.5),170,169,148,129,117,73,,95,87,37,33,15,11,1.1,1.2
2024-02-07T2200,3500A,116.5814,35.3707,济宁市,北湖一中,细颗粒物(PM2.5),160,133,119,122,105,74,,97,91,29,28,8,7,1.1,1
2024-02-07T2200,3501A,116.8249,35.5593,济宁市,服务中心,细颗粒物(PM2.5),153,158,163,117,121,73,,104,97,29,28,10,7,1.1,1.2
2024-02-07T2200,3678A,116.5907,35.4054,济宁市,市第七中学,细颗粒物(PM2.5),153,141,118,117,105,72,,96,92,35,28,9,7,1.1,1
2024-02-07T2200,2255A,130.2751,46.8028,佳木斯市,佳纺,细颗粒物(PM2.5),69,57,81,50,74,86,,100,96,20,31,11,9,0.6,1
2024-02-07T2200,2256A,130.3995,46.8307,佳木斯市,发电厂,细颗粒物(PM2.5),63,55,64,45,54,87,,95,91,19,30,16,14,0.5,0.8
2024-02-07T2200,2257A,130.3258,46.7975,佳木斯市,环保局,细颗粒物(PM2.5),74,60,71,54,67,80,,96,90,25,36,9,10,0.4,0.7
2024-02-07T2200,2258A,130.3648,46.8032,佳木斯市,十一中,细颗粒物(PM2.5),70,63,81,51,75,85,,90,88,18,42,8,8,0.6,1
2024-02-07T2200,2259A,130.3794,46.7588,佳木斯市,四丰,,49,49,68,32,44,114,,129,124,2,5,1,1,0.3,0.5
2024-02-07T2200,1252A,120.7436,30.778,嘉兴市,清河小学,细颗粒物(PM2.5),97,88,60,72,48,55,,61,59,20,17,6,6,1.0,1
2024-02-07T2200,1253A,120.726,30.7478,嘉兴市,嘉兴学院,细颗粒物(PM2.5),82,95,63,60,44,61,,64,63,24,25,6,6,0.7,0.8
2024-02-07T2200,2872A,120.7846,30.7525,嘉兴市,南湖区残联,细颗粒物(PM2.5),90,101,69,67,47,61,,70,65,25,21,7,7,0.9,0.9
2024-02-07T2200,3407A,120.6916,30.7739,嘉兴市,秀洲住建,细颗粒物(PM2.5),98,91,63,73,51,54,,60,58,23,22,10,10,0.8,0.8
2024-02-07T2200,1945A,98.2908,39.7711,嘉峪关市,气象局,"颗粒物(PM10),细颗粒物(PM2.5)",58,66,66,41,41,57,,90,84,23,19,6,5,0.5,0.4
2024-02-07T2200,2884A,98.2672,39.7978,嘉峪关市,酒钢宾馆,颗粒物(PM10),63,75,69,44,41,55,,87,81,28,22,3,4,0.6,0.6
2024-02-07T2200,3248A,98.2643,39.7724,嘉峪关市,雄关区,细颗粒物(PM2.5),57,62,63,40,34,51,,89,82,30,26,4,6,0.4,0.5
2024-02-07T2200,1383A,113.1064,22.6058,江门市,北街,,12,12,7,6,6,23,,21,21,20,21,6,6,1.0,1
2024-02-07T2200,1384A,113.0731,22.5835,江门市,西区,,11,11,10,5,7,20,,18,18,16,17,6,6,1.0,0.9
2024-02-07T2200,1385A,113.0219,22.5311,江门市,圭峰西,,9,5,7,5,8,26,,25,25,10,13,5,5,0.9,0.8
2024-02-07T2200,1386A,113.0828,22.5947,江门市,东湖,,10,10,10,2,5,22,,20,20,17,17,5,6,0.9,0.8
2024-02-07T2200,3311A,113.1075,22.5647,江门市,江海富民,,25,,16,17,12,23,,20,20,17,18,5,6,0.8,0.8
2024-02-07T2200,3449A,113.05,22.4667,江门市,新会银湖,,10,10,9,6,9,27,,25,25,12,14,5,5,1.0,0.9
2024-02-07T2200,1828A,113.227,35.2125,焦作市,市环保局,细颗粒物(PM2.5),254,267,200,204,178,34,,88,78,55,35,9,7,2.0,1.6
2024-02-07T2200,3169A,113.2725,35.2067,焦作市,太极体育中心,细颗粒物(PM2.5),269,263,213,219,191,39,,94,83,56,35,6,8,2.0,1.8
2024-02-07T2200,3335A,113.3137,35.2641,焦作市,马村街道办,细颗粒物(PM2.5),254,235,193,204,177,45,,87,69,45,28,9,9,1.6,1.4
2024-02-07T2200,3336A,113.2465,35.2373,焦作市,焦作技师学院,细颗粒物(PM2.5),255,237,189,205,166,38,,92,69,54,33,13,13,2.1,1.6
2024-02-07T2200,3477A,113.1656,35.2539,焦作市,中站许衡医院,细颗粒物(PM2.5),214,200,186,164,155,68,,90,78,35,34,8,9,1.3,1.4
2024-02-07T2200,3981A,113.2449,35.1803,焦作市,原李万街道办,细颗粒物(PM2.5),313,307,206,263,184,49,,92,84,62,46,6,6,2.0,1.6
2024-02-07T2200,1708A,116.3701,23.5345,揭阳市,新兴,,15,,20,10,22,10,,59,15,14,13,7,7,1.2,0.9
2024-02-07T2200,1709A,116.3264,23.5443,揭阳市,西马,,9,8,24,3,21,16,,62,20,10,10,7,7,0.9,0.8
2024-02-07T2200,1710A,116.3611,23.5626,揭阳市,东兴,,12,11,21,8,19,12,,62,16,13,10,8,8,1.1,0.9
2024-02-07T2200,1711A,116.4151,23.5294,揭阳市,渔湖,,9,,20,5,13,12,,59,14,11,12,6,7,0.9,0.8
2024-02-07T2200,3320A,116.403,23.5699,揭阳市,曲溪,,13,12,22,9,15,13,,62,15,13,12,2,2,1.0,0.8
2024-02-07T2200,1944A,102.1692,38.5167,金昌市,天庆家园,细颗粒物(PM2.5),100,90,84,75,50,76,,87,83,29,25,2,13,0.9,0.8
2024-02-07T2200,3170A,102.1864,38.5253,金昌市,市委党校,细颗粒物(PM2.5),100,110,109,75,75,79,,90,90,21,21,5,10,0.9,1
2024-02-07T2200,4022A,102.1647,38.5371,金昌市,金川区人防中心,细颗粒物(PM2.5),82,94,98,60,61,85,,91,91,16,18,6,10,0.7,1
2024-02-07T2200,1262A,119.647,29.077,金华市,十五中,细颗粒物(PM2.5),54,46,34,38,31,53,,58,55,20,21,2,2,0.7,0.7
2024-02-07T2200,1263A,119.686,29.1029,金华市,监测站,细颗粒物(PM2.5),64,52,37,46,33,55,,63,60,16,16,2,2,0.6,0.8
2024-02-07T2200,3659A,119.656,29.1131,金华市,气象局,细颗粒物(PM2.5),62,48,36,44,31,54,,58,54,18,20,2,2,0.6,0.9
2024-02-07T2200,1767A,121.1115,41.0879,锦州市,南山,细颗粒物(PM2.5),93,,69,69,62,62,,87,76,34,31,40,17,1.0,1.3
2024-02-07T2200,1768A,121.0533,40.8434,锦州市,开发区,细颗粒物(PM2.5),105,84,68,79,55,33,,82,62,56,34,34,27,0.9,0.9
2024-02-07T2200,1769A,121.1836,41.1119,锦州市,百股街道,细颗粒物(PM2.5),138,,67,105,52,22,,88,62,55,29,55,24,1.7,1
2024-02-07T2200,1770A,121.1178,41.1222,锦州市,天安街道,细颗粒物(PM2.5),172,140,70,130,53,21,,79,54,64,34,23,13,1.6,1
2024-02-07T2200,1771A,121.1303,41.1386,锦州市,北湖公园,细颗粒物(PM2.5),135,,54,103,52,43,,86,67,46,25,32,20,1.2,0.9
2024-02-07T2200,2160A,112.85,35.5051,晋城市,自来水公司,细颗粒物(PM2.5),199,,157,149,145,97,,107,106,27,33,10,8,1.6,2.1
2024-02-07T2200,2161A,112.8318,35.4936,晋城市,白云商贸,细颗粒物(PM2.5),178,157,154,134,124,88,,102,100,30,30,10,8,1.3,1.7
2024-02-07T2200,2162A,112.8508,35.4887,晋城市,市环保局,细颗粒物(PM2.5),188,168,172,141,134,92,,102,101,27,34,8,8,1.4,1.9
2024-02-07T2200,2163A,112.8676,35.4897,晋城市,技术学院,细颗粒物(PM2.5),195,174,173,146,146,79,,100,96,40,40,8,8,1.4,1.8
2024-02-07T2200,3620A,112.8271,35.4828,晋城市,泽州一中,细颗粒物(PM2.5),168,167,144,127,114,78,,99,96,42,37,10,8,1.5,1.8
2024-02-07T2200,2171A,112.7532,37.6945,晋中市,锦纶小区,细颗粒物(PM2.5),156,153,98,119,74,37,,93,85,57,30,20,12,1.0,0.8
2024-02-07T2200,2173A,112.7249,37.7067,晋中市,南都小区,细颗粒物(PM2.5),172,193,109,130,70,52,,92,88,61,38,17,13,1.2,1
2024-02-07T2200,2174A,112.6991,37.6982,晋中市,榆次区政府,细颗粒物(PM2.5),166,183,105,126,71,71,,94,90,44,34,16,13,1.1,0.9
2024-02-07T2200,2865A,112.7195,37.6828,晋中市,榆次三中,细颗粒物(PM2.5),153,173,105,117,72,45,,95,88,55,33,20,12,1.2,1
2024-02-07T2200,2439A,112.2014,31.0481,荆门市,竹园小学,细颗粒物(PM2.5),74,68,92,54,77,76,,89,83,24,19,9,9,0.9,0.9
2024-02-07T2200,2440A,112.1969,30.9891,荆门市,掇刀,细颗粒物(PM2.5),73,59,90,53,80,92,,95,92,15,15,6,8,0.7,0.8
2024-02-07T2200,2441A,112.2213,31.0386,荆门市,石化一小,细颗粒物(PM2.5),78,68,93,57,79,76,,99,91,34,19,14,13,0.7,0.8
2024-02-07T2200,3012A,112.1849,31.0362,荆门市,西山林语,细颗粒物(PM2.5),57,53,88,40,74,102,,94,92,10,15,9,9,0.6,0.7
2024-02-07T2200,3547A,112.1632,31.0138,荆门市,龙泉中学南校,细颗粒物(PM2.5),58,48,87,41,79,104,,97,97,6,10,9,10,0.6,0.7
2024-02-07T2200,1844A,112.2494,30.3197,荆州市,市图书馆,,,,90,,99,,,92,87,67,24,7,6,,1.1
2024-02-07T2200,1845A,112.2008,30.3544,荆州市,市委党校,细颗粒物(PM2.5),130,,89,99,95,35,,95,76,65,26,8,6,1.2,1.1
2024-02-07T2200,3194A,112.2747,30.3122,荆州市,管委会,,,,96,,135,36,,94,84,68,24,8,8,1.4,1.1
2024-02-07T2200,3548A,112.1655,30.3364,荆州市,学苑路,细颗粒物(PM2.5),112,,80,84,87,64,,91,88,36,23,8,6,1.3,1
2024-02-07T2200,2342A,117.3102,29.3867,景德镇市,王港中学,细颗粒物(PM2.5),77,64,20,56,20,48,,47,41,4,3,2,2,0.5,0.4
2024-02-07T2200,2343A,117.2117,29.2933,景德镇市,老干部活动中心,细颗粒物(PM2.5),59,,23,42,22,42,,40,39,10,9,3,4,0.5,0.5
2024-02-07T2200,2344A,117.1894,29.2789,景德镇市,兽医站,颗粒物(PM10),52,54,26,32,14,47,,46,46,5,6,4,4,0.5,0.5
2024-02-07T2200,2345A,117.1547,29.2617,景德镇市,台达陶瓷,,36,36,19,24,17,48,,42,42,7,8,4,4,0.5,0.5
2024-02-07T2200,2346A,117.2461,29.2956,景德镇市,陶研所,,40,39,19,28,12,43,,39,38,9,8,3,4,0.5,0.5
2024-02-07T2200,1803A,115.9872,29.6815,九江市,十里,细颗粒物(PM2.5),75,70,78,55,60,83,,87,87,18,18,10,9,0.8,0.8
2024-02-07T2200,1804A,115.9584,29.7046,九江市,茅山头,细颗粒物(PM2.5),77,69,68,56,59,74,,77,76,23,24,10,11,0.8,0.9
2024-02-07T2200,1805A,115.9877,29.7295,九江市,西园,细颗粒物(PM2.5),78,67,71,57,65,76,,81,80,22,20,8,8,0.8,0.8
2024-02-07T2200,1806A,116.0172,29.6547,九江市,五七二七厂,细颗粒物(PM2.5),77,75,82,56,64,67,,66,66,12,15,8,8,0.9,0.9
2024-02-07T2200,1808A,115.9114,29.6038,九江市,综合工业园,细颗粒物(PM2.5),94,81,76,70,79,75,,78,78,17,19,10,10,0.9,1
2024-02-07T2200,1809A,116.0721,29.7535,九江市,石化总厂,细颗粒物(PM2.5),80,83,82,59,64,91,,90,90,18,20,9,8,0.7,0.8
2024-02-07T2200,1810A,115.9773,29.5698,九江市,庐山气象台,,49,,16,34,20,74,,78,76,8,5,7,7,1.7,1.3
2024-02-07T2200,3190A,116.0254,29.6994,九江市,外国语学校,细颗粒物(PM2.5),79,75,78,58,65,72,,74,74,25,24,13,9,0.7,0.7
2024-02-07T2200,2658A,98.5061,39.7443,酒泉市,仓门街子站,颗粒物(PM10),65,80,87,45,54,50,,81,75,30,19,4,4,1.0,1
2024-02-07T2200,2659A,98.4989,39.7256,酒泉市,油田生活基地,细颗粒物(PM2.5),69,80,86,50,53,53,,86,79,26,19,5,5,0.7,0.8
2024-02-07T2200,2698A,76.0072,39.4467,喀什地区,巡警大队,颗粒物(PM10),56,62,91,26,39,66,,79,79,27,38,5,5,0.8,1.7
2024-02-07T2200,2699A,75.9755,39.4694,喀什地区,吾办,颗粒物(PM10),60,70,87,34,55,51,,74,74,42,42,3,5,0.8,1.6
2024-02-07T2200,4027A,75.9483,39.4689,喀什地区,老干局,颗粒物(PM10),62,74,102,31,51,55,,77,77,37,37,2,3,1.0,1.9
2024-02-07T2200,1824A,114.3389,34.7781,开封市,肿瘤医院,细颗粒物(PM2.5),195,148,154,146,138,59,,104,92,47,39,1,2,1.1,1.1
2024-02-07T2200,1826A,114.2885,34.7965,开封市,世纪星幼儿园,细颗粒物(PM2.5),241,260,149,191,152,72,,117,104,44,34,8,5,1.2,1.2
2024-02-07T2200,3147A,114.3438,34.8106,开封市,龙亭公园,细颗粒物(PM2.5),190,184,161,143,162,58,,107,93,51,43,4,3,1.0,1.1
2024-02-07T2200,3210A,114.3644,34.7964,开封市,汴京公园,细颗粒物(PM2.5),225,213,167,175,165,41,,112,87,58,43,1,2,1.3,1
2024-02-07T2200,3473A,114.2485,34.8306,开封市,技师学院,细颗粒物(PM2.5),139,,128,106,136,101,,113,108,14,26,3,3,1.0,1.2
2024-02-07T2200,3592A,114.4644,34.7556,开封市,祥符区生态环境局,细颗粒物(PM2.5),156,148,176,119,156,60,,115,98,54,45,2,2,0.8,0.9
2024-02-07T2200,1951A,84.895,45.6094,克拉玛依市,长征新村,细颗粒物(PM2.5),89,108,104,66,69,66,,79,78,54,46,9,9,1.0,1
2024-02-07T2200,1952A,84.8988,45.5893,克拉玛依市,南林小区,细颗粒物(PM2.5),108,109,113,81,77,82,,81,81,43,46,3,3,0.7,0.8
2024-02-07T2200,1954A,84.905,44.3396,克拉玛依市,独山子区,细颗粒物(PM2.5),250,236,162,200,121,50,,89,78,80,53,4,5,1.5,1.4
2024-02-07T2200,1955A,85.6979,46.098,克拉玛依市,乌尔禾区商贸楼,细颗粒物(PM2.5),132,,90,100,71,56,,83,83,66,53,7,6,1.5,1.2
2024-02-07T2200,3612A,85.1045,45.6899,克拉玛依市,白碱滩区新站,细颗粒物(PM2.5),84,108,118,62,68,70,,86,86,43,44,9,9,0.9,0.9
2024-02-07T2200,2697A,76.1454,39.7142,克孜勒苏柯尔克孜自治州,市人民政府,颗粒物(PM10),57,64,50,34,28,62,,75,74,27,12,5,4,0.7,0.6
2024-02-07T2200,3665A,76.1658,39.7157,克孜勒苏柯尔克孜自治州,克州文化中心,颗粒物(PM10),63,75,54,37,30,53,,71,71,35,19,9,8,0.9,0.7
2024-02-07T2200,1450A,102.8204,24.8886,昆明市,呈贡新区,,44,44,35,30,32,84,,91,88,10,7,6,5,0.6,0.7
2024-02-07T2200,1451A,102.6251,24.9608,昆明市,西山森林公园,,39,31,27,27,21,108,,101,101,5,5,6,7,0.6,0.7
2024-02-07T2200,1452A,102.7252,25.0902,昆明市,龙泉镇,细颗粒物(PM2.5),58,55,33,41,25,28,,87,75,47,14,8,9,0.5,0.3
2024-02-07T2200,1453A,102.7266,25.0375,昆明市,东风东路,,50,49,37,35,27,67,,84,79,22,14,12,11,0.6,0.6
2024-02-07T2200,1454A,102.6742,25.0669,昆明市,金鼎山,,,41,34,33,25,,,91,88,12,13,8,18,0.7,0.6
2024-02-07T2200,1455A,102.6644,25.0401,昆明市,碧鸡广场,细颗粒物(PM2.5),52,46,36,36,27,74,,90,84,18,13,10,9,0.8,0.6
2024-02-07T2200,3179A,102.7494,25.0119,昆明市,官渡区博物馆,,42,40,32,29,24,86,,88,86,10,8,8,8,0.5,0.5
2024-02-07T2200,3375A,102.8017,24.8336,昆明市,青年创业园,,41,41,36,26,26,89,,97,94,5,5,10,9,0.5,0.5
2024-02-07T2200,3550A,102.7997,24.9786,昆明市,昆明学院,,40,40,37,28,26,87,,89,88,3,4,8,10,0.4,0.5
2024-02-07T2200,3551A,102.5967,24.6736,昆明市,晋宁区生态环境分局,颗粒物(PM10),53,55,37,24,24,92,,98,96,9,8,6,5,0.5,0.5
2024-02-07T2200,3552A,102.6678,24.9856,昆明市,云天化总部,,40,37,33,28,24,94,,98,95,6,4,6,7,0.6,0.6
2024-02-07T2200,1456A,91.1319,29.6514,拉萨市,八廓街,颗粒物(PM10),58,66,52,22,15,90,,97,95,11,12,8,7,0.3,0.4
2024-02-07T2200,1457A,91.1221,29.6747,拉萨市,市环保局,颗粒物(PM10),60,70,64,26,21,89,,99,98,13,18,8,7,0.8,0.8
2024-02-07T2200,1458A,91.0874,29.6475,拉萨市,区监测站,颗粒物(PM10),56,61,54,14,19,92,,97,96,5,9,4,4,0.4,0.5
2024-02-07T2200,1459A,91.1774,29.6541,拉萨市,西藏大学,颗粒物(PM10),64,77,51,17,12,95,,98,97,3,6,5,4,0.3,0.3
2024-02-07T2200,1460A,90.9798,29.6588,拉萨市,区辐射站,颗粒物(PM10),60,70,63,22,20,90,,98,97,9,13,5,5,0.5,0.6
2024-02-07T2200,1461A,91.0834,29.6292,拉萨市,拉萨火车站,颗粒物(PM10),53,56,57,17,18,92,,102,100,8,15,5,5,0.2,0.4
2024-02-07T2200,2520A,109.2203,23.7256,来宾市,来宾技工学校,,24,24,15,14,7,48,,48,48,6,6,4,5,0.8,0.9
2024-02-07T2200,3535A,109.1781,23.7297,来宾市,兴宾区政府,,25,23,14,17,10,50,,51,51,6,6,6,6,0.8,0.9
2024-02-07T2200,4002A,109.2416,23.7461,来宾市,中南小学,,21,21,16,14,10,50,,49,49,7,7,3,3,0.9,0.9
2024-02-07T2200,1476A,103.631,36.1031,兰州市,兰炼宾馆,细颗粒物(PM2.5),87,80,64,64,48,63,,83,82,34,30,11,16,0.8,0.7
2024-02-07T2200,1478A,103.8412,36.0726,兰州市,生物制品所,细颗粒物(PM2.5),92,78,64,68,51,70,,83,83,24,23,9,15,0.9,0.9
2024-02-07T2200,1479A,103.831,36.0464,兰州市,铁路设计院,细颗粒物(PM2.5),83,65,60,61,47,62,,75,74,40,36,10,16,0.8,0.8
2024-02-07T2200,3186A,103.7158,36.1058,兰州市,教育港,细颗粒物(PM2.5),85,,58,63,46,66,,88,86,35,29,14,16,0.8,0.7
2024-02-07T2200,3241A,103.7439,36.0842,兰州市,百合公园,细颗粒物(PM2.5),87,79,54,64,40,63,,77,76,29,26,10,15,1.0,0.9
2024-02-07T2200,3242A,103.9611,35.998,兰州市,和平,细颗粒物(PM2.5),74,75,64,54,47,58,,84,81,26,26,9,13,0.8,1
2024-02-07T2200,3245A,103.6633,36.533,兰州新区,新区管委会,细颗粒物(PM2.5),93,89,57,69,39,79,,95,93,15,14,7,13,0.9,0.8
2024-02-07T2200,3246A,103.6975,36.4789,兰州新区,舟曲中学,细颗粒物(PM2.5),70,72,62,51,43,77,,95,92,20,16,19,39,0.7,0.8
2024-02-07T2200,1067A,116.6708,39.5111,廊坊市,药材公司,细颗粒物(PM2.5),74,84,35,54,19,37,,84,68,50,16,3,2,0.7,0.4
2024-02-07T2200,1068A,116.7214,39.5589,廊坊市,开发区,细颗粒物(PM2.5),62,58,25,44,14,37,,79,62,44,16,3,2,0.6,0.3
2024-02-07T2200,1070A,116.7244,39.5269,廊坊市,北华航天学院,颗粒物(PM10),61,72,29,40,12,47,,88,71,46,18,2,2,0.6,0.4
2024-02-07T2200,2919A,116.7022,39.5453,廊坊市,河北工业大学,细颗粒物(PM2.5),72,66,30,52,16,51,,85,72,42,17,2,2,0.6,0.4
2024-02-07T2200,2535A,103.7723,29.5462,乐山市,花湖湾,细颗粒物(PM2.5),82,100,60,60,54,37,,51,50,16,15,4,5,0.6,0.7
2024-02-07T2200,2536A,103.7627,29.5844,乐山市,牛耳桥,细颗粒物(PM2.5),83,71,65,61,57,29,,45,43,31,27,4,4,0.8,0.8
2024-02-07T2200,2537A,103.7508,29.6006,乐山市,市第三水厂,细颗粒物(PM2.5),73,69,61,53,47,29,,51,49,30,25,3,3,0.9,0.8
2024-02-07T2200,2538A,103.7571,29.5664,乐山市,市监测站,细颗粒物(PM2.5),75,61,57,55,50,39,,49,49,15,18,5,5,0.7,1
2024-02-07T2200,3361A,103.7311,29.5628,乐山市,理工大学,细颗粒物(PM2.5),78,60,58,57,51,35,,52,50,19,20,3,3,0.8,0.8
2024-02-07T2200,2599A,100.2497,26.8802,丽江市,丽江古城,,32,32,24,16,16,81,,92,90,19,15,6,6,0.4,0.5
2024-02-07T2200,2600A,100.2203,26.8906,丽江市,市中心,,26,17,11,11,6,82,,92,89,11,8,8,8,0.5,0.3
2024-02-07T2200,1267A,119.914,28.4514,丽水市,监测站大楼,,38,36,12,26,11,53,,54,53,13,13,3,3,0.6,0.6
2024-02-07T2200,1268A,119.93,28.4586,丽水市,莲都小学,,40,,10,28,11,56,,57,56,9,7,3,3,0.5,0.6
2024-02-07T2200,1269A,119.879,28.4231,丽水市,余庄前,颗粒物(PM10),54,57,16,31,10,41,,51,41,8,7,4,4,0.6,0.6
2024-02-07T2200,1173A,119.176,34.5885,连云港市,市环境监测站,细颗粒物(PM2.5),156,132,129,119,115,75,,110,99,41,46,10,13,1.3,1.4
2024-02-07T2200,3000A,119.3581,34.6972,连云港市,德源药业,细颗粒物(PM2.5),156,151,133,119,110,38,,108,92,58,56,10,12,1.2,1.3
2024-02-07T2200,3007A,119.178,34.844,连云港市,新城一中,细颗粒物(PM2.5),185,149,133,139,127,54,,122,101,69,36,15,18,1.4,1.4
2024-02-07T2200,3008A,119.3608,34.7519,连云港市,胡沟管理处,细颗粒物(PM2.5),149,146,137,114,111,50,,105,78,72,41,32,20,1.8,1.4
2024-02-07T2200,3009A,119.1478,34.5911,连云港市,矿山设计院,细颗粒物(PM2.5),140,136,143,107,114,80,,109,98,31,40,8,13,1.1,1.3
2024-02-07T2200,3434A,119.2413,34.6539,连云港市,工贸学校,细颗粒物(PM2.5),170,155,148,129,118,99,,124,118,27,38,18,18,1.3,1.3
2024-02-07T2200,3664A,119.4172,34.7341,连云港市,连云街道,细颗粒物(PM2.5),115,108,147,87,116,100,,92,90,19,42,22,23,1.2,1.7
2024-02-07T2200,2571A,102.3431,27.8099,凉山彝族自治州,青龙寺,,26,18,21,4,5,83,,92,89,4,5,4,5,0.6,1
2024-02-07T2200,2572A,102.2721,27.8415,凉山彝族自治州,邛海宾馆,,25,19,21,17,13,69,,92,87,10,7,7,11,0.6,0.7
2024-02-07T2200,2573A,102.2625,27.898,凉山彝族自治州,西昌市政府,,24,19,19,12,12,76,,90,87,6,9,7,11,0.7,0.9
2024-02-07T2200,2574A,102.2685,27.8851,凉山彝族自治州,凉山州政府,,23,23,20,15,13,61,,87,83,13,9,6,9,0.6,0.7
2024-02-07T2200,2575A,102.237,27.8914,凉山彝族自治州,长安,,39,39,20,21,12,70,,96,92,16,11,9,12,0.9,1
2024-02-07T2200,2212A,123.2,41.1953,辽阳市,宏伟区,细颗粒物(PM2.5),162,138,103,123,85,27,,67,52,60,43,17,29,1.7,1.5
2024-02-07T2200,2213A,123.1683,41.2495,辽阳市,新华园,细颗粒物(PM2.5),168,192,124,127,104,23,,71,54,69,57,60,24,1.8,1.9
2024-02-07T2200,2214A,123.2354,41.2639,辽阳市,滨河路,细颗粒物(PM2.5),160,,90,122,95,38,,68,60,48,37,18,12,1.4,1.3
2024-02-07T2200,2215A,123.149,41.2991,辽阳市,铁西工业园,细颗粒物(PM2.5),172,,118,130,117,20,,79,58,62,50,14,14,1.8,1.9
2024-02-07T2200,2227A,125.1358,42.8845,辽源市,环保局,细颗粒物(PM2.5),69,57,98,50,83,56,,94,86,40,32,20,9,1.8,1.3
2024-02-07T2200,3239A,125.0764,42.9078,辽源市,银鹰制药,颗粒物(PM10),51,52,96,34,80,60,,100,89,31,29,6,9,0.7,1.1
2024-02-07T2200,1625A,115.9848,36.4372,聊城市,区政府,细颗粒物(PM2.5),175,174,137,132,107,29,,99,83,66,33,5,7,1.5,1.3
2024-02-07T2200,2878A,116.0072,36.4343,聊城市,聊大东校,细颗粒物(PM2.5),149,141,138,114,114,66,,106,98,38,27,5,9,1.1,1.3
2024-02-07T2200,3200A,115.9819,36.4978,聊城市,监控中心,细颗粒物(PM2.5),216,183,155,166,133,67,,106,86,47,41,9,9,1.5,1.4
2024-02-07T2200,3513A,116.0445,36.4361,聊城市,九州社区,细颗粒物(PM2.5),165,166,150,125,109,77,,108,101,28,25,6,7,1.2,1.2
2024-02-07T2200,4018A,116.0567,36.4608,聊城市,星美广场,细颗粒物(PM2.5),178,192,168,134,112,58,,100,89,43,33,5,7,1.3,1.3
2024-02-07T2200,2632A,94.3681,29.6376,林芝市,林芝监测站,,29,11,6,5,4,92,,92,92,2,2,4,4,0.5,0.5
2024-02-07T2200,2633A,94.3616,29.6616,林芝市,林芝人民医院,,28,17,9,6,4,88,,89,89,3,4,10,9,0.5,0.5
2024-02-07T2200,2603A,100.0781,23.8982,临沧市,市环保局,细颗粒物(PM2.5),95,71,45,71,41,75,,97,92,13,10,8,8,0.6,0.4
2024-02-07T2200,2604A,100.0894,23.8822,临沧市,市气象局,细颗粒物(PM2.5),68,57,48,49,40,62,,92,86,20,12,8,7,0.7,0.5
2024-02-07T2200,1733A,111.5531,36.0783,临汾市,临钢医院,细颗粒物(PM2.5),211,212,178,161,135,107,,117,117,30,27,10,9,2.0,1.5
2024-02-07T2200,1734A,111.5028,36.0714,临汾市,技工学校,细颗粒物(PM2.5),195,192,186,146,150,99,,118,118,34,33,11,12,1.5,1.5
2024-02-07T2200,1736A,111.5018,36.0855,临汾市,市委,细颗粒物(PM2.5),209,219,190,159,149,90,,116,116,40,31,8,9,1.4,1.5
2024-02-07T2200,3018A,111.505,36.1014,临汾市,唐尧大酒店,细颗粒物(PM2.5),203,182,170,153,140,84,,105,105,44,38,11,12,1.4,1.4
2024-02-07T2200,3668A,111.5036,36.0414,临汾市,城南,细颗粒物(PM2.5),216,211,182,166,147,81,,116,112,49,40,11,9,1.8,1.6
2024-02-07T2200,2667A,103.2069,35.5993,临夏回族自治州,环保局,颗粒物(PM10),53,56,69,33,40,73,,82,81,18,21,16,14,1.0,1.1
2024-02-07T2200,2668A,103.2417,35.6057,临夏回族自治州,建设大厦,细颗粒物(PM2.5),83,73,60,61,33,64,,88,84,15,8,14,12,1.1,1.1
2024-02-07T2200,1618A,118.3429,35.0532,临沂市,沂河小区,细颗粒物(PM2.5),149,139,131,114,114,70,,98,92,39,43,9,14,1.1,1.3
2024-02-07T2200,1619A,118.295,35.0583,临沂市,鲁南制药厂,细颗粒物(PM2.5),149,151,142,114,120,48,,114,95,65,47,41,26,1.7,1.7
2024-02-07T2200,1620A,118.2794,34.9976,临沂市,新光毛纺厂,细颗粒物(PM2.5),149,178,137,114,110,47,,104,92,66,51,36,17,1.6,1.4
2024-02-07T2200,1621A,118.3956,35.0888,临沂市,河东保险公司,细颗粒物(PM2.5),159,144,128,121,109,50,,102,88,56,45,10,12,1.4,1.4
2024-02-07T2200,3370A,118.3564,35.0215,临沂市,十里堡居委,细颗粒物(PM2.5),138,129,132,105,108,95,,109,103,34,51,12,14,1.2,1.5
2024-02-07T2200,3496A,118.3604,35.1084,临沂市,南坊新区,细颗粒物(PM2.5),168,151,128,127,107,73,,104,96,47,45,15,13,1.3,1.4
2024-02-07T2200,3860A,118.3920,35.0300,临沂市,皇山花园小区,细颗粒物(PM2.5),135,141,132,103,101,81,,108,102,48,50,13,16,1.2,1.4
2024-02-07T2200,1870A,109.4856,24.3895,柳州市,柳东小学,,23,21,13,16,12,50,,50,49,7,7,6,6,0.5,0.6
2024-02-07T2200,1871A,109.4157,24.3277,柳州市,环保监测站,,21,21,12,14,8,54,,51,51,7,7,6,6,0.4,0.5
2024-02-07T2200,1872A,109.389,24.341,柳州市,河西水厂,,26,26,18,18,12,42,,47,46,17,17,10,10,0.9,1.2
2024-02-07T2200,1873A,109.4311,24.2921,柳州市,市四中,,18,14,12,12,8,54,,50,50,7,8,6,5,0.5,0.5
2024-02-07T2200,1874A,109.4006,24.3631,柳州市,市九中,,26,20,12,18,9,50,,48,48,8,8,3,2,0.7,0.7
2024-02-07T2200,1875A,109.4958,24.3134,柳州市,古亭山,,,,8,8,5,43,,43,42,4,5,6,6,0.9,0.7
2024-02-07T2200,3402A,109.5422,24.3996,柳州市,市二中,,18,13,8,12,7,43,,43,43,8,6,6,6,0.8,0.8
2024-02-07T2200,2307A,116.5079,31.737,六安市,监测大楼,细颗粒物(PM2.5),139,114,94,106,93,80,,105,102,34,29,5,5,1.2,1
2024-02-07T2200,2308A,116.4738,31.7643,六安市,皖西学院,细颗粒物(PM2.5),119,118,109,90,85,91,,119,115,19,21,3,4,1.0,0.8
2024-02-07T2200,2309A,116.4996,31.7905,六安市,朝阳厂,细颗粒物(PM2.5),140,108,95,107,90,90,,119,113,23,21,4,5,0.9,0.8
2024-02-07T2200,2310A,116.5567,31.7886,六安市,开发区,细颗粒物(PM2.5),133,145,113,101,84,78,,116,107,37,26,3,4,1.0,0.8
2024-02-07T2200,2577A,104.83,26.5917,六盘水市,黄土坡,,23,19,20,16,15,29,,33,29,13,13,10,10,0.8,1
2024-02-07T2200,2578A,104.89,26.5939,六盘水市,水钢,,25,17,23,17,15,24,,37,32,20,12,12,6,1.2,1
2024-02-07T2200,2579A,104.8475,26.5894,六盘水市,民中,,23,23,17,9,12,29,,34,29,11,11,8,7,0.7,0.9
2024-02-07T2200,2580A,104.9544,26.5506,六盘水市,双水,,24,24,17,16,13,36,,38,35,10,9,10,8,0.6,0.7
2024-02-07T2200,2336A,117.0217,25.1033,龙岩市,龙岩市监测站,,7,2,8,0,3,10,,15,8,12,10,2,2,0.7,0.7
2024-02-07T2200,2337A,117.0258,25.0661,龙岩市,闽西职业技术学院,,8,2,10,1,5,12,,21,10,11,8,1,2,0.8,0.8
2024-02-07T2200,2338A,117.0196,25.0306,龙岩市,龙岩学院,,9,8,9,2,8,6,,25,8,10,8,2,2,0.9,0.8
2024-02-07T2200,2885A,104.9339,33.3826,陇南市,滨江中学,细颗粒物(PM2.5),60,56,55,43,40,69,,78,75,17,15,3,6,0.7,0.7
2024-02-07T2200,3247A,104.955,33.371,陇南市,市总工会,"颗粒物(PM10),细颗粒物(PM2.5)",57,63,54,40,38,74,,80,78,12,11,4,5,0.5,0.5
2024-02-07T2200,2487A,111.9589,27.8901,娄底市,电视发射台,细颗粒物(PM2.5),80,73,62,59,46,80,,84,84,5,5,5,4,0.9,0.8
2024-02-07T2200,2488A,111.9975,27.725,娄底市,市监测站,细颗粒物(PM2.5),103,84,66,77,60,86,,88,88,22,14,12,10,0.9,0.9
2024-02-07T2200,2489A,112.0194,27.7314,娄底市,市委党校,细颗粒物(PM2.5),104,82,67,78,61,85,,81,81,16,13,5,4,0.6,0.7
2024-02-07T2200,2490A,111.9561,27.7569,娄底市,涟钢,细颗粒物(PM2.5),92,74,62,68,55,78,,78,78,8,11,11,10,0.7,0.8
2024-02-07T2200,2491A,111.9892,27.7044,娄底市,市政府,细颗粒物(PM2.5),97,76,62,72,59,90,,82,82,20,18,5,6,0.8,0.8
2024-02-07T2200,1893A,105.4324,28.9634,泸州市,九狮山,"颗粒物(PM10),细颗粒物(PM2.5)",62,74,65,44,47,24,,32,32,13,14,4,5,0.5,0.5
2024-02-07T2200,1894A,105.4427,28.9063,泸州市,小市上码头,细颗粒物(PM2.5),65,53,63,47,50,17,,29,28,23,20,3,3,0.7,0.7
2024-02-07T2200,1895A,105.4241,28.8573,泸州市,兰田宪桥,细颗粒物(PM2.5),60,59,59,43,51,24,,34,32,20,17,3,3,0.7,0.6
2024-02-07T2200,1896A,105.4379,28.8833,泸州市,市环监站,细颗粒物(PM2.5),60,49,53,43,48,16,,28,24,17,16,1,1,0.6,0.6
2024-02-07T2200,3490A,105.3617,28.7703,泸州市,纳溪区环保局,细颗粒物(PM2.5),89,71,60,66,55,19,,33,30,23,18,3,3,1.0,0.9
2024-02-07T2200,2183A,111.1406,37.5211,吕梁市,环保局,细颗粒物(PM2.5),88,110,89,65,59,16,,72,64,65,38,3,7,0.7,0.7
2024-02-07T2200,2185A,111.1297,37.5136,吕梁市,自来水公司,细颗粒物(PM2.5),79,79,90,58,61,68,,80,79,27,35,6,9,0.6,0.8
2024-02-07T2200,2867A,111.1283,37.51,吕梁市,马茂庄小学,细颗粒物(PM2.5),75,98,108,55,58,52,,76,72,36,37,4,6,0.6,0.5
2024-02-07T2200,1812A,112.3931,34.6516,洛阳市,市委党校,细颗粒物(PM2.5),320,302,223,270,203,7,,74,63,90,52,7,10,2.4,2
2024-02-07T2200,1814A,112.4657,34.6871,洛阳市,豫西宾馆,细颗粒物(PM2.5),270,298,235,220,180,13,,78,65,,50,8,8,1.9,1.9
2024-02-07T2200,1815A,112.494,34.6886,洛阳市,河南林校,细颗粒物(PM2.5),268,244,199,218,180,18,,85,74,62,41,4,5,2.6,2.1
2024-02-07T2200,1816A,112.3844,34.623,洛阳市,开发区管委会,细颗粒物(PM2.5),288,271,202,238,176,33,,82,75,53,39,5,7,1.9,1.7
2024-02-07T2200,1817A,112.4267,34.6258,洛阳市,市委新办公区,细颗粒物(PM2.5),353,,201,303,209,19,,79,70,74,36,4,5,2.1,1.8
2024-02-07T2200,3340A,112.6005,34.6326,洛阳市,伊滨,细颗粒物(PM2.5),292,280,229,242,192,46,,87,81,35,30,4,4,2.2,2
2024-02-07T2200,3341A,112.4951,34.6332,洛阳市,中移产业园,细颗粒物(PM2.5),295,,184,245,193,63,,89,86,36,35,6,6,1.9,1.8
2024-02-07T2200,3593A,112.5736,34.8993,洛阳市,吉利监测站,细颗粒物(PM2.5),261,235,214,211,207,29,,100,88,57,37,6,8,2.2,2.1
2024-02-07T2200,3635A,112.3677,34.662,洛阳市,河科大西苑校区,细颗粒物(PM2.5),295,290,191,245,162,7,,,,81,79,5,14,2.4,1.8
2024-02-07T2200,3636A,112.4388,34.6781,洛阳市,英才小学,细颗粒物(PM2.5),319,329,239,269,197,6,,76,64,,51,6,6,2.4,1.9
2024-02-07T2200,2399A,114.051,33.5699,漯河市,三五一五工厂,细颗粒物(PM2.5),210,186,143,160,143,60,,134,108,55,27,5,4,1.1,0.9
2024-02-07T2200,2400A,114.0055,33.5698,漯河市,漯河大学,细颗粒物(PM2.5),206,163,130,156,130,77,,136,118,41,25,5,5,1.2,1.1
2024-02-07T2200,2401A,114.0138,33.5828,漯河市,市水利局,细颗粒物(PM2.5),230,188,139,180,138,61,,133,113,47,21,7,7,1.2,0.9
2024-02-07T2200,2402A,114.0261,33.5698,漯河市,市广电局,细颗粒物(PM2.5),226,205,143,176,139,54,,131,113,59,25,3,3,1.3,1.1
2024-02-07T2200,3478A,113.9749,33.5664,漯河市,市图书馆,细颗粒物(PM2.5),195,156,143,146,133,82,,132,119,33,24,8,7,1.0,0.9
2024-02-07T2200,3479A,114.0967,33.5906,漯河市,召陵区卫健委,细颗粒物(PM2.5),273,279,170,223,154,42,,132,94,63,34,7,6,1.6,1.1
2024-02-07T2200,1798A,118.5092,31.6837,马鞍山市,湖东路四小,细颗粒物(PM2.5),108,113,83,81,57,105,,94,94,30,30,10,10,1.1,1
2024-02-07T2200,1799A,118.5024,31.6449,马鞍山市,开发区,细颗粒物(PM2.5),122,103,73,92,61,100,,94,94,27,25,6,6,1.0,0.9
2024-02-07T2200,1800A,118.5228,31.7231,马鞍山市,慈湖,细颗粒物(PM2.5),133,,70,101,69,93,,92,92,35,33,6,7,1.1,0.9
2024-02-07T2200,1802A,118.6245,31.7241,马鞍山市,濮塘,细颗粒物(PM2.5),97,103,75,72,49,82,,86,86,17,17,5,6,0.9,0.8
2024-02-07T2200,3633A,118.4918,31.6809,马鞍山市,雨山,细颗粒物(PM2.5),117,114,87,88,63,105,,94,94,27,28,11,11,1.1,1
2024-02-07T2200,1686A,111.0286,21.4688,茂名市,电白南海,,41,41,38,19,25,3,,38,7,17,16,9,10,1.1,1.1
2024-02-07T2200,1687A,110.9294,21.6533,茂名市,茂石化七小,,28,24,25,19,17,14,,15,15,15,15,10,13,1.0,1.2
2024-02-07T2200,1688A,110.9107,21.6687,茂名市,健康路,,,34,23,14,15,,,12,12,12,10,26,15,1.7,1.3
2024-02-07T2200,1689A,110.8592,21.6828,茂名市,高岭,,22,22,21,12,14,11,,13,12,14,12,18,11,0.9,1
2024-02-07T2200,3450A,111.01,21.5165,茂名市,电白水东,,,,28,,19,11,,34,14,,15,,5,1.2,1.1
2024-02-07T2200,2539A,104.0308,30.0478,眉山市,黑龙滩水库,细颗粒物(PM2.5),64,58,52,46,34,31,,66,58,16,5,2,2,0.8,0.8
2024-02-07T2200,2540A,103.8416,30.0874,眉山市,气象局,细颗粒物(PM2.5),104,81,54,78,46,24,,50,45,28,22,7,7,0.9,0.8
2024-02-07T2200,3137A,103.8578,30.0744,眉山市,市委党校,细颗粒物(PM2.5),85,75,53,63,44,24,,48,43,28,22,6,5,0.8,0.8
2024-02-07T2200,3148A,103.8291,30.0564,眉山市,区人社局,细颗粒物(PM2.5),104,,48,78,47,21,,45,40,30,28,3,7,1.0,0.9
2024-02-07T2200,1690A,116.1231,24.3284,梅州市,梅江月梅,,8,2,8,1,5,22,,23,22,7,7,7,7,0.8,0.8
2024-02-07T2200,1691A,116.0797,24.2719,梅州市,梅县新城,,8,0,8,0,3,24,,23,23,7,7,5,5,0.7,0.8
2024-02-07T2200,1692A,116.1248,24.2654,梅州市,环境监控中心,,8,,7,2,6,20,,21,20,11,10,4,4,0.8,0.8
2024-02-07T2200,3315A,116.1233,24.2991,梅州市,梅龙,,8,2,7,1,5,21,,22,22,8,8,5,5,0.8,0.8
2024-02-07T2200,1878A,104.7778,31.4741,绵阳市,富乐山,细颗粒物(PM2.5),53,41,36,37,31,57,,72,69,14,9,7,6,0.8,0.7
2024-02-07T2200,1879A,104.7563,31.4535,绵阳市,市人大,细颗粒物(PM2.5),57,53,42,40,33,51,,63,58,23,22,5,5,0.7,0.7
2024-02-07T2200,1880A,104.6697,31.4668,绵阳市,高新区自来水公司,细颗粒物(PM2.5),74,66,47,54,40,40,,71,63,34,25,6,6,0.7,0.6
2024-02-07T2200,1881A,104.7287,31.5075,绵阳市,三水厂,细颗粒物(PM2.5),69,,44,50,37,25,,72,57,39,17,5,5,1.0,0.8
2024-02-07T2200,3491A,104.69,31.5322,绵阳市,西科大附属小学,细颗粒物(PM2.5),63,58,49,45,38,39,,71,59,31,24,5,5,0.7,0.6
2024-02-07T2200,3492A,104.5648,31.5343,绵阳市,安州区旅游局,细颗粒物(PM2.5),90,77,47,67,37,56,,72,66,19,18,7,6,0.8,0.8
2024-02-07T2200,1784A,129.61,44.561,牡丹江市,环保大楼,细颗粒物(PM2.5),77,82,70,56,48,61,,87,74,39,35,14,15,0.9,0.8
2024-02-07T2200,1785A,129.6115,44.5782,牡丹江市,文化广场,细颗粒物(PM2.5),109,94,80,82,67,47,,76,59,51,42,19,18,1.1,1
2024-02-07T2200,1786A,129.5904,44.5963,牡丹江市,第一医院,细颗粒物(PM2.5),140,110,82,107,79,30,,75,48,62,49,16,15,1.1,1
2024-02-07T2200,1787A,129.6364,44.6075,牡丹江市,机车工厂,细颗粒物(PM2.5),132,127,88,100,68,11,,74,41,70,52,16,13,1.4,1
2024-02-07T2200,1788A,129.6386,44.5462,牡丹江市,第一中学,细颗粒物(PM2.5),73,56,54,53,48,64,,89,75,24,22,12,13,0.7,0.7
2024-02-07T2200,2531A,105.0703,29.61,内江市,市监测站,细颗粒物(PM2.5),62,,52,44,53,42,,42,42,15,17,8,8,0.8,0.8
2024-02-07T2200,2532A,105.0717,29.5947,内江市,东兴区政府,细颗粒物(PM2.5),55,48,49,39,43,41,,43,43,11,11,7,8,0.6,0.7
2024-02-07T2200,2533A,105.0653,29.5817,内江市,内江二中,细颗粒物(PM2.5),57,47,46,40,45,43,,45,45,14,15,4,4,0.9,0.9
2024-02-07T2200,2534A,105.0406,29.5822,内江市,内江日报社,细颗粒物(PM2.5),60,50,55,43,47,41,,46,46,16,15,4,4,0.8,0.8
2024-02-07T2200,2628A,92.0657,31.4846,那曲市,那曲监测站,细颗粒物(PM2.5),85,73,48,63,31,61,,97,89,19,10,13,7,1.2,1.1
2024-02-07T2200,3128A,92.0506,31.4797,那曲市,那曲会议中心,,39,39,40,16,15,78,,109,104,17,9,8,7,0.8,0.6
2024-02-07T2200,1290A,115.8931,28.6843,南昌市,省外办,细颗粒物(PM2.5),110,102,88,83,78,58,,60,58,16,15,5,4,0.8,0.8
2024-02-07T2200,1291A,115.8886,28.7003,南昌市,省林业公司,细颗粒物(PM2.5),92,88,76,68,71,61,,62,60,15,15,4,4,0.7,0.9
2024-02-07T2200,1292A,115.8126,28.7442,南昌市,林科所,细颗粒物(PM2.5),79,73,69,58,62,73,,69,69,10,9,5,5,0.6,0.6
2024-02-07T2200,1294A,115.8518,28.687,南昌市,建工学校,细颗粒物(PM2.5),100,80,74,75,52,65,,62,61,18,18,5,7,0.7,0.7
2024-02-07T2200,1295A,115.8921,28.6424,南昌市,象湖,细颗粒物(PM2.5),98,80,68,73,73,64,,67,64,18,17,7,7,1.0,0.9
2024-02-07T2200,1296A,115.7423,28.7996,南昌市,武术学校,细颗粒物(PM2.5),70,65,58,51,57,63,,66,64,3,5,6,6,0.7,0.8
2024-02-07T2200,1298A,115.9314,28.6842,南昌市,省站,细颗粒物(PM2.5),105,103,85,79,76,64,,65,63,13,12,6,6,0.7,0.7
2024-02-07T2200,3046A,115.9084,28.6062,南昌市,机电学校,细颗粒物(PM2.5),110,109,86,83,75,62,,66,63,18,16,6,6,0.6,0.5
2024-02-07T2200,3690A,115.9721,28.7031,南昌市,外国语学校,细颗粒物(PM2.5),118,103,88,89,75,56,,60,56,18,15,7,7,0.6,0.6
2024-02-07T2200,1905A,106.056,30.8064,南充市,西山风景区,细颗粒物(PM2.5),54,38,33,38,39,44,,48,47,10,9,2,2,0.8,0.8
2024-02-07T2200,1906A,106.0789,30.8023,南充市,南充市委,,42,31,43,29,30,38,,44,43,23,19,4,4,0.5,0.6
2024-02-07T2200,1907A,106.1031,30.8217,南充市,南充炼油厂,,49,41,49,34,39,42,,49,47,15,11,4,4,0.4,0.4
2024-02-07T2200,1908A,106.1064,30.7856,南充市,高坪区监测站,,42,42,48,29,36,43,,48,48,16,13,5,5,0.6,0.6
2024-02-07T2200,1909A,106.0642,30.7636,南充市,嘉陵区环保局,,49,47,49,34,35,34,,41,39,24,19,2,2,0.7,0.7
2024-02-07T2200,1910A,106.1087,30.8388,南充市,市环境监测站,,48,42,50,33,38,40,,51,49,19,10,6,6,0.4,0.5
2024-02-07T2200,1151A,118.8086,32.1065,南京市,迈皋桥,细颗粒物(PM2.5),134,120,80,102,59,94,,87,87,23,18,5,4,0.9,0.6
2024-02-07T2200,1152A,118.7538,32.0551,南京市,草场门,细颗粒物(PM2.5),119,110,74,90,56,118,,109,109,31,25,5,4,1.1,0.7
2024-02-07T2200,1153A,118.7794,32.0745,南京市,山西路,细颗粒物(PM2.5),144,117,71,110,62,125,,115,115,25,23,8,7,1.1,0.8
2024-02-07T2200,1154A,118.7752,32.0023,南京市,中华门,细颗粒物(PM2.5),122,107,71,92,55,108,,105,105,30,25,9,8,1.0,0.7
2024-02-07T2200,1155A,118.8109,32.0309,南京市,瑞金路,细颗粒物(PM2.5),134,129,79,102,56,106,,96,96,32,23,5,4,1.2,0.9
2024-02-07T2200,1156A,118.7997,32.0754,南京市,玄武湖,细颗粒物(PM2.5),124,118,79,94,56,112,,104,104,21,16,10,9,0.5,0.3
2024-02-07T2200,1157A,118.6414,32.0931,南京市,浦口,细颗粒物(PM2.5),120,98,89,91,66,120,,110,110,20,19,7,6,0.9,0.8
2024-02-07T2200,1158A,118.7356,31.9996,南京市,奥体中心,细颗粒物(PM2.5),128,114,78,97,55,126,,112,112,27,24,9,7,1.2,0.9
2024-02-07T2200,1159A,118.9125,32.1028,南京市,仙林大学城,细颗粒物(PM2.5),138,122,70,105,57,106,,105,105,29,19,6,5,1.2,0.9
2024-02-07T2200,3422A,118.8436,31.9198,南京市,江宁彩虹桥,细颗粒物(PM2.5),117,109,81,88,53,105,,104,104,30,23,5,4,0.8,0.6
2024-02-07T2200,3423A,119.0138,31.6494,南京市,溧水永阳,细颗粒物(PM2.5),102,80,65,76,61,104,,96,96,19,17,4,4,1.0,0.8
2024-02-07T2200,3424A,118.879,31.3302,南京市,高淳老职中,细颗粒物(PM2.5),113,99,76,85,62,53,,81,76,29,19,5,7,0.8,0.6
2024-02-07T2200,3427A,118.8554,32.3578,南京市,六合雄州,细颗粒物(PM2.5),105,122,83,79,56,,,122,122,22,18,6,4,1.2,1
2024-02-07T2200,1401A,108.3103,22.7881,南宁市,二十一中,,19,19,14,9,7,37,,38,38,13,12,6,6,1.0,0.9
2024-02-07T2200,1402A,108.3141,22.8528,南宁市,北湖,,24,24,13,3,6,34,,37,36,13,9,4,4,0.9,0.9
2024-02-07T2200,1403A,108.3206,22.8225,南宁市,市监测站,,29,,14,20,12,35,,36,36,12,10,5,5,0.9,0.9
2024-02-07T2200,1404A,108.3829,22.8037,南宁市,大自然花园,,17,17,11,6,5,37,,38,38,14,12,6,6,0.7,0.7
2024-02-07T2200,1405A,108.4394,22.7904,南宁市,仙葫,,18,18,8,4,3,43,,41,41,10,10,7,6,1.0,0.9
2024-02-07T2200,1406A,108.2397,22.8467,南宁市,区农职院,,20,20,14,7,4,36,,34,34,14,14,7,7,1.3,1.2
2024-02-07T2200,1407A,108.3275,22.735,南宁市,英华嘉园,,40,,9,28,5,34,,33,33,15,12,11,7,0.9,0.9
2024-02-07T2200,1408A,108.2257,22.7757,南宁市,沙井镇街道办,,22,22,16,12,10,28,,30,29,16,11,7,7,0.8,0.7
2024-02-07T2200,3401A,108.4834,22.7618,南宁市,红星社区,,20,14,12,14,8,44,,42,42,10,9,7,7,0.8,0.8
2024-02-07T2200,2332A,118.1681,26.6369,南平市,南平市监测站,,8,3,3,3,4,24,,24,24,7,8,4,4,0.7,0.8
2024-02-07T2200,2333A,118.1825,26.6489,南平市,南平铝业有限公司,,10,10,7,6,4,26,,26,26,6,6,4,4,0.6,0.8
2024-02-07T2200,2334A,118.1756,26.6272,南平市,南平七中,,9,,5,4,4,25,,24,24,5,6,6,7,0.9,1
2024-02-07T2200,1168A,120.9098,31.9663,南通市,狼山街道,,49,42,43,34,33,97,,99,99,13,12,10,8,0.5,0.5
2024-02-07T2200,1169A,120.86,32.0005,南通市,虹桥,颗粒物(PM10),51,51,51,34,38,88,,92,92,14,12,6,4,0.4,0.4
2024-02-07T2200,1170A,120.87,32.02,南通市,城中,,48,48,50,32,33,88,,94,93,13,12,5,4,0.6,0.6
2024-02-07T2200,1171A,120.94,31.93,南通市,星湖花园,,47,47,45,30,28,82,,89,89,16,14,6,5,0.5,0.5
2024-02-07T2200,1172A,120.81,32.0417,南通市,紫琅学院,,44,44,46,24,30,89,,94,94,16,14,8,7,0.7,0.7
2024-02-07T2200,3291A,121.067,32.062,南通市,通州监测站,颗粒物(PM10),53,56,46,36,32,91,,99,98,14,11,7,7,0.7,0.6
2024-02-07T2200,3432A,120.9348,31.9883,南通市,环境教育馆,,46,46,44,31,34,87,,98,96,15,14,7,7,0.7,0.6
2024-02-07T2200,2404A,112.5224,33.0122,南阳市,瓦房庄,细颗粒物(PM2.5),118,,100,89,107,97,,116,108,18,16,8,9,0.9,0.9
2024-02-07T2200,2405A,112.5003,32.9735,南阳市,汉画馆,细颗粒物(PM2.5),125,106,104,95,103,80,,111,101,27,20,7,8,0.7,1
2024-02-07T2200,2406A,112.5573,33.027,南阳市,气象站,细颗粒物(PM2.5),119,,95,90,102,96,,116,108,23,20,7,9,0.7,0.8
2024-02-07T2200,2407A,112.5481,32.9689,南阳市,理工学院,细颗粒物(PM2.5),125,97,96,95,94,86,,118,105,23,17,6,7,0.7,0.7
2024-02-07T2200,4008A,112.5234,32.9922,南阳市,卧龙区政府,细颗粒物(PM2.5),109,96,100,82,93,84,,111,99,30,25,6,7,0.7,0.7
2024-02-07T2200,1234A,121.8358,29.911,宁波市,区环保大楼,细颗粒物(PM2.5),64,60,55,46,46,66,,63,63,34,28,8,6,0.7,0.7
2024-02-07T2200,1235A,121.56,29.82,宁波市,万里学院,细颗粒物(PM2.5),74,72,60,54,48,47,,52,52,28,25,6,6,0.7,0.7
2024-02-07T2200,1236A,121.713,29.9572,宁波市,龙赛医院,细颗粒物(PM2.5),64,63,52,46,42,76,,57,57,23,35,5,5,0.7,0.7
2024-02-07T2200,1239A,121.633,29.7733,宁波市,钱湖水厂,细颗粒物(PM2.5),77,70,55,56,51,49,,51,51,17,17,4,4,0.8,0.9
2024-02-07T2200,1240A,121.5856,29.8635,宁波市,太古小学,细颗粒物(PM2.5),78,60,56,57,50,47,,49,48,26,23,6,6,1.0,1
2024-02-07T2200,1241A,121.524,29.8674,宁波市,市环境监测中心,颗粒物(PM10),55,60,52,34,30,45,,54,53,18,15,5,5,0.8,0.9
2024-02-07T2200,2871A,121.6147,29.9017,宁波市,万里国际学校,细颗粒物(PM2.5),82,63,57,60,58,44,,54,52,27,24,7,6,0.8,0.8
2024-02-07T2200,3710A,121.5594,29.8975,宁波市,白沙活动中心,颗粒物(PM10),60,69,58,39,34,44,,47,47,28,25,6,6,0.9,0.9
2024-02-07T2200,2341A,119.5388,26.6612,宁德市,宁德市监测站,,15,7,5,7,6,48,,47,47,10,10,4,4,0.6,0.7
2024-02-07T2200,3209A,119.5231,26.6562,宁德市,宁德一中,,17,9,5,5,8,53,,51,51,12,14,4,4,0.5,0.6
2024-02-07T2200,2618A,98.8601,25.8567,怒江傈僳族自治州,州监测站,,49,41,21,34,14,34,,76,69,22,5,10,10,0.7,0.5
2024-02-07T2200,2619A,98.8546,25.8417,怒江傈僳族自治州,泸水一中,细颗粒物(PM2.5),63,47,17,45,17,31,,68,60,20,11,8,8,0.7,0.5
2024-02-07T2200,1888A,101.6891,26.571,攀枝花市,弄弄坪,,33,28,33,23,20,76,,83,76,17,29,10,27,0.5,1.5
2024-02-07T2200,1889A,101.5769,26.5928,攀枝花市,河门口,,46,46,31,27,17,63,,92,88,21,15,10,12,0.6,0.8
2024-02-07T2200,1890A,101.7169,26.585,攀枝花市,炳草岗,,27,27,28,15,15,66,,90,84,21,27,10,20,0.6,1
2024-02-07T2200,1891A,101.7369,26.5008,攀枝花市,仁和,,33,33,22,19,14,80,,94,88,14,14,6,8,0.6,0.7
2024-02-07T2200,2835A,101.7227,26.567,攀枝花市,四十中小,,28,24,28,11,15,89,,96,95,10,27,5,18,0.4,0.9
2024-02-07T2200,1604A,122.0303,41.1489,盘锦市,开发区,细颗粒物(PM2.5),139,,60,106,54,43,,86,74,55,32,13,13,1.4,1
2024-02-07T2200,1605A,122.0485,41.0883,盘锦市,兴隆台,细颗粒物(PM2.5),94,,61,70,48,47,,84,73,48,37,14,14,1.2,1.1
2024-02-07T2200,1606A,121.8297,41.1028,盘锦市,新生街道,细颗粒物(PM2.5),90,90,61,67,50,32,,79,70,43,41,12,12,1.0,1
2024-02-07T2200,1832A,113.3257,33.742,平顶山市,新华旅馆,细颗粒物(PM2.5),211,193,160,161,127,67,,106,99,48,40,9,9,0.8,0.9
2024-02-07T2200,1833A,113.2919,33.737,平顶山市,规划设计院,细颗粒物(PM2.5),155,149,161,118,137,85,,107,105,37,31,9,10,1.2,1.2
2024-02-07T2200,1834A,113.182,33.774,平顶山市,平顶山工学院,细颗粒物(PM2.5),160,144,160,122,132,106,,123,116,20,22,5,6,1.0,1
2024-02-07T2200,3204A,113.3025,33.73,平顶山市,规划局,细颗粒物(PM2.5),168,146,162,127,135,90,,104,104,23,26,7,8,0.8,0.8
2024-02-07T2200,3594A,112.8867,33.9116,平顶山市,石龙区,细颗粒物(PM2.5),200,173,188,150,170,70,,112,106,46,27,7,8,1.2,1.3
2024-02-07T2200,2656A,106.6692,35.5461,平凉市,聚贤嘉苑,细颗粒物(PM2.5),93,105,96,69,66,74,,88,85,25,21,8,8,1.0,0.9
2024-02-07T2200,2657A,106.7021,35.5307,平凉市,博物馆,细颗粒物(PM2.5),109,91,97,82,74,81,,89,89,16,15,6,7,0.8,0.9
2024-02-07T2200,2347A,114.0997,27.5002,萍乡市,武功山,,39,27,14,27,17,51,,51,51,11,10,8,8,1.1,0.9
2024-02-07T2200,2348A,113.8385,27.6434,萍乡市,中医院,细颗粒物(PM2.5),84,80,45,62,35,42,,51,47,18,17,6,6,1.3,1.2
2024-02-07T2200,2349A,113.8493,27.6253,萍乡市,市政府车库,细颗粒物(PM2.5),105,86,42,79,39,47,,54,50,14,13,7,8,0.9,0.9
2024-02-07T2200,2350A,113.8676,27.6435,萍乡市,市环保局,细颗粒物(PM2.5),94,83,42,70,39,42,,48,44,20,18,6,6,1.2,1.1
2024-02-07T2200,2351A,113.866,27.6198,萍乡市,安源区政府,细颗粒物(PM2.5),85,78,38,63,34,49,,55,51,14,12,8,8,0.9,0.8
2024-02-07T2200,2319A,119.0141,25.4325,莆田市,荔城区仓后路,,21,2,7,0,2,67,,55,55,9,12,7,7,0.7,0.8
2024-02-07T2200,2320A,119.0015,25.4553,莆田市,莆田市监测站,,20,6,8,0,2,63,,49,49,9,14,8,8,0.4,0.5
2024-02-07T2200,2321A,119.1119,25.4561,莆田市,涵江区六中,,25,1,6,0,0,77,,62,62,5,12,7,7,0.6,0.7
2024-02-07T2200,2322A,119.1013,25.3215,莆田市,秀屿区政府,,25,11,9,0,0,78,,68,68,6,8,4,4,0.6,0.8
2024-02-07T2200,2392A,115.0312,35.7636,濮阳市,环保局,细颗粒物(PM2.5),226,,113,176,110,61,,107,95,43,30,7,5,1.1,0.9
2024-02-07T2200,2394A,115.0574,35.7609,濮阳市,油田运输公司,细颗粒物(PM2.5),202,198,129,152,107,48,,106,82,62,42,9,7,1.4,1.1
2024-02-07T2200,2395A,115.0866,35.7754,濮阳市,油田物探公司,细颗粒物(PM2.5),264,271,146,214,124,32,,103,85,73,36,7,5,1.5,1
2024-02-07T2200,3021A,115,35.7668,濮阳市,濮水河管理处,,,,127,,114,,,105,93,43,35,6,6,1.2,1
2024-02-07T2200,2601A,100.98,22.7633,普洱市,市环保局,细颗粒物(PM2.5),69,75,48,50,37,66,,100,93,13,9,4,5,0.5,0.5
2024-02-07T2200,2602A,100.9817,22.8322,普洱市,普洱第二中学,细颗粒物(PM2.5),85,76,43,63,32,61,,104,93,20,20,7,5,0.7,0.5
2024-02-07T2200,2262A,131.0518,45.8751,七台河市,新一中,细颗粒物(PM2.5),59,,61,42,54,107,,121,117,11,13,11,14,0.8,0.8
2024-02-07T2200,3345A,131.0577,45.7879,七台河市,中波台,细颗粒物(PM2.5),68,53,77,49,70,76,,90,83,37,39,16,15,0.9,1
2024-02-07T2200,3637A,131.0176,45.7761,七台河市,人民广场,细颗粒物(PM2.5),60,54,95,43,75,70,,83,76,42,48,15,19,1.0,1.2
2024-02-07T2200,3684A,130.8781,45.8222,七台河市,新建矿广场,细颗粒物(PM2.5),58,,99,41,80,90,,111,102,19,30,14,18,0.7,1.1
2024-02-07T2200,1779A,123.9305,47.3636,齐齐哈尔市,安居小区,,42,42,55,25,42,65,,77,70,14,22,10,9,0.5,0.5
2024-02-07T2200,1780A,123.9488,47.3386,齐齐哈尔市,中心广场,,33,33,61,20,41,71,,64,61,10,25,8,8,0.4,0.8
2024-02-07T2200,1781A,123.9483,47.3227,齐齐哈尔市,农牧车辆厂,,27,27,50,17,34,68,,73,67,11,19,10,11,0.4,0.6
2024-02-07T2200,1783A,123.945,47.2988,齐齐哈尔市,市环境监测站,,32,32,62,15,41,73,,76,65,10,25,6,5,0.3,0.6
2024-02-07T2200,3662A,123.6333,47.2075,齐齐哈尔市,富区青少年活动中心,,36,36,67,25,38,63,,68,57,11,24,11,16,0.5,0.7
2024-02-07T2200,2591A,107.9783,26.5747,黔东南苗族侗族自治州,市环境监测站,,,34,23,29,20,,,71,69,10,6,5,5,0.5,0.6
2024-02-07T2200,2881A,107.8908,26.5311,黔东南苗族侗族自治州,凯里学院,,33,26,18,23,16,86,,85,84,6,6,3,3,0.8,0.7
2024-02-07T2200,2593A,107.5228,26.2403,黔南布依族苗族自治州,小围寨,,32,,13,22,13,68,,71,67,6,6,5,4,0.8,0.8
2024-02-07T2200,3538A,107.5175,26.2978,黔南布依族苗族自治州,沙坝,,32,29,15,22,15,76,,79,75,4,3,5,4,0.6,0.6
2024-02-07T2200,2589A,104.9022,25.0925,黔西南布依族苗族自治州,场坝街,颗粒物(PM10),51,52,28,35,19,30,,34,33,12,10,2,2,0.8,0.7
2024-02-07T2200,2590A,104.8811,25.0992,黔西南布依族苗族自治州,坪东大道,细颗粒物(PM2.5),52,46,29,36,20,33,,32,32,8,8,2,2,0.6,0.7
2024-02-07T2200,2502A,108.6236,21.9667,钦州市,市环保站,,22,22,18,12,9,38,,42,42,13,11,6,6,1.3,1.2
2024-02-07T2200,2503A,108.6549,21.9481,钦州市,沙埠小学,,20,20,18,4,4,41,,43,43,11,11,6,6,1.1,1.1
2024-02-07T2200,2504A,108.5989,21.7431,钦州市,港区一小,,31,31,38,13,11,31,,38,36,18,12,9,8,0.9,1
2024-02-07T2200,3404A,108.5959,21.9633,钦州市,北职校,,23,,15,16,12,40,,44,44,9,8,6,6,0.9,0.9
2024-02-07T2200,1042A,119.5134,39.8207,秦皇岛市,北戴河环保局,,33,33,53,19,35,87,,91,91,17,38,8,11,0.4,0.8
2024-02-07T2200,1043A,119.7493,40.0116,秦皇岛市,第一关,细颗粒物(PM2.5),74,64,66,54,47,57,,80,65,37,46,14,15,0.6,0.7
2024-02-07T2200,1044A,119.5897,39.9499,秦皇岛市,监测站,颗粒物(PM10),78,106,71,56,47,22,,82,72,77,46,12,11,0.9,0.8
2024-02-07T2200,1046A,119.5251,39.9041,秦皇岛市,建设大厦,细颗粒物(PM2.5),107,98,67,80,46,31,,86,76,55,32,8,8,1.0,0.8
2024-02-07T2200,3132A,119.610547,39.943889,秦皇岛市,文明里,颗粒物(PM10),51,52,73,33,41,79,,83,83,27,47,10,10,0.4,0.8
2024-02-07T2200,1307A,120.6659,36.2403,青岛市,仰口,,42,39,38,29,31,93,,98,97,11,12,3,6,0.5,0.6
2024-02-07T2200,1310A,120.4134,36.0658,青岛市,市南区东部子站,细颗粒物(PM2.5),73,70,68,53,51,71,,91,89,28,24,12,12,0.9,1
2024-02-07T2200,1311A,120.3664,36.1032,青岛市,四方区子站,细颗粒物(PM2.5),83,73,67,61,57,73,,92,89,34,33,9,10,1.1,1.2
2024-02-07T2200,1312A,120.2994,36.054,青岛市,市南区西部子站,细颗粒物(PM2.5),70,80,68,51,50,89,,92,92,20,23,12,11,1.2,1.1
2024-02-07T2200,1313A,120.4581,36.0858,青岛市,崂山区子站,细颗粒物(PM2.5),70,75,61,51,42,71,,95,91,25,17,11,11,0.9,0.9
2024-02-07T2200,1314A,120.1983,35.9608,青岛市,黄岛区子站,细颗粒物(PM2.5),113,119,81,85,63,35,,89,81,79,44,12,11,1.3,1.1
2024-02-07T2200,1315A,120.3999,36.3083,青岛市,城阳区子站,细颗粒物(PM2.5),64,75,68,46,39,68,,91,80,34,33,10,11,1.1,1
2024-02-07T2200,1966A,120.0405,35.8735,青岛市,黄岛区4号,细颗粒物(PM2.5),144,134,91,110,75,94,,102,100,24,21,14,13,1.4,1.2
2024-02-07T2200,3362A,120.5014,36.4034,青岛市,即墨2号,细颗粒物(PM2.5),85,83,66,63,50,72,,91,85,22,21,8,12,1.0,0.9
2024-02-07T2200,3642A,120.3503,36.0736,青岛市,市北区南部,细颗粒物(PM2.5),83,78,76,61,51,79,,87,82,32,37,11,12,1.0,1.1
2024-02-07T2200,3643A,120.3948,36.1805,青岛市,李沧区北部,细颗粒物(PM2.5),94,85,68,70,58,62,,99,91,46,34,14,13,1.1,1
2024-02-07T2200,1702A,113.0426,23.691,清远市,环保大楼,,10,2,3,1,1,29,,28,28,8,7,2,2,0.5,0.7
2024-02-07T2200,1703A,113.0208,23.7106,清远市,凤城街办,,11,3,4,2,2,34,,32,32,7,7,4,4,0.9,0.8
2024-02-07T2200,3025A,113.0477,23.6344,清远市,技师学院,,10,3,4,2,2,31,,31,31,7,7,4,4,0.8,0.8
2024-02-07T2200,3318A,112.9903,23.7403,清远市,清新太和,,12,1,2,1,1,37,,34,34,8,9,3,2,0.9,0.8
2024-02-07T2200,3455A,113.076,23.7198,清远市,清城东城,,10,1,1,1,1,32,,32,32,10,10,7,6,1.0,1.1
2024-02-07T2200,2661A,107.6325,35.7357,庆阳市,庆阳五中,细颗粒物(PM2.5),105,92,76,79,64,84,,86,83,12,13,6,13,0.8,0.8
2024-02-07T2200,2662A,107.6364,35.7067,庆阳市,市环保局,细颗粒物(PM2.5),102,96,73,76,56,82,,87,81,16,14,6,7,1.1,0.9
2024-02-07T2200,1916A,103.7897,25.5035,曲靖市,环境监测站,颗粒物(PM10),51,51,31,22,19,79,,96,92,11,8,3,3,0.7,0.6
2024-02-07T2200,1917A,103.8,25.5364,曲靖市,烟厂办公区,,38,38,31,22,19,85,,96,93,8,7,3,4,0.5,0.5
2024-02-07T2200,3376A,103.7947,25.462,曲靖市,南苑二区,,45,45,35,26,20,77,,89,87,10,8,4,4,0.5,0.5
