timepoint,stationcode,longitude,latitude,area,positionname,primarypollutant,aqi,pm10,pm10_24h,pm2_5,pm2_5_24h,o3,o3_24h,o3_8h,o3_8h_24h,no2,no2_24h,so2,so2_24h,co,co_24h
2025-08-26T2000,2566A,102.1879,31.914,阿坝藏族羌族自治州,州农科所,,17,17,13,6,6,34,,55,53,9,6,14,14,0.1,0.1
2025-08-26T2000,2568A,102.2502,31.8896,阿坝藏族羌族自治州,马师校,,26,26,19,16,13,14,,43,40,15,8,8,8,0.8,0.8
2025-08-26T2000,3994A,102.2165,31.9024,阿坝藏族羌族自治州,马尔康中学西区,,20,20,14,13,11,21,,54,50,11,5,8,8,0.7,0.6
2025-08-26T2000,2695A,80.292,41.1694,阿克苏地区,电视台,颗粒物(PM10),52,53,45,27,26,130,,120,120,3,13,4,4,0.5,0.6
2025-08-26T2000,2696A,80.2613,41.1551,阿克苏地区,艺术中心,,49,49,40,26,24,133,,123,123,4,22,4,4,0.2,0.2
2025-08-26T2000,2204A,105.6467,38.8363,阿拉善盟,西城区西花园,,33,18,26,15,18,104,,108,99,10,11,8,8,1.1,1
2025-08-26T2000,2205A,105.6985,38.8411,阿拉善盟,蒙二幼,,32,,24,3,14,101,,98,95,3,4,9,9,0.5,0.5
2025-08-26T2000,2206A,105.724,38.8516,阿拉善盟,环保局新楼,,34,6,21,3,13,106,,100,100,5,6,10,10,0.6,0.5
2025-08-26T2000,2708A,88.1264,47.8517,阿勒泰地区,市站,,26,26,28,6,7,77,,81,81,10,14,3,3,0.4,0.5
2025-08-26T2000,2630A,80.1161,32.5,阿里地区,阿里监测站,,20,6,4,3,2,61,,63,63,4,3,6,6,0.1,0.1
2025-08-26T2000,3192A,80.0903,32.5028,阿里地区,阿里藏医院,,23,7,9,3,1,71,,71,71,1,1,6,6,0.3,0.3
2025-08-26T2000,2642A,109.0318,32.6537,安康市,香溪洞,,26,20,25,11,12,83,,83,83,3,7,7,7,0.3,0.4
2025-08-26T2000,2644A,109.0072,32.6975,安康市,汉滨区检察院,,,34,28,,9,35,,76,72,13,9,5,5,0.5,0.5
2025-08-26T2000,4054A,109.0325,32.6913,安康市,市邮政管理局,颗粒物(PM10),56,61,29,15,7,47,,75,73,20,9,7,7,0.8,0.7
2025-08-26T2000,2291A,117.0809,30.5177,安庆市,环科院,,39,23,14,12,8,124,,142,142,8,11,5,6,0.6,0.6
2025-08-26T2000,2292A,117.0331,30.5119,安庆市,马山宾馆,,38,22,14,19,6,120,,128,128,11,13,5,6,0.5,0.4
2025-08-26T2000,2294A,116.9896,30.6145,安庆市,安庆大学,,,22,18,12,9,121,,123,122,6,12,4,4,,0.5
2025-08-26T2000,3173A,117.0598,30.5351,安庆市,市人大,,39,25,16,14,8,123,,144,144,13,12,5,6,0.6,0.5
2025-08-26T2000,3122A,105.9606,26.2611,安顺市,伍家关,,16,8,8,3,5,51,,58,56,5,5,5,6,0.4,0.5
2025-08-26T2000,3123A,105.9408,26.2431,安顺市,凤凰山,,15,10,11,10,10,46,,52,50,5,7,5,6,0.4,0.4
2025-08-26T2000,3124A,105.9439,26.2564,安顺市,金钟山,,16,9,13,9,7,49,,55,53,4,4,6,7,0.5,0.4
2025-08-26T2000,3125A,105.8983,26.2481,安顺市,娄家坡,,15,8,8,8,8,45,,48,,3,3,8,8,0.4,0.4
2025-08-26T2000,1818A,114.4839,36.0621,安阳市,棉研所,,,,,,,,,,,,,,,,
2025-08-26T2000,1819A,114.3551,36.1017,安阳市,红庙街,,41,40,49,18,21,129,,139,139,10,16,5,8,0.5,0.8
2025-08-26T2000,1820A,114.361,36.0681,安阳市,银杏小区,,43,40,49,18,26,136,,145,145,11,18,5,8,0.4,0.6
2025-08-26T2000,3141A,114.3922,36.0878,安阳市,信访局,,45,38,45,16,23,141,,152,152,9,19,5,7,0.7,0.9
2025-08-26T2000,3669A,114.4705,36.0637,安阳市,左辅环卫站,,40,40,59,16,28,122,,142,142,15,24,5,6,0.5,0.6
2025-08-26T2000,3703A,114.2917,36.0949,安阳市,安钢职工学校,,50,50,57,21,29,128,,139,139,8,15,4,8,0.6,0.9
2025-08-26T2000,1748A,123.044,41.1196,鞍山市,深沟寺,,21,19,24,8,12,65,,85,83,12,14,6,7,1.6,1.1
2025-08-26T2000,1749A,123.011,41.0931,鞍山市,太阳城,,27,13,31,7,21,84,,87,87,15,16,6,6,0.8,1.2
2025-08-26T2000,1750A,123.0485,41.1442,鞍山市,太平,,26,26,38,12,20,69,,90,89,21,18,8,8,2.4,1.6
2025-08-26T2000,1751A,122.9642,41.0971,鞍山市,铁西三道街,,26,26,33,16,22,78,,88,88,15,27,7,11,0.9,1.8
2025-08-26T2000,1753A,123.022,41.0821,鞍山市,明达新区,,18,14,25,3,12,57,,78,78,18,16,7,8,1.2,1.1
2025-08-26T2000,1754A,123.1289,41.0228,鞍山市,千山,,,,23,,9,,,50,,,10,,3,,0.5
2025-08-26T2000,4201A,122.9446,41.0826,鞍山市,兴盛南路290号,,23,23,25,9,14,57,,91,88,36,28,8,11,0.9,1.5
2025-08-26T2000,2195A,107.4212,40.761,巴彦淖尔市,附二中,,34,34,39,22,20,69,,78,76,16,12,9,15,0.8,0.7
2025-08-26T2000,2196A,107.37,40.7372,巴彦淖尔市,市环保大楼,,48,48,41,18,19,67,,95,69,15,12,8,9,0.8,0.6
2025-08-26T2000,1956A,86.1472,41.7538,巴音郭楞蒙古自治州,孔雀公园,颗粒物(PM10),52,54,35,21,16,108,,106,106,3,8,4,5,0.2,0.3
2025-08-26T2000,1957A,86.1972,41.7166,巴音郭楞蒙古自治州,棉纺厂,颗粒物(PM10),66,81,34,14,7,110,,110,110,1,4,4,4,0.2,0.2
2025-08-26T2000,1958A,86.2357,41.7173,巴音郭楞蒙古自治州,经济开发区,,35,35,19,15,7,108,,105,105,3,3,4,4,0.2,0.2
2025-08-26T2000,2914A,106.7677,31.8794,巴中市,苏山坪,,25,15,12,10,8,79,,79,79,5,5,5,5,0.4,0.4
2025-08-26T2000,3181A,106.7768,31.8526,巴中市,市五中,,28,28,24,12,11,68,,85,84,7,11,6,7,0.4,0.4
2025-08-26T2000,3183A,106.7418,31.8654,巴中市,圣泉水务公司,,20,17,19,7,9,63,,89,86,15,8,6,6,0.6,0.6
2025-08-26T2000,3616A,106.7616,31.8344,巴中市,市中心医院,,21,21,20,7,12,67,,85,84,17,12,7,6,0.4,0.4
2025-08-26T2000,2235A,122.7911,45.6077,白城市,洮北区环保局,,15,12,8,9,5,48,,64,62,13,4,3,4,0.3,0.3
2025-08-26T2000,2236A,122.8738,45.5725,白城市,市环保局,,22,22,7,3,7,38,,64,59,19,4,5,4,0.6,0.4
2025-08-26T2000,2231A,126.4219,41.9171,白山市,喜丰,,31,31,17,12,6,30,,80,71,16,8,5,5,0.5,0.5
2025-08-26T2000,2232A,126.4077,41.9419,白山市,环保局,,25,24,15,17,7,51,,82,75,7,6,6,6,0.6,0.6
2025-08-26T2000,2647A,104.1724,36.5446,白银市,第三小学,,30,18,15,11,7,94,,99,99,6,8,3,15,0.6,0.7
2025-08-26T2000,2648A,104.1465,36.5482,白银市,动力公司,,32,20,12,20,7,100,,94,94,5,9,5,14,0.4,0.5
2025-08-26T2000,2512A,106.6103,23.9011,百色市,市监测站,,32,32,22,15,8,56,,73,72,10,8,9,6,0.5,0.4
2025-08-26T2000,2513A,106.6538,23.8859,百色市,市中心血站,,28,28,25,7,7,45,,67,64,12,16,5,4,0.6,0.6
2025-08-26T2000,3406A,106.6085,23.8798,百色市,祈福高中,颗粒物(PM10),60,70,34,22,10,57,,71,71,16,16,5,7,0.5,0.5
2025-08-26T2000,2270A,117.396,32.939,蚌埠市,工人疗养院,,24,24,15,9,3,52,,72,70,16,8,4,4,0.4,0.3
2025-08-26T2000,2271A,117.3605,32.9427,蚌埠市,百货大楼,,26,26,11,7,4,55,,72,72,20,10,6,6,0.5,0.4
2025-08-26T2000,2273A,117.4185,32.8911,蚌埠市,蚌埠学院,,18,9,8,8,5,56,,71,71,7,4,5,8,0.4,0.3
2025-08-26T2000,2274A,117.3533,32.9673,蚌埠市,淮上区政府,,19,19,13,10,7,56,,76,75,23,11,6,6,0.4,0.3
2025-08-26T2000,2275A,117.3145,32.8977,蚌埠市,高新区,,23,17,10,7,5,71,,77,77,8,9,5,6,0.5,0.5
2025-08-26T2000,3715A,117.3092,32.9314,蚌埠市,蚌埠田家炳中学,,25,16,14,9,5,77,,80,80,6,9,3,4,0.4,0.3
2025-08-26T2000,1585A,109.8756,40.6532,包头市,市环境监测站,,23,19,29,11,11,72,,85,80,33,28,4,7,0.9,0.8
2025-08-26T2000,1587A,109.9991,40.5842,包头市,包头八中,,27,22,41,15,18,85,,85,84,19,28,8,10,0.9,0.8
2025-08-26T2000,1588A,109.8538,40.6821,包头市,青山宾馆,,25,,26,17,16,70,,83,77,38,33,2,5,0.6,0.6
2025-08-26T2000,1589A,109.8642,40.6288,包头市,惠龙物流,,30,22,29,10,15,94,,86,85,13,22,3,6,0.6,0.7
2025-08-26T2000,1590A,110.0377,40.5546,包头市,东河鸿龙湾,,34,20,32,3,12,107,,98,98,12,21,5,7,0.6,0.6
2025-08-26T2000,3283A,109.9154,40.5685,包头市,滨河大厦,,34,,30,17,15,108,,91,91,7,26,3,5,0.7,0.5
2025-08-26T2000,3419A,109.9447,40.6261,包头市,包头市委党校,,29,,30,16,15,92,,91,88,21,25,5,11,0.5,0.7
2025-08-26T2000,3683A,109.8331,40.6576,包头市,昆区政府,,28,24,33,19,17,84,,90,88,22,26,4,8,0.8,0.7
2025-08-26T2000,1930A,107.185,34.3063,宝鸡市,庙沟村,,19,12,39,10,19,60,,114,105,6,11,4,4,0.4,0.7
2025-08-26T2000,1931A,107.0708,34.3017,宝鸡市,竹园沟,,,62,45,15,24,68,,132,128,15,13,,7,0.4,0.5
2025-08-26T2000,1932A,107.1906,34.3672,宝鸡市,三陆医院,,32,32,49,18,32,84,,129,126,22,20,8,8,0.8,0.9
2025-08-26T2000,1933A,107.1431,34.3547,宝鸡市,监测站,,46,46,55,20,31,62,,130,124,25,15,9,9,0.8,1
2025-08-26T2000,1934A,107.1186,34.3739,宝鸡市,技工学校,,42,42,50,27,32,68,,130,125,20,15,6,7,0.6,0.7
2025-08-26T2000,1936A,107.2058,34.3497,宝鸡市,文理学院,,24,23,46,12,28,76,,132,127,13,15,8,8,0.5,0.7
2025-08-26T2000,1937A,107.2386,34.3622,宝鸡市,三迪小学,,41,41,53,14,34,91,,133,131,18,21,6,6,0.6,0.7
2025-08-26T2000,4308A,107.3898,34.3601,宝鸡市,陈仓区北开路21号,颗粒物(PM10),53,56,53,22,25,145,,147,147,15,15,6,6,0.6,0.6
2025-08-26T2000,1051A,115.493,38.8632,保定市,游泳馆,,44,44,41,22,21,123,,136,134,9,14,9,9,0.4,0.4
2025-08-26T2000,1052A,115.5213,38.8959,保定市,华电二区,,40,39,38,13,17,126,,145,141,13,12,3,3,0.6,0.6
2025-08-26T2000,1053A,115.4713,38.9108,保定市,接待中心,,37,33,36,13,19,116,,123,120,9,7,3,2,0.5,0.5
2025-08-26T2000,1054A,115.4612,38.8416,保定市,地表水厂,颗粒物(PM10),51,51,52,15,18,114,,130,127,23,23,4,5,0.5,0.5
2025-08-26T2000,3581A,115.31981,38.95208,保定市,满城区生态环境分局,颗粒物(PM10),52,53,41,14,17,106,,135,132,16,14,3,3,0.2,0.1
2025-08-26T2000,3582A,115.47694,38.76408,保定市,清苑区第二中学,颗粒物(PM10),57,63,48,23,20,94,,125,120,15,11,5,5,0.4,0.4
2025-08-26T2000,3583A,115.62909,39.02311,保定市,徐水物探局,颗粒物(PM10),53,56,48,7,12,121,,142,139,19,26,3,2,0.5,0.4
2025-08-26T2000,4004A,115.4202,38.8656,保定市,双鹰农机,,46,46,43,17,25,108,,133,128,15,15,5,5,0.3,0.3
2025-08-26T2000,4034A,115.5150,38.8590,保定市,植保所站,,48,48,47,14,15,118,,152,147,29,24,1,2,0.4,0.4
2025-08-26T2000,2594A,99.1678,25.1081,保山市,市环境监测站,,32,23,18,22,17,60,,70,70,9,6,9,8,0.4,0.4
2025-08-26T2000,2595A,99.1711,25.1328,保山市,市环保局,,,,17,,10,57,,68,67,,5,7,7,0.3,0.3
2025-08-26T2000,1866A,109.2262,21.588,北海市,牛尾岭水库,,50,11,11,6,5,60,,70,70,5,5,2,7,5.0,0.6
2025-08-26T2000,1867A,109.1436,21.4086,北海市,海滩公园,,18,13,16,7,4,57,,68,68,6,5,4,4,0.5,0.4
2025-08-26T2000,1868A,109.0981,21.4661,北海市,新市环保局,,26,26,15,14,10,48,,55,55,10,9,4,6,0.3,0.3
2025-08-26T2000,1869A,109.1778,21.5233,北海市,北海工业园,,33,33,20,7,10,45,,61,61,12,10,3,10,0.4,0.4
2025-08-26T2000,3400A,109.1911,21.4415,北海市,龙潭自来水厂,,,,14,19,8,55,,64,64,6,6,4,4,,0.4
2025-08-26T2000,1001A,116.3621,39.8784,北京市,万寿西宫,,38,34,22,14,10,121,,132,132,18,14,3,3,0.6,0.5
2025-08-26T2000,1002A,116.2202,40.2915,北京市,定陵,,24,24,18,11,9,45,,96,87,1,2,5,5,0.4,0.3
2025-08-26T2000,1003A,116.4174,39.9289,北京市,东四,,42,26,21,12,9,133,,131,131,17,17,3,3,0.4,0.4
2025-08-26T2000,1004A,116.4072,39.8863,北京市,天坛,,25,23,20,9,9,80,,116,115,2,14,3,3,0.4,0.4
2025-08-26T2000,1005A,116.462,39.9365,北京市,农展馆,,40,28,20,14,10,128,,117,117,13,17,4,3,0.7,0.6
2025-08-26T2000,1006A,116.3392,39.9295,北京市,官园,,44,27,22,17,10,138,,132,132,14,17,7,6,0.4,0.4
2025-08-26T2000,1007A,116.2878,39.9611,北京市,海淀万柳,,33,33,23,16,11,101,,97,97,22,22,3,3,0.5,0.3
2025-08-26T2000,1008A,116.6636,40.135,北京市,顺义新城,,,,,,,,,,,,,,,,
2025-08-26T2000,1009A,116.6275,40.3275,北京市,怀柔镇,,33,33,18,18,9,55,,95,92,15,12,3,2,0.6,0.5
2025-08-26T2000,1010A,116.2296,40.217,北京市,昌平镇,,25,25,19,15,10,63,,95,91,11,11,4,4,0.7,0.6
2025-08-26T2000,1011A,116.3966,39.9821,北京市,奥体中心,,40,26,19,13,9,126,,106,106,12,14,4,4,0.4,0.3
2025-08-26T2000,3281A,115.9718,40.4529,北京市,延庆夏都,,24,23,21,12,9,76,,75,75,11,10,3,3,0.5,0.4
2025-08-26T2000,3418A,116.8336,40.4095,北京市,密云新城,,35,35,16,14,8,54,,90,88,8,5,2,2,0.7,0.4
2025-08-26T2000,3671A,116.088,39.9726,北京市,门头沟三家店,,36,29,21,25,10,45,,92,86,18,8,3,3,0.6,0.4
2025-08-26T2000,3672A,116.1541,39.8204,北京市,丰台云岗,,37,37,28,19,12,86,,106,106,17,15,5,5,0.5,0.4
2025-08-26T2000,3673A,116.6804,39.9081,北京市,通州东关,,48,48,32,29,14,118,,130,130,24,20,3,3,0.8,0.6
2025-08-26T2000,3674A,115.9577,39.7603,北京市,房山燕山,,30,30,25,12,12,95,,111,111,7,11,1,2,0.3,0.3
2025-08-26T2000,3675A,116.4672,39.7733,北京市,大兴旧宫,,23,23,21,11,10,70,,112,109,11,14,2,2,0.6,0.5
2025-08-26T2000,3694A,115.986,40.4563,北京市,延庆石河营,,23,23,20,12,10,61,,73,72,7,8,1,1,0.4,0.4
2025-08-26T2000,3695A,116.6151,40.3053,北京市,怀柔新城,,27,27,19,14,10,52,,88,85,5,6,3,3,0.5,0.4
2025-08-26T2000,3696A,116.2545,39.8768,北京市,丰台小屯,,30,30,24,15,12,85,,107,105,27,17,1,2,0.5,0.6
2025-08-26T2000,3697A,116.84,40.3844,北京市,密云镇,,,,17,,8,,,66,,,9,,5,,0.5
2025-08-26T2000,4182A,116.1942,39.9158,北京市,八角北路9号,,42,42,26,17,11,105,,126,126,20,15,1,2,0.5,0.5
2025-08-26T2000,4194A,117.0790,40.1518,北京市,洳河巡河路,,37,37,25,17,12,76,,118,113,8,6,3,3,0.6,0.5
2025-08-26T2000,1761A,123.8275,41.3064,本溪市,大峪,,29,29,22,10,8,44,,111,98,9,9,6,5,0.4,0.6
2025-08-26T2000,1762A,123.7567,41.3325,本溪市,溪湖,,,,17,,9,46,,104,96,15,10,5,11,0.6,0.8
2025-08-26T2000,1763A,123.7169,41.3094,本溪市,彩屯,,21,21,18,12,11,22,,101,88,20,16,8,9,0.6,0.8
2025-08-26T2000,1764A,123.7669,41.2864,本溪市,东明,,35,24,23,24,10,53,,107,101,29,15,6,6,0.8,0.8
2025-08-26T2000,1765A,123.7992,41.2664,本溪市,新立屯,,22,22,20,7,6,10,,98,64,28,8,5,5,0.6,1
2025-08-26T2000,1766A,123.8142,41.3472,本溪市,威宁,,23,23,18,11,11,22,,90,81,23,11,3,11,0.4,0.5
2025-08-26T2000,2587A,105.2864,27.3125,毕节市,八中,,20,20,21,12,15,48,,52,52,6,9,5,6,0.4,0.4
2025-08-26T2000,2588A,105.31,27.2944,毕节市,师专,,18,18,19,12,12,38,,52,51,17,12,5,6,0.3,0.4
2025-08-26T2000,4263A,105.3688,27.3598,毕节市,工业大道,,24,24,21,15,12,50,,56,55,10,13,7,8,0.5,0.5
2025-08-26T2000,1629A,118.0018,37.3617,滨州市,第二水厂,,33,29,31,12,21,105,,136,133,13,11,4,4,0.5,0.7
2025-08-26T2000,1630A,117.9776,37.393,滨州市,北中新校,,37,36,36,14,20,118,,145,142,14,16,5,4,0.7,0.8
2025-08-26T2000,3514A,117.9378,37.3956,滨州市,中海酒店,,40,24,28,17,19,126,,150,148,7,12,4,4,0.7,0.7
2025-08-26T2000,3515A,117.9378,37.3553,滨州市,开发区一中,,39,39,33,19,24,123,,153,151,12,12,4,5,0,0.1
2025-08-26T2000,3516A,118.0917,37.694,滨州市,金海六路,,35,27,25,19,23,112,,146,141,12,19,3,4,0.4,0.5
2025-08-26T2000,4028A,117.9956,37.3753,滨州市,滨州市西街道办事处,,36,27,22,19,22,113,,152,148,15,13,2,3,0.5,0.6
2025-08-26T2000,2311A,115.8072,33.8399,亳州市,污水处理厂,,32,22,16,22,17,82,,107,105,9,8,8,6,0.7,0.6
2025-08-26T2000,2312A,115.7789,33.8518,亳州市,三国揽胜宫,,33,29,28,18,17,105,,102,102,5,6,5,4,0.7,0.7
2025-08-26T2000,3332A,115.7633,33.8034,亳州市,亳州学院,,31,24,17,18,15,98,,95,95,5,7,3,5,0.6,0.5
2025-08-26T2000,2693A,82.0485,44.8556,博尔塔拉蒙古自治州,市党校,,32,22,23,13,14,102,,100,100,5,5,3,3,0.2,0.2
2025-08-26T2000,2694A,82.0806,44.8969,博尔塔拉蒙古自治州,市环保局,,,26,29,12,11,103,,103,103,4,8,,4,0.3,0.3
2025-08-26T2000,1071A,116.8842,38.2991,沧州市,沧县城建局,,40,34,36,16,17,127,,139,139,13,18,2,2,0.5,0.4
2025-08-26T2000,1072A,116.8584,38.3254,沧州市,电视转播站,颗粒物(PM10),52,54,48,17,17,117,,129,129,12,17,3,2,0.5,0.4
2025-08-26T2000,1073A,116.8709,38.3228,沧州市,市环保局,,42,36,41,26,23,132,,147,146,8,15,6,6,0.5,0.4
2025-08-26T2000,3324A,116.8136,38.3004,沧州市,河北水利电力学院,,45,29,32,20,24,143,,148,148,10,17,3,3,0.5,0.4
2025-08-26T2000,2622A,97.1806,31.1273,昌都市,昌都监测站,,13,12,13,9,6,34,,41,41,5,4,5,5,0.3,0.3
2025-08-26T2000,3719A,97.1714,31.1406,昌都市,昌都会议中心,,14,14,11,8,6,36,,42,42,3,4,3,3,0.3,0.3
2025-08-26T2000,2690A,88.1236,43.8886,昌吉回族自治州,天山天池,,22,15,15,13,10,69,,104,99,7,8,2,8,0.6,0.5
2025-08-26T2000,2692A,87.2717,44.0297,昌吉回族自治州,新区政务中心,,35,9,23,8,7,112,,117,117,4,17,1,1,0.3,0.4
2025-08-26T2000,3613A,87.3095,44.0142,昌吉回族自治州,亚心广场,,36,14,33,7,16,114,,116,116,6,19,8,7,0.3,0.3
2025-08-26T2000,1120A,125.2863,43.9027,长春市,客车厂,,33,33,24,21,12,36,,67,62,37,23,9,5,0.4,0.3
2025-08-26T2000,1121A,125.2841,43.8463,长春市,邮电学院,,27,27,22,6,12,55,,73,71,21,18,8,5,0.5,0.5
2025-08-26T2000,1122A,125.3716,43.8772,长春市,劳动公园,,,26,26,20,10,63,,72,72,18,20,,8,0.2,0.3
2025-08-26T2000,1123A,125.3297,43.8805,长春市,园林处,,18,17,22,6,8,57,,68,67,17,17,4,5,0.4,0.5
2025-08-26T2000,1124A,125.4605,43.79,长春市,净月潭,,19,17,18,3,4,59,,75,73,11,11,5,5,0.2,0.3
2025-08-26T2000,1125A,125.7194,43.515,长春市,甩湾子,,,,,,,,,,,,,,,,
2025-08-26T2000,1126A,125.3863,43.8447,长春市,经开区环卫处,,20,19,21,6,8,62,,74,73,13,18,4,4,0.4,0.5
2025-08-26T2000,1127A,125.245,43.7783,长春市,高新区管委会,,23,23,21,16,10,40,,73,69,25,20,3,3,0.4,0.4
2025-08-26T2000,1128A,125.1761,43.8325,长春市,岱山公园,,14,14,20,3,10,41,,70,65,26,20,3,3,0.3,0.3
2025-08-26T2000,4281A,125.3346,43.9164,长春市,北亚泰大街1068号,,43,43,27,15,12,54,,68,66,19,20,6,7,0.4,0.4
2025-08-26T2000,1335A,113.0833,28.2325,长沙市,经开区环保局,,29,29,25,19,15,70,,122,118,16,14,6,6,0.3,0.3
2025-08-26T2000,1336A,112.8872,28.2189,长沙市,高开区环保局,,30,29,28,21,13,79,,130,124,9,11,5,6,0.3,0.4
2025-08-26T2000,1337A,113.0792,28.2053,长沙市,马坡岭,,28,26,24,19,12,70,,143,137,21,11,5,5,0.5,0.5
2025-08-26T2000,1338A,112.9394,28.19,长沙市,湖南师范大学,,30,,24,20,13,93,,134,130,10,12,4,5,0.4,0.3
2025-08-26T2000,1339A,113.0178,28.1322,长沙市,雨花区环保局,,29,29,23,18,14,74,,130,124,11,10,6,7,0.5,0.6
2025-08-26T2000,1340A,112.9792,28.2597,长沙市,伍家岭,,26,26,31,16,13,76,,139,131,9,15,3,3,0.2,0.3
2025-08-26T2000,1341A,113.0014,28.1944,长沙市,火车新站,,40,40,35,14,11,82,,137,131,10,12,6,7,0.5,0.5
2025-08-26T2000,1342A,112.9844,28.1178,长沙市,天心区环保局,,25,21,22,15,12,79,,130,124,13,10,4,5,0.5,0.5
2025-08-26T2000,1343A,112.8908,28.1308,长沙市,湖南中医药大学,,,,28,32,14,80,,138,128,,11,,6,0.5,0.7
2025-08-26T2000,1344A,112.9581,28.3611,长沙市,沙坪,,29,26,22,18,16,91,,161,151,7,12,3,3,0.3,0.4
2025-08-26T2000,1727A,113.1147,36.1547,长治市,清华站,,27,19,21,3,9,86,,92,92,6,8,8,8,0.7,0.9
2025-08-26T2000,1730A,113.0886,36.2125,长治市,审计局,,27,24,21,14,12,86,,94,93,12,10,6,6,1.0,0.9
2025-08-26T2000,1731A,113.0844,36.1856,长治市,长治八中,,27,27,21,15,17,82,,92,91,7,8,8,8,0.8,1
2025-08-26T2000,2845A,113.1569,36.1911,长治市,德盛苑,,27,23,21,9,11,85,,88,88,6,6,9,8,1.2,1
2025-08-26T2000,3568A,113.06,36.0464,长治市,向阳小学,颗粒物(PM10),54,58,52,15,19,68,,99,97,8,7,3,4,0.6,0.8
2025-08-26T2000,3569A,112.8792,36.3144,长治市,屯留一中,,49,41,36,34,27,97,,104,103,17,18,11,11,0.7,0.7
2025-08-26T2000,4189A,113.1131,36.19948,长治市,英华南巷50号,,25,19,24,12,13,80,,93,91,12,11,10,8,0.9,0.9
2025-08-26T2000,4190A,113.2367,36.3344,长治市,学府街1号,,45,34,28,31,16,119,,107,107,9,8,4,2,1.5,1
2025-08-26T2000,1854A,111.6975,28.9703,常德市,市二中,,33,26,28,23,21,60,,79,75,11,12,7,5,0.3,0.4
2025-08-26T2000,1857A,111.7158,29.1456,常德市,白鹤山,,,,,,,,,,,,,,,,
2025-08-26T2000,3138A,111.7153,29.0289,常德市,武陵区永安,,,27,32,14,14,59,,88,79,8,7,7,7,,0.4
2025-08-26T2000,3139A,111.6892,28.9881,常德市,鼎城区玉霞,,24,24,28,16,19,58,,78,73,9,11,7,6,0.3,0.4
2025-08-26T2000,3140A,111.6625,29.0531,常德市,武陵区长庚,,18,12,28,12,19,57,,82,76,6,7,6,6,0.2,0.3
2025-08-26T2000,1196A,119.9633,31.762,常州市,市监测站,,40,,23,28,14,122,,182,175,27,14,8,10,0.9,0.7
2025-08-26T2000,1200A,119.9468,31.7069,常州市,武进监测站,臭氧1小时,59,32,25,28,12,167,,168,168,30,11,7,6,1.6,1
2025-08-26T2000,1201A,119.9255,31.9087,常州市,安家,,45,,23,28,13,144,,204,202,36,20,11,12,1.1,0.9
2025-08-26T2000,3002A,119.9805,31.8174,常州市,行政中心,,45,37,24,31,14,127,,198,193,28,17,3,9,1.0,0.7
2025-08-26T2000,3003A,120.0522,31.7748,常州市,经开区,,37,32,31,18,12,117,,191,184,19,19,4,6,1.0,1
2025-08-26T2000,3010A,119.9025,31.7964,常州市,钟楼,,,,25,,11,,,94,,,18,,7,,0.7
2025-08-26T2000,3429A,119.8598,31.7066,常州市,武进经发区,,42,38,27,19,13,132,,159,157,32,11,8,9,1.1,0.9
2025-08-26T2000,3430A,119.5826,31.7245,常州市,金坛城区,臭氧1小时,53,36,16,22,10,162,,154,154,19,24,7,8,0.7,0.6
2025-08-26T2000,2220A,120.4318,41.5881,朝阳市,西梁,,23,23,25,12,14,60,,77,74,16,19,5,5,0.6,0.5
2025-08-26T2000,2221A,120.4521,41.5646,朝阳市,河畔小区,,30,,23,21,14,69,,80,76,5,10,6,6,0.4,0.5
2025-08-26T2000,2222A,120.4176,41.5648,朝阳市,八里堡,,35,35,36,12,16,67,,83,79,13,19,7,7,0.6,0.6
2025-08-26T2000,2223A,120.3806,41.5969,朝阳市,农业园区,,31,31,22,9,10,30,,77,66,38,15,6,8,0.5,0.4
2025-08-26T2000,1705A,116.6367,23.6719,潮州市,西园路,,33,33,20,8,11,74,,72,72,10,7,8,5,0.3,0.3
2025-08-26T2000,3026A,116.6183,23.6608,潮州市,市政府,,26,24,22,18,9,74,,74,74,8,7,7,4,0.4,0.4
2025-08-26T2000,4036A,116.6461,23.6761,潮州市,金山,,22,,20,13,14,69,,73,73,12,6,9,5,0.4,0.3
2025-08-26T2000,2472A,113.0073,25.9061,郴州市,马头岭,,26,26,21,10,7,53,,82,77,13,10,8,6,0.3,0.3
2025-08-26T2000,2473A,113.0116,25.8226,郴州市,市职中,,28,28,17,10,9,41,,88,79,16,11,5,4,0.3,0.3
2025-08-26T2000,2475A,113.0383,25.8071,郴州市,市审计局,,34,34,15,16,7,48,,95,88,15,9,6,9,0.3,0.3
2025-08-26T2000,2476A,113.0348,25.7759,郴州市,市环保局,,41,41,22,25,10,48,,88,84,3,12,2,3,0.2,0.3
2025-08-26T2000,4252A,113.0138,25.8011,郴州市,好美居路49号,,19,13,14,13,8,48,,94,86,15,8,5,6,0.3,0.2
2025-08-26T2000,1431A,103.9728,30.7236,成都市,金泉两河,,35,31,26,24,13,112,,136,136,10,11,2,3,0.5,0.6
2025-08-26T2000,1432A,104.176,30.6872,成都市,十里店,,36,36,35,24,17,104,,129,129,10,14,2,4,0.5,0.5
2025-08-26T2000,1433A,104.079,30.5706,成都市,三瓦窑,,,40,31,18,21,123,,143,143,,17,2,2,0.4,0.5
2025-08-26T2000,1434A,104.1114,30.63,成都市,沙河铺,,45,45,35,16,17,94,,107,107,17,15,3,3,0.7,0.7
2025-08-26T2000,1437A,104.0786,30.6531,成都市,君平街,颗粒物(PM10),52,54,41,24,22,124,,143,143,6,9,3,4,0.4,0.6
2025-08-26T2000,1438A,103.613,31.0283,成都市,灵岩寺,,,,,,,,,,,,,,,,
2025-08-26T2000,2880A,104.0239,30.65639,成都市,大石西路,,42,36,36,29,24,100,,122,122,17,16,3,4,0.8,0.8
2025-08-26T2000,3136A,104.2725,30.5589,成都市,龙泉驿区区政府,,28,17,24,9,14,88,,114,114,10,16,5,5,0.5,0.6
2025-08-26T2000,3357A,104.0106,30.6931,成都市,金博路,,38,30,26,26,16,93,,126,126,12,14,4,6,0.7,0.7
2025-08-26T2000,3359A,104.0578,30.5225,成都市,华阳,,40,29,31,27,22,126,,125,125,11,16,4,4,0.8,0.8
2025-08-26T2000,3488A,104.3853,30.7453,成都市,青白江技师分院,,33,33,32,22,21,89,,106,106,13,16,2,2,0.6,0.7
2025-08-26T2000,3489A,104.0789,30.4072,成都市,科学城,,39,23,34,16,22,122,,116,116,7,14,3,4,0.6,0.6
2025-08-26T2000,4011A,103.8506,30.6947,成都市,光华大道三段,,43,29,30,19,17,136,,146,146,14,14,4,5,0.9,0.9
2025-08-26T2000,4224A,104.2433,30.5353,成都市,鲸龙路1057号,,33,18,35,10,25,105,,118,118,9,17,4,4,0.3,0.5
2025-08-26T2000,1062A,117.9531,40.9081,承德市,铁路,,47,47,19,14,6,16,,81,74,27,13,3,3,0.4,0.2
2025-08-26T2000,1063A,117.9392,40.9763,承德市,中国银行,,33,33,21,12,8,22,,76,72,18,10,3,2,0.4,0.2
2025-08-26T2000,1064A,117.9503,40.928,承德市,开发区,,36,36,28,11,11,34,,84,80,15,12,3,3,0.4,0.3
2025-08-26T2000,1066A,117.9268,41.0026,承德市,离宫,,26,26,15,3,8,12,,68,59,11,7,3,2,0.3,0.2
2025-08-26T2000,4274A,117.7994,40.9605,承德市,滨河大街98号,,30,30,18,11,9,28,,71,68,7,5,2,3,0.3,0.3
2025-08-26T2000,2314A,117.47,30.6618,池州市,池州学院,,37,26,16,14,6,117,,139,138,17,11,7,8,0.7,0.7
2025-08-26T2000,3237A,117.4918,30.6617,池州市,展览馆,,35,26,15,11,6,109,,146,142,22,11,7,7,0.8,0.7
2025-08-26T2000,3333A,117.5627,30.695,池州市,第八中学,,36,28,15,10,5,113,,144,143,17,9,10,6,0.6,0.4
2025-08-26T2000,3334A,117.5038,30.6243,池州市,第十二中学,,39,13,11,11,6,122,,153,152,17,14,5,4,0.8,0.7
2025-08-26T2000,1744A,118.9233,42.2816,赤峰市,松山一中,,,51,18,,9,64,,82,80,23,16,11,7,0.6,0.5
2025-08-26T2000,1745A,118.9576,42.2728,赤峰市,哈达街,,22,19,15,3,6,68,,81,78,18,15,14,12,0.5,0.5
2025-08-26T2000,1746A,118.8788,42.2554,赤峰市,天义路,,20,13,10,11,9,61,,78,76,20,13,11,13,0.5,0.5
2025-08-26T2000,3058A,119.2658,42.0353,赤峰市,银河街,,21,21,23,6,11,49,,78,73,19,12,9,10,0.5,0.5
2025-08-26T2000,3286A,118.9359,42.3147,赤峰市,桥北物流园区,,27,27,19,3,9,28,,75,69,38,10,12,8,0.7,0.6
2025-08-26T2000,2521A,107.3476,22.4136,崇左市,市环保局江州分局,,18,18,15,7,6,25,,56,49,10,7,7,9,0.6,0.5
2025-08-26T2000,4256A,107.3750,22.3736,崇左市,石景林东路7号,,24,24,14,8,7,28,,59,52,10,7,3,6,0.5,0.4
2025-08-26T2000,2298A,118.3093,32.3153,滁州市,老年大学,,23,21,14,16,5,53,,108,92,13,8,8,8,0.2,0.2
2025-08-26T2000,2299A,118.3244,32.2786,滁州市,人大宾馆,,23,,7,14,8,73,,107,101,2,4,4,4,0.3,0.3
2025-08-26T2000,3207A,118.3118,32.3038,滁州市,市政府原办公楼,,20,14,10,14,12,53,,103,89,14,6,6,6,0.3,0.2
2025-08-26T2000,3331A,118.3267,32.2634,滁州市,图书馆,,23,,10,12,10,71,,109,103,12,5,10,10,0.3,0.2
2025-08-26T2000,2605A,101.5482,25.0441,楚雄彝族自治州,州环境监测站,,19,19,22,7,15,45,,59,58,7,18,5,6,0.4,0.5
2025-08-26T2000,2606A,101.538,25.0492,楚雄彝族自治州,市经济开发区,,,,26,,14,42,,59,58,13,18,6,8,0.6,0.6
2025-08-26T2000,2548A,107.5277,31.2827,达州市,达州职业技术学院,颗粒物(PM10),53,55,38,10,12,37,,84,79,41,17,8,8,0.4,0.5
2025-08-26T2000,2549A,107.5086,31.2186,达州市,市环境监测站,,29,29,29,9,8,40,,71,66,38,24,6,6,0.3,0.3
2025-08-26T2000,2550A,107.4988,31.2132,达州市,凤凰小区,,27,27,24,14,10,61,,73,72,19,20,3,2,0.2,0.3
2025-08-26T2000,2551A,107.5082,31.1986,达州市,达县机关宾馆,,24,24,32,3,12,64,,72,70,16,28,4,5,0.3,0.4
2025-08-26T2000,2552A,107.4644,31.2124,达州市,市政中心,,24,24,32,3,10,61,,74,71,16,21,4,4,0.2,0.3
2025-08-26T2000,2614A,100.1542,25.7054,大理白族自治州,大理市环境监测站,,23,21,20,16,21,60,,80,79,13,14,5,5,0.5,0.5
2025-08-26T2000,2615A,100.2171,25.5811,大理白族自治州,大理古城,,29,20,15,20,9,56,,72,70,12,7,7,6,0.7,0.6
2025-08-26T2000,1109A,121.612,38.9741,大连市,甘井子,,30,16,13,10,8,96,,109,108,16,12,7,7,0.2,0.2
2025-08-26T2000,1110A,121.565,38.9511,大连市,周水子,,30,17,12,12,8,93,,114,112,24,10,8,8,0.4,0.4
2025-08-26T2000,1111A,121.5637,38.8845,大连市,星海三站,,34,22,16,11,9,106,,117,116,15,11,6,6,0.3,0.3
2025-08-26T2000,1112A,121.6302,38.9117,大连市,青泥洼桥,,32,32,18,15,10,97,,117,115,19,12,9,8,0.2,0.3
2025-08-26T2000,1113A,121.6251,38.8638,大连市,傅家庄,,31,,14,17,9,98,,118,116,18,10,11,10,0.4,0.4
2025-08-26T2000,1114A,121.5213,38.8661,大连市,七贤岭,,35,21,14,12,8,110,,122,121,9,4,7,6,0.5,0.6
2025-08-26T2000,1115A,121.2529,38.8061,大连市,旅顺,,35,,8,15,10,111,,108,108,4,4,7,7,0.3,0.3
2025-08-26T2000,1116A,121.7485,39.1311,大连市,金州,,32,23,13,10,9,101,,111,110,11,11,5,6,0.3,0.3
2025-08-26T2000,1117A,121.7811,39.0496,大连市,开发区,,32,18,16,11,9,100,,109,108,14,10,6,6,0.2,0.2
2025-08-26T2000,1118A,121.9762,39.0631,大连市,双D港,,29,23,17,10,9,92,,116,112,12,6,8,8,0.4,0.5
2025-08-26T2000,1789A,124.81117,46.03138,大庆市,大同区,,13,13,13,7,6,37,,50,47,11,8,8,8,0.5,0.5
2025-08-26T2000,1790A,125.129,46.533,大庆市,龙凤区,,29,29,16,7,7,33,,54,51,26,12,7,7,0.5,0.5
2025-08-26T2000,1791A,124.902,46.408,大庆市,红岗区,,28,28,20,12,12,38,,57,54,18,10,6,6,0.6,0.5
2025-08-26T2000,1792A,125.153,46.586,大庆市,萨尔图区,,29,29,20,8,6,39,,50,49,16,11,7,7,0.5,0.5
2025-08-26T2000,1793A,124.9042,46.6215,大庆市,让胡路区,,28,28,21,9,10,44,,53,53,11,6,6,6,0.2,0.2
2025-08-26T2000,3481A,125.141,46.634,大庆市,萨区政府监测点,,20,20,18,3,3,44,,57,55,9,8,7,7,0.3,0.3
2025-08-26T2000,1721A,113.3819,40.1097,大同市,果树场,,28,21,30,19,18,35,,89,74,41,19,8,8,0.4,0.4
2025-08-26T2000,1723A,113.2994,40.0758,大同市,云冈宾馆,,,,47,,15,86,,103,99,16,24,3,6,,1.3
2025-08-26T2000,1724A,113.3444,40.0917,大同市,大同大学,,25,18,32,12,15,79,,101,93,20,31,5,8,0.6,0.8
2025-08-26T2000,1725A,113.2661,40.1269,大同市,安家小村,,29,15,48,6,14,92,,106,103,15,26,3,5,0.7,1.3
2025-08-26T2000,1726A,113.2711,40.0844,大同市,教育学院,,25,18,44,11,16,77,,104,96,25,25,4,9,0.5,1
2025-08-26T2000,3282A,113.3397,40.0597,大同市,大同市卫生学校,,27,27,35,15,15,78,,97,91,20,30,6,9,0.5,0.8
2025-08-26T2000,3565A,113.1367,40.1122,大同市,云冈站,,27,9,44,3,16,84,,97,95,9,17,2,5,0.2,0.4
2025-08-26T2000,3566A,113.1186,40.2556,大同市,图书馆,,25,24,32,13,13,79,,98,95,10,11,2,4,0.7,0.9
2025-08-26T2000,3567A,113.5931,40.0461,大同市,区一中,,29,29,26,12,11,76,,106,100,12,7,8,11,0.4,0.5
2025-08-26T2000,4199A,113.2798,40.0997,大同市,魏都大道141号,,26,15,40,11,17,83,,101,98,20,24,1,4,0.5,1
2025-08-26T2000,2269A,124.1069,50.4097,大兴安岭地区,科技局,颗粒物(PM10),54,58,27,17,9,12,,54,48,9,4,7,7,0.4,0.3
2025-08-26T2000,3663A,124.1164,50.4278,大兴安岭地区,红旗社区,,19,19,10,7,2,17,,47,42,6,3,5,4,0.3,0.3
2025-08-26T2000,1600A,124.3303,40.0625,丹东市,江湾东路,,32,12,8,11,7,101,,95,95,17,11,4,4,0.7,0.7
2025-08-26T2000,1601A,124.4256,40.1503,丹东市,临江后街,,26,20,11,13,5,81,,84,84,17,10,8,5,0.7,0.7
2025-08-26T2000,1602A,124.3933,40.1461,丹东市,元宝山,,34,34,14,7,4,81,,79,79,10,8,5,3,0.7,0.6
2025-08-26T2000,1603A,124.3633,40.1092,丹东市,民主桥,,25,18,11,6,4,78,,86,85,29,13,6,6,0.6,0.5
2025-08-26T2000,3541A,109.5726,19.5167,儋州市,第一中学子站,,16,16,14,10,8,31,,35,34,4,1,6,4,0.6,0.7
2025-08-26T2000,3542A,109.5567,19.5187,儋州市,东坡学校子站,,20,20,14,8,6,31,,36,36,4,3,6,6,0.6,0.5
2025-08-26T2000,2616A,98.5842,24.428,德宏傣族景颇族自治州,德宏州监测站,,24,24,29,16,14,70,,86,86,11,10,8,10,0.6,0.6
2025-08-26T2000,3677A,98.5881,24.4368,德宏傣族景颇族自治州,芒市人民政府综合楼,,28,28,32,10,13,75,,92,92,10,8,16,10,0.3,0.4
2025-08-26T2000,1901A,104.4239,31.1208,德阳市,东山公园,,30,20,18,15,12,95,,109,109,5,8,3,4,0.8,0.8
2025-08-26T2000,1902A,104.3826,31.1317,德阳市,西小区,,35,30,26,24,16,99,,120,120,11,13,3,3,0.9,0.7
2025-08-26T2000,1904A,104.3553,31.1091,德阳市,耐火材料厂,,32,28,29,22,17,102,,125,125,11,13,2,4,0.6,0.6
2025-08-26T2000,3639A,104.4019,31.1244,德阳市,市教育局,,32,29,25,22,16,92,,119,119,9,8,7,9,0.8,0.8
2025-08-26T2000,1622A,116.3032,37.4674,德州市,儿童乐园,,40,39,33,19,19,127,,128,128,13,20,9,9,0.7,0.7
2025-08-26T2000,1624A,116.2991,37.4451,德州市,监理站,,42,24,26,17,14,134,,132,132,12,15,10,10,0.8,0.8
2025-08-26T2000,3066A,116.2721,37.4379,德州市,九衢泉纯净水厂,,42,31,31,17,19,134,,127,127,11,24,6,6,0.9,1
2025-08-26T2000,3371A,116.3728,37.4403,德州市,开发区人民医院,,37,31,30,12,18,118,,121,121,14,17,11,11,1.2,1.2
2025-08-26T2000,3511A,116.5652,37.3319,德州市,陵城艺术中心,,40,39,32,14,14,127,,140,140,15,16,16,13,0.8,0.8
2025-08-26T2000,4292A,116.3525,37.4209,德州市,新河东路,,39,36,33,24,18,123,,129,129,24,30,10,11,1.0,1
2025-08-26T2000,2621A,99.7056,27.8317,迪庆藏族自治州,迪庆州站,,33,33,17,12,10,47,,52,50,9,7,7,6,0.8,0.6
2025-08-26T2000,3180A,99.7136,27.8094,迪庆藏族自治州,质量技术监督局,,23,23,18,11,11,48,,53,50,9,9,8,9,0.4,0.5
2025-08-26T2000,4257A,104.6092,35.5962,定西市,将台街,,32,23,22,17,13,101,,82,82,12,9,7,7,0.4,0.3
2025-08-26T2000,4309A,104.6159,35.5701,定西市,正龙路62号,,31,31,26,20,14,92,,74,74,11,7,5,5,0.3,0.2
2025-08-26T2000,1389A,113.7547,23.0494,东莞市,莞城梨川,细颗粒物(PM2.5),57,60,30,40,22,113,,152,150,20,14,6,7,0.2,0.2
2025-08-26T2000,1390A,113.7944,23.0128,东莞市,东城石井,,43,43,28,22,14,131,,155,154,30,16,5,5,0.5,0.5
2025-08-26T2000,1391A,113.7383,22.9658,东莞市,南城西平,,43,43,25,27,17,129,,156,155,27,21,8,8,0.6,0.5
2025-08-26T2000,3319A,113.7338,23.0381,东莞市,万江金泰,,,44,26,27,13,131,,144,144,21,14,,7,0.7,0.6
2025-08-26T2000,3626A,113.7533,23.0202,东莞市,南城元岭,,46,45,27,22,11,147,,166,166,31,17,6,7,0.3,0.2
2025-08-26T2000,3627A,113.7875,23.0457,东莞市,东城主山,,45,45,31,24,14,120,,144,144,21,18,5,6,0.5,0.4
2025-08-26T2000,1666A,118.6614,37.4309,东营市,市环保局,,35,22,17,19,11,112,,121,121,15,13,9,7,0.4,0.5
2025-08-26T2000,3036A,118.6904,37.4338,东营市,开发区管委会,,,,24,,9,117,,126,126,18,12,,7,0.5,0.5
2025-08-26T2000,3365A,118.5719,37.565,东营市,垦利区民丰路,,31,31,18,9,11,95,,126,122,20,13,10,8,0.9,0.9
2025-08-26T2000,3498A,118.5055,37.8612,东营市,河口城区,,42,31,21,7,8,132,,160,159,8,12,5,6,1.1,1
2025-08-26T2000,3646A,118.4978,37.4623,东营市,胜利站,,35,24,28,7,12,109,,128,123,19,17,4,4,0.6,0.7
2025-08-26T2000,3734A,118.35,37.26,东营市,理想之城,,31,24,18,14,13,97,,114,113,19,18,4,14,0.4,0.5
2025-08-26T2000,1591A,110.0023,39.8129,鄂尔多斯市,综合楼,,23,12,24,3,9,72,,96,77,12,20,6,9,0.8,0.6
2025-08-26T2000,1592A,109.9486,39.8261,鄂尔多斯市,巴音孟克林场办事处,,24,17,33,12,12,74,,102,79,12,21,6,7,0.6,0.7
2025-08-26T2000,1593A,109.7736,39.5986,鄂尔多斯市,康泽苑,,16,12,39,7,14,51,,54,54,16,30,5,5,0.7,0.6
2025-08-26T2000,1594A,109.8119,39.5989,鄂尔多斯市,华泰汽车城,,20,14,40,14,18,45,,55,55,21,36,8,9,0.9,0.7
2025-08-26T2000,1595A,109.9734,39.7884,鄂尔多斯市,奥林花园,,21,,31,9,13,65,,82,68,13,24,6,7,0.9,0.7
2025-08-26T2000,2436A,114.8938,30.3994,鄂州市,市政府,,37,37,28,25,9,97,,148,148,26,16,8,10,0.5,0.5
2025-08-26T2000,2437A,114.8989,30.3714,鄂州市,赵家坝,,50,50,33,30,9,97,,153,152,22,12,9,10,0.7,0.6
2025-08-26T2000,3654A,114.8094,30.4089,鄂州市,精准医疗中心,,49,46,31,34,14,124,,154,154,29,21,12,16,0.8,1.2
2025-08-26T2000,2454A,109.4978,30.2981,恩施土家族苗族自治州,湖北民院,,18,18,21,10,10,44,,68,60,6,7,6,6,0.0,0.2
2025-08-26T2000,2455A,109.4707,30.2798,恩施土家族苗族自治州,州电力总公司,,12,12,20,3,11,19,,62,51,19,10,5,5,0.1,0.1
2025-08-26T2000,3549A,109.5061,30.3772,恩施土家族苗族自治州,龙凤新区,,,13,19,3,10,39,,79,68,,4,5,4,,0.3
2025-08-26T2000,2499A,108.3411,21.6158,防城港市,沙万,,,,26,,10,31,,49,48,30,12,2,4,,0.5
2025-08-26T2000,2500A,108.3514,21.7731,防城港市,防城档案局,,29,26,21,20,12,45,,58,58,17,11,3,2,0.3,0.3
2025-08-26T2000,2501A,108.3506,21.6414,防城港市,大海花园,,25,25,22,8,8,54,,59,59,12,9,4,7,0.3,0.5
2025-08-26T2000,1371A,113.1294,23.0067,佛山市,湾梁,,46,34,26,32,19,128,,144,144,26,29,6,7,0.6,0.6
2025-08-26T2000,1372A,113.1083,23.0478,佛山市,华材职中,,46,46,25,23,11,132,,144,144,31,24,4,3,0.6,0.6
2025-08-26T2000,1373A,113.144,23.0453,佛山市,南海气象局,臭氧1小时,52,34,29,16,12,161,,145,145,15,21,5,5,0.5,0.5
2025-08-26T2000,1374A,113.2881,22.8094,佛山市,顺德苏岗,,41,41,29,9,10,78,,145,142,24,22,6,6,0.5,0.4
2025-08-26T2000,1376A,112.8383,22.8678,佛山市,高明孔堂,,38,23,34,17,15,120,,173,172,12,32,6,9,0.4,0.5
2025-08-26T2000,1377A,112.8836,23.1588,佛山市,三水监测站,,41,41,40,14,17,117,,136,136,19,28,4,5,0.7,0.6
2025-08-26T2000,1378A,112.867,23.185,佛山市,三水云东海,,42,42,37,24,18,99,,136,134,23,23,1,2,0.6,0.7
2025-08-26T2000,3625A,113.2544,22.7642,佛山市,容桂街道办,,26,17,18,14,12,83,,148,145,21,22,6,6,0.7,0.6
2025-08-26T2000,1280A,119.3903,26.0543,福州市,鼓山,,,,8,,4,,,34,,,4,,2,,0.2
2025-08-26T2000,1282A,119.2681,26.0504,福州市,师大,,11,9,14,3,1,35,,66,62,5,6,4,5,0.1,0.2
2025-08-26T2000,1283A,119.2984,26.1028,福州市,五四北路,,12,10,15,3,1,36,,59,56,6,8,4,4,0.2,0.2
2025-08-26T2000,1284A,119.2648,26.0768,福州市,杨桥西路,,13,13,14,3,2,36,,65,60,5,7,3,4,0.1,0.2
2025-08-26T2000,1285A,119.317,26.0746,福州市,紫阳,,17,17,15,3,1,33,,57,54,6,6,4,5,0.2,0.2
2025-08-26T2000,3048A,119.5799,26.0936,福州市,九龙,,15,11,11,3,1,46,,54,53,4,6,4,6,0.1,0.2
2025-08-26T2000,3526A,119.5189,25.9664,福州市,吴航,,13,8,8,3,4,40,,50,49,3,4,6,7,0.2,0.3
2025-08-26T2000,1755A,123.7977,41.8491,抚顺市,望花区,,23,23,17,9,9,61,,92,86,26,13,7,6,0.6,0.5
2025-08-26T2000,1756A,123.9161,41.8822,抚顺市,顺城区,,22,,22,15,12,29,,95,86,43,20,4,4,0.7,0.7
2025-08-26T2000,1757A,124.0436,41.8611,抚顺市,东洲区,,,,16,7,8,54,,92,84,12,13,1,4,,0.6
2025-08-26T2000,1758A,123.9247,41.8642,抚顺市,新抚区,,21,21,20,9,9,28,,92,85,38,17,5,5,0.7,0.7
2025-08-26T2000,1759A,124.0972,41.8961,抚顺市,大伙房水库,,14,14,13,8,7,43,,77,73,21,11,7,8,0.5,0.5
2025-08-26T2000,1760A,123.7086,41.8391,抚顺市,沈抚新城,颗粒物(PM10),52,54,30,10,9,41,,94,87,27,17,5,4,0.5,0.5
2025-08-26T2000,2376A,116.2127,28.0814,抚州市,桐源党溪,,30,30,33,18,19,54,,116,94,6,8,6,7,0.3,0.5
2025-08-26T2000,2377A,116.3544,27.9831,抚州市,市站,,23,23,27,11,12,64,,102,91,5,7,2,2,0.4,0.3
2025-08-26T2000,2378A,116.3565,27.963,抚州市,血防站,,26,26,30,18,14,61,,102,91,7,9,3,4,0.6,0.4
2025-08-26T2000,2379A,116.3564,28.0007,抚州市,采茶剧团,,30,22,29,21,15,57,,102,90,4,6,4,5,0.3,0.6
2025-08-26T2000,2380A,116.385,27.9647,抚州市,医学分院,,,48,34,9,14,62,,107,91,,10,,4,0.5,0.4
2025-08-26T2000,2207A,121.6094,41.998,阜新市,工业园区,,20,17,22,8,7,61,,93,87,24,20,4,5,0.4,0.4
2025-08-26T2000,2208A,121.6697,42.0279,阜新市,长青街,,20,18,16,14,10,52,,90,82,18,14,5,4,0.6,0.5
2025-08-26T2000,2209A,121.6673,42.0705,阜新市,农业园区,,17,8,18,3,11,52,,86,76,12,7,2,2,1.0,0.6
2025-08-26T2000,2210A,121.6717,42.0224,阜新市,东苑,,21,21,26,7,5,52,,92,84,26,17,7,7,0.6,0.8
2025-08-26T2000,2211A,121.6506,42.0498,阜新市,玉龙新城,颗粒物(PM10),52,53,24,13,8,12,,87,71,46,19,7,6,0.5,0.5
2025-08-26T2000,2301A,115.8277,32.8929,阜阳市,市监测站,,22,15,19,15,11,60,,81,81,15,13,4,4,0.2,0.1
2025-08-26T2000,2303A,115.8554,32.8605,阜阳市,开发区,,20,12,11,9,8,63,,80,80,9,10,6,6,0.3,0.3
2025-08-26T2000,2875A,115.784,32.8892,阜阳市,阜阳职业技术学院,,24,,15,15,9,76,,88,88,8,10,5,5,0.5,0.4
2025-08-26T2000,3468A,115.7901,32.8613,阜阳市,市规划展馆,,19,15,20,12,10,58,,76,76,7,9,2,2,0.5,0.5
2025-08-26T2000,3469A,115.836,32.9183,阜阳市,枣园社区,,25,25,20,17,10,69,,83,83,9,9,2,2,0.5,0.4
2025-08-26T2000,2669A,102.9099,34.9841,甘南藏族自治州,州政府,,16,16,20,9,12,51,,64,62,10,9,4,5,0.3,0.2
2025-08-26T2000,3380A,102.8914,34.9617,甘南藏族自治州,甘肃民族师范学院,,19,13,21,8,11,60,,74,74,1,8,4,4,0.1,0.1
2025-08-26T2000,2570A,101.9603,30.0475,甘孜藏族自治州,水桥子,,20,20,6,8,5,54,,60,60,7,11,6,6,0.5,0.4
2025-08-26T2000,3065A,101.9533,29.9972,甘孜藏族自治州,州环保局,,18,12,9,6,5,57,,64,63,8,10,4,4,0.3,0.3
2025-08-26T2000,3414A,115.8347,28.932,赣江新区,桑海产业园,颗粒物(PM10),65,80,21,10,9,79,,108,104,15,11,4,5,0.1,0.2
2025-08-26T2000,2362A,114.9017,25.9149,赣州市,通天岩,,,46,20,,13,55,,87,78,5,5,15,17,1.2,0.9
2025-08-26T2000,2363A,114.9367,25.8664,赣州市,地委,,37,25,19,11,9,116,,131,131,13,9,7,6,0.8,0.7
2025-08-26T2000,2364A,114.9461,25.8481,赣州市,气象台,,,26,18,8,7,106,,122,122,7,6,,9,0.6,0.5
2025-08-26T2000,2365A,114.9322,25.8333,赣州市,市图书馆,,35,22,14,15,9,109,,118,118,13,9,4,5,0.4,0.4
2025-08-26T2000,2366A,114.8905,25.8471,赣州市,华坚鞋城,,38,34,20,26,10,93,,108,108,15,10,7,5,0.5,0.4
2025-08-26T2000,3109A,115.0093,25.8613,赣州市,赣县区卫计委,,20,16,15,8,9,62,,108,104,12,8,6,6,0.5,0.5
2025-08-26T2000,2683A,106.2319,36.1417,固原市,马园,,,,,,,,,,,,,,,,
2025-08-26T2000,2684A,106.2792,36.0022,固原市,监测站,,30,7,14,3,9,96,,76,65,7,5,6,6,0.1,0.2
2025-08-26T2000,2685A,106.2375,36.0211,固原市,新区,,28,,13,6,13,87,,68,54,6,8,8,8,0.2,0.3
2025-08-26T2000,3522A,106.2177,35.9959,固原市,原州区十五小,,28,,12,3,10,87,,58,56,8,9,9,9,0.3,0.4
2025-08-26T2000,2543A,106.6308,30.5278,广安市,小平旧居,,,,,,,,,,,,,,,,
2025-08-26T2000,2544A,106.6303,30.4576,广安市,市委,,40,40,30,10,21,73,,97,97,28,13,9,4,0.2,0.3
2025-08-26T2000,2545A,106.6271,30.4663,广安市,友谊中学,,29,29,28,10,17,79,,101,100,25,13,10,7,0.8,0.8
2025-08-26T2000,2547A,106.6388,30.4551,广安市,广电花园,,27,27,20,13,17,65,,91,90,26,12,7,4,0.6,0.7
2025-08-26T2000,2902A,106.6351,30.4865,广安市,北辰小学,,28,25,29,12,16,87,,102,102,14,9,16,15,0.5,0.5
2025-08-26T2000,2523A,105.8945,32.4535,广元市,黑石坡,,20,20,27,6,13,61,,52,52,2,10,8,4,0.3,0.3
2025-08-26T2000,2524A,105.821,32.4444,广元市,老城,,24,12,14,3,7,76,,94,94,20,19,8,5,0.5,0.8
2025-08-26T2000,2526A,105.8628,32.4287,广元市,监测站,,21,11,15,11,7,65,,81,81,16,14,10,11,0.7,0.8
2025-08-26T2000,3617A,105.8047,32.4166,广元市,经开区,,20,19,28,9,14,63,,86,86,15,18,5,9,0.5,0.7
2025-08-26T2000,1345A,113.2347,23.1423,广州市,广雅中学,,45,36,31,22,14,144,,149,149,24,26,3,3,0.5,0.5
2025-08-26T2000,1346A,113.2612,23.105,广州市,市五中,,46,40,28,26,14,146,,151,151,22,22,5,6,0.2,0.2
2025-08-26T2000,1348A,113.3478,23.0916,广州市,广东商学院,,44,37,28,27,15,140,,162,162,19,24,3,4,0.2,0
2025-08-26T2000,1349A,113.4332,23.1047,广州市,市八十六中,,37,37,29,23,14,115,,151,151,28,29,3,5,0.4,0.3
2025-08-26T2000,1350A,113.3505,22.9483,广州市,番禺中学,臭氧1小时,74,47,30,25,14,179,,176,176,19,19,6,7,0.5,0.5
2025-08-26T2000,1351A,113.2146,23.3916,广州市,花都师范,,39,30,32,12,15,124,,133,133,19,29,5,6,0.5,0.5
2025-08-26T2000,1352A,113.2597,23.1331,广州市,市监测站,,44,44,28,20,13,124,,144,144,30,25,5,6,0.5,0.4
2025-08-26T2000,1353A,113.5618,23.312,广州市,九龙镇镇龙,,22,18,25,14,13,69,,105,101,8,13,6,7,0.5,0.5
2025-08-26T2000,1354A,113.2765,23.1544,广州市,麓湖,,,29,26,16,13,105,,122,122,26,23,,2,0.3,0.4
2025-08-26T2000,1355A,113.443,23.3035,广州市,帽峰山森林公园,,33,16,11,7,7,105,,115,114,7,11,5,5,0.4,0.4
2025-08-26T2000,2846A,113.3221,23.1322,广州市,体育西,,,22,26,,28,130,,153,153,22,26,4,4,0.7,0.5
2025-08-26T2000,3298A,113.5717,23.5491,广州市,从化街口,,47,47,24,29,13,38,,82,75,21,17,7,8,0.7,0.6
2025-08-26T2000,3299A,113.3472,23.3692,广州市,白云竹料,颗粒物(PM10),51,52,31,26,16,92,,113,113,29,20,4,4,0.7,0.5
2025-08-26T2000,3300A,113.2981,23.237,广州市,白云嘉禾,颗粒物(PM10),53,56,30,26,14,85,,135,134,38,25,5,6,0.6,0.4
2025-08-26T2000,3301A,113.4256,23.1716,广州市,黄埔科学城,,42,42,28,22,14,90,,143,141,22,17,6,6,0.6,0.5
2025-08-26T2000,3302A,113.3942,23.0483,广州市,番禺大学城,,46,28,29,20,13,146,,176,176,24,26,10,10,0.4,0.4
2025-08-26T2000,3303A,113.4922,22.8168,广州市,南沙黄阁,,46,46,36,22,23,112,,205,198,28,22,6,5,0.3,0.3
2025-08-26T2000,3304A,113.5342,22.7896,广州市,南沙街,,41,41,28,16,15,104,,201,192,20,21,8,9,0.4,0.4
2025-08-26T2000,3443A,113.2902,23.5544,广州市,花都梯面,细颗粒物(PM2.5),82,92,26,60,14,38,,98,92,27,15,6,7,0.7,0.5
2025-08-26T2000,3445A,113.7858,23.7478,广州市,从化良口,,26,24,12,18,9,55,,81,79,8,7,5,4,0.5,0.4
2025-08-26T2000,3446A,113.8051,23.2614,广州市,增城荔城,,,26,21,15,12,58,,106,98,14,10,,8,0.5,0.4
2025-08-26T2000,2505A,109.568,23.1478,贵港市,德智高中,,,,,,,,,,,,,,,,
2025-08-26T2000,2506A,109.6047,23.0666,贵港市,江南子站,,19,14,38,13,17,51,,77,73,6,16,4,6,0.5,0.7
2025-08-26T2000,2508A,109.5669,23.1065,贵港市,荷城子站,,18,12,18,7,8,56,,82,79,8,11,3,4,0.5,0.5
2025-08-26T2000,3405A,109.5886,23.1172,贵港市,新世纪学校,,19,17,20,11,14,59,,89,85,11,12,1,2,0.5,0.5
2025-08-26T2000,4260A,109.5933,23.0951,贵港市,中山路155-3号,,28,28,27,13,16,56,,88,84,9,13,5,6,0.6,0.7
2025-08-26T2000,1439A,106.6899,26.5998,贵阳市,马鞍山,,16,9,14,3,0,49,,63,60,8,7,3,3,0.1,0.2
2025-08-26T2000,1441A,106.6243,26.6266,贵阳市,鉴湖路,,27,27,29,3,4,44,,59,57,9,9,3,5,0.0,0.2
2025-08-26T2000,1442A,106.7487,26.6343,贵阳市,燕子冲,,14,7,10,7,12,43,,56,53,11,11,1,2,0.1,0.2
2025-08-26T2000,1443A,106.6555,26.4365,贵阳市,碧云窝,,22,22,29,7,7,47,,59,56,9,12,4,6,0.1,0.2
2025-08-26T2000,1445A,106.7109,26.6027,贵阳市,红边门,,22,22,20,7,10,38,,52,49,18,17,3,7,0.2,0.2
2025-08-26T2000,1446A,106.7164,26.5699,贵阳市,新华路,,17,17,16,7,10,38,,52,47,13,15,10,14,0.0,0.3
2025-08-26T2000,1447A,106.674,26.5424,贵阳市,太慈桥,,19,19,18,12,5,42,,57,54,13,12,4,5,0.1,0.1
2025-08-26T2000,1552A,106.805,26.3003,贵阳市,桐木岭,,21,21,25,9,13,46,,54,51,6,6,3,2,0.8,0.8
2025-08-26T2000,4230A,106.6882,26.5695,贵阳市,花果园大街66号,,15,,5,6,7,45,,56,54,11,8,4,4,0.2,0.2
2025-08-26T2000,4231A,106.6873,26.5169,贵阳市,漓江路57号,,14,14,17,3,7,43,,59,56,9,9,4,5,0.3,0.4
2025-08-26T2000,1862A,110.4144,25.3167,桂林市,电子科大尧山校区,,,,,,,,,,,,,,,,
2025-08-26T2000,1864A,110.3089,25.2708,桂林市,龙隐路小学,,23,23,29,13,15,55,,76,71,10,11,5,9,0.3,0.3
2025-08-26T2000,1865A,110.2869,25.2178,桂林市,八中,,22,22,24,7,13,56,,80,76,13,12,10,10,0.5,0.5
2025-08-26T2000,3531A,110.296,25.1253,桂林市,旅游学院,,29,29,16,17,10,59,,77,75,11,11,8,8,0.4,0.4
2025-08-26T2000,4222A,110.1835,25.2444,桂林市,环湖路276号,,25,22,28,17,16,65,,78,77,15,20,5,25,0.2,0.2
2025-08-26T2000,4301A,110.2803,25.2773,桂林市,信义路13号,,24,24,29,9,16,65,,82,79,11,13,6,14,0.6,0.6
2025-08-26T2000,2674A,100.2561,34.4714,果洛藏族自治州,玛沁县大武镇,,29,27,24,20,12,66,,74,73,5,2,16,16,0.5,0.4
2025-08-26T2000,1129A,126.5422,45.755,哈尔滨市,岭北,,,13,16,,,12,,12,12,15,15,11,12,0.6,0.6
2025-08-26T2000,1130A,126.561,45.8167,哈尔滨市,松北商大,,14,14,36,3,11,9,,43,35,28,25,6,7,0.5,0.3
2025-08-26T2000,1131A,126.979,45.5419,哈尔滨市,阿城会宁,,32,32,26,15,12,18,,63,43,24,15,9,9,0.9,0.6
2025-08-26T2000,1132A,126.599,45.7222,哈尔滨市,南岗学府路,,33,33,26,17,7,27,,55,50,10,9,6,7,0.7,0.6
2025-08-26T2000,1133A,126.689,45.7733,哈尔滨市,太平宏伟公园,,31,31,27,8,8,32,,56,50,19,18,7,7,0.6,0.5
2025-08-26T2000,1134A,126.635,45.7667,哈尔滨市,道外承德广场,,40,40,33,6,8,34,,54,50,14,14,6,6,1.0,0.9
2025-08-26T2000,1135A,126.685,45.7319,哈尔滨市,香坊红旗大街,,19,19,18,12,4,37,,60,54,23,17,9,7,0.5,0.5
2025-08-26T2000,1136A,126.6411,45.7258,哈尔滨市,动力和平路,,25,25,22,6,5,29,,61,55,30,15,4,5,0.6,0.5
2025-08-26T2000,1137A,126.593,45.7478,哈尔滨市,道里建国路,,20,20,23,6,9,35,,59,54,22,15,8,9,0.5,0.5
2025-08-26T2000,1138A,126.615,45.61,哈尔滨市,平房东轻厂,,31,31,30,7,9,1,,48,29,47,29,8,8,0.6,0.5
2025-08-26T2000,1139A,126.595,45.9855,哈尔滨市,呼兰师专,,18,18,21,9,8,36,,53,50,17,14,10,8,0.4,0.3
2025-08-26T2000,1140A,126.6206,45.6842,哈尔滨市,省农科院,,40,33,28,28,9,28,,45,41,27,21,4,7,0.6,0.6
2025-08-26T2000,2688A,93.5128,42.8172,哈密市,地区监测站,,46,46,46,3,14,105,,99,99,17,8,3,3,0.3,0.3
2025-08-26T2000,2689A,93.4961,42.8328,哈密市,哈密师范学校,颗粒物(PM10),57,64,36,7,12,98,,98,94,21,11,4,4,0.1,0
2025-08-26T2000,2671A,100.9048,36.9639,海北藏族自治州,海晏县西海镇,,49,49,31,26,23,98,,102,102,2,3,6,6,0.6,0.5
2025-08-26T2000,3867A,102.0738,36.5056,海东市,平安区公安北苑,,28,16,26,3,20,89,,81,81,4,8,8,9,0.9,0.8
2025-08-26T2000,1409A,110.576,19.9507,海口市,东寨港,,12,12,12,6,7,32,,39,37,2,2,6,6,0.3,0.3
2025-08-26T2000,1410A,110.3232,20.0574,海口市,海南大学,,14,14,18,6,8,36,,44,41,2,2,2,3,0.3,0.3
2025-08-26T2000,1411A,110.283,20.0053,海口市,秀英海南医院,,14,14,18,3,6,33,,45,41,6,4,5,5,0.3,0.3
2025-08-26T2000,1412A,110.338,19.9969,海口市,海南师范大学,,16,16,18,7,7,35,,46,42,4,4,4,4,0.3,0.3
2025-08-26T2000,1413A,110.33,20.0356,海口市,龙华路环保局宿舍,,15,15,16,8,7,37,,46,42,4,4,6,6,0.4,0.3
2025-08-26T2000,3539A,110.5111,19.9736,海口市,桂林洋子站,,14,14,17,9,7,25,,39,36,15,5,3,4,0.4,0.3
2025-08-26T2000,2673A,100.6188,36.2866,海南藏族自治州,共和县恰卜恰镇,颗粒物(PM10),55,60,49,33,19,108,,115,115,6,4,13,12,0.5,0.5
2025-08-26T2000,2676A,97.3731,37.3753,海西蒙古族藏族自治州,德令哈市,颗粒物(PM10),54,57,31,21,15,108,,118,118,11,4,13,14,0.5,0.4
2025-08-26T2000,1048A,114.5302,36.6116,邯郸市,东污水处理厂,,40,33,45,27,26,126,,140,139,12,28,5,7,0.6,0.5
2025-08-26T2000,1049A,114.4918,36.5713,邯郸市,矿院,,43,,32,29,31,135,,144,144,7,22,4,4,0.5,0.5
2025-08-26T2000,1050A,114.484,36.6133,邯郸市,丛台公园,,46,31,36,17,21,146,,153,153,9,21,6,6,0.6,0.5
2025-08-26T2000,3458A,114.7895,36.5593,邯郸市,香泉濮院小区,,42,42,41,17,14,119,,140,138,9,17,2,4,0.6,0.5
2025-08-26T2000,3579A,114.50634,36.77178,邯郸市,永年区实验高中,,46,46,46,24,20,115,,140,138,16,23,4,5,0.5,0.6
2025-08-26T2000,3580A,114.20016,36.44293,邯郸市,峰峰矿区临水派出所,,45,45,53,19,32,131,,157,157,5,15,2,11,0.3,1.2
2025-08-26T2000,2634A,106.9893,33.1842,汉中市,汉川机床厂子校,,26,26,25,13,11,55,,76,75,14,12,3,3,0.4,0.4
2025-08-26T2000,2635A,107.0154,33.0706,汉中市,市监测站,,28,28,25,10,11,67,,77,77,9,8,6,6,0.5,0.6
2025-08-26T2000,2636A,107.0089,33.1138,汉中市,鑫源开发区,,24,24,26,10,8,54,,74,73,13,12,6,6,0.4,0.5
2025-08-26T2000,2637A,107.007,33.0323,汉中市,南郑大河坎水厂,,28,28,25,16,12,54,,74,73,16,9,5,5,0.4,0.4
2025-08-26T2000,1223A,120.2072,30.2111,杭州市,滨江,颗粒物(PM10),53,56,42,29,20,153,,200,196,25,25,7,8,0.5,0.4
2025-08-26T2000,1224A,120.0633,30.2747,杭州市,西溪,细颗粒物(PM2.5),52,46,28,36,22,70,,199,184,24,20,11,11,0.5,0.4
2025-08-26T2000,1226A,120.3417,30.3150,杭州市,下沙,,50,35,36,19,18,158,,184,181,21,25,6,7,0.4,0.3
2025-08-26T2000,1227A,120.1269,30.2456,杭州市,卧龙桥,细颗粒物(PM2.5),54,45,32,38,23,72,,189,174,20,15,7,9,0.6,0.5
2025-08-26T2000,1228A,120.1903,30.2692,杭州市,浙江农大,,,73,45,31,25,132,,168,168,,12,6,6,0.5,0.6
2025-08-26T2000,1230A,120.1197,30.3119,杭州市,和睦小学,臭氧1小时,72,39,36,29,19,177,,212,212,16,18,6,6,0.6,0.5
2025-08-26T2000,1231A,120.3019,30.4183,杭州市,临平镇,,46,46,44,21,21,143,,190,180,24,19,6,7,0.4,0.4
2025-08-26T2000,1232A,120.2753,30.1839,杭州市,城厢镇,臭氧1小时,55,55,38,33,23,164,,222,217,15,16,10,9,0.6,0.6
2025-08-26T2000,1233A,120.0883,30.1808,杭州市,云栖,,42,42,28,25,15,62,,185,163,25,24,10,10,0.7,0.6
2025-08-26T2000,3557A,119.9464,30.0494,杭州市,镇二中,细颗粒物(PM2.5),65,76,29,47,18,82,,157,152,30,17,4,6,0.8,0.6
2025-08-26T2000,3558A,119.7183,30.2367,杭州市,市府大楼,颗粒物(PM10),68,86,23,34,13,155,,162,162,18,12,10,8,0.4,0.3
2025-08-26T2000,3656A,120.1556,30.2864,杭州市,消防大队,臭氧1小时,52,42,36,27,22,161,,205,204,18,17,7,7,0.7,0.7
2025-08-26T2000,1270A,117.1959,31.7848,合肥市,明珠广场,,22,17,12,12,6,68,,107,103,23,14,6,6,0.6,0.5
2025-08-26T2000,1271A,117.3072,31.8764,合肥市,三里街,,22,22,13,9,7,56,,87,82,19,12,6,4,0.4,0.4
2025-08-26T2000,1272A,117.2588,31.8707,合肥市,琥珀山庄,,24,24,16,14,10,74,,103,100,14,11,8,7,0.6,0.5
2025-08-26T2000,1273A,117.1604,31.9052,合肥市,董铺水库,,17,17,10,7,6,53,,72,69,10,6,4,4,0.2,0.2
2025-08-26T2000,1274A,117.25,31.8571,合肥市,长江中路,,25,14,14,8,4,77,,99,97,13,11,7,7,0.4,0.4
2025-08-26T2000,1275A,117.266,31.9436,合肥市,庐阳区,,20,17,17,3,5,63,,92,89,23,14,5,5,0.4,0.4
2025-08-26T2000,1276A,117.3453,31.8616,合肥市,瑶海区,,19,19,16,10,5,47,,74,69,18,13,6,6,0.5,0.6
2025-08-26T2000,1277A,117.3027,31.7964,合肥市,包河区,,31,22,14,9,5,26,,98,86,61,17,11,11,0.6,0.5
2025-08-26T2000,1278A,117.2776,31.7385,合肥市,滨湖新区,,28,27,13,19,12,74,,113,110,14,8,6,5,0.5,0.4
2025-08-26T2000,1279A,117.1318,31.8403,合肥市,高新区,,31,31,15,10,6,71,,100,97,25,13,5,5,0.6,0.5
2025-08-26T2000,3464A,117.3803,31.9147,合肥市,高教基地,,18,12,13,11,8,55,,84,78,12,9,5,5,0.3,0.3
2025-08-26T2000,3614A,79.924,37.0877,和田地区,地区环保局,颗粒物(PM10),71,92,121,22,34,132,,130,130,6,12,3,2,0.4,0.3
2025-08-26T2000,3615A,79.9131,37.113,和田地区,市环保局,颗粒物(PM10),59,67,118,19,29,136,,131,131,8,19,3,2,0.1,0.2
2025-08-26T2000,2516A,108.2011,24.715,河池市,东仁乐园,,,,,,,,,,,,,,,,
2025-08-26T2000,2517A,108.0497,24.6947,河池市,市环保站,,20,10,20,8,10,62,,73,70,6,10,5,5,0.5,0.5
2025-08-26T2000,2518A,108.0983,24.6989,河池市,市疾控中心,,18,17,22,10,11,57,,71,68,14,15,10,7,0.6,0.6
2025-08-26T2000,1696A,114.6778,23.7569,河源市,源西,,32,,15,22,7,27,,84,72,30,10,5,5,0.8,0.6
2025-08-26T2000,1697A,114.6944,23.7586,河源市,东埔,,28,28,16,11,6,49,,88,82,15,10,4,4,0.8,0.5
2025-08-26T2000,1698A,114.6892,23.7233,河源市,老城,,39,39,17,3,7,45,,92,85,8,7,4,4,0.6,0.5
2025-08-26T2000,1718A,115.4208,35.2464,菏泽市,气象局,,46,40,38,25,23,146,,158,158,13,12,3,4,0.5,0.5
2025-08-26T2000,3374A,115.5564,35.0891,菏泽市,定陶老年大学,,40,34,33,17,16,126,,143,142,9,12,5,6,0.6,0.6
2025-08-26T2000,4184A,115.4797,35.24401,菏泽市,永昌路1号,,49,48,37,34,24,137,,149,149,14,15,6,9,0.6,0.6
2025-08-26T2000,4193A,115.4715,35.2800,菏泽市,长城路999号,,46,46,38,20,18,139,,156,156,16,15,7,7,0.5,0.6
2025-08-26T2000,2514A,111.5264,24.4172,贺州市,环保小区,,23,23,16,8,10,70,,98,96,9,7,13,13,0.5,0.5
2025-08-26T2000,2515A,111.5608,24.4078,贺州市,政协大楼,,20,20,13,6,10,56,,102,98,9,7,3,6,0.5,0.5
2025-08-26T2000,3534A,111.4744,24.4553,贺州市,西湾,,33,33,23,14,10,73,,87,86,8,10,10,10,0.3,0.3
2025-08-26T2000,2385A,114.17,35.9019,鹤壁市,市监测站,,41,41,36,27,26,120,,150,149,12,8,5,6,0.6,0.7
2025-08-26T2000,2386A,114.2956,35.7511,鹤壁市,市交警支队,细颗粒物(PM2.5),52,39,37,36,29,123,,139,139,15,12,7,9,0.8,0.8
2025-08-26T2000,2387A,114.2878,35.7306,鹤壁市,迎宾馆,,43,40,40,30,25,117,,139,139,15,11,3,5,0.7,0.8
2025-08-26T2000,3474A,114.2617,35.6822,鹤壁市,大新区,,35,33,36,16,19,111,,128,128,11,7,6,8,0.6,0.8
2025-08-26T2000,3596A,114.1572,35.9603,鹤壁市,南山宾馆,细颗粒物(PM2.5),52,45,40,36,25,128,,156,156,12,9,5,8,0.6,0.9
2025-08-26T2000,2244A,130.2537,47.3416,鹤岗市,哈啤分公司,,33,33,20,12,4,24,,49,39,5,2,12,11,0.5,0.4
2025-08-26T2000,2245A,130.2684,47.3086,鹤岗市,斯达机电,,32,32,21,7,10,36,,54,47,9,6,12,12,0.5,0.5
2025-08-26T2000,2246A,130.3114,47.3388,鹤岗市,东山纸板厂,,29,29,23,12,12,34,,54,45,7,8,14,13,0.7,0.7
2025-08-26T2000,2247A,130.1097,47.3382,鹤岗市,五号水库,,10,6,6,3,6,30,,48,44,6,6,6,7,0.6,0.5
2025-08-26T2000,2263A,127.4833,50.2524,黑河市,交通局,,41,41,28,9,8,22,,46,42,17,10,6,6,0.4,0.4
2025-08-26T2000,2264A,127.5144,50.2341,黑河市,环保局,,43,43,30,15,10,35,,46,45,12,12,4,5,0.3,0.6
2025-08-26T2000,2265A,127.5291,50.2472,黑河市,大黑河岛,,,,,8,6,29,,33,33,2,2,22,23,,0.3
2025-08-26T2000,1074A,115.6838,37.7541,衡水市,电机北厂,,39,39,40,13,18,93,,130,125,14,18,4,4,0.6,0.5
2025-08-26T2000,1075A,115.6303,37.7316,衡水市,市监测站,,42,42,42,19,13,109,,129,126,9,14,6,5,0.7,0.6
2025-08-26T2000,3188A,115.6683,37.7217,衡水市,市城管局,,39,39,37,13,16,96,,126,122,15,17,9,8,0.6,0.5
2025-08-26T2000,3459A,115.5989,37.5491,衡水市,地表水厂,颗粒物(PM10),56,62,46,17,18,81,,120,115,25,30,3,3,0.4,0.3
2025-08-26T2000,2456A,112.5003,26.9167,衡阳市,原169医院,细颗粒物(PM2.5),52,,21,36,11,73,,106,102,6,4,4,4,0.6,0.7
2025-08-26T2000,2457A,112.6194,26.9258,衡阳市,衡阳化工总厂,,48,33,25,33,13,66,,124,114,15,9,6,7,0.7,0.7
2025-08-26T2000,2458A,112.6211,26.8956,衡阳市,珠晖区环保局,,25,17,19,10,11,80,,120,114,12,9,7,10,0.6,0.6
2025-08-26T2000,2459A,112.6197,26.8733,衡阳市,市委党校,,34,34,16,15,12,81,,106,104,8,7,11,12,0.4,0.4
2025-08-26T2000,2460A,112.6006,26.8919,衡阳市,市监测站,,28,,19,19,13,83,,112,108,10,9,5,7,0.4,0.5
2025-08-26T2000,2461A,112.5664,26.9056,衡阳市,真空机电公司,,,60,26,15,14,85,,105,102,,8,4,7,0.6,0.7
2025-08-26T2000,3399A,112.6703,26.882,衡阳市,师范学院,,30,,22,21,13,69,,105,100,11,8,10,11,0.6,0.6
2025-08-26T2000,2608A,103.3772,23.3993,红河哈尼族彝族自治州,污水处理厂,,45,,24,31,21,33,,40,40,15,10,41,24,0.7,0.4
2025-08-26T2000,2609A,103.3861,23.35,红河哈尼族彝族自治州,监测站,,42,42,27,19,12,36,,39,39,11,8,32,27,0.4,0.2
2025-08-26T2000,3038A,103.3758,23.368,红河哈尼族彝族自治州,州图书馆,,39,31,16,27,20,31,,42,42,11,7,14,21,0.5,0.3
2025-08-26T2000,1090A,111.6507,40.7517,呼和浩特市,呼市一监,,25,17,24,15,12,78,,96,92,11,15,2,2,0.4,0.5
2025-08-26T2000,1091A,111.6572,40.8033,呼和浩特市,小召,,27,,20,13,11,86,,104,98,12,24,10,9,0.3,0.4
2025-08-26T2000,1094A,111.7516,40.8369,呼和浩特市,如意水处理厂,,30,23,27,12,10,93,,109,104,9,28,5,6,0.3,0.4
2025-08-26T2000,1095A,111.7276,40.8062,呼和浩特市,二十九中,,30,30,26,9,10,96,,112,107,7,18,6,6,0.5,0.7
2025-08-26T2000,1096A,111.5512,40.7866,呼和浩特市,工大金川校区,,36,36,31,8,11,79,,99,94,13,25,5,5,0.4,0.3
2025-08-26T2000,1097A,111.717,40.7612,呼和浩特市,化肥厂生活区,,30,19,21,9,9,93,,106,102,13,18,5,6,0.4,0.6
2025-08-26T2000,3698A,111.5968,40.8178,呼和浩特市,红旗小学,,,,23,19,8,77,,110,103,,22,3,3,0.2,0.2
2025-08-26T2000,3699A,111.6518,40.8389,呼和浩特市,海东办,,31,19,31,13,11,99,,120,114,11,29,5,6,0.4,0.5
2025-08-26T2000,2192A,119.7594,49.2261,呼伦贝尔市,区环保局,,39,39,30,25,19,48,,62,61,28,23,5,5,0.6,0.4
2025-08-26T2000,3061A,119.7512,49.1577,呼伦贝尔市,国华电力东,,36,36,18,14,11,52,,73,71,12,7,5,2,0.3,0.2
2025-08-26T2000,1250A,120.0751,30.8669,湖州市,城西水厂,,,,33,,20,189,,198,198,13,20,8,8,0.5,0.4
2025-08-26T2000,2873A,120.0830,30.8929,湖州市,仁皇山新区,臭氧1小时,73,50,36,32,23,178,,191,191,14,19,4,5,0.4,0.4
2025-08-26T2000,2907A,120.1844,30.8596,湖州市,吴兴区站,臭氧1小时,88,43,32,31,21,190,,186,186,13,15,7,7,0.7,0.6
2025-08-26T2000,3562A,120.4148,30.8538,湖州市,南浔区站,,50,41,30,35,22,151,,181,181,15,12,5,6,0.8,0.7
2025-08-26T2000,1607A,120.9049,40.7211,葫芦岛市,龙港区,,,,25,34,13,102,,95,95,13,23,7,6,,0.5
2025-08-26T2000,1608A,120.8392,40.7514,葫芦岛市,化工街,,34,34,25,12,10,81,,89,86,23,28,11,12,0.6,0.5
2025-08-26T2000,1609A,120.8341,40.7073,葫芦岛市,新区,,29,29,25,20,11,85,,95,94,17,31,5,6,0.6,0.6
2025-08-26T2000,1610A,120.8695,40.7677,葫芦岛市,东城区,,42,41,33,29,15,76,,90,83,28,26,7,9,0.7,0.6
2025-08-26T2000,2482A,109.5981,27.5721,怀化市,林科所,,16,16,25,9,7,9,,63,52,6,10,4,4,0.5,0.5
2025-08-26T2000,2483A,109.9453,27.5444,怀化市,河西地税局,,38,38,19,17,11,25,,61,54,22,10,3,3,0.0,0
2025-08-26T2000,2484A,109.9781,27.5342,怀化市,市四医院,,,27,36,,17,24,,61,54,18,14,5,6,0.4,0.5
2025-08-26T2000,2485A,109.9972,27.5578,怀化市,监测楼,,11,9,25,7,12,33,,62,56,11,12,3,5,0.1,0.3
2025-08-26T2000,2486A,110.0394,27.583,怀化市,市委党校,,29,29,24,11,15,23,,59,51,19,12,3,6,0.3,0.2
2025-08-26T2000,1210A,119.036,33.5981,淮安市,钵池山,,18,12,18,12,15,53,,106,83,17,9,5,4,0.8,0.7
2025-08-26T2000,1211A,119.007,33.575,淮安市,北京南路,,20,17,21,12,13,63,,102,88,15,13,8,9,0.8,0.8
2025-08-26T2000,1212A,118.989,33.6067,淮安市,市监测站,,22,19,25,12,17,69,,108,95,20,13,9,10,0.9,0.6
2025-08-26T2000,1213A,119.135,33.5039,淮安市,楚州区监测站,,24,24,26,12,12,58,,94,81,21,14,7,8,0.9,0.8
2025-08-26T2000,3426A,118.8755,33.2894,淮安市,新华书店,,,,9,10,9,55,,87,75,18,11,6,6,,0.1
2025-08-26T2000,4206A,119.0288,33.6319,淮安市,承德北路606号,,19,14,27,13,14,54,,106,83,23,11,6,7,0.6,0.5
2025-08-26T2000,2282A,116.8004,33.975,淮北市,监测站,,33,27,28,16,16,103,,122,118,10,10,6,7,0.9,0.9
2025-08-26T2000,2283A,116.8091,33.9007,淮北市,烈山区政府,,39,39,36,11,12,98,,122,122,7,9,8,8,0.6,0.6
2025-08-26T2000,3330A,116.8873,33.9836,淮北市,杜集区检察院,,45,39,31,31,22,90,,116,114,8,8,8,8,0.8,0.7
2025-08-26T2000,4017A,116.7923,33.9535,淮北市,市博物馆,,43,43,28,22,19,99,,121,117,8,10,9,9,0.6,0.7
2025-08-26T2000,2277A,116.8305,32.7727,淮南市,潘集区政府,,24,24,10,3,9,70,,68,68,9,9,3,3,0.3,0.2
2025-08-26T2000,2279A,116.8569,32.5951,淮南市,谢家集区政府,,24,24,16,8,5,64,,79,79,21,8,7,7,0.2,0.1
2025-08-26T2000,2280A,116.8281,32.633,淮南市,八公山区政府,,28,28,12,14,6,68,,78,78,14,8,5,5,0.4,0.2
2025-08-26T2000,2281A,116.6325,32.6201,淮南市,焦岗湖风景区管理处,,,,,,,,,,,,,,,,
2025-08-26T2000,2894A,117.0566,32.6531,淮南市,经济技术开发区消防队,,25,19,11,3,5,78,,83,83,16,10,9,9,0.3,0.3
2025-08-26T2000,3329A,117.0108,32.5893,淮南市,山南新区,,27,7,6,6,6,85,,90,90,6,7,4,4,0.4,0.4
2025-08-26T2000,4209A,117.0031,32.6445,淮南市,国庆中路369号,,33,,15,23,10,100,,91,91,10,9,5,5,0.5,0.4
2025-08-26T2000,2446A,114.9028,30.4742,黄冈市,职工中心,,32,26,18,22,14,102,,134,134,17,9,10,10,0.6,0.5
2025-08-26T2000,2929A,114.8858,30.4519,黄冈市,红卫路,,32,31,24,22,17,98,,149,149,22,15,12,13,0.5,0.5
2025-08-26T2000,3398A,114.9136,30.4445,黄冈市,市林业局,,39,36,28,27,18,96,,148,148,23,13,9,10,0.5,0.4
2025-08-26T2000,2672A,102.0199,35.5102,黄南藏族自治州,同仁县隆务镇,,25,25,23,7,9,65,,89,86,1,2,9,10,0.3,0.3
2025-08-26T2000,2295A,118.2903,29.6963,黄山市,延安路89号,,42,42,21,16,8,53,,106,101,11,6,4,4,0.5,0.4
2025-08-26T2000,2297A,118.1371,30.2756,黄山市,黄山区政府5号楼,,,,16,,6,55,,85,84,7,3,4,4,0.4,0.4
2025-08-26T2000,4210A,118.3354,29.7203,黄山市,滨江东路7-2号,,30,30,21,11,6,60,,108,103,9,6,2,2,0.4,0.3
2025-08-26T2000,2423A,115.0601,30.2313,黄石市,沈家营,,41,41,36,12,11,84,,126,126,23,14,7,8,0.4,0.5
2025-08-26T2000,2426A,114.8988,30.2019,黄石市,铁山,,34,34,28,14,10,93,,129,129,25,9,5,6,0.7,0.6
2025-08-26T2000,2427A,115.0307,30.2092,黄石市,团城山,,39,30,27,9,5,122,,132,132,7,13,8,8,0.6,0.8
2025-08-26T2000,3149A,115.0235,30.1578,黄石市,笔架山北路,,33,33,21,11,6,91,,122,122,9,8,6,6,0.4,0.4
2025-08-26T2000,4185A,115.0780,30.21118,黄石市,磁湖东路29号,颗粒物(PM10),51,52,36,18,12,110,,123,123,6,15,9,12,0.5,0.6
2025-08-26T2000,1392A,114.4183,23.0528,惠州市,河南岸金山湖子站,,46,46,20,25,11,65,,96,92,22,11,8,9,0.6,0.5
2025-08-26T2000,1393A,114.4053,23.0822,惠州市,下埔横江三路子站,,33,33,21,19,12,87,,100,98,14,8,4,6,0.6,0.5
2025-08-26T2000,1394A,114.4103,23.1142,惠州市,江北云山西路子站,,34,34,18,14,9,90,,105,104,16,9,8,9,0.5,0.5
2025-08-26T2000,1395A,114.4645,22.7833,惠州市,惠阳区承修路船湖子站,,27,27,23,13,10,53,,96,85,20,11,7,8,0.7,0.6
2025-08-26T2000,1396A,114.5317,22.7422,惠州市,大亚湾管委会子站,,22,22,16,12,9,54,,86,74,20,14,8,8,0.5,0.5
2025-08-26T2000,3314A,114.4338,22.8134,惠州市,惠阳秋长,,39,39,19,17,11,58,,110,98,28,12,8,7,0.6,0.5
2025-08-26T2000,3452A,114.6517,22.775,惠州市,大亚湾霞涌,,,,17,26,11,87,,99,98,14,12,5,6,,0.3
2025-08-26T2000,2240A,130.9762,45.3001,鸡西市,环保局,,,,11,,5,50,,56,56,7,6,,6,0.5,0.4
2025-08-26T2000,2243A,130.9429,45.3039,鸡西市,第一中学,,15,14,12,8,5,45,,55,54,11,7,10,9,0.6,0.6
2025-08-26T2000,3707A,131.0207,45.3073,鸡西市,欧美日汽修厂,,13,12,12,9,8,40,,50,50,16,9,10,10,0.7,0.6
2025-08-26T2000,3709A,130.9967,45.3106,鸡西市,市政设施管理处,,16,16,12,9,5,31,,58,55,27,11,7,7,0.7,0.6
2025-08-26T2000,2367A,114.9754,27.0803,吉安市,红声器材厂,,31,31,30,14,15,65,,111,99,8,6,12,9,0.7,0.7
2025-08-26T2000,2368A,114.9658,27.0999,吉安市,市森林工业局,,38,38,29,23,16,67,,109,100,7,6,13,9,0.6,0.5
2025-08-26T2000,2369A,114.99,27.1312,吉安市,市环境监测站,,33,33,26,16,14,68,,126,110,4,5,15,11,0.5,0.5
2025-08-26T2000,2370A,115.0093,27.0968,吉安市,青原区法院,,31,31,27,18,14,58,,111,98,19,13,10,8,0.6,0.6
2025-08-26T2000,1772A,126.54,43.8622,吉林市,哈达湾,,,17,18,10,12,58,,80,77,23,12,,11,0.4,0.4
2025-08-26T2000,1773A,126.5844,43.8358,吉林市,东局子,,21,21,21,7,22,43,,77,72,27,15,5,8,0.9,1
2025-08-26T2000,1774A,126.5052,43.8245,吉林市,电力学院,,20,18,17,14,14,51,,76,73,19,7,6,8,0.7,0.6
2025-08-26T2000,1775A,126.6133,43.8972,吉林市,江北,,20,20,21,10,13,40,,72,67,11,9,5,6,0.5,0.6
2025-08-26T2000,1776A,126.555,43.8306,吉林市,江南公园,,20,14,22,10,19,64,,77,75,12,11,2,4,0.3,0.4
2025-08-26T2000,1778A,126.7061,43.7133,吉林市,丰满,,25,7,16,6,14,78,,94,88,4,9,5,6,0.5,0.7
2025-08-26T2000,2868A,126.4739,43.953,吉林市,九站,,20,,22,14,14,41,,74,68,27,18,8,12,0.5,0.5
2025-08-26T2000,1299A,116.9862,36.6114,济南市,科干所,,27,22,32,12,25,86,,128,121,17,16,6,6,0.5,0.6
2025-08-26T2000,1300A,116.9376,36.665,济南市,农科所,,42,42,43,20,24,93,,140,136,32,33,9,9,0.5,0.5
2025-08-26T2000,1301A,117.1265,36.6734,济南市,开发区,,44,44,40,24,25,96,,141,136,28,23,8,8,0.6,0.7
2025-08-26T2000,1303A,117.0624,36.6868,济南市,省种子仓库,颗粒物(PM10),54,58,51,17,24,101,,144,140,28,32,6,5,0.7,0.7
2025-08-26T2000,1304A,116.9489,36.6447,济南市,机床二厂,,29,27,46,7,20,91,,129,124,17,30,9,9,0.4,0.6
2025-08-26T2000,1305A,117.0495,36.663,济南市,市监测站,,32,32,38,15,22,86,,134,128,22,21,10,10,0.7,0.8
2025-08-26T2000,1306A,116.7675,36.5484,济南市,长清党校,,33,27,35,17,22,105,,136,131,14,26,7,6,0.7,0.7
2025-08-26T2000,1616A,117.6795,36.229,济南市,技术学院,,,,31,,23,97,,95,,13,16,,8,,0.7
2025-08-26T2000,1961A,117.532,36.6868,济南市,东山小学,颗粒物(PM10),57,63,46,24,26,78,,141,131,33,27,7,7,0.4,0.5
2025-08-26T2000,3059A,117.7161,36.2049,济南市,泰兴公司,,29,22,29,14,18,90,,108,108,15,21,8,10,0.5,0.6
2025-08-26T2000,3064A,117.6867,36.2171,济南市,莱芜战役纪念馆,,30,,32,16,25,94,,110,110,17,16,8,8,0.5,0.6
2025-08-26T2000,3494A,117.1673,36.9782,济南市,济阳区政府,,39,39,38,24,20,115,,145,144,14,11,9,9,0.4,0.6
2025-08-26T2000,3495A,117.1171,36.63,济南市,锦屏中学,,,,28,,18,82,,126,118,14,16,8,9,0.6,0.8
2025-08-26T2000,3682A,116.9814,36.6819,济南市,济南四建,颗粒物(PM10),52,53,46,24,26,95,,147,142,31,31,7,6,0.6,0.7
2025-08-26T2000,1653A,116.6251,35.4302,济宁市,火炬城,颗粒物(PM10),52,54,38,31,19,155,,163,163,6,8,4,6,0.7,0.6
2025-08-26T2000,1655A,116.5491,35.4042,济宁市,电化厂,臭氧1小时,59,55,41,31,22,167,,171,171,8,12,2,4,1.0,0.9
2025-08-26T2000,3500A,116.5814,35.3707,济宁市,北湖一中,颗粒物(PM10),51,51,36,30,21,147,,164,164,8,6,6,7,0.4,0.3
2025-08-26T2000,3501A,116.8249,35.5593,济宁市,服务中心,,35,35,36,3,16,107,,137,133,12,12,4,4,0.4,0.5
2025-08-26T2000,3678A,116.5907,35.4054,济宁市,市第七中学,臭氧1小时,53,52,38,24,14,162,,166,166,5,8,9,9,0.6,0.5
2025-08-26T2000,2255A,130.2751,46.8028,佳木斯市,佳纺,,20,20,17,6,6,12,,47,38,18,10,10,10,0.4,0.3
2025-08-26T2000,2256A,130.3995,46.8307,佳木斯市,发电厂,,24,24,21,6,6,22,,46,40,13,8,6,8,0.6,0.6
2025-08-26T2000,2257A,130.3258,46.7975,佳木斯市,环保局,,30,30,20,10,7,10,,47,38,28,12,9,10,0.6,0.5
2025-08-26T2000,2258A,130.3648,46.8032,佳木斯市,十一中,,26,,14,18,5,20,,48,42,25,9,12,12,0.8,0.6
2025-08-26T2000,2259A,130.3794,46.7588,佳木斯市,四丰,,,13,11,8,10,,,5,,16,15,1,25,0.4,0.4
2025-08-26T2000,1252A,120.7436,30.778,嘉兴市,清河小学,,44,44,33,19,15,129,,158,156,25,18,6,6,0.7,0.7
2025-08-26T2000,1253A,120.726,30.7478,嘉兴市,嘉兴学院,,47,34,28,20,18,148,,178,177,14,16,5,5,0.5,0.5
2025-08-26T2000,2872A,120.7846,30.7525,嘉兴市,南湖区残联,,46,37,29,25,20,145,,172,170,20,19,6,6,0.7,0.6
2025-08-26T2000,3407A,120.6916,30.7739,嘉兴市,秀洲住建,臭氧1小时,52,34,32,20,19,161,,184,184,16,19,7,7,0.6,0.6
2025-08-26T2000,1945A,98.2908,39.7711,嘉峪关市,气象局,,34,12,29,9,16,106,,122,100,12,11,6,9,0.7,0.8
2025-08-26T2000,2884A,98.2672,39.7978,嘉峪关市,酒钢宾馆,,,,35,14,20,121,,133,116,9,11,17,20,0.6,0.8
2025-08-26T2000,3248A,98.2643,39.7724,嘉峪关市,雄关区,,31,28,38,16,21,98,,116,95,21,17,12,12,0.5,0.6
2025-08-26T2000,1383A,113.1064,22.6058,江门市,北街,,29,,24,20,14,66,,128,117,21,17,3,4,0.6,0.4
2025-08-26T2000,1384A,113.0731,22.5835,江门市,西区,,35,35,25,17,10,59,,128,106,25,17,8,8,0.7,0.6
2025-08-26T2000,1385A,113.0219,22.5311,江门市,圭峰西,,35,,23,24,12,62,,112,102,13,12,3,2,0.4,0.4
2025-08-26T2000,1386A,113.0828,22.5947,江门市,东湖,,,33,23,17,11,55,,116,102,,15,5,9,0.5,0.4
2025-08-26T2000,3311A,113.1075,22.5647,江门市,江海富民,,37,37,28,14,10,75,,124,114,14,14,4,5,0.2,0.1
2025-08-26T2000,3449A,113.05,22.4667,江门市,新会银湖,,36,34,24,25,13,57,,104,95,20,15,3,3,0.3,0.3
2025-08-26T2000,1830A,113.1992,35.2590,焦作市,影视城,,,,20,,11,,,102,,,4,,8,,0.6
2025-08-26T2000,3335A,113.3137,35.2641,焦作市,马村街道办,,44,44,36,27,16,135,,132,132,14,10,6,5,0.8,0.5
2025-08-26T2000,3336A,113.2465,35.2373,焦作市,焦作技师学院,颗粒物(PM10),53,56,32,19,11,138,,132,132,14,11,8,7,1.0,0.7
2025-08-26T2000,3477A,113.1656,35.2539,焦作市,中站许衡医院,,42,,29,26,24,134,,134,134,10,8,8,6,0.8,0.5
2025-08-26T2000,3981A,113.2449,35.1803,焦作市,原李万街道办,,50,50,36,19,12,143,,138,138,11,9,15,15,0.8,0.5
2025-08-26T2000,4264A,113.2340,35.2190,焦作市,新安路1731号,,46,39,39,23,16,145,,134,134,11,10,7,8,0.8,0.6
2025-08-26T2000,4295A,113.2722,35.2121,焦作市,人民路3066号,颗粒物(PM10),52,53,45,34,20,143,,140,140,11,7,7,6,1.2,0.7
2025-08-26T2000,1708A,116.3701,23.5345,揭阳市,新兴,,33,33,31,19,16,76,,107,106,12,11,8,7,0.4,0.4
2025-08-26T2000,1709A,116.3264,23.5443,揭阳市,西马,,32,32,30,18,14,79,,106,104,7,10,3,4,0.5,0.4
2025-08-26T2000,1710A,116.3611,23.5626,揭阳市,东兴,,25,19,31,12,13,77,,102,101,7,10,8,7,0.6,0.5
2025-08-26T2000,1711A,116.4151,23.5294,揭阳市,渔湖,,26,,31,15,13,83,,127,124,10,11,8,9,0.6,0.6
2025-08-26T2000,3320A,116.403,23.5699,揭阳市,曲溪,,46,46,29,21,17,73,,121,114,13,11,1,4,0.7,0.5
2025-08-26T2000,1944A,102.1692,38.5167,金昌市,天庆家园,,31,14,41,9,23,98,,106,96,6,5,10,7,0.7,0.8
2025-08-26T2000,4022A,102.1647,38.5371,金昌市,金川区人防中心,,32,20,48,10,24,102,,108,94,4,4,6,7,0.4,0.5
2025-08-26T2000,4239A,102.1930,38.5319,金昌市,长春路96号,,34,19,46,10,24,108,,112,100,3,4,4,4,0.4,0.6
2025-08-26T2000,1262A,119.647,29.077,金华市,十五中,,42,42,29,15,12,77,,117,102,26,15,5,4,0.5,0.4
2025-08-26T2000,1263A,119.686,29.1029,金华市,监测站,颗粒物(PM10),54,57,30,27,13,56,,128,94,35,18,5,4,0.5,0.3
2025-08-26T2000,3659A,119.656,29.1131,金华市,气象局,,48,48,27,10,8,61,,115,96,32,18,3,3,0.5,0.4
2025-08-26T2000,1767A,121.1115,41.0879,锦州市,南山,,23,,24,16,14,59,,88,81,16,13,4,4,0.5,0.6
2025-08-26T2000,1768A,121.0604,40.8428,锦州市,开发区,,46,46,36,16,14,42,,94,85,52,26,8,7,0.8,1.1
2025-08-26T2000,1769A,121.1836,41.1119,锦州市,百股街道,,23,23,23,3,6,28,,98,86,34,11,4,6,0.6,0.7
2025-08-26T2000,1770A,121.1178,41.1222,锦州市,天安街道,,26,26,25,13,13,69,,92,86,18,19,6,8,0.6,0.7
2025-08-26T2000,1771A,121.1303,41.1386,锦州市,北湖公园,颗粒物(PM10),56,62,24,19,12,58,,81,76,12,9,4,6,0.5,0.7
2025-08-26T2000,2160A,112.85,35.5051,晋城市,自来水公司,,37,25,35,14,15,116,,118,118,11,9,5,5,0.5,0.5
2025-08-26T2000,2161A,112.8318,35.4936,晋城市,白云商贸,,37,37,35,3,12,114,,112,112,8,7,6,5,0.5,0.5
2025-08-26T2000,2162A,112.8508,35.4887,晋城市,市环保局,,30,23,31,12,13,94,,100,100,11,7,2,2,0.5,0.5
2025-08-26T2000,2163A,112.8676,35.4897,晋城市,技术学院,,30,20,24,9,10,96,,96,96,9,8,4,4,0.7,0.7
2025-08-26T2000,2165A,112.8453,35.546,晋城市,白马寺,,34,24,24,13,23,108,,110,110,6,4,7,10,0.6,0.6
2025-08-26T2000,3620A,112.8271,35.4828,晋城市,泽州一中,,35,25,27,9,10,112,,111,111,11,7,4,3,0.7,0.6
2025-08-26T2000,2173A,112.7249,37.7067,晋中市,南都小区,,33,33,35,21,19,78,,85,70,12,20,6,7,0.4,0.6
2025-08-26T2000,2174A,112.6991,37.6982,晋中市,榆次区政府,,40,,34,28,18,63,,65,56,23,23,5,5,0.7,0.7
2025-08-26T2000,2865A,112.7195,37.6828,晋中市,榆次三中,,26,22,33,3,13,83,,78,78,7,20,6,7,0.3,0.7
2025-08-26T2000,4200A,112.7478,37.6954,晋中市,迎宾街26号,,27,19,27,3,10,84,,79,79,8,18,8,8,0.3,0.6
2025-08-26T2000,2439A,112.2014,31.0481,荆门市,竹园小学,,39,39,42,19,23,107,,128,125,13,18,1,2,0.2,0.1
2025-08-26T2000,2440A,112.1969,30.9891,荆门市,掇刀,,,,39,34,21,113,,137,135,22,12,6,2,0.7,0.6
2025-08-26T2000,2441A,112.2213,31.0386,荆门市,石化一小,,41,41,41,17,15,98,,126,123,21,15,8,7,0.9,0.9
2025-08-26T2000,3012A,112.1849,31.0362,荆门市,西山林语,,35,30,36,18,19,112,,127,125,8,10,1,2,0.5,0.5
2025-08-26T2000,3547A,112.1632,31.0138,荆门市,龙泉中学南校,,39,34,35,25,21,122,,139,138,8,11,4,4,0.7,0.7
2025-08-26T2000,1844A,112.2494,30.3197,荆州市,市图书馆,,31,31,25,15,18,93,,134,127,10,12,5,4,0.5,0.6
2025-08-26T2000,1845A,112.2008,30.3544,荆州市,市委党校,,31,26,26,19,12,98,,128,123,15,15,4,6,0.4,0.4
2025-08-26T2000,3194A,112.2747,30.3122,荆州市,管委会,,,,24,,16,82,,125,117,,11,16,3,0.4,0.6
2025-08-26T2000,4268A,112.1722,30.3366,荆州市,学苑路85号,,36,,24,25,19,88,,135,126,11,8,5,6,0.4,0.4
2025-08-26T2000,2342A,117.3102,29.3867,景德镇市,王港中学,,,,,,,,,,,,,,,,
2025-08-26T2000,2343A,117.2117,29.2933,景德镇市,老干部活动中心,,26,19,14,18,9,63,,87,84,5,5,10,7,0.7,0.5
2025-08-26T2000,2344A,117.1894,29.2789,景德镇市,兽医站,,32,32,20,17,9,62,,92,88,15,6,10,4,0.9,0.8
2025-08-26T2000,2346A,117.2461,29.2956,景德镇市,陶研所,,23,18,15,11,8,71,,86,85,6,5,6,6,0.6,0.5
2025-08-26T2000,4289A,117.1542,29.2566,景德镇市,青少年活动中心,,32,31,14,22,11,62,,91,82,15,8,18,5,0.3,0.4
2025-08-26T2000,1803A,115.9872,29.6815,九江市,十里,,34,24,19,16,15,106,,142,141,14,18,5,8,0.5,0.8
2025-08-26T2000,1804A,115.9584,29.7046,九江市,茅山头,,34,34,20,19,11,106,,132,132,10,14,5,5,0.5,0.7
2025-08-26T2000,1805A,115.9877,29.7295,九江市,西园,,35,20,13,12,8,110,,136,135,16,21,4,5,0.6,0.7
2025-08-26T2000,1808A,115.9114,29.6038,九江市,综合工业园,,23,21,19,16,11,48,,124,114,25,24,6,8,0.9,0.7
2025-08-26T2000,1809A,116.0721,29.7535,九江市,石化总厂,,34,23,15,14,20,106,,118,118,16,20,5,6,0.4,0.5
2025-08-26T2000,1810A,115.9773,29.5698,九江市,庐山气象台,,35,22,17,9,9,109,,124,124,4,4,7,6,0.9,1
2025-08-26T2000,3190A,116.0254,29.6994,九江市,外国语学校,,30,,17,21,11,96,,136,135,15,21,7,11,0.8,1.1
2025-08-26T2000,4253A,116.0102,29.6594,九江市,莲花大道8号,,29,,14,20,14,89,,128,125,5,11,6,7,0.4,0.7
2025-08-26T2000,4240A,98.4958,39.7339,酒泉市,玉门东路5号,,30,,34,21,32,91,,114,98,12,8,6,6,0.3,0.2
2025-08-26T2000,4241A,98.5099,39.7506,酒泉市,北大街108号,,32,,41,22,23,96,,112,98,7,7,7,7,0.2,0.2
2025-08-26T2000,2698A,76.0072,39.4467,喀什地区,巡警大队,,,115,143,37,45,116,,109,109,,39,3,4,0.2,0.5
2025-08-26T2000,2699A,75.9755,39.4694,喀什地区,吾办,颗粒物(PM10),79,107,148,40,51,110,,111,111,12,32,9,8,0.3,0.6
2025-08-26T2000,4027A,75.9483,39.4689,喀什地区,老干局,颗粒物(PM10),75,99,141,31,38,115,,116,116,5,27,4,5,0.2,0.3
2025-08-26T2000,1824A,114.3389,34.7781,开封市,肿瘤医院,,42,42,46,23,20,124,,146,144,12,15,3,4,0.6,0.7
2025-08-26T2000,1826A,114.2885,34.7965,开封市,世纪星幼儿园,,41,41,36,24,22,125,,142,141,11,11,4,4,0.8,0.8
2025-08-26T2000,3147A,114.3438,34.8106,开封市,龙亭公园,,,53,42,,19,118,,140,138,12,12,4,5,0.9,0.9
2025-08-26T2000,3210A,114.3644,34.7964,开封市,汴京公园,颗粒物(PM10),52,54,42,25,22,123,,149,146,10,11,4,5,0.6,0.6
2025-08-26T2000,3473A,114.2485,34.8306,开封市,技师学院,,45,,36,31,21,116,,139,136,12,11,6,5,0.9,0.9
2025-08-26T2000,3592A,114.4644,34.7556,开封市,祥符区生态环境局,颗粒物(PM10),52,53,39,27,20,106,,132,129,35,25,3,3,0.7,0.7
2025-08-26T2000,1951A,84.895,45.6094,克拉玛依市,长征新村,,32,24,17,7,8,102,,99,99,6,6,3,3,0.2,0.2
2025-08-26T2000,1952A,84.8988,45.5893,克拉玛依市,南林小区,,41,41,25,8,8,82,,95,95,14,8,6,6,0.1,0.1
2025-08-26T2000,1954A,84.905,44.3396,克拉玛依市,独山子区,,34,23,22,9,8,107,,114,114,12,13,16,8,0.4,0.3
2025-08-26T2000,1955A,85.6979,46.098,克拉玛依市,乌尔禾区商贸楼,,26,14,26,3,10,82,,95,95,17,22,7,7,0.3,0.3
2025-08-26T2000,3612A,85.1045,45.6899,克拉玛依市,白碱滩区新站,,37,37,34,18,14,110,,106,106,5,6,9,9,0.1,0.4
2025-08-26T2000,2697A,76.1454,39.7142,克孜勒苏柯尔克孜自治州,市人民政府,颗粒物(PM10),79,108,86,49,37,122,,118,118,3,13,4,9,0,0.1
2025-08-26T2000,3665A,76.1658,39.7157,克孜勒苏柯尔克孜自治州,克州文化中心,颗粒物(PM10),78,105,101,43,35,118,,114,114,1,12,6,9,0.1,0.2
2025-08-26T2000,1450A,102.8204,24.8886,昆明市,呈贡新区,,16,,2,11,9,46,,55,54,6,7,2,4,0.4,0.4
2025-08-26T2000,1451A,102.6251,24.9608,昆明市,西山森林公园,,,,,,,,,,,,,,,,
2025-08-26T2000,1452A,102.7252,25.0902,昆明市,龙泉镇,,20,20,13,6,4,37,,53,51,12,10,2,1,0.2,0.2
2025-08-26T2000,1453A,102.7266,25.0375,昆明市,东风东路,,21,21,17,8,8,39,,56,53,17,13,3,3,0.3,0.2
2025-08-26T2000,1454A,102.6742,25.0669,昆明市,金鼎山,,16,16,17,7,6,41,,57,54,11,7,1,1,0.2,0.2
2025-08-26T2000,1455A,102.6644,25.0401,昆明市,碧鸡广场,,17,17,14,3,6,35,,53,50,19,13,7,7,0.4,0.3
2025-08-26T2000,3179A,102.7494,25.0119,昆明市,官渡区博物馆,,16,16,14,3,7,32,,51,47,20,19,1,2,0.4,0.4
2025-08-26T2000,3375A,102.8017,24.8336,昆明市,青年创业园,,14,6,8,3,4,42,,51,50,4,3,1,1,0.3,0.3
2025-08-26T2000,3550A,102.7997,24.9786,昆明市,昆明学院,,15,15,12,7,5,38,,54,52,13,10,7,7,0.2,0.2
2025-08-26T2000,3551A,102.5967,24.6736,昆明市,晋宁区生态环境分局,,,10,14,,4,40,,58,56,9,6,2,3,0.5,0.5
2025-08-26T2000,3552A,102.6678,24.9856,昆明市,云天化总部,,13,12,11,8,6,39,,55,53,15,10,3,4,0.3,0.3
2025-08-26T2000,1456A,91.1319,29.6514,拉萨市,八廓街,,25,13,11,8,8,77,,85,85,11,9,7,6,0.3,0.3
2025-08-26T2000,1457A,91.1221,29.6747,拉萨市,市环保局,,,14,13,6,7,70,,82,82,13,10,,7,0.3,0.2
2025-08-26T2000,1458A,91.0874,29.6475,拉萨市,区监测站,,22,9,8,6,6,68,,78,78,17,12,4,3,0.5,0.4
2025-08-26T2000,1459A,91.1774,29.6541,拉萨市,西藏大学,,28,12,9,3,7,89,,85,85,12,10,7,7,0.2,0.2
2025-08-26T2000,1460A,90.9798,29.6588,拉萨市,区辐射站,,23,18,12,7,6,71,,70,70,6,14,5,5,0.3,0.3
2025-08-26T2000,1461A,91.0834,29.6292,拉萨市,拉萨火车站,,24,8,8,6,6,74,,76,76,13,10,5,5,0.3,0.3
2025-08-26T2000,2520A,109.2203,23.7256,来宾市,来宾技工学校,,29,28,28,10,11,90,,84,84,5,11,8,12,0.5,0.5
2025-08-26T2000,3535A,109.1781,23.7297,来宾市,兴宾区政府,,26,17,23,3,12,83,,85,85,8,9,7,7,0.7,0.8
2025-08-26T2000,4002A,109.2416,23.7461,来宾市,中南小学,,31,28,23,13,9,99,,93,93,9,12,19,18,0.5,0.5
2025-08-26T2000,1477A,104.1373,35.9454,兰州市,榆中兰大校区,,,,,,,,,,,,,,,,
2025-08-26T2000,1479A,103.831,36.0464,兰州市,铁路设计院,,46,36,23,32,18,94,,65,65,20,23,15,9,0.5,0.6
2025-08-26T2000,3241A,103.7439,36.0842,兰州市,百合公园,,33,27,20,23,11,95,,68,68,6,9,7,5,0.3,0.3
2025-08-26T2000,3242A,103.9611,35.998,兰州市,和平,,33,30,13,22,10,105,,91,91,5,7,9,7,0.5,0.6
2025-08-26T2000,4236A,103.6293,36.0938,兰州市,庄浪东路808号,,44,44,29,16,14,90,,73,73,17,19,12,11,0.1,0.2
2025-08-26T2000,4237A,103.7251,36.1043,兰州市,安宁西路88号,,38,29,19,26,17,114,,85,85,2,7,4,3,0.3,0.3
2025-08-26T2000,4238A,103.8470,36.0676,兰州市,北滨河东路1号,,33,23,16,18,15,104,,80,80,12,13,14,8,0.4,0.4
2025-08-26T2000,3245A,103.6633,36.533,兰州新区,新区管委会,,37,27,18,24,11,117,,108,108,3,5,8,12,0.3,0.4
2025-08-26T2000,3246A,103.6975,36.4789,兰州新区,舟曲中学,,32,29,10,9,6,100,,98,98,10,8,6,14,0.3,0.4
2025-08-26T2000,1067A,116.6708,39.5111,廊坊市,药材公司,,,,36,,16,,,90,,,21,,4,,0.3
2025-08-26T2000,1068A,116.7214,39.5589,廊坊市,开发区,,35,35,35,21,17,99,,140,138,15,17,2,2,0.4,0.4
2025-08-26T2000,1070A,116.7244,39.5269,廊坊市,北华航天学院,颗粒物(PM10),58,66,51,23,19,143,,150,150,10,17,4,4,0.4,0.4
2025-08-26T2000,2919A,116.7022,39.5453,廊坊市,河北工业大学,,44,44,48,19,16,139,,144,144,11,17,2,3,0.4,0.3
2025-08-26T2000,2535A,103.7723,29.5462,乐山市,花湖湾,,30,21,22,19,18,95,,96,96,2,10,2,2,0.4,0.5
2025-08-26T2000,2536A,103.7627,29.5844,乐山市,牛耳桥,,35,29,24,24,22,92,,106,106,13,12,4,5,0.6,0.7
2025-08-26T2000,2537A,103.7508,29.6006,乐山市,市第三水厂,,,26,23,20,19,94,,100,100,,12,,4,0.6,0.7
2025-08-26T2000,2538A,103.7571,29.5664,乐山市,市监测站,,,30,24,18,17,91,,96,96,,10,4,6,0.7,0.9
2025-08-26T2000,3361A,103.7311,29.5628,乐山市,理工大学,,26,22,22,18,15,77,,102,102,7,11,6,6,0.7,0.8
2025-08-26T2000,2598A,100.2143,26.8576,丽江市,西南郊,,44,10,17,6,8,55,,69,69,8,9,7,6,4.4,1
2025-08-26T2000,2599A,100.2497,26.8802,丽江市,丽江古城,,25,25,22,10,6,52,,67,65,10,9,10,10,0.4,0.5
2025-08-26T2000,2600A,100.2203,26.8906,丽江市,市中心,,,14,14,10,10,49,,67,66,,10,11,10,0.6,0.6
2025-08-26T2000,1267A,119.914,28.4514,丽水市,监测站大楼,,27,27,17,3,6,16,,72,55,21,10,4,4,0.5,0.3
2025-08-26T2000,1268A,119.93,28.4586,丽水市,莲都小学,,,14,16,8,5,57,,63,56,14,11,4,3,,0.3
2025-08-26T2000,1269A,119.879,28.4231,丽水市,余庄前,,12,12,15,6,9,0,,77,47,15,11,4,4,0.4,0.4
2025-08-26T2000,1173A,119.176,34.5885,连云港市,市环境监测站,,34,19,35,3,24,107,,133,132,6,13,3,4,0.5,0.8
2025-08-26T2000,3000A,119.3581,34.6972,连云港市,德源药业,,32,22,30,3,17,100,,113,112,15,16,4,5,0.6,0.8
2025-08-26T2000,3007A,119.178,34.844,连云港市,新城一中,,37,20,42,3,26,116,,134,132,7,15,3,6,0.6,1.2
2025-08-26T2000,3008A,119.3608,34.7519,连云港市,胡沟管理处,,,,21,,13,104,,125,121,15,10,11,10,0.6,0.8
2025-08-26T2000,3009A,119.1478,34.5911,连云港市,矿山设计院,,33,17,38,7,25,103,,133,131,8,14,11,13,0.7,1
2025-08-26T2000,3434A,119.2413,34.6539,连云港市,工贸学校,,33,11,30,3,21,104,,126,124,8,12,6,7,0.7,1
2025-08-26T2000,3664A,119.4172,34.7341,连云港市,连云街道,,35,10,24,3,17,110,,123,120,11,9,4,5,0.6,0.9
2025-08-26T2000,2571A,102.3431,27.8099,凉山彝族自治州,青龙寺,,19,18,19,8,7,60,,77,76,4,5,3,3,0.5,0.6
2025-08-26T2000,2572A,102.2721,27.8415,凉山彝族自治州,邛海宾馆,,26,22,17,14,9,83,,82,82,4,9,7,10,0.3,0.5
2025-08-26T2000,2573A,102.2625,27.898,凉山彝族自治州,西昌市政府,,26,26,20,18,13,69,,75,75,8,9,9,10,0.3,0.4
2025-08-26T2000,2574A,102.2685,27.8851,凉山彝族自治州,凉山州政府,,36,29,22,25,18,73,,75,75,6,8,8,11,0.3,0.9
2025-08-26T2000,4229A,102.2342,27.8859,凉山彝族自治州,凯乐南路30号,,21,21,24,6,9,63,,71,71,17,16,24,16,1.0,0.9
2025-08-26T2000,2212A,123.2,41.1953,辽阳市,宏伟区,,33,33,25,15,10,71,,92,91,12,13,2,2,0.7,0.6
2025-08-26T2000,2213A,123.1683,41.2495,辽阳市,新华园,,28,28,24,13,13,78,,106,104,24,17,5,5,0.6,0.4
2025-08-26T2000,2214A,123.2354,41.2639,辽阳市,滨河路,,,,64,13,12,21,,89,81,36,16,7,4,0.6,0.6
2025-08-26T2000,2215A,123.149,41.2991,辽阳市,铁西工业园,,39,39,22,11,10,32,,83,77,29,18,3,2,0.7,0.7
2025-08-26T2000,2227A,125.1358,42.8845,辽源市,环保局,,34,34,30,13,7,60,,78,76,6,5,7,8,0.6,0.5
2025-08-26T2000,3239A,125.0764,42.9078,辽源市,银鹰制药,,17,15,17,3,8,52,,77,72,16,11,9,9,0.5,0.5
2025-08-26T2000,1625A,115.9848,36.4372,聊城市,区政府,颗粒物(PM10),52,53,37,25,24,153,,161,161,22,20,10,12,0.8,0.8
2025-08-26T2000,2878A,116.0072,36.4343,聊城市,聊大东校,颗粒物(PM10),52,53,39,30,24,154,,164,164,22,19,11,11,0.6,0.7
2025-08-26T2000,3200A,115.9819,36.4978,聊城市,监控中心,颗粒物(PM10),53,56,41,34,21,132,,161,160,27,34,9,10,1.0,0.9
2025-08-26T2000,3513A,116.0445,36.4361,聊城市,九州社区,颗粒物(PM10),56,61,42,25,23,144,,160,160,22,17,2,5,0.4,0.5
2025-08-26T2000,4018A,116.0567,36.4608,聊城市,星美广场,,50,50,45,22,26,138,,155,155,20,18,4,4,0.8,0.8
2025-08-26T2000,2632A,94.3681,29.6376,林芝市,林芝监测站,,10,10,6,6,4,31,,41,40,3,3,5,5,0.3,0.3
2025-08-26T2000,2633A,94.3616,29.6616,林芝市,林芝人民医院,,12,12,8,6,4,30,,40,40,1,3,8,7,0.5,0.5
2025-08-26T2000,2603A,100.0781,23.8982,临沧市,市环保局,,43,,20,30,23,41,,50,48,9,9,6,5,0.2,0.3
2025-08-26T2000,2604A,100.0894,23.8822,临沧市,市气象局,,13,13,18,9,16,32,,44,42,8,8,9,8,0.4,0.5
2025-08-26T2000,1733A,111.5531,36.0783,临汾市,临钢医院,颗粒物(PM10),51,52,38,13,9,66,,90,88,19,18,8,8,0.8,0.8
2025-08-26T2000,1734A,111.5028,36.0714,临汾市,技工学校,,40,40,37,17,24,65,,83,81,14,13,5,5,0.8,0.8
2025-08-26T2000,1736A,111.5018,36.0855,临汾市,市委,颗粒物(PM10),57,63,50,9,11,67,,87,85,19,16,3,3,0.9,0.9
2025-08-26T2000,3018A,111.505,36.1014,临汾市,唐尧大酒店,颗粒物(PM10),53,56,52,11,11,66,,85,82,18,16,4,4,0.7,0.7
2025-08-26T2000,4244A,111.4879,36.0530,临汾市,启星学校,,38,36,34,26,22,70,,86,84,16,17,3,3,0.7,0.7
2025-08-26T2000,4271A,103.2464,35.6123,临夏回族自治州,滨河东路1号,,17,17,19,8,9,54,,52,52,7,7,6,7,0.3,0.3
2025-08-26T2000,4310A,103.2093,35.5995,临夏回族自治州,新华街21号,,29,29,20,13,11,76,,68,68,6,6,5,6,0.3,0.3
2025-08-26T2000,1618A,118.3429,35.0532,临沂市,沂河小区,,35,24,37,11,25,111,,147,142,15,16,10,10,0.5,0.7
2025-08-26T2000,1619A,118.295,35.0583,临沂市,鲁南制药厂,,37,22,33,13,24,116,,150,146,13,14,10,10,0.5,0.6
2025-08-26T2000,1620A,118.2794,34.9976,临沂市,新光毛纺厂,,36,17,31,13,24,115,,155,146,15,15,10,10,0.5,0.7
2025-08-26T2000,1621A,118.3956,35.0888,临沂市,河东保险公司,,39,39,34,7,19,109,,149,145,18,15,7,8,0.4,0.6
2025-08-26T2000,3370A,118.3564,35.0215,临沂市,十里堡居委,,35,,33,17,31,111,,152,147,16,16,11,12,0.4,0.7
2025-08-26T2000,3496A,118.3604,35.1084,临沂市,南坊新区,,36,31,36,3,18,115,,153,148,18,16,10,10,0.6,0.7
2025-08-26T2000,3860A,118.3920,35.0300,临沂市,皇山花园小区,,33,27,39,3,23,104,,148,142,18,16,11,12,0.4,0.7
2025-08-26T2000,1870A,109.4856,24.3895,柳州市,柳东小学,,26,20,22,17,15,81,,93,91,10,11,8,7,0.3,0.3
2025-08-26T2000,1871A,109.4157,24.3277,柳州市,环保监测站,,21,,25,13,14,66,,97,91,10,12,7,10,0.2,0.2
2025-08-26T2000,1872A,109.389,24.341,柳州市,河西水厂,,28,28,39,6,18,71,,105,102,10,16,4,10,0.4,0.5
2025-08-26T2000,1873A,109.4311,24.2921,柳州市,市四中,,21,14,22,10,9,65,,88,86,10,13,7,8,0.3,0.2
2025-08-26T2000,1874A,109.4006,24.3631,柳州市,市九中,,49,49,33,3,14,72,,96,93,8,14,6,6,0.3,0.3
2025-08-26T2000,1875A,109.4958,24.3134,柳州市,古亭山,,29,24,21,20,10,58,,81,76,9,13,5,6,0.4,0.5
2025-08-26T2000,3402A,109.5422,24.3996,柳州市,市二中,,,,24,,12,69,,90,86,11,15,5,11,0.5,0.6
2025-08-26T2000,2307A,116.5079,31.737,六安市,监测大楼,,16,11,9,11,8,51,,66,65,14,7,4,5,0.3,0.2
2025-08-26T2000,2308A,116.4738,31.7643,六安市,皖西学院,,19,13,16,8,8,58,,74,74,9,4,3,3,0.2,0.2
2025-08-26T2000,2309A,116.4996,31.7905,六安市,朝阳厂,,17,,11,10,8,52,,66,66,17,11,5,5,0.3,0.3
2025-08-26T2000,2310A,116.5567,31.7886,六安市,开发区,,13,,6,9,10,38,,57,56,11,9,2,2,0.4,0.4
2025-08-26T2000,2576A,104.8,26.5892,六盘水市,窑上,,22,22,20,3,3,26,,51,49,3,3,4,5,0.2,0.2
2025-08-26T2000,2577A,104.83,26.5917,六盘水市,黄土坡,,16,9,14,3,8,50,,51,51,10,11,8,9,0.2,0.2
2025-08-26T2000,2578A,104.89,26.5939,六盘水市,水钢,,19,,18,10,11,59,,56,56,3,6,12,12,0.1,0.2
2025-08-26T2000,2579A,104.8475,26.5894,六盘水市,民中,,17,9,12,3,4,52,,53,53,6,9,2,2,0.2,0.2
2025-08-26T2000,2580A,104.9544,26.5506,六盘水市,双水,,17,9,10,3,6,52,,53,53,7,7,3,4,0.2,0.2
2025-08-26T2000,2335A,117.0189,25.1181,龙岩市,龙岩师专,,,,,,,,,,,,,,,,
2025-08-26T2000,2336A,117.0217,25.1033,龙岩市,龙岩市监测站,,17,6,17,3,9,54,,57,54,16,11,5,7,0.4,0.5
2025-08-26T2000,2337A,117.0258,25.0661,龙岩市,闽西职业技术学院,,19,8,17,3,8,58,,57,52,9,11,6,9,0.5,0.6
2025-08-26T2000,2338A,117.0196,25.0306,龙岩市,龙岩学院,,15,,17,3,9,47,,58,53,4,9,7,7,0.4,0.4
2025-08-26T2000,2665A,105.0822,33.3261,陇南市,汉王镇固水子,,,,,,,,,,,,,,,,
2025-08-26T2000,2885A,104.9339,33.3826,陇南市,滨江中学,,34,34,30,14,11,77,,76,72,3,5,8,8,0.7,0.6
2025-08-26T2000,3247A,104.955,33.371,陇南市,市总工会,,42,42,34,14,11,88,,87,84,4,4,6,6,0.6,0.6
2025-08-26T2000,2487A,111.9589,27.8901,娄底市,电视发射台,,,23,30,17,16,63,,82,80,5,7,4,6,,0.7
2025-08-26T2000,2488A,111.9975,27.725,娄底市,市监测站,,25,,33,17,21,79,,107,94,9,11,8,11,0.4,0.8
2025-08-26T2000,2489A,112.0194,27.7314,娄底市,市委党校,,39,34,32,27,23,76,,101,85,9,12,17,16,0.5,0.6
2025-08-26T2000,2490A,111.9561,27.7569,娄底市,涟钢,,17,12,43,6,25,51,,89,80,34,25,25,6,1.3,1.1
2025-08-26T2000,2491A,111.9892,27.7044,娄底市,市政府,,26,,33,18,25,79,,93,88,3,8,7,8,0.5,0.6
2025-08-26T2000,1893A,105.4324,28.9634,泸州市,九狮山,,30,21,27,21,25,53,,80,77,11,9,5,6,0.4,0.4
2025-08-26T2000,1894A,105.4427,28.9063,泸州市,小市上码头,,,18,22,7,10,52,,72,71,14,9,4,4,,0.1
2025-08-26T2000,1895A,105.4241,28.8573,泸州市,兰田宪桥,,14,13,24,3,10,42,,57,56,8,8,7,7,0.3,0.4
2025-08-26T2000,1896A,105.4379,28.8833,泸州市,市环监站,,19,12,22,8,12,58,,72,71,11,9,8,9,0.1,0.2
2025-08-26T2000,4272A,105.3689,28.7783,泸州市,纳溪中医医院,,32,32,23,11,15,41,,72,69,36,19,11,2,0.4,0.4
2025-08-26T2000,2183A,111.1406,37.5211,吕梁市,环保局,,46,39,40,32,26,76,,89,89,20,25,4,5,0.9,0.9
2025-08-26T2000,2185A,111.1297,37.5136,吕梁市,自来水公司,,,,38,,22,,,65,,,22,,3,,1.0
2025-08-26T2000,2867A,111.1283,37.51,吕梁市,马茂庄小学,,40,34,52,28,26,78,,91,91,19,30,1,3,0.9,0.9
2025-08-26T2000,1812A,112.3931,34.6516,洛阳市,市委党校,,37,37,45,23,30,97,,116,116,18,12,4,10,0.6,0.7
2025-08-26T2000,1815A,112.494,34.6886,洛阳市,河南林校,,50,50,63,24,30,101,,124,123,24,19,7,8,0.7,0.7
2025-08-26T2000,1816A,112.3844,34.623,洛阳市,开发区管委会,,39,28,41,16,30,124,,137,137,11,10,6,8,0.6,0.8
2025-08-26T2000,1817A,112.4267,34.6258,洛阳市,市委新办公区,,32,28,41,20,32,100,,118,117,14,12,9,9,0.6,0.7
2025-08-26T2000,3340A,112.6005,34.6326,洛阳市,伊滨,,40,40,58,21,36,104,,125,124,21,16,9,8,0.5,0.8
2025-08-26T2000,3341A,112.4951,34.6332,洛阳市,中移产业园,,32,32,48,19,33,97,,122,121,19,16,10,9,0.7,0.8
2025-08-26T2000,3593A,112.5736,34.8993,洛阳市,吉利监测站,,44,44,48,15,27,112,,120,118,13,11,9,7,0.8,0.9
2025-08-26T2000,3635A,112.3677,34.662,洛阳市,河科大西苑校区,,35,33,46,11,24,110,,127,127,19,16,8,9,0.6,0.7
2025-08-26T2000,3636A,112.4388,34.6781,洛阳市,英才小学,,39,39,54,19,42,96,,118,117,18,14,8,9,0.7,0.9
2025-08-26T2000,4214A,112.4600,34.6949,洛阳市,春都路1号院,,31,31,42,9,27,89,,110,109,14,12,8,9,0.8,0.9
2025-08-26T2000,2399A,114.051,33.5699,漯河市,三五一五工厂,,46,46,34,26,25,88,,115,113,11,10,5,5,0.6,0.6
2025-08-26T2000,2400A,114.0055,33.5698,漯河市,漯河大学,,43,43,41,17,23,94,,118,117,10,9,4,4,0.7,0.7
2025-08-26T2000,2401A,114.0138,33.5828,漯河市,市水利局,,34,34,38,17,25,90,,119,118,9,10,5,5,0.5,0.5
2025-08-26T2000,2402A,114.0261,33.5698,漯河市,市广电局,,32,32,29,22,27,96,,124,122,9,8,3,3,0.6,0.6
2025-08-26T2000,3478A,113.9749,33.5664,漯河市,市图书馆,,,,35,,24,93,,113,112,9,9,5,5,,0.4
2025-08-26T2000,4250A,114.0892,33.5882,漯河市,韶山路11号,,37,37,29,25,22,74,,115,111,16,12,3,3,0.6,0.6
2025-08-26T2000,1798A,118.5092,31.6837,马鞍山市,湖东路四小,,43,17,23,13,15,137,,166,166,24,19,7,9,0.7,1.1
2025-08-26T2000,1799A,118.5024,31.6449,马鞍山市,开发区,,37,27,22,12,10,118,,178,176,36,17,11,10,0.9,0.9
2025-08-26T2000,1802A,118.6245,31.7241,马鞍山市,濮塘,,42,18,16,10,9,134,,177,177,12,11,8,9,1.1,1
2025-08-26T2000,3633A,118.4918,31.6809,马鞍山市,雨山,,43,27,22,15,11,135,,166,166,25,19,8,11,0.9,1.1
2025-08-26T2000,4191A,118.5274,31.72227,马鞍山市,慈湖高新区,,,,24,,11,89,,167,162,49,24,6,11,,1
2025-08-26T2000,1686A,111.0286,21.4688,茂名市,电白南海,,29,29,26,14,12,47,,52,52,11,8,3,5,0.6,0.6
2025-08-26T2000,1687A,110.9294,21.6533,茂名市,茂石化七小,,24,24,17,9,6,34,,45,44,12,7,6,6,0.5,0.4
2025-08-26T2000,1688A,110.9107,21.6687,茂名市,健康路,,,22,12,12,6,38,,48,47,12,8,4,5,,0.9
2025-08-26T2000,1689A,110.8592,21.6828,茂名市,高岭,,27,27,21,7,2,27,,46,44,20,11,10,12,0.7,0.6
2025-08-26T2000,3450A,111.01,21.5165,茂名市,电白水东,,17,17,14,9,7,53,,53,53,6,7,4,6,0.5,0.5
2025-08-26T2000,2539A,104.0308,30.0478,眉山市,黑龙滩水库,,32,19,15,11,11,100,,118,,2,8,3,3,0.4,0.4
2025-08-26T2000,2540A,103.8416,30.0874,眉山市,气象局,,49,49,42,22,17,89,,115,115,15,16,18,15,0.6,0.6
2025-08-26T2000,3137A,103.8578,30.0744,眉山市,市委党校,,34,34,32,17,16,91,,109,109,25,17,8,8,0.6,0.6
2025-08-26T2000,3148A,103.8291,30.0564,眉山市,区人社局,,39,39,34,19,15,93,,112,112,16,19,9,11,0.7,0.7
2025-08-26T2000,1690A,116.1231,24.3284,梅州市,梅江月梅,,19,18,19,13,11,49,,89,85,10,11,8,8,0.5,0.5
2025-08-26T2000,1691A,116.0797,24.2719,梅州市,梅县新城,,28,28,17,10,7,39,,85,78,20,8,7,7,0.6,0.5
2025-08-26T2000,1692A,116.1248,24.2654,梅州市,环境监控中心,,34,34,18,13,8,48,,85,81,20,11,4,4,0.7,0.6
2025-08-26T2000,3315A,116.1233,24.2991,梅州市,梅龙,,29,29,14,17,8,60,,87,85,12,8,8,8,0.6,0.6
2025-08-26T2000,1878A,104.7778,31.4741,绵阳市,富乐山,,28,28,29,11,17,41,,93,87,7,12,8,9,0.6,0.5
2025-08-26T2000,1880A,104.6697,31.4668,绵阳市,高新区自来水公司,,36,36,28,17,12,100,,100,100,18,16,7,8,0.6,0.6
2025-08-26T2000,1881A,104.7287,31.5075,绵阳市,三水厂,,40,40,30,23,20,77,,115,115,13,18,8,9,0.4,0.5
2025-08-26T2000,3491A,104.69,31.5322,绵阳市,西科大附属小学,,,35,33,20,18,67,,32,,28,17,9,8,,0.8
2025-08-26T2000,3492A,104.5648,31.5343,绵阳市,安州区旅游局,,35,35,29,19,12,88,,100,100,12,11,8,7,0.5,0.4
2025-08-26T2000,4226A,104.7651,31.4531,绵阳市,绵阳市气象局,,32,32,28,19,19,64,,98,96,20,14,7,7,0.5,0.4
2025-08-26T2000,1784A,129.61,44.561,牡丹江市,环保大楼,,27,27,16,8,9,40,,68,58,12,8,6,6,0.3,0.3
2025-08-26T2000,1785A,129.6115,44.5782,牡丹江市,文化广场,,42,30,18,29,20,31,,67,54,20,12,5,6,0.5,0.5
2025-08-26T2000,1786A,129.5904,44.5963,牡丹江市,第一医院,,33,,9,23,11,18,,67,52,16,10,7,7,0.3,0.2
2025-08-26T2000,1787A,129.6364,44.6075,牡丹江市,机车工厂,,24,24,12,11,9,25,,62,53,9,7,6,6,0.4,0.4
2025-08-26T2000,1788A,129.6386,44.5462,牡丹江市,第一中学,,24,24,18,16,13,32,,64,56,18,9,6,6,0.2,0.2
2025-08-26T2000,2531A,105.0703,29.61,内江市,市监测站,,34,34,15,17,16,94,,116,114,14,9,2,1,0.7,0.7
2025-08-26T2000,2532A,105.0717,29.5947,内江市,东兴区政府,,,20,18,9,10,97,,112,112,,8,7,6,0.7,0.8
2025-08-26T2000,2533A,105.0653,29.5817,内江市,内江二中,,31,24,28,14,17,97,,109,109,20,10,4,3,0.6,0.6
2025-08-26T2000,2534A,105.0406,29.5822,内江市,内江日报社,,32,23,25,17,17,102,,113,113,18,13,8,8,0.4,0.4
2025-08-26T2000,2628A,92.0657,31.4846,那曲市,那曲监测站,,48,48,34,14,17,59,,69,66,14,21,10,8,0.4,0.6
2025-08-26T2000,4243A,92.0515,31.4787,那曲市,那曲市委宣传部,,21,21,19,12,9,62,,73,70,14,14,6,5,0.5,0.5
2025-08-26T2000,1290A,115.8931,28.6843,南昌市,省外办,颗粒物(PM10),51,52,27,17,18,73,,91,88,8,15,4,5,0.5,0.6
2025-08-26T2000,1291A,115.8886,28.7003,南昌市,省林业公司,,,,27,,13,72,,98,96,10,10,3,4,0.5,0.5
2025-08-26T2000,1292A,115.8126,28.7442,南昌市,林科所,颗粒物(PM10),64,78,20,9,9,70,,112,102,8,11,2,4,0.5,0.5
2025-08-26T2000,1294A,115.8518,28.687,南昌市,建工学校,,,51,19,,11,74,,100,96,16,16,5,7,0.6,0.6
2025-08-26T2000,1295A,115.8921,28.6424,南昌市,象湖,,44,44,18,14,11,78,,112,107,10,11,7,7,0.5,0.5
2025-08-26T2000,1296A,115.7423,28.7996,南昌市,武术学校,,25,25,14,11,12,42,,88,69,8,8,7,9,0.5,0.5
2025-08-26T2000,3046A,115.9084,28.6062,南昌市,机电学校,颗粒物(PM10),65,80,34,12,13,78,,123,115,8,12,6,8,0.6,0.6
2025-08-26T2000,3690A,115.9721,28.7031,南昌市,外国语学校,颗粒物(PM10),68,86,26,17,11,78,,106,103,9,9,6,6,0.4,0.4
2025-08-26T2000,4192A,115.9316,28.68677,南昌市,南京东路235号,,45,45,26,13,9,69,,101,98,10,11,8,8,0.6,0.6
2025-08-26T2000,1905A,106.056,30.8064,南充市,西山风景区,,,,,,,,,,,,,,,,
2025-08-26T2000,1906A,106.0789,30.8023,南充市,南充市委,,27,23,23,15,15,84,,103,103,15,14,5,5,0.3,0.4
2025-08-26T2000,1907A,106.1031,30.8217,南充市,南充炼油厂,,31,31,31,19,15,91,,108,108,11,10,6,6,0.2,0.2
2025-08-26T2000,4227A,106.1083,30.7884,南充市,梨树横街98号,,33,33,24,19,16,103,,123,123,17,10,4,4,0.2,0.2
2025-08-26T2000,4304A,106.1172,30.843,南充市,清泉寺北路188号,,36,36,26,18,17,91,,114,114,18,10,4,4,0.3,0.4
2025-08-26T2000,4305A,106.067,30.7616,南充市,同庆路1号,,32,32,25,12,12,83,,105,104,23,15,5,5,0.3,0.3
2025-08-26T2000,1151A,118.8086,32.1065,南京市,迈皋桥,,24,13,14,9,8,74,,154,149,24,24,3,6,0.7,1.2
2025-08-26T2000,1152A,118.7538,32.0551,南京市,草场门,,27,27,18,9,10,64,,141,137,17,20,3,6,0.6,1.1
2025-08-26T2000,1153A,118.7794,32.0745,南京市,山西路,,24,9,19,3,3,75,,151,144,24,18,5,4,0.4,0.8
2025-08-26T2000,1154A,118.7752,32.0023,南京市,中华门,,24,19,17,7,6,74,,166,161,20,14,4,4,0.7,1.1
2025-08-26T2000,1155A,118.8109,32.0309,南京市,瑞金路,,24,9,13,7,8,75,,168,162,20,21,7,6,0.5,0.7
2025-08-26T2000,1156A,118.7997,32.0754,南京市,玄武湖,,42,42,19,3,8,60,,147,140,12,11,4,4,0.4,0.8
2025-08-26T2000,1157A,118.6414,32.0931,南京市,浦口,,25,25,17,3,4,54,,107,102,18,14,6,6,0.7,0.8
2025-08-26T2000,1158A,118.7356,31.9996,南京市,奥体中心,,,,19,,9,,,177,177,,32,,9,,0.8
2025-08-26T2000,1159A,118.9125,32.1028,南京市,仙林大学城,,24,12,17,3,3,74,,156,148,10,11,8,10,0.6,0.8
2025-08-26T2000,3422A,118.8436,31.9198,南京市,江宁彩虹桥,,40,30,19,14,8,128,,179,179,16,12,3,4,0.7,0.6
2025-08-26T2000,3427A,118.8554,32.3578,南京市,六合雄州,,32,32,16,7,4,45,,95,82,15,12,4,5,0.6,0.6
2025-08-26T2000,4249A,118.8708,31.3402,南京市,汶溪路181号,,44,,11,18,9,139,,128,128,11,8,7,6,0.6,0.4
2025-08-26T2000,4312A,119.019,31.6512,南京市,中山西路1号,,31,12,8,8,7,98,,125,124,14,12,3,4,0.6,0.6
2025-08-26T2000,1401A,108.3103,22.7881,南宁市,二十一中,,24,24,21,11,12,38,,59,57,12,10,4,5,0.4,0.5
2025-08-26T2000,1402A,108.3141,22.8528,南宁市,北湖,,29,29,23,11,13,46,,64,62,10,15,3,5,0.2,0.3
2025-08-26T2000,1403A,108.3206,22.8225,南宁市,市监测站,,18,13,20,12,13,38,,62,58,16,12,3,4,0.4,0.4
2025-08-26T2000,1404A,108.3829,22.8037,南宁市,大自然花园,,18,17,22,12,12,38,,63,58,14,10,4,5,0.6,0.6
2025-08-26T2000,1405A,108.4394,22.7904,南宁市,仙葫,,12,11,20,3,11,38,,60,56,12,11,4,5,0.4,0.4
2025-08-26T2000,1406A,108.2397,22.8467,南宁市,区农职院,,22,20,24,15,14,34,,65,62,20,17,5,8,0.3,0.4
2025-08-26T2000,1407A,108.3275,22.735,南宁市,英华嘉园,,19,19,22,9,12,41,,58,55,10,10,1,2,0.3,0.3
2025-08-26T2000,3401A,108.4834,22.7618,南宁市,红星社区,,22,22,21,15,13,37,,66,60,10,16,2,2,0.4,0.4
2025-08-26T2000,4221A,108.2177,22.7774,南宁市,乐贤路16号,,22,22,25,11,12,36,,59,56,22,21,2,2,0.3,0.4
2025-08-26T2000,2331A,118.0966,26.6761,南平市,茫荡山,,,,9,,7,,,39,,,,,2,,
2025-08-26T2000,2332A,118.1681,26.6369,南平市,南平市监测站,,12,9,10,3,7,38,,61,58,9,7,5,5,0.5,0.4
2025-08-26T2000,2333A,118.1825,26.6489,南平市,南平铝业有限公司,,14,6,16,3,9,43,,62,60,7,8,4,5,0.5,0.6
2025-08-26T2000,2334A,118.1756,26.6272,南平市,南平七中,,,,16,6,7,35,,59,57,5,6,5,4,0.6,0.6
2025-08-26T2000,1168A,120.9098,31.9663,南通市,狼山街道,,30,28,22,18,13,93,,166,166,19,24,2,4,0.6,0.9
2025-08-26T2000,1169A,120.86,32.0005,南通市,虹桥,,40,22,27,16,19,126,,203,203,14,33,2,7,0.7,1.1
2025-08-26T2000,1170A,120.87,32.02,南通市,城中,,32,29,33,15,16,100,,172,171,17,27,4,7,0.7,1
2025-08-26T2000,1171A,120.94,31.93,南通市,星湖花园,,38,31,22,22,17,119,,201,201,24,34,2,4,0.6,0.7
2025-08-26T2000,1172A,120.81,32.0417,南通市,紫琅学院,,34,27,30,15,19,108,,204,200,25,28,4,8,0.7,0.9
2025-08-26T2000,3291A,121.067,32.062,南通市,通州监测站,,49,39,19,27,11,154,,132,132,10,21,1,2,1.2,0.8
2025-08-26T2000,3432A,120.9348,31.9883,南通市,环境教育馆,,31,31,25,21,12,98,,184,179,27,21,4,4,0.5,0.5
2025-08-26T2000,2404A,112.5224,33.0122,南阳市,瓦房庄,,46,46,42,26,25,101,,117,117,6,6,6,6,0.5,0.6
2025-08-26T2000,2405A,112.5003,32.9735,南阳市,汉画馆,,40,40,37,22,22,96,,114,114,8,8,7,7,0.6,0.6
2025-08-26T2000,2406A,112.5573,33.027,南阳市,气象站,,33,33,34,22,23,105,,122,122,7,7,7,7,0.5,0.5
2025-08-26T2000,2407A,112.5481,32.9689,南阳市,理工学院,,45,45,43,22,20,97,,117,117,7,6,8,8,0.6,0.6
2025-08-26T2000,4008A,112.5234,32.9922,南阳市,卧龙区政府,,40,40,36,27,29,98,,116,116,9,9,5,6,0.7,0.7
2025-08-26T2000,1234A,121.8358,29.911,宁波市,区环保大楼,,16,15,28,11,10,25,,133,109,15,16,4,6,0.3,0.4
2025-08-26T2000,1235A,121.56,29.82,宁波市,万里学院,,26,26,24,15,16,27,,154,126,15,12,6,7,0.4,0.5
2025-08-26T2000,1236A,121.713,29.9572,宁波市,龙赛医院,,22,22,34,11,10,25,,170,140,14,14,4,5,0.3,0.3
2025-08-26T2000,1239A,121.633,29.7733,宁波市,钱湖水厂,,12,12,18,6,11,32,,128,98,8,11,6,6,0.3,0.4
2025-08-26T2000,1240A,121.5856,29.8635,宁波市,太古小学,,18,18,28,12,11,31,,160,136,11,10,2,3,0.4,0.5
2025-08-26T2000,1241A,121.524,29.8674,宁波市,市环境监测中心,,21,21,23,11,10,32,,149,125,15,14,7,8,0.5,0.5
2025-08-26T2000,2871A,121.6147,29.9017,宁波市,万里国际学校,,25,25,19,13,11,39,,187,152,8,11,4,5,0.4,0.6
2025-08-26T2000,3710A,121.5594,29.8975,宁波市,白沙活动中心,,21,21,20,10,11,40,,167,145,11,13,5,6,0.3,0.4
2025-08-26T2000,2339A,119.5001,26.6946,宁德市,金涵水库,,,,11,,4,,,20,,,2,,1,,0.5
2025-08-26T2000,2341A,119.5388,26.6612,宁德市,宁德市监测站,,14,,12,6,7,44,,62,60,7,7,3,4,0.3,0.3
2025-08-26T2000,3209A,119.5231,26.6562,宁德市,宁德一中,,17,17,13,3,5,45,,64,63,5,5,4,4,0.2,0.2
2025-08-26T2000,2618A,98.8601,25.8567,怒江傈僳族自治州,州监测站,,21,21,23,12,9,51,,60,60,7,5,6,6,0.4,0.4
2025-08-26T2000,2619A,98.8546,25.8417,怒江傈僳族自治州,泸水一中,,32,32,20,3,8,29,,48,48,14,9,4,4,0.5,0.5
2025-08-26T2000,1888A,101.6891,26.571,攀枝花市,弄弄坪,,43,43,46,13,21,77,,93,93,17,15,6,7,0.9,0.9
2025-08-26T2000,1889A,101.5769,26.5928,攀枝花市,河门口,,23,22,32,12,18,72,,97,96,16,12,10,12,0.7,0.9
2025-08-26T2000,1890A,101.7169,26.585,攀枝花市,炳草岗,,37,37,48,11,22,78,,95,95,14,20,6,8,0.6,0.9
2025-08-26T2000,1891A,101.7369,26.5008,攀枝花市,仁和,,25,25,32,13,20,45,,74,70,13,9,7,9,0.6,0.7
2025-08-26T2000,2835A,101.7227,26.567,攀枝花市,四十中小,,37,37,38,18,20,72,,96,96,28,22,12,12,0.9,1
2025-08-26T2000,1604A,122.0303,41.1489,盘锦市,开发区,,23,21,19,10,11,72,,100,96,19,19,6,7,0.5,0.5
2025-08-26T2000,1605A,122.0485,41.0883,盘锦市,兴隆台,,23,11,20,3,7,72,,98,94,22,18,7,6,0.4,0.4
2025-08-26T2000,1606A,121.8297,41.1028,盘锦市,新生街道,,25,13,18,6,10,78,,100,94,11,27,4,5,0.4,0.6
2025-08-26T2000,1832A,113.3257,33.742,平顶山市,新华旅馆,,46,46,50,20,20,96,,103,102,14,14,5,5,0.7,0.7
2025-08-26T2000,1833A,113.2919,33.737,平顶山市,规划设计院,,42,38,39,29,29,94,,107,106,17,15,4,4,0.9,0.7
2025-08-26T2000,1834A,113.182,33.774,平顶山市,平顶山工学院,,33,30,34,19,28,104,,116,114,12,13,5,6,0.7,0.7
2025-08-26T2000,3204A,113.3025,33.73,平顶山市,规划局,,41,41,41,21,20,109,,118,117,11,13,5,5,0.7,0.6
2025-08-26T2000,3594A,112.8867,33.9116,平顶山市,石龙区,,46,46,55,29,34,108,,114,114,11,21,5,7,1.2,0.9
2025-08-26T2000,2656A,106.6692,35.5461,平凉市,聚贤嘉苑,颗粒物(PM10),52,53,47,29,23,24,,53,51,33,16,8,8,1.1,0.9
2025-08-26T2000,2657A,106.7021,35.5307,平凉市,博物馆,颗粒物(PM10),54,57,48,28,24,10,,59,50,35,17,9,9,0.8,0.6
2025-08-26T2000,2347A,114.0997,27.5002,萍乡市,武功山,,10,6,7,3,6,32,,58,47,4,4,8,8,0.6,0.6
2025-08-26T2000,2348A,113.8385,27.6434,萍乡市,中医院,,28,22,27,11,15,88,,148,140,14,16,11,17,0.9,0.9
2025-08-26T2000,2349A,113.8493,27.6253,萍乡市,市政府车库,,,,27,26,20,68,,129,119,,17,10,16,,1.2
2025-08-26T2000,2350A,113.8676,27.6435,萍乡市,市环保局,,36,30,29,25,19,60,,141,130,21,17,10,14,1.0,1
2025-08-26T2000,2351A,113.866,27.6198,萍乡市,安源区政府,,33,26,33,23,18,76,,124,117,5,13,13,18,0.5,1.4
2025-08-26T2000,2319A,119.0141,25.4325,莆田市,荔城区仓后路,,18,18,18,3,3,33,,64,60,8,6,7,6,0.6,0.5
2025-08-26T2000,2320A,119.0015,25.4553,莆田市,莆田市监测站,,12,8,12,7,2,36,,69,65,8,6,5,5,0.4,0.3
2025-08-26T2000,2321A,119.1119,25.4561,莆田市,涵江区六中,,13,13,14,3,2,37,,68,61,6,7,4,4,0.4,0.4
2025-08-26T2000,2322A,119.1013,25.3215,莆田市,秀屿区政府,,13,11,18,3,4,40,,63,58,7,8,5,5,0.6,0.4
2025-08-26T2000,2323A,118.981,25.4792,莆田市,东圳水库,,,,10,,2,,,47,,,5,,4,,0.8
2025-08-26T2000,2392A,115.0312,35.7636,濮阳市,环保局,,,,36,,26,138,,150,150,13,14,4,4,,0.7
2025-08-26T2000,2394A,115.0574,35.7609,濮阳市,油田运输公司,,45,44,44,22,24,141,,154,154,10,12,2,3,0.8,0.8
2025-08-26T2000,3021A,115,35.7668,濮阳市,濮水河管理处,,40,38,39,24,21,125,,137,137,12,10,2,2,0.6,0.6
2025-08-26T2000,4216A,115.0924,35.7686,濮阳市,任丘路479号,颗粒物(PM10),51,51,49,29,26,128,,145,145,12,14,3,3,0.8,0.8
2025-08-26T2000,2601A,100.98,22.7633,普洱市,市环保局,,33,24,27,23,18,35,,42,40,8,7,6,6,0.6,0.5
2025-08-26T2000,2602A,100.9817,22.8322,普洱市,普洱第二中学,,22,22,24,7,13,41,,43,42,4,7,6,6,0.4,0.4
2025-08-26T2000,2262A,131.0518,45.8751,七台河市,新一中,,22,22,10,12,7,41,,62,59,9,9,10,10,0.7,0.7
2025-08-26T2000,3345A,131.0577,45.7879,七台河市,中波台,,15,7,6,7,7,47,,53,52,7,9,7,8,0.2,0.3
2025-08-26T2000,3637A,131.0176,45.7761,七台河市,人民广场,,16,12,11,3,7,49,,54,54,8,8,10,11,0.5,0.5
2025-08-26T2000,3684A,130.8781,45.8222,七台河市,新建矿广场,,20,,11,14,8,28,,52,45,11,8,9,7,0.4,0.3
2025-08-26T2000,1779A,123.9305,47.3636,齐齐哈尔市,安居小区,,31,31,19,9,7,36,,50,50,16,10,1,1,0.6,0.5
2025-08-26T2000,1780A,123.9488,47.3386,齐齐哈尔市,中心广场,,26,26,15,3,2,38,,55,54,22,11,5,5,0.5,0.4
2025-08-26T2000,1781A,123.9483,47.3227,齐齐哈尔市,农牧车辆厂,,31,31,23,12,7,42,,54,53,14,9,6,6,0.4,0.3
2025-08-26T2000,1783A,123.945,47.2988,齐齐哈尔市,市环境监测站,,27,27,17,7,6,40,,56,55,17,10,6,6,0.5,0.4
2025-08-26T2000,3662A,123.6333,47.2075,齐齐哈尔市,富区青少年活动中心,,44,44,15,7,6,22,,53,49,21,6,4,5,0.5,0.5
2025-08-26T2000,2591A,107.9783,26.5747,黔东南苗族侗族自治州,市环境监测站,,18,,14,12,12,34,,56,50,18,11,2,2,0.4,0.4
2025-08-26T2000,2881A,107.8908,26.5311,黔东南苗族侗族自治州,凯里学院,,17,,8,8,7,53,,60,58,6,8,3,3,0.4,0.4
2025-08-26T2000,2593A,107.5228,26.2403,黔南布依族苗族自治州,小围寨,,13,9,9,7,3,40,,56,53,4,5,1,2,0.2,0.2
2025-08-26T2000,3538A,107.5175,26.2978,黔南布依族苗族自治州,沙坝,,14,12,14,3,0,44,,56,54,5,6,3,4,0.2,0.3
2025-08-26T2000,2589A,104.9022,25.0925,黔西南布依族苗族自治州,场坝街,,17,17,16,7,7,38,,49,47,9,7,4,10,0.3,0.3
2025-08-26T2000,2590A,104.8811,25.0992,黔西南布依族苗族自治州,坪东大道,,22,22,16,3,8,30,,48,45,7,5,2,3,0.5,0.4
2025-08-26T2000,2502A,108.6236,21.9667,钦州市,市环保站,,31,31,12,7,5,32,,50,49,20,8,3,2,0.5,0.4
2025-08-26T2000,2503A,108.6549,21.9481,钦州市,沙埠小学,,18,18,15,8,6,35,,52,50,14,6,3,3,0.4,0.4
2025-08-26T2000,2504A,108.5989,21.7431,钦州市,港区一小,,44,44,28,15,8,59,,63,63,18,13,14,6,0.6,0.5
2025-08-26T2000,3404A,108.5959,21.9633,钦州市,北职校,,26,26,14,10,5,21,,52,49,19,6,2,2,0.6,0.4
2025-08-26T2000,1043A,119.7493,40.0116,秦皇岛市,第一关,,38,33,26,14,11,44,,141,130,76,27,6,6,0.3,0.2
2025-08-26T2000,1044A,119.5897,39.9499,秦皇岛市,监测站,,,50,33,6,6,119,,133,133,13,21,6,6,,0.4
2025-08-26T2000,1046A,119.5251,39.9041,秦皇岛市,建设大厦,,37,34,31,11,10,116,,126,126,8,16,6,7,0.4,0.4
2025-08-26T2000,3132A,119.610547,39.943889,秦皇岛市,文明里,,35,29,29,9,7,112,,123,123,12,17,7,6,0.4,0.4
2025-08-26T2000,4198A,119.5090,39.8253,秦皇岛市,北戴河轮滑馆,,40,40,41,15,19,116,,125,125,6,10,2,3,0.3,0.6
2025-08-26T2000,1307A,120.6659,36.2403,青岛市,仰口,,34,15,14,9,8,108,,103,103,2,2,9,9,0.7,0.8
2025-08-26T2000,1310A,120.4134,36.0658,青岛市,市南区东部子站,,37,17,19,9,14,117,,104,101,6,9,6,7,0.2,0.3
2025-08-26T2000,1311A,120.3664,36.1032,青岛市,四方区子站,,33,24,22,14,17,104,,126,124,18,8,5,6,0.3,0.4
2025-08-26T2000,1312A,120.2994,36.054,青岛市,市南区西部子站,,27,,21,15,13,86,,107,95,20,18,5,5,0.6,0.8
2025-08-26T2000,1313A,120.4581,36.0858,青岛市,崂山区子站,,34,9,16,7,10,107,,114,114,6,7,7,8,0.2,0.3
2025-08-26T2000,1315A,120.3999,36.3083,青岛市,城阳区子站,,34,34,24,10,12,93,,122,119,20,11,7,7,0.6,0.7
2025-08-26T2000,1966A,120.0405,35.8735,青岛市,黄岛区4号,,43,19,25,3,12,136,,151,151,10,11,5,6,0.5,0.7
2025-08-26T2000,3362A,120.5014,36.4034,青岛市,即墨2号,,34,19,17,7,8,106,,118,118,9,7,4,4,0.2,0.3
2025-08-26T2000,3642A,120.3503,36.0736,青岛市,市北区南部,,,22,17,7,13,109,,120,120,,16,5,6,0.7,0.9
2025-08-26T2000,3643A,120.3948,36.1805,青岛市,李沧区北部,,28,22,21,19,18,87,,116,113,27,12,5,5,0.4,0.5
2025-08-26T2000,4290A,120.1969,35.9546,青岛市,珠江路669号,,33,24,24,15,19,104,,132,130,14,16,5,7,0.5,0.7
2025-08-26T2000,1702A,113.0426,23.691,清远市,环保大楼,,38,38,19,18,10,102,,111,111,16,13,8,8,0.7,0.6
2025-08-26T2000,1703A,113.0208,23.7106,清远市,凤城街办,,47,47,23,27,10,82,,111,109,25,20,8,7,0.6,0.5
2025-08-26T2000,3025A,113.0477,23.6344,清远市,技师学院,,33,32,24,16,10,104,,113,113,14,18,9,9,0.5,0.4
2025-08-26T2000,3318A,112.9903,23.7403,清远市,清新太和,,28,28,21,13,10,86,,108,105,15,17,10,8,0.5,0.4
2025-08-26T2000,3455A,113.076,23.7198,清远市,清城东城,,43,39,21,30,10,71,,96,95,13,12,7,7,0.5,0.5
2025-08-26T2000,2661A,107.6325,35.7357,庆阳市,庆阳五中,,35,35,37,14,22,59,,83,70,19,10,8,7,0.5,0.6
2025-08-26T2000,2662A,107.6364,35.7067,庆阳市,市环保局,,32,32,32,15,19,66,,90,74,14,7,6,4,0.6,0.7
2025-08-26T2000,1916A,103.7897,25.5035,曲靖市,环境监测站,,26,26,17,3,8,34,,47,45,17,9,7,6,0.4,0.3
2025-08-26T2000,1917A,103.8,25.5364,曲靖市,烟厂办公区,,16,16,11,8,6,35,,42,40,10,6,4,4,0.4,0.4
2025-08-26T2000,3376A,103.7947,25.462,曲靖市,南苑二区,,11,11,10,3,6,35,,41,,13,9,4,4,0.3,0.2
2025-08-26T2000,3377A,103.7444,25.5261,曲靖市,曲靖师范学院,,,15,12,3,5,40,,48,47,,10,7,6,0.3,0.3
2025-08-26T2000,1264A,118.8692,28.9398,衢州市,环保大楼,,27,24,32,11,16,84,,120,109,11,14,2,2,0.3,0.4
2025-08-26T2000,1265A,118.8709,28.9666,衢州市,实验学校,,29,20,28,10,15,91,,132,123,10,14,5,4,0.4,0.4
2025-08-26T2000,1266A,118.8621,28.9808,衢州市,衢州学院,,28,17,27,9,15,87,,141,130,13,14,3,4,0.3,0.4
2025-08-26T2000,1611A,118.5819,24.9117,泉州市,涂山街,,20,20,18,11,8,53,,83,80,10,9,2,2,0.4,0.4
2025-08-26T2000,1612A,118.5972,24.8978,泉州市,津头埔,,23,23,20,15,9,53,,81,78,11,8,3,4,0.4,0.4
2025-08-26T2000,1613A,118.6663,24.9424,泉州市,万安,,,24,20,8,7,46,,80,76,,10,2,3,,0.4
2025-08-26T2000,1614A,118.6117,24.9604,泉州市,清源山,,,,11,,6,,,45,,,5,,3,,0.4
2025-08-26T2000,3529A,118.6333,24.9264,泉州市,城华南路,,21,21,14,11,6,50,,80,76,12,9,3,3,0.4,0.4
2025-08-26T2000,2626A,88.8876,29.2718,日喀则市,日喀则监测站,,23,6,4,3,1,71,,73,73,6,3,10,8,0.3,0.3
2025-08-26T2000,3726A,88.8781,29.2426,日喀则市,林业技术推广中心,,23,10,10,3,1,71,,72,72,3,3,6,6,0.4,0.4
2025-08-26T2000,1659A,119.471,35.4209,日照市,监测站,,40,19,17,12,14,127,,140,140,11,11,6,7,0.6,0.7
2025-08-26T2000,1660A,119.523,35.4216,日照市,市政府广场,,42,22,21,6,10,134,,141,141,7,7,5,6,0.7,1
2025-08-26T2000,1661A,119.5587,35.4044,日照市,港务局,,42,,18,15,22,133,,138,137,11,11,2,6,0.7,0.9
2025-08-26T2000,3507A,119.5328,35.4625,日照市,职业技术学院,,31,27,21,9,12,97,,136,132,14,10,5,5,0.6,0.8
2025-08-26T2000,3604A,119.3266,35.1044,日照市,岚山环保分局,,39,19,34,3,17,122,,134,133,7,17,7,21,0.5,2
2025-08-26T2000,1835A,111.1922,34.7752,三门峡市,市政府,颗粒物(PM10),52,53,59,26,36,119,,110,110,12,10,7,6,0.6,0.7
2025-08-26T2000,1836A,111.1587,34.7942,三门峡市,开发区,,44,44,65,30,41,103,,101,101,14,11,6,5,0.5,0.6
2025-08-26T2000,1838A,111.143,34.7955,三门峡市,风景区,,36,33,53,20,35,114,,110,110,9,8,5,5,0.7,0.7
2025-08-26T2000,3039A,111.1911,34.7829,三门峡市,三门峡市第一小学,,49,49,60,22,36,115,,110,110,10,8,6,4,0.6,0.7
2025-08-26T2000,3598A,111.1,34.7167,三门峡市,富达温泉假日酒店,,,,47,43,44,106,,103,103,12,9,4,4,0.8,0.8
2025-08-26T2000,2324A,117.6211,26.2625,三明市,三钢,,48,,21,33,13,37,,74,64,15,14,4,4,0.6,0.9
2025-08-26T2000,2325A,117.635,26.2714,三明市,三明二中,,15,15,25,7,12,41,,70,61,9,11,4,3,0.5,0.7
2025-08-26T2000,2326A,117.6028,26.2378,三明市,三元区政府,,19,19,24,3,14,35,,80,65,16,13,2,2,0.5,0.5
2025-08-26T2000,2327A,117.7275,26.3108,三明市,洋溪,,,,13,,34,,,,,,10,,86,,0.5
2025-08-26T2000,1876A,109.5078,18.2489,三亚市,河东子站,,30,30,21,16,10,33,,46,39,4,2,3,3,0.6,0.7
2025-08-26T2000,1877A,109.4964,18.2681,三亚市,河西子站,,,,,4,4,36,,,,,,3,3,,1.1
2025-08-26T2000,3540A,109.7348,18.3443,三亚市,君悦子站,,18,18,23,7,12,46,,54,46,4,3,1,3,0.6,0.6
2025-08-26T2000,2624A,91.7608,29.2313,山南市,山南监测站,,18,6,4,3,1,56,,58,58,7,5,3,3,0.3,0.3
2025-08-26T2000,2625A,91.7706,29.2436,山南市,山南人民医院,,20,7,5,3,3,61,,60,60,3,4,4,3,0.3,0.2
2025-08-26T2000,1674A,116.6794,23.3667,汕头市,金平子站,,,,18,,9,82,,91,91,10,12,3,4,0.5,0.5
2025-08-26T2000,1675A,116.7244,23.3633,汕头市,龙湖子站,,25,18,20,8,7,79,,83,83,7,10,7,8,0.5,0.5
2025-08-26T2000,1676A,116.7258,23.2775,汕头市,濠江子站,,23,,22,10,11,71,,81,81,7,8,6,6,0.6,0.6
2025-08-26T2000,1677A,116.7519,23.4714,汕头市,澄海子站,,26,10,23,10,10,83,,83,83,10,9,3,4,0.6,0.5
2025-08-26T2000,1678A,116.6092,23.2539,汕头市,潮阳子站,,27,22,20,10,7,85,,86,86,6,6,6,6,0.5,0.6
2025-08-26T2000,3444A,116.454,23.2684,汕头市,潮南峡山,,30,21,18,13,11,93,,100,99,8,9,6,7,0.5,0.5
2025-08-26T2000,3624A,116.4069,23.2533,汕头市,潮南子站,,26,26,25,12,12,81,,95,94,4,7,5,5,0.5,0.5
2025-08-26T2000,1693A,115.3653,22.775,汕尾市,市环保局,,23,12,21,8,10,72,,94,89,7,9,3,3,0.4,0.4
2025-08-26T2000,1694A,115.3706,22.7898,汕尾市,市政府,,24,11,19,8,10,74,,101,96,6,9,4,4,0.6,0.6
2025-08-26T2000,1695A,115.3622,22.7925,汕尾市,新城中学,,23,20,22,8,9,72,,96,92,5,9,5,5,0.5,0.5
2025-08-26T2000,2645A,109.9154,33.8715,商洛市,监测站,,28,28,29,19,15,65,,78,75,8,10,11,5,0.7,0.7
2025-08-26T2000,3045A,109.9643,33.8471,商洛市,商州区中学,,37,37,33,14,15,59,,73,70,12,12,8,5,0.5,0.5
2025-08-26T2000,2408A,115.6702,34.4285,商丘市,环境监测站,,,,43,26,24,113,,142,139,16,11,1,2,0.5,0.6
2025-08-26T2000,2409A,115.6458,34.4045,商丘市,粮食局,,45,45,35,19,16,122,,143,141,11,10,4,4,0.7,0.6
2025-08-26T2000,2410A,115.6293,34.3948,商丘市,睢阳区环保局,,49,49,40,26,20,120,,143,141,11,9,2,2,0.5,0.5
2025-08-26T2000,3171A,115.6071,34.4465,商丘市,梁园区档案局,,36,36,35,20,19,106,,135,132,20,13,2,2,0.6,0.7
2025-08-26T2000,1141A,121.4,31.238,上海市,普陀,,47,44,37,20,18,150,,174,174,20,33,6,7,0.4,0.5
2025-08-26T2000,1142A,121.478,31.2036,上海市,十五厂,颗粒物(PM10),52,53,38,26,19,136,,169,169,26,28,9,10,0.7,0.7
2025-08-26T2000,1143A,121.467,31.3008,上海市,虹口,,37,34,33,17,18,117,,135,135,21,32,6,7,0.7,0.8
2025-08-26T2000,1147A,121.425,31.2261,上海市,静安监测站,,47,39,34,26,20,149,,173,173,20,31,5,5,0.7,0.8
2025-08-26T2000,1148A,121.703,31.1907,上海市,浦东川沙,,44,44,38,19,18,89,,146,134,34,31,8,8,0.7,0.8
2025-08-26T2000,1149A,121.533,31.2284,上海市,浦东新区监测站,,35,33,33,18,17,111,,163,162,24,29,6,6,0.1,0.3
2025-08-26T2000,1150A,121.577,31.2071,上海市,浦东张江,,41,41,40,24,19,114,,160,159,25,29,6,7,0.9,0.9
2025-08-26T2000,3265A,121.4316,31.3322,上海市,宝山庙行,,38,35,34,19,18,119,,123,123,32,39,7,7,0.6,0.6
2025-08-26T2000,3266A,121.8791,31.4662,上海市,崇明上实东滩,,43,25,23,20,15,135,,148,148,18,18,5,5,0.4,0.5
2025-08-26T2000,3268A,121.3162,31.2838,上海市,嘉定南翔,,37,37,34,22,22,116,,141,141,38,43,5,6,0.4,0.6
2025-08-26T2000,3269A,121.3359,30.7456,上海市,金山新城,臭氧1小时,69,32,36,28,22,175,,182,182,8,19,5,6,0.6,0.7
2025-08-26T2000,3270A,121.4996,31.0739,上海市,闵行浦江,,47,45,43,22,19,150,,178,178,16,29,5,5,1.0,1
2025-08-26T2000,3271A,121.2886,31.1663,上海市,青浦徐泾,,24,24,35,11,20,72,,170,163,37,36,6,8,0.7,0.8
2025-08-26T2000,3272A,121.2186,31.0378,上海市,松江图书馆,臭氧1小时,68,37,31,25,21,174,,181,181,15,30,8,9,0.6,0.7
2025-08-26T2000,3273A,121.3902,31.2059,上海市,长宁仙霞,,48,46,35,24,19,151,,171,171,22,29,8,9,0.6,0.6
2025-08-26T2000,3274A,121.7965,31.0507,上海市,浦东惠南,,43,43,37,24,12,137,,157,155,13,24,10,11,0.3,0.3
2025-08-26T2000,3544A,121.4891,30.925,上海市,奉贤南桥新城,臭氧1小时,103,49,38,36,22,206,,186,186,12,22,4,6,0.7,0.8
2025-08-26T2000,4183A,121.4174,31.16637,上海市,冠生园路458号,,45,40,32,25,20,142,,162,162,23,34,3,4,0.8,0.8
2025-08-26T2000,4205A,121.5419,31.2683,上海市,宁武路151号,,44,44,41,24,19,86,,140,138,43,39,4,4,0.3,0.5
2025-08-26T2000,2381A,118.005,28.4572,上饶市,百草园,,,,,,,,,,,,,,,,
2025-08-26T2000,2382A,117.9756,28.4436,上饶市,市监测站,,26,26,31,17,16,61,,108,92,8,12,5,8,0.5,0.5
2025-08-26T2000,2383A,117.9519,28.4628,上饶市,凤凰光学,,24,24,30,13,13,53,,102,87,14,15,7,10,0.2,0.3
2025-08-26T2000,3685A,117.897,28.4315,上饶市,双创科技城,,22,22,29,10,15,59,,103,88,16,15,8,8,0.4,0.5
