timepoint,stationcode,longitude,latitude,area,positionname,primarypollutant,aqi,pm10,pm10_24h,pm2_5,pm2_5_24h,o3,o3_24h,o3_8h,o3_8h_24h,no2,no2_24h,so2,so2_24h,co,co_24h
2026-04-09T0000,2568A,102.2503,31.8896,阿坝藏族羌族自治州,马师校,,35,25,15,3,7,109,109,119,118,3,4,5,5,0.3,0.3
2026-04-09T0000,3994A,102.2174,31.9016,阿坝藏族羌族自治州,马尔康中学西区,,33,11,11,3,6,104,104,111,110,4,5,4,3,0.2,0.2
2026-04-09T0000,2695A,80.2899,41.1684,阿克苏地区,电视台,颗粒物(PM10),145,237,248,86,94,42,42,111,92,56,22,4,4,0.8,0.5
2026-04-09T0000,2696A,80.2592,41.1541,阿克苏地区,艺术中心,颗粒物(PM10),132,202,236,84,120,57,57,111,93,44,29,4,5,0.5,0.5
2026-04-09T0000,2205A,105.699,38.8409,阿拉善盟,蒙二幼,颗粒物(PM10),78,89,48,36,17,114,114,111,111,9,8,8,8,0.5,0.6
2026-04-09T0000,2206A,105.7198,38.8508,阿拉善盟,环保局新楼,颗粒物(PM10),90,105,49,35,11,116,116,111,111,3,5,8,8,0.5,0.5
2026-04-09T0000,2708A,88.1266,47.8515,阿勒泰地区,市站,,35,26,16,3,3,110,110,112,106,2,7,5,5,0.1,0.1
2026-04-09T0000,4166A,88.1198,47.7931,阿勒泰地区,阿勒泰路33号,,32,23,14,3,3,102,102,110,105,4,6,5,6,0.3,0.3
2026-04-09T0000,2630A,80.1171,32.4999,阿里地区,阿里监测站,,36,6,10,3,3,115,115,130,122,2,3,6,6,0.5,0.5
2026-04-09T0000,3192A,80.0906,32.5029,阿里地区,阿里藏医院,,39,7,9,3,3,123,123,152,142,2,2,9,7,0.4,0.4
2026-04-09T0000,2644A,109.0088,32.6974,安康市,汉滨区检察院,,33,33,52,18,28,26,26,72,46,14,13,4,5,0.5,0.6
2026-04-09T0000,4054A,109.0324,32.6913,安康市,市邮政管理局,,47,47,62,29,31,27,27,79,50,18,16,4,6,0.7,0.7
2026-04-09T0000,2291A,117.0806,30.5181,安庆市,环科院,,48,48,52,30,19,11,11,67,32,61,37,9,9,0.7,0.5
2026-04-09T0000,2292A,117.0331,30.5118,安庆市,马山宾馆,,37,37,48,25,17,22,22,70,35,47,31,9,9,0.7,0.2
2026-04-09T0000,2294A,116.9897,30.6146,安庆市,安庆大学,,42,42,47,21,17,53,53,75,59,21,20,6,6,0.5,0.4
2026-04-09T0000,3173A,117.0598,30.5351,安庆市,市人大,颗粒物(PM10),52,52,51,27,19,12,12,68,40,59,33,10,11,0.6,0.5
2026-04-09T0000,3123A,105.9408,26.2431,安顺市,凤凰山,,35,20,50,20,40,110,110,139,124,7,7,6,6,0.3,0.6
2026-04-09T0000,3124A,105.9443,26.2567,安顺市,金钟山,,40,NA,48,28,40,102,102,130,116,6,6,4,6,0.5,0.7
2026-04-09T0000,3125A,105.8983,26.248,安顺市,娄家坡,,33,26,46,20,39,103,103,130,116,4,4,8,11,0.3,0.6
2026-04-09T0000,1819A,114.3552,36.1017,安阳市,红庙街,细颗粒物(PM2.5),62,NA,56,41,45,40,40,62,47,19,24,2,3,0.3,0.3
2026-04-09T0000,1820A,114.361,36.0681,安阳市,银杏小区,,48,NA,55,33,46,44,44,60,49,13,18,2,4,0.2,0.2
2026-04-09T0000,3141A,114.3921,36.0879,安阳市,信访局,细颗粒物(PM2.5),68,NA,54,44,50,43,43,66,49,12,21,3,3,0.4,0.4
2026-04-09T0000,3669A,114.4706,36.0634,安阳市,左辅环卫站,,45,39,69,31,44,46,46,59,47,14,20,3,3,0.4,0.5
2026-04-09T0000,4117A,114.2918,36.0769,安阳市,钢三路198号,细颗粒物(PM2.5),58,NA,73,39,45,44,44,60,49,15,20,1,3,0.4,0.4
2026-04-09T0000,1748A,123.0441,41.1201,鞍山市,深沟寺,,31,31,51,15,25,90,90,130,111,12,12,8,10,0.5,0.6
2026-04-09T0000,1749A,123.011,41.0931,鞍山市,太阳城,,36,36,56,18,28,110,110,125,116,7,10,7,8,0.5,0.6
2026-04-09T0000,1750A,123.0483,41.1445,鞍山市,太平,,38,38,55,15,25,92,92,118,103,10,12,9,11,0.7,0.7
2026-04-09T0000,1751A,122.964,41.0968,鞍山市,铁西三道街,,47,47,62,18,28,101,101,129,115,18,19,6,8,0.7,0.8
2026-04-09T0000,1753A,123.0219,41.0822,鞍山市,明达新区,,35,35,52,15,24,111,111,125,116,10,12,8,9,0.5,0.6
2026-04-09T0000,4201A,122.944647,41.082639,鞍山市,兴盛南路290号,,43,43,64,20,29,103,103,125,114,13,15,9,9,0.9,0.8
2026-04-09T0000,2195A,107.4206,40.7609,巴彦淖尔市,附二中,颗粒物(PM10),441,541,137,166,49,100,100,133,116,8,10,11,12,0.4,0.5
2026-04-09T0000,2196A,107.37,40.7372,巴彦淖尔市,市环保大楼,颗粒物(PM10),417,517,133,201,58,87,87,134,112,13,8,9,8,0.3,0.3
2026-04-09T0000,1956A,86.1476,41.7529,巴音郭楞蒙古自治州,孔雀公园,颗粒物(PM10),131,199,160,72,58,4,4,106,69,94,32,11,11,0.7,0.5
2026-04-09T0000,1957A,86.1971,41.7166,巴音郭楞蒙古自治州,棉纺厂,颗粒物(PM10),158,265,176,81,52,17,17,109,73,64,19,/,/,/,/
2026-04-09T0000,1958A,86.236,41.7172,巴音郭楞蒙古自治州,经济开发区,颗粒物(PM10),95,112,138,42,45,67,67,100,77,12,8,8,8,0.4,0.4
2026-04-09T0000,3181A,106.776805,31.852614,巴中市,市五中,,21,21,21,9,7,9,9,56,33,14,12,8,8,0.6,0.6
2026-04-09T0000,3183A,106.7419,31.8654,巴中市,圣泉水务公司,,17,17,16,9,8,4,4,59,24,19,14,8,8,0.7,0.7
2026-04-09T0000,3616A,106.7617,31.8343,巴中市,市中心医院,,28,28,20,16,11,4,4,69,37,20,14,8,8,0.7,0.6
2026-04-09T0000,2235A,122.7909,45.608,白城市,洮北区环保局,,40,40,40,14,17,75,75,97,82,9,14,2,5,0.1,0.2
2026-04-09T0000,2236A,122.8741,45.5725,白城市,市环保局,,46,46,47,15,17,68,68,85,71,12,17,5,4,0.3,0.2
2026-04-09T0000,2231A,126.4219,41.9172,白山市,喜丰,,45,45,50,17,21,112,112,117,117,6,13,8,8,0.6,0.8
2026-04-09T0000,2232A,126.4082,41.9416,白山市,环保局,,41,41,34,16,17,126,126,126,126,9,12,11,9,0.6,0.6
2026-04-09T0000,2647A,104.1727,36.5448,白银市,第三小学,颗粒物(PM10),73,81,79,30,23,65,65,114,94,28,15,7,22,0.5,0.6
2026-04-09T0000,2648A,104.1467,36.5482,白银市,动力公司,颗粒物(PM10),76,86,67,28,22,53,53,114,96,23,13,6,13,0.7,0.5
2026-04-09T0000,2512A,106.6102,23.901,百色市,市监测站,细颗粒物(PM2.5),113,84,87,74,64,92,92,143,127,14,13,16,19,1.0,0.9
2026-04-09T0000,2513A,106.6524,23.8842,百色市,市中心血站,细颗粒物(PM2.5),94,75,95,57,76,138,138,145,139,13,12,12,18,1.2,1.1
2026-04-09T0000,4133A,106.6273,23.8798,百色市,龙景西路,细颗粒物(PM2.5),123,111,105,85,68,139,139,158,145,18,16,19,20,0.9,0.9
2026-04-09T0000,2270A,117.396,32.9389,蚌埠市,工人疗养院,颗粒物(PM10),53,53,47,25,15,58,58,93,86,41,34,7,6,0.3,0.3
2026-04-09T0000,2271A,117.3606,32.9428,蚌埠市,百货大楼,,45,45,39,21,14,66,66,86,83,27,28,6,7,0.4,0.4
2026-04-09T0000,2273A,117.4183,32.8909,蚌埠市,蚌埠学院,,33,29,39,23,15,74,74,88,87,16,27,4,5,0.4,0.4
2026-04-09T0000,2274A,117.3534,32.9672,蚌埠市,淮上区政府,,39,39,43,26,16,62,62,94,91,36,29,6,6,0.3,0.3
2026-04-09T0000,2275A,117.3143,32.8977,蚌埠市,高新区,,39,39,38,24,14,73,73,86,86,15,27,7,8,0.4,0.4
2026-04-09T0000,3715A,117.3091,32.9314,蚌埠市,蚌埠田家炳中学,,46,46,49,20,17,74,74,91,88,22,26,5,6,0.3,0.4
2026-04-09T0000,1585A,109.8761,40.6533,包头市,市环境监测站,细颗粒物(PM2.5),72,78,77,46,31,59,59,131,97,52,31,11,13,0.8,0.7
2026-04-09T0000,1587A,109.9992,40.5843,包头市,包头八中,细颗粒物(PM2.5),84,84,87,52,41,78,78,118,96,27,26,19,18,0.7,0.7
2026-04-09T0000,1589A,109.8641,40.6288,包头市,惠龙物流,颗粒物(PM10),66,72,74,38,33,74,74,120,96,30,24,12,15,0.7,0.7
2026-04-09T0000,1590A,110.0376,40.5546,包头市,东河鸿龙湾,细颗粒物(PM2.5),70,66,80,45,36,48,48,117,85,55,37,34,29,0.7,0.7
2026-04-09T0000,3283A,109.9154,40.5684,包头市,滨河大厦,细颗粒物(PM2.5),70,67,72,45,33,61,61,121,94,38,29,13,14,0.6,0.7
2026-04-09T0000,3419A,109.9449,40.6259,包头市,包头市委党校,颗粒物(PM10),59,62,73,37,28,73,73,119,96,34,27,18,14,0.9,0.7
2026-04-09T0000,3683A,109.8332,40.6577,包头市,昆区政府,细颗粒物(PM2.5),78,71,72,49,38,58,58,124,93,53,32,8,9,1.0,0.8
2026-04-09T0000,1931A,107.0802,34.3129,宝鸡市,竹园沟,细颗粒物(PM2.5),109,79,69,69,48,48,48,69,63,14,19,7,7,0.6,0.6
2026-04-09T0000,1933A,107.1429,34.3549,宝鸡市,监测站,细颗粒物(PM2.5),119,NA,81,80,50,51,51,74,69,20,24,6,6,0.5,0.5
2026-04-09T0000,1934A,107.1172,34.3759,宝鸡市,技工学校,细颗粒物(PM2.5),111,NA,83,72,53,57,57,76,67,15,20,4,5,0.7,0.7
2026-04-09T0000,1936A,107.2025,34.3518,宝鸡市,文理学院,细颗粒物(PM2.5),107,NA,80,67,55,55,55,73,69,17,25,5,5,0.6,0.7
2026-04-09T0000,1937A,107.2396,34.3626,宝鸡市,三迪小学,细颗粒物(PM2.5),100,61,82,60,59,52,52,65,63,17,28,5,5,0.6,0.7
2026-04-09T0000,4155A,107.1721,34.3558,宝鸡市,滨河北路,细颗粒物(PM2.5),146,NA,102,110,67,49,49,72,69,24,25,7,7,0.7,0.8
2026-04-09T0000,4308A,107.3898,34.3601,宝鸡市,陈仓区北开路21号,细颗粒物(PM2.5),109,75,94,69,61,57,57,80,72,12,26,8,9,0.7,0.7
2026-04-09T0000,1051A,115.4803,38.8568,保定市,游泳馆,细颗粒物(PM2.5),96,62,90,58,66,69,69,112,77,13,34,7,8,0.2,0.3
2026-04-09T0000,1052A,115.509,38.8895,保定市,华电二区,细颗粒物(PM2.5),88,67,86,54,66,72,72,115,81,13,31,3,5,0.4,0.3
2026-04-09T0000,1053A,115.4588,38.9037,保定市,接待中心,细颗粒物(PM2.5),110,NA,89,71,64,69,69,113,75,10,23,3,7,0.6,0.5
2026-04-09T0000,1054A,115.4484,38.8344,保定市,地表水厂,细颗粒物(PM2.5),108,85,100,68,61,64,64,115,71,16,37,3,6,0.5,0.4
2026-04-09T0000,3581A,115.3136,38.9511,保定市,满城区生态环境分局,细颗粒物(PM2.5),90,66,102,55,61,86,86,125,83,12,30,2,4,0.4,0.5
2026-04-09T0000,3582A,115.4709,38.7628,保定市,清苑区第二中学,细颗粒物(PM2.5),117,NA,104,78,65,62,62,102,64,14,36,4,8,0.6,0.5
2026-04-09T0000,3583A,115.6231,39.0223,保定市,徐水物探局,细颗粒物(PM2.5),129,110,126,91,66,61,61,115,71,20,36,2,5,0.7,0.5
2026-04-09T0000,4004A,115.4199,38.8665,保定市,双鹰农机,细颗粒物(PM2.5),111,NA,101,72,70,66,66,122,74,14,35,3,7,0.5,0.4
2026-04-09T0000,4034A,115.515,38.8589,保定市,植保所站,细颗粒物(PM2.5),109,78,106,69,65,71,71,114,82,14,38,4,7,0.5,0.5
2026-04-09T0000,2594A,99.1589,25.1137,保山市,市环境监测站,,20,18,27,10,18,62,62,109,80,6,7,5,5,0.2,0.3
2026-04-09T0000,2595A,99.1616,25.1381,保山市,市环保局,,19,18,29,12,23,59,59,108,78,3,4,6,6,0.3,0.5
2026-04-09T0000,1867A,109.1435,21.4085,北海市,海滩公园,,38,38,52,20,26,41,41,97,68,10,9,6,6,0.6,0.6
2026-04-09T0000,1868A,109.0983,21.466,北海市,新市环保局,,33,33,49,15,27,44,44,99,70,10,10,8,7,0.5,0.6
2026-04-09T0000,1869A,109.1775,21.5232,北海市,北海工业园,,37,37,57,21,30,36,36,75,59,8,11,5,6,0.7,0.7
2026-04-09T0000,3400A,109.1844,21.4396,北海市,龙潭自来水厂,,41,41,46,17,26,37,37,89,60,6,6,5,5,0.9,0.9
2026-04-09T0000,1001A,116.3611,39.8786,北京市,万寿西宫,细颗粒物(PM2.5),131,141,98,94,58,78,78,132,110,32,34,3,6,0.6,0.5
2026-04-09T0000,1003A,116.4174,39.9289,北京市,东四,细颗粒物(PM2.5),128,139,95,90,53,93,93,142,122,24,31,7,10,0.6,0.5
2026-04-09T0000,1004A,116.4073,39.8858,北京市,天坛,细颗粒物(PM2.5),115,122,87,76,48,33,33,112,72,22,30,3,5,0.6,0.5
2026-04-09T0000,1005A,116.4622,39.9364,北京市,农展馆,细颗粒物(PM2.5),118,122,92,79,50,83,83,132,108,21,34,2,5,0.8,0.6
2026-04-09T0000,1006A,116.3399,39.9293,北京市,官园,细颗粒物(PM2.5),129,149,110,91,55,79,79,120,104,27,33,4,6,0.5,0.4
2026-04-09T0000,1007A,116.2879,39.9613,北京市,海淀万柳,细颗粒物(PM2.5),136,149,102,99,54,63,63,100,83,29,37,4,5,0.5,0.5
2026-04-09T0000,1008A,116.6635,40.1349,北京市,顺义新城,细颗粒物(PM2.5),137,149,92,100,53,69,69,119,94,35,28,5,6,0.7,0.5
2026-04-09T0000,1009A,116.6275,40.327,北京市,怀柔镇,细颗粒物(PM2.5),114,109,78,75,45,75,75,110,90,22,25,5,6,0.7,0.6
2026-04-09T0000,1010A,116.2295,40.217,北京市,昌平镇,细颗粒物(PM2.5),111,109,86,72,46,67,67,116,88,31,32,3,5,0.5,0.4
2026-04-09T0000,1011A,116.3968,39.982,北京市,奥体中心,细颗粒物(PM2.5),122,135,91,84,50,72,72,128,106,31,33,4,7,0.7,0.6
2026-04-09T0000,3418A,116.8336,40.4095,北京市,密云新城,细颗粒物(PM2.5),116,116,88,77,42,39,39,117,78,34,25,3,4,0.6,0.5
2026-04-09T0000,3671A,116.0879,39.9725,北京市,门头沟三家店,细颗粒物(PM2.5),124,143,112,86,55,49,49,113,87,45,36,2,4,0.6,0.5
2026-04-09T0000,3672A,116.1507,39.8246,北京市,丰台云岗,细颗粒物(PM2.5),126,163,111,88,61,55,55,127,94,27,30,2,3,0.7,0.6
2026-04-09T0000,3674A,115.9578,39.7602,北京市,房山燕山,细颗粒物(PM2.5),131,126,104,94,60,72,72,116,96,16,24,4,6,0.6,0.5
2026-04-09T0000,3675A,116.4669,39.7734,北京市,大兴旧宫,细颗粒物(PM2.5),134,142,103,97,58,72,72,132,96,27,28,4,7,0.6,0.6
2026-04-09T0000,3694A,115.9859,40.4562,北京市,延庆石河营,细颗粒物(PM2.5),110,111,83,70,44,98,98,116,113,16,20,1,2,0.5,0.4
2026-04-09T0000,3695A,116.6151,40.3052,北京市,怀柔新城,细颗粒物(PM2.5),109,96,80,69,45,66,66,110,90,16,20,4,5,0.6,0.5
2026-04-09T0000,3696A,116.2542,39.8764,北京市,丰台小屯,颗粒物(PM10),134,207,114,86,52,56,56,114,86,40,39,3,4,0.6,0.5
2026-04-09T0000,3697A,116.8399,40.3843,北京市,密云镇,细颗粒物(PM2.5),118,110,88,79,46,90,90,118,95,24,28,4,5,0.6,0.5
2026-04-09T0000,4057A,115.9423,40.4431,北京市,延庆百泉,细颗粒物(PM2.5),113,107,85,74,46,87,87,106,102,15,21,3,2,0.5,0.4
2026-04-09T0000,4058A,116.6598,39.9164,北京市,通州新华,细颗粒物(PM2.5),122,132,95,84,49,71,71,107,72,34,41,4,6,0.6,0.6
2026-04-09T0000,4182A,116.1942,39.9158,北京市,石景山八角,细颗粒物(PM2.5),129,167,111,91,57,59,59,115,93,52,56,6,6,0.5,0.4
2026-04-09T0000,4194A,117.078628,40.151726,北京市,平谷新城,细颗粒物(PM2.5),121,114,87,83,52,108,108,118,107,18,22,3,4,0.7,0.5
2026-04-09T0000,1761A,123.8274146,41.31234549,本溪市,大峪,,36,36,46,13,20,113,113,122,119,7,14,6,6,0.5,0.6
2026-04-09T0000,1763A,123.7169,41.3094,本溪市,彩屯,,43,43,51,16,27,102,102,112,102,13,21,18,15,1.0,1.5
2026-04-09T0000,1764A,123.7672166,41.28649327,本溪市,东明,,38,38,52,11,20,111,111,115,112,8,18,6,7,0.4,0.5
2026-04-09T0000,1765A,123.799345,41.266614,本溪市,新立屯,,41,41,43,11,18,118,118,119,118,5,15,8,8,0.4,0.5
2026-04-09T0000,1766A,123.829144,41.336777,本溪市,威宁,,43,43,50,14,22,99,99,117,112,10,16,7,7,0.4,0.5
2026-04-09T0000,2587A,105.287,27.3133,毕节市,八中,,42,NA,51,29,31,68,68,90,84,10,11,12,11,0.6,0.6
2026-04-09T0000,2588A,105.3079,27.2987,毕节市,师专,,33,32,51,23,29,91,91,109,102,4,10,9,9,0.5,0.5
2026-04-09T0000,4263A,105.3688,27.3598,毕节市,工业大道,,39,39,43,21,23,88,88,112,106,9,10,10,10,/,/
2026-04-09T0000,1629A,117.9961,37.3604,滨州市,第二水厂,颗粒物(PM10),51,51,64,20,23,66,66,125,90,24,29,11,14,0.5,0.3
2026-04-09T0000,1630A,117.9789,37.3931,滨州市,北中新校,NA,NA,NA,59,NA,23,NA,NA,136,104,NA,27,NA,11,NA,0.5
2026-04-09T0000,3514A,117.9379,37.3959,滨州市,中海酒店,,48,48,51,21,24,73,73,147,100,28,29,11,13,0.6,0.6
2026-04-09T0000,3515A,117.9381509,37.35547456,滨州市,开发区一中,颗粒物(PM10),55,56,68,18,25,68,68,124,86,25,30,10,11,0.6,0.6
2026-04-09T0000,3516A,118.0914,37.6938,滨州市,金海六路,,44,44,62,19,29,85,85,143,102,15,22,7,12,0.3,0.4
2026-04-09T0000,4028A,117.9955,37.3752,滨州市,滨州市西街道办事处,颗粒物(PM10),58,61,67,21,23,72,72,136,93,18,22,10,12,0.5,0.4
2026-04-09T0000,2311A,115.8071,33.8399,亳州市,污水处理厂,,39,34,33,27,17,77,77,76,76,14,18,4,6,0.2,0.3
2026-04-09T0000,2312A,115.7789,33.8519,亳州市,三国揽胜宫,,33,NA,36,23,15,70,70,71,71,11,16,5,6,0.3,0.3
2026-04-09T0000,3332A,115.7631,33.803,亳州市,亳州学院,,39,37,38,27,17,80,80,75,75,8,14,5,6,0.3,0.3
2026-04-09T0000,2693A,82.0482,44.8553,博尔塔拉蒙古自治州,市党校,颗粒物(PM10),132,201,115,12,15,72,72,126,116,12,4,3,4,0.4,0.1
2026-04-09T0000,2694A,82.0805,44.8966,博尔塔拉蒙古自治州,市环保局,颗粒物(PM10),125,185,120,54,29,46,46,116,97,56,19,4,3,0.4,0.3
2026-04-09T0000,1071A,116.8733,38.2922,沧州市,沧县城建局,细颗粒物(PM2.5),102,NA,59,62,32,65,65,127,84,22,28,5,8,0.1,0.3
2026-04-09T0000,1072A,116.8462,38.3189,沧州市,电视转播站,颗粒物(PM10),69,76,58,44,32,45,45,126,80,24,26,8,11,0.4,0.4
2026-04-09T0000,1073A,116.8588,38.3161,沧州市,市环保局,细颗粒物(PM2.5),94,78,66,57,31,56,56,127,86,23,26,5,9,0.4,0.3
2026-04-09T0000,3324A,116.8011,38.294,沧州市,河北水利电力学院,细颗粒物(PM2.5),74,63,62,47,32,55,55,110,78,24,24,6,10,0.4,0.4
2026-04-09T0000,2622A,97.1813,31.1289,昌都市,昌都监测站,,23,21,14,11,4,73,73,110,94,20,10,7,6,0.4,0.3
2026-04-09T0000,3719A,97.1707,31.1428,昌都市,昌都会议中心,,28,14,11,8,5,87,87,118,109,7,5,6,6,0.2,0.2
2026-04-09T0000,2692A,87.2722,44.0298,昌吉回族自治州,新区政务中心,颗粒物(PM10),51,51,38,31,17,16,16,116,97,76,17,5,5,0.9,0.5
2026-04-09T0000,3613A,87.3069,44.0093,昌吉回族自治州,亚心广场,NA,NA,92,54,NA,13,20,20,122,93,72,21,7,8,0.9,0.2
2026-04-09T0000,4164A,87.2057,43.9289,昌吉回族自治州,财政所,颗粒物(PM10),79,90,64,16,13,49,49,117,90,9,9,7,7,0.3,0.3
2026-04-09T0000,1120A,125.2874,43.9024,长春市,客车厂,颗粒物(PM10),65,71,251,42,37,92,92,117,113,18,16,9,8,0.5,0.5
2026-04-09T0000,1121A,125.2943,43.8508,长春市,邮电学院,细颗粒物(PM2.5),64,64,218,42,36,101,101,125,120,14,13,10,8,0.5,0.5
2026-04-09T0000,1122A,125.3648,43.8745,长春市,劳动公园,"颗粒物(PM10),细颗粒物(PM2.5)",60,64,163,40,34,96,96,120,115,13,13,9,8,0.5,0.6
2026-04-09T0000,1123A,125.3233,43.8781,长春市,园林处,细颗粒物(PM2.5),66,59,192,43,38,105,105,129,124,14,14,8,8,0.6,0.5
2026-04-09T0000,1124A,125.4604,43.7904,长春市,净月潭,细颗粒物(PM2.5),66,60,112,43,33,97,97,123,116,11,13,9,8,0.4,0.5
2026-04-09T0000,1126A,125.38,43.8422,长春市,经开区环卫处,颗粒物(PM10),63,68,162,40,33,95,95,125,119,16,14,8,7,0.5,0.5
2026-04-09T0000,1127A,125.234,43.7761,长春市,高新区管委会,细颗粒物(PM2.5),60,56,172,40,34,81,81,118,110,17,12,10,8,0.6,0.6
2026-04-09T0000,1128A,125.1695,43.83,长春市,岱山公园,细颗粒物(PM2.5),60,62,239,40,35,93,93,122,116,16,17,6,6,0.4,0.4
2026-04-09T0000,4281A,125.334645,43.916281,长春市,北亚泰大街1068号,细颗粒物(PM2.5),70,70,244,45,38,95,95,124,119,22,18,9,9,0.5,0.5
2026-04-09T0000,1335A,113.082,28.2421,长沙市,经开区环保局,,48,48,68,28,36,80,80,84,75,5,10,5,6,0.6,0.7
2026-04-09T0000,1336A,112.8873,28.2202,长沙市,高开区环保局,,49,49,66,29,42,78,78,84,80,4,12,7,8,0.6,0.7
2026-04-09T0000,1337A,113.0785,28.2012,长沙市,马坡岭,,48,48,65,28,36,87,87,88,78,2,11,6,6,0.6,0.8
2026-04-09T0000,1338A,112.9448,28.1894,长沙市,湖南师范大学,颗粒物(PM10),53,54,70,28,40,75,75,77,72,5,13,6,5,0.6,0.9
2026-04-09T0000,1339A,113.0177,28.1322,长沙市,雨花区环保局,,50,50,62,26,36,80,80,78,75,2,11,4,4,0.7,1
2026-04-09T0000,1340A,112.9795,28.2593,长沙市,伍家岭,颗粒物(PM10),53,54,72,31,38,82,82,83,78,14,16,5,5,0.0,0.5
2026-04-09T0000,1341A,113.002,28.1944,长沙市,火车新站,,46,46,68,23,38,75,75,75,68,4,15,4,4,0.5,0.8
2026-04-09T0000,1342A,112.9846,28.1177,长沙市,天心区环保局,,45,45,68,29,49,85,85,86,82,2,14,6,7,0.6,0.8
2026-04-09T0000,1343A,112.8906,28.1307,长沙市,湖南中医药大学,,48,48,68,26,35,84,84,91,85,6,14,7,7,0.7,0.9
2026-04-09T0000,1727A,113.1146,36.1547,长治市,清华站,,16,10,37,8,27,51,51,110,58,5,11,7,8,0.8,0.7
2026-04-09T0000,1730A,113.0887,36.2126,长治市,审计局,,17,10,38,10,34,53,53,108,60,10,17,7,8,0.6,0.7
2026-04-09T0000,1731A,113.0845,36.1856,长治市,长治八中,,16,6,46,3,29,50,50,106,57,11,16,8,9,0.7,0.8
2026-04-09T0000,2845A,113.1561,36.1912,长治市,德盛苑,,15,13,42,3,30,48,48,102,58,20,21,7,8,0.7,0.7
2026-04-09T0000,3568A,113.0603,36.0464,长治市,向阳小学,,39,39,68,20,32,37,37,116,48,32,28,8,8,1.2,1
2026-04-09T0000,3569A,112.8788,36.315,长治市,屯留一中,细颗粒物(PM2.5),78,54,59,49,42,35,35,105,48,29,24,11,10,1.5,1
2026-04-09T0000,4189A,113.113092,36.199482,长治市,英华南巷50号,,16,12,46,11,35,51,51,110,NA,8,15,6,7,0.9,0.9
2026-04-09T0000,4190A,113.23666,36.33435,长治市,学府街1号,,29,NA,47,20,30,51,51,69,57,17,28,2,5,1.0,0.9
2026-04-09T0000,1854A,111.696,28.9725,常德市,市二中,细颗粒物(PM2.5),86,75,80,53,53,40,40,77,67,14,11,9,11,1.2,1.2
2026-04-09T0000,3138A,111.7152,29.0288,常德市,武陵区永安,细颗粒物(PM2.5),88,79,89,54,54,41,41,76,65,14,13,6,8,0.9,0.9
2026-04-09T0000,3139A,111.6891,28.9881,常德市,鼎城区玉霞,细颗粒物(PM2.5),76,75,79,48,49,41,41,76,64,14,13,9,11,0.9,1
2026-04-09T0000,3140A,111.6651,29.0526,常德市,武陵区长庚,细颗粒物(PM2.5),94,80,87,57,55,32,32,77,63,19,11,8,11,1.0,1.1
2026-04-09T0000,1196A,119.9524,31.7586,常州市,市监测站,,49,49,49,9,8,80,80,128,97,18,26,7,8,0.5,0.5
2026-04-09T0000,1200A,119.9351,31.703,常州市,武进监测站,,42,42,40,11,9,77,77,128,98,17,19,4,7,0.1,0.2
2026-04-09T0000,3002A,119.9701,31.813,常州市,行政中心,颗粒物(PM10),56,58,63,10,11,78,78,119,90,15,25,6,7,0.4,0.4
2026-04-09T0000,3003A,120.0434,31.7726,常州市,经开区,,42,42,51,8,11,82,82,124,93,9,19,4,5,1.0,0.6
2026-04-09T0000,3010A,119.8919,31.7892,常州市,钟楼,,41,41,43,8,9,87,87,138,108,18,23,7,8,0.3,0.4
2026-04-09T0000,3429A,119.8595,31.706,常州市,武进经发区,,42,42,44,16,15,77,77,124,94,24,23,10,6,0.8,0.8
2026-04-09T0000,3430A,119.5812,31.7256,常州市,金坛城区,,47,47,44,22,14,74,74,124,93,13,11,9,9,0.5,0.5
2026-04-09T0000,4089A,119.9551,31.863,常州市,崇义南街5-H号,,37,37,50,9,11,80,80,126,89,17,30,6,7,0.6,0.4
2026-04-09T0000,2220A,120.4318,41.588,朝阳市,西梁,颗粒物(PM10),59,62,70,38,24,122,122,144,133,18,19,12,11,0.7,0.7
2026-04-09T0000,2221A,120.452,41.565,朝阳市,河畔小区,颗粒物(PM10),55,56,62,35,23,132,132,144,136,14,14,10,10,0.7,0.7
2026-04-09T0000,2222A,120.4176,41.5648,朝阳市,八里堡,细颗粒物(PM2.5),78,49,63,49,28,122,122,143,134,18,19,10,11,0.7,0.8
2026-04-09T0000,3026A,116.6179,23.6608,潮州市,市政府,颗粒物(PM10),60,64,38,36,23,62,62,86,75,10,9,4,5,0.4,0.4
2026-04-09T0000,4036A,116.646,23.676,潮州市,金山,颗粒物(PM10),55,56,35,34,22,58,58,83,71,14,11,3,3,0.4,0.4
2026-04-09T0000,2473A,113.0116,25.8228,郴州市,市职中,,25,21,34,17,24,58,58,71,66,7,12,13,10,0.4,0.6
2026-04-09T0000,2475A,113.0381,25.8074,郴州市,市审计局,,23,20,33,16,24,68,68,80,75,5,10,10,9,/,/
2026-04-09T0000,2476A,113.0348,25.7757,郴州市,市环保局,NA,NA,29,33,17,26,38,38,81,76,NA,11,14,17,NA,0.4
2026-04-09T0000,4252A,113.0138,25.8011,郴州市,好美居路49号,,30,NA,32,21,20,62,62,70,66,6,10,17,12,/,/
2026-04-09T0000,1431A,103.9727,30.7242,成都市,金泉两河,细颗粒物(PM2.5),60,54,27,40,20,24,24,92,66,29,19,2,2,0.5,0.3
2026-04-09T0000,1432A,104.1423,30.6765,成都市,十里店,颗粒物(PM10),55,57,28,26,20,16,16,88,62,57,22,4,4,1.0,0.6
2026-04-09T0000,1433A,104.0594,30.5765,成都市,三瓦窑,颗粒物(PM10),59,62,32,30,23,5,5,95,61,69,20,3,2,0.8,0.6
2026-04-09T0000,1434A,104.1122,30.6306,成都市,沙河铺,,49,49,33,30,20,2,2,78,49,46,25,3,2,0.8,0.4
2026-04-09T0000,2880A,104.0219,30.6561,成都市,大石西路,,50,48,32,35,23,12,12,92,66,48,20,3,4,0.9,0.6
2026-04-09T0000,3136A,104.2724,30.559,成都市,龙泉驿区区政府,,25,17,16,17,16,49,49,88,70,9,9,7,7,0.4,0.4
2026-04-09T0000,3357A,104.0028,30.6891,成都市,金博路,,49,49,22,28,17,17,17,92,69,49,24,6,6,0.7,0.5
2026-04-09T0000,3359A,104.056,30.5228,成都市,华阳,,48,48,30,31,20,9,9,93,68,63,23,4,4,0.7,0.2
2026-04-09T0000,3488A,104.387954,30.746684,成都市,青石路225号,,23,20,18,16,15,36,36,89,52,29,17,6,6,0.5,0.5
2026-04-09T0000,3489A,104.0788,30.4054,成都市,科学城,,36,29,25,25,25,36,36,96,83,32,12,7,7,0.6,0.5
2026-04-09T0000,4011A,103.8505,30.6946,成都市,光华大道三段,颗粒物(PM10),58,61,34,28,16,21,21,97,69,40,24,3,3,0.6,0.4
2026-04-09T0000,4144A,104.3257,30.6406,成都市,八角井街185号,,15,14,26,10,14,46,46,77,61,13,14,3,4,0.4,0.4
2026-04-09T0000,4224A,104.2433276,30.53529463,成都市,鲸龙路1057号,,33,33,34,18,15,4,4,92,56,51,19,6,6,0.6,0.5
2026-04-09T0000,1062A,117.9531,40.908,承德市,铁路,细颗粒物(PM2.5),70,58,53,45,24,66,66,129,108,22,20,4,6,0.4,0.4
2026-04-09T0000,1063A,117.9397,40.9763,承德市,中国银行,,49,49,53,30,21,53,53,128,104,17,14,2,6,0.5,0.5
2026-04-09T0000,4073A,117.9462,40.95,承德市,杏林街1号,细颗粒物(PM2.5),76,61,53,48,28,84,84,141,127,20,16,2,5,0.5,0.5
2026-04-09T0000,4274A,117.7994,40.9605,承德市,滨河大街98号,,46,46,47,32,24,44,44,136,100,22,16,6,26,0.3,0.8
2026-04-09T0000,2314A,117.4698,30.6617,池州市,池州学院,颗粒物(PM10),58,60,50,30,21,39,39,84,42,46,38,5,5,0.7,0.7
2026-04-09T0000,3237A,117.4918,30.6617,池州市,展览馆,颗粒物(PM10),58,60,48,28,19,2,2,81,36,72,32,4,4,0.7,0.7
2026-04-09T0000,3333A,117.5626,30.695,池州市,第八中学,颗粒物(PM10),60,63,49,29,19,14,14,76,35,70,35,27,7,0.7,0.6
2026-04-09T0000,3334A,117.5037,30.6242,池州市,第十二中学,颗粒物(PM10),58,61,55,32,21,7,7,65,37,67,33,4,4,0.8,0.9
2026-04-09T0000,1744A,118.9229,42.2816,赤峰市,松山一中,,39,38,52,24,20,122,122,136,130,9,12,6,6,0.5,0.5
2026-04-09T0000,1745A,118.9588,42.2733,赤峰市,哈达街,,46,46,50,22,16,114,114,123,118,11,15,9,8,0.5,0.5
2026-04-09T0000,1746A,118.8792,42.2551,赤峰市,天义路,,38,38,42,22,17,115,115,132,125,9,11,5,5,0.3,0.4
2026-04-09T0000,3058A,119.2656,42.0356,赤峰市,银河街,颗粒物(PM10),59,62,93,32,32,119,119,135,126,12,13,26,14,0.6,0.6
2026-04-09T0000,3286A,118.9359,42.3146,赤峰市,桥北物流园区,,48,48,43,20,18,125,125,135,130,3,11,4,4,0.4,0.2
2026-04-09T0000,2521A,107.3473,22.4137,崇左市,市环保局江州分局,细颗粒物(PM2.5),106,92,84,66,59,108,108,152,144,12,11,6,7,0.8,0.8
2026-04-09T0000,4256A,107.375,22.3736,崇左市,石景林东路7号,细颗粒物(PM2.5),111,75,76,72,53,92,92,148,139,18,9,4,4,1.0,1.1
2026-04-09T0000,3207A,118.31131,32.3033,滁州市,市政府原办公楼,细颗粒物(PM2.5),54,45,45,37,25,53,53,107,78,29,24,6,6,0.5,0.4
2026-04-09T0000,3331A,118.3268,32.2633,滁州市,图书馆,,41,41,40,18,14,58,58,107,81,25,22,10,10,0.4,0.4
2026-04-09T0000,4101A,118.3196,32.3335,滁州市,银山路666号,,45,45,51,26,18,40,40,116,82,30,25,8,9,0.8,0.6
2026-04-09T0000,4102A,118.3426,32.2979,滁州市,黄山路555号,颗粒物(PM10),58,61,61,24,18,69,69,115,77,24,25,9,9,0.7,0.6
2026-04-09T0000,2606A,101.5379,25.0492,楚雄彝族自治州,市经济开发区,,39,32,50,27,38,102,102,113,108,7,10,5,6,0.7,0.7
2026-04-09T0000,4153A,101.5536,25.0343,楚雄彝族自治州,团结路562号,,35,NA,42,21,38,110,110,118,115,3,6,2,2,0.3,0.4
2026-04-09T0000,2549A,107.5087,31.2186,达州市,市环境监测站,,35,35,34,8,8,3,3,49,35,36,26,6,7,0.3,0.2
2026-04-09T0000,2550A,107.4988,31.2132,达州市,凤凰小区,,22,22,30,10,10,5,5,53,34,37,25,5,6,0.4,0.4
2026-04-09T0000,2551A,107.5081,31.1987,达州市,达县机关宾馆,,31,31,32,17,11,2,2,56,28,41,30,4,6,0.4,0.4
2026-04-09T0000,2552A,107.4644,31.2124,达州市,市政中心,,39,39,35,12,7,4,4,61,40,43,28,5,6,0.6,0.4
2026-04-09T0000,2614A,100.2168,25.5818,大理白族自治州,大理市环境监测站,,22,11,21,9,20,70,70,93,85,12,11,4,4,0.4,0.3
2026-04-09T0000,2615A,100.1542,25.7055,大理白族自治州,大理古城,,25,NA,17,14,15,78,78,102,85,10,7,2,2,0.6,0.5
2026-04-09T0000,1109A,121.6119,38.974,大连市,甘井子,,31,31,34,11,16,93,93,114,104,16,21,8,8,0.4,0.4
2026-04-09T0000,1110A,121.565,38.9509,大连市,周水子,,31,31,31,18,26,89,89,101,94,16,23,8,6,0.4,0.4
2026-04-09T0000,1111A,121.5637,38.8849,大连市,星海三站,,28,28,25,17,13,88,88,98,96,16,18,5,5,0.3,0.3
2026-04-09T0000,1112A,121.6301,38.9117,大连市,青泥洼桥,,29,26,29,10,14,90,90,119,107,21,16,5,5,0.3,0.3
2026-04-09T0000,1113A,121.6248,38.8643,大连市,傅家庄,,37,37,33,9,13,82,82,95,94,18,15,6,7,0.3,0.4
2026-04-09T0000,1114A,121.5117,38.8636,大连市,七贤岭,,34,34,32,10,16,94,94,103,100,14,21,6,6,0.2,0.4
2026-04-09T0000,1116A,121.7507,39.1339,大连市,金州,,34,21,29,7,16,106,106,110,106,10,17,6,6,0.4,0.4
2026-04-09T0000,1117A,121.7811,39.0495,大连市,开发区,,32,28,27,9,13,100,100,104,101,13,18,8,8,0.5,0.6
2026-04-09T0000,1118A,121.9762,39.0631,大连市,双D港,,41,41,31,12,14,83,83,89,88,14,21,5,6,0.7,0.6
2026-04-09T0000,4082A,121.2548,38.8188,大连市,旅顺,,29,27,24,14,14,91,91,99,96,12,17,3,3,0.3,0.3
2026-04-09T0000,1789A,124.8085,46.0381,大庆市,大同区,颗粒物(PM10),53,54,75,11,21,78,78,96,86,8,12,2,5,0.3,0.4
2026-04-09T0000,1790A,125.1166,46.5255,大庆市,龙凤区,,29,29,64,10,21,82,82,85,78,6,15,3,5,0.1,0.3
2026-04-09T0000,1791A,124.8894,46.4007,大庆市,红岗区,,43,43,50,6,20,76,76,84,76,1,7,11,12,0.1,0.3
2026-04-09T0000,1792A,125.1391,46.578,大庆市,萨尔图区,,25,25,68,10,21,79,79,82,77,6,16,5,8,0,0.2
2026-04-09T0000,1793A,124.9026,46.6217,大庆市,让胡路区,,43,43,62,3,22,75,75,82,78,3,10,3,5,0.2,0.4
2026-04-09T0000,3481A,125.127,46.6277,大庆市,萨区政府监测点,颗粒物(PM10),58,60,64,7,18,66,66,80,72,2,8,8,9,0.2,0.4
2026-04-09T0000,1723A,113.2926,40.0759,大同市,云冈宾馆,颗粒物(PM10),55,56,77,30,39,79,79,120,89,19,26,7,9,0.6,0.6
2026-04-09T0000,1724A,113.3437,40.0921,大同市,大同大学,细颗粒物(PM2.5),56,46,76,38,37,77,77,130,94,22,26,4,6,0.7,0.7
2026-04-09T0000,1725A,113.2637,40.129,大同市,安家小村,颗粒物(PM10),54,55,85,33,39,69,69,124,89,25,24,12,14,0.6,0.9
2026-04-09T0000,3282A,113.3399,40.0586,大同市,大同市卫生学校,颗粒物(PM10),53,54,78,34,35,84,84,140,97,17,24,8,8,0.6,0.6
2026-04-09T0000,3565A,113.1371,40.1122,大同市,云冈站,颗粒物(PM10),65,71,99,37,34,69,69,125,91,22,32,10,12,0.6,0.6
2026-04-09T0000,3566A,113.1186,40.2556,大同市,图书馆,颗粒物(PM10),60,63,90,36,42,72,72,125,93,25,24,15,15,0.7,0.6
2026-04-09T0000,3567A,113.5931,40.0459,大同市,区一中,,42,42,88,25,42,81,81,137,98,18,17,12,15,0.5,0.7
2026-04-09T0000,4199A,113.2798248,40.09972476,大同市,魏都大道141号,颗粒物(PM10),56,58,88,32,42,73,73,122,90,19,28,10,12,0.6,0.7
2026-04-09T0000,2269A,124.1068,50.4091,大兴安岭地区,科技局,,27,27,25,11,8,64,64,91,80,5,4,7,6,0.6,0.5
2026-04-09T0000,3663A,124.117,50.4279,大兴安岭地区,红旗社区,,22,NA,18,7,10,69,69,93,86,6,7,4,8,0.2,0.2
2026-04-09T0000,1600A,124.33,40.0625,丹东市,江湾东路,,31,26,36,11,16,97,97,105,96,9,12,5,4,0.4,0.5
2026-04-09T0000,1601A,124.4242,40.1513,丹东市,临江后街,,38,38,38,14,17,81,81,98,91,12,11,12,6,0.9,0.5
2026-04-09T0000,1602A,124.3935,40.1461,丹东市,元宝山,,34,34,39,11,17,87,87,97,92,11,13,7,9,0.4,0.6
2026-04-09T0000,1603A,124.3634,40.1093,丹东市,民主桥,,33,33,41,13,18,94,94,104,96,8,12,5,6,0.3,0.4
2026-04-09T0000,3541A,109.5726195,19.51688767,儋州市,第一中学子站,,41,41,54,27,40,86,86,122,104,8,8,9,9,0.4,0.6
2026-04-09T0000,3542A,109.5567,19.5187,儋州市,东坡学校子站,,48,48,56,28,37,90,90,130,112,5,7,8,7,0.5,0.6
2026-04-09T0000,2616A,98.5611,24.4273,德宏傣族景颇族自治州,德宏州监测站,细颗粒物(PM2.5),58,NA,103,39,119,31,31,78,61,18,22,5,5,0.3,0.7
2026-04-09T0000,3677A,98.5887,24.4366,德宏傣族景颇族自治州,芒市人民政府综合楼,细颗粒物(PM2.5),58,56,158,39,120,36,36,74,58,12,18,8,7,0.5,1.5
2026-04-09T0000,1901A,104.424,31.1209,德阳市,东山公园,,32,28,13,22,12,46,46,87,75,19,8,4,3,0.6,0.5
2026-04-09T0000,1902A,104.3827,31.1318,德阳市,西小区,细颗粒物(PM2.5),64,68,28,42,15,12,12,80,55,57,17,5,3,0.6,0.5
2026-04-09T0000,1904A,104.3553,31.1091,德阳市,耐火材料厂,细颗粒物(PM2.5),90,59,27,55,18,17,17,84,58,53,18,3,2,0.5,0.4
2026-04-09T0000,4145A,104.4144,31.1495,德阳市,市林业局,,38,35,18,26,13,8,8,87,53,61,17,5,4,0.6,0.5
2026-04-09T0000,1622A,116.3034,37.4675,德州市,儿童乐园,细颗粒物(PM2.5),62,53,68,41,33,47,47,97,70,24,23,6,12,0.5,0.5
2026-04-09T0000,1624A,116.2992,37.4449,德州市,监理站,细颗粒物(PM2.5),56,46,61,38,30,56,56,90,72,27,28,8,11,0.7,0.7
2026-04-09T0000,3066A,116.2722,37.438,德州市,九衢泉纯净水厂,细颗粒物(PM2.5),58,46,56,39,30,45,45,88,53,27,28,4,7,0.6,0.6
2026-04-09T0000,3371A,116.3693,37.44,德州市,开发区人民医院,细颗粒物(PM2.5),56,46,62,38,28,56,56,96,74,22,26,7,11,0.5,0.6
2026-04-09T0000,3511A,116.5687,37.3331,德州市,陵城艺术中心,细颗粒物(PM2.5),54,46,56,37,30,54,54,86,66,18,23,3,9,0.6,0.6
2026-04-09T0000,4292A,116.352738,37.420875,德州市,新河东路,细颗粒物(PM2.5),58,46,57,39,29,53,53,94,69,18,26,7,9,0.6,0.7
2026-04-09T0000,2621A,99.7054,27.8319,迪庆藏族自治州,迪庆州站,,36,10,18,3,9,114,114,115,115,5,9,7,7,0.3,0.4
2026-04-09T0000,3180A,99.7122,27.8129,迪庆藏族自治州,质量技术监督局,,39,12,18,7,9,124,124,122,122,4,9,6,6,0.4,0.5
2026-04-09T0000,4257A,104.6092,35.5962,定西市,将台街,颗粒物(PM10),96,114,56,47,20,64,64,126,99,28,12,9,8,0.4,0.2
2026-04-09T0000,4309A,104.6159,35.5701,定西市,正龙路62号,颗粒物(PM10),85,99,56,39,17,72,72,116,103,15,10,8,9,0.3,0.2
2026-04-09T0000,4071A,114.9883,38.5232,定州市,交通局,细颗粒物(PM2.5),130,103,94,92,66,54,54,95,59,27,43,6,8,0.7,0.6
2026-04-09T0000,4072A,115.0045,38.5136,定州市,第五中学,细颗粒物(PM2.5),131,NA,100,94,59,48,48,97,61,26,40,2,5,0.6,0.5
2026-04-09T0000,1390A,113.7943,23.0132,东莞市,东城石井,颗粒物(PM10),54,55,36,25,18,54,54,88,68,24,18,3,2,0.5,0.5
2026-04-09T0000,1391A,113.7384,22.9659,东莞市,南城西平,,47,47,32,20,15,62,62,74,66,20,19,3,3,0.5,0.6
2026-04-09T0000,3319A,113.7283,23.041,东莞市,万江金泰,颗粒物(PM10),52,52,32,23,16,57,57,85,70,20,15,6,6,0.7,0.6
2026-04-09T0000,4129A,113.8666,23.1062,东莞市,裕兴路,NA,NA,NA,36,19,16,70,70,81,70,12,15,5,6,0.7,0.7
2026-04-09T0000,4130A,114.0076,22.9739,东莞市,教育路1号,颗粒物(PM10),53,53,38,20,18,74,74,82,76,14,14,6,6,0.6,0.6
2026-04-09T0000,4131A,113.7981,22.8124,东莞市,长怡路1号,颗粒物(PM10),55,56,39,20,15,55,55,77,67,26,17,4,5,0.7,0.7
2026-04-09T0000,1666A,118.6612,37.4313,东营市,市环保局,NA,NA,34,58,17,18,NA,NA,119,106,13,20,12,15,0.3,0.4
2026-04-09T0000,3036A,118.6903,37.4337,东营市,开发区管委会,,35,35,64,13,20,97,97,93,NA,15,28,6,12,0.5,0.6
2026-04-09T0000,3365A,118.5721,37.5654,东营市,垦利区民丰路,,33,31,53,14,23,104,104,135,119,14,22,6,7,0.5,0.6
2026-04-09T0000,3498A,118.5063,37.8606,东营市,河口城区,,44,44,62,12,20,110,110,146,127,14,17,9,10,0.6,0.6
2026-04-09T0000,3646A,118.4979,37.4623,东营市,胜利站,,41,41,51,14,18,83,83,113,96,14,23,8,10,0.6,0.6
2026-04-09T0000,3734A,118.5753,37.4405,东营市,理想之城,,39,39,57,11,13,88,88,130,109,27,28,8,7,0.7,0.7
2026-04-09T0000,1591A,110.0024,39.8127,鄂尔多斯市,综合楼,颗粒物(PM10),67,73,91,40,33,70,70,121,102,26,20,8,9,0.6,0.7
2026-04-09T0000,1592A,109.9485,39.8259,鄂尔多斯市,巴音孟克林场办事处,颗粒物(PM10),70,78,85,43,30,76,76,125,105,20,16,6,8,0.4,0.5
2026-04-09T0000,1593A,109.7734,39.5987,鄂尔多斯市,康泽苑,细颗粒物(PM2.5),56,53,78,38,38,87,87,135,114,15,14,8,9,0.4,0.5
2026-04-09T0000,1594A,109.8121,39.5987,鄂尔多斯市,华泰汽车城,颗粒物(PM10),58,61,78,38,30,66,66,119,97,24,17,7,9,0.5,0.6
2026-04-09T0000,1595A,109.9734,39.7884,鄂尔多斯市,奥林花园,颗粒物(PM10),72,80,86,29,27,54,54,119,93,35,21,6,5,0.7,0.6
2026-04-09T0000,2436A,114.894,30.3989,鄂州市,市政府,,25,25,40,8,14,62,62,97,73,12,14,10,11,0.4,0.4
2026-04-09T0000,2437A,114.8986,30.3714,鄂州市,赵家坝,,30,30,44,9,13,58,58,93,71,7,9,11,11,0.9,0.8
2026-04-09T0000,3654A,114.8093,30.4091,鄂州市,精准医疗中心,,32,32,47,13,17,54,54,88,60,18,22,17,17,1.1,1.3
2026-04-09T0000,2454A,109.4978,30.2979,恩施土家族苗族自治州,湖北民院,颗粒物(PM10),51,51,37,30,21,1,1,30,14,2,12,7,7,0.9,0.8
2026-04-09T0000,3549A,109.5061,30.3771,恩施土家族苗族自治州,龙凤新区,,32,32,28,16,15,0,0,14,6,13,15,7,7,0.5,0.4
2026-04-09T0000,2499A,108.3411,21.6159,防城港市,沙万,颗粒物(PM10),60,64,72,33,40,46,46,98,80,22,25,23,9,0.6,1
2026-04-09T0000,2500A,108.3515,21.7733,防城港市,防城档案局,细颗粒物(PM2.5),66,62,61,43,43,42,42,113,88,17,11,7,9,0.8,0.8
2026-04-09T0000,2501A,108.3506,21.6414,防城港市,大海花园,颗粒物(PM10),55,56,69,26,44,49,49,113,92,25,25,10,12,0.6,0.9
2026-04-09T0000,1371A,113.1293,23.0065,佛山市,湾梁,,44,44,35,24,18,30,30,65,48,30,18,/,/,/,/
2026-04-09T0000,1372A,113.1082,23.0477,佛山市,华材职中,,48,48,35,24,19,37,37,68,50,29,21,4,3,0.4,0.3
2026-04-09T0000,1373A,113.1439,23.045,佛山市,南海气象局,,45,45,36,29,22,37,37,66,45,28,21,/,/,/,/
2026-04-09T0000,1374A,113.2879,22.8094,佛山市,顺德苏岗,颗粒物(PM10),53,54,43,20,17,43,43,70,53,18,14,/,/,0.6,0.6
2026-04-09T0000,1376A,112.8384,22.8678,佛山市,高明孔堂,,36,36,31,18,16,34,34,62,45,14,13,/,/,/,/
2026-04-09T0000,1377A,112.8835,23.1584,佛山市,三水监测站,颗粒物(PM10),51,51,38,26,23,31,31,53,35,28,29,5,4,0.4,0.4
2026-04-09T0000,1378A,112.8668,23.185,佛山市,三水云东海,颗粒物(PM10),55,57,56,24,22,29,29,57,37,28,26,/,/,/,/
2026-04-09T0000,3625A,113.2568,22.7629,佛山市,容桂街道办,颗粒物(PM10),55,56,34,23,19,40,40,63,48,26,22,/,/,/,/
2026-04-09T0000,1282A,119.2681,26.0506,福州市,师大,,46,46,44,23,13,62,62,91,76,16,13,3,4,0.3,0.3
2026-04-09T0000,1283A,119.2983,26.1028,福州市,五四北路,,46,46,40,23,12,45,45,93,69,23,16,4,5,0.3,0.3
2026-04-09T0000,1284A,119.2648,26.0769,福州市,杨桥西路,,42,42,37,23,12,58,58,95,75,16,11,4,4,/,/
2026-04-09T0000,3048A,119.5799,26.0937,福州市,九龙,,39,39,34,26,11,37,37,89,65,21,14,5,6,0.3,0.4
2026-04-09T0000,3526A,119.5188,25.9666,福州市,吴航,,50,50,33,24,12,43,43,93,68,27,15,6,6,0.5,0.4
2026-04-09T0000,4104A,119.3106,26.0648,福州市,路通桥巷6号,,50,50,37,24,16,55,55,90,68,13,11,/,/,/,/
2026-04-09T0000,1755A,123.7974,41.8494,抚顺市,望花区,,42,42,65,16,28,112,112,126,116,16,20,10,13,0.5,0.8
2026-04-09T0000,1756A,123.9161,41.8827,抚顺市,顺城区,,40,40,52,20,27,103,103,119,109,12,21,12,11,0.5,0.8
2026-04-09T0000,1757A,124.0437,41.8615,抚顺市,东洲区,,38,38,62,17,24,115,115,121,115,13,18,10,10,0.4,0.6
2026-04-09T0000,1758A,123.9246,41.8638,抚顺市,新抚区,颗粒物(PM10),54,55,68,22,29,98,98,125,113,15,21,12,11,0.7,0.8
2026-04-09T0000,1759A,124.0972,41.8961,抚顺市,大伙房水库,,42,31,48,13,20,133,133,140,135,7,12,8,8,0.4,0.4
2026-04-09T0000,1760A,123.708,41.8386,抚顺市,沈抚新城,,39,39,65,16,26,103,103,124,110,15,20,11,11,0.8,0.8
2026-04-09T0000,2377A,116.3544,27.9833,抚州市,市站,,35,29,28,24,12,67,67,84,60,1,3,4,5,0.8,0.7
2026-04-09T0000,2378A,116.3562,27.9631,抚州市,血防站,,28,28,27,17,12,69,69,78,59,6,5,7,7,0.6,0.7
2026-04-09T0000,2379A,116.3561,28.0007,抚州市,采茶剧团,,28,28,29,18,12,66,66,82,59,2,2,11,10,0.6,0.6
2026-04-09T0000,2380A,116.3854,27.9648,抚州市,医学分院,NA,NA,36,30,14,9,65,65,82,58,NA,6,5,6,1.0,1
2026-04-09T0000,2207A,121.6095,41.9978,阜新市,工业园区,颗粒物(PM10),74,83,196,28,28,117,117,138,136,16,16,11,13,0.4,0.5
2026-04-09T0000,2208A,121.6567,42.0188,阜新市,长青街,颗粒物(PM10),63,68,133,23,26,128,128,144,143,15,18,9,12,0.4,0.6
2026-04-09T0000,2209A,121.6672,42.07,阜新市,农业园区,颗粒物(PM10),74,83,170,29,30,124,124,143,142,17,17,7,9,0.4,0.5
2026-04-09T0000,2211A,121.6343,42.0455,阜新市,玉龙新城,颗粒物(PM10),63,67,150,21,28,120,120,141,139,16,17,9,11,0.4,0.5
2026-04-09T0000,2301A,115.8276,32.8929,阜阳市,市监测站,,39,39,39,24,16,71,71,74,74,17,23,5,6,0.3,0.3
2026-04-09T0000,2303A,115.8551,32.8606,阜阳市,开发区,,49,49,43,24,16,72,72,75,75,15,19,6,6,0.4,0.5
2026-04-09T0000,2875A,115.783962,32.889217,阜阳市,阜阳职业技术学院,,29,22,36,20,12,72,72,77,77,13,16,7,8,0.4,0.4
2026-04-09T0000,3468A,115.79,32.8614,阜阳市,市规划展馆,,44,44,43,26,16,73,73,78,78,15,19,8,9,0.5,0.5
2026-04-09T0000,3469A,115.835101,32.918568,阜阳市,枣园社区,,40,38,42,28,18,69,69,74,74,15,19,7,7,0.4,0.5
2026-04-09T0000,2669A,102.9097,34.9841,甘南藏族自治州,州政府,颗粒物(PM10),58,61,38,29,19,11,11,69,61,54,23,2,6,0.6,0.4
2026-04-09T0000,3380A,102.8915,34.9618,甘南藏族自治州,甘肃民族师范学院,颗粒物(PM10),73,81,45,25,18,14,14,111,75,43,23,1,2,0.5,0.4
2026-04-09T0000,2570A,101.96,30.048,甘孜藏族自治州,水桥子,,25,25,13,13,4,50,50,109,93,49,22,6,7,0.2,0.2
2026-04-09T0000,3065A,101.9534,29.9976,甘孜藏族自治州,州环保局,,33,15,13,7,4,104,104,116,111,9,15,5,5,0.4,0.3
2026-04-09T0000,2363A,114.9368,25.8663,赣州市,地委,,25,25,24,15,13,58,58,64,61,5,7,2,2,0.6,0.7
2026-04-09T0000,2364A,114.946,25.8483,赣州市,气象台,,33,33,28,18,15,61,61,68,65,4,8,5,4,0.6,0.7
2026-04-09T0000,2365A,114.932,25.8332,赣州市,市图书馆,,25,23,21,17,14,64,64,66,65,5,6,3,4,0.5,0.7
2026-04-09T0000,2366A,114.8905,25.8472,赣州市,华坚鞋城,,33,26,26,23,14,57,57,58,57,7,10,9,6,0.3,0.5
2026-04-09T0000,3109A,115.0094,25.8614,赣州市,赣县区卫计委,,18,15,25,12,14,54,54,61,58,14,16,1,1,0.8,0.9
2026-04-09T0000,2684A,106.2753,36.0057,固原市,监测站,颗粒物(PM10),86,100,64,40,24,50,50,108,88,30,11,6,6,0.7,0.4
2026-04-09T0000,2685A,106.2384,36.0189,固原市,新区,颗粒物(PM10),83,95,67,31,22,25,25,106,78,50,14,4,5,0.6,0.5
2026-04-09T0000,2544A,106.6307,30.4577,广安市,市委,,30,28,27,21,18,42,42,77,63,11,9,7,7,0.4,0.4
2026-04-09T0000,2545A,106.6266,30.4662,广安市,友谊中学,,32,25,25,22,15,43,43,74,60,10,8,6,7,0.5,0.5
2026-04-09T0000,2547A,106.6386,30.4551,广安市,广电花园,,33,33,33,20,19,42,42,75,60,14,13,6,6,0.7,0.7
2026-04-09T0000,2902A,106.6347,30.4868,广安市,北辰小学,,32,32,31,19,18,45,45,74,62,9,8,11,10,0.7,0.7
2026-04-09T0000,2524A,105.8211,32.4444,广元市,老城,,19,19,16,3,2,41,41,62,54,16,17,3,2,0.5,0.6
2026-04-09T0000,2526A,105.8629,32.429,广元市,监测站,,25,25,19,3,2,42,42,64,55,16,15,3,4,0.4,0.4
2026-04-09T0000,3617A,105.8047,32.4167,广元市,经开区,,20,20,10,11,6,29,29,64,55,27,16,8,3,0.8,0.7
2026-04-09T0000,1345A,113.2346,23.1423,广州市,广雅中学,颗粒物(PM10),51,51,38,22,17,32,32,57,44,25,16,2,4,0.7,0.7
2026-04-09T0000,1346A,113.2611,23.105,广州市,市五中,,46,46,34,29,21,37,37,74,53,34,21,2,2,/,/
2026-04-09T0000,1348A,113.3477,23.0916,广州市,广东商学院,,48,48,35,29,19,38,38,68,52,28,22,5,4,0.6,0.4
2026-04-09T0000,1349A,113.4332,23.105,广州市,市八十六中,,44,44,32,23,15,24,24,72,47,47,31,6,6,/,/
2026-04-09T0000,1350A,113.3506,22.9488,广州市,番禺中学,,49,49,34,20,16,36,36,75,51,33,20,5,4,0.6,0.6
2026-04-09T0000,1351A,113.2147,23.3918,广州市,花都师范,,48,48,37,20,17,45,45,70,56,25,25,6,6,0.8,0.8
2026-04-09T0000,1352A,113.2599,23.1329,广州市,市监测站,,50,50,36,23,17,40,40,66,50,21,14,2,2,/,/
2026-04-09T0000,1353A,113.5618,23.3119,广州市,九龙镇镇龙,,45,45,37,21,19,48,48,74,57,20,22,5,5,0.5,0.5
2026-04-09T0000,1354A,113.2764,23.1544,广州市,麓湖,,48,48,34,20,16,45,45,72,57,18,13,4,3,0.7,0.7
2026-04-09T0000,2846A,113.3209,23.1323,广州市,体育西,颗粒物(PM10),53,53,37,20,16,36,36,65,49,31,23,5,4,0.6,0.6
2026-04-09T0000,3298A,113.5718,23.5493,广州市,从化街口,,39,39,32,19,17,57,57,87,66,10,11,6,6,0.5,0.5
2026-04-09T0000,3299A,113.3463,23.369,广州市,白云竹料,颗粒物(PM10),53,54,39,24,18,41,41,71,48,25,23,4,3,0.6,0.6
2026-04-09T0000,3300A,113.2981,23.2365,广州市,白云嘉禾,颗粒物(PM10),51,51,37,22,17,41,41,74,56,31,25,9,10,/,/
2026-04-09T0000,3301A,113.4256,23.1716,广州市,黄埔科学城,颗粒物(PM10),58,60,39,28,18,33,33,67,44,36,30,6,5,0.6,0.6
2026-04-09T0000,3302A,113.3942,23.0485,广州市,番禺大学城,,42,42,30,19,14,52,52,81,64,26,24,3,3,0.7,0.6
2026-04-09T0000,3303A,113.4923,22.8169,广州市,南沙黄阁,颗粒物(PM10),51,51,38,20,14,50,50,81,60,27,18,6,6,/,/
2026-04-09T0000,3304A,113.534,22.7893,广州市,南沙街,,44,44,37,24,19,52,52,75,59,26,23,5,5,0.4,0.4
2026-04-09T0000,3443A,113.2905,23.5541,广州市,花都梯面,,43,43,34,20,17,42,42,67,52,21,18,6,6,/,/
2026-04-09T0000,3445A,113.786,23.7479,广州市,从化良口,,23,23,27,15,19,69,69,78,71,6,8,4,4,/,/
2026-04-09T0000,3446A,113.805,23.2614,广州市,增城荔城,,44,44,35,20,17,55,55,88,70,17,15,5,5,0.5,0.5
2026-04-09T0000,2506A,109.604387,23.066791,贵港市,江南子站,颗粒物(PM10),56,58,63,29,37,59,59,107,88,13,13,8,9,0.7,0.8
2026-04-09T0000,2508A,109.5669,23.1065,贵港市,荷城子站,,49,48,54,34,40,60,60,98,84,13,15,10,11,0.8,0.9
2026-04-09T0000,3405A,109.5886,23.1172,贵港市,新世纪学校,颗粒物(PM10),63,68,56,33,41,56,56,102,86,19,18,/,/,0.7,0.8
2026-04-09T0000,4260A,109.5933,23.095,贵港市,中山路155-3号,颗粒物(PM10),58,61,66,24,41,54,54,107,90,18,14,/,/,0.8,0.8
2026-04-09T0000,1439A,106.6863,26.6035,贵阳市,马鞍山,细颗粒物(PM2.5),82,66,53,51,36,124,124,126,124,10,10,10,7,/,/
2026-04-09T0000,1441A,106.6241,26.6266,贵阳市,鉴湖路,颗粒物(PM10),75,85,68,43,36,125,125,137,133,8,9,8,6,1.0,0.6
2026-04-09T0000,1442A,106.7468,26.6344,贵阳市,燕子冲,细颗粒物(PM2.5),80,85,64,50,36,122,122,116,116,10,12,5,4,0.5,0.4
2026-04-09T0000,1443A,106.6556,26.4362,贵阳市,碧云窝,细颗粒物(PM2.5),84,73,62,52,38,138,138,143,142,6,5,5,6,/,/
2026-04-09T0000,1445A,106.6963,26.6063,贵阳市,红边门,细颗粒物(PM2.5),92,83,71,56,37,118,118,121,117,12,14,7,8,/,/
2026-04-09T0000,1446A,106.7162383,26.56964667,贵阳市,新华路,细颗粒物(PM2.5),92,85,68,56,38,126,126,130,125,12,14,9,23,0.6,0.5
2026-04-09T0000,1447A,106.6742,26.542,贵阳市,太慈桥,NA,NA,70,64,54,41,NA,NA,120,NA,9,10,2,2,/,/
2026-04-09T0000,4230A,106.688212,26.56952,贵阳市,花果园大街66号,细颗粒物(PM2.5),84,68,54,52,38,97,97,101,99,11,12,3,3,/,/
2026-04-09T0000,4231A,106.687268,26.516892,贵阳市,漓江路57号,NA,NA,NA,54,0,38,113,113,138,132,10,12,7,7,0.9,0.9
2026-04-09T0000,1864A,110.3091,25.2705,桂林市,龙隐路小学,细颗粒物(PM2.5),68,60,53,44,34,88,88,63,63,9,14,4,11,0.8,0.9
2026-04-09T0000,1865A,110.2849361,25.22909545,桂林市,八中,颗粒物(PM10),57,59,54,23,21,81,81,66,66,9,18,4,9,0.7,0.9
2026-04-09T0000,3531A,110.296,25.1254,桂林市,旅游学院,颗粒物(PM10),60,64,42,39,34,99,99,100,100,5,10,6,8,0.7,0.8
2026-04-09T0000,4222A,110.1835,25.2444,桂林市,环湖路276号,细颗粒物(PM2.5),76,61,52,48,37,86,86,60,60,6,17,10,39,0.7,0.7
2026-04-09T0000,4301A,110.2803,25.2773,桂林市,信义路13号,细颗粒物(PM2.5),66,62,51,43,32,92,92,68,68,8,16,5,13,0.7,0.8
2026-04-09T0000,2674A,100.2262,34.4854,果洛藏族自治州,玛沁县大武镇,,32,27,25,6,10,101,101,118,108,2,3,22,20,0.4,0.4
2026-04-09T0000,1130A,126.5557,45.8109,哈尔滨市,松北商大,颗粒物(PM10),152,254,203,37,36,81,81,96,79,5,11,10,11,0.3,0.4
2026-04-09T0000,1132A,126.6162,45.719,哈尔滨市,南岗学府路,颗粒物(PM10),313,430,255,51,36,90,90,100,81,8,13,6,7,0.1,0.2
2026-04-09T0000,1133A,126.6894,45.7733,哈尔滨市,太平宏伟公园,颗粒物(PM10),153,256,258,45,36,81,81,96,80,8,17,6,10,0.3,0.4
2026-04-09T0000,1134A,126.6361,45.7672,哈尔滨市,道外承德广场,颗粒物(PM10),450,550,275,46,34,80,80,88,70,8,21,8,10,0.4,0.7
2026-04-09T0000,1136A,126.644,45.7261,哈尔滨市,动力和平路,颗粒物(PM10),500,608,285,50,37,77,77,93,79,10,14,7,4,0.4,0.6
2026-04-09T0000,1137A,126.5933,45.7479,哈尔滨市,道里建国路,颗粒物(PM10),333,446,230,43,36,69,69,94,72,14,23,NA,NA,0.1,0.5
2026-04-09T0000,1138A,126.6127,45.6119,哈尔滨市,平房东轻厂,颗粒物(PM10),124,181,196,67,40,68,68,60,58,14,49,6,5,0.5,0.7
2026-04-09T0000,1139A,126.5875,45.9827,哈尔滨市,呼兰师专,颗粒物(PM10),75,85,193,16,27,73,73,86,72,9,16,7,10,0.0,0.3
2026-04-09T0000,1140A,126.6299,45.6799,哈尔滨市,省农科院,颗粒物(PM10),416,516,297,46,44,80,80,94,70,6,14,7,8,0.3,0.5
2026-04-09T0000,4282A,126.6769,45.7379,哈尔滨市,华山路1号,颗粒物(PM10),116,161,311,43,34,85,85,100,79,7,16,8,9,0.5,0.7
2026-04-09T0000,4283A,126.9717,45.5356,哈尔滨市,解放大街52号,颗粒物(PM10),500,634,216,82,31,93,93,102,91,13,13,9,7,0.5,0.6
2026-04-09T0000,2688A,93.5124,42.8176,哈密市,地区监测站,NA,NA,NA,78,NA,19,91,91,120,114,8,10,12,11,0.1,0
2026-04-09T0000,2689A,93.5014,42.8312,哈密市,哈密师范学校,,41,41,81,8,14,104,104,122,101,7,11,8,8,0.2,0.2
2026-04-09T0000,2671A,100.9016,36.9464,海北藏族自治州,海晏县西海镇,,34,34,29,12,16,102,102,106,102,2,2,8,8,0.3,0.4
2026-04-09T0000,3867A,102.074,36.5056,海东市,平安区公安局北苑,NA,NA,39,51,23,27,85,85,132,NA,NA,14,6,17,0.5,0.6
2026-04-09T0000,4163A,102.0984,36.5119,海东市,滨河路,,32,29,45,22,27,73,73,94,82,15,28,6,18,0.6,0.7
2026-04-09T0000,1410A,110.3189,20.0596,海口市,海南大学,,42,42,46,22,29,64,64,104,68,5,5,5,5,0.4,0.5
2026-04-09T0000,1411A,110.2827,20.0051,海口市,秀英海南医院,,33,28,43,23,30,51,51,93,58,9,13,7,7,0.4,0.4
2026-04-09T0000,1412A,110.3391,19.9979,海口市,海南师范大学,,39,39,44,18,27,58,58,105,65,6,5,6,6,0.4,0.5
2026-04-09T0000,1413A,110.3303,20.0359,海口市,龙华路环保局宿舍,,35,35,46,24,30,60,60,107,66,6,7,/,/,0.5,0.6
2026-04-09T0000,3539A,110.5111,19.9737,海口市,桂林洋子站,,31,31,41,21,25,57,57,89,62,5,6,/,/,/,/
2026-04-09T0000,4134A,110.1952,20.0451,海口市,长滨二路9号,,32,31,45,22,30,59,59,106,66,3,6,/,/,/,/
2026-04-09T0000,2673A,100.6158,36.2985,海南藏族自治州,共和县恰卜恰镇,颗粒物(PM10),52,52,31,13,12,103,103,105,105,2,4,9,11,0.2,0.3
2026-04-09T0000,2676A,97.373,37.376,海西蒙古族藏族自治州,德令哈市,,43,35,35,13,11,136,136,135,135,1,4,16,14,0.3,0.4
2026-04-09T0000,1049A,114.492,36.5712,邯郸市,矿院,,36,25,58,25,35,48,48,72,54,13,29,2,4,0.5,0.5
2026-04-09T0000,1050A,114.4839,36.6136,邯郸市,丛台公园,,35,NA,59,24,39,57,57,75,60,13,26,4,7,0.4,0.4
2026-04-09T0000,3458A,114.7893,36.5592,邯郸市,香泉濮院小区,细颗粒物(PM2.5),64,NA,65,42,45,58,58,69,58,14,21,3,3,0.5,0.5
2026-04-09T0000,3580A,114.1998,36.4439,邯郸市,峰峰矿区临水派出所,细颗粒物(PM2.5),74,NA,47,47,45,54,54,87,58,10,15,6,9,0.3,0.4
2026-04-09T0000,4068A,114.5209,36.7697,邯郸市,建安街268号,,49,NA,64,34,51,49,49,64,45,18,36,3,2,0.4,0.4
2026-04-09T0000,4069A,114.5488,36.6177,邯郸市,丛台东路558号,,32,24,59,22,41,51,51,69,58,14,24,3,8,0.7,0.6
2026-04-09T0000,2635A,107.0155,33.0707,汉中市,市监测站,,48,41,51,33,26,46,46,88,65,19,13,4,5,0.6,0.5
2026-04-09T0000,2636A,107.0083,33.114,汉中市,鑫源开发区,细颗粒物(PM2.5),54,41,44,37,25,34,34,86,55,20,13,4,4,0.7,0.6
2026-04-09T0000,2637A,107.0072,33.0323,汉中市,南郑大河坎水厂,,44,44,50,27,27,8,8,79,53,34,16,4,4,0.5,0.6
2026-04-09T0000,1223A,120.2073,30.2111,杭州市,滨江,,27,18,38,3,12,85,85,109,92,6,16,7,8,0.4,0.6
2026-04-09T0000,1224A,120.0625,30.2737,杭州市,西溪,,38,38,35,14,10,28,28,112,78,31,17,8,9,0.5,0.4
2026-04-09T0000,1226A,120.3417,30.315,杭州市,下沙,,32,32,40,11,14,54,54,101,73,26,22,10,10,0.5,0.5
2026-04-09T0000,1227A,120.1252,30.2465,杭州市,卧龙桥,,31,31,32,14,11,33,33,116,76,14,12,7,8,0.3,0.3
2026-04-09T0000,1228A,120.1902,30.2691,杭州市,浙江农大,,25,19,40,3,12,78,78,108,87,10,25,7,9,0.2,0.3
2026-04-09T0000,1230A,120.1195,30.3121,杭州市,和睦小学,,37,37,42,16,13,64,64,115,88,18,23,6,8,0.5,0.5
2026-04-09T0000,1231A,120.3076,30.4146,杭州市,临平镇,,39,39,45,13,15,56,56,111,80,31,26,8,9,0.4,0.4
2026-04-09T0000,1232A,120.2753,30.1839,杭州市,城厢镇,,24,17,35,3,11,74,74,104,76,8,23,5,6,0.5,0.4
2026-04-09T0000,1233A,120.0883,30.1808,杭州市,云栖,,29,29,37,12,11,16,16,110,60,39,30,6,6,0.6,0.5
2026-04-09T0000,3557A,119.9463,30.0496,杭州市,镇二中,,43,43,30,22,13,47,47,107,82,32,20,5,5,0.6,0.4
2026-04-09T0000,3558A,119.7184,30.2367,杭州市,市府大楼,,34,34,35,18,16,77,77,115,81,14,20,7,8,0.5,0.4
2026-04-09T0000,3656A,120.1554,30.2863,杭州市,消防大队,,26,26,39,9,14,64,64,105,81,14,24,9,10,0.8,0.7
2026-04-09T0000,1270A,117.1957,31.7845,合肥市,明珠广场,,36,36,40,20,10,69,69,110,88,12,18,6,6,0.5,0.5
2026-04-09T0000,1271A,117.307,31.8765,合肥市,三里街,,41,41,42,18,11,61,61,92,72,23,30,7,9,0.5,0.4
2026-04-09T0000,1272A,117.2587,31.8703,合肥市,琥珀山庄,,41,41,47,18,10,70,70,102,83,16,23,6,8,0.6,0.5
2026-04-09T0000,1275A,117.2593,31.9376,合肥市,庐阳区,,36,36,47,18,10,73,73,102,82,11,23,7,7,0.6,0.5
2026-04-09T0000,1276A,117.345251,31.861615,合肥市,瑶海区,,39,39,45,15,9,68,68,103,78,21,26,8,9,0.6,0.6
2026-04-09T0000,1277A,117.3033,31.7967,合肥市,包河区,,36,36,45,20,11,68,68,102,85,8,13,10,10,0.7,0.6
2026-04-09T0000,1278A,117.278,31.7392,合肥市,滨湖新区,,34,34,42,20,9,66,66,109,88,11,13,6,6,0.5,0.4
2026-04-09T0000,1279A,117.1324,31.8395,合肥市,高新区,,39,39,47,19,10,70,70,105,85,5,13,6,7,0.5,0.5
2026-04-09T0000,3464A,117.3802,31.9148,合肥市,高教基地,,41,41,44,16,10,71,71,105,83,19,20,10,11,0.6,0.5
2026-04-09T0000,4098A,117.2518,31.8404,合肥市,中国科学技术大学,,41,41,45,17,9,67,67,106,85,13,19,7,8,0.6,0.5
2026-04-09T0000,3614A,79.9241,37.0878,和田地区,地区环保局,颗粒物(PM10),191,332,260,56,67,88,88,110,101,12,11,2,2,0.2,0.4
2026-04-09T0000,3615A,79.9132,37.1137,和田地区,市环保局,颗粒物(PM10),144,233,227,68,66,82,82,106,101,15,21,1,3,0.5,0.2
2026-04-09T0000,2517A,108.0496,24.6957,河池市,市环保站,细颗粒物(PM2.5),76,59,62,48,41,99,99,118,116,4,5,6,8,0.9,0.9
2026-04-09T0000,4302A,108.0901,24.6945,河池市,上任中路54号,细颗粒物(PM2.5),72,60,59,46,38,108,108,124,123,7,9,6,9,0.9,0.9
2026-04-09T0000,1697A,114.6962,23.7538,河源市,东埔,,31,31,20,18,11,62,62,71,67,6,8,5,5,0.5,0.5
2026-04-09T0000,1698A,114.6895,23.7232,河源市,老城,,30,30,26,19,14,59,59,71,66,6,8,6,6,0.5,0.5
2026-04-09T0000,3374A,115.5562,35.089,菏泽市,定陶老年大学,,35,29,46,24,23,62,62,68,64,17,21,4,6,0.5,0.4
2026-04-09T0000,4114A,115.4239,35.2593,菏泽市,黄河路600号,,45,40,57,31,26,52,52,72,57,16,17,2,3,0.4,0.4
2026-04-09T0000,4115A,115.5025,35.2727,菏泽市,菏泽市人社局,,46,NA,48,32,25,49,49,65,55,17,18,5,7,0.3,0.3
2026-04-09T0000,4184A,115.479691,35.244011,菏泽市,永昌路1号,,45,NA,58,31,26,57,57,72,63,20,19,1,3,0.5,0.3
2026-04-09T0000,4193A,115.471542,35.280012,菏泽市,长城路999号,,43,38,53,30,24,57,57,76,64,18,17,2,2,0.3,0.3
2026-04-09T0000,2514A,111.5264,24.4178,贺州市,环保小区,,38,30,43,26,27,50,50,69,56,14,18,5,6,0.5,0.6
2026-04-09T0000,2515A,111.561,24.4074,贺州市,政协大楼,,38,37,39,26,28,54,54,85,67,12,16,8,9,0.7,0.7
2026-04-09T0000,3534A,111.4744,24.455,贺州市,西湾,颗粒物(PM10),53,53,53,26,29,49,49,79,62,14,14,8,8,0.6,0.7
2026-04-09T0000,2385A,114.17,35.9019,鹤壁市,市监测站,细颗粒物(PM2.5),66,43,60,43,42,44,44,78,52,16,21,3,5,0.7,0.6
2026-04-09T0000,2386A,114.2953,35.7512,鹤壁市,市交警支队,,23,23,56,16,34,36,36,57,40,20,30,3,7,0.6,0.6
2026-04-09T0000,2387A,114.2877,35.7302,鹤壁市,迎宾馆,,44,44,62,28,36,39,39,56,42,18,23,2,5,0.7,0.6
2026-04-09T0000,3474A,114.2616,35.6824,鹤壁市,大新区,NA,NA,NA,49,46,45,43,43,58,46,NA,22,5,6,0.8,0.6
2026-04-09T0000,3596A,114.1573,35.9607,鹤壁市,南山宾馆,细颗粒物(PM2.5),64,NA,73,42,40,46,46,77,51,9,13,6,8,0.7,0.7
2026-04-09T0000,2244A,130.2537,47.3416,鹤岗市,哈啤分公司,NA,NA,NA,50,NA,20,NA,NA,100,99,NA,13,NA,11,NA,0.4
2026-04-09T0000,2245A,130.2683,47.3087,鹤岗市,斯达机电,颗粒物(PM10),104,128,58,32,19,87,87,96,94,12,12,14,13,0.4,0.3
2026-04-09T0000,2246A,130.3114,47.3388,鹤岗市,东山纸板厂,颗粒物(PM10),118,165,66,35,18,82,82,101,98,19,15,12,11,0.6,0.4
2026-04-09T0000,2263A,127.4832,50.2524,黑河市,交通局,,25,17,31,12,16,78,78,93,88,4,5,6,5,0.2,0.2
2026-04-09T0000,2264A,127.5146,50.2339,黑河市,环保局,,25,19,30,14,12,79,79,91,86,8,9,5,6,0.3,0.3
2026-04-09T0000,1074A,115.6839,37.754,衡水市,电机北厂,细颗粒物(PM2.5),58,NA,65,39,31,68,68,84,70,16,28,2,6,0.4,0.4
2026-04-09T0000,1075A,115.6303,37.7318,衡水市,市监测站,颗粒物(PM10),55,56,69,32,30,61,61,77,62,17,27,6,7,0.4,0.4
2026-04-09T0000,3188A,115.6684,37.7216,衡水市,市城管局,细颗粒物(PM2.5),56,NA,60,38,31,64,64,81,68,16,26,3,4,0.4,0.4
2026-04-09T0000,3459A,115.599,37.5491,衡水市,地表水厂,,30,NA,59,21,29,28,28,74,54,38,31,4,6,0.4,0.4
2026-04-09T0000,2457A,112.6209,26.9268,衡阳市,衡阳化工总厂,,46,46,57,22,34,71,71,82,78,3,12,4,6,0.5,0.8
2026-04-09T0000,2458A,112.621,26.8957,衡阳市,珠晖区环保局,,41,41,56,15,32,71,71,83,80,3,13,6,8,0.7,1
2026-04-09T0000,2459A,112.628,26.8654,衡阳市,市委党校,颗粒物(PM10),60,64,59,21,34,72,72,86,82,1,11,6,8,0.8,1.1
2026-04-09T0000,2460A,112.6007,26.8977,衡阳市,市监测站,,40,40,56,20,34,68,68,77,74,8,18,6,9,0.6,0.9
2026-04-09T0000,2461A,112.5658,26.9013,衡阳市,真空机电公司,NA,NA,46,55,20,35,66,66,82,78,NA,10,16,8,2.0,1.2
2026-04-09T0000,3399A,112.6703,26.8817,衡阳市,师范学院,,41,41,50,22,30,73,73,90,85,1,7,4,7,0.7,0.9
2026-04-09T0000,3038A,103.3757,23.3679,红河哈尼族彝族自治州,州图书馆,,41,41,39,12,30,84,84,122,110,8,7,7,5,0.4,0.3
2026-04-09T0000,4154A,103.401,23.3561,红河哈尼族彝族自治州,蒙自市朝阳路,,36,NA,28,25,31,83,83,123,107,7,7,4,7,0.3,0.5
2026-04-09T0000,1090A,111.6506,40.7517,呼和浩特市,呼市一监,细颗粒物(PM2.5),105,88,81,65,40,53,53,115,71,30,31,12,9,0.7,0.7
2026-04-09T0000,1094A,111.7516,40.8369,呼和浩特市,如意水处理厂,颗粒物(PM10),65,70,73,37,29,27,27,116,63,50,36,8,9,0.6,0.5
2026-04-09T0000,1095A,111.727798,40.806187,呼和浩特市,二十九中,细颗粒物(PM2.5),88,94,82,54,39,33,33,102,61,41,26,11,12,0.7,0.6
2026-04-09T0000,1097A,111.717,40.7617,呼和浩特市,化肥厂生活区,细颗粒物(PM2.5),124,129,82,86,51,50,50,115,69,32,31,9,10,0.8,0.8
2026-04-09T0000,3699A,111.6519,40.8389,呼和浩特市,海东办,细颗粒物(PM2.5),86,75,70,53,33,43,43,107,67,35,39,8,7,0.6,0.5
2026-04-09T0000,4275A,111.591512,40.827312,呼和浩特市,成吉思汗西街8号,细颗粒物(PM2.5),96,95,79,58,35,2,2,108,57,80,44,7,8,0.7,0.6
2026-04-09T0000,4276A,111.6597,40.8077,呼和浩特市,公园东路75号,细颗粒物(PM2.5),110,90,74,71,36,52,52,104,77,30,30,13,12,0.7,0.6
2026-04-09T0000,4277A,111.5427,40.7846,呼和浩特市,金海路35号,细颗粒物(PM2.5),107,88,80,67,44,54,54,107,71,25,38,8,8,0.6,0.5
2026-04-09T0000,3061A,119.7511,49.1576,呼伦贝尔市,国华电力东,,26,26,24,3,9,67,67,86,76,7,7,5,5,0.2,0.2
2026-04-09T0000,4279A,119.7569,49.2222,呼伦贝尔市,伊敏大街东7号,,24,23,25,9,9,74,74,94,81,7,7,7,6,0.3,0.4
2026-04-09T0000,1250A,120.075,30.867,湖州市,城西水厂,,44,44,50,19,17,74,74,122,94,23,19,6,7,0.4,0.2
2026-04-09T0000,2873A,120.083,30.8929,湖州市,仁皇山新区,,38,38,42,16,15,72,72,116,90,25,23,6,6,0.5,0.4
2026-04-09T0000,2907A,120.1846,30.8592,湖州市,吴兴区站,,50,50,44,20,15,72,72,115,93,20,19,7,6,0.6,0.5
2026-04-09T0000,3562A,120.4146,30.8538,湖州市,南浔区站,,44,44,38,16,15,64,64,101,81,16,17,5,6,0.4,0.5
2026-04-09T0000,1607A,120.904878,40.721091,葫芦岛市,龙港区,,39,39,42,19,16,95,95,135,127,16,14,8,10,0.4,0.5
2026-04-09T0000,1608A,120.8382,40.7521,葫芦岛市,化工街,颗粒物(PM10),53,53,63,26,21,86,86,123,116,22,22,12,14,0.4,0.6
2026-04-09T0000,1609A,120.8339,40.7078,葫芦岛市,新区,,38,37,43,26,20,89,89,131,122,19,18,9,11,0.4,0.6
2026-04-09T0000,1610A,120.8697,40.7679,葫芦岛市,东城区,,38,34,47,26,23,91,91,130,122,22,22,9,11,0.5,0.6
2026-04-09T0000,2483A,109.9297,27.5383,怀化市,河西地税局,细颗粒物(PM2.5),80,88,70,50,42,104,104,103,103,6,9,4,4,/,/
2026-04-09T0000,2484A,109.9783,27.5342,怀化市,市四医院,细颗粒物(PM2.5),80,84,77,50,41,107,107,108,108,7,9,4,3,0.5,0.5
2026-04-09T0000,2485A,109.9971,27.5579,怀化市,监测楼,细颗粒物(PM2.5),96,75,70,58,45,108,108,102,102,7,9,5,3,0.5,0.5
2026-04-09T0000,1210A,119.0566,33.5991,淮安市,钵池山,,26,17,30,12,13,83,83,94,85,17,17,7,7,0.4,0.3
2026-04-09T0000,1211A,119.0083,33.578,淮安市,北京南路,,25,19,41,16,17,80,80,88,82,8,12,6,8,0.3,0.4
2026-04-09T0000,1212A,118.9938,33.6083,淮安市,市监测站,,29,NA,26,16,15,92,92,103,96,7,11,4,6,0.4,0.4
2026-04-09T0000,1213A,119.135,33.5038,淮安市,楚州区监测站,,27,17,31,11,14,84,84,92,86,8,14,5,6,0.0,0.3
2026-04-09T0000,3426A,118.8757,33.2897,淮安市,新华书店,,28,28,40,17,17,77,77,83,83,11,18,6,8,0.4,0.5
2026-04-09T0000,4092A,119.119691,33.550006,淮安市,枚皋中路89号,,28,24,35,12,15,89,89,95,89,9,13,9,10,0.5,0.5
2026-04-09T0000,4206A,119.028838,33.631911,淮安市,承德北路606号,,27,19,38,13,14,86,86,94,85,7,13,7,8,0.1,0.2
2026-04-09T0000,2282A,116.8005,33.9749,淮北市,监测站,,36,30,36,25,18,98,98,94,94,12,18,6,7,0.4,0.4
2026-04-09T0000,2283A,116.8094,33.9008,淮北市,烈山区政府,,46,46,40,27,17,90,90,88,88,11,17,6,6,0.4,0.4
2026-04-09T0000,4017A,116.7926,33.9534,淮北市,市博物馆,,38,NA,34,26,19,93,93,92,92,11,16,4,4,0.6,0.5
2026-04-09T0000,4100A,116.8322,33.9884,淮北市,杜集区第一实验学校,,44,44,46,28,14,86,86,83,83,21,17,7,7,0.2,0.3
2026-04-09T0000,2277A,116.8304,32.7726,淮南市,潘集区政府,,45,45,37,23,15,68,68,83,82,23,25,6,7,0.5,0.4
2026-04-09T0000,2279A,116.8569,32.5949,淮南市,谢家集区政府,,29,26,31,20,16,71,71,90,88,16,18,10,11,0.5,0.5
2026-04-09T0000,2280A,116.8279,32.6333,淮南市,八公山区政府,,46,46,45,17,19,70,70,84,83,14,15,8,9,0.5,0.5
2026-04-09T0000,2894A,117.0561,32.6536,淮南市,经济技术开发区消防队,,40,40,39,23,13,66,66,84,83,23,22,8,8,0.4,0.4
2026-04-09T0000,3329A,117.011,32.5891,淮南市,山南新区,,39,39,33,20,14,76,76,96,94,19,17,8,9,0.5,0.4
2026-04-09T0000,4209A,117.003137,32.644456,淮南市,国庆中路369号,,41,41,37,21,15,68,68,85,83,18,17,15,13,0.2,0.3
2026-04-09T0000,2446A,114.9021,30.474,黄冈市,职工中心,,28,28,34,19,18,58,58,90,64,3,10,8,9,0.7,0.6
2026-04-09T0000,2929A,114.8858,30.4519,黄冈市,红卫路,,23,23,32,15,21,68,68,101,74,2,9,6,6,0.5,0.2
2026-04-09T0000,3398A,114.9134,30.4446,黄冈市,市林业局,,33,33,49,11,21,68,68,94,73,2,9,5,4,0.2,0.2
2026-04-09T0000,2672A,102.02,35.5101,黄南藏族自治州,同仁县隆务镇,,33,33,21,16,10,60,60,98,87,3,2,10,11,0.3,0.2
2026-04-09T0000,2295A,118.2905,29.6965,黄山市,延安路89号,,32,32,30,20,15,76,76,92,81,10,12,5,5,0.4,0.3
2026-04-09T0000,2297A,118.1369,30.2755,黄山市,黄山区政府5号楼,,40,40,32,22,15,81,81,89,78,4,7,3,3,0.5,0.4
2026-04-09T0000,4210A,118.335445,29.720283,黄山市,滨江东路7-2号,,45,45,44,16,10,80,80,94,84,10,9,/,/,/,/
2026-04-09T0000,2423A,115.0547,30.2332,黄石市,沈家营,,41,41,56,13,15,44,44,88,51,16,14,20,14,1.0,1
2026-04-09T0000,2426A,114.899,30.211,黄石市,铁山,,26,26,36,16,14,57,57,97,65,4,8,10,10,0.9,1
2026-04-09T0000,2427A,115.0259,30.2108,黄石市,团城山,,35,35,48,12,16,44,44,84,47,9,9,12,13,0.7,0.6
2026-04-09T0000,3149A,115.0174,30.1591,黄石市,笔架山北路,,44,44,54,15,15,53,53,96,61,10,10,13,12,0.7,0.5
2026-04-09T0000,4185A,115.078022,30.21118,黄石市,磁湖东路29号,,44,44,49,13,15,51,51,95,54,17,15,4,6,1.1,1
2026-04-09T0000,1392A,114.4181,23.0528,惠州市,河南岸金山湖子站,,41,41,29,17,14,77,77,85,81,11,9,6,6,0.6,0.6
2026-04-09T0000,1393A,114.4055,23.0824,惠州市,下埔横江三路子站,,50,50,34,20,15,78,78,86,82,8,7,5,4,0.6,0.7
2026-04-09T0000,1395A,114.4645,22.7832,惠州市,惠阳区承修路船湖子站,,50,50,38,17,17,84,84,97,92,7,9,6,6,0.3,0.4
2026-04-09T0000,1396A,114.5316,22.7423,惠州市,大亚湾管委会子站,,50,50,37,18,15,82,82,92,90,5,9,4,4,0.5,0.6
2026-04-09T0000,3314A,114.4334,22.8134,惠州市,惠阳秋长,,44,44,33,19,17,86,86,96,92,8,9,/,/,/,/
2026-04-09T0000,3452A,114.6521,22.7755,惠州市,大亚湾霞涌,,37,37,24,19,16,80,80,92,89,6,6,/,/,/,/
2026-04-09T0000,4300A,114.4089,23.1147,惠州市,文华一路1号,,38,38,28,19,15,82,82,89,86,6,6,/,/,/,/
2026-04-09T0000,2240A,130.9618,45.2926,鸡西市,环保局,,41,41,30,24,17,101,101,96,82,6,9,8,7,0.3,0.3
2026-04-09T0000,2243A,130.9294,45.2959,鸡西市,第一中学,颗粒物(PM10),52,52,25,17,16,94,94,95,88,7,6,6,5,0.2,0.1
2026-04-09T0000,3707A,131.0069,45.2988,鸡西市,欧美日汽修厂,颗粒物(PM10),55,56,34,21,20,88,88,88,74,12,9,6,4,0.4,0.3
2026-04-09T0000,2367A,114.9753,27.0803,吉安市,红声器材厂,,34,34,37,16,18,56,56,57,56,7,10,4,6,1.0,1
2026-04-09T0000,2369A,114.9903,27.1313,吉安市,市环境监测站,,32,32,36,20,23,67,67,64,63,4,9,9,9,/,/
2026-04-09T0000,2370A,115.009527,27.096792,吉安市,青原区法院,,35,35,38,18,20,64,64,65,64,9,13,7,7,0.7,0.9
2026-04-09T0000,1772A,126.54,43.8622,吉林市,哈达湾,颗粒物(PM10),58,61,35,37,25,111,111,132,128,9,8,7,6,0.5,0.5
2026-04-09T0000,1773A,126.5843,43.8358,吉林市,东局子,颗粒物(PM10),60,64,38,35,22,109,109,122,118,8,9,5,4,0.6,0.8
2026-04-09T0000,1774A,126.5051,43.8243,吉林市,电力学院,颗粒物(PM10),62,66,38,35,21,113,113,136,130,11,12,6,6,0.7,0.7
2026-04-09T0000,1775A,126.6133,43.8971,吉林市,江北,颗粒物(PM10),67,73,42,35,23,103,103,117,114,10,9,9,9,0.7,0.7
2026-04-09T0000,1776A,126.5549,43.8304,吉林市,江南公园,颗粒物(PM10),55,57,42,35,21,108,108,124,121,9,10,8,7,0.5,0.5
2026-04-09T0000,2868A,126.4737,43.953,吉林市,九站,颗粒物(PM10),75,84,52,38,26,114,114,118,114,12,14,8,7,0.6,0.6
2026-04-09T0000,1299A,116.9866,36.6118,济南市,科干所,细颗粒物(PM2.5),58,41,47,39,20,39,39,106,78,33,16,6,8,0.5,0.5
2026-04-09T0000,1300A,116.9379,36.6652,济南市,农科所,,49,44,47,34,20,31,31,100,67,28,18,5,7,0.3,0.2
2026-04-09T0000,1301A,117.1265,36.6736,济南市,开发区,,40,34,50,28,18,68,68,114,88,18,19,5,6,0.4,0.3
2026-04-09T0000,1303A,117.0616,36.6865,济南市,省种子仓库,,39,36,60,27,25,65,65,109,85,17,27,7,10,0.4,0.4
2026-04-09T0000,1304A,116.9495185,36.644937,济南市,机床二厂,细颗粒物(PM2.5),54,NA,52,37,21,39,39,110,78,34,19,5,7,0.5,0.5
2026-04-09T0000,1305A,117.0496,36.6629,济南市,市监测站,细颗粒物(PM2.5),72,NA,48,46,31,66,66,107,81,20,22,4,5,0.5,0.5
2026-04-09T0000,1306A,116.7674,36.5458,济南市,长清党校,,44,44,52,26,16,44,44,114,76,25,17,4,5,0.5,0.4
2026-04-09T0000,1961A,117.5323,36.6865,济南市,东山小学,,39,39,49,26,14,58,58,114,82,22,19,2,5,0.5,0.5
2026-04-09T0000,3059A,117.7181,36.205,济南市,泰兴公司,,36,31,52,25,14,80,80,106,90,12,22,6,8,0.4,0.4
2026-04-09T0000,3064A,117.6861,36.2172,济南市,莱芜战役纪念馆,,41,41,50,25,14,70,70,106,88,10,18,4,5,0.4,0.5
2026-04-09T0000,3494A,117.1673,36.9782,济南市,济阳区政府,,49,49,64,31,27,41,41,97,66,32,26,9,10,0.6,0.5
2026-04-09T0000,3495A,117.1168,36.6299,济南市,锦屏中学,,36,NA,39,25,18,54,54,110,81,14,15,4,6,0.1,0.2
2026-04-09T0000,4108A,117.7107,36.2385,济南市,山财大街5号,,35,31,48,24,13,70,70,108,93,20,23,4,7,0.6,0.6
2026-04-09T0000,4109A,116.9744,36.6889,济南市,无影山路12号,细颗粒物(PM2.5),68,NA,43,44,23,24,24,101,72,42,24,4,6,0.6,0.6
2026-04-09T0000,1653A,116.6229,35.4288,济宁市,火炬城,,46,NA,42,32,17,61,61,83,70,12,18,5,4,0.5,0.6
2026-04-09T0000,3500A,116.5808,35.3703,济宁市,北湖一中,,40,31,41,28,18,69,69,85,74,15,19,5,6,0.5,0.6
2026-04-09T0000,3501A,116.8251,35.5592,济宁市,服务中心,,35,27,51,24,17,60,60,87,74,14,15,1,3,0.6,0.5
2026-04-09T0000,3678A,116.5907,35.4054,济宁市,市第七中学,,43,NA,50,30,19,71,71,92,77,15,20,2,4,0.5,0.6
2026-04-09T0000,4111A,116.6075,35.4566,济宁市,任和路,,48,48,59,32,18,52,52,83,70,17,20,4,8,0.4,0.4
2026-04-09T0000,4112A,116.5648,35.3921,济宁市,文体南路1号,颗粒物(PM10),51,51,54,21,14,62,62,84,70,11,15,3,5,0.5,0.5
2026-04-09T0000,4122A,112.6071,35.1015,济源市,市委党校,,35,35,73,16,35,43,43,76,44,17,22,4,6,0.5,0.5
2026-04-09T0000,4123A,112.596,35.0702,济源市,沁园中路1号,,33,NA,54,23,36,42,42,73,44,14,18,2,3,0.5,0.5
2026-04-09T0000,2255A,130.2749,46.8028,佳木斯市,佳纺,颗粒物(PM10),100,119,41,30,18,92,92,114,104,10,8,5,5,0.5,0.3
2026-04-09T0000,2257A,130.3258,46.7975,佳木斯市,环保局,颗粒物(PM10),101,121,41,32,18,90,90,113,104,7,7,6,6,0.5,0.3
2026-04-09T0000,4285A,130.363,46.806,佳木斯市,顺和街,颗粒物(PM10),102,124,42,37,21,88,88,106,99,10,9,3,3,0.4,0.3
2026-04-09T0000,4286A,130.3952,46.8268,佳木斯市,长安路196号,颗粒物(PM10),108,139,43,31,19,92,92,111,104,10,8,7,7,0.5,0.4
2026-04-09T0000,1252A,120.7439,30.778,嘉兴市,清河小学,,32,32,41,3,9,81,81,111,89,13,17,7,8,0.6,0.6
2026-04-09T0000,1253A,120.7261,30.7477,嘉兴市,嘉兴学院,,27,26,32,10,10,86,86,111,92,18,22,6,7,0.4,0.3
2026-04-09T0000,2872A,120.7845,30.7524,嘉兴市,南湖区残联,,25,22,31,12,13,78,78,109,87,15,15,4,6,0.4,0.5
2026-04-09T0000,3407A,120.6915,30.7741,嘉兴市,秀洲住建,,28,22,34,7,8,87,87,116,94,11,17,5,7,0.3,0.3
2026-04-09T0000,1945A,98.291,39.7705,嘉峪关市,气象局,颗粒物(PM10),91,107,65,31,16,101,101,125,118,18,12,12,22,0.2,0.4
2026-04-09T0000,2884A,98.2672,39.7978,嘉峪关市,酒钢宾馆,颗粒物(PM10),78,88,82,24,19,110,110,120,114,13,11,19,31,0.6,0.8
2026-04-09T0000,3248A,98.2644,39.7723,嘉峪关市,雄关区,颗粒物(PM10),89,104,64,27,16,105,105,123,116,18,14,8,14,0.6,0.8
2026-04-09T0000,1383A,113.1063,22.6058,江门市,北街,,45,45,41,18,18,39,39,62,52,17,16,/,/,/,/
2026-04-09T0000,1384A,113.073,22.5835,江门市,西区,,44,44,39,20,19,42,42,69,54,16,15,/,/,/,/
2026-04-09T0000,1385A,113.0218,22.531,江门市,圭峰西,,36,36,38,18,18,37,37,68,52,13,12,/,/,/,/
2026-04-09T0000,1386A,113.0826,22.5947,江门市,东湖,颗粒物(PM10),52,52,39,19,20,42,42,67,54,13,12,5,5,0.4,0.4
2026-04-09T0000,3311A,113.1077,22.5647,江门市,江海富民,颗粒物(PM10),73,82,59,21,20,43,43,69,54,16,15,/,/,0.4,0.3
2026-04-09T0000,3449A,113.0496,22.4669,江门市,新会银湖,,32,32,42,15,18,28,28,63,36,17,19,7,6,0.4,0.4
2026-04-09T0000,3335A,113.3137,35.2643,焦作市,马村街道办,,35,35,63,21,38,45,45,75,47,12,18,7,10,0.5,0.4
2026-04-09T0000,3336A,113.2464,35.2374,焦作市,焦作技师学院,,40,NA,63,28,39,44,44,87,46,12,17,6,9,0.9,0.9
2026-04-09T0000,3477A,113.1656,35.2536,焦作市,中站许衡医院,NA,NA,43,72,NA,44,50,50,102,52,9,14,8,10,0.7,0.6
2026-04-09T0000,3981A,113.2456,35.18,焦作市,原李万街道办,,32,32,61,22,38,43,43,83,43,11,16,9,10,0.5,0.5
2026-04-09T0000,4264A,113.234,35.219,焦作市,新安路1731号,,43,34,68,30,48,52,52,92,54,17,21,8,11,0.9,0.8
2026-04-09T0000,4295A,113.2722,35.2121,焦作市,人民路3066号,,41,41,66,20,40,44,44,75,46,17,21,5,7,0.5,0.6
2026-04-09T0000,1708A,116.3701,23.5345,揭阳市,新兴,颗粒物(PM10),66,72,43,33,21,70,70,82,76,16,15,8,9,0.5,0.5
2026-04-09T0000,1709A,116.3261,23.5442,揭阳市,西马,颗粒物(PM10),65,71,60,38,23,68,68,84,76,16,14,7,6,0.6,0.7
2026-04-09T0000,1710A,116.361,23.5627,揭阳市,东兴,颗粒物(PM10),59,62,41,32,22,69,69,82,76,15,13,5,4,/,/
2026-04-09T0000,1711A,116.4151,23.5295,揭阳市,渔湖,颗粒物(PM10),64,69,42,34,21,74,74,92,84,17,16,3,3,/,/
2026-04-09T0000,3320A,116.4028,23.5699,揭阳市,曲溪,颗粒物(PM10),56,58,40,30,21,66,66,84,77,14,12,8,10,0.5,0.5
2026-04-09T0000,1944A,102.1691,38.5166,金昌市,天庆家园,颗粒物(PM10),130,197,157,51,39,130,130,131,129,2,7,11,17,0.3,0.3
2026-04-09T0000,4022A,102.1648,38.5369,金昌市,金川区人防中心,颗粒物(PM10),118,166,235,54,36,125,125,124,124,4,6,4,6,0.3,0.4
2026-04-09T0000,4239A,102.193042,38.531887,金昌市,长春路96号,颗粒物(PM10),119,167,111,64,39,121,121,122,120,1,3,6,8,0.4,0.4
2026-04-09T0000,1262A,119.6478,29.0773,金华市,十五中,,27,17,32,3,8,85,85,100,91,6,17,2,4,0.4,0.4
2026-04-09T0000,1263A,119.6859,29.1032,金华市,监测站,,26,20,33,3,8,81,81,96,85,9,22,4,5,0.4,0.4
2026-04-09T0000,3659A,119.656,29.1132,金华市,气象局,,25,19,32,3,9,77,77,95,82,10,26,4,4,0.4,0.4
2026-04-09T0000,1767A,121.1114,41.0879,锦州市,南山,,48,48,56,24,33,105,105,134,130,21,21,16,12,0.5,0.6
2026-04-09T0000,1768A,121.060361,40.842794,锦州市,开发区,,44,44,76,18,25,91,91,123,117,22,18,5,7,0.4,0.5
2026-04-09T0000,1769A,121.1836,41.1118,锦州市,百股街道,,37,37,59,22,26,110,110,141,138,21,20,10,12,0.5,0.6
2026-04-09T0000,1770A,121.1176,41.1224,锦州市,天安街道,,48,48,60,27,28,103,103,128,126,20,21,10,8,0.6,0.6
2026-04-09T0000,1771A,121.1303,41.1385,锦州市,北湖公园,,44,44,60,25,29,106,106,133,130,18,19,12,10,0.4,0.5
2026-04-09T0000,2160A,112.8496,35.5051,晋城市,自来水公司,,23,15,56,3,16,72,72,122,63,7,12,4,5,0.5,0.6
2026-04-09T0000,2162A,112.8509,35.4886,晋城市,市环保局,,22,14,45,3,17,70,70,111,61,6,11,5,5,0.4,0.4
2026-04-09T0000,3620A,112.8258,35.4804,晋城市,泽州一中,,23,NA,40,3,19,72,72,118,63,9,13,2,3,0.7,0.6
2026-04-09T0000,4078A,112.8246,35.5152,晋城市,前书院路,,21,NA,48,11,14,66,66,113,NA,9,12,5,6,0.5,0.5
2026-04-09T0000,4079A,112.8864,35.4773,晋城市,祥云街666号,,20,12,36,3,18,62,62,114,57,10,12,6,7,0.6,0.6
2026-04-09T0000,2174A,112.6992,37.6984,晋中市,榆次区政府,,30,29,69,21,37,26,26,84,43,46,36,2,3,1.0,0.8
2026-04-09T0000,2865A,112.7195,37.683,晋中市,榆次三中,,43,NA,70,30,38,59,59,84,55,22,32,1,8,0.6,0.5
2026-04-09T0000,4080A,112.7375,37.7215,晋中市,广安街188号,,43,NA,69,30,37,25,25,89,38,43,34,1,6,0.5,0.5
2026-04-09T0000,4200A,112.7478,37.6954,晋中市,迎宾街26号,,33,27,69,23,39,61,61,84,55,22,31,7,9,0.5,0.5
2026-04-09T0000,2439A,112.2012,31.048,荆门市,竹园小学,,40,40,121,19,42,33,33,57,22,13,30,10,4,0.3,0.5
2026-04-09T0000,2440A,112.1968,30.9892,荆门市,掇刀,细颗粒物(PM2.5),62,60,111,41,45,39,39,79,31,13,23,6,11,0.6,0.9
2026-04-09T0000,3012A,112.1849,31.0361,荆门市,西山林语,颗粒物(PM10),51,51,112,21,42,33,33,74,28,11,22,5,7,0.5,0.7
2026-04-09T0000,3547A,112.1631,31.0134,荆门市,龙泉中学南校,颗粒物(PM10),56,58,121,18,44,40,40,88,38,12,20,4,6,0.7,1
2026-04-09T0000,4124A,112.2213,31.0654,荆门市,新台西路6号,,20,19,88,14,46,30,30,51,17,10,27,5,8,0.6,0.7
2026-04-09T0000,1844A,112.2493,30.3198,荆州市,市图书馆,细颗粒物(PM2.5),76,75,83,48,52,33,33,51,40,18,24,6,9,0.7,0.7
2026-04-09T0000,1845A,112.2009,30.3543,荆州市,市委党校,颗粒物(PM10),75,84,96,39,52,28,28,50,43,19,33,7,8,1.0,0.9
2026-04-09T0000,3194A,112.2749,30.3124,荆州市,管委会,细颗粒物(PM2.5),78,85,89,49,55,22,22,50,40,22,24,7,9,0.8,0.7
2026-04-09T0000,4268A,112.1722,30.3366,荆州市,学苑路85号,细颗粒物(PM2.5),84,71,85,52,55,34,34,62,51,11,17,2,6,0.7,0.8
2026-04-09T0000,2343A,117.2114,29.2931,景德镇市,老干部活动中心,,28,24,29,19,14,69,69,100,78,7,8,4,4,0.5,0.4
2026-04-09T0000,2344A,117.1893,29.2789,景德镇市,兽医站,,38,38,37,16,14,73,73,102,80,11,9,4,4,0.6,0.5
2026-04-09T0000,2346A,117.246,29.2958,景德镇市,陶研所,,25,22,24,17,13,64,64,100,81,14,10,4,4,0.4,0.4
2026-04-09T0000,4289A,117.154766,29.256967,景德镇市,青少年活动中心,,30,23,30,21,16,66,66,92,71,10,11,8,5,/,/
2026-04-09T0000,1803A,115.9873,29.6816,九江市,十里,,36,36,45,22,18,62,62,85,70,15,24,8,10,0.9,0.8
2026-04-09T0000,1804A,115.9583,29.7047,九江市,茅山头,,36,34,43,25,19,73,73,87,69,4,20,5,4,0.5,0.6
2026-04-09T0000,1805A,115.9877,29.7295,九江市,西园,,33,33,37,22,14,61,61,90,70,18,25,5,6,0.7,0.6
2026-04-09T0000,1808A,115.9112,29.6038,九江市,综合工业园,,37,37,41,19,19,70,70,77,77,12,26,9,11,0.5,0.6
2026-04-09T0000,3190A,116.0254,29.6995,九江市,外国语学校,,33,23,32,23,14,52,52,83,72,14,18,8,8,0.9,0.7
2026-04-09T0000,4253A,116.010205,29.659402,九江市,莲花大道8号,,37,37,40,23,18,57,57,82,62,10,22,6,8,0.7,0.6
2026-04-09T0000,4240A,98.495752,39.733935,酒泉市,玉门东路5号,颗粒物(PM10),68,75,86,38,23,108,108,111,106,6,5,7,8,0.3,0.2
2026-04-09T0000,4241A,98.5099,39.7506,酒泉市,北大街108号,颗粒物(PM10),68,75,102,32,25,96,96,103,99,7,7,8,10,0.3,0.3
2026-04-09T0000,2698A,76.0071,39.466,喀什地区,巡警大队,颗粒物(PM10),156,262,253,77,79,71,71,107,95,22,22,4,4,0.3,0.3
2026-04-09T0000,2699A,75.9756,39.4693,喀什地区,吾办,颗粒物(PM10),150,249,256,84,111,50,50,99,83,34,29,5,3,0.4,0.6
2026-04-09T0000,4027A,75.9485,39.4688,喀什地区,老干局,颗粒物(PM10),153,255,254,67,82,65,65,106,94,24,25,3,4,0.2,0.3
2026-04-09T0000,1824A,114.3389,34.778,开封市,肿瘤医院,NA,NA,NA,38,NA,29,NA,NA,79,47,NA,21,NA,7,NA,0.6
2026-04-09T0000,1826A,114.2884,34.7966,开封市,世纪星幼儿园,,25,NA,41,17,27,38,38,75,41,21,24,6,7,0.6,0.6
2026-04-09T0000,3147A,114.3434,34.8101,开封市,龙亭公园,细颗粒物(PM2.5),94,NA,38,57,39,39,39,79,40,18,23,6,8,1.0,0.9
2026-04-09T0000,3210A,114.3645,34.7955,开封市,汴京公园,,32,NA,40,22,31,37,37,76,40,17,21,4,5,0.9,0.9
2026-04-09T0000,3473A,114.2485,34.8306,开封市,技师学院,,35,NA,38,24,28,36,36,81,37,20,20,8,9,0.6,0.6
2026-04-09T0000,3592A,114.4518,34.7503,开封市,祥符区生态环境局,,28,20,38,19,28,35,35,70,39,32,30,6,7,0.6,0.6
2026-04-09T0000,1951A,84.886,45.6029,克拉玛依市,长征新村,颗粒物(PM10),69,76,37,24,16,50,50,109,83,40,12,7,7,0.6,0.6
2026-04-09T0000,1952A,84.8894,45.5827,克拉玛依市,南林小区,NA,NA,82,42,26,4,24,24,117,90,63,8,4,3,NA,0.1
2026-04-09T0000,1954A,84.896,44.3328,克拉玛依市,独山子区,颗粒物(PM10),83,95,93,16,14,101,101,128,121,6,5,7,6,0.5,0.5
2026-04-09T0000,1955A,85.6888,46.0909,克拉玛依市,乌尔禾区商贸楼,颗粒物(PM10),59,62,36,16,11,66,66,109,97,23,12,3,3,0.4,0.4
2026-04-09T0000,3612A,85.1045,45.6895,克拉玛依市,白碱滩区新站,颗粒物(PM10),80,92,37,18,7,67,67,122,104,23,6,8,8,0.4,0.3
2026-04-09T0000,2697A,76.1457,39.7143,克孜勒苏柯尔克孜自治州,市人民政府,颗粒物(PM10),118,165,204,55,63,69,69,109,95,33,14,5,11,0.1,0.1
2026-04-09T0000,3665A,76.1654,39.7157,克孜勒苏柯尔克孜自治州,克州文化中心,颗粒物(PM10),117,162,199,65,70,72,72,108,95,23,13,9,11,0.2,0.3
2026-04-09T0000,1450A,102.8203,24.889,昆明市,呈贡新区,,33,26,43,23,32,98,98,119,105,14,10,5,5,0.6,0.6
2026-04-09T0000,1452A,102.7253,25.0904,昆明市,龙泉镇,,38,38,55,21,36,90,90,108,88,9,19,4,5,0.4,0.5
2026-04-09T0000,1453A,102.7267,25.0378,昆明市,东风东路,,33,33,45,21,32,99,99,116,97,12,14,6,5,0.6,0.6
2026-04-09T0000,1454A,102.6744,25.0671,昆明市,金鼎山,,33,24,52,22,37,104,104,112,96,6,12,2,4,0.5,0.6
2026-04-09T0000,1455A,102.6643,25.0401,昆明市,碧鸡广场,,36,36,49,23,33,97,97,110,90,9,13,9,7,0.6,0.6
2026-04-09T0000,3179A,102.7491,25.012,昆明市,官渡区博物馆,,31,27,43,21,31,98,98,114,99,10,11,5,5,0.6,0.5
2026-04-09T0000,3375A,102.8016,24.8336,昆明市,青年创业园,,43,43,43,23,32,88,88,119,101,11,7,6,6,0.6,0.6
2026-04-09T0000,3550A,102.8,24.9787,昆明市,昆明学院,,32,32,42,17,26,102,102,115,100,6,8,4,6,0.5,0.6
2026-04-09T0000,3551A,102.5969,24.6738,昆明市,晋宁区生态环境分局,,38,37,41,26,32,106,106,115,108,4,6,2,3,0.4,0.5
2026-04-09T0000,3552A,102.6673,24.9861,昆明市,云天化总部,,35,35,44,19,27,102,102,120,106,11,10,6,5,0.5,0.5
2026-04-09T0000,1456A,91.132,29.6515,拉萨市,八廓街,,38,20,19,6,8,120,120,144,139,4,3,4,4,0.2,0.2
2026-04-09T0000,1457A,91.1221,29.6748,拉萨市,市环保局,,37,31,19,6,8,117,117,134,128,5,8,5,5,0.2,0.3
2026-04-09T0000,1458A,91.0874,29.6476,拉萨市,区监测站,,39,17,12,6,6,123,123,141,137,8,10,5,5,0.2,0.2
2026-04-09T0000,1459A,91.1774,29.6541,拉萨市,西藏大学,,35,24,14,10,7,112,112,131,126,9,10,4,5,0.2,0.3
2026-04-09T0000,1460A,90.9798,29.6586,拉萨市,区辐射站,,40,40,23,22,9,112,112,125,122,9,17,4,5,0.3,0.3
2026-04-09T0000,1461A,91.0831,29.6292,拉萨市,拉萨火车站,,39,14,12,7,6,124,124,142,139,7,7,3,4,0.2,0.2
2026-04-09T0000,2520A,109.2203,23.7252,来宾市,来宾技工学校,颗粒物(PM10),51,51,66,33,43,79,79,119,107,2,9,4,10,0.7,0.9
2026-04-09T0000,3535A,109.1781,23.7293,来宾市,兴宾区政府,颗粒物(PM10),60,64,65,38,41,84,84,135,123,5,9,6,10,0.8,1
2026-04-09T0000,4002A,109.2312,23.7428,来宾市,中南小学,细颗粒物(PM2.5),60,56,65,40,45,89,89,128,113,6,13,7,10,0.6,0.8
2026-04-09T0000,1479A,103.8309,36.0467,兰州市,铁路设计院,颗粒物(PM10),75,84,58,42,27,24,24,108,68,67,33,8,5,1.0,0.6
2026-04-09T0000,3241A,103.7439,36.0841,兰州市,百合公园,颗粒物(PM10),88,103,60,41,25,2,2,119,44,87,34,2,6,0.8,0.7
2026-04-09T0000,3242A,103.9613,35.9985,兰州市,和平,颗粒物(PM10),89,104,59,26,25,48,48,108,76,36,17,7,8,0.6,0.6
2026-04-09T0000,4236A,103.629272,36.093822,兰州市,庄浪东路808号,颗粒物(PM10),70,78,65,36,25,46,46,113,67,39,26,8,10,0.3,0.4
2026-04-09T0000,4237A,103.7251,36.104344,兰州市,安宁西路88号,颗粒物(PM10),93,110,64,34,23,61,61,124,88,25,22,8,10,0.3,0.3
2026-04-09T0000,4238A,103.846982,36.067567,兰州市,北滨河东路1号,颗粒物(PM10),70,77,51,39,25,15,15,104,59,68,37,8,9,0.7,0.6
2026-04-09T0000,1067A,116.6712,39.5109,廊坊市,药材公司,细颗粒物(PM2.5),112,98,83,73,51,58,58,121,86,29,29,2,6,0.5,0.5
2026-04-09T0000,1068A,116.7215,39.5592,廊坊市,开发区,细颗粒物(PM2.5),123,102,85,85,52,70,70,125,91,20,24,1,4,0.4,0.4
2026-04-09T0000,1070A,116.7246,39.5273,廊坊市,北华航天学院,细颗粒物(PM2.5),110,112,79,70,45,74,74,131,107,26,26,3,6,0.4,0.4
2026-04-09T0000,2919A,116.7022,39.5454,廊坊市,河北工业大学,细颗粒物(PM2.5),112,110,79,73,50,68,68,134,107,26,24,2,6,0.5,0.4
2026-04-09T0000,2536A,103.7629,29.5844,乐山市,牛耳桥,,45,45,32,31,22,50,50,70,60,21,17,6,5,0.5,0.5
2026-04-09T0000,2537A,103.7501,29.6002,乐山市,市第三水厂,,48,42,29,33,25,49,49,68,60,25,18,4,3,0.5,0.5
2026-04-09T0000,2538A,103.7571,29.5664,乐山市,市监测站,,50,47,31,35,22,43,43,68,61,22,12,3,3,0.8,0.7
2026-04-09T0000,3361A,103.7313,29.563,乐山市,理工大学,细颗粒物(PM2.5),52,40,29,36,25,34,34,70,59,24,13,3,2,0.6,0.5
2026-04-09T0000,2599A,100.2497,26.8802,丽江市,丽江古城,,32,18,18,3,6,100,100,109,107,6,8,8,8,0.5,0.5
2026-04-09T0000,2600A,100.2203,26.8906,丽江市,市中心,,31,18,13,6,10,99,99,112,108,7,10,7,7,0.4,0.5
2026-04-09T0000,1267A,119.9141,28.4513,丽水市,监测站大楼,,25,19,25,6,8,79,79,107,89,11,14,4,5,0.2,0.1
2026-04-09T0000,1268A,119.93,28.4589,丽水市,莲都小学,,27,12,25,3,7,84,84,104,88,8,13,/,/,/,/
2026-04-09T0000,1269A,119.8794,28.4232,丽水市,余庄前,,39,39,24,18,6,42,42,97,78,23,12,4,4,0.3,0.3
2026-04-09T0000,1173A,119.1759,34.5885,连云港市,市环境监测站,,33,19,25,9,7,105,105,96,92,11,14,7,8,0.4,0.4
2026-04-09T0000,3000A,119.3577,34.6971,连云港市,德源药业,,35,17,36,12,10,109,109,100,90,11,24,5,6,0.6,0.6
2026-04-09T0000,3007A,119.178,34.8442,连云港市,新城一中,,37,37,32,20,12,107,107,97,93,13,22,6,7,0.5,0.5
2026-04-09T0000,3008A,119.3607,34.7519,连云港市,胡沟管理处,,34,22,31,7,6,106,106,101,96,6,15,10,10,0.5,0.5
2026-04-09T0000,3009A,119.1478,34.5913,连云港市,矿山设计院,,34,24,28,7,6,108,108,97,94,8,13,7,7,0.5,0.5
2026-04-09T0000,3434A,119.2414,34.6539,连云港市,工贸学校,,34,29,30,16,10,106,106,100,98,6,8,9,10,0.3,0.3
2026-04-09T0000,3664A,119.4171,34.734,连云港市,连云街道,,41,41,37,24,14,103,103,103,100,9,13,3,5,0.4,0.5
2026-04-09T0000,2573A,102.2629,27.8981,凉山彝族自治州,西昌市政府,,32,21,19,11,10,100,100,115,110,4,5,5,4,0.4,0.4
2026-04-09T0000,2574A,102.2686,27.885,凉山彝族自治州,凉山州政府,,28,22,18,9,8,88,88,102,99,4,4,6,6,0.5,0.5
2026-04-09T0000,4229A,102.2342,27.8859,凉山彝族自治州,凯乐南路30号,,29,29,19,10,7,87,87,106,100,13,9,14,6,1.1,0.6
2026-04-09T0000,2212A,123.1978,41.2036,辽阳市,宏伟区,,35,22,55,11,22,109,109,127,110,7,10,5,6,0.4,0.5
2026-04-09T0000,2213A,123.1684,41.2497,辽阳市,新华园,,34,30,59,12,25,108,108,130,109,10,15,10,9,0.3,0.5
2026-04-09T0000,2214A,123.2355,41.2663,辽阳市,滨河路,,31,28,49,10,25,98,98,114,98,12,16,5,7,0.3,0.4
2026-04-09T0000,4083A,123.153,41.2874,辽阳市,铁西路150号,,32,31,80,12,26,100,100,117,103,8,13,6,7,0.3,0.5
2026-04-09T0000,2227A,125.1359,42.8845,辽源市,环保局,颗粒物(PM10),53,53,64,27,20,101,101,120,113,9,11,6,6,0.5,0.5
2026-04-09T0000,4085A,125.0998,42.9134,辽源市,安宁大街333号,颗粒物(PM10),61,65,59,26,22,111,111,126,119,16,13,5,5,0.4,0.5
2026-04-09T0000,1625A,115.9789,36.4372,聊城市,区政府,,43,36,53,30,21,60,60,84,67,17,20,6,8,0.9,0.7
2026-04-09T0000,3200A,115.9772,36.4986,聊城市,监控中心,,43,39,57,30,24,58,58,89,66,26,23,7,9,0.8,0.6
2026-04-09T0000,3513A,116.0443,36.436,聊城市,九州社区,,46,46,57,30,22,61,61,96,74,23,20,6,8,0.6,0.5
2026-04-09T0000,4018A,116.0564,36.4609,聊城市,星美广场,,47,47,57,31,24,55,55,83,64,19,18,6,9,0.8,0.6
2026-04-09T0000,4113A,116.0091,36.4495,聊城市,利民路,细颗粒物(PM2.5),52,37,38,36,23,60,60,89,70,22,21,8,8,0.7,0.5
2026-04-09T0000,2632A,94.3683,29.6373,林芝市,林芝监测站,,35,9,8,3,4,111,111,110,109,2,2,6,5,0.4,0.4
2026-04-09T0000,2633A,94.3616,29.6634,林芝市,林芝人民医院,,37,9,10,3,5,118,118,120,NA,2,2,5,5,0.3,0.4
2026-04-09T0000,2603A,100.0779,23.8981,临沧市,市环保局,,50,NA,69,35,65,74,74,115,99,6,9,9,10,0.5,0.8
2026-04-09T0000,2604A,100.0894,23.882,临沧市,市气象局,细颗粒物(PM2.5),64,NA,65,42,68,73,73,116,98,7,9,10,10,0.6,0.7
2026-04-09T0000,1733A,111.5552,36.0791,临汾市,临钢医院,细颗粒物(PM2.5),116,80,70,77,46,44,44,93,66,25,18,6,6,1.3,0.8
2026-04-09T0000,1734A,111.4984,36.0734,临汾市,技工学校,细颗粒物(PM2.5),126,NA,65,88,56,41,41,89,63,27,17,7,6,0.9,0.6
2026-04-09T0000,1736A,111.5017,36.0857,临汾市,市委,细颗粒物(PM2.5),115,85,74,76,44,43,43,96,66,23,16,7,6,1.1,0.7
2026-04-09T0000,3018A,111.5048,36.1015,临汾市,唐尧大酒店,细颗粒物(PM2.5),117,106,84,78,43,45,45,93,63,24,18,6,6,1.1,0.7
2026-04-09T0000,4244A,111.4879,36.053,临汾市,启星学校,细颗粒物(PM2.5),104,68,70,64,48,26,26,90,60,40,20,7,6,1.0,0.7
2026-04-09T0000,4271A,103.2464,35.6123,临夏回族自治州,滨河东路1号,颗粒物(PM10),120,172,80,63,30,11,11,104,58,52,27,11,12,0.6,0.4
2026-04-09T0000,4310A,103.207136,35.599807,临夏回族自治州,新华街21号,颗粒物(PM10),81,93,68,49,33,49,49,94,73,15,13,8,9,0.4,0.7
2026-04-09T0000,1618A,118.3429,35.0532,临沂市,沂河小区,,26,24,37,14,9,83,83,93,77,8,13,8,9,0.2,0.2
2026-04-09T0000,1619A,118.2962,35.0568,临沂市,鲁南制药厂,,28,NA,33,17,11,89,89,98,83,8,14,10,10,0.3,0.2
2026-04-09T0000,1620A,118.2793,34.9976,临沂市,新光毛纺厂,,26,14,32,13,12,81,81,91,77,16,16,7,8,0.2,0.1
2026-04-09T0000,1621A,118.3955,35.0889,临沂市,河东保险公司,,27,17,36,13,11,84,84,96,79,8,16,9,9,0.3,0.3
2026-04-09T0000,3370A,118.3563,35.0215,临沂市,十里堡居委,,28,NA,29,16,12,88,88,97,79,10,17,9,10,0.4,0.4
2026-04-09T0000,3496A,118.359,35.1067,临沂市,南坊新区,,25,17,36,16,11,80,80,93,76,14,19,8,9,0.3,0.3
2026-04-09T0000,3860A,118.3915,35.0297,临沂市,皇山花园小区,,28,14,34,14,10,89,89,99,80,17,21,7,8,0.4,0.3
2026-04-09T0000,1870A,109.4854,24.3898,柳州市,柳东小学,颗粒物(PM10),61,65,50,36,34,89,89,120,108,6,10,4,5,0.8,0.8
2026-04-09T0000,1871A,109.4109,24.3304,柳州市,环保监测站,颗粒物(PM10),55,56,58,37,38,79,79,114,98,9,15,5,9,0.8,0.9
2026-04-09T0000,1872A,109.3886,24.3408,柳州市,河西水厂,颗粒物(PM10),62,66,69,37,43,79,79,119,102,9,14,6,14,0.9,1
2026-04-09T0000,1873A,109.4263,24.2951,柳州市,市四中,细颗粒物(PM2.5),56,46,61,38,39,76,76,109,95,8,12,6,9,0.7,0.8
2026-04-09T0000,1874A,109.396,24.3658,柳州市,市九中,"颗粒物(PM10),细颗粒物(PM2.5)",56,58,70,38,38,76,76,109,94,6,14,7,12,0.7,0.8
2026-04-09T0000,1875A,109.4912,24.3164,柳州市,古亭山,颗粒物(PM10),55,57,57,36,34,94,94,123,111,6,10,4,6,0.6,0.8
2026-04-09T0000,3402A,109.5422,24.3994,柳州市,市二中,细颗粒物(PM2.5),52,48,64,36,36,80,80,108,98,6,12,8,9,0.7,0.8
2026-04-09T0000,2307A,116.5078,31.7369,六安市,监测大楼,,38,26,31,26,14,71,71,90,76,6,13,4,4,0.3,0.3
2026-04-09T0000,2308A,116.4738,31.7642,六安市,皖西学院,,40,NA,37,28,14,76,76,92,77,4,11,6,6,0.3,0.3
2026-04-09T0000,2309A,116.4997,31.7904,六安市,朝阳厂,,29,NA,26,20,13,67,67,90,74,7,15,6,6,0.3,0.3
2026-04-09T0000,2310A,116.5566,31.7885,六安市,开发区,,30,NA,35,21,13,71,71,95,79,6,16,5,6,0.4,0.4
2026-04-09T0000,2577A,104.8293,26.592,六盘水市,黄土坡,,35,32,41,17,23,110,110,117,114,5,6,4,5,0.2,0.2
2026-04-09T0000,2579A,104.8481,26.5898,六盘水市,民中,,33,28,38,17,23,104,104,117,109,4,5,4,4,0.3,0.4
2026-04-09T0000,2580A,104.9541,26.5506,六盘水市,双水,,34,22,42,21,24,106,106,116,111,5,8,4,4,0.4,0.4
2026-04-09T0000,4151A,104.8899,26.5685,六盘水市,钟山大道中段564号,,40,40,69,21,23,101,101,114,108,4,5,2,2,0.1,0.2
2026-04-09T0000,2336A,117.022,25.1031,龙岩市,龙岩市监测站,,26,20,19,18,14,40,40,72,50,13,12,7,8,0.6,0.6
2026-04-09T0000,2337A,117.0257,25.0662,龙岩市,闽西职业技术学院,,20,20,20,13,12,24,24,61,41,18,12,8,7,0.6,0.7
2026-04-09T0000,2338A,117.0195,25.0306,龙岩市,龙岩学院,,25,25,25,11,13,32,32,57,37,5,11,3,3,/,/
2026-04-09T0000,2885A,104.9344,33.3827,陇南市,滨江中学,颗粒物(PM10),63,68,37,23,10,39,39,63,40,16,16,8,8,0.6,0.6
2026-04-09T0000,3247A,104.9551,33.3709,陇南市,市总工会,颗粒物(PM10),51,51,30,21,9,37,37,70,49,22,15,7,8,0.5,0.6
2026-04-09T0000,2488A,111.9984,27.7346,娄底市,市监测站,细颗粒物(PM2.5),56,54,59,38,42,48,48,57,56,10,12,5,5,0.7,0.8
2026-04-09T0000,2491A,111.9888,27.7035,娄底市,市政府,NA,NA,48,48,40,39,53,53,69,68,12,9,3,4,NA,0.8
2026-04-09T0000,4127A,111.9812,27.7591,娄底市,涟钢职大,细颗粒物(PM2.5),58,55,51,39,37,56,56,72,71,15,12,3,3,0.7,0.9
2026-04-09T0000,4128A,112.0303,27.7457,娄底市,娄底体校,颗粒物(PM10),65,70,65,35,41,57,57,61,61,2,7,4,4,0.6,0.7
2026-04-09T0000,1894A,105.4427,28.9063,泸州市,小市上码头,,25,21,18,17,15,34,34,74,62,19,15,7,7,0.9,0.8
2026-04-09T0000,1895A,105.4241,28.8573,泸州市,兰田宪桥,,28,28,23,16,12,35,35,72,55,16,14,9,8,1.1,1
2026-04-09T0000,1896A,105.4378,28.8833,泸州市,市环监站,,30,30,27,16,14,34,34,68,56,16,14,8,8,0.8,0.8
2026-04-09T0000,4272A,105.3689,28.7783,泸州市,纳溪中医医院,,36,36,23,24,18,30,30,75,58,20,14,8,7,0.8,0.7
2026-04-09T0000,2183A,111.1447,37.5212,吕梁市,环保局,,49,39,75,34,36,52,52,115,62,25,24,9,10,0.7,0.5
2026-04-09T0000,2185A,111.1285,37.5338,吕梁市,自来水公司,,45,33,71,31,36,54,54,116,63,26,23,7,8,0.8,0.6
2026-04-09T0000,2867A,111.1225,37.5093,吕梁市,马茂庄小学,,46,43,78,32,32,41,41,106,57,44,28,4,6,0.7,0.6
2026-04-09T0000,1812A,112.3934,34.6517,洛阳市,市委党校,,48,NA,54,33,44,30,30,67,31,16,20,6,7,0.7,0.7
2026-04-09T0000,1815A,112.494,34.6883,洛阳市,河南林校,,27,27,59,13,37,37,37,67,38,29,32,10,11,0.5,0.5
2026-04-09T0000,1816A,112.3843,34.623,洛阳市,开发区管委会,,33,28,67,23,46,34,34,70,36,19,24,10,12,0.7,0.7
2026-04-09T0000,1817A,112.4263,34.6249,洛阳市,市委新办公区,,43,NA,67,30,49,34,34,64,33,21,26,8,8,0.6,0.5
2026-04-09T0000,3340A,112.6005,34.6323,洛阳市,伊滨,,36,NA,59,25,47,32,32,56,34,20,25,7,8,0.6,0.6
2026-04-09T0000,3341A,112.495,34.6338,洛阳市,中移产业园,,33,28,63,23,44,27,27,57,26,24,29,8,10,0.6,0.6
2026-04-09T0000,3593A,112.5736,34.8993,洛阳市,吉利监测站,,33,NA,58,23,39,27,27,76,38,26,26,8,10,0.3,0.4
2026-04-09T0000,3635A,112.3678,34.6623,洛阳市,河科大西苑校区,,36,NA,53,25,45,37,37,78,40,21,25,8,9,0.5,0.5
2026-04-09T0000,3636A,112.4387,34.678,洛阳市,英才小学,NA,NA,NA,75,NA,49,NA,NA,67,NA,NA,28,NA,11,NA,0.8
2026-04-09T0000,4214A,112.460027,34.694929,洛阳市,春都路1号院,,36,NA,51,25,42,37,37,73,40,17,22,7,9,0.7,0.7
2026-04-09T0000,2399A,114.051,33.5721,漯河市,三五一五工厂,,28,NA,41,19,29,40,40,76,49,19,24,4,5,0.4,0.4
2026-04-09T0000,2400A,114.0055,33.5698,漯河市,漯河大学,,28,NA,39,19,28,41,41,81,49,20,25,5,6,0.5,0.5
2026-04-09T0000,2401A,114.0134,33.5826,漯河市,市水利局,,38,NA,34,26,25,40,40,78,NA,16,20,3,5,0.6,0.6
2026-04-09T0000,2402A,114.0261,33.5697,漯河市,市广电局,,30,NA,33,21,25,42,42,80,50,15,20,4,6,0.6,0.5
2026-04-09T0000,3478A,113.9691,33.568,漯河市,市图书馆,NA,NA,NA,36,20,22,35,35,79,48,21,23,6,7,NA,0.9
2026-04-09T0000,4250A,114.089259,33.588274,漯河市,韶山路11号,,26,19,39,18,23,41,41,68,45,17,24,5,6,0.5,0.6
2026-04-09T0000,1798A,118.5084,31.6838,马鞍山市,湖东路四小,颗粒物(PM10),52,52,45,20,12,87,87,118,100,18,19,8,11,0.3,0.2
2026-04-09T0000,1799A,118.5019,31.6449,马鞍山市,开发区,,48,48,54,18,12,90,90,118,102,18,23,6,9,0.4,0.4
2026-04-09T0000,3633A,118.4914,31.681,马鞍山市,雨山,颗粒物(PM10),55,57,45,17,13,92,92,119,101,14,19,6,9,0.4,0.4
2026-04-09T0000,4191A,118.527362,31.722269,马鞍山市,慈湖高新区,颗粒物(PM10),55,56,50,20,15,89,89,109,93,15,21,8,9,0.5,0.3
2026-04-09T0000,1686A,111.0285,21.469,茂名市,电白南海,,31,31,34,9,13,51,51,55,49,4,6,4,4,0.9,0.9
2026-04-09T0000,1687A,110.9294,21.6533,茂名市,茂石化七小,,31,31,40,14,20,48,48,66,47,7,8,5,5,0.5,0.6
2026-04-09T0000,1688A,110.9108,21.6688,茂名市,健康路,,22,22,31,13,20,51,51,67,50,6,8,3,4,0.6,0.6
2026-04-09T0000,1689A,110.8592,21.6826,茂名市,高岭,,27,27,47,13,21,53,53,75,52,6,7,2,3,/,/
2026-04-09T0000,3450A,111.0101,21.5165,茂名市,电白水东,,19,19,27,12,17,48,48,57,48,7,7,2,2,/,/
2026-04-09T0000,2540A,103.8414,30.0871,眉山市,气象局,细颗粒物(PM2.5),86,74,44,53,25,32,32,87,67,36,20,8,8,0.7,0.6
2026-04-09T0000,3148A,103.829,30.0563,眉山市,区人社局,细颗粒物(PM2.5),74,58,47,47,26,35,35,82,62,36,23,7,7,0.5,0.4
2026-04-09T0000,4148A,103.8836,30.0695,眉山市,眉职院,颗粒物(PM10),71,79,44,44,21,45,45,85,72,28,16,7,7,0.7,0.7
2026-04-09T0000,1690A,116.1248,24.3307,梅州市,梅江月梅,,23,23,16,10,8,51,51,76,56,10,7,/,/,/,/
2026-04-09T0000,1691A,116.0798,24.2719,梅州市,梅县新城,,22,17,13,15,10,58,58,73,64,11,8,7,8,0.5,0.5
2026-04-09T0000,3315A,116.1234,24.2994,梅州市,梅龙,,35,NA,15,24,13,52,52,76,60,11,8,10,6,0.6,0.6
2026-04-09T0000,1878A,104.7775,31.4741,绵阳市,富乐山,,29,28,13,20,8,33,33,76,60,14,7,6,6,0.7,0.6
2026-04-09T0000,1880A,104.6698,31.4668,绵阳市,高新区自来水公司,,42,42,19,20,9,29,29,79,47,17,12,6,5,0.7,0.6
2026-04-09T0000,3491A,104.6899,31.5324,绵阳市,西科大附属小学,,35,35,16,18,9,27,27,81,51,31,14,7,6,0.5,0.4
2026-04-09T0000,3492A,104.5647,31.5343,绵阳市,安州区旅游局,,38,38,16,16,8,35,35,83,58,24,9,4,5,0.5,0.4
2026-04-09T0000,4146A,104.7092,31.4972,绵阳市,科技城新区公安局,,33,33,15,16,7,36,36,76,54,23,12,7,5,0.6,0.5
2026-04-09T0000,4226A,104.765114,31.453094,绵阳市,绵阳市气象局,,34,34,17,18,8,23,23,65,47,22,14,8,7,0.6,0.5
2026-04-09T0000,1784A,129.61,44.561,牡丹江市,环保大楼,,40,40,32,17,15,84,84,98,83,12,13,3,3,0.4,0.4
2026-04-09T0000,1787A,129.6364,44.6075,牡丹江市,机车工厂,颗粒物(PM10),73,81,42,35,21,11,11,93,42,50,21,12,6,0.8,0.5
2026-04-09T0000,1788A,129.6386,44.5462,牡丹江市,第一中学,,29,29,27,18,16,77,77,98,84,16,11,6,4,0.4,0.4
2026-04-09T0000,4287A,129.5992,44.5964,牡丹江市,东晓云街98号,颗粒物(PM10),65,71,45,29,20,20,20,98,59,28,13,3,3,0.8,0.6
2026-04-09T0000,2531A,105.0703,29.61,内江市,市监测站,,31,31,17,14,8,54,54,74,66,12,9,10,9,0.6,0.6
2026-04-09T0000,2533A,105.0657,29.5807,内江市,内江二中,,25,25,30,16,8,54,54,75,67,14,9,8,8,0.3,0.3
2026-04-09T0000,2534A,105.0407,29.5828,内江市,内江日报社,,21,15,12,13,8,66,66,79,70,7,9,9,8,0.4,0.4
2026-04-09T0000,4147A,105.0433,29.6105,内江市,玉峰路西段888号,,26,26,15,17,9,60,60,78,70,11,8,9,9,0.3,0.3
2026-04-09T0000,2628A,92.0653,31.4846,那曲市,那曲监测站,,36,25,28,3,18,113,113,130,123,17,16,5,7,0.8,0.8
2026-04-09T0000,4243A,92.0515,31.4787,那曲市,那曲市委宣传部,,38,17,15,8,11,121,121,136,131,14,9,11,10,0.9,0.6
2026-04-09T0000,1291A,115.8887,28.7006,南昌市,省林业公司,,46,44,42,32,20,36,36,68,35,19,18,7,10,0.5,0.7
2026-04-09T0000,1292A,115.813,28.7443,南昌市,林科所,,38,NA,35,26,19,49,49,76,32,18,24,10,12,0.7,0.8
2026-04-09T0000,1294A,115.8518,28.687,南昌市,建工学校,,45,34,45,31,20,22,22,68,32,40,23,12,14,0.9,1.1
2026-04-09T0000,1295A,115.8926,28.6425,南昌市,象湖,细颗粒物(PM2.5),66,NA,37,43,23,6,6,69,31,46,22,8,13,1.0,1
2026-04-09T0000,3046A,115.9084,28.6062,南昌市,机电学校,NA,NA,NA,49,NA,21,16,16,69,37,34,21,5,7,0.7,0.7
2026-04-09T0000,3690A,115.9718,28.7032,南昌市,外国语学校,细颗粒物(PM2.5),52,40,42,36,20,25,25,68,36,30,23,10,13,0.7,0.6
2026-04-09T0000,4106A,115.7923,28.6873,南昌市,工业二路,,48,48,49,31,20,36,36,70,29,23,24,9,10,0.7,0.8
2026-04-09T0000,4192A,115.931587,28.686774,南昌市,南京东路235号,颗粒物(PM10),57,59,52,38,21,14,14,74,33,38,17,6,12,0.7,0.6
2026-04-09T0000,1906A,106.0791,30.8022,南充市,南充市委,,24,24,24,14,15,16,16,64,43,14,13,6,6,0.3,0.3
2026-04-09T0000,1907A,106.1038,30.8215,南充市,南充炼油厂,,25,18,26,17,15,25,25,66,48,15,10,4,4,0.3,0.2
2026-04-09T0000,4227A,106.108336,30.788436,南充市,梨树横街98号,,27,27,26,17,16,27,27,71,54,19,11,5,5,0.3,0.2
2026-04-09T0000,4304A,106.1172,30.843,南充市,清泉寺北路188号,,28,28,26,16,15,23,23,68,54,14,7,6,6,0.3,0.2
2026-04-09T0000,4305A,106.067,30.7616,南充市,同庆路1号,,29,29,23,14,15,23,23,64,46,20,14,5,5,0.4,0.3
2026-04-09T0000,1151A,118.8033,32.1085,南京市,迈皋桥,,39,39,38,18,9,88,88,126,102,25,29,8,5,0.9,0.9
2026-04-09T0000,1152A,118.7487,32.057,南京市,草场门,颗粒物(PM10),51,51,46,15,7,70,70,121,99,33,24,12,10,0.3,0.2
2026-04-09T0000,1154A,118.770105,32.004342,南京市,中华门,,44,44,45,13,7,73,73,119,97,22,16,8,6,0.4,0.3
2026-04-09T0000,1155A,118.8059,32.0329,南京市,瑞金路,,46,46,43,16,8,72,72,126,99,15,9,4,4,0.8,0.7
2026-04-09T0000,1156A,118.7946,32.0774,南京市,玄武湖,,42,42,39,14,7,82,82,125,102,12,9,10,9,0.6,0.5
2026-04-09T0000,1157A,118.6415,32.0964,南京市,浦口,,50,50,47,14,7,73,73,113,94,24,20,7,6,0.4,0.4
2026-04-09T0000,1158A,118.730129,32.000956,南京市,奥体中心,颗粒物(PM10),53,54,47,15,7,59,59,103,82,28,20,10,8,0.3,0.2
2026-04-09T0000,1159A,118.9072,32.1047,南京市,仙林大学城,,48,48,51,15,8,79,79,128,102,23,19,12,10,0.5,0.4
2026-04-09T0000,3422A,118.8443,31.919,南京市,江宁彩虹桥,,45,45,43,13,6,85,85,124,106,33,23,4,3,0.6,0.5
2026-04-09T0000,3427A,118.8497,32.3599,南京市,六合雄州,,47,47,43,14,8,65,65,119,94,33,30,4,4,0.6,0.5
2026-04-09T0000,4086A,118.7641,32.0841,南京市,新模范马路66号,NA,NA,53,51,14,6,NA,NA,128,NA,NA,11,4,4,0.3,0.3
2026-04-09T0000,4249A,118.8707617,31.34017673,南京市,汶溪路181号,,31,27,39,11,5,97,97,118,109,15,18,7,7,0.3,0.3
2026-04-09T0000,4312A,119.019,31.6512,南京市,中山西路1号,,41,41,46,16,7,61,61,94,77,29,23,3,4,0.3,0.3
2026-04-09T0000,1401A,108.3098,22.788,南宁市,二十一中,细颗粒物(PM2.5),62,42,58,41,44,94,94,115,111,10,10,4,4,0.7,0.7
2026-04-09T0000,1402A,108.3135,22.8529,南宁市,北湖,细颗粒物(PM2.5),70,58,59,45,50,96,96,116,111,8,9,3,3,0.7,0.7
2026-04-09T0000,1403A,108.3205,22.8222,南宁市,市监测站,细颗粒物(PM2.5),54,47,58,37,42,98,98,119,114,8,7,3,4,0.6,0.6
2026-04-09T0000,1404A,108.3828,22.8038,南宁市,大自然花园,细颗粒物(PM2.5),70,66,58,45,45,80,80,120,103,9,9,5,5,0.6,0.6
2026-04-09T0000,1406A,108.2397,22.8462,南宁市,区农职院,,50,50,61,32,39,103,103,113,110,8,8,5,7,0.5,0.5
2026-04-09T0000,1407A,108.3285,22.7356,南宁市,英华嘉园,细颗粒物(PM2.5),60,60,66,40,44,97,97,122,116,13,11,6,5,0.6,0.7
2026-04-09T0000,3401A,108.4829,22.762,南宁市,红星社区,细颗粒物(PM2.5),66,56,60,43,45,94,94,132,123,10,9,5,5,0.6,0.7
2026-04-09T0000,4132A,108.2927,23.1477,南宁市,起凤路9号,细颗粒物(PM2.5),68,61,65,44,49,106,106,118,115,6,8,4,5,0.6,0.7
2026-04-09T0000,4221A,108.2177,22.7774,南宁市,乐贤路16号,细颗粒物(PM2.5),52,50,60,36,42,103,103,114,109,12,13,4,5,0.6,0.6
2026-04-09T0000,2332A,118.1682,26.6371,南平市,南平市监测站,,22,22,27,12,14,42,42,89,65,15,8,4,5,0.4,0.3
2026-04-09T0000,2334A,118.1757,26.6276,南平市,南平七中,,19,19,31,13,13,49,49,88,68,12,8,2,3,0.5,0.4
2026-04-09T0000,1168A,120.9056,31.9669,南通市,狼山街道,,34,34,40,7,6,66,66,103,82,32,16,4,4,0.4,0.4
2026-04-09T0000,1170A,120.8635,32.0231,南通市,城中,,40,40,46,7,6,76,76,105,83,22,18,6,5,0.3,0.3
2026-04-09T0000,1171A,120.9376,31.9301,南通市,星湖花园,,30,30,38,9,7,83,83,101,82,19,20,4,5,0.4,0.4
2026-04-09T0000,1172A,120.8053,32.046,南通市,紫琅学院,,33,33,38,7,6,74,74,111,89,33,22,7,6,0.5,0.6
2026-04-09T0000,3291A,121.0631,32.0644,南通市,通州监测站,,27,22,31,3,5,86,86,119,105,13,10,4,4,0.4,0.3
2026-04-09T0000,3432A,120.9348,31.9874,南通市,环境教育馆,,39,39,42,6,7,85,85,106,86,16,17,5,5,0.4,0.4
2026-04-09T0000,4091A,120.8692,31.9885,南通市,洪江路,,32,32,37,8,7,74,74,101,81,25,20,7,6,0.8,0.7
2026-04-09T0000,2404A,112.5338,33.0086,南阳市,瓦房庄,,17,17,38,3,14,28,28,94,34,16,15,4,5,0.6,0.6
2026-04-09T0000,2405A,112.5002,32.9734,南阳市,汉画馆,,19,19,38,3,14,25,25,98,33,18,17,5,6,0.7,0.7
2026-04-09T0000,2406A,112.5778,33.0144,南阳市,气象站,,11,11,36,3,15,26,26,92,32,21,19,5,5,0.5,0.5
2026-04-09T0000,2407A,112.548,32.9687,南阳市,理工学院,,20,20,39,9,20,29,29,91,35,18,16,4,6,0.6,0.6
2026-04-09T0000,4008A,112.5233,32.9921,南阳市,卧龙区政府,,9,6,37,3,17,28,28,95,33,17,16,6,7,0.6,0.6
2026-04-09T0000,1234A,121.8352,29.9111,宁波市,区环保大楼,,33,29,36,3,7,105,105,100,98,7,23,6,6,0.4,0.4
2026-04-09T0000,1235A,121.5595,29.8208,宁波市,万里学院,,31,27,33,3,7,98,98,98,92,4,16,7,7,0.5,0.4
2026-04-09T0000,1236A,121.713,29.9564,宁波市,龙赛医院,,32,18,37,3,8,102,102,100,99,4,17,5,6,0.3,0.3
2026-04-09T0000,1240A,121.5855,29.8635,宁波市,太古小学,,28,23,33,3,7,89,89,98,90,10,19,3,4,0.4,0.3
2026-04-09T0000,1241A,121.5239,29.8673,宁波市,市环境监测中心,,29,29,32,6,8,88,88,88,88,9,18,6,7,0.3,0.3
2026-04-09T0000,2871A,121.6156,29.9015,宁波市,万里国际学校,,31,16,30,3,7,99,99,103,98,4,13,4,5,0.5,0.4
2026-04-09T0000,3710A,121.5593,29.8976,宁波市,白沙活动中心,,30,28,28,3,7,93,93,100,91,7,14,4,5,0.3,0.3
2026-04-09T0000,4095A,121.8962,29.7529,宁波市,中科路88号,,32,25,26,6,6,100,100,110,102,2,11,6,6,0.3,0.3
2026-04-09T0000,2341A,119.5387,26.6611,宁德市,宁德市监测站,,39,NA,27,27,15,7,7,61,24,48,30,3,4,0.5,0.4
2026-04-09T0000,3209A,119.5231,26.6562,宁德市,宁德一中,,42,NA,30,29,18,13,13,62,28,32,24,4,4,0.5,0.3
2026-04-09T0000,2618A,98.859,25.8541,怒江傈僳族自治州,州监测站,,37,37,27,20,18,30,30,68,48,14,6,8,7,0.3,0.2
2026-04-09T0000,2619A,98.8607,25.8168,怒江傈僳族自治州,泸水一中,,35,NA,22,24,19,24,24,52,36,12,16,5,5,0.5,0.5
2026-04-09T0000,1888A,101.6891,26.571,攀枝花市,弄弄坪,,30,NA,28,12,15,94,94,100,90,7,16,3,18,0.5,1.3
2026-04-09T0000,1889A,101.577,26.5914,攀枝花市,河门口,,28,24,29,13,14,87,87,108,101,6,10,5,8,0.5,0.6
2026-04-09T0000,1891A,101.7365,26.4986,攀枝花市,仁和,,26,24,26,17,18,82,82,111,98,7,8,5,5,0.5,0.5
2026-04-09T0000,2835A,101.7222,26.567,攀枝花市,四十中小,,30,21,23,10,12,96,96,113,105,9,12,5,7,0.6,0.7
2026-04-09T0000,1604A,122.0303,41.1489,盘锦市,开发区,,35,35,45,12,21,107,107,135,123,10,11,6,6,0.2,0.3
2026-04-09T0000,1605A,122.0486,41.0883,盘锦市,兴隆台,,38,38,43,15,23,92,92,123,109,17,14,8,7,0.4,0.4
2026-04-09T0000,1606A,121.8297,41.1026,盘锦市,新生街道,,30,28,32,11,18,94,94,124,112,13,14,6,7,0.3,0.4
2026-04-09T0000,1832A,113.3257,33.7423,平顶山市,新华旅馆,,27,27,49,17,24,31,31,71,25,16,21,3,5,0.5,0.5
2026-04-09T0000,1833A,113.2917,33.737,平顶山市,规划设计院,,20,18,44,14,22,30,30,71,27,15,21,4,6,0.6,0.6
2026-04-09T0000,1834A,113.182,33.7738,平顶山市,平顶山工学院,,25,17,39,17,24,22,22,83,29,21,19,6,7,0.4,0.4
2026-04-09T0000,3594A,112.8736,33.9068,平顶山市,石龙区,,20,17,43,14,27,29,29,65,27,17,18,6,7,0.4,0.7
2026-04-09T0000,4116A,113.284,33.7139,平顶山市,姚电大道23号,,23,22,50,16,25,30,30,74,27,19,23,3,5,0.7,0.6
2026-04-09T0000,2656A,106.6633,35.5338,平凉市,聚贤嘉苑,颗粒物(PM10),61,65,68,34,35,19,19,97,53,36,17,8,9,0.5,0.8
2026-04-09T0000,2657A,106.7021,35.5307,平凉市,博物馆,颗粒物(PM10),63,67,76,38,34,14,14,101,56,46,15,12,13,0.7,0.6
2026-04-09T0000,2348A,113.8384,27.6436,萍乡市,中医院,,29,29,40,18,30,13,13,56,30,18,12,4,4,0.8,0.9
2026-04-09T0000,2350A,113.8677,27.6438,萍乡市,市环保局,NA,NA,30,43,NA,33,NA,NA,51,31,9,8,3,9,0.7,1
2026-04-09T0000,2351A,113.8663,27.6202,萍乡市,安源区政府,,45,34,43,31,29,72,72,41,34,3,11,4,6,0.2,0.5
2026-04-09T0000,4107A,113.8686,27.6668,萍乡市,联洪村委会,,35,35,48,22,30,18,18,55,27,10,6,2,2,0.4,0.5
2026-04-09T0000,2319A,119.0142,25.4324,莆田市,荔城区仓后路,,26,25,36,18,13,58,58,92,65,9,13,/,/,/,/
2026-04-09T0000,2320A,119.0016,25.4553,莆田市,莆田市监测站,,20,20,24,9,7,45,45,101,72,4,6,2,2,0.4,0.3
2026-04-09T0000,2321A,119.112,25.4561,莆田市,涵江区六中,,36,36,36,17,14,14,14,93,46,46,18,/,/,0.7,0.6
2026-04-09T0000,2322A,119.1014,25.3215,莆田市,秀屿区政府,,40,33,37,28,15,55,55,101,71,15,12,4,4,0.5,0.5
2026-04-09T0000,2392A,115.0312,35.7636,濮阳市,环保局,,35,NA,36,24,24,45,45,72,47,20,22,3,4,0.6,0.5
2026-04-09T0000,3021A,115,35.7667,濮阳市,濮水河管理处,,32,27,48,22,24,46,46,84,50,10,10,3,3,0.7,0.7
2026-04-09T0000,4118A,115.0552,35.7816,濮阳市,中原东路68号,,35,35,42,21,23,48,48,76,49,18,18,1,3,0.4,0.4
2026-04-09T0000,4216A,115.0923632,35.76857718,濮阳市,任丘路479号,,46,46,54,28,25,49,49,67,46,18,13,2,4,0.8,0.6
2026-04-09T0000,2601A,100.9801,22.7634,普洱市,市环保局,颗粒物(PM10),59,62,54,34,27,109,109,122,113,7,9,5,6,0.7,0.7
2026-04-09T0000,2602A,100.9763,22.8237,普洱市,普洱第二中学,颗粒物(PM10),63,68,56,41,30,105,105,119,112,10,16,5,5,0.7,0.6
2026-04-09T0000,3345A,131.0413,45.7795,七台河市,中波台,颗粒物(PM10),121,174,39,30,13,114,114,107,107,5,5,3,4,0.4,0.4
2026-04-09T0000,3637A,131.0136,45.7688,七台河市,人民广场,颗粒物(PM10),126,186,39,20,11,109,109,102,102,9,10,9,8,0.6,0.5
2026-04-09T0000,3684A,130.8639,45.8144,七台河市,新建矿广场,颗粒物(PM10),192,334,48,33,13,NA,NA,98,NA,14,11,9,8,0.3,0.5
2026-04-09T0000,1779A,123.9307,47.3641,齐齐哈尔市,安居小区,,25,9,40,3,13,78,78,90,87,2,7,3,10,0.1,0.3
2026-04-09T0000,1780A,123.9497,47.3389,齐齐哈尔市,中心广场,,25,15,40,3,13,77,77,86,84,8,10,2,5,0.4,0.5
2026-04-09T0000,1781A,123.9483,47.3229,齐齐哈尔市,农牧车辆厂,,26,14,43,7,12,82,82,91,90,4,8,6,8,0.1,0.1
2026-04-09T0000,1783A,123.9442,47.2994,齐齐哈尔市,市环境监测站,,24,21,49,3,13,76,76,90,86,8,8,2,3,0.2,0.2
2026-04-09T0000,3662A,123.6341,47.2079,齐齐哈尔市,富区青少年活动中心,,23,10,50,3,14,71,71,86,80,4,12,3,8,0.2,0.7
2026-04-09T0000,2591A,107.9765,26.5724,黔东南苗族侗族自治州,市环境监测站,细颗粒物(PM2.5),107,81,56,67,39,123,123,116,116,4,6,2,2,0.7,0.7
2026-04-09T0000,2881A,107.8909,26.531,黔东南苗族侗族自治州,凯里学院,细颗粒物(PM2.5),108,90,68,68,40,106,106,103,103,3,4,2,2,1.0,0.9
2026-04-09T0000,2593A,107.5223,26.2371,黔南布依族苗族自治州,小围寨,细颗粒物(PM2.5),107,70,50,67,42,128,128,129,129,7,6,8,6,0.9,0.8
2026-04-09T0000,3538A,107.5175,26.2977,黔南布依族苗族自治州,沙坝,细颗粒物(PM2.5),107,70,51,67,38,100,100,101,101,6,5,5,4,1.1,1
2026-04-09T0000,2589A,104.9022,25.0943,黔西南布依族苗族自治州,场坝街,,33,28,40,19,30,105,105,125,112,4,7,5,5,0.3,0.4
2026-04-09T0000,2590A,104.8812,25.0994,黔西南布依族苗族自治州,坪东大道,,33,24,34,16,31,105,105,126,112,5,11,3,3,0.3,0.4
2026-04-09T0000,2502A,108.6238,21.9667,钦州市,市环保站,颗粒物(PM10),51,51,56,34,36,46,46,129,90,14,11,4,5,0.7,0.6
2026-04-09T0000,2503A,108.655,21.9481,钦州市,沙埠小学,颗粒物(PM10),60,63,66,30,39,35,35,129,96,24,14,6,6,0.8,0.8
2026-04-09T0000,2504A,108.5989,21.7435,钦州市,港区一小,颗粒物(PM10),53,53,73,30,41,51,51,111,86,11,17,2,4,0.5,0.8
2026-04-09T0000,3404A,108.5959,21.9634,钦州市,北职校,,50,NA,67,35,43,46,46,121,96,16,14,6,8,0.6,0.6
2026-04-09T0000,1046A,119.5247,39.9346,秦皇岛市,建设大厦,颗粒物(PM10),53,54,64,12,22,110,110,130,124,3,15,4,13,0.3,0.8
2026-04-09T0000,3132A,119.5979,39.938,秦皇岛市,文明里,颗粒物(PM10),57,59,59,19,20,98,98,119,116,21,25,10,15,0.2,0.7
2026-04-09T0000,4066A,119.7458,39.9952,秦皇岛市,南园路157号,颗粒物(PM10),53,54,59,18,22,102,102,116,114,16,24,8,13,0.3,0.7
2026-04-09T0000,4067A,119.5131,39.8858,秦皇岛市,翠岛大街1号,颗粒物(PM10),55,56,52,12,23,104,104,119,114,10,23,8,13,0.3,0.7
2026-04-09T0000,4198A,119.509013,39.825305,秦皇岛市,北戴河轮滑馆,,50,50,53,14,20,106,106,115,114,11,22,8,12,0.3,0.7
2026-04-09T0000,1310A,120.404,36.0625,青岛市,市南区东部子站,,31,27,25,12,7,99,99,101,97,4,8,10,10,0.3,0.4
2026-04-09T0000,1311A,120.362344,36.10282,青岛市,四方区子站,,33,29,28,10,9,105,105,105,101,8,12,5,6,0.5,0.5
2026-04-09T0000,1312A,120.294373,36.054183,青岛市,市南区西部子站,,31,29,24,6,4,98,98,91,91,13,18,4,4,0.4,0.4
2026-04-09T0000,1313A,120.4581,36.0858,青岛市,崂山区子站,,34,31,23,12,7,107,107,109,104,10,13,7,8,0.3,0.3
2026-04-09T0000,1315A,120.3945,36.3083,青岛市,城阳区子站,,38,27,33,14,7,119,119,114,112,10,15,5,6,0.5,0.5
2026-04-09T0000,3642A,120.3454,36.0735,青岛市,市北区南部,,35,35,23,8,6,108,108,108,104,6,10,2,3,0.4,0.4
2026-04-09T0000,3643A,120.3897,36.18,青岛市,李沧区北部,,33,29,31,13,8,103,103,102,99,10,14,8,8,0.4,0.4
2026-04-09T0000,4110A,120.5222,36.4089,青岛市,盟旺路653号,,34,24,28,9,9,107,107,121,106,2,7,3,3,0.5,0.5
2026-04-09T0000,4290A,120.196923,35.954556,青岛市,珠江路669号,,35,27,27,11,7,110,110,107,107,5,9,4,4,0.4,0.4
2026-04-09T0000,4291A,120.0424,35.8656,青岛市,黄岛区人民政府广场,,35,27,26,12,7,112,112,109,109,8,9,7,7,0.4,0.4
2026-04-09T0000,1703A,113.0218,23.7086,清远市,凤城街办,,46,46,35,19,16,38,38,61,48,22,20,/,/,/,/
2026-04-09T0000,3025A,113.0479,23.6343,清远市,技师学院,,48,48,39,16,15,41,41,66,54,23,19,5,4,0.4,0.4
2026-04-09T0000,3318A,112.9898,23.7403,清远市,清新太和,,45,45,37,18,18,43,43,66,NA,21,22,7,6,0.5,0.6
2026-04-09T0000,3455A,113.076,23.72,清远市,清城东城,颗粒物(PM10),53,53,43,18,17,50,50,68,56,16,19,/,/,/,/
2026-04-09T0000,2661A,107.6325,35.7357,庆阳市,庆阳五中,,35,35,49,21,23,60,60,95,66,7,12,4,4,0.5,0.5
2026-04-09T0000,2662A,107.6361,35.7067,庆阳市,市环保局,,36,35,49,25,25,69,69,100,74,11,14,4,4,0.6,0.6
2026-04-09T0000,1916A,103.7897,25.5036,曲靖市,环境监测站,,35,33,46,24,26,96,96,128,107,9,10,4,5,0.4,0.5
2026-04-09T0000,1917A,103.8013,25.5357,曲靖市,烟厂办公区,,39,39,47,25,25,82,82,117,94,10,9,8,7,0.7,0.6
2026-04-09T0000,3376A,103.7926,25.4651,曲靖市,南苑二区,,41,41,42,26,26,95,95,122,103,7,7,5,4,0.4,0.4
2026-04-09T0000,3377A,103.7442,25.5259,曲靖市,曲靖师范学院,,41,41,52,28,33,95,95,127,104,10,13,2,6,0.3,0.4
2026-04-09T0000,1264A,118.8694,28.94,衢州市,环保大楼,颗粒物(PM10),55,56,39,28,17,36,36,100,62,36,25,/,/,/,/
2026-04-09T0000,1266A,118.8622,28.9809,衢州市,衢州学院,颗粒物(PM10),56,58,33,28,14,2,2,98,55,63,25,6,6,0.5,0.3
2026-04-09T0000,4097A,118.9646,28.9832,衢州市,衢州三中,颗粒物(PM10),52,52,38,25,14,5,5,97,50,65,27,7,7,0.5,0.4
2026-04-09T0000,1611A,118.5818,24.9116,泉州市,涂山街,NA,NA,NA,NA,23,16,45,45,76,62,14,10,3,3,0.6,0.5
2026-04-09T0000,1612A,118.597,24.8976,泉州市,津头埔,,44,44,37,27,17,46,46,81,63,16,13,3,2,0.6,0.5
2026-04-09T0000,1613A,118.6669,24.9422,泉州市,万安,,41,41,38,24,17,37,37,74,56,21,13,3,3,0.5,0.4
2026-04-09T0000,4105A,118.6355,24.9148,泉州市,霞新路6号,,41,41,31,22,16,45,45,76,59,11,13,/,/,0.4,0.4
2026-04-09T0000,2626A,88.8873,29.2723,日喀则市,日喀则监测站,,39,24,17,9,5,123,123,135,133,4,5,8,9,0.4,0.4
2026-04-09T0000,3726A,88.8775,29.2425,日喀则市,林业技术推广中心,,39,22,23,6,4,122,122,133,132,4,6,8,7,0.3,0.3
2026-04-09T0000,1659A,119.4711,35.421,日照市,监测站,,37,24,26,11,6,118,118,108,108,10,14,7,8,0.4,0.5
2026-04-09T0000,1660A,119.523,35.4216,日照市,市政府广场,,38,24,27,7,6,119,119,109,109,10,14,6,6,0.4,0.4
2026-04-09T0000,1661A,119.5511,35.4113,日照市,港务局,,39,34,32,10,5,123,123,114,114,10,13,4,4,0.5,0.5
2026-04-09T0000,3507A,119.5326,35.4627,日照市,职业技术学院,,39,34,26,8,4,123,123,117,117,5,7,6,6,0.5,0.5
2026-04-09T0000,3604A,119.3267,35.1043,日照市,岚山环保分局,,38,22,36,12,8,119,119,106,106,13,17,8,9,0.5,0.6
2026-04-09T0000,1835A,111.1922,34.7752,三门峡市,市政府,,13,13,44,3,34,34,34,89,44,18,17,8,9,0.6,0.6
2026-04-09T0000,1836A,111.1588,34.794,三门峡市,开发区,,20,16,69,14,40,33,33,80,46,20,17,9,10,0.6,0.5
2026-04-09T0000,3039A,111.1911,34.7829,三门峡市,三门峡市第一小学,,25,NA,48,17,36,36,36,92,47,16,17,11,13,0.5,0.6
2026-04-09T0000,3598A,111.1031,34.719,三门峡市,富达温泉假日酒店,,20,20,62,13,46,24,24,88,40,32,20,17,16,0.6,0.6
2026-04-09T0000,2324A,117.621,26.2626,三明市,三钢,,30,28,36,21,21,32,32,90,49,20,10,5,6,0.4,0.3
2026-04-09T0000,2325A,117.6352,26.2714,三明市,三明二中,,32,32,41,22,19,28,28,84,49,16,10,2,3,0.6,0.4
2026-04-09T0000,2326A,117.6028,26.2377,三明市,三元区政府,,42,42,38,24,21,5,5,90,42,32,13,5,7,0.7,0.5
2026-04-09T0000,1877A,109.4962,18.2682,三亚市,河西子站,,32,32,40,20,26,67,67,90,67,3,6,4,4,0.4,0.5
2026-04-09T0000,3540A,109.7348,18.3443,三亚市,君悦子站,,26,24,39,18,22,64,64,79,62,6,8,3,3,0.6,0.5
2026-04-09T0000,4135A,109.1714,18.3739,三亚市,城东小学站,,36,36,46,17,27,72,72,93,71,4,7,/,/,/,/
2026-04-09T0000,2624A,91.7592,29.234,山南市,山南监测站,,38,6,12,3,3,120,120,133,131,1,4,8,9,0.2,0.2
2026-04-09T0000,2625A,91.7701,29.2436,山南市,山南人民医院,,37,10,13,3,3,116,116,132,129,1,4,9,9,0.3,0.3
2026-04-09T0000,1674A,116.6795,23.3666,汕头市,金平子站,颗粒物(PM10),58,61,35,33,18,80,80,102,96,17,13,4,4,0.6,0.6
2026-04-09T0000,1675A,116.7248,23.3632,汕头市,龙湖子站,,50,50,33,31,18,88,88,100,96,12,12,5,5,/,/
2026-04-09T0000,1676A,116.7257,23.2774,汕头市,濠江子站,颗粒物(PM10),54,55,35,24,17,83,83,104,99,13,11,7,7,/,/
2026-04-09T0000,1677A,116.7518,23.4712,汕头市,澄海子站,,50,50,36,30,19,84,84,101,95,9,10,6,7,0.6,0.6
2026-04-09T0000,1678A,116.6088,23.2539,汕头市,潮阳子站,颗粒物(PM10),53,54,31,29,18,86,86,108,102,11,9,5,5,0.4,0.4
2026-04-09T0000,3444A,116.4539,23.2684,汕头市,潮南峡山,颗粒物(PM10),73,82,40,27,19,79,79,102,97,12,9,6,6,0.6,0.6
2026-04-09T0000,3624A,116.4069,23.2533,汕头市,潮南子站,颗粒物(PM10),75,85,43,28,19,76,76,96,91,12,9,7,6,/,/
2026-04-09T0000,1693A,115.3653,22.7751,汕尾市,市环保局,,49,49,32,21,17,94,94,104,101,6,7,5,5,0.5,0.4
2026-04-09T0000,1695A,115.362,22.7926,汕尾市,新城中学,,38,38,26,21,17,92,92,107,104,7,8,5,6,0.3,0.3
2026-04-09T0000,2645A,109.9155,33.8714,商洛市,监测站,,33,33,62,23,34,35,35,124,60,21,15,6,7,0.8,0.7
2026-04-09T0000,3045A,109.9647,33.8486,商洛市,商州区中学,,50,38,52,35,35,29,29,140,40,42,21,8,7,0.8,0.7
2026-04-09T0000,2408A,115.6701,34.4283,商丘市,环境监测站,,39,27,40,27,23,55,55,67,62,12,14,3,4,0.5,0.5
2026-04-09T0000,2409A,115.6458,34.4047,商丘市,粮食局,细颗粒物(PM2.5),84,NA,34,52,26,58,58,70,65,14,16,2,3,0.4,0.4
2026-04-09T0000,3171A,115.6069,34.4465,商丘市,梁园区档案局,,42,NA,36,29,23,53,53,74,63,16,19,2,5,0.4,0.3
2026-04-09T0000,4119A,115.6701,34.3767,商丘市,北海东路185号,,42,42,48,26,22,58,58,65,63,16,19,4,5,0.3,0.3
2026-04-09T0000,4120A,115.6172,34.3704,商丘市,中山大街3号,,42,41,47,29,23,63,63,70,66,13,16,3,5,0.4,0.4
2026-04-09T0000,1141A,121.401,31.2382,上海市,普陀,,37,37,39,13,12,93,93,111,99,14,19,6,6,0.4,0.4
2026-04-09T0000,1142A,121.4774,31.2043,上海市,十五厂,,35,35,40,12,13,94,94,106,96,12,21,5,6,0.5,0.5
2026-04-09T0000,1143A,121.4673,31.3011,上海市,虹口,,34,34,34,12,11,93,93,108,96,13,21,9,7,0.4,0.4
2026-04-09T0000,1147A,121.4253,31.226,上海市,静安监测站,,34,34,33,13,11,99,99,114,103,15,22,8,8,0.5,0.4
2026-04-09T0000,1148A,121.7029,31.1905,上海市,浦东川沙,,36,36,36,11,10,93,93,109,100,12,20,6,7,0.7,0.6
2026-04-09T0000,1149A,121.5339,31.229,上海市,浦东新区监测站,,34,34,32,11,10,91,91,105,94,9,16,5,6,0.3,0.3
2026-04-09T0000,1150A,121.5776,31.2038,上海市,浦东张江,,35,35,35,11,10,101,101,115,102,10,18,6,6,0.2,0.2
2026-04-09T0000,3265A,121.4242,31.3303,上海市,宝山庙行,,42,42,37,10,12,95,95,111,98,11,19,6,6,0.5,0.5
2026-04-09T0000,3266A,121.8789,31.4662,上海市,崇明上实东滩,,30,25,21,10,8,96,96,112,103,10,11,8,8,0.2,0.2
2026-04-09T0000,3268A,121.316,31.2839,上海市,嘉定南翔,,34,34,33,11,11,80,80,106,89,16,19,5,5,0.4,0.3
2026-04-09T0000,3269A,121.3357,30.7455,上海市,金山新城,,33,33,29,13,11,93,93,114,94,8,13,4,5,0.7,0.6
2026-04-09T0000,3270A,121.4996,31.0741,上海市,闵行浦江,,33,33,32,10,11,92,92,111,98,9,13,6,7,0.3,0.2
2026-04-09T0000,3271A,121.2886,31.1663,上海市,青浦徐泾,,35,35,33,13,11,95,95,122,104,12,17,5,6,0.4,0.4
2026-04-09T0000,3272A,121.2193,31.0382,上海市,松江图书馆,,34,34,36,12,12,90,90,117,95,14,20,8,7,0.4,0.4
2026-04-09T0000,3273A,121.3904,31.206,上海市,长宁仙霞,,38,38,35,12,12,88,88,111,97,14,17,6,5,0.3,0.2
2026-04-09T0000,3274A,121.7964,31.0507,上海市,浦东惠南,,35,35,34,11,10,90,90,107,94,12,19,5,6,0.6,0.5
2026-04-09T0000,3544A,121.4891,30.925,上海市,奉贤南桥新城,,38,38,36,10,10,94,94,120,101,6,11,7,8,0.4,0.4
2026-04-09T0000,4183A,121.417401,31.16637,上海市,冠生园路458号,,33,33,30,12,12,87,87,110,98,17,17,8,8,0.4,0.4
2026-04-09T0000,4205A,121.541914,31.268301,上海市,宁武路151号,,45,45,51,11,12,93,93,102,94,11,25,8,8,0.2,0.2
2026-04-09T0000,2382A,117.9758,28.4439,上饶市,市监测站,,33,33,48,16,12,46,46,91,68,25,10,7,5,/,/
2026-04-09T0000,2383A,117.9521,28.4637,上饶市,凤凰光学,,30,30,38,18,14,50,50,80,63,19,21,18,10,0.4,0.4
2026-04-09T0000,3685A,117.897,28.4316,上饶市,双创科技城,,37,37,40,17,14,61,61,90,75,15,16,12,9,0.3,0.3
2026-04-09T0000,4211A,118.190438,28.444845,上饶市,裕丰大道,,23,23,26,14,9,72,72,102,76,6,6,11,9,0.4,0.4
2026-04-09T0000,1669A,113.5821,24.7733,韶关市,市八中,,37,37,44,20,21,62,62,72,70,13,18,6,9,0.5,0.7
2026-04-09T0000,1671A,113.5916,24.7973,韶关市,园林处,,34,34,33,21,23,58,58,76,74,13,18,6,8,/,/
2026-04-09T0000,1673A,113.5971,24.6864,韶关市,曲江监测站,,37,37,40,18,19,50,50,60,57,14,20,5,9,0.5,0.9
