timepoint,stationcode,longitude,latitude,area,positionname,primarypollutant,aqi,pm10,pm10_24h,pm2_5,pm2_5_24h,o3,o3_24h,o3_8h,o3_8h_24h,no2,no2_24h,so2,so2_24h,co,co_24h
2026-04-09T2200,2568A,102.2503,31.8896,阿坝藏族羌族自治州,马师校,,33,23,20,3,8,104,104,123,121,9,5,5,5,0.3,0.3
2026-04-09T2200,3994A,102.2174,31.9016,阿坝藏族羌族自治州,马尔康中学西区,,30,30,13,6,6,96,96,115,112,7,5,3,4,0.2,0.2
2026-04-09T2200,2695A,80.2899,41.1684,阿克苏地区,电视台,颗粒物(PM10),120,170,199,64,72,89,89,119,117,26,25,4,4,0.5,0.6
2026-04-09T2200,2696A,80.2592,41.1541,阿克苏地区,艺术中心,颗粒物(PM10),121,173,193,69,82,68,68,120,116,44,30,4,4,0.6,0.5
2026-04-09T2200,2205A,105.699,38.8409,阿拉善盟,蒙二幼,颗粒物(PM10),64,69,122,19,33,79,79,107,91,7,6,8,8,0.5,0.5
2026-04-09T2200,2206A,105.7198,38.8508,阿拉善盟,环保局新楼,颗粒物(PM10),59,62,110,14,32,90,90,105,90,4,4,8,8,0.5,0.5
2026-04-09T2200,2708A,88.1266,47.8515,阿勒泰地区,市站,,35,22,19,8,3,111,111,115,114,3,8,5,5,0.1,0.2
2026-04-09T2200,4166A,88.1198,47.7931,阿勒泰地区,阿勒泰路33号,,30,29,18,3,2,96,96,111,109,9,5,6,6,0.2,0.3
2026-04-09T2200,2630A,80.1171,32.4999,阿里地区,阿里监测站,臭氧1小时(O3_1h),68,11,8,3,4,174,174,182,182,2,3,7,7,0.4,0.4
2026-04-09T2200,3192A,80.0906,32.5029,阿里地区,阿里藏医院,臭氧1小时(O3_1h),73,9,7,3,2,178,178,185,185,1,2,8,8,0.4,0.4
2026-04-09T2200,2644A,109.0088,32.6974,安康市,汉滨区检察院,,28,28,25,13,16,19,19,70,59,19,10,5,5,0.5,0.5
2026-04-09T2200,4054A,109.0324,32.6913,安康市,市邮政管理局,,36,36,30,18,18,24,24,71,58,21,12,12,5,0.7,0.7
2026-04-09T2200,2291A,117.0806,30.5181,安庆市,环科院,,21,9,26,8,15,67,67,94,72,21,23,5,6,0.4,0.5
2026-04-09T2200,2292A,117.0331,30.5118,安庆市,马山宾馆,,24,12,23,12,14,74,74,84,68,7,15,6,6,0.6,0.6
2026-04-09T2200,2294A,116.9897,30.6146,安庆市,安庆大学,,21,12,24,11,13,67,67,94,80,14,11,3,5,0.3,0.4
2026-04-09T2200,3173A,117.0598,30.5351,安庆市,市人大,,25,12,29,12,14,80,80,94,82,11,19,8,10,0.4,0.5
2026-04-09T2200,3123A,105.9408,26.2431,安顺市,凤凰山,,38,25,22,25,18,121,121,150,144,11,8,6,7,0.3,0.3
2026-04-09T2200,3124A,105.9443,26.2567,安顺市,金钟山,,37,21,20,18,18,116,116,142,137,9,7,6,6,0.5,0.5
2026-04-09T2200,3125A,105.8983,26.248,安顺市,娄家坡,,35,25,25,23,18,112,112,144,137,10,6,9,7,0.4,0.4
2026-04-09T2200,1819A,114.3552,36.1017,安阳市,红庙街,细颗粒物(PM2.5),84,62,33,52,46,36,36,78,68,27,17,2,2,0.5,0.5
2026-04-09T2200,1820A,114.361,36.0681,安阳市,银杏小区,细颗粒物(PM2.5),105,NA,36,65,43,32,32,76,67,25,13,2,3,0.5,0.4
2026-04-09T2200,3141A,114.3921,36.0879,安阳市,信访局,细颗粒物(PM2.5),98,NA,34,59,46,38,38,80,70,23,13,1,2,0.7,0.6
2026-04-09T2200,3669A,114.4706,36.0634,安阳市,左辅环卫站,细颗粒物(PM2.5),96,78,55,58,47,34,34,75,64,24,14,3,2,0.6,0.6
2026-04-09T2200,4117A,114.2918,36.0769,安阳市,钢三路198号,细颗粒物(PM2.5),96,NA,43,58,44,44,44,78,71,21,14,2,2,0.6,0.6
2026-04-09T2200,1748A,123.0441,41.1201,鞍山市,深沟寺,细颗粒物(PM2.5),96,109,33,58,16,28,28,99,73,51,17,10,9,1.0,0.6
2026-04-09T2200,1749A,123.011,41.0931,鞍山市,太阳城,细颗粒物(PM2.5),96,99,34,58,18,37,37,108,79,42,12,11,7,0.9,0.5
2026-04-09T2200,1750A,123.0483,41.1445,鞍山市,太平,NA,NA,111,44,60,20,38,38,91,60,43,21,14,10,NA,0.8
2026-04-09T2200,1751A,122.964,41.0968,鞍山市,铁西三道街,细颗粒物(PM2.5),109,108,44,69,21,24,24,109,74,62,21,63,9,2.4,0.7
2026-04-09T2200,1753A,123.0219,41.0822,鞍山市,明达新区,细颗粒物(PM2.5),88,85,33,54,17,37,37,107,79,40,14,10,8,0.9,0.5
2026-04-09T2200,4201A,122.944647,41.082639,鞍山市,兴盛南路290号,颗粒物(PM10),105,133,48,62,21,24,24,102,74,61,21,51,10,1.6,0.6
2026-04-09T2200,2195A,107.4206,40.7609,巴彦淖尔市,附二中,颗粒物(PM10),57,59,228,15,67,84,84,97,92,10,5,12,11,0.4,0.3
2026-04-09T2200,2196A,107.37,40.7372,巴彦淖尔市,市环保大楼,颗粒物(PM10),60,63,216,20,74,54,54,97,88,28,7,8,7,0.4,0.2
2026-04-09T2200,1956A,86.1476,41.7529,巴音郭楞蒙古自治州,孔雀公园,颗粒物(PM10),51,51,105,14,29,105,105,122,119,15,22,12,11,0.4,0.4
2026-04-09T2200,1957A,86.1971,41.7166,巴音郭楞蒙古自治州,棉纺厂,NA,NA,NA,130,NA,37,105,105,124,121,12,22,/,/,/,/
2026-04-09T2200,1958A,86.236,41.7172,巴音郭楞蒙古自治州,经济开发区,颗粒物(PM10),51,51,86,18,28,107,107,117,116,3,7,8,8,0.2,0.4
2026-04-09T2200,3181A,106.776805,31.852614,巴中市,市五中,,37,37,23,25,12,15,15,54,51,20,13,8,8,0.7,0.7
2026-04-09T2200,3183A,106.7419,31.8654,巴中市,圣泉水务公司,,40,40,20,23,11,3,3,54,47,37,17,8,8,0.8,0.7
2026-04-09T2200,3616A,106.7617,31.8343,巴中市,市中心医院,,45,45,23,24,13,16,16,59,55,25,13,9,8,0.7,0.6
2026-04-09T2200,2235A,122.7909,45.608,白城市,洮北区环保局,,29,29,32,17,10,87,87,99,93,14,15,7,5,0.2,0.2
2026-04-09T2200,2236A,122.8741,45.5725,白城市,市环保局,,28,22,32,19,10,73,73,89,76,19,19,5,6,0.1,0.1
2026-04-09T2200,2231A,126.4219,41.9172,白山市,喜丰,,42,42,63,23,25,80,80,111,105,22,21,8,9,0.9,0.7
2026-04-09T2200,2232A,126.4082,41.9416,白山市,环保局,,49,NA,43,34,23,84,84,113,109,19,19,11,10,0.9,0.7
2026-04-09T2200,2647A,104.1727,36.5448,白银市,第三小学,颗粒物(PM10),68,74,96,15,30,91,91,114,111,10,9,7,8,0.3,0.4
2026-04-09T2200,2648A,104.1467,36.5482,白银市,动力公司,,30,28,99,17,28,95,95,110,105,8,9,4,6,0.2,0.4
2026-04-09T2200,2512A,106.6102,23.901,百色市,市监测站,NA,NA,57,60,37,46,NA,NA,133,121,16,12,11,16,0.5,0.8
2026-04-09T2200,2513A,106.6524,23.8842,百色市,市中心血站,,46,NA,70,32,50,114,114,140,123,10,14,15,15,0.7,1
2026-04-09T2200,4133A,106.6273,23.8798,百色市,龙景西路,细颗粒物(PM2.5),60,57,84,40,51,106,106,151,133,19,16,17,20,0.7,0.8
2026-04-09T2200,2270A,117.396,32.9389,蚌埠市,工人疗养院,,44,44,59,26,39,56,56,58,58,17,22,4,5,0.5,0.4
2026-04-09T2200,2271A,117.3606,32.9428,蚌埠市,百货大楼,,33,32,45,23,32,56,56,58,58,11,18,5,6,0.5,0.5
2026-04-09T2200,2273A,117.4183,32.8909,蚌埠市,蚌埠学院,,30,27,39,21,31,51,51,63,61,10,22,4,5,0.5,0.5
2026-04-09T2200,2274A,117.3534,32.9672,蚌埠市,淮上区政府,,38,34,49,26,40,57,57,60,60,16,21,4,5,0.4,0.4
2026-04-09T2200,2275A,117.3143,32.8977,蚌埠市,高新区,,39,39,44,26,36,42,42,54,52,12,17,6,7,0.5,0.5
2026-04-09T2200,3715A,117.3091,32.9314,蚌埠市,蚌埠田家炳中学,,43,43,52,27,35,46,46,60,58,18,18,4,5,0.4,0.4
2026-04-09T2200,1585A,109.8761,40.6533,包头市,市环境监测站,NA,NA,23,74,17,30,NA,NA,95,95,30,22,6,9,0.5,0.5
2026-04-09T2200,1587A,109.9992,40.5843,包头市,包头八中,,31,31,66,20,35,35,35,88,79,52,21,9,14,0.7,0.6
2026-04-09T2200,1589A,109.8641,40.6288,包头市,惠龙物流,,24,23,73,12,29,76,76,90,89,22,18,10,9,0.6,0.5
2026-04-09T2200,1590A,110.0376,40.5546,包头市,东河鸿龙湾,,33,NA,61,23,33,53,53,87,79,40,29,10,16,0.6,0.6
2026-04-09T2200,3283A,109.9154,40.5684,包头市,滨河大厦,,35,32,61,24,31,56,56,92,87,37,24,13,11,0.6,0.6
2026-04-09T2200,3419A,109.9449,40.6259,包头市,包头市委党校,,26,23,58,10,20,83,83,88,88,16,20,6,9,0.4,0.6
2026-04-09T2200,3683A,109.8332,40.6577,包头市,昆区政府,,22,22,72,10,27,69,69,95,92,37,24,6,6,0.9,0.7
2026-04-09T2200,1931A,107.0802,34.3129,宝鸡市,竹园沟,颗粒物(PM10),64,69,64,20,38,60,60,115,100,21,13,7,7,0.4,0.5
2026-04-09T2200,1933A,107.1429,34.3549,宝鸡市,监测站,颗粒物(PM10),65,70,82,25,52,48,48,110,99,32,18,5,6,0.3,0.4
2026-04-09T2200,1934A,107.1172,34.3759,宝鸡市,技工学校,颗粒物(PM10),67,73,73,31,43,57,57,104,95,23,13,5,4,0.5,0.5
2026-04-09T2200,1936A,107.2025,34.3518,宝鸡市,文理学院,颗粒物(PM10),73,81,70,26,43,54,54,108,97,30,16,5,5,0.5,0.5
2026-04-09T2200,1937A,107.2396,34.3626,宝鸡市,三迪小学,颗粒物(PM10),71,79,77,22,42,48,48,106,97,38,16,4,5,0.6,0.5
2026-04-09T2200,4155A,107.1721,34.3558,宝鸡市,滨河北路,,49,40,65,34,69,48,48,104,93,30,16,7,7,0.6,0.6
2026-04-09T2200,4308A,107.3898,34.3601,宝鸡市,陈仓区北开路21号,颗粒物(PM10),88,102,74,41,44,50,50,112,105,43,14,8,8,0.6,0.6
2026-04-09T2200,1051A,115.4803,38.8568,保定市,游泳馆,细颗粒物(PM2.5),60,57,52,40,43,48,48,77,62,22,16,2,5,0.3,0.2
2026-04-09T2200,1052A,115.509,38.8895,保定市,华电二区,细颗粒物(PM2.5),80,73,53,50,48,46,46,75,54,15,16,2,2,0.4,0.4
2026-04-09T2200,1053A,115.4588,38.9037,保定市,接待中心,细颗粒物(PM2.5),56,55,58,38,50,46,46,76,58,14,11,3,3,0.3,0.4
2026-04-09T2200,1054A,115.4484,38.8344,保定市,地表水厂,细颗粒物(PM2.5),66,56,62,43,55,51,51,80,69,21,16,2,2,0.4,0.4
2026-04-09T2200,3581A,115.3136,38.9511,保定市,满城区生态环境分局,,41,41,50,27,39,43,43,88,58,17,14,1,2,0.4,0.4
2026-04-09T2200,3582A,115.4709,38.7628,保定市,清苑区第二中学,NA,NA,NA,56,NA,53,NA,NA,81,NA,NA,17,NA,4,NA,0.4
2026-04-09T2200,3583A,115.6231,39.0223,保定市,徐水物探局,颗粒物(PM10),64,69,67,38,44,29,29,57,47,24,18,2,2,0.5,0.4
2026-04-09T2200,4004A,115.4199,38.8665,保定市,双鹰农机,细颗粒物(PM2.5),68,NA,42,44,55,52,52,78,65,17,16,2,2,0.3,0.4
2026-04-09T2200,4034A,115.515,38.8589,保定市,植保所站,细颗粒物(PM2.5),74,64,78,47,52,45,45,80,63,22,18,4,3,0.4,0.4
2026-04-09T2200,2594A,99.1589,25.1137,保山市,市环境监测站,,35,31,24,17,15,112,112,114,113,9,8,5,5,0.2,0.3
2026-04-09T2200,2595A,99.1616,25.1381,保山市,市环保局,,34,31,29,16,18,106,106,116,113,3,7,6,6,0.3,0.3
2026-04-09T2200,1867A,109.1435,21.4085,北海市,海滩公园,颗粒物(PM10),58,61,42,28,21,96,96,96,96,5,7,6,6,0.4,0.6
2026-04-09T2200,1868A,109.0983,21.466,北海市,新市环保局,,43,39,38,30,21,88,88,94,93,8,8,10,10,0.5,0.5
2026-04-09T2200,1869A,109.1775,21.5232,北海市,北海工业园,,50,NA,44,35,25,88,88,95,93,8,8,6,6,0.6,0.7
2026-04-09T2200,3400A,109.1844,21.4396,北海市,龙潭自来水厂,,42,42,35,24,19,94,94,93,93,4,5,7,6,0.8,0.8
2026-04-09T2200,1001A,116.3611,39.8786,北京市,万寿西宫,细颗粒物(PM2.5),52,43,61,36,46,42,42,73,49,22,18,2,2,0.6,0.7
2026-04-09T2200,1003A,116.4174,39.9289,北京市,东四,细颗粒物(PM2.5),54,44,64,37,49,51,51,86,56,21,18,6,6,0.6,0.7
2026-04-09T2200,1004A,116.4073,39.8858,北京市,天坛,细颗粒物(PM2.5),54,41,58,37,44,28,28,48,38,16,17,3,3,0.7,0.8
2026-04-09T2200,1005A,116.4622,39.9364,北京市,农展馆,细颗粒物(PM2.5),58,48,62,39,47,49,49,70,51,18,17,2,2,0.8,0.8
2026-04-09T2200,1006A,116.3399,39.9293,北京市,官园,细颗粒物(PM2.5),52,43,64,36,46,46,46,76,46,18,19,2,3,0.6,0.6
2026-04-09T2200,1007A,116.2879,39.9613,北京市,海淀万柳,NA,NA,50,65,41,49,NA,NA,59,35,19,20,3,3,0.8,0.7
2026-04-09T2200,1008A,116.6635,40.1349,北京市,顺义新城,细颗粒物(PM2.5),62,44,66,41,53,51,51,66,62,16,19,4,4,0.7,0.7
2026-04-09T2200,1009A,116.6275,40.327,北京市,怀柔镇,细颗粒物(PM2.5),60,49,65,40,51,47,47,67,56,16,16,4,4,0.8,0.9
2026-04-09T2200,1010A,116.2295,40.217,北京市,昌平镇,细颗粒物(PM2.5),68,52,64,44,47,22,22,68,41,34,20,2,3,0.6,0.6
2026-04-09T2200,1011A,116.3968,39.982,北京市,奥体中心,,49,44,63,34,44,48,48,79,52,23,22,3,3,0.8,0.8
2026-04-09T2200,3418A,116.8336,40.4095,北京市,密云新城,细颗粒物(PM2.5),54,41,66,37,50,44,44,69,55,12,11,2,3,0.6,0.7
2026-04-09T2200,3671A,116.0879,39.9725,北京市,门头沟三家店,,48,41,57,33,41,24,24,65,40,25,21,2,2,0.8,0.7
2026-04-09T2200,3672A,116.1507,39.8246,北京市,丰台云岗,细颗粒物(PM2.5),62,48,67,41,46,27,27,65,35,18,15,2,2,0.9,0.8
2026-04-09T2200,3674A,115.9578,39.7602,北京市,房山燕山,细颗粒物(PM2.5),60,43,51,40,40,33,33,80,40,23,17,2,3,0.8,0.7
2026-04-09T2200,3675A,116.4669,39.7734,北京市,大兴旧宫,细颗粒物(PM2.5),66,49,64,43,50,37,37,60,47,21,19,3,3,0.7,0.7
2026-04-09T2200,3694A,115.9859,40.4562,北京市,延庆石河营,,40,29,39,28,15,40,40,86,56,14,12,1,1,0.7,0.6
2026-04-09T2200,3695A,116.6151,40.3052,北京市,怀柔新城,细颗粒物(PM2.5),62,51,62,41,49,41,41,65,53,15,13,3,4,0.8,0.9
2026-04-09T2200,3696A,116.2542,39.8764,北京市,丰台小屯,,48,45,74,33,42,31,31,64,40,30,24,2,2,0.7,0.7
2026-04-09T2200,3697A,116.8399,40.3843,北京市,密云镇,细颗粒物(PM2.5),60,43,68,40,56,45,45,81,52,13,14,4,4,0.7,0.8
2026-04-09T2200,4057A,115.9423,40.4431,北京市,延庆百泉,,38,NA,38,26,30,27,27,75,47,18,12,1,2,0.8,0.6
2026-04-09T2200,4058A,116.6598,39.9164,北京市,通州新华,细颗粒物(PM2.5),62,50,68,41,50,47,47,59,53,17,24,2,3,0.6,0.6
2026-04-09T2200,4182A,116.1942,39.9158,北京市,石景山八角,细颗粒物(PM2.5),64,57,76,42,49,26,26,72,35,32,29,3,4,0.8,0.7
2026-04-09T2200,4194A,117.078628,40.151726,北京市,平谷新城,细颗粒物(PM2.5),60,49,57,40,44,50,50,82,69,17,14,3,2,0.7,0.7
2026-04-09T2200,1761A,123.8274146,41.31234549,本溪市,大峪,,44,44,35,19,15,54,54,100,80,17,11,6,6,0.7,0.6
2026-04-09T2200,1763A,123.7169,41.3094,本溪市,彩屯,,47,47,41,26,20,60,60,97,81,30,20,10,15,0.7,1.1
2026-04-09T2200,1764A,123.7672166,41.28649327,本溪市,东明,颗粒物(PM10),55,57,37,31,13,28,28,102,72,51,17,6,7,0.8,0.4
2026-04-09T2200,1765A,123.799345,41.266614,本溪市,新立屯,,37,37,29,14,10,7,7,110,64,66,18,7,7,0.6,0.4
2026-04-09T2200,1766A,123.829144,41.336777,本溪市,威宁,颗粒物(PM10),62,66,41,35,18,21,21,92,57,46,20,7,7,0.7,0.5
2026-04-09T2200,2587A,105.287,27.3133,毕节市,八中,,36,36,23,18,18,64,64,88,84,11,11,11,11,0.5,0.5
2026-04-09T2200,2588A,105.3079,27.2987,毕节市,师专,,40,35,27,28,18,84,84,115,107,6,7,10,9,0.5,0.5
2026-04-09T2200,4263A,105.3688,27.3598,毕节市,工业大道,,32,29,30,20,17,100,100,124,117,5,9,12,11,/,/
2026-04-09T2200,1629A,117.9961,37.3604,滨州市,第二水厂,细颗粒物(PM2.5),120,105,51,81,38,50,50,73,63,25,19,9,8,0.8,0.5
2026-04-09T2200,1630A,117.9789,37.3931,滨州市,北中新校,细颗粒物(PM2.5),150,NA,78,114,80,41,41,77,62,31,21,8,8,0.5,0.4
2026-04-09T2200,3514A,117.9379,37.3959,滨州市,中海酒店,细颗粒物(PM2.5),114,88,41,75,35,28,28,75,56,41,22,9,9,0.8,0.6
2026-04-09T2200,3515A,117.9381509,37.35547456,滨州市,开发区一中,细颗粒物(PM2.5),126,110,53,88,40,38,38,69,54,34,21,10,10,0.9,0.7
2026-04-09T2200,3516A,118.0914,37.6938,滨州市,金海六路,,30,NA,27,19,24,94,94,92,90,5,10,5,6,0.2,0.3
2026-04-09T2200,4028A,117.9955,37.3752,滨州市,滨州市西街道办事处,细颗粒物(PM2.5),115,92,44,76,36,47,47,75,62,20,15,8,8,0.7,0.5
2026-04-09T2200,2311A,115.8071,33.8399,亳州市,污水处理厂,,49,49,33,24,22,19,19,68,60,45,14,6,4,0.2,0.2
2026-04-09T2200,2312A,115.7789,33.8519,亳州市,三国揽胜宫,,33,33,27,17,21,54,54,63,62,13,9,6,5,0.4,0.3
2026-04-09T2200,3332A,115.7631,33.803,亳州市,亳州学院,NA,NA,NA,31,19,24,63,63,66,66,8,7,6,5,0.3,0.3
2026-04-09T2200,2693A,82.0482,44.8553,博尔塔拉蒙古自治州,市党校,颗粒物(PM10),110,144,114,24,15,91,91,125,119,8,5,3,3,0.3,0.4
2026-04-09T2200,2694A,82.0805,44.8966,博尔塔拉蒙古自治州,市环保局,颗粒物(PM10),112,150,123,33,29,NA,NA,119,NA,14,19,3,3,0.2,0.3
2026-04-09T2200,1071A,116.8733,38.2922,沧州市,沧县城建局,,45,40,53,31,55,75,75,77,76,15,18,1,4,0.2,0.2
2026-04-09T2200,1072A,116.8462,38.3189,沧州市,电视转播站,,49,49,56,28,38,73,73,74,73,14,17,7,7,0.2,0.4
2026-04-09T2200,1073A,116.8588,38.3161,沧州市,市环保局,,48,48,61,23,43,78,78,80,79,12,16,11,8,0.3,0.4
2026-04-09T2200,3324A,116.8011,38.294,沧州市,河北水利电力学院,,42,NA,44,29,39,84,84,78,78,12,16,6,6,0.1,0.3
2026-04-09T2200,2622A,97.1813,31.1289,昌都市,昌都监测站,,31,12,10,9,5,98,98,122,120,16,11,7,7,0.3,0.3
2026-04-09T2200,3719A,97.1707,31.1428,昌都市,昌都会议中心,,36,10,9,6,4,114,114,130,128,4,6,5,6,0.2,0.2
2026-04-09T2200,2692A,87.2722,44.0298,昌吉回族自治州,新区政务中心,NA,NA,56,45,NA,19,98,98,123,121,13,20,5,6,0.2,0.6
2026-04-09T2200,3613A,87.3069,44.0093,昌吉回族自治州,亚心广场,颗粒物(PM10),63,68,60,11,19,102,102,127,124,16,20,7,8,0.2,0.5
2026-04-09T2200,4164A,87.2057,43.9289,昌吉回族自治州,财政所,颗粒物(PM10),105,133,62,36,11,59,59,108,108,37,9,7,8,0.4,0.4
2026-04-09T2200,1120A,125.2874,43.9024,长春市,客车厂,细颗粒物(PM2.5),120,NA,62,82,44,27,27,90,55,49,34,7,8,0.8,0.6
2026-04-09T2200,1121A,125.2943,43.8508,长春市,邮电学院,细颗粒物(PM2.5),122,86,59,84,41,23,23,90,62,45,25,9,9,0.8,0.5
2026-04-09T2200,1122A,125.3648,43.8745,长春市,劳动公园,细颗粒物(PM2.5),116,88,63,77,42,24,24,86,60,50,30,8,8,0.9,0.6
2026-04-09T2200,1123A,125.3233,43.8781,长春市,园林处,细颗粒物(PM2.5),119,88,60,80,43,35,35,91,69,43,29,8,8,0.9,0.7
2026-04-09T2200,1124A,125.4604,43.7904,长春市,净月潭,细颗粒物(PM2.5),102,65,52,62,37,53,53,96,71,18,14,9,10,0.7,0.5
2026-04-09T2200,1126A,125.38,43.8422,长春市,经开区环卫处,细颗粒物(PM2.5),117,89,60,78,42,21,21,87,61,52,29,7,7,0.9,0.6
2026-04-09T2200,1127A,125.234,43.7761,长春市,高新区管委会,细颗粒物(PM2.5),132,NA,59,95,44,2,2,87,52,78,28,11,8,1.2,0.7
2026-04-09T2200,1128A,125.1695,43.83,长春市,岱山公园,细颗粒物(PM2.5),128,NA,55,90,43,4,4,90,50,82,33,7,6,0.8,0.4
2026-04-09T2200,4281A,125.334645,43.916281,长春市,北亚泰大街1068号,细颗粒物(PM2.5),126,98,71,88,43,16,16,89,54,63,36,9,9,0.8,0.6
2026-04-09T2200,1335A,113.082,28.2421,长沙市,经开区环保局,,21,21,49,11,26,49,49,108,86,13,7,4,5,0.5,0.5
2026-04-09T2200,1336A,112.8873,28.2202,长沙市,高开区环保局,,22,22,46,14,26,57,57,100,77,4,3,6,7,0.6,0.6
2026-04-09T2200,1337A,113.0785,28.2012,长沙市,马坡岭,,23,23,48,10,27,46,46,111,88,10,3,4,6,0.7,0.7
2026-04-09T2200,1338A,112.9448,28.1894,长沙市,湖南师范大学,,19,17,52,10,25,58,58,109,87,7,5,4,6,0.7,0.7
2026-04-09T2200,1339A,113.0177,28.1322,长沙市,雨花区环保局,,20,15,47,11,25,61,61,105,89,5,2,3,5,0.8,0.8
2026-04-09T2200,1340A,112.9795,28.2593,长沙市,伍家岭,,19,17,49,13,27,53,53,100,78,11,12,3,4,0.4,0.2
2026-04-09T2200,1341A,113.002,28.1944,长沙市,火车新站,,17,15,48,10,26,52,52,100,82,7,4,4,5,0.6,0.5
2026-04-09T2200,1342A,112.9846,28.1177,长沙市,天心区环保局,,20,17,48,10,27,64,64,109,93,7,4,5,7,0.7,0.6
2026-04-09T2200,1343A,112.8906,28.1307,长沙市,湖南中医药大学,,20,NA,48,14,25,60,60,108,86,8,6,5,7,0.7,0.7
2026-04-09T2200,1727A,113.1146,36.1547,长治市,清华站,颗粒物(PM10),69,76,30,30,18,95,95,108,107,3,5,7,7,0.6,0.7
2026-04-09T2200,1730A,113.0887,36.2126,长治市,审计局,颗粒物(PM10),62,66,32,30,23,91,91,105,105,11,12,9,8,0.6,0.7
2026-04-09T2200,1731A,113.0845,36.1856,长治市,长治八中,颗粒物(PM10),75,84,42,40,24,48,48,102,96,53,20,9,9,0.7,0.7
2026-04-09T2200,2845A,113.1561,36.1912,长治市,德盛苑,颗粒物(PM10),70,78,36,28,23,95,95,113,113,13,15,8,8,0.6,0.7
2026-04-09T2200,3568A,113.0603,36.0464,长治市,向阳小学,颗粒物(PM10),93,110,61,34,23,92,92,111,111,29,22,8,8,0.7,0.9
2026-04-09T2200,3569A,112.8788,36.315,长治市,屯留一中,颗粒物(PM10),70,78,49,44,33,68,68,101,96,31,21,10,11,1.1,1.2
2026-04-09T2200,4189A,113.113092,36.199482,长治市,英华南巷50号,NA,NA,77,37,38,25,89,89,109,108,NA,10,8,7,NA,0.9
2026-04-09T2200,4190A,113.23666,36.33435,长治市,学府街1号,颗粒物(PM10),75,84,40,31,29,79,79,101,100,18,18,3,5,0.6,1
2026-04-09T2200,1854A,111.696,28.9725,常德市,市二中,,35,33,54,24,39,20,20,54,43,19,10,8,8,1.2,1.2
2026-04-09T2200,3138A,111.7152,29.0288,常德市,武陵区永安,,28,23,52,19,37,46,46,60,58,14,11,5,6,0.9,0.9
2026-04-09T2200,3139A,111.6891,28.9881,常德市,鼎城区玉霞,,33,32,55,23,36,20,20,56,48,22,13,8,8,0.8,0.9
2026-04-09T2200,3140A,111.6651,29.0526,常德市,武陵区长庚,,22,22,51,13,37,54,54,58,58,9,10,7,8,0.9,0.9
2026-04-09T2200,1196A,119.9524,31.7586,常州市,市监测站,,33,33,43,13,12,64,64,92,76,13,16,8,9,0.8,0.6
2026-04-09T2200,1200A,119.9351,31.703,常州市,武进监测站,,32,32,37,17,13,61,61,97,79,15,14,3,5,0.4,0.2
2026-04-09T2200,3002A,119.9701,31.813,常州市,行政中心,,29,25,27,20,14,54,54,80,70,17,16,6,6,0.5,0.4
2026-04-09T2200,3003A,120.0434,31.7726,常州市,经开区,,27,27,40,11,11,66,66,93,80,5,8,2,7,0.9,1.2
2026-04-09T2200,3010A,119.8919,31.7892,常州市,钟楼,,32,32,37,17,12,59,59,86,70,17,19,7,8,0.5,0.3
2026-04-09T2200,3429A,119.8595,31.706,常州市,武进经发区,,29,29,33,16,14,60,60,94,78,15,18,4,6,0.8,0.9
2026-04-09T2200,3430A,119.5812,31.7256,常州市,金坛城区,,20,NA,28,14,16,55,55,95,77,7,10,8,9,0.7,0.7
2026-04-09T2200,4089A,119.9551,31.863,常州市,崇义南街5-H号,,26,18,22,18,13,44,44,86,66,23,20,7,7,0.7,0.5
2026-04-09T2200,2220A,120.4318,41.588,朝阳市,西梁,,39,NA,36,27,29,59,59,109,73,23,18,10,10,0.7,0.5
2026-04-09T2200,2221A,120.452,41.565,朝阳市,河畔小区,,40,NA,33,28,25,76,76,114,77,15,15,7,7,0.7,0.6
2026-04-09T2200,2222A,120.4176,41.5648,朝阳市,八里堡,细颗粒物(PM2.5),54,NA,32,37,31,72,72,108,82,19,18,6,7,0.7,0.5
2026-04-09T2200,3026A,116.6179,23.6608,潮州市,市政府,,23,23,55,12,25,52,52,93,75,10,13,3,4,0.5,0.5
2026-04-09T2200,4036A,116.646,23.676,潮州市,金山,,30,30,47,17,25,51,51,99,81,13,14,3,3,0.5,0.5
2026-04-09T2200,2473A,113.0116,25.8228,郴州市,市职中,细颗粒物(PM2.5),60,42,30,40,28,74,74,86,81,10,8,6,8,0.5,0.4
2026-04-09T2200,2475A,113.0381,25.8074,郴州市,市审计局,细颗粒物(PM2.5),70,46,34,45,30,83,83,93,90,10,7,9,6,/,/
2026-04-09T2200,2476A,113.0348,25.7757,郴州市,市环保局,细颗粒物(PM2.5),60,46,41,40,27,85,85,95,92,8,6,14,12,0.4,0.4
2026-04-09T2200,4252A,113.0138,25.8011,郴州市,好美居路49号,细颗粒物(PM2.5),66,44,33,43,24,61,61,87,80,13,7,8,8,/,/
2026-04-09T2200,1431A,103.9727,30.7242,成都市,金泉两河,颗粒物(PM10),53,54,39,19,25,86,86,132,121,26,22,4,3,0.4,0.4
2026-04-09T2200,1432A,104.1423,30.6765,成都市,十里店,颗粒物(PM10),62,66,46,26,28,66,66,136,123,39,26,4,4,0.7,0.7
2026-04-09T2200,1433A,104.0594,30.5765,成都市,三瓦窑,,46,46,44,19,27,51,51,131,117,39,24,2,3,0.7,0.6
2026-04-09T2200,1434A,104.1122,30.6306,成都市,沙河铺,颗粒物(PM10),57,59,47,22,27,19,19,119,99,76,32,3,3,0.7,0.6
2026-04-09T2200,2880A,104.0219,30.6561,成都市,大石西路,颗粒物(PM10),61,65,47,27,29,36,36,123,109,50,28,4,5,0.9,0.7
2026-04-09T2200,3136A,104.2724,30.559,成都市,龙泉驿区区政府,,39,39,32,15,20,99,99,129,124,14,12,7,7,0.5,0.5
2026-04-09T2200,3357A,104.0028,30.6891,成都市,金博路,颗粒物(PM10),51,51,35,22,23,55,55,128,114,50,32,6,7,0.7,0.6
2026-04-09T2200,3359A,104.056,30.5228,成都市,华阳,,44,44,41,18,25,65,65,132,122,39,25,4,5,0.4,0.3
2026-04-09T2200,3488A,104.387954,30.746684,成都市,青石路225号,,50,50,38,21,23,50,50,140,123,50,25,6,6,0.5,0.5
2026-04-09T2200,3489A,104.0788,30.4054,成都市,科学城,,28,NA,31,19,28,75,75,124,118,18,17,7,8,0.8,0.6
2026-04-09T2200,4011A,103.8505,30.6946,成都市,光华大道三段,颗粒物(PM10),68,75,46,37,26,24,24,134,105,80,28,4,4,0.8,0.5
2026-04-09T2200,4144A,104.3257,30.6406,成都市,八角井街185号,颗粒物(PM10),53,53,42,17,21,86,86,118,102,13,17,3,3,0.4,0.4
2026-04-09T2200,4224A,104.2433276,30.53529463,成都市,鲸龙路1057号,,36,36,39,13,21,106,106,134,130,20,20,6,6,0.5,0.6
2026-04-09T2200,1062A,117.9531,40.908,承德市,铁路,,17,15,44,3,28,52,52,70,63,23,24,3,4,0.3,0.5
2026-04-09T2200,1063A,117.9397,40.9763,承德市,中国银行,,18,10,40,6,26,55,55,79,72,14,14,1,2,0.3,0.5
2026-04-09T2200,4073A,117.9462,40.95,承德市,杏林街1号,,22,NA,45,15,40,65,65,92,77,12,13,1,2,0.3,0.5
2026-04-09T2200,4274A,117.7994,40.9605,承德市,滨河大街98号,,15,6,28,3,27,47,47,102,73,8,11,4,5,0.1,0.4
2026-04-09T2200,2314A,117.4698,30.6617,池州市,池州学院,,27,16,27,8,13,86,86,109,76,13,25,3,4,0.5,0.7
2026-04-09T2200,3237A,117.4918,30.6617,池州市,展览馆,,26,17,31,6,11,82,82,107,75,10,25,2,4,0.3,0.6
2026-04-09T2200,3333A,117.5626,30.695,池州市,第八中学,,24,24,27,13,13,43,43,101,58,22,27,4,7,0.6,0.6
2026-04-09T2200,3334A,117.5037,30.6242,池州市,第十二中学,,23,13,26,7,14,72,72,95,68,10,24,2,3,0.6,0.8
2026-04-09T2200,1744A,118.9229,42.2816,赤峰市,松山一中,,19,6,22,3,12,60,60,76,57,16,15,6,6,0.6,0.5
2026-04-09T2200,1745A,118.9588,42.2733,赤峰市,哈达街,,22,NA,22,12,14,70,70,83,64,13,15,9,8,0.5,0.5
2026-04-09T2200,1746A,118.8792,42.2551,赤峰市,天义路,,18,NA,19,11,13,55,55,83,58,15,14,5,5,0.3,0.3
2026-04-09T2200,3058A,119.2656,42.0356,赤峰市,银河街,,23,NA,48,16,34,59,59,101,50,12,15,8,14,0.6,0.6
2026-04-09T2200,3286A,118.9359,42.3146,赤峰市,桥北物流园区,,22,6,22,3,12,69,69,85,64,4,12,4,4,0.6,0.4
2026-04-09T2200,2521A,107.3473,22.4137,崇左市,市环保局江州分局,细颗粒物(PM2.5),110,100,83,71,57,132,132,160,159,16,12,6,7,0.8,0.7
2026-04-09T2200,4256A,107.375,22.3736,崇左市,石景林东路7号,细颗粒物(PM2.5),110,NA,75,70,56,136,136,155,155,15,14,4,4,0.9,0.9
2026-04-09T2200,3207A,118.31131,32.3033,滁州市,市政府原办公楼,细颗粒物(PM2.5),84,NA,30,52,38,43,43,70,49,11,14,4,5,0.5,0.5
2026-04-09T2200,3331A,118.3268,32.2633,滁州市,图书馆,细颗粒物(PM2.5),105,NA,35,65,30,39,39,78,50,12,13,8,10,0.4,0.5
2026-04-09T2200,4101A,118.3196,32.3335,滁州市,银山路666号,细颗粒物(PM2.5),68,51,34,44,31,42,42,72,46,9,16,6,8,0.6,0.6
2026-04-09T2200,4102A,118.3426,32.2979,滁州市,黄山路555号,细颗粒物(PM2.5),82,72,50,51,33,42,42,72,49,9,12,6,7,0.7,0.7
2026-04-09T2200,2606A,101.5379,25.0492,楚雄彝族自治州,市经济开发区,,35,23,20,15,15,111,111,119,115,5,6,2,4,0.3,0.5
2026-04-09T2200,4153A,101.5536,25.0343,楚雄彝族自治州,团结路562号,,36,18,20,14,16,115,115,124,121,4,3,2,2,0.2,0.3
2026-04-09T2200,2549A,107.5087,31.2186,达州市,市环境监测站,颗粒物(PM10),53,54,39,24,12,11,11,61,55,44,27,6,6,0.4,0.3
2026-04-09T2200,2550A,107.4988,31.2132,达州市,凤凰小区,NA,NA,58,34,28,16,8,8,76,69,51,29,6,5,NA,0.5
2026-04-09T2200,2551A,107.5081,31.1987,达州市,达县机关宾馆,细颗粒物(PM2.5),60,61,42,40,19,0,0,58,45,59,34,5,5,0.5,0.5
2026-04-09T2200,2552A,107.4644,31.2124,达州市,市政中心,颗粒物(PM10),55,56,40,27,13,9,9,72,60,59,30,6,6,0.7,0.5
2026-04-09T2200,2614A,100.2168,25.5818,大理白族自治州,大理市环境监测站,,32,20,15,17,15,100,100,102,102,8,10,4,4,0.3,0.4
2026-04-09T2200,2615A,100.1542,25.7055,大理白族自治州,大理古城,,33,27,17,18,14,105,105,108,107,6,7,2,2,0.5,0.6
2026-04-09T2200,1109A,121.6119,38.974,大连市,甘井子,,29,29,30,20,12,92,92,98,96,18,14,8,7,0.3,0.5
2026-04-09T2200,1110A,121.565,38.9509,大连市,周水子,,29,25,28,20,14,82,82,89,89,16,18,5,5,0.5,0.5
2026-04-09T2200,1111A,121.5637,38.8849,大连市,星海三站,,33,NA,24,23,12,85,85,100,92,16,12,5,5,0.4,0.3
2026-04-09T2200,1112A,121.6301,38.9117,大连市,青泥洼桥,,35,35,28,22,12,79,79,96,91,16,13,4,4,0.5,0.4
2026-04-09T2200,1113A,121.6248,38.8643,大连市,傅家庄,,34,34,29,20,11,87,87,100,97,10,10,5,6,0.4,0.4
2026-04-09T2200,1114A,121.5117,38.8636,大连市,七贤岭,,30,29,28,21,12,91,91,99,95,14,14,5,5,0.4,0.3
2026-04-09T2200,1116A,121.7507,39.1339,大连市,金州,,36,27,24,25,13,82,82,93,92,16,11,5,5,0.6,0.5
2026-04-09T2200,1117A,121.7811,39.0495,大连市,开发区,,32,28,30,22,14,89,89,90,90,15,16,9,8,0.8,0.6
2026-04-09T2200,1118A,121.9762,39.0631,大连市,双D港,,29,27,27,20,13,84,84,95,93,10,10,4,4,0.3,0.6
2026-04-09T2200,4082A,121.2548,38.8188,大连市,旅顺,,30,NA,19,21,12,92,92,97,95,8,10,4,4,0.3,0.3
2026-04-09T2200,1789A,124.8085,46.0381,大庆市,大同区,,47,47,36,27,13,77,77,102,93,18,13,4,4,0.4,0.4
2026-04-09T2200,1790A,125.1166,46.5255,大庆市,龙凤区,颗粒物(PM10),53,54,44,19,13,73,73,94,83,13,21,4,5,0.1,0.2
2026-04-09T2200,1791A,124.8894,46.4007,大庆市,红岗区,,50,50,29,29,11,57,57,90,81,22,11,13,11,0.4,0.3
2026-04-09T2200,1792A,125.1391,46.578,大庆市,萨尔图区,,34,34,33,15,10,81,81,91,89,11,18,6,7,0.0,0.1
2026-04-09T2200,1793A,124.9026,46.6217,大庆市,让胡路区,,37,37,30,20,9,70,70,88,79,18,12,5,4,0.5,0.3
2026-04-09T2200,3481A,125.127,46.6277,大庆市,萨区政府监测点,,27,27,28,9,9,76,76,84,82,1,13,8,8,0.3,0.3
2026-04-09T2200,1723A,113.2926,40.0759,大同市,云冈宾馆,,22,19,74,9,34,70,70,92,81,11,18,6,9,0.3,0.5
2026-04-09T2200,1724A,113.3437,40.0921,大同市,大同大学,,23,22,92,6,33,71,71,99,85,12,22,3,4,0.5,0.7
2026-04-09T2200,1725A,113.2637,40.129,大同市,安家小村,,21,17,100,12,36,66,66,86,73,12,19,9,13,0.4,0.6
2026-04-09T2200,3282A,113.3399,40.0586,大同市,大同市卫生学校,,25,24,96,7,35,78,78,106,92,8,18,4,8,0.4,0.5
2026-04-09T2200,3565A,113.1371,40.1122,大同市,云冈站,,21,21,112,13,41,64,64,103,80,15,16,5,8,0.4,0.5
2026-04-09T2200,3566A,113.1186,40.2556,大同市,图书馆,,28,28,105,3,36,73,73,97,79,10,18,4,10,0.4,0.6
2026-04-09T2200,3567A,113.5931,40.0459,大同市,区一中,,28,28,88,8,29,68,68,107,90,9,14,11,12,0.8,0.7
2026-04-09T2200,4199A,113.2798248,40.09972476,大同市,魏都大道141号,,22,17,97,9,27,68,68,94,81,9,15,8,12,0.4,0.5
2026-04-09T2200,2269A,124.1068,50.4091,大兴安岭地区,科技局,,36,36,21,10,8,57,57,83,73,9,5,9,8,0.3,0.4
2026-04-09T2200,3663A,124.117,50.4279,大兴安岭地区,红旗社区,,27,27,11,12,7,54,54,91,77,14,7,8,5,0.3,0.2
2026-04-09T2200,1600A,124.33,40.0625,丹东市,江湾东路,,32,27,35,15,17,102,102,106,106,8,16,5,7,0.4,0.5
2026-04-09T2200,1601A,124.4242,40.1513,丹东市,临江后街,,28,26,36,14,19,89,89,96,96,7,17,5,7,0.4,0.5
2026-04-09T2200,1602A,124.3935,40.1461,丹东市,元宝山,,30,30,36,19,18,62,62,87,80,13,16,6,7,0.5,0.5
2026-04-09T2200,1603A,124.3634,40.1093,丹东市,民主桥,,34,34,39,20,20,85,85,92,90,17,23,5,7,0.5,0.4
2026-04-09T2200,3541A,109.5726195,19.51688767,儋州市,第一中学子站,,45,45,42,21,25,91,91,116,112,5,6,8,9,0.3,0.3
2026-04-09T2200,3542A,109.5567,19.5187,儋州市,东坡学校子站,,41,41,40,25,26,90,90,116,111,4,5,4,6,0.4,0.5
2026-04-09T2200,2616A,98.5611,24.4273,德宏傣族景颇族自治州,德宏州监测站,细颗粒物(PM2.5),66,44,29,43,32,70,70,108,100,24,15,6,5,0.3,0.2
2026-04-09T2200,3677A,98.5887,24.4366,德宏傣族景颇族自治州,芒市人民政府综合楼,颗粒物(PM10),67,73,55,38,35,67,67,99,93,18,13,8,8,0.5,0.4
2026-04-09T2200,1901A,104.424,31.1209,德阳市,东山公园,,50,50,35,18,24,92,92,128,123,22,21,7,5,0.6,0.6
2026-04-09T2200,1902A,104.3827,31.1318,德阳市,西小区,细颗粒物(PM2.5),76,60,54,48,31,39,39,127,112,58,35,8,5,0.7,0.6
2026-04-09T2200,1904A,104.3553,31.1091,德阳市,耐火材料厂,颗粒物(PM10),68,74,53,34,34,59,59,139,124,33,34,6,3,0.4,0.5
2026-04-09T2200,4145A,104.4144,31.1495,德阳市,市林业局,细颗粒物(PM2.5),56,51,37,38,27,54,54,140,124,52,30,8,5,0.7,0.6
2026-04-09T2200,1622A,116.3034,37.4675,德州市,儿童乐园,颗粒物(PM10),51,51,50,35,39,54,54,74,72,23,16,6,6,0.7,0.6
2026-04-09T2200,1624A,116.2992,37.4449,德州市,监理站,颗粒物(PM10),53,53,46,32,38,68,68,74,73,23,21,10,9,0.7,0.7
2026-04-09T2200,3066A,116.2722,37.438,德州市,九衢泉纯净水厂,,48,48,45,28,36,44,44,60,55,34,19,4,3,0.7,0.6
2026-04-09T2200,3371A,116.3693,37.44,德州市,开发区人民医院,颗粒物(PM10),53,53,49,31,36,69,69,75,75,16,19,8,7,0.6,0.5
2026-04-09T2200,3511A,116.5687,37.3331,德州市,陵城艺术中心,细颗粒物(PM2.5),68,51,40,44,38,48,48,74,67,17,12,5,4,0.8,0.7
2026-04-09T2200,4292A,116.352738,37.420875,德州市,新河东路,细颗粒物(PM2.5),60,51,46,40,40,60,60,72,69,17,17,7,8,0.8,0.7
2026-04-09T2200,2621A,99.7054,27.8319,迪庆藏族自治州,迪庆州站,,35,19,20,11,11,109,109,118,114,6,8,8,8,0.4,0.4
2026-04-09T2200,3180A,99.7122,27.8129,迪庆藏族自治州,质量技术监督局,,36,17,20,8,9,115,115,126,121,7,9,6,6,0.5,0.5
2026-04-09T2200,4257A,104.6092,35.5962,定西市,将台街,颗粒物(PM10),61,65,85,24,33,107,107,132,128,13,22,8,8,0.2,0.2
2026-04-09T2200,4309A,104.6159,35.5701,定西市,正龙路62号,颗粒物(PM10),68,74,84,18,27,106,106,127,124,10,13,9,9,0.3,0.3
2026-04-09T2200,4071A,114.9883,38.5232,定州市,交通局,颗粒物(PM10),58,60,68,37,59,53,53,96,85,25,22,4,5,0.4,0.6
2026-04-09T2200,4072A,115.0045,38.5136,定州市,第五中学,细颗粒物(PM2.5),82,64,71,51,60,46,46,94,82,24,20,2,2,0.3,0.5
2026-04-09T2200,1390A,113.7943,23.0132,东莞市,东城石井,,25,25,39,12,18,42,42,61,54,10,17,2,3,0.5,0.5
2026-04-09T2200,1391A,113.7384,22.9659,东莞市,南城西平,,21,21,34,9,15,42,42,55,50,8,16,2,3,0.5,0.5
2026-04-09T2200,3319A,113.7283,23.041,东莞市,万江金泰,,23,23,36,14,18,38,38,55,49,11,14,6,6,0.6,0.6
2026-04-09T2200,4129A,113.8666,23.1062,东莞市,裕兴路,,28,28,64,11,17,36,36,58,48,13,15,5,6,0.6,0.7
2026-04-09T2200,4130A,114.0076,22.9739,东莞市,教育路1号,,30,30,40,15,15,32,32,72,54,20,16,6,6,0.6,0.6
2026-04-09T2200,4131A,113.7981,22.8124,东莞市,长怡路1号,,40,32,40,28,20,35,35,54,44,15,19,5,5,0.7,0.7
2026-04-09T2200,1666A,118.6612,37.4313,东营市,市环保局,,29,NA,21,14,22,90,90,93,85,12,13,7,8,0.2,0.2
2026-04-09T2200,3036A,118.6903,37.4337,东营市,开发区管委会,,28,24,22,15,18,88,88,96,88,16,21,6,6,0.4,0.4
2026-04-09T2200,3365A,118.5721,37.5654,东营市,垦利区民丰路,,29,NA,17,16,15,91,91,96,95,9,12,4,5,0.5,0.6
2026-04-09T2200,3498A,118.5063,37.8606,东营市,河口城区,,36,12,18,9,9,113,113,124,124,10,10,8,8,0.5,0.6
2026-04-09T2200,3646A,118.4979,37.4623,东营市,胜利站,,31,31,36,11,20,85,85,82,76,9,13,7,7,0.6,0.7
2026-04-09T2200,3734A,118.5753,37.4405,东营市,理想之城,,34,34,31,20,18,89,89,93,90,30,24,7,5,0.4,0.6
2026-04-09T2200,1591A,110.0024,39.8127,鄂尔多斯市,综合楼,颗粒物(PM10),53,53,176,27,50,89,89,103,99,20,15,14,7,0.4,0.4
2026-04-09T2200,1592A,109.9485,39.8259,鄂尔多斯市,巴音孟克林场办事处,,36,36,178,13,41,71,71,103,97,26,11,5,5,0.3,0.3
2026-04-09T2200,1593A,109.7734,39.5987,鄂尔多斯市,康泽苑,颗粒物(PM10),56,58,162,9,40,93,93,110,106,10,8,7,8,0.4,0.4
2026-04-09T2200,1594A,109.8121,39.5987,鄂尔多斯市,华泰汽车城,颗粒物(PM10),58,61,155,13,37,70,70,99,92,18,11,6,6,0.4,0.4
2026-04-09T2200,1595A,109.9734,39.7884,鄂尔多斯市,奥林花园,颗粒物(PM10),55,56,154,16,33,68,68,102,97,26,16,4,5,0.5,0.5
2026-04-09T2200,2436A,114.894,30.3989,鄂州市,市政府,,21,21,22,11,10,25,25,90,37,23,18,8,9,0.4,0.4
2026-04-09T2200,2437A,114.8986,30.3714,鄂州市,赵家坝,,20,20,35,14,9,18,18,98,43,26,12,7,8,0.5,0.7
2026-04-09T2200,3654A,114.8093,30.4091,鄂州市,精准医疗中心,,24,24,36,12,10,31,31,99,36,17,17,7,7,0.7,0.9
2026-04-09T2200,2454A,109.4978,30.2979,恩施土家族苗族自治州,湖北民院,,45,45,40,24,27,8,8,62,50,26,6,7,7,1.0,0.8
2026-04-09T2200,3549A,109.5061,30.3771,恩施土家族苗族自治州,龙凤新区,,40,40,34,24,20,0,0,44,26,11,12,8,7,0.6,0.5
2026-04-09T2200,2499A,108.3411,21.6159,防城港市,沙万,,48,48,56,24,24,61,61,74,70,9,12,6,8,0.7,0.7
2026-04-09T2200,2500A,108.3515,21.7733,防城港市,防城档案局,,42,42,49,24,29,60,60,81,74,3,7,8,7,0.6,0.7
2026-04-09T2200,2501A,108.3506,21.6414,防城港市,大海花园,,39,35,48,27,30,68,68,84,78,14,19,7,17,0.5,0.6
2026-04-09T2200,1371A,113.1293,23.0065,佛山市,湾梁,,24,24,34,14,18,27,27,62,48,15,19,/,/,/,/
2026-04-09T2200,1372A,113.1082,23.0477,佛山市,华材职中,,24,24,34,16,20,31,31,65,51,14,21,3,4,0.3,0.3
2026-04-09T2200,1373A,113.1439,23.045,佛山市,南海气象局,,27,27,38,16,21,23,23,61,47,20,23,/,/,/,/
2026-04-09T2200,1374A,113.2879,22.8094,佛山市,顺德苏岗,,22,22,36,12,16,34,34,60,49,6,11,/,/,0.6,0.6
2026-04-09T2200,1376A,112.8384,22.8678,佛山市,高明孔堂,,21,21,27,11,16,42,42,58,51,6,11,/,/,/,/
2026-04-09T2200,1377A,112.8835,23.1584,佛山市,三水监测站,,19,19,33,13,20,24,24,55,44,21,23,4,5,0.3,0.4
2026-04-09T2200,1378A,112.8668,23.185,佛山市,三水云东海,,47,47,51,14,19,26,26,58,47,21,22,/,/,/,/
2026-04-09T2200,3625A,113.2568,22.7629,佛山市,容桂街道办,,19,19,30,12,18,31,31,54,42,13,17,/,/,/,/
2026-04-09T2200,1282A,119.2681,26.0506,福州市,师大,NA,NA,NA,41,NA,17,NA,NA,98,96,NA,17,NA,4,NA,0.3
2026-04-09T2200,1283A,119.2983,26.1028,福州市,五四北路,,38,38,39,18,20,53,53,100,90,28,21,4,4,0.4,0.3
2026-04-09T2200,1284A,119.2648,26.0769,福州市,杨桥西路,,35,35,38,18,19,71,71,100,92,20,16,4,4,/,/
2026-04-09T2200,3048A,119.5799,26.0937,福州市,九龙,,30,30,33,14,19,71,71,122,113,15,15,7,6,0.3,0.3
2026-04-09T2200,3526A,119.5188,25.9666,福州市,吴航,,23,23,33,13,17,60,60,122,104,14,18,6,6,0.4,0.5
2026-04-09T2200,4104A,119.3106,26.0648,福州市,路通桥巷6号,,32,31,42,22,21,64,64,102,92,17,14,/,/,/,/
2026-04-09T2200,1755A,123.7974,41.8494,抚顺市,望花区,细颗粒物(PM2.5),64,54,48,42,24,82,82,106,89,23,19,13,17,0.7,0.7
2026-04-09T2200,1756A,123.9161,41.8827,抚顺市,顺城区,,50,45,35,35,24,81,81,98,83,24,18,10,11,0.6,0.6
2026-04-09T2200,1757A,124.0437,41.8615,抚顺市,东洲区,细颗粒物(PM2.5),92,92,42,56,26,66,66,107,92,29,16,9,11,0.6,0.5
2026-04-09T2200,1758A,123.9246,41.8638,抚顺市,新抚区,颗粒物(PM10),53,54,46,33,24,91,91,102,84,22,23,10,12,0.7,0.7
2026-04-09T2200,1759A,124.0972,41.8961,抚顺市,大伙房水库,,50,47,35,35,16,105,105,126,118,15,9,8,8,0.5,0.4
2026-04-09T2200,1760A,123.708,41.8386,抚顺市,沈抚新城,细颗粒物(PM2.5),74,60,44,47,24,69,69,100,83,29,20,10,10,0.7,0.7
2026-04-09T2200,2377A,116.3544,27.9833,抚州市,市站,,41,41,35,27,24,84,84,91,87,3,3,1,4,0.6,0.6
2026-04-09T2200,2378A,116.3562,27.9631,抚州市,血防站,,41,41,32,26,21,78,78,91,86,6,5,7,7,0.7,0.7
2026-04-09T2200,2379A,116.3561,28.0007,抚州市,采茶剧团,,45,45,35,28,21,75,75,88,84,2,2,12,12,0.5,0.6
2026-04-09T2200,2380A,116.3854,27.9648,抚州市,医学分院,颗粒物(PM10),71,79,44,29,19,76,76,89,85,5,6,6,6,1.1,1.1
2026-04-09T2200,2207A,121.6095,41.9978,阜新市,工业园区,细颗粒物(PM2.5),76,50,48,48,28,55,55,96,79,27,18,15,13,0.9,0.5
2026-04-09T2200,2208A,121.6567,42.0188,阜新市,长青街,细颗粒物(PM2.5),101,NA,44,61,29,48,48,98,76,26,19,8,10,0.8,0.5
2026-04-09T2200,2209A,121.6672,42.07,阜新市,农业园区,细颗粒物(PM2.5),88,56,51,54,29,54,54,96,74,24,19,4,7,0.7,0.5
2026-04-09T2200,2211A,121.6343,42.0455,阜新市,玉龙新城,细颗粒物(PM2.5),74,48,46,47,28,39,39,98,76,35,21,7,10,0.8,0.5
2026-04-09T2200,2301A,115.8276,32.8929,阜阳市,市监测站,,47,47,37,24,26,44,44,64,60,18,14,5,5,0.5,0.3
2026-04-09T2200,2303A,115.8551,32.8606,阜阳市,开发区,细颗粒物(PM2.5),60,43,37,40,26,44,44,64,59,16,14,5,6,0.6,0.5
2026-04-09T2200,2875A,115.783962,32.889217,阜阳市,阜阳职业技术学院,,35,35,32,13,19,47,47,68,66,13,9,6,6,0.6,0.5
2026-04-09T2200,3468A,115.79,32.8614,阜阳市,市规划展馆,,38,38,37,25,27,48,48,68,67,14,10,7,8,0.6,0.5
2026-04-09T2200,3469A,115.835101,32.918568,阜阳市,枣园社区,,43,43,37,27,30,42,42,63,56,18,12,6,6,0.6,0.4
2026-04-09T2200,2669A,102.9097,34.9841,甘南藏族自治州,州政府,,32,27,36,22,17,66,66,93,90,16,15,2,3,0.3,0.3
2026-04-09T2200,3380A,102.8915,34.9618,甘南藏族自治州,甘肃民族师范学院,NA,NA,84,54,29,19,NA,NA,110,110,NA,28,1,2,0.7,0.4
2026-04-09T2200,2570A,101.96,30.048,甘孜藏族自治州,水桥子,,31,28,22,13,8,99,99,100,99,4,22,6,6,0.2,0.2
2026-04-09T2200,3065A,101.9534,29.9976,甘孜藏族自治州,州环保局,,32,24,16,20,9,102,102,114,105,10,15,5,5,0.2,0.4
2026-04-09T2200,2363A,114.9368,25.8663,赣州市,地委,,40,40,30,21,19,79,79,79,79,8,5,4,2,0.8,0.7
2026-04-09T2200,2364A,114.946,25.8483,赣州市,气象台,,48,48,34,28,20,82,82,82,82,7,5,8,5,0.6,0.5
2026-04-09T2200,2365A,114.932,25.8332,赣州市,市图书馆,,40,40,27,27,20,80,80,80,80,6,5,5,4,0.6,0.6
2026-04-09T2200,2366A,114.8905,25.8472,赣州市,华坚鞋城,,43,43,33,24,20,76,76,75,75,10,7,7,6,0.7,0.4
2026-04-09T2200,3109A,115.0094,25.8614,赣州市,赣县区卫计委,,39,36,30,27,19,74,74,71,70,18,16,1,1,0.9,0.8
2026-04-09T2200,2684A,106.2753,36.0057,固原市,监测站,颗粒物(PM10),102,125,95,31,27,58,58,114,101,40,17,6,5,0.5,0.4
2026-04-09T2200,2685A,106.2384,36.0189,固原市,新区,颗粒物(PM10),88,102,95,31,26,52,52,113,98,48,17,6,5,0.4,0.3
2026-04-09T2200,2544A,106.6307,30.4577,广安市,市委,,47,47,31,28,21,72,72,96,90,23,14,7,7,0.5,0.5
2026-04-09T2200,2545A,106.6266,30.4662,广安市,友谊中学,,43,43,27,27,18,66,66,93,87,17,13,7,7,0.5,0.5
2026-04-09T2200,2547A,106.6386,30.4551,广安市,广电花园,颗粒物(PM10),63,67,38,28,21,56,56,91,82,25,19,6,6,0.8,0.7
2026-04-09T2200,2902A,106.6347,30.4868,广安市,北辰小学,,48,48,33,23,20,86,86,97,94,11,11,6,10,0.5,0.7
2026-04-09T2200,2524A,105.8211,32.4444,广元市,老城,颗粒物(PM10),58,60,30,26,9,4,4,86,70,54,18,2,4,0.6,0.7
2026-04-09T2200,2526A,105.8629,32.429,广元市,监测站,,42,42,31,15,8,36,36,85,77,13,14,3,3,0.4,0.4
2026-04-09T2200,3617A,105.8047,32.4167,广元市,经开区,颗粒物(PM10),55,56,30,27,14,3,3,84,68,51,20,3,7,0.5,0.6
2026-04-09T2200,1345A,113.2346,23.1423,广州市,广雅中学,,28,28,38,14,18,23,23,54,44,15,18,1,2,0.7,0.7
2026-04-09T2200,1346A,113.2611,23.105,广州市,市五中,,28,28,36,10,18,28,28,65,55,21,23,2,2,/,/
2026-04-09T2200,1348A,113.3477,23.0916,广州市,广东商学院,,31,31,33,19,20,18,18,51,41,26,22,4,4,0.4,0.5
2026-04-09T2200,1349A,113.4332,23.105,广州市,市八十六中,,21,21,29,12,17,13,13,42,34,33,34,6,6,/,/
2026-04-09T2200,1350A,113.3506,22.9488,广州市,番禺中学,,26,26,35,15,16,25,25,58,48,20,22,5,4,0.5,0.5
2026-04-09T2200,1351A,113.2147,23.3918,广州市,花都师范,,37,37,43,20,22,25,25,54,45,28,28,6,6,0.7,0.8
2026-04-09T2200,1352A,113.2599,23.1329,广州市,市监测站,,28,28,38,15,19,27,27,59,50,11,15,2,2,/,/
2026-04-09T2200,1353A,113.5618,23.3119,广州市,九龙镇镇龙,,28,28,41,13,19,22,22,47,40,23,21,5,5,0.4,0.4
2026-04-09T2200,1354A,113.2764,23.1544,广州市,麓湖,,27,27,38,14,18,29,29,57,51,17,17,4,4,0.5,0.6
2026-04-09T2200,2846A,113.3209,23.1323,广州市,体育西,,36,36,41,20,18,16,16,49,40,29,24,4,5,0.6,0.6
2026-04-09T2200,3298A,113.5718,23.5493,广州市,从化街口,,29,29,36,16,18,35,35,54,50,14,12,7,7,0.5,0.5
2026-04-09T2200,3299A,113.3463,23.369,广州市,白云竹料,,34,34,42,17,21,24,24,49,44,24,22,3,3,0.6,0.6
2026-04-09T2200,3300A,113.2981,23.2365,广州市,白云嘉禾,,39,39,43,19,20,16,16,49,39,34,30,9,10,/,/
2026-04-09T2200,3301A,113.4256,23.1716,广州市,黄埔科学城,,30,30,40,15,20,8,8,40,30,37,32,6,7,0.5,0.5
2026-04-09T2200,3302A,113.3942,23.0485,广州市,番禺大学城,,18,18,33,11,15,29,29,60,49,24,23,3,3,0.6,0.6
2026-04-09T2200,3303A,113.4923,22.8169,广州市,南沙黄阁,,26,26,36,12,17,35,35,59,50,13,19,6,6,/,/
2026-04-09T2200,3304A,113.534,22.7893,广州市,南沙街,,27,27,36,12,16,32,32,54,45,17,21,4,5,0.4,0.4
2026-04-09T2200,3443A,113.2905,23.5541,广州市,花都梯面,,30,30,42,15,20,28,28,51,47,18,19,7,7,/,/
2026-04-09T2200,3445A,113.786,23.7479,广州市,从化良口,,22,22,27,15,18,55,55,77,72,12,10,4,4,/,/
2026-04-09T2200,3446A,113.805,23.2614,广州市,增城荔城,,25,25,38,13,18,37,37,64,54,12,14,5,5,0.4,0.4
2026-04-09T2200,2506A,109.604387,23.066791,贵港市,江南子站,颗粒物(PM10),67,73,63,37,31,106,106,115,115,15,12,8,10,0.8,0.7
2026-04-09T2200,2508A,109.5669,23.1065,贵港市,荷城子站,细颗粒物(PM2.5),64,58,52,42,33,88,88,103,102,15,14,9,12,0.8,0.8
2026-04-09T2200,3405A,109.5886,23.1172,贵港市,新世纪学校,细颗粒物(PM2.5),58,51,49,39,34,102,102,111,111,13,15,/,/,0.7,0.7
2026-04-09T2200,4260A,109.5933,23.095,贵港市,中山路155-3号,颗粒物(PM10),55,56,58,19,33,105,105,115,115,11,12,/,/,0.9,0.7
2026-04-09T2200,1439A,106.6863,26.6035,贵阳市,马鞍山,,36,27,29,25,21,58,58,136,115,19,10,2,6,/,/
2026-04-09T2200,1441A,106.6241,26.6266,贵阳市,鉴湖路,颗粒物(PM10),56,58,48,22,17,109,109,150,142,18,9,10,9,0.6,0.6
2026-04-09T2200,1442A,106.7468,26.6344,贵阳市,燕子冲,,39,39,44,26,21,74,74,128,115,17,12,6,5,0.7,0.2
2026-04-09T2200,1443A,106.6556,26.4362,贵阳市,碧云窝,颗粒物(PM10),56,58,39,29,21,94,94,136,126,18,6,13,7,/,/
2026-04-09T2200,1445A,106.6963,26.6063,贵阳市,红边门,颗粒物(PM10),67,73,45,40,22,14,14,133,110,86,18,8,9,/,/
2026-04-09T2200,1446A,106.7162383,26.56964667,贵阳市,新华路,颗粒物(PM10),60,63,48,35,21,22,22,141,113,82,17,12,45,0.4,0.3
2026-04-09T2200,1447A,106.6742,26.542,贵阳市,太慈桥,,46,46,39,21,21,53,53,128,114,34,11,6,6,/,/
2026-04-09T2200,4230A,106.688212,26.56952,贵阳市,花果园大街66号,,39,39,27,26,20,62,62,109,101,47,14,4,3,/,/
2026-04-09T2200,4231A,106.687268,26.516892,贵阳市,漓江路57号,,40,29,26,28,18,103,103,146,138,16,12,8,8,0.6,0.6
2026-04-09T2200,1864A,110.3091,25.2705,桂林市,龙隐路小学,细颗粒物(PM2.5),92,78,60,56,40,77,77,107,102,17,9,5,4,0.9,0.8
2026-04-09T2200,1865A,110.2849361,25.22909545,桂林市,八中,颗粒物(PM10),63,68,55,33,23,64,64,98,94,25,8,6,4,0.7,0.6
2026-04-09T2200,3531A,110.296,25.1254,桂林市,旅游学院,细颗粒物(PM2.5),90,60,50,55,40,90,90,108,105,10,8,13,7,0.7,0.7
2026-04-09T2200,4222A,110.1835,25.2444,桂林市,环湖路276号,细颗粒物(PM2.5),64,58,52,42,41,92,92,113,113,9,6,11,10,0.7,0.7
2026-04-09T2200,4301A,110.2803,25.2773,桂林市,信义路13号,细颗粒物(PM2.5),102,NA,57,62,36,92,92,110,109,13,8,5,4,0.7,0.6
2026-04-09T2200,2674A,100.2262,34.4854,果洛藏族自治州,玛沁县大武镇,,42,12,24,11,11,132,132,83,NA,2,4,16,17,1.3,0.8
2026-04-09T2200,1130A,126.5557,45.8109,哈尔滨市,松北商大,,49,43,68,34,18,77,77,101,94,15,13,11,11,0.4,0.3
2026-04-09T2200,1132A,126.6162,45.719,哈尔滨市,南岗学府路,颗粒物(PM10),55,57,104,30,19,79,79,97,93,19,15,6,7,0.3,0.2
2026-04-09T2200,1133A,126.6894,45.7733,哈尔滨市,太平宏伟公园,颗粒物(PM10),77,87,85,44,19,59,59,97,83,36,20,10,8,0.7,0.4
2026-04-09T2200,1134A,126.6361,45.7672,哈尔滨市,道外承德广场,颗粒物(PM10),73,81,82,39,16,61,61,92,81,34,20,10,11,0.5,0.6
2026-04-09T2200,1136A,126.644,45.7261,哈尔滨市,动力和平路,颗粒物(PM10),58,60,103,34,18,74,74,93,88,21,18,4,6,0.5,0.5
2026-04-09T2200,1137A,126.5933,45.7479,哈尔滨市,道里建国路,细颗粒物(PM2.5),68,NA,88,44,20,73,73,99,91,31,22,6,7,0.8,0.3
2026-04-09T2200,1138A,126.6127,45.6119,哈尔滨市,平房东轻厂,细颗粒物(PM2.5),111,98,92,72,29,28,28,80,60,124,84,8,7,0.8,0.5
2026-04-09T2200,1139A,126.5875,45.9827,哈尔滨市,呼兰师专,细颗粒物(PM2.5),92,72,46,56,15,53,53,94,76,33,20,9,9,0.4,0.1
2026-04-09T2200,1140A,126.6299,45.6799,哈尔滨市,省农科院,细颗粒物(PM2.5),70,67,106,45,22,67,67,88,82,28,21,8,8,0.4,0.3
2026-04-09T2200,4282A,126.6769,45.7379,哈尔滨市,华山路1号,颗粒物(PM10),60,63,84,35,17,73,73,96,92,25,17,11,11,0.4,0.5
2026-04-09T2200,4283A,126.9717,45.5356,哈尔滨市,解放大街52号,颗粒物(PM10),74,83,159,34,32,60,60,117,96,34,20,9,10,0.6,0.6
2026-04-09T2200,2688A,93.5124,42.8176,哈密市,地区监测站,颗粒物(PM10),58,61,27,33,12,93,93,127,121,26,12,13,11,0.3,0.1
2026-04-09T2200,2689A,93.5014,42.8312,哈密市,哈密师范学校,颗粒物(PM10),67,73,40,32,12,78,78,129,118,31,15,10,8,0.3,0.2
2026-04-09T2200,2671A,100.9016,36.9464,海北藏族自治州,海晏县西海镇,,27,27,26,15,12,73,73,112,104,5,2,8,7,0.4,0.4
2026-04-09T2200,3867A,102.074,36.5056,海东市,平安区公安局北苑,颗粒物(PM10),66,72,42,32,21,117,117,127,125,14,10,22,11,0.6,0.6
2026-04-09T2200,4163A,102.0984,36.5119,海东市,滨河路,颗粒物(PM10),68,74,37,27,21,88,88,112,104,32,18,17,8,0.6,0.7
2026-04-09T2200,1410A,110.3189,20.0596,海口市,海南大学,,34,34,35,15,20,52,52,108,93,9,7,6,5,0.4,0.4
2026-04-09T2200,1411A,110.2827,20.0051,海口市,秀英海南医院,,30,30,30,16,21,42,42,98,82,14,9,8,8,0.3,0.3
2026-04-09T2200,1412A,110.3391,19.9979,海口市,海南师范大学,NA,NA,40,33,17,19,NA,NA,99,NA,NA,6,7,6,0.3,0.3
2026-04-09T2200,1413A,110.3303,20.0359,海口市,龙华路环保局宿舍,,37,37,34,18,23,52,52,109,92,9,8,/,/,0.5,0.5
2026-04-09T2200,3539A,110.5111,19.9737,海口市,桂林洋子站,,25,25,29,15,18,48,48,85,62,8,6,/,/,/,/
2026-04-09T2200,4134A,110.1952,20.0451,海口市,长滨二路9号,,29,29,35,16,21,54,54,110,101,8,7,/,/,/,/
2026-04-09T2200,2673A,100.6158,36.2985,海南藏族自治州,共和县恰卜恰镇,,34,34,36,18,16,94,94,116,112,13,6,10,10,0.4,0.3
2026-04-09T2200,2676A,97.373,37.376,海西蒙古族藏族自治州,德令哈市,,45,31,26,12,9,141,141,145,145,1,3,10,14,0.3,0.3
2026-04-09T2200,1049A,114.492,36.5712,邯郸市,矿院,细颗粒物(PM2.5),70,46,49,45,45,58,58,76,74,13,17,2,2,0.5,0.7
2026-04-09T2200,1050A,114.4839,36.6136,邯郸市,丛台公园,细颗粒物(PM2.5),72,52,49,46,47,60,60,72,72,14,18,5,5,0.6,0.6
2026-04-09T2200,3458A,114.7893,36.5592,邯郸市,香泉濮院小区,细颗粒物(PM2.5),68,60,36,44,40,52,52,83,75,18,13,3,3,0.5,0.5
2026-04-09T2200,3580A,114.1998,36.4439,邯郸市,峰峰矿区临水派出所,细颗粒物(PM2.5),102,NA,50,62,60,50,50,84,78,17,13,5,5,0.4,0.7
2026-04-09T2200,4068A,114.5209,36.7697,邯郸市,建安街268号,细颗粒物(PM2.5),78,56,57,49,64,28,28,76,65,36,24,3,3,0.5,0.6
2026-04-09T2200,4069A,114.5488,36.6177,邯郸市,丛台东路558号,细颗粒物(PM2.5),64,58,44,42,42,58,58,80,76,22,22,3,3,0.5,0.6
2026-04-09T2200,2635A,107.0155,33.0707,汉中市,市监测站,颗粒物(PM10),64,69,45,35,27,30,30,86,80,32,14,5,5,0.9,0.6
2026-04-09T2200,2636A,107.0083,33.114,汉中市,鑫源开发区,,39,39,39,24,29,38,38,82,74,20,15,5,5,0.7,0.8
2026-04-09T2200,2637A,107.0072,33.0323,汉中市,南郑大河坎水厂,颗粒物(PM10),66,72,41,37,24,15,15,83,70,40,16,4,4,0.7,0.6
2026-04-09T2200,1223A,120.2073,30.2111,杭州市,滨江,,27,23,33,12,15,84,84,88,83,8,15,7,7,0.6,0.6
2026-04-09T2200,1224A,120.0625,30.2737,杭州市,西溪,,28,28,36,12,13,69,69,83,70,9,17,8,8,0.8,0.6
2026-04-09T2200,1226A,120.3417,30.315,杭州市,下沙,,25,25,33,12,14,69,69,79,74,22,16,7,7,0.6,0.6
2026-04-09T2200,1227A,120.1252,30.2465,杭州市,卧龙桥,NA,NA,21,26,8,13,82,82,92,82,4,8,NA,7,0.3,0.3
2026-04-09T2200,1228A,120.1902,30.2691,杭州市,浙江农大,,25,17,28,12,15,80,80,70,63,11,26,7,7,0.3,0.3
2026-04-09T2200,1230A,120.1195,30.3121,杭州市,和睦小学,,24,21,33,13,16,76,76,82,71,9,20,7,6,0.6,0.6
2026-04-09T2200,1231A,120.3076,30.4146,杭州市,临平镇,,29,21,35,11,14,92,92,93,92,15,23,6,6,0.5,0.5
2026-04-09T2200,1232A,120.2753,30.1839,杭州市,城厢镇,,25,24,34,11,13,80,80,81,76,11,15,5,5,0.6,0.6
2026-04-09T2200,1233A,120.0883,30.1808,杭州市,云栖,,23,14,27,9,13,72,72,80,72,18,24,6,6,0.7,0.7
2026-04-09T2200,3557A,119.9463,30.0496,杭州市,镇二中,,28,14,29,8,16,87,87,86,83,10,17,4,5,0.6,0.7
2026-04-09T2200,3558A,119.7184,30.2367,杭州市,市府大楼,,23,20,32,11,17,73,73,80,66,11,14,6,7,0.5,0.5
2026-04-09T2200,3656A,120.1554,30.2863,杭州市,消防大队,,25,24,34,11,14,77,77,80,74,12,17,4,7,0.6,0.8
2026-04-09T2200,1270A,117.1957,31.7845,合肥市,明珠广场,,27,27,28,18,22,19,19,70,37,25,14,2,4,0.6,0.6
2026-04-09T2200,1271A,117.307,31.8765,合肥市,三里街,,32,31,30,22,23,24,24,61,38,27,18,5,6,0.6,0.6
2026-04-09T2200,1272A,117.2587,31.8703,合肥市,琥珀山庄,,30,27,30,21,23,25,25,65,43,23,16,5,6,0.7,0.6
2026-04-09T2200,1275A,117.2593,31.9376,合肥市,庐阳区,,34,34,33,19,25,33,33,60,45,17,11,6,6,0.6,0.7
2026-04-09T2200,1276A,117.345251,31.861615,合肥市,瑶海区,,31,31,31,21,21,30,30,57,42,19,16,6,7,0.8,0.7
2026-04-09T2200,1277A,117.3033,31.7967,合肥市,包河区,,31,31,27,19,19,13,13,69,26,28,16,9,9,0.8,0.8
2026-04-09T2200,1278A,117.278,31.7392,合肥市,滨湖新区,,27,27,26,18,19,6,6,70,25,38,19,6,6,0.5,0.5
2026-04-09T2200,1279A,117.1324,31.8395,合肥市,高新区,,31,31,32,17,21,32,32,65,44,9,5,5,5,0.6,0.6
2026-04-09T2200,3464A,117.3802,31.9148,合肥市,高教基地,,36,36,34,22,23,18,18,55,38,16,17,8,9,0.6,0.6
2026-04-09T2200,4098A,117.2518,31.8404,合肥市,中国科学技术大学,,30,27,26,21,20,29,29,68,43,18,10,5,6,0.7,0.6
2026-04-09T2200,3614A,79.9241,37.0878,和田地区,地区环保局,颗粒物(PM10),133,205,263,60,68,96,96,110,109,7,11,20,3,0.3,0.3
2026-04-09T2200,3615A,79.9132,37.1137,和田地区,市环保局,颗粒物(PM10),134,206,246,59,72,75,75,99,96,19,13,3,4,0.4,0.4
2026-04-09T2200,2517A,108.0496,24.6957,河池市,市环保站,细颗粒物(PM2.5),98,70,68,59,46,113,113,133,132,13,4,6,5,0.9,0.9
2026-04-09T2200,4302A,108.0901,24.6945,河池市,上任中路54号,细颗粒物(PM2.5),98,78,65,59,44,103,103,129,127,28,8,6,6,0.9,0.9
2026-04-09T2200,1697A,114.6962,23.7538,河源市,东埔,,29,29,30,18,18,44,44,70,63,12,7,6,6,0.5,0.5
2026-04-09T2200,1698A,114.6895,23.7232,河源市,老城,,36,36,31,18,19,34,34,68,61,18,7,7,6,0.5,0.5
2026-04-09T2200,3374A,115.5562,35.089,菏泽市,定陶老年大学,颗粒物(PM10),51,51,38,26,26,62,62,87,84,20,16,5,4,0.6,0.5
2026-04-09T2200,4114A,115.4239,35.2593,菏泽市,黄河路600号,颗粒物(PM10),58,61,48,37,33,58,58,81,78,18,14,3,2,0.6,0.5
2026-04-09T2200,4115A,115.5025,35.2727,菏泽市,菏泽市人社局,颗粒物(PM10),56,58,40,36,31,47,47,75,71,24,14,6,5,0.5,0.4
2026-04-09T2200,4184A,115.479691,35.244011,菏泽市,永昌路1号,颗粒物(PM10),58,61,43,36,31,45,45,88,82,30,17,2,1,0.5,0.8
2026-04-09T2200,4193A,115.471542,35.280012,菏泽市,长城路999号,颗粒物(PM10),54,55,40,30,27,60,60,87,85,21,14,3,2,0.5,0.4
2026-04-09T2200,2514A,111.5264,24.4178,贺州市,环保小区,,44,44,41,26,28,69,69,96,92,12,13,6,6,0.5,0.5
2026-04-09T2200,2515A,111.561,24.4074,贺州市,政协大楼,,38,32,33,26,28,80,80,98,95,8,11,9,8,0.7,0.7
2026-04-09T2200,3534A,111.4744,24.455,贺州市,西湾,颗粒物(PM10),63,68,49,26,29,70,70,92,87,12,12,8,8,0.6,0.7
2026-04-09T2200,2385A,114.17,35.9019,鹤壁市,市监测站,细颗粒物(PM2.5),104,74,49,64,46,41,41,79,69,25,16,6,5,0.9,0.8
2026-04-09T2200,2386A,114.2953,35.7512,鹤壁市,市交警支队,细颗粒物(PM2.5),90,73,46,55,35,34,34,68,60,30,19,11,6,0.9,0.8
2026-04-09T2200,2387A,114.2877,35.7302,鹤壁市,迎宾馆,细颗粒物(PM2.5),105,80,50,65,41,45,45,69,64,25,15,6,4,0.8,0.7
2026-04-09T2200,3474A,114.2616,35.6824,鹤壁市,大新区,细颗粒物(PM2.5),112,NA,36,73,48,47,47,72,68,22,12,6,6,1.0,0.9
2026-04-09T2200,3596A,114.1573,35.9607,鹤壁市,南山宾馆,细颗粒物(PM2.5),92,91,62,56,45,40,40,81,71,26,13,8,8,0.9,0.9
2026-04-09T2200,2244A,130.2537,47.3416,鹤岗市,哈啤分公司,,26,24,31,3,6,81,81,NA,NA,6,8,8,10,0.3,0.3
2026-04-09T2200,2245A,130.2683,47.3087,鹤岗市,斯达机电,,40,40,36,6,10,77,77,89,86,5,8,11,12,0.2,0.2
2026-04-09T2200,2246A,130.3114,47.3388,鹤岗市,东山纸板厂,,33,33,52,8,10,78,78,96,90,9,9,8,9,0.3,0.4
2026-04-09T2200,2263A,127.4832,50.2524,黑河市,交通局,,41,41,24,22,13,49,49,86,73,11,5,5,4,0.3,0.2
2026-04-09T2200,2264A,127.5146,50.2339,黑河市,环保局,颗粒物(PM10),77,87,25,46,12,18,18,85,65,45,11,10,5,0.9,0.3
2026-04-09T2200,1074A,115.6839,37.754,衡水市,电机北厂,细颗粒物(PM2.5),68,47,46,44,36,48,48,80,73,26,18,1,2,0.4,0.5
2026-04-09T2200,1075A,115.6303,37.7318,衡水市,市监测站,细颗粒物(PM2.5),58,58,44,39,30,55,55,78,71,22,17,5,5,0.6,0.5
2026-04-09T2200,3188A,115.6684,37.7216,衡水市,市城管局,NA,NA,NA,39,40,35,60,60,81,73,19,15,4,2,NA,0.4
2026-04-09T2200,3459A,115.599,37.5491,衡水市,地表水厂,颗粒物(PM10),52,52,37,28,25,47,47,84,73,26,22,3,4,0.4,0.4
2026-04-09T2200,2457A,112.6209,26.9268,衡阳市,衡阳化工总厂,细颗粒物(PM2.5),66,67,54,43,33,84,84,108,102,5,4,7,5,0.7,0.6
2026-04-09T2200,2458A,112.621,26.8957,衡阳市,珠晖区环保局,细颗粒物(PM2.5),68,54,48,44,28,83,83,108,102,5,3,8,7,0.8,0.7
2026-04-09T2200,2459A,112.628,26.8654,衡阳市,市委党校,细颗粒物(PM2.5),74,58,54,47,30,85,85,111,103,2,2,7,7,0.9,0.8
2026-04-09T2200,2460A,112.6007,26.8977,衡阳市,市监测站,颗粒物(PM10),63,68,52,34,32,78,78,102,96,20,12,12,8,0.7,0.6
2026-04-09T2200,2461A,112.5658,26.9013,衡阳市,真空机电公司,细颗粒物(PM2.5),76,73,52,48,30,78,78,110,102,13,5,8,9,1.9,1.2
2026-04-09T2200,3399A,112.6703,26.8817,衡阳市,师范学院,颗粒物(PM10),60,63,52,39,29,84,84,111,104,6,3,6,6,0.8,0.7
2026-04-09T2200,3038A,103.3757,23.3679,红河哈尼族彝族自治州,州图书馆,,45,37,32,31,24,98,98,118,114,10,6,5,5,0.3,0.3
2026-04-09T2200,4154A,103.401,23.3561,红河哈尼族彝族自治州,蒙自市朝阳路,,46,32,23,32,24,86,86,117,109,18,8,9,4,0.6,0.4
2026-04-09T2200,1090A,111.6506,40.7517,呼和浩特市,呼市一监,,28,12,65,3,43,89,89,86,83,10,21,6,8,0.4,0.6
2026-04-09T2200,1094A,111.7516,40.8369,呼和浩特市,如意水处理厂,,28,NA,59,13,37,88,88,78,75,9,26,6,7,0.2,0.5
2026-04-09T2200,1095A,111.727798,40.806187,呼和浩特市,二十九中,,25,16,70,8,39,78,78,72,69,6,16,7,9,0.4,0.6
2026-04-09T2200,1097A,111.717,40.7617,呼和浩特市,化肥厂生活区,,27,NA,72,16,51,84,84,80,75,10,21,6,7,0.3,0.5
2026-04-09T2200,3699A,111.6519,40.8389,呼和浩特市,海东办,,25,9,60,3,38,77,77,73,71,9,23,3,6,0.4,0.5
2026-04-09T2200,4275A,111.591512,40.827312,呼和浩特市,成吉思汗西街8号,,22,NA,76,3,39,68,68,70,68,20,33,4,6,0.3,0.5
2026-04-09T2200,4276A,111.6597,40.8077,呼和浩特市,公园东路75号,,24,12,59,6,41,76,76,72,69,10,18,4,9,0.3,0.5
2026-04-09T2200,4277A,111.5427,40.7846,呼和浩特市,金海路35号,,24,14,77,6,44,75,75,74,74,16,23,6,6,0.3,0.5
2026-04-09T2200,3061A,119.7511,49.1576,呼伦贝尔市,国华电力东,,23,23,22,13,8,46,46,83,74,26,10,5,5,0.3,0.2
2026-04-09T2200,4279A,119.7569,49.2222,呼伦贝尔市,伊敏大街东7号,,23,23,22,11,9,71,71,85,80,11,9,6,6,0.3,0.3
2026-04-09T2200,1250A,120.075,30.867,湖州市,城西水厂,,22,22,26,13,14,69,69,115,86,36,27,4,5,0.5,0.4
2026-04-09T2200,2873A,120.083,30.8929,湖州市,仁皇山新区,,23,22,24,14,13,73,73,120,100,26,21,5,5,0.6,0.5
2026-04-09T2200,2907A,120.1846,30.8592,湖州市,吴兴区站,,29,28,36,14,14,90,90,118,97,15,17,6,6,0.4,0.5
2026-04-09T2200,3562A,120.4146,30.8538,湖州市,南浔区站,,30,20,33,13,15,94,94,105,98,8,12,4,5,0.6,0.5
2026-04-09T2200,1607A,120.904878,40.721091,葫芦岛市,龙港区,,39,32,35,27,19,68,68,90,68,23,20,9,10,0.7,0.5
2026-04-09T2200,1608A,120.8382,40.7521,葫芦岛市,化工街,,36,27,35,25,22,53,53,81,62,33,23,13,13,0.6,0.4
2026-04-09T2200,1609A,120.8339,40.7078,葫芦岛市,新区,,30,21,31,21,22,64,64,85,66,28,21,8,9,0.6,0.5
2026-04-09T2200,1610A,120.8697,40.7679,葫芦岛市,东城区,细颗粒物(PM2.5),66,NA,29,43,23,68,68,84,66,27,24,10,10,0.7,0.5
2026-04-09T2200,2483A,109.9297,27.5383,怀化市,河西地税局,细颗粒物(PM2.5),90,98,73,55,46,10,10,108,60,44,13,4,4,/,/
2026-04-09T2200,2484A,109.9783,27.5342,怀化市,市四医院,细颗粒物(PM2.5),121,100,77,83,49,39,39,114,80,23,10,8,5,0.8,0.6
2026-04-09T2200,2485A,109.9971,27.5579,怀化市,监测楼,细颗粒物(PM2.5),111,98,71,72,53,20,20,117,74,29,9,6,5,0.8,0.6
2026-04-09T2200,1210A,119.0566,33.5991,淮安市,钵池山,细颗粒物(PM2.5),52,51,42,36,29,60,60,62,62,15,19,7,7,0.7,0.6
2026-04-09T2200,1211A,119.0083,33.578,淮安市,北京南路,细颗粒物(PM2.5),74,NA,37,47,36,39,39,50,46,23,17,7,7,0.5,0.5
2026-04-09T2200,1212A,118.9938,33.6083,淮安市,市监测站,细颗粒物(PM2.5),60,NA,32,40,32,57,57,62,62,13,14,4,5,0.7,0.6
2026-04-09T2200,1213A,119.135,33.5038,淮安市,楚州区监测站,细颗粒物(PM2.5),68,56,40,44,31,59,59,58,58,11,14,5,5,0.4,0.2
2026-04-09T2200,3426A,118.8757,33.2897,淮安市,新华书店,,46,46,47,24,25,63,63,64,64,8,14,6,7,0.6,0.5
2026-04-09T2200,4092A,119.119691,33.550006,淮安市,枚皋中路89号,颗粒物(PM10),55,57,44,37,30,57,57,59,59,12,15,10,10,0.8,0.7
2026-04-09T2200,4206A,119.028838,33.631911,淮安市,承德北路606号,颗粒物(PM10),56,58,43,37,30,51,51,58,58,17,15,7,8,0.3,0.3
2026-04-09T2200,2282A,116.8005,33.9749,淮北市,监测站,NA,NA,35,33,26,32,NA,NA,69,64,21,14,6,6,0.7,0.5
2026-04-09T2200,2283A,116.8094,33.9008,淮北市,烈山区政府,,33,33,41,21,28,42,42,67,56,22,12,5,6,0.6,0.5
2026-04-09T2200,4017A,116.7926,33.9534,淮北市,市博物馆,,37,37,32,20,25,43,43,68,59,24,14,4,5,0.8,0.6
2026-04-09T2200,4100A,116.8322,33.9884,淮北市,杜集区第一实验学校,颗粒物(PM10),55,57,51,24,32,33,33,62,55,19,23,6,7,0.7,0.3
2026-04-09T2200,2277A,116.8304,32.7726,淮南市,潘集区政府,,33,30,39,23,31,30,30,54,45,25,19,5,5,0.5,0.5
2026-04-09T2200,2279A,116.8569,32.5949,淮南市,谢家集区政府,,29,21,37,20,33,34,34,53,47,18,16,7,8,0.5,0.5
2026-04-09T2200,2280A,116.8279,32.6333,淮南市,八公山区政府,,32,29,43,22,34,28,28,53,47,16,12,8,7,0.5,0.5
2026-04-09T2200,2894A,117.0561,32.6536,淮南市,经济技术开发区消防队,,33,30,42,23,32,35,35,51,47,20,19,7,8,0.5,0.5
2026-04-09T2200,3329A,117.011,32.5891,淮南市,山南新区,,33,NA,44,23,35,35,35,52,48,18,17,7,8,0.6,0.5
2026-04-09T2200,4209A,117.003137,32.644456,淮南市,国庆中路369号,颗粒物(PM10),53,54,57,23,35,27,27,47,40,19,16,6,12,0.3,0.2
2026-04-09T2200,2446A,114.9021,30.474,黄冈市,职工中心,,30,30,20,12,11,19,19,102,44,15,9,5,6,0.4,0.6
2026-04-09T2200,2929A,114.8858,30.4519,黄冈市,红卫路,,20,20,17,12,13,38,38,109,49,10,9,4,5,0.4,0.5
2026-04-09T2200,3398A,114.9134,30.4446,黄冈市,市林业局,,23,22,20,16,14,41,41,103,55,11,8,5,4,0.3,0.3
2026-04-09T2200,2672A,102.02,35.5101,黄南藏族自治州,同仁县隆务镇,,34,34,31,15,15,87,87,114,111,3,3,10,11,0.2,0.2
2026-04-09T2200,2295A,118.2905,29.6965,黄山市,延安路89号,,25,8,30,3,20,79,79,79,79,7,13,4,5,0.5,0.5
2026-04-09T2200,2297A,118.1369,30.2755,黄山市,黄山区政府5号楼,,23,8,20,3,10,71,71,87,72,6,5,2,2,0.4,0.4
2026-04-09T2200,4210A,118.335445,29.720283,黄山市,滨江东路7-2号,,28,23,38,3,17,88,88,84,84,5,12,/,/,/,/
2026-04-09T2200,2423A,115.0547,30.2332,黄石市,沈家营,,38,38,35,13,11,45,45,79,61,11,12,8,12,0.2,0.7
2026-04-09T2200,2426A,114.899,30.211,黄石市,铁山,,29,29,30,12,11,9,9,89,59,38,12,8,9,0.6,0.5
2026-04-09T2200,2427A,115.0259,30.2108,黄石市,团城山,,36,36,28,16,13,41,41,79,57,12,9,9,10,0.5,0.6
2026-04-09T2200,3149A,115.0174,30.1591,黄石市,笔架山北路,,34,34,31,14,11,58,58,85,79,8,8,8,10,0.6,0.6
2026-04-09T2200,4185A,115.078022,30.21118,黄石市,磁湖东路29号,,41,41,35,19,17,71,71,98,70,15,18,4,5,0.7,1
2026-04-09T2200,1392A,114.4181,23.0528,惠州市,河南岸金山湖子站,,30,30,37,17,16,36,36,71,57,15,10,6,6,0.5,0.6
2026-04-09T2200,1393A,114.4055,23.0824,惠州市,下埔横江三路子站,,39,39,44,19,17,36,36,71,58,15,8,4,4,0.6,0.6
2026-04-09T2200,1395A,114.4645,22.7832,惠州市,惠阳区承修路船湖子站,,31,31,45,17,17,39,39,76,56,9,8,5,5,0.4,0.3
2026-04-09T2200,1396A,114.5316,22.7423,惠州市,大亚湾管委会子站,,20,20,39,12,16,44,44,71,58,2,6,4,4,0.5,0.5
2026-04-09T2200,3314A,114.4334,22.8134,惠州市,惠阳秋长,,22,22,39,13,17,41,41,76,62,10,8,/,/,/,/
2026-04-09T2200,3452A,114.6521,22.7755,惠州市,大亚湾霞涌,,12,9,34,8,14,36,36,67,55,15,8,/,/,/,/
2026-04-09T2200,4300A,114.4089,23.1147,惠州市,文华一路1号,,28,28,36,17,17,36,36,71,58,16,9,/,/,/,/
2026-04-09T2200,2240A,130.9618,45.2926,鸡西市,环保局,颗粒物(PM10),53,53,105,34,20,42,42,95,76,27,9,8,7,0.5,0.3
2026-04-09T2200,2243A,130.9294,45.2959,鸡西市,第一中学,颗粒物(PM10),60,63,102,34,20,33,33,94,75,35,8,5,5,0.4,0.2
2026-04-09T2200,3707A,131.0069,45.2988,鸡西市,欧美日汽修厂,颗粒物(PM10),99,118,106,44,21,42,42,89,72,17,8,5,4,0.5,0.4
2026-04-09T2200,2367A,114.9753,27.0803,吉安市,红声器材厂,颗粒物(PM10),57,59,41,31,23,75,75,94,91,19,10,6,5,0.7,0.8
2026-04-09T2200,2369A,114.9903,27.1313,吉安市,市环境监测站,,50,50,38,29,24,84,84,98,95,7,5,8,8,/,/
2026-04-09T2200,2370A,115.009527,27.096792,吉安市,青原区法院,,50,50,41,31,22,86,86,98,95,7,6,6,6,0.8,0.8
2026-04-09T2200,1772A,126.54,43.8622,吉林市,哈达湾,细颗粒物(PM2.5),108,98,61,68,38,49,49,111,78,48,19,12,9,0.9,0.6
2026-04-09T2200,1773A,126.5843,43.8358,吉林市,东局子,细颗粒物(PM2.5),137,166,77,100,43,21,21,99,65,59,22,5,5,1.4,0.8
2026-04-09T2200,1774A,126.5051,43.8243,吉林市,电力学院,细颗粒物(PM2.5),119,133,70,80,39,52,52,115,75,37,21,9,9,1.4,0.8
2026-04-09T2200,1775A,126.6133,43.8971,吉林市,江北,细颗粒物(PM2.5),115,118,70,76,38,47,47,98,78,23,15,10,10,1.0,0.8
2026-04-09T2200,1776A,126.5549,43.8304,吉林市,江南公园,细颗粒物(PM2.5),121,133,62,83,36,22,22,106,60,65,23,9,9,1.1,0.6
2026-04-09T2200,2868A,126.4737,43.953,吉林市,九站,细颗粒物(PM2.5),119,129,87,80,50,56,56,84,71,22,29,14,14,1.0,0.7
2026-04-09T2200,1299A,116.9866,36.6118,济南市,科干所,NA,NA,61,43,49,44,NA,NA,71,NA,20,20,6,6,0.7,0.7
2026-04-09T2200,1300A,116.9379,36.6652,济南市,农科所,细颗粒物(PM2.5),86,68,48,53,40,30,30,59,52,23,21,5,5,0.4,0.4
2026-04-09T2200,1301A,117.1265,36.6736,济南市,开发区,颗粒物(PM10),57,59,46,37,34,56,56,75,71,22,20,5,4,0.6,0.6
2026-04-09T2200,1303A,117.0616,36.6865,济南市,省种子仓库,颗粒物(PM10),67,73,50,43,36,45,45,74,69,26,19,6,7,0.7,0.6
2026-04-09T2200,1304A,116.9495185,36.644937,济南市,机床二厂,细颗粒物(PM2.5),92,63,45,56,44,46,46,65,61,26,24,5,5,0.6,0.6
2026-04-09T2200,1305A,117.0496,36.6629,济南市,市监测站,颗粒物(PM10),53,54,43,34,46,54,54,69,66,24,22,3,3,0.6,0.7
2026-04-09T2200,1306A,116.7674,36.5458,济南市,长清党校,细颗粒物(PM2.5),86,83,49,53,33,32,32,66,59,32,21,2,3,0.8,0.6
2026-04-09T2200,1961A,117.5323,36.6865,济南市,东山小学,细颗粒物(PM2.5),64,63,52,42,35,55,55,67,66,25,23,3,3,0.4,0.5
2026-04-09T2200,3059A,117.7181,36.205,济南市,泰兴公司,颗粒物(PM10),53,53,34,30,21,70,70,76,72,15,16,8,7,0.8,0.6
2026-04-09T2200,3064A,117.6861,36.2172,济南市,莱芜战役纪念馆,颗粒物(PM10),51,51,33,30,21,59,59,70,66,16,14,5,4,1.2,0.6
2026-04-09T2200,3494A,117.1673,36.9782,济南市,济阳区政府,细颗粒物(PM2.5),76,59,47,48,43,39,39,66,58,29,19,9,9,0.6,0.6
2026-04-09T2200,3495A,117.1168,36.6299,济南市,锦屏中学,,45,39,30,31,32,57,57,65,65,15,18,4,4,0.2,0.2
2026-04-09T2200,4108A,117.7107,36.2385,济南市,山财大街5号,颗粒物(PM10),51,51,28,34,22,57,57,74,69,26,18,4,5,0.7,0.7
2026-04-09T2200,4109A,116.9744,36.6889,济南市,无影山路12号,细颗粒物(PM2.5),94,61,37,57,43,35,35,64,56,30,21,4,4,0.9,0.8
2026-04-09T2200,1653A,116.6229,35.4288,济宁市,火炬城,细颗粒物(PM2.5),60,NA,25,40,29,42,42,58,54,14,14,8,5,0.8,0.7
2026-04-09T2200,3500A,116.5808,35.3703,济宁市,北湖一中,,36,28,28,25,25,57,57,62,60,13,14,6,6,0.5,0.5
2026-04-09T2200,3501A,116.8251,35.5592,济宁市,服务中心,细颗粒物(PM2.5),54,NA,25,37,27,55,55,63,60,13,13,3,1,0.8,0.7
2026-04-09T2200,3678A,116.5907,35.4054,济宁市,市第七中学,,38,37,28,26,27,62,62,68,66,16,15,1,1,0.7,0.6
2026-04-09T2200,4111A,116.6075,35.4566,济宁市,任和路,颗粒物(PM10),60,63,43,30,24,42,42,65,60,16,15,4,4,0.5,0.5
2026-04-09T2200,4112A,116.5648,35.3921,济宁市,文体南路1号,颗粒物(PM10),63,67,45,30,23,24,24,60,54,39,14,4,3,0.7,0.6
2026-04-09T2200,4122A,112.6071,35.1015,济源市,市委党校,颗粒物(PM10),93,110,54,46,26,18,18,85,70,39,19,7,7,1.3,0.9
2026-04-09T2200,4123A,112.596,35.0702,济源市,沁园中路1号,细颗粒物(PM2.5),90,93,40,55,27,31,31,86,74,39,16,6,4,1.1,0.7
2026-04-09T2200,2255A,130.2749,46.8028,佳木斯市,佳纺,颗粒物(PM10),55,56,55,15,13,70,70,94,74,10,12,5,5,0.3,0.3
2026-04-09T2200,2257A,130.3258,46.7975,佳木斯市,环保局,,33,33,50,13,13,55,55,100,81,12,9,4,5,0.3,0.3
2026-04-09T2200,4285A,130.363,46.806,佳木斯市,顺和街,,30,29,49,21,14,60,60,88,77,10,11,2,2,0.3,0.3
2026-04-09T2200,4286A,130.3952,46.8268,佳木斯市,长安路196号,,27,27,50,9,12,59,59,94,80,7,6,10,7,0.3,0.3
2026-04-09T2200,1252A,120.7439,30.778,嘉兴市,清河小学,,33,33,32,16,11,85,85,97,92,17,19,6,7,0.5,0.6
2026-04-09T2200,1253A,120.7261,30.7477,嘉兴市,嘉兴学院,,26,26,31,17,14,78,78,102,96,23,26,5,6,0.4,0.5
2026-04-09T2200,2872A,120.7845,30.7524,嘉兴市,南湖区残联,,26,23,22,17,14,83,83,100,98,17,17,3,4,0.5,0.5
2026-04-09T2200,3407A,120.6915,30.7741,嘉兴市,秀洲住建,,26,19,22,12,11,83,83,103,95,14,16,5,6,0.4,0.3
2026-04-09T2200,1945A,98.291,39.7705,嘉峪关市,气象局,NA,NA,66,81,21,21,66,66,126,118,58,20,8,10,NA,0.3
2026-04-09T2200,2884A,98.2672,39.7978,嘉峪关市,酒钢宾馆,,48,48,87,19,24,100,100,121,118,19,13,31,16,1.2,0.7
2026-04-09T2200,3248A,98.2644,39.7723,嘉峪关市,雄关区,颗粒物(PM10),73,82,84,21,23,86,86,124,116,31,21,8,8,0.9,0.6
2026-04-09T2200,1383A,113.1063,22.6058,江门市,北街,,16,15,27,11,12,35,35,50,44,10,11,/,/,/,/
2026-04-09T2200,1384A,113.073,22.5835,江门市,西区,,29,29,29,12,14,32,32,52,45,17,12,/,/,/,/
2026-04-09T2200,1385A,113.0218,22.531,江门市,圭峰西,,20,20,27,14,14,18,18,47,39,29,13,/,/,/,/
2026-04-09T2200,1386A,113.0826,22.5947,江门市,东湖,,25,25,31,13,13,34,34,51,44,12,10,6,5,0.4,0.4
2026-04-09T2200,3311A,113.1077,22.5647,江门市,江海富民,,34,34,48,11,14,36,36,53,46,11,10,/,/,0.3,0.3
2026-04-09T2200,3449A,113.0496,22.4669,江门市,新会银湖,,25,25,24,11,11,34,34,47,42,13,12,6,6,0.3,0.3
2026-04-09T2200,3335A,113.3137,35.2643,焦作市,马村街道办,细颗粒物(PM2.5),72,70,42,46,29,38,38,92,81,36,14,10,9,0.8,0.6
2026-04-09T2200,3336A,113.2464,35.2374,焦作市,焦作技师学院,细颗粒物(PM2.5),117,85,43,78,33,42,42,91,78,31,13,10,8,1.4,1
2026-04-09T2200,3477A,113.1656,35.2536,焦作市,中站许衡医院,颗粒物(PM10),69,76,49,35,42,69,69,95,88,9,13,12,14,0.9,0.9
2026-04-09T2200,3981A,113.2456,35.18,焦作市,原李万街道办,细颗粒物(PM2.5),84,88,46,52,34,49,49,82,73,24,14,14,10,0.7,0.6
2026-04-09T2200,4264A,113.234,35.219,焦作市,新安路1731号,细颗粒物(PM2.5),126,NA,48,88,39,37,37,96,81,47,18,13,9,1.2,1
2026-04-09T2200,4295A,113.2722,35.2121,焦作市,人民路3066号,细颗粒物(PM2.5),96,89,46,58,30,40,40,94,83,28,17,9,5,0.8,0.6
2026-04-09T2200,1708A,116.3701,23.5345,揭阳市,新兴,,21,21,64,11,32,46,46,75,56,8,17,6,9,0.5,0.6
2026-04-09T2200,1709A,116.3261,23.5442,揭阳市,西马,,42,42,69,14,32,42,42,84,65,15,16,5,7,0.6,0.6
2026-04-09T2200,1710A,116.361,23.5627,揭阳市,东兴,,22,22,61,11,31,49,49,88,69,9,15,2,6,/,/
2026-04-09T2200,1711A,116.4151,23.5295,揭阳市,渔湖,,23,23,66,13,32,58,58,96,78,11,15,2,4,/,/
2026-04-09T2200,3320A,116.4028,23.5699,揭阳市,曲溪,,32,32,56,11,29,49,49,90,72,6,13,9,11,0.5,0.6
2026-04-09T2200,1944A,102.1691,38.5166,金昌市,天庆家园,,34,34,83,16,27,99,99,126,122,6,3,11,16,0.4,0.4
2026-04-09T2200,4022A,102.1648,38.5369,金昌市,金川区人防中心,颗粒物(PM10),53,53,95,23,26,93,93,122,118,7,4,3,4,0.3,0.3
2026-04-09T2200,4239A,102.193042,38.531887,金昌市,长春路96号,,40,40,82,14,27,99,99,119,115,3,2,5,6,0.4,0.4
2026-04-09T2200,1262A,119.6478,29.0773,金华市,十五中,"颗粒物(PM10),细颗粒物(PM2.5)",88,103,54,54,29,17,17,122,94,58,24,4,4,0.9,0.7
2026-04-09T2200,1263A,119.6859,29.1032,金华市,监测站,细颗粒物(PM2.5),82,88,44,51,28,5,5,124,88,79,30,5,5,0.8,0.6
2026-04-09T2200,3659A,119.656,29.1132,金华市,气象局,颗粒物(PM10),82,94,52,47,24,8,8,112,78,68,33,4,4,0.8,0.6
2026-04-09T2200,1767A,121.1114,41.0879,锦州市,南山,,43,NA,38,30,27,75,75,90,80,13,20,8,11,0.6,0.5
2026-04-09T2200,1768A,121.060361,40.842794,锦州市,开发区,,46,NA,40,32,25,52,52,83,67,41,24,5,6,0.5,0.5
2026-04-09T2200,1769A,121.1836,41.1118,锦州市,百股街道,细颗粒物(PM2.5),54,NA,38,37,27,76,76,93,80,18,20,11,8,0.6,0.5
2026-04-09T2200,1770A,121.1176,41.1224,锦州市,天安街道,,36,NA,40,25,26,77,77,86,81,14,19,21,7,0.7,0.6
2026-04-09T2200,1771A,121.1303,41.1385,锦州市,北湖公园,,43,NA,38,30,27,80,80,89,81,12,17,16,9,0.4,0.4
2026-04-09T2200,2160A,112.8496,35.5051,晋城市,自来水公司,颗粒物(PM10),82,94,50,30,14,84,84,104,101,20,12,4,4,0.6,0.6
2026-04-09T2200,2162A,112.8509,35.4886,晋城市,市环保局,颗粒物(PM10),76,86,43,26,13,64,64,106,99,28,11,5,5,0.6,0.5
2026-04-09T2200,3620A,112.8258,35.4804,晋城市,泽州一中,颗粒物(PM10),70,77,36,27,14,97,97,108,108,31,19,3,3,0.5,0.6
2026-04-09T2200,4078A,112.8246,35.5152,晋城市,前书院路,颗粒物(PM10),74,83,36,26,12,62,62,93,88,56,23,5,5,0.5,0.5
2026-04-09T2200,4079A,112.8864,35.4773,晋城市,祥云街666号,颗粒物(PM10),74,83,35,34,15,79,79,108,106,22,12,6,6,0.7,0.7
2026-04-09T2200,2174A,112.6992,37.6984,晋中市,榆次区政府,颗粒物(PM10),118,166,102,31,48,94,94,109,109,17,27,2,3,0.6,1.1
2026-04-09T2200,2865A,112.7195,37.683,晋中市,榆次三中,颗粒物(PM10),132,202,107,23,44,98,98,115,114,9,22,3,4,0.2,0.7
2026-04-09T2200,4080A,112.7375,37.7215,晋中市,广安街188号,颗粒物(PM10),115,158,95,26,46,99,99,113,113,8,23,2,3,0,0.5
2026-04-09T2200,4200A,112.7478,37.6954,晋中市,迎宾街26号,颗粒物(PM10),121,173,101,34,44,99,99,116,115,11,21,2,6,0.3,0.6
2026-04-09T2200,2439A,112.2012,31.048,荆门市,竹园小学,,40,36,37,28,20,47,47,56,52,12,13,1,2,0.3,0.3
2026-04-09T2200,2440A,112.1968,30.9892,荆门市,掇刀,,44,44,41,23,22,41,41,69,64,17,12,8,7,0.7,0.7
2026-04-09T2200,3012A,112.1849,31.0361,荆门市,西山林语,,34,34,38,20,19,41,41,58,54,9,10,4,4,0.5,0.5
2026-04-09T2200,3547A,112.1631,31.0134,荆门市,龙泉中学南校,,47,47,38,22,18,45,45,69,59,13,13,4,4,0.9,0.7
2026-04-09T2200,4124A,112.2213,31.0654,荆门市,新台西路6号,,40,36,30,28,21,40,40,55,52,11,11,6,6,0.6,0.6
2026-04-09T2200,1844A,112.2493,30.3198,荆州市,市图书馆,细颗粒物(PM2.5),52,NA,23,36,21,27,27,61,60,23,16,6,5,0.8,0.7
2026-04-09T2200,1845A,112.2009,30.3543,荆州市,市委党校,,36,36,27,21,19,18,18,50,47,23,15,6,6,1.0,0.8
2026-04-09T2200,3194A,112.2749,30.3124,荆州市,管委会,,32,24,25,22,22,22,22,53,51,29,15,6,6,0.9,0.7
2026-04-09T2200,4268A,112.1722,30.3366,荆州市,学苑路85号,,35,33,26,24,19,21,21,65,62,13,8,1,2,0.8,0.7
2026-04-09T2200,2343A,117.2114,29.2931,景德镇市,老干部活动中心,,32,14,23,13,17,101,101,88,88,4,8,3,6,0.4,0.5
2026-04-09T2200,2344A,117.1893,29.2789,景德镇市,兽医站,,34,11,30,3,15,108,108,90,90,5,9,4,4,0.5,0.6
2026-04-09T2200,2346A,117.246,29.2958,景德镇市,陶研所,,31,7,19,3,14,98,98,89,88,6,11,5,4,0.3,0.4
2026-04-09T2200,4289A,117.154766,29.256967,景德镇市,青少年活动中心,,27,13,26,10,18,84,84,79,78,23,12,6,14,/,/
2026-04-09T2200,1803A,115.9873,29.6816,九江市,十里,,20,19,34,12,14,52,52,86,80,40,21,8,8,0.8,0.8
2026-04-09T2200,1804A,115.9583,29.7047,九江市,茅山头,,23,18,31,6,15,72,72,89,83,28,19,4,4,0.5,0.5
2026-04-09T2200,1805A,115.9877,29.7295,九江市,西园,,26,18,27,7,14,82,82,92,87,36,23,3,4,0.5,0.6
2026-04-09T2200,1808A,115.9112,29.6038,九江市,综合工业园,,42,19,46,8,14,12,12,56,53,84,33,8,11,0.4,0.5
2026-04-09T2200,3190A,116.0254,29.6995,九江市,外国语学校,,22,22,21,9,14,64,64,71,69,28,20,7,8,0.7,0.7
2026-04-09T2200,4253A,116.010205,29.659402,九江市,莲花大道8号,,25,12,29,6,13,79,79,78,78,8,13,4,5,0.5,0.6
2026-04-09T2200,4240A,98.495752,39.733935,酒泉市,玉门东路5号,颗粒物(PM10),74,83,105,31,35,64,64,110,103,36,11,6,6,0.6,0.3
2026-04-09T2200,4241A,98.5099,39.7506,酒泉市,北大街108号,颗粒物(PM10),56,58,89,34,31,79,79,99,96,20,10,8,8,0.3,0.2
2026-04-09T2200,2698A,76.0071,39.466,喀什地区,巡警大队,颗粒物(PM10),130,196,206,72,67,81,81,107,106,24,13,4,4,0.4,0.2
2026-04-09T2200,2699A,75.9756,39.4693,喀什地区,吾办,颗粒物(PM10),125,185,201,70,70,73,73,100,99,25,15,8,4,0.4,0.3
2026-04-09T2200,4027A,75.9485,39.4688,喀什地区,老干局,细颗粒物(PM2.5),138,181,217,101,73,78,78,106,104,24,14,3,3,0.2,0.1
2026-04-09T2200,1824A,114.3389,34.778,开封市,肿瘤医院,细颗粒物(PM2.5),90,58,50,55,52,65,65,112,104,30,17,7,6,0.8,0.8
2026-04-09T2200,1826A,114.2884,34.7966,开封市,世纪星幼儿园,细颗粒物(PM2.5),92,62,34,56,35,61,61,110,101,31,20,7,6,0.7,0.7
2026-04-09T2200,3147A,114.3434,34.8101,开封市,龙亭公园,细颗粒物(PM2.5),98,NA,36,59,43,69,69,114,106,29,17,7,7,1.2,1.1
2026-04-09T2200,3210A,114.3645,34.7955,开封市,汴京公园,细颗粒物(PM2.5),86,72,41,53,33,59,59,108,100,30,16,5,4,1.1,1
2026-04-09T2200,3473A,114.2485,34.8306,开封市,技师学院,细颗粒物(PM2.5),54,51,30,37,31,77,77,117,112,20,17,9,9,0.7,0.7
2026-04-09T2200,3592A,114.4518,34.7503,开封市,祥符区生态环境局,细颗粒物(PM2.5),90,NA,29,55,33,25,25,110,92,51,27,6,6,0.8,0.7
2026-04-09T2200,1951A,84.886,45.6029,克拉玛依市,长征新村,颗粒物(PM10),51,51,47,24,21,95,95,114,113,3,11,6,7,0.3,0.4
2026-04-09T2200,1952A,84.8894,45.5827,克拉玛依市,南林小区,颗粒物(PM10),55,56,48,16,8,102,102,118,118,3,14,3,3,0.2,0.2
2026-04-09T2200,1954A,84.896,44.3328,克拉玛依市,独山子区,颗粒物(PM10),109,142,110,40,15,74,74,148,141,49,8,6,6,0.9,0.6
2026-04-09T2200,1955A,85.6888,46.0909,克拉玛依市,乌尔禾区商贸楼,颗粒物(PM10),136,212,66,39,19,94,94,110,110,6,15,3,3,0.3,0.4
2026-04-09T2200,3612A,85.1045,45.6895,克拉玛依市,白碱滩区新站,颗粒物(PM10),87,101,68,19,13,111,111,122,121,2,12,8,8,0.1,0.3
2026-04-09T2200,2697A,76.1457,39.7143,克孜勒苏柯尔克孜自治州,市人民政府,颗粒物(PM10),135,211,167,68,54,84,84,108,106,21,14,5,9,0.3,0.1
2026-04-09T2200,3665A,76.1654,39.7157,克孜勒苏柯尔克孜自治州,克州文化中心,颗粒物(PM10),135,211,169,76,61,77,77,106,103,25,11,9,14,0.4,0.2
2026-04-09T2200,1450A,102.8203,24.889,昆明市,呈贡新区,,34,29,25,18,18,106,106,124,118,8,10,3,4,0.5,0.5
2026-04-09T2200,1452A,102.7253,25.0904,昆明市,龙泉镇,,34,34,29,11,15,102,102,115,111,7,9,5,5,0.4,0.3
2026-04-09T2200,1453A,102.7267,25.0378,昆明市,东风东路,,32,26,24,13,16,100,100,118,112,15,12,4,5,0.4,0.5
2026-04-09T2200,1454A,102.6744,25.0671,昆明市,金鼎山,,33,28,30,11,14,105,105,116,111,10,11,3,3,0.4,0.5
2026-04-09T2200,1455A,102.6643,25.0401,昆明市,碧鸡广场,,30,28,26,20,18,96,96,112,107,15,13,9,7,0.5,0.5
2026-04-09T2200,3179A,102.7491,25.012,昆明市,官渡区博物馆,,34,29,26,20,16,106,106,117,112,9,9,4,5,0.4,0.5
2026-04-09T2200,3375A,102.8016,24.8336,昆明市,青年创业园,,34,28,26,18,19,106,106,123,118,4,7,5,6,0.4,0.4
2026-04-09T2200,3550A,102.8,24.9787,昆明市,昆明学院,,33,28,24,19,14,104,104,119,114,8,7,5,6,0.5,0.5
2026-04-09T2200,3551A,102.5969,24.6738,昆明市,晋宁区生态环境分局,,35,34,28,24,22,102,102,115,113,6,6,2,2,0.4,0.4
2026-04-09T2200,3552A,102.6673,24.9861,昆明市,云天化总部,,35,30,26,20,15,111,111,123,118,7,9,4,5,0.4,0.4
2026-04-09T2200,1456A,91.132,29.6515,拉萨市,八廓街,,45,18,16,7,6,141,141,153,153,6,3,4,4,0.3,0.2
2026-04-09T2200,1457A,91.1221,29.6748,拉萨市,市环保局,,44,19,18,7,6,140,140,146,146,8,7,5,5,0.3,0.3
2026-04-09T2200,1458A,91.0874,29.6476,拉萨市,区监测站,,44,15,14,10,7,139,139,149,149,11,9,5,5,0.2,0.2
2026-04-09T2200,1459A,91.1774,29.6541,拉萨市,西藏大学,,43,14,15,8,6,136,136,146,146,13,9,4,4,0.2,0.2
2026-04-09T2200,1460A,90.9798,29.6586,拉萨市,区辐射站,,44,21,18,11,9,139,139,140,140,7,8,4,4,0.3,0.3
2026-04-09T2200,1461A,91.0831,29.6292,拉萨市,拉萨火车站,,45,14,13,7,6,144,144,153,153,8,7,5,4,0.2,0.2
2026-04-09T2200,2520A,109.2203,23.7252,来宾市,来宾技工学校,颗粒物(PM10),60,64,55,37,33,99,99,120,119,5,4,25,7,0.8,0.7
2026-04-09T2200,3535A,109.1781,23.7293,来宾市,兴宾区政府,颗粒物(PM10),60,64,57,34,33,95,95,130,125,26,9,12,7,0.8,0.8
2026-04-09T2200,4002A,109.2312,23.7428,来宾市,中南小学,颗粒物(PM10),55,57,54,36,34,110,110,131,130,7,7,9,6,0.6,0.6
2026-04-09T2200,1479A,103.8309,36.0467,兰州市,铁路设计院,颗粒物(PM10),65,70,87,24,33,94,94,127,120,23,23,3,8,0.3,0.4
2026-04-09T2200,3241A,103.7439,36.0841,兰州市,百合公园,颗粒物(PM10),70,77,92,30,35,90,90,133,127,22,39,11,8,0.7,1
2026-04-09T2200,3242A,103.9613,35.9985,兰州市,和平,颗粒物(PM10),86,100,88,31,30,91,91,134,126,20,19,8,10,0.5,0.6
2026-04-09T2200,4236A,103.629272,36.093822,兰州市,庄浪东路808号,颗粒物(PM10),79,90,92,23,32,104,104,157,144,11,27,16,12,0.3,0.5
2026-04-09T2200,4237A,103.7251,36.104344,兰州市,安宁西路88号,颗粒物(PM10),68,74,92,24,33,115,115,152,146,8,21,16,13,0.2,0.4
2026-04-09T2200,4238A,103.846982,36.067567,兰州市,北滨河东路1号,颗粒物(PM10),68,74,80,26,34,95,95,130,125,21,35,7,12,0.3,0.7
2026-04-09T2200,1067A,116.6712,39.5109,廊坊市,药材公司,细颗粒物(PM2.5),80,NA,60,50,51,42,42,63,55,19,20,1,1,0.6,0.6
2026-04-09T2200,1068A,116.7215,39.5592,廊坊市,开发区,细颗粒物(PM2.5),76,48,58,48,58,44,44,59,55,11,15,3,3,0.4,0.5
2026-04-09T2200,1070A,116.7246,39.5273,廊坊市,北华航天学院,细颗粒物(PM2.5),66,44,53,43,49,48,48,63,56,17,20,2,2,0.5,0.5
2026-04-09T2200,2919A,116.7022,39.5454,廊坊市,河北工业大学,细颗粒物(PM2.5),70,NA,48,45,50,43,43,66,52,15,17,2,2,0.5,0.5
2026-04-09T2200,2536A,103.7629,29.5844,乐山市,牛耳桥,,43,43,30,22,18,96,96,113,106,25,18,7,6,0.5,0.5
2026-04-09T2200,2537A,103.7501,29.6002,乐山市,市第三水厂,,37,37,29,16,19,93,93,109,102,26,21,4,4,0.5,0.5
2026-04-09T2200,2538A,103.7571,29.5664,乐山市,市监测站,,39,39,32,16,18,112,112,112,112,14,14,4,3,0.5,0.7
2026-04-09T2200,3361A,103.7313,29.563,乐山市,理工大学,,36,36,31,17,19,103,103,115,113,16,15,4,4,0.5,0.7
2026-04-09T2200,2599A,100.2497,26.8802,丽江市,丽江古城,,35,26,20,15,7,109,109,117,113,8,7,9,9,0.4,0.5
2026-04-09T2200,2600A,100.2203,26.8906,丽江市,市中心,,35,NA,11,13,7,109,109,122,117,10,9,8,8,0.4,0.4
2026-04-09T2200,1267A,119.9141,28.4513,丽水市,监测站大楼,"颗粒物(PM10),细颗粒物(PM2.5)",70,78,33,45,20,8,8,104,76,37,16,5,5,0.9,0.4
2026-04-09T2200,1268A,119.93,28.4589,丽水市,莲都小学,颗粒物(PM10),68,74,42,41,17,4,4,101,67,52,19,/,/,/,/
2026-04-09T2200,1269A,119.8794,28.4232,丽水市,余庄前,,49,49,38,34,20,17,17,96,60,16,15,5,5,0.5,0.4
2026-04-09T2200,1173A,119.1759,34.5885,连云港市,市环境监测站,细颗粒物(PM2.5),58,44,31,39,26,32,32,85,72,55,21,9,8,0.6,0.5
2026-04-09T2200,3000A,119.3577,34.6971,连云港市,德源药业,细颗粒物(PM2.5),52,44,33,36,25,67,67,89,86,21,21,6,5,0.5,0.6
2026-04-09T2200,3007A,119.178,34.8442,连云港市,新城一中,细颗粒物(PM2.5),58,56,43,39,23,60,60,92,84,21,16,6,6,0.7,0.5
2026-04-09T2200,3008A,119.3607,34.7519,连云港市,胡沟管理处,细颗粒物(PM2.5),52,48,31,36,20,46,46,86,72,32,14,13,10,0.7,0.5
2026-04-09T2200,3009A,119.1478,34.5913,连云港市,矿山设计院,NA,NA,41,33,39,22,48,48,79,72,36,20,NA,7,0.7,0.6
2026-04-09T2200,3434A,119.2414,34.6539,连云港市,工贸学校,细颗粒物(PM2.5),52,NA,26,36,27,64,64,90,84,19,13,15,10,0.6,0.5
2026-04-09T2200,3664A,119.4171,34.734,连云港市,连云街道,细颗粒物(PM2.5),52,48,41,36,25,59,59,86,84,20,15,4,4,0.6,0.5
2026-04-09T2200,2573A,102.2629,27.8981,凉山彝族自治州,西昌市政府,,37,18,20,9,11,118,118,125,125,4,6,3,7,0.3,0.5
2026-04-09T2200,2574A,102.2686,27.885,凉山彝族自治州,凉山州政府,,32,18,20,7,9,100,100,110,109,4,6,3,8,0.4,0.6
2026-04-09T2200,4229A,102.2342,27.8859,凉山彝族自治州,凯乐南路30号,,46,46,25,20,8,106,106,117,116,14,9,16,7,0.6,0.6
2026-04-09T2200,2212A,123.1978,41.2036,辽阳市,宏伟区,细颗粒物(PM2.5),102,77,33,62,17,36,36,106,80,34,12,9,6,0.9,0.5
2026-04-09T2200,2213A,123.1684,41.2497,辽阳市,新华园,细颗粒物(PM2.5),102,81,35,62,19,32,32,105,73,51,17,15,10,0.8,0.4
2026-04-09T2200,2214A,123.2355,41.2663,辽阳市,滨河路,细颗粒物(PM2.5),113,90,37,74,22,27,27,96,66,53,19,8,6,0.8,0.4
2026-04-09T2200,4083A,123.153,41.2874,辽阳市,铁西路150号,细颗粒物(PM2.5),102,85,40,62,21,24,24,99,61,48,16,8,7,0.8,0.4
2026-04-09T2200,2227A,125.1359,42.8845,辽源市,环保局,细颗粒物(PM2.5),76,57,48,48,33,84,84,109,104,20,16,8,9,0.6,0.6
2026-04-09T2200,4085A,125.0998,42.9134,辽源市,安宁大街333号,细颗粒物(PM2.5),76,66,63,48,34,89,89,116,108,13,16,7,8,0.6,0.5
2026-04-09T2200,1625A,115.9789,36.4372,聊城市,区政府,颗粒物(PM10),52,52,41,35,35,54,54,75,70,20,16,6,6,0.8,0.8
2026-04-09T2200,3200A,115.9772,36.4986,聊城市,监控中心,颗粒物(PM10),63,67,46,38,33,26,26,78,67,48,20,7,7,0.7,0.6
2026-04-09T2200,3513A,116.0443,36.436,聊城市,九州社区,颗粒物(PM10),67,73,54,43,36,46,46,81,74,33,19,5,5,0.6,0.5
2026-04-09T2200,4018A,116.0564,36.4609,聊城市,星美广场,颗粒物(PM10),70,77,53,42,36,34,34,73,64,38,17,7,7,0.8,0.8
2026-04-09T2200,4113A,116.0091,36.4495,聊城市,利民路,细颗粒物(PM2.5),72,48,34,46,41,53,53,78,75,26,19,7,7,0.7,0.6
2026-04-09T2200,2632A,94.3683,29.6373,林芝市,林芝监测站,NA,NA,8,8,3,4,NA,NA,117,117,NA,3,NA,5,NA,0.4
2026-04-09T2200,2633A,94.3616,29.6634,林芝市,林芝人民医院,,39,11,10,3,5,123,123,128,128,2,3,5,5,0.4,0.4
2026-04-09T2200,2603A,100.0779,23.8981,临沧市,市环保局,,46,NA,32,32,25,91,91,118,114,10,6,11,10,0.6,0.5
2026-04-09T2200,2604A,100.0894,23.882,临沧市,市气象局,,45,32,31,31,26,92,92,118,114,8,7,9,10,0.5,0.4
2026-04-09T2200,1733A,111.5552,36.0791,临汾市,临钢医院,细颗粒物(PM2.5),92,104,75,56,51,45,45,83,79,23,18,10,8,1.4,1.4
2026-04-09T2200,1734A,111.4984,36.0734,临汾市,技工学校,细颗粒物(PM2.5),138,NA,69,101,71,48,48,78,76,24,17,12,10,1.1,1.1
2026-04-09T2200,1736A,111.5017,36.0857,临汾市,市委,细颗粒物(PM2.5),109,116,80,69,57,51,51,78,77,25,16,11,9,1.3,1.3
2026-04-09T2200,3018A,111.5048,36.1015,临汾市,唐尧大酒店,细颗粒物(PM2.5),110,130,94,70,59,41,41,79,76,36,18,15,10,1.2,1.2
2026-04-09T2200,4244A,111.4879,36.053,临汾市,启星学校,细颗粒物(PM2.5),122,100,67,84,59,48,48,73,72,27,20,10,8,1.3,1.3
2026-04-09T2200,4271A,103.2464,35.6123,临夏回族自治州,滨河东路1号,NA,NA,94,94,51,33,NA,NA,105,NA,62,28,10,11,0.6,0.4
2026-04-09T2200,4310A,103.207136,35.599807,临夏回族自治州,新华街21号,颗粒物(PM10),63,67,69,34,33,56,56,96,87,23,16,8,8,0.0,0.3
2026-04-09T2200,1618A,118.3429,35.0532,临沂市,沂河小区,颗粒物(PM10),55,56,39,33,23,56,56,82,74,23,14,10,8,0.5,0.4
2026-04-09T2200,1619A,118.2962,35.0568,临沂市,鲁南制药厂,,46,46,31,30,22,63,63,88,78,24,16,10,10,0.5,0.4
2026-04-09T2200,1620A,118.2793,34.9976,临沂市,新光毛纺厂,,40,39,29,28,24,68,68,86,81,19,15,8,8,0.4,0.3
2026-04-09T2200,1621A,118.3955,35.0889,临沂市,河东保险公司,,46,46,34,29,22,61,61,85,78,18,13,10,9,0.4,0.4
2026-04-09T2200,3370A,118.3563,35.0215,临沂市,十里堡居委,,49,41,26,34,25,68,68,91,84,27,17,7,8,0.6,0.5
2026-04-09T2200,3496A,118.359,35.1067,临沂市,南坊新区,,49,41,32,34,26,58,58,82,74,24,20,10,9,0.5,0.4
2026-04-09T2200,3860A,118.3915,35.0297,临沂市,皇山花园小区,,49,44,31,34,23,67,67,93,84,25,21,8,8,0.6,0.6
2026-04-09T2200,1870A,109.4854,24.3898,柳州市,柳东小学,颗粒物(PM10),60,63,54,36,35,113,113,132,131,8,6,4,4,0.8,0.7
2026-04-09T2200,1871A,109.4109,24.3304,柳州市,环保监测站,颗粒物(PM10),61,65,59,39,36,97,97,121,119,14,10,5,5,0.7,0.7
2026-04-09T2200,1872A,109.3886,24.3408,柳州市,河西水厂,颗粒物(PM10),68,75,64,40,39,99,99,134,131,14,8,6,6,0.9,0.8
2026-04-09T2200,1873A,109.4263,24.2951,柳州市,市四中,细颗粒物(PM2.5),62,60,58,41,37,99,99,124,122,9,8,7,6,0.7,0.7
2026-04-09T2200,1874A,109.396,24.3658,柳州市,市九中,颗粒物(PM10),70,77,61,38,37,93,93,120,118,9,7,8,7,0.7,0.7
2026-04-09T2200,1875A,109.4912,24.3164,柳州市,古亭山,颗粒物(PM10),58,60,56,37,35,120,120,134,134,7,7,5,5,0.6,0.6
2026-04-09T2200,3402A,109.5422,24.3994,柳州市,市二中,细颗粒物(PM2.5),54,50,52,37,34,103,103,124,123,7,5,9,8,0.8,0.7
2026-04-09T2200,2307A,116.5078,31.7369,六安市,监测大楼,,26,NA,20,18,24,26,26,47,37,16,10,4,4,0.4,0.3
2026-04-09T2200,2308A,116.4738,31.7642,六安市,皖西学院,,29,NA,16,20,22,31,31,47,38,12,8,4,5,0.4,0.4
2026-04-09T2200,2309A,116.4997,31.7904,六安市,朝阳厂,,29,NA,14,20,20,23,23,47,35,20,11,6,6,0.5,0.3
2026-04-09T2200,2310A,116.5566,31.7885,六安市,开发区,,36,NA,9,25,24,24,24,48,37,18,14,5,5,0.5,0.5
2026-04-09T2200,2577A,104.8293,26.592,六盘水市,黄土坡,,32,32,20,18,10,91,91,131,123,17,7,7,5,0.3,0.2
2026-04-09T2200,2579A,104.8481,26.5898,六盘水市,民中,,35,24,18,11,9,111,111,126,123,8,5,5,4,0.2,0.2
2026-04-09T2200,2580A,104.9541,26.5506,六盘水市,双水,,35,24,17,11,9,112,112,126,122,10,8,1,4,0.3,0.4
2026-04-09T2200,4151A,104.8899,26.5685,六盘水市,钟山大道中段564号,,36,32,25,16,10,114,114,126,123,5,5,2,2,0.1,0.2
2026-04-09T2200,2336A,117.022,25.1031,龙岩市,龙岩市监测站,,38,NA,23,26,16,83,83,81,81,4,7,6,7,0.4,0.5
2026-04-09T2200,2337A,117.0257,25.0662,龙岩市,闽西职业技术学院,,32,25,24,22,15,81,81,76,76,3,6,5,7,0.6,0.6
2026-04-09T2200,2338A,117.0195,25.0306,龙岩市,龙岩学院,,32,28,25,22,12,83,83,78,78,4,4,3,2,/,/
2026-04-09T2200,2885A,104.9344,33.3827,陇南市,滨江中学,颗粒物(PM10),103,126,68,43,27,17,17,68,63,63,20,9,8,1.1,0.6
2026-04-09T2200,3247A,104.9551,33.3709,陇南市,市总工会,颗粒物(PM10),58,61,57,28,19,71,71,78,78,13,16,7,8,0.5,0.5
2026-04-09T2200,2488A,111.9984,27.7346,娄底市,市监测站,,30,26,55,21,34,50,50,92,81,10,6,3,4,0.7,0.6
2026-04-09T2200,2491A,111.9888,27.7035,娄底市,市政府,,38,34,52,26,36,56,56,106,93,8,4,3,4,0.5,0.4
2026-04-09T2200,4127A,111.9812,27.7591,娄底市,涟钢职大,细颗粒物(PM2.5),62,42,50,41,36,72,72,119,104,7,6,2,2,0.5,0.5
2026-04-09T2200,4128A,112.0303,27.7457,娄底市,娄底体校,颗粒物(PM10),53,53,68,23,32,46,46,101,88,3,2,4,4,0.7,0.5
2026-04-09T2200,1894A,105.4427,28.9063,泸州市,小市上码头,,35,29,22,24,18,95,95,120,117,19,15,8,8,0.6,0.8
2026-04-09T2200,1895A,105.4241,28.8573,泸州市,兰田宪桥,,50,50,29,27,16,62,62,112,103,21,13,6,8,0.9,0.9
2026-04-09T2200,1896A,105.4378,28.8833,泸州市,市环监站,,33,33,32,19,18,86,86,112,108,13,13,8,9,0.8,0.8
2026-04-09T2200,4272A,105.3689,28.7783,泸州市,纳溪中医医院,颗粒物(PM10),56,58,32,33,23,25,25,116,99,36,15,8,8,0.9,0.7
2026-04-09T2200,2183A,111.1447,37.5212,吕梁市,环保局,颗粒物(PM10),102,125,93,35,32,61,61,112,100,25,22,8,9,0.3,0.5
2026-04-09T2200,2185A,111.1285,37.5338,吕梁市,自来水公司,颗粒物(PM10),99,118,91,31,35,66,66,111,100,20,20,6,7,0.4,0.6
2026-04-09T2200,2867A,111.1225,37.5093,吕梁市,马茂庄小学,颗粒物(PM10),103,126,110,27,28,58,58,109,98,22,22,4,5,0.3,0.5
2026-04-09T2200,1812A,112.3934,34.6517,洛阳市,市委党校,细颗粒物(PM2.5),107,117,48,67,32,40,40,83,73,36,15,9,8,1.1,0.8
2026-04-09T2200,1815A,112.494,34.6883,洛阳市,河南林校,细颗粒物(PM2.5),98,106,50,59,27,20,20,88,75,46,26,11,11,1.0,0.6
2026-04-09T2200,1816A,112.3843,34.623,洛阳市,开发区管委会,颗粒物(PM10),82,94,47,48,29,56,56,88,81,26,18,13,12,0.8,0.7
2026-04-09T2200,1817A,112.4263,34.6249,洛阳市,市委新办公区,细颗粒物(PM2.5),108,111,48,68,38,37,37,92,79,38,19,8,9,0.9,0.6
2026-04-09T2200,3340A,112.6005,34.6323,洛阳市,伊滨,细颗粒物(PM2.5),68,72,31,44,26,21,21,88,72,38,17,8,8,0.7,0.7
2026-04-09T2200,3341A,112.495,34.6338,洛阳市,中移产业园,细颗粒物(PM2.5),80,83,45,50,30,39,39,86,78,42,23,11,10,1.0,0.7
2026-04-09T2200,3593A,112.5736,34.8993,洛阳市,吉利监测站,细颗粒物(PM2.5),76,82,37,48,26,41,41,87,76,26,20,9,10,0.4,0.4
2026-04-09T2200,3635A,112.3678,34.6623,洛阳市,河科大西苑校区,颗粒物(PM10),102,124,46,53,33,40,40,95,84,46,20,11,9,0.9,0.6
2026-04-09T2200,3636A,112.4387,34.678,洛阳市,英才小学,细颗粒物(PM2.5),109,139,59,69,37,10,10,86,69,87,31,11,11,1.3,1
2026-04-09T2200,4214A,112.460027,34.694929,洛阳市,春都路1号院,颗粒物(PM10),89,104,46,52,28,32,32,97,84,44,20,8,9,1.0,0.8
2026-04-09T2200,2399A,114.051,33.5721,漯河市,三五一五工厂,,45,39,22,31,26,58,58,104,93,23,18,5,5,0.6,0.5
2026-04-09T2200,2400A,114.0055,33.5698,漯河市,漯河大学,细颗粒物(PM2.5),72,NA,20,46,31,48,48,102,90,25,20,5,6,0.7,0.6
2026-04-09T2200,2401A,114.0134,33.5826,漯河市,市水利局,细颗粒物(PM2.5),66,NA,22,43,25,47,47,100,88,18,15,4,4,0.8,0.7
2026-04-09T2200,2402A,114.0261,33.5697,漯河市,市广电局,,40,39,24,28,26,56,56,107,96,17,15,5,5,0.8,0.6
2026-04-09T2200,3478A,113.9691,33.568,漯河市,市图书馆,,36,33,25,25,23,56,56,97,86,14,16,5,6,0.6,0.4
2026-04-09T2200,4250A,114.089259,33.588274,漯河市,韶山路11号,NA,NA,68,32,34,21,NA,NA,100,96,22,16,6,6,0.8,0.6
2026-04-09T2200,1798A,118.5084,31.6838,马鞍山市,湖东路四小,细颗粒物(PM2.5),54,NA,32,37,23,40,40,88,39,22,19,11,9,0.8,0.6
2026-04-09T2200,1799A,118.5019,31.6449,马鞍山市,开发区,,48,35,32,33,22,37,37,87,41,24,21,9,6,0.8,0.6
2026-04-09T2200,3633A,118.4914,31.681,马鞍山市,雨山,,32,32,26,21,13,24,24,77,34,36,21,16,8,1.5,0.9
2026-04-09T2200,4191A,118.527362,31.722269,马鞍山市,慈湖高新区,细颗粒物(PM2.5),66,52,43,43,26,23,23,86,32,36,22,12,10,0.5,0.7
2026-04-09T2200,1686A,111.0285,21.469,茂名市,电白南海,,29,29,33,12,12,47,47,52,49,5,5,4,4,0.9,0.9
2026-04-09T2200,1687A,110.9294,21.6533,茂名市,茂石化七小,,27,27,34,14,15,46,46,53,48,8,8,5,5,0.5,0.6
2026-04-09T2200,1688A,110.9108,21.6688,茂名市,健康路,,22,22,26,12,14,47,47,56,49,6,7,3,3,0.6,0.6
2026-04-09T2200,1689A,110.8592,21.6826,茂名市,高岭,,39,39,45,13,15,48,48,56,49,8,9,2,2,/,/
2026-04-09T2200,3450A,111.0101,21.5165,茂名市,电白水东,,24,24,22,15,14,47,47,51,49,6,6,2,2,/,/
2026-04-09T2200,2540A,103.8414,30.0871,眉山市,气象局,,47,47,50,19,28,98,98,123,118,20,22,9,8,0.7,0.7
2026-04-09T2200,3148A,103.829,30.0563,眉山市,区人社局,,49,49,47,14,23,85,85,119,112,32,25,8,7,0.5,0.5
2026-04-09T2200,4148A,103.8836,30.0695,眉山市,眉职院,,35,35,58,13,28,89,89,123,110,19,22,8,7,0.8,0.8
2026-04-09T2200,1690A,116.1248,24.3307,梅州市,梅江月梅,,29,27,26,20,13,60,60,71,69,9,10,/,/,/,/
2026-04-09T2200,1691A,116.0798,24.2719,梅州市,梅县新城,,25,20,27,17,18,62,62,71,69,6,10,8,8,0.4,0.5
2026-04-09T2200,3315A,116.1234,24.2994,梅州市,梅龙,,27,27,22,18,15,65,65,78,75,8,9,6,8,0.5,0.6
2026-04-09T2200,1878A,104.7775,31.4741,绵阳市,富乐山,,37,37,28,16,17,87,87,105,100,9,15,6,7,0.6,0.7
2026-04-09T2200,1880A,104.6698,31.4668,绵阳市,高新区自来水公司,颗粒物(PM10),73,82,40,35,20,2,2,110,79,85,27,6,6,1.0,0.7
2026-04-09T2200,3491A,104.6899,31.5324,绵阳市,西科大附属小学,颗粒物(PM10),62,66,36,30,21,18,18,121,104,80,26,6,7,0.7,0.5
2026-04-09T2200,3492A,104.5647,31.5343,绵阳市,安州区旅游局,颗粒物(PM10),65,70,35,31,19,39,39,119,102,34,18,4,7,0.6,0.5
2026-04-09T2200,4146A,104.7092,31.4972,绵阳市,科技城新区公安局,颗粒物(PM10),53,54,35,24,18,52,52,108,96,47,26,7,7,0.8,0.7
2026-04-09T2200,4226A,104.765114,31.453094,绵阳市,绵阳市气象局,,49,49,35,25,20,41,41,94,88,48,24,7,8,0.8,0.6
2026-04-09T2200,1784A,129.61,44.561,牡丹江市,环保大楼,"颗粒物(PM10),细颗粒物(PM2.5)",86,100,83,53,32,41,41,84,63,40,23,6,3,0.8,0.5
2026-04-09T2200,1787A,129.6364,44.6075,牡丹江市,机车工厂,细颗粒物(PM2.5),108,103,120,68,51,20,20,66,53,44,34,100,36,0.8,0.6
2026-04-09T2200,1788A,129.6386,44.5462,牡丹江市,第一中学,细颗粒物(PM2.5),66,65,77,43,29,32,32,83,61,37,22,4,5,0.6,0.5
2026-04-09T2200,4287A,129.5992,44.5964,牡丹江市,东晓云街98号,细颗粒物(PM2.5),80,89,96,50,33,47,47,76,64,19,22,4,3,0.7,0.6
2026-04-09T2200,2531A,105.0703,29.61,内江市,市监测站,NA,NA,NA,29,NA,20,9,9,125,96,NA,21,NA,10,1.1,0.7
2026-04-09T2200,2533A,105.0657,29.5807,内江市,内江二中,颗粒物(PM10),75,85,42,19,19,53,53,124,106,36,20,8,8,0.5,0.4
2026-04-09T2200,2534A,105.0407,29.5828,内江市,内江日报社,,35,35,24,16,19,56,56,134,114,49,19,8,8,0.5,0.5
2026-04-09T2200,4147A,105.0433,29.6105,内江市,玉峰路西段888号,颗粒物(PM10),92,108,32,21,20,28,28,134,110,51,20,7,9,0.6,0.4
2026-04-09T2200,2628A,92.0653,31.4846,那曲市,那曲监测站,细颗粒物(PM2.5),64,64,31,42,20,90,90,122,117,36,19,9,7,1.3,0.8
2026-04-09T2200,4243A,92.0515,31.4787,那曲市,那曲市委宣传部,,36,NA,16,24,13,114,114,130,126,11,10,12,11,0.6,0.6
2026-04-09T2200,1291A,115.8887,28.7006,南昌市,省林业公司,,28,6,36,3,25,88,88,94,88,3,11,3,6,0.2,0.3
2026-04-09T2200,1292A,115.813,28.7443,南昌市,林科所,,25,NA,30,3,22,80,80,104,92,4,10,7,9,0.6,0.6
2026-04-09T2200,1294A,115.8518,28.687,南昌市,建工学校,,29,9,37,3,24,91,91,93,88,5,15,8,11,0.7,0.8
2026-04-09T2200,1295A,115.8926,28.6425,南昌市,象湖,NA,NA,NA,35,2,29,93,93,99,93,3,16,7,9,0.9,0.9
2026-04-09T2200,3046A,115.9084,28.6062,南昌市,机电学校,,31,9,44,3,30,98,98,104,98,3,13,4,6,0.5,0.6
2026-04-09T2200,3690A,115.9718,28.7032,南昌市,外国语学校,,30,8,41,3,29,94,94,94,89,5,18,8,10,0.5,0.6
2026-04-09T2200,4106A,115.7923,28.6873,南昌市,工业二路,NA,NA,NA,45,NA,24,89,89,97,92,8,13,5,7,NA,0.6
2026-04-09T2200,4192A,115.931587,28.686774,南昌市,南京东路235号,,30,22,42,3,26,96,96,99,93,2,14,4,7,0.3,0.4
2026-04-09T2200,1906A,106.0791,30.8022,南充市,南充市委,,45,45,27,25,15,11,11,95,77,60,19,7,7,0.5,0.4
2026-04-09T2200,1907A,106.1038,30.8215,南充市,南充炼油厂,颗粒物(PM10),53,54,32,19,15,42,42,91,81,39,16,5,4,0.4,0.3
2026-04-09T2200,4227A,106.108336,30.788436,南充市,梨树横街98号,,37,37,27,22,15,42,42,101,92,44,17,6,6,0.5,0.3
2026-04-09T2200,4304A,106.1172,30.843,南充市,清泉寺北路188号,,48,48,29,19,13,78,78,101,99,10,11,6,6,0.3,0.3
2026-04-09T2200,4305A,106.067,30.7616,南充市,同庆路1号,,45,45,26,24,14,12,12,91,73,69,20,6,6,0.9,0.4
2026-04-09T2200,1151A,118.8033,32.1085,南京市,迈皋桥,,43,NA,35,30,20,35,35,74,39,31,26,4,5,1.1,1.1
2026-04-09T2200,1152A,118.7487,32.057,南京市,草场门,,45,31,26,31,17,40,40,79,49,29,25,8,10,0.5,0.6
2026-04-09T2200,1154A,118.770105,32.004342,南京市,中华门,,35,NA,23,24,18,16,16,77,37,29,20,4,6,0.7,0.7
2026-04-09T2200,1155A,118.8059,32.0329,南京市,瑞金路,,49,NA,25,34,20,37,37,74,47,11,11,5,7,0.9,1.1
2026-04-09T2200,1156A,118.7946,32.0774,南京市,玄武湖,,39,28,30,27,15,33,33,81,46,16,14,4,7,0.6,0.7
2026-04-09T2200,1157A,118.6415,32.0964,南京市,浦口,,43,NA,27,30,16,41,41,74,44,7,13,4,5,0.5,0.5
2026-04-09T2200,1158A,118.730129,32.000956,南京市,奥体中心,,32,NA,27,22,16,7,7,64,25,33,23,6,7,0.4,0.6
2026-04-09T2200,1159A,118.9072,32.1047,南京市,仙林大学城,,46,34,29,32,18,20,20,87,43,37,22,10,11,0.8,0.7
2026-04-09T2200,3422A,118.8443,31.919,南京市,江宁彩虹桥,,33,NA,32,23,14,25,25,99,54,34,21,4,4,0.7,0.7
2026-04-09T2200,3427A,118.8497,32.3599,南京市,六合雄州,细颗粒物(PM2.5),58,59,52,39,22,34,34,55,36,20,24,4,4,0.8,0.8
2026-04-09T2200,4086A,118.7641,32.0841,南京市,新模范马路66号,,43,36,27,30,16,41,41,73,45,22,21,3,4,0.4,0.5
2026-04-09T2200,4249A,118.8707617,31.34017673,南京市,汶溪路181号,,38,38,17,23,14,48,48,105,69,19,15,5,6,0.6,0.3
2026-04-09T2200,4312A,119.019,31.6512,南京市,中山西路1号,,32,24,20,22,14,26,26,93,56,27,16,3,4,0.9,0.5
2026-04-09T2200,1401A,108.3098,22.788,南宁市,二十一中,,49,NA,46,34,35,73,73,98,89,7,8,1,2,0.7,0.7
2026-04-09T2200,1402A,108.3135,22.8529,南宁市,北湖,颗粒物(PM10),63,67,57,41,37,72,72,104,93,8,8,2,2,0.6,0.6
2026-04-09T2200,1403A,108.3205,22.8222,南宁市,市监测站,颗粒物(PM10),52,52,53,33,33,76,76,107,95,5,7,1,2,0.4,0.5
2026-04-09T2200,1404A,108.3828,22.8038,南宁市,大自然花园,细颗粒物(PM2.5),56,51,52,38,35,72,72,89,84,6,7,5,5,0.4,0.5
2026-04-09T2200,1406A,108.2397,22.8462,南宁市,区农职院,颗粒物(PM10),64,69,56,31,33,67,67,111,95,10,9,4,4,0.4,0.4
2026-04-09T2200,1407A,108.3285,22.7356,南宁市,英华嘉园,颗粒物(PM10),65,70,57,34,34,73,73,100,90,13,11,3,4,0.5,0.5
2026-04-09T2200,3401A,108.4829,22.762,南宁市,红星社区,细颗粒物(PM2.5),52,51,49,36,32,83,83,103,99,7,8,4,4,0.6,0.6
2026-04-09T2200,4132A,108.2927,23.1477,南宁市,起凤路9号,颗粒物(PM10),61,65,59,40,42,77,77,126,112,7,6,4,4,0.6,0.6
2026-04-09T2200,4221A,108.2177,22.7774,南宁市,乐贤路16号,颗粒物(PM10),51,51,55,31,35,65,65,110,92,12,12,4,5,0.5,0.6
2026-04-09T2200,2332A,118.1682,26.6371,南平市,南平市监测站,,34,34,32,22,16,71,71,95,90,8,10,5,5,0.4,0.4
2026-04-09T2200,2334A,118.1757,26.6276,南平市,南平七中,,30,26,29,21,16,68,68,95,87,8,8,4,3,0.5,0.4
2026-04-09T2200,1168A,120.9056,31.9669,南通市,狼山街道,,42,NA,22,29,12,36,36,81,60,40,28,5,5,0.7,0.6
2026-04-09T2200,1170A,120.8635,32.0231,南通市,城中,细颗粒物(PM2.5),80,NA,30,50,11,46,46,78,64,20,26,6,6,0.6,0.5
2026-04-09T2200,1171A,120.9376,31.9301,南通市,星湖花园,,50,46,23,35,13,8,8,83,56,78,31,6,5,0.8,0.6
2026-04-09T2200,1172A,120.8053,32.046,南通市,紫琅学院,细颗粒物(PM2.5),78,NA,20,49,13,41,41,92,75,22,30,7,8,0.9,0.7
2026-04-09T2200,3291A,121.0631,32.0644,南通市,通州监测站,,50,NA,22,35,11,56,56,88,79,18,17,3,5,0.7,0.7
2026-04-09T2200,3432A,120.9348,31.9874,南通市,环境教育馆,,39,29,27,27,12,58,58,88,74,24,23,7,6,0.7,0.5
2026-04-09T2200,4091A,120.8692,31.9885,南通市,洪江路,细颗粒物(PM2.5),52,37,26,36,15,43,43,70,46,32,35,6,6,1.1,0.9
2026-04-09T2200,2404A,112.5338,33.0086,南阳市,瓦房庄,NA,NA,43,31,24,15,48,48,71,67,NA,14,4,4,0.7,0.7
2026-04-09T2200,2405A,112.5002,32.9734,南阳市,汉画馆,颗粒物(PM10),56,58,32,29,14,9,9,69,59,51,17,7,6,0.8,0.7
2026-04-09T2200,2406A,112.5778,33.0144,南阳市,气象站,,42,42,27,28,15,51,51,78,74,19,18,6,6,0.6,0.6
2026-04-09T2200,2407A,112.548,32.9687,南阳市,理工学院,,48,43,32,33,17,37,37,74,68,28,15,5,5,0.7,0.6
2026-04-09T2200,4008A,112.5233,32.9921,南阳市,卧龙区政府,颗粒物(PM10),51,51,23,23,17,36,36,69,64,23,15,6,6,0.7,0.7
2026-04-09T2200,1234A,121.8352,29.9111,宁波市,区环保大楼,颗粒物(PM10),80,92,46,34,16,20,20,95,56,99,37,11,8,0.8,0.6
2026-04-09T2200,1235A,121.5595,29.8208,宁波市,万里学院,,50,50,35,34,16,76,76,117,108,26,10,7,8,0.7,0.6
2026-04-09T2200,1236A,121.713,29.9564,宁波市,龙赛医院,,44,44,37,20,16,90,90,96,76,23,21,7,6,0.6,0.5
2026-04-09T2200,1240A,121.5855,29.8635,宁波市,太古小学,颗粒物(PM10),59,62,37,30,17,70,70,107,96,26,13,4,4,0.7,0.5
2026-04-09T2200,1241A,121.5239,29.8673,宁波市,市环境监测中心,颗粒物(PM10),53,53,33,30,18,58,58,100,89,36,15,6,6,0.6,0.5
2026-04-09T2200,2871A,121.6156,29.9015,宁波市,万里国际学校,细颗粒物(PM2.5),52,41,26,36,26,73,73,100,89,30,15,5,4,0.8,0.6
2026-04-09T2200,3710A,121.5593,29.8976,宁波市,白沙活动中心,,39,38,25,27,18,74,74,100,83,21,14,5,5,0.6,0.5
2026-04-09T2200,4095A,121.8962,29.7529,宁波市,中科路88号,,50,50,30,25,15,58,58,116,104,36,7,6,6,0.5,0.4
2026-04-09T2200,2341A,119.5387,26.6611,宁德市,宁德市监测站,颗粒物(PM10),52,52,46,31,24,33,33,82,76,36,31,6,5,1.8,0.8
2026-04-09T2200,3209A,119.5231,26.6562,宁德市,宁德一中,,47,47,33,27,22,50,50,80,77,21,20,7,5,1.3,0.6
2026-04-09T2200,2618A,98.859,25.8541,怒江傈僳族自治州,州监测站,,50,47,31,35,18,73,73,95,94,18,14,8,8,0.3,0.2
2026-04-09T2200,2619A,98.8607,25.8168,怒江傈僳族自治州,泸水一中,,50,NA,30,35,21,46,46,76,68,35,20,6,5,0.6,0.4
2026-04-09T2200,1888A,101.6891,26.571,攀枝花市,弄弄坪,,29,29,23,14,11,87,87,111,101,20,16,30,19,1.4,1.3
2026-04-09T2200,1889A,101.577,26.5914,攀枝花市,河门口,,33,31,25,17,14,104,104,117,114,9,11,7,11,0.5,0.6
2026-04-09T2200,1891A,101.7365,26.4986,攀枝花市,仁和,,25,25,16,12,12,70,70,119,107,17,9,5,5,0.6,0.5
2026-04-09T2200,2835A,101.7222,26.567,攀枝花市,四十中小,,34,17,19,12,9,108,108,121,117,10,13,4,7,0.5,0.6
2026-04-09T2200,1604A,122.0303,41.1489,盘锦市,开发区,细颗粒物(PM2.5),68,53,41,44,24,72,72,102,NA,16,14,6,7,0.4,0.3
2026-04-09T2200,1605A,122.0486,41.0883,盘锦市,兴隆台,细颗粒物(PM2.5),62,43,40,41,25,64,64,88,80,23,19,8,8,0.6,0.5
2026-04-09T2200,1606A,121.8297,41.1026,盘锦市,新生街道,细颗粒物(PM2.5),64,48,35,42,19,37,37,93,73,45,24,6,8,0.8,0.4
2026-04-09T2200,1832A,113.3257,33.7423,平顶山市,新华旅馆,颗粒物(PM10),75,84,44,34,26,53,53,84,73,16,14,4,5,0.7,0.6
2026-04-09T2200,1833A,113.2917,33.737,平顶山市,规划设计院,颗粒物(PM10),63,67,40,40,24,46,46,86,73,18,13,5,6,0.8,0.7
2026-04-09T2200,1834A,113.182,33.7738,平顶山市,平顶山工学院,NA,NA,NA,28,32,25,56,56,84,74,13,15,7,8,0.5,0.5
2026-04-09T2200,3594A,112.8736,33.9068,平顶山市,石龙区,,49,42,28,34,21,28,28,78,62,14,16,6,7,0.7,0.4
2026-04-09T2200,4116A,113.284,33.7139,平顶山市,姚电大道23号,细颗粒物(PM2.5),68,70,44,44,28,44,44,87,70,24,19,6,6,0.7,0.7
2026-04-09T2200,2656A,106.6633,35.5338,平凉市,聚贤嘉苑,颗粒物(PM10),94,111,92,31,33,30,30,124,103,59,22,11,6,0.2,0.2
2026-04-09T2200,2657A,106.7021,35.5307,平凉市,博物馆,颗粒物(PM10),86,100,94,30,41,60,60,121,107,23,21,9,10,0.3,0.4
2026-04-09T2200,2348A,113.8384,27.6436,萍乡市,中医院,细颗粒物(PM2.5),56,43,47,38,31,99,99,122,114,10,13,9,6,0.8,0.8
2026-04-09T2200,2350A,113.8677,27.6438,萍乡市,市环保局,"颗粒物(PM10),细颗粒物(PM2.5)",52,52,43,36,34,94,94,112,105,11,14,19,9,0.8,0.9
2026-04-09T2200,2351A,113.8663,27.6202,萍乡市,安源区政府,细颗粒物(PM2.5),56,56,45,38,31,87,87,104,101,5,7,9,5,0.3,0.3
2026-04-09T2200,4107A,113.8686,27.6668,萍乡市,联洪村委会,"颗粒物(PM10),细颗粒物(PM2.5)",58,60,51,39,28,77,77,94,90,5,8,8,3,0.6,0.4
2026-04-09T2200,2319A,119.0142,25.4324,莆田市,荔城区仓后路,颗粒物(PM10),60,64,45,12,23,49,49,101,89,11,19,/,/,/,/
2026-04-09T2200,2320A,119.0016,25.4553,莆田市,莆田市监测站,,21,21,33,12,15,42,42,102,85,13,10,3,3,0.3,0.4
2026-04-09T2200,2321A,119.112,25.4561,莆田市,涵江区六中,,27,27,45,10,24,47,47,117,83,20,24,/,/,0.6,0.6
2026-04-09T2200,2322A,119.1014,25.3215,莆田市,秀屿区政府,,25,22,42,17,31,64,64,118,91,10,13,4,5,0.4,0.5
2026-04-09T2200,2392A,115.0312,35.7636,濮阳市,环保局,细颗粒物(PM2.5),76,NA,24,48,28,58,58,69,68,19,17,4,3,0.9,0.7
2026-04-09T2200,3021A,115,35.7667,濮阳市,濮水河管理处,细颗粒物(PM2.5),74,60,40,47,29,44,44,76,68,8,6,3,3,1.0,0.8
2026-04-09T2200,4118A,115.0552,35.7816,濮阳市,中原东路68号,细颗粒物(PM2.5),68,67,44,44,27,59,59,78,76,15,15,2,1,0.8,0.5
2026-04-09T2200,4216A,115.0923632,35.76857718,濮阳市,任丘路479号,细颗粒物(PM2.5),68,60,47,44,30,56,56,74,73,20,16,2,2,1.0,0.8
2026-04-09T2200,2601A,100.9801,22.7634,普洱市,市环保局,颗粒物(PM10),65,71,61,34,31,104,104,120,116,13,9,4,4,0.7,0.7
2026-04-09T2200,2602A,100.9763,22.8237,普洱市,普洱第二中学,细颗粒物(PM2.5),70,69,60,45,35,76,76,117,110,24,14,6,6,0.8,0.6
2026-04-09T2200,3345A,131.0413,45.7795,七台河市,中波台,颗粒物(PM10),58,60,102,30,19,52,52,98,83,27,7,5,4,0.6,0.4
2026-04-09T2200,3637A,131.0136,45.7688,七台河市,人民广场,颗粒物(PM10),71,79,107,25,14,31,31,95,76,51,13,9,9,0.8,0.5
2026-04-09T2200,3684A,130.8639,45.8144,七台河市,新建矿广场,,39,39,109,24,18,27,27,84,62,27,13,9,9,0.3,0.2
2026-04-09T2200,1779A,123.9307,47.3641,齐齐哈尔市,安居小区,细颗粒物(PM2.5),100,88,30,60,12,101,101,99,95,16,12,7,5,0.4,0.2
2026-04-09T2200,1780A,123.9497,47.3389,齐齐哈尔市,中心广场,细颗粒物(PM2.5),96,69,32,58,11,99,99,94,93,10,15,5,4,0.5,0.4
2026-04-09T2200,1781A,123.9483,47.3229,齐齐哈尔市,农牧车辆厂,细颗粒物(PM2.5),90,73,33,55,11,102,102,99,99,13,13,8,7,0.3,0.3
2026-04-09T2200,1783A,123.9442,47.2994,齐齐哈尔市,市环境监测站,细颗粒物(PM2.5),84,77,31,52,10,83,83,97,88,23,17,4,3,0.4,0.3
2026-04-09T2200,3662A,123.6341,47.2079,齐齐哈尔市,富区青少年活动中心,细颗粒物(PM2.5),96,99,30,58,11,76,76,96,92,15,10,8,4,0.4,0.3
2026-04-09T2200,2591A,107.9765,26.5724,黔东南苗族侗族自治州,市环境监测站,细颗粒物(PM2.5),60,44,51,40,46,120,120,117,116,5,5,2,3,0.5,0.6
2026-04-09T2200,2881A,107.8909,26.531,黔东南苗族侗族自治州,凯里学院,颗粒物(PM10),51,51,60,33,45,117,117,120,120,4,3,3,3,0.5,0.7
2026-04-09T2200,2593A,107.5223,26.2371,黔南布依族苗族自治州,小围寨,,45,34,44,31,40,65,65,114,106,15,6,7,5,0.6,0.7
2026-04-09T2200,3538A,107.5175,26.2977,黔南布依族苗族自治州,沙坝,颗粒物(PM10),63,68,48,27,38,36,36,94,81,21,6,4,4,0.9,0.9
2026-04-09T2200,2589A,104.9022,25.0943,黔西南布依族苗族自治州,场坝街,,35,20,20,16,16,111,111,130,126,5,4,5,6,0.3,0.3
2026-04-09T2200,2590A,104.8812,25.0994,黔西南布依族苗族自治州,坪东大道,,34,34,22,20,14,86,86,131,119,16,6,4,3,0.5,0.3
2026-04-09T2200,2502A,108.6238,21.9667,钦州市,市环保站,颗粒物(PM10),51,51,54,22,24,62,62,101,88,14,11,7,5,0.8,0.7
2026-04-09T2200,2503A,108.655,21.9481,钦州市,沙埠小学,颗粒物(PM10),51,51,56,29,27,63,63,88,82,9,14,7,6,0.6,0.7
2026-04-09T2200,2504A,108.5989,21.7435,钦州市,港区一小,颗粒物(PM10),56,58,65,30,29,70,70,86,84,8,10,2,3,0.4,0.5
2026-04-09T2200,3404A,108.5959,21.9634,钦州市,北职校,,45,45,51,30,29,60,60,96,84,10,11,4,5,0.6,0.6
2026-04-09T2200,1046A,119.5247,39.9346,秦皇岛市,建设大厦,,25,24,34,8,14,78,78,81,75,10,14,4,4,0.3,0.3
2026-04-09T2200,3132A,119.5979,39.938,秦皇岛市,文明里,,28,NA,36,19,13,69,69,76,75,25,21,8,8,0.2,0.2
2026-04-09T2200,4066A,119.7458,39.9952,秦皇岛市,南园路157号,,23,NA,29,16,15,62,62,71,71,32,28,6,7,0.5,0.3
2026-04-09T2200,4067A,119.5131,39.8858,秦皇岛市,翠岛大街1号,,24,24,36,13,13,67,67,78,72,24,20,7,8,0.2,0.2
2026-04-09T2200,4198A,119.509013,39.825305,秦皇岛市,北戴河轮滑馆,,24,20,33,16,11,76,76,88,87,18,15,7,8,0.2,0.2
2026-04-09T2200,1310A,120.404,36.0625,青岛市,市南区东部子站,细颗粒物(PM2.5),54,48,25,37,14,74,74,102,77,16,10,6,9,0.4,0.4
2026-04-09T2200,1311A,120.362344,36.10282,青岛市,四方区子站,细颗粒物(PM2.5),52,44,22,36,14,79,79,110,83,13,12,6,6,0.7,0.6
2026-04-09T2200,1312A,120.294373,36.054183,青岛市,市南区西部子站,细颗粒物(PM2.5),90,NA,24,55,15,63,63,106,78,28,17,4,4,0.7,0.5
2026-04-09T2200,1313A,120.4581,36.0858,青岛市,崂山区子站,,45,44,27,31,12,76,76,115,83,20,13,8,8,0.5,0.3
2026-04-09T2200,1315A,120.3945,36.3083,青岛市,城阳区子站,,41,41,24,26,13,97,97,111,85,14,14,6,6,0.6,0.6
2026-04-09T2200,3642A,120.3454,36.0735,青岛市,市北区南部,,49,36,22,34,12,71,71,112,84,20,13,3,2,0.6,0.5
2026-04-09T2200,3643A,120.3897,36.18,青岛市,李沧区北部,,46,39,21,32,14,77,77,104,74,18,15,9,9,0.5,0.4
2026-04-09T2200,4110A,120.5222,36.4089,青岛市,盟旺路653号,,32,27,17,20,10,101,101,112,92,6,4,3,3,0.6,0.6
2026-04-09T2200,4290A,120.196923,35.954556,青岛市,珠江路669号,细颗粒物(PM2.5),84,68,31,52,17,61,61,111,79,24,17,5,4,0.7,0.6
2026-04-09T2200,4291A,120.0424,35.8656,青岛市,黄岛区人民政府广场,细颗粒物(PM2.5),64,46,25,42,16,71,71,115,85,21,13,8,8,0.7,0.5
2026-04-09T2200,1703A,113.0218,23.7086,清远市,凤城街办,,28,28,42,15,22,35,35,61,55,17,22,/,/,/,/
2026-04-09T2200,3025A,113.0479,23.6343,清远市,技师学院,,35,35,44,15,20,38,38,67,62,16,21,5,5,0.4,0.4
2026-04-09T2200,3318A,112.9898,23.7403,清远市,清新太和,,33,33,46,18,22,37,37,64,60,21,22,7,7,0.5,0.6
2026-04-09T2200,3455A,113.076,23.72,清远市,清城东城,,40,40,54,20,22,26,26,64,55,28,22,/,/,/,/
2026-04-09T2200,2661A,107.6325,35.7357,庆阳市,庆阳五中,颗粒物(PM10),75,85,69,25,26,101,101,114,112,13,8,18,4,0.3,0.4
2026-04-09T2200,2662A,107.6361,35.7067,庆阳市,市环保局,颗粒物(PM10),74,83,67,21,26,100,100,114,112,15,11,12,4,0.1,0.4
2026-04-09T2200,1916A,103.7897,25.5036,曲靖市,环境监测站,,34,29,27,18,16,106,106,133,125,8,7,4,4,0.4,0.4
2026-04-09T2200,1917A,103.8013,25.5357,曲靖市,烟厂办公区,NA,NA,30,27,15,14,NA,NA,118,116,6,6,4,7,0.3,0.5
2026-04-09T2200,3376A,103.7926,25.4651,曲靖市,南苑二区,,34,33,24,11,14,106,106,124,120,7,6,4,4,0.3,0.3
2026-04-09T2200,3377A,103.7442,25.5259,曲靖市,曲靖师范学院,颗粒物(PM10),51,51,26,20,15,100,100,129,122,16,8,10,4,0.3,0.3
2026-04-09T2200,1264A,118.8694,28.94,衢州市,环保大楼,NA,NA,NA,53,NA,28,48,48,93,83,32,31,/,/,/,/
2026-04-09T2200,1266A,118.8622,28.9809,衢州市,衢州学院,,46,46,45,27,26,45,45,94,80,29,31,6,6,0.4,0.4
2026-04-09T2200,4097A,118.9646,28.9832,衢州市,衢州三中,,43,43,50,24,26,56,56,95,82,24,32,7,8,0.6,0.6
2026-04-09T2200,1611A,118.5818,24.9116,泉州市,涂山街,,33,33,43,18,23,46,46,80,64,26,19,5,5,0.6,0.6
2026-04-09T2200,1612A,118.597,24.8976,泉州市,津头埔,,32,32,40,18,24,51,51,89,68,22,20,3,4,0.5,0.6
2026-04-09T2200,1613A,118.6669,24.9422,泉州市,万安,,28,28,41,16,22,45,45,80,64,21,18,4,4,0.5,0.5
2026-04-09T2200,4105A,118.6355,24.9148,泉州市,霞新路6号,,25,25,37,17,24,45,45,79,62,24,22,/,/,0.4,0.5
2026-04-09T2200,2626A,88.8873,29.2723,日喀则市,日喀则监测站,颗粒物(PM10),79,90,18,21,6,146,146,149,149,6,4,9,9,0.5,0.4
2026-04-09T2200,3726A,88.8775,29.2425,日喀则市,林业技术推广中心,颗粒物(PM10),104,130,19,17,4,145,145,149,149,7,4,9,8,0.4,0.3
2026-04-09T2200,1659A,119.4711,35.421,日照市,监测站,细颗粒物(PM2.5),92,73,23,56,15,58,58,108,75,29,16,8,7,0.8,0.6
2026-04-09T2200,1660A,119.523,35.4216,日照市,市政府广场,细颗粒物(PM2.5),96,66,22,58,14,67,67,109,78,22,16,6,6,0.9,0.6
2026-04-09T2200,1661A,119.5511,35.4113,日照市,港务局,细颗粒物(PM2.5),96,73,38,58,16,58,58,114,60,24,19,5,4,1.0,0.6
2026-04-09T2200,3507A,119.5326,35.4627,日照市,职业技术学院,细颗粒物(PM2.5),92,70,28,56,16,68,68,113,75,24,14,7,7,0.9,0.6
2026-04-09T2200,3604A,119.3267,35.1043,日照市,岚山环保分局,,49,48,37,34,24,53,53,101,71,29,21,11,11,0.9,0.9
2026-04-09T2200,1835A,111.1922,34.7752,三门峡市,市政府,细颗粒物(PM2.5),92,83,39,56,32,24,24,87,79,55,22,10,11,0.7,0.6
2026-04-09T2200,1836A,111.1588,34.794,三门峡市,开发区,细颗粒物(PM2.5),110,77,45,71,39,27,27,88,81,53,18,13,12,0.7,0.6
2026-04-09T2200,3039A,111.1911,34.7829,三门峡市,三门峡市第一小学,细颗粒物(PM2.5),102,93,46,62,33,35,35,90,84,52,20,15,15,0.7,0.6
2026-04-09T2200,3598A,111.1031,34.719,三门峡市,富达温泉假日酒店,颗粒物(PM10),89,104,51,51,34,15,15,92,85,70,26,18,20,0.7,0.6
2026-04-09T2200,2324A,117.621,26.2626,三明市,三钢,NA,NA,38,36,25,25,65,65,89,76,NA,18,14,14,0.5,1
2026-04-09T2200,2325A,117.6352,26.2714,三明市,三明二中,,36,30,35,25,24,67,67,86,76,11,13,6,5,1.0,0.9
2026-04-09T2200,2326A,117.6028,26.2377,三明市,三元区政府,,39,36,35,27,26,64,64,91,80,9,14,8,6,0.5,0.7
2026-04-09T2200,1877A,109.4962,18.2682,三亚市,河西子站,,20,20,29,11,16,47,47,75,58,3,3,4,4,0.4,0.4
2026-04-09T2200,3540A,109.7348,18.3443,三亚市,君悦子站,,27,27,31,10,13,45,45,71,58,7,5,4,4,0.5,0.5
2026-04-09T2200,4135A,109.1714,18.3739,三亚市,城东小学站,,27,27,31,12,16,46,46,79,61,7,4,/,/,/,/
2026-04-09T2200,2624A,91.7592,29.234,山南市,山南监测站,,41,14,10,3,2,131,131,145,145,2,4,9,9,0.2,0.2
2026-04-09T2200,2625A,91.7701,29.2436,山南市,山南人民医院,,44,16,15,3,3,138,138,144,144,3,3,10,9,0.3,0.3
2026-04-09T2200,1674A,116.6795,23.3666,汕头市,金平子站,,22,19,40,13,24,69,69,98,89,12,16,4,5,0.6,0.7
2026-04-09T2200,1675A,116.7248,23.3632,汕头市,龙湖子站,,35,NA,36,24,24,80,80,93,87,10,14,5,6,/,/
2026-04-09T2200,1676A,116.7257,23.2774,汕头市,濠江子站,,42,NA,38,29,23,97,97,106,106,14,15,8,8,/,/
2026-04-09T2200,1677A,116.7518,23.4712,汕头市,澄海子站,,29,29,45,16,24,60,60,98,83,13,12,6,7,0.7,0.7
2026-04-09T2200,1678A,116.6088,23.2539,汕头市,潮阳子站,,33,24,35,23,25,85,85,101,99,8,12,5,6,0.5,0.6
2026-04-09T2200,3444A,116.4539,23.2684,汕头市,潮南峡山,,24,24,53,14,26,60,60,85,71,6,10,6,6,0.6,0.6
2026-04-09T2200,3624A,116.4069,23.2533,汕头市,潮南子站,,24,24,64,13,28,57,57,78,67,3,8,5,6,/,/
2026-04-09T2200,1693A,115.3653,22.7751,汕尾市,市环保局,,16,11,39,6,17,50,50,83,74,2,6,5,5,0.4,0.4
2026-04-09T2200,1695A,115.362,22.7926,汕尾市,新城中学,,17,9,41,7,17,52,52,85,73,5,8,6,6,0.4,0.3
2026-04-09T2200,2645A,109.9155,33.8714,商洛市,监测站,,42,42,32,14,20,49,49,78,72,24,17,10,7,0.6,0.7
2026-04-09T2200,3045A,109.9647,33.8486,商洛市,商州区中学,颗粒物(PM10),51,51,40,15,20,35,35,73,69,36,24,4,6,0.6,0.7
2026-04-09T2200,2408A,115.6701,34.4283,商丘市,环境监测站,颗粒物(PM10),53,54,22,36,26,40,40,77,69,22,10,3,3,0.6,0.5
2026-04-09T2200,2409A,115.6458,34.4047,商丘市,粮食局,细颗粒物(PM2.5),56,NA,22,38,28,57,57,76,73,14,10,3,3,0.5,0.4
2026-04-09T2200,3171A,115.6069,34.4465,商丘市,梁园区档案局,细颗粒物(PM2.5),66,NA,22,43,27,49,49,75,73,20,14,3,3,0.5,0.4
2026-04-09T2200,4119A,115.6701,34.3767,商丘市,北海东路185号,,45,35,29,31,23,37,37,73,64,25,14,4,4,0.4,0.3
2026-04-09T2200,4120A,115.6172,34.3704,商丘市,中山大街3号,,49,35,29,34,24,57,57,72,68,18,12,4,4,0.4,0.4
2026-04-09T2200,1141A,121.401,31.2382,上海市,普陀,,44,44,35,28,14,64,64,112,95,33,21,6,6,0.5,0.5
2026-04-09T2200,1142A,121.4774,31.2043,上海市,十五厂,,37,37,38,21,16,68,68,109,98,34,21,6,6,0.8,0.7
2026-04-09T2200,1143A,121.4673,31.3011,上海市,虹口,,39,39,33,24,18,52,52,106,89,41,23,11,10,0.7,0.5
2026-04-09T2200,1147A,121.4253,31.226,上海市,静安监测站,,30,29,31,21,18,68,68,113,99,39,24,8,8,0.7,0.6
2026-04-09T2200,1148A,121.7029,31.1905,上海市,浦东川沙,,47,47,35,25,16,57,57,116,101,45,20,7,7,0.6,0.7
2026-04-09T2200,1149A,121.5339,31.229,上海市,浦东新区监测站,,28,28,31,17,15,76,76,107,100,26,16,6,6,0.5,0.5
2026-04-09T2200,1150A,121.5776,31.2038,上海市,浦东张江,,36,36,33,21,16,70,70,123,110,34,17,6,6,0.3,0.2
2026-04-09T2200,3265A,121.4242,31.3303,上海市,宝山庙行,颗粒物(PM10),63,67,41,28,16,44,44,119,94,43,20,6,6,0.5,0.5
2026-04-09T2200,3266A,121.8789,31.4662,上海市,崇明上实东滩,,43,43,32,28,17,73,73,112,97,9,16,8,8,0.3,0.3
2026-04-09T2200,3268A,121.316,31.2839,上海市,嘉定南翔,,50,50,33,25,16,24,24,102,73,51,25,4,4,0.6,0.5
2026-04-09T2200,3269A,121.3357,30.7455,上海市,金山新城,,40,40,33,26,20,70,70,96,93,24,15,5,6,0.6,0.8
2026-04-09T2200,3270A,121.4996,31.0741,上海市,闵行浦江,,37,37,32,20,14,60,60,108,99,38,17,6,6,0.5,0.4
2026-04-09T2200,3271A,121.2886,31.1663,上海市,青浦徐泾,,40,40,34,22,17,42,42,119,91,43,22,5,5,0.6,0.5
2026-04-09T2200,3272A,121.2193,31.0382,上海市,松江图书馆,NA,NA,37,32,22,17,56,56,106,95,NA,19,8,7,NA,0.5
2026-04-09T2200,3273A,121.3904,31.206,上海市,长宁仙霞,,42,42,37,20,13,39,39,102,82,43,21,5,5,0.3,0.3
2026-04-09T2200,3274A,121.7964,31.0507,上海市,浦东惠南,,28,26,32,19,18,76,76,112,104,25,16,6,6,0.6,0.6
2026-04-09T2200,3544A,121.4891,30.925,上海市,奉贤南桥新城,NA,NA,23,29,16,12,90,90,119,116,NA,9,NA,7,0.6,0.6
2026-04-09T2200,4183A,121.417401,31.16637,上海市,冠生园路458号,,44,44,31,24,16,40,40,102,86,31,20,8,8,0.7,0.5
2026-04-09T2200,4205A,121.541914,31.268301,上海市,宁武路151号,,32,32,41,19,15,77,77,110,100,30,20,8,8,0.4,0.4
2026-04-09T2200,2382A,117.9758,28.4439,上饶市,市监测站,颗粒物(PM10),56,58,39,32,26,89,89,106,94,5,12,12,7,/,/
