timepoint,stationcode,longitude,latitude,area,positionname,primarypollutant,aqi,pm10,pm10_24h,pm2_5,pm2_5_24h,o3,o3_24h,o3_8h,o3_8h_24h,no2,no2_24h,so2,so2_24h,co,co_24h
2026-04-09T1800,2568A,102.2503,31.8896,阿坝藏族羌族自治州,马师校,,38,21,18,9,8,121,121,117,117,12,4,6,5,0.3,0.3
2026-04-09T1800,3994A,102.2174,31.9016,阿坝藏族羌族自治州,马尔康中学西区,,38,11,11,3,6,120,120,110,110,4,5,4,4,0.1,0.2
2026-04-09T1800,2695A,80.2899,41.1684,阿克苏地区,电视台,颗粒物(PM10),124,180,205,71,74,124,124,94,94,4,25,4,4,0.4,0.6
2026-04-09T1800,2696A,80.2592,41.1541,阿克苏地区,艺术中心,颗粒物(PM10),119,168,197,72,89,123,123,104,104,6,30,4,4,0.3,0.5
2026-04-09T1800,2205A,105.699,38.8409,阿拉善盟,蒙二幼,NA,NA,NA,121,NA,32,98,98,107,95,3,7,NA,8,0.5,0.5
2026-04-09T1800,2206A,105.7198,38.8508,阿拉善盟,环保局新楼,颗粒物(PM10),55,56,109,11,32,94,94,105,91,4,4,8,8,0.5,0.5
2026-04-09T1800,2708A,88.1266,47.8515,阿勒泰地区,市站,,38,16,20,3,3,120,120,110,110,7,10,5,5,0.1,0.2
2026-04-09T1800,4166A,88.1198,47.7931,阿勒泰地区,阿勒泰路33号,,37,12,18,3,2,116,116,103,103,4,6,5,6,0.1,0.3
2026-04-09T1800,2630A,80.1171,32.4999,阿里地区,阿里监测站,臭氧1小时(O3_1h),73,7,8,3,4,178,178,168,168,1,3,7,7,0.4,0.5
2026-04-09T1800,3192A,80.0906,32.5029,阿里地区,阿里藏医院,臭氧1小时(O3_1h),79,7,7,3,2,183,183,171,171,1,2,7,9,0.3,0.4
2026-04-09T1800,2644A,109.0088,32.6974,安康市,汉滨区检察院,,26,18,27,10,17,83,83,66,66,7,9,5,4,0.4,0.5
2026-04-09T1800,4054A,109.0324,32.6913,安康市,市邮政管理局,,25,22,29,12,18,80,80,66,66,10,11,4,4,0.6,0.7
2026-04-09T1800,2291A,117.0806,30.5181,安庆市,环科院,,28,28,35,15,19,49,49,94,74,39,31,6,7,0.6,0.5
2026-04-09T1800,2292A,117.0331,30.5118,安庆市,马山宾馆,,23,21,30,16,17,52,52,84,70,28,24,5,6,0.8,0.6
2026-04-09T1800,2294A,116.9897,30.6146,安庆市,安庆大学,,20,15,31,14,16,57,57,94,89,25,12,4,6,0.5,0.4
2026-04-09T1800,3173A,117.0598,30.5351,安庆市,市人大,,27,27,36,13,18,72,72,94,83,20,24,10,10,0.6,0.5
2026-04-09T1800,3123A,105.9408,26.2431,安顺市,凤凰山,,49,NA,23,18,20,156,156,147,147,8,8,6,7,0.4,0.3
2026-04-09T1800,3124A,105.9443,26.2567,安顺市,金钟山,,47,17,22,15,20,149,149,138,138,8,6,6,6,0.4,0.5
2026-04-09T1800,3125A,105.8983,26.248,安顺市,娄家坡,,46,20,26,15,19,147,147,140,140,6,5,6,8,0.3,0.4
2026-04-09T1800,1819A,114.3552,36.1017,安阳市,红庙街,细颗粒物(PM2.5),106,NA,30,66,43,75,75,73,73,15,16,4,2,0.5,0.5
2026-04-09T1800,1820A,114.361,36.0681,安阳市,银杏小区,细颗粒物(PM2.5),92,NA,33,56,41,75,75,72,72,13,12,4,2,0.4,0.3
2026-04-09T1800,3141A,114.3921,36.0879,安阳市,信访局,细颗粒物(PM2.5),88,NA,31,54,47,78,78,76,76,13,13,2,3,0.6,0.6
2026-04-09T1800,3669A,114.4706,36.0634,安阳市,左辅环卫站,细颗粒物(PM2.5),84,66,51,52,44,74,74,75,75,12,14,1,2,0.6,0.6
2026-04-09T1800,4117A,114.2918,36.0769,安阳市,钢三路198号,细颗粒物(PM2.5),100,NA,44,60,42,78,78,73,73,14,14,3,1,0.6,0.6
2026-04-09T1800,1748A,123.0441,41.1201,鞍山市,深沟寺,,30,26,30,12,15,96,96,99,91,22,13,9,9,0.5,0.5
2026-04-09T1800,1749A,123.011,41.0931,鞍山市,太阳城,,32,26,34,14,18,100,100,108,94,12,9,7,7,0.5,0.5
2026-04-09T1800,1750A,123.0483,41.1445,鞍山市,太平,颗粒物(PM10),52,52,37,27,16,73,73,91,83,39,15,9,9,0.9,0.7
2026-04-09T1800,1751A,122.964,41.0968,鞍山市,铁西三道街,,31,31,44,16,18,88,88,109,92,25,16,6,6,0.6,0.6
2026-04-09T1800,1753A,123.0219,41.0822,鞍山市,明达新区,,31,28,34,16,16,98,98,107,93,13,11,8,8,0.5,0.5
2026-04-09T1800,4201A,122.944647,41.082639,鞍山市,兴盛南路290号,,37,37,43,17,19,88,88,102,94,21,16,6,8,0.5,0.6
2026-04-09T1800,2195A,107.4206,40.7609,巴彦淖尔市,附二中,颗粒物(PM10),53,53,250,22,72,95,95,97,97,3,6,10,11,0.3,0.3
2026-04-09T1800,2196A,107.37,40.7372,巴彦淖尔市,市环保大楼,,39,39,246,18,82,95,95,97,97,4,6,6,7,0.3,0.2
2026-04-09T1800,1956A,86.1476,41.7529,巴音郭楞蒙古自治州,孔雀公园,颗粒物(PM10),57,59,117,9,40,123,123,119,119,6,23,11,11,0.3,0.4
2026-04-09T1800,1957A,86.1971,41.7166,巴音郭楞蒙古自治州,棉纺厂,NA,NA,71,142,16,43,NA,NA,110,110,2,24,/,/,/,/
2026-04-09T1800,1958A,86.236,41.7172,巴音郭楞蒙古自治州,经济开发区,颗粒物(PM10),67,73,103,14,37,120,120,107,107,2,9,9,8,0.3,0.4
2026-04-09T1800,3181A,106.776805,31.852614,巴中市,市五中,,23,22,21,12,10,71,71,45,45,8,12,9,8,0.6,0.7
2026-04-09T1800,3183A,106.7419,31.8654,巴中市,圣泉水务公司,,26,26,17,9,9,78,78,46,46,7,15,9,8,0.6,0.7
2026-04-09T1800,3616A,106.7617,31.8343,巴中市,市中心医院,,26,22,20,13,12,81,81,52,52,5,12,10,8,0.5,0.6
2026-04-09T1800,2235A,122.7909,45.608,白城市,洮北区环保局,,31,23,34,17,12,99,99,98,98,20,16,6,4,0.2,0.2
2026-04-09T1800,2236A,122.8741,45.5725,白城市,市环保局,,27,19,33,16,10,86,86,89,89,14,18,5,5,0.1,0.1
2026-04-09T1800,2231A,126.4219,41.9172,白山市,喜丰,颗粒物(PM10),52,52,67,29,26,120,120,110,110,13,20,9,9,0.7,0.7
2026-04-09T1800,2232A,126.4082,41.9416,白山市,环保局,细颗粒物(PM2.5),56,39,46,38,23,108,108,112,112,20,18,11,11,0.8,0.7
2026-04-09T1800,2647A,104.1727,36.5448,白银市,第三小学,颗粒物(PM10),68,75,98,29,31,116,116,113,113,4,11,6,8,0.3,0.4
2026-04-09T1800,2648A,104.1467,36.5482,白银市,动力公司,颗粒物(PM10),78,88,102,27,30,111,111,109,109,6,10,5,6,0.2,0.4
2026-04-09T1800,2512A,106.6102,23.901,百色市,市监测站,NA,NA,58,63,30,49,110,110,132,132,NA,12,10,17,NA,0.8
2026-04-09T1800,2513A,106.6524,23.8842,百色市,市中心血站,细颗粒物(PM2.5),105,91,76,65,56,122,122,137,137,10,15,8,16,0.6,1
2026-04-09T1800,4133A,106.6273,23.8798,百色市,龙景西路,颗粒物(PM10),53,53,94,33,54,134,134,146,146,10,16,11,19,0.6,0.8
2026-04-09T1800,2270A,117.396,32.9389,蚌埠市,工人疗养院,颗粒物(PM10),55,57,58,29,39,59,59,55,55,17,24,4,5,0.5,0.4
2026-04-09T1800,2271A,117.3606,32.9428,蚌埠市,百货大楼,,46,46,45,24,32,56,56,53,53,12,20,5,6,0.5,0.5
2026-04-09T1800,2273A,117.4183,32.8909,蚌埠市,蚌埠学院,,39,39,40,27,32,63,63,59,59,10,25,4,5,0.5,0.5
2026-04-09T1800,2274A,117.3534,32.9672,蚌埠市,淮上区政府,细颗粒物(PM2.5),60,51,49,40,39,60,60,56,56,14,22,5,5,0.4,0.4
2026-04-09T1800,2275A,117.3143,32.8977,蚌埠市,高新区,,43,41,44,30,35,54,54,52,52,12,20,6,7,0.5,0.5
2026-04-09T1800,3715A,117.3091,32.9314,蚌埠市,蚌埠田家炳中学,,50,50,53,26,34,62,62,58,58,11,21,4,5,0.4,0.4
2026-04-09T1800,1585A,109.8761,40.6533,包头市,市环境监测站,,32,24,83,6,34,100,100,92,92,9,25,6,10,0.4,0.6
2026-04-09T1800,1587A,109.9992,40.5843,包头市,包头八中,,29,15,77,11,40,91,91,88,88,7,22,9,17,0.4,0.7
2026-04-09T1800,1589A,109.8641,40.6288,包头市,惠龙物流,,31,31,82,3,34,96,96,88,88,7,21,5,12,0.4,0.6
2026-04-09T1800,1590A,110.0376,40.5546,包头市,东河鸿龙湾,,28,19,71,11,38,88,88,87,87,11,31,9,20,0.4,0.6
2026-04-09T1800,3283A,109.9154,40.5684,包头市,滨河大厦,,31,22,70,3,35,97,97,91,91,9,25,8,13,0.4,0.6
2026-04-09T1800,3419A,109.9449,40.6259,包头市,包头市委党校,,29,17,67,3,24,92,92,88,87,9,23,7,10,0.4,0.6
2026-04-09T1800,3683A,109.8332,40.6577,包头市,昆区政府,,32,23,82,3,33,101,101,93,93,10,27,1,7,0.5,0.8
2026-04-09T1800,1931A,107.0802,34.3129,宝鸡市,竹园沟,颗粒物(PM10),76,86,60,18,44,121,121,107,107,16,13,8,7,0.3,0.5
2026-04-09T1800,1933A,107.1429,34.3549,宝鸡市,监测站,颗粒物(PM10),78,89,79,20,58,120,120,98,98,19,17,6,6,0.3,0.4
2026-04-09T1800,1934A,107.1172,34.3759,宝鸡市,技工学校,颗粒物(PM10),86,100,71,19,49,105,105,95,95,23,12,4,4,0.3,0.6
2026-04-09T1800,1936A,107.2025,34.3518,宝鸡市,文理学院,颗粒物(PM10),69,76,66,19,49,125,125,96,96,12,14,5,5,0.4,0.6
2026-04-09T1800,1937A,107.2396,34.3626,宝鸡市,三迪小学,颗粒物(PM10),83,96,75,18,49,122,122,95,95,16,14,6,5,0.4,0.5
2026-04-09T1800,4155A,107.1721,34.3558,宝鸡市,滨河北路,,38,34,72,26,77,117,117,101,101,13,13,7,7,0.4,0.6
2026-04-09T1800,4308A,107.3898,34.3601,宝鸡市,陈仓区北开路21号,颗粒物(PM10),75,85,71,20,48,120,120,96,96,10,11,8,8,0.5,0.6
2026-04-09T1800,1051A,115.4803,38.8568,保定市,游泳馆,,43,43,61,27,51,63,63,77,76,20,16,3,6,0.2,0.2
2026-04-09T1800,1052A,115.509,38.8895,保定市,华电二区,NA,NA,36,61,NA,58,49,49,75,70,26,17,1,2,0.4,0.4
2026-04-09T1800,1053A,115.4588,38.9037,保定市,接待中心,细颗粒物(PM2.5),56,50,70,38,61,52,52,76,72,19,12,3,4,0.2,0.4
2026-04-09T1800,1054A,115.4484,38.8344,保定市,地表水厂,细颗粒物(PM2.5),72,59,73,46,64,73,73,80,80,17,18,2,3,0.3,0.4
2026-04-09T1800,3581A,115.3136,38.9511,保定市,满城区生态环境分局,,41,41,64,24,51,47,47,88,74,19,15,2,2,0.4,0.4
2026-04-09T1800,3582A,115.4709,38.7628,保定市,清苑区第二中学,NA,NA,NA,66,NA,61,NA,NA,97,79,NA,19,NA,5,NA,0.4
2026-04-09T1800,3583A,115.6231,39.0223,保定市,徐水物探局,,47,47,81,27,53,38,38,57,55,22,20,2,2,0.5,0.5
2026-04-09T1800,4004A,115.4199,38.8665,保定市,双鹰农机,细颗粒物(PM2.5),70,47,55,45,66,65,65,78,78,19,18,2,3,0.3,0.4
2026-04-09T1800,4034A,115.515,38.8589,保定市,植保所站,颗粒物(PM10),60,64,89,35,61,67,67,80,79,19,18,1,3,0.4,0.4
2026-04-09T1800,2594A,99.1589,25.1137,保山市,市环境监测站,,37,34,22,22,14,116,116,105,105,6,8,6,5,0.2,0.3
2026-04-09T1800,2595A,99.1616,25.1381,保山市,市环保局,,37,35,27,21,18,116,116,105,105,6,7,6,6,0.3,0.3
2026-04-09T1800,1867A,109.1435,21.4085,北海市,海滩公园,颗粒物(PM10),58,60,40,25,21,95,95,89,89,6,8,6,6,0.5,0.6
2026-04-09T1800,1868A,109.0983,21.466,北海市,新市环保局,,43,43,40,21,22,96,96,90,90,7,9,10,10,0.4,0.5
2026-04-09T1800,1869A,109.1775,21.5232,北海市,北海工业园,颗粒物(PM10),51,51,46,29,25,96,96,89,89,4,9,6,6,0.6,0.7
2026-04-09T1800,3400A,109.1844,21.4396,北海市,龙潭自来水厂,,38,38,35,18,19,95,95,86,86,5,5,6,5,0.8,0.8
2026-04-09T1800,1001A,116.3611,39.8786,北京市,万寿西宫,,45,37,73,31,53,46,46,73,54,26,19,2,2,0.8,0.6
2026-04-09T1800,1003A,116.4174,39.9289,北京市,东四,,46,38,76,32,54,57,57,86,60,23,18,6,6,0.8,0.7
2026-04-09T1800,1004A,116.4073,39.8858,北京市,天坛,,49,36,68,34,49,41,41,48,45,24,18,3,3,0.9,0.7
2026-04-09T1800,1005A,116.4622,39.9364,北京市,农展馆,,45,39,72,31,52,54,54,70,54,20,18,2,2,0.8,0.8
2026-04-09T1800,1006A,116.3399,39.9293,北京市,官园,,46,41,77,32,54,44,44,76,49,23,19,2,3,0.8,0.6
2026-04-09T1800,1007A,116.2879,39.9613,北京市,海淀万柳,细颗粒物(PM2.5),52,51,79,36,56,34,34,59,41,24,21,4,4,0.8,0.6
2026-04-09T1800,1008A,116.6635,40.1349,北京市,顺义新城,,50,40,79,35,61,61,61,65,65,12,22,4,4,0.7,0.7
2026-04-09T1800,1009A,116.6275,40.327,北京市,怀柔镇,细颗粒物(PM2.5),52,42,74,36,56,57,57,67,65,14,18,4,4,0.8,0.8
2026-04-09T1800,1010A,116.2295,40.217,北京市,昌平镇,,50,44,75,35,52,52,52,68,57,22,22,2,3,0.7,0.6
2026-04-09T1800,1011A,116.3968,39.982,北京市,奥体中心,,40,39,75,28,49,53,53,79,55,25,21,3,3,0.9,0.8
2026-04-09T1800,3418A,116.8336,40.4095,北京市,密云新城,,50,43,79,35,55,56,56,69,62,5,16,2,3,0.7,0.7
2026-04-09T1800,3671A,116.0879,39.9725,北京市,门头沟三家店,,32,26,76,22,50,37,37,65,50,23,23,2,2,0.9,0.6
2026-04-09T1800,3672A,116.1507,39.8246,北京市,丰台云岗,细颗粒物(PM2.5),56,44,84,38,55,31,31,65,43,22,17,2,2,1.0,0.7
2026-04-09T1800,3674A,115.9578,39.7602,北京市,房山燕山,细颗粒物(PM2.5),60,43,65,40,47,37,37,80,46,31,16,2,4,0.9,0.6
2026-04-09T1800,3675A,116.4669,39.7734,北京市,大兴旧宫,,46,38,78,32,56,46,46,60,50,23,20,3,3,0.8,0.7
2026-04-09T1800,3694A,115.9859,40.4562,北京市,延庆石河营,,25,19,56,17,23,55,55,86,66,15,13,1,1,0.8,0.6
2026-04-09T1800,3695A,116.6151,40.3052,北京市,怀柔新城,细颗粒物(PM2.5),52,44,74,36,55,54,54,65,65,15,15,3,4,0.9,0.9
2026-04-09T1800,3696A,116.2542,39.8764,北京市,丰台小屯,,41,41,94,27,50,42,42,64,51,25,25,2,2,0.9,0.6
2026-04-09T1800,3697A,116.8399,40.3843,北京市,密云镇,细颗粒物(PM2.5),64,48,82,42,62,51,51,81,58,13,17,4,4,0.7,0.8
2026-04-09T1800,4057A,115.9423,40.4431,北京市,延庆百泉,,22,15,54,15,40,46,46,75,53,16,13,1,2,0.8,0.6
2026-04-09T1800,4058A,116.6598,39.9164,北京市,通州新华,,43,38,83,30,56,57,57,59,55,20,31,2,3,0.6,0.6
2026-04-09T1800,4182A,116.1942,39.9158,北京市,石景山八角,颗粒物(PM10),53,53,92,35,56,35,35,72,44,29,32,1,5,0.9,0.6
2026-04-09T1800,4194A,117.078628,40.151726,北京市,平谷新城,,28,21,73,19,54,75,75,82,82,13,16,3,2,0.6,0.7
2026-04-09T1800,1761A,123.8274146,41.31234549,本溪市,大峪,,38,38,36,20,15,92,92,100,100,15,10,6,6,0.7,0.5
2026-04-09T1800,1763A,123.7169,41.3094,本溪市,彩屯,,33,33,39,14,16,96,96,97,97,18,18,9,16,0.5,1.2
2026-04-09T1800,1764A,123.7672166,41.28649327,本溪市,东明,,43,43,36,12,11,89,89,102,96,22,12,6,7,0.5,0.4
2026-04-09T1800,1765A,123.799345,41.266614,本溪市,新立屯,,31,29,29,12,10,98,98,110,101,15,10,7,8,0.5,0.4
2026-04-09T1800,1766A,123.829144,41.336777,本溪市,威宁,,42,42,40,17,16,75,75,92,89,23,13,7,7,0.5,0.4
2026-04-09T1800,2587A,105.287,27.3133,毕节市,八中,,32,NA,23,7,18,102,102,84,84,8,11,11,11,0.4,0.5
2026-04-09T1800,2588A,105.3079,27.2987,毕节市,师专,,39,17,27,11,17,122,122,114,114,6,7,9,9,0.4,0.5
2026-04-09T1800,4263A,105.3688,27.3598,毕节市,工业大道,,40,20,32,14,18,125,125,124,124,6,9,11,11,/,/
2026-04-09T1800,1629A,117.9961,37.3604,滨州市,第二水厂,细颗粒物(PM2.5),111,88,47,72,27,65,65,73,72,21,18,8,10,0.7,0.4
2026-04-09T1800,1630A,117.9789,37.3931,滨州市,北中新校,细颗粒物(PM2.5),129,NA,64,91,45,71,71,77,77,22,19,8,10,0.4,0.4
2026-04-09T1800,3514A,117.9379,37.3959,滨州市,中海酒店,细颗粒物(PM2.5),92,75,38,56,26,64,64,75,75,26,20,8,10,0.7,0.5
2026-04-09T1800,3515A,117.9381509,37.35547456,滨州市,开发区一中,细颗粒物(PM2.5),111,85,49,72,29,54,54,69,67,25,20,10,10,0.8,0.6
2026-04-09T1800,3516A,118.0914,37.6938,滨州市,金海六路,细颗粒物(PM2.5),52,51,34,36,22,83,83,92,92,16,11,6,7,0.4,0.3
2026-04-09T1800,4028A,117.9955,37.3752,滨州市,滨州市西街道办事处,细颗粒物(PM2.5),107,80,43,67,27,64,64,75,73,18,15,8,9,0.6,0.4
2026-04-09T1800,2311A,115.8071,33.8399,亳州市,污水处理厂,,24,23,31,11,21,76,76,67,67,12,12,4,4,0.2,0.2
2026-04-09T1800,2312A,115.7789,33.8519,亳州市,三国揽胜宫,,28,28,26,11,20,69,69,62,62,8,9,5,5,0.3,0.3
2026-04-09T1800,3332A,115.7631,33.803,亳州市,亳州学院,NA,NA,19,31,13,23,71,71,63,63,NA,7,5,5,NA,0.3
2026-04-09T1800,2693A,82.0482,44.8553,博尔塔拉蒙古自治州,市党校,颗粒物(PM10),105,131,111,15,15,127,127,120,120,3,5,3,3,0.3,0.3
2026-04-09T1800,2694A,82.0805,44.8966,博尔塔拉蒙古自治州,市环保局,NA,NA,108,120,38,30,NA,NA,107,107,11,20,3,3,0.2,0.3
2026-04-09T1800,1071A,116.8733,38.2922,沧州市,沧县城建局,细颗粒物(PM2.5),112,78,56,73,55,75,75,75,75,22,20,2,5,0.4,0.1
2026-04-09T1800,1072A,116.8462,38.3189,沧州市,电视转播站,颗粒物(PM10),78,89,58,46,38,69,69,70,70,24,19,8,7,0.6,0.4
2026-04-09T1800,1073A,116.8588,38.3161,沧州市,市环保局,细颗粒物(PM2.5),102,94,64,62,45,76,76,75,75,21,18,10,7,0.6,0.4
2026-04-09T1800,3324A,116.8011,38.294,沧州市,河北水利电力学院,细颗粒物(PM2.5),92,75,49,56,38,69,69,74,74,24,19,7,7,0.5,0.4
2026-04-09T1800,2622A,97.1813,31.1289,昌都市,昌都监测站,,40,7,15,3,5,128,128,111,111,5,12,5,7,0.1,0.3
2026-04-09T1800,3719A,97.1707,31.1428,昌都市,昌都会议中心,,43,8,9,3,4,135,135,122,122,4,6,5,6,0.2,0.2
2026-04-09T1800,2692A,87.2722,44.0298,昌吉回族自治州,新区政务中心,NA,NA,34,42,6,20,127,127,114,114,NA,19,7,6,0.3,0.6
2026-04-09T1800,3613A,87.3069,44.0093,昌吉回族自治州,亚心广场,,48,48,57,9,19,133,133,114,114,3,22,9,8,0.1,0.5
2026-04-09T1800,4164A,87.2057,43.9289,昌吉回族自治州,财政所,,44,44,63,6,11,127,127,83,NA,3,9,8,8,0.2,0.4
2026-04-09T1800,1120A,125.2874,43.9024,长春市,客车厂,细颗粒物(PM2.5),72,62,99,46,41,77,77,90,83,36,25,8,8,0.6,0.5
2026-04-09T1800,1121A,125.2943,43.8508,长春市,邮电学院,细颗粒物(PM2.5),66,58,97,43,40,69,69,90,89,33,20,8,9,0.6,0.5
2026-04-09T1800,1122A,125.3648,43.8745,长春市,劳动公园,细颗粒物(PM2.5),68,68,96,44,40,73,73,86,86,35,24,8,8,0.8,0.6
2026-04-09T1800,1123A,125.3233,43.8781,长春市,园林处,细颗粒物(PM2.5),74,57,94,47,42,82,82,91,91,34,24,8,8,0.8,0.6
2026-04-09T1800,1124A,125.4604,43.7904,长春市,净月潭,细颗粒物(PM2.5),70,57,97,45,39,80,80,96,94,18,13,10,10,0.6,0.5
2026-04-09T1800,1126A,125.38,43.8422,长春市,经开区环卫处,细颗粒物(PM2.5),76,69,101,48,40,70,70,87,87,38,23,8,7,0.7,0.5
2026-04-09T1800,1127A,125.234,43.7761,长春市,高新区管委会,细颗粒物(PM2.5),90,NA,96,55,42,67,67,87,86,38,19,9,9,0.8,0.7
2026-04-09T1800,1128A,125.1695,43.83,长春市,岱山公园,细颗粒物(PM2.5),62,NA,85,41,39,72,72,90,88,37,21,6,6,0.4,0.4
2026-04-09T1800,4281A,125.334645,43.916281,长春市,北亚泰大街1068号,细颗粒物(PM2.5),72,71,109,46,40,72,72,89,82,43,28,9,9,0.6,0.5
2026-04-09T1800,1335A,113.082,28.2421,长沙市,经开区环保局,颗粒物(PM10),55,56,54,20,29,91,91,108,108,7,7,4,6,0.5,0.6
2026-04-09T1800,1336A,112.8873,28.2202,长沙市,高开区环保局,,44,44,51,25,29,74,74,100,99,4,3,6,7,0.6,0.6
2026-04-09T1800,1337A,113.0785,28.2012,长沙市,马坡岭,颗粒物(PM10),63,68,53,23,30,93,93,111,111,3,3,4,6,0.7,0.7
2026-04-09T1800,1338A,112.9448,28.1894,长沙市,湖南师范大学,颗粒物(PM10),51,51,61,22,29,88,88,109,109,4,6,4,6,0.6,0.8
2026-04-09T1800,1339A,113.0177,28.1322,长沙市,雨花区环保局,颗粒物(PM10),57,59,52,26,28,93,93,105,105,3,2,3,6,0.8,0.8
2026-04-09T1800,1340A,112.9795,28.2593,长沙市,伍家岭,,48,48,56,21,31,75,75,100,100,10,13,3,5,0.4,0.2
2026-04-09T1800,1341A,113.002,28.1944,长沙市,火车新站,颗粒物(PM10),70,77,55,26,28,84,84,100,100,3,5,4,5,0.5,0.6
2026-04-09T1800,1342A,112.9846,28.1177,长沙市,天心区环保局,颗粒物(PM10),62,66,54,31,30,97,97,109,109,7,5,5,7,0.6,0.6
2026-04-09T1800,1343A,112.8906,28.1307,长沙市,湖南中医药大学,颗粒物(PM10),55,57,56,26,28,89,89,108,108,6,6,5,7,0.6,0.8
2026-04-09T1800,1727A,113.1146,36.1547,长治市,清华站,颗粒物(PM10),53,53,20,26,15,120,120,100,100,2,6,7,7,0.4,0.7
2026-04-09T1800,1730A,113.0887,36.2126,长治市,审计局,颗粒物(PM10),58,60,23,27,21,118,118,96,96,10,12,7,8,0.5,0.7
2026-04-09T1800,1731A,113.0845,36.1856,长治市,长治八中,颗粒物(PM10),66,72,29,26,20,117,117,98,98,13,16,10,9,0.5,0.8
2026-04-09T1800,2845A,113.1561,36.1912,长治市,德盛苑,颗粒物(PM10),58,60,26,26,21,127,127,109,109,9,17,8,8,0.5,0.7
2026-04-09T1800,3568A,113.0603,36.0464,长治市,向阳小学,颗粒物(PM10),84,97,51,29,21,123,123,104,104,17,25,8,8,0.6,1
2026-04-09T1800,3569A,112.8788,36.315,长治市,屯留一中,颗粒物(PM10),60,63,42,28,32,113,113,95,95,14,22,11,11,0.7,1.3
2026-04-09T1800,4189A,113.113092,36.199482,长治市,英华南巷50号,颗粒物(PM10),58,60,28,24,23,123,123,99,99,9,10,6,7,0.6,1
2026-04-09T1800,4190A,113.23666,36.33435,长治市,学府街1号,颗粒物(PM10),56,58,30,27,27,108,108,91,91,14,19,6,5,0.7,1.1
2026-04-09T1800,1854A,111.696,28.9725,常德市,市二中,,30,30,62,17,45,45,45,53,53,12,9,8,9,1.2,1.2
2026-04-09T1800,3138A,111.7152,29.0288,常德市,武陵区永安,,28,28,63,17,43,62,62,56,56,8,11,5,6,0.8,0.9
2026-04-09T1800,3139A,111.6891,28.9881,常德市,鼎城区玉霞,,27,27,64,16,41,55,55,54,54,7,13,8,9,0.8,0.9
2026-04-09T1800,3140A,111.6651,29.0526,常德市,武陵区长庚,,28,28,61,13,45,62,62,51,51,5,11,8,8,0.9,1
2026-04-09T1800,1196A,119.9524,31.7586,常州市,市监测站,,29,29,46,8,11,85,85,92,92,12,18,8,8,0.7,0.6
2026-04-09T1800,1200A,119.9351,31.703,常州市,武进监测站,,28,24,39,7,11,89,89,97,96,11,15,3,5,0.3,0.2
2026-04-09T1800,3002A,119.9701,31.813,常州市,行政中心,NA,NA,NA,34,9,13,71,71,80,80,NA,18,NA,7,0.5,0.4
2026-04-09T1800,3003A,120.0434,31.7726,常州市,经开区,,28,25,44,7,11,89,89,93,93,4,10,5,7,0.8,1.1
2026-04-09T1800,3010A,119.8919,31.7892,常州市,钟楼,,31,31,39,9,11,76,76,86,86,23,19,8,8,0.4,0.3
2026-04-09T1800,3429A,119.8595,31.706,常州市,武进经发区,,27,23,35,9,14,84,84,94,92,12,20,5,6,1.0,0.9
2026-04-09T1800,3430A,119.5812,31.7256,常州市,金坛城区,,28,17,36,11,16,87,87,95,94,6,10,8,9,0.7,0.6
2026-04-09T1800,4089A,119.9551,31.863,常州市,崇义南街5-H号,,26,21,28,18,12,70,70,86,85,23,22,7,7,0.6,0.5
2026-04-09T1800,2220A,120.4318,41.588,朝阳市,西梁,,37,37,45,25,29,72,72,109,83,27,17,9,11,0.6,0.6
2026-04-09T1800,2221A,120.452,41.565,朝阳市,河畔小区,,46,NA,40,32,27,75,75,114,88,25,14,7,8,0.6,0.6
2026-04-09T1800,2222A,120.4176,41.5648,朝阳市,八里堡,,48,33,40,33,32,79,79,108,88,24,17,8,8,0.6,0.5
2026-04-09T1800,3026A,116.6179,23.6608,潮州市,市政府,,37,37,59,14,29,89,89,93,93,12,13,4,4,0.6,0.5
2026-04-09T1800,4036A,116.646,23.676,潮州市,金山,,36,36,50,19,27,92,92,97,97,11,14,3,3,0.5,0.5
2026-04-09T1800,2473A,113.0116,25.8228,郴州市,市职中,细颗粒物(PM2.5),54,NA,27,37,24,83,83,85,85,10,8,7,8,0.5,0.4
2026-04-09T1800,2475A,113.0381,25.8074,郴州市,市审计局,细颗粒物(PM2.5),56,39,32,38,24,90,90,92,92,8,6,5,6,/,/
2026-04-09T1800,2476A,113.0348,25.7757,郴州市,市环保局,,48,39,38,33,23,94,94,95,95,8,6,12,13,0.4,0.3
2026-04-09T1800,4252A,113.0138,25.8011,郴州市,好美居路49号,,45,37,30,31,22,84,84,87,87,7,7,7,8,/,/
2026-04-09T1800,1431A,103.9727,30.7242,成都市,金泉两河,,46,33,36,12,24,146,146,124,124,26,22,3,3,0.4,0.4
2026-04-09T1800,1432A,104.1423,30.6765,成都市,十里店,,49,49,42,14,27,147,147,127,127,9,27,4,4,0.6,0.7
2026-04-09T1800,1433A,104.0594,30.5765,成都市,三瓦窑,,47,36,43,11,28,150,150,120,120,2,26,3,3,0.4,0.6
2026-04-09T1800,1434A,104.1122,30.6306,成都市,沙河铺,颗粒物(PM10),53,53,45,12,27,128,128,113,113,22,31,3,3,0.4,0.5
2026-04-09T1800,2880A,104.0219,30.6561,成都市,大石西路,,43,41,45,11,29,137,137,111,111,11,27,4,5,0.5,0.7
2026-04-09T1800,3136A,104.2724,30.559,成都市,龙泉驿区区政府,,45,34,30,10,20,141,141,123,123,5,12,7,7,0.4,0.5
2026-04-09T1800,3357A,104.0028,30.6891,成都市,金博路,,47,30,32,12,22,150,150,121,121,15,31,7,7,0.5,0.6
2026-04-09T1800,3359A,104.056,30.5228,成都市,华阳,,41,27,40,7,26,130,130,123,123,11,26,4,5,0.1,0.3
2026-04-09T1800,3488A,104.387954,30.746684,成都市,青石路225号,颗粒物(PM10),55,56,36,13,23,152,152,133,133,12,27,7,6,0.3,0.5
2026-04-09T1800,3489A,104.0788,30.4054,成都市,科学城,NA,NA,27,31,25,28,127,127,120,120,NA,17,8,8,NA,0.6
2026-04-09T1800,4011A,103.8505,30.6946,成都市,光华大道三段,颗粒物(PM10),51,51,42,15,23,142,142,128,128,14,24,5,4,0.3,0.4
2026-04-09T1800,4144A,104.3257,30.6406,成都市,八角井街185号,颗粒物(PM10),52,52,39,14,20,115,115,118,118,11,18,3,4,0.3,0.4
2026-04-09T1800,4224A,104.2433276,30.53529463,成都市,鲸龙路1057号,,46,21,38,8,21,147,147,128,128,7,22,6,6,0.4,0.6
2026-04-09T1800,1062A,117.9531,40.908,承德市,铁路,,22,6,54,3,34,69,69,70,69,18,24,3,4,0.3,0.5
2026-04-09T1800,1063A,117.9397,40.9763,承德市,中国银行,,24,9,49,6,30,74,74,79,79,11,14,2,2,0.3,0.5
2026-04-09T1800,4073A,117.9462,40.95,承德市,杏林街1号,,25,NA,57,11,45,78,78,92,80,13,13,2,2,0.3,0.6
2026-04-09T1800,4274A,117.7994,40.9605,承德市,滨河大街98号,,26,NA,38,10,32,81,81,102,87,10,13,4,10,0.2,0.4
2026-04-09T1800,2314A,117.4698,30.6617,池州市,池州学院,,25,25,34,12,17,62,62,109,86,26,32,5,5,1.0,0.7
2026-04-09T1800,3237A,117.4918,30.6617,池州市,展览馆,,35,35,38,9,14,57,57,107,85,22,30,3,4,0.8,0.6
2026-04-09T1800,3333A,117.5626,30.695,池州市,第八中学,,24,24,33,12,16,35,35,101,76,42,32,6,7,0.8,0.6
2026-04-09T1800,3334A,117.5037,30.6242,池州市,第十二中学,,25,25,36,13,19,48,48,95,76,21,30,6,3,1.2,0.8
2026-04-09T1800,1744A,118.9229,42.2816,赤峰市,松山一中,,20,NA,31,14,15,53,53,76,52,21,15,6,6,0.6,0.5
2026-04-09T1800,1745A,118.9588,42.2733,赤峰市,哈达街,,30,NA,31,21,16,58,58,83,60,22,14,8,8,0.6,0.5
2026-04-09T1800,1746A,118.8792,42.2551,赤峰市,天义路,,17,10,26,10,16,54,54,83,53,20,13,5,5,0.4,0.3
2026-04-09T1800,3058A,119.2656,42.0356,赤峰市,银河街,,35,NA,64,24,39,46,46,101,50,20,15,8,14,0.9,0.6
2026-04-09T1800,3286A,118.9359,42.3146,赤峰市,桥北物流园区,,23,NA,31,16,15,63,63,85,60,17,12,4,4,0.6,0.3
2026-04-09T1800,2521A,107.3473,22.4137,崇左市,市环保局江州分局,颗粒物(PM10),114,155,83,62,56,170,170,139,139,9,12,6,7,0.8,0.8
2026-04-09T1800,4256A,107.375,22.3736,崇左市,石景林东路7号,NA,NA,NA,74,NA,54,169,169,135,135,10,13,4,4,NA,1
2026-04-09T1800,3207A,118.31131,32.3033,滁州市,市政府原办公楼,细颗粒物(PM2.5),60,NA,33,40,37,53,53,70,52,11,18,4,5,0.5,0.5
2026-04-09T1800,3331A,118.3268,32.2633,滁州市,图书馆,细颗粒物(PM2.5),64,NA,36,42,24,55,55,78,58,9,16,9,11,0.4,0.5
2026-04-09T1800,4101A,118.3196,32.3335,滁州市,银山路666号,,50,NA,35,35,29,54,54,72,45,10,19,7,8,0.6,0.6
2026-04-09T1800,4102A,118.3426,32.2979,滁州市,黄山路555号,细颗粒物(PM2.5),56,47,51,38,30,54,54,72,52,9,18,5,7,0.7,0.7
2026-04-09T1800,2606A,101.5379,25.0492,楚雄彝族自治州,市经济开发区,,36,17,21,12,16,114,114,118,118,7,7,2,5,0.2,0.6
2026-04-09T1800,4153A,101.5536,25.0343,楚雄彝族自治州,团结路562号,,39,24,19,17,17,122,122,123,123,3,3,2,2,0.2,0.3
2026-04-09T1800,2549A,107.5087,31.2186,达州市,市环境监测站,,45,45,34,13,10,90,90,60,60,21,24,6,6,0.2,0.3
2026-04-09T1800,2550A,107.4988,31.2132,达州市,凤凰小区,,41,41,30,14,12,95,95,59,59,16,25,5,5,0.3,0.4
2026-04-09T1800,2551A,107.5081,31.1987,达州市,达县机关宾馆,,48,48,35,10,16,91,91,57,57,23,30,4,5,0.3,0.4
2026-04-09T1800,2552A,107.4644,31.2124,达州市,市政中心,,47,47,36,13,11,98,98,66,66,14,25,6,5,0.3,0.4
2026-04-09T1800,2614A,100.2168,25.5818,大理白族自治州,大理市环境监测站,,34,NA,13,23,14,106,106,95,95,9,11,4,4,0.3,0.4
2026-04-09T1800,2615A,100.1542,25.7055,大理白族自治州,大理古城,,34,23,15,17,13,106,106,106,106,7,7,2,2,0.5,0.6
2026-04-09T1800,1109A,121.6119,38.974,大连市,甘井子,,31,24,31,17,12,98,98,98,97,15,14,7,8,0.6,0.5
2026-04-09T1800,1110A,121.565,38.9509,大连市,周水子,,29,21,30,15,14,90,90,84,84,17,19,4,6,0.6,0.5
2026-04-09T1800,1111A,121.5637,38.8849,大连市,星海三站,,28,16,26,10,11,89,89,100,98,17,12,5,5,0.5,0.3
2026-04-09T1800,1112A,121.6301,38.9117,大连市,青泥洼桥,,32,32,27,15,10,94,94,96,95,14,13,4,4,0.6,0.4
2026-04-09T1800,1113A,121.6248,38.8643,大连市,傅家庄,,32,25,30,15,9,100,100,100,100,8,11,5,6,0.6,0.4
2026-04-09T1800,1114A,121.5117,38.8636,大连市,七贤岭,,29,19,29,12,10,92,92,99,98,17,14,5,6,0.5,0.3
2026-04-09T1800,1116A,121.7507,39.1339,大连市,金州,,30,20,25,18,12,94,94,92,92,12,11,5,6,0.8,0.5
2026-04-09T1800,1117A,121.7811,39.0495,大连市,开发区,,29,29,30,20,12,88,88,90,90,20,16,9,8,0.7,0.6
2026-04-09T1800,1118A,121.9762,39.0631,大连市,双D港,,32,32,28,22,12,98,98,94,94,11,11,4,5,0.3,0.6
2026-04-09T1800,4082A,121.2548,38.8188,大连市,旅顺,,29,10,22,7,11,92,92,96,96,10,11,4,4,0.5,0.3
2026-04-09T1800,1789A,124.8085,46.0381,大庆市,大同区,,32,28,41,16,14,100,100,102,102,13,12,4,4,0.4,0.4
2026-04-09T1800,1790A,125.1166,46.5255,大庆市,龙凤区,NA,NA,29,48,23,14,92,92,94,94,14,21,NA,5,0.2,0.3
2026-04-09T1800,1791A,124.8894,46.4007,大庆市,红岗区,,30,30,33,21,11,90,90,90,90,8,11,11,11,0.3,0.3
2026-04-09T1800,1792A,125.1391,46.578,大庆市,萨尔图区,,29,26,44,8,12,92,92,89,89,12,19,6,7,0.0,0.1
2026-04-09T1800,1793A,124.9026,46.6217,大庆市,让胡路区,,29,29,37,13,11,91,91,88,88,9,10,5,4,0.3,0.3
2026-04-09T1800,3481A,125.127,46.6277,大庆市,萨区政府监测点,,25,23,36,9,10,79,79,82,82,10,14,8,8,0.3,0.3
2026-04-09T1800,1723A,113.2926,40.0759,大同市,云冈宾馆,,44,44,80,19,37,80,80,92,92,12,20,5,9,0.4,0.6
2026-04-09T1800,1724A,113.3437,40.0921,大同市,大同大学,颗粒物(PM10),67,73,95,17,38,85,85,99,99,14,24,2,5,0.6,0.7
2026-04-09T1800,1725A,113.2637,40.129,大同市,安家小村,颗粒物(PM10),58,61,104,15,40,78,78,86,86,12,21,12,14,0.5,0.6
2026-04-09T1800,3282A,113.3399,40.0586,大同市,大同市卫生学校,颗粒物(PM10),61,65,94,21,39,91,91,106,106,9,21,5,9,0.5,0.6
2026-04-09T1800,3565A,113.1371,40.1122,大同市,云冈站,颗粒物(PM10),52,52,118,14,45,78,78,103,100,6,17,5,8,0.4,0.5
2026-04-09T1800,3566A,113.1186,40.2556,大同市,图书馆,颗粒物(PM10),94,111,109,16,40,76,76,97,97,9,20,5,12,0.4,0.6
2026-04-09T1800,3567A,113.5931,40.0459,大同市,区一中,颗粒物(PM10),86,100,90,20,31,97,97,106,106,6,15,10,12,0.8,0.6
2026-04-09T1800,4199A,113.2798248,40.09972476,大同市,魏都大道141号,颗粒物(PM10),63,67,102,20,30,80,80,94,94,9,17,10,12,0.5,0.6
2026-04-09T1800,2269A,124.1068,50.4091,大兴安岭地区,科技局,,26,17,19,3,8,81,81,83,82,3,3,7,7,0.2,0.4
2026-04-09T1800,3663A,124.117,50.4279,大兴安岭地区,红旗社区,,29,6,7,3,6,91,91,91,91,4,5,3,5,0.2,0.2
2026-04-09T1800,1600A,124.33,40.0625,丹东市,江湾东路,,34,21,38,11,18,107,107,99,99,12,17,5,7,0.4,0.5
2026-04-09T1800,1601A,124.4242,40.1513,丹东市,临江后街,,31,24,38,10,19,99,99,95,95,10,17,4,7,0.4,0.5
2026-04-09T1800,1602A,124.3935,40.1461,丹东市,元宝山,,28,27,37,12,18,89,89,86,86,10,16,6,8,0.4,0.5
2026-04-09T1800,1603A,124.3634,40.1093,丹东市,民主桥,,31,31,41,15,20,85,85,90,90,33,21,6,7,0.5,0.4
2026-04-09T1800,3541A,109.5726195,19.51688767,儋州市,第一中学子站,颗粒物(PM10),55,56,42,27,27,122,122,114,114,8,7,8,10,0.3,0.3
2026-04-09T1800,3542A,109.5567,19.5187,儋州市,东坡学校子站,,48,47,43,33,27,120,120,115,115,6,5,6,7,0.5,0.5
2026-04-09T1800,2616A,98.5611,24.4273,德宏傣族景颇族自治州,德宏州监测站,,35,NA,28,22,33,112,112,99,99,9,14,4,4,0.1,0.2
2026-04-09T1800,3677A,98.5887,24.4366,德宏傣族景颇族自治州,芒市人民政府综合楼,,38,38,55,18,36,101,101,91,91,9,12,7,8,0.1,0.5
2026-04-09T1800,1901A,104.424,31.1209,德阳市,东山公园,,41,25,30,3,23,130,130,119,119,6,20,4,5,0.4,0.6
2026-04-09T1800,1902A,104.3827,31.1318,德阳市,西小区,,45,35,52,12,29,142,142,118,118,13,35,4,4,0.5,0.6
2026-04-09T1800,1904A,104.3553,31.1091,德阳市,耐火材料厂,,50,40,52,8,34,158,158,129,129,12,34,3,3,0.3,0.5
2026-04-09T1800,4145A,104.4144,31.1495,德阳市,市林业局,,46,31,34,11,24,147,147,130,130,10,32,5,5,0.5,0.6
2026-04-09T1800,1622A,116.3034,37.4675,德州市,儿童乐园,颗粒物(PM10),58,61,53,37,40,69,69,73,72,20,18,6,6,0.7,0.6
2026-04-09T1800,1624A,116.2992,37.4449,德州市,监理站,颗粒物(PM10),55,56,47,37,37,67,67,74,74,30,22,10,9,0.7,0.7
2026-04-09T1800,3066A,116.2722,37.438,德州市,九衢泉纯净水厂,,44,44,47,28,37,64,64,60,60,20,20,4,3,0.7,0.6
2026-04-09T1800,3371A,116.3693,37.44,德州市,开发区人民医院,颗粒物(PM10),53,53,51,31,36,77,77,73,73,19,21,7,8,0.6,0.5
2026-04-09T1800,3511A,116.5687,37.3331,德州市,陵城艺术中心,,48,34,42,33,37,78,78,74,74,12,13,4,4,0.7,0.7
2026-04-09T1800,4292A,116.352738,37.420875,德州市,新河东路,细颗粒物(PM2.5),54,44,47,37,39,74,74,70,70,18,18,7,8,0.7,0.7
2026-04-09T1800,2621A,99.7054,27.8319,迪庆藏族自治州,迪庆州站,,37,25,20,14,10,118,118,118,118,8,8,8,8,0.4,0.4
2026-04-09T1800,3180A,99.7122,27.8129,迪庆藏族自治州,质量技术监督局,,40,28,20,12,8,127,127,126,126,7,9,7,6,0.5,0.5
2026-04-09T1800,4257A,104.6092,35.5962,定西市,将台街,"颗粒物(PM10),细颗粒物(PM2.5)",64,69,90,42,35,131,131,125,125,6,24,8,8,0.2,0.2
2026-04-09T1800,4309A,104.6159,35.5701,定西市,正龙路62号,颗粒物(PM10),68,74,90,26,30,128,128,120,120,7,13,9,9,0.3,0.3
2026-04-09T1800,4071A,114.9883,38.5232,定州市,交通局,细颗粒物(PM2.5),72,73,78,46,69,93,93,88,88,20,25,5,5,0.5,0.7
2026-04-09T1800,4072A,115.0045,38.5136,定州市,第五中学,细颗粒物(PM2.5),64,65,78,42,68,91,91,86,86,14,21,2,2,0.4,0.6
2026-04-09T1800,1390A,113.7943,23.0132,东莞市,东城石井,,24,24,43,13,20,59,59,60,60,8,19,2,3,0.5,0.5
2026-04-09T1800,1391A,113.7384,22.9659,东莞市,南城西平,,20,20,38,9,16,54,54,55,55,6,19,2,3,0.5,0.5
2026-04-09T1800,3319A,113.7283,23.041,东莞市,万江金泰,,23,23,40,16,19,53,53,54,54,9,16,6,6,0.6,0.6
2026-04-09T1800,4129A,113.8666,23.1062,东莞市,裕兴路,,27,27,68,10,18,54,54,58,58,11,15,5,6,0.6,0.7
2026-04-09T1800,4130A,114.0076,22.9739,东莞市,教育路1号,,28,28,43,11,16,57,57,72,72,16,16,5,6,0.6,0.6
2026-04-09T1800,4131A,113.7981,22.8124,东莞市,长怡路1号,,40,NA,44,28,18,47,47,54,53,10,20,5,5,0.6,0.7
2026-04-09T1800,1666A,118.6612,37.4313,东营市,市环保局,,30,22,28,21,20,85,85,93,89,16,13,7,8,0.3,0.3
2026-04-09T1800,3036A,118.6903,37.4337,东营市,开发区管委会,,29,19,29,19,17,92,92,96,40,16,23,5,6,0.4,0.4
2026-04-09T1800,3365A,118.5721,37.5654,东营市,垦利区民丰路,,31,14,25,10,16,98,98,96,96,9,12,2,5,0.6,0.6
2026-04-09T1800,3498A,118.5063,37.8606,东营市,河口城区,,42,17,28,7,10,132,132,121,121,11,10,8,8,0.6,0.6
2026-04-09T1800,3646A,118.4979,37.4623,东营市,胜利站,颗粒物(PM10),51,51,36,25,18,73,73,82,82,18,13,8,7,0.7,0.7
2026-04-09T1800,3734A,118.5753,37.4405,东营市,理想之城,,41,41,34,25,15,92,92,93,93,31,23,5,5,0.4,0.7
2026-04-09T1800,1591A,110.0024,39.8127,鄂尔多斯市,综合楼,颗粒物(PM10),101,122,179,40,51,103,103,102,102,11,16,5,7,0.3,0.5
2026-04-09T1800,1592A,109.9485,39.8259,鄂尔多斯市,巴音孟克林场办事处,颗粒物(PM10),86,100,183,14,44,106,106,102,102,6,12,4,5,0.2,0.3
2026-04-09T1800,1593A,109.7734,39.5987,鄂尔多斯市,康泽苑,颗粒物(PM10),75,85,167,12,44,112,112,108,108,5,9,7,8,0.3,0.4
2026-04-09T1800,1594A,109.8121,39.5987,鄂尔多斯市,华泰汽车城,颗粒物(PM10),78,88,161,12,41,101,101,98,98,6,12,6,7,0.3,0.4
2026-04-09T1800,1595A,109.9734,39.7884,鄂尔多斯市,奥林花园,颗粒物(PM10),93,110,158,16,36,105,105,100,100,9,17,4,5,0.3,0.5
2026-04-09T1800,2436A,114.894,30.3989,鄂州市,市政府,,25,25,23,13,10,35,35,90,67,36,15,9,9,0.4,0.4
2026-04-09T1800,2437A,114.8986,30.3714,鄂州市,赵家坝,颗粒物(PM10),53,54,35,3,9,63,63,98,74,16,8,7,8,0.5,0.8
2026-04-09T1800,3654A,114.8093,30.4091,鄂州市,精准医疗中心,NA,NA,22,26,14,11,NA,NA,99,61,30,17,4,9,1.8,1
2026-04-09T1800,2454A,109.4978,30.2979,恩施土家族苗族自治州,湖北民院,,46,36,42,32,27,48,48,60,60,21,3,7,7,0.8,0.8
2026-04-09T1800,3549A,109.5061,30.3771,恩施土家族苗族自治州,龙凤新区,,45,40,33,31,19,24,24,44,44,14,12,6,7,0.6,0.5
2026-04-09T1800,2499A,108.3411,21.6159,防城港市,沙万,颗粒物(PM10),53,54,61,24,26,70,70,72,72,8,15,7,8,0.6,0.7
2026-04-09T1800,2500A,108.3515,21.7733,防城港市,防城档案局,,49,49,52,28,31,75,75,81,81,2,8,7,7,0.6,0.7
2026-04-09T1800,2501A,108.3506,21.6414,防城港市,大海花园,细颗粒物(PM2.5),60,46,52,40,32,78,78,84,84,13,20,7,18,0.5,0.6
2026-04-09T1800,1371A,113.1293,23.0065,佛山市,湾梁,,34,34,38,16,20,52,52,61,61,12,20,/,/,/,/
2026-04-09T1800,1372A,113.1082,23.0477,佛山市,华材职中,,31,31,37,19,21,56,56,63,63,14,22,4,3,0.3,0.3
2026-04-09T1800,1373A,113.1439,23.045,佛山市,南海气象局,,34,34,41,20,23,50,50,59,59,16,24,/,/,/,/
2026-04-09T1800,1374A,113.2879,22.8094,佛山市,顺德苏岗,,23,23,40,16,18,54,54,60,60,6,13,/,/,0.6,0.6
2026-04-09T1800,1376A,112.8384,22.8678,佛山市,高明孔堂,,26,26,31,13,17,53,53,57,57,6,12,/,/,/,/
2026-04-09T1800,1377A,112.8835,23.1584,佛山市,三水监测站,,34,34,38,18,23,47,47,54,54,18,26,5,5,0.4,0.4
2026-04-09T1800,1378A,112.8668,23.185,佛山市,三水云东海,颗粒物(PM10),55,56,54,17,21,53,53,58,57,16,24,/,/,/,/
2026-04-09T1800,3625A,113.2568,22.7629,佛山市,容桂街道办,,27,27,35,15,20,48,48,54,54,13,19,/,/,/,/
2026-04-09T1800,1282A,119.2681,26.0506,福州市,师大,,35,35,42,11,17,106,106,92,92,15,16,4,3,0.3,0.3
2026-04-09T1800,1283A,119.2983,26.1028,福州市,五四北路,颗粒物(PM10),59,62,39,21,20,115,115,94,94,19,19,5,4,0.3,0.3
2026-04-09T1800,1284A,119.2648,26.0769,福州市,杨桥西路,,46,46,38,19,19,105,105,94,94,16,15,4,4,/,/
2026-04-09T1800,3048A,119.5799,26.0937,福州市,九龙,,40,38,34,17,20,125,125,117,117,10,15,6,5,0.3,0.3
2026-04-09T1800,3526A,119.5188,25.9666,福州市,吴航,,36,28,35,14,18,114,114,122,122,12,19,6,6,0.5,0.5
2026-04-09T1800,4104A,119.3106,26.0648,福州市,路通桥巷6号,,44,44,44,18,20,114,114,96,96,13,14,/,/,/,/
2026-04-09T1800,1755A,123.7974,41.8494,抚顺市,望花区,颗粒物(PM10),51,51,48,31,21,94,94,106,103,26,18,13,17,0.7,0.7
2026-04-09T1800,1756A,123.9161,41.8827,抚顺市,顺城区,细颗粒物(PM2.5),60,NA,35,40,21,86,86,98,96,26,15,11,11,0.7,0.6
2026-04-09T1800,1757A,124.0437,41.8615,抚顺市,东洲区,细颗粒物(PM2.5),56,55,38,38,18,100,100,107,107,26,14,12,11,0.6,0.5
2026-04-09T1800,1758A,123.9246,41.8638,抚顺市,新抚区,,50,50,46,27,22,85,85,102,101,35,18,12,12,0.8,0.7
2026-04-09T1800,1759A,124.0972,41.8961,抚顺市,大伙房水库,细颗粒物(PM2.5),56,44,36,38,15,122,122,126,124,18,8,9,8,0.5,0.4
2026-04-09T1800,1760A,123.708,41.8386,抚顺市,沈抚新城,,49,49,45,34,20,90,90,100,98,26,18,9,10,0.7,0.7
2026-04-09T1800,2377A,116.3544,27.9833,抚州市,市站,NA,NA,46,34,34,23,87,87,90,90,6,4,2,4,NA,0.6
2026-04-09T1800,2378A,116.3562,27.9631,抚州市,血防站,,49,34,31,34,20,86,86,91,91,6,7,7,7,0.7,0.7
2026-04-09T1800,2379A,116.3561,28.0007,抚州市,采茶剧团,,40,40,33,27,20,86,86,88,88,2,2,12,12,0.5,0.6
2026-04-09T1800,2380A,116.3854,27.9648,抚州市,医学分院,颗粒物(PM10),58,60,40,23,17,86,86,89,89,5,6,5,7,1.2,1.1
2026-04-09T1800,2207A,121.6095,41.9978,阜新市,工业园区,颗粒物(PM10),53,54,101,32,27,92,92,96,96,21,15,14,12,0.5,0.4
2026-04-09T1800,2208A,121.6567,42.0188,阜新市,长青街,细颗粒物(PM2.5),64,52,68,42,26,89,89,98,97,22,17,9,11,0.6,0.4
2026-04-09T1800,2209A,121.6672,42.07,阜新市,农业园区,,50,50,98,34,28,73,73,96,94,20,18,6,8,0.6,0.5
2026-04-09T1800,2211A,121.6343,42.0455,阜新市,玉龙新城,颗粒物(PM10),51,51,85,30,27,93,93,98,98,26,18,10,10,0.6,0.5
2026-04-09T1800,2301A,115.8276,32.8929,阜阳市,市监测站,,27,27,36,14,26,76,76,61,61,12,13,5,5,0.4,0.3
2026-04-09T1800,2303A,115.8551,32.8606,阜阳市,开发区,,25,20,34,12,24,77,77,63,62,12,14,5,6,0.5,0.4
2026-04-09T1800,2875A,115.783962,32.889217,阜阳市,阜阳职业技术学院,,26,NA,33,10,19,82,82,65,65,6,9,6,7,0.5,0.4
2026-04-09T1800,3468A,115.79,32.8614,阜阳市,市规划展馆,,32,32,37,15,27,81,81,65,65,7,11,7,8,0.6,0.5
2026-04-09T1800,3469A,115.835101,32.918568,阜阳市,枣园社区,,24,24,35,15,29,75,75,62,62,9,11,6,6,0.5,0.4
2026-04-09T1800,2669A,102.9097,34.9841,甘南藏族自治州,州政府,,31,27,39,15,18,97,97,88,88,5,17,3,3,0.2,0.3
2026-04-09T1800,3380A,102.8915,34.9618,甘南藏族自治州,甘肃民族师范学院,NA,NA,42,56,12,19,113,113,106,106,NA,25,1,1,0.4,0.4
2026-04-09T1800,2570A,101.96,30.048,甘孜藏族自治州,水桥子,,32,32,19,14,7,93,93,93,93,5,23,6,6,0.2,0.2
2026-04-09T1800,3065A,101.9534,29.9976,甘孜藏族自治州,州环保局,NA,NA,NA,16,NA,7,NA,NA,114,114,7,15,6,5,0.2,0.4
2026-04-09T1800,2363A,114.9368,25.8663,赣州市,地委,,42,42,28,22,17,73,73,76,76,8,4,2,2,0.8,0.7
2026-04-09T1800,2364A,114.946,25.8483,赣州市,气象台,,36,34,31,25,18,76,76,78,78,8,4,4,5,0.4,0.5
2026-04-09T1800,2365A,114.932,25.8332,赣州市,市图书馆,,42,29,25,29,19,74,74,77,77,8,5,5,4,0.7,0.6
2026-04-09T1800,2366A,114.8905,25.8472,赣州市,华坚鞋城,,38,38,31,19,18,69,69,71,71,10,6,5,6,0.6,0.4
2026-04-09T1800,3109A,115.0094,25.8614,赣州市,赣县区卫计委,,36,25,29,25,17,66,66,67,67,18,14,3,1,0.9,0.8
2026-04-09T1800,2684A,106.2753,36.0057,固原市,监测站,颗粒物(PM10),82,94,96,17,28,115,115,114,114,6,15,4,5,0.3,0.4
2026-04-09T1800,2685A,106.2384,36.0189,固原市,新区,颗粒物(PM10),84,97,97,29,26,114,114,113,113,4,16,4,5,0.2,0.4
2026-04-09T1800,2544A,106.6307,30.4577,广安市,市委,,36,30,27,11,20,113,113,82,82,6,11,7,7,0.4,0.4
2026-04-09T1800,2545A,106.6266,30.4662,广安市,友谊中学,,34,27,25,7,18,107,107,81,81,9,10,7,7,0.4,0.5
2026-04-09T1800,2547A,106.6386,30.4551,广安市,广电花园,,35,34,33,14,21,109,109,79,79,12,16,6,6,0.6,0.7
2026-04-09T1800,2902A,106.6347,30.4868,广安市,北辰小学,NA,NA,35,31,13,20,108,108,81,81,8,9,NA,11,0.5,0.7
2026-04-09T1800,2524A,105.8211,32.4444,广元市,老城,,31,31,24,11,5,88,88,80,80,10,15,5,4,0.6,0.7
2026-04-09T1800,2526A,105.8629,32.429,广元市,监测站,,47,47,28,11,6,93,93,80,80,8,14,2,4,0.3,0.4
2026-04-09T1800,3617A,105.8047,32.4167,广元市,经开区,,39,39,23,15,11,89,89,79,79,8,18,3,7,0.3,0.7
2026-04-09T1800,1345A,113.2346,23.1423,广州市,广雅中学,,31,31,41,18,19,49,49,52,52,13,19,1,2,0.8,0.7
2026-04-09T1800,1346A,113.2611,23.105,广州市,市五中,,35,35,38,8,21,61,61,63,63,16,25,3,2,/,/
2026-04-09T1800,1348A,113.3477,23.0916,广州市,广东商学院,,28,28,36,18,21,45,45,51,51,17,23,4,4,0.5,0.6
2026-04-09T1800,1349A,113.4332,23.105,广州市,市八十六中,,19,19,32,11,18,43,43,42,42,20,35,6,6,/,/
2026-04-09T1800,1350A,113.3506,22.9488,广州市,番禺中学,NA,NA,33,38,18,17,51,51,56,56,NA,25,5,4,0.5,0.5
2026-04-09T1800,1351A,113.2147,23.3918,广州市,花都师范,,36,36,45,20,22,45,45,54,53,30,27,6,6,0.7,0.8
2026-04-09T1800,1352A,113.2599,23.1329,广州市,市监测站,NA,NA,35,40,19,20,56,56,56,56,NA,17,2,2,/,/
2026-04-09T1800,1353A,113.5618,23.3119,广州市,九龙镇镇龙,,33,33,43,16,20,45,45,46,46,20,22,5,5,0.4,0.5
2026-04-09T1800,1354A,113.2764,23.1544,广州市,麓湖,,33,33,41,18,19,61,61,55,55,11,17,4,4,0.5,0.7
2026-04-09T1800,2846A,113.3209,23.1323,广州市,体育西,,40,40,43,19,18,43,43,49,49,19,25,4,5,0.6,0.6
2026-04-09T1800,3298A,113.5718,23.5493,广州市,从化街口,,31,31,37,18,19,49,49,54,54,13,11,7,7,0.5,0.5
2026-04-09T1800,3299A,113.3463,23.369,广州市,白云竹料,,34,34,44,18,22,48,48,47,47,21,23,3,3,0.5,0.6
2026-04-09T1800,3300A,113.2981,23.2365,广州市,白云嘉禾,,37,37,44,17,20,40,40,48,48,27,29,10,10,/,/
2026-04-09T1800,3301A,113.4256,23.1716,广州市,黄埔科学城,,29,29,43,16,21,33,33,39,39,32,32,6,7,0.4,0.6
2026-04-09T1800,3302A,113.3942,23.0485,广州市,番禺大学城,,32,32,36,12,16,52,52,60,60,19,24,3,3,0.6,0.6
2026-04-09T1800,3303A,113.4923,22.8169,广州市,南沙黄阁,,27,27,40,16,18,54,54,59,59,9,21,6,6,/,/
2026-04-09T1800,3304A,113.534,22.7893,广州市,南沙街,,37,37,40,13,19,47,47,54,54,14,23,4,5,0.4,0.4
2026-04-09T1800,3443A,113.2905,23.5541,广州市,花都梯面,,41,41,43,21,21,50,50,48,48,20,20,7,7,/,/
2026-04-09T1800,3445A,113.786,23.7479,广州市,从化良口,,32,30,27,22,18,73,73,74,74,10,10,4,4,/,/
2026-04-09T1800,3446A,113.805,23.2614,广州市,增城荔城,,24,24,40,14,19,56,56,64,64,11,14,4,5,0.4,0.5
2026-04-09T1800,2506A,109.604387,23.066791,贵港市,江南子站,颗粒物(PM10),56,58,60,28,31,129,129,104,104,6,11,8,9,0.7,0.7
2026-04-09T1800,2508A,109.5669,23.1065,贵港市,荷城子站,"颗粒物(PM10),细颗粒物(PM2.5)",60,63,49,40,32,112,112,99,99,11,13,10,11,0.8,0.8
2026-04-09T1800,3405A,109.5886,23.1172,贵港市,新世纪学校,颗粒物(PM10),55,56,48,34,33,120,120,101,101,12,15,/,/,0.7,0.7
2026-04-09T1800,4260A,109.5933,23.095,贵港市,中山路155-3号,细颗粒物(PM2.5),68,67,57,44,33,127,127,105,105,10,12,/,/,0.7,0.7
2026-04-09T1800,1439A,106.6863,26.6035,贵阳市,马鞍山,,45,29,33,14,22,144,144,134,134,10,9,8,7,/,/
2026-04-09T1800,1441A,106.6241,26.6266,贵阳市,鉴湖路,,50,39,51,12,19,158,158,148,148,10,7,8,9,0.4,0.6
2026-04-09T1800,1442A,106.7468,26.6344,贵阳市,燕子冲,,42,34,48,20,24,133,133,125,125,11,12,3,5,0,0.2
2026-04-09T1800,1443A,106.6556,26.4362,贵阳市,碧云窝,NA,NA,NA,42,NA,22,139,139,136,136,5,5,9,6,/,/
2026-04-09T1800,1445A,106.6963,26.6063,贵阳市,红边门,,45,31,49,16,24,141,141,131,131,14,14,11,9,/,/
2026-04-09T1800,1446A,106.7162383,26.56964667,贵阳市,新华路,,44,44,51,20,24,131,131,141,141,18,14,122,44,0.3,0.2
2026-04-09T1800,1447A,106.6742,26.542,贵阳市,太慈桥,,43,36,42,17,23,136,136,125,125,7,9,8,5,/,/
2026-04-09T1800,4230A,106.688212,26.56952,贵阳市,花果园大街66号,,38,NA,30,20,22,121,121,105,105,9,11,4,3,/,/
2026-04-09T1800,4231A,106.687268,26.516892,贵阳市,漓江路57号,,48,24,30,18,20,153,153,145,145,14,11,7,7,0.5,0.6
2026-04-09T1800,1864A,110.3091,25.2705,桂林市,龙隐路小学,细颗粒物(PM2.5),72,77,61,46,41,115,115,102,102,10,9,4,4,0.8,0.8
2026-04-09T1800,1865A,110.2849361,25.22909545,桂林市,八中,颗粒物(PM10),58,60,58,32,23,102,102,92,92,10,10,4,4,0.6,0.6
2026-04-09T1800,3531A,110.296,25.1254,桂林市,旅游学院,细颗粒物(PM2.5),70,56,49,45,38,120,120,107,107,7,7,8,6,0.7,0.7
2026-04-09T1800,4222A,110.1835,25.2444,桂林市,环湖路276号,细颗粒物(PM2.5),84,61,57,52,44,126,126,99,99,5,11,10,12,0.7,0.7
2026-04-09T1800,4301A,110.2803,25.2773,桂林市,信义路13号,颗粒物(PM10),59,62,60,30,37,116,116,102,102,8,11,5,5,0.7,0.7
2026-04-09T1800,2674A,100.2262,34.4854,果洛藏族自治州,玛沁县大武镇,NA,NA,NA,29,NA,12,NA,NA,118,NA,NA,4,NA,18,NA,0.6
2026-04-09T1800,1130A,126.5557,45.8109,哈尔滨市,松北商大,,32,26,131,22,24,100,100,101,101,11,13,16,11,0.3,0.3
2026-04-09T1800,1132A,126.6162,45.719,哈尔滨市,南岗学府路,,32,30,203,14,28,100,100,96,96,11,15,7,7,0.2,0.2
2026-04-09T1800,1133A,126.6894,45.7733,哈尔滨市,太平宏伟公园,,30,25,177,18,23,94,94,96,96,21,18,6,8,0.4,0.3
2026-04-09T1800,1134A,126.6361,45.7672,哈尔滨市,道外承德广场,颗粒物(PM10),63,67,173,22,21,91,91,92,92,24,20,12,9,0.4,0.6
2026-04-09T1800,1136A,126.644,45.7261,哈尔滨市,动力和平路,,35,35,200,21,25,95,95,91,91,14,18,3,6,0.5,0.5
2026-04-09T1800,1137A,126.5933,45.7479,哈尔滨市,道里建国路,NA,NA,NA,170,NA,24,98,98,97,97,NA,23,NA,7,NA,0.3
2026-04-09T1800,1138A,126.6127,45.6119,哈尔滨市,平房东轻厂,颗粒物(PM10),71,79,166,34,36,74,74,80,80,97,75,9,6,0.6,0.5
2026-04-09T1800,1139A,126.5875,45.9827,哈尔滨市,呼兰师专,,31,31,86,18,13,90,90,94,94,24,16,9,9,0.1,0.1
2026-04-09T1800,1140A,126.6299,45.6799,哈尔滨市,省农科院,,50,50,209,17,30,84,84,88,88,29,20,9,8,0.3,0.3
2026-04-09T1800,4282A,126.6769,45.7379,哈尔滨市,华山路1号,,34,34,203,17,24,100,100,94,94,12,17,8,11,0.4,0.6
2026-04-09T1800,4283A,126.9717,45.5356,哈尔滨市,解放大街52号,颗粒物(PM10),72,80,233,38,34,108,108,117,117,20,17,8,9,0.5,0.6
2026-04-09T1800,2688A,93.5124,42.8176,哈密市,地区监测站,,43,36,29,8,13,137,137,118,118,5,12,13,11,0.1,0.1
2026-04-09T1800,2689A,93.5014,42.8312,哈密市,哈密师范学校,,44,27,41,7,11,138,138,121,121,6,16,8,8,0.2,0.2
2026-04-09T1800,2671A,100.9016,36.9464,海北藏族自治州,海晏县西海镇,,35,13,27,13,14,110,110,109,109,2,2,5,7,0.3,0.4
2026-04-09T1800,3867A,102.074,36.5056,海东市,平安区公安局北苑,,40,26,43,14,22,127,127,124,124,9,9,7,10,0.5,0.6
2026-04-09T1800,4163A,102.0984,36.5119,海东市,滨河路,NA,NA,29,36,20,22,115,115,109,109,NA,18,NA,8,0.5,0.7
2026-04-09T1800,1410A,110.3189,20.0596,海口市,海南大学,,42,36,36,22,21,134,134,106,106,10,6,5,5,0.4,0.4
2026-04-09T1800,1411A,110.2827,20.0051,海口市,秀英海南医院,,38,36,31,24,23,120,120,98,98,13,8,8,7,0.4,0.4
2026-04-09T1800,1412A,110.3391,19.9979,海口市,海南师范大学,,28,19,35,17,20,88,88,98,98,8,6,7,6,0.3,0.4
2026-04-09T1800,1413A,110.3303,20.0359,海口市,龙华路环保局宿舍,,42,35,35,27,24,133,133,109,109,17,7,/,/,0.6,0.5
2026-04-09T1800,3539A,110.5111,19.9737,海口市,桂林洋子站,,27,27,30,15,18,65,65,85,84,7,5,/,/,/,/
2026-04-09T1800,4134A,110.1952,20.0451,海口市,长滨二路9号,,39,39,35,23,22,120,120,104,104,13,6,/,/,/,/
2026-04-09T1800,2673A,100.6158,36.2985,海南藏族自治州,共和县恰卜恰镇,,37,34,36,14,16,118,118,114,114,1,5,10,10,0.2,0.3
2026-04-09T1800,2676A,97.373,37.376,海西蒙古族藏族自治州,德令哈市,,47,36,29,8,9,148,148,140,140,3,2,16,15,0.4,0.3
2026-04-09T1800,1049A,114.492,36.5712,邯郸市,矿院,细颗粒物(PM2.5),70,45,49,45,45,78,78,68,68,10,18,2,2,0.5,0.7
2026-04-09T1800,1050A,114.4839,36.6136,邯郸市,丛台公园,细颗粒物(PM2.5),66,52,49,43,46,74,74,69,69,13,18,5,5,0.6,0.6
2026-04-09T1800,3458A,114.7893,36.5592,邯郸市,香泉濮院小区,细颗粒物(PM2.5),62,NA,34,41,40,80,80,81,81,10,14,3,3,0.6,0.5
2026-04-09T1800,3580A,114.1998,36.4439,邯郸市,峰峰矿区临水派出所,细颗粒物(PM2.5),102,NA,45,62,59,90,90,79,79,10,13,5,5,0.6,0.7
2026-04-09T1800,4068A,114.5209,36.7697,邯郸市,建安街268号,细颗粒物(PM2.5),84,53,54,52,65,78,78,76,76,16,25,3,3,0.6,0.6
2026-04-09T1800,4069A,114.5488,36.6177,邯郸市,丛台东路558号,细颗粒物(PM2.5),78,NA,41,49,41,79,79,78,78,18,21,1,3,0.6,0.6
2026-04-09T1800,2635A,107.0155,33.0707,汉中市,市监测站,颗粒物(PM10),52,52,42,17,28,95,95,75,75,5,14,5,4,0.5,0.6
2026-04-09T1800,2636A,107.0083,33.114,汉中市,鑫源开发区,,33,33,38,19,30,94,94,70,70,8,15,5,5,0.7,0.8
2026-04-09T1800,2637A,107.0072,33.0323,汉中市,南郑大河坎水厂,,43,43,38,15,24,96,96,73,73,7,14,4,4,0.5,0.5
2026-04-09T1800,1223A,120.2073,30.2111,杭州市,滨江,,37,37,35,16,15,86,86,83,83,15,15,7,8,0.7,0.5
2026-04-09T1800,1224A,120.0625,30.2737,杭州市,西溪,,34,34,37,12,13,58,58,81,81,22,17,8,8,0.7,0.6
2026-04-09T1800,1226A,120.3417,30.315,杭州市,下沙,,35,35,34,18,14,76,76,76,76,16,16,7,8,0.7,0.6
2026-04-09T1800,1227A,120.1252,30.2465,杭州市,卧龙桥,,26,26,28,11,14,70,70,92,92,17,9,7,7,0.4,0.3
2026-04-09T1800,1228A,120.1902,30.2691,杭州市,浙江农大,,39,39,30,22,14,37,37,69,69,57,25,7,7,0.4,0.3
2026-04-09T1800,1230A,120.1195,30.3121,杭州市,和睦小学,,36,36,36,16,16,60,60,81,81,26,20,6,7,0.6,0.6
2026-04-09T1800,1231A,120.3076,30.4146,杭州市,临平镇,,37,37,37,16,14,81,81,88,88,25,25,6,7,0.6,0.5
2026-04-09T1800,1232A,120.2753,30.1839,杭州市,城厢镇,,40,40,36,17,13,78,78,76,76,18,16,6,5,0.7,0.6
2026-04-09T1800,1233A,120.0883,30.1808,杭州市,云栖,,23,19,31,9,14,73,73,80,80,21,27,6,6,0.7,0.6
2026-04-09T1800,3557A,119.9463,30.0496,杭州市,镇二中,,28,28,32,17,17,88,88,81,81,16,18,5,5,0.8,0.7
2026-04-09T1800,3558A,119.7184,30.2367,杭州市,市府大楼,,37,37,36,17,18,62,62,80,79,17,15,7,7,0.6,0.5
2026-04-09T1800,3656A,120.1554,30.2863,杭州市,消防大队,,40,40,35,15,14,62,62,80,80,27,17,5,8,0.7,0.8
2026-04-09T1800,1270A,117.1957,31.7845,合肥市,明珠广场,,27,27,31,16,21,43,43,70,49,19,14,2,4,0.6,0.5
2026-04-09T1800,1271A,117.307,31.8765,合肥市,三里街,,31,31,32,20,22,43,43,61,46,19,20,6,6,0.6,0.5
2026-04-09T1800,1272A,117.2587,31.8703,合肥市,琥珀山庄,,31,31,34,18,21,46,46,65,51,16,17,5,6,0.6,0.6
2026-04-09T1800,1275A,117.2593,31.9376,合肥市,庐阳区,,31,31,37,20,24,47,47,60,55,14,13,6,7,0.7,0.6
2026-04-09T1800,1276A,117.345251,31.861615,合肥市,瑶海区,,29,27,34,20,20,46,46,57,49,16,18,7,8,0.8,0.7
2026-04-09T1800,1277A,117.3033,31.7967,合肥市,包河区,,24,24,29,16,18,32,32,69,35,27,14,9,10,0.8,0.7
2026-04-09T1800,1278A,117.278,31.7392,合肥市,滨湖新区,NA,NA,NA,30,18,18,35,35,70,37,25,15,6,6,NA,0.5
2026-04-09T1800,1279A,117.1324,31.8395,合肥市,高新区,,27,27,35,13,21,44,44,65,54,9,6,5,6,0.6,0.5
2026-04-09T1800,3464A,117.3802,31.9148,合肥市,高教基地,,36,36,38,20,21,42,42,55,49,19,18,8,9,0.6,0.6
2026-04-09T1800,4098A,117.2518,31.8404,合肥市,中国科学技术大学,NA,NA,22,30,16,18,46,46,68,50,NA,12,5,6,NA,0.6
2026-04-09T1800,3614A,79.9241,37.0878,和田地区,地区环保局,颗粒物(PM10),110,144,265,34,63,114,114,98,98,2,12,3,2,0.2,0.3
2026-04-09T1800,3615A,79.9132,37.1137,和田地区,市环保局,颗粒物(PM10),105,132,248,52,71,105,105,90,90,2,12,3,4,0.3,0.4
2026-04-09T1800,2517A,108.0496,24.6957,河池市,市环保站,颗粒物(PM10),68,75,69,39,47,136,136,121,121,4,4,5,5,0.9,0.9
2026-04-09T1800,4302A,108.0901,24.6945,河池市,上任中路54号,颗粒物(PM10),58,60,66,38,45,137,137,115,115,4,8,6,6,0.9,0.9
2026-04-09T1800,1697A,114.6962,23.7538,河源市,东埔,,25,25,30,15,18,67,67,69,69,7,7,5,6,0.5,0.5
2026-04-09T1800,1698A,114.6895,23.7232,河源市,老城,,32,28,31,22,20,68,68,68,68,4,7,6,6,0.4,0.5
2026-04-09T1800,3374A,115.5562,35.089,菏泽市,定陶老年大学,,44,44,36,21,27,96,96,81,81,14,16,4,4,0.6,0.5
2026-04-09T1800,4114A,115.4239,35.2593,菏泽市,黄河路600号,颗粒物(PM10),54,55,46,32,32,89,89,81,81,12,14,3,2,0.6,0.5
2026-04-09T1800,4115A,115.5025,35.2727,菏泽市,菏泽市人社局,,46,46,36,26,30,84,84,72,72,12,12,6,5,0.6,0.4
2026-04-09T1800,4184A,115.479691,35.244011,菏泽市,永昌路1号,颗粒物(PM10),52,52,39,26,31,102,102,84,84,13,16,2,1,0.5,0.8
2026-04-09T1800,4193A,115.471542,35.280012,菏泽市,长城路999号,,42,42,38,22,27,100,100,81,81,11,14,3,2,0.5,0.3
2026-04-09T1800,2514A,111.5264,24.4178,贺州市,环保小区,颗粒物(PM10),51,51,41,31,27,112,112,90,90,8,14,5,6,0.5,0.5
2026-04-09T1800,2515A,111.561,24.4074,贺州市,政协大楼,,43,34,35,30,27,99,99,94,94,15,11,8,8,0.8,0.7
2026-04-09T1800,3534A,111.4744,24.455,贺州市,西湾,,49,49,50,34,27,99,99,83,83,10,12,7,7,0.9,0.6
2026-04-09T1800,2385A,114.17,35.9019,鹤壁市,市监测站,细颗粒物(PM2.5),80,58,46,50,43,78,78,77,77,15,16,6,5,0.7,0.7
2026-04-09T1800,2386A,114.2953,35.7512,鹤壁市,市交警支队,细颗粒物(PM2.5),60,61,41,40,33,67,67,66,66,17,19,3,5,0.9,0.7
2026-04-09T1800,2387A,114.2877,35.7302,鹤壁市,迎宾馆,细颗粒物(PM2.5),90,64,45,55,35,67,67,67,67,14,15,6,4,0.8,0.7
2026-04-09T1800,3474A,114.2616,35.6824,鹤壁市,大新区,细颗粒物(PM2.5),62,NA,30,41,45,70,70,71,71,13,9,7,5,1.0,0.8
2026-04-09T1800,3596A,114.1573,35.9607,鹤壁市,南山宾馆,NA,NA,NA,55,NA,42,76,76,77,77,19,11,NA,8,0.8,0.8
2026-04-09T1800,2244A,130.2537,47.3416,鹤岗市,哈啤分公司,NA,NA,NA,47,NA,14,NA,NA,100,NA,NA,10,NA,10,NA,0.4
2026-04-09T1800,2245A,130.2683,47.3087,鹤岗市,斯达机电,,30,28,47,21,13,89,89,89,89,6,9,10,13,0.2,0.3
2026-04-09T1800,2246A,130.3114,47.3388,鹤岗市,东山纸板厂,,32,32,62,8,13,97,97,96,96,5,10,8,10,0.2,0.4
2026-04-09T1800,2263A,127.4832,50.2524,黑河市,交通局,,27,22,22,8,12,85,85,86,86,5,4,5,4,0.2,0.2
2026-04-09T1800,2264A,127.5146,50.2339,黑河市,环保局,,25,19,22,9,9,80,80,85,85,9,8,7,5,0.3,0.3
2026-04-09T1800,1074A,115.6839,37.754,衡水市,电机北厂,,33,33,47,21,35,83,83,79,79,19,19,2,2,0.5,0.5
2026-04-09T1800,1075A,115.6303,37.7318,衡水市,市监测站,,48,48,44,26,30,86,86,76,76,17,18,5,5,0.5,0.5
2026-04-09T1800,3188A,115.6684,37.7216,衡水市,市城管局,NA,NA,34,38,NA,32,90,90,81,81,NA,16,NA,2,0.4,0.4
2026-04-09T1800,3459A,115.599,37.5491,衡水市,地表水厂,,40,37,37,28,25,82,82,84,84,17,22,3,4,0.4,0.4
2026-04-09T1800,2457A,112.6209,26.9268,衡阳市,衡阳化工总厂,细颗粒物(PM2.5),74,73,52,47,30,112,112,107,107,4,4,4,4,0.6,0.6
2026-04-09T1800,2458A,112.621,26.8957,衡阳市,珠晖区环保局,颗粒物(PM10),61,65,47,40,24,112,112,108,108,3,3,6,6,0.7,0.7
2026-04-09T1800,2459A,112.628,26.8654,衡阳市,市委党校,颗粒物(PM10),58,61,53,38,26,110,110,111,111,3,2,8,6,0.9,0.8
2026-04-09T1800,2460A,112.6007,26.8977,衡阳市,市监测站,细颗粒物(PM2.5),80,68,50,50,31,108,108,101,101,23,10,7,7,0.5,0.6
2026-04-09T1800,2461A,112.5658,26.9013,衡阳市,真空机电公司,颗粒物(PM10),58,60,50,36,27,115,115,108,108,5,4,5,9,1.0,1.1
2026-04-09T1800,3399A,112.6703,26.8817,衡阳市,师范学院,细颗粒物(PM2.5),60,52,49,40,27,110,110,111,111,4,2,6,5,0.8,0.7
2026-04-09T1800,3038A,103.3757,23.3679,红河哈尼族彝族自治州,州图书馆,,37,31,34,23,25,118,118,118,118,5,6,4,5,0.2,0.3
2026-04-09T1800,4154A,103.401,23.3561,红河哈尼族彝族自治州,蒙自市朝阳路,,37,NA,24,25,25,117,117,117,117,6,7,4,4,0.4,0.3
2026-04-09T1800,1090A,111.6506,40.7517,呼和浩特市,呼市一监,,26,NA,76,13,50,81,81,86,86,8,25,6,9,0.4,0.6
2026-04-09T1800,1094A,111.7516,40.8369,呼和浩特市,如意水处理厂,,25,NA,74,10,43,78,78,78,78,8,32,6,7,0.2,0.6
2026-04-09T1800,1095A,111.727798,40.806187,呼和浩特市,二十九中,,26,21,83,18,46,71,71,72,72,4,20,8,10,0.4,0.6
2026-04-09T1800,1097A,111.717,40.7617,呼和浩特市,化肥厂生活区,,24,NA,88,3,59,76,76,80,80,9,26,6,8,0.3,0.6
2026-04-09T1800,3699A,111.6519,40.8389,呼和浩特市,海东办,,23,7,72,3,45,72,72,73,73,7,26,4,7,0.3,0.6
2026-04-09T1800,4275A,111.591512,40.827312,呼和浩特市,成吉思汗西街8号,,22,22,90,3,47,69,69,70,70,10,37,4,6,0.3,0.6
2026-04-09T1800,4276A,111.6597,40.8077,呼和浩特市,公园东路75号,,22,9,70,3,47,68,68,72,72,9,20,4,11,0.2,0.6
2026-04-09T1800,4277A,111.5427,40.7846,呼和浩特市,金海路35号,,23,11,93,3,55,73,73,73,73,11,26,4,6,0.2,0.5
2026-04-09T1800,3061A,119.7511,49.1576,呼伦贝尔市,国华电力东,,28,28,22,12,8,85,85,83,83,8,9,4,5,0.2,0.2
2026-04-09T1800,4279A,119.7569,49.2222,呼伦贝尔市,伊敏大街东7号,,27,26,23,14,9,86,86,85,85,11,9,6,6,0.4,0.3
2026-04-09T1800,1250A,120.075,30.867,湖州市,城西水厂,,25,19,34,9,16,77,77,115,108,47,25,5,6,0.4,0.4
2026-04-09T1800,2873A,120.083,30.8929,湖州市,仁皇山新区,,32,15,30,9,15,102,102,120,118,29,21,5,6,0.6,0.5
2026-04-09T1800,2907A,120.1846,30.8592,湖州市,吴兴区站,,45,45,39,16,16,87,87,118,114,30,17,7,6,0.5,0.6
2026-04-09T1800,3562A,120.4146,30.8538,湖州市,南浔区站,,29,28,36,14,16,91,91,104,104,11,13,5,6,0.6,0.5
2026-04-09T1800,1607A,120.904878,40.721091,葫芦岛市,龙港区,细颗粒物(PM2.5),82,54,36,51,18,62,62,90,77,40,18,9,10,0.7,0.5
2026-04-09T1800,1608A,120.8382,40.7521,葫芦岛市,化工街,,46,41,41,32,22,60,60,81,75,38,20,12,13,0.6,0.4
2026-04-09T1800,1609A,120.8339,40.7078,葫芦岛市,新区,,50,NA,33,35,21,64,64,85,80,38,18,8,9,0.7,0.5
2026-04-09T1800,1610A,120.8697,40.7679,葫芦岛市,东城区,细颗粒物(PM2.5),56,NA,32,38,23,62,62,84,78,39,22,8,9,0.7,0.5
2026-04-09T1800,2483A,109.9297,27.5383,怀化市,河西地税局,细颗粒物(PM2.5),68,68,69,44,45,78,78,108,102,24,8,4,4,/,/
2026-04-09T1800,2484A,109.9783,27.5342,怀化市,市四医院,颗粒物(PM10),63,68,75,39,45,85,85,114,111,17,8,4,4,0.6,0.6
2026-04-09T1800,2485A,109.9971,27.5579,怀化市,监测楼,细颗粒物(PM2.5),78,59,70,49,52,85,85,118,112,14,8,6,5,0.6,0.6
2026-04-09T1800,1210A,119.0566,33.5991,淮安市,钵池山,细颗粒物(PM2.5),62,63,37,41,26,66,66,55,52,13,20,7,7,0.6,0.5
2026-04-09T1800,1211A,119.0083,33.578,淮安市,北京南路,细颗粒物(PM2.5),90,NA,33,55,31,50,50,50,39,13,16,6,7,0.5,0.5
2026-04-09T1800,1212A,118.9938,33.6083,淮安市,市监测站,细颗粒物(PM2.5),72,51,28,46,29,63,63,61,53,13,14,4,5,0.6,0.6
2026-04-09T1800,1213A,119.135,33.5038,淮安市,楚州区监测站,细颗粒物(PM2.5),82,73,33,51,27,58,58,52,51,10,14,5,5,0.4,0.2
2026-04-09T1800,3426A,118.8757,33.2897,淮安市,新华书店,颗粒物(PM10),73,82,43,41,23,62,62,57,57,9,15,6,7,0.7,0.5
2026-04-09T1800,4092A,119.119691,33.550006,淮安市,枚皋中路89号,细颗粒物(PM2.5),66,63,39,43,27,58,58,58,50,13,14,10,10,0.8,0.6
2026-04-09T1800,4206A,119.028838,33.631911,淮安市,承德北路606号,细颗粒物(PM2.5),64,68,37,42,27,62,62,56,51,14,15,7,8,0.3,0.3
2026-04-09T1800,2282A,116.8005,33.9749,淮北市,监测站,,26,21,32,18,31,66,66,69,69,14,14,6,6,0.6,0.5
2026-04-09T1800,2283A,116.8094,33.9008,淮北市,烈山区政府,,20,20,40,14,28,63,63,67,67,12,12,6,6,0.5,0.4
2026-04-09T1800,4017A,116.7926,33.9534,淮北市,市博物馆,,22,20,30,13,26,68,68,68,68,12,13,6,5,0.7,0.6
2026-04-09T1800,4100A,116.8322,33.9884,淮北市,杜集区第一实验学校,,36,36,49,12,33,59,59,62,62,9,23,6,7,0.5,0.2
2026-04-09T1800,2277A,116.8304,32.7726,淮南市,潘集区政府,,26,21,38,18,31,52,52,54,54,13,19,5,5,0.5,0.4
2026-04-09T1800,2279A,116.8569,32.5949,淮南市,谢家集区政府,,28,NA,39,19,34,52,52,53,53,8,16,7,9,0.5,0.5
2026-04-09T1800,2280A,116.8279,32.6333,淮南市,八公山区政府,,30,26,46,21,35,53,53,53,53,8,13,8,8,0.5,0.5
2026-04-09T1800,2894A,117.0561,32.6536,淮南市,经济技术开发区消防队,,34,34,42,22,32,51,51,50,50,12,20,7,8,0.4,0.4
2026-04-09T1800,3329A,117.011,32.5891,淮南市,山南新区,,36,33,44,25,34,50,50,52,52,11,17,7,8,0.5,0.5
2026-04-09T1800,4209A,117.003137,32.644456,淮南市,国庆中路369号,NA,NA,NA,55,23,35,46,46,46,46,9,17,6,14,NA,0.2
2026-04-09T1800,2446A,114.9021,30.474,黄冈市,职工中心,,23,20,20,16,11,35,35,102,75,16,7,6,7,0.4,0.7
2026-04-09T1800,2929A,114.8858,30.4519,黄冈市,红卫路,,23,19,18,16,14,44,44,109,77,20,7,5,6,0.4,0.5
2026-04-09T1800,3398A,114.9134,30.4446,黄冈市,市林业局,,25,24,22,17,14,75,75,103,79,8,6,4,4,0.2,0.3
2026-04-09T1800,2672A,102.02,35.5101,黄南藏族自治州,同仁县隆务镇,,37,28,30,12,14,118,118,112,112,2,3,10,10,0.2,0.2
2026-04-09T1800,2295A,118.2905,29.6965,黄山市,延安路89号,,27,23,32,13,21,86,86,66,66,10,14,4,5,0.6,0.5
2026-04-09T1800,2297A,118.1369,30.2755,黄山市,黄山区政府5号楼,,25,6,23,6,11,79,79,87,75,6,5,2,2,0.5,0.4
2026-04-09T1800,4210A,118.335445,29.720283,黄山市,滨江东路7-2号,,33,33,41,12,19,84,84,71,71,11,13,/,/,/,/
2026-04-09T1800,2423A,115.0547,30.2332,黄石市,沈家营,,28,28,37,9,11,62,62,79,69,19,12,11,13,1.0,0.7
2026-04-09T1800,2426A,114.899,30.211,黄石市,铁山,,27,27,31,7,13,72,72,89,81,6,9,8,9,0.4,0.6
2026-04-09T1800,2427A,115.0259,30.2108,黄石市,团城山,,26,26,30,3,14,65,65,79,69,8,9,8,11,0.5,0.7
2026-04-09T1800,3149A,115.0174,30.1591,黄石市,笔架山北路,,25,23,35,11,12,78,78,85,85,10,8,9,11,0.6,0.6
2026-04-09T1800,4185A,115.078022,30.21118,黄石市,磁湖东路29号,,32,32,35,18,18,53,53,98,78,45,17,5,5,1.3,1
2026-04-09T1800,1392A,114.4181,23.0528,惠州市,河南岸金山湖子站,,28,28,38,15,16,64,64,71,71,10,9,6,6,0.5,0.6
2026-04-09T1800,1393A,114.4055,23.0824,惠州市,下埔横江三路子站,,32,32,45,15,17,65,65,71,71,9,7,4,4,0.6,0.6
2026-04-09T1800,1395A,114.4645,22.7832,惠州市,惠阳区承修路船湖子站,NA,NA,NA,47,NA,17,NA,NA,76,76,11,8,5,6,0.5,0.3
2026-04-09T1800,1396A,114.5316,22.7423,惠州市,大亚湾管委会子站,,25,25,45,13,18,59,59,71,70,10,6,3,4,0.5,0.5
2026-04-09T1800,3314A,114.4334,22.8134,惠州市,惠阳秋长,,31,31,41,18,18,64,64,76,76,12,8,/,/,/,/
2026-04-09T1800,3452A,114.6521,22.7755,惠州市,大亚湾霞涌,,20,NA,38,3,16,61,61,67,65,7,6,/,/,/,/
2026-04-09T1800,4300A,114.4089,23.1147,惠州市,文华一路1号,,27,27,36,15,18,66,66,71,71,10,8,/,/,/,/
2026-04-09T1800,2240A,130.9618,45.2926,鸡西市,环保局,,26,23,105,3,20,83,83,95,94,10,9,6,8,0.3,0.3
2026-04-09T1800,2243A,130.9294,45.2959,鸡西市,第一中学,,26,21,100,15,20,83,83,94,93,7,6,4,5,0.2,0.2
2026-04-09T1800,3707A,131.0069,45.2988,鸡西市,欧美日汽修厂,,26,21,100,13,19,82,82,89,89,8,9,2,4,0.3,0.3
2026-04-09T1800,2367A,114.9753,27.0803,吉安市,红声器材厂,NA,NA,NA,35,36,20,94,94,94,94,NA,8,3,5,0.5,0.9
2026-04-09T1800,2369A,114.9903,27.1313,吉安市,市环境监测站,,48,48,36,29,23,97,97,96,96,6,5,8,8,/,/
2026-04-09T1800,2370A,115.009527,27.096792,吉安市,青原区法院,,50,50,38,24,20,99,99,98,98,6,6,5,6,0.8,0.8
2026-04-09T1800,1772A,126.54,43.8622,吉林市,哈达湾,细颗粒物(PM2.5),78,74,55,49,34,93,93,111,103,26,14,11,8,0.7,0.5
2026-04-09T1800,1773A,126.5843,43.8358,吉林市,东局子,细颗粒物(PM2.5),92,106,65,56,35,81,81,99,97,28,16,7,5,0.9,0.7
2026-04-09T1800,1774A,126.5051,43.8243,吉林市,电力学院,细颗粒物(PM2.5),86,93,61,53,32,88,88,115,105,33,16,11,8,1.0,0.8
2026-04-09T1800,1775A,126.6133,43.8971,吉林市,江北,NA,NA,NA,66,NA,34,85,85,98,97,NA,15,12,10,NA,0.8
2026-04-09T1800,1776A,126.5549,43.8304,吉林市,江南公园,颗粒物(PM10),73,82,60,45,31,66,66,106,96,45,16,10,8,0.8,0.6
2026-04-09T1800,2868A,126.4737,43.953,吉林市,九站,细颗粒物(PM2.5),100,99,89,60,46,68,68,84,70,41,27,11,13,0.9,0.7
2026-04-09T1800,1299A,116.9866,36.6118,济南市,科干所,细颗粒物(PM2.5),64,48,42,42,40,76,76,62,62,14,20,6,7,0.7,0.7
2026-04-09T1800,1300A,116.9379,36.6652,济南市,农科所,颗粒物(PM10),51,51,47,34,36,58,58,57,57,21,21,5,5,0.4,0.4
2026-04-09T1800,1301A,117.1265,36.6736,济南市,开发区,颗粒物(PM10),53,54,45,36,32,69,69,67,67,22,20,4,5,0.6,0.5
2026-04-09T1800,1303A,117.0616,36.6865,济南市,省种子仓库,颗粒物(PM10),55,56,50,32,34,73,73,68,68,17,19,6,7,0.6,0.6
2026-04-09T1800,1304A,116.9495185,36.644937,济南市,机床二厂,细颗粒物(PM2.5),56,46,44,38,41,73,73,63,63,20,24,5,5,0.6,0.6
2026-04-09T1800,1305A,117.0496,36.6629,济南市,市监测站,,44,44,44,28,48,70,70,62,62,20,22,3,4,0.7,0.7
2026-04-09T1800,1306A,116.7674,36.5458,济南市,长清党校,颗粒物(PM10),58,61,46,37,28,60,60,66,66,16,21,3,4,0.6,0.6
2026-04-09T1800,1961A,117.5323,36.6865,济南市,东山小学,颗粒物(PM10),55,56,50,30,31,67,67,64,64,24,23,2,3,0.4,0.5
2026-04-09T1800,3059A,117.7181,36.205,济南市,泰兴公司,颗粒物(PM10),53,53,33,31,18,75,75,76,76,22,16,8,7,0.5,0.5
2026-04-09T1800,3064A,117.6861,36.2172,济南市,莱芜战役纪念馆,,49,48,33,34,18,71,71,70,70,19,14,4,4,0.6,0.6
2026-04-09T1800,3494A,117.1673,36.9782,济南市,济阳区政府,细颗粒物(PM2.5),80,54,49,50,40,65,65,65,65,18,19,9,9,0.6,0.6
2026-04-09T1800,3495A,117.1168,36.6299,济南市,锦屏中学,,48,39,31,33,30,68,68,54,NA,18,19,4,5,0.3,0.2
2026-04-09T1800,4108A,117.7107,36.2385,济南市,山财大街5号,NA,NA,NA,26,33,19,76,76,74,74,18,18,3,5,0.8,0.7
2026-04-09T1800,4109A,116.9744,36.6889,济南市,无影山路12号,,49,41,37,34,39,64,64,60,60,18,20,4,4,0.8,0.8
2026-04-09T1800,1653A,116.6229,35.4288,济宁市,火炬城,NA,NA,NA,25,34,26,61,61,56,56,13,15,NA,5,0.7,0.6
2026-04-09T1800,3500A,116.5808,35.3703,济宁市,北湖一中,,42,37,27,29,25,54,54,58,58,16,15,6,6,0.6,0.5
2026-04-09T1800,3501A,116.8251,35.5592,济宁市,服务中心,细颗粒物(PM2.5),52,NA,28,36,24,58,58,62,62,12,13,1,1,0.7,0.7
2026-04-09T1800,3678A,116.5907,35.4054,济宁市,市第七中学,,40,38,27,28,27,60,60,64,64,17,16,1,1,0.7,0.6
2026-04-09T1800,4111A,116.6075,35.4566,济宁市,任和路,,40,40,41,18,24,69,69,65,65,10,16,4,4,0.5,0.5
2026-04-09T1800,4112A,116.5648,35.3921,济宁市,文体南路1号,颗粒物(PM10),55,56,43,27,21,56,56,55,55,14,13,3,3,0.6,0.5
2026-04-09T1800,4122A,112.6071,35.1015,济源市,市委党校,颗粒物(PM10),60,64,42,35,22,90,90,85,85,14,18,8,7,0.9,0.8
2026-04-09T1800,4123A,112.596,35.0702,济源市,沁园中路1号,细颗粒物(PM2.5),56,46,28,38,22,95,95,82,82,10,14,4,3,0.7,0.6
2026-04-09T1800,2255A,130.2749,46.8028,佳木斯市,佳纺,,30,30,54,16,13,69,69,94,91,22,10,5,5,0.3,0.3
2026-04-09T1800,2257A,130.3258,46.7975,佳木斯市,环保局,,28,16,54,16,13,88,88,100,99,8,8,4,5,0.3,0.3
2026-04-09T1800,4285A,130.363,46.806,佳木斯市,顺和街,,25,17,54,12,15,80,80,88,88,14,10,2,2,0.3,0.3
2026-04-09T1800,4286A,130.3952,46.8268,佳木斯市,长安路196号,,28,16,56,13,13,89,89,94,94,4,7,6,6,0.3,0.3
2026-04-09T1800,1252A,120.7439,30.778,嘉兴市,清河小学,,32,32,34,6,11,95,95,95,95,25,18,7,7,0.5,0.6
2026-04-09T1800,1253A,120.7261,30.7477,嘉兴市,嘉兴学院,,30,29,31,12,13,94,94,94,94,33,24,6,6,0.4,0.4
2026-04-09T1800,2872A,120.7845,30.7524,嘉兴市,南湖区残联,,31,23,23,12,14,99,99,97,97,23,17,4,4,0.5,0.5
2026-04-09T1800,3407A,120.6915,30.7741,嘉兴市,秀洲住建,,32,22,24,6,10,101,101,101,101,18,17,6,6,0.4,0.3
2026-04-09T1800,1945A,98.291,39.7705,嘉峪关市,气象局,NA,NA,48,91,16,21,128,128,122,122,5,18,3,11,NA,0.3
2026-04-09T1800,2884A,98.2672,39.7978,嘉峪关市,酒钢宾馆,,44,44,106,15,27,123,123,118,118,6,13,15,18,1.1,0.7
2026-04-09T1800,3248A,98.2644,39.7723,嘉峪关市,雄关区,颗粒物(PM10),53,53,91,14,24,125,125,120,120,6,21,8,9,0.5,0.7
2026-04-09T1800,1383A,113.1063,22.6058,江门市,北街,,37,37,33,12,14,49,49,50,50,8,12,/,/,/,/
2026-04-09T1800,1384A,113.073,22.5835,江门市,西区,,40,40,34,11,16,49,49,52,52,11,13,/,/,/,/
2026-04-09T1800,1385A,113.0218,22.531,江门市,圭峰西,,28,28,32,13,15,44,44,47,47,11,12,/,/,/,/
2026-04-09T1800,1386A,113.0826,22.5947,江门市,东湖,,30,30,35,10,15,47,47,51,51,9,10,5,5,0.3,0.4
2026-04-09T1800,3311A,113.1077,22.5647,江门市,江海富民,,44,44,55,10,17,50,50,53,53,8,12,/,/,0.3,0.3
2026-04-09T1800,3449A,113.0496,22.4669,江门市,新会银湖,,30,30,30,9,13,45,45,47,47,8,14,6,6,0.3,0.3
2026-04-09T1800,3335A,113.3137,35.2643,焦作市,马村街道办,颗粒物(PM10),52,52,38,29,26,94,94,86,86,9,13,9,8,0.6,0.6
2026-04-09T1800,3336A,113.2464,35.2374,焦作市,焦作技师学院,NA,NA,NA,36,17,28,94,94,86,86,9,12,8,7,0.9,1
2026-04-09T1800,3477A,113.1656,35.2536,焦作市,中站许衡医院,,45,38,44,31,38,98,98,90,90,11,13,15,13,0.8,0.8
2026-04-09T1800,3981A,113.2456,35.18,焦作市,原李万街道办,,41,41,40,27,27,80,80,79,79,13,12,10,10,0.5,0.6
2026-04-09T1800,4264A,113.234,35.219,焦作市,新安路1731号,,45,40,44,31,35,98,98,92,92,13,16,9,9,0.8,0.9
2026-04-09T1800,4295A,113.2722,35.2121,焦作市,人民路3066号,,38,37,39,26,27,96,96,89,89,9,17,5,5,0.6,0.6
2026-04-09T1800,1708A,116.3701,23.5345,揭阳市,新兴,,48,48,73,14,35,62,62,75,75,12,18,6,9,0.5,0.6
2026-04-09T1800,1709A,116.3261,23.5442,揭阳市,西马,,49,49,72,14,36,71,71,84,84,15,17,5,7,0.6,0.7
2026-04-09T1800,1710A,116.361,23.5627,揭阳市,东兴,,30,30,67,15,35,77,77,88,88,10,17,2,7,/,/
2026-04-09T1800,1711A,116.4151,23.5295,揭阳市,渔湖,NA,NA,65,71,14,34,NA,NA,96,96,NA,17,2,4,/,/
2026-04-09T1800,3320A,116.4028,23.5699,揭阳市,曲溪,,45,45,60,15,32,80,80,90,90,8,14,8,11,0.6,0.6
2026-04-09T1800,1944A,102.1691,38.5166,金昌市,天庆家园,,41,29,88,6,27,131,131,124,124,3,3,28,14,0.4,0.4
2026-04-09T1800,4022A,102.1648,38.5369,金昌市,金川区人防中心,颗粒物(PM10),53,53,102,8,27,126,126,121,121,4,4,4,4,0.3,0.3
2026-04-09T1800,4239A,102.193042,38.531887,金昌市,长春路96号,,39,26,87,3,30,123,123,117,117,1,2,6,6,0.5,0.4
2026-04-09T1800,1262A,119.6478,29.0773,金华市,十五中,颗粒物(PM10),55,56,41,28,21,121,121,120,120,17,17,4,4,0.7,0.6
2026-04-09T1800,1263A,119.6859,29.1032,金华市,监测站,细颗粒物(PM2.5),54,43,36,37,21,124,124,120,120,14,21,4,4,0.7,0.5
2026-04-09T1800,3659A,119.656,29.1132,金华市,气象局,颗粒物(PM10),54,55,42,23,18,110,110,110,110,19,24,4,4,0.7,0.5
2026-04-09T1800,1767A,121.1114,41.0879,锦州市,南山,细颗粒物(PM2.5),56,42,41,38,27,84,84,90,90,22,20,10,11,0.7,0.5
2026-04-09T1800,1768A,121.060361,40.842794,锦州市,开发区,,49,43,44,34,22,57,57,83,83,48,21,6,5,0.5,0.4
2026-04-09T1800,1769A,121.1836,41.1118,锦州市,百股街道,NA,NA,55,41,48,25,77,77,93,91,NA,19,12,9,0.9,0.5
2026-04-09T1800,1770A,121.1176,41.1224,锦州市,天安街道,细颗粒物(PM2.5),64,48,44,42,27,74,74,86,85,26,20,7,7,0.9,0.6
2026-04-09T1800,1771A,121.1303,41.1385,锦州市,北湖公园,细颗粒物(PM2.5),68,52,42,44,26,74,74,89,86,23,18,7,9,0.5,0.4
2026-04-09T1800,2160A,112.8496,35.5051,晋城市,自来水公司,颗粒物(PM10),90,106,39,22,8,119,119,94,94,8,12,4,4,0.5,0.6
2026-04-09T1800,2162A,112.8509,35.4886,晋城市,市环保局,颗粒物(PM10),80,92,31,14,9,124,124,97,97,6,10,6,5,0.4,0.5
2026-04-09T1800,3620A,112.8258,35.4804,晋城市,泽州一中,颗粒物(PM10),77,87,24,27,11,119,119,103,103,25,17,3,3,0.3,0.7
2026-04-09T1800,4078A,112.8246,35.5152,晋城市,前书院路,颗粒物(PM10),70,78,24,18,8,106,106,87,87,26,18,6,5,0.3,0.6
2026-04-09T1800,4079A,112.8864,35.4773,晋城市,祥云街666号,颗粒物(PM10),73,82,23,36,10,121,121,95,95,5,12,7,6,0.5,0.7
2026-04-09T1800,2174A,112.6992,37.6984,晋中市,榆次区政府,颗粒物(PM10),138,217,80,44,48,114,114,96,96,7,31,1,3,0.5,1.1
2026-04-09T1800,2865A,112.7195,37.683,晋中市,榆次三中,颗粒物(PM10),148,244,79,30,47,117,117,100,100,4,26,2,4,0.2,0.8
2026-04-09T1800,4080A,112.7375,37.7215,晋中市,广安街188号,颗粒物(PM10),140,223,73,36,48,114,114,98,98,5,27,2,2,0,0.6
2026-04-09T1800,4200A,112.7478,37.6954,晋中市,迎宾街26号,颗粒物(PM10),142,229,74,47,43,114,114,100,100,9,25,1,7,0.3,0.7
2026-04-09T1800,2439A,112.2012,31.048,荆门市,竹园小学,,44,44,61,25,25,48,48,56,56,12,16,1,3,0.3,0.4
2026-04-09T1800,2440A,112.1968,30.9892,荆门市,掇刀,,43,43,48,24,26,68,68,69,69,10,13,7,8,0.7,0.8
2026-04-09T1800,3012A,112.1849,31.0361,荆门市,西山林语,NA,NA,NA,58,NA,25,45,45,58,57,8,12,4,5,NA,0.6
2026-04-09T1800,3547A,112.1631,31.0134,荆门市,龙泉中学南校,,42,42,59,22,24,65,65,69,68,11,14,4,4,0.9,0.8
2026-04-09T1800,4124A,112.2213,31.0654,荆门市,新台西路6号,,33,31,43,23,27,52,52,55,55,11,14,6,6,0.7,0.7
2026-04-09T1800,1844A,112.2493,30.3198,荆州市,市图书馆,,24,NA,32,13,25,76,76,54,54,19,16,6,5,0.7,0.7
2026-04-09T1800,1845A,112.2009,30.3543,荆州市,市委党校,,25,25,38,16,25,64,64,48,48,13,16,7,6,0.8,0.9
2026-04-09T1800,3194A,112.2749,30.3124,荆州市,管委会,,23,23,36,16,28,68,68,49,49,15,14,6,6,0.7,0.7
2026-04-09T1800,4268A,112.1722,30.3366,荆州市,学苑路85号,,26,19,36,16,25,82,82,63,63,5,9,2,3,0.9,0.7
2026-04-09T1800,2343A,117.2114,29.2931,景德镇市,老干部活动中心,,24,13,25,3,17,74,74,80,80,5,9,4,6,0.4,0.5
2026-04-09T1800,2344A,117.1893,29.2789,景德镇市,兽医站,,28,28,34,17,16,74,74,81,81,9,10,4,4,0.6,0.6
2026-04-09T1800,2346A,117.246,29.2958,景德镇市,陶研所,,23,10,21,7,15,73,73,81,81,9,11,4,4,0.4,0.4
2026-04-09T1800,4289A,117.154766,29.256967,景德镇市,青少年活动中心,,22,16,29,15,20,66,66,76,76,10,12,4,13,/,/
2026-04-09T1800,1803A,115.9873,29.6816,九江市,十里,,31,18,38,9,16,99,99,86,65,18,20,8,8,0.8,0.8
2026-04-09T1800,1804A,115.9583,29.7047,九江市,茅山头,,31,31,36,12,17,96,96,89,66,17,19,4,4,0.5,0.5
2026-04-09T1800,1805A,115.9877,29.7295,九江市,西园,,30,20,30,13,15,95,95,92,77,24,23,3,4,0.6,0.6
2026-04-09T1800,1808A,115.9112,29.6038,九江市,综合工业园,,34,34,49,19,16,73,73,50,50,43,26,12,11,0.4,0.5
2026-04-09T1800,3190A,116.0254,29.6995,九江市,外国语学校,,26,15,24,11,15,83,83,71,64,21,18,7,8,0.7,0.7
2026-04-09T1800,4253A,116.010205,29.659402,九江市,莲花大道8号,,29,29,31,3,16,90,90,75,66,15,16,4,6,0.6,0.6
2026-04-09T1800,4240A,98.495752,39.733935,酒泉市,玉门东路5号,,39,39,123,12,40,114,114,107,107,3,9,7,6,0.2,0.2
2026-04-09T1800,4241A,98.5099,39.7506,酒泉市,北大街108号,,33,27,115,18,35,103,103,96,96,4,8,8,8,0.1,0.2
2026-04-09T1800,2698A,76.0071,39.466,喀什地区,巡警大队,颗粒物(PM10),141,225,220,65,70,111,111,93,93,2,13,4,4,0.2,0.2
2026-04-09T1800,2699A,75.9756,39.4693,喀什地区,吾办,颗粒物(PM10),139,220,211,65,72,104,104,86,86,3,15,3,4,0.2,0.3
2026-04-09T1800,4027A,75.9485,39.4688,喀什地区,老干局,颗粒物(PM10),139,219,231,56,81,110,110,90,90,3,14,3,3,0.0,0.1
2026-04-09T1800,1824A,114.3389,34.778,开封市,肿瘤医院,细颗粒物(PM2.5),90,NA,39,55,55,115,115,105,105,20,15,6,5,0.8,0.8
2026-04-09T1800,1826A,114.2884,34.7966,开封市,世纪星幼儿园,NA,NA,NA,27,50,29,112,112,102,102,20,20,7,6,0.6,0.6
2026-04-09T1800,3147A,114.3434,34.8101,开封市,龙亭公园,细颗粒物(PM2.5),68,71,30,44,43,118,118,106,106,20,17,8,7,1.1,1.1
2026-04-09T1800,3210A,114.3645,34.7955,开封市,汴京公园,细颗粒物(PM2.5),64,60,36,42,30,113,113,101,101,16,16,5,4,1.1,1
2026-04-09T1800,3473A,114.2485,34.8306,开封市,技师学院,颗粒物(PM10),52,52,26,34,29,120,120,106,106,16,18,10,8,0.7,0.7
2026-04-09T1800,3592A,114.4518,34.7503,开封市,祥符区生态环境局,细颗粒物(PM2.5),56,NA,27,38,30,116,116,104,104,26,25,8,6,0.8,0.7
2026-04-09T1800,1951A,84.886,45.6029,克拉玛依市,长征新村,,49,40,45,34,21,121,121,103,103,4,13,7,7,0.3,0.4
2026-04-09T1800,1952A,84.8894,45.5827,克拉玛依市,南林小区,,42,42,48,3,7,128,128,106,106,2,15,2,3,0.1,0.1
2026-04-09T1800,1954A,84.896,44.3328,克拉玛依市,独山子区,颗粒物(PM10),101,122,105,14,13,157,157,137,137,4,6,10,6,0.7,0.5
2026-04-09T1800,1955A,85.6888,46.0909,克拉玛依市,乌尔禾区商贸楼,颗粒物(PM10),52,52,56,19,17,116,116,105,105,6,15,3,3,0.3,0.4
2026-04-09T1800,3612A,85.1045,45.6895,克拉玛依市,白碱滩区新站,颗粒物(PM10),51,51,65,3,12,124,124,114,114,2,14,8,8,0.2,0.4
2026-04-09T1800,2697A,76.1457,39.7143,克孜勒苏柯尔克孜自治州,市人民政府,颗粒物(PM10),120,171,174,62,55,111,111,97,97,2,14,4,9,0.1,0.1
2026-04-09T1800,3665A,76.1654,39.7157,克孜勒苏柯尔克孜自治州,克州文化中心,颗粒物(PM10),124,181,172,63,61,108,108,96,96,2,11,8,14,0.2,0.2
2026-04-09T1800,1450A,102.8203,24.889,昆明市,呈贡新区,,38,NA,26,13,19,121,121,124,124,6,10,2,4,0.4,0.6
2026-04-09T1800,1452A,102.7253,25.0904,昆明市,龙泉镇,,36,25,28,20,17,113,113,115,115,5,10,5,5,0.3,0.4
2026-04-09T1800,1453A,102.7267,25.0378,昆明市,东风东路,,36,18,27,14,18,114,114,118,118,11,12,2,5,0.4,0.5
2026-04-09T1800,1454A,102.6744,25.0671,昆明市,金鼎山,,35,33,33,12,17,111,111,116,116,11,12,3,3,0.4,0.5
2026-04-09T1800,1455A,102.6643,25.0401,昆明市,碧鸡广场,,35,13,30,11,19,109,109,112,112,10,14,4,7,0.4,0.5
2026-04-09T1800,3179A,102.7491,25.012,昆明市,官渡区博物馆,,36,26,27,19,17,114,114,117,117,8,10,3,5,0.3,0.5
2026-04-09T1800,3375A,102.8016,24.8336,昆明市,青年创业园,,38,NA,29,15,20,120,120,123,123,3,7,5,6,0.3,0.5
2026-04-09T1800,3550A,102.8,24.9787,昆明市,昆明学院,,37,18,26,11,15,116,116,119,119,7,7,4,6,0.4,0.5
2026-04-09T1800,3551A,102.5969,24.6738,昆明市,晋宁区生态环境分局,,37,15,31,12,23,117,117,113,113,3,6,4,2,0.3,0.4
2026-04-09T1800,3552A,102.6673,24.9861,昆明市,云天化总部,NA,NA,NA,29,NA,15,118,118,122,122,NA,9,2,5,NA,0.5
2026-04-09T1800,1456A,91.132,29.6515,拉萨市,八廓街,,50,20,15,7,6,158,158,144,144,3,3,4,4,0.2,0.2
2026-04-09T1800,1457A,91.1221,29.6748,拉萨市,市环保局,,45,11,17,3,6,143,143,133,133,10,8,5,5,0.2,0.3
2026-04-09T1800,1458A,91.0874,29.6476,拉萨市,区监测站,,49,19,13,3,6,155,155,141,141,8,9,5,5,0.2,0.2
2026-04-09T1800,1459A,91.1774,29.6541,拉萨市,西藏大学,,48,11,13,3,6,153,153,137,137,9,9,3,4,0.2,0.2
2026-04-09T1800,1460A,90.9798,29.6586,拉萨市,区辐射站,,46,15,18,3,8,145,145,129,129,9,9,4,4,0.3,0.3
2026-04-09T1800,1461A,91.0831,29.6292,拉萨市,拉萨火车站,,50,14,12,3,6,157,157,140,140,7,7,3,4,0.2,0.2
2026-04-09T1800,2520A,109.2203,23.7252,来宾市,来宾技工学校,颗粒物(PM10),65,71,56,33,34,132,132,110,110,3,4,6,5,0.6,0.7
2026-04-09T1800,3535A,109.1781,23.7293,来宾市,兴宾区政府,颗粒物(PM10),58,60,58,27,34,146,146,121,121,5,6,7,7,0.8,0.8
2026-04-09T1800,4002A,109.2312,23.7428,来宾市,中南小学,颗粒物(PM10),56,58,56,30,36,145,145,122,122,6,8,6,6,0.6,0.6
2026-04-09T1800,1479A,103.8309,36.0467,兰州市,铁路设计院,颗粒物(PM10),63,68,85,24,36,126,126,126,126,14,30,6,8,0.2,0.6
2026-04-09T1800,3241A,103.7439,36.0841,兰州市,百合公园,颗粒物(PM10),65,71,93,28,37,133,133,125,125,7,45,11,8,0.7,1.1
2026-04-09T1800,3242A,103.9613,35.9985,兰州市,和平,,42,39,90,20,31,132,132,129,129,5,21,8,10,0.4,0.7
2026-04-09T1800,4236A,103.629272,36.093822,兰州市,庄浪东路808号,颗粒物(PM10),70,78,93,27,34,144,144,150,150,10,34,11,11,0.3,0.5
2026-04-09T1800,4237A,103.7251,36.104344,兰州市,安宁西路88号,颗粒物(PM10),68,74,91,32,34,147,147,145,145,8,25,13,11,0.2,0.4
2026-04-09T1800,4238A,103.846982,36.067567,兰州市,北滨河东路1号,NA,NA,NA,78,NA,35,132,132,124,124,9,41,11,12,0.3,0.7
2026-04-09T1800,1067A,116.6712,39.5109,廊坊市,药材公司,,46,44,71,32,56,58,58,63,53,22,22,1,2,0.6,0.6
2026-04-09T1800,1068A,116.7215,39.5592,廊坊市,开发区,细颗粒物(PM2.5),66,NA,71,43,63,59,59,59,54,14,18,3,3,0.4,0.5
2026-04-09T1800,1070A,116.7246,39.5273,廊坊市,北华航天学院,细颗粒物(PM2.5),52,NA,65,36,52,58,58,63,55,21,21,3,3,0.5,0.5
2026-04-09T1800,2919A,116.7022,39.5454,廊坊市,河北工业大学,,48,NA,62,33,54,56,56,66,55,16,18,2,3,0.5,0.5
2026-04-09T1800,2536A,103.7629,29.5844,乐山市,牛耳桥,,38,15,32,3,20,120,120,105,105,12,18,6,6,0.3,0.5
2026-04-09T1800,2537A,103.7501,29.6002,乐山市,市第三水厂,,38,17,30,3,22,120,120,101,101,10,20,4,4,0.3,0.5
2026-04-09T1800,2538A,103.7571,29.5664,乐山市,市监测站,,36,17,34,3,21,115,115,100,100,8,15,2,3,0.3,0.7
2026-04-09T1800,3361A,103.7313,29.563,乐山市,理工大学,,38,18,33,3,21,120,120,105,105,4,15,3,4,0.4,0.7
2026-04-09T1800,2599A,100.2497,26.8802,丽江市,丽江古城,NA,NA,NA,18,NA,5,113,113,116,116,9,7,12,9,NA,0.5
2026-04-09T1800,2600A,100.2203,26.8906,丽江市,市中心,,37,11,14,8,8,117,117,122,122,10,9,7,8,0.4,0.4
2026-04-09T1800,1267A,119.9141,28.4513,丽水市,监测站大楼,,48,48,27,27,15,101,101,103,103,12,14,6,5,0.6,0.3
2026-04-09T1800,1268A,119.93,28.4589,丽水市,莲都小学,颗粒物(PM10),53,53,33,22,12,102,102,100,100,10,12,/,/,/,/
2026-04-09T1800,1269A,119.8794,28.4232,丽水市,余庄前,颗粒物(PM10),51,51,32,24,16,68,68,96,96,23,13,5,5,0.5,0.4
2026-04-09T1800,1173A,119.1759,34.5885,连云港市,市环境监测站,细颗粒物(PM2.5),68,48,26,44,21,81,81,85,85,21,18,9,8,0.6,0.5
2026-04-09T1800,3000A,119.3577,34.6971,连云港市,德源药业,细颗粒物(PM2.5),58,46,29,39,20,93,93,89,89,20,22,6,5,0.5,0.6
2026-04-09T1800,3007A,119.178,34.8442,连云港市,新城一中,NA,NA,51,40,32,20,85,85,91,90,16,17,NA,6,0.6,0.5
2026-04-09T1800,3008A,119.3607,34.7519,连云港市,胡沟管理处,细颗粒物(PM2.5),58,51,27,39,16,77,77,86,86,24,12,10,10,0.6,0.5
2026-04-09T1800,3009A,119.1478,34.5913,连云港市,矿山设计院,NA,NA,NA,27,NA,16,75,75,79,74,NA,17,NA,7,NA,0.6
2026-04-09T1800,3434A,119.2414,34.6539,连云港市,工贸学校,细颗粒物(PM2.5),60,NA,27,40,22,87,87,89,89,15,11,10,9,0.6,0.4
2026-04-09T1800,3664A,119.4171,34.734,连云港市,连云街道,细颗粒物(PM2.5),62,57,40,41,22,94,94,84,84,16,15,3,4,0.5,0.5
2026-04-09T1800,2573A,102.2629,27.8981,凉山彝族自治州,西昌市政府,,41,19,20,8,11,129,129,119,119,5,6,6,7,0.4,0.5
2026-04-09T1800,2574A,102.2686,27.885,凉山彝族自治州,凉山州政府,,36,19,20,6,9,114,114,104,104,4,6,6,8,0.3,0.6
2026-04-09T1800,4229A,102.2342,27.8859,凉山彝族自治州,凯乐南路30号,,39,25,25,6,8,122,122,111,111,7,9,6,8,0.5,0.7
2026-04-09T1800,2212A,123.1978,41.2036,辽阳市,宏伟区,,34,32,27,13,12,107,107,106,104,11,8,5,5,0.5,0.4
2026-04-09T1800,2213A,123.1684,41.2497,辽阳市,新华园,,30,30,30,18,13,94,94,105,101,23,12,8,8,0.5,0.3
2026-04-09T1800,2214A,123.2355,41.2663,辽阳市,滨河路,NA,NA,NA,26,NA,12,88,88,96,95,24,14,8,6,0.6,0.4
2026-04-09T1800,4083A,123.153,41.2874,辽阳市,铁西路150号,颗粒物(PM10),53,53,35,32,15,71,71,99,90,29,11,9,6,0.9,0.4
2026-04-09T1800,2227A,125.1359,42.8845,辽源市,环保局,,48,47,48,33,31,110,110,107,107,12,15,6,9,0.5,0.6
2026-04-09T1800,4085A,125.0998,42.9134,辽源市,安宁大街333号,颗粒物(PM10),56,58,63,34,31,114,114,116,116,11,16,7,8,0.5,0.5
2026-04-09T1800,1625A,115.9789,36.4372,聊城市,区政府,,46,44,40,32,33,76,76,74,74,14,16,6,6,0.8,0.8
2026-04-09T1800,3200A,115.9772,36.4986,聊城市,监控中心,,48,48,43,33,31,83,83,77,77,18,19,7,7,0.6,0.6
2026-04-09T1800,3513A,116.0443,36.436,聊城市,九州社区,颗粒物(PM10),53,54,52,36,34,85,85,81,81,15,18,6,6,0.5,0.5
2026-04-09T1800,4018A,116.0564,36.4609,聊城市,星美广场,颗粒物(PM10),55,56,50,32,34,76,76,71,71,14,16,6,7,0.8,0.7
2026-04-09T1800,4113A,116.0091,36.4495,聊城市,利民路,细颗粒物(PM2.5),62,NA,33,41,39,80,80,76,76,17,19,8,7,0.6,0.6
2026-04-09T1800,2632A,94.3683,29.6373,林芝市,林芝监测站,NA,NA,NA,8,NA,4,115,115,109,109,4,3,2,5,0.4,0.4
2026-04-09T1800,2633A,94.3616,29.6634,林芝市,林芝人民医院,,41,18,10,3,4,129,129,120,120,2,3,5,5,0.4,0.4
2026-04-09T1800,2603A,100.0779,23.8981,临沧市,市环保局,,39,39,31,20,25,122,122,114,114,4,6,11,9,0.3,0.5
2026-04-09T1800,2604A,100.0894,23.882,临沧市,市气象局,,38,32,31,26,26,118,118,114,114,7,7,10,11,0.2,0.5
2026-04-09T1800,1733A,111.5552,36.0791,临汾市,临钢医院,细颗粒物(PM2.5),74,81,67,47,49,98,98,76,76,15,18,9,8,1.3,1.3
2026-04-09T1800,1734A,111.4984,36.0734,临汾市,技工学校,细颗粒物(PM2.5),108,80,62,68,65,92,92,69,69,11,17,10,9,1.0,1
2026-04-09T1800,1736A,111.5017,36.0857,临汾市,市委,细颗粒物(PM2.5),90,91,71,55,53,92,92,70,70,10,16,10,9,1.2,1.2
2026-04-09T1800,3018A,111.5048,36.1015,临汾市,唐尧大酒店,NA,NA,NA,85,NA,54,94,94,71,71,12,18,14,9,NA,1.2
2026-04-09T1800,4244A,111.4879,36.053,临汾市,启星学校,细颗粒物(PM2.5),96,71,61,58,55,87,87,66,66,14,20,10,8,1.2,1.2
2026-04-09T1800,4271A,103.2464,35.6123,临夏回族自治州,滨河东路1号,,34,32,105,12,36,106,106,103,103,14,29,12,11,0.2,0.4
2026-04-09T1800,4310A,103.207136,35.599807,临夏回族自治州,新华街21号,,36,36,77,13,36,99,99,94,94,2,17,8,8,0.1,0.3
2026-04-09T1800,1618A,118.3429,35.0532,临沂市,沂河小区,,41,41,35,22,20,78,78,80,80,16,13,9,8,0.4,0.3
2026-04-09T1800,1619A,118.2962,35.0568,临沂市,鲁南制药厂,,36,36,28,22,20,82,82,88,85,19,15,11,10,0.4,0.4
2026-04-09T1800,1620A,118.2793,34.9976,临沂市,新光毛纺厂,,30,29,27,21,23,85,85,82,82,15,15,7,8,0.3,0.3
2026-04-09T1800,1621A,118.3955,35.0889,临沂市,河东保险公司,,44,44,32,23,20,80,80,85,85,14,13,10,9,0.4,0.4
2026-04-09T1800,3370A,118.3563,35.0215,临沂市,十里堡居委,,32,29,23,22,22,87,87,90,90,22,16,7,9,0.6,0.5
2026-04-09T1800,3496A,118.359,35.1067,临沂市,南坊新区,,48,48,30,29,24,76,76,82,82,25,19,10,9,0.4,0.4
2026-04-09T1800,3860A,118.3915,35.0297,临沂市,皇山花园小区,,34,34,28,22,21,89,89,90,90,20,21,7,8,0.5,0.5
2026-04-09T1800,1870A,109.4854,24.3898,柳州市,柳东小学,细颗粒物(PM2.5),62,64,55,41,35,148,148,117,117,6,6,4,4,0.8,0.8
2026-04-09T1800,1871A,109.4109,24.3304,柳州市,环保监测站,NA,NA,85,59,47,37,135,135,110,110,NA,10,6,5,NA,0.8
2026-04-09T1800,1872A,109.3886,24.3408,柳州市,河西水厂,细颗粒物(PM2.5),80,77,65,50,40,149,149,122,122,9,8,6,6,1.0,0.8
2026-04-09T1800,1873A,109.4263,24.2951,柳州市,市四中,细颗粒物(PM2.5),82,80,60,51,37,139,139,110,110,8,8,7,6,0.8,0.7
2026-04-09T1800,1874A,109.396,24.3658,柳州市,市九中,颗粒物(PM10),74,83,62,38,37,133,133,108,108,7,7,8,7,0.8,0.7
2026-04-09T1800,1875A,109.4912,24.3164,柳州市,古亭山,颗粒物(PM10),69,76,58,43,35,148,148,119,119,10,7,5,5,0.7,0.6
2026-04-09T1800,3402A,109.5422,24.3994,柳州市,市二中,颗粒物(PM10),68,74,53,41,34,138,138,111,111,6,5,8,8,0.8,0.7
2026-04-09T1800,2307A,116.5078,31.7369,六安市,监测大楼,,19,14,23,13,25,40,40,47,47,13,10,4,4,0.4,0.3
2026-04-09T1800,2308A,116.4738,31.7642,六安市,皖西学院,,16,NA,18,11,23,39,39,47,46,10,8,4,5,0.4,0.4
2026-04-09T1800,2309A,116.4997,31.7904,六安市,朝阳厂,,15,NA,16,10,21,38,38,47,44,11,11,5,6,0.4,0.3
2026-04-09T1800,2310A,116.5566,31.7885,六安市,开发区,,16,NA,11,11,25,40,40,48,47,15,13,5,5,0.5,0.4
2026-04-09T1800,2577A,104.8293,26.592,六盘水市,黄土坡,,42,21,22,3,11,134,134,129,129,7,6,5,5,0.1,0.2
2026-04-09T1800,2579A,104.8481,26.5898,六盘水市,民中,,41,18,21,3,11,130,130,124,124,6,4,4,4,0.2,0.2
2026-04-09T1800,2580A,104.9541,26.5506,六盘水市,双水,,40,22,20,3,11,128,128,123,123,9,7,4,4,0.3,0.3
2026-04-09T1800,4151A,104.8899,26.5685,六盘水市,钟山大道中段564号,,41,21,29,3,11,130,130,124,124,5,5,2,2,0.1,0.1
2026-04-09T1800,2336A,117.022,25.1031,龙岩市,龙岩市监测站,,30,28,25,21,15,85,85,78,78,4,9,4,7,0.4,0.5
2026-04-09T1800,2337A,117.0257,25.0662,龙岩市,闽西职业技术学院,,30,30,23,21,13,80,80,74,74,2,8,5,7,0.6,0.6
2026-04-09T1800,2338A,117.0195,25.0306,龙岩市,龙岩学院,,31,31,25,15,11,82,82,75,75,3,5,2,3,/,/
2026-04-09T1800,2885A,104.9344,33.3827,陇南市,滨江中学,颗粒物(PM10),80,91,56,46,21,85,85,68,68,19,17,8,8,0.6,0.6
2026-04-09T1800,3247A,104.9551,33.3709,陇南市,市总工会,颗粒物(PM10),65,70,49,24,17,93,93,68,68,16,16,8,8,0.5,0.5
2026-04-09T1800,2488A,111.9984,27.7346,娄底市,市监测站,颗粒物(PM10),60,64,57,34,35,99,99,90,90,5,6,4,5,0.6,0.6
2026-04-09T1800,2491A,111.9888,27.7035,娄底市,市政府,颗粒物(PM10),60,63,52,36,36,116,116,103,103,3,4,4,4,0.4,0.4
2026-04-09T1800,4127A,111.9812,27.7591,娄底市,涟钢职大,细颗粒物(PM2.5),82,NA,49,51,35,128,128,118,118,5,6,2,3,0.5,0.6
2026-04-09T1800,4128A,112.0303,27.7457,娄底市,娄底体校,NA,NA,82,70,35,33,110,110,98,98,NA,2,NA,4,0.5,0.5
2026-04-09T1800,1894A,105.4427,28.9063,泸州市,小市上码头,NA,NA,14,21,9,17,117,117,80,NA,5,16,7,8,NA,0.8
2026-04-09T1800,1895A,105.4241,28.8573,泸州市,兰田宪桥,,36,17,27,7,15,113,113,106,106,9,14,7,8,0.7,1
2026-04-09T1800,1896A,105.4378,28.8833,泸州市,市环监站,,35,19,31,8,17,110,110,106,106,15,14,9,9,0.7,0.8
2026-04-09T1800,4272A,105.3689,28.7783,泸州市,纳溪中医医院,,38,32,31,11,23,121,121,110,110,9,15,9,8,0.6,0.7
2026-04-09T1800,2183A,111.1447,37.5212,吕梁市,环保局,颗粒物(PM10),137,216,76,36,34,110,110,106,106,8,25,8,9,0.2,0.5
2026-04-09T1800,2185A,111.1285,37.5338,吕梁市,自来水公司,颗粒物(PM10),138,217,74,41,37,108,108,105,105,8,24,6,7,0.2,0.7
2026-04-09T1800,2867A,111.1225,37.5093,吕梁市,马茂庄小学,颗粒物(PM10),146,238,94,30,30,108,108,102,102,6,27,4,5,0.1,0.6
2026-04-09T1800,1812A,112.3934,34.6517,洛阳市,市委党校,颗粒物(PM10),73,81,32,37,25,98,98,77,77,7,13,8,7,0.7,0.7
2026-04-09T1800,1815A,112.494,34.6883,洛阳市,河南林校,颗粒物(PM10),73,81,39,30,21,103,103,82,82,17,26,11,11,0.5,0.6
2026-04-09T1800,1816A,112.3843,34.623,洛阳市,开发区管委会,颗粒物(PM10),61,65,35,29,25,97,97,80,80,16,18,13,11,0.7,0.7
2026-04-09T1800,1817A,112.4263,34.6249,洛阳市,市委新办公区,,49,49,36,34,32,102,102,84,84,15,19,10,9,0.6,0.6
2026-04-09T1800,3340A,112.6005,34.6323,洛阳市,伊滨,,45,45,24,22,24,90,90,84,84,15,18,8,8,0.6,0.7
2026-04-09T1800,3341A,112.495,34.6338,洛阳市,中移产业园,颗粒物(PM10),57,59,36,37,25,93,93,77,77,20,22,10,10,0.8,0.7
2026-04-09T1800,3593A,112.5736,34.8993,洛阳市,吉利监测站,"颗粒物(PM10),细颗粒物(PM2.5)",60,63,29,40,22,96,96,84,84,15,20,14,9,0.4,0.4
2026-04-09T1800,3635A,112.3678,34.6623,洛阳市,河科大西苑校区,颗粒物(PM10),73,81,31,36,28,107,107,85,85,12,19,9,9,0.5,0.6
2026-04-09T1800,3636A,112.4387,34.678,洛阳市,英才小学,颗粒物(PM10),78,88,43,40,26,103,103,80,80,19,24,11,11,0.7,0.9
2026-04-09T1800,4214A,112.460027,34.694929,洛阳市,春都路1号院,颗粒物(PM10),74,83,33,38,23,108,108,88,88,16,18,9,9,0.8,0.8
2026-04-09T1800,2399A,114.051,33.5721,漯河市,三五一五工厂,细颗粒物(PM2.5),54,NA,20,37,25,106,106,100,100,15,18,7,5,0.5,0.5
2026-04-09T1800,2400A,114.0055,33.5698,漯河市,漯河大学,细颗粒物(PM2.5),52,NA,18,36,27,106,106,98,98,17,21,7,5,0.6,0.6
2026-04-09T1800,2401A,114.0134,33.5826,漯河市,市水利局,,43,NA,19,30,23,104,104,96,96,12,16,5,4,0.7,0.6
2026-04-09T1800,2402A,114.0261,33.5697,漯河市,市广电局,细颗粒物(PM2.5),54,37,20,37,24,111,111,107,107,10,15,6,5,0.7,0.6
2026-04-09T1800,3478A,113.9691,33.568,漯河市,市图书馆,,39,38,23,27,22,101,101,93,93,14,17,7,6,0.2,0.6
2026-04-09T1800,4250A,114.089259,33.588274,漯河市,韶山路11号,颗粒物(PM10),52,52,30,23,20,104,104,97,97,12,16,7,5,0.6,0.6
2026-04-09T1800,1798A,118.5084,31.6838,马鞍山市,湖东路四小,,35,29,37,24,22,37,37,88,65,26,19,15,9,1.6,0.5
2026-04-09T1800,1799A,118.5019,31.6449,马鞍山市,开发区,,36,28,37,25,21,44,44,87,66,23,21,5,6,0.6,0.6
2026-04-09T1800,3633A,118.4914,31.681,马鞍山市,雨山,,22,22,34,12,15,37,37,77,62,29,19,10,7,1.0,0.6
2026-04-09T1800,4191A,118.527362,31.722269,马鞍山市,慈湖高新区,,43,40,48,30,24,32,32,86,58,25,22,25,10,0.7,0.6
2026-04-09T1800,1686A,111.0285,21.469,茂名市,电白南海,,36,36,32,12,11,49,49,52,52,5,5,4,4,0.9,0.9
2026-04-09T1800,1687A,110.9294,21.6533,茂名市,茂石化七小,,44,44,35,14,15,47,47,53,52,8,8,5,5,0.6,0.6
2026-04-09T1800,1688A,110.9108,21.6688,茂名市,健康路,,29,29,26,13,14,48,48,56,55,8,7,3,3,0.6,0.6
2026-04-09T1800,1689A,110.8592,21.6826,茂名市,高岭,颗粒物(PM10),51,51,44,14,15,48,48,56,56,9,9,2,2,/,/
2026-04-09T1800,3450A,111.0101,21.5165,茂名市,电白水东,,27,27,22,13,13,48,48,51,51,7,6,1,2,/,/
2026-04-09T1800,2540A,103.8414,30.0871,眉山市,气象局,,41,41,46,6,29,125,125,116,116,12,23,8,8,0.5,0.7
2026-04-09T1800,3148A,103.829,30.0563,眉山市,区人社局,,38,33,48,3,24,121,121,114,114,15,25,6,7,0.2,0.5
2026-04-09T1800,4148A,103.8836,30.0695,眉山市,眉职院,,41,15,60,3,30,130,130,118,118,10,21,7,7,0.5,0.8
2026-04-09T1800,1690A,116.1248,24.3307,梅州市,梅江月梅,,31,31,25,21,12,73,73,69,69,6,11,/,/,/,/
2026-04-09T1800,1691A,116.0798,24.2719,梅州市,梅县新城,,37,37,25,20,18,74,74,68,68,7,10,8,8,0.5,0.5
2026-04-09T1800,3315A,116.1234,24.2994,梅州市,梅龙,,31,31,22,21,17,80,80,75,75,7,9,6,8,0.6,0.6
2026-04-09T1800,1878A,104.7775,31.4741,绵阳市,富乐山,,32,27,25,17,16,100,100,97,97,11,13,8,7,0.6,0.7
2026-04-09T1800,1880A,104.6698,31.4668,绵阳市,高新区自来水公司,,31,27,34,11,17,97,97,105,105,26,21,6,6,0.6,0.7
2026-04-09T1800,3491A,104.6899,31.5324,绵阳市,西科大附属小学,,34,NA,31,19,18,108,108,106,106,26,24,7,6,0.5,0.5
2026-04-09T1800,3492A,104.5647,31.5343,绵阳市,安州区旅游局,,49,49,29,25,16,115,115,110,110,27,16,4,7,0.5,0.5
2026-04-09T1800,4146A,104.7092,31.4972,绵阳市,科技城新区公安局,,32,32,30,11,16,100,100,102,102,23,23,6,6,0.6,0.6
2026-04-09T1800,4226A,104.765114,31.453094,绵阳市,绵阳市气象局,,34,31,30,14,17,107,107,85,85,17,20,9,8,0.6,0.6
2026-04-09T1800,1784A,129.61,44.561,牡丹江市,环保大楼,颗粒物(PM10),105,131,73,40,27,67,67,84,78,36,18,3,3,0.6,0.4
2026-04-09T1800,1787A,129.6364,44.6075,牡丹江市,机车工厂,颗粒物(PM10),92,108,113,48,47,69,69,66,66,30,36,8,12,0.6,0.6
2026-04-09T1800,1788A,129.6386,44.5462,牡丹江市,第一中学,颗粒物(PM10),75,84,68,35,25,75,75,83,81,29,17,4,5,0.5,0.4
2026-04-09T1800,4287A,129.5992,44.5964,牡丹江市,东晓云街98号,颗粒物(PM10),96,114,90,42,30,74,74,76,76,25,20,4,3,0.6,0.6
2026-04-09T1800,2531A,105.0703,29.61,内江市,市监测站,,40,26,27,9,18,127,127,118,118,13,18,9,10,0.6,0.7
2026-04-09T1800,2533A,105.0657,29.5807,内江市,内江二中,,47,47,37,8,18,128,128,117,117,10,17,8,8,0.3,0.3
2026-04-09T1800,2534A,105.0407,29.5828,内江市,内江日报社,,44,26,22,10,19,138,138,127,127,9,16,8,8,0.3,0.4
2026-04-09T1800,4147A,105.0433,29.6105,内江市,玉峰路西段888号,NA,NA,19,25,NA,20,136,136,127,127,NA,15,NA,9,0.3,0.3
2026-04-09T1800,2628A,92.0653,31.4846,那曲市,那曲监测站,,40,16,28,10,19,126,126,119,119,14,17,6,8,0.6,0.7
2026-04-09T1800,4243A,92.0515,31.4787,那曲市,那曲市委宣传部,,40,10,16,3,13,128,128,125,125,12,9,15,11,0.6,0.6
2026-04-09T1800,1291A,115.8887,28.7006,南昌市,省林业公司,,46,46,43,31,28,92,92,94,94,5,17,4,6,0.3,0.4
2026-04-09T1800,1292A,115.813,28.7443,南昌市,林科所,NA,NA,NA,36,NA,25,95,95,102,102,8,19,8,9,0.5,0.7
2026-04-09T1800,1294A,115.8518,28.687,南昌市,建工学校,,43,43,43,29,27,92,92,93,93,8,21,11,11,0.8,0.8
2026-04-09T1800,1295A,115.8926,28.6425,南昌市,象湖,,45,45,40,29,32,90,90,99,99,13,22,9,10,1.1,0.9
2026-04-09T1800,3046A,115.9084,28.6062,南昌市,机电学校,颗粒物(PM10),52,52,50,29,33,95,95,103,103,6,20,6,6,0.6,0.6
2026-04-09T1800,3690A,115.9718,28.7032,南昌市,外国语学校,颗粒物(PM10),55,57,50,31,32,86,86,94,94,18,24,10,10,0.6,0.6
2026-04-09T1800,4106A,115.7923,28.6873,南昌市,工业二路,颗粒物(PM10),53,54,49,26,25,96,96,96,96,10,19,5,7,0.6,0.7
2026-04-09T1800,4192A,115.931587,28.686774,南昌市,南京东路235号,,43,43,50,28,30,91,91,99,99,12,20,6,7,0.4,0.5
2026-04-09T1800,1906A,106.0791,30.8022,南充市,南充市委,,35,28,25,13,15,112,112,88,88,10,15,7,7,0.3,0.3
2026-04-09T1800,1907A,106.1038,30.8215,南充市,南充炼油厂,,39,39,28,8,15,103,103,85,85,6,12,4,4,0.2,0.3
2026-04-09T1800,4227A,106.108336,30.788436,南充市,梨树横街98号,,37,21,27,9,16,116,116,90,90,9,14,5,5,0.2,0.3
2026-04-09T1800,4304A,106.1172,30.843,南充市,清泉寺北路188号,,33,28,27,7,14,105,105,86,86,5,11,6,6,0.2,0.3
2026-04-09T1800,4305A,106.067,30.7616,南充市,同庆路1号,,34,24,25,10,14,107,107,84,84,6,16,6,6,0.2,0.4
2026-04-09T1800,1151A,118.8033,32.1085,南京市,迈皋桥,,29,24,38,20,18,41,41,74,61,26,27,4,5,1.1,1.1
2026-04-09T1800,1152A,118.7487,32.057,南京市,草场门,,26,19,31,18,15,44,44,79,68,27,26,8,10,0.5,0.6
2026-04-09T1800,1154A,118.770105,32.004342,南京市,中华门,,26,19,28,18,16,43,43,77,65,18,19,5,6,0.7,0.7
2026-04-09T1800,1155A,118.8059,32.0329,南京市,瑞金路,,29,NA,29,20,18,43,43,74,66,9,12,7,6,1.0,1
2026-04-09T1800,1156A,118.7946,32.0774,南京市,玄武湖,,26,26,34,15,13,37,37,81,65,13,14,4,8,0.6,0.7
2026-04-09T1800,1157A,118.6415,32.0964,南京市,浦口,,20,16,34,14,14,50,50,74,60,8,16,4,5,0.5,0.5
2026-04-09T1800,1158A,118.730129,32.000956,南京市,奥体中心,,23,18,33,16,15,30,30,64,50,21,23,6,8,0.4,0.6
2026-04-09T1800,1159A,118.9072,32.1047,南京市,仙林大学城,,33,NA,34,23,15,38,38,87,75,25,21,9,11,0.7,0.7
2026-04-09T1800,3422A,118.8443,31.919,南京市,江宁彩虹桥,,20,NA,38,10,13,62,62,99,88,16,22,4,4,0.7,0.7
2026-04-09T1800,3427A,118.8497,32.3599,南京市,六合雄州,,43,43,51,23,18,36,36,55,44,23,25,4,4,0.9,0.8
2026-04-09T1800,4086A,118.7641,32.0841,南京市,新模范马路66号,,25,19,32,17,14,39,39,73,63,23,21,3,4,0.4,0.5
2026-04-09T1800,4249A,118.8707617,31.34017673,南京市,汶溪路181号,,24,17,21,15,12,76,76,105,94,16,15,3,6,0.3,0.3
2026-04-09T1800,4312A,119.019,31.6512,南京市,中山西路1号,,29,NA,25,20,13,57,57,93,86,17,17,4,4,0.6,0.4
2026-04-09T1800,1401A,108.3098,22.788,南宁市,二十一中,颗粒物(PM10),51,51,47,25,37,94,94,97,97,8,9,2,3,0.6,0.7
2026-04-09T1800,1402A,108.3135,22.8529,南宁市,北湖,颗粒物(PM10),55,56,58,25,39,96,96,104,103,8,8,2,3,0.6,0.6
2026-04-09T1800,1403A,108.3205,22.8222,南宁市,市监测站,颗粒物(PM10),75,84,52,25,35,97,97,104,104,6,7,2,3,0.5,0.6
2026-04-09T1800,1404A,108.3828,22.8038,南宁市,大自然花园,颗粒物(PM10),58,60,53,26,36,86,86,88,88,5,7,5,5,0.4,0.5
2026-04-09T1800,1406A,108.2397,22.8462,南宁市,区农职院,颗粒物(PM10),52,52,57,26,34,96,96,111,111,6,9,4,4,0.4,0.5
2026-04-09T1800,1407A,108.3285,22.7356,南宁市,英华嘉园,颗粒物(PM10),59,62,58,28,36,96,96,99,99,10,11,5,5,0.5,0.6
2026-04-09T1800,3401A,108.4829,22.762,南宁市,红星社区,颗粒物(PM10),53,53,51,23,34,105,105,102,102,4,8,4,5,0.5,0.6
2026-04-09T1800,4132A,108.2927,23.1477,南宁市,起凤路9号,颗粒物(PM10),51,51,61,35,44,116,116,124,124,7,6,4,4,0.6,0.6
2026-04-09T1800,4221A,108.2177,22.7774,南宁市,乐贤路16号,颗粒物(PM10),53,54,56,24,37,91,91,110,110,9,12,4,5,0.5,0.6
2026-04-09T1800,2332A,118.1682,26.6371,南平市,南平市监测站,,50,50,29,20,15,103,103,92,92,5,10,6,5,0.4,0.4
2026-04-09T1800,2334A,118.1757,26.6276,南平市,南平七中,,40,40,28,19,14,95,95,92,92,6,9,4,3,0.4,0.4
2026-04-09T1800,1168A,120.9056,31.9669,南通市,狼山街道,,23,23,25,12,10,67,67,81,81,37,25,5,5,0.6,0.5
2026-04-09T1800,1170A,120.8635,32.0231,南通市,城中,,27,25,33,8,8,61,61,78,78,53,26,10,6,0.9,0.4
2026-04-09T1800,1171A,120.9376,31.9301,南通市,星湖花园,,26,25,26,15,11,58,58,83,83,51,26,5,5,0.6,0.5
2026-04-09T1800,1172A,120.8053,32.046,南通市,紫琅学院,,31,8,23,8,9,99,99,92,92,23,31,10,8,0.8,0.7
2026-04-09T1800,3291A,121.0631,32.0644,南通市,通州监测站,,28,27,24,14,9,87,87,87,87,22,15,6,5,0.8,0.6
2026-04-09T1800,3432A,120.9348,31.9874,南通市,环境教育馆,,25,24,29,12,10,80,80,88,88,32,21,6,6,0.6,0.5
2026-04-09T1800,4091A,120.8692,31.9885,南通市,洪江路,,21,21,28,10,12,66,66,70,63,39,30,6,6,0.9,0.9
2026-04-09T1800,2404A,112.5338,33.0086,南阳市,瓦房庄,,38,35,26,26,11,78,78,65,65,10,15,4,4,0.7,0.7
2026-04-09T1800,2405A,112.5002,32.9734,南阳市,汉画馆,,40,40,27,24,11,79,79,64,64,11,16,6,5,0.7,0.7
2026-04-09T1800,2406A,112.5778,33.0144,南阳市,气象站,,36,36,21,19,11,83,83,71,71,12,19,5,6,0.6,0.5
2026-04-09T1800,2407A,112.548,32.9687,南阳市,理工学院,,39,39,28,25,14,85,85,69,69,8,15,5,5,0.7,0.6
2026-04-09T1800,4008A,112.5233,32.9921,南阳市,卧龙区政府,颗粒物(PM10),55,57,15,31,13,77,77,64,64,11,15,6,6,0.7,0.7
2026-04-09T1800,1234A,121.8352,29.9111,宁波市,区环保大楼,颗粒物(PM10),63,67,36,24,11,89,89,95,95,49,18,8,7,0.7,0.5
2026-04-09T1800,1235A,121.5595,29.8208,宁波市,万里学院,,49,49,33,22,12,128,128,117,117,15,8,7,8,0.6,0.6
2026-04-09T1800,1236A,121.713,29.9564,宁波市,龙赛医院,颗粒物(PM10),53,54,31,25,12,105,105,96,96,34,11,8,6,0.7,0.4
2026-04-09T1800,1240A,121.5855,29.8635,宁波市,太古小学,颗粒物(PM10),53,54,32,27,13,105,105,105,105,23,11,4,4,0.7,0.5
2026-04-09T1800,1241A,121.5239,29.8673,宁波市,市环境监测中心,,46,46,30,30,13,90,90,98,98,22,11,6,6,0.6,0.4
2026-04-09T1800,2871A,121.6156,29.9015,宁波市,万里国际学校,细颗粒物(PM2.5),84,NA,23,52,18,94,94,100,100,29,10,5,4,0.7,0.6
2026-04-09T1800,3710A,121.5593,29.8976,宁波市,白沙活动中心,,42,31,24,29,14,90,90,100,100,22,10,5,5,0.5,0.4
2026-04-09T1800,4095A,121.8962,29.7529,宁波市,中科路88号,,43,43,28,23,13,109,109,113,113,16,5,7,6,0.5,0.4
2026-04-09T1800,2341A,119.5387,26.6611,宁德市,宁德市监测站,颗粒物(PM10),74,83,40,26,21,101,101,73,73,37,32,6,4,1.0,0.6
2026-04-09T1800,3209A,119.5231,26.6562,宁德市,宁德一中,颗粒物(PM10),59,62,31,21,22,73,73,72,72,16,22,5,5,0.7,0.5
2026-04-09T1800,2618A,98.859,25.8541,怒江傈僳族自治州,州监测站,,34,29,30,11,17,108,108,84,84,12,13,10,8,0.3,0.2
2026-04-09T1800,2619A,98.8607,25.8168,怒江傈僳族自治州,泸水一中,颗粒物(PM10),73,82,25,19,19,78,78,74,74,40,16,5,5,0.3,0.5
2026-04-09T1800,1888A,101.6891,26.571,攀枝花市,弄弄坪,,33,20,23,7,10,104,104,110,110,23,15,46,12,2.3,1.1
2026-04-09T1800,1889A,101.577,26.5914,攀枝花市,河门口,,37,16,24,10,13,118,118,115,115,6,11,6,11,0.4,0.7
2026-04-09T1800,1891A,101.7365,26.4986,攀枝花市,仁和,,38,10,15,6,11,120,120,118,118,6,8,5,5,0.4,0.5
2026-04-09T1800,2835A,101.7222,26.567,攀枝花市,四十中小,,37,16,20,6,9,117,117,120,120,14,13,9,7,0.7,0.6
2026-04-09T1800,1604A,122.0303,41.1489,盘锦市,开发区,颗粒物(PM10),55,56,40,30,21,97,97,100,100,16,13,9,7,0.6,0.3
2026-04-09T1800,1605A,122.0486,41.0883,盘锦市,兴隆台,,47,47,39,30,23,88,88,88,88,22,17,8,8,0.9,0.5
2026-04-09T1800,1606A,121.8297,41.1026,盘锦市,新生街道,,39,39,34,23,16,89,89,93,93,27,19,7,7,0.5,0.4
2026-04-09T1800,1832A,113.3257,33.7423,平顶山市,新华旅馆,,43,43,35,28,23,79,79,83,83,11,16,4,5,0.6,0.6
2026-04-09T1800,1833A,113.2917,33.737,平顶山市,规划设计院,,47,47,32,32,20,80,80,84,84,9,14,5,6,0.7,0.7
2026-04-09T1800,1834A,113.182,33.7738,平顶山市,平顶山工学院,,38,34,24,26,23,76,76,82,82,10,16,7,7,0.5,0.4
2026-04-09T1800,3594A,112.8736,33.9068,平顶山市,石龙区,,23,6,24,3,18,71,71,76,76,12,18,7,7,0.5,0.4
2026-04-09T1800,4116A,113.284,33.7139,平顶山市,姚电大道23号,细颗粒物(PM2.5),54,42,36,37,23,77,77,87,87,17,19,6,5,0.6,0.7
2026-04-09T1800,2656A,106.6633,35.5338,平凉市,聚贤嘉苑,颗粒物(PM10),85,98,83,28,34,128,128,123,123,7,20,4,7,0.1,0.3
2026-04-09T1800,2657A,106.7021,35.5307,平凉市,博物馆,颗粒物(PM10),87,101,85,29,41,124,124,120,120,6,21,9,10,0.2,0.5
2026-04-09T1800,2348A,113.8384,27.6436,萍乡市,中医院,,50,NA,44,35,28,124,124,122,122,8,14,6,5,0.8,0.8
2026-04-09T1800,2350A,113.8677,27.6438,萍乡市,市环保局,颗粒物(PM10),58,60,41,35,31,113,113,112,112,10,14,20,7,0.8,0.9
2026-04-09T1800,2351A,113.8663,27.6202,萍乡市,安源区政府,细颗粒物(PM2.5),72,57,42,46,28,108,108,104,104,4,9,7,5,0.3,0.4
2026-04-09T1800,4107A,113.8686,27.6668,萍乡市,联洪村委会,颗粒物(PM10),58,61,47,38,26,98,98,94,94,4,9,4,2,0.3,0.4
2026-04-09T1800,2319A,119.0142,25.4324,莆田市,荔城区仓后路,,42,42,44,12,24,87,87,101,101,14,20,/,/,/,/
2026-04-09T1800,2320A,119.0016,25.4553,莆田市,莆田市监测站,,46,46,33,13,14,92,92,102,102,14,9,3,3,0.3,0.4
2026-04-09T1800,2321A,119.112,25.4561,莆田市,涵江区六中,,43,43,47,12,25,87,87,117,117,14,25,/,/,0.5,0.6
2026-04-09T1800,2322A,119.1014,25.3215,莆田市,秀屿区政府,,32,32,45,16,33,92,92,118,118,9,15,5,5,0.4,0.5
2026-04-09T1800,2392A,115.0312,35.7636,濮阳市,环保局,细颗粒物(PM2.5),56,49,21,38,26,74,74,66,66,14,18,3,3,0.8,0.6
2026-04-09T1800,3021A,115,35.7667,濮阳市,濮水河管理处,,50,50,37,34,26,83,83,74,74,4,7,3,3,0.9,0.7
2026-04-09T1800,4118A,115.0552,35.7816,濮阳市,中原东路68号,细颗粒物(PM2.5),60,55,40,40,25,81,81,71,71,12,16,2,1,0.7,0.5
2026-04-09T1800,4216A,115.0923632,35.76857718,濮阳市,任丘路479号,细颗粒物(PM2.5),58,55,44,39,28,80,80,71,71,16,17,3,2,0.9,0.8
2026-04-09T1800,2601A,100.9801,22.7634,普洱市,市环保局,颗粒物(PM10),51,51,59,19,31,124,124,116,116,8,8,4,4,0.7,0.7
2026-04-09T1800,2602A,100.9763,22.8237,普洱市,普洱第二中学,NA,NA,50,60,27,34,119,119,111,111,NA,12,5,6,0.5,0.6
2026-04-09T1800,3345A,131.0413,45.7795,七台河市,中波台,,29,29,102,15,17,92,92,98,98,7,5,3,4,0.4,0.4
2026-04-09T1800,3637A,131.0136,45.7688,七台河市,人民广场,,29,16,105,3,14,92,92,95,95,7,9,8,9,0.4,0.5
2026-04-09T1800,3684A,130.8639,45.8144,七台河市,新建矿广场,颗粒物(PM10),53,53,107,12,16,70,70,84,82,12,10,8,9,0.2,0.1
2026-04-09T1800,1779A,123.9307,47.3641,齐齐哈尔市,安居小区,,32,27,27,17,6,100,100,99,99,10,9,5,4,0.2,0.2
2026-04-09T1800,1780A,123.9497,47.3389,齐齐哈尔市,中心广场,,31,31,32,17,6,94,94,94,94,11,14,3,3,0.4,0.4
2026-04-09T1800,1781A,123.9483,47.3229,齐齐哈尔市,农牧车辆厂,,39,39,33,12,7,104,104,99,99,9,12,7,7,0.2,0.3
2026-04-09T1800,1783A,123.9442,47.2994,齐齐哈尔市,市环境监测站,,31,30,33,10,5,99,99,96,96,13,14,2,2,0.3,0.2
2026-04-09T1800,3662A,123.6341,47.2079,齐齐哈尔市,富区青少年活动中心,,30,16,26,14,6,96,96,95,95,8,9,4,4,0.2,0.2
2026-04-09T1800,2591A,107.9765,26.5724,黔东南苗族侗族自治州,市环境监测站,,38,NA,59,23,51,119,119,117,117,8,5,3,3,0.3,0.6
2026-04-09T1800,2881A,107.8909,26.531,黔东南苗族侗族自治州,凯里学院,,39,24,72,22,52,123,123,118,118,2,3,3,2,0.3,0.8
2026-04-09T1800,2593A,107.5223,26.2371,黔南布依族苗族自治州,小围寨,,38,24,52,18,45,119,119,113,113,4,5,6,5,0.5,0.8
2026-04-09T1800,3538A,107.5175,26.2977,黔南布依族苗族自治州,沙坝,,31,29,55,20,44,98,98,93,93,5,5,3,4,0.7,1
2026-04-09T1800,2589A,104.9022,25.0943,黔西南布依族苗族自治州,场坝街,,41,14,23,3,17,130,130,129,129,4,4,5,5,0.3,0.3
2026-04-09T1800,2590A,104.8812,25.0994,黔西南布依族苗族自治州,坪东大道,,41,16,24,9,16,130,130,131,131,4,5,3,3,0.3,0.3
2026-04-09T1800,2502A,108.6238,21.9667,钦州市,市环保站,颗粒物(PM10),51,51,55,26,26,99,99,100,100,5,11,5,5,0.5,0.6
2026-04-09T1800,2503A,108.655,21.9481,钦州市,沙埠小学,颗粒物(PM10),73,81,57,26,29,90,90,86,86,6,14,5,5,0.6,0.7
2026-04-09T1800,2504A,108.5989,21.7435,钦州市,港区一小,颗粒物(PM10),70,78,66,24,31,93,93,82,82,10,12,4,4,0.4,0.6
2026-04-09T1800,3404A,108.5959,21.9634,钦州市,北职校,NA,NA,NA,55,NA,31,93,93,93,93,NA,12,3,5,0.5,0.6
2026-04-09T1800,1046A,119.5247,39.9346,秦皇岛市,建设大厦,,29,29,41,9,15,76,76,81,67,16,13,4,4,0.3,0.3
2026-04-09T1800,3132A,119.5979,39.938,秦皇岛市,文明里,,25,22,41,9,14,77,77,76,67,19,21,8,9,0.3,0.2
2026-04-09T1800,4066A,119.7458,39.9952,秦皇岛市,南园路157号,,21,14,35,12,17,66,66,70,63,32,26,7,7,0.4,0.3
2026-04-09T1800,4067A,119.5131,39.8858,秦皇岛市,翠岛大街1号,,23,21,41,3,13,72,72,78,67,22,18,7,8,0.3,0.2
2026-04-09T1800,4198A,119.509013,39.825305,秦皇岛市,北戴河轮滑馆,,29,29,39,15,13,88,88,81,81,14,15,7,8,0.2,0.2
2026-04-09T1800,1310A,120.404,36.0625,青岛市,市南区东部子站,,26,19,22,15,10,82,82,102,86,20,8,9,10,0.4,0.3
2026-04-09T1800,1311A,120.362344,36.10282,青岛市,四方区子站,,27,22,20,16,10,86,86,110,92,14,11,6,6,0.6,0.5
2026-04-09T1800,1312A,120.294373,36.054183,青岛市,市南区西部子站,,25,NA,21,16,8,79,79,106,88,26,16,4,4,0.5,0.4
2026-04-09T1800,1313A,120.4581,36.0858,青岛市,崂山区子站,,27,17,25,14,9,85,85,115,94,17,12,8,8,0.4,0.3
2026-04-09T1800,1315A,120.3945,36.3083,青岛市,城阳区子站,,34,34,22,14,10,80,80,111,89,19,14,6,6,0.6,0.5
2026-04-09T1800,3642A,120.3454,36.0735,青岛市,市北区南部,,29,18,22,11,9,91,91,112,95,15,11,2,2,0.5,0.4
2026-04-09T1800,3643A,120.3897,36.18,青岛市,李沧区北部,,25,22,19,17,10,73,73,104,79,18,14,9,9,0.4,0.4
2026-04-09T1800,4110A,120.5222,36.4089,青岛市,盟旺路653号,,27,27,17,14,8,83,83,112,100,10,4,3,3,0.7,0.6
2026-04-09T1800,4290A,120.196923,35.954556,青岛市,珠江路669号,,28,27,26,18,12,88,88,111,85,21,14,4,4,0.7,0.5
2026-04-09T1800,4291A,120.0424,35.8656,青岛市,黄岛区人民政府广场,,40,39,23,28,11,88,88,115,95,18,10,8,8,0.6,0.4
2026-04-09T1800,1703A,113.0218,23.7086,清远市,凤城街办,,36,36,44,21,22,64,64,59,59,20,21,/,/,/,/
2026-04-09T1800,3025A,113.0479,23.6343,清远市,技师学院,,43,43,46,20,20,67,67,62,62,18,22,4,5,0.4,0.4
2026-04-09T1800,3318A,112.9898,23.7403,清远市,清新太和,,42,42,46,25,21,70,70,60,60,20,22,7,7,0.6,0.6
2026-04-09T1800,3455A,113.076,23.72,清远市,清城东城,,44,44,55,23,21,64,64,62,62,23,20,/,/,/,/
2026-04-09T1800,2661A,107.6325,35.7357,庆阳市,庆阳五中,颗粒物(PM10),80,92,62,26,27,116,116,108,108,9,8,4,4,0.3,0.4
2026-04-09T1800,2662A,107.6361,35.7067,庆阳市,市环保局,颗粒物(PM10),80,92,60,23,27,118,118,112,112,10,11,4,4,0.1,0.5
2026-04-09T1800,1916A,103.7897,25.5036,曲靖市,环境监测站,,42,26,28,13,16,132,132,132,132,6,7,4,4,0.4,0.4
2026-04-09T1800,1917A,103.8013,25.5357,曲靖市,烟厂办公区,,39,26,30,7,15,122,122,117,117,5,6,7,7,0.5,0.6
2026-04-09T1800,3376A,103.7926,25.4651,曲靖市,南苑二区,,40,12,27,8,16,126,126,123,123,11,6,3,4,0.2,0.3
2026-04-09T1800,3377A,103.7442,25.5259,曲靖市,曲靖师范学院,,41,14,28,11,18,131,131,128,128,4,8,4,4,0.2,0.3
2026-04-09T1800,1264A,118.8694,28.94,衢州市,环保大楼,颗粒物(PM10),55,57,54,32,28,88,88,90,90,11,33,/,/,/,/
2026-04-09T1800,1266A,118.8622,28.9809,衢州市,衢州学院,,45,45,44,31,24,92,92,93,93,9,32,6,6,0.4,0.4
2026-04-09T1800,4097A,118.9646,28.9832,衢州市,衢州三中,,44,44,51,23,26,89,89,92,92,13,34,7,8,0.6,0.6
2026-04-09T1800,1611A,118.5818,24.9116,泉州市,涂山街,,32,32,46,11,24,65,65,80,80,14,17,4,4,0.6,0.6
2026-04-09T1800,1612A,118.597,24.8976,泉州市,津头埔,,24,24,43,9,26,65,65,89,86,13,19,3,4,0.4,0.6
2026-04-09T1800,1613A,118.6669,24.9422,泉州市,万安,,27,27,44,11,24,62,62,80,80,11,18,4,4,0.5,0.5
2026-04-09T1800,4105A,118.6355,24.9148,泉州市,霞新路6号,,20,19,41,10,25,63,63,79,79,11,21,/,/,0.5,0.5
2026-04-09T1800,2626A,88.8873,29.2723,日喀则市,日喀则监测站,,50,11,15,3,5,160,160,138,138,4,4,9,9,0.4,0.4
2026-04-09T1800,3726A,88.8775,29.2425,日喀则市,林业技术推广中心,臭氧1小时(O3_1h),52,13,18,3,3,161,161,137,137,4,4,8,8,0.3,0.3
2026-04-09T1800,1659A,119.4711,35.421,日照市,监测站,,28,27,18,19,9,78,78,108,88,24,12,7,7,0.7,0.5
2026-04-09T1800,1660A,119.523,35.4216,日照市,市政府广场,,27,27,18,17,9,81,81,109,86,21,13,6,6,0.7,0.5
2026-04-09T1800,1661A,119.5511,35.4113,日照市,港务局,颗粒物(PM10),72,80,31,27,11,50,50,114,74,40,16,5,4,0.8,0.6
2026-04-09T1800,3507A,119.5326,35.4627,日照市,职业技术学院,,31,31,23,17,10,72,72,113,84,27,10,7,6,0.7,0.6
2026-04-09T1800,3604A,119.3267,35.1043,日照市,岚山环保分局,细颗粒物(PM2.5),54,51,32,37,18,76,76,101,80,27,18,11,10,1.0,0.8
2026-04-09T1800,1835A,111.1922,34.7752,三门峡市,市政府,颗粒物(PM10),63,67,29,35,23,107,107,76,76,17,20,13,10,0.6,0.6
2026-04-09T1800,1836A,111.1588,34.794,三门峡市,开发区,细颗粒物(PM2.5),54,50,34,37,29,113,113,78,78,10,17,11,11,0.5,0.6
2026-04-09T1800,3039A,111.1911,34.7829,三门峡市,三门峡市第一小学,颗粒物(PM10),71,79,33,41,24,112,112,79,79,16,18,19,14,0.6,0.6
2026-04-09T1800,3598A,111.1031,34.719,三门峡市,富达温泉假日酒店,颗粒物(PM10),64,69,39,39,27,112,112,80,80,25,25,20,19,0.6,0.6
2026-04-09T1800,2324A,117.621,26.2626,三明市,三钢,NA,NA,50,35,24,24,70,70,89,86,NA,18,NA,10,2.0,0.8
2026-04-09T1800,2325A,117.6352,26.2714,三明市,三明二中,,44,44,39,25,24,78,78,86,86,11,13,6,4,1.4,0.8
2026-04-09T1800,2326A,117.6028,26.2377,三明市,三元区政府,,39,36,34,27,25,86,86,91,91,5,16,3,6,0.4,0.7
2026-04-09T1800,1877A,109.4962,18.2682,三亚市,河西子站,,30,30,30,12,17,62,62,75,73,3,3,4,4,0.4,0.4
2026-04-09T1800,3540A,109.7348,18.3443,三亚市,君悦子站,,19,13,32,12,15,60,60,71,67,4,5,4,3,0.4,0.5
2026-04-09T1800,4135A,109.1714,18.3739,三亚市,城东小学站,,30,30,33,12,18,64,64,79,76,3,4,/,/,/,/
2026-04-09T1800,2624A,91.7592,29.234,山南市,山南监测站,,46,13,9,3,2,147,147,133,133,5,4,9,9,0.2,0.2
2026-04-09T1800,2625A,91.7701,29.2436,山南市,山南人民医院,,45,31,14,3,2,144,144,132,132,7,3,8,8,0.3,0.3
2026-04-09T1800,1674A,116.6795,23.3666,汕头市,金平子站,,32,31,46,18,26,102,102,98,98,18,17,6,5,0.8,0.7
2026-04-09T1800,1675A,116.7248,23.3632,汕头市,龙湖子站,,33,33,41,19,25,102,102,92,92,17,14,7,6,/,/
2026-04-09T1800,1676A,116.7257,23.2774,汕头市,濠江子站,,34,29,41,17,22,108,108,95,95,16,14,8,8,/,/
2026-04-09T1800,1677A,116.7518,23.4712,汕头市,澄海子站,,35,35,49,15,26,92,92,98,98,13,12,8,7,0.9,0.7
2026-04-09T1800,1678A,116.6088,23.2539,汕头市,潮阳子站,,36,36,38,20,24,108,108,96,96,9,12,6,6,0.7,0.5
2026-04-09T1800,3444A,116.4539,23.2684,汕头市,潮南峡山,,22,9,60,3,28,68,68,85,85,2,12,6,6,0.5,0.6
2026-04-09T1800,3624A,116.4069,23.2533,汕头市,潮南子站,,22,19,69,8,29,68,68,77,77,2,10,5,6,/,/
2026-04-09T1800,1693A,115.3653,22.7751,汕尾市,市环保局,,29,23,43,8,19,90,90,82,82,5,6,5,5,0.5,0.4
2026-04-09T1800,1695A,115.362,22.7926,汕尾市,新城中学,NA,NA,42,43,9,19,NA,NA,84,84,7,8,6,6,0.4,0.3
2026-04-09T1800,2645A,109.9155,33.8714,商洛市,监测站,,36,24,29,13,20,114,114,76,76,11,14,7,6,0.5,0.7
2026-04-09T1800,3045A,109.9647,33.8486,商洛市,商州区中学,颗粒物(PM10),58,60,34,12,21,107,107,73,73,18,23,5,6,0.6,0.7
2026-04-09T1800,2408A,115.6701,34.4283,商丘市,环境监测站,,46,NA,19,32,25,84,84,72,72,7,9,3,3,0.6,0.5
2026-04-09T1800,2409A,115.6458,34.4047,商丘市,粮食局,,49,NA,21,34,28,84,84,76,76,6,10,3,3,0.5,0.4
2026-04-09T1800,3171A,115.6069,34.4465,商丘市,梁园区档案局,,42,30,21,29,25,84,84,71,71,11,14,2,3,0.5,0.4
2026-04-09T1800,4119A,115.6701,34.3767,商丘市,北海东路185号,,48,NA,31,33,22,83,83,72,72,10,13,4,4,0.4,0.3
2026-04-09T1800,4120A,115.6172,34.3704,商丘市,中山大街3号,,48,NA,31,33,23,79,79,72,72,11,12,4,4,0.5,0.4
2026-04-09T1800,1141A,121.401,31.2382,上海市,普陀,,44,44,35,14,13,104,104,108,108,25,18,6,6,0.5,0.5
2026-04-09T1800,1142A,121.4774,31.2043,上海市,十五厂,,39,39,39,15,15,107,107,108,108,26,18,5,6,0.7,0.6
2026-04-09T1800,1143A,121.4673,31.3011,上海市,虹口,,32,30,32,19,16,102,102,105,105,30,19,11,9,0.6,0.5
2026-04-09T1800,1147A,121.4253,31.226,上海市,静安监测站,,35,29,32,19,17,109,109,112,112,28,21,8,8,0.7,0.6
2026-04-09T1800,1148A,121.7029,31.1905,上海市,浦东川沙,,34,33,34,15,14,108,108,116,116,38,16,8,7,0.5,0.7
2026-04-09T1800,1149A,121.5339,31.229,上海市,浦东新区监测站,,34,27,32,14,13,107,107,105,105,21,13,5,6,0.5,0.4
2026-04-09T1800,1150A,121.5776,31.2038,上海市,浦东张江,,41,24,33,13,14,130,130,122,122,16,14,6,6,0.1,0.2
2026-04-09T1800,3265A,121.4242,31.3303,上海市,宝山庙行,颗粒物(PM10),51,51,38,14,14,107,107,119,119,26,16,6,6,0.4,0.5
2026-04-09T1800,3266A,121.8789,31.4662,上海市,崇明上实东滩,,36,28,30,17,15,113,113,110,110,20,15,8,8,0.3,0.3
2026-04-09T1800,3268A,121.316,31.2839,上海市,嘉定南翔,,33,33,32,15,14,90,90,102,102,32,19,4,4,0.5,0.5
2026-04-09T1800,3269A,121.3357,30.7455,上海市,金山新城,,32,32,32,18,18,102,102,92,92,20,13,6,5,0.6,0.8
2026-04-09T1800,3270A,121.4996,31.0741,上海市,闵行浦江,,36,30,32,12,14,115,115,105,105,21,13,7,7,0.4,0.3
2026-04-09T1800,3271A,121.2886,31.1663,上海市,青浦徐泾,,35,30,34,13,16,112,112,114,114,24,17,5,5,0.5,0.4
2026-04-09T1800,3272A,121.2193,31.0382,上海市,松江图书馆,,33,32,33,15,16,105,105,106,106,27,17,7,7,0.5,0.5
2026-04-09T1800,3273A,121.3904,31.206,上海市,长宁仙霞,,38,38,37,10,12,98,98,101,101,26,16,5,5,0.3,0.2
2026-04-09T1800,3274A,121.7964,31.0507,上海市,浦东惠南,,38,28,33,19,16,120,120,111,111,20,15,7,6,0.6,0.6
2026-04-09T1800,3544A,121.4891,30.925,上海市,奉贤南桥新城,,39,24,31,8,11,122,122,113,113,14,9,6,7,0.6,0.5
2026-04-09T1800,4183A,121.417401,31.16637,上海市,冠生园路458号,,33,30,31,15,14,103,103,102,102,23,17,8,8,0.6,0.5
2026-04-09T1800,4205A,121.541914,31.268301,上海市,宁武路151号,,38,38,44,14,14,108,108,108,108,26,18,8,8,0.4,0.3
2026-04-09T1800,2382A,117.9758,28.4439,上饶市,市监测站,细颗粒物(PM2.5),72,NA,35,46,22,77,77,106,106,8,11,5,6,/,/
2026-04-09T1800,2383A,117.9521,28.4637,上饶市,凤凰光学,细颗粒物(PM2.5),66,48,36,43,24,67,67,96,96,19,17,5,14,0.7,0.5
2026-04-09T1800,3685A,117.897,28.4316,上饶市,双创科技城,,50,50,38,33,22,82,82,107,107,17,13,8,9,0.5,0.4
2026-04-09T1800,4211A,118.190438,28.444845,上饶市,裕丰大道,,50,38,40,35,18,81,81,89,89,12,6,10,10,0.8,0.5
2026-04-09T1800,1669A,113.5821,24.7733,韶关市,市八中,颗粒物(PM10),55,56,41,26,21,74,74,68,68,20,13,7,8,0.7,0.6
2026-04-09T1800,1671A,113.5916,24.7973,韶关市,园林处,,46,46,35,32,22,72,72,66,66,19,14,6,7,/,/
2026-04-09T1800,1673A,113.5971,24.6864,韶关市,曲江监测站,,47,47,39,28,22,63,63,52,52,19,16,7,6,0.7,0.6
2026-04-09T1800,2809A,113.6668,24.7756,韶关市,大学路288号,颗粒物(PM10),51,51,51,31,26,83,83,73,73,12,17,6,12,/,/
2026-04-09T1800,3622A,113.5556,24.8082,韶关市,碧湖山庄,,50,50,42,26,21,83,83,72,72,15,13,6,7,0.5,0.5
2026-04-09T1800,2464A,111.5277,27.2442,邵阳市,市化工厂,细颗粒物(PM2.5),62,59,59,41,46,120,120,110,110,5,12,7,8,0.7,0.7
