timepoint,stationcode,longitude,latitude,area,positionname,primarypollutant,aqi,pm10,pm10_24h,pm2_5,pm2_5_24h,o3,o3_24h,o3_8h,o3_8h_24h,no2,no2_24h,so2,so2_24h,co,co_24h
2024-11-23T0700,2566A,102.1879,31.914,阿坝藏族羌族自治州,州农科所,,11,6,33,3,13,33,,,,7,12,9,11,0.3,0.2
2024-11-23T0700,2568A,102.2502,31.8896,阿坝藏族羌族自治州,马师校,,16,,11,11,11,25,,,,8,11,4,4,0.2,0.3
2024-11-23T0700,3994A,102.2165,31.9024,阿坝藏族羌族自治州,马尔康中学西区,,13,13,16,6,8,30,,,,7,10,5,5,0.3,0.3
2024-11-23T0700,2695A,80.292,41.1694,阿克苏地区,电视台,颗粒物(PM10),71,91,110,47,52,49,,,,24,40,3,4,0.7,0.8
2024-11-23T0700,2696A,80.2613,41.1551,阿克苏地区,艺术中心,颗粒物(PM10),68,86,102,38,45,54,,,,17,42,5,4,0.6,0.8
2024-11-23T0700,2204A,105.6467,38.8363,阿拉善盟,西城区西花园,细颗粒物(PM2.5),59,54,58,42,38,18,,,,38,31,9,9,0.9,1
2024-11-23T0700,2205A,105.6985,38.8411,阿拉善盟,蒙二幼,,42,41,53,29,28,53,,,,27,28,6,7,0.7,0.8
2024-11-23T0700,2206A,105.724,38.8516,阿拉善盟,环保局新楼,,37,37,36,24,23,92,,,,11,14,10,9,0.7,0.7
2024-11-23T0700,2708A,88.1264,47.8517,阿勒泰地区,市站,,12,8,18,3,32,37,,,,7,19,7,8,0.1,0.2
2024-11-23T0700,2630A,80.1161,32.5,阿里地区,阿里监测站,,15,7,11,3,5,46,,,,27,13,2,4,0.7,0.5
2024-11-23T0700,3192A,80.0903,32.5028,阿里地区,阿里藏医院,,28,6,13,3,7,88,,,,1,6,4,5,0.4,0.5
2024-11-23T0700,2642A,109.0318,32.6537,安康市,香溪洞,,30,28,29,21,20,22,,,,11,14,8,8,0.4,0.5
2024-11-23T0700,2644A,109.0072,32.6975,安康市,汉滨区检察院,,37,37,38,24,29,4,,,,15,20,8,8,0.8,0.8
2024-11-23T0700,4054A,109.0325,32.6913,安康市,市邮政管理局,,40,37,44,28,33,3,,,,16,20,14,10,0.8,0.9
2024-11-23T0700,2291A,117.0809,30.5177,安庆市,环科院,细颗粒物(PM2.5),78,98,85,57,64,33,,,,26,24,8,8,0.6,0.6
2024-11-23T0700,2292A,117.0331,30.5119,安庆市,马山宾馆,细颗粒物(PM2.5),80,94,82,59,61,39,,,,35,31,9,8,0.6,0.6
2024-11-23T0700,2294A,116.9896,30.6145,安庆市,安庆大学,细颗粒物(PM2.5),100,117,82,75,60,34,,,,35,29,9,10,0.7,0.7
2024-11-23T0700,3173A,117.0598,30.5351,安庆市,市人大,细颗粒物(PM2.5),80,101,82,59,61,31,,,,37,33,12,12,0.6,0.6
2024-11-23T0700,3122A,105.9606,26.2611,安顺市,伍家关,,26,23,29,18,24,49,,,,5,13,7,11,0.7,0.7
2024-11-23T0700,3123A,105.9408,26.2431,安顺市,凤凰山,,28,26,30,19,25,42,,,,7,13,11,18,0.2,0.3
2024-11-23T0700,3124A,105.9439,26.2564,安顺市,金钟山,,25,25,28,17,26,46,,,,6,12,12,16,0.3,0.4
2024-11-23T0700,3125A,105.8983,26.2481,安顺市,娄家坡,,29,25,31,20,25,42,,,,6,13,11,18,0.5,0.6
2024-11-23T0700,1818A,114.4839,36.0621,安阳市,棉研所,细颗粒物(PM2.5),138,138,112,105,89,4,,,,49,53,8,10,1.1,0.9
2024-11-23T0700,1819A,114.3551,36.1017,安阳市,红庙街,细颗粒物(PM2.5),125,105,99,95,77,1,,,,45,47,2,5,1.0,1.1
2024-11-23T0700,1820A,114.361,36.0681,安阳市,银杏小区,细颗粒物(PM2.5),104,98,96,78,77,1,,,,37,43,1,3,0.7,0.9
2024-11-23T0700,3141A,114.3922,36.0878,安阳市,信访局,细颗粒物(PM2.5),109,97,102,82,77,3,,,,43,51,3,6,0.9,1
2024-11-23T0700,3669A,114.4705,36.0637,安阳市,左辅环卫站,细颗粒物(PM2.5),133,146,124,101,82,7,,,,49,50,3,6,1.2,1
2024-11-23T0700,3703A,114.2917,36.0949,安阳市,安钢职工学校,细颗粒物(PM2.5),124,133,110,94,80,3,,,,41,46,3,5,0.5,0.7
2024-11-23T0700,1748A,123.044,41.1196,鞍山市,深沟寺,细颗粒物(PM2.5),62,71,60,44,37,7,,,,37,35,4,8,1.0,0.7
2024-11-23T0700,1749A,123.011,41.0931,鞍山市,太阳城,细颗粒物(PM2.5),69,80,55,50,34,6,,,,40,33,4,9,0.8,0.6
2024-11-23T0700,1750A,123.0485,41.1442,鞍山市,太平,细颗粒物(PM2.5),97,114,84,72,52,7,,,,41,41,13,16,1.4,0.9
2024-11-23T0700,1751A,122.9642,41.0971,鞍山市,铁西三道街,细颗粒物(PM2.5),118,129,73,89,43,6,,,,42,40,15,24,2.3,1.5
2024-11-23T0700,1752A,122.9341,41.0833,鞍山市,铁西工业园区,细颗粒物(PM2.5),140,146,74,107,47,9,,,,38,42,17,26,2.3,1.2
2024-11-23T0700,1753A,123.022,41.0821,鞍山市,明达新区,"颗粒物(PM10),细颗粒物(PM2.5)",60,70,53,43,33,7,,,,33,29,8,12,1.0,0.7
2024-11-23T0700,1754A,123.1289,41.0228,鞍山市,千山,,,,36,,20,,,23,,,26,,9,,0.4
2024-11-23T0700,2195A,107.4212,40.761,巴彦淖尔市,附二中,细颗粒物(PM2.5),80,108,109,59,52,2,,,,40,47,4,10,1.0,0.8
2024-11-23T0700,2196A,107.37,40.7372,巴彦淖尔市,市环保大楼,颗粒物(PM10),73,96,90,52,43,2,,,,35,44,3,8,0.9,0.7
2024-11-23T0700,1956A,86.1472,41.7538,巴音郭楞蒙古自治州,孔雀公园,颗粒物(PM10),68,86,108,29,42,7,,,,62,52,5,9,0.5,0.8
2024-11-23T0700,1957A,86.1972,41.7166,巴音郭楞蒙古自治州,棉纺厂,颗粒物(PM10),72,94,137,36,45,13,,,,62,53,2,4,0.5,0.7
2024-11-23T0700,1958A,86.2357,41.7173,巴音郭楞蒙古自治州,经济开发区,颗粒物(PM10),51,52,108,13,39,58,,,,18,34,2,3,0.2,0.4
2024-11-23T0700,2914A,106.7677,31.8794,巴中市,苏山坪,,16,16,23,11,16,40,,,,5,9,6,6,0.4,0.5
2024-11-23T0700,3182A,106.7656,31.8545,巴中市,丽阳花园,,25,22,35,17,24,5,,,,19,24,3,4,0.5,0.6
2024-11-23T0700,3183A,106.7418,31.8654,巴中市,圣泉水务公司,,26,22,33,18,25,2,,,,20,22,3,4,0.5,0.5
2024-11-23T0700,3616A,106.7616,31.8344,巴中市,市中心医院,,36,31,36,25,31,5,,,,20,19,4,5,0.5,0.6
2024-11-23T0700,2235A,122.7911,45.6077,白城市,洮北区环保局,,36,27,39,25,32,18,,,,29,29,7,6,0.3,0.4
2024-11-23T0700,2236A,122.8738,45.5725,白城市,市环保局,,32,29,46,22,24,22,,,,28,32,5,6,0.3,0.3
2024-11-23T0700,2231A,126.4219,41.9171,白山市,喜丰,颗粒物(PM10),61,72,49,38,23,14,,,,24,23,17,11,0.5,0.4
2024-11-23T0700,2232A,126.4077,41.9419,白山市,环保局,颗粒物(PM10),60,70,53,25,22,18,,,,15,9,8,5,0.4,0.4
2024-11-23T0700,2647A,104.1724,36.5446,白银市,第三小学,细颗粒物(PM2.5),62,67,75,44,55,28,,,,28,39,17,35,1.1,1.3
2024-11-23T0700,2648A,104.1465,36.5482,白银市,动力公司,细颗粒物(PM2.5),68,49,67,49,57,33,,,,23,34,6,20,1.2,1.2
2024-11-23T0700,2512A,106.6103,23.9011,百色市,市监测站,,18,16,24,12,13,13,,,,14,12,6,8,0.6,0.7
2024-11-23T0700,2513A,106.6538,23.8859,百色市,市中心血站,颗粒物(PM10),56,62,39,24,19,6,,,,21,19,12,11,0.7,0.6
2024-11-23T0700,3406A,106.6085,23.8798,百色市,祈福高中,,30,30,38,13,16,6,,,,18,19,4,7,0.6,0.6
2024-11-23T0700,2270A,117.396,32.939,蚌埠市,工人疗养院,,33,33,90,9,59,26,,,,39,33,5,6,0.3,0.5
2024-11-23T0700,2271A,117.3605,32.9427,蚌埠市,百货大楼,,33,33,88,14,58,7,,,,56,38,6,6,0.3,0.5
2024-11-23T0700,2273A,117.4185,32.8911,蚌埠市,蚌埠学院,,29,29,76,15,57,42,,,,28,44,6,10,0.2,0.5
2024-11-23T0700,2274A,117.3533,32.9673,蚌埠市,淮上区政府,,29,29,91,13,68,44,,,,17,32,3,5,0.2,0.5
2024-11-23T0700,2275A,117.3145,32.8977,蚌埠市,高新区,,27,27,72,13,55,46,,,,28,44,7,10,0.3,0.5
2024-11-23T0700,3715A,117.3092,32.9314,蚌埠市,蚌埠田家炳中学,,39,39,94,19,58,10,,,,61,44,10,8,0.4,0.5
2024-11-23T0700,1585A,109.8756,40.6532,包头市,市环境监测站,颗粒物(PM10),62,73,77,27,41,7,,,,57,62,18,25,1.4,1.3
2024-11-23T0700,1587A,109.9991,40.5842,包头市,包头八中,颗粒物(PM10),68,85,89,45,47,5,,,,68,59,57,33,1.4,1.3
2024-11-23T0700,1588A,109.8538,40.6821,包头市,青山宾馆,细颗粒物(PM2.5),64,62,71,46,49,4,,,,55,59,19,23,1.2,1.3
2024-11-23T0700,1589A,109.8642,40.6288,包头市,惠龙物流,,50,50,74,28,43,4,,,,71,60,29,23,1.0,1.3
2024-11-23T0700,1590A,110.0377,40.5546,包头市,东河鸿龙湾,,48,48,77,30,42,4,,,,50,47,43,18,0.8,1
2024-11-23T0700,3283A,109.9154,40.5685,包头市,滨河大厦,,37,37,64,22,38,8,,,,57,53,20,17,0.7,0.9
2024-11-23T0700,3419A,109.9447,40.6261,包头市,包头市委党校,颗粒物(PM10),59,68,88,29,40,6,,,,71,61,18,27,1.2,1.5
2024-11-23T0700,3683A,109.8331,40.6576,包头市,昆区政府,颗粒物(PM10),59,67,74,40,51,10,,,,66,61,35,30,1.4,1.4
2024-11-23T0700,1930A,107.185,34.3063,宝鸡市,庙沟村,细颗粒物(PM2.5),83,68,70,61,60,6,,,,22,29,8,9,0.3,0.3
2024-11-23T0700,1931A,107.0708,34.3017,宝鸡市,竹园沟,细颗粒物(PM2.5),84,69,65,62,60,6,,,,23,24,6,8,0.7,0.7
2024-11-23T0700,1932A,107.1906,34.3672,宝鸡市,三陆医院,细颗粒物(PM2.5),95,77,89,71,82,3,,,,40,37,11,9,1.1,1.1
2024-11-23T0700,1933A,107.1431,34.3547,宝鸡市,监测站,细颗粒物(PM2.5),92,69,81,68,69,10,,,,23,24,12,9,0.8,0.8
2024-11-23T0700,1934A,107.1186,34.3739,宝鸡市,技工学校,细颗粒物(PM2.5),89,74,78,66,67,11,,,,25,29,10,10,0.8,0.8
2024-11-23T0700,1935A,107.3906,34.3528,宝鸡市,陈仓区环保局家属楼,细颗粒物(PM2.5),128,103,106,97,95,2,,,,31,34,25,21,1.2,1.2
2024-11-23T0700,1936A,107.2058,34.3497,宝鸡市,文理学院,细颗粒物(PM2.5),88,74,83,65,70,4,,,,28,30,8,8,0.7,0.7
2024-11-23T0700,1937A,107.2386,34.3622,宝鸡市,三迪小学,细颗粒物(PM2.5),95,76,89,71,81,5,,,,32,40,8,8,0.9,1
2024-11-23T0700,1051A,115.493,38.8632,保定市,游泳馆,颗粒物(PM10),54,57,49,26,22,4,,,,41,33,1,2,0.4,0.4
2024-11-23T0700,1052A,115.5213,38.8959,保定市,华电二区,细颗粒物(PM2.5),63,59,48,45,29,1,,,,45,39,6,7,0.2,0.3
2024-11-23T0700,1053A,115.4713,38.9108,保定市,接待中心,颗粒物(PM10),55,59,56,25,20,2,,,,46,42,3,2,0.2,0.3
2024-11-23T0700,1054A,115.4612,38.8416,保定市,地表水厂,颗粒物(PM10),58,65,59,31,23,3,,,,44,36,2,2,0.3,0.3
2024-11-23T0700,3581A,115.31981,38.95208,保定市,满城区生态环境分局,颗粒物(PM10),63,75,59,34,26,2,,,,55,48,1,2,0.5,0.5
2024-11-23T0700,3582A,115.47694,38.76408,保定市,清苑区第二中学,颗粒物(PM10),54,58,53,36,27,4,,,,45,39,5,6,0.5,0.5
2024-11-23T0700,3583A,115.62909,39.02311,保定市,徐水物探局,颗粒物(PM10),52,54,47,22,21,1,,,,37,32,1,3,0.4,0.4
2024-11-23T0700,4004A,115.4202,38.8656,保定市,双鹰农机,颗粒物(PM10),61,71,55,39,28,4,,,,44,37,3,2,0.3,0.4
2024-11-23T0700,4034A,115.5150,38.8590,保定市,植保所站,细颗粒物(PM2.5),69,70,60,50,34,3,,,,43,42,8,7,0.5,0.3
2024-11-23T0700,2594A,99.1678,25.1081,保山市,市环境监测站,,24,24,22,11,6,14,,,,7,9,4,4,0.4,0.4
2024-11-23T0700,2595A,99.1711,25.1328,保山市,市环保局,,29,,20,20,12,22,,,,4,5,4,4,0.5,0.5
2024-11-23T0700,1866A,109.2262,21.588,北海市,牛尾岭水库,,,30,33,25,26,32,,,,,9,5,6,0.5,0.5
2024-11-23T0700,1867A,109.1436,21.4086,北海市,海滩公园,,38,38,45,22,28,49,,,,15,14,12,11,0.6,0.6
2024-11-23T0700,1868A,109.0981,21.4661,北海市,新市环保局,,45,40,46,31,33,52,,,,16,15,11,10,0.7,0.7
2024-11-23T0700,1869A,109.1778,21.5233,北海市,北海工业园,细颗粒物(PM2.5),55,,49,39,36,42,,,,16,16,10,9,0.7,0.8
2024-11-23T0700,3400A,109.1911,21.4415,北海市,龙潭自来水厂,,49,38,46,34,36,47,,,,15,14,13,11,0.8,0.8
2024-11-23T0700,1001A,116.3621,39.8784,北京市,万寿西宫,颗粒物(PM10),53,56,43,29,17,10,,,,41,44,4,4,0.6,0.5
2024-11-23T0700,1002A,116.2202,40.2915,北京市,定陵,,36,36,29,19,14,17,,,,23,22,2,2,0.4,0.3
2024-11-23T0700,1003A,116.4174,39.9289,北京市,东四,颗粒物(PM10),53,55,39,30,16,22,,,,30,35,6,4,0.7,0.6
2024-11-23T0700,1004A,116.4072,39.8863,北京市,天坛,颗粒物(PM10),52,54,37,29,15,20,,,,34,34,2,2,0.6,0.4
2024-11-23T0700,1005A,116.462,39.9365,北京市,农展馆,颗粒物(PM10),55,59,41,30,14,27,,,,25,34,8,6,0.9,0.6
2024-11-23T0700,1006A,116.3392,39.9295,北京市,官园,,48,48,39,24,17,16,,,,32,37,2,2,0.6,0.5
2024-11-23T0700,1007A,116.2878,39.9611,北京市,海淀万柳,,42,42,40,21,16,24,,,,28,33,4,4,0.7,0.6
2024-11-23T0700,1008A,116.6636,40.135,北京市,顺义新城,,49,49,43,27,18,34,,,,18,31,2,2,0.5,0.4
2024-11-23T0700,1009A,116.6275,40.3275,北京市,怀柔镇,,36,36,34,21,18,42,,,,13,21,2,2,0.7,0.7
2024-11-23T0700,1010A,116.2296,40.217,北京市,昌平镇,,41,41,39,17,14,32,,,,18,26,7,6,0.5,0.4
2024-11-23T0700,1011A,116.3966,39.9821,北京市,奥体中心,,49,49,38,25,16,20,,,,35,40,4,4,0.7,0.6
2024-11-23T0700,1012A,116.184,39.9136,北京市,古城,颗粒物(PM10),52,54,45,23,16,3,,,,46,42,5,5,0.6,0.5
2024-11-23T0700,3281A,115.9718,40.4529,北京市,延庆夏都,,36,36,34,20,17,32,,,,18,22,1,2,0.4,0.3
2024-11-23T0700,3417A,117.0709,40.1465,北京市,平谷新城,,41,41,35,22,16,36,,,,12,23,3,3,0.3,0.3
2024-11-23T0700,3418A,116.8336,40.4095,北京市,密云新城,,33,33,33,16,14,43,,,,10,22,1,2,0.3,0.3
2024-11-23T0700,3671A,116.088,39.9726,北京市,门头沟三家店,颗粒物(PM10),57,64,54,25,18,1,,,,49,45,9,8,0.5,0.4
2024-11-23T0700,3672A,116.1541,39.8204,北京市,丰台云岗,,46,46,41,20,17,0,,,,48,38,3,3,0.5,0.4
2024-11-23T0700,3673A,116.6804,39.9081,北京市,通州东关,颗粒物(PM10),56,62,51,33,20,22,,,,24,34,2,2,0.7,0.5
2024-11-23T0700,3674A,115.9577,39.7603,北京市,房山燕山,,46,46,34,25,16,3,,,,35,25,3,2,0.5,0.3
2024-11-23T0700,3675A,116.4672,39.7733,北京市,大兴旧宫,颗粒物(PM10),52,53,36,30,15,14,,,,30,34,2,1,0.7,0.5
2024-11-23T0700,3694A,115.986,40.4563,北京市,延庆石河营,,34,34,32,21,17,37,,,,14,23,1,2,0.4,0.4
2024-11-23T0700,3695A,116.6151,40.3053,北京市,怀柔新城,,41,41,35,24,18,36,,,,18,24,1,2,0.4,0.4
2024-11-23T0700,3696A,116.2545,39.8768,北京市,丰台小屯,,38,38,44,20,16,8,,,,43,40,3,3,0.6,0.5
2024-11-23T0700,3697A,116.84,40.3844,北京市,密云镇,,37,37,35,18,13,45,,,,12,24,1,2,0.4,0.4
2024-11-23T0700,1761A,123.8275,41.3064,本溪市,大峪,,40,40,41,22,26,7,,,,36,20,11,11,1.4,1.1
2024-11-23T0700,1762A,123.7567,41.3325,本溪市,溪湖,颗粒物(PM10),58,65,55,33,35,6,,,,36,25,10,11,1.2,0.9
2024-11-23T0700,1763A,123.7169,41.3094,本溪市,彩屯,细颗粒物(PM2.5),84,79,60,62,44,8,,,,38,32,7,8,1.0,1
2024-11-23T0700,1764A,123.7669,41.2864,本溪市,东明,颗粒物(PM10),51,52,50,31,35,8,,,,42,30,7,9,1.0,0.7
2024-11-23T0700,1765A,123.7992,41.2664,本溪市,新立屯,,29,24,38,20,21,9,,,,38,29,4,5,0.5,0.5
2024-11-23T0700,1766A,123.8142,41.3472,本溪市,威宁,颗粒物(PM10),62,74,68,29,37,6,,,,30,27,8,8,0.5,0.5
2024-11-23T0700,2587A,105.2864,27.3125,毕节市,八中,,26,23,33,18,26,13,,,,20,18,10,8,0.5,0.5
2024-11-23T0700,2588A,105.31,27.2944,毕节市,师专,,25,25,29,17,24,15,,,,15,15,9,8,0.6,0.6
2024-11-23T0700,3537A,105.3631,27.3533,毕节市,长征村,,20,20,32,10,22,17,,,,13,11,11,10,0.6,0.5
2024-11-23T0700,1629A,118.0018,37.3617,滨州市,第二水厂,,44,44,40,19,17,4,,,,58,44,9,28,0.6,0.5
2024-11-23T0700,1630A,117.9776,37.393,滨州市,北中新校,,44,44,46,19,15,8,,,,56,44,9,11,0.7,0.5
2024-11-23T0700,3514A,117.9378,37.3956,滨州市,中海酒店,,42,31,34,29,20,25,,,,43,33,10,30,0.9,0.6
2024-11-23T0700,3515A,117.9378,37.3553,滨州市,开发区一中,,48,48,39,19,14,6,,,,63,41,12,13,0.6,0.5
2024-11-23T0700,3516A,118.0917,37.694,滨州市,金海六路,,27,27,30,17,9,25,,,,21,19,6,5,0.3,0.3
2024-11-23T0700,4028A,117.9956,37.3753,滨州市,滨州市西街道办事处,,45,39,37,31,23,6,,,,50,36,8,33,0.6,0.4
2024-11-23T0700,2311A,115.8072,33.8399,亳州市,污水处理厂,,40,40,87,12,51,24,,,,24,31,10,9,0.3,0.6
2024-11-23T0700,2312A,115.7789,33.8518,亳州市,三国揽胜宫,,43,43,103,16,54,29,,,,29,36,6,9,0.3,0.6
2024-11-23T0700,3332A,115.7633,33.8034,亳州市,亳州学院,,37,37,89,13,49,35,,,,24,29,4,5,0.3,0.5
2024-11-23T0700,2693A,82.0485,44.8556,博尔塔拉蒙古自治州,市党校,,33,33,42,11,22,39,,,,10,12,5,4,0.4,0.4
2024-11-23T0700,2694A,82.0806,44.8969,博尔塔拉蒙古自治州,市环保局,,30,30,59,11,21,46,,,,8,14,5,5,0.2,0.5
2024-11-23T0700,1071A,116.8842,38.2991,沧州市,沧县城建局,,39,36,44,27,21,28,,,,30,33,5,5,0.5,0.4
2024-11-23T0700,1072A,116.8584,38.3254,沧州市,电视转播站,,33,33,43,17,13,32,,,,29,30,6,4,0.5,0.4
2024-11-23T0700,1073A,116.8709,38.3228,沧州市,市环保局,,38,36,43,26,23,20,,,,34,30,6,4,0.3,0.3
2024-11-23T0700,3324A,116.8136,38.3004,沧州市,河北水利电力学院,,36,36,38,24,21,33,,,,25,26,9,6,0.4,0.2
2024-11-23T0700,2622A,97.1806,31.1273,昌都市,昌都监测站,,17,17,22,8,11,35,,,,14,23,7,7,0.6,0.7
2024-11-23T0700,3719A,97.1714,31.1406,昌都市,昌都会议中心,,15,10,13,7,9,45,,,,5,10,5,6,0.4,0.5
2024-11-23T0700,2690A,88.1236,43.8886,昌吉回族自治州,天山天池,,23,6,20,3,15,73,,,,4,10,7,8,0.4,0.6
2024-11-23T0700,2692A,87.2717,44.0297,昌吉回族自治州,新区政务中心,,18,16,65,12,37,49,,,,21,36,6,10,0.5,0.7
2024-11-23T0700,3613A,87.3095,44.0142,昌吉回族自治州,亚心广场,,17,17,68,3,43,48,,,,29,37,8,12,0.5,0.8
2024-11-23T0700,1119A,125.3325,43.9166,长春市,食品厂,细颗粒物(PM2.5),235,216,125,185,116,7,,,,50,41,11,10,1.7,1
2024-11-23T0700,1120A,125.2863,43.9027,长春市,客车厂,细颗粒物(PM2.5),248,201,123,198,134,14,,,,79,45,11,10,1.9,0.9
2024-11-23T0700,1121A,125.2841,43.8463,长春市,邮电学院,细颗粒物(PM2.5),290,,98,240,92,16,,,,54,41,9,14,1.1,0.6
2024-11-23T0700,1122A,125.3716,43.8772,长春市,劳动公园,细颗粒物(PM2.5),172,160,109,130,107,13,,,,50,41,9,10,1.8,1.1
2024-11-23T0700,1123A,125.3297,43.8805,长春市,园林处,细颗粒物(PM2.5),216,,95,166,89,16,,,,48,36,9,9,1.5,0.9
2024-11-23T0700,1124A,125.4605,43.79,长春市,净月潭,细颗粒物(PM2.5),119,109,78,90,66,15,,,,20,22,6,7,0.5,0.4
2024-11-23T0700,1125A,125.7194,43.515,长春市,甩湾子,,,,,,,,,,,,,,,,
2024-11-23T0700,1126A,125.3863,43.8447,长春市,经开区环卫处,细颗粒物(PM2.5),142,125,99,108,84,5,,,,36,35,10,11,0.9,0.8
2024-11-23T0700,1127A,125.245,43.7783,长春市,高新区管委会,,,511,150,,111,62,,,,56,46,9,12,2.4,1.2
2024-11-23T0700,1128A,125.1761,43.8325,长春市,岱山公园,细颗粒物(PM2.5),468,,163,452,175,15,,,,70,51,10,11,2.1,1
2024-11-23T0700,1335A,113.0833,28.2325,长沙市,经开区环保局,细颗粒物(PM2.5),93,80,70,69,56,5,,,,30,32,2,2,0.5,0.6
2024-11-23T0700,1336A,112.8872,28.2189,长沙市,高开区环保局,细颗粒物(PM2.5),122,,69,92,70,11,,,,25,25,4,6,0.6,0.6
2024-11-23T0700,1337A,113.0792,28.2053,长沙市,马坡岭,细颗粒物(PM2.5),105,79,65,79,63,3,,,,36,36,4,4,0.6,0.6
2024-11-23T0700,1338A,112.9394,28.19,长沙市,湖南师范大学,细颗粒物(PM2.5),100,112,87,75,59,9,,,,31,29,5,5,0.6,0.5
2024-11-23T0700,1339A,113.0178,28.1322,长沙市,雨花区环保局,细颗粒物(PM2.5),97,85,70,72,64,12,,,,38,34,6,6,0.6,0.6
2024-11-23T0700,1340A,112.9792,28.2597,长沙市,伍家岭,细颗粒物(PM2.5),100,98,76,75,61,1,,,,34,31,3,4,0.7,0.7
2024-11-23T0700,1341A,113.0014,28.1944,长沙市,火车新站,细颗粒物(PM2.5),110,91,67,83,62,4,,,,34,28,3,3,0.6,0.5
2024-11-23T0700,1342A,112.9844,28.1178,长沙市,天心区环保局,细颗粒物(PM2.5),84,99,82,62,49,0,,,,40,34,4,3,0.4,0.3
2024-11-23T0700,1343A,112.8908,28.1308,长沙市,湖南中医药大学,细颗粒物(PM2.5),112,109,84,84,65,5,,,,32,31,7,8,0.1,0.1
2024-11-23T0700,1344A,112.9581,28.3611,长沙市,沙坪,颗粒物(PM10),59,67,56,34,34,1,,,,29,29,6,7,0.8,0.8
2024-11-23T0700,1727A,113.1147,36.1547,长治市,清华站,细颗粒物(PM2.5),67,76,76,48,52,18,,,,47,41,9,13,0.9,0.9
2024-11-23T0700,1728A,113.1031,36.1989,长治市,监测站,颗粒物(PM10),70,90,79,39,57,31,,,,32,35,14,16,2.3,1.5
2024-11-23T0700,1730A,113.0886,36.2125,长治市,审计局,细颗粒物(PM2.5),67,81,86,48,63,36,,,,33,34,11,11,3.3,1.3
2024-11-23T0700,1731A,113.0844,36.1856,长治市,长治八中,细颗粒物(PM2.5),89,85,91,66,57,32,,,,32,34,11,12,1.4,1.3
2024-11-23T0700,2845A,113.1569,36.1911,长治市,德盛苑,,45,45,67,29,53,81,,,,10,23,6,8,1.0,1.3
2024-11-23T0700,3568A,113.06,36.0464,长治市,向阳小学,颗粒物(PM10),63,75,81,44,54,64,,,,18,27,7,9,0.5,0.7
2024-11-23T0700,3569A,112.8792,36.3144,长治市,屯留一中,细颗粒物(PM2.5),77,64,71,56,59,6,,,,43,36,9,13,1.3,1.3
2024-11-23T0700,3570A,113.235,36.3489,长治市,潞城四中,细颗粒物(PM2.5),94,101,82,70,63,5,,,,43,41,8,9,1.6,1.1
2024-11-23T0700,1854A,111.6975,28.9703,常德市,市二中,细颗粒物(PM2.5),83,94,82,61,47,35,,,,16,22,10,7,0.7,0.7
2024-11-23T0700,1857A,111.7158,29.1456,常德市,白鹤山,,,,,,,,,,,,,,,,
2024-11-23T0700,3138A,111.7153,29.0289,常德市,武陵区永安,细颗粒物(PM2.5),72,82,66,52,45,34,,,,14,20,10,9,0.6,0.6
2024-11-23T0700,3139A,111.6892,28.9881,常德市,鼎城区玉霞,颗粒物(PM10),75,100,84,53,45,40,,,,15,23,13,10,0.7,0.6
2024-11-23T0700,3140A,111.6625,29.0531,常德市,武陵区长庚,颗粒物(PM10),70,89,81,50,45,20,,,,19,21,4,6,0.6,0.6
2024-11-23T0700,1196A,119.9633,31.762,常州市,市监测站,,29,24,63,20,45,33,,,,28,31,10,9,0.3,0.4
2024-11-23T0700,1200A,119.9468,31.7069,常州市,武进监测站,,30,30,66,10,39,41,,,,32,32,5,7,0.3,0.5
2024-11-23T0700,1201A,119.9255,31.9087,常州市,安家,,30,30,62,19,45,10,,,,45,33,7,9,0.5,0.6
2024-11-23T0700,3002A,119.9805,31.8174,常州市,行政中心,,28,28,57,18,44,27,,,,40,32,9,10,0.3,0.4
2024-11-23T0700,3003A,120.0522,31.7748,常州市,经开区,,49,49,78,21,40,6,,,,54,43,10,11,0.4,0.6
2024-11-23T0700,3010A,119.9025,31.7964,常州市,钟楼,,25,25,63,15,43,32,,,,41,33,8,9,0.5,0.5
2024-11-23T0700,3429A,119.8598,31.7066,常州市,武进经发区,,31,27,60,14,43,8,,,,61,35,8,8,0.5,0.6
2024-11-23T0700,3430A,119.5826,31.7245,常州市,金坛城区,,37,37,66,20,45,16,,,,40,28,8,9,0.5,0.6
2024-11-23T0700,2220A,120.4318,41.5881,朝阳市,西梁,颗粒物(PM10),61,72,59,37,31,5,,,,34,30,13,11,0.9,0.8
2024-11-23T0700,2221A,120.4521,41.5646,朝阳市,河畔小区,,50,50,42,24,23,8,,,,33,24,14,9,0.7,0.6
2024-11-23T0700,2222A,120.4176,41.5648,朝阳市,八里堡,,50,50,52,28,27,5,,,,32,26,14,13,1.0,0.9
2024-11-23T0700,2223A,120.3806,41.5969,朝阳市,农业园区,,43,43,45,26,31,9,,,,24,22,4,7,0.7,0.6
2024-11-23T0700,1705A,116.6367,23.6719,潮州市,西园路,,23,20,18,16,13,13,,,,19,9,5,5,0.3,0.3
2024-11-23T0700,3026A,116.6183,23.6608,潮州市,市政府,,20,19,20,14,12,22,,,,12,10,11,10,0.5,0.7
2024-11-23T0700,4036A,116.6461,23.6761,潮州市,金山,,19,16,20,13,13,19,,,,8,7,5,5,0.6,0.6
2024-11-23T0700,2472A,113.0073,25.9061,郴州市,马头岭,颗粒物(PM10),57,63,62,23,28,25,,,,18,19,9,9,0.7,0.7
2024-11-23T0700,2473A,113.0116,25.8226,郴州市,市职中,细颗粒物(PM2.5),68,52,46,49,41,16,,,,20,22,7,6,0.7,0.7
2024-11-23T0700,2474A,113.0161,25.8001,郴州市,兴隆步行街,细颗粒物(PM2.5),74,,50,54,41,16,,,,17,18,6,6,0.7,0.6
2024-11-23T0700,2475A,113.0383,25.8071,郴州市,市审计局,细颗粒物(PM2.5),64,58,48,46,42,16,,,,16,17,5,4,0.7,0.7
2024-11-23T0700,2476A,113.0348,25.7759,郴州市,市环保局,细颗粒物(PM2.5),67,54,45,48,44,19,,,,13,17,4,4,0.6,0.7
2024-11-23T0700,1431A,103.9728,30.7236,成都市,金泉两河,细颗粒物(PM2.5),64,69,74,46,51,11,,,,27,39,3,3,0.7,0.8
2024-11-23T0700,1432A,104.176,30.6872,成都市,十里店,细颗粒物(PM2.5),57,40,40,40,31,11,,,,38,30,2,2,0.6,0.6
2024-11-23T0700,1433A,104.079,30.5706,成都市,三瓦窑,细颗粒物(PM2.5),54,41,48,38,29,27,,,,21,32,2,1,0.4,0.5
2024-11-23T0700,1434A,104.1114,30.63,成都市,沙河铺,颗粒物(PM10),51,51,43,33,29,12,,,,37,30,3,3,0.7,0.7
2024-11-23T0700,1437A,104.0786,30.6531,成都市,君平街,细颗粒物(PM2.5),73,67,55,53,40,9,,,,38,41,5,5,0.7,0.8
2024-11-23T0700,1438A,103.613,31.0283,成都市,灵岩寺,,,,,,,,,,,,,,,,
2024-11-23T0700,2880A,104.0239,30.65639,成都市,大石西路,细颗粒物(PM2.5),67,71,56,48,39,10,,,,32,37,4,4,0.7,0.8
2024-11-23T0700,3136A,104.2725,30.5589,成都市,龙泉驿区区政府,,42,31,28,29,24,29,,,,15,16,3,2,0.6,0.5
2024-11-23T0700,3357A,104.0106,30.6931,成都市,金博路,细颗粒物(PM2.5),69,65,62,50,42,3,,,,33,38,2,2,0.6,0.7
2024-11-23T0700,3359A,104.0578,30.5225,成都市,华阳,,32,29,40,22,27,21,,,,21,21,1,1,0.6,0.6
2024-11-23T0700,3487A,104.2394,30.5319,成都市,车城东七路,,50,43,39,35,30,31,,,,21,24,4,4,0.7,0.6
2024-11-23T0700,3488A,104.3853,30.7453,成都市,青白江技师分院,,48,42,34,33,25,4,,,,32,27,6,5,0.7,0.7
2024-11-23T0700,3489A,104.0789,30.4072,成都市,科学城,,48,37,37,33,31,22,,,,24,20,4,4,0.6,0.5
2024-11-23T0700,4011A,103.8506,30.6947,成都市,光华大道三段,,36,36,77,21,57,39,,,,11,40,1,2,0.5,0.7
2024-11-23T0700,1062A,117.9531,40.9081,承德市,铁路,细颗粒物(PM2.5),60,57,43,43,23,2,,,,42,40,4,6,1.0,0.8
2024-11-23T0700,1063A,117.9392,40.9763,承德市,中国银行,颗粒物(PM10),53,56,42,12,18,2,,,,34,31,2,3,0.7,0.6
2024-11-23T0700,1064A,117.9503,40.928,承德市,开发区,颗粒物(PM10),53,55,49,25,24,4,,,,40,35,4,5,0.8,0.8
2024-11-23T0700,1065A,117.8051,40.9655,承德市,文化中心,,38,38,54,21,20,14,,,,32,37,4,5,0.8,0.6
2024-11-23T0700,1066A,117.9268,41.0026,承德市,离宫,细颗粒物(PM2.5),52,40,30,36,27,1,,,,37,24,3,4,0.6,0.5
2024-11-23T0700,2314A,117.47,30.6618,池州市,池州学院,,45,43,66,31,51,34,,,,23,28,7,8,0.8,0.8
2024-11-23T0700,3237A,117.4918,30.6617,池州市,展览馆,细颗粒物(PM2.5),52,45,63,36,50,32,,,,25,25,5,6,0.9,0.9
2024-11-23T0700,3333A,117.5627,30.695,池州市,第八中学,,49,47,70,34,54,30,,,,22,25,5,6,0.9,0.9
2024-11-23T0700,3334A,117.5038,30.6243,池州市,第十二中学,,42,38,69,29,53,35,,,,23,23,5,4,0.7,0.7
2024-11-23T0700,1744A,118.9233,42.2816,赤峰市,松山一中,颗粒物(PM10),51,52,50,25,20,6,,,,31,38,14,22,1.0,1
2024-11-23T0700,1745A,118.9576,42.2728,赤峰市,哈达街,颗粒物(PM10),51,51,50,30,23,8,,,,26,34,9,46,0.9,0.9
2024-11-23T0700,1746A,118.8788,42.2554,赤峰市,天义路,,35,34,36,24,18,4,,,,34,37,9,24,0.8,0.6
2024-11-23T0700,3058A,119.2658,42.0353,赤峰市,银河街,颗粒物(PM10),64,78,61,37,36,13,,,,41,32,48,27,1.1,0.9
2024-11-23T0700,3286A,118.9359,42.3147,赤峰市,桥北物流园区,,31,31,37,7,24,4,,,,31,35,8,15,0.9,0.9
2024-11-23T0700,2521A,107.3476,22.4136,崇左市,市环保局江州分局,,42,42,42,28,22,54,,,,13,15,8,7,0.7,0.6
2024-11-23T0700,2522A,107.3702,22.3707,崇左市,城南新区,,43,34,33,30,21,56,,,,13,12,11,8,0.6,0.6
2024-11-23T0700,2298A,118.3093,32.3153,滁州市,老年大学,,29,29,64,16,42,17,,,,38,33,3,4,0.3,0.4
2024-11-23T0700,2299A,118.3244,32.2786,滁州市,人大宾馆,,27,27,65,11,44,24,,,,38,38,6,8,0.4,0.6
2024-11-23T0700,3207A,118.3118,32.3038,滁州市,市政府原办公楼,,31,31,55,21,45,18,,,,44,33,5,6,0.5,0.3
2024-11-23T0700,3331A,118.3267,32.2634,滁州市,图书馆,,37,37,74,10,40,36,,,,23,31,4,6,0.1,0.3
2024-11-23T0700,2605A,101.5482,25.0441,楚雄彝族自治州,州环境监测站,,20,6,12,3,11,63,,,,4,16,7,13,0.4,0.5
2024-11-23T0700,2606A,101.538,25.0492,楚雄彝族自治州,市经济开发区,,19,10,19,3,15,59,,,,8,18,5,10,0.3,0.4
2024-11-23T0700,2548A,107.5277,31.2827,达州市,达州职业技术学院,,39,32,36,27,27,4,,,,18,19,7,6,0.7,0.7
2024-11-23T0700,2549A,107.5086,31.2186,达州市,市环境监测站,,35,35,39,17,16,2,,,,24,26,11,8,0.6,0.6
2024-11-23T0700,2550A,107.4988,31.2132,达州市,凤凰小区,,32,29,33,22,20,4,,,,22,24,13,10,0.5,0.6
2024-11-23T0700,2551A,107.5082,31.1986,达州市,达县机关宾馆,,38,29,35,26,26,3,,,,24,28,12,8,0.6,0.6
2024-11-23T0700,2552A,107.4644,31.2124,达州市,市政中心,,37,37,42,9,19,4,,,,24,28,15,7,0.5,0.7
2024-11-23T0700,2614A,100.1542,25.7054,大理白族自治州,大理市环境监测站,,30,,16,21,13,44,,,,4,9,6,6,0.6,0.6
2024-11-23T0700,2615A,100.2171,25.5811,大理白族自治州,大理古城,,23,,18,16,9,40,,,,10,11,6,6,0.4,0.5
2024-11-23T0700,1109A,121.612,38.9741,大连市,甘井子,,38,36,37,26,17,14,,,,51,30,9,9,0.8,0.5
2024-11-23T0700,1110A,121.565,38.9511,大连市,周水子,,48,35,32,33,18,9,,,,53,38,19,14,0.9,0.7
2024-11-23T0700,1111A,121.5637,38.8845,大连市,星海三站,,36,34,31,25,14,14,,,,35,22,20,13,0.6,0.5
2024-11-23T0700,1112A,121.6302,38.9117,大连市,青泥洼桥,,45,45,34,24,14,5,,,,49,24,18,12,0.5,0.4
2024-11-23T0700,1113A,121.6251,38.8638,大连市,傅家庄,,32,30,29,22,14,12,,,,47,26,21,12,0.6,0.5
2024-11-23T0700,1114A,121.5213,38.8661,大连市,七贤岭,,33,30,30,23,14,34,,,,26,20,10,11,0.7,0.6
2024-11-23T0700,1115A,121.2529,38.8061,大连市,旅顺,,29,23,24,20,12,41,,,,16,14,10,9,0.6,0.5
2024-11-23T0700,1116A,121.7485,39.1311,大连市,金州,,43,37,33,30,20,26,,,,27,18,16,8,0.7,0.5
2024-11-23T0700,1117A,121.7811,39.0496,大连市,开发区,,30,26,24,21,13,8,,,,47,17,10,10,0.8,0.6
2024-11-23T0700,1118A,121.9762,39.0631,大连市,双D港,,28,22,31,19,15,46,,,,15,14,10,9,0.6,0.6
2024-11-23T0700,1789A,124.81117,46.03138,大庆市,大同区,细颗粒物(PM2.5),75,70,34,55,22,14,,,,26,15,3,4,0.6,0.4
2024-11-23T0700,1790A,125.129,46.533,大庆市,龙凤区,,45,40,38,31,21,16,,,,22,30,8,8,0.6,0.6
2024-11-23T0700,1791A,124.902,46.408,大庆市,红岗区,,,35,32,,15,12,,,,32,24,7,6,0.6,0.5
2024-11-23T0700,1792A,125.153,46.586,大庆市,萨尔图区,,29,29,43,13,21,32,,,,20,32,6,7,0.5,0.7
2024-11-23T0700,1793A,124.9042,46.6215,大庆市,让胡路区,,40,35,36,28,29,13,,,,34,25,7,6,0.6,0.6
2024-11-23T0700,3481A,125.141,46.634,大庆市,萨区政府监测点,,20,20,24,7,13,28,,,,14,24,5,6,0.3,0.5
2024-11-23T0700,1721A,113.3819,40.1097,大同市,果树场,细颗粒物(PM2.5),62,53,68,44,36,6,,,,32,37,7,10,0.9,0.8
2024-11-23T0700,1723A,113.2994,40.0758,大同市,云冈宾馆,,45,45,50,24,27,15,,,,39,40,10,13,0.8,1
2024-11-23T0700,1724A,113.3444,40.0917,大同市,大同大学,,38,31,40,26,20,39,,,,18,32,17,15,0.5,0.6
2024-11-23T0700,1725A,113.2661,40.1269,大同市,安家小村,,42,42,50,18,22,43,,,,23,27,16,19,0.5,0.9
2024-11-23T0700,1726A,113.2711,40.0844,大同市,教育学院,颗粒物(PM10),60,70,62,40,26,4,,,,54,42,15,14,0.9,1.1
2024-11-23T0700,3282A,113.3397,40.0597,大同市,大同市卫生学校,,46,46,44,28,24,27,,,,36,35,25,16,0.6,0.5
2024-11-23T0700,3565A,113.1367,40.1122,大同市,云冈站,颗粒物(PM10),72,94,82,48,39,6,,,,34,38,22,17,1.0,0.7
2024-11-23T0700,3566A,113.1186,40.2556,大同市,图书馆,细颗粒物(PM2.5),57,44,58,40,37,10,,,,28,24,13,17,0.7,0.7
2024-11-23T0700,3567A,113.5931,40.0461,大同市,区一中,,29,29,37,10,14,45,,,,10,16,13,16,0.5,0.5
2024-11-23T0700,3676A,113.2802,40.0995,大同市,第二人民医院,颗粒物(PM10),53,56,57,32,27,12,,,,55,38,16,17,0.8,0.9
2024-11-23T0700,2269A,124.1069,50.4097,大兴安岭地区,科技局,,18,,17,12,16,32,,,,8,10,5,5,0.4,0.4
2024-11-23T0700,3663A,124.1164,50.4278,大兴安岭地区,红旗社区,细颗粒物(PM2.5),87,119,35,64,22,2,,,,32,26,7,4,0.7,0.7
2024-11-23T0700,1600A,124.3303,40.0625,丹东市,江湾东路,,22,20,26,15,13,42,,,,11,8,12,10,0.6,0.4
2024-11-23T0700,1601A,124.4256,40.1503,丹东市,临江后街,,20,16,16,14,13,44,,,,13,8,6,5,0.5,0.5
2024-11-23T0700,1602A,124.3933,40.1461,丹东市,元宝山,,16,15,15,11,9,46,,,,7,6,5,5,0.5,0.5
2024-11-23T0700,1603A,124.3633,40.1092,丹东市,民主桥,,17,17,20,10,8,43,,,,11,10,7,6,0.6,0.6
2024-11-23T0700,3541A,109.5726,19.5167,儋州市,第一中学子站,,35,35,28,18,16,56,,,,8,10,6,6,0.6,0.5
2024-11-23T0700,3542A,109.5567,19.5187,儋州市,东坡学校子站,,29,29,28,18,16,59,,,,7,8,4,4,0.6,0.5
2024-11-23T0700,2616A,98.5842,24.428,德宏傣族景颇族自治州,德宏州监测站,,35,35,38,22,23,6,,,,20,22,7,13,0.6,0.6
2024-11-23T0700,3677A,98.5881,24.4368,德宏傣族景颇族自治州,芒市人民政府综合楼,,28,28,43,15,24,3,,,,18,17,5,11,0.7,0.7
2024-11-23T0700,1901A,104.4239,31.1208,德阳市,东山公园,细颗粒物(PM2.5),64,59,54,46,39,30,,,,17,16,2,1,0.6,0.6
2024-11-23T0700,1902A,104.3826,31.1317,德阳市,西小区,细颗粒物(PM2.5),62,45,49,44,41,32,,,,22,22,4,2,0.5,0.6
2024-11-23T0700,1904A,104.3553,31.1091,德阳市,耐火材料厂,细颗粒物(PM2.5),58,42,58,41,47,21,,,,25,28,5,4,0.5,0.6
2024-11-23T0700,3639A,104.4019,31.1244,德阳市,市教育局,细颗粒物(PM2.5),60,48,45,43,35,31,,,,26,24,4,2,0.5,0.6
2024-11-23T0700,1622A,116.3032,37.4674,德州市,儿童乐园,颗粒物(PM10),56,61,68,22,30,25,,,,38,41,12,14,0.5,0.6
2024-11-23T0700,1624A,116.2991,37.4451,德州市,监理站,,44,44,54,17,25,35,,,,33,44,13,15,0.6,0.7
2024-11-23T0700,3066A,116.2721,37.4379,德州市,九衢泉纯净水厂,,48,48,66,22,28,19,,,,46,42,10,15,0.7,0.7
2024-11-23T0700,3371A,116.3728,37.4403,德州市,开发区人民医院,,46,46,58,19,28,30,,,,28,39,13,14,0.6,0.6
2024-11-23T0700,3372A,116.3572,37.4094,德州市,太阳城中学,颗粒物(PM10),53,56,60,29,31,24,,,,40,47,11,12,0.6,0.6
2024-11-23T0700,3511A,116.5652,37.3319,德州市,陵城艺术中心,颗粒物(PM10),51,51,62,27,34,16,,,,48,41,15,21,0.8,0.7
2024-11-23T0700,2621A,99.7056,27.8317,迪庆藏族自治州,迪庆州站,,20,20,25,13,16,44,,,,14,14,6,6,0.4,0.4
2024-11-23T0700,3180A,99.7136,27.8094,迪庆藏族自治州,质量技术监督局,,21,21,26,13,12,47,,,,10,13,6,7,0.6,0.6
2024-11-23T0700,2663A,104.6241,35.5734,定西市,东关小学,,34,34,48,21,28,36,,,,12,19,5,7,0.4,0.5
2024-11-23T0700,2664A,104.6194,35.5934,定西市,供电公司,,32,32,46,17,28,36,,,,20,22,13,9,0.9,0.4
2024-11-23T0700,1389A,113.7547,23.0494,东莞市,莞城梨川,,30,30,25,21,17,38,,,,17,14,7,8,0.6,0.6
2024-11-23T0700,1390A,113.7944,23.0128,东莞市,东城石井,,25,25,25,16,17,30,,,,22,14,9,9,0.5,0.5
2024-11-23T0700,1391A,113.7383,22.9658,东莞市,南城西平,,24,24,25,16,17,9,,,,46,19,8,9,0.5,0.5
2024-11-23T0700,3319A,113.7338,23.0381,东莞市,万江金泰,,23,20,23,16,16,38,,,,10,8,5,6,0.6,0.5
2024-11-23T0700,3626A,113.7533,23.0202,东莞市,南城元岭,,22,21,23,15,16,37,,,,9,7,8,8,0.6,0.6
2024-11-23T0700,3627A,113.7875,23.0457,东莞市,东城主山,,26,22,25,18,18,23,,,,28,15,7,7,0.6,0.6
2024-11-23T0700,1666A,118.6614,37.4309,东营市,市环保局,,30,22,19,14,5,4,,,,60,28,4,4,0.2,0.2
2024-11-23T0700,3036A,118.6904,37.4338,东营市,开发区管委会,,27,23,24,7,7,10,,,,54,18,2,3,0.1,0.2
2024-11-23T0700,3365A,118.5719,37.565,东营市,垦利区民丰路,,22,22,18,3,4,28,,,,31,20,6,6,0.5,0.3
2024-11-23T0700,3498A,118.5055,37.8612,东营市,河口城区,,19,19,27,7,7,44,,,,20,20,1,1,0.5,0.4
2024-11-23T0700,3646A,118.4978,37.4623,东营市,胜利站,,31,25,28,14,7,6,,,,61,26,6,4,0.5,0.5
2024-11-23T0700,3734A,118.35,37.26,东营市,理想之城,,34,34,26,22,12,7,,,,56,33,4,4,0.5,0.4
2024-11-23T0700,1591A,110.0023,39.8129,鄂尔多斯市,综合楼,细颗粒物(PM2.5),79,97,86,58,44,20,,,,53,48,12,14,0.9,0.8
2024-11-23T0700,1592A,109.9486,39.8261,鄂尔多斯市,巴音孟克林场办事处,"颗粒物(PM10),细颗粒物(PM2.5)",67,83,81,48,43,20,,,,54,51,12,16,0.9,0.8
2024-11-23T0700,1593A,109.7736,39.5986,鄂尔多斯市,康泽苑,细颗粒物(PM2.5),64,68,89,46,46,23,,,,43,55,8,13,1.1,1.1
2024-11-23T0700,1594A,109.8119,39.5989,鄂尔多斯市,华泰汽车城,颗粒物(PM10),75,100,102,46,49,13,,,,52,54,9,13,1.0,0.9
2024-11-23T0700,1595A,109.9734,39.7884,鄂尔多斯市,奥林花园,颗粒物(PM10),81,112,104,58,52,7,,,,65,58,11,12,1.1,1
2024-11-23T0700,2436A,114.8938,30.3994,鄂州市,市政府,细颗粒物(PM2.5),70,56,70,51,48,61,,,,28,43,7,8,0.9,1
2024-11-23T0700,2437A,114.8989,30.3714,鄂州市,赵家坝,细颗粒物(PM2.5),80,89,69,59,50,44,,,,34,38,8,7,0.7,0.7
2024-11-23T0700,3654A,114.8094,30.4089,鄂州市,精准医疗中心,细颗粒物(PM2.5),67,61,79,48,53,66,,,,24,39,8,10,0.6,0.8
2024-11-23T0700,2454A,109.4978,30.2981,恩施土家族苗族自治州,湖北民院,,28,22,31,19,19,24,,,,10,14,6,6,0.4,0.5
2024-11-23T0700,2455A,109.4707,30.2798,恩施土家族苗族自治州,州电力总公司,,29,23,30,20,18,18,,,,18,19,7,7,0.5,0.5
2024-11-23T0700,3549A,109.5061,30.3772,恩施土家族苗族自治州,龙凤新区,,22,22,25,15,14,28,,,,7,13,6,6,0.4,0.5
2024-11-23T0700,2499A,108.3411,21.6158,防城港市,沙万,,49,35,33,34,26,52,,,,15,13,8,6,0.5,0.4
2024-11-23T0700,2500A,108.3514,21.7731,防城港市,防城档案局,颗粒物(PM10),58,65,58,31,28,38,,,,24,23,8,6,0.6,0.5
2024-11-23T0700,2501A,108.3506,21.6414,防城港市,大海花园,,42,41,37,29,25,50,,,,16,13,6,5,0.6,0.5
2024-11-23T0700,1371A,113.1294,23.0067,佛山市,湾梁,,27,27,28,16,17,40,,,,24,23,6,7,0.7,0.7
2024-11-23T0700,1372A,113.1083,23.0478,佛山市,华材职中,,25,24,27,17,20,30,,,,31,24,7,8,0.6,0.6
2024-11-23T0700,1373A,113.144,23.0453,佛山市,南海气象局,,28,28,27,16,18,37,,,,21,21,8,8,0.5,0.5
2024-11-23T0700,1374A,113.2881,22.8094,佛山市,顺德苏岗,,22,22,24,12,14,36,,,,17,19,7,7,0.6,0.6
2024-11-23T0700,1376A,112.8383,22.8678,佛山市,高明孔堂,,26,26,32,18,20,45,,,,12,17,6,7,0.6,0.6
2024-11-23T0700,1377A,112.8836,23.1588,佛山市,三水监测站,,30,22,23,21,20,43,,,,18,19,4,5,0.5,0.5
2024-11-23T0700,1378A,112.867,23.185,佛山市,三水云东海,,36,33,22,25,21,41,,,,16,17,8,8,0.5,0.5
2024-11-23T0700,3625A,113.2544,22.7642,佛山市,容桂街道办,,25,,22,17,16,34,,,,22,22,7,7,0.7,0.7
2024-11-23T0700,1280A,119.3903,26.0543,福州市,鼓山,,,,27,,12,,,46,,,10,,2,,0.6
2024-11-23T0700,1282A,119.2681,26.0504,福州市,师大,,30,30,26,20,14,71,,,,10,12,3,4,0.4,0.4
2024-11-23T0700,1283A,119.2984,26.1028,福州市,五四北路,,34,34,23,18,12,68,,,,13,12,1,2,0.4,0.4
2024-11-23T0700,1284A,119.2648,26.0768,福州市,杨桥西路,,34,34,25,18,12,73,,,,9,10,1,2,0.4,0.4
2024-11-23T0700,1285A,119.317,26.0746,福州市,紫阳,,38,38,29,21,15,74,,,,11,13,2,2,0.5,0.5
2024-11-23T0700,3048A,119.5799,26.0936,福州市,九龙,,30,30,23,20,15,66,,,,6,10,3,3,0.4,0.4
2024-11-23T0700,3526A,119.5189,25.9664,福州市,吴航,,34,34,24,22,17,71,,,,13,13,5,5,0.4,0.4
2024-11-23T0700,1755A,123.7977,41.8491,抚顺市,望花区,细颗粒物(PM2.5),59,58,51,42,35,10,,,,36,23,11,10,0.8,0.7
2024-11-23T0700,1756A,123.9161,41.8822,抚顺市,顺城区,颗粒物(PM10),61,72,63,43,41,10,,,,36,33,8,7,0.5,0.5
2024-11-23T0700,1757A,124.0436,41.8611,抚顺市,东洲区,细颗粒物(PM2.5),52,46,40,36,29,5,,,,28,20,9,7,0.6,0.5
2024-11-23T0700,1758A,123.9247,41.8642,抚顺市,新抚区,细颗粒物(PM2.5),67,56,59,48,42,5,,,,33,27,6,5,0.3,0.2
2024-11-23T0700,1759A,124.0972,41.8961,抚顺市,大伙房水库,细颗粒物(PM2.5),53,48,34,37,28,23,,,,18,14,10,8,0.5,0.4
2024-11-23T0700,1760A,123.7086,41.8391,抚顺市,沈抚新城,细颗粒物(PM2.5),73,,41,53,34,8,,,,33,23,6,6,0.5,0.5
2024-11-23T0700,2376A,116.2127,28.0814,抚州市,桐源党溪,颗粒物(PM10),55,60,44,29,23,28,,,,5,6,5,6,0.8,0.7
2024-11-23T0700,2377A,116.3544,27.9831,抚州市,市站,颗粒物(PM10),51,51,43,32,24,51,,,,17,16,2,4,1.0,0.8
2024-11-23T0700,2378A,116.3565,27.963,抚州市,血防站,颗粒物(PM10),54,57,46,28,24,48,,,,11,7,2,13,1.0,1
2024-11-23T0700,2379A,116.3564,28.0007,抚州市,采茶剧团,细颗粒物(PM2.5),54,53,47,38,25,48,,,,11,11,5,7,0.8,0.8
2024-11-23T0700,2380A,116.385,27.9647,抚州市,医学分院,颗粒物(PM10),52,54,42,33,22,47,,,,14,12,12,7,0.8,0.8
2024-11-23T0700,2207A,121.6094,41.998,阜新市,工业园区,颗粒物(PM10),53,55,68,34,32,4,,,,25,25,11,17,0.6,0.7
2024-11-23T0700,2208A,121.6697,42.0279,阜新市,长青街,颗粒物(PM10),52,54,42,31,25,12,,,,25,24,23,31,1.2,0.7
2024-11-23T0700,2209A,121.6673,42.0705,阜新市,农业园区,细颗粒物(PM2.5),64,53,30,46,21,40,,,,20,17,30,35,0.8,0.6
2024-11-23T0700,2210A,121.6717,42.0224,阜新市,东苑,颗粒物(PM10),57,63,49,35,26,14,,,,36,28,29,36,1.7,0.7
2024-11-23T0700,2211A,121.6506,42.0498,阜新市,玉龙新城,颗粒物(PM10),68,85,47,37,24,8,,,,36,33,8,11,1.8,1.2
2024-11-23T0700,2301A,115.8277,32.8929,阜阳市,市监测站,颗粒物(PM10),53,55,89,36,70,21,,,,29,31,6,7,0.5,0.7
2024-11-23T0700,2303A,115.8554,32.8605,阜阳市,开发区,细颗粒物(PM2.5),62,63,112,44,74,13,,,,31,35,6,8,0.5,0.8
2024-11-23T0700,2875A,115.784,32.8892,阜阳市,阜阳职业技术学院,,48,45,87,33,68,24,,,,24,27,6,7,0.4,0.7
2024-11-23T0700,3468A,115.7901,32.8613,阜阳市,市规划展馆,,48,48,74,25,59,25,,,,29,27,7,8,0.3,0.5
2024-11-23T0700,3469A,115.836,32.9183,阜阳市,枣园社区,颗粒物(PM10),52,54,97,22,65,19,,,,34,38,6,8,0.3,0.6
2024-11-23T0700,2669A,102.9099,34.9841,甘南藏族自治州,州政府,,18,18,20,10,11,9,,,,30,27,3,4,0.9,0.7
2024-11-23T0700,3380A,102.8914,34.9617,甘南藏族自治州,甘肃民族师范学院,,18,15,27,3,10,5,,,,35,33,4,6,0.8,0.4
2024-11-23T0700,2570A,101.9603,30.0475,甘孜藏族自治州,水桥子,,9,7,10,3,6,26,,,,14,13,6,7,0.4,0.3
2024-11-23T0700,3065A,101.9533,29.9972,甘孜藏族自治州,州环保局,,10,,11,3,6,29,,,,13,14,3,4,0.3,0.3
2024-11-23T0700,3414A,115.8347,28.932,赣江新区,桑海产业园,细颗粒物(PM2.5),113,110,69,85,48,54,,,,28,24,12,10,0.5,0.4
2024-11-23T0700,2362A,114.9017,25.9149,赣州市,通天岩,,38,37,34,26,27,16,,,,5,7,1,3,0.2,0.2
2024-11-23T0700,2363A,114.9367,25.8664,赣州市,地委,颗粒物(PM10),55,59,39,22,21,42,,,,13,13,9,8,0.8,0.8
2024-11-23T0700,2364A,114.9461,25.8481,赣州市,气象台,,49,49,44,23,20,32,,,,26,22,29,9,0.7,0.6
2024-11-23T0700,2365A,114.9322,25.8333,赣州市,市图书馆,,37,37,37,25,23,41,,,,14,17,8,6,0.6,0.6
2024-11-23T0700,2366A,114.8905,25.8471,赣州市,华坚鞋城,,33,33,38,15,21,37,,,,12,16,6,6,0.4,0.4
2024-11-23T0700,3109A,115.0093,25.8613,赣州市,赣县区卫计委,,48,48,36,31,25,28,,,,17,15,7,6,0.6,0.6
2024-11-23T0700,2683A,106.2319,36.1417,固原市,马园,,40,38,48,28,32,24,,,,25,30,5,6,1.0,1
2024-11-23T0700,2684A,106.2792,36.0022,固原市,监测站,,32,,36,22,33,33,,,,14,16,4,5,0.6,0.6
2024-11-23T0700,2685A,106.2375,36.0211,固原市,新区,,30,,37,21,28,34,,,,11,17,2,3,0.5,0.5
2024-11-23T0700,3522A,106.2177,35.9959,固原市,原州区十五小,,36,32,51,25,32,35,,,,15,21,4,5,1.1,1.1
2024-11-23T0700,2543A,106.6308,30.5278,广安市,小平旧居,,,,,,,,,,,,,,,,
2024-11-23T0700,2544A,106.6303,30.4576,广安市,市委,,41,41,45,21,26,19,,,,18,24,2,3,0.6,0.6
2024-11-23T0700,2545A,106.6271,30.4663,广安市,友谊中学,,30,28,36,21,25,16,,,,18,23,2,3,0.6,0.7
2024-11-23T0700,2547A,106.6388,30.4551,广安市,广电花园,,35,30,40,24,24,20,,,,16,25,2,4,0.6,0.7
2024-11-23T0700,2902A,106.6351,30.4865,广安市,北辰小学,,38,29,38,26,24,16,,,,16,20,5,5,0.6,0.6
2024-11-23T0700,2523A,105.8945,32.4535,广元市,黑石坡,,29,27,24,20,16,12,,,,9,13,5,5,0.6,0.5
2024-11-23T0700,2524A,105.821,32.4444,广元市,老城,,29,29,34,16,19,3,,,,29,27,1,2,0.6,0.7
2024-11-23T0700,2526A,105.8628,32.4287,广元市,监测站,,23,22,27,16,20,8,,,,21,24,7,8,0.5,0.6
2024-11-23T0700,3617A,105.8047,32.4166,广元市,经开区,,43,43,50,29,28,4,,,,35,22,5,9,0.6,0.6
2024-11-23T0700,1345A,113.2347,23.1423,广州市,广雅中学,,37,37,38,22,22,32,,,,28,25,6,6,0.5,0.5
2024-11-23T0700,1346A,113.2612,23.105,广州市,市五中,,30,28,29,21,22,42,,,,14,14,4,4,0.7,0.7
2024-11-23T0700,1348A,113.3478,23.0916,广州市,广东商学院,,28,28,26,19,18,44,,,,10,13,3,3,0.4,0.4
2024-11-23T0700,1349A,113.4332,23.1047,广州市,市八十六中,,34,34,41,23,22,38,,,,15,14,5,5,0.6,0.6
2024-11-23T0700,1350A,113.3505,22.9483,广州市,番禺中学,,30,30,29,20,18,38,,,,22,19,6,6,0.6,0.6
2024-11-23T0700,1351A,113.2146,23.3916,广州市,花都师范,,32,30,29,22,20,47,,,,13,14,8,6,0.4,0.4
2024-11-23T0700,1352A,113.2597,23.1331,广州市,市监测站,,32,32,29,22,19,34,,,,15,10,5,5,0.5,0.5
2024-11-23T0700,1353A,113.5618,23.312,广州市,九龙镇镇龙,,25,20,22,17,17,40,,,,9,10,5,5,0.6,0.6
2024-11-23T0700,1354A,113.2765,23.1544,广州市,麓湖,,33,30,30,23,21,17,,,,37,20,4,4,0.6,0.5
2024-11-23T0700,1355A,113.443,23.3035,广州市,帽峰山森林公园,,23,22,18,16,14,42,,,,12,11,4,4,0.7,0.7
2024-11-23T0700,2846A,113.3221,23.1322,广州市,体育西,,30,29,30,21,20,38,,,,10,10,3,3,0.6,0.6
2024-11-23T0700,3298A,113.5717,23.5491,广州市,从化街口,,28,25,24,19,18,50,,,,8,8,5,5,0.6,0.6
2024-11-23T0700,3299A,113.3472,23.3692,广州市,白云竹料,,35,29,28,24,21,45,,,,16,13,6,6,0.6,0.6
2024-11-23T0700,3300A,113.2981,23.237,广州市,白云嘉禾,,33,33,33,23,20,41,,,,20,19,6,6,0.6,0.6
2024-11-23T0700,3301A,113.4256,23.1716,广州市,黄埔科学城,,30,25,24,21,19,42,,,,12,13,7,6,0.7,0.7
2024-11-23T0700,3302A,113.3942,23.0483,广州市,番禺大学城,,29,28,28,20,17,35,,,,23,18,8,8,0.4,0.4
2024-11-23T0700,3303A,113.4922,22.8168,广州市,南沙黄阁,,28,26,32,19,20,32,,,,29,25,8,8,0.6,0.6
2024-11-23T0700,3304A,113.5342,22.7896,广州市,南沙街,,27,27,30,18,19,30,,,,26,21,8,7,0.5,0.5
2024-11-23T0700,3443A,113.2902,23.5544,广州市,花都梯面,,35,29,25,24,20,44,,,,10,8,12,8,0.7,0.6
2024-11-23T0700,3445A,113.7858,23.7478,广州市,从化良口,,26,21,20,18,16,47,,,,7,7,5,5,0.6,0.6
2024-11-23T0700,3446A,113.8051,23.2614,广州市,增城荔城,,23,22,22,16,16,46,,,,10,9,6,7,0.7,0.7
2024-11-23T0700,2505A,109.568,23.1478,贵港市,德智高中,,,,,,,,,,,,,,,,
2024-11-23T0700,2506A,109.6047,23.0666,贵港市,江南子站,,48,48,41,33,26,31,,,,24,15,11,8,1.0,0.7
2024-11-23T0700,2507A,109.6014,23.0948,贵港市,贵城子站,细颗粒物(PM2.5),52,,38,36,26,34,,,,17,14,8,8,0.8,0.7
2024-11-23T0700,2508A,109.5669,23.1065,贵港市,荷城子站,,39,39,39,14,18,39,,,,15,14,12,12,0.6,0.5
2024-11-23T0700,3405A,109.5886,23.1172,贵港市,新世纪学校,,41,41,38,21,22,30,,,,15,12,9,10,0.6,0.6
2024-11-23T0700,1439A,106.6899,26.5998,贵阳市,马鞍山,,19,19,23,12,14,29,,,,10,12,5,6,0.5,0.6
2024-11-23T0700,1440A,106.6971,26.5694,贵阳市,市环保站,,30,,33,21,23,33,,,,9,16,4,6,0.6,0.7
2024-11-23T0700,1441A,106.6243,26.6266,贵阳市,鉴湖路,,32,27,28,22,18,22,,,,11,11,4,5,0.4,0.5
2024-11-23T0700,1442A,106.7487,26.6343,贵阳市,燕子冲,,28,,16,19,19,41,,,,6,8,6,4,0.3,0.5
2024-11-23T0700,1443A,106.6555,26.4365,贵阳市,碧云窝,,22,22,33,9,17,23,,,,13,18,7,9,0.4,0.5
2024-11-23T0700,1444A,106.694,26.5161,贵阳市,中院村,,20,14,27,14,17,30,,,,12,15,5,6,0.6,0.7
2024-11-23T0700,1445A,106.7109,26.6027,贵阳市,红边门,,29,29,25,17,20,35,,,,10,13,8,9,0.3,0.4
2024-11-23T0700,1446A,106.7164,26.5699,贵阳市,新华路,,20,17,22,14,16,34,,,,10,12,2,7,0.4,0.5
2024-11-23T0700,1447A,106.674,26.5424,贵阳市,太慈桥,,18,14,22,12,17,29,,,,9,14,4,6,0.3,0.4
2024-11-23T0700,1552A,106.805,26.3003,贵阳市,桐木岭,,31,31,34,15,23,37,,,,4,6,6,7,0.9,0.9
2024-11-23T0700,1862A,110.4144,25.3167,桂林市,电子科大尧山校区,,29,22,28,20,21,48,,,,9,9,3,5,0.6,0.6
2024-11-23T0700,1863A,110.2819,25.2697,桂林市,监测站,,30,26,35,21,30,46,,,,11,12,11,11,0.6,0.6
2024-11-23T0700,1864A,110.3089,25.2708,桂林市,龙隐路小学,,46,,31,32,30,50,,,,10,10,34,15,0.7,0.7
2024-11-23T0700,1865A,110.2869,25.2178,桂林市,八中,,38,26,33,26,30,43,,,,12,12,23,12,0.6,0.6
2024-11-23T0700,3403A,110.1764,25.2381,桂林市,创业大厦,,35,27,35,24,31,48,,,,8,10,7,9,0.7,0.6
2024-11-23T0700,3531A,110.296,25.1253,桂林市,旅游学院,,35,,30,24,25,43,,,,13,10,8,10,0.9,0.8
2024-11-23T0700,2674A,100.2561,34.4714,果洛藏族自治州,玛沁县大武镇,,22,22,24,15,10,37,,,,6,5,12,11,0.6,0.5
2024-11-23T0700,1129A,126.5422,45.755,哈尔滨市,岭北,细颗粒物(PM2.5),83,99,42,61,30,14,,,,38,25,2,3,0.4,0.3
2024-11-23T0700,1130A,126.561,45.8167,哈尔滨市,松北商大,细颗粒物(PM2.5),62,65,45,44,32,8,,,,39,27,8,8,0.7,0.5
2024-11-23T0700,1131A,126.979,45.5419,哈尔滨市,阿城会宁,细颗粒物(PM2.5),59,59,63,42,37,4,,,,24,22,9,8,0.7,0.7
2024-11-23T0700,1132A,126.599,45.7222,哈尔滨市,南岗学府路,颗粒物(PM10),90,130,58,65,30,6,,,,47,27,9,11,1.2,0.6
2024-11-23T0700,1133A,126.689,45.7733,哈尔滨市,太平宏伟公园,颗粒物(PM10),99,148,70,72,39,4,,,,40,30,14,10,1.4,0.8
2024-11-23T0700,1134A,126.635,45.7667,哈尔滨市,道外承德广场,细颗粒物(PM2.5),83,88,43,61,25,7,,,,43,27,12,12,1.7,0.7
2024-11-23T0700,1135A,126.685,45.7319,哈尔滨市,香坊红旗大街,细颗粒物(PM2.5),125,175,71,95,45,9,,,,34,23,22,12,1.9,0.9
2024-11-23T0700,1136A,126.6411,45.7258,哈尔滨市,动力和平路,细颗粒物(PM2.5),129,145,48,98,30,3,,,,45,28,12,12,1.8,0.6
2024-11-23T0700,1137A,126.593,45.7478,哈尔滨市,道里建国路,细颗粒物(PM2.5),84,73,41,62,32,6,,,,38,27,3,3,1.4,0.8
2024-11-23T0700,1138A,126.615,45.61,哈尔滨市,平房东轻厂,细颗粒物(PM2.5),57,57,57,40,37,6,,,,34,33,10,13,0.7,0.6
2024-11-23T0700,1139A,126.595,45.9855,哈尔滨市,呼兰师专,细颗粒物(PM2.5),120,104,66,91,53,11,,,,43,27,6,7,1.1,0.7
2024-11-23T0700,1140A,126.6206,45.6842,哈尔滨市,省农科院,细颗粒物(PM2.5),156,209,73,119,46,8,,,,65,31,15,13,2.1,0.9
2024-11-23T0700,2688A,93.5128,42.8172,哈密市,地区监测站,颗粒物(PM10),138,225,130,59,42,1,,,,56,51,8,9,0.9,0.9
2024-11-23T0700,2689A,93.4961,42.8328,哈密市,哈密师范学校,颗粒物(PM10),100,150,109,47,40,2,,,,63,53,8,10,1.1,1.2
2024-11-23T0700,2671A,100.9048,36.9639,海北藏族自治州,海晏县西海镇,,14,13,15,8,12,43,,,,4,8,12,11,0.4,0.3
2024-11-23T0700,3867A,102.0738,36.5056,海东市,平安区公安北苑,细颗粒物(PM2.5),62,72,58,44,35,19,,,,23,27,5,10,0.8,0.9
2024-11-23T0700,1409A,110.576,19.9507,海口市,东寨港,,30,30,25,17,14,46,,,,5,5,10,11,0.5,0.5
2024-11-23T0700,1410A,110.3232,20.0574,海口市,海南大学,,32,32,30,20,19,52,,,,10,9,6,5,0.5,0.4
2024-11-23T0700,1411A,110.283,20.0053,海口市,秀英海南医院,,31,31,31,19,19,56,,,,11,11,4,5,0.4,0.4
2024-11-23T0700,1412A,110.338,19.9969,海口市,海南师范大学,,36,36,41,22,20,57,,,,8,7,6,6,0.4,0.4
2024-11-23T0700,1413A,110.33,20.0356,海口市,龙华路环保局宿舍,,31,31,29,19,18,53,,,,9,9,5,5,0.4,0.4
2024-11-23T0700,3539A,110.5111,19.9736,海口市,桂林洋子站,,32,32,29,20,18,55,,,,4,4,6,6,0.4,0.4
2024-11-23T0700,2673A,100.6188,36.2866,海南藏族自治州,共和县恰卜恰镇,,28,28,35,12,18,15,,,,34,28,15,16,0.6,0.6
2024-11-23T0700,2676A,97.3731,37.3753,海西蒙古族藏族自治州,德令哈市,,27,16,21,14,10,85,,,,1,8,10,12,0.4,0.4
2024-11-23T0700,1048A,114.5302,36.6116,邯郸市,东污水处理厂,细颗粒物(PM2.5),92,83,89,68,64,3,,,,56,53,6,7,0.7,0.8
2024-11-23T0700,1049A,114.4918,36.5713,邯郸市,矿院,细颗粒物(PM2.5),94,98,93,70,63,1,,,,52,54,2,3,0.7,0.5
2024-11-23T0700,1050A,114.484,36.6133,邯郸市,丛台公园,细颗粒物(PM2.5),90,98,82,67,58,3,,,,54,53,4,4,1.0,0.7
2024-11-23T0700,3458A,114.7895,36.5593,邯郸市,香泉濮院小区,细颗粒物(PM2.5),82,85,93,60,57,1,,,,65,54,6,7,0.5,0.5
2024-11-23T0700,3579A,114.50634,36.77178,邯郸市,永年区实验高中,细颗粒物(PM2.5),92,118,125,68,65,1,,,,32,45,5,6,1.2,0.6
2024-11-23T0700,3580A,114.20016,36.44293,邯郸市,峰峰矿区临水派出所,细颗粒物(PM2.5),97,87,67,72,57,34,,,,28,26,10,8,0.3,0.3
2024-11-23T0700,2634A,106.9893,33.1842,汉中市,汉川机床厂子校,,18,18,27,11,13,41,,,,10,12,6,5,0.3,0.4
2024-11-23T0700,2635A,107.0154,33.0706,汉中市,市监测站,,40,32,45,28,34,7,,,,13,20,4,5,0.9,0.9
2024-11-23T0700,2636A,107.0089,33.1138,汉中市,鑫源开发区,,40,34,46,28,35,10,,,,22,26,5,6,0.6,0.7
2024-11-23T0700,2637A,107.007,33.0323,汉中市,南郑大河坎水厂,,35,29,47,24,37,10,,,,12,21,10,9,0.9,0.9
2024-11-23T0700,1223A,120.2072,30.2111,杭州市,滨江,,22,18,92,15,74,43,,,,25,37,7,7,0.4,0.6
2024-11-23T0700,1224A,120.0633,30.2747,杭州市,西溪,,14,11,67,6,46,38,,,,28,39,7,7,0.6,0.9
2024-11-23T0700,1226A,120.3461,30.3153,杭州市,下沙,,24,15,75,11,55,18,,,,47,49,9,9,0.7,1
2024-11-23T0700,1227A,120.1269,30.2456,杭州市,卧龙桥,,29,29,116,9,48,28,,,,31,34,7,7,0.4,0.6
2024-11-23T0700,1228A,120.1903,30.2692,杭州市,浙江农大,,25,25,72,7,59,25,,,,28,33,5,5,0.4,0.7
2024-11-23T0700,1230A,120.1197,30.3119,杭州市,和睦小学,,20,,61,14,60,44,,,,32,45,6,6,0.5,0.8
2024-11-23T0700,1231A,120.3019,30.4183,杭州市,临平镇,,17,17,130,9,62,48,,,,24,34,6,7,0.4,0.8
2024-11-23T0700,1232A,120.2697,30.1819,杭州市,城厢镇,,23,23,97,10,65,36,,,,35,39,7,7,0.4,0.7
2024-11-23T0700,1233A,120.0883,30.1808,杭州市,云栖,,22,22,77,13,51,8,,,,39,41,7,7,0.5,0.7
2024-11-23T0700,3557A,119.9464,30.0494,杭州市,镇二中,,49,42,78,34,57,19,,,,38,33,8,7,0.8,0.9
2024-11-23T0700,3558A,119.7183,30.2367,杭州市,市府大楼,,23,21,82,16,59,47,,,,29,34,7,7,0.5,0.7
2024-11-23T0700,3656A,120.1556,30.2864,杭州市,消防大队,,24,24,93,11,67,42,,,,34,44,8,8,0.2,0.5
2024-11-23T0700,1270A,117.1959,31.7848,合肥市,明珠广场,,34,34,81,17,54,29,,,,34,55,6,7,0.5,0.8
2024-11-23T0700,1271A,117.3072,31.8764,合肥市,三里街,,41,41,81,14,54,24,,,,31,52,6,7,0.4,0.7
2024-11-23T0700,1272A,117.2588,31.8707,合肥市,琥珀山庄,,31,31,79,15,52,29,,,,34,47,10,10,0.5,0.8
2024-11-23T0700,1273A,117.1604,31.9052,合肥市,董铺水库,,41,41,83,14,46,36,,,,23,37,5,5,0.4,0.6
2024-11-23T0700,1274A,117.25,31.8571,合肥市,长江中路,,39,39,89,19,61,31,,,,29,42,7,7,0.6,0.8
2024-11-23T0700,1275A,117.266,31.9436,合肥市,庐阳区,,44,44,92,12,55,35,,,,28,45,5,4,0.5,0.7
2024-11-23T0700,1276A,117.336,31.8586,合肥市,瑶海区,,36,36,84,17,53,28,,,,40,55,7,8,0.7,0.9
2024-11-23T0700,1277A,117.3027,31.7964,合肥市,包河区,,44,44,89,19,55,4,,,,57,75,4,6,0.6,0.8
2024-11-23T0700,1278A,117.2776,31.7385,合肥市,滨湖新区,,31,31,75,14,43,36,,,,25,43,5,6,0.4,0.5
2024-11-23T0700,1279A,117.1318,31.8403,合肥市,高新区,,36,36,81,21,59,29,,,,32,50,3,4,0.5,0.7
2024-11-23T0700,3464A,117.3803,31.9147,合肥市,高教基地,,30,30,68,12,46,33,,,,23,38,7,7,0.3,0.6
2024-11-23T0700,3614A,79.924,37.0877,和田地区,地区环保局,颗粒物(PM10),93,135,162,59,59,44,,,,27,29,13,13,0.9,0.8
2024-11-23T0700,3615A,79.9131,37.113,和田地区,市环保局,颗粒物(PM10),52,53,120,32,44,55,,,,15,34,9,9,0.5,1.4
2024-11-23T0700,2516A,108.2011,24.715,河池市,东仁乐园,,22,22,21,9,11,38,,,,9,8,3,3,0.8,0.8
2024-11-23T0700,2517A,108.0497,24.6947,河池市,市环保站,,25,19,16,17,12,40,,,,14,10,15,9,0.4,0.4
2024-11-23T0700,2518A,108.0983,24.6989,河池市,市疾控中心,,26,22,16,18,11,36,,,,14,12,11,10,0.5,0.5
2024-11-23T0700,1696A,114.6778,23.7569,河源市,源西,,32,28,22,22,19,40,,,,13,10,5,5,0.6,0.6
2024-11-23T0700,1697A,114.6944,23.7586,河源市,东埔,,33,25,24,23,22,42,,,,14,12,4,3,0.5,0.5
2024-11-23T0700,1698A,114.6892,23.7233,河源市,老城,,32,28,24,22,19,40,,,,14,10,4,3,0.6,0.5
2024-11-23T0700,1718A,115.4208,35.2464,菏泽市,气象局,颗粒物(PM10),58,66,129,40,83,35,,,,36,58,3,6,0.4,0.8
2024-11-23T0700,1719A,115.4747,35.2375,菏泽市,市政协,细颗粒物(PM2.5),103,113,136,77,93,9,,,,53,57,6,10,0.7,0.9
2024-11-23T0700,3374A,115.5564,35.0891,菏泽市,定陶老年大学,细颗粒物(PM2.5),79,75,126,58,90,13,,,,49,55,7,8,0.5,0.8
2024-11-23T0700,3647A,115.4702,35.2706,菏泽市,菏泽医专,细颗粒物(PM2.5),87,107,126,64,77,10,,,,61,65,7,10,0.7,0.8
2024-11-23T0700,2514A,111.5264,24.4172,贺州市,环保小区,,36,34,34,25,22,31,,,,14,13,5,5,0.7,0.6
2024-11-23T0700,2515A,111.5608,24.4078,贺州市,政协大楼,,39,39,41,20,20,30,,,,12,15,6,5,0.7,1
2024-11-23T0700,3534A,111.4744,24.4553,贺州市,西湾,,39,31,29,27,23,32,,,,12,12,4,4,0.6,0.6
2024-11-23T0700,2385A,114.17,35.9019,鹤壁市,市监测站,细颗粒物(PM2.5),75,95,89,55,61,10,,,,40,39,3,7,0.1,0.4
2024-11-23T0700,2386A,114.2956,35.7511,鹤壁市,市交警支队,颗粒物(PM10),70,90,94,44,57,0,,,,67,59,6,6,0.5,0.8
2024-11-23T0700,2387A,114.2878,35.7306,鹤壁市,迎宾馆,细颗粒物(PM2.5),75,90,92,55,55,0,,,,31,35,3,4,0.6,0.8
2024-11-23T0700,3474A,114.2617,35.6822,鹤壁市,大新区,细颗粒物(PM2.5),70,,73,51,62,0,,,,29,30,1,5,0.6,0.8
2024-11-23T0700,3596A,114.1572,35.9603,鹤壁市,南山宾馆,细颗粒物(PM2.5),119,119,90,90,58,30,,,,35,24,19,11,0.5,0.7
2024-11-23T0700,2244A,130.2537,47.3416,鹤岗市,哈啤分公司,,19,17,18,13,16,36,,,,7,4,12,12,0.4,0.4
2024-11-23T0700,2245A,130.2684,47.3086,鹤岗市,斯达机电,,28,19,18,19,15,43,,,,9,8,13,13,0.1,0.1
2024-11-23T0700,2246A,130.3114,47.3388,鹤岗市,东山纸板厂,颗粒物(PM10),52,53,23,15,18,9,,,,33,9,14,14,0.7,0.3
2024-11-23T0700,2247A,130.1097,47.3382,鹤岗市,五号水库,,16,14,14,11,10,35,,,,4,4,8,8,0.5,0.5
2024-11-23T0700,2263A,127.4833,50.2524,黑河市,交通局,,18,15,18,12,15,35,,,,8,11,6,6,0.4,0.4
2024-11-23T0700,2264A,127.5144,50.2341,黑河市,环保局,,29,24,30,20,18,20,,,,17,19,5,4,0.4,0.4
2024-11-23T0700,2265A,127.5291,50.2472,黑河市,大黑河岛,,25,,12,17,15,28,,,,9,11,2,2,0.6,0.6
2024-11-23T0700,1074A,115.6838,37.7541,衡水市,电机北厂,细颗粒物(PM2.5),65,63,59,47,35,12,,,,38,40,8,8,0.5,0.5
2024-11-23T0700,1075A,115.6303,37.7316,衡水市,市监测站,颗粒物(PM10),54,57,56,32,30,15,,,,43,47,6,6,0.5,0.5
2024-11-23T0700,3188A,115.6683,37.7217,衡水市,市城管局,,42,42,54,29,31,10,,,,42,45,3,4,0.5,0.5
2024-11-23T0700,3459A,115.5989,37.5491,衡水市,地表水厂,细颗粒物(PM2.5),62,50,60,44,42,3,,,,40,52,5,8,0.6,0.5
2024-11-23T0700,2456A,112.5003,26.9167,衡阳市,原169医院,颗粒物(PM10),52,53,41,30,26,9,,,,27,18,9,11,0.5,0.5
2024-11-23T0700,2457A,112.6194,26.9258,衡阳市,衡阳化工总厂,细颗粒物(PM2.5),83,62,54,61,47,14,,,,26,24,12,10,0.7,0.7
2024-11-23T0700,2458A,112.6211,26.8956,衡阳市,珠晖区环保局,细颗粒物(PM2.5),103,,50,77,51,15,,,,23,19,11,11,0.8,0.7
2024-11-23T0700,2459A,112.6197,26.8733,衡阳市,市委党校,细颗粒物(PM2.5),69,70,50,50,36,21,,,,25,22,16,16,0.8,0.8
2024-11-23T0700,2460A,112.6006,26.8919,衡阳市,市监测站,颗粒物(PM10),57,64,63,37,42,21,,,,20,19,15,13,0.8,0.7
2024-11-23T0700,2461A,112.5664,26.9056,衡阳市,真空机电公司,细颗粒物(PM2.5),90,,44,67,51,16,,,,20,19,6,6,0.8,0.7
2024-11-23T0700,3399A,112.6703,26.882,衡阳市,师范学院,细颗粒物(PM2.5),79,75,56,58,42,17,,,,23,17,14,11,0.7,0.7
2024-11-23T0700,2608A,103.3772,23.3993,红河哈尼族彝族自治州,污水处理厂,,43,36,32,30,31,66,,,,7,9,4,5,0.5,0.6
2024-11-23T0700,2609A,103.3861,23.35,红河哈尼族彝族自治州,监测站,细颗粒物(PM2.5),57,,38,40,32,70,,,,10,11,6,9,0.5,0.5
2024-11-23T0700,3038A,103.3758,23.368,红河哈尼族彝族自治州,州图书馆,,39,28,29,27,26,63,,,,12,10,6,6,0.4,0.5
2024-11-23T0700,1090A,111.6507,40.7517,呼和浩特市,呼市一监,颗粒物(PM10),52,53,49,33,25,6,,,,54,47,12,11,1.1,0.8
2024-11-23T0700,1091A,111.6572,40.8033,呼和浩特市,小召,,44,44,52,26,26,6,,,,59,55,10,12,0.6,0.9
2024-11-23T0700,1094A,111.7516,40.8369,呼和浩特市,如意水处理厂,,49,49,50,25,22,1,,,,51,52,8,10,0.5,0.5
2024-11-23T0700,1095A,111.7276,40.8062,呼和浩特市,二十九中,,42,40,45,29,26,5,,,,51,49,10,9,0.9,0.8
2024-11-23T0700,1096A,111.5512,40.7866,呼和浩特市,工大金川校区,,50,50,56,23,27,2,,,,54,51,7,9,0.6,0.6
2024-11-23T0700,1097A,111.717,40.7612,呼和浩特市,化肥厂生活区,,49,49,53,26,27,3,,,,52,48,11,11,1.2,0.9
2024-11-23T0700,3698A,111.5968,40.8178,呼和浩特市,红旗小学,,46,46,61,31,29,2,,,,58,54,6,10,0.7,0.8
2024-11-23T0700,3699A,111.6518,40.8389,呼和浩特市,海东办,,43,41,61,30,34,3,,,,57,54,10,12,0.9,1
2024-11-23T0700,2192A,119.7594,49.2261,呼伦贝尔市,区环保局,,26,20,28,18,20,35,,,,18,24,8,9,0.4,0.4
2024-11-23T0700,3061A,119.7512,49.1577,呼伦贝尔市,国华电力东,,16,11,25,11,18,31,,,,16,18,5,4,0.3,0.3
2024-11-23T0700,1250A,120.0751,30.8669,湖州市,城西水厂,,16,10,73,3,47,48,,,,31,42,6,7,0.5,0.6
2024-11-23T0700,2873A,120.0875,30.8955,湖州市,仁皇山新区,,18,9,64,3,48,57,,,,22,32,7,8,0.5,0.7
2024-11-23T0700,2907A,120.1844,30.8596,湖州市,吴兴区站,,19,12,78,6,52,36,,,,38,39,8,8,0.5,0.7
2024-11-23T0700,3562A,120.4148,30.8538,湖州市,南浔区站,,15,10,65,6,51,40,,,,29,31,5,6,0.3,0.5
2024-11-23T0700,1607A,120.9092,40.7136,葫芦岛市,龙港区,颗粒物(PM10),54,58,50,34,27,13,,,,50,36,43,27,1.0,0.7
2024-11-23T0700,1608A,120.8392,40.7514,葫芦岛市,化工街,颗粒物(PM10),53,56,44,36,24,12,,,,40,29,27,20,0.8,0.6
2024-11-23T0700,1609A,120.8341,40.7073,葫芦岛市,新区,,35,31,36,24,26,33,,,,26,30,24,17,0.7,0.6
2024-11-23T0700,1610A,120.8695,40.7677,葫芦岛市,东城区,,33,26,34,23,23,25,,,,29,28,26,17,0.8,0.6
2024-11-23T0700,2482A,109.5981,27.5721,怀化市,林科所,,43,30,21,30,19,40,,,,11,11,15,14,0.6,0.6
2024-11-23T0700,2483A,109.9453,27.5444,怀化市,河西地税局,细颗粒物(PM2.5),52,49,40,36,27,40,,,,16,19,17,16,0.4,0.5
2024-11-23T0700,2484A,109.9781,27.5342,怀化市,市四医院,细颗粒物(PM2.5),59,,37,42,29,33,,,,13,14,22,18,0.7,0.7
2024-11-23T0700,2485A,109.9972,27.5578,怀化市,监测楼,,50,50,38,29,24,31,,,,16,17,17,11,0.6,0.5
2024-11-23T0700,2486A,110.0394,27.583,怀化市,市委党校,,46,46,36,32,24,39,,,,10,15,11,10,0.5,0.5
2024-11-23T0700,1210A,119.036,33.5981,淮安市,钵池山,,41,41,48,22,36,14,,,,56,35,6,6,0.5,0.5
2024-11-23T0700,1211A,119.007,33.575,淮安市,北京南路,,44,44,47,21,33,15,,,,46,28,7,7,0.6,0.5
2024-11-23T0700,1212A,118.989,33.6067,淮安市,市监测站,,44,44,45,29,31,11,,,,53,31,4,5,0.7,0.7
2024-11-23T0700,1213A,119.135,33.5039,淮安市,楚州区监测站,颗粒物(PM10),51,51,55,22,35,23,,,,47,29,6,6,0.5,0.5
2024-11-23T0700,1214A,119.0186,33.6297,淮安市,淮阴区监测站,颗粒物(PM10),51,51,54,24,38,10,,,,60,40,6,6,0.6,0.5
2024-11-23T0700,3426A,118.8755,33.2894,淮安市,新华书店,,45,45,59,24,34,25,,,,48,35,10,8,0.7,0.5
2024-11-23T0700,2282A,116.8004,33.975,淮北市,监测站,,27,27,64,14,34,37,,,,25,29,3,5,0.6,0.7
2024-11-23T0700,2283A,116.8091,33.9007,淮北市,烈山区政府,,33,33,54,19,36,51,,,,23,28,2,3,0.3,0.4
2024-11-23T0700,3330A,116.8873,33.9836,淮北市,杜集区检察院,,43,43,59,16,28,49,,,,23,22,3,4,0.4,0.5
2024-11-23T0700,4017A,116.7923,33.9535,淮北市,市博物馆,,28,28,59,12,32,45,,,,25,26,6,8,0.5,0.6
2024-11-23T0700,2277A,116.8305,32.7727,淮南市,潘集区政府,,41,41,105,18,79,34,,,,26,37,9,11,0.3,0.5
2024-11-23T0700,2278A,117.0067,32.6524,淮南市,师范学院,,34,34,101,12,72,46,,,,22,37,13,14,0.5,0.7
2024-11-23T0700,2279A,116.8569,32.5951,淮南市,谢家集区政府,,36,36,95,13,68,61,,,,13,36,9,11,0.1,0.4
2024-11-23T0700,2280A,116.8281,32.633,淮南市,八公山区政府,,46,46,99,22,70,44,,,,25,31,8,8,0.4,0.6
2024-11-23T0700,2281A,116.6325,32.6201,淮南市,焦岗湖风景区管理处,,26,22,78,18,55,34,,,,25,43,4,4,0,0.3
2024-11-23T0700,2894A,117.0566,32.6531,淮南市,经济技术开发区消防队,,43,43,100,14,67,47,,,,25,37,4,7,0.2,0.5
2024-11-23T0700,3329A,117.0108,32.5893,淮南市,山南新区,,34,34,82,11,54,59,,,,9,30,3,6,0.5,0.6
2024-11-23T0700,2446A,114.9028,30.4742,黄冈市,职工中心,细颗粒物(PM2.5),70,62,79,51,53,65,,,,18,40,8,11,0.7,0.8
2024-11-23T0700,2929A,114.8858,30.4519,黄冈市,红卫路,细颗粒物(PM2.5),67,55,72,48,48,67,,,,15,41,6,9,0.6,0.8
2024-11-23T0700,3398A,114.9136,30.4445,黄冈市,市林业局,细颗粒物(PM2.5),64,71,88,46,49,71,,,,16,40,8,11,0.7,0.7
2024-11-23T0700,2672A,102.0199,35.5102,黄南藏族自治州,同仁县隆务镇,,20,20,36,9,19,47,,,,1,9,6,5,0.3,0.5
2024-11-23T0700,2295A,118.2903,29.6963,黄山市,延安路89号,,40,32,41,28,27,13,,,,11,9,7,7,0.4,0.4
2024-11-23T0700,2296A,118.327,29.7178,黄山市,黄山东路89号,细颗粒物(PM2.5),70,69,54,51,32,34,,,,13,10,6,6,0.4,0.3
2024-11-23T0700,2297A,118.1371,30.2756,黄山市,黄山区政府5号楼,细颗粒物(PM2.5),73,,48,53,33,14,,,,10,12,7,7,0.6,0.6
2024-11-23T0700,2423A,115.0601,30.2313,黄石市,沈家营,颗粒物(PM10),65,79,60,42,35,12,,,,41,35,8,8,0.9,0.8
2024-11-23T0700,2424A,115.0817,30.2006,黄石市,陈家湾,细颗粒物(PM2.5),89,81,54,66,41,24,,,,26,25,9,9,0.7,0.8
2024-11-23T0700,2426A,114.8988,30.2019,黄石市,铁山,细颗粒物(PM2.5),107,,51,80,40,24,,,,51,28,16,9,1.1,0.8
2024-11-23T0700,2427A,115.0307,30.2092,黄石市,团城山,细颗粒物(PM2.5),70,79,59,51,36,8,,,,44,33,11,7,0.7,0.7
2024-11-23T0700,3149A,115.0235,30.1578,黄石市,笔架山北路,细颗粒物(PM2.5),74,62,50,54,36,16,,,,41,34,8,8,0.9,0.8
2024-11-23T0700,1392A,114.4183,23.0528,惠州市,河南岸金山湖子站,,28,26,23,19,16,44,,,,9,10,8,8,0.5,0.5
2024-11-23T0700,1393A,114.4053,23.0822,惠州市,下埔横江三路子站,,30,27,22,21,17,41,,,,11,9,8,6,0.4,0.4
2024-11-23T0700,1394A,114.4103,23.1142,惠州市,江北云山西路子站,,29,27,23,20,16,45,,,,10,9,8,6,0.7,0.7
2024-11-23T0700,1395A,114.4645,22.7833,惠州市,惠阳区承修路船湖子站,,32,32,29,19,16,33,,,,9,8,7,7,0.5,0.5
2024-11-23T0700,1396A,114.5317,22.7422,惠州市,大亚湾管委会子站,,24,24,21,16,16,36,,,,11,10,7,7,0.5,0.5
2024-11-23T0700,3314A,114.4338,22.8134,惠州市,惠阳秋长,,26,22,18,18,15,42,,,,9,7,5,5,0.5,0.5
2024-11-23T0700,3452A,114.6517,22.775,惠州市,大亚湾霞涌,,30,,21,21,15,38,,,,7,7,6,6,0.5,0.5
2024-11-23T0700,2240A,130.9762,45.3001,鸡西市,环保局,,19,18,24,13,18,29,,,,4,5,5,5,0.5,0.4
2024-11-23T0700,2243A,130.9429,45.3039,鸡西市,第一中学,,22,22,25,14,18,31,,,,12,10,6,6,0,0
2024-11-23T0700,3707A,131.0207,45.3073,鸡西市,欧美日汽修厂,,35,24,29,24,25,19,,,,24,15,11,11,0.7,0.6
2024-11-23T0700,3709A,130.9967,45.3106,鸡西市,市政设施管理处,,26,23,30,18,20,16,,,,25,14,4,4,0.6,0.5
2024-11-23T0700,2367A,114.9754,27.0803,吉安市,红声器材厂,颗粒物(PM10),51,51,44,31,24,33,,,,26,28,19,16,0.6,0.6
2024-11-23T0700,2368A,114.9658,27.0999,吉安市,市森林工业局,,48,47,38,33,23,32,,,,24,23,19,15,0.7,0.7
2024-11-23T0700,2369A,114.99,27.1312,吉安市,市环境监测站,,37,37,37,9,22,35,,,,28,28,16,17,0.7,0.6
2024-11-23T0700,2370A,115.0093,27.0968,吉安市,青原区法院,颗粒物(PM10),51,52,40,34,22,34,,,,32,31,14,14,0.7,0.6
2024-11-23T0700,1772A,126.54,43.8622,吉林市,哈达湾,细颗粒物(PM2.5),58,55,50,41,39,7,,,,33,29,8,12,0.7,0.7
2024-11-23T0700,1773A,126.5844,43.8358,吉林市,东局子,细颗粒物(PM2.5),58,56,52,41,37,12,,,,29,25,5,9,0.8,0.7
2024-11-23T0700,1774A,126.5052,43.8245,吉林市,电力学院,细颗粒物(PM2.5),83,87,57,61,40,6,,,,30,24,7,8,0.9,0.8
2024-11-23T0700,1775A,126.6133,43.8972,吉林市,江北,细颗粒物(PM2.5),94,91,66,70,47,11,,,,31,34,9,11,1.0,0.9
2024-11-23T0700,1776A,126.555,43.8306,吉林市,江南公园,细颗粒物(PM2.5),64,53,53,46,45,6,,,,31,31,8,11,0.7,0.7
2024-11-23T0700,1778A,126.7061,43.7133,吉林市,丰满,,,,,,,,,,,,,,,,
2024-11-23T0700,2868A,126.4739,43.953,吉林市,九站,细颗粒物(PM2.5),104,95,62,78,52,6,,,,33,31,8,11,0.9,0.7
2024-11-23T0700,1299A,116.9862,36.6114,济南市,科干所,,41,41,53,20,22,44,,,,27,40,5,7,0.9,0.9
2024-11-23T0700,1300A,116.9376,36.665,济南市,农科所,颗粒物(PM10),57,63,86,22,29,7,,,,62,64,6,9,1.1,1
2024-11-23T0700,1301A,117.1265,36.6734,济南市,开发区,,39,39,63,24,30,30,,,,32,44,5,8,0.5,0.5
2024-11-23T0700,1303A,117.0624,36.6868,济南市,省种子仓库,颗粒物(PM10),71,92,83,31,32,6,,,,57,51,5,7,1.1,0.6
2024-11-23T0700,1304A,116.9489,36.6447,济南市,机床二厂,颗粒物(PM10),70,90,88,27,38,9,,,,58,59,6,9,1.1,0.9
2024-11-23T0700,1305A,117.0495,36.663,济南市,市监测站,,44,44,66,24,28,14,,,,54,53,4,7,0.7,0.6
2024-11-23T0700,1306A,116.7675,36.5484,济南市,长清党校,,49,49,63,29,37,11,,,,60,55,7,9,0.7,0.7
2024-11-23T0700,1616A,117.6795,36.229,济南市,技术学院,,24,24,47,12,23,19,,,,40,36,6,8,0.5,0.6
2024-11-23T0700,1961A,117.532,36.6868,济南市,东山小学,,49,49,68,15,24,24,,,,40,48,5,9,0.3,0.5
2024-11-23T0700,3059A,117.7161,36.2049,济南市,泰兴公司,,34,34,53,19,26,7,,,,47,42,8,8,0.4,0.4
2024-11-23T0700,3064A,117.6867,36.2171,济南市,莱芜战役纪念馆,,36,36,55,19,24,11,,,,47,32,5,7,0.5,0.5
2024-11-23T0700,3494A,117.1673,36.9782,济南市,济阳区政府,,49,49,65,22,28,24,,,,40,35,7,12,0.5,0.6
2024-11-23T0700,3495A,117.1171,36.63,济南市,锦屏中学,,37,37,40,20,22,40,,,,28,35,6,8,0.5,0.5
2024-11-23T0700,3682A,116.9814,36.6819,济南市,济南四建,颗粒物(PM10),63,75,75,32,33,4,,,,64,58,6,8,0.9,0.7
2024-11-23T0700,1653A,116.6251,35.4302,济宁市,火炬城,颗粒物(PM10),51,51,66,31,46,10,,,,51,44,4,5,0.7,0.7
2024-11-23T0700,1655A,116.5491,35.4042,济宁市,电化厂,颗粒物(PM10),60,70,82,36,45,17,,,,49,50,10,10,0.7,0.8
2024-11-23T0700,3500A,116.5814,35.3707,济宁市,北湖一中,颗粒物(PM10),65,79,70,46,53,8,,,,53,49,4,6,0.5,0.7
2024-11-23T0700,3501A,116.8249,35.5593,济宁市,服务中心,颗粒物(PM10),65,80,82,35,40,5,,,,52,49,9,11,0.9,1
2024-11-23T0700,3678A,116.5907,35.4054,济宁市,市第七中学,颗粒物(PM10),56,62,72,27,45,9,,,,42,43,2,4,0.6,0.8
2024-11-23T0700,2255A,130.2751,46.8028,佳木斯市,佳纺,,25,20,35,17,28,10,,,,32,29,7,9,0.4,0.6
2024-11-23T0700,2256A,130.3995,46.8307,佳木斯市,发电厂,,42,38,27,29,22,4,,,,40,21,8,5,0.7,0.5
2024-11-23T0700,2257A,130.3258,46.7975,佳木斯市,环保局,,22,22,34,15,25,14,,,,31,31,12,11,0.6,0.7
2024-11-23T0700,2258A,130.3648,46.8032,佳木斯市,十一中,,30,23,27,21,24,16,,,,39,28,7,6,0.7,0.6
2024-11-23T0700,2259A,130.3794,46.7588,佳木斯市,四丰,,12,,27,8,16,35,,,,4,13,1,1,0.1,0.3
2024-11-23T0700,1252A,120.7436,30.778,嘉兴市,清河小学,,16,12,60,3,30,37,,,,31,31,9,10,0.5,0.7
2024-11-23T0700,1253A,120.726,30.7478,嘉兴市,嘉兴学院,,19,19,69,3,43,41,,,,29,34,5,6,0.3,0.6
2024-11-23T0700,2872A,120.7846,30.7525,嘉兴市,南湖区残联,,33,33,69,7,46,46,,,,27,27,7,8,0.4,0.7
2024-11-23T0700,3407A,120.6916,30.7739,嘉兴市,秀洲住建,,14,10,62,7,47,32,,,,27,25,9,10,0.3,0.5
2024-11-23T0700,1945A,98.2908,39.7711,嘉峪关市,气象局,颗粒物(PM10),62,73,76,29,32,60,,,,16,29,28,20,0.5,0.6
2024-11-23T0700,2884A,98.2672,39.7978,嘉峪关市,酒钢宾馆,颗粒物(PM10),60,70,86,24,33,40,,,,37,38,30,38,0.7,0.8
2024-11-23T0700,3248A,98.2643,39.7724,嘉峪关市,雄关区,颗粒物(PM10),57,63,67,35,32,51,,,,28,37,24,16,0.4,0.5
2024-11-23T0700,1383A,113.1064,22.6058,江门市,北街,,26,20,33,18,20,40,,,,18,23,5,5,0.7,0.7
2024-11-23T0700,1384A,113.0731,22.5835,江门市,西区,,28,28,33,13,18,37,,,,20,24,7,8,0.5,0.6
2024-11-23T0700,1385A,113.0219,22.5311,江门市,圭峰西,,26,21,32,18,21,39,,,,18,23,3,4,0.7,0.7
2024-11-23T0700,1386A,113.0828,22.5947,江门市,东湖,,27,27,33,15,18,38,,,,18,21,6,6,0.5,0.5
2024-11-23T0700,3311A,113.1075,22.5647,江门市,江海富民,,25,23,32,17,22,38,,,,22,26,6,7,0.5,0.5
2024-11-23T0700,3449A,113.05,22.4667,江门市,新会银湖,,31,31,34,19,23,32,,,,23,25,6,6,0.6,0.7
2024-11-23T0700,1828A,113.227,35.2125,焦作市,市环保局,细颗粒物(PM2.5),90,95,97,67,68,40,,,,36,37,6,10,0.6,0.5
2024-11-23T0700,1830A,113.1992,35.2590,焦作市,影视城,细颗粒物(PM2.5),94,96,84,70,62,71,,,,11,15,11,11,0.7,0.7
2024-11-23T0700,3169A,113.2725,35.2067,焦作市,太极体育中心,细颗粒物(PM2.5),78,89,98,57,61,23,,,,38,25,6,11,0.6,0.8
2024-11-23T0700,3335A,113.3137,35.2641,焦作市,马村街道办,细颗粒物(PM2.5),93,111,89,69,64,35,,,,33,29,5,8,0.7,0.7
2024-11-23T0700,3336A,113.2465,35.2373,焦作市,焦作技师学院,细颗粒物(PM2.5),100,104,96,75,61,15,,,,35,28,5,9,0.9,0.8
2024-11-23T0700,3477A,113.1656,35.2539,焦作市,中站许衡医院,细颗粒物(PM2.5),85,97,89,63,62,58,,,,30,27,9,10,0.5,0.6
2024-11-23T0700,3981A,113.2449,35.1803,焦作市,原李万街道办,细颗粒物(PM2.5),74,84,102,54,64,35,,,,29,29,10,13,0.6,0.9
2024-11-23T0700,1708A,116.3701,23.5345,揭阳市,新兴,,33,28,30,23,18,14,,,,21,16,6,6,0.5,0.5
2024-11-23T0700,1709A,116.3264,23.5443,揭阳市,西马,,30,29,29,21,17,23,,,,12,10,7,7,0.5,0.6
2024-11-23T0700,1710A,116.3611,23.5626,揭阳市,东兴,,36,36,39,22,19,9,,,,27,19,9,7,0.8,0.7
2024-11-23T0700,1711A,116.4151,23.5294,揭阳市,渔湖,,,33,35,20,19,15,,,,,20,8,7,0.5,0.6
2024-11-23T0700,3320A,116.403,23.5699,揭阳市,曲溪,,34,34,36,23,20,13,,,,25,23,1,3,0.7,0.7
2024-11-23T0700,1944A,102.1692,38.5167,金昌市,天庆家园,细颗粒物(PM2.5),77,64,82,56,63,51,,,,18,29,14,16,0.7,0.9
2024-11-23T0700,3170A,102.1864,38.5253,金昌市,市委党校,"颗粒物(PM10),细颗粒物(PM2.5)",69,88,109,50,62,38,,,,25,32,10,13,1.0,1.1
2024-11-23T0700,4022A,102.1647,38.5371,金昌市,金川区人防中心,细颗粒物(PM2.5),82,80,95,60,64,50,,,,13,22,15,19,0.8,0.8
2024-11-23T0700,1262A,119.647,29.077,金华市,十五中,细颗粒物(PM2.5),108,110,98,81,70,14,,,,49,41,4,4,0.7,0.7
2024-11-23T0700,1263A,119.686,29.1029,金华市,监测站,细颗粒物(PM2.5),125,131,96,95,67,16,,,,51,46,5,4,0.8,0.7
2024-11-23T0700,3659A,119.656,29.1131,金华市,气象局,细颗粒物(PM2.5),139,138,105,106,73,11,,,,59,53,5,4,0.9,0.8
2024-11-23T0700,1767A,121.1115,41.0879,锦州市,南山,细颗粒物(PM2.5),57,47,39,40,31,6,,,,36,24,11,19,1.4,0.7
2024-11-23T0700,1768A,121.0533,40.8434,锦州市,开发区,,,,57,,31,,,37,,,21,,17,,0.7
2024-11-23T0700,1769A,121.1836,41.1119,锦州市,百股街道,颗粒物(PM10),51,51,42,34,26,6,,,,37,28,12,12,1.2,0.9
2024-11-23T0700,1770A,121.1178,41.1222,锦州市,天安街道,颗粒物(PM10),51,51,39,34,27,11,,,,40,27,14,12,0.9,0.6
2024-11-23T0700,1771A,121.1303,41.1386,锦州市,北湖公园,,46,46,40,32,30,15,,,,26,21,10,11,0.9,0.6
2024-11-23T0700,2160A,112.85,35.5051,晋城市,自来水公司,细颗粒物(PM2.5),77,77,82,56,58,10,,,,52,38,11,11,1.1,1.2
2024-11-23T0700,2161A,112.8318,35.4936,晋城市,白云商贸,细颗粒物(PM2.5),77,78,90,56,54,18,,,,54,41,8,8,1.0,1.2
2024-11-23T0700,2162A,112.8508,35.4887,晋城市,市环保局,细颗粒物(PM2.5),83,83,91,61,58,9,,,,55,44,8,9,1.0,1.1
2024-11-23T0700,2163A,112.8676,35.4897,晋城市,技术学院,细颗粒物(PM2.5),77,78,88,56,57,10,,,,54,45,9,9,1.1,1.1
2024-11-23T0700,2165A,112.8453,35.546,晋城市,白马寺,,,,107,,70,,,,,,34,,19,,2.1
2024-11-23T0700,3620A,112.8271,35.4828,晋城市,泽州一中,细颗粒物(PM2.5),70,75,81,51,56,7,,,,60,40,5,8,0.8,1
2024-11-23T0700,2171A,112.7532,37.6945,晋中市,锦纶小区,细颗粒物(PM2.5),77,85,75,56,45,10,,,,46,41,7,10,0.6,0.6
2024-11-23T0700,2173A,112.7249,37.7067,晋中市,南都小区,细颗粒物(PM2.5),75,95,76,55,44,8,,,,53,42,6,10,0.6,0.6
2024-11-23T0700,2174A,112.6991,37.6982,晋中市,榆次区政府,颗粒物(PM10),67,83,79,46,40,9,,,,48,42,6,10,0.7,0.8
2024-11-23T0700,2865A,112.7195,37.6828,晋中市,榆次三中,颗粒物(PM10),74,97,80,53,42,7,,,,52,43,10,13,0.7,0.7
2024-11-23T0700,2439A,112.2014,31.0481,荆门市,竹园小学,细颗粒物(PM2.5),64,69,59,46,38,15,,,,40,27,10,10,0.8,0.7
2024-11-23T0700,2440A,112.1969,30.9891,荆门市,掇刀,细颗粒物(PM2.5),74,70,55,54,38,53,,,,27,31,10,11,0.7,0.6
2024-11-23T0700,2441A,112.2213,31.0386,荆门市,石化一小,细颗粒物(PM2.5),64,73,62,46,38,33,,,,24,30,7,8,0.5,0.5
2024-11-23T0700,3012A,112.1849,31.0362,荆门市,西山林语,细颗粒物(PM2.5),74,69,52,54,37,43,,,,23,21,8,8,1.1,0.5
2024-11-23T0700,3547A,112.1632,31.0138,荆门市,龙泉中学南校,细颗粒物(PM2.5),69,67,52,50,38,49,,,,19,22,8,10,0.9,0.6
2024-11-23T0700,1844A,112.2494,30.3197,荆州市,市图书馆,细颗粒物(PM2.5),73,64,60,53,48,35,,,,32,49,8,7,0.8,0.9
2024-11-23T0700,1845A,112.2008,30.3544,荆州市,市委党校,细颗粒物(PM2.5),82,64,63,60,50,9,,,,48,49,7,7,0.9,0.8
2024-11-23T0700,3194A,112.2747,30.3122,荆州市,管委会,细颗粒物(PM2.5),63,56,63,45,50,9,,,,45,47,7,8,0.9,0.9
2024-11-23T0700,3548A,112.1655,30.3364,荆州市,学苑路,细颗粒物(PM2.5),80,78,72,59,57,8,,,,44,44,10,11,0.9,0.9
2024-11-23T0700,2342A,117.3102,29.3867,景德镇市,王港中学,,,,,,,,,,,,,,,,
2024-11-23T0700,2343A,117.2117,29.2933,景德镇市,老干部活动中心,,49,36,30,34,20,56,,,,17,14,7,6,0.5,0.5
2024-11-23T0700,2344A,117.1894,29.2789,景德镇市,兽医站,,36,27,30,25,16,60,,,,10,8,7,7,0.2,0.3
2024-11-23T0700,2345A,117.1547,29.2617,景德镇市,台达陶瓷,,36,36,27,25,17,57,,,,5,6,11,12,0.6,0.5
2024-11-23T0700,2346A,117.2461,29.2956,景德镇市,陶研所,,42,30,27,29,16,23,,,,11,13,7,8,0.4,0.4
2024-11-23T0700,1803A,115.9872,29.6815,九江市,十里,,,88,58,61,42,72,,,,30,27,,8,0.7,0.7
2024-11-23T0700,1804A,115.9584,29.7046,九江市,茅山头,,,,54,,35,,,61,,,22,,11,,0.7
2024-11-23T0700,1805A,115.9877,29.7295,九江市,西园,细颗粒物(PM2.5),78,74,55,57,39,65,,,,25,21,8,8,0.5,0.5
2024-11-23T0700,1806A,116.0172,29.6547,九江市,五七二七厂,细颗粒物(PM2.5),104,101,59,78,47,73,,,,20,19,12,11,0.9,0.7
2024-11-23T0700,1808A,115.9114,29.6038,九江市,综合工业园,细颗粒物(PM2.5),127,,56,96,57,60,,,,40,30,19,15,1.2,1
2024-11-23T0700,1809A,116.0721,29.7535,九江市,石化总厂,细颗粒物(PM2.5),89,88,64,66,45,67,,,,34,29,10,10,0.8,0.7
2024-11-23T0700,1810A,115.9773,29.5698,九江市,庐山气象台,,29,18,26,14,25,78,,,,3,5,6,8,2.9,2.7
2024-11-23T0700,3190A,116.0254,29.6994,九江市,外国语学校,细颗粒物(PM2.5),90,83,59,67,44,66,,,,32,30,14,13,0.4,0.4
2024-11-23T0700,2658A,98.5061,39.7443,酒泉市,仓门街子站,颗粒物(PM10),64,78,90,33,35,44,,,,22,35,20,24,0.6,0.7
2024-11-23T0700,2659A,98.4989,39.7256,酒泉市,油田生活基地,颗粒物(PM10),69,88,104,40,44,42,,,,26,34,21,23,0.6,0.7
2024-11-23T0700,2698A,76.0072,39.4467,喀什地区,巡警大队,颗粒物(PM10),83,116,137,33,43,3,,,,59,56,2,4,1.9,1.6
2024-11-23T0700,2699A,75.9755,39.4694,喀什地区,吾办,颗粒物(PM10),89,127,144,59,59,6,,,,52,55,1,3,1.8,1.6
2024-11-23T0700,4027A,75.9483,39.4689,喀什地区,老干局,颗粒物(PM10),94,137,167,41,55,6,,,,37,54,3,4,1.3,2.1
2024-11-23T0700,1824A,114.3389,34.7781,开封市,肿瘤医院,细颗粒物(PM2.5),129,129,133,98,117,3,,,,63,58,4,6,0.7,0.8
2024-11-23T0700,1826A,114.2885,34.7965,开封市,世纪星幼儿园,细颗粒物(PM2.5),117,111,115,88,116,7,,,,63,63,2,3,0.6,0.8
2024-11-23T0700,3147A,114.3438,34.8106,开封市,龙亭公园,细颗粒物(PM2.5),123,109,119,93,112,2,,,,63,55,2,4,1.2,1.1
2024-11-23T0700,3210A,114.3644,34.7964,开封市,汴京公园,细颗粒物(PM2.5),128,118,139,97,116,1,,,,63,57,4,5,0.6,0.6
2024-11-23T0700,3473A,114.2485,34.8306,开封市,技师学院,细颗粒物(PM2.5),118,113,124,89,111,10,,,,58,57,7,7,0.5,0.7
2024-11-23T0700,3592A,114.4644,34.7556,开封市,祥符区生态环境局,,,,181,,129,,,22,,,49,,7,,0.8
2024-11-23T0700,1951A,84.895,45.6094,克拉玛依市,长征新村,,21,9,49,3,31,67,,,,6,24,7,6,0.2,0.4
2024-11-23T0700,1952A,84.8988,45.5893,克拉玛依市,南林小区,,23,,49,12,36,71,,,,5,24,5,3,0.5,0.7
2024-11-23T0700,1954A,84.905,44.3396,克拉玛依市,独山子区,,19,,24,6,18,58,,,,7,12,5,5,0.3,0.4
2024-11-23T0700,1955A,85.6979,46.098,克拉玛依市,乌尔禾区商贸楼,细颗粒物(PM2.5),59,45,67,42,50,21,,,,28,28,3,4,0.5,0.5
2024-11-23T0700,3612A,85.1045,45.6899,克拉玛依市,白碱滩区新站,,22,12,44,11,28,69,,,,10,29,10,8,0.2,0.4
2024-11-23T0700,2697A,76.1454,39.7142,克孜勒苏柯尔克孜自治州,市人民政府,颗粒物(PM10),59,67,80,31,36,59,,,,8,17,14,9,0.6,0.6
2024-11-23T0700,3665A,76.1658,39.7157,克孜勒苏柯尔克孜自治州,克州文化中心,颗粒物(PM10),64,77,77,31,32,60,,,,14,25,19,13,0.5,0.6
2024-11-23T0700,1450A,102.8204,24.8886,昆明市,呈贡新区,,24,24,21,16,17,36,,,,13,18,5,5,0.5,0.5
2024-11-23T0700,1451A,102.6251,24.9608,昆明市,西山森林公园,,,,,,,,,,,,,,,,
2024-11-23T0700,1452A,102.7252,25.0902,昆明市,龙泉镇,,20,20,15,8,8,8,,,,26,25,6,6,0.6,0.6
2024-11-23T0700,1453A,102.7266,25.0375,昆明市,东风东路,,23,20,17,13,12,0,,,,45,21,8,8,0.5,0.4
2024-11-23T0700,1454A,102.6742,25.0669,昆明市,金鼎山,,26,26,17,12,11,22,,,,31,20,7,5,0.8,0.6
2024-11-23T0700,1455A,102.6644,25.0401,昆明市,碧鸡广场,,34,34,20,20,12,11,,,,37,20,7,6,0.7,0.5
2024-11-23T0700,3179A,102.7494,25.0119,昆明市,官渡区博物馆,,21,20,21,14,11,1,,,,41,25,7,7,0.8,0.5
2024-11-23T0700,3375A,102.8017,24.8336,昆明市,青年创业园,,28,28,22,18,14,7,,,,27,14,4,5,0.7,0.6
2024-11-23T0700,3550A,102.7997,24.9786,昆明市,昆明学院,,28,26,24,19,15,22,,,,25,25,7,7,0.6,0.5
2024-11-23T0700,3551A,102.5967,24.6736,昆明市,晋宁区生态环境分局,,38,38,24,19,16,45,,,,13,17,2,1,0.7,0.5
2024-11-23T0700,3552A,102.6678,24.9856,昆明市,云天化总部,,27,27,16,18,11,7,,,,36,23,5,6,0.6,0.3
2024-11-23T0700,1456A,91.1319,29.6514,拉萨市,八廓街,,16,16,34,8,20,42,,,,19,27,6,7,0.4,0.7
2024-11-23T0700,1457A,91.1221,29.6747,拉萨市,市环保局,,28,28,47,14,31,32,,,,24,27,7,8,0.7,0.8
2024-11-23T0700,1458A,91.0874,29.6475,拉萨市,区监测站,,25,25,31,11,18,11,,,,50,42,5,6,1.0,0.8
2024-11-23T0700,1459A,91.1774,29.6541,拉萨市,西藏大学,,16,16,26,6,12,49,,,,9,17,3,4,0.8,0.8
2024-11-23T0700,1460A,90.9798,29.6588,拉萨市,区辐射站,,29,29,40,14,21,23,,,,38,36,13,10,0.6,0.6
2024-11-23T0700,1461A,91.0834,29.6292,拉萨市,拉萨火车站,,21,21,24,13,15,38,,,,26,32,5,5,0.6,0.7
2024-11-23T0700,2520A,109.2203,23.7256,来宾市,来宾技工学校,,36,26,31,25,22,31,,,,16,13,6,6,0.7,0.6
2024-11-23T0700,3535A,109.1781,23.7297,来宾市,兴宾区政府,,30,30,30,20,21,31,,,,12,10,6,6,0.7,0.6
2024-11-23T0700,4002A,109.2416,23.7461,来宾市,中南小学,,43,35,34,30,22,22,,,,20,12,7,8,0.7,0.6
2024-11-23T0700,1476A,103.631,36.1031,兰州市,兰炼宾馆,细颗粒物(PM2.5),83,100,120,61,76,9,,,,59,78,33,30,1.2,1.5
2024-11-23T0700,1477A,104.1373,35.9454,兰州市,榆中兰大校区,,,,,,,,,,,,,,,,
2024-11-23T0700,1478A,103.8412,36.0726,兰州市,生物制品所,细颗粒物(PM2.5),62,58,101,44,68,3,,,,52,75,10,18,0.9,1.3
2024-11-23T0700,1479A,103.831,36.0464,兰州市,铁路设计院,细颗粒物(PM2.5),75,77,108,55,79,4,,,,69,87,10,18,1.5,1.6
2024-11-23T0700,3186A,103.7158,36.1058,兰州市,教育港,细颗粒物(PM2.5),83,75,128,61,81,1,,,,62,82,12,27,1.6,1.7
2024-11-23T0700,3241A,103.7439,36.0842,兰州市,百合公园,细颗粒物(PM2.5),80,85,107,59,71,3,,,,61,76,11,22,1.5,1.7
2024-11-23T0700,3242A,103.9611,35.998,兰州市,和平,细颗粒物(PM2.5),85,95,100,63,64,29,,,,39,52,10,19,0.9,1.1
2024-11-23T0700,3245A,103.6633,36.533,兰州新区,新区管委会,细颗粒物(PM2.5),67,66,77,48,53,20,,,,27,33,7,15,0.8,0.7
2024-11-23T0700,3246A,103.6975,36.4789,兰州新区,舟曲中学,细颗粒物(PM2.5),75,87,86,55,52,13,,,,49,38,15,18,0.7,0.6
2024-11-23T0700,1067A,116.6708,39.5111,廊坊市,药材公司,,46,37,41,32,26,15,,,,37,38,5,5,0.7,0.6
2024-11-23T0700,1068A,116.7214,39.5589,廊坊市,开发区,颗粒物(PM10),51,51,42,31,19,18,,,,32,45,4,4,0.6,0.5
2024-11-23T0700,1070A,116.7244,39.5269,廊坊市,北华航天学院,颗粒物(PM10),52,53,47,26,18,10,,,,42,44,5,6,0.7,0.6
2024-11-23T0700,2919A,116.7022,39.5453,廊坊市,河北工业大学,,46,44,43,32,21,16,,,,35,42,5,6,0.7,0.5
2024-11-23T0700,2535A,103.7723,29.5462,乐山市,花湖湾,细颗粒物(PM2.5),57,56,54,40,44,16,,,,15,15,4,4,0.6,0.6
2024-11-23T0700,2536A,103.7627,29.5844,乐山市,牛耳桥,细颗粒物(PM2.5),57,52,56,40,43,19,,,,22,22,6,5,0.6,0.6
2024-11-23T0700,2537A,103.7508,29.6006,乐山市,市第三水厂,细颗粒物(PM2.5),54,47,51,38,39,27,,,,24,23,6,4,0.5,0.5
2024-11-23T0700,2538A,103.7571,29.5664,乐山市,市监测站,细颗粒物(PM2.5),52,45,51,36,40,22,,,,16,15,3,6,0.8,0.8
2024-11-23T0700,3361A,103.7311,29.5628,乐山市,理工大学,细颗粒物(PM2.5),55,43,50,39,44,24,,,,19,18,6,5,0.7,0.7
2024-11-23T0700,2598A,100.2143,26.8576,丽江市,西南郊,,19,16,27,12,16,58,,,,4,11,5,5,0.8,0.9
2024-11-23T0700,2599A,100.2497,26.8802,丽江市,丽江古城,,17,11,25,6,13,54,,,,10,12,8,9,0.5,0.5
2024-11-23T0700,2600A,100.2203,26.8906,丽江市,市中心,,16,6,11,3,7,50,,,,12,15,6,7,0.2,0.2
2024-11-23T0700,1267A,119.914,28.4514,丽水市,监测站大楼,细颗粒物(PM2.5),75,,49,55,44,17,,,,27,27,2,4,0.6,0.5
2024-11-23T0700,1268A,119.93,28.4586,丽水市,莲都小学,细颗粒物(PM2.5),88,82,64,65,47,21,,,,31,28,6,5,0.7,0.6
2024-11-23T0700,1269A,119.879,28.4231,丽水市,余庄前,细颗粒物(PM2.5),67,62,46,48,32,9,,,,16,19,5,5,0.4,0.4
2024-11-23T0700,1173A,119.176,34.5885,连云港市,市环境监测站,,31,31,42,14,14,12,,,,56,40,14,11,1.7,1
2024-11-23T0700,3000A,119.3581,34.6972,连云港市,德源药业,,20,14,32,7,10,62,,,,21,27,6,6,0.2,0.2
2024-11-23T0700,3007A,119.178,34.844,连云港市,新城一中,,37,37,47,14,16,21,,,,43,40,23,13,1.1,0.8
2024-11-23T0700,3008A,119.3608,34.7519,连云港市,胡沟管理处,,20,12,23,3,5,64,,,,9,11,4,4,0.1,0.1
2024-11-23T0700,3009A,119.1478,34.5911,连云港市,矿山设计院,,36,36,46,19,18,6,,,,52,38,14,10,1.7,0.9
2024-11-23T0700,3434A,119.2413,34.6539,连云港市,工贸学校,,20,20,21,9,10,44,,,,22,18,9,8,0.5,0.4
2024-11-23T0700,3664A,119.4172,34.7341,连云港市,连云街道,,19,12,16,3,6,58,,,,17,23,6,6,0.1,0.2
2024-11-23T0700,2571A,102.3431,27.8099,凉山彝族自治州,青龙寺,,12,12,16,6,7,35,,,,24,16,4,4,0.6,0.6
2024-11-23T0700,2572A,102.2721,27.8415,凉山彝族自治州,邛海宾馆,,18,14,17,12,11,26,,,,13,9,6,7,0.6,0.6
2024-11-23T0700,2573A,102.2625,27.898,凉山彝族自治州,西昌市政府,,20,17,21,14,16,24,,,,12,10,6,5,0.7,0.6
2024-11-23T0700,2574A,102.2685,27.8851,凉山彝族自治州,凉山州政府,,19,16,20,13,17,28,,,,12,10,8,7,0.5,0.4
2024-11-23T0700,2575A,102.237,27.8914,凉山彝族自治州,长安,,23,19,27,16,20,22,,,,16,13,9,8,0.7,0.5
2024-11-23T0700,2212A,123.2,41.1953,辽阳市,宏伟区,细颗粒物(PM2.5),64,65,51,46,36,4,,,,36,34,9,15,1.0,0.7
2024-11-23T0700,2213A,123.1683,41.2495,辽阳市,新华园,细颗粒物(PM2.5),115,172,58,87,42,5,,,,40,40,10,13,1.9,1
2024-11-23T0700,2214A,123.2354,41.2639,辽阳市,滨河路,细颗粒物(PM2.5),79,79,53,58,40,6,,,,37,38,10,13,0.9,0.7
2024-11-23T0700,2215A,123.149,41.2991,辽阳市,铁西工业园,细颗粒物(PM2.5),79,79,52,58,39,2,,,,31,32,17,15,1.1,0.7
2024-11-23T0700,2227A,125.1358,42.8845,辽源市,环保局,细颗粒物(PM2.5),77,78,58,56,41,6,,,,21,24,9,9,1.1,0.9
2024-11-23T0700,3239A,125.0764,42.9078,辽源市,银鹰制药,细颗粒物(PM2.5),105,88,71,79,59,5,,,,27,29,8,10,1.3,0.8
2024-11-23T0700,1625A,115.9848,36.4372,聊城市,区政府,颗粒物(PM10),56,62,65,27,35,26,,,,39,49,8,10,0.5,0.5
2024-11-23T0700,2878A,116.0072,36.4343,聊城市,聊大东校,颗粒物(PM10),60,70,76,38,43,28,,,,36,48,10,12,0.5,0.7
2024-11-23T0700,3200A,115.9819,36.4978,聊城市,监控中心,颗粒物(PM10),56,61,79,29,43,37,,,,31,66,11,13,0.5,0.6
2024-11-23T0700,3513A,116.0445,36.4361,聊城市,九州社区,颗粒物(PM10),56,61,76,31,39,20,,,,36,46,7,10,0.6,0.7
2024-11-23T0700,4018A,116.0567,36.4608,聊城市,星美广场,颗粒物(PM10),62,74,88,34,43,18,,,,44,48,9,12,0.6,0.6
2024-11-23T0700,2632A,94.3681,29.6376,林芝市,林芝监测站,,28,,10,3,5,89,,,,2,4,6,6,0.4,0.4
2024-11-23T0700,2633A,94.3616,29.6616,林芝市,林芝人民医院,,28,6,8,3,10,88,,,,1,3,5,6,0.3,0.4
2024-11-23T0700,2603A,100.0781,23.8982,临沧市,市环保局,,15,15,17,10,14,21,,,,8,9,6,7,0.4,0.4
2024-11-23T0700,2604A,100.0894,23.8822,临沧市,市气象局,,20,15,19,14,15,25,,,,9,10,7,8,0.4,0.4
2024-11-23T0700,1733A,111.5531,36.0783,临汾市,临钢医院,细颗粒物(PM2.5),72,92,94,52,57,4,,,,55,39,6,7,0.7,0.9
2024-11-23T0700,1734A,111.5028,36.0714,临汾市,技工学校,细颗粒物(PM2.5),97,92,100,72,66,26,,,,52,44,7,12,0.8,1.1
2024-11-23T0700,1736A,111.5018,36.0855,临汾市,市委,细颗粒物(PM2.5),89,100,104,66,64,20,,,,56,38,6,11,0.8,1.1
2024-11-23T0700,3018A,111.505,36.1014,临汾市,唐尧大酒店,细颗粒物(PM2.5),92,94,92,68,64,7,,,,62,40,5,8,0.8,1
2024-11-23T0700,3668A,111.5036,36.0414,临汾市,城南,细颗粒物(PM2.5),87,72,108,64,71,1,,,,49,46,5,9,0.8,1.1
2024-11-23T0700,2667A,103.2069,35.5993,临夏回族自治州,环保局,,39,39,49,9,14,2,,,,1,18,7,9,1.3,1.3
2024-11-23T0700,2668A,103.2417,35.6057,临夏回族自治州,建设大厦,,46,46,46,26,20,6,,,,15,23,7,8,0.8,0.8
2024-11-23T0700,1618A,118.3429,35.0532,临沂市,沂河小区,,46,46,51,27,28,22,,,,41,32,7,9,0.5,0.5
2024-11-23T0700,1619A,118.295,35.0583,临沂市,鲁南制药厂,,34,34,43,21,20,15,,,,53,44,6,7,0.7,0.7
2024-11-23T0700,1620A,118.2794,34.9976,临沂市,新光毛纺厂,,36,36,41,20,20,21,,,,42,34,6,7,0.5,0.4
2024-11-23T0700,1621A,118.3956,35.0888,临沂市,河东保险公司,,36,36,50,22,26,13,,,,39,36,3,5,0.9,0.8
2024-11-23T0700,3370A,118.3564,35.0215,临沂市,十里堡居委,,29,29,42,17,20,24,,,,37,34,6,7,0.5,0.5
2024-11-23T0700,3496A,118.3604,35.1084,临沂市,南坊新区,,39,39,49,22,26,17,,,,46,40,5,6,0.7,0.6
2024-11-23T0700,3860A,118.3920,35.0300,临沂市,皇山花园小区,,46,46,59,24,28,6,,,,58,48,4,4,0.7,0.6
2024-11-23T0700,1870A,109.4856,24.3895,柳州市,柳东小学,,29,26,28,20,20,41,,,,5,6,10,9,0.6,0.6
2024-11-23T0700,1871A,109.4157,24.3277,柳州市,环保监测站,,32,30,31,22,21,34,,,,11,11,9,10,0.6,0.6
2024-11-23T0700,1872A,109.389,24.341,柳州市,河西水厂,,34,34,39,22,23,35,,,,7,15,9,15,0.7,1.1
2024-11-23T0700,1873A,109.4311,24.2921,柳州市,市四中,,29,23,28,20,17,41,,,,9,8,8,8,0.6,0.6
2024-11-23T0700,1874A,109.4006,24.3631,柳州市,市九中,,35,35,33,24,22,23,,,,17,11,7,8,0.6,0.6
2024-11-23T0700,1875A,109.4958,24.3134,柳州市,古亭山,,30,22,26,21,19,45,,,,12,9,10,9,0.8,0.7
2024-11-23T0700,3402A,109.5422,24.3996,柳州市,市二中,,32,25,26,22,20,20,,,,21,13,9,9,0.5,0.5
2024-11-23T0700,2307A,116.5079,31.737,六安市,监测大楼,细颗粒物(PM2.5),58,51,80,41,65,37,,,,30,44,5,6,0.5,0.7
2024-11-23T0700,2308A,116.4738,31.7643,六安市,皖西学院,,46,46,84,27,61,45,,,,31,43,6,5,0.6,0.7
2024-11-23T0700,2309A,116.4996,31.7905,六安市,朝阳厂,细颗粒物(PM2.5),64,62,82,46,64,11,,,,53,39,1,2,0.7,0.7
2024-11-23T0700,2310A,116.5567,31.7886,六安市,开发区,细颗粒物(PM2.5),94,112,100,70,63,10,,,,55,39,3,4,0.6,0.6
2024-11-23T0700,2576A,104.8,26.5892,六盘水市,窑上,,20,16,36,14,26,31,,,,8,14,5,5,0.6,0.7
2024-11-23T0700,2577A,104.83,26.5917,六盘水市,黄土坡,,19,,28,13,20,36,,,,11,17,6,8,0.5,0.6
2024-11-23T0700,2578A,104.89,26.5939,六盘水市,水钢,,23,18,40,16,31,44,,,,8,15,6,8,0.5,0.6
2024-11-23T0700,2579A,104.8475,26.5894,六盘水市,民中,,15,15,28,9,22,39,,,,9,17,7,8,0.6,0.7
2024-11-23T0700,2580A,104.9544,26.5506,六盘水市,双水,,14,14,29,8,21,37,,,,6,12,7,8,0.4,0.5
2024-11-23T0700,2335A,117.0189,25.1181,龙岩市,龙岩师专,,,,,,,,,,,,,,,,
2024-11-23T0700,2336A,117.0217,25.1033,龙岩市,龙岩市监测站,,25,20,20,17,22,36,,,,15,12,11,4,0.5,0.5
2024-11-23T0700,2337A,117.0258,25.0661,龙岩市,闽西职业技术学院,,19,14,20,13,14,52,,,,6,6,4,2,0.5,0.5
2024-11-23T0700,2338A,117.0196,25.0306,龙岩市,龙岩学院,,19,11,19,9,14,58,,,,15,18,1,2,0.3,0.4
2024-11-23T0700,2665A,105.0822,33.3261,陇南市,汉王镇固水子,,,,,,,,,,,,,,,,
2024-11-23T0700,2885A,104.9339,33.3826,陇南市,滨江中学,,43,43,46,15,18,73,,,,6,13,3,5,0.5,0.6
2024-11-23T0700,3247A,104.955,33.371,陇南市,市总工会,,35,35,38,12,15,74,,,,6,9,2,3,0.5,0.5
2024-11-23T0700,2487A,111.9589,27.8901,娄底市,电视发射台,细颗粒物(PM2.5),57,,30,40,33,21,,,,15,12,5,6,0.8,0.7
2024-11-23T0700,2488A,111.9975,27.725,娄底市,市监测站,细颗粒物(PM2.5),57,55,54,40,35,20,,,,26,26,13,8,0.8,1.5
2024-11-23T0700,2489A,112.0194,27.7314,娄底市,市委党校,细颗粒物(PM2.5),63,,46,45,35,10,,,,27,28,7,7,0.8,1
2024-11-23T0700,2490A,111.9561,27.7569,娄底市,涟钢,,50,50,44,30,33,12,,,,16,15,3,2,0.6,0.5
2024-11-23T0700,2491A,111.9892,27.7044,娄底市,市政府,,39,31,43,27,33,9,,,,11,18,5,6,0.6,0.6
2024-11-23T0700,1893A,105.4324,28.9634,泸州市,九狮山,,,,49,,36,,,23,,,27,,5,,0.7
2024-11-23T0700,1894A,105.4427,28.9063,泸州市,小市上码头,细颗粒物(PM2.5),55,58,53,39,41,5,,,,42,27,5,4,0.7,0.6
2024-11-23T0700,1895A,105.4241,28.8573,泸州市,兰田宪桥,细颗粒物(PM2.5),69,53,48,50,42,6,,,,36,27,5,5,0.7,0.6
2024-11-23T0700,1896A,105.4379,28.8833,泸州市,市环监站,细颗粒物(PM2.5),57,52,54,40,41,5,,,,38,25,6,5,0.6,0.6
2024-11-23T0700,3490A,105.3617,28.7703,泸州市,纳溪区环保局,细颗粒物(PM2.5),88,,58,65,49,4,,,,31,28,5,5,0.9,0.7
2024-11-23T0700,2183A,111.1406,37.5211,吕梁市,环保局,"颗粒物(PM10),细颗粒物(PM2.5)",85,119,113,63,51,2,,,,44,48,1,4,0.7,0.7
2024-11-23T0700,2185A,111.1297,37.5136,吕梁市,自来水公司,颗粒物(PM10),85,119,133,54,54,3,,,,43,49,5,8,0.8,0.8
2024-11-23T0700,2867A,111.1283,37.51,吕梁市,马茂庄小学,颗粒物(PM10),91,131,136,51,54,2,,,,47,53,7,8,0.8,0.8
2024-11-23T0700,1812A,112.3931,34.6516,洛阳市,市委党校,细颗粒物(PM2.5),130,131,133,99,100,6,,,,60,51,4,7,0.8,1
2024-11-23T0700,1814A,112.4657,34.6871,洛阳市,豫西宾馆,细颗粒物(PM2.5),115,141,136,87,88,5,,,,56,44,7,8,0.9,0.9
2024-11-23T0700,1815A,112.494,34.6886,洛阳市,河南林校,细颗粒物(PM2.5),129,120,124,98,95,2,,,,60,50,2,4,0.7,0.8
2024-11-23T0700,1816A,112.3844,34.623,洛阳市,开发区管委会,细颗粒物(PM2.5),137,136,143,104,108,6,,,,46,41,6,9,0.6,0.7
2024-11-23T0700,1817A,112.4267,34.6258,洛阳市,市委新办公区,细颗粒物(PM2.5),139,145,146,106,102,1,,,,58,47,4,7,0.6,0.7
2024-11-23T0700,3340A,112.6005,34.6326,洛阳市,伊滨,细颗粒物(PM2.5),110,124,140,83,91,1,,,,25,37,2,9,2.6,1.4
2024-11-23T0700,3341A,112.4951,34.6332,洛阳市,中移产业园,细颗粒物(PM2.5),127,104,116,96,104,3,,,,53,50,5,7,0.8,0.8
2024-11-23T0700,3593A,112.5736,34.8993,洛阳市,吉利监测站,细颗粒物(PM2.5),90,103,103,67,89,7,,,,54,43,3,6,0.6,0.8
2024-11-23T0700,3635A,112.3677,34.662,洛阳市,河科大西苑校区,细颗粒物(PM2.5),133,129,132,101,102,5,,,,60,49,6,8,0.8,0.9
2024-11-23T0700,3636A,112.4388,34.6781,洛阳市,英才小学,细颗粒物(PM2.5),113,122,128,85,86,2,,,,57,48,6,7,0.7,0.8
2024-11-23T0700,2399A,114.051,33.5699,漯河市,三五一五工厂,细颗粒物(PM2.5),145,125,129,111,104,20,,,,48,42,9,7,0.7,0.8
2024-11-23T0700,2400A,114.0055,33.5698,漯河市,漯河大学,细颗粒物(PM2.5),125,126,134,95,97,26,,,,43,39,7,7,0.7,0.7
2024-11-23T0700,2401A,114.0138,33.5828,漯河市,市水利局,细颗粒物(PM2.5),125,117,126,95,97,24,,,,33,31,8,7,0.8,0.8
2024-11-23T0700,2402A,114.0261,33.5698,漯河市,市广电局,细颗粒物(PM2.5),122,105,118,92,103,29,,,,40,37,9,7,0.6,0.7
2024-11-23T0700,3478A,113.9749,33.5664,漯河市,市图书馆,细颗粒物(PM2.5),144,144,129,110,98,25,,,,48,40,6,6,0.6,0.6
2024-11-23T0700,3479A,114.0967,33.5906,漯河市,召陵区卫健委,细颗粒物(PM2.5),148,157,149,113,101,6,,,,54,50,9,10,0.8,0.7
2024-11-23T0700,1798A,118.5092,31.6837,马鞍山市,湖东路四小,,33,33,69,9,40,34,,,,29,35,5,5,0.6,0.7
2024-11-23T0700,1799A,118.5024,31.6449,马鞍山市,开发区,,38,38,70,10,45,26,,,,45,39,7,8,0.6,0.6
2024-11-23T0700,1800A,118.5228,31.7231,马鞍山市,慈湖,,35,35,63,22,58,17,,,,48,34,8,8,0.7,0.7
2024-11-23T0700,1802A,118.6245,31.7241,马鞍山市,濮塘,,31,31,62,12,44,32,,,,14,18,9,9,0.6,0.7
2024-11-23T0700,3633A,118.4918,31.6809,马鞍山市,雨山,,33,33,71,9,42,39,,,,25,28,5,6,0.6,0.7
2024-11-23T0700,1686A,111.0286,21.4688,茂名市,电白南海,,29,29,34,19,15,39,,,,12,12,9,7,0.8,0.7
2024-11-23T0700,1687A,110.9294,21.6533,茂名市,茂石化七小,,32,31,36,22,26,37,,,,9,8,10,9,0.7,0.7
2024-11-23T0700,1688A,110.9107,21.6687,茂名市,健康路,,29,29,31,14,21,38,,,,5,5,27,15,0.6,0.6
2024-11-23T0700,1689A,110.8592,21.6828,茂名市,高岭,,29,29,37,19,24,36,,,,6,9,15,14,0.6,0.8
2024-11-23T0700,3450A,111.01,21.5165,茂名市,电白水东,,35,31,25,24,22,39,,,,8,9,10,10,0.6,0.6
2024-11-23T0700,2539A,104.0308,30.0478,眉山市,黑龙滩水库,细颗粒物(PM2.5),70,,41,51,42,38,,,,6,5,1,2,0.2,0.2
2024-11-23T0700,2540A,103.8416,30.0874,眉山市,气象局,细颗粒物(PM2.5),58,,49,41,40,6,,,,36,22,7,5,0.7,0.6
2024-11-23T0700,3137A,103.8578,30.0744,眉山市,市委党校,,45,39,40,31,31,4,,,,40,24,8,6,0.5,0.5
2024-11-23T0700,3148A,103.8291,30.0564,眉山市,区人社局,细颗粒物(PM2.5),55,40,38,39,35,33,,,,31,27,14,8,0.6,0.6
2024-11-23T0700,1690A,116.1231,24.3284,梅州市,梅江月梅,,22,22,23,15,18,6,,,,23,18,8,8,0.6,0.6
2024-11-23T0700,1691A,116.0797,24.2719,梅州市,梅县新城,,20,19,19,14,17,29,,,,7,6,5,4,0.5,0.5
2024-11-23T0700,1692A,116.1248,24.2654,梅州市,环境监控中心,,23,18,21,16,15,6,,,,19,14,6,6,0.5,0.5
2024-11-23T0700,3315A,116.1233,24.2991,梅州市,梅龙,,22,22,19,14,15,15,,,,21,14,6,6,0.6,0.5
2024-11-23T0700,1878A,104.7778,31.4741,绵阳市,富乐山,细颗粒物(PM2.5),75,70,48,55,39,10,,,,32,26,2,2,0.6,0.6
2024-11-23T0700,1879A,104.7563,31.4535,绵阳市,市人大,细颗粒物(PM2.5),75,85,64,55,48,27,,,,24,33,1,2,0.4,0.5
2024-11-23T0700,1880A,104.6697,31.4668,绵阳市,高新区自来水公司,,20,14,66,14,41,52,,,,10,32,3,4,0.5,0.8
2024-11-23T0700,1881A,104.7287,31.5075,绵阳市,三水厂,细颗粒物(PM2.5),98,143,106,73,57,23,,,,24,35,6,7,0.6,0.7
2024-11-23T0700,3491A,104.69,31.5322,绵阳市,西科大附属小学,,26,26,72,14,48,45,,,,9,30,3,4,0.5,0.7
2024-11-23T0700,3492A,104.5648,31.5343,绵阳市,安州区旅游局,,20,,59,14,55,55,,,,6,27,8,8,0.6,0.8
2024-11-23T0700,1784A,129.61,44.561,牡丹江市,环保大楼,,40,39,38,28,22,8,,,,26,19,10,6,0.5,0.4
2024-11-23T0700,1785A,129.6115,44.5782,牡丹江市,文化广场,颗粒物(PM10),54,57,41,31,30,11,,,,29,24,10,8,0.7,0.6
2024-11-23T0700,1786A,129.5904,44.5963,牡丹江市,第一医院,细颗粒物(PM2.5),65,55,37,47,39,13,,,,23,14,5,5,0.6,0.5
2024-11-23T0700,1787A,129.6364,44.6075,牡丹江市,机车工厂,颗粒物(PM10),83,116,37,42,26,5,,,,26,16,18,32,0.7,0.5
2024-11-23T0700,1788A,129.6386,44.5462,牡丹江市,第一中学,,50,50,30,32,22,15,,,,20,15,4,5,0.4,0.3
2024-11-23T0700,2531A,105.0703,29.61,内江市,市监测站,细颗粒物(PM2.5),64,,35,46,38,16,,,,14,13,7,6,0.7,0.6
2024-11-23T0700,2532A,105.0717,29.5947,内江市,东兴区政府,细颗粒物(PM2.5),53,43,31,37,30,17,,,,21,20,7,6,0.7,0.6
2024-11-23T0700,2533A,105.0653,29.5817,内江市,内江二中,细颗粒物(PM2.5),58,49,38,41,32,16,,,,22,20,8,7,0.6,0.6
2024-11-23T0700,2534A,105.0406,29.5822,内江市,内江日报社,细颗粒物(PM2.5),54,43,41,38,33,10,,,,26,22,14,12,0.6,0.6
2024-11-23T0700,2628A,92.0657,31.4846,那曲市,那曲监测站,,42,42,62,21,30,20,,,,33,24,7,10,1.7,1
2024-11-23T0700,3128A,92.0506,31.4797,那曲市,那曲会议中心,,20,20,75,9,27,51,,,,8,18,3,6,1.3,1.6
2024-11-23T0700,1290A,115.8931,28.6843,南昌市,省外办,细颗粒物(PM2.5),100,98,75,75,55,58,,,,27,32,7,7,0.9,0.7
2024-11-23T0700,1291A,115.8886,28.7003,南昌市,省林业公司,细颗粒物(PM2.5),94,90,62,70,47,41,,,,44,28,10,9,0.8,0.7
2024-11-23T0700,1292A,115.8126,28.7442,南昌市,林科所,细颗粒物(PM2.5),89,83,57,66,40,68,,,,24,23,9,8,0.7,0.7
2024-11-23T0700,1294A,115.8518,28.687,南昌市,建工学校,颗粒物(PM10),80,110,68,50,39,54,,,,42,31,10,9,0.7,0.6
2024-11-23T0700,1295A,115.8921,28.6424,南昌市,象湖,细颗粒物(PM2.5),105,,54,79,50,65,,,,30,29,9,8,0.9,0.8
2024-11-23T0700,1296A,115.7423,28.7996,南昌市,武术学校,,48,48,43,28,19,14,,,,11,15,3,1,0.6,0.7
2024-11-23T0700,1298A,115.9314,28.6842,南昌市,省站,细颗粒物(PM2.5),102,110,84,76,50,58,,,,32,25,11,10,0.9,0.8
2024-11-23T0700,3046A,115.9084,28.6062,南昌市,机电学校,细颗粒物(PM2.5),107,106,77,80,51,58,,,,32,29,11,10,0.9,0.6
2024-11-23T0700,3690A,115.9721,28.7031,南昌市,外国语学校,细颗粒物(PM2.5),88,108,70,65,43,54,,,,30,25,9,8,0.8,0.7
2024-11-23T0700,1905A,106.056,30.8064,南充市,西山风景区,,38,29,27,26,28,10,,,,6,15,2,2,0.6,0.7
2024-11-23T0700,1906A,106.0789,30.8023,南充市,南充市委,,35,35,41,24,30,2,,,,16,22,2,4,0.5,0.6
2024-11-23T0700,1907A,106.1031,30.8217,南充市,南充炼油厂,,42,42,46,28,32,2,,,,17,24,3,3,0.5,0.6
2024-11-23T0700,1908A,106.1064,30.7856,南充市,高坪区监测站,,42,38,44,29,30,1,,,,21,26,3,3,0.4,0.5
2024-11-23T0700,1909A,106.0642,30.7636,南充市,嘉陵区环保局,,41,41,45,24,26,2,,,,21,29,2,3,0.6,0.7
2024-11-23T0700,1910A,106.1087,30.8388,南充市,市环境监测站,,40,34,43,28,30,4,,,,12,21,4,4,0.5,0.6
2024-11-23T0700,1151A,118.8086,32.1065,南京市,迈皋桥,,28,28,60,14,37,5,,,,34,33,4,4,0.7,0.8
2024-11-23T0700,1152A,118.7538,32.0551,南京市,草场门,,31,31,59,12,27,23,,,,47,42,5,7,0.5,0.9
2024-11-23T0700,1153A,118.7794,32.0745,南京市,山西路,,34,34,71,19,50,24,,,,44,29,4,4,0.1,0.3
2024-11-23T0700,1154A,118.7752,32.0023,南京市,中华门,,29,22,65,9,39,12,,,,58,45,5,4,0.3,0.6
2024-11-23T0700,1155A,118.8109,32.0309,南京市,瑞金路,,24,24,67,12,40,13,,,,30,29,6,6,0.5,0.7
2024-11-23T0700,1156A,118.7997,32.0754,南京市,玄武湖,,35,35,70,11,42,10,,,,61,61,6,7,0.5,0.7
2024-11-23T0700,1157A,118.6414,32.0931,南京市,浦口,,31,31,71,12,43,38,,,,22,23,6,8,0.4,0.6
2024-11-23T0700,1158A,118.7356,31.9996,南京市,奥体中心,,29,29,70,9,40,29,,,,44,37,8,9,0.2,0.4
2024-11-23T0700,1159A,118.9125,32.1028,南京市,仙林大学城,,39,39,64,14,40,20,,,,38,36,6,7,0.4,0.6
2024-11-23T0700,3422A,118.8436,31.9198,南京市,江宁彩虹桥,,42,42,72,17,36,15,,,,47,39,7,6,0.5,0.7
2024-11-23T0700,3423A,119.0138,31.6494,南京市,溧水永阳,,44,44,63,23,45,12,,,,40,33,4,4,0.6,0.6
2024-11-23T0700,3424A,118.879,31.3302,南京市,高淳老职中,,37,37,70,24,51,32,,,,28,26,5,5,0.3,0.5
2024-11-23T0700,3427A,118.8554,32.3578,南京市,六合雄州,,24,24,56,10,33,29,,,,21,29,6,6,0.2,0.3
2024-11-23T0700,1401A,108.3103,22.7881,南宁市,二十一中,,26,18,29,18,20,51,,,,14,17,4,5,0.7,0.7
2024-11-23T0700,1402A,108.3141,22.8528,南宁市,北湖,,29,23,32,20,22,46,,,,11,16,8,13,0.2,0.7
2024-11-23T0700,1403A,108.3206,22.8225,南宁市,市监测站,,30,25,32,21,17,47,,,,11,18,9,10,0.6,0.6
2024-11-23T0700,1404A,108.3829,22.8037,南宁市,大自然花园,,29,25,29,20,20,48,,,,11,14,7,8,0.6,0.7
2024-11-23T0700,1405A,108.4394,22.7904,南宁市,仙葫,,33,,27,23,20,42,,,,12,12,7,8,0.6,0.6
2024-11-23T0700,1406A,108.2397,22.8467,南宁市,区农职院,,35,34,36,24,21,14,,,,30,20,10,9,0.8,0.7
2024-11-23T0700,1407A,108.3275,22.735,南宁市,英华嘉园,,26,24,31,18,20,49,,,,12,15,7,8,0.5,0.5
2024-11-23T0700,1408A,108.2257,22.7757,南宁市,沙井镇街道办,,33,,38,23,21,30,,,,32,30,7,9,0.5,0.5
2024-11-23T0700,3401A,108.4834,22.7618,南宁市,红星社区,,33,25,28,23,20,39,,,,17,14,9,8,0.7,0.7
2024-11-23T0700,2331A,118.0966,26.6761,南平市,茫荡山,,,,,,,,,,,,,,,,
2024-11-23T0700,2332A,118.1681,26.6369,南平市,南平市监测站,,25,25,21,15,14,9,,,,19,14,3,3,0.5,0.4
2024-11-23T0700,2333A,118.1825,26.6489,南平市,南平铝业有限公司,,30,,21,21,18,8,,,,17,14,3,3,0.5,0.5
2024-11-23T0700,2334A,118.1756,26.6272,南平市,南平七中,,26,20,22,18,16,11,,,,14,12,4,3,0.7,0.6
2024-11-23T0700,1168A,120.9098,31.9663,南通市,狼山街道,,20,20,46,8,27,54,,,,13,14,7,8,0.4,0.5
2024-11-23T0700,1169A,120.86,32.0005,南通市,虹桥,,18,18,47,9,31,47,,,,23,20,6,7,0.4,0.5
2024-11-23T0700,1170A,120.87,32.02,南通市,城中,,26,26,54,8,30,53,,,,22,24,6,8,0.5,0.6
2024-11-23T0700,1171A,120.94,31.93,南通市,星湖花园,,20,20,48,3,30,47,,,,25,23,5,6,0.4,0.5
2024-11-23T0700,1172A,120.81,32.0417,南通市,紫琅学院,,27,27,51,10,29,19,,,,40,27,12,7,0.3,0.3
2024-11-23T0700,3291A,121.067,32.062,南通市,通州监测站,,31,31,51,3,29,55,,,,17,17,2,3,0.3,0.5
2024-11-23T0700,3432A,120.9348,31.9883,南通市,环境教育馆,,24,24,48,7,29,45,,,,23,26,4,5,0.4,0.5
2024-11-23T0700,2404A,112.5224,33.0122,南阳市,瓦房庄,细颗粒物(PM2.5),134,107,92,102,82,58,,,,22,24,5,5,0.8,0.7
2024-11-23T0700,2405A,112.5003,32.9735,南阳市,汉画馆,细颗粒物(PM2.5),112,92,79,84,72,46,,,,21,26,4,6,0.7,0.7
2024-11-23T0700,2406A,112.5573,33.027,南阳市,气象站,细颗粒物(PM2.5),125,105,94,95,76,59,,,,25,29,4,5,0.7,0.7
2024-11-23T0700,2407A,112.5481,32.9689,南阳市,理工学院,细颗粒物(PM2.5),122,101,86,92,74,55,,,,21,24,4,5,0.7,0.7
2024-11-23T0700,4008A,112.5234,32.9922,南阳市,卧龙区政府,细颗粒物(PM2.5),135,,90,103,77,65,,,,21,27,4,5,0.7,0.7
2024-11-23T0700,1234A,121.8358,29.911,宁波市,区环保大楼,,26,10,74,3,58,33,,,,51,47,7,10,0.3,0.6
2024-11-23T0700,1235A,121.56,29.82,宁波市,万里学院,,26,24,119,18,60,38,,,,33,33,8,7,0.4,0.6
2024-11-23T0700,1236A,121.713,29.9572,宁波市,龙赛医院,,23,23,43,7,23,52,,,,31,34,8,10,0.5,0.8
2024-11-23T0700,1239A,121.633,29.7733,宁波市,钱湖水厂,,46,46,95,31,59,20,,,,41,44,6,6,0.7,0.9
2024-11-23T0700,1240A,121.5856,29.8635,宁波市,太古小学,,30,30,82,15,43,34,,,,37,35,9,9,0.6,0.8
2024-11-23T0700,1241A,121.524,29.8674,宁波市,市环境监测中心,,26,26,71,16,38,34,,,,34,34,8,8,0.7,0.9
2024-11-23T0700,2871A,121.6147,29.9017,宁波市,万里国际学校,,29,29,58,15,38,14,,,,54,55,9,8,0.7,0.9
2024-11-23T0700,3710A,121.5594,29.8975,宁波市,白沙活动中心,,41,41,82,15,35,31,,,,37,34,11,10,0.5,0.7
2024-11-23T0700,2339A,119.5001,26.6946,宁德市,金涵水库,,,,,,,,,,,,,,,,
2024-11-23T0700,2341A,119.5388,26.6612,宁德市,宁德市监测站,,20,14,22,14,15,10,,,,25,19,2,3,0.4,0.4
2024-11-23T0700,3209A,119.5231,26.6562,宁德市,宁德一中,,20,20,19,12,15,24,,,,13,13,2,2,0.4,0.4
2024-11-23T0700,2618A,98.8601,25.8567,怒江傈僳族自治州,州监测站,,33,30,32,23,19,19,,,,7,15,6,6,0.4,0.5
2024-11-23T0700,2619A,98.8546,25.8417,怒江傈僳族自治州,泸水一中,,22,16,22,15,15,5,,,,14,16,6,6,0.4,0.4
2024-11-23T0700,1888A,101.6891,26.571,攀枝花市,弄弄坪,,47,47,31,20,15,12,,,,32,25,21,16,1.8,0.7
2024-11-23T0700,1889A,101.5769,26.5928,攀枝花市,河门口,,34,34,26,20,16,10,,,,30,22,15,14,0.8,1
2024-11-23T0700,1890A,101.7169,26.585,攀枝花市,炳草岗,,30,28,38,21,17,5,,,,33,36,10,16,0.9,0.6
2024-11-23T0700,1891A,101.7369,26.5008,攀枝花市,仁和,,17,17,21,10,13,10,,,,21,17,4,7,0.6,0.6
2024-11-23T0700,2835A,101.7227,26.567,攀枝花市,四十中小,,43,43,33,14,17,5,,,,33,29,4,17,0.9,0.7
2024-11-23T0700,1604A,122.0303,41.1489,盘锦市,开发区,细颗粒物(PM2.5),65,,34,47,27,20,,,,29,18,7,5,0.6,0.4
2024-11-23T0700,1605A,122.0485,41.0883,盘锦市,兴隆台,细颗粒物(PM2.5),58,50,32,41,22,14,,,,38,20,18,12,0.6,0.4
2024-11-23T0700,1606A,121.8297,41.1028,盘锦市,新生街道,,46,46,32,26,23,14,,,,39,27,8,8,0.7,0.5
2024-11-23T0700,1832A,113.3257,33.742,平顶山市,新华旅馆,细颗粒物(PM2.5),139,193,146,106,96,4,,,,68,44,8,7,1.0,0.9
2024-11-23T0700,1833A,113.2919,33.737,平顶山市,规划设计院,细颗粒物(PM2.5),160,164,141,122,101,8,,,,59,37,7,8,0.9,0.8
2024-11-23T0700,1834A,113.182,33.774,平顶山市,平顶山工学院,细颗粒物(PM2.5),156,194,146,119,100,2,,,,53,34,7,8,1.0,0.9
2024-11-23T0700,3204A,113.3025,33.73,平顶山市,规划局,细颗粒物(PM2.5),172,175,140,130,101,4,,,,72,44,8,8,1.1,0.9
2024-11-23T0700,3594A,112.8867,33.9116,平顶山市,石龙区,细颗粒物(PM2.5),155,168,144,118,105,0,,,,59,35,12,12,1.1,0.9
2024-11-23T0700,2656A,106.6692,35.5461,平凉市,聚贤嘉苑,细颗粒物(PM2.5),68,78,66,49,43,45,,,,23,34,10,12,0.5,0.6
2024-11-23T0700,2657A,106.7021,35.5307,平凉市,博物馆,细颗粒物(PM2.5),72,83,80,52,47,48,,,,23,33,8,9,0.8,0.7
2024-11-23T0700,2347A,114.0997,27.5002,萍乡市,武功山,,32,32,34,18,14,16,,,,8,10,8,8,0.2,0.2
2024-11-23T0700,2348A,113.8385,27.6434,萍乡市,中医院,,45,45,49,27,30,11,,,,22,24,7,12,0.7,0.9
2024-11-23T0700,2349A,113.8493,27.6253,萍乡市,市政府车库,细颗粒物(PM2.5),52,45,43,36,30,26,,,,18,24,11,14,0.6,0.7
2024-11-23T0700,2350A,113.8676,27.6435,萍乡市,市环保局,,37,37,40,21,27,18,,,,18,18,12,16,0.6,0.7
2024-11-23T0700,2351A,113.866,27.6198,萍乡市,安源区政府,细颗粒物(PM2.5),54,,46,38,30,20,,,,21,24,19,17,0.7,0.8
2024-11-23T0700,2319A,119.0141,25.4325,莆田市,荔城区仓后路,,35,28,25,24,17,74,,,,9,10,2,2,0.5,0.5
2024-11-23T0700,2320A,119.0015,25.4553,莆田市,莆田市监测站,,32,32,21,21,14,80,,,,7,7,3,3,0.4,0.5
2024-11-23T0700,2321A,119.1119,25.4561,莆田市,涵江区六中,,39,35,24,27,15,75,,,,12,10,2,2,0.5,0.5
2024-11-23T0700,2322A,119.1013,25.3215,莆田市,秀屿区政府,,49,,27,34,19,74,,,,12,16,3,3,0.5,0.5
2024-11-23T0700,2323A,118.981,25.4792,莆田市,东圳水库,,,,,,,,,,,,,,,,
2024-11-23T0700,2392A,115.0312,35.7636,濮阳市,环保局,细颗粒物(PM2.5),87,81,71,64,57,9,,,,58,50,8,10,0.7,0.8
2024-11-23T0700,2394A,115.0574,35.7609,濮阳市,油田运输公司,细颗粒物(PM2.5),89,97,92,66,66,2,,,,67,57,6,11,0.6,0.7
2024-11-23T0700,2395A,115.0866,35.7754,濮阳市,油田物探公司,细颗粒物(PM2.5),94,95,102,70,72,3,,,,61,56,17,13,0.5,0.7
2024-11-23T0700,3021A,115,35.7668,濮阳市,濮水河管理处,细颗粒物(PM2.5),80,96,88,59,53,3,,,,61,52,2,6,0.6,0.7
2024-11-23T0700,2601A,100.98,22.7633,普洱市,市环保局,,28,28,30,18,21,51,,,,5,10,4,5,0.5,0.5
2024-11-23T0700,2602A,100.9817,22.8322,普洱市,普洱第二中学,,29,28,31,20,14,28,,,,11,14,8,7,0.4,0.4
2024-11-23T0700,2262A,131.0518,45.8751,七台河市,新一中,,20,16,25,14,21,38,,,,12,11,9,10,1.1,1.2
2024-11-23T0700,3345A,131.0577,45.7879,七台河市,中波台,,33,32,31,23,25,18,,,,30,23,12,10,0.6,0.6
2024-11-23T0700,3637A,131.0176,45.7761,七台河市,人民广场,,36,,35,25,30,20,,,,30,29,9,9,0.5,0.5
2024-11-23T0700,3684A,130.8781,45.8222,七台河市,新建矿广场,,42,,28,29,36,8,,,,40,24,10,11,0.7,0.6
2024-11-23T0700,1779A,123.9305,47.3636,齐齐哈尔市,安居小区,颗粒物(PM10),56,61,44,33,18,36,,,,17,24,6,6,0.4,0.5
2024-11-23T0700,1780A,123.9488,47.3386,齐齐哈尔市,中心广场,"颗粒物(PM10),细颗粒物(PM2.5)",52,54,35,36,20,32,,,,16,23,3,4,0.3,0.4
2024-11-23T0700,1781A,123.9483,47.3227,齐齐哈尔市,农牧车辆厂,颗粒物(PM10),52,53,42,33,16,28,,,,20,23,5,5,0.4,0.4
2024-11-23T0700,1783A,123.945,47.2988,齐齐哈尔市,市环境监测站,细颗粒物(PM2.5),65,61,42,47,21,36,,,,13,26,3,3,0.4,0.4
2024-11-23T0700,3662A,123.6333,47.2075,齐齐哈尔市,富区青少年活动中心,颗粒物(PM10),54,57,40,27,16,25,,,,12,15,4,5,0.5,0.5
2024-11-23T0700,2591A,107.9783,26.5747,黔东南苗族侗族自治州,市环境监测站,,33,31,25,23,19,47,,,,7,13,4,5,0.4,0.5
2024-11-23T0700,2881A,107.8908,26.5311,黔东南苗族侗族自治州,凯里学院,,26,24,15,18,14,42,,,,5,6,4,4,0.5,0.5
2024-11-23T0700,2593A,107.5228,26.2403,黔南布依族苗族自治州,小围寨,,18,12,12,12,10,40,,,,3,6,4,4,0.4,0.4
2024-11-23T0700,3538A,107.5175,26.2978,黔南布依族苗族自治州,沙坝,,18,14,17,12,10,39,,,,5,7,4,4,0.4,0.5
2024-11-23T0700,2589A,104.9022,25.0925,黔西南布依族苗族自治州,场坝街,,22,22,30,15,18,38,,,,5,10,3,6,0.3,0.4
2024-11-23T0700,2590A,104.8811,25.0992,黔西南布依族苗族自治州,坪东大道,,36,,24,25,19,33,,,,6,9,2,4,0.3,0.4
2024-11-23T0700,2502A,108.6236,21.9667,钦州市,市环保站,,46,46,54,24,25,45,,,,16,21,9,10,0.8,1
2024-11-23T0700,2503A,108.6549,21.9481,钦州市,沙埠小学,,38,38,49,22,29,44,,,,18,21,8,8,0.6,0.6
2024-11-23T0700,2504A,108.5989,21.7431,钦州市,港区一小,颗粒物(PM10),52,53,63,29,28,39,,,,23,26,13,10,0.7,0.7
2024-11-23T0700,3404A,108.5959,21.9633,钦州市,北职校,,46,43,49,32,32,39,,,,18,20,10,10,1.0,1.1
2024-11-23T0700,1042A,119.5134,39.8207,秦皇岛市,北戴河环保局,,24,24,29,14,18,40,,,,17,17,1,2,0.2,0.3
2024-11-23T0700,1043A,119.7493,40.0116,秦皇岛市,第一关,,43,,33,30,31,19,,,,38,33,5,5,0.3,0.3
2024-11-23T0700,1044A,119.5897,39.9499,秦皇岛市,监测站,,35,30,38,24,26,17,,,,33,30,4,4,0.4,0.4
2024-11-23T0700,1046A,119.5251,39.9041,秦皇岛市,建设大厦,,32,32,43,18,18,21,,,,30,32,3,5,0.3,0.3
2024-11-23T0700,3132A,119.610547,39.943889,秦皇岛市,文明里,,32,28,44,22,27,34,,,,22,33,4,4,0.2,0.3
2024-11-23T0700,1307A,120.6659,36.2403,青岛市,仰口,,14,12,17,8,11,44,,,,4,6,7,7,0.4,0.4
2024-11-23T0700,1310A,120.4134,36.0658,青岛市,市南区东部子站,,27,27,28,7,7,35,,,,27,20,10,10,0.6,0.6
2024-11-23T0700,1311A,120.3664,36.1032,青岛市,四方区子站,,29,29,25,12,9,18,,,,49,26,10,9,0.6,0.5
2024-11-23T0700,1312A,120.2994,36.054,青岛市,市南区西部子站,,15,14,26,3,5,45,,,,17,19,9,10,0.5,0.5
2024-11-23T0700,1313A,120.4581,36.0858,青岛市,崂山区子站,,15,12,17,7,3,45,,,,19,16,9,9,0.6,0.6
2024-11-23T0700,1314A,120.1983,35.9608,青岛市,黄岛区子站,,29,29,28,12,11,16,,,,56,40,11,9,0.5,0.5
2024-11-23T0700,1315A,120.3999,36.3083,青岛市,城阳区子站,,22,19,27,15,11,27,,,,27,17,7,7,0.5,0.5
2024-11-23T0700,1966A,120.0405,35.8735,青岛市,黄岛区4号,,27,27,29,9,7,34,,,,35,28,11,9,0.4,0.4
2024-11-23T0700,3362A,120.5014,36.4034,青岛市,即墨2号,,25,25,29,12,11,31,,,,25,21,9,9,0.6,0.6
2024-11-23T0700,3642A,120.3503,36.0736,青岛市,市北区南部,,23,23,33,9,7,27,,,,40,29,9,8,0.6,0.6
2024-11-23T0700,3643A,120.3948,36.1805,青岛市,李沧区北部,,31,31,29,17,14,16,,,,47,23,10,10,0.7,0.6
2024-11-23T0700,1702A,113.0426,23.691,清远市,环保大楼,,30,30,26,19,18,58,,,,8,10,5,6,0.6,0.6
2024-11-23T0700,1703A,113.0208,23.7106,清远市,凤城街办,细颗粒物(PM2.5),52,,28,36,29,58,,,,8,9,9,10,0.7,0.7
2024-11-23T0700,3025A,113.0477,23.6344,清远市,技师学院,,30,30,29,20,19,49,,,,9,12,8,9,0.4,0.5
2024-11-23T0700,3318A,112.9903,23.7403,清远市,清新太和,,23,20,22,16,16,67,,,,4,6,4,4,0.7,0.7
2024-11-23T0700,3455A,113.076,23.7198,清远市,清城东城,,29,21,24,20,20,57,,,,4,6,5,7,0.5,0.7
2024-11-23T0700,2661A,107.6325,35.7357,庆阳市,庆阳五中,细颗粒物(PM2.5),112,95,65,84,50,56,,,,22,29,12,15,0.7,0.5
2024-11-23T0700,2662A,107.6364,35.7067,庆阳市,市环保局,细颗粒物(PM2.5),97,96,61,72,43,61,,,,22,22,5,7,0.7,0.5
2024-11-23T0700,1916A,103.7897,25.5035,曲靖市,环境监测站,,27,27,32,16,18,21,,,,18,14,5,6,0.5,0.8
2024-11-23T0700,1917A,103.8,25.5364,曲靖市,烟厂办公区,,35,35,28,16,17,24,,,,19,16,4,4,0.5,0.5
2024-11-23T0700,3376A,103.7947,25.462,曲靖市,南苑二区,,21,21,30,10,19,32,,,,6,10,5,7,0.6,0.7
2024-11-23T0700,3377A,103.7444,25.5261,曲靖市,曲靖师范学院,,18,12,26,12,19,33,,,,16,14,5,7,0.5,0.6
2024-11-23T0700,1264A,118.8692,28.9398,衢州市,环保大楼,细颗粒物(PM2.5),125,119,82,95,62,35,,,,32,31,5,5,0.7,0.6
2024-11-23T0700,1265A,118.8709,28.9666,衢州市,实验学校,细颗粒物(PM2.5),125,115,75,95,60,42,,,,32,28,7,4,0.6,0.5
2024-11-23T0700,1266A,118.8621,28.9808,衢州市,衢州学院,细颗粒物(PM2.5),125,119,82,95,60,48,,,,30,27,5,5,0.7,0.6
2024-11-23T0700,1611A,118.5819,24.9117,泉州市,涂山街,,25,25,26,17,17,54,,,,11,13,1,1,0.4,0.5
2024-11-23T0700,1612A,118.5972,24.8978,泉州市,津头埔,,36,28,29,25,19,53,,,,15,16,2,2,0.5,0.4
2024-11-23T0700,1613A,118.6663,24.9424,泉州市,万安,,30,30,28,21,17,74,,,,12,14,1,2,0.5,0.5
2024-11-23T0700,1614A,118.6117,24.9604,泉州市,清源山,,,,,,,,,,,,,,,,
2024-11-23T0700,3529A,118.6333,24.9264,泉州市,城华南路,,29,25,26,20,20,75,,,,6,14,1,2,0.3,0.4
2024-11-23T0700,2626A,88.8876,29.2718,日喀则市,日喀则监测站,,24,24,37,12,16,28,,,,23,25,6,5,0.6,0.7
2024-11-23T0700,3726A,88.8781,29.2426,日喀则市,林业技术推广中心,,23,23,35,11,14,19,,,,18,16,6,7,0.8,0.7
2024-11-23T0700,1659A,119.471,35.4209,日照市,监测站,,22,22,35,13,16,24,,,,40,32,5,6,0.3,0.4
2024-11-23T0700,1660A,119.523,35.4216,日照市,市政府广场,,19,17,29,13,11,54,,,,11,18,4,6,0.4,0.5
2024-11-23T0700,1661A,119.5587,35.4044,日照市,港务局,,20,9,28,9,13,61,,,,12,21,8,8,0.5,0.6
2024-11-23T0700,3507A,119.5328,35.4625,日照市,职业技术学院,,19,12,29,3,10,58,,,,14,19,5,6,0.3,0.4
2024-11-23T0700,3604A,119.3266,35.1044,日照市,岚山环保分局,一氧化碳,69,48,50,28,21,26,,,,44,36,40,27,6.9,3.5
2024-11-23T0700,1835A,111.1922,34.7752,三门峡市,市政府,细颗粒物(PM2.5),158,121,92,120,92,58,,,,20,23,6,8,0.9,0.8
2024-11-23T0700,1836A,111.1587,34.7942,三门峡市,开发区,细颗粒物(PM2.5),168,158,129,127,104,58,,,,23,22,5,6,0.7,0.7
2024-11-23T0700,1838A,111.143,34.7955,三门峡市,风景区,细颗粒物(PM2.5),152,,98,116,90,62,,,,24,24,12,14,0.8,0.8
2024-11-23T0700,3039A,111.1911,34.7829,三门峡市,三门峡市第一小学,细颗粒物(PM2.5),150,,95,115,96,57,,,,20,19,7,8,0.7,0.7
2024-11-23T0700,3598A,111.1,34.7167,三门峡市,富达温泉假日酒店,细颗粒物(PM2.5),168,153,120,127,96,53,,,,32,34,2,7,1.1,1.1
2024-11-23T0700,2324A,117.6211,26.2625,三明市,三钢,,38,28,23,26,19,22,,,,16,15,9,4,0.5,0.5
2024-11-23T0700,2325A,117.635,26.2714,三明市,三明二中,,29,28,27,20,17,21,,,,17,15,8,4,0.4,0.4
2024-11-23T0700,2326A,117.6028,26.2378,三明市,三元区政府,,29,26,24,20,16,27,,,,15,14,8,4,0.6,0.5
2024-11-23T0700,2327A,117.7275,26.3108,三明市,洋溪,,,,,,,,,,,,,,,,
2024-11-23T0700,1876A,109.5078,18.2489,三亚市,河东子站,,22,15,14,6,8,70,,,,3,3,2,2,0.4,0.3
2024-11-23T0700,1877A,109.4964,18.2681,三亚市,河西子站,,22,13,12,3,8,68,,,,5,5,4,4,0.6,0.5
2024-11-23T0700,3540A,109.7348,18.3443,三亚市,君悦子站,,22,22,26,10,11,65,,,,6,6,2,2,0.6,0.5
2024-11-23T0700,2624A,91.7608,29.2313,山南市,山南监测站,,16,13,21,3,9,49,,,,10,9,5,5,0.4,0.4
2024-11-23T0700,2625A,91.7706,29.2436,山南市,山南人民医院,,21,11,21,3,9,66,,,,1,9,4,4,0.4,0.5
2024-11-23T0700,1674A,116.6794,23.3667,汕头市,金平子站,,36,,29,25,19,12,,,,28,18,11,9,0.6,0.6
2024-11-23T0700,1675A,116.7244,23.3633,汕头市,龙湖子站,,23,23,25,16,14,18,,,,14,14,9,9,0.7,0.7
2024-11-23T0700,1676A,116.7258,23.2775,汕头市,濠江子站,,36,,22,25,19,19,,,,17,11,4,4,0.7,0.6
2024-11-23T0700,1677A,116.7519,23.4714,汕头市,澄海子站,,25,24,25,17,17,18,,,,12,11,8,8,0.8,0.8
2024-11-23T0700,1678A,116.6092,23.2539,汕头市,潮阳子站,,23,20,30,16,18,22,,,,12,13,8,7,0.8,0.8
2024-11-23T0700,3444A,116.454,23.2684,汕头市,潮南峡山,,32,32,32,19,20,16,,,,16,13,8,8,0.7,0.7
2024-11-23T0700,3624A,116.4069,23.2533,汕头市,潮南子站,,45,45,46,30,24,14,,,,20,19,9,8,0.8,0.7
2024-11-23T0700,1693A,115.3653,22.775,汕尾市,市环保局,,32,,18,22,18,28,,,,7,7,7,7,0.6,0.5
2024-11-23T0700,1694A,115.3706,22.7898,汕尾市,市政府,,22,17,17,15,15,36,,,,7,6,8,7,0.6,0.6
2024-11-23T0700,1695A,115.3622,22.7925,汕尾市,新城中学,,26,19,18,18,15,36,,,,6,6,7,7,0.7,0.7
2024-11-23T0700,2645A,109.9154,33.8715,商洛市,监测站,,41,41,39,26,22,21,,,,28,26,4,4,0.6,0.7
2024-11-23T0700,3045A,109.9643,33.8471,商洛市,商州区中学,,44,44,41,21,21,4,,,,42,33,7,7,0.6,0.7
2024-11-23T0700,2408A,115.6702,34.4285,商丘市,环境监测站,颗粒物(PM10),65,79,98,46,72,4,,,,48,44,5,8,0.3,0.5
2024-11-23T0700,2409A,115.6458,34.4045,商丘市,粮食局,,40,37,79,28,68,31,,,,23,24,4,6,0.4,0.6
2024-11-23T0700,2410A,115.6293,34.3948,商丘市,睢阳区环保局,,42,42,89,28,70,37,,,,31,33,7,10,0.2,0.5
2024-11-23T0700,3171A,115.6071,34.4465,商丘市,梁园区档案局,,48,47,88,33,76,26,,,,40,39,5,7,0.5,0.5
2024-11-23T0700,1141A,121.4,31.238,上海市,普陀,,22,14,51,7,37,24,,,,43,34,6,7,0.7,0.8
2024-11-23T0700,1142A,121.478,31.2036,上海市,十五厂,,19,13,44,8,37,38,,,,38,30,7,8,0.6,0.6
2024-11-23T0700,1143A,121.467,31.3008,上海市,虹口,,24,12,42,8,38,29,,,,47,36,9,10,0.7,0.8
2024-11-23T0700,1144A,121.412,31.1654,上海市,徐汇上师大,,18,14,47,12,45,44,,,,30,32,10,10,0.6,0.7
2024-11-23T0700,1145A,121.536,31.2659,上海市,杨浦四漂,,15,9,42,6,35,48,,,,22,24,7,8,0.7,0.8
2024-11-23T0700,1147A,121.425,31.2261,上海市,静安监测站,,24,15,47,6,39,25,,,,47,36,8,9,0.5,0.6
2024-11-23T0700,1148A,121.703,31.1907,上海市,浦东川沙,,34,15,43,7,31,21,,,,68,43,7,7,0.4,0.5
2024-11-23T0700,1149A,121.533,31.2284,上海市,浦东新区监测站,,17,9,40,9,37,46,,,,33,37,7,8,0.4,0.5
2024-11-23T0700,1150A,121.577,31.2071,上海市,浦东张江,,24,9,41,3,36,32,,,,47,34,6,6,0.1,0.3
2024-11-23T0700,3265A,121.4316,31.3322,上海市,宝山庙行,,27,15,48,3,38,22,,,,54,36,11,12,0.6,0.7
2024-11-23T0700,3266A,121.8791,31.4662,上海市,崇明上实东滩,,14,11,32,3,23,43,,,,14,12,8,9,0.4,0.5
2024-11-23T0700,3268A,121.3162,31.2838,上海市,嘉定南翔,,22,12,47,7,37,23,,,,44,36,7,9,0.6,0.7
2024-11-23T0700,3269A,121.3359,30.7456,上海市,金山新城,,18,12,56,10,51,33,,,,36,36,6,6,0.5,0.5
2024-11-23T0700,3270A,121.4996,31.0739,上海市,闵行浦江,,26,13,44,7,36,23,,,,51,36,6,7,0.6,0.7
2024-11-23T0700,3271A,121.2886,31.1663,上海市,青浦徐泾,,21,13,51,8,42,30,,,,41,36,8,9,0.4,0.6
2024-11-23T0700,3272A,121.2186,31.0378,上海市,松江图书馆,,21,15,49,13,43,28,,,,41,36,6,7,0.5,0.7
2024-11-23T0700,3273A,121.3902,31.2059,上海市,长宁仙霞,,20,12,45,8,39,27,,,,39,36,8,9,0.6,0.7
2024-11-23T0700,3274A,121.7965,31.0507,上海市,浦东惠南,,29,19,37,9,32,11,,,,57,34,7,7,0.6,0.7
2024-11-23T0700,3544A,121.4891,30.925,上海市,奉贤南桥新城,,22,15,48,8,41,31,,,,43,36,8,8,0.5,0.6
2024-11-23T0700,2381A,118.005,28.4572,上饶市,百草园,细颗粒物(PM2.5),89,84,45,66,30,50,,,,17,14,21,8,0.9,0.8
2024-11-23T0700,2382A,117.9756,28.4436,上饶市,市监测站,颗粒物(PM10),69,88,50,49,24,51,,,,2,13,26,10,0.8,0.6
2024-11-23T0700,2383A,117.9519,28.4628,上饶市,凤凰光学,颗粒物(PM10),65,80,47,46,26,48,,,,30,22,36,13,1.0,0.9
2024-11-23T0700,3413A,118.1953,28.4401,上饶市,广丰区教体局,细颗粒物(PM2.5),100,118,68,75,43,38,,,,31,24,12,10,1.1,0.8
2024-11-23T0700,3685A,117.897,28.4315,上饶市,双创科技城,细颗粒物(PM2.5),69,71,47,50,30,53,,,,27,20,22,10,0.9,0.8
