timepoint,stationcode,longitude,latitude,area,positionname,primarypollutant,aqi,pm10,pm10_24h,pm2_5,pm2_5_24h,o3,o3_24h,o3_8h,o3_8h_24h,no2,no2_24h,so2,so2_24h,co,co_24h
2025-07-27T0000,2566A,102.1879,31.914,阿坝藏族羌族自治州,州农科所,,22,,21,15,10,21,,42,31,5,6,14,14,0.9,1
2025-07-27T0000,2568A,102.2502,31.8896,阿坝藏族羌族自治州,马师校,,20,,12,14,15,5,,39,19,11,9,7,7,0.6,0.6
2025-07-27T0000,3994A,102.2165,31.9024,阿坝藏族羌族自治州,马尔康中学西区,,16,16,11,9,11,20,,46,,2,4,7,7,0.9,0.8
2025-07-27T0000,2695A,80.292,41.1694,阿克苏地区,电视台,颗粒物(PM10),72,94,94,42,42,61,,69,69,27,14,3,2,0.8,0.6
2025-07-27T0000,2696A,80.2613,41.1551,阿克苏地区,艺术中心,颗粒物(PM10),74,97,98,50,51,69,,80,80,20,12,3,3,0.6,0.6
2025-07-27T0000,2204A,105.6467,38.8363,阿拉善盟,西城区西花园,,,,29,,18,,,104,101,,10,,10,,1.1
2025-07-27T0000,2205A,105.6985,38.8411,阿拉善盟,蒙二幼,,34,34,28,11,17,90,,132,123,10,11,10,10,0.5,0.5
2025-07-27T0000,2206A,105.724,38.8516,阿拉善盟,环保局新楼,,28,15,19,9,16,89,,123,115,4,6,9,9,0.5,0.6
2025-07-27T0000,2708A,88.1264,47.8517,阿勒泰地区,市站,颗粒物(PM10),55,59,26,10,6,55,,99,77,18,15,2,2,0.5,0.3
2025-07-27T0000,2630A,80.1161,32.5,阿里地区,阿里监测站,,29,6,6,3,3,92,,94,90,3,9,6,6,0.1,0.1
2025-07-27T0000,3192A,80.0903,32.5028,阿里地区,阿里藏医院,,27,9,9,6,3,86,,96,91,6,4,7,6,0.2,0.1
2025-07-27T0000,2642A,109.0318,32.6537,安康市,香溪洞,,27,17,15,9,6,84,,81,81,3,4,7,7,0.4,0.4
2025-07-27T0000,2644A,109.0072,32.6975,安康市,汉滨区检察院,,18,18,25,7,6,39,,88,66,8,5,6,5,0.4,0.3
2025-07-27T0000,4054A,109.0325,32.6913,安康市,市邮政管理局,,20,17,22,11,9,64,,86,69,7,6,4,4,0.5,0.6
2025-07-27T0000,2291A,117.0809,30.5177,安庆市,环科院,,15,14,23,10,13,46,,73,60,10,5,4,5,0.6,0.5
2025-07-27T0000,2292A,117.0331,30.5119,安庆市,马山宾馆,,18,18,22,11,13,45,,69,59,10,5,4,3,0.5,0.5
2025-07-27T0000,2294A,116.9896,30.6145,安庆市,安庆大学,,20,15,22,12,17,63,,72,68,9,8,4,4,0.4,0.4
2025-07-27T0000,3173A,117.0598,30.5351,安庆市,市人大,,21,21,23,10,13,43,,73,59,15,9,4,4,0.5,0.4
2025-07-27T0000,3122A,105.9606,26.2611,安顺市,伍家关,,,,9,,6,,,63,56,,5,,4,,0.4
2025-07-27T0000,3123A,105.9408,26.2431,安顺市,凤凰山,,16,16,15,11,9,40,,67,57,13,6,4,6,0.6,0.3
2025-07-27T0000,3124A,105.9439,26.2564,安顺市,金钟山,,16,14,12,10,9,51,,63,56,2,4,4,6,0.4,0.4
2025-07-27T0000,3125A,105.8983,26.2481,安顺市,娄家坡,,16,9,12,3,8,51,,59,54,6,4,6,7,0.3,0.3
2025-07-27T0000,1818A,114.4839,36.0621,安阳市,棉研所,,,,,,,,,,,,,,,,
2025-07-27T0000,1819A,114.3551,36.1017,安阳市,红庙街,,41,41,34,23,16,59,,106,86,16,7,3,3,0.4,0.4
2025-07-27T0000,1820A,114.361,36.0681,安阳市,银杏小区,,42,42,36,24,20,46,,100,74,14,6,4,4,0.3,0.3
2025-07-27T0000,3141A,114.3922,36.0878,安阳市,信访局,,36,36,36,25,23,76,,116,93,18,13,5,5,0.3,0.2
2025-07-27T0000,3669A,114.4705,36.0637,安阳市,左辅环卫站,,43,43,37,28,23,52,,98,74,16,10,6,6,0.4,0.4
2025-07-27T0000,3703A,114.2917,36.0949,安阳市,安钢职工学校,,33,23,35,23,20,65,,107,88,14,8,10,5,0.4,0.4
2025-07-27T0000,1748A,123.044,41.1196,鞍山市,深沟寺,,38,38,28,26,16,42,,101,77,20,11,6,7,1.0,0.8
2025-07-27T0000,1749A,123.011,41.0931,鞍山市,太阳城,颗粒物(PM10),53,56,31,36,20,30,,102,73,30,13,8,7,1.6,0.8
2025-07-27T0000,1750A,123.0485,41.1442,鞍山市,太平,颗粒物(PM10),52,53,37,28,19,45,,99,77,22,11,9,8,1.2,0.8
2025-07-27T0000,1751A,122.9642,41.0971,鞍山市,铁西三道街,颗粒物(PM10),53,56,36,31,20,25,,99,67,42,17,11,8,1.3,0.8
2025-07-27T0000,1753A,123.022,41.0821,鞍山市,明达新区,,44,44,27,28,16,41,,90,68,23,10,11,9,1.2,0.7
2025-07-27T0000,1754A,123.1289,41.0228,鞍山市,千山,,,,,,,,,,,,,,,,
2025-07-27T0000,4201A,122.9446,41.0826,鞍山市,兴盛南路290号,颗粒物(PM10),62,74,38,31,18,31,,96,64,33,19,5,7,1.0,0.7
2025-07-27T0000,2195A,107.4212,40.761,巴彦淖尔市,附二中,,33,33,21,19,13,81,,121,108,6,7,6,7,0.7,0.6
2025-07-27T0000,2196A,107.37,40.7372,巴彦淖尔市,市环保大楼,,49,49,38,19,14,78,,113,103,8,9,6,6,0.5,0.5
2025-07-27T0000,1956A,86.1472,41.7538,巴音郭楞蒙古自治州,孔雀公园,,38,38,58,16,20,108,,114,113,7,7,3,4,0.3,0.2
2025-07-27T0000,1957A,86.1972,41.7166,巴音郭楞蒙古自治州,棉纺厂,,46,46,74,11,14,101,,111,105,10,5,3,4,0.2,0.2
2025-07-27T0000,1958A,86.2357,41.7173,巴音郭楞蒙古自治州,经济开发区,,41,41,49,6,13,107,,116,111,7,5,3,4,0.1,0.1
2025-07-27T0000,2914A,106.7677,31.8794,巴中市,苏山坪,,23,,9,3,6,72,,77,77,5,5,4,5,0.4,0.4
2025-07-27T0000,3181A,106.7768,31.8526,巴中市,市五中,,18,18,16,3,8,24,,77,59,20,10,9,9,0.5,0.5
2025-07-27T0000,3183A,106.7418,31.8654,巴中市,圣泉水务公司,,15,11,13,10,10,26,,83,58,19,7,7,7,0.6,0.5
2025-07-27T0000,3616A,106.7616,31.8344,巴中市,市中心医院,,18,18,16,9,10,17,,78,54,27,14,9,8,0.5,0.4
2025-07-27T0000,2235A,122.7911,45.6077,白城市,洮北区环保局,,28,26,14,19,16,44,,97,70,16,6,5,4,0.4,0.4
2025-07-27T0000,2236A,122.8738,45.5725,白城市,市环保局,,18,14,17,12,11,20,,85,52,26,5,3,3,0.5,0.4
2025-07-27T0000,2231A,126.4219,41.9171,白山市,喜丰,颗粒物(PM10),74,98,37,24,11,1,,62,26,22,12,5,4,0.9,0.7
2025-07-27T0000,2232A,126.4077,41.9419,白山市,环保局,,26,26,24,14,10,9,,72,38,10,9,9,10,0.6,0.7
2025-07-27T0000,2647A,104.1724,36.5446,白银市,第三小学,颗粒物(PM10),76,101,47,24,23,72,,142,119,33,17,39,36,1.1,0.8
2025-07-27T0000,2648A,104.1465,36.5482,白银市,动力公司,颗粒物(PM10),53,56,35,25,19,60,,140,118,26,13,19,26,0.5,0.5
2025-07-27T0000,2512A,106.6103,23.9011,百色市,市监测站,,,70,29,12,10,,,96,,13,11,4,5,0.6,0.6
2025-07-27T0000,2513A,106.6538,23.8859,百色市,市中心血站,颗粒物(PM10),51,52,36,29,18,41,,105,65,32,19,6,5,0.8,0.6
2025-07-27T0000,3406A,106.6085,23.8798,百色市,祈福高中,颗粒物(PM10),51,51,39,30,19,34,,100,65,25,17,5,6,0.6,0.5
2025-07-27T0000,2270A,117.396,32.939,蚌埠市,工人疗养院,,16,16,23,3,7,37,,66,54,2,3,4,4,0.2,0.2
2025-07-27T0000,2271A,117.3605,32.9427,蚌埠市,百货大楼,,14,14,20,3,7,33,,64,50,1,3,6,6,0.2,0.3
2025-07-27T0000,2273A,117.4185,32.8911,蚌埠市,蚌埠学院,,12,12,18,3,8,17,,63,43,17,11,8,7,0.2,0.2
2025-07-27T0000,2274A,117.3533,32.9673,蚌埠市,淮上区政府,,24,24,25,9,10,37,,66,53,3,4,6,6,0.3,0.4
2025-07-27T0000,2275A,117.3145,32.8977,蚌埠市,高新区,,12,12,19,3,7,8,,63,41,10,6,6,6,0.3,0.3
2025-07-27T0000,3715A,117.3092,32.9314,蚌埠市,蚌埠田家炳中学,,25,25,26,6,12,34,,62,50,2,4,7,7,0.1,0.1
2025-07-27T0000,1585A,109.8756,40.6532,包头市,市环境监测站,,22,18,18,6,10,68,,71,70,20,19,13,8,0.5,0.6
2025-07-27T0000,1587A,109.9991,40.5842,包头市,包头八中,,23,21,26,3,11,73,,77,76,17,19,6,9,0.5,0.7
2025-07-27T0000,1588A,109.8538,40.6821,包头市,青山宾馆,,18,18,15,10,8,48,,73,59,23,18,7,5,0.6,0.5
2025-07-27T0000,1589A,109.8642,40.6288,包头市,惠龙物流,,24,10,19,8,11,75,,75,75,12,13,5,4,0.4,0.7
2025-07-27T0000,1590A,110.0377,40.5546,包头市,东河鸿龙湾,,23,8,13,3,11,71,,83,81,12,13,4,2,0.5,0.6
2025-07-27T0000,3283A,109.9154,40.5685,包头市,滨河大厦,,22,10,12,8,10,70,,82,82,13,10,1,3,0.4,0.5
2025-07-27T0000,3419A,109.9447,40.6261,包头市,包头市委党校,,22,18,18,14,12,69,,79,77,23,19,17,11,0.6,0.6
2025-07-27T0000,3683A,109.8331,40.6576,包头市,昆区政府,,25,13,21,7,9,80,,77,77,16,17,8,5,0.6,0.8
2025-07-27T0000,1930A,107.185,34.3063,宝鸡市,庙沟村,,13,8,17,6,6,41,,109,67,15,9,3,3,0.4,0.4
2025-07-27T0000,1931A,107.0708,34.3017,宝鸡市,竹园沟,,12,6,16,3,7,38,,107,51,7,8,7,7,0.3,0.3
2025-07-27T0000,1932A,107.1906,34.3672,宝鸡市,三陆医院,,12,8,23,3,11,38,,106,58,13,19,7,8,0.5,0.6
2025-07-27T0000,1933A,107.1431,34.3547,宝鸡市,监测站,,18,18,23,6,10,33,,110,58,8,10,8,9,0.3,0.3
2025-07-27T0000,1934A,107.1186,34.3739,宝鸡市,技工学校,,15,15,19,3,9,39,,108,59,5,8,6,7,0.5,0.5
2025-07-27T0000,1936A,107.2058,34.3497,宝鸡市,文理学院,,14,14,21,7,11,41,,111,66,10,12,7,7,0.4,0.5
2025-07-27T0000,1937A,107.2386,34.3622,宝鸡市,三迪小学,,14,,22,6,11,43,,111,70,14,16,8,8,0.4,0.5
2025-07-27T0000,4308A,107.3898,34.3601,宝鸡市,陈仓区北开路21号,,16,,11,7,10,50,,110,78,8,11,7,21,0.3,0.4
2025-07-27T0000,1051A,115.493,38.8632,保定市,游泳馆,,39,39,38,11,23,69,,112,81,10,12,1,2,0,0.1
2025-07-27T0000,1052A,115.5213,38.8959,保定市,华电二区,,36,36,35,22,22,67,,130,100,15,10,6,3,0.2,0.3
2025-07-27T0000,1053A,115.4713,38.9108,保定市,接待中心,,31,31,38,13,21,85,,125,105,6,5,3,3,0.2,0.3
2025-07-27T0000,1054A,115.4612,38.8416,保定市,地表水厂,颗粒物(PM10),52,54,52,13,19,64,,121,94,15,8,3,2,0.0,0.1
2025-07-27T0000,3581A,115.31981,38.95208,保定市,满城区生态环境分局,,44,44,46,19,24,52,,100,77,10,7,2,1,0.2,0.2
2025-07-27T0000,3582A,115.47694,38.76408,保定市,清苑区第二中学,颗粒物(PM10),54,58,49,24,27,54,,116,86,13,7,4,2,0.2,0.2
2025-07-27T0000,3583A,115.62909,39.02311,保定市,徐水物探局,,,48,43,22,17,,,129,112,12,8,3,2,0.1,0.2
2025-07-27T0000,4004A,115.4202,38.8656,保定市,双鹰农机,,29,20,24,20,24,64,,120,93,17,10,2,2,0.1,0.2
2025-07-27T0000,4034A,115.5150,38.8590,保定市,植保所站,,44,44,34,22,17,73,,140,106,18,20,4,3,0.1,0.1
2025-07-27T0000,2594A,99.1678,25.1081,保山市,市环境监测站,,22,17,14,15,14,11,,38,28,12,9,4,5,0.5,0.4
2025-07-27T0000,2595A,99.1711,25.1328,保山市,市环保局,,14,14,13,3,9,14,,40,30,6,7,8,8,0.4,0.4
2025-07-27T0000,1866A,109.2262,21.588,北海市,牛尾岭水库,,,,17,,9,,,98,67,,7,,3,,0.6
2025-07-27T0000,1867A,109.1436,21.4086,北海市,海滩公园,,29,12,18,3,4,90,,92,83,3,4,2,3,0.5,0.5
2025-07-27T0000,1868A,109.0981,21.4661,北海市,新市环保局,,,16,16,,10,78,,94,78,6,7,2,4,0.4,0.4
2025-07-27T0000,1869A,109.1778,21.5233,北海市,北海工业园,,25,20,21,17,13,58,,105,77,10,7,4,5,0.5,0.5
2025-07-27T0000,3400A,109.1911,21.4415,北海市,龙潭自来水厂,,20,18,15,14,8,61,,96,76,6,5,5,5,0.5,0.5
2025-07-27T0000,1001A,116.3621,39.8784,北京市,万寿西宫,,22,18,38,10,30,69,,114,93,15,17,2,2,0.4,0.5
2025-07-27T0000,1002A,116.2202,40.2915,北京市,定陵,,18,12,48,12,39,56,,109,90,2,5,9,8,0.4,0.5
2025-07-27T0000,1003A,116.4174,39.9289,北京市,东四,,23,15,40,8,34,71,,133,110,14,16,4,3,0.3,0.4
2025-07-27T0000,1004A,116.4072,39.8863,北京市,天坛,,16,16,40,10,27,50,,107,62,15,14,4,4,0.4,0.6
2025-07-27T0000,1005A,116.462,39.9365,北京市,农展馆,,22,17,35,10,25,69,,124,106,8,11,3,2,0.4,0.6
2025-07-27T0000,1006A,116.3392,39.9295,北京市,官园,,24,20,42,11,27,75,,119,103,14,15,3,2,0.4,0.5
2025-07-27T0000,1007A,116.2878,39.9611,北京市,海淀万柳,,22,18,43,11,31,69,,115,83,14,17,3,3,0.2,0.4
2025-07-27T0000,1008A,116.6636,40.135,北京市,顺义新城,细颗粒物(PM2.5),68,,39,49,30,83,,128,101,12,7,2,2,0.5,0.5
2025-07-27T0000,1009A,116.6275,40.3275,北京市,怀柔镇,,35,11,38,8,31,110,,129,113,6,10,3,2,0.3,0.5
2025-07-27T0000,1010A,116.2296,40.217,北京市,昌平镇,,19,19,40,12,26,40,,113,78,8,12,3,3,0.4,0.5
2025-07-27T0000,1011A,116.3966,39.9821,北京市,奥体中心,,21,17,36,10,25,67,,123,104,9,12,4,4,0.3,0.5
2025-07-27T0000,3281A,115.9718,40.4529,北京市,延庆夏都,,14,6,26,3,12,44,,84,62,4,6,2,2,0.6,0.7
2025-07-27T0000,3418A,116.8336,40.4095,北京市,密云新城,,29,15,31,9,21,92,,108,103,3,6,3,3,0.5,0.6
2025-07-27T0000,3671A,116.088,39.9726,北京市,门头沟三家店,,34,34,42,23,33,82,,111,76,12,13,3,4,0.5,0.5
2025-07-27T0000,3672A,116.1541,39.8204,北京市,丰台云岗,,38,35,46,26,34,53,,110,74,19,12,1,2,0.5,0.6
2025-07-27T0000,3673A,116.6804,39.9081,北京市,通州东关,,44,44,46,23,29,60,,136,103,38,16,2,1,0.8,0.6
2025-07-27T0000,3674A,115.9577,39.7603,北京市,房山燕山,,30,30,37,19,33,72,,112,89,7,5,1,2,0.4,0.4
2025-07-27T0000,3675A,116.4672,39.7733,北京市,大兴旧宫,,21,21,40,11,24,59,,125,102,16,13,5,2,0.5,0.6
2025-07-27T0000,3694A,115.986,40.4563,北京市,延庆石河营,,10,9,27,3,23,32,,74,50,5,6,2,2,0.4,0.5
2025-07-27T0000,3695A,116.6151,40.3053,北京市,怀柔新城,,32,14,40,11,32,101,,118,105,4,7,1,2,0.6,0.8
2025-07-27T0000,3696A,116.2545,39.8768,北京市,丰台小屯,,20,20,42,10,32,60,,94,73,7,11,1,1,0.4,0.6
2025-07-27T0000,3697A,116.84,40.3844,北京市,密云镇,,29,29,30,17,28,90,,119,110,8,7,2,2,0.6,0.7
2025-07-27T0000,4182A,116.1942,39.9158,北京市,八角北路9号,,38,38,53,22,30,67,,131,105,14,14,3,3,0.3,0.4
2025-07-27T0000,4194A,117.0790,40.1518,北京市,洳河巡河路,,49,46,44,34,32,96,,132,125,11,9,2,2,0.5,0.5
2025-07-27T0000,1761A,123.8275,41.3064,本溪市,大峪,,41,41,28,15,13,12,,89,50,31,11,4,5,0.3,0.3
2025-07-27T0000,1762A,123.7567,41.3325,本溪市,溪湖,,41,41,31,19,17,16,,95,42,17,13,4,7,1.6,1.3
2025-07-27T0000,1763A,123.7169,41.3094,本溪市,彩屯,,31,31,34,16,21,6,,81,29,26,18,7,9,0.5,1.1
2025-07-27T0000,1764A,123.7669,41.2864,本溪市,东明,,41,41,30,14,14,13,,82,51,36,13,3,3,0.5,0.4
2025-07-27T0000,1765A,123.7992,41.2664,本溪市,新立屯,,16,16,28,10,13,32,,71,37,18,15,3,4,0.6,0.6
2025-07-27T0000,1766A,123.8142,41.3472,本溪市,威宁,,35,32,35,24,18,1,,82,29,25,14,7,7,0.4,0.5
2025-07-27T0000,2587A,105.2864,27.3125,毕节市,八中,,23,,14,16,13,11,,65,38,11,10,3,4,0.5,0.5
2025-07-27T0000,2588A,105.31,27.2944,毕节市,师专,,33,33,23,16,11,12,,70,44,21,13,4,5,0.7,0.7
2025-07-27T0000,4263A,105.3688,27.3598,毕节市,工业大道,,36,36,21,22,11,3,,70,34,25,14,6,6,0.7,0.6
2025-07-27T0000,1629A,118.0018,37.3617,滨州市,第二水厂,,29,29,30,12,21,37,,136,83,18,13,5,6,0.5,0.6
2025-07-27T0000,1630A,117.9776,37.393,滨州市,北中新校,,27,27,32,9,18,42,,128,85,20,17,4,3,0.3,0.4
2025-07-27T0000,3514A,117.9378,37.3956,滨州市,中海酒店,,25,19,26,17,21,43,,122,92,16,8,10,10,0.7,0.7
2025-07-27T0000,3515A,117.9378,37.3553,滨州市,开发区一中,,22,22,28,7,17,37,,137,93,31,15,14,14,0.4,0.5
2025-07-27T0000,3516A,118.0917,37.694,滨州市,金海六路,,27,27,29,17,16,39,,115,86,19,12,9,10,0.2,0.2
2025-07-27T0000,4028A,117.9956,37.3753,滨州市,滨州市西街道办事处,,24,24,28,12,20,46,,155,92,16,13,5,5,0.3,0.3
2025-07-27T0000,2311A,115.8072,33.8399,亳州市,污水处理厂,,17,17,18,10,13,53,,83,73,7,6,6,5,0.4,0.4
2025-07-27T0000,2312A,115.7789,33.8518,亳州市,三国揽胜宫,,29,29,30,7,13,58,,86,78,5,4,7,7,0.4,0.5
2025-07-27T0000,3332A,115.7633,33.8034,亳州市,亳州学院,,17,17,15,6,9,52,,81,71,6,6,2,3,0.4,0.4
2025-07-27T0000,2693A,82.0485,44.8556,博尔塔拉蒙古自治州,市党校,,46,46,39,28,17,91,,124,110,11,9,5,5,0.1,0.1
2025-07-27T0000,2694A,82.0806,44.8969,博尔塔拉蒙古自治州,市环保局,颗粒物(PM10),58,66,41,18,16,76,,119,105,14,7,6,6,0.4,0.3
2025-07-27T0000,1071A,116.8842,38.2991,沧州市,沧县城建局,,27,27,34,18,17,79,,102,97,23,15,1,2,0.6,0.3
2025-07-27T0000,1072A,116.8584,38.3254,沧州市,电视转播站,,41,41,43,14,21,67,,93,89,25,16,5,3,0.2,0.1
2025-07-27T0000,1073A,116.8709,38.3228,沧州市,市环保局,,42,42,41,18,21,71,,105,101,20,11,3,2,0.3,0.2
2025-07-27T0000,3324A,116.8136,38.3004,沧州市,河北水利电力学院,,39,39,33,24,25,77,,111,107,26,11,8,2,0.3,0.2
2025-07-27T0000,2622A,97.1806,31.1273,昌都市,昌都监测站,,17,13,10,3,7,53,,78,62,4,5,3,4,0.2,0.3
2025-07-27T0000,3719A,97.1714,31.1406,昌都市,昌都会议中心,,16,7,12,3,7,51,,85,67,7,5,5,5,0.2,0.2
2025-07-27T0000,2690A,88.1236,43.8886,昌吉回族自治州,天山天池,,25,25,25,11,8,79,,123,108,5,6,4,4,0.5,0.5
2025-07-27T0000,2692A,87.2717,44.0297,昌吉回族自治州,新区政务中心,,47,47,44,9,15,47,,126,96,47,30,11,9,0.4,0.4
2025-07-27T0000,3613A,87.3095,44.0142,昌吉回族自治州,亚心广场,颗粒物(PM10),59,68,65,17,19,41,,126,90,57,37,8,9,0.5,0.5
2025-07-27T0000,1120A,125.2863,43.9027,长春市,客车厂,,23,11,28,11,22,72,,56,56,10,16,2,2,0.3,0.5
2025-07-27T0000,1121A,125.2841,43.8463,长春市,邮电学院,,19,17,30,13,20,38,,47,38,10,13,4,4,0.4,0.5
2025-07-27T0000,1122A,125.3716,43.8772,长春市,劳动公园,,18,15,35,9,23,55,,51,48,10,18,5,5,0.2,0.4
2025-07-27T0000,1123A,125.3297,43.8805,长春市,园林处,,23,,30,10,19,73,,52,52,6,13,3,3,0.3,0.6
2025-07-27T0000,1124A,125.4605,43.79,长春市,净月潭,,19,12,34,11,17,60,,34,33,3,7,3,3,0.3,0.5
2025-07-27T0000,1125A,125.7194,43.515,长春市,甩湾子,,,,25,,17,,,62,35,,12,,2,,0.6
2025-07-27T0000,1126A,125.3863,43.8447,长春市,经开区环卫处,,20,10,33,9,19,62,,49,45,7,16,8,8,0.3,0.5
2025-07-27T0000,1127A,125.245,43.7783,长春市,高新区管委会,,18,7,29,6,24,56,,50,40,8,13,2,3,0.4,0.6
2025-07-27T0000,1128A,125.1761,43.8325,长春市,岱山公园,,22,,29,15,23,44,,47,42,35,21,2,2,0.3,0.4
2025-07-27T0000,4281A,125.3346,43.9164,长春市,北亚泰大街1068号,,17,,30,11,20,54,,54,53,20,20,5,5,0.4,0.5
2025-07-27T0000,1335A,113.0833,28.2325,长沙市,经开区环保局,,31,31,27,18,17,49,,103,82,24,10,4,4,0.4,0.3
2025-07-27T0000,1336A,112.8872,28.2189,长沙市,高开区环保局,,33,33,36,12,19,50,,122,92,28,8,4,4,0.5,0.5
2025-07-27T0000,1337A,113.0792,28.2053,长沙市,马坡岭,,29,29,27,19,17,31,,109,76,28,10,4,5,0.5,0.4
2025-07-27T0000,1338A,112.9394,28.19,长沙市,湖南师范大学,,32,30,31,22,19,55,,123,85,10,8,2,2,0.6,0.5
2025-07-27T0000,1339A,113.0178,28.1322,长沙市,雨花区环保局,,31,31,29,14,13,14,,116,78,40,8,4,5,0.7,0.5
2025-07-27T0000,1340A,112.9792,28.2597,长沙市,伍家岭,,31,31,32,16,17,49,,117,78,18,12,1,2,0.3,0.2
2025-07-27T0000,1341A,113.0014,28.1944,长沙市,火车新站,,26,26,30,14,13,62,,114,,12,7,6,3,0.6,0.5
2025-07-27T0000,1342A,112.9844,28.1178,长沙市,天心区环保局,,35,29,29,24,20,61,,124,95,16,12,3,2,0.5,0.3
2025-07-27T0000,1343A,112.8908,28.1308,长沙市,湖南中医药大学,,30,25,34,21,20,17,,122,76,32,11,2,3,0.7,0.7
2025-07-27T0000,1344A,112.9581,28.3611,长沙市,沙坪,,43,43,31,13,19,55,,114,94,11,10,2,3,0.6,0.5
2025-07-27T0000,1727A,113.1147,36.1547,长治市,清华站,,19,19,22,12,10,60,,117,83,7,5,6,5,0.5,0.5
2025-07-27T0000,1730A,113.0886,36.2125,长治市,审计局,,20,11,20,3,9,64,,116,89,6,7,4,4,0.6,0.6
2025-07-27T0000,1731A,113.0844,36.1856,长治市,长治八中,,22,15,23,15,17,64,,119,89,6,6,7,7,0.5,0.5
2025-07-27T0000,2845A,113.1569,36.1911,长治市,德盛苑,,17,16,23,7,10,52,,113,79,7,6,6,6,0.6,0.6
2025-07-27T0000,3568A,113.06,36.0464,长治市,向阳小学,颗粒物(PM10),52,54,52,14,15,54,,110,81,7,4,5,6,0.6,0.6
2025-07-27T0000,3569A,112.8792,36.3144,长治市,屯留一中,,38,38,33,22,24,65,,120,95,9,7,6,7,0.1,0.2
2025-07-27T0000,4189A,113.1131,36.19948,长治市,英华南巷50号,,19,19,24,12,11,59,,114,82,6,6,5,6,0.6,0.7
2025-07-27T0000,4190A,113.2367,36.3344,长治市,学府街1号,,32,32,36,12,18,4,,116,67,47,19,3,3,0.3,0.5
2025-07-27T0000,1854A,111.6975,28.9703,常德市,市二中,,33,33,28,22,20,73,,130,101,16,9,3,3,0.6,0.6
2025-07-27T0000,1857A,111.7158,29.1456,常德市,白鹤山,,,,,,,,,,,,,,,,
2025-07-27T0000,3138A,111.7153,29.0289,常德市,武陵区永安,,39,33,34,27,22,98,,132,108,8,8,3,3,0.4,0.4
2025-07-27T0000,3139A,111.6892,28.9881,常德市,鼎城区玉霞,,36,32,30,25,22,55,,123,99,16,8,1,2,0.5,0.5
2025-07-27T0000,3140A,111.6625,29.0531,常德市,武陵区长庚,,34,34,28,23,20,73,,121,108,14,7,2,2,0.5,0.5
2025-07-27T0000,1196A,119.9633,31.762,常州市,市监测站,,22,22,20,8,7,26,,60,38,7,8,8,10,0.3,0.3
2025-07-27T0000,1200A,119.9468,31.7069,常州市,武进监测站,,17,17,17,6,6,22,,60,35,7,5,11,10,0.8,0.8
2025-07-27T0000,1201A,119.9255,31.9087,常州市,安家,,25,25,22,3,7,26,,59,35,9,9,8,8,0.7,0.8
2025-07-27T0000,3002A,119.9805,31.8174,常州市,行政中心,,19,19,17,11,8,23,,55,32,9,9,10,10,0.3,0.3
2025-07-27T0000,3003A,120.0522,31.7748,常州市,经开区,,24,24,26,3,6,25,,56,34,8,9,6,5,0.1,0.1
2025-07-27T0000,3010A,119.9025,31.7964,常州市,钟楼,,19,19,21,8,4,29,,59,38,8,8,7,6,0.4,0.4
2025-07-27T0000,3429A,119.8598,31.7066,常州市,武进经发区,,18,18,18,7,8,21,,59,35,6,5,7,6,0.6,0.6
2025-07-27T0000,3430A,119.5826,31.7245,常州市,金坛城区,,30,30,21,8,10,24,,70,37,9,11,7,8,0.3,0.4
2025-07-27T0000,2220A,120.4318,41.5881,朝阳市,西梁,,30,27,31,21,20,60,,103,74,11,9,6,7,0.9,0.7
2025-07-27T0000,2221A,120.4521,41.5646,朝阳市,河畔小区,,26,19,31,18,22,62,,110,86,9,7,7,5,0.6,0.5
2025-07-27T0000,2222A,120.4176,41.5648,朝阳市,八里堡,,32,,41,22,23,60,,110,89,8,7,3,2,0.8,0.6
2025-07-27T0000,2223A,120.3806,41.5969,朝阳市,农业园区,,29,,31,20,24,39,,107,65,10,10,5,5,0.6,0.5
2025-07-27T0000,1705A,116.6367,23.6719,潮州市,西园路,,38,35,27,26,16,44,,65,43,16,8,10,5,0.4,0.3
2025-07-27T0000,3026A,116.6183,23.6608,潮州市,市政府,,26,26,34,16,15,53,,74,48,19,14,21,14,0.6,0.6
2025-07-27T0000,4036A,116.6461,23.6761,潮州市,金山,,35,35,26,21,15,34,,70,43,17,7,10,5,0.8,0.6
2025-07-27T0000,2472A,113.0073,25.9061,郴州市,马头岭,,23,23,29,6,11,12,,92,45,20,10,4,7,0.6,0.6
2025-07-27T0000,2473A,113.0116,25.8226,郴州市,市职中,,23,23,29,14,19,20,,88,45,11,11,4,7,0.5,0.5
2025-07-27T0000,2475A,113.0383,25.8071,郴州市,市审计局,,23,23,26,11,16,30,,93,54,21,18,4,12,0.2,0.1
2025-07-27T0000,2476A,113.0348,25.7759,郴州市,市环保局,,26,26,31,16,18,45,,94,60,15,17,6,11,0.3,0.3
2025-07-27T0000,4252A,113.0138,25.8011,郴州市,好美居路49号,,23,23,29,14,17,36,,94,55,11,12,3,8,0.4,0.4
2025-07-27T0000,1431A,103.9728,30.7236,成都市,金泉两河,,16,16,14,3,4,36,,114,93,21,10,2,2,0.4,0.4
2025-07-27T0000,1432A,104.176,30.6872,成都市,十里店,,28,28,16,3,6,55,,156,131,22,11,4,4,0.5,0.4
2025-07-27T0000,1433A,104.079,30.5706,成都市,三瓦窑,,19,19,15,7,7,50,,127,105,30,17,3,2,0.3,0.3
2025-07-27T0000,1434A,104.1114,30.63,成都市,沙河铺,,18,18,19,3,8,46,,115,99,18,12,6,7,0.4,0.4
2025-07-27T0000,1437A,104.0786,30.6531,成都市,君平街,,22,16,17,3,7,70,,138,123,15,11,5,5,0.5,0.5
2025-07-27T0000,1438A,103.613,31.0283,成都市,灵岩寺,,,,,,,,,,,,,,,,
2025-07-27T0000,2880A,104.0239,30.65639,成都市,大石西路,,30,30,17,3,8,49,,112,97,20,13,3,2,0.5,0.5
2025-07-27T0000,3136A,104.2725,30.5589,成都市,龙泉驿区区政府,,25,9,11,3,4,78,,134,124,14,15,4,4,0.5,0.5
2025-07-27T0000,3357A,104.0106,30.6931,成都市,金博路,,16,15,9,3,6,50,,119,102,20,12,4,4,0.6,0.6
2025-07-27T0000,3359A,104.0578,30.5225,成都市,华阳,,20,,9,14,8,58,,116,102,15,12,4,3,0.5,0.5
2025-07-27T0000,3488A,104.3853,30.7453,成都市,青白江技师分院,,34,34,22,3,8,72,,142,126,25,19,5,5,0.6,0.6
2025-07-27T0000,3489A,104.0789,30.4072,成都市,科学城,,18,14,9,10,6,56,,107,97,14,9,2,3,0.5,0.4
2025-07-27T0000,4011A,103.8506,30.6947,成都市,光华大道三段,,25,25,15,12,6,42,,96,83,23,12,4,4,0.6,0.5
2025-07-27T0000,4224A,104.2433,30.5353,成都市,鲸龙路1057号,,28,14,15,6,8,87,,137,129,9,14,7,6,0.6,0.6
2025-07-27T0000,1062A,117.9531,40.9081,承德市,铁路,,20,20,39,3,23,61,,84,73,2,7,1,2,0.2,0.4
2025-07-27T0000,1063A,117.9392,40.9763,承德市,中国银行,,15,7,36,3,26,48,,76,59,5,9,3,3,0.2,0.4
2025-07-27T0000,1064A,117.9503,40.928,承德市,开发区,,23,20,42,10,22,72,,96,82,4,9,4,4,0.3,0.6
2025-07-27T0000,1066A,117.9268,41.0026,承德市,离宫,,21,21,36,8,20,35,,56,44,5,6,2,2,0.2,0.4
2025-07-27T0000,4274A,117.7994,40.9605,承德市,滨河大街98号,,13,6,32,3,22,39,,64,51,14,9,1,1,0.2,0.4
2025-07-27T0000,2314A,117.47,30.6618,池州市,池州学院,,15,15,23,9,13,44,,72,56,7,12,5,6,0.4,0.5
2025-07-27T0000,3237A,117.4918,30.6617,池州市,展览馆,,15,12,24,6,11,45,,74,56,7,12,4,6,0.6,0.6
2025-07-27T0000,3333A,117.5627,30.695,池州市,第八中学,,13,11,24,6,12,40,,73,53,6,10,4,6,0.5,0.5
2025-07-27T0000,3334A,117.5038,30.6243,池州市,第十二中学,,13,11,21,3,10,40,,66,51,8,12,2,4,0.7,0.7
2025-07-27T0000,1744A,118.9233,42.2816,赤峰市,松山一中,,12,12,10,3,5,28,,74,50,23,16,4,4,0.4,0.4
2025-07-27T0000,1745A,118.9576,42.2728,赤峰市,哈达街,,12,12,11,3,7,29,,68,45,16,15,12,12,0.6,0.6
2025-07-27T0000,1746A,118.8788,42.2554,赤峰市,天义路,,12,8,13,3,7,37,,67,50,8,11,8,8,0.3,0.3
2025-07-27T0000,3058A,119.2658,42.0353,赤峰市,银河街,,35,,26,24,22,43,,76,52,13,14,8,11,0.9,0.9
2025-07-27T0000,3286A,118.9359,42.3147,赤峰市,桥北物流园区,,10,10,14,3,6,14,,66,31,18,14,9,10,0.6,0.6
2025-07-27T0000,2521A,107.3476,22.4136,崇左市,市环保局江州分局,,23,23,19,11,8,45,,102,82,6,6,6,6,0.3,0.3
2025-07-27T0000,4256A,107.3750,22.3736,崇左市,石景林东路7号,,14,14,18,8,10,44,,102,81,9,7,4,4,0.5,0.5
2025-07-27T0000,2298A,118.3093,32.3153,滁州市,老年大学,,21,21,21,11,10,26,,58,43,6,3,6,6,0.2,0.2
2025-07-27T0000,2299A,118.3244,32.2786,滁州市,人大宾馆,,20,,8,14,11,26,,59,43,2,3,6,5,0.1,0.1
2025-07-27T0000,3207A,118.3118,32.3038,滁州市,市政府原办公楼,,23,22,19,16,15,27,,57,42,4,2,6,5,0.2,0.2
2025-07-27T0000,3331A,118.3267,32.2634,滁州市,图书馆,,20,,13,14,10,32,,66,50,7,5,10,10,0.1,0.1
2025-07-27T0000,2605A,101.5482,25.0441,楚雄彝族自治州,州环境监测站,,9,,8,6,8,20,,39,34,10,8,8,7,0.5,0.5
2025-07-27T0000,2606A,101.538,25.0492,楚雄彝族自治州,市经济开发区,,28,28,40,12,10,18,,35,30,15,11,7,6,0.7,0.7
2025-07-27T0000,2548A,107.5277,31.2827,达州市,达州职业技术学院,,28,28,24,7,3,8,,78,46,36,18,7,8,0.5,0.5
2025-07-27T0000,2549A,107.5086,31.2186,达州市,市环境监测站,,28,28,23,3,3,30,,87,60,31,23,6,7,0.4,0.3
2025-07-27T0000,2550A,107.4988,31.2132,达州市,凤凰小区,,24,24,20,12,8,26,,92,65,34,19,6,7,0.4,0.3
2025-07-27T0000,2551A,107.5082,31.1986,达州市,达县机关宾馆,,31,31,21,3,6,3,,91,48,56,25,4,6,0.3,0.3
2025-07-27T0000,2552A,107.4644,31.2124,达州市,市政中心,颗粒物(PM10),51,52,28,7,4,15,,96,65,47,19,4,5,0.4,0.3
2025-07-27T0000,2614A,100.1542,25.7054,大理白族自治州,大理市环境监测站,,20,15,6,14,15,28,,40,27,12,8,5,5,0.5,0.5
2025-07-27T0000,2615A,100.2171,25.5811,大理白族自治州,大理古城,,11,11,9,6,8,28,,49,39,10,7,4,4,0.7,0.6
2025-07-27T0000,1109A,121.612,38.9741,大连市,甘井子,,19,15,16,13,13,8,,65,45,29,17,12,7,0.1,0.1
2025-07-27T0000,1110A,121.565,38.9511,大连市,周水子,,14,14,19,8,15,19,,58,33,6,13,5,5,0.2,0.2
2025-07-27T0000,1111A,121.5637,38.8845,大连市,星海三站,,15,15,19,8,14,22,,66,43,5,6,5,6,0.2,0.3
2025-07-27T0000,1112A,121.6302,38.9117,大连市,青泥洼桥,,16,11,19,11,13,19,,63,43,11,12,6,7,0.4,0.3
2025-07-27T0000,1113A,121.6251,38.8638,大连市,傅家庄,,11,11,15,7,13,18,,65,44,8,11,6,7,0.1,0.1
2025-07-27T0000,1114A,121.5213,38.8661,大连市,七贤岭,,19,14,17,13,14,21,,68,52,10,10,8,8,0.3,0.2
2025-07-27T0000,1115A,121.2529,38.8061,大连市,旅顺,,12,11,16,8,14,25,,57,49,8,12,3,4,0.2,0.2
2025-07-27T0000,1116A,121.7485,39.1311,大连市,金州,,20,20,17,14,13,11,,71,40,25,13,6,9,0.2,0.1
2025-07-27T0000,1117A,121.7811,39.0496,大连市,开发区,,20,17,21,14,15,14,,64,37,18,15,5,8,0.2,0.2
2025-07-27T0000,1118A,121.9762,39.0631,大连市,双D港,,15,13,15,10,13,11,,66,29,2,4,5,5,0.3,0.3
2025-07-27T0000,1789A,124.81117,46.03138,大庆市,大同区,,26,26,23,11,13,31,,72,54,7,7,6,7,0.8,0.7
2025-07-27T0000,1790A,125.129,46.533,大庆市,龙凤区,,15,15,18,7,11,37,,74,54,8,9,6,5,0.6,0.6
2025-07-27T0000,1791A,124.902,46.408,大庆市,红岗区,,19,19,22,7,16,33,,77,52,11,7,7,7,0.7,0.7
2025-07-27T0000,1792A,125.153,46.586,大庆市,萨尔图区,,13,13,33,3,11,41,,85,61,8,8,9,8,0.4,0.3
2025-07-27T0000,1793A,124.9042,46.6215,大庆市,让胡路区,,28,23,28,19,22,42,,98,66,8,7,7,8,0.3,0.2
2025-07-27T0000,3481A,125.141,46.634,大庆市,萨区政府监测点,,26,26,35,9,14,45,,82,62,7,8,7,6,0.4,0.4
2025-07-27T0000,1721A,113.3819,40.1097,大同市,果树场,,,,13,,12,,,,,,16,,6,,0.3
2025-07-27T0000,1723A,113.2994,40.0758,大同市,云冈宾馆,,21,,11,11,11,67,,75,63,9,12,5,5,0.2,0.4
2025-07-27T0000,1724A,113.3444,40.0917,大同市,大同大学,,22,9,11,6,8,69,,66,66,10,15,7,8,0.4,0.4
2025-07-27T0000,1725A,113.2661,40.1269,大同市,安家小村,,20,10,11,3,2,63,,65,55,9,13,3,4,0.7,0.8
2025-07-27T0000,1726A,113.2711,40.0844,大同市,教育学院,,23,6,13,3,8,73,,70,57,7,17,6,6,0.4,0.6
2025-07-27T0000,3282A,113.3397,40.0597,大同市,大同市卫生学校,,20,8,12,7,8,64,,70,62,8,11,5,5,0.5,0.7
2025-07-27T0000,3565A,113.1367,40.1122,大同市,云冈站,,23,12,16,3,10,72,,69,54,6,6,2,2,0.6,0.6
2025-07-27T0000,3566A,113.1186,40.2556,大同市,图书馆,,18,13,19,3,8,56,,71,54,5,8,6,6,0.7,0.8
2025-07-27T0000,3567A,113.5931,40.0461,大同市,区一中,,22,6,9,3,7,68,,86,79,7,6,7,8,0.5,0.5
2025-07-27T0000,4199A,113.2798,40.0997,大同市,魏都大道141号,,21,8,13,3,10,66,,72,56,8,14,6,7,0.7,0.8
2025-07-27T0000,2269A,124.1069,50.4097,大兴安岭地区,科技局,,19,19,20,13,9,22,,63,43,2,5,3,3,0.4,0.4
2025-07-27T0000,3663A,124.1164,50.4278,大兴安岭地区,红旗社区,,8,7,4,3,4,24,,64,40,4,4,4,4,0.3,0.3
2025-07-27T0000,1600A,124.3303,40.0625,丹东市,江湾东路,,33,31,26,23,21,13,,70,43,17,13,3,5,0.7,0.6
2025-07-27T0000,1601A,124.4256,40.1503,丹东市,临江后街,颗粒物(PM10),65,80,47,30,20,8,,69,43,24,13,8,6,0.9,0.7
2025-07-27T0000,1602A,124.3933,40.1461,丹东市,元宝山,颗粒物(PM10),53,55,28,29,16,9,,59,41,24,13,2,2,0.9,0.5
2025-07-27T0000,1603A,124.3633,40.1092,丹东市,民主桥,,26,26,29,18,20,4,,75,,23,15,3,4,0.7,0.7
2025-07-27T0000,3541A,109.5726,19.5167,儋州市,第一中学子站,,13,9,14,3,10,41,,49,46,3,4,4,4,0.4,0.5
2025-07-27T0000,3542A,109.5567,19.5187,儋州市,东坡学校子站,,14,6,13,3,11,44,,52,49,2,3,6,6,0.5,0.6
2025-07-27T0000,2616A,98.5842,24.428,德宏傣族景颇族自治州,德宏州监测站,,11,11,17,6,8,29,,39,33,4,10,8,11,0.6,0.7
2025-07-27T0000,3677A,98.5881,24.4368,德宏傣族景颇族自治州,芒市人民政府综合楼,,22,22,22,3,7,31,,38,34,4,8,7,9,0.6,0.6
2025-07-27T0000,1901A,104.4239,31.1208,德阳市,东山公园,,25,,13,17,10,56,,112,92,16,10,1,2,0.8,0.8
2025-07-27T0000,1902A,104.3826,31.1317,德阳市,西小区,,30,29,16,21,12,75,,109,96,31,15,6,7,0.9,0.8
2025-07-27T0000,1904A,104.3553,31.1091,德阳市,耐火材料厂,,32,26,15,22,12,55,,117,92,33,14,2,2,0.6,0.5
2025-07-27T0000,3639A,104.4019,31.1244,德阳市,市教育局,,30,30,19,20,11,86,,113,93,19,8,3,5,0.8,0.7
2025-07-27T0000,1622A,116.3032,37.4674,德州市,儿童乐园,,36,31,36,17,21,114,,119,117,8,9,8,10,0.5,0.6
2025-07-27T0000,1624A,116.2991,37.4451,德州市,监理站,,34,29,30,17,17,108,,119,118,10,8,10,12,0.3,0.3
2025-07-27T0000,3066A,116.2721,37.4379,德州市,九衢泉纯净水厂,,39,39,36,24,24,87,,110,103,19,14,7,9,0.6,0.6
2025-07-27T0000,3371A,116.3728,37.4403,德州市,开发区人民医院,,41,41,31,17,19,79,,108,104,22,14,8,10,0.8,0.8
2025-07-27T0000,3511A,116.5652,37.3319,德州市,陵城艺术中心,,36,36,31,19,13,83,,106,102,20,12,8,6,0.3,0.3
2025-07-27T0000,4292A,116.3525,37.4209,德州市,新河东路,颗粒物(PM10),51,51,35,29,21,62,,117,107,40,14,8,10,0.9,0.8
2025-07-27T0000,2621A,99.7056,27.8317,迪庆藏族自治州,迪庆州站,,32,25,17,22,12,22,,60,48,13,9,9,8,0.6,0.5
2025-07-27T0000,3180A,99.7136,27.8094,迪庆藏族自治州,质量技术监督局,,18,18,16,12,9,33,,55,46,15,12,7,6,0.5,0.4
2025-07-27T0000,4257A,104.6092,35.5962,定西市,将台街,,28,28,31,6,13,68,,146,114,8,7,7,7,0.5,0.4
2025-07-27T0000,4309A,104.6159,35.5701,定西市,正龙路62号,,32,,24,22,15,61,,136,107,9,7,4,4,0.3,0.3
2025-07-27T0000,1389A,113.7547,23.0494,东莞市,莞城梨川,,35,35,37,19,19,85,,198,160,18,25,7,10,0.7,0.6
2025-07-27T0000,1390A,113.7944,23.0128,东莞市,东城石井,,42,42,32,27,15,70,,180,146,21,26,4,5,0.9,0.8
2025-07-27T0000,1391A,113.7383,22.9658,东莞市,南城西平,,46,46,32,16,21,85,,203,158,16,25,3,5,0.8,0.7
2025-07-27T0000,3319A,113.7338,23.0381,东莞市,万江金泰,,39,39,38,17,21,71,,213,160,20,29,3,10,0.9,0.7
2025-07-27T0000,3626A,113.7533,23.0202,东莞市,南城元岭,,26,14,21,12,9,82,,198,155,21,28,6,8,0.7,0.6
2025-07-27T0000,3627A,113.7875,23.0457,东莞市,东城主山,,46,46,58,26,23,85,,170,149,17,32,4,5,0.7,0.5
2025-07-27T0000,1666A,118.6614,37.4309,东营市,市环保局,,17,17,24,3,15,24,,115,84,26,16,10,14,0.2,0.3
2025-07-27T0000,3036A,118.6904,37.4338,东营市,开发区管委会,,18,18,28,3,11,41,,126,95,17,13,10,10,0.3,0.4
2025-07-27T0000,3365A,118.5719,37.565,东营市,垦利区民丰路,,19,19,26,3,12,29,,118,96,15,13,7,10,0.4,0.4
2025-07-27T0000,3498A,118.5055,37.8612,东营市,河口城区,,28,22,24,10,11,89,,135,128,12,13,6,9,0.6,0.6
2025-07-27T0000,3646A,118.4978,37.4623,东营市,胜利站,,27,27,31,7,12,40,,109,88,16,18,4,4,0.3,0.4
2025-07-27T0000,3734A,118.35,37.26,东营市,理想之城,,11,9,24,7,16,33,,113,85,10,12,3,6,0.3,0.3
2025-07-27T0000,1591A,110.0023,39.8129,鄂尔多斯市,综合楼,,21,12,13,7,6,65,,80,76,13,12,4,3,0.6,0.7
2025-07-27T0000,1592A,109.9486,39.8261,鄂尔多斯市,巴音孟克林场办事处,,24,24,17,9,10,58,,84,77,15,10,3,3,0.5,0.4
2025-07-27T0000,1593A,109.7736,39.5986,鄂尔多斯市,康泽苑,,22,22,26,3,7,40,,68,66,9,8,5,6,0.3,0.4
2025-07-27T0000,1594A,109.8119,39.5989,鄂尔多斯市,华泰汽车城,,19,19,22,3,9,21,,61,50,12,11,4,4,0.7,0.6
2025-07-27T0000,1595A,109.9734,39.7884,鄂尔多斯市,奥林花园,,39,27,14,27,18,45,,73,65,14,10,6,6,0.6,0.7
2025-07-27T0000,2436A,114.8938,30.3994,鄂州市,市政府,,13,6,19,3,5,41,,84,58,12,10,3,3,0.5,0.5
2025-07-27T0000,2437A,114.8989,30.3714,鄂州市,赵家坝,,15,10,23,3,6,48,,89,64,7,8,4,4,0.7,0.7
2025-07-27T0000,3654A,114.8094,30.4089,鄂州市,精准医疗中心,,14,14,21,3,5,31,,90,56,22,13,3,4,0.6,0.6
2025-07-27T0000,2454A,109.4978,30.2981,恩施土家族苗族自治州,湖北民院,,42,,17,29,11,37,,102,74,15,7,5,5,0.3,0.2
2025-07-27T0000,2455A,109.4707,30.2798,恩施土家族苗族自治州,州电力总公司,,30,22,16,21,11,26,,96,66,24,13,9,8,0.2,0.2
2025-07-27T0000,3549A,109.5061,30.3772,恩施土家族苗族自治州,龙凤新区,,20,20,14,3,6,50,,100,70,5,5,4,4,0.4,0.4
2025-07-27T0000,2499A,108.3411,21.6158,防城港市,沙万,,23,23,35,14,18,42,,89,52,13,11,2,2,0.4,0.5
2025-07-27T0000,2500A,108.3514,21.7731,防城港市,防城档案局,,15,14,34,10,16,31,,100,58,6,9,3,4,0.7,0.8
2025-07-27T0000,2501A,108.3506,21.6414,防城港市,大海花园,,15,,31,10,16,48,,108,58,4,8,4,5,0.5,0.7
2025-07-27T0000,1371A,113.1294,23.0067,佛山市,湾梁,细颗粒物(PM2.5),73,,36,53,21,57,,156,117,19,23,7,9,0.8,0.7
2025-07-27T0000,1372A,113.1083,23.0478,佛山市,华材职中,,39,39,39,24,19,64,,153,111,15,24,10,10,0.7,0.6
2025-07-27T0000,1373A,113.144,23.0453,佛山市,南海气象局,,32,32,34,22,16,56,,144,110,17,23,3,6,0.8,0.7
2025-07-27T0000,1374A,113.2881,22.8094,佛山市,顺德苏岗,,21,21,36,9,16,64,,194,128,14,22,6,7,0.6,0.6
2025-07-27T0000,1376A,112.8383,22.8678,佛山市,高明孔堂,,35,35,26,20,17,59,,159,108,14,14,10,8,0.7,0.6
2025-07-27T0000,1377A,112.8836,23.1588,佛山市,三水监测站,,44,44,30,14,13,36,,114,77,30,30,2,6,0.7,0.6
2025-07-27T0000,1378A,112.867,23.185,佛山市,三水云东海,,46,44,32,32,20,37,,111,78,42,28,5,4,0.7,0.6
2025-07-27T0000,3625A,113.2544,22.7642,佛山市,容桂街道办,,21,19,28,14,15,66,,191,118,15,26,5,7,0.5,0.5
2025-07-27T0000,1280A,119.3903,26.0543,福州市,鼓山,,,,,,,,,,,,,,,,
2025-07-27T0000,1282A,119.2681,26.0504,福州市,师大,,,,16,0,3,19,,48,28,12,11,4,4,0.3,0.3
2025-07-27T0000,1283A,119.2984,26.1028,福州市,五四北路,,7,6,17,3,4,21,,47,26,12,12,3,3,0.3,0.3
2025-07-27T0000,1284A,119.2648,26.0768,福州市,杨桥西路,,7,6,12,3,3,21,,47,28,10,9,3,3,0.2,0.2
2025-07-27T0000,1285A,119.317,26.0746,福州市,紫阳,,9,7,18,6,7,18,,42,22,11,11,5,5,0.2,0.2
2025-07-27T0000,3048A,119.5799,26.0936,福州市,九龙,,8,6,14,3,3,24,,41,31,8,10,4,4,0.3,0.3
2025-07-27T0000,3526A,119.5189,25.9664,福州市,吴航,,11,10,13,6,6,34,,38,29,7,11,4,5,0.5,0.4
2025-07-27T0000,1755A,123.7977,41.8491,抚顺市,望花区,,43,43,40,22,21,71,,138,98,14,20,9,9,0.4,0.7
2025-07-27T0000,1756A,123.9161,41.8822,抚顺市,顺城区,颗粒物(PM10),51,51,41,26,21,66,,133,102,17,18,23,10,1.1,0.9
2025-07-27T0000,1757A,124.0436,41.8611,抚顺市,东洲区,,35,35,29,24,20,60,,123,99,17,14,10,11,0.7,0.6
2025-07-27T0000,1758A,123.9247,41.8642,抚顺市,新抚区,,39,39,43,26,23,68,,130,99,10,14,8,7,0.8,0.7
2025-07-27T0000,1759A,124.0972,41.8961,抚顺市,大伙房水库,,33,29,27,23,20,63,,127,102,12,9,6,7,0.9,0.6
2025-07-27T0000,1760A,123.7086,41.8391,抚顺市,沈抚新城,,39,39,35,27,25,49,,136,102,18,16,11,9,0.5,0.8
2025-07-27T0000,2376A,116.2127,28.0814,抚州市,桐源党溪,,26,,26,18,13,43,,51,50,5,4,3,3,0.6,0.5
2025-07-27T0000,2377A,116.3544,27.9831,抚州市,市站,,28,28,23,16,12,63,,59,59,3,2,4,5,0.6,0.5
2025-07-27T0000,2378A,116.3565,27.963,抚州市,血防站,,28,28,24,12,12,67,,61,61,2,2,4,4,0.5,0.5
2025-07-27T0000,2379A,116.3564,28.0007,抚州市,采茶剧团,,30,30,24,19,10,64,,62,62,3,2,3,2,0.6,0.6
2025-07-27T0000,2380A,116.385,27.9647,抚州市,医学分院,,33,33,27,15,13,58,,57,57,2,2,4,4,0.7,0.6
2025-07-27T0000,2207A,121.6094,41.998,阜新市,工业园区,细颗粒物(PM2.5),54,,34,38,22,54,,107,70,19,10,4,4,0.5,0.4
2025-07-27T0000,2208A,121.6697,42.0279,阜新市,长青街,细颗粒物(PM2.5),62,47,33,44,25,62,,101,68,13,7,4,5,0.5,0.4
2025-07-27T0000,2209A,121.6673,42.0705,阜新市,农业园区,颗粒物(PM10),53,55,44,27,20,68,,111,76,11,8,2,3,0.8,0.6
2025-07-27T0000,2210A,121.6717,42.0224,阜新市,东苑,,43,43,36,28,21,75,,105,76,19,13,8,7,0.5,0.4
2025-07-27T0000,2211A,121.6506,42.0498,阜新市,玉龙新城,,34,34,37,20,19,34,,91,56,16,9,2,4,0.7,0.6
2025-07-27T0000,2301A,115.8277,32.8929,阜阳市,市监测站,,19,19,21,9,14,45,,71,61,9,9,3,3,0.2,0.2
2025-07-27T0000,2303A,115.8554,32.8605,阜阳市,开发区,,18,18,23,3,11,51,,77,65,7,9,6,6,0.2,0.2
2025-07-27T0000,2875A,115.784,32.8892,阜阳市,阜阳职业技术学院,,18,18,18,7,9,52,,78,69,5,5,4,4,0.3,0.3
2025-07-27T0000,3468A,115.7901,32.8613,阜阳市,市规划展馆,,20,20,24,10,14,50,,78,67,7,7,3,3,0.2,0.2
2025-07-27T0000,3469A,115.836,32.9183,阜阳市,枣园社区,,22,22,24,9,13,50,,77,66,8,9,3,3,0.2,0.3
2025-07-27T0000,2669A,102.9099,34.9841,甘南藏族自治州,州政府,颗粒物(PM10),64,77,23,21,18,33,,129,104,44,14,3,3,0.4,0.3
2025-07-27T0000,3380A,102.8914,34.9617,甘南藏族自治州,甘肃民族师范学院,颗粒物(PM10),86,121,38,29,10,0,,140,96,71,12,10,9,0.8,0.7
2025-07-27T0000,2570A,101.9603,30.0475,甘孜藏族自治州,水桥子,,15,,7,6,6,46,,88,78,28,14,5,6,0.3,0.3
2025-07-27T0000,3065A,101.9533,29.9972,甘孜藏族自治州,州环保局,,22,21,9,3,5,24,,97,73,43,13,6,6,0.3,0.6
2025-07-27T0000,3414A,115.8347,28.932,赣江新区,桑海产业园,,24,12,22,9,14,74,,95,84,7,9,5,7,0.3,0.4
2025-07-27T0000,2362A,114.9017,25.9149,赣州市,通天岩,,,,33,,19,,,84,41,,5,,17,,0.8
2025-07-27T0000,2363A,114.9367,25.8664,赣州市,地委,,38,38,28,21,18,61,,83,79,7,7,3,6,0.6,0.6
2025-07-27T0000,2364A,114.9461,25.8481,赣州市,气象台,,29,27,30,20,16,68,,88,84,5,5,8,8,0.7,0.7
2025-07-27T0000,2365A,114.9322,25.8333,赣州市,市图书馆,,29,23,29,20,20,70,,88,85,3,6,4,4,0.6,0.6
2025-07-27T0000,2366A,114.8905,25.8471,赣州市,华坚鞋城,,26,26,31,16,16,62,,79,75,5,10,3,4,0.4,0.4
2025-07-27T0000,3109A,115.0093,25.8613,赣州市,赣县区卫计委,,23,19,26,16,18,68,,79,70,4,9,3,3,0.5,0.4
2025-07-27T0000,2683A,106.2319,36.1417,固原市,马园,,24,24,25,7,8,30,,109,62,27,22,6,6,0.6,0.5
2025-07-27T0000,2684A,106.2792,36.0022,固原市,监测站,,25,25,10,3,6,21,,110,75,34,11,6,6,0.2,0.2
2025-07-27T0000,2685A,106.2375,36.0211,固原市,新区,,20,20,12,6,5,31,,106,72,20,11,6,6,0.4,0.4
2025-07-27T0000,3522A,106.2177,35.9959,固原市,原州区十五小,,17,14,10,7,6,52,,109,84,9,9,11,10,0.4,0.4
2025-07-27T0000,2543A,106.6308,30.5278,广安市,小平旧居,,,,,,,,,,,,,,,,
2025-07-27T0000,2544A,106.6303,30.4576,广安市,市委,,31,31,20,15,10,49,,103,88,20,11,7,6,0.4,0.3
2025-07-27T0000,2545A,106.6271,30.4663,广安市,友谊中学,,31,31,17,17,11,48,,103,85,20,13,5,5,0.7,0.6
2025-07-27T0000,2547A,106.6388,30.4551,广安市,广电花园,,43,43,25,20,11,42,,101,82,19,12,2,2,0.6,0.5
2025-07-27T0000,2902A,106.6351,30.4865,广安市,北辰小学,,28,25,30,19,11,49,,102,91,15,10,5,4,0.6,0.5
2025-07-27T0000,2523A,105.8945,32.4535,广元市,黑石坡,,30,30,26,10,13,0,,58,17,21,12,9,10,0.4,0.5
2025-07-27T0000,2524A,105.821,32.4444,广元市,老城,,32,32,28,8,8,10,,80,35,28,19,6,7,0.7,0.7
2025-07-27T0000,2526A,105.8628,32.4287,广元市,监测站,,22,22,24,7,7,14,,66,32,13,11,14,14,0.7,0.7
2025-07-27T0000,3617A,105.8047,32.4166,广元市,经开区,,24,24,22,12,12,13,,64,30,21,18,6,6,0.6,0.7
2025-07-27T0000,1345A,113.2347,23.1423,广州市,广雅中学,,43,43,39,24,20,60,,164,108,29,29,2,3,0.7,0.7
2025-07-27T0000,1346A,113.2612,23.105,广州市,市五中,,39,39,32,27,19,58,,157,113,20,19,6,6,0.8,0.7
2025-07-27T0000,1348A,113.3478,23.0916,广州市,广东商学院,,35,35,33,21,18,61,,185,143,24,25,4,4,0.7,0.6
2025-07-27T0000,1349A,113.4332,23.1047,广州市,市八十六中,,28,28,35,18,18,58,,156,132,25,39,3,4,0.4,0.4
2025-07-27T0000,1350A,113.3505,22.9483,广州市,番禺中学,,35,33,37,24,21,70,,191,148,12,22,5,7,0.4,0.4
2025-07-27T0000,1351A,113.2146,23.3916,广州市,花都师范,颗粒物(PM10),52,53,28,30,15,42,,122,98,45,18,9,6,0.7,0.5
2025-07-27T0000,1352A,113.2597,23.1331,广州市,市监测站,,39,39,34,23,17,68,,164,118,19,24,6,7,0.5,0.4
2025-07-27T0000,1353A,113.5618,23.312,广州市,九龙镇镇龙,颗粒物(PM10),53,56,35,26,17,65,,124,101,17,21,7,7,0.6,0.5
2025-07-27T0000,1354A,113.2765,23.1544,广州市,麓湖,,37,37,31,22,17,59,,146,87,18,27,4,4,0.6,0.6
2025-07-27T0000,1355A,113.443,23.3035,广州市,帽峰山森林公园,,46,46,25,24,10,84,,147,134,33,18,9,8,0.5,0.4
2025-07-27T0000,2846A,113.3221,23.1322,广州市,体育西,,41,41,35,24,19,58,,169,118,26,28,6,7,0.7,0.7
2025-07-27T0000,3298A,113.5717,23.5491,广州市,从化街口,,34,34,34,19,20,45,,115,72,17,16,6,9,0.8,0.7
2025-07-27T0000,3299A,113.3472,23.3692,广州市,白云竹料,,26,26,34,14,16,54,,150,103,29,22,5,5,0.6,0.5
2025-07-27T0000,3300A,113.2981,23.237,广州市,白云嘉禾,,43,43,38,25,21,67,,161,112,20,27,8,10,0.5,0.5
2025-07-27T0000,3301A,113.4256,23.1716,广州市,黄埔科学城,,45,45,35,25,20,61,,160,120,21,21,2,2,0.5,0.4
2025-07-27T0000,3302A,113.3942,23.0483,广州市,番禺大学城,,37,37,32,21,16,70,,199,158,18,25,7,7,0.5,0.4
2025-07-27T0000,3303A,113.4922,22.8168,广州市,南沙黄阁,,32,32,44,17,24,62,,205,136,22,26,7,7,0.6,0.6
2025-07-27T0000,3304A,113.5342,22.7896,广州市,南沙街,,38,36,38,26,22,70,,216,142,15,22,5,5,0.5,0.4
2025-07-27T0000,3443A,113.2902,23.5544,广州市,花都梯面,,21,19,20,11,13,17,,98,62,42,20,5,7,0.6,0.5
2025-07-27T0000,3445A,113.7858,23.7478,广州市,从化良口,,18,16,23,12,13,37,,86,68,17,7,4,4,0.5,0.5
2025-07-27T0000,3446A,113.8051,23.2614,广州市,增城荔城,,24,24,24,14,14,34,,119,79,14,11,7,8,0.5,0.4
2025-07-27T0000,2505A,109.568,23.1478,贵港市,德智高中,,,,,,,,,,,,,,,,
2025-07-27T0000,2506A,109.6047,23.0666,贵港市,江南子站,,44,44,38,24,28,33,,98,50,20,14,6,7,0.6,0.7
2025-07-27T0000,2508A,109.5669,23.1065,贵港市,荷城子站,,44,44,32,24,17,36,,88,53,20,16,7,9,0.4,0.5
2025-07-27T0000,3405A,109.5886,23.1172,贵港市,新世纪学校,,50,48,32,35,21,29,,93,54,26,17,3,5,0.5,0.6
2025-07-27T0000,4260A,109.5933,23.0951,贵港市,中山路155-3号,颗粒物(PM10),55,59,40,22,24,34,,102,59,24,15,3,5,0.6,0.7
2025-07-27T0000,1439A,106.6899,26.5998,贵阳市,马鞍山,,19,19,16,3,2,7,,76,40,15,10,3,3,0.7,0.7
2025-07-27T0000,1441A,106.6243,26.6266,贵阳市,鉴湖路,,27,27,25,7,4,38,,74,62,15,9,6,7,0.2,0.2
2025-07-27T0000,1442A,106.7487,26.6343,贵阳市,燕子冲,,25,19,15,17,16,19,,87,51,15,13,5,3,0.5,0.5
2025-07-27T0000,1443A,106.6555,26.4365,贵阳市,碧云窝,,29,29,27,9,8,14,,67,44,17,10,4,5,0.1,0.1
2025-07-27T0000,1445A,106.7109,26.6027,贵阳市,红边门,,36,36,21,14,10,16,,78,44,28,21,8,8,0.5,0.3
2025-07-27T0000,1446A,106.7164,26.5699,贵阳市,新华路,,39,39,28,17,12,34,,75,51,28,22,3,14,0.4,0.4
2025-07-27T0000,1447A,106.674,26.5424,贵阳市,太慈桥,,19,19,16,9,5,2,,64,22,24,15,5,4,0.4,0.2
2025-07-27T0000,1552A,106.805,26.3003,贵阳市,桐木岭,,,,26,,13,,,54,47,,7,,5,,0.7
2025-07-27T0000,4230A,106.6882,26.5695,贵阳市,花果园大街66号,,22,22,13,11,4,23,,72,53,31,18,2,2,0.5,0.4
2025-07-27T0000,4231A,106.6873,26.5169,贵阳市,漓江路57号,,31,31,20,19,9,11,,69,41,34,14,3,3,0.5,0.4
2025-07-27T0000,1862A,110.4144,25.3167,桂林市,电子科大尧山校区,,,,,,,,,,,,,,,,
2025-07-27T0000,1864A,110.3089,25.2708,桂林市,龙隐路小学,,43,43,31,20,14,20,,88,58,26,13,13,13,0.4,0.3
2025-07-27T0000,1865A,110.2869,25.2178,桂林市,八中,,34,34,33,13,13,37,,99,67,18,12,16,10,0.5,0.5
2025-07-27T0000,3531A,110.296,25.1253,桂林市,旅游学院,,20,19,22,14,14,39,,125,81,19,11,3,5,0.4,0.4
2025-07-27T0000,4222A,110.1835,25.2444,桂林市,环湖路276号,细颗粒物(PM2.5),58,53,35,41,22,38,,105,66,15,12,176,53,0.4,0.4
2025-07-27T0000,4301A,110.2803,25.2773,桂林市,信义路13号,,28,28,33,11,21,38,,99,63,18,15,14,12,0.5,0.5
2025-07-27T0000,2674A,100.2561,34.4714,果洛藏族自治州,玛沁县大武镇,颗粒物(PM10),63,76,24,33,10,59,,153,135,45,6,21,18,0.4,0.3
2025-07-27T0000,1129A,126.5422,45.755,哈尔滨市,岭北,,32,23,20,22,18,28,,68,52,24,16,10,9,0.7,0.7
2025-07-27T0000,1130A,126.561,45.8167,哈尔滨市,松北商大,,28,28,23,12,8,8,,50,30,28,14,6,6,0.6,0.5
2025-07-27T0000,1131A,126.979,45.5419,哈尔滨市,阿城会宁,,18,17,18,12,14,16,,49,28,12,10,4,4,0.5,0.5
2025-07-27T0000,1132A,126.599,45.7222,哈尔滨市,南岗学府路,,23,23,26,10,9,20,,52,38,19,15,7,7,0.7,0.7
2025-07-27T0000,1133A,126.689,45.7733,哈尔滨市,太平宏伟公园,,21,21,24,12,10,27,,56,44,16,13,6,6,0.6,0.5
2025-07-27T0000,1134A,126.635,45.7667,哈尔滨市,道外承德广场,,34,34,36,14,10,16,,46,36,22,16,6,6,0.9,0.8
2025-07-27T0000,1135A,126.685,45.7319,哈尔滨市,香坊红旗大街,细颗粒物(PM2.5),53,,18,37,13,30,,53,46,19,19,5,4,0.7,0.7
2025-07-27T0000,1136A,126.6411,45.7258,哈尔滨市,动力和平路,,,34,29,,,19,,54,41,23,16,5,4,0.6,0.6
2025-07-27T0000,1137A,126.593,45.7478,哈尔滨市,道里建国路,,39,39,28,12,9,25,,51,38,20,19,3,2,0.5,1.5
2025-07-27T0000,1138A,126.615,45.61,哈尔滨市,平房东轻厂,,31,31,24,8,8,12,,45,28,15,11,6,6,0.4,0.4
2025-07-27T0000,1139A,126.595,45.9855,哈尔滨市,呼兰师专,,26,26,23,15,9,29,,60,42,19,17,7,6,0.5,0.5
2025-07-27T0000,1140A,126.6206,45.6842,哈尔滨市,省农科院,,23,22,22,16,12,22,,46,29,21,27,6,7,0.6,0.6
2025-07-27T0000,2688A,93.5128,42.8172,哈密市,地区监测站,颗粒物(PM10),57,63,61,28,23,100,,126,107,21,23,4,4,0.1,0.2
2025-07-27T0000,2689A,93.4961,42.8328,哈密市,哈密师范学校,,48,48,56,31,22,96,,116,82,20,29,7,7,0.2,0.3
2025-07-27T0000,2671A,100.9048,36.9639,海北藏族自治州,海晏县西海镇,,37,37,26,25,19,92,,128,113,14,7,11,9,0.6,0.5
2025-07-27T0000,3867A,102.0738,36.5056,海东市,平安区公安北苑,,44,44,35,16,15,98,,163,143,3,5,10,12,0.6,0.7
2025-07-27T0000,1409A,110.576,19.9507,海口市,东寨港,,9,7,18,6,9,26,,68,45,6,5,3,3,0.4,0.4
2025-07-27T0000,1410A,110.3232,20.0574,海口市,海南大学,,20,20,13,10,6,40,,70,60,8,7,3,3,0.3,0.3
2025-07-27T0000,1411A,110.283,20.0053,海口市,秀英海南医院,,26,23,19,18,8,35,,70,54,11,11,6,6,0.3,0.3
2025-07-27T0000,1412A,110.338,19.9969,海口市,海南师范大学,,20,19,17,14,8,40,,82,59,8,9,4,4,0.4,0.4
2025-07-27T0000,1413A,110.33,20.0356,海口市,龙华路环保局宿舍,,24,24,16,11,7,41,,71,59,8,9,5,5,0.3,0.2
2025-07-27T0000,3539A,110.5111,19.9736,海口市,桂林洋子站,,34,34,23,14,10,28,,74,45,10,11,4,4,0.3,0.2
2025-07-27T0000,2673A,100.6188,36.2866,海南藏族自治州,共和县恰卜恰镇,,40,38,22,14,10,128,,142,134,10,8,19,9,0.7,0.5
2025-07-27T0000,2676A,97.3731,37.3753,海西蒙古族藏族自治州,德令哈市,,43,26,24,12,12,136,,150,144,1,4,18,19,0.4,0.5
2025-07-27T0000,1048A,114.5302,36.6116,邯郸市,东污水处理厂,,30,30,36,7,5,64,,112,93,17,6,3,3,0.3,0.3
2025-07-27T0000,1049A,114.4918,36.5713,邯郸市,矿院,,31,31,24,12,11,70,,114,96,14,7,8,6,0.3,0.3
2025-07-27T0000,1050A,114.484,36.6133,邯郸市,丛台公园,,31,31,27,9,12,86,,109,100,10,7,5,5,0.2,0.3
2025-07-27T0000,3458A,114.7895,36.5593,邯郸市,香泉濮院小区,,43,43,43,3,3,59,,109,85,14,8,2,2,0.3,0.2
2025-07-27T0000,3579A,114.50634,36.77178,邯郸市,永年区实验高中,,35,35,37,16,20,92,,118,103,8,6,3,3,0.2,0.2
2025-07-27T0000,3580A,114.20016,36.44293,邯郸市,峰峰矿区临水派出所,,35,35,40,3,5,101,,135,111,2,6,2,2,0.1,0.2
2025-07-27T0000,2634A,106.9893,33.1842,汉中市,汉川机床厂子校,,16,16,18,7,7,36,,89,68,17,10,4,3,0.4,0.3
2025-07-27T0000,2635A,107.0154,33.0706,汉中市,市监测站,,15,,23,8,10,48,,92,70,9,10,6,20,0.4,0.7
2025-07-27T0000,2636A,107.0089,33.1138,汉中市,鑫源开发区,,19,19,22,9,7,48,,81,65,25,12,17,12,0.6,0.6
2025-07-27T0000,2637A,107.007,33.0323,汉中市,南郑大河坎水厂,,15,11,17,10,8,28,,92,72,18,11,7,9,0.4,0.5
2025-07-27T0000,1223A,120.2072,30.2111,杭州市,滨江,,10,6,7,6,7,29,,43,38,10,13,5,5,0.4,0.4
2025-07-27T0000,1224A,120.0633,30.2747,杭州市,西溪,,13,13,13,6,7,15,,32,23,13,16,4,4,0.3,0.3
2025-07-27T0000,1226A,120.3417,30.3150,杭州市,下沙,,10,10,11,3,4,22,,47,36,15,14,4,4,0.2,0.2
2025-07-27T0000,1227A,120.1269,30.2456,杭州市,卧龙桥,,13,13,14,7,7,18,,35,28,7,6,7,7,0.5,0.5
2025-07-27T0000,1228A,120.1903,30.2692,杭州市,浙江农大,,,,20,10,9,20,,41,34,12,10,4,4,0.4,0.4
2025-07-27T0000,1230A,120.1197,30.3119,杭州市,和睦小学,,12,12,13,7,8,20,,38,25,11,12,4,4,0.4,0.4
2025-07-27T0000,1231A,120.3019,30.4183,杭州市,临平镇,,17,17,16,7,7,21,,50,30,10,8,5,5,0.3,0.3
2025-07-27T0000,1232A,120.2753,30.1839,杭州市,城厢镇,,11,11,20,7,8,18,,45,34,13,6,5,5,0.6,0.5
2025-07-27T0000,1233A,120.0883,30.1808,杭州市,云栖,,12,12,13,3,4,27,,38,32,9,10,7,8,0.4,0.5
2025-07-27T0000,3557A,119.9464,30.0494,杭州市,镇二中,,15,12,13,10,10,28,,37,33,8,10,3,3,0.5,0.5
2025-07-27T0000,3558A,119.7183,30.2367,杭州市,市府大楼,,10,10,11,3,3,25,,42,37,9,8,6,6,0.4,0.4
2025-07-27T0000,3656A,120.1556,30.2864,杭州市,消防大队,,13,13,14,6,6,20,,42,32,16,14,6,6,0.6,0.5
2025-07-27T0000,1270A,117.1959,31.7848,合肥市,明珠广场,,14,14,20,7,9,28,,73,55,17,14,6,6,0.3,0.3
2025-07-27T0000,1271A,117.3072,31.8764,合肥市,三里街,,18,14,20,12,9,27,,66,51,13,8,6,5,0.3,0.3
2025-07-27T0000,1272A,117.2588,31.8707,合肥市,琥珀山庄,,22,22,22,10,12,32,,70,57,12,8,9,8,0.5,0.5
2025-07-27T0000,1273A,117.1604,31.9052,合肥市,董铺水库,,17,17,18,3,7,37,,65,55,6,4,5,5,0.2,0.2
2025-07-27T0000,1274A,117.25,31.8571,合肥市,长江中路,,17,17,22,11,12,35,,74,60,8,7,7,6,0.4,0.4
2025-07-27T0000,1275A,117.266,31.9436,合肥市,庐阳区,,13,12,18,9,8,39,,70,57,5,4,8,8,0.5,0.5
2025-07-27T0000,1276A,117.3453,31.8616,合肥市,瑶海区,,17,17,19,3,7,33,,68,55,9,8,6,6,0.4,0.4
2025-07-27T0000,1277A,117.3027,31.7964,合肥市,包河区,,22,22,21,9,10,19,,72,50,29,18,6,6,0.5,0.5
2025-07-27T0000,1278A,117.2776,31.7385,合肥市,滨湖新区,,25,24,22,17,15,30,,81,64,12,8,8,7,0.3,0.4
2025-07-27T0000,1279A,117.1318,31.8403,合肥市,高新区,,19,17,19,13,11,38,,76,63,10,9,6,5,0.3,0.4
2025-07-27T0000,3464A,117.3803,31.9147,合肥市,高教基地,,19,19,21,7,11,34,,68,55,9,8,6,6,0.2,0.3
2025-07-27T0000,3614A,79.924,37.0877,和田地区,地区环保局,颗粒物(PM10),145,239,235,92,87,65,,116,104,15,11,3,3,0.8,0.3
2025-07-27T0000,3615A,79.9131,37.113,和田地区,市环保局,颗粒物(PM10),130,210,210,71,68,49,,99,84,34,18,3,3,0.5,0.2
2025-07-27T0000,2516A,108.2011,24.715,河池市,东仁乐园,,,,,,,,,,,,,,,,
2025-07-27T0000,2517A,108.0497,24.6947,河池市,市环保站,,12,8,17,8,8,37,,78,64,8,5,4,4,0.6,0.6
2025-07-27T0000,2518A,108.0983,24.6989,河池市,市疾控中心,,17,17,16,11,8,27,,80,68,16,6,5,4,0.6,0.6
2025-07-27T0000,1696A,114.6778,23.7569,河源市,源西,,26,26,26,18,15,24,,61,38,5,4,10,10,0.4,0.4
2025-07-27T0000,1697A,114.6944,23.7586,河源市,东埔,,34,34,21,17,17,16,,84,48,23,12,6,5,0.6,0.6
2025-07-27T0000,1698A,114.6892,23.7233,河源市,老城,,38,38,30,11,23,19,,84,41,11,9,10,6,0.5,0.3
2025-07-27T0000,1718A,115.4208,35.2464,菏泽市,气象局,,27,27,32,14,19,66,,100,93,10,7,4,4,0.3,0.3
2025-07-27T0000,3374A,115.5564,35.0891,菏泽市,定陶老年大学,,29,29,29,7,13,49,,94,76,16,12,2,2,0.2,0.2
2025-07-27T0000,4184A,115.4797,35.24401,菏泽市,永昌路1号,,29,29,38,11,21,64,,100,88,10,12,7,6,0.1,0.1
2025-07-27T0000,4193A,115.4715,35.2800,菏泽市,长城路999号,,29,29,29,12,14,64,,102,91,10,8,6,5,0.4,0.4
2025-07-27T0000,2514A,111.5264,24.4172,贺州市,环保小区,细颗粒物(PM2.5),102,,48,76,23,22,,98,50,13,17,10,11,0.7,0.8
2025-07-27T0000,2515A,111.5608,24.4078,贺州市,政协大楼,,40,40,39,25,23,34,,105,59,12,13,16,11,0.6,0.6
2025-07-27T0000,3534A,111.4744,24.4553,贺州市,西湾,,36,36,37,21,15,9,,96,36,20,13,6,8,0.8,0.5
2025-07-27T0000,2385A,114.17,35.9019,鹤壁市,市监测站,,36,36,36,23,24,64,,107,94,10,7,6,4,0.7,0.5
2025-07-27T0000,2386A,114.2956,35.7511,鹤壁市,市交警支队,,38,38,32,24,20,63,,92,81,17,11,3,3,0.3,0.3
2025-07-27T0000,2387A,114.2878,35.7306,鹤壁市,迎宾馆,,41,41,35,21,25,57,,92,79,25,13,6,5,0.6,0.6
2025-07-27T0000,3474A,114.2617,35.6822,鹤壁市,大新区,,29,29,34,19,20,36,,95,63,28,12,6,6,0.5,0.4
2025-07-27T0000,3596A,114.1572,35.9603,鹤壁市,南山宾馆,,42,42,38,10,20,77,,112,97,18,8,3,4,0.4,0.4
2025-07-27T0000,2244A,130.2537,47.3416,鹤岗市,哈啤分公司,,22,22,22,12,10,13,,111,60,26,11,12,11,0.7,0.7
2025-07-27T0000,2245A,130.2684,47.3086,鹤岗市,斯达机电,,41,41,25,18,9,25,,100,63,25,11,11,11,0.6,0.6
2025-07-27T0000,2246A,130.3114,47.3388,鹤岗市,东山纸板厂,,29,26,28,20,13,4,,112,50,33,13,13,13,0.4,0.6
2025-07-27T0000,2247A,130.1097,47.3382,鹤岗市,五号水库,,7,7,6,3,4,15,,92,36,14,15,7,8,0.1,0.1
2025-07-27T0000,2263A,127.4833,50.2524,黑河市,交通局,,16,16,24,6,8,31,,102,61,7,13,6,7,0.4,0.5
2025-07-27T0000,2264A,127.5144,50.2341,黑河市,环保局,,39,,25,27,12,41,,93,67,9,13,6,6,0.5,0.6
2025-07-27T0000,2265A,127.5291,50.2472,黑河市,大黑河岛,,,,4,10,8,32,,76,61,3,9,32,32,,
2025-07-27T0000,1074A,115.6838,37.7541,衡水市,电机北厂,,32,32,38,22,19,83,,113,104,13,7,4,4,0.4,0.3
2025-07-27T0000,1075A,115.6303,37.7316,衡水市,市监测站,,42,42,38,12,16,70,,114,97,16,8,5,5,0.2,0.2
2025-07-27T0000,3188A,115.6683,37.7217,衡水市,市城管局,,32,32,31,15,20,80,,113,98,18,9,7,7,0.3,0.3
2025-07-27T0000,3459A,115.5989,37.5491,衡水市,地表水厂,,47,47,41,9,11,39,,116,86,38,11,7,8,0.2,0.2
2025-07-27T0000,2456A,112.5003,26.9167,衡阳市,原169医院,,22,,26,7,15,70,,108,74,4,6,4,5,0.5,0.5
2025-07-27T0000,2457A,112.6194,26.9258,衡阳市,衡阳化工总厂,,18,,32,7,17,56,,101,65,5,9,2,3,0.6,0.7
2025-07-27T0000,2458A,112.6211,26.8956,衡阳市,珠晖区环保局,,18,,27,12,16,56,,105,67,9,10,5,4,0.4,0.4
2025-07-27T0000,2459A,112.6197,26.8733,衡阳市,市委党校,,18,12,21,8,15,57,,104,66,10,11,9,8,0.6,0.9
2025-07-27T0000,2460A,112.6006,26.8919,衡阳市,市监测站,,17,8,26,3,15,54,,98,61,8,10,2,3,0.5,0.6
2025-07-27T0000,2461A,112.5664,26.9056,衡阳市,真空机电公司,,22,,23,15,18,61,,93,64,3,6,2,4,0.6,0.7
2025-07-27T0000,3399A,112.6703,26.882,衡阳市,师范学院,,18,10,34,8,16,56,,109,59,6,11,6,6,0.6,0.8
2025-07-27T0000,2608A,103.3772,23.3993,红河哈尼族彝族自治州,污水处理厂,,30,24,13,21,12,39,,45,37,11,8,11,10,0.2,0.2
2025-07-27T0000,2609A,103.3861,23.35,红河哈尼族彝族自治州,监测站,,29,29,18,14,11,33,,44,34,7,5,8,8,0.3,0.2
2025-07-27T0000,3038A,103.3758,23.368,红河哈尼族彝族自治州,州图书馆,,36,,14,25,12,39,,45,35,7,6,4,2,0.3,0.3
2025-07-27T0000,1090A,111.6507,40.7517,呼和浩特市,呼市一监,,14,14,6,8,8,28,,82,52,22,10,7,7,0.7,0.6
2025-07-27T0000,1091A,111.6572,40.8033,呼和浩特市,小召,,27,27,8,16,10,15,,82,51,47,22,8,8,1.2,0.9
2025-07-27T0000,1094A,111.7516,40.8369,呼和浩特市,如意水处理厂,,21,8,9,6,7,7,,88,44,41,18,4,4,0.4,0.5
2025-07-27T0000,1095A,111.7276,40.8062,呼和浩特市,二十九中,,21,17,12,8,8,15,,95,59,41,14,5,5,0.9,0.8
2025-07-27T0000,1096A,111.5512,40.7866,呼和浩特市,工大金川校区,,14,12,13,3,8,41,,71,38,28,19,4,4,0.6,0.8
2025-07-27T0000,1097A,111.717,40.7612,呼和浩特市,化肥厂生活区,,23,20,12,16,10,25,,80,56,38,15,6,6,0.7,0.6
2025-07-27T0000,3698A,111.5968,40.8178,呼和浩特市,红旗小学,,15,,6,3,8,45,,72,38,20,28,2,3,0.2,0.4
2025-07-27T0000,3699A,111.6518,40.8389,呼和浩特市,海东办,,26,9,7,8,10,3,,88,45,52,19,4,4,0.6,0.6
2025-07-27T0000,2192A,119.7594,49.2261,呼伦贝尔市,区环保局,,38,33,22,26,18,29,,70,52,28,13,6,6,0.2,0.1
2025-07-27T0000,3061A,119.7512,49.1577,呼伦贝尔市,国华电力东,,40,40,16,21,9,31,,79,60,18,7,9,8,0.4,0.3
2025-07-27T0000,1250A,120.0751,30.8669,湖州市,城西水厂,,16,16,14,6,6,30,,61,44,8,7,6,6,0.4,0.4
2025-07-27T0000,2873A,120.0830,30.8929,湖州市,仁皇山新区,,12,12,15,3,6,21,,53,34,8,7,3,3,0.4,0.4
2025-07-27T0000,2907A,120.1844,30.8596,湖州市,吴兴区站,,13,13,12,3,7,15,,48,29,5,6,6,6,0.4,0.4
2025-07-27T0000,3562A,120.4148,30.8538,湖州市,南浔区站,,13,10,14,9,7,15,,47,28,10,7,5,5,0.5,0.5
2025-07-27T0000,1607A,120.9049,40.7211,葫芦岛市,龙港区,,,,37,21,27,70,,95,88,7,8,2,2,0.4,0.4
2025-07-27T0000,1608A,120.8392,40.7514,葫芦岛市,化工街,,35,,37,24,19,64,,92,85,14,12,7,6,0.5,0.4
2025-07-27T0000,1609A,120.8341,40.7073,葫芦岛市,新区,,45,,32,31,33,69,,91,85,6,7,2,2,0.7,0.6
2025-07-27T0000,1610A,120.8695,40.7677,葫芦岛市,东城区,细颗粒物(PM2.5),54,,32,38,35,84,,99,94,9,8,4,4,0.6,0.6
2025-07-27T0000,2482A,109.5981,27.5721,怀化市,林科所,,27,27,27,12,8,52,,68,58,5,5,5,4,0.0,0.2
2025-07-27T0000,2483A,109.9453,27.5444,怀化市,河西地税局,,32,32,27,19,14,6,,71,41,20,9,3,3,0.1,0.1
2025-07-27T0000,2484A,109.9781,27.5342,怀化市,市四医院,,33,33,34,19,18,32,,67,47,16,12,12,9,0.4,0.4
2025-07-27T0000,2485A,109.9972,27.5578,怀化市,监测楼,,34,34,30,17,16,21,,70,46,18,9,10,8,0.1,0.1
2025-07-27T0000,2486A,110.0394,27.583,怀化市,市委党校,,37,37,31,8,19,15,,72,38,29,12,24,20,0.4,0.3
2025-07-27T0000,1210A,119.036,33.5981,淮安市,钵池山,,22,17,17,15,15,50,,59,56,7,6,8,7,0.5,0.5
2025-07-27T0000,1211A,119.007,33.575,淮安市,北京南路,,17,17,21,11,13,49,,56,51,5,5,8,7,0.4,0.5
2025-07-27T0000,1212A,118.989,33.6067,淮安市,市监测站,,22,22,25,14,15,47,,56,52,7,6,9,8,0.5,0.6
2025-07-27T0000,1213A,119.135,33.5039,淮安市,楚州区监测站,,27,27,28,12,14,46,,55,51,5,3,8,7,0.4,0.5
2025-07-27T0000,3426A,118.8755,33.2894,淮安市,新华书店,,18,16,18,12,12,42,,57,50,5,5,8,8,0.4,0.4
2025-07-27T0000,4206A,119.0288,33.6319,淮安市,承德北路606号,,22,22,29,10,15,47,,56,53,5,7,6,6,0.3,0.3
2025-07-27T0000,2282A,116.8004,33.975,淮北市,监测站,,23,23,28,9,12,56,,77,66,5,5,7,7,0.5,0.6
2025-07-27T0000,2283A,116.8091,33.9007,淮北市,烈山区政府,,38,38,33,3,9,60,,79,71,4,3,7,8,0.4,0.4
2025-07-27T0000,3330A,116.8873,33.9836,淮北市,杜集区检察院,,25,25,24,13,14,57,,76,66,5,5,7,7,0.2,0.2
2025-07-27T0000,4017A,116.7923,33.9535,淮北市,市博物馆,,24,24,24,10,14,60,,80,70,4,3,8,9,0.4,0.4
2025-07-27T0000,2277A,116.8305,32.7727,淮南市,潘集区政府,,23,23,28,9,11,39,,66,51,7,6,4,4,0.3,0.3
2025-07-27T0000,2279A,116.8569,32.5951,淮南市,谢家集区政府,,27,27,23,6,9,39,,54,52,3,4,6,7,0.0,0.1
2025-07-27T0000,2280A,116.8281,32.633,淮南市,八公山区政府,,15,15,27,7,9,36,,70,54,8,7,5,5,0.2,0.2
2025-07-27T0000,2281A,116.6325,32.6201,淮南市,焦岗湖风景区管理处,,,,,,,,,,,,,,,,
2025-07-27T0000,2894A,117.0566,32.6531,淮南市,经济技术开发区消防队,,23,23,22,6,5,39,,66,49,10,10,8,8,0.1,0.2
2025-07-27T0000,3329A,117.0108,32.5893,淮南市,山南新区,,13,13,11,8,7,34,,60,50,5,4,8,9,0.2,0.2
2025-07-27T0000,4209A,117.0031,32.6445,淮南市,国庆中路369号,,30,30,27,10,13,38,,68,53,5,6,12,12,0.1,0.2
2025-07-27T0000,2446A,114.9028,30.4742,黄冈市,职工中心,,16,16,23,9,13,47,,79,,2,3,5,5,0.5,0.5
2025-07-27T0000,2929A,114.8858,30.4519,黄冈市,红卫路,,20,12,20,8,16,61,,105,75,2,2,6,6,0.4,0.4
2025-07-27T0000,3398A,114.9136,30.4445,黄冈市,市林业局,,18,12,23,3,11,56,,105,71,2,3,6,7,0.4,0.5
2025-07-27T0000,2672A,102.0199,35.5102,黄南藏族自治州,同仁县隆务镇,,33,33,21,14,7,66,,93,83,5,9,7,7,0.2,0.2
2025-07-27T0000,2295A,118.2903,29.6963,黄山市,延安路89号,,13,,12,9,6,32,,48,38,4,5,3,3,0.4,0.4
2025-07-27T0000,2297A,118.1371,30.2756,黄山市,黄山区政府5号楼,,20,20,17,6,7,18,,43,28,7,5,4,4,0.3,0.4
2025-07-27T0000,4210A,118.3354,29.7203,黄山市,滨江东路7-2号,,16,16,17,7,7,25,,44,34,5,6,2,2,0.4,0.4
2025-07-27T0000,2423A,115.0601,30.2313,黄石市,沈家营,,,,37,,9,,,98,60,,7,,7,,0.4
2025-07-27T0000,2426A,114.8988,30.2019,黄石市,铁山,,18,18,23,3,7,28,,88,48,15,6,8,7,0.6,0.7
2025-07-27T0000,2427A,115.0307,30.2092,黄石市,团城山,,19,19,23,3,5,26,,100,59,7,5,7,7,0.2,0.3
2025-07-27T0000,3149A,115.0235,30.1578,黄石市,笔架山北路,,19,19,19,3,3,28,,82,50,8,9,6,7,0.4,0.4
2025-07-27T0000,4185A,115.0780,30.21118,黄石市,磁湖东路29号,,33,33,31,3,12,28,,86,56,8,6,6,6,0.5,0.4
2025-07-27T0000,1392A,114.4183,23.0528,惠州市,河南岸金山湖子站,,,31,33,17,24,48,,136,94,,14,9,8,0.6,0.6
2025-07-27T0000,1393A,114.4053,23.0822,惠州市,下埔横江三路子站,,38,35,32,26,19,54,,140,91,12,15,8,6,0.3,0.3
2025-07-27T0000,1394A,114.4103,23.1142,惠州市,江北云山西路子站,,,35,30,23,18,58,,143,92,13,14,8,9,,0.6
2025-07-27T0000,1395A,114.4645,22.7833,惠州市,惠阳区承修路船湖子站,,,54,42,31,26,,,189,189,23,24,8,8,0.5,0.5
2025-07-27T0000,1396A,114.5317,22.7422,惠州市,大亚湾管委会子站,,40,40,36,26,25,106,,205,175,17,25,9,8,0.6,0.6
2025-07-27T0000,3314A,114.4338,22.8134,惠州市,惠阳秋长,,46,46,47,26,27,77,,174,152,24,28,10,10,0.5,0.5
2025-07-27T0000,3452A,114.6517,22.775,惠州市,大亚湾霞涌,,30,22,35,21,22,85,,243,158,15,19,6,7,0.8,0.7
2025-07-27T0000,2240A,130.9762,45.3001,鸡西市,环保局,,13,13,14,8,7,32,,79,53,14,9,6,5,0.3,0.3
2025-07-27T0000,2243A,130.9429,45.3039,鸡西市,第一中学,,22,18,11,15,7,35,,78,52,13,10,11,10,0.2,0.2
2025-07-27T0000,3707A,131.0207,45.3073,鸡西市,欧美日汽修厂,,22,19,13,15,10,22,,72,47,23,15,10,10,0.3,0.3
2025-07-27T0000,3709A,130.9967,45.3106,鸡西市,市政设施管理处,,16,16,14,10,6,28,,81,54,21,13,6,6,0.4,0.4
2025-07-27T0000,2367A,114.9754,27.0803,吉安市,红声器材厂,,30,30,33,12,16,45,,105,66,6,6,7,9,0.4,0.4
2025-07-27T0000,2368A,114.9658,27.0999,吉安市,市森林工业局,,23,23,30,13,14,39,,112,68,4,5,8,10,0.4,0.5
2025-07-27T0000,2369A,114.99,27.1312,吉安市,市环境监测站,,24,24,26,9,15,42,,111,67,4,5,16,18,0.6,0.6
2025-07-27T0000,2370A,115.0093,27.0968,吉安市,青原区法院,,23,23,31,14,17,48,,101,65,6,10,8,9,0.6,0.6
2025-07-27T0000,1772A,126.54,43.8622,吉林市,哈达湾,,36,36,32,24,18,62,,66,55,7,13,6,6,0.5,0.5
2025-07-27T0000,1773A,126.5844,43.8358,吉林市,东局子,颗粒物(PM10),63,75,45,30,19,18,,63,35,18,12,5,5,0.9,0.7
2025-07-27T0000,1774A,126.5052,43.8245,吉林市,电力学院,,39,37,32,27,21,21,,70,44,17,14,5,6,1.0,0.9
2025-07-27T0000,1775A,126.6133,43.8972,吉林市,江北,,33,33,30,21,20,54,,57,38,9,8,3,3,0.8,0.8
2025-07-27T0000,1776A,126.555,43.8306,吉林市,江南公园,细颗粒物(PM2.5),54,42,31,38,20,36,,68,45,13,12,1,2,0.5,0.6
2025-07-27T0000,1778A,126.7061,43.7133,吉林市,丰满,,,,23,,18,,,84,57,,5,,4,,0.6
2025-07-27T0000,2868A,126.4739,43.953,吉林市,九站,细颗粒物(PM2.5),54,,50,38,43,78,,63,56,3,13,1,2,0.4,0.4
2025-07-27T0000,1299A,116.9862,36.6114,济南市,科干所,,16,12,18,10,13,50,,96,82,9,8,7,6,0.3,0.3
2025-07-27T0000,1300A,116.9376,36.665,济南市,农科所,,15,12,20,3,11,45,,92,78,7,7,8,8,0.3,0.3
2025-07-27T0000,1301A,117.1265,36.6734,济南市,开发区,,16,10,18,7,15,50,,89,82,6,9,10,8,0.5,0.5
2025-07-27T0000,1303A,117.0624,36.6868,济南市,省种子仓库,,22,22,22,3,10,54,,89,85,9,8,7,6,0.4,0.4
2025-07-27T0000,1304A,116.9489,36.6447,济南市,机床二厂,,16,15,22,3,9,50,,100,85,8,10,10,9,0.2,0.3
2025-07-27T0000,1305A,117.0495,36.663,济南市,市监测站,,15,12,18,3,11,47,,79,76,9,12,10,9,0.4,0.4
2025-07-27T0000,1306A,116.7675,36.5484,济南市,长清党校,,17,17,21,3,18,48,,110,93,13,10,8,7,0.3,0.4
2025-07-27T0000,1616A,117.6795,36.229,济南市,技术学院,,14,9,19,7,15,44,,102,68,15,11,7,9,0.6,0.7
2025-07-27T0000,1961A,117.532,36.6868,济南市,东山小学,颗粒物(PM10),100,149,27,7,12,55,,107,83,8,9,7,7,0.2,0.3
2025-07-27T0000,3059A,117.7161,36.2049,济南市,泰兴公司,,17,17,25,7,15,37,,95,61,16,12,9,11,0.4,0.6
2025-07-27T0000,3064A,117.6867,36.2171,济南市,莱芜战役纪念馆,,17,17,27,9,16,38,,94,62,17,14,4,6,0.9,0.9
2025-07-27T0000,3494A,117.1673,36.9782,济南市,济阳区政府,,32,32,38,7,14,47,,112,75,17,12,9,9,0.2,0.3
2025-07-27T0000,3495A,117.1171,36.63,济南市,锦屏中学,,17,10,18,3,11,53,,84,78,7,8,7,6,0.6,0.6
2025-07-27T0000,3682A,116.9814,36.6819,济南市,济南四建,,16,14,18,7,14,50,,94,84,9,8,8,6,0.5,0.5
2025-07-27T0000,1653A,116.6251,35.4302,济宁市,火炬城,,14,14,27,3,12,40,,93,73,9,7,4,6,0.4,0.5
2025-07-27T0000,1655A,116.5491,35.4042,济宁市,电化厂,,23,23,29,9,12,35,,98,74,17,7,8,7,0.4,0.5
2025-07-27T0000,3500A,116.5814,35.3707,济宁市,北湖一中,,22,22,28,8,13,31,,99,74,21,8,7,7,0.2,0.2
2025-07-27T0000,3501A,116.8249,35.5593,济宁市,服务中心,,22,22,29,3,9,33,,93,71,13,10,2,2,0,0
2025-07-27T0000,3678A,116.5907,35.4054,济宁市,市第七中学,,15,15,27,3,7,37,,96,73,11,6,10,9,0.2,0.3
2025-07-27T0000,2255A,130.2751,46.8028,佳木斯市,佳纺,,20,20,20,11,9,44,,95,57,12,15,8,8,0.6,0.6
2025-07-27T0000,2256A,130.3995,46.8307,佳木斯市,发电厂,,25,25,24,15,10,33,,98,,20,14,6,6,0.4,0.4
2025-07-27T0000,2257A,130.3258,46.7975,佳木斯市,环保局,,18,18,19,11,10,49,,105,64,12,12,10,10,0.5,0.5
2025-07-27T0000,2258A,130.3648,46.8032,佳木斯市,十一中,,20,20,20,13,10,52,,105,61,11,11,4,4,0.5,0.5
2025-07-27T0000,2259A,130.3794,46.7588,佳木斯市,四丰,,,,,,,5,,,,12,10,1,31,0.5,0.5
2025-07-27T0000,1252A,120.7436,30.778,嘉兴市,清河小学,,16,16,15,9,8,19,,56,27,10,10,9,8,0.5,0.4
2025-07-27T0000,1253A,120.726,30.7478,嘉兴市,嘉兴学院,,16,16,17,6,8,17,,44,28,13,9,4,3,0.3,0.3
2025-07-27T0000,2872A,120.7846,30.7525,嘉兴市,南湖区残联,,12,12,13,3,6,33,,46,32,12,8,5,5,0.3,0.3
2025-07-27T0000,3407A,120.6916,30.7739,嘉兴市,秀洲住建,,14,14,13,3,6,18,,44,27,10,10,4,4,0.4,0.4
2025-07-27T0000,1945A,98.2908,39.7711,嘉峪关市,气象局,,,66,35,,11,56,,143,121,56,20,13,14,1.3,1
2025-07-27T0000,2884A,98.2672,39.7978,嘉峪关市,酒钢宾馆,颗粒物(PM10),64,78,41,22,13,89,,161,142,32,17,30,27,1.0,1.2
2025-07-27T0000,3248A,98.2643,39.7724,嘉峪关市,雄关区,,,45,32,,16,48,,139,119,58,25,8,10,0.7,0.5
2025-07-27T0000,1383A,113.1064,22.6058,江门市,北街,,25,21,31,13,20,79,,163,107,7,14,3,4,0.4,0.4
2025-07-27T0000,1384A,113.0731,22.5835,江门市,西区,,26,13,33,11,17,83,,153,110,4,14,6,7,0.7,0.7
2025-07-27T0000,1385A,113.0219,22.5311,江门市,圭峰西,,26,26,36,16,21,60,,130,94,9,11,5,6,0.4,0.4
2025-07-27T0000,1386A,113.0828,22.5947,江门市,东湖,,25,23,29,16,20,77,,145,104,8,14,6,7,0.4,0.4
2025-07-27T0000,3311A,113.1075,22.5647,江门市,江海富民,,32,32,37,12,18,73,,141,105,8,13,8,9,0.3,0.4
2025-07-27T0000,3449A,113.05,22.4667,江门市,新会银湖,,38,,33,26,26,61,,88,80,9,10,3,2,0.3,0.3
2025-07-27T0000,1830A,113.1992,35.2590,焦作市,影视城,,,,28,,16,,,,,,10,,9,,0.5
2025-07-27T0000,3335A,113.3137,35.2641,焦作市,马村街道办,,42,42,40,24,26,66,,112,90,18,13,4,4,0.8,0.6
2025-07-27T0000,3336A,113.2465,35.2373,焦作市,焦作技师学院,,38,38,42,12,16,74,,114,92,12,10,1,1,0.8,0.7
2025-07-27T0000,3477A,113.1656,35.2539,焦作市,中站许衡医院,,46,46,38,28,28,90,,116,101,14,15,5,6,0.4,0.5
2025-07-27T0000,3981A,113.2449,35.1803,焦作市,原李万街道办,,30,30,39,14,16,68,,120,97,16,12,5,6,0.6,0.6
2025-07-27T0000,4264A,113.2340,35.2190,焦作市,新安路1731号,,42,42,43,20,20,81,,122,105,8,6,2,3,0.4,0.4
2025-07-27T0000,4295A,113.2722,35.2121,焦作市,人民路3066号,,39,39,44,21,27,64,,112,93,12,8,2,2,0.1,0.2
2025-07-27T0000,1708A,116.3701,23.5345,揭阳市,新兴,,26,26,26,14,14,48,,75,53,11,9,4,5,0.6,0.5
2025-07-27T0000,1709A,116.3264,23.5443,揭阳市,西马,,27,27,28,13,15,39,,64,41,14,12,2,4,0.4,0.4
2025-07-27T0000,1710A,116.3611,23.5626,揭阳市,东兴,,28,28,26,17,12,51,,62,48,11,9,3,4,0.6,0.5
2025-07-27T0000,1711A,116.4151,23.5294,揭阳市,渔湖,,28,28,27,16,12,47,,76,52,7,6,7,7,0.6,0.5
2025-07-27T0000,3320A,116.403,23.5699,揭阳市,曲溪,,25,25,25,17,13,59,,81,60,15,12,3,5,0.6,0.6
2025-07-27T0000,1944A,102.1692,38.5167,金昌市,天庆家园,,46,46,23,22,15,96,,114,112,15,9,69,20,0.8,0.9
2025-07-27T0000,4022A,102.1647,38.5371,金昌市,金川区人防中心,,38,38,27,21,13,104,,116,113,12,8,15,12,0.6,0.6
2025-07-27T0000,4239A,102.1930,38.5319,金昌市,长春路96号,,36,36,25,16,10,103,,114,113,10,6,15,18,0.8,0.7
2025-07-27T0000,1262A,119.647,29.077,金华市,十五中,,13,12,14,9,10,32,,76,46,20,15,1,1,0.3,0.3
2025-07-27T0000,1263A,119.686,29.1029,金华市,监测站,,12,8,10,8,8,21,,70,37,24,16,3,3,0.4,0.4
2025-07-27T0000,3659A,119.656,29.1131,金华市,气象局,,14,14,13,6,5,26,,67,38,18,12,3,4,0.6,0.5
2025-07-27T0000,1767A,121.1115,41.0879,锦州市,南山,,50,36,36,35,30,68,,92,82,10,9,7,4,0.8,0.6
2025-07-27T0000,1768A,121.0604,40.8428,锦州市,开发区,,28,28,43,15,20,70,,88,80,13,14,5,4,0.5,0.6
2025-07-27T0000,1769A,121.1836,41.1119,锦州市,百股街道,,40,40,37,27,20,80,,102,96,12,9,10,7,0.8,0.6
2025-07-27T0000,1770A,121.1178,41.1222,锦州市,天安街道,细颗粒物(PM2.5),62,48,37,44,30,78,,100,90,14,12,12,7,1.1,0.8
2025-07-27T0000,1771A,121.1303,41.1386,锦州市,北湖公园,细颗粒物(PM2.5),60,,41,43,29,74,,92,86,12,10,10,5,0.9,0.6
2025-07-27T0000,2160A,112.85,35.5051,晋城市,自来水公司,,49,49,44,17,18,89,,118,108,9,8,1,1,0.4,0.4
2025-07-27T0000,2161A,112.8318,35.4936,晋城市,白云商贸,,38,38,40,14,12,86,,114,103,8,8,1,2,0.4,0.4
2025-07-27T0000,2162A,112.8508,35.4887,晋城市,市环保局,,34,34,51,14,17,80,,108,97,9,8,2,2,0.3,0.3
2025-07-27T0000,2163A,112.8676,35.4897,晋城市,技术学院,颗粒物(PM10),51,51,34,17,17,78,,104,94,9,7,2,2,0.5,0.5
2025-07-27T0000,2165A,112.8453,35.546,晋城市,白马寺,,,,22,,20,,,118,110,,3,,6,,0.4
2025-07-27T0000,3620A,112.8271,35.4828,晋城市,泽州一中,,28,25,32,17,15,88,,118,105,6,5,4,4,0.3,0.3
2025-07-27T0000,2173A,112.7249,37.7067,晋中市,南都小区,,35,35,34,20,17,86,,106,102,6,6,2,3,0.7,0.5
2025-07-27T0000,2174A,112.6991,37.6982,晋中市,榆次区政府,,23,17,27,8,14,71,,105,96,10,3,7,8,0.9,0.8
2025-07-27T0000,2865A,112.7195,37.6828,晋中市,榆次三中,,30,12,25,9,13,94,,107,104,6,4,7,7,0.7,0.5
2025-07-27T0000,4200A,112.7478,37.6954,晋中市,迎宾街26号,,28,17,26,12,13,89,,113,107,5,6,4,5,0.6,0.5
2025-07-27T0000,2439A,112.2014,31.0481,荆门市,竹园小学,,33,33,39,22,22,83,,122,112,13,11,2,1,0.6,0.8
2025-07-27T0000,2440A,112.1969,30.9891,荆门市,掇刀,,35,35,37,19,22,86,,133,122,16,12,8,7,0.5,0.6
2025-07-27T0000,2441A,112.2213,31.0386,荆门市,石化一小,,39,39,42,18,22,99,,130,124,8,13,3,5,0.9,1
2025-07-27T0000,3012A,112.1849,31.0362,荆门市,西山林语,,36,36,32,21,20,99,,129,122,5,5,7,8,0.4,0.5
2025-07-27T0000,3547A,112.1632,31.0138,荆门市,龙泉中学南校,,32,24,34,22,20,83,,128,120,9,9,4,4,0.6,0.7
2025-07-27T0000,1844A,112.2494,30.3197,荆州市,市图书馆,,20,20,25,14,15,53,,113,94,6,16,1,3,0.4,0.5
2025-07-27T0000,1845A,112.2008,30.3544,荆州市,市委党校,,23,21,23,16,15,61,,119,98,16,21,5,5,0.4,0.4
2025-07-27T0000,3194A,112.2747,30.3122,荆州市,管委会,,23,,23,16,16,42,,105,81,12,20,5,6,0.5,0.6
2025-07-27T0000,4268A,112.1722,30.3366,荆州市,学苑路85号,,28,28,21,18,19,69,,117,93,14,9,5,5,0.4,0.3
2025-07-27T0000,2342A,117.3102,29.3867,景德镇市,王港中学,,,,,,,,,,,,,,,,
2025-07-27T0000,2343A,117.2117,29.2933,景德镇市,老干部活动中心,,19,19,14,3,7,24,,48,33,9,6,7,7,0.4,0.4
2025-07-27T0000,2344A,117.1894,29.2789,景德镇市,兽医站,,22,22,17,3,9,30,,47,34,5,5,3,3,0.6,0.6
2025-07-27T0000,2346A,117.2461,29.2956,景德镇市,陶研所,,13,13,18,3,10,14,,46,30,6,5,4,4,0.5,0.5
2025-07-27T0000,4289A,117.1542,29.2566,景德镇市,青少年活动中心,,13,,12,9,14,24,,46,31,7,10,1,11,0.3,0.4
2025-07-27T0000,1803A,115.9872,29.6815,九江市,十里,,19,,18,9,17,59,,72,68,10,8,4,4,0.5,0.6
2025-07-27T0000,1804A,115.9584,29.7046,九江市,茅山头,,25,25,24,3,15,63,,70,66,7,6,4,4,0.3,0.4
2025-07-27T0000,1805A,115.9877,29.7295,九江市,西园,,21,10,16,6,11,67,,80,74,16,13,5,6,0.8,0.8
2025-07-27T0000,1808A,115.9114,29.6038,九江市,综合工业园,,20,,22,8,13,63,,78,71,12,11,5,6,0.7,0.6
2025-07-27T0000,1809A,116.0721,29.7535,九江市,石化总厂,,17,17,22,6,19,53,,67,63,15,11,7,7,0.6,0.6
2025-07-27T0000,1810A,115.9773,29.5698,九江市,庐山气象台,,17,6,11,3,5,52,,68,67,6,5,7,7,1.0,0.9
2025-07-27T0000,3190A,116.0254,29.6994,九江市,外国语学校,,19,16,17,13,16,57,,72,68,12,9,11,11,0.4,0.5
2025-07-27T0000,4253A,116.0102,29.6594,九江市,莲花大道8号,,20,20,17,10,12,54,,66,62,2,3,3,4,0.6,0.6
2025-07-27T0000,4240A,98.4958,39.7339,酒泉市,玉门东路5号,,42,29,37,29,25,101,,134,122,5,12,6,7,0.2,0.3
2025-07-27T0000,4241A,98.5099,39.7506,酒泉市,北大街108号,,34,34,41,20,19,86,,131,116,10,12,7,9,0.3,0.4
2025-07-27T0000,2698A,76.0072,39.4467,喀什地区,巡警大队,颗粒物(PM10),60,70,100,14,20,104,,124,117,16,26,4,5,0.4,0.5
2025-07-27T0000,2699A,75.9755,39.4694,喀什地区,吾办,颗粒物(PM10),53,55,102,26,35,105,,127,121,17,24,6,6,0.7,0.7
2025-07-27T0000,4027A,75.9483,39.4689,喀什地区,老干局,颗粒物(PM10),51,51,92,20,25,107,,130,122,12,18,4,5,0.3,0.2
2025-07-27T0000,1824A,114.3389,34.7781,开封市,肿瘤医院,,45,45,40,20,18,60,,102,96,29,13,2,4,0.5,0.5
2025-07-27T0000,1826A,114.2885,34.7965,开封市,世纪星幼儿园,,44,44,35,17,20,64,,101,95,22,7,5,4,0.8,0.8
2025-07-27T0000,3147A,114.3438,34.8106,开封市,龙亭公园,,34,34,33,16,18,44,,95,84,30,10,1,2,0.4,0.3
2025-07-27T0000,3210A,114.3644,34.7964,开封市,汴京公园,,47,47,38,24,19,49,,99,89,30,11,5,4,0.5,0.4
2025-07-27T0000,3473A,114.2485,34.8306,开封市,技师学院,细颗粒物(PM2.5),54,41,31,38,20,38,,103,81,42,9,3,4,0.7,0.6
2025-07-27T0000,3592A,114.4644,34.7556,开封市,祥符区生态环境局,,47,47,32,20,17,16,,89,67,63,21,4,4,0.3,0.4
2025-07-27T0000,1951A,84.895,45.6094,克拉玛依市,长征新村,,44,44,31,18,10,65,,109,96,27,10,4,4,0.4,0.2
2025-07-27T0000,1952A,84.8988,45.5893,克拉玛依市,南林小区,颗粒物(PM10),60,69,34,29,14,19,,104,67,57,17,1,2,0.1,0.1
2025-07-27T0000,1954A,84.905,44.3396,克拉玛依市,独山子区,颗粒物(PM10),64,77,57,19,20,71,,160,130,30,17,10,10,0.8,0.7
2025-07-27T0000,1955A,85.6979,46.098,克拉玛依市,乌尔禾区商贸楼,,44,44,31,19,7,64,,100,90,20,6,7,6,0.5,0.4
2025-07-27T0000,3612A,85.1045,45.6899,克拉玛依市,白碱滩区新站,,47,47,36,16,13,98,,116,112,4,6,10,10,0.4,0.3
2025-07-27T0000,2697A,76.1454,39.7142,克孜勒苏柯尔克孜自治州,市人民政府,,,30,56,25,30,,,140,137,12,12,6,6,0.3,0.2
2025-07-27T0000,3665A,76.1658,39.7157,克孜勒苏柯尔克孜自治州,克州文化中心,,48,,77,33,37,98,,143,137,4,12,11,10,0.3,0.4
2025-07-27T0000,1450A,102.8204,24.8886,昆明市,呈贡新区,颗粒物(PM10),65,80,12,13,10,30,,53,43,18,15,4,3,0.6,0.5
2025-07-27T0000,1451A,102.6251,24.9608,昆明市,西山森林公园,,,,,,,,,,,,,,,,
2025-07-27T0000,1452A,102.7252,25.0902,昆明市,龙泉镇,,12,12,13,6,6,37,,37,27,8,14,3,2,0.3,0.4
2025-07-27T0000,1453A,102.7266,25.0375,昆明市,东风东路,,13,13,15,9,9,22,,44,33,24,21,3,3,0.3,0.4
2025-07-27T0000,1454A,102.6742,25.0669,昆明市,金鼎山,,14,14,14,3,5,34,,37,31,10,13,1,1,0.3,0.4
2025-07-27T0000,1455A,102.6644,25.0401,昆明市,碧鸡广场,,18,17,14,12,7,35,,36,28,14,18,6,6,0.5,0.6
2025-07-27T0000,3179A,102.7494,25.0119,昆明市,官渡区博物馆,,22,12,13,9,8,4,,35,22,43,25,1,2,0.4,0.4
2025-07-27T0000,3375A,102.8017,24.8336,昆明市,青年创业园,,16,16,12,8,9,28,,44,31,15,14,2,2,0.5,0.5
2025-07-27T0000,3550A,102.7997,24.9786,昆明市,昆明学院,,26,26,17,17,11,12,,42,28,44,21,6,5,0.3,0.3
2025-07-27T0000,3551A,102.5967,24.6736,昆明市,晋宁区生态环境分局,,25,25,15,9,10,30,,47,38,16,12,2,2,0.6,0.6
2025-07-27T0000,3552A,102.6678,24.9856,昆明市,云天化总部,,25,20,12,17,9,7,,40,27,43,17,4,3,0.3,0.3
2025-07-27T0000,1456A,91.1319,29.6514,拉萨市,八廓街,,25,17,12,6,7,79,,100,85,11,10,5,5,0.3,0.3
2025-07-27T0000,1457A,91.1221,29.6747,拉萨市,市环保局,,27,15,12,6,6,86,,97,82,11,10,7,7,0.2,0.2
2025-07-27T0000,1458A,91.0874,29.6475,拉萨市,区监测站,,25,21,9,11,6,78,,91,75,10,12,3,3,0.2,0.3
2025-07-27T0000,1459A,91.1774,29.6541,拉萨市,西藏大学,,25,19,10,3,6,80,,97,86,8,10,4,5,0.4,0.4
2025-07-27T0000,1460A,90.9798,29.6588,拉萨市,区辐射站,,45,45,13,9,6,90,,77,77,4,8,4,5,0.3,0.3
2025-07-27T0000,1461A,91.0834,29.6292,拉萨市,拉萨火车站,,27,27,9,6,6,84,,90,81,6,8,5,5,0.3,0.3
2025-07-27T0000,2520A,109.2203,23.7256,来宾市,来宾技工学校,,43,43,31,22,15,55,,101,85,15,8,11,8,0.6,0.5
2025-07-27T0000,3535A,109.1781,23.7297,来宾市,兴宾区政府,,41,41,21,14,12,47,,96,72,17,9,7,7,0.8,0.7
2025-07-27T0000,4002A,109.2416,23.7461,来宾市,中南小学,颗粒物(PM10),52,53,30,19,15,62,,112,98,12,8,6,6,0.5,0.4
2025-07-27T0000,1477A,104.1373,35.9454,兰州市,榆中兰大校区,,,,,,,,,,,,,,,,
2025-07-27T0000,1479A,103.831,36.0464,兰州市,铁路设计院,,47,47,48,21,25,46,,166,127,53,36,9,19,0.5,0.9
2025-07-27T0000,3241A,103.7439,36.0842,兰州市,百合公园,,46,46,38,29,17,58,,149,110,39,27,6,5,0.6,0.8
2025-07-27T0000,3242A,103.9611,35.998,兰州市,和平,,31,31,35,21,20,82,,174,127,16,18,10,14,0.5,0.7
2025-07-27T0000,4236A,103.6293,36.0938,兰州市,庄浪东路808号,,47,47,38,27,28,62,,164,107,35,34,11,12,0.3,0.4
2025-07-27T0000,4237A,103.7251,36.1043,兰州市,安宁西路88号,颗粒物(PM10),55,59,34,21,19,79,,180,149,29,13,6,7,0.4,0.4
2025-07-27T0000,4238A,103.8470,36.0676,兰州市,北滨河东路1号,,42,42,36,28,23,68,,173,126,36,32,11,10,0.5,0.7
2025-07-27T0000,3245A,103.6633,36.533,兰州新区,新区管委会,,35,32,31,23,20,110,,150,138,10,11,34,18,0.5,0.4
2025-07-27T0000,3246A,103.6975,36.4789,兰州新区,舟曲中学,,,,46,,23,,,,,,30,,15,,0.6
2025-07-27T0000,1067A,116.6708,39.5111,廊坊市,药材公司,,38,38,46,15,24,64,,120,86,16,10,3,3,0.2,0.3
2025-07-27T0000,1068A,116.7214,39.5589,廊坊市,开发区,,44,44,51,17,27,71,,130,96,20,15,1,2,0.3,0.4
2025-07-27T0000,1070A,116.7244,39.5269,廊坊市,北华航天学院,颗粒物(PM10),58,65,64,18,22,73,,126,92,17,12,1,1,0.3,0.4
2025-07-27T0000,2919A,116.7022,39.5453,廊坊市,河北工业大学,颗粒物(PM10),53,56,62,20,23,78,,132,100,18,15,4,3,0.3,0.4
2025-07-27T0000,2535A,103.7723,29.5462,乐山市,花湖湾,,14,14,8,8,5,39,,60,58,12,11,4,4,1.0,0.8
2025-07-27T0000,2536A,103.7627,29.5844,乐山市,牛耳桥,,17,17,8,9,5,24,,79,67,24,12,9,5,1.4,0.7
2025-07-27T0000,2537A,103.7508,29.6006,乐山市,市第三水厂,,26,21,9,18,7,21,,60,59,31,13,13,3,2.0,0.7
2025-07-27T0000,2538A,103.7571,29.5664,乐山市,市监测站,,15,14,8,6,5,22,,70,58,24,10,9,5,1.5,0.8
2025-07-27T0000,3361A,103.7311,29.5628,乐山市,理工大学,,23,23,9,10,4,14,,71,58,30,10,11,5,1.6,0.7
2025-07-27T0000,2598A,100.2143,26.8576,丽江市,西南郊,,,,10,,7,,,28,,,10,,6,,0.7
2025-07-27T0000,2599A,100.2497,26.8802,丽江市,丽江古城,,16,16,17,6,6,38,,49,38,10,14,9,9,0.5,0.6
2025-07-27T0000,2600A,100.2203,26.8906,丽江市,市中心,,16,11,8,11,9,29,,46,31,15,15,9,9,0.4,0.4
2025-07-27T0000,1267A,119.914,28.4514,丽水市,监测站大楼,,15,15,14,3,3,6,,36,10,15,12,4,4,0.4,0.4
2025-07-27T0000,1268A,119.93,28.4586,丽水市,莲都小学,,16,16,11,6,4,9,,38,12,14,11,3,3,0.3,0.3
2025-07-27T0000,1269A,119.879,28.4231,丽水市,余庄前,,18,18,14,3,5,0,,38,6,13,10,3,3,0.5,0.4
2025-07-27T0000,1173A,119.176,34.5885,连云港市,市环境监测站,,34,24,25,14,13,106,,100,100,6,5,1,2,0.5,0.5
2025-07-27T0000,3000A,119.3581,34.6972,连云港市,德源药业,,31,22,21,9,10,99,,102,102,9,10,4,4,0.7,0.6
2025-07-27T0000,3007A,119.178,34.844,连云港市,新城一中,,32,21,24,18,18,101,,109,109,8,6,5,5,0.8,0.7
2025-07-27T0000,3008A,119.3608,34.7519,连云港市,胡沟管理处,,32,19,22,14,13,101,,107,107,18,18,8,7,0.7,0.7
2025-07-27T0000,3009A,119.1478,34.5911,连云港市,矿山设计院,,30,27,26,14,16,96,,92,92,7,7,3,4,0.6,0.6
2025-07-27T0000,3434A,119.2413,34.6539,连云港市,工贸学校,,29,21,21,20,20,86,,86,86,5,4,8,7,0.7,0.6
2025-07-27T0000,3664A,119.4172,34.7341,连云港市,连云街道,,35,26,26,17,18,109,,113,112,3,5,1,2,0.7,0.6
2025-07-27T0000,2571A,102.3431,27.8099,凉山彝族自治州,青龙寺,,17,17,13,3,4,28,,62,51,5,5,7,7,0.8,0.9
2025-07-27T0000,2572A,102.2721,27.8415,凉山彝族自治州,邛海宾馆,,19,19,12,13,10,41,,73,66,13,13,6,7,0.8,0.9
2025-07-27T0000,2573A,102.2625,27.898,凉山彝族自治州,西昌市政府,,12,12,12,8,12,30,,72,63,8,13,5,7,0.5,0.7
2025-07-27T0000,2574A,102.2685,27.8851,凉山彝族自治州,凉山州政府,,33,23,15,23,18,50,,79,72,15,16,9,9,0.8,0.6
2025-07-27T0000,4229A,102.2342,27.8859,凉山彝族自治州,凯乐南路30号,,29,22,15,20,10,39,,76,66,20,20,7,9,0.8,0.9
2025-07-27T0000,2212A,123.2,41.1953,辽阳市,宏伟区,,23,21,31,16,17,42,,107,80,14,11,2,2,0.6,0.6
2025-07-27T0000,2213A,123.1683,41.2495,辽阳市,新华园,颗粒物(PM10),54,58,37,25,19,42,,109,73,33,13,9,8,0.6,0.4
2025-07-27T0000,2214A,123.2354,41.2639,辽阳市,滨河路,,35,28,33,24,18,14,,117,79,36,13,4,4,0.5,0.6
2025-07-27T0000,2215A,123.149,41.2991,辽阳市,铁西工业园,颗粒物(PM10),82,114,45,38,19,20,,100,61,41,15,6,6,1.0,1
2025-07-27T0000,2227A,125.1358,42.8845,辽源市,环保局,颗粒物(PM10),54,57,33,27,15,64,,118,99,17,6,6,6,0.5,0.4
2025-07-27T0000,3239A,125.0764,42.9078,辽源市,银鹰制药,,50,45,26,35,20,84,,126,108,17,13,9,8,0.6,0.5
2025-07-27T0000,1625A,115.9848,36.4372,聊城市,区政府,,33,33,26,20,16,68,,112,105,21,10,6,8,0.7,0.6
2025-07-27T0000,2878A,116.0072,36.4343,聊城市,聊大东校,,35,29,31,24,20,67,,120,108,18,10,5,7,0.7,0.6
2025-07-27T0000,3200A,115.9819,36.4978,聊城市,监控中心,,25,24,19,17,12,74,,116,105,23,10,6,7,0.7,0.6
2025-07-27T0000,3513A,116.0445,36.4361,聊城市,九州社区,,43,43,33,22,16,57,,116,104,27,11,4,4,0.3,0.2
2025-07-27T0000,4018A,116.0567,36.4608,聊城市,星美广场,,39,39,34,14,15,59,,112,100,24,13,2,3,0.5,0.5
2025-07-27T0000,2632A,94.3681,29.6376,林芝市,林芝监测站,,10,6,8,3,4,29,,48,37,2,3,4,4,0.3,0.3
2025-07-27T0000,2633A,94.3616,29.6616,林芝市,林芝人民医院,,10,6,10,3,2,30,,49,38,1,2,3,3,0.3,0.4
2025-07-27T0000,2603A,100.0781,23.8982,临沧市,市环保局,,35,,15,24,16,21,,34,25,6,6,3,2,0.4,0.3
2025-07-27T0000,2604A,100.0894,23.8822,临沧市,市气象局,,19,,13,13,8,23,,33,27,6,9,8,9,0.4,0.4
2025-07-27T0000,1733A,111.5531,36.0783,临汾市,临钢医院,颗粒物(PM10),52,53,42,19,13,105,,118,109,9,14,3,3,0.6,0.6
2025-07-27T0000,1734A,111.5028,36.0714,临汾市,技工学校,,50,46,35,35,23,121,,132,125,13,9,7,6,0.5,0.5
2025-07-27T0000,1736A,111.5018,36.0855,临汾市,市委,颗粒物(PM10),55,59,50,24,14,132,,141,134,11,8,5,5,0.7,0.6
2025-07-27T0000,3018A,111.505,36.1014,临汾市,唐尧大酒店,颗粒物(PM10),62,73,49,8,14,121,,135,126,10,9,3,3,0.6,0.5
2025-07-27T0000,4244A,111.4879,36.0530,临汾市,启星学校,细颗粒物(PM2.5),64,49,37,46,28,114,,127,122,14,10,6,6,0.5,0.5
2025-07-27T0000,4271A,103.2464,35.6123,临夏回族自治州,滨河东路1号,颗粒物(PM10),62,74,35,25,13,32,,107,67,33,17,5,6,0.4,0.3
2025-07-27T0000,4310A,103.2093,35.5995,临夏回族自治州,新华街21号,,50,50,31,30,14,60,,120,94,21,13,6,6,0.4,0.3
2025-07-27T0000,1618A,118.3429,35.0532,临沂市,沂河小区,,27,27,26,18,19,77,,71,71,9,9,7,9,0.3,0.3
2025-07-27T0000,1619A,118.295,35.0583,临沂市,鲁南制药厂,,27,14,19,10,13,85,,76,76,5,6,8,9,0.4,0.4
2025-07-27T0000,1620A,118.2794,34.9976,临沂市,新光毛纺厂,,28,17,15,11,14,87,,77,77,7,8,7,8,0.4,0.4
2025-07-27T0000,1621A,118.3956,35.0888,临沂市,河东保险公司,,24,24,23,14,11,72,,74,74,11,10,7,7,0.6,0.5
2025-07-27T0000,3370A,118.3564,35.0215,临沂市,十里堡居委,,26,19,19,14,13,83,,77,77,8,8,9,10,0.3,0.3
2025-07-27T0000,3496A,118.3604,35.1084,临沂市,南坊新区,,34,34,28,12,11,70,,70,70,12,10,10,10,0.5,0.4
2025-07-27T0000,3860A,118.3920,35.0300,临沂市,皇山花园小区,,28,19,23,19,16,75,,73,73,10,9,10,11,0.3,0.3
2025-07-27T0000,1870A,109.4856,24.3895,柳州市,柳东小学,细颗粒物(PM2.5),75,66,36,55,27,57,,116,93,14,7,8,14,0.8,0.6
2025-07-27T0000,1871A,109.4157,24.3277,柳州市,环保监测站,颗粒物(PM10),65,79,43,43,24,50,,117,86,19,12,14,13,0.9,0.7
2025-07-27T0000,1872A,109.389,24.341,柳州市,河西水厂,细颗粒物(PM2.5),75,94,48,55,23,40,,109,84,23,15,5,7,1.0,0.8
2025-07-27T0000,1873A,109.4311,24.2921,柳州市,市四中,细颗粒物(PM2.5),83,79,48,61,28,44,,110,76,18,16,6,6,1.2,1.3
2025-07-27T0000,1874A,109.4006,24.3631,柳州市,市九中,细颗粒物(PM2.5),95,125,52,71,26,42,,112,86,24,15,4,6,0.7,0.6
2025-07-27T0000,1875A,109.4958,24.3134,柳州市,古亭山,细颗粒物(PM2.5),63,59,44,45,26,30,,106,73,26,13,5,8,0.8,0.7
2025-07-27T0000,3402A,109.5422,24.3996,柳州市,市二中,细颗粒物(PM2.5),104,111,48,78,33,36,,118,83,17,12,4,8,1.0,0.8
2025-07-27T0000,2307A,116.5079,31.737,六安市,监测大楼,,20,20,21,11,12,41,,72,61,4,4,6,6,0.2,0.2
2025-07-27T0000,2308A,116.4738,31.7643,六安市,皖西学院,,13,13,23,9,12,39,,73,60,9,6,2,2,0.2,0.2
2025-07-27T0000,2309A,116.4996,31.7905,六安市,朝阳厂,,17,17,17,9,12,33,,67,54,12,8,4,5,0.2,0.2
2025-07-27T0000,2310A,116.5567,31.7886,六安市,开发区,,18,,13,12,14,30,,67,52,11,6,4,4,0.2,0.3
2025-07-27T0000,2576A,104.8,26.5892,六盘水市,窑上,,,,23,,3,,,50,36,,4,,3,,0.3
2025-07-27T0000,2577A,104.83,26.5917,六盘水市,黄土坡,,17,6,10,3,5,54,,54,48,12,10,8,9,0.2,0.3
2025-07-27T0000,2578A,104.89,26.5939,六盘水市,水钢,,33,33,20,12,7,54,,64,52,20,10,8,10,1.0,0.5
2025-07-27T0000,2579A,104.8475,26.5894,六盘水市,民中,,19,7,9,3,2,58,,60,55,12,7,8,8,0.3,0.3
2025-07-27T0000,2580A,104.9544,26.5506,六盘水市,双水,,19,,7,7,6,59,,60,57,6,5,5,5,0.3,0.3
2025-07-27T0000,2335A,117.0189,25.1181,龙岩市,龙岩师专,,,,,,,,,,,,,,,,
2025-07-27T0000,2336A,117.0217,25.1033,龙岩市,龙岩市监测站,,30,,18,21,13,15,,49,35,16,13,8,4,0.5,0.5
2025-07-27T0000,2337A,117.0258,25.0661,龙岩市,闽西职业技术学院,,28,28,24,16,13,8,,73,36,15,8,3,8,0.6,0.6
2025-07-27T0000,2338A,117.0196,25.0306,龙岩市,龙岩学院,,23,18,20,16,13,14,,76,38,11,9,4,4,0.4,0.3
2025-07-27T0000,2665A,105.0822,33.3261,陇南市,汉王镇固水子,,,,,,,,,,,,,,,,
2025-07-27T0000,2885A,104.9339,33.3826,陇南市,滨江中学,,43,43,35,7,8,25,,78,52,19,8,6,6,0.6,0.5
2025-07-27T0000,3247A,104.955,33.371,陇南市,市总工会,,39,39,35,3,9,47,,86,63,2,5,4,5,0.3,0.3
2025-07-27T0000,2487A,111.9589,27.8901,娄底市,电视发射台,颗粒物(PM10),67,84,67,10,13,28,,76,28,4,4,6,6,0.3,0.3
2025-07-27T0000,2488A,111.9975,27.725,娄底市,市监测站,,42,42,41,22,23,27,,88,42,30,25,20,20,1.0,1.1
2025-07-27T0000,2489A,112.0194,27.7314,娄底市,市委党校,,50,50,40,30,23,25,,88,45,31,24,30,25,1.2,1.1
2025-07-27T0000,2490A,111.9561,27.7569,娄底市,涟钢,,42,42,33,21,24,30,,71,47,13,12,11,12,1.0,1
2025-07-27T0000,2491A,111.9892,27.7044,娄底市,市政府,,23,18,30,16,18,34,,91,55,6,7,4,5,0.4,0.6
2025-07-27T0000,1893A,105.4324,28.9634,泸州市,九狮山,,48,33,24,33,21,63,,106,90,7,6,4,5,0.5,0.4
2025-07-27T0000,1894A,105.4427,28.9063,泸州市,小市上码头,,22,22,21,8,7,46,,79,64,5,7,2,3,0.4,0.4
2025-07-27T0000,1895A,105.4241,28.8573,泸州市,兰田宪桥,,19,15,15,8,7,58,,97,81,11,7,7,7,0.2,0.2
2025-07-27T0000,1896A,105.4379,28.8833,泸州市,市环监站,,27,27,19,16,12,67,,96,84,10,11,7,8,0.4,0.3
2025-07-27T0000,4272A,105.3689,28.7783,泸州市,纳溪中医医院,,20,20,19,14,11,47,,107,78,18,13,4,4,0.3,0.3
2025-07-27T0000,2183A,111.1406,37.5211,吕梁市,环保局,,24,21,38,10,18,7,,90,39,47,23,1,2,0.7,0.7
2025-07-27T0000,2185A,111.1297,37.5136,吕梁市,自来水公司,,26,26,34,12,15,14,,78,40,27,16,2,2,0.6,0.6
2025-07-27T0000,2867A,111.1283,37.51,吕梁市,马茂庄小学,,23,23,38,6,17,11,,83,38,34,20,2,3,0.6,0.6
2025-07-27T0000,1812A,112.3931,34.6516,洛阳市,市委党校,,27,19,29,11,15,86,,153,108,5,7,7,8,0.4,0.5
2025-07-27T0000,1815A,112.494,34.6886,洛阳市,河南林校,,40,40,39,20,22,46,,156,97,36,15,9,8,0.5,0.5
2025-07-27T0000,1816A,112.3844,34.623,洛阳市,开发区管委会,,26,20,28,13,18,81,,154,105,4,5,9,10,0.4,0.5
2025-07-27T0000,1817A,112.4267,34.6258,洛阳市,市委新办公区,,27,27,35,12,21,82,,149,103,6,8,7,9,0.4,0.4
2025-07-27T0000,3340A,112.6005,34.6326,洛阳市,伊滨,,28,,27,19,19,52,,142,86,18,11,5,4,0.5,0.5
2025-07-27T0000,3341A,112.4951,34.6332,洛阳市,中移产业园,,33,33,33,18,18,54,,148,94,22,8,7,6,0.7,0.7
2025-07-27T0000,3593A,112.5736,34.8993,洛阳市,吉利监测站,,39,39,48,22,29,56,,143,99,15,12,6,7,0.4,0.4
2025-07-27T0000,3635A,112.3677,34.662,洛阳市,河科大西苑校区,,27,22,31,8,14,85,,151,106,1,4,7,9,0.2,0.4
2025-07-27T0000,3636A,112.4388,34.6781,洛阳市,英才小学,,31,31,35,19,22,60,,144,98,20,11,8,8,0.5,0.6
2025-07-27T0000,4214A,112.4600,34.6949,洛阳市,春都路1号院,,40,40,35,12,14,40,,140,89,30,12,6,6,0.5,0.5
2025-07-27T0000,2399A,114.051,33.5699,漯河市,三五一五工厂,,48,48,30,18,17,60,,94,79,19,10,10,6,0.4,0.4
2025-07-27T0000,2400A,114.0055,33.5698,漯河市,漯河大学,,37,37,31,17,14,66,,93,81,15,10,5,5,0.5,0.5
2025-07-27T0000,2401A,114.0138,33.5828,漯河市,市水利局,,39,39,30,17,16,58,,90,76,15,8,7,5,0.5,0.3
2025-07-27T0000,2402A,114.0261,33.5698,漯河市,市广电局,,34,34,27,18,17,68,,99,85,13,7,4,3,0.4,0.3
2025-07-27T0000,3478A,113.9749,33.5664,漯河市,市图书馆,,26,26,28,18,19,72,,94,83,10,8,6,7,0.4,0.4
2025-07-27T0000,4250A,114.0892,33.5882,漯河市,韶山路11号,,43,43,32,22,17,36,,94,67,33,14,5,3,0.5,0.5
2025-07-27T0000,1798A,118.5092,31.6837,马鞍山市,湖东路四小,,26,26,25,16,12,26,,74,48,7,6,7,7,0.4,0.4
2025-07-27T0000,1799A,118.5024,31.6449,马鞍山市,开发区,,25,25,22,11,10,28,,78,52,7,5,8,7,0.6,0.5
2025-07-27T0000,1802A,118.6245,31.7241,马鞍山市,濮塘,,25,25,19,11,10,28,,72,49,6,4,8,7,0.5,0.5
2025-07-27T0000,3633A,118.4918,31.6809,马鞍山市,雨山,,27,27,21,13,11,27,,73,49,8,6,8,7,0.3,0.3
2025-07-27T0000,4191A,118.5274,31.72227,马鞍山市,慈湖高新区,,23,23,21,12,8,26,,72,47,7,6,6,6,0.4,0.4
2025-07-27T0000,1686A,111.0286,21.4688,茂名市,电白南海,,39,39,30,22,20,25,,96,52,24,12,8,7,0.4,0.4
2025-07-27T0000,1687A,110.9294,21.6533,茂名市,茂石化七小,,31,31,29,19,18,29,,90,48,19,11,10,10,0.5,0.6
2025-07-27T0000,1688A,110.9107,21.6687,茂名市,健康路,,22,22,27,14,15,35,,93,53,15,11,10,16,0.6,0.6
2025-07-27T0000,1689A,110.8592,21.6828,茂名市,高岭,,44,44,37,17,14,15,,89,40,30,15,20,12,0.5,0.5
2025-07-27T0000,3450A,111.01,21.5165,茂名市,电白水东,,27,27,26,12,16,39,,99,59,21,15,16,16,0.6,0.5
2025-07-27T0000,2539A,104.0308,30.0478,眉山市,黑龙滩水库,,22,16,6,15,6,44,,87,77,6,4,3,3,0.1,0.1
2025-07-27T0000,2540A,103.8416,30.0874,眉山市,气象局,,27,27,15,9,1,19,,89,68,43,12,3,3,0.6,0.4
2025-07-27T0000,3137A,103.8578,30.0744,眉山市,市委党校,,14,14,5,7,1,38,,84,68,25,11,7,7,0.6,0.5
2025-07-27T0000,3148A,103.8291,30.0564,眉山市,区人社局,,32,32,21,7,1,37,,85,72,26,14,11,10,0.7,0.6
2025-07-27T0000,1690A,116.1231,24.3284,梅州市,梅江月梅,,29,26,21,20,16,28,,67,42,13,12,9,9,0.5,0.5
2025-07-27T0000,1691A,116.0797,24.2719,梅州市,梅县新城,,35,,22,24,16,28,,69,41,9,9,7,7,0.4,0.4
2025-07-27T0000,1692A,116.1248,24.2654,梅州市,环境监控中心,,18,,24,12,15,33,,71,44,10,10,6,5,0.4,0.4
2025-07-27T0000,3315A,116.1233,24.2991,梅州市,梅龙,,27,27,21,17,14,30,,69,46,11,10,9,8,0.6,0.5
2025-07-27T0000,1878A,104.7778,31.4741,绵阳市,富乐山,,17,17,20,8,13,24,,104,66,10,9,8,8,0.5,0.5
2025-07-27T0000,1880A,104.6697,31.4668,绵阳市,高新区自来水公司,,28,28,20,9,7,21,,105,78,35,11,7,8,0.5,0.4
2025-07-27T0000,1881A,104.7287,31.5075,绵阳市,三水厂,,24,24,21,12,12,8,,110,73,34,13,6,6,0.5,0.4
2025-07-27T0000,3491A,104.69,31.5322,绵阳市,西科大附属小学,,31,31,21,15,12,25,,102,70,29,14,7,7,0,0.3
2025-07-27T0000,3492A,104.5648,31.5343,绵阳市,安州区旅游局,,26,26,18,3,3,36,,92,76,13,8,7,7,0.4,0.3
2025-07-27T0000,4226A,104.7651,31.4531,绵阳市,绵阳市气象局,,21,21,21,12,13,44,,109,82,11,10,5,5,0.5,0.5
2025-07-27T0000,1784A,129.61,44.561,牡丹江市,环保大楼,,19,18,17,13,14,26,,57,40,12,11,3,3,0.3,0.3
2025-07-27T0000,1785A,129.6115,44.5782,牡丹江市,文化广场,,29,,19,20,20,26,,53,35,14,13,7,6,0.5,0.5
2025-07-27T0000,1786A,129.5904,44.5963,牡丹江市,第一医院,,20,,19,14,17,25,,52,32,10,12,6,6,0.4,0.5
2025-07-27T0000,1787A,129.6364,44.6075,牡丹江市,机车工厂,,18,18,19,11,12,17,,47,30,15,13,4,4,0.4,0.4
2025-07-27T0000,1788A,129.6386,44.5462,牡丹江市,第一中学,,19,19,19,9,10,28,,58,32,8,12,5,5,0.2,0.2
2025-07-27T0000,2531A,105.0703,29.61,内江市,市监测站,,30,22,22,12,13,96,,120,110,7,9,5,4,0.6,0.5
2025-07-27T0000,2532A,105.0717,29.5947,内江市,东兴区政府,,25,23,15,3,7,80,,116,99,10,10,8,7,0.6,0.6
2025-07-27T0000,2533A,105.0653,29.5817,内江市,内江二中,,24,23,26,14,16,75,,123,104,13,11,4,4,0.5,0.5
2025-07-27T0000,2534A,105.0406,29.5822,内江市,内江日报社,,20,14,21,14,17,62,,108,92,13,10,8,7,0.5,0.4
2025-07-27T0000,2628A,92.0657,31.4846,那曲市,那曲监测站,颗粒物(PM10),52,54,21,16,8,70,,93,81,17,11,6,6,0.4,0.4
2025-07-27T0000,4243A,92.0515,31.4787,那曲市,那曲市委宣传部,,21,17,15,9,6,67,,94,84,17,8,5,4,0.3,0.3
2025-07-27T0000,1290A,115.8931,28.6843,南昌市,省外办,,32,,23,22,19,42,,69,64,15,11,5,6,0.7,0.6
2025-07-27T0000,1291A,115.8886,28.7003,南昌市,省林业公司,,20,17,23,14,14,22,,66,57,20,12,1,2,0.6,0.6
2025-07-27T0000,1292A,115.8126,28.7442,南昌市,林科所,,18,9,16,7,11,56,,69,66,8,8,7,7,0.3,0.3
2025-07-27T0000,1294A,115.8518,28.687,南昌市,建工学校,,18,,27,10,10,55,,73,69,14,13,8,9,0.5,0.5
2025-07-27T0000,1295A,115.8921,28.6424,南昌市,象湖,,18,14,20,7,10,56,,76,75,12,8,7,7,0.5,0.5
2025-07-27T0000,1296A,115.7423,28.7996,南昌市,武术学校,,17,17,20,3,8,16,,58,26,3,4,8,8,0.5,0.5
2025-07-27T0000,3046A,115.9084,28.6062,南昌市,机电学校,,25,25,27,9,13,63,,76,76,14,11,5,5,0.6,0.6
2025-07-27T0000,3690A,115.9721,28.7031,南昌市,外国语学校,,23,23,24,11,11,57,,75,74,12,8,6,5,0.6,0.5
2025-07-27T0000,4192A,115.9316,28.68677,南昌市,南京东路235号,,20,18,26,8,11,64,,76,76,14,11,4,3,0.7,0.6
2025-07-27T0000,1905A,106.056,30.8064,南充市,西山风景区,,,,,,,,,,,,,,,,
2025-07-27T0000,1906A,106.0789,30.8023,南充市,南充市委,,23,23,22,12,13,51,,94,76,14,13,5,5,0.4,0.4
2025-07-27T0000,1907A,106.1031,30.8217,南充市,南充炼油厂,,31,31,28,14,13,59,,93,78,7,8,4,5,0.3,0.3
2025-07-27T0000,4227A,106.1083,30.7884,南充市,梨树横街98号,,29,23,21,20,11,64,,100,88,8,10,2,3,0.2,0.2
2025-07-27T0000,4304A,106.1172,30.843,南充市,清泉寺北路188号,,32,31,23,22,16,56,,97,81,9,9,3,2,0.2,0.2
2025-07-27T0000,4305A,106.067,30.7616,南充市,同庆路1号,,25,17,19,17,12,71,,102,93,8,10,1,2,0.1,0.1
2025-07-27T0000,1151A,118.8086,32.1065,南京市,迈皋桥,,12,12,14,7,8,18,,61,36,20,14,4,4,0.2,0.2
2025-07-27T0000,1152A,118.7538,32.0551,南京市,草场门,,22,22,18,7,7,15,,53,32,14,10,9,9,0.3,0.3
2025-07-27T0000,1153A,118.7794,32.0745,南京市,山西路,,24,24,20,3,3,18,,61,37,18,19,5,5,0.4,0.4
2025-07-27T0000,1154A,118.7752,32.0023,南京市,中华门,,14,14,15,7,5,17,,51,32,6,6,8,8,0.7,0.6
2025-07-27T0000,1155A,118.8109,32.0309,南京市,瑞金路,,10,9,12,7,7,24,,60,39,4,5,7,7,0.3,0.3
2025-07-27T0000,1156A,118.7997,32.0754,南京市,玄武湖,,20,20,18,3,3,15,,50,30,11,10,6,6,0.4,0.4
2025-07-27T0000,1157A,118.6414,32.0931,南京市,浦口,,26,26,21,8,7,19,,62,36,16,11,6,5,0.2,0.2
2025-07-27T0000,1158A,118.7356,31.9996,南京市,奥体中心,,18,16,18,12,9,28,,62,43,10,10,4,4,0.4,0.4
2025-07-27T0000,1159A,118.9125,32.1028,南京市,仙林大学城,,22,22,22,3,3,18,,58,35,9,6,8,7,0.5,0.5
2025-07-27T0000,3422A,118.8436,31.9198,南京市,江宁彩虹桥,,23,23,22,9,7,19,,56,35,10,8,4,4,0.5,0.5
2025-07-27T0000,3427A,118.8554,32.3578,南京市,六合雄州,,22,22,21,3,4,19,,48,33,10,9,6,4,0.4,0.5
2025-07-27T0000,4249A,118.8708,31.3402,南京市,汶溪路181号,,18,18,19,11,11,30,,85,60,14,12,4,5,0.4,0.5
2025-07-27T0000,4312A,119.019,31.6512,南京市,中山西路1号,颗粒物(PM10),51,51,17,12,10,19,,68,41,12,7,4,4,0.5,0.5
2025-07-27T0000,1401A,108.3103,22.7881,南宁市,二十一中,,22,,39,15,21,70,,142,118,10,18,5,6,0.6,0.6
2025-07-27T0000,1402A,108.3141,22.8528,南宁市,北湖,,35,,29,24,20,73,,131,116,12,16,4,6,0.6,0.5
2025-07-27T0000,1403A,108.3206,22.8225,南宁市,市监测站,,30,,39,21,21,72,,137,119,12,19,4,7,0.5,0.5
2025-07-27T0000,1404A,108.3829,22.8037,南宁市,大自然花园,,25,,34,15,15,77,,134,112,6,15,4,6,0.4,0.5
2025-07-27T0000,1405A,108.4394,22.7904,南宁市,仙葫,,24,,28,10,17,74,,121,104,6,16,3,4,0.6,0.6
2025-07-27T0000,1406A,108.2397,22.8467,南宁市,区农职院,,29,,36,20,22,73,,122,115,13,15,6,8,0.9,0.8
2025-07-27T0000,1407A,108.3275,22.735,南宁市,英华嘉园,,22,19,40,15,21,59,,145,107,21,18,2,3,0.4,0.4
2025-07-27T0000,3401A,108.4834,22.7618,南宁市,红星社区,,,17,31,12,15,,,135,,8,11,2,2,0.4,0.5
2025-07-27T0000,4221A,108.2177,22.7774,南宁市,乐贤路16号,,29,29,41,20,26,63,,145,116,25,17,4,4,0.8,0.7
2025-07-27T0000,2331A,118.0966,26.6761,南平市,茫荡山,,,,,,,,,,,,,,,,
2025-07-27T0000,2332A,118.1681,26.6369,南平市,南平市监测站,,15,15,13,9,9,9,,37,22,15,8,4,4,0.6,0.6
2025-07-27T0000,2333A,118.1825,26.6489,南平市,南平铝业有限公司,,20,20,17,12,7,11,,38,24,16,5,6,5,0.6,0.5
2025-07-27T0000,2334A,118.1756,26.6272,南平市,南平七中,,17,17,17,9,8,13,,35,17,9,8,2,3,0.5,0.5
2025-07-27T0000,1168A,120.9098,31.9663,南通市,狼山街道,,16,16,13,3,4,37,,43,34,4,4,6,4,0.3,0.4
2025-07-27T0000,1169A,120.86,32.0005,南通市,虹桥,,12,10,12,7,7,37,,45,34,7,6,4,3,0.5,0.4
2025-07-27T0000,1170A,120.87,32.02,南通市,城中,,15,15,16,7,5,34,,39,30,6,5,6,4,0.3,0.4
2025-07-27T0000,1171A,120.94,31.93,南通市,星湖花园,,12,10,8,3,4,38,,42,34,6,6,4,2,0.4,0.4
2025-07-27T0000,1172A,120.81,32.0417,南通市,紫琅学院,,11,9,12,3,1,34,,40,30,5,6,4,3,0.6,0.6
2025-07-27T0000,3291A,121.067,32.062,南通市,通州监测站,,14,7,9,3,4,44,,44,39,3,3,2,2,0.7,0.6
2025-07-27T0000,3432A,120.9348,31.9883,南通市,环境教育馆,,17,17,16,3,2,42,,48,38,6,5,2,2,0.2,0.2
2025-07-27T0000,2404A,112.5224,33.0122,南阳市,瓦房庄,,33,33,32,15,17,84,,131,113,8,7,7,7,0.4,0.5
2025-07-27T0000,2405A,112.5003,32.9735,南阳市,汉画馆,,31,31,32,8,9,79,,127,109,10,8,6,6,0.4,0.4
2025-07-27T0000,2406A,112.5573,33.027,南阳市,气象站,,35,35,31,17,16,82,,137,113,10,7,7,7,0.3,0.4
2025-07-27T0000,2407A,112.5481,32.9689,南阳市,理工学院,,28,28,29,9,10,78,,130,109,10,7,7,7,0.4,0.5
2025-07-27T0000,4008A,112.5234,32.9922,南阳市,卧龙区政府,,34,34,28,18,16,81,,130,110,11,9,5,5,0.5,0.5
2025-07-27T0000,1234A,121.8358,29.911,宁波市,区环保大楼,,16,16,27,3,4,10,,36,17,21,19,3,3,0.8,0.5
2025-07-27T0000,1235A,121.56,29.82,宁波市,万里学院,,10,10,13,3,6,19,,51,28,19,14,4,4,0.5,0.5
2025-07-27T0000,1236A,121.713,29.9572,宁波市,龙赛医院,,9,7,17,6,6,13,,39,22,15,14,6,7,0.2,0.2
2025-07-27T0000,1239A,121.633,29.7733,宁波市,钱湖水厂,,15,15,12,3,3,7,,50,26,8,7,4,4,0.3,0.3
2025-07-27T0000,1240A,121.5856,29.8635,宁波市,太古小学,,9,,15,6,7,18,,47,28,11,10,1,1,0.4,0.4
2025-07-27T0000,1241A,121.524,29.8674,宁波市,市环境监测中心,,15,15,15,6,5,13,,46,24,18,16,4,4,0.4,0.4
2025-07-27T0000,2871A,121.6147,29.9017,宁波市,万里国际学校,,13,13,13,7,8,14,,44,22,14,15,4,4,0.4,0.5
2025-07-27T0000,3710A,121.5594,29.8975,宁波市,白沙活动中心,,12,12,14,3,4,21,,50,27,8,13,4,4,0.4,0.4
2025-07-27T0000,2339A,119.5001,26.6946,宁德市,金涵水库,,,,,,,,,,,,,,,,
2025-07-27T0000,2341A,119.5388,26.6612,宁德市,宁德市监测站,,8,6,12,3,6,24,,21,21,11,17,6,5,0.5,0.5
2025-07-27T0000,3209A,119.5231,26.6562,宁德市,宁德一中,,10,8,13,6,11,31,,27,27,5,12,5,4,0.2,0.3
2025-07-27T0000,2618A,98.8601,25.8567,怒江傈僳族自治州,州监测站,,14,14,15,9,11,24,,40,34,8,6,5,6,0.4,0.4
2025-07-27T0000,2619A,98.8546,25.8417,怒江傈僳族自治州,泸水一中,,13,13,10,3,7,12,,30,23,8,8,6,6,0.5,0.5
2025-07-27T0000,1888A,101.6891,26.571,攀枝花市,弄弄坪,,23,23,32,7,16,39,,61,55,18,15,6,7,0.7,0.8
2025-07-27T0000,1889A,101.5769,26.5928,攀枝花市,河门口,,14,14,23,6,15,36,,64,58,20,15,14,12,1.4,1.1
2025-07-27T0000,1890A,101.7169,26.585,攀枝花市,炳草岗,,18,17,27,12,15,43,,62,58,15,15,10,10,0.7,0.7
2025-07-27T0000,1891A,101.7369,26.5008,攀枝花市,仁和,,18,18,25,11,18,40,,62,54,11,11,12,13,0.7,0.6
2025-07-27T0000,2835A,101.7227,26.567,攀枝花市,四十中小,,20,20,19,9,12,55,,63,59,8,11,9,9,0.8,0.8
2025-07-27T0000,1604A,122.0303,41.1489,盘锦市,开发区,,26,19,26,18,22,64,,86,76,9,10,11,11,0.2,0.2
2025-07-27T0000,1605A,122.0485,41.0883,盘锦市,兴隆台,,20,16,27,14,15,64,,90,80,8,8,5,5,0.4,0.4
2025-07-27T0000,1606A,121.8297,41.1028,盘锦市,新生街道,,22,18,22,15,17,68,,103,88,10,9,3,4,0.4,0.4
2025-07-27T0000,1832A,113.3257,33.742,平顶山市,新华旅馆,,,27,32,15,18,64,,104,81,15,12,6,6,,0.5
2025-07-27T0000,1833A,113.2919,33.737,平顶山市,规划设计院,,30,30,30,16,20,62,,100,79,16,13,6,8,0.5,0.5
2025-07-27T0000,1834A,113.182,33.774,平顶山市,平顶山工学院,,31,31,26,17,15,61,,114,84,19,12,7,6,0.4,0.3
2025-07-27T0000,3204A,113.3025,33.73,平顶山市,规划局,,29,29,32,12,12,77,,108,90,9,9,4,5,0.4,0.4
2025-07-27T0000,3594A,112.8867,33.9116,平顶山市,石龙区,,40,40,36,18,19,39,,119,78,17,13,7,9,0.5,0.6
2025-07-27T0000,2656A,106.6692,35.5461,平凉市,聚贤嘉苑,,31,31,27,3,8,4,,75,54,41,15,8,8,0.7,0.7
2025-07-27T0000,2657A,106.7021,35.5307,平凉市,博物馆,,45,45,24,14,7,9,,70,52,40,13,9,9,1.3,0.7
2025-07-27T0000,2347A,114.0997,27.5002,萍乡市,武功山,,13,,4,3,5,40,,74,47,3,4,8,8,0.4,0.5
2025-07-27T0000,2348A,113.8385,27.6434,萍乡市,中医院,,25,,26,17,14,49,,98,65,9,13,9,10,0.7,0.8
2025-07-27T0000,2349A,113.8493,27.6253,萍乡市,市政府车库,,33,14,21,7,17,39,,96,56,12,11,16,11,3.3,1.1
2025-07-27T0000,2350A,113.8676,27.6435,萍乡市,市环保局,,16,6,27,3,18,49,,97,64,4,11,9,11,0.3,0.4
2025-07-27T0000,2351A,113.866,27.6198,萍乡市,安源区政府,,15,,25,10,16,35,,96,56,12,9,12,12,0.7,0.8
2025-07-27T0000,2319A,119.0141,25.4325,莆田市,荔城区仓后路,细颗粒物(PM2.5),60,50,32,43,17,40,,66,62,13,11,4,5,0.7,0.5
2025-07-27T0000,2320A,119.0015,25.4553,莆田市,莆田市监测站,,42,40,25,29,12,26,,47,43,9,8,4,4,0.5,0.4
2025-07-27T0000,2321A,119.1119,25.4561,莆田市,涵江区六中,细颗粒物(PM2.5),58,,31,41,20,53,,73,67,16,16,4,4,0.5,0.5
2025-07-27T0000,2322A,119.1013,25.3215,莆田市,秀屿区政府,,35,25,34,24,20,81,,91,91,12,13,3,3,0.6,0.5
2025-07-27T0000,2323A,118.981,25.4792,莆田市,东圳水库,,,,,,,,,,,,,,,,
2025-07-27T0000,2392A,115.0312,35.7636,濮阳市,环保局,,28,28,31,17,20,79,,103,91,7,5,3,3,0.3,0.2
2025-07-27T0000,2394A,115.0574,35.7609,濮阳市,油田运输公司,,34,34,35,12,18,62,,99,82,14,7,3,3,0.5,0.5
2025-07-27T0000,3021A,115,35.7668,濮阳市,濮水河管理处,,30,29,30,21,21,56,,93,78,16,10,3,3,0.3,0.3
2025-07-27T0000,4216A,115.0924,35.7686,濮阳市,任丘路479号,,36,36,39,15,22,63,,97,81,15,8,5,4,0.4,0.4
2025-07-27T0000,2601A,100.98,22.7633,普洱市,市环保局,,18,18,21,10,16,24,,35,26,4,4,4,5,0.5,0.5
2025-07-27T0000,2602A,100.9817,22.8322,普洱市,普洱第二中学,,20,17,20,14,13,14,,35,20,13,8,5,5,0.5,0.5
2025-07-27T0000,2262A,131.0518,45.8751,七台河市,新一中,,26,23,15,18,10,27,,92,62,21,13,9,10,1.0,1
2025-07-27T0000,3345A,131.0577,45.7879,七台河市,中波台,,13,6,9,6,7,39,,73,51,11,12,7,7,0.4,0.4
2025-07-27T0000,3637A,131.0176,45.7761,七台河市,人民广场,,18,18,18,8,10,33,,77,54,11,12,11,11,0.6,0.5
2025-07-27T0000,3684A,130.8781,45.8222,七台河市,新建矿广场,,17,,20,10,8,12,,69,42,33,20,10,10,0.5,0.4
2025-07-27T0000,1779A,123.9305,47.3636,齐齐哈尔市,安居小区,,23,,27,3,14,72,,109,87,13,12,2,3,0.5,0.5
2025-07-27T0000,1780A,123.9488,47.3386,齐齐哈尔市,中心广场,,24,19,24,3,7,76,,107,92,14,12,5,5,0.5,0.5
2025-07-27T0000,1781A,123.9483,47.3227,齐齐哈尔市,农牧车辆厂,,24,24,29,11,12,71,,110,92,13,10,6,6,0.5,0.3
2025-07-27T0000,1783A,123.945,47.2988,齐齐哈尔市,市环境监测站,,22,11,20,3,11,69,,112,96,18,10,6,5,0.4,0.4
2025-07-27T0000,3662A,123.6333,47.2075,齐齐哈尔市,富区青少年活动中心,,26,26,26,3,12,57,,116,85,19,10,4,4,0.2,0.3
2025-07-27T0000,2591A,107.9783,26.5747,黔东南苗族侗族自治州,市环境监测站,,18,16,13,12,8,17,,58,36,22,9,2,2,0.7,0.5
2025-07-27T0000,2881A,107.8908,26.5311,黔东南苗族侗族自治州,凯里学院,,9,7,7,6,7,10,,64,42,12,8,2,2,0.4,0.4
2025-07-27T0000,2593A,107.5228,26.2403,黔南布依族苗族自治州,小围寨,,14,14,8,3,2,2,,44,28,15,9,1,2,0.4,0.4
2025-07-27T0000,3538A,107.5175,26.2978,黔南布依族苗族自治州,沙坝,,19,19,14,3,0,12,,62,35,13,7,3,4,0.4,0.3
2025-07-27T0000,2589A,104.9022,25.0925,黔西南布依族苗族自治州,场坝街,,,,12,,7,,,46,,,3,,4,,0.4
2025-07-27T0000,2590A,104.8811,25.0992,黔西南布依族苗族自治州,坪东大道,,27,27,17,8,6,6,,51,28,24,9,2,1,0.4,0.3
2025-07-27T0000,2502A,108.6236,21.9667,钦州市,市环保站,,14,14,21,9,10,41,,110,80,14,11,2,2,0.5,0.5
2025-07-27T0000,2503A,108.6549,21.9481,钦州市,沙埠小学,,35,35,31,16,16,30,,123,80,21,14,4,2,0.8,1
2025-07-27T0000,2504A,108.5989,21.7431,钦州市,港区一小,,39,39,40,12,18,41,,114,67,18,16,4,3,0.6,0.6
2025-07-27T0000,3404A,108.5959,21.9633,钦州市,北职校,,20,20,25,7,12,35,,108,74,12,9,2,2,0.5,0.5
2025-07-27T0000,1043A,119.7493,40.0116,秦皇岛市,第一关,,49,49,38,22,16,36,,115,90,32,16,4,4,0.3,0.3
2025-07-27T0000,1044A,119.5897,39.9499,秦皇岛市,监测站,,38,38,45,9,12,69,,139,111,8,16,4,6,0.2,0.3
2025-07-27T0000,1046A,119.5251,39.9041,秦皇岛市,建设大厦,,27,27,40,13,14,66,,130,104,5,14,4,5,0.3,0.3
2025-07-27T0000,3132A,119.610547,39.943889,秦皇岛市,文明里,,34,34,41,14,14,57,,131,104,7,11,4,6,0.1,0.2
2025-07-27T0000,4198A,119.5090,39.8253,秦皇岛市,北戴河轮滑馆,,30,21,38,21,18,32,,132,97,14,9,3,3,0.2,0.2
2025-07-27T0000,1307A,120.6659,36.2403,青岛市,仰口,,26,26,23,16,13,72,,81,59,4,6,10,10,0.7,0.7
2025-07-27T0000,1310A,120.4134,36.0658,青岛市,市南区东部子站,,30,17,20,12,16,96,,101,99,2,2,6,6,0.3,0.2
2025-07-27T0000,1311A,120.3664,36.1032,青岛市,四方区子站,,25,,17,17,14,80,,81,76,4,3,6,6,0.2,0.2
2025-07-27T0000,1312A,120.2994,36.054,青岛市,市南区西部子站,,31,24,25,15,17,99,,101,99,2,9,8,8,0.6,0.6
2025-07-27T0000,1313A,120.4581,36.0858,青岛市,崂山区子站,,31,22,33,14,16,99,,99,96,5,6,7,8,0.2,0.2
2025-07-27T0000,1315A,120.3999,36.3083,青岛市,城阳区子站,,22,22,18,10,10,39,,84,53,15,11,6,7,0.4,0.4
2025-07-27T0000,1966A,120.0405,35.8735,青岛市,黄岛区4号,,35,29,23,14,13,109,,117,115,7,6,10,11,0.4,0.4
2025-07-27T0000,3362A,120.5014,36.4034,青岛市,即墨2号,,30,20,17,15,14,93,,80,71,3,3,4,4,0.2,0.2
2025-07-27T0000,3642A,120.3503,36.0736,青岛市,市北区南部,,28,27,20,17,13,88,,90,83,13,9,7,8,0.5,0.5
2025-07-27T0000,3643A,120.3948,36.1805,青岛市,李沧区北部,,20,,13,14,14,62,,58,50,3,5,5,7,0.2,0.2
2025-07-27T0000,4290A,120.1969,35.9546,青岛市,珠江路669号,,25,24,21,17,18,75,,99,95,12,9,5,6,0.5,0.4
2025-07-27T0000,1702A,113.0426,23.691,清远市,环保大楼,颗粒物(PM10),53,56,31,34,18,61,,142,110,20,15,15,9,0.9,0.8
2025-07-27T0000,1703A,113.0208,23.7106,清远市,凤城街办,,43,43,32,24,19,46,,124,85,22,20,8,8,0.6,0.6
2025-07-27T0000,3025A,113.0477,23.6344,清远市,技师学院,,44,44,30,29,16,49,,113,87,13,15,18,11,0.6,0.5
2025-07-27T0000,3318A,112.9903,23.7403,清远市,清新太和,,30,30,32,15,18,79,,136,100,12,13,6,8,0.5,0.5
2025-07-27T0000,3455A,113.076,23.7198,清远市,清城东城,,29,29,25,9,13,48,,108,85,11,10,5,6,0.7,0.6
2025-07-27T0000,2661A,107.6325,35.7357,庆阳市,庆阳五中,,20,13,14,6,8,62,,69,62,5,6,6,6,0.5,0.5
2025-07-27T0000,2662A,107.6364,35.7067,庆阳市,市环保局,,19,17,16,7,6,58,,73,64,4,4,12,10,0.5,0.5
2025-07-27T0000,1916A,103.7897,25.5035,曲靖市,环境监测站,,23,23,16,11,7,14,,60,37,24,13,13,7,0.9,0.6
2025-07-27T0000,1917A,103.8,25.5364,曲靖市,烟厂办公区,,31,31,14,9,8,19,,62,36,20,10,10,4,1.0,0.7
2025-07-27T0000,3376A,103.7947,25.462,曲靖市,南苑二区,,19,19,14,10,7,16,,63,38,22,10,7,4,0.9,0.7
2025-07-27T0000,3377A,103.7444,25.5261,曲靖市,曲靖师范学院,,20,20,12,14,8,17,,53,36,16,8,10,6,0.6,0.4
2025-07-27T0000,1264A,118.8692,28.9398,衢州市,环保大楼,,22,22,15,8,6,30,,64,39,12,10,2,2,0.3,0.3
2025-07-27T0000,1265A,118.8709,28.9666,衢州市,实验学校,,14,14,12,3,3,30,,62,35,13,12,4,3,0.3,0.3
2025-07-27T0000,1266A,118.8621,28.9808,衢州市,衢州学院,,13,13,11,6,6,26,,61,35,14,10,2,2,0.3,0.3
2025-07-27T0000,1611A,118.5819,24.9117,泉州市,涂山街,,29,29,36,14,17,69,,115,90,14,19,2,5,0.6,0.6
2025-07-27T0000,1612A,118.5972,24.8978,泉州市,津头埔,,46,35,36,32,21,62,,133,95,20,15,2,4,0.5,0.5
2025-07-27T0000,1613A,118.6663,24.9424,泉州市,万安,,38,37,35,26,17,55,,118,81,22,18,2,4,0.5,0.4
2025-07-27T0000,1614A,118.6117,24.9604,泉州市,清源山,,,,,,,,,,,,,,,,
2025-07-27T0000,3529A,118.6333,24.9264,泉州市,城华南路,,39,32,26,27,17,74,,126,95,9,14,4,5,0.5,0.5
2025-07-27T0000,2626A,88.8876,29.2718,日喀则市,日喀则监测站,,14,10,6,3,1,42,,72,62,9,5,11,11,0.7,0.7
2025-07-27T0000,3726A,88.8781,29.2426,日喀则市,林业技术推广中心,,14,6,6,3,1,42,,62,55,3,3,9,8,0.3,0.3
2025-07-27T0000,1659A,119.471,35.4209,日照市,监测站,,42,,14,22,15,133,,110,110,5,6,5,7,0.4,0.3
2025-07-27T0000,1660A,119.523,35.4216,日照市,市政府广场,,42,27,20,13,11,132,,107,107,2,3,3,4,0.7,0.6
2025-07-27T0000,1661A,119.5587,35.4044,日照市,港务局,,,,22,29,24,,,99,,3,3,10,9,0.7,0.7
2025-07-27T0000,3507A,119.5328,35.4625,日照市,职业技术学院,,40,27,20,22,14,126,,102,102,5,5,5,6,0.6,0.5
2025-07-27T0000,3604A,119.3266,35.1044,日照市,岚山环保分局,,32,19,22,13,13,101,,106,106,7,6,9,10,0.6,0.5
2025-07-27T0000,1835A,111.1922,34.7752,三门峡市,市政府,,29,29,35,19,19,91,,137,125,8,8,4,3,0.4,0.5
2025-07-27T0000,1836A,111.1587,34.7942,三门峡市,开发区,,35,35,37,19,21,93,,139,129,13,14,5,5,0.2,0.4
2025-07-27T0000,1838A,111.143,34.7955,三门峡市,风景区,,,,33,,16,,,155,155,,7,,4,,0.5
2025-07-27T0000,3039A,111.1911,34.7829,三门峡市,三门峡市第一小学,,29,28,37,15,19,91,,138,127,10,11,10,8,0.4,0.5
2025-07-27T0000,3598A,111.1,34.7167,三门峡市,富达温泉假日酒店,,35,34,32,24,20,90,,126,113,8,7,8,9,0.3,0.3
2025-07-27T0000,2324A,117.6211,26.2625,三明市,三钢,,16,13,24,11,19,18,,56,36,11,13,3,6,0.5,0.8
2025-07-27T0000,2325A,117.635,26.2714,三明市,三明二中,,,9,21,,19,16,,55,34,11,11,3,5,0.4,0.6
2025-07-27T0000,2326A,117.6028,26.2378,三明市,三元区政府,,22,19,24,15,15,11,,58,32,15,15,3,6,0.6,0.6
2025-07-27T0000,2327A,117.7275,26.3108,三明市,洋溪,,,,,,,,,,,,,,,,
2025-07-27T0000,1876A,109.5078,18.2489,三亚市,河东子站,,18,18,18,12,9,42,,54,52,12,11,3,2,0.5,0.6
2025-07-27T0000,1877A,109.4964,18.2681,三亚市,河西子站,,23,18,19,16,10,45,,60,58,7,8,2,2,0.3,0.4
2025-07-27T0000,3540A,109.7348,18.3443,三亚市,君悦子站,,24,24,20,10,7,37,,69,49,15,10,2,2,0.5,0.5
2025-07-27T0000,2624A,91.7608,29.2313,山南市,山南监测站,颗粒物(PM10),62,74,10,3,2,67,,89,80,4,7,3,4,0.2,0.2
2025-07-27T0000,2625A,91.7706,29.2436,山南市,山南人民医院,,30,30,12,8,5,69,,85,76,4,7,4,5,0.3,0.3
2025-07-27T0000,1674A,116.6794,23.3667,汕头市,金平子站,细颗粒物(PM2.5),60,45,28,43,18,116,,114,96,13,12,3,5,0.7,0.7
2025-07-27T0000,1675A,116.7244,23.3633,汕头市,龙湖子站,,49,49,30,24,17,129,,119,99,11,12,6,8,0.6,0.7
2025-07-27T0000,1676A,116.7258,23.2775,汕头市,濠江子站,,48,48,35,31,24,133,,141,129,8,10,5,7,0.7,0.7
2025-07-27T0000,1677A,116.7519,23.4714,汕头市,澄海子站,,36,34,27,25,14,51,,100,67,17,12,3,4,1.0,0.7
2025-07-27T0000,1678A,116.6092,23.2539,汕头市,潮阳子站,,46,36,34,29,21,145,,137,137,5,8,5,5,0.5,0.5
2025-07-27T0000,3444A,116.454,23.2684,汕头市,潮南峡山,,45,45,28,31,19,124,,106,106,11,9,6,6,0.7,0.6
2025-07-27T0000,3624A,116.4069,23.2533,汕头市,潮南子站,,42,35,35,23,19,132,,109,109,4,9,4,5,0.6,0.6
2025-07-27T0000,1693A,115.3653,22.775,汕尾市,市环保局,,26,13,36,12,20,82,,234,,8,13,3,3,0.6,0.6
2025-07-27T0000,1694A,115.3706,22.7898,汕尾市,市政府,,36,34,35,25,22,78,,214,156,6,11,4,4,0.5,0.6
2025-07-27T0000,1695A,115.3622,22.7925,汕尾市,新城中学,,34,34,39,18,20,84,,229,163,8,12,4,5,0.5,0.5
2025-07-27T0000,2645A,109.9154,33.8715,商洛市,监测站,,,30,31,24,17,,,101,,9,9,13,7,0.5,0.6
2025-07-27T0000,3045A,109.9643,33.8471,商洛市,商州区中学,,35,35,33,15,15,83,,90,79,14,11,6,6,0.4,0.4
2025-07-27T0000,2408A,115.6702,34.4285,商丘市,环境监测站,,20,20,30,11,17,56,,84,74,7,8,3,3,0.3,0.3
2025-07-27T0000,2409A,115.6458,34.4045,商丘市,粮食局,,22,22,30,7,14,55,,85,73,6,5,1,1,0.4,0.5
2025-07-27T0000,2410A,115.6293,34.3948,商丘市,睢阳区环保局,,20,20,31,12,14,51,,82,70,10,9,5,5,0.2,0.2
2025-07-27T0000,3171A,115.6071,34.4465,商丘市,梁园区档案局,,18,18,27,11,14,57,,83,75,7,7,2,2,0.3,0.3
2025-07-27T0000,1141A,121.4,31.238,上海市,普陀,,22,18,21,15,8,28,,38,27,8,10,6,5,0.3,0.3
2025-07-27T0000,1142A,121.478,31.2036,上海市,十五厂,,,17,17,,6,31,,40,29,,9,8,7,0.5,0.6
2025-07-27T0000,1143A,121.467,31.3008,上海市,虹口,,20,18,21,14,8,27,,39,26,10,9,11,9,0.4,0.5
2025-07-27T0000,1147A,121.425,31.2261,上海市,静安监测站,,18,18,16,9,6,28,,37,27,9,9,4,3,0.7,0.8
2025-07-27T0000,1148A,121.703,31.1907,上海市,浦东川沙,,20,20,16,8,6,30,,39,27,9,7,9,9,0.6,0.7
2025-07-27T0000,1149A,121.533,31.2284,上海市,浦东新区监测站,,18,18,18,3,5,32,,39,30,6,6,8,7,0.4,0.4
2025-07-27T0000,1150A,121.577,31.2071,上海市,浦东张江,,19,19,24,11,6,36,,43,33,8,7,7,6,0.4,0.5
2025-07-27T0000,3265A,121.4316,31.3322,上海市,宝山庙行,,20,20,19,7,4,20,,32,21,17,12,7,7,0.3,0.3
2025-07-27T0000,3266A,121.8791,31.4662,上海市,崇明上实东滩,,18,18,21,6,8,46,,47,38,6,4,4,3,0.5,0.5
2025-07-27T0000,3268A,121.3162,31.2838,上海市,嘉定南翔,,19,19,19,10,7,20,,36,22,8,7,7,7,0.2,0.3
2025-07-27T0000,3269A,121.3359,30.7456,上海市,金山新城,,20,20,17,10,6,15,,48,30,17,7,5,3,0.4,0.4
2025-07-27T0000,3270A,121.4996,31.0739,上海市,闵行浦江,,19,19,18,12,6,21,,35,24,9,6,5,4,0.6,0.9
2025-07-27T0000,3271A,121.2886,31.1663,上海市,青浦徐泾,,29,29,15,11,7,27,,36,28,6,7,7,6,0.5,0.5
2025-07-27T0000,3272A,121.2186,31.0378,上海市,松江图书馆,,15,14,15,10,5,21,,41,25,13,11,6,6,0.5,0.5
2025-07-27T0000,3273A,121.3902,31.2059,上海市,长宁仙霞,,15,15,17,7,6,26,,32,26,7,8,6,6,0.5,0.5
2025-07-27T0000,3274A,121.7965,31.0507,上海市,浦东惠南,,19,19,19,10,7,25,,39,27,11,8,10,9,0.6,0.6
2025-07-27T0000,3544A,121.4891,30.925,上海市,奉贤南桥新城,,20,20,19,7,8,22,,40,28,11,7,4,2,0.6,0.6
2025-07-27T0000,4183A,121.4174,31.16637,上海市,冠生园路458号,,17,17,18,10,7,27,,35,27,8,8,4,4,0.6,0.7
2025-07-27T0000,4205A,121.5419,31.2683,上海市,宁武路151号,,22,20,21,15,7,26,,32,25,12,12,7,7,0.5,0.5
2025-07-27T0000,2381A,118.005,28.4572,上饶市,百草园,,,,,,,,,,,,,,,,
2025-07-27T0000,2382A,117.9756,28.4436,上饶市,市监测站,,19,19,28,8,15,36,,79,59,7,8,5,10,0.4,0.4
2025-07-27T0000,2383A,117.9519,28.4628,上饶市,凤凰光学,,13,13,27,3,15,31,,76,56,10,9,7,13,0.5,0.6
2025-07-27T0000,3685A,117.897,28.4315,上饶市,双创科技城,,20,20,26,8,15,45,,82,63,12,15,4,10,0.4,0.5
2025-07-27T0000,4211A,118.1904,28.4448,上饶市,裕丰大道,,14,14,17,3,13,25,,64,48,8,5,4,9,0.8,0.7
2025-07-27T0000,1669A,113.5824,24.7733,韶关市,市八中,,18,13,37,10,18,56,,89,73,7,10,7,10,0.6,0.6
2025-07-27T0000,1671A,113.5917,24.7972,韶关市,园林处,,25,22,25,17,17,51,,87,70,5,8,8,11,0.3,0.4
2025-07-27T0000,1673A,113.5971,24.6863,韶关市,曲江监测站,,22,22,29,14,16,61,,95,74,14,15,5,8,0.5,0.8
2025-07-27T0000,2809A,113.6668,24.7756,韶关市,大学路288号,,23,,32,16,20,44,,99,65,9,11,9,18,0.5,0.6
2025-07-27T0000,3622A,113.5556,24.8082,韶关市,碧湖山庄,,38,38,37,24,16,55,,86,71,8,8,6,7,0.6,0.6
2025-07-27T0000,2462A,111.5239,27.3033,邵阳市,市水土所,,,,,,,,,,,,,,,,
2025-07-27T0000,2464A,111.5283,27.2442,邵阳市,市化工厂,,,,30,,21,,,97,,,16,,8,,0.6
2025-07-27T0000,2466A,111.4328,27.2272,邵阳市,市环保局,,43,31,37,30,25,26,,84,49,18,14,5,5,0.6,0.6
