timepoint,stationcode,longitude,latitude,area,positionname,primarypollutant,aqi,pm10,pm10_24h,pm2_5,pm2_5_24h,o3,o3_24h,o3_8h,o3_8h_24h,no2,no2_24h,so2,so2_24h,co,co_24h
2024-02-10T1700,2566A,102.1879,31.914,阿坝藏族羌族自治州,州农科所,,12,12,22,5,11,32,,27,27,10,4,9,6,0.6,0.7
2024-02-10T1700,2568A,102.2502,31.8896,阿坝藏族羌族自治州,马师校,,28,5,14,5,11,88,,78,78,1,2,3,3,0.4,0.5
2024-02-10T1700,3994A,102.2165,31.9024,阿坝藏族羌族自治州,马尔康中学西区,,26,,12,11,8,82,,74,74,2,2,4,4,0.3,0.4
2024-02-10T1700,2695A,80.292,41.1694,阿克苏地区,电视台,颗粒物(PM10),54,57,178,23,117,95,,58,58,12,42,6,36,0.7,1.6
2024-02-10T1700,2696A,80.2613,41.1551,阿克苏地区,艺术中心,颗粒物(PM10),59,67,152,26,103,93,,57,57,10,41,7,25,0.8,1.7
2024-02-10T1700,2204A,105.6467,38.8363,阿拉善盟,西城区西花园,,39,39,177,9,53,98,,94,94,3,7,8,11,0.5,0.5
2024-02-10T1700,2205A,105.6985,38.8411,阿拉善盟,蒙二幼,,30,30,193,10,54,92,,91,91,6,9,6,11,0.3,0.4
2024-02-10T1700,2206A,105.724,38.8516,阿拉善盟,环保局新楼,,35,35,162,12,42,90,,93,93,7,8,6,8,0.5,0.5
2024-02-10T1700,2708A,88.1264,47.8517,阿勒泰地区,市站,,27,,62,8,53,85,,73,73,6,24,5,10,0.1,0.2
2024-02-10T1700,2630A,80.1161,32.5,阿里地区,阿里监测站,,,,17,3,7,83,,69,69,,9,,19,0.4,0.5
2024-02-10T1700,3192A,80.0903,32.5028,阿里地区,阿里藏医院,,28,3,19,2,9,89,,70,70,1,8,4,14,0.4,0.5
2024-02-10T1700,2642A,109.0318,32.6537,安康市,香溪洞,细颗粒物(PM2.5),97,95,134,72,106,92,,66,66,5,11,7,13,0.7,0.9
2024-02-10T1700,2643A,109.0281,32.6939,安康市,安康市监测站,细颗粒物(PM2.5),100,91,239,75,204,89,,55,55,10,25,10,21,0.9,1.3
2024-02-10T1700,2644A,109.0072,32.6975,安康市,汉滨区检察院,细颗粒物(PM2.5),104,84,186,78,155,91,,59,59,8,17,9,12,0.7,1.1
2024-02-10T1700,2291A,117.0809,30.5177,安庆市,环科院,细颗粒物(PM2.5),67,64,142,48,114,101,,95,95,5,13,10,20,0.6,1
2024-02-10T1700,2292A,117.0331,30.5119,安庆市,马山宾馆,"颗粒物(PM10),细颗粒物(PM2.5)",64,78,194,46,159,99,,92,92,16,27,6,20,0.5,1
2024-02-10T1700,2294A,116.9896,30.6145,安庆市,安庆大学,细颗粒物(PM2.5),72,73,171,52,144,102,,99,99,10,18,9,18,0.7,1.1
2024-02-10T1700,3173A,117.0598,30.5351,安庆市,市人大,细颗粒物(PM2.5),68,76,154,49,123,100,,94,94,11,18,6,15,0.5,1
2024-02-10T1700,3123A,105.9408,26.2431,安顺市,凤凰山,,33,24,151,11,138,104,,85,85,4,21,13,55,0.1,0.8
2024-02-10T1700,3124A,105.9439,26.2564,安顺市,金钟山,,32,22,86,9,76,102,,85,85,3,12,14,44,0.2,0.7
2024-02-10T1700,3125A,105.8983,26.2481,安顺市,娄家坡,,32,17,114,16,102,101,,87,87,3,13,13,39,0.3,0.8
2024-02-10T1700,1819A,114.3551,36.1017,安阳市,红庙街,细颗粒物(PM2.5),284,278,310,234,249,115,,103,103,12,32,16,32,1.3,1.6
2024-02-10T1700,1820A,114.361,36.0681,安阳市,银杏小区,细颗粒物(PM2.5),358,,362,308,288,118,,104,104,9,29,17,36,1.8,2
2024-02-10T1700,3141A,114.3922,36.0878,安阳市,信访局,细颗粒物(PM2.5),372,,291,322,242,123,,112,112,15,29,14,31,1.1,1.3
2024-02-10T1700,3669A,114.4705,36.0637,安阳市,左辅环卫站,细颗粒物(PM2.5),351,,309,301,256,108,,96,96,21,28,15,30,1.5,1.5
2024-02-10T1700,3703A,114.2917,36.0949,安阳市,安钢职工学校,细颗粒物(PM2.5),312,319,392,262,292,118,,105,105,26,39,20,43,1.2,1.5
2024-02-10T1700,1748A,123.044,41.1196,鞍山市,深沟寺,,35,35,578,23,464,76,,68,68,19,49,14,58,0.7,1.9
2024-02-10T1700,1749A,123.011,41.0931,鞍山市,太阳城,颗粒物(PM10),56,61,585,33,489,88,,71,71,10,42,12,86,0.3,1.7
2024-02-10T1700,1750A,123.0485,41.1442,鞍山市,太平,,50,50,568,34,469,74,,70,70,23,44,19,120,1.3,2.3
2024-02-10T1700,1751A,122.9642,41.0971,鞍山市,铁西三道街,颗粒物(PM10),56,62,821,26,664,81,,66,66,12,50,9,116,0.5,2.3
2024-02-10T1700,1752A,122.9341,41.0833,鞍山市,铁西工业园区,颗粒物(PM10),61,71,509,24,468,86,,73,73,11,47,6,48,0.6,2.4
2024-02-10T1700,1753A,123.022,41.0821,鞍山市,明达新区,颗粒物(PM10),74,98,588,45,558,78,,63,63,13,45,14,91,0.5,2.1
2024-02-10T1700,2195A,107.4212,40.761,巴彦淖尔市,附二中,,46,46,148,18,50,94,,88,88,2,7,4,6,0.4,0.5
2024-02-10T1700,2196A,107.37,40.7372,巴彦淖尔市,市环保大楼,,46,46,145,22,43,95,,88,88,3,7,4,5,0.3,0.4
2024-02-10T1700,1956A,86.1472,41.7538,巴音郭楞蒙古自治州,孔雀公园,颗粒物(PM10),85,119,111,19,39,100,,69,69,4,17,5,9,0.5,0.6
2024-02-10T1700,1957A,86.1972,41.7166,巴音郭楞蒙古自治州,棉纺厂,颗粒物(PM10),78,105,136,26,44,96,,71,71,5,24,3,8,0.5,0.6
2024-02-10T1700,1958A,86.2357,41.7173,巴音郭楞蒙古自治州,经济开发区,颗粒物(PM10),65,79,104,17,31,99,,78,78,7,11,5,6,0.5,0.5
2024-02-10T1700,2914A,106.7677,31.8794,巴中市,苏山坪,细颗粒物(PM2.5),84,82,123,62,99,99,,75,75,8,11,3,8,0.7,0.8
2024-02-10T1700,3182A,106.7656,31.8545,巴中市,丽阳花园,细颗粒物(PM2.5),90,76,169,67,149,92,,56,56,11,24,5,6,0.7,1.2
2024-02-10T1700,3183A,106.7418,31.8654,巴中市,圣泉水务公司,细颗粒物(PM2.5),95,83,149,71,141,95,,60,60,10,22,5,6,0.8,1.1
2024-02-10T1700,3616A,106.7616,31.8344,巴中市,市中心医院,细颗粒物(PM2.5),98,80,181,73,148,100,,60,60,7,20,6,7,0.8,1.2
2024-02-10T1700,2235A,122.7911,45.6077,白城市,洮北区环保局,,26,26,127,17,123,77,,84,84,7,13,8,17,0.3,0.6
2024-02-10T1700,2236A,122.8738,45.5725,白城市,市环保局,,30,30,143,9,129,80,,80,80,5,17,5,10,0.3,0.8
2024-02-10T1700,2231A,126.4219,41.9171,白山市,喜丰,颗粒物(PM10),52,54,474,30,349,79,,73,73,14,32,19,70,1.0,1.4
2024-02-10T1700,2232A,126.4077,41.9419,白山市,环保局,颗粒物(PM10),63,75,471,39,381,77,,72,72,18,38,21,64,1.0,1.5
2024-02-10T1700,2647A,104.1724,36.5446,白银市,第三小学,颗粒物(PM10),85,120,440,30,66,84,,76,76,14,17,39,41,0.5,0.5
2024-02-10T1700,2648A,104.1465,36.5482,白银市,动力公司,颗粒物(PM10),95,139,388,32,67,94,,84,84,12,15,33,26,0.5,0.6
2024-02-10T1700,2512A,106.6103,23.9011,百色市,市监测站,细颗粒物(PM2.5),62,53,82,44,59,69,,60,60,11,11,9,10,0.9,0.9
2024-02-10T1700,2513A,106.6538,23.8859,百色市,市中心血站,细颗粒物(PM2.5),67,,127,48,106,80,,66,66,7,14,10,19,0.8,1
2024-02-10T1700,3406A,106.6085,23.8798,百色市,祈福高中,细颗粒物(PM2.5),58,45,78,41,68,76,,62,62,6,10,8,10,0.8,0.9
2024-02-10T1700,2270A,117.396,32.939,蚌埠市,工人疗养院,细颗粒物(PM2.5),89,82,120,66,108,98,,99,99,10,12,10,11,0.8,0.8
2024-02-10T1700,2271A,117.3605,32.9427,蚌埠市,百货大楼,细颗粒物(PM2.5),102,88,117,76,105,97,,99,99,18,17,8,8,1.0,1
2024-02-10T1700,2273A,117.4185,32.8911,蚌埠市,蚌埠学院,细颗粒物(PM2.5),94,78,172,70,150,98,,97,97,10,13,10,15,1.0,1
2024-02-10T1700,2274A,117.3533,32.9673,蚌埠市,淮上区政府,细颗粒物(PM2.5),97,85,122,72,106,102,,101,101,10,16,10,11,0.9,0.9
2024-02-10T1700,2275A,117.3145,32.8977,蚌埠市,高新区,细颗粒物(PM2.5),93,90,194,69,171,99,,102,102,11,15,10,11,0.9,0.9
2024-02-10T1700,3715A,117.3092,32.9314,蚌埠市,蚌埠田家炳中学,细颗粒物(PM2.5),107,100,147,80,129,95,,96,96,18,23,12,15,0.7,0.8
2024-02-10T1700,1585A,109.8756,40.6532,包头市,市环境监测站,,31,31,440,10,332,86,,81,81,15,50,13,59,0.7,1.4
2024-02-10T1700,1587A,109.9991,40.5842,包头市,包头八中,,40,40,517,20,430,92,,74,74,13,57,13,58,0.8,2.1
2024-02-10T1700,1588A,109.8538,40.6821,包头市,青山宾馆,,29,20,242,15,172,91,,82,82,11,40,10,22,0.6,1.2
2024-02-10T1700,1589A,109.8642,40.6288,包头市,惠龙物流,,48,48,471,17,348,83,,72,72,14,57,16,42,0.7,1.8
2024-02-10T1700,1590A,110.0377,40.5546,包头市,东河鸿龙湾,,32,32,401,13,323,91,,77,77,10,52,8,29,0.4,1.9
2024-02-10T1700,3283A,109.9154,40.5685,包头市,滨河大厦,,30,25,388,14,331,96,,82,82,5,44,8,29,0.5,1.8
2024-02-10T1700,3419A,109.9447,40.6261,包头市,包头市委党校,,30,30,368,13,318,89,,80,80,9,48,13,36,0.6,1.7
2024-02-10T1700,3683A,109.8331,40.6576,包头市,昆区政府,,39,39,358,14,325,78,,72,72,22,47,20,67,1.2,1.5
2024-02-10T1700,1930A,107.185,34.3063,宝鸡市,庙沟村,颗粒物(PM10),83,115,79,28,44,89,,77,77,5,6,6,6,0.5,0.6
2024-02-10T1700,1931A,107.0708,34.3017,宝鸡市,竹园沟,颗粒物(PM10),82,113,99,29,72,105,,84,84,16,19,6,7,0.4,0.7
2024-02-10T1700,1932A,107.1906,34.3672,宝鸡市,三陆医院,颗粒物(PM10),94,137,162,0,132,100,,83,83,25,36,6,10,0.4,0.8
2024-02-10T1700,1933A,107.1431,34.3547,宝鸡市,监测站,颗粒物(PM10),90,129,182,33,147,91,,74,74,14,28,6,12,0.4,0.8
2024-02-10T1700,1934A,107.1186,34.3739,宝鸡市,技工学校,颗粒物(PM10),99,147,205,39,183,99,,80,80,18,32,8,19,0.5,0.8
2024-02-10T1700,1935A,107.3906,34.3528,宝鸡市,陈仓区环保局家属楼,颗粒物(PM10),91,132,202,21,151,99,,80,80,16,42,8,25,0.4,1.1
2024-02-10T1700,1936A,107.2058,34.3497,宝鸡市,文理学院,颗粒物(PM10),93,135,187,34,144,101,,82,82,16,34,10,14,0.4,0.7
2024-02-10T1700,1937A,107.2386,34.3622,宝鸡市,三迪小学,颗粒物(PM10),89,127,192,30,149,94,,77,77,18,39,10,15,0.4,0.8
2024-02-10T1700,1051A,115.493,38.8632,保定市,游泳馆,细颗粒物(PM2.5),55,55,244,39,176,96,,86,86,3,26,5,10,0.6,1
2024-02-10T1700,1052A,115.5213,38.8959,保定市,华电二区,,43,43,185,29,192,88,,80,80,2,20,6,11,0.2,0.6
2024-02-10T1700,1053A,115.4713,38.9108,保定市,接待中心,颗粒物(PM10),53,55,181,34,164,87,,75,75,2,17,6,12,0.4,0.6
2024-02-10T1700,1054A,115.4612,38.8416,保定市,地表水厂,颗粒物(PM10),67,84,205,39,169,92,,82,82,2,26,5,9,0.8,1.1
2024-02-10T1700,3581A,115.31981,38.95208,保定市,满城区生态环境分局,细颗粒物(PM2.5),60,58,165,43,146,94,,80,80,2,29,6,11,0.4,0.8
2024-02-10T1700,3582A,115.47694,38.76408,保定市,清苑区第二中学,细颗粒物(PM2.5),57,57,214,40,160,95,,88,88,3,16,8,14,0.3,0.8
2024-02-10T1700,3583A,115.62909,39.02311,保定市,徐水物探局,,44,44,200,24,156,85,,79,79,8,30,4,13,0.2,0.7
2024-02-10T1700,4004A,115.4202,38.8656,保定市,双鹰农机,颗粒物(PM10),51,51,169,34,154,95,,84,84,8,28,5,8,0.4,0.7
2024-02-10T1700,4034A,115.5150,38.8590,保定市,植保所站,细颗粒物(PM2.5),62,,205,44,215,95,,85,85,4,30,5,13,0.2,0.6
2024-02-10T1700,2594A,99.1678,25.1081,保山市,市环境监测站,,43,43,81,18,56,92,,78,78,5,8,6,18,0.3,0.4
2024-02-10T1700,2595A,99.1711,25.1328,保山市,市环保局,,44,44,64,26,37,96,,80,80,4,4,7,15,0.4,0.4
2024-02-10T1700,1867A,109.1436,21.4086,北海市,海滩公园,细颗粒物(PM2.5),77,68,96,56,79,77,,67,67,10,10,10,14,0.8,0.8
2024-02-10T1700,1868A,109.0981,21.4661,北海市,新市环保局,细颗粒物(PM2.5),55,52,78,39,72,88,,74,74,6,8,10,12,0.7,0.8
2024-02-10T1700,1869A,109.1778,21.5233,北海市,北海工业园,细颗粒物(PM2.5),59,57,83,42,69,89,,75,75,6,9,9,14,0.6,0.8
2024-02-10T1700,3400A,109.1911,21.4415,北海市,龙潭自来水厂,细颗粒物(PM2.5),89,77,82,66,72,79,,69,69,7,7,11,13,0.6,0.6
2024-02-10T1700,1001A,116.3621,39.8784,北京市,万寿西宫,,40,34,24,28,18,74,,75,75,14,10,2,1,0.2,0.2
2024-02-10T1700,1002A,116.2202,40.2915,北京市,定陵,,36,36,24,23,17,85,,78,78,4,4,1,2,0.2,0.2
2024-02-10T1700,1003A,116.4174,39.9289,北京市,东四,,35,35,25,22,16,69,,70,70,12,10,3,3,0.3,0.3
2024-02-10T1700,1004A,116.4072,39.8863,北京市,天坛,,35,35,25,24,17,79,,80,80,9,9,2,2,0.2,0.2
2024-02-10T1700,1005A,116.462,39.9365,北京市,农展馆,,33,33,24,22,16,72,,73,73,12,9,2,2,0.2,0.2
2024-02-10T1700,1006A,116.3392,39.9295,北京市,官园,,39,39,27,25,18,82,,83,83,13,10,2,2,0.3,0.3
2024-02-10T1700,1007A,116.2878,39.9611,北京市,海淀万柳,,45,45,30,27,18,77,,77,77,13,11,3,3,0.2,0.2
2024-02-10T1700,1008A,116.6636,40.135,北京市,顺义新城,,33,33,26,23,16,78,,83,83,13,4,2,1,0.3,0.2
2024-02-10T1700,1009A,116.6275,40.3275,北京市,怀柔镇,,29,29,25,20,16,80,,80,80,5,3,4,4,0.3,0.2
2024-02-10T1700,1010A,116.2296,40.217,北京市,昌平镇,,46,46,29,26,18,94,,82,82,3,5,2,3,0.2,0.2
2024-02-10T1700,1011A,116.3966,39.9821,北京市,奥体中心,,33,30,23,23,15,75,,78,78,7,2,3,3,0.3,0.3
2024-02-10T1700,1012A,116.184,39.9136,北京市,古城,颗粒物(PM10),52,54,33,32,19,79,,76,76,4,4,2,2,0.3,0.3
2024-02-10T1700,3281A,115.9718,40.4529,北京市,延庆夏都,,44,44,46,29,31,80,,72,72,3,6,2,3,0.2,0.3
2024-02-10T1700,3417A,117.0709,40.1465,北京市,平谷新城,,29,21,23,15,17,91,,89,89,2,2,3,2,0.2,0.2
2024-02-10T1700,3418A,116.8336,40.4095,北京市,密云新城,,29,23,25,16,15,90,,87,87,3,2,1,2,0.2,0.2
2024-02-10T1700,3672A,116.1541,39.8204,北京市,丰台云岗,细颗粒物(PM2.5),63,61,32,45,21,83,,80,80,7,6,1,3,0.2,0.2
2024-02-10T1700,3673A,116.6804,39.9081,北京市,通州东关,,34,34,24,22,16,74,,79,79,7,2,1,2,0.4,0.3
2024-02-10T1700,3674A,115.9577,39.7603,北京市,房山燕山,细颗粒物(PM2.5),87,81,34,64,26,85,,85,85,13,10,2,2,0.3,0.2
2024-02-10T1700,3675A,116.4672,39.7733,北京市,大兴旧宫,,36,36,24,24,17,80,,75,75,5,9,2,2,0.1,0.2
2024-02-10T1700,3694A,115.986,40.4563,北京市,延庆石河营,,43,43,41,29,29,86,,79,79,3,5,1,2,0.3,0.3
2024-02-10T1700,3695A,116.6151,40.3053,北京市,怀柔新城,,30,26,22,21,17,81,,80,80,7,4,2,2,0.3,0.2
2024-02-10T1700,3696A,116.2545,39.8768,北京市,丰台小屯,颗粒物(PM10),51,51,32,31,18,77,,75,75,14,12,3,2,0.2,0.2
2024-02-10T1700,3697A,116.84,40.3844,北京市,密云镇,,27,24,25,17,18,86,,83,83,2,3,2,2,0.2,0.2
2024-02-10T1700,1761A,123.8275,41.3064,本溪市,大峪,细颗粒物(PM2.5),158,156,327,120,267,85,,62,62,28,46,17,40,1.0,2.2
2024-02-10T1700,1762A,123.7567,41.3325,本溪市,溪湖,细颗粒物(PM2.5),114,122,362,86,264,98,,65,65,12,38,25,44,0.8,2
2024-02-10T1700,1763A,123.7169,41.3094,本溪市,彩屯,细颗粒物(PM2.5),138,117,668,105,599,99,,70,70,20,49,21,96,0.9,2.3
2024-02-10T1700,1764A,123.7669,41.2864,本溪市,东明,细颗粒物(PM2.5),225,,626,175,581,71,,54,54,44,55,32,157,1.6,2.2
2024-02-10T1700,1765A,123.7992,41.2664,本溪市,新立屯,细颗粒物(PM2.5),221,,349,171,251,88,,57,57,27,49,30,69,1.2,1.9
2024-02-10T1700,1766A,123.8142,41.3472,本溪市,威宁,细颗粒物(PM2.5),118,,326,89,253,88,,63,63,17,45,14,11,0.6,1.6
2024-02-10T1700,2587A,105.2864,27.3125,毕节市,八中,细颗粒物(PM2.5),59,56,140,42,122,101,,77,77,4,12,13,12,0.2,0.7
2024-02-10T1700,2588A,105.31,27.2944,毕节市,师专,,32,19,162,14,146,101,,68,68,5,15,15,12,0.3,0.8
2024-02-10T1700,3537A,105.3631,27.3533,毕节市,长征村,,35,19,138,13,108,110,,78,78,3,10,9,10,0.4,0.8
2024-02-10T1700,1629A,118.0018,37.3617,滨州市,第二水厂,细颗粒物(PM2.5),163,156,195,124,154,98,,92,92,27,25,16,22,2.0,1.3
2024-02-10T1700,1630A,117.9776,37.393,滨州市,北中新校,细颗粒物(PM2.5),162,157,251,123,203,99,,90,90,26,28,18,27,2.0,1.4
2024-02-10T1700,3514A,117.9378,37.3956,滨州市,中海酒店,细颗粒物(PM2.5),179,160,247,135,129,110,,95,95,29,27,19,30,2.0,1.3
2024-02-10T1700,3515A,117.9378,37.3553,滨州市,开发区一中,细颗粒物(PM2.5),188,174,188,141,165,101,,92,92,21,19,22,32,1.8,1.1
2024-02-10T1700,3516A,118.0917,37.694,滨州市,金海六路,细颗粒物(PM2.5),108,94,249,81,148,99,,82,82,10,28,9,27,1.4,1.5
2024-02-10T1700,4028A,117.9956,37.3753,滨州市,滨州市西街道办事处,细颗粒物(PM2.5),170,163,230,129,188,94,,87,87,23,24,20,26,2.0,1.3
2024-02-10T1700,2311A,115.8072,33.8399,亳州市,污水处理厂,细颗粒物(PM2.5),193,170,234,145,213,92,,85,85,12,16,12,16,1.0,1.1
2024-02-10T1700,2312A,115.7789,33.8518,亳州市,三国揽胜宫,细颗粒物(PM2.5),193,218,302,145,233,92,,84,84,14,19,14,18,1.1,1.2
2024-02-10T1700,3332A,115.7633,33.8034,亳州市,亳州学院,细颗粒物(PM2.5),170,159,270,129,226,90,,84,84,10,15,12,20,1.2,1.4
2024-02-10T1700,2693A,82.0485,44.8556,博尔塔拉蒙古自治州,市党校,颗粒物(PM10),57,64,151,32,105,94,,89,89,21,20,23,22,0.7,1.1
2024-02-10T1700,2694A,82.0806,44.8969,博尔塔拉蒙古自治州,市环保局,颗粒物(PM10),60,70,154,38,90,85,,68,68,24,34,20,18,0.9,1.7
2024-02-10T1700,1071A,116.8842,38.2991,沧州市,沧县城建局,,45,39,166,31,156,97,,93,93,31,31,2,12,1.0,1.2
2024-02-10T1700,1072A,116.8584,38.3254,沧州市,电视转播站,,45,45,198,29,176,101,,95,95,5,22,10,22,0.5,1
2024-02-10T1700,1073A,116.8709,38.3228,沧州市,市环保局,细颗粒物(PM2.5),55,49,173,39,152,95,,91,91,11,23,6,16,0.4,0.9
2024-02-10T1700,3324A,116.8136,38.3004,沧州市,河北水利电力学院,细颗粒物(PM2.5),52,36,138,36,118,96,,92,92,7,14,12,18,0.3,0.7
2024-02-10T1700,2622A,97.1806,31.1273,昌都市,昌都监测站,,,24,43,1,20,74,,66,66,,9,6,10,0.6,0.7
2024-02-10T1700,3719A,97.1714,31.1406,昌都市,昌都会议中心,,27,6,11,3,12,85,,77,77,1,3,4,5,0.2,0.3
2024-02-10T1700,2690A,88.1236,43.8886,昌吉回族自治州,天山天池,,22,6,3,0,2,68,,70,70,5,5,8,8,0.4,0.4
2024-02-10T1700,2692A,87.2717,44.0297,昌吉回族自治州,新区政务中心,细颗粒物(PM2.5),216,220,313,166,241,122,,83,82,19,37,7,7,1.9,2.3
2024-02-10T1700,3613A,87.3095,44.0142,昌吉回族自治州,亚心广场,细颗粒物(PM2.5),255,237,306,205,264,118,,97,97,21,34,8,8,1.7,2
2024-02-10T1700,1119A,125.3325,43.9166,长春市,食品厂,细颗粒物(PM2.5),85,95,301,63,291,81,,74,74,22,38,16,34,0.6,0.9
2024-02-10T1700,1120A,125.2863,43.9027,长春市,客车厂,细颗粒物(PM2.5),85,78,334,63,291,87,,74,74,14,33,11,34,0.7,1.1
2024-02-10T1700,1121A,125.2841,43.8463,长春市,邮电学院,细颗粒物(PM2.5),117,110,348,88,289,90,,78,78,18,46,14,34,0.7,1.1
2024-02-10T1700,1122A,125.3716,43.8772,长春市,劳动公园,细颗粒物(PM2.5),114,93,364,86,308,81,,67,67,25,50,13,12,0.7,1.1
2024-02-10T1700,1123A,125.3297,43.8805,长春市,园林处,细颗粒物(PM2.5),89,89,268,66,237,86,,79,79,23,35,18,24,0.8,1.1
2024-02-10T1700,1124A,125.4605,43.79,长春市,净月潭,细颗粒物(PM2.5),64,68,294,46,263,87,,84,84,8,18,11,14,0.5,1.1
2024-02-10T1700,1126A,125.3863,43.8447,长春市,经开区环卫处,细颗粒物(PM2.5),122,98,410,92,347,94,,82,82,13,37,9,22,0.6,1.3
2024-02-10T1700,1127A,125.245,43.7783,长春市,高新区管委会,细颗粒物(PM2.5),135,122,363,103,327,97,,88,88,16,35,13,14,0.9,1.5
2024-02-10T1700,1128A,125.1761,43.8325,长春市,岱山公园,细颗粒物(PM2.5),88,74,275,65,243,96,,88,88,9,23,6,14,0.7,1.2
2024-02-10T1700,1335A,113.0833,28.2325,长沙市,经开区环保局,细颗粒物(PM2.5),130,145,269,99,204,110,,68,68,3,14,7,12,0.7,0.9
2024-02-10T1700,1336A,112.8872,28.2189,长沙市,高开区环保局,细颗粒物(PM2.5),150,,546,115,392,109,,71,71,9,35,12,26,1.6,1.6
2024-02-10T1700,1337A,113.0792,28.2053,长沙市,马坡岭,细颗粒物(PM2.5),143,120,401,109,290,101,,62,62,3,20,9,24,0.6,0.9
2024-02-10T1700,1338A,112.9394,28.19,长沙市,湖南师范大学,细颗粒物(PM2.5),109,95,376,82,287,103,,72,72,11,26,15,24,1.3,1.3
2024-02-10T1700,1339A,113.0178,28.1322,长沙市,雨花区环保局,细颗粒物(PM2.5),143,,429,109,319,90,,70,70,4,26,6,21,0.8,1.3
2024-02-10T1700,1340A,112.9792,28.2597,长沙市,伍家岭,细颗粒物(PM2.5),114,115,582,86,373,90,,53,53,19,29,12,19,1.3,1.5
2024-02-10T1700,1341A,113.0014,28.1944,长沙市,火车新站,细颗粒物(PM2.5),70,75,526,51,427,98,,70,70,2,30,5,26,0.7,1.3
2024-02-10T1700,1342A,112.9844,28.1178,长沙市,天心区环保局,细颗粒物(PM2.5),89,66,481,66,397,101,,76,76,2,32,10,33,0.3,0.7
2024-02-10T1700,1343A,112.8908,28.1308,长沙市,湖南中医药大学,细颗粒物(PM2.5),137,,323,104,248,101,,65,65,15,26,17,10,1.7,1.4
2024-02-10T1700,1344A,112.9581,28.3611,长沙市,沙坪,细颗粒物(PM2.5),123,101,257,93,219,63,,39,39,5,13,8,15,1.0,1.2
2024-02-10T1700,1727A,113.1147,36.1547,长治市,清华站,颗粒物(PM10),66,81,153,19,110,86,,81,81,9,21,9,22,0.4,0.8
2024-02-10T1700,1728A,113.1031,36.1989,长治市,监测站,颗粒物(PM10),65,79,148,22,108,87,,79,79,13,28,9,24,0.3,0.8
2024-02-10T1700,1730A,113.0886,36.2125,长治市,审计局,颗粒物(PM10),58,66,133,19,98,88,,78,78,8,20,10,26,0.4,1
2024-02-10T1700,1731A,113.0844,36.1856,长治市,长治八中,颗粒物(PM10),69,88,165,27,114,88,,79,79,6,23,4,19,0.4,0.9
2024-02-10T1700,2845A,113.1569,36.1911,长治市,德盛苑,颗粒物(PM10),59,67,89,24,56,90,,89,89,9,17,9,20,0.5,1
2024-02-10T1700,3568A,113.06,36.0464,长治市,向阳小学,颗粒物(PM10),66,82,165,45,126,99,,94,94,13,27,8,34,0.4,1
2024-02-10T1700,3569A,112.8792,36.3144,长治市,屯留一中,颗粒物(PM10),57,63,97,39,79,92,,88,88,5,16,6,21,0.5,0.9
2024-02-10T1700,3570A,113.235,36.3489,长治市,潞城四中,颗粒物(PM10),82,113,133,30,77,94,,85,85,10,18,6,19,0.3,0.9
2024-02-10T1700,1854A,111.6975,28.9703,常德市,市二中,,50,,93,35,89,81,,70,70,10,12,7,9,0.6,0.8
2024-02-10T1700,1857A,111.7158,29.1456,常德市,白鹤山,颗粒物(PM10),65,80,101,41,58,58,,45,45,1,2,3,3,0.6,0.7
2024-02-10T1700,3138A,111.7153,29.0289,常德市,武陵区永安,细颗粒物(PM2.5),55,42,110,39,89,83,,68,68,4,10,8,11,0.6,0.9
2024-02-10T1700,3139A,111.6892,28.9881,常德市,鼎城区玉霞,细颗粒物(PM2.5),54,43,140,38,122,83,,69,69,8,16,9,12,0.6,1
2024-02-10T1700,3140A,111.6625,29.0531,常德市,武陵区长庚,细颗粒物(PM2.5),62,58,115,44,92,77,,66,66,6,12,6,8,0.7,0.9
2024-02-10T1700,1196A,119.9633,31.762,常州市,市监测站,细颗粒物(PM2.5),64,68,196,46,157,118,,109,109,5,19,9,14,0.9,1.2
2024-02-10T1700,1200A,119.9468,31.7069,常州市,武进监测站,颗粒物(PM10),63,75,208,41,191,112,,104,104,8,19,7,15,0.7,1.1
2024-02-10T1700,1201A,119.9255,31.9087,常州市,安家,细颗粒物(PM2.5),89,93,226,66,221,129,,113,113,9,19,11,16,0.9,1.1
2024-02-10T1700,3002A,119.9805,31.8174,常州市,行政中心,细颗粒物(PM2.5),68,66,158,49,154,112,,103,103,9,17,9,14,0.8,1.1
2024-02-10T1700,3003A,120.0522,31.7748,常州市,经开区,细颗粒物(PM2.5),63,64,162,45,149,118,,109,109,9,17,9,15,0.7,1
2024-02-10T1700,3010A,119.9025,31.7964,常州市,钟楼,细颗粒物(PM2.5),68,72,205,49,196,115,,103,103,9,20,8,17,0.8,1.1
2024-02-10T1700,3429A,119.8598,31.7066,常州市,武进经发区,细颗粒物(PM2.5),78,68,218,57,188,116,,109,109,5,20,7,16,1.1,1.5
2024-02-10T1700,3430A,119.5826,31.7245,常州市,金坛城区,细颗粒物(PM2.5),110,83,206,83,165,124,,109,109,8,14,10,15,0.8,1
2024-02-10T1700,2220A,120.4318,41.5881,朝阳市,西梁,,,,354,35,262,,,53,,10,25,20,71,0.7,1.3
2024-02-10T1700,2221A,120.4521,41.5646,朝阳市,河畔小区,,27,27,474,18,415,85,,77,77,6,27,7,72,0.6,1.5
2024-02-10T1700,2222A,120.4176,41.5648,朝阳市,八里堡,细颗粒物(PM2.5),62,44,514,44,544,81,,74,74,10,32,16,121,0.7,1.7
2024-02-10T1700,2223A,120.3806,41.5969,朝阳市,农业园区,,40,38,178,28,131,87,,79,79,9,18,18,33,0.4,0.9
2024-02-10T1700,1705A,116.6367,23.6719,潮州市,西园路,,50,,31,35,27,82,,63,63,8,6,5,4,0.5,0.4
2024-02-10T1700,3026A,116.6183,23.6608,潮州市,市政府,,42,,27,29,22,84,,64,64,9,8,6,6,0.7,0.7
2024-02-10T1700,4036A,116.6461,23.6761,潮州市,金山,细颗粒物(PM2.5),57,42,34,40,33,80,,61,61,8,7,6,6,0.6,0.7
2024-02-10T1700,2472A,113.0073,25.9061,郴州市,马头岭,,42,38,95,29,60,93,,74,74,6,10,6,13,0.5,0.8
2024-02-10T1700,2473A,113.0116,25.8226,郴州市,市职中,细颗粒物(PM2.5),55,42,154,39,131,95,,68,68,5,12,6,8,0.8,1.1
2024-02-10T1700,2474A,113.0161,25.8001,郴州市,兴隆步行街,细颗粒物(PM2.5),59,56,173,42,135,99,,68,68,6,18,6,5,0.6,1
2024-02-10T1700,2475A,113.0383,25.8071,郴州市,市审计局,细颗粒物(PM2.5),57,44,133,40,109,98,,69,69,6,15,8,7,0.5,0.9
2024-02-10T1700,2476A,113.0348,25.7759,郴州市,市环保局,细颗粒物(PM2.5),54,49,172,38,137,80,,68,68,14,17,6,4,0.6,0.8
2024-02-10T1700,1431A,103.9728,30.7236,成都市,金泉两河,细颗粒物(PM2.5),62,55,134,44,142,110,,76,76,3,28,2,3,0.6,0.9
2024-02-10T1700,1432A,104.176,30.6872,成都市,十里店,细颗粒物(PM2.5),80,74,120,59,111,125,,94,94,7,17,3,5,0.6,0.7
2024-02-10T1700,1433A,104.079,30.5706,成都市,三瓦窑,细颗粒物(PM2.5),68,78,106,49,85,117,,86,86,6,18,2,4,0.6,0.6
2024-02-10T1700,1434A,104.1114,30.63,成都市,沙河铺,细颗粒物(PM2.5),103,79,131,77,124,114,,84,84,12,21,3,3,0.6,0.7
2024-02-10T1700,1437A,104.0786,30.6531,成都市,君平街,细颗粒物(PM2.5),79,,96,58,90,121,,90,90,12,24,5,7,0.5,0.7
2024-02-10T1700,1438A,103.613,31.0283,成都市,灵岩寺,细颗粒物(PM2.5),74,71,57,54,42,111,,93,93,14,14,1,4,0.8,0.8
2024-02-10T1700,2880A,104.0239,30.65639,成都市,大石西路,细颗粒物(PM2.5),73,68,103,53,93,123,,91,91,14,28,5,4,0.7,0.9
2024-02-10T1700,3136A,104.2725,30.5589,成都市,龙泉驿区区政府,细颗粒物(PM2.5),79,66,85,58,74,113,,92,92,7,12,3,4,0.7,0.8
2024-02-10T1700,3357A,104.0106,30.6931,成都市,金博路,细颗粒物(PM2.5),69,55,119,50,109,111,,80,80,8,26,2,3,0.7,0.8
2024-02-10T1700,3359A,104.0578,30.5225,成都市,华阳,细颗粒物(PM2.5),79,63,96,58,91,116,,89,89,2,16,4,3,0.7,0.9
2024-02-10T1700,3487A,104.2394,30.5319,成都市,车城东七路,细颗粒物(PM2.5),90,74,92,67,78,116,,92,92,9,14,3,6,0.7,0.7
2024-02-10T1700,3488A,104.3853,30.7453,成都市,青白江技师分院,细颗粒物(PM2.5),78,81,92,57,73,121,,92,92,8,15,9,10,0.8,0.9
2024-02-10T1700,3489A,104.0789,30.4072,成都市,科学城,细颗粒物(PM2.5),95,79,89,71,79,118,,91,91,1,5,6,6,0.8,0.8
2024-02-10T1700,4011A,103.8506,30.6947,成都市,光华大道三段,细颗粒物(PM2.5),77,75,163,56,141,86,,59,59,5,18,3,5,0.8,0.9
2024-02-10T1700,1062A,117.9531,40.9081,承德市,铁路,,27,27,59,18,37,84,,78,78,10,11,32,14,0.6,0.5
2024-02-10T1700,1063A,117.9392,40.9763,承德市,中国银行,,35,35,53,14,30,91,,83,83,8,10,12,10,0.4,0.4
2024-02-10T1700,1064A,117.9503,40.928,承德市,开发区,,39,31,52,27,34,83,,82,82,12,14,25,9,0.6,0.4
2024-02-10T1700,1065A,117.8051,40.9655,承德市,文化中心,,30,24,57,8,24,95,,86,86,4,10,17,12,0.3,0.4
2024-02-10T1700,1066A,117.9268,41.0026,承德市,离宫,,28,24,36,14,32,88,,79,79,2,5,5,5,0.3,0.3
2024-02-10T1700,2314A,117.47,30.6618,池州市,池州学院,细颗粒物(PM2.5),70,61,100,51,86,97,,99,99,12,15,6,11,0.6,0.9
2024-02-10T1700,3237A,117.4918,30.6617,池州市,展览馆,"颗粒物(PM10),细颗粒物(PM2.5)",55,59,104,39,84,98,,100,100,10,10,4,8,0.6,0.9
2024-02-10T1700,3333A,117.5627,30.695,池州市,第八中学,细颗粒物(PM2.5),63,52,98,45,84,101,,103,103,9,11,3,8,0.5,0.8
2024-02-10T1700,3334A,117.5038,30.6243,池州市,第十二中学,细颗粒物(PM2.5),58,51,112,41,97,101,,100,100,7,10,4,11,0.3,0.7
2024-02-10T1700,1744A,118.9233,42.2816,赤峰市,松山一中,,25,14,188,7,133,77,,76,76,12,17,8,53,0.5,0.6
2024-02-10T1700,1745A,118.9576,42.2728,赤峰市,哈达街,,24,16,145,10,112,74,,74,74,14,14,10,42,0.5,0.7
2024-02-10T1700,1746A,118.8788,42.2554,赤峰市,天义路,,25,5,76,4,61,79,,75,75,7,11,5,22,0.3,0.5
2024-02-10T1700,3058A,119.2658,42.0353,赤峰市,银河街,细颗粒物(PM2.5),53,40,225,37,163,76,,70,70,15,18,19,61,0.7,0.8
2024-02-10T1700,3286A,118.9359,42.3147,赤峰市,桥北物流园区,细颗粒物(PM2.5),58,,73,41,64,82,,78,78,8,11,16,20,0.8,0.7
2024-02-10T1700,2521A,107.3476,22.4136,崇左市,市环保局江州分局,细颗粒物(PM2.5),54,40,91,38,68,87,,73,73,4,8,10,13,0.4,0.4
2024-02-10T1700,2522A,107.3702,22.3707,崇左市,城南新区,细颗粒物(PM2.5),55,44,79,39,75,86,,72,72,6,9,9,10,0.5,0.5
2024-02-10T1700,2298A,118.3093,32.3153,滁州市,老年大学,细颗粒物(PM2.5),77,70,131,56,123,104,,93,93,10,22,8,9,0.8,1
2024-02-10T1700,2299A,118.3244,32.2786,滁州市,人大宾馆,细颗粒物(PM2.5),88,74,140,65,119,104,,95,95,11,16,8,11,0.7,0.9
2024-02-10T1700,3207A,118.3118,32.3038,滁州市,市政府原办公楼,细颗粒物(PM2.5),82,68,128,60,117,102,,95,95,16,24,7,8,0.5,0.8
2024-02-10T1700,3331A,118.3267,32.2634,滁州市,图书馆,细颗粒物(PM2.5),74,77,130,54,101,103,,95,95,11,16,9,11,0.7,0.9
2024-02-10T1700,2605A,101.5482,25.0441,楚雄彝族自治州,州环境监测站,,42,32,52,29,44,90,,77,77,5,8,8,12,0.8,0.9
2024-02-10T1700,2606A,101.538,25.0492,楚雄彝族自治州,市经济开发区,,49,38,74,34,57,84,,72,72,7,10,9,20,0.8,0.9
2024-02-10T1700,2548A,107.5277,31.2827,达州市,达州职业技术学院,细颗粒物(PM2.5),77,77,124,56,97,107,,68,68,17,17,12,7,1.1,1
2024-02-10T1700,2549A,107.5086,31.2186,达州市,市环境监测站,细颗粒物(PM2.5),89,86,116,66,98,97,,57,57,23,29,13,7,1.4,1.2
2024-02-10T1700,2550A,107.4988,31.2132,达州市,凤凰小区,细颗粒物(PM2.5),98,85,118,73,99,97,,66,66,21,30,12,6,1.2,1.2
2024-02-10T1700,2551A,107.5082,31.1986,达州市,达县机关宾馆,细颗粒物(PM2.5),94,88,112,70,89,89,,60,60,30,29,9,4,1.3,1.2
2024-02-10T1700,2552A,107.4644,31.2124,达州市,市政中心,细颗粒物(PM2.5),85,81,118,63,100,96,,60,60,25,36,16,7,1.5,1.5
2024-02-10T1700,2614A,100.1542,25.7054,大理白族自治州,大理市环境监测站,,38,38,51,25,41,94,,79,79,7,8,8,12,0.7,0.6
2024-02-10T1700,2615A,100.2171,25.5811,大理白族自治州,大理古城,细颗粒物(PM2.5),52,44,79,36,68,88,,78,78,10,13,8,22,0.8,0.7
2024-02-10T1700,1109A,121.612,38.9741,大连市,甘井子,细颗粒物(PM2.5),79,65,481,58,444,83,,86,86,19,32,10,38,0.8,0.9
2024-02-10T1700,1110A,121.565,38.9511,大连市,周水子,细颗粒物(PM2.5),72,57,484,52,460,86,,83,83,17,37,12,43,1.1,1.8
2024-02-10T1700,1111A,121.5637,38.8845,大连市,星海三站,细颗粒物(PM2.5),102,80,506,76,491,98,,86,86,16,43,12,77,1.0,1.7
2024-02-10T1700,1112A,121.6302,38.9117,大连市,青泥洼桥,细颗粒物(PM2.5),105,80,484,79,479,94,,84,84,17,49,18,48,0.9,1.6
2024-02-10T1700,1113A,121.6251,38.8638,大连市,傅家庄,细颗粒物(PM2.5),90,67,333,67,281,104,,91,91,8,34,16,40,0.8,1.3
2024-02-10T1700,1114A,121.5213,38.8661,大连市,七贤岭,细颗粒物(PM2.5),83,80,282,61,258,84,,84,84,17,27,16,28,0.8,1.3
2024-02-10T1700,1115A,121.2529,38.8061,大连市,旅顺,细颗粒物(PM2.5),84,67,220,62,193,85,,74,74,16,31,12,14,1.1,1.8
2024-02-10T1700,1116A,121.7485,39.1311,大连市,金州,细颗粒物(PM2.5),243,193,310,193,285,82,,60,60,30,32,15,14,1.9,1.9
2024-02-10T1700,1117A,121.7811,39.0496,大连市,开发区,细颗粒物(PM2.5),192,178,470,144,413,90,,62,62,23,43,11,37,1.6,1.9
2024-02-10T1700,1118A,121.9762,39.0631,大连市,双D港,细颗粒物(PM2.5),133,115,165,101,138,96,,102,102,18,20,12,15,1.2,1.3
2024-02-10T1700,1789A,124.81117,46.03138,大庆市,大同区,细颗粒物(PM2.5),115,104,223,87,188,75,,82,82,17,24,16,18,0.8,1.2
2024-02-10T1700,1790A,125.129,46.533,大庆市,龙凤区,细颗粒物(PM2.5),88,93,459,65,386,85,,71,71,16,48,8,35,0.6,1.8
2024-02-10T1700,1791A,124.902,46.408,大庆市,红岗区,细颗粒物(PM2.5),68,,262,49,230,83,,81,81,11,31,16,32,0.5,1.1
2024-02-10T1700,1792A,125.153,46.586,大庆市,萨尔图区,细颗粒物(PM2.5),123,105,319,93,288,88,,79,79,16,32,11,16,0.7,1.4
2024-02-10T1700,1793A,124.9042,46.6215,大庆市,让胡路区,,49,44,236,34,176,72,,77,77,10,31,9,15,0.5,1.3
2024-02-10T1700,3481A,125.141,46.634,大庆市,萨区政府监测点,细颗粒物(PM2.5),75,68,282,55,201,85,,79,79,13,36,13,16,0.6,1.5
2024-02-10T1700,1723A,113.2994,40.0758,大同市,云冈宾馆,颗粒物(PM10),53,56,283,30,250,102,,79,79,8,38,12,34,0.4,1.5
2024-02-10T1700,1724A,113.3444,40.0917,大同市,大同大学,颗粒物(PM10),83,116,222,32,205,98,,80,80,11,37,11,33,0.6,1.2
2024-02-10T1700,1725A,113.2661,40.1269,大同市,安家小村,颗粒物(PM10),53,56,274,29,221,100,,79,79,4,29,12,34,0.5,1.7
2024-02-10T1700,1726A,113.2711,40.0844,大同市,教育学院,颗粒物(PM10),65,80,373,34,205,95,,70,70,11,49,9,39,0.7,2.1
2024-02-10T1700,3282A,113.3397,40.0597,大同市,大同市卫生学校,细颗粒物(PM2.5),90,108,238,67,227,102,,82,82,11,32,13,30,0.6,1.1
2024-02-10T1700,3565A,113.1367,40.1122,大同市,云冈站,细颗粒物(PM2.5),53,50,147,37,113,106,,88,88,7,18,7,31,0.4,1
2024-02-10T1700,3566A,113.1186,40.2556,大同市,图书馆,颗粒物(PM10),52,53,221,33,189,93,,75,75,8,25,9,21,0.1,0.9
2024-02-10T1700,3567A,113.5931,40.0461,大同市,区一中,细颗粒物(PM2.5),99,117,294,74,156,96,,82,82,14,28,37,72,1.0,1.4
2024-02-10T1700,3676A,113.2802,40.0995,大同市,第二人民医院,颗粒物(PM10),75,99,384,32,211,102,,78,78,6,42,8,34,0.5,1.9
2024-02-10T1700,2269A,124.1069,50.4097,大兴安岭地区,科技局,,32,24,62,22,117,75,,76,76,7,7,10,15,0.4,0.4
2024-02-10T1700,3663A,124.1164,50.4278,大兴安岭地区,红旗社区,,39,36,77,27,120,72,,75,75,10,20,22,73,0.2,0.4
2024-02-10T1700,1600A,124.3303,40.0625,丹东市,江湾东路,,45,44,411,31,340,90,,90,90,4,28,10,49,0.4,1.8
2024-02-10T1700,1601A,124.4256,40.1503,丹东市,临江后街,,38,38,364,18,302,91,,91,91,8,30,8,43,0.6,1.8
2024-02-10T1700,1602A,124.3933,40.1461,丹东市,元宝山,,40,40,395,23,333,86,,85,85,7,33,8,40,0.5,1.5
2024-02-10T1700,1603A,124.3633,40.1092,丹东市,民主桥,,,60,398,25,360,76,,79,79,16,36,11,61,,1.6
2024-02-10T1700,3541A,109.5726,19.5167,儋州市,第一中学子站,细颗粒物(PM2.5),97,83,37,72,32,37,,33,32,7,8,6,5,0.8,0.9
2024-02-10T1700,3542A,109.5567,19.5187,儋州市,东坡学校子站,细颗粒物(PM2.5),92,77,38,68,32,35,,32,30,8,9,4,4,0.9,0.9
2024-02-10T1700,2616A,98.5842,24.428,德宏傣族景颇族自治州,德宏州监测站,颗粒物(PM10),51,51,132,24,114,104,,76,76,10,28,11,33,0.5,0.8
2024-02-10T1700,3677A,98.5881,24.4368,德宏傣族景颇族自治州,芒市人民政府综合楼,细颗粒物(PM2.5),75,76,98,55,76,103,,77,77,12,20,17,22,0.4,0.8
2024-02-10T1700,1901A,104.4239,31.1208,德阳市,东山公园,细颗粒物(PM2.5),65,53,99,47,95,109,,83,83,8,12,2,4,0.6,0.8
2024-02-10T1700,1902A,104.3826,31.1317,德阳市,西小区,细颗粒物(PM2.5),82,63,149,60,153,106,,76,76,13,32,3,5,0.7,1
2024-02-10T1700,1904A,104.3553,31.1091,德阳市,耐火材料厂,细颗粒物(PM2.5),79,,158,58,156,112,,83,83,5,17,4,7,0.6,0.3
2024-02-10T1700,3639A,104.4019,31.1244,德阳市,市教育局,细颗粒物(PM2.5),63,55,122,45,123,110,,78,78,7,29,3,4,0.6,0.9
2024-02-10T1700,1622A,116.3032,37.4674,德州市,儿童乐园,细颗粒物(PM2.5),64,73,189,46,169,107,,98,98,5,32,12,33,0.7,1.5
2024-02-10T1700,1624A,116.2991,37.4451,德州市,监理站,细颗粒物(PM2.5),62,63,314,44,256,107,,99,99,10,31,13,32,0.6,1.3
2024-02-10T1700,3066A,116.2721,37.4379,德州市,九衢泉纯净水厂,细颗粒物(PM2.5),67,68,298,48,243,104,,96,96,14,34,12,32,0.6,1.2
2024-02-10T1700,3371A,116.3728,37.4403,德州市,开发区人民医院,细颗粒物(PM2.5),77,78,197,56,198,105,,97,97,9,23,13,25,0.5,1.1
2024-02-10T1700,3372A,116.3572,37.4094,德州市,太阳城中学,细颗粒物(PM2.5),77,77,250,56,166,104,,97,97,9,23,11,26,0.8,1.3
2024-02-10T1700,3511A,116.5652,37.3319,德州市,陵城艺术中心,颗粒物(PM10),68,85,298,48,306,106,,94,94,13,34,10,43,0.6,1.5
2024-02-10T1700,2621A,99.7056,27.8317,迪庆藏族自治州,迪庆州站,,30,18,39,10,26,94,,86,86,5,8,8,10,0.2,0.4
2024-02-10T1700,3180A,99.7136,27.8094,迪庆藏族自治州,质量技术监督局,,29,14,39,7,37,92,,84,84,4,7,8,10,0.4,0.5
2024-02-10T1700,2663A,104.6241,35.5734,定西市,东关小学,,37,37,137,10,69,77,,60,60,7,20,15,29,0.4,0.8
2024-02-10T1700,2664A,104.6194,35.5934,定西市,供电公司,,27,23,130,9,67,85,,66,66,2,13,10,19,0.4,0.6
2024-02-10T1700,1389A,113.7547,23.0494,东莞市,莞城梨川,,49,49,51,33,43,97,,87,87,9,11,8,9,0.7,0.7
2024-02-10T1700,1390A,113.7944,23.0128,东莞市,东城石井,,43,37,48,30,40,94,,87,87,8,11,7,9,0.7,0.8
2024-02-10T1700,1391A,113.7383,22.9658,东莞市,南城西平,,39,38,47,27,39,94,,86,86,6,9,9,9,0.8,0.8
2024-02-10T1700,3319A,113.7338,23.0381,东莞市,万江金泰,,46,35,54,32,48,86,,78,78,2,5,7,9,0.8,0.9
2024-02-10T1700,3626A,113.7533,23.0202,东莞市,南城元岭,,43,38,45,30,37,87,,78,78,2,4,10,10,0.8,0.8
2024-02-10T1700,3627A,113.7875,23.0457,东莞市,东城主山,,46,37,52,32,44,96,,86,86,3,5,10,11,0.8,0.8
2024-02-10T1700,1666A,118.6614,37.4309,东营市,市环保局,细颗粒物(PM2.5),144,127,210,110,182,106,,86,86,19,26,10,25,1.4,1.3
2024-02-10T1700,3036A,118.6904,37.4338,东营市,开发区管委会,细颗粒物(PM2.5),149,129,224,114,193,97,,80,80,24,30,4,20,1.4,1.4
2024-02-10T1700,3365A,118.5719,37.565,东营市,垦利区民丰路,细颗粒物(PM2.5),128,122,234,97,200,107,,84,84,17,23,11,20,1.4,1.5
2024-02-10T1700,3498A,118.5055,37.8612,东营市,河口城区,细颗粒物(PM2.5),122,114,191,92,163,106,,93,93,15,26,4,6,1.4,1.6
2024-02-10T1700,3646A,118.4978,37.4623,东营市,胜利站,细颗粒物(PM2.5),134,133,295,102,186,103,,80,80,16,30,10,26,1.3,1.4
2024-02-10T1700,3734A,118.35,37.26,东营市,理想之城,细颗粒物(PM2.5),140,129,221,107,181,101,,80,80,19,28,9,19,1.4,1.3
2024-02-10T1700,1591A,110.0023,39.8129,鄂尔多斯市,综合楼,,44,44,175,19,113,90,,86,86,8,16,1,13,0.4,0.5
2024-02-10T1700,1592A,109.9486,39.8261,鄂尔多斯市,巴音孟克林场办事处,,39,39,194,12,97,87,,80,80,6,17,6,23,0.4,0.8
2024-02-10T1700,1593A,109.7736,39.5986,鄂尔多斯市,康泽苑,,39,39,160,17,83,94,,87,87,10,17,4,9,0.5,0.7
2024-02-10T1700,1594A,109.8119,39.5989,鄂尔多斯市,华泰汽车城,,41,41,153,22,80,97,,90,90,7,16,6,9,0.4,0.5
2024-02-10T1700,1595A,109.9734,39.7884,鄂尔多斯市,奥林花园,,36,36,145,14,58,89,,84,84,10,17,7,10,0.5,0.6
2024-02-10T1700,2436A,114.8938,30.3994,鄂州市,市政府,细颗粒物(PM2.5),67,67,260,48,224,81,,70,70,17,36,14,14,1.4,1.3
2024-02-10T1700,2437A,114.8989,30.3714,鄂州市,赵家坝,细颗粒物(PM2.5),67,64,168,48,173,103,,86,86,7,21,8,11,0.7,1
2024-02-10T1700,3654A,114.8094,30.4089,鄂州市,精准医疗中心,细颗粒物(PM2.5),60,64,248,43,177,102,,88,88,2,17,4,16,0.9,1.4
2024-02-10T1700,2454A,109.4978,30.2981,恩施土家族苗族自治州,湖北民院,细颗粒物(PM2.5),102,104,151,76,126,76,,47,47,5,16,7,8,1.1,1.3
2024-02-10T1700,2455A,109.4707,30.2798,恩施土家族苗族自治州,州电力总公司,细颗粒物(PM2.5),118,92,162,89,140,65,,38,38,14,15,6,6,1.1,1.2
2024-02-10T1700,3549A,109.5061,30.3772,恩施土家族苗族自治州,龙凤新区,细颗粒物(PM2.5),128,,119,97,120,66,,38,38,15,16,6,6,1.1,1.2
2024-02-10T1700,2499A,108.3411,21.6158,防城港市,沙万,细颗粒物(PM2.5),72,68,66,52,54,81,,69,69,7,9,6,8,0.4,0.5
2024-02-10T1700,2500A,108.3514,21.7731,防城港市,防城档案局,细颗粒物(PM2.5),72,66,76,52,67,84,,72,72,8,10,8,11,0.5,0.5
2024-02-10T1700,2501A,108.3506,21.6414,防城港市,大海花园,细颗粒物(PM2.5),74,63,69,54,55,80,,68,68,5,6,6,8,0.5,0.6
2024-02-10T1700,1371A,113.1294,23.0067,佛山市,湾梁,,43,31,43,30,32,106,,89,89,5,6,10,10,0.6,0.7
2024-02-10T1700,1372A,113.1083,23.0478,佛山市,华材职中,,50,,42,35,37,102,,88,88,11,11,8,9,0.7,0.8
2024-02-10T1700,1373A,113.144,23.0453,佛山市,南海气象局,,49,47,47,34,35,104,,88,88,7,9,6,7,0.7,0.9
2024-02-10T1700,1374A,113.2881,22.8094,佛山市,顺德苏岗,,42,34,47,29,45,108,,90,90,6,9,10,12,0.5,0.7
2024-02-10T1700,1376A,112.8383,22.8678,佛山市,高明孔堂,,43,30,37,30,37,100,,87,87,4,3,6,7,0.5,0.8
2024-02-10T1700,1377A,112.8836,23.1588,佛山市,三水监测站,,36,31,70,25,37,93,,81,81,5,12,5,5,0.6,0.8
2024-02-10T1700,1378A,112.867,23.185,佛山市,三水云东海,,30,26,34,21,35,94,,82,82,7,8,2,4,0.6,0.8
2024-02-10T1700,3625A,113.2544,22.7642,佛山市,容桂街道办,,39,31,45,27,37,104,,87,87,4,9,6,9,0.6,0.7
2024-02-10T1700,1282A,119.2681,26.0504,福州市,师大,细颗粒物(PM2.5),73,,108,53,102,104,,78,78,6,9,7,12,0.6,0.6
2024-02-10T1700,1283A,119.2984,26.1028,福州市,五四北路,,,,109,46,91,106,,80,80,7,9,5,8,0.7,0.7
2024-02-10T1700,1284A,119.2648,26.0768,福州市,杨桥西路,细颗粒物(PM2.5),73,,95,53,95,106,,81,81,9,10,5,8,0.7,0.7
2024-02-10T1700,1285A,119.317,26.0746,福州市,紫阳,细颗粒物(PM2.5),72,54,118,52,112,101,,77,77,7,10,8,13,0.8,0.9
2024-02-10T1700,3048A,119.5799,26.0936,福州市,九龙,细颗粒物(PM2.5),54,,76,38,77,104,,91,91,7,10,3,5,0.7,0.8
2024-02-10T1700,3526A,119.5189,25.9664,福州市,吴航,,45,37,72,31,62,102,,80,80,6,11,4,9,0.4,0.7
2024-02-10T1700,1755A,123.7977,41.8491,抚顺市,望花区,细颗粒物(PM2.5),90,122,595,67,528,95,,72,72,18,51,17,59,0.7,1.9
2024-02-10T1700,1756A,123.9161,41.8822,抚顺市,顺城区,细颗粒物(PM2.5),132,152,499,100,389,95,,81,81,23,51,14,35,0.7,1.7
2024-02-10T1700,1757A,124.0436,41.8611,抚顺市,东洲区,细颗粒物(PM2.5),192,208,597,144,490,97,,86,86,16,41,15,41,0.9,1.8
2024-02-10T1700,1758A,123.9247,41.8642,抚顺市,新抚区,细颗粒物(PM2.5),144,145,460,110,396,101,,88,88,20,48,13,18,0.8,1.9
2024-02-10T1700,1759A,124.0972,41.8961,抚顺市,大伙房水库,细颗粒物(PM2.5),196,214,258,147,213,104,,94,94,15,28,14,16,1.0,1.5
2024-02-10T1700,1760A,123.7086,41.8391,抚顺市,沈抚新城,颗粒物(PM10),86,122,507,42,343,106,,79,79,13,46,9,31,0.5,1.8
2024-02-10T1700,2376A,116.2127,28.0814,抚州市,桐源党溪,细颗粒物(PM2.5),120,115,300,91,188,90,,56,56,9,8,26,34,0.5,0.7
2024-02-10T1700,2377A,116.3544,27.9831,抚州市,市站,细颗粒物(PM2.5),55,54,208,39,177,100,,77,77,12,22,11,17,0.4,0.8
2024-02-10T1700,2378A,116.3565,27.963,抚州市,血防站,细颗粒物(PM2.5),57,43,173,40,139,96,,80,80,2,11,2,9,0.7,1.1
2024-02-10T1700,2379A,116.3564,28.0007,抚州市,采茶剧团,细颗粒物(PM2.5),70,69,193,51,171,95,,68,68,6,15,6,11,1.0,1.3
2024-02-10T1700,2380A,116.385,27.9647,抚州市,医学分院,"颗粒物(PM10),细颗粒物(PM2.5)",54,58,193,38,146,103,,82,82,7,13,6,16,0.9,1.1
2024-02-10T1700,2207A,121.6094,41.998,阜新市,工业园区,细颗粒物(PM2.5),75,,165,55,127,90,,87,87,8,20,16,19,0.6,0.9
2024-02-10T1700,2208A,121.6697,42.0279,阜新市,长青街,细颗粒物(PM2.5),59,,131,42,118,89,,86,86,9,20,16,36,0.6,0.8
2024-02-10T1700,2209A,121.6673,42.0705,阜新市,农业园区,颗粒物(PM10),53,56,65,36,49,86,,85,85,14,11,23,14,0.5,0.7
2024-02-10T1700,2210A,121.6717,42.0224,阜新市,东苑,细颗粒物(PM2.5),52,51,407,36,119,92,,90,90,15,26,17,60,1.1,1.7
2024-02-10T1700,2211A,121.6506,42.0498,阜新市,玉龙新城,细颗粒物(PM2.5),59,53,161,42,121,92,,89,89,8,18,18,16,0.4,0.7
2024-02-10T1700,2301A,115.8277,32.8929,阜阳市,市监测站,细颗粒物(PM2.5),112,92,113,84,106,84,,96,89,,12,10,12,0.8,0.8
2024-02-10T1700,2303A,115.8554,32.8605,阜阳市,开发区,细颗粒物(PM2.5),110,119,150,83,106,89,,94,93,11,13,7,10,0.6,0.5
2024-02-10T1700,2875A,115.784,32.8892,阜阳市,阜阳职业技术学院,细颗粒物(PM2.5),107,93,141,80,123,93,,96,94,9,12,8,14,0.8,0.9
2024-02-10T1700,3468A,115.7901,32.8613,阜阳市,市规划展馆,细颗粒物(PM2.5),123,104,144,93,122,88,,95,92,11,14,8,15,0.8,0.8
2024-02-10T1700,3469A,115.836,32.9183,阜阳市,枣园社区,细颗粒物(PM2.5),115,101,128,87,109,87,,98,93,13,12,8,12,0.7,0.7
2024-02-10T1700,2669A,102.9099,34.9841,甘南藏族自治州,州政府,,27,,79,13,49,86,,74,74,2,14,5,17,0.4,0.8
2024-02-10T1700,3380A,102.8914,34.9617,甘南藏族自治州,甘肃民族师范学院,,26,4,48,4,26,83,,72,72,2,8,9,15,0.5,0.7
2024-02-10T1700,2570A,101.9603,30.0475,甘孜藏族自治州,水桥子,,29,9,16,3,11,90,,82,82,4,4,10,9,0.2,0.3
2024-02-10T1700,3065A,101.9533,29.9972,甘孜藏族自治州,州环保局,,29,8,13,1,4,92,,87,87,1,2,8,8,0.2,0.2
2024-02-10T1700,3414A,115.8347,28.932,赣江新区,桑海产业园,细颗粒物(PM2.5),63,56,111,45,93,101,,75,75,12,16,5,7,0.8,1
2024-02-10T1700,2363A,114.9367,25.8664,赣州市,地委,细颗粒物(PM2.5),78,,80,57,66,94,,78,78,16,13,27,12,1.0,1.1
2024-02-10T1700,2364A,114.9461,25.8481,赣州市,气象台,细颗粒物(PM2.5),60,43,87,43,75,104,,81,81,8,10,14,9,0.7,0.9
2024-02-10T1700,2365A,114.9322,25.8333,赣州市,市图书馆,细颗粒物(PM2.5),59,47,88,42,69,90,,72,72,8,13,26,17,0.7,0.9
2024-02-10T1700,2366A,114.8905,25.8471,赣州市,华坚鞋城,细颗粒物(PM2.5),54,45,86,38,73,84,,74,74,8,12,6,9,0.8,0.9
2024-02-10T1700,3109A,115.0093,25.8613,赣州市,赣县区卫计委,细颗粒物(PM2.5),64,54,93,46,81,87,,69,69,7,12,6,7,0.9,1
2024-02-10T1700,2683A,106.2319,36.1417,固原市,马园,颗粒物(PM10),53,56,228,12,33,86,,85,85,8,9,5,6,0.4,0.5
2024-02-10T1700,2684A,106.2792,36.0022,固原市,监测站,颗粒物(PM10),51,52,214,15,59,87,,87,87,8,13,5,10,0.5,0.6
2024-02-10T1700,2685A,106.2375,36.0211,固原市,新区,,41,41,162,10,29,83,,82,82,7,10,5,6,0.2,0.3
2024-02-10T1700,3522A,106.2177,35.9959,固原市,原州区十五小,颗粒物(PM10),54,58,155,14,32,80,,80,80,5,8,6,8,0.4,0.5
2024-02-10T1700,2544A,106.6303,30.4576,广安市,市委,细颗粒物(PM2.5),114,86,160,86,150,102,,65,65,9,22,8,7,0.8,1.1
2024-02-10T1700,2545A,106.6271,30.4663,广安市,友谊中学,细颗粒物(PM2.5),97,76,134,72,138,107,,69,69,11,26,6,5,0.8,1
2024-02-10T1700,2547A,106.6388,30.4551,广安市,广电花园,细颗粒物(PM2.5),119,,123,90,125,107,,64,64,9,22,6,4,1.0,1.2
2024-02-10T1700,2902A,106.6351,30.4865,广安市,北辰小学,细颗粒物(PM2.5),100,,144,75,136,107,,62,62,13,20,6,5,0.9,1.1
2024-02-10T1700,2523A,105.8945,32.4535,广元市,黑石坡,细颗粒物(PM2.5),63,69,85,45,87,108,,80,80,11,14,8,8,0.8,0.9
2024-02-10T1700,2524A,105.821,32.4444,广元市,老城,细颗粒物(PM2.5),72,77,136,52,97,103,,70,70,10,19,15,15,1.2,1.3
2024-02-10T1700,2526A,105.8628,32.4287,广元市,监测站,细颗粒物(PM2.5),73,76,107,53,92,108,,72,72,9,15,19,12,1.2,1.1
2024-02-10T1700,3617A,105.8047,32.4166,广元市,经开区,细颗粒物(PM2.5),89,88,140,66,116,102,,70,70,14,21,25,15,1.1,1.1
2024-02-10T1700,1345A,113.2347,23.1423,广州市,广雅中学,,43,38,50,30,42,94,,81,81,13,15,6,7,0.7,1
2024-02-10T1700,1346A,113.2612,23.105,广州市,市五中,细颗粒物(PM2.5),53,40,54,37,48,99,,85,85,13,17,6,7,0.7,0.8
2024-02-10T1700,1348A,113.3478,23.0916,广州市,广东商学院,,49,38,47,34,41,99,,88,88,5,8,6,7,0.6,0.8
2024-02-10T1700,1349A,113.4332,23.1047,广州市,市八十六中,,39,31,60,27,50,94,,85,85,4,9,6,10,0.4,0.6
2024-02-10T1700,1350A,113.3505,22.9483,广州市,番禺中学,,49,36,39,34,31,111,,93,93,13,15,5,6,0.7,0.9
2024-02-10T1700,1351A,113.2146,23.3916,广州市,花都师范,,43,36,46,30,39,98,,85,85,8,11,7,7,0.8,0.9
2024-02-10T1700,1352A,113.2597,23.1331,广州市,市监测站,,49,43,51,34,44,102,,88,88,14,16,6,6,0.7,0.8
2024-02-10T1700,1353A,113.5618,23.312,广州市,九龙镇镇龙,,48,39,57,33,50,85,,74,74,6,9,7,8,0.7,0.8
2024-02-10T1700,1354A,113.2765,23.1544,广州市,麓湖,,48,35,48,33,43,102,,87,87,9,11,7,8,0.6,0.8
2024-02-10T1700,1355A,113.443,23.3035,广州市,帽峰山森林公园,细颗粒物(PM2.5),53,41,50,37,43,104,,93,93,4,5,8,10,0.5,0.5
2024-02-10T1700,2846A,113.3221,23.1322,广州市,体育西,,49,48,48,34,41,100,,88,88,8,11,9,10,0.7,0.9
2024-02-10T1700,3298A,113.5717,23.5491,广州市,从化街口,,50,38,61,35,54,91,,82,82,5,8,6,10,0.5,0.7
2024-02-10T1700,3299A,113.3472,23.3692,广州市,白云竹料,颗粒物(PM10),77,103,64,30,48,96,,87,87,6,8,7,10,0.6,0.7
2024-02-10T1700,3300A,113.2981,23.237,广州市,白云嘉禾,,48,40,52,33,42,99,,86,86,15,14,8,9,0.5,0.7
2024-02-10T1700,3301A,113.4256,23.1716,广州市,黄埔科学城,细颗粒物(PM2.5),53,38,51,37,48,92,,83,83,2,5,5,7,0.7,0.8
2024-02-10T1700,3302A,113.3942,23.0483,广州市,番禺大学城,,40,38,42,28,38,101,,88,88,6,11,7,8,0.5,0.8
2024-02-10T1700,3303A,113.4922,22.8168,广州市,南沙黄阁,细颗粒物(PM2.5),52,42,63,36,55,100,,89,89,7,8,6,9,0.7,0.8
2024-02-10T1700,3304A,113.5342,22.7896,广州市,南沙街,,42,38,52,29,43,100,,87,87,12,14,4,6,0.7,0.8
2024-02-10T1700,3443A,113.2902,23.5544,广州市,花都梯面,,39,32,39,27,34,101,,85,85,8,11,9,9,0.5,0.6
2024-02-10T1700,3445A,113.7858,23.7478,广州市,从化良口,,40,31,38,28,35,93,,82,82,4,4,8,7,0.4,0.5
2024-02-10T1700,3446A,113.8051,23.2614,广州市,增城荔城,,29,24,42,19,36,91,,81,81,3,5,7,9,0.5,0.7
2024-02-10T1700,2505A,109.568,23.1478,贵港市,德智高中,细颗粒物(PM2.5),54,49,132,38,125,85,,75,75,6,11,6,19,0.8,0.9
2024-02-10T1700,2506A,109.6047,23.0666,贵港市,江南子站,细颗粒物(PM2.5),82,,139,60,104,87,,72,72,4,12,8,14,0.8,0.9
2024-02-10T1700,2507A,109.6014,23.0948,贵港市,贵城子站,细颗粒物(PM2.5),65,,127,47,118,81,,65,65,6,14,9,15,0.8,1
2024-02-10T1700,2508A,109.5669,23.1065,贵港市,荷城子站,,49,36,112,34,100,81,,67,67,4,10,10,13,0.9,1
2024-02-10T1700,3405A,109.5886,23.1172,贵港市,新世纪学校,细颗粒物(PM2.5),55,41,127,39,103,81,,67,67,3,9,5,11,0.9,1
2024-02-10T1700,1439A,106.6899,26.5998,贵阳市,马鞍山,,35,,100,24,90,98,,57,57,8,16,18,14,0.3,0.8
2024-02-10T1700,1440A,106.6971,26.5694,贵阳市,市环保站,,36,,179,25,167,103,,66,66,11,27,10,31,0.5,1
2024-02-10T1700,1441A,106.6243,26.6266,贵阳市,鉴湖路,,33,27,115,9,86,104,,81,81,5,17,5,9,0.5,0.7
2024-02-10T1700,1442A,106.7487,26.6343,贵阳市,燕子冲,,32,29,110,14,97,102,,63,63,5,14,37,15,0.4,0.9
2024-02-10T1700,1443A,106.6555,26.4365,贵阳市,碧云窝,,41,41,140,19,112,111,,76,76,6,12,14,22,0.5,0.8
2024-02-10T1700,1444A,106.694,26.5161,贵阳市,中院村,,,,275,,249,90,,74,74,4,23,13,51,0.5,1.1
2024-02-10T1700,1445A,106.7109,26.6027,贵阳市,红边门,,31,27,229,14,202,97,,58,58,8,28,9,49,0.5,1.1
2024-02-10T1700,1446A,106.7164,26.5699,贵阳市,新华路,,32,29,220,14,195,100,,69,69,12,25,9,22,0.4,0.9
2024-02-10T1700,1447A,106.674,26.5424,贵阳市,太慈桥,,34,27,130,14,109,106,,70,70,6,15,9,12,0.3,0.7
2024-02-10T1700,1862A,110.4144,25.3167,桂林市,电子科大尧山校区,细颗粒物(PM2.5),64,48,70,46,52,95,,84,84,5,5,5,7,0.4,0.6
2024-02-10T1700,1863A,110.2819,25.2697,桂林市,监测站,细颗粒物(PM2.5),74,,96,54,75,101,,85,85,9,14,8,12,0.5,0.8
2024-02-10T1700,1864A,110.3089,25.2708,桂林市,龙隐路小学,细颗粒物(PM2.5),70,53,81,51,71,104,,87,87,7,9,6,12,0.7,0.8
2024-02-10T1700,1865A,110.2869,25.2178,桂林市,八中,细颗粒物(PM2.5),52,40,84,36,72,101,,84,84,6,10,6,11,0.4,0.6
2024-02-10T1700,3403A,110.1764,25.2381,桂林市,创业大厦,,42,31,81,29,71,106,,84,84,3,8,7,12,0.5,0.6
2024-02-10T1700,3531A,110.296,25.1253,桂林市,旅游学院,,39,,69,27,64,103,,90,90,5,7,6,9,0.7,0.8
2024-02-10T1700,2674A,100.2561,34.4714,果洛藏族自治州,玛沁县大武镇,细颗粒物(PM2.5),94,,34,70,21,89,,76,76,10,12,6,13,0.4,0.5
2024-02-10T1700,1129A,126.5422,45.755,哈尔滨市,岭北,细颗粒物(PM2.5),500,568,492,507,444,181,,178,178,54,68,41,37,1.7,0.9
2024-02-10T1700,1130A,126.561,45.8167,哈尔滨市,松北商大,细颗粒物(PM2.5),436,,397,404,361,116,,99,99,27,47,14,11,1.8,1.9
2024-02-10T1700,1131A,126.979,45.5419,哈尔滨市,阿城会宁,细颗粒物(PM2.5),463,464,478,444,442,100,,99,99,26,42,29,29,1.8,1.8
2024-02-10T1700,1132A,126.599,45.7222,哈尔滨市,南岗学府路,细颗粒物(PM2.5),489,582,539,483,427,106,,86,86,38,66,16,25,2.2,2.1
2024-02-10T1700,1133A,126.689,45.7733,哈尔滨市,太平宏伟公园,细颗粒物(PM2.5),440,412,557,410,428,114,,79,79,36,84,13,27,1.9,2.5
2024-02-10T1700,1134A,126.635,45.7667,哈尔滨市,道外承德广场,细颗粒物(PM2.5),498,505,449,496,385,92,,75,75,58,78,27,26,1.6,1.5
2024-02-10T1700,1135A,126.685,45.7319,哈尔滨市,香坊红旗大街,颗粒物(PM10),380,484,600,,360,90,,79,79,53,82,21,45,2.3,2.4
2024-02-10T1700,1136A,126.6411,45.7258,哈尔滨市,动力和平路,细颗粒物(PM2.5),500,,461,578,442,106,,92,92,40,65,26,35,2.3,2
2024-02-10T1700,1137A,126.593,45.7478,哈尔滨市,道里建国路,细颗粒物(PM2.5),500,,491,520,436,98,,74,74,44,62,32,32,1.0,1.1
2024-02-10T1700,1138A,126.615,45.61,哈尔滨市,平房东轻厂,细颗粒物(PM2.5),498,510,469,497,436,115,,96,96,26,45,14,23,2.2,2.1
2024-02-10T1700,1139A,126.595,45.9855,哈尔滨市,呼兰师专,细颗粒物(PM2.5),358,318,505,308,489,99,,85,85,36,52,20,35,1.6,2.1
2024-02-10T1700,1140A,126.6206,45.6842,哈尔滨市,省农科院,细颗粒物(PM2.5),500,562,536,501,465,117,,97,97,32,76,18,38,2.2,2.3
2024-02-10T1700,2688A,93.5128,42.8172,哈密市,地区监测站,颗粒物(PM10),65,79,157,27,76,76,,59,59,10,27,3,21,0.2,0.6
2024-02-10T1700,2689A,93.4961,42.8328,哈密市,哈密师范学校,颗粒物(PM10),66,81,279,36,171,80,,58,58,8,32,12,56,0.4,0.8
2024-02-10T1700,2671A,100.9048,36.9639,海北藏族自治州,海晏县西海镇,,26,8,33,6,13,81,,76,76,2,3,11,12,0.3,0.4
2024-02-10T1700,3867A,102.0738,36.5056,海东市,平安区公安北苑,,27,12,100,5,54,84,,68,68,1,16,11,20,0.2,0.4
2024-02-10T1700,1410A,110.3232,20.0574,海口市,海南大学,,40,31,56,28,41,79,,61,61,4,8,10,10,0.6,0.8
2024-02-10T1700,1411A,110.283,20.0053,海口市,秀英海南医院,,43,38,55,30,42,78,,59,59,3,7,8,9,0.5,0.8
2024-02-10T1700,1412A,110.338,19.9969,海口市,海南师范大学,,38,35,50,26,39,76,,60,60,3,6,8,8,0.6,0.8
2024-02-10T1700,1413A,110.33,20.0356,海口市,龙华路环保局宿舍,,42,33,53,29,41,73,,58,58,5,8,8,8,0.6,0.8
2024-02-10T1700,3539A,110.5111,19.9736,海口市,桂林洋子站,,30,28,23,21,22,77,,70,70,3,5,6,6,0.5,0.6
2024-02-10T1700,2673A,100.6188,36.2866,海南藏族自治州,共和县恰卜恰镇,,,6,70,6,52,90,,78,78,5,17,7,14,,0.5
2024-02-10T1700,2676A,97.3731,37.3753,海西蒙古族藏族自治州,德令哈市,,,12,69,,174,105,,102,102,4,10,13,22,0.4,0.5
2024-02-10T1700,1048A,114.5302,36.6116,邯郸市,东污水处理厂,细颗粒物(PM2.5),260,244,357,210,302,112,,97,97,8,27,18,24,1.1,1.4
2024-02-10T1700,1049A,114.4918,36.5713,邯郸市,矿院,细颗粒物(PM2.5),262,264,382,212,324,105,,87,87,12,33,12,19,1.1,1.5
2024-02-10T1700,1050A,114.484,36.6133,邯郸市,丛台公园,细颗粒物(PM2.5),278,268,324,228,284,118,,98,98,4,22,15,22,1.1,1.4
2024-02-10T1700,3458A,114.7895,36.5593,邯郸市,香泉濮院小区,细颗粒物(PM2.5),201,197,344,151,284,114,,90,90,8,23,17,29,0.8,1.3
2024-02-10T1700,3579A,114.50634,36.77178,邯郸市,永年区实验高中,细颗粒物(PM2.5),268,246,350,218,302,116,,94,94,9,40,20,36,0,1
2024-02-10T1700,3580A,114.20016,36.44293,邯郸市,峰峰矿区临水派出所,细颗粒物(PM2.5),285,249,149,235,123,121,,105,105,13,14,20,31,1.2,1.2
2024-02-10T1700,2634A,106.9893,33.1842,汉中市,汉川机床厂子校,细颗粒物(PM2.5),79,70,140,58,125,106,,80,80,9,12,9,9,0.8,1
2024-02-10T1700,2635A,107.0154,33.0706,汉中市,市监测站,细颗粒物(PM2.5),123,101,236,93,211,109,,74,74,17,34,10,17,1.1,2.2
2024-02-10T1700,2636A,107.0089,33.1138,汉中市,鑫源开发区,细颗粒物(PM2.5),120,92,307,91,311,105,,76,76,14,33,16,27,1.0,2.1
2024-02-10T1700,2637A,107.007,33.0323,汉中市,南郑大河坎水厂,细颗粒物(PM2.5),99,78,173,74,152,109,,75,75,11,22,11,14,0.9,1.6
2024-02-10T1700,1223A,120.2072,30.2111,杭州市,滨江,细颗粒物(PM2.5),77,73,236,56,181,100,,88,88,10,23,8,12,0.8,1
2024-02-10T1700,1224A,120.0633,30.2747,杭州市,西溪,细颗粒物(PM2.5),83,,168,61,130,101,,90,90,8,16,9,8,0.5,0.9
2024-02-10T1700,1226A,120.3461,30.3153,杭州市,下沙,细颗粒物(PM2.5),75,72,204,55,165,110,,94,94,7,21,8,10,0.6,0.9
2024-02-10T1700,1227A,120.1269,30.2456,杭州市,卧龙桥,细颗粒物(PM2.5),82,67,124,60,108,103,,88,88,7,16,6,6,0.5,0.8
2024-02-10T1700,1228A,120.1903,30.2692,杭州市,浙江农大,细颗粒物(PM2.5),70,66,305,51,256,104,,89,89,8,30,9,10,0.6,1
2024-02-10T1700,1230A,120.1197,30.3119,杭州市,和睦小学,细颗粒物(PM2.5),80,68,370,59,306,91,,81,81,11,34,8,10,0.6,1
2024-02-10T1700,1231A,120.3019,30.4183,杭州市,临平镇,细颗粒物(PM2.5),83,62,261,61,305,105,,89,89,5,30,7,11,0.6,1
2024-02-10T1700,1232A,120.2697,30.1819,杭州市,城厢镇,细颗粒物(PM2.5),118,100,293,89,275,105,,91,91,10,25,8,10,0.7,0.9
2024-02-10T1700,1233A,120.0883,30.1808,杭州市,云栖,细颗粒物(PM2.5),92,82,153,68,124,98,,94,94,11,17,8,8,0.7,0.8
2024-02-10T1700,3557A,119.9464,30.0494,杭州市,镇二中,细颗粒物(PM2.5),69,69,324,50,399,98,,83,83,8,25,8,11,0.6,1
2024-02-10T1700,3558A,119.7183,30.2367,杭州市,市府大楼,细颗粒物(PM2.5),62,51,244,44,203,98,,90,90,9,20,6,10,0.5,1
2024-02-10T1700,3656A,120.1556,30.2864,杭州市,消防大队,细颗粒物(PM2.5),74,59,276,54,243,97,,83,83,13,32,10,12,0.8,1.1
2024-02-10T1700,1270A,117.1959,31.7848,合肥市,明珠广场,细颗粒物(PM2.5),128,119,247,97,207,104,,84,84,13,21,11,13,0.8,0.9
2024-02-10T1700,1271A,117.3072,31.8764,合肥市,三里街,细颗粒物(PM2.5),156,139,298,119,259,98,,75,75,16,36,10,11,0.7,1
2024-02-10T1700,1272A,117.2588,31.8707,合肥市,琥珀山庄,细颗粒物(PM2.5),149,129,306,114,282,102,,83,83,7,37,10,10,0.9,1.3
2024-02-10T1700,1273A,117.1604,31.9052,合肥市,董铺水库,细颗粒物(PM2.5),149,146,190,114,158,93,,80,80,6,9,6,6,0.6,0.7
2024-02-10T1700,1274A,117.25,31.8571,合肥市,长江中路,细颗粒物(PM2.5),156,139,232,119,212,96,,79,79,14,25,11,12,0.9,1
2024-02-10T1700,1275A,117.266,31.9436,合肥市,庐阳区,细颗粒物(PM2.5),117,124,216,88,165,86,,67,67,15,26,8,10,0.8,1
2024-02-10T1700,1276A,117.336,31.8586,合肥市,瑶海区,细颗粒物(PM2.5),139,129,251,106,219,101,,80,80,15,24,9,9,0.8,0.9
2024-02-10T1700,1277A,117.3027,31.7964,合肥市,包河区,细颗粒物(PM2.5),156,119,221,119,210,111,,87,87,12,19,10,9,0.7,0.8
2024-02-10T1700,1278A,117.2776,31.7385,合肥市,滨湖新区,细颗粒物(PM2.5),140,129,247,107,210,105,,84,84,12,18,10,13,1.0,1
2024-02-10T1700,1279A,117.1318,31.8403,合肥市,高新区,细颗粒物(PM2.5),128,114,172,97,153,99,,81,81,12,17,8,10,0.8,0.9
2024-02-10T1700,3464A,117.3803,31.9147,合肥市,高教基地,细颗粒物(PM2.5),147,124,236,112,180,111,,91,91,6,15,10,8,0.7,0.8
2024-02-10T1700,3614A,79.924,37.0877,和田地区,地区环保局,颗粒物(PM10),62,74,107,21,41,100,,78,78,6,24,7,18,0.4,0.7
2024-02-10T1700,3615A,79.9131,37.113,和田地区,市环保局,颗粒物(PM10),60,70,83,35,35,108,,76,76,8,31,6,10,0.5,1
2024-02-10T1700,2516A,108.2011,24.715,河池市,东仁乐园,,46,38,45,32,31,51,,47,47,4,5,4,3,0.6,0.8
2024-02-10T1700,2517A,108.0497,24.6947,河池市,市环保站,,39,36,57,27,49,91,,70,70,7,9,7,8,0.5,0.8
2024-02-10T1700,2518A,108.0983,24.6989,河池市,市疾控中心,,35,25,59,24,57,92,,71,71,7,11,8,9,0.5,0.7
2024-02-10T1700,1696A,114.6778,23.7569,河源市,源西,,47,47,69,27,57,90,,80,80,4,8,5,8,0.7,0.8
2024-02-10T1700,1697A,114.6944,23.7586,河源市,东埔,,49,45,72,34,58,92,,82,82,5,6,8,9,0.7,0.7
2024-02-10T1700,1698A,114.6892,23.7233,河源市,老城,,46,46,70,32,58,92,,82,82,4,7,6,8,0.7,0.8
2024-02-10T1700,1718A,115.4208,35.2464,菏泽市,气象局,细颗粒物(PM2.5),333,345,289,283,232,111,,92,92,21,24,9,12,1.3,1.2
2024-02-10T1700,1719A,115.4747,35.2375,菏泽市,市政协,细颗粒物(PM2.5),337,,284,287,226,104,,91,91,15,16,10,11,1.1,1
2024-02-10T1700,3374A,115.5564,35.0891,菏泽市,定陶老年大学,细颗粒物(PM2.5),260,256,249,210,206,115,,93,93,17,19,9,11,0.9,0.8
2024-02-10T1700,3647A,115.4702,35.2706,菏泽市,菏泽医专,细颗粒物(PM2.5),340,348,285,290,226,102,,86,86,26,26,14,16,1.3,1.1
2024-02-10T1700,2514A,111.5264,24.4172,贺州市,环保小区,,50,43,113,35,93,93,,77,77,5,8,3,14,0.5,0.7
2024-02-10T1700,2515A,111.5608,24.4078,贺州市,政协大楼,细颗粒物(PM2.5),53,38,98,37,86,92,,74,74,7,11,9,11,0.6,0.8
2024-02-10T1700,3534A,111.4744,24.4553,贺州市,西湾,,45,42,86,31,78,92,,80,80,6,8,11,10,0.6,0.7
2024-02-10T1700,2385A,114.17,35.9019,鹤壁市,市监测站,细颗粒物(PM2.5),235,213,228,185,184,130,,105,105,21,25,8,11,1.1,1.1
2024-02-10T1700,2386A,114.2956,35.7511,鹤壁市,市交警支队,细颗粒物(PM2.5),203,197,210,153,167,123,,100,100,10,21,18,23,0.9,1
2024-02-10T1700,2387A,114.2878,35.7306,鹤壁市,迎宾馆,细颗粒物(PM2.5),190,158,215,143,188,123,,100,100,20,25,15,33,1.0,1.1
2024-02-10T1700,3474A,114.2617,35.6822,鹤壁市,大新区,细颗粒物(PM2.5),220,,197,170,137,123,,97,97,16,23,15,23,1.0,0.9
2024-02-10T1700,3596A,114.1572,35.9603,鹤壁市,南山宾馆,细颗粒物(PM2.5),258,262,136,208,105,131,,113,113,28,19,21,18,1.3,1.1
2024-02-10T1700,2244A,130.2537,47.3416,鹤岗市,哈啤分公司,,40,32,145,28,112,71,,73,73,9,20,22,38,0.8,1.1
2024-02-10T1700,2245A,130.2684,47.3086,鹤岗市,斯达机电,细颗粒物(PM2.5),79,93,116,58,85,78,,84,84,23,25,17,46,0.8,0.7
2024-02-10T1700,2246A,130.3114,47.3388,鹤岗市,东山纸板厂,细颗粒物(PM2.5),54,42,103,38,92,85,,90,90,19,21,19,28,0.6,1.2
2024-02-10T1700,2247A,130.1097,47.3382,鹤岗市,五号水库,,27,20,31,15,28,84,,84,84,5,8,14,10,0.5,0.6
2024-02-10T1700,2263A,127.4833,50.2524,黑河市,交通局,,45,44,100,31,73,72,,64,64,10,14,15,27,0.4,0.5
2024-02-10T1700,2264A,127.5144,50.2341,黑河市,环保局,细颗粒物(PM2.5),54,51,232,38,216,77,,62,62,9,22,16,71,0.4,0.6
2024-02-10T1700,2265A,127.5291,50.2472,黑河市,大黑河岛,,,45,96,24,78,68,,62,62,59,60,20,23,,
2024-02-10T1700,1074A,115.6838,37.7541,衡水市,电机北厂,细颗粒物(PM2.5),59,,254,42,191,98,,89,89,2,18,4,21,0.4,0.9
2024-02-10T1700,1075A,115.6303,37.7316,衡水市,市监测站,细颗粒物(PM2.5),67,57,175,48,148,93,,87,87,10,22,7,17,0.4,0.8
2024-02-10T1700,3188A,115.6683,37.7217,衡水市,市城管局,"颗粒物(PM10),细颗粒物(PM2.5)",54,58,189,38,160,95,,86,86,8,20,8,18,0.5,0.8
2024-02-10T1700,3459A,115.5989,37.5491,衡水市,地表水厂,,46,41,217,32,196,103,,93,93,2,21,2,15,0.3,1.1
2024-02-10T1700,2456A,112.5003,26.9167,衡阳市,原169医院,细颗粒物(PM2.5),113,,203,85,152,101,,62,62,6,18,18,28,0.8,1.3
2024-02-10T1700,2457A,112.6194,26.9258,衡阳市,衡阳化工总厂,细颗粒物(PM2.5),110,120,245,83,187,88,,59,59,16,20,17,16,1.1,1
2024-02-10T1700,2458A,112.6211,26.8956,衡阳市,珠晖区环保局,细颗粒物(PM2.5),114,106,193,86,159,96,,74,74,11,16,13,18,1.1,1.1
2024-02-10T1700,2459A,112.6197,26.8733,衡阳市,市委党校,细颗粒物(PM2.5),89,84,204,66,150,97,,66,66,3,11,12,20,0.9,1.1
2024-02-10T1700,2460A,112.6006,26.8919,衡阳市,市监测站,细颗粒物(PM2.5),118,104,235,89,211,87,,62,62,11,20,14,22,1.4,1.3
2024-02-10T1700,2461A,112.5664,26.9056,衡阳市,真空机电公司,细颗粒物(PM2.5),108,96,201,81,159,82,,52,52,10,24,16,29,1.1,1.7
2024-02-10T1700,3399A,112.6703,26.882,衡阳市,师范学院,细颗粒物(PM2.5),95,,164,71,150,98,,66,66,3,8,11,16,0.8,1
2024-02-10T1700,2608A,103.3772,23.3993,红河哈尼族彝族自治州,污水处理厂,细颗粒物(PM2.5),72,,59,52,50,71,,66,66,8,9,9,18,0.8,0.8
2024-02-10T1700,2609A,103.3861,23.35,红河哈尼族彝族自治州,监测站,细颗粒物(PM2.5),70,54,61,51,53,72,,67,67,9,8,10,15,1.0,0.9
2024-02-10T1700,3038A,103.3758,23.368,红河哈尼族彝族自治州,州图书馆,细颗粒物(PM2.5),58,56,61,41,52,66,,62,62,9,8,10,15,1.0,0.9
2024-02-10T1700,1090A,111.6507,40.7517,呼和浩特市,呼市一监,细颗粒物(PM2.5),267,224,235,217,473,131,,98,98,16,44,13,33,1.1,1.7
2024-02-10T1700,1091A,111.6572,40.8033,呼和浩特市,小召,细颗粒物(PM2.5),246,217,278,196,548,126,,112,95,26,54,16,52,1.0,1.7
2024-02-10T1700,1094A,111.7516,40.8369,呼和浩特市,如意水处理厂,细颗粒物(PM2.5),211,176,317,161,323,105,,82,82,26,56,22,39,1.0,1.6
2024-02-10T1700,1095A,111.7276,40.8062,呼和浩特市,二十九中,细颗粒物(PM2.5),217,168,439,167,358,116,,86,86,20,46,20,40,1.0,1.3
2024-02-10T1700,1096A,111.5512,40.7866,呼和浩特市,工大金川校区,细颗粒物(PM2.5),250,206,443,200,376,119,,92,92,20,52,14,31,1.1,1.7
2024-02-10T1700,1097A,111.717,40.7612,呼和浩特市,化肥厂生活区,细颗粒物(PM2.5),244,237,445,194,389,121,,91,91,19,48,19,64,1.1,1.6
2024-02-10T1700,3698A,111.5968,40.8178,呼和浩特市,红旗小学,细颗粒物(PM2.5),275,232,588,225,530,120,,79,79,30,69,17,58,1.2,2.1
2024-02-10T1700,3699A,111.6518,40.8389,呼和浩特市,海东办,细颗粒物(PM2.5),260,234,309,210,668,113,,80,80,29,66,20,68,1.1,1.8
2024-02-10T1700,2192A,119.7594,49.2261,呼伦贝尔市,区环保局,,29,20,56,18,50,91,,86,86,6,10,7,12,0.2,0.2
2024-02-10T1700,3061A,119.7512,49.1577,呼伦贝尔市,国华电力东,,28,,36,13,32,89,,88,88,4,7,5,7,0.2,0.2
2024-02-10T1700,1250A,120.0751,30.8669,湖州市,城西水厂,细颗粒物(PM2.5),73,63,255,53,226,105,,101,101,14,27,5,8,0.6,0.8
2024-02-10T1700,2873A,120.0875,30.8955,湖州市,仁皇山新区,细颗粒物(PM2.5),82,71,219,60,191,108,,102,102,16,27,7,9,0.7,0.9
2024-02-10T1700,2907A,120.1844,30.8596,湖州市,吴兴区站,细颗粒物(PM2.5),82,69,197,60,183,105,,94,94,12,19,7,11,0.6,0.9
2024-02-10T1700,3562A,120.4148,30.8538,湖州市,南浔区站,细颗粒物(PM2.5),82,66,226,60,221,116,,100,100,6,17,8,15,0.5,0.8
2024-02-10T1700,1607A,120.9092,40.7136,葫芦岛市,龙港区,细颗粒物(PM2.5),142,,318,108,266,98,,91,91,8,31,15,53,0.5,1.4
2024-02-10T1700,1608A,120.8392,40.7514,葫芦岛市,化工街,细颗粒物(PM2.5),73,73,270,53,208,92,,83,83,3,28,11,26,1.0,1.8
2024-02-10T1700,1609A,120.8341,40.7073,葫芦岛市,新区,细颗粒物(PM2.5),129,102,276,98,220,100,,90,90,10,36,16,24,0.5,1.4
2024-02-10T1700,1610A,120.8695,40.7677,葫芦岛市,东城区,细颗粒物(PM2.5),82,74,286,60,247,94,,85,85,13,37,16,28,1.0,2.1
2024-02-10T1700,2482A,109.5981,27.5721,怀化市,林科所,细颗粒物(PM2.5),75,56,106,55,90,66,,36,36,4,4,6,8,0.5,0.6
2024-02-10T1700,2483A,109.9453,27.5444,怀化市,河西地税局,细颗粒物(PM2.5),83,69,103,61,86,67,,36,36,7,8,6,5,0.8,1
2024-02-10T1700,2484A,109.9781,27.5342,怀化市,市四医院,细颗粒物(PM2.5),78,65,129,57,101,76,,40,40,4,10,9,6,0.7,0.7
2024-02-10T1700,2485A,109.9972,27.5578,怀化市,监测楼,细颗粒物(PM2.5),85,66,145,63,90,76,,40,40,3,11,8,8,0.8,0.9
2024-02-10T1700,2486A,110.0394,27.583,怀化市,市委党校,细颗粒物(PM2.5),72,58,125,52,108,73,,37,37,4,8,8,6,0.7,0.9
2024-02-10T1700,1210A,119.036,33.5981,淮安市,钵池山,细颗粒物(PM2.5),216,175,148,166,134,85,,74,74,16,18,10,11,0.9,1.2
2024-02-10T1700,1211A,119.007,33.575,淮安市,北京南路,细颗粒物(PM2.5),211,183,167,161,142,88,,80,80,14,21,10,14,1.0,1.6
2024-02-10T1700,1212A,118.989,33.6067,淮安市,市监测站,细颗粒物(PM2.5),208,185,168,158,148,96,,85,85,13,14,10,11,1.4,1.4
2024-02-10T1700,1213A,119.135,33.5039,淮安市,楚州区监测站,细颗粒物(PM2.5),209,,244,159,221,95,,83,83,14,22,10,11,0.8,1
2024-02-10T1700,1214A,119.0186,33.6297,淮安市,淮阴区监测站,细颗粒物(PM2.5),231,212,192,181,157,93,,81,81,18,21,9,9,0.9,0.9
2024-02-10T1700,3426A,118.8755,33.2894,淮安市,新华书店,细颗粒物(PM2.5),132,102,147,100,131,106,,95,95,18,20,8,11,0.8,0.8
2024-02-10T1700,2282A,116.8004,33.975,淮北市,监测站,细颗粒物(PM2.5),222,231,332,172,261,96,,86,86,18,24,11,15,1.2,1.2
2024-02-10T1700,2283A,116.8091,33.9007,淮北市,烈山区政府,细颗粒物(PM2.5),204,197,330,154,285,120,,98,98,17,26,12,15,0.8,0.9
2024-02-10T1700,3330A,116.8873,33.9836,淮北市,杜集区检察院,细颗粒物(PM2.5),237,230,287,187,250,113,,99,99,16,20,14,15,1.1,1.1
2024-02-10T1700,4017A,116.7923,33.9535,淮北市,市博物馆,细颗粒物(PM2.5),216,197,330,166,276,103,,89,89,19,27,12,15,1.1,1.3
2024-02-10T1700,2277A,116.8305,32.7727,淮南市,潘集区政府,细颗粒物(PM2.5),98,99,129,73,110,95,,96,96,10,11,7,10,0.7,0.7
2024-02-10T1700,2278A,117.0067,32.6524,淮南市,师范学院,细颗粒物(PM2.5),98,90,137,73,103,81,,88,88,18,19,9,12,0.6,0.8
2024-02-10T1700,2279A,116.8569,32.5951,淮南市,谢家集区政府,细颗粒物(PM2.5),78,71,128,57,114,108,,98,96,10,12,6,14,0.8,0.8
2024-02-10T1700,2280A,116.8281,32.633,淮南市,八公山区政府,细颗粒物(PM2.5),74,66,82,54,68,108,,106,106,11,10,3,6,0.7,0.8
2024-02-10T1700,2281A,116.6325,32.6201,淮南市,焦岗湖风景区管理处,细颗粒物(PM2.5),68,68,122,49,90,84,,83,83,8,10,4,4,0.4,0.5
2024-02-10T1700,2894A,117.0566,32.6531,淮南市,经济技术开发区消防队,细颗粒物(PM2.5),68,79,119,49,96,88,,91,91,10,12,7,10,0.6,0.8
2024-02-10T1700,3329A,117.0108,32.5893,淮南市,山南新区,细颗粒物(PM2.5),95,71,140,71,140,100,,96,96,11,12,6,12,0.7,0.7
2024-02-10T1700,2446A,114.9028,30.4742,黄冈市,职工中心,细颗粒物(PM2.5),63,56,314,45,239,99,,87,87,2,16,10,23,0.6,1.2
2024-02-10T1700,2929A,114.8858,30.4519,黄冈市,红卫路,细颗粒物(PM2.5),64,53,293,46,246,90,,83,83,2,21,8,18,0.6,1.2
2024-02-10T1700,3398A,114.9136,30.4445,黄冈市,市林业局,细颗粒物(PM2.5),69,53,283,50,243,101,,89,89,3,20,7,16,0.5,1.2
2024-02-10T1700,2672A,102.0199,35.5102,黄南藏族自治州,同仁县隆务镇,,27,26,44,0,18,84,,83,83,4,6,19,18,0.7,0.7
2024-02-10T1700,2295A,118.2903,29.6963,黄山市,延安路89号,颗粒物(PM10),60,69,301,33,186,98,,70,70,5,13,7,16,0.4,0.6
2024-02-10T1700,2296A,118.327,29.7178,黄山市,黄山东路89号,细颗粒物(PM2.5),60,61,204,43,176,93,,68,68,7,17,6,10,0.8,0.9
2024-02-10T1700,2297A,118.1371,30.2756,黄山市,黄山区政府5号楼,颗粒物(PM10),51,52,117,25,85,99,,73,73,7,11,5,7,0.7,0.7
2024-02-10T1700,2423A,115.0601,30.2313,黄石市,沈家营,细颗粒物(PM2.5),97,75,260,72,227,122,,99,99,24,27,15,20,1.7,1.3
2024-02-10T1700,2424A,115.0817,30.2006,黄石市,陈家湾,细颗粒物(PM2.5),109,82,194,82,149,98,,92,92,39,25,16,30,1.2,1.1
2024-02-10T1700,2426A,114.8988,30.2019,黄石市,铁山,细颗粒物(PM2.5),82,79,178,60,134,110,,105,105,13,29,6,16,0.8,1.1
2024-02-10T1700,2427A,115.0307,30.2092,黄石市,团城山,细颗粒物(PM2.5),84,72,287,62,228,118,,92,92,19,30,13,23,1.3,1.2
2024-02-10T1700,3149A,115.0235,30.1578,黄石市,笔架山北路,细颗粒物(PM2.5),77,66,174,56,169,125,,111,111,10,16,10,28,1.6,1.4
2024-02-10T1700,1392A,114.4183,23.0528,惠州市,河南岸金山湖子站,,43,32,47,30,43,84,,77,77,3,5,6,7,0.6,0.7
2024-02-10T1700,1393A,114.4053,23.0822,惠州市,下埔横江三路子站,,40,36,55,28,44,89,,83,83,7,8,6,7,0.7,0.8
2024-02-10T1700,1394A,114.4103,23.1142,惠州市,江北云山西路子站,,40,31,50,28,47,93,,86,86,2,3,8,10,0.6,0.6
2024-02-10T1700,1395A,114.4645,22.7833,惠州市,惠阳区承修路船湖子站,细颗粒物(PM2.5),55,45,53,39,46,86,,76,76,7,7,8,9,0.7,0.8
2024-02-10T1700,1396A,114.5317,22.7422,惠州市,大亚湾管委会子站,细颗粒物(PM2.5),53,38,49,37,45,84,,76,76,9,7,7,8,0.6,0.5
2024-02-10T1700,3314A,114.4338,22.8134,惠州市,惠阳秋长,细颗粒物(PM2.5),52,41,53,36,46,94,,84,84,2,2,8,10,0.6,0.6
2024-02-10T1700,3452A,114.6517,22.775,惠州市,大亚湾霞涌,,49,47,55,34,48,77,,74,74,8,6,9,10,0.8,0.8
2024-02-10T1700,2240A,130.9762,45.3001,鸡西市,环保局,,45,42,383,31,329,77,,79,79,11,28,9,44,0.2,0.6
2024-02-10T1700,2243A,130.9429,45.3039,鸡西市,第一中学,,35,,471,24,387,90,,90,90,7,32,9,75,0.2,0.6
2024-02-10T1700,3707A,131.0207,45.3073,鸡西市,欧美日汽修厂,细颗粒物(PM2.5),53,,274,37,231,81,,77,77,12,30,8,38,1.0,1.7
2024-02-10T1700,3709A,130.9967,45.3106,鸡西市,市政设施管理处,,49,49,309,24,272,84,,89,89,15,32,4,14,0.6,1.2
2024-02-10T1700,2367A,114.9754,27.0803,吉安市,红声器材厂,颗粒物(PM10),51,52,198,34,149,88,,56,56,11,23,11,22,0.8,1.2
2024-02-10T1700,2368A,114.9658,27.0999,吉安市,市森林工业局,细颗粒物(PM2.5),54,50,201,38,172,90,,59,59,8,21,8,25,0,0.5
2024-02-10T1700,2369A,114.99,27.1312,吉安市,市环境监测站,细颗粒物(PM2.5),53,46,196,37,157,92,,62,62,9,20,6,19,0.6,1.5
2024-02-10T1700,2370A,115.0093,27.0968,吉安市,青原区法院,细颗粒物(PM2.5),59,54,200,42,168,100,,64,64,9,16,8,42,0.5,1.1
2024-02-10T1700,1772A,126.54,43.8622,吉林市,哈达湾,细颗粒物(PM2.5),65,60,356,47,290,94,,94,94,11,32,5,38,0.6,1.1
2024-02-10T1700,1773A,126.5844,43.8358,吉林市,东局子,细颗粒物(PM2.5),62,58,423,44,345,87,,86,86,13,43,10,36,0.7,1.4
2024-02-10T1700,1774A,126.5052,43.8245,吉林市,电力学院,细颗粒物(PM2.5),67,61,223,48,204,95,,92,92,9,32,10,25,0.7,1.5
2024-02-10T1700,1775A,126.6133,43.8972,吉林市,江北,细颗粒物(PM2.5),72,67,511,52,450,90,,85,85,13,46,14,43,0.6,1.5
2024-02-10T1700,1776A,126.555,43.8306,吉林市,江南公园,细颗粒物(PM2.5),79,66,515,58,439,88,,89,89,13,43,12,70,0.5,1.2
2024-02-10T1700,2868A,126.4739,43.953,吉林市,九站,细颗粒物(PM2.5),93,83,235,69,211,105,,96,96,14,44,11,15,0.8,1.6
2024-02-10T1700,1299A,116.9862,36.6114,济南市,科干所,细颗粒物(PM2.5),55,58,297,39,212,106,,96,96,11,25,10,23,0.8,1.4
2024-02-10T1700,1300A,116.9376,36.665,济南市,农科所,细颗粒物(PM2.5),53,54,272,37,226,103,,94,94,11,34,10,20,0.6,1.2
2024-02-10T1700,1301A,117.1265,36.6734,济南市,开发区,颗粒物(PM10),51,51,179,34,156,98,,89,89,8,18,10,15,0.7,1.2
2024-02-10T1700,1303A,117.0624,36.6868,济南市,省种子仓库,细颗粒物(PM2.5),55,58,268,39,209,111,,99,99,4,27,8,18,0.7,1.2
2024-02-10T1700,1304A,116.9489,36.6447,济南市,机床二厂,颗粒物(PM10),56,61,317,39,226,113,,102,102,6,38,11,43,0.8,1.5
2024-02-10T1700,1305A,117.0495,36.663,济南市,市监测站,颗粒物(PM10),56,61,246,39,205,111,,99,99,13,37,15,25,0.5,1.1
2024-02-10T1700,1306A,116.7675,36.5484,济南市,长清党校,细颗粒物(PM2.5),64,68,215,46,182,118,,104,104,11,24,11,15,0.8,1.2
2024-02-10T1700,1616A,117.6795,36.229,济南市,技术学院,颗粒物(PM10),64,78,291,39,278,109,,101,101,18,57,10,16,0.7,1.9
2024-02-10T1700,1961A,117.532,36.6868,济南市,东山小学,颗粒物(PM10),51,51,183,34,169,107,,98,98,9,28,9,26,0.3,0.8
2024-02-10T1700,3059A,117.7161,36.2049,济南市,泰兴公司,细颗粒物(PM2.5),62,66,313,44,249,109,,102,102,10,42,12,14,0.7,1.8
2024-02-10T1700,3064A,117.6867,36.2171,济南市,莱芜战役纪念馆,"颗粒物(PM10),细颗粒物(PM2.5)",58,66,337,41,310,102,,95,95,12,49,11,15,0.6,1.9
2024-02-10T1700,3494A,117.1673,36.9782,济南市,济阳区政府,"颗粒物(PM10),细颗粒物(PM2.5)",53,56,267,37,222,108,,99,99,8,24,14,31,0.4,1
2024-02-10T1700,3495A,117.1171,36.63,济南市,锦屏中学,,46,46,167,32,143,106,,99,99,9,18,11,15,0.5,1
2024-02-10T1700,3682A,116.9814,36.6819,济南市,济南四建,细颗粒物(PM2.5),62,48,234,44,282,104,,93,93,10,40,12,36,0.6,1.3
2024-02-10T1700,1653A,116.6251,35.4302,济宁市,火炬城,细颗粒物(PM2.5),211,198,426,161,372,,,83,83,16,36,14,22,,1.5
2024-02-10T1700,1655A,116.5491,35.4042,济宁市,电化厂,细颗粒物(PM2.5),255,259,486,205,432,114,,88,88,19,37,15,25,1.1,1.4
2024-02-10T1700,3500A,116.5814,35.3707,济宁市,北湖一中,细颗粒物(PM2.5),265,251,433,215,355,104,,83,83,44,39,15,21,1.2,1.2
2024-02-10T1700,3501A,116.8249,35.5593,济宁市,服务中心,细颗粒物(PM2.5),139,136,544,106,409,124,,104,104,14,41,8,28,1.1,1.7
2024-02-10T1700,3678A,116.5907,35.4054,济宁市,市第七中学,细颗粒物(PM2.5),250,294,483,200,386,110,,90,90,19,36,12,29,1.2,1.4
2024-02-10T1700,2255A,130.2751,46.8028,佳木斯市,佳纺,细颗粒物(PM2.5),103,81,229,77,212,110,,106,106,18,36,10,16,0.9,1.4
2024-02-10T1700,2256A,130.3995,46.8307,佳木斯市,发电厂,细颗粒物(PM2.5),82,69,188,60,152,104,,96,96,19,37,18,17,0.8,1.2
2024-02-10T1700,2257A,130.3258,46.7975,佳木斯市,环保局,细颗粒物(PM2.5),102,82,415,76,379,109,,98,98,14,50,13,63,0.9,1.6
2024-02-10T1700,2258A,130.3648,46.8032,佳木斯市,十一中,细颗粒物(PM2.5),98,,318,73,323,103,,96,96,15,45,11,37,0.8,1.2
2024-02-10T1700,2259A,130.3794,46.7588,佳木斯市,四丰,细颗粒物(PM2.5),102,113,128,76,81,133,,125,125,13,13,1,2,0.7,0.7
2024-02-10T1700,1252A,120.7436,30.778,嘉兴市,清河小学,细颗粒物(PM2.5),62,67,174,44,135,102,,89,89,7,22,7,9,0.1,1
2024-02-10T1700,1253A,120.726,30.7478,嘉兴市,嘉兴学院,细颗粒物(PM2.5),77,64,197,56,168,109,,96,96,8,24,7,10,0.7,1.1
2024-02-10T1700,2872A,120.7846,30.7525,嘉兴市,南湖区残联,细颗粒物(PM2.5),75,71,205,55,162,116,,102,102,6,22,8,12,0.6,1
2024-02-10T1700,3407A,120.6916,30.7739,嘉兴市,秀洲住建,细颗粒物(PM2.5),80,69,207,59,182,101,,89,89,9,23,10,12,0.6,1
2024-02-10T1700,1945A,98.2908,39.7711,嘉峪关市,气象局,,28,24,52,7,23,87,,82,82,3,10,2,10,0.1,0.2
2024-02-10T1700,2884A,98.2672,39.7978,嘉峪关市,酒钢宾馆,,28,24,48,9,18,87,,81,81,4,8,3,10,0.4,0.4
2024-02-10T1700,3248A,98.2643,39.7724,嘉峪关市,雄关区,,29,29,41,11,17,84,,74,74,4,16,5,8,0.4,0.5
2024-02-10T1700,1383A,113.1064,22.6058,江门市,北街,细颗粒物(PM2.5),52,43,44,36,38,119,,93,93,9,11,8,9,0.8,0.9
2024-02-10T1700,1384A,113.0731,22.5835,江门市,西区,细颗粒物(PM2.5),58,43,46,41,31,114,,88,88,10,11,9,9,0.4,0.6
2024-02-10T1700,1385A,113.0219,22.5311,江门市,圭峰西,,46,46,38,30,32,113,,91,91,10,6,7,7,0.6,0.7
2024-02-10T1700,1386A,113.0828,22.5947,江门市,东湖,,43,43,40,28,29,112,,88,88,9,10,8,9,0.6,0.7
2024-02-10T1700,3311A,113.1075,22.5647,江门市,江海富民,,48,39,35,33,31,119,,92,92,10,11,8,8,0.5,0.6
2024-02-10T1700,3449A,113.05,22.4667,江门市,新会银湖,,50,44,41,35,33,121,,95,95,9,9,8,7,0.7,0.8
2024-02-10T1700,1828A,113.227,35.2125,焦作市,市环保局,颗粒物(PM10),80,109,200,28,121,86,,72,72,2,17,3,34,0.4,1.1
2024-02-10T1700,3169A,113.2725,35.2067,焦作市,太极体育中心,颗粒物(PM10),86,121,212,29,153,91,,77,77,8,21,2,31,0.3,1
2024-02-10T1700,3335A,113.3137,35.2641,焦作市,马村街道办,颗粒物(PM10),68,86,207,42,133,93,,76,76,7,19,4,43,0,0.6
2024-02-10T1700,3336A,113.2465,35.2373,焦作市,焦作技师学院,颗粒物(PM10),77,103,247,27,170,84,,71,71,6,26,7,52,0.4,1.2
2024-02-10T1700,3477A,113.1656,35.2539,焦作市,中站许衡医院,颗粒物(PM10),79,108,149,30,91,91,,85,85,1,13,3,30,0.1,0.7
2024-02-10T1700,3981A,113.2449,35.1803,焦作市,原李万街道办,颗粒物(PM10),76,101,242,22,177,89,,77,77,11,25,4,36,0.4,1
2024-02-10T1700,1708A,116.3701,23.5345,揭阳市,新兴,,30,30,54,21,51,85,,71,71,4,6,9,9,0.9,0.9
2024-02-10T1700,1709A,116.3264,23.5443,揭阳市,西马,,28,21,47,16,43,87,,73,73,3,5,8,9,0.6,0.7
2024-02-10T1700,1710A,116.3611,23.5626,揭阳市,东兴,,27,26,52,18,47,85,,72,72,2,5,7,8,0.7,0.8
2024-02-10T1700,1711A,116.4151,23.5294,揭阳市,渔湖,,31,31,57,18,44,90,,71,71,4,6,8,9,0.8,0.8
2024-02-10T1700,3320A,116.403,23.5699,揭阳市,曲溪,,31,31,52,16,44,95,,75,75,4,6,4,4,0.8,0.7
2024-02-10T1700,1944A,102.1692,38.5167,金昌市,天庆家园,,,84,141,16,29,90,,80,80,,14,10,39,0.2,0.5
2024-02-10T1700,3170A,102.1864,38.5253,金昌市,市委党校,颗粒物(PM10),77,104,173,42,37,83,,77,77,11,7,109,36,0.6,0.6
2024-02-10T1700,4022A,102.1647,38.5371,金昌市,金川区人防中心,颗粒物(PM10),71,91,183,39,38,93,,83,83,12,10,86,46,0.5,0.6
2024-02-10T1700,1262A,119.647,29.077,金华市,十五中,细颗粒物(PM2.5),59,48,151,42,121,115,,100,100,7,18,5,7,0.7,0.9
2024-02-10T1700,1263A,119.686,29.1029,金华市,监测站,颗粒物(PM10),53,55,113,34,87,118,,106,106,8,12,5,6,0.5,0.8
2024-02-10T1700,3659A,119.656,29.1131,金华市,气象局,细颗粒物(PM2.5),55,53,180,39,143,116,,103,103,6,18,5,7,0.7,1
2024-02-10T1700,1767A,121.1115,41.0879,锦州市,南山,细颗粒物(PM2.5),95,84,175,71,149,109,,96,96,11,25,15,16,0.5,1.3
2024-02-10T1700,1768A,121.0533,40.8434,锦州市,开发区,细颗粒物(PM2.5),150,,194,115,161,81,,88,88,25,22,22,34,0.9,1.3
2024-02-10T1700,1769A,121.1836,41.1119,锦州市,百股街道,细颗粒物(PM2.5),100,107,158,75,136,106,,90,90,10,25,15,17,0.6,1.3
2024-02-10T1700,1770A,121.1178,41.1222,锦州市,天安街道,细颗粒物(PM2.5),142,,180,108,143,99,,87,87,11,28,13,14,0.6,1.3
2024-02-10T1700,1771A,121.1303,41.1386,锦州市,北湖公园,细颗粒物(PM2.5),80,62,136,59,125,98,,86,86,12,23,15,18,0.6,1.1
2024-02-10T1700,2160A,112.85,35.5051,晋城市,自来水公司,颗粒物(PM10),67,84,171,27,127,91,,80,80,5,23,4,16,0.6,1.3
2024-02-10T1700,2161A,112.8318,35.4936,晋城市,白云商贸,颗粒物(PM10),88,125,165,24,104,94,,84,84,10,26,5,13,0.4,1
2024-02-10T1700,2162A,112.8508,35.4887,晋城市,市环保局,颗粒物(PM10),80,109,169,22,114,92,,82,82,10,29,4,13,0.7,1.1
2024-02-10T1700,2163A,112.8676,35.4897,晋城市,技术学院,颗粒物(PM10),87,124,166,24,112,92,,80,80,10,31,4,15,0.5,1.2
2024-02-10T1700,3620A,112.8271,35.4828,晋城市,泽州一中,颗粒物(PM10),74,98,130,19,83,91,,84,84,11,24,6,12,0.6,1.1
2024-02-10T1700,2171A,112.7532,37.6945,晋中市,锦纶小区,颗粒物(PM10),82,114,251,29,184,88,,76,76,10,27,6,39,0.1,0.8
2024-02-10T1700,2173A,112.7249,37.7067,晋中市,南都小区,颗粒物(PM10),88,125,375,27,195,88,,76,76,11,37,6,61,0.2,1
2024-02-10T1700,2174A,112.6991,37.6982,晋中市,榆次区政府,颗粒物(PM10),83,115,301,35,197,85,,73,73,11,32,13,44,0.3,1
2024-02-10T1700,2865A,112.7195,37.6828,晋中市,榆次三中,颗粒物(PM10),86,122,238,24,182,90,,75,75,6,29,6,45,0.3,0.9
2024-02-10T1700,2439A,112.2014,31.0481,荆门市,竹园小学,细颗粒物(PM2.5),169,135,169,128,136,81,,62,55,15,19,12,11,0.9,1.1
2024-02-10T1700,2440A,112.1969,30.9891,荆门市,掇刀,细颗粒物(PM2.5),178,165,162,134,130,89,,64,64,9,14,11,10,0.8,1
2024-02-10T1700,2441A,112.2213,31.0386,荆门市,石化一小,细颗粒物(PM2.5),188,156,176,141,134,88,,60,58,13,20,22,19,0.9,1
2024-02-10T1700,3012A,112.1849,31.0362,荆门市,西山林语,细颗粒物(PM2.5),153,128,137,117,109,81,,66,66,20,14,20,15,0.7,0.8
2024-02-10T1700,3547A,112.1632,31.0138,荆门市,龙泉中学南校,细颗粒物(PM2.5),183,158,148,138,132,86,,62,62,19,14,10,12,0.7,1
2024-02-10T1700,1844A,112.2494,30.3197,荆州市,市图书馆,细颗粒物(PM2.5),109,,174,82,178,74,,60,60,12,16,10,13,1.0,1.1
2024-02-10T1700,1845A,112.2008,30.3544,荆州市,市委党校,细颗粒物(PM2.5),119,90,187,90,188,76,,60,60,13,19,10,14,0.7,0.9
2024-02-10T1700,3194A,112.2747,30.3122,荆州市,管委会,细颗粒物(PM2.5),114,,153,86,176,77,,63,63,10,14,12,14,0.9,1.1
2024-02-10T1700,3548A,112.1655,30.3364,荆州市,学苑路,细颗粒物(PM2.5),104,,176,78,188,70,,57,57,13,18,7,12,1.0,1.2
2024-02-10T1700,2342A,117.3102,29.3867,景德镇市,王港中学,细颗粒物(PM2.5),100,82,169,75,132,99,,85,85,5,6,10,32,0.4,0.5
2024-02-10T1700,2343A,117.2117,29.2933,景德镇市,老干部活动中心,细颗粒物(PM2.5),100,82,182,75,148,83,,64,64,5,12,10,15,0.5,0.8
2024-02-10T1700,2344A,117.1894,29.2789,景德镇市,兽医站,细颗粒物(PM2.5),88,89,194,65,156,95,,73,73,9,15,10,23,0.7,0.9
2024-02-10T1700,2345A,117.1547,29.2617,景德镇市,台达陶瓷,臭氧1小时,260,,234,81,195,639,,190,190,9,17,3,19,0.8,0.9
2024-02-10T1700,2346A,117.2461,29.2956,景德镇市,陶研所,细颗粒物(PM2.5),88,79,150,65,128,82,,64,64,10,16,12,14,0.7,0.9
2024-02-10T1700,1803A,115.9872,29.6815,九江市,十里,,41,41,188,27,152,101,,92,92,11,27,9,15,0.6,1
2024-02-10T1700,1804A,115.9584,29.7046,九江市,茅山头,,46,42,128,32,111,85,,75,75,15,29,11,14,0.7,1
2024-02-10T1700,1805A,115.9877,29.7295,九江市,西园,细颗粒物(PM2.5),102,95,153,76,132,81,,75,75,13,28,9,13,0.9,1
2024-02-10T1700,1806A,116.0172,29.6547,九江市,五七二七厂,细颗粒物(PM2.5),78,70,68,57,51,74,,74,74,12,13,9,12,0.8,0.8
2024-02-10T1700,1808A,115.9114,29.6038,九江市,综合工业园,细颗粒物(PM2.5),53,37,124,37,107,94,,86,86,9,18,11,17,0.7,1
2024-02-10T1700,1809A,116.0721,29.7535,九江市,石化总厂,细颗粒物(PM2.5),102,87,216,76,178,94,,76,76,7,19,12,22,0.8,1
2024-02-10T1700,1810A,115.9773,29.5698,九江市,庐山气象台,,30,24,31,16,24,93,,98,89,2,4,7,8,0.7,0.9
2024-02-10T1700,3190A,116.0254,29.6994,九江市,外国语学校,细颗粒物(PM2.5),115,93,192,87,168,71,,63,63,25,32,11,18,0.8,1
2024-02-10T1700,2658A,98.5061,39.7443,酒泉市,仓门街子站,,34,34,88,17,28,82,,70,70,4,8,4,9,0.3,0.4
2024-02-10T1700,2659A,98.4989,39.7256,酒泉市,油田生活基地,,32,31,91,22,31,86,,74,74,3,8,5,11,0.3,0.4
2024-02-10T1700,2698A,76.0072,39.4467,喀什地区,巡警大队,颗粒物(PM10),68,86,144,36,82,105,,70,70,21,48,9,16,0.9,2.2
2024-02-10T1700,2699A,75.9755,39.4694,喀什地区,吾办,细颗粒物(PM2.5),64,68,155,46,112,102,,59,59,20,57,7,7,0.8,2.5
2024-02-10T1700,4027A,75.9483,39.4689,喀什地区,老干局,颗粒物(PM10),60,69,182,32,98,106,,63,63,15,49,7,5,0.8,3.5
2024-02-10T1700,1824A,114.3389,34.7781,开封市,肿瘤医院,细颗粒物(PM2.5),189,232,326,142,220,109,,86,86,15,27,16,39,1.0,0.8
2024-02-10T1700,1826A,114.2885,34.7965,开封市,世纪星幼儿园,细颗粒物(PM2.5),260,,303,210,238,118,,96,96,11,20,18,47,0.9,0.6
2024-02-10T1700,3147A,114.3438,34.8106,开封市,龙亭公园,细颗粒物(PM2.5),233,224,272,183,109,107,,90,90,16,26,17,28,0.9,0.6
2024-02-10T1700,3210A,114.3644,34.7964,开封市,汴京公园,细颗粒物(PM2.5),241,250,320,191,257,110,,88,88,15,27,16,30,0.9,0.7
2024-02-10T1700,3473A,114.2485,34.8306,开封市,技师学院,细颗粒物(PM2.5),278,,207,228,155,117,,91,91,12,15,18,18,1.2,0.8
2024-02-10T1700,3592A,114.4644,34.7556,开封市,祥符区生态环境局,细颗粒物(PM2.5),246,255,305,196,243,106,,88,88,15,25,17,50,0.8,0.7
2024-02-10T1700,1951A,84.895,45.6094,克拉玛依市,长征新村,细颗粒物(PM2.5),84,88,156,62,113,93,,72,72,33,38,11,27,0.9,0.9
2024-02-10T1700,1952A,84.8988,45.5893,克拉玛依市,南林小区,细颗粒物(PM2.5),93,98,198,69,164,97,,72,72,32,47,6,20,1.0,1.2
2024-02-10T1700,1954A,84.905,44.3396,克拉玛依市,独山子区,细颗粒物(PM2.5),125,136,243,95,206,134,,108,108,24,36,6,9,1.0,1.2
2024-02-10T1700,1955A,85.6979,46.098,克拉玛依市,乌尔禾区商贸楼,细颗粒物(PM2.5),75,67,129,55,105,105,,74,74,23,39,8,10,0.9,1.2
2024-02-10T1700,3612A,85.1045,45.6899,克拉玛依市,白碱滩区新站,细颗粒物(PM2.5),109,105,147,82,101,98,,75,65,36,32,14,22,1.0,0.9
2024-02-10T1700,2697A,76.1454,39.7142,克孜勒苏柯尔克孜自治州,市人民政府,,,56,63,35,38,102,,77,77,9,13,,6,0.6,0.7
2024-02-10T1700,3665A,76.1658,39.7157,克孜勒苏柯尔克孜自治州,克州文化中心,颗粒物(PM10),52,54,68,28,37,99,,80,80,10,13,6,8,0.6,0.6
2024-02-10T1700,1450A,102.8204,24.8886,昆明市,呈贡新区,,31,28,52,13,46,98,,81,81,5,8,6,10,0.6,0.9
2024-02-10T1700,1451A,102.6251,24.9608,昆明市,西山森林公园,细颗粒物(PM2.5),52,,50,36,41,99,,83,83,6,10,9,11,0.9,1.4
2024-02-10T1700,1452A,102.7252,25.0902,昆明市,龙泉镇,,32,31,62,15,46,100,,87,87,8,12,12,17,0.4,0.8
2024-02-10T1700,1453A,102.7266,25.0375,昆明市,东风东路,,32,22,51,22,45,91,,81,81,10,13,12,15,0.6,0.9
2024-02-10T1700,1454A,102.6742,25.0669,昆明市,金鼎山,,35,35,66,18,47,100,,86,86,9,12,7,12,0.7,1
2024-02-10T1700,1455A,102.6644,25.0401,昆明市,碧鸡广场,,35,24,57,24,50,98,,84,84,7,11,10,16,0.6,0.9
2024-02-10T1700,3179A,102.7494,25.0119,昆明市,官渡区博物馆,,29,26,52,14,39,92,,81,81,5,12,10,12,0.6,0.9
2024-02-10T1700,3375A,102.8017,24.8336,昆明市,青年创业园,,32,21,44,18,37,100,,87,87,4,7,11,12,0.6,0.9
2024-02-10T1700,3550A,102.7997,24.9786,昆明市,昆明学院,,29,19,50,9,38,92,,79,79,2,8,10,12,0.6,0.9
2024-02-10T1700,3551A,102.5967,24.6736,昆明市,晋宁区生态环境分局,,33,29,72,17,44,103,,88,88,8,10,7,13,0.7,0.9
2024-02-10T1700,3552A,102.6678,24.9856,昆明市,云天化总部,,30,24,68,19,57,94,,82,82,8,11,8,14,0.8,1.1
2024-02-10T1700,1456A,91.1319,29.6514,拉萨市,八廓街,,31,8,17,5,12,99,,86,86,10,12,6,6,0.3,0.3
2024-02-10T1700,1457A,91.1221,29.6747,拉萨市,市环保局,,32,5,29,5,22,102,,88,88,6,12,6,9,0.5,0.6
2024-02-10T1700,1458A,91.0874,29.6475,拉萨市,区监测站,,31,5,15,4,12,99,,87,87,3,7,4,5,0.4,0.5
2024-02-10T1700,1459A,91.1774,29.6541,拉萨市,西藏大学,,32,6,10,5,7,101,,88,88,4,4,4,4,0.3,0.3
2024-02-10T1700,1460A,90.9798,29.6588,拉萨市,区辐射站,,30,6,14,5,11,96,,83,83,4,9,5,6,0.5,0.6
2024-02-10T1700,1461A,91.0834,29.6292,拉萨市,拉萨火车站,,31,7,15,7,12,98,,86,86,3,8,3,4,0.6,0.4
2024-02-10T1700,2520A,109.2203,23.7256,来宾市,来宾技工学校,细颗粒物(PM2.5),58,,103,41,84,100,,76,76,5,12,7,11,0.8,0.9
2024-02-10T1700,3535A,109.1781,23.7297,来宾市,兴宾区政府,,38,30,71,26,62,99,,79,79,5,9,8,10,0.8,0.9
2024-02-10T1700,4002A,109.2416,23.7461,来宾市,中南小学,细颗粒物(PM2.5),54,40,105,38,88,106,,80,80,6,15,6,10,0.9,1.1
2024-02-10T1700,1476A,103.631,36.1031,兰州市,兰炼宾馆,颗粒物(PM10),72,93,209,43,102,92,,76,76,26,36,20,28,0.6,0.8
2024-02-10T1700,1478A,103.8412,36.0726,兰州市,生物制品所,颗粒物(PM10),85,119,217,48,86,74,,55,55,29,38,15,19,0.6,0.9
2024-02-10T1700,1479A,103.831,36.0464,兰州市,铁路设计院,颗粒物(PM10),77,103,195,44,98,70,,52,52,36,55,18,27,0.7,1.1
2024-02-10T1700,3186A,103.7158,36.1058,兰州市,教育港,颗粒物(PM10),91,131,194,46,72,74,,67,67,38,38,18,19,0.9,0.8
2024-02-10T1700,3241A,103.7439,36.0842,兰州市,百合公园,颗粒物(PM10),85,120,183,30,83,66,,56,56,35,42,13,15,0.9,1.1
2024-02-10T1700,3242A,103.9611,35.998,兰州市,和平,颗粒物(PM10),63,75,152,26,74,89,,70,70,13,24,15,22,0.6,0.9
2024-02-10T1700,3245A,103.6633,36.533,兰州新区,新区管委会,颗粒物(PM10),96,142,212,33,59,89,,74,74,11,14,16,14,0.6,0.7
2024-02-10T1700,3246A,103.6975,36.4789,兰州新区,舟曲中学,颗粒物(PM10),113,175,208,36,39,92,,74,74,10,14,15,13,0.5,0.6
2024-02-10T1700,1067A,116.6708,39.5111,廊坊市,药材公司,,33,33,43,19,27,93,,90,90,2,8,2,3,0.3,0.3
2024-02-10T1700,1068A,116.7214,39.5589,廊坊市,开发区,,27,17,32,17,24,86,,86,86,5,9,1,3,0.3,0.3
2024-02-10T1700,1070A,116.7244,39.5269,廊坊市,北华航天学院,,30,28,41,6,18,94,,92,92,6,10,2,3,0.3,0.3
2024-02-10T1700,2919A,116.7022,39.5453,廊坊市,河北工业大学,,29,28,41,19,28,90,,88,88,7,10,2,3,0.3,0.3
2024-02-10T1700,2535A,103.7723,29.5462,乐山市,花湖湾,细颗粒物(PM2.5),75,68,154,55,133,104,,71,71,6,11,8,8,0.5,0.6
2024-02-10T1700,2536A,103.7627,29.5844,乐山市,牛耳桥,细颗粒物(PM2.5),87,68,165,64,151,104,,71,71,14,24,9,8,0.8,0.9
2024-02-10T1700,2537A,103.7508,29.6006,乐山市,市第三水厂,细颗粒物(PM2.5),97,79,233,72,207,106,,70,70,11,27,10,8,0.8,1
2024-02-10T1700,2538A,103.7571,29.5664,乐山市,市监测站,细颗粒物(PM2.5),120,,154,91,128,103,,72,72,10,18,10,10,0.5,0.6
2024-02-10T1700,3361A,103.7311,29.5628,乐山市,理工大学,细颗粒物(PM2.5),93,73,183,69,172,107,,74,74,8,19,8,8,0.7,0.9
2024-02-10T1700,2599A,100.2497,26.8802,丽江市,丽江古城,,31,29,96,20,76,98,,86,86,14,20,7,8,0.5,0.6
2024-02-10T1700,2600A,100.2203,26.8906,丽江市,市中心,,32,32,64,8,46,97,,84,84,6,17,8,16,0.6,0.7
2024-02-10T1700,1267A,119.914,28.4514,丽水市,监测站大楼,细颗粒物(PM2.5),54,53,101,38,85,83,,62,62,7,10,6,5,0.5,0.7
2024-02-10T1700,1268A,119.93,28.4586,丽水市,莲都小学,,49,48,95,34,74,89,,63,63,7,9,4,6,0.5,0.7
2024-02-10T1700,1269A,119.879,28.4231,丽水市,余庄前,细颗粒物(PM2.5),52,41,89,36,80,87,,70,70,6,8,5,4,0.5,0.7
2024-02-10T1700,1173A,119.176,34.5885,连云港市,市环境监测站,细颗粒物(PM2.5),218,185,202,168,187,127,,99,99,21,28,15,13,1.5,1.3
2024-02-10T1700,3000A,119.3581,34.6972,连云港市,德源药业,细颗粒物(PM2.5),221,193,179,171,162,137,,120,120,22,22,16,12,1.3,1.1
2024-02-10T1700,3007A,119.178,34.844,连云港市,新城一中,细颗粒物(PM2.5),264,241,235,214,235,136,,118,118,21,22,18,17,1.6,1.3
2024-02-10T1700,3008A,119.3608,34.7519,连云港市,胡沟管理处,细颗粒物(PM2.5),240,227,185,190,158,112,,108,108,36,20,23,16,1.4,1
2024-02-10T1700,3009A,119.1478,34.5911,连云港市,矿山设计院,细颗粒物(PM2.5),230,222,226,180,187,120,,94,94,17,18,16,15,1.3,1.1
2024-02-10T1700,3434A,119.2413,34.6539,连云港市,工贸学校,细颗粒物(PM2.5),256,246,220,206,179,138,,112,112,27,23,20,25,1.4,1.2
2024-02-10T1700,3664A,119.4172,34.7341,连云港市,连云街道,细颗粒物(PM2.5),254,260,165,204,132,88,,105,103,50,23,60,20,2.0,1.4
2024-02-10T1700,2571A,102.3431,27.8099,凉山彝族自治州,青龙寺,,30,8,16,3,5,96,,88,88,2,4,4,5,0.6,0.8
2024-02-10T1700,2572A,102.2721,27.8415,凉山彝族自治州,邛海宾馆,,30,24,16,11,11,96,,86,86,4,5,7,9,0.6,0.7
2024-02-10T1700,2573A,102.2625,27.898,凉山彝族自治州,西昌市政府,,32,14,16,7,11,100,,89,89,3,4,7,9,0.6,0.6
2024-02-10T1700,2574A,102.2685,27.8851,凉山彝族自治州,凉山州政府,,29,14,20,12,13,91,,81,81,4,5,6,8,0.5,0.7
2024-02-10T1700,2575A,102.237,27.8914,凉山彝族自治州,长安,,31,8,21,7,12,98,,86,86,3,5,9,12,0.7,0.7
2024-02-10T1700,2212A,123.2,41.1953,辽阳市,宏伟区,细颗粒物(PM2.5),67,,730,48,597,78,,73,73,6,39,13,106,0.8,2.2
2024-02-10T1700,2213A,123.1683,41.2495,辽阳市,新华园,细颗粒物(PM2.5),62,,715,44,612,78,,70,70,6,50,14,97,0.7,2.5
2024-02-10T1700,2214A,123.2354,41.2639,辽阳市,滨河路,细颗粒物(PM2.5),52,40,396,36,397,80,,70,70,5,33,8,28,0.6,1.8
2024-02-10T1700,2215A,123.149,41.2991,辽阳市,铁西工业园,,28,26,580,15,592,87,,78,78,6,45,10,35,0.6,2.8
2024-02-10T1700,2227A,125.1358,42.8845,辽源市,环保局,细颗粒物(PM2.5),57,47,463,40,416,96,,82,82,9,37,14,72,0.5,1.5
2024-02-10T1700,3239A,125.0764,42.9078,辽源市,银鹰制药,细颗粒物(PM2.5),83,68,270,61,242,98,,88,88,9,27,16,14,0.6,1.4
2024-02-10T1700,1625A,115.9848,36.4372,聊城市,区政府,细颗粒物(PM2.5),89,94,274,66,240,105,,91,91,10,24,11,17,0.7,1.4
2024-02-10T1700,2878A,116.0072,36.4343,聊城市,聊大东校,细颗粒物(PM2.5),98,84,306,73,267,112,,98,98,13,25,15,23,0.8,1.4
2024-02-10T1700,3200A,115.9819,36.4978,聊城市,监控中心,细颗粒物(PM2.5),67,66,335,48,288,111,,97,97,13,27,11,22,0.9,1.6
2024-02-10T1700,3513A,116.0445,36.4361,聊城市,九州社区,细颗粒物(PM2.5),78,90,343,57,282,108,,94,94,13,25,13,29,0.6,1.3
2024-02-10T1700,4018A,116.0567,36.4608,聊城市,星美广场,细颗粒物(PM2.5),62,72,337,44,269,104,,92,92,9,22,6,20,0.7,1.3
2024-02-10T1700,2632A,94.3681,29.6376,林芝市,林芝监测站,,30,2,14,0,8,93,,85,85,1,2,4,6,0.3,0.3
2024-02-10T1700,2633A,94.3616,29.6616,林芝市,林芝人民医院,,29,3,14,0,7,90,,83,83,2,3,9,9,0.4,0.4
2024-02-10T1700,2603A,100.0781,23.8982,临沧市,市环保局,细颗粒物(PM2.5),87,,81,64,71,62,,59,59,6,11,7,17,0.5,0.6
2024-02-10T1700,2604A,100.0894,23.8822,临沧市,市气象局,细颗粒物(PM2.5),54,45,94,38,78,56,,54,54,6,11,6,18,0.6,0.6
2024-02-10T1700,1733A,111.5531,36.0783,临汾市,临钢医院,颗粒物(PM10),76,101,338,14,236,95,,64,64,2,26,4,13,0.3,1.6
2024-02-10T1700,1734A,111.5028,36.0714,临汾市,技工学校,颗粒物(PM10),69,87,402,28,320,97,,69,69,3,30,5,20,0.2,1.7
2024-02-10T1700,1736A,111.5018,36.0855,临汾市,市委,颗粒物(PM10),64,78,385,10,293,100,,72,72,2,26,3,18,0.3,1.7
2024-02-10T1700,3018A,111.505,36.1014,临汾市,唐尧大酒店,颗粒物(PM10),67,83,342,17,286,98,,69,69,8,34,5,22,0.3,1.8
2024-02-10T1700,3668A,111.5036,36.0414,临汾市,城南,颗粒物(PM10),63,76,391,28,310,98,,69,69,2,31,4,16,0.3,1.8
2024-02-10T1700,2667A,103.2069,35.5993,临夏回族自治州,环保局,,29,22,81,20,41,84,,63,63,5,26,12,21,0.3,1.5
2024-02-10T1700,2668A,103.2417,35.6057,临夏回族自治州,建设大厦,,27,12,53,12,30,85,,75,75,14,16,10,18,0.4,0.9
2024-02-10T1700,1618A,118.3429,35.0532,临沂市,沂河小区,细颗粒物(PM2.5),221,,355,171,315,124,,104,104,17,33,16,28,1.1,1.5
2024-02-10T1700,1619A,118.295,35.0583,临沂市,鲁南制药厂,细颗粒物(PM2.5),225,,347,175,316,138,,118,118,20,37,20,37,1.5,2
2024-02-10T1700,1620A,118.2794,34.9976,临沂市,新光毛纺厂,细颗粒物(PM2.5),228,180,335,178,287,133,,111,111,19,36,19,24,1.4,1.8
2024-02-10T1700,1621A,118.3956,35.0888,临沂市,河东保险公司,细颗粒物(PM2.5),203,173,416,153,369,142,,114,114,18,40,15,20,1.4,1.8
2024-02-10T1700,3370A,118.3564,35.0215,临沂市,十里堡居委,细颗粒物(PM2.5),203,180,381,153,326,138,,116,116,23,41,16,35,1.5,1.8
2024-02-10T1700,3496A,118.3604,35.1084,临沂市,南坊新区,细颗粒物(PM2.5),206,180,331,156,289,145,,119,119,28,34,16,21,1.4,1.6
2024-02-10T1700,3860A,118.3920,35.0300,临沂市,皇山花园小区,细颗粒物(PM2.5),173,168,362,131,275,,,108,108,27,39,17,30,1.5,1.8
2024-02-10T1700,1870A,109.4856,24.3895,柳州市,柳东小学,,33,,64,23,61,83,,71,71,5,9,7,15,0.4,0.5
2024-02-10T1700,1871A,109.4157,24.3277,柳州市,环保监测站,,31,31,85,20,75,83,,70,70,6,10,8,12,0.4,0.5
2024-02-10T1700,1872A,109.389,24.341,柳州市,河西水厂,,32,32,84,22,59,82,,63,63,7,13,7,14,0.4,0.7
2024-02-10T1700,1873A,109.4311,24.2921,柳州市,市四中,,49,49,68,34,51,86,,73,73,5,12,6,8,0.4,0.5
2024-02-10T1700,1874A,109.4006,24.3631,柳州市,市九中,,49,41,108,34,80,76,,66,66,9,12,9,11,0.7,0.7
2024-02-10T1700,1875A,109.4958,24.3134,柳州市,古亭山,,39,37,50,27,40,79,,69,69,5,6,7,9,0.5,0.6
2024-02-10T1700,3402A,109.5422,24.3996,柳州市,市二中,,,22,61,15,48,,,66,66,6,8,6,8,0.6,0.7
2024-02-10T1700,2307A,116.5079,31.737,六安市,监测大楼,细颗粒物(PM2.5),57,51,78,40,82,97,,92,92,10,14,5,10,0.8,0.8
2024-02-10T1700,2308A,116.4738,31.7643,六安市,皖西学院,细颗粒物(PM2.5),52,48,102,36,95,99,,93,93,8,15,4,12,0.7,0.7
2024-02-10T1700,2309A,116.4996,31.7905,六安市,朝阳厂,细颗粒物(PM2.5),55,39,89,39,96,96,,86,86,5,12,6,11,0.6,0.7
2024-02-10T1700,2310A,116.5567,31.7886,六安市,开发区,,46,46,115,32,88,96,,83,83,10,16,7,7,0.7,0.7
2024-02-10T1700,2577A,104.83,26.5917,六盘水市,黄土坡,,33,16,66,8,53,105,,94,94,3,12,8,16,0.3,0.7
2024-02-10T1700,2578A,104.89,26.5939,六盘水市,水钢,,35,17,60,4,44,109,,91,91,1,24,4,33,0.2,1.5
2024-02-10T1700,2579A,104.8475,26.5894,六盘水市,民中,,33,14,73,7,67,104,,94,94,4,19,6,19,0.3,0.7
2024-02-10T1700,2580A,104.9544,26.5506,六盘水市,双水,,34,14,69,13,54,106,,91,91,3,12,7,13,0.2,0.8
2024-02-10T1700,2336A,117.0217,25.1033,龙岩市,龙岩市监测站,,27,20,53,6,51,85,,74,74,2,4,3,19,0.3,0.4
2024-02-10T1700,2337A,117.0258,25.0661,龙岩市,闽西职业技术学院,,27,17,55,8,56,86,,74,74,1,4,3,16,0.4,0.6
2024-02-10T1700,2338A,117.0196,25.0306,龙岩市,龙岩学院,,26,21,48,8,41,81,,66,66,3,5,4,11,0.4,0.6
2024-02-10T1700,2885A,104.9339,33.3826,陇南市,滨江中学,,45,45,201,20,161,80,,65,65,8,34,3,42,0.4,1.4
2024-02-10T1700,3247A,104.955,33.371,陇南市,市总工会,,29,29,139,13,102,90,,71,71,3,22,3,24,0.3,0.8
2024-02-10T1700,2487A,111.9589,27.8901,娄底市,电视发射台,细颗粒物(PM2.5),199,179,90,149,69,74,,62,62,31,8,24,7,2.7,1
2024-02-10T1700,2488A,111.9975,27.725,娄底市,市监测站,细颗粒物(PM2.5),183,165,494,138,419,102,,50,50,14,39,25,20,1.0,2.9
2024-02-10T1700,2489A,112.0194,27.7314,娄底市,市委党校,细颗粒物(PM2.5),189,168,420,142,350,84,,38,38,16,33,18,13,0.7,2
2024-02-10T1700,2490A,111.9561,27.7569,娄底市,涟钢,细颗粒物(PM2.5),206,188,404,156,342,86,,36,36,19,25,26,15,1.3,2
2024-02-10T1700,2491A,111.9892,27.7044,娄底市,市政府,细颗粒物(PM2.5),209,183,425,159,341,95,,52,52,11,24,17,11,0.8,1.6
2024-02-10T1700,1893A,105.4324,28.9634,泸州市,九狮山,细颗粒物(PM2.5),80,87,167,59,118,115,,73,73,6,11,10,9,0.4,0.5
2024-02-10T1700,1894A,105.4427,28.9063,泸州市,小市上码头,细颗粒物(PM2.5),75,56,93,55,99,96,,63,63,9,14,7,9,0.6,0.8
2024-02-10T1700,1895A,105.4241,28.8573,泸州市,兰田宪桥,细颗粒物(PM2.5),75,73,133,55,120,99,,64,64,9,18,7,7,0.5,0.8
2024-02-10T1700,1896A,105.4379,28.8833,泸州市,市环监站,细颗粒物(PM2.5),84,78,114,62,98,95,,59,59,4,13,5,7,0.5,0.7
2024-02-10T1700,3490A,105.3617,28.7703,泸州市,纳溪区环保局,细颗粒物(PM2.5),79,71,154,58,121,101,,64,64,6,18,8,7,0.8,1.1
2024-02-10T1700,2183A,111.1406,37.5211,吕梁市,环保局,颗粒物(PM10),115,179,191,42,113,91,,65,65,11,24,4,10,0.3,0.6
2024-02-10T1700,2185A,111.1297,37.5136,吕梁市,自来水公司,颗粒物(PM10),111,172,222,42,150,97,,69,69,9,26,4,16,0.3,0.7
2024-02-10T1700,2867A,111.1283,37.51,吕梁市,马茂庄小学,颗粒物(PM10),120,190,246,44,146,92,,65,65,8,28,1,14,0.2,0.6
2024-02-10T1700,1812A,112.3931,34.6516,洛阳市,市委党校,颗粒物(PM10),115,179,353,42,280,86,,69,69,6,30,7,41,0.3,0.8
2024-02-10T1700,1814A,112.4657,34.6871,洛阳市,豫西宾馆,颗粒物(PM10),130,210,355,51,221,94,,76,76,,45,8,35,0.1,0.5
2024-02-10T1700,1815A,112.494,34.6886,洛阳市,河南林校,颗粒物(PM10),122,193,332,46,244,96,,77,77,5,33,7,29,0.6,1
2024-02-10T1700,1816A,112.3844,34.623,洛阳市,开发区管委会,颗粒物(PM10),112,173,261,41,187,90,,74,74,2,19,4,34,0.5,0.7
2024-02-10T1700,1817A,112.4267,34.6258,洛阳市,市委新办公区,颗粒物(PM10),115,180,267,46,242,91,,75,75,5,24,4,21,0.4,0.8
2024-02-10T1700,3340A,112.6005,34.6326,洛阳市,伊滨,颗粒物(PM10),116,182,308,43,200,92,,76,76,8,22,4,20,0.4,0.7
2024-02-10T1700,3341A,112.4951,34.6332,洛阳市,中移产业园,颗粒物(PM10),125,199,264,42,214,92,,75,75,8,24,6,29,0.5,0.8
2024-02-10T1700,3593A,112.5736,34.8993,洛阳市,吉利监测站,颗粒物(PM10),115,179,124,42,68,93,,82,82,6,13,5,10,0.4,0.5
2024-02-10T1700,3635A,112.3677,34.662,洛阳市,河科大西苑校区,颗粒物(PM10),126,201,348,40,244,92,,74,74,4,33,3,38,0,0.4
2024-02-10T1700,3636A,112.4388,34.6781,洛阳市,英才小学,颗粒物(PM10),131,212,331,49,285,95,,74,74,6,33,4,39,0.4,0.9
2024-02-10T1700,2399A,114.051,33.5699,漯河市,三五一五工厂,细颗粒物(PM2.5),168,144,202,127,200,90,,81,81,15,20,14,19,0.8,0.9
2024-02-10T1700,2400A,114.0055,33.5698,漯河市,漯河大学,细颗粒物(PM2.5),149,131,164,114,161,92,,84,84,4,8,12,15,0.9,0.9
2024-02-10T1700,2401A,114.0138,33.5828,漯河市,市水利局,细颗粒物(PM2.5),149,151,199,114,178,92,,84,84,12,13,15,18,0.8,0.9
2024-02-10T1700,3478A,113.9749,33.5664,漯河市,市图书馆,细颗粒物(PM2.5),159,148,171,121,153,89,,80,80,16,16,17,18,0.7,0.7
2024-02-10T1700,3479A,114.0967,33.5906,漯河市,召陵区卫健委,细颗粒物(PM2.5),155,148,232,118,199,94,,82,82,13,16,13,21,0.8,0.8
2024-02-10T1700,1798A,118.5092,31.6837,马鞍山市,湖东路四小,细颗粒物(PM2.5),74,84,146,54,105,110,,109,109,16,23,12,15,0.8,1.1
2024-02-10T1700,1799A,118.5024,31.6449,马鞍山市,开发区,细颗粒物(PM2.5),77,70,126,56,112,115,,110,110,20,25,9,12,0.7,1
2024-02-10T1700,1800A,118.5228,31.7231,马鞍山市,慈湖,细颗粒物(PM2.5),78,67,134,57,114,107,,104,104,20,30,9,13,0.6,0.9
2024-02-10T1700,1802A,118.6245,31.7241,马鞍山市,濮塘,颗粒物(PM10),55,59,68,31,53,100,,102,102,11,12,8,11,0.6,0.8
2024-02-10T1700,3633A,118.4918,31.6809,马鞍山市,雨山,细颗粒物(PM2.5),75,69,149,55,116,113,,111,111,19,28,13,17,0.5,0.9
2024-02-10T1700,1686A,111.0286,21.4688,茂名市,电白南海,细颗粒物(PM2.5),70,68,105,51,81,84,,66,66,9,11,14,20,0.8,1.1
2024-02-10T1700,1687A,110.9294,21.6533,茂名市,茂石化七小,,49,44,75,34,68,83,,69,69,9,11,14,18,1.0,1.3
2024-02-10T1700,1688A,110.9107,21.6687,茂名市,健康路,,45,41,70,31,58,78,,65,65,8,9,9,18,0.9,1.1
2024-02-10T1700,1689A,110.8592,21.6828,茂名市,高岭,细颗粒物(PM2.5),62,,72,44,65,76,,61,61,6,8,12,22,0.7,0.8
2024-02-10T1700,3450A,111.01,21.5165,茂名市,电白水东,细颗粒物(PM2.5),62,56,83,44,70,83,,69,69,7,10,9,13,0.8,0.9
2024-02-10T1700,2539A,104.0308,30.0478,眉山市,黑龙滩水库,细颗粒物(PM2.5),80,73,74,59,54,127,,101,101,5,4,4,7,0.7,0.7
2024-02-10T1700,2540A,103.8416,30.0874,眉山市,气象局,细颗粒物(PM2.5),67,61,173,48,165,122,,84,84,8,21,11,19,0.8,0.9
2024-02-10T1700,3137A,103.8578,30.0744,眉山市,市委党校,细颗粒物(PM2.5),77,68,164,56,140,118,,80,80,5,22,9,10,0.7,0.8
2024-02-10T1700,3148A,103.8291,30.0564,眉山市,区人社局,细颗粒物(PM2.5),83,83,177,61,180,117,,78,78,18,31,9,13,0.6,0.7
2024-02-10T1700,1690A,116.1231,24.3284,梅州市,梅江月梅,,26,20,55,18,57,83,,73,73,2,5,8,12,0.6,0.8
2024-02-10T1700,1691A,116.0797,24.2719,梅州市,梅县新城,,35,35,72,21,70,88,,78,78,5,7,6,9,0.4,0.6
2024-02-10T1700,1692A,116.1248,24.2654,梅州市,环境监控中心,,38,38,79,25,72,82,,65,65,4,9,5,7,0.5,0.7
2024-02-10T1700,3315A,116.1233,24.2991,梅州市,梅龙,,35,27,59,24,58,80,,70,70,6,8,6,9,0.5,0.7
2024-02-10T1700,1878A,104.7778,31.4741,绵阳市,富乐山,细颗粒物(PM2.5),109,94,130,82,115,119,,89,89,10,13,8,8,0.9,0.9
2024-02-10T1700,1879A,104.7563,31.4535,绵阳市,市人大,细颗粒物(PM2.5),87,106,167,64,131,110,,80,80,16,29,6,6,0.7,1
2024-02-10T1700,1880A,104.6697,31.4668,绵阳市,高新区自来水公司,细颗粒物(PM2.5),127,,179,96,155,116,,86,86,10,26,8,8,0.8,1
2024-02-10T1700,1881A,104.7287,31.5075,绵阳市,三水厂,细颗粒物(PM2.5),129,108,193,98,185,118,,81,81,8,28,7,7,0.8,1.3
2024-02-10T1700,3491A,104.69,31.5322,绵阳市,西科大附属小学,细颗粒物(PM2.5),124,100,164,94,152,120,,86,86,12,22,9,9,0.6,1
2024-02-10T1700,3492A,104.5648,31.5343,绵阳市,安州区旅游局,细颗粒物(PM2.5),127,,184,96,164,112,,86,86,12,26,7,7,0.9,1.2
2024-02-10T1700,1784A,129.61,44.561,牡丹江市,环保大楼,细颗粒物(PM2.5),72,53,216,52,166,97,,94,94,21,29,20,48,0.5,0.9
2024-02-10T1700,1785A,129.6115,44.5782,牡丹江市,文化广场,细颗粒物(PM2.5),72,69,272,52,213,86,,88,88,25,31,21,52,0.6,0.9
2024-02-10T1700,1786A,129.5904,44.5963,牡丹江市,第一医院,细颗粒物(PM2.5),67,61,309,48,261,82,,82,82,26,50,24,53,0.6,1.1
2024-02-10T1700,1787A,129.6364,44.6075,牡丹江市,机车工厂,颗粒物(PM10),63,76,201,43,155,55,,83,83,51,38,16,22,0.5,0.8
2024-02-10T1700,1788A,129.6386,44.5462,牡丹江市,第一中学,细颗粒物(PM2.5),54,41,105,38,90,93,,94,94,18,22,25,21,0.5,0.9
2024-02-10T1700,2531A,105.0703,29.61,内江市,市监测站,细颗粒物(PM2.5),70,,218,51,232,107,,72,72,10,27,9,13,0.8,1
2024-02-10T1700,2532A,105.0717,29.5947,内江市,东兴区政府,细颗粒物(PM2.5),63,47,212,45,215,106,,73,73,4,19,10,12,0.6,0.9
2024-02-10T1700,2533A,105.0653,29.5817,内江市,内江二中,细颗粒物(PM2.5),92,,232,68,248,108,,74,74,3,19,8,9,0.8,1
2024-02-10T1700,2534A,105.0406,29.5822,内江市,内江日报社,细颗粒物(PM2.5),89,,235,66,241,107,,72,72,8,28,8,10,0.8,1
2024-02-10T1700,2628A,92.0657,31.4846,那曲市,那曲监测站,,29,11,41,3,28,90,,71,71,5,11,5,9,0.5,1
2024-02-10T1700,3128A,92.0506,31.4797,那曲市,那曲会议中心,,31,8,40,1,24,99,,79,79,1,14,6,9,0.3,0.8
2024-02-10T1700,1290A,115.8931,28.6843,南昌市,省外办,细颗粒物(PM2.5),100,84,146,75,126,94,,79,79,7,14,8,8,0.8,0.9
2024-02-10T1700,1291A,115.8886,28.7003,南昌市,省林业公司,细颗粒物(PM2.5),94,78,123,70,109,93,,77,77,16,16,6,8,0.9,1
2024-02-10T1700,1292A,115.8126,28.7442,南昌市,林科所,细颗粒物(PM2.5),79,68,85,58,75,99,,85,85,3,10,9,9,0.7,0.8
2024-02-10T1700,1294A,115.8518,28.687,南昌市,建工学校,细颗粒物(PM2.5),99,88,156,74,123,95,,78,78,8,14,8,9,0.8,0.8
2024-02-10T1700,1295A,115.8921,28.6424,南昌市,象湖,细颗粒物(PM2.5),82,86,173,60,137,107,,84,84,8,16,7,9,0.8,0.9
2024-02-10T1700,1296A,115.7423,28.7996,南昌市,武术学校,,50,,38,35,43,89,,78,78,7,5,11,8,0.8,0.9
2024-02-10T1700,1298A,115.9314,28.6842,南昌市,省站,细颗粒物(PM2.5),98,90,170,73,133,96,,81,81,7,18,9,11,0.8,0.9
2024-02-10T1700,3046A,115.9084,28.6062,南昌市,机电学校,细颗粒物(PM2.5),79,66,207,58,180,106,,82,82,4,13,8,13,1.0,1.1
2024-02-10T1700,3690A,115.9721,28.7031,南昌市,外国语学校,细颗粒物(PM2.5),92,68,155,68,150,91,,76,76,10,19,6,10,0.5,0.7
2024-02-10T1700,1905A,106.056,30.8064,南充市,西山风景区,细颗粒物(PM2.5),78,,142,57,146,109,,76,76,8,19,3,6,0.8,1
2024-02-10T1700,1906A,106.0789,30.8023,南充市,南充市委,细颗粒物(PM2.5),67,57,194,48,168,101,,63,63,10,29,5,6,0.5,0.9
2024-02-10T1700,1907A,106.1031,30.8217,南充市,南充炼油厂,细颗粒物(PM2.5),77,69,196,56,169,104,,63,63,7,23,6,6,0.5,0.7
2024-02-10T1700,1908A,106.1064,30.7856,南充市,高坪区监测站,细颗粒物(PM2.5),79,82,171,58,137,104,,72,72,7,24,7,7,0.6,0.8
2024-02-10T1700,1909A,106.0642,30.7636,南充市,嘉陵区环保局,细颗粒物(PM2.5),70,62,193,51,174,99,,68,68,11,29,3,4,0.8,1
2024-02-10T1700,1910A,106.1087,30.8388,南充市,市环境监测站,细颗粒物(PM2.5),72,76,181,52,146,108,,76,76,10,27,7,8,0.6,0.8
2024-02-10T1700,1151A,118.8086,32.1065,南京市,迈皋桥,细颗粒物(PM2.5),79,74,127,58,104,94,,83,83,9,26,4,6,0.7,0.9
2024-02-10T1700,1152A,118.7538,32.0551,南京市,草场门,细颗粒物(PM2.5),85,78,126,63,103,115,,100,100,16,29,7,9,0.7,0.9
2024-02-10T1700,1153A,118.7794,32.0745,南京市,山西路,细颗粒物(PM2.5),79,70,118,58,104,83,,76,76,20,31,8,11,0.7,1
2024-02-10T1700,1154A,118.7752,32.0023,南京市,中华门,细颗粒物(PM2.5),73,68,126,53,112,111,,99,99,8,28,12,16,0.8,1.1
2024-02-10T1700,1155A,118.8109,32.0309,南京市,瑞金路,,,73,143,56,119,102,,90,90,13,34,4,8,,1.5
2024-02-10T1700,1156A,118.7997,32.0754,南京市,玄武湖,细颗粒物(PM2.5),74,75,136,54,101,111,,95,95,10,21,12,14,0.4,0.9
2024-02-10T1700,1157A,118.6414,32.0931,南京市,浦口,细颗粒物(PM2.5),57,55,137,40,87,105,,91,91,15,20,8,10,0.6,0.8
2024-02-10T1700,1158A,118.7356,31.9996,南京市,奥体中心,细颗粒物(PM2.5),73,73,137,53,111,115,,98,98,9,28,11,15,0.8,1.3
2024-02-10T1700,1159A,118.9125,32.1028,南京市,仙林大学城,细颗粒物(PM2.5),67,70,119,48,98,109,,97,97,11,24,8,12,0.8,1.4
2024-02-10T1700,3422A,118.8436,31.9198,南京市,江宁彩虹桥,颗粒物(PM10),61,72,151,41,116,118,,110,110,7,18,7,11,0.7,0.9
2024-02-10T1700,3423A,119.0138,31.6494,南京市,溧水永阳,细颗粒物(PM2.5),82,61,150,60,143,118,,106,106,12,16,4,5,0.7,0.9
2024-02-10T1700,3424A,118.879,31.3302,南京市,高淳老职中,细颗粒物(PM2.5),68,52,134,49,133,116,,103,103,6,13,8,11,0.5,0.8
2024-02-10T1700,3427A,118.8554,32.3578,南京市,六合雄州,细颗粒物(PM2.5),77,88,141,56,105,111,,103,103,11,15,5,7,0.8,0.9
2024-02-10T1700,1401A,108.3103,22.7881,南宁市,二十一中,细颗粒物(PM2.5),54,,152,38,143,90,,77,77,7,19,8,15,0.7,0.7
2024-02-10T1700,1402A,108.3141,22.8528,南宁市,北湖,,49,,166,34,160,88,,78,78,2,15,6,14,0.7,0.8
2024-02-10T1700,1403A,108.3206,22.8225,南宁市,市监测站,细颗粒物(PM2.5),63,,123,45,93,89,,79,79,6,20,8,12,0.9,0.9
2024-02-10T1700,1404A,108.3829,22.8037,南宁市,大自然花园,细颗粒物(PM2.5),57,,110,40,97,86,,73,73,8,16,7,9,0.6,0.6
2024-02-10T1700,1405A,108.4394,22.7904,南宁市,仙葫,细颗粒物(PM2.5),60,,250,43,224,81,,69,69,10,20,8,16,0.7,0.9
2024-02-10T1700,1406A,108.2397,22.8467,南宁市,区农职院,细颗粒物(PM2.5),58,43,87,41,68,90,,79,79,8,14,9,12,0.4,0.5
2024-02-10T1700,1407A,108.3275,22.735,南宁市,英华嘉园,细颗粒物(PM2.5),53,42,137,37,124,83,,71,71,8,16,7,11,0.6,0.6
2024-02-10T1700,1408A,108.2257,22.7757,南宁市,沙井镇街道办,细颗粒物(PM2.5),57,,81,40,66,88,,75,75,4,12,2,5,0.6,0.6
2024-02-10T1700,3401A,108.4834,22.7618,南宁市,红星社区,,46,41,236,32,219,85,,74,74,7,16,9,27,0.7,0.8
2024-02-10T1700,2332A,118.1681,26.6369,南平市,南平市监测站,细颗粒物(PM2.5),57,41,109,40,106,81,,62,62,6,9,8,28,0.8,0.8
2024-02-10T1700,2333A,118.1825,26.6489,南平市,南平铝业有限公司,细颗粒物(PM2.5),52,38,128,36,104,72,,57,57,6,8,9,23,0.6,0.6
2024-02-10T1700,2334A,118.1756,26.6272,南平市,南平七中,,,,79,32,91,,,64,64,6,4,6,21,0.6,0.9
2024-02-10T1700,1168A,120.9098,31.9663,南通市,狼山街道,细颗粒物(PM2.5),103,93,171,77,159,95,,96,96,44,30,19,13,1.3,1.3
2024-02-10T1700,1169A,120.86,32.0005,南通市,虹桥,细颗粒物(PM2.5),100,96,189,75,171,111,,91,91,24,33,10,15,0.9,1.2
2024-02-10T1700,1170A,120.87,32.02,南通市,城中,细颗粒物(PM2.5),107,103,195,80,162,114,,100,100,23,31,11,16,1.0,1.5
2024-02-10T1700,1171A,120.94,31.93,南通市,星湖花园,细颗粒物(PM2.5),102,93,157,76,130,82,,91,91,53,31,14,14,1.0,1.2
2024-02-10T1700,1172A,120.81,32.0417,南通市,紫琅学院,细颗粒物(PM2.5),87,83,195,64,167,122,,107,107,16,30,11,15,0.9,1.2
2024-02-10T1700,3291A,121.067,32.062,南通市,通州监测站,细颗粒物(PM2.5),119,112,112,90,90,,,,,18,18,77,77,2.4,2.4
2024-02-10T1700,3432A,120.9348,31.9883,南通市,环境教育馆,细颗粒物(PM2.5),104,92,168,78,152,109,,99,99,38,32,17,15,1.2,1.2
2024-02-10T1700,2404A,112.5224,33.0122,南阳市,瓦房庄,细颗粒物(PM2.5),165,126,185,125,193,90,,72,72,13,17,14,27,0.6,0.7
2024-02-10T1700,2405A,112.5003,32.9735,南阳市,汉画馆,细颗粒物(PM2.5),145,134,193,111,184,83,,72,72,,17,,20,0.8,1
2024-02-10T1700,2406A,112.5573,33.027,南阳市,气象站,细颗粒物(PM2.5),163,126,173,124,185,90,,73,73,22,22,14,22,0.6,0.8
2024-02-10T1700,2407A,112.5481,32.9689,南阳市,理工学院,细颗粒物(PM2.5),139,119,177,106,174,90,,74,74,11,14,13,26,0.7,0.8
2024-02-10T1700,4008A,112.5234,32.9922,南阳市,卧龙区政府,细颗粒物(PM2.5),145,127,184,111,176,80,,70,70,26,20,12,27,0.7,0.8
2024-02-10T1700,1234A,121.8358,29.911,宁波市,区环保大楼,细颗粒物(PM2.5),72,62,147,52,118,109,,101,101,8,19,8,9,0.6,0.9
2024-02-10T1700,1235A,121.56,29.82,宁波市,万里学院,细颗粒物(PM2.5),83,69,123,61,101,110,,96,96,24,20,8,7,0.5,0.8
2024-02-10T1700,1236A,121.713,29.9572,宁波市,龙赛医院,细颗粒物(PM2.5),84,70,192,62,161,90,,98,98,36,23,10,7,0.7,0.9
2024-02-10T1700,1239A,121.633,29.7733,宁波市,钱湖水厂,细颗粒物(PM2.5),54,45,97,38,81,106,,94,94,7,7,6,5,0.7,1
2024-02-10T1700,1240A,121.5856,29.8635,宁波市,太古小学,细颗粒物(PM2.5),85,,110,63,99,107,,97,97,25,22,9,7,0.6,1
2024-02-10T1700,1241A,121.524,29.8674,宁波市,市环境监测中心,细颗粒物(PM2.5),78,70,129,57,96,118,,99,99,21,23,9,8,0.8,0.9
2024-02-10T1700,2871A,121.6147,29.9017,宁波市,万里国际学校,细颗粒物(PM2.5),82,68,117,60,105,108,,100,100,24,20,10,9,0.7,1
2024-02-10T1700,3710A,121.5594,29.8975,宁波市,白沙活动中心,细颗粒物(PM2.5),87,74,146,64,116,108,,96,96,22,25,10,7,0.8,1.1
2024-02-10T1700,2341A,119.5388,26.6612,宁德市,宁德市监测站,细颗粒物(PM2.5),65,53,107,47,95,92,,75,75,7,10,6,14,0.5,0.7
2024-02-10T1700,3209A,119.5231,26.6562,宁德市,宁德一中,细颗粒物(PM2.5),67,53,104,48,85,86,,78,78,10,13,6,17,0.6,0.8
2024-02-10T1700,2618A,98.8601,25.8567,怒江傈僳族自治州,州监测站,,30,28,47,11,35,94,,75,75,3,6,9,11,0.4,0.5
2024-02-10T1700,2619A,98.8546,25.8417,怒江傈僳族自治州,泸水一中,,30,30,68,21,63,87,,69,69,6,11,9,12,0.4,0.5
2024-02-10T1700,1888A,101.6891,26.571,攀枝花市,弄弄坪,,35,28,41,24,31,108,,90,90,14,16,18,20,1.2,0.8
2024-02-10T1700,1889A,101.5769,26.5928,攀枝花市,河门口,,34,29,57,20,35,108,,85,85,8,21,8,41,0.5,1.6
2024-02-10T1700,1890A,101.7169,26.585,攀枝花市,炳草岗,,37,,35,18,24,117,,90,90,8,13,25,34,1.2,0.9
2024-02-10T1700,1891A,101.7369,26.5008,攀枝花市,仁和,,34,31,48,22,39,107,,87,87,5,12,8,17,0.7,0.8
2024-02-10T1700,2835A,101.7227,26.567,攀枝花市,四十中小,,37,27,28,20,18,117,,96,96,6,10,12,31,0.7,0.7
2024-02-10T1700,1604A,122.0303,41.1489,盘锦市,开发区,细颗粒物(PM2.5),87,87,226,64,192,97,,89,89,12,30,13,25,0.5,1.3
2024-02-10T1700,1605A,122.0485,41.0883,盘锦市,兴隆台,细颗粒物(PM2.5),138,111,293,105,252,94,,86,86,14,35,15,36,0.8,1.5
2024-02-10T1700,1606A,121.8297,41.1028,盘锦市,新生街道,细颗粒物(PM2.5),77,83,161,56,134,90,,82,82,14,38,12,18,0.6,1.2
2024-02-10T1700,1832A,113.3257,33.742,平顶山市,新华旅馆,颗粒物(PM10),125,200,562,31,584,92,,74,74,1,32,6,35,0.1,0.9
2024-02-10T1700,1833A,113.2919,33.737,平顶山市,规划设计院,颗粒物(PM10),113,176,521,39,559,101,,84,84,4,23,8,31,0.3,1.2
2024-02-10T1700,1834A,113.182,33.774,平顶山市,平顶山工学院,颗粒物(PM10),120,190,226,44,163,97,,76,76,8,17,4,17,0.4,0.9
2024-02-10T1700,3204A,113.3025,33.73,平顶山市,规划局,颗粒物(PM10),141,232,242,47,553,85,,64,64,6,33,5,31,0.4,1.1
2024-02-10T1700,3594A,112.8867,33.9116,平顶山市,石龙区,颗粒物(PM10),154,257,139,38,89,97,,85,85,9,14,6,14,0.4,0.8
2024-02-10T1700,2656A,106.6692,35.5461,平凉市,聚贤嘉苑,颗粒物(PM10),56,62,96,17,28,92,,90,90,9,14,6,10,0.2,0.3
2024-02-10T1700,2657A,106.7021,35.5307,平凉市,博物馆,颗粒物(PM10),56,61,99,12,38,93,,89,89,4,13,7,15,0.0,0.5
2024-02-10T1700,2347A,114.0997,27.5002,萍乡市,武功山,细颗粒物(PM2.5),62,51,85,44,71,99,,79,79,9,9,7,10,0.9,0.7
2024-02-10T1700,2348A,113.8385,27.6434,萍乡市,中医院,细颗粒物(PM2.5),54,52,213,38,169,91,,63,63,18,25,11,15,1.6,2.3
2024-02-10T1700,2349A,113.8493,27.6253,萍乡市,市政府车库,细颗粒物(PM2.5),68,,192,49,172,91,,65,65,16,17,18,17,1.5,1.5
2024-02-10T1700,2350A,113.8676,27.6435,萍乡市,市环保局,颗粒物(PM10),53,55,230,34,197,90,,64,64,14,21,13,13,1.5,1.9
2024-02-10T1700,2351A,113.866,27.6198,萍乡市,安源区政府,颗粒物(PM10),58,65,226,38,173,92,,68,68,25,21,8,17,1.4,1.4
2024-02-10T1700,2319A,119.0141,25.4325,莆田市,荔城区仓后路,细颗粒物(PM2.5),68,51,89,49,87,103,,83,83,8,9,8,8,1.1,1.1
2024-02-10T1700,2320A,119.0015,25.4553,莆田市,莆田市监测站,细颗粒物(PM2.5),59,49,52,42,47,104,,81,81,11,9,11,9,0.8,0.7
2024-02-10T1700,2321A,119.1119,25.4561,莆田市,涵江区六中,细颗粒物(PM2.5),64,54,102,46,99,102,,84,84,5,9,9,10,1.0,1.1
2024-02-10T1700,2322A,119.1013,25.3215,莆田市,秀屿区政府,细颗粒物(PM2.5),58,,86,41,90,105,,89,89,5,9,6,9,0.9,1
2024-02-10T1700,2392A,115.0312,35.7636,濮阳市,环保局,细颗粒物(PM2.5),231,243,495,181,374,106,,91,91,15,33,10,29,0.9,1.1
2024-02-10T1700,2394A,115.0574,35.7609,濮阳市,油田运输公司,细颗粒物(PM2.5),249,236,436,199,364,110,,94,94,11,27,13,34,1.2,1.4
2024-02-10T1700,2395A,115.0866,35.7754,濮阳市,油田物探公司,细颗粒物(PM2.5),258,247,425,208,363,103,,88,88,14,28,10,26,1.1,1.3
2024-02-10T1700,3021A,115,35.7668,濮阳市,濮水河管理处,细颗粒物(PM2.5),243,242,496,193,390,107,,89,89,13,33,13,17,1.1,1.2
2024-02-10T1700,2601A,100.98,22.7633,普洱市,市环保局,,38,34,61,26,48,50,,55,43,5,6,5,8,0.7,0.6
2024-02-10T1700,2602A,100.9817,22.8322,普洱市,普洱第二中学,,31,31,70,5,45,57,,46,46,4,13,4,7,0.8,0.8
2024-02-10T1700,2262A,131.0518,45.8751,七台河市,新一中,细颗粒物(PM2.5),99,,80,74,70,126,,114,114,12,13,15,13,1.0,0.9
2024-02-10T1700,3345A,131.0577,45.7879,七台河市,中波台,细颗粒物(PM2.5),89,75,136,66,119,96,,89,89,32,32,20,19,1.0,1.2
2024-02-10T1700,3637A,131.0176,45.7761,七台河市,人民广场,细颗粒物(PM2.5),129,112,403,98,241,84,,84,84,45,41,40,55,1.3,1.3
2024-02-10T1700,3684A,130.8781,45.8222,七台河市,新建矿广场,细颗粒物(PM2.5),104,105,144,78,115,110,,100,100,25,37,19,19,0.9,1.1
2024-02-10T1700,1779A,123.9305,47.3636,齐齐哈尔市,安居小区,,46,46,191,16,88,69,,73,73,15,19,11,22,0.5,0.6
2024-02-10T1700,1780A,123.9488,47.3386,齐齐哈尔市,中心广场,细颗粒物(PM2.5),54,44,231,38,170,67,,69,69,14,21,12,25,0.5,0.8
2024-02-10T1700,1781A,123.9483,47.3227,齐齐哈尔市,农牧车辆厂,,46,46,119,29,160,70,,72,72,10,17,19,26,0.5,0.6
2024-02-10T1700,1783A,123.945,47.2988,齐齐哈尔市,市环境监测站,,49,49,225,30,212,74,,74,74,10,22,11,25,0.5,0.6
2024-02-10T1700,3662A,123.6333,47.2075,齐齐哈尔市,富区青少年活动中心,,37,37,184,17,146,70,,67,67,8,19,11,30,0.4,0.7
2024-02-10T1700,2591A,107.9783,26.5747,黔东南苗族侗族自治州,市环境监测站,细颗粒物(PM2.5),53,,195,37,173,100,,58,58,5,16,7,24,0.2,0.7
2024-02-10T1700,2881A,107.8908,26.5311,黔东南苗族侗族自治州,凯里学院,细颗粒物(PM2.5),65,48,112,47,91,106,,60,60,2,8,6,10,0.5,0.8
2024-02-10T1700,2593A,107.5228,26.2403,黔南布依族苗族自治州,小围寨,细颗粒物(PM2.5),55,46,122,39,115,91,,55,55,5,10,6,10,0.1,0.6
2024-02-10T1700,3538A,107.5175,26.2978,黔南布依族苗族自治州,沙坝,,32,31,145,22,134,96,,58,58,2,9,4,15,0.2,0.8
2024-02-10T1700,2589A,104.9022,25.0925,黔西南布依族苗族自治州,场坝街,,49,37,109,34,104,104,,80,80,4,12,2,10,0.4,0.8
2024-02-10T1700,2590A,104.8811,25.0992,黔西南布依族苗族自治州,坪东大道,,40,28,122,28,112,102,,79,79,6,13,5,8,0.4,0.6
2024-02-10T1700,2502A,108.6236,21.9667,钦州市,市环保站,,34,34,96,22,78,82,,76,76,6,12,8,17,1.0,1.2
2024-02-10T1700,2503A,108.6549,21.9481,钦州市,沙埠小学,,45,36,110,31,95,84,,76,76,6,10,8,16,0.8,0.9
2024-02-10T1700,2504A,108.5989,21.7431,钦州市,港区一小,细颗粒物(PM2.5),53,45,110,37,82,85,,77,77,8,13,8,18,0.7,0.8
2024-02-10T1700,3404A,108.5959,21.9633,钦州市,北职校,细颗粒物(PM2.5),52,,98,36,84,83,,76,76,5,8,8,17,0.8,0.8
2024-02-10T1700,1042A,119.5134,39.8207,秦皇岛市,北戴河环保局,细颗粒物(PM2.5),143,138,203,109,164,85,,81,81,22,41,15,17,0.5,2.3
2024-02-10T1700,1043A,119.7493,40.0116,秦皇岛市,第一关,细颗粒物(PM2.5),120,118,91,91,74,89,,87,87,14,22,17,19,0.5,0.8
2024-02-10T1700,1044A,119.5897,39.9499,秦皇岛市,监测站,细颗粒物(PM2.5),148,139,234,113,209,91,,82,82,15,43,19,25,0.7,1.4
2024-02-10T1700,1046A,119.5251,39.9041,秦皇岛市,建设大厦,细颗粒物(PM2.5),148,140,234,113,166,89,,83,83,10,29,15,21,0.5,1.2
2024-02-10T1700,3132A,119.610547,39.943889,秦皇岛市,文明里,细颗粒物(PM2.5),147,152,348,112,244,86,,77,77,19,50,18,30,0.6,1.4
2024-02-10T1700,1307A,120.6659,36.2403,青岛市,仰口,细颗粒物(PM2.5),201,171,193,151,167,124,,119,119,33,27,6,11,1.6,1.5
2024-02-10T1700,1310A,120.4134,36.0658,青岛市,市南区东部子站,细颗粒物(PM2.5),128,119,383,97,324,113,,95,95,17,40,12,25,1.1,1.6
2024-02-10T1700,1311A,120.3664,36.1032,青岛市,四方区子站,细颗粒物(PM2.5),138,119,383,105,378,116,,98,98,28,53,11,32,1.3,2
2024-02-10T1700,1312A,120.2994,36.054,青岛市,市南区西部子站,细颗粒物(PM2.5),123,122,273,93,223,110,,100,100,18,35,12,16,1.2,1.7
