timepoint,stationcode,longitude,latitude,area,positionname,primarypollutant,aqi,pm10,pm10_24h,pm2_5,pm2_5_24h,o3,o3_24h,o3_8h,o3_8h_24h,no2,no2_24h,so2,so2_24h,co,co_24h
2024-02-10T1900,2566A,102.1879,31.914,阿坝藏族羌族自治州,州农科所,,10,8,22,5,10,29,,29,29,4,5,6,6,0.7,0.8
2024-02-10T1900,2568A,102.2502,31.8896,阿坝藏族羌族自治州,马师校,,23,16,14,6,11,72,,81,81,5,2,4,3,0.6,0.5
2024-02-10T1900,3994A,102.2165,31.9024,阿坝藏族羌族自治州,马尔康中学西区,,24,12,12,10,8,74,,78,78,2,2,5,4,0.4,0.4
2024-02-10T1900,2695A,80.292,41.1694,阿克苏地区,电视台,颗粒物(PM10),63,75,180,30,117,97,,78,78,12,42,7,36,0.7,1.6
2024-02-10T1900,2696A,80.2613,41.1551,阿克苏地区,艺术中心,,,,155,,105,92,,74,74,,41,5,26,1.0,1.7
2024-02-10T1900,2204A,105.6467,38.8363,阿拉善盟,西城区西花园,,45,45,174,13,52,93,,95,95,4,7,8,11,0.5,0.5
2024-02-10T1900,2205A,105.6985,38.8411,阿拉善盟,蒙二幼,,33,33,190,15,54,87,,91,91,8,9,6,10,0.4,0.4
2024-02-10T1900,2206A,105.724,38.8516,阿拉善盟,环保局新楼,,43,43,159,13,42,89,,93,92,9,8,6,8,0.5,0.5
2024-02-10T1900,2708A,88.1264,47.8517,阿勒泰地区,市站,,25,,60,7,52,79,,79,79,10,20,4,10,0.1,0.2
2024-02-10T1900,2630A,80.1161,32.5,阿里地区,阿里监测站,,,1,17,0,7,,,75,75,1,9,5,19,0.4,0.5
2024-02-10T1900,3192A,80.0903,32.5028,阿里地区,阿里藏医院,,29,4,19,3,9,92,,81,81,1,8,4,14,0.4,0.5
2024-02-10T1900,2642A,109.0318,32.6537,安康市,香溪洞,细颗粒物(PM2.5),87,74,135,64,108,93,,82,82,5,10,8,13,0.7,0.9
2024-02-10T1900,2643A,109.0281,32.6939,安康市,安康市监测站,细颗粒物(PM2.5),127,111,242,96,206,38,,66,66,42,25,12,21,1.5,1.3
2024-02-10T1900,2644A,109.0072,32.6975,安康市,汉滨区检察院,细颗粒物(PM2.5),117,98,188,88,157,75,,75,75,18,17,9,12,0.8,1
2024-02-10T1900,2291A,117.0809,30.5177,安庆市,环科院,细颗粒物(PM2.5),64,52,137,46,111,79,,98,98,16,12,9,19,0.7,1
2024-02-10T1900,2292A,117.0331,30.5119,安庆市,马山宾馆,细颗粒物(PM2.5),69,50,188,50,155,88,,96,96,18,27,9,18,0.5,1
2024-02-10T1900,2294A,116.9896,30.6145,安庆市,安庆大学,细颗粒物(PM2.5),69,54,166,50,141,96,,102,102,13,18,9,17,0.7,1
2024-02-10T1900,3173A,117.0598,30.5351,安庆市,市人大,细颗粒物(PM2.5),65,53,149,47,120,85,,97,97,16,18,10,14,0.6,1
2024-02-10T1900,3123A,105.9408,26.2431,安顺市,凤凰山,,31,31,149,19,136,93,,98,98,12,21,28,52,0.3,0.8
2024-02-10T1900,3124A,105.9439,26.2564,安顺市,金钟山,,31,28,84,15,74,99,,97,97,6,12,20,40,0.3,0.7
2024-02-10T1900,3125A,105.8983,26.2481,安顺市,娄家坡,,30,24,112,20,100,95,,98,98,6,13,26,39,0.4,0.7
2024-02-10T1900,1819A,114.3551,36.1017,安阳市,红庙街,细颗粒物(PM2.5),351,356,329,301,265,88,,110,110,19,32,12,31,1.5,1.6
2024-02-10T1900,1820A,114.361,36.0681,安阳市,银杏小区,细颗粒物(PM2.5),446,,382,419,316,88,,111,111,15,30,11,36,2.0,2
2024-02-10T1900,3141A,114.3922,36.0878,安阳市,信访局,细颗粒物(PM2.5),443,,312,414,272,95,,117,116,20,29,10,31,1.3,1.4
2024-02-10T1900,3669A,114.4705,36.0637,安阳市,左辅环卫站,细颗粒物(PM2.5),384,392,324,334,276,83,,102,102,25,28,10,28,1.6,1.6
2024-02-10T1900,3703A,114.2917,36.0949,安阳市,安钢职工学校,细颗粒物(PM2.5),355,384,414,305,314,90,,112,112,30,38,14,43,1.3,1.6
2024-02-10T1900,1748A,123.044,41.1196,鞍山市,深沟寺,,46,46,569,31,459,71,,70,70,17,47,14,58,0.9,1.8
2024-02-10T1900,1749A,123.011,41.0931,鞍山市,太阳城,细颗粒物(PM2.5),69,85,582,50,485,67,,74,74,23,41,18,85,1.0,1.6
2024-02-10T1900,1750A,123.0485,41.1442,鞍山市,太平,细颗粒物(PM2.5),166,192,556,126,461,22,,72,66,67,44,27,117,1.7,2.2
2024-02-10T1900,1751A,122.9642,41.0971,鞍山市,铁西三道街,细颗粒物(PM2.5),87,109,816,64,659,32,,71,70,55,49,15,114,1.0,2.2
2024-02-10T1900,1752A,122.9341,41.0833,鞍山市,铁西工业园区,细颗粒物(PM2.5),278,267,516,228,474,25,,77,74,77,48,20,47,2.6,2.4
2024-02-10T1900,1753A,123.022,41.0821,鞍山市,明达新区,细颗粒物(PM2.5),144,160,587,110,554,45,,66,64,39,44,28,89,1.2,2
2024-02-10T1900,2195A,107.4212,40.761,巴彦淖尔市,附二中,,37,37,144,17,49,86,,91,91,7,7,4,6,0.4,0.5
2024-02-10T1900,2196A,107.37,40.7372,巴彦淖尔市,市环保大楼,,46,46,142,21,42,85,,92,92,6,7,4,5,0.3,0.4
2024-02-10T1900,1956A,86.1472,41.7538,巴音郭楞蒙古自治州,孔雀公园,,,,114,,39,97,,83,83,,17,4,8,,0.6
2024-02-10T1900,1957A,86.1972,41.7166,巴音郭楞蒙古自治州,棉纺厂,颗粒物(PM10),115,179,142,33,45,93,,83,83,5,23,3,8,0.4,0.6
2024-02-10T1900,1958A,86.2357,41.7173,巴音郭楞蒙古自治州,经济开发区,颗粒物(PM10),122,194,115,24,31,94,,87,87,8,11,6,6,0.4,0.5
2024-02-10T1900,2914A,106.7677,31.8794,巴中市,苏山坪,细颗粒物(PM2.5),90,85,123,67,99,93,,88,88,12,11,4,8,0.7,0.8
2024-02-10T1900,3182A,106.7656,31.8545,巴中市,丽阳花园,细颗粒物(PM2.5),113,104,170,85,150,42,,69,69,67,24,6,6,1.5,1.2
2024-02-10T1900,3183A,106.7418,31.8654,巴中市,圣泉水务公司,细颗粒物(PM2.5),110,94,150,83,142,60,,76,76,31,22,5,6,1.0,1.1
2024-02-10T1900,3616A,106.7616,31.8344,巴中市,市中心医院,细颗粒物(PM2.5),110,97,182,83,149,51,,75,75,34,20,6,6,1.0,1.2
2024-02-10T1900,2235A,122.7911,45.6077,白城市,洮北区环保局,细颗粒物(PM2.5),52,45,121,36,121,66,,84,80,9,13,7,16,0.4,0.6
2024-02-10T1900,2236A,122.8738,45.5725,白城市,市环保局,,43,43,141,20,127,58,,80,77,9,16,5,10,0.4,0.7
2024-02-10T1900,2231A,126.4219,41.9171,白山市,喜丰,细颗粒物(PM2.5),60,65,475,43,350,71,,79,79,15,32,18,69,1.1,1.4
2024-02-10T1900,2232A,126.4077,41.9419,白山市,环保局,细颗粒物(PM2.5),147,155,474,112,370,39,,73,72,44,39,24,63,1.5,1.5
2024-02-10T1900,2647A,104.1724,36.5446,白银市,第三小学,颗粒物(PM10),84,117,444,31,67,77,,84,84,17,18,19,39,0.4,0.5
2024-02-10T1900,2648A,104.1465,36.5482,白银市,动力公司,颗粒物(PM10),81,112,393,31,68,81,,90,90,17,15,18,25,0.5,0.6
2024-02-10T1900,2512A,106.6103,23.9011,百色市,市监测站,细颗粒物(PM2.5),69,65,84,50,61,57,,67,67,16,11,9,10,1.1,0.9
2024-02-10T1900,2513A,106.6538,23.8859,百色市,市中心血站,细颗粒物(PM2.5),69,,127,50,107,68,,75,75,10,15,10,19,0.9,1
2024-02-10T1900,3406A,106.6085,23.8798,百色市,祈福高中,细颗粒物(PM2.5),58,46,79,41,70,68,,72,72,6,10,8,10,0.8,0.9
2024-02-10T1900,2270A,117.396,32.939,蚌埠市,工人疗养院,细颗粒物(PM2.5),127,122,122,96,109,72,,99,96,25,13,10,11,1.0,0.8
2024-02-10T1900,2271A,117.3605,32.9427,蚌埠市,百货大楼,细颗粒物(PM2.5),127,121,118,96,106,64,,100,96,35,18,6,8,1.3,1
2024-02-10T1900,2273A,117.4185,32.8911,蚌埠市,蚌埠学院,细颗粒物(PM2.5),108,97,169,81,148,84,,100,99,12,13,9,14,1.0,1
2024-02-10T1900,2274A,117.3533,32.9673,蚌埠市,淮上区政府,细颗粒物(PM2.5),117,117,123,88,107,78,,101,100,20,16,8,11,1.0,0.9
2024-02-10T1900,2275A,117.3145,32.8977,蚌埠市,高新区,细颗粒物(PM2.5),129,110,193,98,171,67,,103,100,24,15,7,11,1.0,0.9
2024-02-10T1900,3715A,117.3092,32.9314,蚌埠市,蚌埠田家炳中学,细颗粒物(PM2.5),124,120,148,94,130,67,,97,94,29,24,13,15,0.8,0.8
2024-02-10T1900,1585A,109.8756,40.6532,包头市,市环境监测站,,45,45,435,26,328,61,,83,82,35,49,15,58,0.8,1.4
2024-02-10T1900,1587A,109.9991,40.5842,包头市,包头八中,,,,532,,444,57,,81,81,39,56,10,58,0.7,2
2024-02-10T1900,1588A,109.8538,40.6821,包头市,青山宾馆,细颗粒物(PM2.5),57,,238,40,171,42,,85,82,55,39,14,21,0.9,1.1
2024-02-10T1900,1589A,109.8642,40.6288,包头市,惠龙物流,,48,48,465,28,345,66,,81,81,26,54,18,40,0.7,1.7
2024-02-10T1900,1590A,110.0377,40.5546,包头市,东河鸿龙湾,,32,32,397,16,320,74,,84,84,21,51,9,29,0.6,1.8
2024-02-10T1900,3283A,109.9154,40.5685,包头市,滨河大厦,,43,43,385,25,329,65,,89,89,27,43,12,29,0.7,1.8
2024-02-10T1900,3419A,109.9447,40.6261,包头市,包头市委党校,,49,49,364,24,314,73,,83,83,20,46,15,34,0.7,1.6
2024-02-10T1900,3683A,109.8331,40.6576,包头市,昆区政府,,42,42,353,19,321,54,,78,78,38,46,22,66,1.9,1.6
2024-02-10T1900,1930A,107.185,34.3063,宝鸡市,庙沟村,颗粒物(PM10),80,110,82,26,43,75,,82,82,3,6,5,6,0.5,0.6
2024-02-10T1900,1931A,107.0708,34.3017,宝鸡市,竹园沟,颗粒物(PM10),80,110,104,46,72,70,,91,91,20,19,6,7,0.6,0.7
2024-02-10T1900,1932A,107.1906,34.3672,宝鸡市,三陆医院,颗粒物(PM10),74,98,164,38,135,58,,90,90,48,35,6,10,0.5,0.8
2024-02-10T1900,1933A,107.1431,34.3547,宝鸡市,监测站,颗粒物(PM10),90,129,187,47,146,55,,81,81,30,28,5,13,0.6,0.8
2024-02-10T1900,1934A,107.1186,34.3739,宝鸡市,技工学校,颗粒物(PM10),86,122,210,38,181,68,,88,88,38,31,8,18,0.6,0.8
2024-02-10T1900,1935A,107.3906,34.3528,宝鸡市,陈仓区环保局家属楼,颗粒物(PM10),90,129,204,38,147,74,,90,90,33,42,8,25,0.5,1.1
2024-02-10T1900,1936A,107.2058,34.3497,宝鸡市,文理学院,颗粒物(PM10),94,137,193,47,142,36,,89,86,67,35,8,14,0.7,0.7
2024-02-10T1900,1937A,107.2386,34.3622,宝鸡市,三迪小学,颗粒物(PM10),90,130,196,35,146,78,,88,88,26,37,8,15,0.4,0.8
2024-02-10T1900,1051A,115.493,38.8632,保定市,游泳馆,细颗粒物(PM2.5),79,77,235,58,168,83,,89,89,8,24,5,9,0.6,0.9
2024-02-10T1900,1052A,115.5213,38.8959,保定市,华电二区,细颗粒物(PM2.5),68,62,179,49,185,84,,84,84,2,19,6,11,0.3,0.5
2024-02-10T1900,1053A,115.4713,38.9108,保定市,接待中心,颗粒物(PM10),59,67,177,39,160,79,,80,80,1,16,6,12,0.4,0.6
2024-02-10T1900,1054A,115.4612,38.8416,保定市,地表水厂,"颗粒物(PM10),细颗粒物(PM2.5)",62,74,195,44,160,82,,85,85,6,24,5,9,0.8,1.1
2024-02-10T1900,3581A,115.31981,38.95208,保定市,满城区生态环境分局,细颗粒物(PM2.5),103,90,156,77,138,75,,84,84,13,26,8,11,0.6,0.7
2024-02-10T1900,3582A,115.47694,38.76408,保定市,清苑区第二中学,细颗粒物(PM2.5),72,78,199,52,148,88,,91,91,6,15,8,13,0.4,0.7
2024-02-10T1900,3583A,115.62909,39.02311,保定市,徐水物探局,细颗粒物(PM2.5),64,73,186,46,146,78,,83,83,13,28,6,12,0.3,0.6
2024-02-10T1900,4004A,115.4202,38.8656,保定市,双鹰农机,颗粒物(PM10),65,80,163,45,148,83,,87,87,12,26,5,8,0.4,0.7
2024-02-10T1900,4034A,115.5150,38.8590,保定市,植保所站,细颗粒物(PM2.5),75,,196,55,206,86,,89,89,11,28,4,12,0.3,0.6
2024-02-10T1900,2594A,99.1678,25.1081,保山市,市环境监测站,,50,50,82,23,56,72,,87,87,8,8,6,18,0.5,0.4
2024-02-10T1900,2595A,99.1711,25.1328,保山市,市环保局,颗粒物(PM10),54,57,66,25,37,80,,90,90,4,4,7,14,0.5,0.4
2024-02-10T1900,1867A,109.1436,21.4086,北海市,海滩公园,细颗粒物(PM2.5),95,91,99,71,81,76,,73,73,20,10,15,14,0.9,0.8
2024-02-10T1900,1868A,109.0981,21.4661,北海市,新市环保局,细颗粒物(PM2.5),89,78,80,66,74,71,,79,79,15,8,9,12,0.8,0.8
2024-02-10T1900,1869A,109.1778,21.5233,北海市,北海工业园,细颗粒物(PM2.5),95,85,86,71,71,81,,81,81,11,9,13,14,0.8,0.8
2024-02-10T1900,3400A,109.1911,21.4415,北海市,龙潭自来水厂,细颗粒物(PM2.5),94,83,86,70,75,80,,76,76,15,7,17,13,0.8,0.6
2024-02-10T1900,1001A,116.3621,39.8784,北京市,万寿西宫,细颗粒物(PM2.5),77,65,26,56,19,69,,75,74,18,11,3,1,0.3,0.2
2024-02-10T1900,1002A,116.2202,40.2915,北京市,定陵,,38,38,26,23,19,80,,79,79,5,5,1,2,0.3,0.2
2024-02-10T1900,1003A,116.4174,39.9289,北京市,东四,细颗粒物(PM2.5),64,68,28,46,18,66,,71,70,12,10,5,3,0.4,0.3
2024-02-10T1900,1004A,116.4072,39.8863,北京市,天坛,细颗粒物(PM2.5),65,64,27,47,19,74,,80,79,11,9,2,2,0.3,0.2
2024-02-10T1900,1005A,116.462,39.9365,北京市,农展馆,细颗粒物(PM2.5),64,65,26,46,18,67,,74,73,15,10,3,2,0.3,0.2
2024-02-10T1900,1006A,116.3392,39.9295,北京市,官园,细颗粒物(PM2.5),70,70,29,51,19,77,,83,82,17,10,4,2,0.4,0.3
2024-02-10T1900,1007A,116.2878,39.9611,北京市,海淀万柳,细颗粒物(PM2.5),73,78,33,53,20,68,,77,76,20,12,1,3,0.3,0.2
2024-02-10T1900,1008A,116.6636,40.135,北京市,顺义新城,,46,46,27,28,17,64,,83,80,21,5,2,1,0.4,0.2
2024-02-10T1900,1009A,116.6275,40.3275,北京市,怀柔镇,,43,43,26,27,17,60,,80,78,22,5,6,4,0.5,0.2
2024-02-10T1900,1010A,116.2296,40.217,北京市,昌平镇,,50,50,31,30,19,86,,86,86,6,6,3,3,0.3,0.2
2024-02-10T1900,1011A,116.3966,39.9821,北京市,奥体中心,细颗粒物(PM2.5),59,55,25,42,17,74,,78,77,10,3,5,3,0.3,0.3
2024-02-10T1900,1012A,116.184,39.9136,北京市,古城,细颗粒物(PM2.5),82,88,36,60,21,71,,77,76,8,4,2,2,0.4,0.3
2024-02-10T1900,3281A,115.9718,40.4529,北京市,延庆夏都,,30,30,48,17,32,79,,76,76,2,6,1,3,0.2,0.3
2024-02-10T1900,3417A,117.0709,40.1465,北京市,平谷新城,,42,38,21,29,16,71,,89,87,6,2,1,2,0.4,0.2
2024-02-10T1900,3418A,116.8336,40.4095,北京市,密云新城,,38,37,26,26,16,73,,88,87,9,2,2,2,0.3,0.2
2024-02-10T1900,3672A,116.1541,39.8204,北京市,丰台云岗,细颗粒物(PM2.5),89,87,35,66,23,75,,81,81,9,6,1,3,0.3,0.2
2024-02-10T1900,3673A,116.6804,39.9081,北京市,通州东关,细颗粒物(PM2.5),54,55,25,38,17,71,,79,77,7,3,3,2,0.4,0.3
2024-02-10T1900,3674A,115.9577,39.7603,北京市,房山燕山,细颗粒物(PM2.5),103,83,36,77,28,68,,86,83,16,10,1,2,0.3,0.2
2024-02-10T1900,3675A,116.4672,39.7733,北京市,大兴旧宫,细颗粒物(PM2.5),65,65,26,47,18,69,,75,75,11,9,2,2,0.3,0.2
2024-02-10T1900,3694A,115.986,40.4563,北京市,延庆石河营,,30,30,43,17,30,86,,83,83,3,5,1,2,0.2,0.3
2024-02-10T1900,3695A,116.6151,40.3053,北京市,怀柔新城,,33,30,23,23,18,72,,81,80,9,5,1,2,0.2,0.2
2024-02-10T1900,3696A,116.2545,39.8768,北京市,丰台小屯,细颗粒物(PM2.5),70,79,34,51,20,71,,76,75,16,13,3,2,0.3,0.2
2024-02-10T1900,3697A,116.84,40.3844,北京市,密云镇,细颗粒物(PM2.5),57,55,27,40,19,39,,84,78,44,5,5,2,0.4,0.2
2024-02-10T1900,1761A,123.8275,41.3064,本溪市,大峪,细颗粒物(PM2.5),147,141,331,112,272,68,,72,72,36,47,20,40,1.6,2.2
2024-02-10T1900,1762A,123.7567,41.3325,本溪市,溪湖,细颗粒物(PM2.5),122,131,366,92,267,77,,80,80,17,37,26,44,1.0,2
2024-02-10T1900,1763A,123.7169,41.3094,本溪市,彩屯,细颗粒物(PM2.5),225,214,672,175,602,62,,82,82,37,48,22,96,1.5,2.3
2024-02-10T1900,1764A,123.7669,41.2864,本溪市,东明,细颗粒物(PM2.5),221,,625,171,586,50,,64,64,52,56,30,155,1.3,2.2
2024-02-10T1900,1765A,123.7992,41.2664,本溪市,新立屯,细颗粒物(PM2.5),225,232,348,175,251,56,,64,64,38,46,23,68,1.3,1.8
2024-02-10T1900,1766A,123.8142,41.3472,本溪市,威宁,细颗粒物(PM2.5),120,97,326,91,255,55,,71,71,39,44,9,11,0.8,1.6
2024-02-10T1900,2587A,105.2864,27.3125,毕节市,八中,,35,34,140,24,122,71,,87,87,19,12,22,13,0.6,0.7
2024-02-10T1900,2588A,105.31,27.2944,毕节市,师专,,30,19,161,14,146,93,,85,85,9,15,15,13,0.3,0.8
2024-02-10T1900,3537A,105.3631,27.3533,毕节市,长征村,,30,29,137,20,107,95,,95,95,5,10,11,10,0.5,0.8
2024-02-10T1900,1629A,118.0018,37.3617,滨州市,第二水厂,细颗粒物(PM2.5),156,158,192,119,152,85,,94,94,27,25,13,21,1.8,1.4
2024-02-10T1900,1630A,117.9776,37.393,滨州市,北中新校,细颗粒物(PM2.5),162,158,247,123,199,84,,93,93,27,28,15,26,1.7,1.4
2024-02-10T1900,3514A,117.9378,37.3956,滨州市,中海酒店,细颗粒物(PM2.5),159,143,241,121,123,90,,100,100,23,26,15,29,1.5,1.3
2024-02-10T1900,3515A,117.9378,37.3553,滨州市,开发区一中,细颗粒物(PM2.5),179,178,184,135,162,88,,96,96,21,19,20,31,1.8,1.2
2024-02-10T1900,3516A,118.0917,37.694,滨州市,金海六路,细颗粒物(PM2.5),108,98,234,81,135,87,,93,93,12,26,9,25,1.3,1.5
2024-02-10T1900,4028A,117.9956,37.3753,滨州市,滨州市西街道办事处,细颗粒物(PM2.5),170,163,225,129,184,81,,90,90,24,24,17,26,1.7,1.3
2024-02-10T1900,2311A,115.8072,33.8399,亳州市,污水处理厂,细颗粒物(PM2.5),209,189,241,159,218,71,,87,87,18,16,11,17,1.1,1.1
2024-02-10T1900,2312A,115.7789,33.8518,亳州市,三国揽胜宫,细颗粒物(PM2.5),213,211,311,163,239,68,,86,86,24,19,13,19,1.2,1.2
2024-02-10T1900,3332A,115.7633,33.8034,亳州市,亳州学院,细颗粒物(PM2.5),192,181,276,144,230,78,,87,87,12,15,11,20,1.3,1.4
2024-02-10T1900,2693A,82.0485,44.8556,博尔塔拉蒙古自治州,市党校,细颗粒物(PM2.5),82,83,145,60,101,93,,91,91,22,20,21,23,1.0,1
2024-02-10T1900,2694A,82.0806,44.8969,博尔塔拉蒙古自治州,市环保局,颗粒物(PM10),65,80,147,40,87,92,,78,78,22,34,16,18,1.0,1.7
2024-02-10T1900,1071A,116.8842,38.2991,沧州市,沧县城建局,细颗粒物(PM2.5),152,148,154,116,143,76,,94,93,,28,8,12,0.7,1.1
2024-02-10T1900,1072A,116.8584,38.3254,沧州市,电视转播站,细颗粒物(PM2.5),58,54,178,41,155,86,,98,98,15,20,11,21,0.7,0.9
2024-02-10T1900,1073A,116.8709,38.3228,沧州市,市环保局,细颗粒物(PM2.5),73,57,156,53,138,79,,92,92,21,22,10,16,0.7,0.8
2024-02-10T1900,3324A,116.8136,38.3004,沧州市,河北水利电力学院,细颗粒物(PM2.5),55,53,121,39,103,81,,93,93,14,13,16,17,0.4,0.6
2024-02-10T1900,2622A,97.1806,31.1273,昌都市,昌都监测站,,,,46,0,20,,,70,70,11,9,7,10,0.4,0.7
2024-02-10T1900,3719A,97.1714,31.1406,昌都市,昌都会议中心,,26,3,11,2,12,83,,82,82,2,3,4,5,0.2,0.3
2024-02-10T1900,2690A,88.1236,43.8886,昌吉回族自治州,天山天池,,21,7,3,0,2,65,,70,70,5,5,8,8,0.4,0.4
2024-02-10T1900,2692A,87.2717,44.0297,昌吉回族自治州,新区政务中心,细颗粒物(PM2.5),234,233,302,184,233,122,,103,103,24,36,7,7,2.0,2.2
2024-02-10T1900,3613A,87.3095,44.0142,昌吉回族自治州,亚心广场,细颗粒物(PM2.5),252,239,300,202,253,124,,111,111,23,32,8,8,1.8,1.9
2024-02-10T1900,1119A,125.3325,43.9166,长春市,食品厂,细颗粒物(PM2.5),99,,300,74,289,83,,82,82,20,37,16,33,0.7,0.9
2024-02-10T1900,1120A,125.2863,43.9027,长春市,客车厂,细颗粒物(PM2.5),98,74,333,73,286,85,,82,82,15,31,12,33,0.8,1.1
2024-02-10T1900,1121A,125.2841,43.8463,长春市,邮电学院,细颗粒物(PM2.5),122,107,351,92,291,82,,84,84,23,45,17,34,0.9,1.1
2024-02-10T1900,1122A,125.3716,43.8772,长春市,劳动公园,细颗粒物(PM2.5),114,92,366,86,310,65,,74,74,38,49,12,13,0.7,1.1
2024-02-10T1900,1123A,125.3297,43.8805,长春市,园林处,细颗粒物(PM2.5),95,91,268,71,238,72,,84,84,36,35,46,25,1.0,1.1
2024-02-10T1900,1124A,125.4605,43.79,长春市,净月潭,细颗粒物(PM2.5),72,62,296,52,265,78,,88,88,13,18,13,15,0.5,1.1
2024-02-10T1900,1127A,125.245,43.7783,长春市,高新区管委会,细颗粒物(PM2.5),160,,364,122,330,79,,92,92,25,35,12,14,1.1,1.5
2024-02-10T1900,1128A,125.1761,43.8325,长春市,岱山公园,细颗粒物(PM2.5),118,,274,89,244,92,,94,94,12,22,13,14,0.9,1.2
2024-02-10T1900,1335A,113.0833,28.2325,长沙市,经开区环保局,细颗粒物(PM2.5),98,100,270,73,203,96,,85,85,4,13,6,12,0.6,0.9
2024-02-10T1900,1336A,112.8872,28.2189,长沙市,高开区环保局,细颗粒物(PM2.5),139,108,546,106,394,91,,86,86,14,34,16,26,1.5,1.6
2024-02-10T1900,1337A,113.0792,28.2053,长沙市,马坡岭,细颗粒物(PM2.5),137,,399,104,290,84,,76,76,6,19,9,20,0.6,0.9
2024-02-10T1900,1338A,112.9394,28.19,长沙市,湖南师范大学,细颗粒物(PM2.5),123,,376,93,289,61,,82,82,16,25,11,24,1.3,1.3
2024-02-10T1900,1339A,113.0178,28.1322,长沙市,雨花区环保局,细颗粒物(PM2.5),153,,427,117,321,80,,83,83,8,25,10,21,1.0,1.3
2024-02-10T1900,1340A,112.9792,28.2597,长沙市,伍家岭,细颗粒物(PM2.5),94,85,581,70,371,68,,68,68,23,29,9,19,1.0,1.5
2024-02-10T1900,1341A,113.0014,28.1944,长沙市,火车新站,细颗粒物(PM2.5),100,76,523,75,424,78,,84,84,15,29,9,25,1.0,1.3
2024-02-10T1900,1342A,112.9844,28.1178,长沙市,天心区环保局,细颗粒物(PM2.5),113,88,479,85,396,84,,89,89,9,31,10,31,0.4,0.7
2024-02-10T1900,1343A,112.8908,28.1308,长沙市,湖南中医药大学,细颗粒物(PM2.5),133,107,324,101,250,70,,76,76,22,25,13,10,1.5,1.5
2024-02-10T1900,1344A,112.9581,28.3611,长沙市,沙坪,细颗粒物(PM2.5),87,83,258,64,219,52,,48,48,10,13,8,15,1.0,1.2
2024-02-10T1900,1727A,113.1147,36.1547,长治市,清华站,颗粒物(PM10),56,61,154,29,109,78,,86,86,13,21,10,22,0.4,0.7
2024-02-10T1900,1728A,113.1031,36.1989,长治市,监测站,颗粒物(PM10),76,101,149,31,107,78,,86,86,17,27,12,23,0.3,0.8
2024-02-10T1900,1730A,113.0886,36.2125,长治市,审计局,颗粒物(PM10),55,60,133,24,97,81,,87,87,10,20,11,25,0.4,1
2024-02-10T1900,1731A,113.0844,36.1856,长治市,长治八中,颗粒物(PM10),57,64,165,31,114,81,,87,87,8,22,6,19,0.5,0.9
2024-02-10T1900,2845A,113.1569,36.1911,长治市,德盛苑,颗粒物(PM10),58,66,90,29,56,84,,91,91,11,16,11,19,0.5,1
2024-02-10T1900,3568A,113.06,36.0464,长治市,向阳小学,颗粒物(PM10),63,76,165,38,125,91,,99,99,15,27,9,33,0.4,1
2024-02-10T1900,3569A,112.8792,36.3144,长治市,屯留一中,颗粒物(PM10),59,68,98,31,78,82,,92,91,8,15,8,20,0.5,0.9
2024-02-10T1900,3570A,113.235,36.3489,长治市,潞城四中,颗粒物(PM10),63,75,134,28,78,85,,90,90,12,18,30,21,0.5,0.9
2024-02-10T1900,1854A,111.6975,28.9703,常德市,市二中,细颗粒物(PM2.5),55,56,92,39,88,76,,77,77,11,12,7,9,0.6,0.8
2024-02-10T1900,1857A,111.7158,29.1456,常德市,白鹤山,细颗粒物(PM2.5),58,63,100,41,57,57,,48,48,1,2,3,3,0.6,0.7
2024-02-10T1900,3138A,111.7153,29.0289,常德市,武陵区永安,细颗粒物(PM2.5),62,49,108,44,88,70,,76,76,9,10,8,10,0.8,0.9
2024-02-10T1900,3139A,111.6892,28.9881,常德市,鼎城区玉霞,细颗粒物(PM2.5),74,,139,54,121,65,,75,75,15,15,9,12,0.8,1
2024-02-10T1900,3140A,111.6625,29.0531,常德市,武陵区长庚,细颗粒物(PM2.5),68,55,114,49,90,70,,72,72,9,11,5,8,0.7,0.9
2024-02-10T1900,1196A,119.9633,31.762,常州市,市监测站,细颗粒物(PM2.5),82,80,191,60,152,44,,112,106,59,20,8,14,1.1,1.2
2024-02-10T1900,1200A,119.9468,31.7069,常州市,武进监测站,细颗粒物(PM2.5),68,75,204,49,186,95,,107,107,16,19,8,15,0.8,1
2024-02-10T1900,1201A,119.9255,31.9087,常州市,安家,细颗粒物(PM2.5),100,87,224,75,217,106,,119,119,13,18,9,16,0.9,1.1
2024-02-10T1900,3002A,119.9805,31.8174,常州市,行政中心,细颗粒物(PM2.5),58,64,154,41,149,98,,107,107,13,16,8,14,0.8,1.1
2024-02-10T1900,3003A,120.0522,31.7748,常州市,经开区,细颗粒物(PM2.5),59,62,158,42,144,108,,114,114,11,17,9,15,0.7,1
2024-02-10T1900,3010A,119.9025,31.7964,常州市,钟楼,细颗粒物(PM2.5),70,73,200,51,191,100,,109,109,14,19,8,17,0.8,1.1
2024-02-10T1900,3429A,119.8598,31.7066,常州市,武进经发区,细颗粒物(PM2.5),82,68,214,60,184,108,,114,114,8,18,7,15,1.1,1.4
2024-02-10T1900,3430A,119.5826,31.7245,常州市,金坛城区,细颗粒物(PM2.5),100,76,202,75,163,115,,119,119,11,14,10,15,0.8,1
2024-02-10T1900,2220A,120.4318,41.5881,朝阳市,西梁,细颗粒物(PM2.5),210,164,357,160,267,,,53,,38,26,38,72,1.1,1.4
2024-02-10T1900,2221A,120.4521,41.5646,朝阳市,河畔小区,细颗粒物(PM2.5),93,77,475,69,417,69,,81,81,21,28,22,72,0.8,1.5
2024-02-10T1900,2222A,120.4176,41.5648,朝阳市,八里堡,细颗粒物(PM2.5),117,,512,88,546,72,,79,79,19,32,22,120,1.0,1.7
2024-02-10T1900,2223A,120.3806,41.5969,朝阳市,农业园区,细颗粒物(PM2.5),103,,177,77,133,66,,83,83,17,18,17,33,0.8,0.9
2024-02-10T1900,1705A,116.6367,23.6719,潮州市,西园路,细颗粒物(PM2.5),98,,34,73,30,90,,74,74,11,6,5,4,0.5,0.4
2024-02-10T1900,3026A,116.6183,23.6608,潮州市,市政府,细颗粒物(PM2.5),70,,30,51,25,84,,74,74,16,8,6,6,0.7,0.7
2024-02-10T1900,4036A,116.6461,23.6761,潮州市,金山,细颗粒物(PM2.5),102,,36,76,36,87,,72,72,10,7,6,6,0.7,0.7
2024-02-10T1900,2472A,113.0073,25.9061,郴州市,马头岭,,39,38,93,27,59,88,,86,86,6,10,6,13,0.5,0.8
2024-02-10T1900,2473A,113.0116,25.8226,郴州市,市职中,细颗粒物(PM2.5),52,41,152,36,130,76,,83,83,10,11,8,9,1.2,1.1
2024-02-10T1900,2474A,113.0161,25.8001,郴州市,兴隆步行街,细颗粒物(PM2.5),62,54,173,44,135,69,,82,82,21,18,6,6,0.7,0.9
2024-02-10T1900,2475A,113.0383,25.8071,郴州市,市审计局,细颗粒物(PM2.5),54,47,132,38,108,68,,82,82,16,15,6,7,0.7,0.9
2024-02-10T1900,2476A,113.0348,25.7759,郴州市,市环保局,,50,43,171,35,135,55,,78,78,19,18,5,5,0.6,0.8
2024-02-10T1900,1431A,103.9728,30.7236,成都市,金泉两河,细颗粒物(PM2.5),79,,135,58,144,88,,92,92,7,27,2,4,0.6,0.9
2024-02-10T1900,1432A,104.176,30.6872,成都市,十里店,细颗粒物(PM2.5),113,87,122,85,114,120,,112,112,10,17,3,5,0.7,0.7
2024-02-10T1900,1433A,104.079,30.5706,成都市,三瓦窑,细颗粒物(PM2.5),82,89,109,60,88,106,,103,103,9,19,2,4,0.6,0.7
2024-02-10T1900,1434A,104.1114,30.63,成都市,沙河铺,细颗粒物(PM2.5),102,89,134,76,127,97,,102,102,18,21,1,3,0.7,0.7
2024-02-10T1900,1437A,104.0786,30.6531,成都市,君平街,细颗粒物(PM2.5),94,76,98,70,92,115,,109,109,19,24,5,7,0.6,0.7
2024-02-10T1900,1438A,103.613,31.0283,成都市,灵岩寺,细颗粒物(PM2.5),80,78,60,59,44,117,,104,104,14,14,1,4,0.8,0.8
2024-02-10T1900,2880A,104.0239,30.65639,成都市,大石西路,细颗粒物(PM2.5),114,,105,86,96,98,,108,108,21,28,4,5,0.8,0.9
2024-02-10T1900,3136A,104.2725,30.5589,成都市,龙泉驿区区政府,细颗粒物(PM2.5),79,68,87,58,76,106,,105,105,8,12,3,4,0.8,0.8
2024-02-10T1900,3357A,104.0106,30.6931,成都市,金博路,细颗粒物(PM2.5),100,86,122,75,111,86,,97,97,14,26,3,3,0.7,0.9
2024-02-10T1900,3359A,104.0578,30.5225,成都市,华阳,细颗粒物(PM2.5),83,66,98,61,93,88,,100,100,9,16,3,4,0.8,0.9
2024-02-10T1900,3487A,104.2394,30.5319,成都市,车城东七路,细颗粒物(PM2.5),83,72,94,61,79,108,,106,106,10,14,2,6,0.7,0.7
2024-02-10T1900,3488A,104.3853,30.7453,成都市,青白江技师分院,细颗粒物(PM2.5),102,85,94,76,75,110,,111,111,11,15,7,10,0.9,0.9
2024-02-10T1900,3489A,104.0789,30.4072,成都市,科学城,细颗粒物(PM2.5),94,77,91,70,81,116,,109,109,4,5,5,6,0.8,0.8
2024-02-10T1900,4011A,103.8506,30.6947,成都市,光华大道三段,细颗粒物(PM2.5),92,70,165,68,144,69,,72,72,10,18,2,5,0.8,0.9
2024-02-10T1900,1062A,117.9531,40.9081,承德市,铁路,细颗粒物(PM2.5),142,124,61,108,40,37,,80,75,39,13,30,15,1.0,0.5
2024-02-10T1900,1063A,117.9392,40.9763,承德市,中国银行,细颗粒物(PM2.5),92,82,52,68,31,52,,85,82,26,12,12,10,0.5,0.4
2024-02-10T1900,1064A,117.9503,40.928,承德市,开发区,,45,45,50,31,34,62,,83,81,17,14,17,10,0.7,0.5
2024-02-10T1900,1065A,117.8051,40.9655,承德市,文化中心,细颗粒物(PM2.5),123,125,56,93,26,52,,87,84,26,11,30,14,0.6,0.4
2024-02-10T1900,1066A,117.9268,41.0026,承德市,离宫,,30,,34,21,31,79,,82,82,4,5,6,5,0.3,0.3
2024-02-10T1900,2314A,117.47,30.6618,池州市,池州学院,细颗粒物(PM2.5),98,89,98,73,84,85,,100,98,16,14,17,11,0.7,0.9
2024-02-10T1900,3237A,117.4918,30.6617,池州市,展览馆,细颗粒物(PM2.5),84,83,102,62,82,86,,101,99,11,10,4,8,0.7,0.8
2024-02-10T1900,3333A,117.5627,30.695,池州市,第八中学,细颗粒物(PM2.5),84,75,97,62,83,90,,104,103,12,11,6,8,0.6,0.8
2024-02-10T1900,3334A,117.5038,30.6243,池州市,第十二中学,细颗粒物(PM2.5),85,75,109,63,95,84,,102,100,14,10,5,11,0.5,0.7
2024-02-10T1900,1744A,118.9233,42.2816,赤峰市,松山一中,,44,44,188,20,134,86,,80,80,8,18,7,53,0.4,0.6
2024-02-10T1900,1745A,118.9576,42.2728,赤峰市,哈达街,颗粒物(PM10),51,52,146,29,112,79,,77,77,14,15,12,43,0.5,0.7
2024-02-10T1900,1746A,118.8788,42.2554,赤峰市,天义路,,26,11,75,7,61,82,,81,81,7,10,6,22,0.3,0.4
2024-02-10T1900,3058A,119.2658,42.0353,赤峰市,银河街,细颗粒物(PM2.5),53,45,224,37,162,56,,73,73,28,19,28,61,1.0,0.9
2024-02-10T1900,3286A,118.9359,42.3147,赤峰市,桥北物流园区,,28,28,73,13,65,85,,83,83,5,11,8,20,0.7,0.7
2024-02-10T1900,2521A,107.3476,22.4136,崇左市,市环保局江州分局,细颗粒物(PM2.5),64,,92,46,71,85,,82,82,5,9,10,13,0.5,0.4
2024-02-10T1900,2522A,107.3702,22.3707,崇左市,城南新区,细颗粒物(PM2.5),58,49,80,41,76,84,,82,82,8,9,9,10,0.5,0.5
2024-02-10T1900,2298A,118.3093,32.3153,滁州市,老年大学,细颗粒物(PM2.5),82,82,130,60,122,84,,100,100,19,22,8,9,0.9,1
2024-02-10T1900,2299A,118.3244,32.2786,滁州市,人大宾馆,细颗粒物(PM2.5),92,79,137,68,119,87,,100,100,19,15,8,10,0.8,0.9
2024-02-10T1900,3207A,118.3118,32.3038,滁州市,市政府原办公楼,细颗粒物(PM2.5),78,69,127,57,116,87,,98,98,27,25,6,8,0.7,0.8
2024-02-10T1900,3331A,118.3267,32.2634,滁州市,图书馆,细颗粒物(PM2.5),75,65,129,55,100,81,,98,98,21,16,7,11,0.8,0.9
2024-02-10T1900,2605A,101.5482,25.0441,楚雄彝族自治州,州环境监测站,,45,36,52,31,45,87,,84,84,6,8,8,11,0.8,0.9
2024-02-10T1900,2606A,101.538,25.0492,楚雄彝族自治州,市经济开发区,细颗粒物(PM2.5),53,38,71,37,58,79,,78,78,9,10,9,18,0.9,1
2024-02-10T1900,2548A,107.5277,31.2827,达州市,达州职业技术学院,细颗粒物(PM2.5),83,92,124,61,98,60,,84,84,40,17,12,7,1.4,1
2024-02-10T1900,2549A,107.5086,31.2186,达州市,市环境监测站,细颗粒物(PM2.5),113,109,117,85,99,37,,72,72,70,29,10,7,1.7,1.2
2024-02-10T1900,2550A,107.4988,31.2132,达州市,凤凰小区,细颗粒物(PM2.5),117,122,120,88,100,33,,71,71,73,31,10,7,1.8,1.2
2024-02-10T1900,2551A,107.5082,31.1986,达州市,达县机关宾馆,细颗粒物(PM2.5),114,144,115,86,90,4,,61,60,86,31,8,5,2.3,1.2
2024-02-10T1900,2552A,107.4644,31.2124,达州市,市政中心,细颗粒物(PM2.5),94,88,119,70,100,31,,73,73,70,36,7,7,1.4,1.5
2024-02-10T1900,2614A,100.1542,25.7054,大理白族自治州,大理市环境监测站,细颗粒物(PM2.5),80,60,53,59,44,79,,84,84,8,9,10,12,0.9,0.6
2024-02-10T1900,2615A,100.2171,25.5811,大理白族自治州,大理古城,颗粒物(PM10),54,58,79,36,69,64,,80,80,24,14,7,21,0.9,0.7
2024-02-10T1900,1109A,121.612,38.9741,大连市,甘井子,细颗粒物(PM2.5),147,123,465,112,435,54,,87,84,38,32,21,38,1.1,0.9
2024-02-10T1900,1110A,121.565,38.9511,大连市,周水子,细颗粒物(PM2.5),170,139,471,129,452,51,,86,82,42,36,22,43,1.7,1.8
2024-02-10T1900,1111A,121.5637,38.8845,大连市,星海三站,细颗粒物(PM2.5),150,122,493,115,481,74,,89,88,28,42,18,75,1.0,1.6
2024-02-10T1900,1112A,121.6302,38.9117,大连市,青泥洼桥,细颗粒物(PM2.5),99,77,474,74,470,72,,88,88,27,46,19,46,0.8,1.5
2024-02-10T1900,1113A,121.6251,38.8638,大连市,傅家庄,细颗粒物(PM2.5),98,77,320,73,274,95,,98,98,9,33,17,40,0.8,1.3
2024-02-10T1900,1114A,121.5213,38.8661,大连市,七贤岭,细颗粒物(PM2.5),79,80,269,58,248,75,,84,84,15,27,12,29,0.8,1.2
2024-02-10T1900,1115A,121.2529,38.8061,大连市,旅顺,,48,39,204,33,181,82,,80,80,14,29,12,14,0.7,1.7
2024-02-10T1900,1116A,121.7485,39.1311,大连市,金州,细颗粒物(PM2.5),256,222,308,206,286,51,,67,67,41,32,11,14,2.2,2
2024-02-10T1900,1117A,121.7811,39.0496,大连市,开发区,细颗粒物(PM2.5),198,181,467,148,411,93,,74,74,24,43,11,37,1.6,1.9
2024-02-10T1900,1118A,121.9762,39.0631,大连市,双D港,细颗粒物(PM2.5),118,102,160,89,134,82,,102,100,17,20,10,15,1.2,1.3
2024-02-10T1900,1789A,124.81117,46.03138,大庆市,大同区,细颗粒物(PM2.5),122,116,219,92,185,65,,84,82,21,23,15,17,0.9,1.1
2024-02-10T1900,1790A,125.129,46.533,大庆市,龙凤区,细颗粒物(PM2.5),119,119,455,90,382,90,,83,83,16,46,6,34,0.8,1.8
2024-02-10T1900,1791A,124.902,46.408,大庆市,红岗区,细颗粒物(PM2.5),119,110,261,90,231,73,,84,83,18,31,15,32,0.6,1.1
2024-02-10T1900,1792A,125.153,46.586,大庆市,萨尔图区,细颗粒物(PM2.5),172,139,316,130,286,86,,84,84,18,32,10,16,0.8,1.4
2024-02-10T1900,1793A,124.9042,46.6215,大庆市,让胡路区,颗粒物(PM10),54,57,227,25,169,57,,77,74,28,31,11,14,0.8,1.2
2024-02-10T1900,3481A,125.141,46.634,大庆市,萨区政府监测点,细颗粒物(PM2.5),170,,274,129,194,87,,86,86,23,36,15,17,0.9,1.4
2024-02-10T1900,1723A,113.2994,40.0758,大同市,云冈宾馆,颗粒物(PM10),60,70,286,38,250,99,,94,94,12,38,10,34,0.4,1.5
2024-02-10T1900,1724A,113.3444,40.0917,大同市,大同大学,细颗粒物(PM2.5),78,75,224,57,206,94,,91,91,16,36,12,34,0.7,1.2
2024-02-10T1900,1725A,113.2661,40.1269,大同市,安家小村,颗粒物(PM10),64,78,275,42,222,102,,94,94,4,29,13,34,0.6,1.7
2024-02-10T1900,1726A,113.2711,40.0844,大同市,教育学院,颗粒物(PM10),62,73,375,43,205,92,,86,86,15,49,8,39,0.7,2.1
2024-02-10T1900,3282A,113.3397,40.0597,大同市,大同市卫生学校,细颗粒物(PM2.5),70,71,241,51,228,95,,94,94,13,32,8,31,0.5,1.1
2024-02-10T1900,3565A,113.1367,40.1122,大同市,云冈站,细颗粒物(PM2.5),62,66,150,44,114,103,,100,100,6,18,6,31,0.4,1
2024-02-10T1900,3566A,113.1186,40.2556,大同市,图书馆,细颗粒物(PM2.5),75,78,223,55,189,91,,86,86,13,25,11,21,0.3,0.9
2024-02-10T1900,3567A,113.5931,40.0461,大同市,区一中,细颗粒物(PM2.5),94,92,300,70,160,88,,91,91,9,28,16,73,0.7,1.4
2024-02-10T1900,3676A,113.2802,40.0995,大同市,第二人民医院,细颗粒物(PM2.5),72,74,386,52,212,100,,93,93,8,41,9,34,0.6,1.9
2024-02-10T1900,2269A,124.1069,50.4097,大兴安岭地区,科技局,,48,34,63,33,118,70,,76,76,7,7,9,16,0.4,0.4
2024-02-10T1900,3663A,124.1164,50.4278,大兴安岭地区,红旗社区,,,134,76,,125,45,,75,70,28,20,32,73,0.4,0.4
2024-02-10T1900,1600A,124.3303,40.0625,丹东市,江湾东路,细颗粒物(PM2.5),152,132,410,116,350,37,,90,81,54,29,25,45,1.7,1.8
2024-02-10T1900,1601A,124.4256,40.1503,丹东市,临江后街,细颗粒物(PM2.5),99,100,361,74,299,49,,91,86,41,30,13,42,1.2,1.7
2024-02-10T1900,1602A,124.3933,40.1461,丹东市,元宝山,"颗粒物(PM10),细颗粒物(PM2.5)",53,55,388,37,327,83,,87,87,10,31,14,39,0.6,1.4
2024-02-10T1900,1603A,124.3633,40.1092,丹东市,民主桥,细颗粒物(PM2.5),199,177,396,149,358,26,,79,69,58,37,24,58,1.5,1.6
2024-02-10T1900,3541A,109.5726,19.5167,儋州市,第一中学子站,细颗粒物(PM2.5),109,101,44,82,37,37,,34,34,10,8,6,6,0.9,0.9
2024-02-10T1900,3542A,109.5567,19.5187,儋州市,东坡学校子站,细颗粒物(PM2.5),108,83,43,81,37,36,,32,32,10,9,4,4,0.9,0.9
2024-02-10T1900,2616A,98.5842,24.428,德宏傣族景颇族自治州,德宏州监测站,细颗粒物(PM2.5),57,49,133,40,116,98,,96,96,15,29,14,33,0.6,0.8
2024-02-10T1900,3677A,98.5881,24.4368,德宏傣族景颇族自治州,芒市人民政府综合楼,颗粒物(PM10),57,63,100,30,77,96,,94,94,14,20,16,23,0.6,0.8
2024-02-10T1900,1901A,104.4239,31.1208,德阳市,东山公园,细颗粒物(PM2.5),94,,100,70,97,111,,101,101,10,12,2,4,0.8,0.8
2024-02-10T1900,1902A,104.3826,31.1317,德阳市,西小区,细颗粒物(PM2.5),89,,151,66,154,94,,94,94,17,32,2,5,0.8,1
2024-02-10T1900,1904A,104.3553,31.1091,德阳市,耐火材料厂,细颗粒物(PM2.5),79,,159,58,157,101,,101,101,8,16,3,7,0.6,0.4
2024-02-10T1900,3639A,104.4019,31.1244,德阳市,市教育局,细颗粒物(PM2.5),105,,123,79,125,96,,96,96,19,29,3,4,0.8,0.9
2024-02-10T1900,1622A,116.3032,37.4674,德州市,儿童乐园,细颗粒物(PM2.5),77,80,169,56,155,101,,102,102,8,30,12,31,0.8,1.4
2024-02-10T1900,1624A,116.2991,37.4451,德州市,监理站,细颗粒物(PM2.5),73,88,309,53,252,101,,103,103,14,30,13,31,0.7,1.2
2024-02-10T1900,3066A,116.2721,37.4379,德州市,九衢泉纯净水厂,细颗粒物(PM2.5),89,102,287,66,235,96,,99,99,18,33,16,30,0.7,1.2
2024-02-10T1900,3371A,116.3728,37.4403,德州市,开发区人民医院,细颗粒物(PM2.5),79,88,193,58,195,98,,101,101,13,23,12,24,0.6,1.1
2024-02-10T1900,3372A,116.3572,37.4094,德州市,太阳城中学,细颗粒物(PM2.5),90,84,247,67,162,100,,101,101,12,22,10,26,0.7,1.2
2024-02-10T1900,3511A,116.5652,37.3319,德州市,陵城艺术中心,细颗粒物(PM2.5),98,110,283,73,289,87,,99,99,24,33,15,41,0.8,1.5
2024-02-10T1900,2621A,99.7056,27.8317,迪庆藏族自治州,迪庆州站,,29,22,38,12,27,91,,91,91,6,8,8,10,0.3,0.4
2024-02-10T1900,3180A,99.7136,27.8094,迪庆藏族自治州,质量技术监督局,,35,,39,24,37,87,,91,91,5,7,7,10,0.5,0.5
2024-02-10T1900,2663A,104.6241,35.5734,定西市,东关小学,颗粒物(PM10),80,109,138,28,67,69,,71,71,9,18,15,27,0.5,0.8
2024-02-10T1900,2664A,104.6194,35.5934,定西市,供电公司,颗粒物(PM10),82,113,130,26,66,79,,80,80,2,12,7,18,0.2,0.6
2024-02-10T1900,1389A,113.7547,23.0494,东莞市,莞城梨川,细颗粒物(PM2.5),53,53,52,37,43,78,,91,91,16,11,8,9,0.7,0.7
2024-02-10T1900,1390A,113.7944,23.0128,东莞市,东城石井,,43,34,49,30,41,65,,88,87,10,11,7,9,0.8,0.8
2024-02-10T1900,1391A,113.7383,22.9658,东莞市,南城西平,,40,39,48,28,39,86,,91,91,8,9,9,9,0.8,0.8
2024-02-10T1900,3319A,113.7338,23.0381,东莞市,万江金泰,,49,39,54,34,48,71,,82,82,10,5,7,9,0.8,0.9
2024-02-10T1900,3626A,113.7533,23.0202,东莞市,南城元岭,,42,37,46,29,37,70,,82,82,6,4,10,10,0.8,0.8
2024-02-10T1900,3627A,113.7875,23.0457,东莞市,东城主山,,45,35,52,31,44,87,,92,92,5,5,9,11,0.8,0.8
2024-02-10T1900,1666A,118.6614,37.4309,东营市,市环保局,细颗粒物(PM2.5),175,153,206,132,179,95,,99,99,23,25,8,24,1.3,1.3
2024-02-10T1900,3036A,118.6904,37.4338,东营市,开发区管委会,细颗粒物(PM2.5),188,153,221,141,191,90,,91,91,29,29,4,19,1.3,1.4
2024-02-10T1900,3365A,118.5719,37.565,东营市,垦利区民丰路,细颗粒物(PM2.5),175,149,226,132,194,89,,93,93,23,22,12,19,1.4,1.5
2024-02-10T1900,3498A,118.5055,37.8612,东营市,河口城区,细颗粒物(PM2.5),104,100,180,78,155,98,,99,99,15,24,3,5,1.4,1.6
2024-02-10T1900,3646A,118.4978,37.4623,东营市,胜利站,细颗粒物(PM2.5),168,156,290,127,180,87,,90,90,21,29,9,25,1.3,1.4
2024-02-10T1900,3734A,118.35,37.26,东营市,理想之城,细颗粒物(PM2.5),147,141,217,112,178,84,,91,91,19,27,5,19,1.3,1.4
2024-02-10T1900,1591A,110.0023,39.8129,鄂尔多斯市,综合楼,,39,39,173,12,110,84,,89,89,12,16,2,13,0.4,0.5
2024-02-10T1900,1592A,109.9486,39.8261,鄂尔多斯市,巴音孟克林场办事处,,39,39,186,19,94,79,,84,84,10,16,6,22,0.4,0.8
2024-02-10T1900,1593A,109.7736,39.5986,鄂尔多斯市,康泽苑,,41,41,152,14,81,87,,91,91,15,17,5,9,0.5,0.7
2024-02-10T1900,1594A,109.8119,39.5989,鄂尔多斯市,华泰汽车城,颗粒物(PM10),52,53,144,22,79,84,,94,94,17,17,6,9,0.4,0.5
2024-02-10T1900,1595A,109.9734,39.7884,鄂尔多斯市,奥林花园,,39,39,139,9,57,82,,88,88,12,16,6,10,0.5,0.6
2024-02-10T1900,2436A,114.8938,30.3994,鄂州市,市政府,细颗粒物(PM2.5),83,64,260,61,224,64,,77,77,27,36,8,15,1.0,1.3
2024-02-10T1900,2437A,114.8989,30.3714,鄂州市,赵家坝,细颗粒物(PM2.5),82,,168,60,171,74,,94,94,20,21,7,12,0.8,1
2024-02-10T1900,3654A,114.8094,30.4089,鄂州市,精准医疗中心,细颗粒物(PM2.5),109,85,248,82,178,85,,100,100,19,17,14,16,1.1,1.4
2024-02-10T1900,2454A,109.4978,30.2981,恩施土家族苗族自治州,湖北民院,细颗粒物(PM2.5),102,93,155,76,130,67,,58,58,20,16,8,8,1.2,1.3
2024-02-10T1900,2455A,109.4707,30.2798,恩施土家族苗族自治州,州电力总公司,细颗粒物(PM2.5),105,97,166,79,143,58,,49,49,15,16,6,6,1.1,1.3
2024-02-10T1900,3549A,109.5061,30.3772,恩施土家族苗族自治州,龙凤新区,细颗粒物(PM2.5),109,,123,82,124,40,,46,46,17,16,7,6,1.2,1.2
2024-02-10T1900,2499A,108.3411,21.6158,防城港市,沙万,细颗粒物(PM2.5),65,69,69,47,56,81,,75,75,9,9,5,8,0.4,0.5
2024-02-10T1900,2500A,108.3514,21.7731,防城港市,防城档案局,细颗粒物(PM2.5),59,51,78,42,68,81,,79,79,10,10,6,11,0.5,0.5
2024-02-10T1900,2501A,108.3506,21.6414,防城港市,大海花园,细颗粒物(PM2.5),58,55,71,41,57,83,,75,75,6,6,4,8,0.5,0.6
2024-02-10T1900,1371A,113.1294,23.0067,佛山市,湾梁,,42,31,43,29,33,90,,98,98,8,6,8,10,0.7,0.7
2024-02-10T1900,1372A,113.1083,23.0478,佛山市,华材职中,,42,29,42,29,38,85,,96,96,10,11,7,9,0.7,0.8
2024-02-10T1900,1373A,113.144,23.0453,佛山市,南海气象局,,49,49,49,30,36,91,,96,96,9,8,6,7,0.7,0.9
2024-02-10T1900,1374A,113.2881,22.8094,佛山市,顺德苏岗,,49,46,48,34,45,96,,99,99,10,9,9,12,0.6,0.6
2024-02-10T1900,1376A,112.8383,22.8678,佛山市,高明孔堂,,49,37,38,34,38,82,,92,92,6,3,5,7,0.5,0.8
2024-02-10T1900,1377A,112.8836,23.1588,佛山市,三水监测站,,39,39,71,27,37,61,,85,84,28,13,4,5,0.8,0.8
2024-02-10T1900,1378A,112.867,23.185,佛山市,三水云东海,,30,30,35,21,35,64,,84,83,12,9,1,3,0.7,0.8
2024-02-10T1900,3625A,113.2544,22.7642,佛山市,容桂街道办,,44,44,46,29,38,95,,96,96,10,8,6,9,0.6,0.7
2024-02-10T1900,1282A,119.2681,26.0504,福州市,师大,细颗粒物(PM2.5),62,,107,44,103,97,,91,91,8,9,7,12,0.5,0.6
2024-02-10T1900,1283A,119.2984,26.1028,福州市,五四北路,,,,125,49,91,88,,90,90,11,8,4,8,0.7,0.7
2024-02-10T1900,1284A,119.2648,26.0768,福州市,杨桥西路,细颗粒物(PM2.5),65,,94,47,95,98,,93,93,10,9,4,8,0.6,0.7
2024-02-10T1900,1285A,119.317,26.0746,福州市,紫阳,细颗粒物(PM2.5),68,,117,49,112,84,,87,87,12,10,7,13,0.8,0.8
2024-02-10T1900,3048A,119.5799,26.0936,福州市,九龙,细颗粒物(PM2.5),60,46,77,43,77,92,,99,99,7,10,3,5,0.7,0.8
2024-02-10T1900,3526A,119.5189,25.9664,福州市,吴航,,45,38,71,31,61,79,,91,91,11,11,4,9,0.5,0.7
2024-02-10T1900,1755A,123.7977,41.8491,抚顺市,望花区,细颗粒物(PM2.5),98,84,590,73,526,60,,82,82,36,49,26,58,1.0,1.8
2024-02-10T1900,1756A,123.9161,41.8822,抚顺市,顺城区,细颗粒物(PM2.5),147,,493,112,382,56,,86,86,51,49,21,34,0.7,1.6
2024-02-10T1900,1757A,124.0436,41.8611,抚顺市,东洲区,细颗粒物(PM2.5),144,132,594,110,489,83,,92,92,22,39,17,40,0.8,1.7
2024-02-10T1900,1758A,123.9247,41.8642,抚顺市,新抚区,细颗粒物(PM2.5),132,130,457,100,394,64,,94,94,46,46,11,17,1.1,1.8
2024-02-10T1900,1759A,124.0972,41.8961,抚顺市,大伙房水库,细颗粒物(PM2.5),155,139,260,118,215,88,,98,98,23,26,14,15,1.0,1.5
2024-02-10T1900,1760A,123.7086,41.8391,抚顺市,沈抚新城,细颗粒物(PM2.5),65,69,502,47,341,82,,90,90,21,44,12,30,0.6,1.7
2024-02-10T1900,2376A,116.2127,28.0814,抚州市,桐源党溪,细颗粒物(PM2.5),99,127,291,74,188,55,,68,68,12,8,9,34,0.6,0.7
2024-02-10T1900,2377A,116.3544,27.9831,抚州市,市站,细颗粒物(PM2.5),72,76,207,52,175,41,,83,83,49,24,12,17,0.8,0.8
2024-02-10T1900,2378A,116.3565,27.963,抚州市,血防站,颗粒物(PM10),60,70,170,41,136,80,,91,91,14,11,4,9,0.8,1.1
2024-02-10T1900,2379A,116.3564,28.0007,抚州市,采茶剧团,细颗粒物(PM2.5),64,62,192,46,169,79,,84,84,14,15,5,11,1.1,1.3
2024-02-10T1900,2380A,116.385,27.9647,抚州市,医学分院,"颗粒物(PM10),细颗粒物(PM2.5)",57,63,190,40,143,92,,96,96,10,13,7,16,0.9,1.1
2024-02-10T1900,2207A,121.6094,41.998,阜新市,工业园区,细颗粒物(PM2.5),104,,165,78,129,62,,88,86,24,20,22,20,0.8,0.9
2024-02-10T1900,2208A,121.6697,42.0279,阜新市,长青街,细颗粒物(PM2.5),70,56,131,51,120,61,,86,84,20,20,17,36,0.6,0.8
2024-02-10T1900,2209A,121.6673,42.0705,阜新市,农业园区,细颗粒物(PM2.5),55,50,68,39,51,77,,86,86,17,11,34,16,0.5,0.7
2024-02-10T1900,2210A,121.6717,42.0224,阜新市,东苑,细颗粒物(PM2.5),77,79,408,56,117,70,,90,89,25,26,26,61,1.2,1.7
2024-02-10T1900,2211A,121.6506,42.0498,阜新市,玉龙新城,细颗粒物(PM2.5),134,,162,102,124,50,,89,85,35,19,18,16,0.9,0.7
2024-02-10T1900,2301A,115.8277,32.8929,阜阳市,市监测站,细颗粒物(PM2.5),132,111,115,100,108,59,,96,84,,12,9,12,0.9,0.8
2024-02-10T1900,2303A,115.8554,32.8605,阜阳市,开发区,细颗粒物(PM2.5),109,145,152,82,108,73,,94,90,20,13,6,10,0.7,0.5
2024-02-10T1900,2875A,115.784,32.8892,阜阳市,阜阳职业技术学院,细颗粒物(PM2.5),118,116,143,89,124,75,,96,92,16,12,8,14,0.9,0.9
2024-02-10T1900,3468A,115.7901,32.8613,阜阳市,市规划展馆,细颗粒物(PM2.5),129,112,147,98,124,79,,95,90,14,14,8,14,0.9,0.8
2024-02-10T1900,3469A,115.836,32.9183,阜阳市,枣园社区,细颗粒物(PM2.5),133,106,130,101,112,78,,98,91,14,12,8,12,0.8,0.8
2024-02-10T1900,2669A,102.9099,34.9841,甘南藏族自治州,州政府,,24,19,79,13,49,76,,84,84,8,14,13,17,0.4,0.8
2024-02-10T1900,3380A,102.8914,34.9617,甘南藏族自治州,甘肃民族师范学院,,24,10,48,5,25,75,,80,80,6,8,5,15,0.7,0.7
2024-02-10T1900,2570A,101.9603,30.0475,甘孜藏族自治州,水桥子,,23,12,16,6,11,71,,86,86,10,5,10,9,0.3,0.3
2024-02-10T1900,3065A,101.9533,29.9972,甘孜藏族自治州,州环保局,,25,11,13,7,5,79,,90,90,2,2,8,8,0.2,0.2
2024-02-10T1900,3414A,115.8347,28.932,赣江新区,桑海产业园,细颗粒物(PM2.5),99,90,112,74,95,84,,87,87,13,16,6,7,1.0,1
2024-02-10T1900,2363A,114.9367,25.8664,赣州市,地委,细颗粒物(PM2.5),67,61,79,48,66,76,,90,90,24,14,18,13,1.1,1.1
2024-02-10T1900,2364A,114.9461,25.8481,赣州市,气象台,,,55,86,42,75,,,99,99,22,11,15,10,0.8,0.9
2024-02-10T1900,2365A,114.9322,25.8333,赣州市,市图书馆,颗粒物(PM10),58,65,87,37,69,47,,79,79,36,14,20,18,0.8,0.9
2024-02-10T1900,2366A,114.8905,25.8471,赣州市,华坚鞋城,,46,42,85,32,72,71,,83,83,15,13,3,8,0.7,0.9
2024-02-10T1900,3109A,115.0093,25.8613,赣州市,赣县区卫计委,细颗粒物(PM2.5),64,66,92,46,80,60,,80,80,20,13,7,7,1.1,1
2024-02-10T1900,2683A,106.2319,36.1417,固原市,马园,颗粒物(PM10),57,64,224,17,34,78,,86,86,9,9,5,6,0.4,0.5
2024-02-10T1900,2684A,106.2792,36.0022,固原市,监测站,颗粒物(PM10),53,56,215,21,59,76,,87,86,10,13,5,10,0.5,0.6
2024-02-10T1900,2685A,106.2375,36.0211,固原市,新区,颗粒物(PM10),53,56,163,17,30,72,,83,82,12,10,6,6,0.4,0.3
2024-02-10T1900,3522A,106.2177,35.9959,固原市,原州区十五小,颗粒物(PM10),60,70,158,20,32,72,,80,79,8,8,8,8,0.5,0.5
2024-02-10T1900,2544A,106.6303,30.4576,广安市,市委,细颗粒物(PM2.5),110,96,163,83,151,72,,82,82,26,22,8,7,0.9,1.1
2024-02-10T1900,2545A,106.6271,30.4663,广安市,友谊中学,细颗粒物(PM2.5),127,,128,96,141,83,,88,88,24,25,6,5,0.9,1
2024-02-10T1900,2547A,106.6388,30.4551,广安市,广电花园,细颗粒物(PM2.5),102,,125,76,127,84,,84,84,19,21,5,4,1.1,1.2
2024-02-10T1900,2902A,106.6351,30.4865,广安市,北辰小学,细颗粒物(PM2.5),102,85,148,76,138,80,,82,82,25,20,5,5,1.1,1.1
2024-02-10T1900,2523A,105.8945,32.4535,广元市,黑石坡,细颗粒物(PM2.5),135,,87,103,88,105,,96,96,15,14,14,9,1.0,0.9
2024-02-10T1900,2524A,105.821,32.4444,广元市,老城,细颗粒物(PM2.5),83,96,137,61,98,64,,84,84,41,20,9,15,1.4,1.3
2024-02-10T1900,2526A,105.8628,32.4287,广元市,监测站,细颗粒物(PM2.5),97,86,110,72,94,82,,88,88,22,16,12,12,1.2,1.2
2024-02-10T1900,3617A,105.8047,32.4166,广元市,经开区,细颗粒物(PM2.5),89,86,142,66,118,75,,85,85,21,22,12,16,1.1,1.1
2024-02-10T1900,1345A,113.2347,23.1423,广州市,广雅中学,,49,43,51,34,43,65,,87,87,24,15,6,7,0.9,1
2024-02-10T1900,1346A,113.2612,23.105,广州市,市五中,细颗粒物(PM2.5),69,53,54,50,49,66,,90,90,29,17,6,8,0.8,0.8
2024-02-10T1900,1348A,113.3478,23.0916,广州市,广东商学院,,46,37,48,32,41,87,,94,94,11,8,6,7,0.7,0.8
2024-02-10T1900,1349A,113.4332,23.1047,广州市,市八十六中,,49,40,60,34,50,93,,91,91,7,8,6,10,0.5,0.6
2024-02-10T1900,1350A,113.3505,22.9483,广州市,番禺中学,细颗粒物(PM2.5),57,43,39,40,32,92,,100,100,20,15,5,6,0.8,0.8
2024-02-10T1900,1351A,113.2146,23.3916,广州市,花都师范,,43,37,47,30,39,89,,91,91,13,11,7,7,0.8,0.9
2024-02-10T1900,1352A,113.2597,23.1331,广州市,市监测站,细颗粒物(PM2.5),52,44,52,36,45,84,,94,94,20,16,5,6,0.8,0.8
2024-02-10T1900,1353A,113.5618,23.312,广州市,九龙镇镇龙,,48,41,57,33,51,84,,80,80,8,9,8,9,0.8,0.8
2024-02-10T1900,1354A,113.2765,23.1544,广州市,麓湖,,46,34,48,32,44,77,,92,92,12,11,6,8,0.7,0.7
2024-02-10T1900,1355A,113.443,23.3035,广州市,帽峰山森林公园,细颗粒物(PM2.5),57,43,51,40,44,85,,95,95,4,5,8,10,0.5,0.5
2024-02-10T1900,2846A,113.3221,23.1322,广州市,体育西,细颗粒物(PM2.5),58,58,51,41,42,89,,94,93,15,11,8,10,0.9,0.8
2024-02-10T1900,3298A,113.5717,23.5491,广州市,从化街口,细颗粒物(PM2.5),59,46,62,42,54,77,,87,87,11,8,7,10,0.7,0.7
2024-02-10T1900,3299A,113.3472,23.3692,广州市,白云竹料,颗粒物(PM10),78,106,70,42,49,86,,91,91,8,7,8,10,0.7,0.7
2024-02-10T1900,3300A,113.2981,23.237,广州市,白云嘉禾,细颗粒物(PM2.5),59,55,54,42,44,78,,92,92,21,14,7,10,0.8,0.7
2024-02-10T1900,3301A,113.4256,23.1716,广州市,黄埔科学城,细颗粒物(PM2.5),52,38,52,36,49,83,,88,88,3,4,5,7,0.7,0.8
2024-02-10T1900,3302A,113.3942,23.0483,广州市,番禺大学城,,43,42,44,30,39,95,,95,95,9,10,7,9,0.5,0.7
2024-02-10T1900,3303A,113.4922,22.8168,广州市,南沙黄阁,,50,46,64,35,56,82,,95,95,10,9,6,9,0.9,0.8
2024-02-10T1900,3304A,113.5342,22.7896,广州市,南沙街,,40,40,53,28,44,87,,94,94,15,14,4,6,0.7,0.8
2024-02-10T1900,3443A,113.2902,23.5544,广州市,花都梯面,,42,34,39,29,34,76,,90,90,10,11,8,9,0.5,0.6
2024-02-10T1900,3445A,113.7858,23.7478,广州市,从化良口,,42,32,38,29,35,72,,84,84,5,5,8,7,0.5,0.5
2024-02-10T1900,3446A,113.8051,23.2614,广州市,增城荔城,,29,26,41,20,36,66,,84,83,11,5,7,9,0.6,0.7
2024-02-10T1900,2505A,109.568,23.1478,贵港市,德智高中,,45,33,132,31,124,88,,81,81,5,11,5,19,0.8,0.9
2024-02-10T1900,2506A,109.6047,23.0666,贵港市,江南子站,细颗粒物(PM2.5),82,,139,60,106,82,,82,82,8,11,7,14,0.8,0.9
2024-02-10T1900,2507A,109.6014,23.0948,贵港市,贵城子站,细颗粒物(PM2.5),60,47,127,43,118,76,,74,74,10,14,8,15,0.9,1
2024-02-10T1900,2508A,109.5669,23.1065,贵港市,荷城子站,,45,41,112,31,100,71,,73,73,8,10,9,13,0.9,1
2024-02-10T1900,3405A,109.5886,23.1172,贵港市,新世纪学校,,48,41,128,33,103,76,,76,76,6,9,4,11,0.9,1
2024-02-10T1900,1439A,106.6899,26.5998,贵阳市,马鞍山,,32,27,98,22,88,43,,68,68,35,18,12,14,0.4,0.8
2024-02-10T1900,1440A,106.6971,26.5694,贵阳市,市环保站,细颗粒物(PM2.5),62,61,180,44,166,16,,74,72,76,31,40,32,1.2,1
2024-02-10T1900,1441A,106.6243,26.6266,贵阳市,鉴湖路,,32,24,110,7,82,101,,94,94,6,16,2,9,0.4,0.7
2024-02-10T1900,1442A,106.7487,26.6343,贵阳市,燕子冲,,36,36,108,24,95,81,,81,81,6,14,23,16,0.4,0.8
2024-02-10T1900,1443A,106.6555,26.4365,贵阳市,碧云窝,细颗粒物(PM2.5),62,66,140,44,112,89,,95,95,9,12,43,23,0.6,0.8
2024-02-10T1900,1445A,106.7109,26.6027,贵阳市,红边门,细颗粒物(PM2.5),70,70,226,51,200,22,,69,69,65,30,74,50,1.4,1.1
2024-02-10T1900,1446A,106.7164,26.5699,贵阳市,新华路,颗粒物(PM10),53,56,219,34,193,36,,78,78,58,27,24,22,1.0,0.9
2024-02-10T1900,1447A,106.674,26.5424,贵阳市,太慈桥,,36,36,128,17,107,75,,85,85,16,15,8,12,0.4,0.7
2024-02-10T1900,1862A,110.4144,25.3167,桂林市,电子科大尧山校区,细颗粒物(PM2.5),55,43,70,39,53,69,,87,86,5,5,4,7,0.3,0.6
2024-02-10T1900,1863A,110.2819,25.2697,桂林市,监测站,细颗粒物(PM2.5),77,,96,56,76,69,,93,93,29,15,8,12,0.7,0.8
2024-02-10T1900,1864A,110.3089,25.2708,桂林市,龙隐路小学,细颗粒物(PM2.5),73,55,82,53,72,73,,94,94,22,9,6,11,0.9,0.8
2024-02-10T1900,1865A,110.2869,25.2178,桂林市,八中,细颗粒物(PM2.5),62,53,84,44,73,75,,92,92,8,10,15,11,0.5,0.6
2024-02-10T1900,3403A,110.1764,25.2381,桂林市,创业大厦,细颗粒物(PM2.5),62,51,81,44,71,95,,97,97,6,8,10,12,0.6,0.6
2024-02-10T1900,3531A,110.296,25.1253,桂林市,旅游学院,细颗粒物(PM2.5),64,56,70,46,65,92,,98,98,8,7,13,9,0.7,0.8
2024-02-10T1900,2674A,100.2561,34.4714,果洛藏族自治州,玛沁县大武镇,,27,22,32,13,21,84,,84,84,11,12,7,13,0.3,0.5
2024-02-10T1900,1129A,126.5422,45.755,哈尔滨市,岭北,细颗粒物(PM2.5),442,,513,412,469,186,,181,181,48,69,29,39,0.7,0.9
2024-02-10T1900,1130A,126.561,45.8167,哈尔滨市,松北商大,细颗粒物(PM2.5),462,491,425,442,390,105,,106,106,35,48,14,11,1.9,1.9
2024-02-10T1900,1131A,126.979,45.5419,哈尔滨市,阿城会宁,细颗粒物(PM2.5),404,384,498,355,459,96,,99,99,21,40,29,31,1.4,1.8
2024-02-10T1900,1132A,126.599,45.7222,哈尔滨市,南岗学府路,颗粒物(PM10),428,528,572,369,450,96,,97,97,34,65,15,25,1.8,2.2
2024-02-10T1900,1133A,126.689,45.7733,哈尔滨市,太平宏伟公园,细颗粒物(PM2.5),425,485,584,387,452,89,,93,93,48,82,15,27,1.9,2.6
2024-02-10T1900,1134A,126.635,45.7667,哈尔滨市,道外承德广场,细颗粒物(PM2.5),450,543,484,424,416,97,,89,89,41,74,13,26,1.4,1.6
2024-02-10T1900,1135A,126.685,45.7319,哈尔滨市,香坊红旗大街,细颗粒物(PM2.5),500,,629,2343,600,78,,86,86,48,80,17,44,2.0,2.5
2024-02-10T1900,1136A,126.6411,45.7258,哈尔滨市,动力和平路,细颗粒物(PM2.5),452,476,492,427,470,90,,98,98,42,64,22,35,1.9,2.1
2024-02-10T1900,1137A,126.593,45.7478,哈尔滨市,道里建国路,细颗粒物(PM2.5),454,461,520,430,464,81,,84,84,46,62,28,33,0.7,1.2
2024-02-10T1900,1138A,126.615,45.61,哈尔滨市,平房东轻厂,细颗粒物(PM2.5),414,428,491,371,455,100,,104,104,26,45,13,23,1.9,2.1
2024-02-10T1900,1139A,126.595,45.9855,哈尔滨市,呼兰师专,细颗粒物(PM2.5),450,,501,425,495,89,,93,93,42,50,28,34,1.7,2.2
2024-02-10T1900,1140A,126.6206,45.6842,哈尔滨市,省农科院,细颗粒物(PM2.5),408,460,559,362,483,105,,106,106,28,73,15,37,1.7,2.3
2024-02-10T1900,2688A,93.5128,42.8172,哈密市,地区监测站,颗粒物(PM10),60,70,157,29,76,70,,72,72,16,27,3,21,0.2,0.6
2024-02-10T1900,2689A,93.4961,42.8328,哈密市,哈密师范学校,颗粒物(PM10),61,71,277,20,171,74,,72,72,12,32,8,56,0.4,0.8
2024-02-10T1900,2671A,100.9048,36.9639,海北藏族自治州,海晏县西海镇,,24,21,30,11,12,76,,79,79,3,3,12,12,0.4,0.4
2024-02-10T1900,3867A,102.0738,36.5056,海东市,平安区公安北苑,,24,15,95,9,54,74,,77,77,5,16,10,20,0.2,0.4
2024-02-10T1900,1410A,110.3232,20.0574,海口市,海南大学,,40,,56,28,41,76,,71,71,5,7,9,10,0.6,0.8
2024-02-10T1900,1411A,110.283,20.0053,海口市,秀英海南医院,,45,,55,31,42,76,,69,69,4,6,8,9,0.5,0.7
2024-02-10T1900,1412A,110.338,19.9969,海口市,海南师范大学,,43,32,51,30,39,75,,69,69,4,6,8,8,0.6,0.8
2024-02-10T1900,1413A,110.33,20.0356,海口市,龙华路环保局宿舍,,46,,53,32,41,70,,66,66,8,8,8,9,0.6,0.8
2024-02-10T1900,3539A,110.5111,19.9736,海口市,桂林洋子站,,33,32,24,23,23,74,,73,73,4,5,7,6,0.5,0.6
2024-02-10T1900,2673A,100.6188,36.2866,海南藏族自治州,共和县恰卜恰镇,,,11,66,5,52,78,,84,84,12,16,,14,0.7,0.5
2024-02-10T1900,2676A,97.3731,37.3753,海西蒙古族藏族自治州,德令哈市,,,63,67,,181,104,,104,104,4,10,12,22,0.7,0.5
2024-02-10T1900,1048A,114.5302,36.6116,邯郸市,东污水处理厂,细颗粒物(PM2.5),260,230,365,210,309,99,,101,101,16,26,15,24,1.1,1.4
2024-02-10T1900,1049A,114.4918,36.5713,邯郸市,矿院,细颗粒物(PM2.5),250,246,393,200,332,94,,96,96,13,33,10,19,1.0,1.5
2024-02-10T1900,1050A,114.484,36.6133,邯郸市,丛台公园,细颗粒物(PM2.5),251,238,335,201,294,106,,108,108,7,22,14,22,0.9,1.4
2024-02-10T1900,3458A,114.7895,36.5593,邯郸市,香泉濮院小区,细颗粒物(PM2.5),201,171,344,151,286,104,,102,102,11,22,16,29,0.8,1.3
2024-02-10T1900,3579A,114.50634,36.77178,邯郸市,永年区实验高中,细颗粒物(PM2.5),261,249,358,211,308,92,,104,104,25,40,17,36,0,0.9
2024-02-10T1900,3580A,114.20016,36.44293,邯郸市,峰峰矿区临水派出所,细颗粒物(PM2.5),276,242,165,226,140,111,,116,116,11,14,17,32,0.9,1.2
2024-02-10T1900,2634A,106.9893,33.1842,汉中市,汉川机床厂子校,细颗粒物(PM2.5),90,77,134,67,118,80,,94,94,11,11,10,9,0.8,1
2024-02-10T1900,2635A,107.0154,33.0706,汉中市,市监测站,细颗粒物(PM2.5),129,100,236,98,212,63,,90,90,54,35,14,17,2.0,2.2
2024-02-10T1900,2636A,107.0089,33.1138,汉中市,鑫源开发区,细颗粒物(PM2.5),110,,306,83,309,95,,92,92,17,33,10,26,1.0,2
2024-02-10T1900,2637A,107.007,33.0323,汉中市,南郑大河坎水厂,细颗粒物(PM2.5),109,91,172,82,152,77,,91,91,26,22,11,14,1.2,1.6
2024-02-10T1900,1223A,120.2072,30.2111,杭州市,滨江,细颗粒物(PM2.5),118,103,239,89,183,95,,98,98,15,22,10,12,0.9,0.9
2024-02-10T1900,1224A,120.0633,30.2747,杭州市,西溪,细颗粒物(PM2.5),115,101,169,87,132,76,,95,95,14,16,8,8,0.7,0.8
2024-02-10T1900,1226A,120.3461,30.3153,杭州市,下沙,细颗粒物(PM2.5),75,73,202,55,163,90,,100,100,17,21,8,10,0.6,0.9
2024-02-10T1900,1227A,120.1269,30.2456,杭州市,卧龙桥,细颗粒物(PM2.5),107,87,125,80,110,38,,92,89,25,16,6,5,0.8,0.8
2024-02-10T1900,1228A,120.1903,30.2692,杭州市,浙江农大,细颗粒物(PM2.5),114,98,305,86,257,77,,96,96,19,29,9,10,0.8,1
2024-02-10T1900,1230A,120.1197,30.3119,杭州市,和睦小学,细颗粒物(PM2.5),102,90,370,76,306,69,,86,86,26,33,7,10,0.7,0.9
2024-02-10T1900,1231A,120.3019,30.4183,杭州市,临平镇,细颗粒物(PM2.5),105,,254,79,301,85,,96,96,13,29,7,11,0.7,1
2024-02-10T1900,1232A,120.2697,30.1819,杭州市,城厢镇,细颗粒物(PM2.5),135,117,295,103,278,99,,102,102,13,24,9,10,0.8,0.9
2024-02-10T1900,1233A,120.0883,30.1808,杭州市,云栖,细颗粒物(PM2.5),117,106,155,88,125,65,,98,96,18,16,7,8,0.8,0.8
2024-02-10T1900,3557A,119.9464,30.0494,杭州市,镇二中,细颗粒物(PM2.5),84,78,323,62,396,70,,91,91,19,24,8,11,0.7,1
2024-02-10T1900,3558A,119.7183,30.2367,杭州市,市府大楼,细颗粒物(PM2.5),88,81,242,65,201,68,,94,94,20,19,8,10,0.8,0.9
2024-02-10T1900,3656A,120.1556,30.2864,杭州市,消防大队,细颗粒物(PM2.5),124,108,277,94,243,87,,92,92,19,32,10,12,1.0,1.1
2024-02-10T1900,1270A,117.1959,31.7848,合肥市,明珠广场,细颗粒物(PM2.5),134,136,251,102,210,87,,92,92,23,22,10,13,0.9,0.9
2024-02-10T1900,1271A,117.3072,31.8764,合肥市,三里街,细颗粒物(PM2.5),188,195,301,141,262,38,,80,79,54,36,8,11,1.1,1
2024-02-10T1900,1272A,117.2588,31.8707,合肥市,琥珀山庄,细颗粒物(PM2.5),160,161,292,122,266,35,,85,81,46,36,8,10,1.4,1.3
2024-02-10T1900,1273A,117.1604,31.9052,合肥市,董铺水库,细颗粒物(PM2.5),147,141,198,112,164,92,,88,88,5,10,5,6,0.6,0.7
2024-02-10T1900,1274A,117.25,31.8571,合肥市,长江中路,细颗粒物(PM2.5),165,139,237,125,217,62,,84,84,39,26,10,12,1.2,1
2024-02-10T1900,1275A,117.266,31.9436,合肥市,庐阳区,细颗粒物(PM2.5),128,127,220,97,169,79,,76,76,18,26,8,10,0.8,1
2024-02-10T1900,1276A,117.336,31.8586,合肥市,瑶海区,细颗粒物(PM2.5),165,153,255,125,223,78,,88,88,31,24,9,9,1.0,0.9
2024-02-10T1900,1277A,117.3027,31.7964,合肥市,包河区,细颗粒物(PM2.5),144,132,225,110,214,61,,92,91,48,20,7,10,0.9,0.9
2024-02-10T1900,1278A,117.2776,31.7385,合肥市,滨湖新区,细颗粒物(PM2.5),132,132,250,100,212,85,,90,90,23,18,8,13,1.1,1.1
2024-02-10T1900,1279A,117.1318,31.8403,合肥市,高新区,细颗粒物(PM2.5),92,78,175,68,155,89,,89,89,15,17,6,10,0.8,0.9
2024-02-10T1900,3464A,117.3803,31.9147,合肥市,高教基地,细颗粒物(PM2.5),158,135,242,120,185,74,,96,96,13,15,6,8,0.8,0.8
2024-02-10T1900,3614A,79.924,37.0877,和田地区,地区环保局,颗粒物(PM10),62,74,105,18,41,100,,92,92,6,23,6,18,0.4,0.7
2024-02-10T1900,3615A,79.9131,37.113,和田地区,市环保局,颗粒物(PM10),62,74,83,24,36,101,,93,93,6,31,6,10,0.4,1
2024-02-10T1900,2516A,108.2011,24.715,河池市,东仁乐园,,50,35,47,35,32,40,,49,49,4,5,3,3,0.6,0.8
2024-02-10T1900,2517A,108.0497,24.6947,河池市,市环保站,,39,,58,27,50,73,,77,77,6,9,7,8,0.5,0.7
2024-02-10T1900,2518A,108.0983,24.6989,河池市,市疾控中心,,50,,61,35,58,68,,79,79,14,11,8,9,0.6,0.7
2024-02-10T1900,1696A,114.6778,23.7569,河源市,源西,,45,45,71,28,58,48,,83,80,30,9,6,8,0.8,0.8
2024-02-10T1900,1697A,114.6944,23.7586,河源市,东埔,,40,31,73,28,59,79,,86,86,7,6,7,9,0.6,0.7
2024-02-10T1900,1698A,114.6892,23.7233,河源市,老城,颗粒物(PM10),52,54,72,30,58,72,,85,85,6,7,6,8,0.7,0.8
2024-02-10T1900,1718A,115.4208,35.2464,菏泽市,气象局,细颗粒物(PM2.5),385,409,310,335,251,96,,102,102,28,24,7,12,1.5,1.2
2024-02-10T1900,1719A,115.4747,35.2375,菏泽市,市政协,细颗粒物(PM2.5),389,409,295,339,244,64,,95,94,31,17,8,11,1.4,1.1
2024-02-10T1900,3374A,115.5564,35.0891,菏泽市,定陶老年大学,细颗粒物(PM2.5),365,366,267,315,223,88,,100,100,26,20,9,11,1.2,0.9
2024-02-10T1900,3647A,115.4702,35.2706,菏泽市,菏泽医专,细颗粒物(PM2.5),414,445,309,371,248,85,,94,94,35,27,16,17,1.6,1.2
2024-02-10T1900,2514A,111.5264,24.4172,贺州市,环保小区,细颗粒物(PM2.5),62,51,114,44,93,85,,86,86,7,8,9,14,0.6,0.6
2024-02-10T1900,2515A,111.5608,24.4078,贺州市,政协大楼,细颗粒物(PM2.5),67,69,100,48,87,76,,82,82,11,11,9,11,0.7,0.7
2024-02-10T1900,3534A,111.4744,24.4553,贺州市,西湾,细颗粒物(PM2.5),57,60,88,40,78,78,,87,87,8,8,8,10,0.6,0.7
2024-02-10T1900,2385A,114.17,35.9019,鹤壁市,市监测站,细颗粒物(PM2.5),322,387,227,272,184,93,,116,116,27,24,5,11,1.3,1.1
2024-02-10T1900,2386A,114.2956,35.7511,鹤壁市,市交警支队,细颗粒物(PM2.5),274,273,219,224,175,94,,111,111,18,21,14,23,1.1,1
2024-02-10T1900,2387A,114.2878,35.7306,鹤壁市,迎宾馆,细颗粒物(PM2.5),242,220,222,192,194,99,,112,112,26,25,14,33,1.3,1.1
2024-02-10T1900,3474A,114.2617,35.6822,鹤壁市,大新区,细颗粒物(PM2.5),240,,202,190,145,100,,112,112,24,24,13,23,1.1,0.9
2024-02-10T1900,3596A,114.1572,35.9603,鹤壁市,南山宾馆,细颗粒物(PM2.5),366,363,154,316,121,90,,117,117,33,19,11,18,1.5,1.1
2024-02-10T1900,2244A,130.2537,47.3416,鹤岗市,哈啤分公司,细颗粒物(PM2.5),80,77,143,59,110,60,,73,71,21,20,21,38,1.4,1.1
2024-02-10T1900,2245A,130.2684,47.3086,鹤岗市,斯达机电,细颗粒物(PM2.5),59,58,110,42,82,63,,84,82,19,25,18,46,0.4,0.7
2024-02-10T1900,2246A,130.3114,47.3388,鹤岗市,东山纸板厂,细颗粒物(PM2.5),87,113,103,64,92,81,,90,87,26,21,22,28,0.6,1.2
2024-02-10T1900,2247A,130.1097,47.3382,鹤岗市,五号水库,,26,26,29,15,25,83,,85,85,5,7,11,10,0.4,0.6
2024-02-10T1900,2263A,127.4833,50.2524,黑河市,交通局,细颗粒物(PM2.5),117,101,100,88,73,58,,65,65,22,14,18,26,0.7,0.5
2024-02-10T1900,2264A,127.5144,50.2341,黑河市,环保局,细颗粒物(PM2.5),128,97,232,97,217,64,,69,69,20,22,28,70,0.6,0.6
2024-02-10T1900,2265A,127.5291,50.2472,黑河市,大黑河岛,,,77,96,58,77,72,,66,66,60,59,25,22,,
2024-02-10T1900,1074A,115.6838,37.7541,衡水市,电机北厂,细颗粒物(PM2.5),79,63,249,58,187,93,,93,93,6,17,7,21,0.4,0.8
2024-02-10T1900,1075A,115.6303,37.7316,衡水市,市监测站,细颗粒物(PM2.5),59,61,172,42,144,90,,90,90,12,21,7,17,0.4,0.7
2024-02-10T1900,3188A,115.6683,37.7217,衡水市,市城管局,细颗粒物(PM2.5),54,52,185,38,156,89,,90,90,10,19,8,18,0.5,0.8
2024-02-10T1900,3459A,115.5989,37.5491,衡水市,地表水厂,细颗粒物(PM2.5),67,62,211,48,189,79,,94,94,12,20,6,14,0.4,1
2024-02-10T1900,2456A,112.5003,26.9167,衡阳市,原169医院,细颗粒物(PM2.5),137,119,205,104,155,77,,74,74,17,17,27,29,1.3,1.3
2024-02-10T1900,2457A,112.6194,26.9258,衡阳市,衡阳化工总厂,细颗粒物(PM2.5),90,92,246,67,187,87,,75,75,10,20,9,16,0.7,1
2024-02-10T1900,2458A,112.6211,26.8956,衡阳市,珠晖区环保局,细颗粒物(PM2.5),109,96,193,82,160,85,,86,86,13,16,10,18,0.8,1.1
2024-02-10T1900,2459A,112.6197,26.8733,衡阳市,市委党校,细颗粒物(PM2.5),98,100,205,73,150,88,,82,82,7,11,13,20,0.9,1.1
2024-02-10T1900,2460A,112.6006,26.8919,衡阳市,市监测站,细颗粒物(PM2.5),142,132,237,108,212,44,,71,71,30,20,13,22,1.7,1.3
2024-02-10T1900,2461A,112.5664,26.9056,衡阳市,真空机电公司,细颗粒物(PM2.5),123,109,203,93,161,69,,66,66,18,24,12,29,1.3,1.7
2024-02-10T1900,3399A,112.6703,26.882,衡阳市,师范学院,细颗粒物(PM2.5),93,,164,69,150,82,,81,81,7,7,12,16,0.8,1
2024-02-10T1900,2608A,103.3772,23.3993,红河哈尼族彝族自治州,污水处理厂,细颗粒物(PM2.5),78,,60,57,52,64,,69,69,10,9,10,18,0.9,0.8
2024-02-10T1900,2609A,103.3861,23.35,红河哈尼族彝族自治州,监测站,细颗粒物(PM2.5),93,,62,69,55,63,,68,68,10,9,8,15,1.0,0.9
2024-02-10T1900,3038A,103.3758,23.368,红河哈尼族彝族自治州,州图书馆,细颗粒物(PM2.5),85,,62,63,53,62,,65,65,10,9,10,15,1.0,0.9
2024-02-10T1900,1090A,111.6507,40.7517,呼和浩特市,呼市一监,细颗粒物(PM2.5),306,283,246,256,479,117,,113,113,21,44,10,33,1.2,1.7
2024-02-10T1900,1091A,111.6572,40.8033,呼和浩特市,小召,细颗粒物(PM2.5),294,285,285,244,552,113,,112,108,38,53,12,52,1.3,1.6
2024-02-10T1900,1094A,111.7516,40.8369,呼和浩特市,如意水处理厂,细颗粒物(PM2.5),263,269,322,213,325,91,,91,91,38,56,20,40,1.3,1.6
2024-02-10T1900,1095A,111.7276,40.8062,呼和浩特市,二十九中,细颗粒物(PM2.5),281,271,443,231,362,100,,98,98,30,45,15,39,1.3,1.3
2024-02-10T1900,1096A,111.5512,40.7866,呼和浩特市,工大金川校区,细颗粒物(PM2.5),320,287,449,270,382,98,,105,105,31,51,13,30,1.4,1.7
2024-02-10T1900,1097A,111.717,40.7612,呼和浩特市,化肥厂生活区,细颗粒物(PM2.5),281,280,451,231,393,110,,105,105,27,46,19,62,1.3,1.6
2024-02-10T1900,3698A,111.5968,40.8178,呼和浩特市,红旗小学,细颗粒物(PM2.5),292,263,566,242,512,100,,105,105,38,65,15,55,1.3,2
2024-02-10T1900,3699A,111.6518,40.8389,呼和浩特市,海东办,细颗粒物(PM2.5),286,315,317,236,673,90,,96,96,44,65,21,69,1.1,1.7
2024-02-10T1900,2192A,119.7594,49.2261,呼伦贝尔市,区环保局,,29,22,55,19,49,92,,89,89,7,10,8,12,0.2,0.2
2024-02-10T1900,3061A,119.7512,49.1577,呼伦贝尔市,国华电力东,,29,25,35,17,32,91,,89,89,4,7,6,7,0.2,0.2
2024-02-10T1900,1250A,120.0751,30.8669,湖州市,城西水厂,细颗粒物(PM2.5),93,88,253,69,224,98,,104,104,19,26,6,8,0.7,0.8
2024-02-10T1900,2873A,120.0875,30.8955,湖州市,仁皇山新区,细颗粒物(PM2.5),88,76,215,65,188,97,,105,105,23,26,7,9,0.8,0.9
2024-02-10T1900,2907A,120.1844,30.8596,湖州市,吴兴区站,细颗粒物(PM2.5),83,72,192,61,179,101,,103,103,10,19,6,11,0.7,0.8
2024-02-10T1900,3562A,120.4148,30.8538,湖州市,南浔区站,细颗粒物(PM2.5),88,75,221,65,217,101,,109,109,10,16,7,15,0.5,0.8
2024-02-10T1900,1607A,120.9092,40.7136,葫芦岛市,龙港区,细颗粒物(PM2.5),173,,318,131,265,97,,95,95,12,30,14,54,0.6,1.3
2024-02-10T1900,1608A,120.8392,40.7514,葫芦岛市,化工街,细颗粒物(PM2.5),140,132,263,107,202,87,,87,87,16,27,22,27,1.3,1.7
2024-02-10T1900,1609A,120.8341,40.7073,葫芦岛市,新区,细颗粒物(PM2.5),150,,277,115,220,94,,95,95,24,35,17,25,0.6,1.3
2024-02-10T1900,1610A,120.8695,40.7677,葫芦岛市,东城区,细颗粒物(PM2.5),149,,280,114,237,73,,90,89,36,36,27,28,1.3,2
2024-02-10T1900,2482A,109.5981,27.5721,怀化市,林科所,细颗粒物(PM2.5),63,55,107,45,91,63,,48,48,4,4,5,8,0.4,0.5
2024-02-10T1900,2483A,109.9453,27.5444,怀化市,河西地税局,细颗粒物(PM2.5),90,73,104,67,87,46,,45,45,16,8,6,5,0.9,1
2024-02-10T1900,2484A,109.9781,27.5342,怀化市,市四医院,细颗粒物(PM2.5),89,80,130,66,102,57,,52,52,11,10,7,6,0.9,0.8
2024-02-10T1900,2485A,109.9972,27.5578,怀化市,监测楼,细颗粒物(PM2.5),85,75,145,63,91,42,,49,49,17,11,7,8,1.0,1
2024-02-10T1900,2486A,110.0394,27.583,怀化市,市委党校,细颗粒物(PM2.5),74,65,125,54,108,66,,50,50,6,8,8,6,0.7,0.9
2024-02-10T1900,1210A,119.036,33.5981,淮安市,钵池山,细颗粒物(PM2.5),186,,152,140,139,75,,76,76,20,19,9,11,1.0,1.2
2024-02-10T1900,1211A,119.007,33.575,淮安市,北京南路,细颗粒物(PM2.5),175,139,170,132,145,76,,82,82,24,21,9,13,1.2,1.6
2024-02-10T1900,1212A,118.989,33.6067,淮安市,市监测站,细颗粒物(PM2.5),140,132,172,107,150,90,,89,89,17,14,9,11,1.4,1.4
2024-02-10T1900,1213A,119.135,33.5039,淮安市,楚州区监测站,细颗粒物(PM2.5),196,147,247,147,225,82,,88,88,22,23,11,12,0.8,1
2024-02-10T1900,1214A,119.0186,33.6297,淮安市,淮阴区监测站,细颗粒物(PM2.5),206,166,199,156,163,78,,83,83,27,21,7,9,0.9,0.9
2024-02-10T1900,3426A,118.8755,33.2894,淮安市,新华书店,细颗粒物(PM2.5),140,140,151,107,134,93,,98,98,22,20,8,11,0.9,0.8
2024-02-10T1900,2282A,116.8004,33.975,淮北市,监测站,细颗粒物(PM2.5),270,250,343,220,271,66,,92,92,35,25,16,15,1.4,1.2
2024-02-10T1900,2283A,116.8091,33.9007,淮北市,烈山区政府,细颗粒物(PM2.5),224,218,333,174,287,89,,106,106,24,26,11,15,0.9,0.9
2024-02-10T1900,3330A,116.8873,33.9836,淮北市,杜集区检察院,细颗粒物(PM2.5),241,241,294,191,255,89,,106,106,16,20,15,15,1.1,1.1
2024-02-10T1900,4017A,116.7923,33.9535,淮北市,市博物馆,细颗粒物(PM2.5),262,246,338,212,284,85,,97,97,27,28,13,16,1.3,1.3
2024-02-10T1900,2277A,116.8305,32.7727,淮南市,潘集区政府,细颗粒物(PM2.5),124,132,127,94,107,81,,96,94,13,11,5,9,0.7,0.7
2024-02-10T1900,2278A,117.0067,32.6524,淮南市,师范学院,细颗粒物(PM2.5),118,125,137,89,104,35,,88,79,57,21,8,12,1.1,0.8
2024-02-10T1900,2279A,116.8569,32.5951,淮南市,谢家集区政府,细颗粒物(PM2.5),114,106,125,86,112,89,,99,99,15,12,7,12,0.8,0.8
2024-02-10T1900,2280A,116.8281,32.633,淮南市,八公山区政府,细颗粒物(PM2.5),93,90,81,69,66,96,,107,106,11,11,3,5,0.7,0.8
2024-02-10T1900,2281A,116.6325,32.6201,淮南市,焦岗湖风景区管理处,细颗粒物(PM2.5),74,83,122,54,89,68,,84,83,12,10,3,4,0.4,0.5
2024-02-10T1900,2894A,117.0566,32.6531,淮南市,经济技术开发区消防队,细颗粒物(PM2.5),93,90,119,69,96,66,,92,89,17,13,6,10,0.7,0.8
2024-02-10T1900,3329A,117.0108,32.5893,淮南市,山南新区,细颗粒物(PM2.5),99,85,138,74,138,88,,99,99,16,12,5,11,0.8,0.7
2024-02-10T1900,2446A,114.9028,30.4742,黄冈市,职工中心,细颗粒物(PM2.5),108,93,314,81,239,94,,98,98,7,16,13,24,0.8,1.2
2024-02-10T1900,2929A,114.8858,30.4519,黄冈市,红卫路,细颗粒物(PM2.5),103,92,293,77,247,77,,90,90,12,20,9,18,0.9,1.2
2024-02-10T1900,3398A,114.9136,30.4445,黄冈市,市林业局,细颗粒物(PM2.5),83,86,284,61,243,88,,99,99,12,19,7,16,0.8,1.2
2024-02-10T1900,2672A,102.0199,35.5102,黄南藏族自治州,同仁县隆务镇,,36,36,43,6,18,73,,84,83,7,6,22,19,0.8,0.7
2024-02-10T1900,2295A,118.2903,29.6963,黄山市,延安路89号,细颗粒物(PM2.5),94,79,297,70,183,90,,88,88,6,12,12,15,0.4,0.6
2024-02-10T1900,2296A,118.327,29.7178,黄山市,黄山东路89号,细颗粒物(PM2.5),67,60,199,48,172,85,,82,82,9,16,6,9,0.7,0.9
2024-02-10T1900,2297A,118.1371,30.2756,黄山市,黄山区政府5号楼,,43,43,113,29,82,89,,90,90,7,10,5,6,0.6,0.7
2024-02-10T1900,2423A,115.0601,30.2313,黄石市,沈家营,细颗粒物(PM2.5),98,85,262,73,229,96,,109,109,29,28,22,20,1.4,1.3
2024-02-10T1900,2424A,115.0817,30.2006,黄石市,陈家湾,细颗粒物(PM2.5),168,,194,127,147,63,,100,96,35,26,12,29,1.2,1.1
2024-02-10T1900,2426A,114.8988,30.2019,黄石市,铁山,细颗粒物(PM2.5),78,72,178,57,131,106,,109,109,14,28,13,16,0.8,1.1
2024-02-10T1900,2427A,115.0307,30.2092,黄石市,团城山,细颗粒物(PM2.5),93,84,289,69,229,113,,109,109,18,31,12,23,1.1,1.2
2024-02-10T1900,3149A,115.0235,30.1578,黄石市,笔架山北路,细颗粒物(PM2.5),93,75,175,69,169,101,,118,118,29,17,12,28,1.4,1.4
2024-02-10T1900,1392A,114.4183,23.0528,惠州市,河南岸金山湖子站,,48,37,47,33,44,74,,80,80,9,5,6,7,0.6,0.7
2024-02-10T1900,1393A,114.4053,23.0822,惠州市,下埔横江三路子站,,46,42,55,32,44,70,,85,84,18,8,6,7,0.8,0.8
2024-02-10T1900,1394A,114.4103,23.1142,惠州市,江北云山西路子站,,42,35,50,29,46,87,,90,90,3,3,8,10,0.6,0.6
2024-02-10T1900,1395A,114.4645,22.7833,惠州市,惠阳区承修路船湖子站,,45,37,54,31,47,70,,80,80,10,8,8,9,0.8,0.7
2024-02-10T1900,1396A,114.5317,22.7422,惠州市,大亚湾管委会子站,,40,32,50,28,45,71,,79,79,9,7,7,8,0.6,0.5
2024-02-10T1900,3314A,114.4338,22.8134,惠州市,惠阳秋长,,45,44,54,31,46,77,,88,88,10,2,8,10,0.7,0.6
2024-02-10T1900,3452A,114.6517,22.775,惠州市,大亚湾霞涌,,46,37,56,32,48,72,,78,78,8,6,10,10,0.7,0.8
2024-02-10T1900,2240A,130.9762,45.3001,鸡西市,环保局,细颗粒物(PM2.5),69,65,382,50,329,61,,80,78,26,29,14,44,0.4,0.6
2024-02-10T1900,2243A,130.9429,45.3039,鸡西市,第一中学,细颗粒物(PM2.5),87,78,467,64,384,85,,92,91,13,31,20,74,0.3,0.6
2024-02-10T1900,3707A,131.0207,45.3073,鸡西市,欧美日汽修厂,细颗粒物(PM2.5),82,68,273,60,231,55,,80,77,28,31,18,38,1.6,1.7
2024-02-10T1900,3709A,130.9967,45.3106,鸡西市,市政设施管理处,细颗粒物(PM2.5),98,,309,73,272,64,,92,88,24,32,6,14,0.7,1.2
2024-02-10T1900,2367A,114.9754,27.0803,吉安市,红声器材厂,,46,46,196,27,148,86,,72,72,13,23,11,22,0.8,1.2
2024-02-10T1900,2368A,114.9658,27.0999,吉安市,市森林工业局,,45,44,198,31,170,74,,72,72,17,20,8,24,0.7,0.5
2024-02-10T1900,2369A,114.99,27.1312,吉安市,市环境监测站,,40,36,193,28,155,87,,78,78,12,19,5,19,0.4,1.4
2024-02-10T1900,2370A,115.0093,27.0968,吉安市,青原区法院,,39,39,197,23,165,72,,78,78,15,16,9,42,0.6,1
2024-02-10T1900,1772A,126.54,43.8622,吉林市,哈达湾,细颗粒物(PM2.5),98,93,357,73,291,84,,96,96,18,32,12,38,0.7,1.1
2024-02-10T1900,1773A,126.5844,43.8358,吉林市,东局子,细颗粒物(PM2.5),119,112,419,90,347,49,,88,85,43,43,15,34,1.0,1.3
2024-02-10T1900,1774A,126.5052,43.8245,吉林市,电力学院,细颗粒物(PM2.5),251,226,230,201,210,41,,93,88,55,33,33,26,2.0,1.5
2024-02-10T1900,1775A,126.6133,43.8972,吉林市,江北,细颗粒物(PM2.5),142,132,500,108,441,64,,88,87,29,43,25,41,1.2,1.4
2024-02-10T1900,1776A,126.555,43.8306,吉林市,江南公园,细颗粒物(PM2.5),124,109,514,94,439,67,,92,91,31,43,16,68,0.7,1.2
2024-02-10T1900,2868A,126.4739,43.953,吉林市,九站,细颗粒物(PM2.5),102,88,232,76,208,87,,101,101,26,44,11,14,0.9,1.5
2024-02-10T1900,1299A,116.9862,36.6114,济南市,科干所,细颗粒物(PM2.5),64,61,289,46,206,93,,101,101,14,25,9,22,0.8,1.3
2024-02-10T1900,1300A,116.9376,36.665,济南市,农科所,细颗粒物(PM2.5),59,61,264,42,219,90,,97,97,15,32,15,20,0.7,1.1
2024-02-10T1900,1301A,117.1265,36.6734,济南市,开发区,细颗粒物(PM2.5),62,61,174,44,151,88,,92,92,13,18,12,15,0.7,1.1
2024-02-10T1900,1303A,117.0624,36.6868,济南市,省种子仓库,细颗粒物(PM2.5),62,68,261,44,202,94,,102,102,12,26,12,18,0.8,1.2
2024-02-10T1900,1304A,116.9489,36.6447,济南市,机床二厂,细颗粒物(PM2.5),64,71,306,46,216,92,,105,105,20,37,14,41,0.9,1.4
2024-02-10T1900,1305A,117.0495,36.663,济南市,市监测站,细颗粒物(PM2.5),59,61,239,42,199,96,,103,103,21,36,16,25,0.6,1.1
2024-02-10T1900,1306A,116.7675,36.5484,济南市,长清党校,细颗粒物(PM2.5),74,73,208,54,175,106,,111,111,19,23,15,15,0.8,1.2
2024-02-10T1900,1616A,117.6795,36.229,济南市,技术学院,细颗粒物(PM2.5),70,68,280,51,269,98,,112,112,21,55,13,16,0.7,1.9
2024-02-10T1900,1961A,117.532,36.6868,济南市,东山小学,细颗粒物(PM2.5),74,81,168,54,157,88,,103,103,16,26,12,24,0.4,0.8
2024-02-10T1900,3059A,117.7161,36.2049,济南市,泰兴公司,细颗粒物(PM2.5),70,78,302,51,239,88,,111,111,18,39,11,14,0.8,1.8
2024-02-10T1900,3064A,117.6867,36.2171,济南市,莱芜战役纪念馆,细颗粒物(PM2.5),70,73,327,51,301,93,,106,106,17,47,12,14,0.7,1.8
2024-02-10T1900,3494A,117.1673,36.9782,济南市,济阳区政府,细颗粒物(PM2.5),92,100,261,68,215,97,,103,103,13,23,18,31,0.5,0.9
2024-02-10T1900,3495A,117.1171,36.63,济南市,锦屏中学,细颗粒物(PM2.5),80,85,163,59,138,82,,103,102,15,18,12,15,0.6,1
2024-02-10T1900,3682A,116.9814,36.6819,济南市,济南四建,细颗粒物(PM2.5),70,66,223,51,273,91,,97,97,18,38,14,35,0.7,1.2
2024-02-10T1900,1653A,116.6251,35.4302,济宁市,火炬城,细颗粒物(PM2.5),272,268,436,222,381,89,,102,102,21,36,9,22,1.5,1.5
2024-02-10T1900,1655A,116.5491,35.4042,济宁市,电化厂,细颗粒物(PM2.5),265,258,496,215,440,101,,107,107,17,37,10,25,1.3,1.4
2024-02-10T1900,3500A,116.5814,35.3707,济宁市,北湖一中,细颗粒物(PM2.5),274,235,443,224,365,96,,100,100,37,39,10,21,1.4,1.2
2024-02-10T1900,3501A,116.8249,35.5593,济宁市,服务中心,细颗粒物(PM2.5),230,237,549,180,414,98,,116,116,19,41,11,28,1.5,1.7
2024-02-10T1900,3678A,116.5907,35.4054,济宁市,市第七中学,细颗粒物(PM2.5),287,253,492,237,396,95,,105,105,20,36,9,28,1.4,1.4
2024-02-10T1900,2255A,130.2751,46.8028,佳木斯市,佳纺,细颗粒物(PM2.5),138,118,230,105,213,106,,107,107,16,33,9,15,1.0,1.4
2024-02-10T1900,2256A,130.3995,46.8307,佳木斯市,发电厂,细颗粒物(PM2.5),105,93,189,79,154,92,,100,100,23,37,21,17,0.8,1.2
2024-02-10T1900,2257A,130.3258,46.7975,佳木斯市,环保局,细颗粒物(PM2.5),139,114,414,106,379,94,,101,101,20,46,19,60,0.9,1.5
2024-02-10T1900,2258A,130.3648,46.8032,佳木斯市,十一中,细颗粒物(PM2.5),143,,317,109,323,90,,98,97,22,44,13,36,0.9,1.2
2024-02-10T1900,2259A,130.3794,46.7588,佳木斯市,四丰,细颗粒物(PM2.5),124,142,132,94,85,127,,127,127,12,13,1,2,0.7,0.7
2024-02-10T1900,1252A,120.7436,30.778,嘉兴市,清河小学,细颗粒物(PM2.5),82,86,171,60,131,63,,93,92,34,22,7,9,0.4,0.9
2024-02-10T1900,1253A,120.726,30.7478,嘉兴市,嘉兴学院,细颗粒物(PM2.5),77,68,193,56,165,87,,102,102,19,24,6,10,0.7,1
2024-02-10T1900,2872A,120.7846,30.7525,嘉兴市,南湖区残联,细颗粒物(PM2.5),75,77,200,55,158,78,,108,108,30,22,8,11,0.8,1
2024-02-10T1900,3407A,120.6916,30.7739,嘉兴市,秀洲住建,细颗粒物(PM2.5),79,71,204,58,179,70,,93,93,13,21,10,12,0.6,0.9
2024-02-10T1900,1945A,98.2908,39.7711,嘉峪关市,气象局,,27,27,46,14,23,81,,87,87,6,10,4,10,0.2,0.2
2024-02-10T1900,2884A,98.2672,39.7978,嘉峪关市,酒钢宾馆,,39,39,43,14,18,80,,87,87,10,8,6,10,0.5,0.4
2024-02-10T1900,3248A,98.2643,39.7724,嘉峪关市,雄关区,,34,34,37,17,16,80,,85,85,8,16,6,8,0.4,0.5
2024-02-10T1900,1383A,113.1064,22.6058,江门市,北街,,46,33,45,32,39,107,,106,106,12,11,8,9,0.8,0.9
2024-02-10T1900,1384A,113.0731,22.5835,江门市,西区,细颗粒物(PM2.5),60,45,46,43,33,92,,99,99,17,11,9,10,0.5,0.6
2024-02-10T1900,1385A,113.0219,22.5311,江门市,圭峰西,,48,40,40,33,33,106,,102,102,11,7,7,7,0.6,0.7
2024-02-10T1900,1386A,113.0828,22.5947,江门市,东湖,,39,39,41,26,30,91,,98,98,12,10,6,9,0.6,0.7
2024-02-10T1900,3311A,113.1075,22.5647,江门市,江海富民,,33,28,36,22,32,104,,104,104,14,11,8,8,0.5,0.6
2024-02-10T1900,3449A,113.05,22.4667,江门市,新会银湖,细颗粒物(PM2.5),52,41,42,36,34,97,,106,106,13,9,7,7,0.7,0.8
2024-02-10T1900,1828A,113.227,35.2125,焦作市,市环保局,颗粒物(PM10),72,94,197,33,119,81,,83,83,6,16,2,32,0.5,1.1
2024-02-10T1900,3169A,113.2725,35.2067,焦作市,太极体育中心,颗粒物(PM10),81,111,212,28,148,88,,89,89,11,20,3,29,0.3,1
2024-02-10T1900,3335A,113.3137,35.2641,焦作市,马村街道办,颗粒物(PM10),73,96,204,46,131,89,,86,86,9,18,5,42,0.0,0.5
2024-02-10T1900,3336A,113.2465,35.2373,焦作市,焦作技师学院,颗粒物(PM10),66,81,245,31,166,80,,81,81,9,25,8,51,0.4,1.2
2024-02-10T1900,3477A,113.1656,35.2539,焦作市,中站许衡医院,颗粒物(PM10),60,69,141,26,84,87,,90,90,8,12,4,27,0.2,0.7
2024-02-10T1900,3981A,113.2449,35.1803,焦作市,原李万街道办,颗粒物(PM10),71,91,239,31,172,86,,88,88,14,25,5,34,0.4,1
2024-02-10T1900,1708A,116.3701,23.5345,揭阳市,新兴,细颗粒物(PM2.5),79,,54,58,50,86,,79,79,8,6,8,9,0.9,0.9
2024-02-10T1900,1709A,116.3264,23.5443,揭阳市,西马,细颗粒物(PM2.5),77,,47,56,43,89,,82,82,7,5,8,9,0.7,0.7
2024-02-10T1900,1710A,116.3611,23.5626,揭阳市,东兴,细颗粒物(PM2.5),64,,51,46,45,89,,81,81,5,4,7,8,0.8,0.7
2024-02-10T1900,1711A,116.4151,23.5294,揭阳市,渔湖,,47,47,59,22,44,88,,80,80,7,6,9,9,0.8,0.8
2024-02-10T1900,3320A,116.403,23.5699,揭阳市,曲溪,,50,46,52,35,43,82,,81,81,11,6,9,5,1.3,0.7
2024-02-10T1900,1944A,102.1692,38.5167,金昌市,天庆家园,,,29,129,10,28,85,,86,86,16,14,,40,0.8,0.5
2024-02-10T1900,3170A,102.1864,38.5253,金昌市,市委党校,颗粒物(PM10),78,106,167,42,38,74,,81,81,18,8,80,41,0.6,0.6
2024-02-10T1900,4022A,102.1647,38.5371,金昌市,金川区人防中心,颗粒物(PM10),66,82,164,22,37,84,,88,88,13,10,16,46,0.5,0.6
2024-02-10T1900,1262A,119.647,29.077,金华市,十五中,细颗粒物(PM2.5),72,57,149,52,120,83,,107,107,22,18,5,7,0.8,0.9
2024-02-10T1900,1263A,119.686,29.1029,金华市,监测站,颗粒物(PM10),58,65,112,40,85,96,,112,112,18,12,5,6,0.7,0.8
2024-02-10T1900,3659A,119.656,29.1131,金华市,气象局,细颗粒物(PM2.5),68,65,178,49,141,98,,110,110,13,17,6,7,0.8,1
2024-02-10T1900,1767A,121.1115,41.0879,锦州市,南山,细颗粒物(PM2.5),160,,177,122,150,88,,100,100,18,24,28,16,0.7,1.3
2024-02-10T1900,1768A,121.0533,40.8434,锦州市,开发区,细颗粒物(PM2.5),147,140,199,112,163,84,,90,90,22,22,17,34,0.7,1.3
2024-02-10T1900,1769A,121.1836,41.1119,锦州市,百股街道,细颗粒物(PM2.5),125,157,161,95,136,88,,96,96,14,24,23,18,0.9,1.3
2024-02-10T1900,1770A,121.1178,41.1222,锦州市,天安街道,细颗粒物(PM2.5),123,98,180,93,141,82,,92,92,18,27,22,15,0.7,1.3
2024-02-10T1900,1771A,121.1303,41.1386,锦州市,北湖公园,细颗粒物(PM2.5),117,,135,88,123,86,,92,92,18,22,24,18,0.8,1.1
2024-02-10T1900,2160A,112.85,35.5051,晋城市,自来水公司,颗粒物(PM10),63,76,171,22,125,88,,90,90,8,22,4,16,0.6,1.3
2024-02-10T1900,2161A,112.8318,35.4936,晋城市,白云商贸,颗粒物(PM10),75,99,167,22,103,90,,92,92,14,24,5,13,0.4,1
2024-02-10T1900,2162A,112.8508,35.4887,晋城市,市环保局,颗粒物(PM10),76,102,170,27,113,90,,91,91,11,28,4,13,0.6,1.1
2024-02-10T1900,2163A,112.8676,35.4897,晋城市,技术学院,颗粒物(PM10),79,108,168,22,111,89,,90,90,11,30,4,15,0.5,1.2
2024-02-10T1900,3620A,112.8271,35.4828,晋城市,泽州一中,颗粒物(PM10),63,75,132,19,82,91,,91,91,10,23,6,12,0.6,1.1
2024-02-10T1900,2171A,112.7532,37.6945,晋中市,锦纶小区,颗粒物(PM10),93,136,255,53,185,82,,86,86,14,27,7,39,0.2,0.8
2024-02-10T1900,2173A,112.7249,37.7067,晋中市,南都小区,颗粒物(PM10),97,144,381,47,196,79,,84,84,19,36,8,61,0.3,1
2024-02-10T1900,2174A,112.6991,37.6982,晋中市,榆次区政府,颗粒物(PM10),88,126,305,50,198,76,,82,82,18,32,19,44,0.4,1
2024-02-10T1900,2865A,112.7195,37.6828,晋中市,榆次三中,颗粒物(PM10),82,114,241,31,182,85,,86,86,9,29,7,44,0.4,0.9
2024-02-10T1900,2439A,112.2014,31.0481,荆门市,竹园小学,细颗粒物(PM2.5),214,201,176,164,142,61,,68,68,27,20,11,12,1.1,1.1
2024-02-10T1900,2440A,112.1969,30.9891,荆门市,掇刀,细颗粒物(PM2.5),183,164,167,138,133,77,,76,76,15,14,12,11,0.9,1
2024-02-10T1900,2441A,112.2213,31.0386,荆门市,石化一小,细颗粒物(PM2.5),206,190,182,156,138,76,,74,74,17,20,18,19,1.0,1
2024-02-10T1900,3012A,112.1849,31.0362,荆门市,西山林语,细颗粒物(PM2.5),204,190,145,154,115,48,,73,73,31,15,19,16,0.9,0.8
2024-02-10T1900,3547A,112.1632,31.0138,荆门市,龙泉中学南校,细颗粒物(PM2.5),216,188,154,166,138,79,,74,74,20,16,15,12,0.8,1
2024-02-10T1900,1844A,112.2494,30.3197,荆州市,市图书馆,细颗粒物(PM2.5),100,85,171,75,173,61,,66,66,22,16,8,13,1.1,1.1
2024-02-10T1900,1845A,112.2008,30.3544,荆州市,市委党校,细颗粒物(PM2.5),95,82,185,71,184,61,,67,67,24,19,9,13,0.8,0.8
2024-02-10T1900,3194A,112.2747,30.3122,荆州市,管委会,细颗粒物(PM2.5),97,77,151,72,172,62,,69,69,16,14,10,14,1.0,1.1
2024-02-10T1900,3548A,112.1655,30.3364,荆州市,学苑路,细颗粒物(PM2.5),98,74,171,73,183,56,,63,63,27,18,7,11,1.0,1.2
2024-02-10T1900,2342A,117.3102,29.3867,景德镇市,王港中学,细颗粒物(PM2.5),117,94,169,88,133,63,,94,94,7,6,7,28,0.6,0.5
2024-02-10T1900,2343A,117.2117,29.2933,景德镇市,老干部活动中心,细颗粒物(PM2.5),122,96,179,92,142,58,,76,76,13,12,10,15,0.8,0.7
2024-02-10T1900,2344A,117.1894,29.2789,景德镇市,兽医站,细颗粒物(PM2.5),98,94,193,73,156,84,,89,89,4,14,11,21,0.7,0.8
2024-02-10T1900,2345A,117.1547,29.2617,景德镇市,台达陶瓷,细颗粒物(PM2.5),159,123,226,121,190,,,280,280,14,16,4,15,0.7,0.9
2024-02-10T1900,2346A,117.2461,29.2956,景德镇市,陶研所,细颗粒物(PM2.5),92,91,148,68,125,42,,72,72,16,16,8,13,0.8,0.9
2024-02-10T1900,1803A,115.9872,29.6815,九江市,十里,细颗粒物(PM2.5),73,65,183,53,149,79,,97,97,16,26,10,13,0.8,0.9
2024-02-10T1900,1804A,115.9584,29.7046,九江市,茅山头,细颗粒物(PM2.5),89,,124,66,108,60,,80,80,27,28,10,14,0.9,1
2024-02-10T1900,1805A,115.9877,29.7295,九江市,西园,细颗粒物(PM2.5),117,92,151,88,130,71,,76,76,20,27,8,12,1.0,1
2024-02-10T1900,1806A,116.0172,29.6547,九江市,五七二七厂,细颗粒物(PM2.5),74,56,67,54,50,51,,74,71,12,13,9,12,0.7,0.8
2024-02-10T1900,1808A,115.9114,29.6038,九江市,综合工业园,细颗粒物(PM2.5),73,,120,53,104,87,,90,90,13,17,11,16,0.5,0.9
2024-02-10T1900,1809A,116.0721,29.7535,九江市,石化总厂,细颗粒物(PM2.5),107,105,214,80,176,89,,86,86,11,17,12,21,0.8,1
2024-02-10T1900,1810A,115.9773,29.5698,九江市,庐山气象台,,28,,28,19,22,86,,98,89,2,4,6,7,1.2,0.9
2024-02-10T1900,3190A,116.0254,29.6994,九江市,外国语学校,细颗粒物(PM2.5),113,103,191,85,167,69,,66,66,24,32,9,16,0.8,0.9
2024-02-10T1900,2658A,98.5061,39.7443,酒泉市,仓门街子站,,44,44,72,15,27,71,,79,79,11,8,5,9,0.4,0.4
2024-02-10T1900,2659A,98.4989,39.7256,酒泉市,油田生活基地,,44,44,76,25,31,78,,82,82,6,8,7,10,0.3,0.4
2024-02-10T1900,2698A,76.0072,39.4467,喀什地区,巡警大队,颗粒物(PM10),59,68,144,25,82,109,,88,88,14,48,7,16,0.7,2.2
2024-02-10T1900,2699A,75.9755,39.4694,喀什地区,吾办,颗粒物(PM10),59,68,154,33,112,105,,81,81,16,57,6,7,0.6,2.4
2024-02-10T1900,4027A,75.9483,39.4689,喀什地区,老干局,颗粒物(PM10),62,73,182,28,98,108,,85,85,16,48,6,5,0.7,3.5
2024-02-10T1900,1824A,114.3389,34.7781,开封市,肿瘤医院,细颗粒物(PM2.5),201,249,336,151,224,72,,94,94,36,28,12,38,1.2,0.8
2024-02-10T1900,1826A,114.2885,34.7965,开封市,世纪星幼儿园,细颗粒物(PM2.5),290,245,313,240,251,74,,102,102,37,21,16,46,1.1,0.7
2024-02-10T1900,3147A,114.3438,34.8106,开封市,龙亭公园,细颗粒物(PM2.5),239,225,283,189,120,84,,96,95,28,27,14,29,0.8,0.7
2024-02-10T1900,3210A,114.3644,34.7964,开封市,汴京公园,细颗粒物(PM2.5),258,240,321,208,259,62,,95,94,45,29,13,30,1.3,0.7
2024-02-10T1900,3473A,114.2485,34.8306,开封市,技师学院,细颗粒物(PM2.5),264,234,219,214,168,101,,103,103,15,16,12,18,1.1,0.8
2024-02-10T1900,3592A,114.4644,34.7556,开封市,祥符区生态环境局,细颗粒物(PM2.5),265,285,318,215,253,88,,97,97,21,25,16,48,0.9,0.7
2024-02-10T1900,1951A,84.895,45.6094,克拉玛依市,长征新村,细颗粒物(PM2.5),92,97,157,68,114,96,,86,86,38,39,10,27,1.0,1
2024-02-10T1900,1952A,84.8988,45.5893,克拉玛依市,南林小区,细颗粒物(PM2.5),98,110,198,73,163,99,,86,86,37,47,6,20,1.1,1.2
2024-02-10T1900,1954A,84.905,44.3396,克拉玛依市,独山子区,细颗粒物(PM2.5),137,155,232,104,196,113,,124,124,61,37,6,9,1.0,1.1
2024-02-10T1900,1955A,85.6979,46.098,克拉玛依市,乌尔禾区商贸楼,细颗粒物(PM2.5),85,84,132,63,106,108,,90,90,28,39,8,10,0.9,1.2
2024-02-10T1900,3612A,85.1045,45.6899,克拉玛依市,白碱滩区新站,细颗粒物(PM2.5),107,114,148,80,103,100,,84,84,35,32,12,22,1.0,0.9
2024-02-10T1900,2697A,76.1454,39.7142,克孜勒苏柯尔克孜自治州,市人民政府,,,,63,,39,,,89,89,9,13,6,6,0.8,0.7
2024-02-10T1900,3665A,76.1658,39.7157,克孜勒苏柯尔克孜自治州,克州文化中心,颗粒物(PM10),62,74,69,38,38,113,,93,93,14,13,6,8,0.9,0.6
2024-02-10T1900,1450A,102.8204,24.8886,昆明市,呈贡新区,,34,34,51,18,43,94,,90,90,8,8,11,10,0.7,0.9
2024-02-10T1900,1451A,102.6251,24.9608,昆明市,西山森林公园,,39,,49,27,39,106,,92,92,6,10,13,11,0.9,1.3
2024-02-10T1900,1452A,102.7252,25.0902,昆明市,龙泉镇,,29,25,59,18,44,90,,95,95,9,12,14,16,0.5,0.7
2024-02-10T1900,1453A,102.7266,25.0375,昆明市,东风东路,,33,27,48,23,42,84,,88,88,15,12,14,15,0.7,0.9
2024-02-10T1900,1454A,102.6742,25.0669,昆明市,金鼎山,,30,29,63,19,44,96,,94,94,11,11,10,12,0.7,0.9
2024-02-10T1900,1455A,102.6644,25.0401,昆明市,碧鸡广场,,36,26,54,25,48,91,,91,91,12,11,12,15,0.7,0.9
2024-02-10T1900,3179A,102.7494,25.0119,昆明市,官渡区博物馆,,32,32,49,18,36,88,,88,88,10,11,13,12,0.7,0.9
2024-02-10T1900,3375A,102.8017,24.8336,昆明市,青年创业园,,31,24,42,19,35,97,,94,94,5,7,13,13,0.6,0.8
2024-02-10T1900,3550A,102.7997,24.9786,昆明市,昆明学院,,29,27,48,16,35,92,,87,87,4,7,19,12,0.7,0.9
2024-02-10T1900,3551A,102.5967,24.6736,昆明市,晋宁区生态环境分局,细颗粒物(PM2.5),58,47,70,41,43,101,,96,96,8,9,21,13,0.7,0.9
2024-02-10T1900,3552A,102.6678,24.9856,昆明市,云天化总部,,32,28,66,22,55,92,,89,89,9,11,16,14,0.8,1
2024-02-10T1900,1456A,91.1319,29.6514,拉萨市,八廓街,,32,10,17,8,13,101,,94,94,11,12,7,6,0.3,0.3
2024-02-10T1900,1457A,91.1221,29.6747,拉萨市,市环保局,,31,9,29,6,22,98,,95,95,10,12,6,9,0.5,0.6
2024-02-10T1900,1458A,91.0874,29.6475,拉萨市,区监测站,,33,7,15,6,12,103,,94,94,5,7,4,5,0.4,0.5
2024-02-10T1900,1459A,91.1774,29.6541,拉萨市,西藏大学,,32,8,10,7,7,100,,95,95,4,5,4,4,0.3,0.3
2024-02-10T1900,1460A,90.9798,29.6588,拉萨市,区辐射站,,31,9,14,7,11,97,,92,92,6,9,5,6,0.5,0.6
2024-02-10T1900,1461A,91.0834,29.6292,拉萨市,拉萨火车站,,32,7,15,6,12,101,,94,94,4,9,4,4,0.5,0.4
2024-02-10T1900,2520A,109.2203,23.7256,来宾市,来宾技工学校,细颗粒物(PM2.5),60,,102,43,85,97,,88,88,10,12,9,11,1.0,0.9
2024-02-10T1900,3535A,109.1781,23.7297,来宾市,兴宾区政府,细颗粒物(PM2.5),58,,72,41,63,100,,90,90,10,9,12,10,1.0,0.9
2024-02-10T1900,4002A,109.2416,23.7461,来宾市,中南小学,细颗粒物(PM2.5),83,,106,61,90,90,,91,91,16,15,7,10,1.2,1.1
2024-02-10T1900,1476A,103.631,36.1031,兰州市,兰炼宾馆,颗粒物(PM10),82,113,210,40,100,51,,83,83,49,34,14,27,1.1,0.8
2024-02-10T1900,1478A,103.8412,36.0726,兰州市,生物制品所,颗粒物(PM10),75,100,219,46,86,73,,67,67,25,35,13,18,0.7,0.9
2024-02-10T1900,1479A,103.831,36.0464,兰州市,铁路设计院,颗粒物(PM10),71,91,195,41,97,26,,59,59,78,53,17,26,0.8,1.1
2024-02-10T1900,3186A,103.7158,36.1058,兰州市,教育港,颗粒物(PM10),80,109,197,39,71,66,,75,75,35,36,12,18,0.8,0.8
2024-02-10T1900,3241A,103.7439,36.0842,兰州市,百合公园,颗粒物(PM10),76,101,186,26,83,67,,66,66,31,38,11,15,0.6,1
2024-02-10T1900,3242A,103.9611,35.998,兰州市,和平,颗粒物(PM10),68,86,154,32,74,79,,80,80,18,23,15,21,0.7,0.9
2024-02-10T1900,3245A,103.6633,36.533,兰州新区,新区管委会,颗粒物(PM10),83,116,216,30,58,74,,83,83,20,14,13,13,0.9,0.7
2024-02-10T1900,3246A,103.6975,36.4789,兰州新区,舟曲中学,颗粒物(PM10),98,145,217,32,39,79,,85,85,14,14,11,12,0.5,0.6
2024-02-10T1900,1067A,116.6708,39.5111,廊坊市,药材公司,颗粒物(PM10),63,76,40,39,24,82,,91,90,11,6,3,3,0.4,0.3
2024-02-10T1900,1068A,116.7214,39.5589,廊坊市,开发区,细颗粒物(PM2.5),55,48,29,39,22,79,,86,86,11,7,4,3,0.4,0.3
2024-02-10T1900,1070A,116.7244,39.5269,廊坊市,北华航天学院,颗粒物(PM10),59,67,38,32,16,85,,93,92,14,9,5,3,0.4,0.3
2024-02-10T1900,2919A,116.7022,39.5453,廊坊市,河北工业大学,细颗粒物(PM2.5),64,59,38,46,26,82,,89,88,13,9,3,3,0.4,0.3
2024-02-10T1900,2535A,103.7723,29.5462,乐山市,花湖湾,细颗粒物(PM2.5),89,88,156,66,134,103,,90,90,9,11,10,8,0.5,0.6
2024-02-10T1900,2536A,103.7627,29.5844,乐山市,牛耳桥,细颗粒物(PM2.5),97,77,168,72,154,63,,86,86,51,25,10,8,0.9,0.9
2024-02-10T1900,2537A,103.7508,29.6006,乐山市,市第三水厂,细颗粒物(PM2.5),100,94,237,75,210,77,,88,88,35,28,10,9,0.9,1
2024-02-10T1900,2538A,103.7571,29.5664,乐山市,市监测站,细颗粒物(PM2.5),110,,157,83,132,93,,89,89,17,18,11,10,0.5,0.6
2024-02-10T1900,3361A,103.7311,29.5628,乐山市,理工大学,细颗粒物(PM2.5),94,75,186,70,175,95,,94,94,13,19,9,9,0.7,0.9
2024-02-10T1900,2599A,100.2497,26.8802,丽江市,丽江古城,,37,37,97,21,77,90,,93,93,15,20,7,8,0.5,0.6
2024-02-10T1900,2600A,100.2203,26.8906,丽江市,市中心,,28,27,64,15,45,88,,92,92,12,17,9,15,0.7,0.7
2024-02-10T1900,1267A,119.914,28.4514,丽水市,监测站大楼,细颗粒物(PM2.5),72,72,101,52,85,51,,67,67,21,11,6,5,0.7,0.7
2024-02-10T1900,1268A,119.93,28.4586,丽水市,莲都小学,细颗粒物(PM2.5),55,56,94,39,73,61,,73,73,13,9,4,6,0.6,0.7
2024-02-10T1900,1269A,119.879,28.4231,丽水市,余庄前,细颗粒物(PM2.5),52,40,88,36,79,41,,74,70,7,8,4,4,0.5,0.7
2024-02-10T1900,1173A,119.176,34.5885,连云港市,市环境监测站,细颗粒物(PM2.5),255,224,210,205,194,112,,113,113,28,28,17,13,1.6,1.3
2024-02-10T1900,3000A,119.3581,34.6972,连云港市,德源药业,细颗粒物(PM2.5),250,222,187,200,168,117,,132,132,30,22,16,12,1.3,1.1
2024-02-10T1900,3007A,119.178,34.844,连云港市,新城一中,细颗粒物(PM2.5),288,265,245,238,244,114,,131,131,33,23,18,18,1.6,1.3
2024-02-10T1900,3008A,119.3608,34.7519,连云港市,胡沟管理处,细颗粒物(PM2.5),245,244,196,195,167,53,,108,103,82,25,22,17,1.4,1.1
2024-02-10T1900,3009A,119.1478,34.5911,连云港市,矿山设计院,细颗粒物(PM2.5),245,244,234,195,193,103,,108,108,25,18,17,15,1.4,1.1
2024-02-10T1900,3434A,119.2413,34.6539,连云港市,工贸学校,细颗粒物(PM2.5),261,252,229,211,187,112,,125,125,37,24,24,25,1.5,1.3
2024-02-10T1900,3664A,119.4172,34.7341,连云港市,连云街道,细颗粒物(PM2.5),227,225,174,177,138,91,,110,110,33,25,55,24,1.7,1.4
2024-02-10T1900,2571A,102.3431,27.8099,凉山彝族自治州,青龙寺,,26,14,16,3,4,82,,93,93,4,4,4,5,0.7,0.7
2024-02-10T1900,2572A,102.2721,27.8415,凉山彝族自治州,邛海宾馆,,24,24,17,15,12,76,,88,88,11,5,9,9,0.8,0.7
2024-02-10T1900,2573A,102.2625,27.898,凉山彝族自治州,西昌市政府,,30,15,16,8,11,96,,97,97,4,4,7,9,0.6,0.6
2024-02-10T1900,2574A,102.2685,27.8851,凉山彝族自治州,凉山州政府,,27,16,20,11,13,85,,88,88,6,5,5,8,0.5,0.7
2024-02-10T1900,2575A,102.237,27.8914,凉山彝族自治州,长安,,28,11,20,8,12,87,,94,94,9,5,9,12,0.8,0.7
2024-02-10T1900,2212A,123.2,41.1953,辽阳市,宏伟区,细颗粒物(PM2.5),107,,724,80,595,57,,76,75,22,37,25,105,1.0,2.1
2024-02-10T1900,2213A,123.1683,41.2495,辽阳市,新华园,细颗粒物(PM2.5),94,,710,70,609,54,,75,74,24,48,22,95,0.9,2.4
2024-02-10T1900,2214A,123.2354,41.2639,辽阳市,滨河路,细颗粒物(PM2.5),73,,392,53,393,63,,77,77,15,32,9,28,0.8,1.7
2024-02-10T1900,2215A,123.149,41.2991,辽阳市,铁西工业园,,38,32,575,26,587,63,,82,81,17,43,12,35,0.9,2.7
2024-02-10T1900,2227A,125.1358,42.8845,辽源市,环保局,细颗粒物(PM2.5),110,92,461,83,414,86,,91,91,15,37,22,70,0.7,1.5
2024-02-10T1900,3239A,125.0764,42.9078,辽源市,银鹰制药,细颗粒物(PM2.5),105,91,271,79,244,95,,96,96,11,26,8,14,0.8,1.4
2024-02-10T1900,1625A,115.9848,36.4372,聊城市,区政府,颗粒物(PM10),57,63,261,38,228,90,,98,98,11,23,9,15,0.6,1.3
2024-02-10T1900,2878A,116.0072,36.4343,聊城市,聊大东校,细颗粒物(PM2.5),63,58,291,45,255,98,,105,105,13,24,11,21,0.6,1.3
2024-02-10T1900,3200A,115.9819,36.4978,聊城市,监控中心,细颗粒物(PM2.5),70,74,325,51,279,89,,103,103,19,26,9,21,0.9,1.5
2024-02-10T1900,3513A,116.0445,36.4361,聊城市,九州社区,颗粒物(PM10),63,76,327,44,269,93,,102,102,14,24,10,28,0.5,1.2
2024-02-10T1900,4018A,116.0567,36.4608,聊城市,星美广场,颗粒物(PM10),62,74,320,42,255,90,,99,99,11,21,6,19,0.7,1.3
2024-02-10T1900,2632A,94.3681,29.6376,林芝市,林芝监测站,,28,2,14,0,8,89,,89,89,1,2,4,6,0.3,0.3
2024-02-10T1900,2633A,94.3616,29.6616,林芝市,林芝人民医院,,28,8,9,4,6,87,,86,86,3,3,9,9,0.4,0.4
2024-02-10T1900,2603A,100.0781,23.8982,临沧市,市环保局,细颗粒物(PM2.5),57,44,81,40,71,62,,64,64,7,11,7,17,0.6,0.6
2024-02-10T1900,2604A,100.0894,23.8822,临沧市,市气象局,细颗粒物(PM2.5),53,48,94,37,78,59,,60,60,7,11,6,18,0.6,0.6
2024-02-10T1900,1733A,111.5531,36.0783,临汾市,临钢医院,颗粒物(PM10),68,86,327,19,225,89,,80,80,5,23,5,12,0.3,1.4
2024-02-10T1900,1734A,111.5028,36.0714,临汾市,技工学校,颗粒物(PM10),62,73,389,30,307,93,,85,85,6,28,5,19,0.2,1.5
2024-02-10T1900,1736A,111.5018,36.0855,临汾市,市委,颗粒物(PM10),64,78,373,15,279,97,,87,87,2,24,4,17,0.3,1.5
2024-02-10T1900,3018A,111.505,36.1014,临汾市,唐尧大酒店,颗粒物(PM10),63,76,331,16,273,92,,85,85,12,32,6,20,0.3,1.6
2024-02-10T1900,3668A,111.5036,36.0414,临汾市,城南,颗粒物(PM10),68,85,380,26,298,93,,86,86,7,29,5,15,0.4,1.7
2024-02-10T1900,2667A,103.2069,35.5993,临夏回族自治州,环保局,,32,26,81,22,41,68,,76,76,13,26,13,21,0.4,1.5
2024-02-10T1900,2668A,103.2417,35.6057,临夏回族自治州,建设大厦,,33,,52,23,30,65,,82,82,13,16,11,18,0.4,0.9
2024-02-10T1900,1618A,118.3429,35.0532,临沂市,沂河小区,细颗粒物(PM2.5),232,193,361,182,324,98,,116,116,25,33,25,28,1.3,1.5
2024-02-10T1900,1619A,118.295,35.0583,临沂市,鲁南制药厂,细颗粒物(PM2.5),254,222,354,204,326,102,,128,128,33,37,50,38,1.8,2.1
2024-02-10T1900,1620A,118.2794,34.9976,临沂市,新光毛纺厂,细颗粒物(PM2.5),210,180,341,160,295,110,,125,125,24,37,22,25,1.4,1.8
2024-02-10T1900,1621A,118.3956,35.0888,临沂市,河东保险公司,细颗粒物(PM2.5),202,178,420,152,373,114,,130,130,26,40,18,20,1.5,1.8
2024-02-10T1900,3370A,118.3564,35.0215,临沂市,十里堡居委,细颗粒物(PM2.5),240,217,385,190,331,100,,127,127,40,41,34,36,1.6,1.9
2024-02-10T1900,3496A,118.3604,35.1084,临沂市,南坊新区,细颗粒物(PM2.5),199,183,338,149,295,120,,132,132,34,35,18,21,1.5,1.6
2024-02-10T1900,3860A,118.3920,35.0300,临沂市,皇山花园小区,细颗粒物(PM2.5),175,168,367,132,280,116,,126,126,19,38,19,30,1.3,1.8
2024-02-10T1900,1870A,109.4856,24.3895,柳州市,柳东小学,,46,36,64,32,61,81,,78,78,12,9,8,14,0.6,0.5
2024-02-10T1900,1871A,109.4157,24.3277,柳州市,环保监测站,,37,37,86,24,75,71,,76,76,16,11,10,12,0.8,0.6
2024-02-10T1900,1872A,109.389,24.341,柳州市,河西水厂,,42,37,85,29,59,72,,73,73,10,13,7,14,0.5,0.7
2024-02-10T1900,1873A,109.4311,24.2921,柳州市,市四中,细颗粒物(PM2.5),64,46,69,46,52,66,,78,78,21,13,8,8,0.7,0.6
2024-02-10T1900,1874A,109.4006,24.3631,柳州市,市九中,,50,50,108,22,81,71,,73,73,12,12,5,11,0.6,0.7
2024-02-10T1900,1875A,109.4958,24.3134,柳州市,古亭山,,40,36,50,28,40,60,,73,73,6,6,6,9,0.5,0.6
2024-02-10T1900,3402A,109.5422,24.3996,柳州市,市二中,,,25,61,22,48,,,74,74,7,8,7,8,0.7,0.7
2024-02-10T1900,2307A,116.5079,31.737,六安市,监测大楼,细颗粒物(PM2.5),63,45,76,45,80,91,,94,94,11,14,6,10,0.8,0.8
2024-02-10T1900,2308A,116.4738,31.7643,六安市,皖西学院,细颗粒物(PM2.5),62,55,100,44,93,93,,96,96,12,15,5,11,0.7,0.7
2024-02-10T1900,2309A,116.4996,31.7905,六安市,朝阳厂,细颗粒物(PM2.5),68,59,87,49,94,89,,93,93,8,10,7,10,0.7,0.7
2024-02-10T1900,2310A,116.5567,31.7886,六安市,开发区,颗粒物(PM10),57,64,115,38,87,87,,93,93,12,15,5,7,0.8,0.7
2024-02-10T1900,2577A,104.83,26.5917,六盘水市,黄土坡,,31,19,63,14,52,99,,100,100,6,12,10,15,0.3,0.6
2024-02-10T1900,2578A,104.89,26.5939,六盘水市,水钢,,33,26,58,10,42,105,,103,103,2,23,8,32,0.3,1.4
2024-02-10T1900,2579A,104.8475,26.5894,六盘水市,民中,,31,18,71,14,65,97,,102,102,8,19,7,18,0.3,0.6
2024-02-10T1900,2580A,104.9544,26.5506,六盘水市,双水,,33,29,68,22,54,104,,103,103,8,12,9,13,0.3,0.8
2024-02-10T1900,2336A,117.0217,25.1033,龙岩市,龙岩市监测站,,27,27,52,16,47,63,,81,81,9,4,5,17,0.4,0.4
2024-02-10T1900,2337A,117.0258,25.0661,龙岩市,闽西职业技术学院,,46,33,54,32,54,63,,81,81,7,4,4,15,0.5,0.5
2024-02-10T1900,2338A,117.0196,25.0306,龙岩市,龙岩学院,,34,34,49,15,41,57,,73,73,6,5,6,10,0.5,0.6
2024-02-10T1900,2885A,104.9339,33.3826,陇南市,滨江中学,颗粒物(PM10),60,69,198,23,157,50,,72,72,25,32,9,41,0.8,1.3
2024-02-10T1900,3247A,104.955,33.371,陇南市,市总工会,,31,31,135,7,99,78,,82,82,4,20,3,23,0.4,0.8
2024-02-10T1900,2487A,111.9589,27.8901,娄底市,电视发射台,细颗粒物(PM2.5),224,206,104,174,82,48,,66,66,20,9,9,8,1.7,1.1
2024-02-10T1900,2488A,111.9975,27.725,娄底市,市监测站,细颗粒物(PM2.5),203,179,503,153,427,87,,72,72,22,39,23,21,1.0,2.9
2024-02-10T1900,2489A,112.0194,27.7314,娄底市,市委党校,细颗粒物(PM2.5),201,182,429,151,358,76,,57,57,17,32,14,13,0.7,2
2024-02-10T1900,2490A,111.9561,27.7569,娄底市,涟钢,细颗粒物(PM2.5),193,185,413,145,349,74,,54,54,29,26,40,17,2.0,2
2024-02-10T1900,2491A,111.9892,27.7044,娄底市,市政府,细颗粒物(PM2.5),180,171,434,136,348,77,,72,72,17,23,12,12,0.8,1.6
2024-02-10T1900,1893A,105.4324,28.9634,泸州市,九狮山,细颗粒物(PM2.5),79,100,168,58,118,105,,93,93,8,11,8,9,0.5,0.5
2024-02-10T1900,1894A,105.4427,28.9063,泸州市,小市上码头,细颗粒物(PM2.5),74,,93,54,100,94,,80,80,12,14,6,9,0.6,0.8
2024-02-10T1900,1895A,105.4241,28.8573,泸州市,兰田宪桥,细颗粒物(PM2.5),79,77,134,58,120,91,,82,82,17,19,6,7,0.5,0.8
2024-02-10T1900,1896A,105.4379,28.8833,泸州市,市环监站,细颗粒物(PM2.5),82,73,116,60,100,90,,77,77,9,13,4,7,0.5,0.7
2024-02-10T1900,3490A,105.3617,28.7703,泸州市,纳溪区环保局,细颗粒物(PM2.5),73,73,154,53,122,94,,85,85,13,18,7,8,0.9,1
2024-02-10T1900,2183A,111.1406,37.5211,吕梁市,环保局,颗粒物(PM10),108,166,197,51,112,72,,75,75,20,23,5,10,0.4,0.6
2024-02-10T1900,2185A,111.1297,37.5136,吕梁市,自来水公司,颗粒物(PM10),103,156,227,43,150,77,,81,81,19,25,6,16,0.5,0.7
2024-02-10T1900,2867A,111.1283,37.51,吕梁市,马茂庄小学,颗粒物(PM10),117,184,252,52,146,76,,78,78,15,27,3,14,0.3,0.6
2024-02-10T1900,1812A,112.3931,34.6516,洛阳市,市委党校,颗粒物(PM10),115,179,361,66,281,78,,79,79,16,30,14,41,0.6,0.8
2024-02-10T1900,1814A,112.4657,34.6871,洛阳市,豫西宾馆,颗粒物(PM10),103,156,364,51,222,89,,88,88,8,42,8,35,0.1,0.5
2024-02-10T1900,1815A,112.494,34.6886,洛阳市,河南林校,颗粒物(PM10),95,139,339,42,244,93,,91,91,6,32,6,29,0.6,1
2024-02-10T1900,1816A,112.3844,34.623,洛阳市,开发区管委会,颗粒物(PM10),108,166,270,58,189,85,,85,85,7,18,8,33,0.7,0.7
2024-02-10T1900,1817A,112.4267,34.6258,洛阳市,市委新办公区,颗粒物(PM10),107,164,275,66,243,86,,85,85,11,24,8,21,0.6,0.8
2024-02-10T1900,3340A,112.6005,34.6326,洛阳市,伊滨,颗粒物(PM10),98,146,317,41,202,89,,90,90,8,21,5,20,0.4,0.7
2024-02-10T1900,3341A,112.4951,34.6332,洛阳市,中移产业园,颗粒物(PM10),109,167,274,50,215,90,,88,88,12,23,10,29,0.7,0.8
2024-02-10T1900,3593A,112.5736,34.8993,洛阳市,吉利监测站,颗粒物(PM10),84,118,128,31,68,86,,89,89,10,13,5,9,0.4,0.5
2024-02-10T1900,3635A,112.3677,34.662,洛阳市,河科大西苑校区,颗粒物(PM10),123,196,358,63,246,78,,84,84,18,33,7,38,0.2,0.4
2024-02-10T1900,3636A,112.4388,34.6781,洛阳市,英才小学,颗粒物(PM10),106,161,341,52,287,90,,89,89,9,32,5,39,0.4,0.9
2024-02-10T1900,2399A,114.051,33.5699,漯河市,三五一五工厂,细颗粒物(PM2.5),182,173,204,137,201,69,,84,83,28,21,14,18,0.9,0.9
2024-02-10T1900,2400A,114.0055,33.5698,漯河市,漯河大学,细颗粒物(PM2.5),156,148,167,119,162,74,,85,85,14,9,11,15,1.0,0.9
2024-02-10T1900,2401A,114.0138,33.5828,漯河市,市水利局,细颗粒物(PM2.5),168,180,204,127,180,67,,85,84,32,14,13,18,0.9,0.9
2024-02-10T1900,2402A,114.0261,33.5698,漯河市,市广电局,细颗粒物(PM2.5),185,210,194,139,169,48,,84,80,49,17,18,14,1.4,1.1
2024-02-10T1900,3478A,113.9749,33.5664,漯河市,市图书馆,细颗粒物(PM2.5),149,152,175,114,155,78,,83,83,21,16,16,18,0.7,0.7
2024-02-10T1900,3479A,114.0967,33.5906,漯河市,召陵区卫健委,细颗粒物(PM2.5),149,159,234,114,201,88,,86,86,17,17,12,19,0.8,0.8
2024-02-10T1900,1798A,118.5092,31.6837,马鞍山市,湖东路四小,细颗粒物(PM2.5),78,87,141,57,102,94,,111,110,26,22,11,15,0.8,1
2024-02-10T1900,1799A,118.5024,31.6449,马鞍山市,开发区,细颗粒物(PM2.5),70,67,123,51,108,90,,112,112,28,25,7,12,0.6,1
2024-02-10T1900,1800A,118.5228,31.7231,马鞍山市,慈湖,细颗粒物(PM2.5),85,72,131,63,110,87,,106,104,33,29,11,13,0.7,0.9
2024-02-10T1900,1802A,118.6245,31.7241,马鞍山市,濮塘,颗粒物(PM10),59,68,62,34,46,90,,102,100,16,13,8,10,0.6,0.8
2024-02-10T1900,3633A,118.4918,31.6809,马鞍山市,雨山,细颗粒物(PM2.5),75,70,145,55,111,100,,113,112,24,27,11,17,0.5,0.9
2024-02-10T1900,1686A,111.0286,21.4688,茂名市,电白南海,细颗粒物(PM2.5),89,110,109,66,83,75,,75,75,14,11,18,20,0.9,1
2024-02-10T1900,1687A,110.9294,21.6533,茂名市,茂石化七小,细颗粒物(PM2.5),73,63,77,53,69,69,,75,75,14,11,15,18,1.1,1.2
2024-02-10T1900,1688A,110.9107,21.6687,茂名市,健康路,细颗粒物(PM2.5),62,56,72,44,59,60,,70,70,14,9,11,18,0.9,1.1
2024-02-10T1900,1689A,110.8592,21.6828,茂名市,高岭,细颗粒物(PM2.5),58,58,73,41,65,60,,67,67,11,8,13,22,0.7,0.8
2024-02-10T1900,3450A,111.01,21.5165,茂名市,电白水东,细颗粒物(PM2.5),70,61,85,51,72,79,,76,76,10,10,9,13,0.9,0.9
2024-02-10T1900,2539A,104.0308,30.0478,眉山市,黑龙滩水库,细颗粒物(PM2.5),83,71,76,61,57,120,,116,116,4,4,2,6,0.7,0.7
2024-02-10T1900,2540A,103.8416,30.0874,眉山市,气象局,细颗粒物(PM2.5),67,58,174,48,166,108,,103,103,12,20,9,19,0.8,0.9
2024-02-10T1900,3137A,103.8578,30.0744,眉山市,市委党校,细颗粒物(PM2.5),85,75,166,63,142,87,,98,98,27,22,8,10,0.7,0.8
2024-02-10T1900,3148A,103.8291,30.0564,眉山市,区人社局,细颗粒物(PM2.5),77,64,178,56,182,85,,96,96,44,32,9,13,0.6,0.7
2024-02-10T1900,1690A,116.1231,24.3284,梅州市,梅江月梅,,42,42,57,22,57,69,,76,76,4,5,8,12,0.6,0.7
2024-02-10T1900,1691A,116.0797,24.2719,梅州市,梅县新城,,42,40,72,29,70,53,,80,78,17,7,6,9,0.6,0.6
2024-02-10T1900,1692A,116.1248,24.2654,梅州市,环境监控中心,,48,34,80,33,73,55,,72,72,14,9,5,7,0.7,0.7
2024-02-10T1900,3315A,116.1233,24.2991,梅州市,梅龙,,49,39,59,34,58,46,,73,71,26,8,6,9,0.9,0.7
2024-02-10T1900,1878A,104.7778,31.4741,绵阳市,富乐山,细颗粒物(PM2.5),99,84,132,74,117,100,,104,104,10,13,7,8,0.8,1
2024-02-10T1900,1879A,104.7563,31.4535,绵阳市,市人大,细颗粒物(PM2.5),114,100,169,86,133,87,,96,96,28,29,6,6,0.8,1
2024-02-10T1900,1880A,104.6697,31.4668,绵阳市,高新区自来水公司,细颗粒物(PM2.5),127,104,181,96,158,106,,103,103,14,26,8,8,0.8,1.1
2024-02-10T1900,1881A,104.7287,31.5075,绵阳市,三水厂,细颗粒物(PM2.5),114,91,196,86,187,80,,100,100,33,29,7,7,0.9,1.3
2024-02-10T1900,3491A,104.69,31.5322,绵阳市,西科大附属小学,细颗粒物(PM2.5),119,98,167,90,154,105,,104,104,21,23,9,9,0.7,1
2024-02-10T1900,3492A,104.5648,31.5343,绵阳市,安州区旅游局,细颗粒物(PM2.5),124,104,186,94,167,88,,99,99,26,26,6,7,1.0,1.2
2024-02-10T1900,1784A,129.61,44.561,牡丹江市,环保大楼,细颗粒物(PM2.5),115,123,210,87,162,69,,96,94,42,28,29,47,0.8,0.8
2024-02-10T1900,1785A,129.6115,44.5782,牡丹江市,文化广场,细颗粒物(PM2.5),163,179,261,124,205,46,,89,85,60,31,31,51,1.0,0.9
2024-02-10T1900,1786A,129.5904,44.5963,牡丹江市,第一医院,细颗粒物(PM2.5),148,149,303,113,256,56,,84,82,44,49,30,52,1.0,1.1
2024-02-10T1900,1787A,129.6364,44.6075,牡丹江市,机车工厂,细颗粒物(PM2.5),65,65,201,47,154,77,,83,80,19,38,13,22,0.6,0.8
2024-02-10T1900,1788A,129.6386,44.5462,牡丹江市,第一中学,细颗粒物(PM2.5),108,91,101,81,87,67,,95,92,28,21,19,21,1.0,0.9
2024-02-10T1900,2531A,105.0703,29.61,内江市,市监测站,细颗粒物(PM2.5),92,88,217,68,232,88,,90,90,16,26,6,13,0.9,1
2024-02-10T1900,2532A,105.0717,29.5947,内江市,东兴区政府,细颗粒物(PM2.5),69,71,210,50,214,92,,92,92,10,18,9,13,0.7,0.9
2024-02-10T1900,2533A,105.0653,29.5817,内江市,内江二中,细颗粒物(PM2.5),94,74,230,70,247,98,,95,95,8,19,7,9,0.9,1
2024-02-10T1900,2534A,105.0406,29.5822,内江市,内江日报社,细颗粒物(PM2.5),90,79,235,67,241,85,,91,91,18,28,6,10,0.8,1
2024-02-10T1900,2628A,92.0657,31.4846,那曲市,那曲监测站,,28,11,41,6,29,87,,82,82,6,12,7,9,0.7,1
2024-02-10T1900,3128A,92.0506,31.4797,那曲市,那曲会议中心,,31,7,40,3,24,99,,92,92,2,14,5,9,0.3,0.8
2024-02-10T1900,1290A,115.8931,28.6843,南昌市,省外办,细颗粒物(PM2.5),92,84,144,68,125,86,,88,88,11,13,8,8,0.9,0.9
2024-02-10T1900,1291A,115.8886,28.7003,南昌市,省林业公司,细颗粒物(PM2.5),83,73,121,61,108,85,,86,86,20,15,6,8,1.1,1
2024-02-10T1900,1292A,115.8126,28.7442,南昌市,林科所,细颗粒物(PM2.5),77,70,85,56,75,88,,93,93,9,9,9,9,0.8,0.8
2024-02-10T1900,1294A,115.8518,28.687,南昌市,建工学校,细颗粒物(PM2.5),97,84,155,72,123,91,,88,88,14,13,7,9,0.9,0.8
2024-02-10T1900,1295A,115.8921,28.6424,南昌市,象湖,细颗粒物(PM2.5),67,64,172,48,135,93,,94,94,14,16,7,9,0.9,0.9
2024-02-10T1900,1296A,115.7423,28.7996,南昌市,武术学校,细颗粒物(PM2.5),53,,38,37,42,67,,85,85,7,5,11,8,0.8,0.9
2024-02-10T1900,1298A,115.9314,28.6842,南昌市,省站,细颗粒物(PM2.5),85,94,169,63,130,85,,89,89,10,17,9,11,0.9,0.9
2024-02-10T1900,3046A,115.9084,28.6062,南昌市,机电学校,细颗粒物(PM2.5),64,63,203,46,176,89,,94,94,10,12,8,12,1.2,1.1
2024-02-10T1900,3690A,115.9721,28.7031,南昌市,外国语学校,细颗粒物(PM2.5),94,76,152,70,150,85,,85,85,16,19,7,10,0.7,0.7
2024-02-10T1900,1905A,106.056,30.8064,南充市,西山风景区,细颗粒物(PM2.5),77,,143,56,147,104,,93,93,8,19,4,6,0.8,1
2024-02-10T1900,1906A,106.0789,30.8023,南充市,南充市委,细颗粒物(PM2.5),83,77,196,61,170,71,,81,81,29,29,5,6,0.7,0.9
2024-02-10T1900,1907A,106.1031,30.8217,南充市,南充炼油厂,细颗粒物(PM2.5),87,76,197,64,171,87,,84,84,18,23,6,6,0.5,0.7
2024-02-10T1900,1908A,106.1064,30.7856,南充市,高坪区监测站,细颗粒物(PM2.5),79,81,173,58,138,93,,91,91,16,24,7,7,0.6,0.8
2024-02-10T1900,1909A,106.0642,30.7636,南充市,嘉陵区环保局,细颗粒物(PM2.5),85,104,196,63,175,49,,81,81,52,31,4,5,1.0,1
2024-02-10T1900,1910A,106.1087,30.8388,南充市,市环境监测站,细颗粒物(PM2.5),75,71,182,55,147,98,,96,96,15,26,7,8,0.6,0.8
2024-02-10T1900,1151A,118.8086,32.1065,南京市,迈皋桥,细颗粒物(PM2.5),83,78,125,61,102,80,,88,88,18,26,5,6,0.8,0.9
2024-02-10T1900,1152A,118.7538,32.0551,南京市,草场门,细颗粒物(PM2.5),83,92,127,61,102,99,,107,107,32,29,10,9,1.1,0.9
2024-02-10T1900,1153A,118.7794,32.0745,南京市,山西路,细颗粒物(PM2.5),89,90,118,66,103,67,,79,79,37,30,10,11,1.1,1
2024-02-10T1900,1154A,118.7752,32.0023,南京市,中华门,细颗粒物(PM2.5),79,73,126,58,111,92,,104,104,21,27,14,17,0.9,1.1
2024-02-10T1900,1155A,118.8109,32.0309,南京市,瑞金路,细颗粒物(PM2.5),89,100,146,66,121,41,,91,87,34,33,3,8,1.2,1.5
2024-02-10T1900,1156A,118.7997,32.0754,南京市,玄武湖,细颗粒物(PM2.5),87,86,135,64,100,91,,102,102,15,21,13,15,0.6,0.9
2024-02-10T1900,1157A,118.6414,32.0931,南京市,浦口,细颗粒物(PM2.5),74,91,137,54,86,103,,99,99,19,20,8,10,0.8,0.8
2024-02-10T1900,1158A,118.7356,31.9996,南京市,奥体中心,细颗粒物(PM2.5),83,85,137,61,111,89,,105,105,33,28,13,16,1.1,1.3
2024-02-10T1900,1159A,118.9125,32.1028,南京市,仙林大学城,细颗粒物(PM2.5),62,66,118,44,97,98,,103,103,16,24,8,12,0.9,1.4
2024-02-10T1900,3422A,118.8436,31.9198,南京市,江宁彩虹桥,细颗粒物(PM2.5),67,72,149,48,114,107,,114,114,13,18,6,11,0.7,0.9
2024-02-10T1900,3423A,119.0138,31.6494,南京市,溧水永阳,细颗粒物(PM2.5),85,78,147,63,140,89,,111,111,23,17,4,5,0.8,0.9
2024-02-10T1900,3424A,118.879,31.3302,南京市,高淳老职中,细颗粒物(PM2.5),73,68,130,53,130,97,,109,109,15,13,7,11,0.6,0.7
2024-02-10T1900,3427A,118.8554,32.3578,南京市,六合雄州,细颗粒物(PM2.5),69,66,139,50,103,97,,106,106,15,15,4,7,0.8,0.9
2024-02-10T1900,1401A,108.3103,22.7881,南宁市,二十一中,细颗粒物(PM2.5),55,,152,39,144,85,,87,87,10,19,8,15,0.7,0.7
2024-02-10T1900,1402A,108.3141,22.8528,南宁市,北湖,,49,34,166,34,161,76,,84,84,8,15,6,14,0.8,0.8
2024-02-10T1900,1403A,108.3206,22.8225,南宁市,市监测站,细颗粒物(PM2.5),64,,123,46,95,73,,84,84,19,20,7,12,0.9,0.9
2024-02-10T1900,1404A,108.3829,22.8037,南宁市,大自然花园,细颗粒物(PM2.5),54,38,111,38,99,78,,81,81,12,16,7,9,0.7,0.6
2024-02-10T1900,1405A,108.4394,22.7904,南宁市,仙葫,细颗粒物(PM2.5),58,,250,41,226,75,,75,75,10,20,8,16,0.8,0.9
2024-02-10T1900,1406A,108.2397,22.8467,南宁市,区农职院,细颗粒物(PM2.5),52,39,88,36,70,80,,84,84,10,14,9,12,0.4,0.5
2024-02-10T1900,1407A,108.3275,22.735,南宁市,英华嘉园,细颗粒物(PM2.5),55,46,138,39,126,74,,80,80,11,16,7,11,0.6,0.6
2024-02-10T1900,1408A,108.2257,22.7757,南宁市,沙井镇街道办,细颗粒物(PM2.5),52,37,82,36,68,81,,83,83,5,12,1,5,0.6,0.6
2024-02-10T1900,3401A,108.4834,22.7618,南宁市,红星社区,细颗粒物(PM2.5),53,,237,37,220,81,,82,82,9,16,10,27,0.7,0.8
2024-02-10T1900,2332A,118.1681,26.6369,南平市,南平市监测站,细颗粒物(PM2.5),73,57,109,53,107,52,,69,69,10,8,17,27,0.9,0.8
2024-02-10T1900,2333A,118.1825,26.6489,南平市,南平铝业有限公司,细颗粒物(PM2.5),70,53,128,51,106,45,,62,62,9,8,11,22,0.8,0.6
2024-02-10T1900,2334A,118.1756,26.6272,南平市,南平七中,细颗粒物(PM2.5),58,46,78,41,91,55,,70,70,9,5,9,20,0.6,0.9
2024-02-10T1900,1168A,120.9098,31.9663,南通市,狼山街道,细颗粒物(PM2.5),163,131,171,124,159,26,,96,90,79,32,10,13,1.5,1.3
2024-02-10T1900,1169A,120.86,32.0005,南通市,虹桥,细颗粒物(PM2.5),127,107,188,96,170,54,,98,98,70,33,9,15,1.1,1.2
2024-02-10T1900,1170A,120.87,32.02,南通市,城中,细颗粒物(PM2.5),129,125,195,98,162,83,,104,104,33,31,9,16,1.3,1.5
2024-02-10T1900,1171A,120.94,31.93,南通市,星湖花园,细颗粒物(PM2.5),125,132,157,95,129,32,,91,85,70,30,13,15,1.2,1.2
2024-02-10T1900,1172A,120.81,32.0417,南通市,紫琅学院,细颗粒物(PM2.5),110,99,194,83,167,90,,112,112,21,29,9,15,0.9,1.2
2024-02-10T1900,3291A,121.067,32.062,南通市,通州监测站,,,,112,,90,61,,,,32,25,,42,,2.4
2024-02-10T1900,3432A,120.9348,31.9883,南通市,环境教育馆,细颗粒物(PM2.5),122,97,166,92,151,76,,104,104,42,32,10,16,1.0,1.2
2024-02-10T1900,2404A,112.5224,33.0122,南阳市,瓦房庄,细颗粒物(PM2.5),163,131,184,124,192,71,,79,79,22,17,13,24,0.7,0.7
2024-02-10T1900,2405A,112.5003,32.9735,南阳市,汉画馆,,,,197,,189,58,,78,75,27,17,11,18,,1
2024-02-10T1900,2406A,112.5573,33.027,南阳市,气象站,细颗粒物(PM2.5),160,,174,122,186,86,,82,82,22,21,13,21,0.6,0.8
2024-02-10T1900,2407A,112.5481,32.9689,南阳市,理工学院,细颗粒物(PM2.5),163,133,179,124,177,79,,81,81,14,12,12,25,0.8,0.9
2024-02-10T1900,4008A,112.5234,32.9922,南阳市,卧龙区政府,细颗粒物(PM2.5),152,142,186,116,178,47,,73,73,53,22,11,25,0.8,0.8
2024-02-10T1900,1234A,121.8358,29.911,宁波市,区环保大楼,细颗粒物(PM2.5),89,84,142,66,113,53,,103,97,41,20,7,9,0.8,0.9
2024-02-10T1900,1235A,121.56,29.82,宁波市,万里学院,细颗粒物(PM2.5),88,73,120,65,98,97,,102,102,23,20,8,7,0.6,0.8
2024-02-10T1900,1236A,121.713,29.9572,宁波市,龙赛医院,细颗粒物(PM2.5),90,78,188,67,158,35,,98,90,80,26,8,8,0.8,0.9
2024-02-10T1900,1239A,121.633,29.7733,宁波市,钱湖水厂,细颗粒物(PM2.5),77,64,94,56,78,106,,105,105,11,7,6,5,0.8,1
2024-02-10T1900,1240A,121.5856,29.8635,宁波市,太古小学,细颗粒物(PM2.5),89,67,107,66,96,89,,102,102,27,22,8,7,0.7,1
2024-02-10T1900,1241A,121.524,29.8674,宁波市,市环境监测中心,细颗粒物(PM2.5),94,86,127,70,96,84,,105,105,34,24,9,8,0.8,0.9
2024-02-10T1900,2871A,121.6147,29.9017,宁波市,万里国际学校,细颗粒物(PM2.5),82,69,114,60,102,92,,106,106,29,21,10,9,0.8,1
2024-02-10T1900,3710A,121.5594,29.8975,宁波市,白沙活动中心,细颗粒物(PM2.5),88,81,143,65,114,80,,101,101,24,25,9,8,0.9,1
2024-02-10T1900,2341A,119.5388,26.6612,宁德市,宁德市监测站,细颗粒物(PM2.5),92,,108,68,96,78,,82,82,14,10,14,15,0.7,0.7
2024-02-10T1900,3209A,119.5231,26.6562,宁德市,宁德一中,细颗粒物(PM2.5),93,93,106,69,87,70,,81,81,12,13,14,17,0.8,0.8
2024-02-10T1900,2618A,98.8601,25.8567,怒江傈僳族自治州,州监测站,,39,39,47,26,35,79,,81,81,4,6,16,11,0.5,0.5
2024-02-10T1900,2619A,98.8546,25.8417,怒江傈僳族自治州,泸水一中,,38,38,68,16,62,62,,73,73,15,11,12,11,0.7,0.5
2024-02-10T1900,1888A,101.6891,26.571,攀枝花市,弄弄坪,,33,,41,22,31,103,,102,102,9,16,11,21,0.6,0.8
2024-02-10T1900,1889A,101.5769,26.5928,攀枝花市,河门口,,33,33,57,23,35,100,,99,99,10,21,8,40,0.5,1.6
2024-02-10T1900,1890A,101.7169,26.585,攀枝花市,炳草岗,,31,,34,20,24,97,,102,102,14,13,14,35,0.8,0.9
2024-02-10T1900,1891A,101.7369,26.5008,攀枝花市,仁和,,40,40,49,25,40,87,,99,99,13,12,8,15,0.8,0.8
2024-02-10T1900,2835A,101.7227,26.567,攀枝花市,四十中小,,32,29,29,18,18,100,,106,106,13,11,8,31,0.6,0.7
2024-02-10T1900,1604A,122.0303,41.1489,盘锦市,开发区,细颗粒物(PM2.5),134,,229,102,195,88,,92,92,17,29,12,25,0.8,1.2
2024-02-10T1900,1605A,122.0485,41.0883,盘锦市,兴隆台,细颗粒物(PM2.5),213,,299,163,258,85,,91,91,21,34,14,36,1.1,1.5
2024-02-10T1900,1606A,121.8297,41.1028,盘锦市,新生街道,细颗粒物(PM2.5),83,68,164,61,136,72,,85,85,16,38,10,18,0.6,1.2
2024-02-10T1900,1832A,113.3257,33.742,平顶山市,新华旅馆,颗粒物(PM10),110,169,563,34,573,90,,84,84,1,31,6,34,0.2,0.8
2024-02-10T1900,1833A,113.2919,33.737,平顶山市,规划设计院,颗粒物(PM10),102,154,521,37,551,98,,95,95,5,22,9,30,0.3,1.1
2024-02-10T1900,1834A,113.182,33.774,平顶山市,平顶山工学院,颗粒物(PM10),107,163,228,34,156,88,,86,86,11,17,4,16,0.4,0.8
2024-02-10T1900,3204A,113.3025,33.73,平顶山市,规划局,颗粒物(PM10),118,185,244,40,544,82,,75,75,8,32,6,30,0.4,1
2024-02-10T1900,3594A,112.8867,33.9116,平顶山市,石龙区,颗粒物(PM10),128,205,149,41,86,91,,93,93,9,13,6,13,0.4,0.7
2024-02-10T1900,2656A,106.6692,35.5461,平凉市,聚贤嘉苑,颗粒物(PM10),59,67,98,24,28,86,,92,92,11,14,3,10,0.2,0.3
2024-02-10T1900,2657A,106.7021,35.5307,平凉市,博物馆,颗粒物(PM10),58,66,101,16,38,86,,92,92,9,13,8,14,0.2,0.5
2024-02-10T1900,2347A,114.0997,27.5002,萍乡市,武功山,细颗粒物(PM2.5),68,63,85,49,71,58,,86,86,9,9,8,10,0.8,0.7
2024-02-10T1900,2348A,113.8385,27.6434,萍乡市,中医院,细颗粒物(PM2.5),67,66,205,48,163,62,,75,75,22,25,6,14,1.3,2.3
2024-02-10T1900,2349A,113.8493,27.6253,萍乡市,市政府车库,细颗粒物(PM2.5),83,71,185,61,167,45,,74,74,33,17,13,16,1.3,1.5
2024-02-10T1900,2350A,113.8676,27.6435,萍乡市,市环保局,,48,48,225,30,191,72,,76,76,18,20,8,13,1.2,1.9
2024-02-10T1900,2351A,113.866,27.6198,萍乡市,安源区政府,细颗粒物(PM2.5),63,,220,45,166,69,,80,80,23,21,6,17,0.9,1.4
2024-02-10T1900,2319A,119.0141,25.4325,莆田市,荔城区仓后路,细颗粒物(PM2.5),70,,89,51,87,102,,96,96,9,9,8,8,0.9,1.1
2024-02-10T1900,2320A,119.0015,25.4553,莆田市,莆田市监测站,细颗粒物(PM2.5),60,,52,43,47,98,,94,94,11,9,10,9,0.6,0.7
2024-02-10T1900,2321A,119.1119,25.4561,莆田市,涵江区六中,细颗粒物(PM2.5),62,50,102,44,99,103,,96,96,5,9,9,10,1.0,1.1
2024-02-10T1900,2322A,119.1013,25.3215,莆田市,秀屿区政府,细颗粒物(PM2.5),67,49,87,48,89,104,,100,100,6,8,5,9,0.9,1
2024-02-10T1900,2392A,115.0312,35.7636,濮阳市,环保局,细颗粒物(PM2.5),369,404,514,319,386,73,,96,96,27,33,12,27,1.3,1.2
2024-02-10T1900,2394A,115.0574,35.7609,濮阳市,油田运输公司,细颗粒物(PM2.5),364,378,449,314,378,82,,100,100,19,27,15,32,1.6,1.5
2024-02-10T1900,2395A,115.0866,35.7754,濮阳市,油田物探公司,细颗粒物(PM2.5),372,382,444,322,380,77,,95,95,23,28,11,25,1.4,1.3
2024-02-10T1900,3021A,115,35.7668,濮阳市,濮水河管理处,细颗粒物(PM2.5),372,406,515,322,406,78,,96,96,22,33,13,17,1.5,1.3
2024-02-10T1900,2601A,100.98,22.7633,普洱市,市环保局,,49,42,59,34,48,52,,55,46,6,6,5,7,0.7,0.6
2024-02-10T1900,2602A,100.9817,22.8322,普洱市,普洱第二中学,,38,38,68,20,43,61,,50,50,5,13,5,7,0.8,0.8
2024-02-10T1900,2262A,131.0518,45.8751,七台河市,新一中,细颗粒物(PM2.5),140,125,83,107,73,108,,117,117,23,14,17,13,1.2,0.9
2024-02-10T1900,3345A,131.0577,45.7879,七台河市,中波台,细颗粒物(PM2.5),147,123,136,112,119,81,,90,90,42,32,23,19,1.1,1.2
2024-02-10T1900,3637A,131.0176,45.7761,七台河市,人民广场,细颗粒物(PM2.5),166,143,403,126,239,66,,88,87,48,40,20,55,1.2,1.3
2024-02-10T1900,3684A,130.8781,45.8222,七台河市,新建矿广场,细颗粒物(PM2.5),110,97,144,83,114,98,,106,106,25,37,16,20,0.9,1.1
2024-02-10T1900,1779A,123.9305,47.3636,齐齐哈尔市,安居小区,颗粒物(PM10),77,104,188,48,87,47,,73,70,27,20,16,22,0.6,0.6
2024-02-10T1900,1780A,123.9488,47.3386,齐齐哈尔市,中心广场,细颗粒物(PM2.5),112,102,229,84,170,48,,70,68,28,21,15,25,0.7,0.8
2024-02-10T1900,1781A,123.9483,47.3227,齐齐哈尔市,农牧车辆厂,颗粒物(PM10),80,110,119,50,158,52,,73,71,24,18,19,26,0.5,0.6
2024-02-10T1900,1783A,123.945,47.2988,齐齐哈尔市,市环境监测站,细颗粒物(PM2.5),72,70,224,52,210,67,,76,76,12,22,9,25,0.4,0.6
2024-02-10T1900,3662A,123.6333,47.2075,齐齐哈尔市,富区青少年活动中心,颗粒物(PM10),78,106,186,42,146,55,,69,68,14,19,13,30,0.4,0.7
2024-02-10T1900,2591A,107.9783,26.5747,黔东南苗族侗族自治州,市环境监测站,,35,35,191,23,169,74,,74,74,10,15,7,22,0.3,0.7
2024-02-10T1900,2881A,107.8908,26.5311,黔东南苗族侗族自治州,凯里学院,细颗粒物(PM2.5),52,39,113,36,92,94,,81,81,3,8,5,10,0.4,0.8
2024-02-10T1900,2593A,107.5228,26.2403,黔南布依族苗族自治州,小围寨,,,22,121,14,115,84,,73,73,,10,7,9,0.0,0.5
2024-02-10T1900,3538A,107.5175,26.2978,黔南布依族苗族自治州,沙坝,,24,14,144,14,132,75,,75,75,5,9,4,15,0.5,0.8
2024-02-10T1900,2589A,104.9022,25.0925,黔西南布依族苗族自治州,场坝街,,46,41,107,32,103,95,,95,95,6,12,2,8,0.5,0.7
2024-02-10T1900,2590A,104.8811,25.0992,黔西南布依族苗族自治州,坪东大道,,46,36,122,32,111,93,,94,94,6,12,4,8,0.4,0.6
2024-02-10T1900,2502A,108.6236,21.9667,钦州市,市环保站,,36,36,94,22,76,80,,80,80,9,12,8,17,0.9,1.2
2024-02-10T1900,2503A,108.6549,21.9481,钦州市,沙埠小学,,43,42,108,30,94,84,,81,81,6,10,8,16,0.7,0.9
2024-02-10T1900,2504A,108.5989,21.7431,钦州市,港区一小,颗粒物(PM10),68,85,111,36,83,78,,81,81,9,13,8,18,0.7,0.8
2024-02-10T1900,3404A,108.5959,21.9633,钦州市,北职校,细颗粒物(PM2.5),54,40,96,38,83,80,,81,81,6,8,10,16,0.8,0.8
2024-02-10T1900,1042A,119.5134,39.8207,秦皇岛市,北戴河环保局,颗粒物(PM10),59,68,195,37,157,82,,84,84,19,38,10,17,0.2,2
