timepoint,stationcode,longitude,latitude,area,positionname,primarypollutant,aqi,pm10,pm10_24h,pm2_5,pm2_5_24h,o3,o3_24h,o3_8h,o3_8h_24h,no2,no2_24h,so2,so2_24h,co,co_24h
2024-02-10T1400,2566A,102.1879,31.914,阿坝藏族羌族自治州,州农科所,,13,12,22,9,11,31,,20,20,1,3,6,6,0.9,0.7
2024-02-10T1400,2568A,102.2502,31.8896,阿坝藏族羌族自治州,马师校,,27,6,15,6,12,84,,69,69,1,2,3,3,0.5,0.5
2024-02-10T1400,3994A,102.2165,31.9024,阿坝藏族羌族自治州,马尔康中学西区,,25,6,12,4,8,80,,66,66,1,2,4,4,0.4,0.4
2024-02-10T1400,2695A,80.292,41.1694,阿克苏地区,电视台,颗粒物(PM10),56,61,178,31,118,67,,36,36,17,42,10,37,0.8,1.6
2024-02-10T1400,2696A,80.2613,41.1551,阿克苏地区,艺术中心,颗粒物(PM10),51,52,152,28,104,63,,40,40,20,41,10,26,1.1,1.7
2024-02-10T1400,2204A,105.6467,38.8363,阿拉善盟,西城区西花园,,34,34,182,14,55,96,,88,88,2,7,8,11,0.4,0.5
2024-02-10T1400,2205A,105.6985,38.8411,阿拉善盟,蒙二幼,,38,38,202,11,54,94,,87,87,6,9,6,11,0.3,0.5
2024-02-10T1400,2206A,105.724,38.8516,阿拉善盟,环保局新楼,,47,47,168,16,43,94,,92,92,6,8,5,8,0.5,0.5
2024-02-10T1400,2708A,88.1264,47.8517,阿勒泰地区,市站,,26,26,67,5,57,83,,71,70,8,26,7,11,0.1,0.3
2024-02-10T1400,2630A,80.1161,32.5,阿里地区,阿里监测站,,23,10,17,3,7,71,,58,58,5,8,16,18,0.4,0.5
2024-02-10T1400,3192A,80.0903,32.5028,阿里地区,阿里藏医院,,24,12,19,5,9,76,,56,56,4,8,14,14,0.4,0.5
2024-02-10T1400,2642A,109.0318,32.6537,安康市,香溪洞,细颗粒物(PM2.5),139,135,132,106,102,83,,42,42,6,11,10,13,0.8,0.9
2024-02-10T1400,2643A,109.0281,32.6939,安康市,安康市监测站,细颗粒物(PM2.5),241,211,232,191,197,64,,26,26,17,25,16,21,1.3,1.3
2024-02-10T1400,2644A,109.0072,32.6975,安康市,汉滨区检察院,细颗粒物(PM2.5),228,208,179,178,148,70,,32,32,15,17,14,12,1.1,1.1
2024-02-10T1400,2291A,117.0809,30.5177,安庆市,环科院,细颗粒物(PM2.5),120,,143,91,115,100,,83,83,4,14,12,20,0.8,1.1
2024-02-10T1400,2292A,117.0331,30.5119,安庆市,马山宾馆,细颗粒物(PM2.5),137,109,194,104,160,98,,77,77,14,27,9,20,0.7,1
2024-02-10T1400,2294A,116.9896,30.6145,安庆市,安庆大学,细颗粒物(PM2.5),108,90,173,81,145,104,,88,88,10,19,12,18,0.8,1.1
2024-02-10T1400,3173A,117.0598,30.5351,安庆市,市人大,细颗粒物(PM2.5),128,105,153,97,124,98,,80,80,10,18,9,15,0.8,1.1
2024-02-10T1400,3123A,105.9408,26.2431,安顺市,凤凰山,,32,29,152,17,141,100,,50,50,6,22,20,56,0.2,0.9
2024-02-10T1400,3124A,105.9439,26.2564,安顺市,金钟山,,31,25,87,12,79,97,,54,54,6,12,23,45,0.3,0.8
2024-02-10T1400,3125A,105.8983,26.2481,安顺市,娄家坡,,32,19,116,18,104,100,,58,58,4,13,19,39,0.3,0.8
2024-02-10T1400,1819A,114.3551,36.1017,安阳市,红庙街,细颗粒物(PM2.5),309,312,287,259,230,122,,65,65,16,31,27,30,1.5,1.5
2024-02-10T1400,1820A,114.361,36.0681,安阳市,银杏小区,细颗粒物(PM2.5),388,,341,338,259,119,,68,68,13,29,26,35,1.9,1.9
2024-02-10T1400,3141A,114.3922,36.0878,安阳市,信访局,细颗粒物(PM2.5),397,,269,347,213,125,,80,80,18,28,26,30,1.3,1.3
2024-02-10T1400,3669A,114.4705,36.0637,安阳市,左辅环卫站,细颗粒物(PM2.5),347,313,286,297,230,111,,70,70,22,27,26,29,1.5,1.5
2024-02-10T1400,3703A,114.2917,36.0949,安阳市,安钢职工学校,细颗粒物(PM2.5),353,379,366,303,269,122,,71,71,28,39,31,42,1.5,1.5
2024-02-10T1400,1748A,123.044,41.1196,鞍山市,深沟寺,细颗粒物(PM2.5),125,125,587,95,470,72,,50,50,34,52,33,62,2.1,2.1
2024-02-10T1400,1749A,123.011,41.0931,鞍山市,太阳城,细颗粒物(PM2.5),93,97,588,69,491,87,,50,50,15,44,19,90,0.6,1.8
2024-02-10T1400,1750A,123.0485,41.1442,鞍山市,太平,细颗粒物(PM2.5),120,122,582,91,478,78,,48,48,22,48,20,123,1.6,2.5
2024-02-10T1400,1751A,122.9642,41.0971,鞍山市,铁西三道街,细颗粒物(PM2.5),102,124,823,76,666,87,,37,37,10,52,18,119,0.9,2.3
2024-02-10T1400,1752A,122.9341,41.0833,鞍山市,铁西工业园区,颗粒物(PM10),81,112,508,58,469,88,,44,44,12,49,8,49,0.7,2.5
2024-02-10T1400,1753A,123.022,41.0821,鞍山市,明达新区,细颗粒物(PM2.5),103,135,585,77,559,72,,42,42,23,46,24,95,0.9,2.2
2024-02-10T1400,2195A,107.4212,40.761,巴彦淖尔市,附二中,,41,41,154,15,51,93,,76,76,1,7,5,6,0.4,0.5
2024-02-10T1400,2196A,107.37,40.7372,巴彦淖尔市,市环保大楼,,42,42,151,13,44,94,,73,73,3,7,4,5,0.3,0.5
2024-02-10T1400,1956A,86.1472,41.7538,巴音郭楞蒙古自治州,孔雀公园,颗粒物(PM10),65,79,112,34,40,78,,65,57,10,18,7,9,0.6,0.6
2024-02-10T1400,1957A,86.1972,41.7166,巴音郭楞蒙古自治州,棉纺厂,颗粒物(PM10),73,95,146,38,45,81,,58,58,6,25,4,9,0.5,0.6
2024-02-10T1400,1958A,86.2357,41.7173,巴音郭楞蒙古自治州,经济开发区,颗粒物(PM10),55,60,108,29,31,83,,78,68,13,11,6,6,0.5,0.5
2024-02-10T1400,2914A,106.7677,31.8794,巴中市,苏山坪,细颗粒物(PM2.5),102,97,122,76,99,84,,64,61,9,11,4,8,0.7,0.8
2024-02-10T1400,3182A,106.7656,31.8545,巴中市,丽阳花园,细颗粒物(PM2.5),107,84,169,80,148,76,,23,23,11,24,6,6,0.8,1.2
2024-02-10T1400,3183A,106.7418,31.8654,巴中市,圣泉水务公司,细颗粒物(PM2.5),99,86,147,74,141,82,,28,28,10,23,6,6,0.8,1.1
2024-02-10T1400,3616A,106.7616,31.8344,巴中市,市中心医院,细颗粒物(PM2.5),107,83,180,80,147,85,,24,24,7,20,7,7,0.8,1.2
2024-02-10T1400,2235A,122.7911,45.6077,白城市,洮北区环保局,,28,20,130,11,123,88,,72,72,6,13,6,17,0.4,0.6
2024-02-10T1400,2236A,122.8738,45.5725,白城市,市环保局,,26,21,145,10,131,82,,63,63,5,17,7,10,0.3,0.8
2024-02-10T1400,2231A,126.4219,41.9171,白山市,喜丰,细颗粒物(PM2.5),73,71,471,53,347,84,,55,55,12,32,19,69,1.0,1.4
2024-02-10T1400,2232A,126.4077,41.9419,白山市,环保局,细颗粒物(PM2.5),75,77,468,55,378,83,,54,54,14,38,22,64,1.0,1.5
2024-02-10T1400,2647A,104.1724,36.5446,白银市,第三小学,颗粒物(PM10),124,198,429,41,65,87,,58,58,10,18,62,38,0.6,0.5
2024-02-10T1400,2648A,104.1465,36.5482,白银市,动力公司,颗粒物(PM10),124,198,375,47,67,94,,67,67,10,15,69,23,0.6,0.6
2024-02-10T1400,2512A,106.6103,23.9011,百色市,市监测站,细颗粒物(PM2.5),69,64,79,50,56,75,,42,42,7,10,10,9,0.9,0.9
2024-02-10T1400,2513A,106.6538,23.8859,百色市,市中心血站,细颗粒物(PM2.5),67,,124,48,102,80,,40,40,6,14,10,19,0.8,1
2024-02-10T1400,3406A,106.6085,23.8798,百色市,祈福高中,细颗粒物(PM2.5),64,52,75,46,66,76,,42,42,6,10,9,10,0.8,0.9
2024-02-10T1400,2270A,117.396,32.939,蚌埠市,工人疗养院,细颗粒物(PM2.5),102,90,121,76,109,106,,91,91,8,12,10,11,0.8,0.8
2024-02-10T1400,2271A,117.3605,32.9427,蚌埠市,百货大楼,细颗粒物(PM2.5),107,96,117,80,105,107,,92,92,15,18,9,8,1.0,1
2024-02-10T1400,2273A,117.4185,32.8911,蚌埠市,蚌埠学院,细颗粒物(PM2.5),104,95,172,78,150,107,,83,83,10,13,12,15,0.9,1
2024-02-10T1400,2274A,117.3533,32.9673,蚌埠市,淮上区政府,细颗粒物(PM2.5),119,105,122,90,106,106,,90,90,11,16,11,11,0.9,0.9
2024-02-10T1400,2275A,117.3145,32.8977,蚌埠市,高新区,细颗粒物(PM2.5),104,88,195,78,172,111,,86,86,7,16,12,11,0.9,0.9
2024-02-10T1400,3715A,117.3092,32.9314,蚌埠市,蚌埠田家炳中学,细颗粒物(PM2.5),109,107,147,82,129,104,,81,81,18,23,12,14,0.7,0.8
2024-02-10T1400,1585A,109.8756,40.6532,包头市,市环境监测站,颗粒物(PM10),62,74,457,43,346,90,,61,61,4,55,8,63,0.4,1.7
2024-02-10T1400,1587A,109.9991,40.5842,包头市,包头八中,颗粒物(PM10),90,130,530,12,439,91,,45,45,5,61,9,61,0.6,2.2
2024-02-10T1400,1588A,109.8538,40.6821,包头市,青山宾馆,颗粒物(PM10),60,69,263,10,183,90,,60,60,6,46,8,25,0.5,1.5
2024-02-10T1400,1589A,109.8642,40.6288,包头市,惠龙物流,细颗粒物(PM2.5),125,127,485,95,360,90,,51,51,3,61,9,44,0.3,2
2024-02-10T1400,1590A,110.0377,40.5546,包头市,东河鸿龙湾,颗粒物(PM10),104,158,409,38,328,86,,58,58,9,54,7,31,0.4,2
2024-02-10T1400,3283A,109.9154,40.5685,包头市,滨河大厦,细颗粒物(PM2.5),183,151,395,138,336,94,,61,61,13,46,16,32,1.1,1.8
2024-02-10T1400,3419A,109.9447,40.6261,包头市,包头市委党校,颗粒物(PM10),67,84,384,13,329,87,,52,52,3,52,8,39,0.4,1.9
2024-02-10T1400,3683A,109.8331,40.6576,包头市,昆区政府,颗粒物(PM10),62,73,377,9,333,88,,56,56,7,52,10,71,0.5,1.8
2024-02-10T1400,1930A,107.185,34.3063,宝鸡市,庙沟村,颗粒物(PM10),73,95,71,26,45,83,,70,67,5,6,6,6,0.5,0.6
2024-02-10T1400,1931A,107.0708,34.3017,宝鸡市,竹园沟,颗粒物(PM10),86,122,91,27,72,98,,65,65,13,19,6,8,0.4,0.7
2024-02-10T1400,1932A,107.1906,34.3672,宝鸡市,三陆医院,颗粒物(PM10),92,134,155,24,135,100,,52,52,18,37,6,10,0.5,0.8
2024-02-10T1400,1933A,107.1431,34.3547,宝鸡市,监测站,颗粒物(PM10),77,104,174,39,147,91,,48,48,10,28,5,12,0.4,0.8
2024-02-10T1400,1934A,107.1186,34.3739,宝鸡市,技工学校,颗粒物(PM10),98,146,197,55,184,95,,53,53,16,33,7,19,0.5,0.8
2024-02-10T1400,1935A,107.3906,34.3528,宝鸡市,陈仓区环保局家属楼,颗粒物(PM10),75,100,194,34,154,95,,53,53,17,43,10,26,0.6,1.1
2024-02-10T1400,1936A,107.2058,34.3497,宝鸡市,文理学院,颗粒物(PM10),81,112,179,46,145,97,,55,55,17,34,10,14,0.4,0.7
2024-02-10T1400,1937A,107.2386,34.3622,宝鸡市,三迪小学,颗粒物(PM10),88,125,185,49,151,90,,51,51,20,40,8,15,0.5,0.9
2024-02-10T1400,1051A,115.493,38.8632,保定市,游泳馆,,37,37,253,24,183,88,,75,75,3,27,2,10,0.5,1
2024-02-10T1400,1052A,115.5213,38.8959,保定市,华电二区,细颗粒物(PM2.5),54,45,189,38,197,83,,67,67,2,21,5,11,0.1,0.6
2024-02-10T1400,1053A,115.4713,38.9108,保定市,接待中心,颗粒物(PM10),51,52,184,22,168,77,,63,63,2,17,6,12,0.3,0.7
2024-02-10T1400,1054A,115.4612,38.8416,保定市,地表水厂,颗粒物(PM10),53,55,214,11,180,85,,70,70,2,28,4,10,0.7,1.2
2024-02-10T1400,3581A,115.31981,38.95208,保定市,满城区生态环境分局,颗粒物(PM10),52,53,168,35,149,85,,59,59,2,30,6,11,0.3,0.8
2024-02-10T1400,3582A,115.47694,38.76408,保定市,清苑区第二中学,,31,31,228,17,172,90,,79,79,1,18,6,15,0.3,0.9
2024-02-10T1400,3583A,115.62909,39.02311,保定市,徐水物探局,,35,34,208,24,163,83,,58,58,7,31,5,14,0.2,0.7
2024-02-10T1400,4004A,115.4202,38.8656,保定市,双鹰农机,颗粒物(PM10),51,52,178,30,161,85,,69,69,11,29,6,9,0.3,0.8
2024-02-10T1400,4034A,115.5150,38.8590,保定市,植保所站,,39,28,211,27,220,87,,72,72,2,31,5,13,0.1,0.7
2024-02-10T1400,2594A,99.1678,25.1081,保山市,市环境监测站,,31,31,81,9,55,90,,59,59,4,8,6,18,0.3,0.4
2024-02-10T1400,2595A,99.1711,25.1328,保山市,市环保局,,38,38,64,15,37,90,,62,62,3,4,7,15,0.4,0.4
2024-02-10T1400,1867A,109.1436,21.4086,北海市,海滩公园,颗粒物(PM10),54,57,94,32,77,74,,57,57,7,10,10,13,0.7,0.9
2024-02-10T1400,1868A,109.0981,21.4661,北海市,新市环保局,细颗粒物(PM2.5),55,54,77,39,72,80,,62,62,6,8,9,12,0.8,0.9
2024-02-10T1400,1869A,109.1778,21.5233,北海市,北海工业园,"颗粒物(PM10),细颗粒物(PM2.5)",55,59,82,39,69,80,,62,62,6,9,9,14,0.7,0.8
2024-02-10T1400,3400A,109.1911,21.4415,北海市,龙潭自来水厂,细颗粒物(PM2.5),62,,80,44,70,75,,57,57,4,7,9,12,0.5,0.6
2024-02-10T1400,1001A,116.3621,39.8784,北京市,万寿西宫,,32,32,26,22,20,76,,73,73,13,11,2,2,0.2,0.2
2024-02-10T1400,1002A,116.2202,40.2915,北京市,定陵,,35,32,24,24,18,74,,75,75,7,4,2,2,0.3,0.2
2024-02-10T1400,1003A,116.4174,39.9289,北京市,东四,,31,31,27,21,18,72,,68,68,8,9,3,3,0.3,0.3
2024-02-10T1400,1004A,116.4072,39.8863,北京市,天坛,,32,31,28,22,20,82,,76,76,8,9,2,2,0.3,0.2
2024-02-10T1400,1005A,116.462,39.9365,北京市,农展馆,,29,29,25,20,18,75,,70,70,9,9,2,2,0.2,0.2
2024-02-10T1400,1006A,116.3392,39.9295,北京市,官园,,33,33,29,21,20,86,,82,82,9,10,2,2,0.3,0.3
2024-02-10T1400,1007A,116.2878,39.9611,北京市,海淀万柳,,35,35,31,21,19,80,,74,74,10,11,3,3,0.2,0.2
2024-02-10T1400,1008A,116.6636,40.135,北京市,顺义新城,,28,25,31,14,18,87,,82,82,2,4,1,1,0.2,0.2
2024-02-10T1400,1009A,116.6275,40.3275,北京市,怀柔镇,,26,23,27,16,18,83,,74,74,2,3,4,4,0.2,0.3
2024-02-10T1400,1010A,116.2296,40.217,北京市,昌平镇,,37,37,30,25,18,84,,74,71,5,5,3,3,0.3,0.2
2024-02-10T1400,1011A,116.3966,39.9821,北京市,奥体中心,,29,27,24,20,16,81,,76,76,2,2,4,3,0.3,0.3
2024-02-10T1400,1012A,116.184,39.9136,北京市,古城,,35,35,36,19,22,76,,74,74,5,3,3,2,0.3,0.3
2024-02-10T1400,3281A,115.9718,40.4529,北京市,延庆夏都,细颗粒物(PM2.5),69,67,43,50,30,74,,59,59,5,6,5,3,0.3,0.3
2024-02-10T1400,3417A,117.0709,40.1465,北京市,平谷新城,,30,12,27,9,21,93,,85,85,2,2,3,2,0.2,0.3
2024-02-10T1400,3418A,116.8336,40.4095,北京市,密云新城,,28,17,28,12,18,89,,83,83,2,2,1,2,0.2,0.2
2024-02-10T1400,3672A,116.1541,39.8204,北京市,丰台云岗,,35,35,33,23,23,82,,75,75,7,7,3,3,0.2,0.2
2024-02-10T1400,3673A,116.6804,39.9081,北京市,通州东关,,26,25,27,17,18,81,,78,78,2,3,1,2,0.3,0.3
2024-02-10T1400,3674A,115.9577,39.7603,北京市,房山燕山,,38,38,36,26,28,85,,78,78,12,11,1,3,0.2,0.3
2024-02-10T1400,3675A,116.4672,39.7733,北京市,大兴旧宫,,28,28,27,18,20,75,,68,68,7,10,2,2,0.2,0.2
2024-02-10T1400,3694A,115.986,40.4563,北京市,延庆石河营,细颗粒物(PM2.5),68,66,39,49,28,82,,62,62,5,5,4,2,0.4,0.3
2024-02-10T1400,3695A,116.6151,40.3053,北京市,怀柔新城,,27,21,24,17,19,84,,76,76,3,4,2,2,0.2,0.2
2024-02-10T1400,3696A,116.2545,39.8768,北京市,丰台小屯,,33,33,36,20,21,76,,73,73,13,13,2,2,0.2,0.3
2024-02-10T1400,3697A,116.84,40.3844,北京市,密云镇,,27,18,29,13,21,84,,79,79,2,3,2,2,0.1,0.2
2024-02-10T1400,1761A,123.8275,41.3064,本溪市,大峪,细颗粒物(PM2.5),127,124,329,96,266,67,,39,39,43,50,34,45,2.8,2.5
2024-02-10T1400,1762A,123.7567,41.3325,本溪市,溪湖,细颗粒物(PM2.5),94,104,363,70,264,86,,35,35,14,39,30,45,1.0,2.1
2024-02-10T1400,1763A,123.7169,41.3094,本溪市,彩屯,细颗粒物(PM2.5),83,61,662,61,593,90,,38,38,18,50,14,97,0.9,2.3
2024-02-10T1400,1764A,123.7669,41.2864,本溪市,东明,颗粒物(PM10),104,158,625,68,572,72,,30,30,28,56,32,159,1.8,2.3
2024-02-10T1400,1765A,123.7992,41.2664,本溪市,新立屯,细颗粒物(PM2.5),200,245,351,150,245,54,,41,41,50,52,52,72,4.1,2
2024-02-10T1400,1766A,123.8142,41.3472,本溪市,威宁,细颗粒物(PM2.5),142,165,332,108,256,72,,37,37,32,49,25,12,1.6,1.8
2024-02-10T1400,2587A,105.2864,27.3125,毕节市,八中,细颗粒物(PM2.5),55,52,137,39,120,88,,48,48,4,12,9,12,0.4,0.7
2024-02-10T1400,2588A,105.31,27.2944,毕节市,师专,细颗粒物(PM2.5),69,57,162,50,147,86,,35,35,6,16,10,11,0.5,0.8
2024-02-10T1400,3537A,105.3631,27.3533,毕节市,长征村,,32,29,141,21,111,100,,43,43,4,11,12,10,0.4,0.8
2024-02-10T1400,1629A,118.0018,37.3617,滨州市,第二水厂,细颗粒物(PM2.5),90,92,198,67,156,98,,81,81,18,25,14,22,1.1,1.3
2024-02-10T1400,1630A,117.9776,37.393,滨州市,北中新校,细颗粒物(PM2.5),99,101,253,74,204,97,,78,78,16,29,19,27,1.1,1.3
2024-02-10T1400,3514A,117.9378,37.3956,滨州市,中海酒店,细颗粒物(PM2.5),118,92,248,89,129,102,,83,82,20,27,18,30,1.0,1.3
2024-02-10T1400,3515A,117.9378,37.3553,滨州市,开发区一中,细颗粒物(PM2.5),73,75,190,53,166,98,,81,81,13,19,19,32,0.8,1.1
2024-02-10T1400,3516A,118.0917,37.694,滨州市,金海六路,细颗粒物(PM2.5),153,134,258,117,157,94,,68,67,12,29,10,29,1.9,1.5
2024-02-10T1400,4028A,117.9956,37.3753,滨州市,滨州市西街道办事处,细颗粒物(PM2.5),92,92,231,68,189,94,,77,77,15,24,19,26,1.1,1.3
2024-02-10T1400,2311A,115.8072,33.8399,亳州市,污水处理厂,细颗粒物(PM2.5),226,190,223,176,202,93,,72,72,13,16,16,16,1.1,1.1
2024-02-10T1400,2312A,115.7789,33.8518,亳州市,三国揽胜宫,细颗粒物(PM2.5),238,264,286,188,222,93,,68,68,15,19,17,18,1.2,1.2
2024-02-10T1400,3332A,115.7633,33.8034,亳州市,亳州学院,细颗粒物(PM2.5),223,206,262,173,219,91,,73,73,11,15,16,19,1.3,1.3
2024-02-10T1400,2693A,82.0485,44.8556,博尔塔拉蒙古自治州,市党校,颗粒物(PM10),62,73,163,41,114,83,,79,79,13,21,14,22,0.6,1.2
2024-02-10T1400,2694A,82.0806,44.8969,博尔塔拉蒙古自治州,市环保局,颗粒物(PM10),80,110,162,57,96,72,,58,58,27,34,10,18,1.0,1.8
2024-02-10T1400,1071A,116.8842,38.2991,沧州市,沧县城建局,细颗粒物(PM2.5),62,50,185,44,174,98,,79,79,23,32,5,13,0.9,1.3
2024-02-10T1400,1072A,116.8584,38.3254,沧州市,电视转播站,细颗粒物(PM2.5),58,62,221,41,198,101,,78,78,6,24,13,24,0.5,1.1
2024-02-10T1400,1073A,116.8709,38.3228,沧州市,市环保局,细颗粒物(PM2.5),64,61,194,46,173,96,,76,76,11,24,9,18,0.4,1
2024-02-10T1400,3324A,116.8136,38.3004,沧州市,河北水利电力学院,细颗粒物(PM2.5),60,51,161,43,138,96,,81,81,8,15,15,19,0.3,0.9
2024-02-10T1400,2622A,97.1806,31.1273,昌都市,昌都监测站,,28,28,42,2,20,69,,57,57,2,9,7,10,0.6,0.7
2024-02-10T1400,3719A,97.1714,31.1406,昌都市,昌都会议中心,,26,5,12,2,12,81,,67,67,2,3,4,5,0.3,0.3
2024-02-10T1400,2690A,88.1236,43.8886,昌吉回族自治州,天山天池,,23,8,3,0,3,72,,66,66,5,4,8,8,0.4,0.4
2024-02-10T1400,2692A,87.2717,44.0297,昌吉回族自治州,新区政务中心,细颗粒物(PM2.5),261,233,330,211,252,99,,83,61,20,38,7,7,1.8,2.4
2024-02-10T1400,3613A,87.3095,44.0142,昌吉回族自治州,亚心广场,细颗粒物(PM2.5),223,210,316,173,276,107,,96,82,26,35,11,8,1.7,2.1
2024-02-10T1400,1119A,125.3325,43.9166,长春市,食品厂,细颗粒物(PM2.5),128,122,295,97,287,85,,54,54,17,37,21,34,0.5,0.9
2024-02-10T1400,1120A,125.2863,43.9027,长春市,客车厂,细颗粒物(PM2.5),100,115,329,75,287,81,,59,59,16,33,25,34,0.6,1.1
2024-02-10T1400,1121A,125.2841,43.8463,长春市,邮电学院,细颗粒物(PM2.5),107,100,342,80,282,84,,56,56,15,46,17,35,0.7,1
2024-02-10T1400,1122A,125.3716,43.8772,长春市,劳动公园,细颗粒物(PM2.5),92,103,361,68,303,78,,47,47,20,50,12,12,0.5,1.1
2024-02-10T1400,1123A,125.3297,43.8805,长春市,园林处,颗粒物(PM10),77,104,263,48,231,90,,58,58,9,35,8,25,0.6,1.1
2024-02-10T1400,1124A,125.4605,43.79,长春市,净月潭,细颗粒物(PM2.5),163,160,290,124,259,98,,71,71,8,18,13,15,0.8,1
2024-02-10T1400,1126A,125.3863,43.8447,长春市,经开区环卫处,细颗粒物(PM2.5),124,118,406,94,341,90,,54,54,12,38,17,23,0.5,1.3
2024-02-10T1400,1127A,125.245,43.7783,长春市,高新区管委会,细颗粒物(PM2.5),130,116,355,99,318,96,,64,64,11,35,12,15,0.8,1.4
2024-02-10T1400,1128A,125.1761,43.8325,长春市,岱山公园,细颗粒物(PM2.5),169,143,268,128,239,98,,71,71,11,23,9,14,0.8,1.2
2024-02-10T1400,1335A,113.0833,28.2325,长沙市,经开区环保局,细颗粒物(PM2.5),224,197,261,174,198,71,,42,42,6,15,10,12,1.0,0.9
2024-02-10T1400,1336A,112.8872,28.2189,长沙市,高开区环保局,细颗粒物(PM2.5),205,,540,155,384,82,,39,39,7,35,8,25,1.2,1.5
2024-02-10T1400,1337A,113.0792,28.2053,长沙市,马坡岭,细颗粒物(PM2.5),242,196,394,192,284,63,,36,36,6,21,12,23,0.9,0.9
2024-02-10T1400,1338A,112.9394,28.19,长沙市,湖南师范大学,细颗粒物(PM2.5),207,,370,157,282,83,,38,38,12,26,14,24,1.5,1.2
2024-02-10T1400,1339A,113.0178,28.1322,长沙市,雨花区环保局,细颗粒物(PM2.5),204,,430,154,314,90,,40,40,5,27,9,21,1.3,1.3
2024-02-10T1400,1340A,112.9792,28.2597,长沙市,伍家岭,细颗粒物(PM2.5),244,211,576,194,369,60,,24,24,18,29,13,18,1.5,1.4
2024-02-10T1400,1341A,113.0014,28.1944,长沙市,火车新站,细颗粒物(PM2.5),147,140,528,112,429,84,,38,38,8,32,10,25,1.2,1.3
2024-02-10T1400,1342A,112.9844,28.1178,长沙市,天心区环保局,细颗粒物(PM2.5),156,125,479,119,395,92,,43,43,5,33,11,32,0.8,0.7
2024-02-10T1400,1343A,112.8908,28.1308,长沙市,湖南中医药大学,细颗粒物(PM2.5),238,,317,188,241,66,,35,35,15,25,11,9,1.8,1.3
2024-02-10T1400,1344A,112.9581,28.3611,长沙市,沙坪,细颗粒物(PM2.5),208,174,250,158,214,42,,22,22,4,14,9,14,1.1,1.2
2024-02-10T1400,1727A,113.1147,36.1547,长治市,清华站,颗粒物(PM10),80,110,147,41,112,89,,65,65,11,22,14,23,0.5,0.8
2024-02-10T1400,1728A,113.1031,36.1989,长治市,监测站,颗粒物(PM10),100,149,140,39,109,89,,56,56,14,29,14,24,0.4,0.8
2024-02-10T1400,1730A,113.0886,36.2125,长治市,审计局,颗粒物(PM10),87,123,128,46,99,91,,54,54,8,21,15,26,0.6,1.1
2024-02-10T1400,1731A,113.0844,36.1856,长治市,长治八中,细颗粒物(PM2.5),100,127,158,75,114,90,,54,54,8,23,9,20,0.6,0.9
2024-02-10T1400,2845A,113.1569,36.1911,长治市,德盛苑,颗粒物(PM10),81,111,83,41,58,94,,81,78,10,17,15,20,0.6,1
2024-02-10T1400,3568A,113.06,36.0464,长治市,向阳小学,颗粒物(PM10),100,149,160,69,126,105,,78,78,17,28,16,34,0.6,1
2024-02-10T1400,3569A,112.8792,36.3144,长治市,屯留一中,颗粒物(PM10),71,92,95,43,80,95,,72,72,6,16,9,21,0.6,1
2024-02-10T1400,3570A,113.235,36.3489,长治市,潞城四中,颗粒物(PM10),98,146,124,56,77,93,,70,70,16,18,20,20,0.7,0.9
2024-02-10T1400,1854A,111.6975,28.9703,常德市,市二中,细颗粒物(PM2.5),72,,95,52,91,79,,56,56,8,12,8,9,0.7,0.8
2024-02-10T1400,1857A,111.7158,29.1456,常德市,白鹤山,颗粒物(PM10),76,102,105,51,61,52,,40,38,2,2,3,3,0.7,0.7
2024-02-10T1400,3138A,111.7153,29.0289,常德市,武陵区永安,细颗粒物(PM2.5),88,75,111,65,90,78,,53,53,6,11,10,11,0.8,0.9
2024-02-10T1400,3139A,111.6892,28.9881,常德市,鼎城区玉霞,细颗粒物(PM2.5),82,62,141,60,124,78,,49,49,8,17,10,12,0.7,1
2024-02-10T1400,3140A,111.6625,29.0531,常德市,武陵区长庚,细颗粒物(PM2.5),83,75,117,61,93,74,,52,52,6,13,6,8,0.8,0.9
2024-02-10T1400,1196A,119.9633,31.762,常州市,市监测站,细颗粒物(PM2.5),94,106,202,70,164,115,,91,91,6,21,10,15,1.0,1.2
2024-02-10T1400,1200A,119.9468,31.7069,常州市,武进监测站,细颗粒物(PM2.5),92,105,212,68,196,111,,88,88,8,20,9,16,0.9,1.1
2024-02-10T1400,1201A,119.9255,31.9087,常州市,安家,细颗粒物(PM2.5),85,89,227,63,223,121,,85,85,8,19,10,16,0.9,1.1
2024-02-10T1400,3002A,119.9805,31.8174,常州市,行政中心,细颗粒物(PM2.5),97,98,162,72,159,109,,85,85,10,18,10,14,1.0,1.2
2024-02-10T1400,3003A,120.0522,31.7748,常州市,经开区,细颗粒物(PM2.5),102,93,167,76,154,113,,94,94,10,18,10,15,0.8,1.1
2024-02-10T1400,3010A,119.9025,31.7964,常州市,钟楼,细颗粒物(PM2.5),97,103,209,72,202,113,,84,84,10,20,10,17,0.9,1.1
2024-02-10T1400,3429A,119.8598,31.7066,常州市,武进经发区,细颗粒物(PM2.5),107,95,221,80,191,117,,92,92,12,22,9,16,1.3,1.5
2024-02-10T1400,3430A,119.5826,31.7245,常州市,金坛城区,颗粒物(PM10),67,83,210,44,170,120,,85,85,6,15,10,15,0.8,1
2024-02-10T1400,2220A,120.4318,41.5881,朝阳市,西梁,,,47,362,39,264,,,53,,9,26,19,73,0.7,1.4
2024-02-10T1400,2221A,120.4521,41.5646,朝阳市,河畔小区,,49,49,478,21,417,86,,55,55,5,28,7,73,0.6,1.5
2024-02-10T1400,2222A,120.4176,41.5648,朝阳市,八里堡,细颗粒物(PM2.5),57,40,522,40,545,84,,52,52,8,32,14,122,0.7,1.7
2024-02-10T1400,2223A,120.3806,41.5969,朝阳市,农业园区,,48,48,181,29,132,89,,55,55,6,19,14,34,0.4,0.9
2024-02-10T1400,1705A,116.6367,23.6719,潮州市,西园路,,29,29,29,16,26,66,,48,48,5,5,5,4,0.4,0.4
2024-02-10T1400,3026A,116.6183,23.6608,潮州市,市政府,,40,40,27,21,22,65,,52,52,8,8,6,6,0.6,0.7
2024-02-10T1400,4036A,116.6461,23.6761,潮州市,金山,,35,35,34,21,36,65,,46,46,6,7,6,7,0.6,0.7
2024-02-10T1400,2472A,113.0073,25.9061,郴州市,马头岭,细颗粒物(PM2.5),70,58,97,51,59,89,,48,48,7,10,8,13,0.6,0.8
2024-02-10T1400,2473A,113.0116,25.8226,郴州市,市职中,细颗粒物(PM2.5),75,56,154,55,131,82,,38,38,7,12,10,8,1.0,1.1
2024-02-10T1400,2474A,113.0161,25.8001,郴州市,兴隆步行街,细颗粒物(PM2.5),82,72,172,60,135,85,,36,36,7,19,10,5,0.7,1
2024-02-10T1400,2475A,113.0383,25.8071,郴州市,市审计局,细颗粒物(PM2.5),73,71,132,53,109,85,,40,40,7,15,10,6,0.6,0.9
2024-02-10T1400,2476A,113.0348,25.7759,郴州市,市环保局,细颗粒物(PM2.5),88,68,171,65,137,85,,40,40,10,17,8,4,0.7,0.9
2024-02-10T1400,1431A,103.9728,30.7236,成都市,金泉两河,,,56,131,,139,93,,38,38,4,28,4,4,0.7,0.9
2024-02-10T1400,1432A,104.176,30.6872,成都市,十里店,细颗粒物(PM2.5),74,67,115,54,108,109,,58,58,8,17,3,4,0.7,0.7
2024-02-10T1400,1433A,104.079,30.5706,成都市,三瓦窑,细颗粒物(PM2.5),59,55,101,42,82,100,,56,56,6,18,2,4,0.6,0.6
2024-02-10T1400,1434A,104.1114,30.63,成都市,沙河铺,细颗粒物(PM2.5),84,,128,62,119,101,,52,52,11,21,3,2,0.6,0.7
2024-02-10T1400,1437A,104.0786,30.6531,成都市,君平街,细颗粒物(PM2.5),78,72,93,57,86,107,,56,56,14,24,6,7,0.6,0.7
2024-02-10T1400,1438A,103.613,31.0283,成都市,灵岩寺,细颗粒物(PM2.5),72,72,53,52,39,101,,79,79,15,14,2,4,0.8,0.8
2024-02-10T1400,2880A,104.0239,30.65639,成都市,大石西路,细颗粒物(PM2.5),70,,99,51,89,107,,55,55,14,27,6,4,0.8,0.8
2024-02-10T1400,3136A,104.2725,30.5589,成都市,龙泉驿区区政府,细颗粒物(PM2.5),85,70,81,63,71,104,,70,70,7,12,4,4,0.8,0.8
2024-02-10T1400,3357A,104.0106,30.6931,成都市,金博路,细颗粒物(PM2.5),73,60,116,53,106,96,,42,42,10,26,3,3,0.7,0.8
2024-02-10T1400,3359A,104.0578,30.5225,成都市,华阳,细颗粒物(PM2.5),73,56,93,53,88,101,,52,52,1,16,4,3,0.7,0.9
2024-02-10T1400,3487A,104.2394,30.5319,成都市,车城东七路,细颗粒物(PM2.5),112,89,89,84,73,106,,68,66,10,14,4,6,0.7,0.7
2024-02-10T1400,3488A,104.3853,30.7453,成都市,青白江技师分院,细颗粒物(PM2.5),100,101,88,75,70,111,,67,59,11,15,14,9,0.9,0.9
2024-02-10T1400,4011A,103.8506,30.6947,成都市,光华大道三段,细颗粒物(PM2.5),89,86,158,66,137,68,,33,33,4,18,4,5,0.8,0.9
2024-02-10T1400,1062A,117.9531,40.9081,承德市,铁路,,28,28,61,14,38,83,,63,63,7,10,18,11,0.4,0.4
2024-02-10T1400,1063A,117.9392,40.9763,承德市,中国银行,,28,24,56,2,32,88,,67,67,6,10,10,9,0.3,0.4
2024-02-10T1400,1064A,117.9503,40.928,承德市,开发区,,37,37,53,19,34,88,,64,64,9,13,11,7,0.4,0.4
2024-02-10T1400,1065A,117.8051,40.9655,承德市,文化中心,,28,7,61,3,27,88,,68,68,5,10,22,10,0.4,0.4
2024-02-10T1400,1066A,117.9268,41.0026,承德市,离宫,,26,,40,14,34,83,,68,68,5,5,7,5,0.3,0.3
2024-02-10T1400,2314A,117.47,30.6618,池州市,池州学院,细颗粒物(PM2.5),92,77,102,68,88,106,,98,92,12,15,9,12,0.8,0.9
2024-02-10T1400,3237A,117.4918,30.6617,池州市,展览馆,细颗粒物(PM2.5),83,82,107,61,88,107,,96,90,11,10,6,9,0.8,0.9
2024-02-10T1400,3333A,117.5627,30.695,池州市,第八中学,细颗粒物(PM2.5),104,86,102,78,88,110,,92,92,10,11,5,9,0.7,0.8
2024-02-10T1400,3334A,117.5038,30.6243,池州市,第十二中学,细颗粒物(PM2.5),103,93,116,77,101,108,,88,88,8,11,6,12,0.6,0.8
2024-02-10T1400,1744A,118.9233,42.2816,赤峰市,松山一中,颗粒物(PM10),65,79,193,22,134,85,,62,62,6,17,6,52,0.4,0.6
2024-02-10T1400,1745A,118.9576,42.2728,赤峰市,哈达街,,29,21,146,20,114,81,,63,63,8,14,9,42,0.7,0.7
2024-02-10T1400,1746A,118.8788,42.2554,赤峰市,天义路,,26,16,77,13,62,82,,65,65,5,11,6,22,0.3,0.5
2024-02-10T1400,3058A,119.2658,42.0353,赤峰市,银河街,细颗粒物(PM2.5),142,132,223,108,161,78,,51,51,14,18,21,61,0.8,0.8
2024-02-10T1400,3286A,118.9359,42.3147,赤峰市,桥北物流园区,,32,32,75,14,64,86,,64,64,5,10,7,20,0.7,0.7
2024-02-10T1400,2521A,107.3476,22.4136,崇左市,市环保局江州分局,细颗粒物(PM2.5),59,46,90,42,66,82,,48,48,4,8,10,13,0.4,0.4
2024-02-10T1400,2522A,107.3702,22.3707,崇左市,城南新区,细颗粒物(PM2.5),65,52,76,47,73,83,,47,47,6,9,9,10,0.5,0.5
2024-02-10T1400,2298A,118.3093,32.3153,滁州市,老年大学,细颗粒物(PM2.5),78,67,129,57,122,106,,68,68,8,23,8,9,0.8,1.1
2024-02-10T1400,2299A,118.3244,32.2786,滁州市,人大宾馆,细颗粒物(PM2.5),97,87,140,72,118,105,,82,81,11,17,9,10,0.7,0.9
2024-02-10T1400,3207A,118.3118,32.3038,滁州市,市政府原办公楼,细颗粒物(PM2.5),80,69,127,59,116,105,,74,74,12,25,8,8,0.6,0.8
2024-02-10T1400,3331A,118.3267,32.2634,滁州市,图书馆,细颗粒物(PM2.5),83,103,129,61,101,103,,81,81,10,17,10,11,0.7,0.9
2024-02-10T1400,2605A,101.5482,25.0441,楚雄彝族自治州,州环境监测站,细颗粒物(PM2.5),53,47,50,37,42,82,,65,65,6,8,11,12,0.9,0.9
2024-02-10T1400,2606A,101.538,25.0492,楚雄彝族自治州,市经济开发区,细颗粒物(PM2.5),64,52,72,46,54,76,,62,62,8,10,11,20,0.9,0.9
2024-02-10T1400,2548A,107.5277,31.2827,达州市,达州职业技术学院,细颗粒物(PM2.5),113,95,122,85,96,93,,31,31,7,17,9,7,0.7,1
2024-02-10T1400,2549A,107.5086,31.2186,达州市,市环境监测站,细颗粒物(PM2.5),85,74,116,63,98,80,,24,24,18,29,7,7,0.9,1.2
2024-02-10T1400,2550A,107.4988,31.2132,达州市,凤凰小区,细颗粒物(PM2.5),92,78,117,68,99,78,,29,29,16,31,6,6,0.8,1.2
2024-02-10T1400,2551A,107.5082,31.1986,达州市,达县机关宾馆,细颗粒物(PM2.5),83,80,111,61,88,82,,28,28,19,29,5,4,0.9,1.2
2024-02-10T1400,2552A,107.4644,31.2124,达州市,市政中心,细颗粒物(PM2.5),79,74,118,58,99,86,,28,28,15,36,7,7,1.0,1.5
2024-02-10T1400,2614A,100.1542,25.7054,大理白族自治州,大理市环境监测站,,48,36,48,33,40,85,,63,63,5,8,10,11,0.8,0.5
2024-02-10T1400,2615A,100.2171,25.5811,大理白族自治州,大理古城,,42,29,77,29,66,82,,62,62,5,13,10,22,0.8,0.7
2024-02-10T1400,1109A,121.612,38.9741,大连市,甘井子,细颗粒物(PM2.5),143,111,496,109,455,94,,72,72,14,34,8,39,0.8,1
2024-02-10T1400,1110A,121.565,38.9511,大连市,周水子,细颗粒物(PM2.5),129,98,500,98,472,95,,60,60,9,38,7,43,1.3,1.9
2024-02-10T1400,1111A,121.5637,38.8845,大连市,星海三站,细颗粒物(PM2.5),88,65,515,65,496,88,,65,65,14,44,27,77,0.9,1.7
2024-02-10T1400,1112A,121.6302,38.9117,大连市,青泥洼桥,细颗粒物(PM2.5),108,81,491,81,485,93,,60,60,11,50,13,49,0.8,1.7
2024-02-10T1400,1113A,121.6251,38.8638,大连市,傅家庄,细颗粒物(PM2.5),165,,345,125,285,96,,81,,19,34,21,40,1.0,1.4
2024-02-10T1400,1114A,121.5213,38.8661,大连市,七贤岭,,50,50,294,34,265,87,,77,77,9,27,10,28,0.6,1.4
2024-02-10T1400,1115A,121.2529,38.8061,大连市,旅顺,细颗粒物(PM2.5),123,100,234,93,204,79,,58,58,20,33,14,14,1.3,1.9
2024-02-10T1400,1116A,121.7485,39.1311,大连市,金州,细颗粒物(PM2.5),297,249,302,247,273,67,,46,43,26,31,16,14,2.1,1.9
2024-02-10T1400,1117A,121.7811,39.0496,大连市,开发区,细颗粒物(PM2.5),262,262,462,212,408,66,,41,41,28,44,28,37,1.8,1.9
2024-02-10T1400,1118A,121.9762,39.0631,大连市,双D港,细颗粒物(PM2.5),149,125,167,114,138,114,,96,96,14,21,12,15,1.0,1.3
2024-02-10T1400,1789A,124.81117,46.03138,大庆市,大同区,细颗粒物(PM2.5),114,,222,86,187,92,,73,73,13,24,11,18,0.7,1.2
2024-02-10T1400,1790A,125.129,46.533,大庆市,龙凤区,,,83,441,61,371,85,,50,50,18,46,,36,0.8,1.7
2024-02-10T1400,1791A,124.902,46.408,大庆市,红岗区,,48,47,265,33,232,88,,69,69,9,32,14,32,0.6,1.1
2024-02-10T1400,1792A,125.153,46.586,大庆市,萨尔图区,细颗粒物(PM2.5),120,,320,91,288,84,,78,70,20,32,14,16,0.7,1.4
2024-02-10T1400,1793A,124.9042,46.6215,大庆市,让胡路区,细颗粒物(PM2.5),59,52,244,42,182,80,,62,62,7,33,10,15,0.5,1.3
2024-02-10T1400,3481A,125.141,46.634,大庆市,萨区政府监测点,细颗粒物(PM2.5),68,74,295,49,213,92,,71,62,12,37,16,17,0.6,1.5
2024-02-10T1400,1723A,113.2994,40.0758,大同市,云冈宾馆,细颗粒物(PM2.5),140,176,272,107,243,93,,49,49,18,38,53,32,1.1,1.4
2024-02-10T1400,1724A,113.3444,40.0917,大同市,大同大学,细颗粒物(PM2.5),119,140,212,90,199,90,,56,56,18,36,46,31,1.2,1.1
2024-02-10T1400,1725A,113.2661,40.1269,大同市,安家小村,细颗粒物(PM2.5),123,164,267,93,220,94,,54,54,14,29,38,33,1.3,1.7
2024-02-10T1400,1726A,113.2711,40.0844,大同市,教育学院,细颗粒物(PM2.5),135,156,364,103,200,82,,42,42,22,49,47,37,1.4,2
2024-02-10T1400,3282A,113.3397,40.0597,大同市,大同市卫生学校,细颗粒物(PM2.5),130,139,227,99,219,92,,56,56,18,31,46,29,1.0,1
2024-02-10T1400,3565A,113.1367,40.1122,大同市,云冈站,颗粒物(PM10),71,91,146,51,112,101,,60,60,7,18,14,31,0.5,1
2024-02-10T1400,3566A,113.1186,40.2556,大同市,图书馆,细颗粒物(PM2.5),148,142,216,113,185,82,,50,50,24,25,23,21,0.9,0.8
2024-02-10T1400,3567A,113.5931,40.0461,大同市,区一中,细颗粒物(PM2.5),113,148,284,85,150,90,,63,63,16,27,43,68,1.2,1.4
2024-02-10T1400,3676A,113.2802,40.0995,大同市,第二人民医院,细颗粒物(PM2.5),124,188,373,94,208,91,,49,49,16,41,45,32,1.2,1.8
2024-02-10T1400,2269A,124.1069,50.4097,大兴安岭地区,科技局,,25,,62,15,117,78,,71,71,4,7,8,15,0.3,0.4
2024-02-10T1400,3663A,124.1164,50.4278,大兴安岭地区,红旗社区,,29,,84,20,119,78,,74,74,3,20,7,73,0.2,0.4
2024-02-10T1400,1600A,124.3303,40.0625,丹东市,江湾东路,细颗粒物(PM2.5),54,53,417,38,346,95,,69,69,2,30,12,51,0.5,2
2024-02-10T1400,1601A,124.4256,40.1503,丹东市,临江后街,细颗粒物(PM2.5),62,65,369,44,306,98,,74,74,7,32,10,44,0.8,1.9
2024-02-10T1400,1602A,124.3933,40.1461,丹东市,元宝山,,48,48,401,29,337,88,,72,72,7,35,9,42,0.6,1.6
2024-02-10T1400,1603A,124.3633,40.1092,丹东市,民主桥,颗粒物(PM10),58,66,404,31,365,85,,66,66,9,36,10,61,0.6,1.6
2024-02-10T1400,3541A,109.5726,19.5167,儋州市,第一中学子站,细颗粒物(PM2.5),60,44,30,43,25,32,,33,32,7,8,5,5,0.9,0.9
2024-02-10T1400,3542A,109.5567,19.5187,儋州市,东坡学校子站,细颗粒物(PM2.5),55,45,31,39,26,30,,32,30,8,9,4,5,0.9,0.9
2024-02-10T1400,2616A,98.5842,24.428,德宏傣族景颇族自治州,德宏州监测站,细颗粒物(PM2.5),77,78,130,56,112,100,,38,38,20,28,39,31,0.6,0.8
2024-02-10T1400,3677A,98.5881,24.4368,德宏傣族景颇族自治州,芒市人民政府综合楼,细颗粒物(PM2.5),100,108,95,75,74,82,,39,39,29,20,69,21,0.6,0.8
2024-02-10T1400,1901A,104.4239,31.1208,德阳市,东山公园,细颗粒物(PM2.5),112,113,95,84,92,102,,74,65,11,12,4,4,0.8,0.8
2024-02-10T1400,1902A,104.3826,31.1317,德阳市,西小区,细颗粒物(PM2.5),103,104,147,77,150,94,,40,40,13,32,4,4,0.8,1
2024-02-10T1400,1904A,104.3553,31.1091,德阳市,耐火材料厂,细颗粒物(PM2.5),94,75,155,70,154,100,,46,46,5,17,5,7,0.7,0.3
2024-02-10T1400,3639A,104.4019,31.1244,德阳市,市教育局,细颗粒物(PM2.5),100,113,119,75,121,100,,44,44,9,29,4,4,0.7,0.9
2024-02-10T1400,1622A,116.3032,37.4674,德州市,儿童乐园,细颗粒物(PM2.5),92,90,199,68,178,97,,82,82,8,33,18,34,0.8,1.5
2024-02-10T1400,1624A,116.2991,37.4451,德州市,监理站,细颗粒物(PM2.5),77,73,321,56,262,102,,86,86,9,32,15,33,0.6,1.4
2024-02-10T1400,3066A,116.2721,37.4379,德州市,九衢泉纯净水厂,细颗粒物(PM2.5),78,74,305,57,248,98,,82,82,13,34,13,33,0.6,1.3
2024-02-10T1400,3371A,116.3728,37.4403,德州市,开发区人民医院,细颗粒物(PM2.5),64,75,208,46,204,101,,80,80,7,24,12,26,0.4,1.2
2024-02-10T1400,3372A,116.3572,37.4094,德州市,太阳城中学,细颗粒物(PM2.5),70,66,258,51,174,101,,81,81,5,24,11,27,0.7,1.4
2024-02-10T1400,3511A,116.5652,37.3319,德州市,陵城艺术中心,颗粒物(PM10),52,53,310,24,318,101,,72,72,10,35,7,44,0.5,1.6
2024-02-10T1400,2621A,99.7056,27.8317,迪庆藏族自治州,迪庆州站,,29,14,39,9,27,90,,73,73,5,8,8,10,0.2,0.4
2024-02-10T1400,3180A,99.7136,27.8094,迪庆藏族自治州,质量技术监督局,,30,10,40,8,38,94,,71,71,3,8,8,10,0.4,0.5
2024-02-10T1400,2663A,104.6241,35.5734,定西市,东关小学,颗粒物(PM10),69,87,138,25,70,80,,41,41,5,20,13,29,0.5,0.8
2024-02-10T1400,2664A,104.6194,35.5934,定西市,供电公司,颗粒物(PM10),63,76,130,18,68,86,,42,42,2,13,12,19,0.3,0.6
2024-02-10T1400,1389A,113.7547,23.0494,东莞市,莞城梨川,细颗粒物(PM2.5),54,49,47,38,41,93,,73,73,10,12,10,9,0.7,0.8
2024-02-10T1400,1390A,113.7944,23.0128,东莞市,东城石井,细颗粒物(PM2.5),53,44,45,37,38,94,,71,71,8,11,9,8,0.8,0.8
2024-02-10T1400,1391A,113.7383,22.9658,东莞市,南城西平,,48,43,45,33,37,93,,70,70,7,9,9,9,0.8,0.8
2024-02-10T1400,3319A,113.7338,23.0381,东莞市,万江金泰,细颗粒物(PM2.5),54,42,52,38,46,85,,64,64,3,5,8,9,0.8,0.9
2024-02-10T1400,3626A,113.7533,23.0202,东莞市,南城元岭,细颗粒物(PM2.5),54,45,43,38,34,86,,64,64,2,4,12,10,0.8,0.8
2024-02-10T1400,3627A,113.7875,23.0457,东莞市,东城主山,细颗粒物(PM2.5),60,49,52,43,41,95,,71,71,4,6,11,11,0.8,0.9
2024-02-10T1400,1666A,118.6614,37.4309,东营市,市环保局,细颗粒物(PM2.5),168,149,215,127,187,113,,80,70,20,27,22,26,1.6,1.3
2024-02-10T1400,3036A,118.6904,37.4338,东营市,开发区管委会,细颗粒物(PM2.5),156,146,229,119,198,101,,71,64,22,31,18,21,1.5,1.3
2024-02-10T1400,3365A,118.5719,37.565,东营市,垦利区民丰路,细颗粒物(PM2.5),122,110,240,92,205,94,,71,65,15,24,12,21,1.6,1.4
2024-02-10T1400,3498A,118.5055,37.8612,东营市,河口城区,细颗粒物(PM2.5),138,136,203,105,171,97,,77,77,15,26,3,7,1.6,1.6
2024-02-10T1400,3646A,118.4978,37.4623,东营市,胜利站,细颗粒物(PM2.5),163,210,300,124,192,89,,66,64,18,31,12,27,1.6,1.4
2024-02-10T1400,3734A,118.35,37.26,东营市,理想之城,细颗粒物(PM2.5),147,141,227,112,185,92,,72,64,23,29,10,19,1.6,1.3
2024-02-10T1400,1591A,110.0023,39.8129,鄂尔多斯市,综合楼,,36,36,180,9,114,91,,80,80,6,17,2,13,0.4,0.5
2024-02-10T1400,1592A,109.9486,39.8261,鄂尔多斯市,巴音孟克林场办事处,,29,29,199,12,98,85,,72,72,6,17,7,23,0.5,0.8
2024-02-10T1400,1593A,109.7736,39.5986,鄂尔多斯市,康泽苑,,36,36,168,17,84,93,,77,77,9,17,4,8,0.5,0.7
2024-02-10T1400,1594A,109.8119,39.5989,鄂尔多斯市,华泰汽车城,,36,36,161,17,81,97,,78,78,7,17,6,9,0.3,0.5
2024-02-10T1400,1595A,109.9734,39.7884,鄂尔多斯市,奥林花园,,34,34,151,12,59,90,,78,78,9,18,6,11,0.4,0.6
2024-02-10T1400,2436A,114.8938,30.3994,鄂州市,市政府,细颗粒物(PM2.5),94,98,259,70,225,85,,44,44,14,37,17,14,1.7,1.3
2024-02-10T1400,2437A,114.8989,30.3714,鄂州市,赵家坝,细颗粒物(PM2.5),93,130,166,69,173,104,,60,60,7,22,9,11,0.9,1
2024-02-10T1400,3654A,114.8094,30.4089,鄂州市,精准医疗中心,细颗粒物(PM2.5),114,126,247,86,178,106,,59,59,2,18,12,16,1.1,1.4
2024-02-10T1400,2454A,109.4978,30.2981,恩施土家族苗族自治州,湖北民院,细颗粒物(PM2.5),129,116,144,98,119,44,,32,32,8,16,7,8,1.2,1.2
2024-02-10T1400,2455A,109.4707,30.2798,恩施土家族苗族自治州,州电力总公司,细颗粒物(PM2.5),148,,155,113,132,34,,23,23,10,15,6,6,1.1,1.2
2024-02-10T1400,3549A,109.5061,30.3772,恩施土家族苗族自治州,龙凤新区,细颗粒物(PM2.5),143,,113,109,113,37,,22,22,14,16,6,6,1.1,1.1
2024-02-10T1400,2499A,108.3411,21.6158,防城港市,沙万,细颗粒物(PM2.5),58,41,62,41,50,73,,62,60,7,9,5,7,0.4,0.5
2024-02-10T1400,2500A,108.3514,21.7731,防城港市,防城档案局,细颗粒物(PM2.5),65,47,73,47,63,76,,62,62,7,10,7,11,0.5,0.5
2024-02-10T1400,2501A,108.3506,21.6414,防城港市,大海花园,细颗粒物(PM2.5),59,59,66,42,51,72,,63,60,4,6,5,8,0.5,0.6
2024-02-10T1400,1371A,113.1294,23.0067,佛山市,湾梁,细颗粒物(PM2.5),52,41,42,36,30,100,,68,68,4,6,10,10,0.7,0.7
2024-02-10T1400,1372A,113.1083,23.0478,佛山市,华材职中,细颗粒物(PM2.5),57,,40,40,35,99,,68,68,11,11,9,8,0.7,0.8
2024-02-10T1400,1373A,113.144,23.0453,佛山市,南海气象局,细颗粒物(PM2.5),54,47,45,38,32,100,,66,66,7,9,7,7,0.8,0.9
2024-02-10T1400,1374A,113.2881,22.8094,佛山市,顺德苏岗,,39,,47,27,44,99,,66,66,5,9,10,13,0.5,0.7
2024-02-10T1400,1376A,112.8383,22.8678,佛山市,高明孔堂,,50,35,35,35,35,94,,71,71,3,3,6,7,0.6,0.8
2024-02-10T1400,1377A,112.8836,23.1588,佛山市,三水监测站,,,,68,30,36,88,,65,65,6,13,5,5,0.7,0.8
2024-02-10T1400,1378A,112.867,23.185,佛山市,三水云东海,,40,30,32,28,34,88,,63,63,8,9,2,4,0.7,0.8
2024-02-10T1400,3625A,113.2544,22.7642,佛山市,容桂街道办,,45,31,43,31,35,95,,64,64,4,9,7,9,0.6,0.7
2024-02-10T1400,1282A,119.2681,26.0504,福州市,师大,细颗粒物(PM2.5),75,,107,55,99,84,,52,52,5,10,7,12,0.6,0.6
2024-02-10T1400,1283A,119.2984,26.1028,福州市,五四北路,,,,90,60,88,90,,51,51,6,10,4,8,0.6,0.7
2024-02-10T1400,1284A,119.2648,26.0768,福州市,杨桥西路,细颗粒物(PM2.5),70,,92,51,92,89,,53,53,6,10,4,7,0.6,0.7
2024-02-10T1400,1285A,119.317,26.0746,福州市,紫阳,细颗粒物(PM2.5),79,,116,58,110,84,,50,50,4,11,8,13,0.8,0.9
2024-02-10T1400,3048A,119.5799,26.0936,福州市,九龙,细颗粒物(PM2.5),95,,76,71,76,100,,65,65,10,10,6,5,1.0,0.8
2024-02-10T1400,3526A,119.5189,25.9664,福州市,吴航,细颗粒物(PM2.5),53,43,72,37,62,97,,49,49,6,12,5,9,0.5,0.7
2024-02-10T1400,1755A,123.7977,41.8491,抚顺市,望花区,细颗粒物(PM2.5),302,316,588,252,522,92,,43,43,31,53,32,61,1.2,1.9
2024-02-10T1400,1756A,123.9161,41.8822,抚顺市,顺城区,细颗粒物(PM2.5),330,422,492,280,388,94,,54,54,35,53,33,37,1.2,1.8
2024-02-10T1400,1757A,124.0436,41.8611,抚顺市,东洲区,细颗粒物(PM2.5),383,395,579,333,475,93,,59,59,28,42,24,43,1.7,1.8
2024-02-10T1400,1758A,123.9247,41.8642,抚顺市,新抚区,细颗粒物(PM2.5),358,419,450,308,388,104,,56,56,33,50,28,20,1.7,2
2024-02-10T1400,1759A,124.0972,41.8961,抚顺市,大伙房水库,细颗粒物(PM2.5),286,312,238,236,198,99,,68,68,24,28,18,16,1.5,1.5
2024-02-10T1400,1760A,123.7086,41.8391,抚顺市,沈抚新城,细颗粒物(PM2.5),261,320,502,211,341,96,,47,47,27,49,20,32,1.1,1.9
2024-02-10T1400,2376A,116.2127,28.0814,抚州市,桐源党溪,颗粒物(PM10),256,389,302,197,181,69,,28,28,6,9,21,32,0.8,0.7
2024-02-10T1400,2377A,116.3544,27.9831,抚州市,市站,细颗粒物(PM2.5),135,121,211,103,178,104,,48,48,9,23,14,16,0.5,0.9
2024-02-10T1400,2378A,116.3565,27.963,抚州市,血防站,细颗粒物(PM2.5),100,88,176,75,140,100,,57,57,6,12,1,9,0.9,1.1
2024-02-10T1400,2379A,116.3564,28.0007,抚州市,采茶剧团,细颗粒物(PM2.5),250,226,191,200,169,92,,39,39,7,15,7,11,1.1,1.3
2024-02-10T1400,2380A,116.385,27.9647,抚州市,医学分院,细颗粒物(PM2.5),88,90,195,65,147,96,,51,51,9,14,10,16,1.1,1.1
2024-02-10T1400,2207A,121.6094,41.998,阜新市,工业园区,细颗粒物(PM2.5),79,,163,58,122,92,,74,74,8,20,10,18,0.6,0.9
2024-02-10T1400,2208A,121.6697,42.0279,阜新市,长青街,细颗粒物(PM2.5),57,,129,40,113,90,,76,76,7,20,9,35,0.6,0.8
2024-02-10T1400,2209A,121.6673,42.0705,阜新市,农业园区,,46,46,61,27,46,89,,77,77,9,10,12,13,0.4,0.7
2024-02-10T1400,2210A,121.6717,42.0224,阜新市,东苑,细颗粒物(PM2.5),52,38,405,36,117,95,,80,80,8,25,6,60,1.0,1.6
2024-02-10T1400,2211A,121.6506,42.0498,阜新市,玉龙新城,,49,42,157,34,117,92,,75,75,5,18,9,15,0.3,0.7
2024-02-10T1400,2301A,115.8277,32.8929,阜阳市,市监测站,细颗粒物(PM2.5),113,90,110,85,102,94,,96,90,11,12,11,11,0.8,0.8
2024-02-10T1400,2303A,115.8554,32.8605,阜阳市,开发区,细颗粒物(PM2.5),102,100,144,76,102,96,,94,90,10,13,8,10,0.6,0.5
2024-02-10T1400,2875A,115.784,32.8892,阜阳市,阜阳职业技术学院,细颗粒物(PM2.5),107,93,136,80,120,98,,96,92,9,12,10,14,0.9,0.9
2024-02-10T1400,3468A,115.7901,32.8613,阜阳市,市规划展馆,细颗粒物(PM2.5),135,109,141,103,116,95,,95,91,11,15,8,14,0.8,0.8
2024-02-10T1400,3469A,115.836,32.9183,阜阳市,枣园社区,细颗粒物(PM2.5),130,,123,99,105,98,,98,92,10,12,8,11,0.8,0.7
2024-02-10T1400,2669A,102.9099,34.9841,甘南藏族自治州,州政府,,29,,79,13,48,90,,50,50,2,14,6,17,0.4,0.8
2024-02-10T1400,3380A,102.8914,34.9617,甘南藏族自治州,甘肃民族师范学院,,26,5,49,3,26,81,,53,52,3,8,17,14,0.5,0.7
2024-02-10T1400,2570A,101.9603,30.0475,甘孜藏族自治州,水桥子,,29,,16,7,12,92,,69,69,1,4,9,9,0.2,0.3
2024-02-10T1400,3065A,101.9533,29.9972,甘孜藏族自治州,州环保局,,29,11,13,1,5,92,,81,81,1,2,8,8,0.2,0.2
2024-02-10T1400,3414A,115.8347,28.932,赣江新区,桑海产业园,细颗粒物(PM2.5),87,70,109,64,92,88,,47,47,13,16,6,6,0.9,1
2024-02-10T1400,2363A,114.9367,25.8664,赣州市,地委,细颗粒物(PM2.5),80,65,80,59,64,96,,53,53,12,13,17,12,1.0,1.1
2024-02-10T1400,2364A,114.9461,25.8481,赣州市,气象台,细颗粒物(PM2.5),89,,87,66,74,107,,50,50,3,10,16,9,0.8,0.9
2024-02-10T1400,2365A,114.9322,25.8333,赣州市,市图书馆,细颗粒物(PM2.5),78,62,88,57,68,94,,45,45,9,13,24,16,0.7,0.9
2024-02-10T1400,2366A,114.8905,25.8471,赣州市,华坚鞋城,细颗粒物(PM2.5),74,69,85,54,73,92,,48,48,7,12,12,8,0.9,0.9
2024-02-10T1400,3109A,115.0093,25.8613,赣州市,赣县区卫计委,细颗粒物(PM2.5),60,57,93,43,81,91,,45,45,8,12,6,7,0.8,1.1
2024-02-10T1400,2683A,106.2319,36.1417,固原市,马园,颗粒物(PM10),80,110,226,15,33,89,,79,79,6,9,4,6,0.4,0.5
2024-02-10T1400,2684A,106.2792,36.0022,固原市,监测站,颗粒物(PM10),70,89,212,22,59,88,,82,82,8,14,4,10,0.4,0.6
2024-02-10T1400,2685A,106.2375,36.0211,固原市,新区,颗粒物(PM10),66,82,161,15,29,83,,77,77,7,10,5,6,0.2,0.3
2024-02-10T1400,3522A,106.2177,35.9959,固原市,原州区十五小,颗粒物(PM10),73,96,150,19,32,80,,75,75,5,8,6,8,0.4,0.5
2024-02-10T1400,2544A,106.6303,30.4576,广安市,市委,细颗粒物(PM2.5),133,131,155,101,144,85,,30,30,10,22,8,6,0.9,1.1
2024-02-10T1400,2545A,106.6271,30.4663,广安市,友谊中学,细颗粒物(PM2.5),128,,130,97,133,91,,34,34,12,26,6,4,0.9,1
2024-02-10T1400,2547A,106.6388,30.4551,广安市,广电花园,细颗粒物(PM2.5),137,104,117,104,119,86,,28,28,10,22,7,4,1.1,1.2
2024-02-10T1400,2902A,106.6351,30.4865,广安市,北辰小学,细颗粒物(PM2.5),125,103,140,95,131,87,,26,26,12,20,7,5,1.0,1.1
2024-02-10T1400,2523A,105.8945,32.4535,广元市,黑石坡,细颗粒物(PM2.5),144,,81,110,84,100,,66,56,14,14,11,8,0.9,0.9
2024-02-10T1400,2524A,105.821,32.4444,广元市,老城,细颗粒物(PM2.5),83,89,133,61,95,92,,40,40,9,19,7,14,1.2,1.3
2024-02-10T1400,2526A,105.8628,32.4287,广元市,监测站,细颗粒物(PM2.5),74,68,104,54,90,93,,47,47,9,15,11,11,1.1,1.1
2024-02-10T1400,3617A,105.8047,32.4166,广元市,经开区,细颗粒物(PM2.5),100,106,136,75,113,89,,37,37,12,21,14,13,1.1,1.1
2024-02-10T1400,1345A,113.2347,23.1423,广州市,广雅中学,,,41,49,34,41,90,,59,59,11,15,6,7,,1
2024-02-10T1400,1346A,113.2612,23.105,广州市,市五中,细颗粒物(PM2.5),59,47,55,42,47,95,,64,64,11,18,7,7,0.7,0.8
2024-02-10T1400,1348A,113.3478,23.0916,广州市,广东商学院,,45,35,45,31,39,95,,67,67,4,9,6,7,0.6,0.8
2024-02-10T1400,1349A,113.4332,23.1047,广州市,市八十六中,,42,34,59,29,49,91,,71,71,5,9,6,10,0.4,0.6
2024-02-10T1400,1350A,113.3505,22.9483,广州市,番禺中学,,42,32,39,29,30,101,,73,73,11,16,5,6,0.7,0.9
2024-02-10T1400,1351A,113.2146,23.3916,广州市,花都师范,,43,35,44,30,37,92,,67,67,8,11,6,7,0.8,0.9
2024-02-10T1400,1352A,113.2597,23.1331,广州市,市监测站,细颗粒物(PM2.5),57,48,48,40,42,98,,67,67,9,16,6,6,0.7,0.9
2024-02-10T1400,1353A,113.5618,23.312,广州市,九龙镇镇龙,细颗粒物(PM2.5),59,47,55,42,48,80,,60,60,6,9,8,8,0.8,0.9
2024-02-10T1400,1354A,113.2765,23.1544,广州市,麓湖,细颗粒物(PM2.5),55,40,46,39,41,95,,64,64,7,11,7,7,0.6,0.8
2024-02-10T1400,1355A,113.443,23.3035,广州市,帽峰山森林公园,细颗粒物(PM2.5),58,47,47,41,40,98,,73,73,4,5,8,10,0.5,0.5
2024-02-10T1400,2846A,113.3221,23.1322,广州市,体育西,细颗粒物(PM2.5),54,56,44,38,39,95,,64,64,8,11,9,9,0.7,0.9
2024-02-10T1400,3298A,113.5717,23.5491,广州市,从化街口,细颗粒物(PM2.5),57,44,60,40,53,90,,62,62,5,8,6,10,0.6,0.7
2024-02-10T1400,3299A,113.3472,23.3692,广州市,白云竹料,颗粒物(PM10),66,82,55,39,46,92,,68,68,4,8,8,10,0.6,0.7
2024-02-10T1400,3300A,113.2981,23.237,广州市,白云嘉禾,细颗粒物(PM2.5),54,45,49,38,40,93,,65,65,11,14,8,9,0.6,0.7
2024-02-10T1400,3301A,113.4256,23.1716,广州市,黄埔科学城,细颗粒物(PM2.5),54,39,49,38,47,88,,69,69,2,5,6,7,0.7,0.8
2024-02-10T1400,3302A,113.3942,23.0483,广州市,番禺大学城,,42,37,40,29,37,94,,69,69,5,11,7,8,0.5,0.8
2024-02-10T1400,3303A,113.4922,22.8168,广州市,南沙黄阁,细颗粒物(PM2.5),62,47,59,44,52,101,,68,68,6,8,7,9,0.7,0.8
2024-02-10T1400,3304A,113.5342,22.7896,广州市,南沙街,细颗粒物(PM2.5),55,48,49,39,41,94,,66,66,10,15,6,6,0.8,0.8
2024-02-10T1400,3443A,113.2902,23.5544,广州市,花都梯面,,42,36,38,29,33,90,,64,64,7,12,8,9,0.5,0.6
2024-02-10T1400,3445A,113.7858,23.7478,广州市,从化良口,,42,31,36,29,34,84,,66,66,4,5,8,7,0.4,0.5
2024-02-10T1400,3446A,113.8051,23.2614,广州市,增城荔城,,48,40,40,33,35,85,,68,68,4,5,7,8,0.7,0.7
2024-02-10T1400,2505A,109.568,23.1478,贵港市,德智高中,细颗粒物(PM2.5),62,47,132,44,124,81,,60,60,5,11,7,19,0.8,0.9
2024-02-10T1400,2506A,109.6047,23.0666,贵港市,江南子站,细颗粒物(PM2.5),110,,137,83,99,82,,49,49,6,12,10,13,0.8,0.9
2024-02-10T1400,2507A,109.6014,23.0948,贵港市,贵城子站,细颗粒物(PM2.5),92,,125,68,115,74,,42,42,7,14,11,15,0.8,1
2024-02-10T1400,2508A,109.5669,23.1065,贵港市,荷城子站,细颗粒物(PM2.5),55,51,111,39,99,72,,46,46,5,10,11,13,0.9,1
2024-02-10T1400,3405A,109.5886,23.1172,贵港市,新世纪学校,细颗粒物(PM2.5),53,48,126,37,102,76,,46,46,2,9,6,11,0.9,1
2024-02-10T1400,1439A,106.6899,26.5998,贵阳市,马鞍山,细颗粒物(PM2.5),138,112,101,105,90,60,,26,26,36,16,31,13,1.0,0.9
2024-02-10T1400,1440A,106.6971,26.5694,贵阳市,市环保站,细颗粒物(PM2.5),137,,180,104,167,78,,32,32,25,27,21,31,0.9,1
2024-02-10T1400,1441A,106.6243,26.6266,贵阳市,鉴湖路,,,41,115,17,87,92,,56,56,9,17,9,10,,0.8
2024-02-10T1400,1442A,106.7487,26.6343,贵阳市,燕子冲,细颗粒物(PM2.5),67,56,111,48,99,85,,27,27,12,15,26,12,0.7,0.9
2024-02-10T1400,1443A,106.6555,26.4365,贵阳市,碧云窝,,48,48,142,24,114,94,,40,40,6,13,13,23,0.5,0.8
2024-02-10T1400,1444A,106.694,26.5161,贵阳市,中院村,,42,39,266,29,240,99,,40,40,10,24,16,51,0.4,1.1
2024-02-10T1400,1445A,106.7109,26.6027,贵阳市,红边门,细颗粒物(PM2.5),128,112,230,97,204,68,,24,24,20,28,29,50,1.1,1.1
2024-02-10T1400,1446A,106.7164,26.5699,贵阳市,新华路,细颗粒物(PM2.5),77,73,221,56,196,84,,37,37,15,25,19,22,0.7,1
2024-02-10T1400,1447A,106.674,26.5424,贵阳市,太慈桥,,48,48,131,29,111,84,,37,37,14,15,14,12,0.5,0.8
2024-02-10T1400,1862A,110.4144,25.3167,桂林市,电子科大尧山校区,细颗粒物(PM2.5),63,,69,45,50,90,,61,61,4,5,5,7,0.5,0.6
2024-02-10T1400,1863A,110.2819,25.2697,桂林市,监测站,细颗粒物(PM2.5),85,71,95,63,73,98,,61,61,9,14,9,12,0.6,0.8
2024-02-10T1400,1864A,110.3089,25.2708,桂林市,龙隐路小学,细颗粒物(PM2.5),87,,79,64,69,98,,64,63,6,9,8,11,0.8,0.8
2024-02-10T1400,1865A,110.2869,25.2178,桂林市,八中,细颗粒物(PM2.5),67,56,84,48,71,95,,63,61,7,10,6,11,0.5,0.6
2024-02-10T1400,3403A,110.1764,25.2381,桂林市,创业大厦,细颗粒物(PM2.5),58,51,80,41,70,99,,58,58,4,8,8,12,0.6,0.6
2024-02-10T1400,3531A,110.296,25.1253,桂林市,旅游学院,细颗粒物(PM2.5),70,53,68,51,62,100,,67,67,6,7,7,9,0.7,0.8
2024-02-10T1400,2674A,100.2561,34.4714,果洛藏族自治州,玛沁县大武镇,,26,11,36,6,19,83,,58,58,11,12,12,13,0.7,0.5
2024-02-10T1400,1129A,126.5422,45.755,哈尔滨市,岭北,细颗粒物(PM2.5),460,,445,440,401,184,,166,166,54,65,48,35,1.3,0.9
2024-02-10T1400,1130A,126.561,45.8167,哈尔滨市,松北商大,细颗粒物(PM2.5),418,390,358,376,318,115,,76,76,33,45,12,11,2.1,1.7
2024-02-10T1400,1131A,126.979,45.5419,哈尔滨市,阿城会宁,细颗粒物(PM2.5),486,491,432,478,397,101,,93,93,24,40,30,28,2.1,1.7
2024-02-10T1400,1132A,126.599,45.7222,哈尔滨市,南岗学府路,细颗粒物(PM2.5),369,426,491,319,386,92,,66,66,45,64,23,25,2.3,2
2024-02-10T1400,1133A,126.689,45.7733,哈尔滨市,太平宏伟公园,细颗粒物(PM2.5),235,258,532,185,399,,,39,39,,83,,27,,2.4
2024-02-10T1400,1134A,126.635,45.7667,哈尔滨市,道外承德广场,细颗粒物(PM2.5),361,377,409,311,346,92,,56,56,44,76,15,26,1.2,1.4
2024-02-10T1400,1135A,126.685,45.7319,哈尔滨市,香坊红旗大街,颗粒物(PM10),196,342,565,,296,85,,56,56,48,79,28,44,2.0,2.3
2024-02-10T1400,1136A,126.6411,45.7258,哈尔滨市,动力和平路,细颗粒物(PM2.5),432,,421,398,392,97,,76,76,39,63,31,35,2.2,1.9
2024-02-10T1400,1137A,126.593,45.7478,哈尔滨市,道里建国路,细颗粒物(PM2.5),440,419,451,410,392,86,,52,52,44,60,32,30,1.1,1
2024-02-10T1400,1138A,126.615,45.61,哈尔滨市,平房东轻厂,细颗粒物(PM2.5),498,,423,496,388,103,,87,85,29,44,14,24,2.4,1.9
2024-02-10T1400,1139A,126.595,45.9855,哈尔滨市,呼兰师专,细颗粒物(PM2.5),384,404,490,334,470,100,,69,69,32,54,19,37,1.7,2.2
2024-02-10T1400,1140A,126.6206,45.6842,哈尔滨市,省农科院,细颗粒物(PM2.5),466,517,486,449,418,110,,84,84,34,75,18,37,2.3,2.2
2024-02-10T1400,2688A,93.5128,42.8172,哈密市,地区监测站,细颗粒物(PM2.5),82,93,161,60,77,68,,49,37,18,27,13,21,0.4,0.6
2024-02-10T1400,2689A,93.4961,42.8328,哈密市,哈密师范学校,细颗粒物(PM2.5),170,,283,129,169,75,,40,39,20,33,28,56,0.9,0.8
2024-02-10T1400,2671A,100.9048,36.9639,海北藏族自治州,海晏县西海镇,,25,18,39,5,14,80,,70,70,3,4,13,11,0.3,0.4
2024-02-10T1400,3867A,102.0738,36.5056,海东市,平安区公安北苑,,25,22,102,15,54,78,,50,50,5,17,13,19,0.3,0.4
2024-02-10T1400,1410A,110.3232,20.0574,海口市,海南大学,颗粒物(PM10),65,80,53,21,40,75,,46,46,4,8,9,10,0.6,0.9
2024-02-10T1400,1411A,110.283,20.0053,海口市,秀英海南医院,颗粒物(PM10),73,96,50,23,40,70,,42,42,2,7,8,9,0.5,0.8
2024-02-10T1400,1412A,110.338,19.9969,海口市,海南师范大学,颗粒物(PM10),65,80,46,20,38,70,,44,44,2,7,7,8,0.6,0.9
2024-02-10T1400,1413A,110.33,20.0356,海口市,龙华路环保局宿舍,颗粒物(PM10),64,78,50,22,40,70,,43,43,4,9,8,8,0.5,0.8
2024-02-10T1400,3539A,110.5111,19.9736,海口市,桂林洋子站,,30,28,20,21,20,72,,61,61,5,5,6,6,0.5,0.7
2024-02-10T1400,2673A,100.6188,36.2866,海南藏族自治州,共和县恰卜恰镇,,27,,75,18,52,84,,55,55,5,17,12,14,0.5,0.4
2024-02-10T1400,2676A,97.3731,37.3753,海西蒙古族藏族自治州,德令哈市,,33,24,73,6,43,104,,98,98,3,11,16,23,0.5,0.5
2024-02-10T1400,1048A,114.5302,36.6116,邯郸市,东污水处理厂,细颗粒物(PM2.5),348,349,329,298,279,102,,69,69,10,27,25,24,1.5,1.4
2024-02-10T1400,1049A,114.4918,36.5713,邯郸市,矿院,细颗粒物(PM2.5),354,370,354,304,301,95,,56,56,15,32,14,18,1.5,1.4
2024-02-10T1400,1050A,114.484,36.6133,邯郸市,丛台公园,细颗粒物(PM2.5),344,322,298,294,260,111,,71,71,7,22,19,22,1.4,1.3
2024-02-10T1400,3458A,114.7895,36.5593,邯郸市,香泉濮院小区,细颗粒物(PM2.5),378,390,319,328,265,99,,69,69,17,22,27,28,1.4,1.2
2024-02-10T1400,3579A,114.50634,36.77178,邯郸市,永年区实验高中,细颗粒物(PM2.5),286,273,327,236,280,112,,57,57,8,39,24,35,0,1.2
2024-02-10T1400,3580A,114.20016,36.44293,邯郸市,峰峰矿区临水派出所,细颗粒物(PM2.5),235,200,122,185,98,119,,92,92,14,13,27,30,1.3,1
2024-02-10T1400,2634A,106.9893,33.1842,汉中市,汉川机床厂子校,细颗粒物(PM2.5),100,108,143,75,128,95,,52,52,9,13,6,11,0.8,1.1
2024-02-10T1400,2635A,107.0154,33.0706,汉中市,市监测站,细颗粒物(PM2.5),204,162,231,154,207,98,,39,39,20,34,17,18,1.5,2.2
2024-02-10T1400,2636A,107.0089,33.1138,汉中市,鑫源开发区,细颗粒物(PM2.5),188,166,304,141,309,92,,44,44,19,34,21,28,1.4,2.1
2024-02-10T1400,2637A,107.007,33.0323,汉中市,南郑大河坎水厂,细颗粒物(PM2.5),176,152,170,133,150,93,,41,41,16,22,14,14,1.3,1.6
2024-02-10T1400,1223A,120.2072,30.2111,杭州市,滨江,细颗粒物(PM2.5),87,84,237,64,182,99,,64,64,10,24,9,12,0.8,1
2024-02-10T1400,1224A,120.0633,30.2747,杭州市,西溪,细颗粒物(PM2.5),124,,169,94,129,100,,57,57,8,17,10,8,0.7,0.9
2024-02-10T1400,1226A,120.3461,30.3153,杭州市,下沙,细颗粒物(PM2.5),110,106,207,83,168,104,,69,69,9,22,9,10,0.8,0.9
2024-02-10T1400,1227A,120.1269,30.2456,杭州市,卧龙桥,细颗粒物(PM2.5),119,91,124,90,108,101,,53,53,7,16,7,6,0.7,0.8
2024-02-10T1400,1228A,120.1903,30.2692,杭州市,浙江农大,细颗粒物(PM2.5),108,93,305,81,257,102,,59,59,8,31,10,10,0.8,1
2024-02-10T1400,1230A,120.1197,30.3119,杭州市,和睦小学,细颗粒物(PM2.5),89,76,371,66,307,90,,54,54,8,34,8,10,0.6,1
2024-02-10T1400,1231A,120.3019,30.4183,杭州市,临平镇,细颗粒物(PM2.5),84,,269,62,307,100,,62,62,5,30,8,11,0.6,1
2024-02-10T1400,1232A,120.2697,30.1819,杭州市,城厢镇,细颗粒物(PM2.5),105,91,293,79,276,106,,63,63,8,26,9,10,0.7,1
2024-02-10T1400,1233A,120.0883,30.1808,杭州市,云栖,细颗粒物(PM2.5),87,75,154,64,124,106,,64,64,9,17,8,8,0.7,0.8
2024-02-10T1400,3557A,119.9464,30.0494,杭州市,镇二中,细颗粒物(PM2.5),84,79,323,62,401,99,,49,49,7,26,9,11,0.7,1
2024-02-10T1400,3558A,119.7183,30.2367,杭州市,市府大楼,细颗粒物(PM2.5),72,57,245,52,204,101,,64,64,7,20,6,10,0.6,1
2024-02-10T1400,3656A,120.1556,30.2864,杭州市,消防大队,细颗粒物(PM2.5),109,90,277,82,243,96,,56,56,11,33,10,12,0.9,1.1
2024-02-10T1400,1270A,117.1959,31.7848,合肥市,明珠广场,细颗粒物(PM2.5),128,122,239,97,199,92,,64,64,13,22,11,12,0.8,0.9
2024-02-10T1400,1271A,117.3072,31.8764,合肥市,三里街,细颗粒物(PM2.5),160,144,288,122,251,83,,49,49,16,36,17,10,0.7,1
2024-02-10T1400,1272A,117.2588,31.8707,合肥市,琥珀山庄,细颗粒物(PM2.5),170,149,296,129,273,88,,56,56,7,38,11,9,0.9,1.3
2024-02-10T1400,1273A,117.1604,31.9052,合肥市,董铺水库,细颗粒物(PM2.5),149,141,181,114,150,85,,63,63,5,9,8,6,0.5,0.7
2024-02-10T1400,1274A,117.25,31.8571,合肥市,长江中路,细颗粒物(PM2.5),175,144,221,132,203,84,,61,61,13,26,11,12,0.9,1
2024-02-10T1400,1275A,117.266,31.9436,合肥市,庐阳区,细颗粒物(PM2.5),163,168,208,124,159,72,,56,50,19,26,11,9,0.8,1
2024-02-10T1400,1276A,117.336,31.8586,合肥市,瑶海区,细颗粒物(PM2.5),162,136,241,123,210,86,,59,59,14,24,9,8,0.7,0.9
2024-02-10T1400,1277A,117.3027,31.7964,合肥市,包河区,细颗粒物(PM2.5),170,136,210,129,199,94,,62,62,11,18,10,9,0.6,0.8
2024-02-10T1400,1278A,117.2776,31.7385,合肥市,滨湖新区,细颗粒物(PM2.5),175,156,235,132,200,89,,64,64,10,18,11,12,0.9,1
2024-02-10T1400,1279A,117.1318,31.8403,合肥市,高新区,细颗粒物(PM2.5),123,117,165,93,147,88,,67,66,12,17,10,9,0.8,0.9
2024-02-10T1400,3464A,117.3803,31.9147,合肥市,高教基地,细颗粒物(PM2.5),155,140,228,118,172,97,,65,65,6,16,10,7,0.7,0.8
2024-02-10T1400,3614A,79.924,37.0877,和田地区,地区环保局,颗粒物(PM10),71,91,104,17,41,84,,62,62,8,24,11,18,0.4,0.7
2024-02-10T1400,3615A,79.9131,37.113,和田地区,市环保局,颗粒物(PM10),80,110,82,43,35,85,,57,57,27,32,20,10,1.2,1
2024-02-10T1400,2516A,108.2011,24.715,河池市,东仁乐园,细颗粒物(PM2.5),54,54,42,38,29,55,,36,36,5,5,4,3,0.8,0.8
2024-02-10T1400,2517A,108.0497,24.6947,河池市,市环保站,细颗粒物(PM2.5),59,65,55,42,47,76,,48,48,7,9,10,8,0.7,0.8
2024-02-10T1400,2518A,108.0983,24.6989,河池市,市疾控中心,细颗粒物(PM2.5),59,45,57,42,55,80,,46,46,8,11,10,9,0.7,0.7
2024-02-10T1400,1696A,114.6778,23.7569,河源市,源西,颗粒物(PM10),52,54,66,34,56,86,,68,68,4,8,5,8,0.8,0.8
2024-02-10T1400,1697A,114.6944,23.7586,河源市,东埔,细颗粒物(PM2.5),62,64,70,44,57,88,,70,70,5,6,8,9,0.7,0.7
2024-02-10T1400,1698A,114.6892,23.7233,河源市,老城,细颗粒物(PM2.5),62,54,67,44,56,89,,68,68,4,7,7,8,0.8,0.8
2024-02-10T1400,1718A,115.4208,35.2464,菏泽市,气象局,细颗粒物(PM2.5),388,413,261,338,207,105,,66,66,25,23,11,12,1.5,1.1
2024-02-10T1400,1719A,115.4747,35.2375,菏泽市,市政协,细颗粒物(PM2.5),398,425,253,348,198,94,,64,64,20,16,12,11,1.3,1
2024-02-10T1400,3374A,115.5564,35.0891,菏泽市,定陶老年大学,细颗粒物(PM2.5),318,317,232,268,191,98,,62,62,19,19,12,10,1.0,0.8
2024-02-10T1400,3647A,115.4702,35.2706,菏泽市,菏泽医专,细颗粒物(PM2.5),406,434,254,359,199,89,,62,62,30,25,18,15,1.5,1.1
2024-02-10T1400,2514A,111.5264,24.4172,贺州市,环保小区,细颗粒物(PM2.5),73,58,112,53,93,85,,60,60,5,8,10,15,0.6,0.7
2024-02-10T1400,2515A,111.5608,24.4078,贺州市,政协大楼,细颗粒物(PM2.5),73,64,98,53,85,86,,59,59,7,11,10,11,0.6,0.8
2024-02-10T1400,3534A,111.4744,24.4553,贺州市,西湾,细颗粒物(PM2.5),80,60,86,59,78,87,,60,60,7,9,9,10,0.6,0.7
2024-02-10T1400,2385A,114.17,35.9019,鹤壁市,市监测站,细颗粒物(PM2.5),234,201,213,184,171,123,,73,73,25,25,12,11,1.5,1.1
2024-02-10T1400,2386A,114.2956,35.7511,鹤壁市,市交警支队,细颗粒物(PM2.5),182,168,202,137,158,125,,63,63,11,22,20,22,1.0,1
2024-02-10T1400,2387A,114.2878,35.7306,鹤壁市,迎宾馆,细颗粒物(PM2.5),189,144,209,142,181,124,,64,64,17,25,20,33,1.1,1.1
2024-02-10T1400,3474A,114.2617,35.6822,鹤壁市,大新区,细颗粒物(PM2.5),243,204,193,193,126,124,,63,63,19,23,19,22,1.1,0.9
2024-02-10T1400,3596A,114.1572,35.9603,鹤壁市,南山宾馆,细颗粒物(PM2.5),186,193,119,140,90,126,,99,99,25,18,27,17,1.6,1
2024-02-10T1400,2244A,130.2537,47.3416,鹤岗市,哈啤分公司,,39,33,149,27,114,76,,68,68,8,21,20,39,0.8,1.2
2024-02-10T1400,2245A,130.2684,47.3086,鹤岗市,斯达机电,细颗粒物(PM2.5),55,55,112,39,84,87,,79,79,24,24,17,46,0.5,0.7
2024-02-10T1400,2246A,130.3114,47.3388,鹤岗市,东山纸板厂,,39,39,105,26,94,94,,76,76,9,21,18,29,0.4,1.2
2024-02-10T1400,2247A,130.1097,47.3382,鹤岗市,五号水库,,27,18,34,16,31,85,,79,79,5,8,13,10,0.5,0.6
2024-02-10T1400,2263A,127.4833,50.2524,黑河市,交通局,颗粒物(PM10),69,87,99,47,72,64,,60,60,15,15,32,26,0.5,0.5
2024-02-10T1400,2264A,127.5144,50.2341,黑河市,环保局,细颗粒物(PM2.5),80,,231,59,214,66,,53,53,17,23,42,70,0.4,0.6
2024-02-10T1400,2265A,127.5291,50.2472,黑河市,大黑河岛,,,68,95,66,76,66,,56,56,61,61,39,23,,
2024-02-10T1400,1074A,115.6838,37.7541,衡水市,电机北厂,,41,41,263,27,196,92,,73,73,1,18,4,22,0.3,1
2024-02-10T1400,1075A,115.6303,37.7316,衡水市,市监测站,,33,33,180,20,154,89,,78,78,7,22,7,18,0.3,0.8
2024-02-10T1400,3188A,115.6683,37.7217,衡水市,市城管局,,50,50,195,29,166,90,,76,76,6,20,8,19,0.4,0.9
2024-02-10T1400,3459A,115.5989,37.5491,衡水市,地表水厂,细颗粒物(PM2.5),67,73,229,48,207,95,,76,76,2,23,5,16,0.3,1.2
2024-02-10T1400,2456A,112.5003,26.9167,衡阳市,原169医院,细颗粒物(PM2.5),214,186,199,164,146,60,,35,35,9,18,29,27,1.2,1.3
2024-02-10T1400,2457A,112.6194,26.9258,衡阳市,衡阳化工总厂,细颗粒物(PM2.5),172,180,240,130,185,70,,36,36,19,20,20,16,1.4,1
2024-02-10T1400,2458A,112.6211,26.8956,衡阳市,珠晖区环保局,细颗粒物(PM2.5),144,138,190,110,156,92,,53,53,8,17,14,18,1.0,1.1
2024-02-10T1400,2459A,112.6197,26.8733,衡阳市,市委党校,细颗粒物(PM2.5),122,113,204,92,148,93,,38,38,2,12,14,20,0.9,1.1
2024-02-10T1400,2460A,112.6006,26.8919,衡阳市,市监测站,细颗粒物(PM2.5),169,139,231,128,208,70,,39,39,16,20,23,22,1.8,1.2
2024-02-10T1400,2461A,112.5664,26.9056,衡阳市,真空机电公司,细颗粒物(PM2.5),147,177,197,112,156,70,,24,24,14,25,22,28,1.6,1.7
2024-02-10T1400,3399A,112.6703,26.882,衡阳市,师范学院,细颗粒物(PM2.5),169,131,162,128,148,78,,38,38,4,8,14,16,0.9,1
2024-02-10T1400,2608A,103.3772,23.3993,红河哈尼族彝族自治州,污水处理厂,细颗粒物(PM2.5),69,63,59,50,49,73,,56,56,9,9,16,18,0.9,0.8
2024-02-10T1400,2609A,103.3861,23.35,红河哈尼族彝族自治州,监测站,细颗粒物(PM2.5),73,61,59,53,51,71,,59,59,10,9,25,14,0.9,0.9
2024-02-10T1400,3038A,103.3758,23.368,红河哈尼族彝族自治州,州图书馆,细颗粒物(PM2.5),65,66,59,47,51,68,,55,55,9,8,20,14,1.0,0.9
2024-02-10T1400,1090A,111.6507,40.7517,呼和浩特市,呼市一监,细颗粒物(PM2.5),300,,235,250,473,95,,62,62,23,45,16,33,1.0,1.7
2024-02-10T1400,1091A,111.6572,40.8033,呼和浩特市,小召,细颗粒物(PM2.5),288,,275,238,544,108,,112,64,21,54,13,52,0.9,1.7
2024-02-10T1400,1094A,111.7516,40.8369,呼和浩特市,如意水处理厂,细颗粒物(PM2.5),192,220,310,144,319,85,,53,53,21,56,20,39,0.8,1.6
2024-02-10T1400,1095A,111.7276,40.8062,呼和浩特市,二十九中,细颗粒物(PM2.5),232,,437,182,355,88,,62,62,18,47,17,39,0.8,1.3
2024-02-10T1400,1096A,111.5512,40.7866,呼和浩特市,工大金川校区,细颗粒物(PM2.5),315,299,437,265,368,111,,58,58,19,52,18,30,1.0,1.8
2024-02-10T1400,1097A,111.717,40.7612,呼和浩特市,化肥厂生活区,细颗粒物(PM2.5),158,148,443,120,389,97,,64,64,13,49,17,64,0.7,1.7
2024-02-10T1400,3698A,111.5968,40.8178,呼和浩特市,红旗小学,细颗粒物(PM2.5),278,,552,228,498,110,,50,50,23,66,20,54,1.0,2
2024-02-10T1400,3699A,111.6518,40.8389,呼和浩特市,海东办,细颗粒物(PM2.5),285,,300,235,661,93,,46,46,26,66,18,68,0.8,1.8
2024-02-10T1400,2192A,119.7594,49.2261,呼伦贝尔市,区环保局,,28,19,57,12,50,89,,81,81,6,11,7,13,0.2,0.2
2024-02-10T1400,3061A,119.7512,49.1577,呼伦贝尔市,国华电力东,,28,,37,8,33,89,,86,86,4,7,4,7,0.2,0.2
2024-02-10T1400,1250A,120.0751,30.8669,湖州市,城西水厂,细颗粒物(PM2.5),94,77,257,70,228,108,,80,80,10,27,6,8,0.6,0.9
2024-02-10T1400,2873A,120.0875,30.8955,湖州市,仁皇山新区,细颗粒物(PM2.5),89,78,222,66,193,106,,84,84,12,28,7,9,0.7,1
2024-02-10T1400,2907A,120.1844,30.8596,湖州市,吴兴区站,细颗粒物(PM2.5),79,61,202,58,187,104,,74,74,8,19,6,11,0.6,0.9
2024-02-10T1400,3562A,120.4148,30.8538,湖州市,南浔区站,细颗粒物(PM2.5),109,82,232,82,225,114,,74,74,6,18,8,15,0.6,0.9
2024-02-10T1400,1607A,120.9092,40.7136,葫芦岛市,龙港区,细颗粒物(PM2.5),73,86,323,53,268,95,,77,77,6,33,16,53,0.4,1.5
2024-02-10T1400,1608A,120.8392,40.7514,葫芦岛市,化工街,细颗粒物(PM2.5),70,75,279,51,215,88,,68,68,8,30,17,32,1.0,2
2024-02-10T1400,1609A,120.8341,40.7073,葫芦岛市,新区,细颗粒物(PM2.5),75,82,280,55,224,95,,69,69,7,37,17,24,0.4,1.5
2024-02-10T1400,1610A,120.8695,40.7677,葫芦岛市,东城区,细颗粒物(PM2.5),77,92,293,56,253,93,,62,62,12,39,48,39,1.1,2.2
2024-02-10T1400,2482A,109.5981,27.5721,怀化市,林科所,细颗粒物(PM2.5),84,64,103,62,88,34,,21,21,4,4,6,8,0.5,0.5
2024-02-10T1400,2483A,109.9453,27.5444,怀化市,河西地税局,细颗粒物(PM2.5),72,58,100,52,84,31,,22,22,4,8,4,4,1.0,1
2024-02-10T1400,2484A,109.9781,27.5342,怀化市,市四医院,细颗粒物(PM2.5),53,47,126,37,100,34,,19,19,5,10,6,5,0.8,0.7
2024-02-10T1400,2485A,109.9972,27.5578,怀化市,监测楼,,38,38,143,12,89,34,,21,21,5,11,6,8,1.0,0.9
2024-02-10T1400,2486A,110.0394,27.583,怀化市,市委党校,细颗粒物(PM2.5),74,58,125,54,108,31,,16,16,5,8,6,7,0.9,0.9
2024-02-10T1400,1210A,119.036,33.5981,淮安市,钵池山,细颗粒物(PM2.5),204,158,139,154,125,76,,69,69,17,18,15,10,1.6,1.2
2024-02-10T1400,1211A,119.007,33.575,淮安市,北京南路,细颗粒物(PM2.5),205,168,158,155,133,82,,70,70,14,21,14,14,1.4,1.7
2024-02-10T1400,1212A,118.989,33.6067,淮安市,市监测站,细颗粒物(PM2.5),206,180,158,156,139,88,,76,76,12,14,12,10,1.4,1.3
2024-02-10T1400,1213A,119.135,33.5039,淮安市,楚州区监测站,细颗粒物(PM2.5),236,188,234,186,210,86,,67,67,13,22,13,11,0.9,1
2024-02-10T1400,1214A,119.0186,33.6297,淮安市,淮阴区监测站,细颗粒物(PM2.5),222,190,180,172,147,83,,73,73,18,21,10,9,0.9,0.9
2024-02-10T1400,3426A,118.8755,33.2894,淮安市,新华书店,细颗粒物(PM2.5),155,,146,118,129,96,,79,79,16,20,8,11,0.8,0.8
2024-02-10T1400,2282A,116.8004,33.975,淮北市,监测站,细颗粒物(PM2.5),299,338,313,249,247,101,,64,64,16,24,17,14,1.2,1.1
2024-02-10T1400,2283A,116.8091,33.9007,淮北市,烈山区政府,细颗粒物(PM2.5),261,227,318,211,276,113,,67,67,16,26,17,14,1.0,0.9
2024-02-10T1400,3330A,116.8873,33.9836,淮北市,杜集区检察院,细颗粒物(PM2.5),280,262,272,230,236,119,,73,73,17,19,19,14,1.3,1.1
2024-02-10T1400,4017A,116.7923,33.9535,淮北市,市博物馆,细颗粒物(PM2.5),281,305,314,231,263,105,,66,66,19,27,18,15,1.3,1.3
2024-02-10T1400,2277A,116.8305,32.7727,淮南市,潘集区政府,细颗粒物(PM2.5),122,111,132,92,113,99,,90,90,9,11,10,11,0.7,0.7
2024-02-10T1400,2278A,117.0067,32.6524,淮南市,师范学院,细颗粒物(PM2.5),82,103,136,60,101,94,,86,85,13,19,12,12,0.7,0.8
2024-02-10T1400,2279A,116.8569,32.5951,淮南市,谢家集区政府,细颗粒物(PM2.5),100,85,128,75,114,101,,98,89,12,13,12,14,0.9,0.8
2024-02-10T1400,2280A,116.8281,32.633,淮南市,八公山区政府,细颗粒物(PM2.5),82,80,83,60,69,110,,103,102,12,10,6,6,0.9,0.8
2024-02-10T1400,2281A,116.6325,32.6201,淮南市,焦岗湖风景区管理处,细颗粒物(PM2.5),112,116,123,84,90,92,,74,74,8,10,5,3,0.6,0.5
2024-02-10T1400,2894A,117.0566,32.6531,淮南市,经济技术开发区消防队,细颗粒物(PM2.5),85,85,118,63,96,99,,86,80,8,13,9,10,0.7,0.8
2024-02-10T1400,3329A,117.0108,32.5893,淮南市,山南新区,细颗粒物(PM2.5),125,102,141,95,140,102,,92,88,10,13,10,11,0.7,0.7
2024-02-10T1400,2446A,114.9028,30.4742,黄冈市,职工中心,细颗粒物(PM2.5),85,79,315,63,240,102,,58,58,5,17,13,23,0.7,1.2
2024-02-10T1400,2929A,114.8858,30.4519,黄冈市,红卫路,细颗粒物(PM2.5),97,84,294,72,247,95,,56,56,2,21,11,18,0.8,1.2
2024-02-10T1400,3398A,114.9136,30.4445,黄冈市,市林业局,细颗粒物(PM2.5),113,,284,85,244,102,,59,59,5,20,8,16,0.7,1.2
2024-02-10T1400,2672A,102.0199,35.5102,黄南藏族自治州,同仁县隆务镇,,28,16,46,8,19,87,,79,79,5,6,17,17,0.6,0.7
2024-02-10T1400,2295A,118.2903,29.6963,黄山市,延安路89号,"颗粒物(PM10),细颗粒物(PM2.5)",90,130,299,67,186,90,,40,40,7,13,8,16,0.6,0.6
2024-02-10T1400,2296A,118.327,29.7178,黄山市,黄山东路89号,细颗粒物(PM2.5),89,79,202,66,175,93,,38,38,8,17,7,10,0.9,0.9
2024-02-10T1400,2297A,118.1371,30.2756,黄山市,黄山区政府5号楼,细颗粒物(PM2.5),62,,118,44,87,95,,43,43,7,11,6,7,0.7,0.7
2024-02-10T1400,2423A,115.0601,30.2313,黄石市,沈家营,颗粒物(PM10),116,182,257,62,226,116,,64,64,15,26,11,19,1.0,1.2
2024-02-10T1400,2424A,115.0817,30.2006,黄石市,陈家湾,颗粒物(PM10),88,125,192,64,149,112,,56,56,12,24,13,30,0.9,1
2024-02-10T1400,2426A,114.8988,30.2019,黄石市,铁山,细颗粒物(PM2.5),77,74,178,56,134,111,,81,81,9,29,5,17,1.0,1.1
2024-02-10T1400,2427A,115.0307,30.2092,黄石市,团城山,颗粒物(PM10),127,204,283,48,227,112,,52,52,10,30,10,23,1.0,1.2
2024-02-10T1400,3149A,115.0235,30.1578,黄石市,笔架山北路,细颗粒物(PM2.5),84,106,173,62,168,120,,80,80,8,17,11,29,1.6,1.3
2024-02-10T1400,1392A,114.4183,23.0528,惠州市,河南岸金山湖子站,细颗粒物(PM2.5),59,43,46,42,42,79,,69,69,4,5,6,7,0.7,0.7
2024-02-10T1400,1393A,114.4053,23.0822,惠州市,下埔横江三路子站,细颗粒物(PM2.5),53,46,54,37,44,86,,74,74,7,8,6,7,0.7,0.8
2024-02-10T1400,1394A,114.4103,23.1142,惠州市,江北云山西路子站,细颗粒物(PM2.5),53,40,49,37,46,90,,76,76,2,3,9,10,0.6,0.6
2024-02-10T1400,1395A,114.4645,22.7833,惠州市,惠阳区承修路船湖子站,细颗粒物(PM2.5),60,51,50,43,44,81,,65,65,7,8,8,9,0.7,0.8
2024-02-10T1400,1396A,114.5317,22.7422,惠州市,大亚湾管委会子站,细颗粒物(PM2.5),72,,47,52,42,82,,64,64,7,7,8,8,0.5,0.5
2024-02-10T1400,3314A,114.4338,22.8134,惠州市,惠阳秋长,细颗粒物(PM2.5),53,44,51,37,44,89,,74,74,1,2,8,10,0.6,0.6
2024-02-10T1400,3452A,114.6517,22.775,惠州市,大亚湾霞涌,细颗粒物(PM2.5),65,50,52,47,49,86,,62,62,7,6,9,10,0.8,0.8
2024-02-10T1400,2240A,130.9762,45.3001,鸡西市,环保局,细颗粒物(PM2.5),110,100,383,83,328,87,,70,70,7,29,14,45,0.3,0.6
2024-02-10T1400,2243A,130.9429,45.3039,鸡西市,第一中学,细颗粒物(PM2.5),73,62,474,53,387,96,,79,79,7,33,11,76,0.2,0.6
2024-02-10T1400,3707A,131.0207,45.3073,鸡西市,欧美日汽修厂,细颗粒物(PM2.5),74,66,275,54,231,81,,57,57,19,30,21,38,1.4,1.6
2024-02-10T1400,3709A,130.9967,45.3106,鸡西市,市政设施管理处,颗粒物(PM10),82,114,308,58,273,103,,66,66,13,32,8,14,0.6,1.2
2024-02-10T1400,2367A,114.9754,27.0803,吉安市,红声器材厂,细颗粒物(PM2.5),160,152,196,122,148,72,,31,31,13,23,15,22,1.2,1.2
2024-02-10T1400,2368A,114.9658,27.0999,吉安市,市森林工业局,细颗粒物(PM2.5),150,126,199,115,171,68,,34,34,10,21,10,24,0.2,0.6
2024-02-10T1400,2369A,114.99,27.1312,吉安市,市环境监测站,细颗粒物(PM2.5),133,119,195,101,156,72,,40,40,11,21,8,19,0.7,1.5
2024-02-10T1400,2370A,115.0093,27.0968,吉安市,青原区法院,细颗粒物(PM2.5),137,122,198,104,166,75,,34,34,11,16,11,43,1.0,1.1
2024-02-10T1400,1772A,126.54,43.8622,吉林市,哈达湾,细颗粒物(PM2.5),125,116,358,95,293,102,,83,83,11,34,10,40,0.8,1.1
2024-02-10T1400,1773A,126.5844,43.8358,吉林市,东局子,细颗粒物(PM2.5),112,104,425,84,344,96,,67,67,12,45,11,39,0.9,1.4
2024-02-10T1400,1774A,126.5052,43.8245,吉林市,电力学院,细颗粒物(PM2.5),77,70,223,56,204,98,,74,74,12,33,14,26,0.7,1.5
2024-02-10T1400,1775A,126.6133,43.8972,吉林市,江北,细颗粒物(PM2.5),169,154,515,128,453,96,,67,67,17,48,17,45,0.9,1.5
2024-02-10T1400,1776A,126.555,43.8306,吉林市,江南公园,细颗粒物(PM2.5),122,102,516,92,440,101,,66,66,9,45,11,72,0.6,1.3
2024-02-10T1400,2868A,126.4739,43.953,吉林市,九站,细颗粒物(PM2.5),75,66,233,55,210,101,,64,64,11,45,12,16,0.7,1.6
2024-02-10T1400,1299A,116.9862,36.6114,济南市,科干所,细颗粒物(PM2.5),129,122,303,98,219,105,,80,80,14,26,21,22,1.1,1.4
2024-02-10T1400,1300A,116.9376,36.665,济南市,农科所,细颗粒物(PM2.5),83,76,281,61,234,98,,72,72,13,35,18,20,0.7,1.2
2024-02-10T1400,1301A,117.1265,36.6734,济南市,开发区,细颗粒物(PM2.5),95,83,186,71,162,93,,75,75,13,19,18,15,0.8,1.2
2024-02-10T1400,1303A,117.0624,36.6868,济南市,省种子仓库,细颗粒物(PM2.5),83,90,277,61,216,104,,80,80,7,28,18,19,0.8,1.3
2024-02-10T1400,1304A,116.9489,36.6447,济南市,机床二厂,细颗粒物(PM2.5),104,98,325,78,234,108,,79,79,12,40,22,43,1.0,1.6
2024-02-10T1400,1305A,117.0495,36.663,济南市,市监测站,细颗粒物(PM2.5),108,105,253,81,211,108,,82,82,15,38,25,25,0.7,1.2
2024-02-10T1400,1306A,116.7675,36.5484,济南市,长清党校,细颗粒物(PM2.5),132,129,224,100,189,113,,89,89,16,25,22,15,1.0,1.3
2024-02-10T1400,1616A,117.6795,36.229,济南市,技术学院,细颗粒物(PM2.5),140,132,297,107,284,129,,66,66,23,59,18,16,1.2,2
2024-02-10T1400,1961A,117.532,36.6868,济南市,东山小学,细颗粒物(PM2.5),68,73,190,49,175,106,,74,74,11,28,17,26,0.4,0.9
2024-02-10T1400,3059A,117.7161,36.2049,济南市,泰兴公司,细颗粒物(PM2.5),180,163,318,136,255,126,,65,65,16,43,20,14,1.4,1.9
2024-02-10T1400,3064A,117.6867,36.2171,济南市,莱芜战役纪念馆,细颗粒物(PM2.5),147,139,344,112,316,123,,61,61,16,50,18,15,1.2,2
2024-02-10T1400,3494A,117.1673,36.9782,济南市,济阳区政府,,42,42,279,22,231,104,,84,84,6,25,9,32,0.4,1.1
2024-02-10T1400,3495A,117.1171,36.63,济南市,锦屏中学,细颗粒物(PM2.5),117,110,172,88,148,108,,80,80,12,19,20,15,0.7,1.1
2024-02-10T1400,3682A,116.9814,36.6819,济南市,济南四建,细颗粒物(PM2.5),83,70,243,61,289,101,,72,72,10,42,20,36,0.7,1.3
2024-02-10T1400,1653A,116.6251,35.4302,济宁市,火炬城,细颗粒物(PM2.5),223,204,417,173,355,114,,54,54,18,35,14,22,1.3,1.5
2024-02-10T1400,1655A,116.5491,35.4042,济宁市,电化厂,细颗粒物(PM2.5),240,234,470,190,417,116,,52,52,15,37,15,25,1.1,1.3
2024-02-10T1400,3500A,116.5814,35.3707,济宁市,北湖一中,细颗粒物(PM2.5),267,266,414,217,340,108,,53,53,39,38,19,21,1.1,1.2
2024-02-10T1400,3501A,116.8249,35.5593,济宁市,服务中心,细颗粒物(PM2.5),195,240,545,146,410,127,,63,63,17,41,12,28,1.2,1.7
2024-02-10T1400,3678A,116.5907,35.4054,济宁市,市第七中学,细颗粒物(PM2.5),213,238,468,163,374,118,,57,57,16,36,14,28,1.2,1.4
2024-02-10T1400,2255A,130.2751,46.8028,佳木斯市,佳纺,细颗粒物(PM2.5),123,95,227,93,211,100,,85,85,10,36,5,16,0.6,1.4
2024-02-10T1400,2256A,130.3995,46.8307,佳木斯市,发电厂,细颗粒物(PM2.5),133,106,189,101,152,97,,73,73,12,37,15,17,0.5,1.2
2024-02-10T1400,2257A,130.3258,46.7975,佳木斯市,环保局,细颗粒物(PM2.5),135,,413,103,377,99,,78,78,10,52,10,65,0.6,1.6
2024-02-10T1400,2258A,130.3648,46.8032,佳木斯市,十一中,细颗粒物(PM2.5),79,77,318,58,323,94,,75,75,10,46,8,38,0.6,1.2
2024-02-10T1400,2259A,130.3794,46.7588,佳木斯市,四丰,细颗粒物(PM2.5),97,97,121,72,76,124,,121,121,9,12,1,2,0.5,0.7
2024-02-10T1400,1252A,120.7436,30.778,嘉兴市,清河小学,细颗粒物(PM2.5),74,84,178,54,139,99,,69,69,6,22,8,10,0.2,1
2024-02-10T1400,1253A,120.726,30.7478,嘉兴市,嘉兴学院,细颗粒物(PM2.5),100,79,202,75,170,107,,68,68,8,25,8,10,0.7,1.1
2024-02-10T1400,2872A,120.7846,30.7525,嘉兴市,南湖区残联,细颗粒物(PM2.5),100,89,210,75,165,115,,77,77,4,23,8,12,0.7,1
2024-02-10T1400,3407A,120.6916,30.7739,嘉兴市,秀洲住建,细颗粒物(PM2.5),110,91,211,83,185,98,,66,66,8,23,10,12,0.7,1
2024-02-10T1400,1945A,98.2908,39.7711,嘉峪关市,气象局,,31,31,91,14,25,89,,65,62,6,10,4,11,0.2,0.2
2024-02-10T1400,2884A,98.2672,39.7978,嘉峪关市,酒钢宾馆,,34,34,102,14,21,88,,68,68,7,8,4,11,0.4,0.4
2024-02-10T1400,3248A,98.2643,39.7724,嘉峪关市,雄关区,,27,26,54,10,18,86,,53,51,7,16,6,8,0.5,0.4
2024-02-10T1400,1383A,113.1064,22.6058,江门市,北街,细颗粒物(PM2.5),60,60,40,43,36,104,,69,69,9,11,10,8,0.8,0.9
2024-02-10T1400,1384A,113.0731,22.5835,江门市,西区,细颗粒物(PM2.5),57,56,43,40,28,98,,64,64,10,11,10,9,0.5,0.7
2024-02-10T1400,1385A,113.0219,22.5311,江门市,圭峰西,,50,50,36,35,31,99,,71,71,10,6,8,7,0.6,0.7
2024-02-10T1400,1386A,113.0828,22.5947,江门市,东湖,,50,50,37,35,27,98,,64,64,9,10,10,8,0.6,0.7
2024-02-10T1400,3311A,113.1075,22.5647,江门市,江海富民,颗粒物(PM10),53,55,31,35,28,102,,68,68,9,11,9,8,0.5,0.6
2024-02-10T1400,3449A,113.05,22.4667,江门市,新会银湖,细颗粒物(PM2.5),58,63,37,41,30,104,,71,71,9,9,8,6,0.7,0.8
2024-02-10T1400,1828A,113.227,35.2125,焦作市,市环保局,颗粒物(PM10),89,128,199,53,125,93,,60,55,5,18,3,35,0.6,1.2
2024-02-10T1400,3169A,113.2725,35.2067,焦作市,太极体育中心,细颗粒物(PM2.5),118,161,215,89,162,100,,61,58,13,21,14,32,0.8,1.1
2024-02-10T1400,3335A,113.3137,35.2641,焦作市,马村街道办,细颗粒物(PM2.5),289,,207,239,133,83,,61,59,23,19,31,44,0.6,0.6
2024-02-10T1400,3336A,113.2465,35.2373,焦作市,焦作技师学院,颗粒物(PM10),115,179,244,85,175,90,,49,49,12,27,19,53,0.9,1.3
2024-02-10T1400,3477A,113.1656,35.2539,焦作市,中站许衡医院,颗粒物(PM10),84,117,149,44,95,96,,83,78,4,14,7,31,0.3,0.8
2024-02-10T1400,3981A,113.2449,35.1803,焦作市,原李万街道办,颗粒物(PM10),88,125,238,36,183,95,,58,55,14,26,8,36,0.6,1.1
2024-02-10T1400,1708A,116.3701,23.5345,揭阳市,新兴,,34,34,53,20,51,77,,55,55,2,7,8,9,0.8,0.9
2024-02-10T1400,1709A,116.3264,23.5443,揭阳市,西马,,32,32,48,21,44,82,,59,59,3,5,8,9,0.6,0.7
2024-02-10T1400,1710A,116.3611,23.5626,揭阳市,东兴,,32,27,51,22,49,79,,56,56,2,5,8,8,0.7,0.8
2024-02-10T1400,1711A,116.4151,23.5294,揭阳市,渔湖,,48,36,57,33,43,76,,52,52,2,7,8,8,0.6,0.8
2024-02-10T1400,3320A,116.403,23.5699,揭阳市,曲溪,,32,23,51,22,44,77,,56,56,2,6,3,4,0.6,0.8
2024-02-10T1400,1944A,102.1692,38.5167,金昌市,天庆家园,颗粒物(PM10),82,113,273,43,37,84,,77,66,18,13,167,37,0.7,0.5
2024-02-10T1400,3170A,102.1864,38.5253,金昌市,市委党校,颗粒物(PM10),77,103,256,29,46,76,,76,66,6,6,62,26,0.8,0.6
2024-02-10T1400,4022A,102.1647,38.5371,金昌市,金川区人防中心,颗粒物(PM10),73,95,366,33,45,83,,78,69,8,9,31,38,0.6,0.6
2024-02-10T1400,1262A,119.647,29.077,金华市,十五中,细颗粒物(PM2.5),107,88,151,80,121,117,,68,68,10,19,8,7,0.9,0.9
2024-02-10T1400,1263A,119.686,29.1029,金华市,监测站,细颗粒物(PM2.5),102,106,113,76,86,121,,74,74,9,12,8,6,0.8,0.8
2024-02-10T1400,3659A,119.656,29.1131,金华市,气象局,细颗粒物(PM2.5),109,99,180,82,142,117,,73,73,6,18,7,7,1.0,1
2024-02-10T1400,1767A,121.1115,41.0879,锦州市,南山,颗粒物(PM10),59,67,177,34,151,102,,72,72,8,26,14,17,0.5,1.3
2024-02-10T1400,1768A,121.0533,40.8434,锦州市,开发区,细颗粒物(PM2.5),74,79,193,54,160,96,,76,76,8,22,23,33,0.6,1.3
2024-02-10T1400,1769A,121.1836,41.1119,锦州市,百股街道,,45,,163,31,142,97,,71,71,8,26,14,18,0.5,1.4
2024-02-10T1400,1770A,121.1178,41.1222,锦州市,天安街道,颗粒物(PM10),65,79,182,37,144,95,,71,71,10,29,12,15,0.6,1.3
2024-02-10T1400,1771A,121.1303,41.1386,锦州市,北湖公园,细颗粒物(PM2.5),60,58,138,43,129,93,,74,74,12,24,14,20,0.6,1.2
2024-02-10T1400,2160A,112.85,35.5051,晋城市,自来水公司,颗粒物(PM10),68,85,167,34,128,90,,58,58,7,24,7,16,0.8,1.3
2024-02-10T1400,2161A,112.8318,35.4936,晋城市,白云商贸,颗粒物(PM10),76,101,157,36,105,88,,66,66,17,27,8,13,0.6,1
2024-02-10T1400,2162A,112.8508,35.4887,晋城市,市环保局,颗粒物(PM10),81,112,162,34,115,88,,61,61,15,30,7,13,1.3,1.1
2024-02-10T1400,2163A,112.8676,35.4897,晋城市,技术学院,颗粒物(PM10),84,118,159,31,113,90,,58,58,14,32,7,15,0.7,1.2
2024-02-10T1400,3620A,112.8271,35.4828,晋城市,泽州一中,颗粒物(PM10),75,100,125,31,84,85,,74,71,19,25,9,12,0.8,1.1
2024-02-10T1400,2171A,112.7532,37.6945,晋中市,锦纶小区,颗粒物(PM10),108,166,243,61,182,92,,56,56,12,27,13,39,0.3,0.8
2024-02-10T1400,2173A,112.7249,37.7067,晋中市,南都小区,颗粒物(PM10),112,173,362,66,193,92,,54,54,13,36,13,61,0.4,1
2024-02-10T1400,2174A,112.6991,37.6982,晋中市,榆次区政府,颗粒物(PM10),98,145,293,57,195,90,,46,46,12,32,16,44,0.6,1
2024-02-10T1400,2865A,112.7195,37.6828,晋中市,榆次三中,颗粒物(PM10),114,178,229,73,180,92,,48,48,12,29,18,45,0.6,0.9
2024-02-10T1400,2439A,112.2014,31.0481,荆门市,竹园小学,细颗粒物(PM2.5),138,202,163,105,131,72,,62,37,14,19,11,12,1.0,1.1
2024-02-10T1400,2440A,112.1969,30.9891,荆门市,掇刀,细颗粒物(PM2.5),160,173,153,122,124,76,,53,41,7,14,9,10,0.9,1
2024-02-10T1400,2441A,112.2213,31.0386,荆门市,石化一小,细颗粒物(PM2.5),160,198,166,122,127,81,,60,43,16,20,26,18,0.9,1
2024-02-10T1400,3012A,112.1849,31.0362,荆门市,西山林语,细颗粒物(PM2.5),128,156,131,97,104,77,,57,46,14,14,15,15,0.7,0.8
2024-02-10T1400,3547A,112.1632,31.0138,荆门市,龙泉中学南校,细颗粒物(PM2.5),193,161,140,145,124,72,,54,40,19,13,10,12,0.9,1
2024-02-10T1400,1844A,112.2494,30.3197,荆州市,市图书馆,细颗粒物(PM2.5),158,128,174,120,182,66,,54,44,11,17,8,13,1.0,1.2
2024-02-10T1400,1845A,112.2008,30.3544,荆州市,市委党校,细颗粒物(PM2.5),201,161,185,151,189,66,,54,45,13,19,8,14,0.8,0.9
2024-02-10T1400,3194A,112.2747,30.3122,荆州市,管委会,细颗粒物(PM2.5),175,,155,132,178,71,,57,48,10,15,10,14,1.0,1.1
2024-02-10T1400,3548A,112.1655,30.3364,荆州市,学苑路,细颗粒物(PM2.5),165,,178,125,190,64,,53,45,13,19,8,12,1.0,1.2
2024-02-10T1400,2342A,117.3102,29.3867,景德镇市,王港中学,细颗粒物(PM2.5),107,89,167,80,131,106,,57,57,8,6,7,33,0.4,0.6
2024-02-10T1400,2343A,117.2117,29.2933,景德镇市,老干部活动中心,细颗粒物(PM2.5),113,99,180,85,146,82,,38,38,6,12,10,15,0.5,0.8
2024-02-10T1400,2344A,117.1894,29.2789,景德镇市,兽医站,细颗粒物(PM2.5),135,116,190,103,153,91,,44,44,8,15,11,23,0.8,0.9
2024-02-10T1400,2345A,117.1547,29.2617,景德镇市,台达陶瓷,细颗粒物(PM2.5),139,113,232,106,193,89,,42,42,8,18,4,19,0.8,0.9
2024-02-10T1400,2346A,117.2461,29.2956,景德镇市,陶研所,细颗粒物(PM2.5),127,112,147,96,126,80,,39,39,15,17,7,14,0.8,0.9
2024-02-10T1400,1803A,115.9872,29.6815,九江市,十里,,45,39,192,31,156,107,,64,64,9,28,8,15,0.5,1
2024-02-10T1400,1804A,115.9584,29.7046,九江市,茅山头,,43,31,133,30,115,86,,54,54,13,30,12,15,0.7,1.1
2024-02-10T1400,1805A,115.9877,29.7295,九江市,西园,细颗粒物(PM2.5),99,96,151,74,131,68,,59,59,37,28,11,13,0.8,1.1
2024-02-10T1400,1806A,116.0172,29.6547,九江市,五七二七厂,细颗粒物(PM2.5),78,99,68,57,50,77,,68,68,11,14,13,13,0.7,0.8
2024-02-10T1400,1808A,115.9114,29.6038,九江市,综合工业园,细颗粒物(PM2.5),70,,127,51,111,93,,67,67,12,19,12,18,0.7,1
2024-02-10T1400,1809A,116.0721,29.7535,九江市,石化总厂,细颗粒物(PM2.5),238,226,215,188,175,91,,63,62,7,20,18,22,0.8,1.1
2024-02-10T1400,1810A,115.9773,29.5698,九江市,庐山气象台,,36,,34,25,27,88,,98,90,4,5,6,8,1.0,0.9
2024-02-10T1400,3190A,116.0254,29.6994,九江市,外国语学校,细颗粒物(PM2.5),209,176,187,159,162,66,,57,57,23,33,15,18,0.9,1
2024-02-10T1400,2658A,98.5061,39.7443,酒泉市,仓门街子站,,42,39,141,29,30,82,,62,57,5,8,5,9,0.4,0.4
2024-02-10T1400,2659A,98.4989,39.7256,酒泉市,油田生活基地,,36,36,139,18,32,85,,66,64,4,8,6,11,0.3,0.4
2024-02-10T1400,2698A,76.0072,39.4467,喀什地区,巡警大队,颗粒物(PM10),126,201,145,87,83,72,,46,46,44,48,24,15,1.5,2.3
2024-02-10T1400,2699A,75.9755,39.4694,喀什地区,吾办,细颗粒物(PM2.5),176,209,158,133,114,69,,28,28,45,58,16,7,1.5,2.5
2024-02-10T1400,4027A,75.9483,39.4689,喀什地区,老干局,颗粒物(PM10),89,128,185,61,99,80,,30,30,22,50,10,5,1.2,3.5
2024-02-10T1400,1824A,114.3389,34.7781,开封市,肿瘤医院,细颗粒物(PM2.5),162,186,310,123,210,98,,52,52,13,27,16,37,0.8,0.7
2024-02-10T1400,1826A,114.2885,34.7965,开封市,世纪星幼儿园,细颗粒物(PM2.5),279,,289,229,219,108,,63,63,9,20,21,45,0.8,0.6
2024-02-10T1400,3147A,114.3438,34.8106,开封市,龙亭公园,细颗粒物(PM2.5),205,208,255,155,101,98,,52,52,12,26,19,26,0.7,0.5
2024-02-10T1400,3210A,114.3644,34.7964,开封市,汴京公园,细颗粒物(PM2.5),246,212,302,196,238,102,,51,51,13,27,17,29,0.7,0.7
2024-02-10T1400,3473A,114.2485,34.8306,开封市,技师学院,细颗粒物(PM2.5),293,,188,243,134,103,,72,72,11,15,20,16,1.1,0.7
2024-02-10T1400,3592A,114.4644,34.7556,开封市,祥符区生态环境局,细颗粒物(PM2.5),223,220,283,173,226,101,,60,60,13,25,17,48,0.5,0.6
2024-02-10T1400,1951A,84.895,45.6094,克拉玛依市,长征新村,细颗粒物(PM2.5),78,82,157,57,112,80,,65,62,31,38,12,27,0.8,0.9
2024-02-10T1400,1952A,84.8988,45.5893,克拉玛依市,南林小区,细颗粒物(PM2.5),90,88,198,67,164,79,,58,58,29,47,6,20,0.9,1.2
2024-02-10T1400,1954A,84.905,44.3396,克拉玛依市,独山子区,细颗粒物(PM2.5),172,,261,130,221,114,,92,92,30,40,9,9,0.9,1.3
2024-02-10T1400,1955A,85.6979,46.098,克拉玛依市,乌尔禾区商贸楼,细颗粒物(PM2.5),85,84,131,63,105,83,,56,53,38,38,10,10,1.1,1.1
2024-02-10T1400,3612A,85.1045,45.6899,克拉玛依市,白碱滩区新站,细颗粒物(PM2.5),95,96,144,71,99,81,,75,48,29,31,11,22,0.9,0.9
2024-02-10T1400,2697A,76.1454,39.7142,克孜勒苏柯尔克孜自治州,市人民政府,颗粒物(PM10),53,56,62,33,38,87,,62,62,8,13,6,6,0.6,0.8
2024-02-10T1400,3665A,76.1658,39.7157,克孜勒苏柯尔克孜自治州,克州文化中心,颗粒物(PM10),54,57,68,33,37,89,,68,68,11,13,6,7,0.7,0.6
2024-02-10T1400,1450A,102.8204,24.8886,昆明市,呈贡新区,,29,17,53,8,49,91,,67,67,3,9,6,10,0.6,1
2024-02-10T1400,1451A,102.6251,24.9608,昆明市,西山森林公园,,43,,52,30,41,86,,66,66,9,11,9,10,1.0,1.4
2024-02-10T1400,1452A,102.7252,25.0902,昆明市,龙泉镇,,30,25,63,13,48,95,,72,72,7,13,13,16,0.4,0.8
2024-02-10T1400,1453A,102.7266,25.0375,昆明市,东风东路,,30,22,54,21,47,87,,68,68,10,13,12,15,0.6,1
2024-02-10T1400,1454A,102.6742,25.0669,昆明市,金鼎山,,35,35,68,15,48,94,,72,72,8,12,7,12,0.6,1
2024-02-10T1400,1455A,102.6644,25.0401,昆明市,碧鸡广场,,32,22,59,22,52,89,,71,71,7,12,11,15,0.6,1
2024-02-10T1400,3179A,102.7494,25.0119,昆明市,官渡区博物馆,,28,28,54,16,42,86,,66,66,8,13,11,12,0.6,1
2024-02-10T1400,3375A,102.8017,24.8336,昆明市,青年创业园,,29,18,46,15,38,92,,72,72,3,8,10,12,0.6,0.9
2024-02-10T1400,3550A,102.7997,24.9786,昆明市,昆明学院,,26,23,55,12,42,83,,65,65,4,9,10,11,0.6,1
2024-02-10T1400,3551A,102.5967,24.6736,昆明市,晋宁区生态环境分局,细颗粒物(PM2.5),52,43,69,36,45,94,,75,75,9,10,10,14,0.8,1
2024-02-10T1400,3552A,102.6678,24.9856,昆明市,云天化总部,,30,26,71,21,59,85,,66,66,8,12,7,14,0.8,1.1
2024-02-10T1400,1456A,91.1319,29.6514,拉萨市,八廓街,,29,8,17,6,12,92,,76,76,9,12,6,6,0.3,0.3
2024-02-10T1400,1457A,91.1221,29.6747,拉萨市,市环保局,,30,10,29,6,22,94,,76,76,8,13,6,9,0.5,0.6
2024-02-10T1400,1458A,91.0874,29.6475,拉萨市,区监测站,,29,9,15,9,12,91,,78,78,3,7,4,5,0.4,0.5
2024-02-10T1400,1459A,91.1774,29.6541,拉萨市,西藏大学,,30,6,10,5,7,93,,77,77,2,4,3,4,0.2,0.3
2024-02-10T1400,1460A,90.9798,29.6588,拉萨市,区辐射站,,29,13,14,9,11,91,,71,69,6,9,5,6,0.5,0.6
2024-02-10T1400,1461A,91.0834,29.6292,拉萨市,拉萨火车站,,29,7,15,7,12,92,,74,74,3,8,4,4,0.5,0.3
2024-02-10T1400,2520A,109.2203,23.7256,来宾市,来宾技工学校,细颗粒物(PM2.5),69,,105,50,82,81,,58,58,4,13,6,11,0.7,0.9
2024-02-10T1400,3535A,109.1781,23.7297,来宾市,兴宾区政府,,38,35,72,26,62,85,,60,60,4,9,8,10,0.7,0.9
2024-02-10T1400,4002A,109.2416,23.7461,来宾市,中南小学,细颗粒物(PM2.5),58,43,106,41,86,84,,60,60,5,15,5,10,0.8,1.1
2024-02-10T1400,1476A,103.631,36.1031,兰州市,兰炼宾馆,颗粒物(PM10),100,149,204,52,103,92,,50,50,28,38,25,29,0.9,0.8
2024-02-10T1400,1478A,103.8412,36.0726,兰州市,生物制品所,颗粒物(PM10),117,184,208,60,86,68,,36,36,33,41,25,19,1.2,0.9
2024-02-10T1400,1479A,103.831,36.0464,兰州市,铁路设计院,颗粒物(PM10),106,162,187,53,98,70,,27,27,35,58,26,27,1.0,1.1
2024-02-10T1400,3186A,103.7158,36.1058,兰州市,教育港,颗粒物(PM10),108,165,185,52,71,79,,45,45,36,38,21,19,0.8,0.8
2024-02-10T1400,3241A,103.7439,36.0842,兰州市,百合公园,颗粒物(PM10),92,134,175,50,83,62,,36,36,38,41,15,16,1.0,1
2024-02-10T1400,3242A,103.9611,35.998,兰州市,和平,颗粒物(PM10),123,196,146,69,74,81,,54,51,19,25,25,22,1.2,1
2024-02-10T1400,3245A,103.6633,36.533,兰州新区,新区管委会,颗粒物(PM10),90,129,201,36,58,91,,52,52,9,14,16,14,0.6,0.7
2024-02-10T1400,3246A,103.6975,36.4789,兰州新区,舟曲中学,颗粒物(PM10),129,208,190,46,38,80,,55,55,16,15,17,12,0.6,0.6
2024-02-10T1400,1067A,116.6708,39.5111,廊坊市,药材公司,,29,15,51,12,33,92,,84,84,2,10,1,4,0.3,0.4
2024-02-10T1400,1068A,116.7214,39.5589,廊坊市,开发区,,28,19,38,12,29,88,,80,80,4,10,1,4,0.3,0.4
2024-02-10T1400,1070A,116.7244,39.5269,廊坊市,北华航天学院,,30,12,47,9,22,94,,87,87,5,12,2,4,0.3,0.4
2024-02-10T1400,2919A,116.7022,39.5453,廊坊市,河北工业大学,,29,17,47,15,34,90,,82,82,6,11,1,4,0.2,0.3
2024-02-10T1400,2535A,103.7723,29.5462,乐山市,花湖湾,细颗粒物(PM2.5),103,,149,77,129,88,,54,49,7,11,7,8,0.6,0.6
2024-02-10T1400,2536A,103.7627,29.5844,乐山市,牛耳桥,细颗粒物(PM2.5),122,98,161,92,146,93,,43,43,12,23,7,7,0.9,0.9
2024-02-10T1400,2537A,103.7508,29.6006,乐山市,市第三水厂,细颗粒物(PM2.5),155,,229,118,201,90,,35,35,12,27,8,8,0.9,1
2024-02-10T1400,2538A,103.7571,29.5664,乐山市,市监测站,细颗粒物(PM2.5),142,,149,108,120,90,,42,42,11,18,8,9,0.6,0.6
2024-02-10T1400,3361A,103.7311,29.5628,乐山市,理工大学,细颗粒物(PM2.5),132,103,178,100,167,96,,42,42,9,19,7,8,0.8,0.8
2024-02-10T1400,2599A,100.2497,26.8802,丽江市,丽江古城,,32,32,95,19,76,92,,64,64,14,20,7,8,0.5,0.6
2024-02-10T1400,2600A,100.2203,26.8906,丽江市,市中心,,29,20,64,13,46,91,,65,65,6,18,9,16,0.7,0.7
2024-02-10T1400,1267A,119.914,28.4514,丽水市,监测站大楼,细颗粒物(PM2.5),83,61,101,61,86,71,,40,40,6,10,4,5,0.6,0.7
2024-02-10T1400,1268A,119.93,28.4586,丽水市,莲都小学,细颗粒物(PM2.5),74,71,96,54,75,79,,41,41,7,10,4,6,0.6,0.7
2024-02-10T1400,1269A,119.879,28.4231,丽水市,余庄前,细颗粒物(PM2.5),79,61,91,58,81,80,,38,38,6,8,5,4,0.6,0.7
2024-02-10T1400,1173A,119.176,34.5885,连云港市,市环境监测站,细颗粒物(PM2.5),267,232,191,217,176,101,,71,71,22,27,16,12,1.4,1.2
2024-02-10T1400,3000A,119.3581,34.6972,连云港市,德源药业,细颗粒物(PM2.5),211,178,169,161,152,140,,88,88,19,22,19,11,1.3,1
2024-02-10T1400,3007A,119.178,34.844,连云港市,新城一中,细颗粒物(PM2.5),276,247,223,226,226,133,,89,89,20,21,20,16,1.5,1.2
2024-02-10T1400,3008A,119.3608,34.7519,连云港市,胡沟管理处,细颗粒物(PM2.5),228,212,170,178,145,124,,89,89,17,18,20,14,1.2,0.9
2024-02-10T1400,3009A,119.1478,34.5911,连云港市,矿山设计院,细颗粒物(PM2.5),267,256,213,217,176,93,,70,64,16,18,15,14,1.2,1
2024-02-10T1400,3434A,119.2413,34.6539,连云港市,工贸学校,细颗粒物(PM2.5),271,275,205,221,166,134,,83,83,24,23,22,25,1.4,1.2
2024-02-10T1400,3664A,119.4172,34.7341,连云港市,连云街道,细颗粒物(PM2.5),243,246,146,193,118,116,,105,95,42,19,22,16,1.6,1.3
2024-02-10T1400,2571A,102.3431,27.8099,凉山彝族自治州,青龙寺,,31,17,17,4,5,97,,79,73,3,4,5,5,0.7,0.8
2024-02-10T1400,2572A,102.2721,27.8415,凉山彝族自治州,邛海宾馆,,30,24,16,13,11,94,,81,72,5,5,8,9,0.7,0.7
2024-02-10T1400,2573A,102.2625,27.898,凉山彝族自治州,西昌市政府,,31,13,17,8,12,99,,79,72,3,4,7,9,0.6,0.7
2024-02-10T1400,2574A,102.2685,27.8851,凉山彝族自治州,凉山州政府,,29,17,20,11,13,90,,75,68,4,5,5,8,0.6,0.7
2024-02-10T1400,2575A,102.237,27.8914,凉山彝族自治州,长安,,30,10,22,8,12,94,,78,68,3,5,9,12,0.8,0.7
2024-02-10T1400,2212A,123.2,41.1953,辽阳市,宏伟区,细颗粒物(PM2.5),147,114,735,112,598,82,,48,48,11,41,17,108,1.0,2.3
2024-02-10T1400,2213A,123.1683,41.2495,辽阳市,新华园,细颗粒物(PM2.5),147,,724,112,615,82,,44,44,10,53,21,99,0.9,2.6
2024-02-10T1400,2214A,123.2354,41.2639,辽阳市,滨河路,细颗粒物(PM2.5),156,,396,119,397,84,,45,45,10,35,13,30,0.9,1.8
2024-02-10T1400,2215A,123.149,41.2991,辽阳市,铁西工业园,细颗粒物(PM2.5),74,72,586,54,596,88,,48,48,10,47,14,37,0.7,2.9
2024-02-10T1400,2227A,125.1358,42.8845,辽源市,环保局,,43,39,463,30,416,92,,55,55,3,38,11,73,0.4,1.5
2024-02-10T1400,3239A,125.0764,42.9078,辽源市,银鹰制药,细颗粒物(PM2.5),69,57,268,50,240,98,,63,63,4,27,9,14,0.5,1.4
2024-02-10T1400,1625A,115.9848,36.4372,聊城市,区政府,细颗粒物(PM2.5),119,119,278,90,245,99,,68,68,16,25,19,16,1.1,1.4
2024-02-10T1400,2878A,116.0072,36.4343,聊城市,聊大东校,细颗粒物(PM2.5),120,114,314,91,273,107,,72,72,16,26,19,22,1.0,1.4
2024-02-10T1400,3200A,115.9819,36.4978,聊城市,监控中心,细颗粒物(PM2.5),107,108,344,80,295,104,,69,69,12,29,23,21,1.3,1.6
2024-02-10T1400,3513A,116.0445,36.4361,聊城市,九州社区,细颗粒物(PM2.5),103,117,353,77,289,102,,67,67,13,25,11,28,0.7,1.3
2024-02-10T1400,4018A,116.0567,36.4608,聊城市,星美广场,细颗粒物(PM2.5),100,114,347,75,276,102,,67,67,11,22,11,20,0.9,1.4
2024-02-10T1400,2632A,94.3681,29.6376,林芝市,林芝监测站,,,,15,1,9,,,79,78,1,2,4,6,0.3,0.3
2024-02-10T1400,2633A,94.3616,29.6616,林芝市,林芝人民医院,,27,10,16,1,7,86,,78,78,2,3,8,9,0.4,0.4
2024-02-10T1400,2603A,100.0781,23.8982,临沧市,市环保局,细颗粒物(PM2.5),52,43,80,36,67,68,,48,48,6,11,8,18,0.5,0.5
2024-02-10T1400,2604A,100.0894,23.8822,临沧市,市气象局,细颗粒物(PM2.5),55,41,94,39,77,62,,44,44,6,12,6,19,0.5,0.6
2024-02-10T1400,1733A,111.5531,36.0783,临汾市,临钢医院,细颗粒物(PM2.5),272,319,343,222,249,76,,37,37,17,28,18,15,1.5,1.8
2024-02-10T1400,1734A,111.5028,36.0714,临汾市,技工学校,细颗粒物(PM2.5),258,277,422,208,343,83,,40,40,16,33,18,22,1.3,1.9
2024-02-10T1400,1736A,111.5018,36.0855,临汾市,市委,细颗粒物(PM2.5),237,277,396,187,312,83,,44,44,10,28,16,20,1.2,1.9
2024-02-10T1400,3018A,111.505,36.1014,临汾市,唐尧大酒店,细颗粒物(PM2.5),233,235,353,183,303,80,,40,40,19,36,18,24,1.3,2
2024-02-10T1400,3668A,111.5036,36.0414,临汾市,城南,细颗粒物(PM2.5),248,257,398,198,321,92,,35,35,20,33,24,17,1.6,2
2024-02-10T1400,2667A,103.2069,35.5993,临夏回族自治州,环保局,,38,38,82,22,40,82,,33,33,11,26,14,21,0.5,1.5
2024-02-10T1400,2668A,103.2417,35.6057,临夏回族自治州,建设大厦,,29,17,53,7,30,92,,55,55,8,16,12,18,0.5,0.9
2024-02-10T1400,1618A,118.3429,35.0532,临沂市,沂河小区,细颗粒物(PM2.5),270,,347,220,304,124,,64,64,16,33,16,27,1.3,1.5
2024-02-10T1400,1619A,118.295,35.0583,临沂市,鲁南制药厂,细颗粒物(PM2.5),228,,341,178,306,137,,72,72,19,36,20,36,1.5,2
2024-02-10T1400,1620A,118.2794,34.9976,临沂市,新光毛纺厂,细颗粒物(PM2.5),233,,328,183,276,134,,65,65,18,36,20,23,1.4,1.7
2024-02-10T1400,1621A,118.3956,35.0888,临沂市,河东保险公司,细颗粒物(PM2.5),261,224,406,211,360,138,,65,65,16,40,18,19,1.6,1.8
2024-02-10T1400,3370A,118.3564,35.0215,临沂市,十里堡居委,细颗粒物(PM2.5),255,227,374,205,320,138,,72,72,24,42,17,35,1.6,1.8
2024-02-10T1400,3496A,118.3604,35.1084,临沂市,南坊新区,细颗粒物(PM2.5),216,190,322,166,281,140,,74,74,21,35,19,20,1.5,1.5
2024-02-10T1400,3860A,118.3920,35.0300,临沂市,皇山花园小区,细颗粒物(PM2.5),256,261,355,206,269,136,,68,68,24,39,21,29,1.7,1.7
2024-02-10T1400,1870A,109.4856,24.3895,柳州市,柳东小学,,49,40,64,34,61,79,,62,62,6,9,8,15,0.5,0.5
2024-02-10T1400,1871A,109.4157,24.3277,柳州市,环保监测站,细颗粒物(PM2.5),67,50,84,48,74,79,,57,57,8,10,10,12,0.6,0.5
2024-02-10T1400,1872A,109.389,24.341,柳州市,河西水厂,颗粒物(PM10),52,54,83,25,58,75,,44,44,10,14,11,14,0.7,0.7
2024-02-10T1400,1873A,109.4311,24.2921,柳州市,市四中,细颗粒物(PM2.5),60,53,67,43,50,81,,56,56,8,13,8,8,0.5,0.6
2024-02-10T1400,1874A,109.4006,24.3631,柳州市,市九中,细颗粒物(PM2.5),52,45,106,36,79,75,,48,48,4,12,7,11,0.6,0.7
2024-02-10T1400,1875A,109.4958,24.3134,柳州市,古亭山,细颗粒物(PM2.5),63,58,50,45,39,76,,53,53,5,6,8,9,0.6,0.6
2024-02-10T1400,3402A,109.5422,24.3996,柳州市,市二中,,46,46,62,28,47,76,,49,49,6,8,7,8,0.7,0.7
2024-02-10T1400,2307A,116.5079,31.737,六安市,监测大楼,,30,25,78,21,83,94,,89,89,8,14,5,10,0.6,0.8
2024-02-10T1400,2308A,116.4738,31.7643,六安市,皖西学院,,35,35,105,21,99,95,,86,86,8,15,3,12,0.5,0.7
2024-02-10T1400,2309A,116.4996,31.7905,六安市,朝阳厂,,43,31,90,30,97,91,,83,78,3,12,5,11,0.5,0.7
2024-02-10T1400,2310A,116.5567,31.7886,六安市,开发区,,35,33,116,24,89,94,,64,64,8,16,4,6,0.5,0.7
2024-02-10T1400,2577A,104.83,26.5917,六盘水市,黄土坡,,32,22,69,13,56,101,,75,75,3,13,9,18,0.3,0.7
2024-02-10T1400,2578A,104.89,26.5939,六盘水市,水钢,,34,19,61,16,47,106,,63,63,1,26,5,35,0.2,1.6
2024-02-10T1400,2579A,104.8475,26.5894,六盘水市,民中,,33,13,74,5,69,104,,69,69,3,20,6,20,0.2,0.7
2024-02-10T1400,2580A,104.9544,26.5506,六盘水市,双水,,33,22,70,9,56,104,,61,61,3,12,8,14,0.1,0.9
2024-02-10T1400,2336A,117.0217,25.1033,龙岩市,龙岩市监测站,,27,19,52,7,51,86,,50,50,2,4,3,19,0.3,0.5
2024-02-10T1400,2337A,117.0258,25.0661,龙岩市,闽西职业技术学院,,28,23,54,10,57,88,,50,50,1,4,3,16,0.4,0.6
2024-02-10T1400,2338A,117.0196,25.0306,龙岩市,龙岩学院,,26,25,47,11,40,81,,45,45,3,5,5,11,0.4,0.7
2024-02-10T1400,2885A,104.9339,33.3826,陇南市,滨江中学,细颗粒物(PM2.5),57,54,202,40,161,77,,40,40,9,34,8,42,0.5,1.4
2024-02-10T1400,3247A,104.955,33.371,陇南市,市总工会,细颗粒物(PM2.5),53,39,140,37,103,84,,48,48,6,22,8,24,0.5,0.9
2024-02-10T1400,2487A,111.9589,27.8901,娄底市,电视发射台,细颗粒物(PM2.5),127,112,80,96,61,75,,45,45,9,7,10,5,1.0,0.9
2024-02-10T1400,2488A,111.9975,27.725,娄底市,市监测站,细颗粒物(PM2.5),500,558,480,542,406,62,,15,15,22,39,23,19,2.1,2.9
2024-02-10T1400,2489A,112.0194,27.7314,娄底市,市委党校,细颗粒物(PM2.5),492,513,405,488,337,34,,9,9,28,34,20,12,2.1,2.1
2024-02-10T1400,2490A,111.9561,27.7569,娄底市,涟钢,"颗粒物(PM10),细颗粒物(PM2.5)",500,714,377,623,318,30,,12,12,72,23,49,13,6.6,1.9
2024-02-10T1400,2491A,111.9892,27.7044,娄底市,市政府,细颗粒物(PM2.5),327,296,416,277,332,57,,19,19,11,26,15,11,1.3,1.8
2024-02-10T1400,1893A,105.4324,28.9634,泸州市,九狮山,细颗粒物(PM2.5),112,120,163,84,115,84,,37,37,8,12,19,8,0.4,0.5
2024-02-10T1400,1894A,105.4427,28.9063,泸州市,小市上码头,细颗粒物(PM2.5),97,,93,72,97,80,,36,36,10,14,13,8,0.7,0.8
2024-02-10T1400,1895A,105.4241,28.8573,泸州市,兰田宪桥,细颗粒物(PM2.5),100,91,129,75,118,83,,32,32,11,19,12,6,0.6,0.8
2024-02-10T1400,1896A,105.4379,28.8833,泸州市,市环监站,细颗粒物(PM2.5),90,84,110,67,95,78,,30,30,5,13,9,6,0.6,0.7
2024-02-10T1400,3490A,105.3617,28.7703,泸州市,纳溪区环保局,细颗粒物(PM2.5),89,106,152,66,120,82,,29,29,10,19,9,7,0.9,1.1
2024-02-10T1400,2183A,111.1406,37.5211,吕梁市,环保局,颗粒物(PM10),101,152,181,47,111,81,,46,46,9,25,5,11,0.4,0.6
2024-02-10T1400,2185A,111.1297,37.5136,吕梁市,自来水公司,颗粒物(PM10),100,149,212,50,148,87,,45,45,9,27,6,16,0.4,0.7
2024-02-10T1400,2867A,111.1283,37.51,吕梁市,马茂庄小学,颗粒物(PM10),105,159,234,47,145,83,,43,43,8,28,4,14,0.2,0.6
2024-02-10T1400,1812A,112.3931,34.6516,洛阳市,市委党校,颗粒物(PM10),104,157,337,42,280,82,,46,46,6,31,9,42,0.4,0.8
2024-02-10T1400,1814A,112.4657,34.6871,洛阳市,豫西宾馆,颗粒物(PM10),117,183,335,77,220,90,,46,46,,40,17,35,0.2,0.5
2024-02-10T1400,1815A,112.494,34.6886,洛阳市,河南林校,细颗粒物(PM2.5),124,161,313,94,242,94,,48,48,12,33,20,29,0.8,1
2024-02-10T1400,1816A,112.3844,34.623,洛阳市,开发区管委会,颗粒物(PM10),100,150,245,57,187,88,,51,51,2,20,8,34,0.5,0.7
2024-02-10T1400,1817A,112.4267,34.6258,洛阳市,市委新办公区,颗粒物(PM10),112,174,250,78,240,88,,53,53,10,25,13,21,0.6,0.8
2024-02-10T1400,3340A,112.6005,34.6326,洛阳市,伊滨,细颗粒物(PM2.5),130,196,291,99,198,95,,49,49,13,22,19,20,0.6,0.7
2024-02-10T1400,3341A,112.4951,34.6332,洛阳市,中移产业园,细颗粒物(PM2.5),143,166,244,109,213,97,,56,56,11,24,24,29,0.7,0.8
2024-02-10T1400,3593A,112.5736,34.8993,洛阳市,吉利监测站,颗粒物(PM10),98,145,109,32,68,90,,67,67,5,14,6,10,0.3,0.5
2024-02-10T1400,3635A,112.3677,34.662,洛阳市,河科大西苑校区,颗粒物(PM10),109,168,329,59,244,88,,43,43,4,33,6,38,0,0.4
2024-02-10T1400,3636A,112.4388,34.6781,洛阳市,英才小学,颗粒物(PM10),113,175,308,77,284,92,,44,44,7,34,10,39,0.4,0.9
2024-02-10T1400,2399A,114.051,33.5699,漯河市,三五一五工厂,细颗粒物(PM2.5),186,144,194,140,192,83,,67,67,12,20,14,18,0.9,0.9
2024-02-10T1400,2400A,114.0055,33.5698,漯河市,漯河大学,细颗粒物(PM2.5),160,130,160,122,158,86,,72,72,1,8,12,15,1.0,0.9
2024-02-10T1400,2401A,114.0138,33.5828,漯河市,市水利局,细颗粒物(PM2.5),168,156,189,127,172,84,,74,74,7,13,14,18,0.8,0.9
2024-02-10T1400,2402A,114.0261,33.5698,漯河市,市广电局,细颗粒物(PM2.5),160,154,179,122,159,85,,73,73,9,14,10,14,1.1,1.1
2024-02-10T1400,3478A,113.9749,33.5664,漯河市,市图书馆,细颗粒物(PM2.5),160,132,161,122,146,83,,73,73,12,16,17,17,0.8,0.7
2024-02-10T1400,3479A,114.0967,33.5906,漯河市,召陵区卫健委,细颗粒物(PM2.5),169,153,223,128,192,82,,64,64,9,16,13,20,0.8,0.8
2024-02-10T1400,1798A,118.5092,31.6837,马鞍山市,湖东路四小,细颗粒物(PM2.5),94,104,154,70,108,117,,95,95,14,24,14,15,1.0,1.1
2024-02-10T1400,1799A,118.5024,31.6449,马鞍山市,开发区,细颗粒物(PM2.5),93,79,132,69,115,121,,93,93,16,25,10,12,0.8,1
2024-02-10T1400,1800A,118.5228,31.7231,马鞍山市,慈湖,细颗粒物(PM2.5),97,92,140,72,118,107,,89,89,23,30,18,14,0.9,1
2024-02-10T1400,1802A,118.6245,31.7241,马鞍山市,濮塘,"颗粒物(PM10),细颗粒物(PM2.5)",63,75,87,45,69,105,,,,11,14,11,11,0.8,0.9
2024-02-10T1400,3633A,118.4918,31.6809,马鞍山市,雨山,细颗粒物(PM2.5),94,97,154,70,119,118,,92,92,16,29,15,17,0.7,0.9
2024-02-10T1400,1686A,111.0286,21.4688,茂名市,电白南海,颗粒物(PM10),68,85,104,48,80,71,,49,49,9,11,17,20,0.9,1.1
2024-02-10T1400,1687A,110.9294,21.6533,茂名市,茂石化七小,细颗粒物(PM2.5),52,48,75,36,68,83,,52,52,9,11,15,17,1.1,1.3
2024-02-10T1400,1688A,110.9107,21.6687,茂名市,健康路,,46,46,70,24,58,76,,49,49,6,9,10,18,0.8,1.1
2024-02-10T1400,1689A,110.8592,21.6828,茂名市,高岭,细颗粒物(PM2.5),52,39,72,36,64,67,,46,46,6,8,11,23,0.7,0.8
2024-02-10T1400,3450A,111.01,21.5165,茂名市,电白水东,细颗粒物(PM2.5),64,56,80,46,69,75,,54,54,6,10,13,13,0.8,0.9
2024-02-10T1400,2539A,104.0308,30.0478,眉山市,黑龙滩水库,细颗粒物(PM2.5),68,65,70,49,52,117,,72,72,4,4,6,7,0.8,0.7
2024-02-10T1400,2540A,103.8416,30.0874,眉山市,气象局,细颗粒物(PM2.5),77,83,172,56,162,101,,48,48,9,21,11,18,0.8,0.8
2024-02-10T1400,3137A,103.8578,30.0744,眉山市,市委党校,细颗粒物(PM2.5),83,75,161,61,138,94,,46,46,8,23,8,10,0.6,0.8
2024-02-10T1400,3148A,103.8291,30.0564,眉山市,区人社局,细颗粒物(PM2.5),85,,173,63,177,99,,38,38,13,31,14,12,0.5,0.7
2024-02-10T1400,1690A,116.1231,24.3284,梅州市,梅江月梅,,35,29,54,24,56,77,,57,57,3,5,9,12,0.7,0.8
2024-02-10T1400,1691A,116.0797,24.2719,梅州市,梅县新城,,44,44,70,27,70,82,,59,59,4,7,7,9,0.5,0.6
2024-02-10T1400,1692A,116.1248,24.2654,梅州市,环境监控中心,,50,44,76,35,70,75,,43,43,4,9,6,7,0.6,0.7
2024-02-10T1400,3315A,116.1233,24.2991,梅州市,梅龙,,46,,58,32,56,75,,52,52,6,8,7,9,0.6,0.7
2024-02-10T1400,1878A,104.7778,31.4741,绵阳市,富乐山,细颗粒物(PM2.5),173,152,124,131,111,106,,54,54,11,13,9,7,0.8,0.9
2024-02-10T1400,1879A,104.7563,31.4535,绵阳市,市人大,细颗粒物(PM2.5),119,178,161,90,129,101,,43,43,13,28,7,6,0.7,0.9
2024-02-10T1400,1880A,104.6697,31.4668,绵阳市,高新区自来水公司,细颗粒物(PM2.5),173,131,175,131,150,103,,47,47,15,26,9,8,0.9,1
2024-02-10T1400,1881A,104.7287,31.5075,绵阳市,三水厂,细颗粒物(PM2.5),207,171,188,157,180,102,,38,38,10,28,8,7,0.9,1.3
2024-02-10T1400,3491A,104.69,31.5322,绵阳市,西科大附属小学,细颗粒物(PM2.5),153,125,158,117,146,104,,48,48,13,22,9,9,0.7,1
2024-02-10T1400,3492A,104.5648,31.5343,绵阳市,安州区旅游局,细颗粒物(PM2.5),148,133,179,113,160,100,,50,50,14,26,10,7,0.9,1.2
2024-02-10T1400,1784A,129.61,44.561,牡丹江市,环保大楼,,43,42,220,30,168,100,,79,79,13,30,17,49,0.5,0.9
2024-02-10T1400,1785A,129.6115,44.5782,牡丹江市,文化广场,细颗粒物(PM2.5),74,56,276,54,215,97,,74,74,13,32,19,54,0.5,0.9
2024-02-10T1400,1786A,129.5904,44.5963,牡丹江市,第一医院,细颗粒物(PM2.5),78,,312,57,263,90,,62,62,19,51,24,54,0.6,1.1
2024-02-10T1400,1787A,129.6364,44.6075,牡丹江市,机车工厂,细颗粒物(PM2.5),55,51,206,39,156,99,,72,72,12,39,17,23,0.4,0.8
2024-02-10T1400,1788A,129.6386,44.5462,牡丹江市,第一中学,,48,44,107,33,90,103,,79,79,8,23,14,22,0.5,0.9
2024-02-10T1400,2531A,105.0703,29.61,内江市,市监测站,细颗粒物(PM2.5),85,65,217,63,233,93,,38,38,9,28,10,13,0.8,1
2024-02-10T1400,2532A,105.0717,29.5947,内江市,东兴区政府,细颗粒物(PM2.5),78,,213,57,215,91,,36,36,6,19,9,12,0.7,0.9
2024-02-10T1400,2533A,105.0653,29.5817,内江市,内江二中,细颗粒物(PM2.5),119,,232,90,246,94,,38,38,4,20,8,9,0.9,1
2024-02-10T1400,2534A,105.0406,29.5822,内江市,内江日报社,细颗粒物(PM2.5),128,,234,97,240,92,,34,34,8,29,7,10,0.8,1
2024-02-10T1400,2628A,92.0657,31.4846,那曲市,那曲监测站,,25,12,41,7,28,80,,50,50,5,11,5,8,0.4,1
2024-02-10T1400,3128A,92.0506,31.4797,那曲市,那曲会议中心,,28,8,40,2,25,88,,51,51,6,14,9,9,0.4,0.8
2024-02-10T1400,1290A,115.8931,28.6843,南昌市,省外办,细颗粒物(PM2.5),110,92,147,83,127,86,,57,57,6,14,7,8,0.8,0.9
2024-02-10T1400,1291A,115.8886,28.7003,南昌市,省林业公司,细颗粒物(PM2.5),104,85,123,78,109,84,,53,53,11,16,6,8,0.9,1
2024-02-10T1400,1292A,115.8126,28.7442,南昌市,林科所,细颗粒物(PM2.5),79,66,87,58,77,91,,58,58,4,10,9,9,0.7,0.8
2024-02-10T1400,1294A,115.8518,28.687,南昌市,建工学校,细颗粒物(PM2.5),120,101,156,91,120,86,,54,54,5,14,8,9,0.8,0.9
2024-02-10T1400,1295A,115.8921,28.6424,南昌市,象湖,细颗粒物(PM2.5),127,119,171,96,138,87,,57,57,9,17,8,8,0.9,0.9
2024-02-10T1400,1296A,115.7423,28.7996,南昌市,武术学校,细颗粒物(PM2.5),83,,39,61,42,88,,45,45,7,5,11,8,0.9,0.9
2024-02-10T1400,1298A,115.9314,28.6842,南昌市,省站,细颗粒物(PM2.5),112,100,170,84,133,85,,54,54,8,18,9,11,0.8,0.9
2024-02-10T1400,3046A,115.9084,28.6062,南昌市,机电学校,细颗粒物(PM2.5),122,107,208,92,180,90,,55,55,4,14,9,12,0.9,1.1
2024-02-10T1400,3690A,115.9721,28.7031,南昌市,外国语学校,细颗粒物(PM2.5),113,,156,85,150,83,,49,49,9,20,6,10,0.5,0.7
2024-02-10T1400,1905A,106.056,30.8064,南充市,西山风景区,细颗粒物(PM2.5),92,,141,68,144,89,,41,41,13,19,4,6,0.9,1
2024-02-10T1400,1906A,106.0789,30.8023,南充市,南充市委,细颗粒物(PM2.5),70,63,192,51,166,87,,28,28,12,29,6,6,0.6,0.9
2024-02-10T1400,1907A,106.1031,30.8217,南充市,南充炼油厂,细颗粒物(PM2.5),70,60,195,51,168,96,,26,26,6,23,6,6,0.5,0.7
2024-02-10T1400,1908A,106.1064,30.7856,南充市,高坪区监测站,颗粒物(PM10),65,80,167,42,136,99,,35,35,8,25,7,7,0.6,0.8
2024-02-10T1400,1909A,106.0642,30.7636,南充市,嘉陵区环保局,细颗粒物(PM2.5),73,65,192,53,172,91,,32,32,11,29,4,4,0.7,1
2024-02-10T1400,1910A,106.1087,30.8388,南充市,市环境监测站,细颗粒物(PM2.5),59,53,179,42,145,102,,39,39,9,27,7,8,0.5,0.8
2024-02-10T1400,1151A,118.8086,32.1065,南京市,迈皋桥,细颗粒物(PM2.5),94,88,127,70,104,88,,62,62,12,28,6,6,0.7,0.9
2024-02-10T1400,1152A,118.7538,32.0551,南京市,草场门,细颗粒物(PM2.5),94,88,125,70,102,106,,77,77,17,29,8,8,0.7,0.9
2024-02-10T1400,1153A,118.7794,32.0745,南京市,山西路,细颗粒物(PM2.5),94,83,117,70,104,82,,61,61,21,31,10,11,0.8,1
2024-02-10T1400,1154A,118.7752,32.0023,南京市,中华门,细颗粒物(PM2.5),85,80,126,63,113,106,,76,76,20,29,13,16,0.7,1.1
2024-02-10T1400,1155A,118.8109,32.0309,南京市,瑞金路,细颗粒物(PM2.5),100,85,143,75,119,97,,62,62,15,33,5,8,1.3,1.5
2024-02-10T1400,1156A,118.7997,32.0754,南京市,玄武湖,细颗粒物(PM2.5),90,96,134,67,101,102,,69,69,12,21,13,14,0.5,0.9
2024-02-10T1400,1157A,118.6414,32.0931,南京市,浦口,颗粒物(PM10),69,87,139,32,89,100,,75,75,15,21,7,10,0.6,0.8
2024-02-10T1400,1158A,118.7356,31.9996,南京市,奥体中心,细颗粒物(PM2.5),92,89,136,68,111,108,,72,72,15,30,13,15,0.8,1.3
2024-02-10T1400,1159A,118.9125,32.1028,南京市,仙林大学城,细颗粒物(PM2.5),77,80,119,56,98,104,,75,75,11,24,10,12,0.8,1.4
2024-02-10T1400,3422A,118.8436,31.9198,南京市,江宁彩虹桥,细颗粒物(PM2.5),73,76,153,53,119,116,,93,93,13,19,11,11,0.9,0.9
2024-02-10T1400,3423A,119.0138,31.6494,南京市,溧水永阳,细颗粒物(PM2.5),117,95,154,88,145,119,,88,88,16,17,4,5,0.9,1
2024-02-10T1400,3424A,118.879,31.3302,南京市,高淳老职中,细颗粒物(PM2.5),75,59,140,55,139,110,,85,85,7,14,7,12,0.7,0.8
2024-02-10T1400,3427A,118.8554,32.3578,南京市,六合雄州,细颗粒物(PM2.5),97,107,138,72,103,108,,91,91,11,15,7,7,0.9,0.9
2024-02-10T1400,1401A,108.3103,22.7881,南宁市,二十一中,细颗粒物(PM2.5),57,,151,40,140,87,,46,46,6,20,8,14,0.7,0.7
2024-02-10T1400,1402A,108.3141,22.8528,南宁市,北湖,,49,,164,34,157,84,,53,53,2,15,6,14,0.7,0.7
2024-02-10T1400,1403A,108.3206,22.8225,南宁市,市监测站,细颗粒物(PM2.5),60,51,121,43,89,87,,50,50,6,20,8,12,0.9,0.8
2024-02-10T1400,1404A,108.3829,22.8037,南宁市,大自然花园,细颗粒物(PM2.5),58,43,108,41,94,80,,45,45,8,16,7,9,0.6,0.6
2024-02-10T1400,1405A,108.4394,22.7904,南宁市,仙葫,细颗粒物(PM2.5),65,,248,47,220,73,,44,44,8,19,9,16,0.8,0.8
2024-02-10T1400,1406A,108.2397,22.8467,南宁市,区农职院,细颗粒物(PM2.5),59,,85,42,65,85,,50,50,8,14,9,12,0.5,0.5
2024-02-10T1400,1407A,108.3275,22.735,南宁市,英华嘉园,细颗粒物(PM2.5),53,42,135,37,122,80,,46,46,8,17,7,10,0.6,0.6
2024-02-10T1400,1408A,108.2257,22.7757,南宁市,沙井镇街道办,细颗粒物(PM2.5),58,,80,41,63,84,,47,47,3,12,2,5,0.6,0.6
2024-02-10T1400,3401A,108.4834,22.7618,南宁市,红星社区,,50,,235,35,217,81,,41,41,6,16,9,27,0.7,0.8
2024-02-10T1400,2332A,118.1681,26.6369,南平市,南平市监测站,细颗粒物(PM2.5),65,48,107,47,103,78,,42,42,6,9,8,31,0.8,0.8
2024-02-10T1400,2333A,118.1825,26.6489,南平市,南平铝业有限公司,细颗粒物(PM2.5),65,,126,47,102,68,,40,40,5,8,8,23,0.6,0.6
2024-02-10T1400,2334A,118.1756,26.6272,南平市,南平七中,,50,48,79,35,90,85,,45,45,3,4,8,21,0.8,0.9
2024-02-10T1400,1168A,120.9098,31.9663,南通市,狼山街道,细颗粒物(PM2.5),124,103,173,94,160,115,,77,77,22,29,22,13,1.3,1.3
2024-02-10T1400,1169A,120.86,32.0005,南通市,虹桥,细颗粒物(PM2.5),128,119,191,97,173,110,,75,70,24,34,22,14,1.5,1.1
2024-02-10T1400,1170A,120.87,32.02,南通市,城中,细颗粒物(PM2.5),125,125,196,95,162,110,,79,79,29,31,31,15,2.0,1.4
2024-02-10T1400,1171A,120.94,31.93,南通市,星湖花园,细颗粒物(PM2.5),115,106,160,87,132,109,,83,76,20,33,15,15,1.0,1.2
2024-02-10T1400,1172A,120.81,32.0417,南通市,紫琅学院,细颗粒物(PM2.5),107,98,197,80,169,117,,81,81,19,30,15,15,1.3,1.2
2024-02-10T1400,3432A,120.9348,31.9883,南通市,环境教育馆,细颗粒物(PM2.5),119,105,168,90,153,113,,82,80,33,30,21,15,1.2,1.2
2024-02-10T1400,2404A,112.5224,33.0122,南阳市,瓦房庄,细颗粒物(PM2.5),250,,175,200,182,80,,68,60,17,16,18,27,0.9,0.7
2024-02-10T1400,2405A,112.5003,32.9735,南阳市,汉画馆,细颗粒物(PM2.5),255,210,183,205,175,77,,63,58,15,16,16,19,1.1,0.9
2024-02-10T1400,2406A,112.5573,33.027,南阳市,气象站,细颗粒物(PM2.5),233,,163,183,174,85,,69,63,22,21,17,22,0.8,0.8
2024-02-10T1400,2407A,112.5481,32.9689,南阳市,理工学院,细颗粒物(PM2.5),206,,169,156,166,83,,64,63,10,15,16,26,0.9,0.8
2024-02-10T1400,4008A,112.5234,32.9922,南阳市,卧龙区政府,细颗粒物(PM2.5),231,,174,181,166,82,,65,60,17,19,16,27,0.8,0.7
2024-02-10T1400,1234A,121.8358,29.911,宁波市,区环保大楼,细颗粒物(PM2.5),73,76,152,53,122,109,,78,74,15,20,10,9,0.6,0.9
2024-02-10T1400,1235A,121.56,29.82,宁波市,万里学院,细颗粒物(PM2.5),63,54,130,45,106,105,,73,73,16,20,7,7,0.5,0.9
2024-02-10T1400,1236A,121.713,29.9572,宁波市,龙赛医院,细颗粒物(PM2.5),98,84,196,73,164,107,,85,85,14,22,5,7,0.8,1
2024-02-10T1400,1239A,121.633,29.7733,宁波市,钱湖水厂,细颗粒物(PM2.5),54,45,105,38,88,108,,77,77,8,8,5,5,0.7,1
2024-02-10T1400,1240A,121.5856,29.8635,宁波市,太古小学,细颗粒物(PM2.5),60,45,115,43,105,106,,72,72,10,22,7,7,0.5,1
2024-02-10T1400,1241A,121.524,29.8674,宁波市,市环境监测中心,,50,50,136,35,99,109,,75,75,11,23,6,8,0.6,1
2024-02-10T1400,2871A,121.6147,29.9017,宁波市,万里国际学校,细颗粒物(PM2.5),55,54,120,39,109,109,,76,76,10,19,8,9,0.7,1
2024-02-10T1400,3710A,121.5594,29.8975,宁波市,白沙活动中心,细颗粒物(PM2.5),57,51,150,40,121,106,,71,71,9,25,8,7,0.6,1.1
2024-02-10T1400,2341A,119.5388,26.6612,宁德市,宁德市监测站,颗粒物(PM10),68,86,106,38,93,82,,51,51,6,10,6,14,0.4,0.7
2024-02-10T1400,3209A,119.5231,26.6562,宁德市,宁德一中,细颗粒物(PM2.5),67,,103,48,83,86,,54,54,9,13,6,17,0.5,0.8
2024-02-10T1400,2618A,98.8601,25.8567,怒江傈僳族自治州,州监测站,,26,26,47,12,35,78,,62,62,3,6,9,11,0.4,0.5
2024-02-10T1400,2619A,98.8546,25.8417,怒江傈僳族自治州,泸水一中,,26,26,67,15,63,70,,54,54,6,11,8,12,0.4,0.5
2024-02-10T1400,1888A,101.6891,26.571,攀枝花市,弄弄坪,,32,20,41,17,30,100,,64,64,8,15,11,20,0.7,0.7
2024-02-10T1400,1889A,101.5769,26.5928,攀枝花市,河门口,,32,30,56,20,34,100,,59,59,10,22,12,42,0.8,1.7
2024-02-10T1400,1890A,101.7169,26.585,攀枝花市,炳草岗,,32,,35,14,23,101,,64,64,7,13,14,33,0.7,0.8
2024-02-10T1400,1891A,101.7369,26.5008,攀枝花市,仁和,,33,,48,19,39,103,,61,61,5,12,16,18,0.7,0.8
2024-02-10T1400,2835A,101.7227,26.567,攀枝花市,四十中小,,33,19,28,17,18,105,,76,76,4,10,7,31,0.5,0.6
2024-02-10T1400,1604A,122.0303,41.1489,盘锦市,开发区,颗粒物(PM10),55,60,225,29,190,96,,74,74,9,31,10,25,0.4,1.3
2024-02-10T1400,1605A,122.0485,41.0883,盘锦市,兴隆台,细颗粒物(PM2.5),92,88,288,68,248,95,,62,62,13,36,16,36,0.7,1.6
2024-02-10T1400,1606A,121.8297,41.1028,盘锦市,新生街道,细颗粒物(PM2.5),80,81,155,59,129,88,,53,53,17,38,16,17,0.6,1.2
2024-02-10T1400,1832A,113.3257,33.742,平顶山市,新华旅馆,颗粒物(PM10),96,142,551,0,589,79,,54,54,12,33,15,35,0.6,0.9
2024-02-10T1400,1833A,113.2919,33.737,平顶山市,规划设计院,细颗粒物(PM2.5),120,138,513,91,563,91,,58,58,11,24,18,31,0.8,1.3
2024-02-10T1400,1834A,113.182,33.774,平顶山市,平顶山工学院,细颗粒物(PM2.5),119,145,217,90,167,80,,64,58,14,18,12,17,0.8,0.9
2024-02-10T1400,3204A,113.3025,33.73,平顶山市,规划局,细颗粒物(PM2.5),122,151,223,92,558,67,,42,42,15,34,15,31,0.8,1.1
2024-02-10T1400,3594A,112.8867,33.9116,平顶山市,石龙区,颗粒物(PM10),108,165,116,41,90,98,,71,70,9,15,9,14,0.4,0.8
2024-02-10T1400,2656A,106.6692,35.5461,平凉市,聚贤嘉苑,颗粒物(PM10),66,81,93,12,29,95,,77,77,10,14,6,11,0.2,0.3
2024-02-10T1400,2657A,106.7021,35.5307,平凉市,博物馆,颗粒物(PM10),65,79,94,18,38,95,,74,74,4,13,9,15,0.0,0.5
2024-02-10T1400,2347A,114.0997,27.5002,萍乡市,武功山,,38,,86,26,71,87,,49,49,6,9,7,10,0.6,0.8
2024-02-10T1400,2348A,113.8385,27.6434,萍乡市,中医院,细颗粒物(PM2.5),112,,218,84,173,88,,34,34,19,25,18,15,2.2,2.2
2024-02-10T1400,2349A,113.8493,27.6253,萍乡市,市政府车库,细颗粒物(PM2.5),176,,196,133,173,86,,39,39,14,17,20,17,1.6,1.5
2024-02-10T1400,2350A,113.8676,27.6435,萍乡市,市环保局,细颗粒物(PM2.5),217,174,234,167,199,78,,36,36,16,21,15,13,2.3,1.9
2024-02-10T1400,2351A,113.866,27.6198,萍乡市,安源区政府,颗粒物(PM10),87,123,228,60,175,94,,41,41,15,20,10,17,1.1,1.4
2024-02-10T1400,2319A,119.0141,25.4325,莆田市,荔城区仓后路,细颗粒物(PM2.5),70,,87,51,86,93,,56,56,6,10,8,8,0.9,1
2024-02-10T1400,2320A,119.0015,25.4553,莆田市,莆田市监测站,细颗粒物(PM2.5),58,50,49,41,46,89,,52,52,8,9,10,9,0.6,0.7
2024-02-10T1400,2321A,119.1119,25.4561,莆田市,涵江区六中,,,63,102,51,98,96,,52,52,3,10,,10,,1.1
2024-02-10T1400,2322A,119.1013,25.3215,莆田市,秀屿区政府,细颗粒物(PM2.5),90,,85,67,89,104,,71,68,6,9,8,9,1.2,1
2024-02-10T1400,2392A,115.0312,35.7636,濮阳市,环保局,细颗粒物(PM2.5),259,269,476,209,360,106,,57,57,17,32,16,28,1.0,1.1
2024-02-10T1400,2394A,115.0574,35.7609,濮阳市,油田运输公司,细颗粒物(PM2.5),282,239,419,232,350,113,,61,61,12,27,18,34,1.3,1.4
2024-02-10T1400,2395A,115.0866,35.7754,濮阳市,油田物探公司,细颗粒物(PM2.5),244,221,407,194,346,112,,57,57,14,28,14,26,1.1,1.2
2024-02-10T1400,3021A,115,35.7668,濮阳市,濮水河管理处,细颗粒物(PM2.5),261,269,476,211,374,103,,54,54,16,32,16,17,1.2,1.2
2024-02-10T1400,2601A,100.98,22.7633,普洱市,市环保局,,29,22,64,20,49,42,,55,44,5,7,5,8,0.7,0.6
2024-02-10T1400,2602A,100.9817,22.8322,普洱市,普洱第二中学,,21,21,72,4,48,45,,46,45,4,13,4,7,0.8,0.7
2024-02-10T1400,2262A,131.0518,45.8751,七台河市,新一中,细颗粒物(PM2.5),57,56,78,40,68,116,,104,104,10,13,13,13,0.9,0.9
2024-02-10T1400,3345A,131.0577,45.7879,七台河市,中波台,细颗粒物(PM2.5),74,67,134,54,117,96,,86,86,23,31,21,18,0.9,1.2
2024-02-10T1400,3637A,131.0176,45.7761,七台河市,人民广场,细颗粒物(PM2.5),90,93,400,67,239,95,,76,76,25,40,28,54,1.0,1.3
2024-02-10T1400,3684A,130.8781,45.8222,七台河市,新建矿广场,细颗粒物(PM2.5),78,68,142,57,115,110,,75,75,18,37,16,19,0.8,1.1
2024-02-10T1400,1779A,123.9305,47.3636,齐齐哈尔市,安居小区,,25,14,194,11,91,80,,63,63,4,19,8,23,0.3,0.6
2024-02-10T1400,1780A,123.9488,47.3386,齐齐哈尔市,中心广场,,33,24,235,23,172,76,,61,61,6,21,8,26,0.4,0.8
2024-02-10T1400,1781A,123.9483,47.3227,齐齐哈尔市,农牧车辆厂,,25,24,123,15,163,79,,64,64,4,18,10,27,0.3,0.6
2024-02-10T1400,1783A,123.945,47.2988,齐齐哈尔市,市环境监测站,,29,25,231,20,216,80,,56,56,4,23,4,27,0.3,0.6
2024-02-10T1400,3662A,123.6333,47.2075,齐齐哈尔市,富区青少年活动中心,,48,43,185,33,147,73,,54,54,9,18,18,30,0.4,0.7
2024-02-10T1400,2591A,107.9783,26.5747,黔东南苗族侗族自治州,市环境监测站,细颗粒物(PM2.5),114,,197,86,172,77,,28,28,10,17,11,25,0.5,0.8
2024-02-10T1400,2881A,107.8908,26.5311,黔东南苗族侗族自治州,凯里学院,细颗粒物(PM2.5),97,,110,72,88,88,,24,24,4,9,8,10,0.7,0.8
2024-02-10T1400,2593A,107.5228,26.2403,黔南布依族苗族自治州,小围寨,细颗粒物(PM2.5),110,88,117,83,111,68,,27,27,7,10,9,10,0.4,0.6
2024-02-10T1400,3538A,107.5175,26.2978,黔南布依族苗族自治州,沙坝,细颗粒物(PM2.5),79,63,143,58,132,77,,27,27,5,10,9,15,0.6,0.9
2024-02-10T1400,2589A,104.9022,25.0925,黔西南布依族苗族自治州,场坝街,,38,,108,26,103,100,,52,52,6,13,5,11,0.5,0.8
2024-02-10T1400,2590A,104.8811,25.0992,黔西南布依族苗族自治州,坪东大道,,31,28,122,20,113,98,,50,50,8,13,6,8,0.4,0.6
2024-02-10T1400,2502A,108.6236,21.9667,钦州市,市环保站,,,,97,,79,81,,66,66,6,12,8,18,1.0,1.2
2024-02-10T1400,2503A,108.6549,21.9481,钦州市,沙埠小学,细颗粒物(PM2.5),54,45,111,38,94,80,,67,67,6,10,9,16,0.8,0.9
2024-02-10T1400,2504A,108.5989,21.7431,钦州市,港区一小,细颗粒物(PM2.5),63,48,110,45,81,84,,65,65,7,13,9,18,0.7,0.7
2024-02-10T1400,3404A,108.5959,21.9633,钦州市,北职校,细颗粒物(PM2.5),59,57,97,42,83,81,,67,67,5,9,8,17,0.7,0.8
2024-02-10T1400,1042A,119.5134,39.8207,秦皇岛市,北戴河环保局,细颗粒物(PM2.5),209,190,205,159,167,88,,67,67,24,45,22,16,0.7,2.8
2024-02-10T1400,1043A,119.7493,40.0116,秦皇岛市,第一关,细颗粒物(PM2.5),129,132,93,98,78,95,,84,76,13,23,25,18,0.6,1
2024-02-10T1400,1044A,119.5897,39.9499,秦皇岛市,监测站,细颗粒物(PM2.5),127,110,233,96,209,97,,64,64,15,46,24,24,0.7,1.6
2024-02-10T1400,1046A,119.5251,39.9041,秦皇岛市,建设大厦,细颗粒物(PM2.5),89,109,236,66,167,94,,70,70,10,33,20,20,0.4,1.5
