timepoint,stationcode,longitude,latitude,area,positionname,primarypollutant,aqi,pm10,pm10_24h,pm2_5,pm2_5_24h,o3,o3_24h,o3_8h,o3_8h_24h,no2,no2_24h,so2,so2_24h,co,co_24h
2024-02-10T1600,2566A,102.1879,31.914,阿坝藏族羌族自治州,州农科所,,15,15,22,5,11,37,,24,24,9,4,9,6,0.7,0.7
2024-02-10T1600,2568A,102.2502,31.8896,阿坝藏族羌族自治州,马师校,,28,5,14,4,11,88,,75,75,1,2,3,3,0.4,0.5
2024-02-10T1600,3994A,102.2165,31.9024,阿坝藏族羌族自治州,马尔康中学西区,,27,,12,5,8,84,,72,72,2,2,4,4,0.3,0.4
2024-02-10T1600,2695A,80.292,41.1694,阿克苏地区,电视台,颗粒物(PM10),53,56,178,24,118,86,,50,50,15,42,8,37,0.7,1.6
2024-02-10T1600,2696A,80.2613,41.1551,阿克苏地区,艺术中心,,42,42,151,25,103,85,,50,50,14,41,9,26,1.0,1.7
2024-02-10T1600,2204A,105.6467,38.8363,阿拉善盟,西城区西花园,,36,36,178,10,54,97,,92,92,2,7,8,11,0.5,0.5
2024-02-10T1600,2205A,105.6985,38.8411,阿拉善盟,蒙二幼,,31,31,195,10,54,93,,90,90,6,9,7,11,0.3,0.5
2024-02-10T1600,2206A,105.724,38.8516,阿拉善盟,环保局新楼,,38,38,164,12,42,92,,93,93,6,8,6,8,0.5,0.5
2024-02-10T1600,2708A,88.1264,47.8517,阿勒泰地区,市站,,26,11,64,0,54,81,,72,72,10,25,12,11,0.1,0.2
2024-02-10T1600,2630A,80.1161,32.5,阿里地区,阿里监测站,,26,4,17,0,7,82,,65,65,1,8,5,18,0.4,0.5
2024-02-10T1600,3192A,80.0903,32.5028,阿里地区,阿里藏医院,,28,1,19,1,9,88,,65,65,1,8,5,14,0.4,0.5
2024-02-10T1600,2642A,109.0318,32.6537,安康市,香溪洞,细颗粒物(PM2.5),109,88,134,82,106,92,,57,57,6,11,8,13,0.8,0.9
2024-02-10T1600,2643A,109.0281,32.6939,安康市,安康市监测站,细颗粒物(PM2.5),118,105,238,89,202,89,,45,45,11,25,10,21,0.9,1.3
2024-02-10T1600,2644A,109.0072,32.6975,安康市,汉滨区检察院,细颗粒物(PM2.5),115,94,185,87,153,90,,50,50,8,17,9,12,0.7,1.1
2024-02-10T1600,2291A,117.0809,30.5177,安庆市,环科院,细颗粒物(PM2.5),84,82,143,62,115,102,,90,90,5,13,11,20,0.7,1
2024-02-10T1600,2292A,117.0331,30.5119,安庆市,马山宾馆,细颗粒物(PM2.5),92,83,194,68,160,95,,87,87,20,27,8,20,0.6,1
2024-02-10T1600,2294A,116.9896,30.6145,安庆市,安庆大学,细颗粒物(PM2.5),90,74,171,67,145,104,,96,96,10,19,11,18,0.8,1.1
2024-02-10T1600,3173A,117.0598,30.5351,安庆市,市人大,细颗粒物(PM2.5),92,93,154,68,124,101,,89,89,11,18,7,15,0.6,1.1
2024-02-10T1600,3123A,105.9408,26.2431,安顺市,凤凰山,,33,23,151,11,139,104,,74,74,4,22,13,55,0.1,0.9
2024-02-10T1600,3124A,105.9439,26.2564,安顺市,金钟山,,32,20,86,7,78,101,,76,76,3,12,14,44,0.1,0.7
2024-02-10T1600,3125A,105.8983,26.2481,安顺市,娄家坡,,32,19,114,18,103,102,,78,78,3,13,15,39,0.4,0.8
2024-02-10T1600,1819A,114.3551,36.1017,安阳市,红庙街,细颗粒物(PM2.5),275,280,303,225,242,122,,91,91,12,32,19,31,1.3,1.6
2024-02-10T1600,1820A,114.361,36.0681,安阳市,银杏小区,细颗粒物(PM2.5),346,,355,296,278,122,,93,93,11,29,20,36,1.8,1.9
2024-02-10T1600,3141A,114.3922,36.0878,安阳市,信访局,细颗粒物(PM2.5),374,,284,324,231,127,,102,102,17,29,18,31,1.2,1.3
2024-02-10T1600,3669A,114.4705,36.0637,安阳市,左辅环卫站,细颗粒物(PM2.5),333,,302,283,247,115,,88,88,20,27,17,30,1.5,1.5
2024-02-10T1600,3703A,114.2917,36.0949,安阳市,安钢职工学校,细颗粒物(PM2.5),301,322,384,251,284,127,,94,94,28,39,24,43,1.3,1.5
2024-02-10T1600,1748A,123.044,41.1196,鞍山市,深沟寺,,45,45,581,30,467,73,,63,63,24,50,23,59,1.4,2
2024-02-10T1600,1749A,123.011,41.0931,鞍山市,太阳城,颗粒物(PM10),55,59,588,34,491,83,,66,66,15,43,13,87,0.3,1.8
2024-02-10T1600,1750A,123.0485,41.1442,鞍山市,太平,,48,48,573,32,473,79,,64,64,20,45,22,121,1.3,2.4
2024-02-10T1600,1751A,122.9642,41.0971,鞍山市,铁西三道街,颗粒物(PM10),54,58,822,27,665,82,,57,57,12,50,11,117,0.4,2.3
2024-02-10T1600,1752A,122.9341,41.0833,鞍山市,铁西工业园区,颗粒物(PM10),61,72,509,23,469,88,,64,64,10,48,6,48,0.4,2.4
2024-02-10T1600,1753A,123.022,41.0821,鞍山市,明达新区,颗粒物(PM10),78,105,589,51,560,79,,58,58,14,46,15,93,0.5,2.2
2024-02-10T1600,2195A,107.4212,40.761,巴彦淖尔市,附二中,,36,36,149,18,51,94,,84,84,1,7,4,6,0.4,0.5
2024-02-10T1600,2196A,107.37,40.7372,巴彦淖尔市,市环保大楼,,44,44,146,17,43,94,,84,84,3,7,4,5,0.3,0.5
2024-02-10T1600,1956A,86.1472,41.7538,巴音郭楞蒙古自治州,孔雀公园,颗粒物(PM10),66,81,110,33,39,98,,65,64,5,17,7,9,0.5,0.6
2024-02-10T1600,1957A,86.1972,41.7166,巴音郭楞蒙古自治州,棉纺厂,颗粒物(PM10),63,75,137,38,44,95,,66,66,6,24,4,9,0.5,0.6
2024-02-10T1600,1958A,86.2357,41.7173,巴音郭楞蒙古自治州,经济开发区,颗粒物(PM10),61,72,104,32,32,99,,78,75,9,11,6,6,0.5,0.5
2024-02-10T1600,2914A,106.7677,31.8794,巴中市,苏山坪,细颗粒物(PM2.5),87,84,123,64,99,97,,70,70,8,11,4,8,0.7,0.8
2024-02-10T1600,3182A,106.7656,31.8545,巴中市,丽阳花园,细颗粒物(PM2.5),94,75,169,70,149,92,,45,45,9,24,5,6,0.7,1.2
2024-02-10T1600,3183A,106.7418,31.8654,巴中市,圣泉水务公司,细颗粒物(PM2.5),95,82,148,71,141,95,,49,49,9,22,5,6,0.8,1.1
2024-02-10T1600,3616A,106.7616,31.8344,巴中市,市中心医院,细颗粒物(PM2.5),98,80,180,73,148,99,,48,48,7,20,6,7,0.8,1.2
2024-02-10T1600,2235A,122.7911,45.6077,白城市,洮北区环保局,,26,23,128,13,123,82,,81,81,6,13,8,17,0.3,0.6
2024-02-10T1600,2236A,122.8738,45.5725,白城市,市环保局,,26,24,143,8,130,82,,75,75,4,17,5,10,0.3,0.8
2024-02-10T1600,2231A,126.4219,41.9171,白山市,喜丰,颗粒物(PM10),55,60,473,30,348,78,,67,67,17,32,24,70,1.1,1.4
2024-02-10T1600,2232A,126.4077,41.9419,白山市,环保局,"颗粒物(PM10),细颗粒物(PM2.5)",60,70,470,43,380,78,,67,67,19,38,21,64,1.1,1.5
2024-02-10T1600,2647A,104.1724,36.5446,白银市,第三小学,颗粒物(PM10),94,137,437,33,66,93,,70,70,8,17,44,40,0.4,0.5
2024-02-10T1600,2648A,104.1465,36.5482,白银市,动力公司,颗粒物(PM10),106,161,384,36,67,94,,78,78,10,15,36,25,0.5,0.6
2024-02-10T1600,2512A,106.6103,23.9011,百色市,市监测站,细颗粒物(PM2.5),59,52,81,42,58,75,,55,55,7,10,9,10,0.9,0.9
2024-02-10T1600,2513A,106.6538,23.8859,百色市,市中心血站,细颗粒物(PM2.5),68,,126,49,104,83,,58,58,9,14,9,19,0.8,1
2024-02-10T1600,3406A,106.6085,23.8798,百色市,祈福高中,细颗粒物(PM2.5),60,52,77,43,68,79,,55,55,7,10,8,10,0.8,0.9
2024-02-10T1600,2270A,117.396,32.939,蚌埠市,工人疗养院,细颗粒物(PM2.5),94,88,121,70,108,103,,97,97,10,12,10,11,0.7,0.8
2024-02-10T1600,2271A,117.3605,32.9427,蚌埠市,百货大楼,细颗粒物(PM2.5),94,84,117,70,105,104,,97,97,18,17,8,8,1.0,1
2024-02-10T1600,2273A,117.4185,32.8911,蚌埠市,蚌埠学院,细颗粒物(PM2.5),117,100,173,88,150,103,,93,93,11,13,11,15,0.9,1
2024-02-10T1600,2274A,117.3533,32.9673,蚌埠市,淮上区政府,细颗粒物(PM2.5),84,75,122,62,106,111,,98,98,8,16,9,11,0.9,0.9
2024-02-10T1600,2275A,117.3145,32.8977,蚌埠市,高新区,细颗粒物(PM2.5),85,68,194,63,172,109,,98,98,9,16,10,11,0.9,0.9
2024-02-10T1600,3715A,117.3092,32.9314,蚌埠市,蚌埠田家炳中学,细颗粒物(PM2.5),88,81,147,65,129,104,,92,92,16,23,11,15,0.7,0.8
2024-02-10T1600,1585A,109.8756,40.6532,包头市,市环境监测站,,31,31,444,10,335,95,,78,78,7,52,8,60,0.5,1.5
2024-02-10T1600,1587A,109.9991,40.5842,包头市,包头八中,,41,41,521,22,432,93,,65,65,13,59,16,59,0.8,2.1
2024-02-10T1600,1588A,109.8538,40.6821,包头市,青山宾馆,,29,22,247,10,174,92,,76,76,8,41,8,22,0.5,1.2
2024-02-10T1600,1589A,109.8642,40.6288,包头市,惠龙物流,,42,42,474,12,350,89,,69,69,13,58,18,42,1.1,1.9
2024-02-10T1600,1590A,110.0377,40.5546,包头市,东河鸿龙湾,,37,37,403,21,324,91,,69,69,14,53,12,30,0.6,1.9
2024-02-10T1600,3283A,109.9154,40.5685,包头市,滨河大厦,,30,29,390,10,332,95,,73,73,9,44,12,30,0.6,1.8
2024-02-10T1600,3419A,109.9447,40.6261,包头市,包头市委党校,,32,32,372,12,320,92,,71,71,4,49,8,36,0.4,1.7
2024-02-10T1600,3683A,109.8331,40.6576,包头市,昆区政府,,35,35,362,24,327,89,,69,69,15,49,14,68,0.7,1.6
2024-02-10T1600,1930A,107.185,34.3063,宝鸡市,庙沟村,颗粒物(PM10),80,109,76,28,45,90,,73,73,5,6,5,6,0.5,0.6
2024-02-10T1600,1931A,107.0708,34.3017,宝鸡市,竹园沟,颗粒物(PM10),83,115,97,28,72,102,,76,76,15,19,6,8,0.4,0.7
2024-02-10T1600,1932A,107.1906,34.3672,宝鸡市,三陆医院,颗粒物(PM10),100,149,159,2,133,104,,73,73,23,36,6,10,0.4,0.8
2024-02-10T1600,1933A,107.1431,34.3547,宝鸡市,监测站,颗粒物(PM10),87,124,179,34,147,93,,65,65,14,28,4,12,0.5,0.8
2024-02-10T1600,1934A,107.1186,34.3739,宝鸡市,技工学校,颗粒物(PM10),94,137,202,34,183,100,,70,70,17,32,7,19,0.5,0.8
2024-02-10T1600,1935A,107.3906,34.3528,宝鸡市,陈仓区环保局家属楼,颗粒物(PM10),92,133,199,19,152,99,,71,71,14,42,8,25,0.4,1.1
2024-02-10T1600,1936A,107.2058,34.3497,宝鸡市,文理学院,颗粒物(PM10),90,130,184,33,144,102,,72,72,15,34,9,14,0.4,0.7
2024-02-10T1600,1937A,107.2386,34.3622,宝鸡市,三迪小学,颗粒物(PM10),90,129,190,26,150,95,,68,68,14,39,8,15,0.4,0.9
2024-02-10T1600,1051A,115.493,38.8632,保定市,游泳馆,,39,36,248,27,179,92,,82,82,3,27,5,10,0.5,1
2024-02-10T1600,1052A,115.5213,38.8959,保定市,华电二区,,36,36,186,20,194,87,,77,77,2,21,5,11,0.2,0.6
2024-02-10T1600,1053A,115.4713,38.9108,保定市,接待中心,颗粒物(PM10),51,52,183,24,165,82,,71,71,2,17,6,12,0.3,0.7
2024-02-10T1600,1054A,115.4612,38.8416,保定市,地表水厂,颗粒物(PM10),56,61,208,19,174,90,,78,78,2,26,4,10,0.7,1.2
2024-02-10T1600,3581A,115.31981,38.95208,保定市,满城区生态环境分局,细颗粒物(PM2.5),60,63,167,43,147,94,,74,74,2,29,6,11,0.4,0.8
2024-02-10T1600,3582A,115.47694,38.76408,保定市,清苑区第二中学,,43,43,219,26,164,95,,86,86,2,17,7,14,0.3,0.8
2024-02-10T1600,3583A,115.62909,39.02311,保定市,徐水物探局,,39,39,203,24,158,87,,72,72,8,30,4,13,0.2,0.7
2024-02-10T1600,4004A,115.4202,38.8656,保定市,双鹰农机,,44,44,173,27,158,94,,80,80,8,28,4,8,0.3,0.7
2024-02-10T1600,4034A,115.5150,38.8590,保定市,植保所站,细颗粒物(PM2.5),57,,208,40,217,93,,81,81,4,31,5,13,0.1,0.7
2024-02-10T1600,2594A,99.1678,25.1081,保山市,市环境监测站,,30,28,81,16,55,95,,71,71,5,8,7,18,0.3,0.4
2024-02-10T1600,2595A,99.1711,25.1328,保山市,市环保局,,33,33,64,19,37,98,,74,74,3,4,7,15,0.4,0.4
2024-02-10T1600,1867A,109.1436,21.4086,北海市,海滩公园,细颗粒物(PM2.5),70,59,95,51,78,78,,64,64,8,10,10,14,0.8,0.8
2024-02-10T1600,1868A,109.0981,21.4661,北海市,新市环保局,细颗粒物(PM2.5),58,47,77,41,72,86,,70,70,6,8,9,12,0.7,0.9
2024-02-10T1600,1869A,109.1778,21.5233,北海市,北海工业园,颗粒物(PM10),53,56,82,34,68,84,,70,70,9,9,10,14,0.7,0.8
2024-02-10T1600,3400A,109.1911,21.4415,北海市,龙潭自来水厂,细颗粒物(PM2.5),55,47,80,39,71,77,,65,65,6,7,10,13,0.6,0.6
2024-02-10T1600,1001A,116.3621,39.8784,北京市,万寿西宫,,32,30,24,22,18,76,,74,74,13,11,1,1,0.2,0.2
2024-02-10T1600,1002A,116.2202,40.2915,北京市,定陵,,34,34,24,22,17,83,,76,76,5,4,1,2,0.3,0.2
2024-02-10T1600,1003A,116.4174,39.9289,北京市,东四,,34,34,26,22,16,71,,70,70,12,10,3,3,0.3,0.3
2024-02-10T1600,1004A,116.4072,39.8863,北京市,天坛,,31,31,26,21,18,81,,79,79,9,8,2,2,0.2,0.2
2024-02-10T1600,1005A,116.462,39.9365,北京市,农展馆,,34,34,24,23,16,74,,73,73,11,9,2,2,0.3,0.2
2024-02-10T1600,1006A,116.3392,39.9295,北京市,官园,,33,33,27,21,18,84,,83,83,11,10,1,2,0.3,0.3
2024-02-10T1600,1007A,116.2878,39.9611,北京市,海淀万柳,,36,36,30,21,18,79,,76,76,12,11,3,3,0.1,0.2
2024-02-10T1600,1008A,116.6636,40.135,北京市,顺义新城,,29,29,27,20,17,83,,83,83,7,4,2,1,0.3,0.2
2024-02-10T1600,1009A,116.6275,40.3275,北京市,怀柔镇,,26,26,25,18,17,83,,78,78,2,3,4,4,0.3,0.2
2024-02-10T1600,1010A,116.2296,40.217,北京市,昌平镇,,44,44,29,26,18,93,,78,78,3,5,3,3,0.2,0.2
2024-02-10T1600,1011A,116.3966,39.9821,北京市,奥体中心,,35,30,23,24,16,78,,78,78,5,2,3,3,0.3,0.3
2024-02-10T1600,1012A,116.184,39.9136,北京市,古城,,46,46,33,26,20,79,,75,75,5,4,2,2,0.3,0.3
2024-02-10T1600,3281A,115.9718,40.4529,北京市,延庆夏都,颗粒物(PM10),51,51,45,35,31,80,,68,68,3,6,3,3,0.2,0.3
2024-02-10T1600,3417A,117.0709,40.1465,北京市,平谷新城,,30,16,24,11,18,93,,87,87,2,2,3,2,0.2,0.2
2024-02-10T1600,3418A,116.8336,40.4095,北京市,密云新城,,29,17,25,13,16,91,,86,86,3,2,1,2,0.2,0.2
2024-02-10T1600,3672A,116.1541,39.8204,北京市,丰台云岗,细颗粒物(PM2.5),59,57,32,42,21,83,,79,79,9,6,2,3,0.2,0.2
2024-02-10T1600,3673A,116.6804,39.9081,北京市,通州东关,,31,31,25,21,16,77,,79,79,5,2,1,2,0.3,0.3
2024-02-10T1600,3674A,115.9577,39.7603,北京市,房山燕山,细颗粒物(PM2.5),58,58,34,41,26,84,,84,84,12,10,2,2,0.2,0.2
2024-02-10T1600,3675A,116.4672,39.7733,北京市,大兴旧宫,,27,27,25,18,17,79,,72,72,6,10,2,2,0.1,0.2
2024-02-10T1600,3694A,115.986,40.4563,北京市,延庆石河营,,49,49,40,34,29,87,,73,73,3,5,2,2,0.3,0.3
2024-02-10T1600,3695A,116.6151,40.3053,北京市,怀柔新城,,29,25,22,20,17,83,,79,79,4,4,2,2,0.2,0.2
2024-02-10T1600,3696A,116.2545,39.8768,北京市,丰台小屯,,38,38,33,22,19,79,,75,75,11,12,2,2,0.2,0.2
2024-02-10T1600,3697A,116.84,40.3844,北京市,密云镇,,27,20,26,14,19,86,,82,82,3,3,2,2,0.1,0.2
2024-02-10T1600,1761A,123.8275,41.3064,本溪市,大峪,细颗粒物(PM2.5),94,94,325,70,265,88,,54,54,18,47,13,40,0.8,2.2
2024-02-10T1600,1762A,123.7567,41.3325,本溪市,溪湖,细颗粒物(PM2.5),83,90,361,61,262,96,,55,55,9,38,21,44,0.6,2
2024-02-10T1600,1763A,123.7169,41.3094,本溪市,彩屯,细颗粒物(PM2.5),158,133,666,120,597,101,,60,60,19,49,16,96,0.9,2.3
2024-02-10T1600,1764A,123.7669,41.2864,本溪市,东明,细颗粒物(PM2.5),179,,624,135,576,86,,48,48,22,54,22,157,0.9,2.2
2024-02-10T1600,1765A,123.7992,41.2664,本溪市,新立屯,细颗粒物(PM2.5),160,,347,122,247,79,,51,51,27,50,23,70,1.4,1.9
2024-02-10T1600,1766A,123.8142,41.3472,本溪市,威宁,细颗粒物(PM2.5),79,67,327,58,253,87,,55,55,15,46,15,11,0.5,1.6
2024-02-10T1600,2587A,105.2864,27.3125,毕节市,八中,,33,33,138,21,121,99,,67,67,4,12,12,12,0.2,0.7
2024-02-10T1600,2588A,105.31,27.2944,毕节市,师专,,31,23,162,18,147,99,,57,57,6,15,16,12,0.3,0.8
2024-02-10T1600,3537A,105.3631,27.3533,毕节市,长征村,,34,23,139,16,109,108,,66,66,3,10,8,10,0.4,0.8
2024-02-10T1600,1629A,118.0018,37.3617,滨州市,第二水厂,细颗粒物(PM2.5),153,156,195,117,153,101,,88,88,24,24,16,22,1.7,1.3
2024-02-10T1600,1630A,117.9776,37.393,滨州市,北中新校,细颗粒物(PM2.5),178,168,251,134,203,99,,86,86,25,28,19,27,2.0,1.3
2024-02-10T1600,3514A,117.9378,37.3956,滨州市,中海酒店,细颗粒物(PM2.5),186,162,247,140,128,109,,91,91,27,27,20,30,1.9,1.3
2024-02-10T1600,3515A,117.9378,37.3553,滨州市,开发区一中,细颗粒物(PM2.5),165,158,187,125,164,104,,89,89,17,19,22,32,1.4,1.1
2024-02-10T1600,3516A,118.0917,37.694,滨州市,金海六路,细颗粒物(PM2.5),108,110,252,81,152,106,,77,77,9,28,11,28,1.2,1.5
2024-02-10T1600,4028A,117.9956,37.3753,滨州市,滨州市西街道办事处,细颗粒物(PM2.5),168,162,229,127,187,95,,84,84,21,24,20,26,1.8,1.3
2024-02-10T1600,2311A,115.8072,33.8399,亳州市,污水处理厂,细颗粒物(PM2.5),196,164,230,147,209,95,,81,81,12,16,13,16,1.0,1.1
2024-02-10T1600,2312A,115.7789,33.8518,亳州市,三国揽胜宫,细颗粒物(PM2.5),206,225,296,156,230,94,,79,79,15,19,14,18,1.1,1.2
2024-02-10T1600,3332A,115.7633,33.8034,亳州市,亳州学院,细颗粒物(PM2.5),169,155,268,128,224,95,,80,80,10,15,12,20,1.2,1.4
2024-02-10T1600,2693A,82.0485,44.8556,博尔塔拉蒙古自治州,市党校,颗粒物(PM10),57,64,155,32,108,99,,86,86,14,20,16,22,0.7,1.1
2024-02-10T1600,2694A,82.0806,44.8969,博尔塔拉蒙古自治州,市环保局,颗粒物(PM10),60,69,157,40,92,81,,64,64,25,34,19,18,0.9,1.8
2024-02-10T1600,1071A,116.8842,38.2991,沧州市,沧县城建局,,39,38,172,27,162,99,,89,89,28,31,3,13,0.9,1.2
2024-02-10T1600,1072A,116.8584,38.3254,沧州市,电视转播站,颗粒物(PM10),51,52,205,27,183,103,,89,89,5,23,11,23,0.5,1
2024-02-10T1600,1073A,116.8709,38.3228,沧州市,市环保局,细颗粒物(PM2.5),54,51,180,38,159,97,,86,86,10,23,7,17,0.4,0.9
2024-02-10T1600,3324A,116.8136,38.3004,沧州市,河北水利电力学院,,39,34,145,27,125,98,,88,88,7,14,13,18,0.3,0.8
2024-02-10T1600,2622A,97.1806,31.1273,昌都市,昌都监测站,,24,5,43,0,20,74,,63,63,2,9,6,10,0.6,0.7
2024-02-10T1600,3719A,97.1714,31.1406,昌都市,昌都会议中心,,28,5,11,0,12,87,,73,73,1,3,4,5,0.2,0.3
2024-02-10T1600,2690A,88.1236,43.8886,昌吉回族自治州,天山天池,,24,6,4,0,2,76,,69,69,5,5,8,8,0.4,0.4
2024-02-10T1600,2692A,87.2717,44.0297,昌吉回族自治州,新区政务中心,细颗粒物(PM2.5),223,210,319,173,246,115,,83,71,18,37,8,7,1.9,2.3
2024-02-10T1600,3613A,87.3095,44.0142,昌吉回族自治州,亚心广场,细颗粒物(PM2.5),247,234,309,197,269,116,,96,91,20,34,7,8,1.7,2
2024-02-10T1600,1119A,125.3325,43.9166,长春市,食品厂,细颗粒物(PM2.5),95,92,298,71,290,81,,67,67,21,38,18,34,0.6,0.9
2024-02-10T1600,1120A,125.2863,43.9027,长春市,客车厂,细颗粒物(PM2.5),98,83,332,73,290,87,,69,69,13,33,11,34,0.7,1.1
2024-02-10T1600,1121A,125.2841,43.8463,长春市,邮电学院,细颗粒物(PM2.5),114,98,346,86,286,92,,72,72,14,45,14,34,0.8,1.1
2024-02-10T1600,1122A,125.3716,43.8772,长春市,劳动公园,细颗粒物(PM2.5),90,77,362,67,305,81,,61,61,20,50,11,12,0.6,1.1
2024-02-10T1600,1123A,125.3297,43.8805,长春市,园林处,细颗粒物(PM2.5),85,85,266,63,235,89,,73,73,18,35,13,24,0.9,1.1
2024-02-10T1600,1124A,125.4605,43.79,长春市,净月潭,细颗粒物(PM2.5),92,93,293,68,262,91,,80,80,9,18,14,15,0.7,1.1
2024-02-10T1600,1126A,125.3863,43.8447,长春市,经开区环卫处,细颗粒物(PM2.5),99,,408,74,344,92,,73,73,11,37,8,22,0.6,1.3
2024-02-10T1600,1127A,125.245,43.7783,长春市,高新区管委会,细颗粒物(PM2.5),148,121,360,113,324,100,,81,81,15,35,12,14,0.8,1.4
2024-02-10T1600,1128A,125.1761,43.8325,长春市,岱山公园,细颗粒物(PM2.5),103,107,274,77,243,98,,83,83,10,23,8,14,1.0,1.2
2024-02-10T1600,1335A,113.0833,28.2325,长沙市,经开区环保局,细颗粒物(PM2.5),180,155,266,136,203,102,,58,58,4,15,8,12,0.8,0.9
2024-02-10T1600,1336A,112.8872,28.2189,长沙市,高开区环保局,细颗粒物(PM2.5),192,,545,144,390,102,,60,60,10,35,10,25,1.6,1.5
2024-02-10T1600,1337A,113.0792,28.2053,长沙市,马坡岭,细颗粒物(PM2.5),186,158,400,140,289,94,,52,52,4,20,10,24,0.7,0.9
2024-02-10T1600,1338A,112.9394,28.19,长沙市,湖南师范大学,细颗粒物(PM2.5),144,121,375,110,286,105,,62,62,12,26,14,24,1.5,1.3
2024-02-10T1600,1339A,113.0178,28.1322,长沙市,雨花区环保局,细颗粒物(PM2.5),148,,429,113,318,95,,62,62,3,26,5,21,0.8,1.3
2024-02-10T1600,1340A,112.9792,28.2597,长沙市,伍家岭,细颗粒物(PM2.5),158,150,581,120,373,94,,44,44,16,29,11,19,1.4,1.4
2024-02-10T1600,1341A,113.0014,28.1944,长沙市,火车新站,细颗粒物(PM2.5),77,77,527,56,428,103,,60,60,4,31,6,26,0.9,1.3
2024-02-10T1600,1342A,112.9844,28.1178,长沙市,天心区环保局,细颗粒物(PM2.5),88,87,481,65,397,104,,66,66,1,33,8,32,0.3,0.7
2024-02-10T1600,1343A,112.8908,28.1308,长沙市,湖南中医药大学,细颗粒物(PM2.5),160,122,322,122,247,103,,55,55,14,26,14,9,1.8,1.4
2024-02-10T1600,1344A,112.9581,28.3611,长沙市,沙坪,细颗粒物(PM2.5),148,129,256,113,218,59,,33,33,6,14,9,15,1.1,1.2
2024-02-10T1600,1727A,113.1147,36.1547,长治市,清华站,颗粒物(PM10),77,104,152,31,111,88,,75,75,10,22,10,23,0.4,0.8
2024-02-10T1600,1728A,113.1031,36.1989,长治市,监测站,颗粒物(PM10),84,118,147,34,109,88,,71,71,13,28,10,24,0.3,0.8
2024-02-10T1600,1730A,113.0886,36.2125,长治市,审计局,颗粒物(PM10),70,90,132,34,99,89,,71,71,8,21,10,26,0.5,1
2024-02-10T1600,1731A,113.0844,36.1856,长治市,长治八中,颗粒物(PM10),73,96,163,39,115,89,,71,71,6,23,5,20,0.5,0.9
2024-02-10T1600,2845A,113.1569,36.1911,长治市,德盛苑,颗粒物(PM10),72,94,88,31,57,92,,85,85,10,17,11,20,0.6,1
2024-02-10T1600,3568A,113.06,36.0464,长治市,向阳小学,颗粒物(PM10),74,97,164,42,126,99,,88,88,13,27,8,34,0.4,1
2024-02-10T1600,3569A,112.8792,36.3144,长治市,屯留一中,颗粒物(PM10),60,70,97,28,79,92,,82,82,3,16,6,21,0.5,0.9
2024-02-10T1600,3570A,113.235,36.3489,长治市,潞城四中,颗粒物(PM10),91,132,130,37,77,94,,80,80,11,18,7,20,0.4,0.9
2024-02-10T1600,1854A,111.6975,28.9703,常德市,市二中,细颗粒物(PM2.5),55,,94,39,89,84,,66,66,9,12,8,9,0.6,0.8
2024-02-10T1600,1857A,111.7158,29.1456,常德市,白鹤山,颗粒物(PM10),62,73,102,41,59,44,,41,41,2,2,3,3,0.7,0.7
2024-02-10T1600,3138A,111.7153,29.0289,常德市,武陵区永安,细颗粒物(PM2.5),62,50,110,44,90,84,,63,63,4,11,8,11,0.7,0.9
2024-02-10T1600,3139A,111.6892,28.9881,常德市,鼎城区玉霞,细颗粒物(PM2.5),60,47,140,43,123,84,,62,62,8,17,9,12,0.6,1
2024-02-10T1600,3140A,111.6625,29.0531,常德市,武陵区长庚,细颗粒物(PM2.5),69,52,115,50,92,77,,61,61,6,13,5,8,0.7,0.9
2024-02-10T1600,1196A,119.9633,31.762,常州市,市监测站,细颗粒物(PM2.5),67,70,198,48,160,121,,104,104,4,20,9,14,0.9,1.2
2024-02-10T1600,1200A,119.9468,31.7069,常州市,武进监测站,细颗粒物(PM2.5),68,79,209,49,193,115,,100,100,8,19,8,15,0.8,1.1
2024-02-10T1600,1201A,119.9255,31.9087,常州市,安家,细颗粒物(PM2.5),84,88,226,62,222,130,,104,104,8,19,10,16,0.9,1.1
2024-02-10T1600,3002A,119.9805,31.8174,常州市,行政中心,细颗粒物(PM2.5),72,70,160,52,156,117,,98,98,8,18,9,14,0.9,1.1
2024-02-10T1600,3003A,120.0522,31.7748,常州市,经开区,细颗粒物(PM2.5),62,68,164,44,150,121,,105,105,9,17,10,15,0.7,1
2024-02-10T1600,3010A,119.9025,31.7964,常州市,钟楼,细颗粒物(PM2.5),67,74,206,48,198,117,,97,97,8,20,9,17,0.8,1.1
2024-02-10T1600,3429A,119.8598,31.7066,常州市,武进经发区,细颗粒物(PM2.5),84,73,219,62,189,119,,103,103,6,20,7,16,1.1,1.5
2024-02-10T1600,3430A,119.5826,31.7245,常州市,金坛城区,细颗粒物(PM2.5),72,86,208,52,166,126,,101,101,7,15,10,15,0.8,1
2024-02-10T1600,2220A,120.4318,41.5881,朝阳市,西梁,,,34,356,34,263,,,53,,5,25,15,72,0.6,1.3
2024-02-10T1600,2221A,120.4521,41.5646,朝阳市,河畔小区,,36,36,476,21,416,87,,70,70,7,27,8,72,0.6,1.5
2024-02-10T1600,2222A,120.4176,41.5648,朝阳市,八里堡,细颗粒物(PM2.5),53,41,517,37,544,87,,68,68,6,32,13,121,0.7,1.7
2024-02-10T1600,2223A,120.3806,41.5969,朝阳市,农业园区,,42,39,179,29,131,91,,72,72,6,18,13,33,0.3,0.9
2024-02-10T1600,1705A,116.6367,23.6719,潮州市,西园路,,36,33,31,25,26,82,,58,58,6,6,4,4,0.4,0.4
2024-02-10T1600,3026A,116.6183,23.6608,潮州市,市政府,,40,40,28,24,22,80,,60,60,8,8,5,6,0.6,0.7
2024-02-10T1600,4036A,116.6461,23.6761,潮州市,金山,,46,35,34,32,34,79,,56,56,7,7,6,6,0.6,0.7
2024-02-10T1600,2472A,113.0073,25.9061,郴州市,马头岭,,43,38,96,30,60,96,,66,66,6,10,6,13,0.5,0.8
2024-02-10T1600,2473A,113.0116,25.8226,郴州市,市职中,细颗粒物(PM2.5),67,49,154,48,131,92,,58,58,5,12,7,8,0.9,1.1
2024-02-10T1600,2474A,113.0161,25.8001,郴州市,兴隆步行街,细颗粒物(PM2.5),62,55,173,44,135,96,,57,57,7,18,7,5,0.7,1
2024-02-10T1600,2475A,113.0383,25.8071,郴州市,市审计局,,50,47,133,35,109,99,,59,59,6,15,8,6,0.5,0.9
2024-02-10T1600,2476A,113.0348,25.7759,郴州市,市环保局,细颗粒物(PM2.5),60,54,172,43,137,95,,59,59,9,17,7,4,0.6,0.9
2024-02-10T1600,1431A,103.9728,30.7236,成都市,金泉两河,细颗粒物(PM2.5),73,,133,53,141,106,,63,63,2,28,2,3,0.6,0.9
2024-02-10T1600,1432A,104.176,30.6872,成都市,十里店,细颗粒物(PM2.5),69,56,118,50,110,119,,80,80,6,17,3,5,0.6,0.7
2024-02-10T1600,1433A,104.079,30.5706,成都市,三瓦窑,细颗粒物(PM2.5),60,67,103,43,84,112,,76,76,5,18,2,4,0.6,0.6
2024-02-10T1600,1434A,104.1114,30.63,成都市,沙河铺,细颗粒物(PM2.5),84,64,130,62,122,112,,73,73,11,21,3,3,0.6,0.7
2024-02-10T1600,1437A,104.0786,30.6531,成都市,君平街,细颗粒物(PM2.5),80,,95,59,89,119,,77,77,12,24,5,7,0.5,0.7
2024-02-10T1600,1438A,103.613,31.0283,成都市,灵岩寺,细颗粒物(PM2.5),74,72,56,54,41,109,,88,88,14,14,2,4,0.8,0.8
2024-02-10T1600,2880A,104.0239,30.65639,成都市,大石西路,细颗粒物(PM2.5),75,,101,55,92,121,,78,78,13,28,4,4,0.7,0.9
2024-02-10T1600,3136A,104.2725,30.5589,成都市,龙泉驿区区政府,细颗粒物(PM2.5),83,70,84,61,73,112,,84,84,6,12,4,4,0.8,0.8
2024-02-10T1600,3357A,104.0106,30.6931,成都市,金博路,细颗粒物(PM2.5),68,56,118,49,108,111,,67,67,8,26,2,3,0.7,0.8
2024-02-10T1600,3359A,104.0578,30.5225,成都市,华阳,细颗粒物(PM2.5),79,61,95,58,90,112,,76,76,1,16,3,3,0.7,0.9
2024-02-10T1600,3487A,104.2394,30.5319,成都市,车城东七路,细颗粒物(PM2.5),95,76,91,71,76,113,,82,82,9,14,4,6,0.7,0.7
2024-02-10T1600,3488A,104.3853,30.7453,成都市,青白江技师分院,细颗粒物(PM2.5),78,75,91,57,73,121,,81,81,8,15,12,10,0.9,0.9
2024-02-10T1600,3489A,104.0789,30.4072,成都市,科学城,细颗粒物(PM2.5),105,88,87,79,77,119,,79,79,2,5,6,6,0.9,0.8
2024-02-10T1600,4011A,103.8506,30.6947,成都市,光华大道三段,细颗粒物(PM2.5),75,71,161,55,140,79,,49,49,4,18,3,5,0.8,0.9
2024-02-10T1600,1062A,117.9531,40.9081,承德市,铁路,,27,27,60,12,38,86,,72,72,9,11,32,13,0.6,0.4
2024-02-10T1600,1063A,117.9392,40.9763,承德市,中国银行,,29,26,54,18,31,90,,78,78,7,10,19,9,0.4,0.4
2024-02-10T1600,1064A,117.9503,40.928,承德市,开发区,,36,28,52,25,34,89,,76,76,10,13,20,8,0.5,0.4
2024-02-10T1600,1065A,117.8051,40.9655,承德市,文化中心,,30,16,59,10,26,95,,80,80,4,10,14,12,0.3,0.4
2024-02-10T1600,1066A,117.9268,41.0026,承德市,离宫,,28,14,38,12,32,87,,75,75,3,5,7,5,0.3,0.3
2024-02-10T1600,2314A,117.47,30.6618,池州市,池州学院,细颗粒物(PM2.5),79,67,100,58,87,100,,98,96,17,15,6,12,0.7,0.9
2024-02-10T1600,3237A,117.4918,30.6617,池州市,展览馆,细颗粒物(PM2.5),64,68,105,46,85,102,,96,96,11,10,4,8,0.7,0.9
2024-02-10T1600,3333A,117.5627,30.695,池州市,第八中学,细颗粒物(PM2.5),72,59,99,52,85,106,,98,98,9,11,4,8,0.5,0.8
2024-02-10T1600,3334A,117.5038,30.6243,池州市,第十二中学,细颗粒物(PM2.5),68,60,113,49,98,104,,96,96,7,10,4,11,0.4,0.7
2024-02-10T1600,1744A,118.9233,42.2816,赤峰市,松山一中,,26,10,190,4,134,83,,72,72,6,17,9,53,0.4,0.6
2024-02-10T1600,1745A,118.9576,42.2728,赤峰市,哈达街,,26,10,145,3,112,81,,71,71,8,14,9,42,0.6,0.7
2024-02-10T1600,1746A,118.8788,42.2554,赤峰市,天义路,,26,7,77,7,62,82,,72,72,5,11,5,22,0.2,0.5
2024-02-10T1600,3058A,119.2658,42.0353,赤峰市,银河街,细颗粒物(PM2.5),75,56,224,55,163,83,,64,64,10,18,15,61,0.5,0.8
2024-02-10T1600,3286A,118.9359,42.3147,赤峰市,桥北物流园区,,28,14,74,9,63,87,,73,73,4,11,5,20,0.6,0.7
2024-02-10T1600,2521A,107.3476,22.4136,崇左市,市环保局江州分局,细颗粒物(PM2.5),53,38,91,37,67,86,,64,64,4,8,10,13,0.4,0.4
2024-02-10T1600,2522A,107.3702,22.3707,崇左市,城南新区,细颗粒物(PM2.5),55,42,78,39,74,85,,64,64,6,9,9,10,0.5,0.5
2024-02-10T1600,2298A,118.3093,32.3153,滁州市,老年大学,细颗粒物(PM2.5),115,87,131,87,124,106,,83,83,9,23,11,9,0.8,1.1
2024-02-10T1600,2299A,118.3244,32.2786,滁州市,人大宾馆,细颗粒物(PM2.5),90,77,141,67,119,105,,90,90,10,16,9,11,0.7,0.9
2024-02-10T1600,3207A,118.3118,32.3038,滁州市,市政府原办公楼,细颗粒物(PM2.5),93,81,128,69,117,104,,88,88,14,24,9,8,0.6,0.8
2024-02-10T1600,3331A,118.3267,32.2634,滁州市,图书馆,细颗粒物(PM2.5),79,81,130,58,101,104,,90,90,10,16,10,11,0.7,0.9
2024-02-10T1600,2605A,101.5482,25.0441,楚雄彝族自治州,州环境监测站,,42,38,52,29,43,89,,73,73,6,8,9,12,0.8,0.9
2024-02-10T1600,2606A,101.538,25.0492,楚雄彝族自治州,市经济开发区,,50,37,74,35,56,82,,68,68,8,10,9,20,0.8,0.9
2024-02-10T1600,2548A,107.5277,31.2827,达州市,达州职业技术学院,细颗粒物(PM2.5),73,74,123,53,97,109,,56,56,10,17,9,7,0.7,1
2024-02-10T1600,2549A,107.5086,31.2186,达州市,市环境监测站,细颗粒物(PM2.5),98,90,116,73,98,94,,46,46,21,29,10,7,1.2,1.2
2024-02-10T1600,2550A,107.4988,31.2132,达州市,凤凰小区,细颗粒物(PM2.5),92,88,118,68,99,94,,53,53,19,30,8,6,1.0,1.2
2024-02-10T1600,2551A,107.5082,31.1986,达州市,达县机关宾馆,细颗粒物(PM2.5),94,88,111,70,89,94,,50,50,23,29,7,4,1.1,1.2
2024-02-10T1600,2552A,107.4644,31.2124,达州市,市政中心,细颗粒物(PM2.5),92,91,118,68,100,89,,49,49,28,36,16,7,1.6,1.5
2024-02-10T1600,2614A,100.1542,25.7054,大理白族自治州,大理市环境监测站,,42,42,50,27,41,94,,73,73,6,8,7,12,0.7,0.6
2024-02-10T1600,2615A,100.2171,25.5811,大理白族自治州,大理古城,细颗粒物(PM2.5),52,,78,36,67,92,,73,73,8,13,8,22,0.8,0.7
2024-02-10T1600,1109A,121.612,38.9741,大连市,甘井子,细颗粒物(PM2.5),54,48,486,38,448,93,,82,82,8,33,5,39,0.5,1
2024-02-10T1600,1110A,121.565,38.9511,大连市,周水子,,40,39,489,28,464,94,,76,76,8,37,6,43,1.0,1.8
2024-02-10T1600,1111A,121.5637,38.8845,大连市,星海三站,细颗粒物(PM2.5),118,89,510,89,494,105,,80,80,15,43,13,77,1.1,1.7
2024-02-10T1600,1112A,121.6302,38.9117,大连市,青泥洼桥,细颗粒物(PM2.5),95,72,486,71,481,91,,77,77,17,50,17,48,0.8,1.6
2024-02-10T1600,1113A,121.6251,38.8638,大连市,傅家庄,细颗粒物(PM2.5),112,85,339,84,284,110,,90,90,8,34,16,40,1.0,1.4
2024-02-10T1600,1114A,121.5213,38.8661,大连市,七贤岭,细颗粒物(PM2.5),85,88,287,63,261,85,,83,83,19,27,16,28,0.8,1.4
2024-02-10T1600,1115A,121.2529,38.8061,大连市,旅顺,细颗粒物(PM2.5),74,59,225,54,197,85,,67,67,16,32,13,14,0.9,1.8
2024-02-10T1600,1116A,121.7485,39.1311,大连市,金州,细颗粒物(PM2.5),241,,309,191,282,84,,53,53,26,32,17,14,1.9,1.9
2024-02-10T1600,1117A,121.7811,39.0496,大连市,开发区,细颗粒物(PM2.5),209,194,469,159,412,86,,54,54,23,44,13,37,1.6,1.9
2024-02-10T1600,1118A,121.9762,39.0631,大连市,双D港,细颗粒物(PM2.5),127,99,166,96,139,103,,101,101,20,21,12,15,1.0,1.3
2024-02-10T1600,1789A,124.81117,46.03138,大庆市,大同区,细颗粒物(PM2.5),128,106,222,97,188,89,,79,79,16,24,18,18,0.8,1.2
2024-02-10T1600,1790A,125.129,46.533,大庆市,龙凤区,,,,458,,385,,,63,63,14,48,9,35,0.6,1.8
2024-02-10T1600,1791A,124.902,46.408,大庆市,红岗区,细颗粒物(PM2.5),55,45,263,39,231,82,,77,77,11,31,16,32,0.5,1.1
2024-02-10T1600,1792A,125.153,46.586,大庆市,萨尔图区,细颗粒物(PM2.5),82,65,318,60,287,85,,78,75,11,32,13,16,0.6,1.4
2024-02-10T1600,1793A,124.9042,46.6215,大庆市,让胡路区,,48,48,240,32,179,76,,72,72,6,31,9,15,0.4,1.3
2024-02-10T1600,3481A,125.141,46.634,大庆市,萨区政府监测点,颗粒物(PM10),51,51,286,32,205,85,,73,73,8,36,13,17,0.5,1.5
2024-02-10T1600,1723A,113.2994,40.0758,大同市,云冈宾馆,细颗粒物(PM2.5),139,167,283,106,250,103,,70,70,18,38,22,34,0.9,1.5
2024-02-10T1600,1724A,113.3444,40.0917,大同市,大同大学,细颗粒物(PM2.5),144,149,219,110,205,97,,73,73,22,37,26,33,1.1,1.2
2024-02-10T1600,1725A,113.2661,40.1269,大同市,安家小村,颗粒物(PM10),74,97,273,33,221,100,,71,71,5,29,13,34,0.5,1.7
2024-02-10T1600,1726A,113.2711,40.0844,大同市,教育学院,颗粒物(PM10),96,141,372,51,204,92,,61,61,16,49,13,39,0.9,2.1
2024-02-10T1600,3282A,113.3397,40.0597,大同市,大同市卫生学校,细颗粒物(PM2.5),144,139,236,110,226,103,,73,73,16,32,20,30,0.9,1.1
2024-02-10T1600,3565A,113.1367,40.1122,大同市,云冈站,颗粒物(PM10),54,57,147,29,112,105,,79,79,6,18,7,31,0.4,1
2024-02-10T1600,3566A,113.1186,40.2556,大同市,图书馆,细颗粒物(PM2.5),79,82,221,58,189,94,,67,67,11,25,11,21,0.3,0.9
2024-02-10T1600,3567A,113.5931,40.0461,大同市,区一中,细颗粒物(PM2.5),98,116,290,73,154,98,,76,76,13,28,48,71,1.1,1.4
2024-02-10T1600,3676A,113.2802,40.0995,大同市,第二人民医院,颗粒物(PM10),101,152,382,47,211,101,,68,68,10,42,14,34,0.7,1.9
2024-02-10T1600,2269A,124.1069,50.4097,大兴安岭地区,科技局,,26,23,62,18,117,77,,74,74,4,7,8,15,0.4,0.4
2024-02-10T1600,3663A,124.1164,50.4278,大兴安岭地区,红旗社区,颗粒物(PM10),57,63,79,36,120,65,,75,74,18,20,62,73,0.2,0.4
2024-02-10T1600,1600A,124.3303,40.0625,丹东市,江湾东路,,37,37,413,23,342,96,,85,85,2,29,9,50,0.4,1.9
2024-02-10T1600,1601A,124.4256,40.1503,丹东市,临江后街,,38,38,367,19,304,93,,87,87,8,31,9,44,0.6,1.9
2024-02-10T1600,1602A,124.3933,40.1461,丹东市,元宝山,,38,38,398,22,335,89,,81,81,6,34,8,41,0.5,1.6
2024-02-10T1600,1603A,124.3633,40.1092,丹东市,民主桥,,,57,401,21,362,83,,76,76,,36,,62,0.6,1.6
2024-02-10T1600,3541A,109.5726,19.5167,儋州市,第一中学子站,细颗粒物(PM2.5),77,63,34,56,29,29,,33,31,7,8,6,5,0.9,0.9
2024-02-10T1600,3542A,109.5567,19.5187,儋州市,东坡学校子站,细颗粒物(PM2.5),75,64,35,55,29,27,,32,29,8,9,4,4,0.9,0.9
2024-02-10T1600,2616A,98.5842,24.428,德宏傣族景颇族自治州,德宏州监测站,颗粒物(PM10),61,71,132,43,114,117,,64,64,18,28,41,32,0.6,0.8
2024-02-10T1600,3677A,98.5881,24.4368,德宏傣族景颇族自治州,芒市人民政府综合楼,细颗粒物(PM2.5),83,93,97,61,75,125,,65,65,17,20,35,22,0.6,0.8
2024-02-10T1600,1901A,104.4239,31.1208,德阳市,东山公园,细颗粒物(PM2.5),68,64,98,49,94,110,,76,76,7,12,2,4,0.7,0.8
2024-02-10T1600,1902A,104.3826,31.1317,德阳市,西小区,细颗粒物(PM2.5),78,68,149,57,152,105,,64,64,14,32,4,5,0.8,1
2024-02-10T1600,1904A,104.3553,31.1091,德阳市,耐火材料厂,细颗粒物(PM2.5),83,,157,61,155,112,,70,70,6,17,4,7,0.6,0.3
2024-02-10T1600,3639A,104.4019,31.1244,德阳市,市教育局,细颗粒物(PM2.5),68,65,122,49,122,110,,66,66,7,29,3,4,0.6,0.9
2024-02-10T1600,1622A,116.3032,37.4674,德州市,儿童乐园,细颗粒物(PM2.5),64,68,191,46,171,105,,92,92,5,32,12,33,0.7,1.5
2024-02-10T1600,1624A,116.2991,37.4451,德州市,监理站,细颗粒物(PM2.5),64,63,316,46,257,106,,95,95,8,32,14,32,0.6,1.3
2024-02-10T1600,3066A,116.2721,37.4379,德州市,九衢泉纯净水厂,细颗粒物(PM2.5),62,61,300,44,244,103,,91,91,12,34,11,32,0.6,1.3
2024-02-10T1600,3371A,116.3728,37.4403,德州市,开发区人民医院,细颗粒物(PM2.5),64,66,199,46,199,104,,91,91,10,24,12,25,0.4,1.1
2024-02-10T1600,3372A,116.3572,37.4094,德州市,太阳城中学,细颗粒物(PM2.5),78,64,251,57,168,104,,91,91,9,23,11,26,0.8,1.3
2024-02-10T1600,3511A,116.5652,37.3319,德州市,陵城艺术中心,"颗粒物(PM10),细颗粒物(PM2.5)",73,95,301,53,309,105,,87,87,12,34,9,43,0.5,1.5
2024-02-10T1600,2621A,99.7056,27.8317,迪庆藏族自治州,迪庆州站,,29,16,39,7,26,92,,81,81,5,8,8,10,0.2,0.4
2024-02-10T1600,3180A,99.7136,27.8094,迪庆藏族自治州,质量技术监督局,,29,13,40,3,37,92,,78,78,3,7,7,10,0.3,0.5
2024-02-10T1600,2663A,104.6241,35.5734,定西市,东关小学,,43,43,138,14,70,79,,54,54,5,20,11,29,0.4,0.8
2024-02-10T1600,2664A,104.6194,35.5934,定西市,供电公司,,28,28,130,11,68,86,,57,57,2,13,9,19,0.3,0.6
2024-02-10T1600,1389A,113.7547,23.0494,东莞市,莞城梨川,,49,49,50,34,42,96,,83,83,9,12,8,9,0.7,0.7
2024-02-10T1600,1390A,113.7944,23.0128,东莞市,东城石井,,45,39,47,31,40,96,,82,82,9,11,8,9,0.8,0.8
2024-02-10T1600,1391A,113.7383,22.9658,东莞市,南城西平,,40,38,46,28,38,96,,80,80,6,9,9,9,0.8,0.8
2024-02-10T1600,3319A,113.7338,23.0381,东莞市,万江金泰,,48,36,53,33,47,86,,74,74,2,5,7,9,0.8,0.9
2024-02-10T1600,3626A,113.7533,23.0202,东莞市,南城元岭,,46,39,45,32,36,88,,74,74,2,4,11,10,0.8,0.8
2024-02-10T1600,3627A,113.7875,23.0457,东莞市,东城主山,,50,40,53,35,43,96,,81,81,3,6,10,11,0.8,0.8
2024-02-10T1600,1666A,118.6614,37.4309,东营市,市环保局,细颗粒物(PM2.5),113,95,211,85,183,111,,80,80,15,26,11,25,1.3,1.3
2024-02-10T1600,3036A,118.6904,37.4338,东营市,开发区管委会,细颗粒物(PM2.5),119,111,226,90,194,101,,74,74,22,30,6,20,1.4,1.4
2024-02-10T1600,3365A,118.5719,37.565,东营市,垦利区民丰路,细颗粒物(PM2.5),147,124,236,112,202,105,,76,76,17,23,11,21,1.5,1.5
2024-02-10T1600,3498A,118.5055,37.8612,东营市,河口城区,细颗粒物(PM2.5),132,129,196,100,167,105,,89,89,15,26,5,6,1.4,1.6
2024-02-10T1600,3646A,118.4978,37.4623,东营市,胜利站,细颗粒物(PM2.5),117,135,297,88,188,105,,74,74,16,30,10,26,1.3,1.4
2024-02-10T1600,3734A,118.35,37.26,东营市,理想之城,细颗粒物(PM2.5),107,102,223,80,182,107,,75,75,18,28,10,19,1.3,1.3
2024-02-10T1600,1591A,110.0023,39.8129,鄂尔多斯市,综合楼,,34,34,176,12,113,91,,83,83,8,17,3,13,0.4,0.5
2024-02-10T1600,1592A,109.9486,39.8261,鄂尔多斯市,巴音孟克林场办事处,,31,31,195,17,97,86,,77,77,6,17,6,23,0.4,0.8
2024-02-10T1600,1593A,109.7736,39.5986,鄂尔多斯市,康泽苑,,46,46,163,22,83,93,,83,83,8,17,5,9,0.5,0.7
2024-02-10T1600,1594A,109.8119,39.5989,鄂尔多斯市,华泰汽车城,,46,46,156,22,80,97,,87,87,7,17,6,9,0.4,0.5
2024-02-10T1600,1595A,109.9734,39.7884,鄂尔多斯市,奥林花园,,31,31,147,14,58,90,,82,82,9,17,6,10,0.4,0.6
2024-02-10T1600,2436A,114.8938,30.3994,鄂州市,市政府,细颗粒物(PM2.5),78,62,259,57,225,86,,62,62,15,36,20,14,1.9,1.3
2024-02-10T1600,2437A,114.8989,30.3714,鄂州市,赵家坝,细颗粒物(PM2.5),82,67,167,60,173,104,,77,77,6,21,8,11,0.7,1
2024-02-10T1600,3654A,114.8094,30.4089,鄂州市,精准医疗中心,颗粒物(PM10),67,84,248,46,177,105,,79,79,2,17,7,16,0.9,1.4
2024-02-10T1600,2454A,109.4978,30.2981,恩施土家族苗族自治州,湖北民院,细颗粒物(PM2.5),115,113,149,87,124,67,,41,41,6,16,8,8,1.2,1.3
2024-02-10T1600,2455A,109.4707,30.2798,恩施土家族苗族自治州,州电力总公司,细颗粒物(PM2.5),132,,160,100,138,60,,32,32,12,15,6,6,1.1,1.2
2024-02-10T1600,3549A,109.5061,30.3772,恩施土家族苗族自治州,龙凤新区,细颗粒物(PM2.5),134,,117,102,118,56,,32,32,15,16,6,6,1.1,1.2
2024-02-10T1600,2499A,108.3411,21.6158,防城港市,沙万,细颗粒物(PM2.5),67,60,64,48,52,79,,66,66,7,9,5,8,0.4,0.5
2024-02-10T1600,2500A,108.3514,21.7731,防城港市,防城档案局,细颗粒物(PM2.5),74,60,75,54,65,82,,68,68,7,10,8,11,0.5,0.5
2024-02-10T1600,2501A,108.3506,21.6414,防城港市,大海花园,细颗粒物(PM2.5),68,50,68,49,53,77,,65,65,5,6,6,8,0.5,0.6
2024-02-10T1600,1371A,113.1294,23.0067,佛山市,湾梁,,46,36,43,32,32,108,,82,82,5,6,10,10,0.6,0.7
2024-02-10T1600,1372A,113.1083,23.0478,佛山市,华材职中,,50,,41,35,36,104,,82,82,11,11,8,9,0.7,0.8
2024-02-10T1600,1373A,113.144,23.0453,佛山市,南海气象局,,49,46,46,34,34,106,,81,81,6,9,6,7,0.7,0.9
2024-02-10T1600,1374A,113.2881,22.8094,佛山市,顺德苏岗,,35,26,47,24,44,105,,82,82,6,9,10,13,0.5,0.7
2024-02-10T1600,1376A,112.8383,22.8678,佛山市,高明孔堂,,46,34,37,32,37,101,,82,82,4,3,6,7,0.5,0.8
2024-02-10T1600,1377A,112.8836,23.1588,佛山市,三水监测站,,39,29,69,27,36,95,,77,77,5,12,5,5,0.6,0.8
2024-02-10T1600,1378A,112.867,23.185,佛山市,三水云东海,,32,23,33,22,35,96,,77,77,7,8,2,4,0.6,0.8
2024-02-10T1600,3625A,113.2544,22.7642,佛山市,容桂街道办,,42,34,45,29,36,104,,79,79,4,9,6,9,0.6,0.7
2024-02-10T1600,1282A,119.2681,26.0504,福州市,师大,细颗粒物(PM2.5),67,,108,48,101,106,,70,70,6,9,7,12,0.6,0.6
2024-02-10T1600,1283A,119.2984,26.1028,福州市,五四北路,,,,102,50,90,104,,70,70,6,9,4,8,0.7,0.7
2024-02-10T1600,1284A,119.2648,26.0768,福州市,杨桥西路,细颗粒物(PM2.5),74,,94,54,94,109,,72,72,8,10,5,8,0.7,0.7
2024-02-10T1600,1285A,119.317,26.0746,福州市,紫阳,细颗粒物(PM2.5),63,,117,45,111,102,,68,68,6,10,8,13,0.8,0.9
2024-02-10T1600,3048A,119.5799,26.0936,福州市,九龙,细颗粒物(PM2.5),60,,77,43,77,104,,83,83,7,10,3,5,0.7,0.8
2024-02-10T1600,3526A,119.5189,25.9664,福州市,吴航,,48,39,72,33,62,102,,70,70,6,11,4,9,0.4,0.7
2024-02-10T1600,1755A,123.7977,41.8491,抚顺市,望花区,细颗粒物(PM2.5),173,152,595,131,529,88,,63,63,24,52,20,60,0.9,1.9
2024-02-10T1600,1756A,123.9161,41.8822,抚顺市,顺城区,细颗粒物(PM2.5),160,184,498,122,390,103,,75,75,20,51,17,36,0.8,1.7
2024-02-10T1600,1757A,124.0436,41.8611,抚顺市,东洲区,细颗粒物(PM2.5),246,281,594,196,488,108,,79,79,16,41,20,43,1.0,1.8
2024-02-10T1600,1758A,123.9247,41.8642,抚顺市,新抚区,细颗粒物(PM2.5),203,183,459,153,394,113,,80,80,17,49,14,19,0.9,1.9
2024-02-10T1600,1759A,124.0972,41.8961,抚顺市,大伙房水库,细颗粒物(PM2.5),229,253,254,179,210,112,,87,87,16,28,19,16,1.0,1.5
2024-02-10T1600,1760A,123.7086,41.8391,抚顺市,沈抚新城,细颗粒物(PM2.5),142,181,508,108,345,95,,68,68,21,48,14,31,0.7,1.8
2024-02-10T1600,2376A,116.2127,28.0814,抚州市,桐源党溪,细颗粒物(PM2.5),147,130,306,112,187,87,,46,46,6,8,19,33,0.5,0.7
2024-02-10T1600,2377A,116.3544,27.9831,抚州市,市站,细颗粒物(PM2.5),59,50,209,42,178,102,,68,68,9,22,12,17,0.4,0.8
2024-02-10T1600,2378A,116.3565,27.963,抚州市,血防站,细颗粒物(PM2.5),67,49,174,48,140,96,,72,72,4,12,1,9,0.7,1.1
2024-02-10T1600,2379A,116.3564,28.0007,抚州市,采茶剧团,细颗粒物(PM2.5),97,92,194,72,172,92,,58,58,6,15,6,11,1.0,1.3
2024-02-10T1600,2380A,116.385,27.9647,抚州市,医学分院,细颗粒物(PM2.5),68,71,194,49,147,103,,71,71,6,13,6,16,0.9,1.1
2024-02-10T1600,2207A,121.6094,41.998,阜新市,工业园区,细颗粒物(PM2.5),77,,164,56,126,94,,84,84,7,20,16,18,0.6,0.9
2024-02-10T1600,2208A,121.6697,42.0279,阜新市,长青街,细颗粒物(PM2.5),63,,131,45,117,93,,83,83,9,20,16,35,0.6,0.8
2024-02-10T1600,2209A,121.6673,42.0705,阜新市,农业园区,细颗粒物(PM2.5),58,64,63,41,48,93,,84,84,12,10,17,13,0.5,0.7
2024-02-10T1600,2210A,121.6717,42.0224,阜新市,东苑,细颗粒物(PM2.5),62,61,407,44,119,99,,87,87,16,25,16,60,1.1,1.7
2024-02-10T1600,2211A,121.6506,42.0498,阜新市,玉龙新城,细颗粒物(PM2.5),59,54,159,42,120,96,,86,86,7,18,15,15,0.4,0.7
2024-02-10T1600,2301A,115.8277,32.8929,阜阳市,市监测站,细颗粒物(PM2.5),128,,111,97,105,88,,96,90,12,12,10,12,0.8,0.8
2024-02-10T1600,2303A,115.8554,32.8605,阜阳市,开发区,细颗粒物(PM2.5),107,118,148,80,104,93,,94,92,10,13,8,10,0.6,0.5
2024-02-10T1600,2875A,115.784,32.8892,阜阳市,阜阳职业技术学院,细颗粒物(PM2.5),99,98,139,74,122,93,,96,93,9,12,9,14,0.9,0.9
2024-02-10T1600,3468A,115.7901,32.8613,阜阳市,市规划展馆,细颗粒物(PM2.5),130,102,143,99,120,90,,95,92,11,15,8,14,0.8,0.8
2024-02-10T1600,3469A,115.836,32.9183,阜阳市,枣园社区,细颗粒物(PM2.5),122,108,126,92,108,92,,98,93,9,12,8,11,0.7,0.7
2024-02-10T1600,2669A,102.9099,34.9841,甘南藏族自治州,州政府,,27,,79,14,49,86,,66,66,2,14,5,17,0.4,0.8
2024-02-10T1600,3380A,102.8914,34.9617,甘南藏族自治州,甘肃民族师范学院,,26,4,49,3,26,82,,64,64,2,8,8,15,0.5,0.7
2024-02-10T1600,2570A,101.9603,30.0475,甘孜藏族自治州,水桥子,,29,8,16,4,11,92,,77,77,2,4,9,9,0.2,0.3
2024-02-10T1600,3065A,101.9533,29.9972,甘孜藏族自治州,州环保局,,30,9,13,2,4,93,,85,85,1,2,8,8,0.2,0.2
2024-02-10T1600,3414A,115.8347,28.932,赣江新区,桑海产业园,细颗粒物(PM2.5),82,68,110,60,93,98,,66,66,12,16,5,6,0.9,1
2024-02-10T1600,2363A,114.9367,25.8664,赣州市,地委,细颗粒物(PM2.5),79,,81,58,65,98,,70,70,10,13,19,12,1.0,1.1
2024-02-10T1600,2364A,114.9461,25.8481,赣州市,气象台,细颗粒物(PM2.5),68,51,88,49,75,102,,71,71,8,10,10,9,0.7,0.9
2024-02-10T1600,2365A,114.9322,25.8333,赣州市,市图书馆,细颗粒物(PM2.5),67,55,88,48,69,92,,63,63,8,13,25,16,0.7,0.9
2024-02-10T1600,2366A,114.8905,25.8471,赣州市,华坚鞋城,细颗粒物(PM2.5),54,52,86,38,73,90,,66,66,7,12,10,8,0.8,0.9
2024-02-10T1600,3109A,115.0093,25.8613,赣州市,赣县区卫计委,细颗粒物(PM2.5),64,51,93,46,81,90,,62,62,8,12,7,7,0.8,1.1
2024-02-10T1600,2683A,106.2319,36.1417,固原市,马园,颗粒物(PM10),57,64,227,11,33,90,,84,84,6,9,5,6,0.4,0.5
2024-02-10T1600,2684A,106.2792,36.0022,固原市,监测站,颗粒物(PM10),58,65,214,15,59,88,,86,86,8,13,5,10,0.4,0.6
2024-02-10T1600,2685A,106.2375,36.0211,固原市,新区,颗粒物(PM10),53,55,161,10,29,84,,81,81,6,10,5,6,0.2,0.3
2024-02-10T1600,3522A,106.2177,35.9959,固原市,原州区十五小,颗粒物(PM10),56,62,154,14,32,81,,78,78,5,8,6,8,0.4,0.5
2024-02-10T1600,2544A,106.6303,30.4576,广安市,市委,细颗粒物(PM2.5),118,93,158,89,148,98,,53,53,7,22,8,7,0.8,1.1
2024-02-10T1600,2545A,106.6271,30.4663,广安市,友谊中学,细颗粒物(PM2.5),94,,132,70,136,103,,57,57,11,26,5,5,0.8,1
2024-02-10T1600,2547A,106.6388,30.4551,广安市,广电花园,细颗粒物(PM2.5),119,,122,90,123,102,,52,52,8,22,5,4,1.0,1.2
2024-02-10T1600,2902A,106.6351,30.4865,广安市,北辰小学,细颗粒物(PM2.5),102,78,143,76,134,102,,49,49,11,20,6,5,0.9,1.1
2024-02-10T1600,2523A,105.8945,32.4535,广元市,黑石坡,细颗粒物(PM2.5),85,64,84,63,87,107,,71,71,13,14,7,8,0.8,0.9
2024-02-10T1600,2524A,105.821,32.4444,广元市,老城,细颗粒物(PM2.5),72,76,135,52,97,102,,59,59,10,19,19,15,1.3,1.3
2024-02-10T1600,2526A,105.8628,32.4287,广元市,监测站,细颗粒物(PM2.5),62,68,106,44,91,105,,62,62,9,15,11,11,1.1,1.1
2024-02-10T1600,3617A,105.8047,32.4166,广元市,经开区,细颗粒物(PM2.5),98,93,139,73,116,104,,59,59,13,21,47,15,1.5,1.1
2024-02-10T1600,1345A,113.2347,23.1423,广州市,广雅中学,,46,40,50,32,42,94,,74,74,12,15,6,7,0.7,1
2024-02-10T1600,1346A,113.2612,23.105,广州市,市五中,细颗粒物(PM2.5),54,42,54,38,48,100,,78,78,12,17,7,7,0.7,0.8
2024-02-10T1600,1348A,113.3478,23.0916,广州市,广东商学院,,49,40,46,34,40,102,,81,81,4,8,6,7,0.6,0.8
2024-02-10T1600,1349A,113.4332,23.1047,广州市,市八十六中,,40,32,60,28,50,94,,81,81,4,9,6,10,0.4,0.6
2024-02-10T1600,1350A,113.3505,22.9483,广州市,番禺中学,,40,29,39,28,30,104,,86,86,11,15,5,6,0.7,0.9
2024-02-10T1600,1351A,113.2146,23.3916,广州市,花都师范,,43,35,45,30,38,96,,79,79,8,11,7,7,0.8,0.9
2024-02-10T1600,1352A,113.2597,23.1331,广州市,市监测站,细颗粒物(PM2.5),53,44,50,37,44,102,,81,81,11,16,6,6,0.7,0.8
2024-02-10T1600,1353A,113.5618,23.312,广州市,九龙镇镇龙,,50,40,56,35,49,82,,69,69,6,9,7,8,0.7,0.9
2024-02-10T1600,1354A,113.2765,23.1544,广州市,麓湖,,50,37,47,35,43,102,,80,80,7,11,7,8,0.6,0.8
2024-02-10T1600,1355A,113.443,23.3035,广州市,帽峰山森林公园,细颗粒物(PM2.5),52,43,49,36,42,103,,86,86,4,5,8,10,0.5,0.5
2024-02-10T1600,2846A,113.3221,23.1322,广州市,体育西,细颗粒物(PM2.5),52,50,47,36,41,100,,80,80,7,11,9,10,0.7,0.9
2024-02-10T1600,3298A,113.5717,23.5491,广州市,从化街口,细颗粒物(PM2.5),53,40,61,37,53,90,,75,75,5,8,6,10,0.5,0.7
2024-02-10T1600,3299A,113.3472,23.3692,广州市,白云竹料,颗粒物(PM10),75,99,61,31,47,96,,81,81,4,8,7,10,0.6,0.7
2024-02-10T1600,3300A,113.2981,23.237,广州市,白云嘉禾,,50,41,51,35,41,100,,78,78,13,14,8,9,0.5,0.7
2024-02-10T1600,3301A,113.4256,23.1716,广州市,黄埔科学城,细颗粒物(PM2.5),53,38,50,37,48,90,,79,79,3,5,6,7,0.7,0.8
2024-02-10T1600,3302A,113.3942,23.0483,广州市,番禺大学城,,38,36,42,26,38,99,,82,82,5,11,7,8,0.5,0.8
2024-02-10T1600,3303A,113.4922,22.8168,广州市,南沙黄阁,细颗粒物(PM2.5),55,49,62,39,54,104,,83,83,7,8,6,9,0.7,0.8
2024-02-10T1600,3304A,113.5342,22.7896,广州市,南沙街,,48,46,51,33,42,107,,81,81,12,15,5,6,0.7,0.8
2024-02-10T1600,3443A,113.2902,23.5544,广州市,花都梯面,,42,36,38,29,34,99,,78,78,8,12,9,9,0.5,0.6
2024-02-10T1600,3445A,113.7858,23.7478,广州市,从化良口,,43,33,37,30,34,91,,77,77,4,5,8,7,0.4,0.5
2024-02-10T1600,3446A,113.8051,23.2614,广州市,增城荔城,,33,29,41,23,36,90,,76,76,4,5,7,9,0.6,0.7
2024-02-10T1600,2505A,109.568,23.1478,贵港市,德智高中,,49,,132,34,125,82,,69,69,5,11,6,19,0.8,0.9
2024-02-10T1600,2506A,109.6047,23.0666,贵港市,江南子站,细颗粒物(PM2.5),89,,139,66,102,85,,64,64,4,12,8,13,0.8,0.9
2024-02-10T1600,2507A,109.6014,23.0948,贵港市,贵城子站,细颗粒物(PM2.5),69,,127,50,117,78,,57,57,5,14,9,15,0.8,1
2024-02-10T1600,2508A,109.5669,23.1065,贵港市,荷城子站,,49,44,112,34,100,80,,59,59,3,10,10,13,0.8,1
2024-02-10T1600,3405A,109.5886,23.1172,贵港市,新世纪学校,细颗粒物(PM2.5),59,,127,42,103,80,,60,60,3,9,5,11,0.9,1
2024-02-10T1600,1439A,106.6899,26.5998,贵阳市,马鞍山,,30,24,100,19,90,96,,46,46,6,16,19,14,0.3,0.8
2024-02-10T1600,1440A,106.6971,26.5694,贵阳市,市环保站,,32,,180,22,167,98,,55,55,10,27,9,31,0.4,1
2024-02-10T1600,1441A,106.6243,26.6266,贵阳市,鉴湖路,,36,36,115,17,87,100,,72,72,8,17,7,9,0.6,0.7
2024-02-10T1600,1442A,106.7487,26.6343,贵阳市,燕子冲,,32,14,110,9,98,100,,51,51,5,14,39,14,0.3,0.9
2024-02-10T1600,1443A,106.6555,26.4365,贵阳市,碧云窝,,36,36,141,19,113,106,,64,64,6,13,13,23,0.4,0.8
2024-02-10T1600,1444A,106.694,26.5161,贵阳市,中院村,,35,29,266,19,240,111,,65,65,6,24,13,51,0.3,1.1
2024-02-10T1600,1445A,106.7109,26.6027,贵阳市,红边门,,31,22,230,12,203,97,,46,46,6,28,9,50,0.4,1.1
2024-02-10T1600,1446A,106.7164,26.5699,贵阳市,新华路,,39,36,220,27,195,99,,58,58,10,25,9,22,0.4,0.9
2024-02-10T1600,1447A,106.674,26.5424,贵阳市,太慈桥,,32,27,130,12,110,100,,58,58,6,15,9,12,0.3,0.7
2024-02-10T1600,1862A,110.4144,25.3167,桂林市,电子科大尧山校区,细颗粒物(PM2.5),62,,69,44,52,92,,76,76,4,5,5,7,0.4,0.6
2024-02-10T1600,1863A,110.2819,25.2697,桂林市,监测站,细颗粒物(PM2.5),73,,96,53,75,104,,78,78,8,14,9,12,0.5,0.8
2024-02-10T1600,1864A,110.3089,25.2708,桂林市,龙隐路小学,细颗粒物(PM2.5),73,,81,53,71,103,,78,78,7,9,6,12,0.7,0.8
2024-02-10T1600,1865A,110.2869,25.2178,桂林市,八中,细颗粒物(PM2.5),54,42,85,38,72,100,,76,76,6,10,6,11,0.4,0.6
2024-02-10T1600,3403A,110.1764,25.2381,桂林市,创业大厦,,49,34,81,34,71,103,,75,75,3,8,7,12,0.5,0.6
2024-02-10T1600,3531A,110.296,25.1253,桂林市,旅游学院,,49,,69,34,63,105,,81,81,5,7,6,9,0.7,0.8
2024-02-10T1600,2674A,100.2561,34.4714,果洛藏族自治州,玛沁县大武镇,,28,12,35,5,19,89,,70,70,10,12,5,13,0.5,0.5
2024-02-10T1600,1129A,126.5422,45.755,哈尔滨市,岭北,细颗粒物(PM2.5),450,540,474,424,428,176,,175,175,48,67,46,36,1.5,0.9
2024-02-10T1600,1130A,126.561,45.8167,哈尔滨市,松北商大,细颗粒物(PM2.5),426,418,384,389,347,109,,93,93,32,47,15,11,1.8,1.8
2024-02-10T1600,1131A,126.979,45.5419,哈尔滨市,阿城会宁,细颗粒物(PM2.5),470,496,464,454,428,99,,97,97,24,41,28,29,1.9,1.7
2024-02-10T1600,1132A,126.599,45.7222,哈尔滨市,南岗学府路,细颗粒物(PM2.5),428,493,520,391,410,107,,81,81,35,65,17,25,1.9,2
2024-02-10T1600,1133A,126.689,45.7733,哈尔滨市,太平宏伟公园,细颗粒物(PM2.5),320,,544,270,414,105,,65,65,31,83,13,27,1.2,2.5
2024-02-10T1600,1134A,126.635,45.7667,哈尔滨市,道外承德广场,细颗粒物(PM2.5),393,406,433,343,367,84,,69,69,56,77,31,26,1.1,1.5
2024-02-10T1600,1135A,126.685,45.7319,哈尔滨市,香坊红旗大街,颗粒物(PM10),189,328,583,,336,89,,71,71,44,81,22,44,1.7,2.3
2024-02-10T1600,1136A,126.6411,45.7258,哈尔滨市,动力和平路,细颗粒物(PM2.5),462,,445,442,420,104,,89,89,33,64,26,35,1.9,1.9
2024-02-10T1600,1137A,126.593,45.7478,哈尔滨市,道里建国路,细颗粒物(PM2.5),461,,475,441,418,93,,67,67,41,61,35,31,0.7,1.1
2024-02-10T1600,1138A,126.615,45.61,哈尔滨市,平房东轻厂,细颗粒物(PM2.5),500,535,454,505,420,116,,89,89,26,45,14,23,2.2,2
2024-02-10T1600,1139A,126.595,45.9855,哈尔滨市,呼兰师专,细颗粒物(PM2.5),338,296,502,288,485,104,,80,80,34,53,19,35,1.6,2.2
2024-02-10T1600,1140A,126.6206,45.6842,哈尔滨市,省农科院,细颗粒物(PM2.5),486,504,518,479,448,118,,91,91,27,76,20,37,2.1,2.3
2024-02-10T1600,2688A,93.5128,42.8172,哈密市,地区监测站,颗粒物(PM10),57,64,157,35,77,76,,50,50,10,27,4,21,0.3,0.6
2024-02-10T1600,2689A,93.4961,42.8328,哈密市,哈密师范学校,细颗粒物(PM2.5),70,69,279,51,171,78,,51,51,8,32,14,56,0.4,0.8
2024-02-10T1600,2671A,100.9048,36.9639,海北藏族自治州,海晏县西海镇,,26,13,36,6,13,81,,74,74,2,3,11,12,0.3,0.4
2024-02-10T1600,3867A,102.0738,36.5056,海东市,平安区公安北苑,,26,17,101,7,54,83,,62,62,2,17,12,20,0.2,0.4
2024-02-10T1600,1410A,110.3232,20.0574,海口市,海南大学,,38,37,55,26,41,77,,56,56,4,8,9,10,0.6,0.8
2024-02-10T1600,1411A,110.283,20.0053,海口市,秀英海南医院,,48,48,54,28,41,78,,54,54,3,7,8,9,0.5,0.8
2024-02-10T1600,1412A,110.338,19.9969,海口市,海南师范大学,,44,44,50,24,38,77,,55,55,2,7,7,8,0.6,0.8
2024-02-10T1600,1413A,110.33,20.0356,海口市,龙华路环保局宿舍,,39,39,53,27,40,72,,53,53,4,8,8,8,0.5,0.8
2024-02-10T1600,3539A,110.5111,19.9736,海口市,桂林洋子站,,30,27,22,21,22,78,,67,67,3,5,7,6,0.5,0.6
2024-02-10T1600,2673A,100.6188,36.2866,海南藏族自治州,共和县恰卜恰镇,,,,73,7,52,90,,70,70,5,17,7,14,,0.5
2024-02-10T1600,2676A,97.3731,37.3753,海西蒙古族藏族自治州,德令哈市,细颗粒物(PM2.5),500,,71,2999,167,106,,100,100,3,10,14,23,0.3,0.5
2024-02-10T1600,1048A,114.5302,36.6116,邯郸市,东污水处理厂,细颗粒物(PM2.5),296,294,349,246,296,112,,88,88,9,27,20,24,1.2,1.4
2024-02-10T1600,1049A,114.4918,36.5713,邯郸市,矿院,细颗粒物(PM2.5),282,288,374,232,317,106,,76,76,12,33,13,19,1.2,1.4
2024-02-10T1600,1050A,114.484,36.6133,邯郸市,丛台公园,细颗粒物(PM2.5),294,281,317,244,276,118,,88,88,5,23,18,22,1.1,1.4
2024-02-10T1600,3458A,114.7895,36.5593,邯郸市,香泉濮院小区,细颗粒物(PM2.5),255,261,338,205,281,116,,83,83,10,23,19,29,1.0,1.3
2024-02-10T1600,3579A,114.50634,36.77178,邯郸市,永年区实验高中,细颗粒物(PM2.5),290,256,343,240,295,115,,82,82,9,40,22,36,0,1.1
2024-02-10T1600,3580A,114.20016,36.44293,邯郸市,峰峰矿区临水派出所,细颗粒物(PM2.5),278,236,139,228,114,126,,102,102,13,14,22,31,1.1,1.1
2024-02-10T1600,2634A,106.9893,33.1842,汉中市,汉川机床厂子校,细颗粒物(PM2.5),89,67,142,66,127,105,,70,70,9,13,8,10,0.8,1.1
2024-02-10T1600,2635A,107.0154,33.0706,汉中市,市监测站,细颗粒物(PM2.5),135,103,234,103,210,110,,62,62,14,34,11,17,1.1,2.2
2024-02-10T1600,2636A,107.0089,33.1138,汉中市,鑫源开发区,细颗粒物(PM2.5),129,,306,98,311,102,,65,65,14,34,18,27,1.1,2.1
2024-02-10T1600,2637A,107.007,33.0323,汉中市,南郑大河坎水厂,细颗粒物(PM2.5),117,92,173,88,152,110,,64,64,12,22,12,14,1.0,1.6
2024-02-10T1600,1223A,120.2072,30.2111,杭州市,滨江,细颗粒物(PM2.5),65,62,236,47,181,103,,81,81,8,23,9,12,0.7,1
2024-02-10T1600,1224A,120.0633,30.2747,杭州市,西溪,细颗粒物(PM2.5),94,,169,70,130,104,,81,81,8,16,10,8,0.6,0.9
2024-02-10T1600,1226A,120.3461,30.3153,杭州市,下沙,细颗粒物(PM2.5),83,78,205,61,166,110,,87,87,7,22,8,10,0.6,0.9
2024-02-10T1600,1227A,120.1269,30.2456,杭州市,卧龙桥,细颗粒物(PM2.5),92,74,124,68,109,103,,77,77,8,16,6,6,0.6,0.8
2024-02-10T1600,1228A,120.1903,30.2692,杭州市,浙江农大,细颗粒物(PM2.5),79,72,305,58,257,107,,81,81,6,30,9,10,0.6,1
2024-02-10T1600,1230A,120.1197,30.3119,杭州市,和睦小学,细颗粒物(PM2.5),88,75,371,65,307,94,,73,73,10,34,8,10,0.6,1
2024-02-10T1600,1231A,120.3019,30.4183,杭州市,临平镇,细颗粒物(PM2.5),85,63,264,63,306,107,,82,82,5,30,7,11,0.6,1
2024-02-10T1600,1232A,120.2697,30.1819,杭州市,城厢镇,细颗粒物(PM2.5),88,78,292,65,275,107,,82,82,8,25,8,10,0.6,1
2024-02-10T1600,1233A,120.0883,30.1808,杭州市,云栖,细颗粒物(PM2.5),59,52,152,42,123,104,,85,85,7,17,8,8,0.6,0.8
2024-02-10T1600,3557A,119.9464,30.0494,杭州市,镇二中,细颗粒物(PM2.5),68,67,323,49,399,101,,73,73,7,26,8,11,0.6,1
2024-02-10T1600,3558A,119.7183,30.2367,杭州市,市府大楼,细颗粒物(PM2.5),62,50,244,44,203,102,,82,82,7,20,6,10,0.5,1
2024-02-10T1600,3656A,120.1556,30.2864,杭州市,消防大队,细颗粒物(PM2.5),90,73,277,67,243,104,,75,75,8,32,10,12,0.8,1.1
2024-02-10T1600,1270A,117.1959,31.7848,合肥市,明珠广场,细颗粒物(PM2.5),147,127,245,112,205,101,,77,77,12,22,12,13,0.8,0.9
2024-02-10T1600,1271A,117.3072,31.8764,合肥市,三里街,细颗粒物(PM2.5),147,134,294,112,256,96,,66,66,15,36,14,11,0.7,1
2024-02-10T1600,1272A,117.2588,31.8707,合肥市,琥珀山庄,细颗粒物(PM2.5),153,136,303,117,279,100,,75,75,5,38,10,10,0.9,1.3
2024-02-10T1600,1273A,117.1604,31.9052,合肥市,董铺水库,细颗粒物(PM2.5),138,129,187,105,155,90,,74,74,6,9,6,6,0.6,0.7
2024-02-10T1600,1274A,117.25,31.8571,合肥市,长江中路,细颗粒物(PM2.5),160,144,228,122,209,96,,73,73,12,25,11,12,0.9,1
2024-02-10T1600,1275A,117.266,31.9436,合肥市,庐阳区,细颗粒物(PM2.5),110,110,213,83,163,83,,61,61,14,26,8,10,0.7,1
2024-02-10T1600,1276A,117.336,31.8586,合肥市,瑶海区,细颗粒物(PM2.5),152,132,247,116,216,98,,73,73,14,24,10,9,0.8,0.9
2024-02-10T1600,1277A,117.3027,31.7964,合肥市,包河区,细颗粒物(PM2.5),180,144,218,136,207,106,,78,78,12,19,11,9,0.7,0.8
2024-02-10T1600,1278A,117.2776,31.7385,合肥市,滨湖新区,细颗粒物(PM2.5),168,156,244,127,207,102,,78,78,11,18,12,13,1.0,1
2024-02-10T1600,1279A,117.1318,31.8403,合肥市,高新区,细颗粒物(PM2.5),135,119,169,103,150,95,,76,76,13,17,8,10,0.8,0.9
2024-02-10T1600,3464A,117.3803,31.9147,合肥市,高教基地,细颗粒物(PM2.5),139,122,233,106,177,110,,83,83,6,15,10,8,0.7,0.8
2024-02-10T1600,3614A,79.924,37.0877,和田地区,地区环保局,颗粒物(PM10),66,81,106,25,41,101,,72,72,6,24,10,18,0.5,0.7
2024-02-10T1600,3615A,79.9131,37.113,和田地区,市环保局,颗粒物(PM10),63,75,83,42,35,111,,69,69,8,31,9,10,0.6,1
2024-02-10T1600,2516A,108.2011,24.715,河池市,东仁乐园,,48,43,44,33,30,56,,44,44,4,5,4,3,0.6,0.8
2024-02-10T1600,2517A,108.0497,24.6947,河池市,市环保站,,45,45,57,29,48,87,,62,62,6,9,8,8,0.5,0.8
2024-02-10T1600,2518A,108.0983,24.6989,河池市,市疾控中心,,42,36,59,29,56,90,,62,62,7,11,8,9,0.6,0.7
2024-02-10T1600,1696A,114.6778,23.7569,河源市,源西,,44,44,68,25,57,89,,76,76,3,8,5,8,0.7,0.8
2024-02-10T1600,1697A,114.6944,23.7586,河源市,东埔,细颗粒物(PM2.5),52,47,71,36,58,92,,78,78,5,6,8,9,0.7,0.7
2024-02-10T1600,1698A,114.6892,23.7233,河源市,老城,,50,49,69,35,57,91,,78,78,5,7,7,8,0.7,0.8
2024-02-10T1600,1718A,115.4208,35.2464,菏泽市,气象局,细颗粒物(PM2.5),338,342,279,288,223,115,,85,85,21,24,10,12,1.3,1.1
2024-02-10T1600,1719A,115.4747,35.2375,菏泽市,市政协,细颗粒物(PM2.5),351,366,277,301,218,107,,81,81,14,16,11,11,1.2,1
2024-02-10T1600,3374A,115.5564,35.0891,菏泽市,定陶老年大学,细颗粒物(PM2.5),257,241,243,207,201,116,,84,84,15,19,10,11,0.8,0.8
2024-02-10T1600,3647A,115.4702,35.2706,菏泽市,菏泽医专,细颗粒物(PM2.5),337,342,275,287,217,107,,78,78,25,26,15,16,1.3,1.1
2024-02-10T1600,2514A,111.5264,24.4172,贺州市,环保小区,,48,41,112,33,93,93,,71,71,4,8,8,15,0.5,0.7
2024-02-10T1600,2515A,111.5608,24.4078,贺州市,政协大楼,细颗粒物(PM2.5),54,54,99,38,86,82,,68,68,14,11,13,11,0.6,0.8
2024-02-10T1600,3534A,111.4744,24.4553,贺州市,西湾,细颗粒物(PM2.5),55,40,86,39,79,93,,73,73,6,8,8,10,0.6,0.7
2024-02-10T1600,2385A,114.17,35.9019,鹤壁市,市监测站,细颗粒物(PM2.5),210,207,223,160,179,137,,94,94,20,25,9,11,1.1,1.1
2024-02-10T1600,2386A,114.2956,35.7511,鹤壁市,市交警支队,细颗粒物(PM2.5),176,163,206,133,163,126,,88,88,9,21,16,22,0.9,1
2024-02-10T1600,2387A,114.2878,35.7306,鹤壁市,迎宾馆,细颗粒物(PM2.5),183,142,212,138,186,126,,87,87,18,25,16,33,1.0,1.1
2024-02-10T1600,3474A,114.2617,35.6822,鹤壁市,大新区,细颗粒物(PM2.5),219,,194,169,133,125,,86,86,16,23,15,23,1.0,0.9
2024-02-10T1600,3596A,114.1572,35.9603,鹤壁市,南山宾馆,细颗粒物(PM2.5),233,215,129,183,99,136,,107,107,28,18,23,18,1.3,1.1
2024-02-10T1600,2244A,130.2537,47.3416,鹤岗市,哈啤分公司,,36,30,147,25,113,72,,72,72,8,20,27,39,0.8,1.1
2024-02-10T1600,2245A,130.2684,47.3086,鹤岗市,斯达机电,"颗粒物(PM10),细颗粒物(PM2.5)",69,88,114,50,84,88,,83,83,22,25,18,47,0.6,0.7
2024-02-10T1600,2246A,130.3114,47.3388,鹤岗市,东山纸板厂,颗粒物(PM10),51,51,104,29,93,90,,86,86,13,21,17,28,0.5,1.2
2024-02-10T1600,2247A,130.1097,47.3382,鹤岗市,五号水库,,27,24,32,13,29,84,,82,82,6,8,17,10,0.6,0.6
2024-02-10T1600,2263A,127.4833,50.2524,黑河市,交通局,,48,48,100,32,73,67,,62,62,12,15,19,26,0.5,0.5
2024-02-10T1600,2264A,127.5144,50.2341,黑河市,环保局,细颗粒物(PM2.5),53,50,232,37,216,76,,59,59,9,23,16,71,0.4,0.6
2024-02-10T1600,2265A,127.5291,50.2472,黑河市,大黑河岛,,,,96,40,77,73,,60,60,58,60,20,23,,
2024-02-10T1600,1074A,115.6838,37.7541,衡水市,电机北厂,细颗粒物(PM2.5),65,,256,47,192,97,,84,84,1,18,4,21,0.4,0.9
2024-02-10T1600,1075A,115.6303,37.7316,衡水市,市监测站,颗粒物(PM10),54,57,176,33,149,94,,84,84,9,22,8,17,0.4,0.8
2024-02-10T1600,3188A,115.6683,37.7217,衡水市,市城管局,细颗粒物(PM2.5),53,50,190,37,161,93,,83,83,8,20,8,19,0.4,0.8
2024-02-10T1600,3459A,115.5989,37.5491,衡水市,地表水厂,,42,42,221,25,199,101,,87,87,2,22,2,15,0.3,1.2
2024-02-10T1600,2456A,112.5003,26.9167,衡阳市,原169医院,细颗粒物(PM2.5),128,,203,97,150,101,,52,52,6,18,19,28,0.9,1.3
2024-02-10T1600,2457A,112.6194,26.9258,衡阳市,衡阳化工总厂,细颗粒物(PM2.5),114,124,244,86,187,87,,52,52,18,20,18,16,1.1,1
2024-02-10T1600,2458A,112.6211,26.8956,衡阳市,珠晖区环保局,细颗粒物(PM2.5),119,115,193,90,158,99,,68,68,10,17,15,18,1.2,1.1
2024-02-10T1600,2459A,112.6197,26.8733,衡阳市,市委党校,细颗粒物(PM2.5),97,88,204,72,149,96,,57,57,3,12,14,20,1.0,1.1
2024-02-10T1600,2460A,112.6006,26.8919,衡阳市,市监测站,细颗粒物(PM2.5),122,114,234,92,210,88,,54,54,12,20,16,22,1.4,1.2
2024-02-10T1600,2461A,112.5664,26.9056,衡阳市,真空机电公司,细颗粒物(PM2.5),108,93,200,81,159,85,,44,44,7,25,15,29,1.0,1.7
2024-02-10T1600,3399A,112.6703,26.882,衡阳市,师范学院,细颗粒物(PM2.5),99,79,164,74,149,101,,57,57,3,8,11,16,0.8,1
2024-02-10T1600,2608A,103.3772,23.3993,红河哈尼族彝族自治州,污水处理厂,细颗粒物(PM2.5),69,,59,50,50,77,,64,64,7,9,11,18,0.8,0.8
2024-02-10T1600,2609A,103.3861,23.35,红河哈尼族彝族自治州,监测站,细颗粒物(PM2.5),64,49,61,46,53,75,,65,65,8,8,11,15,0.9,0.9
2024-02-10T1600,3038A,103.3758,23.368,红河哈尼族彝族自治州,州图书馆,细颗粒物(PM2.5),59,54,61,42,52,69,,61,61,9,8,11,15,0.9,0.9
2024-02-10T1600,1090A,111.6507,40.7517,呼和浩特市,呼市一监,细颗粒物(PM2.5),216,173,232,166,471,133,,86,86,14,45,16,33,0.9,1.7
2024-02-10T1600,1091A,111.6572,40.8033,呼和浩特市,小召,细颗粒物(PM2.5),239,197,275,189,546,121,,112,85,24,54,15,52,1.0,1.7
2024-02-10T1600,1094A,111.7516,40.8369,呼和浩特市,如意水处理厂,细颗粒物(PM2.5),195,186,316,146,322,101,,72,72,24,56,20,39,0.9,1.6
2024-02-10T1600,1095A,111.7276,40.8062,呼和浩特市,二十九中,细颗粒物(PM2.5),189,163,438,142,357,113,,77,77,17,46,18,40,0.9,1.3
2024-02-10T1600,1096A,111.5512,40.7866,呼和浩特市,工大金川校区,细颗粒物(PM2.5),266,240,441,216,374,121,,79,79,19,52,16,31,1.2,1.7
2024-02-10T1600,1097A,111.717,40.7612,呼和浩特市,化肥厂生活区,细颗粒物(PM2.5),205,189,443,155,388,122,,82,82,15,48,22,64,0.9,1.6
2024-02-10T1600,3699A,111.6518,40.8389,呼和浩特市,海东办,细颗粒物(PM2.5),264,224,306,214,666,115,,69,69,27,66,21,68,1.0,1.8
2024-02-10T1600,2192A,119.7594,49.2261,呼伦贝尔市,区环保局,,29,17,56,12,50,90,,85,85,6,10,8,12,0.2,0.2
2024-02-10T1600,3061A,119.7512,49.1577,呼伦贝尔市,国华电力东,,29,15,37,8,32,90,,87,87,4,7,4,7,0.2,0.2
2024-02-10T1600,1250A,120.0751,30.8669,湖州市,城西水厂,细颗粒物(PM2.5),79,65,255,58,227,108,,96,96,13,27,5,8,0.6,0.8
2024-02-10T1600,2873A,120.0875,30.8955,湖州市,仁皇山新区,细颗粒物(PM2.5),74,66,220,54,191,109,,96,96,12,28,7,9,0.6,1
2024-02-10T1600,2907A,120.1844,30.8596,湖州市,吴兴区站,细颗粒物(PM2.5),85,71,199,63,184,106,,88,88,11,19,7,11,0.6,0.9
2024-02-10T1600,3562A,120.4148,30.8538,湖州市,南浔区站,细颗粒物(PM2.5),87,67,228,64,222,117,,92,92,5,18,8,15,0.5,0.9
2024-02-10T1600,1607A,120.9092,40.7136,葫芦岛市,龙港区,细颗粒物(PM2.5),92,81,319,68,266,103,,86,86,6,32,12,53,0.4,1.4
2024-02-10T1600,1608A,120.8392,40.7514,葫芦岛市,化工街,细颗粒物(PM2.5),62,58,272,44,209,94,,77,77,4,28,11,27,1.0,1.9
2024-02-10T1600,1609A,120.8341,40.7073,葫芦岛市,新区,细颗粒物(PM2.5),94,79,276,70,220,107,,84,84,8,36,15,24,0.4,1.5
2024-02-10T1600,1610A,120.8695,40.7677,葫芦岛市,东城区,细颗粒物(PM2.5),72,63,288,52,249,99,,78,78,10,38,16,32,1.0,2.2
2024-02-10T1600,2482A,109.5981,27.5721,怀化市,林科所,细颗粒物(PM2.5),82,,105,60,89,60,,30,30,4,4,6,8,0.5,0.5
2024-02-10T1600,2483A,109.9453,27.5444,怀化市,河西地税局,,,67,102,52,85,56,,30,30,6,8,5,4,,1
2024-02-10T1600,2484A,109.9781,27.5342,怀化市,市四医院,细颗粒物(PM2.5),78,73,128,57,101,74,,33,33,2,10,7,5,0.6,0.7
2024-02-10T1600,2485A,109.9972,27.5578,怀化市,监测楼,细颗粒物(PM2.5),83,64,144,61,90,67,,32,32,4,11,9,8,0.8,0.9
2024-02-10T1600,2486A,110.0394,27.583,怀化市,市委党校,细颗粒物(PM2.5),75,63,125,55,109,67,,29,29,4,8,7,6,0.7,0.9
2024-02-10T1600,1210A,119.036,33.5981,淮安市,钵池山,细颗粒物(PM2.5),209,163,145,159,131,78,,72,72,17,18,12,10,1.1,1.2
2024-02-10T1600,1211A,119.007,33.575,淮安市,北京南路,细颗粒物(PM2.5),214,178,164,164,139,88,,78,78,13,21,11,14,1.1,1.6
2024-02-10T1600,1212A,118.989,33.6067,淮安市,市监测站,细颗粒物(PM2.5),216,188,165,166,145,92,,81,81,14,14,12,11,1.4,1.4
2024-02-10T1600,1213A,119.135,33.5039,淮安市,楚州区监测站,细颗粒物(PM2.5),241,195,242,191,218,92,,78,78,13,22,12,11,0.9,1
2024-02-10T1600,1214A,119.0186,33.6297,淮安市,淮阴区监测站,细颗粒物(PM2.5),228,205,188,178,154,89,,78,78,18,21,10,9,0.9,0.9
2024-02-10T1600,3426A,118.8755,33.2894,淮安市,新华书店,细颗粒物(PM2.5),134,107,146,102,130,110,,90,90,16,20,8,11,0.8,0.8
2024-02-10T1600,2282A,116.8004,33.975,淮北市,监测站,细颗粒物(PM2.5),239,262,327,189,257,107,,80,80,16,24,13,15,1.0,1.2
2024-02-10T1600,2283A,116.8091,33.9007,淮北市,烈山区政府,细颗粒物(PM2.5),193,177,326,145,282,125,,88,88,16,26,13,15,0.8,0.9
2024-02-10T1600,3330A,116.8873,33.9836,淮北市,杜集区检察院,细颗粒物(PM2.5),222,205,281,172,245,120,,91,91,16,20,14,15,1.0,1.1
2024-02-10T1600,4017A,116.7923,33.9535,淮北市,市博物馆,细颗粒物(PM2.5),231,217,325,181,272,111,,82,82,19,27,14,15,1.2,1.3
2024-02-10T1600,2277A,116.8305,32.7727,淮南市,潘集区政府,细颗粒物(PM2.5),92,82,130,68,111,102,,94,94,8,11,7,10,0.7,0.7
2024-02-10T1600,2278A,117.0067,32.6524,淮南市,师范学院,细颗粒物(PM2.5),84,84,137,62,102,85,,87,87,13,19,10,12,0.6,0.8
2024-02-10T1600,2279A,116.8569,32.5951,淮南市,谢家集区政府,细颗粒物(PM2.5),68,64,128,49,114,108,,98,92,9,13,6,14,0.8,0.8
2024-02-10T1600,2280A,116.8281,32.633,淮南市,八公山区政府,细颗粒物(PM2.5),67,63,82,48,68,110,,105,105,11,10,4,6,0.7,0.8
2024-02-10T1600,2281A,116.6325,32.6201,淮南市,焦岗湖风景区管理处,细颗粒物(PM2.5),73,60,123,53,91,91,,80,80,7,10,5,4,0.4,0.5
2024-02-10T1600,2894A,117.0566,32.6531,淮南市,经济技术开发区消防队,细颗粒物(PM2.5),77,71,118,56,97,92,,87,87,8,12,7,10,0.7,0.8
2024-02-10T1600,3329A,117.0108,32.5893,淮南市,山南新区,细颗粒物(PM2.5),93,79,141,69,140,99,,93,93,10,13,6,12,0.6,0.7
2024-02-10T1600,2446A,114.9028,30.4742,黄冈市,职工中心,细颗粒物(PM2.5),74,67,315,54,240,102,,79,79,3,17,12,23,0.6,1.2
2024-02-10T1600,2929A,114.8858,30.4519,黄冈市,红卫路,细颗粒物(PM2.5),77,64,294,56,247,94,,75,75,2,21,9,18,0.7,1.2
2024-02-10T1600,3398A,114.9136,30.4445,黄冈市,市林业局,细颗粒物(PM2.5),77,62,283,56,244,104,,80,80,2,20,7,16,0.6,1.2
2024-02-10T1600,2672A,102.0199,35.5102,黄南藏族自治州,同仁县隆务镇,,28,23,45,4,19,87,,82,82,3,6,19,18,0.7,0.7
2024-02-10T1600,2295A,118.2903,29.6963,黄山市,延安路89号,颗粒物(PM10),66,82,300,37,186,98,,60,60,5,13,7,16,0.5,0.6
2024-02-10T1600,2296A,118.327,29.7178,黄山市,黄山东路89号,细颗粒物(PM2.5),67,64,204,48,176,93,,58,58,6,17,6,10,0.8,0.9
2024-02-10T1600,2297A,118.1371,30.2756,黄山市,黄山区政府5号楼,,45,45,117,30,86,101,,64,64,6,11,5,7,0.6,0.7
2024-02-10T1600,2423A,115.0601,30.2313,黄石市,沈家营,细颗粒物(PM2.5),84,93,260,62,226,125,,90,90,17,26,20,20,1.3,1.2
2024-02-10T1600,2424A,115.0817,30.2006,黄石市,陈家湾,细颗粒物(PM2.5),88,74,193,65,148,121,,82,82,14,24,12,30,1.3,1.1
2024-02-10T1600,2426A,114.8988,30.2019,黄石市,铁山,细颗粒物(PM2.5),59,52,178,42,133,111,,98,98,10,29,5,16,0.8,1.1
2024-02-10T1600,2427A,115.0307,30.2092,黄石市,团城山,"颗粒物(PM10),细颗粒物(PM2.5)",70,90,287,51,227,123,,80,80,9,30,10,23,1.2,1.2
2024-02-10T1600,3149A,115.0235,30.1578,黄石市,笔架山北路,细颗粒物(PM2.5),80,61,174,59,169,129,,100,100,7,16,11,28,1.7,1.3
2024-02-10T1600,1392A,114.4183,23.0528,惠州市,河南岸金山湖子站,,46,34,47,32,43,82,,74,74,4,5,6,7,0.6,0.7
2024-02-10T1600,1393A,114.4053,23.0822,惠州市,下埔横江三路子站,,42,37,55,29,44,89,,80,80,7,8,6,7,0.7,0.8
2024-02-10T1600,1394A,114.4103,23.1142,惠州市,江北云山西路子站,,36,32,50,25,47,93,,83,83,1,3,8,10,0.6,0.6
2024-02-10T1600,1395A,114.4645,22.7833,惠州市,惠阳区承修路船湖子站,细颗粒物(PM2.5),55,44,52,39,45,86,,72,72,6,8,8,9,0.7,0.8
2024-02-10T1600,1396A,114.5317,22.7422,惠州市,大亚湾管委会子站,细颗粒物(PM2.5),63,45,49,45,44,91,,72,72,9,7,8,8,0.5,0.5
2024-02-10T1600,3314A,114.4338,22.8134,惠州市,惠阳秋长,,49,41,53,34,45,94,,81,81,1,2,8,10,0.6,0.6
2024-02-10T1600,3452A,114.6517,22.775,惠州市,大亚湾霞涌,细颗粒物(PM2.5),59,49,54,42,49,77,,71,71,15,6,10,10,0.8,0.8
2024-02-10T1600,2240A,130.9762,45.3001,鸡西市,环保局,细颗粒物(PM2.5),59,53,384,42,330,80,,76,76,7,28,9,44,0.2,0.6
2024-02-10T1600,2243A,130.9429,45.3039,鸡西市,第一中学,,30,27,473,21,387,90,,86,86,6,32,8,75,0.2,0.6
2024-02-10T1600,3707A,131.0207,45.3073,鸡西市,欧美日汽修厂,细颗粒物(PM2.5),60,,274,43,231,79,,71,71,12,30,9,38,1.2,1.7
2024-02-10T1600,3709A,130.9967,45.3106,鸡西市,市政设施管理处,颗粒物(PM10),56,61,309,25,272,87,,83,83,13,32,6,14,0.5,1.2
2024-02-10T1600,2367A,114.9754,27.0803,吉安市,红声器材厂,细颗粒物(PM2.5),74,74,199,54,150,89,,48,48,12,23,12,22,0.9,1.2
2024-02-10T1600,2368A,114.9658,27.0999,吉安市,市森林工业局,细颗粒物(PM2.5),77,72,201,56,173,92,,50,50,8,21,11,25,0,0.5
2024-02-10T1600,2369A,114.99,27.1312,吉安市,市环境监测站,细颗粒物(PM2.5),69,63,196,50,157,94,,55,55,8,20,6,19,0.5,1.5
2024-02-10T1600,2370A,115.0093,27.0968,吉安市,青原区法院,细颗粒物(PM2.5),84,78,200,62,168,98,,54,54,9,16,9,43,0.6,1.1
2024-02-10T1600,1772A,126.54,43.8622,吉林市,哈达湾,细颗粒物(PM2.5),54,50,356,38,290,96,,90,90,8,32,6,39,0.5,1.1
2024-02-10T1600,1773A,126.5844,43.8358,吉林市,东局子,细颗粒物(PM2.5),70,66,424,51,345,92,,82,82,11,44,10,37,0.7,1.4
2024-02-10T1600,1774A,126.5052,43.8245,吉林市,电力学院,细颗粒物(PM2.5),54,50,223,38,204,98,,87,87,7,32,8,25,0.6,1.5
2024-02-10T1600,1775A,126.6133,43.8972,吉林市,江北,细颗粒物(PM2.5),70,66,513,51,452,96,,81,81,11,47,13,44,0.6,1.5
2024-02-10T1600,1776A,126.555,43.8306,吉林市,江南公园,细颗粒物(PM2.5),79,65,515,58,439,95,,82,82,10,44,10,71,0.5,1.2
2024-02-10T1600,2868A,126.4739,43.953,吉林市,九站,细颗粒物(PM2.5),115,101,235,87,211,111,,86,86,14,45,10,15,0.9,1.6
2024-02-10T1600,1299A,116.9862,36.6114,济南市,科干所,细颗粒物(PM2.5),64,68,300,46,215,106,,92,92,11,25,14,23,0.9,1.4
2024-02-10T1600,1300A,116.9376,36.665,济南市,农科所,颗粒物(PM10),52,54,275,34,229,105,,89,89,9,34,8,20,0.6,1.2
2024-02-10T1600,1301A,117.1265,36.6734,济南市,开发区,,49,46,182,34,158,97,,85,85,8,19,10,15,0.7,1.2
2024-02-10T1600,1303A,117.0624,36.6868,济南市,省种子仓库,颗粒物(PM10),56,61,271,34,211,109,,94,94,4,28,9,18,0.7,1.2
2024-02-10T1600,1304A,116.9489,36.6447,济南市,机床二厂,颗粒物(PM10),51,51,320,29,229,114,,99,99,6,39,11,43,0.8,1.5
2024-02-10T1600,1305A,117.0495,36.663,济南市,市监测站,细颗粒物(PM2.5),55,46,248,39,208,110,,95,95,13,37,17,25,0.6,1.2
2024-02-10T1600,1306A,116.7675,36.5484,济南市,长清党校,细颗粒物(PM2.5),68,66,219,49,185,118,,98,98,9,25,10,15,0.7,1.3
2024-02-10T1600,1616A,117.6795,36.229,济南市,技术学院,细颗粒物(PM2.5),85,95,294,63,281,114,,91,91,21,58,12,16,0.8,2
2024-02-10T1600,1961A,117.532,36.6868,济南市,东山小学,颗粒物(PM10),55,59,186,34,171,110,,91,91,10,28,12,26,0.3,0.8
2024-02-10T1600,3059A,117.7161,36.2049,济南市,泰兴公司,细颗粒物(PM2.5),85,88,316,63,253,116,,91,91,10,42,13,14,0.8,1.9
2024-02-10T1600,3064A,117.6867,36.2171,济南市,莱芜战役纪念馆,细颗粒物(PM2.5),85,92,341,63,313,105,,85,85,15,49,13,15,0.7,2
2024-02-10T1600,3494A,117.1673,36.9782,济南市,济阳区政府,颗粒物(PM10),53,56,271,32,225,108,,95,95,8,24,14,31,0.4,1
2024-02-10T1600,3495A,117.1171,36.63,济南市,锦屏中学,细颗粒物(PM2.5),59,54,170,42,145,110,,95,95,8,19,12,16,0.6,1.1
2024-02-10T1600,3682A,116.9814,36.6819,济南市,济南四建,细颗粒物(PM2.5),53,39,237,37,284,103,,88,88,9,41,12,36,0.6,1.3
2024-02-10T1600,1653A,116.6251,35.4302,济宁市,火炬城,细颗粒物(PM2.5),199,174,422,149,369,,,74,74,,36,11,22,1.0,1.5
2024-02-10T1600,1655A,116.5491,35.4042,济宁市,电化厂,细颗粒物(PM2.5),267,266,481,217,427,112,,76,76,18,37,14,25,1.0,1.3
2024-02-10T1600,3500A,116.5814,35.3707,济宁市,北湖一中,细颗粒物(PM2.5),235,275,427,185,350,109,,73,73,43,38,15,21,1.1,1.2
2024-02-10T1600,3501A,116.8249,35.5593,济宁市,服务中心,细颗粒物(PM2.5),107,151,544,80,408,126,,92,92,14,41,8,28,0.9,1.7
2024-02-10T1600,3678A,116.5907,35.4054,济宁市,市第七中学,细颗粒物(PM2.5),250,223,476,200,382,111,,79,79,19,36,12,29,1.2,1.4
2024-02-10T1600,2255A,130.2751,46.8028,佳木斯市,佳纺,细颗粒物(PM2.5),94,71,229,70,212,114,,100,100,13,36,9,16,0.8,1.4
2024-02-10T1600,2256A,130.3995,46.8307,佳木斯市,发电厂,细颗粒物(PM2.5),77,64,188,56,152,103,,90,90,16,37,16,17,0.6,1.2
2024-02-10T1600,2257A,130.3258,46.7975,佳木斯市,环保局,细颗粒物(PM2.5),94,73,415,70,379,106,,90,90,13,51,12,64,0.8,1.6
2024-02-10T1600,2258A,130.3648,46.8032,佳木斯市,十一中,细颗粒物(PM2.5),77,59,318,56,323,102,,89,89,14,46,10,38,0.7,1.2
2024-02-10T1600,2259A,130.3794,46.7588,佳木斯市,四丰,细颗粒物(PM2.5),95,105,125,71,79,129,,124,124,13,13,1,2,0.6,0.7
2024-02-10T1600,1252A,120.7436,30.778,嘉兴市,清河小学,细颗粒物(PM2.5),63,69,176,45,136,102,,83,83,7,22,7,9,0.1,1
2024-02-10T1600,1253A,120.726,30.7478,嘉兴市,嘉兴学院,细颗粒物(PM2.5),79,65,199,58,169,109,,87,87,8,24,7,10,0.7,1.1
2024-02-10T1600,2872A,120.7846,30.7525,嘉兴市,南湖区残联,细颗粒物(PM2.5),78,73,207,57,163,118,,94,94,4,22,8,12,0.6,1
2024-02-10T1600,3407A,120.6916,30.7739,嘉兴市,秀洲住建,细颗粒物(PM2.5),85,72,208,63,183,102,,82,82,8,23,10,12,0.6,1
2024-02-10T1600,1945A,98.2908,39.7711,嘉峪关市,气象局,,29,29,63,9,24,90,,75,75,3,10,3,11,0.2,0.2
2024-02-10T1600,2884A,98.2672,39.7978,嘉峪关市,酒钢宾馆,,31,31,62,12,19,91,,76,76,5,8,3,11,0.4,0.4
2024-02-10T1600,3248A,98.2643,39.7724,嘉峪关市,雄关区,,31,31,45,8,18,87,,67,67,5,16,6,8,0.4,0.5
2024-02-10T1600,1383A,113.1064,22.6058,江门市,北街,细颗粒物(PM2.5),54,54,43,38,37,118,,85,85,9,11,9,9,0.8,0.9
2024-02-10T1600,1384A,113.0731,22.5835,江门市,西区,细颗粒物(PM2.5),57,56,45,40,30,112,,80,80,10,11,10,9,0.4,0.6
2024-02-10T1600,1385A,113.0219,22.5311,江门市,圭峰西,,48,48,38,30,32,110,,84,84,10,6,7,7,0.6,0.7
2024-02-10T1600,1386A,113.0828,22.5947,江门市,东湖,,45,45,39,28,28,111,,80,80,9,10,8,9,0.6,0.7
2024-02-10T1600,3311A,113.1075,22.5647,江门市,江海富民,,49,49,33,34,30,116,,84,84,10,11,8,8,0.5,0.6
2024-02-10T1600,3449A,113.05,22.4667,江门市,新会银湖,细颗粒物(PM2.5),54,50,40,38,32,119,,86,86,9,9,8,7,0.7,0.8
2024-02-10T1600,1828A,113.227,35.2125,焦作市,市环保局,颗粒物(PM10),83,116,200,32,123,86,,65,65,3,17,1,35,0.4,1.1
2024-02-10T1600,3169A,113.2725,35.2067,焦作市,太极体育中心,颗粒物(PM10),89,128,212,32,156,91,,70,70,9,21,3,31,0.3,1
2024-02-10T1600,3335A,113.3137,35.2641,焦作市,马村街道办,颗粒物(PM10),84,118,207,50,135,94,,69,69,8,19,5,44,0.0,0.6
2024-02-10T1600,3336A,113.2465,35.2373,焦作市,焦作技师学院,颗粒物(PM10),83,116,247,31,172,85,,63,63,7,26,8,53,0.4,1.3
2024-02-10T1600,3477A,113.1656,35.2539,焦作市,中站许衡医院,颗粒物(PM10),87,124,151,29,94,91,,83,81,3,13,4,30,0.1,0.7
2024-02-10T1600,3981A,113.2449,35.1803,焦作市,原李万街道办,颗粒物(PM10),83,115,242,19,180,88,,69,69,11,26,4,36,0.4,1
2024-02-10T1600,1708A,116.3701,23.5345,揭阳市,新兴,,27,27,54,18,51,81,,66,66,3,7,9,9,0.8,0.9
2024-02-10T1600,1709A,116.3264,23.5443,揭阳市,西马,,27,24,48,15,44,84,,68,68,3,5,8,9,0.6,0.7
2024-02-10T1600,1710A,116.3611,23.5626,揭阳市,东兴,,27,27,52,18,49,84,,67,67,2,5,8,9,0.7,0.8
2024-02-10T1600,1711A,116.4151,23.5294,揭阳市,渔湖,,33,33,57,22,43,85,,65,65,3,7,8,9,0.7,0.8
2024-02-10T1600,3320A,116.403,23.5699,揭阳市,曲溪,,33,29,52,23,44,87,,68,68,2,6,3,4,0.6,0.7
2024-02-10T1600,1944A,102.1692,38.5167,金昌市,天庆家园,,,91,181,19,32,90,,77,73,,14,10,39,0.3,0.5
2024-02-10T1600,3170A,102.1864,38.5253,金昌市,市委党校,颗粒物(PM10),86,122,178,55,37,90,,76,72,12,7,91,32,0.8,0.6
2024-02-10T1600,4022A,102.1647,38.5371,金昌市,金川区人防中心,颗粒物(PM10),71,92,243,41,40,96,,78,76,12,10,59,43,0.6,0.6
2024-02-10T1600,1262A,119.647,29.077,金华市,十五中,细颗粒物(PM2.5),67,55,152,48,122,117,,90,90,8,18,5,7,0.7,0.9
2024-02-10T1600,1263A,119.686,29.1029,金华市,监测站,细颗粒物(PM2.5),58,63,114,41,87,123,,96,96,7,12,5,6,0.6,0.8
2024-02-10T1600,3659A,119.656,29.1131,金华市,气象局,细颗粒物(PM2.5),58,54,180,41,143,118,,94,94,4,18,4,7,0.7,1
2024-02-10T1600,1767A,121.1115,41.0879,锦州市,南山,细颗粒物(PM2.5),84,86,176,62,150,104,,88,88,10,25,16,16,0.5,1.3
2024-02-10T1600,1768A,121.0533,40.8434,锦州市,开发区,细颗粒物(PM2.5),100,81,193,75,160,100,,86,86,15,22,21,33,0.8,1.3
2024-02-10T1600,1769A,121.1836,41.1119,锦州市,百股街道,细颗粒物(PM2.5),73,,159,53,139,101,,84,84,9,25,15,17,0.5,1.4
2024-02-10T1600,1770A,121.1178,41.1222,锦州市,天安街道,细颗粒物(PM2.5),65,64,180,47,142,99,,82,82,8,28,15,14,0.6,1.3
2024-02-10T1600,1771A,121.1303,41.1386,锦州市,北湖公园,细颗粒物(PM2.5),68,,136,49,126,98,,81,81,10,24,17,18,0.6,1.2
2024-02-10T1600,2160A,112.85,35.5051,晋城市,自来水公司,颗粒物(PM10),70,89,170,24,127,91,,72,72,4,23,3,16,0.6,1.3
2024-02-10T1600,2161A,112.8318,35.4936,晋城市,白云商贸,颗粒物(PM10),86,122,163,17,104,94,,78,78,9,26,5,13,0.4,1
2024-02-10T1600,2162A,112.8508,35.4887,晋城市,市环保局,颗粒物(PM10),77,104,167,24,115,93,,75,75,8,30,3,13,0.9,1.1
2024-02-10T1600,2163A,112.8676,35.4897,晋城市,技术学院,颗粒物(PM10),88,125,165,22,112,92,,72,72,9,31,4,15,0.5,1.2
2024-02-10T1600,3620A,112.8271,35.4828,晋城市,泽州一中,颗粒物(PM10),80,110,129,22,83,93,,80,80,9,24,5,12,0.6,1.1
2024-02-10T1600,2171A,112.7532,37.6945,晋中市,锦纶小区,颗粒物(PM10),89,127,249,29,184,90,,69,69,10,27,8,39,0.2,0.8
2024-02-10T1600,2173A,112.7249,37.7067,晋中市,南都小区,颗粒物(PM10),87,123,371,30,195,89,,74,74,10,37,7,61,0.2,1
2024-02-10T1600,2174A,112.6991,37.6982,晋中市,榆次区政府,颗粒物(PM10),76,101,298,44,196,86,,66,66,10,32,14,44,0.3,1
2024-02-10T1600,2865A,112.7195,37.6828,晋中市,榆次三中,颗粒物(PM10),85,119,236,27,182,91,,67,67,6,29,8,45,0.3,0.9
2024-02-10T1600,2439A,112.2014,31.0481,荆门市,竹园小学,细颗粒物(PM2.5),123,116,166,93,133,90,,62,49,16,19,10,11,0.9,1.1
2024-02-10T1600,2440A,112.1969,30.9891,荆门市,掇刀,细颗粒物(PM2.5),166,144,159,126,128,89,,55,55,9,14,10,10,0.8,1
2024-02-10T1600,2441A,112.2213,31.0386,荆门市,石化一小,细颗粒物(PM2.5),159,135,173,121,131,92,,60,51,13,20,22,19,0.8,1
2024-02-10T1600,3012A,112.1849,31.0362,荆门市,西山林语,细颗粒物(PM2.5),123,114,135,93,107,94,,59,59,12,14,14,15,0.7,0.8
2024-02-10T1600,3547A,112.1632,31.0138,荆门市,龙泉中学南校,细颗粒物(PM2.5),147,125,144,112,129,90,,54,54,18,14,10,12,0.7,1
2024-02-10T1600,1844A,112.2494,30.3197,荆州市,市图书馆,细颗粒物(PM2.5),110,99,174,83,179,74,,54,54,10,16,9,13,1.0,1.1
2024-02-10T1600,1845A,112.2008,30.3544,荆州市,市委党校,细颗粒物(PM2.5),124,108,187,94,189,77,,55,55,14,19,8,14,0.7,0.9
2024-02-10T1600,3194A,112.2747,30.3122,荆州市,管委会,细颗粒物(PM2.5),119,,154,90,177,77,,58,58,10,14,10,14,0.9,1.1
2024-02-10T1600,3548A,112.1655,30.3364,荆州市,学苑路,细颗粒物(PM2.5),115,,177,87,189,72,,53,53,13,18,7,12,1.0,1.2
2024-02-10T1600,2342A,117.3102,29.3867,景德镇市,王港中学,细颗粒物(PM2.5),77,66,168,56,131,105,,77,77,5,6,7,33,0.4,0.6
2024-02-10T1600,2343A,117.2117,29.2933,景德镇市,老干部活动中心,细颗粒物(PM2.5),102,80,182,76,147,83,,56,56,4,12,10,15,0.4,0.8
2024-02-10T1600,2344A,117.1894,29.2789,景德镇市,兽医站,细颗粒物(PM2.5),100,91,194,75,155,94,,64,64,5,14,10,23,0.7,0.9
2024-02-10T1600,2345A,117.1547,29.2617,景德镇市,台达陶瓷,臭氧1小时,225,78,234,72,194,497,,113,113,8,17,4,19,0.8,0.9
2024-02-10T1600,2346A,117.2461,29.2956,景德镇市,陶研所,细颗粒物(PM2.5),89,80,149,66,127,84,,56,56,9,16,10,14,0.7,0.9
2024-02-10T1600,1803A,115.9872,29.6815,九江市,十里,,45,45,190,26,153,99,,85,85,11,27,10,15,0.7,1
2024-02-10T1600,1804A,115.9584,29.7046,九江市,茅山头,,48,35,130,33,113,85,,69,69,16,29,10,15,0.7,1
2024-02-10T1600,1805A,115.9877,29.7295,九江市,西园,细颗粒物(PM2.5),99,95,153,74,132,81,,71,71,14,28,10,13,0.9,1
2024-02-10T1600,1806A,116.0172,29.6547,九江市,五七二七厂,细颗粒物(PM2.5),77,73,69,56,51,74,,71,71,12,13,10,12,0.8,0.8
2024-02-10T1600,1808A,115.9114,29.6038,九江市,综合工业园,细颗粒物(PM2.5),53,39,125,37,109,96,,80,80,10,18,11,17,0.7,1
2024-02-10T1600,1809A,116.0721,29.7535,九江市,石化总厂,细颗粒物(PM2.5),117,108,217,88,178,99,,72,72,7,19,13,22,0.7,1
2024-02-10T1600,1810A,115.9773,29.5698,九江市,庐山气象台,,29,26,32,17,26,92,,98,88,2,5,7,8,0.9,0.9
2024-02-10T1600,3190A,116.0254,29.6994,九江市,外国语学校,细颗粒物(PM2.5),135,111,192,103,167,70,,60,60,24,32,11,18,0.8,1
2024-02-10T1600,2658A,98.5061,39.7443,酒泉市,仓门街子站,,36,36,101,12,29,82,,65,65,4,8,4,9,0.3,0.4
2024-02-10T1600,2659A,98.4989,39.7256,酒泉市,油田生活基地,,33,29,108,23,31,85,,70,70,3,8,6,11,0.3,0.4
2024-02-10T1600,2698A,76.0072,39.4467,喀什地区,巡警大队,颗粒物(PM10),70,89,143,37,81,106,,63,63,22,48,11,15,1.0,2.2
2024-02-10T1600,2699A,75.9755,39.4694,喀什地区,吾办,细颗粒物(PM2.5),73,79,156,53,112,104,,48,48,17,57,5,7,0.8,2.5
2024-02-10T1600,4027A,75.9483,39.4689,喀什地区,老干局,颗粒物(PM10),59,67,183,33,98,105,,52,52,13,49,5,5,0.9,3.5
2024-02-10T1600,1824A,114.3389,34.7781,开封市,肿瘤医院,细颗粒物(PM2.5),189,224,320,142,216,108,,75,75,15,27,16,38,1.0,0.7
2024-02-10T1600,1826A,114.2885,34.7965,开封市,世纪星幼儿园,细颗粒物(PM2.5),263,,298,213,232,119,,87,87,10,20,19,47,0.9,0.6
2024-02-10T1600,3147A,114.3438,34.8106,开封市,龙亭公园,细颗粒物(PM2.5),245,226,266,195,105,110,,79,79,14,26,20,28,1.0,0.6
2024-02-10T1600,3210A,114.3644,34.7964,开封市,汴京公园,细颗粒物(PM2.5),262,236,313,212,251,112,,77,77,15,27,18,30,0.9,0.7
2024-02-10T1600,3473A,114.2485,34.8306,开封市,技师学院,细颗粒物(PM2.5),234,198,201,184,148,116,,84,84,10,15,14,17,1.2,0.8
2024-02-10T1600,3592A,114.4644,34.7556,开封市,祥符区生态环境局,细颗粒物(PM2.5),266,278,297,216,237,110,,78,78,14,25,18,49,0.8,0.6
2024-02-10T1600,1951A,84.895,45.6094,克拉玛依市,长征新村,细颗粒物(PM2.5),89,87,157,66,112,89,,68,68,32,38,10,27,0.9,0.9
2024-02-10T1600,1952A,84.8988,45.5893,克拉玛依市,南林小区,细颗粒物(PM2.5),90,92,198,67,164,93,,66,66,28,47,6,20,0.9,1.2
2024-02-10T1600,1954A,84.905,44.3396,克拉玛依市,独山子区,细颗粒物(PM2.5),125,120,249,95,212,137,,102,102,23,37,8,9,0.9,1.2
2024-02-10T1600,1955A,85.6979,46.098,克拉玛依市,乌尔禾区商贸楼,细颗粒物(PM2.5),79,70,130,58,104,98,,64,64,24,39,8,10,0.9,1.1
2024-02-10T1600,3612A,85.1045,45.6899,克拉玛依市,白碱滩区新站,细颗粒物(PM2.5),103,104,146,77,100,88,,75,54,38,31,14,22,1.0,0.9
2024-02-10T1600,2697A,76.1454,39.7142,克孜勒苏柯尔克孜自治州,市人民政府,颗粒物(PM10),61,71,63,43,38,101,,72,72,12,13,6,6,0.7,0.7
2024-02-10T1600,3665A,76.1658,39.7157,克孜勒苏柯尔克孜自治州,克州文化中心,颗粒物(PM10),54,57,68,36,38,101,,75,75,12,13,6,8,0.6,0.6
2024-02-10T1600,1450A,102.8204,24.8886,昆明市,呈贡新区,,30,30,52,14,47,96,,76,76,5,8,5,10,0.6,0.9
2024-02-10T1600,1451A,102.6251,24.9608,昆明市,西山森林公园,细颗粒物(PM2.5),63,,51,45,42,97,,77,77,7,10,10,11,0.9,1.4
2024-02-10T1600,1452A,102.7252,25.0902,昆明市,龙泉镇,,31,24,62,15,47,98,,82,82,9,13,12,17,0.4,0.8
2024-02-10T1600,1453A,102.7266,25.0375,昆明市,东风东路,,29,20,52,20,46,91,,76,76,9,13,11,15,0.6,1
2024-02-10T1600,1454A,102.6742,25.0669,昆明市,金鼎山,,32,32,67,19,47,96,,81,81,11,12,8,12,0.7,1
2024-02-10T1600,1455A,102.6644,25.0401,昆明市,碧鸡广场,,35,24,58,24,51,96,,79,79,8,12,10,15,0.6,0.9
2024-02-10T1600,3179A,102.7494,25.0119,昆明市,官渡区博物馆,,29,23,53,14,40,92,,77,77,5,12,9,12,0.6,1
2024-02-10T1600,3375A,102.8017,24.8336,昆明市,青年创业园,,31,20,44,17,37,99,,82,82,4,7,12,12,0.6,0.9
2024-02-10T1600,3550A,102.7997,24.9786,昆明市,昆明学院,,29,18,52,8,39,91,,74,74,2,8,11,12,0.6,0.9
2024-02-10T1600,3551A,102.5967,24.6736,昆明市,晋宁区生态环境分局,,39,36,72,27,45,102,,84,84,8,10,8,14,0.8,0.9
2024-02-10T1600,3552A,102.6678,24.9856,昆明市,云天化总部,,32,27,70,22,58,94,,77,77,8,11,7,14,0.8,1.1
2024-02-10T1600,1456A,91.1319,29.6514,拉萨市,八廓街,,31,7,17,5,12,98,,82,82,9,12,6,6,0.3,0.3
2024-02-10T1600,1457A,91.1221,29.6747,拉萨市,市环保局,,31,6,29,5,22,99,,83,83,6,12,6,9,0.5,0.6
2024-02-10T1600,1458A,91.0874,29.6475,拉萨市,区监测站,,31,7,15,5,12,97,,84,84,3,7,4,5,0.4,0.5
2024-02-10T1600,1459A,91.1774,29.6541,拉萨市,西藏大学,,31,7,10,5,7,99,,84,84,4,4,4,4,0.3,0.3
2024-02-10T1600,1460A,90.9798,29.6588,拉萨市,区辐射站,,30,7,14,5,11,96,,77,77,4,9,5,6,0.5,0.6
2024-02-10T1600,1461A,91.0834,29.6292,拉萨市,拉萨火车站,,31,,15,6,12,97,,82,82,3,8,2,4,0.6,0.3
2024-02-10T1600,2520A,109.2203,23.7256,来宾市,来宾技工学校,细颗粒物(PM2.5),60,,103,43,83,89,,68,68,4,12,6,11,0.7,0.9
2024-02-10T1600,3535A,109.1781,23.7297,来宾市,兴宾区政府,,32,31,71,22,62,92,,72,72,4,9,8,10,0.7,0.9
2024-02-10T1600,4002A,109.2416,23.7461,来宾市,中南小学,细颗粒物(PM2.5),54,,105,38,88,95,,72,72,5,15,4,10,0.8,1.1
2024-02-10T1600,1476A,103.631,36.1031,兰州市,兰炼宾馆,颗粒物(PM10),75,99,208,42,102,103,,68,68,26,37,22,29,0.8,0.8
2024-02-10T1600,1478A,103.8412,36.0726,兰州市,生物制品所,颗粒物(PM10),89,128,214,50,86,74,,48,48,31,39,18,19,0.8,0.9
2024-02-10T1600,1479A,103.831,36.0464,兰州市,铁路设计院,颗粒物(PM10),86,122,193,47,98,75,,44,44,31,56,21,27,0.8,1.1
2024-02-10T1600,3186A,103.7158,36.1058,兰州市,教育港,颗粒物(PM10),84,118,191,48,71,82,,60,60,35,38,18,19,0.8,0.8
2024-02-10T1600,3241A,103.7439,36.0842,兰州市,百合公园,颗粒物(PM10),91,131,180,30,83,64,,49,49,42,42,10,15,1.1,1.1
2024-02-10T1600,3242A,103.9611,35.998,兰州市,和平,颗粒物(PM10),77,103,151,33,74,86,,63,63,15,24,17,22,0.6,1
2024-02-10T1600,3245A,103.6633,36.533,兰州新区,新区管委会,颗粒物(PM10),94,137,208,39,59,88,,66,66,12,14,18,14,0.6,0.7
2024-02-10T1600,3246A,103.6975,36.4789,兰州新区,舟曲中学,颗粒物(PM10),121,191,203,40,39,89,,67,67,12,14,18,13,0.5,0.6
2024-02-10T1600,1067A,116.6708,39.5111,廊坊市,药材公司,,30,23,45,12,29,93,,88,88,2,9,1,3,0.3,0.4
2024-02-10T1600,1068A,116.7214,39.5589,廊坊市,开发区,,28,18,34,14,26,87,,84,84,5,9,2,3,0.3,0.4
2024-02-10T1600,1070A,116.7244,39.5269,廊坊市,北华航天学院,,30,24,43,9,19,94,,90,90,5,11,2,3,0.3,0.3
2024-02-10T1600,2919A,116.7022,39.5453,廊坊市,河北工业大学,,29,21,43,13,30,90,,85,85,7,10,1,3,0.3,0.3
2024-02-10T1600,2535A,103.7723,29.5462,乐山市,花湖湾,细颗粒物(PM2.5),92,93,153,68,132,100,,60,60,6,11,8,8,0.5,0.6
2024-02-10T1600,2536A,103.7627,29.5844,乐山市,牛耳桥,细颗粒物(PM2.5),89,70,164,66,149,103,,60,60,12,23,9,7,0.8,0.9
2024-02-10T1600,2537A,103.7508,29.6006,乐山市,市第三水厂,细颗粒物(PM2.5),103,,232,77,205,104,,58,58,10,27,8,8,0.8,1
2024-02-10T1600,2538A,103.7571,29.5664,乐山市,市监测站,细颗粒物(PM2.5),130,,153,99,126,99,,60,60,10,18,9,9,0.5,0.6
2024-02-10T1600,3361A,103.7311,29.5628,乐山市,理工大学,细颗粒物(PM2.5),104,81,182,78,171,104,,62,62,8,19,7,8,0.7,0.8
2024-02-10T1600,2599A,100.2497,26.8802,丽江市,丽江古城,,35,35,96,19,76,96,,79,79,14,20,6,8,0.5,0.6
2024-02-10T1600,2600A,100.2203,26.8906,丽江市,市中心,,30,13,65,10,46,95,,78,78,6,18,8,16,0.6,0.7
2024-02-10T1600,1267A,119.914,28.4514,丽水市,监测站大楼,细颗粒物(PM2.5),53,48,101,37,86,91,,55,55,4,10,5,5,0.5,0.7
2024-02-10T1600,1268A,119.93,28.4586,丽水市,莲都小学,细颗粒物(PM2.5),55,54,95,39,75,90,,56,56,6,9,4,6,0.5,0.7
2024-02-10T1600,1269A,119.879,28.4231,丽水市,余庄前,,50,39,89,35,80,94,,61,61,4,8,5,4,0.5,0.7
2024-02-10T1600,1173A,119.176,34.5885,连云港市,市环境监测站,细颗粒物(PM2.5),245,207,199,195,184,122,,88,88,24,28,17,13,1.5,1.2
2024-02-10T1600,3000A,119.3581,34.6972,连云港市,德源药业,细颗粒物(PM2.5),199,178,176,149,158,143,,109,109,20,22,17,12,1.2,1
2024-02-10T1600,3007A,119.178,34.844,连云港市,新城一中,细颗粒物(PM2.5),248,225,230,198,232,135,,107,107,22,22,22,17,1.7,1.2
2024-02-10T1600,3008A,119.3608,34.7519,连云港市,胡沟管理处,细颗粒物(PM2.5),228,215,179,178,154,132,,102,102,22,19,20,15,1.4,1
2024-02-10T1600,3009A,119.1478,34.5911,连云港市,矿山设计院,细颗粒物(PM2.5),240,227,222,190,183,122,,83,83,17,18,17,14,1.3,1.1
2024-02-10T1600,3434A,119.2413,34.6539,连云港市,工贸学校,细颗粒物(PM2.5),262,257,215,212,175,137,,102,102,27,23,21,25,1.4,1.2
2024-02-10T1600,3664A,119.4172,34.7341,连云港市,连云街道,细颗粒物(PM2.5),261,266,158,211,127,121,,105,102,43,21,30,18,1.8,1.3
2024-02-10T1600,2571A,102.3431,27.8099,凉山彝族自治州,青龙寺,,30,6,17,2,5,94,,83,83,2,4,4,5,0.6,0.8
2024-02-10T1600,2572A,102.2721,27.8415,凉山彝族自治州,邛海宾馆,,30,24,16,12,11,95,,81,80,4,5,7,9,0.7,0.7
2024-02-10T1600,2573A,102.2625,27.898,凉山彝族自治州,西昌市政府,,32,12,16,6,11,100,,82,82,3,4,7,9,0.5,0.6
2024-02-10T1600,2574A,102.2685,27.8851,凉山彝族自治州,凉山州政府,,28,15,20,10,13,89,,75,75,3,5,6,8,0.5,0.7
2024-02-10T1600,2575A,102.237,27.8914,凉山彝族自治州,长安,,31,8,21,6,12,97,,79,79,3,5,9,12,0.7,0.7
2024-02-10T1600,2212A,123.2,41.1953,辽阳市,宏伟区,细颗粒物(PM2.5),78,57,733,57,598,81,,66,66,7,40,14,106,0.9,2.2
2024-02-10T1600,2213A,123.1683,41.2495,辽阳市,新华园,细颗粒物(PM2.5),60,,718,43,613,80,,62,62,5,51,16,97,0.7,2.5
2024-02-10T1600,2214A,123.2354,41.2639,辽阳市,滨河路,细颗粒物(PM2.5),72,62,397,52,398,81,,63,63,6,34,11,29,0.7,1.8
2024-02-10T1600,2215A,123.149,41.2991,辽阳市,铁西工业园,,38,38,583,18,593,89,,69,69,6,46,11,36,0.6,2.8
2024-02-10T1600,2227A,125.1358,42.8845,辽源市,环保局,,45,41,463,31,416,96,,74,74,6,37,11,72,0.5,1.5
2024-02-10T1600,3239A,125.0764,42.9078,辽源市,银鹰制药,细颗粒物(PM2.5),70,57,269,51,242,100,,81,81,5,27,9,14,0.5,1.4
2024-02-10T1600,1625A,115.9848,36.4372,聊城市,区政府,细颗粒物(PM2.5),108,110,276,81,242,108,,83,83,12,24,17,17,1.0,1.4
2024-02-10T1600,2878A,116.0072,36.4343,聊城市,聊大东校,细颗粒物(PM2.5),125,107,308,95,269,114,,89,89,15,26,20,23,1.0,1.4
2024-02-10T1600,3200A,115.9819,36.4978,聊城市,监控中心,细颗粒物(PM2.5),113,103,339,85,290,119,,89,89,14,28,15,22,1.2,1.6
2024-02-10T1600,3513A,116.0445,36.4361,聊城市,九州社区,细颗粒物(PM2.5),108,122,347,81,285,113,,86,86,16,25,17,29,0.9,1.3
2024-02-10T1600,4018A,116.0567,36.4608,聊城市,星美广场,细颗粒物(PM2.5),103,124,341,77,272,110,,84,84,13,22,12,20,0.9,1.3
2024-02-10T1600,2632A,94.3681,29.6376,林芝市,林芝监测站,,29,3,15,0,9,92,,82,82,1,2,4,6,0.3,0.3
2024-02-10T1600,2633A,94.3616,29.6616,林芝市,林芝人民医院,,29,1,14,0,7,90,,81,81,2,3,9,9,0.4,0.4
2024-02-10T1600,2603A,100.0781,23.8982,临沧市,市环保局,,49,40,81,34,69,62,,56,56,6,11,7,17,0.5,0.6
2024-02-10T1600,2604A,100.0894,23.8822,临沧市,市气象局,细颗粒物(PM2.5),55,43,95,39,78,57,,50,50,6,11,5,19,0.6,0.6
2024-02-10T1600,1733A,111.5531,36.0783,临汾市,临钢医院,颗粒物(PM10),83,116,342,16,242,93,,55,55,2,27,4,14,0.3,1.6
2024-02-10T1600,1734A,111.5028,36.0714,临汾市,技工学校,颗粒物(PM10),74,97,406,28,326,95,,59,59,3,31,5,21,0.2,1.8
2024-02-10T1600,1736A,111.5018,36.0855,临汾市,市委,颗粒物(PM10),70,90,390,16,299,98,,62,62,2,26,3,19,0.3,1.7
2024-02-10T1600,3018A,111.505,36.1014,临汾市,唐尧大酒店,颗粒物(PM10),73,95,347,16,292,98,,59,59,7,35,5,22,0.3,1.8
2024-02-10T1600,3668A,111.5036,36.0414,临汾市,城南,颗粒物(PM10),81,111,396,31,315,97,,58,58,2,32,5,16,0.3,1.9
2024-02-10T1600,2667A,103.2069,35.5993,临夏回族自治州,环保局,,28,21,81,19,40,84,,53,53,5,26,11,21,0.3,1.5
2024-02-10T1600,2668A,103.2417,35.6057,临夏回族自治州,建设大厦,,27,8,53,7,30,86,,68,68,10,16,10,18,0.4,0.9
2024-02-10T1600,1618A,118.3429,35.0532,临沂市,沂河小区,细颗粒物(PM2.5),225,,353,175,312,129,,92,92,15,33,15,27,1.1,1.5
2024-02-10T1600,1619A,118.295,35.0583,临沂市,鲁南制药厂,细颗粒物(PM2.5),230,,345,180,312,140,,104,104,20,36,19,37,1.5,2
2024-02-10T1600,1620A,118.2794,34.9976,临沂市,新光毛纺厂,细颗粒物(PM2.5),224,,332,174,283,139,,97,97,18,36,18,24,1.3,1.8
2024-02-10T1600,1621A,118.3956,35.0888,临沂市,河东保险公司,细颗粒物(PM2.5),222,188,413,172,367,146,,100,100,16,40,16,20,1.5,1.8
2024-02-10T1600,3370A,118.3564,35.0215,临沂市,十里堡居委,细颗粒物(PM2.5),192,168,378,144,324,143,,103,103,21,42,15,35,1.4,1.8
2024-02-10T1600,3496A,118.3604,35.1084,临沂市,南坊新区,细颗粒物(PM2.5),206,183,328,156,286,146,,105,105,26,35,16,20,1.3,1.6
2024-02-10T1600,3860A,118.3920,35.0300,临沂市,皇山花园小区,细颗粒物(PM2.5),160,161,360,122,273,143,,98,98,22,39,17,30,1.4,1.8
2024-02-10T1600,1870A,109.4856,24.3895,柳州市,柳东小学,,36,26,64,25,61,81,,68,68,6,9,7,15,0.4,0.5
2024-02-10T1600,1871A,109.4157,24.3277,柳州市,环保监测站,,45,36,85,31,75,83,,66,66,6,10,8,12,0.5,0.5
2024-02-10T1600,1872A,109.389,24.341,柳州市,河西水厂,,42,42,84,22,59,80,,56,56,8,13,8,14,0.5,0.7
2024-02-10T1600,1874A,109.4006,24.3631,柳州市,市九中,,43,42,107,30,80,78,,61,61,4,12,5,11,0.5,0.7
2024-02-10T1600,1875A,109.4958,24.3134,柳州市,古亭山,,43,38,50,30,40,80,,64,64,4,6,7,9,0.5,0.6
2024-02-10T1600,3402A,109.5422,24.3996,柳州市,市二中,,32,32,61,18,48,81,,62,62,6,8,6,8,0.6,0.7
2024-02-10T1600,2307A,116.5079,31.737,六安市,监测大楼,细颗粒物(PM2.5),53,42,77,37,82,95,,90,90,10,14,7,10,0.8,0.8
2024-02-10T1600,2308A,116.4738,31.7643,六安市,皖西学院,,45,45,102,31,96,97,,90,90,10,15,6,12,0.7,0.7
2024-02-10T1600,2309A,116.4996,31.7905,六安市,朝阳厂,,49,45,90,34,97,96,,84,84,4,12,7,11,0.6,0.7
2024-02-10T1600,2310A,116.5567,31.7886,六安市,开发区,颗粒物(PM10),54,58,115,30,88,95,,76,76,9,16,5,7,0.7,0.7
2024-02-10T1600,2577A,104.83,26.5917,六盘水市,黄土坡,,33,16,66,5,54,104,,88,88,3,13,9,17,0.3,0.7
2024-02-10T1600,2578A,104.89,26.5939,六盘水市,水钢,,34,15,60,5,45,106,,82,82,1,25,5,34,0.2,1.5
2024-02-10T1600,2579A,104.8475,26.5894,六盘水市,民中,,34,13,73,2,67,106,,87,87,2,20,6,19,0.2,0.7
2024-02-10T1600,2580A,104.9544,26.5506,六盘水市,双水,,33,19,69,10,55,105,,81,81,4,12,7,14,0.1,0.8
2024-02-10T1600,2336A,117.0217,25.1033,龙岩市,龙岩市监测站,,30,20,53,3,51,93,,67,67,1,4,3,19,0.2,0.5
2024-02-10T1600,2337A,117.0258,25.0661,龙岩市,闽西职业技术学院,,30,15,55,6,57,94,,67,67,2,4,2,16,0.3,0.6
2024-02-10T1600,2338A,117.0196,25.0306,龙岩市,龙岩学院,,28,21,47,7,41,87,,60,60,2,5,5,11,0.4,0.7
2024-02-10T1600,2885A,104.9339,33.3826,陇南市,滨江中学,,39,38,202,27,161,84,,57,57,8,34,4,42,0.4,1.4
2024-02-10T1600,3247A,104.955,33.371,陇南市,市总工会,,35,35,140,22,102,91,,63,63,4,22,4,24,0.4,0.8
2024-02-10T1600,2487A,111.9589,27.8901,娄底市,电视发射台,细颗粒物(PM2.5),137,129,85,104,65,76,,56,56,16,7,15,6,1.5,0.9
2024-02-10T1600,2488A,111.9975,27.725,娄底市,市监测站,细颗粒物(PM2.5),212,180,490,162,416,101,,38,38,10,39,22,20,1.0,2.9
2024-02-10T1600,2489A,112.0194,27.7314,娄底市,市委党校,细颗粒物(PM2.5),211,196,416,161,347,85,,28,28,13,33,18,12,0.8,2
2024-02-10T1600,2490A,111.9561,27.7569,娄底市,涟钢,细颗粒物(PM2.5),264,251,399,214,338,78,,27,27,18,24,23,14,1.4,1.9
2024-02-10T1600,2491A,111.9892,27.7044,娄底市,市政府,细颗粒物(PM2.5),202,182,422,152,337,93,,40,40,7,24,14,11,0.8,1.6
2024-02-10T1600,1893A,105.4324,28.9634,泸州市,九狮山,细颗粒物(PM2.5),73,93,166,53,117,108,,60,60,7,11,10,8,0.4,0.5
2024-02-10T1600,1894A,105.4427,28.9063,泸州市,小市上码头,细颗粒物(PM2.5),77,56,93,56,98,91,,54,54,10,14,8,9,0.6,0.8
2024-02-10T1600,1895A,105.4241,28.8573,泸州市,兰田宪桥,细颗粒物(PM2.5),94,85,132,70,119,94,,53,53,10,19,9,7,0.5,0.8
2024-02-10T1600,1896A,105.4379,28.8833,泸州市,市环监站,细颗粒物(PM2.5),85,79,112,63,97,90,,48,48,3,13,6,6,0.6,0.7
2024-02-10T1600,3490A,105.3617,28.7703,泸州市,纳溪区环保局,细颗粒物(PM2.5),79,72,153,58,121,103,,53,53,6,18,11,7,0.8,1.1
2024-02-10T1600,2183A,111.1406,37.5211,吕梁市,环保局,颗粒物(PM10),116,182,188,46,112,89,,58,58,10,24,3,10,0.3,0.6
2024-02-10T1600,2185A,111.1297,37.5136,吕梁市,自来水公司,颗粒物(PM10),114,177,219,47,149,94,,61,61,9,26,4,16,0.3,0.7
2024-02-10T1600,2867A,111.1283,37.51,吕梁市,马茂庄小学,颗粒物(PM10),124,197,242,46,146,91,,57,57,8,28,1,14,0.2,0.6
2024-02-10T1600,1812A,112.3931,34.6516,洛阳市,市委党校,颗粒物(PM10),114,177,348,39,280,84,,62,62,5,30,6,41,0.3,0.8
2024-02-10T1600,1814A,112.4657,34.6871,洛阳市,豫西宾馆,颗粒物(PM10),130,210,349,42,220,93,,66,66,,43,6,35,0,0.5
2024-02-10T1600,1815A,112.494,34.6886,洛阳市,河南林校,颗粒物(PM10),123,196,326,46,243,95,,67,67,3,33,5,29,0.5,1
2024-02-10T1600,1816A,112.3844,34.623,洛阳市,开发区管委会,颗粒物(PM10),113,176,256,33,187,88,,66,66,1,19,3,34,0.4,0.7
2024-02-10T1600,1817A,112.4267,34.6258,洛阳市,市委新办公区,颗粒物(PM10),113,176,261,50,241,89,,68,68,4,25,4,21,0.4,0.8
2024-02-10T1600,3340A,112.6005,34.6326,洛阳市,伊滨,颗粒物(PM10),121,191,302,29,200,90,,67,67,6,22,3,20,0.3,0.7
2024-02-10T1600,3341A,112.4951,34.6332,洛阳市,中移产业园,颗粒物(PM10),129,208,258,48,213,89,,69,69,6,24,6,29,0.4,0.8
2024-02-10T1600,3593A,112.5736,34.8993,洛阳市,吉利监测站,颗粒物(PM10),111,172,118,34,67,91,,77,77,5,13,5,10,0.3,0.5
2024-02-10T1600,3635A,112.3677,34.662,洛阳市,河科大西苑校区,颗粒物(PM10),131,212,342,36,244,91,,64,64,3,33,1,38,0,0.4
2024-02-10T1600,3636A,112.4388,34.6781,洛阳市,英才小学,颗粒物(PM10),131,212,324,42,285,94,,64,64,4,34,3,39,0.3,0.9
2024-02-10T1600,2399A,114.051,33.5699,漯河市,三五一五工厂,细颗粒物(PM2.5),172,142,199,130,198,85,,78,78,14,20,14,19,0.8,0.9
2024-02-10T1600,2400A,114.0055,33.5698,漯河市,漯河大学,细颗粒物(PM2.5),147,136,165,112,163,92,,81,81,3,8,12,15,0.9,0.9
2024-02-10T1600,2401A,114.0138,33.5828,漯河市,市水利局,细颗粒物(PM2.5),153,151,196,117,176,90,,82,82,10,13,14,18,0.8,0.9
2024-02-10T1600,3478A,113.9749,33.5664,漯河市,市图书馆,细颗粒物(PM2.5),140,156,168,107,150,87,,78,78,16,16,17,18,0.7,0.7
2024-02-10T1600,3479A,114.0967,33.5906,漯河市,召陵区卫健委,细颗粒物(PM2.5),159,156,229,121,197,87,,75,75,11,16,12,20,0.8,0.8
2024-02-10T1600,1798A,118.5092,31.6837,马鞍山市,湖东路四小,细颗粒物(PM2.5),88,90,148,65,106,117,,105,105,16,23,12,15,0.9,1.1
2024-02-10T1600,1799A,118.5024,31.6449,马鞍山市,开发区,细颗粒物(PM2.5),87,75,128,64,113,117,,105,105,20,25,10,12,0.8,1
2024-02-10T1600,1800A,118.5228,31.7231,马鞍山市,慈湖,细颗粒物(PM2.5),93,86,136,69,116,117,,100,100,19,30,11,13,0.7,0.9
2024-02-10T1600,1802A,118.6245,31.7241,马鞍山市,濮塘,细颗粒物(PM2.5),72,78,76,52,60,110,,,,12,13,11,11,0.7,0.9
2024-02-10T1600,3633A,118.4918,31.6809,马鞍山市,雨山,细颗粒物(PM2.5),90,82,150,67,117,120,,106,106,18,28,13,17,0.6,0.9
2024-02-10T1600,1686A,111.0286,21.4688,茂名市,电白南海,细颗粒物(PM2.5),64,70,105,46,80,81,,61,61,8,11,15,20,0.8,1.1
2024-02-10T1600,1687A,110.9294,21.6533,茂名市,茂石化七小,,49,39,75,34,68,84,,63,63,8,11,14,17,1.0,1.3
2024-02-10T1600,1688A,110.9107,21.6687,茂名市,健康路,,42,39,70,29,58,80,,60,60,6,9,11,18,0.8,1.1
2024-02-10T1600,1689A,110.8592,21.6828,茂名市,高岭,,42,34,72,29,64,74,,56,56,5,8,10,23,0.7,0.8
2024-02-10T1600,3450A,111.01,21.5165,茂名市,电白水东,颗粒物(PM10),69,88,82,46,70,81,,64,64,7,10,10,13,0.8,0.9
2024-02-10T1600,2539A,104.0308,30.0478,眉山市,黑龙滩水库,细颗粒物(PM2.5),70,62,72,51,53,124,,90,90,4,4,5,7,0.7,0.7
2024-02-10T1600,2540A,103.8416,30.0874,眉山市,气象局,细颗粒物(PM2.5),67,62,173,48,164,114,,70,70,8,21,11,19,0.8,0.9
2024-02-10T1600,3137A,103.8578,30.0744,眉山市,市委党校,细颗粒物(PM2.5),73,73,163,53,139,111,,68,68,6,22,9,10,0.7,0.8
2024-02-10T1600,3148A,103.8291,30.0564,眉山市,区人社局,细颗粒物(PM2.5),79,,175,58,179,111,,64,64,14,31,9,12,0.6,0.7
2024-02-10T1600,1690A,116.1231,24.3284,梅州市,梅江月梅,,28,28,55,19,57,82,,69,69,2,5,8,12,0.6,0.8
2024-02-10T1600,1691A,116.0797,24.2719,梅州市,梅县新城,,32,32,71,22,70,87,,72,72,4,7,6,9,0.4,0.6
2024-02-10T1600,1692A,116.1248,24.2654,梅州市,环境监控中心,,40,40,78,27,71,80,,58,58,4,9,5,7,0.5,0.7
2024-02-10T1600,3315A,116.1233,24.2991,梅州市,梅龙,,36,,59,25,57,81,,64,64,6,8,6,9,0.5,0.7
2024-02-10T1600,1878A,104.7778,31.4741,绵阳市,富乐山,细颗粒物(PM2.5),123,107,128,93,114,117,,77,77,10,13,8,7,0.8,0.9
2024-02-10T1600,1879A,104.7563,31.4535,绵阳市,市人大,细颗粒物(PM2.5),95,123,165,71,131,110,,68,68,15,28,6,6,0.7,0.9
2024-02-10T1600,1880A,104.6697,31.4668,绵阳市,高新区自来水公司,细颗粒物(PM2.5),135,,178,103,153,118,,74,74,11,26,9,8,0.8,1
2024-02-10T1600,1881A,104.7287,31.5075,绵阳市,三水厂,细颗粒物(PM2.5),145,119,192,111,183,118,,66,66,8,28,7,7,0.9,1.3
2024-02-10T1600,3491A,104.69,31.5322,绵阳市,西科大附属小学,细颗粒物(PM2.5),139,113,162,106,150,119,,73,73,14,22,9,9,0.6,1
2024-02-10T1600,3492A,104.5648,31.5343,绵阳市,安州区旅游局,细颗粒物(PM2.5),127,105,182,96,162,112,,75,75,13,26,8,7,0.9,1.2
2024-02-10T1600,1784A,129.61,44.561,牡丹江市,环保大楼,细颗粒物(PM2.5),65,,219,47,168,102,,90,90,16,30,17,49,0.5,0.9
2024-02-10T1600,1785A,129.6115,44.5782,牡丹江市,文化广场,细颗粒物(PM2.5),82,67,275,60,215,94,,85,85,19,32,21,54,0.6,0.9
2024-02-10T1600,1786A,129.5904,44.5963,牡丹江市,第一医院,细颗粒物(PM2.5),59,51,311,42,262,90,,77,77,19,50,18,54,0.6,1.1
2024-02-10T1600,1787A,129.6364,44.6075,牡丹江市,机车工厂,细颗粒物(PM2.5),54,44,203,38,155,75,,83,83,36,38,15,23,0.4,0.8
2024-02-10T1600,1788A,129.6386,44.5462,牡丹江市,第一中学,,49,48,107,34,90,104,,90,90,8,22,16,21,0.5,0.9
2024-02-10T1600,2531A,105.0703,29.61,内江市,市监测站,细颗粒物(PM2.5),74,58,218,54,233,107,,60,60,11,28,10,13,0.8,1
2024-02-10T1600,2532A,105.0717,29.5947,内江市,东兴区政府,细颗粒物(PM2.5),68,,213,49,215,107,,61,61,4,19,10,12,0.7,0.9
2024-02-10T1600,2533A,105.0653,29.5817,内江市,内江二中,细颗粒物(PM2.5),104,,232,78,248,108,,62,62,3,19,8,9,0.8,1
2024-02-10T1600,2534A,105.0406,29.5822,内江市,内江日报社,细颗粒物(PM2.5),102,,235,76,241,110,,59,59,6,28,8,10,0.8,1
2024-02-10T1600,2628A,92.0657,31.4846,那曲市,那曲监测站,,28,11,41,5,28,88,,63,63,6,11,4,9,0.4,1
2024-02-10T1600,3128A,92.0506,31.4797,那曲市,那曲会议中心,,31,7,40,1,24,97,,69,69,2,14,6,9,0.3,0.8
2024-02-10T1600,1290A,115.8931,28.6843,南昌市,省外办,细颗粒物(PM2.5),100,89,146,75,126,94,,73,73,6,14,7,8,0.8,0.9
2024-02-10T1600,1291A,115.8886,28.7003,南昌市,省林业公司,细颗粒物(PM2.5),77,63,122,56,109,94,,71,71,14,16,5,8,0.8,1
2024-02-10T1600,1292A,115.8126,28.7442,南昌市,林科所,细颗粒物(PM2.5),52,39,85,36,75,103,,76,76,3,10,8,9,0.6,0.8
2024-02-10T1600,1294A,115.8518,28.687,南昌市,建工学校,细颗粒物(PM2.5),103,,156,77,123,100,,71,71,5,14,7,9,0.7,0.8
2024-02-10T1600,1295A,115.8921,28.6424,南昌市,象湖,细颗粒物(PM2.5),97,96,172,72,138,104,,75,75,9,17,8,9,0.8,0.9
2024-02-10T1600,1296A,115.7423,28.7996,南昌市,武术学校,细颗粒物(PM2.5),74,,38,54,43,101,,68,68,8,5,11,8,0.8,0.9
2024-02-10T1600,1298A,115.9314,28.6842,南昌市,省站,细颗粒物(PM2.5),95,90,170,71,133,96,,73,73,8,18,9,11,0.7,0.9
2024-02-10T1600,3046A,115.9084,28.6062,南昌市,机电学校,细颗粒物(PM2.5),94,80,208,70,180,104,,73,73,4,13,8,13,0.8,1.1
2024-02-10T1600,3690A,115.9721,28.7031,南昌市,外国语学校,细颗粒物(PM2.5),97,,156,72,150,90,,68,68,9,19,6,10,0.5,0.7
2024-02-10T1600,1905A,106.056,30.8064,南充市,西山风景区,细颗粒物(PM2.5),72,,142,52,145,104,,65,65,7,19,3,6,0.8,1
2024-02-10T1600,1906A,106.0789,30.8023,南充市,南充市委,细颗粒物(PM2.5),64,56,194,46,168,98,,51,51,9,29,5,6,0.5,0.9
2024-02-10T1600,1907A,106.1031,30.8217,南充市,南充炼油厂,细颗粒物(PM2.5),74,64,196,54,169,100,,51,51,6,23,5,6,0.5,0.7
2024-02-10T1600,1908A,106.1064,30.7856,南充市,高坪区监测站,细颗粒物(PM2.5),75,80,170,55,136,102,,60,60,7,25,7,7,0.6,0.8
2024-02-10T1600,1909A,106.0642,30.7636,南充市,嘉陵区环保局,细颗粒物(PM2.5),67,52,193,48,173,97,,56,56,11,29,3,4,0.7,1
2024-02-10T1600,1910A,106.1087,30.8388,南充市,市环境监测站,细颗粒物(PM2.5),78,67,180,57,146,106,,64,64,9,27,7,8,0.5,0.8
2024-02-10T1600,1151A,118.8086,32.1065,南京市,迈皋桥,细颗粒物(PM2.5),79,79,127,58,104,94,,77,77,10,27,5,6,0.7,0.8
2024-02-10T1600,1152A,118.7538,32.0551,南京市,草场门,细颗粒物(PM2.5),79,80,126,58,103,115,,94,94,15,29,6,9,0.7,0.9
2024-02-10T1600,1153A,118.7794,32.0745,南京市,山西路,细颗粒物(PM2.5),79,80,118,58,104,84,,72,72,19,31,8,11,0.7,1
2024-02-10T1600,1154A,118.7752,32.0023,南京市,中华门,细颗粒物(PM2.5),64,68,126,46,112,113,,92,92,12,28,13,16,0.8,1.1
2024-02-10T1600,1155A,118.8109,32.0309,南京市,瑞金路,,,73,143,53,119,104,,82,82,,34,,8,0.9,1.5
2024-02-10T1600,1156A,118.7997,32.0754,南京市,玄武湖,细颗粒物(PM2.5),80,81,135,59,101,111,,86,86,8,21,11,14,0.4,0.9
2024-02-10T1600,1157A,118.6414,32.0931,南京市,浦口,颗粒物(PM10),52,53,138,17,87,99,,85,85,12,20,5,10,0.5,0.8
2024-02-10T1600,1158A,118.7356,31.9996,南京市,奥体中心,细颗粒物(PM2.5),77,77,137,56,112,116,,90,90,8,29,11,15,0.8,1.3
2024-02-10T1600,1159A,118.9125,32.1028,南京市,仙林大学城,细颗粒物(PM2.5),70,68,119,51,98,110,,90,90,10,24,8,12,0.8,1.4
2024-02-10T1600,3422A,118.8436,31.9198,南京市,江宁彩虹桥,细颗粒物(PM2.5),70,68,152,51,118,119,,104,104,7,18,6,11,0.6,0.9
2024-02-10T1600,3423A,119.0138,31.6494,南京市,溧水永阳,细颗粒物(PM2.5),88,68,151,65,144,122,,100,100,12,17,3,5,0.7,0.9
2024-02-10T1600,3424A,118.879,31.3302,南京市,高淳老职中,细颗粒物(PM2.5),72,55,137,52,135,116,,97,97,7,14,7,11,0.6,0.8
2024-02-10T1600,3427A,118.8554,32.3578,南京市,六合雄州,细颗粒物(PM2.5),85,106,141,63,105,113,,99,99,11,15,6,7,0.8,0.9
2024-02-10T1600,1401A,108.3103,22.7881,南宁市,二十一中,细颗粒物(PM2.5),53,44,152,37,142,92,,68,68,7,19,8,15,0.7,0.7
2024-02-10T1600,1402A,108.3141,22.8528,南宁市,北湖,,48,35,165,33,159,89,,72,72,2,15,6,14,0.7,0.7
2024-02-10T1600,1403A,108.3206,22.8225,南宁市,市监测站,细颗粒物(PM2.5),63,49,122,45,91,90,,71,71,6,20,8,12,0.9,0.9
2024-02-10T1600,1404A,108.3829,22.8037,南宁市,大自然花园,细颗粒物(PM2.5),54,,109,38,96,87,,64,64,8,16,7,9,0.6,0.6
2024-02-10T1600,1405A,108.4394,22.7904,南宁市,仙葫,细颗粒物(PM2.5),64,,249,46,223,79,,62,62,11,20,8,16,0.8,0.8
2024-02-10T1600,1406A,108.2397,22.8467,南宁市,区农职院,细颗粒物(PM2.5),59,43,86,42,67,92,,70,70,8,14,9,12,0.4,0.5
2024-02-10T1600,1407A,108.3275,22.735,南宁市,英华嘉园,,50,46,136,35,124,85,,63,63,8,17,7,11,0.6,0.6
2024-02-10T1600,1408A,108.2257,22.7757,南宁市,沙井镇街道办,细颗粒物(PM2.5),63,,81,45,65,89,,66,66,4,12,2,5,0.7,0.6
2024-02-10T1600,3401A,108.4834,22.7618,南宁市,红星社区,,46,,235,32,218,86,,63,63,6,17,10,27,0.7,0.8
2024-02-10T1600,2332A,118.1681,26.6369,南平市,南平市监测站,细颗粒物(PM2.5),64,49,109,46,105,82,,56,56,6,9,8,29,0.8,0.8
2024-02-10T1600,2333A,118.1825,26.6489,南平市,南平铝业有限公司,细颗粒物(PM2.5),58,43,128,41,104,74,,52,52,4,8,9,23,0.6,0.6
2024-02-10T1600,2334A,118.1756,26.6272,南平市,南平七中,,,44,80,40,90,83,,60,60,,4,7,21,,0.9
2024-02-10T1600,1168A,120.9098,31.9663,南通市,狼山街道,细颗粒物(PM2.5),114,95,171,86,159,102,,92,92,39,29,22,13,1.4,1.3
2024-02-10T1600,1169A,120.86,32.0005,南通市,虹桥,细颗粒物(PM2.5),110,97,190,83,172,116,,85,85,21,33,12,15,1.0,1.2
2024-02-10T1600,1170A,120.87,32.02,南通市,城中,细颗粒物(PM2.5),110,103,196,83,162,114,,92,92,26,31,18,16,1.4,1.5
2024-02-10T1600,1171A,120.94,31.93,南通市,星湖花园,细颗粒物(PM2.5),103,96,158,77,130,107,,88,88,27,32,14,14,1.0,1.2
2024-02-10T1600,1172A,120.81,32.0417,南通市,紫琅学院,细颗粒物(PM2.5),99,91,196,74,168,121,,99,99,20,30,13,15,1.0,1.2
2024-02-10T1600,3432A,120.9348,31.9883,南通市,环境教育馆,细颗粒物(PM2.5),118,105,168,89,152,112,,93,93,41,31,19,15,1.3,1.2
2024-02-10T1600,2404A,112.5224,33.0122,南阳市,瓦房庄,细颗粒物(PM2.5),179,136,182,135,190,90,,68,67,13,17,14,27,0.7,0.7
2024-02-10T1600,2405A,112.5003,32.9735,南阳市,汉画馆,细颗粒物(PM2.5),170,145,190,129,182,84,,66,66,13,16,,20,1.0,1
2024-02-10T1600,2406A,112.5573,33.027,南阳市,气象站,细颗粒物(PM2.5),178,135,170,134,182,89,,69,69,24,22,15,22,0.7,0.8
2024-02-10T1600,2407A,112.5481,32.9689,南阳市,理工学院,细颗粒物(PM2.5),142,114,175,108,172,91,,69,69,8,15,13,26,0.7,0.8
2024-02-10T1600,4008A,112.5234,32.9922,南阳市,卧龙区政府,细颗粒物(PM2.5),156,125,181,119,173,91,,66,66,15,19,12,27,0.7,0.8
2024-02-10T1600,1234A,121.8358,29.911,宁波市,区环保大楼,细颗粒物(PM2.5),68,68,149,49,119,113,,92,92,7,19,7,9,0.6,0.9
2024-02-10T1600,1235A,121.56,29.82,宁波市,万里学院,细颗粒物(PM2.5),67,55,125,48,102,108,,89,89,18,20,7,7,0.5,0.8
2024-02-10T1600,1236A,121.713,29.9572,宁波市,龙赛医院,细颗粒物(PM2.5),90,76,193,67,162,107,,95,95,20,22,6,7,0.7,1
2024-02-10T1600,1239A,121.633,29.7733,宁波市,钱湖水厂,细颗粒物(PM2.5),54,44,100,38,83,108,,88,88,8,7,6,5,0.7,1
2024-02-10T1600,1240A,121.5856,29.8635,宁波市,太古小学,细颗粒物(PM2.5),83,,111,61,101,116,,90,90,21,22,9,7,0.6,1
2024-02-10T1600,1241A,121.524,29.8674,宁波市,市环境监测中心,细颗粒物(PM2.5),58,53,131,41,96,116,,91,91,14,23,7,8,0.6,0.9
2024-02-10T1600,2871A,121.6147,29.9017,宁波市,万里国际学校,细颗粒物(PM2.5),84,70,118,62,106,114,,94,94,21,20,11,9,0.8,1
2024-02-10T1600,3710A,121.5594,29.8975,宁波市,白沙活动中心,细颗粒物(PM2.5),88,76,147,65,118,119,,89,89,20,24,11,7,0.8,1.1
2024-02-10T1600,2341A,119.5388,26.6612,宁德市,宁德市监测站,颗粒物(PM10),57,64,107,38,94,92,,68,68,6,10,6,14,0.4,0.7
2024-02-10T1600,3209A,119.5231,26.6562,宁德市,宁德一中,细颗粒物(PM2.5),67,,103,48,84,95,,72,72,9,13,5,17,0.5,0.8
2024-02-10T1600,2618A,98.8601,25.8567,怒江傈僳族自治州,州监测站,,29,22,47,13,35,91,,70,70,3,6,9,11,0.4,0.5
2024-02-10T1600,2619A,98.8546,25.8417,怒江傈僳族自治州,泸水一中,,34,34,68,19,63,84,,64,64,6,11,8,12,0.4,0.5
2024-02-10T1600,1888A,101.6891,26.571,攀枝花市,弄弄坪,,35,,41,24,30,109,,82,82,12,16,16,20,1.0,0.7
2024-02-10T1600,1889A,101.5769,26.5928,攀枝花市,河门口,,36,32,57,25,35,109,,76,76,8,22,10,41,0.6,1.7
2024-02-10T1600,1890A,101.7169,26.585,攀枝花市,炳草岗,,35,18,35,15,23,109,,80,80,8,13,16,34,0.9,0.9
2024-02-10T1600,1891A,101.7369,26.5008,攀枝花市,仁和,,33,24,48,21,39,104,,78,78,5,12,8,17,0.7,0.8
2024-02-10T1600,2835A,101.7227,26.567,攀枝花市,四十中小,,36,23,28,19,18,113,,90,90,5,10,8,31,0.5,0.6
2024-02-10T1600,1604A,122.0303,41.1489,盘锦市,开发区,颗粒物(PM10),63,75,225,40,190,98,,85,85,10,30,11,25,0.5,1.3
2024-02-10T1600,1605A,122.0485,41.0883,盘锦市,兴隆台,细颗粒物(PM2.5),90,79,290,67,249,97,,81,81,11,35,13,36,0.6,1.5
2024-02-10T1600,1606A,121.8297,41.1028,盘锦市,新生街道,细颗粒物(PM2.5),97,100,159,72,132,92,,74,74,16,38,14,18,0.6,1.2
2024-02-10T1600,1832A,113.3257,33.742,平顶山市,新华旅馆,颗粒物(PM10),120,190,558,39,587,96,,67,67,3,33,9,35,0.2,0.9
2024-02-10T1600,1833A,113.2919,33.737,平顶山市,规划设计院,颗粒物(PM10),108,166,518,40,561,107,,76,76,4,24,12,31,0.3,1.2
2024-02-10T1600,1834A,113.182,33.774,平顶山市,平顶山工学院,颗粒物(PM10),114,177,222,41,164,100,,70,70,9,17,6,17,0.5,0.9
2024-02-10T1600,3204A,113.3025,33.73,平顶山市,规划局,颗粒物(PM10),135,219,235,54,556,87,,56,56,8,33,8,31,0.4,1.1
2024-02-10T1600,3594A,112.8867,33.9116,平顶山市,石龙区,颗粒物(PM10),177,303,132,46,90,98,,80,80,10,15,7,14,0.4,0.8
2024-02-10T1600,2656A,106.6692,35.5461,平凉市,聚贤嘉苑,颗粒物(PM10),70,89,95,18,28,94,,85,85,9,14,8,10,0.2,0.3
2024-02-10T1600,2657A,106.7021,35.5307,平凉市,博物馆,颗粒物(PM10),60,69,98,13,38,93,,84,84,4,13,10,15,0.0,0.5
2024-02-10T1600,2347A,114.0997,27.5002,萍乡市,武功山,细颗粒物(PM2.5),53,39,85,37,71,96,,68,68,8,9,7,10,0.8,0.7
2024-02-10T1600,2348A,113.8385,27.6434,萍乡市,中医院,,48,35,215,33,171,97,,54,54,17,25,11,15,1.6,2.3
2024-02-10T1600,2349A,113.8493,27.6253,萍乡市,市政府车库,细颗粒物(PM2.5),79,,194,58,173,96,,57,57,15,17,20,17,1.5,1.5
2024-02-10T1600,2350A,113.8676,27.6435,萍乡市,市环保局,细颗粒物(PM2.5),78,62,233,57,199,97,,55,55,12,21,14,13,1.3,1.9
2024-02-10T1600,2351A,113.866,27.6198,萍乡市,安源区政府,细颗粒物(PM2.5),68,77,227,49,174,100,,60,60,24,20,9,17,1.3,1.4
2024-02-10T1600,2319A,119.0141,25.4325,莆田市,荔城区仓后路,细颗粒物(PM2.5),75,59,89,55,87,109,,75,75,8,10,8,8,1.2,1.1
2024-02-10T1600,2320A,119.0015,25.4553,莆田市,莆田市监测站,细颗粒物(PM2.5),65,52,51,47,47,108,,72,72,11,9,11,9,0.9,0.7
2024-02-10T1600,2321A,119.1119,25.4561,莆田市,涵江区六中,细颗粒物(PM2.5),68,50,102,49,99,106,,75,75,4,9,10,10,1.1,1.1
2024-02-10T1600,2322A,119.1013,25.3215,莆田市,秀屿区政府,细颗粒物(PM2.5),59,44,85,42,89,103,,81,81,5,9,6,9,0.9,1
2024-02-10T1600,2392A,115.0312,35.7636,濮阳市,环保局,细颗粒物(PM2.5),239,232,488,189,370,108,,80,80,16,33,12,29,0.9,1.1
2024-02-10T1600,2394A,115.0574,35.7609,濮阳市,油田运输公司,细颗粒物(PM2.5),249,246,430,199,359,112,,84,84,12,27,14,34,1.3,1.4
2024-02-10T1600,2395A,115.0866,35.7754,濮阳市,油田物探公司,细颗粒物(PM2.5),244,231,419,194,357,109,,78,78,13,28,12,26,1.1,1.2
2024-02-10T1600,3021A,115,35.7668,濮阳市,濮水河管理处,细颗粒物(PM2.5),234,242,489,184,384,113,,78,78,15,33,14,17,1.1,1.2
2024-02-10T1600,2601A,100.98,22.7633,普洱市,市环保局,,33,33,62,23,49,49,,55,43,5,7,5,8,0.7,0.6
2024-02-10T1600,2602A,100.9817,22.8322,普洱市,普洱第二中学,,27,27,70,6,46,53,,46,45,4,13,4,7,0.8,0.7
2024-02-10T1600,2262A,131.0518,45.8751,七台河市,新一中,细颗粒物(PM2.5),74,61,80,54,69,124,,110,110,11,13,14,13,0.9,0.9
2024-02-10T1600,3345A,131.0577,45.7879,七台河市,中波台,细颗粒物(PM2.5),77,65,136,56,118,88,,87,86,37,31,25,18,1.0,1.2
2024-02-10T1600,3637A,131.0176,45.7761,七台河市,人民广场,细颗粒物(PM2.5),114,92,402,86,240,90,,80,80,38,40,31,55,1.2,1.3
2024-02-10T1600,3684A,130.8781,45.8222,七台河市,新建矿广场,细颗粒物(PM2.5),87,88,143,64,114,116,,93,93,20,37,17,19,0.8,1.1
2024-02-10T1600,1779A,123.9305,47.3636,齐齐哈尔市,安居小区,,28,28,191,12,89,78,,70,70,7,18,8,22,0.4,0.6
2024-02-10T1600,1780A,123.9488,47.3386,齐齐哈尔市,中心广场,,38,28,232,26,170,73,,67,67,10,21,8,25,0.4,0.8
2024-02-10T1600,1781A,123.9483,47.3227,齐齐哈尔市,农牧车辆厂,,36,31,119,25,161,76,,70,70,7,17,9,26,0.4,0.6
2024-02-10T1600,1783A,123.945,47.2988,齐齐哈尔市,市环境监测站,,35,31,226,24,212,79,,68,68,6,22,9,25,0.4,0.6
2024-02-10T1600,3662A,123.6333,47.2075,齐齐哈尔市,富区青少年活动中心,,35,35,185,20,146,71,,63,63,10,19,11,30,0.5,0.7
2024-02-10T1600,2591A,107.9783,26.5747,黔东南苗族侗族自治州,市环境监测站,细颗粒物(PM2.5),60,,196,43,173,97,,47,47,5,16,8,25,0.2,0.7
2024-02-10T1600,2881A,107.8908,26.5311,黔东南苗族侗族自治州,凯里学院,细颗粒物(PM2.5),64,46,112,46,90,104,,47,47,2,8,6,10,0.5,0.8
2024-02-10T1600,2593A,107.5228,26.2403,黔南布依族苗族自治州,小围寨,细颗粒物(PM2.5),77,56,121,56,114,89,,46,46,6,10,8,10,0.3,0.6
2024-02-10T1600,3538A,107.5175,26.2978,黔南布依族苗族自治州,沙坝,细颗粒物(PM2.5),52,46,145,36,134,93,,48,48,4,10,6,15,0.4,0.8
2024-02-10T1600,2589A,104.9022,25.0925,黔西南布依族苗族自治州,场坝街,,37,37,109,20,104,107,,70,70,5,13,2,11,0.4,0.8
2024-02-10T1600,2590A,104.8811,25.0992,黔西南布依族苗族自治州,坪东大道,,34,21,122,12,112,106,,69,69,6,13,5,8,0.4,0.6
2024-02-10T1600,2502A,108.6236,21.9667,钦州市,市环保站,,32,31,97,22,79,83,,73,73,6,12,7,17,1.0,1.2
2024-02-10T1600,2503A,108.6549,21.9481,钦州市,沙埠小学,,46,38,111,32,95,84,,73,73,6,10,8,16,0.8,0.9
2024-02-10T1600,2504A,108.5989,21.7431,钦州市,港区一小,细颗粒物(PM2.5),52,45,111,36,82,86,,73,73,7,13,8,18,0.7,0.8
2024-02-10T1600,3404A,108.5959,21.9633,钦州市,北职校,,50,37,98,35,84,84,,73,73,4,8,8,17,0.8,0.8
2024-02-10T1600,1042A,119.5134,39.8207,秦皇岛市,北戴河环保局,细颗粒物(PM2.5),192,180,205,144,166,86,,78,78,25,42,19,17,0.6,2.5
2024-02-10T1600,1043A,119.7493,40.0116,秦皇岛市,第一关,细颗粒物(PM2.5),129,116,92,98,76,92,,84,84,14,22,16,18,0.5,0.9
2024-02-10T1600,1044A,119.5897,39.9499,秦皇岛市,监测站,细颗粒物(PM2.5),193,170,235,145,211,94,,77,77,16,44,21,24,0.8,1.5
2024-02-10T1600,1046A,119.5251,39.9041,秦皇岛市,建设大厦,细颗粒物(PM2.5),160,174,235,122,166,91,,79,79,10,31,17,21,0.6,1.3
2024-02-10T1600,3132A,119.610547,39.943889,秦皇岛市,文明里,细颗粒物(PM2.5),188,197,349,141,245,88,,72,72,21,52,20,30,0.7,1.4
2024-02-10T1600,1307A,120.6659,36.2403,青岛市,仰口,细颗粒物(PM2.5),216,193,189,166,163,132,,119,114,35,27,8,11,1.7,1.5
2024-02-10T1600,1310A,120.4134,36.0658,青岛市,市南区东部子站,细颗粒物(PM2.5),98,100,386,73,326,112,,86,86,15,40,12,25,1.0,1.7
2024-02-10T1600,1311A,120.3664,36.1032,青岛市,四方区子站,细颗粒物(PM2.5),117,100,386,88,380,115,,87,87,25,54,10,32,1.2,2
2024-02-10T1600,1312A,120.2994,36.054,青岛市,市南区西部子站,细颗粒物(PM2.5),104,112,276,78,225,114,,95,95,14,36,13,16,1.1,1.8
2024-02-10T1600,1313A,120.4581,36.0858,青岛市,崂山区子站,细颗粒物(PM2.5),98,97,354,73,316,118,,96,96,9,32,11,22,1.0,1.7
2024-02-10T1600,1314A,120.1983,35.9608,青岛市,黄岛区子站,细颗粒物(PM2.5),123,122,239,93,200,94,,96,96,44,30,19,19,1.0,1.5
2024-02-10T1600,1315A,120.3999,36.3083,青岛市,城阳区子站,细颗粒物(PM2.5),80,97,445,59,259,113,,85,85,14,51,9,25,0.9,1.9
2024-02-10T1600,1966A,120.0405,35.8735,青岛市,黄岛区4号,细颗粒物(PM2.5),221,202,261,171,223,131,,108,108,21,23,16,20,1.5,1.6
2024-02-10T1600,3362A,120.5014,36.4034,青岛市,即墨2号,细颗粒物(PM2.5),97,74,457,72,388,107,,79,79,14,46,9,35,0.8,2.1
