timepoint,stationcode,longitude,latitude,area,positionname,primarypollutant,aqi,pm10,pm10_24h,pm2_5,pm2_5_24h,o3,o3_24h,o3_8h,o3_8h_24h,no2,no2_24h,so2,so2_24h,co,co_24h
2025-03-18T0500,2566A,102.1879,31.914,阿坝藏族羌族自治州,州农科所,,16,7,22,6,11,51,,,,3,11,9,9,0.1,0.1
2025-03-18T0500,2568A,102.2502,31.8896,阿坝藏族羌族自治州,马师校,,20,,14,12,13,61,,,,4,13,5,5,0.4,0.6
2025-03-18T0500,3994A,102.2165,31.9024,阿坝藏族羌族自治州,马尔康中学西区,,21,7,14,3,9,65,,,,4,10,5,5,0.3,0.4
2025-03-18T0500,2695A,80.292,41.1694,阿克苏地区,电视台,颗粒物(PM10),187,323,359,96,87,40,,,,34,29,6,6,0.8,0.6
2025-03-18T0500,2696A,80.2613,41.1551,阿克苏地区,艺术中心,颗粒物(PM10),212,358,384,91,93,34,,,,36,31,4,5,0.9,0.7
2025-03-18T0500,2204A,105.6467,38.8363,阿拉善盟,西城区西花园,,31,17,33,11,12,99,,,,6,10,10,10,0.8,0.9
2025-03-18T0500,2205A,105.6985,38.8411,阿拉善盟,蒙二幼,,30,10,22,3,7,94,,,,5,9,5,5,0.8,0.7
2025-03-18T0500,2206A,105.724,38.8516,阿拉善盟,环保局新楼,,31,11,16,3,7,97,,,,3,4,8,8,0.8,0.7
2025-03-18T0500,2708A,88.1264,47.8517,阿勒泰地区,市站,,33,24,16,7,7,104,,,,2,12,2,4,0.2,0.3
2025-03-18T0500,2630A,80.1161,32.5,阿里地区,阿里监测站,,28,9,10,3,8,87,,,,7,5,9,8,0.5,0.5
2025-03-18T0500,3192A,80.0903,32.5028,阿里地区,阿里藏医院,,30,9,10,3,5,95,,,,2,3,10,9,0.4,0.4
2025-03-18T0500,2642A,109.0318,32.6537,安康市,香溪洞,,36,36,39,18,18,40,,,,16,8,9,8,0.3,0.5
2025-03-18T0500,2644A,109.0072,32.6975,安康市,汉滨区检察院,,34,34,44,18,18,36,,,,10,13,6,8,0.5,0.5
2025-03-18T0500,4054A,109.0325,32.6913,安康市,市邮政管理局,,41,41,52,22,20,33,,,,14,19,19,11,0.3,0.5
2025-03-18T0500,2291A,117.0809,30.5177,安庆市,环科院,,49,49,35,34,22,56,,,,34,37,9,8,0.6,0.5
2025-03-18T0500,2292A,117.0331,30.5119,安庆市,马山宾馆,细颗粒物(PM2.5),57,52,35,40,23,37,,,,46,41,5,4,0.5,0.3
2025-03-18T0500,2294A,116.9896,30.6145,安庆市,安庆大学,,48,47,35,33,19,26,,,,53,24,5,6,0.4,0.3
2025-03-18T0500,3173A,117.0598,30.5351,安庆市,市人大,细颗粒物(PM2.5),52,50,33,36,22,55,,,,31,25,7,7,0.5,0.4
2025-03-18T0500,3122A,105.9606,26.2611,安顺市,伍家关,,22,7,27,6,13,69,,,,7,12,7,8,0.3,0.3
2025-03-18T0500,3123A,105.9408,26.2431,安顺市,凤凰山,,22,12,22,7,16,68,,,,9,14,20,16,0.6,0.6
2025-03-18T0500,3124A,105.9439,26.2564,安顺市,金钟山,,20,13,23,7,15,62,,,,6,11,20,14,0.4,0.4
2025-03-18T0500,3125A,105.8983,26.2481,安顺市,娄家坡,,,,22,,18,,,61,,,12,,12,,0.4
2025-03-18T0500,1818A,114.4839,36.0621,安阳市,棉研所,,,,,,,,,,,,,,,,
2025-03-18T0500,1819A,114.3551,36.1017,安阳市,红庙街,颗粒物(PM10),65,80,58,20,14,52,,,,18,13,3,5,0.5,0.7
2025-03-18T0500,1820A,114.361,36.0681,安阳市,银杏小区,,,,41,20,17,59,,,,17,16,1,3,0.3,0.3
2025-03-18T0500,3141A,114.3922,36.0878,安阳市,信访局,颗粒物(PM10),59,67,48,19,17,53,,,,29,19,4,6,0.2,0.3
2025-03-18T0500,3669A,114.4705,36.0637,安阳市,左辅环卫站,颗粒物(PM10),73,95,67,24,17,59,,,,22,12,5,6,0.2,0.3
2025-03-18T0500,3703A,114.2917,36.0949,安阳市,安钢职工学校,颗粒物(PM10),78,105,64,52,21,10,,,,47,18,2,4,0.4,0.4
2025-03-18T0500,1748A,123.044,41.1196,鞍山市,深沟寺,细颗粒物(PM2.5),73,73,62,53,46,37,,,,28,21,14,13,0.9,0.8
2025-03-18T0500,1749A,123.011,41.0931,鞍山市,太阳城,细颗粒物(PM2.5),92,94,63,68,42,37,,,,31,20,11,14,1.3,0.8
2025-03-18T0500,1750A,123.0485,41.1442,鞍山市,太平,细颗粒物(PM2.5),67,78,98,48,52,36,,,,26,27,16,14,0.7,0.8
2025-03-18T0500,1751A,122.9642,41.0971,鞍山市,铁西三道街,细颗粒物(PM2.5),65,72,81,47,50,43,,,,27,40,25,40,1.2,1.7
2025-03-18T0500,1753A,123.022,41.0821,鞍山市,明达新区,细颗粒物(PM2.5),90,87,62,67,45,40,,,,27,19,11,14,0.7,0.6
2025-03-18T0500,1754A,123.1289,41.0228,鞍山市,千山,,,,42,,19,,,69,,,12,,8,,0.7
2025-03-18T0500,4201A,122.9446,41.0826,鞍山市,兴盛南路290号,细颗粒物(PM2.5),67,71,78,48,49,38,,,,30,38,8,23,0.9,1.2
2025-03-18T0500,2195A,107.4212,40.761,巴彦淖尔市,附二中,,27,27,43,16,17,80,,,,6,8,4,6,0.5,0.5
2025-03-18T0500,2196A,107.37,40.7372,巴彦淖尔市,市环保大楼,,32,32,38,14,20,55,,,,13,8,4,5,0.3,0.3
2025-03-18T0500,1956A,86.1472,41.7538,巴音郭楞蒙古自治州,孔雀公园,颗粒物(PM10),169,287,292,65,62,1,,,,73,49,4,5,0.6,0.5
2025-03-18T0500,1957A,86.1972,41.7166,巴音郭楞蒙古自治州,棉纺厂,颗粒物(PM10),218,362,359,66,59,46,,,,15,34,3,3,0.3,0.4
2025-03-18T0500,1958A,86.2357,41.7173,巴音郭楞蒙古自治州,经济开发区,颗粒物(PM10),175,299,298,56,50,40,,,,17,17,4,4,0.2,0.2
2025-03-18T0500,2914A,106.7677,31.8794,巴中市,苏山坪,细颗粒物(PM2.5),54,56,46,38,25,36,,,,9,11,5,5,0.2,0.2
2025-03-18T0500,3181A,106.7768,31.8526,巴中市,市五中,颗粒物(PM10),58,65,44,39,23,41,,,,7,17,4,4,0.4,0.5
2025-03-18T0500,3183A,106.7418,31.8654,巴中市,圣泉水务公司,颗粒物(PM10),51,52,41,32,22,24,,,,19,17,6,6,0.5,0.4
2025-03-18T0500,3616A,106.7616,31.8344,巴中市,市中心医院,颗粒物(PM10),56,61,46,36,24,40,,,,8,13,6,7,0.3,0.4
2025-03-18T0500,2235A,122.7911,45.6077,白城市,洮北区环保局,细颗粒物(PM2.5),54,56,88,38,71,48,,,,16,22,7,5,0.7,0.7
2025-03-18T0500,2236A,122.8738,45.5725,白城市,市环保局,,29,,82,20,64,77,,,,3,22,4,6,0.4,0.6
2025-03-18T0500,2231A,126.4219,41.9171,白山市,喜丰,颗粒物(PM10),94,138,87,56,40,38,,,,20,15,15,9,1.1,1
2025-03-18T0500,2232A,126.4077,41.9419,白山市,环保局,颗粒物(PM10),68,85,73,47,40,52,,,,16,17,6,7,0.9,0.9
2025-03-18T0500,2647A,104.1724,36.5446,白银市,第三小学,,34,34,33,11,14,76,,,,8,10,9,15,0.4,0.3
2025-03-18T0500,2648A,104.1465,36.5482,白银市,动力公司,,19,17,29,12,14,59,,,,10,13,1,2,0.7,0.5
2025-03-18T0500,2512A,106.6103,23.9011,百色市,市监测站,,29,25,38,20,23,49,,,,8,10,7,7,0.6,0.5
2025-03-18T0500,2513A,106.6538,23.8859,百色市,市中心血站,,30,26,38,21,24,62,,,,6,9,8,10,0.5,0.5
2025-03-18T0500,3406A,106.6085,23.8798,百色市,祈福高中,,26,26,40,18,20,50,,,,10,10,5,6,0.5,0.5
2025-03-18T0500,2270A,117.396,32.939,蚌埠市,工人疗养院,颗粒物(PM10),53,55,59,28,27,53,,,,28,22,4,4,0.5,0.5
2025-03-18T0500,2271A,117.3605,32.9427,蚌埠市,百货大楼,颗粒物(PM10),51,52,54,27,26,51,,,,30,29,5,5,0.4,0.4
2025-03-18T0500,2273A,117.4185,32.8911,蚌埠市,蚌埠学院,,44,44,54,23,29,63,,,,22,26,4,5,0.3,0.3
2025-03-18T0500,2274A,117.3533,32.9673,蚌埠市,淮上区政府,颗粒物(PM10),58,66,56,29,31,52,,,,28,25,4,6,0.4,0.3
2025-03-18T0500,2275A,117.3145,32.8977,蚌埠市,高新区,,48,48,56,27,32,50,,,,38,30,7,6,0.4,0.3
2025-03-18T0500,3715A,117.3092,32.9314,蚌埠市,蚌埠田家炳中学,颗粒物(PM10),53,56,58,30,28,54,,,,34,29,6,6,0.5,0.4
2025-03-18T0500,1585A,109.8756,40.6532,包头市,市环境监测站,,33,24,27,9,9,13,,,,66,18,9,10,0.5,0.4
2025-03-18T0500,1587A,109.9991,40.5842,包头市,包头八中,,18,18,25,9,10,44,,,,31,15,6,6,0.4,0.4
2025-03-18T0500,1588A,109.8538,40.6821,包头市,青山宾馆,,23,22,21,15,9,28,,,,46,19,8,8,0.7,0.5
2025-03-18T0500,1589A,109.8642,40.6288,包头市,惠龙物流,,25,16,21,11,16,29,,,,50,15,6,6,0.6,0.5
2025-03-18T0500,1590A,110.0377,40.5546,包头市,东河鸿龙湾,,25,25,25,3,4,36,,,,41,16,8,7,0.6,0.5
2025-03-18T0500,3283A,109.9154,40.5685,包头市,滨河大厦,,28,18,16,9,7,17,,,,55,17,16,9,0.7,0.5
2025-03-18T0500,3419A,109.9447,40.6261,包头市,包头市委党校,,24,24,32,8,13,46,,,,28,13,6,6,0.6,0.6
2025-03-18T0500,3683A,109.8331,40.6576,包头市,昆区政府,,27,20,20,12,10,25,,,,54,16,7,7,0.6,0.5
2025-03-18T0500,1930A,107.185,34.3063,宝鸡市,庙沟村,,25,21,29,11,16,77,,,,10,10,6,7,0.2,0.3
2025-03-18T0500,1931A,107.0708,34.3017,宝鸡市,竹园沟,,21,18,33,3,16,67,,,,7,13,6,7,0.4,0.5
2025-03-18T0500,1932A,107.1906,34.3672,宝鸡市,三陆医院,,41,41,53,22,35,26,,,,30,27,5,5,0.5,0.5
2025-03-18T0500,1933A,107.1431,34.3547,宝鸡市,监测站,,26,26,46,18,30,47,,,,12,19,7,7,0.4,0.5
2025-03-18T0500,1934A,107.1186,34.3739,宝鸡市,技工学校,,30,,44,21,23,49,,,,7,13,5,5,0.8,0.8
2025-03-18T0500,1935A,107.3906,34.3528,宝鸡市,陈仓区环保局家属楼,,48,48,60,28,37,25,,,,38,36,15,20,0.4,0.5
2025-03-18T0500,1936A,107.2058,34.3497,宝鸡市,文理学院,,36,36,42,16,22,47,,,,13,19,5,6,0.4,0.4
2025-03-18T0500,1937A,107.2386,34.3622,宝鸡市,三迪小学,,34,34,46,21,27,37,,,,26,33,6,6,0.7,0.8
2025-03-18T0500,1051A,115.493,38.8632,保定市,游泳馆,,44,44,42,22,13,61,,,,18,12,5,6,0.3,0.4
2025-03-18T0500,1052A,115.5213,38.8959,保定市,华电二区,,27,27,37,17,19,70,,,,13,14,7,7,0.1,0.1
2025-03-18T0500,1053A,115.4713,38.9108,保定市,接待中心,,31,31,39,13,16,71,,,,16,16,5,3,0,0
2025-03-18T0500,1054A,115.4612,38.8416,保定市,地表水厂,颗粒物(PM10),52,54,53,19,14,64,,,,23,22,3,3,0.4,0.4
2025-03-18T0500,3581A,115.31981,38.95208,保定市,满城区生态环境分局,,48,48,36,24,11,42,,,,36,16,5,4,0.3,0.3
2025-03-18T0500,3582A,115.47694,38.76408,保定市,清苑区第二中学,,48,48,56,13,16,53,,,,28,25,7,8,0.2,0.3
2025-03-18T0500,3583A,115.62909,39.02311,保定市,徐水物探局,,23,23,34,7,6,43,,,,36,16,7,8,0.2,0.1
2025-03-18T0500,4004A,115.4202,38.8656,保定市,双鹰农机,,42,42,42,26,16,66,,,,17,13,2,2,0.5,0.5
2025-03-18T0500,4034A,115.5150,38.8590,保定市,植保所站,,,41,45,24,24,57,,,,,20,3,4,0.1,0.1
2025-03-18T0500,2594A,99.1678,25.1081,保山市,市环境监测站,细颗粒物(PM2.5),92,120,70,68,42,143,,,,10,8,10,7,0.8,0.6
2025-03-18T0500,2595A,99.1711,25.1328,保山市,市环保局,细颗粒物(PM2.5),99,111,74,74,43,145,,,,9,6,8,6,0.8,0.6
2025-03-18T0500,1866A,109.2262,21.588,北海市,牛尾岭水库,,,40,32,37,26,61,,,,,,6,7,0.6,0.7
2025-03-18T0500,1867A,109.1436,21.4086,北海市,海滩公园,颗粒物(PM10),55,60,42,29,26,77,,,,13,13,9,8,0.3,0.3
2025-03-18T0500,1868A,109.0981,21.4661,北海市,新市环保局,"颗粒物(PM10),细颗粒物(PM2.5)",52,53,44,36,31,76,,,,14,15,6,6,0.5,0.5
2025-03-18T0500,1869A,109.1778,21.5233,北海市,北海工业园,,49,48,47,34,31,74,,,,12,14,10,10,0.4,0.4
2025-03-18T0500,3400A,109.1911,21.4415,北海市,龙潭自来水厂,细颗粒物(PM2.5),63,58,41,45,35,73,,,,12,13,8,9,0.4,0.4
2025-03-18T0500,1001A,116.3621,39.8784,北京市,万寿西宫,,25,22,24,8,10,80,,,,13,13,2,2,0.2,0.1
2025-03-18T0500,1002A,116.2202,40.2915,北京市,定陵,,,,,,,,,,,,,,,,
2025-03-18T0500,1003A,116.4174,39.9289,北京市,东四,,28,28,29,11,10,72,,,,16,13,3,3,0.4,0.3
2025-03-18T0500,1004A,116.4072,39.8863,北京市,天坛,,20,20,26,9,10,59,,,,14,12,3,1,0.4,0.4
2025-03-18T0500,1005A,116.462,39.9365,北京市,农展馆,,,,26,,9,,,82,,,10,,5,,0.3
2025-03-18T0500,1006A,116.3392,39.9295,北京市,官园,,21,21,28,10,11,61,,,,19,16,8,7,0.4,0.4
2025-03-18T0500,1007A,116.2878,39.9611,北京市,海淀万柳,,20,20,27,8,10,64,,,,18,22,2,2,0.4,0.3
2025-03-18T0500,1008A,116.6636,40.135,北京市,顺义新城,,23,23,19,10,8,63,,,,6,6,4,4,0.3,0.3
2025-03-18T0500,1009A,116.6275,40.3275,北京市,怀柔镇,,22,17,16,9,9,70,,,,12,10,3,2,0.4,0.4
2025-03-18T0500,1010A,116.2296,40.217,北京市,昌平镇,,41,30,27,9,9,0,,,,81,14,1,1,0.4,0.3
2025-03-18T0500,1011A,116.3966,39.9821,北京市,奥体中心,,21,21,23,9,9,59,,,,21,13,4,3,0.4,0.5
2025-03-18T0500,3281A,115.9718,40.4529,北京市,延庆夏都,,20,16,17,7,8,62,,,,8,3,5,5,0.4,0.3
2025-03-18T0500,3418A,116.8336,40.4095,北京市,密云新城,,25,19,19,11,9,77,,,,4,4,4,3,0.4,0.4
2025-03-18T0500,3671A,116.088,39.9726,北京市,门头沟三家店,,28,28,53,10,12,41,,,,26,8,4,4,0.4,0.3
2025-03-18T0500,3672A,116.1541,39.8204,北京市,丰台云岗,,30,30,28,11,11,50,,,,26,9,3,3,0.3,0.3
2025-03-18T0500,3673A,116.6804,39.9081,北京市,通州东关,,25,21,29,10,9,78,,,,9,11,4,4,0.4,0.3
2025-03-18T0500,3674A,115.9577,39.7603,北京市,房山燕山,,,,24,,13,,,85,,,2,,2,,0.2
2025-03-18T0500,3675A,116.4672,39.7733,北京市,大兴旧宫,,21,21,27,8,9,59,,,,14,13,3,3,0.2,0.2
2025-03-18T0500,3694A,115.986,40.4563,北京市,延庆石河营,,17,13,17,6,7,54,,,,9,2,4,4,0.4,0.3
2025-03-18T0500,3695A,116.6151,40.3053,北京市,怀柔新城,,23,16,16,10,9,72,,,,6,6,5,4,0.4,0.4
2025-03-18T0500,3696A,116.2545,39.8768,北京市,丰台小屯,,22,22,29,8,10,62,,,,17,19,1,1,0.3,0.3
2025-03-18T0500,3697A,116.84,40.3844,北京市,密云镇,,24,19,19,10,8,76,,,,10,8,4,3,0.4,0.4
2025-03-18T0500,4182A,116.1942,39.9158,北京市,八角北路9号,,23,23,27,8,10,52,,,,33,20,1,1,0.2,0.1
2025-03-18T0500,4194A,117.0790,40.1518,北京市,洳河巡河路,,27,14,15,9,8,85,,,,1,3,3,2,0.2,0.2
2025-03-18T0500,1761A,123.8275,41.3064,本溪市,大峪,细颗粒物(PM2.5),87,90,77,64,54,69,,,,16,21,9,9,0.9,0.8
2025-03-18T0500,1762A,123.7567,41.3325,本溪市,溪湖,细颗粒物(PM2.5),70,72,78,51,54,58,,,,25,24,9,8,1.1,1
2025-03-18T0500,1763A,123.7169,41.3094,本溪市,彩屯,细颗粒物(PM2.5),108,111,92,81,71,37,,,,42,32,14,11,1.2,1.1
2025-03-18T0500,1764A,123.7669,41.2864,本溪市,东明,细颗粒物(PM2.5),82,87,78,60,52,62,,,,20,24,9,9,0.8,0.8
2025-03-18T0500,1765A,123.7992,41.2664,本溪市,新立屯,细颗粒物(PM2.5),94,73,65,70,55,70,,,,17,24,5,7,1.0,0.9
2025-03-18T0500,1766A,123.8142,41.3472,本溪市,威宁,细颗粒物(PM2.5),108,121,90,81,58,30,,,,40,22,3,4,0.9,0.8
2025-03-18T0500,2587A,105.2864,27.3125,毕节市,八中,,16,,7,6,5,49,,,,6,7,7,7,0.5,0.5
2025-03-18T0500,2588A,105.31,27.2944,毕节市,师专,,18,7,7,3,5,57,,,,7,10,5,6,0.5,0.6
2025-03-18T0500,4263A,105.3688,27.3598,毕节市,工业大道,,20,6,4,3,4,63,,,,7,9,7,7,0.2,0.3
2025-03-18T0500,1629A,118.0018,37.3617,滨州市,第二水厂,,34,34,40,17,13,64,,,,8,8,6,7,0.1,0.3
2025-03-18T0500,1630A,117.9776,37.393,滨州市,北中新校,,31,31,47,17,13,69,,,,18,22,8,11,0.2,0.3
2025-03-18T0500,3514A,117.9378,37.3956,滨州市,中海酒店,,32,29,39,22,18,72,,,,10,17,6,7,0.4,0.3
2025-03-18T0500,3515A,117.9378,37.3553,滨州市,开发区一中,,34,34,47,12,14,69,,,,16,20,8,9,0.2,0.2
2025-03-18T0500,3516A,118.0917,37.694,滨州市,金海六路,,32,32,43,14,8,72,,,,16,16,5,5,0.4,0.5
2025-03-18T0500,4028A,117.9956,37.3753,滨州市,滨州市西街道办事处,,32,27,41,22,17,68,,,,14,15,4,6,0.4,0.4
2025-03-18T0500,2311A,115.8072,33.8399,亳州市,污水处理厂,颗粒物(PM10),59,68,53,32,21,45,,,,29,22,12,6,0.3,0.2
2025-03-18T0500,2312A,115.7789,33.8518,亳州市,三国揽胜宫,颗粒物(PM10),59,68,56,28,21,44,,,,26,21,12,5,0.4,0.4
2025-03-18T0500,3332A,115.7633,33.8034,亳州市,亳州学院,颗粒物(PM10),57,64,48,31,20,53,,,,18,16,9,5,0.4,0.3
2025-03-18T0500,2693A,82.0485,44.8556,博尔塔拉蒙古自治州,市党校,,37,37,46,23,18,59,,,,9,12,31,45,0.4,0.5
2025-03-18T0500,2694A,82.0806,44.8969,博尔塔拉蒙古自治州,市环保局,,39,39,50,20,22,68,,,,8,17,5,5,0.1,0.6
2025-03-18T0500,1071A,116.8842,38.2991,沧州市,沧县城建局,,37,37,50,22,21,74,,,,13,13,1,3,0.2,0.2
2025-03-18T0500,1072A,116.8584,38.3254,沧州市,电视转播站,,32,32,46,14,13,61,,,,19,15,5,4,0.4,0.4
2025-03-18T0500,1073A,116.8709,38.3228,沧州市,市环保局,,29,28,44,20,21,68,,,,13,15,7,7,0.3,0.3
2025-03-18T0500,3324A,116.8136,38.3004,沧州市,河北水利电力学院,,29,,44,20,20,70,,,,14,15,1,2,0.2,0.2
2025-03-18T0500,2622A,97.1806,31.1273,昌都市,昌都监测站,,26,6,9,3,7,83,,,,1,5,6,7,0.3,0.5
2025-03-18T0500,3719A,97.1714,31.1406,昌都市,昌都会议中心,,31,10,13,7,8,99,,,,1,3,3,3,0.1,0.1
2025-03-18T0500,2690A,88.1236,43.8886,昌吉回族自治州,天山天池,,27,6,34,3,10,85,,,,3,4,5,5,0.4,0.4
2025-03-18T0500,2692A,87.2717,44.0297,昌吉回族自治州,新区政务中心,颗粒物(PM10),66,81,72,35,25,13,,,,46,34,5,8,0.9,0.8
2025-03-18T0500,3613A,87.3095,44.0142,昌吉回族自治州,亚心广场,颗粒物(PM10),73,95,90,44,37,39,,,,26,26,6,8,0.7,0.7
2025-03-18T0500,1119A,125.3325,43.9166,长春市,食品厂,,46,44,65,32,49,37,,,,41,33,9,9,0.5,0.6
2025-03-18T0500,1120A,125.2863,43.9027,长春市,客车厂,细颗粒物(PM2.5),62,46,62,44,53,33,,,,41,33,8,7,0.6,0.7
2025-03-18T0500,1121A,125.2841,43.8463,长春市,邮电学院,细颗粒物(PM2.5),58,43,63,41,49,44,,,,32,24,8,8,0.5,0.6
2025-03-18T0500,1122A,125.3716,43.8772,长春市,劳动公园,,46,,56,32,43,50,,,,20,21,8,8,1.1,1.2
2025-03-18T0500,1123A,125.3297,43.8805,长春市,园林处,,40,32,51,28,42,59,,,,21,23,8,8,0.4,0.4
2025-03-18T0500,1124A,125.4605,43.79,长春市,净月潭,,43,41,57,30,41,52,,,,17,15,6,8,0.5,0.5
2025-03-18T0500,1125A,125.7194,43.515,长春市,甩湾子,,,,,,,,,,,,,,,,
2025-03-18T0500,1126A,125.3863,43.8447,长春市,经开区环卫处,,40,34,55,28,40,52,,,,16,22,5,6,0.3,0.4
2025-03-18T0500,1127A,125.245,43.7783,长春市,高新区管委会,细颗粒物(PM2.5),69,74,80,50,60,12,,,,62,44,7,9,0.5,0.6
2025-03-18T0500,1128A,125.1761,43.8325,长春市,岱山公园,细颗粒物(PM2.5),58,50,78,41,60,29,,,,37,39,10,11,0.5,0.6
2025-03-18T0500,1335A,113.0833,28.2325,长沙市,经开区环保局,颗粒物(PM10),61,71,51,43,28,2,,,,86,32,21,6,0.6,0.3
2025-03-18T0500,1336A,112.8872,28.2189,长沙市,高开区环保局,"颗粒物(PM10),细颗粒物(PM2.5)",58,66,52,41,28,4,,,,70,26,5,5,0.8,0.5
2025-03-18T0500,1337A,113.0792,28.2053,长沙市,马坡岭,颗粒物(PM10),62,73,51,41,28,3,,,,68,28,4,5,0.6,0.5
2025-03-18T0500,1338A,112.9394,28.19,长沙市,湖南师范大学,,43,43,45,29,25,42,,,,17,11,5,6,0.6,0.5
2025-03-18T0500,1339A,113.0178,28.1322,长沙市,雨花区环保局,颗粒物(PM10),55,60,49,29,25,33,,,,39,27,8,6,0.5,0.4
2025-03-18T0500,1340A,112.9792,28.2597,长沙市,伍家岭,颗粒物(PM10),74,97,58,37,26,1,,,,61,34,4,4,0.6,0.4
2025-03-18T0500,1341A,113.0014,28.1944,长沙市,火车新站,颗粒物(PM10),55,59,51,36,31,47,,,,30,21,7,7,0.6,0.4
2025-03-18T0500,1342A,112.9844,28.1178,长沙市,天心区环保局,颗粒物(PM10),52,54,51,33,28,49,,,,31,31,5,4,0.4,0.4
2025-03-18T0500,1343A,112.8908,28.1308,长沙市,湖南中医药大学,颗粒物(PM10),53,55,52,34,30,6,,,,45,27,4,4,0.3,0.2
2025-03-18T0500,1344A,112.9581,28.3611,长沙市,沙坪,,49,41,36,34,26,36,,,,13,8,6,6,0.5,0.4
2025-03-18T0500,1727A,113.1147,36.1547,长治市,清华站,,48,48,30,12,9,50,,,,27,19,14,7,1.0,0.8
2025-03-18T0500,1730A,113.0886,36.2125,长治市,审计局,,39,39,29,17,9,62,,,,23,20,14,10,0.5,0.3
2025-03-18T0500,1731A,113.0844,36.1856,长治市,长治八中,,45,45,35,17,13,73,,,,17,17,10,9,0.4,0.3
2025-03-18T0500,2845A,113.1569,36.1911,长治市,德盛苑,,43,43,35,19,11,58,,,,20,17,13,8,1.2,0.8
2025-03-18T0500,3568A,113.06,36.0464,长治市,向阳小学,颗粒物(PM10),55,59,45,29,18,41,,,,30,16,11,9,0.4,0.3
2025-03-18T0500,3569A,112.8792,36.3144,长治市,屯留一中,,44,44,31,3,8,62,,,,28,25,7,8,0.5,0.4
2025-03-18T0500,4189A,113.1131,36.19948,长治市,英华南巷50号,,46,46,35,17,13,62,,,,23,20,24,13,0.9,0.6
2025-03-18T0500,4190A,113.2367,36.3344,长治市,学府街1号,颗粒物(PM10),55,60,45,17,14,16,,,,58,24,4,5,0.4,0.5
2025-03-18T0500,1854A,111.6975,28.9703,常德市,市二中,,43,43,55,30,33,46,,,,9,15,4,5,0.5,0.4
2025-03-18T0500,1857A,111.7158,29.1456,常德市,白鹤山,,,,,,,,,,,,,,,,
2025-03-18T0500,3138A,111.7153,29.0289,常德市,武陵区永安,,40,36,62,28,35,58,,,,5,12,2,4,0.4,0.4
2025-03-18T0500,3139A,111.6892,28.9881,常德市,鼎城区玉霞,,42,42,57,27,32,50,,,,10,15,3,4,0.4,0.4
2025-03-18T0500,3140A,111.6625,29.0531,常德市,武陵区长庚,,39,39,63,22,34,52,,,,3,11,3,5,0.4,0.4
2025-03-18T0500,1196A,119.9633,31.762,常州市,市监测站,,43,43,50,20,26,72,,,,10,26,6,7,0.4,0.5
2025-03-18T0500,1200A,119.9468,31.7069,常州市,武进监测站,,36,36,38,20,25,77,,,,17,25,14,15,0.5,0.6
2025-03-18T0500,1201A,119.9255,31.9087,常州市,安家,,42,42,45,19,25,67,,,,25,32,8,9,0.4,0.5
2025-03-18T0500,3002A,119.9805,31.8174,常州市,行政中心,,42,42,39,13,24,60,,,,22,26,3,3,0.4,0.5
2025-03-18T0500,3003A,120.0522,31.7748,常州市,经开区,,47,47,43,17,22,66,,,,26,25,8,10,0.4,0.6
2025-03-18T0500,3010A,119.9025,31.7964,常州市,钟楼,,41,41,46,20,25,69,,,,18,27,8,17,0.5,0.6
2025-03-18T0500,3429A,119.8598,31.7066,常州市,武进经发区,,41,41,46,23,27,70,,,,25,28,7,9,0.5,0.6
2025-03-18T0500,3430A,119.5826,31.7245,常州市,金坛城区,,41,41,41,23,25,78,,,,14,19,7,8,0.5,0.6
2025-03-18T0500,2220A,120.4318,41.5881,朝阳市,西梁,,23,23,45,11,25,60,,,,6,12,4,8,0.4,0.5
2025-03-18T0500,2221A,120.4521,41.5646,朝阳市,河畔小区,,23,21,41,12,16,73,,,,8,14,7,12,0.5,0.6
2025-03-18T0500,2222A,120.4176,41.5648,朝阳市,八里堡,,23,17,48,9,20,72,,,,1,11,5,9,0.3,0.3
2025-03-18T0500,2223A,120.3806,41.5969,朝阳市,农业园区,,24,18,48,13,21,75,,,,6,15,5,8,0.4,0.5
2025-03-18T0500,1705A,116.6367,23.6719,潮州市,西园路,细颗粒物(PM2.5),77,65,57,56,42,32,,,,16,17,3,4,0.3,0.3
2025-03-18T0500,3026A,116.6183,23.6608,潮州市,市政府,细颗粒物(PM2.5),55,45,53,39,35,47,,,,17,19,5,5,0.5,0.4
2025-03-18T0500,4036A,116.6461,23.6761,潮州市,金山,细颗粒物(PM2.5),65,51,49,47,38,37,,,,15,16,7,8,0.6,0.6
2025-03-18T0500,2472A,113.0073,25.9061,郴州市,马头岭,,32,32,45,15,23,37,,,,7,8,7,8,0.3,0.9
2025-03-18T0500,2473A,113.0116,25.8226,郴州市,市职中,,30,30,38,21,26,41,,,,14,15,5,5,0.6,0.6
2025-03-18T0500,2475A,113.0383,25.8071,郴州市,市审计局,,36,30,38,25,28,57,,,,14,15,3,3,0.9,0.5
2025-03-18T0500,2476A,113.0348,25.7759,郴州市,市环保局,,43,31,43,30,34,56,,,,10,11,4,5,0.5,0.5
2025-03-18T0500,4252A,113.0138,25.8011,郴州市,好美居路49号,,36,32,41,25,30,52,,,,14,14,7,7,0.4,0.4
2025-03-18T0500,1431A,103.9728,30.7236,成都市,金泉两河,,45,45,46,19,18,23,,,,23,25,3,2,0.6,0.5
2025-03-18T0500,1432A,104.176,30.6872,成都市,十里店,,35,35,40,21,21,41,,,,20,32,3,2,0.8,0.8
2025-03-18T0500,1433A,104.079,30.5706,成都市,三瓦窑,,33,33,39,18,18,28,,,,32,35,6,4,0.6,0.6
2025-03-18T0500,1434A,104.1114,30.63,成都市,沙河铺,,37,37,44,25,27,27,,,,18,28,5,5,0.7,0.7
2025-03-18T0500,1437A,104.0786,30.6531,成都市,君平街,,35,35,42,23,26,40,,,,23,29,8,6,0.7,0.7
2025-03-18T0500,1438A,103.613,31.0283,成都市,灵岩寺,,,,,,,,,,,,,,,,
2025-03-18T0500,2880A,104.0239,30.65639,成都市,大石西路,,29,29,43,14,24,33,,,,27,32,4,3,0.6,0.6
2025-03-18T0500,3136A,104.2725,30.5589,成都市,龙泉驿区区政府,,16,14,29,7,17,50,,,,15,21,4,4,0.5,0.5
2025-03-18T0500,3357A,104.0106,30.6931,成都市,金博路,,20,20,30,3,12,27,,,,24,27,6,6,0.5,0.6
2025-03-18T0500,3359A,104.0578,30.5225,成都市,华阳,,39,29,36,27,25,41,,,,20,26,6,5,0.8,0.7
2025-03-18T0500,3488A,104.3853,30.7453,成都市,青白江技师分院,,26,26,39,8,22,23,,,,24,32,5,5,0.4,0.4
2025-03-18T0500,3489A,104.0789,30.4072,成都市,科学城,,26,26,31,18,21,54,,,,16,17,5,5,0.5,0.5
2025-03-18T0500,4011A,103.8506,30.6947,成都市,光华大道三段,,46,46,43,20,20,22,,,,32,26,6,4,0.7,0.6
2025-03-18T0500,4224A,104.2433,30.5353,成都市,鲸龙路1057号,,25,25,35,14,20,46,,,,21,24,4,4,0.5,0.6
2025-03-18T0500,1062A,117.9531,40.9081,承德市,铁路,,26,23,23,18,10,49,,,,12,10,4,5,0.4,0.3
2025-03-18T0500,1063A,117.9392,40.9763,承德市,中国银行,,31,31,22,9,9,42,,,,16,7,2,3,0.3,0.3
2025-03-18T0500,1064A,117.9503,40.928,承德市,开发区,,30,30,31,13,20,48,,,,18,12,3,4,0.3,0.3
2025-03-18T0500,1065A,117.8051,40.9655,承德市,文化中心,,31,31,31,8,9,41,,,,24,12,2,3,0.3,0.3
2025-03-18T0500,1066A,117.9268,41.0026,承德市,离宫,,26,26,27,16,18,57,,,,10,4,4,5,0.3,0.2
2025-03-18T0500,2314A,117.47,30.6618,池州市,池州学院,,40,40,32,26,20,67,,,,20,20,5,7,0.6,0.5
2025-03-18T0500,3237A,117.4918,30.6617,池州市,展览馆,,46,44,32,32,20,75,,,,14,17,6,7,0.6,0.5
2025-03-18T0500,3333A,117.5627,30.695,池州市,第八中学,,40,40,30,26,18,65,,,,15,16,5,6,0.7,0.5
2025-03-18T0500,3334A,117.5038,30.6243,池州市,第十二中学,,38,38,30,23,18,64,,,,13,18,7,8,0.9,0.6
2025-03-18T0500,1744A,118.9233,42.2816,赤峰市,松山一中,,20,20,64,6,7,60,,,,22,12,27,8,0.7,0.6
2025-03-18T0500,1745A,118.9576,42.2728,赤峰市,哈达街,,26,,51,18,14,50,,,,14,13,16,9,0.6,0.6
2025-03-18T0500,1746A,118.8788,42.2554,赤峰市,天义路,,20,17,44,13,13,63,,,,9,12,7,7,0.5,0.4
2025-03-18T0500,3058A,119.2658,42.0353,赤峰市,银河街,,20,14,65,10,15,62,,,,11,13,12,15,0.5,0.5
2025-03-18T0500,3286A,118.9359,42.3147,赤峰市,桥北物流园区,,18,13,31,11,14,57,,,,14,9,6,7,0.6,0.5
2025-03-18T0500,2521A,107.3476,22.4136,崇左市,市环保局江州分局,,41,41,67,23,34,78,,,,7,16,6,11,0.4,0.6
2025-03-18T0500,4256A,107.3750,22.3736,崇左市,石景林东路7号,,38,37,59,26,30,80,,,,8,14,5,7,0.3,0.4
2025-03-18T0500,2298A,118.3093,32.3153,滁州市,老年大学,,43,43,39,24,23,72,,,,18,17,4,4,0.5,0.4
2025-03-18T0500,2299A,118.3244,32.2786,滁州市,人大宾馆,,45,45,43,20,22,70,,,,19,16,7,8,0.5,0.4
2025-03-18T0500,3207A,118.3118,32.3038,滁州市,市政府原办公楼,,43,43,35,26,21,72,,,,15,12,4,4,0.2,0.2
2025-03-18T0500,3331A,118.3267,32.2634,滁州市,图书馆,,50,50,38,18,18,69,,,,18,19,5,6,0.4,0.3
2025-03-18T0500,2605A,101.5482,25.0441,楚雄彝族自治州,州环境监测站,,32,22,45,22,32,39,,,,13,10,11,8,0.6,0.6
2025-03-18T0500,2606A,101.538,25.0492,楚雄彝族自治州,市经济开发区,,28,25,50,19,33,39,,,,14,12,8,7,0.7,0.7
2025-03-18T0500,2548A,107.5277,31.2827,达州市,达州职业技术学院,,47,47,56,25,25,20,,,,24,27,6,8,0.5,0.5
2025-03-18T0500,2549A,107.5086,31.2186,达州市,市环境监测站,,28,28,52,14,21,44,,,,14,28,26,12,0.7,0.7
2025-03-18T0500,2550A,107.4988,31.2132,达州市,凤凰小区,,28,27,49,19,25,52,,,,13,22,7,13,0.3,0.5
2025-03-18T0500,2551A,107.5082,31.1986,达州市,达县机关宾馆,,34,34,47,17,26,41,,,,18,28,6,9,0.5,0.6
2025-03-18T0500,2552A,107.4644,31.2124,达州市,市政中心,,,44,59,,25,54,,,,11,25,3,12,,0.6
2025-03-18T0500,2614A,100.1542,25.7054,大理白族自治州,大理市环境监测站,细颗粒物(PM2.5),94,77,51,70,36,140,,,,6,7,9,8,0.8,0.7
2025-03-18T0500,2615A,100.2171,25.5811,大理白族自治州,大理古城,细颗粒物(PM2.5),60,57,43,43,34,128,,,,5,6,7,7,0.6,0.6
2025-03-18T0500,1109A,121.612,38.9741,大连市,甘井子,,34,34,44,22,27,73,,,,18,26,8,7,0.5,0.6
2025-03-18T0500,1110A,121.565,38.9511,大连市,周水子,,36,36,41,23,28,80,,,,15,24,12,12,0.3,0.4
2025-03-18T0500,1111A,121.5637,38.8845,大连市,星海三站,,36,36,40,25,28,84,,,,8,14,10,10,0.7,0.7
2025-03-18T0500,1112A,121.6302,38.9117,大连市,青泥洼桥,,35,35,42,23,26,83,,,,5,14,10,10,0.3,0.4
2025-03-18T0500,1113A,121.6251,38.8638,大连市,傅家庄,,43,35,38,30,31,80,,,,14,19,9,8,0.6,0.7
2025-03-18T0500,1114A,121.5213,38.8661,大连市,七贤岭,,38,38,41,22,24,83,,,,8,14,7,7,0.6,0.6
2025-03-18T0500,1115A,121.2529,38.8061,大连市,旅顺,,49,49,70,23,24,85,,,,11,19,5,8,0.4,0.4
2025-03-18T0500,1116A,121.7485,39.1311,大连市,金州,,40,40,47,23,32,78,,,,13,21,10,9,0.5,0.6
2025-03-18T0500,1117A,121.7811,39.0496,大连市,开发区,,36,35,43,25,30,74,,,,12,24,10,9,0.7,0.8
2025-03-18T0500,1118A,121.9762,39.0631,大连市,双D港,,,41,39,29,28,84,,,,14,16,,9,0.7,0.8
2025-03-18T0500,1789A,124.81117,46.03138,大庆市,大同区,,32,,26,22,21,48,,,,19,10,3,4,0.6,0.6
2025-03-18T0500,1790A,125.129,46.533,大庆市,龙凤区,,40,40,29,16,18,47,,,,30,15,8,7,0.9,0.6
2025-03-18T0500,1791A,124.902,46.408,大庆市,红岗区,,26,22,25,18,21,28,,,,46,17,3,5,0.4,0.4
2025-03-18T0500,1792A,125.153,46.586,大庆市,萨尔图区,,36,36,27,21,15,59,,,,28,15,9,6,1.8,0.5
2025-03-18T0500,1793A,124.9042,46.6215,大庆市,让胡路区,,39,28,24,27,23,64,,,,10,11,6,7,0.2,0.2
2025-03-18T0500,3481A,125.141,46.634,大庆市,萨区政府监测点,,,32,25,,17,57,,,,22,10,5,5,0.9,0.6
2025-03-18T0500,1721A,113.3819,40.1097,大同市,果树场,,26,26,20,15,15,33,,,,22,13,10,10,0.9,0.5
2025-03-18T0500,1723A,113.2994,40.0758,大同市,云冈宾馆,,31,31,28,14,12,50,,,,23,12,21,9,0.7,0.5
2025-03-18T0500,1724A,113.3444,40.0917,大同市,大同大学,,31,31,25,18,12,46,,,,24,10,25,15,0.6,0.5
2025-03-18T0500,1725A,113.2661,40.1269,大同市,安家小村,,39,39,26,12,9,36,,,,24,10,12,9,2.8,0.7
2025-03-18T0500,1726A,113.2711,40.0844,大同市,教育学院,,32,32,26,16,12,33,,,,32,14,8,8,0.9,0.5
2025-03-18T0500,3282A,113.3397,40.0597,大同市,大同市卫生学校,,27,27,25,16,11,42,,,,26,10,15,8,0.6,0.4
2025-03-18T0500,3565A,113.1367,40.1122,大同市,云冈站,,29,29,28,16,12,50,,,,20,14,18,12,0.4,0.3
2025-03-18T0500,3566A,113.1186,40.2556,大同市,图书馆,,18,17,22,8,12,56,,,,5,7,7,8,0.5,0.6
2025-03-18T0500,3567A,113.5931,40.0461,大同市,区一中,,24,19,24,11,11,75,,,,12,8,24,15,0.6,0.4
2025-03-18T0500,4199A,113.2798,40.0997,大同市,魏都大道141号,,39,39,30,11,13,41,,,,27,16,13,12,0.9,0.5
2025-03-18T0500,2269A,124.1069,50.4097,大兴安岭地区,科技局,,28,21,24,19,18,60,,,,3,5,6,6,0.5,0.4
2025-03-18T0500,3663A,124.1164,50.4278,大兴安岭地区,红旗社区,,15,7,17,3,14,46,,,,20,13,4,7,0.3,0.4
2025-03-18T0500,1600A,124.3303,40.0625,丹东市,江湾东路,细颗粒物(PM2.5),63,59,68,45,49,94,,,,12,18,10,13,0.6,0.8
2025-03-18T0500,1601A,124.4256,40.1503,丹东市,临江后街,细颗粒物(PM2.5),62,61,64,44,43,93,,,,7,16,7,11,0.4,0.6
2025-03-18T0500,1602A,124.3933,40.1461,丹东市,元宝山,细颗粒物(PM2.5),59,51,50,42,39,89,,,,10,14,6,8,0.7,0.8
2025-03-18T0500,1603A,124.3633,40.1092,丹东市,民主桥,细颗粒物(PM2.5),62,54,56,44,39,92,,,,9,18,7,9,0.5,0.6
2025-03-18T0500,3541A,109.5726,19.5167,儋州市,第一中学子站,,25,21,36,15,18,79,,,,7,9,4,4,0.6,0.6
2025-03-18T0500,3542A,109.5567,19.5187,儋州市,东坡学校子站,,27,24,37,18,20,84,,,,6,8,5,5,0.7,0.6
2025-03-18T0500,2616A,98.5842,24.428,德宏傣族景颇族自治州,德宏州监测站,细颗粒物(PM2.5),100,103,90,75,57,52,,,,38,31,9,10,0.9,0.7
2025-03-18T0500,3677A,98.5881,24.4368,德宏傣族景颇族自治州,芒市人民政府综合楼,细颗粒物(PM2.5),108,124,106,81,56,76,,,,18,21,10,11,0.8,0.6
2025-03-18T0500,1901A,104.4239,31.1208,德阳市,东山公园,,42,40,53,29,35,50,,,,19,30,3,3,0.7,0.6
2025-03-18T0500,1902A,104.3826,31.1317,德阳市,西小区,,43,43,67,30,42,46,,,,19,38,4,4,0.5,0.6
2025-03-18T0500,1904A,104.3553,31.1091,德阳市,耐火材料厂,细颗粒物(PM2.5),54,48,62,38,39,33,,,,30,38,7,6,0.4,0.4
2025-03-18T0500,3639A,104.4019,31.1244,德阳市,市教育局,,42,36,53,29,38,48,,,,20,36,4,4,0.6,0.6
2025-03-18T0500,1622A,116.3032,37.4674,德州市,儿童乐园,,24,22,59,12,16,75,,,,14,21,6,6,0.6,0.7
2025-03-18T0500,1624A,116.2991,37.4451,德州市,监理站,,26,9,52,7,16,82,,,,8,18,10,12,0.5,0.5
2025-03-18T0500,3066A,116.2721,37.4379,德州市,九衢泉纯净水厂,,25,22,54,3,17,77,,,,16,27,8,9,0.4,0.5
2025-03-18T0500,3371A,116.3728,37.4403,德州市,开发区人民医院,,24,22,59,7,14,75,,,,12,21,4,6,0.3,0.4
2025-03-18T0500,3372A,116.3572,37.4094,德州市,太阳城中学,,25,19,59,7,17,79,,,,7,18,4,6,0.3,0.4
2025-03-18T0500,3511A,116.5652,37.3319,德州市,陵城艺术中心,,22,19,57,3,17,70,,,,13,22,12,12,0.4,0.5
2025-03-18T0500,2621A,99.7056,27.8317,迪庆藏族自治州,迪庆州站,,30,13,20,8,10,93,,,,6,8,8,8,0.4,0.4
2025-03-18T0500,3180A,99.7136,27.8094,迪庆藏族自治州,质量技术监督局,,32,13,18,13,12,100,,,,6,8,9,9,0.7,0.7
2025-03-18T0500,4257A,104.6092,35.5962,定西市,将台街,,48,48,52,26,26,19,,,,40,25,7,9,0.5,0.5
2025-03-18T0500,4309A,104.6159,35.5701,定西市,正龙路62号,颗粒物(PM10),57,64,61,36,36,37,,,,9,15,8,13,0.6,0.8
2025-03-18T0500,1389A,113.7547,23.0494,东莞市,莞城梨川,颗粒物(PM10),51,51,58,30,33,64,,,,18,23,5,5,0.6,0.6
2025-03-18T0500,1390A,113.7944,23.0128,东莞市,东城石井,,49,49,56,28,28,64,,,,17,16,6,6,0.6,0.6
2025-03-18T0500,1391A,113.7383,22.9658,东莞市,南城西平,,48,48,58,32,30,44,,,,43,31,5,6,0.7,0.6
2025-03-18T0500,3319A,113.7338,23.0381,东莞市,万江金泰,颗粒物(PM10),51,51,52,30,29,67,,,,15,17,4,4,0.6,0.7
2025-03-18T0500,3626A,113.7533,23.0202,东莞市,南城元岭,,45,45,55,27,29,69,,,,13,19,5,6,0.5,0.5
2025-03-18T0500,3627A,113.7875,23.0457,东莞市,东城主山,,42,42,56,26,29,70,,,,17,22,8,8,0.6,0.6
2025-03-18T0500,1666A,118.6614,37.4309,东营市,市环保局,,25,22,38,12,9,80,,,,13,20,2,4,0.4,0.5
2025-03-18T0500,3036A,118.6904,37.4338,东营市,开发区管委会,,25,24,45,17,14,78,,,,12,23,2,4,0.5,0.6
2025-03-18T0500,3365A,118.5719,37.565,东营市,垦利区民丰路,,28,,35,19,11,77,,,,12,13,5,6,0.5,0.5
2025-03-18T0500,3498A,118.5055,37.8612,东营市,河口城区,,27,17,40,3,10,86,,,,10,15,3,4,0.6,0.6
2025-03-18T0500,3646A,118.4978,37.4623,东营市,胜利站,,36,36,46,12,12,77,,,,17,22,6,8,0.5,0.5
2025-03-18T0500,3734A,118.35,37.26,东营市,理想之城,,27,27,44,12,14,72,,,,12,20,2,6,0.3,0.3
2025-03-18T0500,1591A,110.0023,39.8129,鄂尔多斯市,综合楼,,27,17,48,3,8,86,,,,8,16,6,6,0.1,0.2
2025-03-18T0500,1592A,109.9486,39.8261,鄂尔多斯市,巴音孟克林场办事处,,26,14,45,9,10,82,,,,10,18,6,8,0.3,0.4
2025-03-18T0500,1593A,109.7736,39.5986,鄂尔多斯市,康泽苑,,23,17,33,9,10,71,,,,8,7,2,3,0.2,0.3
2025-03-18T0500,1594A,109.8119,39.5989,鄂尔多斯市,华泰汽车城,,22,22,36,12,13,70,,,,9,9,3,3,0.3,0.3
2025-03-18T0500,1595A,109.9734,39.7884,鄂尔多斯市,奥林花园,,,19,46,,10,87,,,,10,15,6,7,0.2,0.3
2025-03-18T0500,2436A,114.8938,30.3994,鄂州市,市政府,,36,36,40,23,27,72,,,,15,21,6,9,0.6,1
2025-03-18T0500,2437A,114.8989,30.3714,鄂州市,赵家坝,,46,46,42,20,24,72,,,,11,15,5,5,0.5,0.6
2025-03-18T0500,3654A,114.8094,30.4089,鄂州市,精准医疗中心,,44,44,40,25,24,56,,,,19,16,4,5,0.6,0.6
2025-03-18T0500,2454A,109.4978,30.2981,恩施土家族苗族自治州,湖北民院,,32,31,34,22,23,19,,,,17,19,2,3,0.3,0.4
2025-03-18T0500,2455A,109.4707,30.2798,恩施土家族苗族自治州,州电力总公司,,35,26,33,24,22,6,,,,17,19,5,5,0,0.1
2025-03-18T0500,3549A,109.5061,30.3772,恩施土家族苗族自治州,龙凤新区,,27,27,32,13,21,10,,,,9,17,6,6,0.3,0.4
2025-03-18T0500,2499A,108.3411,21.6158,防城港市,沙万,细颗粒物(PM2.5),52,47,51,36,37,74,,,,13,15,8,8,1.0,1.1
2025-03-18T0500,2500A,108.3514,21.7731,防城港市,防城档案局,颗粒物(PM10),67,83,79,34,35,61,,,,26,25,8,8,0.3,0.3
2025-03-18T0500,2501A,108.3506,21.6414,防城港市,大海花园,"颗粒物(PM10),细颗粒物(PM2.5)",53,55,58,37,36,75,,,,8,10,7,6,0.9,0.8
2025-03-18T0500,1371A,113.1294,23.0067,佛山市,湾梁,,50,44,58,35,25,48,,,,27,33,8,7,0.6,0.6
2025-03-18T0500,1372A,113.1083,23.0478,佛山市,华材职中,,49,36,61,34,30,56,,,,28,38,6,6,0.6,0.5
2025-03-18T0500,1373A,113.144,23.0453,佛山市,南海气象局,,46,41,52,32,26,55,,,,23,32,6,4,0.4,0.4
2025-03-18T0500,1374A,113.2881,22.8094,佛山市,顺德苏岗,颗粒物(PM10),54,58,58,36,30,29,,,,38,31,6,6,0.7,0.6
2025-03-18T0500,1376A,112.8383,22.8678,佛山市,高明孔堂,细颗粒物(PM2.5),60,67,63,43,33,40,,,,33,27,9,7,0.6,0.5
2025-03-18T0500,1377A,112.8836,23.1588,佛山市,三水监测站,,50,41,58,35,33,68,,,,20,42,2,2,0.4,0.5
2025-03-18T0500,1378A,112.867,23.185,佛山市,三水云东海,,39,29,51,27,34,56,,,,16,35,3,3,0.5,0.5
2025-03-18T0500,3625A,113.2544,22.7642,佛山市,容桂街道办,细颗粒物(PM2.5),58,51,57,41,32,39,,,,40,34,7,7,0.8,0.7
2025-03-18T0500,1280A,119.3903,26.0543,福州市,鼓山,,,,35,,23,,,94,,,4,,1,,0.3
2025-03-18T0500,1282A,119.2681,26.0504,福州市,师大,细颗粒物(PM2.5),57,42,43,40,33,62,,,,18,16,3,4,0.3,0.3
2025-03-18T0500,1283A,119.2984,26.1028,福州市,五四北路,,42,34,39,29,30,77,,,,15,17,4,4,0.4,0.4
2025-03-18T0500,1284A,119.2648,26.0768,福州市,杨桥西路,,46,37,46,32,31,77,,,,12,14,4,4,0.3,0.3
2025-03-18T0500,1285A,119.317,26.0746,福州市,紫阳,,49,39,46,34,33,70,,,,20,19,4,4,0.2,0.2
2025-03-18T0500,3048A,119.5799,26.0936,福州市,九龙,,50,,34,35,26,60,,,,13,10,4,7,0.3,0.3
2025-03-18T0500,3526A,119.5189,25.9664,福州市,吴航,,50,49,43,35,29,76,,,,12,9,5,4,0.6,0.4
2025-03-18T0500,1755A,123.7977,41.8491,抚顺市,望花区,细颗粒物(PM2.5),74,78,103,54,68,47,,,,27,24,7,7,0.7,0.8
2025-03-18T0500,1756A,123.9161,41.8822,抚顺市,顺城区,细颗粒物(PM2.5),73,88,86,53,52,38,,,,35,24,8,8,0.8,0.7
2025-03-18T0500,1757A,124.0436,41.8611,抚顺市,东洲区,细颗粒物(PM2.5),77,76,92,56,54,49,,,,19,15,5,7,0.6,0.7
2025-03-18T0500,1758A,123.9247,41.8642,抚顺市,新抚区,细颗粒物(PM2.5),83,87,84,61,57,37,,,,37,23,5,5,0.7,0.7
2025-03-18T0500,1759A,124.0972,41.8961,抚顺市,大伙房水库,细颗粒物(PM2.5),112,100,92,84,70,62,,,,9,18,5,8,0.7,0.7
2025-03-18T0500,1760A,123.7086,41.8391,抚顺市,沈抚新城,细颗粒物(PM2.5),70,73,89,51,67,49,,,,25,28,4,7,0.6,0.8
2025-03-18T0500,2376A,116.2127,28.0814,抚州市,桐源党溪,,35,35,43,13,20,19,,,,6,6,5,4,0.2,0.2
2025-03-18T0500,2377A,116.3544,27.9831,抚州市,市站,,37,37,39,22,21,40,,,,16,12,6,12,0.3,0.3
2025-03-18T0500,2378A,116.3565,27.963,抚州市,血防站,,46,46,43,21,21,29,,,,25,13,4,7,0.2,0.2
2025-03-18T0500,2379A,116.3564,28.0007,抚州市,采茶剧团,,36,34,36,25,20,30,,,,15,9,3,4,0.3,0.3
2025-03-18T0500,2380A,116.385,27.9647,抚州市,医学分院,,45,45,38,25,18,16,,,,31,9,4,5,0.7,0.6
2025-03-18T0500,2207A,121.6094,41.998,阜新市,工业园区,,40,40,63,20,33,65,,,,13,21,8,14,0.4,0.7
2025-03-18T0500,2208A,121.6697,42.0279,阜新市,长青街,,26,24,45,18,30,70,,,,10,18,5,21,0.4,0.8
2025-03-18T0500,2209A,121.6673,42.0705,阜新市,农业园区,,31,31,37,12,20,69,,,,14,17,7,14,0.2,0.5
2025-03-18T0500,2210A,121.6717,42.0224,阜新市,东苑,,34,34,51,17,33,73,,,,8,18,4,21,0.6,0.9
2025-03-18T0500,2211A,121.6506,42.0498,阜新市,玉龙新城,,30,30,44,15,29,70,,,,7,19,5,13,0.4,0.7
2025-03-18T0500,2301A,115.8277,32.8929,阜阳市,市监测站,颗粒物(PM10),54,58,39,32,26,50,,,,28,16,8,6,0.4,0.4
2025-03-18T0500,2303A,115.8554,32.8605,阜阳市,开发区,,50,50,57,22,27,51,,,,25,20,7,7,0.5,0.5
2025-03-18T0500,2875A,115.784,32.8892,阜阳市,阜阳职业技术学院,,49,49,44,30,25,37,,,,32,15,8,8,0.4,0.4
2025-03-18T0500,3468A,115.7901,32.8613,阜阳市,市规划展馆,,39,38,43,27,24,51,,,,25,16,8,7,0.2,0.2
2025-03-18T0500,3469A,115.836,32.9183,阜阳市,枣园社区,,49,46,42,34,22,44,,,,35,15,8,6,0.3,0.3
2025-03-18T0500,2669A,102.9099,34.9841,甘南藏族自治州,州政府,,36,33,43,25,24,53,,,,21,15,5,6,0.5,0.4
2025-03-18T0500,3380A,102.8914,34.9617,甘南藏族自治州,甘肃民族师范学院,颗粒物(PM10),55,60,39,30,21,49,,,,23,15,7,8,0.5,0.3
2025-03-18T0500,2570A,101.9603,30.0475,甘孜藏族自治州,水桥子,,29,6,8,3,6,92,,,,3,6,4,3,0.4,0.4
2025-03-18T0500,3065A,101.9533,29.9972,甘孜藏族自治州,州环保局,,30,6,7,3,5,93,,,,2,5,4,4,0.3,0.3
2025-03-18T0500,3414A,115.8347,28.932,赣江新区,桑海产业园,,39,39,37,26,18,44,,,,22,30,9,8,0.3,0.2
2025-03-18T0500,2362A,114.9017,25.9149,赣州市,通天岩,,26,26,45,3,9,64,,,,3,4,11,12,0.3,0.4
2025-03-18T0500,2363A,114.9367,25.8664,赣州市,地委,,34,34,44,22,23,75,,,,8,7,1,2,0.6,0.6
2025-03-18T0500,2364A,114.9461,25.8481,赣州市,气象台,,,48,49,20,22,,,,,12,13,8,8,0.3,0.3
2025-03-18T0500,2365A,114.9322,25.8333,赣州市,市图书馆,,36,36,42,22,23,93,,,,12,11,4,4,0.6,0.5
2025-03-18T0500,2366A,114.8905,25.8471,赣州市,华坚鞋城,,42,32,44,29,22,90,,,,12,12,8,7,0.1,0.1
2025-03-18T0500,3109A,115.0093,25.8613,赣州市,赣县区卫计委,,45,38,44,31,27,87,,,,2,2,4,4,0.4,0.4
2025-03-18T0500,2683A,106.2319,36.1417,固原市,马园,,26,26,41,14,17,48,,,,8,20,4,5,0.8,0.7
2025-03-18T0500,2684A,106.2792,36.0022,固原市,监测站,,22,22,37,7,14,70,,,,12,15,7,7,0.4,0.5
2025-03-18T0500,2685A,106.2375,36.0211,固原市,新区,,28,28,40,8,14,75,,,,9,14,6,7,0.5,0.5
2025-03-18T0500,3522A,106.2177,35.9959,固原市,原州区十五小,,27,23,34,9,15,85,,,,5,12,5,6,0.3,0.4
2025-03-18T0500,2543A,106.6308,30.5278,广安市,小平旧居,,,,,,,,,,,,,,,,
2025-03-18T0500,2544A,106.6303,30.4576,广安市,市委,,30,,26,21,21,50,,,,9,15,4,6,0.3,0.3
2025-03-18T0500,2545A,106.6271,30.4663,广安市,友谊中学,,26,25,28,18,21,49,,,,10,17,5,5,0.3,0.4
2025-03-18T0500,2547A,106.6388,30.4551,广安市,广电花园,,18,18,22,12,19,43,,,,11,17,5,6,0.5,0.5
2025-03-18T0500,2902A,106.6351,30.4865,广安市,北辰小学,,25,17,25,17,20,48,,,,11,15,6,6,0.5,0.5
2025-03-18T0500,2523A,105.8945,32.4535,广元市,黑石坡,,49,49,56,25,23,39,,,,5,11,6,8,0.3,0.4
2025-03-18T0500,2524A,105.821,32.4444,广元市,老城,,44,44,55,24,20,12,,,,31,35,1,1,0.6,0.7
2025-03-18T0500,2526A,105.8628,32.4287,广元市,监测站,,50,50,46,28,24,26,,,,14,19,3,7,0.3,0.5
2025-03-18T0500,3617A,105.8047,32.4166,广元市,经开区,颗粒物(PM10),59,68,64,36,32,5,,,,42,37,4,9,0.6,0.6
2025-03-18T0500,1345A,113.2347,23.1423,广州市,广雅中学,细颗粒物(PM2.5),54,46,67,38,37,56,,,,24,34,4,4,0.6,0.5
2025-03-18T0500,1346A,113.2612,23.105,广州市,市五中,颗粒物(PM10),52,53,59,30,34,67,,,,15,22,4,3,0.5,0.5
2025-03-18T0500,1348A,113.3478,23.0916,广州市,广东商学院,,50,46,56,35,32,73,,,,16,26,5,4,0.5,0.4
2025-03-18T0500,1349A,113.4332,23.1047,广州市,市八十六中,细颗粒物(PM2.5),54,53,58,38,32,53,,,,20,32,4,3,0.6,0.3
2025-03-18T0500,1350A,113.3505,22.9483,广州市,番禺中学,细颗粒物(PM2.5),54,49,61,38,32,46,,,,40,34,6,4,0.5,0.5
2025-03-18T0500,1351A,113.2146,23.3916,广州市,花都师范,,44,44,58,29,32,76,,,,10,21,3,5,0.4,0.4
2025-03-18T0500,1352A,113.2597,23.1331,广州市,市监测站,,43,42,56,30,30,61,,,,24,32,7,6,0.5,0.5
2025-03-18T0500,1353A,113.5618,23.312,广州市,九龙镇镇龙,,48,43,50,33,32,77,,,,11,21,5,5,0.5,0.5
2025-03-18T0500,1354A,113.2765,23.1544,广州市,麓湖,,46,46,53,31,31,71,,,,15,25,5,3,0.6,0.6
2025-03-18T0500,1355A,113.443,23.3035,广州市,帽峰山森林公园,,43,,40,30,35,81,,,,10,14,5,4,0.6,0.5
2025-03-18T0500,2846A,113.3221,23.1322,广州市,体育西,颗粒物(PM10),51,51,61,35,34,67,,,,17,24,6,4,0.5,0.5
2025-03-18T0500,3298A,113.5717,23.5491,广州市,从化街口,,50,50,55,33,34,95,,,,8,18,6,7,0.5,0.6
2025-03-18T0500,3299A,113.3472,23.3692,广州市,白云竹料,,49,49,60,32,34,86,,,,9,21,8,7,0.6,0.6
2025-03-18T0500,3300A,113.2981,23.237,广州市,白云嘉禾,颗粒物(PM10),53,56,65,33,34,73,,,,19,36,5,4,0.3,0.3
2025-03-18T0500,3301A,113.4256,23.1716,广州市,黄埔科学城,,45,44,53,31,33,79,,,,13,22,6,7,0.6,0.5
2025-03-18T0500,3302A,113.3942,23.0483,广州市,番禺大学城,颗粒物(PM10),54,58,53,34,30,60,,,,31,32,7,4,0.3,0.3
2025-03-18T0500,3303A,113.4922,22.8168,广州市,南沙黄阁,细颗粒物(PM2.5),69,60,63,50,34,32,,,,48,34,6,7,0.7,0.6
2025-03-18T0500,3304A,113.5342,22.7896,广州市,南沙街,细颗粒物(PM2.5),60,54,57,43,33,44,,,,40,30,6,6,0.6,0.5
2025-03-18T0500,3443A,113.2902,23.5544,广州市,花都梯面,,40,39,49,28,28,74,,,,10,19,4,6,0.5,0.5
2025-03-18T0500,3445A,113.7858,23.7478,广州市,从化良口,,46,44,46,32,28,92,,,,8,11,6,7,0.4,0.4
2025-03-18T0500,3446A,113.8051,23.2614,广州市,增城荔城,,49,46,51,34,30,65,,,,12,14,8,8,0.5,0.5
2025-03-18T0500,2505A,109.568,23.1478,贵港市,德智高中,,,,,,,,,,,,,,,,
2025-03-18T0500,2506A,109.6047,23.0666,贵港市,江南子站,,32,29,58,22,32,70,,,,14,19,4,6,0.4,0.5
2025-03-18T0500,2507A,109.6014,23.0948,贵港市,贵城子站,,38,38,53,20,34,69,,,,11,15,7,8,0.4,0.5
2025-03-18T0500,2508A,109.5669,23.1065,贵港市,荷城子站,,25,24,52,17,28,65,,,,9,13,9,10,0.5,0.5
2025-03-18T0500,3405A,109.5886,23.1172,贵港市,新世纪学校,,34,34,57,22,33,65,,,,9,12,6,6,0.3,0.3
2025-03-18T0500,1439A,106.6899,26.5998,贵阳市,马鞍山,,16,6,23,3,15,50,,,,7,12,4,4,0.2,0.3
2025-03-18T0500,1441A,106.6243,26.6266,贵阳市,鉴湖路,,19,9,29,3,16,60,,,,4,10,5,6,0.3,0.4
2025-03-18T0500,1442A,106.7487,26.6343,贵阳市,燕子冲,,18,,23,12,22,57,,,,7,11,5,6,0.2,0.3
2025-03-18T0500,1443A,106.6555,26.4365,贵阳市,碧云窝,,,9,35,,17,57,,,,7,15,5,8,0.3,0.4
2025-03-18T0500,1445A,106.7109,26.6027,贵阳市,红边门,,20,9,28,7,22,64,,,,16,21,3,5,0.0,0.2
2025-03-18T0500,1446A,106.7164,26.5699,贵阳市,新华路,,20,9,27,3,20,63,,,,7,9,8,10,0.3,0.3
2025-03-18T0500,1447A,106.674,26.5424,贵阳市,太慈桥,,18,9,27,3,17,57,,,,10,17,6,8,0.2,0.3
2025-03-18T0500,1552A,106.805,26.3003,贵阳市,桐木岭,,26,23,43,18,28,51,,,,3,5,1,1,0.2,0.2
2025-03-18T0500,4230A,106.6882,26.5695,贵阳市,花果园大街66号,,15,,21,8,23,48,,,,10,12,5,5,0.1,0.2
2025-03-18T0500,4231A,106.6873,26.5169,贵阳市,漓江路57号,,18,9,29,7,19,56,,,,9,16,8,10,0.3,0.4
2025-03-18T0500,1862A,110.4144,25.3167,桂林市,电子科大尧山校区,,,,,,,,,,,,,,,,
2025-03-18T0500,1864A,110.3089,25.2708,桂林市,龙隐路小学,,38,38,35,19,24,86,,,,5,7,9,9,0.6,0.5
2025-03-18T0500,1865A,110.2869,25.2178,桂林市,八中,,40,40,33,28,26,85,,,,11,14,8,8,0.4,0.4
2025-03-18T0500,3531A,110.296,25.1253,桂林市,旅游学院,,39,31,25,27,19,83,,,,8,10,7,7,0.5,0.6
2025-03-18T0500,4222A,110.1835,25.2444,桂林市,环湖路276号,,35,31,36,24,27,72,,,,8,9,14,16,0.3,0.3
2025-03-18T0500,4301A,110.2803,25.2773,桂林市,信义路13号,,48,48,32,32,22,82,,,,11,11,14,11,0.3,0.2
2025-03-18T0500,2674A,100.2561,34.4714,果洛藏族自治州,玛沁县大武镇,,37,37,39,18,16,99,,,,1,1,14,13,0.4,0.4
2025-03-18T0500,1129A,126.5422,45.755,哈尔滨市,岭北,,29,21,22,20,18,54,,,,19,16,15,17,1.6,1.2
2025-03-18T0500,1130A,126.561,45.8167,哈尔滨市,松北商大,,24,24,32,16,19,58,,,,11,14,4,6,0.5,0.6
2025-03-18T0500,1131A,126.979,45.5419,哈尔滨市,阿城会宁,颗粒物(PM10),54,57,42,33,20,5,,,,48,16,8,10,0.7,0.7
2025-03-18T0500,1132A,126.599,45.7222,哈尔滨市,南岗学府路,,33,33,38,13,14,74,,,,11,16,10,9,0.4,0.5
2025-03-18T0500,1133A,126.689,45.7733,哈尔滨市,太平宏伟公园,,34,34,32,15,20,70,,,,15,19,8,7,0.4,0.5
2025-03-18T0500,1134A,126.635,45.7667,哈尔滨市,道外承德广场,,39,39,43,24,21,68,,,,8,13,12,7,0.7,0.6
2025-03-18T0500,1135A,126.685,45.7319,哈尔滨市,香坊红旗大街,,26,22,33,18,19,76,,,,8,16,7,9,0.8,0.7
2025-03-18T0500,1136A,126.6411,45.7258,哈尔滨市,动力和平路,,29,28,32,20,23,71,,,,10,14,20,12,0.5,0.5
2025-03-18T0500,1137A,126.593,45.7478,哈尔滨市,道里建国路,,25,21,26,17,18,59,,,,13,13,3,6,0.4,0.5
2025-03-18T0500,1138A,126.615,45.61,哈尔滨市,平房东轻厂,,28,28,32,19,21,36,,,,27,18,10,9,0.8,0.8
2025-03-18T0500,1139A,126.595,45.9855,哈尔滨市,呼兰师专,,20,,28,14,18,62,,,,13,16,10,9,0.4,0.4
2025-03-18T0500,1140A,126.6206,45.6842,哈尔滨市,省农科院,,28,28,36,17,23,68,,,,12,17,13,10,0.6,0.6
2025-03-18T0500,2688A,93.5128,42.8172,哈密市,地区监测站,颗粒物(PM10),63,75,78,9,13,17,,,,57,23,5,4,0.4,0.3
2025-03-18T0500,2689A,93.4961,42.8328,哈密市,哈密师范学校,颗粒物(PM10),55,60,66,16,20,42,,,,24,29,5,5,0.6,0.6
2025-03-18T0500,2671A,100.9048,36.9639,海北藏族自治州,海晏县西海镇,颗粒物(PM10),52,54,47,27,24,97,,,,11,9,18,14,0.4,0.4
2025-03-18T0500,3867A,102.0738,36.5056,海东市,平安区公安北苑,,37,37,54,14,23,68,,,,16,14,32,16,0.7,0.7
2025-03-18T0500,1409A,110.576,19.9507,海口市,东寨港,,45,34,35,31,21,78,,,,6,7,5,5,1.0,0.9
2025-03-18T0500,1410A,110.3232,20.0574,海口市,海南大学,颗粒物(PM10),54,58,47,37,24,81,,,,8,10,2,3,0.5,0.4
2025-03-18T0500,1411A,110.283,20.0053,海口市,秀英海南医院,,46,34,39,32,22,78,,,,9,10,4,4,0.4,0.3
2025-03-18T0500,1412A,110.338,19.9969,海口市,海南师范大学,,48,33,40,33,23,83,,,,5,7,3,3,0.5,0.4
2025-03-18T0500,1413A,110.33,20.0356,海口市,龙华路环保局宿舍,细颗粒物(PM2.5),52,36,38,36,23,82,,,,7,9,4,4,0.4,0.4
2025-03-18T0500,3539A,110.5111,19.9736,海口市,桂林洋子站,,39,39,46,23,25,92,,,,5,8,4,4,0.3,0.3
2025-03-18T0500,2673A,100.6188,36.2866,海南藏族自治州,共和县恰卜恰镇,,42,42,42,27,27,106,,,,5,8,11,8,0.3,0.5
2025-03-18T0500,2676A,97.3731,37.3753,海西蒙古族藏族自治州,德令哈市,颗粒物(PM10),57,64,48,23,19,73,,,,2,5,15,13,0.5,0.5
2025-03-18T0500,1048A,114.5302,36.6116,邯郸市,东污水处理厂,,43,43,37,12,9,53,,,,26,20,1,3,0.2,0.4
2025-03-18T0500,1049A,114.4918,36.5713,邯郸市,矿院,颗粒物(PM10),60,70,50,9,6,24,,,,52,16,2,4,0.3,0.4
2025-03-18T0500,1050A,114.484,36.6133,邯郸市,丛台公园,颗粒物(PM10),59,68,39,21,11,30,,,,38,16,1,4,0.3,0.4
2025-03-18T0500,3458A,114.7895,36.5593,邯郸市,香泉濮院小区,颗粒物(PM10),59,68,53,15,8,39,,,,35,19,3,4,0.3,0.4
2025-03-18T0500,3579A,114.50634,36.77178,邯郸市,永年区实验高中,颗粒物(PM10),78,105,64,23,11,5,,,,64,24,4,14,0.9,1
2025-03-18T0500,3580A,114.20016,36.44293,邯郸市,峰峰矿区临水派出所,颗粒物(PM10),57,63,48,14,10,70,,,,9,7,4,6,0.6,0.7
2025-03-18T0500,2634A,106.9893,33.1842,汉中市,汉川机床厂子校,,33,33,43,21,23,48,,,,6,7,6,10,1.1,1.1
2025-03-18T0500,2635A,107.0154,33.0706,汉中市,市监测站,,50,49,61,35,32,26,,,,23,29,5,7,0.7,0.8
2025-03-18T0500,2636A,107.0089,33.1138,汉中市,鑫源开发区,细颗粒物(PM2.5),58,50,65,41,41,22,,,,47,38,12,11,1.2,0.9
2025-03-18T0500,2637A,107.007,33.0323,汉中市,南郑大河坎水厂,,39,39,55,27,30,31,,,,13,21,6,8,0.7,0.8
2025-03-18T0500,1223A,120.2072,30.2111,杭州市,滨江,,36,36,38,23,23,20,,,,52,41,6,6,0.3,0.3
2025-03-18T0500,1224A,120.0633,30.2747,杭州市,西溪,,33,30,63,23,22,3,,,,47,30,6,6,0.3,0.4
2025-03-18T0500,1226A,120.3417,30.3150,杭州市,下沙,,42,42,46,20,24,32,,,,43,53,5,6,0.4,0.3
2025-03-18T0500,1227A,120.1269,30.2456,杭州市,卧龙桥,,28,27,26,19,17,26,,,,22,20,5,6,0.4,0.4
2025-03-18T0500,1228A,120.1903,30.2692,杭州市,浙江农大,,41,41,38,23,21,18,,,,50,39,9,9,0.2,0.3
2025-03-18T0500,1230A,120.1197,30.3119,杭州市,和睦小学,,40,40,37,28,24,4,,,,50,35,7,7,0.7,0.7
2025-03-18T0500,1231A,120.3019,30.4183,杭州市,临平镇,颗粒物(PM10),55,60,50,32,25,4,,,,80,48,6,6,0.5,0.5
2025-03-18T0500,1232A,120.2753,30.1839,杭州市,城厢镇,,43,43,44,24,22,19,,,,52,42,6,7,0.4,0.4
2025-03-18T0500,1233A,120.0883,30.1808,杭州市,云栖,,26,26,24,15,15,37,,,,21,22,7,7,0.5,0.5
2025-03-18T0500,3557A,119.9464,30.0494,杭州市,镇二中,,28,26,26,19,18,8,,,,49,35,7,6,0.3,0.3
2025-03-18T0500,3558A,119.7183,30.2367,杭州市,市府大楼,,32,26,30,22,19,41,,,,25,24,7,8,0.5,0.4
2025-03-18T0500,3656A,120.1556,30.2864,杭州市,消防大队,,40,40,39,25,24,34,,,,39,37,6,6,0.5,0.5
2025-03-18T0500,1270A,117.1959,31.7848,合肥市,明珠广场,,41,41,41,19,19,73,,,,20,33,4,4,0.5,0.5
2025-03-18T0500,1271A,117.3072,31.8764,合肥市,三里街,,49,48,43,34,20,12,,,,77,40,6,5,0.6,0.4
2025-03-18T0500,1272A,117.2588,31.8707,合肥市,琥珀山庄,,40,36,41,28,24,32,,,,39,36,2,2,0.6,0.6
2025-03-18T0500,1273A,117.1604,31.9052,合肥市,董铺水库,,46,46,34,19,11,66,,,,27,20,3,3,0.3,0.3
2025-03-18T0500,1274A,117.25,31.8571,合肥市,长江中路,,44,44,37,29,21,67,,,,32,28,8,8,0.5,0.3
2025-03-18T0500,1275A,117.266,31.9436,合肥市,庐阳区,,,53,39,31,19,65,,,,,18,4,4,0.3,0.3
2025-03-18T0500,1276A,117.3453,31.8616,合肥市,瑶海区,,48,48,41,24,17,4,,,,87,37,6,6,0.6,0.3
2025-03-18T0500,1277A,117.3027,31.7964,合肥市,包河区,颗粒物(PM10),51,51,42,27,21,18,,,,66,45,1,1,0.5,0.5
2025-03-18T0500,1278A,117.2776,31.7385,合肥市,滨湖新区,,46,46,40,29,24,9,,,,75,48,8,8,0.4,0.4
2025-03-18T0500,1279A,117.1318,31.8403,合肥市,高新区,,44,44,37,21,16,89,,,,10,16,3,2,0.4,0.4
2025-03-18T0500,3464A,117.3803,31.9147,合肥市,高教基地,颗粒物(PM10),56,61,45,39,21,4,,,,69,38,6,6,0.5,0.4
2025-03-18T0500,3614A,79.924,37.0877,和田地区,地区环保局,颗粒物(PM10),186,322,557,88,143,46,,,,21,19,3,2,0.4,0.4
2025-03-18T0500,3615A,79.9131,37.113,和田地区,市环保局,颗粒物(PM10),203,352,573,89,125,42,,,,31,26,1,2,0.8,0.7
2025-03-18T0500,2516A,108.2011,24.715,河池市,东仁乐园,,25,,36,13,23,80,,,,6,8,7,7,0.6,0.7
2025-03-18T0500,2517A,108.0497,24.6947,河池市,市环保站,,25,,35,11,23,78,,,,3,6,9,10,0.5,0.5
2025-03-18T0500,2518A,108.0983,24.6989,河池市,市疾控中心,,26,26,31,10,23,80,,,,1,4,7,6,0.5,0.5
2025-03-18T0500,1696A,114.6778,23.7569,河源市,源西,,42,32,45,29,27,78,,,,13,18,5,5,0.5,0.5
2025-03-18T0500,1697A,114.6944,23.7586,河源市,东埔,,43,,49,30,28,85,,,,11,16,6,5,0.5,0.5
2025-03-18T0500,1698A,114.6892,23.7233,河源市,老城,,45,33,47,31,32,82,,,,10,15,6,5,0.5,0.5
2025-03-18T0500,1718A,115.4208,35.2464,菏泽市,气象局,颗粒物(PM10),61,71,63,20,23,61,,,,18,15,4,4,0.3,0.4
2025-03-18T0500,3374A,115.5564,35.0891,菏泽市,定陶老年大学,颗粒物(PM10),57,63,59,17,19,59,,,,23,21,5,4,0.4,0.5
2025-03-18T0500,4184A,115.4797,35.24401,菏泽市,永昌路1号,颗粒物(PM10),67,83,66,22,24,56,,,,32,22,10,8,0.2,0.3
2025-03-18T0500,4193A,115.4715,35.2800,菏泽市,长城路999号,颗粒物(PM10),75,99,73,20,16,41,,,,37,24,5,5,0.4,0.4
2025-03-18T0500,2514A,111.5264,24.4172,贺州市,环保小区,,30,,44,21,28,86,,,,6,11,5,6,0.4,0.4
2025-03-18T0500,2515A,111.5608,24.4078,贺州市,政协大楼,,36,36,47,18,27,82,,,,8,12,6,6,0.2,0.3
2025-03-18T0500,3534A,111.4744,24.4553,贺州市,西湾,,29,28,45,20,29,77,,,,9,12,6,7,0.4,0.4
2025-03-18T0500,2385A,114.17,35.9019,鹤壁市,市监测站,颗粒物(PM10),76,102,58,27,15,42,,,,30,21,5,3,0.7,0.6
2025-03-18T0500,2386A,114.2956,35.7511,鹤壁市,市交警支队,颗粒物(PM10),69,88,50,21,14,58,,,,12,18,15,8,0.2,0.2
2025-03-18T0500,2387A,114.2878,35.7306,鹤壁市,迎宾馆,颗粒物(PM10),72,93,64,12,11,61,,,,8,9,7,3,0.3,0.3
2025-03-18T0500,3474A,114.2617,35.6822,鹤壁市,大新区,颗粒物(PM10),63,76,50,24,15,27,,,,43,21,5,6,0.4,0.3
2025-03-18T0500,3596A,114.1572,35.9603,鹤壁市,南山宾馆,颗粒物(PM10),78,105,54,31,25,60,,,,23,12,4,4,0.5,0.5
2025-03-18T0500,2244A,130.2537,47.3416,鹤岗市,哈啤分公司,,26,18,24,14,17,81,,,,2,4,12,14,0.2,0.3
2025-03-18T0500,2245A,130.2684,47.3086,鹤岗市,斯达机电,,27,11,25,9,15,86,,,,1,4,13,13,0.2,0.2
2025-03-18T0500,2246A,130.3114,47.3388,鹤岗市,东山纸板厂,颗粒物(PM10),68,85,49,28,21,59,,,,14,11,21,21,0.7,0.5
2025-03-18T0500,2247A,130.1097,47.3382,鹤岗市,五号水库,,,,,,,,,,,,,,,,
2025-03-18T0500,2263A,127.4833,50.2524,黑河市,交通局,,25,16,22,11,12,79,,,,4,9,5,7,0.5,0.5
2025-03-18T0500,2264A,127.5144,50.2341,黑河市,环保局,,26,16,30,16,17,82,,,,5,11,4,7,0.4,0.4
2025-03-18T0500,2265A,127.5291,50.2472,黑河市,大黑河岛,,,,,,,5,,,,10,11,1,2,,
2025-03-18T0500,1074A,115.6838,37.7541,衡水市,电机北厂,,30,30,61,19,20,65,,,,17,16,5,7,0.2,0.4
2025-03-18T0500,1075A,115.6303,37.7316,衡水市,市监测站,,25,25,56,11,14,74,,,,12,17,7,7,0.3,0.4
2025-03-18T0500,3188A,115.6683,37.7217,衡水市,市城管局,,24,24,56,16,20,68,,,,15,20,6,4,0.3,0.4
2025-03-18T0500,3459A,115.5989,37.5491,衡水市,地表水厂,,26,26,48,12,14,62,,,,27,26,7,8,0.2,0.4
2025-03-18T0500,2456A,112.5003,26.9167,衡阳市,原169医院,,36,36,33,22,17,47,,,,10,13,12,11,0.4,0.4
2025-03-18T0500,2457A,112.6194,26.9258,衡阳市,衡阳化工总厂,,46,42,43,32,26,79,,,,10,12,7,5,0.5,0.5
2025-03-18T0500,2458A,112.6211,26.8956,衡阳市,珠晖区环保局,,43,43,39,28,25,79,,,,8,11,9,7,0.6,0.5
2025-03-18T0500,2459A,112.6197,26.8733,衡阳市,市委党校,,46,40,41,32,25,77,,,,12,14,13,11,0.7,0.6
2025-03-18T0500,2460A,112.6006,26.8919,衡阳市,市监测站,,49,48,45,34,29,69,,,,14,14,10,8,0.6,0.6
2025-03-18T0500,2461A,112.5664,26.9056,衡阳市,真空机电公司,,44,44,41,28,25,68,,,,5,8,9,6,0.6,0.4
2025-03-18T0500,3399A,112.6703,26.882,衡阳市,师范学院,,39,39,43,26,28,83,,,,14,14,11,9,0.5,0.5
2025-03-18T0500,2608A,103.3772,23.3993,红河哈尼族彝族自治州,污水处理厂,,35,,41,24,38,46,,,,7,8,6,6,0.4,0.4
2025-03-18T0500,2609A,103.3861,23.35,红河哈尼族彝族自治州,监测站,,28,24,48,19,31,60,,,,6,12,6,9,0.5,0.5
2025-03-18T0500,3038A,103.3758,23.368,红河哈尼族彝族自治州,州图书馆,,30,,30,21,32,56,,,,5,11,5,6,0.3,0.4
2025-03-18T0500,1090A,111.6507,40.7517,呼和浩特市,呼市一监,,23,17,15,16,8,44,,,,18,5,8,8,0.4,0.5
2025-03-18T0500,1091A,111.6572,40.8033,呼和浩特市,小召,,21,9,28,8,8,66,,,,22,12,3,2,0.4,0.3
2025-03-18T0500,1094A,111.7516,40.8369,呼和浩特市,如意水处理厂,,19,18,18,8,7,60,,,,14,7,6,6,0.3,0.2
2025-03-18T0500,1095A,111.7276,40.8062,呼和浩特市,二十九中,,19,14,21,11,8,59,,,,17,5,4,3,0.7,0.6
2025-03-18T0500,1096A,111.5512,40.7866,呼和浩特市,工大金川校区,,28,22,23,12,7,15,,,,56,12,19,6,0.6,0.5
2025-03-18T0500,1097A,111.717,40.7612,呼和浩特市,化肥厂生活区,,29,29,23,13,8,54,,,,18,11,8,6,0.4,0.4
2025-03-18T0500,3698A,111.5968,40.8178,呼和浩特市,红旗小学,,20,12,19,11,8,64,,,,24,8,4,4,0.4,0.4
2025-03-18T0500,3699A,111.6518,40.8389,呼和浩特市,海东办,,17,14,18,8,9,54,,,,24,8,6,5,0.5,0.5
2025-03-18T0500,2192A,119.7594,49.2261,呼伦贝尔市,区环保局,,42,,35,29,26,74,,,,15,19,6,6,0.4,0.4
2025-03-18T0500,3061A,119.7512,49.1577,呼伦贝尔市,国华电力东,,27,27,37,18,20,80,,,,8,9,4,4,0.5,0.5
2025-03-18T0500,1250A,120.0751,30.8669,湖州市,城西水厂,颗粒物(PM10),52,54,45,31,24,24,,,,70,63,8,9,0.3,0.3
2025-03-18T0500,2873A,120.0830,30.8929,湖州市,仁皇山新区,,39,39,37,24,22,78,,,,22,31,8,6,0.5,0.4
2025-03-18T0500,2907A,120.1844,30.8596,湖州市,吴兴区站,,41,41,40,27,23,47,,,,39,36,6,6,0.4,0.4
2025-03-18T0500,3562A,120.4148,30.8538,湖州市,南浔区站,,42,42,41,29,26,61,,,,26,22,6,5,0.4,0.4
2025-03-18T0500,1607A,120.9049,40.7211,葫芦岛市,龙港区,,23,23,41,16,25,64,,,,17,23,12,15,0.4,0.6
2025-03-18T0500,1608A,120.8392,40.7514,葫芦岛市,化工街,,27,27,43,17,18,71,,,,14,22,43,16,0.4,0.4
2025-03-18T0500,1609A,120.8341,40.7073,葫芦岛市,新区,,26,22,41,15,23,82,,,,12,24,10,12,0.4,0.5
2025-03-18T0500,1610A,120.8695,40.7677,葫芦岛市,东城区,,23,22,35,16,21,65,,,,17,22,8,12,0.4,0.5
2025-03-18T0500,2482A,109.5981,27.5721,怀化市,林科所,,31,31,30,19,19,43,,,,4,5,5,7,0.6,0.7
2025-03-18T0500,2483A,109.9453,27.5444,怀化市,河西地税局,,32,23,42,22,30,35,,,,9,14,7,7,0.5,0.4
2025-03-18T0500,2484A,109.9781,27.5342,怀化市,市四医院,,48,48,48,32,29,33,,,,16,15,4,5,0.2,0.2
2025-03-18T0500,2485A,109.9972,27.5578,怀化市,监测楼,细颗粒物(PM2.5),54,51,44,38,27,33,,,,15,12,7,8,0.4,0.3
2025-03-18T0500,2486A,110.0394,27.583,怀化市,市委党校,,30,30,37,17,24,32,,,,13,12,1,3,0.3,0.3
2025-03-18T0500,1210A,119.036,33.5981,淮安市,钵池山,,44,44,51,22,26,66,,,,18,18,9,10,0.6,0.6
2025-03-18T0500,1211A,119.007,33.575,淮安市,北京南路,,36,36,54,21,28,66,,,,17,25,9,12,0.6,0.9
2025-03-18T0500,1212A,118.989,33.6067,淮安市,市监测站,,34,34,49,17,29,52,,,,31,23,8,9,0.4,0.5
2025-03-18T0500,1213A,119.135,33.5039,淮安市,楚州区监测站,,46,46,54,23,24,43,,,,34,20,6,7,0.7,0.7
2025-03-18T0500,3426A,118.8755,33.2894,淮安市,新华书店,,42,42,48,22,27,58,,,,20,16,8,8,0.5,0.5
2025-03-18T0500,4206A,119.0288,33.6319,淮安市,承德北路606号,颗粒物(PM10),51,51,57,25,29,64,,,,21,23,7,8,0.5,0.5
2025-03-18T0500,2282A,116.8004,33.975,淮北市,监测站,颗粒物(PM10),57,63,60,27,27,63,,,,17,21,8,8,0.8,0.8
2025-03-18T0500,2283A,116.8091,33.9007,淮北市,烈山区政府,颗粒物(PM10),53,56,60,19,28,76,,,,18,27,6,7,0.7,0.7
2025-03-18T0500,3330A,116.8873,33.9836,淮北市,杜集区检察院,,50,50,72,21,29,73,,,,17,26,7,7,0.5,0.6
2025-03-18T0500,4017A,116.7923,33.9535,淮北市,市博物馆,颗粒物(PM10),56,61,68,24,29,67,,,,17,21,10,10,0.7,0.7
2025-03-18T0500,2277A,116.8305,32.7727,淮南市,潘集区政府,细颗粒物(PM2.5),62,72,67,44,36,40,,,,35,27,5,4,0.4,0.4
2025-03-18T0500,2279A,116.8569,32.5951,淮南市,谢家集区政府,颗粒物(PM10),63,76,55,38,26,37,,,,36,14,9,6,0.4,0.4
2025-03-18T0500,2280A,116.8281,32.633,淮南市,八公山区政府,颗粒物(PM10),58,65,40,33,18,32,,,,22,9,4,2,0.3,0.2
2025-03-18T0500,2281A,116.6325,32.6201,淮南市,焦岗湖风景区管理处,,38,38,28,23,20,20,,,,28,9,5,8,0.4,0.2
2025-03-18T0500,2894A,117.0566,32.6531,淮南市,经济技术开发区消防队,颗粒物(PM10),67,84,56,46,23,29,,,,44,18,8,6,0.3,0.3
2025-03-18T0500,3329A,117.0108,32.5893,淮南市,山南新区,颗粒物(PM10),65,80,54,33,26,47,,,,29,15,10,7,0.6,0.5
2025-03-18T0500,4209A,117.0031,32.6445,淮南市,国庆中路369号,细颗粒物(PM2.5),68,78,55,49,32,36,,,,38,25,10,7,0.5,0.5
2025-03-18T0500,2446A,114.9028,30.4742,黄冈市,职工中心,,39,39,35,26,27,60,,,,22,22,6,5,0.4,0.5
2025-03-18T0500,2929A,114.8858,30.4519,黄冈市,红卫路,,40,40,43,27,28,62,,,,22,19,6,6,0.4,0.4
2025-03-18T0500,3398A,114.9136,30.4445,黄冈市,市林业局,,40,39,40,28,30,65,,,,18,18,8,8,0.5,0.6
2025-03-18T0500,2672A,102.0199,35.5102,黄南藏族自治州,同仁县隆务镇,颗粒物(PM10),51,51,52,23,27,84,,,,3,5,14,14,0.3,0.3
2025-03-18T0500,2295A,118.2903,29.6963,黄山市,延安路89号,,19,,26,13,14,25,,,,12,7,4,4,0.2,0.1
2025-03-18T0500,2297A,118.1371,30.2756,黄山市,黄山区政府5号楼,,32,32,26,16,16,18,,,,6,5,7,8,0.5,0.5
2025-03-18T0500,4210A,118.3354,29.7203,黄山市,滨江东路7-2号,,25,25,31,3,15,27,,,,4,7,4,4,0.3,0.3
2025-03-18T0500,2423A,115.0601,30.2313,黄石市,沈家营,,38,38,37,19,19,66,,,,21,16,7,7,0.8,0.6
2025-03-18T0500,2426A,114.8988,30.2019,黄石市,铁山,,39,39,45,27,27,60,,,,22,22,4,9,0.8,0.8
2025-03-18T0500,2427A,115.0307,30.2092,黄石市,团城山,,45,45,37,21,17,82,,,,20,18,9,10,0.8,0.8
2025-03-18T0500,3149A,115.0235,30.1578,黄石市,笔架山北路,,45,36,34,31,21,78,,,,21,19,12,9,0.8,0.6
2025-03-18T0500,4185A,115.0780,30.21118,黄石市,磁湖东路29号,,40,40,41,21,23,84,,,,15,15,7,7,0.8,0.8
2025-03-18T0500,1392A,114.4183,23.0528,惠州市,河南岸金山湖子站,,40,40,50,24,28,88,,,,12,18,9,9,0.6,0.6
2025-03-18T0500,1393A,114.4053,23.0822,惠州市,下埔横江三路子站,,42,42,53,27,30,86,,,,12,17,10,9,0.5,0.5
2025-03-18T0500,1394A,114.4103,23.1142,惠州市,江北云山西路子站,,43,43,53,24,29,86,,,,13,18,10,10,0.4,0.5
2025-03-18T0500,1395A,114.4645,22.7833,惠州市,惠阳区承修路船湖子站,颗粒物(PM10),53,56,62,33,31,63,,,,16,21,10,9,0.6,0.6
2025-03-18T0500,1396A,114.5317,22.7422,惠州市,大亚湾管委会子站,,49,49,54,29,28,69,,,,16,26,9,8,0.5,0.5
2025-03-18T0500,3314A,114.4338,22.8134,惠州市,惠阳秋长,,45,41,57,31,33,70,,,,15,17,8,7,0.5,0.5
2025-03-18T0500,3452A,114.6517,22.775,惠州市,大亚湾霞涌,,50,50,51,33,31,68,,,,15,16,6,6,0.6,0.7
2025-03-18T0500,2240A,130.9762,45.3001,鸡西市,环保局,,28,28,27,18,13,59,,,,10,10,5,6,0.4,0.4
2025-03-18T0500,2243A,130.9429,45.3039,鸡西市,第一中学,,28,25,26,19,12,61,,,,8,9,7,7,0.4,0.3
2025-03-18T0500,3707A,131.0207,45.3073,鸡西市,欧美日汽修厂,,38,35,50,26,34,20,,,,40,18,11,12,0.5,0.6
2025-03-18T0500,3709A,130.9967,45.3106,鸡西市,市政设施管理处,,41,41,35,22,16,9,,,,52,20,5,5,0.4,0.3
2025-03-18T0500,2367A,114.9754,27.0803,吉安市,红声器材厂,,46,46,48,21,23,67,,,,20,17,14,12,0.5,0.6
2025-03-18T0500,2368A,114.9658,27.0999,吉安市,市森林工业局,,37,37,41,21,24,70,,,,16,15,23,13,0.2,0.2
2025-03-18T0500,2369A,114.99,27.1312,吉安市,市环境监测站,,48,36,46,33,30,58,,,,19,14,25,19,0.2,0.2
2025-03-18T0500,2370A,115.0093,27.0968,吉安市,青原区法院,,42,42,45,25,27,33,,,,34,19,10,10,0.3,0.3
2025-03-18T0500,1772A,126.54,43.8622,吉林市,哈达湾,颗粒物(PM10),57,64,95,30,64,56,,,,17,23,9,14,0.5,0.7
2025-03-18T0500,1773A,126.5844,43.8358,吉林市,东局子,细颗粒物(PM2.5),94,98,94,70,62,32,,,,30,25,9,14,1.1,0.8
2025-03-18T0500,1774A,126.5052,43.8245,吉林市,电力学院,细颗粒物(PM2.5),102,89,85,76,66,28,,,,25,24,4,9,0.7,0.5
2025-03-18T0500,1775A,126.6133,43.8972,吉林市,江北,细颗粒物(PM2.5),99,92,101,74,72,35,,,,29,32,3,6,1.2,0.7
2025-03-18T0500,1776A,126.555,43.8306,吉林市,江南公园,细颗粒物(PM2.5),62,51,77,44,63,47,,,,22,24,7,11,0.5,0.7
2025-03-18T0500,1778A,126.7061,43.7133,吉林市,丰满,细颗粒物(PM2.5),85,65,53,63,51,57,,,,21,12,8,7,0.8,0.6
2025-03-18T0500,2868A,126.4739,43.953,吉林市,九站,细颗粒物(PM2.5),65,56,89,47,71,44,,,,22,29,8,13,0.7,0.8
2025-03-18T0500,1299A,116.9862,36.6114,济南市,科干所,,24,24,43,10,13,71,,,,14,15,6,6,0.4,0.4
2025-03-18T0500,1300A,116.9376,36.665,济南市,农科所,,27,27,54,3,11,62,,,,25,24,6,7,0.6,0.7
2025-03-18T0500,1301A,117.1265,36.6734,济南市,开发区,,22,20,46,15,17,70,,,,17,18,7,7,0.4,0.4
2025-03-18T0500,1303A,117.0624,36.6868,济南市,省种子仓库,,34,34,56,9,13,64,,,,20,18,5,5,0.6,0.5
2025-03-18T0500,1304A,116.9489,36.6447,济南市,机床二厂,,32,32,58,7,14,67,,,,26,23,7,9,0.6,0.7
2025-03-18T0500,1305A,117.0495,36.663,济南市,市监测站,,29,29,52,12,13,66,,,,17,18,8,8,0.4,0.4
2025-03-18T0500,1306A,116.7675,36.5484,济南市,长清党校,,24,24,52,3,17,66,,,,25,19,4,6,0.5,0.5
2025-03-18T0500,1616A,117.6795,36.229,济南市,技术学院,,24,19,52,7,21,76,,,,16,26,10,12,0.7,0.8
2025-03-18T0500,1961A,117.532,36.6868,济南市,东山小学,,25,20,50,3,12,79,,,,15,24,7,7,0.6,0.6
2025-03-18T0500,3059A,117.7161,36.2049,济南市,泰兴公司,,27,27,56,9,21,80,,,,14,31,8,9,0.7,0.8
2025-03-18T0500,3064A,117.6867,36.2171,济南市,莱芜战役纪念馆,,34,34,57,12,17,76,,,,21,25,7,7,0.6,0.6
2025-03-18T0500,3494A,117.1673,36.9782,济南市,济阳区政府,,34,34,57,7,13,49,,,,27,21,10,11,0.2,0.2
2025-03-18T0500,3495A,117.1171,36.63,济南市,锦屏中学,,23,17,41,3,10,73,,,,15,16,9,9,0.3,0.3
2025-03-18T0500,3682A,116.9814,36.6819,济南市,济南四建,,29,29,50,3,15,60,,,,22,19,4,5,0.2,0.3
2025-03-18T0500,1653A,116.6251,35.4302,济宁市,火炬城,,38,38,50,7,25,72,,,,18,18,8,10,0.4,0.5
2025-03-18T0500,1655A,116.5491,35.4042,济宁市,电化厂,颗粒物(PM10),52,54,73,17,27,73,,,,16,16,8,10,0.6,0.7
2025-03-18T0500,3500A,116.5814,35.3707,济宁市,北湖一中,,30,30,46,3,17,82,,,,14,20,7,10,0.3,0.4
2025-03-18T0500,3501A,116.8249,35.5593,济宁市,服务中心,,44,44,63,10,18,64,,,,30,29,6,6,0.7,0.7
2025-03-18T0500,3678A,116.5907,35.4054,济宁市,市第七中学,,32,32,58,7,18,85,,,,18,23,3,6,0.4,0.5
2025-03-18T0500,2255A,130.2751,46.8028,佳木斯市,佳纺,,43,43,43,22,18,36,,,,22,23,3,5,0.5,0.5
2025-03-18T0500,2256A,130.3995,46.8307,佳木斯市,发电厂,,22,22,23,14,15,65,,,,12,13,2,3,0.4,0.4
2025-03-18T0500,2257A,130.3258,46.7975,佳木斯市,环保局,,46,46,37,22,15,46,,,,26,25,3,3,0.3,0.3
2025-03-18T0500,2258A,130.3648,46.8032,佳木斯市,十一中,,32,32,31,16,17,71,,,,16,21,4,5,0.4,0.5
2025-03-18T0500,2259A,130.3794,46.7588,佳木斯市,四丰,,24,24,24,13,12,57,,,,9,10,1,1,0.6,0.7
2025-03-18T0500,1252A,120.7436,30.778,嘉兴市,清河小学,颗粒物(PM10),53,55,41,34,24,30,,,,63,37,5,5,0.6,0.7
2025-03-18T0500,1253A,120.726,30.7478,嘉兴市,嘉兴学院,颗粒物(PM10),56,62,47,37,27,18,,,,51,36,8,9,0.7,0.6
2025-03-18T0500,2872A,120.7846,30.7525,嘉兴市,南湖区残联,颗粒物(PM10),54,57,42,32,26,41,,,,58,34,9,10,0.5,0.5
2025-03-18T0500,3407A,120.6916,30.7739,嘉兴市,秀洲住建,细颗粒物(PM2.5),67,62,46,48,30,12,,,,70,40,6,7,0.6,0.4
2025-03-18T0500,1945A,98.2908,39.7711,嘉峪关市,气象局,颗粒物(PM10),52,53,66,24,28,85,,,,12,21,3,12,0.3,0.4
2025-03-18T0500,2884A,98.2672,39.7978,嘉峪关市,酒钢宾馆,颗粒物(PM10),68,85,83,22,26,72,,,,9,21,3,18,0.3,0.4
2025-03-18T0500,3248A,98.2643,39.7724,嘉峪关市,雄关区,,,,64,,29,,,74,,,27,,8,,0.5
2025-03-18T0500,1383A,113.1064,22.6058,江门市,北街,细颗粒物(PM2.5),63,52,60,45,33,43,,,,38,31,5,3,0.5,0.5
2025-03-18T0500,1384A,113.0731,22.5835,江门市,西区,"颗粒物(PM10),细颗粒物(PM2.5)",63,75,65,45,27,47,,,,33,32,9,6,0.5,0.4
2025-03-18T0500,1385A,113.0219,22.5311,江门市,圭峰西,细颗粒物(PM2.5),59,54,54,42,31,55,,,,26,29,8,5,0.4,0.3
2025-03-18T0500,1386A,113.0828,22.5947,江门市,东湖,细颗粒物(PM2.5),62,71,58,44,33,49,,,,29,26,9,7,0.5,0.4
2025-03-18T0500,3311A,113.1075,22.5647,江门市,江海富民,颗粒物(PM10),55,60,58,27,26,49,,,,30,29,9,8,0.3,0.3
2025-03-18T0500,3449A,113.05,22.4667,江门市,新会银湖,细颗粒物(PM2.5),74,56,55,54,40,40,,,,37,43,4,2,0.5,0.4
2025-03-18T0500,1830A,113.1992,35.2590,焦作市,影视城,,,,44,,18,,,,,,19,,13,,0.7
2025-03-18T0500,3169A,113.2725,35.2067,焦作市,太极体育中心,颗粒物(PM10),70,90,63,22,20,52,,,,27,21,11,9,0.5,0.5
2025-03-18T0500,3335A,113.3137,35.2641,焦作市,马村街道办,颗粒物(PM10),67,84,56,22,17,56,,,,26,22,9,10,0.7,0.5
2025-03-18T0500,3336A,113.2465,35.2373,焦作市,焦作技师学院,颗粒物(PM10),61,72,54,19,16,64,,,,18,18,6,8,0.5,0.4
2025-03-18T0500,3477A,113.1656,35.2539,焦作市,中站许衡医院,颗粒物(PM10),57,64,47,29,23,54,,,,35,22,8,8,0.5,0.5
2025-03-18T0500,3981A,113.2449,35.1803,焦作市,原李万街道办,颗粒物(PM10),63,75,58,17,12,60,,,,23,19,10,8,0.5,0.5
2025-03-18T0500,4264A,113.2340,35.2190,焦作市,新安路1731号,颗粒物(PM10),69,87,62,22,19,63,,,,16,17,10,8,0.5,0.5
2025-03-18T0500,1708A,116.3701,23.5345,揭阳市,新兴,细颗粒物(PM2.5),82,,53,60,37,46,,,,24,21,8,8,0.8,0.7
2025-03-18T0500,1709A,116.3264,23.5443,揭阳市,西马,细颗粒物(PM2.5),79,59,56,58,44,40,,,,22,18,10,10,0.6,0.6
2025-03-18T0500,1710A,116.3611,23.5626,揭阳市,东兴,细颗粒物(PM2.5),115,,69,87,49,37,,,,23,21,8,8,0.7,0.6
2025-03-18T0500,1711A,116.4151,23.5294,揭阳市,渔湖,细颗粒物(PM2.5),84,72,57,62,34,36,,,,33,17,9,9,0.7,0.6
2025-03-18T0500,3320A,116.403,23.5699,揭阳市,曲溪,细颗粒物(PM2.5),74,59,57,54,35,39,,,,33,25,9,8,0.6,0.5
2025-03-18T0500,1944A,102.1692,38.5167,金昌市,天庆家园,,26,22,41,18,24,51,,,,17,15,13,10,0.9,0.8
2025-03-18T0500,4022A,102.1647,38.5371,金昌市,金川区人防中心,,23,23,57,14,24,44,,,,12,13,9,12,0.7,0.6
2025-03-18T0500,4239A,102.1930,38.5319,金昌市,长春路96号,颗粒物(PM10),60,69,65,22,21,31,,,,27,15,22,9,1.0,0.8
2025-03-18T0500,1262A,119.647,29.077,金华市,十五中,,38,38,37,23,21,40,,,,25,27,5,5,0.4,0.4
2025-03-18T0500,1263A,119.686,29.1029,金华市,监测站,,40,40,35,25,23,31,,,,28,24,4,5,0.4,0.3
2025-03-18T0500,3659A,119.656,29.1131,金华市,气象局,颗粒物(PM10),60,70,45,37,25,3,,,,61,39,5,5,0.5,0.5
2025-03-18T0500,1767A,121.1115,41.0879,锦州市,南山,,27,27,37,16,27,75,,,,9,19,26,32,0.5,0.6
2025-03-18T0500,1768A,121.0604,40.8428,锦州市,开发区,,32,31,40,22,25,58,,,,23,19,13,20,0.5,0.6
2025-03-18T0500,1769A,121.1836,41.1119,锦州市,百股街道,,25,23,43,17,29,76,,,,8,18,7,15,0.5,0.6
2025-03-18T0500,1770A,121.1178,41.1222,锦州市,天安街道,,27,22,34,15,24,85,,,,8,19,8,16,0.4,0.5
2025-03-18T0500,1771A,121.1303,41.1386,锦州市,北湖公园,,24,18,34,13,22,75,,,,10,19,7,12,0.4,0.5
2025-03-18T0500,2160A,112.85,35.5051,晋城市,自来水公司,颗粒物(PM10),52,54,39,3,8,66,,,,22,16,8,8,0.5,0.5
2025-03-18T0500,2161A,112.8318,35.4936,晋城市,白云商贸,,37,37,40,3,3,83,,,,19,18,6,7,0.4,0.5
2025-03-18T0500,2162A,112.8508,35.4887,晋城市,市环保局,颗粒物(PM10),60,69,39,9,10,71,,,,19,17,6,6,0.3,0.3
2025-03-18T0500,2163A,112.8676,35.4897,晋城市,技术学院,,48,48,46,7,7,58,,,,18,12,7,8,0.5,0.5
2025-03-18T0500,2165A,112.8453,35.546,晋城市,白马寺,,,,,,,,,,,,,,,,
2025-03-18T0500,3620A,112.8271,35.4828,晋城市,泽州一中,,36,36,33,3,6,84,,,,13,12,9,9,0.4,0.4
2025-03-18T0500,2173A,112.7249,37.7067,晋中市,南都小区,,36,36,45,17,21,58,,,,24,19,7,12,0.3,0.5
2025-03-18T0500,2174A,112.6991,37.6982,晋中市,榆次区政府,,44,44,47,13,17,62,,,,26,22,6,12,0,0.2
2025-03-18T0500,2865A,112.7195,37.6828,晋中市,榆次三中,,29,29,41,7,10,66,,,,19,21,5,8,0.1,0.3
2025-03-18T0500,4200A,112.7478,37.6954,晋中市,迎宾街26号,,34,34,44,7,13,54,,,,24,20,5,9,0.1,0.4
2025-03-18T0500,2439A,112.2014,31.0481,荆门市,竹园小学,颗粒物(PM10),56,62,58,36,31,57,,,,25,15,4,5,0.4,0.3
2025-03-18T0500,2440A,112.1969,30.9891,荆门市,掇刀,颗粒物(PM10),63,76,60,43,33,66,,,,22,18,9,6,0.4,0.3
2025-03-18T0500,2441A,112.2213,31.0386,荆门市,石化一小,颗粒物(PM10),66,81,71,37,38,49,,,,29,26,10,9,0.1,0.2
2025-03-18T0500,3012A,112.1849,31.0362,荆门市,西山林语,颗粒物(PM10),54,58,49,32,27,77,,,,13,14,4,5,0.1,0.2
2025-03-18T0500,3547A,112.1632,31.0138,荆门市,龙泉中学南校,颗粒物(PM10),69,87,60,43,34,65,,,,20,13,9,8,0.4,0.4
2025-03-18T0500,1844A,112.2494,30.3197,荆州市,市图书馆,细颗粒物(PM2.5),55,55,47,39,36,65,,,,20,25,7,5,0.4,0.4
2025-03-18T0500,1845A,112.2008,30.3544,荆州市,市委党校,细颗粒物(PM2.5),67,59,52,48,38,54,,,,24,25,9,7,0.4,0.3
2025-03-18T0500,3194A,112.2747,30.3122,荆州市,管委会,颗粒物(PM10),62,73,54,41,40,64,,,,22,22,12,11,0.3,0.3
2025-03-18T0500,4268A,112.1722,30.3366,荆州市,学苑路85号,细颗粒物(PM2.5),60,54,49,43,36,62,,,,11,17,7,6,0.5,0.5
2025-03-18T0500,2342A,117.3102,29.3867,景德镇市,王港中学,,,,,,,,,,,,,,,,
2025-03-18T0500,2343A,117.2117,29.2933,景德镇市,老干部活动中心,,35,31,29,24,23,18,,,,24,19,7,8,0.5,0.4
2025-03-18T0500,2344A,117.1894,29.2789,景德镇市,兽医站,,46,46,41,28,19,37,,,,30,24,9,10,0.8,0.5
2025-03-18T0500,2345A,117.1547,29.2617,景德镇市,台达陶瓷,颗粒物(PM10),54,57,43,29,22,18,,,,43,28,52,53,0.6,0.6
2025-03-18T0500,2346A,117.2461,29.2956,景德镇市,陶研所,,40,32,29,28,24,11,,,,25,18,6,8,0.6,0.5
2025-03-18T0500,1803A,115.9872,29.6815,九江市,十里,,39,35,36,27,22,38,,,,42,31,2,3,0.6,0.5
2025-03-18T0500,1804A,115.9584,29.7046,九江市,茅山头,颗粒物(PM10),53,56,42,30,22,35,,,,41,35,8,7,0.3,0.3
2025-03-18T0500,1805A,115.9877,29.7295,九江市,西园,,33,33,34,20,20,78,,,,30,30,7,10,0.4,0.4
2025-03-18T0500,1808A,115.9114,29.6038,九江市,综合工业园,,45,38,34,31,26,39,,,,60,48,7,9,0.6,0.5
2025-03-18T0500,1809A,116.0721,29.7535,九江市,石化总厂,细颗粒物(PM2.5),52,45,39,36,31,37,,,,66,38,10,9,0.5,0.5
2025-03-18T0500,1810A,115.9773,29.5698,九江市,庐山气象台,,46,38,31,32,26,106,,,,7,7,6,6,0.5,0.7
2025-03-18T0500,3190A,116.0254,29.6994,九江市,外国语学校,,31,31,34,21,22,70,,,,24,27,10,11,0.5,0.5
2025-03-18T0500,4253A,116.0102,29.6594,九江市,莲花大道8号,,46,46,37,27,24,79,,,,11,16,8,8,0.4,0.4
2025-03-18T0500,4240A,98.4958,39.7339,酒泉市,玉门东路5号,颗粒物(PM10),58,66,71,31,32,72,,,,6,12,7,11,0.4,0.5
2025-03-18T0500,4241A,98.5099,39.7506,酒泉市,北大街108号,颗粒物(PM10),54,58,69,24,29,62,,,,8,17,8,12,0.4,0.5
2025-03-18T0500,2698A,76.0072,39.4467,喀什地区,巡警大队,颗粒物(PM10),458,558,543,139,142,31,,,,54,42,4,4,1.1,1
2025-03-18T0500,2699A,75.9755,39.4694,喀什地区,吾办,颗粒物(PM10),460,560,524,174,157,11,,,,63,40,2,3,1.3,1
2025-03-18T0500,4027A,75.9483,39.4689,喀什地区,老干局,颗粒物(PM10),500,615,576,153,137,8,,,,72,45,4,4,2.0,1.2
2025-03-18T0500,1824A,114.3389,34.7781,开封市,肿瘤医院,颗粒物(PM10),56,62,58,19,20,61,,,,18,20,5,6,0.6,0.7
2025-03-18T0500,1826A,114.2885,34.7965,开封市,世纪星幼儿园,颗粒物(PM10),57,63,52,20,18,69,,,,21,22,6,8,0.7,0.7
2025-03-18T0500,3147A,114.3438,34.8106,开封市,龙亭公园,,50,50,57,19,18,57,,,,26,26,3,5,0.5,0.6
2025-03-18T0500,3210A,114.3644,34.7964,开封市,汴京公园,颗粒物(PM10),59,68,63,20,19,63,,,,17,20,5,6,0.6,0.5
2025-03-18T0500,3473A,114.2485,34.8306,开封市,技师学院,,,,71,,11,,,63,,,34,,7,,0.6
2025-03-18T0500,3592A,114.4644,34.7556,开封市,祥符区生态环境局,颗粒物(PM10),69,88,71,22,22,46,,,,29,30,6,7,0.5,0.6
2025-03-18T0500,1951A,84.895,45.6094,克拉玛依市,长征新村,,36,36,42,14,15,81,,,,12,20,6,7,0.3,0.3
2025-03-18T0500,1952A,84.8988,45.5893,克拉玛依市,南林小区,,37,37,41,19,18,76,,,,4,14,3,4,0.6,0.8
2025-03-18T0500,1954A,84.905,44.3396,克拉玛依市,独山子区,细颗粒物(PM2.5),68,58,62,49,36,70,,,,12,15,6,8,0.4,0.5
2025-03-18T0500,1955A,85.6979,46.098,克拉玛依市,乌尔禾区商贸楼,,31,31,41,9,16,86,,,,4,9,4,5,0.4,0.5
2025-03-18T0500,3612A,85.1045,45.6899,克拉玛依市,白碱滩区新站,,43,43,43,19,14,98,,,,3,15,8,8,0.4,0.5
2025-03-18T0500,2697A,76.1454,39.7142,克孜勒苏柯尔克孜自治州,市人民政府,颗粒物(PM10),461,561,511,157,139,61,,,,6,12,4,4,0.5,0.5
2025-03-18T0500,3665A,76.1658,39.7157,克孜勒苏柯尔克孜自治州,克州文化中心,颗粒物(PM10),463,563,541,150,137,72,,,,3,15,3,4,0.4,0.4
2025-03-18T0500,1450A,102.8204,24.8886,昆明市,呈贡新区,,17,17,22,3,17,51,,,,8,14,6,5,0.6,0.7
2025-03-18T0500,1451A,102.6251,24.9608,昆明市,西山森林公园,,,,,,,,,,,,,,,,
2025-03-18T0500,1452A,102.7252,25.0902,昆明市,龙泉镇,,24,16,22,3,14,75,,,,6,15,7,6,0.4,0.6
2025-03-18T0500,1453A,102.7266,25.0375,昆明市,东风东路,,22,8,21,3,12,68,,,,8,20,6,7,0.3,0.5
2025-03-18T0500,1454A,102.6742,25.0669,昆明市,金鼎山,,23,9,27,3,12,72,,,,6,21,4,5,0.6,0.8
2025-03-18T0500,1455A,102.6644,25.0401,昆明市,碧鸡广场,,23,8,21,7,19,73,,,,6,22,6,6,0.3,0.5
2025-03-18T0500,3179A,102.7494,25.0119,昆明市,官渡区博物馆,,21,13,26,3,14,65,,,,10,22,7,7,0.4,0.6
2025-03-18T0500,3375A,102.8017,24.8336,昆明市,青年创业园,,16,8,22,3,16,51,,,,8,12,7,6,0.3,0.5
2025-03-18T0500,3550A,102.7997,24.9786,昆明市,昆明学院,,20,10,20,3,12,61,,,,9,17,4,4,0.3,0.5
2025-03-18T0500,3551A,102.5967,24.6736,昆明市,晋宁区生态环境分局,,13,9,31,3,25,40,,,,13,15,5,6,0.5,0.6
2025-03-18T0500,3552A,102.6678,24.9856,昆明市,云天化总部,,21,8,21,3,12,65,,,,9,21,5,6,0.6,0.6
2025-03-18T0500,1456A,91.1319,29.6514,拉萨市,八廓街,,43,8,18,7,8,135,,,,5,9,5,6,0.5,0.5
2025-03-18T0500,1457A,91.1221,29.6747,拉萨市,市环保局,,38,12,23,6,8,121,,,,9,14,8,8,0.6,0.6
2025-03-18T0500,1458A,91.0874,29.6475,拉萨市,区监测站,,41,11,19,6,8,131,,,,3,10,6,6,0.2,0.2
2025-03-18T0500,1459A,91.1774,29.6541,拉萨市,西藏大学,,36,13,20,6,8,115,,,,11,12,5,6,0.4,0.4
2025-03-18T0500,1460A,90.9798,29.6588,拉萨市,区辐射站,,40,10,27,7,10,128,,,,4,15,6,7,0.4,0.5
2025-03-18T0500,1461A,91.0834,29.6292,拉萨市,拉萨火车站,,42,10,18,6,7,132,,,,2,4,3,3,0.2,0.2
2025-03-18T0500,2520A,109.2203,23.7256,来宾市,来宾技工学校,,23,19,48,16,31,71,,,,6,13,6,8,0.6,0.7
2025-03-18T0500,3535A,109.1781,23.7297,来宾市,兴宾区政府,,30,30,56,21,36,72,,,,3,9,6,8,0.5,0.6
2025-03-18T0500,4002A,109.2416,23.7461,来宾市,中南小学,,35,,50,24,31,72,,,,5,11,8,10,0.4,0.5
2025-03-18T0500,1477A,104.1373,35.9454,兰州市,榆中兰大校区,,,,,,,,,,,,,,,,
2025-03-18T0500,1479A,103.831,36.0464,兰州市,铁路设计院,,,,51,,22,,,64,,,36,,19,,1.0
2025-03-18T0500,3241A,103.7439,36.0842,兰州市,百合公园,,38,38,50,19,25,41,,,,28,28,5,11,0.9,0.7
2025-03-18T0500,3242A,103.9611,35.998,兰州市,和平,,25,25,51,9,24,75,,,,10,18,6,14,0.3,0.5
2025-03-18T0500,4236A,103.6293,36.0938,兰州市,庄浪东路808号,,33,23,52,23,32,60,,,,15,26,8,11,0.3,0.5
2025-03-18T0500,4237A,103.7251,36.1043,兰州市,安宁西路88号,,46,46,57,31,35,47,,,,26,23,5,12,0.3,0.5
2025-03-18T0500,4238A,103.8470,36.0676,兰州市,北滨河东路1号,,49,49,44,30,30,16,,,,61,40,10,17,0.9,0.7
2025-03-18T0500,3245A,103.6633,36.533,兰州新区,新区管委会,,37,37,40,18,23,51,,,,14,15,13,21,0.5,0.5
2025-03-18T0500,3246A,103.6975,36.4789,兰州新区,舟曲中学,颗粒物(PM10),54,57,45,24,18,27,,,,43,15,11,14,0.6,0.5
2025-03-18T0500,1067A,116.6708,39.5111,廊坊市,药材公司,,24,9,31,7,10,75,,,,8,12,3,3,0.3,0.3
2025-03-18T0500,1068A,116.7214,39.5589,廊坊市,开发区,,25,13,28,9,12,77,,,,11,10,1,1,0.2,0.3
2025-03-18T0500,1070A,116.7244,39.5269,廊坊市,北华航天学院,,24,15,27,3,7,75,,,,12,16,3,3,0.2,0.2
2025-03-18T0500,2919A,116.7022,39.5453,廊坊市,河北工业大学,,25,9,26,9,11,78,,,,7,12,4,5,0.2,0.2
2025-03-18T0500,2535A,103.7723,29.5462,乐山市,花湖湾,,26,26,28,18,20,27,,,,13,18,4,4,0.3,0.3
2025-03-18T0500,2536A,103.7627,29.5844,乐山市,牛耳桥,,45,40,32,31,25,17,,,,14,24,6,7,0.4,0.5
2025-03-18T0500,2537A,103.7508,29.6006,乐山市,市第三水厂,,35,32,29,24,22,23,,,,11,19,3,3,0.5,0.5
2025-03-18T0500,2538A,103.7571,29.5664,乐山市,市监测站,,28,21,27,19,22,28,,,,9,16,4,5,0.6,0.7
2025-03-18T0500,3361A,103.7311,29.5628,乐山市,理工大学,,32,25,28,22,22,22,,,,13,22,8,8,0.3,0.3
2025-03-18T0500,2598A,100.2143,26.8576,丽江市,西南郊,,,,24,,13,,,106,,,5,,22,,1.3
2025-03-18T0500,2599A,100.2497,26.8802,丽江市,丽江古城,,25,,18,11,13,80,,,,6,12,8,8,0.7,0.7
2025-03-18T0500,2600A,100.2203,26.8906,丽江市,市中心,,,,9,4,10,82,,,,6,11,6,7,0.5,0.5
2025-03-18T0500,1267A,119.914,28.4514,丽水市,监测站大楼,,25,25,31,14,16,36,,,,23,16,4,4,0.1,0.1
2025-03-18T0500,1268A,119.93,28.4586,丽水市,莲都小学,,23,23,31,15,18,46,,,,17,13,3,4,0.2,0.2
2025-03-18T0500,1269A,119.879,28.4231,丽水市,余庄前,,29,29,29,20,20,17,,,,20,13,4,4,0.2,0.2
2025-03-18T0500,1173A,119.176,34.5885,连云港市,市环境监测站,,29,29,53,12,21,65,,,,22,19,10,12,0.6,0.6
2025-03-18T0500,3000A,119.3581,34.6972,连云港市,德源药业,,48,48,50,12,20,23,,,,60,25,11,11,0.4,0.4
2025-03-18T0500,3007A,119.178,34.844,连云港市,新城一中,,46,46,57,21,28,59,,,,28,28,17,12,0.7,0.7
2025-03-18T0500,3008A,119.3608,34.7519,连云港市,胡沟管理处,,25,24,36,14,18,80,,,,15,21,11,13,0.7,0.7
2025-03-18T0500,3009A,119.1478,34.5911,连云港市,矿山设计院,,39,39,55,12,22,54,,,,28,23,9,13,0.3,0.4
2025-03-18T0500,3434A,119.2413,34.6539,连云港市,工贸学校,,36,36,47,15,24,55,,,,26,20,15,12,0.4,0.5
2025-03-18T0500,3664A,119.4172,34.7341,连云港市,连云街道,,42,42,46,12,19,62,,,,29,22,8,9,0.7,0.7
2025-03-18T0500,2571A,102.3431,27.8099,凉山彝族自治州,青龙寺,,15,6,7,3,6,48,,,,3,4,5,5,0.6,0.7
2025-03-18T0500,2572A,102.2721,27.8415,凉山彝族自治州,邛海宾馆,,25,8,8,3,6,80,,,,3,9,13,12,0.4,0.5
2025-03-18T0500,2573A,102.2625,27.898,凉山彝族自治州,西昌市政府,,25,9,11,3,7,78,,,,4,8,6,6,0.3,0.5
2025-03-18T0500,2574A,102.2685,27.8851,凉山彝族自治州,凉山州政府,,27,6,9,3,7,84,,,,4,8,5,5,0.5,0.6
2025-03-18T0500,4229A,102.2342,27.8859,凉山彝族自治州,凯乐南路30号,,25,7,10,3,5,78,,,,3,9,7,7,0.2,0.4
2025-03-18T0500,2212A,123.2,41.1953,辽阳市,宏伟区,细颗粒物(PM2.5),100,87,61,75,47,36,,,,30,19,11,15,0.9,0.8
2025-03-18T0500,2213A,123.1683,41.2495,辽阳市,新华园,细颗粒物(PM2.5),83,71,67,61,51,41,,,,28,29,11,18,0.7,0.8
2025-03-18T0500,2214A,123.2354,41.2639,辽阳市,滨河路,细颗粒物(PM2.5),87,73,60,64,49,41,,,,23,20,8,12,0.7,0.7
2025-03-18T0500,2215A,123.149,41.2991,辽阳市,铁西工业园,细颗粒物(PM2.5),87,71,71,64,53,30,,,,26,29,8,13,0.8,0.9
2025-03-18T0500,2227A,125.1358,42.8845,辽源市,环保局,细颗粒物(PM2.5),92,120,88,68,51,36,,,,24,18,3,4,1.1,0.8
2025-03-18T0500,3239A,125.0764,42.9078,辽源市,银鹰制药,细颗粒物(PM2.5),87,74,66,64,50,22,,,,32,21,5,7,0.9,0.8
2025-03-18T0500,1625A,115.9848,36.4372,聊城市,区政府,,29,29,60,12,18,69,,,,21,21,7,8,0.4,0.5
2025-03-18T0500,2878A,116.0072,36.4343,聊城市,聊大东校,,,,68,,31,,,59,,,22,,13,,0.6
2025-03-18T0500,3200A,115.9819,36.4978,聊城市,监控中心,,41,41,63,14,19,56,,,,25,23,11,13,0.5,0.5
2025-03-18T0500,3513A,116.0445,36.4361,聊城市,九州社区,,37,37,63,14,18,64,,,,19,14,12,11,0.5,0.5
2025-03-18T0500,4018A,116.0567,36.4608,聊城市,星美广场,,44,44,62,17,16,57,,,,24,18,39,14,0.4,0.4
2025-03-18T0500,2632A,94.3681,29.6376,林芝市,林芝监测站,,25,6,15,3,6,80,,,,5,6,4,4,0.3,0.3
2025-03-18T0500,2633A,94.3616,29.6616,林芝市,林芝人民医院,,24,8,14,3,5,76,,,,1,3,7,7,0.3,0.3
2025-03-18T0500,2603A,100.0781,23.8982,临沧市,市环保局,细颗粒物(PM2.5),73,66,71,53,49,82,,,,13,16,9,10,0.7,0.6
2025-03-18T0500,2604A,100.0894,23.8822,临沧市,市气象局,细颗粒物(PM2.5),73,63,73,53,45,72,,,,16,21,8,9,0.6,0.5
2025-03-18T0500,1733A,111.5531,36.0783,临汾市,临钢医院,,40,40,39,8,9,17,,,,44,13,3,4,0.4,0.4
2025-03-18T0500,1734A,111.5028,36.0714,临汾市,技工学校,,44,44,34,15,14,83,,,,8,14,5,8,0.3,0.4
2025-03-18T0500,1736A,111.5018,36.0855,临汾市,市委,,46,46,42,3,10,82,,,,8,14,2,4,0.3,0.4
2025-03-18T0500,3018A,111.505,36.1014,临汾市,唐尧大酒店,,35,35,47,6,9,76,,,,11,15,5,7,0.4,0.4
2025-03-18T0500,4244A,111.4879,36.0530,临汾市,启星学校,,27,11,35,8,16,86,,,,4,12,3,5,0.4,0.5
2025-03-18T0500,4271A,103.2464,35.6123,临夏回族自治州,滨河东路1号,颗粒物(PM10),52,54,71,10,14,64,,,,5,20,2,4,0.6,0.7
2025-03-18T0500,4310A,103.2093,35.5995,临夏回族自治州,新华街21号,,45,45,59,3,15,51,,,,15,19,8,12,0.7,0.7
2025-03-18T0500,1618A,118.3429,35.0532,临沂市,沂河小区,,46,46,62,18,26,68,,,,18,17,8,11,0.5,0.5
2025-03-18T0500,1619A,118.295,35.0583,临沂市,鲁南制药厂,,39,39,61,15,26,65,,,,35,27,9,11,0.7,0.7
2025-03-18T0500,1620A,118.2794,34.9976,临沂市,新光毛纺厂,颗粒物(PM10),51,51,57,18,25,39,,,,50,27,7,11,0.6,0.6
2025-03-18T0500,1621A,118.3956,35.0888,临沂市,河东保险公司,,39,39,53,20,20,73,,,,25,26,5,7,0.2,0.3
2025-03-18T0500,3370A,118.3564,35.0215,临沂市,十里堡居委,,27,27,57,12,22,74,,,,20,25,11,13,0.5,0.6
2025-03-18T0500,3496A,118.3604,35.1084,临沂市,南坊新区,,41,41,57,14,23,65,,,,25,20,8,7,0.4,0.5
2025-03-18T0500,3860A,118.3920,35.0300,临沂市,皇山花园小区,,41,41,61,12,24,76,,,,14,22,6,9,0.1,0.3
2025-03-18T0500,1870A,109.4856,24.3895,柳州市,柳东小学,,30,30,41,19,28,66,,,,12,13,9,10,0.3,0.3
2025-03-18T0500,1871A,109.4157,24.3277,柳州市,环保监测站,,30,30,47,20,27,70,,,,10,11,10,10,0.4,0.4
2025-03-18T0500,1872A,109.389,24.341,柳州市,河西水厂,,37,37,49,24,28,63,,,,15,17,13,9,1.3,1
2025-03-18T0500,1873A,109.4311,24.2921,柳州市,市四中,,30,24,41,21,24,76,,,,7,11,8,9,0.4,0.4
2025-03-18T0500,1874A,109.4006,24.3631,柳州市,市九中,,30,30,47,18,28,70,,,,10,12,9,8,0.6,0.5
2025-03-18T0500,1875A,109.4958,24.3134,柳州市,古亭山,,42,42,42,19,24,71,,,,5,8,6,8,0.3,0.3
2025-03-18T0500,3402A,109.5422,24.3996,柳州市,市二中,,33,33,39,23,28,69,,,,8,13,10,10,0.2,0.3
2025-03-18T0500,2307A,116.5079,31.737,六安市,监测大楼,,40,40,33,25,17,87,,,,16,18,5,5,0.5,0.5
2025-03-18T0500,2308A,116.4738,31.7643,六安市,皖西学院,,44,44,40,27,18,80,,,,17,16,4,4,0.4,0.3
2025-03-18T0500,2309A,116.4996,31.7905,六安市,朝阳厂,,39,39,35,22,18,89,,,,19,16,3,3,0.5,0.5
2025-03-18T0500,2310A,116.5567,31.7886,六安市,开发区,,48,45,42,33,23,96,,,,16,20,4,4,0.4,0.4
2025-03-18T0500,2576A,104.8,26.5892,六盘水市,窑上,,,,19,15,14,52,,,,4,8,5,5,0.4,0.5
2025-03-18T0500,2577A,104.83,26.5917,六盘水市,黄土坡,,22,,11,10,6,70,,,,10,14,12,11,0.5,0.5
2025-03-18T0500,2578A,104.89,26.5939,六盘水市,水钢,,24,14,13,12,7,74,,,,5,15,12,10,0.4,0.5
2025-03-18T0500,2579A,104.8475,26.5894,六盘水市,民中,,20,14,12,7,5,61,,,,14,16,11,9,0.5,0.4
2025-03-18T0500,2580A,104.9544,26.5506,六盘水市,双水,,22,6,6,3,6,68,,,,11,11,8,9,0.6,0.5
2025-03-18T0500,2335A,117.0189,25.1181,龙岩市,龙岩师专,,,,,,,,,,,,,,,,
2025-03-18T0500,2336A,117.0217,25.1033,龙岩市,龙岩市监测站,,30,30,42,16,25,86,,,,10,16,8,8,0.3,0.4
2025-03-18T0500,2337A,117.0258,25.0661,龙岩市,闽西职业技术学院,,30,27,43,21,25,70,,,,11,16,5,9,0.4,0.4
2025-03-18T0500,2338A,117.0196,25.0306,龙岩市,龙岩学院,,26,26,40,17,28,69,,,,10,10,3,3,0.4,0.5
2025-03-18T0500,2665A,105.0822,33.3261,陇南市,汉王镇固水子,,,,,,,,,,,,,,,,
2025-03-18T0500,2885A,104.9339,33.3826,陇南市,滨江中学,,48,48,59,33,30,46,,,,16,21,12,9,0.5,0.6
2025-03-18T0500,3247A,104.955,33.371,陇南市,市总工会,,47,47,54,24,25,52,,,,8,13,8,8,0.6,0.6
2025-03-18T0500,2487A,111.9589,27.8901,娄底市,电视发射台,,34,34,42,20,25,32,,,,5,8,5,5,0.7,0.7
2025-03-18T0500,2488A,111.9975,27.725,娄底市,市监测站,,47,47,48,30,32,45,,,,29,16,28,11,1.2,0.7
2025-03-18T0500,2489A,112.0194,27.7314,娄底市,市委党校,,40,40,52,27,33,64,,,,20,15,9,4,1.1,0.7
2025-03-18T0500,2490A,111.9561,27.7569,娄底市,涟钢,颗粒物(PM10),55,59,52,36,31,55,,,,11,12,5,7,0.9,0.8
2025-03-18T0500,2491A,111.9892,27.7044,娄底市,市政府,,43,38,49,30,31,51,,,,8,8,8,7,0.5,0.4
2025-03-18T0500,1893A,105.4324,28.9634,泸州市,九狮山,,,,,,,,,,,,,,,,
2025-03-18T0500,1894A,105.4427,28.9063,泸州市,小市上码头,,29,27,14,20,10,46,,,,11,18,5,5,0.4,0.4
2025-03-18T0500,1895A,105.4241,28.8573,泸州市,兰田宪桥,,22,17,13,15,13,35,,,,9,17,5,5,0.4,0.4
2025-03-18T0500,1896A,105.4379,28.8833,泸州市,市环监站,,,,,,,,,,,,,,,,
2025-03-18T0500,4272A,105.3689,28.7783,泸州市,纳溪中医医院,,23,16,16,16,11,35,,,,9,14,5,4,0.3,0.4
2025-03-18T0500,2183A,111.1406,37.5211,吕梁市,环保局,颗粒物(PM10),55,60,53,24,16,28,,,,37,19,3,2,0.3,0.3
2025-03-18T0500,2185A,111.1297,37.5136,吕梁市,自来水公司,,45,45,50,14,15,42,,,,24,18,3,3,0.4,0.3
2025-03-18T0500,2867A,111.1283,37.51,吕梁市,马茂庄小学,颗粒物(PM10),66,81,62,18,14,28,,,,43,27,10,3,0.2,0.3
2025-03-18T0500,1812A,112.3931,34.6516,洛阳市,市委党校,颗粒物(PM10),55,60,44,30,18,26,,,,40,19,6,6,0.6,0.4
2025-03-18T0500,1815A,112.494,34.6886,洛阳市,河南林校,颗粒物(PM10),51,51,52,20,21,44,,,,19,17,4,7,0.5,0.6
2025-03-18T0500,1816A,112.3844,34.623,洛阳市,开发区管委会,颗粒物(PM10),52,54,39,32,19,34,,,,32,18,4,5,0.4,0.4
2025-03-18T0500,1817A,112.4267,34.6258,洛阳市,市委新办公区,颗粒物(PM10),53,56,40,31,20,42,,,,32,18,5,5,0.4,0.3
2025-03-18T0500,3340A,112.6005,34.6326,洛阳市,伊滨,颗粒物(PM10),59,67,45,38,27,23,,,,47,20,5,6,0.7,0.6
2025-03-18T0500,3341A,112.4951,34.6332,洛阳市,中移产业园,颗粒物(PM10),60,69,54,37,34,35,,,,34,20,6,7,0.3,0.2
2025-03-18T0500,3593A,112.5736,34.8993,洛阳市,吉利监测站,颗粒物(PM10),51,51,38,23,15,25,,,,49,23,6,6,0.4,0.4
2025-03-18T0500,3635A,112.3677,34.662,洛阳市,河科大西苑校区,颗粒物(PM10),57,64,46,30,20,27,,,,43,17,10,8,0.5,0.4
2025-03-18T0500,3636A,112.4388,34.6781,洛阳市,英才小学,颗粒物(PM10),55,60,49,19,20,56,,,,27,26,8,14,0.3,0.4
2025-03-18T0500,4214A,112.4600,34.6949,洛阳市,春都路1号院,颗粒物(PM10),61,72,61,19,21,63,,,,23,25,8,10,0.4,0.5
2025-03-18T0500,2399A,114.051,33.5699,漯河市,三五一五工厂,颗粒物(PM10),64,78,52,36,23,56,,,,20,14,5,5,0.5,0.5
2025-03-18T0500,2400A,114.0055,33.5698,漯河市,漯河大学,颗粒物(PM10),62,74,53,29,20,56,,,,24,20,6,6,0.3,0.3
2025-03-18T0500,2401A,114.0138,33.5828,漯河市,市水利局,颗粒物(PM10),64,78,47,31,21,54,,,,19,13,5,4,0.6,0.5
2025-03-18T0500,2402A,114.0261,33.5698,漯河市,市广电局,颗粒物(PM10),63,76,47,25,20,53,,,,20,14,5,5,0.4,0.3
2025-03-18T0500,3478A,113.9749,33.5664,漯河市,市图书馆,颗粒物(PM10),62,74,48,32,22,50,,,,31,20,6,5,0.5,0.4
2025-03-18T0500,4250A,114.0892,33.5882,漯河市,韶山路11号,颗粒物(PM10),59,68,49,39,21,38,,,,37,19,5,5,0.5,0.4
2025-03-18T0500,1798A,118.5092,31.6837,马鞍山市,湖东路四小,,,43,37,27,20,48,,,,,19,12,7,0.7,0.4
2025-03-18T0500,1799A,118.5024,31.6449,马鞍山市,开发区,,43,40,44,30,23,56,,,,32,36,6,4,0.6,0.5
2025-03-18T0500,1802A,118.6245,31.7241,马鞍山市,濮塘,,45,45,39,22,24,54,,,,26,17,12,10,0.9,0.6
2025-03-18T0500,3633A,118.4918,31.6809,马鞍山市,雨山,,47,47,40,30,23,41,,,,44,22,11,8,0.9,0.6
2025-03-18T0500,4191A,118.5274,31.72227,马鞍山市,慈湖高新区,颗粒物(PM10),56,61,48,34,27,38,,,,50,37,9,13,0.7,0.9
2025-03-18T0500,1686A,111.0286,21.4688,茂名市,电白南海,颗粒物(PM10),52,53,57,29,32,74,,,,8,10,6,6,0.7,0.7
2025-03-18T0500,1687A,110.9294,21.6533,茂名市,茂石化七小,,36,36,50,22,26,86,,,,4,8,3,13,0.5,0.5
2025-03-18T0500,1688A,110.9107,21.6687,茂名市,健康路,,31,31,44,17,25,82,,,,7,13,10,12,0.4,0.4
2025-03-18T0500,1689A,110.8592,21.6828,茂名市,高岭,颗粒物(PM10),53,56,58,27,26,56,,,,10,12,9,10,0.5,0.4
2025-03-18T0500,3450A,111.01,21.5165,茂名市,电白水东,,48,48,51,19,26,69,,,,10,12,4,7,0.8,0.8
2025-03-18T0500,2539A,104.0308,30.0478,眉山市,黑龙滩水库,,36,36,38,18,23,41,,,,2,3,3,3,0.5,0.5
2025-03-18T0500,2540A,103.8416,30.0874,眉山市,气象局,,35,35,38,24,27,35,,,,13,20,6,7,0.4,0.4
2025-03-18T0500,3137A,103.8578,30.0744,眉山市,市委党校,,32,24,28,22,22,33,,,,16,23,6,7,0.6,0.6
2025-03-18T0500,3148A,103.8291,30.0564,眉山市,区人社局,,28,20,38,19,23,32,,,,18,27,4,8,0.4,0.4
2025-03-18T0500,1690A,116.1231,24.3284,梅州市,梅江月梅,,30,29,44,21,28,60,,,,11,20,10,11,0.5,0.5
2025-03-18T0500,1691A,116.0797,24.2719,梅州市,梅县新城,,29,27,46,20,28,70,,,,11,23,5,6,0.5,0.6
2025-03-18T0500,1692A,116.1248,24.2654,梅州市,环境监控中心,,40,30,43,28,27,57,,,,18,25,8,9,0.4,0.5
2025-03-18T0500,3315A,116.1233,24.2991,梅州市,梅龙,,32,31,45,22,28,75,,,,10,20,6,7,0.8,0.9
2025-03-18T0500,1878A,104.7778,31.4741,绵阳市,富乐山,细颗粒物(PM2.5),53,46,51,37,32,20,,,,17,27,2,2,0.5,0.5
2025-03-18T0500,1880A,104.6697,31.4668,绵阳市,高新区自来水公司,颗粒物(PM10),54,57,63,29,33,11,,,,24,31,2,4,0.4,0.4
2025-03-18T0500,1881A,104.7287,31.5075,绵阳市,三水厂,细颗粒物(PM2.5),55,56,62,39,36,25,,,,15,31,5,6,0.5,0.6
2025-03-18T0500,3491A,104.69,31.5322,绵阳市,西科大附属小学,颗粒物(PM10),54,57,65,30,33,10,,,,32,33,6,7,0.7,0.6
2025-03-18T0500,3492A,104.5648,31.5343,绵阳市,安州区旅游局,细颗粒物(PM2.5),52,52,52,36,35,11,,,,29,25,6,9,0.4,0.4
2025-03-18T0500,4226A,104.7651,31.4531,绵阳市,绵阳市气象局,细颗粒物(PM2.5),58,50,58,41,32,19,,,,16,28,5,5,0.5,0.5
2025-03-18T0500,1784A,129.61,44.561,牡丹江市,环保大楼,细颗粒物(PM2.5),79,81,41,58,29,35,,,,24,18,8,6,0.5,0.3
2025-03-18T0500,1785A,129.6115,44.5782,牡丹江市,文化广场,细颗粒物(PM2.5),77,83,36,56,28,37,,,,23,16,12,10,0.5,0.3
2025-03-18T0500,1786A,129.5904,44.5963,牡丹江市,第一医院,,45,42,31,31,21,52,,,,14,14,8,9,0.2,0.2
2025-03-18T0500,1787A,129.6364,44.6075,牡丹江市,机车工厂,二氧化硫,58,30,46,16,22,49,,,,14,12,200,56,0.4,0.4
2025-03-18T0500,1788A,129.6386,44.5462,牡丹江市,第一中学,,33,23,26,23,22,53,,,,8,10,7,8,0.3,0.3
2025-03-18T0500,2531A,105.0703,29.61,内江市,市监测站,,35,,22,24,18,40,,,,12,19,3,5,0.9,0.9
2025-03-18T0500,2532A,105.0717,29.5947,内江市,东兴区政府,,29,29,23,14,11,34,,,,11,18,4,5,0.4,0.4
2025-03-18T0500,2533A,105.0653,29.5817,内江市,内江二中,,29,27,26,20,16,41,,,,10,17,6,6,0.6,0.6
2025-03-18T0500,2534A,105.0406,29.5822,内江市,内江日报社,,,20,27,19,15,39,,,,8,17,5,6,,0.4
2025-03-18T0500,2628A,92.0657,31.4846,那曲市,那曲监测站,,28,12,36,3,22,88,,,,1,12,6,9,0.5,0.8
2025-03-18T0500,3128A,92.0506,31.4797,那曲市,那曲会议中心,,,,,,,,,,,,,,,,
2025-03-18T0500,1290A,115.8931,28.6843,南昌市,省外办,颗粒物(PM10),56,61,40,39,30,14,,,,77,31,5,6,0.7,0.5
2025-03-18T0500,1291A,115.8886,28.7003,南昌市,省林业公司,,49,44,37,34,26,22,,,,47,29,6,7,0.6,0.6
2025-03-18T0500,1292A,115.8126,28.7442,南昌市,林科所,,46,46,36,27,20,27,,,,69,39,7,5,0.6,0.5
2025-03-18T0500,1294A,115.8518,28.687,南昌市,建工学校,细颗粒物(PM2.5),54,,41,38,34,44,,,,47,32,10,10,0.4,0.3
2025-03-18T0500,1295A,115.8921,28.6424,南昌市,象湖,,49,49,35,31,24,2,,,,68,23,6,6,0.5,0.4
2025-03-18T0500,1296A,115.7423,28.7996,南昌市,武术学校,,33,,21,23,16,18,,,,4,7,3,2,0.4,0.3
2025-03-18T0500,3046A,115.9084,28.6062,南昌市,机电学校,颗粒物(PM10),56,62,45,39,25,22,,,,42,23,3,4,0.5,0.5
2025-03-18T0500,3690A,115.9721,28.7031,南昌市,外国语学校,细颗粒物(PM2.5),55,58,38,39,25,14,,,,54,18,2,3,0.4,0.2
2025-03-18T0500,4192A,115.9316,28.68677,南昌市,南京东路235号,颗粒物(PM10),61,71,43,37,25,9,,,,70,31,4,4,0.6,0.3
2025-03-18T0500,1905A,106.056,30.8064,南充市,西山风景区,,29,21,27,20,20,37,,,,7,7,2,4,0.5,0.4
2025-03-18T0500,1906A,106.0789,30.8023,南充市,南充市委,,43,38,40,30,26,40,,,,12,14,3,5,0.5,0.5
2025-03-18T0500,1907A,106.1031,30.8217,南充市,南充炼油厂,,38,31,42,26,27,41,,,,10,14,4,5,0.3,0.3
2025-03-18T0500,1909A,106.0642,30.7636,南充市,嘉陵区环保局,,35,25,38,24,22,36,,,,9,10,4,4,0.4,0.4
2025-03-18T0500,1910A,106.1087,30.8388,南充市,市环境监测站,,45,45,47,30,28,42,,,,12,18,6,7,0.2,0.2
2025-03-18T0500,4227A,106.1083,30.7884,南充市,梨树横街98号,,28,28,42,10,17,41,,,,9,13,4,5,0.3,0.3
2025-03-18T0500,1151A,118.8086,32.1065,南京市,迈皋桥,,28,28,28,14,17,71,,,,20,18,4,4,0.2,0.2
2025-03-18T0500,1152A,118.7538,32.0551,南京市,草场门,,44,44,38,14,17,60,,,,19,21,7,5,0.5,0.5
2025-03-18T0500,1153A,118.7794,32.0745,南京市,山西路,,48,48,38,14,15,67,,,,21,20,4,4,0.5,0.5
2025-03-18T0500,1154A,118.7752,32.0023,南京市,中华门,,41,41,35,17,18,64,,,,17,36,8,6,0.4,0.4
2025-03-18T0500,1155A,118.8109,32.0309,南京市,瑞金路,,41,41,37,14,18,70,,,,15,28,7,6,0.8,0.9
2025-03-18T0500,1156A,118.7997,32.0754,南京市,玄武湖,,47,47,43,18,15,55,,,,18,15,4,4,0.5,0.5
2025-03-18T0500,1157A,118.6414,32.0931,南京市,浦口,颗粒物(PM10),51,51,39,18,16,74,,,,16,14,7,6,0.5,0.5
2025-03-18T0500,1158A,118.7356,31.9996,南京市,奥体中心,颗粒物(PM10),51,51,40,17,20,71,,,,21,35,9,8,0.3,0.3
2025-03-18T0500,1159A,118.9125,32.1028,南京市,仙林大学城,,44,44,41,14,17,67,,,,14,30,8,8,0.6,0.6
2025-03-18T0500,3422A,118.8436,31.9198,南京市,江宁彩虹桥,颗粒物(PM10),52,54,46,24,24,49,,,,30,24,6,8,0.4,0.6
2025-03-18T0500,3423A,119.0138,31.6494,南京市,溧水永阳,,44,44,35,30,29,58,,,,25,22,6,9,0.6,0.6
2025-03-18T0500,3427A,118.8554,32.3578,南京市,六合雄州,,35,35,37,8,14,68,,,,9,12,5,5,0.2,0.2
2025-03-18T0500,4249A,118.8708,31.3402,南京市,汶溪路181号,,39,,35,27,25,60,,,,24,19,2,4,0.3,0.2
2025-03-18T0500,1401A,108.3103,22.7881,南宁市,二十一中,"颗粒物(PM10),细颗粒物(PM2.5)",53,55,54,37,36,69,,,,15,17,9,7,0.4,0.4
2025-03-18T0500,1402A,108.3141,22.8528,南宁市,北湖,细颗粒物(PM2.5),52,51,55,36,34,59,,,,16,17,20,9,0.4,0.5
2025-03-18T0500,1403A,108.3206,22.8225,南宁市,市监测站,细颗粒物(PM2.5),52,49,55,36,31,62,,,,17,19,10,8,0.5,0.5
2025-03-18T0500,1404A,108.3829,22.8037,南宁市,大自然花园,,46,39,58,32,36,74,,,,9,14,7,7,0.6,0.6
2025-03-18T0500,1405A,108.4394,22.7904,南宁市,仙葫,,35,32,55,24,34,74,,,,8,13,8,11,0.4,0.5
2025-03-18T0500,1406A,108.2397,22.8467,南宁市,区农职院,,43,42,54,30,31,68,,,,10,14,10,11,0.5,0.6
2025-03-18T0500,1407A,108.3275,22.735,南宁市,英华嘉园,,42,41,54,29,29,82,,,,10,13,7,8,0.4,0.5
2025-03-18T0500,3401A,108.4834,22.7618,南宁市,红星社区,颗粒物(PM10),57,64,55,28,32,70,,,,9,11,8,10,0.4,0.5
2025-03-18T0500,4221A,108.2177,22.7774,南宁市,乐贤路16号,,48,48,57,32,30,59,,,,15,18,9,10,0.6,0.7
2025-03-18T0500,2331A,118.0966,26.6761,南平市,茫荡山,,,,,,,,,,,,,,,,
2025-03-18T0500,2332A,118.1681,26.6369,南平市,南平市监测站,,29,27,34,20,23,29,,,,24,17,4,4,0.6,0.6
2025-03-18T0500,2333A,118.1825,26.6489,南平市,南平铝业有限公司,,32,24,35,22,18,32,,,,23,18,6,5,0.7,0.6
2025-03-18T0500,2334A,118.1756,26.6272,南平市,南平七中,,29,25,37,20,22,21,,,,27,19,4,4,0.4,0.4
2025-03-18T0500,1168A,120.9098,31.9663,南通市,狼山街道,,41,41,50,12,29,80,,,,13,40,6,9,0.1,0.5
2025-03-18T0500,1169A,120.86,32.0005,南通市,虹桥,,37,37,49,14,29,75,,,,14,44,5,8,0.2,0.4
2025-03-18T0500,1170A,120.87,32.02,南通市,城中,,43,43,58,16,25,74,,,,16,40,8,10,0.4,0.6
2025-03-18T0500,1171A,120.94,31.93,南通市,星湖花园,,32,32,47,15,27,78,,,,14,40,6,9,0.3,0.6
2025-03-18T0500,1172A,120.81,32.0417,南通市,紫琅学院,,39,39,51,16,24,72,,,,15,31,5,6,0.6,0.8
2025-03-18T0500,3291A,121.067,32.062,南通市,通州监测站,,41,41,55,12,28,80,,,,12,33,4,5,0.5,0.6
2025-03-18T0500,3432A,120.9348,31.9883,南通市,环境教育馆,,39,39,53,21,29,86,,,,8,33,6,9,0.3,0.7
2025-03-18T0500,2404A,112.5224,33.0122,南阳市,瓦房庄,颗粒物(PM10),52,54,53,25,24,56,,,,21,24,5,4,0.6,0.6
2025-03-18T0500,2405A,112.5003,32.9735,南阳市,汉画馆,,44,44,46,22,22,43,,,,29,26,3,4,0.4,0.4
2025-03-18T0500,2406A,112.5573,33.027,南阳市,气象站,颗粒物(PM10),54,58,59,22,22,61,,,,18,24,5,4,0.4,0.5
2025-03-18T0500,2407A,112.5481,32.9689,南阳市,理工学院,颗粒物(PM10),51,52,54,20,23,44,,,,37,33,4,3,0.3,0.3
2025-03-18T0500,4008A,112.5234,32.9922,南阳市,卧龙区政府,颗粒物(PM10),57,64,50,22,22,52,,,,26,25,6,6,0.4,0.4
2025-03-18T0500,1234A,121.8358,29.911,宁波市,区环保大楼,细颗粒物(PM2.5),58,55,53,41,32,83,,,,24,31,8,8,0.5,0.5
2025-03-18T0500,1235A,121.56,29.82,宁波市,万里学院,,50,50,46,32,31,57,,,,25,24,6,10,0.5,0.3
2025-03-18T0500,1236A,121.713,29.9572,宁波市,龙赛医院,颗粒物(PM10),56,62,57,36,34,70,,,,31,31,7,7,0.5,0.5
2025-03-18T0500,1239A,121.633,29.7733,宁波市,钱湖水厂,细颗粒物(PM2.5),59,57,45,42,32,84,,,,16,21,6,7,0.6,0.5
2025-03-18T0500,1240A,121.5856,29.8635,宁波市,太古小学,颗粒物(PM10),53,55,49,34,29,63,,,,27,24,8,8,0.5,0.4
2025-03-18T0500,1241A,121.524,29.8674,宁波市,市环境监测中心,,45,45,48,29,27,46,,,,31,26,8,9,0.5,0.5
2025-03-18T0500,2871A,121.6147,29.9017,宁波市,万里国际学校,,47,47,42,30,27,72,,,,20,23,8,8,0.5,0.5
2025-03-18T0500,3710A,121.5594,29.8975,宁波市,白沙活动中心,,45,44,41,31,30,59,,,,29,25,6,7,0.5,0.6
2025-03-18T0500,2339A,119.5001,26.6946,宁德市,金涵水库,,,,,,,,,,,,,,,,
2025-03-18T0500,2341A,119.5388,26.6612,宁德市,宁德市监测站,,48,34,37,33,33,61,,,,11,14,5,5,0.6,0.5
2025-03-18T0500,3209A,119.5231,26.6562,宁德市,宁德一中,,43,30,40,30,32,56,,,,8,11,4,5,0.5,0.4
2025-03-18T0500,2618A,98.8601,25.8567,怒江傈僳族自治州,州监测站,,25,11,24,10,15,79,,,,3,4,5,5,0.3,0.4
2025-03-18T0500,2619A,98.8546,25.8417,怒江傈僳族自治州,泸水一中,,22,17,26,6,16,70,,,,5,11,6,6,0.3,0.4
2025-03-18T0500,1888A,101.6891,26.571,攀枝花市,弄弄坪,,22,22,34,12,14,58,,,,11,16,10,10,0.5,0.6
2025-03-18T0500,1889A,101.5769,26.5928,攀枝花市,河门口,,21,21,40,12,22,54,,,,17,21,13,19,1.4,1.4
2025-03-18T0500,1890A,101.7169,26.585,攀枝花市,炳草岗,,32,31,33,22,14,60,,,,11,18,11,11,0.5,0.6
2025-03-18T0500,1891A,101.7369,26.5008,攀枝花市,仁和,,16,9,35,3,21,50,,,,8,18,7,11,0.5,0.7
2025-03-18T0500,2835A,101.7227,26.567,攀枝花市,四十中小,,34,34,32,12,13,62,,,,7,12,10,10,0.6,0.7
2025-03-18T0500,1604A,122.0303,41.1489,盘锦市,开发区,,40,36,47,28,34,65,,,,16,18,10,16,0.5,0.7
2025-03-18T0500,1605A,122.0485,41.0883,盘锦市,兴隆台,,43,43,56,29,39,68,,,,17,24,10,14,0.7,1
2025-03-18T0500,1606A,121.8297,41.1028,盘锦市,新生街道,,35,33,41,24,30,45,,,,38,38,5,10,0.6,0.9
2025-03-18T0500,1832A,113.3257,33.742,平顶山市,新华旅馆,颗粒物(PM10),70,89,57,33,24,68,,,,21,19,4,5,0.2,0.3
2025-03-18T0500,1833A,113.2919,33.737,平顶山市,规划设计院,颗粒物(PM10),53,55,45,20,18,80,,,,12,20,6,6,0.4,0.4
2025-03-18T0500,1834A,113.182,33.774,平顶山市,平顶山工学院,颗粒物(PM10),55,59,39,19,15,76,,,,16,17,4,5,0.5,0.5
2025-03-18T0500,3204A,113.3025,33.73,平顶山市,规划局,颗粒物(PM10),63,75,52,30,26,79,,,,24,28,5,5,0.5,0.5
2025-03-18T0500,3594A,112.8867,33.9116,平顶山市,石龙区,颗粒物(PM10),59,67,57,28,17,69,,,,28,29,10,6,0.4,0.4
2025-03-18T0500,2656A,106.6692,35.5461,平凉市,聚贤嘉苑,,31,31,42,16,17,47,,,,25,23,11,11,0.2,0.1
2025-03-18T0500,2657A,106.7021,35.5307,平凉市,博物馆,,38,38,43,19,22,52,,,,23,21,14,15,0.6,0.5
2025-03-18T0500,2347A,114.0997,27.5002,萍乡市,武功山,,26,23,44,18,28,59,,,,11,11,3,5,0.7,0.7
2025-03-18T0500,2348A,113.8385,27.6434,萍乡市,中医院,,43,43,53,23,30,69,,,,17,13,15,10,0.6,0.5
2025-03-18T0500,2349A,113.8493,27.6253,萍乡市,市政府车库,,39,39,50,26,32,68,,,,15,16,8,8,0.4,0.5
2025-03-18T0500,2350A,113.8676,27.6435,萍乡市,市环保局,,37,37,50,25,30,73,,,,15,16,9,7,0.4,0.4
2025-03-18T0500,2351A,113.866,27.6198,萍乡市,安源区政府,,34,34,51,17,28,72,,,,8,10,8,7,0.5,0.7
2025-03-18T0500,2319A,119.0141,25.4325,莆田市,荔城区仓后路,细颗粒物(PM2.5),53,47,50,37,32,50,,,,24,18,3,2,0.6,0.6
2025-03-18T0500,2320A,119.0015,25.4553,莆田市,莆田市监测站,,38,28,46,26,31,71,,,,7,11,3,3,0.4,0.5
2025-03-18T0500,2321A,119.1119,25.4561,莆田市,涵江区六中,,50,48,47,35,32,44,,,,33,19,2,3,0.5,0.5
2025-03-18T0500,2322A,119.1013,25.3215,莆田市,秀屿区政府,,50,,38,35,32,74,,,,20,16,4,4,0.5,0.5
2025-03-18T0500,2323A,118.981,25.4792,莆田市,东圳水库,,,,,,,,,,,,,,,,
2025-03-18T0500,2392A,115.0312,35.7636,濮阳市,环保局,,38,38,45,8,13,66,,,,22,24,4,4,0.5,0.6
2025-03-18T0500,2394A,115.0574,35.7609,濮阳市,油田运输公司,,45,45,62,3,10,70,,,,17,21,3,4,0.6,0.6
2025-03-18T0500,3021A,115,35.7668,濮阳市,濮水河管理处,,49,49,60,12,14,55,,,,27,25,4,5,0.5,0.6
2025-03-18T0500,4216A,115.0924,35.7686,濮阳市,任丘路479号,,44,44,57,9,12,68,,,,19,23,5,5,0.3,0.3
2025-03-18T0500,2601A,100.98,22.7633,普洱市,市环保局,,41,41,88,17,38,44,,,,6,10,4,5,0.7,0.8
2025-03-18T0500,2602A,100.9817,22.8322,普洱市,普洱第二中学,,46,42,96,32,52,23,,,,20,18,6,7,0.7,0.8
2025-03-18T0500,2262A,131.0518,45.8751,七台河市,新一中,,25,25,17,13,11,43,,,,13,8,10,11,1.3,1
2025-03-18T0500,3345A,131.0577,45.7879,七台河市,中波台,,44,44,33,28,18,39,,,,36,21,7,7,0.7,0.6
2025-03-18T0500,3637A,131.0176,45.7761,七台河市,人民广场,,47,47,41,17,23,46,,,,30,18,5,6,1.1,0.9
2025-03-18T0500,3684A,130.8781,45.8222,七台河市,新建矿广场,,36,,43,25,25,19,,,,33,18,5,9,0.3,0.5
2025-03-18T0500,1779A,123.9305,47.3636,齐齐哈尔市,安居小区,,21,16,30,9,20,67,,,,10,17,5,6,0.3,0.3
2025-03-18T0500,1780A,123.9488,47.3386,齐齐哈尔市,中心广场,,22,22,36,13,18,69,,,,8,15,4,5,0.4,0.5
2025-03-18T0500,1781A,123.9483,47.3227,齐齐哈尔市,农牧车辆厂,,24,17,33,10,16,74,,,,7,16,4,6,0.3,0.4
2025-03-18T0500,1783A,123.945,47.2988,齐齐哈尔市,市环境监测站,,21,17,32,12,19,67,,,,7,16,3,4,0.4,0.4
2025-03-18T0500,3662A,123.6333,47.2075,齐齐哈尔市,富区青少年活动中心,,38,38,39,22,24,61,,,,13,13,14,10,0.4,0.5
2025-03-18T0500,2591A,107.9783,26.5747,黔东南苗族侗族自治州,市环境监测站,,20,16,29,14,22,56,,,,4,9,3,4,0.3,0.3
2025-03-18T0500,2881A,107.8908,26.5311,黔东南苗族侗族自治州,凯里学院,,20,,20,14,20,40,,,,6,7,2,2,0.5,0.5
2025-03-18T0500,2593A,107.5228,26.2403,黔南布依族苗族自治州,小围寨,,13,,19,9,17,35,,,,6,7,5,4,0.5,0.5
2025-03-18T0500,3538A,107.5175,26.2978,黔南布依族苗族自治州,沙坝,,13,9,26,9,20,32,,,,8,9,4,5,0.5,0.5
2025-03-18T0500,2589A,104.9022,25.0925,黔西南布依族苗族自治州,场坝街,,18,14,22,12,12,51,,,,7,10,9,4,0.2,0.3
2025-03-18T0500,2590A,104.8811,25.0992,黔西南布依族苗族自治州,坪东大道,,15,14,18,10,13,42,,,,11,13,6,3,0.3,0.3
2025-03-18T0500,2502A,108.6236,21.9667,钦州市,市环保站,,48,48,73,24,34,70,,,,13,18,8,8,0.5,0.6
2025-03-18T0500,2503A,108.6549,21.9481,钦州市,沙埠小学,颗粒物(PM10),54,58,68,27,28,69,,,,15,19,7,7,0.4,0.6
2025-03-18T0500,2504A,108.5989,21.7431,钦州市,港区一小,颗粒物(PM10),54,58,73,33,31,68,,,,18,26,9,10,0.7,0.7
2025-03-18T0500,3404A,108.5959,21.9633,钦州市,北职校,颗粒物(PM10),53,55,65,32,39,71,,,,10,15,8,8,0.7,0.6
2025-03-18T0500,1043A,119.7493,40.0116,秦皇岛市,第一关,,26,,41,18,19,72,,,,14,16,4,4,0.3,0.3
2025-03-18T0500,1044A,119.5897,39.9499,秦皇岛市,监测站,,26,26,40,16,17,79,,,,2,6,3,3,0.3,0.3
2025-03-18T0500,1046A,119.5251,39.9041,秦皇岛市,建设大厦,,35,35,46,18,20,77,,,,8,15,15,7,0.3,0.3
2025-03-18T0500,3132A,119.610547,39.943889,秦皇岛市,文明里,,28,28,38,7,13,77,,,,2,8,4,4,0.2,0.3
2025-03-18T0500,4198A,119.5090,39.8253,秦皇岛市,北戴河轮滑馆,,23,23,35,7,16,61,,,,14,9,5,6,0.3,0.3
2025-03-18T0500,1307A,120.6659,36.2403,青岛市,仰口,,40,40,39,17,18,89,,,,2,7,3,5,0.1,0.2
2025-03-18T0500,1310A,120.4134,36.0658,青岛市,市南区东部子站,,44,44,55,14,20,84,,,,4,15,8,10,0.4,0.6
2025-03-18T0500,1311A,120.3664,36.1032,青岛市,四方区子站,,29,29,48,12,20,92,,,,8,20,2,5,0.5,0.6
2025-03-18T0500,1312A,120.2994,36.054,青岛市,市南区西部子站,,29,29,51,7,14,84,,,,7,21,6,8,0.4,0.5
2025-03-18T0500,1313A,120.4581,36.0858,青岛市,崂山区子站,,29,24,45,7,16,92,,,,3,14,8,11,0.4,0.6
2025-03-18T0500,1315A,120.3999,36.3083,青岛市,城阳区子站,,29,29,48,10,17,83,,,,9,22,6,9,0.5,0.6
2025-03-18T0500,1966A,120.0405,35.8735,青岛市,黄岛区4号,,39,39,47,14,15,80,,,,17,20,7,9,0.6,0.6
2025-03-18T0500,3362A,120.5014,36.4034,青岛市,即墨2号,,35,35,51,13,20,82,,,,6,18,6,9,0.5,0.6
2025-03-18T0500,3642A,120.3503,36.0736,青岛市,市北区南部,,40,40,49,12,18,69,,,,8,17,7,9,0.5,0.6
2025-03-18T0500,3643A,120.3948,36.1805,青岛市,李沧区北部,,27,24,52,12,22,85,,,,7,21,6,9,0.5,0.6
2025-03-18T0500,4290A,120.1969,35.9546,青岛市,珠江路669号,,31,31,56,20,23,76,,,,17,26,7,9,0.5,0.7
2025-03-18T0500,1702A,113.0426,23.691,清远市,环保大楼,,30,26,39,20,28,94,,,,4,14,7,11,0.5,0.6
2025-03-18T0500,1703A,113.0208,23.7106,清远市,凤城街办,,30,30,48,21,26,74,,,,9,17,6,10,0.4,0.5
2025-03-18T0500,3025A,113.0477,23.6344,清远市,技师学院,,38,38,54,21,28,82,,,,9,23,6,11,0.5,0.5
2025-03-18T0500,3318A,112.9903,23.7403,清远市,清新太和,,36,36,47,24,26,86,,,,9,12,6,8,0.5,0.6
2025-03-18T0500,3455A,113.076,23.7198,清远市,清城东城,,36,36,52,23,28,81,,,,8,16,6,9,0.5,0.7
2025-03-18T0500,2661A,107.6325,35.7357,庆阳市,庆阳五中,,37,37,41,7,12,77,,,,5,9,2,3,0.4,0.4
2025-03-18T0500,2662A,107.6364,35.7067,庆阳市,市环保局,,39,39,42,11,13,78,,,,6,9,4,5,0.4,0.4
2025-03-18T0500,1916A,103.7897,25.5035,曲靖市,环境监测站,,20,8,19,3,9,63,,,,16,16,16,6,0.5,0.6
2025-03-18T0500,1917A,103.8,25.5364,曲靖市,烟厂办公区,,20,7,15,3,8,64,,,,16,14,15,6,0.5,0.5
2025-03-18T0500,3376A,103.7947,25.462,曲靖市,南苑二区,,23,11,14,8,9,72,,,,9,15,6,7,0.5,0.6
2025-03-18T0500,3377A,103.7444,25.5261,曲靖市,曲靖师范学院,,22,8,15,6,10,69,,,,10,14,5,4,0.5,0.6
2025-03-18T0500,1264A,118.8692,28.9398,衢州市,环保大楼,,49,49,40,32,25,62,,,,19,21,8,4,0.6,0.5
2025-03-18T0500,1265A,118.8709,28.9666,衢州市,实验学校,,49,48,36,34,24,54,,,,14,19,9,4,0.5,0.4
2025-03-18T0500,1266A,118.8621,28.9808,衢州市,衢州学院,,49,48,36,34,23,55,,,,22,32,10,5,0.5,0.5
2025-03-18T0500,1611A,118.5819,24.9117,泉州市,涂山街,细颗粒物(PM2.5),58,42,48,41,34,62,,,,19,17,3,4,0.6,0.5
2025-03-18T0500,1612A,118.5972,24.8978,泉州市,津头埔,细颗粒物(PM2.5),57,41,46,40,35,65,,,,20,21,2,4,0.7,0.7
2025-03-18T0500,1613A,118.6663,24.9424,泉州市,万安,,46,38,47,32,33,75,,,,10,10,3,4,0.6,0.6
2025-03-18T0500,1614A,118.6117,24.9604,泉州市,清源山,,,,,,,,,,,,,,,,
2025-03-18T0500,3529A,118.6333,24.9264,泉州市,城华南路,,43,43,54,28,32,52,,,,30,17,3,5,0.5,0.5
2025-03-18T0500,2626A,88.8876,29.2718,日喀则市,日喀则监测站,,40,13,22,6,6,125,,,,2,7,3,3,0.4,0.4
2025-03-18T0500,3726A,88.8781,29.2426,日喀则市,林业技术推广中心,,40,16,22,6,4,126,,,,2,2,7,7,0.3,0.3
2025-03-18T0500,1659A,119.471,35.4209,日照市,监测站,,29,29,51,11,21,63,,,,22,26,6,8,0.5,0.6
2025-03-18T0500,1660A,119.523,35.4216,日照市,市政府广场,,29,29,49,15,18,68,,,,14,20,4,5,0.4,0.6
2025-03-18T0500,1661A,119.5587,35.4044,日照市,港务局,,36,36,61,21,27,75,,,,15,23,10,10,0.6,0.6
2025-03-18T0500,3507A,119.5328,35.4625,日照市,职业技术学院,,34,34,52,12,15,72,,,,17,22,5,5,0.5,0.6
2025-03-18T0500,3604A,119.3266,35.1044,日照市,岚山环保分局,,29,29,64,13,27,71,,,,18,25,5,14,0.6,1
2025-03-18T0500,1835A,111.1922,34.7752,三门峡市,市政府,,35,30,41,24,23,70,,,,22,35,4,6,0.5,0.4
2025-03-18T0500,1836A,111.1587,34.7942,三门峡市,开发区,,32,32,43,10,20,86,,,,14,30,8,9,0.4,0.4
2025-03-18T0500,1838A,111.143,34.7955,三门峡市,风景区,,31,31,36,17,19,82,,,,11,26,10,11,0.5,0.5
2025-03-18T0500,3039A,111.1911,34.7829,三门峡市,三门峡市第一小学,,43,43,46,16,23,88,,,,16,30,7,7,0.4,0.4
2025-03-18T0500,3598A,111.1,34.7167,三门峡市,富达温泉假日酒店,,35,35,53,13,28,97,,,,12,29,7,11,0.6,0.7
2025-03-18T0500,2324A,117.6211,26.2625,三明市,三钢,,39,36,39,27,26,56,,,,19,19,9,7,1.1,0.9
2025-03-18T0500,2325A,117.635,26.2714,三明市,三明二中,,34,34,34,23,22,53,,,,20,18,5,5,0.4,0.4
2025-03-18T0500,2326A,117.6028,26.2378,三明市,三元区政府,,42,42,39,27,24,42,,,,18,16,5,6,0.4,0.5
2025-03-18T0500,2327A,117.7275,26.3108,三明市,洋溪,,,,,,,,,,,,,,,,
2025-03-18T0500,1876A,109.5078,18.2489,三亚市,河东子站,,21,6,12,3,6,65,,,,5,7,4,4,0.3,0.3
2025-03-18T0500,1877A,109.4964,18.2681,三亚市,河西子站,,19,6,10,3,3,59,,,,5,7,2,3,0.4,0.4
2025-03-18T0500,3540A,109.7348,18.3443,三亚市,君悦子站,,25,16,20,6,7,78,,,,6,9,4,4,0.5,0.5
2025-03-18T0500,2624A,91.7608,29.2313,山南市,山南监测站,,38,7,68,3,15,120,,,,1,4,4,4,0.3,0.3
2025-03-18T0500,2625A,91.7706,29.2436,山南市,山南人民医院,,38,10,91,3,20,120,,,,1,5,4,4,0.4,0.3
2025-03-18T0500,1674A,116.6794,23.3667,汕头市,金平子站,细颗粒物(PM2.5),87,,45,64,42,62,,,,26,24,8,7,0.7,0.7
2025-03-18T0500,1675A,116.7244,23.3633,汕头市,龙湖子站,细颗粒物(PM2.5),72,,44,52,34,60,,,,19,16,4,4,0.7,0.7
2025-03-18T0500,1676A,116.7258,23.2775,汕头市,濠江子站,细颗粒物(PM2.5),80,,44,59,39,72,,,,17,15,4,5,0.6,0.6
2025-03-18T0500,1677A,116.7519,23.4714,汕头市,澄海子站,细颗粒物(PM2.5),85,,46,63,38,55,,,,19,19,6,5,0.7,0.6
2025-03-18T0500,1678A,116.6092,23.2539,汕头市,潮阳子站,细颗粒物(PM2.5),77,,48,56,31,55,,,,21,17,9,8,0.6,0.5
2025-03-18T0500,3444A,116.454,23.2684,汕头市,潮南峡山,细颗粒物(PM2.5),64,74,61,46,30,55,,,,16,13,9,9,0.7,0.6
2025-03-18T0500,3624A,116.4069,23.2533,汕头市,潮南子站,颗粒物(PM10),80,109,81,56,39,52,,,,9,10,8,8,0.8,0.6
2025-03-18T0500,1693A,115.3653,22.775,汕尾市,市环保局,,38,34,42,26,41,78,,,,6,10,7,7,0.5,0.6
2025-03-18T0500,1694A,115.3706,22.7898,汕尾市,市政府,,34,34,41,22,31,73,,,,8,11,6,6,0.5,0.5
2025-03-18T0500,1695A,115.3622,22.7925,汕尾市,新城中学,,33,30,44,23,32,75,,,,5,9,9,9,0.6,0.6
2025-03-18T0500,2645A,109.9154,33.8715,商洛市,监测站,,42,42,41,24,19,43,,,,25,19,4,7,0.4,0.4
2025-03-18T0500,3045A,109.9643,33.8471,商洛市,商州区中学,,35,35,45,21,18,34,,,,32,27,6,5,0.6,0.6
2025-03-18T0500,2408A,115.6702,34.4285,商丘市,环境监测站,细颗粒物(PM2.5),139,162,61,106,34,47,,,,34,20,9,5,0.5,0.5
2025-03-18T0500,2409A,115.6458,34.4045,商丘市,粮食局,细颗粒物(PM2.5),80,68,55,59,32,57,,,,26,24,5,3,0.3,0.3
2025-03-18T0500,2410A,115.6293,34.3948,商丘市,睢阳区环保局,细颗粒物(PM2.5),62,68,58,44,29,59,,,,22,24,5,3,0.3,0.3
2025-03-18T0500,3171A,115.6071,34.4465,商丘市,梁园区档案局,颗粒物(PM10),62,74,56,33,29,38,,,,36,23,4,3,0.4,0.5
2025-03-18T0500,1141A,121.4,31.238,上海市,普陀,细颗粒物(PM2.5),58,60,53,41,34,44,,,,54,54,8,7,0.6,0.6
2025-03-18T0500,1142A,121.478,31.2036,上海市,十五厂,颗粒物(PM10),54,57,49,37,34,48,,,,45,43,10,8,0.7,0.7
2025-03-18T0500,1143A,121.467,31.3008,上海市,虹口,,45,45,46,30,27,66,,,,37,50,10,10,0.8,0.6
2025-03-18T0500,1147A,121.425,31.2261,上海市,静安监测站,颗粒物(PM10),55,59,51,37,32,42,,,,50,44,10,9,0.8,0.8
2025-03-18T0500,1148A,121.703,31.1907,上海市,浦东川沙,颗粒物(PM10),59,67,56,38,34,46,,,,50,50,9,8,0.5,0.5
2025-03-18T0500,1149A,121.533,31.2284,上海市,浦东新区监测站,颗粒物(PM10),53,55,45,35,30,54,,,,45,43,8,7,0.7,0.6
2025-03-18T0500,1150A,121.577,31.2071,上海市,浦东张江,,,65,51,,33,48,,,,48,49,7,7,0.7,0.6
2025-03-18T0500,3265A,121.4316,31.3322,上海市,宝山庙行,,,51,52,,33,59,,,,37,44,10,10,0.7,0.7
2025-03-18T0500,3266A,121.8791,31.4662,上海市,崇明上实东滩,,49,49,49,26,27,74,,,,15,36,5,7,0.7,0.7
2025-03-18T0500,3268A,121.3162,31.2838,上海市,嘉定南翔,细颗粒物(PM2.5),59,59,54,42,37,44,,,,46,60,10,8,0.7,0.6
2025-03-18T0500,3269A,121.3359,30.7456,上海市,金山新城,细颗粒物(PM2.5),64,65,42,46,33,15,,,,77,37,10,8,0.6,0.5
2025-03-18T0500,3270A,121.4996,31.0739,上海市,闵行浦江,颗粒物(PM10),56,62,49,38,32,27,,,,70,48,7,7,0.6,0.5
2025-03-18T0500,3271A,121.2886,31.1663,上海市,青浦徐泾,细颗粒物(PM2.5),59,59,48,42,34,31,,,,62,57,6,6,0.7,0.6
2025-03-18T0500,3272A,121.2186,31.0378,上海市,松江图书馆,"颗粒物(PM10),细颗粒物(PM2.5)",59,67,50,42,34,36,,,,54,51,9,8,0.8,0.8
2025-03-18T0500,3273A,121.3902,31.2059,上海市,长宁仙霞,,,,50,38,33,43,,,,52,53,8,7,0.6,0.6
2025-03-18T0500,3274A,121.7965,31.0507,上海市,浦东惠南,颗粒物(PM10),55,59,50,37,32,30,,,,58,40,9,8,0.9,0.8
2025-03-18T0500,3544A,121.4891,30.925,上海市,奉贤南桥新城,细颗粒物(PM2.5),59,64,48,42,34,34,,,,59,43,10,9,0.7,0.7
2025-03-18T0500,4183A,121.4174,31.16637,上海市,冠生园路458号,细颗粒物(PM2.5),57,61,47,40,35,38,,,,49,41,9,9,0.8,0.7
2025-03-18T0500,4205A,121.5419,31.2683,上海市,宁武路151号,颗粒物(PM10),53,56,51,30,29,59,,,,37,46,7,8,0.4,0.4
2025-03-18T0500,2381A,118.005,28.4572,上饶市,百草园,,,,,,,,,,,,,,,,
2025-03-18T0500,2382A,117.9756,28.4436,上饶市,市监测站,,32,32,35,22,21,70,,,,14,12,41,12,0.6,0.5
2025-03-18T0500,2383A,117.9519,28.4628,上饶市,凤凰光学,,,,35,,18,,,91,,,14,,16,,0.8
2025-03-18T0500,3685A,117.897,28.4315,上饶市,双创科技城,,38,34,35,26,22,54,,,,28,23,35,16,0.7,0.6
2025-03-18T0500,4211A,118.1904,28.4448,上饶市,裕丰大道,细颗粒物(PM2.5),53,39,40,37,28,57,,,,23,17,16,14,0.3,0.3
2025-03-18T0500,1669A,113.5824,24.7733,韶关市,市八中,,40,40,53,28,33,86,,,,9,12,7,8,0.5,0.5
2025-03-18T0500,1671A,113.5917,24.7972,韶关市,园林处,,39,34,43,27,31,88,,,,7,9,6,7,0.6,0.6
2025-03-18T0500,1672A,113.6735,24.7791,韶关市,韶关学院,,46,,44,32,32,69,,,,11,12,7,8,0.4,0.3
2025-03-18T0500,1673A,113.5971,24.6863,韶关市,曲江监测站,,39,39,51,27,31,86,,,,13,14,12,9,0.5,0.5
2025-03-18T0500,3622A,113.5556,24.8082,韶关市,碧湖山庄,,46,38,51,32,33,71,,,,8,9,7,9,0.4,0.4
2025-03-18T0500,2462A,111.5239,27.3033,邵阳市,市水土所,,,,,,,,,,,,,,,,
2025-03-18T0500,2464A,111.5283,27.2442,邵阳市,市化工厂,,47,47,46,32,29,48,,,,13,16,14,9,0.6,0.6
2025-03-18T0500,2466A,111.4328,27.2272,邵阳市,市环保局,,43,34,35,30,28,39,,,,14,14,35,15,0.8,0.8
2025-03-18T0500,4218A,111.4460,27.2472,邵阳市,北塔二期4-26地块,,45,,36,31,29,31,,,,12,13,6,8,0.5,0.5
2025-03-18T0500,4219A,111.4739,27.2282,邵阳市,邵水西路287号,细颗粒物(PM2.5),53,38,41,37,29,47,,,,12,14,26,13,0.6,0.6
2025-03-18T0500,1247A,120.6053,29.9928,绍兴市,城东开发委,,31,31,34,21,21,48,,,,22,27,6,6,0.5,0.5
2025-03-18T0500,2921A,120.5483,30.0003,绍兴市,树下王站,,46,46,39,32,26,47,,,,27,27,6,6,0.5,0.4
2025-03-18T0500,3408A,120.5683,29.9361,绍兴市,绍兴中专,,26,26,32,16,18,49,,,,19,25,6,7,0.4,0.4
2025-03-18T0500,3409A,120.4906,30.0861,绍兴市,柯桥区政府,颗粒物(PM10),51,52,45,28,24,40,,,,25,28,6,7,0.3,0.4
2025-03-18T0500,3410A,120.8752,30.0249,绍兴市,重华小学,,40,40,33,25,22,52,,,,20,15,8,7,0.3,0.3
2025-03-18T0500,3411A,120.8369,30.0137,绍兴市,上虞中学,,43,42,35,30,23,40,,,,38,29,13,9,0.4,0.4
2025-03-18T0500,3560A,120.4722,30.0415,绍兴市,柯桥妇保,,41,41,37,23,19,39,,,,17,28,5,6,0.3,0.3
2025-03-18T0500,3658A,120.6153,30.0764,绍兴市,袍江中学,,50,50,42,31,24,48,,,,28,33,5,5,0.4,0.4
2025-03-18T0500,1356A,114.1063,22.5545,深圳市,通心岭子站,颗粒物(PM10),52,54,50,35,28,55,,,,24,23,8,6,0.5,0.5
2025-03-18T0500,1357A,114.117,22.5625,深圳市,洪湖,颗粒物(PM10),59,67,62,39,27,48,,,,29,25,6,6,0.5,0.5
2025-03-18T0500,1358A,113.987,22.5417,深圳市,华侨城,颗粒物(PM10),52,54,53,33,29,69,,,,19,25,6,5,0.6,0.6
2025-03-18T0500,1359A,113.9181,22.5171,深圳市,南海子站,颗粒物(PM10),55,60,70,32,31,78,,,,13,22,7,6,0.6,0.6
2025-03-18T0500,1360A,114.2458,22.5689,深圳市,盐田,颗粒物(PM10),51,51,55,29,26,73,,,,14,18,7,7,0.5,0.5
