timepoint,stationcode,longitude,latitude,area,positionname,primarypollutant,aqi,pm10,pm10_24h,pm2_5,pm2_5_24h,o3,o3_24h,o3_8h,o3_8h_24h,no2,no2_24h,so2,so2_24h,co,co_24h
2025-03-18T0400,2566A,102.1879,31.914,阿坝藏族羌族自治州,州农科所,,15,9,23,6,11,48,,,,4,12,9,9,0.1,0.1
2025-03-18T0400,2568A,102.2502,31.8896,阿坝藏族羌族自治州,马师校,,20,,15,9,13,61,,,,4,14,5,5,0.4,0.6
2025-03-18T0400,3994A,102.2165,31.9024,阿坝藏族羌族自治州,马尔康中学西区,,20,8,14,3,9,62,,,,5,10,5,5,0.3,0.4
2025-03-18T0400,2695A,80.292,41.1694,阿克苏地区,电视台,颗粒物(PM10),193,336,365,78,88,32,,,,41,30,6,6,0.9,0.6
2025-03-18T0400,2696A,80.2613,41.1551,阿克苏地区,艺术中心,颗粒物(PM10),250,385,387,110,94,4,,,,71,32,6,5,1.5,0.7
2025-03-18T0400,2204A,105.6467,38.8363,阿拉善盟,西城区西花园,,32,29,34,13,12,101,,,,6,10,9,10,0.8,0.9
2025-03-18T0400,2205A,105.6985,38.8411,阿拉善盟,蒙二幼,,30,16,22,6,7,95,,,,6,9,5,5,0.8,0.7
2025-03-18T0400,2206A,105.724,38.8516,阿拉善盟,环保局新楼,,31,12,16,3,7,99,,,,3,4,8,8,0.8,0.7
2025-03-18T0400,2708A,88.1264,47.8517,阿勒泰地区,市站,,33,19,16,3,7,104,,,,2,12,1,4,0.2,0.3
2025-03-18T0400,2630A,80.1161,32.5,阿里地区,阿里监测站,,27,8,10,3,8,85,,,,12,5,8,7,0.6,0.5
2025-03-18T0400,3192A,80.0903,32.5028,阿里地区,阿里藏医院,,30,11,9,3,5,95,,,,3,3,12,8,0.4,0.4
2025-03-18T0400,2642A,109.0318,32.6537,安康市,香溪洞,,33,33,39,19,18,48,,,,12,8,12,8,0.3,0.5
2025-03-18T0400,2644A,109.0072,32.6975,安康市,汉滨区检察院,,34,34,44,20,18,39,,,,8,13,6,8,0.4,0.5
2025-03-18T0400,4054A,109.0325,32.6913,安康市,市邮政管理局,,43,43,52,23,19,32,,,,17,19,18,10,0.3,0.5
2025-03-18T0400,2291A,117.0809,30.5177,安庆市,环科院,,48,47,34,33,21,56,,,,33,38,8,8,0.6,0.5
2025-03-18T0400,2292A,117.0331,30.5119,安庆市,马山宾馆,细颗粒物(PM2.5),54,52,34,38,22,42,,,,46,40,4,4,0.5,0.3
2025-03-18T0400,2294A,116.9896,30.6145,安庆市,安庆大学,,46,46,34,27,18,32,,,,44,22,5,6,0.4,0.3
2025-03-18T0400,3173A,117.0598,30.5351,安庆市,市人大,,49,46,32,34,21,57,,,,29,25,6,7,0.5,0.4
2025-03-18T0400,3122A,105.9606,26.2611,安顺市,伍家关,,20,7,29,6,14,63,,,,7,12,11,8,0.3,0.3
2025-03-18T0400,3123A,105.9408,26.2431,安顺市,凤凰山,,20,12,23,3,17,62,,,,9,14,14,15,0.6,0.6
2025-03-18T0400,3124A,105.9439,26.2564,安顺市,金钟山,,19,12,24,6,16,58,,,,7,11,14,14,0.4,0.4
2025-03-18T0400,3125A,105.8983,26.2481,安顺市,娄家坡,,,,23,,18,,,61,,,12,,12,,0.4
2025-03-18T0400,1818A,114.4839,36.0621,安阳市,棉研所,,,,,,,,,,,,,,,,
2025-03-18T0400,1819A,114.3551,36.1017,安阳市,红庙街,颗粒物(PM10),63,75,57,15,14,49,,,,18,14,1,5,0.5,0.7
2025-03-18T0400,1820A,114.361,36.0681,安阳市,银杏小区,,,,42,20,17,64,,,,14,16,1,3,0.2,0.3
2025-03-18T0400,3141A,114.3922,36.0878,安阳市,信访局,颗粒物(PM10),58,65,48,18,17,48,,,,33,19,3,6,0.2,0.3
2025-03-18T0400,3669A,114.4705,36.0637,安阳市,左辅环卫站,颗粒物(PM10),76,101,66,22,18,71,,,,17,13,5,6,0.2,0.3
2025-03-18T0400,3703A,114.2917,36.0949,安阳市,安钢职工学校,颗粒物(PM10),68,85,63,38,21,12,,,,48,18,1,4,0.3,0.5
2025-03-18T0400,1748A,123.044,41.1196,鞍山市,深沟寺,细颗粒物(PM2.5),95,87,61,71,46,44,,,,28,21,24,13,1.3,0.8
2025-03-18T0400,1749A,123.011,41.0931,鞍山市,太阳城,细颗粒物(PM2.5),87,88,60,64,40,42,,,,30,20,10,14,0.7,0.7
2025-03-18T0400,1750A,123.0485,41.1442,鞍山市,太平,细颗粒物(PM2.5),93,110,97,69,52,40,,,,27,27,24,14,1.2,0.8
2025-03-18T0400,1751A,122.9642,41.0971,鞍山市,铁西三道街,细颗粒物(PM2.5),82,86,82,60,50,41,,,,33,41,42,41,1.3,1.8
2025-03-18T0400,1753A,123.022,41.0821,鞍山市,明达新区,细颗粒物(PM2.5),82,80,61,60,44,46,,,,26,18,14,14,0.7,0.6
2025-03-18T0400,1754A,123.1289,41.0228,鞍山市,千山,,,,42,,19,,,69,,,12,,8,,0.7
2025-03-18T0400,4201A,122.9446,41.0826,鞍山市,兴盛南路290号,细颗粒物(PM2.5),75,77,78,55,49,46,,,,30,38,10,24,0.8,1.2
2025-03-18T0400,2195A,107.4212,40.761,巴彦淖尔市,附二中,,25,25,43,15,17,80,,,,6,8,4,6,0.5,0.5
2025-03-18T0400,2196A,107.37,40.7372,巴彦淖尔市,市环保大楼,,27,27,38,18,20,71,,,,8,8,4,5,0.2,0.3
2025-03-18T0400,1956A,86.1472,41.7538,巴音郭楞蒙古自治州,孔雀公园,颗粒物(PM10),175,300,287,69,61,2,,,,70,49,4,5,0.5,0.5
2025-03-18T0400,1957A,86.1972,41.7166,巴音郭楞蒙古自治州,棉纺厂,颗粒物(PM10),222,365,354,56,58,33,,,,29,37,3,3,0.3,0.4
2025-03-18T0400,1958A,86.2357,41.7173,巴音郭楞蒙古自治州,经济开发区,颗粒物(PM10),176,301,293,55,49,43,,,,19,17,4,4,0.2,0.2
2025-03-18T0400,2914A,106.7677,31.8794,巴中市,苏山坪,"颗粒物(PM10),细颗粒物(PM2.5)",54,58,45,38,23,30,,,,14,11,5,5,0.3,0.2
2025-03-18T0400,3181A,106.7768,31.8526,巴中市,市五中,颗粒物(PM10),58,65,43,39,22,37,,,,10,17,4,4,0.5,0.5
2025-03-18T0400,3183A,106.7418,31.8654,巴中市,圣泉水务公司,,49,49,40,29,22,13,,,,28,17,6,6,0.5,0.4
2025-03-18T0400,3616A,106.7616,31.8344,巴中市,市中心医院,颗粒物(PM10),56,61,45,39,24,36,,,,11,13,6,7,0.3,0.4
2025-03-18T0400,2235A,122.7911,45.6077,白城市,洮北区环保局,细颗粒物(PM2.5),67,68,90,48,75,47,,,,16,22,4,5,0.7,0.7
2025-03-18T0400,2236A,122.8738,45.5725,白城市,市环保局,,36,27,86,25,68,73,,,,4,24,3,6,0.5,0.6
2025-03-18T0400,2231A,126.4219,41.9171,白山市,喜丰,颗粒物(PM10),98,145,84,50,40,44,,,,17,15,12,9,1.1,1
2025-03-18T0400,2232A,126.4077,41.9419,白山市,环保局,细颗粒物(PM2.5),67,79,73,48,40,55,,,,18,17,6,7,0.9,0.9
2025-03-18T0400,2647A,104.1724,36.5446,白银市,第三小学,,33,33,33,13,14,80,,,,9,11,15,15,0.6,0.3
2025-03-18T0400,2648A,104.1465,36.5482,白银市,动力公司,,23,23,30,14,15,52,,,,13,13,1,3,0.9,0.5
2025-03-18T0400,2512A,106.6103,23.9011,百色市,市监测站,,32,27,38,22,23,53,,,,8,10,7,7,0.5,0.5
2025-03-18T0400,2513A,106.6538,23.8859,百色市,市中心血站,,32,22,38,22,24,64,,,,6,9,8,10,0.5,0.5
2025-03-18T0400,3406A,106.6085,23.8798,百色市,祈福高中,,30,30,41,20,19,52,,,,11,10,5,6,0.5,0.5
2025-03-18T0400,2270A,117.396,32.939,蚌埠市,工人疗养院,颗粒物(PM10),55,60,60,26,27,60,,,,24,22,5,4,0.5,0.5
2025-03-18T0400,2271A,117.3605,32.9427,蚌埠市,百货大楼,颗粒物(PM10),57,63,54,33,26,52,,,,31,29,5,5,0.5,0.4
2025-03-18T0400,2273A,117.4185,32.8911,蚌埠市,蚌埠学院,颗粒物(PM10),58,66,55,31,30,38,,,,49,27,6,5,0.4,0.3
2025-03-18T0400,2274A,117.3533,32.9673,蚌埠市,淮上区政府,颗粒物(PM10),58,66,56,36,32,54,,,,28,25,5,6,0.4,0.3
2025-03-18T0400,2275A,117.3145,32.8977,蚌埠市,高新区,颗粒物(PM10),56,61,56,37,32,48,,,,37,31,7,5,0.4,0.3
2025-03-18T0400,3715A,117.3092,32.9314,蚌埠市,蚌埠田家炳中学,颗粒物(PM10),57,63,59,36,28,62,,,,30,30,6,7,0.5,0.4
2025-03-18T0400,1585A,109.8756,40.6532,包头市,市环境监测站,,35,17,27,15,9,13,,,,69,16,10,10,0.5,0.4
2025-03-18T0400,1587A,109.9991,40.5842,包头市,包头八中,,20,12,26,8,10,62,,,,19,14,7,6,0.4,0.4
2025-03-18T0400,1588A,109.8538,40.6821,包头市,青山宾馆,,36,18,21,13,8,9,,,,71,17,8,7,1.0,0.5
2025-03-18T0400,1589A,109.8642,40.6288,包头市,惠龙物流,,22,20,21,13,16,38,,,,44,13,6,6,0.6,0.5
2025-03-18T0400,1590A,110.0377,40.5546,包头市,东河鸿龙湾,,21,21,25,3,4,52,,,,26,15,7,7,0.5,0.5
2025-03-18T0400,3283A,109.9154,40.5685,包头市,滨河大厦,,21,18,16,14,7,32,,,,42,16,12,9,0.6,0.5
2025-03-18T0400,3419A,109.9447,40.6261,包头市,包头市委党校,,27,27,32,17,14,44,,,,32,12,6,6,0.7,0.6
2025-03-18T0400,3683A,109.8331,40.6576,包头市,昆区政府,,31,20,20,12,10,20,,,,62,15,7,7,0.6,0.4
2025-03-18T0400,1930A,107.185,34.3063,宝鸡市,庙沟村,,27,20,30,11,16,85,,,,5,10,7,7,0.2,0.3
2025-03-18T0400,1931A,107.0708,34.3017,宝鸡市,竹园沟,,21,18,34,3,16,66,,,,8,13,6,7,0.4,0.5
2025-03-18T0400,1932A,107.1906,34.3672,宝鸡市,三陆医院,,44,44,54,28,35,10,,,,50,26,6,5,0.6,0.5
2025-03-18T0400,1933A,107.1431,34.3547,宝鸡市,监测站,,40,40,46,19,30,45,,,,14,19,6,7,0.4,0.5
2025-03-18T0400,1934A,107.1186,34.3739,宝鸡市,技工学校,,29,,45,20,23,51,,,,6,13,4,5,0.8,0.8
2025-03-18T0400,1935A,107.3906,34.3528,宝鸡市,陈仓区环保局家属楼,,43,42,61,30,37,24,,,,42,35,8,20,0.4,0.5
2025-03-18T0400,1936A,107.2058,34.3497,宝鸡市,文理学院,,40,40,43,17,22,50,,,,14,20,6,6,0.4,0.4
2025-03-18T0400,1937A,107.2386,34.3622,宝鸡市,三迪小学,,35,32,47,24,27,35,,,,30,33,6,6,0.8,0.8
2025-03-18T0400,1051A,115.493,38.8632,保定市,游泳馆,,,44,42,19,13,58,,,,21,12,,6,0.3,0.4
2025-03-18T0400,1052A,115.5213,38.8959,保定市,华电二区,,28,25,38,19,19,71,,,,13,14,6,7,0.2,0.1
2025-03-18T0400,1053A,115.4713,38.9108,保定市,接待中心,,33,33,40,16,17,73,,,,14,17,4,3,0,0
2025-03-18T0400,1054A,115.4612,38.8416,保定市,地表水厂,颗粒物(PM10),55,59,53,24,14,58,,,,33,23,4,3,0.5,0.5
2025-03-18T0400,3581A,115.31981,38.95208,保定市,满城区生态环境分局,,41,41,36,17,11,41,,,,38,16,5,4,0.3,0.3
2025-03-18T0400,3582A,115.47694,38.76408,保定市,清苑区第二中学,颗粒物(PM10),51,51,57,20,16,56,,,,27,25,7,8,0.2,0.3
2025-03-18T0400,3583A,115.62909,39.02311,保定市,徐水物探局,,29,29,35,3,6,66,,,,21,16,9,8,0.2,0
2025-03-18T0400,4004A,115.4202,38.8656,保定市,双鹰农机,,39,39,42,25,16,62,,,,19,14,1,2,0.5,0.5
2025-03-18T0400,4034A,115.5150,38.8590,保定市,植保所站,,50,50,45,24,24,58,,,,27,21,4,4,0.1,0.1
2025-03-18T0400,2594A,99.1678,25.1081,保山市,市环境监测站,细颗粒物(PM2.5),102,125,67,76,41,148,,,,10,7,9,6,0.9,0.6
2025-03-18T0400,2595A,99.1711,25.1328,保山市,市环保局,细颗粒物(PM2.5),94,113,72,70,41,153,,,,10,6,8,6,0.8,0.6
2025-03-18T0400,1866A,109.2262,21.588,北海市,牛尾岭水库,,,42,32,29,25,60,,,,,,6,7,0.7,0.7
2025-03-18T0400,1867A,109.1436,21.4086,北海市,海滩公园,,50,50,41,32,25,83,,,,12,13,9,8,0.3,0.3
2025-03-18T0400,1868A,109.0981,21.4661,北海市,新市环保局,细颗粒物(PM2.5),62,56,43,44,31,80,,,,14,15,5,6,0.5,0.5
2025-03-18T0400,1869A,109.1778,21.5233,北海市,北海工业园,"颗粒物(PM10),细颗粒物(PM2.5)",55,59,46,39,31,76,,,,13,14,9,10,0.4,0.4
2025-03-18T0400,3400A,109.1911,21.4415,北海市,龙潭自来水厂,细颗粒物(PM2.5),58,61,40,41,34,76,,,,12,13,10,9,0.4,0.4
2025-03-18T0400,1001A,116.3621,39.8784,北京市,万寿西宫,,26,22,25,8,10,82,,,,12,14,2,2,0.2,0.1
2025-03-18T0400,1002A,116.2202,40.2915,北京市,定陵,,,,,,,,,,,,,,,,
2025-03-18T0400,1003A,116.4174,39.9289,北京市,东四,,29,29,29,11,10,70,,,,18,14,3,3,0.4,0.3
2025-03-18T0400,1004A,116.4072,39.8863,北京市,天坛,,22,21,27,9,10,70,,,,14,14,1,1,0.4,0.4
2025-03-18T0400,1005A,116.462,39.9365,北京市,农展馆,,,,27,,9,,,82,,,11,,5,,0.3
2025-03-18T0400,1006A,116.3392,39.9295,北京市,官园,,23,23,28,10,12,61,,,,18,17,8,7,0.4,0.4
2025-03-18T0400,1007A,116.2878,39.9611,北京市,海淀万柳,,20,20,28,8,10,63,,,,20,25,2,3,0.3,0.4
2025-03-18T0400,1008A,116.6636,40.135,北京市,顺义新城,,23,23,18,10,8,62,,,,7,7,4,4,0.3,0.3
2025-03-18T0400,1009A,116.6275,40.3275,北京市,怀柔镇,,25,18,16,9,9,77,,,,7,10,3,2,0.4,0.4
2025-03-18T0400,1010A,116.2296,40.217,北京市,昌平镇,,26,26,27,8,9,45,,,,30,12,1,1,0.4,0.3
2025-03-18T0400,1011A,116.3966,39.9821,北京市,奥体中心,,21,21,23,9,9,59,,,,22,14,4,3,0.4,0.5
2025-03-18T0400,3281A,115.9718,40.4529,北京市,延庆夏都,,20,15,17,7,8,62,,,,6,3,5,5,0.3,0.3
2025-03-18T0400,3418A,116.8336,40.4095,北京市,密云新城,,25,20,19,12,9,79,,,,2,4,4,3,0.4,0.4
2025-03-18T0400,3671A,116.088,39.9726,北京市,门头沟三家店,,27,27,53,10,12,52,,,,15,7,4,4,0.3,0.3
2025-03-18T0400,3672A,116.1541,39.8204,北京市,丰台云岗,,31,31,29,11,11,50,,,,28,10,3,3,0.3,0.3
2025-03-18T0400,3673A,116.6804,39.9081,北京市,通州东关,,25,22,30,10,9,79,,,,8,14,4,4,0.4,0.3
2025-03-18T0400,3674A,115.9577,39.7603,北京市,房山燕山,,,,24,,12,,,85,,,2,,2,,0.2
2025-03-18T0400,3675A,116.4672,39.7733,北京市,大兴旧宫,,21,21,29,8,10,56,,,,11,16,3,3,0.2,0.2
2025-03-18T0400,3694A,115.986,40.4563,北京市,延庆石河营,,22,11,17,6,7,68,,,,1,2,4,4,0.3,0.3
2025-03-18T0400,3695A,116.6151,40.3053,北京市,怀柔新城,,24,16,16,9,9,76,,,,4,6,4,4,0.4,0.4
2025-03-18T0400,3696A,116.2545,39.8768,北京市,丰台小屯,,22,22,30,8,10,61,,,,18,21,1,1,0.3,0.3
2025-03-18T0400,3697A,116.84,40.3844,北京市,密云镇,,27,19,19,10,8,84,,,,6,9,5,3,0.4,0.4
2025-03-18T0400,4182A,116.1942,39.9158,北京市,八角北路9号,,23,23,28,8,10,52,,,,33,22,1,1,0.2,0.1
2025-03-18T0400,4194A,117.0790,40.1518,北京市,洳河巡河路,,27,14,15,9,8,85,,,,2,3,2,2,0.2,0.2
2025-03-18T0400,1761A,123.8275,41.3064,本溪市,大峪,细颗粒物(PM2.5),88,93,76,65,53,78,,,,15,22,8,9,0.8,0.8
2025-03-18T0400,1762A,123.7567,41.3325,本溪市,溪湖,细颗粒物(PM2.5),73,74,79,53,55,70,,,,20,25,8,8,1.1,1
2025-03-18T0400,1763A,123.7169,41.3094,本溪市,彩屯,细颗粒物(PM2.5),102,101,92,76,71,41,,,,42,32,13,11,1.2,1.1
2025-03-18T0400,1764A,123.7669,41.2864,本溪市,东明,细颗粒物(PM2.5),85,88,78,63,52,68,,,,18,26,9,9,0.8,0.8
2025-03-18T0400,1765A,123.7992,41.2664,本溪市,新立屯,细颗粒物(PM2.5),105,83,64,79,55,66,,,,20,25,5,7,0.9,0.9
2025-03-18T0400,1766A,123.8142,41.3472,本溪市,威宁,细颗粒物(PM2.5),113,135,89,85,57,39,,,,35,21,3,4,0.9,0.8
2025-03-18T0400,2587A,105.2864,27.3125,毕节市,八中,,15,6,7,6,5,45,,,,8,7,8,7,0.6,0.5
2025-03-18T0400,2588A,105.31,27.2944,毕节市,师专,,15,13,7,9,5,45,,,,10,10,5,6,0.6,0.6
2025-03-18T0400,4263A,105.3688,27.3598,毕节市,工业大道,,17,,4,6,4,52,,,,8,9,7,7,0.3,0.3
2025-03-18T0400,1629A,118.0018,37.3617,滨州市,第二水厂,,34,34,40,22,12,59,,,,10,8,10,8,0.2,0.3
2025-03-18T0400,1630A,117.9776,37.393,滨州市,北中新校,,36,36,48,12,12,69,,,,21,22,11,11,0.3,0.3
2025-03-18T0400,3514A,117.9378,37.3956,滨州市,中海酒店,,29,29,40,14,18,68,,,,14,18,8,8,0.4,0.4
2025-03-18T0400,3515A,117.9378,37.3553,滨州市,开发区一中,,29,29,48,14,14,74,,,,16,20,10,9,0.2,0.2
2025-03-18T0400,3516A,118.0917,37.694,滨州市,金海六路,,37,37,44,14,8,73,,,,12,17,4,5,0.5,0.5
2025-03-18T0400,4028A,117.9956,37.3753,滨州市,滨州市西街道办事处,,28,24,41,19,17,70,,,,15,15,6,6,0.4,0.4
2025-03-18T0400,2311A,115.8072,33.8399,亳州市,污水处理厂,颗粒物(PM10),54,57,53,34,21,58,,,,22,21,8,5,0.3,0.2
2025-03-18T0400,2312A,115.7789,33.8518,亳州市,三国揽胜宫,颗粒物(PM10),56,62,56,26,20,55,,,,21,20,11,5,0.4,0.4
2025-03-18T0400,3332A,115.7633,33.8034,亳州市,亳州学院,颗粒物(PM10),56,62,47,29,20,65,,,,14,15,8,5,0.4,0.3
2025-03-18T0400,2693A,82.0485,44.8556,博尔塔拉蒙古自治州,市党校,,35,35,45,20,18,63,,,,9,12,40,44,0.4,0.5
2025-03-18T0400,2694A,82.0806,44.8969,博尔塔拉蒙古自治州,市环保局,,42,42,50,21,22,66,,,,8,17,6,5,0.1,0.6
2025-03-18T0400,1071A,116.8842,38.2991,沧州市,沧县城建局,,38,38,50,23,21,75,,,,10,13,1,3,0.2,0.2
2025-03-18T0400,1072A,116.8584,38.3254,沧州市,电视转播站,,37,37,47,12,13,62,,,,16,15,5,4,0.4,0.4
2025-03-18T0400,1073A,116.8709,38.3228,沧州市,市环保局,,28,28,44,18,21,69,,,,13,15,7,7,0.3,0.3
2025-03-18T0400,3324A,116.8136,38.3004,沧州市,河北水利电力学院,,25,,45,17,20,73,,,,10,15,3,2,0.1,0.2
2025-03-18T0400,2622A,97.1806,31.1273,昌都市,昌都监测站,,27,6,10,3,7,85,,,,1,5,6,7,0.3,0.5
2025-03-18T0400,3719A,97.1714,31.1406,昌都市,昌都会议中心,,32,9,14,6,8,101,,,,1,3,3,2,0.1,0.1
2025-03-18T0400,2690A,88.1236,43.8886,昌吉回族自治州,天山天池,,27,6,35,3,10,85,,,,3,4,5,5,0.4,0.4
2025-03-18T0400,2692A,87.2717,44.0297,昌吉回族自治州,新区政务中心,颗粒物(PM10),76,102,71,37,24,5,,,,58,33,5,8,0.9,0.8
2025-03-18T0400,3613A,87.3095,44.0142,昌吉回族自治州,亚心广场,颗粒物(PM10),75,100,89,48,36,32,,,,33,26,5,8,0.8,0.7
2025-03-18T0400,1119A,125.3325,43.9166,长春市,食品厂,,45,,68,31,52,58,,,,24,35,8,9,0.4,0.6
2025-03-18T0400,1120A,125.2863,43.9027,长春市,客车厂,细颗粒物(PM2.5),52,42,66,36,56,42,,,,33,35,6,7,0.6,0.7
2025-03-18T0400,1121A,125.2841,43.8463,长春市,邮电学院,细颗粒物(PM2.5),53,47,65,37,51,57,,,,20,25,8,8,0.5,0.6
2025-03-18T0400,1122A,125.3716,43.8772,长春市,劳动公园,,43,30,58,30,44,56,,,,16,22,7,7,1.0,1.2
2025-03-18T0400,1123A,125.3297,43.8805,长春市,园林处,,35,24,53,24,44,70,,,,13,24,7,8,0.3,0.5
2025-03-18T0400,1124A,125.4605,43.79,长春市,净月潭,,49,38,58,34,42,53,,,,17,15,6,8,0.5,0.5
2025-03-18T0400,1125A,125.7194,43.515,长春市,甩湾子,,,,,,,,,,,,,,,,
2025-03-18T0400,1126A,125.3863,43.8447,长春市,经开区环卫处,,38,37,57,26,42,60,,,,14,24,6,6,0.3,0.4
2025-03-18T0400,1127A,125.245,43.7783,长春市,高新区管委会,细颗粒物(PM2.5),74,70,84,54,64,10,,,,64,43,7,9,0.6,0.7
2025-03-18T0400,1128A,125.1761,43.8325,长春市,岱山公园,细颗粒物(PM2.5),59,49,83,42,64,26,,,,42,40,10,11,0.5,0.6
2025-03-18T0400,1335A,113.0833,28.2325,长沙市,经开区环保局,颗粒物(PM10),58,66,51,37,28,21,,,,76,29,4,6,0.5,0.3
2025-03-18T0400,1336A,112.8872,28.2189,长沙市,高开区环保局,"颗粒物(PM10),细颗粒物(PM2.5)",53,55,52,37,28,18,,,,65,23,6,5,0.7,0.5
2025-03-18T0400,1337A,113.0792,28.2053,长沙市,马坡岭,颗粒物(PM10),56,62,50,38,28,10,,,,62,26,4,5,0.6,0.5
2025-03-18T0400,1338A,112.9394,28.19,长沙市,湖南师范大学,,49,49,45,29,25,56,,,,10,11,6,6,0.6,0.5
2025-03-18T0400,1339A,113.0178,28.1322,长沙市,雨花区环保局,,48,48,49,29,26,34,,,,46,26,6,6,0.5,0.4
2025-03-18T0400,1340A,112.9792,28.2597,长沙市,伍家岭,颗粒物(PM10),65,80,56,37,25,1,,,,70,32,4,4,0.6,0.4
2025-03-18T0400,1341A,113.0014,28.1944,长沙市,火车新站,颗粒物(PM10),54,58,51,36,31,66,,,,21,20,8,7,0.6,0.4
2025-03-18T0400,1342A,112.9844,28.1178,长沙市,天心区环保局,颗粒物(PM10),54,57,52,31,29,33,,,,51,31,6,4,0.4,0.4
2025-03-18T0400,1343A,112.8908,28.1308,长沙市,湖南中医药大学,颗粒物(PM10),53,55,52,34,30,6,,,,51,26,4,4,0.3,0.2
2025-03-18T0400,1344A,112.9581,28.3611,长沙市,沙坪,,45,41,36,31,25,41,,,,14,8,6,7,0.5,0.4
2025-03-18T0400,1727A,113.1147,36.1547,长治市,清华站,,46,46,28,12,9,37,,,,35,19,8,7,1.0,0.7
2025-03-18T0400,1730A,113.0886,36.2125,长治市,审计局,,37,37,28,9,9,65,,,,23,20,12,10,0.4,0.3
2025-03-18T0400,1731A,113.0844,36.1856,长治市,长治八中,,39,39,34,17,13,66,,,,21,17,11,9,0.4,0.3
2025-03-18T0400,2845A,113.1569,36.1911,长治市,德盛苑,,42,42,34,17,11,58,,,,22,17,15,8,1.0,0.7
2025-03-18T0400,3568A,113.06,36.0464,长治市,向阳小学,颗粒物(PM10),54,58,44,13,17,56,,,,23,15,12,9,0.3,0.2
2025-03-18T0400,3569A,112.8792,36.3144,长治市,屯留一中,,40,40,31,13,8,60,,,,32,25,7,8,0.5,0.4
2025-03-18T0400,4189A,113.1131,36.19948,长治市,英华南巷50号,,46,46,35,14,12,57,,,,26,19,17,12,0.8,0.6
2025-03-18T0400,4190A,113.2367,36.3344,长治市,学府街1号,颗粒物(PM10),55,59,43,17,14,27,,,,56,23,4,5,0.5,0.5
2025-03-18T0400,1854A,111.6975,28.9703,常德市,市二中,,48,44,56,33,33,50,,,,9,15,4,5,0.5,0.4
2025-03-18T0400,1857A,111.7158,29.1456,常德市,白鹤山,,,,,,,,,,,,,,,,
2025-03-18T0400,3138A,111.7153,29.0289,常德市,武陵区永安,,42,42,64,28,36,60,,,,5,12,3,4,0.4,0.4
2025-03-18T0400,3139A,111.6892,28.9881,常德市,鼎城区玉霞,,42,42,58,29,33,49,,,,12,16,4,4,0.4,0.4
2025-03-18T0400,3140A,111.6625,29.0531,常德市,武陵区长庚,,43,43,65,23,35,54,,,,3,11,2,5,0.4,0.4
2025-03-18T0400,1196A,119.9633,31.762,常州市,市监测站,,41,41,49,18,26,77,,,,11,26,6,7,0.4,0.5
2025-03-18T0400,1200A,119.9468,31.7069,常州市,武进监测站,,38,38,37,22,26,72,,,,22,26,16,14,0.5,0.6
2025-03-18T0400,1201A,119.9255,31.9087,常州市,安家,,46,46,45,22,25,63,,,,28,32,9,9,0.5,0.5
2025-03-18T0400,3002A,119.9805,31.8174,常州市,行政中心,,39,39,39,19,24,70,,,,18,27,3,3,0.4,0.5
2025-03-18T0400,3003A,120.0522,31.7748,常州市,经开区,,47,47,42,20,22,73,,,,23,25,9,10,0.6,0.6
2025-03-18T0400,3010A,119.9025,31.7964,常州市,钟楼,,42,42,46,20,25,71,,,,18,27,7,17,0.5,0.6
2025-03-18T0400,3429A,119.8598,31.7066,常州市,武进经发区,,46,46,46,28,26,60,,,,36,28,10,9,0.7,0.6
2025-03-18T0400,3430A,119.5826,31.7245,常州市,金坛城区,,50,50,40,31,25,64,,,,24,20,9,9,0.6,0.6
2025-03-18T0400,2220A,120.4318,41.5881,朝阳市,西梁,,23,17,47,10,26,71,,,,2,13,3,9,0.4,0.5
2025-03-18T0400,2221A,120.4521,41.5646,朝阳市,河畔小区,,25,12,42,6,17,77,,,,6,14,6,12,0.5,0.6
2025-03-18T0400,2222A,120.4176,41.5648,朝阳市,八里堡,,22,21,50,10,20,70,,,,5,12,6,10,0.3,0.3
2025-03-18T0400,2223A,120.3806,41.5969,朝阳市,农业园区,,29,29,50,18,22,73,,,,8,15,5,8,0.4,0.5
2025-03-18T0400,1705A,116.6367,23.6719,潮州市,西园路,细颗粒物(PM2.5),98,83,56,73,40,36,,,,21,17,5,4,0.4,0.3
2025-03-18T0400,3026A,116.6183,23.6608,潮州市,市政府,细颗粒物(PM2.5),83,68,52,61,34,34,,,,30,19,11,5,0.6,0.4
2025-03-18T0400,4036A,116.6461,23.6761,潮州市,金山,细颗粒物(PM2.5),83,,48,61,36,36,,,,19,16,8,8,0.7,0.6
2025-03-18T0400,2472A,113.0073,25.9061,郴州市,马头岭,,29,29,46,10,23,40,,,,6,8,7,8,0.3,0.9
2025-03-18T0400,2473A,113.0116,25.8226,郴州市,市职中,,38,29,39,26,26,47,,,,16,15,5,5,0.6,0.6
2025-03-18T0400,2475A,113.0383,25.8071,郴州市,市审计局,,35,31,39,24,28,64,,,,13,15,3,3,0.4,0.5
2025-03-18T0400,2476A,113.0348,25.7759,郴州市,市环保局,,45,33,44,31,34,66,,,,10,11,4,5,0.5,0.4
2025-03-18T0400,4252A,113.0138,25.8011,郴州市,好美居路49号,,45,38,42,31,30,72,,,,11,14,8,7,0.4,0.4
2025-03-18T0400,1431A,103.9728,30.7236,成都市,金泉两河,,46,46,46,20,18,25,,,,23,24,3,2,0.5,0.5
2025-03-18T0400,1432A,104.176,30.6872,成都市,十里店,,32,32,40,20,21,43,,,,20,32,3,2,0.8,0.8
2025-03-18T0400,1433A,104.079,30.5706,成都市,三瓦窑,,25,25,39,17,18,45,,,,23,34,6,4,0.6,0.6
2025-03-18T0400,1434A,104.1114,30.63,成都市,沙河铺,,50,40,44,35,27,32,,,,19,28,5,5,0.7,0.7
2025-03-18T0400,1437A,104.0786,30.6531,成都市,君平街,,43,34,42,30,26,43,,,,23,29,8,6,0.7,0.7
2025-03-18T0400,1438A,103.613,31.0283,成都市,灵岩寺,,,,,,,,,,,,,,,,
2025-03-18T0400,2880A,104.0239,30.65639,成都市,大石西路,,32,30,44,22,25,36,,,,28,32,4,3,0.6,0.6
2025-03-18T0400,3136A,104.2725,30.5589,成都市,龙泉驿区区政府,,18,14,29,9,18,55,,,,13,21,4,4,0.5,0.5
2025-03-18T0400,3357A,104.0106,30.6931,成都市,金博路,,20,20,31,3,12,27,,,,26,27,6,6,0.5,0.6
2025-03-18T0400,3359A,104.0578,30.5225,成都市,华阳,,35,31,36,24,25,43,,,,21,26,7,5,0.8,0.7
2025-03-18T0400,3488A,104.3853,30.7453,成都市,青白江技师分院,,24,24,40,9,23,25,,,,28,32,6,5,0.4,0.4
2025-03-18T0400,3489A,104.0789,30.4072,成都市,科学城,,28,28,31,18,21,55,,,,12,16,5,5,0.5,0.5
2025-03-18T0400,4011A,103.8506,30.6947,成都市,光华大道三段,,50,50,42,16,19,29,,,,30,26,6,4,0.6,0.6
2025-03-18T0400,4224A,104.2433,30.5353,成都市,鲸龙路1057号,,23,23,35,13,20,52,,,,17,23,5,4,0.5,0.6
2025-03-18T0400,1062A,117.9531,40.9081,承德市,铁路,,24,24,24,6,10,55,,,,9,11,5,5,0.4,0.3
2025-03-18T0400,1063A,117.9392,40.9763,承德市,中国银行,,27,27,23,8,9,46,,,,12,7,2,3,0.3,0.3
2025-03-18T0400,1064A,117.9503,40.928,承德市,开发区,,32,32,31,19,21,52,,,,16,13,3,4,0.3,0.3
2025-03-18T0400,1065A,117.8051,40.9655,承德市,文化中心,,35,35,32,20,10,40,,,,26,13,2,3,0.3,0.3
2025-03-18T0400,1066A,117.9268,41.0026,承德市,离宫,,29,21,27,20,19,68,,,,4,4,4,5,0.2,0.2
2025-03-18T0400,2314A,117.47,30.6618,池州市,池州学院,,35,35,32,23,20,67,,,,21,20,5,7,0.6,0.5
2025-03-18T0400,3237A,117.4918,30.6617,池州市,展览馆,,38,36,31,26,19,70,,,,16,17,6,7,0.5,0.5
2025-03-18T0400,3333A,117.5627,30.695,池州市,第八中学,,36,36,29,22,18,65,,,,14,16,5,6,0.7,0.5
2025-03-18T0400,3334A,117.5038,30.6243,池州市,第十二中学,,34,34,30,20,18,62,,,,14,18,7,8,1.0,0.6
2025-03-18T0400,1744A,118.9233,42.2816,赤峰市,松山一中,,24,18,64,3,7,75,,,,10,11,10,7,0.6,0.6
2025-03-18T0400,1745A,118.9576,42.2728,赤峰市,哈达街,,26,,51,18,14,56,,,,9,13,9,9,0.6,0.6
2025-03-18T0400,1746A,118.8788,42.2554,赤峰市,天义路,,20,12,44,11,13,64,,,,8,12,7,7,0.5,0.4
2025-03-18T0400,3058A,119.2658,42.0353,赤峰市,银河街,,20,15,65,8,15,62,,,,12,13,14,18,0.5,0.5
2025-03-18T0400,3286A,118.9359,42.3147,赤峰市,桥北物流园区,,18,,31,12,14,56,,,,16,8,6,7,0.6,0.5
2025-03-18T0400,2521A,107.3476,22.4136,崇左市,市环保局江州分局,,45,45,67,21,34,80,,,,7,17,6,11,0.4,0.6
2025-03-18T0400,4256A,107.3750,22.3736,崇左市,石景林东路7号,,42,41,59,29,30,83,,,,8,14,5,8,0.4,0.4
2025-03-18T0400,2298A,118.3093,32.3153,滁州市,老年大学,,47,47,38,22,23,72,,,,20,17,4,4,0.5,0.4
2025-03-18T0400,2299A,118.3244,32.2786,滁州市,人大宾馆,,48,48,42,23,22,67,,,,24,15,8,8,0.5,0.4
2025-03-18T0400,3207A,118.3118,32.3038,滁州市,市政府原办公楼,,45,45,34,27,21,73,,,,17,12,4,4,0.3,0.2
2025-03-18T0400,3331A,118.3267,32.2634,滁州市,图书馆,颗粒物(PM10),51,51,38,22,18,68,,,,23,19,6,6,0.4,0.3
2025-03-18T0400,2605A,101.5482,25.0441,楚雄彝族自治州,州环境监测站,,40,29,46,28,34,40,,,,15,10,9,8,0.7,0.6
2025-03-18T0400,2606A,101.538,25.0492,楚雄彝族自治州,市经济开发区,,36,33,51,25,34,40,,,,16,12,7,7,0.8,0.7
2025-03-18T0400,2548A,107.5277,31.2827,达州市,达州职业技术学院,,43,43,56,23,25,20,,,,21,27,5,8,0.5,0.4
2025-03-18T0400,2549A,107.5086,31.2186,达州市,市环境监测站,,,,53,,21,,,,,,28,,13,,0.7
2025-03-18T0400,2550A,107.4988,31.2132,达州市,凤凰小区,,29,29,50,17,26,52,,,,12,23,7,14,0.2,0.5
2025-03-18T0400,2551A,107.5082,31.1986,达州市,达县机关宾馆,,36,36,47,23,26,34,,,,21,28,6,10,0.6,0.6
2025-03-18T0400,2552A,107.4644,31.2124,达州市,市政中心,,,51,59,22,24,40,,,,26,26,,12,0.3,0.6
2025-03-18T0400,2614A,100.1542,25.7054,大理白族自治州,大理市环境监测站,细颗粒物(PM2.5),83,73,50,61,34,142,,,,7,7,9,8,0.8,0.7
2025-03-18T0400,2615A,100.2171,25.5811,大理白族自治州,大理古城,细颗粒物(PM2.5),65,62,42,47,34,133,,,,5,6,7,7,0.7,0.6
2025-03-18T0400,1109A,121.612,38.9741,大连市,甘井子,,40,37,44,28,27,76,,,,17,26,6,7,0.6,0.6
2025-03-18T0400,1110A,121.565,38.9511,大连市,周水子,,42,40,41,29,29,85,,,,12,24,15,12,0.3,0.5
2025-03-18T0400,1111A,121.5637,38.8845,大连市,星海三站,,45,39,40,31,28,87,,,,7,14,11,11,0.7,0.7
2025-03-18T0400,1112A,121.6302,38.9117,大连市,青泥洼桥,,42,42,42,28,26,86,,,,5,15,9,10,0.3,0.4
2025-03-18T0400,1113A,121.6251,38.8638,大连市,傅家庄,细颗粒物(PM2.5),54,38,38,38,31,84,,,,13,19,8,8,0.7,0.7
2025-03-18T0400,1114A,121.5213,38.8661,大连市,七贤岭,,48,48,41,27,24,84,,,,9,14,8,7,0.6,0.6
2025-03-18T0400,1115A,121.2529,38.8061,大连市,旅顺,颗粒物(PM10),52,54,69,24,24,86,,,,10,20,5,8,0.4,0.4
2025-03-18T0400,1116A,121.7485,39.1311,大连市,金州,,42,42,46,25,32,81,,,,13,22,9,9,0.5,0.6
2025-03-18T0400,1117A,121.7811,39.0496,大连市,开发区,,39,37,44,27,30,76,,,,12,24,8,9,0.7,0.8
2025-03-18T0400,1118A,121.9762,39.0631,大连市,双D港,,,40,39,31,28,86,,,,15,16,,9,0.8,0.8
2025-03-18T0400,1789A,124.81117,46.03138,大庆市,大同区,,30,21,27,21,21,60,,,,13,10,4,4,0.6,0.6
2025-03-18T0400,1790A,125.129,46.533,大庆市,龙凤区,,30,30,29,17,18,62,,,,21,14,11,7,0.8,0.5
2025-03-18T0400,1791A,124.902,46.408,大庆市,红岗区,,27,16,25,14,20,25,,,,53,16,4,6,0.4,0.4
2025-03-18T0400,1792A,125.153,46.586,大庆市,萨尔图区,,30,30,27,17,15,50,,,,37,14,7,6,2.0,0.4
2025-03-18T0400,1793A,124.9042,46.6215,大庆市,让胡路区,,39,31,24,27,23,63,,,,11,11,7,7,0.2,0.3
2025-03-18T0400,3481A,125.141,46.634,大庆市,萨区政府监测点,,28,28,25,9,17,54,,,,26,10,5,5,1.1,0.6
2025-03-18T0400,1721A,113.3819,40.1097,大同市,果树场,,22,21,21,15,15,34,,,,23,14,8,10,0.6,0.5
2025-03-18T0400,1723A,113.2994,40.0758,大同市,云冈宾馆,,37,37,28,24,12,42,,,,28,11,12,9,0.6,0.4
2025-03-18T0400,1724A,113.3444,40.0917,大同市,大同大学,,32,31,25,22,12,54,,,,21,10,30,14,0.7,0.5
2025-03-18T0400,1725A,113.2661,40.1269,大同市,安家小村,,40,40,26,6,9,39,,,,22,10,9,9,1.4,0.6
2025-03-18T0400,1726A,113.2711,40.0844,大同市,教育学院,,27,27,26,7,11,55,,,,23,13,13,8,0.6,0.4
2025-03-18T0400,3282A,113.3397,40.0597,大同市,大同市卫生学校,,33,33,25,11,10,48,,,,23,10,13,8,0.5,0.4
2025-03-18T0400,3565A,113.1367,40.1122,大同市,云冈站,,27,27,29,17,12,37,,,,25,14,14,13,0.4,0.3
2025-03-18T0400,3566A,113.1186,40.2556,大同市,图书馆,,23,23,22,12,12,59,,,,7,7,8,8,0.5,0.6
2025-03-18T0400,3567A,113.5931,40.0461,大同市,区一中,,25,21,24,9,11,77,,,,10,7,18,15,0.4,0.4
2025-03-18T0400,4199A,113.2798,40.0997,大同市,魏都大道141号,,41,41,29,19,14,37,,,,35,15,13,12,0.9,0.5
2025-03-18T0400,2269A,124.1069,50.4097,大兴安岭地区,科技局,,26,20,24,18,19,60,,,,3,5,5,6,0.5,0.4
2025-03-18T0400,3663A,124.1164,50.4278,大兴安岭地区,红旗社区,,15,7,18,3,14,27,,,,29,13,5,7,0.4,0.4
2025-03-18T0400,1600A,124.3303,40.0625,丹东市,江湾东路,细颗粒物(PM2.5),63,60,68,45,49,96,,,,11,18,8,13,0.6,0.8
2025-03-18T0400,1601A,124.4256,40.1503,丹东市,临江后街,细颗粒物(PM2.5),64,63,64,46,44,95,,,,7,16,7,11,0.4,0.6
2025-03-18T0400,1602A,124.3933,40.1461,丹东市,元宝山,细颗粒物(PM2.5),60,52,50,43,39,91,,,,9,14,6,8,0.7,0.8
2025-03-18T0400,1603A,124.3633,40.1092,丹东市,民主桥,细颗粒物(PM2.5),64,54,56,46,40,97,,,,8,19,9,9,0.5,0.6
2025-03-18T0400,3541A,109.5726,19.5167,儋州市,第一中学子站,,25,19,36,14,18,80,,,,7,9,4,4,0.5,0.6
2025-03-18T0400,3542A,109.5567,19.5187,儋州市,东坡学校子站,,32,32,37,14,20,86,,,,6,8,5,5,0.6,0.6
2025-03-18T0400,2616A,98.5842,24.428,德宏傣族景颇族自治州,德宏州监测站,细颗粒物(PM2.5),99,95,87,74,55,46,,,,42,31,10,10,0.9,0.7
2025-03-18T0400,3677A,98.5881,24.4368,德宏傣族景颇族自治州,芒市人民政府综合楼,细颗粒物(PM2.5),103,123,104,77,54,82,,,,16,21,10,11,0.8,0.6
2025-03-18T0400,1901A,104.4239,31.1208,德阳市,东山公园,,45,42,54,31,35,52,,,,19,30,3,3,0.6,0.6
2025-03-18T0400,1902A,104.3826,31.1317,德阳市,西小区,,48,48,68,32,42,49,,,,20,39,4,4,0.5,0.6
2025-03-18T0400,1904A,104.3553,31.1091,德阳市,耐火材料厂,细颗粒物(PM2.5),54,47,62,38,39,40,,,,25,38,7,6,0.3,0.4
2025-03-18T0400,3639A,104.4019,31.1244,德阳市,市教育局,,46,39,53,32,38,52,,,,19,36,4,4,0.6,0.6
2025-03-18T0400,1622A,116.3032,37.4674,德州市,儿童乐园,,24,24,60,9,16,73,,,,15,21,4,6,0.6,0.7
2025-03-18T0400,1624A,116.2991,37.4451,德州市,监理站,,25,24,53,7,17,78,,,,12,18,10,12,0.5,0.5
2025-03-18T0400,3066A,116.2721,37.4379,德州市,九衢泉纯净水厂,,24,24,55,7,18,74,,,,19,28,8,9,0.4,0.5
2025-03-18T0400,3371A,116.3728,37.4403,德州市,开发区人民医院,,29,29,60,9,15,71,,,,18,22,4,6,0.3,0.4
2025-03-18T0400,3372A,116.3572,37.4094,德州市,太阳城中学,,24,24,60,12,17,75,,,,11,19,3,6,0.3,0.4
2025-03-18T0400,3511A,116.5652,37.3319,德州市,陵城艺术中心,,22,22,58,9,17,66,,,,16,23,13,12,0.4,0.5
2025-03-18T0400,2621A,99.7056,27.8317,迪庆藏族自治州,迪庆州站,,25,10,20,3,10,79,,,,6,8,8,8,0.4,0.4
2025-03-18T0400,3180A,99.7136,27.8094,迪庆藏族自治州,质量技术监督局,,27,10,18,8,11,85,,,,6,8,9,9,0.7,0.7
2025-03-18T0400,4257A,104.6092,35.5962,定西市,将台街,,45,45,53,24,27,22,,,,36,25,7,9,0.4,0.5
2025-03-18T0400,4309A,104.6159,35.5701,定西市,正龙路62号,细颗粒物(PM2.5),62,54,62,44,36,45,,,,8,15,8,13,0.5,0.8
2025-03-18T0400,1389A,113.7547,23.0494,东莞市,莞城梨川,颗粒物(PM10),55,60,57,34,33,44,,,,31,23,4,5,0.6,0.6
2025-03-18T0400,1390A,113.7944,23.0128,东莞市,东城石井,颗粒物(PM10),54,58,55,33,28,44,,,,21,16,5,6,0.7,0.6
2025-03-18T0400,1391A,113.7383,22.9658,东莞市,南城西平,细颗粒物(PM2.5),60,66,58,43,30,17,,,,57,31,5,6,0.7,0.6
2025-03-18T0400,3319A,113.7338,23.0381,东莞市,万江金泰,颗粒物(PM10),55,60,51,35,29,31,,,,44,16,5,4,0.6,0.7
2025-03-18T0400,3626A,113.7533,23.0202,东莞市,南城元岭,颗粒物(PM10),53,55,55,32,28,40,,,,34,19,6,6,0.6,0.5
2025-03-18T0400,3627A,113.7875,23.0457,东莞市,东城主山,,46,46,56,29,29,55,,,,22,22,7,8,0.6,0.6
2025-03-18T0400,1666A,118.6614,37.4309,东营市,市环保局,,26,22,40,7,9,82,,,,10,22,2,5,0.4,0.5
2025-03-18T0400,3036A,118.6904,37.4338,东营市,开发区管委会,,26,24,47,12,15,82,,,,10,25,1,4,0.5,0.6
2025-03-18T0400,3365A,118.5719,37.565,东营市,垦利区民丰路,,25,22,36,17,11,77,,,,9,14,5,6,0.5,0.5
2025-03-18T0400,3498A,118.5055,37.8612,东营市,河口城区,,26,17,41,3,10,83,,,,12,16,3,4,0.6,0.6
2025-03-18T0400,3646A,118.4978,37.4623,东营市,胜利站,,29,29,47,14,13,87,,,,12,23,6,8,0.5,0.5
2025-03-18T0400,3734A,118.35,37.26,东营市,理想之城,,27,27,45,17,14,72,,,,11,22,2,6,0.3,0.4
2025-03-18T0400,1591A,110.0023,39.8129,鄂尔多斯市,综合楼,,28,12,48,3,8,88,,,,9,16,5,6,0.1,0.2
2025-03-18T0400,1592A,109.9486,39.8261,鄂尔多斯市,巴音孟克林场办事处,,25,22,45,7,10,80,,,,13,18,6,8,0.3,0.4
2025-03-18T0400,1593A,109.7736,39.5986,鄂尔多斯市,康泽苑,,23,14,33,9,11,71,,,,6,7,3,3,0.2,0.3
2025-03-18T0400,1594A,109.8119,39.5989,鄂尔多斯市,华泰汽车城,,24,24,36,14,13,71,,,,8,9,3,3,0.3,0.3
2025-03-18T0400,1595A,109.9734,39.7884,鄂尔多斯市,奥林花园,,27,24,47,3,9,86,,,,10,15,6,7,0.2,0.3
2025-03-18T0400,2436A,114.8938,30.3994,鄂州市,市政府,,49,49,40,24,27,70,,,,20,22,11,9,1.1,1
2025-03-18T0400,2437A,114.8989,30.3714,鄂州市,赵家坝,,43,43,42,26,24,68,,,,17,15,4,5,0.5,0.6
2025-03-18T0400,3654A,114.8094,30.4089,鄂州市,精准医疗中心,,47,47,40,28,23,69,,,,19,16,4,5,0.6,0.6
2025-03-18T0400,2454A,109.4978,30.2981,恩施土家族苗族自治州,湖北民院,,32,26,34,22,23,18,,,,17,18,3,3,0.3,0.4
2025-03-18T0400,2455A,109.4707,30.2798,恩施土家族苗族自治州,州电力总公司,,29,28,33,20,22,10,,,,16,19,5,5,0,0.1
2025-03-18T0400,3549A,109.5061,30.3772,恩施土家族苗族自治州,龙凤新区,,31,31,32,13,21,14,,,,10,17,7,6,0.3,0.4
2025-03-18T0400,2499A,108.3411,21.6158,防城港市,沙万,细颗粒物(PM2.5),53,50,50,37,37,77,,,,13,15,8,8,1.0,1.1
2025-03-18T0400,2500A,108.3514,21.7731,防城港市,防城档案局,颗粒物(PM10),64,77,78,34,35,59,,,,32,25,9,8,0.3,0.3
2025-03-18T0400,2501A,108.3506,21.6414,防城港市,大海花园,"颗粒物(PM10),细颗粒物(PM2.5)",53,56,57,37,35,79,,,,9,10,7,6,0.8,0.8
2025-03-18T0400,1371A,113.1294,23.0067,佛山市,湾梁,颗粒物(PM10),56,61,58,39,24,34,,,,44,33,8,7,0.6,0.6
2025-03-18T0400,1372A,113.1083,23.0478,佛山市,华材职中,细颗粒物(PM2.5),57,58,62,40,29,37,,,,46,37,6,6,0.6,0.5
2025-03-18T0400,1373A,113.144,23.0453,佛山市,南海气象局,细颗粒物(PM2.5),53,41,52,37,26,34,,,,41,32,5,4,0.5,0.4
2025-03-18T0400,1374A,113.2881,22.8094,佛山市,顺德苏岗,颗粒物(PM10),54,58,57,36,29,22,,,,55,30,6,6,0.7,0.5
2025-03-18T0400,1376A,112.8383,22.8678,佛山市,高明孔堂,细颗粒物(PM2.5),64,72,63,46,32,37,,,,36,26,10,7,0.6,0.5
2025-03-18T0400,1377A,112.8836,23.1588,佛山市,三水监测站,,49,39,58,34,33,61,,,,25,42,1,2,0.5,0.5
2025-03-18T0400,1378A,112.867,23.185,佛山市,三水云东海,,48,44,52,33,34,42,,,,26,35,1,3,0.6,0.5
2025-03-18T0400,3625A,113.2544,22.7642,佛山市,容桂街道办,细颗粒物(PM2.5),55,51,57,39,31,38,,,,51,33,7,7,0.8,0.7
2025-03-18T0400,1280A,119.3903,26.0543,福州市,鼓山,,,,35,,24,,,94,,,4,,1,,0.3
2025-03-18T0400,1282A,119.2681,26.0504,福州市,师大,细颗粒物(PM2.5),52,44,43,36,33,67,,,,19,15,4,4,0.3,0.3
2025-03-18T0400,1283A,119.2984,26.1028,福州市,五四北路,,42,34,39,29,30,80,,,,15,17,4,4,0.4,0.4
2025-03-18T0400,1284A,119.2648,26.0768,福州市,杨桥西路,细颗粒物(PM2.5),54,48,46,38,31,67,,,,19,14,4,4,0.3,0.3
2025-03-18T0400,1285A,119.317,26.0746,福州市,紫阳,细颗粒物(PM2.5),58,50,46,41,33,61,,,,25,19,4,4,0.2,0.2
2025-03-18T0400,3048A,119.5799,26.0936,福州市,九龙,,45,31,34,31,26,58,,,,16,10,4,7,0.3,0.3
2025-03-18T0400,3526A,119.5189,25.9664,福州市,吴航,,43,43,44,30,29,73,,,,10,9,4,4,0.5,0.4
2025-03-18T0400,1755A,123.7977,41.8491,抚顺市,望花区,细颗粒物(PM2.5),77,86,106,56,70,55,,,,24,25,7,7,0.7,0.8
2025-03-18T0400,1756A,123.9161,41.8822,抚顺市,顺城区,颗粒物(PM10),66,81,87,46,53,62,,,,19,24,8,8,0.7,0.7
2025-03-18T0400,1757A,124.0436,41.8611,抚顺市,东洲区,细颗粒物(PM2.5),69,75,102,50,59,62,,,,15,15,4,6,0.5,0.7
2025-03-18T0400,1758A,123.9247,41.8642,抚顺市,新抚区,细颗粒物(PM2.5),73,84,85,53,58,62,,,,20,24,6,5,0.6,0.7
2025-03-18T0400,1759A,124.0972,41.8961,抚顺市,大伙房水库,细颗粒物(PM2.5),105,99,91,79,69,69,,,,12,19,6,8,0.7,0.7
2025-03-18T0400,1760A,123.7086,41.8391,抚顺市,沈抚新城,细颗粒物(PM2.5),74,86,90,54,68,48,,,,27,28,4,7,0.6,0.8
2025-03-18T0400,2376A,116.2127,28.0814,抚州市,桐源党溪,,30,30,43,12,21,7,,,,12,6,2,4,0.2,0.2
2025-03-18T0400,2377A,116.3544,27.9831,抚州市,市站,,40,40,40,23,21,40,,,,20,12,6,12,0.2,0.3
2025-03-18T0400,2378A,116.3565,27.963,抚州市,血防站,,46,46,44,20,22,25,,,,30,12,4,8,0.2,0.2
2025-03-18T0400,2379A,116.3564,28.0007,抚州市,采茶剧团,,36,36,37,23,20,31,,,,15,9,4,5,0.3,0.3
2025-03-18T0400,2380A,116.385,27.9647,抚州市,医学分院,,47,47,38,25,18,22,,,,31,8,4,5,0.7,0.6
2025-03-18T0400,2207A,121.6094,41.998,阜新市,工业园区,,35,28,66,24,35,74,,,,11,22,7,15,0.4,0.7
2025-03-18T0400,2208A,121.6697,42.0279,阜新市,长青街,,47,47,48,28,31,73,,,,12,19,5,22,0.4,0.9
2025-03-18T0400,2209A,121.6673,42.0705,阜新市,农业园区,,39,33,39,27,21,80,,,,13,17,6,16,0.3,0.5
2025-03-18T0400,2210A,121.6717,42.0224,阜新市,东苑,,40,39,54,28,34,75,,,,9,19,4,23,0.6,1
2025-03-18T0400,2211A,121.6506,42.0498,阜新市,玉龙新城,,43,43,46,26,29,65,,,,11,21,5,16,0.4,0.8
2025-03-18T0400,2301A,115.8277,32.8929,阜阳市,市监测站,,39,39,38,23,26,57,,,,19,15,6,6,0.4,0.4
2025-03-18T0400,2303A,115.8554,32.8605,阜阳市,开发区,,45,45,59,18,27,66,,,,17,20,6,7,0.5,0.5
2025-03-18T0400,2875A,115.784,32.8892,阜阳市,阜阳职业技术学院,,36,36,44,25,25,56,,,,18,15,8,8,0.3,0.4
2025-03-18T0400,3468A,115.7901,32.8613,阜阳市,市规划展馆,,35,35,43,24,24,65,,,,17,16,8,7,0.2,0.2
2025-03-18T0400,3469A,115.836,32.9183,阜阳市,枣园社区,,38,37,42,26,22,53,,,,27,14,6,6,0.3,0.3
2025-03-18T0400,2669A,102.9099,34.9841,甘南藏族自治州,州政府,,37,37,44,22,24,47,,,,25,14,4,6,0.6,0.4
2025-03-18T0400,3380A,102.8914,34.9617,甘南藏族自治州,甘肃民族师范学院,,43,43,38,25,21,47,,,,23,14,7,8,0.5,0.3
2025-03-18T0400,2570A,101.9603,30.0475,甘孜藏族自治州,水桥子,,28,9,8,6,6,89,,,,4,6,3,3,0.4,0.4
2025-03-18T0400,3065A,101.9533,29.9972,甘孜藏族自治州,州环保局,,28,,7,3,5,89,,,,2,5,4,4,0.3,0.3
2025-03-18T0400,3414A,115.8347,28.932,赣江新区,桑海产业园,,36,36,36,19,18,44,,,,25,30,8,8,0.3,0.2
2025-03-18T0400,2362A,114.9017,25.9149,赣州市,通天岩,,31,31,45,10,9,65,,,,3,4,11,11,0.3,0.4
2025-03-18T0400,2363A,114.9367,25.8664,赣州市,地委,,36,36,45,21,23,82,,,,8,6,2,2,0.7,0.6
2025-03-18T0400,2364A,114.9461,25.8481,赣州市,气象台,,,44,50,19,22,,,,,13,13,10,8,0.3,0.3
2025-03-18T0400,2365A,114.9322,25.8333,赣州市,市图书馆,,41,41,42,21,23,90,,,,12,11,3,4,0.6,0.5
2025-03-18T0400,2366A,114.8905,25.8471,赣州市,华坚鞋城,,36,36,45,20,22,80,,,,15,12,8,7,0.1,0.1
2025-03-18T0400,3109A,115.0093,25.8613,赣州市,赣县区卫计委,,40,40,45,24,26,91,,,,2,2,4,4,0.4,0.4
2025-03-18T0400,2683A,106.2319,36.1417,固原市,马园,,26,26,42,14,17,52,,,,9,20,5,5,0.7,0.7
2025-03-18T0400,2684A,106.2792,36.0022,固原市,监测站,,25,17,39,3,15,80,,,,9,16,6,7,0.3,0.5
2025-03-18T0400,2685A,106.2375,36.0211,固原市,新区,,25,21,42,8,15,80,,,,5,17,6,7,0.5,0.5
2025-03-18T0400,3522A,106.2177,35.9959,固原市,原州区十五小,,27,21,35,8,15,86,,,,7,12,5,6,0.3,0.4
2025-03-18T0400,2543A,106.6308,30.5278,广安市,小平旧居,,,,,,,,,,,,,,,,
2025-03-18T0400,2544A,106.6303,30.4576,广安市,市委,,33,,26,23,21,48,,,,10,15,6,6,0.3,0.3
2025-03-18T0400,2545A,106.6271,30.4663,广安市,友谊中学,,27,27,28,18,20,45,,,,13,17,6,5,0.4,0.4
2025-03-18T0400,2547A,106.6388,30.4551,广安市,广电花园,,22,18,22,15,19,43,,,,12,17,6,5,0.5,0.5
2025-03-18T0400,2902A,106.6351,30.4865,广安市,北辰小学,,23,18,26,16,20,45,,,,14,15,10,6,0.5,0.5
2025-03-18T0400,2523A,105.8945,32.4535,广元市,黑石坡,,50,50,56,25,22,43,,,,5,11,6,8,0.3,0.4
2025-03-18T0400,2524A,105.821,32.4444,广元市,老城,,49,49,55,23,20,3,,,,43,35,3,1,0.6,0.7
2025-03-18T0400,2526A,105.8628,32.4287,广元市,监测站,,48,48,45,23,23,24,,,,20,19,3,7,1.1,0.5
2025-03-18T0400,3617A,105.8047,32.4166,广元市,经开区,颗粒物(PM10),55,60,63,31,32,6,,,,44,38,4,9,0.5,0.6
2025-03-18T0400,1345A,113.2347,23.1423,广州市,广雅中学,细颗粒物(PM2.5),62,56,68,44,37,45,,,,34,34,5,4,0.7,0.5
2025-03-18T0400,1346A,113.2612,23.105,广州市,市五中,颗粒物(PM10),55,59,59,33,34,43,,,,29,22,4,3,0.5,0.5
2025-03-18T0400,1348A,113.3478,23.0916,广州市,广东商学院,细颗粒物(PM2.5),55,58,56,39,32,38,,,,42,26,6,4,0.5,0.4
2025-03-18T0400,1349A,113.4332,23.1047,广州市,市八十六中,细颗粒物(PM2.5),64,70,57,46,32,32,,,,43,32,6,3,0.6,0.3
2025-03-18T0400,1350A,113.3505,22.9483,广州市,番禺中学,细颗粒物(PM2.5),63,61,60,45,31,12,,,,79,33,4,4,0.6,0.5
2025-03-18T0400,1351A,113.2146,23.3916,广州市,花都师范,,44,44,59,28,32,70,,,,12,21,4,5,0.4,0.4
2025-03-18T0400,1352A,113.2597,23.1331,广州市,市监测站,,48,48,56,32,30,42,,,,36,32,7,6,0.6,0.5
2025-03-18T0400,1353A,113.5618,23.312,广州市,九龙镇镇龙,细颗粒物(PM2.5),57,57,50,40,32,44,,,,28,21,5,5,0.6,0.5
2025-03-18T0400,1354A,113.2765,23.1544,广州市,麓湖,颗粒物(PM10),51,51,53,34,31,49,,,,23,26,5,3,0.6,0.6
2025-03-18T0400,1355A,113.443,23.3035,广州市,帽峰山森林公园,细颗粒物(PM2.5),53,40,40,37,34,57,,,,21,14,8,4,0.6,0.5
2025-03-18T0400,2846A,113.3221,23.1322,广州市,体育西,颗粒物(PM10),56,62,61,39,33,39,,,,38,23,6,4,0.5,0.5
2025-03-18T0400,3298A,113.5717,23.5491,广州市,从化街口,颗粒物(PM10),51,51,55,32,33,96,,,,8,18,7,7,0.5,0.6
2025-03-18T0400,3299A,113.3472,23.3692,广州市,白云竹料,颗粒物(PM10),51,52,60,32,34,83,,,,12,21,9,7,0.6,0.6
2025-03-18T0400,3300A,113.2981,23.237,广州市,白云嘉禾,颗粒物(PM10),56,62,65,34,34,56,,,,28,36,6,4,0.3,0.3
2025-03-18T0400,3301A,113.4256,23.1716,广州市,黄埔科学城,"颗粒物(PM10),细颗粒物(PM2.5)",54,57,53,38,33,48,,,,28,22,8,7,0.6,0.5
2025-03-18T0400,3302A,113.3942,23.0483,广州市,番禺大学城,颗粒物(PM10),60,70,52,39,29,31,,,,55,32,7,4,0.4,0.3
2025-03-18T0400,3303A,113.4922,22.8168,广州市,南沙黄阁,细颗粒物(PM2.5),62,60,62,44,33,48,,,,42,33,6,8,0.6,0.6
2025-03-18T0400,3304A,113.5342,22.7896,广州市,南沙街,"颗粒物(PM10),细颗粒物(PM2.5)",58,65,57,41,32,50,,,,41,29,5,6,0.6,0.5
2025-03-18T0400,3443A,113.2902,23.5544,广州市,花都梯面,,38,37,49,26,28,78,,,,9,19,4,6,0.5,0.5
2025-03-18T0400,3445A,113.7858,23.7478,广州市,从化良口,,48,46,46,33,28,88,,,,9,11,7,7,0.4,0.4
2025-03-18T0400,3446A,113.8051,23.2614,广州市,增城荔城,细颗粒物(PM2.5),52,48,51,36,29,58,,,,14,14,8,8,0.5,0.5
2025-03-18T0400,2505A,109.568,23.1478,贵港市,德智高中,,,,,,,,,,,,,,,,
2025-03-18T0400,2506A,109.6047,23.0666,贵港市,江南子站,,38,36,59,26,32,71,,,,14,19,5,6,0.4,0.5
2025-03-18T0400,2507A,109.6014,23.0948,贵港市,贵城子站,,38,38,54,22,34,69,,,,11,15,8,8,0.5,0.5
2025-03-18T0400,2508A,109.5669,23.1065,贵港市,荷城子站,,29,29,53,19,29,65,,,,9,13,9,10,0.5,0.5
2025-03-18T0400,3405A,109.5886,23.1172,贵港市,新世纪学校,,35,29,57,24,34,67,,,,8,12,6,6,0.3,0.3
2025-03-18T0400,1439A,106.6899,26.5998,贵阳市,马鞍山,,16,6,24,3,16,49,,,,8,12,4,4,0.2,0.3
2025-03-18T0400,1441A,106.6243,26.6266,贵阳市,鉴湖路,,19,14,31,3,17,58,,,,5,10,5,6,0.3,0.4
2025-03-18T0400,1442A,106.7487,26.6343,贵阳市,燕子冲,,19,,24,12,23,58,,,,7,11,4,6,0.2,0.3
2025-03-18T0400,1443A,106.6555,26.4365,贵阳市,碧云窝,,16,9,37,3,17,50,,,,8,15,5,8,0.3,0.4
2025-03-18T0400,1445A,106.7109,26.6027,贵阳市,红边门,,20,7,29,3,22,62,,,,16,21,4,5,0.1,0.2
2025-03-18T0400,1446A,106.7164,26.5699,贵阳市,新华路,,20,12,29,7,21,62,,,,6,8,9,10,0.3,0.3
2025-03-18T0400,1447A,106.674,26.5424,贵阳市,太慈桥,,17,12,28,3,18,54,,,,10,17,6,8,0.3,0.3
2025-03-18T0400,1552A,106.805,26.3003,贵阳市,桐木岭,,23,23,44,14,28,48,,,,3,4,1,1,0.3,0.2
2025-03-18T0400,4230A,106.6882,26.5695,贵阳市,花果园大街66号,,15,,22,8,24,48,,,,10,12,5,5,0.2,0.2
2025-03-18T0400,4231A,106.6873,26.5169,贵阳市,漓江路57号,,17,7,30,3,20,52,,,,11,16,9,10,0.3,0.4
2025-03-18T0400,1862A,110.4144,25.3167,桂林市,电子科大尧山校区,,,,,,,,,,,,,,,,
2025-03-18T0400,1864A,110.3089,25.2708,桂林市,龙隐路小学,,28,27,35,16,25,88,,,,5,7,8,9,0.6,0.5
2025-03-18T0400,1865A,110.2869,25.2178,桂林市,八中,,38,26,33,26,26,86,,,,11,14,8,8,0.4,0.3
2025-03-18T0400,3531A,110.296,25.1253,桂林市,旅游学院,,29,29,26,17,19,83,,,,8,10,6,7,0.6,0.6
2025-03-18T0400,4222A,110.1835,25.2444,桂林市,环湖路276号,,39,39,37,27,27,74,,,,9,9,17,16,0.3,0.3
2025-03-18T0400,4301A,110.2803,25.2773,桂林市,信义路13号,,39,34,31,27,23,84,,,,10,11,13,11,0.3,0.2
2025-03-18T0400,2674A,100.2561,34.4714,果洛藏族自治州,玛沁县大武镇,,36,36,39,13,16,90,,,,1,1,14,12,0.4,0.4
2025-03-18T0400,1129A,126.5422,45.755,哈尔滨市,岭北,,29,22,25,20,19,50,,,,19,18,15,17,1.5,1.2
2025-03-18T0400,1130A,126.561,45.8167,哈尔滨市,松北商大,,25,23,38,17,20,59,,,,10,16,4,6,0.5,0.6
2025-03-18T0400,1131A,126.979,45.5419,哈尔滨市,阿城会宁,颗粒物(PM10),51,51,41,34,20,19,,,,43,16,9,10,0.7,0.7
2025-03-18T0400,1132A,126.599,45.7222,哈尔滨市,南岗学府路,,32,32,39,13,15,68,,,,11,18,9,9,0.4,0.5
2025-03-18T0400,1133A,126.689,45.7733,哈尔滨市,太平宏伟公园,,23,22,34,16,21,70,,,,15,21,10,7,0.4,0.5
2025-03-18T0400,1134A,126.635,45.7667,哈尔滨市,道外承德广场,,38,38,45,24,23,68,,,,8,15,12,7,0.7,0.7
2025-03-18T0400,1135A,126.685,45.7319,哈尔滨市,香坊红旗大街,,30,24,36,21,21,75,,,,8,18,8,9,0.8,0.8
2025-03-18T0400,1136A,126.6411,45.7258,哈尔滨市,动力和平路,,30,28,33,21,24,68,,,,11,16,15,12,0.5,0.5
2025-03-18T0400,1137A,126.593,45.7478,哈尔滨市,道里建国路,,25,21,28,17,19,60,,,,9,15,3,6,0.4,0.5
2025-03-18T0400,1138A,126.615,45.61,哈尔滨市,平房东轻厂,,26,23,34,18,22,37,,,,27,20,9,9,0.8,0.8
2025-03-18T0400,1139A,126.595,45.9855,哈尔滨市,呼兰师专,,22,16,30,15,18,58,,,,14,17,9,9,0.4,0.4
2025-03-18T0400,1140A,126.6206,45.6842,哈尔滨市,省农科院,,28,22,39,19,24,69,,,,11,20,10,10,0.6,0.6
2025-03-18T0400,2688A,93.5128,42.8172,哈密市,地区监测站,颗粒物(PM10),63,76,80,7,14,16,,,,60,22,5,4,0.4,0.3
2025-03-18T0400,2689A,93.4961,42.8328,哈密市,哈密师范学校,,50,50,67,20,21,42,,,,26,31,4,5,0.6,0.6
2025-03-18T0400,2671A,100.9048,36.9639,海北藏族自治州,海晏县西海镇,,45,45,46,28,24,99,,,,10,9,17,14,0.4,0.4
2025-03-18T0400,3867A,102.0738,36.5056,海东市,平安区公安北苑,,46,46,54,16,24,72,,,,14,14,19,15,0.7,0.7
2025-03-18T0400,1409A,110.576,19.9507,海口市,东寨港,,50,,35,35,20,77,,,,6,7,7,5,1.0,0.9
2025-03-18T0400,1410A,110.3232,20.0574,海口市,海南大学,颗粒物(PM10),51,52,46,32,23,86,,,,7,10,2,3,0.4,0.4
2025-03-18T0400,1411A,110.283,20.0053,海口市,秀英海南医院,,38,32,38,26,21,83,,,,8,10,4,4,0.4,0.3
2025-03-18T0400,1412A,110.338,19.9969,海口市,海南师范大学,,45,34,39,31,22,85,,,,6,7,3,3,0.5,0.4
2025-03-18T0400,1413A,110.33,20.0356,海口市,龙华路环保局宿舍,,46,32,38,32,22,86,,,,7,10,4,4,0.4,0.4
2025-03-18T0400,3539A,110.5111,19.9736,海口市,桂林洋子站,,48,48,46,29,24,89,,,,6,8,4,4,0.3,0.3
2025-03-18T0400,2673A,100.6188,36.2866,海南藏族自治州,共和县恰卜恰镇,,46,46,41,28,27,105,,,,5,8,12,8,0.4,0.5
2025-03-18T0400,2676A,97.3731,37.3753,海西蒙古族藏族自治州,德令哈市,,47,47,46,23,19,76,,,,2,5,14,13,0.5,0.5
2025-03-18T0400,1048A,114.5302,36.6116,邯郸市,东污水处理厂,,40,40,37,9,10,55,,,,27,20,1,4,0.2,0.4
2025-03-18T0400,1049A,114.4918,36.5713,邯郸市,矿院,颗粒物(PM10),55,59,48,12,6,39,,,,38,15,2,4,0.3,0.4
2025-03-18T0400,1050A,114.484,36.6133,邯郸市,丛台公园,,32,32,38,10,11,63,,,,17,16,3,4,0.3,0.4
2025-03-18T0400,3458A,114.7895,36.5593,邯郸市,香泉濮院小区,颗粒物(PM10),56,62,52,13,9,43,,,,33,19,2,4,0.2,0.4
2025-03-18T0400,3579A,114.50634,36.77178,邯郸市,永年区实验高中,颗粒物(PM10),67,83,61,18,10,7,,,,68,23,4,14,0.7,1
2025-03-18T0400,3580A,114.20016,36.44293,邯郸市,峰峰矿区临水派出所,颗粒物(PM10),60,69,46,15,10,74,,,,7,6,5,6,0.6,0.7
2025-03-18T0400,2634A,106.9893,33.1842,汉中市,汉川机床厂子校,,30,27,43,21,23,56,,,,10,7,8,10,1.2,1.1
2025-03-18T0400,2635A,107.0154,33.0706,汉中市,市监测站,细颗粒物(PM2.5),57,57,61,40,32,25,,,,28,30,5,7,0.7,0.8
2025-03-18T0400,2636A,107.0089,33.1138,汉中市,鑫源开发区,细颗粒物(PM2.5),62,61,65,44,41,15,,,,54,38,14,11,1.2,0.9
2025-03-18T0400,2637A,107.007,33.0323,汉中市,南郑大河坎水厂,,40,38,55,28,29,35,,,,12,21,7,8,0.8,0.8
2025-03-18T0400,1223A,120.2072,30.2111,杭州市,滨江,,39,39,38,24,23,19,,,,55,39,6,6,0.3,0.3
2025-03-18T0400,1224A,120.0633,30.2747,杭州市,西溪,,35,34,64,24,21,3,,,,45,29,6,6,0.3,0.4
2025-03-18T0400,1226A,120.3417,30.3150,杭州市,下沙,,47,47,45,23,23,31,,,,47,52,6,6,0.4,0.3
2025-03-18T0400,1227A,120.1269,30.2456,杭州市,卧龙桥,,29,28,25,20,16,22,,,,26,20,5,6,0.4,0.4
2025-03-18T0400,1228A,120.1903,30.2692,杭州市,浙江农大,,43,43,38,24,20,14,,,,56,38,8,9,0.3,0.3
2025-03-18T0400,1230A,120.1197,30.3119,杭州市,和睦小学,,44,44,36,30,23,3,,,,53,34,7,7,0.7,0.7
2025-03-18T0400,1231A,120.3019,30.4183,杭州市,临平镇,颗粒物(PM10),58,66,49,34,25,4,,,,84,46,6,6,0.5,0.5
2025-03-18T0400,1232A,120.2753,30.1839,杭州市,城厢镇,,44,44,44,24,22,28,,,,45,41,7,7,0.4,0.4
2025-03-18T0400,1233A,120.0883,30.1808,杭州市,云栖,,27,27,24,16,15,33,,,,23,22,7,7,0.5,0.5
2025-03-18T0400,3557A,119.9464,30.0494,杭州市,镇二中,,29,28,25,20,18,7,,,,52,35,6,6,0.3,0.3
2025-03-18T0400,3558A,119.7183,30.2367,杭州市,市府大楼,,29,26,30,20,19,41,,,,26,24,7,8,0.5,0.4
2025-03-18T0400,3656A,120.1556,30.2864,杭州市,消防大队,,43,43,38,27,24,31,,,,44,37,6,6,0.5,0.5
2025-03-18T0400,1270A,117.1959,31.7848,合肥市,明珠广场,,34,34,41,17,19,69,,,,20,34,4,4,0.4,0.5
2025-03-18T0400,1271A,117.3072,31.8764,合肥市,三里街,,41,41,42,24,20,33,,,,58,39,5,5,0.4,0.4
2025-03-18T0400,1272A,117.2588,31.8707,合肥市,琥珀山庄,,39,34,41,27,24,40,,,,37,36,2,2,0.6,0.6
2025-03-18T0400,1273A,117.1604,31.9052,合肥市,董铺水库,,46,46,34,19,11,73,,,,24,21,3,3,0.3,0.3
2025-03-18T0400,1274A,117.25,31.8571,合肥市,长江中路,,39,36,37,27,21,79,,,,25,28,8,8,0.3,0.3
2025-03-18T0400,1275A,117.266,31.9436,合肥市,庐阳区,,,46,38,27,18,62,,,,,20,4,4,0.3,0.3
2025-03-18T0400,1276A,117.3453,31.8616,合肥市,瑶海区,,48,48,41,27,17,41,,,,55,36,6,6,0.3,0.3
2025-03-18T0400,1277A,117.3027,31.7964,合肥市,包河区,,48,48,41,31,21,30,,,,60,45,1,1,0.5,0.5
2025-03-18T0400,1278A,117.2776,31.7385,合肥市,滨湖新区,,42,41,40,29,24,19,,,,69,48,8,8,0.4,0.4
2025-03-18T0400,1279A,117.1318,31.8403,合肥市,高新区,,44,44,36,23,16,90,,,,10,16,3,2,0.4,0.4
2025-03-18T0400,3464A,117.3803,31.9147,合肥市,高教基地,,50,50,44,31,20,4,,,,76,37,6,6,0.5,0.4
2025-03-18T0400,3614A,79.924,37.0877,和田地区,地区环保局,颗粒物(PM10),213,359,580,99,149,38,,,,27,19,2,2,0.2,0.4
2025-03-18T0400,3615A,79.9131,37.113,和田地区,市环保局,颗粒物(PM10),218,362,595,87,130,19,,,,52,26,1,2,1.0,0.7
2025-03-18T0400,2516A,108.2011,24.715,河池市,东仁乐园,,25,,37,15,23,80,,,,6,8,7,7,0.6,0.7
2025-03-18T0400,2517A,108.0497,24.6947,河池市,市环保站,,25,,36,14,24,77,,,,3,6,10,10,0.5,0.5
2025-03-18T0400,2518A,108.0983,24.6989,河池市,市疾控中心,,25,16,31,13,23,79,,,,1,4,6,6,0.5,0.5
2025-03-18T0400,1696A,114.6778,23.7569,河源市,源西,,40,32,46,28,27,86,,,,13,18,5,5,0.5,0.5
2025-03-18T0400,1697A,114.6944,23.7586,河源市,东埔,,43,,50,30,28,92,,,,10,16,6,5,0.5,0.6
2025-03-18T0400,1698A,114.6892,23.7233,河源市,老城,,42,36,48,29,32,90,,,,10,15,6,5,0.5,0.5
2025-03-18T0400,1718A,115.4208,35.2464,菏泽市,气象局,颗粒物(PM10),56,61,63,18,24,68,,,,17,15,7,4,0.3,0.4
2025-03-18T0400,3374A,115.5564,35.0891,菏泽市,定陶老年大学,颗粒物(PM10),58,66,59,12,20,61,,,,22,21,5,4,0.4,0.5
2025-03-18T0400,4184A,115.4797,35.24401,菏泽市,永昌路1号,颗粒物(PM10),64,78,65,20,25,62,,,,29,22,11,8,0.2,0.3
2025-03-18T0400,4193A,115.4715,35.2800,菏泽市,长城路999号,颗粒物(PM10),75,99,72,17,17,44,,,,34,24,5,5,0.4,0.4
2025-03-18T0400,2514A,111.5264,24.4172,贺州市,环保小区,,35,,46,24,28,89,,,,8,11,5,6,0.4,0.4
2025-03-18T0400,2515A,111.5608,24.4078,贺州市,政协大楼,,34,34,48,20,28,79,,,,9,12,6,6,0.2,0.3
2025-03-18T0400,3534A,111.4744,24.4553,贺州市,西湾,,32,32,46,22,30,81,,,,9,13,5,7,0.4,0.4
2025-03-18T0400,2385A,114.17,35.9019,鹤壁市,市监测站,颗粒物(PM10),100,150,55,34,14,28,,,,42,20,4,2,0.7,0.6
2025-03-18T0400,2386A,114.2956,35.7511,鹤壁市,市交警支队,颗粒物(PM10),72,94,49,12,14,66,,,,11,20,13,8,0.2,0.3
2025-03-18T0400,2387A,114.2878,35.7306,鹤壁市,迎宾馆,颗粒物(PM10),67,84,62,15,11,56,,,,11,10,3,3,0.3,0.3
2025-03-18T0400,3474A,114.2617,35.6822,鹤壁市,大新区,颗粒物(PM10),62,74,49,23,15,60,,,,20,21,8,6,0.3,0.3
2025-03-18T0400,3596A,114.1572,35.9603,鹤壁市,南山宾馆,颗粒物(PM10),72,94,51,35,24,68,,,,20,11,7,4,0.5,0.5
2025-03-18T0400,2244A,130.2537,47.3416,鹤岗市,哈啤分公司,,25,21,25,13,17,79,,,,2,4,13,14,0.2,0.3
2025-03-18T0400,2245A,130.2684,47.3086,鹤岗市,斯达机电,,27,13,26,13,15,85,,,,1,4,13,13,0.2,0.2
2025-03-18T0400,2246A,130.3114,47.3388,鹤岗市,东山纸板厂,颗粒物(PM10),84,118,48,24,21,54,,,,17,11,21,22,0.7,0.5
2025-03-18T0400,2247A,130.1097,47.3382,鹤岗市,五号水库,,,,,,,,,,,,,,,,
2025-03-18T0400,2263A,127.4833,50.2524,黑河市,交通局,,25,18,22,12,12,79,,,,4,9,6,7,0.5,0.5
2025-03-18T0400,2264A,127.5144,50.2341,黑河市,环保局,,26,,30,16,17,81,,,,4,11,4,7,0.4,0.4
2025-03-18T0400,2265A,127.5291,50.2472,黑河市,大黑河岛,,,,,,,5,,,,10,11,1,2,,
2025-03-18T0400,1074A,115.6838,37.7541,衡水市,电机北厂,,33,33,61,16,20,73,,,,13,16,6,7,0.2,0.4
2025-03-18T0400,1075A,115.6303,37.7316,衡水市,市监测站,,25,24,56,8,15,78,,,,12,17,8,7,0.2,0.4
2025-03-18T0400,3188A,115.6683,37.7217,衡水市,市城管局,,30,,56,21,21,74,,,,12,20,8,4,0.2,0.4
2025-03-18T0400,3459A,115.5989,37.5491,衡水市,地表水厂,,31,31,49,12,14,61,,,,30,26,6,8,0.2,0.4
2025-03-18T0400,2456A,112.5003,26.9167,衡阳市,原169医院,,31,31,33,21,17,53,,,,10,13,12,11,0.4,0.4
2025-03-18T0400,2457A,112.6194,26.9258,衡阳市,衡阳化工总厂,,41,41,43,27,26,86,,,,9,12,6,5,0.5,0.5
2025-03-18T0400,2458A,112.6211,26.8956,衡阳市,珠晖区环保局,,36,31,39,25,25,89,,,,6,11,8,7,0.5,0.5
2025-03-18T0400,2459A,112.6197,26.8733,衡阳市,市委党校,,39,34,41,27,24,87,,,,12,14,13,11,0.6,0.6
2025-03-18T0400,2460A,112.6006,26.8919,衡阳市,市监测站,,40,40,45,28,29,80,,,,13,14,10,8,0.6,0.6
2025-03-18T0400,2461A,112.5664,26.9056,衡阳市,真空机电公司,,40,40,41,26,24,78,,,,4,8,9,6,0.5,0.4
2025-03-18T0400,3399A,112.6703,26.882,衡阳市,师范学院,,36,36,43,23,28,88,,,,13,14,9,9,0.5,0.5
2025-03-18T0400,2608A,103.3772,23.3993,红河哈尼族彝族自治州,污水处理厂,,38,,42,26,38,52,,,,5,8,6,6,0.4,0.4
2025-03-18T0400,2609A,103.3861,23.35,红河哈尼族彝族自治州,监测站,,26,26,48,17,31,56,,,,6,12,9,9,0.5,0.5
2025-03-18T0400,3038A,103.3758,23.368,红河哈尼族彝族自治州,州图书馆,,28,,30,19,32,52,,,,6,11,5,6,0.3,0.4
2025-03-18T0400,1090A,111.6507,40.7517,呼和浩特市,呼市一监,,20,17,14,11,8,64,,,,8,4,8,8,0.3,0.5
2025-03-18T0400,1091A,111.6572,40.8033,呼和浩特市,小召,,26,7,28,6,8,82,,,,11,11,3,2,0.3,0.3
2025-03-18T0400,1094A,111.7516,40.8369,呼和浩特市,如意水处理厂,,22,17,18,8,7,69,,,,9,7,6,6,0.2,0.2
2025-03-18T0400,1095A,111.7276,40.8062,呼和浩特市,二十九中,,22,14,21,11,8,69,,,,13,5,4,3,0.7,0.6
2025-03-18T0400,1096A,111.5512,40.7866,呼和浩特市,工大金川校区,,21,19,22,7,7,35,,,,42,10,6,6,0.5,0.5
2025-03-18T0400,1097A,111.717,40.7612,呼和浩特市,化肥厂生活区,,26,26,22,12,8,58,,,,21,10,8,6,0.5,0.3
2025-03-18T0400,3698A,111.5968,40.8178,呼和浩特市,红旗小学,,24,14,18,12,8,75,,,,18,7,4,4,0.4,0.4
2025-03-18T0400,3699A,111.6518,40.8389,呼和浩特市,海东办,,21,14,18,8,9,66,,,,12,7,5,5,0.4,0.5
2025-03-18T0400,2192A,119.7594,49.2261,呼伦贝尔市,区环保局,,42,30,36,29,26,75,,,,14,20,6,6,0.4,0.4
2025-03-18T0400,3061A,119.7512,49.1577,呼伦贝尔市,国华电力东,,27,26,38,16,20,85,,,,6,9,4,4,0.5,0.5
2025-03-18T0400,1250A,120.0751,30.8669,湖州市,城西水厂,颗粒物(PM10),51,52,44,29,24,35,,,,56,62,9,9,0.2,0.3
2025-03-18T0400,2873A,120.0830,30.8929,湖州市,仁皇山新区,,42,42,36,25,22,75,,,,26,32,9,6,0.5,0.4
2025-03-18T0400,2907A,120.1844,30.8596,湖州市,吴兴区站,,41,41,39,26,23,59,,,,34,36,7,6,0.4,0.4
2025-03-18T0400,3562A,120.4148,30.8538,湖州市,南浔区站,,46,45,41,32,26,67,,,,26,21,6,5,0.3,0.4
2025-03-18T0400,1607A,120.9049,40.7211,葫芦岛市,龙港区,,26,26,42,18,26,69,,,,13,25,11,16,0.4,0.6
2025-03-18T0400,1608A,120.8392,40.7514,葫芦岛市,化工街,,29,29,44,19,19,71,,,,14,24,22,15,0.4,0.5
2025-03-18T0400,1609A,120.8341,40.7073,葫芦岛市,新区,,36,36,42,20,24,82,,,,13,27,11,12,0.4,0.5
2025-03-18T0400,1610A,120.8695,40.7677,葫芦岛市,东城区,,28,26,37,19,22,76,,,,10,25,10,13,0.4,0.5
2025-03-18T0400,2482A,109.5981,27.5721,怀化市,林科所,,30,29,30,21,19,39,,,,5,5,5,7,0.7,0.7
2025-03-18T0400,2483A,109.9453,27.5444,怀化市,河西地税局,,36,27,43,25,30,31,,,,9,14,7,7,0.4,0.4
2025-03-18T0400,2484A,109.9781,27.5342,怀化市,市四医院,,48,48,48,25,28,29,,,,17,14,4,5,0.2,0.2
2025-03-18T0400,2485A,109.9972,27.5578,怀化市,监测楼,,44,44,43,30,26,30,,,,17,12,8,8,0.4,0.3
2025-03-18T0400,2486A,110.0394,27.583,怀化市,市委党校,,28,25,37,19,24,35,,,,11,12,1,3,0.3,0.3
2025-03-18T0400,1210A,119.036,33.5981,淮安市,钵池山,,48,48,51,23,26,61,,,,23,18,8,10,0.6,0.6
2025-03-18T0400,1211A,119.007,33.575,淮安市,北京南路,,39,39,54,22,28,69,,,,15,26,8,12,0.6,0.9
2025-03-18T0400,1212A,118.989,33.6067,淮安市,市监测站,,39,39,50,17,30,77,,,,14,23,9,9,0.4,0.5
2025-03-18T0400,1213A,119.135,33.5039,淮安市,楚州区监测站,,42,42,54,23,24,67,,,,16,20,7,7,0.7,0.7
2025-03-18T0400,3426A,118.8755,33.2894,淮安市,新华书店,,44,44,48,22,28,56,,,,24,16,8,8,0.5,0.5
2025-03-18T0400,4206A,119.0288,33.6319,淮安市,承德北路606号,颗粒物(PM10),56,61,57,27,29,66,,,,22,24,8,8,0.5,0.5
2025-03-18T0400,2282A,116.8004,33.975,淮北市,监测站,颗粒物(PM10),61,71,60,36,28,55,,,,22,21,9,8,0.8,0.8
2025-03-18T0400,2283A,116.8091,33.9007,淮北市,烈山区政府,颗粒物(PM10),57,63,61,22,30,72,,,,21,28,8,7,0.7,0.7
2025-03-18T0400,3330A,116.8873,33.9836,淮北市,杜集区检察院,颗粒物(PM10),56,62,72,25,30,69,,,,20,26,7,7,0.6,0.6
2025-03-18T0400,4017A,116.7923,33.9535,淮北市,市博物馆,颗粒物(PM10),59,67,70,28,30,61,,,,21,22,10,10,0.6,0.7
2025-03-18T0400,2277A,116.8305,32.7727,淮南市,潘集区政府,"颗粒物(PM10),细颗粒物(PM2.5)",63,75,67,45,36,44,,,,38,27,5,4,0.4,0.4
2025-03-18T0400,2279A,116.8569,32.5951,淮南市,谢家集区政府,颗粒物(PM10),67,84,54,33,26,42,,,,37,14,10,6,0.4,0.4
2025-03-18T0400,2280A,116.8281,32.633,淮南市,八公山区政府,颗粒物(PM10),53,55,39,31,18,45,,,,17,8,5,2,0.3,0.2
2025-03-18T0400,2281A,116.6325,32.6201,淮南市,焦岗湖风景区管理处,,40,40,28,21,20,21,,,,29,8,4,8,0.4,0.2
2025-03-18T0400,2894A,117.0566,32.6531,淮南市,经济技术开发区消防队,颗粒物(PM10),60,70,54,38,23,32,,,,46,16,10,6,0.3,0.3
2025-03-18T0400,3329A,117.0108,32.5893,淮南市,山南新区,颗粒物(PM10),54,58,52,33,26,62,,,,20,15,9,7,0.6,0.5
2025-03-18T0400,4209A,117.0031,32.6445,淮南市,国庆中路369号,颗粒物(PM10),55,59,53,32,31,47,,,,33,25,11,6,0.6,0.5
2025-03-18T0400,2446A,114.9028,30.4742,黄冈市,职工中心,,38,36,35,26,27,69,,,,20,21,6,5,0.4,0.5
2025-03-18T0400,2929A,114.8858,30.4519,黄冈市,红卫路,,39,39,43,25,27,70,,,,18,19,5,6,0.4,0.4
2025-03-18T0400,3398A,114.9136,30.4445,黄冈市,市林业局,,43,36,40,30,30,72,,,,18,17,10,8,0.5,0.6
2025-03-18T0400,2672A,102.0199,35.5102,黄南藏族自治州,同仁县隆务镇,,49,49,52,26,27,89,,,,4,5,14,14,0.3,0.3
2025-03-18T0400,2295A,118.2903,29.6963,黄山市,延安路89号,,17,17,27,3,14,29,,,,9,7,3,4,0.2,0.1
2025-03-18T0400,2297A,118.1371,30.2756,黄山市,黄山区政府5号楼,,30,,26,21,16,23,,,,5,5,7,8,0.5,0.5
2025-03-18T0400,4210A,118.3354,29.7203,黄山市,滨江东路7-2号,,18,18,31,11,16,36,,,,5,8,4,4,0.3,0.3
2025-03-18T0400,2423A,115.0601,30.2313,黄石市,沈家营,,37,37,36,18,19,83,,,,20,15,6,7,0.7,0.6
2025-03-18T0400,2426A,114.8988,30.2019,黄石市,铁山,,33,33,45,21,27,57,,,,24,22,3,9,0.7,0.8
2025-03-18T0400,2427A,115.0307,30.2092,黄石市,团城山,,48,48,37,25,17,90,,,,19,18,9,10,0.9,0.7
2025-03-18T0400,3149A,115.0235,30.1578,黄石市,笔架山北路,,42,38,33,29,20,84,,,,20,18,9,8,0.7,0.6
2025-03-18T0400,4185A,115.0780,30.21118,黄石市,磁湖东路29号,,41,41,41,21,23,98,,,,13,15,8,7,0.8,0.7
2025-03-18T0400,1392A,114.4183,23.0528,惠州市,河南岸金山湖子站,,49,49,51,29,28,69,,,,18,18,10,9,0.6,0.6
2025-03-18T0400,1393A,114.4053,23.0822,惠州市,下埔横江三路子站,颗粒物(PM10),51,51,53,32,30,67,,,,16,17,10,9,0.5,0.5
2025-03-18T0400,1394A,114.4103,23.1142,惠州市,江北云山西路子站,颗粒物(PM10),52,53,53,29,29,65,,,,19,18,11,10,0.5,0.5
2025-03-18T0400,1395A,114.4645,22.7833,惠州市,惠阳区承修路船湖子站,颗粒物(PM10),58,65,62,36,31,40,,,,27,21,10,9,0.6,0.6
2025-03-18T0400,1396A,114.5317,22.7422,惠州市,大亚湾管委会子站,颗粒物(PM10),52,54,54,32,28,57,,,,24,26,9,8,0.6,0.5
2025-03-18T0400,3314A,114.4338,22.8134,惠州市,惠阳秋长,颗粒物(PM10),53,56,57,33,33,48,,,,26,17,8,7,0.6,0.5
2025-03-18T0400,3452A,114.6517,22.775,惠州市,大亚湾霞涌,颗粒物(PM10),51,52,51,30,31,59,,,,19,16,6,6,0.6,0.7
2025-03-18T0400,2240A,130.9762,45.3001,鸡西市,环保局,,27,27,27,16,13,60,,,,10,10,5,6,0.4,0.4
2025-03-18T0400,2243A,130.9429,45.3039,鸡西市,第一中学,,30,30,26,15,12,61,,,,8,8,6,6,0.4,0.3
2025-03-18T0400,3707A,131.0207,45.3073,鸡西市,欧美日汽修厂,,45,40,51,31,34,27,,,,29,18,10,12,0.5,0.6
2025-03-18T0400,3709A,130.9967,45.3106,鸡西市,市政设施管理处,,41,41,35,25,15,12,,,,41,20,4,5,0.4,0.3
2025-03-18T0400,2367A,114.9754,27.0803,吉安市,红声器材厂,,43,43,48,19,23,52,,,,26,17,13,12,0.5,0.6
2025-03-18T0400,2368A,114.9658,27.0999,吉安市,市森林工业局,,36,36,41,22,24,75,,,,15,15,14,13,0.3,0.2
2025-03-18T0400,2369A,114.99,27.1312,吉安市,市环境监测站,,43,43,46,28,29,61,,,,22,14,23,19,0.2,0.2
2025-03-18T0400,2370A,115.0093,27.0968,吉安市,青原区法院,,40,40,45,26,28,32,,,,51,18,12,10,0.3,0.3
2025-03-18T0400,1772A,126.54,43.8622,吉林市,哈达湾,颗粒物(PM10),58,65,96,29,65,57,,,,18,24,12,14,0.6,0.7
2025-03-18T0400,1773A,126.5844,43.8358,吉林市,东局子,细颗粒物(PM2.5),97,99,93,72,61,36,,,,32,24,10,14,1.3,0.7
2025-03-18T0400,1774A,126.5052,43.8245,吉林市,电力学院,细颗粒物(PM2.5),97,81,86,72,66,35,,,,23,24,4,9,0.6,0.5
2025-03-18T0400,1775A,126.6133,43.8972,吉林市,江北,细颗粒物(PM2.5),129,124,101,98,71,33,,,,34,32,3,6,1.2,0.7
2025-03-18T0400,1776A,126.555,43.8306,吉林市,江南公园,细颗粒物(PM2.5),54,46,78,38,63,54,,,,20,24,10,11,0.5,0.7
2025-03-18T0400,1778A,126.7061,43.7133,吉林市,丰满,细颗粒物(PM2.5),97,74,52,72,50,57,,,,24,11,8,7,0.9,0.6
2025-03-18T0400,2868A,126.4739,43.953,吉林市,九站,细颗粒物(PM2.5),65,55,90,47,72,45,,,,23,30,7,13,0.7,0.8
2025-03-18T0400,1299A,116.9862,36.6114,济南市,科干所,,22,22,44,12,13,65,,,,20,14,6,6,0.3,0.4
2025-03-18T0400,1300A,116.9376,36.665,济南市,农科所,,34,34,55,3,11,56,,,,34,23,6,7,0.6,0.7
2025-03-18T0400,1301A,117.1265,36.6734,济南市,开发区,,34,34,46,12,17,64,,,,22,17,7,7,0.4,0.4
2025-03-18T0400,1303A,117.0624,36.6868,济南市,省种子仓库,,31,31,57,12,13,58,,,,27,17,5,5,0.5,0.5
2025-03-18T0400,1304A,116.9489,36.6447,济南市,机床二厂,,34,34,58,10,14,61,,,,36,22,7,9,0.6,0.7
2025-03-18T0400,1305A,117.0495,36.663,济南市,市监测站,,29,29,52,7,13,63,,,,21,18,8,8,0.3,0.4
2025-03-18T0400,1306A,116.7675,36.5484,济南市,长清党校,,39,39,53,7,17,63,,,,29,18,4,6,0.5,0.5
2025-03-18T0400,1616A,117.6795,36.229,济南市,技术学院,,41,41,53,14,21,40,,,,50,28,13,12,0.7,0.8
2025-03-18T0400,1961A,117.532,36.6868,济南市,东山小学,,29,29,50,7,12,73,,,,21,24,9,7,0.6,0.6
2025-03-18T0400,3059A,117.7161,36.2049,济南市,泰兴公司,,46,46,56,17,21,42,,,,47,33,9,9,0.8,0.8
2025-03-18T0400,3064A,117.6867,36.2171,济南市,莱芜战役纪念馆,颗粒物(PM10),56,61,58,14,17,46,,,,47,27,9,7,0.6,0.6
2025-03-18T0400,3494A,117.1673,36.9782,济南市,济阳区政府,,37,37,58,15,13,55,,,,21,21,10,11,0.2,0.2
2025-03-18T0400,3495A,117.1171,36.63,济南市,锦屏中学,,27,27,42,7,10,70,,,,19,16,9,9,0.3,0.3
2025-03-18T0400,3682A,116.9814,36.6819,济南市,济南四建,,27,27,51,7,15,55,,,,30,18,4,5,0.2,0.3
2025-03-18T0400,1653A,116.6251,35.4302,济宁市,火炬城,,45,45,50,22,26,64,,,,21,17,9,10,0.4,0.5
2025-03-18T0400,1655A,116.5491,35.4042,济宁市,电化厂,颗粒物(PM10),57,64,73,12,28,71,,,,14,16,9,10,0.7,0.7
2025-03-18T0400,3500A,116.5814,35.3707,济宁市,北湖一中,,41,41,47,9,17,69,,,,21,20,8,10,0.4,0.4
2025-03-18T0400,3501A,116.8249,35.5593,济宁市,服务中心,,50,50,63,11,18,68,,,,29,30,6,6,0.7,0.7
2025-03-18T0400,3678A,116.5907,35.4054,济宁市,市第七中学,,41,41,58,7,18,74,,,,22,23,5,7,0.4,0.5
2025-03-18T0400,2255A,130.2751,46.8028,佳木斯市,佳纺,,48,48,43,23,18,22,,,,31,22,3,5,0.6,0.4
2025-03-18T0400,2256A,130.3995,46.8307,佳木斯市,发电厂,,24,24,23,16,15,54,,,,13,13,2,3,0.4,0.4
2025-03-18T0400,2257A,130.3258,46.7975,佳木斯市,环保局,颗粒物(PM10),52,54,36,25,15,34,,,,27,25,2,3,0.3,0.3
2025-03-18T0400,2258A,130.3648,46.8032,佳木斯市,十一中,,35,35,31,19,17,59,,,,23,21,5,5,0.5,0.5
2025-03-18T0400,2259A,130.3794,46.7588,佳木斯市,四丰,,27,27,24,13,12,52,,,,7,10,1,1,0.6,0.7
2025-03-18T0400,1252A,120.7436,30.778,嘉兴市,清河小学,颗粒物(PM10),55,60,40,35,24,28,,,,65,36,6,5,0.6,0.7
2025-03-18T0400,1253A,120.726,30.7478,嘉兴市,嘉兴学院,细颗粒物(PM2.5),60,67,46,43,26,19,,,,52,37,9,9,0.7,0.6
2025-03-18T0400,2872A,120.7846,30.7525,嘉兴市,南湖区残联,颗粒物(PM10),55,59,41,36,26,40,,,,60,33,10,10,0.5,0.5
2025-03-18T0400,3407A,120.6916,30.7739,嘉兴市,秀洲住建,颗粒物(PM10),71,92,45,51,30,9,,,,76,39,8,7,0.5,0.4
2025-03-18T0400,1945A,98.2908,39.7711,嘉峪关市,气象局,颗粒物(PM10),56,61,66,27,28,80,,,,12,22,3,12,0.3,0.4
2025-03-18T0400,2884A,98.2672,39.7978,嘉峪关市,酒钢宾馆,颗粒物(PM10),60,70,82,27,27,70,,,,12,21,3,19,0.4,0.4
2025-03-18T0400,3248A,98.2643,39.7724,嘉峪关市,雄关区,,,,64,,29,,,74,,,28,,8,,0.5
2025-03-18T0400,1383A,113.1064,22.6058,江门市,北街,细颗粒物(PM2.5),60,56,59,43,32,38,,,,48,30,5,3,0.5,0.5
2025-03-18T0400,1384A,113.0731,22.5835,江门市,西区,颗粒物(PM10),63,75,63,42,25,29,,,,52,31,7,6,0.5,0.4
2025-03-18T0400,1385A,113.0219,22.5311,江门市,圭峰西,细颗粒物(PM2.5),62,60,54,44,30,42,,,,43,28,8,5,0.4,0.3
2025-03-18T0400,1386A,113.0828,22.5947,江门市,东湖,颗粒物(PM10),61,71,56,42,32,31,,,,45,25,8,7,0.5,0.4
2025-03-18T0400,3311A,113.1075,22.5647,江门市,江海富民,颗粒物(PM10),58,65,57,27,26,35,,,,42,28,8,7,0.3,0.3
2025-03-18T0400,3449A,113.05,22.4667,江门市,新会银湖,细颗粒物(PM2.5),67,57,54,48,38,30,,,,50,42,2,2,0.5,0.4
2025-03-18T0400,1830A,113.1992,35.2590,焦作市,影视城,,,,44,,18,,,,,,19,,13,,0.7
2025-03-18T0400,3169A,113.2725,35.2067,焦作市,太极体育中心,颗粒物(PM10),71,92,62,24,20,52,,,,28,21,13,9,0.5,0.5
2025-03-18T0400,3335A,113.3137,35.2641,焦作市,马村街道办,颗粒物(PM10),68,86,55,24,17,54,,,,30,21,14,10,0.6,0.5
2025-03-18T0400,3336A,113.2465,35.2373,焦作市,焦作技师学院,颗粒物(PM10),64,77,53,17,16,62,,,,22,19,9,8,0.5,0.5
2025-03-18T0400,3477A,113.1656,35.2539,焦作市,中站许衡医院,颗粒物(PM10),61,71,46,32,23,63,,,,29,22,7,8,0.5,0.5
2025-03-18T0400,3981A,113.2449,35.1803,焦作市,原李万街道办,颗粒物(PM10),62,73,56,17,12,55,,,,26,19,5,8,0.4,0.5
2025-03-18T0400,4264A,113.2340,35.2190,焦作市,新安路1731号,颗粒物(PM10),75,99,61,20,19,59,,,,20,17,12,8,0.4,0.5
2025-03-18T0400,1708A,116.3701,23.5345,揭阳市,新兴,细颗粒物(PM2.5),84,,52,62,35,56,,,,23,21,10,8,0.7,0.7
2025-03-18T0400,1709A,116.3264,23.5443,揭阳市,西马,细颗粒物(PM2.5),97,,54,72,43,49,,,,24,18,11,9,0.7,0.6
2025-03-18T0400,1710A,116.3611,23.5626,揭阳市,东兴,细颗粒物(PM2.5),114,,67,86,45,48,,,,22,20,9,7,0.6,0.6
2025-03-18T0400,1711A,116.4151,23.5294,揭阳市,渔湖,细颗粒物(PM2.5),79,72,55,58,32,35,,,,43,16,11,9,0.7,0.6
2025-03-18T0400,3320A,116.403,23.5699,揭阳市,曲溪,细颗粒物(PM2.5),73,62,55,53,33,36,,,,41,24,13,8,0.6,0.5
2025-03-18T0400,1944A,102.1692,38.5167,金昌市,天庆家园,,19,19,42,13,24,54,,,,13,15,5,10,0.6,0.8
2025-03-18T0400,4022A,102.1647,38.5371,金昌市,金川区人防中心,,29,29,59,13,25,55,,,,9,13,8,12,0.6,0.6
2025-03-18T0400,4239A,102.1930,38.5319,金昌市,长春路96号,颗粒物(PM10),62,73,65,25,21,40,,,,20,14,8,8,1.2,0.8
2025-03-18T0400,1262A,119.647,29.077,金华市,十五中,,39,39,37,22,21,43,,,,24,27,5,5,0.4,0.4
2025-03-18T0400,1263A,119.686,29.1029,金华市,监测站,,39,39,35,24,23,30,,,,31,24,5,5,0.4,0.3
2025-03-18T0400,3659A,119.656,29.1131,金华市,气象局,颗粒物(PM10),56,62,44,33,25,12,,,,54,39,5,5,0.5,0.5
2025-03-18T0400,1767A,121.1115,41.0879,锦州市,南山,,30,21,38,21,28,78,,,,8,20,22,35,0.5,0.6
2025-03-18T0400,1768A,121.0604,40.8428,锦州市,开发区,,40,39,40,28,25,67,,,,14,18,27,20,0.7,0.6
2025-03-18T0400,1769A,121.1836,41.1119,锦州市,百股街道,,32,32,45,22,30,74,,,,9,20,8,19,0.5,0.6
2025-03-18T0400,1770A,121.1178,41.1222,锦州市,天安街道,,29,26,36,20,25,85,,,,10,21,8,20,0.4,0.6
2025-03-18T0400,1771A,121.1303,41.1386,锦州市,北湖公园,,27,27,36,17,23,77,,,,10,20,7,14,0.4,0.5
2025-03-18T0400,2160A,112.85,35.5051,晋城市,自来水公司,,43,43,38,14,8,73,,,,20,16,10,8,0.5,0.5
2025-03-18T0400,2161A,112.8318,35.4936,晋城市,白云商贸,,33,33,40,3,3,85,,,,20,18,7,7,0.4,0.5
2025-03-18T0400,2162A,112.8508,35.4887,晋城市,市环保局,,45,45,38,12,10,79,,,,17,17,8,6,0.2,0.3
2025-03-18T0400,2163A,112.8676,35.4897,晋城市,技术学院,,38,38,46,3,8,68,,,,13,12,9,8,0.4,0.5
2025-03-18T0400,2165A,112.8453,35.546,晋城市,白马寺,,,,,,,,,,,,,,,,
2025-03-18T0400,3620A,112.8271,35.4828,晋城市,泽州一中,,35,35,33,7,6,85,,,,13,12,7,9,0.4,0.4
2025-03-18T0400,2173A,112.7249,37.7067,晋中市,南都小区,,39,39,46,18,22,76,,,,10,19,6,15,0.3,0.5
2025-03-18T0400,2174A,112.6991,37.6982,晋中市,榆次区政府,,29,29,48,13,18,76,,,,15,22,6,14,0,0.2
2025-03-18T0400,2865A,112.7195,37.6828,晋中市,榆次三中,,31,31,42,9,11,74,,,,18,22,5,8,0.0,0.3
2025-03-18T0400,4200A,112.7478,37.6954,晋中市,迎宾街26号,,34,34,46,7,14,67,,,,18,21,7,10,0.1,0.4
2025-03-18T0400,2439A,112.2014,31.0481,荆门市,竹园小学,颗粒物(PM10),59,67,57,38,31,77,,,,15,16,5,5,0.4,0.3
2025-03-18T0400,2440A,112.1969,30.9891,荆门市,掇刀,颗粒物(PM10),61,71,60,41,33,86,,,,15,18,10,5,0.4,0.3
2025-03-18T0400,2441A,112.2213,31.0386,荆门市,石化一小,颗粒物(PM10),61,71,71,41,40,72,,,,19,28,12,9,0,0.3
2025-03-18T0400,3012A,112.1849,31.0362,荆门市,西山林语,颗粒物(PM10),56,61,48,36,27,77,,,,16,15,5,5,0.3,0.2
2025-03-18T0400,3547A,112.1632,31.0138,荆门市,龙泉中学南校,细颗粒物(PM2.5),64,75,58,46,33,75,,,,16,12,9,8,0.5,0.4
2025-03-18T0400,1844A,112.2494,30.3197,荆州市,市图书馆,细颗粒物(PM2.5),54,49,47,38,36,75,,,,19,26,8,5,0.4,0.4
2025-03-18T0400,1845A,112.2008,30.3544,荆州市,市委党校,细颗粒物(PM2.5),59,49,52,42,38,65,,,,22,26,10,7,0.3,0.3
2025-03-18T0400,3194A,112.2747,30.3122,荆州市,管委会,颗粒物(PM10),55,59,53,38,40,76,,,,19,23,12,11,0.3,0.3
2025-03-18T0400,4268A,112.1722,30.3366,荆州市,学苑路85号,细颗粒物(PM2.5),58,41,48,41,36,69,,,,15,17,9,6,0.5,0.5
2025-03-18T0400,2342A,117.3102,29.3867,景德镇市,王港中学,,,,,,,,,,,,,,,,
2025-03-18T0400,2343A,117.2117,29.2933,景德镇市,老干部活动中心,,40,39,29,28,23,27,,,,26,18,9,8,0.5,0.4
2025-03-18T0400,2344A,117.1894,29.2789,景德镇市,兽医站,,48,48,41,22,19,41,,,,37,24,13,10,0.7,0.5
2025-03-18T0400,2345A,117.1547,29.2617,景德镇市,台达陶瓷,颗粒物(PM10),54,57,42,29,22,26,,,,58,27,145,52,0.6,0.6
2025-03-18T0400,2346A,117.2461,29.2956,景德镇市,陶研所,,45,34,29,31,25,22,,,,25,17,7,8,0.7,0.5
2025-03-18T0400,1803A,115.9872,29.6815,九江市,十里,,42,40,36,29,21,54,,,,33,30,3,3,0.6,0.5
2025-03-18T0400,1804A,115.9584,29.7046,九江市,茅山头,颗粒物(PM10),55,59,41,18,22,24,,,,58,34,6,8,0.3,0.3
2025-03-18T0400,1805A,115.9877,29.7295,九江市,西园,,36,36,34,21,20,82,,,,26,29,7,10,0.4,0.4
2025-03-18T0400,1808A,115.9114,29.6038,九江市,综合工业园,,40,39,34,28,26,58,,,,53,47,10,9,0.6,0.5
2025-03-18T0400,1809A,116.0721,29.7535,九江市,石化总厂,细颗粒物(PM2.5),62,51,39,44,30,30,,,,76,36,12,9,0.5,0.5
2025-03-18T0400,1810A,115.9773,29.5698,九江市,庐山气象台,,42,38,31,29,26,108,,,,6,7,7,7,0.5,0.7
2025-03-18T0400,3190A,116.0254,29.6994,九江市,外国语学校,,38,37,33,26,22,76,,,,23,27,11,12,0.5,0.5
2025-03-18T0400,4253A,116.0102,29.6594,九江市,莲花大道8号,,41,41,37,27,24,77,,,,13,16,10,8,0.4,0.4
2025-03-18T0400,4240A,98.4958,39.7339,酒泉市,玉门东路5号,颗粒物(PM10),54,58,72,32,32,72,,,,4,12,6,11,0.4,0.5
2025-03-18T0400,4241A,98.5099,39.7506,酒泉市,北大街108号,,48,48,69,23,29,53,,,,11,17,8,12,0.3,0.5
2025-03-18T0400,2698A,76.0072,39.4467,喀什地区,巡警大队,颗粒物(PM10),480,580,544,134,142,50,,,,33,43,4,5,0.8,1
2025-03-18T0400,2699A,75.9755,39.4694,喀什地区,吾办,颗粒物(PM10),463,563,523,179,156,16,,,,61,41,1,3,1.2,1
2025-03-18T0400,4027A,75.9483,39.4689,喀什地区,老干局,颗粒物(PM10),500,624,573,149,136,21,,,,59,45,5,4,1.5,1.2
2025-03-18T0400,1824A,114.3389,34.7781,开封市,肿瘤医院,颗粒物(PM10),60,70,58,20,20,65,,,,16,21,6,7,0.6,0.7
2025-03-18T0400,1826A,114.2885,34.7965,开封市,世纪星幼儿园,颗粒物(PM10),55,60,51,21,18,76,,,,18,22,6,8,0.7,0.7
2025-03-18T0400,3147A,114.3438,34.8106,开封市,龙亭公园,颗粒物(PM10),52,54,56,20,18,59,,,,25,26,3,5,0.5,0.6
2025-03-18T0400,3210A,114.3644,34.7964,开封市,汴京公园,颗粒物(PM10),57,64,62,21,19,65,,,,18,21,5,6,0.6,0.6
2025-03-18T0400,3473A,114.2485,34.8306,开封市,技师学院,,,,69,,12,,,63,,,34,,7,,0.6
2025-03-18T0400,3592A,114.4644,34.7556,开封市,祥符区生态环境局,颗粒物(PM10),74,97,70,21,22,52,,,,29,32,8,7,0.5,0.6
2025-03-18T0400,1951A,84.895,45.6094,克拉玛依市,长征新村,,36,36,41,14,15,76,,,,14,20,6,7,0.3,0.3
2025-03-18T0400,1952A,84.8988,45.5893,克拉玛依市,南林小区,,41,41,41,23,18,70,,,,9,15,3,4,0.6,0.8
2025-03-18T0400,1954A,84.905,44.3396,克拉玛依市,独山子区,细颗粒物(PM2.5),75,66,62,55,35,75,,,,11,15,6,8,0.4,0.5
2025-03-18T0400,1955A,85.6979,46.098,克拉玛依市,乌尔禾区商贸楼,,41,41,41,11,16,92,,,,6,9,4,5,0.5,0.5
2025-03-18T0400,3612A,85.1045,45.6899,克拉玛依市,白碱滩区新站,,44,44,42,15,13,100,,,,2,15,8,8,0.4,0.5
2025-03-18T0400,2697A,76.1454,39.7142,克孜勒苏柯尔克孜自治州,市人民政府,颗粒物(PM10),483,583,507,159,138,65,,,,9,12,4,4,0.6,0.5
2025-03-18T0400,3665A,76.1658,39.7157,克孜勒苏柯尔克孜自治州,克州文化中心,颗粒物(PM10),500,602,537,155,136,68,,,,10,16,4,4,0.4,0.4
2025-03-18T0400,1450A,102.8204,24.8886,昆明市,呈贡新区,,18,18,21,3,17,45,,,,10,14,6,5,0.6,0.7
2025-03-18T0400,1451A,102.6251,24.9608,昆明市,西山森林公园,,,,,,,,,,,,,,,,
2025-03-18T0400,1452A,102.7252,25.0902,昆明市,龙泉镇,,21,8,22,7,14,65,,,,7,15,7,6,0.4,0.6
2025-03-18T0400,1453A,102.7266,25.0375,昆明市,东风东路,,20,8,21,3,13,62,,,,9,20,7,7,0.3,0.6
2025-03-18T0400,1454A,102.6742,25.0669,昆明市,金鼎山,,19,8,28,3,12,60,,,,8,21,5,5,0.6,0.8
2025-03-18T0400,1455A,102.6644,25.0401,昆明市,碧鸡广场,,20,9,21,9,19,62,,,,7,23,6,6,0.3,0.5
2025-03-18T0400,3179A,102.7494,25.0119,昆明市,官渡区博物馆,,23,23,26,3,14,61,,,,10,22,7,7,0.4,0.6
2025-03-18T0400,3375A,102.8017,24.8336,昆明市,青年创业园,,15,7,22,3,16,47,,,,8,12,6,6,0.4,0.5
2025-03-18T0400,3550A,102.7997,24.9786,昆明市,昆明学院,,17,9,20,3,12,54,,,,9,18,4,4,0.3,0.5
2025-03-18T0400,3551A,102.5967,24.6736,昆明市,晋宁区生态环境分局,,11,6,32,3,26,35,,,,14,15,5,6,0.5,0.6
2025-03-18T0400,3552A,102.6678,24.9856,昆明市,云天化总部,,20,9,21,3,12,62,,,,9,22,5,6,0.6,0.6
2025-03-18T0400,1456A,91.1319,29.6514,拉萨市,八廓街,,43,11,18,7,7,137,,,,5,9,6,6,0.5,0.5
2025-03-18T0400,1457A,91.1221,29.6747,拉萨市,市环保局,,39,18,23,8,8,124,,,,9,14,8,8,0.6,0.6
2025-03-18T0400,1458A,91.0874,29.6475,拉萨市,区监测站,,42,11,19,8,8,134,,,,3,10,5,6,0.2,0.2
2025-03-18T0400,1459A,91.1774,29.6541,拉萨市,西藏大学,,40,14,20,6,8,127,,,,6,11,5,6,0.4,0.4
2025-03-18T0400,1460A,90.9798,29.6588,拉萨市,区辐射站,,41,22,27,7,10,131,,,,2,15,7,7,0.4,0.5
2025-03-18T0400,1461A,91.0834,29.6292,拉萨市,拉萨火车站,,42,11,18,7,7,134,,,,2,4,3,3,0.2,0.2
2025-03-18T0400,2520A,109.2203,23.7256,来宾市,来宾技工学校,,27,27,49,17,32,70,,,,7,13,6,8,0.6,0.7
2025-03-18T0400,3535A,109.1781,23.7297,来宾市,兴宾区政府,,32,32,57,21,36,72,,,,3,10,6,8,0.5,0.6
2025-03-18T0400,4002A,109.2416,23.7461,来宾市,中南小学,,32,24,51,22,31,71,,,,5,11,9,10,0.4,0.5
2025-03-18T0400,1477A,104.1373,35.9454,兰州市,榆中兰大校区,,,,,,,,,,,,,,,,
2025-03-18T0400,1479A,103.831,36.0464,兰州市,铁路设计院,,,,51,,23,,,64,,,38,,18,,1.0
2025-03-18T0400,3241A,103.7439,36.0842,兰州市,百合公园,,40,40,51,21,26,34,,,,39,28,6,11,0.7,0.7
2025-03-18T0400,3242A,103.9611,35.998,兰州市,和平,,28,28,52,10,24,79,,,,6,19,6,14,0.2,0.5
2025-03-18T0400,4236A,103.6293,36.0938,兰州市,庄浪东路808号,,38,27,53,26,33,60,,,,16,27,7,11,0.3,0.5
2025-03-18T0400,4237A,103.7251,36.1043,兰州市,安宁西路88号,,50,50,58,31,35,47,,,,30,23,5,12,0.3,0.5
2025-03-18T0400,4238A,103.8470,36.0676,兰州市,北滨河东路1号,,47,47,45,30,31,14,,,,66,40,8,17,0.6,0.7
2025-03-18T0400,3245A,103.6633,36.533,兰州新区,新区管委会,,39,39,41,18,23,38,,,,24,15,11,21,0.5,0.5
2025-03-18T0400,3246A,103.6975,36.4789,兰州新区,舟曲中学,,42,42,47,16,19,53,,,,30,15,9,14,0.5,0.5
2025-03-18T0400,1067A,116.6708,39.5111,廊坊市,药材公司,,24,15,34,6,11,76,,,,8,14,3,3,0.3,0.3
2025-03-18T0400,1068A,116.7214,39.5589,廊坊市,开发区,,25,14,30,10,12,77,,,,12,10,1,2,0.2,0.3
2025-03-18T0400,1070A,116.7244,39.5269,廊坊市,北华航天学院,,24,10,28,9,8,76,,,,12,17,3,3,0.2,0.2
2025-03-18T0400,2919A,116.7022,39.5453,廊坊市,河北工业大学,,25,12,28,9,12,78,,,,8,13,5,5,0.2,0.2
2025-03-18T0400,2535A,103.7723,29.5462,乐山市,花湖湾,,26,26,28,17,20,30,,,,13,18,4,4,0.3,0.3
2025-03-18T0400,2536A,103.7627,29.5844,乐山市,牛耳桥,,42,35,32,29,24,16,,,,15,24,6,7,0.4,0.5
2025-03-18T0400,2537A,103.7508,29.6006,乐山市,市第三水厂,,35,33,29,24,22,22,,,,12,19,3,3,0.5,0.5
2025-03-18T0400,2538A,103.7571,29.5664,乐山市,市监测站,,28,22,27,19,22,25,,,,11,16,4,5,0.7,0.7
2025-03-18T0400,3361A,103.7311,29.5628,乐山市,理工大学,,32,25,29,22,22,20,,,,15,23,8,8,0.3,0.3
2025-03-18T0400,2598A,100.2143,26.8576,丽江市,西南郊,,,,23,,12,,,106,,,5,,21,,1.3
2025-03-18T0400,2599A,100.2497,26.8802,丽江市,丽江古城,,26,14,18,14,13,82,,,,6,12,8,8,0.7,0.7
2025-03-18T0400,2600A,100.2203,26.8906,丽江市,市中心,,27,,9,6,10,84,,,,6,11,6,7,0.5,0.5
2025-03-18T0400,1267A,119.914,28.4514,丽水市,监测站大楼,,24,24,31,16,16,51,,,,23,16,3,4,0.1,0.1
2025-03-18T0400,1268A,119.93,28.4586,丽水市,莲都小学,,22,22,32,14,18,56,,,,15,13,4,4,0.2,0.2
2025-03-18T0400,1269A,119.879,28.4231,丽水市,余庄前,,29,28,29,20,20,21,,,,19,13,4,4,0.2,0.2
2025-03-18T0400,1173A,119.176,34.5885,连云港市,市环境监测站,,41,41,54,12,22,62,,,,27,19,12,12,0.5,0.6
2025-03-18T0400,3000A,119.3581,34.6972,连云港市,德源药业,颗粒物(PM10),51,51,50,17,21,26,,,,54,24,10,11,0.4,0.4
2025-03-18T0400,3007A,119.178,34.844,连云港市,新城一中,,45,45,58,15,29,68,,,,19,28,16,12,0.6,0.7
2025-03-18T0400,3008A,119.3608,34.7519,连云港市,胡沟管理处,,29,29,37,12,18,74,,,,18,22,12,13,0.8,0.7
2025-03-18T0400,3009A,119.1478,34.5911,连云港市,矿山设计院,,46,46,57,12,23,51,,,,33,23,11,14,0.3,0.4
2025-03-18T0400,3434A,119.2413,34.6539,连云港市,工贸学校,,41,41,48,16,25,51,,,,27,20,10,12,0.4,0.5
2025-03-18T0400,3664A,119.4172,34.7341,连云港市,连云街道,,40,40,45,12,19,45,,,,37,21,8,9,0.7,0.7
2025-03-18T0400,2571A,102.3431,27.8099,凉山彝族自治州,青龙寺,,18,6,7,3,6,55,,,,4,5,5,5,0.6,0.7
2025-03-18T0400,2572A,102.2721,27.8415,凉山彝族自治州,邛海宾馆,,24,9,8,6,6,76,,,,6,10,12,12,0.4,0.5
2025-03-18T0400,2573A,102.2625,27.898,凉山彝族自治州,西昌市政府,,26,9,11,3,7,81,,,,3,8,5,6,0.3,0.5
2025-03-18T0400,2574A,102.2685,27.8851,凉山彝族自治州,凉山州政府,,26,6,9,3,7,82,,,,4,8,4,5,0.5,0.6
2025-03-18T0400,4229A,102.2342,27.8859,凉山彝族自治州,凯乐南路30号,,24,7,10,3,5,75,,,,4,9,8,7,0.2,0.4
2025-03-18T0400,2212A,123.2,41.1953,辽阳市,宏伟区,细颗粒物(PM2.5),105,,60,79,45,34,,,,34,19,11,15,0.9,0.8
2025-03-18T0400,2213A,123.1683,41.2495,辽阳市,新华园,细颗粒物(PM2.5),82,74,67,60,50,43,,,,32,29,14,19,0.7,0.9
2025-03-18T0400,2214A,123.2354,41.2639,辽阳市,滨河路,细颗粒物(PM2.5),92,78,60,68,48,38,,,,30,20,10,12,0.7,0.7
2025-03-18T0400,2215A,123.149,41.2991,辽阳市,铁西工业园,细颗粒物(PM2.5),89,81,74,66,53,29,,,,31,31,9,13,0.8,0.9
2025-03-18T0400,2227A,125.1358,42.8845,辽源市,环保局,细颗粒物(PM2.5),89,107,89,66,52,40,,,,25,17,5,4,0.9,0.8
2025-03-18T0400,3239A,125.0764,42.9078,辽源市,银鹰制药,细颗粒物(PM2.5),88,83,67,65,51,32,,,,30,21,6,7,0.9,0.8
2025-03-18T0400,1625A,115.9848,36.4372,聊城市,区政府,,35,35,61,12,19,72,,,,20,22,6,8,0.4,0.5
2025-03-18T0400,2878A,116.0072,36.4343,聊城市,聊大东校,,,,68,,32,,,59,,,23,,12,,0.6
2025-03-18T0400,3200A,115.9819,36.4978,聊城市,监控中心,,38,38,63,19,20,50,,,,33,23,11,13,0.5,0.6
2025-03-18T0400,3513A,116.0445,36.4361,聊城市,九州社区,,43,43,65,16,19,60,,,,23,14,11,11,0.6,0.5
2025-03-18T0400,4018A,116.0567,36.4608,聊城市,星美广场,,42,42,63,11,17,55,,,,25,18,20,13,0.4,0.4
2025-03-18T0400,2632A,94.3681,29.6376,林芝市,林芝监测站,,27,7,15,3,6,85,,,,3,6,4,4,0.3,0.3
2025-03-18T0400,2633A,94.3616,29.6616,林芝市,林芝人民医院,,25,11,13,3,5,80,,,,2,3,7,7,0.3,0.3
2025-03-18T0400,2603A,100.0781,23.8982,临沧市,市环保局,细颗粒物(PM2.5),65,63,71,47,48,81,,,,13,16,9,10,0.7,0.6
2025-03-18T0400,2604A,100.0894,23.8822,临沧市,市气象局,细颗粒物(PM2.5),68,60,72,49,44,74,,,,16,21,8,9,0.5,0.5
2025-03-18T0400,1733A,111.5531,36.0783,临汾市,临钢医院,,38,38,40,7,10,45,,,,23,12,3,4,0.3,0.4
2025-03-18T0400,1734A,111.5028,36.0714,临汾市,技工学校,,30,30,35,19,15,83,,,,8,15,5,9,0.3,0.4
2025-03-18T0400,1736A,111.5018,36.0855,临汾市,市委,,36,36,43,3,11,80,,,,10,14,2,5,0.3,0.4
2025-03-18T0400,3018A,111.505,36.1014,临汾市,唐尧大酒店,,41,41,49,3,10,77,,,,12,15,5,7,0.4,0.4
2025-03-18T0400,4244A,111.4879,36.0530,临汾市,启星学校,,39,39,36,9,17,86,,,,4,13,3,6,0.4,0.5
2025-03-18T0400,4271A,103.2464,35.6123,临夏回族自治州,滨河东路1号,颗粒物(PM10),54,58,72,8,14,61,,,,7,20,2,4,0.7,0.7
2025-03-18T0400,4310A,103.2093,35.5995,临夏回族自治州,新华街21号,,46,46,61,8,16,51,,,,15,20,8,12,0.7,0.7
2025-03-18T0400,1618A,118.3429,35.0532,临沂市,沂河小区,,46,46,63,17,27,71,,,,14,18,6,11,0.4,0.6
2025-03-18T0400,1619A,118.295,35.0583,临沂市,鲁南制药厂,颗粒物(PM10),54,58,62,19,27,55,,,,38,28,11,11,0.7,0.7
2025-03-18T0400,1620A,118.2794,34.9976,临沂市,新光毛纺厂,颗粒物(PM10),51,51,58,15,26,55,,,,29,28,7,12,0.5,0.6
2025-03-18T0400,1621A,118.3956,35.0888,临沂市,河东保险公司,,29,29,53,3,20,80,,,,19,26,4,7,0.2,0.3
2025-03-18T0400,3370A,118.3564,35.0215,临沂市,十里堡居委,,34,34,59,12,23,77,,,,19,26,11,13,0.4,0.6
2025-03-18T0400,3496A,118.3604,35.1084,临沂市,南坊新区,,39,39,58,19,24,72,,,,19,20,6,7,0.4,0.5
2025-03-18T0400,3860A,118.3920,35.0300,临沂市,皇山花园小区,,27,27,62,12,25,83,,,,10,24,5,9,0.1,0.3
2025-03-18T0400,1870A,109.4856,24.3895,柳州市,柳东小学,,27,27,42,17,28,66,,,,10,13,9,10,0.3,0.3
2025-03-18T0400,1871A,109.4157,24.3277,柳州市,环保监测站,,34,34,48,17,27,72,,,,8,11,10,10,0.4,0.4
2025-03-18T0400,1872A,109.389,24.341,柳州市,河西水厂,,37,37,49,24,28,59,,,,21,16,16,9,1.8,0.9
2025-03-18T0400,1873A,109.4311,24.2921,柳州市,市四中,,29,20,42,20,24,76,,,,6,11,8,9,0.4,0.4
2025-03-18T0400,1874A,109.4006,24.3631,柳州市,市九中,,29,29,48,17,28,69,,,,11,12,8,8,0.5,0.5
2025-03-18T0400,1875A,109.4958,24.3134,柳州市,古亭山,,29,29,42,18,24,68,,,,6,8,6,8,0.3,0.3
2025-03-18T0400,3402A,109.5422,24.3996,柳州市,市二中,,35,25,38,24,28,65,,,,9,13,9,10,0.2,0.3
2025-03-18T0400,2307A,116.5079,31.737,六安市,监测大楼,,41,41,33,24,17,89,,,,16,18,4,5,0.5,0.5
2025-03-18T0400,2308A,116.4738,31.7643,六安市,皖西学院,颗粒物(PM10),51,51,40,24,17,81,,,,17,16,4,4,0.3,0.3
2025-03-18T0400,2309A,116.4996,31.7905,六安市,朝阳厂,,47,47,35,23,17,99,,,,13,15,4,3,0.5,0.5
2025-03-18T0400,2310A,116.5567,31.7886,六安市,开发区,,45,45,42,29,23,96,,,,17,21,4,4,0.4,0.4
2025-03-18T0400,2576A,104.8,26.5892,六盘水市,窑上,,18,17,19,9,14,55,,,,4,8,5,5,0.4,0.5
2025-03-18T0400,2577A,104.83,26.5917,六盘水市,黄土坡,,22,14,10,12,6,70,,,,9,14,12,11,0.4,0.5
2025-03-18T0400,2578A,104.89,26.5939,六盘水市,水钢,,23,15,13,9,7,73,,,,7,15,16,10,0.4,0.5
2025-03-18T0400,2579A,104.8475,26.5894,六盘水市,民中,,18,12,11,3,5,56,,,,18,16,10,8,0.5,0.4
2025-03-18T0400,2580A,104.9544,26.5506,六盘水市,双水,,22,,6,8,6,69,,,,10,11,8,9,0.5,0.5
2025-03-18T0400,2335A,117.0189,25.1181,龙岩市,龙岩师专,,,,,,,,,,,,,,,,
2025-03-18T0400,2336A,117.0217,25.1033,龙岩市,龙岩市监测站,,28,28,42,16,25,87,,,,9,16,7,8,0.3,0.4
2025-03-18T0400,2337A,117.0258,25.0661,龙岩市,闽西职业技术学院,,29,25,44,20,26,87,,,,9,16,4,9,0.3,0.4
2025-03-18T0400,2338A,117.0196,25.0306,龙岩市,龙岩学院,,30,30,41,19,29,70,,,,8,9,3,3,0.4,0.5
2025-03-18T0400,2665A,105.0822,33.3261,陇南市,汉王镇固水子,,,,,,,,,,,,,,,,
2025-03-18T0400,2885A,104.9339,33.3826,陇南市,滨江中学,,46,44,59,32,29,48,,,,15,21,12,9,0.5,0.6
2025-03-18T0400,3247A,104.955,33.371,陇南市,市总工会,颗粒物(PM10),51,52,54,25,25,53,,,,9,13,7,8,0.6,0.6
2025-03-18T0400,2487A,111.9589,27.8901,娄底市,电视发射台,,36,36,42,20,25,34,,,,6,8,5,5,0.7,0.7
2025-03-18T0400,2488A,111.9975,27.725,娄底市,市监测站,,47,47,48,29,32,67,,,,14,15,14,10,0.7,0.6
2025-03-18T0400,2489A,112.0194,27.7314,娄底市,市委党校,细颗粒物(PM2.5),52,51,52,36,33,76,,,,13,15,4,4,0.8,0.6
2025-03-18T0400,2490A,111.9561,27.7569,娄底市,涟钢,颗粒物(PM10),54,58,52,36,31,52,,,,21,12,6,7,0.9,0.7
2025-03-18T0400,2491A,111.9892,27.7044,娄底市,市政府,,43,37,50,30,31,56,,,,8,8,8,7,0.5,0.4
2025-03-18T0400,1893A,105.4324,28.9634,泸州市,九狮山,,,,,,,,,,,,,,,,
2025-03-18T0400,1894A,105.4427,28.9063,泸州市,小市上码头,,30,30,13,16,10,43,,,,13,18,6,5,0.4,0.4
2025-03-18T0400,1895A,105.4241,28.8573,泸州市,兰田宪桥,,23,21,13,16,12,32,,,,10,17,5,5,0.4,0.4
2025-03-18T0400,1896A,105.4379,28.8833,泸州市,市环监站,,,,,,,,,,,,,,,,
2025-03-18T0400,4272A,105.3689,28.7783,泸州市,纳溪中医医院,,26,,15,18,11,36,,,,9,13,5,4,0.3,0.4
2025-03-18T0400,2183A,111.1406,37.5211,吕梁市,环保局,颗粒物(PM10),52,54,53,19,16,41,,,,21,20,3,2,0.3,0.3
2025-03-18T0400,2185A,111.1297,37.5136,吕梁市,自来水公司,颗粒物(PM10),56,61,53,21,16,41,,,,25,19,2,3,0.3,0.4
2025-03-18T0400,2867A,111.1283,37.51,吕梁市,马茂庄小学,颗粒物(PM10),65,80,61,20,15,8,,,,67,27,3,2,0.3,0.3
2025-03-18T0400,1812A,112.3931,34.6516,洛阳市,市委党校,颗粒物(PM10),54,57,42,29,17,36,,,,34,18,9,6,0.6,0.4
2025-03-18T0400,1815A,112.494,34.6886,洛阳市,河南林校,,48,48,51,21,21,40,,,,22,17,4,7,0.5,0.6
2025-03-18T0400,1816A,112.3844,34.623,洛阳市,开发区管委会,颗粒物(PM10),51,51,38,31,19,29,,,,41,17,4,5,0.4,0.4
2025-03-18T0400,1817A,112.4267,34.6258,洛阳市,市委新办公区,颗粒物(PM10),56,62,39,31,19,45,,,,31,17,4,5,0.4,0.3
2025-03-18T0400,3340A,112.6005,34.6326,洛阳市,伊滨,细颗粒物(PM2.5),57,61,44,40,26,26,,,,49,18,6,6,0.7,0.6
2025-03-18T0400,3341A,112.4951,34.6332,洛阳市,中移产业园,颗粒物(PM10),60,69,53,40,33,37,,,,40,19,7,7,0.4,0.2
2025-03-18T0400,3593A,112.5736,34.8993,洛阳市,吉利监测站,颗粒物(PM10),54,58,36,16,14,20,,,,51,21,6,6,0.4,0.4
2025-03-18T0400,3635A,112.3677,34.662,洛阳市,河科大西苑校区,颗粒物(PM10),55,60,45,30,20,44,,,,26,16,10,8,0.6,0.4
2025-03-18T0400,3636A,112.4388,34.6781,洛阳市,英才小学,,47,47,48,24,20,48,,,,33,26,8,14,0.3,0.4
2025-03-18T0400,4214A,112.4600,34.6949,洛阳市,春都路1号院,颗粒物(PM10),53,56,61,19,21,52,,,,29,25,7,11,0.4,0.5
2025-03-18T0400,2399A,114.051,33.5699,漯河市,三五一五工厂,颗粒物(PM10),63,76,50,36,22,61,,,,19,14,5,5,0.5,0.5
2025-03-18T0400,2400A,114.0055,33.5698,漯河市,漯河大学,颗粒物(PM10),62,73,52,31,20,63,,,,22,20,5,6,0.4,0.3
2025-03-18T0400,2401A,114.0138,33.5828,漯河市,市水利局,颗粒物(PM10),62,73,46,31,21,63,,,,16,13,4,4,0.6,0.5
2025-03-18T0400,2402A,114.0261,33.5698,漯河市,市广电局,颗粒物(PM10),66,81,46,26,20,60,,,,17,14,5,5,0.4,0.3
2025-03-18T0400,3478A,113.9749,33.5664,漯河市,市图书馆,颗粒物(PM10),63,75,47,32,22,60,,,,26,20,5,5,0.5,0.4
2025-03-18T0400,4250A,114.0892,33.5882,漯河市,韶山路11号,颗粒物(PM10),61,71,48,38,21,53,,,,28,18,5,5,0.5,0.4
2025-03-18T0400,1798A,118.5092,31.6837,马鞍山市,湖东路四小,,38,36,36,26,20,67,,,,21,20,8,7,0.5,0.4
2025-03-18T0400,1799A,118.5024,31.6449,马鞍山市,开发区,,42,38,44,29,23,64,,,,29,38,4,4,0.5,0.5
2025-03-18T0400,1802A,118.6245,31.7241,马鞍山市,濮塘,,41,41,39,22,24,79,,,,15,18,13,10,0.7,0.6
2025-03-18T0400,3633A,118.4918,31.6809,马鞍山市,雨山,,40,40,40,28,23,61,,,,24,22,7,8,0.6,0.6
2025-03-18T0400,4191A,118.5274,31.72227,马鞍山市,慈湖高新区,颗粒物(PM10),53,56,47,32,27,53,,,,38,37,12,13,0.7,0.9
2025-03-18T0400,1686A,111.0286,21.4688,茂名市,电白南海,颗粒物(PM10),51,51,56,31,31,80,,,,6,9,5,6,0.7,0.7
2025-03-18T0400,1687A,110.9294,21.6533,茂名市,茂石化七小,,39,39,49,19,26,92,,,,3,8,2,13,0.5,0.5
2025-03-18T0400,1688A,110.9107,21.6687,茂名市,健康路,,36,36,44,14,25,86,,,,8,13,6,12,0.4,0.4
2025-03-18T0400,1689A,110.8592,21.6828,茂名市,高岭,,44,44,58,14,26,76,,,,6,11,5,10,0.4,0.4
2025-03-18T0400,3450A,111.01,21.5165,茂名市,电白水东,,39,39,50,22,25,74,,,,8,12,4,7,0.8,0.8
2025-03-18T0400,2539A,104.0308,30.0478,眉山市,黑龙滩水库,,35,35,38,24,23,36,,,,1,4,3,3,0.5,0.5
2025-03-18T0400,2540A,103.8416,30.0874,眉山市,气象局,,39,35,38,27,27,35,,,,12,20,5,7,0.4,0.4
2025-03-18T0400,3137A,103.8578,30.0744,眉山市,市委党校,,22,22,28,12,22,35,,,,14,23,6,7,0.6,0.6
2025-03-18T0400,3148A,103.8291,30.0564,眉山市,区人社局,,32,27,39,22,24,29,,,,19,27,5,8,0.4,0.4
2025-03-18T0400,1690A,116.1231,24.3284,梅州市,梅江月梅,,33,31,45,23,29,56,,,,15,20,10,11,0.5,0.5
2025-03-18T0400,1691A,116.0797,24.2719,梅州市,梅县新城,,32,22,47,22,28,62,,,,13,23,5,6,0.5,0.6
2025-03-18T0400,1692A,116.1248,24.2654,梅州市,环境监控中心,,42,29,43,29,27,43,,,,27,25,6,9,0.5,0.5
2025-03-18T0400,3315A,116.1233,24.2991,梅州市,梅龙,,30,29,46,21,28,57,,,,17,20,6,7,0.8,0.9
2025-03-18T0400,1878A,104.7778,31.4741,绵阳市,富乐山,细颗粒物(PM2.5),52,48,51,36,31,21,,,,16,27,2,2,0.5,0.5
2025-03-18T0400,1880A,104.6697,31.4668,绵阳市,高新区自来水公司,颗粒物(PM10),53,55,63,31,33,21,,,,17,31,2,4,0.4,0.4
2025-03-18T0400,1881A,104.7287,31.5075,绵阳市,三水厂,细颗粒物(PM2.5),59,49,61,42,36,25,,,,17,32,5,6,0.5,0.6
2025-03-18T0400,3491A,104.69,31.5322,绵阳市,西科大附属小学,颗粒物(PM10),55,60,64,32,33,14,,,,31,33,6,7,0.7,0.6
2025-03-18T0400,3492A,104.5648,31.5343,绵阳市,安州区旅游局,"颗粒物(PM10),细颗粒物(PM2.5)",52,53,52,36,34,11,,,,37,25,6,9,0.4,0.4
2025-03-18T0400,4226A,104.7651,31.4531,绵阳市,绵阳市气象局,细颗粒物(PM2.5),55,44,58,39,32,21,,,,16,29,5,6,0.5,0.5
2025-03-18T0400,1784A,129.61,44.561,牡丹江市,环保大楼,细颗粒物(PM2.5),73,85,38,53,28,38,,,,23,18,7,6,0.5,0.3
2025-03-18T0400,1785A,129.6115,44.5782,牡丹江市,文化广场,细颗粒物(PM2.5),64,76,34,46,27,43,,,,20,16,11,10,0.4,0.3
2025-03-18T0400,1786A,129.5904,44.5963,牡丹江市,第一医院,,31,31,31,10,21,58,,,,10,14,8,9,0.1,0.2
2025-03-18T0400,1787A,129.6364,44.6075,牡丹江市,机车工厂,二氧化硫,75,24,46,10,22,58,,,,8,13,322,50,0.4,0.4
2025-03-18T0400,1788A,129.6386,44.5462,牡丹江市,第一中学,,36,,25,25,22,56,,,,8,10,8,8,0.3,0.3
2025-03-18T0400,2531A,105.0703,29.61,内江市,市监测站,,29,24,22,20,18,38,,,,14,19,4,5,1.0,0.9
2025-03-18T0400,2532A,105.0717,29.5947,内江市,东兴区政府,,24,24,23,11,11,38,,,,12,18,4,5,0.5,0.4
2025-03-18T0400,2533A,105.0653,29.5817,内江市,内江二中,,35,25,26,24,16,37,,,,14,17,6,6,0.8,0.6
2025-03-18T0400,2534A,105.0406,29.5822,内江市,内江日报社,,,21,27,20,15,39,,,,10,17,6,6,,0.4
2025-03-18T0400,2628A,92.0657,31.4846,那曲市,那曲监测站,,30,16,36,7,22,95,,,,4,12,6,9,0.7,0.9
2025-03-18T0400,3128A,92.0506,31.4797,那曲市,那曲会议中心,,,,,,,,,,,,,,,,
2025-03-18T0400,1290A,115.8931,28.6843,南昌市,省外办,细颗粒物(PM2.5),58,57,39,41,30,12,,,,78,28,5,6,0.7,0.5
2025-03-18T0400,1291A,115.8886,28.7003,南昌市,省林业公司,,46,46,36,29,26,20,,,,56,28,6,7,0.6,0.5
2025-03-18T0400,1292A,115.8126,28.7442,南昌市,林科所,,46,46,35,24,20,37,,,,65,36,5,4,0.6,0.5
2025-03-18T0400,1294A,115.8518,28.687,南昌市,建工学校,细颗粒物(PM2.5),67,,42,48,34,43,,,,46,30,10,10,0.4,0.3
2025-03-18T0400,1295A,115.8921,28.6424,南昌市,象湖,细颗粒物(PM2.5),52,48,35,36,24,7,,,,71,21,6,6,0.5,0.4
2025-03-18T0400,1296A,115.7423,28.7996,南昌市,武术学校,,32,,21,22,16,23,,,,4,7,3,2,0.4,0.3
2025-03-18T0400,3046A,115.9084,28.6062,南昌市,机电学校,颗粒物(PM10),55,60,44,36,24,32,,,,37,22,3,4,0.5,0.5
2025-03-18T0400,3690A,115.9721,28.7031,南昌市,外国语学校,颗粒物(PM10),56,62,37,32,24,22,,,,49,16,2,3,0.4,0.2
2025-03-18T0400,4192A,115.9316,28.68677,南昌市,南京东路235号,颗粒物(PM10),66,81,41,40,25,11,,,,71,29,4,4,0.6,0.3
2025-03-18T0400,1905A,106.056,30.8064,南充市,西山风景区,,23,,28,16,20,36,,,,5,6,2,4,0.5,0.4
2025-03-18T0400,1906A,106.0789,30.8023,南充市,南充市委,,35,32,40,24,26,44,,,,10,14,3,5,0.5,0.5
2025-03-18T0400,1907A,106.1031,30.8217,南充市,南充炼油厂,,40,29,42,28,27,44,,,,10,14,4,5,0.3,0.3
2025-03-18T0400,1909A,106.0642,30.7636,南充市,嘉陵区环保局,,32,28,39,22,22,42,,,,6,9,2,4,0.3,0.4
2025-03-18T0400,1910A,106.1087,30.8388,南充市,市环境监测站,,48,,46,33,28,44,,,,11,18,6,7,0.2,0.2
2025-03-18T0400,4227A,106.1083,30.7884,南充市,梨树横街98号,,39,35,42,27,18,44,,,,10,13,4,5,0.3,0.3
2025-03-18T0400,1151A,118.8086,32.1065,南京市,迈皋桥,,41,41,28,24,18,67,,,,22,19,4,4,0.2,0.2
2025-03-18T0400,1152A,118.7538,32.0551,南京市,草场门,,48,48,37,24,17,52,,,,28,21,6,5,0.6,0.5
2025-03-18T0400,1153A,118.7794,32.0745,南京市,山西路,颗粒物(PM10),51,51,38,22,15,58,,,,26,20,4,4,0.5,0.5
2025-03-18T0400,1154A,118.7752,32.0023,南京市,中华门,,44,44,35,27,19,51,,,,36,38,8,6,0.4,0.4
2025-03-18T0400,1155A,118.8109,32.0309,南京市,瑞金路,,46,46,37,24,18,55,,,,27,29,6,6,0.9,0.9
2025-03-18T0400,1156A,118.7997,32.0754,南京市,玄武湖,,50,50,42,24,14,45,,,,23,15,4,4,0.5,0.5
2025-03-18T0400,1157A,118.6414,32.0931,南京市,浦口,颗粒物(PM10),51,51,38,22,16,70,,,,18,14,7,6,0.5,0.5
2025-03-18T0400,1158A,118.7356,31.9996,南京市,奥体中心,,46,46,39,24,20,51,,,,38,36,9,8,0.3,0.3
2025-03-18T0400,1159A,118.9125,32.1028,南京市,仙林大学城,,48,48,40,22,17,56,,,,23,31,9,8,0.6,0.6
2025-03-18T0400,3422A,118.8436,31.9198,南京市,江宁彩虹桥,,49,47,45,34,24,43,,,,40,25,9,8,0.5,0.6
2025-03-18T0400,3423A,119.0138,31.6494,南京市,溧水永阳,,50,39,34,35,28,61,,,,24,23,8,9,0.7,0.6
2025-03-18T0400,3427A,118.8554,32.3578,南京市,六合雄州,,38,38,37,17,14,64,,,,12,13,5,5,0.2,0.2
2025-03-18T0400,4249A,118.8708,31.3402,南京市,汶溪路181号,,46,,36,32,25,60,,,,25,19,2,4,0.3,0.2
2025-03-18T0400,1401A,108.3103,22.7881,南宁市,二十一中,细颗粒物(PM2.5),53,45,53,37,35,83,,,,15,16,8,7,0.3,0.4
2025-03-18T0400,1402A,108.3141,22.8528,南宁市,北湖,细颗粒物(PM2.5),58,56,55,41,34,61,,,,23,17,14,8,0.5,0.5
2025-03-18T0400,1403A,108.3206,22.8225,南宁市,市监测站,细颗粒物(PM2.5),53,54,55,37,31,76,,,,14,19,7,8,0.5,0.5
2025-03-18T0400,1404A,108.3829,22.8037,南宁市,大自然花园,,49,45,59,34,35,79,,,,9,13,5,7,0.6,0.6
2025-03-18T0400,1405A,108.4394,22.7904,南宁市,仙葫,,40,40,56,26,34,76,,,,8,14,8,11,0.4,0.5
2025-03-18T0400,1406A,108.2397,22.8467,南宁市,区农职院,,50,46,55,35,31,74,,,,8,14,10,11,0.5,0.6
2025-03-18T0400,1407A,108.3275,22.735,南宁市,英华嘉园,,47,47,54,30,29,87,,,,10,13,7,9,0.4,0.5
2025-03-18T0400,3401A,108.4834,22.7618,南宁市,红星社区,,48,48,55,32,32,71,,,,11,11,8,11,0.5,0.5
2025-03-18T0400,4221A,108.2177,22.7774,南宁市,乐贤路16号,颗粒物(PM10),52,54,57,35,29,66,,,,13,18,11,10,0.7,0.7
2025-03-18T0400,2331A,118.0966,26.6761,南平市,茫荡山,,,,,,,,,,,,,,,,
2025-03-18T0400,2332A,118.1681,26.6369,南平市,南平市监测站,,28,26,35,19,23,39,,,,18,17,4,4,0.6,0.6
2025-03-18T0400,2333A,118.1825,26.6489,南平市,南平铝业有限公司,,33,29,36,23,18,36,,,,22,17,6,5,0.7,0.6
2025-03-18T0400,2334A,118.1756,26.6272,南平市,南平七中,,29,27,38,20,22,26,,,,21,19,4,4,0.4,0.4
2025-03-18T0400,1168A,120.9098,31.9663,南通市,狼山街道,,42,42,50,15,31,81,,,,12,41,6,9,0.2,0.5
2025-03-18T0400,1169A,120.86,32.0005,南通市,虹桥,,36,36,50,15,29,80,,,,12,44,5,8,0.2,0.4
2025-03-18T0400,1170A,120.87,32.02,南通市,城中,,40,40,58,12,26,76,,,,17,41,8,10,0.4,0.6
2025-03-18T0400,1171A,120.94,31.93,南通市,星湖花园,,39,39,48,16,28,79,,,,14,42,6,9,0.3,0.6
2025-03-18T0400,1172A,120.81,32.0417,南通市,紫琅学院,,30,30,51,11,25,72,,,,16,32,4,6,0.6,0.8
2025-03-18T0400,3291A,121.067,32.062,南通市,通州监测站,,46,46,56,19,29,82,,,,12,35,4,5,0.5,0.6
2025-03-18T0400,3432A,120.9348,31.9883,南通市,环境教育馆,,34,34,53,17,30,86,,,,8,34,6,9,0.4,0.7
2025-03-18T0400,2404A,112.5224,33.0122,南阳市,瓦房庄,颗粒物(PM10),52,54,53,27,25,39,,,,30,24,4,4,0.6,0.6
2025-03-18T0400,2405A,112.5003,32.9735,南阳市,汉画馆,,38,38,46,22,22,41,,,,23,26,4,4,0.4,0.4
2025-03-18T0400,2406A,112.5573,33.027,南阳市,气象站,颗粒物(PM10),58,66,59,27,22,33,,,,32,24,4,4,0.5,0.5
2025-03-18T0400,2407A,112.5481,32.9689,南阳市,理工学院,颗粒物(PM10),53,55,54,23,24,31,,,,43,32,3,3,0.3,0.4
2025-03-18T0400,4008A,112.5234,32.9922,南阳市,卧龙区政府,,46,46,50,25,23,44,,,,28,25,6,6,0.4,0.4
2025-03-18T0400,1234A,121.8358,29.911,宁波市,区环保大楼,细颗粒物(PM2.5),59,54,53,42,32,76,,,,31,32,8,8,0.5,0.5
2025-03-18T0400,1235A,121.56,29.82,宁波市,万里学院,颗粒物(PM10),53,56,46,36,31,70,,,,23,24,7,10,0.4,0.3
2025-03-18T0400,1236A,121.713,29.9572,宁波市,龙赛医院,颗粒物(PM10),56,62,57,36,34,78,,,,30,30,6,7,0.5,0.5
2025-03-18T0400,1239A,121.633,29.7733,宁波市,钱湖水厂,细颗粒物(PM2.5),58,55,45,41,32,86,,,,17,21,6,7,0.6,0.5
2025-03-18T0400,1240A,121.5856,29.8635,宁波市,太古小学,颗粒物(PM10),54,58,49,34,29,78,,,,23,24,8,8,0.4,0.4
2025-03-18T0400,1241A,121.524,29.8674,宁波市,市环境监测中心,,46,46,48,30,27,52,,,,31,26,7,9,0.5,0.5
2025-03-18T0400,2871A,121.6147,29.9017,宁波市,万里国际学校,,49,49,42,33,27,78,,,,21,24,7,8,0.5,0.5
2025-03-18T0400,3710A,121.5594,29.8975,宁波市,白沙活动中心,细颗粒物(PM2.5),52,47,41,36,30,68,,,,28,24,7,7,0.7,0.6
2025-03-18T0400,2339A,119.5001,26.6946,宁德市,金涵水库,,,,,,,,,,,,,,,,
2025-03-18T0400,2341A,119.5388,26.6612,宁德市,宁德市监测站,,49,34,37,34,33,62,,,,11,14,4,5,0.6,0.5
2025-03-18T0400,3209A,119.5231,26.6562,宁德市,宁德一中,,43,33,40,30,32,54,,,,8,12,5,5,0.5,0.4
2025-03-18T0400,2618A,98.8601,25.8567,怒江傈僳族自治州,州监测站,,26,12,25,10,15,82,,,,3,4,5,5,0.3,0.4
2025-03-18T0400,2619A,98.8546,25.8417,怒江傈僳族自治州,泸水一中,,23,9,26,6,17,71,,,,5,11,6,6,0.3,0.4
2025-03-18T0400,1888A,101.6891,26.571,攀枝花市,弄弄坪,,22,22,35,6,14,60,,,,10,16,10,10,0.5,0.7
2025-03-18T0400,1889A,101.5769,26.5928,攀枝花市,河门口,,18,18,42,9,22,57,,,,16,22,14,20,1.4,1.4
2025-03-18T0400,1890A,101.7169,26.585,攀枝花市,炳草岗,,20,,32,8,14,63,,,,9,18,11,11,0.4,0.6
2025-03-18T0400,1891A,101.7369,26.5008,攀枝花市,仁和,,18,8,36,3,22,57,,,,8,19,7,12,0.5,0.8
2025-03-18T0400,2835A,101.7227,26.567,攀枝花市,四十中小,,30,30,32,10,13,62,,,,8,12,10,10,0.6,0.7
2025-03-18T0400,1604A,122.0303,41.1489,盘锦市,开发区,,46,32,47,32,33,76,,,,9,18,15,16,0.6,0.7
2025-03-18T0400,1605A,122.0485,41.0883,盘锦市,兴隆台,,40,37,56,28,39,76,,,,13,26,12,14,0.8,1
2025-03-18T0400,1606A,121.8297,41.1028,盘锦市,新生街道,,35,33,41,24,30,31,,,,57,38,5,10,0.7,0.9
2025-03-18T0400,1832A,113.3257,33.742,平顶山市,新华旅馆,颗粒物(PM10),61,72,57,30,24,73,,,,19,18,4,5,0.2,0.3
2025-03-18T0400,1833A,113.2919,33.737,平顶山市,规划设计院,颗粒物(PM10),52,53,45,16,19,82,,,,12,20,6,6,0.4,0.4
2025-03-18T0400,1834A,113.182,33.774,平顶山市,平顶山工学院,颗粒物(PM10),55,60,38,22,15,75,,,,19,16,4,5,0.5,0.5
2025-03-18T0400,3204A,113.3025,33.73,平顶山市,规划局,颗粒物(PM10),64,78,51,33,27,82,,,,24,28,5,5,0.6,0.5
2025-03-18T0400,3594A,112.8867,33.9116,平顶山市,石龙区,颗粒物(PM10),84,118,58,32,17,28,,,,70,31,10,6,0.4,0.4
2025-03-18T0400,2656A,106.6692,35.5461,平凉市,聚贤嘉苑,,29,29,42,12,17,47,,,,31,23,10,11,0.1,0.1
2025-03-18T0400,2657A,106.7021,35.5307,平凉市,博物馆,,34,34,44,18,22,55,,,,21,21,13,15,0.6,0.5
2025-03-18T0400,2347A,114.0997,27.5002,萍乡市,武功山,,27,27,45,18,28,60,,,,11,11,3,5,0.7,0.7
2025-03-18T0400,2348A,113.8385,27.6434,萍乡市,中医院,,49,42,54,34,30,70,,,,20,13,16,10,1.0,0.5
2025-03-18T0400,2349A,113.8493,27.6253,萍乡市,市政府车库,,48,42,51,33,33,68,,,,21,16,12,8,0.5,0.5
2025-03-18T0400,2350A,113.8676,27.6435,萍乡市,市环保局,颗粒物(PM10),52,54,52,32,30,71,,,,23,16,11,7,0.7,0.4
2025-03-18T0400,2351A,113.866,27.6198,萍乡市,安源区政府,,46,46,52,22,29,70,,,,13,10,11,7,0.6,0.7
2025-03-18T0400,2319A,119.0141,25.4325,莆田市,荔城区仓后路,"颗粒物(PM10),细颗粒物(PM2.5)",52,53,50,36,32,55,,,,22,17,3,2,0.6,0.6
2025-03-18T0400,2320A,119.0015,25.4553,莆田市,莆田市监测站,,39,36,46,27,32,70,,,,7,11,3,3,0.4,0.5
2025-03-18T0400,2321A,119.1119,25.4561,莆田市,涵江区六中,,49,39,47,34,32,50,,,,31,18,2,3,0.5,0.5
2025-03-18T0400,2322A,119.1013,25.3215,莆田市,秀屿区政府,,50,43,39,35,33,80,,,,20,16,4,4,0.5,0.5
2025-03-18T0400,2323A,118.981,25.4792,莆田市,东圳水库,,,,,,,,,,,,,,,,
2025-03-18T0400,2392A,115.0312,35.7636,濮阳市,环保局,,42,42,45,9,14,71,,,,20,25,3,4,0.5,0.6
2025-03-18T0400,2394A,115.0574,35.7609,濮阳市,油田运输公司,,44,44,63,3,11,70,,,,17,21,3,4,0.5,0.6
2025-03-18T0400,3021A,115,35.7668,濮阳市,濮水河管理处,,37,37,60,9,15,71,,,,16,25,4,5,0.5,0.6
2025-03-18T0400,4216A,115.0924,35.7686,濮阳市,任丘路479号,颗粒物(PM10),53,55,58,6,13,70,,,,17,23,4,5,0.3,0.4
2025-03-18T0400,2601A,100.98,22.7633,普洱市,市环保局,,44,44,91,23,40,42,,,,7,10,4,5,0.7,0.8
2025-03-18T0400,2602A,100.9817,22.8322,普洱市,普洱第二中学,细颗粒物(PM2.5),55,48,98,39,53,18,,,,26,19,6,8,0.7,0.8
2025-03-18T0400,2262A,131.0518,45.8751,七台河市,新一中,,28,19,17,19,11,44,,,,7,8,10,11,1.2,1
2025-03-18T0400,3345A,131.0577,45.7879,七台河市,中波台,,42,42,34,26,18,33,,,,38,22,8,7,0.7,0.6
2025-03-18T0400,3637A,131.0176,45.7761,七台河市,人民广场,颗粒物(PM10),51,51,42,31,25,48,,,,25,18,7,6,1.1,0.9
2025-03-18T0400,3684A,130.8781,45.8222,七台河市,新建矿广场,,43,34,44,30,26,25,,,,26,17,6,9,0.4,0.5
2025-03-18T0400,1779A,123.9305,47.3636,齐齐哈尔市,安居小区,,21,12,31,10,21,67,,,,10,18,4,6,0.2,0.3
2025-03-18T0400,1780A,123.9488,47.3386,齐齐哈尔市,中心广场,,25,25,36,15,19,70,,,,7,16,4,5,0.4,0.5
2025-03-18T0400,1781A,123.9483,47.3227,齐齐哈尔市,农牧车辆厂,,24,22,33,9,17,75,,,,6,18,4,6,0.3,0.4
2025-03-18T0400,1783A,123.945,47.2988,齐齐哈尔市,市环境监测站,,25,19,33,17,19,67,,,,6,16,3,4,0.4,0.5
2025-03-18T0400,3662A,123.6333,47.2075,齐齐哈尔市,富区青少年活动中心,,32,30,41,22,24,64,,,,12,13,15,9,0.4,0.5
2025-03-18T0400,2591A,107.9783,26.5747,黔东南苗族侗族自治州,市环境监测站,,19,16,30,13,23,59,,,,4,9,3,4,0.3,0.3
2025-03-18T0400,2881A,107.8908,26.5311,黔东南苗族侗族自治州,凯里学院,,22,,21,15,20,46,,,,5,7,2,2,0.5,0.5
2025-03-18T0400,2593A,107.5228,26.2403,黔南布依族苗族自治州,小围寨,,13,,20,9,18,31,,,,7,7,4,4,0.5,0.5
2025-03-18T0400,3538A,107.5175,26.2978,黔南布依族苗族自治州,沙坝,,18,,27,12,20,33,,,,9,9,4,5,0.5,0.5
2025-03-18T0400,2589A,104.9022,25.0925,黔西南布依族苗族自治州,场坝街,,17,17,23,3,12,50,,,,7,11,6,4,0.2,0.3
2025-03-18T0400,2590A,104.8811,25.0992,黔西南布依族苗族自治州,坪东大道,,20,20,19,7,13,32,,,,17,13,5,2,0.3,0.3
2025-03-18T0400,2502A,108.6236,21.9667,钦州市,市环保站,颗粒物(PM10),56,61,73,36,34,69,,,,18,19,10,8,0.5,0.6
2025-03-18T0400,2503A,108.6549,21.9481,钦州市,沙埠小学,颗粒物(PM10),56,61,68,35,28,68,,,,18,19,7,8,0.5,0.6
2025-03-18T0400,2504A,108.5989,21.7431,钦州市,港区一小,颗粒物(PM10),57,64,73,38,31,68,,,,20,26,12,10,0.7,0.7
2025-03-18T0400,3404A,108.5959,21.9633,钦州市,北职校,颗粒物(PM10),57,63,64,38,39,72,,,,12,15,9,8,0.7,0.6
2025-03-18T0400,1043A,119.7493,40.0116,秦皇岛市,第一关,,26,20,41,17,19,81,,,,8,19,3,5,0.3,0.3
2025-03-18T0400,1044A,119.5897,39.9499,秦皇岛市,监测站,,30,30,40,11,17,80,,,,2,6,3,4,0.3,0.3
2025-03-18T0400,1046A,119.5251,39.9041,秦皇岛市,建设大厦,,28,20,46,19,20,79,,,,8,15,15,7,0.3,0.3
2025-03-18T0400,3132A,119.610547,39.943889,秦皇岛市,文明里,,25,17,37,11,14,78,,,,1,9,4,4,0.2,0.3
2025-03-18T0400,4198A,119.5090,39.8253,秦皇岛市,北戴河轮滑馆,,23,,36,10,17,72,,,,6,10,4,7,0.2,0.4
2025-03-18T0400,1307A,120.6659,36.2403,青岛市,仰口,,35,35,38,14,18,92,,,,2,7,4,5,0.1,0.2
2025-03-18T0400,1310A,120.4134,36.0658,青岛市,市南区东部子站,颗粒物(PM10),51,51,55,17,21,86,,,,4,15,9,10,0.5,0.6
2025-03-18T0400,1311A,120.3664,36.1032,青岛市,四方区子站,,39,39,48,12,20,90,,,,8,22,3,5,0.5,0.6
2025-03-18T0400,1312A,120.2994,36.054,青岛市,市南区西部子站,,41,41,52,3,14,82,,,,9,22,6,8,0.5,0.6
2025-03-18T0400,1313A,120.4581,36.0858,青岛市,崂山区子站,,39,39,45,9,16,95,,,,3,15,9,11,0.5,0.6
2025-03-18T0400,1315A,120.3999,36.3083,青岛市,城阳区子站,,31,31,48,10,18,88,,,,7,23,7,9,0.5,0.6
2025-03-18T0400,1966A,120.0405,35.8735,青岛市,黄岛区4号,,46,46,47,22,16,78,,,,19,21,8,9,0.6,0.6
2025-03-18T0400,3362A,120.5014,36.4034,青岛市,即墨2号,,34,34,51,13,21,84,,,,5,19,7,9,0.5,0.7
2025-03-18T0400,3642A,120.3503,36.0736,青岛市,市北区南部,,38,38,50,9,18,72,,,,6,17,6,9,0.5,0.6
2025-03-18T0400,3643A,120.3948,36.1805,青岛市,李沧区北部,,39,39,53,14,22,88,,,,5,22,7,9,0.5,0.6
2025-03-18T0400,4290A,120.1969,35.9546,青岛市,珠江路669号,,44,44,56,20,23,78,,,,18,26,8,9,0.5,0.7
2025-03-18T0400,1702A,113.0426,23.691,清远市,环保大楼,,33,31,39,23,28,90,,,,4,15,8,12,0.6,0.6
2025-03-18T0400,1703A,113.0208,23.7106,清远市,凤城街办,,35,35,49,22,26,75,,,,9,18,6,10,0.4,0.5
2025-03-18T0400,3025A,113.0477,23.6344,清远市,技师学院,,40,40,54,22,28,84,,,,10,23,6,11,0.5,0.5
2025-03-18T0400,3318A,112.9903,23.7403,清远市,清新太和,,38,38,48,24,26,86,,,,9,12,7,8,0.5,0.6
2025-03-18T0400,3455A,113.076,23.7198,清远市,清城东城,,40,40,53,26,28,81,,,,8,16,6,9,0.5,0.7
2025-03-18T0400,2661A,107.6325,35.7357,庆阳市,庆阳五中,,35,35,42,6,13,76,,,,4,9,2,3,0.4,0.4
2025-03-18T0400,2662A,107.6364,35.7067,庆阳市,市环保局,,38,38,42,10,14,79,,,,4,9,4,5,0.3,0.4
2025-03-18T0400,1916A,103.7897,25.5035,曲靖市,环境监测站,,23,,19,8,9,71,,,,10,16,9,5,0.4,0.6
2025-03-18T0400,1917A,103.8,25.5364,曲靖市,烟厂办公区,,23,8,15,3,8,73,,,,8,14,7,6,0.4,0.5
2025-03-18T0400,3376A,103.7947,25.462,曲靖市,南苑二区,,23,,14,10,9,71,,,,9,15,8,7,0.4,0.6
2025-03-18T0400,3377A,103.7444,25.5261,曲靖市,曲靖师范学院,,22,9,15,7,10,68,,,,10,14,5,4,0.5,0.6
2025-03-18T0400,1264A,118.8692,28.9398,衢州市,环保大楼,,48,48,39,31,24,69,,,,17,21,8,3,0.5,0.5
2025-03-18T0400,1265A,118.8709,28.9666,衢州市,实验学校,,45,45,35,31,24,62,,,,13,19,8,4,0.4,0.4
2025-03-18T0400,1266A,118.8621,28.9808,衢州市,衢州学院,,50,50,36,33,23,57,,,,22,33,10,5,0.5,0.5
2025-03-18T0400,1611A,118.5819,24.9117,泉州市,涂山街,细颗粒物(PM2.5),57,40,48,40,34,68,,,,20,17,3,4,0.6,0.5
2025-03-18T0400,1612A,118.5972,24.8978,泉州市,津头埔,细颗粒物(PM2.5),55,40,46,39,35,71,,,,20,21,3,4,0.7,0.6
2025-03-18T0400,1613A,118.6663,24.9424,泉州市,万安,,48,38,47,33,33,74,,,,11,10,3,4,0.6,0.6
2025-03-18T0400,1614A,118.6117,24.9604,泉州市,清源山,,,,,,,,,,,,,,,,
2025-03-18T0400,3529A,118.6333,24.9264,泉州市,城华南路,,46,46,56,29,33,75,,,,11,16,3,5,0.5,0.5
2025-03-18T0400,2626A,88.8876,29.2718,日喀则市,日喀则监测站,,40,13,22,7,6,125,,,,3,7,2,3,0.4,0.4
2025-03-18T0400,3726A,88.8781,29.2426,日喀则市,林业技术推广中心,,39,18,22,6,4,124,,,,2,2,7,7,0.3,0.3
2025-03-18T0400,1659A,119.471,35.4209,日照市,监测站,,29,29,51,9,21,59,,,,21,28,6,8,0.5,0.6
2025-03-18T0400,1660A,119.523,35.4216,日照市,市政府广场,,36,36,49,6,18,69,,,,14,21,4,5,0.4,0.6
2025-03-18T0400,1661A,119.5587,35.4044,日照市,港务局,,36,36,61,18,28,76,,,,14,24,10,10,0.6,0.6
2025-03-18T0400,3507A,119.5328,35.4625,日照市,职业技术学院,,36,36,52,12,15,70,,,,17,23,5,5,0.5,0.6
2025-03-18T0400,3604A,119.3266,35.1044,日照市,岚山环保分局,,44,44,67,17,29,48,,,,38,27,6,15,0.6,1
2025-03-18T0400,1835A,111.1922,34.7752,三门峡市,市政府,,41,41,42,26,23,64,,,,32,36,5,6,0.4,0.4
2025-03-18T0400,1836A,111.1587,34.7942,三门峡市,开发区,,48,48,43,22,20,48,,,,39,32,10,9,0.4,0.4
2025-03-18T0400,1838A,111.143,34.7955,三门峡市,风景区,,41,41,36,25,19,52,,,,25,27,12,11,0.5,0.5
2025-03-18T0400,3039A,111.1911,34.7829,三门峡市,三门峡市第一小学,,42,42,47,16,23,77,,,,26,32,8,7,0.4,0.4
2025-03-18T0400,3598A,111.1,34.7167,三门峡市,富达温泉假日酒店,颗粒物(PM10),54,58,54,24,29,66,,,,32,30,13,11,0.7,0.7
2025-03-18T0400,2324A,117.6211,26.2625,三明市,三钢,,38,36,39,26,26,63,,,,18,19,9,7,1.1,0.9
2025-03-18T0400,2325A,117.635,26.2714,三明市,三明二中,,32,29,34,22,22,56,,,,21,18,6,4,0.3,0.4
2025-03-18T0400,2326A,117.6028,26.2378,三明市,三元区政府,,32,30,39,22,24,47,,,,21,16,5,6,0.4,0.5
2025-03-18T0400,2327A,117.7275,26.3108,三明市,洋溪,,,,,,,,,,,,,,,,
2025-03-18T0400,1876A,109.5078,18.2489,三亚市,河东子站,,21,6,12,3,6,65,,,,5,7,4,4,0.3,0.3
2025-03-18T0400,1877A,109.4964,18.2681,三亚市,河西子站,,18,8,10,3,3,56,,,,6,7,3,3,0.4,0.4
2025-03-18T0400,3540A,109.7348,18.3443,三亚市,君悦子站,,25,20,19,6,7,79,,,,7,9,4,4,0.5,0.5
2025-03-18T0400,2624A,91.7608,29.2313,山南市,山南监测站,,39,7,68,3,15,124,,,,2,4,4,4,0.2,0.3
2025-03-18T0400,2625A,91.7706,29.2436,山南市,山南人民医院,,39,12,91,6,20,123,,,,1,5,4,4,0.4,0.3
2025-03-18T0400,1674A,116.6794,23.3667,汕头市,金平子站,细颗粒物(PM2.5),80,,44,59,40,70,,,,24,24,7,7,0.7,0.7
2025-03-18T0400,1675A,116.7244,23.3633,汕头市,龙湖子站,细颗粒物(PM2.5),64,48,42,46,33,70,,,,17,16,4,4,0.7,0.7
2025-03-18T0400,1676A,116.7258,23.2775,汕头市,濠江子站,细颗粒物(PM2.5),77,,42,56,37,76,,,,16,14,4,5,0.6,0.6
2025-03-18T0400,1677A,116.7519,23.4714,汕头市,澄海子站,细颗粒物(PM2.5),80,,45,59,36,60,,,,24,19,7,5,0.7,0.6
2025-03-18T0400,1678A,116.6092,23.2539,汕头市,潮阳子站,细颗粒物(PM2.5),77,,47,56,29,60,,,,19,16,8,8,0.6,0.5
2025-03-18T0400,3444A,116.454,23.2684,汕头市,潮南峡山,细颗粒物(PM2.5),64,73,59,46,29,63,,,,14,13,9,9,0.9,0.6
2025-03-18T0400,3624A,116.4069,23.2533,汕头市,潮南子站,颗粒物(PM10),77,103,78,51,38,61,,,,9,10,8,8,0.8,0.6
2025-03-18T0400,1693A,115.3653,22.775,汕尾市,市环保局,,50,40,42,35,41,75,,,,10,10,7,7,0.6,0.6
2025-03-18T0400,1694A,115.3706,22.7898,汕尾市,市政府,,46,46,41,29,30,66,,,,12,11,5,6,0.5,0.5
2025-03-18T0400,1695A,115.3622,22.7925,汕尾市,新城中学,,42,40,44,29,32,72,,,,8,9,9,9,0.6,0.6
2025-03-18T0400,2645A,109.9154,33.8715,商洛市,监测站,,42,42,41,23,19,50,,,,21,19,5,7,0.4,0.4
2025-03-18T0400,3045A,109.9643,33.8471,商洛市,商州区中学,,38,38,44,22,17,28,,,,40,27,5,4,0.6,0.5
2025-03-18T0400,2408A,115.6702,34.4285,商丘市,环境监测站,细颗粒物(PM2.5),102,76,57,76,31,47,,,,31,19,6,4,0.5,0.4
2025-03-18T0400,2409A,115.6458,34.4045,商丘市,粮食局,颗粒物(PM10),57,64,54,26,31,52,,,,28,24,4,3,0.3,0.3
2025-03-18T0400,2410A,115.6293,34.3948,商丘市,睢阳区环保局,颗粒物(PM10),59,67,57,22,28,54,,,,24,24,4,3,0.3,0.3
2025-03-18T0400,3171A,115.6071,34.4465,商丘市,梁园区档案局,颗粒物(PM10),62,74,56,33,30,38,,,,36,23,4,3,0.4,0.5
2025-03-18T0400,1141A,121.4,31.238,上海市,普陀,"颗粒物(PM10),细颗粒物(PM2.5)",58,65,53,41,34,33,,,,71,54,7,7,0.6,0.6
2025-03-18T0400,1142A,121.478,31.2036,上海市,十五厂,颗粒物(PM10),55,59,49,38,34,44,,,,52,43,9,8,0.6,0.7
2025-03-18T0400,1143A,121.467,31.3008,上海市,虹口,颗粒物(PM10),54,57,47,31,27,36,,,,65,51,10,10,0.8,0.6
2025-03-18T0400,1147A,121.425,31.2261,上海市,静安监测站,颗粒物(PM10),55,60,51,38,32,34,,,,63,44,9,9,0.7,0.8
2025-03-18T0400,1148A,121.703,31.1907,上海市,浦东川沙,颗粒物(PM10),60,69,56,40,34,31,,,,68,50,9,8,0.5,0.5
2025-03-18T0400,1149A,121.533,31.2284,上海市,浦东新区监测站,颗粒物(PM10),53,56,45,30,30,54,,,,50,42,8,7,0.6,0.6
2025-03-18T0400,1150A,121.577,31.2071,上海市,浦东张江,颗粒物(PM10),55,60,51,27,33,48,,,,55,49,8,7,0.6,0.6
2025-03-18T0400,3265A,121.4316,31.3322,上海市,宝山庙行,,,68,52,,33,27,,,,69,44,10,9,0.7,0.7
2025-03-18T0400,3266A,121.8791,31.4662,上海市,崇明上实东滩,颗粒物(PM10),55,59,49,33,27,59,,,,33,36,7,7,0.7,0.7
2025-03-18T0400,3268A,121.3162,31.2838,上海市,嘉定南翔,"颗粒物(PM10),细颗粒物(PM2.5)",58,66,54,41,37,29,,,,64,61,9,8,0.6,0.6
2025-03-18T0400,3269A,121.3359,30.7456,上海市,金山新城,颗粒物(PM10),56,61,42,39,32,23,,,,69,35,11,8,0.6,0.5
2025-03-18T0400,3270A,121.4996,31.0739,上海市,闵行浦江,颗粒物(PM10),56,62,49,37,31,29,,,,72,47,7,7,0.6,0.5
2025-03-18T0400,3271A,121.2886,31.1663,上海市,青浦徐泾,细颗粒物(PM2.5),57,61,48,40,34,22,,,,76,57,6,6,0.7,0.6
2025-03-18T0400,3272A,121.2186,31.0378,上海市,松江图书馆,"颗粒物(PM10),细颗粒物(PM2.5)",58,66,50,41,34,31,,,,69,51,9,8,0.8,0.8
2025-03-18T0400,3273A,121.3902,31.2059,上海市,长宁仙霞,,,,51,36,33,30,,,,67,53,7,7,0.6,0.6
2025-03-18T0400,3274A,121.7965,31.0507,上海市,浦东惠南,颗粒物(PM10),57,64,50,37,32,36,,,,51,39,8,8,0.8,0.8
2025-03-18T0400,3544A,121.4891,30.925,上海市,奉贤南桥新城,细颗粒物(PM2.5),59,64,48,42,33,40,,,,53,42,10,9,0.7,0.7
2025-03-18T0400,4183A,121.4174,31.16637,上海市,冠生园路458号,颗粒物(PM10),56,61,47,37,35,33,,,,55,40,9,9,0.7,0.7
2025-03-18T0400,4205A,121.5419,31.2683,上海市,宁武路151号,颗粒物(PM10),57,64,51,32,29,50,,,,50,45,8,8,0.4,0.4
2025-03-18T0400,2381A,118.005,28.4572,上饶市,百草园,,,,,,,,,,,,,,,,
2025-03-18T0400,2382A,117.9756,28.4436,上饶市,市监测站,,32,32,35,22,21,79,,,,13,12,29,11,0.6,0.5
2025-03-18T0400,2383A,117.9519,28.4628,上饶市,凤凰光学,,32,32,35,16,18,65,,,,18,14,46,16,0.8,0.8
2025-03-18T0400,3685A,117.897,28.4315,上饶市,双创科技城,,38,31,35,26,22,54,,,,32,22,31,15,0.6,0.5
2025-03-18T0400,4211A,118.1904,28.4448,上饶市,裕丰大道,细颗粒物(PM2.5),54,41,40,38,28,72,,,,19,17,25,14,0.3,0.3
2025-03-18T0400,1669A,113.5824,24.7733,韶关市,市八中,,39,38,53,27,32,90,,,,9,12,7,9,0.5,0.5
2025-03-18T0400,1671A,113.5917,24.7972,韶关市,园林处,,38,33,44,26,31,92,,,,6,9,6,7,0.6,0.6
2025-03-18T0400,1672A,113.6735,24.7791,韶关市,韶关学院,,40,28,44,28,32,77,,,,8,12,7,8,0.4,0.3
2025-03-18T0400,1673A,113.5971,24.6863,韶关市,曲江监测站,,38,38,52,26,31,91,,,,10,14,6,9,0.5,0.5
2025-03-18T0400,3622A,113.5556,24.8082,韶关市,碧湖山庄,,43,36,51,30,32,79,,,,8,9,7,9,0.4,0.4
2025-03-18T0400,2462A,111.5239,27.3033,邵阳市,市水土所,,,,,,,,,,,,,,,,
2025-03-18T0400,2464A,111.5283,27.2442,邵阳市,市化工厂,,46,46,45,32,29,47,,,,14,16,13,9,0.6,0.6
2025-03-18T0400,2466A,111.4328,27.2272,邵阳市,市环保局,,45,32,34,31,27,39,,,,15,14,36,14,0.8,0.8
2025-03-18T0400,4218A,111.4460,27.2472,邵阳市,北塔二期4-26地块,,45,,36,31,29,29,,,,14,13,7,8,0.5,0.5
2025-03-18T0400,4219A,111.4739,27.2282,邵阳市,邵水西路287号,,48,42,40,33,29,48,,,,12,13,23,12,0.6,0.6
2025-03-18T0400,1247A,120.6053,29.9928,绍兴市,城东开发委,,30,30,34,21,21,45,,,,26,27,6,6,0.5,0.5
2025-03-18T0400,2921A,120.5483,30.0003,绍兴市,树下王站,,41,41,39,28,25,48,,,,29,28,6,6,0.4,0.4
2025-03-18T0400,3408A,120.5683,29.9361,绍兴市,绍兴中专,,26,26,32,15,18,58,,,,15,25,6,7,0.4,0.4
2025-03-18T0400,3409A,120.4906,30.0861,绍兴市,柯桥区政府,,49,49,44,27,24,49,,,,20,28,6,7,0.3,0.4
2025-03-18T0400,3410A,120.8752,30.0249,绍兴市,重华小学,,36,36,33,23,22,60,,,,16,14,8,7,0.3,0.3
2025-03-18T0400,3411A,120.8369,30.0137,绍兴市,上虞中学,,39,39,35,27,22,50,,,,29,29,11,9,0.4,0.4
2025-03-18T0400,3560A,120.4722,30.0415,绍兴市,柯桥妇保,,42,42,37,23,18,31,,,,20,28,5,6,0.3,0.3
2025-03-18T0400,3658A,120.6153,30.0764,绍兴市,袍江中学,,49,49,42,31,24,47,,,,27,33,5,5,0.4,0.4
2025-03-18T0400,1356A,114.1063,22.5545,深圳市,通心岭子站,颗粒物(PM10),52,54,49,33,27,52,,,,28,23,7,6,0.5,0.5
