timepoint,stationcode,longitude,latitude,area,positionname,primarypollutant,aqi,pm10,pm10_24h,pm2_5,pm2_5_24h,o3,o3_24h,o3_8h,o3_8h_24h,no2,no2_24h,so2,so2_24h,co,co_24h
2025-04-08T2200,2566A,102.1879,31.914,阿坝藏族羌族自治州,州农科所,,34,34,28,10,10,78,,104,92,9,8,12,13,0.4,0.4
2025-04-08T2200,2568A,102.2502,31.8896,阿坝藏族羌族自治州,马师校,,41,41,26,27,15,68,,116,106,24,10,4,5,0.4,0.4
2025-04-08T2200,3994A,102.2165,31.9024,阿坝藏族羌族自治州,马尔康中学西区,,37,37,26,24,15,81,,124,113,21,9,3,3,0.5,0.7
2025-04-08T2200,2695A,80.292,41.1694,阿克苏地区,电视台,颗粒物(PM10),134,218,224,62,56,86,,117,114,22,13,4,5,0.6,0.6
2025-04-08T2200,2696A,80.2613,41.1551,阿克苏地区,艺术中心,颗粒物(PM10),145,239,241,79,63,38,,115,106,61,20,3,4,0.9,0.6
2025-04-08T2200,2204A,105.6467,38.8363,阿拉善盟,西城区西花园,颗粒物(PM10),89,127,188,47,50,100,,120,116,7,6,10,9,0.6,0.7
2025-04-08T2200,2205A,105.6985,38.8411,阿拉善盟,蒙二幼,颗粒物(PM10),101,152,203,55,56,91,,105,103,12,7,6,6,0.5,0.5
2025-04-08T2200,2206A,105.724,38.8516,阿拉善盟,环保局新楼,颗粒物(PM10),130,210,202,60,58,99,,109,107,5,5,9,9,0.3,0.5
2025-04-08T2200,2708A,88.1264,47.8517,阿勒泰地区,市站,,32,32,15,3,6,94,,98,95,3,4,2,2,0.5,0.5
2025-04-08T2200,2630A,80.1161,32.5,阿里地区,阿里监测站,,30,,11,6,6,95,,95,95,3,13,6,8,0.5,0.5
2025-04-08T2200,3192A,80.0903,32.5028,阿里地区,阿里藏医院,,31,9,14,3,5,99,,101,100,2,5,7,8,0.4,0.5
2025-04-08T2200,2642A,109.0318,32.6537,安康市,香溪洞,,50,50,61,22,22,102,,119,117,7,9,9,8,0.4,0.4
2025-04-08T2200,2644A,109.0072,32.6975,安康市,汉滨区检察院,,46,46,47,26,24,66,,123,108,21,15,7,12,0.4,0.5
2025-04-08T2200,4054A,109.0325,32.6913,安康市,市邮政管理局,颗粒物(PM10),57,64,60,24,24,66,,115,96,21,20,10,17,0.5,0.6
2025-04-08T2200,2291A,117.0809,30.5177,安庆市,环科院,细颗粒物(PM2.5),68,83,73,49,41,14,,146,117,124,61,10,11,0.8,0.7
2025-04-08T2200,2292A,117.0331,30.5119,安庆市,马山宾馆,细颗粒物(PM2.5),65,73,66,47,38,91,,144,128,39,43,8,7,0.7,0.6
2025-04-08T2200,2294A,116.9896,30.6145,安庆市,安庆大学,颗粒物(PM10),64,78,72,41,39,111,,160,135,33,29,10,8,0.6,0.7
2025-04-08T2200,3173A,117.0598,30.5351,安庆市,市人大,细颗粒物(PM2.5),65,68,70,47,31,71,,153,134,51,41,8,10,0.7,0.6
2025-04-08T2200,3122A,105.9606,26.2611,安顺市,伍家关,颗粒物(PM10),54,58,54,29,35,68,,81,81,8,8,5,5,1.0,1
2025-04-08T2200,3123A,105.9408,26.2431,安顺市,凤凰山,细颗粒物(PM2.5),73,61,45,53,38,62,,84,83,17,13,11,8,0.8,0.8
2025-04-08T2200,3124A,105.9439,26.2564,安顺市,金钟山,细颗粒物(PM2.5),98,,46,73,39,75,,91,91,11,11,9,8,0.9,0.9
2025-04-08T2200,3125A,105.8983,26.2481,安顺市,娄家坡,细颗粒物(PM2.5),87,,39,64,41,61,,90,89,19,11,13,7,1.2,1.1
2025-04-08T2200,1818A,114.4839,36.0621,安阳市,棉研所,,,,,,,,,,,,,,,,
2025-04-08T2200,1819A,114.3551,36.1017,安阳市,红庙街,,44,44,92,28,52,75,,96,88,13,15,5,7,0.8,0.7
2025-04-08T2200,1820A,114.361,36.0681,安阳市,银杏小区,细颗粒物(PM2.5),53,46,100,37,71,66,,106,97,27,16,6,9,0.6,0.4
2025-04-08T2200,3141A,114.3922,36.0878,安阳市,信访局,,41,41,99,28,61,80,,109,101,21,20,4,7,0.8,0.7
2025-04-08T2200,3669A,114.4705,36.0637,安阳市,左辅环卫站,,49,49,117,30,69,80,,110,104,12,15,4,8,0.4,0.4
2025-04-08T2200,3703A,114.2917,36.0949,安阳市,安钢职工学校,颗粒物(PM10),59,67,109,28,52,41,,106,86,46,23,3,13,0.8,0.8
2025-04-08T2200,1748A,123.044,41.1196,鞍山市,深沟寺,细颗粒物(PM2.5),94,99,75,70,41,100,,132,120,23,22,9,14,0.6,0.5
2025-04-08T2200,1749A,123.011,41.0931,鞍山市,太阳城,细颗粒物(PM2.5),103,124,79,77,41,76,,128,121,32,21,6,19,0.9,1.3
2025-04-08T2200,1750A,123.0485,41.1442,鞍山市,太平,细颗粒物(PM2.5),90,109,90,67,40,93,,123,106,22,17,9,12,0.8,0.6
2025-04-08T2200,1751A,122.9642,41.0971,鞍山市,铁西三道街,细颗粒物(PM2.5),122,139,90,92,47,46,,127,107,75,33,5,12,1.1,1
2025-04-08T2200,1753A,123.022,41.0821,鞍山市,明达新区,细颗粒物(PM2.5),115,132,76,87,42,65,,133,119,45,18,6,14,0.9,0.9
2025-04-08T2200,1754A,123.1289,41.0228,鞍山市,千山,,,,54,,20,,,94,,,17,,7,,1.0
2025-04-08T2200,4201A,122.9446,41.0826,鞍山市,兴盛南路290号,细颗粒物(PM2.5),102,134,94,76,43,64,,126,102,69,39,10,14,0.8,0.8
2025-04-08T2200,2195A,107.4212,40.761,巴彦淖尔市,附二中,细颗粒物(PM2.5),72,91,146,52,42,91,,111,102,8,13,11,11,0.4,0.4
2025-04-08T2200,2196A,107.37,40.7372,巴彦淖尔市,市环保大楼,颗粒物(PM10),83,116,150,38,37,92,,107,98,6,13,6,7,0.1,0.2
2025-04-08T2200,1956A,86.1472,41.7538,巴音郭楞蒙古自治州,孔雀公园,颗粒物(PM10),92,134,118,42,33,53,,114,108,47,34,5,10,0.4,0.3
2025-04-08T2200,1957A,86.1972,41.7166,巴音郭楞蒙古自治州,棉纺厂,颗粒物(PM10),96,142,129,36,26,75,,110,107,26,31,3,4,0.3,0.3
2025-04-08T2200,1958A,86.2357,41.7173,巴音郭楞蒙古自治州,经济开发区,颗粒物(PM10),91,131,91,18,17,68,,116,111,26,11,5,5,0.3,0.2
2025-04-08T2200,2914A,106.7677,31.8794,巴中市,苏山坪,颗粒物(PM10),59,67,56,28,25,124,,129,128,11,11,4,4,0.4,0.4
2025-04-08T2200,3181A,106.7768,31.8526,巴中市,市五中,颗粒物(PM10),78,106,70,46,32,56,,132,113,26,27,5,6,0.6,0.6
2025-04-08T2200,3183A,106.7418,31.8654,巴中市,圣泉水务公司,颗粒物(PM10),66,82,60,42,29,18,,132,96,74,27,3,3,0.7,0.5
2025-04-08T2200,3616A,106.7616,31.8344,巴中市,市中心医院,颗粒物(PM10),80,110,68,44,35,29,,130,97,57,30,6,7,0.9,0.7
2025-04-08T2200,2235A,122.7911,45.6077,白城市,洮北区环保局,,41,41,33,23,31,79,,108,97,11,12,2,2,0.2,0.5
2025-04-08T2200,2236A,122.8738,45.5725,白城市,市环保局,,36,36,26,20,22,57,,112,93,30,11,5,5,0.4,0.4
2025-04-08T2200,2231A,126.4219,41.9171,白山市,喜丰,颗粒物(PM10),60,69,54,33,28,26,,85,71,42,22,10,6,1.2,1.2
2025-04-08T2200,2232A,126.4077,41.9419,白山市,环保局,颗粒物(PM10),63,76,58,31,27,19,,80,60,35,20,5,6,1.0,0.9
2025-04-08T2200,2647A,104.1724,36.5446,白银市,第三小学,颗粒物(PM10),360,468,188,130,48,96,,116,112,14,9,10,17,0.4,0.6
2025-04-08T2200,2648A,104.1465,36.5482,白银市,动力公司,颗粒物(PM10),378,482,179,120,46,103,,116,113,7,9,14,14,0.3,0.5
2025-04-08T2200,2512A,106.6103,23.9011,百色市,市监测站,细颗粒物(PM2.5),60,62,90,43,59,58,,106,92,19,20,15,12,1.0,1.1
2025-04-08T2200,2513A,106.6538,23.8859,百色市,市中心血站,细颗粒物(PM2.5),59,63,102,42,68,63,,101,91,15,26,12,7,1.1,1.1
2025-04-08T2200,3406A,106.6085,23.8798,百色市,祈福高中,颗粒物(PM10),65,79,98,41,75,51,,103,86,25,25,9,8,0.9,1.1
2025-04-08T2200,2270A,117.396,32.939,蚌埠市,工人疗养院,颗粒物(PM10),116,182,118,76,47,141,,180,170,16,22,8,9,0.7,0.8
2025-04-08T2200,2271A,117.3605,32.9427,蚌埠市,百货大楼,细颗粒物(PM2.5),107,153,112,80,48,131,,166,158,20,26,7,9,0.7,0.7
2025-04-08T2200,2273A,117.4185,32.8911,蚌埠市,蚌埠学院,细颗粒物(PM2.5),122,141,111,92,51,73,,168,142,66,26,17,10,0.9,0.8
2025-04-08T2200,2274A,117.3533,32.9673,蚌埠市,淮上区政府,细颗粒物(PM2.5),110,151,108,83,50,131,,170,156,24,23,7,9,0.6,0.6
2025-04-08T2200,2275A,117.3145,32.8977,蚌埠市,高新区,细颗粒物(PM2.5),133,153,112,101,54,111,,177,161,37,25,11,10,0.9,0.8
2025-04-08T2200,3715A,117.3092,32.9314,蚌埠市,蚌埠田家炳中学,细颗粒物(PM2.5),118,162,124,89,52,140,,183,174,21,27,9,17,0.6,0.6
2025-04-08T2200,1585A,109.8756,40.6532,包头市,市环境监测站,颗粒物(PM10),63,75,51,25,20,83,,92,92,25,31,14,21,0.6,1
2025-04-08T2200,1587A,109.9991,40.5842,包头市,包头八中,颗粒物(PM10),65,80,59,35,29,83,,93,93,22,28,34,27,0.9,0.8
2025-04-08T2200,1588A,109.8538,40.6821,包头市,青山宾馆,颗粒物(PM10),56,62,50,36,25,80,,92,91,26,30,14,19,0.6,0.8
2025-04-08T2200,1589A,109.8642,40.6288,包头市,惠龙物流,颗粒物(PM10),65,80,53,32,23,69,,75,75,20,25,21,19,0.7,0.7
2025-04-08T2200,1590A,110.0377,40.5546,包头市,东河鸿龙湾,颗粒物(PM10),65,80,57,25,20,67,,94,92,29,22,28,19,0.6,0.6
2025-04-08T2200,3283A,109.9154,40.5685,包头市,滨河大厦,颗粒物(PM10),71,91,50,27,20,80,,98,98,23,25,17,17,0.5,0.6
2025-04-08T2200,3419A,109.9447,40.6261,包头市,包头市委党校,颗粒物(PM10),58,66,48,22,21,90,,96,96,17,29,8,17,0.4,0.5
2025-04-08T2200,3683A,109.8331,40.6576,包头市,昆区政府,颗粒物(PM10),61,72,48,33,26,82,,90,90,25,30,10,17,0.7,0.8
2025-04-08T2200,1930A,107.185,34.3063,宝鸡市,庙沟村,颗粒物(PM10),73,96,113,38,35,100,,118,114,12,10,6,7,0.4,0.4
2025-04-08T2200,1931A,107.0708,34.3017,宝鸡市,竹园沟,颗粒物(PM10),79,108,99,37,34,72,,123,105,22,13,6,7,0.3,0.4
2025-04-08T2200,1932A,107.1906,34.3672,宝鸡市,三陆医院,细颗粒物(PM2.5),94,121,106,70,44,34,,121,93,50,24,8,7,0.6,0.5
2025-04-08T2200,1933A,107.1431,34.3547,宝鸡市,监测站,颗粒物(PM10),83,116,111,59,37,43,,117,97,33,13,7,8,0.4,0.3
2025-04-08T2200,1934A,107.1186,34.3739,宝鸡市,技工学校,颗粒物(PM10),88,126,113,56,43,64,,116,100,22,12,7,7,0.5,0.4
2025-04-08T2200,1935A,107.3906,34.3528,宝鸡市,陈仓区环保局家属楼,颗粒物(PM10),99,147,116,61,39,36,,120,93,60,30,7,13,0.7,0.6
2025-04-08T2200,1936A,107.2058,34.3497,宝鸡市,文理学院,颗粒物(PM10),88,126,108,56,46,38,,117,90,49,20,6,6,0.5,0.5
2025-04-08T2200,1937A,107.2386,34.3622,宝鸡市,三迪小学,颗粒物(PM10),90,130,114,56,41,33,,118,89,54,27,6,7,0.6,0.5
2025-04-08T2200,1051A,115.493,38.8632,保定市,游泳馆,颗粒物(PM10),76,102,84,35,35,62,,131,117,38,32,3,3,0.4,0.5
2025-04-08T2200,1052A,115.5213,38.8959,保定市,华电二区,颗粒物(PM10),71,91,73,45,37,63,,127,112,31,34,3,3,0.8,0.8
2025-04-08T2200,1053A,115.4713,38.9108,保定市,接待中心,颗粒物(PM10),69,87,78,12,48,65,,125,113,27,30,3,3,0.4,0.4
2025-04-08T2200,1054A,115.4612,38.8416,保定市,地表水厂,颗粒物(PM10),84,118,87,31,28,68,,133,119,36,29,5,3,0.4,0.4
2025-04-08T2200,3581A,115.31981,38.95208,保定市,满城区生态环境分局,颗粒物(PM10),68,85,78,24,41,56,,130,117,41,36,2,3,0.4,0.4
2025-04-08T2200,3582A,115.47694,38.76408,保定市,清苑区第二中学,颗粒物(PM10),96,142,102,45,35,68,,136,118,45,35,4,4,0.4,0.3
2025-04-08T2200,3583A,115.62909,39.02311,保定市,徐水物探局,颗粒物(PM10),69,88,78,19,19,73,,128,114,26,31,10,7,0.3,0.2
2025-04-08T2200,4004A,115.4202,38.8656,保定市,双鹰农机,颗粒物(PM10),76,101,83,37,36,63,,130,117,40,36,5,5,0.3,0.3
2025-04-08T2200,4034A,115.5150,38.8590,保定市,植保所站,颗粒物(PM10),86,121,83,52,44,53,,126,111,37,32,3,3,0.5,0.5
2025-04-08T2200,2594A,99.1678,25.1081,保山市,市环境监测站,细颗粒物(PM2.5),84,83,88,62,56,120,,137,134,11,13,5,7,0.8,0.7
2025-04-08T2200,2595A,99.1711,25.1328,保山市,市环保局,颗粒物(PM10),71,91,91,39,50,124,,149,144,12,11,6,6,0.7,0.7
2025-04-08T2200,1866A,109.2262,21.588,北海市,牛尾岭水库,,,27,35,20,28,26,,85,68,,7,5,6,0.7,0.7
2025-04-08T2200,1867A,109.1436,21.4086,北海市,海滩公园,,36,36,47,20,22,82,,118,103,25,14,6,7,0.8,0.7
2025-04-08T2200,1868A,109.0981,21.4661,北海市,新市环保局,,40,40,43,22,25,102,,114,95,12,14,3,4,0.5,0.5
2025-04-08T2200,1869A,109.1778,21.5233,北海市,北海工业园,,42,42,51,27,30,72,,104,92,20,12,7,8,0.6,0.4
2025-04-08T2200,3400A,109.1911,21.4415,北海市,龙潭自来水厂,,47,47,43,26,29,62,,112,100,19,11,6,8,0.5,0.4
2025-04-08T2200,1001A,116.3621,39.8784,北京市,万寿西宫,颗粒物(PM10),51,52,48,16,17,84,,128,121,27,24,7,7,0.5,0.4
2025-04-08T2200,1002A,116.2202,40.2915,北京市,定陵,,,,,,,,,,,,,,,,
2025-04-08T2200,1003A,116.4174,39.9289,北京市,东四,颗粒物(PM10),69,88,69,23,19,83,,123,116,23,20,7,7,0.4,0.4
2025-04-08T2200,1004A,116.4072,39.8863,北京市,天坛,,49,49,45,33,29,63,,117,107,30,22,2,2,0.7,0.6
2025-04-08T2200,1005A,116.462,39.9365,北京市,农展馆,颗粒物(PM10),55,59,45,19,17,72,,123,114,26,22,8,8,0.6,0.5
2025-04-08T2200,1006A,116.3392,39.9295,北京市,官园,颗粒物(PM10),52,54,52,26,17,89,,112,110,16,19,7,7,0.4,0.4
2025-04-08T2200,1007A,116.2878,39.9611,北京市,海淀万柳,,44,44,51,12,16,92,,106,106,13,33,5,5,0.6,0.6
2025-04-08T2200,1008A,116.6636,40.135,北京市,顺义新城,颗粒物(PM10),59,67,42,23,16,84,,121,116,22,16,8,7,0.5,0.4
2025-04-08T2200,1009A,116.6275,40.3275,北京市,怀柔镇,颗粒物(PM10),72,94,42,29,13,100,,109,109,14,13,4,4,0.4,0.3
2025-04-08T2200,1010A,116.2296,40.217,北京市,昌平镇,,44,44,39,15,13,101,,118,118,10,16,2,2,0.3,0.3
2025-04-08T2200,1011A,116.3966,39.9821,北京市,奥体中心,,49,49,42,13,13,100,,120,119,18,31,4,4,0.5,0.5
2025-04-08T2200,3281A,115.9718,40.4529,北京市,延庆夏都,,37,37,26,15,12,94,,106,106,9,19,6,6,0.4,0.3
2025-04-08T2200,3418A,116.8336,40.4095,北京市,密云新城,颗粒物(PM10),68,85,34,28,11,95,,110,110,12,6,4,4,0.4,0.3
2025-04-08T2200,3671A,116.088,39.9726,北京市,门头沟三家店,,45,45,76,14,18,93,,101,101,5,31,5,5,0.4,0.4
2025-04-08T2200,3672A,116.1541,39.8204,北京市,丰台云岗,颗粒物(PM10),52,54,56,27,27,83,,119,114,23,30,8,7,0.4,0.4
2025-04-08T2200,3673A,116.6804,39.9081,北京市,通州东关,,45,45,51,10,14,66,,108,101,25,19,7,6,0.8,0.5
2025-04-08T2200,3674A,115.9577,39.7603,北京市,房山燕山,颗粒物(PM10),51,52,42,24,21,84,,105,101,22,21,6,4,0.3,0.3
2025-04-08T2200,3675A,116.4672,39.7733,北京市,大兴旧宫,颗粒物(PM10),51,51,52,13,15,66,,115,101,24,22,1,3,0.3,0.2
2025-04-08T2200,3694A,115.986,40.4563,北京市,延庆石河营,,39,39,25,15,9,84,,106,104,17,13,4,5,0.4,0.4
2025-04-08T2200,3695A,116.6151,40.3053,北京市,怀柔新城,颗粒物(PM10),65,80,33,27,12,103,,109,109,14,15,6,6,0.6,0.5
2025-04-08T2200,3696A,116.2545,39.8768,北京市,丰台小屯,颗粒物(PM10),53,55,60,17,21,76,,109,104,22,26,3,3,0.4,0.3
2025-04-08T2200,3697A,116.84,40.3844,北京市,密云镇,颗粒物(PM10),67,83,45,39,17,99,,111,111,14,12,5,8,0.5,0.4
2025-04-08T2200,4182A,116.1942,39.9158,北京市,八角北路9号,颗粒物(PM10),53,55,54,8,13,92,,119,115,21,27,4,3,0.4,0.2
2025-04-08T2200,4194A,117.0790,40.1518,北京市,洳河巡河路,,50,50,38,18,15,68,,120,106,26,18,5,4,0.4,0.4
2025-04-08T2200,1761A,123.8275,41.3064,本溪市,大峪,,,,87,,27,,,79,,,23,,7,,0.5
2025-04-08T2200,1762A,123.7567,41.3325,本溪市,溪湖,细颗粒物(PM2.5),109,129,93,82,45,42,,126,105,,34,8,10,1.0,0.8
2025-04-08T2200,1763A,123.7169,41.3094,本溪市,彩屯,细颗粒物(PM2.5),90,107,90,67,42,60,,122,100,42,20,8,10,0.8,0.6
2025-04-08T2200,1764A,123.7669,41.2864,本溪市,东明,,,103,81,56,35,53,,117,94,46,24,6,8,,0.7
2025-04-08T2200,1765A,123.7992,41.2664,本溪市,新立屯,细颗粒物(PM2.5),84,70,72,62,45,38,,114,82,83,33,6,8,0.8,0.7
2025-04-08T2200,1766A,123.8142,41.3472,本溪市,威宁,细颗粒物(PM2.5),201,301,111,151,53,31,,120,94,44,13,3,5,1.3,0.7
2025-04-08T2200,2587A,105.2864,27.3125,毕节市,八中,细颗粒物(PM2.5),59,52,46,42,36,45,,99,87,25,14,5,10,0.9,0.8
2025-04-08T2200,2588A,105.31,27.2944,毕节市,师专,细颗粒物(PM2.5),80,86,51,59,38,41,,108,95,34,17,7,7,0.9,0.7
2025-04-08T2200,4263A,105.3688,27.3598,毕节市,工业大道,细颗粒物(PM2.5),55,50,47,39,36,40,,103,88,41,17,8,9,0.9,0.8
2025-04-08T2200,1629A,118.0018,37.3617,滨州市,第二水厂,颗粒物(PM10),76,102,115,14,47,73,,106,95,20,25,9,12,0.3,0.7
2025-04-08T2200,1630A,117.9776,37.393,滨州市,北中新校,颗粒物(PM10),64,78,105,27,50,79,,115,104,23,37,7,12,0.4,0.7
2025-04-08T2200,3514A,117.9378,37.3956,滨州市,中海酒店,细颗粒物(PM2.5),85,,103,63,57,81,,119,109,17,34,9,12,0.5,0.6
2025-04-08T2200,3515A,117.9378,37.3553,滨州市,开发区一中,颗粒物(PM10),70,90,124,14,60,77,,112,101,25,38,12,14,0.2,0.4
2025-04-08T2200,3516A,118.0917,37.694,滨州市,金海六路,颗粒物(PM10),57,63,96,7,37,86,,107,90,14,27,8,14,0.3,0.6
2025-04-08T2200,4028A,117.9956,37.3753,滨州市,滨州市西街道办事处,颗粒物(PM10),70,90,117,24,65,82,,123,111,19,28,6,9,0.2,0.5
2025-04-08T2200,2311A,115.8072,33.8399,亳州市,污水处理厂,颗粒物(PM10),85,120,99,58,43,119,,142,136,14,18,7,8,0.8,0.6
2025-04-08T2200,2312A,115.7789,33.8518,亳州市,三国揽胜宫,细颗粒物(PM2.5),87,104,98,64,43,117,,141,135,19,11,7,8,0.7,0.6
2025-04-08T2200,3332A,115.7633,33.8034,亳州市,亳州学院,颗粒物(PM10),89,128,100,65,42,140,,144,144,12,11,8,10,0.7,0.6
2025-04-08T2200,2693A,82.0485,44.8556,博尔塔拉蒙古自治州,市党校,颗粒物(PM10),64,78,52,25,20,107,,128,126,33,33,2,2,0.2,0.2
2025-04-08T2200,2694A,82.0806,44.8969,博尔塔拉蒙古自治州,市环保局,颗粒物(PM10),72,94,68,21,18,102,,142,138,21,19,2,3,0.3,0.5
2025-04-08T2200,1071A,116.8842,38.2991,沧州市,沧县城建局,,40,38,88,28,40,105,,108,102,13,30,2,5,0.1,0.4
2025-04-08T2200,1072A,116.8584,38.3254,沧州市,电视转播站,,46,46,92,19,44,108,,119,108,12,38,3,6,0.1,0.4
2025-04-08T2200,1073A,116.8709,38.3228,沧州市,市环保局,,47,47,86,25,42,107,,112,103,11,30,4,8,0.3,0.5
2025-04-08T2200,3324A,116.8136,38.3004,沧州市,河北水利电力学院,,38,,100,26,39,102,,109,101,10,28,5,8,0.2,0.4
2025-04-08T2200,2622A,97.1806,31.1273,昌都市,昌都监测站,,37,16,18,16,9,117,,133,133,10,7,1,2,0.4,0.3
2025-04-08T2200,3719A,97.1714,31.1406,昌都市,昌都会议中心,,40,19,20,13,9,128,,130,130,3,7,3,3,0.3,0.3
2025-04-08T2200,2690A,88.1236,43.8886,昌吉回族自治州,天山天池,颗粒物(PM10),56,62,28,11,7,75,,113,100,6,6,4,12,0.4,0.5
2025-04-08T2200,2692A,87.2717,44.0297,昌吉回族自治州,新区政务中心,"颗粒物(PM10),细颗粒物(PM2.5)",62,74,42,44,13,103,,120,,28,25,6,5,0.4,0.4
2025-04-08T2200,3613A,87.3095,44.0142,昌吉回族自治州,亚心广场,颗粒物(PM10),74,97,49,22,11,102,,125,124,26,22,9,8,0.6,0.6
2025-04-08T2200,1119A,125.3325,43.9166,长春市,食品厂,细颗粒物(PM2.5),75,76,57,55,52,44,,116,96,74,25,8,8,0.8,0.6
2025-04-08T2200,1120A,125.2863,43.9027,长春市,客车厂,细颗粒物(PM2.5),78,60,49,57,53,44,,112,95,76,25,6,5,0.8,0.6
2025-04-08T2200,1121A,125.2841,43.8463,长春市,邮电学院,细颗粒物(PM2.5),75,56,52,55,51,74,,123,111,39,18,6,6,0.5,0.4
2025-04-08T2200,1122A,125.3716,43.8772,长春市,劳动公园,细颗粒物(PM2.5),104,,56,78,52,63,,125,115,40,16,6,6,0.7,0.5
2025-04-08T2200,1123A,125.3297,43.8805,长春市,园林处,细颗粒物(PM2.5),64,54,51,46,49,95,,120,112,27,16,6,7,0.6,0.5
2025-04-08T2200,1124A,125.4605,43.79,长春市,净月潭,细颗粒物(PM2.5),82,64,56,60,49,85,,117,105,14,16,6,6,0.4,0.5
2025-04-08T2200,1125A,125.7194,43.515,长春市,甩湾子,,,,,,,,,,,,,,,,
2025-04-08T2200,1126A,125.3863,43.8447,长春市,经开区环卫处,细颗粒物(PM2.5),64,64,63,46,55,70,,116,104,34,17,5,6,0.6,0.6
2025-04-08T2200,1127A,125.245,43.7783,长春市,高新区管委会,细颗粒物(PM2.5),78,71,49,57,51,65,,118,97,41,19,8,7,0.6,0.6
2025-04-08T2200,1128A,125.1761,43.8325,长春市,岱山公园,细颗粒物(PM2.5),93,78,45,69,49,8,,128,98,111,22,5,4,0.7,0.5
2025-04-08T2200,1335A,113.0833,28.2325,长沙市,经开区环保局,细颗粒物(PM2.5),85,88,82,63,55,89,,144,130,25,18,9,11,0.9,0.8
2025-04-08T2200,1336A,112.8872,28.2189,长沙市,高开区环保局,细颗粒物(PM2.5),82,88,88,60,58,100,,134,124,14,22,6,9,0.9,1
2025-04-08T2200,1337A,113.0792,28.2053,长沙市,马坡岭,细颗粒物(PM2.5),103,98,86,77,56,71,,138,120,38,25,6,9,0.8,0.7
2025-04-08T2200,1338A,112.9394,28.19,长沙市,湖南师范大学,细颗粒物(PM2.5),77,91,83,56,55,76,,128,109,24,24,6,8,0.9,0.9
2025-04-08T2200,1339A,113.0178,28.1322,长沙市,雨花区环保局,,,98,87,66,58,96,,132,123,,35,7,12,,0.9
2025-04-08T2200,1340A,112.9792,28.2597,长沙市,伍家岭,细颗粒物(PM2.5),87,108,105,64,58,68,,130,113,44,39,6,6,1.1,0.9
2025-04-08T2200,1341A,113.0014,28.1944,长沙市,火车新站,细颗粒物(PM2.5),83,106,99,61,56,87,,133,118,28,42,10,11,1.1,1
2025-04-08T2200,1342A,112.9844,28.1178,长沙市,天心区环保局,细颗粒物(PM2.5),84,102,85,62,57,95,,136,121,28,29,7,8,1.1,1
2025-04-08T2200,1343A,112.8908,28.1308,长沙市,湖南中医药大学,细颗粒物(PM2.5),83,92,86,61,56,86,,122,111,19,36,4,6,0.9,1
2025-04-08T2200,1344A,112.9581,28.3611,长沙市,沙坪,细颗粒物(PM2.5),70,74,82,51,52,60,,126,106,16,20,6,9,1.1,1
2025-04-08T2200,1727A,113.1147,36.1547,长治市,清华站,,49,43,74,34,41,60,,136,85,24,16,7,8,1.5,0.9
2025-04-08T2200,1730A,113.0886,36.2125,长治市,审计局,细颗粒物(PM2.5),52,38,62,36,40,67,,142,94,30,17,9,10,0.6,0.5
2025-04-08T2200,1731A,113.0844,36.1856,长治市,长治八中,颗粒物(PM10),57,63,89,30,57,62,,141,93,28,18,9,10,0.9,0.7
2025-04-08T2200,2845A,113.1569,36.1911,长治市,德盛苑,,42,29,62,29,37,71,,148,87,16,11,4,6,1.0,0.8
2025-04-08T2200,3568A,113.06,36.0464,长治市,向阳小学,颗粒物(PM10),65,80,115,36,62,49,,125,90,30,22,10,13,0.9,1
2025-04-08T2200,3569A,112.8792,36.3144,长治市,屯留一中,颗粒物(PM10),52,54,78,34,45,63,,132,92,32,26,11,13,0.8,0.8
2025-04-08T2200,4189A,113.1131,36.19948,长治市,英华南巷50号,,45,44,68,31,41,61,,148,92,31,18,5,7,0.8,0.6
2025-04-08T2200,4190A,113.2367,36.3344,长治市,学府街1号,细颗粒物(PM2.5),57,46,88,40,73,79,,142,85,21,20,8,13,0.9,0.8
2025-04-08T2200,1854A,111.6975,28.9703,常德市,市二中,细颗粒物(PM2.5),85,79,61,63,54,103,,109,109,18,12,14,8,1.0,0.9
2025-04-08T2200,1857A,111.7158,29.1456,常德市,白鹤山,,,,,,,,,,,,,,,,
2025-04-08T2200,3138A,111.7153,29.0289,常德市,武陵区永安,细颗粒物(PM2.5),83,81,72,61,53,104,,123,122,19,11,7,3,0.9,0.8
2025-04-08T2200,3139A,111.6892,28.9881,常德市,鼎城区玉霞,细颗粒物(PM2.5),95,91,69,71,53,83,,119,114,37,14,9,5,1.1,0.9
2025-04-08T2200,3140A,111.6625,29.0531,常德市,武陵区长庚,细颗粒物(PM2.5),83,84,68,61,55,110,,124,123,18,9,10,6,1.0,0.9
2025-04-08T2200,1196A,119.9633,31.762,常州市,市监测站,颗粒物(PM10),85,120,86,56,43,106,,168,144,61,54,13,11,1.1,0.9
2025-04-08T2200,1200A,119.9468,31.7069,常州市,武进监测站,细颗粒物(PM2.5),70,88,72,51,35,86,,165,147,65,33,15,18,0.9,0.7
2025-04-08T2200,1201A,119.9255,31.9087,常州市,安家,颗粒物(PM10),108,166,96,76,50,103,,188,159,60,53,15,13,1.0,0.5
2025-04-08T2200,3002A,119.9805,31.8174,常州市,行政中心,颗粒物(PM10),82,114,67,57,36,107,,176,150,55,33,23,19,1.3,0.7
2025-04-08T2200,3003A,120.0522,31.7748,常州市,经开区,颗粒物(PM10),78,105,100,54,42,133,,176,148,43,57,15,14,1.0,0.8
2025-04-08T2200,3010A,119.9025,31.7964,常州市,钟楼,颗粒物(PM10),83,115,80,56,40,91,,175,146,62,36,12,11,1.2,0.9
2025-04-08T2200,3429A,119.8598,31.7066,常州市,武进经发区,颗粒物(PM10),68,85,88,39,44,71,,178,144,58,40,16,13,0.9,1.1
2025-04-08T2200,3430A,119.5826,31.7245,常州市,金坛城区,颗粒物(PM10),69,88,81,33,63,112,,178,161,31,24,18,13,0.8,0.8
2025-04-08T2200,2220A,120.4318,41.5881,朝阳市,西梁,,35,35,35,21,9,94,,110,106,12,12,11,10,0.7,0.7
2025-04-08T2200,2221A,120.4521,41.5646,朝阳市,河畔小区,,36,36,36,22,13,99,,111,109,11,11,9,7,0.4,0.4
2025-04-08T2200,2222A,120.4176,41.5648,朝阳市,八里堡,,34,34,31,21,10,88,,104,100,15,11,9,7,0.6,0.5
2025-04-08T2200,2223A,120.3806,41.5969,朝阳市,农业园区,,36,36,33,21,11,86,,108,101,18,10,11,10,0.6,0.6
2025-04-08T2200,1705A,116.6367,23.6719,潮州市,西园路,,,,,,,,,,,,,,,,
2025-04-08T2200,3026A,116.6183,23.6608,潮州市,市政府,细颗粒物(PM2.5),79,91,90,58,56,85,,131,120,33,34,6,14,1.0,1
2025-04-08T2200,4036A,116.6461,23.6761,潮州市,金山,细颗粒物(PM2.5),98,82,78,73,57,93,,143,135,32,24,10,10,0.8,0.7
2025-04-08T2200,2472A,113.0073,25.9061,郴州市,马头岭,颗粒物(PM10),63,75,64,43,29,60,,82,67,37,28,7,7,1.1,1
2025-04-08T2200,2473A,113.0116,25.8226,郴州市,市职中,细颗粒物(PM2.5),82,99,85,60,49,22,,87,67,51,33,7,9,1.0,0.9
2025-04-08T2200,2475A,113.0383,25.8071,郴州市,市审计局,细颗粒物(PM2.5),68,77,69,49,48,48,,95,81,34,33,4,7,0.9,0.9
2025-04-08T2200,2476A,113.0348,25.7759,郴州市,市环保局,,,77,77,24,44,,,100,98,28,37,5,7,0.7,0.7
2025-04-08T2200,4252A,113.0138,25.8011,郴州市,好美居路49号,细颗粒物(PM2.5),70,77,77,51,47,54,,91,85,39,35,6,7,0.9,0.9
2025-04-08T2200,1431A,103.9728,30.7236,成都市,金泉两河,颗粒物(PM10),66,81,73,42,36,12,,163,134,73,29,3,3,1.3,0.9
2025-04-08T2200,1432A,104.176,30.6872,成都市,十里店,颗粒物(PM10),68,86,84,29,38,69,,169,151,58,35,4,4,0.8,0.7
2025-04-08T2200,1433A,104.079,30.5706,成都市,三瓦窑,细颗粒物(PM2.5),77,95,84,56,42,16,,162,126,112,56,4,4,1.1,0.7
2025-04-08T2200,1434A,104.1114,30.63,成都市,沙河铺,颗粒物(PM10),82,114,79,54,43,8,,145,114,101,34,5,6,1.4,0.9
2025-04-08T2200,1437A,104.0786,30.6531,成都市,君平街,细颗粒物(PM2.5),92,96,80,68,45,26,,160,128,99,40,7,7,1.2,0.9
2025-04-08T2200,1438A,103.613,31.0283,成都市,灵岩寺,,,,,,,,,,,,,,,,
2025-04-08T2200,2880A,104.0239,30.65639,成都市,大石西路,细颗粒物(PM2.5),75,80,79,55,45,18,,162,129,86,39,4,4,1.1,0.7
2025-04-08T2200,3136A,104.2725,30.5589,成都市,龙泉驿区区政府,颗粒物(PM10),53,56,65,22,30,96,,143,129,17,18,4,4,0.9,0.8
2025-04-08T2200,3357A,104.0106,30.6931,成都市,金博路,颗粒物(PM10),67,84,70,31,32,2,,151,120,105,38,7,7,1.1,0.6
2025-04-08T2200,3359A,104.0578,30.5225,成都市,华阳,细颗粒物(PM2.5),73,80,75,53,47,17,,154,125,91,41,6,6,1.5,0.9
2025-04-08T2200,3488A,104.3853,30.7453,成都市,青白江技师分院,细颗粒物(PM2.5),68,60,70,49,38,104,,187,165,44,34,7,6,0.7,0.7
2025-04-08T2200,3489A,104.0789,30.4072,成都市,科学城,颗粒物(PM10),55,60,65,32,37,87,,149,136,29,24,5,4,0.8,0.7
2025-04-08T2200,4011A,103.8506,30.6947,成都市,光华大道三段,,,90,69,41,38,19,,173,140,84,25,2,2,,0.8
2025-04-08T2200,4224A,104.2433,30.5353,成都市,鲸龙路1057号,颗粒物(PM10),63,76,75,35,38,20,,154,123,98,37,4,4,1.6,1
2025-04-08T2200,1062A,117.9531,40.9081,承德市,铁路,颗粒物(PM10),71,92,33,36,10,107,,105,105,27,17,13,8,0.6,0.3
2025-04-08T2200,1063A,117.9392,40.9763,承德市,中国银行,颗粒物(PM10),65,79,33,20,10,74,,104,99,22,15,13,7,0.6,0.3
2025-04-08T2200,1064A,117.9503,40.928,承德市,开发区,颗粒物(PM10),71,91,40,25,14,106,,109,109,22,19,12,7,0.7,0.4
2025-04-08T2200,1065A,117.8051,40.9655,承德市,文化中心,颗粒物(PM10),75,100,50,34,18,82,,103,100,21,18,29,11,0.7,0.4
2025-04-08T2200,1066A,117.9268,41.0026,承德市,离宫,颗粒物(PM10),59,67,31,35,18,60,,65,64,10,8,35,24,0.5,0.2
2025-04-08T2200,2314A,117.47,30.6618,池州市,池州学院,颗粒物(PM10),63,75,71,44,38,109,,164,151,22,20,7,8,0.5,0.7
2025-04-08T2200,3237A,117.4918,30.6617,池州市,展览馆,颗粒物(PM10),64,78,66,38,34,67,,160,131,33,26,5,6,0.7,0.9
2025-04-08T2200,3333A,117.5627,30.695,池州市,第八中学,颗粒物(PM10),62,73,67,39,35,118,,166,150,26,23,9,8,0.5,0.6
2025-04-08T2200,3334A,117.5038,30.6243,池州市,第十二中学,颗粒物(PM10),64,78,70,44,39,82,,164,136,44,29,8,9,0.9,0.9
2025-04-08T2200,1744A,118.9233,42.2816,赤峰市,松山一中,细颗粒物(PM2.5),62,,21,44,10,60,,87,,34,25,16,10,0.6,0.5
2025-04-08T2200,1745A,118.9576,42.2728,赤峰市,哈达街,,36,36,20,18,8,56,,96,87,36,17,10,9,0.6,0.5
2025-04-08T2200,1746A,118.8788,42.2554,赤峰市,天义路,,30,26,19,21,10,63,,102,93,26,15,13,9,0.5,0.4
2025-04-08T2200,3058A,119.2658,42.0353,赤峰市,银河街,颗粒物(PM10),66,82,27,37,15,62,,93,82,24,14,49,17,0.7,0.3
2025-04-08T2200,3286A,118.9359,42.3147,赤峰市,桥北物流园区,,44,44,22,30,16,41,,86,73,51,28,15,12,0.6,0.6
2025-04-08T2200,2521A,107.3476,22.4136,崇左市,市环保局江州分局,颗粒物(PM10),65,80,66,27,38,76,,88,87,16,12,10,6,1.2,1
2025-04-08T2200,4256A,107.3750,22.3736,崇左市,石景林东路7号,,36,30,53,25,36,79,,94,93,14,13,5,5,1.0,0.9
2025-04-08T2200,2298A,118.3093,32.3153,滁州市,老年大学,细颗粒物(PM2.5),102,120,77,76,39,135,,192,182,28,23,5,5,0.8,0.7
2025-04-08T2200,2299A,118.3244,32.2786,滁州市,人大宾馆,细颗粒物(PM2.5),132,131,81,100,47,140,,198,190,29,26,10,12,0.7,0.7
2025-04-08T2200,3207A,118.3118,32.3038,滁州市,市政府原办公楼,细颗粒物(PM2.5),110,119,72,83,40,139,,194,186,14,13,4,7,0.7,0.5
2025-04-08T2200,3331A,118.3267,32.2634,滁州市,图书馆,细颗粒物(PM2.5),103,114,83,77,47,131,,187,178,20,18,8,12,0.7,0.6
2025-04-08T2200,2605A,101.5482,25.0441,楚雄彝族自治州,州环境监测站,细颗粒物(PM2.5),75,66,64,55,53,149,,149,149,10,12,8,8,0.6,0.6
2025-04-08T2200,2606A,101.538,25.0492,楚雄彝族自治州,市经济开发区,细颗粒物(PM2.5),82,80,70,60,53,145,,148,146,11,12,8,7,0.8,0.8
2025-04-08T2200,2548A,107.5277,31.2827,达州市,达州职业技术学院,颗粒物(PM10),64,77,77,32,31,26,,126,89,50,33,6,8,0.2,0.3
2025-04-08T2200,2549A,107.5086,31.2186,达州市,市环境监测站,颗粒物(PM10),63,76,75,27,30,49,,133,105,54,39,5,8,0.8,0.7
2025-04-08T2200,2550A,107.4988,31.2132,达州市,凤凰小区,颗粒物(PM10),65,80,76,39,35,38,,131,94,64,39,8,10,0.8,0.6
2025-04-08T2200,2551A,107.5082,31.1986,达州市,达县机关宾馆,颗粒物(PM10),67,83,82,29,32,2,,122,71,85,49,6,9,0.7,0.6
2025-04-08T2200,2552A,107.4644,31.2124,达州市,市政中心,颗粒物(PM10),80,110,84,41,32,3,,128,82,97,46,5,5,1.4,0.7
2025-04-08T2200,2614A,100.1542,25.7054,大理白族自治州,大理市环境监测站,细颗粒物(PM2.5),74,70,62,54,39,127,,137,136,15,10,7,7,0.8,0.7
2025-04-08T2200,2615A,100.2171,25.5811,大理白族自治州,大理古城,细颗粒物(PM2.5),82,,54,60,42,103,,136,126,20,11,8,8,0.8,0.7
2025-04-08T2200,1109A,121.612,38.9741,大连市,甘井子,细颗粒物(PM2.5),65,68,63,47,29,79,,117,106,50,29,6,7,1.0,0.7
2025-04-08T2200,1110A,121.565,38.9511,大连市,周水子,细颗粒物(PM2.5),93,98,68,69,34,29,,104,82,88,40,7,8,0.9,0.4
2025-04-08T2200,1111A,121.5637,38.8845,大连市,星海三站,颗粒物(PM10),54,58,54,36,24,84,,108,100,23,18,6,8,0.6,0.6
2025-04-08T2200,1112A,121.6302,38.9117,大连市,青泥洼桥,"颗粒物(PM10),细颗粒物(PM2.5)",69,87,59,50,27,28,,117,101,94,28,10,10,0.8,0.5
2025-04-08T2200,1113A,121.6251,38.8638,大连市,傅家庄,颗粒物(PM10),54,57,48,36,22,59,,106,100,55,22,7,7,0.4,0.2
2025-04-08T2200,1114A,121.5213,38.8661,大连市,七贤岭,颗粒物(PM10),55,59,51,34,22,76,,112,106,26,16,5,7,0.5,0.5
2025-04-08T2200,1115A,121.2529,38.8061,大连市,旅顺,细颗粒物(PM2.5),68,61,58,49,37,83,,98,88,34,24,8,8,0.8,0.6
2025-04-08T2200,1116A,121.7485,39.1311,大连市,金州,颗粒物(PM10),75,100,70,39,29,111,,111,104,26,25,7,8,1.1,1
2025-04-08T2200,1117A,121.7811,39.0496,大连市,开发区,颗粒物(PM10),64,77,74,43,34,96,,101,101,33,30,11,11,0.8,0.7
2025-04-08T2200,1118A,121.9762,39.0631,大连市,双D港,颗粒物(PM10),55,60,62,33,23,110,,118,112,21,21,9,10,0.5,0.5
2025-04-08T2200,1789A,124.81117,46.03138,大庆市,大同区,,42,36,55,29,46,72,,81,81,9,13,5,5,0.4,0.6
2025-04-08T2200,1790A,125.129,46.533,大庆市,龙凤区,,41,41,59,17,36,69,,95,82,15,22,6,7,0.5,0.7
2025-04-08T2200,1791A,124.902,46.408,大庆市,红岗区,,33,30,51,23,45,79,,102,95,14,13,7,7,0.3,0.4
2025-04-08T2200,1792A,125.153,46.586,大庆市,萨尔图区,,42,42,60,21,39,77,,90,80,16,26,7,7,0.4,0.7
2025-04-08T2200,1793A,124.9042,46.6215,大庆市,让胡路区,,39,,43,27,40,79,,90,86,16,15,6,6,0.2,0.3
2025-04-08T2200,3481A,125.141,46.634,大庆市,萨区政府监测点,,30,29,57,9,30,93,,101,96,11,19,6,6,0.4,0.5
2025-04-08T2200,1721A,113.3819,40.1097,大同市,果树场,,50,,66,35,28,40,,98,76,36,32,12,13,0.9,0.7
2025-04-08T2200,1723A,113.2994,40.0758,大同市,云冈宾馆,颗粒物(PM10),63,75,89,18,22,69,,108,93,27,38,8,14,0.7,0.8
2025-04-08T2200,1724A,113.3444,40.0917,大同市,大同大学,,30,30,51,21,22,58,,111,85,24,26,10,16,1.0,0.6
2025-04-08T2200,1725A,113.2661,40.1269,大同市,安家小村,,45,37,65,31,31,50,,106,86,31,29,9,15,0.9,1.4
2025-04-08T2200,1726A,113.2711,40.0844,大同市,教育学院,,40,34,57,28,26,56,,106,85,34,33,8,12,0.6,1
2025-04-08T2200,3282A,113.3397,40.0597,大同市,大同市卫生学校,,35,32,47,24,24,63,,104,84,31,29,6,12,0.9,0.7
2025-04-08T2200,3565A,113.1367,40.1122,大同市,云冈站,,30,30,55,21,28,59,,96,82,15,27,9,19,0.5,0.6
2025-04-08T2200,3566A,113.1186,40.2556,大同市,图书馆,,36,,57,25,27,52,,95,77,24,17,10,12,0.7,0.7
2025-04-08T2200,3567A,113.5931,40.0461,大同市,区一中,,43,33,37,30,21,62,,114,90,29,14,11,12,0.9,0.4
2025-04-08T2200,4199A,113.2798,40.0997,大同市,魏都大道141号,颗粒物(PM10),51,52,67,32,30,60,,108,89,32,33,12,16,0.8,1
2025-04-08T2200,2269A,124.1069,50.4097,大兴安岭地区,科技局,,28,16,20,8,13,89,,95,92,3,5,8,8,0.4,0.4
2025-04-08T2200,3663A,124.1164,50.4278,大兴安岭地区,红旗社区,,28,9,13,3,5,87,,92,90,3,7,4,4,0.4,0.4
2025-04-08T2200,1600A,124.3303,40.0625,丹东市,江湾东路,细颗粒物(PM2.5),75,78,69,55,46,40,,123,93,31,26,10,9,1.0,1.3
2025-04-08T2200,1601A,124.4256,40.1503,丹东市,临江后街,细颗粒物(PM2.5),94,108,66,70,42,41,,111,90,43,22,7,6,1.3,0.8
2025-04-08T2200,1602A,124.3933,40.1461,丹东市,元宝山,颗粒物(PM10),60,70,60,41,36,64,,106,93,26,21,7,6,0.7,0.5
2025-04-08T2200,1603A,124.3633,40.1092,丹东市,民主桥,细颗粒物(PM2.5),80,84,70,59,40,46,,113,90,40,31,16,9,1.7,1.1
2025-04-08T2200,3541A,109.5726,19.5167,儋州市,第一中学子站,,44,44,29,23,13,83,,76,76,9,6,5,4,0.7,0.6
2025-04-08T2200,3542A,109.5567,19.5187,儋州市,东坡学校子站,,38,33,28,26,16,92,,89,89,10,5,5,5,0.6,0.5
2025-04-08T2200,2616A,98.5842,24.428,德宏傣族景颇族自治州,德宏州监测站,细颗粒物(PM2.5),120,133,117,91,89,44,,143,122,56,33,9,11,1.4,1.2
2025-04-08T2200,3677A,98.5881,24.4368,德宏傣族景颇族自治州,芒市人民政府综合楼,细颗粒物(PM2.5),89,126,134,66,86,102,,150,138,16,22,7,10,0.9,1
2025-04-08T2200,1901A,104.4239,31.1208,德阳市,东山公园,颗粒物(PM10),68,86,76,37,41,164,,163,163,16,20,4,5,0.8,0.8
2025-04-08T2200,1902A,104.3826,31.1317,德阳市,西小区,颗粒物(PM10),80,110,104,55,56,78,,166,153,71,40,4,6,1.2,0.8
2025-04-08T2200,1904A,104.3553,31.1091,德阳市,耐火材料厂,颗粒物(PM10),96,142,105,63,58,105,,180,156,53,51,6,10,0.7,0.7
2025-04-08T2200,3639A,104.4019,31.1244,德阳市,市教育局,颗粒物(PM10),69,87,84,46,51,84,,154,139,65,45,5,7,1.0,0.8
2025-04-08T2200,1622A,116.3032,37.4674,德州市,儿童乐园,颗粒物(PM10),53,56,123,31,48,100,,150,125,17,32,5,14,0.5,0.6
2025-04-08T2200,1624A,116.2991,37.4451,德州市,监理站,,42,39,115,29,49,107,,155,131,14,28,13,21,0.4,0.6
2025-04-08T2200,3066A,116.2721,37.4379,德州市,九衢泉纯净水厂,,46,46,113,24,47,105,,157,133,25,36,9,17,0.6,0.8
2025-04-08T2200,3371A,116.3728,37.4403,德州市,开发区人民医院,,41,41,115,22,41,96,,149,125,20,31,6,14,0.6,0.8
2025-04-08T2200,3372A,116.3572,37.4094,德州市,太阳城中学,,46,46,111,27,49,94,,152,130,18,29,4,13,0.1,0.5
2025-04-08T2200,3511A,116.5652,37.3319,德州市,陵城艺术中心,,36,36,126,24,53,89,,141,117,17,30,2,12,0.5,0.8
2025-04-08T2200,2621A,99.7056,27.8317,迪庆藏族自治州,迪庆州站,颗粒物(PM10),51,52,51,24,26,118,,125,123,9,12,8,14,0.5,0.5
2025-04-08T2200,3180A,99.7136,27.8094,迪庆藏族自治州,质量技术监督局,,38,38,39,22,22,119,,127,124,8,12,10,10,0.4,0.6
2025-04-08T2200,4257A,104.6092,35.5962,定西市,将台街,颗粒物(PM10),80,110,159,36,38,103,,126,122,16,14,5,6,0.4,0.4
2025-04-08T2200,4309A,104.6159,35.5701,定西市,正龙路62号,颗粒物(PM10),89,127,174,40,38,112,,127,124,8,9,10,10,0.2,0.3
2025-04-08T2200,1389A,113.7547,23.0494,东莞市,莞城梨川,,,39,87,22,46,,,230,203,20,42,5,5,0.5,0.6
2025-04-08T2200,1390A,113.7944,23.0128,东莞市,东城石井,,39,39,69,23,37,64,,226,181,26,31,6,7,0.6,0.7
2025-04-08T2200,1391A,113.7383,22.9658,东莞市,南城西平,,45,45,66,24,33,84,,176,138,20,53,7,8,0.6,0.7
2025-04-08T2200,3319A,113.7338,23.0381,东莞市,万江金泰,,,48,72,25,38,,,216,190,24,40,7,8,0.8,0.8
2025-04-08T2200,3626A,113.7533,23.0202,东莞市,南城元岭,,41,41,72,20,37,78,,193,157,18,38,6,7,0.8,0.8
2025-04-08T2200,3627A,113.7875,23.0457,东莞市,东城主山,,43,43,98,22,44,65,,234,191,34,49,3,5,0.7,0.8
2025-04-08T2200,1666A,118.6614,37.4309,东营市,市环保局,,29,22,96,9,40,91,,114,99,16,18,5,10,0.4,0.8
2025-04-08T2200,3036A,118.6904,37.4338,东营市,开发区管委会,,40,40,103,14,44,82,,118,95,24,31,5,10,0.4,0.8
2025-04-08T2200,3365A,118.5719,37.565,东营市,垦利区民丰路,,28,24,83,7,42,89,,104,94,18,22,7,7,0.6,0.9
2025-04-08T2200,3498A,118.5055,37.8612,东营市,河口城区,,36,36,93,7,33,89,,108,99,15,20,4,6,0.7,0.9
2025-04-08T2200,3646A,118.4978,37.4623,东营市,胜利站,,36,36,103,9,41,90,,107,100,19,22,12,12,0.6,0.8
2025-04-08T2200,3734A,118.35,37.26,东营市,理想之城,,27,27,94,14,40,85,,105,95,20,25,8,11,0.4,0.7
2025-04-08T2200,1591A,110.0023,39.8129,鄂尔多斯市,综合楼,颗粒物(PM10),70,90,85,34,24,60,,95,86,38,35,11,9,0.5,0.4
2025-04-08T2200,1592A,109.9486,39.8261,鄂尔多斯市,巴音孟克林场办事处,颗粒物(PM10),71,92,81,29,23,64,,99,88,36,32,14,10,0.4,0.4
2025-04-08T2200,1593A,109.7736,39.5986,鄂尔多斯市,康泽苑,颗粒物(PM10),65,80,77,24,21,56,,104,92,33,24,5,4,0.4,0.3
2025-04-08T2200,1594A,109.8119,39.5989,鄂尔多斯市,华泰汽车城,颗粒物(PM10),60,70,72,31,23,52,,98,87,34,31,5,5,0.7,0.5
2025-04-08T2200,1595A,109.9734,39.7884,鄂尔多斯市,奥林花园,颗粒物(PM10),67,83,85,31,21,59,,98,87,38,33,9,8,0.5,0.4
2025-04-08T2200,2436A,114.8938,30.3994,鄂州市,市政府,"颗粒物(PM10),细颗粒物(PM2.5)",72,94,95,52,53,123,,166,158,23,23,14,15,1.1,0.9
2025-04-08T2200,2437A,114.8989,30.3714,鄂州市,赵家坝,颗粒物(PM10),79,108,88,47,42,83,,126,113,32,18,11,11,1.3,1
2025-04-08T2200,3654A,114.8094,30.4089,鄂州市,精准医疗中心,颗粒物(PM10),80,109,102,56,57,92,,179,163,36,34,15,18,1.2,1.2
2025-04-08T2200,2454A,109.4978,30.2981,恩施土家族苗族自治州,湖北民院,细颗粒物(PM2.5),63,74,58,45,35,71,,126,113,26,19,1,1,0.3,0.3
2025-04-08T2200,2455A,109.4707,30.2798,恩施土家族苗族自治州,州电力总公司,细颗粒物(PM2.5),70,83,63,51,38,34,,114,98,43,26,6,5,0.4,0.3
2025-04-08T2200,3549A,109.5061,30.3772,恩施土家族苗族自治州,龙凤新区,颗粒物(PM10),58,65,54,25,31,43,,130,106,25,15,7,6,0.6,0.5
2025-04-08T2200,2499A,108.3411,21.6158,防城港市,沙万,颗粒物(PM10),53,56,67,27,35,66,,73,60,13,31,3,4,0.6,0.6
2025-04-08T2200,2500A,108.3514,21.7731,防城港市,防城档案局,颗粒物(PM10),53,55,55,35,38,63,,66,64,7,16,9,3,0.5,0.7
2025-04-08T2200,2501A,108.3506,21.6414,防城港市,大海花园,细颗粒物(PM2.5),80,,54,59,32,47,,92,71,29,21,2,5,0.8,0.9
2025-04-08T2200,1371A,113.1294,23.0067,佛山市,湾梁,颗粒物(PM10),68,85,84,34,33,77,,197,175,53,41,8,9,0.9,0.8
2025-04-08T2200,1372A,113.1083,23.0478,佛山市,华材职中,颗粒物(PM10),84,117,77,45,38,73,,205,176,78,43,7,8,0.9,0.6
2025-04-08T2200,1373A,113.144,23.0453,佛山市,南海气象局,颗粒物(PM10),83,115,74,46,38,58,,191,166,81,33,7,8,0.9,0.6
2025-04-08T2200,1374A,113.2881,22.8094,佛山市,顺德苏岗,颗粒物(PM10),58,65,75,31,35,66,,193,164,32,36,6,7,0.7,0.7
2025-04-08T2200,1376A,112.8383,22.8678,佛山市,高明孔堂,颗粒物(PM10),66,82,64,43,34,135,,204,198,31,24,7,6,0.8,0.6
2025-04-08T2200,1377A,112.8836,23.1588,佛山市,三水监测站,颗粒物(PM10),93,136,92,57,40,47,,159,143,100,70,4,4,0.9,0.7
2025-04-08T2200,1378A,112.867,23.185,佛山市,三水云东海,颗粒物(PM10),71,92,79,51,42,78,,160,145,56,56,2,3,0.8,0.7
2025-04-08T2200,3625A,113.2544,22.7642,佛山市,容桂街道办,,46,46,70,31,40,70,,209,169,32,37,7,8,0.7,0.8
2025-04-08T2200,1280A,119.3903,26.0543,福州市,鼓山,,,,56,,24,,,114,,,8,,2,,0.6
2025-04-08T2200,1282A,119.2681,26.0504,福州市,师大,细颗粒物(PM2.5),68,81,65,49,30,97,,142,132,22,14,6,5,0.6,0.4
2025-04-08T2200,1283A,119.2984,26.1028,福州市,五四北路,"颗粒物(PM10),细颗粒物(PM2.5)",64,78,66,46,33,90,,138,125,32,23,6,5,0.8,0.6
2025-04-08T2200,1284A,119.2648,26.0768,福州市,杨桥西路,颗粒物(PM10),67,84,70,47,31,99,,142,132,27,21,6,5,0.7,0.6
2025-04-08T2200,1285A,119.317,26.0746,福州市,紫阳,细颗粒物(PM2.5),65,77,74,47,34,79,,116,99,39,32,7,6,0.6,0.5
2025-04-08T2200,3048A,119.5799,26.0936,福州市,九龙,,44,44,55,23,27,94,,144,130,9,12,3,5,0.3,0.4
2025-04-08T2200,3526A,119.5189,25.9664,福州市,吴航,颗粒物(PM10),63,75,73,38,36,82,,140,126,21,25,4,5,0.6,0.5
2025-04-08T2200,1755A,123.7977,41.8491,抚顺市,望花区,细颗粒物(PM2.5),139,149,82,106,46,29,,139,108,73,22,10,9,1.2,0.6
2025-04-08T2200,1756A,123.9161,41.8822,抚顺市,顺城区,细颗粒物(PM2.5),132,160,88,100,45,8,,132,83,90,29,9,8,1.2,0.7
2025-04-08T2200,1757A,124.0436,41.8611,抚顺市,东洲区,细颗粒物(PM2.5),117,133,92,88,49,63,,123,108,32,18,8,6,0.9,0.7
2025-04-08T2200,1758A,123.9247,41.8642,抚顺市,新抚区,颗粒物(PM10),96,141,80,70,38,9,,124,86,81,23,6,5,1.0,0.6
2025-04-08T2200,1759A,124.0972,41.8961,抚顺市,大伙房水库,细颗粒物(PM2.5),83,73,114,61,48,81,,125,115,18,12,7,8,0.6,0.5
2025-04-08T2200,1760A,123.7086,41.8391,抚顺市,沈抚新城,细颗粒物(PM2.5),172,168,82,130,45,31,,141,111,80,24,9,8,1.2,0.6
2025-04-08T2200,2376A,116.2127,28.0814,抚州市,桐源党溪,,,25,62,10,34,53,,110,94,3,5,,10,,0.6
2025-04-08T2200,2377A,116.3544,27.9831,抚州市,市站,细颗粒物(PM2.5),74,96,68,54,37,42,,94,71,43,26,8,12,1.5,1.1
2025-04-08T2200,2378A,116.3565,27.963,抚州市,血防站,颗粒物(PM10),64,77,67,39,35,46,,92,79,39,25,9,9,1.5,1.3
2025-04-08T2200,2379A,116.3564,28.0007,抚州市,采茶剧团,,,77,55,45,28,51,,89,82,18,6,1,2,,1.4
2025-04-08T2200,2380A,116.385,27.9647,抚州市,医学分院,颗粒物(PM10),61,71,77,40,32,40,,90,74,60,24,4,9,0.7,0.8
2025-04-08T2200,2207A,121.6094,41.998,阜新市,工业园区,细颗粒物(PM2.5),79,61,44,58,21,108,,122,119,19,12,12,8,0.6,0.4
2025-04-08T2200,2208A,121.6697,42.0279,阜新市,长青街,细颗粒物(PM2.5),78,,25,57,16,111,,124,121,20,11,15,6,0.6,0.4
2025-04-08T2200,2209A,121.6673,42.0705,阜新市,农业园区,颗粒物(PM10),52,54,33,31,12,114,,119,119,17,8,10,7,0.6,0.4
2025-04-08T2200,2210A,121.6717,42.0224,阜新市,东苑,细颗粒物(PM2.5),77,62,42,56,17,101,,116,113,26,12,22,6,0.6,0.4
2025-04-08T2200,2211A,121.6506,42.0498,阜新市,玉龙新城,细颗粒物(PM2.5),72,53,38,52,15,108,,122,120,15,10,12,7,0.7,0.5
2025-04-08T2200,2301A,115.8277,32.8929,阜阳市,市监测站,颗粒物(PM10),74,97,79,52,41,108,,149,134,27,16,12,10,0.4,0.5
2025-04-08T2200,2303A,115.8554,32.8605,阜阳市,开发区,颗粒物(PM10),82,114,93,42,39,101,,155,141,29,19,11,10,0.6,0.5
2025-04-08T2200,2875A,115.784,32.8892,阜阳市,阜阳职业技术学院,颗粒物(PM10),69,88,84,41,40,112,,142,135,22,15,10,10,0.5,0.5
2025-04-08T2200,3468A,115.7901,32.8613,阜阳市,市规划展馆,颗粒物(PM10),68,86,86,47,44,136,,159,152,20,12,12,10,0.6,0.5
2025-04-08T2200,3469A,115.836,32.9183,阜阳市,枣园社区,颗粒物(PM10),70,90,90,50,46,104,,159,143,30,29,10,8,0.7,0.6
2025-04-08T2200,2669A,102.9099,34.9841,甘南藏族自治州,州政府,颗粒物(PM10),93,135,134,39,38,90,,107,98,6,13,8,7,0.4,0.4
2025-04-08T2200,3380A,102.8914,34.9617,甘南藏族自治州,甘肃民族师范学院,颗粒物(PM10),95,140,113,37,35,77,,110,94,23,17,10,8,0.6,0.5
2025-04-08T2200,2570A,101.9603,30.0475,甘孜藏族自治州,水桥子,,22,22,34,12,10,54,,109,90,9,24,3,3,0.4,0.3
2025-04-08T2200,3065A,101.9533,29.9972,甘孜藏族自治州,州环保局,,39,39,40,12,7,90,,117,105,8,14,4,4,0.4,0.3
2025-04-08T2200,3414A,115.8347,28.932,赣江新区,桑海产业园,细颗粒物(PM2.5),74,88,80,54,38,17,,138,99,91,42,7,10,0.6,0.6
2025-04-08T2200,2362A,114.9017,25.9149,赣州市,通天岩,颗粒物(PM10),55,59,51,18,11,109,,163,145,6,5,4,16,1.0,0.9
2025-04-08T2200,2363A,114.9367,25.8664,赣州市,地委,颗粒物(PM10),65,79,62,43,38,16,,127,94,74,31,2,8,1.4,1.2
2025-04-08T2200,2364A,114.9461,25.8481,赣州市,气象台,颗粒物(PM10),68,86,69,40,34,23,,145,118,93,38,10,16,1.2,0.7
2025-04-08T2200,2365A,114.9322,25.8333,赣州市,市图书馆,细颗粒物(PM2.5),69,83,68,50,41,30,,146,119,84,38,5,10,1.5,1
2025-04-08T2200,2366A,114.8905,25.8471,赣州市,华坚鞋城,细颗粒物(PM2.5),72,82,76,52,39,82,,151,122,39,44,13,14,0.7,0.7
2025-04-08T2200,3109A,115.0093,25.8613,赣州市,赣县区卫计委,颗粒物(PM10),71,91,62,49,38,29,,132,109,52,28,6,14,1.1,0.5
2025-04-08T2200,2683A,106.2319,36.1417,固原市,马园,颗粒物(PM10),178,305,213,100,45,51,,105,90,38,22,4,5,0.6,0.5
2025-04-08T2200,2684A,106.2792,36.0022,固原市,监测站,颗粒物(PM10),164,278,173,78,39,66,,110,102,32,9,6,6,0.5,0.2
2025-04-08T2200,2685A,106.2375,36.0211,固原市,新区,颗粒物(PM10),157,263,164,74,38,52,,108,97,45,11,6,6,0.5,0.4
2025-04-08T2200,3522A,106.2177,35.9959,固原市,原州区十五小,颗粒物(PM10),156,262,152,81,43,65,,112,100,30,10,8,8,0.3,0.2
2025-04-08T2200,2543A,106.6308,30.5278,广安市,小平旧居,,,,,,,,,,,,,,,,
2025-04-08T2200,2544A,106.6303,30.4576,广安市,市委,颗粒物(PM10),76,101,86,53,45,43,,138,113,61,26,10,8,0.8,0.6
2025-04-08T2200,2545A,106.6271,30.4663,广安市,友谊中学,颗粒物(PM10),71,91,76,48,40,42,,144,116,58,24,4,4,1.0,0.7
2025-04-08T2200,2547A,106.6388,30.4551,广安市,广电花园,颗粒物(PM10),79,107,86,54,44,25,,138,111,75,33,10,10,1.0,0.7
2025-04-08T2200,2902A,106.6351,30.4865,广安市,北辰小学,细颗粒物(PM2.5),77,93,76,56,39,83,,148,134,28,17,12,9,1.0,0.8
2025-04-08T2200,2523A,105.8945,32.4535,广元市,黑石坡,颗粒物(PM10),68,86,84,29,25,115,,122,122,7,13,2,7,0.3,0.4
2025-04-08T2200,2524A,105.821,32.4444,广元市,老城,颗粒物(PM10),69,88,75,29,27,27,,125,102,68,40,1,6,0.7,1
2025-04-08T2200,2526A,105.8628,32.4287,广元市,监测站,颗粒物(PM10),62,73,62,28,28,82,,129,120,17,19,6,12,0.4,0.5
2025-04-08T2200,3617A,105.8047,32.4166,广元市,经开区,颗粒物(PM10),74,98,84,35,37,33,,120,102,65,37,4,10,0.8,0.8
2025-04-08T2200,1345A,113.2347,23.1423,广州市,广雅中学,"颗粒物(PM10),细颗粒物(PM2.5)",84,118,83,62,41,42,,134,106,110,63,6,6,1.0,0.7
2025-04-08T2200,1346A,113.2612,23.105,广州市,市五中,颗粒物(PM10),82,114,83,46,40,64,,167,148,73,48,3,4,1.0,0.7
2025-04-08T2200,1348A,113.3478,23.0916,广州市,广东商学院,颗粒物(PM10),74,98,70,50,41,15,,184,156,128,54,5,6,0.9,0.6
2025-04-08T2200,1349A,113.4332,23.1047,广州市,市八十六中,,45,45,74,18,33,13,,136,110,84,69,4,5,0.8,0.8
2025-04-08T2200,1350A,113.3505,22.9483,广州市,番禺中学,,48,48,66,27,34,53,,196,161,44,35,4,5,0.6,0.6
2025-04-08T2200,1351A,113.2146,23.3916,广州市,花都师范,颗粒物(PM10),81,111,91,55,42,74,,121,118,62,72,6,7,0.9,0.7
2025-04-08T2200,1352A,113.2597,23.1331,广州市,市监测站,颗粒物(PM10),77,103,74,53,36,69,,152,133,75,54,7,7,0.8,0.5
2025-04-08T2200,1353A,113.5618,23.312,广州市,九龙镇镇龙,细颗粒物(PM2.5),87,112,88,64,47,12,,159,133,95,62,5,6,0.9,0.7
2025-04-08T2200,1354A,113.2765,23.1544,广州市,麓湖,细颗粒物(PM2.5),67,81,67,48,35,44,,170,146,87,58,4,5,0.9,0.6
2025-04-08T2200,1355A,113.443,23.3035,广州市,帽峰山森林公园,颗粒物(PM10),63,75,68,30,29,139,,137,137,26,37,5,6,0.7,0.6
2025-04-08T2200,2846A,113.3221,23.1322,广州市,体育西,细颗粒物(PM2.5),87,115,84,64,43,39,,176,152,92,42,6,5,1.1,0.6
2025-04-08T2200,3298A,113.5717,23.5491,广州市,从化街口,细颗粒物(PM2.5),112,132,91,84,54,39,,161,135,65,49,8,10,1.2,0.9
2025-04-08T2200,3299A,113.3472,23.3692,广州市,白云竹料,细颗粒物(PM2.5),102,134,93,76,48,67,,167,154,76,54,8,9,1.0,0.7
2025-04-08T2200,3300A,113.2981,23.237,广州市,白云嘉禾,颗粒物(PM10),91,132,93,65,45,44,,128,105,108,79,6,7,1.1,0.6
2025-04-08T2200,3301A,113.4256,23.1716,广州市,黄埔科学城,颗粒物(PM10),67,83,76,40,39,53,,162,139,58,45,6,7,0.6,0.5
2025-04-08T2200,3302A,113.3942,23.0483,广州市,番禺大学城,颗粒物(PM10),63,75,86,24,33,55,,205,178,58,39,10,11,0.5,0.5
2025-04-08T2200,3303A,113.4922,22.8168,广州市,南沙黄阁,,42,42,67,19,31,82,,143,126,19,35,5,6,0.7,0.7
2025-04-08T2200,3304A,113.5342,22.7896,广州市,南沙街,,47,47,59,18,29,87,,139,118,18,27,4,5,0.5,0.6
2025-04-08T2200,3443A,113.2902,23.5544,广州市,花都梯面,颗粒物(PM10),60,69,63,40,34,27,,128,105,59,49,5,7,0.8,0.7
2025-04-08T2200,3445A,113.7858,23.7478,广州市,从化良口,细颗粒物(PM2.5),57,60,60,40,39,90,,152,141,21,19,7,7,0.7,0.7
2025-04-08T2200,3446A,113.8051,23.2614,广州市,增城荔城,细颗粒物(PM2.5),80,98,83,59,47,61,,211,187,41,32,6,7,0.6,0.5
2025-04-08T2200,2505A,109.568,23.1478,贵港市,德智高中,,,,,,,,,,,,,,,,
2025-04-08T2200,2506A,109.6047,23.0666,贵港市,江南子站,颗粒物(PM10),75,100,97,49,54,45,,109,92,42,34,3,7,0.7,0.8
2025-04-08T2200,2508A,109.5669,23.1065,贵港市,荷城子站,细颗粒物(PM2.5),83,114,97,61,54,23,,86,60,60,42,4,7,0.7,0.6
2025-04-08T2200,3405A,109.5886,23.1172,贵港市,新世纪学校,细颗粒物(PM2.5),79,95,98,58,60,20,,85,65,69,40,6,7,1.1,1.1
2025-04-08T2200,4260A,109.5933,23.0951,贵港市,中山路155-3号,"颗粒物(PM10),细颗粒物(PM2.5)",79,107,105,58,58,27,,106,85,55,32,6,10,1.3,1
2025-04-08T2200,1439A,106.6899,26.5998,贵阳市,马鞍山,细颗粒物(PM2.5),52,44,46,36,33,30,,68,63,20,14,4,6,0.7,0.8
2025-04-08T2200,1441A,106.6243,26.6266,贵阳市,鉴湖路,细颗粒物(PM2.5),62,70,55,44,32,67,,79,79,17,12,10,10,0.7,0.6
2025-04-08T2200,1442A,106.7487,26.6343,贵阳市,燕子冲,细颗粒物(PM2.5),77,58,55,56,47,39,,74,70,21,20,3,5,0.7,0.7
2025-04-08T2200,1443A,106.6555,26.4365,贵阳市,碧云窝,细颗粒物(PM2.5),67,75,58,48,35,36,,82,78,26,16,6,7,0.7,0.7
2025-04-08T2200,1445A,106.7109,26.6027,贵阳市,红边门,细颗粒物(PM2.5),83,83,61,61,46,4,,66,56,60,21,17,8,1.6,1
2025-04-08T2200,1446A,106.7164,26.5699,贵阳市,新华路,细颗粒物(PM2.5),92,110,64,68,46,4,,71,60,63,23,13,13,1.2,0.7
2025-04-08T2200,1447A,106.674,26.5424,贵阳市,太慈桥,细颗粒物(PM2.5),70,75,54,51,39,14,,73,64,52,24,6,7,1.0,0.8
2025-04-08T2200,1552A,106.805,26.3003,贵阳市,桐木岭,细颗粒物(PM2.5),79,70,50,58,36,31,,81,74,8,5,9,3,0.9,0.8
2025-04-08T2200,4230A,106.6882,26.5695,贵阳市,花果园大街66号,细颗粒物(PM2.5),95,97,50,71,47,25,,73,70,68,23,9,7,1.3,0.7
2025-04-08T2200,4231A,106.6873,26.5169,贵阳市,漓江路57号,细颗粒物(PM2.5),92,105,56,68,42,11,,82,75,68,19,13,12,1.1,0.7
2025-04-08T2200,1862A,110.4144,25.3167,桂林市,电子科大尧山校区,,,,,,,,,,,,,,,,
2025-04-08T2200,1864A,110.3089,25.2708,桂林市,龙隐路小学,细颗粒物(PM2.5),142,118,138,108,110,34,,46,43,25,36,9,33,1.1,1
2025-04-08T2200,1865A,110.2869,25.2178,桂林市,八中,细颗粒物(PM2.5),138,134,151,105,108,32,,37,33,38,48,10,21,1.3,1.1
2025-04-08T2200,3531A,110.296,25.1253,桂林市,旅游学院,细颗粒物(PM2.5),125,97,121,95,96,42,,48,44,25,38,8,11,0.8,0.8
2025-04-08T2200,4222A,110.1835,25.2444,桂林市,环湖路276号,细颗粒物(PM2.5),175,146,149,132,112,9,,27,24,49,46,22,54,1.2,0.7
2025-04-08T2200,4301A,110.2803,25.2773,桂林市,信义路13号,细颗粒物(PM2.5),155,127,146,118,121,33,,45,44,39,48,8,42,1.1,1.3
2025-04-08T2200,2674A,100.2561,34.4714,果洛藏族自治州,玛沁县大武镇,颗粒物(PM10),79,107,83,30,29,98,,127,119,1,3,13,14,0.4,0.4
2025-04-08T2200,1129A,126.5422,45.755,哈尔滨市,岭北,,35,27,46,24,38,94,,122,109,16,21,16,19,0.7,0.9
2025-04-08T2200,1130A,126.561,45.8167,哈尔滨市,松北商大,,50,44,48,35,34,82,,123,106,17,25,8,8,0.7,0.7
2025-04-08T2200,1131A,126.979,45.5419,哈尔滨市,阿城会宁,细颗粒物(PM2.5),92,90,66,68,43,65,,127,104,19,23,7,13,0.7,0.9
2025-04-08T2200,1132A,126.599,45.7222,哈尔滨市,南岗学府路,颗粒物(PM10),55,59,62,28,33,81,,119,102,20,22,8,8,0.6,0.7
2025-04-08T2200,1133A,126.689,45.7733,哈尔滨市,太平宏伟公园,颗粒物(PM10),54,57,53,32,36,78,,126,106,25,20,6,6,0.7,0.7
2025-04-08T2200,1134A,126.635,45.7667,哈尔滨市,道外承德广场,细颗粒物(PM2.5),64,58,52,46,42,48,,118,93,51,24,7,7,0.8,0.7
2025-04-08T2200,1135A,126.685,45.7319,哈尔滨市,香坊红旗大街,细颗粒物(PM2.5),62,61,57,44,38,55,,124,101,46,22,6,7,0.7,0.7
2025-04-08T2200,1136A,126.6411,45.7258,哈尔滨市,动力和平路,,46,45,58,32,36,76,,113,98,24,24,7,8,0.5,0.5
2025-04-08T2200,1137A,126.593,45.7478,哈尔滨市,道里建国路,细颗粒物(PM2.5),65,67,51,47,38,47,,118,94,44,26,12,11,0.6,0.5
2025-04-08T2200,1138A,126.615,45.61,哈尔滨市,平房东轻厂,,49,49,58,29,36,58,,117,87,34,35,8,9,0.6,0.7
2025-04-08T2200,1139A,126.595,45.9855,哈尔滨市,呼兰师专,,45,31,47,31,38,77,,110,97,20,20,7,7,0.5,0.6
2025-04-08T2200,1140A,126.6206,45.6842,哈尔滨市,省农科院,颗粒物(PM10),74,97,73,41,45,66,,118,93,26,33,11,10,0.6,0.8
2025-04-08T2200,2688A,93.5128,42.8172,哈密市,地区监测站,颗粒物(PM10),67,83,50,19,14,53,,94,88,40,14,7,6,0.4,0.3
2025-04-08T2200,2689A,93.4961,42.8328,哈密市,哈密师范学校,颗粒物(PM10),79,107,44,18,14,31,,100,88,62,20,5,6,0.7,0.3
2025-04-08T2200,2671A,100.9048,36.9639,海北藏族自治州,海晏县西海镇,颗粒物(PM10),75,99,54,28,21,112,,121,120,1,4,9,7,0.4,0.4
2025-04-08T2200,3867A,102.0738,36.5056,海东市,平安区公安北苑,颗粒物(PM10),82,113,102,38,34,90,,112,108,12,10,16,9,1.1,0.6
2025-04-08T2200,1409A,110.576,19.9507,海口市,东寨港,,35,28,30,24,20,16,,30,29,6,6,6,6,0.6,0.6
2025-04-08T2200,1410A,110.3232,20.0574,海口市,海南大学,,50,50,39,24,20,61,,100,91,18,11,3,2,0.4,0.5
2025-04-08T2200,1411A,110.283,20.0053,海口市,秀英海南医院,,,46,37,,11,65,,102,90,18,11,5,4,0.5,0.4
2025-04-08T2200,1412A,110.338,19.9969,海口市,海南师范大学,,46,46,38,28,19,67,,104,92,11,6,4,4,0.5,0.5
2025-04-08T2200,1413A,110.33,20.0356,海口市,龙华路环保局宿舍,,48,48,37,22,20,60,,102,91,10,6,4,4,0.4,0.4
2025-04-08T2200,3539A,110.5111,19.9736,海口市,桂林洋子站,,40,40,34,23,19,71,,99,89,8,6,4,4,0.4,0.3
2025-04-08T2200,2673A,100.6188,36.2866,海南藏族自治州,共和县恰卜恰镇,颗粒物(PM10),78,106,128,31,45,105,,128,123,6,10,13,12,0.4,0.4
2025-04-08T2200,2676A,97.3731,37.3753,海西蒙古族藏族自治州,德令哈市,颗粒物(PM10),69,87,82,27,21,121,,123,122,2,6,8,8,0.2,0.4
2025-04-08T2200,1048A,114.5302,36.6116,邯郸市,东污水处理厂,颗粒物(PM10),56,62,85,3,36,33,,98,81,53,35,2,6,0.7,0.6
2025-04-08T2200,1049A,114.4918,36.5713,邯郸市,矿院,,45,42,78,31,43,37,,81,65,25,22,2,5,0.6,0.6
2025-04-08T2200,1050A,114.484,36.6133,邯郸市,丛台公园,颗粒物(PM10),51,51,96,24,48,46,,98,84,37,28,7,9,0.7,0.6
2025-04-08T2200,3458A,114.7895,36.5593,邯郸市,香泉濮院小区,,26,26,119,7,45,71,,100,96,17,27,3,6,0.2,0.4
2025-04-08T2200,3579A,114.50634,36.77178,邯郸市,永年区实验高中,颗粒物(PM10),60,70,109,28,48,49,,92,78,40,31,5,6,1.0,0.9
2025-04-08T2200,3580A,114.20016,36.44293,邯郸市,峰峰矿区临水派出所,,39,39,73,18,35,67,,130,93,19,15,8,11,0.7,0.8
2025-04-08T2200,2634A,106.9893,33.1842,汉中市,汉川机床厂子校,颗粒物(PM10),62,74,60,28,29,91,,128,119,6,7,7,9,0.5,0.6
2025-04-08T2200,2635A,107.0154,33.0706,汉中市,市监测站,颗粒物(PM10),83,115,76,36,31,75,,125,105,20,18,5,6,0.6,0.6
2025-04-08T2200,2636A,107.0089,33.1138,汉中市,鑫源开发区,颗粒物(PM10),68,86,75,44,32,66,,123,106,28,20,5,15,0.5,0.6
2025-04-08T2200,2637A,107.007,33.0323,汉中市,南郑大河坎水厂,颗粒物(PM10),74,98,69,32,29,77,,123,102,16,18,5,5,0.5,0.6
2025-04-08T2200,1223A,120.2072,30.2111,杭州市,滨江,颗粒物(PM10),72,93,77,48,33,101,,168,150,48,39,10,8,0.4,0.4
2025-04-08T2200,1224A,120.0633,30.2747,杭州市,西溪,颗粒物(PM10),65,79,64,41,38,99,,162,145,31,34,7,6,0.5,0.5
2025-04-08T2200,1226A,120.3417,30.3150,杭州市,下沙,"颗粒物(PM10),细颗粒物(PM2.5)",73,95,68,53,32,96,,148,133,61,41,10,8,0.5,0.4
2025-04-08T2200,1227A,120.1269,30.2456,杭州市,卧龙桥,颗粒物(PM10),61,72,59,42,39,50,,164,133,40,30,6,6,0.5,0.5
2025-04-08T2200,1228A,120.1903,30.2692,杭州市,浙江农大,细颗粒物(PM2.5),78,102,74,57,39,62,,149,127,81,45,8,5,0.5,0.5
2025-04-08T2200,1230A,120.1197,30.3119,杭州市,和睦小学,颗粒物(PM10),70,90,72,43,39,87,,169,150,53,38,10,8,0.8,0.7
2025-04-08T2200,1231A,120.3019,30.4183,杭州市,临平镇,颗粒物(PM10),82,113,82,52,35,106,,162,145,51,40,7,7,0.7,0.6
2025-04-08T2200,1232A,120.2753,30.1839,杭州市,城厢镇,颗粒物(PM10),72,93,71,45,35,84,,169,140,62,36,12,10,0.7,0.6
2025-04-08T2200,1233A,120.0883,30.1808,杭州市,云栖,颗粒物(PM10),64,78,67,37,32,26,,166,118,70,49,10,10,0.8,0.7
2025-04-08T2200,3557A,119.9464,30.0494,杭州市,镇二中,细颗粒物(PM2.5),74,89,62,54,40,71,,151,136,53,42,7,7,0.8,0.7
2025-04-08T2200,3558A,119.7183,30.2367,杭州市,市府大楼,颗粒物(PM10),68,86,63,48,35,89,,159,144,31,25,8,8,0.8,0.6
2025-04-08T2200,3656A,120.1556,30.2864,杭州市,消防大队,细颗粒物(PM2.5),82,102,78,60,42,87,,172,148,59,41,7,5,0.6,0.6
2025-04-08T2200,1270A,117.1959,31.7848,合肥市,明珠广场,颗粒物(PM10),62,73,76,34,40,88,,163,142,54,40,5,6,0.5,0.5
2025-04-08T2200,1271A,117.3072,31.8764,合肥市,三里街,颗粒物(PM10),73,95,82,41,36,44,,146,116,94,45,9,8,1.1,0.8
2025-04-08T2200,1272A,117.2588,31.8707,合肥市,琥珀山庄,颗粒物(PM10),62,73,76,36,42,94,,161,130,39,31,4,4,0.6,0.7
2025-04-08T2200,1273A,117.1604,31.9052,合肥市,董铺水库,颗粒物(PM10),57,63,75,31,38,89,,163,145,42,24,2,3,0.4,0.4
2025-04-08T2200,1274A,117.25,31.8571,合肥市,长江中路,颗粒物(PM10),62,73,79,40,42,108,,159,141,38,36,9,10,0.7,0.7
2025-04-08T2200,1275A,117.266,31.9436,合肥市,庐阳区,颗粒物(PM10),68,85,81,41,36,69,,161,134,78,41,8,7,0.5,0.5
2025-04-08T2200,1276A,117.3453,31.8616,合肥市,瑶海区,颗粒物(PM10),70,90,86,42,37,67,,153,128,76,34,10,9,0.7,0.7
2025-04-08T2200,1277A,117.3027,31.7964,合肥市,包河区,颗粒物(PM10),65,80,80,36,39,57,,161,129,107,62,8,8,0.6,0.6
2025-04-08T2200,1278A,117.2776,31.7385,合肥市,滨湖新区,颗粒物(PM10),58,66,75,34,44,130,,158,147,20,18,6,7,0.5,0.6
2025-04-08T2200,1279A,117.1318,31.8403,合肥市,高新区,颗粒物(PM10),58,66,72,29,33,101,,156,137,40,26,3,4,0.6,0.5
2025-04-08T2200,3464A,117.3803,31.9147,合肥市,高教基地,颗粒物(PM10),69,87,80,38,43,91,,174,144,41,27,7,7,0.4,0.4
2025-04-08T2200,3614A,79.924,37.0877,和田地区,地区环保局,颗粒物(PM10),114,178,273,38,69,55,,97,92,42,12,1,2,0.3,0.4
2025-04-08T2200,3615A,79.9131,37.113,和田地区,市环保局,颗粒物(PM10),104,158,238,28,38,57,,103,98,37,14,3,2,0.8,0.1
2025-04-08T2200,2516A,108.2011,24.715,河池市,东仁乐园,细颗粒物(PM2.5),102,113,115,76,83,45,,72,68,27,19,9,11,1.3,1.3
2025-04-08T2200,2517A,108.0497,24.6947,河池市,市环保站,细颗粒物(PM2.5),102,100,106,76,78,60,,73,70,13,17,11,9,0.8,0.8
2025-04-08T2200,2518A,108.0983,24.6989,河池市,市疾控中心,细颗粒物(PM2.5),102,93,98,76,79,41,,76,69,37,21,7,10,0.9,0.9
2025-04-08T2200,1696A,114.6778,23.7569,河源市,源西,颗粒物(PM10),60,70,67,33,36,27,,98,73,54,38,4,5,0.8,0.8
2025-04-08T2200,1697A,114.6944,23.7586,河源市,东埔,颗粒物(PM10),76,101,73,47,38,30,,121,92,59,29,4,6,1.4,0.8
2025-04-08T2200,1698A,114.6892,23.7233,河源市,老城,细颗粒物(PM2.5),59,57,67,42,41,53,,121,102,21,23,4,6,0.7,0.6
2025-04-08T2200,1718A,115.4208,35.2464,菏泽市,气象局,颗粒物(PM10),82,113,151,45,70,102,,160,138,16,39,7,7,0.3,0.6
2025-04-08T2200,3374A,115.5564,35.0891,菏泽市,定陶老年大学,颗粒物(PM10),106,161,131,51,60,92,,148,129,23,35,9,7,0.4,0.6
2025-04-08T2200,4184A,115.4797,35.24401,菏泽市,永昌路1号,颗粒物(PM10),98,146,182,45,71,93,,152,132,17,44,10,10,0.3,0.5
2025-04-08T2200,4193A,115.4715,35.2800,菏泽市,长城路999号,颗粒物(PM10),79,108,154,33,67,97,,163,141,21,52,11,12,0.3,0.6
2025-04-08T2200,2514A,111.5264,24.4172,贺州市,环保小区,细颗粒物(PM2.5),98,116,82,73,49,56,,116,108,43,32,7,10,1.1,0.8
2025-04-08T2200,2515A,111.5608,24.4078,贺州市,政协大楼,细颗粒物(PM2.5),93,106,68,69,45,31,,115,101,58,26,9,11,1.0,0.8
2025-04-08T2200,3534A,111.4744,24.4553,贺州市,西湾,细颗粒物(PM2.5),79,92,77,58,50,63,,120,114,43,31,7,9,0.9,0.8
2025-04-08T2200,2385A,114.17,35.9019,鹤壁市,市监测站,颗粒物(PM10),53,55,102,34,52,79,,109,100,19,20,6,11,0.8,1.1
2025-04-08T2200,2386A,114.2956,35.7511,鹤壁市,市交警支队,颗粒物(PM10),56,61,111,16,44,76,,109,102,34,26,9,11,1.3,0.7
2025-04-08T2200,2387A,114.2878,35.7306,鹤壁市,迎宾馆,,48,48,117,25,42,83,,115,107,26,20,6,9,1.3,0.8
2025-04-08T2200,3474A,114.2617,35.6822,鹤壁市,大新区,颗粒物(PM10),51,51,115,21,68,88,,115,106,21,21,10,13,1.0,0.9
2025-04-08T2200,3596A,114.1572,35.9603,鹤壁市,南山宾馆,颗粒物(PM10),51,52,104,30,53,94,,110,103,17,22,3,9,0.6,0.9
2025-04-08T2200,2244A,130.2537,47.3416,鹤岗市,哈啤分公司,,33,26,31,23,24,82,,104,99,8,9,14,15,0.3,0.3
2025-04-08T2200,2245A,130.2684,47.3086,鹤岗市,斯达机电,颗粒物(PM10),54,58,39,24,23,102,,105,104,7,11,14,15,0.4,0.4
2025-04-08T2200,2246A,130.3114,47.3388,鹤岗市,东山纸板厂,,50,46,70,35,37,76,,95,80,11,21,13,15,0.8,1.5
2025-04-08T2200,2247A,130.1097,47.3382,鹤岗市,五号水库,,,,,,,,,,,,,,,,
2025-04-08T2200,2263A,127.4833,50.2524,黑河市,交通局,,32,32,34,13,20,70,,89,78,11,10,7,7,0.4,0.4
2025-04-08T2200,2264A,127.5144,50.2341,黑河市,环保局,,24,14,30,7,20,75,,95,85,8,9,3,4,0.4,0.4
2025-04-08T2200,2265A,127.5291,50.2472,黑河市,大黑河岛,,,,28,,18,,,88,,,8,,1,,0.3
2025-04-08T2200,1074A,115.6838,37.7541,衡水市,电机北厂,颗粒物(PM10),57,64,116,28,59,100,,159,138,16,38,2,12,0.3,0.6
2025-04-08T2200,1075A,115.6303,37.7316,衡水市,市监测站,颗粒物(PM10),58,66,95,26,46,101,,156,138,15,32,9,14,0.2,0.5
2025-04-08T2200,3188A,115.6683,37.7217,衡水市,市城管局,颗粒物(PM10),52,53,94,34,50,92,,152,133,19,35,15,16,0.3,0.5
2025-04-08T2200,3459A,115.5989,37.5491,衡水市,地表水厂,颗粒物(PM10),58,66,108,29,50,95,,163,141,20,35,13,15,0.3,0.6
2025-04-08T2200,2456A,112.5003,26.9167,衡阳市,原169医院,细颗粒物(PM2.5),64,69,82,46,51,52,,89,78,18,22,8,11,0.7,0.8
2025-04-08T2200,2457A,112.6194,26.9258,衡阳市,衡阳化工总厂,,,85,99,54,58,64,,107,86,20,21,,10,0.9,1
2025-04-08T2200,2458A,112.6211,26.8956,衡阳市,珠晖区环保局,细颗粒物(PM2.5),60,67,87,43,52,73,,113,98,14,26,8,9,0.8,0.9
2025-04-08T2200,2459A,112.6197,26.8733,衡阳市,市委党校,细颗粒物(PM2.5),80,96,93,59,50,49,,113,90,34,23,6,6,0.8,0.8
2025-04-08T2200,2460A,112.6006,26.8919,衡阳市,市监测站,细颗粒物(PM2.5),72,87,89,52,58,59,,107,88,28,30,8,9,0.9,1
2025-04-08T2200,2461A,112.5664,26.9056,衡阳市,真空机电公司,细颗粒物(PM2.5),68,76,95,49,56,36,,110,90,47,32,7,8,1.0,1.2
2025-04-08T2200,3399A,112.6703,26.882,衡阳市,师范学院,细颗粒物(PM2.5),77,91,86,56,58,60,,120,99,23,17,12,13,0.8,0.8
2025-04-08T2200,2608A,103.3772,23.3993,红河哈尼族彝族自治州,污水处理厂,细颗粒物(PM2.5),68,67,61,49,50,98,,139,121,9,12,8,9,0.5,0.5
2025-04-08T2200,2609A,103.3861,23.35,红河哈尼族彝族自治州,监测站,细颗粒物(PM2.5),75,74,69,55,48,95,,144,121,10,10,12,13,0.4,0.4
2025-04-08T2200,3038A,103.3758,23.368,红河哈尼族彝族自治州,州图书馆,颗粒物(PM10),56,61,54,39,46,98,,149,122,10,10,6,9,0.4,0.5
2025-04-08T2200,1090A,111.6507,40.7517,呼和浩特市,呼市一监,,50,39,44,35,21,56,,76,70,18,15,9,10,0.6,0.6
2025-04-08T2200,1091A,111.6572,40.8033,呼和浩特市,小召,,49,34,41,34,18,59,,71,69,26,24,5,6,0.6,0.5
2025-04-08T2200,1094A,111.7516,40.8369,呼和浩特市,如意水处理厂,颗粒物(PM10),65,79,50,46,22,43,,76,70,40,31,6,7,0.6,0.5
2025-04-08T2200,1095A,111.7276,40.8062,呼和浩特市,二十九中,细颗粒物(PM2.5),52,52,39,36,20,58,,73,70,24,18,3,4,0.4,0.6
2025-04-08T2200,1096A,111.5512,40.7866,呼和浩特市,工大金川校区,,45,42,41,31,19,58,,74,73,25,34,6,7,0.6,0.6
2025-04-08T2200,1097A,111.717,40.7612,呼和浩特市,化肥厂生活区,颗粒物(PM10),53,55,54,35,24,60,,76,70,26,22,7,8,0.6,0.6
2025-04-08T2200,3698A,111.5968,40.8178,呼和浩特市,红旗小学,,46,39,43,32,19,56,,70,70,30,38,5,5,0.6,0.5
2025-04-08T2200,3699A,111.6518,40.8389,呼和浩特市,海东办,细颗粒物(PM2.5),57,56,39,40,20,41,,72,70,37,32,6,7,0.7,0.7
2025-04-08T2200,2192A,119.7594,49.2261,呼伦贝尔市,区环保局,,31,31,34,20,21,75,,89,85,6,10,4,4,0.2,0.2
2025-04-08T2200,3061A,119.7512,49.1577,呼伦贝尔市,国华电力东,,32,32,33,12,14,71,,91,83,5,6,4,4,0.2,0.3
2025-04-08T2200,1250A,120.0751,30.8669,湖州市,城西水厂,细颗粒物(PM2.5),58,63,57,41,34,109,,158,146,46,57,10,9,0.6,0.5
2025-04-08T2200,2873A,120.0830,30.8929,湖州市,仁皇山新区,颗粒物(PM10),65,79,74,43,36,120,,161,150,33,44,6,6,0.7,0.7
2025-04-08T2200,2907A,120.1844,30.8596,湖州市,吴兴区站,颗粒物(PM10),64,77,76,35,33,142,,159,153,26,40,8,9,0.6,0.6
2025-04-08T2200,3562A,120.4148,30.8538,湖州市,南浔区站,颗粒物(PM10),67,83,78,44,41,137,,175,171,38,36,10,6,0.5,0.5
2025-04-08T2200,1607A,120.9049,40.7211,葫芦岛市,龙港区,细颗粒物(PM2.5),70,78,49,51,17,74,,127,122,48,21,9,11,0.6,0.4
2025-04-08T2200,1608A,120.8392,40.7514,葫芦岛市,化工街,细颗粒物(PM2.5),62,63,40,44,18,47,,117,104,72,25,24,16,0.7,0.5
2025-04-08T2200,1609A,120.8341,40.7073,葫芦岛市,新区,细颗粒物(PM2.5),59,49,40,42,17,61,,123,114,59,22,10,13,0.8,0.6
2025-04-08T2200,1610A,120.8695,40.7677,葫芦岛市,东城区,细颗粒物(PM2.5),73,,39,53,18,52,,123,112,78,23,11,8,0.7,0.4
2025-04-08T2200,2482A,109.5981,27.5721,怀化市,林科所,细颗粒物(PM2.5),73,70,84,53,62,47,,25,25,11,16,4,7,0.8,0.9
2025-04-08T2200,2483A,109.9453,27.5444,怀化市,河西地税局,细颗粒物(PM2.5),77,68,76,56,61,39,,81,74,19,11,11,11,0.4,0.4
2025-04-08T2200,2484A,109.9781,27.5342,怀化市,市四医院,细颗粒物(PM2.5),83,107,104,61,66,30,,84,70,35,23,8,9,0.7,0.6
2025-04-08T2200,2485A,109.9972,27.5578,怀化市,监测楼,细颗粒物(PM2.5),80,86,86,59,63,33,,103,91,31,18,10,8,0.8,0.7
2025-04-08T2200,2486A,110.0394,27.583,怀化市,市委党校,细颗粒物(PM2.5),82,65,80,60,63,60,,87,80,12,18,5,6,1.0,0.8
2025-04-08T2200,1210A,119.036,33.5981,淮安市,钵池山,颗粒物(PM10),62,73,100,37,49,105,,163,136,21,21,11,15,0.7,1.1
2025-04-08T2200,1211A,119.007,33.575,淮安市,北京南路,颗粒物(PM10),69,88,104,35,51,109,,175,140,17,29,9,13,0.4,0.8
2025-04-08T2200,1212A,118.989,33.6067,淮安市,市监测站,颗粒物(PM10),60,70,100,34,47,113,,165,138,19,20,9,12,0.5,0.7
2025-04-08T2200,1213A,119.135,33.5039,淮安市,楚州区监测站,颗粒物(PM10),70,90,114,41,55,89,,149,122,22,27,8,11,0.5,0.6
2025-04-08T2200,3426A,118.8755,33.2894,淮安市,新华书店,颗粒物(PM10),66,82,100,34,57,103,,155,138,19,29,8,16,0.4,0.6
2025-04-08T2200,4206A,119.0288,33.6319,淮安市,承德北路606号,颗粒物(PM10),68,85,120,38,49,107,,160,130,15,22,8,13,0.5,0.9
2025-04-08T2200,2282A,116.8004,33.975,淮北市,监测站,颗粒物(PM10),85,119,104,60,53,152,,160,160,14,22,7,10,0.7,0.8
2025-04-08T2200,2283A,116.8091,33.9007,淮北市,烈山区政府,细颗粒物(PM2.5),94,118,111,70,57,147,,159,159,18,30,8,11,0.8,0.9
2025-04-08T2200,3330A,116.8873,33.9836,淮北市,杜集区检察院,颗粒物(PM10),86,122,107,60,59,153,,166,166,16,28,7,11,0.8,0.9
2025-04-08T2200,4017A,116.7923,33.9535,淮北市,市博物馆,颗粒物(PM10),80,109,108,55,59,146,,159,159,15,23,6,12,1.0,1
2025-04-08T2200,2277A,116.8305,32.7727,淮南市,潘集区政府,细颗粒物(PM2.5),98,133,99,73,50,110,,159,141,28,24,6,7,0.7,0.6
2025-04-08T2200,2279A,116.8569,32.5951,淮南市,谢家集区政府,颗粒物(PM10),88,126,86,46,39,120,,163,154,26,21,10,10,0.5,0.4
2025-04-08T2200,2280A,116.8281,32.633,淮南市,八公山区政府,颗粒物(PM10),87,123,94,48,42,104,,161,147,20,11,8,8,0.5,0.5
2025-04-08T2200,2281A,116.6325,32.6201,淮南市,焦岗湖风景区管理处,颗粒物(PM10),68,85,68,41,42,65,,91,87,26,20,9,9,0.7,0.6
2025-04-08T2200,2894A,117.0566,32.6531,淮南市,经济技术开发区消防队,颗粒物(PM10),70,90,87,44,44,123,,165,150,24,22,8,9,0.5,0.5
2025-04-08T2200,3329A,117.0108,32.5893,淮南市,山南新区,颗粒物(PM10),98,146,101,71,48,132,,168,160,17,14,11,10,0.8,0.6
2025-04-08T2200,4209A,117.0031,32.6445,淮南市,国庆中路369号,颗粒物(PM10),86,121,89,58,46,135,,168,157,22,20,14,13,0.5,0.5
2025-04-08T2200,2446A,114.9028,30.4742,黄冈市,职工中心,细颗粒物(PM2.5),70,78,75,51,50,127,,165,154,29,23,13,15,0.7,0.8
2025-04-08T2200,2929A,114.8858,30.4519,黄冈市,红卫路,颗粒物(PM10),65,80,75,45,43,123,,164,151,24,18,11,12,1.1,1.1
2025-04-08T2200,3398A,114.9136,30.4445,黄冈市,市林业局,,,96,79,44,45,133,,188,172,,21,12,15,0.9,0.9
2025-04-08T2200,2672A,102.0199,35.5102,黄南藏族自治州,同仁县隆务镇,颗粒物(PM10),82,113,176,33,54,85,,112,107,2,3,16,18,0.2,0.2
2025-04-08T2200,2295A,118.2903,29.6963,黄山市,延安路89号,细颗粒物(PM2.5),59,59,50,42,32,53,,131,106,20,10,7,6,0.5,0.4
2025-04-08T2200,2297A,118.1371,30.2756,黄山市,黄山区政府5号楼,颗粒物(PM10),62,74,56,36,31,47,,130,97,11,6,4,7,0.8,0.6
2025-04-08T2200,4210A,118.3354,29.7203,黄山市,滨江东路7-2号,颗粒物(PM10),66,82,58,47,29,39,,132,96,26,9,6,6,0.8,0.5
2025-04-08T2200,2423A,115.0601,30.2313,黄石市,沈家营,颗粒物(PM10),74,98,93,51,46,94,,174,153,53,33,15,12,1.0,0.9
2025-04-08T2200,2426A,114.8988,30.2019,黄石市,铁山,颗粒物(PM10),66,82,83,46,47,116,,166,157,36,22,17,16,0.2,0.4
2025-04-08T2200,2427A,115.0307,30.2092,黄石市,团城山,颗粒物(PM10),66,81,85,39,43,134,,166,162,20,31,15,14,0.7,0.8
2025-04-08T2200,3149A,115.0235,30.1578,黄石市,笔架山北路,颗粒物(PM10),60,69,76,36,43,152,,172,169,12,20,15,18,1.0,1
2025-04-08T2200,4185A,115.0780,30.21118,黄石市,磁湖东路29号,颗粒物(PM10),72,94,99,50,54,136,,176,171,33,34,20,15,0.9,0.9
2025-04-08T2200,1392A,114.4183,23.0528,惠州市,河南岸金山湖子站,,45,45,62,22,36,76,,135,115,18,25,8,10,0.6,0.6
2025-04-08T2200,1393A,114.4053,23.0822,惠州市,下埔横江三路子站,,47,47,65,25,34,84,,163,136,18,26,8,10,0.6,0.7
2025-04-08T2200,1394A,114.4103,23.1142,惠州市,江北云山西路子站,,46,46,66,22,33,88,,170,145,18,25,10,10,0.5,0.6
2025-04-08T2200,1395A,114.4645,22.7833,惠州市,惠阳区承修路船湖子站,颗粒物(PM10),61,72,69,34,33,95,,116,105,25,24,9,9,0.7,0.6
2025-04-08T2200,1396A,114.5317,22.7422,惠州市,大亚湾管委会子站,颗粒物(PM10),60,70,68,35,33,119,,130,128,24,29,8,7,0.6,0.6
2025-04-08T2200,3314A,114.4338,22.8134,惠州市,惠阳秋长,颗粒物(PM10),57,63,69,29,33,94,,134,119,14,20,8,6,0.8,0.8
2025-04-08T2200,3452A,114.6517,22.775,惠州市,大亚湾霞涌,颗粒物(PM10),56,61,56,39,35,113,,146,136,31,23,10,9,0.6,0.6
2025-04-08T2200,2240A,130.9762,45.3001,鸡西市,环保局,细颗粒物(PM2.5),92,87,51,68,35,74,,123,104,30,21,11,9,0.8,0.7
2025-04-08T2200,2243A,130.9429,45.3039,鸡西市,第一中学,细颗粒物(PM2.5),139,116,49,106,34,73,,120,104,28,19,11,9,1.1,0.7
2025-04-08T2200,3707A,131.0207,45.3073,鸡西市,欧美日汽修厂,细颗粒物(PM2.5),156,142,79,119,55,67,,136,104,38,27,12,10,1.1,0.8
2025-04-08T2200,3709A,130.9967,45.3106,鸡西市,市政设施管理处,细颗粒物(PM2.5),103,103,62,77,37,68,,118,93,33,28,9,8,0.9,0.7
2025-04-08T2200,2367A,114.9754,27.0803,吉安市,红声器材厂,颗粒物(PM10),65,80,70,43,39,89,,131,110,21,24,11,15,0.6,0.6
2025-04-08T2200,2368A,114.9658,27.0999,吉安市,市森林工业局,,,90,71,50,42,43,,129,101,54,30,,12,1.2,0.7
2025-04-08T2200,2369A,114.99,27.1312,吉安市,市环境监测站,细颗粒物(PM2.5),65,77,67,47,39,57,,138,115,41,25,17,18,1.0,0.6
2025-04-08T2200,2370A,115.0093,27.0968,吉安市,青原区法院,细颗粒物(PM2.5),75,85,72,55,42,34,,141,104,53,32,12,13,0.8,0.6
2025-04-08T2200,1772A,126.54,43.8622,吉林市,哈达湾,细颗粒物(PM2.5),93,100,70,69,45,80,,121,114,35,16,6,7,1.0,0.8
2025-04-08T2200,1773A,126.5844,43.8358,吉林市,东局子,细颗粒物(PM2.5),84,72,56,62,44,86,,113,106,27,18,6,6,0.8,0.6
2025-04-08T2200,1774A,126.5052,43.8245,吉林市,电力学院,细颗粒物(PM2.5),79,74,65,58,51,90,,119,103,20,16,5,5,0.9,0.8
2025-04-08T2200,1775A,126.6133,43.8972,吉林市,江北,细颗粒物(PM2.5),89,92,80,66,52,88,,113,102,25,21,5,8,0.8,0.7
2025-04-08T2200,1776A,126.555,43.8306,吉林市,江南公园,细颗粒物(PM2.5),89,83,60,66,48,88,,116,111,24,14,6,6,0.6,0.5
2025-04-08T2200,1778A,126.7061,43.7133,吉林市,丰满,细颗粒物(PM2.5),64,50,47,46,43,85,,140,128,11,11,5,6,1.1,1.1
2025-04-08T2200,2868A,126.4739,43.953,吉林市,九站,细颗粒物(PM2.5),67,57,62,48,48,106,,116,110,17,16,7,10,0.6,0.6
2025-04-08T2200,1299A,116.9862,36.6114,济南市,科干所,颗粒物(PM10),59,68,123,29,46,77,,145,112,30,47,6,14,0.5,0.8
2025-04-08T2200,1300A,116.9376,36.665,济南市,农科所,颗粒物(PM10),64,78,157,29,67,68,,144,107,27,55,6,17,0.3,0.8
2025-04-08T2200,1301A,117.1265,36.6734,济南市,开发区,颗粒物(PM10),72,93,135,34,50,76,,139,100,33,48,8,16,0.6,0.9
2025-04-08T2200,1303A,117.0624,36.6868,济南市,省种子仓库,颗粒物(PM10),70,90,172,31,68,79,,139,104,25,61,5,16,0.7,1.1
2025-04-08T2200,1304A,116.9489,36.6447,济南市,机床二厂,颗粒物(PM10),58,66,156,29,69,81,,148,114,27,54,7,19,0.4,0.8
2025-04-08T2200,1305A,117.0495,36.663,济南市,市监测站,颗粒物(PM10),64,78,148,27,58,71,,132,97,31,54,8,17,0.4,0.8
2025-04-08T2200,1306A,116.7675,36.5484,济南市,长清党校,颗粒物(PM10),57,63,148,32,47,93,,161,140,24,42,4,13,0.5,0.8
2025-04-08T2200,1616A,117.6795,36.229,济南市,技术学院,颗粒物(PM10),62,73,118,24,47,105,,172,137,18,35,11,14,0.6,0.8
2025-04-08T2200,1961A,117.532,36.6868,济南市,东山小学,颗粒物(PM10),127,203,151,39,53,85,,154,135,32,51,14,17,0.7,0.6
2025-04-08T2200,3059A,117.7161,36.2049,济南市,泰兴公司,颗粒物(PM10),63,75,124,22,54,102,,171,134,22,38,10,13,0.6,0.8
2025-04-08T2200,3064A,117.6867,36.2171,济南市,莱芜战役纪念馆,颗粒物(PM10),60,70,116,14,44,108,,174,138,21,34,6,10,0.5,0.8
2025-04-08T2200,3494A,117.1673,36.9782,济南市,济阳区政府,,,100,151,27,69,88,,148,123,21,29,,21,0.4,0.9
2025-04-08T2200,3495A,117.1171,36.63,济南市,锦屏中学,颗粒物(PM10),59,68,110,20,38,72,,143,124,30,34,8,14,0.4,0.6
2025-04-08T2200,3682A,116.9814,36.6819,济南市,济南四建,颗粒物(PM10),57,63,146,29,58,78,,158,105,24,66,4,17,0.4,0.8
2025-04-08T2200,1653A,116.6251,35.4302,济宁市,火炬城,颗粒物(PM10),69,88,119,41,65,114,,186,162,11,26,7,9,0.4,0.7
2025-04-08T2200,1655A,116.5491,35.4042,济宁市,电化厂,细颗粒物(PM2.5),117,128,137,88,75,118,,178,159,15,30,6,8,0.4,0.6
2025-04-08T2200,3500A,116.5814,35.3707,济宁市,北湖一中,颗粒物(PM10),70,89,111,22,45,117,,181,160,18,32,12,14,0.4,0.6
2025-04-08T2200,3501A,116.8249,35.5593,济宁市,服务中心,颗粒物(PM10),73,96,134,32,49,93,,185,140,21,39,6,8,0.4,0.9
2025-04-08T2200,3678A,116.5907,35.4054,济宁市,市第七中学,颗粒物(PM10),72,94,123,29,50,117,,182,160,17,33,7,8,0.4,0.7
2025-04-08T2200,2255A,130.2751,46.8028,佳木斯市,佳纺,颗粒物(PM10),66,82,82,34,39,78,,107,89,36,25,8,8,0.6,0.7
2025-04-08T2200,2256A,130.3995,46.8307,佳木斯市,发电厂,,46,46,56,30,32,98,,112,102,19,24,4,4,0.8,0.7
2025-04-08T2200,2257A,130.3258,46.7975,佳木斯市,环保局,细颗粒物(PM2.5),54,55,63,38,34,86,,113,92,25,34,4,4,0.5,0.6
2025-04-08T2200,2258A,130.3648,46.8032,佳木斯市,十一中,颗粒物(PM10),52,54,62,32,36,99,,110,101,16,30,6,7,0.6,0.7
2025-04-08T2200,2259A,130.3794,46.7588,佳木斯市,四丰,,50,50,36,17,18,97,,103,99,6,8,1,1,1.0,1
2025-04-08T2200,1252A,120.7436,30.778,嘉兴市,清河小学,颗粒物(PM10),81,111,80,50,32,135,,181,171,43,35,10,8,0.8,0.8
2025-04-08T2200,1253A,120.726,30.7478,嘉兴市,嘉兴学院,颗粒物(PM10),67,84,68,47,33,171,,181,178,30,36,12,11,1.0,0.9
2025-04-08T2200,2872A,120.7846,30.7525,嘉兴市,南湖区残联,细颗粒物(PM2.5),74,88,71,54,34,177,,202,198,37,29,17,11,0.8,0.7
2025-04-08T2200,3407A,120.6916,30.7739,嘉兴市,秀洲住建,臭氧1小时,79,102,72,48,36,183,,193,192,27,32,11,9,0.7,0.7
2025-04-08T2200,1945A,98.2908,39.7711,嘉峪关市,气象局,颗粒物(PM10),69,88,126,14,28,98,,106,106,13,13,18,11,0.5,0.5
2025-04-08T2200,2884A,98.2672,39.7978,嘉峪关市,酒钢宾馆,颗粒物(PM10),73,95,145,27,30,82,,107,104,31,13,77,15,2.0,0.3
2025-04-08T2200,3248A,98.2643,39.7724,嘉峪关市,雄关区,颗粒物(PM10),59,68,105,33,30,86,,108,106,31,18,17,7,2.3,0.5
2025-04-08T2200,1383A,113.1064,22.6058,江门市,北街,,45,45,59,31,32,85,,166,140,15,15,2,3,0.5,0.5
2025-04-08T2200,1384A,113.0731,22.5835,江门市,西区,颗粒物(PM10),52,54,65,32,32,99,,168,148,19,22,8,8,0.6,0.6
2025-04-08T2200,1385A,113.0219,22.5311,江门市,圭峰西,细颗粒物(PM2.5),52,38,67,36,39,92,,158,139,22,22,6,6,0.4,0.5
2025-04-08T2200,1386A,113.0828,22.5947,江门市,东湖,颗粒物(PM10),57,64,74,29,34,102,,173,153,15,16,6,6,0.5,0.5
2025-04-08T2200,3311A,113.1075,22.5647,江门市,江海富民,颗粒物(PM10),55,60,77,34,36,95,,164,144,16,17,7,8,0.6,0.6
2025-04-08T2200,3449A,113.05,22.4667,江门市,新会银湖,细颗粒物(PM2.5),52,47,70,36,43,86,,157,134,21,26,1,2,0.3,0.3
2025-04-08T2200,1830A,113.1992,35.2590,焦作市,影视城,,,,145,,74,,,,,,24,,12,,1.6
2025-04-08T2200,3169A,113.2725,35.2067,焦作市,太极体育中心,颗粒物(PM10),68,85,124,33,52,91,,135,118,25,19,12,17,0.6,0.7
2025-04-08T2200,3335A,113.3137,35.2641,焦作市,马村街道办,细颗粒物(PM2.5),75,89,113,55,56,69,,117,102,29,23,10,13,0.8,0.8
2025-04-08T2200,3336A,113.2465,35.2373,焦作市,焦作技师学院,颗粒物(PM10),69,88,130,36,48,85,,132,120,22,19,9,13,0.9,0.9
2025-04-08T2200,3477A,113.1656,35.2539,焦作市,中站许衡医院,细颗粒物(PM2.5),58,53,110,41,52,91,,136,113,21,22,8,13,0.9,0.9
2025-04-08T2200,3981A,113.2449,35.1803,焦作市,原李万街道办,颗粒物(PM10),59,67,110,29,48,102,,133,122,19,18,19,16,0.7,0.7
2025-04-08T2200,4264A,113.2340,35.2190,焦作市,新安路1731号,颗粒物(PM10),68,85,127,34,60,94,,135,122,19,16,11,15,0.8,0.8
2025-04-08T2200,1708A,116.3701,23.5345,揭阳市,新兴,细颗粒物(PM2.5),68,77,96,49,56,94,,135,130,32,33,14,11,0.9,0.9
2025-04-08T2200,1709A,116.3264,23.5443,揭阳市,西马,颗粒物(PM10),60,70,94,42,58,100,,144,137,18,28,10,11,0.8,0.9
2025-04-08T2200,1710A,116.3611,23.5626,揭阳市,东兴,颗粒物(PM10),61,71,103,41,54,99,,135,131,22,32,11,12,1.1,1
2025-04-08T2200,1711A,116.4151,23.5294,揭阳市,渔湖,颗粒物(PM10),59,68,89,38,38,104,,141,140,21,31,9,10,1.2,1
2025-04-08T2200,3320A,116.403,23.5699,揭阳市,曲溪,颗粒物(PM10),67,84,88,46,46,99,,142,134,28,36,25,6,1.8,0.9
2025-04-08T2200,1944A,102.1692,38.5167,金昌市,天庆家园,颗粒物(PM10),67,83,205,29,46,108,,115,114,4,4,7,8,0.7,0.7
2025-04-08T2200,4022A,102.1647,38.5371,金昌市,金川区人防中心,颗粒物(PM10),94,137,301,28,52,104,,109,108,4,4,12,13,0.4,0.4
2025-04-08T2200,4239A,102.1930,38.5319,金昌市,长春路96号,颗粒物(PM10),66,82,270,29,48,101,,105,104,2,3,8,14,0.6,0.5
2025-04-08T2200,1262A,119.647,29.077,金华市,十五中,细颗粒物(PM2.5),70,87,68,51,33,83,,159,121,38,25,6,7,0.7,0.5
2025-04-08T2200,1263A,119.686,29.1029,金华市,监测站,细颗粒物(PM2.5),69,85,68,50,35,64,,150,118,51,25,6,6,0.5,0.4
2025-04-08T2200,3659A,119.656,29.1131,金华市,气象局,颗粒物(PM10),69,88,69,47,30,71,,153,112,39,23,6,6,0.7,0.5
2025-04-08T2200,1767A,121.1115,41.0879,锦州市,南山,细颗粒物(PM2.5),69,,39,50,22,68,,112,103,44,17,12,12,0.8,0.6
2025-04-08T2200,1768A,121.0604,40.8428,锦州市,开发区,细颗粒物(PM2.5),70,61,62,51,24,74,,113,103,62,32,11,25,0.7,0.8
2025-04-08T2200,1769A,121.1836,41.1119,锦州市,百股街道,细颗粒物(PM2.5),52,47,40,36,15,91,,116,112,32,18,8,9,0.6,0.4
2025-04-08T2200,1770A,121.1178,41.1222,锦州市,天安街道,细颗粒物(PM2.5),74,,36,54,20,80,,110,105,36,16,12,13,0.6,0.4
2025-04-08T2200,1771A,121.1303,41.1386,锦州市,北湖公园,细颗粒物(PM2.5),63,53,33,45,17,87,,113,109,33,13,11,14,0.6,0.5
2025-04-08T2200,2160A,112.85,35.5051,晋城市,自来水公司,颗粒物(PM10),69,88,110,34,42,71,,138,106,26,22,12,11,1.9,1
2025-04-08T2200,2161A,112.8318,35.4936,晋城市,白云商贸,颗粒物(PM10),70,89,120,31,43,70,,124,98,27,57,9,8,1.5,1.1
2025-04-08T2200,2162A,112.8508,35.4887,晋城市,市环保局,"颗粒物(PM10),细颗粒物(PM2.5)",55,60,115,39,39,70,,129,102,28,25,11,8,2.0,0.8
2025-04-08T2200,2163A,112.8676,35.4897,晋城市,技术学院,颗粒物(PM10),70,90,118,34,41,61,,129,99,34,29,14,10,2.0,1
2025-04-08T2200,2165A,112.8453,35.546,晋城市,白马寺,"颗粒物(PM10),细颗粒物(PM2.5)",63,75,105,45,67,75,,138,105,27,17,16,10,2.3,1
2025-04-08T2200,3620A,112.8271,35.4828,晋城市,泽州一中,颗粒物(PM10),56,62,110,34,47,77,,141,108,23,21,4,4,1.6,1
2025-04-08T2200,2173A,112.7249,37.7067,晋中市,南都小区,颗粒物(PM10),67,84,103,46,39,78,,126,104,24,21,6,8,0.6,0.5
2025-04-08T2200,2174A,112.6991,37.6982,晋中市,榆次区政府,颗粒物(PM10),67,83,109,37,36,74,,127,99,32,25,6,9,0.6,0.4
2025-04-08T2200,2865A,112.7195,37.6828,晋中市,榆次三中,"颗粒物(PM10),细颗粒物(PM2.5)",62,73,112,44,46,75,,130,108,28,20,5,8,0.6,0.5
2025-04-08T2200,4200A,112.7478,37.6954,晋中市,迎宾街26号,细颗粒物(PM2.5),62,70,108,44,46,84,,131,109,22,18,4,8,0.5,0.5
2025-04-08T2200,2439A,112.2014,31.0481,荆门市,竹园小学,细颗粒物(PM2.5),77,98,111,56,60,87,,164,148,29,20,7,11,0.7,0.5
2025-04-08T2200,2440A,112.1969,30.9891,荆门市,掇刀,细颗粒物(PM2.5),79,88,102,58,57,117,,176,165,21,17,12,13,0.5,0.5
2025-04-08T2200,2441A,112.2213,31.0386,荆门市,石化一小,细颗粒物(PM2.5),74,95,111,54,63,90,,164,143,32,26,12,14,0.4,0.4
2025-04-08T2200,3012A,112.1849,31.0362,荆门市,西山林语,细颗粒物(PM2.5),69,67,91,50,51,98,,170,153,10,14,6,8,0.2,0.3
2025-04-08T2200,3547A,112.1632,31.0138,荆门市,龙泉中学南校,细颗粒物(PM2.5),70,82,95,51,50,112,,162,150,9,18,11,9,0.7,0.6
2025-04-08T2200,1844A,112.2494,30.3197,荆州市,市图书馆,细颗粒物(PM2.5),75,80,83,55,55,87,,138,123,32,20,8,11,0.9,0.6
2025-04-08T2200,1845A,112.2008,30.3544,荆州市,市委党校,细颗粒物(PM2.5),73,84,89,53,57,116,,132,123,17,20,8,11,0.9,0.8
2025-04-08T2200,3194A,112.2747,30.3122,荆州市,管委会,细颗粒物(PM2.5),77,82,92,56,53,70,,141,124,37,17,9,19,0.9,0.7
2025-04-08T2200,4268A,112.1722,30.3366,荆州市,学苑路85号,,,,76,65,60,110,,140,122,20,24,12,13,0.8,0.7
2025-04-08T2200,2342A,117.3102,29.3867,景德镇市,王港中学,,,,,,,,,,,,,,,,
2025-04-08T2200,2343A,117.2117,29.2933,景德镇市,老干部活动中心,细颗粒物(PM2.5),72,78,66,52,36,55,,144,120,30,25,8,9,0.8,0.6
2025-04-08T2200,2344A,117.1894,29.2789,景德镇市,兽医站,细颗粒物(PM2.5),67,81,69,48,34,75,,136,117,18,22,3,6,0.7,0.7
2025-04-08T2200,2345A,117.1547,29.2617,景德镇市,台达陶瓷,,,131,79,54,37,10,,133,102,88,34,47,15,,0.6
2025-04-08T2200,2346A,117.2461,29.2956,景德镇市,陶研所,细颗粒物(PM2.5),64,64,58,46,40,58,,139,116,28,21,6,8,0.8,0.8
2025-04-08T2200,1803A,115.9872,29.6815,九江市,十里,细颗粒物(PM2.5),73,91,76,53,46,47,,156,129,51,31,3,5,1.0,0.8
2025-04-08T2200,1804A,115.9584,29.7046,九江市,茅山头,颗粒物(PM10),78,106,87,52,44,43,,149,126,71,51,6,9,0.8,0.6
2025-04-08T2200,1805A,115.9877,29.7295,九江市,西园,"颗粒物(PM10),细颗粒物(PM2.5)",67,84,79,48,43,118,,151,143,32,66,11,12,1.2,1
2025-04-08T2200,1808A,115.9114,29.6038,九江市,综合工业园,颗粒物(PM10),71,91,73,50,39,88,,145,129,45,40,10,12,1.0,0.8
2025-04-08T2200,1809A,116.0721,29.7535,九江市,石化总厂,细颗粒物(PM2.5),80,66,55,59,53,99,,146,133,21,26,15,15,0.8,0.8
2025-04-08T2200,1810A,115.9773,29.5698,九江市,庐山气象台,颗粒物(PM10),53,56,53,34,34,134,,135,134,10,11,7,7,0.9,0.7
2025-04-08T2200,3190A,116.0254,29.6994,九江市,外国语学校,细颗粒物(PM2.5),65,54,65,47,46,127,,143,140,17,29,20,20,1.1,1
2025-04-08T2200,4253A,116.0102,29.6594,九江市,莲花大道8号,细颗粒物(PM2.5),74,69,68,54,43,96,,148,134,4,11,6,8,0.7,0.7
2025-04-08T2200,4240A,98.4958,39.7339,酒泉市,玉门东路5号,颗粒物(PM10),111,171,150,47,35,85,,106,102,10,9,13,16,0.3,0.2
2025-04-08T2200,4241A,98.5099,39.7506,酒泉市,北大街108号,颗粒物(PM10),112,173,156,47,29,82,,108,104,16,12,17,16,0.2,0.2
2025-04-08T2200,2698A,76.0072,39.4467,喀什地区,巡警大队,颗粒物(PM10),74,98,97,37,23,89,,111,110,29,28,4,4,0.7,0.6
2025-04-08T2200,2699A,75.9755,39.4694,喀什地区,吾办,颗粒物(PM10),78,106,91,35,28,68,,111,108,39,24,9,8,0.8,0.5
2025-04-08T2200,4027A,75.9483,39.4689,喀什地区,老干局,颗粒物(PM10),94,137,83,50,18,85,,116,114,29,18,1,2,0.6,0.6
2025-04-08T2200,1824A,114.3389,34.7781,开封市,肿瘤医院,颗粒物(PM10),73,95,119,35,55,91,,148,132,18,23,8,11,0,0.8
2025-04-08T2200,1826A,114.2885,34.7965,开封市,世纪星幼儿园,颗粒物(PM10),56,62,114,21,66,93,,148,132,21,28,10,11,0.6,0.8
2025-04-08T2200,3147A,114.3438,34.8106,开封市,龙亭公园,颗粒物(PM10),76,102,123,25,68,84,,139,122,25,26,7,8,0.6,0.7
2025-04-08T2200,3210A,114.3644,34.7964,开封市,汴京公园,颗粒物(PM10),80,109,158,29,69,93,,147,131,21,27,5,7,0.5,0.6
2025-04-08T2200,3473A,114.2485,34.8306,开封市,技师学院,颗粒物(PM10),58,65,114,40,82,76,,132,116,30,30,6,10,1.0,1.1
2025-04-08T2200,3592A,114.4644,34.7556,开封市,祥符区生态环境局,颗粒物(PM10),91,132,143,42,68,66,,140,121,31,33,13,10,1.0,0.8
2025-04-08T2200,1951A,84.895,45.6094,克拉玛依市,长征新村,颗粒物(PM10),55,60,38,10,10,109,,118,118,7,15,7,8,0.2,0.3
2025-04-08T2200,1952A,84.8988,45.5893,克拉玛依市,南林小区,颗粒物(PM10),53,56,38,10,12,110,,117,117,2,12,2,3,0.1,0.3
2025-04-08T2200,1954A,84.905,44.3396,克拉玛依市,独山子区,颗粒物(PM10),54,58,34,9,14,96,,125,123,17,8,6,7,0.3,0.2
2025-04-08T2200,1955A,85.6979,46.098,克拉玛依市,乌尔禾区商贸楼,,47,47,43,7,12,106,,104,104,1,9,6,6,0.2,0.2
2025-04-08T2200,3612A,85.1045,45.6899,克拉玛依市,白碱滩区新站,颗粒物(PM10),58,65,46,18,9,108,,110,110,2,10,10,10,0.1,0.3
2025-04-08T2200,2697A,76.1454,39.7142,克孜勒苏柯尔克孜自治州,市人民政府,颗粒物(PM10),96,141,92,37,28,76,,124,119,35,6,6,8,0.4,0.3
2025-04-08T2200,3665A,76.1658,39.7157,克孜勒苏柯尔克孜自治州,克州文化中心,颗粒物(PM10),89,127,110,29,30,93,,118,116,21,5,6,10,0.3,0.3
2025-04-08T2200,1450A,102.8204,24.8886,昆明市,呈贡新区,细颗粒物(PM2.5),72,72,67,52,49,116,,162,149,19,15,7,8,0.7,0.7
2025-04-08T2200,1451A,102.6251,24.9608,昆明市,西山森林公园,,,,,,,,,,,,,,,,
2025-04-08T2200,1452A,102.7252,25.0902,昆明市,龙泉镇,细颗粒物(PM2.5),68,77,63,49,44,102,,145,135,28,17,9,9,0.7,0.7
2025-04-08T2200,1453A,102.7266,25.0375,昆明市,东风东路,细颗粒物(PM2.5),69,68,69,50,52,127,,149,144,18,19,10,11,0.6,0.7
2025-04-08T2200,1454A,102.6742,25.0669,昆明市,金鼎山,颗粒物(PM10),58,66,69,34,45,121,,146,138,22,20,10,7,0.8,0.8
2025-04-08T2200,1455A,102.6644,25.0401,昆明市,碧鸡广场,细颗粒物(PM2.5),70,77,69,51,47,112,,147,136,27,21,8,9,0.7,0.8
2025-04-08T2200,3179A,102.7494,25.0119,昆明市,官渡区博物馆,"颗粒物(PM10),细颗粒物(PM2.5)",60,70,64,43,42,134,,157,151,12,18,8,10,0.4,0.6
2025-04-08T2200,3375A,102.8017,24.8336,昆明市,青年创业园,颗粒物(PM10),67,84,64,47,49,111,,159,146,20,15,10,11,0.2,0.4
2025-04-08T2200,3550A,102.7997,24.9786,昆明市,昆明学院,细颗粒物(PM2.5),67,75,70,48,50,126,,156,149,14,14,7,7,0.5,0.6
2025-04-08T2200,3551A,102.5967,24.6736,昆明市,晋宁区生态环境分局,细颗粒物(PM2.5),64,53,49,46,43,118,,153,145,18,9,10,8,0.9,0.9
2025-04-08T2200,3552A,102.6678,24.9856,昆明市,云天化总部,细颗粒物(PM2.5),63,66,63,45,46,138,,154,150,9,13,7,12,0.6,0.7
2025-04-08T2200,1456A,91.1319,29.6514,拉萨市,八廓街,,46,46,36,12,13,114,,126,125,8,16,5,7,0.4,0.4
2025-04-08T2200,1457A,91.1221,29.6747,拉萨市,市环保局,,36,36,36,17,15,107,,122,119,12,22,2,9,0.2,0.4
2025-04-08T2200,1458A,91.0874,29.6475,拉萨市,区监测站,,37,37,29,10,12,110,,125,123,11,30,6,8,0.2,0
2025-04-08T2200,1459A,91.1774,29.6541,拉萨市,西藏大学,,34,30,29,12,10,108,,121,119,10,16,5,7,0.4,0.3
2025-04-08T2200,1460A,90.9798,29.6588,拉萨市,区辐射站,,36,35,27,14,11,114,,128,127,8,19,7,9,0.3,0.4
2025-04-08T2200,1461A,91.0834,29.6292,拉萨市,拉萨火车站,,39,39,30,12,12,104,,118,115,11,18,3,5,0.2,0.3
2025-04-08T2200,2520A,109.2203,23.7256,来宾市,来宾技工学校,细颗粒物(PM2.5),85,95,95,63,62,53,,83,74,24,26,6,15,1.1,1
2025-04-08T2200,3535A,109.1781,23.7297,来宾市,兴宾区政府,细颗粒物(PM2.5),68,75,85,49,56,50,,74,68,19,25,8,9,1.1,1.1
2025-04-08T2200,4002A,109.2416,23.7461,来宾市,中南小学,细颗粒物(PM2.5),82,106,98,60,59,48,,79,70,27,25,8,9,1.1,1.1
2025-04-08T2200,1477A,104.1373,35.9454,兰州市,榆中兰大校区,,,,,,,,,,,,,,,,
2025-04-08T2200,1479A,103.831,36.0464,兰州市,铁路设计院,颗粒物(PM10),75,100,126,31,30,66,,119,110,56,29,9,11,0.6,0.7
2025-04-08T2200,3241A,103.7439,36.0842,兰州市,百合公园,颗粒物(PM10),73,95,121,29,28,63,,122,115,44,19,8,9,0.2,0.4
2025-04-08T2200,3242A,103.9611,35.998,兰州市,和平,颗粒物(PM10),83,115,157,33,58,86,,119,114,21,15,10,12,0.7,0.8
2025-04-08T2200,4236A,103.6293,36.0938,兰州市,庄浪东路808号,颗粒物(PM10),85,119,136,47,45,40,,137,112,60,24,9,10,0.5,0.4
2025-04-08T2200,4237A,103.7251,36.1043,兰州市,安宁西路88号,颗粒物(PM10),90,130,153,44,44,101,,130,127,13,14,5,7,0.6,0.4
2025-04-08T2200,4238A,103.8470,36.0676,兰州市,北滨河东路1号,颗粒物(PM10),78,106,131,40,39,71,,128,120,49,27,10,12,0.5,0.6
2025-04-08T2200,3245A,103.6633,36.533,兰州新区,新区管委会,颗粒物(PM10),127,203,131,45,43,101,,122,118,12,10,13,11,0.2,0.1
2025-04-08T2200,3246A,103.6975,36.4789,兰州新区,舟曲中学,颗粒物(PM10),130,210,204,34,54,101,,119,115,16,14,10,6,0.0,0.3
2025-04-08T2200,1067A,116.6708,39.5111,廊坊市,药材公司,颗粒物(PM10),51,51,48,15,20,74,,115,97,25,18,2,3,0.4,0.3
2025-04-08T2200,1068A,116.7214,39.5589,廊坊市,开发区,颗粒物(PM10),51,52,60,18,18,62,,118,98,23,16,5,3,0.6,0.3
2025-04-08T2200,1070A,116.7244,39.5269,廊坊市,北华航天学院,颗粒物(PM10),51,52,62,21,15,60,,109,90,31,20,8,5,0.5,0.3
2025-04-08T2200,2919A,116.7022,39.5453,廊坊市,河北工业大学,,47,47,48,27,19,69,,125,98,29,20,8,6,0.5,0.3
2025-04-08T2200,2535A,103.7723,29.5462,乐山市,花湖湾,,39,36,56,23,37,123,,154,153,19,22,7,7,0.5,0.6
2025-04-08T2200,2536A,103.7627,29.5844,乐山市,牛耳桥,颗粒物(PM10),61,71,64,41,40,34,,142,111,67,38,10,8,0.9,0.7
2025-04-08T2200,2537A,103.7508,29.6006,乐山市,市第三水厂,颗粒物(PM10),53,56,61,31,36,17,,148,106,76,34,4,5,0.9,0.7
2025-04-08T2200,2538A,103.7571,29.5664,乐山市,市监测站,"颗粒物(PM10),细颗粒物(PM2.5)",54,57,61,38,41,73,,149,137,40,26,5,5,0.7,0.6
2025-04-08T2200,3361A,103.7311,29.5628,乐山市,理工大学,颗粒物(PM10),51,51,59,29,38,91,,157,150,36,27,5,6,0.7,0.7
2025-04-08T2200,2598A,100.2143,26.8576,丽江市,西南郊,,40,40,43,13,25,127,,135,135,7,4,5,5,0.6,0.6
2025-04-08T2200,2599A,100.2497,26.8802,丽江市,丽江古城,,37,33,41,19,24,118,,128,126,12,11,7,8,0.6,0.6
2025-04-08T2200,2600A,100.2203,26.8906,丽江市,市中心,,38,,34,18,25,120,,124,124,15,14,8,8,0.5,0.6
2025-04-08T2200,1267A,119.914,28.4514,丽水市,监测站大楼,细颗粒物(PM2.5),82,75,57,60,28,20,,147,94,57,19,3,4,0.9,0.5
2025-04-08T2200,1268A,119.93,28.4586,丽水市,莲都小学,,,67,59,34,26,61,,143,109,32,18,4,4,,0.4
2025-04-08T2200,1269A,119.879,28.4231,丽水市,余庄前,颗粒物(PM10),59,67,55,40,29,47,,148,94,26,14,3,3,0.6,0.5
2025-04-08T2200,1173A,119.176,34.5885,连云港市,市环境监测站,颗粒物(PM10),80,110,105,34,38,112,,133,119,15,22,13,12,0.8,0.6
2025-04-08T2200,3000A,119.3581,34.6972,连云港市,德源药业,颗粒物(PM10),73,95,100,24,34,111,,134,115,16,22,9,10,0.5,0.5
2025-04-08T2200,3007A,119.178,34.844,连云港市,新城一中,颗粒物(PM10),65,79,111,25,59,92,,133,116,32,28,7,9,0.6,0.7
2025-04-08T2200,3008A,119.3608,34.7519,连云港市,胡沟管理处,颗粒物(PM10),56,61,77,19,35,98,,138,105,28,30,10,12,0.4,0.5
2025-04-08T2200,3009A,119.1478,34.5911,连云港市,矿山设计院,颗粒物(PM10),80,110,109,31,36,106,,134,115,19,24,12,12,0.7,0.6
2025-04-08T2200,3434A,119.2413,34.6539,连云港市,工贸学校,颗粒物(PM10),65,79,97,21,36,118,,134,124,17,20,11,11,0.7,0.6
2025-04-08T2200,3664A,119.4172,34.7341,连云港市,连云街道,,46,46,106,12,44,116,,141,124,11,17,8,8,0.7,0.5
2025-04-08T2200,2571A,102.3431,27.8099,凉山彝族自治州,青龙寺,颗粒物(PM10),56,62,44,13,12,75,,153,142,26,12,6,10,0.7,0.9
2025-04-08T2200,2572A,102.2721,27.8415,凉山彝族自治州,邛海宾馆,,49,49,45,28,25,107,,153,147,26,19,6,11,0.4,0.6
2025-04-08T2200,2573A,102.2625,27.898,凉山彝族自治州,西昌市政府,细颗粒物(PM2.5),55,55,40,39,32,104,,148,140,12,16,7,10,0.5,0.7
2025-04-08T2200,2574A,102.2685,27.8851,凉山彝族自治州,凉山州政府,颗粒物(PM10),53,56,40,34,24,103,,152,146,16,18,6,7,0.5,0.8
2025-04-08T2200,4229A,102.2342,27.8859,凉山彝族自治州,凯乐南路30号,颗粒物(PM10),52,54,44,29,23,113,,134,131,14,26,17,11,0.8,0.8
2025-04-08T2200,2212A,123.2,41.1953,辽阳市,宏伟区,细颗粒物(PM2.5),103,79,64,77,43,110,,143,132,23,13,10,11,0.7,0.8
2025-04-08T2200,2213A,123.1683,41.2495,辽阳市,新华园,细颗粒物(PM2.5),175,198,101,132,54,42,,150,115,73,25,36,10,1.2,0.6
2025-04-08T2200,2214A,123.2354,41.2639,辽阳市,滨河路,细颗粒物(PM2.5),134,,59,102,43,68,,129,106,56,21,10,8,0.8,0.6
2025-04-08T2200,2215A,123.149,41.2991,辽阳市,铁西工业园,细颗粒物(PM2.5),159,165,75,121,44,64,,150,127,64,23,16,10,1.2,0.6
2025-04-08T2200,2227A,125.1358,42.8845,辽源市,环保局,细颗粒物(PM2.5),113,111,57,85,35,32,,112,86,51,21,8,12,1.1,0.6
2025-04-08T2200,3239A,125.0764,42.9078,辽源市,银鹰制药,细颗粒物(PM2.5),92,90,44,68,33,16,,118,76,65,20,6,6,1.0,0.6
2025-04-08T2200,1625A,115.9848,36.4372,聊城市,区政府,细颗粒物(PM2.5),62,63,124,44,57,109,,151,145,22,36,8,20,0.5,0.7
2025-04-08T2200,2878A,116.0072,36.4343,聊城市,聊大东校,细颗粒物(PM2.5),75,75,135,55,63,108,,152,146,17,31,9,19,0.7,0.9
2025-04-08T2200,3200A,115.9819,36.4978,聊城市,监控中心,细颗粒物(PM2.5),70,55,133,51,67,101,,143,141,14,34,10,24,0.8,1.1
2025-04-08T2200,3513A,116.0445,36.4361,聊城市,九州社区,细颗粒物(PM2.5),75,74,125,55,49,107,,154,148,13,29,6,17,0.6,0.8
2025-04-08T2200,4018A,116.0567,36.4608,聊城市,星美广场,颗粒物(PM10),65,80,132,44,49,106,,151,146,14,30,8,22,0.7,0.9
2025-04-08T2200,2632A,94.3681,29.6376,林芝市,林芝监测站,,36,25,24,21,18,115,,118,118,4,8,5,5,0.3,0.3
2025-04-08T2200,2633A,94.3616,29.6616,林芝市,林芝人民医院,,34,32,27,19,13,106,,109,109,2,4,8,8,0.4,0.4
2025-04-08T2200,2603A,100.0781,23.8982,临沧市,市环保局,细颗粒物(PM2.5),108,97,99,81,72,111,,139,133,19,18,7,7,1.0,0.9
2025-04-08T2200,2604A,100.0894,23.8822,临沧市,市气象局,细颗粒物(PM2.5),102,86,83,76,71,105,,142,132,25,19,8,8,1.0,0.8
2025-04-08T2200,1733A,111.5531,36.0783,临汾市,临钢医院,颗粒物(PM10),72,94,143,38,43,65,,110,97,30,26,6,11,0.7,0.8
2025-04-08T2200,1734A,111.5028,36.0714,临汾市,技工学校,颗粒物(PM10),68,85,118,48,49,69,,118,106,27,25,9,14,0.8,0.9
2025-04-08T2200,1736A,111.5018,36.0855,临汾市,市委,颗粒物(PM10),75,100,130,34,42,74,,123,111,31,29,6,12,0.8,0.9
2025-04-08T2200,3018A,111.505,36.1014,临汾市,唐尧大酒店,颗粒物(PM10),75,100,135,44,42,72,,118,106,24,26,13,15,0.8,0.8
2025-04-08T2200,4244A,111.4879,36.0530,临汾市,启星学校,颗粒物(PM10),67,84,133,44,47,70,,114,104,26,23,6,10,0.6,0.8
2025-04-08T2200,4271A,103.2464,35.6123,临夏回族自治州,滨河东路1号,颗粒物(PM10),99,148,200,50,47,71,,116,107,23,14,12,6,0.4,0.3
2025-04-08T2200,4310A,103.2093,35.5995,临夏回族自治州,新华街21号,颗粒物(PM10),106,162,188,49,49,84,,107,100,18,15,17,10,0.4,0.4
2025-04-08T2200,1618A,118.3429,35.0532,临沂市,沂河小区,颗粒物(PM10),64,78,126,29,57,92,,130,107,17,20,8,11,0.5,0.7
2025-04-08T2200,1619A,118.295,35.0583,临沂市,鲁南制药厂,颗粒物(PM10),67,83,122,29,52,99,,138,114,25,41,8,13,0.6,0.8
2025-04-08T2200,1620A,118.2794,34.9976,临沂市,新光毛纺厂,颗粒物(PM10),64,78,113,31,49,92,,135,110,28,31,7,10,0.3,0.7
2025-04-08T2200,1621A,118.3956,35.0888,临沂市,河东保险公司,颗粒物(PM10),63,75,121,31,53,89,,137,111,33,31,3,7,0.3,0.6
2025-04-08T2200,3370A,118.3564,35.0215,临沂市,十里堡居委,颗粒物(PM10),60,70,114,29,44,90,,135,108,24,26,4,7,0.6,0.8
2025-04-08T2200,3496A,118.3604,35.1084,临沂市,南坊新区,颗粒物(PM10),62,73,125,27,52,94,,130,110,21,24,5,9,0.5,0.8
2025-04-08T2200,3860A,118.3920,35.0300,临沂市,皇山花园小区,颗粒物(PM10),63,75,124,30,44,91,,136,110,18,24,6,10,0.4,0.6
2025-04-08T2200,1870A,109.4856,24.3895,柳州市,柳东小学,细颗粒物(PM2.5),93,88,95,69,68,47,,64,60,24,34,10,14,1.0,1
2025-04-08T2200,1871A,109.4157,24.3277,柳州市,环保监测站,细颗粒物(PM2.5),114,107,98,86,68,49,,74,61,24,29,11,13,1.1,1.1
2025-04-08T2200,1872A,109.389,24.341,柳州市,河西水厂,细颗粒物(PM2.5),103,133,119,77,64,31,,73,51,43,33,8,10,1.2,1.1
2025-04-08T2200,1873A,109.4311,24.2921,柳州市,市四中,细颗粒物(PM2.5),98,103,103,73,62,46,,72,61,28,31,9,10,1.1,1.1
2025-04-08T2200,1874A,109.4006,24.3631,柳州市,市九中,细颗粒物(PM2.5),102,130,108,76,62,33,,74,57,34,28,9,11,1.2,1
2025-04-08T2200,1875A,109.4958,24.3134,柳州市,古亭山,细颗粒物(PM2.5),94,118,98,70,57,59,,83,78,18,30,9,13,1.0,1
2025-04-08T2200,3402A,109.5422,24.3996,柳州市,市二中,细颗粒物(PM2.5),84,78,105,62,72,62,,74,73,19,41,11,22,0.8,0.9
2025-04-08T2200,2307A,116.5079,31.737,六安市,监测大楼,"颗粒物(PM10),细颗粒物(PM2.5)",55,60,59,39,32,132,,153,145,14,15,8,8,0.7,0.6
2025-04-08T2200,2308A,116.4738,31.7643,六安市,皖西学院,颗粒物(PM10),62,74,67,37,34,134,,157,151,14,14,7,6,0.5,0.5
2025-04-08T2200,2309A,116.4996,31.7905,六安市,朝阳厂,颗粒物(PM10),57,64,58,30,31,122,,143,135,24,21,6,6,0.6,0.6
2025-04-08T2200,2310A,116.5567,31.7886,六安市,开发区,颗粒物(PM10),69,87,84,42,40,108,,154,146,36,25,7,6,0.7,0.7
2025-04-08T2200,2576A,104.8,26.5892,六盘水市,窑上,颗粒物(PM10),54,57,67,24,36,45,,104,89,10,13,5,6,0.9,1
2025-04-08T2200,2577A,104.83,26.5917,六盘水市,黄土坡,细颗粒物(PM2.5),58,63,68,41,50,81,,100,97,21,22,12,14,1.0,1.1
2025-04-08T2200,2578A,104.89,26.5939,六盘水市,水钢,颗粒物(PM10),57,63,71,37,46,82,,105,101,13,15,9,10,0.7,0.8
2025-04-08T2200,2579A,104.8475,26.5894,六盘水市,民中,细颗粒物(PM2.5),64,58,64,46,50,81,,100,97,16,18,10,12,0.9,1
2025-04-08T2200,2580A,104.9544,26.5506,六盘水市,双水,颗粒物(PM10),53,56,61,31,33,87,,106,101,12,15,9,10,0.4,0.7
2025-04-08T2200,2335A,117.0189,25.1181,龙岩市,龙岩师专,,,,,,,,,,,,,,,,
2025-04-08T2200,2336A,117.0217,25.1033,龙岩市,龙岩市监测站,细颗粒物(PM2.5),53,54,58,37,35,53,,136,114,44,28,13,12,0.8,0.6
2025-04-08T2200,2337A,117.0258,25.0661,龙岩市,闽西职业技术学院,颗粒物(PM10),56,61,63,35,33,52,,120,98,35,28,49,24,0.6,0.6
2025-04-08T2200,2338A,117.0196,25.0306,龙岩市,龙岩学院,,49,45,52,34,35,70,,131,116,18,17,3,5,0.5,0.5
2025-04-08T2200,2665A,105.0822,33.3261,陇南市,汉王镇固水子,,,,,,,,,,,,,,,,
2025-04-08T2200,2885A,104.9339,33.3826,陇南市,滨江中学,颗粒物(PM10),54,57,90,29,25,88,,99,97,3,8,7,8,0.4,0.5
2025-04-08T2200,3247A,104.955,33.371,陇南市,市总工会,颗粒物(PM10),53,55,72,22,24,95,,108,105,4,6,9,9,0.5,0.5
2025-04-08T2200,2487A,111.9589,27.8901,娄底市,电视发射台,颗粒物(PM10),74,97,84,47,42,38,,103,81,12,7,6,8,0.8,0.7
2025-04-08T2200,2488A,111.9975,27.725,娄底市,市监测站,细颗粒物(PM2.5),77,88,96,56,69,77,,108,100,18,31,16,16,0.7,0.7
2025-04-08T2200,2489A,112.0194,27.7314,娄底市,市委党校,细颗粒物(PM2.5),80,92,94,59,64,72,,101,94,14,18,4,4,0.6,0.6
2025-04-08T2200,2490A,111.9561,27.7569,娄底市,涟钢,细颗粒物(PM2.5),93,100,96,69,64,48,,99,89,30,21,19,15,0.9,0.8
2025-04-08T2200,2491A,111.9892,27.7044,娄底市,市政府,细颗粒物(PM2.5),94,95,87,70,62,69,,104,97,22,14,5,5,0.6,0.4
2025-04-08T2200,1893A,105.4324,28.9634,泸州市,九狮山,,,,,,,,,,,,,,,,
2025-04-08T2200,1894A,105.4427,28.9063,泸州市,小市上码头,颗粒物(PM10),68,85,62,44,35,137,,166,164,27,32,9,8,0.8,0.8
2025-04-08T2200,1895A,105.4241,28.8573,泸州市,兰田宪桥,细颗粒物(PM2.5),70,73,59,51,43,64,,141,127,54,27,7,6,1.1,0.8
2025-04-08T2200,1896A,105.4379,28.8833,泸州市,市环监站,,,,,,,,,,,,,,,,
2025-04-08T2200,4272A,105.3689,28.7783,泸州市,纳溪中医医院,细颗粒物(PM2.5),84,90,65,62,43,45,,144,130,62,32,7,7,1.0,0.8
2025-04-08T2200,2183A,111.1406,37.5211,吕梁市,环保局,颗粒物(PM10),56,62,118,18,39,20,,101,76,54,46,5,5,0.4,0.5
2025-04-08T2200,2185A,111.1297,37.5136,吕梁市,自来水公司,颗粒物(PM10),56,62,137,23,37,24,,102,84,45,39,5,6,0.8,0.6
2025-04-08T2200,2867A,111.1283,37.51,吕梁市,马茂庄小学,颗粒物(PM10),65,80,121,24,40,6,,97,74,65,52,4,4,0.8,0.6
2025-04-08T2200,1812A,112.3931,34.6516,洛阳市,市委党校,颗粒物(PM10),84,117,123,53,66,72,,132,117,50,27,9,9,1.0,0.9
2025-04-08T2200,1815A,112.494,34.6886,洛阳市,河南林校,颗粒物(PM10),80,110,139,53,60,50,,140,113,70,30,10,10,0.9,0.9
2025-04-08T2200,1816A,112.3844,34.623,洛阳市,开发区管委会,颗粒物(PM10),83,116,126,53,57,92,,139,125,28,24,12,12,0.5,0.5
2025-04-08T2200,1817A,112.4267,34.6258,洛阳市,市委新办公区,颗粒物(PM10),86,122,127,47,45,82,,140,122,40,29,9,8,0.6,0.5
2025-04-08T2200,3340A,112.6005,34.6326,洛阳市,伊滨,颗粒物(PM10),99,148,102,61,55,66,,139,119,42,34,9,11,0.8,0.7
2025-04-08T2200,3341A,112.4951,34.6332,洛阳市,中移产业园,颗粒物(PM10),96,142,151,52,55,70,,134,114,42,29,11,11,0.8,0.8
2025-04-08T2200,3593A,112.5736,34.8993,洛阳市,吉利监测站,颗粒物(PM10),62,73,127,37,62,85,,138,122,25,22,14,14,0.8,0.8
2025-04-08T2200,3635A,112.3677,34.662,洛阳市,河科大西苑校区,颗粒物(PM10),80,109,129,44,50,89,,139,124,41,30,12,12,0.8,0.7
2025-04-08T2200,3636A,112.4388,34.6781,洛阳市,英才小学,颗粒物(PM10),81,111,130,41,46,52,,133,111,62,29,11,12,0.9,0.8
2025-04-08T2200,4214A,112.4600,34.6949,洛阳市,春都路1号院,颗粒物(PM10),80,109,126,39,45,67,,141,115,51,25,11,11,0.9,1
2025-04-08T2200,2399A,114.051,33.5699,漯河市,三五一五工厂,颗粒物(PM10),95,139,110,59,52,109,,124,122,19,28,8,8,0.6,0.6
2025-04-08T2200,2400A,114.0055,33.5698,漯河市,漯河大学,颗粒物(PM10),89,128,114,61,49,117,,136,135,15,28,9,9,0.6,0.6
2025-04-08T2200,2401A,114.0138,33.5828,漯河市,市水利局,颗粒物(PM10),95,139,122,63,51,107,,134,132,18,26,7,8,0.3,0.3
2025-04-08T2200,2402A,114.0261,33.5698,漯河市,市广电局,颗粒物(PM10),94,137,117,68,54,99,,130,127,19,28,8,8,0.7,0.7
2025-04-08T2200,3478A,113.9749,33.5664,漯河市,市图书馆,颗粒物(PM10),93,136,116,52,51,100,,136,132,25,27,7,8,0.7,0.6
2025-04-08T2200,4250A,114.0892,33.5882,漯河市,韶山路11号,颗粒物(PM10),94,138,116,68,51,95,,125,120,30,33,10,9,0.8,0.7
2025-04-08T2200,1798A,118.5092,31.6837,马鞍山市,湖东路四小,颗粒物(PM10),65,80,90,37,40,78,,172,132,51,47,9,11,0.7,1
2025-04-08T2200,1799A,118.5024,31.6449,马鞍山市,开发区,颗粒物(PM10),71,92,116,35,48,78,,161,130,62,59,7,9,0.7,1.1
2025-04-08T2200,1802A,118.6245,31.7241,马鞍山市,濮塘,臭氧1小时,57,61,80,37,40,165,,177,168,7,18,10,14,0.5,0.9
2025-04-08T2200,3633A,118.4918,31.6809,马鞍山市,雨山,颗粒物(PM10),68,86,92,38,46,85,,167,133,48,44,8,11,0.9,1.1
2025-04-08T2200,4191A,118.5274,31.72227,马鞍山市,慈湖高新区,颗粒物(PM10),65,79,105,35,52,98,,161,129,48,50,7,11,0.5,1
2025-04-08T2200,1686A,111.0286,21.4688,茂名市,电白南海,细颗粒物(PM2.5),55,56,59,39,36,87,,108,95,14,14,1,2,0.7,0.9
2025-04-08T2200,1687A,110.9294,21.6533,茂名市,茂石化七小,颗粒物(PM10),54,58,58,29,30,89,,120,106,12,12,2,5,0.9,0.9
2025-04-08T2200,1688A,110.9107,21.6687,茂名市,健康路,颗粒物(PM10),51,51,53,31,32,99,,135,119,11,11,3,6,0.8,0.8
2025-04-08T2200,1689A,110.8592,21.6828,茂名市,高岭,颗粒物(PM10),56,61,62,27,29,81,,125,106,18,15,6,8,0.7,0.7
2025-04-08T2200,3450A,111.01,21.5165,茂名市,电白水东,颗粒物(PM10),51,51,46,22,24,82,,103,93,16,14,2,3,0.7,0.7
2025-04-08T2200,2539A,104.0308,30.0478,眉山市,黑龙滩水库,,27,27,31,17,21,60,,147,132,26,5,1,2,0.4,0.7
2025-04-08T2200,2540A,103.8416,30.0874,眉山市,气象局,颗粒物(PM10),77,104,81,51,43,52,,149,131,62,36,3,4,1.6,0.8
2025-04-08T2200,3137A,103.8578,30.0744,眉山市,市委党校,颗粒物(PM10),59,68,73,36,37,46,,147,121,66,36,7,9,1.2,0.8
2025-04-08T2200,3148A,103.8291,30.0564,眉山市,区人社局,颗粒物(PM10),60,69,55,36,37,32,,153,122,93,43,6,9,1.4,0.8
2025-04-08T2200,1690A,116.1231,24.3284,梅州市,梅江月梅,细颗粒物(PM2.5),52,42,58,36,35,55,,120,99,20,24,4,6,0.7,0.6
2025-04-08T2200,1691A,116.0797,24.2719,梅州市,梅县新城,颗粒物(PM10),56,62,64,33,36,38,,116,87,38,33,6,7,0.6,0.6
2025-04-08T2200,1692A,116.1248,24.2654,梅州市,环境监控中心,细颗粒物(PM2.5),64,63,60,46,39,33,,110,85,45,43,8,9,0.9,0.7
2025-04-08T2200,3315A,116.1233,24.2991,梅州市,梅龙,"颗粒物(PM10),细颗粒物(PM2.5)",57,63,60,40,34,20,,113,86,48,24,7,8,0.9,0.7
2025-04-08T2200,1878A,104.7778,31.4741,绵阳市,富乐山,颗粒物(PM10),61,71,72,37,35,129,,157,147,20,23,2,3,0.6,0.6
2025-04-08T2200,1880A,104.6697,31.4668,绵阳市,高新区自来水公司,颗粒物(PM10),84,118,94,46,39,36,,151,126,102,50,3,3,0.8,0.7
2025-04-08T2200,1881A,104.7287,31.5075,绵阳市,三水厂,颗粒物(PM10),70,89,90,44,43,29,,149,119,86,47,6,6,1.0,0.8
2025-04-08T2200,3491A,104.69,31.5322,绵阳市,西科大附属小学,颗粒物(PM10),72,94,87,41,40,86,,162,148,66,42,7,7,0.7,0.7
2025-04-08T2200,3492A,104.5648,31.5343,绵阳市,安州区旅游局,颗粒物(PM10),75,99,73,46,35,58,,151,132,63,28,8,9,0.8,0.5
2025-04-08T2200,4226A,104.7651,31.4531,绵阳市,绵阳市气象局,颗粒物(PM10),70,90,74,45,35,61,,151,135,72,38,2,4,0.7,0.5
2025-04-08T2200,1784A,129.61,44.561,牡丹江市,环保大楼,细颗粒物(PM2.5),55,56,33,39,21,86,,101,95,16,18,8,7,0.5,0.4
2025-04-08T2200,1785A,129.6115,44.5782,牡丹江市,文化广场,颗粒物(PM10),60,70,54,37,28,67,,103,92,35,21,10,11,0.8,0.6
2025-04-08T2200,1786A,129.5904,44.5963,牡丹江市,第一医院,细颗粒物(PM2.5),57,56,40,40,24,81,,106,95,24,15,11,13,0.5,0.4
2025-04-08T2200,1787A,129.6364,44.6075,牡丹江市,机车工厂,细颗粒物(PM2.5),73,75,48,53,23,49,,105,88,32,21,7,9,0.8,0.6
2025-04-08T2200,1788A,129.6386,44.5462,牡丹江市,第一中学,颗粒物(PM10),54,57,30,33,19,52,,112,92,20,13,8,8,0.6,0.6
2025-04-08T2200,2531A,105.0703,29.61,内江市,市监测站,细颗粒物(PM2.5),74,89,48,54,36,13,,147,115,79,26,5,5,1.4,0.8
2025-04-08T2200,2532A,105.0717,29.5947,内江市,东兴区政府,,,58,44,39,29,62,,137,118,60,28,,1,1.0,0.8
2025-04-08T2200,2533A,105.0653,29.5817,内江市,内江二中,颗粒物(PM10),81,112,54,48,33,9,,135,107,95,39,7,7,1.1,0.7
2025-04-08T2200,2534A,105.0406,29.5822,内江市,内江日报社,颗粒物(PM10),71,91,52,38,32,59,,142,126,68,30,5,6,0.8,0.5
2025-04-08T2200,2628A,92.0657,31.4846,那曲市,那曲监测站,,33,33,52,20,29,89,,108,105,30,25,9,8,1.1,1.2
2025-04-08T2200,4243A,92.0515,31.4787,那曲市,那曲市委宣传部,,34,28,50,15,24,108,,115,114,6,19,4,7,0.4,0.8
2025-04-08T2200,1290A,115.8931,28.6843,南昌市,省外办,细颗粒物(PM2.5),89,107,88,66,53,39,,128,114,57,55,8,10,1.0,0.8
2025-04-08T2200,1291A,115.8886,28.7003,南昌市,省林业公司,颗粒物(PM10),67,83,87,46,46,61,,123,110,39,42,10,12,0.7,0.6
2025-04-08T2200,1292A,115.8126,28.7442,南昌市,林科所,颗粒物(PM10),60,70,73,41,41,12,,144,114,106,48,10,10,0.5,0.6
2025-04-08T2200,1294A,115.8518,28.687,南昌市,建工学校,颗粒物(PM10),70,90,96,48,55,51,,137,121,53,50,5,8,1.1,0.9
2025-04-08T2200,1295A,115.8921,28.6424,南昌市,象湖,颗粒物(PM10),74,97,95,51,47,24,,146,119,74,49,8,11,1.0,0.8
2025-04-08T2200,1296A,115.7423,28.7996,南昌市,武术学校,,42,39,39,29,23,56,,136,113,10,7,10,11,0.8,0.8
2025-04-08T2200,3046A,115.9084,28.6062,南昌市,机电学校,颗粒物(PM10),88,126,102,58,50,50,,135,112,56,47,4,7,0.8,0.7
2025-04-08T2200,3690A,115.9721,28.7031,南昌市,外国语学校,颗粒物(PM10),72,93,89,46,46,48,,147,126,52,37,8,9,0.6,0.5
2025-04-08T2200,4192A,115.9316,28.68677,南昌市,南京东路235号,颗粒物(PM10),96,141,116,66,54,47,,137,113,61,51,11,14,1.4,1
2025-04-08T2200,1905A,106.056,30.8064,南充市,西山风景区,,47,46,51,29,30,148,,152,150,6,10,6,5,0.7,0.8
2025-04-08T2200,1906A,106.0789,30.8023,南充市,南充市委,颗粒物(PM10),69,87,75,41,39,16,,146,118,94,29,4,4,1.3,0.7
2025-04-08T2200,1907A,106.1031,30.8217,南充市,南充炼油厂,颗粒物(PM10),75,99,86,43,42,56,,144,127,58,30,4,4,0.8,0.6
2025-04-08T2200,4227A,106.1083,30.7884,南充市,梨树横街98号,颗粒物(PM10),68,86,78,28,34,92,,146,134,35,33,7,6,0.4,0.5
2025-04-08T2200,4304A,106.1172,30.843,南充市,清泉寺北路188号,颗粒物(PM10),67,84,82,26,38,92,,149,139,41,24,4,6,0.5,0.5
2025-04-08T2200,4305A,106.067,30.7616,南充市,同庆路1号,颗粒物(PM10),71,91,78,39,39,6,,139,110,104,39,4,4,1.2,0.6
2025-04-08T2200,1151A,118.8086,32.1065,南京市,迈皋桥,二氧化氮,70,78,72,36,41,32,,168,128,140,64,4,9,0.6,0.8
2025-04-08T2200,1152A,118.7538,32.0551,南京市,草场门,颗粒物(PM10),60,70,75,29,46,93,,163,140,50,61,7,9,0.9,1
2025-04-08T2200,1153A,118.7794,32.0745,南京市,山西路,颗粒物(PM10),63,75,83,24,31,134,,172,156,25,40,7,9,0.3,0.7
2025-04-08T2200,1154A,118.7752,32.0023,南京市,中华门,颗粒物(PM10),57,63,70,31,35,86,,145,125,47,51,11,15,0.5,0.7
2025-04-08T2200,1155A,118.8109,32.0309,南京市,瑞金路,颗粒物(PM10),63,75,80,34,38,26,,152,108,88,54,7,7,0.6,0.7
2025-04-08T2200,1156A,118.7997,32.0754,南京市,玄武湖,颗粒物(PM10),53,56,72,27,30,95,,140,120,23,25,9,10,0.5,0.7
2025-04-08T2200,1157A,118.6414,32.0931,南京市,浦口,颗粒物(PM10),70,89,86,32,30,108,,192,176,42,27,10,10,0.6,0.5
2025-04-08T2200,1158A,118.7356,31.9996,南京市,奥体中心,颗粒物(PM10),62,74,78,36,39,73,,153,134,54,53,10,14,0.5,0.8
2025-04-08T2200,1159A,118.9125,32.1028,南京市,仙林大学城,颗粒物(PM10),76,102,79,44,36,72,,164,138,69,40,12,12,1.0,1.1
2025-04-08T2200,3422A,118.8436,31.9198,南京市,江宁彩虹桥,颗粒物(PM10),67,83,77,34,34,70,,160,129,70,48,4,5,0.6,0.7
2025-04-08T2200,3427A,118.8554,32.3578,南京市,六合雄州,颗粒物(PM10),97,144,88,51,35,111,,186,166,7,39,6,9,0.7,0.8
2025-04-08T2200,4249A,118.8708,31.3402,南京市,汶溪路181号,细颗粒物(PM2.5),58,62,66,41,41,130,,156,144,82,33,9,8,0.7,0.9
2025-04-08T2200,4312A,119.019,31.6512,南京市,中山西路1号,颗粒物(PM10),58,66,54,40,36,111,,161,146,33,26,8,6,0.6,0.7
2025-04-08T2200,1401A,108.3103,22.7881,南宁市,二十一中,细颗粒物(PM2.5),55,56,58,39,36,67,,87,85,13,18,2,5,1.4,1.2
2025-04-08T2200,1402A,108.3141,22.8528,南宁市,北湖,颗粒物(PM10),53,56,68,36,44,63,,82,71,17,21,6,7,1.1,1
2025-04-08T2200,1403A,108.3206,22.8225,南宁市,市监测站,细颗粒物(PM2.5),52,44,55,36,38,62,,80,78,14,18,5,6,1.1,1
2025-04-08T2200,1404A,108.3829,22.8037,南宁市,大自然花园,,49,46,58,34,38,66,,94,91,11,12,5,6,1.3,1.3
2025-04-08T2200,1405A,108.4394,22.7904,南宁市,仙葫,细颗粒物(PM2.5),58,43,53,41,45,51,,80,76,15,13,3,2,1.0,1
2025-04-08T2200,1406A,108.2397,22.8467,南宁市,区农职院,颗粒物(PM10),51,52,68,32,38,57,,72,63,19,22,3,4,1.0,1
2025-04-08T2200,1407A,108.3275,22.735,南宁市,英华嘉园,细颗粒物(PM2.5),60,65,61,43,40,66,,93,90,15,18,6,8,1.0,0.8
2025-04-08T2200,3401A,108.4834,22.7618,南宁市,红星社区,颗粒物(PM10),51,51,58,35,41,69,,94,89,9,12,7,9,1.2,1
2025-04-08T2200,4221A,108.2177,22.7774,南宁市,乐贤路16号,细颗粒物(PM2.5),60,49,56,43,40,47,,70,64,28,29,7,9,0.9,0.9
2025-04-08T2200,2331A,118.0966,26.6761,南平市,茫荡山,,,,,,,,,,,,,,,,
2025-04-08T2200,2332A,118.1681,26.6369,南平市,南平市监测站,细颗粒物(PM2.5),83,69,57,61,38,38,,136,93,40,20,4,6,1.2,0.8
2025-04-08T2200,2333A,118.1825,26.6489,南平市,南平铝业有限公司,细颗粒物(PM2.5),65,73,55,47,34,46,,137,97,33,21,4,6,1.1,0.8
2025-04-08T2200,2334A,118.1756,26.6272,南平市,南平七中,细颗粒物(PM2.5),74,57,52,54,33,44,,130,98,32,15,5,7,0.9,0.7
2025-04-08T2200,1168A,120.9098,31.9663,南通市,狼山街道,"颗粒物(PM10),细颗粒物(PM2.5)",87,124,87,64,44,173,,203,203,31,56,10,12,1.0,1.1
2025-04-08T2200,1169A,120.86,32.0005,南通市,虹桥,细颗粒物(PM2.5),159,,84,121,54,177,,202,202,32,53,12,14,1.2,1.1
2025-04-08T2200,1170A,120.87,32.02,南通市,城中,细颗粒物(PM2.5),113,137,99,85,46,182,,208,206,32,51,14,15,1.5,1.2
2025-04-08T2200,1171A,120.94,31.93,南通市,星湖花园,细颗粒物(PM2.5),92,117,80,68,45,155,,193,192,34,56,10,13,0.6,0.7
2025-04-08T2200,1172A,120.81,32.0417,南通市,紫琅学院,细颗粒物(PM2.5),113,142,88,85,44,158,,188,182,46,58,10,10,0.8,0.6
2025-04-08T2200,3291A,121.067,32.062,南通市,通州监测站,细颗粒物(PM2.5),100,119,88,75,45,180,,201,200,23,36,8,9,0.8,0.8
2025-04-08T2200,3432A,120.9348,31.9883,南通市,环境教育馆,细颗粒物(PM2.5),113,117,88,85,46,164,,209,204,31,50,11,13,1.0,0.9
2025-04-08T2200,2404A,112.5224,33.0122,南阳市,瓦房庄,颗粒物(PM10),87,123,105,46,41,83,,130,120,34,19,7,8,0.9,0.6
2025-04-08T2200,2405A,112.5003,32.9735,南阳市,汉画馆,颗粒物(PM10),75,99,89,51,42,61,,119,104,32,24,5,7,0.8,0.6
2025-04-08T2200,2406A,112.5573,33.027,南阳市,气象站,颗粒物(PM10),79,107,104,51,43,101,,130,123,28,20,7,8,0.7,0.6
2025-04-08T2200,2407A,112.5481,32.9689,南阳市,理工学院,颗粒物(PM10),82,114,98,53,41,85,,128,119,32,22,6,6,0.7,0.6
2025-04-08T2200,4008A,112.5234,32.9922,南阳市,卧龙区政府,细颗粒物(PM2.5),100,121,100,75,48,79,,132,116,37,20,6,7,0.9,0.7
2025-04-08T2200,1234A,121.8358,29.911,宁波市,区环保大楼,颗粒物(PM10),83,116,79,47,33,1,,132,106,130,57,17,12,0.8,0.7
2025-04-08T2200,1235A,121.56,29.82,宁波市,万里学院,颗粒物(PM10),61,71,60,40,29,103,,172,159,32,18,7,9,0.8,0.7
2025-04-08T2200,1236A,121.713,29.9572,宁波市,龙赛医院,颗粒物(PM10),71,92,83,35,30,113,,175,139,40,34,9,10,0.6,0.6
2025-04-08T2200,1239A,121.633,29.7733,宁波市,钱湖水厂,颗粒物(PM10),58,66,56,32,27,123,,168,153,16,12,8,8,0.6,0.6
2025-04-08T2200,1240A,121.5856,29.8635,宁波市,太古小学,颗粒物(PM10),66,82,65,29,25,115,,157,146,25,19,9,10,0.6,0.5
2025-04-08T2200,1241A,121.524,29.8674,宁波市,市环境监测中心,颗粒物(PM10),62,73,63,40,27,106,,160,148,51,36,10,11,0.6,0.5
2025-04-08T2200,2871A,121.6147,29.9017,宁波市,万里国际学校,颗粒物(PM10),62,73,61,29,28,135,,163,150,14,18,8,9,0.5,0.6
2025-04-08T2200,3710A,121.5594,29.8975,宁波市,白沙活动中心,颗粒物(PM10),56,62,56,32,27,101,,166,150,44,22,7,9,0.5,0.5
2025-04-08T2200,2339A,119.5001,26.6946,宁德市,金涵水库,,,,,,,,,,,,,,,,
2025-04-08T2200,2341A,119.5388,26.6612,宁德市,宁德市监测站,,47,47,57,27,30,84,,129,115,20,17,4,5,0.5,0.7
2025-04-08T2200,3209A,119.5231,26.6562,宁德市,宁德一中,"颗粒物(PM10),细颗粒物(PM2.5)",53,56,54,37,33,70,,130,111,15,13,6,6,0.6,0.6
2025-04-08T2200,2618A,98.8601,25.8567,怒江傈僳族自治州,州监测站,细颗粒物(PM2.5),72,83,67,52,41,97,,133,128,14,9,8,8,0.7,0.5
2025-04-08T2200,2619A,98.8546,25.8417,怒江傈僳族自治州,泸水一中,细颗粒物(PM2.5),70,73,72,51,48,67,,122,111,30,16,7,7,0.9,0.6
2025-04-08T2200,1888A,101.6891,26.571,攀枝花市,弄弄坪,颗粒物(PM10),63,75,82,44,45,102,,162,152,29,39,9,20,0.8,1.4
2025-04-08T2200,1889A,101.5769,26.5928,攀枝花市,河门口,细颗粒物(PM2.5),62,69,67,44,37,114,,164,160,14,22,13,18,0.7,1
2025-04-08T2200,1890A,101.7169,26.585,攀枝花市,炳草岗,颗粒物(PM10),62,74,75,30,43,79,,166,150,50,43,8,17,0.9,1.1
2025-04-08T2200,1891A,101.7369,26.5008,攀枝花市,仁和,细颗粒物(PM2.5),69,86,61,50,39,105,,161,148,18,22,11,12,0.7,0.7
2025-04-08T2200,2835A,101.7227,26.567,攀枝花市,四十中小,细颗粒物(PM2.5),69,78,71,50,38,73,,165,148,55,39,8,13,1.3,1.1
2025-04-08T2200,1604A,122.0303,41.1489,盘锦市,开发区,细颗粒物(PM2.5),73,,40,53,23,86,,134,118,32,16,8,8,0.5,0.4
2025-04-08T2200,1605A,122.0485,41.0883,盘锦市,兴隆台,细颗粒物(PM2.5),74,70,48,54,24,82,,123,106,37,20,8,9,0.7,0.5
2025-04-08T2200,1606A,121.8297,41.1028,盘锦市,新生街道,细颗粒物(PM2.5),78,,37,57,21,70,,131,110,43,33,10,8,0.8,0.8
2025-04-08T2200,1832A,113.3257,33.742,平顶山市,新华旅馆,颗粒物(PM10),108,166,133,50,45,107,,152,143,32,28,8,7,0.7,0.6
2025-04-08T2200,1833A,113.2919,33.737,平顶山市,规划设计院,颗粒物(PM10),102,154,119,64,56,113,,155,150,29,23,7,6,0.8,0.7
2025-04-08T2200,1834A,113.182,33.774,平顶山市,平顶山工学院,颗粒物(PM10),104,158,121,75,54,106,,147,138,23,18,8,7,0.8,0.6
2025-04-08T2200,3204A,113.3025,33.73,平顶山市,规划局,颗粒物(PM10),102,153,122,57,54,117,,154,150,30,21,8,7,1.1,0.9
2025-04-08T2200,3594A,112.8867,33.9116,平顶山市,石龙区,颗粒物(PM10),141,231,142,72,52,3,,150,118,111,26,9,12,0.5,0.4
2025-04-08T2200,2656A,106.6692,35.5461,平凉市,聚贤嘉苑,颗粒物(PM10),115,179,144,43,35,50,,120,101,51,17,18,19,0.5,0.5
2025-04-08T2200,2657A,106.7021,35.5307,平凉市,博物馆,颗粒物(PM10),116,181,145,37,34,75,,115,108,27,15,9,9,0.7,0.7
2025-04-08T2200,2347A,114.0997,27.5002,萍乡市,武功山,,49,36,38,34,32,43,,85,66,8,7,11,11,0.6,0.6
2025-04-08T2200,2348A,113.8385,27.6434,萍乡市,中医院,颗粒物(PM10),58,66,77,40,43,51,,116,97,33,26,11,13,1.2,1.1
2025-04-08T2200,2349A,113.8493,27.6253,萍乡市,市政府车库,细颗粒物(PM2.5),72,,63,52,53,59,,116,94,26,24,7,10,0.9,1
2025-04-08T2200,2350A,113.8676,27.6435,萍乡市,市环保局,细颗粒物(PM2.5),77,69,77,56,53,63,,116,98,27,26,7,11,0.9,0.9
2025-04-08T2200,2351A,113.866,27.6198,萍乡市,安源区政府,颗粒物(PM10),64,77,80,44,45,51,,115,95,28,21,11,14,0.7,0.9
2025-04-08T2200,2319A,119.0141,25.4325,莆田市,荔城区仓后路,细颗粒物(PM2.5),74,89,64,54,37,80,,125,110,34,20,5,4,0.9,0.7
2025-04-08T2200,2320A,119.0015,25.4553,莆田市,莆田市监测站,细颗粒物(PM2.5),72,62,75,52,32,69,,137,118,20,12,5,5,0.7,0.5
2025-04-08T2200,2321A,119.1119,25.4561,莆田市,涵江区六中,细颗粒物(PM2.5),67,74,59,48,33,117,,126,124,22,21,4,4,0.7,0.6
2025-04-08T2200,2322A,119.1013,25.3215,莆田市,秀屿区政府,细颗粒物(PM2.5),59,58,63,42,38,124,,138,131,13,17,6,7,0.7,0.6
2025-04-08T2200,2323A,118.981,25.4792,莆田市,东圳水库,,,,,,,,,,,,,,,,
2025-04-08T2200,2392A,115.0312,35.7636,濮阳市,环保局,,48,48,97,31,56,94,,128,115,17,25,7,12,0.7,0.7
2025-04-08T2200,2394A,115.0574,35.7609,濮阳市,油田运输公司,颗粒物(PM10),53,55,112,30,54,94,,140,126,19,25,6,11,0.8,0.8
2025-04-08T2200,3021A,115,35.7668,濮阳市,濮水河管理处,,43,41,122,30,56,92,,120,112,22,30,5,10,0.9,0.9
2025-04-08T2200,4216A,115.0924,35.7686,濮阳市,任丘路479号,颗粒物(PM10),64,78,127,32,56,87,,138,126,22,24,6,11,1.1,1.2
2025-04-08T2200,2601A,100.98,22.7633,普洱市,市环保局,颗粒物(PM10),66,82,75,21,34,77,,111,99,13,15,4,4,0.7,0.8
2025-04-08T2200,2602A,100.9817,22.8322,普洱市,普洱第二中学,颗粒物(PM10),59,68,51,36,28,64,,101,87,20,20,7,6,0.7,0.6
2025-04-08T2200,2262A,131.0518,45.8751,七台河市,新一中,细颗粒物(PM2.5),108,109,43,81,30,108,,137,125,32,15,16,13,1.4,1
2025-04-08T2200,3345A,131.0577,45.7879,七台河市,中波台,细颗粒物(PM2.5),115,123,49,87,32,62,,121,94,51,23,12,9,0.8,0.6
2025-04-08T2200,3637A,131.0176,45.7761,七台河市,人民广场,细颗粒物(PM2.5),113,111,66,85,45,52,,123,94,59,28,13,11,1.0,0.7
2025-04-08T2200,3684A,130.8781,45.8222,七台河市,新建矿广场,颗粒物(PM10),104,158,89,76,40,52,,120,90,41,40,12,10,0.8,0.6
2025-04-08T2200,1779A,123.9305,47.3636,齐齐哈尔市,安居小区,颗粒物(PM10),57,63,48,27,28,85,,112,102,17,17,3,2,0.4,0.5
