timepoint,stationcode,longitude,latitude,area,positionname,primarypollutant,aqi,pm10,pm10_24h,pm2_5,pm2_5_24h,o3,o3_24h,o3_8h,o3_8h_24h,no2,no2_24h,so2,so2_24h,co,co_24h
2026-03-17T1600,2568A,102.2503,31.8896,阿坝藏族羌族自治州,马师校,,35,27,18,6,7,110,110,82,82,6,6,5,5,0.3,0.3
2026-03-17T1600,3994A,102.2174,31.9016,阿坝藏族羌族自治州,马尔康中学西区,,34,26,12,3,6,107,107,79,79,5,7,2,3,0.3,0.4
2026-03-17T1600,2695A,80.2899,41.1684,阿克苏地区,电视台,颗粒物(PM10),289,412,569,167,196,79,79,63,63,5,14,2,2,0.5,0.6
2026-03-17T1600,2696A,80.2592,41.1541,阿克苏地区,艺术中心,颗粒物(PM10),279,405,545,150,178,84,84,65,65,5,16,4,4,0.2,0.5
2026-03-17T1600,2205A,105.699,38.8409,阿拉善盟,蒙二幼,颗粒物(PM10),54,55,77,9,17,92,92,95,90,6,7,8,9,0.4,0.5
2026-03-17T1600,2206A,105.7198,38.8508,阿拉善盟,环保局新楼,颗粒物(PM10),62,66,75,8,19,86,86,93,85,3,5,7,8,0.4,0.5
2026-03-17T1600,2708A,88.1266,47.8515,阿勒泰地区,市站,,28,12,22,3,8,88,88,66,66,10,16,13,6,0.1,0.2
2026-03-17T1600,4166A,88.1198,47.7931,阿勒泰地区,阿勒泰路33号,,29,10,19,3,7,92,92,74,74,8,13,6,6,0.3,0.4
2026-03-17T1600,2630A,80.1171,32.4999,阿里地区,阿里监测站,,35,10,18,3,5,111,111,115,115,1,2,6,8,0.3,0.3
2026-03-17T1600,3192A,80.0906,32.5029,阿里地区,阿里藏医院,,36,23,20,3,4,113,113,120,120,1,2,8,9,0.4,0.5
2026-03-17T1600,2644A,109.0088,32.6974,安康市,汉滨区检察院,,25,6,17,3,11,80,80,75,66,12,15,4,4,0.6,0.7
2026-03-17T1600,4054A,109.0324,32.6913,安康市,市邮政管理局,,26,6,16,3,13,81,81,71,69,16,19,4,4,0.7,0.7
2026-03-17T1600,2291A,117.0806,30.5181,安庆市,环科院,,19,15,11,13,11,25,25,22,20,22,18,6,7,0.7,0.8
2026-03-17T1600,2292A,117.0331,30.5118,安庆市,马山宾馆,,22,17,13,15,10,29,29,24,24,28,26,4,4,0.8,0.9
2026-03-17T1600,2294A,116.9897,30.6146,安庆市,安庆大学,NA,NA,18,12,11,8,35,35,26,26,16,18,NA,3,0.7,0.7
2026-03-17T1600,3173A,117.0598,30.5351,安庆市,市人大,,19,15,17,13,9,28,28,22,22,27,25,5,5,0.7,0.7
2026-03-17T1600,3123A,105.9408,26.2431,安顺市,凤凰山,细颗粒物(PM2.5),54,NA,31,37,20,111,111,93,93,6,13,9,11,0.5,0.6
2026-03-17T1600,3124A,105.9443,26.2567,安顺市,金钟山,,49,NA,21,34,22,101,101,86,86,5,10,12,12,0.6,0.7
2026-03-17T1600,3125A,105.8983,26.248,安顺市,娄家坡,,45,NA,28,31,21,103,103,87,87,6,10,8,10,0.6,0.7
2026-03-17T1600,1819A,114.3552,36.1017,安阳市,红庙街,细颗粒物(PM2.5),118,NA,78,79,89,91,91,79,79,14,18,2,6,0.6,0.5
2026-03-17T1600,1820A,114.361,36.0681,安阳市,银杏小区,细颗粒物(PM2.5),123,NA,84,85,96,94,94,76,76,15,20,1,2,0.5,0.5
2026-03-17T1600,3141A,114.3921,36.0879,安阳市,信访局,细颗粒物(PM2.5),118,NA,88,79,96,98,98,80,80,6,10,1,2,0.5,0.5
2026-03-17T1600,3669A,114.4706,36.0634,安阳市,左辅环卫站,细颗粒物(PM2.5),112,102,115,73,81,99,99,77,77,9,14,2,2,0.6,0.5
2026-03-17T1600,4117A,114.2918,36.0769,安阳市,钢三路198号,细颗粒物(PM2.5),135,99,133,98,92,83,83,34,NA,7,21,2,2,0.5,0.7
2026-03-17T1600,1748A,123.0441,41.1201,鞍山市,深沟寺,细颗粒物(PM2.5),112,122,115,73,80,146,146,128,128,25,34,14,20,1.0,1.4
2026-03-17T1600,1749A,123.011,41.0931,鞍山市,太阳城,细颗粒物(PM2.5),119,108,113,80,92,134,134,122,122,28,37,16,27,1.1,1.7
2026-03-17T1600,1750A,123.0483,41.1445,鞍山市,太平,细颗粒物(PM2.5),110,114,122,70,86,136,136,123,123,24,40,15,19,1.1,1.5
2026-03-17T1600,1751A,122.964,41.0968,鞍山市,铁西三道街,细颗粒物(PM2.5),117,122,154,78,107,135,135,117,117,28,60,12,29,0.9,1.7
2026-03-17T1600,1753A,123.0219,41.0822,鞍山市,明达新区,细颗粒物(PM2.5),118,118,104,79,79,138,138,124,124,24,28,16,20,1.3,1.4
2026-03-17T1600,4201A,122.944647,41.082639,鞍山市,兴盛南路290号,细颗粒物(PM2.5),125,124,163,87,118,134,134,118,118,29,55,12,20,1.1,1.8
2026-03-17T1600,2195A,107.4206,40.7609,巴彦淖尔市,附二中,颗粒物(PM10),117,164,201,23,55,86,86,74,74,3,8,7,8,0.3,0.4
2026-03-17T1600,2196A,107.37,40.7372,巴彦淖尔市,市环保大楼,颗粒物(PM10),126,186,196,21,56,91,91,86,86,4,8,5,5,0.3,0.4
2026-03-17T1600,1956A,86.1476,41.7529,巴音郭楞蒙古自治州,孔雀公园,颗粒物(PM10),130,198,216,33,46,93,93,68,68,4,35,9,9,0.3,0.6
2026-03-17T1600,1957A,86.1971,41.7166,巴音郭楞蒙古自治州,棉纺厂,颗粒物(PM10),128,191,229,38,48,96,96,76,76,1,23,/,/,/,/
2026-03-17T1600,1958A,86.236,41.7172,巴音郭楞蒙古自治州,经济开发区,颗粒物(PM10),120,171,194,35,48,86,86,74,74,3,13,7,6,0.3,0.4
2026-03-17T1600,3181A,106.776805,31.852614,巴中市,市五中,,17,14,15,3,9,53,53,33,33,11,14,8,8,0.8,0.9
2026-03-17T1600,3183A,106.7419,31.8654,巴中市,圣泉水务公司,,17,11,13,3,7,54,54,31,31,9,15,9,9,1.0,1
2026-03-17T1600,3616A,106.7617,31.8343,巴中市,市中心医院,,17,9,16,6,11,53,53,42,42,7,12,9,10,0.8,0.8
2026-03-17T1600,2235A,122.7909,45.608,白城市,洮北区环保局,细颗粒物(PM2.5),130,172,114,93,73,128,128,119,119,20,19,10,9,0.4,0.3
2026-03-17T1600,2236A,122.8741,45.5725,白城市,市环保局,细颗粒物(PM2.5),130,175,120,93,74,116,116,111,111,21,31,9,8,0.5,0.4
2026-03-17T1600,2231A,126.4219,41.9172,白山市,喜丰,颗粒物(PM10),69,76,101,24,53,110,110,96,96,8,39,8,15,0.9,1.1
2026-03-17T1600,2232A,126.4082,41.9416,白山市,环保局,,47,47,77,25,54,114,114,97,97,8,19,8,14,1.0,1.1
2026-03-17T1600,2647A,104.1727,36.5448,白银市,第三小学,颗粒物(PM10),62,66,92,19,38,99,99,85,82,3,8,4,22,0.3,0.3
2026-03-17T1600,2648A,104.1467,36.5482,白银市,动力公司,颗粒物(PM10),68,74,92,18,32,95,95,84,84,6,8,4,7,0.3,0.4
2026-03-17T1600,2512A,106.6102,23.901,百色市,市监测站,,28,27,47,13,27,88,88,75,75,8,16,9,21,0.4,0.6
2026-03-17T1600,2513A,106.6524,23.8842,百色市,市中心血站,,45,45,50,15,29,84,84,76,76,11,16,9,20,0.5,0.7
2026-03-17T1600,4133A,106.6273,23.8798,百色市,龙景西路,颗粒物(PM10),59,62,61,16,31,95,95,75,75,8,16,11,22,0.5,0.6
2026-03-17T1600,2270A,117.396,32.9389,蚌埠市,工人疗养院,细颗粒物(PM2.5),88,71,77,54,59,66,66,59,59,19,22,3,3,0.7,0.8
2026-03-17T1600,2271A,117.3606,32.9428,蚌埠市,百货大楼,细颗粒物(PM2.5),96,64,76,58,60,59,59,55,55,20,21,4,4,0.5,0.7
2026-03-17T1600,2273A,117.4183,32.8909,蚌埠市,蚌埠学院,NA,NA,NA,60,NA,61,50,50,51,50,NA,24,3,4,0.7,0.6
2026-03-17T1600,2274A,117.3534,32.9672,蚌埠市,淮上区政府,细颗粒物(PM2.5),98,63,70,59,63,61,61,56,56,23,18,4,4,0.7,0.7
2026-03-17T1600,2275A,117.3143,32.8977,蚌埠市,高新区,细颗粒物(PM2.5),78,58,65,49,58,45,45,48,48,35,24,6,6,0.6,0.7
2026-03-17T1600,3715A,117.3091,32.9314,蚌埠市,蚌埠田家炳中学,细颗粒物(PM2.5),76,59,77,48,62,63,63,53,53,17,20,4,4,0.4,0.6
2026-03-17T1600,1585A,109.8761,40.6533,包头市,市环境监测站,颗粒物(PM10),144,234,239,30,77,100,100,94,94,6,39,4,15,0.3,0.8
2026-03-17T1600,1587A,109.9992,40.5843,包头市,包头八中,颗粒物(PM10),129,195,198,56,80,90,90,77,77,6,39,7,16,0.4,0.8
2026-03-17T1600,1589A,109.8641,40.6288,包头市,惠龙物流,颗粒物(PM10),120,170,203,42,81,98,98,90,90,NA,37,NA,20,0.2,0.9
2026-03-17T1600,1590A,110.0376,40.5546,包头市,东河鸿龙湾,颗粒物(PM10),118,165,173,47,71,91,91,84,84,8,47,8,16,0.4,0.7
2026-03-17T1600,3283A,109.9154,40.5684,包头市,滨河大厦,颗粒物(PM10),123,179,171,40,62,93,93,85,85,7,38,NA,16,0.5,0.8
2026-03-17T1600,3419A,109.9449,40.6259,包头市,包头市委党校,颗粒物(PM10),116,161,196,34,68,91,91,79,79,5,44,6,18,0.5,0.9
2026-03-17T1600,3683A,109.8332,40.6577,包头市,昆区政府,颗粒物(PM10),125,183,230,36,76,98,98,90,90,8,43,6,20,0.3,0.9
2026-03-17T1600,1931A,107.0802,34.3129,宝鸡市,竹园沟,,28,28,41,14,32,72,72,55,55,11,14,6,6,0.2,0.7
2026-03-17T1600,1933A,107.1429,34.3549,宝鸡市,监测站,,39,39,51,19,36,68,68,50,50,12,17,5,5,0.1,0.3
2026-03-17T1600,1934A,107.1172,34.3759,宝鸡市,技工学校,,26,25,47,18,37,70,70,54,54,11,17,3,3,0.4,0.7
2026-03-17T1600,1936A,107.2025,34.3518,宝鸡市,文理学院,,38,38,50,19,38,61,61,45,45,14,17,4,4,0.4,0.5
2026-03-17T1600,1937A,107.2396,34.3626,宝鸡市,三迪小学,,34,34,50,17,36,69,69,52,52,20,19,4,4,0.5,0.6
2026-03-17T1600,4155A,107.1721,34.3558,宝鸡市,滨河北路,,27,27,60,17,35,73,73,54,54,12,16,5,5,0.4,0.5
2026-03-17T1600,4308A,107.3898,34.3601,宝鸡市,陈仓区北开路21号,,35,35,50,15,34,76,76,50,50,13,20,6,6,0.3,0.5
2026-03-17T1600,1051A,115.4803,38.8568,保定市,游泳馆,细颗粒物(PM2.5),168,130,112,127,108,116,116,82,82,20,32,14,9,0.7,0.6
2026-03-17T1600,1052A,115.509,38.8895,保定市,华电二区,细颗粒物(PM2.5),143,122,103,107,95,120,120,85,85,14,21,7,4,0.8,0.6
2026-03-17T1600,1053A,115.4588,38.9037,保定市,接待中心,细颗粒物(PM2.5),148,125,109,112,96,114,114,85,85,17,24,NA,5,0.6,0.5
2026-03-17T1600,1054A,115.4484,38.8344,保定市,地表水厂,细颗粒物(PM2.5),146,137,126,110,96,117,117,82,82,20,32,10,7,0.7,0.6
2026-03-17T1600,3581A,115.3136,38.9511,保定市,满城区生态环境分局,细颗粒物(PM2.5),113,129,128,74,89,126,126,89,89,15,29,10,8,0.6,0.6
2026-03-17T1600,3582A,115.4709,38.7628,保定市,清苑区第二中学,细颗粒物(PM2.5),160,152,132,122,98,112,112,80,80,20,35,10,7,0.8,0.6
2026-03-17T1600,3583A,115.6231,39.0223,保定市,徐水物探局,细颗粒物(PM2.5),172,170,142,130,105,118,118,86,86,17,31,7,5,0.8,0.6
2026-03-17T1600,4004A,115.4199,38.8665,保定市,双鹰农机,细颗粒物(PM2.5),150,150,136,114,102,123,123,90,90,18,29,9,6,0.7,0.6
2026-03-17T1600,4034A,115.515,38.8589,保定市,植保所站,细颗粒物(PM2.5),156,137,127,119,105,115,115,78,78,19,31,8,4,0.7,0.6
2026-03-17T1600,2594A,99.1589,25.1137,保山市,市环境监测站,,32,20,31,3,25,101,101,98,98,9,8,11,12,0.1,0.2
2026-03-17T1600,2595A,99.1616,25.1381,保山市,市环保局,,33,22,34,13,28,103,103,101,101,6,5,5,5,0.5,0.5
2026-03-17T1600,1867A,109.1435,21.4085,北海市,海滩公园,颗粒物(PM10),52,52,37,8,13,90,90,95,94,5,7,7,8,0.6,0.6
2026-03-17T1600,1868A,109.0983,21.466,北海市,新市环保局,,29,29,32,13,12,78,78,88,83,6,8,6,7,0.5,0.5
2026-03-17T1600,1869A,109.1775,21.5232,北海市,北海工业园,,41,41,40,12,15,85,85,86,85,2,4,6,6,0.4,0.4
2026-03-17T1600,3400A,109.1844,21.4396,北海市,龙潭自来水厂,NA,NA,28,30,8,10,81,81,89,86,NA,2,7,6,NA,0.3
2026-03-17T1600,1001A,116.3611,39.8786,北京市,万寿西宫,细颗粒物(PM2.5),172,168,129,130,94,93,93,59,59,38,45,5,4,0.8,0.8
2026-03-17T1600,1003A,116.4174,39.9289,北京市,东四,细颗粒物(PM2.5),173,175,130,131,95,91,91,59,59,38,45,8,8,0.8,0.8
2026-03-17T1600,1004A,116.4073,39.8858,北京市,天坛,细颗粒物(PM2.5),163,165,124,124,89,88,88,55,55,35,42,5,4,1.2,1.1
2026-03-17T1600,1005A,116.4622,39.9364,北京市,农展馆,细颗粒物(PM2.5),170,166,133,129,95,84,84,57,57,30,39,7,7,0.8,0.8
2026-03-17T1600,1006A,116.3399,39.9293,北京市,官园,细颗粒物(PM2.5),175,168,128,132,93,86,86,57,57,42,47,4,4,0.7,0.7
2026-03-17T1600,1007A,116.2879,39.9613,北京市,海淀万柳,细颗粒物(PM2.5),168,161,119,127,88,69,69,46,46,43,44,5,6,0.8,0.8
2026-03-17T1600,1008A,116.6635,40.1349,北京市,顺义新城,细颗粒物(PM2.5),166,171,133,126,90,93,93,70,70,30,31,7,9,0.8,0.9
2026-03-17T1600,1009A,116.6275,40.327,北京市,怀柔镇,细颗粒物(PM2.5),160,151,109,122,81,79,79,75,75,35,24,9,7,1.2,0.9
2026-03-17T1600,1010A,116.2295,40.217,北京市,昌平镇,细颗粒物(PM2.5),160,158,116,122,85,78,78,68,68,45,39,5,5,1.2,1
2026-03-17T1600,1011A,116.3968,39.982,北京市,奥体中心,细颗粒物(PM2.5),163,164,127,124,91,76,76,48,48,38,44,5,6,0.9,0.9
2026-03-17T1600,3418A,116.8336,40.4095,北京市,密云新城,细颗粒物(PM2.5),153,163,122,117,76,84,84,74,74,28,27,7,5,1.0,0.8
2026-03-17T1600,3671A,116.0879,39.9725,北京市,门头沟三家店,细颗粒物(PM2.5),162,167,121,123,80,78,78,65,65,39,37,6,6,0.8,0.7
2026-03-17T1600,3672A,116.1507,39.8246,北京市,丰台云岗,细颗粒物(PM2.5),180,174,131,136,89,103,103,67,67,28,42,6,5,0.7,0.8
2026-03-17T1600,3674A,115.9578,39.7602,北京市,房山燕山,细颗粒物(PM2.5),156,159,118,119,84,93,93,64,64,31,35,5,5,0.6,0.6
2026-03-17T1600,3675A,116.4669,39.7734,北京市,大兴旧宫,细颗粒物(PM2.5),165,165,131,125,93,89,89,60,60,31,39,6,6,0.8,0.9
2026-03-17T1600,3694A,115.9859,40.4562,北京市,延庆石河营,细颗粒物(PM2.5),150,146,94,115,67,95,95,83,83,25,19,4,2,0.8,0.7
2026-03-17T1600,3695A,116.6151,40.3052,北京市,怀柔新城,细颗粒物(PM2.5),155,153,110,118,84,82,82,75,75,33,22,8,6,1.1,0.8
2026-03-17T1600,3696A,116.2542,39.8764,北京市,丰台小屯,细颗粒物(PM2.5),170,174,129,129,89,89,89,57,57,36,49,5,5,0.6,0.6
2026-03-17T1600,3697A,116.8399,40.3843,北京市,密云镇,细颗粒物(PM2.5),158,153,112,120,78,85,85,69,69,29,37,7,7,0.9,0.8
2026-03-17T1600,4057A,115.9423,40.4431,北京市,延庆百泉,细颗粒物(PM2.5),127,124,90,89,60,102,102,85,85,24,21,2,2,0.7,0.6
2026-03-17T1600,4058A,116.6598,39.9164,北京市,通州新华,细颗粒物(PM2.5),165,173,145,125,99,80,80,61,61,35,38,5,5,0.8,0.9
2026-03-17T1600,4182A,116.1942,39.9158,北京市,石景山八角,细颗粒物(PM2.5),155,166,125,118,81,83,83,62,62,34,41,6,7,0.7,0.7
2026-03-17T1600,4194A,117.078628,40.151726,北京市,平谷新城,细颗粒物(PM2.5),145,147,108,109,76,100,100,79,79,26,26,4,4,0.9,0.8
2026-03-17T1600,1761A,123.8274146,41.31234549,本溪市,大峪,颗粒物(PM10),58,60,143,33,86,123,123,100,100,14,41,10,13,0.6,1.2
2026-03-17T1600,1763A,123.7169,41.3094,本溪市,彩屯,细颗粒物(PM2.5),84,85,151,52,117,137,137,106,106,17,47,12,20,0.7,2.1
2026-03-17T1600,1764A,123.7672166,41.28649327,本溪市,东明,"颗粒物(PM10),细颗粒物(PM2.5)",58,61,137,39,98,127,127,98,98,16,53,10,14,0.5,1.3
2026-03-17T1600,1765A,123.799345,41.266614,本溪市,新立屯,细颗粒物(PM2.5),66,60,83,43,61,126,126,106,106,13,46,9,11,0.7,1.4
2026-03-17T1600,1766A,123.829144,41.336777,本溪市,威宁,,49,49,183,32,114,130,130,105,105,11,39,8,9,0.6,1.3
2026-03-17T1600,2587A,105.287,27.3133,毕节市,八中,,20,17,28,14,15,38,38,30,30,7,11,9,10,0.6,0.6
2026-03-17T1600,2588A,105.3079,27.2987,毕节市,师专,,28,19,28,19,14,37,37,28,28,7,11,8,9,0.5,0.5
2026-03-17T1600,4263A,105.3688,27.3598,毕节市,工业大道,,22,19,26,15,14,43,43,35,35,8,8,10,11,/,/
2026-03-17T1600,1629A,117.9961,37.3604,滨州市,第二水厂,细颗粒物(PM2.5),125,107,98,87,82,169,169,116,116,17,31,13,21,0.7,0.6
2026-03-17T1600,1630A,117.9789,37.3931,滨州市,北中新校,细颗粒物(PM2.5),130,117,104,93,80,177,177,121,121,21,33,15,23,0.4,0.4
2026-03-17T1600,3514A,117.9379,37.3959,滨州市,中海酒店,细颗粒物(PM2.5),128,119,99,90,79,178,178,125,125,22,30,13,13,0.8,0.9
2026-03-17T1600,3515A,117.9381509,37.35547456,滨州市,开发区一中,细颗粒物(PM2.5),126,114,104,88,79,162,162,125,125,11,28,18,21,0.9,0.8
2026-03-17T1600,3516A,118.0914,37.6938,滨州市,金海六路,细颗粒物(PM2.5),168,142,105,127,94,185,185,129,129,26,30,14,11,1.0,0.8
2026-03-17T1600,4028A,117.9955,37.3752,滨州市,滨州市西街道办事处,细颗粒物(PM2.5),153,NA,100,117,89,173,173,121,121,13,23,12,19,0.8,0.7
2026-03-17T1600,2311A,115.8071,33.8399,亳州市,污水处理厂,细颗粒物(PM2.5),88,70,97,54,78,51,51,45,45,19,24,3,5,0.3,0.3
2026-03-17T1600,2312A,115.7789,33.8519,亳州市,三国揽胜宫,NA,NA,NA,106,58,83,46,46,39,39,16,24,NA,5,0.3,0.4
2026-03-17T1600,3332A,115.7631,33.803,亳州市,亳州学院,NA,NA,70,102,60,80,NA,NA,44,40,18,20,4,5,0.2,0.2
2026-03-17T1600,2693A,82.0482,44.8553,博尔塔拉蒙古自治州,市党校,颗粒物(PM10),61,65,71,26,20,119,119,94,94,7,8,8,4,0.6,0.5
2026-03-17T1600,2694A,82.0805,44.8966,博尔塔拉蒙古自治州,市环保局,,50,50,61,32,24,107,107,78,78,14,21,7,2,0.5,0.5
2026-03-17T1600,1071A,116.8733,38.2922,沧州市,沧县城建局,细颗粒物(PM2.5),132,124,135,95,109,127,127,93,93,NA,35,3,3,NA,0.9
2026-03-17T1600,1072A,116.8462,38.3189,沧州市,电视转播站,细颗粒物(PM2.5),155,124,130,118,129,131,131,94,94,19,34,1,2,0.7,0.7
2026-03-17T1600,1073A,116.8588,38.3161,沧州市,市环保局,细颗粒物(PM2.5),134,116,141,97,111,130,130,93,93,18,35,8,6,0.7,0.7
2026-03-17T1600,3324A,116.8011,38.294,沧州市,河北水利电力学院,细颗粒物(PM2.5),163,132,142,124,132,115,115,85,85,17,32,8,8,0.6,0.7
2026-03-17T1600,2622A,97.1813,31.1289,昌都市,昌都监测站,,35,11,18,3,5,109,109,80,80,2,9,2,3,0.4,0.6
2026-03-17T1600,3719A,97.1707,31.1428,昌都市,昌都会议中心,,35,6,8,3,6,109,109,86,86,3,6,4,5,0.3,0.4
2026-03-17T1600,2692A,87.2722,44.0298,昌吉回族自治州,新区政务中心,颗粒物(PM10),54,55,66,23,49,87,87,56,56,12,29,10,6,0.5,0.8
2026-03-17T1600,3613A,87.3069,44.0093,昌吉回族自治州,亚心广场,颗粒物(PM10),53,53,92,19,49,89,89,58,58,10,32,13,10,0.5,0.8
2026-03-17T1600,4164A,87.2057,43.9289,昌吉回族自治州,财政所,颗粒物(PM10),70,77,92,36,39,93,93,70,70,13,17,9,7,0.6,0.8
2026-03-17T1600,1120A,125.2874,43.9024,长春市,客车厂,细颗粒物(PM2.5),113,126,182,74,168,143,143,130,130,22,50,10,16,0.9,1.1
2026-03-17T1600,1121A,125.2943,43.8508,长春市,邮电学院,细颗粒物(PM2.5),110,132,197,70,170,141,141,130,130,22,35,12,14,0.7,0.9
2026-03-17T1600,1122A,125.3648,43.8745,长春市,劳动公园,细颗粒物(PM2.5),104,124,208,64,178,146,146,133,133,16,44,12,15,0.6,1
2026-03-17T1600,1123A,125.3233,43.8781,长春市,园林处,细颗粒物(PM2.5),110,121,193,71,174,145,145,133,133,15,34,10,15,0.6,1
2026-03-17T1600,1124A,125.4604,43.7904,长春市,净月潭,细颗粒物(PM2.5),110,121,219,70,192,146,146,138,138,14,28,9,13,0.5,0.9
2026-03-17T1600,1126A,125.38,43.8422,长春市,经开区环卫处,细颗粒物(PM2.5),110,130,220,70,185,146,146,134,134,16,58,7,11,0.6,1
2026-03-17T1600,1127A,125.234,43.7761,长春市,高新区管委会,细颗粒物(PM2.5),114,119,212,75,179,145,145,126,126,21,63,9,13,0.7,1.3
2026-03-17T1600,1128A,125.1695,43.83,长春市,岱山公园,细颗粒物(PM2.5),149,160,197,113,182,144,144,122,122,26,57,10,14,0.8,1
2026-03-17T1600,4281A,125.334645,43.916281,长春市,北亚泰大街1068号,"颗粒物(PM10),细颗粒物(PM2.5)",111,148,208,72,179,131,131,116,116,20,51,9,15,0.5,0.9
2026-03-17T1600,1335A,113.082,28.2421,长沙市,经开区环保局,,19,14,15,13,8,26,26,22,16,16,21,2,3,0.7,0.7
2026-03-17T1600,1336A,112.8873,28.2202,长沙市,高开区环保局,,20,NA,12,14,8,31,31,32,20,14,18,4,4,0.9,0.8
2026-03-17T1600,1337A,113.0785,28.2012,长沙市,马坡岭,,22,NA,17,15,12,28,28,26,16,17,21,4,4,0.9,0.9
2026-03-17T1600,1338A,112.9448,28.1894,长沙市,湖南师范大学,,19,17,17,13,10,35,35,36,26,16,21,4,4,0.9,0.8
2026-03-17T1600,1339A,113.0177,28.1322,长沙市,雨花区环保局,,37,37,18,21,11,28,28,28,19,14,15,3,3,0.9,1
2026-03-17T1600,1340A,112.9795,28.2593,长沙市,伍家岭,,19,17,13,13,9,32,32,31,25,14,16,3,3,0.7,0.7
2026-03-17T1600,1341A,113.002,28.1944,长沙市,火车新站,,22,20,15,15,10,32,32,31,21,15,18,3,3,0.7,0.7
2026-03-17T1600,1342A,112.9846,28.1177,长沙市,天心区环保局,,40,30,17,28,13,28,28,31,20,26,22,5,5,0.9,0.8
2026-03-17T1600,1343A,112.8906,28.1307,长沙市,湖南中医药大学,,22,19,15,15,10,32,32,34,26,12,12,5,5,0.8,0.8
2026-03-17T1600,1727A,113.1146,36.1547,长治市,清华站,颗粒物(PM10),53,54,77,35,57,90,90,65,65,14,19,7,7,0.7,0.9
2026-03-17T1600,1730A,113.0887,36.2126,长治市,审计局,细颗粒物(PM2.5),88,63,77,54,67,79,79,64,61,19,18,8,10,0.7,0.7
2026-03-17T1600,1731A,113.0845,36.1856,长治市,长治八中,细颗粒物(PM2.5),76,57,92,48,66,88,88,66,66,11,17,10,11,0.7,0.8
2026-03-17T1600,2845A,113.1561,36.1912,长治市,德盛苑,细颗粒物(PM2.5),76,63,84,48,65,90,90,76,68,16,17,8,10,0.7,1
2026-03-17T1600,3568A,113.0603,36.0464,长治市,向阳小学,颗粒物(PM10),56,58,102,27,56,101,101,82,82,18,22,10,11,0.8,0.8
2026-03-17T1600,3569A,112.8788,36.315,长治市,屯留一中,细颗粒物(PM2.5),105,85,87,65,56,82,82,70,70,17,26,6,6,0.7,0.7
2026-03-17T1600,4189A,113.113092,36.199482,长治市,英华南巷50号,细颗粒物(PM2.5),68,67,85,44,64,89,89,68,68,19,21,9,10,0.7,0.8
2026-03-17T1600,4190A,113.23666,36.33435,长治市,学府街1号,细颗粒物(PM2.5),92,79,84,56,65,91,91,71,71,13,24,5,6,0.8,1
2026-03-17T1600,1854A,111.696,28.9725,常德市,市二中,,16,16,23,8,14,51,51,50,43,14,13,6,6,1.0,1.1
2026-03-17T1600,3138A,111.7152,29.0288,常德市,武陵区永安,,16,13,18,8,16,50,50,51,44,18,17,3,3,0.9,0.8
2026-03-17T1600,3139A,111.6891,28.9881,常德市,鼎城区玉霞,,16,15,20,9,15,50,50,51,41,18,17,6,6,1.0,0.9
2026-03-17T1600,3140A,111.6651,29.0526,常德市,武陵区长庚,,19,NA,19,13,18,54,54,51,46,13,13,6,6,1.0,0.9
2026-03-17T1600,1196A,119.9524,31.7586,常州市,市监测站,,45,44,63,31,47,36,36,67,57,58,30,7,7,0.8,0.7
2026-03-17T1600,1200A,119.9351,31.703,常州市,武进监测站,,49,49,67,28,46,43,43,63,54,48,29,8,7,0.6,0.7
2026-03-17T1600,3002A,119.9701,31.813,常州市,行政中心,,37,37,61,22,44,43,43,62,59,52,32,5,5,0.4,0.5
2026-03-17T1600,3003A,120.0434,31.7726,常州市,经开区,颗粒物(PM10),60,63,71,28,41,40,40,70,57,50,30,8,7,0.8,0.8
2026-03-17T1600,3010A,119.8919,31.7892,常州市,钟楼,NA,NA,35,56,21,42,47,47,71,66,52,31,NA,6,0.3,0.4
2026-03-17T1600,3429A,119.8595,31.706,常州市,武进经发区,,46,34,51,32,47,41,41,60,54,53,36,6,6,0.7,0.8
2026-03-17T1600,3430A,119.5812,31.7256,常州市,金坛城区,,40,NA,44,28,51,39,39,58,51,43,29,6,6,0.7,0.7
2026-03-17T1600,4089A,119.9551,31.863,常州市,崇义南街5-H号,,38,29,55,26,50,42,42,60,56,41,26,5,5,0.7,0.7
2026-03-17T1600,2220A,120.4318,41.588,朝阳市,西梁,细颗粒物(PM2.5),92,95,65,56,48,129,129,121,121,17,23,9,10,0.6,0.7
2026-03-17T1600,2221A,120.452,41.565,朝阳市,河畔小区,细颗粒物(PM2.5),74,74,59,47,42,127,127,119,119,19,21,13,12,0.8,0.7
2026-03-17T1600,2222A,120.4176,41.5648,朝阳市,八里堡,细颗粒物(PM2.5),94,76,56,57,44,118,118,110,110,23,23,11,10,0.9,0.6
2026-03-17T1600,3026A,116.6179,23.6608,潮州市,市政府,颗粒物(PM10),55,57,49,14,29,144,144,107,107,8,16,5,8,0.3,0.4
2026-03-17T1600,4036A,116.646,23.676,潮州市,金山,,43,36,41,14,25,135,135,102,102,7,14,4,4,0.4,0.5
2026-03-17T1600,2473A,113.0116,25.8228,郴州市,市职中,,31,27,46,10,35,97,97,70,70,10,16,5,5,0.3,0.7
2026-03-17T1600,2475A,113.0381,25.8074,郴州市,市审计局,,29,28,46,9,30,92,92,66,66,7,14,3,6,/,/
2026-03-17T1600,2476A,113.0348,25.7757,郴州市,市环保局,,35,35,50,9,35,84,84,61,61,10,21,5,7,0.1,0.6
2026-03-17T1600,4252A,113.0138,25.8011,郴州市,好美居路49号,,46,NA,33,32,37,98,98,71,71,9,22,5,6,/,/
2026-03-17T1600,1431A,103.9727,30.7242,成都市,金泉两河,,25,10,22,3,18,77,77,50,50,11,17,2,2,0.4,0.4
2026-03-17T1600,1432A,104.1423,30.6765,成都市,十里店,,22,NA,18,6,16,70,70,40,40,9,14,4,3,0.5,0.5
2026-03-17T1600,1433A,104.0594,30.5765,成都市,三瓦窑,,29,20,20,20,19,43,43,36,36,21,11,2,2,0.8,0.6
2026-03-17T1600,1434A,104.1122,30.6306,成都市,沙河铺,,20,15,21,6,16,62,62,36,36,17,22,4,4,0.4,0.4
2026-03-17T1600,2880A,104.0219,30.6561,成都市,大石西路,,22,17,26,6,19,68,68,42,42,14,18,2,2,0.6,0.6
2026-03-17T1600,3136A,104.2724,30.559,成都市,龙泉驿区区政府,NA,NA,7,12,6,13,62,62,41,41,9,10,6,6,NA,0.5
2026-03-17T1600,3357A,104.0028,30.6891,成都市,金博路,,23,12,16,3,18,73,73,44,44,16,23,5,5,0.7,0.8
2026-03-17T1600,3359A,104.056,30.5228,成都市,华阳,,27,27,20,15,16,42,42,35,35,26,18,3,2,0.7,0.6
2026-03-17T1600,3488A,104.387954,30.746684,成都市,青石路225号,NA,NA,6,16,3,16,74,74,58,58,NA,12,8,5,0.4,0.7
2026-03-17T1600,3489A,104.0788,30.4054,成都市,科学城,,30,25,18,21,14,34,34,39,39,25,12,7,6,0.8,0.7
2026-03-17T1600,4011A,103.8505,30.6946,成都市,光华大道三段,NA,NA,13,25,3,18,80,80,49,49,17,23,NA,3,0.4,0.4
2026-03-17T1600,4144A,104.3257,30.6406,成都市,八角井街185号,,21,NA,18,3,14,65,65,40,40,10,14,2,3,0.6,0.5
2026-03-17T1600,4224A,104.2433276,30.53529463,成都市,鲸龙路1057号,,19,10,20,6,12,58,58,42,42,13,13,5,5,0.5,0.4
2026-03-17T1600,1062A,117.9531,40.908,承德市,铁路,细颗粒物(PM2.5),100,99,81,60,47,103,103,72,72,27,29,6,4,0.6,0.6
2026-03-17T1600,1063A,117.9397,40.9763,承德市,中国银行,细颗粒物(PM2.5),94,94,78,57,42,112,112,82,82,18,23,5,3,0.6,0.6
2026-03-17T1600,4073A,117.9462,40.95,承德市,杏林街1号,细颗粒物(PM2.5),115,96,81,76,53,119,119,86,86,17,20,7,5,0.6,0.6
2026-03-17T1600,4274A,117.7994,40.9605,承德市,滨河大街98号,细颗粒物(PM2.5),86,63,67,53,48,119,119,90,90,19,26,9,12,0.6,0.6
2026-03-17T1600,2314A,117.4698,30.6617,池州市,池州学院,,19,15,13,11,11,27,27,24,24,38,39,4,3,0.5,0.5
2026-03-17T1600,3237A,117.4918,30.6617,池州市,展览馆,,20,16,16,12,13,24,24,28,28,39,39,2,2,0.7,0.7
2026-03-17T1600,3333A,117.5626,30.695,池州市,第八中学,,20,15,15,10,11,25,25,26,25,39,43,4,3,0.8,0.7
2026-03-17T1600,3334A,117.5037,30.6242,池州市,第十二中学,,21,11,11,10,9,20,20,28,28,42,39,4,4,0.8,0.8
2026-03-17T1600,1744A,118.9229,42.2816,赤峰市,松山一中,细颗粒物(PM2.5),82,67,75,51,55,82,82,94,88,21,23,4,7,0.4,0.8
2026-03-17T1600,1745A,118.9588,42.2733,赤峰市,哈达街,颗粒物(PM10),56,58,73,32,50,91,91,92,92,23,27,10,11,0.5,0.7
2026-03-17T1600,1746A,118.8792,42.2551,赤峰市,天义路,细颗粒物(PM2.5),54,48,57,37,48,107,107,108,108,14,18,5,6,0.4,0.7
2026-03-17T1600,3058A,119.2656,42.0356,赤峰市,银河街,颗粒物(PM10),113,153,146,73,85,110,110,112,112,17,24,14,19,0.6,0.9
2026-03-17T1600,3286A,118.9359,42.3146,赤峰市,桥北物流园区,"颗粒物(PM10),细颗粒物(PM2.5)",52,52,67,36,47,97,97,98,98,20,21,3,4,0.6,0.7
2026-03-17T1600,2521A,107.3473,22.4137,崇左市,市环保局江州分局,颗粒物(PM10),52,52,66,24,43,73,73,58,58,12,20,5,7,0.8,0.9
2026-03-17T1600,4256A,107.375,22.3736,崇左市,石景林东路7号,,40,40,42,22,32,82,82,67,67,9,15,3,3,0.9,0.9
2026-03-17T1600,3207A,118.31131,32.3033,滁州市,市政府原办公楼,细颗粒物(PM2.5),74,NA,67,47,69,39,39,52,41,39,24,4,4,0.7,0.5
2026-03-17T1600,3331A,118.3268,32.2633,滁州市,图书馆,颗粒物(PM10),56,58,75,37,59,36,36,48,38,42,26,8,8,0.8,0.6
2026-03-17T1600,4101A,118.3196,32.3335,滁州市,银山路666号,细颗粒物(PM2.5),60,NA,60,40,59,44,44,56,48,34,20,10,10,0.9,0.8
2026-03-17T1600,4102A,118.3426,32.2979,滁州市,黄山路555号,细颗粒物(PM2.5),68,58,88,44,64,36,36,50,41,48,30,7,6,0.9,0.8
2026-03-17T1600,2606A,101.5379,25.0492,楚雄彝族自治州,市经济开发区,,38,38,40,24,29,115,115,93,93,7,14,4,8,0.7,0.7
2026-03-17T1600,4153A,101.5536,25.0343,楚雄彝族自治州,团结路562号,,39,33,31,25,23,122,122,104,104,4,9,6,7,0.3,0.3
2026-03-17T1600,2549A,107.5087,31.2186,达州市,市环境监测站,,21,21,22,3,5,41,41,29,29,14,22,7,6,0.3,0.3
2026-03-17T1600,2550A,107.4988,31.2132,达州市,凤凰小区,,17,17,21,3,6,44,44,32,32,13,23,6,6,0.3,0.4
2026-03-17T1600,2551A,107.5081,31.1987,达州市,达县机关宾馆,,15,12,20,3,10,48,48,30,30,13,28,6,5,0.5,0.5
2026-03-17T1600,2552A,107.4644,31.2124,达州市,市政中心,,16,16,26,3,5,42,42,26,26,17,23,6,6,0.5,0.5
2026-03-17T1600,2614A,100.2168,25.5818,大理白族自治州,大理市环境监测站,,31,16,27,16,25,97,97,100,96,8,8,7,7,0.5,0.5
2026-03-17T1600,2615A,100.1542,25.7055,大理白族自治州,大理古城,,35,16,25,11,20,109,109,114,108,5,5,8,8,0.5,0.5
2026-03-17T1600,1109A,121.6119,38.974,大连市,甘井子,,46,40,113,32,82,132,132,102,102,20,61,8,14,0.3,0.7
2026-03-17T1600,1110A,121.565,38.9509,大连市,周水子,颗粒物(PM10),53,54,99,31,81,113,113,89,89,14,53,8,14,0.5,0.9
2026-03-17T1600,1111A,121.5637,38.8849,大连市,星海三站,细颗粒物(PM2.5),80,59,79,50,64,80,80,61,61,25,26,7,7,0.7,0.8
2026-03-17T1600,1112A,121.6301,38.9117,大连市,青泥洼桥,,37,29,79,21,63,116,116,100,100,12,30,6,8,0.4,0.9
2026-03-17T1600,1113A,121.6248,38.8643,大连市,傅家庄,细颗粒物(PM2.5),56,47,80,38,58,90,90,66,66,28,29,8,11,0.7,0.7
2026-03-17T1600,1114A,121.5117,38.8636,大连市,七贤岭,,49,49,76,30,58,114,114,98,98,21,35,8,8,0.5,0.8
2026-03-17T1600,1116A,121.7507,39.1339,大连市,金州,细颗粒物(PM2.5),54,49,101,37,76,140,140,110,110,18,42,7,11,0.5,0.8
2026-03-17T1600,1117A,121.7811,39.0495,大连市,开发区,颗粒物(PM10),55,57,103,27,81,115,115,91,91,21,56,9,10,0.3,0.7
2026-03-17T1600,1118A,121.9762,39.0631,大连市,双D港,细颗粒物(PM2.5),92,71,91,56,76,83,83,62,62,41,38,8,7,0.6,0.7
2026-03-17T1600,4082A,121.2548,38.8188,大连市,旅顺,,45,44,90,31,74,100,100,79,79,24,32,8,8,0.4,0.7
2026-03-17T1600,1789A,124.8085,46.0381,大庆市,大同区,颗粒物(PM10),412,512,175,275,104,183,183,146,146,37,36,19,18,1.9,1
2026-03-17T1600,1790A,125.1166,46.5255,大庆市,龙凤区,细颗粒物(PM2.5),221,284,112,171,78,160,160,119,119,32,31,10,6,1.0,0.5
2026-03-17T1600,1791A,124.8894,46.4007,大庆市,红岗区,细颗粒物(PM2.5),296,359,103,246,76,170,170,133,133,39,23,9,4,1.2,0.7
2026-03-17T1600,1792A,125.1391,46.578,大庆市,萨尔图区,细颗粒物(PM2.5),203,253,105,153,63,154,154,116,116,27,25,11,8,1.0,0.6
2026-03-17T1600,1793A,124.9026,46.6217,大庆市,让胡路区,细颗粒物(PM2.5),228,264,101,178,73,160,160,120,120,28,36,13,11,1.1,0.9
2026-03-17T1600,3481A,125.127,46.6277,大庆市,萨区政府监测点,细颗粒物(PM2.5),208,253,104,158,65,151,151,113,113,19,17,12,10,0.7,0.4
2026-03-17T1600,1723A,113.2926,40.0759,大同市,云冈宾馆,颗粒物(PM10),123,179,133,71,73,80,80,52,52,17,44,7,11,0.5,1
2026-03-17T1600,1724A,113.3437,40.0921,大同市,大同大学,颗粒物(PM10),153,255,148,56,77,92,92,65,65,21,45,9,12,0.4,0.9
2026-03-17T1600,1725A,113.2637,40.129,大同市,安家小村,颗粒物(PM10),164,277,151,73,71,88,88,50,50,14,44,11,17,0.4,1.1
2026-03-17T1600,3282A,113.3399,40.0586,大同市,大同市卫生学校,颗粒物(PM10),152,254,163,57,87,88,88,62,62,19,43,9,12,0.5,0.9
2026-03-17T1600,3565A,113.1371,40.1122,大同市,云冈站,颗粒物(PM10),155,260,128,63,43,90,90,50,50,4,35,5,13,0.5,0.7
2026-03-17T1600,3566A,113.1186,40.2556,大同市,图书馆,颗粒物(PM10),136,213,111,57,54,97,97,70,70,9,22,4,10,0.4,0.7
2026-03-17T1600,3567A,113.5931,40.0459,大同市,区一中,颗粒物(PM10),166,282,175,98,109,92,92,89,89,22,27,24,20,0.5,0.9
2026-03-17T1600,4199A,113.2798248,40.09972476,大同市,魏都大道141号,颗粒物(PM10),156,262,158,61,72,87,87,51,51,15,47,8,13,0.5,1.1
2026-03-17T1600,2269A,124.1068,50.4091,大兴安岭地区,科技局,NA,NA,55,32,35,19,105,105,86,86,NA,7,NA,6,0.3,0.5
2026-03-17T1600,3663A,124.117,50.4279,大兴安岭地区,红旗社区,,49,44,25,34,18,116,116,92,92,10,13,12,10,0.4,0.3
2026-03-17T1600,1600A,124.33,40.0625,丹东市,江湾东路,细颗粒物(PM2.5),137,113,162,100,138,129,129,120,120,34,41,18,14,0.9,1.7
2026-03-17T1600,1601A,124.4242,40.1513,丹东市,临江后街,细颗粒物(PM2.5),113,98,173,74,138,134,134,115,115,26,37,21,19,0.9,1.6
2026-03-17T1600,1602A,124.3935,40.1461,丹东市,元宝山,细颗粒物(PM2.5),128,116,145,90,115,127,127,112,112,37,38,17,13,0.9,1.5
2026-03-17T1600,1603A,124.3634,40.1093,丹东市,民主桥,细颗粒物(PM2.5),130,129,162,93,126,132,132,118,118,30,42,13,12,0.8,1.3
2026-03-17T1600,3541A,109.5726195,19.51688767,儋州市,第一中学子站,,25,25,27,9,10,74,74,68,68,2,2,6,6,0.3,0.3
2026-03-17T1600,3542A,109.5567,19.5187,儋州市,东坡学校子站,,25,15,25,11,11,79,79,73,73,2,3,5,5,0.3,0.3
2026-03-17T1600,2616A,98.5611,24.4273,德宏傣族景颇族自治州,德宏州监测站,NA,NA,40,34,12,33,94,94,61,61,6,12,NA,12,0.5,0.8
2026-03-17T1600,3677A,98.5887,24.4366,德宏傣族景颇族自治州,芒市人民政府综合楼,,28,28,58,12,32,84,84,52,52,7,13,8,8,0.4,0.6
2026-03-17T1600,1901A,104.424,31.1209,德阳市,东山公园,,21,6,11,3,11,65,65,51,51,6,8,2,2,0.5,0.5
2026-03-17T1600,1902A,104.3827,31.1318,德阳市,西小区,,21,9,21,3,10,66,66,50,50,6,11,3,2,0.6,0.6
2026-03-17T1600,1904A,104.3553,31.1091,德阳市,耐火材料厂,,21,7,18,3,11,65,65,50,50,11,15,1,2,0.5,0.5
2026-03-17T1600,4145A,104.4144,31.1495,德阳市,市林业局,,21,6,13,3,11,67,67,52,52,4,9,4,4,0.5,0.5
2026-03-17T1600,1622A,116.3034,37.4675,德州市,儿童乐园,细颗粒物(PM2.5),126,117,150,88,129,131,131,102,102,19,29,11,12,0.8,0.9
2026-03-17T1600,1624A,116.2992,37.4449,德州市,监理站,细颗粒物(PM2.5),125,119,154,87,125,135,135,104,104,22,36,8,9,0.7,1
2026-03-17T1600,3066A,116.2722,37.438,德州市,九衢泉纯净水厂,细颗粒物(PM2.5),130,102,147,92,126,130,130,98,98,26,49,4,6,0.8,1
2026-03-17T1600,3371A,116.3693,37.44,德州市,开发区人民医院,细颗粒物(PM2.5),130,112,152,92,126,127,127,91,91,18,34,8,8,0.7,0.9
2026-03-17T1600,3511A,116.5687,37.3331,德州市,陵城艺术中心,细颗粒物(PM2.5),130,110,144,92,129,129,129,91,91,14,29,5,8,0.9,1
2026-03-17T1600,4292A,116.352738,37.420875,德州市,新河东路,细颗粒物(PM2.5),129,112,149,91,118,126,126,89,89,17,40,10,10,0.7,1
2026-03-17T1600,2621A,99.7054,27.8319,迪庆藏族自治州,迪庆州站,,31,12,17,3,9,97,97,100,100,5,6,7,7,0.5,0.5
2026-03-17T1600,3180A,99.7122,27.8129,迪庆藏族自治州,质量技术监督局,,32,16,16,3,9,102,102,97,97,6,6,6,5,0.5,0.6
2026-03-17T1600,4257A,104.6092,35.5962,定西市,将台街,颗粒物(PM10),60,63,67,18,24,107,107,99,99,4,7,7,8,0.2,0.4
2026-03-17T1600,4309A,104.6159,35.5701,定西市,正龙路62号,颗粒物(PM10),60,63,66,16,24,100,100,90,90,6,10,3,3,0.2,0.4
2026-03-17T1600,4071A,114.9883,38.5232,定州市,交通局,NA,NA,NA,105,NA,79,110,110,82,82,NA,30,16,13,1.0,0.6
2026-03-17T1600,4072A,115.0045,38.5136,定州市,第五中学,细颗粒物(PM2.5),129,130,122,91,83,108,108,79,79,19,28,11,9,0.9,0.6
2026-03-17T1600,1390A,113.7943,23.0132,东莞市,东城石井,,27,26,38,11,19,84,84,94,94,17,32,3,4,0.5,0.5
2026-03-17T1600,1391A,113.7384,22.9659,东莞市,南城西平,,27,24,40,10,19,84,84,91,91,14,33,5,8,0.4,0.5
2026-03-17T1600,3319A,113.7283,23.041,东莞市,万江金泰,,28,25,43,13,21,87,87,96,96,13,25,5,6,0.5,0.5
2026-03-17T1600,4129A,113.8666,23.1062,东莞市,裕兴路,,27,20,34,9,18,84,84,104,104,18,27,6,8,0.5,0.5
2026-03-17T1600,4130A,114.0076,22.9739,东莞市,教育路1号,,30,30,42,10,18,80,80,94,94,16,23,5,6,0.3,0.3
2026-03-17T1600,4131A,113.7981,22.8124,东莞市,长怡路1号,,28,28,48,9,20,76,76,87,87,21,32,4,5,0.5,0.5
2026-03-17T1600,1666A,118.6612,37.4313,东营市,市环保局,细颗粒物(PM2.5),127,112,105,89,89,157,157,112,112,23,27,16,16,0.7,0.6
2026-03-17T1600,3036A,118.6903,37.4337,东营市,开发区管委会,细颗粒物(PM2.5),127,116,100,89,87,157,157,116,116,37,44,18,16,0.9,0.9
2026-03-17T1600,3365A,118.5721,37.5654,东营市,垦利区民丰路,细颗粒物(PM2.5),143,110,95,107,92,181,181,128,128,23,30,15,16,0.9,0.8
2026-03-17T1600,3498A,118.5063,37.8606,东营市,河口城区,细颗粒物(PM2.5),144,136,114,108,93,180,180,131,131,19,18,13,9,0.8,0.8
2026-03-17T1600,3646A,118.4979,37.4623,东营市,胜利站,细颗粒物(PM2.5),126,111,111,88,86,151,151,99,99,19,34,14,24,1.1,1
2026-03-17T1600,3734A,118.5753,37.4405,东营市,理想之城,细颗粒物(PM2.5),122,105,95,84,82,175,175,119,119,21,39,11,9,1.0,1
2026-03-17T1600,1591A,110.0024,39.8127,鄂尔多斯市,综合楼,颗粒物(PM10),140,222,204,25,48,92,92,90,88,6,15,5,6,0.2,0.3
2026-03-17T1600,1592A,109.9485,39.8259,鄂尔多斯市,巴音孟克林场办事处,颗粒物(PM10),140,224,181,20,40,96,96,92,92,4,12,4,6,0.2,0.3
2026-03-17T1600,1593A,109.7734,39.5987,鄂尔多斯市,康泽苑,颗粒物(PM10),93,110,149,10,34,101,101,93,93,4,10,6,7,0.3,0.3
2026-03-17T1600,1594A,109.8121,39.5987,鄂尔多斯市,华泰汽车城,颗粒物(PM10),80,92,148,26,37,103,103,94,94,5,12,7,8,0.3,0.3
2026-03-17T1600,1595A,109.9734,39.7884,鄂尔多斯市,奥林花园,颗粒物(PM10),138,217,192,33,41,91,91,89,86,13,21,5,5,0.2,0.3
2026-03-17T1600,2436A,114.894,30.3989,鄂州市,市政府,,12,12,14,3,7,27,27,41,26,22,20,6,8,0.4,0.4
2026-03-17T1600,2437A,114.8986,30.3714,鄂州市,赵家坝,,12,6,14,3,6,36,36,45,28,15,13,7,8,0.7,0.7
2026-03-17T1600,3654A,114.8093,30.4091,鄂州市,精准医疗中心,,12,7,17,3,6,36,36,40,30,12,17,4,8,1.1,0.8
2026-03-17T1600,2454A,109.4978,30.2979,恩施土家族苗族自治州,湖北民院,,18,15,18,12,10,49,49,44,44,13,14,6,6,0.8,0.8
2026-03-17T1600,3549A,109.5061,30.3771,恩施土家族苗族自治州,龙凤新区,,14,NA,9,9,7,44,44,68,64,11,7,7,7,0.7,0.7
2026-03-17T1600,2499A,108.3411,21.6159,防城港市,沙万,颗粒物(PM10),65,70,59,15,17,78,78,75,75,12,19,7,6,0.6,0.6
2026-03-17T1600,2500A,108.3515,21.7733,防城港市,防城档案局,,39,39,40,14,18,87,87,80,80,6,9,6,7,0.4,0.5
2026-03-17T1600,2501A,108.3506,21.6414,防城港市,大海花园,,38,38,41,16,18,90,90,84,84,16,21,6,8,0.2,0.4
2026-03-17T1600,1371A,113.1293,23.0065,佛山市,湾梁,,39,39,39,15,21,116,116,99,99,12,25,/,/,/,/
2026-03-17T1600,1372A,113.1082,23.0477,佛山市,华材职中,,41,41,44,18,22,119,119,99,99,15,25,7,7,0.2,0.3
2026-03-17T1600,1373A,113.1439,23.045,佛山市,南海气象局,,43,43,47,16,24,116,116,97,97,17,30,/,/,/,/
2026-03-17T1600,1374A,113.2879,22.8094,佛山市,顺德苏岗,,38,38,39,15,18,88,88,85,85,18,22,/,/,0.6,0.6
2026-03-17T1600,1376A,112.8384,22.8678,佛山市,高明孔堂,,33,33,36,13,15,93,93,88,88,4,8,/,/,/,/
2026-03-17T1600,1377A,112.8835,23.1584,佛山市,三水监测站,,44,44,47,16,25,104,104,88,88,18,35,4,5,0.3,0.4
2026-03-17T1600,1378A,112.8668,23.185,佛山市,三水云东海,,45,45,52,16,23,115,115,93,93,14,25,/,/,/,/
2026-03-17T1600,3625A,113.2568,22.7629,佛山市,容桂街道办,,31,31,36,14,18,86,86,74,74,21,33,/,/,/,/
2026-03-17T1600,1282A,119.2681,26.0506,福州市,师大,,49,49,43,13,18,126,126,102,102,12,22,4,4,0.3,0.2
2026-03-17T1600,1283A,119.2983,26.1028,福州市,五四北路,,42,42,38,14,19,128,128,95,95,12,20,5,5,0.3,0.3
2026-03-17T1600,1284A,119.2648,26.0769,福州市,杨桥西路,,46,46,37,17,17,130,130,103,103,13,19,5,4,/,/
2026-03-17T1600,3048A,119.5799,26.0937,福州市,九龙,,34,21,29,19,16,106,106,96,96,7,15,4,5,0.2,0.3
2026-03-17T1600,3526A,119.5188,25.9666,福州市,吴航,,33,33,35,17,18,102,102,88,88,12,22,5,6,0.4,0.4
2026-03-17T1600,4104A,119.3106,26.0648,福州市,路通桥巷6号,,37,37,44,15,23,117,117,93,93,12,17,/,/,/,/
2026-03-17T1600,1755A,123.7974,41.8494,抚顺市,望花区,颗粒物(PM10),121,174,162,75,92,145,145,120,120,32,54,21,14,1.3,1.4
2026-03-17T1600,1756A,123.9161,41.8827,抚顺市,顺城区,细颗粒物(PM2.5),116,120,118,77,94,149,149,118,118,28,53,16,14,1.0,1.2
2026-03-17T1600,1757A,124.0437,41.8615,抚顺市,东洲区,细颗粒物(PM2.5),110,122,121,70,83,149,149,119,119,24,31,12,12,0.8,1
2026-03-17T1600,1758A,123.9246,41.8638,抚顺市,新抚区,细颗粒物(PM2.5),115,156,146,76,89,155,155,125,125,25,52,15,11,0.9,1.1
2026-03-17T1600,1759A,124.0972,41.8961,抚顺市,大伙房水库,细颗粒物(PM2.5),107,116,95,67,70,160,160,129,129,18,25,15,13,0.7,0.8
2026-03-17T1600,1760A,123.708,41.8386,抚顺市,沈抚新城,颗粒物(PM10),120,171,161,73,96,149,149,120,120,24,61,14,17,0.8,1.7
2026-03-17T1600,2377A,116.3544,27.9833,抚州市,市站,细颗粒物(PM2.5),92,60,49,56,45,97,97,78,78,10,13,4,6,1.2,1.2
2026-03-17T1600,2378A,116.3562,27.9631,抚州市,血防站,细颗粒物(PM2.5),76,60,50,48,41,96,96,78,78,4,6,1,2,1.1,1
2026-03-17T1600,2379A,116.3561,28.0007,抚州市,采茶剧团,细颗粒物(PM2.5),74,60,53,47,41,88,88,71,71,9,11,11,10,0.7,0.7
2026-03-17T1600,2380A,116.3854,27.9648,抚州市,医学分院,NA,NA,NA,60,NA,41,NA,NA,75,74,NA,10,NA,8,NA,1.2
2026-03-17T1600,2207A,121.6095,41.9978,阜新市,工业园区,细颗粒物(PM2.5),140,131,140,104,118,125,125,114,114,21,37,11,26,0.7,0.8
2026-03-17T1600,2208A,121.6567,42.0188,阜新市,长青街,细颗粒物(PM2.5),138,114,120,101,108,118,118,107,107,24,31,11,26,0.8,0.8
2026-03-17T1600,2209A,121.6672,42.07,阜新市,农业园区,细颗粒物(PM2.5),139,164,134,102,104,130,130,115,115,23,27,9,21,0.7,0.7
2026-03-17T1600,2211A,121.6343,42.0455,阜新市,玉龙新城,细颗粒物(PM2.5),135,147,149,98,111,131,131,117,117,22,49,11,15,0.8,0.9
2026-03-17T1600,2301A,115.8276,32.8929,阜阳市,市监测站,颗粒物(PM10),51,51,79,33,55,34,34,52,36,23,16,5,4,0.6,0.5
2026-03-17T1600,2303A,115.8551,32.8606,阜阳市,开发区,颗粒物(PM10),58,60,85,34,58,31,31,46,29,20,17,4,4,0.6,0.6
2026-03-17T1600,2875A,115.783962,32.889217,阜阳市,阜阳职业技术学院,,50,50,69,22,47,35,35,53,35,17,14,5,6,0.6,0.6
2026-03-17T1600,3468A,115.79,32.8614,阜阳市,市规划展馆,,40,40,80,27,57,37,37,54,35,17,13,6,6,0.7,0.6
2026-03-17T1600,3469A,115.835101,32.918568,阜阳市,枣园社区,细颗粒物(PM2.5),62,49,76,41,61,34,34,50,33,19,15,7,7,0.7,0.6
2026-03-17T1600,2669A,102.9097,34.9841,甘南藏族自治州,州政府,NA,NA,27,36,12,25,115,115,109,109,2,3,NA,5,NA,0.3
2026-03-17T1600,3380A,102.8915,34.9618,甘南藏族自治州,甘肃民族师范学院,,33,33,38,8,21,105,105,97,97,1,6,3,3,0.4,0.4
2026-03-17T1600,2570A,101.96,30.048,甘孜藏族自治州,水桥子,NA,NA,6,10,3,4,60,60,40,40,NA,19,4,4,0.5,0.5
2026-03-17T1600,3065A,101.9534,29.9976,甘孜藏族自治州,州环保局,,23,6,7,3,3,72,72,63,63,10,22,6,6,0.4,0.4
2026-03-17T1600,2363A,114.9368,25.8663,赣州市,地委,,31,27,61,13,48,97,97,85,85,10,21,4,6,0.7,1
2026-03-17T1600,2364A,114.946,25.8483,赣州市,气象台,,35,25,60,14,50,111,111,98,98,10,20,5,21,0.5,0.5
2026-03-17T1600,2365A,114.932,25.8332,赣州市,市图书馆,,29,28,59,7,50,91,91,81,81,7,18,5,4,0.4,0.7
2026-03-17T1600,2366A,114.8905,25.8472,赣州市,华坚鞋城,,32,30,63,13,49,101,101,92,92,9,19,5,8,0.3,0.6
2026-03-17T1600,3109A,115.0094,25.8614,赣州市,赣县区卫计委,,29,26,53,7,35,90,90,79,79,13,24,2,4,0.5,0.7
2026-03-17T1600,2684A,106.2753,36.0057,固原市,监测站,颗粒物(PM10),60,64,75,13,29,95,95,89,89,6,13,9,8,0.3,0.4
2026-03-17T1600,2685A,106.2384,36.0189,固原市,新区,颗粒物(PM10),55,56,73,8,29,95,95,89,89,4,11,8,8,0.3,0.5
2026-03-17T1600,2544A,106.6307,30.4577,广安市,市委,,17,17,24,9,15,50,50,38,38,9,14,6,5,0.6,0.6
2026-03-17T1600,2545A,106.6266,30.4662,广安市,友谊中学,,17,16,21,8,12,52,52,41,41,10,13,5,5,0.8,0.7
2026-03-17T1600,2547A,106.6386,30.4551,广安市,广电花园,,18,18,22,10,16,51,51,38,38,11,15,8,8,0.7,0.7
2026-03-17T1600,2902A,106.6347,30.4868,广安市,北辰小学,,18,18,20,9,15,48,48,36,36,9,13,5,5,0.7,0.7
2026-03-17T1600,2524A,105.8211,32.4444,广元市,老城,,33,33,20,3,3,77,77,55,55,9,27,4,5,0.3,0.6
2026-03-17T1600,2526A,105.8629,32.429,广元市,监测站,,24,19,17,3,4,76,76,56,56,7,24,3,2,0.3,0.5
2026-03-17T1600,3617A,105.8047,32.4167,广元市,经开区,,23,16,17,9,11,71,71,45,45,10,25,3,4,0.3,0.6
2026-03-17T1600,1345A,113.2346,23.1423,广州市,广雅中学,,35,30,39,12,19,109,109,91,91,12,27,3,3,0.5,0.4
2026-03-17T1600,1346A,113.2611,23.105,广州市,市五中,,38,33,39,16,22,120,120,103,103,14,31,6,7,/,/
2026-03-17T1600,1348A,113.3477,23.0916,广州市,广东商学院,,32,32,40,17,22,98,98,88,88,18,36,5,5,0.5,0.6
2026-03-17T1600,1349A,113.4332,23.105,广州市,市八十六中,,30,27,33,9,16,96,96,89,89,21,44,4,6,/,/
2026-03-17T1600,1350A,113.3506,22.9488,广州市,番禺中学,,30,24,33,10,16,94,94,86,86,12,28,3,3,0.4,0.4
2026-03-17T1600,1351A,113.2147,23.3918,广州市,花都师范,,44,44,49,21,21,132,132,94,94,20,35,6,6,0.5,0.5
2026-03-17T1600,1352A,113.2599,23.1329,广州市,市监测站,,33,32,42,14,20,103,103,89,89,13,30,1,2,/,/
2026-03-17T1600,1353A,113.5618,23.3119,广州市,九龙镇镇龙,,43,43,45,20,22,113,113,95,95,16,35,5,6,0.2,0.3
2026-03-17T1600,1354A,113.2764,23.1544,广州市,麓湖,NA,NA,32,38,14,19,111,111,98,98,9,25,NA,3,0.1,0.2
2026-03-17T1600,2846A,113.3209,23.1323,广州市,体育西,,33,33,41,12,17,102,102,90,90,15,35,6,6,0.5,0.6
2026-03-17T1600,3298A,113.5718,23.5493,广州市,从化街口,,39,26,36,13,23,124,124,108,108,10,30,5,6,0.5,0.6
2026-03-17T1600,3299A,113.3463,23.369,广州市,白云竹料,,42,42,44,18,20,115,115,96,96,16,34,3,4,0.5,0.5
2026-03-17T1600,3300A,113.2981,23.2365,广州市,白云嘉禾,,37,35,43,15,20,117,117,104,104,18,40,6,8,/,/
2026-03-17T1600,3301A,113.4256,23.1716,广州市,黄埔科学城,,34,30,40,12,21,108,108,95,95,15,33,8,8,0.4,0.5
2026-03-17T1600,3302A,113.3942,23.0485,广州市,番禺大学城,,37,37,48,10,16,104,104,98,98,17,30,8,8,0.4,0.4
2026-03-17T1600,3303A,113.4923,22.8169,广州市,南沙黄阁,,27,27,37,13,16,85,85,86,86,20,32,6,6,/,/
2026-03-17T1600,3304A,113.534,22.7893,广州市,南沙街,NA,NA,NA,34,NA,17,68,68,76,76,21,25,7,8,NA,0.5
2026-03-17T1600,3443A,113.2905,23.5541,广州市,花都梯面,,43,43,40,20,19,132,132,101,101,18,26,6,6,/,/
2026-03-17T1600,3445A,113.786,23.7479,广州市,从化良口,,43,17,37,8,31,136,136,112,112,10,13,5,5,/,/
2026-03-17T1600,3446A,113.805,23.2614,广州市,增城荔城,NA,NA,NA,47,NA,23,115,115,120,120,17,29,4,8,NA,0.4
2026-03-17T1600,2506A,109.604387,23.066791,贵港市,江南子站,NA,NA,44,57,17,28,87,87,73,73,NA,16,6,8,0.5,0.5
2026-03-17T1600,2508A,109.5669,23.1065,贵港市,荷城子站,,44,44,46,19,23,85,85,79,79,10,15,6,8,0.6,0.6
2026-03-17T1600,3405A,109.5886,23.1172,贵港市,新世纪学校,,44,44,56,19,29,85,85,76,76,15,20,/,/,0.4,0.5
2026-03-17T1600,4260A,109.5933,23.095,贵港市,中山路155-3号,,35,35,54,23,29,84,84,76,76,9,13,/,/,0.4,0.5
2026-03-17T1600,1439A,106.6863,26.6035,贵阳市,马鞍山,细颗粒物(PM2.5),54,39,23,37,18,36,36,56,56,10,12,5,3,/,/
2026-03-17T1600,1441A,106.6241,26.6266,贵阳市,鉴湖路,颗粒物(PM10),56,58,33,30,18,45,45,73,72,19,16,6,4,0.6,0.4
2026-03-17T1600,1442A,106.7468,26.6344,贵阳市,燕子冲,NA,NA,34,27,34,15,43,43,47,47,11,12,6,8,NA,1.1
2026-03-17T1600,1443A,106.6556,26.4362,贵阳市,碧云窝,颗粒物(PM10),51,51,35,33,20,98,98,87,87,8,18,3,8,/,/
2026-03-17T1600,1445A,106.6963,26.6063,贵阳市,红边门,NA,NA,44,36,26,20,43,43,52,52,NA,22,NA,9,/,/
2026-03-17T1600,1446A,106.7162383,26.56964667,贵阳市,新华路,颗粒物(PM10),51,51,42,26,19,43,43,59,59,13,20,34,10,0.6,0.7
2026-03-17T1600,1447A,106.6742,26.542,贵阳市,太慈桥,细颗粒物(PM2.5),58,44,28,39,23,48,48,67,67,17,19,7,5,/,/
2026-03-17T1600,4230A,106.688212,26.56952,贵阳市,花果园大街66号,NA,NA,36,31,NA,20,39,39,52,52,12,20,4,3,/,/
2026-03-17T1600,4231A,106.687268,26.516892,贵阳市,漓江路57号,,45,41,31,31,21,55,55,70,70,14,21,9,9,0.8,0.9
2026-03-17T1600,1864A,110.3091,25.2705,桂林市,龙隐路小学,细颗粒物(PM2.5),131,103,68,94,67,46,46,32,32,36,27,21,7,0.9,0.8
2026-03-17T1600,1865A,110.2849361,25.22909545,桂林市,八中,颗粒物(PM10),80,91,66,39,31,36,36,29,25,42,26,22,7,1.2,1.1
2026-03-17T1600,3531A,110.296,25.1254,桂林市,旅游学院,细颗粒物(PM2.5),110,99,77,70,63,36,36,38,38,47,23,11,7,1.0,0.8
2026-03-17T1600,4222A,110.1835,25.2444,桂林市,环湖路276号,细颗粒物(PM2.5),120,105,80,82,62,27,27,31,21,36,27,23,11,1.2,1
2026-03-17T1600,4301A,110.2803,25.2773,桂林市,信义路13号,细颗粒物(PM2.5),118,105,65,79,53,29,29,26,22,47,26,26,11,1.3,1
2026-03-17T1600,2674A,100.2262,34.4854,果洛藏族自治州,玛沁县大武镇,颗粒物(PM10),71,79,40,25,14,104,104,96,96,2,2,24,22,0.5,0.4
2026-03-17T1600,1130A,126.5557,45.8109,哈尔滨市,松北商大,细颗粒物(PM2.5),222,230,97,172,74,171,171,123,123,23,49,11,6,1.0,0.8
2026-03-17T1600,1132A,126.6162,45.719,哈尔滨市,南岗学府路,细颗粒物(PM2.5),230,295,107,180,70,163,163,131,131,32,44,17,13,0.9,0.4
2026-03-17T1600,1133A,126.6894,45.7733,哈尔滨市,太平宏伟公园,细颗粒物(PM2.5),219,262,125,169,80,161,161,122,122,39,54,17,13,1.0,0.8
2026-03-17T1600,1134A,126.6361,45.7672,哈尔滨市,道外承德广场,细颗粒物(PM2.5),246,340,124,196,69,166,166,130,130,46,44,19,13,1.3,0.7
2026-03-17T1600,1136A,126.644,45.7261,哈尔滨市,动力和平路,细颗粒物(PM2.5),247,271,100,197,70,169,169,125,125,31,39,18,14,1.6,1
2026-03-17T1600,1137A,126.5933,45.7479,哈尔滨市,道里建国路,NA,NA,NA,85,181,69,163,163,122,122,44,51,24,15,1.2,0.9
2026-03-17T1600,1138A,126.6127,45.6119,哈尔滨市,平房东轻厂,细颗粒物(PM2.5),248,204,97,198,94,120,120,86,86,72,80,17,10,1.3,1
2026-03-17T1600,1139A,126.5875,45.9827,哈尔滨市,呼兰师专,细颗粒物(PM2.5),195,198,112,146,77,145,145,112,112,36,37,16,13,0.7,0.5
2026-03-17T1600,1140A,126.6299,45.6799,哈尔滨市,省农科院,颗粒物(PM10),233,373,168,182,97,109,109,98,98,70,54,18,15,1.4,1
2026-03-17T1600,4282A,126.6769,45.7379,哈尔滨市,华山路1号,细颗粒物(PM2.5),224,293,129,174,75,161,161,122,122,33,48,16,14,1.3,1.2
2026-03-17T1600,4283A,126.9717,45.5356,哈尔滨市,解放大街52号,细颗粒物(PM2.5),159,200,101,121,55,166,166,135,135,25,30,15,8,0.2,0.1
2026-03-17T1600,2688A,93.5124,42.8176,哈密市,地区监测站,,30,25,34,12,13,93,93,73,73,5,6,5,5,0.1,0.2
2026-03-17T1600,2689A,93.5014,42.8312,哈密市,哈密师范学校,,33,18,32,12,12,103,103,82,82,5,8,6,6,0.2,0.2
2026-03-17T1600,2671A,100.9016,36.9464,海北藏族自治州,海晏县西海镇,NA,NA,44,76,29,36,106,106,96,96,3,3,NA,9,0.5,0.5
2026-03-17T1600,3867A,102.074,36.5056,海东市,平安区公安局北苑,颗粒物(PM10),77,87,104,36,40,97,97,91,88,3,5,9,11,0.6,0.6
2026-03-17T1600,4163A,102.0984,36.5119,海东市,滨河路,NA,NA,67,100,34,41,81,81,74,71,NA,18,NA,10,0.6,0.6
2026-03-17T1600,1410A,110.3189,20.0596,海口市,海南大学,,28,25,35,11,13,87,87,84,84,4,5,6,6,0.3,0.3
2026-03-17T1600,1411A,110.2827,20.0051,海口市,秀英海南医院,,25,25,27,9,13,78,78,77,75,4,5,8,8,0.3,0.4
2026-03-17T1600,1412A,110.3391,19.9979,海口市,海南师范大学,,30,30,34,11,15,85,85,82,82,4,6,6,6,0.3,0.4
2026-03-17T1600,1413A,110.3303,20.0359,海口市,龙华路环保局宿舍,颗粒物(PM10),90,106,36,13,15,90,90,86,86,6,6,/,/,0.1,0.2
2026-03-17T1600,3539A,110.5111,19.9737,海口市,桂林洋子站,,30,30,34,12,16,75,75,74,74,8,8,/,/,/,/
2026-03-17T1600,4134A,110.1952,20.0451,海口市,长滨二路9号,,29,23,28,10,13,90,90,82,82,4,5,/,/,/,/
2026-03-17T1600,2673A,100.6158,36.2985,海南藏族自治州,共和县恰卜恰镇,颗粒物(PM10),56,58,93,36,39,108,108,100,100,6,6,13,11,0.3,0.3
2026-03-17T1600,2676A,97.373,37.376,海西蒙古族藏族自治州,德令哈市,颗粒物(PM10),117,162,90,36,27,115,115,108,108,3,4,14,17,0.4,0.4
2026-03-17T1600,1049A,114.492,36.5712,邯郸市,矿院,细颗粒物(PM2.5),102,69,88,62,68,110,110,78,78,9,16,2,2,0.6,0.6
2026-03-17T1600,1050A,114.4839,36.6136,邯郸市,丛台公园,细颗粒物(PM2.5),116,84,95,77,83,107,107,76,76,10,15,2,2,0.6,0.6
2026-03-17T1600,3458A,114.7893,36.5592,邯郸市,香泉濮院小区,细颗粒物(PM2.5),92,80,104,56,66,112,112,90,90,13,16,1,2,0.9,0.7
2026-03-17T1600,3580A,114.1998,36.4439,邯郸市,峰峰矿区临水派出所,细颗粒物(PM2.5),118,82,72,79,55,100,100,74,74,9,10,7,6,0.9,0.8
2026-03-17T1600,4068A,114.5209,36.7697,邯郸市,建安街268号,细颗粒物(PM2.5),119,81,92,80,80,108,108,75,75,13,34,1,2,0.6,0.6
2026-03-17T1600,4069A,114.5488,36.6177,邯郸市,丛台东路558号,细颗粒物(PM2.5),101,61,80,61,78,107,107,78,78,7,16,1,2,0.6,0.6
2026-03-17T1600,2635A,107.0155,33.0707,汉中市,市监测站,,20,14,13,10,10,63,63,59,59,12,12,6,6,0.8,0.8
2026-03-17T1600,2636A,107.0083,33.114,汉中市,鑫源开发区,,21,14,12,3,5,66,66,57,57,17,14,4,4,0.6,0.5
2026-03-17T1600,2637A,107.0072,33.0323,汉中市,南郑大河坎水厂,,22,14,15,8,10,68,68,58,58,14,16,4,4,0.8,0.8
2026-03-17T1600,1223A,120.2073,30.2111,杭州市,滨江,细颗粒物(PM2.5),68,66,58,44,35,68,68,43,41,37,31,8,7,1.0,0.9
2026-03-17T1600,1224A,120.0625,30.2737,杭州市,西溪,细颗粒物(PM2.5),78,86,73,49,37,32,32,47,37,42,23,8,8,0.8,0.7
2026-03-17T1600,1226A,120.3417,30.315,杭州市,下沙,颗粒物(PM10),62,66,67,34,32,67,67,58,58,26,25,7,7,0.7,0.6
2026-03-17T1600,1227A,120.1252,30.2465,杭州市,卧龙桥,细颗粒物(PM2.5),76,81,64,48,36,44,44,46,46,44,25,8,7,0.4,0.3
2026-03-17T1600,1228A,120.1902,30.2691,杭州市,浙江农大,细颗粒物(PM2.5),60,41,44,40,35,49,49,49,47,47,33,6,6,0.7,0.6
2026-03-17T1600,1230A,120.1195,30.3121,杭州市,和睦小学,颗粒物(PM10),77,87,77,40,36,46,46,51,41,39,25,6,6,0.7,0.6
2026-03-17T1600,1231A,120.3076,30.4146,杭州市,临平镇,细颗粒物(PM2.5),52,50,51,36,34,68,68,64,64,28,21,6,6,0.6,0.5
2026-03-17T1600,1232A,120.2753,30.1839,杭州市,城厢镇,细颗粒物(PM2.5),70,53,49,45,36,69,69,52,52,32,25,9,9,0.7,0.7
2026-03-17T1600,1233A,120.0883,30.1808,杭州市,云栖,"颗粒物(PM10),细颗粒物(PM2.5)",64,69,62,42,33,68,68,48,48,38,31,6,5,0.8,0.7
2026-03-17T1600,3557A,119.9463,30.0496,杭州市,镇二中,细颗粒物(PM2.5),96,NA,46,58,46,46,46,42,38,34,25,4,4,0.8,0.7
2026-03-17T1600,3558A,119.7184,30.2367,杭州市,市府大楼,细颗粒物(PM2.5),88,NA,52,54,42,32,32,49,27,26,20,6,6,0.4,0.3
2026-03-17T1600,3656A,120.1554,30.2863,杭州市,消防大队,细颗粒物(PM2.5),74,80,71,47,43,49,49,47,43,37,25,7,7,0.7,0.6
2026-03-17T1600,1270A,117.1957,31.7845,合肥市,明珠广场,,20,12,57,12,50,18,18,28,22,39,24,5,6,1.3,1.1
2026-03-17T1600,1271A,117.307,31.8765,合肥市,三里街,,29,24,62,20,55,23,23,30,20,42,30,5,5,1.1,0.9
2026-03-17T1600,1272A,117.2587,31.8703,合肥市,琥珀山庄,,28,27,58,19,51,30,30,34,29,41,32,6,6,1.0,0.8
2026-03-17T1600,1275A,117.2593,31.9376,合肥市,庐阳区,,22,22,66,13,46,32,32,36,30,36,23,4,4,1.1,0.9
2026-03-17T1600,1276A,117.345251,31.861615,合肥市,瑶海区,,22,22,65,12,44,27,27,31,24,43,30,5,5,1.0,0.8
2026-03-17T1600,1277A,117.3033,31.7967,合肥市,包河区,,37,19,62,12,44,6,6,19,12,73,55,11,10,1.3,1.1
2026-03-17T1600,1278A,117.278,31.7392,合肥市,滨湖新区,NA,NA,12,61,11,46,29,29,26,24,27,23,4,4,NA,0.9
2026-03-17T1600,1279A,117.1324,31.8395,合肥市,高新区,,34,34,63,10,40,19,19,31,23,37,22,4,4,1.1,0.9
2026-03-17T1600,3464A,117.3802,31.9148,合肥市,高教基地,,20,19,63,14,44,38,38,37,34,32,24,7,7,0.9,0.7
2026-03-17T1600,4098A,117.2518,31.8404,合肥市,中国科学技术大学,,17,17,57,9,39,35,35,33,29,31,24,4,5,1.1,0.9
2026-03-17T1600,3614A,79.9241,37.0878,和田地区,地区环保局,NA,NA,NA,203,NA,50,85,85,66,66,4,5,1,2,NA,0.9
2026-03-17T1600,3615A,79.9132,37.1137,和田地区,市环保局,颗粒物(PM10),119,168,212,39,48,82,82,75,75,5,9,3,3,0.6,0.7
2026-03-17T1600,2517A,108.0496,24.6957,河池市,市环保站,NA,NA,35,34,20,20,84,84,70,70,4,6,4,6,NA,0.4
2026-03-17T1600,4302A,108.0901,24.6945,河池市,上任中路54号,颗粒物(PM10),59,62,40,12,20,75,75,67,64,3,6,6,9,0.5,0.5
2026-03-17T1600,1697A,114.6962,23.7538,河源市,东埔,,31,30,34,18,20,99,99,94,94,8,13,6,6,0.6,0.5
2026-03-17T1600,1698A,114.6895,23.7232,河源市,老城,,45,45,37,17,19,98,98,93,93,8,14,6,6,0.5,0.6
2026-03-17T1600,3374A,115.5562,35.089,菏泽市,定陶老年大学,细颗粒物(PM2.5),80,56,112,50,93,98,98,88,88,12,22,4,4,0.6,0.8
2026-03-17T1600,4114A,115.4239,35.2593,菏泽市,黄河路600号,细颗粒物(PM2.5),110,87,131,71,106,92,92,82,82,13,21,1,2,0.5,0.7
2026-03-17T1600,4115A,115.5025,35.2727,菏泽市,菏泽市人社局,细颗粒物(PM2.5),108,74,127,68,110,89,89,76,76,16,27,4,5,0.6,0.7
2026-03-17T1600,4184A,115.479691,35.244011,菏泽市,永昌路1号,细颗粒物(PM2.5),111,78,129,72,107,107,107,94,94,16,28,2,2,0.2,0.4
2026-03-17T1600,4193A,115.471542,35.280012,菏泽市,长城路999号,细颗粒物(PM2.5),107,79,124,67,106,100,100,88,88,12,22,6,5,0.4,0.6
2026-03-17T1600,2514A,111.5264,24.4178,贺州市,环保小区,颗粒物(PM10),55,56,74,17,44,68,68,72,72,22,25,4,6,0.3,0.6
2026-03-17T1600,2515A,111.561,24.4074,贺州市,政协大楼,,31,31,63,12,40,65,65,64,64,12,30,6,7,0.4,0.3
2026-03-17T1600,3534A,111.4744,24.455,贺州市,西湾,,37,37,76,17,39,72,72,75,75,20,28,7,7,0.5,0.7
2026-03-17T1600,2385A,114.17,35.9019,鹤壁市,市监测站,细颗粒物(PM2.5),150,124,109,114,88,73,73,71,71,23,20,5,6,0.7,0.8
2026-03-17T1600,2386A,114.2953,35.7512,鹤壁市,市交警支队,细颗粒物(PM2.5),142,109,101,106,86,64,64,58,58,27,25,6,6,0.7,0.7
2026-03-17T1600,2387A,114.2877,35.7302,鹤壁市,迎宾馆,细颗粒物(PM2.5),148,119,107,112,91,72,72,65,65,21,22,10,9,0.8,0.8
2026-03-17T1600,3474A,114.2616,35.6824,鹤壁市,大新区,细颗粒物(PM2.5),160,NA,86,122,94,63,63,54,54,24,30,6,5,1.0,0.8
2026-03-17T1600,3596A,114.1573,35.9607,鹤壁市,南山宾馆,细颗粒物(PM2.5),142,117,105,106,83,71,71,70,70,19,13,9,8,0.6,0.4
2026-03-17T1600,2244A,130.2537,47.3416,鹤岗市,哈啤分公司,,26,23,22,10,13,83,83,75,75,17,12,16,12,0.4,0.5
2026-03-17T1600,2245A,130.2683,47.3087,鹤岗市,斯达机电,,33,25,25,8,10,103,103,95,95,8,9,9,9,0.4,0.5
2026-03-17T1600,2246A,130.3114,47.3388,鹤岗市,东山纸板厂,,34,34,115,18,20,87,87,83,83,13,27,8,11,0.5,0.9
2026-03-17T1600,2263A,127.4832,50.2524,黑河市,交通局,,35,30,34,13,20,110,110,87,87,14,19,12,9,0.1,0.3
2026-03-17T1600,2264A,127.5146,50.2339,黑河市,环保局,,34,25,36,15,27,107,107,87,87,13,22,8,10,0.3,0.5
2026-03-17T1600,1074A,115.6839,37.754,衡水市,电机北厂,细颗粒物(PM2.5),124,95,113,86,104,127,127,100,100,NA,26,6,4,NA,0.7
2026-03-17T1600,1075A,115.6303,37.7318,衡水市,市监测站,细颗粒物(PM2.5),115,90,106,76,97,124,124,92,92,15,25,9,8,0.6,0.7
2026-03-17T1600,3188A,115.6684,37.7216,衡水市,市城管局,细颗粒物(PM2.5),116,108,107,77,92,122,122,93,93,15,25,5,6,0.7,0.7
2026-03-17T1600,3459A,115.599,37.5491,衡水市,地表水厂,细颗粒物(PM2.5),125,98,113,87,103,127,127,100,100,14,34,7,7,0.6,0.6
2026-03-17T1600,2457A,112.6209,26.9268,衡阳市,衡阳化工总厂,NA,NA,74,24,NA,19,71,71,26,NA,NA,12,15,5,1.4,1.2
2026-03-17T1600,2458A,112.621,26.8957,衡阳市,珠晖区环保局,细颗粒物(PM2.5),66,51,24,43,16,66,66,39,39,22,15,7,5,1.3,1.2
2026-03-17T1600,2459A,112.628,26.8654,衡阳市,市委党校,细颗粒物(PM2.5),58,43,24,39,20,61,61,40,40,17,11,8,6,1.3,1.2
2026-03-17T1600,2460A,112.6007,26.8977,衡阳市,市监测站,,49,49,26,29,18,67,67,40,40,18,10,11,7,1.1,0.9
2026-03-17T1600,2461A,112.5658,26.9013,衡阳市,真空机电公司,细颗粒物(PM2.5),54,47,27,37,23,63,63,38,38,23,17,7,6,1.3,1.2
2026-03-17T1600,3399A,112.6703,26.8817,衡阳市,师范学院,,48,48,22,29,19,66,66,46,46,16,11,6,4,1.3,1.1
2026-03-17T1600,3038A,103.3757,23.3679,红河哈尼族彝族自治州,州图书馆,细颗粒物(PM2.5),62,49,39,41,30,110,110,100,100,5,6,5,5,0.4,0.4
2026-03-17T1600,4154A,103.401,23.3561,红河哈尼族彝族自治州,蒙自市朝阳路,,49,41,30,34,27,114,114,106,106,6,6,8,8,0.3,0.3
2026-03-17T1600,1090A,111.6506,40.7517,呼和浩特市,呼市一监,颗粒物(PM10),153,256,139,49,60,103,103,62,62,10,34,9,9,0.4,0.6
2026-03-17T1600,1094A,111.7516,40.8369,呼和浩特市,如意水处理厂,颗粒物(PM10),122,177,109,82,51,105,105,70,70,13,39,13,11,0.4,0.5
2026-03-17T1600,1095A,111.727798,40.806187,呼和浩特市,二十九中,颗粒物(PM10),188,326,138,64,51,96,96,64,64,13,34,11,13,0.4,0.6
2026-03-17T1600,1097A,111.717,40.7617,呼和浩特市,化肥厂生活区,颗粒物(PM10),142,228,129,72,59,101,101,62,62,13,37,8,8,0.4,0.6
2026-03-17T1600,3699A,111.6519,40.8389,呼和浩特市,海东办,颗粒物(PM10),174,298,146,78,61,102,102,64,64,12,47,8,6,0.4,0.5
2026-03-17T1600,4275A,111.591512,40.827312,呼和浩特市,成吉思汗西街8号,颗粒物(PM10),175,300,138,65,51,99,99,64,64,17,42,7,9,0.4,0.5
2026-03-17T1600,4276A,111.6597,40.8077,呼和浩特市,公园东路75号,NA,NA,NA,140,60,54,92,92,66,66,14,36,12,11,0.5,0.6
2026-03-17T1600,4277A,111.5427,40.7846,呼和浩特市,金海路35号,颗粒物(PM10),182,314,128,76,56,94,94,56,56,14,35,9,9,0.5,0.6
2026-03-17T1600,3061A,119.7511,49.1576,呼伦贝尔市,国华电力东,颗粒物(PM10),55,57,29,21,17,89,89,88,84,7,10,5,5,0.2,0.2
2026-03-17T1600,4279A,119.7569,49.2222,呼伦贝尔市,伊敏大街东7号,,46,46,28,9,14,89,89,85,82,9,12,7,6,0.3,0.3
2026-03-17T1600,1250A,120.075,30.867,湖州市,城西水厂,细颗粒物(PM2.5),64,51,53,42,40,72,72,75,73,26,21,5,5,0.5,0.5
2026-03-17T1600,2873A,120.083,30.8929,湖州市,仁皇山新区,细颗粒物(PM2.5),62,53,51,41,34,68,68,69,69,31,27,5,5,0.7,0.6
2026-03-17T1600,2907A,120.1846,30.8592,湖州市,吴兴区站,NA,NA,71,63,39,36,75,75,67,67,26,20,5,5,NA,0.2
2026-03-17T1600,3562A,120.4146,30.8538,湖州市,南浔区站,细颗粒物(PM2.5),68,66,63,44,44,71,71,69,69,28,22,8,8,0.7,0.6
2026-03-17T1600,1607A,120.904878,40.721091,葫芦岛市,龙港区,细颗粒物(PM2.5),138,107,66,101,54,90,90,92,91,27,36,12,13,0.9,0.7
2026-03-17T1600,1608A,120.8382,40.7521,葫芦岛市,化工街,细颗粒物(PM2.5),140,122,72,104,57,105,105,80,80,34,61,22,20,0.9,0.6
2026-03-17T1600,1609A,120.8339,40.7078,葫芦岛市,新区,细颗粒物(PM2.5),142,122,59,106,53,98,98,75,75,31,55,15,16,1.2,0.8
2026-03-17T1600,1610A,120.8697,40.7679,葫芦岛市,东城区,细颗粒物(PM2.5),144,NA,62,108,61,102,102,80,80,34,59,17,17,1.2,0.9
2026-03-17T1600,2483A,109.9297,27.5383,怀化市,河西地税局,,13,6,6,3,5,41,41,50,48,13,11,3,3,/,/
2026-03-17T1600,2484A,109.9783,27.5342,怀化市,市四医院,NA,NA,6,8,3,4,44,44,44,NA,NA,9,NA,6,0.6,0.7
2026-03-17T1600,2485A,109.9971,27.5579,怀化市,监测楼,,15,7,7,3,3,45,45,46,46,7,6,3,3,0.3,0.3
2026-03-17T1600,1210A,119.0566,33.5991,淮安市,钵池山,细颗粒物(PM2.5),54,46,54,37,43,84,84,82,82,20,20,9,8,0.4,0.4
2026-03-17T1600,1211A,119.0083,33.578,淮安市,北京南路,细颗粒物(PM2.5),60,41,56,40,46,76,76,75,75,18,16,7,7,0.4,0.5
2026-03-17T1600,1212A,118.9938,33.6083,淮安市,市监测站,细颗粒物(PM2.5),58,NA,47,39,47,82,82,79,79,19,18,5,5,0.4,0.3
2026-03-17T1600,1213A,119.135,33.5038,淮安市,楚州区监测站,细颗粒物(PM2.5),64,46,54,42,45,78,78,79,79,19,18,5,6,0.6,0.6
2026-03-17T1600,3426A,118.8757,33.2897,淮安市,新华书店,细颗粒物(PM2.5),80,NA,59,50,48,73,73,74,74,16,18,6,6,0.5,0.5
2026-03-17T1600,4092A,119.119691,33.550006,淮安市,枚皋中路89号,细颗粒物(PM2.5),64,50,60,42,47,80,80,77,77,20,18,9,9,0.5,0.5
2026-03-17T1600,4206A,119.028838,33.631911,淮安市,承德北路606号,细颗粒物(PM2.5),56,53,66,38,44,80,80,78,78,18,18,8,8,0.3,0.4
2026-03-17T1600,2282A,116.8005,33.9749,淮北市,监测站,细颗粒物(PM2.5),84,69,98,52,75,64,64,64,64,17,18,5,5,0.5,0.7
2026-03-17T1600,2283A,116.8094,33.9008,淮北市,烈山区政府,细颗粒物(PM2.5),76,61,86,48,71,68,68,66,66,13,15,4,4,0.4,0.5
2026-03-17T1600,4017A,116.7926,33.9534,淮北市,市博物馆,细颗粒物(PM2.5),82,52,88,51,76,64,64,64,64,17,17,2,2,0.5,0.6
2026-03-17T1600,4100A,116.8322,33.9884,淮北市,杜集区第一实验学校,细颗粒物(PM2.5),80,64,97,50,79,56,56,56,56,18,20,5,6,0.5,0.6
2026-03-17T1600,2277A,116.8304,32.7726,淮南市,潘集区政府,细颗粒物(PM2.5),62,58,67,41,50,54,54,45,45,15,14,5,5,0.8,0.6
2026-03-17T1600,2279A,116.8569,32.5949,淮南市,谢家集区政府,细颗粒物(PM2.5),60,52,58,40,51,40,40,44,40,26,19,7,7,0.8,0.6
2026-03-17T1600,2280A,116.8279,32.6333,淮南市,八公山区政府,细颗粒物(PM2.5),66,47,61,43,51,46,46,46,41,16,13,7,4,0.8,0.6
2026-03-17T1600,2894A,117.0561,32.6536,淮南市,经济技术开发区消防队,细颗粒物(PM2.5),68,52,60,44,51,46,46,44,42,24,20,6,6,0.7,0.5
2026-03-17T1600,3329A,117.011,32.5891,淮南市,山南新区,细颗粒物(PM2.5),64,43,63,42,55,46,46,47,47,23,18,6,6,0.8,0.6
2026-03-17T1600,4209A,117.003137,32.644456,淮南市,国庆中路369号,细颗粒物(PM2.5),60,57,68,40,51,39,39,40,37,20,14,8,7,0.8,0.6
2026-03-17T1600,2446A,114.9021,30.474,黄冈市,职工中心,,9,7,16,3,10,28,28,34,24,10,10,4,4,0.5,0.5
2026-03-17T1600,2929A,114.8858,30.4519,黄冈市,红卫路,,12,6,15,3,10,36,36,51,40,13,8,3,3,0.5,0.5
2026-03-17T1600,3398A,114.9134,30.4446,黄冈市,市林业局,,14,6,15,3,10,42,42,51,41,6,7,4,4,0.4,0.6
2026-03-17T1600,2672A,102.02,35.5101,黄南藏族自治州,同仁县隆务镇,NA,NA,NA,66,NA,34,99,99,91,91,2,4,8,9,NA,0.4
2026-03-17T1600,2295A,118.2905,29.6965,黄山市,延安路89号,,36,34,48,25,39,93,93,70,70,12,16,5,5,0.8,0.8
2026-03-17T1600,2297A,118.1369,30.2755,黄山市,黄山区政府5号楼,,24,22,28,3,13,75,75,46,46,13,15,3,2,0.6,0.6
2026-03-17T1600,4210A,118.335445,29.720283,黄山市,滨江东路7-2号,颗粒物(PM10),56,58,61,26,41,92,92,69,69,9,12,/,/,/,/
2026-03-17T1600,2423A,115.0547,30.2332,黄石市,沈家营,,20,20,22,6,9,22,22,34,14,23,19,6,7,1.1,1.1
2026-03-17T1600,2426A,114.899,30.211,黄石市,铁山,,30,30,20,9,6,16,16,42,28,25,12,6,7,0.7,0.7
2026-03-17T1600,2427A,115.0259,30.2108,黄石市,团城山,,19,19,19,3,8,18,18,36,21,20,13,6,5,0.9,0.9
2026-03-17T1600,3149A,115.0174,30.1591,黄石市,笔架山北路,,17,17,20,3,6,27,27,31,27,27,20,6,6,1.0,1
2026-03-17T1600,4185A,115.078022,30.21118,黄石市,磁湖东路29号,,16,16,21,7,10,18,18,29,19,24,24,6,6,1.3,1.3
2026-03-17T1600,1392A,114.4181,23.0528,惠州市,河南岸金山湖子站,,32,22,36,11,20,101,101,94,94,6,13,6,8,0.5,0.5
2026-03-17T1600,1393A,114.4055,23.0824,惠州市,下埔横江三路子站,,32,30,42,12,18,102,102,96,96,9,14,4,6,0.5,0.5
2026-03-17T1600,1395A,114.4645,22.7832,惠州市,惠阳区承修路船湖子站,,32,32,41,13,18,96,96,94,94,9,14,7,7,0.4,0.4
2026-03-17T1600,1396A,114.5316,22.7423,惠州市,大亚湾管委会子站,,38,38,42,15,16,98,98,93,93,10,11,4,4,0.5,0.4
2026-03-17T1600,3314A,114.4334,22.8134,惠州市,惠阳秋长,,36,36,37,16,17,108,108,105,105,12,15,/,/,/,/
2026-03-17T1600,3452A,114.6521,22.7755,惠州市,大亚湾霞涌,,30,30,36,15,17,95,95,95,95,24,17,/,/,/,/
2026-03-17T1600,4300A,114.4089,23.1147,惠州市,文华一路1号,,35,31,42,14,20,110,110,98,98,11,16,/,/,/,/
2026-03-17T1600,2240A,130.9618,45.2926,鸡西市,环保局,细颗粒物(PM2.5),108,97,84,68,61,116,116,100,100,18,23,11,9,0.6,0.8
2026-03-17T1600,2243A,130.9294,45.2959,鸡西市,第一中学,细颗粒物(PM2.5),113,83,70,74,67,122,122,105,105,13,13,7,5,0.6,0.6
2026-03-17T1600,3707A,131.0069,45.2988,鸡西市,欧美日汽修厂,细颗粒物(PM2.5),113,94,104,74,71,114,114,102,102,12,30,8,18,0.5,0.7
2026-03-17T1600,2367A,114.9753,27.0803,吉安市,红声器材厂,细颗粒物(PM2.5),80,65,72,50,59,139,139,89,89,20,24,6,7,0.9,1
2026-03-17T1600,2369A,114.9903,27.1313,吉安市,市环境监测站,细颗粒物(PM2.5),70,59,66,45,62,140,140,92,92,17,20,9,9,/,/
2026-03-17T1600,2370A,115.009527,27.096792,吉安市,青原区法院,细颗粒物(PM2.5),72,68,72,46,66,138,138,89,89,18,27,5,6,0.8,0.9
2026-03-17T1600,1772A,126.54,43.8622,吉林市,哈达湾,细颗粒物(PM2.5),124,112,158,86,138,163,163,116,116,18,33,11,11,0.7,0.9
2026-03-17T1600,1773A,126.5843,43.8358,吉林市,东局子,细颗粒物(PM2.5),130,94,146,93,137,156,156,116,116,16,32,8,7,0.9,1.2
2026-03-17T1600,1774A,126.5051,43.8243,吉林市,电力学院,细颗粒物(PM2.5),128,108,186,90,158,176,176,121,121,23,42,11,11,1.0,1.5
2026-03-17T1600,1775A,126.6133,43.8971,吉林市,江北,细颗粒物(PM2.5),110,100,174,70,129,156,156,121,121,19,31,9,10,0.9,1.3
2026-03-17T1600,1776A,126.5549,43.8304,吉林市,江南公园,细颗粒物(PM2.5),126,123,159,88,143,163,163,110,110,20,36,12,11,0.7,1
2026-03-17T1600,2868A,126.4737,43.953,吉林市,九站,细颗粒物(PM2.5),128,132,187,90,161,164,164,124,124,22,48,11,18,0.8,1.3
2026-03-17T1600,1299A,116.9866,36.6118,济南市,科干所,细颗粒物(PM2.5),115,102,113,76,95,139,139,120,120,20,21,8,7,0.7,0.9
2026-03-17T1600,1300A,116.9379,36.6652,济南市,农科所,细颗粒物(PM2.5),115,100,123,76,106,133,133,112,112,21,35,9,7,0.7,0.8
2026-03-17T1600,1301A,117.1265,36.6736,济南市,开发区,细颗粒物(PM2.5),114,103,105,75,90,151,151,125,125,31,34,10,4,0.8,0.9
2026-03-17T1600,1303A,117.0616,36.6865,济南市,省种子仓库,细颗粒物(PM2.5),120,112,123,82,93,148,148,112,112,20,51,7,5,0.7,0.9
2026-03-17T1600,1304A,116.9495185,36.644937,济南市,机床二厂,细颗粒物(PM2.5),111,98,125,72,103,138,138,116,116,21,36,7,10,0.7,0.9
2026-03-17T1600,1305A,117.0496,36.6629,济南市,市监测站,细颗粒物(PM2.5),124,115,118,86,97,144,144,116,116,23,42,7,4,0.7,0.8
2026-03-17T1600,1306A,116.7674,36.5458,济南市,长清党校,细颗粒物(PM2.5),104,98,134,64,107,129,129,108,108,16,33,6,4,0.7,0.8
2026-03-17T1600,1961A,117.5323,36.6865,济南市,东山小学,细颗粒物(PM2.5),113,110,114,74,82,150,150,117,117,24,39,9,5,1.3,1
2026-03-17T1600,3059A,117.7181,36.205,济南市,泰兴公司,,48,48,106,30,76,126,126,98,98,11,48,9,11,0.9,1.3
2026-03-17T1600,3064A,117.6861,36.2172,济南市,莱芜战役纪念馆,NA,NA,51,115,NA,84,129,129,109,109,NA,48,5,8,0.6,0.9
2026-03-17T1600,3494A,117.1673,36.9782,济南市,济阳区政府,NA,NA,NA,141,NA,116,135,135,108,108,21,42,NA,7,0.7,0.8
2026-03-17T1600,3495A,117.1168,36.6299,济南市,锦屏中学,细颗粒物(PM2.5),118,107,94,79,80,143,143,121,121,26,16,10,8,0.8,0.7
2026-03-17T1600,4108A,117.7107,36.2385,济南市,山财大街5号,,48,48,99,33,73,119,119,95,95,16,48,9,10,0.7,1.1
2026-03-17T1600,4109A,116.9744,36.6889,济南市,无影山路12号,细颗粒物(PM2.5),120,95,118,82,108,134,134,108,108,19,37,8,6,0.8,1
2026-03-17T1600,1653A,116.6229,35.4288,济宁市,火炬城,细颗粒物(PM2.5),72,NA,92,46,83,109,109,95,95,13,24,4,4,0.6,0.8
2026-03-17T1600,3500A,116.5808,35.3703,济宁市,北湖一中,细颗粒物(PM2.5),84,NA,91,52,90,106,106,92,92,12,26,6,6,0.6,0.7
2026-03-17T1600,3501A,116.8251,35.5592,济宁市,服务中心,细颗粒物(PM2.5),72,77,132,46,97,114,114,97,97,11,30,3,3,0.7,1
2026-03-17T1600,3678A,116.5907,35.4054,济宁市,市第七中学,细颗粒物(PM2.5),70,NA,92,45,90,116,116,98,98,12,26,2,3,0.7,0.8
2026-03-17T1600,4111A,116.6075,35.4566,济宁市,任和路,细颗粒物(PM2.5),72,60,126,46,92,110,110,93,93,13,25,4,5,0.7,0.9
2026-03-17T1600,4112A,116.5648,35.3921,济宁市,文体南路1号,细颗粒物(PM2.5),66,55,124,43,93,114,114,99,99,10,30,2,3,0.6,0.8
2026-03-17T1600,4122A,112.6071,35.1015,济源市,市委党校,细颗粒物(PM2.5),137,138,133,100,85,55,55,56,46,23,23,5,5,1.0,0.7
2026-03-17T1600,4123A,112.596,35.0702,济源市,沁园中路1号,细颗粒物(PM2.5),124,100,107,86,85,60,60,61,50,22,24,3,4,0.9,0.7
2026-03-17T1600,2255A,130.2749,46.8028,佳木斯市,佳纺,,40,NA,54,28,29,116,116,93,93,4,30,4,6,0.3,0.6
2026-03-17T1600,2257A,130.3258,46.7975,佳木斯市,环保局,,37,NA,41,24,25,117,117,84,84,6,33,2,3,0.2,0.5
2026-03-17T1600,4285A,130.363,46.806,佳木斯市,顺和街,,36,NA,35,25,23,106,106,81,81,7,35,3,6,0.3,0.4
2026-03-17T1600,4286A,130.3952,46.8268,佳木斯市,长安路196号,,34,NA,32,16,19,106,106,81,81,7,23,4,3,0.3,0.5
2026-03-17T1600,1252A,120.7439,30.778,嘉兴市,清河小学,,45,37,42,31,30,78,78,82,77,28,20,6,6,0.7,0.6
2026-03-17T1600,1253A,120.7261,30.7477,嘉兴市,嘉兴学院,,50,50,50,26,28,80,80,80,78,33,25,6,6,0.6,0.6
2026-03-17T1600,2872A,120.7845,30.7524,嘉兴市,南湖区残联,,45,NA,32,31,31,79,79,78,75,30,22,5,4,0.8,0.7
2026-03-17T1600,3407A,120.6915,30.7741,嘉兴市,秀洲住建,,50,41,46,35,34,82,82,81,77,28,23,8,8,0.6,0.6
2026-03-17T1600,1945A,98.291,39.7705,嘉峪关市,气象局,,36,36,67,16,24,107,107,84,84,3,18,7,15,0.3,0.6
2026-03-17T1600,2884A,98.2672,39.7978,嘉峪关市,酒钢宾馆,,39,39,89,10,26,101,101,87,87,5,20,15,37,0.6,1
2026-03-17T1600,3248A,98.2644,39.7723,嘉峪关市,雄关区,,38,38,75,10,25,103,103,76,76,6,28,7,19,0.3,0.8
2026-03-17T1600,1383A,113.1063,22.6058,江门市,北街,,34,34,36,13,18,91,91,86,86,12,18,/,/,/,/
2026-03-17T1600,1384A,113.073,22.5835,江门市,西区,,39,39,41,11,18,97,97,91,91,12,16,/,/,/,/
2026-03-17T1600,1385A,113.0218,22.531,江门市,圭峰西,,30,22,36,10,16,95,95,91,91,6,13,/,/,/,/
2026-03-17T1600,1386A,113.0826,22.5947,江门市,东湖,,32,32,33,10,18,96,96,90,90,11,14,6,6,0.4,0.5
2026-03-17T1600,3311A,113.1077,22.5647,江门市,江海富民,,41,41,50,11,18,96,96,92,92,12,16,/,/,0.3,0.3
2026-03-17T1600,3449A,113.0496,22.4669,江门市,新会银湖,,29,21,37,8,18,90,90,87,87,9,28,9,8,0.2,0.3
2026-03-17T1600,3335A,113.3137,35.2643,焦作市,马村街道办,细颗粒物(PM2.5),139,108,106,102,83,71,71,64,64,23,21,6,6,0.8,0.8
2026-03-17T1600,3336A,113.2464,35.2374,焦作市,焦作技师学院,细颗粒物(PM2.5),129,102,94,91,77,67,67,66,66,21,19,6,6,0.8,0.8
2026-03-17T1600,3477A,113.1656,35.2536,焦作市,中站许衡医院,细颗粒物(PM2.5),132,113,97,95,72,63,63,71,71,29,22,8,8,0.9,0.8
2026-03-17T1600,3981A,113.2456,35.18,焦作市,原李万街道办,细颗粒物(PM2.5),142,113,117,106,87,71,71,57,57,16,19,10,9,0.7,0.8
2026-03-17T1600,4264A,113.234,35.219,焦作市,新安路1731号,细颗粒物(PM2.5),140,121,109,103,84,73,73,72,72,24,23,8,8,0.7,0.7
2026-03-17T1600,4295A,113.2722,35.2121,焦作市,人民路3066号,NA,NA,NA,111,NA,89,74,74,66,66,26,22,NA,7,0.7,0.7
2026-03-17T1600,1708A,116.3701,23.5345,揭阳市,新兴,,38,38,42,13,21,114,114,96,96,10,19,9,10,0.5,0.6
2026-03-17T1600,1709A,116.3261,23.5442,揭阳市,西马,,37,33,45,12,21,116,116,98,98,8,17,5,8,0.3,0.4
2026-03-17T1600,1710A,116.361,23.5627,揭阳市,东兴,,39,39,45,13,23,119,119,103,103,4,12,5,8,/,/
2026-03-17T1600,1711A,116.4151,23.5295,揭阳市,渔湖,颗粒物(PM10),61,65,43,15,22,141,141,118,118,13,17,6,6,/,/
2026-03-17T1600,3320A,116.4028,23.5699,揭阳市,曲溪,NA,NA,30,44,11,22,NA,NA,114,114,11,17,6,10,0.6,0.7
2026-03-17T1600,1944A,102.1691,38.5166,金昌市,天庆家园,NA,NA,97,83,15,22,103,103,98,94,NA,3,6,4,0.5,0.5
2026-03-17T1600,4022A,102.1648,38.5369,金昌市,金川区人防中心,颗粒物(PM10),84,97,87,12,24,99,99,94,94,2,3,6,6,0.4,0.5
2026-03-17T1600,4239A,102.193042,38.531887,金昌市,长春路96号,颗粒物(PM10),72,80,80,13,22,94,94,91,90,3,3,5,5,0.4,0.3
2026-03-17T1600,1262A,119.6478,29.0773,金华市,十五中,,41,38,62,18,37,131,131,108,108,13,21,5,5,0.5,0.1
2026-03-17T1600,1263A,119.6859,29.1032,金华市,监测站,,41,35,63,21,36,129,129,97,97,22,37,5,4,0.5,0.5
2026-03-17T1600,3659A,119.656,29.1132,金华市,气象局,,40,36,59,18,36,128,128,92,92,22,36,4,4,0.3,0.4
2026-03-17T1600,1767A,121.1114,41.0879,锦州市,南山,细颗粒物(PM2.5),135,NA,84,98,78,100,100,90,90,30,57,13,15,0.9,0.8
2026-03-17T1600,1768A,121.060361,40.842794,锦州市,开发区,细颗粒物(PM2.5),137,126,112,100,69,84,84,72,72,36,70,11,17,1.1,0.9
2026-03-17T1600,1769A,121.1836,41.1118,锦州市,百股街道,细颗粒物(PM2.5),140,NA,85,104,84,105,105,94,94,28,50,10,12,1.0,1
2026-03-17T1600,1770A,121.1176,41.1224,锦州市,天安街道,细颗粒物(PM2.5),139,106,89,102,81,104,104,90,90,30,56,12,14,1.0,0.9
2026-03-17T1600,1771A,121.1303,41.1385,锦州市,北湖公园,细颗粒物(PM2.5),137,100,82,100,78,112,112,96,96,27,51,12,14,0.8,0.8
2026-03-17T1600,2160A,112.8496,35.5051,晋城市,自来水公司,颗粒物(PM10),65,70,90,42,46,61,61,67,67,24,17,3,4,0.7,0.5
2026-03-17T1600,2162A,112.8509,35.4886,晋城市,市环保局,颗粒物(PM10),67,73,82,40,52,68,68,70,70,17,14,4,4,0.8,0.6
2026-03-17T1600,3620A,112.8258,35.4804,晋城市,泽州一中,细颗粒物(PM2.5),120,NA,81,81,51,72,72,72,69,19,15,3,4,0.9,0.7
2026-03-17T1600,4078A,112.8246,35.5152,晋城市,前书院路,颗粒物(PM10),61,65,89,40,50,63,63,60,59,24,18,4,4,0.8,0.6
2026-03-17T1600,4079A,112.8864,35.4773,晋城市,祥云街666号,细颗粒物(PM2.5),64,58,76,42,55,74,74,67,67,21,18,4,4,0.6,0.5
2026-03-17T1600,2174A,112.6992,37.6984,晋中市,榆次区政府,颗粒物(PM10),53,53,105,28,67,100,100,78,78,9,26,7,11,0.3,0.8
2026-03-17T1600,2865A,112.7195,37.683,晋中市,榆次三中,颗粒物(PM10),60,63,109,14,56,102,102,72,72,7,26,8,11,0.1,0.6
2026-03-17T1600,4080A,112.7375,37.7215,晋中市,广安街188号,颗粒物(PM10),58,60,116,16,59,105,105,72,72,7,28,10,12,0.1,0.6
2026-03-17T1600,4200A,112.7478,37.6954,晋中市,迎宾街26号,细颗粒物(PM2.5),70,63,104,45,64,99,99,73,73,12,24,8,11,0.4,0.8
2026-03-17T1600,2439A,112.2012,31.048,荆门市,竹园小学,,35,31,57,24,36,60,60,50,50,16,20,1,1,0.6,0.6
2026-03-17T1600,2440A,112.1968,30.9892,荆门市,掇刀,,42,NA,57,29,41,76,76,66,62,12,15,6,7,0.8,0.7
2026-03-17T1600,3012A,112.1849,31.0361,荆门市,西山林语,,29,29,52,19,32,65,65,57,56,12,15,3,3,0.8,0.8
2026-03-17T1600,3547A,112.1631,31.0134,荆门市,龙泉中学南校,,29,24,57,20,44,76,76,61,60,14,14,3,3,0.7,0.8
2026-03-17T1600,4124A,112.2213,31.0654,荆门市,新台西路6号,NA,NA,39,50,30,39,60,60,48,48,NA,18,4,5,0.7,0.6
2026-03-17T1600,1844A,112.2493,30.3198,荆州市,市图书馆,,23,16,32,16,30,41,41,40,38,22,20,4,5,1.0,0.9
2026-03-17T1600,1845A,112.2009,30.3543,荆州市,市委党校,,26,26,43,15,40,42,42,36,36,23,25,6,6,0.8,0.8
2026-03-17T1600,3194A,112.2749,30.3124,荆州市,管委会,,22,16,32,15,33,40,40,38,38,16,15,8,8,1.0,1
2026-03-17T1600,4268A,112.1722,30.3366,荆州市,学苑路85号,,26,26,51,8,37,56,56,50,50,11,13,1,2,1.0,1
2026-03-17T1600,2343A,117.2114,29.2931,景德镇市,老干部活动中心,细颗粒物(PM2.5),82,56,34,51,34,92,92,67,67,14,12,14,7,0.9,0.8
2026-03-17T1600,2344A,117.1893,29.2789,景德镇市,兽医站,细颗粒物(PM2.5),62,63,40,41,31,97,97,71,71,17,14,4,4,0.7,0.7
2026-03-17T1600,2346A,117.246,29.2958,景德镇市,陶研所,细颗粒物(PM2.5),104,NA,30,64,31,89,89,72,72,34,20,14,5,1.1,0.9
2026-03-17T1600,4289A,117.154766,29.256967,景德镇市,青少年活动中心,细颗粒物(PM2.5),90,58,33,55,35,86,86,66,66,20,15,27,8,/,/
2026-03-17T1600,1803A,115.9873,29.6816,九江市,十里,,38,38,14,16,9,8,8,25,8,40,31,8,7,1.2,1.1
2026-03-17T1600,1804A,115.9583,29.7047,九江市,茅山头,,25,25,13,12,9,13,13,26,10,35,26,4,4,0.8,0.8
2026-03-17T1600,1805A,115.9877,29.7295,九江市,西园,,27,27,14,14,7,18,18,27,15,40,34,4,3,1.0,0.9
2026-03-17T1600,1808A,115.9112,29.6038,九江市,综合工业园,,35,35,13,21,8,7,7,18,12,37,35,8,7,1.0,0.9
2026-03-17T1600,3190A,116.0254,29.6995,九江市,外国语学校,,32,32,12,13,9,4,4,22,6,39,27,2,2,1.1,1
2026-03-17T1600,4253A,116.010205,29.659402,九江市,莲花大道8号,,35,35,15,21,8,8,8,27,12,56,32,4,4,0.9,0.7
2026-03-17T1600,4240A,98.495752,39.733935,酒泉市,玉门东路5号,,39,39,69,14,25,98,98,82,82,3,14,5,6,0.2,0.3
2026-03-17T1600,4241A,98.5099,39.7506,酒泉市,北大街108号,,46,46,68,14,28,98,98,88,88,4,13,5,7,0.4,0.4
2026-03-17T1600,2698A,76.0071,39.466,喀什地区,巡警大队,颗粒物(PM10),166,281,332,82,120,70,70,64,64,7,12,2,3,0.2,0.4
2026-03-17T1600,2699A,75.9756,39.4693,喀什地区,吾办,颗粒物(PM10),170,290,329,81,120,66,66,62,62,6,9,8,4,0.3,0.4
2026-03-17T1600,4027A,75.9485,39.4688,喀什地区,老干局,颗粒物(PM10),174,298,347,71,110,71,71,64,64,4,9,2,2,0.4,0.5
2026-03-17T1600,1824A,114.3389,34.778,开封市,肿瘤医院,细颗粒物(PM2.5),127,NA,103,89,110,80,80,66,66,26,30,7,7,0.8,1.2
2026-03-17T1600,1826A,114.2884,34.7966,开封市,世纪星幼儿园,细颗粒物(PM2.5),125,NA,94,87,100,79,79,72,72,23,26,8,9,0.8,1
2026-03-17T1600,3147A,114.3434,34.8101,开封市,龙亭公园,细颗粒物(PM2.5),120,NA,105,82,95,82,82,74,74,17,21,8,8,0.8,1
2026-03-17T1600,3210A,114.3645,34.7955,开封市,汴京公园,细颗粒物(PM2.5),135,NA,103,98,114,83,83,74,74,21,31,4,4,0.7,0.9
2026-03-17T1600,3473A,114.2485,34.8306,开封市,技师学院,细颗粒物(PM2.5),122,NA,86,84,102,80,80,76,76,20,22,6,6,1.0,1.1
2026-03-17T1600,3592A,114.4518,34.7503,开封市,祥符区生态环境局,细颗粒物(PM2.5),124,90,126,86,109,87,87,67,67,32,44,5,5,0.6,0.7
2026-03-17T1600,1951A,84.886,45.6029,克拉玛依市,长征新村,,30,21,47,3,16,95,95,87,87,6,15,4,6,0.3,0.4
2026-03-17T1600,1952A,84.8894,45.5827,克拉玛依市,南林小区,,30,22,47,3,13,96,96,89,89,1,2,4,5,0.1,0.2
2026-03-17T1600,1954A,84.896,44.3328,克拉玛依市,独山子区,颗粒物(PM10),106,134,83,56,28,102,102,76,76,17,22,7,5,0.9,0.8
2026-03-17T1600,1955A,85.6888,46.0909,克拉玛依市,乌尔禾区商贸楼,,41,41,37,15,16,96,96,78,78,7,13,9,8,0.5,0.5
2026-03-17T1600,3612A,85.1045,45.6895,克拉玛依市,白碱滩区新站,,30,15,38,3,19,96,96,92,92,3,7,10,10,0.4,0.4
2026-03-17T1600,2697A,76.1457,39.7143,克孜勒苏柯尔克孜自治州,市人民政府,颗粒物(PM10),144,233,323,66,102,79,79,73,73,4,10,3,3,0.1,0.1
2026-03-17T1600,3665A,76.1654,39.7157,克孜勒苏柯尔克孜自治州,克州文化中心,颗粒物(PM10),145,236,345,72,113,79,79,76,76,4,7,4,4,0.2,0.3
2026-03-17T1600,1450A,102.8203,24.889,昆明市,呈贡新区,,45,45,34,29,26,117,117,108,108,15,13,4,5,0.5,0.5
2026-03-17T1600,1452A,102.7253,25.0904,昆明市,龙泉镇,,42,29,39,29,27,109,109,94,94,8,20,3,4,0.5,0.5
2026-03-17T1600,1453A,102.7267,25.0378,昆明市,东风东路,,48,42,38,33,28,117,117,106,106,11,15,3,3,0.4,0.7
2026-03-17T1600,1454A,102.6744,25.0671,昆明市,金鼎山,,45,45,42,29,26,113,113,102,102,12,16,2,4,0.6,0.6
2026-03-17T1600,1455A,102.6643,25.0401,昆明市,碧鸡广场,细颗粒物(PM2.5),54,40,41,37,28,116,116,98,98,8,19,5,6,0.4,0.4
2026-03-17T1600,3179A,102.7491,25.012,昆明市,官渡区博物馆,,44,44,41,24,25,113,113,100,100,12,15,3,4,0.4,0.6
2026-03-17T1600,3375A,102.8016,24.8336,昆明市,青年创业园,细颗粒物(PM2.5),52,41,37,36,27,122,122,109,109,3,8,4,5,0.4,0.5
2026-03-17T1600,3550A,102.8,24.9787,昆明市,昆明学院,,38,38,40,23,23,117,117,105,105,10,10,3,4,0.5,0.6
2026-03-17T1600,3551A,102.5969,24.6738,昆明市,晋宁区生态环境分局,,46,39,37,32,28,122,122,111,111,5,8,1,2,0.4,0.5
2026-03-17T1600,3552A,102.6673,24.9861,昆明市,云天化总部,,43,39,37,30,23,111,111,98,98,14,14,8,8,0.4,0.4
2026-03-17T1600,1456A,91.132,29.6515,拉萨市,八廓街,,48,15,28,3,8,152,152,127,127,5,7,6,5,0.2,0.4
2026-03-17T1600,1457A,91.1221,29.6748,拉萨市,市环保局,,44,13,31,6,9,139,139,118,118,7,7,4,4,0.4,0.4
2026-03-17T1600,1458A,91.0874,29.6476,拉萨市,区监测站,NA,NA,NA,24,NA,8,141,141,119,119,NA,8,4,4,0.1,0.4
2026-03-17T1600,1459A,91.1774,29.6541,拉萨市,西藏大学,,46,11,27,3,10,146,146,122,122,7,10,6,6,0.4,0.5
2026-03-17T1600,1460A,90.9798,29.6586,拉萨市,区辐射站,,49,23,37,7,11,155,155,127,127,9,12,5,4,0.4,0.4
2026-03-17T1600,1461A,91.0831,29.6292,拉萨市,拉萨火车站,,46,13,25,3,9,146,146,124,124,5,6,4,4,0.4,0.4
2026-03-17T1600,2520A,109.2203,23.7252,来宾市,来宾技工学校,,47,47,54,22,29,88,88,81,81,5,9,12,10,0.6,0.6
2026-03-17T1600,3535A,109.1781,23.7293,来宾市,兴宾区政府,,41,41,56,20,30,91,91,83,83,8,12,10,9,0.5,0.5
2026-03-17T1600,4002A,109.2312,23.7428,来宾市,中南小学,,47,47,51,22,30,95,95,86,86,5,13,8,8,0.5,0.6
2026-03-17T1600,1479A,103.8309,36.0467,兰州市,铁路设计院,NA,NA,NA,NA,NA,NA,NA,NA,NA,NA,NA,NA,NA,NA,NA,NA
2026-03-17T1600,3241A,103.7439,36.0841,兰州市,百合公园,颗粒物(PM10),68,75,87,33,43,84,84,77,77,7,10,2,4,0.5,0.5
2026-03-17T1600,3242A,103.9613,35.9985,兰州市,和平,颗粒物(PM10),75,84,94,31,37,99,99,94,94,5,9,9,11,0.4,0.5
2026-03-17T1600,4236A,103.629272,36.093822,兰州市,庄浪东路808号,颗粒物(PM10),78,88,94,40,44,89,89,85,81,4,10,5,7,0.4,0.4
2026-03-17T1600,4237A,103.7251,36.104344,兰州市,安宁西路88号,颗粒物(PM10),78,89,107,31,42,95,95,89,89,6,9,6,6,0.3,0.3
2026-03-17T1600,4238A,103.846982,36.067567,兰州市,北滨河东路1号,颗粒物(PM10),63,68,88,30,42,96,96,86,86,13,17,6,7,0.5,0.6
2026-03-17T1600,1067A,116.6712,39.5109,廊坊市,药材公司,细颗粒物(PM2.5),144,122,124,108,104,100,100,74,74,17,38,2,4,0.7,0.8
2026-03-17T1600,1068A,116.7215,39.5592,廊坊市,开发区,细颗粒物(PM2.5),150,140,124,114,101,107,107,71,71,16,39,4,5,0.6,0.7
2026-03-17T1600,1070A,116.7246,39.5273,廊坊市,北华航天学院,细颗粒物(PM2.5),155,141,128,118,102,108,108,74,74,16,37,3,5,0.6,0.7
2026-03-17T1600,2919A,116.7022,39.5454,廊坊市,河北工业大学,细颗粒物(PM2.5),146,147,130,110,98,104,104,68,68,14,34,4,5,0.7,0.7
2026-03-17T1600,2536A,103.7629,29.5844,乐山市,牛耳桥,,24,24,40,15,24,51,51,40,32,18,17,5,6,0.6,0.6
2026-03-17T1600,2537A,103.7501,29.6002,乐山市,市第三水厂,,23,23,36,12,20,51,51,43,40,18,17,3,3,0.5,0.7
2026-03-17T1600,2538A,103.7571,29.5664,乐山市,市监测站,,23,23,36,13,21,53,53,42,35,12,13,4,4,0.6,0.6
2026-03-17T1600,3361A,103.7313,29.563,乐山市,理工大学,,23,23,37,15,22,54,54,50,33,12,11,6,6,0.6,0.6
2026-03-17T1600,2599A,100.2497,26.8802,丽江市,丽江古城,,31,20,22,9,10,98,98,99,99,8,11,12,12,0.1,0.1
2026-03-17T1600,2600A,100.2203,26.8906,丽江市,市中心,,32,10,12,10,11,102,102,103,102,10,11,7,8,0.3,0.3
2026-03-17T1600,1267A,119.9141,28.4513,丽水市,监测站大楼,,35,34,30,13,15,111,111,100,100,8,11,5,4,0.4,0.4
2026-03-17T1600,1268A,119.93,28.4589,丽水市,莲都小学,,36,35,32,14,16,114,114,100,100,5,9,/,/,/,/
2026-03-17T1600,1269A,119.8794,28.4232,丽水市,余庄前,,35,32,29,14,14,111,111,91,91,9,15,4,4,0.3,0.3
2026-03-17T1600,1173A,119.1759,34.5885,连云港市,市环境监测站,NA,NA,48,48,31,37,106,106,100,100,19,19,NA,9,0.5,0.6
2026-03-17T1600,3000A,119.3577,34.6971,连云港市,德源药业,颗粒物(PM10),56,58,55,31,33,112,112,108,108,17,28,6,6,0.5,0.5
2026-03-17T1600,3007A,119.178,34.8442,连云港市,新城一中,细颗粒物(PM2.5),62,56,57,41,42,113,113,107,107,23,35,7,8,0.4,0.4
2026-03-17T1600,3008A,119.3607,34.7519,连云港市,胡沟管理处,颗粒物(PM10),55,56,48,31,28,92,92,92,92,37,38,9,9,0.6,0.6
2026-03-17T1600,3009A,119.1478,34.5913,连云港市,矿山设计院,细颗粒物(PM2.5),52,51,52,36,34,112,112,105,105,24,24,13,8,0.7,0.8
2026-03-17T1600,3434A,119.2414,34.6539,连云港市,工贸学校,,49,49,45,34,34,118,118,113,113,17,15,11,11,0.7,0.6
2026-03-17T1600,3664A,119.4171,34.734,连云港市,连云街道,,44,44,40,28,27,120,120,111,111,14,23,4,7,0.4,0.5
2026-03-17T1600,2573A,102.2629,27.8981,凉山彝族自治州,西昌市政府,,33,29,27,16,17,104,104,99,99,4,7,9,12,0.5,0.7
2026-03-17T1600,2574A,102.2686,27.885,凉山彝族自治州,凉山州政府,,32,29,28,17,18,100,100,95,95,4,7,3,13,0.3,0.7
2026-03-17T1600,4229A,102.2342,27.8859,凉山彝族自治州,凯乐南路30号,,34,28,30,16,17,107,107,103,103,6,9,9,12,0.6,0.8
2026-03-17T1600,2212A,123.1978,41.2036,辽阳市,宏伟区,细颗粒物(PM2.5),115,91,136,76,102,146,146,132,132,20,27,14,13,0.8,0.9
2026-03-17T1600,2213A,123.1684,41.2497,辽阳市,新华园,细颗粒物(PM2.5),111,104,167,72,140,144,144,125,125,28,44,17,16,0.9,1.1
2026-03-17T1600,2214A,123.2355,41.2663,辽阳市,滨河路,细颗粒物(PM2.5),110,103,144,71,124,139,139,125,125,25,36,13,12,0.8,1
2026-03-17T1600,4083A,123.153,41.2874,辽阳市,铁西路150号,细颗粒物(PM2.5),116,129,174,77,133,132,132,114,114,24,41,17,20,1.1,1.4
2026-03-17T1600,2227A,125.1359,42.8845,辽源市,环保局,NA,NA,NA,160,51,130,132,132,103,103,10,40,7,9,0.6,1.3
2026-03-17T1600,4085A,125.0998,42.9134,辽源市,安宁大街333号,颗粒物(PM10),98,116,162,57,136,132,132,108,108,15,39,8,9,0.8,1.2
2026-03-17T1600,1625A,115.9789,36.4372,聊城市,区政府,细颗粒物(PM2.5),130,111,131,92,110,122,122,96,96,16,24,10,10,0.8,0.9
2026-03-17T1600,3200A,115.9772,36.4986,聊城市,监控中心,细颗粒物(PM2.5),131,114,131,94,110,137,137,110,110,16,23,10,10,0.9,1
2026-03-17T1600,3513A,116.0443,36.436,聊城市,九州社区,细颗粒物(PM2.5),124,105,127,86,112,144,144,114,114,18,28,3,2,0.8,1
2026-03-17T1600,4018A,116.0564,36.4609,聊城市,星美广场,细颗粒物(PM2.5),129,114,142,91,115,132,132,103,103,6,18,5,5,0.8,0.9
2026-03-17T1600,4113A,116.0091,36.4495,聊城市,利民路,细颗粒物(PM2.5),123,105,137,85,109,139,139,110,110,17,24,8,8,0.7,1
2026-03-17T1600,2632A,94.3683,29.6373,林芝市,林芝监测站,,36,6,4,3,4,113,113,90,90,2,3,5,5,0.5,0.5
2026-03-17T1600,2633A,94.3616,29.6634,林芝市,林芝人民医院,,39,10,6,3,6,123,123,91,91,3,4,8,7,0.3,0.5
2026-03-17T1600,2603A,100.0779,23.8981,临沧市,市环保局,,46,46,46,15,37,109,109,71,71,9,10,7,6,0.5,0.6
2026-03-17T1600,2604A,100.0894,23.882,临沧市,市气象局,,50,41,47,35,38,119,119,78,78,7,10,7,7,0.6,0.6
2026-03-17T1600,1733A,111.5552,36.0791,临汾市,临钢医院,细颗粒物(PM2.5),103,109,108,63,60,64,64,58,58,23,23,8,8,1.0,1
2026-03-17T1600,1734A,111.4984,36.0734,临汾市,技工学校,细颗粒物(PM2.5),84,68,104,52,69,69,69,58,58,18,22,6,8,0.8,1.1
2026-03-17T1600,1736A,111.5017,36.0857,临汾市,市委,NA,NA,NA,114,NA,61,74,74,60,60,14,22,NA,3,NA,1.1
2026-03-17T1600,3018A,111.5048,36.1015,临汾市,唐尧大酒店,颗粒物(PM10),75,85,114,44,57,73,73,57,57,16,24,7,9,0.8,1.1
2026-03-17T1600,4244A,111.4879,36.053,临汾市,启星学校,细颗粒物(PM2.5),105,96,103,65,63,59,59,53,53,28,31,5,5,1.0,1.1
2026-03-17T1600,4271A,103.2464,35.6123,临夏回族自治州,滨河东路1号,颗粒物(PM10),60,64,96,20,37,104,104,84,84,6,14,6,7,0.3,0.4
2026-03-17T1600,4310A,103.207136,35.599807,临夏回族自治州,新华街21号,颗粒物(PM10),69,76,98,18,40,83,83,78,78,2,6,7,6,0.0,0.6
2026-03-17T1600,1618A,118.3429,35.0532,临沂市,沂河小区,颗粒物(PM10),60,63,79,37,58,110,110,98,98,17,23,12,10,0.4,0.5
2026-03-17T1600,1619A,118.2962,35.0568,临沂市,鲁南制药厂,颗粒物(PM10),56,58,73,34,58,114,114,103,103,23,28,12,12,0.5,0.5
2026-03-17T1600,1620A,118.2793,34.9976,临沂市,新光毛纺厂,,49,36,73,34,63,105,105,100,100,20,32,10,9,0.5,0.6
2026-03-17T1600,1621A,118.3955,35.0889,临沂市,河东保险公司,,46,46,72,31,51,115,115,103,103,29,43,10,9,0.3,0.4
2026-03-17T1600,3370A,118.3563,35.0215,临沂市,十里堡居委,细颗粒物(PM2.5),58,51,68,39,57,112,112,102,102,24,31,11,10,0.5,0.6
2026-03-17T1600,3496A,118.359,35.1067,临沂市,南坊新区,,48,48,67,33,52,118,118,103,103,25,33,10,9,0.5,0.5
2026-03-17T1600,3860A,118.3915,35.0297,临沂市,皇山花园小区,,48,48,71,33,57,113,113,105,105,22,35,12,11,0.4,0.6
2026-03-17T1600,1870A,109.4854,24.3898,柳州市,柳东小学,,42,42,50,24,29,95,95,87,87,7,11,4,6,0.5,0.5
2026-03-17T1600,1871A,109.4109,24.3304,柳州市,环保监测站,,43,43,58,23,33,80,80,76,76,14,20,4,7,0.8,0.8
2026-03-17T1600,1872A,109.3886,24.3408,柳州市,河西水厂,颗粒物(PM10),60,64,77,23,40,88,88,81,81,14,22,8,11,0.6,0.7
2026-03-17T1600,1873A,109.4263,24.2951,柳州市,市四中,颗粒物(PM10),51,51,59,28,37,82,82,77,77,17,21,7,9,0.3,0.3
2026-03-17T1600,1874A,109.396,24.3658,柳州市,市九中,颗粒物(PM10),54,55,77,23,42,77,77,68,68,13,22,8,11,0.7,0.8
2026-03-17T1600,1875A,109.4912,24.3164,柳州市,古亭山,颗粒物(PM10),52,52,60,28,31,93,93,86,86,9,15,7,8,0.6,0.6
2026-03-17T1600,3402A,109.5422,24.3994,柳州市,市二中,颗粒物(PM10),55,57,69,27,26,91,91,82,82,9,15,8,9,0.5,0.5
2026-03-17T1600,2307A,116.5078,31.7369,六安市,监测大楼,,17,10,41,7,33,22,22,29,23,34,24,6,5,0.8,0.7
2026-03-17T1600,2308A,116.4738,31.7642,六安市,皖西学院,,15,NA,44,8,33,24,24,35,24,30,21,4,4,0.7,0.6
2026-03-17T1600,2309A,116.4997,31.7904,六安市,朝阳厂,,22,NA,48,15,44,24,24,33,23,36,27,5,5,0.8,0.6
2026-03-17T1600,2310A,116.5566,31.7885,六安市,开发区,,16,NA,38,11,39,26,26,34,25,23,15,4,4,0.7,0.5
2026-03-17T1600,2577A,104.8293,26.592,六盘水市,黄土坡,,35,35,28,22,19,101,101,78,78,12,16,7,7,0.3,0.5
2026-03-17T1600,2579A,104.8481,26.5898,六盘水市,民中,,38,37,30,26,22,101,101,75,75,7,13,5,5,0.5,0.7
2026-03-17T1600,2580A,104.9541,26.5506,六盘水市,双水,,35,31,25,24,16,102,102,77,77,8,10,5,4,0.1,0.2
2026-03-17T1600,4151A,104.8899,26.5685,六盘水市,钟山大道中段564号,,40,40,28,22,18,108,108,83,83,6,10,8,9,0.5,0.7
2026-03-17T1600,2336A,117.022,25.1031,龙岩市,龙岩市监测站,,31,26,32,8,22,98,98,90,90,3,15,5,14,0.4,0.5
2026-03-17T1600,2337A,117.0257,25.0662,龙岩市,闽西职业技术学院,,30,22,35,7,19,94,94,85,85,3,9,4,6,0.3,0.4
2026-03-17T1600,2338A,117.0195,25.0306,龙岩市,龙岩学院,,50,50,33,7,19,94,94,85,85,3,7,2,4,/,/
2026-03-17T1600,2885A,104.9344,33.3827,陇南市,滨江中学,,42,42,40,26,13,85,85,43,43,7,14,6,6,0.6,0.8
2026-03-17T1600,3247A,104.9551,33.3709,陇南市,市总工会,,48,48,32,26,11,88,88,45,45,5,11,5,5,0.5,0.7
2026-03-17T1600,2488A,111.9984,27.7346,娄底市,市监测站,颗粒物(PM10),59,62,19,29,13,49,49,36,36,19,13,11,6,1.2,0.9
2026-03-17T1600,2491A,111.9888,27.7035,娄底市,市政府,细颗粒物(PM2.5),84,84,21,52,13,33,33,31,27,28,13,11,5,1.6,0.7
2026-03-17T1600,4127A,111.9812,27.7591,娄底市,涟钢职大,颗粒物(PM10),52,52,16,27,10,45,45,36,36,20,13,7,3,0.9,0.6
2026-03-17T1600,4128A,112.0303,27.7457,娄底市,娄底体校,,40,40,17,21,9,44,44,34,34,12,6,3,2,0.8,0.5
2026-03-17T1600,1894A,105.4427,28.9063,泸州市,小市上码头,,26,22,33,18,27,67,67,42,42,13,20,6,6,0.6,0.6
2026-03-17T1600,1895A,105.4241,28.8573,泸州市,兰田宪桥,,23,23,38,14,24,59,59,38,38,15,18,5,6,0.6,0.7
2026-03-17T1600,1896A,105.4378,28.8833,泸州市,市环监站,NA,NA,NA,38,NA,19,NA,NA,62,NA,NA,22,NA,3,NA,0.4
2026-03-17T1600,4272A,105.3689,28.7783,泸州市,纳溪中医医院,,32,32,38,16,28,61,61,39,39,12,16,6,7,0.6,0.6
2026-03-17T1600,2183A,111.1447,37.5212,吕梁市,环保局,颗粒物(PM10),61,65,115,19,44,96,96,60,60,8,35,6,7,0.2,0.5
2026-03-17T1600,2185A,111.1285,37.5338,吕梁市,自来水公司,NA,NA,NA,135,20,49,96,96,2,NA,9,29,5,6,0.3,0.5
2026-03-17T1600,2867A,111.1225,37.5093,吕梁市,马茂庄小学,颗粒物(PM10),66,72,130,17,39,94,94,56,56,8,32,4,6,0.2,0.5
2026-03-17T1600,1812A,112.3934,34.6517,洛阳市,市委党校,细颗粒物(PM2.5),117,NA,78,78,78,80,80,68,54,21,23,7,8,0.9,0.9
2026-03-17T1600,1815A,112.494,34.6883,洛阳市,河南林校,细颗粒物(PM2.5),122,84,81,84,78,76,76,64,60,28,25,10,10,1.0,0.8
2026-03-17T1600,1816A,112.3843,34.623,洛阳市,开发区管委会,细颗粒物(PM2.5),111,81,94,72,76,89,89,64,63,16,22,8,10,0.6,0.7
2026-03-17T1600,1817A,112.4263,34.6249,洛阳市,市委新办公区,细颗粒物(PM2.5),117,94,91,78,79,84,84,69,60,23,24,8,8,0.8,0.7
2026-03-17T1600,3340A,112.6005,34.6323,洛阳市,伊滨,细颗粒物(PM2.5),136,112,94,99,75,77,77,52,52,24,29,6,6,0.8,0.7
2026-03-17T1600,3341A,112.495,34.6338,洛阳市,中移产业园,细颗粒物(PM2.5),129,NA,80,91,75,83,83,61,54,22,25,9,8,0.8,0.6
2026-03-17T1600,3593A,112.5736,34.8993,洛阳市,吉利监测站,细颗粒物(PM2.5),138,NA,82,101,84,66,66,54,54,31,39,7,8,0.9,0.7
2026-03-17T1600,3635A,112.3678,34.6623,洛阳市,河科大西苑校区,细颗粒物(PM2.5),113,74,77,74,73,88,88,71,61,20,23,7,9,0.8,0.8
2026-03-17T1600,3636A,112.4387,34.678,洛阳市,英才小学,细颗粒物(PM2.5),114,94,90,75,75,79,79,75,60,26,25,9,9,0.9,0.8
2026-03-17T1600,4214A,112.460027,34.694929,洛阳市,春都路1号院,细颗粒物(PM2.5),126,NA,80,88,76,73,73,59,54,22,24,8,9,1.0,0.9
2026-03-17T1600,2399A,114.051,33.5721,漯河市,三五一五工厂,NA,NA,NA,117,50,101,58,58,61,61,15,24,NA,4,0.5,0.7
2026-03-17T1600,2400A,114.0055,33.5698,漯河市,漯河大学,,50,NA,97,35,98,64,64,68,67,13,20,5,6,0.5,0.7
2026-03-17T1600,2401A,114.0134,33.5826,漯河市,市水利局,,39,31,96,27,96,60,60,64,64,15,22,5,5,0.6,0.7
2026-03-17T1600,2402A,114.0261,33.5697,漯河市,市广电局,细颗粒物(PM2.5),52,NA,93,36,96,55,55,58,58,14,21,4,5,0.6,0.6
2026-03-17T1600,3478A,113.9691,33.568,漯河市,市图书馆,,46,NA,115,32,96,59,59,62,62,16,19,4,5,0.6,0.8
2026-03-17T1600,4250A,114.089259,33.588274,漯河市,韶山路11号,,38,31,113,26,92,55,55,55,55,13,27,6,7,0.6,0.8
2026-03-17T1600,1798A,118.5084,31.6838,马鞍山市,湖东路四小,,24,24,37,14,36,49,49,48,48,30,25,6,6,0.6,0.7
2026-03-17T1600,1799A,118.5019,31.6449,马鞍山市,开发区,,19,NA,33,13,31,48,48,46,46,35,29,5,4,0.6,0.6
2026-03-17T1600,3633A,118.4914,31.681,马鞍山市,雨山,,16,9,32,8,25,50,50,48,48,30,24,4,4,0.7,0.7
2026-03-17T1600,4191A,118.527362,31.722269,马鞍山市,慈湖高新区,,21,21,49,14,39,50,50,49,49,33,26,5,5,0.6,0.6
2026-03-17T1600,1686A,111.0285,21.469,茂名市,电白南海,,36,36,41,11,15,75,75,78,76,9,11,5,6,0.7,0.7
2026-03-17T1600,1687A,110.9294,21.6533,茂名市,茂石化七小,NA,NA,NA,38,8,17,NA,NA,71,71,NA,13,6,9,0.3,0.4
2026-03-17T1600,1688A,110.9108,21.6688,茂名市,健康路,,27,27,33,10,16,80,80,80,80,9,13,4,6,0.5,0.5
2026-03-17T1600,1689A,110.8592,21.6826,茂名市,高岭,,46,46,47,12,17,71,71,85,78,15,13,3,6,/,/
2026-03-17T1600,3450A,111.0101,21.5165,茂名市,电白水东,,27,27,36,10,18,68,68,76,72,8,12,3,4,/,/
2026-03-17T1600,2540A,103.8414,30.0871,眉山市,气象局,NA,NA,18,36,11,14,NA,NA,38,38,NA,13,8,6,0.6,0.6
2026-03-17T1600,3148A,103.829,30.0563,眉山市,区人社局,,27,27,35,12,18,47,47,38,38,17,18,9,7,0.7,0.7
2026-03-17T1600,4148A,103.8836,30.0695,眉山市,眉职院,,26,26,28,11,13,49,49,39,39,19,16,7,5,0.8,0.7
2026-03-17T1600,1690A,116.1248,24.3307,梅州市,梅江月梅,,29,29,36,12,22,90,90,84,84,10,20,/,/,/,/
2026-03-17T1600,1691A,116.0798,24.2719,梅州市,梅县新城,,29,28,41,11,25,91,91,81,81,10,23,8,8,0.5,0.6
2026-03-17T1600,3315A,116.1234,24.2994,梅州市,梅龙,NA,NA,27,38,11,23,90,90,86,86,7,18,NA,7,0.6,0.7
2026-03-17T1600,1878A,104.7775,31.4741,绵阳市,富乐山,,20,6,11,3,7,63,63,44,44,10,10,6,6,0.7,0.8
2026-03-17T1600,1880A,104.6698,31.4668,绵阳市,高新区自来水公司,,20,6,12,3,7,63,63,44,44,9,12,7,7,0.6,0.6
2026-03-17T1600,3491A,104.6899,31.5324,绵阳市,西科大附属小学,,20,6,16,3,10,63,63,40,40,19,21,7,7,0.6,0.7
2026-03-17T1600,3492A,104.5647,31.5343,绵阳市,安州区旅游局,,20,6,14,3,8,61,61,46,46,10,10,6,6,0.5,0.5
2026-03-17T1600,4146A,104.7092,31.4972,绵阳市,科技城新区公安局,,19,6,13,3,8,59,59,40,40,8,10,9,9,0.7,0.7
2026-03-17T1600,4226A,104.765114,31.453094,绵阳市,绵阳市气象局,,19,9,11,3,7,59,59,40,40,10,14,8,7,0.5,0.8
2026-03-17T1600,1784A,129.61,44.561,牡丹江市,环保大楼,细颗粒物(PM2.5),186,201,100,140,84,171,171,126,126,28,33,10,6,0.9,0.8
2026-03-17T1600,1787A,129.6364,44.6075,牡丹江市,机车工厂,细颗粒物(PM2.5),175,174,98,132,67,162,162,113,113,27,31,8,5,0.9,0.7
2026-03-17T1600,1788A,129.6386,44.5462,牡丹江市,第一中学,细颗粒物(PM2.5),150,135,58,115,52,145,145,113,113,24,28,9,6,0.6,0.5
2026-03-17T1600,4287A,129.5992,44.5964,牡丹江市,东晓云街98号,细颗粒物(PM2.5),202,204,105,152,82,172,172,115,115,24,25,10,8,1.0,0.8
2026-03-17T1600,2531A,105.0703,29.61,内江市,市监测站,,18,14,21,8,14,55,55,42,42,10,10,7,7,0.6,0.6
2026-03-17T1600,2533A,105.0657,29.5807,内江市,内江二中,,29,29,34,8,15,57,57,44,44,17,16,8,7,0.4,0.4
2026-03-17T1600,2534A,105.0407,29.5828,内江市,内江日报社,,23,23,20,7,15,60,60,47,47,10,12,11,11,0.4,0.4
2026-03-17T1600,4147A,105.0433,29.6105,内江市,玉峰路西段888号,,27,27,21,8,17,62,62,49,49,13,12,8,8,0.4,0.4
2026-03-17T1600,2628A,92.0653,31.4846,那曲市,那曲监测站,,38,17,30,8,18,120,120,104,104,6,8,6,6,0.5,0.6
2026-03-17T1600,4243A,92.0515,31.4787,那曲市,那曲市委宣传部,,40,14,27,3,12,126,126,110,110,3,5,6,6,0.4,0.4
2026-03-17T1600,1291A,115.8887,28.7006,南昌市,省林业公司,,44,44,16,30,15,75,75,54,54,20,22,3,3,1.1,1.1
2026-03-17T1600,1292A,115.813,28.7443,南昌市,林科所,细颗粒物(PM2.5),58,46,16,39,19,74,74,56,56,27,22,7,7,1.0,1.1
2026-03-17T1600,1294A,115.8518,28.687,南昌市,建工学校,颗粒物(PM10),55,57,27,37,18,70,70,52,52,29,27,8,8,0.8,0.8
2026-03-17T1600,1295A,115.8926,28.6425,南昌市,象湖,细颗粒物(PM2.5),56,40,18,38,20,70,70,56,56,25,18,7,7,0.9,0.9
2026-03-17T1600,3046A,115.9084,28.6062,南昌市,机电学校,颗粒物(PM10),59,62,34,38,22,76,76,55,55,20,20,5,5,0.7,0.7
2026-03-17T1600,3690A,115.9718,28.7032,南昌市,外国语学校,细颗粒物(PM2.5),62,56,24,41,21,69,69,40,40,31,26,7,7,1.0,0.8
2026-03-17T1600,4106A,115.7923,28.6873,南昌市,工业二路,颗粒物(PM10),60,64,33,38,20,78,78,59,59,23,23,4,4,0.8,0.8
2026-03-17T1600,4192A,115.931587,28.686774,南昌市,南京东路235号,颗粒物(PM10),52,52,28,31,17,82,82,53,53,17,16,5,5,0.8,0.7
2026-03-17T1600,1906A,106.0791,30.8022,南充市,南充市委,,20,11,13,6,9,61,61,40,40,10,17,6,6,0.6,0.6
2026-03-17T1600,1907A,106.1038,30.8215,南充市,南充炼油厂,,22,22,21,3,9,62,62,41,41,8,14,4,4,0.5,0.5
2026-03-17T1600,4227A,106.108336,30.788436,南充市,梨树横街98号,,22,9,14,6,10,68,68,44,44,10,16,5,5,0.3,0.4
2026-03-17T1600,4304A,106.1172,30.843,南充市,清泉寺北路188号,,22,22,16,3,9,68,68,47,47,6,9,5,5,0.4,0.4
2026-03-17T1600,4305A,106.067,30.7616,南充市,同庆路1号,,20,11,7,6,8,62,62,41,41,12,15,6,6,0.6,0.6
2026-03-17T1600,1151A,118.8033,32.1085,南京市,迈皋桥,,21,21,61,13,51,62,62,64,64,30,23,5,5,0.3,0.4
2026-03-17T1600,1152A,118.7487,32.057,南京市,草场门,NA,NA,19,50,NA,42,59,59,59,59,40,38,8,8,0.7,0.8
2026-03-17T1600,1154A,118.770105,32.004342,南京市,中华门,,15,14,52,3,37,47,47,51,51,27,17,4,4,0.8,0.7
2026-03-17T1600,1155A,118.8059,32.0329,南京市,瑞金路,,16,14,62,6,46,48,48,49,49,32,21,4,4,1.0,1
2026-03-17T1600,1156A,118.7946,32.0774,南京市,玄武湖,,19,NA,56,13,49,50,50,53,53,34,25,6,7,1.0,1
2026-03-17T1600,1157A,118.6415,32.0964,南京市,浦口,,20,NA,62,11,50,40,40,40,40,40,33,4,4,0.7,0.7
2026-03-17T1600,1158A,118.730129,32.000956,南京市,奥体中心,,18,14,55,7,40,56,56,56,56,35,27,11,11,0.5,0.5
2026-03-17T1600,1159A,118.9072,32.1047,南京市,仙林大学城,NA,NA,24,61,8,46,56,56,58,58,NA,27,6,6,NA,0.8
2026-03-17T1600,3422A,118.8443,31.919,南京市,江宁彩虹桥,,25,10,52,8,38,54,54,58,58,49,37,5,4,0.8,0.9
2026-03-17T1600,3427A,118.8497,32.3599,南京市,六合雄州,,46,34,58,32,55,46,46,56,50,33,22,4,4,0.8,0.7
2026-03-17T1600,4086A,118.7641,32.0841,南京市,新模范马路66号,,21,17,60,6,47,51,51,52,52,41,31,3,4,1.0,1
2026-03-17T1600,4249A,118.8707617,31.34017673,南京市,汶溪路181号,,25,NA,26,17,26,66,66,62,62,22,29,4,6,0.5,0.5
2026-03-17T1600,4312A,119.019,31.6512,南京市,中山西路1号,NA,NA,NA,34,1,24,55,55,51,51,20,20,4,4,0.4,0.5
2026-03-17T1600,1401A,108.3098,22.788,南宁市,二十一中,,35,35,33,17,22,72,72,61,60,8,11,4,5,0.5,0.6
2026-03-17T1600,1402A,108.3135,22.8529,南宁市,北湖,,29,27,35,20,22,78,78,68,66,9,12,4,4,0.5,0.6
2026-03-17T1600,1403A,108.3205,22.8222,南宁市,市监测站,,40,40,34,17,19,81,81,71,68,10,12,7,8,0.5,0.5
2026-03-17T1600,1404A,108.3828,22.8038,南宁市,大自然花园,,31,31,37,16,16,83,83,74,72,8,10,5,6,0.4,0.4
2026-03-17T1600,1406A,108.2397,22.8462,南宁市,区农职院,,31,31,37,17,18,74,74,69,65,12,12,5,6,0.3,0.4
2026-03-17T1600,1407A,108.3285,22.7356,南宁市,英华嘉园,NA,NA,44,44,16,21,74,74,62,62,12,16,4,6,NA,0.6
2026-03-17T1600,3401A,108.4829,22.762,南宁市,红星社区,,29,29,36,16,22,86,86,73,73,7,12,4,5,0.5,0.5
2026-03-17T1600,4132A,108.2927,23.1477,南宁市,起凤路9号,,37,37,42,22,24,75,75,72,67,7,10,3,3,0.4,0.3
2026-03-17T1600,4221A,108.2177,22.7774,南宁市,乐贤路16号,,34,34,37,14,17,70,70,65,65,8,15,4,5,0.5,0.5
2026-03-17T1600,2332A,118.1682,26.6371,南平市,南平市监测站,NA,NA,25,27,13,17,113,113,97,97,NA,15,4,4,0.4,0.5
2026-03-17T1600,2334A,118.1757,26.6276,南平市,南平七中,,38,38,27,13,15,114,114,98,98,5,13,3,3,0.3,0.4
2026-03-17T1600,1168A,120.9056,31.9669,南通市,狼山街道,,26,22,45,17,37,83,83,88,81,14,15,3,4,0.4,0.6
2026-03-17T1600,1170A,120.8635,32.0231,南通市,城中,,28,25,53,18,39,87,87,96,84,15,16,3,3,0.6,0.7
2026-03-17T1600,1171A,120.9376,31.9301,南通市,星湖花园,,32,22,48,22,41,77,77,86,78,18,14,3,3,0.5,0.6
2026-03-17T1600,1172A,120.8053,32.046,南通市,紫琅学院,,26,19,48,18,36,82,82,96,82,21,19,4,4,0.6,0.7
2026-03-17T1600,3291A,121.0631,32.0644,南通市,通州监测站,,38,31,47,26,36,88,88,95,91,14,12,3,3,0.4,0.5
2026-03-17T1600,3432A,120.9348,31.9874,南通市,环境教育馆,,27,27,46,17,35,80,80,86,78,22,22,3,3,0.4,0.5
2026-03-17T1600,4091A,120.8692,31.9885,南通市,洪江路,,28,19,48,19,37,82,82,87,79,15,15,3,3,0.7,0.7
2026-03-17T1600,2404A,112.5338,33.0086,南阳市,瓦房庄,,45,45,73,26,65,73,73,62,62,12,14,4,4,0.8,0.8
2026-03-17T1600,2405A,112.5002,32.9734,南阳市,汉画馆,细颗粒物(PM2.5),86,NA,79,53,78,76,76,66,66,14,16,4,4,0.9,0.9
2026-03-17T1600,2406A,112.5778,33.0144,南阳市,气象站,NA,NA,54,86,32,65,72,72,61,61,15,17,NA,4,NA,0.7
2026-03-17T1600,2407A,112.548,32.9687,南阳市,理工学院,细颗粒物(PM2.5),58,47,77,39,73,72,72,60,60,10,14,4,5,0.7,0.7
2026-03-17T1600,4008A,112.5233,32.9921,南阳市,卧龙区政府,细颗粒物(PM2.5),64,45,86,42,74,72,72,62,62,12,14,5,5,0.7,0.7
2026-03-17T1600,1234A,121.8352,29.9111,宁波市,区环保大楼,,33,25,40,14,24,105,105,77,77,18,31,6,6,0.5,0.4
2026-03-17T1600,1235A,121.5595,29.8208,宁波市,万里学院,,30,30,31,18,21,96,96,82,82,11,13,4,4,0.5,0.5
2026-03-17T1600,1236A,121.713,29.9564,宁波市,龙赛医院,,31,28,38,17,22,97,97,83,83,15,20,4,4,0.4,0.4
2026-03-17T1600,1240A,121.5855,29.8635,宁波市,太古小学,,33,33,36,20,21,100,100,85,85,18,20,3,3,0.5,0.4
2026-03-17T1600,1241A,121.5239,29.8673,宁波市,市环境监测中心,,36,36,36,21,22,87,87,77,77,19,19,5,5,0.5,0.5
2026-03-17T1600,2871A,121.6156,29.9015,宁波市,万里国际学校,NA,NA,40,37,24,22,101,101,92,92,NA,14,4,4,0.5,0.5
2026-03-17T1600,3710A,121.5593,29.8976,宁波市,白沙活动中心,,31,28,29,20,21,99,99,85,85,14,14,4,4,0.4,0.3
2026-03-17T1600,4095A,121.8962,29.7529,宁波市,中科路88号,,37,22,29,14,20,116,116,103,103,16,16,6,6,0.6,0.5
2026-03-17T1600,2341A,119.5387,26.6611,宁德市,宁德市监测站,,46,46,31,15,16,128,128,95,95,11,15,6,6,0.5,0.6
2026-03-17T1600,3209A,119.5231,26.6562,宁德市,宁德一中,,40,32,30,16,19,127,127,93,93,10,13,7,7,0.5,0.5
2026-03-17T1600,2618A,98.859,25.8541,怒江傈僳族自治州,州监测站,,26,14,31,13,22,82,82,49,49,7,10,7,7,0.6,0.7
2026-03-17T1600,2619A,98.8607,25.8168,怒江傈僳族自治州,泸水一中,,23,NA,19,15,23,71,71,43,43,15,6,5,5,0.5,0.5
2026-03-17T1600,1888A,101.6891,26.571,攀枝花市,弄弄坪,,40,40,43,16,23,112,112,94,94,11,18,14,12,1.0,0.8
2026-03-17T1600,1889A,101.577,26.5914,攀枝花市,河门口,,40,40,46,23,26,122,122,95,95,6,17,6,18,0.5,0.9
2026-03-17T1600,1891A,101.7365,26.4986,攀枝花市,仁和,,34,25,30,19,23,107,107,100,100,6,9,8,9,0.5,0.5
2026-03-17T1600,2835A,101.7222,26.567,攀枝花市,四十中小,NA,NA,NA,36,NA,22,108,108,92,92,7,16,4,10,0.7,0.8
2026-03-17T1600,1604A,122.0303,41.1489,盘锦市,开发区,细颗粒物(PM2.5),107,73,108,67,116,126,126,104,104,20,27,8,9,0.6,0.8
2026-03-17T1600,1605A,122.0486,41.0883,盘锦市,兴隆台,细颗粒物(PM2.5),106,73,109,66,122,121,121,101,101,21,44,9,9,0.5,0.8
2026-03-17T1600,1606A,121.8297,41.1026,盘锦市,新生街道,细颗粒物(PM2.5),119,NA,78,80,91,120,120,97,97,28,44,10,9,0.7,0.7
2026-03-17T1600,1832A,113.3257,33.7423,平顶山市,新华旅馆,细颗粒物(PM2.5),120,99,121,81,102,86,86,59,59,14,22,NA,6,0.7,0.8
2026-03-17T1600,1833A,113.2917,33.737,平顶山市,规划设计院,细颗粒物(PM2.5),112,97,132,73,102,90,90,63,63,16,21,5,5,0.6,0.7
2026-03-17T1600,1834A,113.182,33.7738,平顶山市,平顶山工学院,细颗粒物(PM2.5),106,78,113,66,95,91,91,57,57,15,22,3,4,0.3,0.5
2026-03-17T1600,3594A,112.8736,33.9068,平顶山市,石龙区,细颗粒物(PM2.5),96,65,106,58,92,95,95,54,54,16,32,6,6,0.7,0.7
2026-03-17T1600,4116A,113.284,33.7139,平顶山市,姚电大道23号,细颗粒物(PM2.5),110,90,125,71,102,92,92,67,67,18,22,5,5,0.7,0.8
2026-03-17T1600,2656A,106.6633,35.5338,平凉市,聚贤嘉苑,颗粒物(PM10),68,74,84,19,36,100,100,89,89,7,19,6,6,0.5,0.7
2026-03-17T1600,2657A,106.7021,35.5307,平凉市,博物馆,颗粒物(PM10),68,75,80,19,38,98,98,87,87,6,16,8,8,0.4,0.7
2026-03-17T1600,2348A,113.8384,27.6436,萍乡市,中医院,细颗粒物(PM2.5),103,83,57,63,37,51,51,42,42,22,23,8,8,1.4,1.1
2026-03-17T1600,2350A,113.8677,27.6438,萍乡市,市环保局,细颗粒物(PM2.5),106,NA,46,66,39,70,70,44,44,11,19,3,3,1.5,1.2
2026-03-17T1600,2351A,113.8663,27.6202,萍乡市,安源区政府,细颗粒物(PM2.5),110,NA,47,70,37,60,60,36,36,16,21,7,7,1.3,0.8
2026-03-17T1600,4107A,113.8686,27.6668,萍乡市,联洪村委会,NA,NA,72,52,60,36,NA,NA,37,37,NA,25,4,5,NA,0.8
2026-03-17T1600,2319A,119.0142,25.4324,莆田市,荔城区仓后路,,41,39,38,21,20,131,131,106,106,13,18,/,/,/,/
2026-03-17T1600,2320A,119.0016,25.4553,莆田市,莆田市监测站,,50,50,30,19,18,137,137,114,114,12,11,5,3,0.3,0.4
2026-03-17T1600,2321A,119.112,25.4561,莆田市,涵江区六中,,39,32,39,22,20,124,124,106,106,9,22,/,/,0.3,0.6
2026-03-17T1600,2322A,119.1014,25.3215,莆田市,秀屿区政府,,41,36,34,22,18,129,129,110,110,7,13,4,4,0.3,0.4
2026-03-17T1600,2392A,115.0312,35.7636,濮阳市,环保局,细颗粒物(PM2.5),124,95,106,86,102,97,97,86,86,16,21,NA,6,0.8,0.9
2026-03-17T1600,3021A,115,35.7667,濮阳市,濮水河管理处,细颗粒物(PM2.5),130,111,127,92,108,104,104,93,93,15,19,7,7,0.7,0.7
2026-03-17T1600,4118A,115.0552,35.7816,濮阳市,中原东路68号,细颗粒物(PM2.5),138,118,132,101,101,103,103,89,89,15,18,6,6,0.8,0.9
2026-03-17T1600,4216A,115.0923632,35.76857718,濮阳市,任丘路479号,细颗粒物(PM2.5),130,110,129,92,101,113,113,91,91,24,25,6,6,0.8,1
2026-03-17T1600,2601A,100.9801,22.7634,普洱市,市环保局,颗粒物(PM10),56,58,53,31,28,112,112,74,74,6,9,6,6,0.6,0.7
2026-03-17T1600,2602A,100.9763,22.8237,普洱市,普洱第二中学,颗粒物(PM10),65,71,51,36,32,118,118,80,80,8,11,4,3,0.6,0.7
2026-03-17T1600,3345A,131.0413,45.7795,七台河市,中波台,NA,NA,86,85,NA,51,128,128,101,101,16,23,16,17,0.5,0.6
2026-03-17T1600,3637A,131.0136,45.7688,七台河市,人民广场,细颗粒物(PM2.5),118,NA,70,79,42,132,132,102,102,15,24,15,15,0.6,0.6
2026-03-17T1600,3684A,130.8639,45.8144,七台河市,新建矿广场,细颗粒物(PM2.5),115,95,78,76,53,126,126,102,102,18,22,5,10,0.3,0.3
2026-03-17T1600,1779A,123.9307,47.3641,齐齐哈尔市,安居小区,细颗粒物(PM2.5),183,195,88,138,59,137,137,119,119,25,21,10,7,0.8,0.6
2026-03-17T1600,1780A,123.9497,47.3389,齐齐哈尔市,中心广场,细颗粒物(PM2.5),192,253,97,144,64,130,130,116,116,24,18,14,11,0.8,0.5
2026-03-17T1600,1781A,123.9483,47.3229,齐齐哈尔市,农牧车辆厂,细颗粒物(PM2.5),190,212,87,143,57,130,130,111,111,21,17,12,9,0.6,0.4
2026-03-17T1600,1783A,123.9442,47.2994,齐齐哈尔市,市环境监测站,细颗粒物(PM2.5),183,215,79,138,49,133,133,111,111,24,17,9,6,1.1,0.8
2026-03-17T1600,3662A,123.6341,47.2079,齐齐哈尔市,富区青少年活动中心,颗粒物(PM10),265,395,121,191,76,142,142,124,124,33,14,19,6,1.8,0.7
2026-03-17T1600,2591A,107.9765,26.5724,黔东南苗族侗族自治州,市环境监测站,NA,NA,26,17,14,9,21,21,33,20,NA,8,2,2,NA,0.7
2026-03-17T1600,2881A,107.8909,26.531,黔东南苗族侗族自治州,凯里学院,,24,24,12,14,7,30,30,35,26,12,14,3,4,0.9,0.9
2026-03-17T1600,2593A,107.5223,26.2371,黔南布依族苗族自治州,小围寨,,26,24,8,18,7,28,28,32,32,10,7,8,6,0.9,0.8
2026-03-17T1600,3538A,107.5175,26.2977,黔南布依族苗族自治州,沙坝,,31,31,16,19,7,26,26,29,28,8,7,4,4,0.8,0.8
2026-03-17T1600,2589A,104.9022,25.0943,黔西南布依族苗族自治州,场坝街,,40,NA,30,24,25,128,128,117,117,5,5,3,3,0.5,0.5
2026-03-17T1600,2590A,104.8812,25.0994,黔西南布依族苗族自治州,坪东大道,,41,NA,30,18,25,130,130,105,105,6,11,5,5,0.4,0.5
2026-03-17T1600,2502A,108.6238,21.9667,钦州市,市环保站,,48,48,43,10,14,86,86,80,80,12,12,7,5,0.4,0.5
2026-03-17T1600,2503A,108.655,21.9481,钦州市,沙埠小学,,46,46,40,18,16,91,91,82,82,4,12,5,5,0.3,0.3
2026-03-17T1600,2504A,108.5989,21.7435,钦州市,港区一小,,42,42,47,16,18,87,87,82,80,8,12,4,4,0.4,0.5
2026-03-17T1600,3404A,108.5959,21.9634,钦州市,北职校,,43,43,37,16,17,93,93,85,85,10,11,8,6,0.5,0.5
2026-03-17T1600,1046A,119.5247,39.9346,秦皇岛市,建设大厦,细颗粒物(PM2.5),160,151,81,122,55,108,108,106,106,14,43,10,11,0.9,0.8
2026-03-17T1600,3132A,119.5979,39.938,秦皇岛市,文明里,细颗粒物(PM2.5),172,154,74,130,48,84,84,75,75,44,46,15,13,1.0,0.7
2026-03-17T1600,4066A,119.7458,39.9952,秦皇岛市,南园路157号,细颗粒物(PM2.5),170,145,77,129,51,87,87,69,69,47,58,13,12,0.9,0.7
2026-03-17T1600,4067A,119.5131,39.8858,秦皇岛市,翠岛大街1号,细颗粒物(PM2.5),168,146,78,127,56,101,101,81,81,28,38,14,12,1.0,0.8
2026-03-17T1600,4198A,119.509013,39.825305,秦皇岛市,北戴河轮滑馆,细颗粒物(PM2.5),162,142,66,123,42,84,84,70,70,46,32,11,9,0.9,0.7
2026-03-17T1600,1310A,120.404,36.0625,青岛市,市南区东部子站,细颗粒物(PM2.5),58,48,45,39,35,115,115,98,98,9,16,9,9,0.5,0.5
2026-03-17T1600,1311A,120.362344,36.10282,青岛市,四方区子站,,49,48,43,34,37,121,121,107,107,16,20,6,5,0.7,0.6
2026-03-17T1600,1312A,120.294373,36.054183,青岛市,市南区西部子站,细颗粒物(PM2.5),54,46,38,37,33,114,114,101,101,12,20,4,3,0.8,0.7
2026-03-17T1600,1313A,120.4581,36.0858,青岛市,崂山区子站,,48,48,44,33,34,121,121,102,102,13,17,8,7,0.5,0.5
2026-03-17T1600,1315A,120.3945,36.3083,青岛市,城阳区子站,颗粒物(PM10),53,53,50,30,32,124,124,101,101,19,29,6,6,0.6,0.7
2026-03-17T1600,3642A,120.3454,36.0735,青岛市,市北区南部,NA,NA,40,41,NA,29,118,118,106,106,NA,18,2,2,0.6,0.6
2026-03-17T1600,3643A,120.3897,36.18,青岛市,李沧区北部,,41,41,47,28,32,127,127,108,108,15,29,9,8,0.5,0.6
2026-03-17T1600,4110A,120.5222,36.4089,青岛市,盟旺路653号,,40,34,53,25,36,128,128,118,118,8,14,2,3,0.6,0.7
2026-03-17T1600,4290A,120.196923,35.954556,青岛市,珠江路669号,细颗粒物(PM2.5),62,48,46,41,35,123,123,107,107,17,36,5,5,0.5,0.5
2026-03-17T1600,4291A,120.0424,35.8656,青岛市,黄岛区人民政府广场,,42,41,47,29,36,115,115,101,101,11,25,8,8,0.6,0.6
2026-03-17T1600,1703A,113.0218,23.7086,清远市,凤城街办,,44,34,47,18,25,140,140,88,88,17,32,/,/,/,/
2026-03-17T1600,3025A,113.0479,23.6343,清远市,技师学院,,45,34,51,16,23,143,143,88,88,15,37,5,6,0.3,0.4
2026-03-17T1600,3318A,112.9898,23.7403,清远市,清新太和,臭氧1小时(O3_1h),54,43,49,25,26,163,163,103,103,19,30,7,8,0.3,0.4
2026-03-17T1600,3455A,113.076,23.72,清远市,清城东城,,47,38,52,17,26,149,149,90,90,15,29,/,/,/,/
2026-03-17T1600,2661A,107.6325,35.7357,庆阳市,庆阳五中,颗粒物(PM10),56,58,62,18,29,92,92,76,76,8,12,6,5,0.2,0.4
2026-03-17T1600,2662A,107.6361,35.7067,庆阳市,市环保局,颗粒物(PM10),55,56,63,10,29,95,95,80,80,10,15,6,6,0.3,0.5
2026-03-17T1600,1916A,103.7897,25.5036,曲靖市,环境监测站,NA,NA,36,41,22,26,127,127,116,116,7,9,6,7,NA,0.1
2026-03-17T1600,1917A,103.8013,25.5357,曲靖市,烟厂办公区,,37,37,39,14,22,118,118,105,105,6,7,3,4,0.4,0.5
2026-03-17T1600,3376A,103.7926,25.4651,曲靖市,南苑二区,,36,32,37,19,24,115,115,105,105,11,11,4,4,0.3,0.4
2026-03-17T1600,3377A,103.7442,25.5259,曲靖市,曲靖师范学院,,39,31,43,18,30,122,122,113,113,6,9,2,3,0.3,0.4
2026-03-17T1600,1264A,118.8694,28.94,衢州市,环保大楼,,50,50,65,32,41,136,136,101,101,23,21,/,/,/,/
2026-03-17T1600,1266A,118.8622,28.9809,衢州市,衢州学院,,46,45,58,32,41,136,136,105,105,20,24,5,5,0.5,0.5
2026-03-17T1600,4097A,118.9646,28.9832,衢州市,衢州三中,,49,49,64,30,43,134,134,103,103,20,23,7,7,0.7,0.7
2026-03-17T1600,1611A,118.5818,24.9116,泉州市,涂山街,,35,35,47,18,24,105,105,90,90,10,19,4,4,0.5,0.5
2026-03-17T1600,1612A,118.597,24.8976,泉州市,津头埔,,36,36,45,17,24,112,112,96,96,9,17,4,4,0.5,0.5
2026-03-17T1600,1613A,118.6669,24.9422,泉州市,万安,,40,40,43,17,22,98,98,89,89,10,21,3,4,0.5,0.5
2026-03-17T1600,4105A,118.6355,24.9148,泉州市,霞新路6号,,31,31,39,15,20,91,91,90,90,7,21,/,/,0.4,0.4
2026-03-17T1600,2626A,88.8873,29.2723,日喀则市,日喀则监测站,,44,NA,20,12,9,139,139,118,118,4,4,6,8,0.3,0.4
2026-03-17T1600,3726A,88.8775,29.2425,日喀则市,林业技术推广中心,,45,45,33,7,6,137,137,120,120,3,4,4,4,0.3,0.3
2026-03-17T1600,1659A,119.4711,35.421,日照市,监测站,颗粒物(PM10),53,53,50,36,31,130,130,100,100,16,42,7,8,0.6,0.7
2026-03-17T1600,1660A,119.523,35.4216,日照市,市政府广场,细颗粒物(PM2.5),58,51,44,39,29,133,133,113,113,16,32,6,6,0.5,0.5
2026-03-17T1600,1661A,119.5511,35.4113,日照市,港务局,颗粒物(PM10),56,58,48,36,30,130,130,106,106,17,32,4,4,0.7,0.6
2026-03-17T1600,3507A,119.5326,35.4627,日照市,职业技术学院,NA,NA,48,41,38,29,128,128,113,113,18,26,7,7,NA,0.7
2026-03-17T1600,3604A,119.3267,35.1043,日照市,岚山环保分局,颗粒物(PM10),62,66,53,38,30,127,127,108,108,18,23,10,10,0.7,0.7
2026-03-17T1600,1835A,111.1922,34.7752,三门峡市,市政府,细颗粒物(PM2.5),84,NA,50,52,50,71,71,72,66,21,19,7,8,0.6,0.6
2026-03-17T1600,1836A,111.1588,34.794,三门峡市,开发区,细颗粒物(PM2.5),100,74,72,60,58,78,78,69,69,9,14,9,11,0.5,0.7
2026-03-17T1600,3039A,111.1911,34.7829,三门峡市,三门峡市第一小学,细颗粒物(PM2.5),84,NA,55,52,52,76,76,69,68,16,15,10,11,0.6,0.6
2026-03-17T1600,3598A,111.1031,34.719,三门峡市,富达温泉假日酒店,细颗粒物(PM2.5),107,NA,61,67,56,72,72,61,61,22,22,12,12,0.6,0.6
2026-03-17T1600,2324A,117.621,26.2626,三明市,三钢,,36,24,36,13,27,114,114,101,101,11,24,17,8,0.8,0.7
2026-03-17T1600,2325A,117.6352,26.2714,三明市,三明二中,,37,16,33,12,21,118,118,119,119,7,18,8,8,0.6,0.6
2026-03-17T1600,2326A,117.6028,26.2377,三明市,三元区政府,,38,32,39,16,31,119,119,104,104,6,24,5,7,0.4,0.7
2026-03-17T1600,1877A,109.4962,18.2682,三亚市,河西子站,,33,33,28,13,12,77,77,82,79,3,4,4,4,0.4,0.4
2026-03-17T1600,3540A,109.7348,18.3443,三亚市,君悦子站,,35,35,34,12,13,75,75,72,72,3,6,4,4,0.3,0.4
2026-03-17T1600,4135A,109.1714,18.3739,三亚市,城东小学站,,38,38,30,8,15,76,76,83,83,4,8,/,/,/,/
2026-03-17T1600,2624A,91.7592,29.234,山南市,山南监测站,,41,20,16,3,4,129,129,101,101,2,3,2,3,0.1,0.2
2026-03-17T1600,2625A,91.7701,29.2436,山南市,山南人民医院,,42,32,26,3,5,132,132,108,108,3,3,5,5,0.3,0.3
2026-03-17T1600,1674A,116.6795,23.3666,汕头市,金平子站,,43,43,29,16,14,115,115,108,108,13,10,5,5,0.5,0.5
2026-03-17T1600,1675A,116.7248,23.3632,汕头市,龙湖子站,,36,36,29,15,15,108,108,104,104,10,13,5,5,/,/
2026-03-17T1600,1676A,116.7257,23.2774,汕头市,濠江子站,,32,31,30,11,15,100,100,100,100,9,12,7,7,/,/
2026-03-17T1600,1677A,116.7518,23.4712,汕头市,澄海子站,颗粒物(PM10),57,59,34,17,15,118,118,103,103,13,11,8,8,0.7,0.6
2026-03-17T1600,1678A,116.6088,23.2539,汕头市,潮阳子站,,36,31,28,14,15,115,115,108,108,4,8,6,6,0.5,0.5
2026-03-17T1600,3444A,116.4539,23.2684,汕头市,潮南峡山,,39,36,34,18,17,123,123,112,112,4,6,6,6,0.6,0.6
2026-03-17T1600,3624A,116.4069,23.2533,汕头市,潮南子站,,45,45,41,21,20,110,110,99,99,8,9,6,7,/,/
2026-03-17T1600,1693A,115.3653,22.7751,汕尾市,市环保局,,39,39,32,12,19,96,96,95,95,14,11,7,6,0.6,0.5
2026-03-17T1600,1695A,115.362,22.7926,汕尾市,新城中学,,40,40,34,11,20,99,99,96,96,11,10,8,7,0.5,0.4
2026-03-17T1600,2645A,109.9155,33.8714,商洛市,监测站,,20,7,18,6,15,62,62,68,68,13,17,4,6,0.7,0.7
2026-03-17T1600,3045A,109.9647,33.8486,商洛市,商州区中学,,19,17,23,7,15,59,59,62,62,18,20,4,5,0.7,0.7
2026-03-17T1600,2408A,115.6701,34.4283,商丘市,环境监测站,细颗粒物(PM2.5),133,NA,117,96,109,43,43,45,45,21,28,2,2,0.7,0.8
2026-03-17T1600,2409A,115.6458,34.4047,商丘市,粮食局,细颗粒物(PM2.5),123,NA,103,85,106,48,48,50,50,26,33,1,1,0.6,0.7
2026-03-17T1600,3171A,115.6069,34.4465,商丘市,梁园区档案局,细颗粒物(PM2.5),128,NA,93,90,96,44,44,54,54,26,33,2,2,0.6,0.7
2026-03-17T1600,4119A,115.6701,34.3767,商丘市,北海东路185号,细颗粒物(PM2.5),126,96,114,88,99,46,46,52,52,22,32,3,3,0.5,0.6
2026-03-17T1600,4120A,115.6172,34.3704,商丘市,中山大街3号,细颗粒物(PM2.5),122,99,122,84,96,52,52,60,60,20,34,NA,4,0.4,0.5
