timepoint,stationcode,longitude,latitude,area,positionname,primarypollutant,aqi,pm10,pm10_24h,pm2_5,pm2_5_24h,o3,o3_24h,o3_8h,o3_8h_24h,no2,no2_24h,so2,so2_24h,co,co_24h
2026-01-16T1800,2568A,102.2503,31.8896,阿坝藏族羌族自治州,马师校,,32,29,26,22,20,48,,60,60,24,15,4,4,0.6,0.6
2026-01-16T1800,3994A,102.2174,31.9016,阿坝藏族羌族自治州,马尔康中学西区,,33,33,20,19,15,61,,63,63,14,14,6,6,0.5,0.5
2026-01-16T1800,2695A,80.2899,41.1684,阿克苏地区,电视台,颗粒物(PM10),103,156,116,67,57,88,,64,64,28,32,7,4,0.8,1.1
2026-01-16T1800,2696A,80.2592,41.1541,阿克苏地区,艺术中心,颗粒物(PM10),81,112,109,56,65,94,,72,68,24,24,7,6,0.7,0.8
2026-01-16T1800,2205A,105.699,38.8409,阿拉善盟,蒙二幼,颗粒物(PM10),53,56,53,18,18,75,,79,79,14,12,11,10,0.6,0.6
2026-01-16T1800,2206A,105.7198,38.8508,阿拉善盟,环保局新楼,颗粒物(PM10),54,57,52,23,18,68,,77,70,13,9,12,10,0.6,0.6
2026-01-16T1800,2708A,88.1266,47.8515,阿勒泰地区,市站,,28,,24,19,16,47,,64,61,37,25,7,6,0.6,0.5
2026-01-16T1800,4166A,88.1198,47.7931,阿勒泰地区,阿勒泰路33号,,38,38,30,22,20,63,,68,55,21,28,6,8,0.6,0.6
2026-01-16T1800,2630A,80.1171,32.4999,阿里地区,阿里监测站,,19,6,3,3,3,60,,63,63,1,12,5,8,0.4,0.6
2026-01-16T1800,3192A,80.0906,32.5029,阿里地区,阿里藏医院,,,9,16,3,10,93,,72,72,1,11,,15,0.5,0.7
2026-01-16T1800,2644A,109.0088,32.6974,安康市,汉滨区检察院,"颗粒物(PM10),细颗粒物(PM2.5)",69,88,73,50,49,73,,62,62,33,28,6,5,1.0,0.8
2026-01-16T1800,4054A,109.0324,32.6913,安康市,市邮政管理局,细颗粒物(PM2.5),85,109,91,63,59,20,,48,48,71,37,6,7,2.1,1.1
2026-01-16T1800,2291A,117.0806,30.5181,安庆市,环科院,细颗粒物(PM2.5),70,64,111,51,84,93,,94,94,42,69,9,9,0.7,0.8
2026-01-16T1800,2292A,117.0331,30.5118,安庆市,马山宾馆,细颗粒物(PM2.5),83,80,110,61,85,108,,106,106,41,70,13,10,0.8,1.1
2026-01-16T1800,2294A,116.9897,30.6146,安庆市,安庆大学,细颗粒物(PM2.5),67,69,99,48,71,103,,106,106,38,46,7,7,0.5,0.7
2026-01-16T1800,3173A,117.0598,30.5351,安庆市,市人大,细颗粒物(PM2.5),73,69,117,53,83,108,,112,112,37,73,11,12,0.6,1
2026-01-16T1800,3123A,105.9408,26.2431,安顺市,凤凰山,细颗粒物(PM2.5),112,92,59,84,50,103,,91,91,21,18,14,19,0.6,0.6
2026-01-16T1800,3124A,105.9443,26.2567,安顺市,金钟山,细颗粒物(PM2.5),114,,57,86,50,99,,88,88,16,13,13,18,0.6,0.6
2026-01-16T1800,3125A,105.8983,26.248,安顺市,娄家坡,细颗粒物(PM2.5),120,97,58,91,50,100,,90,90,17,13,14,12,0.8,0.7
2026-01-16T1800,1819A,114.3552,36.1017,安阳市,红庙街,细颗粒物(PM2.5),115,114,158,87,97,58,,51,51,25,44,1,3,0.7,0.9
2026-01-16T1800,1820A,114.361,36.0681,安阳市,银杏小区,,,,162,,102,60,,54,54,,43,3,4,0.7,0.9
2026-01-16T1800,3141A,114.3921,36.0879,安阳市,信访局,细颗粒物(PM2.5),102,110,159,76,102,61,,60,60,22,33,3,5,0.8,0.9
2026-01-16T1800,3669A,114.4706,36.0634,安阳市,左辅环卫站,细颗粒物(PM2.5),104,127,174,78,105,58,,53,53,32,32,3,5,0.6,0.8
2026-01-16T1800,4117A,114.2918,36.0769,安阳市,钢三路198号,细颗粒物(PM2.5),107,131,183,80,97,56,,50,50,22,42,2,5,0.7,0.9
2026-01-16T1800,1748A,123.0441,41.1201,鞍山市,深沟寺,细颗粒物(PM2.5),53,50,59,37,45,42,,50,50,32,34,7,10,0.8,1
2026-01-16T1800,1749A,123.011,41.0931,鞍山市,太阳城,,48,46,58,33,45,53,,59,59,31,33,13,15,0.8,1
2026-01-16T1800,1750A,123.0483,41.1445,鞍山市,太平,细颗粒物(PM2.5),64,67,61,46,43,38,,49,49,42,34,13,12,0.9,0.9
2026-01-16T1800,1751A,122.964,41.0968,鞍山市,铁西三道街,,46,46,64,27,46,43,,45,45,41,45,20,25,1.0,1.4
2026-01-16T1800,1753A,123.0219,41.0822,鞍山市,明达新区,,46,44,55,32,44,44,,52,52,28,30,13,14,0.6,0.7
2026-01-16T1800,4201A,122.944647,41.082639,鞍山市,兴盛南路290号,颗粒物(PM10),56,62,73,36,52,30,,41,41,53,47,26,29,1.5,1.7
2026-01-16T1800,2195A,107.4206,40.7609,巴彦淖尔市,附二中,,38,38,43,20,19,53,,52,52,9,7,5,6,0.4,0.4
2026-01-16T1800,2196A,107.37,40.7372,巴彦淖尔市,市环保大楼,,36,36,41,8,18,58,,54,54,11,10,6,6,0.4,0.4
2026-01-16T1800,1956A,86.1476,41.7529,巴音郭楞蒙古自治州,孔雀公园,颗粒物(PM10),63,76,78,29,36,72,,57,57,10,35,9,9,0.4,0.7
2026-01-16T1800,1957A,86.1971,41.7166,巴音郭楞蒙古自治州,棉纺厂,颗粒物(PM10),64,77,98,36,32,68,,61,61,11,29,/,/,/,/
2026-01-16T1800,1958A,86.236,41.7172,巴音郭楞蒙古自治州,经济开发区,颗粒物(PM10),60,69,69,21,27,69,,66,66,14,17,7,6,0.5,0.5
2026-01-16T1800,3181A,106.776805,31.852614,巴中市,市五中,细颗粒物(PM2.5),72,77,99,52,73,54,,46,46,35,32,6,6,0.9,0.9
2026-01-16T1800,3183A,106.7419,31.8654,巴中市,圣泉水务公司,细颗粒物(PM2.5),77,73,74,56,59,25,,51,50,65,35,6,5,1.2,0.7
2026-01-16T1800,3616A,106.7617,31.8343,巴中市,市中心医院,细颗粒物(PM2.5),72,76,100,52,79,25,,46,46,58,39,8,7,1.1,1
2026-01-16T1800,2235A,122.7909,45.608,白城市,洮北区环保局,,37,37,65,22,63,50,,51,51,27,33,4,7,0.4,0.8
2026-01-16T1800,2236A,122.8741,45.5725,白城市,市环保局,颗粒物(PM10),53,56,63,33,45,13,,47,46,48,36,6,9,0.4,0.6
2026-01-16T1800,2231A,126.4219,41.9172,白山市,喜丰,,33,33,58,19,34,58,,59,59,26,26,15,16,0.6,0.9
2026-01-16T1800,2232A,126.4082,41.9416,白山市,环保局,,26,,41,18,42,69,,60,60,13,23,9,17,0.3,0.7
2026-01-16T1800,2647A,104.1727,36.5448,白银市,第三小学,颗粒物(PM10),96,141,131,50,40,66,,67,67,38,25,38,33,0.5,0.5
2026-01-16T1800,2648A,104.1467,36.5482,白银市,动力公司,颗粒物(PM10),97,143,124,54,36,74,,72,72,38,15,75,11,0.9,0.6
2026-01-16T1800,2512A,106.6102,23.901,百色市,市监测站,细颗粒物(PM2.5),79,97,64,58,47,107,,86,86,27,21,26,12,1.0,0.8
2026-01-16T1800,2513A,106.6524,23.8842,百色市,市中心血站,细颗粒物(PM2.5),90,87,87,67,66,108,,88,88,25,34,18,15,1.1,1
2026-01-16T1800,4133A,106.6273,23.8798,百色市,龙景西路,颗粒物(PM10),91,131,80,66,54,111,,89,89,25,28,19,10,1.0,0.8
2026-01-16T1800,2270A,117.396,32.9389,蚌埠市,工人疗养院,,,,134,51,62,111,,106,106,36,41,,10,0.6,0.8
2026-01-16T1800,2271A,117.3606,32.9428,蚌埠市,百货大楼,细颗粒物(PM2.5),75,92,120,55,63,120,,110,110,20,42,8,11,0.5,0.7
2026-01-16T1800,2273A,117.4183,32.8909,蚌埠市,蚌埠学院,细颗粒物(PM2.5),80,78,116,59,64,116,,115,115,28,36,8,11,0.6,0.6
2026-01-16T1800,2274A,117.3534,32.9672,蚌埠市,淮上区政府,细颗粒物(PM2.5),84,97,127,62,68,97,,101,101,40,47,4,7,0.5,0.6
2026-01-16T1800,2275A,117.3143,32.8977,蚌埠市,高新区,细颗粒物(PM2.5),89,114,122,66,69,86,,103,103,40,37,11,11,0.3,0.4
2026-01-16T1800,3715A,117.3091,32.9314,蚌埠市,蚌埠田家炳中学,细颗粒物(PM2.5),94,105,124,70,70,91,,105,105,44,38,7,10,0.6,0.7
2026-01-16T1800,1585A,109.8761,40.6533,包头市,市环境监测站,颗粒物(PM10),58,66,45,30,13,53,,63,60,29,15,14,7,0.5,0.4
2026-01-16T1800,1587A,109.9992,40.5843,包头市,包头八中,,46,46,65,22,21,61,,60,60,24,18,7,7,0.6,0.5
2026-01-16T1800,1589A,109.8641,40.6288,包头市,惠龙物流,颗粒物(PM10),54,57,39,26,16,65,,63,62,20,14,11,10,0.5,0.6
2026-01-16T1800,1590A,110.0376,40.5546,包头市,东河鸿龙湾,,40,40,45,15,12,59,,59,59,26,21,11,10,0.9,0.6
2026-01-16T1800,3283A,109.9154,40.5684,包头市,滨河大厦,,37,37,39,13,16,64,,59,59,15,13,7,9,0.6,0.6
2026-01-16T1800,3419A,109.9449,40.6259,包头市,包头市委党校,颗粒物(PM10),54,57,44,23,17,58,,59,59,26,17,12,9,0.7,0.6
2026-01-16T1800,3683A,109.8332,40.6577,包头市,昆区政府,颗粒物(PM10),66,81,48,20,17,48,,59,54,38,19,27,11,1.2,0.8
2026-01-16T1800,1931A,107.0802,34.3129,宝鸡市,竹园沟,颗粒物(PM10),73,96,80,32,30,74,,75,75,21,20,8,6,0.3,0.2
2026-01-16T1800,1933A,107.1429,34.3549,宝鸡市,监测站,颗粒物(PM10),79,107,99,28,40,76,,66,66,25,30,8,5,0.6,0.6
2026-01-16T1800,1934A,107.1172,34.3759,宝鸡市,技工学校,颗粒物(PM10),75,99,106,28,42,78,,72,72,29,25,8,6,0.7,0.7
2026-01-16T1800,1936A,107.2025,34.3518,宝鸡市,文理学院,,,,96,,43,83,,76,76,,31,8,6,0.5,0.6
2026-01-16T1800,1937A,107.2396,34.3626,宝鸡市,三迪小学,颗粒物(PM10),81,112,110,44,53,78,,68,68,35,39,7,5,0.3,0.5
2026-01-16T1800,4155A,107.1721,34.3558,宝鸡市,滨河北路,颗粒物(PM10),72,94,107,28,42,76,,67,67,28,30,8,7,0.3,0.6
2026-01-16T1800,4308A,107.3898,34.3601,宝鸡市,陈仓区北开路21号,颗粒物(PM10),97,143,135,35,56,81,,78,78,46,40,8,39,0.0,0.6
2026-01-16T1800,1051A,115.4803,38.8568,保定市,游泳馆,细颗粒物(PM2.5),79,105,129,58,81,45,,54,54,38,40,3,5,0.7,0.8
2026-01-16T1800,1052A,115.509,38.8895,保定市,华电二区,细颗粒物(PM2.5),92,95,118,68,82,44,,53,53,33,40,6,4,0.7,0.8
2026-01-16T1800,1053A,115.4588,38.9037,保定市,接待中心,细颗粒物(PM2.5),83,92,130,61,87,33,,51,48,40,39,3,3,0.6,0.8
2026-01-16T1800,1054A,115.4484,38.8344,保定市,地表水厂,细颗粒物(PM2.5),84,114,146,62,81,28,,52,51,54,40,7,7,0.7,0.7
2026-01-16T1800,3581A,115.3136,38.9511,保定市,满城区生态环境分局,细颗粒物(PM2.5),83,107,154,61,81,41,,54,54,48,48,6,6,0.8,0.9
2026-01-16T1800,3582A,115.4709,38.7628,保定市,清苑区第二中学,颗粒物(PM10),91,132,156,59,76,41,,53,53,40,42,4,3,0.8,0.8
2026-01-16T1800,3583A,115.6231,39.0223,保定市,徐水物探局,颗粒物(PM10),103,156,169,72,88,18,,48,44,52,37,6,6,0.9,0.9
2026-01-16T1800,4004A,115.4199,38.8665,保定市,双鹰农机,颗粒物(PM10),77,104,161,55,79,44,,61,61,45,39,8,8,0.8,0.9
2026-01-16T1800,4034A,115.515,38.8589,保定市,植保所站,细颗粒物(PM2.5),83,104,130,61,92,42,,48,48,35,43,3,3,1.0,1
2026-01-16T1800,2594A,99.1589,25.1137,保山市,市环境监测站,,28,19,24,9,16,88,,79,79,6,9,4,5,0.2,0.4
2026-01-16T1800,2595A,99.1616,25.1381,保山市,市环保局,,33,33,31,19,20,91,,83,83,4,6,3,4,0.4,0.4
2026-01-16T1800,1867A,109.1435,21.4085,北海市,海滩公园,,42,42,52,15,34,117,,113,113,6,11,6,6,0.8,0.8
2026-01-16T1800,1868A,109.0983,21.466,北海市,新市环保局,,,39,50,22,38,101,,102,102,16,16,5,5,,0.6
2026-01-16T1800,1869A,109.1775,21.5232,北海市,北海工业园,,44,44,60,27,39,109,,104,104,6,14,6,7,0.6,0.7
2026-01-16T1800,3400A,109.1844,21.4396,北海市,龙潭自来水厂,,35,35,49,21,39,108,,106,106,7,10,14,13,0.6,0.7
2026-01-16T1800,1001A,116.3611,39.8786,北京市,万寿西宫,,20,20,102,7,50,61,,60,60,16,34,3,3,0.3,0.7
2026-01-16T1800,1003A,116.4174,39.9289,北京市,东四,,22,22,96,8,48,52,,55,55,20,36,5,6,0.4,0.8
2026-01-16T1800,1004A,116.4073,39.8858,北京市,天坛,,22,22,93,9,50,59,,62,62,16,30,3,3,0.3,0.7
2026-01-16T1800,1005A,116.4622,39.9364,北京市,农展馆,,20,18,95,3,50,61,,63,63,13,28,4,5,0.3,0.8
2026-01-16T1800,1006A,116.3399,39.9293,北京市,官园,,27,27,98,9,48,56,,57,57,15,33,5,6,0.4,0.8
2026-01-16T1800,1007A,116.2879,39.9613,北京市,海淀万柳,,19,19,87,7,46,53,,53,53,22,41,3,4,0.4,0.8
2026-01-16T1800,1008A,116.6635,40.1349,北京市,顺义新城,,22,16,113,7,56,69,,69,69,8,31,4,5,0.3,0.8
2026-01-16T1800,1009A,116.6275,40.327,北京市,怀柔镇,,19,16,106,7,55,59,,63,63,14,38,5,5,0.4,0.9
2026-01-16T1800,1010A,116.2295,40.217,北京市,昌平镇,,20,14,87,3,43,62,,60,60,18,32,2,2,0.3,0.7
2026-01-16T1800,1011A,116.3968,39.982,北京市,奥体中心,,20,18,89,7,47,61,,62,62,23,32,4,4,0.4,0.9
2026-01-16T1800,3418A,116.8336,40.4095,北京市,密云新城,,20,12,107,6,51,64,,66,66,11,32,7,7,0.3,0.8
2026-01-16T1800,3671A,116.0879,39.9725,北京市,门头沟三家店,,24,11,98,3,48,76,,71,71,10,41,3,3,0.3,0.8
2026-01-16T1800,3672A,116.1507,39.8246,北京市,丰台云岗,,25,13,96,6,53,79,,75,75,7,37,3,4,0.3,0.8
2026-01-16T1800,3674A,115.9578,39.7602,北京市,房山燕山,,21,14,122,6,64,65,,58,58,12,36,4,5,0.2,0.7
2026-01-16T1800,3675A,116.4669,39.7734,北京市,大兴旧宫,,19,19,108,7,52,60,,62,62,19,33,3,3,0.3,0.8
2026-01-16T1800,3694A,115.9859,40.4562,北京市,延庆石河营,,21,13,97,6,46,67,,64,64,8,35,3,4,0.3,0.7
2026-01-16T1800,3695A,116.6151,40.3052,北京市,怀柔新城,,19,16,111,7,59,58,,56,56,13,31,4,5,0.3,0.8
2026-01-16T1800,3696A,116.2542,39.8764,北京市,丰台小屯,,18,18,100,7,50,57,,56,56,20,42,4,4,0.4,0.8
2026-01-16T1800,3697A,116.8399,40.3843,北京市,密云镇,,20,14,106,6,57,62,,67,67,13,34,3,3,0.3,0.9
2026-01-16T1800,4057A,115.9423,40.4431,北京市,延庆百泉,,20,13,101,6,45,61,,57,57,6,39,2,2,0.2,0.6
2026-01-16T1800,4058A,116.6598,39.9164,北京市,通州新华,,19,18,98,6,46,58,,54,54,18,38,2,3,0.3,0.8
2026-01-16T1800,4182A,116.1942,39.9158,北京市,石景山八角,,22,14,97,3,47,68,,60,60,7,35,3,2,0.2,0.7
2026-01-16T1800,4194A,117.078628,40.151726,北京市,平谷新城,,19,15,129,9,69,60,,56,56,7,29,1,2,0.1,0.9
2026-01-16T1800,1761A,123.8274146,41.31234549,本溪市,大峪,,47,47,77,30,53,46,,48,48,29,32,9,9,0.6,0.9
2026-01-16T1800,1763A,123.7169,41.3094,本溪市,彩屯,细颗粒物(PM2.5),63,60,76,45,62,35,,49,49,41,35,10,7,0.9,1.2
2026-01-16T1800,1764A,123.7672166,41.28649327,本溪市,东明,,46,43,66,32,58,47,,47,47,27,31,4,3,1.0,1.2
2026-01-16T1800,1765A,123.799345,41.266614,本溪市,新立屯,细颗粒物(PM2.5),52,48,65,36,54,41,,47,47,33,31,11,10,0.7,0.9
2026-01-16T1800,1766A,123.829144,41.336777,本溪市,威宁,"颗粒物(PM10),细颗粒物(PM2.5)",52,54,72,36,52,26,,44,44,49,39,7,6,0.7,0.9
2026-01-16T1800,2587A,105.287,27.3133,毕节市,八中,细颗粒物(PM2.5),114,91,102,86,86,91,,77,77,17,20,10,11,0.8,0.9
2026-01-16T1800,2588A,105.3079,27.2987,毕节市,师专,细颗粒物(PM2.5),112,93,103,84,88,102,,81,81,14,25,9,9,0.8,1
2026-01-16T1800,4263A,105.3688,27.3598,毕节市,工业大道,细颗粒物(PM2.5),129,131,125,98,94,93,,86,86,21,26,12,12,/,/
2026-01-16T1800,1629A,117.9961,37.3604,滨州市,第二水厂,颗粒物(PM10),52,53,150,27,68,54,,49,49,14,39,8,12,0.8,1.1
2026-01-16T1800,1630A,117.9789,37.3931,滨州市,北中新校,颗粒物(PM10),52,53,139,31,70,55,,52,52,20,39,5,9,0.4,0.8
2026-01-16T1800,3514A,117.9379,37.3959,滨州市,中海酒店,,48,48,141,29,71,53,,50,50,16,34,6,11,0.5,0.8
2026-01-16T1800,3515A,117.9381509,37.35547456,滨州市,开发区一中,颗粒物(PM10),54,58,158,27,75,60,,56,56,14,37,9,16,0.4,0.7
2026-01-16T1800,3516A,118.0914,37.6938,滨州市,金海六路,,39,39,112,19,55,71,,67,67,12,25,3,3,0.3,0.6
2026-01-16T1800,4028A,117.9955,37.3752,滨州市,滨州市西街道办事处,颗粒物(PM10),53,56,150,24,77,61,,57,57,15,33,8,12,0.5,0.8
2026-01-16T1800,2311A,115.8071,33.8399,亳州市,污水处理厂,细颗粒物(PM2.5),138,203,148,105,76,40,,61,60,27,34,2,6,0.7,0.4
2026-01-16T1800,2312A,115.7789,33.8519,亳州市,三国揽胜宫,细颗粒物(PM2.5),142,218,145,108,79,43,,63,60,24,33,2,5,0.7,0.6
2026-01-16T1800,3332A,115.7631,33.803,亳州市,亳州学院,细颗粒物(PM2.5),156,195,136,119,77,44,,63,63,28,31,3,6,0.8,0.5
2026-01-16T1800,2693A,82.0482,44.8553,博尔塔拉蒙古自治州,市党校,,,,42,,12,,,64,,,15,,3,,0.2
2026-01-16T1800,2694A,82.0805,44.8966,博尔塔拉蒙古自治州,市环保局,,38,38,48,15,21,59,,59,58,9,12,5,5,0.4,0.4
2026-01-16T1800,1071A,116.8733,38.2922,沧州市,沧县城建局,细颗粒物(PM2.5),70,85,113,51,70,53,,60,60,32,31,7,5,0.5,0.7
2026-01-16T1800,1072A,116.8462,38.3189,沧州市,电视转播站,颗粒物(PM10),60,70,111,36,66,57,,58,58,28,32,3,3,0.5,0.7
2026-01-16T1800,1073A,116.8588,38.3161,沧州市,市环保局,细颗粒物(PM2.5),68,66,115,49,74,52,,55,55,25,26,6,5,0.5,0.7
2026-01-16T1800,3324A,116.8011,38.294,沧州市,河北水利电力学院,颗粒物(PM10),60,70,121,38,60,57,,56,56,25,30,6,4,0.5,0.6
2026-01-16T1800,2622A,97.1813,31.1289,昌都市,昌都监测站,,20,15,43,14,21,58,,67,67,37,24,3,3,0.5,0.8
2026-01-16T1800,3719A,97.1707,31.1428,昌都市,昌都会议中心,,26,6,16,3,17,82,,67,67,2,4,3,1,0.2,0.4
2026-01-16T1800,2692A,87.2722,44.0298,昌吉回族自治州,新区政务中心,,21,18,32,10,15,66,,64,64,12,21,9,9,0.3,0.4
2026-01-16T1800,3613A,87.3069,44.0093,昌吉回族自治州,亚心广场,,24,24,38,12,14,65,,63,63,8,14,8,8,0.5,0.5
2026-01-16T1800,4164A,87.2057,43.9289,昌吉回族自治州,财政所,,50,35,50,35,30,59,,57,57,12,21,6,6,0.4,0.5
2026-01-16T1800,1120A,125.2874,43.9024,长春市,客车厂,细颗粒物(PM2.5),133,103,53,101,58,26,,45,45,63,40,25,14,0.8,0.7
2026-01-16T1800,1121A,125.2943,43.8508,长春市,邮电学院,细颗粒物(PM2.5),125,101,50,95,50,43,,50,50,46,33,12,12,0.9,0.8
2026-01-16T1800,1122A,125.3648,43.8745,长春市,劳动公园,细颗粒物(PM2.5),176,,56,133,52,39,,44,44,49,37,12,15,0.9,0.7
2026-01-16T1800,1123A,125.3233,43.8781,长春市,园林处,细颗粒物(PM2.5),113,100,50,85,46,37,,46,46,46,29,12,13,0.9,0.6
2026-01-16T1800,1124A,125.4604,43.7904,长春市,净月潭,细颗粒物(PM2.5),125,117,61,95,48,39,,35,35,41,33,5,7,0.9,0.7
2026-01-16T1800,1126A,125.38,43.8422,长春市,经开区环卫处,细颗粒物(PM2.5),120,116,57,91,52,32,,41,41,57,44,10,9,0.9,0.7
2026-01-16T1800,1127A,125.234,43.7761,长春市,高新区管委会,细颗粒物(PM2.5),125,,70,95,72,33,,49,49,57,48,8,10,0.8,0.8
2026-01-16T1800,1128A,125.1695,43.83,长春市,岱山公园,细颗粒物(PM2.5),139,,81,106,71,43,,63,63,49,49,6,9,0.8,0.9
2026-01-16T1800,4281A,125.334645,43.916281,长春市,北亚泰大街1068号,细颗粒物(PM2.5),162,,53,123,56,39,,46,46,41,37,,11,2.9,0.8
2026-01-16T1800,1335A,113.082,28.2421,长沙市,经开区环保局,细颗粒物(PM2.5),119,126,130,90,93,36,,12,12,60,76,8,13,0.8,1
2026-01-16T1800,1336A,112.8873,28.2202,长沙市,高开区环保局,细颗粒物(PM2.5),147,114,120,112,89,3,,50,46,96,69,8,8,1.2,1.1
2026-01-16T1800,1337A,113.0785,28.2012,长沙市,马坡岭,细颗粒物(PM2.5),130,147,142,99,91,5,,13,13,93,81,15,11,1.0,1
2026-01-16T1800,1338A,112.9448,28.1894,长沙市,湖南师范大学,细颗粒物(PM2.5),122,138,102,92,63,3,,30,26,121,73,7,7,1.4,0.9
2026-01-16T1800,1339A,113.0177,28.1322,长沙市,雨花区环保局,细颗粒物(PM2.5),158,,98,120,69,3,,74,48,105,58,10,11,1.2,0.9
2026-01-16T1800,1340A,112.9795,28.2593,长沙市,伍家岭,细颗粒物(PM2.5),104,153,172,78,102,3,,10,10,101,76,10,7,1.1,1.1
2026-01-16T1800,1341A,113.002,28.1944,长沙市,火车新站,细颗粒物(PM2.5),134,153,141,102,91,7,,16,16,108,96,,12,1.3,1.3
2026-01-16T1800,1342A,112.9846,28.1177,长沙市,天心区环保局,细颗粒物(PM2.5),120,117,102,91,71,26,,73,42,82,65,8,9,1.1,0.9
2026-01-16T1800,1343A,112.8906,28.1307,长沙市,湖南中医药大学,细颗粒物(PM2.5),103,110,121,77,74,26,,47,47,80,75,8,8,1.2,1
2026-01-16T1800,1727A,113.1146,36.1547,长治市,清华站,细颗粒物(PM2.5),94,,66,70,34,77,,60,60,27,39,16,21,0.9,0.9
2026-01-16T1800,1730A,113.0887,36.2126,长治市,审计局,细颗粒物(PM2.5),89,110,74,66,39,73,,60,60,25,36,11,24,0.9,0.9
2026-01-16T1800,1731A,113.0845,36.1856,长治市,长治八中,细颗粒物(PM2.5),95,138,94,71,42,74,,62,62,24,34,12,22,0.9,0.9
2026-01-16T1800,2845A,113.1561,36.1912,长治市,德盛苑,细颗粒物(PM2.5),77,88,55,56,32,88,,71,71,17,21,11,17,0.8,0.8
2026-01-16T1800,3568A,113.0603,36.0464,长治市,向阳小学,细颗粒物(PM2.5),107,158,85,80,38,74,,68,68,39,30,15,23,1.0,0.7
2026-01-16T1800,3569A,112.8788,36.315,长治市,屯留一中,颗粒物(PM10),101,151,76,75,34,59,,69,69,39,41,13,17,,0.9
2026-01-16T1800,4189A,113.113092,36.199482,长治市,英华南巷50号,"颗粒物(PM10),细颗粒物(PM2.5)",85,120,82,63,37,73,,64,64,32,39,10,21,1.1,1.1
2026-01-16T1800,4190A,113.23666,36.33435,长治市,学府街1号,细颗粒物(PM2.5),100,116,80,75,45,64,,64,64,36,44,14,32,1.1,1.5
2026-01-16T1800,1854A,111.696,28.9725,常德市,市二中,细颗粒物(PM2.5),158,175,131,120,104,103,,98,98,20,30,9,8,1.0,1
2026-01-16T1800,3138A,111.7152,29.0288,常德市,武陵区永安,细颗粒物(PM2.5),152,161,140,116,106,107,,104,104,17,24,11,9,1.0,1
2026-01-16T1800,3139A,111.6891,28.9881,常德市,鼎城区玉霞,细颗粒物(PM2.5),166,159,129,126,102,110,,106,106,17,29,13,10,0.8,0.8
2026-01-16T1800,3140A,111.6651,29.0526,常德市,武陵区长庚,细颗粒物(PM2.5),152,156,139,116,109,109,,103,103,19,29,10,8,0.9,0.9
2026-01-16T1800,1196A,119.9524,31.7586,常州市,市监测站,细颗粒物(PM2.5),127,128,171,96,117,114,,140,140,61,91,8,9,1.0,1.4
2026-01-16T1800,1200A,119.9351,31.703,常州市,武进监测站,细颗粒物(PM2.5),129,127,164,98,111,125,,142,142,54,80,16,17,0.5,0.8
2026-01-16T1800,3002A,119.9701,31.813,常州市,行政中心,细颗粒物(PM2.5),100,116,154,75,107,141,,142,142,43,80,9,12,0.7,1.1
2026-01-16T1800,3003A,120.0434,31.7726,常州市,经开区,细颗粒物(PM2.5),107,121,198,80,117,135,,138,138,46,88,9,17,0.7,1.1
2026-01-16T1800,3010A,119.8919,31.7892,常州市,钟楼,细颗粒物(PM2.5),114,119,154,86,106,120,,141,141,49,70,10,12,0.7,0.9
2026-01-16T1800,3429A,119.8595,31.706,常州市,武进经发区,,,131,163,,120,136,,149,149,,90,12,9,0.9,1.1
2026-01-16T1800,3430A,119.5812,31.7256,常州市,金坛城区,细颗粒物(PM2.5),168,167,141,127,118,141,,147,147,46,62,12,13,1.0,1.1
2026-01-16T1800,4089A,119.9551,31.863,常州市,崇义南街5-H号,细颗粒物(PM2.5),80,86,150,59,123,130,,136,136,47,81,8,11,0.9,1.3
2026-01-16T1800,2220A,120.4318,41.588,朝阳市,西梁,,32,32,37,16,18,57,,66,66,16,12,9,9,0.4,0.5
2026-01-16T1800,2221A,120.452,41.565,朝阳市,河畔小区,,30,30,31,10,16,66,,68,68,15,12,6,9,0.5,0.5
2026-01-16T1800,2222A,120.4176,41.5648,朝阳市,八里堡,,41,41,37,24,18,56,,64,64,21,14,7,8,0.5,0.5
2026-01-16T1800,3026A,116.6179,23.6608,潮州市,市政府,颗粒物(PM10),54,57,77,37,44,124,,121,121,18,33,7,10,0.6,0.6
2026-01-16T1800,4036A,116.646,23.676,潮州市,金山,细颗粒物(PM2.5),67,60,57,48,39,133,,128,128,20,18,7,5,0.6,0.5
2026-01-16T1800,2473A,113.0116,25.8228,郴州市,市职中,细颗粒物(PM2.5),60,59,79,43,53,78,,87,87,31,39,11,8,0.7,0.7
2026-01-16T1800,2475A,113.0381,25.8074,郴州市,市审计局,细颗粒物(PM2.5),62,69,81,44,56,15,,89,87,83,45,8,8,/,/
2026-01-16T1800,2476A,113.0348,25.7757,郴州市,市环保局,颗粒物(PM10),53,56,76,34,46,85,,104,104,22,39,8,8,0.3,0.4
2026-01-16T1800,4252A,113.0138,25.8011,郴州市,好美居路49号,,49,47,67,34,52,92,,98,98,35,50,6,7,/,/
2026-01-16T1800,1431A,103.9727,30.7242,成都市,金泉两河,细颗粒物(PM2.5),110,99,122,83,99,105,,88,88,40,54,6,5,1.0,1.2
2026-01-16T1800,1432A,104.1423,30.6765,成都市,十里店,细颗粒物(PM2.5),98,110,143,73,110,110,,92,92,29,55,5,5,0.8,1
2026-01-16T1800,1433A,104.0594,30.5765,成都市,三瓦窑,细颗粒物(PM2.5),149,135,145,114,124,89,,66,66,67,73,7,6,1.1,1.2
2026-01-16T1800,1434A,104.1122,30.6306,成都市,沙河铺,细颗粒物(PM2.5),129,105,140,98,126,80,,65,65,45,74,3,3,1.1,1.2
2026-01-16T1800,2880A,104.0219,30.6561,成都市,大石西路,细颗粒物(PM2.5),113,128,139,85,95,93,,73,73,39,62,7,6,0.7,1
2026-01-16T1800,3136A,104.2724,30.559,成都市,龙泉驿区区政府,细颗粒物(PM2.5),77,73,114,56,98,97,,94,94,23,22,7,7,0.7,0.9
2026-01-16T1800,3357A,104.0028,30.6891,成都市,金博路,细颗粒物(PM2.5),130,141,123,99,96,77,,79,79,59,66,8,8,1.4,1.3
2026-01-16T1800,3359A,104.056,30.5228,成都市,华阳,细颗粒物(PM2.5),100,105,127,75,100,90,,73,73,50,72,6,5,0.8,1.1
2026-01-16T1800,3488A,104.387954,30.746684,成都市,青石路225号,细颗粒物(PM2.5),127,123,150,96,124,114,,87,87,24,50,4,3,0.7,1
2026-01-16T1800,3489A,104.0788,30.4054,成都市,科学城,细颗粒物(PM2.5),143,130,132,109,94,104,,77,77,47,40,14,8,0.7,0.9
2026-01-16T1800,4011A,103.8505,30.6946,成都市,光华大道三段,细颗粒物(PM2.5),127,129,124,96,90,141,,99,99,32,47,7,7,0.4,0.6
2026-01-16T1800,4144A,104.3257,30.6406,成都市,八角井街185号,细颗粒物(PM2.5),94,113,145,70,119,97,,80,80,26,29,4,4,0.5,0.9
2026-01-16T1800,4224A,104.2433276,30.53529463,成都市,鲸龙路1057号,细颗粒物(PM2.5),93,81,118,69,112,85,,80,80,36,42,5,5,0.7,0.9
2026-01-16T1800,1062A,117.9531,40.908,承德市,铁路,,32,32,83,10,41,66,,65,65,5,24,5,6,0.2,0.8
2026-01-16T1800,1063A,117.9397,40.9763,承德市,中国银行,,21,11,77,6,37,67,,68,68,2,22,2,3,0.2,0.8
2026-01-16T1800,4073A,117.9462,40.95,承德市,杏林街1号,,23,23,77,15,43,65,,67,67,4,22,4,5,0.2,0.8
2026-01-16T1800,4274A,117.7994,40.9605,承德市,滨河大街98号,,39,39,71,15,37,60,,62,62,10,22,3,4,0.2,0.6
2026-01-16T1800,2314A,117.4698,30.6617,池州市,池州学院,细颗粒物(PM2.5),75,78,84,55,63,89,,99,99,57,45,10,8,0.7,1.1
2026-01-16T1800,3237A,117.4918,30.6617,池州市,展览馆,细颗粒物(PM2.5),72,76,78,52,50,44,,93,93,74,48,4,4,1.3,1.2
2026-01-16T1800,3333A,117.5626,30.695,池州市,第八中学,细颗粒物(PM2.5),62,62,81,44,57,98,,104,104,45,35,8,8,0.8,1.1
2026-01-16T1800,3334A,117.5037,30.6242,池州市,第十二中学,细颗粒物(PM2.5),83,100,85,61,51,89,,98,98,55,55,9,5,1.1,1.3
2026-01-16T1800,1744A,118.9229,42.2816,赤峰市,松山一中,,20,20,28,3,11,57,,60,60,15,15,5,5,0.5,0.6
2026-01-16T1800,1745A,118.9588,42.2733,赤峰市,哈达街,,26,26,29,10,17,62,,63,63,11,16,5,6,0.6,0.6
2026-01-16T1800,1746A,118.8792,42.2551,赤峰市,天义路,,23,18,27,16,22,61,,63,63,11,20,5,20,0.6,0.7
2026-01-16T1800,3058A,119.2656,42.0356,赤峰市,银河街,,41,41,34,7,18,68,,72,72,6,6,10,11,0.5,0.6
2026-01-16T1800,3286A,118.9359,42.3146,赤峰市,桥北物流园区,,23,23,35,8,18,63,,67,67,12,14,5,5,0.4,0.5
2026-01-16T1800,2521A,107.3473,22.4137,崇左市,市环保局江州分局,细颗粒物(PM2.5),57,61,104,40,79,94,,84,84,16,22,8,9,0.7,0.9
2026-01-16T1800,4256A,107.375,22.3736,崇左市,石景林东路7号,细颗粒物(PM2.5),57,49,85,40,73,101,,86,86,17,26,9,9,0.6,0.8
2026-01-16T1800,3207A,118.31131,32.3033,滁州市,市政府原办公楼,细颗粒物(PM2.5),84,101,127,62,82,72,,103,103,77,68,10,9,0.9,0.8
2026-01-16T1800,3331A,118.3268,32.2633,滁州市,图书馆,细颗粒物(PM2.5),77,94,127,56,73,99,,103,103,51,67,13,13,0.9,0.9
2026-01-16T1800,4101A,118.3196,32.3335,滁州市,银山路666号,"颗粒物(PM10),细颗粒物(PM2.5)",77,104,127,56,97,79,,100,100,70,59,27,14,0.8,0.8
2026-01-16T1800,4102A,118.3426,32.2979,滁州市,黄山路555号,"颗粒物(PM10),细颗粒物(PM2.5)",78,105,152,57,105,103,,113,113,92,86,19,20,1.1,1.2
2026-01-16T1800,2606A,101.5379,25.0492,楚雄彝族自治州,市经济开发区,,27,18,25,9,15,85,,76,76,6,9,2,10,0.5,0.5
2026-01-16T1800,4153A,101.5536,25.0343,楚雄彝族自治州,团结路562号,,27,16,27,7,17,86,,78,78,3,20,4,5,0.2,0.4
2026-01-16T1800,2549A,107.5087,31.2186,达州市,市环境监测站,细颗粒物(PM2.5),125,131,133,95,106,46,,39,39,48,39,8,8,0.9,0.9
2026-01-16T1800,2550A,107.4988,31.2132,达州市,凤凰小区,细颗粒物(PM2.5),128,132,142,97,108,36,,38,38,56,47,,7,1.1,1.1
2026-01-16T1800,2551A,107.5081,31.1987,达州市,达县机关宾馆,细颗粒物(PM2.5),129,171,146,98,108,13,,27,27,87,51,6,6,1.7,1.2
2026-01-16T1800,2552A,107.4644,31.2124,达州市,市政中心,细颗粒物(PM2.5),134,147,155,102,112,59,,43,43,33,51,8,8,0.7,1.1
2026-01-16T1800,2614A,100.2168,25.5818,大理白族自治州,大理市环境监测站,,27,19,22,12,18,86,,78,78,6,8,6,6,0.4,0.5
2026-01-16T1800,2615A,100.1542,25.7055,大理白族自治州,大理古城,,35,,19,24,14,77,,87,86,12,8,8,8,0.6,0.6
2026-01-16T1800,1109A,121.6119,38.974,大连市,甘井子,,36,36,103,18,76,64,,56,56,17,41,6,7,0.4,0.6
2026-01-16T1800,1110A,121.565,38.9509,大连市,周水子,,45,45,105,17,77,61,,53,53,12,37,10,8,0.3,1
2026-01-16T1800,1111A,121.5637,38.8849,大连市,星海三站,,39,39,94,13,71,61,,55,55,17,33,5,6,0.5,1.1
2026-01-16T1800,1112A,121.6301,38.9117,大连市,青泥洼桥,,30,30,105,18,79,58,,48,48,18,40,8,9,0.4,1.2
2026-01-16T1800,1113A,121.6248,38.8643,大连市,傅家庄,,37,37,103,15,73,54,,45,45,18,41,9,11,0.2,1
2026-01-16T1800,1114A,121.5117,38.8636,大连市,七贤岭,,45,45,107,17,70,61,,55,55,11,35,6,8,0.3,1.1
2026-01-16T1800,1116A,121.7507,39.1339,大连市,金州,,35,35,96,21,78,62,,54,54,16,37,9,12,0.3,1
2026-01-16T1800,1117A,121.7811,39.0495,大连市,开发区,,48,48,107,19,74,54,,48,48,16,27,6,8,0.6,1.1
2026-01-16T1800,1118A,121.9762,39.0631,大连市,双D港,,37,37,97,19,71,65,,58,58,17,28,9,9,0.4,1
2026-01-16T1800,4082A,121.2548,38.8188,大连市,旅顺,,31,31,98,14,65,66,,61,61,8,23,6,7,0.4,0.9
2026-01-16T1800,1789A,124.8085,46.0381,大庆市,大同区,颗粒物(PM10),60,70,54,40,40,40,,54,54,36,21,9,7,0.9,0.8
2026-01-16T1800,1790A,125.1166,46.5255,大庆市,龙凤区,,48,48,55,21,39,33,,42,42,40,39,11,11,0.6,0.6
2026-01-16T1800,1791A,124.8894,46.4007,大庆市,红岗区,,45,41,43,31,30,28,,44,44,35,23,6,7,0.7,0.5
2026-01-16T1800,1792A,125.1391,46.578,大庆市,萨尔图区,颗粒物(PM10),51,52,53,30,36,28,,41,41,38,33,8,9,0.7,0.7
2026-01-16T1800,1793A,124.9026,46.6217,大庆市,让胡路区,,,61,45,31,34,,,56,,38,20,10,9,,0.6
2026-01-16T1800,3481A,125.127,46.6277,大庆市,萨区政府监测点,,48,48,51,17,33,30,,45,45,34,33,9,10,0.7,0.7
2026-01-16T1800,1723A,113.2926,40.0759,大同市,云冈宾馆,,26,26,60,18,17,58,,60,60,13,15,6,7,0.7,0.7
2026-01-16T1800,1724A,113.3437,40.0921,大同市,大同大学,,,,60,,32,64,,66,66,13,14,3,4,0.6,0.6
2026-01-16T1800,1725A,113.2637,40.129,大同市,安家小村,,29,29,60,13,19,53,,62,62,20,15,8,8,0.6,0.5
2026-01-16T1800,3282A,113.3399,40.0586,大同市,大同市卫生学校,细颗粒物(PM2.5),79,,60,58,27,67,,65,65,12,17,4,5,0.5,0.6
2026-01-16T1800,3565A,113.1371,40.1122,大同市,云冈站,,29,29,58,12,23,50,,56,56,20,19,7,7,0.8,0.7
2026-01-16T1800,3566A,113.1186,40.2556,大同市,图书馆,,49,49,75,15,27,55,,57,57,17,15,9,7,0.6,0.7
2026-01-16T1800,3567A,113.5931,40.0459,大同市,区一中,,25,18,72,10,26,78,,78,78,9,19,1,3,0.3,0.5
2026-01-16T1800,4199A,113.2798248,40.09972476,大同市,魏都大道141号,,30,30,65,14,18,61,,62,62,14,17,5,6,0.7,0.7
2026-01-16T1800,2269A,124.1068,50.4091,大兴安岭地区,科技局,,19,19,17,12,13,54,,54,54,2,3,5,5,0.2,0.2
2026-01-16T1800,3663A,124.117,50.4279,大兴安岭地区,红旗社区,,17,9,10,3,8,54,,54,54,4,9,5,6,0.3,0.3
2026-01-16T1800,1600A,124.33,40.0625,丹东市,江湾东路,,42,42,85,29,72,58,,51,51,22,29,5,6,0.8,1.1
2026-01-16T1800,1601A,124.4242,40.1513,丹东市,临江后街,,46,46,86,32,66,52,,53,53,28,31,5,10,0.9,1.1
2026-01-16T1800,1602A,124.3935,40.1461,丹东市,元宝山,,45,39,82,31,67,57,,50,50,23,28,7,10,0.8,1
2026-01-16T1800,1603A,124.3634,40.1093,丹东市,民主桥,,44,44,92,26,63,48,,46,46,31,30,7,8,1.0,1.2
2026-01-16T1800,3541A,109.5726195,19.51688767,儋州市,第一中学子站,,45,45,44,23,25,102,,91,91,6,7,4,5,0.6,0.6
2026-01-16T1800,3542A,109.5567,19.5187,儋州市,东坡学校子站,,38,31,40,20,24,119,,102,102,5,6,5,5,0.5,0.5
2026-01-16T1800,2616A,98.5611,24.4273,德宏傣族景颇族自治州,德宏州监测站,,33,33,57,20,41,84,,73,73,13,24,6,7,0.5,0.8
2026-01-16T1800,3677A,98.5887,24.4366,德宏傣族景颇族自治州,芒市人民政府综合楼,,41,41,55,14,33,79,,67,67,9,16,4,5,0.5,0.7
2026-01-16T1800,1901A,104.424,31.1209,德阳市,东山公园,细颗粒物(PM2.5),93,70,100,69,93,100,,70,70,20,30,6,7,0.7,0.8
2026-01-16T1800,1902A,104.3827,31.1318,德阳市,西小区,细颗粒物(PM2.5),120,102,134,91,103,77,,65,65,38,50,6,6,1.0,1.2
2026-01-16T1800,1904A,104.3553,31.1091,德阳市,耐火材料厂,细颗粒物(PM2.5),102,81,112,76,99,88,,75,75,32,42,4,6,0.8,1
2026-01-16T1800,4145A,104.4144,31.1495,德阳市,市林业局,细颗粒物(PM2.5),83,87,116,61,106,85,,62,62,31,59,4,4,0.6,0.8
2026-01-16T1800,1622A,116.3034,37.4675,德州市,儿童乐园,细颗粒物(PM2.5),73,90,161,53,77,60,,55,55,24,35,12,14,1.0,1.1
2026-01-16T1800,1624A,116.2992,37.4449,德州市,监理站,颗粒物(PM10),63,75,157,34,76,68,,64,64,25,36,11,14,0.8,1
2026-01-16T1800,3066A,116.2722,37.438,德州市,九衢泉纯净水厂,颗粒物(PM10),64,78,156,41,78,61,,56,56,21,37,3,9,0.8,1
2026-01-16T1800,3371A,116.3693,37.44,德州市,开发区人民医院,颗粒物(PM10),63,75,164,31,81,64,,55,55,27,39,12,14,0.5,0.8
2026-01-16T1800,3511A,116.5687,37.3331,德州市,陵城艺术中心,颗粒物(PM10),57,63,157,29,73,61,,52,52,26,37,10,13,0.8,1.1
2026-01-16T1800,4292A,116.352738,37.420875,德州市,新河东路,颗粒物(PM10),59,68,156,22,78,63,,57,57,24,39,12,14,1.1,1.1
2026-01-16T1800,2621A,99.7054,27.8319,迪庆藏族自治州,迪庆州站,,31,31,27,14,16,80,,74,74,6,8,4,4,0.3,0.3
2026-01-16T1800,3180A,99.7122,27.8129,迪庆藏族自治州,质量技术监督局,,27,24,24,11,15,86,,79,79,7,10,4,4,0.3,0.4
2026-01-16T1800,4257A,104.6092,35.5962,定西市,将台街,颗粒物(PM10),60,69,104,33,42,74,,74,74,24,27,13,14,0.4,0.6
2026-01-16T1800,4309A,104.6159,35.5701,定西市,正龙路62号,颗粒物(PM10),59,68,107,35,38,83,,76,76,13,10,15,13,0.7,0.7
2026-01-16T1800,1390A,113.7943,23.0132,东莞市,东城石井,臭氧1小时(O3_1h),107,64,91,36,56,213,,212,212,43,75,,8,0.6,0.7
2026-01-16T1800,1391A,113.7384,22.9659,东莞市,南城西平,臭氧1小时(O3_1h),123,80,100,54,62,245,,224,224,52,89,10,8,0.9,0.9
2026-01-16T1800,3319A,113.7283,23.041,东莞市,万江金泰,臭氧1小时(O3_1h),128,88,113,52,71,256,,218,218,39,77,7,8,1.0,1.1
2026-01-16T1800,4129A,113.8666,23.1062,东莞市,裕兴路,臭氧1小时(O3_1h),75,60,124,22,60,180,,193,193,30,71,5,11,0.6,0.9
2026-01-16T1800,4130A,114.0076,22.9739,东莞市,教育路1号,臭氧1小时(O3_1h),109,84,128,45,70,218,,196,196,45,79,5,7,0.7,0.9
2026-01-16T1800,4131A,113.7981,22.8124,东莞市,长怡路1号,臭氧1小时(O3_1h),104,107,110,55,57,208,,175,175,73,80,8,7,0.9,0.9
2026-01-16T1800,1666A,118.6612,37.4313,东营市,市环保局,,46,46,139,22,63,68,,60,60,20,36,7,10,0.5,0.8
2026-01-16T1800,3036A,118.6903,37.4337,东营市,开发区管委会,颗粒物(PM10),53,55,148,27,64,70,,62,62,8,30,8,8,0.3,0.6
2026-01-16T1800,3365A,118.5721,37.5654,东营市,垦利区民丰路,,,,122,,59,69,,60,60,11,31,1,4,0.7,0.9
2026-01-16T1800,3498A,118.5063,37.8606,东营市,河口城区,,,46,105,20,53,65,,68,68,21,29,7,6,,1.1
2026-01-16T1800,3646A,118.4979,37.4623,东营市,胜利站,,43,43,128,22,63,63,,57,57,19,38,10,13,0.6,0.9
2026-01-16T1800,3734A,118.5753,37.4405,东营市,理想之城,,44,44,129,29,67,58,,53,53,18,37,3,7,0.5,0.9
2026-01-16T1800,1591A,110.0024,39.8127,鄂尔多斯市,综合楼,颗粒物(PM10),80,110,70,19,18,24,,51,50,55,21,11,8,0.6,0.4
2026-01-16T1800,1592A,109.9485,39.8259,鄂尔多斯市,巴音孟克林场办事处,颗粒物(PM10),56,61,61,17,17,47,,62,62,31,20,9,10,0.6,0.5
2026-01-16T1800,1593A,109.7734,39.5987,鄂尔多斯市,康泽苑,,46,46,64,12,21,74,,76,76,19,15,5,6,0.4,0.5
2026-01-16T1800,1594A,109.8121,39.5987,鄂尔多斯市,华泰汽车城,,39,39,69,14,20,72,,71,71,16,19,5,6,0.4,0.3
2026-01-16T1800,1595A,109.9734,39.7884,鄂尔多斯市,奥林花园,颗粒物(PM10),63,75,67,14,14,42,,57,57,38,22,9,8,0.6,0.6
2026-01-16T1800,2436A,114.894,30.3989,鄂州市,市政府,细颗粒物(PM2.5),108,97,114,81,98,69,,95,95,61,53,10,11,0.9,0.7
2026-01-16T1800,2437A,114.8986,30.3714,鄂州市,赵家坝,细颗粒物(PM2.5),102,106,109,76,86,83,,102,102,46,34,12,14,1.1,0.9
2026-01-16T1800,3654A,114.8093,30.4091,鄂州市,精准医疗中心,细颗粒物(PM2.5),113,117,128,85,102,46,,90,89,116,59,17,35,1.0,1.5
2026-01-16T1800,2454A,109.4978,30.2979,恩施土家族苗族自治州,湖北民院,细颗粒物(PM2.5),122,100,125,92,155,80,,54,54,25,25,7,6,2.6,2.4
2026-01-16T1800,3549A,109.5061,30.3771,恩施土家族苗族自治州,龙凤新区,细颗粒物(PM2.5),144,126,186,110,160,73,,48,48,20,23,6,7,0.9,1.3
2026-01-16T1800,2499A,108.3411,21.6159,防城港市,沙万,颗粒物(PM10),58,66,67,25,37,89,,85,85,25,38,9,8,0.8,0.9
2026-01-16T1800,2500A,108.3515,21.7733,防城港市,防城档案局,颗粒物(PM10),54,58,58,36,40,96,,96,96,16,14,7,6,0.6,0.7
2026-01-16T1800,2501A,108.3506,21.6414,防城港市,大海花园,颗粒物(PM10),60,70,59,30,36,100,,92,92,20,30,11,10,1.2,0.8
2026-01-16T1800,1371A,113.1293,23.0065,佛山市,湾梁,臭氧1小时(O3_1h),97,127,125,55,62,197,,177,177,72,93,/,/,/,/
2026-01-16T1800,1372A,113.1082,23.0477,佛山市,华材职中,臭氧1小时(O3_1h),132,185,148,86,71,264,,176,176,75,87,8,7,0.9,0.9
2026-01-16T1800,1373A,113.1439,23.045,佛山市,南海气象局,臭氧1小时(O3_1h),117,97,111,68,72,233,,175,175,66,94,/,/,/,/
2026-01-16T1800,1374A,113.2879,22.8094,佛山市,顺德苏岗,臭氧1小时(O3_1h),116,107,104,61,79,232,,199,199,58,83,/,/,0.9,1
2026-01-16T1800,1376A,112.8384,22.8678,佛山市,高明孔堂,臭氧1小时(O3_1h),124,117,94,70,70,248,,201,201,48,51,/,/,/,/
2026-01-16T1800,1377A,112.8835,23.1584,佛山市,三水监测站,细颗粒物(PM2.5),92,119,151,68,91,170,,170,170,87,110,2,5,0.8,1
2026-01-16T1800,1378A,112.8668,23.185,佛山市,三水云东海,颗粒物(PM10),88,125,117,49,81,158,,181,181,47,82,/,/,/,/
2026-01-16T1800,3625A,113.2568,22.7629,佛山市,容桂街道办,臭氧1小时(O3_1h),132,129,124,83,88,264,,209,209,54,77,/,/,/,/
2026-01-16T1800,1282A,119.2681,26.0506,福州市,师大,颗粒物(PM10),59,67,53,26,29,99,,103,103,39,38,6,5,0.6,0.6
2026-01-16T1800,1283A,119.2983,26.1028,福州市,五四北路,颗粒物(PM10),52,54,52,21,30,95,,102,102,36,40,7,6,0.6,0.8
2026-01-16T1800,1284A,119.2648,26.0769,福州市,杨桥西路,颗粒物(PM10),55,59,51,22,31,100,,106,106,25,28,8,6,/,/
2026-01-16T1800,3048A,119.5799,26.0937,福州市,九龙,,43,39,34,26,21,135,,118,118,17,24,6,6,0.7,0.7
2026-01-16T1800,3526A,119.5188,25.9666,福州市,吴航,颗粒物(PM10),52,54,51,28,26,121,,97,97,31,38,7,6,0.6,0.6
2026-01-16T1800,4104A,119.3106,26.0648,福州市,路通桥巷6号,,40,40,54,22,32,99,,98,98,27,34,/,/,/,/
2026-01-16T1800,1755A,123.7974,41.8494,抚顺市,望花区,细颗粒物(PM2.5),55,54,54,39,41,45,,56,56,31,21,5,6,0.8,0.8
2026-01-16T1800,1756A,123.9161,41.8827,抚顺市,顺城区,细颗粒物(PM2.5),62,51,56,44,44,56,,60,60,26,32,9,8,1.4,0.9
2026-01-16T1800,1757A,124.0437,41.8615,抚顺市,东洲区,细颗粒物(PM2.5),65,55,63,47,47,42,,52,52,31,22,6,6,0.8,0.8
2026-01-16T1800,1758A,123.9246,41.8638,抚顺市,新抚区,细颗粒物(PM2.5),59,49,59,42,46,56,,62,62,31,37,8,7,1.3,0.9
2026-01-16T1800,1759A,124.0972,41.8961,抚顺市,大伙房水库,细颗粒物(PM2.5),62,51,51,44,43,50,,58,58,27,19,11,11,0.9,0.9
2026-01-16T1800,1760A,123.708,41.8386,抚顺市,沈抚新城,细颗粒物(PM2.5),103,,59,77,47,43,,57,56,36,23,10,7,2.1,1.3
2026-01-16T1800,2377A,116.3544,27.9833,抚州市,市站,颗粒物(PM10),59,68,88,38,61,98,,83,83,27,37,18,20,0.7,0.8
2026-01-16T1800,2378A,116.3562,27.9631,抚州市,血防站,颗粒物(PM10),52,53,78,33,55,110,,82,82,24,51,11,17,1.0,1.2
2026-01-16T1800,2379A,116.3561,28.0007,抚州市,采茶剧团,细颗粒物(PM2.5),63,71,90,45,62,56,,83,83,68,43,23,14,1.2,1.3
2026-01-16T1800,2380A,116.3854,27.9648,抚州市,医学分院,颗粒物(PM10),54,58,87,34,52,101,,86,86,19,30,23,20,0.8,0.9
2026-01-16T1800,2207A,121.6095,41.9978,阜新市,工业园区,,31,31,27,9,15,66,,68,68,10,11,9,8,0.3,0.4
2026-01-16T1800,2208A,121.6567,42.0188,阜新市,长青街,,22,17,23,8,17,68,,70,70,8,13,7,7,0.3,0.5
2026-01-16T1800,2209A,121.6672,42.07,阜新市,农业园区,,24,24,26,7,16,64,,65,65,10,12,6,6,0.3,0.3
2026-01-16T1800,2211A,121.6343,42.0455,阜新市,玉龙新城,,21,21,27,7,14,63,,65,65,9,12,7,8,0.4,0.4
2026-01-16T1800,2301A,115.8276,32.8929,阜阳市,市监测站,细颗粒物(PM2.5),163,231,124,124,71,59,,93,93,66,49,6,6,0.9,0.6
2026-01-16T1800,2303A,115.8551,32.8606,阜阳市,开发区,颗粒物(PM10),152,254,114,86,61,60,,96,96,59,42,7,7,0.9,0.6
2026-01-16T1800,2875A,115.783962,32.889217,阜阳市,阜阳职业技术学院,细颗粒物(PM2.5),145,206,110,111,61,64,,101,101,46,29,8,9,1.0,0.7
2026-01-16T1800,3468A,115.79,32.8614,阜阳市,市规划展馆,细颗粒物(PM2.5),153,183,116,117,72,65,,106,106,52,30,8,9,1.0,0.6
2026-01-16T1800,3469A,115.835101,32.918568,阜阳市,枣园社区,细颗粒物(PM2.5),160,210,116,122,72,62,,94,94,54,42,7,7,1.0,0.7
2026-01-16T1800,2669A,102.9097,34.9841,甘南藏族自治州,州政府,,32,24,57,13,27,101,,80,80,2,35,5,11,0.2,0.9
2026-01-16T1800,3380A,102.8915,34.9618,甘南藏族自治州,甘肃民族师范学院,,28,17,68,3,19,89,,71,71,3,37,6,12,0,0.3
2026-01-16T1800,2570A,101.96,30.048,甘孜藏族自治州,水桥子,,,,27,,11,90,,70,70,5,26,7,6,0.3,0.8
2026-01-16T1800,3065A,101.9534,29.9976,甘孜藏族自治州,州环保局,,33,32,24,23,9,84,,73,73,14,14,6,6,0.6,0.6
2026-01-16T1800,2363A,114.9368,25.8663,赣州市,地委,细颗粒物(PM2.5),63,61,66,45,45,144,,139,139,37,53,10,11,1.1,1
2026-01-16T1800,2364A,114.946,25.8483,赣州市,气象台,二氧化氮(NO2),69,80,91,42,44,58,,126,126,137,79,6,7,0.8,0.7
2026-01-16T1800,2365A,114.932,25.8332,赣州市,市图书馆,颗粒物(PM10),65,79,87,42,48,65,,104,104,95,69,7,9,1.2,1.2
2026-01-16T1800,2366A,114.8905,25.8472,赣州市,华坚鞋城,颗粒物(PM10),63,75,94,41,51,109,,111,111,44,69,11,13,0.6,0.7
2026-01-16T1800,3109A,115.0094,25.8614,赣州市,赣县区卫计委,,,87,71,51,56,106,,112,112,,40,9,7,0.9,0.8
2026-01-16T1800,2684A,106.2753,36.0057,固原市,监测站,颗粒物(PM10),65,79,121,24,38,81,,78,78,11,20,6,7,0.4,0.6
2026-01-16T1800,2685A,106.2384,36.0189,固原市,新区,,,,118,,30,75,,78,78,17,22,4,4,0.3,0.5
2026-01-16T1800,2544A,106.6307,30.4577,广安市,市委,细颗粒物(PM2.5),199,153,153,149,147,87,,72,72,24,31,10,10,1.1,1.2
2026-01-16T1800,2545A,106.6266,30.4662,广安市,友谊中学,细颗粒物(PM2.5),188,145,138,141,130,82,,68,68,25,23,8,7,1.4,1.3
2026-01-16T1800,2547A,106.6386,30.4551,广安市,广电花园,细颗粒物(PM2.5),202,,137,152,143,67,,63,63,32,30,10,9,0.9,1
2026-01-16T1800,2902A,106.6347,30.4868,广安市,北辰小学,细颗粒物(PM2.5),202,162,139,152,133,65,,62,62,31,21,7,7,1.3,1.2
2026-01-16T1800,2524A,105.8211,32.4444,广元市,老城,细颗粒物(PM2.5),75,83,99,55,68,89,,59,59,51,58,27,22,1.4,1.3
2026-01-16T1800,2526A,105.8629,32.429,广元市,监测站,颗粒物(PM10),77,104,89,44,65,30,,40,40,66,36,10,13,1.1,1.1
2026-01-16T1800,3617A,105.8047,32.4167,广元市,经开区,细颗粒物(PM2.5),63,74,104,45,72,40,,46,46,55,50,20,12,1.3,1.3
2026-01-16T1800,1345A,113.2346,23.1423,广州市,广雅中学,臭氧1小时(O3_1h),119,146,144,76,81,237,,158,158,77,133,5,4,0.9,1.5
2026-01-16T1800,1346A,113.2611,23.105,广州市,市五中,臭氧1小时(O3_1h),124,123,115,71,72,248,,192,192,91,132,9,9,/,/
2026-01-16T1800,1348A,113.3477,23.0916,广州市,广东商学院,细颗粒物(PM2.5),102,101,110,76,78,193,,149,149,79,115,8,8,0.8,0.8
2026-01-16T1800,1349A,113.4332,23.105,广州市,市八十六中,臭氧1小时(O3_1h),93,96,100,68,64,194,,151,151,107,125,9,10,/,/
2026-01-16T1800,1350A,113.3506,22.9488,广州市,番禺中学,臭氧1小时(O3_1h),131,112,112,60,64,261,,216,216,47,85,6,7,0.9,1
2026-01-16T1800,1351A,113.2147,23.3918,广州市,花都师范,臭氧1小时(O3_1h),113,96,132,55,76,226,,204,204,42,110,8,8,0.6,1
2026-01-16T1800,1352A,113.2599,23.1329,广州市,市监测站,臭氧1小时(O3_1h),124,159,148,82,84,247,,165,165,87,127,4,3,/,/
2026-01-16T1800,1353A,113.5618,23.3119,广州市,九龙镇镇龙,臭氧1小时(O3_1h),109,105,110,64,61,218,,185,185,58,68,6,6,0.6,0.7
2026-01-16T1800,1354A,113.2764,23.1544,广州市,麓湖,臭氧1小时(O3_1h),105,98,104,56,66,209,,157,157,64,117,10,10,0.5,0.7
2026-01-16T1800,2846A,113.3209,23.1323,广州市,体育西,细颗粒物(PM2.5),107,134,129,80,77,178,,162,162,83,112,7,7,1.1,1.1
2026-01-16T1800,3298A,113.5718,23.5493,广州市,从化街口,臭氧1小时(O3_1h),101,103,88,67,60,202,,180,180,47,57,26,10,0.9,0.9
2026-01-16T1800,3299A,113.3463,23.369,广州市,白云竹料,臭氧1小时(O3_1h),127,109,123,67,70,254,,222,222,55,87,9,5,0.8,0.9
2026-01-16T1800,3300A,113.2981,23.2365,广州市,白云嘉禾,臭氧1小时(O3_1h),110,105,131,55,73,220,,204,204,81,102,7,7,/,/
2026-01-16T1800,3301A,113.4256,23.1716,广州市,黄埔科学城,臭氧1小时(O3_1h),116,107,107,70,68,231,,210,210,78,80,6,6,0.9,0.9
2026-01-16T1800,3302A,113.3942,23.0485,广州市,番禺大学城,臭氧1小时(O3_1h),128,105,148,49,59,256,,208,208,47,86,11,11,0.7,0.7
2026-01-16T1800,3303A,113.4923,22.8169,广州市,南沙黄阁,臭氧1小时(O3_1h),120,96,85,42,55,239,,218,218,60,74,8,9,/,/
2026-01-16T1800,3304A,113.534,22.7893,广州市,南沙街,臭氧1小时(O3_1h),102,90,91,31,48,203,,201,201,37,54,4,6,0.6,0.6
2026-01-16T1800,3443A,113.2905,23.5541,广州市,花都梯面,,,91,91,52,53,190,,196,196,,63,,6,/,/
2026-01-16T1800,3445A,113.786,23.7479,广州市,从化良口,细颗粒物(PM2.5),75,68,50,55,43,172,,154,154,34,26,11,8,/,/
2026-01-16T1800,3446A,113.805,23.2614,广州市,增城荔城,臭氧1小时(O3_1h),69,53,70,36,49,175,,174,174,22,36,6,8,0.5,0.6
2026-01-16T1800,2506A,109.604387,23.066791,贵港市,江南子站,颗粒物(PM10),97,144,133,67,70,71,,69,69,27,46,14,9,0.9,1.1
2026-01-16T1800,2508A,109.5669,23.1065,贵港市,荷城子站,细颗粒物(PM2.5),83,100,99,61,62,62,,66,66,36,58,17,8,1.1,1
2026-01-16T1800,3405A,109.5886,23.1172,贵港市,新世纪学校,细颗粒物(PM2.5),83,105,101,61,64,71,,71,71,29,41,/,/,0.8,0.7
2026-01-16T1800,4260A,109.5933,23.095,贵港市,中山路155-3号,细颗粒物(PM2.5),85,104,102,63,65,69,,68,68,31,51,/,/,0.8,0.8
2026-01-16T1800,1439A,106.6863,26.6035,贵阳市,马鞍山,细颗粒物(PM2.5),122,102,67,92,60,83,,57,57,20,21,10,11,/,/
2026-01-16T1800,1441A,106.6241,26.6266,贵阳市,鉴湖路,,,,74,,50,80,,80,67,23,22,6,11,0.7,0.7
2026-01-16T1800,1442A,106.7468,26.6344,贵阳市,燕子冲,细颗粒物(PM2.5),119,95,71,90,64,77,,65,65,23,24,10,13,0.7,0.7
2026-01-16T1800,1443A,106.6556,26.4362,贵阳市,碧云窝,细颗粒物(PM2.5),104,102,80,78,57,84,,79,67,19,22,15,15,/,/
2026-01-16T1800,1445A,106.6963,26.6063,贵阳市,红边门,细颗粒物(PM2.5),110,107,78,83,62,82,,68,58,20,30,12,18,/,/
2026-01-16T1800,1446A,106.7162383,26.56964667,贵阳市,新华路,细颗粒物(PM2.5),110,117,85,83,59,73,,58,50,27,34,11,15,0.7,0.9
2026-01-16T1800,1447A,106.6742,26.542,贵阳市,太慈桥,细颗粒物(PM2.5),107,100,72,80,56,74,,60,56,23,31,7,8,/,/
2026-01-16T1800,4230A,106.688212,26.56952,贵阳市,花果园大街66号,细颗粒物(PM2.5),129,100,68,98,71,71,,65,51,27,31,6,10,/,/
2026-01-16T1800,4231A,106.687268,26.516892,贵阳市,漓江路57号,细颗粒物(PM2.5),107,90,75,80,59,79,,68,59,24,35,10,17,0.6,1
2026-01-16T1800,1864A,110.3091,25.2705,桂林市,龙隐路小学,细颗粒物(PM2.5),113,,113,85,89,54,,57,57,37,40,10,13,0.8,1.1
2026-01-16T1800,1865A,110.2849361,25.22909545,桂林市,八中,细颗粒物(PM2.5),107,100,114,80,92,59,,51,51,45,48,10,12,0.9,1
2026-01-16T1800,3531A,110.296,25.1254,桂林市,旅游学院,细颗粒物(PM2.5),98,88,93,73,78,82,,63,63,21,39,7,7,0.5,0.5
2026-01-16T1800,4222A,110.1835,25.2444,桂林市,环湖路276号,细颗粒物(PM2.5),170,144,123,129,99,61,,37,37,33,54,99,20,0.9,0.8
2026-01-16T1800,4301A,110.2803,25.2773,桂林市,信义路13号,细颗粒物(PM2.5),105,110,111,79,90,52,,54,54,50,49,10,13,1.4,1.4
2026-01-16T1800,2674A,100.2262,34.4854,果洛藏族自治州,玛沁县大武镇,,32,32,39,10,12,96,,81,81,2,8,10,16,0.2,0.4
2026-01-16T1800,1130A,126.5557,45.8109,哈尔滨市,松北商大,细颗粒物(PM2.5),54,49,60,38,46,40,,49,49,29,31,8,8,0.6,0.7
2026-01-16T1800,1132A,126.6162,45.719,哈尔滨市,南岗学府路,细颗粒物(PM2.5),79,66,70,58,55,33,,22,,29,29,10,15,1.0,1
2026-01-16T1800,1133A,126.6894,45.7733,哈尔滨市,太平宏伟公园,细颗粒物(PM2.5),65,,52,47,38,44,,46,46,26,27,16,27,0.7,0.8
2026-01-16T1800,1134A,126.6361,45.7672,哈尔滨市,道外承德广场,细颗粒物(PM2.5),73,77,68,53,41,28,,42,41,46,31,14,18,0.7,0.6
2026-01-16T1800,1136A,126.644,45.7261,哈尔滨市,动力和平路,细颗粒物(PM2.5),72,55,65,52,51,35,,40,40,30,33,15,23,0.7,0.7
2026-01-16T1800,1137A,126.5933,45.7479,哈尔滨市,道里建国路,细颗粒物(PM2.5),82,,58,60,53,28,,36,36,40,33,15,18,0.7,0.6
2026-01-16T1800,1138A,126.6127,45.6119,哈尔滨市,平房东轻厂,细颗粒物(PM2.5),84,63,77,62,65,18,,39,39,52,47,4,7,0.9,1.2
2026-01-16T1800,1139A,126.5875,45.9827,哈尔滨市,呼兰师专,细颗粒物(PM2.5),74,,75,54,75,35,,43,43,28,29,10,9,0.7,0.9
2026-01-16T1800,1140A,126.6299,45.6799,哈尔滨市,省农科院,细颗粒物(PM2.5),98,78,82,73,66,17,,39,38,58,43,16,16,0.8,0.9
2026-01-16T1800,4282A,126.6769,45.7379,哈尔滨市,华山路1号,细颗粒物(PM2.5),79,68,52,58,40,34,,37,37,35,34,17,26,0.8,0.8
2026-01-16T1800,4283A,126.9717,45.5356,哈尔滨市,解放大街52号,细颗粒物(PM2.5),206,,103,156,98,42,,46,46,42,36,18,16,1.5,1.3
2026-01-16T1800,2688A,93.5124,42.8176,哈密市,地区监测站,颗粒物(PM10),73,95,136,33,55,51,,49,49,17,23,3,2,0.0,0.4
2026-01-16T1800,2689A,93.5014,42.8312,哈密市,哈密师范学校,颗粒物(PM10),72,93,134,24,40,55,,49,49,18,33,2,2,0.3,0.6
2026-01-16T1800,2671A,100.9016,36.9464,海北藏族自治州,海晏县西海镇,,29,20,29,11,13,92,,84,84,2,3,4,8,0.3,0.4
2026-01-16T1800,3867A,102.074,36.5056,海东市,平安区公安局北苑,颗粒物(PM10),53,56,85,8,30,76,,58,58,12,23,7,18,0.5,1
2026-01-16T1800,4163A,102.0984,36.5119,海东市,滨河路,颗粒物(PM10),62,73,96,13,32,89,,76,76,15,36,4,19,0.4,1
2026-01-16T1800,1410A,110.3189,20.0596,海口市,海南大学,,,,39,,22,131,,136,136,,10,6,6,0.2,0.3
2026-01-16T1800,1411A,110.2827,20.0051,海口市,秀英海南医院,,41,41,40,18,22,119,,118,118,10,16,8,7,0.3,0.4
2026-01-16T1800,1412A,110.3391,19.9979,海口市,海南师范大学,,38,38,38,20,22,121,,122,122,10,12,6,6,0.6,0.6
2026-01-16T1800,1413A,110.3303,20.0359,海口市,龙华路环保局宿舍,,47,47,38,20,22,122,,124,124,8,11,/,/,0.7,0.7
2026-01-16T1800,3539A,110.5111,19.9737,海口市,桂林洋子站,,36,29,36,18,21,115,,112,112,9,11,/,/,/,/
2026-01-16T1800,4134A,110.1952,20.0451,海口市,长滨二路9号,,37,21,39,15,25,116,,121,121,8,13,/,/,/,/
2026-01-16T1800,2673A,100.6158,36.2985,海南藏族自治州,共和县恰卜恰镇,,47,47,46,14,17,102,,83,83,1,21,10,12,0.3,0.5
2026-01-16T1800,2676A,97.373,37.376,海西蒙古族藏族自治州,德令哈市,,42,42,42,6,13,99,,92,92,8,8,8,10,0.6,0.6
2026-01-16T1800,1049A,114.492,36.5712,邯郸市,矿院,细颗粒物(PM2.5),92,87,141,68,104,64,,56,56,19,46,2,3,0.6,0.9
2026-01-16T1800,1050A,114.4839,36.6136,邯郸市,丛台公园,细颗粒物(PM2.5),85,110,152,63,99,64,,57,57,19,43,3,5,0.6,0.9
2026-01-16T1800,3458A,114.7893,36.5592,邯郸市,香泉濮院小区,细颗粒物(PM2.5),80,107,152,59,100,58,,57,57,20,36,2,4,0.5,0.9
2026-01-16T1800,3580A,114.1998,36.4439,邯郸市,峰峰矿区临水派出所,细颗粒物(PM2.5),113,94,121,85,102,62,,66,66,20,34,5,11,0.8,1
2026-01-16T1800,4068A,114.5209,36.7697,邯郸市,建安街268号,细颗粒物(PM2.5),92,95,151,68,114,45,,48,48,26,42,2,5,0.5,0.8
2026-01-16T1800,4069A,114.5488,36.6177,邯郸市,丛台东路558号,细颗粒物(PM2.5),103,91,144,77,107,63,,59,59,15,38,1,4,0.6,0.9
2026-01-16T1800,2635A,107.0155,33.0707,汉中市,市监测站,细颗粒物(PM2.5),79,97,123,58,96,77,,52,52,29,48,8,7,0.8,1.4
2026-01-16T1800,2636A,107.0083,33.114,汉中市,鑫源开发区,细颗粒物(PM2.5),84,91,100,62,74,79,,55,55,30,52,8,11,0.6,1
2026-01-16T1800,2637A,107.0072,33.0323,汉中市,南郑大河坎水厂,细颗粒物(PM2.5),79,100,127,58,89,70,,50,50,34,40,8,7,0.9,1.1
2026-01-16T1800,1223A,120.2073,30.2111,杭州市,滨江,细颗粒物(PM2.5),149,156,124,114,84,80,,70,70,101,90,10,8,0.7,0.8
2026-01-16T1800,1224A,120.0625,30.2737,杭州市,西溪,细颗粒物(PM2.5),103,121,78,77,54,52,,85,85,84,42,9,9,1.0,1.1
2026-01-16T1800,1226A,120.3417,30.315,杭州市,下沙,细颗粒物(PM2.5),123,132,142,93,98,82,,84,84,91,110,13,12,0.9,0.9
2026-01-16T1800,1227A,120.1252,30.2465,杭州市,卧龙桥,细颗粒物(PM2.5),77,83,83,56,59,48,,81,81,71,55,9,9,0.5,0.5
2026-01-16T1800,1228A,120.1902,30.2691,杭州市,浙江农大,细颗粒物(PM2.5),158,160,150,120,103,44,,70,70,130,97,8,8,0.9,1.1
2026-01-16T1800,1230A,120.1195,30.3121,杭州市,和睦小学,细颗粒物(PM2.5),117,152,122,88,72,68,,84,84,97,77,8,7,1.0,1.1
2026-01-16T1800,1231A,120.3076,30.4146,杭州市,临平镇,细颗粒物(PM2.5),113,127,142,85,97,104,,89,89,62,89,12,10,0.6,0.8
2026-01-16T1800,1232A,120.2753,30.1839,杭州市,城厢镇,细颗粒物(PM2.5),124,148,121,94,81,65,,68,68,115,99,,10,1.0,1.1
2026-01-16T1800,1233A,120.0883,30.1808,杭州市,云栖,细颗粒物(PM2.5),73,88,102,53,64,67,,84,84,69,51,4,4,0.6,0.7
2026-01-16T1800,3557A,119.9463,30.0496,杭州市,镇二中,细颗粒物(PM2.5),79,84,87,58,66,76,,92,92,77,63,7,7,1.0,1
2026-01-16T1800,3558A,119.7184,30.2367,杭州市,市府大楼,细颗粒物(PM2.5),95,126,112,71,69,88,,99,99,58,43,12,12,0.9,1
2026-01-16T1800,3656A,120.1554,30.2863,杭州市,消防大队,细颗粒物(PM2.5),153,154,115,117,84,75,,79,79,96,82,11,8,1.0,1.1
2026-01-16T1800,1270A,117.1957,31.7845,合肥市,明珠广场,,,53,100,34,55,95,,84,84,,82,8,9,,0.6
2026-01-16T1800,1271A,117.307,31.8765,合肥市,三里街,颗粒物(PM10),54,58,100,34,62,98,,93,93,36,76,6,9,0.6,0.9
2026-01-16T1800,1272A,117.2587,31.8703,合肥市,琥珀山庄,颗粒物(PM10),64,78,96,42,57,86,,93,93,38,70,9,10,0.8,0.9
2026-01-16T1800,1275A,117.2593,31.9376,合肥市,庐阳区,颗粒物(PM10),54,58,111,34,55,111,,102,102,30,81,6,9,0.6,0.8
2026-01-16T1800,1276A,117.345251,31.861615,合肥市,瑶海区,颗粒物(PM10),59,68,102,39,57,97,,94,94,44,73,7,10,0.5,0.7
2026-01-16T1800,1277A,117.3033,31.7967,合肥市,包河区,颗粒物(PM10),57,63,106,39,67,48,,84,84,90,102,8,16,0.8,1
2026-01-16T1800,1278A,117.278,31.7392,合肥市,滨湖新区,细颗粒物(PM2.5),77,80,97,56,66,86,,90,90,47,42,6,9,0.7,0.7
2026-01-16T1800,1279A,117.1324,31.8395,合肥市,高新区,颗粒物(PM10),51,51,85,25,47,109,,99,99,27,52,6,8,0.6,0.7
2026-01-16T1800,3464A,117.3802,31.9148,合肥市,高教基地,"颗粒物(PM10),细颗粒物(PM2.5)",58,66,103,41,63,92,,97,97,34,62,10,11,0.6,0.8
2026-01-16T1800,4098A,117.2518,31.8404,合肥市,中国科学技术大学,颗粒物(PM10),53,56,95,31,56,110,,99,99,27,67,9,11,0.7,0.9
2026-01-16T1800,3614A,79.9241,37.0878,和田地区,地区环保局,颗粒物(PM10),170,290,199,32,29,79,,64,64,6,16,2,4,0.1,0.3
2026-01-16T1800,3615A,79.9132,37.1137,和田地区,市环保局,颗粒物(PM10),136,221,178,45,40,76,,61,61,,48,3,6,0.1,1.1
2026-01-16T1800,2517A,108.0496,24.6957,河池市,市环保站,细颗粒物(PM2.5),92,103,110,68,83,75,,55,55,23,40,4,4,0.9,1
2026-01-16T1800,4302A,108.0901,24.6945,河池市,上任中路54号,细颗粒物(PM2.5),97,91,125,72,91,72,,45,45,25,45,6,7,0.9,1.1
2026-01-16T1800,1697A,114.6962,23.7538,河源市,东埔,颗粒物(PM10),53,55,55,34,35,133,,94,94,26,50,6,5,1.1,1.2
2026-01-16T1800,1698A,114.6895,23.7232,河源市,老城,细颗粒物(PM2.5),84,,52,62,29,137,,139,139,18,30,7,7,0.6,0.6
2026-01-16T1800,3374A,115.5562,35.089,菏泽市,定陶老年大学,颗粒物(PM10),104,158,152,73,74,55,,47,40,18,27,2,3,0.5,0.5
2026-01-16T1800,4114A,115.4239,35.2593,菏泽市,黄河路600号,颗粒物(PM10),102,153,157,72,80,53,,56,42,26,29,4,4,0.6,0.6
2026-01-16T1800,4115A,115.5025,35.2727,菏泽市,菏泽市人社局,颗粒物(PM10),100,149,144,70,72,48,,55,35,15,18,3,4,0.3,0.3
2026-01-16T1800,4184A,115.479691,35.244011,菏泽市,永昌路1号,细颗粒物(PM2.5),108,158,153,81,77,55,,62,42,21,24,4,4,0.3,0.3
2026-01-16T1800,4193A,115.471542,35.280012,菏泽市,长城路999号,颗粒物(PM10),104,158,154,70,72,55,,62,40,21,25,11,9,0.7,0.7
2026-01-16T1800,2514A,111.5264,24.4178,贺州市,环保小区,细颗粒物(PM2.5),120,141,101,91,68,18,,38,21,66,45,16,11,1.1,1
2026-01-16T1800,2515A,111.561,24.4074,贺州市,政协大楼,细颗粒物(PM2.5),115,123,94,87,61,28,,66,31,55,39,38,21,1.0,1.1
2026-01-16T1800,3534A,111.4744,24.455,贺州市,西湾,细颗粒物(PM2.5),95,99,84,71,62,39,,36,36,53,49,9,9,0.8,0.8
2026-01-16T1800,2385A,114.17,35.9019,鹤壁市,市监测站,细颗粒物(PM2.5),114,123,150,86,97,56,,52,52,30,48,4,8,0.7,0.9
2026-01-16T1800,2386A,114.2953,35.7512,鹤壁市,市交警支队,细颗粒物(PM2.5),123,138,170,93,96,51,,46,46,25,47,3,5,0.7,0.9
2026-01-16T1800,2387A,114.2877,35.7302,鹤壁市,迎宾馆,细颗粒物(PM2.5),107,141,173,80,96,58,,53,53,26,54,2,7,0.9,1.1
2026-01-16T1800,3474A,114.2616,35.6824,鹤壁市,大新区,细颗粒物(PM2.5),92,125,167,68,101,59,,54,54,27,55,4,7,0.9,1.1
2026-01-16T1800,3596A,114.1573,35.9607,鹤壁市,南山宾馆,,,,172,,93,60,,57,57,22,38,4,11,,1.1
2026-01-16T1800,2244A,130.2537,47.3416,鹤岗市,哈啤分公司,,35,26,25,24,18,68,,71,71,6,5,7,6,0.4,0.4
2026-01-16T1800,2245A,130.2683,47.3087,鹤岗市,斯达机电,,28,22,28,19,21,60,,63,63,9,8,5,6,0.4,0.4
2026-01-16T1800,2246A,130.3114,47.3388,鹤岗市,东山纸板厂,,30,24,20,21,19,64,,66,66,6,10,7,8,0.4,0.7
2026-01-16T1800,2263A,127.4832,50.2524,黑河市,交通局,,23,23,12,14,12,52,,60,57,17,9,8,5,0.2,0.2
2026-01-16T1800,2264A,127.5146,50.2339,黑河市,环保局,,42,,14,29,14,31,,58,54,39,11,13,5,0.7,0.3
2026-01-16T1800,1074A,115.6839,37.754,衡水市,电机北厂,细颗粒物(PM2.5),87,101,154,64,87,58,,56,56,24,36,6,7,0.6,0.8
2026-01-16T1800,1075A,115.6303,37.7318,衡水市,市监测站,细颗粒物(PM2.5),72,85,141,52,82,65,,58,58,23,38,7,6,0.6,0.9
2026-01-16T1800,3188A,115.6684,37.7216,衡水市,市城管局,细颗粒物(PM2.5),82,109,152,60,83,63,,59,59,24,38,7,7,0.7,0.9
2026-01-16T1800,3459A,115.599,37.5491,衡水市,地表水厂,,,,138,,84,62,,60,60,,37,,6,0.4,0.7
2026-01-16T1800,2457A,112.6209,26.9268,衡阳市,衡阳化工总厂,细颗粒物(PM2.5),119,130,127,90,100,68,,53,53,38,56,25,19,1.3,1.3
2026-01-16T1800,2458A,112.621,26.8957,衡阳市,珠晖区环保局,细颗粒物(PM2.5),150,158,138,115,114,50,,40,40,61,72,23,14,1.5,1.7
2026-01-16T1800,2459A,112.628,26.8654,衡阳市,市委党校,细颗粒物(PM2.5),138,129,120,105,101,60,,45,45,52,54,26,15,1.5,1.5
2026-01-16T1800,2460A,112.6007,26.8977,衡阳市,市监测站,细颗粒物(PM2.5),124,168,170,94,108,40,,46,46,64,60,21,14,1.5,2.2
2026-01-16T1800,2461A,112.5658,26.9013,衡阳市,真空机电公司,细颗粒物(PM2.5),118,119,140,89,108,55,,33,33,43,72,20,15,1.5,1.9
2026-01-16T1800,3399A,112.6703,26.8817,衡阳市,师范学院,细颗粒物(PM2.5),115,118,132,87,93,72,,54,54,38,44,22,9,1.3,1.3
2026-01-16T1800,3038A,103.3757,23.3679,红河哈尼族彝族自治州,州图书馆,,,24,36,19,32,83,,84,84,6,12,6,8,,0.7
2026-01-16T1800,4154A,103.401,23.3561,红河哈尼族彝族自治州,蒙自市朝阳路,,29,26,36,20,29,77,,81,81,5,14,6,7,0.5,0.6
2026-01-16T1800,1090A,111.6506,40.7517,呼和浩特市,呼市一监,,31,31,46,16,14,55,,61,61,17,10,7,8,0.3,0.3
2026-01-16T1800,1094A,111.7516,40.8369,呼和浩特市,如意水处理厂,,30,30,46,13,14,58,,65,65,20,14,9,9,0.4,0.3
2026-01-16T1800,1095A,111.727798,40.806187,呼和浩特市,二十九中,,27,27,45,13,14,58,,64,64,17,13,11,11,0.4,0.4
2026-01-16T1800,1097A,111.717,40.7617,呼和浩特市,化肥厂生活区,,30,30,50,14,16,60,,63,63,18,15,6,6,0.3,0.3
2026-01-16T1800,3699A,111.6519,40.8389,呼和浩特市,海东办,,39,39,37,16,15,55,,65,62,19,12,7,6,0.5,0.4
2026-01-16T1800,4275A,111.591512,40.827312,呼和浩特市,成吉思汗西街8号,颗粒物(PM10),53,56,50,21,14,45,,54,53,25,13,20,10,0.4,0.3
2026-01-16T1800,4276A,111.6597,40.8077,呼和浩特市,公园东路75号,,31,31,42,14,15,56,,56,56,19,17,6,7,0.3,0.3
2026-01-16T1800,4277A,111.5427,40.7846,呼和浩特市,金海路35号,颗粒物(PM10),51,52,51,32,16,52,,55,55,23,16,35,15,0.6,0.5
2026-01-16T1800,3061A,119.7511,49.1576,呼伦贝尔市,国华电力东,,36,30,30,25,24,57,,58,58,20,21,3,4,0.4,0.5
2026-01-16T1800,4279A,119.7569,49.2222,呼伦贝尔市,伊敏大街东7号,,43,32,30,30,25,54,,57,57,12,18,10,8,0.1,0.3
2026-01-16T1800,1250A,120.075,30.867,湖州市,城西水厂,细颗粒物(PM2.5),120,111,135,91,102,84,,104,104,70,83,8,10,0.8,0.8
2026-01-16T1800,2873A,120.083,30.8929,湖州市,仁皇山新区,细颗粒物(PM2.5),119,114,126,90,95,97,,112,112,80,85,8,9,0.9,0.9
2026-01-16T1800,2907A,120.1846,30.8592,湖州市,吴兴区站,细颗粒物(PM2.5),112,109,162,84,96,129,,121,121,53,96,9,12,0.1,0.4
2026-01-16T1800,3562A,120.4146,30.8538,湖州市,南浔区站,细颗粒物(PM2.5),87,82,142,64,103,127,,114,114,36,66,10,11,0.9,1.1
2026-01-16T1800,1607A,120.904878,40.721091,葫芦岛市,龙港区,,38,38,45,15,21,62,,67,67,15,17,9,20,0.4,0.7
2026-01-16T1800,1608A,120.8382,40.7521,葫芦岛市,化工街,,44,44,41,12,21,56,,60,60,14,17,9,17,0.4,0.5
2026-01-16T1800,1609A,120.8339,40.7078,葫芦岛市,新区,,32,32,35,13,20,57,,63,63,18,17,10,13,0.4,0.5
2026-01-16T1800,1610A,120.8697,40.7679,葫芦岛市,东城区,,29,29,35,17,21,58,,65,65,19,19,13,15,0.5,0.6
2026-01-16T1800,2483A,109.9297,27.5383,怀化市,河西地税局,细颗粒物(PM2.5),133,133,108,101,93,51,,49,49,52,31,8,5,/,/
2026-01-16T1800,2484A,109.9783,27.5342,怀化市,市四医院,细颗粒物(PM2.5),147,145,141,112,106,47,,43,43,38,39,9,7,1.0,1.1
2026-01-16T1800,2485A,109.9971,27.5579,怀化市,监测楼,细颗粒物(PM2.5),145,140,135,111,118,46,,48,48,39,30,14,6,0.6,0.9
2026-01-16T1800,1210A,119.0566,33.5991,淮安市,钵池山,细颗粒物(PM2.5),222,207,202,172,169,106,,103,103,64,58,11,12,1.1,1.2
2026-01-16T1800,1211A,119.0083,33.578,淮安市,北京南路,细颗粒物(PM2.5),227,210,208,177,175,101,,98,98,57,61,12,13,1.3,1.3
2026-01-16T1800,1212A,118.9938,33.6083,淮安市,市监测站,颗粒物(PM10),125,200,196,,162,104,,98,98,63,54,14,16,1.2,1.5
2026-01-16T1800,1213A,119.135,33.5038,淮安市,楚州区监测站,细颗粒物(PM2.5),232,237,208,182,177,107,,107,107,53,57,12,12,1.4,1.3
2026-01-16T1800,3426A,118.8757,33.2897,淮安市,新华书店,细颗粒物(PM2.5),186,170,203,140,167,95,,100,100,59,61,12,12,1.0,1
2026-01-16T1800,4092A,119.119691,33.550006,淮安市,枚皋中路89号,细颗粒物(PM2.5),232,203,229,182,186,123,,116,116,42,47,14,14,1.8,1.6
2026-01-16T1800,4206A,119.028838,33.631911,淮安市,承德北路606号,细颗粒物(PM2.5),232,239,238,182,174,97,,99,99,72,66,12,13,1.2,1.4
2026-01-16T1800,2282A,116.8005,33.9749,淮北市,监测站,细颗粒物(PM2.5),192,250,158,144,91,48,,86,85,40,43,6,12,1.1,0.8
2026-01-16T1800,2283A,116.8094,33.9008,淮北市,烈山区政府,细颗粒物(PM2.5),190,226,160,143,89,51,,86,86,42,34,6,11,0.9,0.6
2026-01-16T1800,4017A,116.7926,33.9534,淮北市,市博物馆,细颗粒物(PM2.5),196,272,171,147,87,50,,87,86,42,39,4,8,1.3,0.9
2026-01-16T1800,4100A,116.8322,33.9884,淮北市,杜集区第一实验学校,细颗粒物(PM2.5),198,269,172,148,86,48,,91,90,41,32,8,12,1.2,0.8
2026-01-16T1800,2277A,116.8304,32.7726,淮南市,潘集区政府,细颗粒物(PM2.5),94,116,150,70,83,98,,99,99,25,41,8,13,0.8,0.8
2026-01-16T1800,2279A,116.8569,32.5949,淮南市,谢家集区政府,细颗粒物(PM2.5),73,79,118,53,60,104,,100,100,28,40,11,13,0.7,0.7
2026-01-16T1800,2280A,116.8279,32.6333,淮南市,八公山区政府,细颗粒物(PM2.5),80,102,112,59,60,89,,105,105,29,27,9,9,0.6,0.6
2026-01-16T1800,2894A,117.0561,32.6536,淮南市,经济技术开发区消防队,细颗粒物(PM2.5),68,79,124,49,70,81,,98,98,40,45,9,10,0.8,0.8
2026-01-16T1800,3329A,117.011,32.5891,淮南市,山南新区,细颗粒物(PM2.5),75,96,131,55,61,110,,107,107,29,32,6,7,0.7,0.7
2026-01-16T1800,4209A,117.003137,32.644456,淮南市,国庆中路369号,"颗粒物(PM10),细颗粒物(PM2.5)",69,88,103,50,64,84,,91,91,35,34,13,14,0.8,0.9
2026-01-16T1800,2446A,114.9021,30.474,黄冈市,职工中心,细颗粒物(PM2.5),88,92,95,65,75,92,,111,111,54,30,10,11,1.2,1.1
2026-01-16T1800,2929A,114.8858,30.4519,黄冈市,红卫路,细颗粒物(PM2.5),90,80,96,67,79,100,,106,106,35,32,12,12,0.7,0.6
2026-01-16T1800,3398A,114.9134,30.4446,黄冈市,市林业局,细颗粒物(PM2.5),85,98,104,63,81,102,,105,105,52,43,9,7,1.0,0.9
2026-01-16T1800,2672A,102.02,35.5101,黄南藏族自治州,同仁县隆务镇,,41,41,37,13,13,78,,71,71,3,4,11,11,0.4,0.4
2026-01-16T1800,2295A,118.2905,29.6965,黄山市,延安路89号,颗粒物(PM10),53,55,45,34,30,100,,105,105,28,21,6,4,0.7,0.6
2026-01-16T1800,2297A,118.1369,30.2755,黄山市,黄山区政府5号楼,颗粒物(PM10),51,52,68,33,49,76,,98,98,22,14,3,3,0.7,0.7
2026-01-16T1800,4210A,118.335445,29.720283,黄山市,滨江东路7-2号,细颗粒物(PM2.5),75,96,69,55,46,57,,82,82,53,26,/,/,/,/
2026-01-16T1800,2423A,115.0547,30.2332,黄石市,沈家营,细颗粒物(PM2.5),107,142,140,80,92,74,,72,72,59,64,7,7,1.4,1.5
2026-01-16T1800,2426A,114.899,30.211,黄石市,铁山,细颗粒物(PM2.5),139,116,96,106,90,79,,114,109,55,33,12,14,0.5,0.5
2026-01-16T1800,2427A,115.0259,30.2108,黄石市,团城山,细颗粒物(PM2.5),135,176,123,103,96,66,,74,74,75,54,9,9,1.1,1.2
2026-01-16T1800,3149A,115.0174,30.1591,黄石市,笔架山北路,细颗粒物(PM2.5),133,164,153,101,94,82,,100,100,34,31,18,16,1.2,1.3
2026-01-16T1800,4185A,115.078022,30.21118,黄石市,磁湖东路29号,细颗粒物(PM2.5),152,146,148,116,113,29,,59,54,110,77,11,11,1.7,1.7
2026-01-16T1800,1392A,114.4181,23.0528,惠州市,河南岸金山湖子站,,,52,65,33,37,99,,119,119,57,37,,5,0.7,0.7
2026-01-16T1800,1393A,114.4055,23.0824,惠州市,下埔横江三路子站,,45,45,73,23,42,115,,136,136,28,42,6,10,0.7,0.8
2026-01-16T1800,1395A,114.4645,22.7832,惠州市,惠阳区承修路船湖子站,,45,43,65,20,37,143,,154,154,26,43,8,9,0.5,0.7
2026-01-16T1800,1396A,114.5316,22.7423,惠州市,大亚湾管委会子站,,47,47,63,23,34,146,,137,137,22,56,6,7,0.6,0.7
2026-01-16T1800,3314A,114.4334,22.8134,惠州市,惠阳秋长,颗粒物(PM10),52,53,75,29,39,159,,177,177,33,44,/,/,/,/
2026-01-16T1800,3452A,114.6521,22.7755,惠州市,大亚湾霞涌,,50,50,47,23,29,150,,136,136,33,32,/,/,/,/
2026-01-16T1800,4300A,114.4089,23.1147,惠州市,文华一路1号,,40,35,75,19,45,127,,144,144,28,51,/,/,/,/
2026-01-16T1800,2240A,130.9618,45.2926,鸡西市,环保局,,22,22,32,14,22,42,,56,54,19,12,7,7,0.4,0.3
2026-01-16T1800,2243A,130.9294,45.2959,鸡西市,第一中学,,25,22,28,17,23,48,,56,56,14,12,5,5,0.5,0.5
2026-01-16T1800,3707A,131.0069,45.2988,鸡西市,欧美日汽修厂,,28,27,39,19,31,51,,60,59,17,18,7,10,0.4,0.4
2026-01-16T1800,2367A,114.9753,27.0803,吉安市,红声器材厂,细颗粒物(PM2.5),65,75,80,47,49,108,,102,102,38,43,10,11,0.8,0.9
2026-01-16T1800,2369A,114.9903,27.1313,吉安市,市环境监测站,细颗粒物(PM2.5),64,66,69,46,48,108,,110,110,36,38,12,14,/,/
2026-01-16T1800,2370A,115.009527,27.096792,吉安市,青原区法院,,,91,86,57,53,97,,98,98,,53,12,13,0.7,1
2026-01-16T1800,1772A,126.54,43.8622,吉林市,哈达湾,,,60,63,,47,40,,51,51,35,26,10,10,,1.2
2026-01-16T1800,1773A,126.5843,43.8358,吉林市,东局子,,48,47,63,33,53,43,,36,36,28,29,12,7,1.0,1.1
2026-01-16T1800,1774A,126.5051,43.8243,吉林市,电力学院,细颗粒物(PM2.5),182,168,74,137,60,32,,51,51,53,31,20,15,1.5,1
2026-01-16T1800,1775A,126.6133,43.8971,吉林市,江北,细颗粒物(PM2.5),168,162,109,127,73,21,,34,34,55,32,20,12,1.8,1.3
2026-01-16T1800,1776A,126.5549,43.8304,吉林市,江南公园,细颗粒物(PM2.5),60,43,60,43,52,46,,47,47,26,30,10,14,0.7,0.9
2026-01-16T1800,2868A,126.4737,43.953,吉林市,九站,细颗粒物(PM2.5),64,57,68,46,56,33,,53,53,47,40,12,8,0.8,0.9
2026-01-16T1800,1299A,116.9866,36.6118,济南市,科干所,颗粒物(PM10),81,112,142,56,61,47,,61,34,25,26,4,6,0.6,0.6
2026-01-16T1800,1300A,116.9379,36.6652,济南市,农科所,颗粒物(PM10),80,110,158,44,60,43,,43,36,34,35,6,7,0.7,0.8
2026-01-16T1800,1301A,117.1265,36.6736,济南市,开发区,颗粒物(PM10),79,107,141,56,66,46,,47,32,29,33,2,4,0.7,0.8
2026-01-16T1800,1303A,117.0616,36.6865,济南市,省种子仓库,,,,154,,66,48,,47,40,26,29,4,5,0.7,0.8
2026-01-16T1800,1304A,116.9495185,36.644937,济南市,机床二厂,细颗粒物(PM2.5),85,112,159,63,78,40,,51,34,32,31,4,8,0.5,0.6
2026-01-16T1800,1305A,117.0496,36.6629,济南市,市监测站,颗粒物(PM10),83,115,145,59,75,47,,54,37,25,27,3,5,0.6,0.7
2026-01-16T1800,1306A,116.7674,36.5458,济南市,长清党校,颗粒物(PM10),79,107,165,44,69,45,,57,35,27,31,4,7,0.6,0.8
2026-01-16T1800,1961A,117.5323,36.6865,济南市,东山小学,颗粒物(PM10),81,112,197,51,89,58,,58,36,23,30,2,6,0.4,0.6
2026-01-16T1800,3059A,117.7181,36.205,济南市,泰兴公司,细颗粒物(PM2.5),110,132,206,83,113,56,,42,42,28,63,4,12,0.8,1.3
2026-01-16T1800,3064A,117.6861,36.2172,济南市,莱芜战役纪念馆,细颗粒物(PM2.5),100,122,198,75,109,53,,40,40,30,56,4,12,0.6,1
2026-01-16T1800,3494A,117.1673,36.9782,济南市,济阳区政府,,,90,169,44,75,50,,50,50,,44,4,9,0.6,0.8
2026-01-16T1800,3495A,117.1168,36.6299,济南市,锦屏中学,"颗粒物(PM10),细颗粒物(PM2.5)",74,98,134,54,58,50,,61,35,25,27,3,3,0.8,0.8
2026-01-16T1800,4108A,117.7107,36.2385,济南市,山财大街5号,细颗粒物(PM2.5),89,107,189,66,98,52,,41,39,31,63,8,17,0.7,1.2
2026-01-16T1800,4109A,116.9744,36.6889,济南市,无影山路12号,颗粒物(PM10),74,97,151,50,77,48,,42,42,19,25,3,7,0.7,0.8
2026-01-16T1800,1653A,116.6229,35.4288,济宁市,火炬城,细颗粒物(PM2.5),140,164,183,107,112,57,,45,43,31,37,3,6,0.9,0.8
2026-01-16T1800,3500A,116.5808,35.3703,济宁市,北湖一中,细颗粒物(PM2.5),149,152,170,114,103,47,,49,40,30,34,5,11,0.9,0.8
2026-01-16T1800,3501A,116.8251,35.5592,济宁市,服务中心,颗粒物(PM10),126,202,193,86,101,45,,39,39,35,50,9,13,0.9,1
2026-01-16T1800,3678A,116.5907,35.4054,济宁市,市第七中学,细颗粒物(PM2.5),134,150,181,102,95,52,,45,45,32,41,7,11,1.0,1
2026-01-16T1800,4111A,116.6075,35.4566,济宁市,任和路,细颗粒物(PM2.5),134,190,200,102,102,53,,48,42,30,36,4,8,0.9,0.9
2026-01-16T1800,4112A,116.5648,35.3921,济宁市,文体南路1号,细颗粒物(PM2.5),138,188,192,105,95,42,,52,40,29,34,3,8,0.8,0.8
2026-01-16T1800,2255A,130.2749,46.8028,佳木斯市,佳纺,"颗粒物(PM10),细颗粒物(PM2.5)",54,57,46,38,36,40,,52,50,22,20,8,8,0.6,0.6
2026-01-16T1800,2257A,130.3258,46.7975,佳木斯市,环保局,细颗粒物(PM2.5),52,40,29,36,29,48,,57,56,24,24,10,9,0.5,0.6
2026-01-16T1800,4285A,130.363,46.806,佳木斯市,顺和街,,43,38,28,30,22,37,,46,45,25,16,13,11,0.5,0.4
2026-01-16T1800,4286A,130.3952,46.8268,佳木斯市,长安路196号,,42,42,35,28,28,45,,53,53,20,21,7,7,0.6,0.6
2026-01-16T1800,1252A,120.7439,30.778,嘉兴市,清河小学,细颗粒物(PM2.5),117,116,149,88,109,138,,149,149,53,64,11,11,0.8,0.8
2026-01-16T1800,1253A,120.7261,30.7477,嘉兴市,嘉兴学院,细颗粒物(PM2.5),109,129,150,82,95,146,,143,143,58,65,10,10,1.0,0.9
2026-01-16T1800,2872A,120.7845,30.7524,嘉兴市,南湖区残联,细颗粒物(PM2.5),123,127,141,93,104,145,,171,171,63,61,10,11,1.0,1
2026-01-16T1800,3407A,120.6915,30.7741,嘉兴市,秀洲住建,细颗粒物(PM2.5),117,120,143,88,104,137,,142,142,59,82,12,12,0.9,0.9
2026-01-16T1800,1945A,98.291,39.7705,嘉峪关市,气象局,颗粒物(PM10),80,110,108,31,31,69,,62,62,20,22,15,14,0.5,0.6
2026-01-16T1800,2884A,98.2672,39.7978,嘉峪关市,酒钢宾馆,颗粒物(PM10),87,124,130,29,31,66,,59,59,21,25,17,14,0.9,0.8
2026-01-16T1800,3248A,98.2644,39.7723,嘉峪关市,雄关区,颗粒物(PM10),69,88,82,32,27,68,,61,61,24,32,18,15,0.6,0.6
2026-01-16T1800,1383A,113.1063,22.6058,江门市,北街,臭氧1小时(O3_1h),152,131,97,77,71,304,,244,244,60,47,/,/,/,/
2026-01-16T1800,1384A,113.073,22.5835,江门市,西区,臭氧1小时(O3_1h),149,163,112,79,65,298,,227,227,57,64,/,/,/,/
2026-01-16T1800,1385A,113.0218,22.531,江门市,圭峰西,臭氧1小时(O3_1h),114,105,87,50,67,228,,205,205,29,33,/,/,/,/
2026-01-16T1800,1386A,113.0826,22.5947,江门市,东湖,臭氧1小时(O3_1h),155,118,113,69,61,309,,244,244,53,55,12,11,0.9,0.9
2026-01-16T1800,3311A,113.1077,22.5647,江门市,江海富民,臭氧1小时(O3_1h),152,124,138,74,80,304,,265,265,54,61,/,/,0.7,0.8
2026-01-16T1800,3449A,113.0496,22.4669,江门市,新会银湖,臭氧1小时(O3_1h),79,80,91,42,83,183,,204,204,32,38,9,8,0.5,0.6
2026-01-16T1800,3335A,113.3137,35.2643,焦作市,马村街道办,颗粒物(PM10),100,149,141,72,65,65,,60,60,27,37,9,11,0.6,0.8
2026-01-16T1800,3336A,113.2464,35.2374,焦作市,焦作技师学院,,,144,141,63,64,68,,58,58,,43,,14,0.9,1
2026-01-16T1800,3477A,113.1656,35.2536,焦作市,中站许衡医院,细颗粒物(PM2.5),98,101,121,73,62,73,,70,70,26,33,7,9,0.7,0.8
2026-01-16T1800,3981A,113.2456,35.18,焦作市,原李万街道办,颗粒物(PM10),85,119,150,61,71,68,,58,58,22,41,6,14,0.6,0.8
2026-01-16T1800,4264A,113.234,35.219,焦作市,新安路1731号,颗粒物(PM10),100,149,148,56,73,66,,58,58,21,41,5,10,0.6,0.8
2026-01-16T1800,4295A,113.2722,35.2121,焦作市,人民路3066号,颗粒物(PM10),97,143,150,62,67,61,,54,54,28,49,5,11,0.7,1
2026-01-16T1800,1708A,116.3701,23.5345,揭阳市,新兴,颗粒物(PM10),54,57,76,30,48,106,,128,128,45,53,13,11,1.2,0.9
2026-01-16T1800,1709A,116.3261,23.5442,揭阳市,西马,颗粒物(PM10),61,71,79,26,43,117,,127,127,22,38,7,8,0.9,0.7
2026-01-16T1800,1710A,116.361,23.5627,揭阳市,东兴,,,62,78,27,40,103,,118,118,,47,10,13,/,/
2026-01-16T1800,1711A,116.4151,23.5295,揭阳市,渔湖,颗粒物(PM10),59,68,84,23,42,111,,126,126,30,48,8,7,/,/
2026-01-16T1800,3320A,116.4028,23.5699,揭阳市,曲溪,颗粒物(PM10),56,62,82,31,46,115,,136,136,41,50,23,7,0.6,1.2
2026-01-16T1800,1944A,102.1691,38.5166,金昌市,天庆家园,颗粒物(PM10),86,122,113,33,32,69,,70,70,19,19,101,42,0.8,0.7
2026-01-16T1800,4022A,102.1648,38.5369,金昌市,金川区人防中心,颗粒物(PM10),74,97,118,25,36,73,,73,73,17,16,7,21,0.8,0.8
2026-01-16T1800,4239A,102.193042,38.531887,金昌市,长春路96号,颗粒物(PM10),73,95,112,29,45,72,,69,69,13,16,9,81,0.9,0.7
2026-01-16T1800,1262A,119.6478,29.0773,金华市,十五中,细颗粒物(PM2.5),78,85,96,57,61,70,,106,106,89,69,5,5,1.1,0.9
2026-01-16T1800,1263A,119.6859,29.1032,金华市,监测站,颗粒物(PM10),59,67,98,39,58,74,,97,97,60,76,4,4,0.6,0.6
2026-01-16T1800,3659A,119.656,29.1132,金华市,气象局,颗粒物(PM10),62,74,100,38,58,79,,90,88,48,83,5,5,0.6,0.6
2026-01-16T1800,1767A,121.1114,41.0879,锦州市,南山,,23,23,28,14,19,67,,70,70,12,12,8,10,0.5,0.6
2026-01-16T1800,1768A,121.060361,40.842794,锦州市,开发区,,26,20,34,18,22,62,,66,66,15,14,9,8,0.3,0.5
2026-01-16T1800,1769A,121.1836,41.1118,锦州市,百股街道,,33,33,34,17,22,63,,66,66,14,14,7,8,0.5,0.6
2026-01-16T1800,1770A,121.1176,41.1224,锦州市,天安街道,,32,32,31,10,21,77,,75,75,10,14,9,11,0.5,0.7
2026-01-16T1800,1771A,121.1303,41.1385,锦州市,北湖公园,,28,27,34,19,20,68,,69,69,8,12,8,10,0.5,0.6
2026-01-16T1800,2160A,112.8496,35.5051,晋城市,自来水公司,颗粒物(PM10),118,185,103,51,40,70,,63,63,33,47,11,16,1.0,1.3
2026-01-16T1800,2162A,112.8509,35.4886,晋城市,市环保局,颗粒物(PM10),132,213,109,78,43,77,,71,71,32,51,9,13,1.1,1.4
2026-01-16T1800,3620A,112.8258,35.4804,晋城市,泽州一中,颗粒物(PM10),135,219,110,85,44,78,,73,73,29,35,8,9,0.9,1
2026-01-16T1800,4078A,112.8246,35.5152,晋城市,前书院路,颗粒物(PM10),127,204,108,82,41,69,,64,64,35,35,10,10,1.2,1
2026-01-16T1800,4079A,112.8864,35.4773,晋城市,祥云街666号,细颗粒物(PM2.5),140,188,104,107,50,74,,65,65,16,22,6,11,0.9,1.2
2026-01-16T1800,2174A,112.6992,37.6984,晋中市,榆次区政府,,,83,124,26,47,56,,61,60,34,51,,19,0.4,0.9
2026-01-16T1800,2865A,112.7195,37.683,晋中市,榆次三中,颗粒物(PM10),69,88,117,24,33,61,,60,60,25,44,11,15,0.5,0.7
2026-01-16T1800,4080A,112.7375,37.7215,晋中市,广安街188号,颗粒物(PM10),69,87,128,42,44,55,,63,63,32,51,13,19,0.3,0.6
2026-01-16T1800,4200A,112.7478,37.6954,晋中市,迎宾街26号,颗粒物(PM10),63,75,113,22,38,66,,63,63,21,36,10,16,0.5,0.7
2026-01-16T1800,2439A,112.2012,31.048,荆门市,竹园小学,细颗粒物(PM2.5),75,88,127,55,85,99,,100,100,24,33,3,4,0.9,1.3
2026-01-16T1800,2440A,112.1968,30.9892,荆门市,掇刀,细颗粒物(PM2.5),80,87,124,59,84,100,,104,104,22,29,10,8,0.3,0.6
2026-01-16T1800,3012A,112.1849,31.0361,荆门市,西山林语,"颗粒物(PM10),细颗粒物(PM2.5)",70,89,112,51,73,93,,93,93,23,26,12,10,0.4,0.6
2026-01-16T1800,3547A,112.1631,31.0134,荆门市,龙泉中学南校,,,,131,59,88,96,,102,102,,18,7,11,0.8,0.9
2026-01-16T1800,4124A,112.2213,31.0654,荆门市,新台西路6号,细颗粒物(PM2.5),104,114,152,78,120,91,,95,95,22,45,12,12,0.5,1.1
2026-01-16T1800,1844A,112.2493,30.3198,荆州市,市图书馆,细颗粒物(PM2.5),159,131,119,121,110,114,,89,89,33,42,11,11,1.1,1.1
2026-01-16T1800,1845A,112.2009,30.3543,荆州市,市委党校,细颗粒物(PM2.5),155,140,132,118,105,100,,77,77,35,46,6,6,1.0,1
2026-01-16T1800,3194A,112.2749,30.3124,荆州市,管委会,细颗粒物(PM2.5),149,124,117,114,108,89,,81,81,46,46,10,11,1.1,1
2026-01-16T1800,4268A,112.1722,30.3366,荆州市,学苑路85号,细颗粒物(PM2.5),140,136,130,107,109,119,,99,99,28,39,12,12,1.1,1
2026-01-16T1800,2343A,117.2114,29.2931,景德镇市,老干部活动中心,,,,72,,53,,,82,69,,38,,10,,0.9
2026-01-16T1800,2344A,117.1893,29.2789,景德镇市,兽医站,,,,78,,48,,,92,87,,40,,9,,1.0
2026-01-16T1800,2346A,117.246,29.2958,景德镇市,陶研所,细颗粒物(PM2.5),83,70,65,61,55,40,,69,69,42,37,5,5,0.7,0.7
2026-01-16T1800,4289A,117.154766,29.256967,景德镇市,青少年活动中心,细颗粒物(PM2.5),67,81,84,48,53,27,,64,64,87,50,19,11,/,/
2026-01-16T1800,1803A,115.9873,29.6816,九江市,十里,细颗粒物(PM2.5),133,141,109,101,80,53,,60,60,97,82,11,9,1.5,1.4
2026-01-16T1800,1804A,115.9583,29.7047,九江市,茅山头,细颗粒物(PM2.5),122,141,106,92,74,52,,71,71,83,75,17,13,1.5,1.2
2026-01-16T1800,1805A,115.9877,29.7295,九江市,西园,细颗粒物(PM2.5),124,137,130,94,92,34,,48,48,130,115,9,8,1.5,1.4
2026-01-16T1800,1808A,115.9112,29.6038,九江市,综合工业园,细颗粒物(PM2.5),124,111,97,94,78,14,,52,50,104,76,9,6,0.8,0.8
2026-01-16T1800,3190A,116.0254,29.6995,九江市,外国语学校,细颗粒物(PM2.5),124,133,119,94,87,21,,51,51,117,80,11,10,1.6,1.3
2026-01-16T1800,4253A,116.010205,29.659402,九江市,莲花大道8号,细颗粒物(PM2.5),128,130,97,97,80,21,,51,50,81,38,7,6,1.1,0.8
2026-01-16T1800,4240A,98.495752,39.733935,酒泉市,玉门东路5号,颗粒物(PM10),75,100,104,24,33,67,,59,59,10,21,12,11,0.4,0.6
2026-01-16T1800,4241A,98.5099,39.7506,酒泉市,北大街108号,颗粒物(PM10),69,88,86,26,29,61,,62,62,11,17,13,11,0.5,0.6
2026-01-16T1800,2698A,76.0071,39.466,喀什地区,巡警大队,颗粒物(PM10),110,169,130,64,57,86,,57,57,21,42,6,7,0.7,1.4
2026-01-16T1800,2699A,75.9756,39.4693,喀什地区,吾办,颗粒物(PM10),101,152,130,56,60,92,,62,62,17,44,10,11,0.7,1.5
2026-01-16T1800,4027A,75.9485,39.4688,喀什地区,老干局,颗粒物(PM10),109,168,143,37,42,88,,59,58,17,33,6,8,0.6,1.3
2026-01-16T1800,1824A,114.3389,34.778,开封市,肿瘤医院,颗粒物(PM10),105,159,153,71,70,61,,51,51,23,37,4,5,0.8,0.8
2026-01-16T1800,1826A,114.2884,34.7966,开封市,世纪星幼儿园,细颗粒物(PM2.5),115,150,145,87,87,62,,52,52,22,33,5,6,0.7,0.7
2026-01-16T1800,3147A,114.3434,34.8101,开封市,龙亭公园,细颗粒物(PM2.5),108,144,135,81,84,59,,51,51,13,30,,7,1.5,1.1
2026-01-16T1800,3210A,114.3645,34.7955,开封市,汴京公园,细颗粒物(PM2.5),104,153,148,78,78,58,,49,49,26,37,4,4,0.9,0.8
2026-01-16T1800,3473A,114.2485,34.8306,开封市,技师学院,细颗粒物(PM2.5),105,137,136,79,76,60,,50,50,22,32,5,6,1.0,0.9
2026-01-16T1800,3592A,114.4518,34.7503,开封市,祥符区生态环境局,颗粒物(PM10),121,192,176,84,72,54,,50,50,26,44,3,4,0.8,0.7
2026-01-16T1800,1951A,84.886,45.6029,克拉玛依市,长征新村,,18,18,19,3,12,56,,57,57,12,9,7,6,0.3,0.2
2026-01-16T1800,1952A,84.8894,45.5827,克拉玛依市,南林小区,,19,19,19,12,9,56,,59,56,11,7,2,2,0.4,0.4
2026-01-16T1800,1954A,84.896,44.3328,克拉玛依市,独山子区,,49,38,49,34,33,56,,59,48,21,25,5,6,0.3,0.4
2026-01-16T1800,1955A,85.6888,46.0909,克拉玛依市,乌尔禾区商贸楼,,24,24,19,3,8,58,,60,54,16,13,8,7,0.4,0.4
2026-01-16T1800,3612A,85.1045,45.6895,克拉玛依市,白碱滩区新站,,37,37,31,14,12,54,,61,57,14,11,9,9,0.3,0.2
2026-01-16T1800,2697A,76.1457,39.7143,克孜勒苏柯尔克孜自治州,市人民政府,颗粒物(PM10),108,165,105,67,43,103,,74,74,12,18,6,5,0.5,0.5
2026-01-16T1800,3665A,76.1654,39.7157,克孜勒苏柯尔克孜自治州,克州文化中心,颗粒物(PM10),98,145,108,64,39,98,,74,74,9,19,7,7,0.6,0.9
2026-01-16T1800,1450A,102.8203,24.889,昆明市,呈贡新区,,27,27,31,9,14,75,,80,80,11,17,5,4,0.6,0.6
2026-01-16T1800,1452A,102.7253,25.0904,昆明市,龙泉镇,,26,24,33,8,15,82,,86,86,10,30,3,3,0.3,0.5
2026-01-16T1800,1453A,102.7267,25.0378,昆明市,东风东路,,,,38,,23,,,90,90,,24,,7,,0.4
2026-01-16T1800,1454A,102.6744,25.0671,昆明市,金鼎山,,27,27,30,7,15,82,,86,86,9,15,3,4,0.6,0.6
2026-01-16T1800,1455A,102.6643,25.0401,昆明市,碧鸡广场,,26,15,28,11,19,82,,88,88,11,22,5,5,0.4,0.4
2026-01-16T1800,3179A,102.7491,25.012,昆明市,官渡区博物馆,,29,29,35,8,19,84,,91,91,12,27,9,7,0.0,0.3
2026-01-16T1800,3375A,102.8016,24.8336,昆明市,青年创业园,,28,15,26,11,17,87,,90,90,4,13,4,4,0.5,0.5
2026-01-16T1800,3550A,102.8,24.9787,昆明市,昆明学院,,28,16,34,9,21,88,,94,94,7,27,6,6,0.2,0.4
2026-01-16T1800,3551A,102.5969,24.6738,昆明市,晋宁区生态环境分局,,24,15,30,12,20,74,,74,74,4,9,2,2,0.4,0.5
2026-01-16T1800,3552A,102.6673,24.9861,昆明市,云天化总部,,27,16,26,8,16,85,,90,90,11,18,11,10,0.1,0.3
2026-01-16T1800,1456A,91.132,29.6515,拉萨市,八廓街,,30,13,18,7,10,94,,83,83,5,13,6,7,0.5,0.3
2026-01-16T1800,1457A,91.1221,29.6748,拉萨市,市环保局,,30,11,18,11,12,93,,78,78,10,21,7,8,0.4,0.7
2026-01-16T1800,1458A,91.0874,29.6476,拉萨市,区监测站,,30,10,15,3,8,93,,80,80,8,21,4,4,0.7,0.8
2026-01-16T1800,1459A,91.1774,29.6541,拉萨市,西藏大学,,30,8,17,3,9,96,,82,82,10,13,4,5,0.5,0.6
2026-01-16T1800,1460A,90.9798,29.6586,拉萨市,区辐射站,,29,9,33,3,18,90,,75,75,12,29,3,5,0.4,0.7
2026-01-16T1800,1461A,91.0831,29.6292,拉萨市,拉萨火车站,,29,7,24,3,10,92,,74,74,8,21,4,4,0.5,0.7
2026-01-16T1800,2520A,109.2203,23.7252,来宾市,来宾技工学校,颗粒物(PM10),51,51,94,31,67,85,,90,90,8,24,7,10,0.7,0.9
2026-01-16T1800,3535A,109.1781,23.7293,来宾市,兴宾区政府,,46,46,95,29,71,102,,92,92,6,21,6,7,0.6,0.8
2026-01-16T1800,4002A,109.2312,23.7428,来宾市,中南小学,,49,49,95,30,61,92,,94,94,12,39,5,7,0.7,0.9
2026-01-16T1800,1479A,103.8309,36.0467,兰州市,铁路设计院,,,,,,,,,,,,,,,,
2026-01-16T1800,3241A,103.7439,36.0841,兰州市,百合公园,颗粒物(PM10),103,156,149,59,42,11,,37,37,102,54,19,18,2.0,1.1
2026-01-16T1800,3242A,103.9613,35.9985,兰州市,和平,颗粒物(PM10),107,164,138,69,44,59,,66,66,46,29,34,17,1.7,1
2026-01-16T1800,4236A,103.629272,36.093822,兰州市,庄浪东路808号,颗粒物(PM10),110,169,151,67,50,28,,54,54,92,43,26,24,1.4,0.8
2026-01-16T1800,4237A,103.7251,36.104344,兰州市,安宁西路88号,颗粒物(PM10),120,189,170,48,46,15,,53,53,112,53,33,21,1.9,0.8
2026-01-16T1800,4238A,103.846982,36.067567,兰州市,北滨河东路1号,颗粒物(PM10),102,154,151,50,47,30,,41,41,,63,20,15,1.4,1.2
2026-01-16T1800,1067A,116.6712,39.5109,廊坊市,药材公司,,24,24,111,7,60,55,,56,56,17,32,2,5,0.5,1
2026-01-16T1800,1068A,116.7215,39.5592,廊坊市,开发区,,27,27,116,6,63,58,,55,55,20,39,1,4,0.2,0.8
2026-01-16T1800,1070A,116.7246,39.5273,廊坊市,北华航天学院,,24,24,126,9,66,54,,52,52,20,35,1,4,0.3,0.9
2026-01-16T1800,2919A,116.7022,39.5454,廊坊市,河北工业大学,,25,25,126,17,65,58,,55,55,11,31,3,3,0.3,0.8
2026-01-16T1800,2536A,103.7629,29.5844,乐山市,牛耳桥,细颗粒物(PM2.5),124,108,113,94,97,98,,73,73,33,41,7,6,0.8,0.9
2026-01-16T1800,2537A,103.7501,29.6002,乐山市,市第三水厂,细颗粒物(PM2.5),125,116,119,95,97,95,,78,78,36,45,9,8,0.8,0.9
2026-01-16T1800,2538A,103.7571,29.5664,乐山市,市监测站,细颗粒物(PM2.5),144,118,124,110,105,108,,74,74,20,38,8,7,0.7,0.9
2026-01-16T1800,3361A,103.7313,29.563,乐山市,理工大学,细颗粒物(PM2.5),137,118,131,104,109,108,,80,80,20,37,8,7,0.6,0.7
2026-01-16T1800,2599A,100.2497,26.8802,丽江市,丽江古城,,30,30,28,9,13,89,,80,80,12,11,11,10,0.4,0.4
2026-01-16T1800,2600A,100.2203,26.8906,丽江市,市中心,,28,26,20,11,10,87,,83,83,14,11,8,7,0.5,0.4
2026-01-16T1800,1267A,119.9141,28.4513,丽水市,监测站大楼,细颗粒物(PM2.5),80,66,54,59,38,20,,80,80,64,47,6,6,2.1,0.7
2026-01-16T1800,1268A,119.93,28.4589,丽水市,莲都小学,颗粒物(PM10),61,72,63,30,32,49,,86,86,63,53,/,/,/,/
2026-01-16T1800,1269A,119.8794,28.4232,丽水市,余庄前,,44,44,54,23,33,64,,85,85,20,30,5,5,0.4,0.4
2026-01-16T1800,1173A,119.1759,34.5885,连云港市,市环境监测站,细颗粒物(PM2.5),134,183,233,102,181,50,,98,95,27,35,11,17,0.8,1.1
2026-01-16T1800,3000A,119.3577,34.6971,连云港市,德源药业,细颗粒物(PM2.5),134,188,252,102,166,48,,93,64,32,50,5,9,1.2,1.5
2026-01-16T1800,3007A,119.178,34.8442,连云港市,新城一中,细颗粒物(PM2.5),147,161,242,112,196,35,,68,68,49,78,9,15,1.1,1.6
2026-01-16T1800,3008A,119.3607,34.7519,连云港市,胡沟管理处,细颗粒物(PM2.5),122,163,200,92,145,56,,112,85,30,48,8,16,1.0,1.5
2026-01-16T1800,3009A,119.1478,34.5913,连云港市,矿山设计院,细颗粒物(PM2.5),134,190,243,102,172,49,,85,83,32,45,7,13,1.2,1.4
2026-01-16T1800,3434A,119.2414,34.6539,连云港市,工贸学校,细颗粒物(PM2.5),147,160,229,112,175,38,,101,72,32,37,10,17,1.4,1.5
2026-01-16T1800,3664A,119.4171,34.734,连云港市,连云街道,细颗粒物(PM2.5),137,159,234,104,162,39,,120,58,44,49,3,9,1.0,1.2
2026-01-16T1800,2573A,102.2629,27.8981,凉山彝族自治州,西昌市政府,,41,41,44,25,30,86,,71,71,16,16,13,11,0.8,0.7
2026-01-16T1800,2574A,102.2686,27.885,凉山彝族自治州,凉山州政府,,43,41,52,30,34,84,,70,70,19,22,16,11,0.7,0.7
2026-01-16T1800,4229A,102.2342,27.8859,凉山彝族自治州,凯乐南路30号,,46,46,62,24,37,82,,66,66,25,34,13,10,0.7,0.7
2026-01-16T1800,2212A,123.1978,41.2036,辽阳市,宏伟区,细颗粒物(PM2.5),68,,55,49,51,40,,54,52,31,24,12,9,0.5,0.8
2026-01-16T1800,2213A,123.1684,41.2497,辽阳市,新华园,,50,37,58,35,42,42,,51,51,35,36,17,12,0.4,0.6
2026-01-16T1800,2214A,123.2355,41.2663,辽阳市,滨河路,细颗粒物(PM2.5),58,62,59,41,46,28,,45,45,43,30,8,8,0.3,0.4
2026-01-16T1800,4083A,123.153,41.2874,辽阳市,铁西路150号,细颗粒物(PM2.5),59,43,49,42,44,37,,54,54,44,33,12,12,0.8,0.8
2026-01-16T1800,2227A,125.1359,42.8845,辽源市,环保局,颗粒物(PM10),61,72,135,28,55,61,,54,54,22,37,5,8,0.5,1
2026-01-16T1800,4085A,125.0998,42.9134,辽源市,安宁大街333号,细颗粒物(PM2.5),52,44,69,36,60,62,,62,62,17,26,6,6,0.6,0.8
2026-01-16T1800,1625A,115.9789,36.4372,聊城市,区政府,颗粒物(PM10),88,125,166,63,75,46,,48,48,35,38,16,13,1.1,1
2026-01-16T1800,3200A,115.9772,36.4986,聊城市,监控中心,细颗粒物(PM2.5),85,110,169,63,86,53,,54,54,27,33,8,9,1.0,1
2026-01-16T1800,3513A,116.0443,36.436,聊城市,九州社区,颗粒物(PM10),83,116,162,57,79,61,,56,56,11,19,1,5,0.7,0.7
2026-01-16T1800,4018A,116.0564,36.4609,聊城市,星美广场,,,,171,,76,42,,42,42,,25,5,5,0.8,0.8
2026-01-16T1800,4113A,116.0091,36.4495,聊城市,利民路,"颗粒物(PM10),细颗粒物(PM2.5)",82,113,153,60,82,41,,43,43,36,36,15,10,1.1,0.9
2026-01-16T1800,2632A,94.3683,29.6373,林芝市,林芝监测站,,28,19,14,7,8,88,,76,76,13,5,4,4,0.3,0.4
2026-01-16T1800,2633A,94.3616,29.6634,林芝市,林芝人民医院,,,12,21,9,11,94,,58,,,7,2,2,0.2,0.5
2026-01-16T1800,2603A,100.0779,23.8981,临沧市,市环保局,,30,25,39,21,43,91,,75,75,3,13,5,5,0.4,0.7
2026-01-16T1800,2604A,100.0894,23.882,临沧市,市气象局,,33,33,51,18,36,90,,70,70,4,14,4,5,0.2,0.5
2026-01-16T1800,1733A,111.5552,36.0791,临汾市,临钢医院,颗粒物(PM10),105,159,155,72,54,52,,50,50,43,38,20,8,1.5,1.1
2026-01-16T1800,1734A,111.4984,36.0734,临汾市,技工学校,颗粒物(PM10),100,150,174,59,62,57,,43,43,35,48,20,9,1.2,1.1
2026-01-16T1800,1736A,111.5017,36.0857,临汾市,市委,颗粒物(PM10),101,152,165,65,54,61,,46,46,40,49,24,12,1.5,1.2
2026-01-16T1800,3018A,111.5048,36.1015,临汾市,唐尧大酒店,颗粒物(PM10),97,144,163,63,60,64,,56,56,46,54,19,8,1.3,1.1
2026-01-16T1800,4244A,111.4879,36.053,临汾市,启星学校,颗粒物(PM10),93,136,157,62,60,64,,50,50,50,58,22,10,1.3,1.3
2026-01-16T1800,4271A,103.2464,35.6123,临夏回族自治州,滨河东路1号,颗粒物(PM10),77,103,195,43,75,41,,55,55,44,34,10,10,0.9,1.3
2026-01-16T1800,4310A,103.207136,35.599807,临夏回族自治州,新华街21号,,,144,161,51,71,63,,56,56,34,37,13,14,,1.5
2026-01-16T1800,1618A,118.3429,35.0532,临沂市,沂河小区,细颗粒物(PM2.5),124,149,279,94,225,50,,62,62,23,58,9,21,0.8,1.3
2026-01-16T1800,1619A,118.2962,35.0568,临沂市,鲁南制药厂,细颗粒物(PM2.5),114,153,284,86,210,47,,66,66,24,62,9,24,0.9,1.6
2026-01-16T1800,1620A,118.2793,34.9976,临沂市,新光毛纺厂,细颗粒物(PM2.5),112,149,276,84,210,48,,71,71,31,69,8,22,0.9,1.5
2026-01-16T1800,1621A,118.3955,35.0889,临沂市,河东保险公司,颗粒物(PM10),97,144,282,67,194,51,,62,62,24,69,8,15,0.8,1.5
2026-01-16T1800,3370A,118.3563,35.0215,临沂市,十里堡居委,颗粒物(PM10),102,153,283,66,189,53,,70,70,27,65,9,23,0.8,1.4
2026-01-16T1800,3496A,118.359,35.1067,临沂市,南坊新区,细颗粒物(PM2.5),100,139,272,75,198,51,,67,67,29,65,8,18,0.9,1.5
2026-01-16T1800,3860A,118.3915,35.0297,临沂市,皇山花园小区,颗粒物(PM10),108,166,293,68,184,54,,67,67,24,68,11,20,1.0,1.6
2026-01-16T1800,1870A,109.4854,24.3898,柳州市,柳东小学,细颗粒物(PM2.5),74,76,131,54,112,99,,87,87,20,44,14,30,0.7,1.1
2026-01-16T1800,1871A,109.4109,24.3304,柳州市,环保监测站,细颗粒物(PM2.5),69,66,132,50,104,94,,81,81,21,50,6,10,0.9,1.6
2026-01-16T1800,1872A,109.3886,24.3408,柳州市,河西水厂,颗粒物(PM10),65,79,186,44,116,94,,87,87,23,53,8,17,0.8,1.4
2026-01-16T1800,1873A,109.4263,24.2951,柳州市,市四中,颗粒物(PM10),63,76,143,36,93,96,,83,83,24,62,11,11,0.9,1.6
2026-01-16T1800,1874A,109.396,24.3658,柳州市,市九中,细颗粒物(PM2.5),75,80,151,55,115,88,,81,81,27,49,13,18,1.0,1.5
2026-01-16T1800,1875A,109.4912,24.3164,柳州市,古亭山,颗粒物(PM10),64,78,112,39,76,82,,78,78,24,57,13,14,0.7,1
2026-01-16T1800,3402A,109.5422,24.3994,柳州市,市二中,细颗粒物(PM2.5),64,76,129,46,100,77,,77,77,28,52,14,24,0.8,1.1
2026-01-16T1800,2307A,116.5078,31.7369,六安市,监测大楼,细颗粒物(PM2.5),84,77,68,62,49,103,,101,101,26,31,7,5,0.5,0.4
2026-01-16T1800,2308A,116.4738,31.7642,六安市,皖西学院,细颗粒物(PM2.5),92,85,81,68,51,103,,107,107,28,28,9,7,0.5,0.4
2026-01-16T1800,2309A,116.4997,31.7904,六安市,朝阳厂,细颗粒物(PM2.5),83,84,72,61,51,85,,95,95,41,34,8,7,0.6,0.5
2026-01-16T1800,2310A,116.5566,31.7885,六安市,开发区,细颗粒物(PM2.5),84,89,78,62,51,89,,98,98,48,42,8,8,0.6,0.5
2026-01-16T1800,2577A,104.8293,26.592,六盘水市,黄土坡,细颗粒物(PM2.5),100,101,91,75,69,92,,70,70,25,29,13,11,0.9,1.2
2026-01-16T1800,2579A,104.8481,26.5898,六盘水市,民中,细颗粒物(PM2.5),100,115,90,75,79,72,,63,63,44,30,7,9,0.7,1.3
2026-01-16T1800,2580A,104.9541,26.5506,六盘水市,双水,细颗粒物(PM2.5),100,97,82,75,64,101,,75,75,16,18,7,6,0.7,0.7
2026-01-16T1800,4151A,104.8899,26.5685,六盘水市,钟山大道中段564号,细颗粒物(PM2.5),104,128,115,78,79,93,,61,61,15,23,7,10,0.9,1.5
2026-01-16T1800,2336A,117.022,25.1031,龙岩市,龙岩市监测站,,42,41,55,29,40,87,,109,109,53,38,9,29,1.0,0.7
2026-01-16T1800,2337A,117.0257,25.0662,龙岩市,闽西职业技术学院,,46,46,54,29,31,79,,113,113,50,29,6,14,1.0,0.6
2026-01-16T1800,2338A,117.0195,25.0306,龙岩市,龙岩学院,,45,45,47,25,35,122,,119,119,11,19,8,10,/,/
2026-01-16T1800,2885A,104.9344,33.3827,陇南市,滨江中学,颗粒物(PM10),106,162,120,47,54,17,,50,50,86,51,23,19,2.9,2.5
2026-01-16T1800,3247A,104.9551,33.3709,陇南市,市总工会,颗粒物(PM10),66,81,86,29,39,57,,63,63,24,38,8,11,0.6,1.1
2026-01-16T1800,2488A,111.9984,27.7346,娄底市,市监测站,细颗粒物(PM2.5),119,137,116,90,84,65,,48,48,35,54,16,12,0.9,1.4
2026-01-16T1800,2491A,111.9888,27.7035,娄底市,市政府,细颗粒物(PM2.5),140,123,118,107,90,50,,48,48,46,41,14,10,0.8,1.1
2026-01-16T1800,4127A,111.9812,27.7591,娄底市,涟钢职大,细颗粒物(PM2.5),128,147,114,97,71,58,,47,47,33,49,16,12,0.9,1
2026-01-16T1800,4128A,112.0303,27.7457,娄底市,娄底体校,细颗粒物(PM2.5),142,149,110,108,83,50,,46,46,28,29,6,5,0.9,0.8
2026-01-16T1800,1894A,105.4427,28.9063,泸州市,小市上码头,细颗粒物(PM2.5),175,160,174,132,140,58,,39,39,32,47,8,8,1.4,1.6
2026-01-16T1800,1895A,105.4241,28.8573,泸州市,兰田宪桥,细颗粒物(PM2.5),169,196,217,128,149,60,,42,42,15,23,8,8,1.4,1.2
2026-01-16T1800,1896A,105.4378,28.8833,泸州市,市环监站,细颗粒物(PM2.5),183,176,184,138,142,59,,48,48,27,40,9,9,1.2,1.4
2026-01-16T1800,4272A,105.3689,28.7783,泸州市,纳溪中医医院,细颗粒物(PM2.5),213,,162,163,152,44,,24,24,26,26,8,8,1.4,1.4
2026-01-16T1800,2183A,111.1447,37.5212,吕梁市,环保局,颗粒物(PM10),65,79,121,25,31,53,,42,42,22,43,5,5,0.3,0.3
2026-01-16T1800,2185A,111.1285,37.5338,吕梁市,自来水公司,颗粒物(PM10),63,75,144,27,41,56,,42,42,20,40,4,8,0.4,0.6
2026-01-16T1800,2867A,111.1225,37.5093,吕梁市,马茂庄小学,颗粒物(PM10),69,87,144,31,35,54,,40,40,23,46,4,6,0.2,0.5
2026-01-16T1800,1812A,112.3934,34.6517,洛阳市,市委党校,细颗粒物(PM2.5),142,223,150,108,79,61,,51,51,55,58,13,17,1.3,1.2
2026-01-16T1800,1815A,112.494,34.6883,洛阳市,河南林校,细颗粒物(PM2.5),172,230,163,130,95,55,,54,54,51,58,14,18,1.1,1.1
2026-01-16T1800,1816A,112.3843,34.623,洛阳市,开发区管委会,细颗粒物(PM2.5),196,261,150,147,79,61,,57,57,49,46,16,16,1.3,1
2026-01-16T1800,1817A,112.4263,34.6249,洛阳市,市委新办公区,细颗粒物(PM2.5),168,246,149,127,76,64,,56,56,51,57,13,14,1.1,0.9
2026-01-16T1800,3340A,112.6005,34.6323,洛阳市,伊滨,细颗粒物(PM2.5),159,243,155,121,83,72,,55,55,37,52,11,11,1.0,0.8
2026-01-16T1800,3341A,112.495,34.6338,洛阳市,中移产业园,细颗粒物(PM2.5),169,232,145,128,78,54,,40,40,48,56,15,15,1.1,1
2026-01-16T1800,3593A,112.5736,34.8993,洛阳市,吉利监测站,细颗粒物(PM2.5),149,221,138,114,69,64,,57,57,,50,12,12,1.1,0.9
2026-01-16T1800,3635A,112.3678,34.6623,洛阳市,河科大西苑校区,颗粒物(PM10),148,245,163,112,71,66,,56,56,51,58,13,18,1.3,1.2
2026-01-16T1800,3636A,112.4387,34.678,洛阳市,英才小学,细颗粒物(PM2.5),176,246,190,133,98,57,,50,50,51,64,14,21,1.2,1.2
2026-01-16T1800,4214A,112.460027,34.694929,洛阳市,春都路1号院,颗粒物(PM10),163,275,185,112,73,56,,52,52,43,53,11,15,1.3,1.2
2026-01-16T1800,2399A,114.051,33.5721,漯河市,三五一五工厂,细颗粒物(PM2.5),165,211,137,125,77,53,,51,51,25,38,6,8,0.9,0.7
2026-01-16T1800,2400A,114.0055,33.5698,漯河市,漯河大学,细颗粒物(PM2.5),153,218,127,117,69,53,,49,49,19,28,5,7,0.8,0.7
2026-01-16T1800,2401A,114.0134,33.5826,漯河市,市水利局,细颗粒物(PM2.5),163,227,131,124,72,49,,46,46,22,29,4,7,0.9,0.7
2026-01-16T1800,2402A,114.0261,33.5697,漯河市,市广电局,细颗粒物(PM2.5),159,230,127,121,67,52,,55,55,22,33,6,7,0.9,0.8
2026-01-16T1800,3478A,113.9691,33.568,漯河市,市图书馆,细颗粒物(PM2.5),166,245,144,126,79,50,,46,46,22,30,4,6,1.0,0.8
2026-01-16T1800,4250A,114.089259,33.588274,漯河市,韶山路11号,细颗粒物(PM2.5),156,223,132,119,69,46,,46,46,22,33,6,9,1.0,0.8
2026-01-16T1800,1798A,118.5084,31.6838,马鞍山市,湖东路四小,,,107,126,61,69,98,,116,116,,58,12,13,1.1,1
2026-01-16T1800,1799A,118.5019,31.6449,马鞍山市,开发区,细颗粒物(PM2.5),114,113,138,86,91,91,,111,111,64,60,9,12,0.8,0.9
2026-01-16T1800,3633A,118.4914,31.681,马鞍山市,雨山,细颗粒物(PM2.5),92,108,123,68,76,111,,110,110,46,60,17,15,1.1,1
2026-01-16T1800,4191A,118.527362,31.722269,马鞍山市,慈湖高新区,细颗粒物(PM2.5),107,117,132,80,80,62,,102,102,100,60,10,14,0.8,0.9
2026-01-16T1800,1686A,111.0285,21.469,茂名市,电白南海,颗粒物(PM10),51,51,57,29,30,123,,126,126,15,20,8,11,0.7,0.7
2026-01-16T1800,1687A,110.9294,21.6533,茂名市,茂石化七小,颗粒物(PM10),53,56,66,29,32,129,,140,140,20,28,9,11,0.4,0.5
2026-01-16T1800,1688A,110.9108,21.6688,茂名市,健康路,,46,46,54,22,33,144,,150,150,18,23,16,18,0.7,0.8
2026-01-16T1800,1689A,110.8592,21.6826,茂名市,高岭,颗粒物(PM10),58,66,79,24,35,138,,138,138,17,27,10,18,/,/
2026-01-16T1800,3450A,111.0101,21.5165,茂名市,电白水东,,,58,54,29,30,181,,146,146,,17,8,12,/,/
2026-01-16T1800,2540A,103.8414,30.0871,眉山市,气象局,细颗粒物(PM2.5),107,115,115,80,94,104,,78,78,43,44,18,17,0.9,0.9
2026-01-16T1800,3148A,103.829,30.0563,眉山市,区人社局,细颗粒物(PM2.5),104,97,115,78,93,94,,81,81,41,52,15,14,0.9,1.1
2026-01-16T1800,4148A,103.8836,30.0695,眉山市,眉职院,细颗粒物(PM2.5),108,118,118,81,82,114,,81,81,24,39,,8,0.9,0.9
2026-01-16T1800,1690A,116.1248,24.3307,梅州市,梅江月梅,,48,45,58,33,35,130,,112,112,16,39,/,/,/,/
2026-01-16T1800,1691A,116.0798,24.2719,梅州市,梅县新城,颗粒物(PM10),51,51,60,34,42,108,,113,113,41,42,8,8,0.8,0.7
2026-01-16T1800,3315A,116.1234,24.2994,梅州市,梅龙,,46,46,59,28,35,113,,104,104,24,38,9,10,0.8,0.9
2026-01-16T1800,1878A,104.7775,31.4741,绵阳市,富乐山,细颗粒物(PM2.5),73,77,96,53,76,72,,52,52,23,37,8,8,0.5,0.7
2026-01-16T1800,1880A,104.6698,31.4668,绵阳市,高新区自来水公司,细颗粒物(PM2.5),62,63,104,44,71,77,,54,54,24,49,9,9,0.6,0.9
2026-01-16T1800,3491A,104.6899,31.5324,绵阳市,西科大附属小学,细颗粒物(PM2.5),83,91,106,61,70,75,,49,49,43,49,9,8,0.4,0.7
2026-01-16T1800,3492A,104.5647,31.5343,绵阳市,安州区旅游局,细颗粒物(PM2.5),64,72,98,46,73,78,,66,66,35,45,13,13,0.5,0.8
2026-01-16T1800,4146A,104.7092,31.4972,绵阳市,科技城新区公安局,颗粒物(PM10),63,76,98,37,64,92,,75,75,30,38,9,10,0.6,0.8
2026-01-16T1800,4226A,104.765114,31.453094,绵阳市,绵阳市气象局,细颗粒物(PM2.5),58,61,104,41,78,82,,45,45,26,51,5,9,0.6,0.9
2026-01-16T1800,1784A,129.61,44.561,牡丹江市,环保大楼,,43,30,40,30,32,58,,60,60,15,25,3,6,0.2,0.4
2026-01-16T1800,1787A,129.6364,44.6075,牡丹江市,机车工厂,细颗粒物(PM2.5),64,46,65,46,44,63,,59,59,7,35,5,5,2.2,0.7
2026-01-16T1800,1788A,129.6386,44.5462,牡丹江市,第一中学,,38,,38,26,36,55,,54,54,11,23,4,7,0.4,0.5
2026-01-16T1800,4287A,129.5992,44.5964,牡丹江市,东晓云街98号,,,,64,,56,59,,58,58,9,29,4,8,0.5,0.8
2026-01-16T1800,2531A,105.0703,29.61,内江市,市监测站,细颗粒物(PM2.5),170,142,142,129,143,89,,69,69,26,25,7,7,1.1,1.1
2026-01-16T1800,2533A,105.0657,29.5807,内江市,内江二中,细颗粒物(PM2.5),165,157,159,125,132,80,,56,56,31,38,5,5,1.1,1.2
2026-01-16T1800,2534A,105.0407,29.5828,内江市,内江日报社,细颗粒物(PM2.5),150,127,131,115,129,84,,65,65,34,33,3,3,1.0,1
2026-01-16T1800,4147A,105.0433,29.6105,内江市,玉峰路西段888号,细颗粒物(PM2.5),166,152,136,126,138,96,,73,73,,34,3,2,,1.1
2026-01-16T1800,2628A,92.0653,31.4846,那曲市,那曲监测站,,24,20,38,11,24,76,,64,64,10,23,5,8,0.9,1.2
2026-01-16T1800,4243A,92.0515,31.4787,那曲市,那曲市委宣传部,,16,6,23,3,14,49,,59,59,1,14,3,6,0.4,0.9
2026-01-16T1800,1291A,115.8887,28.7006,南昌市,省林业公司,细颗粒物(PM2.5),77,90,110,56,75,69,,66,66,48,72,10,9,1.3,1.4
2026-01-16T1800,1292A,115.813,28.7443,南昌市,林科所,细颗粒物(PM2.5),85,97,86,63,59,85,,84,84,42,50,15,13,0.6,0.5
2026-01-16T1800,1294A,115.8518,28.687,南昌市,建工学校,细颗粒物(PM2.5),94,121,127,70,86,79,,76,76,45,79,21,19,1.2,1.3
2026-01-16T1800,1295A,115.8926,28.6425,南昌市,象湖,细颗粒物(PM2.5),79,84,122,58,86,74,,79,79,44,76,15,16,0.8,1.3
2026-01-16T1800,3046A,115.9084,28.6062,南昌市,机电学校,细颗粒物(PM2.5),85,100,143,63,91,80,,82,82,37,77,13,12,0.8,1.1
2026-01-16T1800,3690A,115.9718,28.7032,南昌市,外国语学校,细颗粒物(PM2.5),85,83,108,63,82,59,,82,79,61,74,18,17,0.7,0.9
2026-01-16T1800,4106A,115.7923,28.6873,南昌市,工业二路,,,,96,,75,,,116,90,,69,,10,,2.2
2026-01-16T1800,4192A,115.931587,28.686774,南昌市,南京东路235号,,,102,126,60,92,78,,75,75,,75,11,10,0.9,1.1
2026-01-16T1800,1906A,106.0791,30.8022,南充市,南充市委,细颗粒物(PM2.5),127,110,129,96,111,51,,43,43,45,55,5,4,1.0,1.2
2026-01-16T1800,1907A,106.1038,30.8215,南充市,南充炼油厂,细颗粒物(PM2.5),113,113,129,85,109,59,,44,44,35,35,7,6,1.1,1.1
2026-01-16T1800,4227A,106.108336,30.788436,南充市,梨树横街98号,细颗粒物(PM2.5),129,125,129,98,105,73,,54,54,29,42,6,6,0.8,1
2026-01-16T1800,4304A,106.1172,30.843,南充市,清泉寺北路188号,细颗粒物(PM2.5),115,,103,87,98,72,,56,56,33,20,7,7,0.8,0.7
2026-01-16T1800,4305A,106.067,30.7616,南充市,同庆路1号,细颗粒物(PM2.5),122,108,125,92,107,70,,48,48,27,54,7,7,0.9,1.2
2026-01-16T1800,1151A,118.8033,32.1085,南京市,迈皋桥,细颗粒物(PM2.5),85,96,112,63,73,84,,107,107,63,69,9,9,0.9,0.9
2026-01-16T1800,1152A,118.7487,32.057,南京市,草场门,细颗粒物(PM2.5),89,112,127,66,75,61,,74,74,72,69,12,12,1.2,0.9
2026-01-16T1800,1154A,118.770105,32.004342,南京市,中华门,细颗粒物(PM2.5),70,85,117,51,75,91,,106,106,47,65,6,8,1.0,0.8
2026-01-16T1800,1155A,118.8059,32.0329,南京市,瑞金路,细颗粒物(PM2.5),113,158,127,85,82,18,,87,87,116,82,4,4,1.6,1.4
2026-01-16T1800,1156A,118.7946,32.0774,南京市,玄武湖,细颗粒物(PM2.5),92,101,114,68,71,78,,100,100,26,28,4,4,1.3,1.1
2026-01-16T1800,1157A,118.6415,32.0964,南京市,浦口,颗粒物(PM10),65,79,128,45,72,123,,95,95,24,57,12,13,1.2,1.2
2026-01-16T1800,1158A,118.730129,32.000956,南京市,奥体中心,细颗粒物(PM2.5),64,71,126,46,80,116,,114,114,43,84,12,13,1.0,1
2026-01-16T1800,1159A,118.9072,32.1047,南京市,仙林大学城,颗粒物(PM10),68,85,130,48,82,87,,106,106,63,66,12,13,1.1,1.1
2026-01-16T1800,3422A,118.8443,31.919,南京市,江宁彩虹桥,细颗粒物(PM2.5),98,102,125,73,87,117,,129,129,53,76,5,7,0.8,0.9
2026-01-16T1800,3427A,118.8497,32.3599,南京市,六合雄州,细颗粒物(PM2.5),92,88,149,68,105,98,,16,,55,66,9,10,0.9,1
2026-01-16T1800,4086A,118.7641,32.0841,南京市,新模范马路66号,颗粒物(PM10),84,117,124,51,76,110,,131,131,58,52,4,4,1.3,1.2
2026-01-16T1800,4249A,118.8707617,31.34017673,南京市,汶溪路181号,细颗粒物(PM2.5),97,87,95,72,79,128,,123,123,39,46,10,11,1.0,1.1
2026-01-16T1800,4312A,119.019,31.6512,南京市,中山西路1号,细颗粒物(PM2.5),89,73,98,66,77,122,,113,113,32,51,6,5,0.9,1
2026-01-16T1800,1401A,108.3098,22.788,南宁市,二十一中,细颗粒物(PM2.5),53,53,82,37,60,89,,70,70,13,38,3,5,0.6,0.9
2026-01-16T1800,1402A,108.3135,22.8529,南宁市,北湖,细颗粒物(PM2.5),59,59,105,42,72,88,,74,74,20,57,2,4,0.7,1
2026-01-16T1800,1403A,108.3205,22.8222,南宁市,市监测站,细颗粒物(PM2.5),57,61,78,40,61,89,,75,75,18,43,5,7,0.7,1
2026-01-16T1800,1404A,108.3828,22.8038,南宁市,大自然花园,细颗粒物(PM2.5),57,59,73,40,53,100,,84,84,13,26,5,7,0.8,1
2026-01-16T1800,1406A,108.2397,22.8462,南宁市,区农职院,颗粒物(PM10),61,71,89,38,58,79,,68,68,27,49,8,11,0.8,1.1
2026-01-16T1800,1407A,108.3285,22.7356,南宁市,英华嘉园,细颗粒物(PM2.5),64,59,96,46,63,85,,75,75,24,56,4,6,0.8,1.1
2026-01-16T1800,3401A,108.4829,22.762,南宁市,红星社区,细颗粒物(PM2.5),64,70,72,46,52,99,,86,86,16,26,4,5,0.7,0.8
2026-01-16T1800,4132A,108.2927,23.1477,南宁市,起凤路9号,细颗粒物(PM2.5),55,55,89,39,69,87,,86,86,16,34,3,3,0.7,0.8
2026-01-16T1800,4221A,108.2177,22.7774,南宁市,乐贤路16号,细颗粒物(PM2.5),59,60,98,42,61,85,,70,70,19,53,4,3,0.7,0.9
2026-01-16T1800,2332A,118.1682,26.6371,南平市,南平市监测站,颗粒物(PM10),63,76,53,39,35,88,,107,107,26,30,8,7,0.7,0.5
2026-01-16T1800,2334A,118.1757,26.6276,南平市,南平七中,颗粒物(PM10),62,74,42,40,33,69,,95,95,44,30,5,6,1.0,0.8
2026-01-16T1800,1168A,120.9056,31.9669,南通市,狼山街道,细颗粒物(PM2.5),162,155,180,123,152,78,,89,89,69,60,5,4,0.7,0.8
2026-01-16T1800,1170A,120.8635,32.0231,南通市,城中,细颗粒物(PM2.5),168,183,193,127,150,81,,97,97,86,52,8,6,1.2,1.2
2026-01-16T1800,1171A,120.9376,31.9301,南通市,星湖花园,细颗粒物(PM2.5),156,174,187,119,151,65,,89,89,95,56,6,7,1.0,0.9
2026-01-16T1800,1172A,120.8053,32.046,南通市,紫琅学院,细颗粒物(PM2.5),148,213,202,113,152,59,,99,99,104,57,7,7,0.9,1
2026-01-16T1800,3291A,121.0631,32.0644,南通市,通州监测站,细颗粒物(PM2.5),170,166,174,129,148,73,,110,110,94,45,6,6,1.4,1.3
2026-01-16T1800,3432A,120.9348,31.9874,南通市,环境教育馆,细颗粒物(PM2.5),176,163,179,133,151,45,,85,85,134,68,7,7,1.0,1.1
2026-01-16T1800,4091A,120.8692,31.9885,南通市,洪江路,细颗粒物(PM2.5),168,154,172,127,164,82,,92,92,77,50,7,5,1.2,1.2
2026-01-16T1800,2404A,112.5338,33.0086,南阳市,瓦房庄,细颗粒物(PM2.5),147,198,129,112,90,88,,84,84,26,37,11,10,1.0,1
2026-01-16T1800,2405A,112.5002,32.9734,南阳市,汉画馆,细颗粒物(PM2.5),140,225,132,107,82,85,,80,80,34,42,10,8,1.0,0.9
2026-01-16T1800,2406A,112.5778,33.0144,南阳市,气象站,颗粒物(PM10),152,254,145,110,80,83,,85,85,34,37,9,9,1.0,0.9
2026-01-16T1800,2407A,112.548,32.9687,南阳市,理工学院,颗粒物(PM10),139,227,131,93,74,79,,81,81,36,37,8,9,1.0,0.8
2026-01-16T1800,4008A,112.5233,32.9921,南阳市,卧龙区政府,颗粒物(PM10),132,213,146,99,82,83,,83,83,38,45,10,9,0.9,0.9
2026-01-16T1800,1234A,121.8352,29.9111,宁波市,区环保大楼,,,107,97,,61,90,,85,85,91,87,8,9,0.8,1
2026-01-16T1800,1235A,121.5595,29.8208,宁波市,万里学院,细颗粒物(PM2.5),65,70,112,47,83,137,,133,133,30,67,6,7,0.5,0.7
2026-01-16T1800,1236A,121.713,29.9564,宁波市,龙赛医院,细颗粒物(PM2.5),87,100,119,64,82,65,,71,71,108,102,20,12,1.1,1.1
2026-01-16T1800,1240A,121.5855,29.8635,宁波市,太古小学,细颗粒物(PM2.5),74,70,107,54,73,143,,136,136,27,66,6,6,0.5,0.8
2026-01-16T1800,1241A,121.5239,29.8673,宁波市,市环境监测中心,细颗粒物(PM2.5),84,82,95,62,71,126,,122,122,42,74,9,9,0.8,0.9
2026-01-16T1800,2871A,121.6156,29.9015,宁波市,万里国际学校,细颗粒物(PM2.5),78,89,107,57,77,88,,118,118,87,87,11,8,0.7,0.8
2026-01-16T1800,3710A,121.5593,29.8976,宁波市,白沙活动中心,细颗粒物(PM2.5),110,102,96,83,72,57,,110,110,113,83,13,7,1.0,1.1
2026-01-16T1800,4095A,121.8962,29.7529,宁波市,中科路88号,细颗粒物(PM2.5),74,80,88,54,68,168,,158,158,28,60,6,7,0.4,0.5
2026-01-16T1800,2341A,119.5387,26.6611,宁德市,宁德市监测站,,43,38,33,30,20,70,,92,92,38,28,3,3,0.9,0.6
2026-01-16T1800,3209A,119.5231,26.6562,宁德市,宁德一中,,40,40,31,28,19,92,,92,92,16,19,6,6,0.4,0.4
2026-01-16T1800,2618A,98.859,25.8541,怒江傈僳族自治州,州监测站,,29,29,28,17,20,83,,77,77,12,10,5,5,0.4,0.4
2026-01-16T1800,2619A,98.8607,25.8168,怒江傈僳族自治州,泸水一中,,44,44,26,25,18,70,,66,66,15,17,6,6,0.4,0.4
2026-01-16T1800,1888A,101.6891,26.571,攀枝花市,弄弄坪,,32,32,64,19,37,96,,77,77,17,38,12,22,0.6,1.8
2026-01-16T1800,1889A,101.577,26.5914,攀枝花市,河门口,,31,31,53,16,30,96,,72,72,11,24,14,19,0.7,1
2026-01-16T1800,1891A,101.7365,26.4986,攀枝花市,仁和,,29,29,44,18,26,88,,80,80,15,20,10,12,0.6,0.9
2026-01-16T1800,2835A,101.7222,26.567,攀枝花市,四十中小,,46,46,62,30,38,92,,72,72,16,39,19,19,0.8,1.6
2026-01-16T1800,1604A,122.0303,41.1489,盘锦市,开发区,颗粒物(PM10),59,68,39,26,26,55,,63,62,12,9,5,3,0.4,0.9
2026-01-16T1800,1605A,122.0486,41.0883,盘锦市,兴隆台,,,28,30,19,23,56,,60,60,,17,8,5,0.6,0.5
2026-01-16T1800,1606A,121.8297,41.1026,盘锦市,新生街道,,28,28,29,15,18,50,,66,65,24,12,4,5,0.6,0.6
2026-01-16T1800,1832A,113.3257,33.7423,平顶山市,新华旅馆,颗粒物(PM10),169,288,154,127,76,55,,67,67,43,44,6,8,0.8,0.6
2026-01-16T1800,1833A,113.2917,33.737,平顶山市,规划设计院,细颗粒物(PM2.5),159,255,153,121,68,62,,76,76,30,31,8,9,0.9,0.7
2026-01-16T1800,1834A,113.182,33.7738,平顶山市,平顶山工学院,细颗粒物(PM2.5),156,241,139,119,73,72,,74,74,32,26,8,10,0.8,0.6
2026-01-16T1800,3594A,112.8736,33.9068,平顶山市,石龙区,细颗粒物(PM2.5),150,235,124,115,58,88,,81,81,30,22,11,9,0.8,0.5
2026-01-16T1800,4116A,113.284,33.7139,平顶山市,姚电大道23号,"颗粒物(PM10),细颗粒物(PM2.5)",172,294,165,130,80,67,,75,75,38,35,9,10,0.9,0.6
2026-01-16T1800,2656A,106.6633,35.5338,平凉市,聚贤嘉苑,颗粒物(PM10),68,86,92,26,26,77,,75,75,19,21,15,14,0.4,0.4
2026-01-16T1800,2657A,106.7021,35.5307,平凉市,博物馆,颗粒物(PM10),60,70,97,27,30,81,,78,78,24,22,13,14,0.4,0.6
2026-01-16T1800,2348A,113.8384,27.6436,萍乡市,中医院,细颗粒物(PM2.5),90,112,123,67,78,87,,118,118,56,52,14,16,1.8,1.6
2026-01-16T1800,2350A,113.8677,27.6438,萍乡市,市环保局,细颗粒物(PM2.5),88,91,104,65,77,115,,125,125,38,48,28,28,1.2,1.2
2026-01-16T1800,2351A,113.8663,27.6202,萍乡市,安源区政府,细颗粒物(PM2.5),133,124,127,101,107,83,,99,99,44,43,24,21,1.5,1.6
2026-01-16T1800,4107A,113.8686,27.6668,萍乡市,联洪村委会,,,96,107,71,78,115,,116,116,28,38,,5,1.0,1
2026-01-16T1800,2319A,119.0142,25.4324,莆田市,荔城区仓后路,颗粒物(PM10),56,62,58,38,31,93,,104,104,33,29,/,/,/,/
2026-01-16T1800,2320A,119.0016,25.4553,莆田市,莆田市监测站,,48,48,38,22,24,97,,110,110,17,15,5,3,0.7,0.6
2026-01-16T1800,2321A,119.112,25.4561,莆田市,涵江区六中,,50,50,51,24,27,93,,101,101,30,32,/,/,0.7,0.7
2026-01-16T1800,2322A,119.1014,25.3215,莆田市,秀屿区政府,,49,49,52,26,34,103,,111,111,21,22,7,5,0.7,0.8
2026-01-16T1800,2392A,115.0312,35.7636,濮阳市,环保局,颗粒物(PM10),86,121,129,62,65,56,,49,49,25,31,7,7,0.5,0.5
2026-01-16T1800,3021A,115,35.7667,濮阳市,濮水河管理处,颗粒物(PM10),91,131,143,59,62,58,,52,52,24,32,5,6,0.8,0.8
2026-01-16T1800,4118A,115.0552,35.7816,濮阳市,中原东路68号,颗粒物(PM10),92,134,146,65,69,55,,50,50,28,33,4,5,0.4,0.4
2026-01-16T1800,4216A,115.0923632,35.76857718,濮阳市,任丘路479号,颗粒物(PM10),91,132,145,67,71,54,,49,49,28,34,4,5,0.7,0.6
2026-01-16T1800,2601A,100.9801,22.7634,普洱市,市环保局,颗粒物(PM10),51,51,55,30,17,78,,72,72,6,12,4,5,0.3,0.4
2026-01-16T1800,2602A,100.9763,22.8237,普洱市,普洱第二中学,,41,41,53,18,30,83,,76,76,7,19,6,5,0.3,0.4
2026-01-16T1800,3345A,131.0413,45.7795,七台河市,中波台,,20,20,38,12,28,49,,56,56,19,20,16,13,0.4,0.5
2026-01-16T1800,3637A,131.0136,45.7688,七台河市,人民广场,,43,35,44,30,34,49,,55,55,20,25,12,11,0.6,0.6
2026-01-16T1800,3684A,130.8639,45.8144,七台河市,新建矿广场,,39,39,38,24,29,37,,52,52,22,16,8,6,0.4,0.4
2026-01-16T1800,1779A,123.9307,47.3641,齐齐哈尔市,安居小区,细颗粒物(PM2.5),62,53,45,44,35,36,,54,53,32,21,10,8,0.7,0.6
2026-01-16T1800,1780A,123.9497,47.3389,齐齐哈尔市,中心广场,,25,25,36,12,25,32,,52,51,32,20,8,7,0.9,0.9
2026-01-16T1800,1781A,123.9483,47.3229,齐齐哈尔市,农牧车辆厂,,29,29,39,8,25,40,,54,53,20,18,8,7,0.4,0.5
2026-01-16T1800,1783A,123.9442,47.2994,齐齐哈尔市,市环境监测站,,45,45,53,16,37,23,,53,51,42,27,8,8,1.0,0.9
2026-01-16T1800,3662A,123.6341,47.2079,齐齐哈尔市,富区青少年活动中心,颗粒物(PM10),52,53,54,29,42,35,,55,55,36,25,14,11,0.9,0.8
2026-01-16T1800,2591A,107.9765,26.5724,黔东南苗族侗族自治州,市环境监测站,细颗粒物(PM2.5),104,93,104,78,90,54,,48,48,29,42,7,8,0.9,1.2
2026-01-16T1800,2881A,107.8909,26.531,黔东南苗族侗族自治州,凯里学院,细颗粒物(PM2.5),92,97,88,68,65,65,,64,64,27,26,4,4,0.7,0.7
2026-01-16T1800,2593A,107.5223,26.2371,黔南布依族苗族自治州,小围寨,细颗粒物(PM2.5),79,70,64,58,55,54,,72,52,21,14,9,8,1.1,1
2026-01-16T1800,3538A,107.5175,26.2977,黔南布依族苗族自治州,沙坝,细颗粒物(PM2.5),79,80,71,58,55,51,,57,48,24,21,6,7,1.0,1
2026-01-16T1800,2589A,104.9022,25.0943,黔西南布依族苗族自治州,场坝街,,50,43,71,35,60,77,,73,73,12,18,3,12,0.6,0.7
2026-01-16T1800,2590A,104.8812,25.0994,黔西南布依族苗族自治州,坪东大道,,48,,58,33,54,76,,70,70,15,21,6,6,0.8,0.8
2026-01-16T1800,2502A,108.6238,21.9667,钦州市,市环保站,颗粒物(PM10),59,68,67,22,36,100,,91,91,20,28,3,5,0.4,0.6
2026-01-16T1800,2503A,108.655,21.9481,钦州市,沙埠小学,颗粒物(PM10),56,62,67,27,40,103,,92,92,18,35,3,5,0.3,0.5
2026-01-16T1800,2504A,108.5989,21.7435,钦州市,港区一小,颗粒物(PM10),64,77,66,23,34,88,,90,90,25,31,4,5,0.6,0.7
2026-01-16T1800,3404A,108.5959,21.9634,钦州市,北职校,颗粒物(PM10),56,62,61,22,43,101,,90,90,19,28,9,9,0.7,0.9
2026-01-16T1800,1046A,119.5247,39.9346,秦皇岛市,建设大厦,细颗粒物(PM2.5),52,49,72,36,50,47,,56,55,20,19,7,9,0.4,0.6
2026-01-16T1800,3132A,119.5979,39.938,秦皇岛市,文明里,颗粒物(PM10),56,61,75,21,40,45,,57,57,36,27,10,13,0.3,0.4
2026-01-16T1800,4066A,119.7458,39.9952,秦皇岛市,南园路157号,颗粒物(PM10),56,61,77,30,40,42,,59,58,32,25,9,11,0.5,0.5
2026-01-16T1800,4067A,119.5131,39.8858,秦皇岛市,翠岛大街1号,颗粒物(PM10),52,54,79,14,39,62,,58,58,3,17,9,12,0.3,0.6
2026-01-16T1800,4198A,119.509013,39.825305,秦皇岛市,北戴河轮滑馆,颗粒物(PM10),51,52,69,29,44,66,,63,63,11,18,6,9,0.3,0.5
2026-01-16T1800,1310A,120.404,36.0625,青岛市,市南区东部子站,细颗粒物(PM2.5),100,136,197,75,96,48,,87,72,30,35,8,11,1.0,1
2026-01-16T1800,1311A,120.362344,36.10282,青岛市,四方区子站,细颗粒物(PM2.5),110,139,188,83,103,41,,88,72,18,20,3,3,1.1,1.1
2026-01-16T1800,1312A,120.294373,36.054183,青岛市,市南区西部子站,颗粒物(PM10),89,127,192,61,103,42,,82,68,31,51,6,10,1.3,1.5
2026-01-16T1800,1313A,120.4581,36.0858,青岛市,崂山区子站,细颗粒物(PM2.5),107,136,178,80,81,44,,84,77,35,35,9,11,1.0,0.8
2026-01-16T1800,1315A,120.3945,36.3083,青岛市,城阳区子站,颗粒物(PM10),78,105,185,54,67,52,,86,74,28,38,5,8,1.1,1.1
2026-01-16T1800,3642A,120.3454,36.0735,青岛市,市北区南部,颗粒物(PM10),117,183,204,73,94,39,,85,65,27,28,1,3,1.1,1.1
2026-01-16T1800,3643A,120.3897,36.18,青岛市,李沧区北部,细颗粒物(PM2.5),104,117,174,78,96,44,,78,71,29,34,8,10,1.1,1.1
2026-01-16T1800,4110A,120.5222,36.4089,青岛市,盟旺路653号,颗粒物(PM10),96,142,184,69,81,40,,82,62,25,33,2,5,0.7,1
2026-01-16T1800,4290A,120.196923,35.954556,青岛市,珠江路669号,细颗粒物(PM2.5),108,119,190,81,119,37,,80,63,42,33,9,11,1.0,1.2
2026-01-16T1800,4291A,120.0424,35.8656,青岛市,黄岛区人民政府广场,细颗粒物(PM2.5),79,105,187,58,107,45,,66,66,34,47,6,8,1.0,1.4
2026-01-16T1800,1703A,113.0218,23.7086,清远市,凤城街办,细颗粒物(PM2.5),84,84,90,62,63,174,,152,152,41,53,/,/,/,/
2026-01-16T1800,3025A,113.0479,23.6343,清远市,技师学院,臭氧1小时(O3_1h),67,72,96,39,54,173,,155,155,41,73,8,10,0.6,0.7
2026-01-16T1800,3318A,112.9898,23.7403,清远市,清新太和,臭氧1小时(O3_1h),65,75,85,43,55,172,,170,170,40,40,3,5,0.7,0.7
2026-01-16T1800,3455A,113.076,23.72,清远市,清城东城,臭氧1小时(O3_1h),65,68,79,38,49,172,,158,158,38,44,/,/,/,/
2026-01-16T1800,2661A,107.6325,35.7357,庆阳市,庆阳五中,颗粒物(PM10),53,56,81,21,30,96,,89,89,11,14,5,8,0.4,0.5
2026-01-16T1800,2662A,107.6361,35.7067,庆阳市,市环保局,颗粒物(PM10),54,57,78,19,25,101,,95,95,8,12,7,7,0.3,0.4
2026-01-16T1800,1916A,103.7897,25.5036,曲靖市,环境监测站,,31,24,30,7,15,97,,97,97,8,12,4,5,0.4,0.4
2026-01-16T1800,1917A,103.8013,25.5357,曲靖市,烟厂办公区,,31,20,33,17,18,98,,96,96,6,15,4,4,0.1,0.3
2026-01-16T1800,3376A,103.7926,25.4651,曲靖市,南苑二区,,32,24,21,6,14,101,,100,100,6,8,5,4,0.2,0.3
2026-01-16T1800,3377A,103.7442,25.5259,曲靖市,曲靖师范学院,,31,17,30,7,16,97,,96,96,5,13,2,4,0.2,0.4
2026-01-16T1800,1264A,118.8694,28.94,衢州市,环保大楼,颗粒物(PM10),55,60,89,36,60,76,,100,100,52,64,/,/,/,/
2026-01-16T1800,1266A,118.8622,28.9809,衢州市,衢州学院,,49,49,70,30,48,107,,104,104,28,60,7,7,0.6,0.6
2026-01-16T1800,4097A,118.9646,28.9832,衢州市,衢州三中,,,78,92,45,57,100,,102,102,37,60,,8,0.9,0.9
2026-01-16T1800,1611A,118.5818,24.9116,泉州市,涂山街,颗粒物(PM10),51,52,69,21,41,100,,100,100,20,36,4,4,0.5,0.7
2026-01-16T1800,1612A,118.597,24.8976,泉州市,津头埔,,48,48,68,24,42,96,,100,100,28,38,6,5,0.6,0.6
2026-01-16T1800,1613A,118.6669,24.9422,泉州市,万安,颗粒物(PM10),53,55,67,22,33,94,,99,99,21,34,5,4,0.6,0.7
2026-01-16T1800,4105A,118.6355,24.9148,泉州市,霞新路6号,,,37,61,25,37,82,,100,100,,43,/,/,0.5,0.6
2026-01-16T1800,2626A,88.8873,29.2723,日喀则市,日喀则监测站,,,6,34,3,21,87,,74,74,,22,,19,0.3,0.7
2026-01-16T1800,3726A,88.8775,29.2425,日喀则市,林业技术推广中心,,28,7,29,3,17,88,,74,74,2,10,9,11,0.2,0.5
2026-01-16T1800,1659A,119.4711,35.421,日照市,监测站,细颗粒物(PM2.5),83,114,221,61,134,55,,58,58,27,67,6,13,0.8,1.5
2026-01-16T1800,1660A,119.523,35.4216,日照市,市政府广场,细颗粒物(PM2.5),84,110,216,62,136,59,,65,65,27,57,8,14,0.6,1.1
2026-01-16T1800,1661A,119.5511,35.4113,日照市,港务局,细颗粒物(PM2.5),89,112,234,66,154,60,,58,58,25,58,6,10,0.7,1.3
2026-01-16T1800,3507A,119.5326,35.4627,日照市,职业技术学院,颗粒物(PM10),78,105,223,51,124,61,,68,68,29,57,6,11,0.9,1.5
2026-01-16T1800,3604A,119.3267,35.1043,日照市,岚山环保分局,细颗粒物(PM2.5),137,188,244,104,165,46,,70,66,38,54,36,24,2.7,2.2
2026-01-16T1800,1835A,111.1922,34.7752,三门峡市,市政府,颗粒物(PM10),65,79,104,39,53,79,,60,60,25,51,12,16,0.7,1.1
2026-01-16T1800,1836A,111.1588,34.794,三门峡市,开发区,颗粒物(PM10),80,110,126,35,51,71,,59,59,31,46,8,10,0.5,0.8
2026-01-16T1800,3039A,111.1911,34.7829,三门峡市,三门峡市第一小学,颗粒物(PM10),72,93,128,33,53,73,,56,56,26,52,14,15,0.6,1
2026-01-16T1800,3598A,111.1031,34.719,三门峡市,富达温泉假日酒店,颗粒物(PM10),78,106,135,46,61,66,,61,61,28,50,13,18,0.7,0.9
2026-01-16T1800,2324A,117.621,26.2626,三明市,三钢,颗粒物(PM10),56,61,53,35,42,104,,105,105,32,39,9,11,1.1,1.3
2026-01-16T1800,2325A,117.6352,26.2714,三明市,三明二中,颗粒物(PM10),55,60,47,36,37,107,,101,101,20,35,5,7,1.1,1.1
2026-01-16T1800,2326A,117.6028,26.2377,三明市,三元区政府,细颗粒物(PM2.5),57,58,58,40,40,76,,97,97,56,42,10,11,1.7,1.3
2026-01-16T1800,1877A,109.4962,18.2682,三亚市,河西子站,,36,36,36,17,16,72,,86,86,22,13,3,3,0.4,0.3
2026-01-16T1800,3540A,109.7348,18.3443,三亚市,君悦子站,颗粒物(PM10),57,64,34,13,14,88,,89,89,6,12,5,5,0.3,0.4
2026-01-16T1800,4135A,109.1714,18.3739,三亚市,城东小学站,,40,40,32,12,16,80,,84,84,9,10,/,/,/,/
2026-01-16T1800,2624A,91.7592,29.234,山南市,山南监测站,,30,9,22,3,12,95,,76,76,4,11,4,5,0.3,0.5
2026-01-16T1800,2625A,91.7701,29.2436,山南市,山南人民医院,,29,7,22,3,12,92,,73,73,3,14,8,8,0.3,0.5
2026-01-16T1800,1674A,116.6795,23.3666,汕头市,金平子站,,47,47,59,18,41,116,,116,116,22,45,5,9,0.7,0.9
2026-01-16T1800,1675A,116.7248,23.3632,汕头市,龙湖子站,,48,48,62,21,37,112,,112,112,17,37,10,14,/,/
2026-01-16T1800,1676A,116.7257,23.2774,汕头市,濠江子站,,37,33,54,20,37,117,,114,114,18,36,8,11,/,/
2026-01-16T1800,1677A,116.7518,23.4712,汕头市,澄海子站,颗粒物(PM10),52,53,64,16,40,120,,118,118,20,32,9,10,0.6,0.7
2026-01-16T1800,1678A,116.6088,23.2539,汕头市,潮阳子站,,38,38,55,15,33,115,,117,117,14,27,7,10,0.6,0.9
2026-01-16T1800,3444A,116.4539,23.2684,汕头市,潮南峡山,,37,34,70,17,49,116,,128,128,16,30,11,11,0.5,0.8
2026-01-16T1800,3624A,116.4069,23.2533,汕头市,潮南子站,,41,41,71,19,39,108,,115,115,16,31,7,9,/,/
2026-01-16T1800,1693A,115.3653,22.7751,汕尾市,市环保局,,44,44,50,18,41,126,,122,122,16,22,8,7,0.6,0.8
2026-01-16T1800,1695A,115.362,22.7926,汕尾市,新城中学,,40,31,49,20,34,126,,128,128,13,21,6,5,0.4,0.6
2026-01-16T1800,2645A,109.9155,33.8714,商洛市,监测站,颗粒物(PM10),83,116,78,59,38,21,,67,66,78,36,8,7,1.0,0.8
2026-01-16T1800,3045A,109.9647,33.8486,商洛市,商州区中学,颗粒物(PM10),101,151,80,34,32,37,,70,70,,37,7,9,0.7,0.7
2026-01-16T1800,2408A,115.6701,34.4283,商丘市,环境监测站,细颗粒物(PM2.5),153,189,145,117,87,45,,65,44,24,28,1,4,0.7,0.6
2026-01-16T1800,2409A,115.6458,34.4047,商丘市,粮食局,细颗粒物(PM2.5),132,174,137,100,79,42,,66,42,21,23,2,4,0.9,0.7
2026-01-16T1800,3171A,115.6069,34.4465,商丘市,梁园区档案局,细颗粒物(PM2.5),145,177,147,111,85,44,,67,43,24,25,4,6,0.7,0.6
2026-01-16T1800,4119A,115.6701,34.3767,商丘市,北海东路185号,细颗粒物(PM2.5),142,190,163,108,82,45,,46,46,19,31,2,4,0.9,0.7
2026-01-16T1800,4120A,115.6172,34.3704,商丘市,中山大街3号,细颗粒物(PM2.5),139,201,167,106,83,47,,51,51,22,32,4,6,0.5,0.4
2026-01-16T1800,1141A,121.401,31.2382,上海市,普陀,,,,156,,134,133,,135,135,,63,,10,0.9,1.1
