timepoint,stationcode,longitude,latitude,area,positionname,primarypollutant,aqi,pm10,pm10_24h,pm2_5,pm2_5_24h,o3,o3_24h,o3_8h,o3_8h_24h,no2,no2_24h,so2,so2_24h,co,co_24h
2026-01-16T0100,2568A,102.2503,31.8896,阿坝藏族羌族自治州,马师校,,33,,32,23,21,37,,,,11,16,4,4,0.5,0.5
2026-01-16T0100,3994A,102.2174,31.9016,阿坝藏族羌族自治州,马尔康中学西区,,33,,17,23,11,39,,,,12,14,6,5,0.5,0.5
2026-01-16T0100,2695A,80.2899,41.1684,阿克苏地区,电视台,细颗粒物(PM2.5),82,90,115,60,54,72,,,,30,38,3,4,1.1,1.4
2026-01-16T0100,2696A,80.2592,41.1541,阿克苏地区,艺术中心,细颗粒物(PM2.5),97,110,114,72,61,83,,,,24,34,6,6,0.8,0.9
2026-01-16T0100,2205A,105.699,38.8409,阿拉善盟,蒙二幼,,48,48,94,16,25,85,,,,3,7,9,11,0.5,0.5
2026-01-16T0100,2206A,105.7198,38.8508,阿拉善盟,环保局新楼,,50,50,88,16,24,81,,,,4,7,8,10,0.5,0.5
2026-01-16T0100,2708A,88.1266,47.8515,阿勒泰地区,市站,,44,44,45,23,30,39,,,,29,39,6,8,0.7,0.7
2026-01-16T0100,4166A,88.1198,47.7931,阿勒泰地区,阿勒泰路33号,,40,39,41,28,31,50,,,,27,31,8,7,0.6,0.6
2026-01-16T0100,2630A,80.1171,32.4999,阿里地区,阿里监测站,,12,6,4,3,4,19,,,,24,14,9,9,0.9,0.6
2026-01-16T0100,3192A,80.0906,32.5029,阿里地区,阿里藏医院,,19,17,16,13,10,57,,,,9,11,13,14,0.6,0.7
2026-01-16T0100,2644A,109.0088,32.6974,安康市,汉滨区检察院,细颗粒物(PM2.5),70,74,73,51,54,7,,,,35,28,4,4,0.7,0.8
2026-01-16T0100,4054A,109.0324,32.6913,安康市,市邮政管理局,细颗粒物(PM2.5),82,91,90,60,62,4,,,,41,36,8,6,0.8,1.1
2026-01-16T0100,2291A,117.0806,30.5181,安庆市,环科院,细颗粒物(PM2.5),127,126,99,96,71,0,,,,104,78,11,10,1.2,0.8
2026-01-16T0100,2292A,117.0331,30.5118,安庆市,马山宾馆,细颗粒物(PM2.5),119,130,97,90,74,6,,,,101,75,13,10,1.1,0.9
2026-01-16T0100,2294A,116.9897,30.6146,安庆市,安庆大学,细颗粒物(PM2.5),105,95,82,79,61,22,,,,45,51,4,8,0.7,0.7
2026-01-16T0100,3173A,117.0598,30.5351,安庆市,市人大,细颗粒物(PM2.5),120,138,98,91,71,1,,,,97,74,11,11,1.2,0.8
2026-01-16T0100,3123A,105.9408,26.2431,安顺市,凤凰山,细颗粒物(PM2.5),57,50,72,40,58,89,,,,16,29,18,30,0.6,0.7
2026-01-16T0100,3124A,105.9443,26.2567,安顺市,金钟山,细颗粒物(PM2.5),57,49,64,40,58,85,,,,11,19,15,31,0.6,0.7
2026-01-16T0100,3125A,105.8983,26.248,安顺市,娄家坡,细颗粒物(PM2.5),57,50,64,40,57,86,,,,11,16,10,17,0.7,0.8
2026-01-16T0100,1819A,114.3552,36.1017,安阳市,红庙街,颗粒物(PM10),82,114,130,56,54,24,,,,47,38,4,5,0.5,1
2026-01-16T0100,1820A,114.361,36.0681,安阳市,银杏小区,细颗粒物(PM2.5),85,102,120,63,56,25,,,,45,36,5,5,0.5,0.8
2026-01-16T0100,3141A,114.3921,36.0879,安阳市,信访局,细颗粒物(PM2.5),97,102,127,72,65,30,,,,45,38,7,7,0.7,1
2026-01-16T0100,3669A,114.4706,36.0634,安阳市,左辅环卫站,,,114,148,73,106,29,,,,,38,5,6,0.5,0.8
2026-01-16T0100,4117A,114.2918,36.0769,安阳市,钢三路198号,颗粒物(PM10),91,132,122,64,43,30,,,,38,32,7,5,0.6,0.6
2026-01-16T0100,1748A,123.0441,41.1201,鞍山市,深沟寺,细颗粒物(PM2.5),72,65,76,52,59,28,,,,39,30,9,7,1.2,1.2
2026-01-16T0100,1749A,123.011,41.0931,鞍山市,太阳城,细颗粒物(PM2.5),72,64,87,52,60,35,,,,37,32,13,13,1.2,1.4
2026-01-16T0100,1750A,123.0483,41.1445,鞍山市,太平,细颗粒物(PM2.5),72,68,82,52,56,26,,,,43,33,13,10,1.0,1.1
2026-01-16T0100,1751A,122.964,41.0968,鞍山市,铁西三道街,细颗粒物(PM2.5),72,68,98,52,68,24,,,,49,46,25,17,0.8,1.4
2026-01-16T0100,1753A,123.0219,41.0822,鞍山市,明达新区,细颗粒物(PM2.5),72,62,81,52,62,29,,,,34,30,12,12,0.9,1
2026-01-16T0100,4201A,122.944647,41.082639,鞍山市,兴盛南路290号,细颗粒物(PM2.5),79,75,102,58,71,12,,,,57,46,27,15,1.6,1.5
2026-01-16T0100,2195A,107.4206,40.7609,巴彦淖尔市,附二中,,41,41,91,26,32,53,,,,4,7,4,3,0.4,0.4
2026-01-16T0100,2196A,107.37,40.7372,巴彦淖尔市,市环保大楼,,33,33,89,12,28,60,,,,5,9,4,4,0.4,0.4
2026-01-16T0100,1956A,86.1476,41.7529,巴音郭楞蒙古自治州,孔雀公园,颗粒物(PM10),65,79,96,37,41,58,,,,33,45,9,9,0.6,0.8
2026-01-16T0100,1957A,86.1971,41.7166,巴音郭楞蒙古自治州,棉纺厂,颗粒物(PM10),95,139,124,36,37,52,,,,18,33,/,/,/,/
2026-01-16T0100,1958A,86.236,41.7172,巴音郭楞蒙古自治州,经济开发区,颗粒物(PM10),64,78,83,25,27,65,,,,14,23,6,6,0.5,0.5
2026-01-16T0100,3181A,106.776805,31.852614,巴中市,市五中,细颗粒物(PM2.5),129,130,110,98,81,9,,,,40,28,6,6,1.0,0.9
2026-01-16T0100,3183A,106.7419,31.8654,巴中市,圣泉水务公司,细颗粒物(PM2.5),92,88,86,68,66,19,,,,37,36,5,5,0.8,0.7
2026-01-16T0100,3616A,106.7617,31.8343,巴中市,市中心医院,细颗粒物(PM2.5),137,132,112,104,85,1,,,,43,37,6,7,1.1,1
2026-01-16T0100,2235A,122.7909,45.608,白城市,洮北区环保局,细颗粒物(PM2.5),97,,46,72,40,12,,,,48,25,6,7,0.8,0.5
2026-01-16T0100,2236A,122.8741,45.5725,白城市,市环保局,颗粒物(PM10),54,58,39,37,28,29,,,,26,26,9,8,0.5,0.4
2026-01-16T0100,2231A,126.4219,41.9172,白山市,喜丰,颗粒物(PM10),51,52,55,32,36,49,,,,24,31,9,20,0.9,1
2026-01-16T0100,2232A,126.4082,41.9416,白山市,环保局,细颗粒物(PM2.5),65,,42,47,42,48,,,,16,33,9,14,0.7,1
2026-01-16T0100,2647A,104.1727,36.5448,白银市,第三小学,颗粒物(PM10),87,123,116,32,36,68,,,,16,32,2,35,0.3,0.6
2026-01-16T0100,2648A,104.1467,36.5482,白银市,动力公司,颗粒物(PM10),79,108,108,30,34,79,,,,8,22,4,20,0.5,0.7
2026-01-16T0100,2512A,106.6102,23.901,百色市,市监测站,细颗粒物(PM2.5),57,60,62,40,49,23,,,,22,18,7,7,0.7,0.8
2026-01-16T0100,2513A,106.6524,23.8842,百色市,市中心血站,细颗粒物(PM2.5),90,104,80,67,63,4,,,,49,33,9,9,1.1,1
2026-01-16T0100,4133A,106.6273,23.8798,百色市,龙景西路,颗粒物(PM10),75,100,86,49,60,0,,,,38,26,7,7,0.7,0.7
2026-01-16T0100,2270A,117.396,32.9389,蚌埠市,工人疗养院,颗粒物(PM10),90,130,144,48,66,94,,,,17,43,7,8,0.6,0.7
2026-01-16T0100,2271A,117.3606,32.9428,蚌埠市,百货大楼,"颗粒物(PM10),细颗粒物(PM2.5)",83,116,138,61,70,87,,,,20,48,7,9,0.4,0.6
2026-01-16T0100,2273A,117.4183,32.8909,蚌埠市,蚌埠学院,颗粒物(PM10),93,136,135,59,70,77,,,,22,42,7,8,0.4,0.6
2026-01-16T0100,2274A,117.3534,32.9672,蚌埠市,淮上区政府,颗粒物(PM10),85,119,135,50,70,97,,,,16,42,4,5,0.3,0.6
2026-01-16T0100,2275A,117.3143,32.8977,蚌埠市,高新区,颗粒物(PM10),96,141,135,55,75,79,,,,17,42,8,10,0.1,0.4
2026-01-16T0100,3715A,117.3091,32.9314,蚌埠市,蚌埠田家炳中学,细颗粒物(PM2.5),85,118,144,63,79,88,,,,17,46,6,9,0.4,0.6
2026-01-16T0100,1585A,109.8761,40.6533,包头市,市环境监测站,,33,33,132,6,33,67,,,,8,40,4,13,0.1,1
2026-01-16T0100,1587A,109.9992,40.5843,包头市,包头八中,颗粒物(PM10),51,52,163,14,57,66,,,,7,41,5,18,0.4,1.4
2026-01-16T0100,1589A,109.8641,40.6288,包头市,惠龙物流,,23,23,128,8,43,69,,,,6,43,7,22,0.3,1.6
2026-01-16T0100,1590A,110.0376,40.5546,包头市,东河鸿龙湾,,40,40,136,12,33,62,,,,12,42,8,15,0.4,1.2
2026-01-16T0100,3283A,109.9154,40.5684,包头市,滨河大厦,,26,26,129,3,38,64,,,,3,37,6,15,0.4,1
2026-01-16T0100,3419A,109.9449,40.6259,包头市,包头市委党校,,49,49,127,6,39,63,,,,9,40,9,16,0.5,1.5
2026-01-16T0100,3683A,109.8332,40.6577,包头市,昆区政府,,39,39,131,6,42,62,,,,8,50,5,18,0.4,1.5
2026-01-16T0100,1931A,107.0802,34.3129,宝鸡市,竹园沟,颗粒物(PM10),65,80,98,32,36,40,,,,22,25,6,7,0.2,0.3
2026-01-16T0100,1933A,107.1429,34.3549,宝鸡市,监测站,颗粒物(PM10),82,114,120,50,41,17,,,,37,36,4,6,0.6,0.7
2026-01-16T0100,1934A,107.1172,34.3759,宝鸡市,技工学校,颗粒物(PM10),81,112,128,53,48,27,,,,28,34,6,9,0.8,0.8
2026-01-16T0100,1936A,107.2025,34.3518,宝鸡市,文理学院,细颗粒物(PM2.5),97,123,116,72,46,20,,,,37,37,5,6,0.7,0.6
2026-01-16T0100,1937A,107.2396,34.3626,宝鸡市,三迪小学,细颗粒物(PM2.5),98,104,126,73,54,20,,,,39,45,5,5,0.6,0.7
2026-01-16T0100,4155A,107.1721,34.3558,宝鸡市,滨河北路,颗粒物(PM10),95,139,129,61,44,18,,,,35,37,6,6,0.6,0.6
2026-01-16T0100,4308A,107.3898,34.3601,宝鸡市,陈仓区北开路21号,颗粒物(PM10),113,176,133,78,60,31,,,,46,42,53,32,0.9,0.7
2026-01-16T0100,1051A,115.4803,38.8568,保定市,游泳馆,细颗粒物(PM2.5),123,142,166,93,112,19,,,,32,65,5,10,0.8,1
2026-01-16T0100,1052A,115.509,38.8895,保定市,华电二区,细颗粒物(PM2.5),140,129,151,107,118,18,,,,36,66,4,6,0.9,1
2026-01-16T0100,1053A,115.4588,38.9037,保定市,接待中心,细颗粒物(PM2.5),122,144,163,92,111,18,,,,30,61,3,4,1.1,1
2026-01-16T0100,1054A,115.4484,38.8344,保定市,地表水厂,细颗粒物(PM2.5),122,166,190,92,115,18,,,,34,64,5,8,0.9,0.9
2026-01-16T0100,3581A,115.3136,38.9511,保定市,满城区生态环境分局,细颗粒物(PM2.5),132,168,222,100,124,3,,,,68,65,4,6,1.3,1.2
2026-01-16T0100,3582A,115.4709,38.7628,保定市,清苑区第二中学,细颗粒物(PM2.5),123,172,200,93,109,16,,,,38,65,2,7,1.0,1
2026-01-16T0100,3583A,115.6231,39.0223,保定市,徐水物探局,细颗粒物(PM2.5),132,166,213,100,115,14,,,,30,60,5,8,1.0,1.1
2026-01-16T0100,4004A,115.4199,38.8665,保定市,双鹰农机,颗粒物(PM10),127,203,211,95,103,24,,,,35,63,6,10,1.0,1
2026-01-16T0100,4034A,115.515,38.8589,保定市,植保所站,细颗粒物(PM2.5),135,137,162,103,117,14,,,,38,68,3,5,1.0,1.1
2026-01-16T0100,2594A,99.1589,25.1137,保山市,市环境监测站,,33,,25,23,21,56,,,,6,9,4,4,0.3,0.3
2026-01-16T0100,2595A,99.1616,25.1381,保山市,市环保局,,46,,30,32,22,67,,,,3,6,3,4,0.4,0.4
2026-01-16T0100,1867A,109.1435,21.4085,北海市,海滩公园,细颗粒物(PM2.5),53,51,60,37,36,79,,,,13,14,6,11,0.8,0.9
2026-01-16T0100,1868A,109.0983,21.466,北海市,新市环保局,细颗粒物(PM2.5),58,48,54,41,38,82,,,,21,18,4,8,0.6,0.6
2026-01-16T0100,1869A,109.1775,21.5232,北海市,北海工业园,细颗粒物(PM2.5),62,58,65,44,38,61,,,,20,18,6,11,0.8,0.8
2026-01-16T0100,3400A,109.1844,21.4396,北海市,龙潭自来水厂,细颗粒物(PM2.5),68,60,51,49,36,54,,,,18,12,12,15,0.8,0.6
2026-01-16T0100,1001A,116.3611,39.8786,北京市,万寿西宫,"颗粒物(PM10),细颗粒物(PM2.5)",87,124,158,64,90,37,,,,26,65,3,3,0.7,0.9
2026-01-16T0100,1003A,116.4174,39.9289,北京市,东四,细颗粒物(PM2.5),89,125,152,66,81,31,,,,34,67,6,6,0.9,1.1
2026-01-16T0100,1004A,116.4073,39.8858,北京市,天坛,细颗粒物(PM2.5),90,120,144,67,84,36,,,,22,58,2,3,0.8,1
2026-01-16T0100,1005A,116.4622,39.9364,北京市,农展馆,细颗粒物(PM2.5),90,121,140,67,81,39,,,,20,61,4,5,0.8,1.2
2026-01-16T0100,1006A,116.3399,39.9293,北京市,官园,颗粒物(PM10),87,123,155,62,87,38,,,,22,62,6,6,0.8,1.1
2026-01-16T0100,1007A,116.2879,39.9613,北京市,海淀万柳,细颗粒物(PM2.5),84,113,130,62,76,38,,,,24,75,4,4,0.8,1.2
2026-01-16T0100,1008A,116.6635,40.1349,北京市,顺义新城,颗粒物(PM10),94,138,128,69,70,33,,,,29,46,6,4,0.9,0.8
2026-01-16T0100,1009A,116.6275,40.327,北京市,怀柔镇,颗粒物(PM10),93,136,115,68,60,34,,,,34,48,6,4,1.1,0.8
2026-01-16T0100,1010A,116.2295,40.217,北京市,昌平镇,细颗粒物(PM2.5),98,143,122,73,68,30,,,,32,56,2,4,1.0,1.1
2026-01-16T0100,1011A,116.3968,39.982,北京市,奥体中心,细颗粒物(PM2.5),89,118,132,66,77,39,,,,33,65,4,4,1.0,1.3
2026-01-16T0100,3418A,116.8336,40.4095,北京市,密云新城,颗粒物(PM10),107,163,124,79,59,22,,,,38,45,7,6,1.1,0.8
2026-01-16T0100,3671A,116.0879,39.9725,北京市,门头沟三家店,颗粒物(PM10),111,171,138,83,65,2,,,,64,63,3,4,1.2,0.9
2026-01-16T0100,3672A,116.1507,39.8246,北京市,丰台云岗,细颗粒物(PM2.5),110,145,148,83,83,27,,,,34,64,3,3,1.1,1
2026-01-16T0100,3674A,115.9578,39.7602,北京市,房山燕山,细颗粒物(PM2.5),100,145,156,75,73,36,,,,26,58,4,4,0.7,0.8
2026-01-16T0100,3675A,116.4669,39.7734,北京市,大兴旧宫,颗粒物(PM10),89,127,151,62,81,36,,,,23,50,3,4,0.8,1
2026-01-16T0100,3694A,115.9859,40.4562,北京市,延庆石河营,细颗粒物(PM2.5),119,179,173,90,52,5,,,,73,35,3,3,1.2,0.7
2026-01-16T0100,3695A,116.6151,40.3052,北京市,怀柔新城,细颗粒物(PM2.5),99,143,119,74,64,30,,,,30,36,6,5,1.0,0.8
2026-01-16T0100,3696A,116.2542,39.8764,北京市,丰台小屯,细颗粒物(PM2.5),94,135,156,70,86,30,,,,32,72,3,4,0.9,1.1
2026-01-16T0100,3697A,116.8399,40.3843,北京市,密云镇,细颗粒物(PM2.5),109,149,117,82,61,27,,,,30,46,2,2,1.0,0.8
2026-01-16T0100,4057A,115.9423,40.4431,北京市,延庆百泉,细颗粒物(PM2.5),117,181,178,88,50,2,,,,72,34,1,3,1.0,0.5
2026-01-16T0100,4058A,116.6598,39.9164,北京市,通州新华,颗粒物(PM10),87,124,142,59,69,29,,,,33,64,3,3,0.9,0.9
2026-01-16T0100,4182A,116.1942,39.9158,北京市,石景山八角,颗粒物(PM10),95,140,146,69,81,27,,,,28,67,3,2,0.9,1
2026-01-16T0100,4194A,117.078628,40.151726,北京市,平谷新城,细颗粒物(PM2.5),122,189,129,92,68,15,,,,37,39,2,3,1.2,0.9
2026-01-16T0100,1761A,123.8274146,41.31234549,本溪市,大峪,细颗粒物(PM2.5),79,82,82,58,58,35,,,,31,38,8,9,0.9,1
2026-01-16T0100,1763A,123.7169,41.3094,本溪市,彩屯,细颗粒物(PM2.5),98,86,74,73,66,31,,,,36,32,7,8,1.2,1.3
2026-01-16T0100,1764A,123.7672166,41.28649327,本溪市,东明,细颗粒物(PM2.5),90,69,72,67,67,20,,,,43,35,3,7,1.2,1.5
2026-01-16T0100,1765A,123.799345,41.266614,本溪市,新立屯,细颗粒物(PM2.5),84,70,65,62,58,26,,,,38,33,9,9,1.0,1.1
2026-01-16T0100,1766A,123.829144,41.336777,本溪市,威宁,细颗粒物(PM2.5),78,72,75,57,57,23,,,,41,39,6,7,0.9,1.1
2026-01-16T0100,2587A,105.287,27.3133,毕节市,八中,细颗粒物(PM2.5),128,122,100,97,86,59,,,,16,27,10,13,0.8,1.1
2026-01-16T0100,2588A,105.3079,27.2987,毕节市,师专,细颗粒物(PM2.5),142,128,92,108,74,62,,,,27,29,9,11,1.1,0.9
2026-01-16T0100,4263A,105.3688,27.3598,毕节市,工业大道,细颗粒物(PM2.5),140,133,109,107,83,61,,,,21,26,11,13,/,/
2026-01-16T0100,1629A,117.9961,37.3604,滨州市,第二水厂,颗粒物(PM10),128,205,235,95,106,1,,,,66,60,14,19,1.2,1.2
2026-01-16T0100,1630A,117.9789,37.3931,滨州市,北中新校,细颗粒物(PM2.5),128,190,201,97,104,6,,,,61,62,9,14,1.0,1
2026-01-16T0100,3514A,117.9379,37.3959,滨州市,中海酒店,"颗粒物(PM10),细颗粒物(PM2.5)",122,193,221,92,107,11,,,,59,53,11,15,1.0,1
2026-01-16T0100,3515A,117.9381509,37.35547456,滨州市,开发区一中,颗粒物(PM10),141,232,244,97,112,3,,,,67,56,29,24,1.0,1
2026-01-16T0100,3516A,118.0914,37.6938,滨州市,金海六路,细颗粒物(PM2.5),89,107,212,66,100,27,,,,27,49,3,10,0.8,1.1
2026-01-16T0100,4028A,117.9955,37.3752,滨州市,滨州市西街道办事处,细颗粒物(PM2.5),140,205,232,107,113,5,,,,53,50,13,16,1.0,1.1
2026-01-16T0100,2311A,115.8071,33.8399,亳州市,污水处理厂,颗粒物(PM10),85,119,121,57,63,82,,,,24,31,5,5,0.3,0.4
2026-01-16T0100,2312A,115.7789,33.8519,亳州市,三国揽胜宫,颗粒物(PM10),92,133,126,64,70,80,,,,25,29,4,4,0.5,0.6
2026-01-16T0100,3332A,115.7631,33.803,亳州市,亳州学院,细颗粒物(PM2.5),88,115,118,65,69,78,,,,23,23,6,4,0.4,0.5
2026-01-16T0100,2693A,82.0482,44.8553,博尔塔拉蒙古自治州,市党校,,42,42,57,13,24,64,,,,14,22,3,3,0.2,0.4
2026-01-16T0100,2694A,82.0805,44.8966,博尔塔拉蒙古自治州,市环保局,颗粒物(PM10),51,52,55,33,27,55,,,,12,14,5,6,0.4,0.6
2026-01-16T0100,1071A,116.8733,38.2922,沧州市,沧县城建局,细颗粒物(PM2.5),95,105,171,71,97,34,,,,25,56,1,7,0.8,0.9
2026-01-16T0100,1072A,116.8462,38.3189,沧州市,电视转播站,细颗粒物(PM2.5),110,115,169,83,102,32,,,,25,54,2,5,0.7,0.9
2026-01-16T0100,1073A,116.8588,38.3161,沧州市,市环保局,细颗粒物(PM2.5),112,117,177,84,102,32,,,,21,48,4,8,0.7,0.9
2026-01-16T0100,3324A,116.8011,38.294,沧州市,河北水利电力学院,细颗粒物(PM2.5),92,110,200,68,91,31,,,,25,55,3,8,0.7,0.9
2026-01-16T0100,2622A,97.1813,31.1289,昌都市,昌都监测站,颗粒物(PM10),51,51,49,26,23,19,,,,26,22,1,3,1.0,0.8
2026-01-16T0100,3719A,97.1707,31.1428,昌都市,昌都会议中心,,19,17,22,13,19,46,,,,2,5,1,1,0.4,0.4
2026-01-16T0100,2692A,87.2722,44.0298,昌吉回族自治州,新区政务中心,,39,39,39,22,23,30,,,,40,19,8,9,0.6,0.5
2026-01-16T0100,3613A,87.3069,44.0093,昌吉回族自治州,亚心广场,颗粒物(PM10),56,61,48,19,20,39,,,,26,10,8,8,0.6,0.6
2026-01-16T0100,4164A,87.2057,43.9289,昌吉回族自治州,财政所,颗粒物(PM10),54,57,62,30,40,24,,,,31,23,5,6,0.5,0.5
2026-01-16T0100,1120A,125.2874,43.9024,长春市,客车厂,细颗粒物(PM2.5),53,,38,37,43,21,,,,45,32,15,12,0.4,0.5
2026-01-16T0100,1121A,125.2943,43.8508,长春市,邮电学院,,48,,40,33,37,42,,,,19,25,10,12,0.5,0.7
2026-01-16T0100,1122A,125.3648,43.8745,长春市,劳动公园,,48,42,46,33,35,32,,,,32,27,11,11,0.5,0.6
2026-01-16T0100,1123A,125.3233,43.8781,长春市,园林处,,45,32,38,31,36,44,,,,16,23,11,11,0.4,0.6
2026-01-16T0100,1124A,125.4604,43.7904,长春市,净月潭,细颗粒物(PM2.5),57,52,42,40,32,23,,,,28,23,5,7,0.6,0.5
2026-01-16T0100,1126A,125.38,43.8422,长春市,经开区环卫处,细颗粒物(PM2.5),75,,42,55,39,4,,,,64,30,7,8,0.7,0.5
2026-01-16T0100,1127A,125.234,43.7761,长春市,高新区管委会,细颗粒物(PM2.5),79,,39,58,38,11,,,,56,35,7,11,0.7,0.5
2026-01-16T0100,1128A,125.1695,43.83,长春市,岱山公园,,46,34,47,32,44,18,,,,45,45,11,10,0.6,0.7
2026-01-16T0100,4281A,125.334645,43.916281,长春市,北亚泰大街1068号,细颗粒物(PM2.5),64,,43,46,42,31,,,,31,28,9,10,0.6,0.7
2026-01-16T0100,1335A,113.082,28.2421,长沙市,经开区环保局,细颗粒物(PM2.5),135,162,106,103,80,1,,,,96,53,25,11,1.0,0.7
2026-01-16T0100,1336A,112.8873,28.2202,长沙市,高开区环保局,细颗粒物(PM2.5),169,183,106,128,90,0,,,,100,40,6,8,1.9,0.8
2026-01-16T0100,1337A,113.0785,28.2012,长沙市,马坡岭,细颗粒物(PM2.5),148,208,113,113,79,2,,,,101,53,11,8,1.3,0.8
2026-01-16T0100,1338A,112.9448,28.1894,长沙市,湖南师范大学,细颗粒物(PM2.5),94,94,92,70,62,15,,,,88,32,6,8,1.0,0.7
2026-01-16T0100,1339A,113.0177,28.1322,长沙市,雨花区环保局,细颗粒物(PM2.5),99,131,94,74,65,4,,,,95,50,10,10,0.9,0.8
2026-01-16T0100,1340A,112.9795,28.2593,长沙市,伍家岭,细颗粒物(PM2.5),155,200,125,118,85,1,,,,82,57,7,9,1.1,0.8
2026-01-16T0100,1341A,113.002,28.1944,长沙市,火车新站,细颗粒物(PM2.5),134,169,112,102,78,8,,,,117,55,12,12,1.5,1
2026-01-16T0100,1342A,112.9846,28.1177,长沙市,天心区环保局,细颗粒物(PM2.5),103,131,92,77,67,4,,,,110,48,8,8,1.0,0.8
2026-01-16T0100,1343A,112.8906,28.1307,长沙市,湖南中医药大学,细颗粒物(PM2.5),110,145,101,83,70,3,,,,79,49,7,8,1.0,0.8
2026-01-16T0100,1727A,113.1146,36.1547,长治市,清华站,,47,47,69,14,21,42,,,,33,23,17,12,0.5,0.5
2026-01-16T0100,1730A,113.0887,36.2126,长治市,审计局,颗粒物(PM10),51,51,64,19,23,27,,,,42,21,10,10,0.6,0.6
2026-01-16T0100,1731A,113.0845,36.1856,长治市,长治八中,颗粒物(PM10),58,66,89,26,29,28,,,,35,19,12,10,0.6,0.6
2026-01-16T0100,2845A,113.1561,36.1912,长治市,德盛苑,,39,39,61,19,20,80,,,,8,7,10,9,0.4,0.5
2026-01-16T0100,3568A,113.0603,36.0464,长治市,向阳小学,颗粒物(PM10),56,62,86,25,25,68,,,,20,14,16,12,0.5,0.4
2026-01-16T0100,3569A,112.8788,36.315,长治市,屯留一中,颗粒物(PM10),55,60,79,23,32,1,,,,57,34,29,15,0.9,0.9
2026-01-16T0100,4189A,113.113092,36.199482,长治市,英华南巷50号,,48,48,76,19,22,45,,,,25,19,8,8,0.7,0.7
2026-01-16T0100,4190A,113.23666,36.33435,长治市,学府街1号,颗粒物(PM10),55,60,78,22,31,3,,,,72,31,11,10,0.7,1
2026-01-16T0100,1854A,111.696,28.9725,常德市,市二中,细颗粒物(PM2.5),156,148,121,119,91,68,,,,26,24,9,7,1.0,1
2026-01-16T0100,3138A,111.7152,29.0288,常德市,武陵区永安,细颗粒物(PM2.5),125,134,132,95,97,89,,,,18,20,8,7,0.8,1
2026-01-16T0100,3139A,111.6891,28.9881,常德市,鼎城区玉霞,细颗粒物(PM2.5),142,144,119,108,98,55,,,,32,28,10,9,0.7,0.7
2026-01-16T0100,3140A,111.6651,29.0526,常德市,武陵区长庚,细颗粒物(PM2.5),130,119,128,99,96,50,,,,38,26,7,7,0.9,0.9
2026-01-16T0100,1196A,119.9524,31.7586,常州市,市监测站,细颗粒物(PM2.5),192,237,132,144,86,16,,,,117,78,9,9,1.5,1.2
2026-01-16T0100,1200A,119.9351,31.703,常州市,武进监测站,细颗粒物(PM2.5),190,231,135,143,90,3,,,,136,77,17,16,1.0,0.7
2026-01-16T0100,3002A,119.9701,31.813,常州市,行政中心,细颗粒物(PM2.5),186,189,132,140,84,53,,,,79,77,10,11,1.0,0.9
2026-01-16T0100,3003A,120.0434,31.7726,常州市,经开区,细颗粒物(PM2.5),193,279,149,145,84,22,,,,103,80,11,16,1.1,0.8
2026-01-16T0100,3010A,119.8919,31.7892,常州市,钟楼,细颗粒物(PM2.5),192,217,127,144,82,36,,,,96,70,12,11,1.3,0.8
2026-01-16T0100,3429A,119.8595,31.706,常州市,武进经发区,细颗粒物(PM2.5),203,217,135,153,95,9,,,,143,82,8,7,1.4,1.1
2026-01-16T0100,3430A,119.5812,31.7256,常州市,金坛城区,细颗粒物(PM2.5),144,,64,110,86,15,,,,94,51,15,12,1.2,1
2026-01-16T0100,4089A,119.9551,31.863,常州市,崇义南街5-H号,细颗粒物(PM2.5),218,190,134,168,94,48,,,,77,84,10,13,1.4,1.1
2026-01-16T0100,2220A,120.4318,41.588,朝阳市,西梁,,30,26,65,21,38,57,,,,12,18,9,11,0.5,0.8
2026-01-16T0100,2221A,120.452,41.565,朝阳市,河畔小区,,23,,52,16,36,60,,,,11,18,10,11,0.5,0.8
2026-01-16T0100,2222A,120.4176,41.5648,朝阳市,八里堡,,29,23,56,20,35,57,,,,15,23,8,9,0.5,0.8
2026-01-16T0100,3026A,116.6179,23.6608,潮州市,市政府,细颗粒物(PM2.5),92,130,86,68,50,19,,,,63,34,27,15,0.8,0.6
2026-01-16T0100,4036A,116.646,23.676,潮州市,金山,细颗粒物(PM2.5),65,53,64,47,43,45,,,,21,21,3,6,0.5,0.5
2026-01-16T0100,2473A,113.0116,25.8228,郴州市,市职中,细颗粒物(PM2.5),82,82,71,60,49,2,,,,58,38,5,7,0.7,0.8
2026-01-16T0100,2475A,113.0381,25.8074,郴州市,市审计局,细颗粒物(PM2.5),90,92,84,67,54,6,,,,54,42,2,4,/,/
2026-01-16T0100,2476A,113.0348,25.7757,郴州市,市环保局,,,96,73,56,49,18,,,,64,40,,6,0.6,0.5
2026-01-16T0100,4252A,113.0138,25.8011,郴州市,好美居路49号,,,89,65,60,52,,,,,78,50,6,6,/,/
2026-01-16T0100,1431A,103.9727,30.7242,成都市,金泉两河,细颗粒物(PM2.5),163,143,115,124,84,2,,,,83,58,3,5,1.6,1.2
2026-01-16T0100,1432A,104.1423,30.6765,成都市,十里店,细颗粒物(PM2.5),166,163,122,126,83,12,,,,86,70,4,5,1.1,1.2
2026-01-16T0100,1433A,104.0594,30.5765,成都市,三瓦窑,细颗粒物(PM2.5),172,146,110,130,83,0,,,,92,68,4,5,1.2,1.2
2026-01-16T0100,1434A,104.1122,30.6306,成都市,沙河铺,细颗粒物(PM2.5),183,147,112,138,95,11,,,,84,84,3,4,1.1,1.2
2026-01-16T0100,2880A,104.0219,30.6561,成都市,大石西路,细颗粒物(PM2.5),139,149,116,106,79,0,,,,93,65,4,6,1.2,1.6
2026-01-16T0100,3136A,104.2724,30.559,成都市,龙泉驿区区政府,细颗粒物(PM2.5),125,105,76,95,58,76,,,,12,24,6,6,0.8,0.7
2026-01-16T0100,3357A,104.0028,30.6891,成都市,金博路,细颗粒物(PM2.5),153,145,103,117,76,6,,,,80,70,6,8,1.3,1.3
2026-01-16T0100,3359A,104.056,30.5228,成都市,华阳,细颗粒物(PM2.5),147,127,95,112,73,3,,,,96,67,3,4,1.1,1
2026-01-16T0100,3488A,104.387954,30.746684,成都市,青石路225号,细颗粒物(PM2.5),169,147,103,128,81,8,,,,71,52,3,2,0.9,0.8
2026-01-16T0100,3489A,104.0788,30.4054,成都市,科学城,细颗粒物(PM2.5),118,176,93,89,53,2,,,,65,36,6,6,1.0,0.4
2026-01-16T0100,4011A,103.8505,30.6946,成都市,光华大道三段,细颗粒物(PM2.5),160,159,108,122,76,35,,,,57,52,4,6,0.6,0.6
2026-01-16T0100,4144A,104.3257,30.6406,成都市,八角井街185号,细颗粒物(PM2.5),200,,104,150,83,52,,,,17,36,3,3,0.8,0.8
2026-01-16T0100,4224A,104.2433276,30.53529463,成都市,鲸龙路1057号,细颗粒物(PM2.5),156,122,88,119,71,11,,,,65,45,5,6,0.8,0.8
2026-01-16T0100,1062A,117.9531,40.908,承德市,铁路,颗粒物(PM10),73,95,115,47,63,31,,,,24,41,7,8,0.8,1.4
2026-01-16T0100,1063A,117.9397,40.9763,承德市,中国银行,颗粒物(PM10),76,101,108,45,56,27,,,,20,36,3,5,0.9,1.2
2026-01-16T0100,4073A,117.9462,40.95,承德市,杏林街1号,细颗粒物(PM2.5),74,95,103,54,60,23,,,,28,36,6,7,1.1,1.3
2026-01-16T0100,4274A,117.7994,40.9605,承德市,滨河大街98号,"颗粒物(PM10),细颗粒物(PM2.5)",64,77,86,46,55,44,,,,16,37,6,6,0.8,1.1
2026-01-16T0100,2314A,117.4698,30.6617,池州市,池州学院,细颗粒物(PM2.5),93,92,78,69,56,30,,,,55,45,4,7,1.1,1.1
2026-01-16T0100,3237A,117.4918,30.6617,池州市,展览馆,细颗粒物(PM2.5),83,90,79,61,50,1,,,,54,46,1,4,1.0,1.2
2026-01-16T0100,3333A,117.5626,30.695,池州市,第八中学,细颗粒物(PM2.5),89,92,82,66,55,58,,,,34,44,5,8,1.0,1
2026-01-16T0100,3334A,117.5037,30.6242,池州市,第十二中学,细颗粒物(PM2.5),70,83,85,51,51,29,,,,52,57,4,6,1.7,1.4
2026-01-16T0100,1744A,118.9229,42.2816,赤峰市,松山一中,,26,26,44,9,21,52,,,,10,27,4,25,0.6,0.8
2026-01-16T0100,1745A,118.9588,42.2733,赤峰市,哈达街,,29,22,50,20,26,51,,,,18,29,9,38,0.6,0.9
2026-01-16T0100,1746A,118.8792,42.2551,赤峰市,天义路,二氧化硫(SO2),51,40,40,35,33,1,,,,69,31,151,40,0.8,0.9
2026-01-16T0100,3058A,119.2656,42.0356,赤峰市,银河街,,30,30,43,21,23,52,,,,9,8,10,11,0.6,0.6
2026-01-16T0100,3286A,118.9359,42.3146,赤峰市,桥北物流园区,,25,20,41,17,29,65,,,,7,18,4,9,0.5,0.6
2026-01-16T0100,2521A,107.3473,22.4137,崇左市,市环保局江州分局,细颗粒物(PM2.5),129,124,102,98,74,69,,,,23,29,9,10,1.0,0.9
2026-01-16T0100,4256A,107.375,22.3736,崇左市,石景林东路7号,细颗粒物(PM2.5),114,,82,86,74,71,,,,26,27,9,10,0.9,0.8
2026-01-16T0100,3207A,118.31131,32.3033,滁州市,市政府原办公楼,细颗粒物(PM2.5),112,125,129,84,71,15,,,,68,53,6,7,0.8,0.7
2026-01-16T0100,3331A,118.3268,32.2633,滁州市,图书馆,细颗粒物(PM2.5),104,145,110,78,67,22,,,,80,40,12,12,0.8,0.7
2026-01-16T0100,4101A,118.3196,32.3335,滁州市,银山路666号,细颗粒物(PM2.5),115,121,113,87,86,0,,,,57,46,6,9,0.5,0.6
2026-01-16T0100,4102A,118.3426,32.2979,滁州市,黄山路555号,细颗粒物(PM2.5),159,173,133,121,89,6,,,,96,64,17,15,1.2,1
2026-01-16T0100,2606A,101.5379,25.0492,楚雄彝族自治州,市经济开发区,,,,32,,14,,,72,,,22,,3,,0.5
2026-01-16T0100,4153A,101.5536,25.0343,楚雄彝族自治州,团结路562号,,50,50,29,26,18,2,,,,57,21,9,5,0.5,0.4
2026-01-16T0100,2549A,107.5087,31.2186,达州市,市环境监测站,细颗粒物(PM2.5),185,167,140,139,122,5,,,,41,40,5,6,0.9,1
2026-01-16T0100,2550A,107.4988,31.2132,达州市,凤凰小区,细颗粒物(PM2.5),199,180,159,149,126,4,,,,46,40,4,5,1.1,1.1
2026-01-16T0100,2551A,107.5081,31.1987,达州市,达县机关宾馆,细颗粒物(PM2.5),210,183,162,160,124,2,,,,40,46,3,4,1.1,1.3
2026-01-16T0100,2552A,107.4644,31.2124,达州市,市政中心,细颗粒物(PM2.5),195,175,170,146,128,5,,,,55,50,6,7,1.1,1.2
2026-01-16T0100,2614A,100.2168,25.5818,大理白族自治州,大理市环境监测站,,30,24,24,21,19,75,,,,5,8,6,6,0.5,0.7
2026-01-16T0100,2615A,100.1542,25.7055,大理白族自治州,大理古城,,32,,24,22,16,70,,,,6,9,7,8,0.6,0.6
2026-01-16T0100,1109A,121.6119,38.974,大连市,甘井子,细颗粒物(PM2.5),158,158,116,120,83,4,,,,60,48,9,7,1.1,0.8
2026-01-16T0100,1110A,121.565,38.9509,大连市,周水子,细颗粒物(PM2.5),169,157,117,128,83,3,,,,53,42,8,10,1.5,1.1
2026-01-16T0100,1111A,121.5637,38.8849,大连市,星海三站,细颗粒物(PM2.5),140,130,113,107,81,5,,,,43,37,6,8,1.5,1.3
2026-01-16T0100,1112A,121.6301,38.9117,大连市,青泥洼桥,细颗粒物(PM2.5),149,147,122,114,85,11,,,,47,48,9,9,1.7,1.5
2026-01-16T0100,1113A,121.6248,38.8643,大连市,傅家庄,细颗粒物(PM2.5),135,139,118,103,80,13,,,,47,46,10,12,1.4,1.1
2026-01-16T0100,1114A,121.5117,38.8636,大连市,七贤岭,细颗粒物(PM2.5),137,149,111,104,71,4,,,,58,38,10,10,1.6,1.1
2026-01-16T0100,1116A,121.7507,39.1339,大连市,金州,细颗粒物(PM2.5),152,144,116,116,88,10,,,,42,40,10,10,1.2,1.1
2026-01-16T0100,1117A,121.7811,39.0495,大连市,开发区,细颗粒物(PM2.5),134,140,132,102,89,28,,,,26,41,8,8,1.2,1.3
2026-01-16T0100,1118A,121.9762,39.0631,大连市,双D港,细颗粒物(PM2.5),134,128,109,102,92,32,,,,28,30,8,8,1.3,1.1
2026-01-16T0100,4082A,121.2548,38.8188,大连市,旅顺,细颗粒物(PM2.5),135,145,127,103,85,6,,,,33,27,7,8,1.2,1.1
2026-01-16T0100,1789A,124.8085,46.0381,大庆市,大同区,细颗粒物(PM2.5),72,64,77,52,64,41,,,,20,27,7,8,0.8,0.9
2026-01-16T0100,1790A,125.1166,46.5255,大庆市,龙凤区,细颗粒物(PM2.5),72,64,53,52,45,24,,,,43,35,10,10,0.5,0.5
2026-01-16T0100,1791A,124.8894,46.4007,大庆市,红岗区,细颗粒物(PM2.5),54,55,58,38,45,35,,,,19,32,6,9,0.6,0.8
2026-01-16T0100,1792A,125.1391,46.578,大庆市,萨尔图区,细颗粒物(PM2.5),59,,61,42,43,17,,,,44,27,9,9,0.8,0.6
2026-01-16T0100,1793A,124.9026,46.6217,大庆市,让胡路区,,49,37,56,34,49,49,,,,16,26,8,8,0.5,0.8
2026-01-16T0100,3481A,125.127,46.6277,大庆市,萨区政府监测点,颗粒物(PM10),52,53,76,34,46,19,,,,41,29,9,9,0.8,0.7
2026-01-16T0100,1723A,113.2926,40.0759,大同市,云冈宾馆,颗粒物(PM10),76,102,179,25,38,55,,,,10,30,6,10,0.6,0.9
2026-01-16T0100,1724A,113.3437,40.0921,大同市,大同大学,颗粒物(PM10),82,113,165,51,60,61,,,,7,27,2,10,0.5,0.6
2026-01-16T0100,1725A,113.2637,40.129,大同市,安家小村,颗粒物(PM10),86,121,176,33,46,56,,,,11,24,6,12,0.4,0.7
2026-01-16T0100,3282A,113.3399,40.0586,大同市,大同市卫生学校,颗粒物(PM10),78,105,175,25,42,61,,,,12,34,4,10,0.5,0.6
2026-01-16T0100,3565A,113.1371,40.1122,大同市,云冈站,颗粒物(PM10),75,100,147,35,36,54,,,,11,27,5,8,0.6,0.6
2026-01-16T0100,3566A,113.1186,40.2556,大同市,图书馆,颗粒物(PM10),81,111,157,37,48,49,,,,14,17,8,10,0.7,0.6
2026-01-16T0100,3567A,113.5931,40.0459,大同市,区一中,颗粒物(PM10),91,131,119,28,29,35,,,,34,23,5,5,0.7,0.5
2026-01-16T0100,4199A,113.2798248,40.09972476,大同市,魏都大道141号,颗粒物(PM10),85,120,199,24,43,56,,,,9,38,4,10,0.6,1.1
2026-01-16T0100,2269A,124.1068,50.4091,大兴安岭地区,科技局,,20,16,22,14,15,43,,,,3,4,5,5,0.3,0.3
2026-01-16T0100,3663A,124.117,50.4279,大兴安岭地区,红旗社区,,16,12,23,11,18,36,,,,14,22,5,8,0.3,0.4
2026-01-16T0100,1600A,124.33,40.0625,丹东市,江湾东路,细颗粒物(PM2.5),100,90,86,75,59,35,,,,25,29,4,7,1.0,0.9
2026-01-16T0100,1601A,124.4242,40.1513,丹东市,临江后街,细颗粒物(PM2.5),99,93,72,74,45,33,,,,27,24,6,9,1.1,0.8
2026-01-16T0100,1602A,124.3935,40.1461,丹东市,元宝山,细颗粒物(PM2.5),102,91,68,76,44,33,,,,28,18,9,10,1.0,0.7
2026-01-16T0100,1603A,124.3634,40.1093,丹东市,民主桥,细颗粒物(PM2.5),97,106,86,72,47,34,,,,25,25,6,8,1.2,0.9
2026-01-16T0100,3541A,109.5726195,19.51688767,儋州市,第一中学子站,,43,43,43,22,24,49,,,,10,6,3,5,0.7,0.6
2026-01-16T0100,3542A,109.5567,19.5187,儋州市,东坡学校子站,,,,34,,21,,,88,,,4,,6,,0.5
2026-01-16T0100,2616A,98.5611,24.4273,德宏傣族景颇族自治州,德宏州监测站,细颗粒物(PM2.5),68,71,51,49,36,24,,,,26,26,7,7,0.8,0.8
2026-01-16T0100,3677A,98.5887,24.4366,德宏傣族景颇族自治州,芒市人民政府综合楼,颗粒物(PM10),54,58,50,31,28,33,,,,12,17,4,5,0.7,0.7
2026-01-16T0100,1901A,104.424,31.1209,德阳市,东山公园,细颗粒物(PM2.5),150,117,88,115,79,35,,,,59,27,5,6,1.0,0.8
2026-01-16T0100,1902A,104.3827,31.1318,德阳市,西小区,细颗粒物(PM2.5),153,143,115,117,81,20,,,,55,46,6,5,1.1,1.1
2026-01-16T0100,1904A,104.3553,31.1091,德阳市,耐火材料厂,细颗粒物(PM2.5),158,123,106,120,87,26,,,,46,52,5,4,1.0,1
2026-01-16T0100,4145A,104.4144,31.1495,德阳市,市林业局,细颗粒物(PM2.5),165,134,99,125,87,2,,,,84,49,4,3,0.9,0.7
2026-01-16T0100,1622A,116.3034,37.4675,德州市,儿童乐园,颗粒物(PM10),140,229,244,102,117,8,,,,72,57,29,20,1.4,1.4
2026-01-16T0100,1624A,116.2992,37.4449,德州市,监理站,颗粒物(PM10),130,210,242,88,121,30,,,,60,58,20,21,1.0,1.3
2026-01-16T0100,3066A,116.2722,37.438,德州市,九衢泉纯净水厂,颗粒物(PM10),118,185,236,85,127,17,,,,69,64,15,14,1.0,1.4
2026-01-16T0100,3371A,116.3693,37.44,德州市,开发区人民医院,颗粒物(PM10),147,244,251,105,128,12,,,,76,65,22,20,1.0,1.2
2026-01-16T0100,3511A,116.5687,37.3331,德州市,陵城艺术中心,颗粒物(PM10),145,239,246,100,123,15,,,,55,58,19,20,1.2,1.3
2026-01-16T0100,4292A,116.352738,37.420875,德州市,新河东路,颗粒物(PM10),124,197,242,92,129,23,,,,68,70,16,19,1.4,1.5
2026-01-16T0100,2621A,99.7054,27.8319,迪庆藏族自治州,迪庆州站,,34,34,29,20,18,56,,,,11,9,4,4,0.4,0.4
2026-01-16T0100,3180A,99.7122,27.8129,迪庆藏族自治州,质量技术监督局,,21,18,28,8,15,66,,,,7,12,4,4,0.4,0.4
2026-01-16T0100,4257A,104.6092,35.5962,定西市,将台街,颗粒物(PM10),78,105,101,37,44,30,,,,45,29,18,16,0.7,0.8
2026-01-16T0100,4309A,104.6159,35.5701,定西市,正龙路62号,颗粒物(PM10),79,108,112,36,45,47,,,,10,12,10,15,0.7,0.7
2026-01-16T0100,1390A,113.7943,23.0132,东莞市,东城石井,细颗粒物(PM2.5),72,89,79,52,47,52,,,,60,60,7,8,0.6,0.6
2026-01-16T0100,1391A,113.7384,22.9659,东莞市,南城西平,二氧化氮(NO2),83,98,93,53,56,5,,,,165,77,8,8,1.0,0.8
2026-01-16T0100,3319A,113.7283,23.041,东莞市,万江金泰,细颗粒物(PM2.5),89,110,99,66,58,66,,,,66,67,6,7,1.1,1
2026-01-16T0100,4129A,113.8666,23.1062,东莞市,裕兴路,细颗粒物(PM2.5),119,177,110,90,54,12,,,,106,68,8,9,1.1,0.8
2026-01-16T0100,4130A,114.0076,22.9739,东莞市,教育路1号,颗粒物(PM10),102,153,131,75,69,30,,,,114,84,6,6,0.9,0.8
2026-01-16T0100,4131A,113.7981,22.8124,东莞市,长怡路1号,,,,120,58,57,31,,,,63,85,6,9,0.9,0.9
2026-01-16T0100,1666A,118.6612,37.4313,东营市,市环保局,"颗粒物(PM10),细颗粒物(PM2.5)",122,193,210,92,106,15,,,,52,56,11,34,1.0,1.2
2026-01-16T0100,3036A,118.6903,37.4337,东营市,开发区管委会,细颗粒物(PM2.5),125,189,224,95,105,17,,,,52,53,8,9,0.8,0.9
2026-01-16T0100,3365A,118.5721,37.5654,东营市,垦利区民丰路,细颗粒物(PM2.5),92,132,196,68,97,17,,,,40,54,4,11,0.9,1.1
2026-01-16T0100,3498A,118.5063,37.8606,东营市,河口城区,细颗粒物(PM2.5),85,117,185,63,92,33,,,,29,48,6,10,1.3,1.3
2026-01-16T0100,3646A,118.4979,37.4623,东营市,胜利站,细颗粒物(PM2.5),153,191,196,117,103,16,,,,56,63,12,28,1.2,1.4
2026-01-16T0100,3734A,118.5753,37.4405,东营市,理想之城,细颗粒物(PM2.5),153,195,202,117,108,12,,,,63,58,6,18,1.1,1.4
2026-01-16T0100,1591A,110.0024,39.8127,鄂尔多斯市,综合楼,颗粒物(PM10),69,88,138,17,29,55,,,,11,23,5,9,0.2,0.4
2026-01-16T0100,1592A,109.9485,39.8259,鄂尔多斯市,巴音孟克林场办事处,颗粒物(PM10),70,90,121,22,28,49,,,,16,18,8,9,0.3,0.3
2026-01-16T0100,1593A,109.7734,39.5987,鄂尔多斯市,康泽苑,颗粒物(PM10),64,78,126,22,34,66,,,,10,17,5,6,0.3,0.4
2026-01-16T0100,1594A,109.8121,39.5987,鄂尔多斯市,华泰汽车城,颗粒物(PM10),70,90,129,24,30,62,,,,8,23,3,5,0.2,0.4
2026-01-16T0100,1595A,109.9734,39.7884,鄂尔多斯市,奥林花园,颗粒物(PM10),69,88,133,19,27,49,,,,18,27,7,8,0.5,0.4
2026-01-16T0100,2436A,114.894,30.3989,鄂州市,市政府,细颗粒物(PM2.5),153,127,130,117,100,60,,,,50,55,10,13,0.8,1.5
2026-01-16T0100,2437A,114.8986,30.3714,鄂州市,赵家坝,细颗粒物(PM2.5),138,119,110,105,86,66,,,,40,35,,12,1.0,0.9
2026-01-16T0100,3654A,114.8093,30.4091,鄂州市,精准医疗中心,细颗粒物(PM2.5),149,150,116,114,94,27,,,,88,46,51,19,1.5,0.9
2026-01-16T0100,2454A,109.4978,30.2979,恩施土家族苗族自治州,湖北民院,,,,130,,150,,,51,,,23,,6,,1.2
2026-01-16T0100,3549A,109.5061,30.3771,恩施土家族苗族自治州,龙凤新区,细颗粒物(PM2.5),268,255,168,218,143,0,,,,21,23,7,7,1.6,1.1
2026-01-16T0100,2499A,108.3411,21.6159,防城港市,沙万,颗粒物(PM10),60,69,81,38,46,76,,,,22,37,6,10,0.9,0.9
2026-01-16T0100,2500A,108.3515,21.7733,防城港市,防城档案局,细颗粒物(PM2.5),65,58,89,47,53,42,,,,12,22,6,7,0.7,0.7
2026-01-16T0100,2501A,108.3506,21.6414,防城港市,大海花园,细颗粒物(PM2.5),54,46,72,38,42,84,,,,14,31,6,11,0.7,0.8
2026-01-16T0100,1371A,113.1293,23.0065,佛山市,湾梁,细颗粒物(PM2.5),87,122,103,64,61,116,,,,49,85,/,/,/,/
2026-01-16T0100,1372A,113.1082,23.0477,佛山市,华材职中,细颗粒物(PM2.5),87,119,123,64,64,108,,,,56,83,6,8,0.8,0.9
2026-01-16T0100,1373A,113.1439,23.045,佛山市,南海气象局,细颗粒物(PM2.5),99,131,105,74,60,70,,,,78,92,/,/,/,/
2026-01-16T0100,1374A,113.2879,22.8094,佛山市,顺德苏岗,细颗粒物(PM2.5),117,117,95,88,67,47,,,,74,87,/,/,1.2,1
2026-01-16T0100,1376A,112.8384,22.8678,佛山市,高明孔堂,细颗粒物(PM2.5),94,102,74,70,53,25,,,,91,38,/,/,/,/
2026-01-16T0100,1377A,112.8835,23.1584,佛山市,三水监测站,细颗粒物(PM2.5),139,188,139,106,81,2,,,,141,103,9,13,1.0,1
2026-01-16T0100,1378A,112.8668,23.185,佛山市,三水云东海,细颗粒物(PM2.5),115,114,113,87,77,0,,,,129,75,/,/,/,/
2026-01-16T0100,3625A,113.2568,22.7629,佛山市,容桂街道办,细颗粒物(PM2.5),107,105,113,80,70,87,,,,55,93,/,/,/,/
2026-01-16T0100,1282A,119.2681,26.0506,福州市,师大,颗粒物(PM10),54,58,51,34,24,21,,,,61,33,3,5,0.7,0.5
2026-01-16T0100,1283A,119.2983,26.1028,福州市,五四北路,,46,46,48,32,27,34,,,,45,39,4,5,0.8,0.8
2026-01-16T0100,1284A,119.2648,26.0769,福州市,杨桥西路,细颗粒物(PM2.5),54,51,48,38,26,38,,,,35,25,4,5,/,/
2026-01-16T0100,3048A,119.5799,26.0937,福州市,九龙,,37,37,39,20,21,41,,,,25,25,4,5,0.6,0.7
2026-01-16T0100,3526A,119.5188,25.9666,福州市,吴航,,33,33,43,15,19,57,,,,21,29,4,5,0.5,0.6
2026-01-16T0100,4104A,119.3106,26.0648,福州市,路通桥巷6号,颗粒物(PM10),60,70,50,41,28,3,,,,69,29,/,/,/,/
2026-01-16T0100,1755A,123.7974,41.8494,抚顺市,望花区,细颗粒物(PM2.5),64,,60,46,44,42,,,,24,33,6,9,0.8,0.8
2026-01-16T0100,1756A,123.9161,41.8827,抚顺市,顺城区,细颗粒物(PM2.5),62,52,59,44,47,33,,,,37,38,8,8,0.9,0.9
2026-01-16T0100,1757A,124.0437,41.8615,抚顺市,东洲区,细颗粒物(PM2.5),64,69,64,46,50,40,,,,22,28,5,6,0.8,0.9
2026-01-16T0100,1758A,123.9246,41.8638,抚顺市,新抚区,细颗粒物(PM2.5),74,67,62,54,48,27,,,,46,42,6,7,1.0,1
2026-01-16T0100,1759A,124.0972,41.8961,抚顺市,大伙房水库,细颗粒物(PM2.5),59,48,57,42,45,49,,,,18,23,11,10,0.9,1
2026-01-16T0100,1760A,123.708,41.8386,抚顺市,沈抚新城,细颗粒物(PM2.5),67,52,61,48,49,44,,,,23,32,7,8,1.3,1.4
2026-01-16T0100,2377A,116.3544,27.9833,抚州市,市站,细颗粒物(PM2.5),103,106,72,77,48,60,,,,32,27,17,19,0.8,0.7
2026-01-16T0100,2378A,116.3562,27.9631,抚州市,血防站,细颗粒物(PM2.5),98,95,64,73,43,6,,,,100,35,14,16,1.3,1
2026-01-16T0100,2379A,116.3561,28.0007,抚州市,采茶剧团,细颗粒物(PM2.5),105,103,70,79,49,48,,,,41,30,12,12,1.4,1.2
2026-01-16T0100,2380A,116.3854,27.9648,抚州市,医学分院,细颗粒物(PM2.5),99,118,72,74,43,41,,,,38,21,11,16,1.2,0.8
2026-01-16T0100,2207A,121.6095,41.9978,阜新市,工业园区,,24,24,59,13,36,59,,,,10,18,9,9,0.4,0.6
2026-01-16T0100,2208A,121.6567,42.0188,阜新市,长青街,,20,16,52,14,37,57,,,,12,21,7,8,0.4,0.7
2026-01-16T0100,2209A,121.6672,42.07,阜新市,农业园区,,28,,54,19,40,53,,,,14,19,6,6,0.3,0.6
2026-01-16T0100,2211A,121.6343,42.0455,阜新市,玉龙新城,,33,33,55,13,36,55,,,,12,20,7,9,0.4,0.6
2026-01-16T0100,2301A,115.8276,32.8929,阜阳市,市监测站,细颗粒物(PM2.5),84,101,118,62,72,76,,,,31,38,6,6,0.5,0.6
2026-01-16T0100,2303A,115.8551,32.8606,阜阳市,开发区,细颗粒物(PM2.5),79,104,118,58,68,74,,,,31,33,7,7,0.5,0.6
2026-01-16T0100,2875A,115.783962,32.889217,阜阳市,阜阳职业技术学院,细颗粒物(PM2.5),88,110,117,65,68,82,,,,20,23,9,9,0.6,0.7
2026-01-16T0100,3468A,115.79,32.8614,阜阳市,市规划展馆,细颗粒物(PM2.5),103,146,123,77,77,58,,,,31,25,8,8,0.6,0.7
2026-01-16T0100,3469A,115.835101,32.918568,阜阳市,枣园社区,"颗粒物(PM10),细颗粒物(PM2.5)",90,130,117,67,74,82,,,,26,30,7,6,0.6,0.7
2026-01-16T0100,2669A,102.9097,34.9841,甘南藏族自治州,州政府,颗粒物(PM10),59,67,58,38,27,1,,,,54,35,14,12,0.9,0.8
2026-01-16T0100,3380A,102.8915,34.9618,甘南藏族自治州,甘肃民族师范学院,颗粒物(PM10),62,74,68,20,16,4,,,,53,34,11,14,0.3,0.5
2026-01-16T0100,2570A,101.96,30.048,甘孜藏族自治州,水桥子,,30,30,27,19,13,38,,,,28,24,6,6,0.9,0.8
2026-01-16T0100,3065A,101.9534,29.9976,甘孜藏族自治州,州环保局,,22,22,24,8,10,56,,,,15,13,5,6,0.6,0.6
2026-01-16T0100,2363A,114.9368,25.8663,赣州市,地委,细颗粒物(PM2.5),70,80,61,51,42,8,,,,65,51,8,9,1.1,1
2026-01-16T0100,2364A,114.946,25.8483,赣州市,气象台,颗粒物(PM10),77,104,85,51,40,8,,,,88,70,4,5,0.8,0.7
2026-01-16T0100,2365A,114.932,25.8332,赣州市,市图书馆,颗粒物(PM10),74,98,84,52,44,10,,,,81,68,6,7,1.2,1.1
2026-01-16T0100,2366A,114.8905,25.8472,赣州市,华坚鞋城,细颗粒物(PM2.5),83,106,89,61,45,8,,,,99,69,11,11,0.8,0.7
2026-01-16T0100,3109A,115.0094,25.8614,赣州市,赣县区卫计委,细颗粒物(PM2.5),75,65,65,55,51,37,,,,33,36,7,7,0.8,0.8
2026-01-16T0100,2684A,106.2753,36.0057,固原市,监测站,颗粒物(PM10),103,155,111,38,31,56,,,,19,11,7,5,0.5,0.4
2026-01-16T0100,2685A,106.2384,36.0189,固原市,新区,颗粒物(PM10),97,143,100,32,26,62,,,,14,8,5,3,0.3,0.2
2026-01-16T0100,2544A,106.6307,30.4577,广安市,市委,细颗粒物(PM2.5),189,144,140,142,133,52,,,,27,28,9,10,1.2,1.2
2026-01-16T0100,2545A,106.6266,30.4662,广安市,友谊中学,细颗粒物(PM2.5),169,138,133,128,120,43,,,,27,21,6,7,1.4,1.3
2026-01-16T0100,2547A,106.6386,30.4551,广安市,广电花园,细颗粒物(PM2.5),193,,128,145,125,38,,,,24,26,8,9,0.9,1
2026-01-16T0100,2902A,106.6347,30.4868,广安市,北辰小学,细颗粒物(PM2.5),186,,131,140,125,10,,,,30,19,7,7,1.5,1.1
2026-01-16T0100,2524A,105.8211,32.4444,广元市,老城,细颗粒物(PM2.5),84,66,81,62,51,4,,,,66,54,20,24,0.9,1.1
2026-01-16T0100,2526A,105.8629,32.429,广元市,监测站,细颗粒物(PM2.5),95,86,77,71,49,17,,,,40,31,6,6,0.9,1
2026-01-16T0100,3617A,105.8047,32.4167,广元市,经开区,细颗粒物(PM2.5),90,99,107,67,58,0,,,,62,48,4,11,1.2,1.2
2026-01-16T0100,1345A,113.2346,23.1423,广州市,广雅中学,细颗粒物(PM2.5),143,178,129,109,71,0,,,,176,109,4,4,1.7,1.5
2026-01-16T0100,1346A,113.2611,23.105,广州市,市五中,细颗粒物(PM2.5),127,153,102,96,65,5,,,,208,118,10,10,/,/
2026-01-16T0100,1348A,113.3477,23.0916,广州市,广东商学院,细颗粒物(PM2.5),114,119,104,86,68,2,,,,154,97,8,8,0.8,0.8
2026-01-16T0100,1349A,113.4332,23.105,广州市,市八十六中,二氧化氮(NO2),72,78,91,46,51,5,,,,143,106,9,10,/,/
2026-01-16T0100,1350A,113.3506,22.9488,广州市,番禺中学,"颗粒物(PM10),细颗粒物(PM2.5)",72,93,107,52,65,44,,,,82,90,4,6,0.9,1
2026-01-16T0100,1351A,113.2147,23.3918,广州市,花都师范,细颗粒物(PM2.5),99,142,122,74,67,2,,,,174,113,7,7,1.3,1
2026-01-16T0100,1352A,113.2599,23.1329,广州市,市监测站,细颗粒物(PM2.5),134,189,116,102,69,18,,,,147,112,2,5,/,/
2026-01-16T0100,1353A,113.5618,23.3119,广州市,九龙镇镇龙,颗粒物(PM10),90,129,101,66,55,6,,,,84,69,5,5,0.7,0.6
2026-01-16T0100,1354A,113.2764,23.1544,广州市,麓湖,细颗粒物(PM2.5),100,121,88,75,54,2,,,,161,99,9,10,0.8,0.7
2026-01-16T0100,2846A,113.3209,23.1323,广州市,体育西,细颗粒物(PM2.5),107,144,111,80,63,1,,,,162,97,6,8,1.3,1
2026-01-16T0100,3298A,113.5718,23.5493,广州市,从化街口,细颗粒物(PM2.5),79,85,79,58,53,23,,,,65,56,8,9,0.9,0.8
2026-01-16T0100,3299A,113.3463,23.369,广州市,白云竹料,颗粒物(PM10),91,131,119,67,67,6,,,,124,93,3,5,1.0,0.9
2026-01-16T0100,3300A,113.2981,23.2365,广州市,白云嘉禾,细颗粒物(PM2.5),114,153,110,86,57,33,,,,120,97,6,7,/,/
2026-01-16T0100,3301A,113.4256,23.1716,广州市,黄埔科学城,细颗粒物(PM2.5),98,125,79,73,46,0,,,,126,70,5,6,1.0,0.8
2026-01-16T0100,3302A,113.3942,23.0485,广州市,番禺大学城,颗粒物(PM10),106,161,114,60,56,23,,,,116,88,10,12,0.7,0.7
2026-01-16T0100,3303A,113.4923,22.8169,广州市,南沙黄阁,,50,,84,35,53,109,,,,37,79,6,9,/,/
2026-01-16T0100,3304A,113.534,22.7893,广州市,南沙街,,45,35,85,31,48,114,,,,26,67,5,7,0.5,0.7
2026-01-16T0100,3443A,113.2905,23.5541,广州市,花都梯面,颗粒物(PM10),57,63,66,36,37,1,,,,83,53,4,6,/,/
2026-01-16T0100,3445A,113.786,23.7479,广州市,从化良口,细颗粒物(PM2.5),62,47,43,44,34,65,,,,22,24,7,8,/,/
2026-01-16T0100,3446A,113.805,23.2614,广州市,增城荔城,细颗粒物(PM2.5),78,88,64,57,44,31,,,,53,33,6,7,0.7,0.6
2026-01-16T0100,2506A,109.604387,23.066791,贵港市,江南子站,细颗粒物(PM2.5),114,141,136,86,84,20,,,,58,49,6,9,1.0,1.1
2026-01-16T0100,2508A,109.5669,23.1065,贵港市,荷城子站,细颗粒物(PM2.5),100,124,104,75,67,12,,,,80,51,7,9,1.0,1.1
2026-01-16T0100,3405A,109.5886,23.1172,贵港市,新世纪学校,细颗粒物(PM2.5),82,97,97,60,61,18,,,,51,41,/,/,0.7,0.7
2026-01-16T0100,4260A,109.5933,23.095,贵港市,中山路155-3号,细颗粒物(PM2.5),107,143,104,80,71,5,,,,83,48,/,/,1.0,0.8
2026-01-16T0100,1439A,106.6863,26.6035,贵阳市,马鞍山,细颗粒物(PM2.5),73,61,88,53,77,71,,,,22,23,10,11,/,/
2026-01-16T0100,1441A,106.6241,26.6266,贵阳市,鉴湖路,细颗粒物(PM2.5),62,63,90,44,61,80,,,,21,25,13,12,0.6,0.7
2026-01-16T0100,1442A,106.7468,26.6344,贵阳市,燕子冲,细颗粒物(PM2.5),79,61,91,58,84,78,,,,19,26,12,14,0.7,0.9
2026-01-16T0100,1443A,106.6556,26.4362,贵阳市,碧云窝,细颗粒物(PM2.5),64,66,104,46,80,87,,,,13,23,10,12,/,/
2026-01-16T0100,1445A,106.6963,26.6063,贵阳市,红边门,细颗粒物(PM2.5),73,58,101,53,84,78,,,,18,35,12,20,/,/
2026-01-16T0100,1446A,106.7162383,26.56964667,贵阳市,新华路,,,,109,,80,,,77,,,35,,14,,0.9
2026-01-16T0100,1447A,106.6742,26.542,贵阳市,太慈桥,细颗粒物(PM2.5),70,68,94,51,75,60,,,,36,32,6,8,/,/
2026-01-16T0100,4230A,106.688212,26.56952,贵阳市,花果园大街66号,细颗粒物(PM2.5),87,,99,64,100,65,,,,28,39,9,15,/,/
2026-01-16T0100,4231A,106.687268,26.516892,贵阳市,漓江路57号,细颗粒物(PM2.5),58,61,106,41,87,56,,,,42,37,14,24,1.1,1.3
2026-01-16T0100,1864A,110.3091,25.2705,桂林市,龙隐路小学,细颗粒物(PM2.5),137,112,100,104,81,19,,,,56,37,14,10,1.1,1
2026-01-16T0100,1865A,110.2849361,25.22909545,桂林市,八中,细颗粒物(PM2.5),137,130,99,104,80,27,,,,69,40,9,12,1.2,0.8
2026-01-16T0100,3531A,110.296,25.1254,桂林市,旅游学院,细颗粒物(PM2.5),117,114,89,88,78,8,,,,80,35,5,7,0.6,0.5
2026-01-16T0100,4222A,110.1835,25.2444,桂林市,环湖路276号,细颗粒物(PM2.5),122,129,112,92,80,3,,,,84,44,18,11,0.8,0.6
2026-01-16T0100,4301A,110.2803,25.2773,桂林市,信义路13号,细颗粒物(PM2.5),133,126,100,101,75,16,,,,68,37,19,12,1.5,1.2
2026-01-16T0100,2674A,100.2262,34.4854,果洛藏族自治州,玛沁县大武镇,,45,45,54,12,14,30,,,,12,8,16,16,0.4,0.4
2026-01-16T0100,1130A,126.5557,45.8109,哈尔滨市,松北商大,细颗粒物(PM2.5),54,50,80,38,62,9,,,,49,35,5,9,0.7,0.9
2026-01-16T0100,1132A,126.6162,45.719,哈尔滨市,南岗学府路,,42,37,58,29,43,35,,,,21,26,15,14,0.9,0.9
2026-01-16T0100,1133A,126.6894,45.7733,哈尔滨市,太平宏伟公园,,45,34,71,31,57,39,,,,20,30,29,17,0.8,0.9
2026-01-16T0100,1134A,126.6361,45.7672,哈尔滨市,道外承德广场,,49,49,86,31,54,40,,,,25,35,18,19,0.7,0.8
2026-01-16T0100,1136A,126.644,45.7261,哈尔滨市,动力和平路,,45,41,62,31,46,36,,,,23,29,26,20,0.7,0.7
2026-01-16T0100,1137A,126.5933,45.7479,哈尔滨市,道里建国路,细颗粒物(PM2.5),54,,61,38,57,33,,,,24,35,13,21,0.6,0.8
2026-01-16T0100,1138A,126.6127,45.6119,哈尔滨市,平房东轻厂,细颗粒物(PM2.5),79,72,73,58,63,10,,,,51,49,3,15,1.2,1.1
2026-01-16T0100,1139A,126.5875,45.9827,哈尔滨市,呼兰师专,细颗粒物(PM2.5),78,,93,57,94,22,,,,30,34,6,11,0.9,1.1
2026-01-16T0100,1140A,126.6299,45.6799,哈尔滨市,省农科院,细颗粒物(PM2.5),104,,58,78,46,7,,,,64,38,18,17,1.4,0.7
2026-01-16T0100,4282A,126.6769,45.7379,哈尔滨市,华山路1号,,38,27,55,26,46,40,,,,18,30,16,20,0.6,0.8
2026-01-16T0100,4283A,126.9717,45.5356,哈尔滨市,解放大街52号,细颗粒物(PM2.5),134,,77,102,68,13,,,,50,34,12,16,1.5,1.3
2026-01-16T0100,2688A,93.5124,42.8176,哈密市,地区监测站,颗粒物(PM10),104,158,371,59,90,21,,,,35,26,2,2,0.5,0.7
2026-01-16T0100,2689A,93.5014,42.8312,哈密市,哈密师范学校,颗粒物(PM10),103,156,341,47,82,12,,,,52,37,2,2,0.7,1
2026-01-16T0100,2671A,100.9016,36.9464,海北藏族自治州,海晏县西海镇,,27,27,32,17,14,65,,,,1,3,8,8,0.3,0.4
2026-01-16T0100,3867A,102.074,36.5056,海东市,平安区公安局北苑,颗粒物(PM10),90,130,72,27,29,53,,,,15,31,40,20,0.6,1.2
2026-01-16T0100,4163A,102.0984,36.5119,海东市,滨河路,颗粒物(PM10),96,142,74,35,30,53,,,,30,40,43,21,0.7,1.2
2026-01-16T0100,1410A,110.3189,20.0596,海口市,海南大学,,46,46,43,25,22,107,,,,9,10,6,6,0.3,0.3
2026-01-16T0100,1411A,110.2827,20.0051,海口市,秀英海南医院,,48,38,41,33,20,74,,,,20,11,7,7,0.4,0.4
2026-01-16T0100,1412A,110.3391,19.9979,海口市,海南师范大学,,43,39,42,30,23,89,,,,14,12,6,6,0.7,0.7
2026-01-16T0100,1413A,110.3303,20.0359,海口市,龙华路环保局宿舍,,41,41,42,26,23,94,,,,10,10,/,/,0.7,0.7
2026-01-16T0100,3539A,110.5111,19.9737,海口市,桂林洋子站,颗粒物(PM10),52,54,36,31,20,56,,,,19,10,/,/,/,/
2026-01-16T0100,4134A,110.1952,20.0451,海口市,长滨二路9号,,44,44,38,29,21,82,,,,12,9,/,/,/,/
2026-01-16T0100,2673A,100.6158,36.2985,海南藏族自治州,共和县恰卜恰镇,,33,33,51,17,24,41,,,,35,24,13,13,0.6,0.6
2026-01-16T0100,2676A,97.373,37.376,海西蒙古族藏族自治州,德令哈市,颗粒物(PM10),56,61,58,26,13,80,,,,5,7,11,11,0.5,0.6
2026-01-16T0100,1049A,114.492,36.5712,邯郸市,矿院,细颗粒物(PM2.5),208,217,146,158,111,10,,,,89,59,9,8,1.4,1.3
2026-01-16T0100,1050A,114.4839,36.6136,邯郸市,丛台公园,细颗粒物(PM2.5),199,227,160,149,103,9,,,,90,55,10,9,1.5,1.3
2026-01-16T0100,3458A,114.7893,36.5592,邯郸市,香泉濮院小区,细颗粒物(PM2.5),210,257,166,160,103,4,,,,92,44,8,13,1.3,1.2
2026-01-16T0100,3580A,114.1998,36.4439,邯郸市,峰峰矿区临水派出所,细颗粒物(PM2.5),175,157,102,132,50,19,,,,69,18,27,13,1.9,0.7
2026-01-16T0100,4068A,114.5209,36.7697,邯郸市,建安街268号,细颗粒物(PM2.5),204,216,174,154,122,7,,,,78,57,9,10,1.3,1.2
2026-01-16T0100,4069A,114.5488,36.6177,邯郸市,丛台东路558号,,,,161,,106,,,68,,,53,,10,,1.3
2026-01-16T0100,2635A,107.0155,33.0707,汉中市,市监测站,细颗粒物(PM2.5),172,148,106,130,74,14,,,,48,45,6,6,1.4,1.2
2026-01-16T0100,2636A,107.0083,33.114,汉中市,鑫源开发区,细颗粒物(PM2.5),104,103,92,78,60,14,,,,63,45,20,9,1.3,0.8
2026-01-16T0100,2637A,107.0072,33.0323,汉中市,南郑大河坎水厂,细颗粒物(PM2.5),127,137,108,96,70,23,,,,31,34,6,7,1.1,0.9
2026-01-16T0100,1223A,120.2073,30.2111,杭州市,滨江,细颗粒物(PM2.5),107,126,95,80,60,0,,,,108,70,8,9,1.0,0.7
2026-01-16T0100,1224A,120.0625,30.2737,杭州市,西溪,细颗粒物(PM2.5),65,61,67,47,38,0,,,,35,34,8,9,1.2,1
2026-01-16T0100,1226A,120.3417,30.315,杭州市,下沙,细颗粒物(PM2.5),114,137,87,86,56,0,,,,133,81,13,10,1.0,0.8
2026-01-16T0100,1227A,120.1252,30.2465,杭州市,卧龙桥,细颗粒物(PM2.5),74,73,59,54,42,4,,,,51,42,7,9,0.4,0.4
2026-01-16T0100,1228A,120.1902,30.2691,杭州市,浙江农大,细颗粒物(PM2.5),138,167,117,105,75,2,,,,97,84,9,8,1.6,0.9
2026-01-16T0100,1230A,120.1195,30.3121,杭州市,和睦小学,细颗粒物(PM2.5),90,124,86,67,54,2,,,,93,65,7,7,1.4,1
2026-01-16T0100,1231A,120.3076,30.4146,杭州市,临平镇,细颗粒物(PM2.5),108,129,97,81,58,11,,,,93,72,10,9,0.7,0.7
2026-01-16T0100,1232A,120.2753,30.1839,杭州市,城厢镇,细颗粒物(PM2.5),109,129,88,82,56,0,,,,113,72,10,10,1.5,0.9
2026-01-16T0100,1233A,120.0883,30.1808,杭州市,云栖,细颗粒物(PM2.5),89,114,83,66,45,14,,,,48,44,4,4,0.7,0.7
2026-01-16T0100,3557A,119.9463,30.0496,杭州市,镇二中,细颗粒物(PM2.5),94,84,68,70,52,2,,,,73,58,6,6,1.0,0.9
2026-01-16T0100,3558A,119.7184,30.2367,杭州市,市府大楼,细颗粒物(PM2.5),94,112,78,70,45,18,,,,38,36,10,12,1.0,0.9
2026-01-16T0100,3656A,120.1554,30.2863,杭州市,消防大队,细颗粒物(PM2.5),104,111,87,78,58,0,,,,99,68,7,8,1.0,0.8
2026-01-16T0100,1270A,117.1957,31.7845,合肥市,明珠广场,细颗粒物(PM2.5),83,112,90,61,49,7,,,,105,74,10,8,0.6,0.6
2026-01-16T0100,1271A,117.307,31.8765,合肥市,三里街,"颗粒物(PM10),细颗粒物(PM2.5)",85,119,108,63,59,9,,,,103,77,11,7,0.8,1
2026-01-16T0100,1272A,117.2587,31.8703,合肥市,琥珀山庄,细颗粒物(PM2.5),80,105,93,59,58,19,,,,90,66,11,9,0.9,0.9
2026-01-16T0100,1275A,117.2593,31.9376,合肥市,庐阳区,细颗粒物(PM2.5),89,124,105,66,53,11,,,,117,71,10,7,0.8,0.7
2026-01-16T0100,1276A,117.345251,31.861615,合肥市,瑶海区,颗粒物(PM10),81,112,102,56,56,16,,,,109,77,10,7,0.7,0.8
2026-01-16T0100,1277A,117.3033,31.7967,合肥市,包河区,细颗粒物(PM2.5),117,107,98,88,60,7,,,,117,86,15,13,0.9,0.9
2026-01-16T0100,1278A,117.278,31.7392,合肥市,滨湖新区,细颗粒物(PM2.5),94,102,86,70,57,64,,,,37,52,9,8,0.6,0.8
2026-01-16T0100,1279A,117.1324,31.8395,合肥市,高新区,"颗粒物(PM10),细颗粒物(PM2.5)",75,100,82,55,45,41,,,,76,47,10,7,0.7,0.6
2026-01-16T0100,3464A,117.3802,31.9148,合肥市,高教基地,细颗粒物(PM2.5),94,107,111,70,66,24,,,,67,68,10,10,0.7,0.8
2026-01-16T0100,4098A,117.2518,31.8404,合肥市,中国科学技术大学,细颗粒物(PM2.5),85,107,88,63,51,23,,,,92,62,12,10,0.8,0.8
2026-01-16T0100,3614A,79.9241,37.0878,和田地区,地区环保局,颗粒物(PM10),87,124,315,48,42,52,,,,12,25,9,5,0.1,0.4
2026-01-16T0100,3615A,79.9132,37.1137,和田地区,市环保局,细颗粒物(PM2.5),103,151,272,77,58,10,,,,64,66,9,8,1.9,2.1
2026-01-16T0100,2517A,108.0496,24.6957,河池市,市环保站,细颗粒物(PM2.5),120,115,96,91,76,5,,,,50,35,2,3,1.1,1
2026-01-16T0100,4302A,108.0901,24.6945,河池市,上任中路54号,细颗粒物(PM2.5),125,134,103,95,82,2,,,,56,37,5,5,1.1,1
2026-01-16T0100,1697A,114.6962,23.7538,河源市,东埔,颗粒物(PM10),57,63,63,37,39,1,,,,81,57,5,7,1.2,1.1
2026-01-16T0100,1698A,114.6895,23.7232,河源市,老城,颗粒物(PM10),52,53,48,34,27,25,,,,55,30,6,7,0.6,0.6
2026-01-16T0100,3374A,115.5562,35.089,菏泽市,定陶老年大学,颗粒物(PM10),80,110,128,41,53,53,,,,24,27,2,4,0.3,0.4
2026-01-16T0100,4114A,115.4239,35.2593,菏泽市,黄河路600号,颗粒物(PM10),87,124,139,57,50,66,,,,24,35,3,5,0.4,0.5
2026-01-16T0100,4115A,115.5025,35.2727,菏泽市,菏泽市人社局,颗粒物(PM10),75,100,129,40,50,74,,,,9,20,3,5,0.0,0.2
2026-01-16T0100,4184A,115.479691,35.244011,菏泽市,永昌路1号,颗粒物(PM10),81,112,134,52,55,72,,,,20,29,4,5,0.2,0.3
2026-01-16T0100,4193A,115.471542,35.280012,菏泽市,长城路999号,颗粒物(PM10),83,116,141,36,51,77,,,,19,31,9,8,0.4,0.5
2026-01-16T0100,2514A,111.5264,24.4178,贺州市,环保小区,细颗粒物(PM2.5),120,106,87,91,60,35,,,,41,39,9,10,1.0,0.7
2026-01-16T0100,2515A,111.561,24.4074,贺州市,政协大楼,细颗粒物(PM2.5),79,88,79,58,52,74,,,,25,35,23,18,1.1,1.1
2026-01-16T0100,3534A,111.4744,24.455,贺州市,西湾,细颗粒物(PM2.5),89,86,81,66,55,32,,,,48,45,6,8,0.8,0.7
2026-01-16T0100,2385A,114.17,35.9019,鹤壁市,市监测站,细颗粒物(PM2.5),78,94,88,57,38,26,,,,42,29,8,4,0.5,0.5
2026-01-16T0100,2386A,114.2953,35.7512,鹤壁市,市交警支队,细颗粒物(PM2.5),73,93,110,53,43,23,,,,48,42,8,5,0.5,0.7
2026-01-16T0100,2387A,114.2877,35.7302,鹤壁市,迎宾馆,颗粒物(PM10),78,105,120,47,46,23,,,,61,51,6,5,0.6,0.8
2026-01-16T0100,3474A,114.2616,35.6824,鹤壁市,大新区,细颗粒物(PM2.5),93,118,124,69,41,2,,,,76,51,6,7,0.7,0.7
2026-01-16T0100,3596A,114.1573,35.9607,鹤壁市,南山宾馆,颗粒物(PM10),75,99,107,42,32,53,,,,18,12,8,8,0.6,0.5
2026-01-16T0100,2244A,130.2537,47.3416,鹤岗市,哈啤分公司,,20,17,37,12,24,64,,,,3,12,5,7,0.4,0.5
2026-01-16T0100,2245A,130.2683,47.3087,鹤岗市,斯达机电,,25,24,30,17,24,58,,,,4,13,5,6,0.4,0.5
2026-01-16T0100,2246A,130.3114,47.3388,鹤岗市,东山纸板厂,,25,18,27,17,27,59,,,,3,21,7,11,0.4,1.1
2026-01-16T0100,2263A,127.4832,50.2524,黑河市,交通局,,19,7,16,6,13,58,,,,4,9,4,5,0.1,0.5
2026-01-16T0100,2264A,127.5146,50.2339,黑河市,环保局,,19,,16,11,16,58,,,,6,13,4,5,0.3,0.3
2026-01-16T0100,1074A,115.6839,37.754,衡水市,电机北厂,细颗粒物(PM2.5),166,228,212,126,112,0,,,,62,58,7,10,1.1,1
2026-01-16T0100,1075A,115.6303,37.7318,衡水市,市监测站,细颗粒物(PM2.5),166,219,197,126,112,0,,,,70,63,7,11,1.2,1.2
2026-01-16T0100,3188A,115.6684,37.7216,衡水市,市城管局,细颗粒物(PM2.5),176,258,209,133,105,1,,,,72,66,8,11,1.3,1.1
2026-01-16T0100,3459A,115.599,37.5491,衡水市,地表水厂,细颗粒物(PM2.5),195,246,187,146,112,2,,,,62,61,8,11,1.3,1
2026-01-16T0100,2457A,112.6209,26.9268,衡阳市,衡阳化工总厂,细颗粒物(PM2.5),134,135,105,102,82,1,,,,70,47,14,20,1.4,1.2
2026-01-16T0100,2458A,112.621,26.8957,衡阳市,珠晖区环保局,细颗粒物(PM2.5),200,164,105,150,86,4,,,,88,61,11,14,2.2,1.3
2026-01-16T0100,2459A,112.628,26.8654,衡阳市,市委党校,细颗粒物(PM2.5),144,111,94,110,79,8,,,,74,43,11,17,1.7,1.2
2026-01-16T0100,2460A,112.6007,26.8977,衡阳市,市监测站,细颗粒物(PM2.5),163,195,132,124,85,1,,,,67,47,11,15,2.8,1.6
2026-01-16T0100,2461A,112.5658,26.9013,衡阳市,真空机电公司,细颗粒物(PM2.5),155,134,113,118,83,7,,,,75,56,12,15,1.7,1.5
2026-01-16T0100,3399A,112.6703,26.8817,衡阳市,师范学院,细颗粒物(PM2.5),120,139,106,91,73,19,,,,46,38,5,10,1.4,1.2
2026-01-16T0100,3038A,103.3757,23.3679,红河哈尼族彝族自治州,州图书馆,,40,36,47,28,37,48,,,,11,9,6,6,0.6,0.7
2026-01-16T0100,4154A,103.401,23.3561,红河哈尼族彝族自治州,蒙自市朝阳路,细颗粒物(PM2.5),59,52,38,42,39,33,,,,17,8,7,5,0.7,0.7
2026-01-16T0100,1090A,111.6506,40.7517,呼和浩特市,呼市一监,,29,29,155,8,33,56,,,,5,29,6,9,0.3,0.5
2026-01-16T0100,1094A,111.7516,40.8369,呼和浩特市,如意水处理厂,,29,29,145,8,34,58,,,,4,38,8,12,0.2,0.5
2026-01-16T0100,1095A,111.727798,40.806187,呼和浩特市,二十九中,,39,39,147,8,35,57,,,,4,36,9,13,0.3,0.6
2026-01-16T0100,1097A,111.717,40.7617,呼和浩特市,化肥厂生活区,,35,35,166,10,38,53,,,,7,35,4,7,0.2,0.5
2026-01-16T0100,3699A,111.6519,40.8389,呼和浩特市,海东办,,20,17,137,9,32,61,,,,7,34,3,7,0.3,0.6
2026-01-16T0100,4275A,111.591512,40.827312,呼和浩特市,成吉思汗西街8号,,39,39,149,6,31,52,,,,5,32,4,9,0.2,0.5
2026-01-16T0100,4276A,111.6597,40.8077,呼和浩特市,公园东路75号,,29,29,155,8,37,53,,,,10,39,5,9,0.2,0.5
2026-01-16T0100,4277A,111.5427,40.7846,呼和浩特市,金海路35号,,41,41,147,6,32,50,,,,9,34,8,12,0.4,0.6
2026-01-16T0100,3061A,119.7511,49.1576,呼伦贝尔市,国华电力东,,40,37,33,28,25,37,,,,24,25,2,6,0.6,0.5
2026-01-16T0100,4279A,119.7569,49.2222,呼伦贝尔市,伊敏大街东7号,,43,30,41,30,32,28,,,,26,32,7,7,0.4,0.7
2026-01-16T0100,1250A,120.075,30.867,湖州市,城西水厂,细颗粒物(PM2.5),103,113,93,77,65,12,,,,88,65,8,10,0.8,0.7
2026-01-16T0100,2873A,120.083,30.8929,湖州市,仁皇山新区,细颗粒物(PM2.5),95,102,92,71,63,9,,,,100,68,7,11,1.0,0.8
2026-01-16T0100,2907A,120.1846,30.8592,湖州市,吴兴区站,颗粒物(PM10),90,130,97,21,53,4,,,,127,92,11,10,0.9,0.9
2026-01-16T0100,3562A,120.4146,30.8538,湖州市,南浔区站,细颗粒物(PM2.5),124,144,105,94,72,1,,,,118,69,11,12,1.1,1
2026-01-16T0100,1607A,120.904878,40.721091,葫芦岛市,龙港区,,38,26,76,26,47,53,,,,20,30,12,20,0.6,1
2026-01-16T0100,1608A,120.8382,40.7521,葫芦岛市,化工街,,31,31,80,19,50,34,,,,31,29,23,26,0.5,0.8
2026-01-16T0100,1609A,120.8339,40.7078,葫芦岛市,新区,,32,32,69,18,47,57,,,,12,32,8,14,0.4,0.8
2026-01-16T0100,1610A,120.8697,40.7679,葫芦岛市,东城区,,25,22,66,17,49,43,,,,27,30,16,16,0.5,0.9
2026-01-16T0100,2483A,109.9297,27.5383,怀化市,河西地税局,细颗粒物(PM2.5),125,97,91,95,84,2,,,,24,25,2,2,/,/
2026-01-16T0100,2484A,109.9783,27.5342,怀化市,市四医院,细颗粒物(PM2.5),166,164,119,126,93,0,,,,44,35,6,6,1.4,1
2026-01-16T0100,2485A,109.9971,27.5579,怀化市,监测楼,细颗粒物(PM2.5),173,145,114,131,98,0,,,,33,30,3,4,1.0,0.6
2026-01-16T0100,1210A,119.0566,33.5991,淮安市,钵池山,细颗粒物(PM2.5),213,195,171,163,132,80,,,,38,48,11,12,0.9,0.9
2026-01-16T0100,1211A,119.0083,33.578,淮安市,北京南路,细颗粒物(PM2.5),220,202,178,170,138,69,,,,38,64,12,11,0.9,1
2026-01-16T0100,1212A,118.9938,33.6083,淮安市,市监测站,细颗粒物(PM2.5),206,185,168,156,130,82,,,,35,49,14,13,1.1,1.1
2026-01-16T0100,1213A,119.135,33.5038,淮安市,楚州区监测站,细颗粒物(PM2.5),266,,181,216,139,54,,,,44,62,10,11,1.2,1.1
2026-01-16T0100,3426A,118.8757,33.2897,淮安市,新华书店,细颗粒物(PM2.5),199,191,164,149,125,24,,,,79,48,12,13,0.8,1.1
2026-01-16T0100,4092A,119.119691,33.550006,淮安市,枚皋中路89号,细颗粒物(PM2.5),233,213,184,183,142,86,,,,31,50,12,12,1.2,1
2026-01-16T0100,4206A,119.028838,33.631911,淮安市,承德北路606号,细颗粒物(PM2.5),211,210,203,161,133,81,,,,38,61,12,11,1.1,1.1
2026-01-16T0100,2282A,116.8005,33.9749,淮北市,监测站,颗粒物(PM10),97,144,175,66,87,55,,,,39,45,13,13,0.9,0.8
2026-01-16T0100,2283A,116.8094,33.9008,淮北市,烈山区政府,细颗粒物(PM2.5),108,148,170,81,97,59,,,,30,34,11,11,0.5,0.6
2026-01-16T0100,4017A,116.7926,33.9534,淮北市,市博物馆,颗粒物(PM10),101,151,181,73,94,66,,,,33,39,9,6,0.8,0.9
2026-01-16T0100,4100A,116.8322,33.9884,淮北市,杜集区第一实验学校,颗粒物(PM10),104,158,175,76,91,66,,,,26,32,13,11,0.7,0.7
2026-01-16T0100,2277A,116.8304,32.7726,淮南市,潘集区政府,细颗粒物(PM2.5),107,144,148,80,83,66,,,,30,35,9,9,0.7,0.7
2026-01-16T0100,2279A,116.8569,32.5949,淮南市,谢家集区政府,颗粒物(PM10),90,129,116,55,57,67,,,,41,31,13,11,0.6,0.7
2026-01-16T0100,2280A,116.8279,32.6333,淮南市,八公山区政府,"颗粒物(PM10),细颗粒物(PM2.5)",79,108,112,58,56,87,,,,21,20,8,8,0.5,0.6
2026-01-16T0100,2894A,117.0561,32.6536,淮南市,经济技术开发区消防队,细颗粒物(PM2.5),120,141,133,91,69,68,,,,37,41,9,9,0.7,0.7
2026-01-16T0100,3329A,117.011,32.5891,淮南市,山南新区,颗粒物(PM10),105,160,149,74,65,76,,,,33,29,5,6,0.7,0.7
2026-01-16T0100,4209A,117.003137,32.644456,淮南市,国庆中路369号,细颗粒物(PM2.5),109,103,111,82,63,83,,,,20,31,13,13,0.7,0.8
2026-01-16T0100,2446A,114.9021,30.474,黄冈市,职工中心,细颗粒物(PM2.5),125,120,108,95,83,76,,,,36,40,15,11,1.2,1.2
2026-01-16T0100,2929A,114.8858,30.4519,黄冈市,红卫路,细颗粒物(PM2.5),135,119,103,103,86,52,,,,52,42,17,12,0.7,0.8
2026-01-16T0100,3398A,114.9134,30.4446,黄冈市,市林业局,细颗粒物(PM2.5),139,130,113,106,88,54,,,,63,53,14,8,1.0,1.1
2026-01-16T0100,2672A,102.02,35.5101,黄南藏族自治州,同仁县隆务镇,,32,32,38,13,14,64,,,,2,3,8,10,0.2,0.3
2026-01-16T0100,2295A,118.2905,29.6965,黄山市,延安路89号,,43,43,39,25,29,18,,,,29,20,4,4,0.6,0.6
2026-01-16T0100,2297A,118.1369,30.2755,黄山市,黄山区政府5号楼,细颗粒物(PM2.5),105,107,57,79,41,23,,,,10,14,2,4,1.0,0.6
2026-01-16T0100,4210A,118.335445,29.720283,黄山市,滨江东路7-2号,细颗粒物(PM2.5),73,,60,53,38,32,,,,15,24,/,/,/,/
2026-01-16T0100,2423A,115.0547,30.2332,黄石市,沈家营,细颗粒物(PM2.5),134,176,131,102,86,30,,,,69,57,7,7,1.5,1.4
2026-01-16T0100,2426A,114.899,30.211,黄石市,铁山,,,,93,,81,,,19,,,49,,8,,0.5
2026-01-16T0100,2427A,115.0259,30.2108,黄石市,团城山,细颗粒物(PM2.5),129,126,117,98,88,42,,,,69,47,8,7,1.2,1.2
2026-01-16T0100,3149A,115.0174,30.1591,黄石市,笔架山北路,细颗粒物(PM2.5),138,170,159,105,95,59,,,,36,41,12,13,1.5,1.6
2026-01-16T0100,4185A,115.078022,30.21118,黄石市,磁湖东路29号,细颗粒物(PM2.5),149,148,137,114,102,5,,,,93,65,9,10,1.6,1.7
2026-01-16T0100,1392A,114.4181,23.0528,惠州市,河南岸金山湖子站,颗粒物(PM10),62,73,65,38,36,42,,,,40,36,4,5,0.8,0.7
2026-01-16T0100,1393A,114.4055,23.0824,惠州市,下埔横江三路子站,颗粒物(PM10),64,78,74,43,39,39,,,,52,46,9,8,0.8,0.7
2026-01-16T0100,1395A,114.4645,22.7832,惠州市,惠阳区承修路船湖子站,细颗粒物(PM2.5),74,93,68,54,37,12,,,,84,37,8,8,0.8,0.6
2026-01-16T0100,1396A,114.5316,22.7423,惠州市,大亚湾管委会子站,颗粒物(PM10),58,66,68,36,36,6,,,,89,49,6,7,0.7,0.6
2026-01-16T0100,3314A,114.4334,22.8134,惠州市,惠阳秋长,细颗粒物(PM2.5),79,102,77,58,39,23,,,,69,45,/,/,/,/
2026-01-16T0100,3452A,114.6521,22.7755,惠州市,大亚湾霞涌,,42,42,51,26,28,98,,,,24,31,/,/,/,/
2026-01-16T0100,4300A,114.4089,23.1147,惠州市,文华一路1号,细颗粒物(PM2.5),77,96,75,56,42,20,,,,94,54,/,/,/,/
2026-01-16T0100,2240A,130.9618,45.2926,鸡西市,环保局,,36,35,66,25,49,51,,,,6,30,6,14,0.3,0.7
2026-01-16T0100,2243A,130.9294,45.2959,鸡西市,第一中学,,42,29,43,29,31,46,,,,11,24,4,9,0.5,0.6
2026-01-16T0100,3707A,131.0069,45.2988,鸡西市,欧美日汽修厂,细颗粒物(PM2.5),58,46,70,41,53,31,,,,30,33,9,20,0.5,0.8
2026-01-16T0100,2367A,114.9753,27.0803,吉安市,红声器材厂,细颗粒物(PM2.5),77,98,75,56,45,11,,,,68,44,9,10,0.9,0.8
2026-01-16T0100,2369A,114.9903,27.1313,吉安市,市环境监测站,细颗粒物(PM2.5),65,73,66,47,43,52,,,,48,45,17,12,/,/
2026-01-16T0100,2370A,115.009527,27.096792,吉安市,青原区法院,细颗粒物(PM2.5),79,92,74,58,44,0,,,,77,50,11,12,1.1,0.8
2026-01-16T0100,1772A,126.54,43.8622,吉林市,哈达湾,细颗粒物(PM2.5),58,58,60,41,41,58,,,,15,27,12,13,1.1,1.3
2026-01-16T0100,1773A,126.5843,43.8358,吉林市,东局子,细颗粒物(PM2.5),64,56,62,46,49,43,,,,18,33,3,7,1.0,1.2
2026-01-16T0100,1774A,126.5051,43.8243,吉林市,电力学院,细颗粒物(PM2.5),92,88,63,68,50,26,,,,37,31,12,24,1.1,0.9
2026-01-16T0100,1775A,126.6133,43.8971,吉林市,江北,细颗粒物(PM2.5),70,85,72,51,46,45,,,,13,21,7,15,1.2,1.1
2026-01-16T0100,1776A,126.5549,43.8304,吉林市,江南公园,细颗粒物(PM2.5),63,57,60,45,46,44,,,,23,30,11,12,0.9,1
2026-01-16T0100,2868A,126.4737,43.953,吉林市,九站,细颗粒物(PM2.5),75,62,71,55,54,12,,,,58,36,6,12,0.9,0.8
2026-01-16T0100,1299A,116.9866,36.6118,济南市,科干所,,,,183,42,61,92,,,,14,33,8,13,0.4,0.7
2026-01-16T0100,1300A,116.9379,36.6652,济南市,农科所,颗粒物(PM10),117,183,209,59,76,81,,,,26,49,8,10,0.7,1
2026-01-16T0100,1301A,117.1265,36.6736,济南市,开发区,颗粒物(PM10),100,149,175,44,55,92,,,,18,44,6,6,0.6,0.8
2026-01-16T0100,1303A,117.0616,36.6865,济南市,省种子仓库,颗粒物(PM10),98,146,210,44,84,96,,,,15,51,6,11,0.6,1.3
2026-01-16T0100,1304A,116.9495185,36.644937,济南市,机床二厂,颗粒物(PM10),123,195,208,68,103,87,,,,22,42,9,17,0.4,0.9
2026-01-16T0100,1305A,117.0496,36.6629,济南市,市监测站,颗粒物(PM10),97,144,178,49,84,97,,,,14,37,6,6,0.5,0.9
2026-01-16T0100,1306A,116.7674,36.5458,济南市,长清党校,颗粒物(PM10),122,193,214,61,88,78,,,,27,41,10,9,0.7,0.8
2026-01-16T0100,1961A,117.5323,36.6865,济南市,东山小学,颗粒物(PM10),129,208,225,71,76,85,,,,24,38,8,7,0.4,0.6
2026-01-16T0100,3059A,117.7181,36.205,济南市,泰兴公司,细颗粒物(PM2.5),156,227,248,119,141,6,,,,90,65,10,14,1.3,1.5
2026-01-16T0100,3064A,117.6861,36.2172,济南市,莱芜战役纪念馆,细颗粒物(PM2.5),158,232,234,120,134,27,,,,70,59,12,13,0.8,1.2
2026-01-16T0100,3494A,117.1673,36.9782,济南市,济阳区政府,颗粒物(PM10),118,186,229,59,96,30,,,,65,60,10,14,0.7,1
2026-01-16T0100,3495A,117.1168,36.6299,济南市,锦屏中学,颗粒物(PM10),100,149,166,39,41,94,,,,16,20,5,4,0.7,0.7
2026-01-16T0100,4108A,117.7107,36.2385,济南市,山财大街5号,细颗粒物(PM2.5),138,219,240,105,116,49,,,,72,71,17,18,1.0,1.2
2026-01-16T0100,4109A,116.9744,36.6889,济南市,无影山路12号,颗粒物(PM10),111,171,202,60,92,81,,,,14,43,8,13,0.6,1.1
2026-01-16T0100,1653A,116.6229,35.4288,济宁市,火炬城,细颗粒物(PM2.5),128,187,186,97,128,45,,,,40,45,7,7,0.7,0.9
2026-01-16T0100,3500A,116.5808,35.3703,济宁市,北湖一中,细颗粒物(PM2.5),118,156,172,89,114,58,,,,29,40,12,11,0.7,0.9
2026-01-16T0100,3501A,116.8251,35.5592,济宁市,服务中心,颗粒物(PM10),125,199,218,87,123,36,,,,49,57,13,14,0.9,1.2
2026-01-16T0100,3678A,116.5907,35.4054,济宁市,市第七中学,颗粒物(PM10),110,169,183,73,107,57,,,,,46,12,12,0.9,1
2026-01-16T0100,4111A,116.6075,35.4566,济宁市,任和路,颗粒物(PM10),119,187,210,81,114,55,,,,35,44,10,9,0.8,1
2026-01-16T0100,4112A,116.5648,35.3921,济宁市,文体南路1号,颗粒物(PM10),101,152,199,73,108,62,,,,28,41,9,8,0.6,0.8
2026-01-16T0100,2255A,130.2749,46.8028,佳木斯市,佳纺,"颗粒物(PM10),细颗粒物(PM2.5)",54,58,95,38,66,39,,,,15,37,8,13,0.5,0.8
2026-01-16T0100,2257A,130.3258,46.7975,佳木斯市,环保局,,,,57,46,55,38,,,,,42,8,12,0.5,0.8
2026-01-16T0100,4285A,130.363,46.806,佳木斯市,顺和街,,36,31,39,25,32,35,,,,17,35,11,13,0.4,0.6
2026-01-16T0100,4286A,130.3952,46.8268,佳木斯市,长安路196号,,37,37,41,24,33,35,,,,22,32,7,8,0.5,0.6
2026-01-16T0100,1252A,120.7439,30.778,嘉兴市,清河小学,细颗粒物(PM2.5),156,176,112,119,70,30,,,,80,69,11,10,0.9,0.9
2026-01-16T0100,1253A,120.7261,30.7477,嘉兴市,嘉兴学院,细颗粒物(PM2.5),117,145,112,88,64,5,,,,108,72,8,9,0.8,0.9
2026-01-16T0100,2872A,120.7845,30.7524,嘉兴市,南湖区残联,细颗粒物(PM2.5),140,173,103,107,65,15,,,,99,63,9,8,0.9,0.8
2026-01-16T0100,3407A,120.6915,30.7741,嘉兴市,秀洲住建,细颗粒物(PM2.5),143,164,110,109,72,22,,,,94,83,12,10,0.9,0.8
2026-01-16T0100,1945A,98.291,39.7705,嘉峪关市,气象局,颗粒物(PM10),73,95,147,34,32,65,,,,14,21,12,21,0.5,0.6
2026-01-16T0100,2884A,98.2672,39.7978,嘉峪关市,酒钢宾馆,颗粒物(PM10),76,102,161,27,32,34,,,,31,20,11,27,0.9,0.8
2026-01-16T0100,3248A,98.2644,39.7723,嘉峪关市,雄关区,颗粒物(PM10),65,79,107,32,30,5,,,,60,27,15,20,0.6,0.7
2026-01-16T0100,1383A,113.1063,22.6058,江门市,北街,细颗粒物(PM2.5),94,92,82,70,55,109,,,,36,50,/,/,/,/
2026-01-16T0100,1384A,113.073,22.5835,江门市,西区,"颗粒物(PM10),细颗粒物(PM2.5)",70,89,90,51,54,100,,,,52,57,/,/,/,/
2026-01-16T0100,1385A,113.0218,22.531,江门市,圭峰西,细颗粒物(PM2.5),78,75,71,57,51,125,,,,24,28,/,/,/,/
2026-01-16T0100,1386A,113.0826,22.5947,江门市,东湖,颗粒物(PM10),76,102,86,52,47,108,,,,48,56,9,10,0.8,0.7
2026-01-16T0100,3311A,113.1077,22.5647,江门市,江海富民,细颗粒物(PM2.5),93,123,100,69,50,126,,,,44,56,/,/,0.6,0.9
2026-01-16T0100,3449A,113.0496,22.4669,江门市,新会银湖,细颗粒物(PM2.5),105,94,85,79,69,41,,,,39,42,6,8,0.6,0.6
2026-01-16T0100,3335A,113.3137,35.2643,焦作市,马村街道办,颗粒物(PM10),63,76,113,34,47,55,,,,19,27,7,12,0.4,0.6
2026-01-16T0100,3336A,113.2464,35.2374,焦作市,焦作技师学院,颗粒物(PM10),56,61,116,22,41,50,,,,24,35,8,14,0.4,0.7
2026-01-16T0100,3477A,113.1656,35.2536,焦作市,中站许衡医院,颗粒物(PM10),69,87,102,34,38,58,,,,26,29,7,10,0.5,0.6
2026-01-16T0100,3981A,113.2456,35.18,焦作市,原李万街道办,颗粒物(PM10),77,104,137,39,43,20,,,,42,30,11,13,0.8,0.6
2026-01-16T0100,4264A,113.234,35.219,焦作市,新安路1731号,颗粒物(PM10),66,81,128,30,47,43,,,,28,32,6,11,0.4,0.6
2026-01-16T0100,4295A,113.2722,35.2121,焦作市,人民路3066号,颗粒物(PM10),72,94,136,41,43,14,,,,51,33,8,11,1.0,0.7
2026-01-16T0100,1708A,116.3701,23.5345,揭阳市,新兴,细颗粒物(PM2.5),113,111,75,85,49,8,,,,84,49,10,12,1.2,0.9
2026-01-16T0100,1709A,116.3261,23.5442,揭阳市,西马,细颗粒物(PM2.5),107,128,83,80,47,4,,,,76,39,5,8,1.1,0.7
2026-01-16T0100,1710A,116.361,23.5627,揭阳市,东兴,细颗粒物(PM2.5),88,113,80,65,44,7,,,,81,43,16,13,/,/
2026-01-16T0100,1711A,116.4151,23.5295,揭阳市,渔湖,颗粒物(PM10),67,83,74,25,36,7,,,,69,39,4,8,/,/
2026-01-16T0100,3320A,116.4028,23.5699,揭阳市,曲溪,,,105,87,56,46,,,,,69,45,2,8,0.9,1.2
2026-01-16T0100,1944A,102.1691,38.5166,金昌市,天庆家园,颗粒物(PM10),63,75,114,28,25,57,,,,15,16,17,18,0.7,0.6
2026-01-16T0100,4022A,102.1648,38.5369,金昌市,金川区人防中心,细颗粒物(PM2.5),127,,99,96,37,48,,,,17,16,9,18,1.0,0.7
2026-01-16T0100,4239A,102.193042,38.531887,金昌市,长春路96号,颗粒物(PM10),63,76,102,28,30,73,,,,6,13,6,49,0.6,0.6
2026-01-16T0100,1262A,119.6478,29.0773,金华市,十五中,细颗粒物(PM2.5),75,97,88,55,56,20,,,,77,64,4,5,0.6,0.8
2026-01-16T0100,1263A,119.6859,29.1032,金华市,监测站,细颗粒物(PM2.5),90,119,92,67,54,2,,,,92,69,4,5,0.7,0.6
2026-01-16T0100,3659A,119.656,29.1132,金华市,气象局,细颗粒物(PM2.5),99,129,94,74,58,6,,,,102,80,5,5,0.6,0.6
2026-01-16T0100,1767A,121.1114,41.0879,锦州市,南山,,26,,56,18,47,60,,,,11,25,8,11,0.5,0.7
2026-01-16T0100,1768A,121.060361,40.842794,锦州市,开发区,,32,27,66,22,50,55,,,,13,30,5,11,0.6,1
2026-01-16T0100,1769A,121.1836,41.1118,锦州市,百股街道,,28,27,61,19,51,57,,,,12,23,6,11,0.6,0.9
2026-01-16T0100,1770A,121.1176,41.1224,锦州市,天安街道,,,,53,,40,,,63,,,19,,11,,0.8
2026-01-16T0100,1771A,121.1303,41.1385,锦州市,北湖公园,,35,35,61,20,44,42,,,,19,21,15,10,0.6,0.7
2026-01-16T0100,2160A,112.8496,35.5051,晋城市,自来水公司,颗粒物(PM10),68,85,90,37,34,6,,,,63,36,14,8,0.7,0.9
2026-01-16T0100,2162A,112.8509,35.4886,晋城市,市环保局,颗粒物(PM10),61,72,95,31,32,4,,,,67,40,8,7,0.8,1
2026-01-16T0100,3620A,112.8258,35.4804,晋城市,泽州一中,颗粒物(PM10),74,98,110,31,37,25,,,,41,26,5,6,0.5,0.8
2026-01-16T0100,4078A,112.8246,35.5152,晋城市,前书院路,颗粒物(PM10),67,84,111,24,30,37,,,,27,30,7,7,0.4,0.8
2026-01-16T0100,4079A,112.8864,35.4773,晋城市,祥云街666号,颗粒物(PM10),58,66,96,29,34,35,,,,20,16,6,5,0.4,0.6
2026-01-16T0100,2174A,112.6992,37.6984,晋中市,榆次区政府,颗粒物(PM10),95,139,188,56,71,4,,,,70,51,26,26,1.4,1.2
2026-01-16T0100,2865A,112.7195,37.683,晋中市,榆次三中,颗粒物(PM10),93,136,194,48,58,1,,,,65,50,19,22,0.8,1.2
2026-01-16T0100,4080A,112.7375,37.7215,晋中市,广安街188号,颗粒物(PM10),92,133,198,46,69,2,,,,68,55,20,26,0.7,1.1
2026-01-16T0100,4200A,112.7478,37.6954,晋中市,迎宾街26号,颗粒物(PM10),91,132,192,46,65,2,,,,60,45,19,25,0.8,1.3
2026-01-16T0100,2439A,112.2012,31.048,荆门市,竹园小学,细颗粒物(PM2.5),109,136,116,82,85,85,,,,31,32,2,3,1.1,1.5
2026-01-16T0100,2440A,112.1968,30.9892,荆门市,掇刀,细颗粒物(PM2.5),120,128,130,91,94,71,,,,31,35,8,6,0.6,0.6
2026-01-16T0100,3012A,112.1849,31.0361,荆门市,西山林语,细颗粒物(PM2.5),90,116,98,67,72,87,,,,20,25,9,7,0.5,0.6
2026-01-16T0100,3547A,112.1631,31.0134,荆门市,龙泉中学南校,细颗粒物(PM2.5),137,147,124,104,89,94,,,,14,21,12,8,0.8,0.9
2026-01-16T0100,4124A,112.2213,31.0654,荆门市,新台西路6号,细颗粒物(PM2.5),160,151,132,122,103,18,,,,76,40,11,11,1.1,0.9
2026-01-16T0100,1844A,112.2493,30.3198,荆州市,市图书馆,细颗粒物(PM2.5),124,103,114,94,110,85,,,,28,37,11,10,0.9,1.1
2026-01-16T0100,1845A,112.2009,30.3543,荆州市,市委党校,细颗粒物(PM2.5),114,108,128,86,109,52,,,,42,41,5,5,0.9,1
2026-01-16T0100,3194A,112.2749,30.3124,荆州市,管委会,细颗粒物(PM2.5),129,98,123,98,108,79,,,,31,39,11,10,0.9,1.1
2026-01-16T0100,4268A,112.1722,30.3366,荆州市,学苑路85号,细颗粒物(PM2.5),147,131,126,112,108,50,,,,40,37,11,10,0.9,1
2026-01-16T0100,2343A,117.2114,29.2931,景德镇市,老干部活动中心,细颗粒物(PM2.5),82,80,72,60,54,0,,,,55,43,9,15,1.0,0.9
2026-01-16T0100,2344A,117.1893,29.2789,景德镇市,兽医站,细颗粒物(PM2.5),82,105,74,60,45,3,,,,60,45,8,12,1.1,1
2026-01-16T0100,2346A,117.246,29.2958,景德镇市,陶研所,细颗粒物(PM2.5),83,69,57,61,50,0,,,,49,39,5,6,0.7,0.6
2026-01-16T0100,4289A,117.154766,29.256967,景德镇市,青少年活动中心,细颗粒物(PM2.5),87,106,82,64,49,1,,,,67,51,6,13,/,/
2026-01-16T0100,1803A,115.9873,29.6816,九江市,十里,细颗粒物(PM2.5),92,96,95,68,70,25,,,,80,65,5,8,1.1,1.3
2026-01-16T0100,1804A,115.9583,29.7047,九江市,茅山头,细颗粒物(PM2.5),78,83,86,57,58,1,,,,78,57,8,12,1.0,1.1
2026-01-16T0100,1805A,115.9877,29.7295,九江市,西园,细颗粒物(PM2.5),117,118,94,88,63,13,,,,133,82,6,7,1.8,1.2
2026-01-16T0100,1808A,115.9112,29.6038,九江市,综合工业园,细颗粒物(PM2.5),118,113,87,89,69,28,,,,75,68,4,6,0.7,0.7
2026-01-16T0100,3190A,116.0254,29.6995,九江市,外国语学校,细颗粒物(PM2.5),109,104,96,82,66,24,,,,76,65,9,9,1.1,1.1
2026-01-16T0100,4253A,116.010205,29.659402,九江市,莲花大道8号,细颗粒物(PM2.5),67,63,76,48,57,82,,,,5,21,2,6,0.6,0.7
2026-01-16T0100,4240A,98.495752,39.733935,酒泉市,玉门东路5号,颗粒物(PM10),62,73,152,38,32,66,,,,7,14,10,12,0.4,0.5
2026-01-16T0100,4241A,98.5099,39.7506,酒泉市,北大街108号,颗粒物(PM10),65,80,139,37,30,63,,,,9,19,10,12,0.5,0.5
2026-01-16T0100,2698A,76.0071,39.466,喀什地区,巡警大队,颗粒物(PM10),93,136,142,46,72,45,,,,26,54,6,9,1.0,2.7
2026-01-16T0100,2699A,75.9756,39.4693,喀什地区,吾办,颗粒物(PM10),99,148,127,69,75,34,,,,36,59,11,11,1.1,2.5
2026-01-16T0100,4027A,75.9485,39.4688,喀什地区,老干局,颗粒物(PM10),101,151,148,39,59,44,,,,25,46,7,9,0.9,2.6
2026-01-16T0100,1824A,114.3389,34.778,开封市,肿瘤医院,颗粒物(PM10),71,91,127,38,40,33,,,,40,43,5,7,0.5,0.5
2026-01-16T0100,1826A,114.2884,34.7966,开封市,世纪星幼儿园,颗粒物(PM10),75,99,120,45,49,46,,,,26,36,6,8,0.4,0.4
2026-01-16T0100,3147A,114.3434,34.8101,开封市,龙亭公园,颗粒物(PM10),68,86,121,33,36,38,,,,31,34,7,8,0.8,0.7
2026-01-16T0100,3210A,114.3645,34.7955,开封市,汴京公园,颗粒物(PM10),80,110,128,42,43,35,,,,37,40,4,6,0.6,0.6
2026-01-16T0100,3473A,114.2485,34.8306,开封市,技师学院,颗粒物(PM10),67,83,115,36,38,51,,,,24,28,6,7,0.5,0.6
2026-01-16T0100,3592A,114.4518,34.7503,开封市,祥符区生态环境局,颗粒物(PM10),86,121,139,38,46,22,,,,55,46,4,7,0.5,0.5
2026-01-16T0100,1951A,84.886,45.6029,克拉玛依市,长征新村,,23,23,22,13,12,54,,,,8,9,6,6,0.2,0.2
2026-01-16T0100,1952A,84.8894,45.5827,克拉玛依市,南林小区,,19,17,22,12,11,58,,,,6,9,2,3,0.4,0.4
2026-01-16T0100,1954A,84.896,44.3328,克拉玛依市,独山子区,,35,35,93,24,63,65,,,,15,28,6,6,0.4,0.7
2026-01-16T0100,1955A,85.6888,46.0909,克拉玛依市,乌尔禾区商贸楼,,21,14,30,6,8,65,,,,11,16,7,7,0.4,0.4
2026-01-16T0100,3612A,85.1045,45.6895,克拉玛依市,白碱滩区新站,,47,47,32,15,14,55,,,,10,16,8,19,0.3,0.3
2026-01-16T0100,2697A,76.1457,39.7143,克孜勒苏柯尔克孜自治州,市人民政府,颗粒物(PM10),70,90,54,31,18,55,,,,22,11,5,4,0.4,0.2
2026-01-16T0100,3665A,76.1654,39.7157,克孜勒苏柯尔克孜自治州,克州文化中心,颗粒物(PM10),64,77,45,43,18,54,,,,23,12,7,6,0.6,0.6
2026-01-16T0100,1450A,102.8203,24.889,昆明市,呈贡新区,,31,31,55,19,35,61,,,,16,23,4,4,0.6,0.8
2026-01-16T0100,1452A,102.7253,25.0904,昆明市,龙泉镇,颗粒物(PM10),59,67,48,26,33,1,,,,56,28,4,4,0.7,0.6
2026-01-16T0100,1453A,102.7267,25.0378,昆明市,东风东路,,41,41,54,28,39,56,,,,24,22,7,7,0.3,0.4
2026-01-16T0100,1454A,102.6744,25.0671,昆明市,金鼎山,,49,49,53,24,34,51,,,,23,18,5,5,0.7,0.7
2026-01-16T0100,1455A,102.6643,25.0401,昆明市,碧鸡广场,,39,39,49,27,34,43,,,,33,22,5,5,0.4,0.5
2026-01-16T0100,3179A,102.7491,25.012,昆明市,官渡区博物馆,,29,29,54,20,35,67,,,,18,28,3,4,0.2,0.3
2026-01-16T0100,3375A,102.8016,24.8336,昆明市,青年创业园,,28,28,50,19,35,71,,,,8,12,4,5,0.5,0.6
2026-01-16T0100,3550A,102.8,24.9787,昆明市,昆明学院,,34,34,57,21,35,69,,,,18,20,4,4,0.3,0.4
2026-01-16T0100,3551A,102.5969,24.6738,昆明市,晋宁区生态环境分局,,35,29,49,24,33,60,,,,13,19,3,3,0.5,0.6
2026-01-16T0100,3552A,102.6673,24.9861,昆明市,云天化总部,,30,30,44,12,29,85,,,,8,19,9,7,0.2,0.4
2026-01-16T0100,1456A,91.132,29.6515,拉萨市,八廓街,,23,23,24,12,14,58,,,,21,17,7,7,0.7,0.4
2026-01-16T0100,1457A,91.1221,29.6748,拉萨市,市环保局,,31,31,30,16,20,47,,,,32,28,8,8,1.0,1
2026-01-16T0100,1458A,91.0874,29.6476,拉萨市,区监测站,,18,18,21,12,11,55,,,,29,29,5,5,1.0,0.9
2026-01-16T0100,1459A,91.1774,29.6541,拉萨市,西藏大学,,24,14,18,9,9,76,,,,12,16,5,5,0.6,0.5
2026-01-16T0100,1460A,90.9798,29.6586,拉萨市,区辐射站,,33,31,37,23,21,60,,,,25,32,4,5,0.8,0.7
2026-01-16T0100,1461A,91.0831,29.6292,拉萨市,拉萨火车站,,35,35,30,13,17,53,,,,28,30,4,4,0.9,0.9
2026-01-16T0100,2520A,109.2203,23.7252,来宾市,来宾技工学校,细颗粒物(PM2.5),118,109,113,89,84,15,,,,46,30,9,13,0.9,1
2026-01-16T0100,3535A,109.1781,23.7293,来宾市,兴宾区政府,细颗粒物(PM2.5),95,96,117,71,91,52,,,,24,21,7,8,0.8,0.8
2026-01-16T0100,4002A,109.2312,23.7428,来宾市,中南小学,细颗粒物(PM2.5),127,145,113,96,77,16,,,,55,42,10,7,1.0,1
2026-01-16T0100,1479A,103.8309,36.0467,兰州市,铁路设计院,,,,,,,,,,,,,,,,
2026-01-16T0100,3241A,103.7439,36.0841,兰州市,百合公园,颗粒物(PM10),97,144,124,41,41,1,,,,72,65,12,12,0.8,1.3
2026-01-16T0100,3242A,103.9613,35.9985,兰州市,和平,颗粒物(PM10),100,149,107,35,40,46,,,,23,31,9,14,0.5,1.1
2026-01-16T0100,4236A,103.629272,36.093822,兰州市,庄浪东路808号,颗粒物(PM10),90,130,124,43,44,52,,,,25,51,12,21,0.4,1
2026-01-16T0100,4237A,103.7251,36.104344,兰州市,安宁西路88号,颗粒物(PM10),111,172,135,48,40,21,,,,54,60,11,16,0.5,0.9
2026-01-16T0100,4238A,103.846982,36.067567,兰州市,北滨河东路1号,颗粒物(PM10),95,140,121,43,44,3,,,,73,72,8,13,0.6,1.6
2026-01-16T0100,1067A,116.6712,39.5109,廊坊市,药材公司,细颗粒物(PM2.5),85,111,139,63,89,34,,,,25,56,5,5,1.0,1.1
2026-01-16T0100,1068A,116.7215,39.5592,廊坊市,开发区,细颗粒物(PM2.5),94,109,148,70,89,31,,,,33,58,3,4,0.7,0.9
2026-01-16T0100,1070A,116.7246,39.5273,廊坊市,北华航天学院,细颗粒物(PM2.5),94,113,153,70,92,32,,,,26,56,3,5,0.8,1
2026-01-16T0100,2919A,116.7022,39.5454,廊坊市,河北工业大学,细颗粒物(PM2.5),92,115,155,68,93,27,,,,29,55,3,4,0.8,0.9
2026-01-16T0100,2536A,103.7629,29.5844,乐山市,牛耳桥,细颗粒物(PM2.5),117,108,92,88,75,1,,,,44,42,6,5,0.9,0.8
2026-01-16T0100,2537A,103.7501,29.6002,乐山市,市第三水厂,细颗粒物(PM2.5),108,99,90,81,68,2,,,,55,47,6,7,0.8,0.8
2026-01-16T0100,2538A,103.7571,29.5664,乐山市,市监测站,细颗粒物(PM2.5),113,110,91,85,73,31,,,,39,37,6,7,0.8,0.9
2026-01-16T0100,3361A,103.7313,29.563,乐山市,理工大学,细颗粒物(PM2.5),118,115,94,89,74,36,,,,29,37,5,6,0.6,0.6
2026-01-16T0100,2599A,100.2497,26.8802,丽江市,丽江古城,,28,28,34,19,22,66,,,,11,17,10,10,0.4,0.5
2026-01-16T0100,2600A,100.2203,26.8906,丽江市,市中心,,26,14,26,6,14,81,,,,8,16,7,7,0.4,0.5
2026-01-16T0100,1267A,119.9141,28.4513,丽水市,监测站大楼,细颗粒物(PM2.5),55,49,53,39,36,5,,,,60,46,8,7,0.4,0.7
2026-01-16T0100,1268A,119.93,28.4589,丽水市,莲都小学,颗粒物(PM10),59,67,61,35,30,4,,,,67,52,/,/,/,/
2026-01-16T0100,1269A,119.8794,28.4232,丽水市,余庄前,颗粒物(PM10),53,56,52,33,32,5,,,,36,29,4,5,0.4,0.4
2026-01-16T0100,1173A,119.1759,34.5885,连云港市,市环境监测站,细颗粒物(PM2.5),240,249,231,190,177,72,,,,27,51,13,18,1.0,1.2
2026-01-16T0100,3000A,119.3577,34.6971,连云港市,德源药业,细颗粒物(PM2.5),228,239,236,178,159,81,,,,31,64,8,10,1.5,1.5
2026-01-16T0100,3007A,119.178,34.8442,连云港市,新城一中,细颗粒物(PM2.5),248,252,236,198,190,38,,,,85,85,14,17,1.6,1.5
2026-01-16T0100,3008A,119.3607,34.7519,连云港市,胡沟管理处,细颗粒物(PM2.5),195,202,220,146,155,120,,,,25,68,16,20,1.3,1.5
2026-01-16T0100,3009A,119.1478,34.5913,连云港市,矿山设计院,细颗粒物(PM2.5),233,261,244,183,169,70,,,,33,58,11,15,1.3,1.5
2026-01-16T0100,3434A,119.2414,34.6539,连云港市,工贸学校,细颗粒物(PM2.5),224,234,237,174,184,100,,,,23,48,16,17,1.4,1.5
2026-01-16T0100,3664A,119.4171,34.734,连云港市,连云街道,细颗粒物(PM2.5),214,233,221,164,148,114,,,,26,59,8,12,1.1,1.2
2026-01-16T0100,2573A,102.2629,27.8981,凉山彝族自治州,西昌市政府,,41,41,41,27,29,59,,,,10,12,10,10,0.6,0.6
2026-01-16T0100,2574A,102.2686,27.885,凉山彝族自治州,凉山州政府,颗粒物(PM10),56,62,46,39,29,38,,,,23,15,8,11,0.7,0.6
2026-01-16T0100,4229A,102.2342,27.8859,凉山彝族自治州,凯乐南路30号,"颗粒物(PM10),细颗粒物(PM2.5)",60,69,55,43,33,18,,,,53,20,6,10,0.6,0.7
2026-01-16T0100,2212A,123.1978,41.2036,辽阳市,宏伟区,细颗粒物(PM2.5),72,,62,52,54,37,,,,26,19,8,6,0.9,0.9
2026-01-16T0100,2213A,123.1684,41.2497,辽阳市,新华园,细颗粒物(PM2.5),69,73,62,50,53,26,,,,46,28,14,8,0.7,0.7
2026-01-16T0100,2214A,123.2355,41.2663,辽阳市,滨河路,细颗粒物(PM2.5),72,68,67,52,51,30,,,,32,25,7,7,0.5,0.4
2026-01-16T0100,4083A,123.153,41.2874,辽阳市,铁西路150号,细颗粒物(PM2.5),72,61,57,52,52,28,,,,40,29,14,10,1.0,0.9
2026-01-16T0100,2227A,125.1359,42.8845,辽源市,环保局,颗粒物(PM10),119,188,69,71,37,10,,,,50,34,3,7,1.1,0.7
2026-01-16T0100,4085A,125.0998,42.9134,辽源市,安宁大街333号,细颗粒物(PM2.5),75,,52,55,39,18,,,,32,19,4,4,0.9,0.6
2026-01-16T0100,1625A,115.9789,36.4372,聊城市,区政府,颗粒物(PM10),106,161,214,64,107,58,,,,38,57,16,17,0.8,1.2
2026-01-16T0100,3200A,115.9772,36.4986,聊城市,监控中心,颗粒物(PM10),111,172,220,66,119,68,,,,30,51,10,11,0.8,1.2
2026-01-16T0100,3513A,116.0443,36.436,聊城市,九州社区,颗粒物(PM10),110,169,211,75,112,65,,,,19,39,8,10,0.6,0.9
2026-01-16T0100,4018A,116.0564,36.4609,聊城市,星美广场,颗粒物(PM10),113,176,225,67,108,61,,,,23,48,8,9,0.7,1
2026-01-16T0100,4113A,116.0091,36.4495,聊城市,利民路,颗粒物(PM10),100,149,196,69,110,53,,,,38,58,12,14,0.8,1.2
2026-01-16T0100,2632A,94.3683,29.6373,林芝市,林芝监测站,,21,14,9,8,7,65,,,,3,4,3,3,0.4,0.4
2026-01-16T0100,2633A,94.3616,29.6634,林芝市,林芝人民医院,,22,22,18,11,8,66,,,,9,8,1,2,0.5,0.4
2026-01-16T0100,2603A,100.0779,23.8981,临沧市,市环保局,细颗粒物(PM2.5),87,,44,64,46,28,,,,18,14,5,5,0.8,0.7
2026-01-16T0100,2604A,100.0894,23.882,临沧市,市气象局,细颗粒物(PM2.5),53,49,53,37,41,36,,,,10,16,5,6,0.5,0.6
2026-01-16T0100,1733A,111.5552,36.0791,临汾市,临钢医院,颗粒物(PM10),105,159,198,59,75,16,,,,40,39,10,8,0.9,1.3
2026-01-16T0100,1734A,111.4984,36.0734,临汾市,技工学校,颗粒物(PM10),106,161,210,73,79,2,,,,53,49,9,9,0.9,1.3
2026-01-16T0100,1736A,111.5017,36.0857,临汾市,市委,颗粒物(PM10),108,166,192,60,72,3,,,,57,47,12,12,1.1,1.5
2026-01-16T0100,3018A,111.5048,36.1015,临汾市,唐尧大酒店,,,,190,,82,,,63,,,50,,7,,1.5
2026-01-16T0100,4244A,111.4879,36.053,临汾市,启星学校,颗粒物(PM10),119,187,178,78,72,1,,,,70,58,7,9,1.3,1.5
2026-01-16T0100,4271A,103.2464,35.6123,临夏回族自治州,滨河东路1号,颗粒物(PM10),154,258,162,108,65,9,,,,40,33,8,9,1.8,1.3
2026-01-16T0100,4310A,103.207136,35.599807,临夏回族自治州,新华街21号,细颗粒物(PM2.5),148,189,129,113,61,15,,,,33,39,13,13,1.8,1.6
2026-01-16T0100,1618A,118.3429,35.0532,临沂市,沂河小区,细颗粒物(PM2.5),292,271,253,242,192,51,,,,52,63,25,22,1.2,1.4
2026-01-16T0100,1619A,118.2962,35.0568,临沂市,鲁南制药厂,细颗粒物(PM2.5),282,285,271,232,192,42,,,,63,69,28,27,1.4,1.7
2026-01-16T0100,1620A,118.2793,34.9976,临沂市,新光毛纺厂,细颗粒物(PM2.5),277,283,255,227,185,30,,,,74,77,18,24,1.4,1.6
2026-01-16T0100,1621A,118.3955,35.0889,临沂市,河东保险公司,细颗粒物(PM2.5),244,268,252,194,170,34,,,,68,69,11,17,1.4,1.4
2026-01-16T0100,3370A,118.3563,35.0215,临沂市,十里堡居委,细颗粒物(PM2.5),252,285,261,202,168,34,,,,76,70,30,24,1.4,1.5
2026-01-16T0100,3496A,118.359,35.1067,临沂市,南坊新区,细颗粒物(PM2.5),255,266,237,205,163,52,,,,60,65,22,18,1.4,1.3
2026-01-16T0100,3860A,118.3915,35.0297,临沂市,皇山花园小区,细颗粒物(PM2.5),232,280,259,182,161,33,,,,76,68,22,22,1.5,1.6
2026-01-16T0100,1870A,109.4854,24.3898,柳州市,柳东小学,细颗粒物(PM2.5),176,148,136,133,123,53,,,,53,29,25,27,1.4,1.3
2026-01-16T0100,1871A,109.4109,24.3304,柳州市,环保监测站,细颗粒物(PM2.5),139,144,151,106,113,12,,,,65,51,6,16,1.8,1.6
2026-01-16T0100,1872A,109.3886,24.3408,柳州市,河西水厂,,,,222,,117,,,130,,,54,,18,,1.3
2026-01-16T0100,1873A,109.4263,24.2951,柳州市,市四中,细颗粒物(PM2.5),145,174,148,111,107,2,,,,85,67,10,15,2.1,1.6
2026-01-16T0100,1874A,109.396,24.3658,柳州市,市九中,细颗粒物(PM2.5),165,148,162,125,120,10,,,,70,52,13,24,1.8,1.6
2026-01-16T0100,1875A,109.4912,24.3164,柳州市,古亭山,细颗粒物(PM2.5),92,93,116,68,82,0,,,,90,61,12,18,0.8,1.2
2026-01-16T0100,3402A,109.5422,24.3994,柳州市,市二中,细颗粒物(PM2.5),160,133,123,122,101,13,,,,52,41,10,15,1.3,1.1
2026-01-16T0100,2307A,116.5078,31.7369,六安市,监测大楼,细颗粒物(PM2.5),77,77,68,56,46,77,,,,24,31,5,5,0.3,0.4
2026-01-16T0100,2308A,116.4738,31.7642,六安市,皖西学院,颗粒物(PM10),69,87,75,49,42,93,,,,20,31,8,6,0.4,0.5
2026-01-16T0100,2309A,116.4997,31.7904,六安市,朝阳厂,细颗粒物(PM2.5),70,75,66,51,45,80,,,,24,32,8,7,0.5,0.5
2026-01-16T0100,2310A,116.5566,31.7885,六安市,开发区,颗粒物(PM10),77,104,75,55,47,52,,,,42,38,7,6,0.4,0.4
2026-01-16T0100,2577A,104.8293,26.592,六盘水市,黄土坡,细颗粒物(PM2.5),92,84,68,68,49,38,,,,26,27,8,14,1.0,0.9
2026-01-16T0100,2579A,104.8481,26.5898,六盘水市,民中,细颗粒物(PM2.5),110,92,67,83,57,51,,,,36,28,11,12,1.3,0.8
2026-01-16T0100,2580A,104.9541,26.5506,六盘水市,双水,细颗粒物(PM2.5),92,85,72,68,54,63,,,,19,16,6,8,0.6,0.6
2026-01-16T0100,4151A,104.8899,26.5685,六盘水市,钟山大道中段564号,细颗粒物(PM2.5),103,114,88,77,57,58,,,,22,22,13,16,1.2,1.1
2026-01-16T0100,2336A,117.022,25.1031,龙岩市,龙岩市监测站,细颗粒物(PM2.5),57,56,46,40,31,22,,,,51,36,33,24,0.7,0.6
2026-01-16T0100,2337A,117.0257,25.0662,龙岩市,闽西职业技术学院,颗粒物(PM10),53,55,47,34,27,46,,,,37,28,17,16,0.6,0.6
2026-01-16T0100,2338A,117.0195,25.0306,龙岩市,龙岩学院,,50,,43,35,28,66,,,,16,18,8,10,/,/
2026-01-16T0100,2885A,104.9344,33.3827,陇南市,滨江中学,颗粒物(PM10),91,132,127,48,54,1,,,,63,47,16,22,3.0,2.3
2026-01-16T0100,3247A,104.9551,33.3709,陇南市,市总工会,颗粒物(PM10),64,78,94,41,39,15,,,,44,36,10,12,1.2,1
2026-01-16T0100,2488A,111.9984,27.7346,娄底市,市监测站,细颗粒物(PM2.5),114,125,93,86,67,17,,,,68,41,11,12,1.3,1.1
2026-01-16T0100,2491A,111.9888,27.7035,娄底市,市政府,细颗粒物(PM2.5),150,152,98,115,75,6,,,,56,35,8,8,1.4,1.1
2026-01-16T0100,4127A,111.9812,27.7591,娄底市,涟钢职大,细颗粒物(PM2.5),90,110,89,67,59,6,,,,65,39,9,10,0.9,0.8
2026-01-16T0100,4128A,112.0303,27.7457,娄底市,娄底体校,细颗粒物(PM2.5),105,99,92,79,68,8,,,,38,27,3,4,0.8,0.7
2026-01-16T0100,1894A,105.4427,28.9063,泸州市,小市上码头,细颗粒物(PM2.5),199,178,144,149,113,3,,,,76,31,8,9,1.9,1.4
2026-01-16T0100,1895A,105.4241,28.8573,泸州市,兰田宪桥,细颗粒物(PM2.5),230,249,171,180,119,12,,,,33,21,8,8,1.2,1.4
2026-01-16T0100,1896A,105.4378,28.8833,泸州市,市环监站,细颗粒物(PM2.5),179,179,138,135,107,6,,,,77,31,9,9,1.5,1.3
2026-01-16T0100,4272A,105.3689,28.7783,泸州市,纳溪中医医院,细颗粒物(PM2.5),217,179,136,167,128,10,,,,27,23,7,8,1.4,1.2
2026-01-16T0100,2183A,111.1447,37.5212,吕梁市,环保局,颗粒物(PM10),85,120,167,33,53,3,,,,55,46,5,6,0.4,0.4
2026-01-16T0100,2185A,111.1285,37.5338,吕梁市,自来水公司,颗粒物(PM10),119,188,276,43,60,2,,,,47,38,10,8,0.5,0.7
2026-01-16T0100,2867A,111.1225,37.5093,吕梁市,马茂庄小学,颗粒物(PM10),86,121,279,30,66,1,,,,58,44,4,9,0.4,0.4
2026-01-16T0100,1812A,112.3934,34.6517,洛阳市,市委党校,细颗粒物(PM2.5),98,133,119,73,52,4,,,,65,46,15,11,1.1,0.9
2026-01-16T0100,1815A,112.494,34.6883,洛阳市,河南林校,细颗粒物(PM2.5),134,144,132,102,61,4,,,,68,50,13,13,1.0,0.9
2026-01-16T0100,1816A,112.3843,34.623,洛阳市,开发区管委会,颗粒物(PM10),88,126,122,64,45,9,,,,52,36,10,12,0.9,0.7
2026-01-16T0100,1817A,112.4263,34.6249,洛阳市,市委新办公区,细颗粒物(PM2.5),97,135,112,72,49,8,,,,59,47,12,12,0.8,0.6
2026-01-16T0100,3340A,112.6005,34.6323,洛阳市,伊滨,颗粒物(PM10),109,167,115,77,56,7,,,,57,44,7,9,0.7,0.5
2026-01-16T0100,3341A,112.495,34.6338,洛阳市,中移产业园,细颗粒物(PM2.5),90,126,108,67,45,0,,,,67,40,13,12,0.9,0.7
2026-01-16T0100,3593A,112.5736,34.8993,洛阳市,吉利监测站,颗粒物(PM10),77,104,142,43,45,31,,,,39,44,11,10,0.7,0.7
2026-01-16T0100,3635A,112.3678,34.6623,洛阳市,河科大西苑校区,颗粒物(PM10),102,154,139,65,47,4,,,,61,50,16,13,1.1,0.9
2026-01-16T0100,3636A,112.4387,34.678,洛阳市,英才小学,颗粒物(PM10),120,189,156,88,68,2,,,,71,63,14,15,1.0,1
2026-01-16T0100,4214A,112.460027,34.694929,洛阳市,春都路1号院,颗粒物(PM10),102,153,151,66,53,4,,,,62,44,10,11,1.1,1
2026-01-16T0100,2399A,114.051,33.5721,漯河市,三五一五工厂,颗粒物(PM10),73,95,117,47,69,28,,,,49,31,7,7,0.5,0.6
2026-01-16T0100,2400A,114.0055,33.5698,漯河市,漯河大学,颗粒物(PM10),68,86,105,24,63,43,,,,31,22,7,7,0.5,0.8
2026-01-16T0100,2401A,114.0134,33.5826,漯河市,市水利局,颗粒物(PM10),64,78,102,39,63,46,,,,27,22,8,8,0.5,0.7
2026-01-16T0100,2402A,114.0261,33.5697,漯河市,市广电局,颗粒物(PM10),63,76,100,33,58,61,,,,25,23,7,7,0.6,0.7
2026-01-16T0100,3478A,113.9691,33.568,漯河市,市图书馆,颗粒物(PM10),73,95,118,45,72,37,,,,39,23,7,6,0.6,0.7
2026-01-16T0100,4250A,114.089259,33.588274,漯河市,韶山路11号,颗粒物(PM10),84,117,110,45,62,32,,,,35,26,7,8,0.6,0.7
2026-01-16T0100,1798A,118.5084,31.6838,马鞍山市,湖东路四小,细颗粒物(PM2.5),94,136,125,70,69,23,,,,73,70,8,9,0.8,1
2026-01-16T0100,1799A,118.5019,31.6449,马鞍山市,开发区,细颗粒物(PM2.5),120,141,134,91,88,32,,,,68,72,9,8,0.8,0.9
2026-01-16T0100,3633A,118.4914,31.681,马鞍山市,雨山,细颗粒物(PM2.5),104,142,122,78,76,20,,,,85,73,12,11,1.0,1
2026-01-16T0100,4191A,118.527362,31.722269,马鞍山市,慈湖高新区,细颗粒物(PM2.5),124,150,133,94,81,36,,,,62,69,9,14,0.8,1.2
2026-01-16T0100,1686A,111.0285,21.469,茂名市,电白南海,颗粒物(PM10),58,66,60,34,35,54,,,,28,20,8,15,0.7,1
2026-01-16T0100,1687A,110.9294,21.6533,茂名市,茂石化七小,颗粒物(PM10),54,58,69,31,33,68,,,,25,25,8,10,0.5,0.5
2026-01-16T0100,1688A,110.9108,21.6688,茂名市,健康路,,44,44,61,29,35,91,,,,19,26,9,20,0.7,1
2026-01-16T0100,1689A,110.8592,21.6826,茂名市,高岭,颗粒物(PM10),60,70,84,31,36,46,,,,40,31,8,20,/,/
2026-01-16T0100,3450A,111.0101,21.5165,茂名市,电白水东,颗粒物(PM10),52,53,52,31,29,67,,,,22,17,7,14,/,/
2026-01-16T0100,2540A,103.8414,30.0871,眉山市,气象局,细颗粒物(PM2.5),132,129,103,100,83,8,,,,55,41,13,14,0.9,0.8
2026-01-16T0100,3148A,103.829,30.0563,眉山市,区人社局,细颗粒物(PM2.5),134,121,104,102,81,2,,,,62,51,12,12,1.0,1
2026-01-16T0100,4148A,103.8836,30.0695,眉山市,眉职院,细颗粒物(PM2.5),104,110,97,78,62,3,,,,49,35,1,2,0.8,0.8
2026-01-16T0100,1690A,116.1248,24.3307,梅州市,梅江月梅,颗粒物(PM10),58,65,58,35,35,14,,,,62,39,/,/,/,/
2026-01-16T0100,1691A,116.0798,24.2719,梅州市,梅县新城,细颗粒物(PM2.5),57,52,60,40,41,2,,,,67,47,7,8,0.7,0.8
2026-01-16T0100,3315A,116.1234,24.2994,梅州市,梅龙,颗粒物(PM10),64,78,60,43,33,4,,,,68,41,8,11,0.9,0.9
2026-01-16T0100,1878A,104.7775,31.4741,绵阳市,富乐山,细颗粒物(PM2.5),123,111,83,93,63,6,,,,59,30,8,8,0.8,0.6
2026-01-16T0100,1880A,104.6698,31.4668,绵阳市,高新区自来水公司,细颗粒物(PM2.5),122,135,109,92,71,0,,,,63,44,9,9,0.9,1
2026-01-16T0100,3491A,104.6899,31.5324,绵阳市,西科大附属小学,细颗粒物(PM2.5),102,104,107,76,68,15,,,,66,47,8,9,0.8,0.7
2026-01-16T0100,3492A,104.5647,31.5343,绵阳市,安州区旅游局,细颗粒物(PM2.5),122,115,90,92,69,14,,,,48,43,11,11,0.9,0.8
2026-01-16T0100,4146A,104.7092,31.4972,绵阳市,科技城新区公安局,细颗粒物(PM2.5),110,115,111,83,65,43,,,,47,46,10,10,0.9,0.8
2026-01-16T0100,4226A,104.765114,31.453094,绵阳市,绵阳市气象局,细颗粒物(PM2.5),119,133,92,90,66,2,,,,70,43,11,9,1.0,0.8
2026-01-16T0100,1784A,129.61,44.561,牡丹江市,环保大楼,,48,35,52,33,32,52,,,,20,32,3,10,0.3,0.5
2026-01-16T0100,1787A,129.6364,44.6075,牡丹江市,机车工厂,细颗粒物(PM2.5),80,80,57,59,35,4,,,,50,32,2,9,0.8,0.6
2026-01-16T0100,1788A,129.6386,44.5462,牡丹江市,第一中学,,42,37,45,29,40,30,,,,24,24,6,7,0.5,0.5
2026-01-16T0100,4287A,129.5992,44.5964,牡丹江市,东晓云街98号,细颗粒物(PM2.5),95,100,69,71,57,5,,,,50,34,9,19,1.3,0.9
2026-01-16T0100,2531A,105.0703,29.61,内江市,市监测站,细颗粒物(PM2.5),216,,115,166,114,57,,,,21,27,6,7,1.1,1.1
2026-01-16T0100,2533A,105.0657,29.5807,内江市,内江二中,细颗粒物(PM2.5),195,168,130,146,114,31,,,,46,35,5,5,1.2,1.1
2026-01-16T0100,2534A,105.0407,29.5828,内江市,内江日报社,细颗粒物(PM2.5),188,154,111,141,113,56,,,,35,41,3,3,1.1,1
2026-01-16T0100,4147A,105.0433,29.6105,内江市,玉峰路西段888号,细颗粒物(PM2.5),205,163,111,155,112,41,,,,39,38,2,2,1.1,1.1
2026-01-16T0100,2628A,92.0653,31.4846,那曲市,那曲监测站,细颗粒物(PM2.5),83,76,46,61,26,18,,,,59,22,11,8,2.7,1.2
2026-01-16T0100,4243A,92.0515,31.4787,那曲市,那曲市委宣传部,,27,27,31,16,15,38,,,,26,14,7,6,1.2,1
2026-01-16T0100,1291A,115.8887,28.7006,南昌市,省林业公司,细颗粒物(PM2.5),89,92,93,66,64,15,,,,110,64,8,8,1.4,1.3
2026-01-16T0100,1292A,115.813,28.7443,南昌市,林科所,细颗粒物(PM2.5),67,61,67,48,48,87,,,,42,49,9,10,0.4,0.4
2026-01-16T0100,1294A,115.8518,28.687,南昌市,建工学校,细颗粒物(PM2.5),107,132,111,80,73,2,,,,116,71,14,17,1.4,1.2
2026-01-16T0100,1295A,115.8926,28.6425,南昌市,象湖,细颗粒物(PM2.5),140,165,114,107,77,0,,,,108,71,11,12,1.6,1.2
2026-01-16T0100,3046A,115.9084,28.6062,南昌市,机电学校,细颗粒物(PM2.5),134,146,132,102,87,4,,,,104,70,7,10,1.2,1
2026-01-16T0100,3690A,115.9718,28.7032,南昌市,外国语学校,细颗粒物(PM2.5),115,113,104,87,76,1,,,,118,64,16,16,1.0,0.9
2026-01-16T0100,4106A,115.7923,28.6873,南昌市,工业二路,细颗粒物(PM2.5),88,81,83,65,64,0,,,,100,63,6,8,1.8,1.4
2026-01-16T0100,4192A,115.931587,28.686774,南昌市,南京东路235号,细颗粒物(PM2.5),128,140,117,97,85,4,,,,112,67,7,9,1.3,1.2
2026-01-16T0100,1906A,106.0791,30.8022,南充市,南充市委,细颗粒物(PM2.5),180,160,141,136,120,2,,,,73,53,4,4,1.3,1.2
2026-01-16T0100,1907A,106.1038,30.8215,南充市,南充炼油厂,细颗粒物(PM2.5),172,149,138,130,119,39,,,,31,32,6,6,1.1,1.1
2026-01-16T0100,4227A,106.108336,30.788436,南充市,梨树横街98号,细颗粒物(PM2.5),150,136,136,115,110,46,,,,42,41,6,6,1.0,1
2026-01-16T0100,4304A,106.1172,30.843,南充市,清泉寺北路188号,细颗粒物(PM2.5),149,117,109,114,116,77,,,,17,20,6,6,0.7,0.7
2026-01-16T0100,4305A,106.067,30.7616,南充市,同庆路1号,细颗粒物(PM2.5),153,129,132,117,113,8,,,,73,50,6,6,1.3,1.2
2026-01-16T0100,1151A,118.8033,32.1085,南京市,迈皋桥,细颗粒物(PM2.5),113,130,93,85,54,45,,,,60,66,11,6,0.8,0.8
2026-01-16T0100,1152A,118.7487,32.057,南京市,草场门,细颗粒物(PM2.5),110,141,110,83,59,38,,,,71,64,14,11,0.8,0.8
2026-01-16T0100,1154A,118.770105,32.004342,南京市,中华门,细颗粒物(PM2.5),107,132,101,80,58,3,,,,99,65,8,7,0.8,0.7
2026-01-16T0100,1155A,118.8059,32.0329,南京市,瑞金路,细颗粒物(PM2.5),117,122,106,88,62,2,,,,95,74,4,4,1.2,1.3
2026-01-16T0100,1156A,118.7946,32.0774,南京市,玄武湖,细颗粒物(PM2.5),107,120,93,80,53,44,,,,32,20,4,4,1.0,1
2026-01-16T0100,1157A,118.6415,32.0964,南京市,浦口,颗粒物(PM10),90,129,110,60,58,32,,,,82,43,12,11,1.1,0.7
2026-01-16T0100,1158A,118.730129,32.000956,南京市,奥体中心,细颗粒物(PM2.5),122,139,113,92,67,8,,,,119,75,12,11,0.9,0.9
2026-01-16T0100,1159A,118.9072,32.1047,南京市,仙林大学城,细颗粒物(PM2.5),113,141,101,85,53,32,,,,71,61,13,11,1.1,1.1
2026-01-16T0100,3422A,118.8443,31.919,南京市,江宁彩虹桥,细颗粒物(PM2.5),128,128,97,97,58,32,,,,55,67,8,6,0.8,0.8
2026-01-16T0100,3427A,118.8497,32.3599,南京市,六合雄州,细颗粒物(PM2.5),156,173,122,119,84,20,,,,65,52,5,10,0.9,1
2026-01-16T0100,4086A,118.7641,32.0841,南京市,新模范马路66号,细颗粒物(PM2.5),127,144,111,96,57,71,,,,42,65,5,4,1.1,1.1
2026-01-16T0100,4249A,118.8707617,31.34017673,南京市,汶溪路181号,细颗粒物(PM2.5),108,93,81,81,68,51,,,,43,40,10,11,1.0,1.1
2026-01-16T0100,4312A,119.019,31.6512,南京市,中山西路1号,细颗粒物(PM2.5),93,97,84,69,66,26,,,,52,47,4,4,1.0,1
2026-01-16T0100,1401A,108.3098,22.788,南宁市,二十一中,细颗粒物(PM2.5),108,98,87,81,65,3,,,,75,44,4,7,1.1,0.8
2026-01-16T0100,1402A,108.3135,22.8529,南宁市,北湖,细颗粒物(PM2.5),119,139,108,90,77,0,,,,82,71,4,6,1.0,1
2026-01-16T0100,1403A,108.3205,22.8222,南宁市,市监测站,细颗粒物(PM2.5),110,119,91,83,63,16,,,,82,57,7,13,1.1,0.9
2026-01-16T0100,1404A,108.3828,22.8038,南宁市,大自然花园,细颗粒物(PM2.5),73,85,85,53,59,84,,,,22,37,8,8,1.0,0.9
2026-01-16T0100,1406A,108.2397,22.8462,南宁市,区农职院,细颗粒物(PM2.5),97,99,83,72,56,11,,,,63,50,13,16,1.0,1
2026-01-16T0100,1407A,108.3285,22.7356,南宁市,英华嘉园,细颗粒物(PM2.5),112,134,100,84,67,0,,,,86,57,4,5,1.2,1
2026-01-16T0100,3401A,108.4829,22.762,南宁市,红星社区,细颗粒物(PM2.5),89,75,85,66,62,15,,,,49,44,3,5,0.7,0.9
2026-01-16T0100,4132A,108.2927,23.1477,南宁市,起凤路9号,细颗粒物(PM2.5),102,103,107,76,79,5,,,,54,41,2,4,0.8,0.8
2026-01-16T0100,4221A,108.2177,22.7774,南宁市,乐贤路16号,细颗粒物(PM2.5),90,121,112,67,64,20,,,,74,67,4,4,1.0,0.8
2026-01-16T0100,2332A,118.1682,26.6371,南平市,南平市监测站,,48,48,44,32,30,4,,,,53,27,7,8,0.4,0.5
2026-01-16T0100,2334A,118.1757,26.6276,南平市,南平七中,,49,36,37,34,27,10,,,,46,25,6,9,0.8,0.7
2026-01-16T0100,1168A,120.9056,31.9669,南通市,狼山街道,细颗粒物(PM2.5),232,203,148,182,111,37,,,,54,80,2,7,0.9,0.8
2026-01-16T0100,1170A,120.8635,32.0231,南通市,城中,细颗粒物(PM2.5),224,218,166,174,111,84,,,,41,91,7,10,1.2,1.1
2026-01-16T0100,1171A,120.9376,31.9301,南通市,星湖花园,细颗粒物(PM2.5),219,192,160,169,111,85,,,,43,90,5,12,1.0,1
2026-01-16T0100,1172A,120.8053,32.046,南通市,紫琅学院,细颗粒物(PM2.5),228,222,172,178,110,81,,,,44,82,7,9,1.0,0.9
2026-01-16T0100,3291A,121.0631,32.0644,南通市,通州监测站,细颗粒物(PM2.5),240,219,154,190,114,87,,,,44,72,6,9,1.3,1.1
2026-01-16T0100,3432A,120.9348,31.9874,南通市,环境教育馆,细颗粒物(PM2.5),236,215,151,186,116,33,,,,71,90,6,10,1.2,1.1
2026-01-16T0100,4091A,120.8692,31.9885,南通市,洪江路,细颗粒物(PM2.5),233,196,147,183,120,62,,,,49,87,4,9,1.2,1.1
2026-01-16T0100,2404A,112.5338,33.0086,南阳市,瓦房庄,细颗粒物(PM2.5),104,109,108,78,73,69,,,,22,35,10,8,0.8,1.1
2026-01-16T0100,2405A,112.5002,32.9734,南阳市,汉画馆,细颗粒物(PM2.5),98,105,105,73,65,30,,,,40,36,7,7,0.7,0.9
2026-01-16T0100,2406A,112.5778,33.0144,南阳市,气象站,细颗粒物(PM2.5),104,126,125,78,68,71,,,,29,34,11,7,0.8,1
2026-01-16T0100,2407A,112.548,32.9687,南阳市,理工学院,细颗粒物(PM2.5),93,111,107,69,61,66,,,,28,35,9,7,0.7,0.9
2026-01-16T0100,4008A,112.5233,32.9921,南阳市,卧龙区政府,"颗粒物(PM10),细颗粒物(PM2.5)",99,147,112,74,66,61,,,,31,41,9,7,0.6,0.9
2026-01-16T0100,1234A,121.8352,29.9111,宁波市,区环保大楼,细颗粒物(PM2.5),79,92,76,58,37,2,,,,108,67,7,8,1.2,0.7
2026-01-16T0100,1235A,121.5595,29.8208,宁波市,万里学院,细颗粒物(PM2.5),156,142,77,119,53,2,,,,107,54,7,6,0.8,0.7
2026-01-16T0100,1236A,121.713,29.9564,宁波市,龙赛医院,细颗粒物(PM2.5),97,107,80,72,50,1,,,,115,65,6,6,1.0,0.8
2026-01-16T0100,1240A,121.5855,29.8635,宁波市,太古小学,细颗粒物(PM2.5),109,130,74,82,47,1,,,,106,55,5,6,0.9,0.7
2026-01-16T0100,1241A,121.5239,29.8673,宁波市,市环境监测中心,细颗粒物(PM2.5),85,92,72,63,47,14,,,,87,54,9,9,0.8,0.7
2026-01-16T0100,2871A,121.6156,29.9015,宁波市,万里国际学校,细颗粒物(PM2.5),108,116,71,81,52,2,,,,120,66,6,6,1.0,0.6
2026-01-16T0100,3710A,121.5593,29.8976,宁波市,白沙活动中心,细颗粒物(PM2.5),114,114,62,86,42,1,,,,108,58,4,5,1.4,0.8
2026-01-16T0100,4095A,121.8962,29.7529,宁波市,中科路88号,细颗粒物(PM2.5),77,73,53,56,35,42,,,,60,45,7,8,0.5,0.3
2026-01-16T0100,2341A,119.5387,26.6611,宁德市,宁德市监测站,,29,26,34,20,20,35,,,,33,28,3,3,0.7,0.6
2026-01-16T0100,3209A,119.5231,26.6562,宁德市,宁德一中,,23,23,30,15,19,50,,,,15,19,6,6,0.4,0.4
2026-01-16T0100,2618A,98.859,25.8541,怒江傈僳族自治州,州监测站,,30,23,38,21,26,56,,,,10,15,5,6,0.3,0.4
2026-01-16T0100,2619A,98.8607,25.8168,怒江傈僳族自治州,泸水一中,,29,25,31,20,22,28,,,,16,18,6,6,0.4,0.6
2026-01-16T0100,1888A,101.6891,26.571,攀枝花市,弄弄坪,颗粒物(PM10),56,62,67,38,39,1,,,,60,36,15,22,1.3,1.7
2026-01-16T0100,1889A,101.577,26.5914,攀枝花市,河门口,颗粒物(PM10),52,54,57,32,37,13,,,,34,26,14,19,0.9,1.3
2026-01-16T0100,1891A,101.7365,26.4986,攀枝花市,仁和,,35,35,47,21,29,38,,,,13,22,7,12,0.6,1.1
2026-01-16T0100,2835A,101.7222,26.567,攀枝花市,四十中小,细颗粒物(PM2.5),57,61,68,40,43,10,,,,48,36,14,20,1.4,1.5
2026-01-16T0100,1604A,122.0303,41.1489,盘锦市,开发区,,36,,63,25,49,57,,,,9,13,3,5,0.8,1.1
2026-01-16T0100,1605A,122.0486,41.0883,盘锦市,兴隆台,,33,,60,23,45,52,,,,18,25,6,5,0.5,0.8
2026-01-16T0100,1606A,121.8297,41.1026,盘锦市,新生街道,,28,25,61,19,44,54,,,,12,20,6,6,0.6,0.8
2026-01-16T0100,1832A,113.3257,33.7423,平顶山市,新华旅馆,细颗粒物(PM2.5),73,89,107,53,55,64,,,,31,43,6,6,0.3,0.5
2026-01-16T0100,1833A,113.2917,33.737,平顶山市,规划设计院,颗粒物(PM10),76,101,118,48,61,72,,,,21,34,7,7,0.4,0.7
2026-01-16T0100,1834A,113.182,33.7738,平顶山市,平顶山工学院,颗粒物(PM10),63,76,83,41,42,79,,,,16,24,8,9,0.4,0.4
2026-01-16T0100,3594A,112.8736,33.9068,平顶山市,石龙区,颗粒物(PM10),58,65,105,39,43,86,,,,10,29,7,9,0.3,0.4
2026-01-16T0100,4116A,113.284,33.7139,平顶山市,姚电大道23号,颗粒物(PM10),83,116,115,53,60,60,,,,33,35,8,8,0.5,0.6
2026-01-16T0100,2656A,106.6633,35.5338,平凉市,聚贤嘉苑,颗粒物(PM10),71,92,99,25,28,79,,,,7,25,11,13,0.3,0.4
2026-01-16T0100,2657A,106.7021,35.5307,平凉市,博物馆,颗粒物(PM10),77,104,103,30,32,78,,,,9,31,10,13,0.4,0.7
2026-01-16T0100,2348A,113.8384,27.6436,萍乡市,中医院,细颗粒物(PM2.5),117,139,136,88,84,16,,,,66,58,10,16,1.7,2.1
2026-01-16T0100,2350A,113.8677,27.6438,萍乡市,市环保局,细颗粒物(PM2.5),107,112,107,80,79,23,,,,62,53,22,23,1.4,1.6
2026-01-16T0100,2351A,113.8663,27.6202,萍乡市,安源区政府,细颗粒物(PM2.5),179,157,119,135,104,2,,,,64,43,12,15,1.9,1.7
2026-01-16T0100,4107A,113.8686,27.6668,萍乡市,联洪村委会,细颗粒物(PM2.5),119,115,118,90,81,36,,,,44,50,5,6,1.1,1.4
2026-01-16T0100,2319A,119.0142,25.4324,莆田市,荔城区仓后路,,43,43,52,28,28,56,,,,24,23,/,/,/,/
2026-01-16T0100,2320A,119.0016,25.4553,莆田市,莆田市监测站,,35,,38,24,20,62,,,,11,16,3,4,0.6,0.5
2026-01-16T0100,2321A,119.112,25.4561,莆田市,涵江区六中,颗粒物(PM10),55,59,42,30,20,46,,,,36,21,/,/,0.7,0.6
2026-01-16T0100,2322A,119.1014,25.3215,莆田市,秀屿区政府,细颗粒物(PM2.5),64,60,55,46,36,62,,,,27,18,5,3,0.8,0.6
2026-01-16T0100,2392A,115.0312,35.7636,濮阳市,环保局,颗粒物(PM10),67,84,118,31,44,61,,,,21,33,7,9,0.2,0.4
2026-01-16T0100,3021A,115,35.7667,濮阳市,濮水河管理处,颗粒物(PM10),71,91,128,33,43,54,,,,21,33,6,7,0.6,0.7
2026-01-16T0100,4118A,115.0552,35.7816,濮阳市,中原东路68号,颗粒物(PM10),70,89,128,24,42,64,,,,23,34,4,7,0.1,0.3
2026-01-16T0100,4216A,115.0923632,35.76857718,濮阳市,任丘路479号,颗粒物(PM10),73,96,128,36,50,50,,,,27,39,5,7,0.2,0.6
2026-01-16T0100,2601A,100.9801,22.7634,普洱市,市环保局,颗粒物(PM10),52,53,56,14,17,29,,,,8,14,5,5,0.4,0.4
2026-01-16T0100,2602A,100.9763,22.8237,普洱市,普洱第二中学,细颗粒物(PM2.5),60,54,53,43,32,5,,,,32,20,5,5,0.4,0.4
2026-01-16T0100,3345A,131.0413,45.7795,七台河市,中波台,,,,50,,34,23,,,,33,26,29,14,0.7,0.6
2026-01-16T0100,3637A,131.0136,45.7688,七台河市,人民广场,,40,32,54,28,38,35,,,,28,34,10,11,0.5,0.7
2026-01-16T0100,3684A,130.8639,45.8144,七台河市,新建矿广场,,45,,43,31,31,31,,,,17,19,6,7,0.4,0.4
2026-01-16T0100,1779A,123.9307,47.3641,齐齐哈尔市,安居小区,,48,41,45,33,36,33,,,,26,26,8,8,0.6,0.6
2026-01-16T0100,1780A,123.9497,47.3389,齐齐哈尔市,中心广场,,37,37,45,24,33,41,,,,19,26,6,9,1.0,0.9
2026-01-16T0100,1781A,123.9483,47.3229,齐齐哈尔市,农牧车辆厂,,42,41,41,29,25,42,,,,14,18,6,8,0.5,0.5
2026-01-16T0100,1783A,123.9442,47.2994,齐齐哈尔市,市环境监测站,,48,40,50,33,35,29,,,,26,33,5,8,0.9,0.9
2026-01-16T0100,3662A,123.6341,47.2079,齐齐哈尔市,富区青少年活动中心,细颗粒物(PM2.5),73,61,57,53,44,37,,,,24,24,18,8,0.8,0.8
2026-01-16T0100,2591A,107.9765,26.5724,黔东南苗族侗族自治州,市环境监测站,细颗粒物(PM2.5),143,122,109,109,98,6,,,,54,37,7,6,1.4,1
2026-01-16T0100,2881A,107.8909,26.531,黔东南苗族侗族自治州,凯里学院,细颗粒物(PM2.5),85,88,85,63,69,36,,,,37,22,3,3,0.7,0.8
2026-01-16T0100,2593A,107.5223,26.2371,黔南布依族苗族自治州,小围寨,细颗粒物(PM2.5),67,56,65,48,60,79,,,,7,10,6,6,0.9,0.9
2026-01-16T0100,3538A,107.5175,26.2977,黔南布依族苗族自治州,沙坝,细颗粒物(PM2.5),70,56,76,51,60,52,,,,14,16,5,6,1.0,1
2026-01-16T0100,2589A,104.9022,25.0943,黔西南布依族苗族自治州,场坝街,细颗粒物(PM2.5),90,83,70,67,61,18,,,,29,15,5,7,0.7,0.7
2026-01-16T0100,2590A,104.8812,25.0994,黔西南布依族苗族自治州,坪东大道,细颗粒物(PM2.5),79,74,68,58,61,12,,,,30,21,5,7,0.9,0.8
2026-01-16T0100,2502A,108.6238,21.9667,钦州市,市环保站,颗粒物(PM10),62,73,101,39,51,54,,,,34,44,5,7,0.7,0.7
2026-01-16T0100,2503A,108.655,21.9481,钦州市,沙埠小学,细颗粒物(PM2.5),73,76,93,53,63,4,,,,73,48,5,9,0.7,0.6
2026-01-16T0100,2504A,108.5989,21.7435,钦州市,港区一小,"颗粒物(PM10),细颗粒物(PM2.5)",57,64,81,40,44,50,,,,44,36,11,7,0.9,0.8
2026-01-16T0100,3404A,108.5959,21.9634,钦州市,北职校,细颗粒物(PM2.5),73,89,89,53,55,25,,,,48,38,8,10,1.0,0.9
2026-01-16T0100,1046A,119.5247,39.9346,秦皇岛市,建设大厦,细颗粒物(PM2.5),88,102,100,65,66,34,,,,23,30,8,17,0.6,1.1
2026-01-16T0100,3132A,119.5979,39.938,秦皇岛市,文明里,颗粒物(PM10),78,106,107,53,54,37,,,,29,39,12,19,0.5,0.8
2026-01-16T0100,4066A,119.7458,39.9952,秦皇岛市,南园路157号,细颗粒物(PM2.5),77,98,113,56,66,39,,,,23,41,11,14,0.5,1
2026-01-16T0100,4067A,119.5131,39.8858,秦皇岛市,翠岛大街1号,颗粒物(PM10),82,113,107,54,63,28,,,,26,28,13,20,0.6,1.2
2026-01-16T0100,4198A,119.509013,39.825305,秦皇岛市,北戴河轮滑馆,细颗粒物(PM2.5),85,92,101,63,62,41,,,,24,35,9,13,0.5,1.1
2026-01-16T0100,1310A,120.404,36.0625,青岛市,市南区东部子站,颗粒物(PM10),128,205,221,95,121,48,,,,28,71,10,16,0.9,1.3
2026-01-16T0100,1311A,120.362344,36.10282,青岛市,四方区子站,细颗粒物(PM2.5),140,212,200,107,114,54,,,,16,44,2,10,1.0,1.3
2026-01-16T0100,1312A,120.294373,36.054183,青岛市,市南区西部子站,细颗粒物(PM2.5),135,207,212,103,122,42,,,,49,80,9,15,1.4,1.8
2026-01-16T0100,1313A,120.4581,36.0858,青岛市,崂山区子站,颗粒物(PM10),125,200,197,83,99,56,,,,31,53,10,15,0.8,1
2026-01-16T0100,1315A,120.3945,36.3083,青岛市,城阳区子站,颗粒物(PM10),125,200,210,46,81,82,,,,19,63,7,12,0.9,1.4
2026-01-16T0100,3642A,120.3454,36.0735,青岛市,市北区南部,颗粒物(PM10),129,207,211,97,114,52,,,,24,55,1,8,1.1,1.3
2026-01-16T0100,3643A,120.3897,36.18,青岛市,李沧区北部,细颗粒物(PM2.5),125,185,196,95,111,60,,,,26,59,10,15,1.1,1.4
2026-01-16T0100,4110A,120.5222,36.4089,青岛市,盟旺路653号,颗粒物(PM10),108,166,201,33,97,76,,,,24,52,3,9,0.5,1.1
2026-01-16T0100,4290A,120.196923,35.954556,青岛市,珠江路669号,细颗粒物(PM2.5),132,190,199,100,125,62,,,,24,55,10,14,1.0,1.3
2026-01-16T0100,4291A,120.0424,35.8656,青岛市,黄岛区人民政府广场,颗粒物(PM10),125,200,210,90,120,54,,,,35,62,7,13,1.2,1.5
2026-01-16T0100,1703A,113.0218,23.7086,清远市,凤城街办,细颗粒物(PM2.5),70,78,83,51,55,64,,,,42,54,/,/,/,/
2026-01-16T0100,3025A,113.0479,23.6343,清远市,技师学院,颗粒物(PM10),82,113,90,58,49,5,,,,96,70,7,10,0.8,0.7
2026-01-16T0100,3318A,112.9898,23.7403,清远市,清新太和,颗粒物(PM10),54,57,72,34,44,105,,,,26,40,3,6,0.5,0.7
2026-01-16T0100,3455A,113.076,23.72,清远市,清城东城,细颗粒物(PM2.5),62,69,72,44,45,50,,,,37,42,/,/,/,/
2026-01-16T0100,2661A,107.6325,35.7357,庆阳市,庆阳五中,颗粒物(PM10),77,104,105,33,37,69,,,,10,15,6,8,0.4,0.5
2026-01-16T0100,2662A,107.6361,35.7067,庆阳市,市环保局,颗粒物(PM10),74,97,100,31,35,71,,,,10,13,7,9,0.4,0.4
2026-01-16T0100,1916A,103.7897,25.5036,曲靖市,环境监测站,,36,36,72,13,39,72,,,,11,16,5,9,0.4,0.6
2026-01-16T0100,1917A,103.8013,25.5357,曲靖市,烟厂办公区,,38,38,73,24,37,65,,,,17,16,6,7,0.3,0.6
2026-01-16T0100,3376A,103.7926,25.4651,曲靖市,南苑二区,,25,25,65,17,40,61,,,,13,13,5,8,0.3,0.6
2026-01-16T0100,3377A,103.7442,25.5259,曲靖市,曲靖师范学院,,36,36,63,23,41,58,,,,18,15,5,5,0.4,0.5
2026-01-16T0100,1264A,118.8694,28.94,衢州市,环保大楼,细颗粒物(PM2.5),93,97,75,69,48,4,,,,87,62,/,/,/,/
2026-01-16T0100,1266A,118.8622,28.9809,衢州市,衢州学院,细颗粒物(PM2.5),68,72,56,49,34,2,,,,85,56,6,7,0.6,0.6
2026-01-16T0100,4097A,118.9646,28.9832,衢州市,衢州三中,细颗粒物(PM2.5),85,100,79,63,48,0,,,,87,60,6,9,0.9,1
2026-01-16T0100,1611A,118.5818,24.9116,泉州市,涂山街,颗粒物(PM10),64,77,63,45,34,22,,,,52,32,3,3,0.8,0.6
2026-01-16T0100,1612A,118.597,24.8976,泉州市,津头埔,细颗粒物(PM2.5),58,57,61,41,35,49,,,,37,33,4,5,0.6,0.7
2026-01-16T0100,1613A,118.6669,24.9422,泉州市,万安,颗粒物(PM10),57,63,64,34,33,38,,,,48,30,3,3,0.6,0.6
2026-01-16T0100,4105A,118.6355,24.9148,泉州市,霞新路6号,颗粒物(PM10),58,65,59,37,34,52,,,,35,39,/,/,0.5,0.6
2026-01-16T0100,2626A,88.8873,29.2723,日喀则市,日喀则监测站,细颗粒物(PM2.5),59,61,40,42,25,60,,,,16,21,16,20,0.7,0.7
2026-01-16T0100,3726A,88.8775,29.2425,日喀则市,林业技术推广中心,细颗粒物(PM2.5),60,58,28,43,13,28,,,,35,8,19,10,1.4,0.4
2026-01-16T0100,1659A,119.4711,35.421,日照市,监测站,细颗粒物(PM2.5),170,219,223,129,112,59,,,,46,66,11,16,1.1,1.3
2026-01-16T0100,1660A,119.523,35.4216,日照市,市政府广场,细颗粒物(PM2.5),170,224,212,129,105,54,,,,51,52,13,15,0.8,0.9
2026-01-16T0100,1661A,119.5511,35.4113,日照市,港务局,细颗粒物(PM2.5),183,229,228,138,131,54,,,,51,60,9,13,1.0,1.1
2026-01-16T0100,3507A,119.5326,35.4627,日照市,职业技术学院,细颗粒物(PM2.5),144,217,217,110,99,74,,,,38,55,9,13,1.2,1.3
2026-01-16T0100,3604A,119.3267,35.1043,日照市,岚山环保分局,细颗粒物(PM2.5),218,239,235,168,139,73,,,,45,63,14,20,1.5,1.5
2026-01-16T0100,1835A,111.1922,34.7752,三门峡市,市政府,颗粒物(PM10),62,73,119,42,42,1,,,,57,45,16,15,1.4,1
2026-01-16T0100,1836A,111.1588,34.794,三门峡市,开发区,颗粒物(PM10),73,95,127,39,43,16,,,,44,34,9,8,0.6,0.6
2026-01-16T0100,3039A,111.1911,34.7829,三门峡市,三门峡市第一小学,颗粒物(PM10),83,116,141,49,43,6,,,,52,39,11,10,1.1,0.8
2026-01-16T0100,3598A,111.1031,34.719,三门峡市,富达温泉假日酒店,颗粒物(PM10),71,92,132,42,47,24,,,,42,44,11,15,0.5,0.8
2026-01-16T0100,2324A,117.621,26.2626,三明市,三钢,细颗粒物(PM2.5),57,54,51,40,38,30,,,,41,38,6,11,0.7,1.3
2026-01-16T0100,2325A,117.6352,26.2714,三明市,三明二中,颗粒物(PM10),59,67,48,37,37,15,,,,50,36,3,9,0.8,1.4
2026-01-16T0100,2326A,117.6028,26.2377,三明市,三元区政府,细颗粒物(PM2.5),57,55,52,40,36,22,,,,46,38,6,11,0.8,1
2026-01-16T0100,1877A,109.4962,18.2682,三亚市,河西子站,,34,34,39,17,17,72,,,,10,18,1,2,0.3,0.3
2026-01-16T0100,3540A,109.7348,18.3443,三亚市,君悦子站,,37,37,39,20,19,47,,,,22,13,5,5,0.4,0.4
2026-01-16T0100,4135A,109.1714,18.3739,三亚市,城东小学站,,35,35,39,16,24,29,,,,14,12,/,/,/,/
2026-01-16T0100,2624A,91.7592,29.234,山南市,山南监测站,,42,38,19,29,15,51,,,,11,10,5,5,0.6,0.5
2026-01-16T0100,2625A,91.7701,29.2436,山南市,山南人民医院,,19,18,21,10,10,59,,,,8,11,7,8,0.4,0.4
2026-01-16T0100,1674A,116.6795,23.3666,汕头市,金平子站,细颗粒物(PM2.5),67,54,49,48,36,10,,,,68,31,5,7,0.9,0.7
2026-01-16T0100,1675A,116.7248,23.3632,汕头市,龙湖子站,细颗粒物(PM2.5),62,62,55,44,31,36,,,,47,26,12,13,/,/
2026-01-16T0100,1676A,116.7257,23.2774,汕头市,濠江子站,细颗粒物(PM2.5),53,51,42,37,31,36,,,,42,24,8,9,/,/
2026-01-16T0100,1677A,116.7518,23.4712,汕头市,澄海子站,细颗粒物(PM2.5),80,74,60,59,42,43,,,,48,30,11,12,0.8,0.7
2026-01-16T0100,1678A,116.6088,23.2539,汕头市,潮阳子站,,45,45,41,27,25,58,,,,28,18,6,7,0.9,0.7
2026-01-16T0100,3444A,116.4539,23.2684,汕头市,潮南峡山,细颗粒物(PM2.5),67,73,57,48,38,37,,,,39,24,8,10,0.9,0.8
2026-01-16T0100,3624A,116.4069,23.2533,汕头市,潮南子站,颗粒物(PM10),58,66,69,36,39,31,,,,38,24,7,8,/,/
2026-01-16T0100,1693A,115.3653,22.7751,汕尾市,市环保局,细颗粒物(PM2.5),72,,52,52,42,91,,,,21,21,7,7,0.8,0.8
2026-01-16T0100,1695A,115.362,22.7926,汕尾市,新城中学,细颗粒物(PM2.5),69,53,53,50,40,83,,,,21,23,5,5,0.6,0.6
2026-01-16T0100,2645A,109.9155,33.8714,商洛市,监测站,颗粒物(PM10),57,64,125,35,44,16,,,,43,36,8,8,0.8,0.7
2026-01-16T0100,3045A,109.9647,33.8486,商洛市,商州区中学,颗粒物(PM10),56,61,106,34,37,6,,,,47,37,6,10,0.7,0.6
2026-01-16T0100,2408A,115.6701,34.4283,商丘市,环境监测站,细颗粒物(PM2.5),90,115,125,67,73,73,,,,19,27,4,4,0.4,0.5
2026-01-16T0100,2409A,115.6458,34.4047,商丘市,粮食局,颗粒物(PM10),79,108,127,55,69,76,,,,15,24,4,4,0.6,0.7
2026-01-16T0100,3171A,115.6069,34.4465,商丘市,梁园区档案局,细颗粒物(PM2.5),83,114,125,61,72,72,,,,18,30,6,6,0.5,0.5
2026-01-16T0100,4119A,115.6701,34.3767,商丘市,北海东路185号,颗粒物(PM10),105,160,135,65,69,53,,,,26,34,4,4,0.6,0.6
2026-01-16T0100,4120A,115.6172,34.3704,商丘市,中山大街3号,颗粒物(PM10),103,155,142,61,76,48,,,,38,35,7,6,0.2,0.3
2026-01-16T0100,1141A,121.401,31.2382,上海市,普陀,细颗粒物(PM2.5),202,176,113,152,81,64,,,,73,69,8,10,1.2,1
2026-01-16T0100,1142A,121.4774,31.2043,上海市,十五厂,细颗粒物(PM2.5),209,196,113,159,77,65,,,,68,71,9,10,1.2,1.1
2026-01-16T0100,1143A,121.4673,31.3011,上海市,虹口,细颗粒物(PM2.5),212,204,131,162,82,55,,,,68,75,9,11,1.1,0.9
2026-01-16T0100,1147A,121.4253,31.226,上海市,静安监测站,细颗粒物(PM2.5),192,200,114,144,72,88,,,,56,64,,10,0.9,0.9
2026-01-16T0100,1148A,121.7029,31.1905,上海市,浦东川沙,细颗粒物(PM2.5),196,224,123,147,69,14,,,,91,65,8,9,0.9,0.7
2026-01-16T0100,1149A,121.5339,31.229,上海市,浦东新区监测站,细颗粒物(PM2.5),227,196,115,177,83,58,,,,76,68,9,10,1.2,1
2026-01-16T0100,1150A,121.5776,31.2038,上海市,浦东张江,细颗粒物(PM2.5),216,200,116,166,77,46,,,,78,66,9,10,0.8,0.7
2026-01-16T0100,3265A,121.4242,31.3303,上海市,宝山庙行,细颗粒物(PM2.5),214,208,125,164,83,61,,,,66,77,8,11,0.8,0.7
2026-01-16T0100,3266A,121.8789,31.4662,上海市,崇明上实东滩,细颗粒物(PM2.5),205,192,118,155,85,40,,,,26,49,4,7,0.7,0.7
2026-01-16T0100,3268A,121.316,31.2839,上海市,嘉定南翔,细颗粒物(PM2.5),198,192,116,148,79,62,,,,68,79,5,8,1.0,0.8
2026-01-16T0100,3269A,121.3357,30.7455,上海市,金山新城,细颗粒物(PM2.5),186,164,85,140,68,63,,,,65,52,13,14,1.0,0.7
2026-01-16T0100,3270A,121.4996,31.0741,上海市,闵行浦江,细颗粒物(PM2.5),213,198,110,163,67,41,,,,66,65,8,9,1.0,0.7
2026-01-16T0100,3271A,121.2886,31.1663,上海市,青浦徐泾,细颗粒物(PM2.5),190,194,117,143,71,64,,,,75,82,7,8,1.1,0.9
2026-01-16T0100,3272A,121.2193,31.0382,上海市,松江图书馆,细颗粒物(PM2.5),206,216,116,156,78,51,,,,77,70,9,10,1.0,0.8
2026-01-16T0100,3273A,121.3904,31.206,上海市,长宁仙霞,细颗粒物(PM2.5),190,173,102,143,69,86,,,,50,68,8,10,0.6,0.6
2026-01-16T0100,3274A,121.7964,31.0507,上海市,浦东惠南,细颗粒物(PM2.5),226,230,117,176,75,21,,,,78,70,5,8,1.0,0.9
2026-01-16T0100,3544A,121.4891,30.925,上海市,奉贤南桥新城,细颗粒物(PM2.5),230,215,102,180,68,49,,,,73,63,6,6,0.9,0.6
2026-01-16T0100,4183A,121.417401,31.16637,上海市,冠生园路458号,细颗粒物(PM2.5),214,188,104,164,75,56,,,,66,66,4,6,0.9,0.8
2026-01-16T0100,4205A,121.541914,31.268301,上海市,宁武路151号,细颗粒物(PM2.5),226,212,142,176,86,35,,,,82,85,5,8,1.3,1.1
2026-01-16T0100,2382A,117.9758,28.4439,上饶市,市监测站,细颗粒物(PM2.5),59,60,55,42,28,49,,,,31,36,26,22,/,/
2026-01-16T0100,2383A,117.9521,28.4637,上饶市,凤凰光学,细颗粒物(PM2.5),74,87,76,54,37,2,,,,73,52,17,32,1.0,0.9
2026-01-16T0100,3685A,117.897,28.4316,上饶市,双创科技城,颗粒物(PM10),86,121,71,60,42,17,,,,84,59,19,22,1.1,0.9
2026-01-16T0100,4211A,118.190438,28.444845,上饶市,裕丰大道,"颗粒物(PM10),细颗粒物(PM2.5)",60,70,68,43,33,50,,,,28,35,11,14,0.8,0.8
2026-01-16T0100,1669A,113.5821,24.7733,韶关市,市八中,细颗粒物(PM2.5),82,104,96,60,57,10,,,,72,56,9,14,0.9,0.9
2026-01-16T0100,1671A,113.5916,24.7973,韶关市,园林处,细颗粒物(PM2.5),79,77,70,58,60,10,,,,68,54,14,12,/,/
2026-01-16T0100,1673A,113.5971,24.6864,韶关市,曲江监测站,细颗粒物(PM2.5),70,77,74,51,53,42,,,,42,38,11,15,0.9,0.8
2026-01-16T0100,2809A,113.6668,24.7756,韶关市,大学路288号,细颗粒物(PM2.5),79,81,71,58,55,47,,,,18,22,13,16,/,/
2026-01-16T0100,3622A,113.5556,24.8082,韶关市,碧湖山庄,细颗粒物(PM2.5),82,98,94,60,56,77,,,,22,35,10,9,0.6,0.7
2026-01-16T0100,2464A,111.5277,27.2442,邵阳市,市化工厂,细颗粒物(PM2.5),147,149,113,112,79,22,,,,64,50,13,12,0.8,1
