timepoint,stationcode,longitude,latitude,area,positionname,primarypollutant,aqi,pm10,pm10_24h,pm2_5,pm2_5_24h,o3,o3_24h,o3_8h,o3_8h_24h,no2,no2_24h,so2,so2_24h,co,co_24h
2026-01-16T0600,2568A,102.2503,31.8896,阿坝藏族羌族自治州,马师校,,28,,29,19,22,35,,,,6,15,4,4,0.5,0.5
2026-01-16T0600,3994A,102.2174,31.9016,阿坝藏族羌族自治州,马尔康中学西区,,13,13,17,9,14,38,,,,8,14,6,6,0.4,0.5
2026-01-16T0600,2695A,80.2899,41.1684,阿克苏地区,电视台,颗粒物(PM10),78,105,106,54,48,53,,,,33,30,2,4,1.3,1.1
2026-01-16T0600,2696A,80.2592,41.1541,阿克苏地区,艺术中心,细颗粒物(PM2.5),99,98,110,74,60,52,,,,26,27,4,6,1.1,0.8
2026-01-16T0600,2205A,105.699,38.8409,阿拉善盟,蒙二幼,,,34,87,14,24,78,,,,4,7,,10,0.5,0.5
2026-01-16T0600,2206A,105.7198,38.8508,阿拉善盟,环保局新楼,,36,36,78,12,22,77,,,,4,7,9,9,0.5,0.5
2026-01-16T0600,2708A,88.1266,47.8515,阿勒泰地区,市站,,22,18,40,12,26,68,,,,8,32,3,8,0.5,0.6
2026-01-16T0600,4166A,88.1198,47.7931,阿勒泰地区,阿勒泰路33号,,24,24,37,9,27,73,,,,10,28,7,9,0.4,0.6
2026-01-16T0600,2630A,80.1171,32.4999,阿里地区,阿里监测站,,13,6,4,3,3,40,,,,10,14,7,8,0.5,0.6
2026-01-16T0600,3192A,80.0906,32.5029,阿里地区,阿里藏医院,,18,18,16,10,10,51,,,,12,11,14,14,0.7,0.7
2026-01-16T0600,2644A,109.0088,32.6974,安康市,汉滨区检察院,细颗粒物(PM2.5),58,53,74,41,54,9,,,,18,29,4,4,0.6,0.8
2026-01-16T0600,4054A,109.0324,32.6913,安康市,市邮政管理局,细颗粒物(PM2.5),62,64,90,44,61,8,,,,21,37,6,6,0.6,1.1
2026-01-16T0600,2291A,117.0806,30.5181,安庆市,环科院,细颗粒物(PM2.5),120,108,105,91,78,0,,,,65,75,7,9,0.8,0.8
2026-01-16T0600,2292A,117.0331,30.5118,安庆市,马山宾馆,细颗粒物(PM2.5),118,106,105,89,81,2,,,,57,75,6,10,1.1,1
2026-01-16T0600,2294A,116.9897,30.6146,安庆市,安庆大学,细颗粒物(PM2.5),97,105,90,72,67,20,,,,40,50,4,8,0.7,0.7
2026-01-16T0600,3173A,117.0598,30.5351,安庆市,市人大,细颗粒物(PM2.5),122,115,107,92,76,1,,,,78,75,9,11,0.9,0.9
2026-01-16T0600,3123A,105.9408,26.2431,安顺市,凤凰山,细颗粒物(PM2.5),64,52,64,46,52,77,,,,14,25,16,25,0.6,0.7
2026-01-16T0600,3124A,105.9443,26.2567,安顺市,金钟山,细颗粒物(PM2.5),63,50,60,45,53,73,,,,9,18,15,27,0.6,0.7
2026-01-16T0600,3125A,105.8983,26.248,安顺市,娄家坡,细颗粒物(PM2.5),60,52,58,43,50,75,,,,10,15,9,13,0.7,0.7
2026-01-16T0600,1819A,114.3552,36.1017,安阳市,红庙街,细颗粒物(PM2.5),211,240,148,161,68,3,,,,82,46,6,5,1.5,0.9
2026-01-16T0600,1820A,114.361,36.0681,安阳市,银杏小区,细颗粒物(PM2.5),183,232,145,138,68,2,,,,80,45,7,5,1.6,0.8
2026-01-16T0600,3141A,114.3921,36.0879,安阳市,信访局,细颗粒物(PM2.5),176,235,147,133,76,4,,,,,40,7,7,1.4,1
2026-01-16T0600,3669A,114.4706,36.0634,安阳市,左辅环卫站,细颗粒物(PM2.5),183,228,164,138,96,7,,,,64,42,6,7,1.1,0.8
2026-01-16T0600,4117A,114.2918,36.0769,安阳市,钢三路198号,细颗粒物(PM2.5),179,249,151,135,61,2,,,,82,42,7,6,1.3,0.7
2026-01-16T0600,1748A,123.0441,41.1201,鞍山市,深沟寺,细颗粒物(PM2.5),78,69,78,57,61,14,,,,48,35,12,8,1.1,1.2
2026-01-16T0600,1749A,123.011,41.0931,鞍山市,太阳城,细颗粒物(PM2.5),79,71,83,58,62,8,,,,53,35,25,14,1.2,1.3
2026-01-16T0600,1750A,123.0483,41.1445,鞍山市,太平,细颗粒物(PM2.5),70,70,81,51,58,19,,,,44,36,13,11,0.9,1.1
2026-01-16T0600,1751A,122.964,41.0968,鞍山市,铁西三道街,细颗粒物(PM2.5),88,85,90,65,65,8,,,,65,45,29,18,1.8,1.4
2026-01-16T0600,1753A,123.0219,41.0822,鞍山市,明达新区,细颗粒物(PM2.5),82,72,80,60,62,10,,,,41,32,16,12,0.9,0.9
2026-01-16T0600,4201A,122.944647,41.082639,鞍山市,兴盛南路290号,细颗粒物(PM2.5),92,85,93,68,67,2,,,,62,45,36,19,2.6,1.5
2026-01-16T0600,2195A,107.4206,40.7609,巴彦淖尔市,附二中,,34,34,67,12,27,49,,,,6,7,4,3,0.4,0.4
2026-01-16T0600,2196A,107.37,40.7372,巴彦淖尔市,市环保大楼,,,30,68,17,23,54,,,,6,9,,5,0.4,0.4
2026-01-16T0600,1956A,86.1476,41.7529,巴音郭楞蒙古自治州,孔雀公园,,49,49,87,33,39,60,,,,20,36,8,9,0.6,0.7
2026-01-16T0600,1957A,86.1971,41.7166,巴音郭楞蒙古自治州,棉纺厂,颗粒物(PM10),62,73,112,32,35,56,,,,11,32,/,/,/,/
2026-01-16T0600,1958A,86.236,41.7172,巴音郭楞蒙古自治州,经济开发区,,48,48,80,30,28,63,,,,8,19,6,6,0.4,0.5
2026-01-16T0600,3181A,106.776805,31.852614,巴中市,市五中,细颗粒物(PM2.5),93,90,111,69,82,14,,,,25,29,5,6,0.8,1
2026-01-16T0600,3183A,106.7419,31.8654,巴中市,圣泉水务公司,细颗粒物(PM2.5),68,61,86,49,68,35,,,,18,33,5,5,0.5,0.7
2026-01-16T0600,3616A,106.7617,31.8343,巴中市,市中心医院,细颗粒物(PM2.5),104,94,115,78,88,2,,,,30,37,7,7,0.9,1.1
2026-01-16T0600,2235A,122.7909,45.608,白城市,洮北区环保局,细颗粒物(PM2.5),65,,51,47,47,11,,,,34,29,3,7,0.7,0.6
2026-01-16T0600,2236A,122.8741,45.5725,白城市,市环保局,细颗粒物(PM2.5),103,124,49,77,36,10,,,,40,31,12,9,1.1,0.5
2026-01-16T0600,2231A,126.4219,41.9172,白山市,喜丰,颗粒物(PM10),60,70,59,40,36,25,,,,43,29,19,21,1.0,1
2026-01-16T0600,2232A,126.4082,41.9416,白山市,环保局,,,,44,49,45,17,,,,37,29,,13,0.8,0.9
2026-01-16T0600,2647A,104.1727,36.5448,白银市,第三小学,颗粒物(PM10),70,89,121,27,38,57,,,,18,29,7,35,0.4,0.6
2026-01-16T0600,2648A,104.1467,36.5482,白银市,动力公司,颗粒物(PM10),66,82,112,24,35,54,,,,8,20,1,19,0.5,0.7
2026-01-16T0600,2512A,106.6102,23.901,百色市,市监测站,细颗粒物(PM2.5),54,46,57,38,44,17,,,,13,18,7,7,0.6,0.7
2026-01-16T0600,2513A,106.6524,23.8842,百色市,市中心血站,细颗粒物(PM2.5),80,74,76,59,58,3,,,,35,35,8,10,0.9,1
2026-01-16T0600,4133A,106.6273,23.8798,百色市,龙景西路,细颗粒物(PM2.5),59,50,75,42,53,14,,,,16,26,6,7,0.6,0.7
2026-01-16T0600,2270A,117.396,32.9389,蚌埠市,工人疗养院,细颗粒物(PM2.5),92,118,142,68,61,67,,,,26,38,14,8,1.0,0.7
2026-01-16T0600,2271A,117.3606,32.9428,蚌埠市,百货大楼,颗粒物(PM10),80,110,134,58,65,73,,,,21,43,15,9,0.8,0.6
2026-01-16T0600,2273A,117.4183,32.8909,蚌埠市,蚌埠学院,细颗粒物(PM2.5),94,112,135,70,66,62,,,,29,35,12,8,0.8,0.5
2026-01-16T0600,2274A,117.3534,32.9672,蚌埠市,淮上区政府,细颗粒物(PM2.5),92,110,130,68,63,69,,,,30,39,10,5,0.7,0.5
2026-01-16T0600,2275A,117.3143,32.8977,蚌埠市,高新区,细颗粒物(PM2.5),103,124,134,77,69,58,,,,25,34,12,10,0.5,0.3
2026-01-16T0600,3715A,117.3091,32.9314,蚌埠市,蚌埠田家炳中学,细颗粒物(PM2.5),98,118,137,73,72,63,,,,28,38,12,9,0.9,0.6
2026-01-16T0600,1585A,109.8761,40.6533,包头市,市环境监测站,,19,10,110,3,28,59,,,,7,30,4,12,0.2,0.8
2026-01-16T0600,1587A,109.9992,40.5843,包头市,包头八中,,18,16,135,12,48,56,,,,9,31,8,16,0.5,1.1
2026-01-16T0600,1589A,109.8641,40.6288,包头市,惠龙物流,,19,7,103,7,36,59,,,,7,34,7,21,0.4,1.4
2026-01-16T0600,1590A,110.0376,40.5546,包头市,东河鸿龙湾,,17,12,106,3,25,52,,,,14,28,10,14,0.6,0.9
2026-01-16T0600,3283A,109.9154,40.5684,包头市,滨河大厦,,16,14,102,10,32,50,,,,8,25,6,14,0.5,0.8
2026-01-16T0600,3419A,109.9449,40.6259,包头市,包头市委党校,,40,28,104,28,36,50,,,,14,32,8,15,0.5,1.3
2026-01-16T0600,3683A,109.8332,40.6577,包头市,昆区政府,,18,11,108,9,36,56,,,,9,36,6,17,0.4,1.3
2026-01-16T0600,1931A,107.0802,34.3129,宝鸡市,竹园沟,颗粒物(PM10),55,59,93,19,36,52,,,,8,24,6,7,0.1,0.3
2026-01-16T0600,1933A,107.1429,34.3549,宝鸡市,监测站,颗粒物(PM10),54,57,118,31,44,19,,,,25,36,5,6,0.5,0.7
2026-01-16T0600,1934A,107.1172,34.3759,宝鸡市,技工学校,颗粒物(PM10),58,65,126,38,50,34,,,,11,34,4,9,0.7,0.8
2026-01-16T0600,1936A,107.2025,34.3518,宝鸡市,文理学院,颗粒物(PM10),62,73,115,36,49,24,,,,22,36,5,6,0.6,0.6
2026-01-16T0600,1937A,107.2396,34.3626,宝鸡市,三迪小学,颗粒物(PM10),66,81,125,47,57,16,,,,33,45,4,6,0.5,0.6
2026-01-16T0600,4155A,107.1721,34.3558,宝鸡市,滨河北路,颗粒物(PM10),64,78,129,35,47,26,,,,18,36,6,7,0.6,0.6
2026-01-16T0600,4308A,107.3898,34.3601,宝鸡市,陈仓区北开路21号,颗粒物(PM10),75,100,137,50,63,34,,,,33,40,42,42,0.7,0.8
2026-01-16T0600,1051A,115.4803,38.8568,保定市,游泳馆,细颗粒物(PM2.5),95,98,162,71,107,34,,,,21,56,4,9,0.6,0.9
2026-01-16T0600,1052A,115.509,38.8895,保定市,华电二区,细颗粒物(PM2.5),89,93,150,66,114,31,,,,20,58,5,5,0.7,1
2026-01-16T0600,1053A,115.4588,38.9037,保定市,接待中心,细颗粒物(PM2.5),93,100,160,69,108,31,,,,17,53,1,4,0.8,1.1
2026-01-16T0600,1054A,115.4484,38.8344,保定市,地表水厂,细颗粒物(PM2.5),94,114,187,70,110,34,,,,18,58,5,8,0.7,0.9
2026-01-16T0600,3581A,115.3136,38.9511,保定市,满城区生态环境分局,细颗粒物(PM2.5),85,117,216,63,116,32,,,,26,59,4,6,1.0,1.2
2026-01-16T0600,3582A,115.4709,38.7628,保定市,清苑区第二中学,细颗粒物(PM2.5),80,108,196,59,102,34,,,,20,57,1,6,0.7,1
2026-01-16T0600,3583A,115.6231,39.0223,保定市,徐水物探局,细颗粒物(PM2.5),98,137,209,73,112,24,,,,22,53,4,7,0.8,1.1
2026-01-16T0600,4004A,115.4199,38.8665,保定市,双鹰农机,细颗粒物(PM2.5),98,128,208,73,100,40,,,,17,55,6,10,0.8,1
2026-01-16T0600,4034A,115.515,38.8589,保定市,植保所站,细颗粒物(PM2.5),123,107,160,93,114,29,,,,22,59,3,5,0.9,1.1
2026-01-16T0600,2594A,99.1589,25.1137,保山市,市环境监测站,,15,15,25,3,19,48,,,,5,9,5,4,0.4,0.4
2026-01-16T0600,2595A,99.1616,25.1381,保山市,市环保局,,23,20,29,16,22,59,,,,3,6,3,4,0.4,0.4
2026-01-16T0600,1867A,109.1435,21.4085,北海市,海滩公园,细颗粒物(PM2.5),68,70,58,49,37,97,,,,9,14,6,10,0.8,0.8
2026-01-16T0600,1868A,109.0983,21.466,北海市,新市环保局,细颗粒物(PM2.5),77,60,52,56,38,97,,,,12,17,4,6,0.6,0.6
2026-01-16T0600,1869A,109.1775,21.5232,北海市,北海工业园,细颗粒物(PM2.5),64,74,62,46,38,58,,,,14,18,6,8,0.8,0.8
2026-01-16T0600,3400A,109.1844,21.4396,北海市,龙潭自来水厂,细颗粒物(PM2.5),64,56,50,46,37,73,,,,7,11,13,14,0.7,0.6
2026-01-16T0600,1001A,116.3611,39.8786,北京市,万寿西宫,颗粒物(PM10),89,128,160,65,90,6,,,,56,59,4,3,1.1,0.9
2026-01-16T0600,1003A,116.4174,39.9289,北京市,东四,细颗粒物(PM2.5),88,117,157,65,83,5,,,,53,61,6,6,1.2,1.1
2026-01-16T0600,1004A,116.4073,39.8858,北京市,天坛,细颗粒物(PM2.5),85,110,149,63,86,6,,,,38,52,2,3,1.1,1
2026-01-16T0600,1005A,116.4622,39.9364,北京市,农展馆,细颗粒物(PM2.5),94,122,147,70,84,2,,,,49,54,4,5,1.2,1.1
2026-01-16T0600,1006A,116.3399,39.9293,北京市,官园,"颗粒物(PM10),细颗粒物(PM2.5)",84,118,157,62,86,12,,,,40,56,6,6,1.0,1.1
2026-01-16T0600,1007A,116.2879,39.9613,北京市,海淀万柳,细颗粒物(PM2.5),80,106,133,59,78,1,,,,62,69,3,4,0.9,1.2
2026-01-16T0600,1008A,116.6635,40.1349,北京市,顺义新城,细颗粒物(PM2.5),98,136,138,73,74,2,,,,51,47,3,5,1.1,0.9
2026-01-16T0600,1009A,116.6275,40.327,北京市,怀柔镇,细颗粒物(PM2.5),98,132,129,73,66,10,,,,50,51,4,5,1.2,0.9
2026-01-16T0600,1010A,116.2295,40.217,北京市,昌平镇,颗粒物(PM10),64,77,132,38,72,39,,,,27,54,2,3,0.6,1.1
2026-01-16T0600,1011A,116.3968,39.982,北京市,奥体中心,细颗粒物(PM2.5),88,112,137,65,80,8,,,,62,58,3,4,1.2,1.3
2026-01-16T0600,3418A,116.8336,40.4095,北京市,密云新城,细颗粒物(PM2.5),104,139,140,78,66,16,,,,31,45,6,6,1.1,0.9
2026-01-16T0600,3671A,116.0879,39.9725,北京市,门头沟三家店,细颗粒物(PM2.5),97,142,153,72,73,2,,,,51,65,3,4,1.1,1
2026-01-16T0600,3672A,116.1507,39.8246,北京市,丰台云岗,细颗粒物(PM2.5),92,118,149,68,86,4,,,,55,62,4,3,1.0,1
2026-01-16T0600,3674A,115.9578,39.7602,北京市,房山燕山,细颗粒物(PM2.5),88,117,162,65,78,18,,,,33,55,4,4,0.7,0.8
2026-01-16T0600,3675A,116.4669,39.7734,北京市,大兴旧宫,颗粒物(PM10),86,121,156,58,81,2,,,,45,49,2,3,1.0,1
2026-01-16T0600,3694A,115.9859,40.4562,北京市,延庆石河营,颗粒物(PM10),62,74,174,34,62,31,,,,36,44,3,3,0.7,0.8
2026-01-16T0600,3695A,116.6151,40.3052,北京市,怀柔新城,细颗粒物(PM2.5),107,135,132,80,70,8,,,,43,41,4,5,1.1,0.9
2026-01-16T0600,3696A,116.2542,39.8764,北京市,丰台小屯,细颗粒物(PM2.5),89,123,157,66,86,3,,,,58,67,3,4,1.1,1.1
2026-01-16T0600,3697A,116.8399,40.3843,北京市,密云镇,细颗粒物(PM2.5),115,137,132,87,69,1,,,,47,46,3,2,1.2,0.9
2026-01-16T0600,4057A,115.9423,40.4431,北京市,延庆百泉,细颗粒物(PM2.5),103,149,180,77,61,2,,,,58,45,2,2,1.0,0.7
2026-01-16T0600,4058A,116.6598,39.9164,北京市,通州新华,细颗粒物(PM2.5),93,123,147,69,72,10,,,,45,59,5,4,1.4,1
2026-01-16T0600,4182A,116.1942,39.9158,北京市,石景山八角,颗粒物(PM10),90,130,152,66,82,4,,,,52,62,3,2,1.0,1
2026-01-16T0600,4194A,117.078628,40.151726,北京市,平谷新城,细颗粒物(PM2.5),122,139,153,92,77,1,,,,36,40,1,3,1.3,1
2026-01-16T0600,1761A,123.8274146,41.31234549,本溪市,大峪,,,91,89,62,64,15,,,,46,41,,8,1.1,1
2026-01-16T0600,1763A,123.7169,41.3094,本溪市,彩屯,细颗粒物(PM2.5),102,93,84,76,74,20,,,,40,37,7,8,1.5,1.2
2026-01-16T0600,1764A,123.7672166,41.28649327,本溪市,东明,,,74,79,71,75,21,,,,35,37,,5,1.4,1.5
2026-01-16T0600,1765A,123.799345,41.266614,本溪市,新立屯,细颗粒物(PM2.5),92,71,72,68,66,24,,,,34,35,9,9,1.0,1.1
2026-01-16T0600,1766A,123.829144,41.336777,本溪市,威宁,细颗粒物(PM2.5),84,81,80,62,62,10,,,,48,43,6,6,1.1,1.1
2026-01-16T0600,2587A,105.287,27.3133,毕节市,八中,细颗粒物(PM2.5),112,99,91,84,77,26,,,,13,23,9,13,0.8,1
2026-01-16T0600,2588A,105.3079,27.2987,毕节市,师专,细颗粒物(PM2.5),120,102,91,91,76,31,,,,20,25,8,11,1.0,0.9
2026-01-16T0600,4263A,105.3688,27.3598,毕节市,工业大道,细颗粒物(PM2.5),109,115,108,82,84,25,,,,27,24,11,13,/,/
2026-01-16T0600,1629A,117.9961,37.3604,滨州市,第二水厂,细颗粒物(PM2.5),99,134,221,74,94,4,,,,39,55,8,17,1.3,1.2
2026-01-16T0600,1630A,117.9789,37.3931,滨州市,北中新校,细颗粒物(PM2.5),117,141,190,88,93,3,,,,38,56,4,13,1.0,1
2026-01-16T0600,3514A,117.9379,37.3959,滨州市,中海酒店,细颗粒物(PM2.5),110,132,205,83,94,9,,,,36,47,7,14,1.0,0.9
2026-01-16T0600,3515A,117.9381509,37.35547456,滨州市,开发区一中,细颗粒物(PM2.5),110,139,233,83,100,7,,,,33,51,12,22,0.9,0.9
2026-01-16T0600,3516A,118.0914,37.6938,滨州市,金海六路,细颗粒物(PM2.5),113,132,192,85,86,17,,,,32,42,3,8,0.9,0.9
2026-01-16T0600,4028A,117.9955,37.3752,滨州市,滨州市西街道办事处,细颗粒物(PM2.5),113,132,220,85,102,6,,,,33,46,8,16,1.0,1
2026-01-16T0600,2311A,115.8071,33.8399,亳州市,污水处理厂,细颗粒物(PM2.5),97,109,117,72,56,55,,,,29,29,7,5,0.3,0.4
2026-01-16T0600,2312A,115.7789,33.8519,亳州市,三国揽胜宫,,,117,118,75,63,63,,,,,28,5,4,0.5,0.5
2026-01-16T0600,3332A,115.7631,33.803,亳州市,亳州学院,细颗粒物(PM2.5),83,108,111,61,60,57,,,,28,22,6,5,0.4,0.5
2026-01-16T0600,2693A,82.0482,44.8553,博尔塔拉蒙古自治州,市党校,,31,31,51,8,21,64,,,,10,21,2,3,0.1,0.3
2026-01-16T0600,2694A,82.0805,44.8966,博尔塔拉蒙古自治州,市环保局,,40,40,53,15,24,59,,,,8,14,3,6,0.4,0.5
2026-01-16T0600,1071A,116.8733,38.2922,沧州市,沧县城建局,细颗粒物(PM2.5),84,91,167,62,95,46,,,,16,47,4,7,0.6,0.9
2026-01-16T0600,1072A,116.8462,38.3189,沧州市,电视转播站,颗粒物(PM10),79,107,165,53,98,44,,,,18,45,2,5,0.6,0.9
2026-01-16T0600,1073A,116.8588,38.3161,沧州市,市环保局,细颗粒物(PM2.5),93,121,177,69,101,42,,,,15,40,4,8,0.6,0.9
2026-01-16T0600,3324A,116.8011,38.294,沧州市,河北水利电力学院,颗粒物(PM10),79,107,193,56,86,43,,,,16,44,1,7,0.4,0.8
2026-01-16T0600,2622A,97.1813,31.1289,昌都市,昌都监测站,,28,28,46,3,22,47,,,,4,23,3,3,0.4,0.9
2026-01-16T0600,3719A,97.1707,31.1428,昌都市,昌都会议中心,,14,9,20,8,17,44,,,,1,5,1,1,0.3,0.4
2026-01-16T0600,2692A,87.2722,44.0298,昌吉回族自治州,新区政务中心,,36,36,38,22,20,40,,,,26,23,8,9,0.5,0.5
2026-01-16T0600,3613A,87.3069,44.0093,昌吉回族自治州,亚心广场,,44,44,47,14,16,49,,,,14,14,8,8,0.5,0.5
2026-01-16T0600,4164A,87.2057,43.9289,昌吉回族自治州,财政所,,44,44,48,30,29,24,,,,28,25,5,6,0.6,0.5
2026-01-16T0600,1120A,125.2874,43.9024,长春市,客车厂,细颗粒物(PM2.5),98,,36,73,42,6,,,,63,34,26,12,1.0,0.5
2026-01-16T0600,1121A,125.2943,43.8508,长春市,邮电学院,细颗粒物(PM2.5),85,,38,63,37,4,,,,62,27,11,12,0.9,0.7
2026-01-16T0600,1122A,125.3648,43.8745,长春市,劳动公园,细颗粒物(PM2.5),57,54,44,40,34,8,,,,57,29,10,11,0.8,0.5
2026-01-16T0600,1123A,125.3233,43.8781,长春市,园林处,细颗粒物(PM2.5),63,46,35,45,34,7,,,,55,23,10,11,0.8,0.5
2026-01-16T0600,1124A,125.4604,43.7904,长春市,净月潭,细颗粒物(PM2.5),63,48,44,45,34,25,,,,27,23,5,7,0.7,0.5
2026-01-16T0600,1126A,125.38,43.8422,长春市,经开区环卫处,细颗粒物(PM2.5),78,,44,57,42,4,,,,60,35,6,7,0.9,0.6
2026-01-16T0600,1127A,125.234,43.7761,长春市,高新区管委会,,,,46,68,48,6,,,,63,40,,11,0.9,0.6
2026-01-16T0600,1128A,125.1695,43.83,长春市,岱山公园,细颗粒物(PM2.5),102,92,54,76,49,6,,,,59,47,,10,1.0,0.8
2026-01-16T0600,4281A,125.334645,43.916281,长春市,北亚泰大街1068号,细颗粒物(PM2.5),74,59,44,54,45,5,,,,60,31,13,10,0.9,0.7
2026-01-16T0600,1335A,113.082,28.2421,长沙市,经开区环保局,细颗粒物(PM2.5),133,126,118,101,84,2,,,,65,61,7,13,0.9,0.8
2026-01-16T0600,1336A,112.8873,28.2202,长沙市,高开区环保局,细颗粒物(PM2.5),84,90,112,62,89,23,,,,58,51,10,8,0.8,0.9
2026-01-16T0600,1337A,113.0785,28.2012,长沙市,马坡岭,细颗粒物(PM2.5),117,125,120,88,80,1,,,,72,58,7,7,0.8,0.8
2026-01-16T0600,1338A,112.9448,28.1894,长沙市,湖南师范大学,细颗粒物(PM2.5),74,86,94,54,60,11,,,,79,42,6,7,1.0,0.8
2026-01-16T0600,1339A,113.0177,28.1322,长沙市,雨花区环保局,细颗粒物(PM2.5),70,76,93,51,60,85,,,,20,47,14,10,0.7,0.7
2026-01-16T0600,1340A,112.9795,28.2593,长沙市,伍家岭,细颗粒物(PM2.5),128,151,141,97,94,0,,,,65,58,6,8,0.8,0.9
2026-01-16T0600,1341A,113.002,28.1944,长沙市,火车新站,细颗粒物(PM2.5),113,132,119,85,81,6,,,,86,63,11,12,1.2,1
2026-01-16T0600,1342A,112.9846,28.1177,长沙市,天心区环保局,细颗粒物(PM2.5),84,75,93,62,64,81,,,,24,48,11,8,0.7,0.8
2026-01-16T0600,1343A,112.8906,28.1307,长沙市,湖南中医药大学,细颗粒物(PM2.5),98,135,109,73,70,2,,,,66,56,7,8,1.0,0.8
2026-01-16T0600,1727A,113.1146,36.1547,长治市,清华站,颗粒物(PM10),58,65,61,31,19,2,,,,54,27,17,12,0.8,0.5
2026-01-16T0600,1730A,113.0887,36.2126,长治市,审计局,颗粒物(PM10),56,61,61,31,23,4,,,,51,28,27,13,0.8,0.6
2026-01-16T0600,1731A,113.0845,36.1856,长治市,长治八中,颗粒物(PM10),67,84,82,41,28,2,,,,51,26,27,13,0.9,0.6
2026-01-16T0600,2845A,113.1561,36.1912,长治市,德盛苑,颗粒物(PM10),54,57,50,36,18,20,,,,45,9,17,9,0.8,0.4
2026-01-16T0600,3568A,113.0603,36.0464,长治市,向阳小学,颗粒物(PM10),63,75,72,31,24,35,,,,30,16,22,14,0.7,0.4
2026-01-16T0600,3569A,112.8788,36.315,长治市,屯留一中,颗粒物(PM10),59,67,71,23,28,12,,,,43,37,17,16,0.8,0.8
2026-01-16T0600,4189A,113.113092,36.199482,长治市,英华南巷50号,颗粒物(PM10),62,74,70,36,21,2,,,,64,26,21,10,1.0,0.7
2026-01-16T0600,4190A,113.23666,36.33435,长治市,学府街1号,颗粒物(PM10),67,84,72,41,27,15,,,,62,36,42,11,2.9,1.1
2026-01-16T0600,1854A,111.696,28.9725,常德市,市二中,细颗粒物(PM2.5),119,114,117,90,87,12,,,,38,27,5,7,1.1,1
2026-01-16T0600,3138A,111.7152,29.0288,常德市,武陵区永安,细颗粒物(PM2.5),152,142,126,116,92,19,,,,40,23,6,7,1.1,0.9
2026-01-16T0600,3139A,111.6891,28.9881,常德市,鼎城区玉霞,细颗粒物(PM2.5),119,102,113,90,89,2,,,,37,29,7,9,0.7,0.7
2026-01-16T0600,3140A,111.6651,29.0526,常德市,武陵区长庚,细颗粒物(PM2.5),156,147,124,119,92,14,,,,38,27,5,7,1.0,0.9
2026-01-16T0600,1196A,119.9524,31.7586,常州市,市监测站,细颗粒物(PM2.5),183,201,149,138,97,7,,,,114,80,8,9,1.4,1.3
2026-01-16T0600,1200A,119.9351,31.703,常州市,武进监测站,细颗粒物(PM2.5),147,167,148,112,97,47,,,,82,81,17,17,0.7,0.8
2026-01-16T0600,3002A,119.9701,31.813,常州市,行政中心,细颗粒物(PM2.5),169,174,145,128,95,22,,,,103,78,16,11,2.1,1
2026-01-16T0600,3003A,120.0434,31.7726,常州市,经开区,细颗粒物(PM2.5),209,270,171,159,97,0,,,,107,79,21,17,1.2,0.9
2026-01-16T0600,3010A,119.8919,31.7892,常州市,钟楼,细颗粒物(PM2.5),144,155,139,110,90,64,,,,61,68,11,11,1.0,0.9
2026-01-16T0600,3429A,119.8595,31.706,常州市,武进经发区,细颗粒物(PM2.5),176,175,149,133,105,38,,,,95,87,6,7,1.1,1.1
2026-01-16T0600,3430A,119.5812,31.7256,常州市,金坛城区,细颗粒物(PM2.5),179,188,90,135,96,33,,,,68,58,10,12,1.3,1.1
2026-01-16T0600,4089A,119.9551,31.863,常州市,崇义南街5-H号,细颗粒物(PM2.5),212,175,146,162,108,14,,,,100,78,10,12,1.7,1.2
2026-01-16T0600,2220A,120.4318,41.588,朝阳市,西梁,,24,24,49,12,28,60,,,,9,14,8,10,0.5,0.6
2026-01-16T0600,2221A,120.452,41.565,朝阳市,河畔小区,,25,25,36,10,26,59,,,,11,13,10,10,0.4,0.6
2026-01-16T0600,2222A,120.4176,41.5648,朝阳市,八里堡,,29,29,40,13,27,60,,,,10,17,7,8,0.5,0.6
2026-01-16T0600,3026A,116.6179,23.6608,潮州市,市政府,颗粒物(PM10),54,57,86,34,49,55,,,,14,34,4,12,0.4,0.6
2026-01-16T0600,4036A,116.646,23.676,潮州市,金山,,46,38,62,32,42,48,,,,13,20,3,6,0.4,0.5
2026-01-16T0600,2473A,113.0116,25.8228,郴州市,市职中,细颗粒物(PM2.5),72,70,72,52,50,0,,,,44,37,6,7,0.9,0.8
2026-01-16T0600,2475A,113.0381,25.8074,郴州市,市审计局,细颗粒物(PM2.5),64,71,86,46,55,62,,,,24,41,18,5,/,/
2026-01-16T0600,2476A,113.0348,25.7757,郴州市,市环保局,颗粒物(PM10),67,84,78,47,50,72,,,,24,43,12,7,0.4,0.5
2026-01-16T0600,4252A,113.0138,25.8011,郴州市,好美居路49号,细颗粒物(PM2.5),80,73,68,59,54,11,,,,67,50,6,6,/,/
2026-01-16T0600,1431A,103.9727,30.7242,成都市,金泉两河,细颗粒物(PM2.5),145,128,122,111,92,1,,,,58,58,2,5,1.4,1.2
2026-01-16T0600,1432A,104.1423,30.6765,成都市,十里店,细颗粒物(PM2.5),170,166,133,129,94,9,,,,69,65,5,5,1.1,1.2
2026-01-16T0600,1433A,104.0594,30.5765,成都市,三瓦窑,细颗粒物(PM2.5),180,149,120,136,94,0,,,,76,69,4,4,1.2,1.1
2026-01-16T0600,1434A,104.1122,30.6306,成都市,沙河铺,细颗粒物(PM2.5),189,153,125,142,108,1,,,,78,83,3,3,1.1,1.1
2026-01-16T0600,2880A,104.0219,30.6561,成都市,大石西路,细颗粒物(PM2.5),129,143,126,98,86,18,,,,45,62,4,6,0.9,1.3
2026-01-16T0600,3136A,104.2724,30.559,成都市,龙泉驿区区政府,细颗粒物(PM2.5),153,122,90,117,72,46,,,,26,24,6,6,0.8,0.8
2026-01-16T0600,3357A,104.0028,30.6891,成都市,金博路,细颗粒物(PM2.5),142,136,113,108,85,0,,,,65,69,6,8,1.3,1.3
2026-01-16T0600,3359A,104.056,30.5228,成都市,华阳,细颗粒物(PM2.5),132,122,103,100,80,1,,,,76,69,3,3,1.1,1
2026-01-16T0600,3488A,104.387954,30.746684,成都市,青石路225号,细颗粒物(PM2.5),190,170,124,143,100,2,,,,50,52,2,2,1.1,0.9
2026-01-16T0600,3489A,104.0788,30.4054,成都市,科学城,细颗粒物(PM2.5),115,108,109,87,63,4,,,,36,36,6,6,1.0,0.6
2026-01-16T0600,4011A,103.8505,30.6946,成都市,光华大道三段,细颗粒物(PM2.5),107,120,120,80,86,35,,,,42,53,6,6,0.6,0.6
2026-01-16T0600,4144A,104.3257,30.6406,成都市,八角井街185号,细颗粒物(PM2.5),148,158,123,113,101,10,,,,36,33,2,3,1.1,0.9
2026-01-16T0600,4224A,104.2433276,30.53529463,成都市,鲸龙路1057号,细颗粒物(PM2.5),165,,99,125,85,20,,,,47,42,5,5,0.8,0.8
2026-01-16T0600,1062A,117.9531,40.908,承德市,铁路,细颗粒物(PM2.5),80,92,116,59,62,18,,,,25,38,4,9,1.1,1.2
2026-01-16T0600,1063A,117.9397,40.9763,承德市,中国银行,细颗粒物(PM2.5),80,99,109,59,56,15,,,,25,34,2,5,1.0,1.1
2026-01-16T0600,4073A,117.9462,40.95,承德市,杏林街1号,细颗粒物(PM2.5),79,86,105,58,60,18,,,,23,32,4,7,1.0,1.2
2026-01-16T0600,4274A,117.7994,40.9605,承德市,滨河大街98号,细颗粒物(PM2.5),93,104,89,69,55,11,,,,34,33,3,6,0.9,1
2026-01-16T0600,2314A,117.4698,30.6617,池州市,池州学院,细颗粒物(PM2.5),79,70,82,58,60,6,,,,48,46,3,7,1.3,1.1
2026-01-16T0600,3237A,117.4918,30.6617,池州市,展览馆,细颗粒物(PM2.5),60,59,79,43,50,0,,,,42,48,3,4,1.3,1.2
2026-01-16T0600,3333A,117.5626,30.695,池州市,第八中学,细颗粒物(PM2.5),88,91,85,65,58,37,,,,37,41,4,8,1.0,1
2026-01-16T0600,3334A,117.5037,30.6242,池州市,第十二中学,细颗粒物(PM2.5),67,73,88,48,53,13,,,,46,59,4,6,1.8,1.4
2026-01-16T0600,1744A,118.9229,42.2816,赤峰市,松山一中,,24,24,38,9,18,38,,,,18,22,6,16,0.6,0.8
2026-01-16T0600,1745A,118.9588,42.2733,赤峰市,哈达街,,26,19,42,18,23,46,,,,12,23,4,18,0.6,0.8
2026-01-16T0600,1746A,118.8792,42.2551,赤峰市,天义路,,23,,35,16,30,44,,,,12,27,6,29,0.6,0.9
2026-01-16T0600,3058A,119.2656,42.0356,赤峰市,银河街,,34,34,40,22,22,57,,,,5,8,10,10,0.6,0.6
2026-01-16T0600,3286A,118.9359,42.3146,赤峰市,桥北物流园区,,32,32,35,19,26,38,,,,17,16,4,8,0.7,0.6
2026-01-16T0600,2521A,107.3473,22.4137,崇左市,市环保局江州分局,细颗粒物(PM2.5),113,96,102,85,77,40,,,,22,25,7,10,1.0,1
2026-01-16T0600,4256A,107.375,22.3736,崇左市,石景林东路7号,细颗粒物(PM2.5),115,90,85,87,77,26,,,,28,27,7,10,0.8,0.8
2026-01-16T0600,3207A,118.31131,32.3033,滁州市,市政府原办公楼,细颗粒物(PM2.5),110,129,128,83,74,6,,,,76,59,6,7,0.6,0.7
2026-01-16T0600,3331A,118.3268,32.2633,滁州市,图书馆,细颗粒物(PM2.5),102,123,122,76,71,4,,,,82,53,10,12,0.9,0.7
2026-01-16T0600,4101A,118.3196,32.3335,滁州市,银山路666号,细颗粒物(PM2.5),125,110,120,95,89,0,,,,32,48,5,9,0.5,0.6
2026-01-16T0600,4102A,118.3426,32.2979,滁州市,黄山路555号,细颗粒物(PM2.5),144,147,149,110,97,4,,,,74,75,17,16,0.9,1
2026-01-16T0600,2606A,101.5379,25.0492,楚雄彝族自治州,市经济开发区,,,,32,,17,,,72,,,17,,4,,0.5
2026-01-16T0600,4153A,101.5536,25.0343,楚雄彝族自治州,团结路562号,,27,27,29,17,19,18,,,,21,20,2,5,0.4,0.4
2026-01-16T0600,2549A,107.5087,31.2186,达州市,市环境监测站,细颗粒物(PM2.5),119,111,136,90,117,6,,,,26,38,6,6,0.7,0.9
2026-01-16T0600,2550A,107.4988,31.2132,达州市,凤凰小区,细颗粒物(PM2.5),125,112,153,95,121,6,,,,31,41,4,5,0.7,1.1
2026-01-16T0600,2551A,107.5081,31.1987,达州市,达县机关宾馆,细颗粒物(PM2.5),147,132,157,112,121,2,,,,33,46,3,4,1.0,1.3
2026-01-16T0600,2552A,107.4644,31.2124,达州市,市政中心,细颗粒物(PM2.5),134,134,165,102,124,5,,,,37,51,5,7,0.7,1.2
2026-01-16T0600,2614A,100.2168,25.5818,大理白族自治州,大理市环境监测站,,29,23,24,20,19,62,,,,8,8,6,6,0.6,0.7
2026-01-16T0600,2615A,100.1542,25.7055,大理白族自治州,大理古城,,25,,23,17,15,62,,,,4,9,8,8,0.5,0.6
2026-01-16T0600,1109A,121.6119,38.974,大连市,甘井子,细颗粒物(PM2.5),125,124,123,95,93,6,,,,49,48,6,7,0.6,0.8
2026-01-16T0600,1110A,121.565,38.9509,大连市,周水子,细颗粒物(PM2.5),123,116,124,93,94,11,,,,37,43,6,8,1.2,1.2
2026-01-16T0600,1111A,121.5637,38.8849,大连市,星海三站,细颗粒物(PM2.5),122,109,114,92,88,11,,,,35,37,4,8,1.2,1.3
2026-01-16T0600,1112A,121.6301,38.9117,大连市,青泥洼桥,细颗粒物(PM2.5),128,118,127,97,94,13,,,,38,48,8,10,1.3,1.5
2026-01-16T0600,1113A,121.6248,38.8643,大连市,傅家庄,细颗粒物(PM2.5),118,116,122,89,86,13,,,,39,46,10,12,1.1,1.2
2026-01-16T0600,1114A,121.5117,38.8636,大连市,七贤岭,细颗粒物(PM2.5),124,132,119,94,79,11,,,,40,40,9,10,1.3,1.2
2026-01-16T0600,1116A,121.7507,39.1339,大连市,金州,细颗粒物(PM2.5),115,103,117,87,99,8,,,,45,41,17,10,1.2,1.2
2026-01-16T0600,1117A,121.7811,39.0495,大连市,开发区,细颗粒物(PM2.5),114,116,133,86,94,32,,,,18,38,8,8,1.1,1.4
2026-01-16T0600,1118A,121.9762,39.0631,大连市,双D港,细颗粒物(PM2.5),115,108,116,87,98,31,,,,23,31,8,8,1.2,1.2
2026-01-16T0600,4082A,121.2548,38.8188,大连市,旅顺,细颗粒物(PM2.5),112,126,133,84,90,13,,,,26,29,7,8,1.1,1.2
2026-01-16T0600,1789A,124.8085,46.0381,大庆市,大同区,,48,48,62,33,51,22,,,,34,22,6,7,0.8,0.8
2026-01-16T0600,1790A,125.1166,46.5255,大庆市,龙凤区,,50,47,45,35,38,21,,,,45,35,13,10,0.5,0.4
2026-01-16T0600,1791A,124.8894,46.4007,大庆市,红岗区,,37,37,50,24,35,17,,,,38,25,6,7,0.6,0.6
2026-01-16T0600,1792A,125.1391,46.578,大庆市,萨尔图区,,41,41,53,28,35,25,,,,34,27,8,9,0.6,0.6
2026-01-16T0600,1793A,124.9026,46.6217,大庆市,让胡路区,,49,42,46,34,42,40,,,,22,20,8,8,0.6,0.7
2026-01-16T0600,3481A,125.127,46.6277,大庆市,萨区政府监测点,细颗粒物(PM2.5),52,44,66,36,39,24,,,,36,30,9,9,0.7,0.7
2026-01-16T0600,1723A,113.2926,40.0759,大同市,云冈宾馆,,28,28,134,10,32,53,,,,6,27,6,9,0.6,0.9
2026-01-16T0600,1724A,113.3437,40.0921,大同市,大同大学,,29,29,127,16,50,60,,,,4,25,2,9,0.5,0.6
2026-01-16T0600,1725A,113.2637,40.129,大同市,安家小村,,32,32,137,6,40,49,,,,9,24,7,12,0.4,0.7
2026-01-16T0600,3282A,113.3399,40.0586,大同市,大同市卫生学校,,28,28,134,10,34,60,,,,7,30,3,9,0.4,0.7
2026-01-16T0600,3565A,113.1371,40.1122,大同市,云冈站,,30,30,113,13,31,54,,,,6,25,4,8,0.5,0.6
2026-01-16T0600,3566A,113.1186,40.2556,大同市,图书馆,,40,40,126,7,42,54,,,,6,16,4,10,0.4,0.6
2026-01-16T0600,3567A,113.5931,40.0459,大同市,区一中,,38,38,110,18,29,61,,,,11,22,3,4,0.4,0.5
2026-01-16T0600,4199A,113.2798248,40.09972476,大同市,魏都大道141号,,32,32,155,8,36,57,,,,6,31,5,9,0.5,1.1
2026-01-16T0600,2269A,124.1068,50.4091,大兴安岭地区,科技局,,15,13,22,10,14,46,,,,2,4,4,5,0.2,0.3
2026-01-16T0600,3663A,124.117,50.4279,大兴安岭地区,红旗社区,,16,6,16,3,13,51,,,,2,15,5,7,0.2,0.4
2026-01-16T0600,1600A,124.33,40.0625,丹东市,江湾东路,细颗粒物(PM2.5),129,109,96,98,70,30,,,,30,31,7,7,1.5,1.1
2026-01-16T0600,1601A,124.4242,40.1513,丹东市,临江后街,细颗粒物(PM2.5),108,100,84,81,56,20,,,,37,27,15,10,1.2,0.9
2026-01-16T0600,1602A,124.3935,40.1461,丹东市,元宝山,细颗粒物(PM2.5),105,95,79,79,56,25,,,,33,22,10,10,1.2,0.8
2026-01-16T0600,1603A,124.3634,40.1093,丹东市,民主桥,细颗粒物(PM2.5),97,95,98,72,58,32,,,,26,28,8,8,1.2,1.1
2026-01-16T0600,3541A,109.5726195,19.51688767,儋州市,第一中学子站,,38,38,41,22,22,39,,,,5,7,9,5,0.6,0.6
2026-01-16T0600,3542A,109.5567,19.5187,儋州市,东坡学校子站,,,,31,,18,,,88,,,4,,6,,0.5
2026-01-16T0600,2616A,98.5611,24.4273,德宏傣族景颇族自治州,德宏州监测站,,50,46,53,35,37,13,,,,24,25,6,7,0.7,0.8
2026-01-16T0600,3677A,98.5887,24.4366,德宏傣族景颇族自治州,芒市人民政府综合楼,,46,44,53,32,30,17,,,,14,17,4,5,0.7,0.7
2026-01-16T0600,1901A,104.424,31.1209,德阳市,东山公园,细颗粒物(PM2.5),114,93,95,86,87,35,,,,37,27,10,6,0.8,0.8
2026-01-16T0600,1902A,104.3827,31.1318,德阳市,西小区,细颗粒物(PM2.5),113,113,119,85,87,15,,,,45,44,8,5,1.0,1.1
2026-01-16T0600,1904A,104.3553,31.1091,德阳市,耐火材料厂,细颗粒物(PM2.5),128,104,104,97,90,20,,,,36,45,10,5,1.0,1
2026-01-16T0600,4145A,104.4144,31.1495,德阳市,市林业局,细颗粒物(PM2.5),147,112,110,112,100,1,,,,49,52,2,3,0.7,0.7
2026-01-16T0600,1622A,116.3034,37.4675,德州市,儿童乐园,细颗粒物(PM2.5),119,146,242,90,112,26,,,,26,53,10,19,1.2,1.4
2026-01-16T0600,1624A,116.2992,37.4449,德州市,监理站,细颗粒物(PM2.5),113,139,238,85,115,36,,,,26,54,10,20,1.1,1.2
2026-01-16T0600,3066A,116.2722,37.438,德州市,九衢泉纯净水厂,细颗粒物(PM2.5),117,146,231,88,118,27,,,,25,59,8,14,1.1,1.3
2026-01-16T0600,3371A,116.3693,37.44,德州市,开发区人民医院,细颗粒物(PM2.5),117,134,242,88,119,33,,,,26,58,10,19,0.9,1.1
2026-01-16T0600,3511A,116.5687,37.3331,德州市,陵城艺术中心,细颗粒物(PM2.5),117,139,235,88,111,20,,,,31,53,8,18,1.3,1.3
2026-01-16T0600,4292A,116.352738,37.420875,德州市,新河东路,细颗粒物(PM2.5),119,136,233,90,118,31,,,,21,62,10,19,0.9,1.4
2026-01-16T0600,2621A,99.7054,27.8319,迪庆藏族自治州,迪庆州站,,18,15,28,12,17,46,,,,6,8,4,4,0.1,0.3
2026-01-16T0600,3180A,99.7122,27.8129,迪庆藏族自治州,质量技术监督局,,23,,28,16,15,57,,,,6,11,4,4,0.3,0.4
2026-01-16T0600,4257A,104.6092,35.5962,定西市,将台街,颗粒物(PM10),87,123,104,39,45,16,,,,28,28,12,16,0.8,0.7
2026-01-16T0600,4309A,104.6159,35.5701,定西市,正龙路62号,颗粒物(PM10),78,105,108,32,42,28,,,,8,11,9,15,0.7,0.7
2026-01-16T0600,1390A,113.7943,23.0132,东莞市,东城石井,细颗粒物(PM2.5),104,114,87,78,54,0,,,,119,66,6,8,0.8,0.7
2026-01-16T0600,1391A,113.7384,22.9659,东莞市,南城西平,细颗粒物(PM2.5),107,138,97,80,60,0,,,,133,84,8,8,1.0,0.8
2026-01-16T0600,3319A,113.7283,23.041,东莞市,万江金泰,细颗粒物(PM2.5),123,147,107,93,64,7,,,,123,74,8,7,1.3,1.1
2026-01-16T0600,4129A,113.8666,23.1062,东莞市,裕兴路,细颗粒物(PM2.5),108,147,120,81,59,28,,,,68,70,8,9,0.9,0.8
2026-01-16T0600,4130A,114.0076,22.9739,东莞市,教育路1号,细颗粒物(PM2.5),119,159,138,90,74,2,,,,107,86,,6,1.0,0.9
2026-01-16T0600,4131A,113.7981,22.8124,东莞市,长怡路1号,,,,137,58,60,1,,,,100,84,6,8,1.0,0.9
2026-01-16T0600,1666A,118.6612,37.4313,东营市,市环保局,颗粒物(PM10),103,156,203,73,93,17,,,,39,51,9,30,0.9,1.1
2026-01-16T0600,3036A,118.6903,37.4337,东营市,开发区管委会,细颗粒物(PM2.5),117,171,219,88,94,19,,,,37,48,8,9,0.7,0.8
2026-01-16T0600,3365A,118.5721,37.5654,东营市,垦利区民丰路,细颗粒物(PM2.5),98,119,181,73,82,7,,,,44,48,4,9,1.1,0.9
2026-01-16T0600,3498A,118.5063,37.8606,东营市,河口城区,细颗粒物(PM2.5),102,136,174,76,82,24,,,,42,42,6,10,1.3,1.3
2026-01-16T0600,3646A,118.4979,37.4623,东营市,胜利站,细颗粒物(PM2.5),100,146,184,75,89,10,,,,46,56,11,23,1.1,1.2
2026-01-16T0600,3734A,118.5753,37.4405,东营市,理想之城,细颗粒物(PM2.5),117,158,192,88,97,9,,,,42,54,5,16,1.0,1.2
2026-01-16T0600,1591A,110.0024,39.8127,鄂尔多斯市,综合楼,,48,48,113,9,25,44,,,,17,22,7,9,0.4,0.4
2026-01-16T0600,1592A,109.9485,39.8259,鄂尔多斯市,巴音孟克林场办事处,,46,46,98,14,23,35,,,,26,19,16,9,0.5,0.4
2026-01-16T0600,1593A,109.7734,39.5987,鄂尔多斯市,康泽苑,颗粒物(PM10),53,56,110,17,30,44,,,,22,17,7,6,0.6,0.4
2026-01-16T0600,1594A,109.8121,39.5987,鄂尔多斯市,华泰汽车城,颗粒物(PM10),62,73,112,17,28,24,,,,30,22,7,5,0.4,0.4
2026-01-16T0600,1595A,109.9734,39.7884,鄂尔多斯市,奥林花园,颗粒物(PM10),51,51,111,7,22,42,,,,19,25,10,8,0.7,0.5
2026-01-16T0600,2436A,114.894,30.3989,鄂州市,市政府,细颗粒物(PM2.5),140,122,130,107,107,18,,,,73,56,12,13,0.6,1.3
2026-01-16T0600,2437A,114.8986,30.3714,鄂州市,赵家坝,细颗粒物(PM2.5),114,103,114,86,90,62,,,,31,32,17,13,0.8,0.9
2026-01-16T0600,3654A,114.8093,30.4091,鄂州市,精准医疗中心,细颗粒物(PM2.5),132,130,122,100,103,60,,,,43,45,11,20,1.0,1.1
2026-01-16T0600,2454A,109.4978,30.2979,恩施土家族苗族自治州,湖北民院,细颗粒物(PM2.5),223,,120,173,144,2,,,,12,25,6,6,2.5,1.3
2026-01-16T0600,3549A,109.5061,30.3771,恩施土家族苗族自治州,龙凤新区,细颗粒物(PM2.5),217,193,176,167,151,0,,,,11,24,7,7,1.2,1.2
2026-01-16T0600,2499A,108.3411,21.6159,防城港市,沙万,细颗粒物(PM2.5),62,60,79,44,44,43,,,,50,41,9,9,1.0,0.9
2026-01-16T0600,2500A,108.3515,21.7733,防城港市,防城档案局,细颗粒物(PM2.5),59,52,79,42,50,19,,,,19,19,4,7,0.9,0.7
2026-01-16T0600,2501A,108.3506,21.6414,防城港市,大海花园,颗粒物(PM10),57,63,73,38,42,60,,,,34,35,9,10,0.8,0.8
2026-01-16T0600,1371A,113.1293,23.0065,佛山市,湾梁,细颗粒物(PM2.5),83,107,116,61,67,2,,,,108,89,/,/,/,/
2026-01-16T0600,1372A,113.1082,23.0477,佛山市,华材职中,细颗粒物(PM2.5),97,127,131,72,70,30,,,,82,77,6,8,0.9,0.9
2026-01-16T0600,1373A,113.1439,23.045,佛山市,南海气象局,细颗粒物(PM2.5),99,96,112,74,68,1,,,,112,90,/,/,/,/
2026-01-16T0600,1374A,113.2879,22.8094,佛山市,顺德苏岗,细颗粒物(PM2.5),94,80,103,70,75,0,,,,96,90,/,/,0.9,1.1
2026-01-16T0600,1376A,112.8384,22.8678,佛山市,高明孔堂,细颗粒物(PM2.5),67,53,79,48,58,68,,,,22,41,/,/,/,/
2026-01-16T0600,1377A,112.8835,23.1584,佛山市,三水监测站,细颗粒物(PM2.5),125,168,139,95,82,2,,,,112,106,3,11,1.1,1
2026-01-16T0600,1378A,112.8668,23.185,佛山市,三水云东海,细颗粒物(PM2.5),127,155,107,96,74,0,,,,103,76,/,/,/,/
2026-01-16T0600,3625A,113.2568,22.7629,佛山市,容桂街道办,细颗粒物(PM2.5),119,119,119,90,78,10,,,,92,88,/,/,/,/
2026-01-16T0600,1282A,119.2681,26.0506,福州市,师大,,42,42,52,28,26,43,,,,31,35,5,5,0.5,0.6
2026-01-16T0600,1283A,119.2983,26.1028,福州市,五四北路,,39,35,50,27,29,46,,,,27,41,5,5,0.7,0.8
2026-01-16T0600,1284A,119.2648,26.0769,福州市,杨桥西路,,46,42,49,32,28,43,,,,25,27,8,5,/,/
2026-01-16T0600,3048A,119.5799,26.0937,福州市,九龙,,38,38,40,22,22,32,,,,29,26,4,5,0.7,0.6
2026-01-16T0600,3526A,119.5188,25.9666,福州市,吴航,颗粒物(PM10),58,65,44,35,21,2,,,,81,31,5,5,0.6,0.6
2026-01-16T0600,4104A,119.3106,26.0648,福州市,路通桥巷6号,,50,44,52,35,30,38,,,,26,32,/,/,/,/
2026-01-16T0600,1755A,123.7974,41.8494,抚顺市,望花区,细颗粒物(PM2.5),68,70,65,49,48,42,,,,21,27,5,8,0.8,0.8
2026-01-16T0600,1756A,123.9161,41.8827,抚顺市,顺城区,细颗粒物(PM2.5),62,66,65,44,51,36,,,,29,38,7,8,0.9,0.9
2026-01-16T0600,1757A,124.0437,41.8615,抚顺市,东洲区,细颗粒物(PM2.5),64,70,72,46,55,39,,,,20,29,5,5,0.8,0.9
2026-01-16T0600,1758A,123.9246,41.8638,抚顺市,新抚区,细颗粒物(PM2.5),72,64,72,52,55,36,,,,32,44,6,7,0.9,1
2026-01-16T0600,1759A,124.0972,41.8961,抚顺市,大伙房水库,细颗粒物(PM2.5),64,56,59,46,48,43,,,,19,24,10,10,0.9,1
2026-01-16T0600,1760A,123.708,41.8386,抚顺市,沈抚新城,细颗粒物(PM2.5),65,74,64,47,51,34,,,,28,27,6,7,1.2,1.3
2026-01-16T0600,2377A,116.3544,27.9833,抚州市,市站,细颗粒物(PM2.5),103,104,81,77,55,7,,,,52,33,10,20,0.8,0.8
2026-01-16T0600,2378A,116.3562,27.9631,抚州市,血防站,细颗粒物(PM2.5),88,91,71,65,49,2,,,,72,46,10,17,1.4,1.1
2026-01-16T0600,2379A,116.3561,28.0007,抚州市,采茶剧团,细颗粒物(PM2.5),109,106,79,82,55,2,,,,61,35,8,13,1.4,1.3
2026-01-16T0600,2380A,116.3854,27.9648,抚州市,医学分院,细颗粒物(PM2.5),80,95,80,59,48,4,,,,49,27,12,18,0.9,0.9
2026-01-16T0600,2207A,121.6095,41.9978,阜新市,工业园区,,25,25,44,15,28,54,,,,9,15,7,8,0.5,0.5
2026-01-16T0600,2208A,121.6567,42.0188,阜新市,长青街,,23,16,39,16,29,51,,,,12,17,6,7,0.6,0.6
2026-01-16T0600,2209A,121.6672,42.07,阜新市,农业园区,,30,30,42,17,31,51,,,,12,15,6,6,0.4,0.5
2026-01-16T0600,2211A,121.6343,42.0455,阜新市,玉龙新城,,27,27,42,13,27,50,,,,11,16,7,8,0.5,0.5
2026-01-16T0600,2301A,115.8276,32.8929,阜阳市,市监测站,细颗粒物(PM2.5),83,105,108,61,62,39,,,,41,38,5,6,0.5,0.6
2026-01-16T0600,2303A,115.8551,32.8606,阜阳市,开发区,颗粒物(PM10),78,106,106,56,59,24,,,,50,34,5,7,0.5,0.6
2026-01-16T0600,2875A,115.783962,32.889217,阜阳市,阜阳职业技术学院,细颗粒物(PM2.5),70,87,104,51,57,46,,,,26,22,7,8,0.6,0.6
2026-01-16T0600,3468A,115.79,32.8614,阜阳市,市规划展馆,细颗粒物(PM2.5),85,97,111,63,64,55,,,,24,24,8,8,0.5,0.7
2026-01-16T0600,3469A,115.835101,32.918568,阜阳市,枣园社区,细颗粒物(PM2.5),90,98,106,67,64,34,,,,47,30,6,6,0.6,0.6
2026-01-16T0600,2669A,102.9097,34.9841,甘南藏族自治州,州政府,,45,45,57,27,27,3,,,,39,36,9,13,1.1,0.8
2026-01-16T0600,3380A,102.8915,34.9618,甘南藏族自治州,甘肃民族师范学院,颗粒物(PM10),56,62,69,14,18,8,,,,44,37,10,13,0.3,0.5
2026-01-16T0600,2570A,101.96,30.048,甘孜藏族自治州,水桥子,,14,14,26,9,12,38,,,,21,24,6,6,0.7,0.8
2026-01-16T0600,3065A,101.9534,29.9976,甘孜藏族自治州,州环保局,,19,17,24,3,9,60,,,,8,12,6,6,0.5,0.6
2026-01-16T0600,2363A,114.9368,25.8663,赣州市,地委,细颗粒物(PM2.5),58,58,62,41,43,12,,,,44,51,10,9,0.9,1
2026-01-16T0600,2364A,114.946,25.8483,赣州市,气象台,颗粒物(PM10),63,76,86,38,41,12,,,,58,72,6,5,0.6,0.7
2026-01-16T0600,2365A,114.932,25.8332,赣州市,市图书馆,细颗粒物(PM2.5),54,56,85,38,45,4,,,,72,70,7,7,0.9,1.1
2026-01-16T0600,2366A,114.8905,25.8472,赣州市,华坚鞋城,细颗粒物(PM2.5),75,95,92,55,46,11,,,,70,70,14,12,0.6,0.7
2026-01-16T0600,3109A,115.0094,25.8614,赣州市,赣县区卫计委,细颗粒物(PM2.5),67,48,66,48,52,22,,,,25,36,8,7,0.7,0.8
2026-01-16T0600,2684A,106.2753,36.0057,固原市,监测站,颗粒物(PM10),92,134,112,43,33,40,,,,20,14,7,6,0.9,0.5
2026-01-16T0600,2685A,106.2384,36.0189,固原市,新区,颗粒物(PM10),87,124,100,38,28,18,,,,32,13,2,3,0.6,0.3
2026-01-16T0600,2544A,106.6307,30.4577,广安市,市委,细颗粒物(PM2.5),190,,137,143,132,9,,,,33,29,9,10,1.2,1.2
2026-01-16T0600,2545A,106.6266,30.4662,广安市,友谊中学,细颗粒物(PM2.5),155,,128,118,118,25,,,,15,20,6,7,1.2,1.3
2026-01-16T0600,2547A,106.6386,30.4551,广安市,广电花园,细颗粒物(PM2.5),169,,127,128,128,4,,,,39,28,10,9,0.9,1
2026-01-16T0600,2902A,106.6347,30.4868,广安市,北辰小学,细颗粒物(PM2.5),144,111,128,110,124,24,,,,13,19,6,7,1.0,1.1
2026-01-16T0600,2524A,105.8211,32.4444,广元市,老城,细颗粒物(PM2.5),77,92,83,56,59,4,,,,52,56,15,24,1.0,1.2
2026-01-16T0600,2526A,105.8629,32.429,广元市,监测站,细颗粒物(PM2.5),83,76,78,61,58,9,,,,31,32,6,7,1.0,1
2026-01-16T0600,3617A,105.8047,32.4167,广元市,经开区,细颗粒物(PM2.5),113,119,112,85,68,0,,,,51,49,11,12,1.6,1.3
2026-01-16T0600,1345A,113.2346,23.1423,广州市,广雅中学,细颗粒物(PM2.5),92,110,135,68,77,0,,,,133,116,3,4,1.3,1.5
2026-01-16T0600,1346A,113.2611,23.105,广州市,市五中,细颗粒物(PM2.5),78,80,108,57,70,6,,,,149,123,9,10,/,/
2026-01-16T0600,1348A,113.3477,23.0916,广州市,广东商学院,细颗粒物(PM2.5),83,87,103,61,69,0,,,,122,101,7,8,0.7,0.7
2026-01-16T0600,1349A,113.4332,23.105,广州市,市八十六中,细颗粒物(PM2.5),87,102,90,64,51,0,,,,119,110,9,10,/,/
2026-01-16T0600,1350A,113.3506,22.9488,广州市,番禺中学,细颗粒物(PM2.5),70,84,108,51,64,3,,,,108,92,3,6,1.0,1
2026-01-16T0600,1351A,113.2147,23.3918,广州市,花都师范,细颗粒物(PM2.5),105,135,125,79,70,8,,,,123,117,7,8,0.9,1
2026-01-16T0600,1352A,113.2599,23.1329,广州市,市监测站,细颗粒物(PM2.5),92,114,127,68,75,1,,,,132,115,2,3,/,/
2026-01-16T0600,1353A,113.5618,23.3119,广州市,九龙镇镇龙,细颗粒物(PM2.5),77,93,98,56,54,0,,,,63,67,5,5,0.7,0.6
2026-01-16T0600,1354A,113.2764,23.1544,广州市,麓湖,细颗粒物(PM2.5),75,80,94,55,59,1,,,,122,105,9,10,0.6,0.6
2026-01-16T0600,2846A,113.3209,23.1323,广州市,体育西,细颗粒物(PM2.5),87,107,116,64,66,0,,,,128,104,6,7,0.9,1
2026-01-16T0600,3298A,113.5718,23.5493,广州市,从化街口,细颗粒物(PM2.5),69,68,76,50,52,0,,,,67,56,8,9,0.8,0.8
2026-01-16T0600,3299A,113.3463,23.369,广州市,白云竹料,细颗粒物(PM2.5),97,122,118,72,66,2,,,,90,91,4,5,0.9,0.9
2026-01-16T0600,3300A,113.2981,23.2365,广州市,白云嘉禾,细颗粒物(PM2.5),94,115,121,70,65,20,,,,87,96,5,7,/,/
2026-01-16T0600,3301A,113.4256,23.1716,广州市,黄埔科学城,细颗粒物(PM2.5),94,107,91,70,54,0,,,,80,76,5,6,0.9,0.8
2026-01-16T0600,3302A,113.3942,23.0485,广州市,番禺大学城,颗粒物(PM10),110,170,129,49,57,4,,,,110,84,12,11,0.7,0.7
2026-01-16T0600,3303A,113.4923,22.8169,广州市,南沙黄阁,细颗粒物(PM2.5),75,72,84,55,54,34,,,,79,74,7,9,/,/
2026-01-16T0600,3304A,113.534,22.7893,广州市,南沙街,细颗粒物(PM2.5),68,60,84,49,48,42,,,,46,54,3,7,0.6,0.6
2026-01-16T0600,3443A,113.2905,23.5541,广州市,花都梯面,细颗粒物(PM2.5),85,93,72,63,42,1,,,,57,56,4,6,/,/
2026-01-16T0600,3445A,113.786,23.7479,广州市,从化良口,细颗粒物(PM2.5),62,,45,44,38,36,,,,32,24,7,8,/,/
2026-01-16T0600,3446A,113.805,23.2614,广州市,增城荔城,细颗粒物(PM2.5),73,69,62,53,43,79,,,,22,33,11,7,0.5,0.6
2026-01-16T0600,2506A,109.604387,23.066791,贵港市,江南子站,细颗粒物(PM2.5),114,156,136,86,80,1,,,,64,50,15,9,1.3,1.1
2026-01-16T0600,2508A,109.5669,23.1065,贵港市,荷城子站,细颗粒物(PM2.5),98,105,102,73,65,6,,,,68,56,7,8,1.0,1.1
2026-01-16T0600,3405A,109.5886,23.1172,贵港市,新世纪学校,细颗粒物(PM2.5),97,107,95,72,59,20,,,,47,44,/,/,0.6,0.7
2026-01-16T0600,4260A,109.5933,23.095,贵港市,中山路155-3号,细颗粒物(PM2.5),104,116,105,78,68,4,,,,74,53,/,/,0.9,0.9
2026-01-16T0600,1439A,106.6863,26.6035,贵阳市,马鞍山,细颗粒物(PM2.5),67,51,79,48,69,43,,,,15,22,8,13,/,/
2026-01-16T0600,1441A,106.6241,26.6266,贵阳市,鉴湖路,细颗粒物(PM2.5),67,58,84,48,57,81,,,,13,25,8,13,0.6,0.7
2026-01-16T0600,1442A,106.7468,26.6344,贵阳市,燕子冲,细颗粒物(PM2.5),79,58,83,58,76,52,,,,16,24,8,15,0.7,0.9
2026-01-16T0600,1443A,106.6556,26.4362,贵阳市,碧云窝,细颗粒物(PM2.5),64,63,92,46,69,82,,,,12,20,7,13,/,/
2026-01-16T0600,1445A,106.6963,26.6063,贵阳市,红边门,细颗粒物(PM2.5),70,63,92,51,74,71,,,,15,29,9,17,/,/
2026-01-16T0600,1446A,106.7162383,26.56964667,贵阳市,新华路,,,,104,,75,,,77,,,33,,16,,0.9
2026-01-16T0600,1447A,106.6742,26.542,贵阳市,太慈桥,细颗粒物(PM2.5),70,58,85,51,67,60,,,,21,30,6,9,/,/
2026-01-16T0600,4230A,106.688212,26.56952,贵阳市,花果园大街66号,细颗粒物(PM2.5),88,,82,65,86,68,,,,21,32,6,13,/,/
2026-01-16T0600,4231A,106.687268,26.516892,贵阳市,漓江路57号,细颗粒物(PM2.5),67,63,92,48,74,74,,,,23,30,10,21,1.0,1.2
2026-01-16T0600,1864A,110.3091,25.2705,桂林市,龙隐路小学,细颗粒物(PM2.5),124,117,104,94,83,30,,,,31,37,17,13,1.0,1
2026-01-16T0600,1865A,110.2849361,25.22909545,桂林市,八中,细颗粒物(PM2.5),124,123,103,94,83,24,,,,52,42,14,13,0.9,0.9
2026-01-16T0600,3531A,110.296,25.1254,桂林市,旅游学院,细颗粒物(PM2.5),92,95,93,68,79,12,,,,45,39,4,7,0.4,0.5
2026-01-16T0600,4222A,110.1835,25.2444,桂林市,环湖路276号,细颗粒物(PM2.5),125,124,115,95,84,2,,,,69,46,15,16,0.9,0.7
2026-01-16T0600,4301A,110.2803,25.2773,桂林市,信义路13号,细颗粒物(PM2.5),128,131,107,97,82,17,,,,45,43,32,15,1.4,1.3
2026-01-16T0600,2674A,100.2262,34.4854,果洛藏族自治州,玛沁县大武镇,,35,35,50,3,13,36,,,,4,8,20,16,0.4,0.4
2026-01-16T0600,1130A,126.5557,45.8109,哈尔滨市,松北商大,细颗粒物(PM2.5),65,59,69,47,53,16,,,,36,33,6,8,0.8,0.8
2026-01-16T0600,1132A,126.6162,45.719,哈尔滨市,南岗学府路,细颗粒物(PM2.5),74,67,57,54,43,25,,,,28,26,8,13,1.0,0.9
2026-01-16T0600,1133A,126.6894,45.7733,哈尔滨市,太平宏伟公园,细颗粒物(PM2.5),59,55,62,42,50,30,,,,28,26,24,19,0.8,0.9
2026-01-16T0600,1134A,126.6361,45.7672,哈尔滨市,道外承德广场,细颗粒物(PM2.5),69,79,77,50,47,30,,,,34,29,19,14,0.5,0.7
2026-01-16T0600,1136A,126.644,45.7261,哈尔滨市,动力和平路,细颗粒物(PM2.5),68,67,61,49,45,16,,,,41,29,19,19,0.8,0.7
2026-01-16T0600,1137A,126.5933,45.7479,哈尔滨市,道里建国路,细颗粒物(PM2.5),70,53,57,51,53,28,,,,31,31,13,17,0.5,0.7
2026-01-16T0600,1138A,126.6127,45.6119,哈尔滨市,平房东轻厂,细颗粒物(PM2.5),74,78,72,54,60,7,,,,54,49,2,10,1.2,1.2
2026-01-16T0600,1139A,126.5875,45.9827,哈尔滨市,呼兰师专,,,79,85,72,83,17,,,,33,30,,10,0.9,1
2026-01-16T0600,1140A,126.6299,45.6799,哈尔滨市,省农科院,细颗粒物(PM2.5),80,79,59,59,45,12,,,,53,39,11,17,0.9,0.7
2026-01-16T0600,4282A,126.6769,45.7379,哈尔滨市,华山路1号,细颗粒物(PM2.5),64,58,52,46,44,14,,,,44,30,35,20,0.8,0.8
2026-01-16T0600,4283A,126.9717,45.5356,哈尔滨市,解放大街52号,细颗粒物(PM2.5),115,92,85,87,78,27,,,,30,35,14,16,1.3,1.4
2026-01-16T0600,2688A,93.5124,42.8176,哈密市,地区监测站,颗粒物(PM10),86,122,279,41,76,24,,,,27,24,1,2,0.4,0.5
2026-01-16T0600,2689A,93.5014,42.8312,哈密市,哈密师范学校,颗粒物(PM10),71,92,260,25,66,49,,,,18,34,1,2,0.3,0.8
2026-01-16T0600,2671A,100.9016,36.9464,海北藏族自治州,海晏县西海镇,,29,29,32,8,13,61,,,,1,3,7,8,0.4,0.4
2026-01-16T0600,3867A,102.074,36.5056,海东市,平安区公安局北苑,颗粒物(PM10),67,84,76,25,28,35,,,,16,28,10,21,0.7,1.1
2026-01-16T0600,4163A,102.0984,36.5119,海东市,滨河路,颗粒物(PM10),65,79,84,26,31,28,,,,32,38,12,23,0.7,1.2
2026-01-16T0600,1410A,110.3189,20.0596,海口市,海南大学,,43,43,42,24,22,100,,,,12,10,6,6,0.3,0.3
2026-01-16T0600,1411A,110.2827,20.0051,海口市,秀英海南医院,,38,35,40,26,21,80,,,,12,12,7,7,0.4,0.4
2026-01-16T0600,1412A,110.3391,19.9979,海口市,海南师范大学,,35,33,39,24,22,93,,,,10,12,5,6,0.6,0.7
2026-01-16T0600,1413A,110.3303,20.0359,海口市,龙华路环保局宿舍,,33,30,40,23,22,88,,,,11,10,/,/,0.7,0.7
2026-01-16T0600,3539A,110.5111,19.9737,海口市,桂林洋子站,,30,30,36,19,20,71,,,,10,10,/,/,/,/
2026-01-16T0600,4134A,110.1952,20.0451,海口市,长滨二路9号,,43,43,40,28,23,70,,,,13,10,/,/,/,/
2026-01-16T0600,2673A,100.6158,36.2985,海南藏族自治州,共和县恰卜恰镇,,23,23,49,7,23,43,,,,12,23,8,13,0.5,0.6
2026-01-16T0600,2676A,97.373,37.376,海西蒙古族藏族自治州,德令哈市,,37,37,54,13,13,80,,,,1,7,10,11,0.4,0.6
2026-01-16T0600,1049A,114.492,36.5712,邯郸市,矿院,细颗粒物(PM2.5),163,160,150,124,109,3,,,,65,62,2,7,1.1,1.1
2026-01-16T0600,1050A,114.4839,36.6136,邯郸市,丛台公园,细颗粒物(PM2.5),160,172,164,122,104,7,,,,58,58,2,8,1.1,1.1
2026-01-16T0600,3458A,114.7893,36.5592,邯郸市,香泉濮院小区,细颗粒物(PM2.5),155,172,173,118,104,8,,,,46,48,3,10,1.2,1.1
2026-01-16T0600,3580A,114.1998,36.4439,邯郸市,峰峰矿区临水派出所,细颗粒物(PM2.5),180,169,113,136,73,15,,,,63,30,11,13,1.1,0.9
2026-01-16T0600,4068A,114.5209,36.7697,邯郸市,建安街268号,细颗粒物(PM2.5),155,144,172,118,120,9,,,,36,58,3,10,0.8,1.1
2026-01-16T0600,4069A,114.5488,36.6177,邯郸市,丛台东路558号,细颗粒物(PM2.5),156,147,166,119,109,5,,,,43,54,1,9,1.0,1.1
2026-01-16T0600,2635A,107.0155,33.0707,汉中市,市监测站,细颗粒物(PM2.5),128,109,115,97,83,,,,,41,46,4,6,1.3,1.3
2026-01-16T0600,2636A,107.0083,33.114,汉中市,鑫源开发区,细颗粒物(PM2.5),88,76,90,65,57,4,,,,47,47,7,10,1.1,0.9
2026-01-16T0600,2637A,107.0072,33.0323,汉中市,南郑大河坎水厂,细颗粒物(PM2.5),100,96,111,75,74,8,,,,28,34,5,7,1.0,0.9
2026-01-16T0600,1223A,120.2073,30.2111,杭州市,滨江,细颗粒物(PM2.5),108,117,102,81,66,0,,,,75,74,7,8,0.9,0.8
2026-01-16T0600,1224A,120.0625,30.2737,杭州市,西溪,细颗粒物(PM2.5),55,57,63,39,39,0,,,,20,32,8,9,1.2,1
2026-01-16T0600,1226A,120.3417,30.315,杭州市,下沙,细颗粒物(PM2.5),158,176,101,120,66,0,,,,98,89,9,10,0.9,0.8
2026-01-16T0600,1227A,120.1252,30.2465,杭州市,卧龙桥,细颗粒物(PM2.5),85,90,64,63,46,0,,,,47,43,8,9,0.6,0.5
2026-01-16T0600,1228A,120.1902,30.2691,杭州市,浙江农大,细颗粒物(PM2.5),114,128,130,86,85,1,,,,74,87,7,8,1.0,1
2026-01-16T0600,1230A,120.1195,30.3121,杭州市,和睦小学,细颗粒物(PM2.5),90,109,92,67,56,1,,,,67,66,6,7,1.0,1
2026-01-16T0600,1231A,120.3076,30.4146,杭州市,临平镇,细颗粒物(PM2.5),155,158,106,118,66,2,,,,90,73,9,10,0.7,0.7
2026-01-16T0600,1232A,120.2753,30.1839,杭州市,城厢镇,细颗粒物(PM2.5),105,116,96,79,62,0,,,,89,79,8,10,1.1,1
2026-01-16T0600,1233A,120.0883,30.1808,杭州市,云栖,细颗粒物(PM2.5),93,103,91,69,51,3,,,,48,43,4,5,0.8,0.7
2026-01-16T0600,3557A,119.9463,30.0496,杭州市,镇二中,细颗粒物(PM2.5),87,70,70,64,54,2,,,,59,59,6,6,0.8,0.9
2026-01-16T0600,3558A,119.7184,30.2367,杭州市,市府大楼,细颗粒物(PM2.5),84,89,87,62,51,21,,,,28,37,11,12,0.9,0.9
2026-01-16T0600,3656A,120.1554,30.2863,杭州市,消防大队,细颗粒物(PM2.5),99,103,91,74,62,0,,,,74,70,7,8,0.9,0.9
2026-01-16T0600,1270A,117.1957,31.7845,合肥市,明珠广场,细颗粒物(PM2.5),89,105,93,66,48,7,,,,93,75,9,8,0.7,0.6
2026-01-16T0600,1271A,117.307,31.8765,合肥市,三里街,细颗粒物(PM2.5),89,107,110,66,58,31,,,,59,77,10,8,0.9,0.9
2026-01-16T0600,1272A,117.2587,31.8703,合肥市,琥珀山庄,细颗粒物(PM2.5),90,92,93,67,55,18,,,,66,67,9,9,0.9,0.9
2026-01-16T0600,1275A,117.2593,31.9376,合肥市,庐阳区,颗粒物(PM10),82,114,106,58,50,12,,,,101,71,9,8,0.8,0.7
2026-01-16T0600,1276A,117.345251,31.861615,合肥市,瑶海区,细颗粒物(PM2.5),85,105,105,63,55,44,,,,54,75,11,8,0.7,0.8
2026-01-16T0600,1277A,117.3033,31.7967,合肥市,包河区,细颗粒物(PM2.5),104,114,101,78,61,3,,,,128,92,17,14,1.1,0.9
2026-01-16T0600,1278A,117.278,31.7392,合肥市,滨湖新区,细颗粒物(PM2.5),98,102,86,73,56,39,,,,49,43,9,8,0.7,0.7
2026-01-16T0600,1279A,117.1324,31.8395,合肥市,高新区,细颗粒物(PM2.5),77,95,84,56,45,54,,,,48,48,9,7,0.8,0.6
2026-01-16T0600,3464A,117.3802,31.9148,合肥市,高教基地,细颗粒物(PM2.5),97,110,110,72,62,13,,,,68,67,11,10,0.8,0.7
2026-01-16T0600,4098A,117.2518,31.8404,合肥市,中国科学技术大学,细颗粒物(PM2.5),92,102,91,68,51,28,,,,68,64,11,10,0.9,0.8
2026-01-16T0600,3614A,79.9241,37.0878,和田地区,地区环保局,颗粒物(PM10),322,437,323,29,39,54,,,,1,21,1,4,0.3,0.3
2026-01-16T0600,3615A,79.9132,37.1137,和田地区,市环保局,颗粒物(PM10),171,292,267,24,52,38,,,,28,58,1,7,0.2,1.6
2026-01-16T0600,2517A,108.0496,24.6957,河池市,市环保站,细颗粒物(PM2.5),110,97,98,83,77,2,,,,41,36,2,3,1.0,1
2026-01-16T0600,4302A,108.0901,24.6945,河池市,上任中路54号,细颗粒物(PM2.5),125,124,110,95,83,1,,,,44,40,8,6,1.1,1
2026-01-16T0600,1697A,114.6962,23.7538,河源市,东埔,,43,34,60,30,37,2,,,,61,58,5,7,1.0,1.2
2026-01-16T0600,1698A,114.6895,23.7232,河源市,老城,,42,42,48,19,27,28,,,,36,29,6,7,0.5,0.6
2026-01-16T0600,3374A,115.5562,35.089,菏泽市,定陶老年大学,颗粒物(PM10),85,119,132,58,55,49,,,,28,27,4,4,0.4,0.4
2026-01-16T0600,4114A,115.4239,35.2593,菏泽市,黄河路600号,细颗粒物(PM2.5),85,112,142,63,55,52,,,,30,33,7,4,0.5,0.5
2026-01-16T0600,4115A,115.5025,35.2727,菏泽市,菏泽市人社局,细颗粒物(PM2.5),79,105,130,58,52,35,,,,32,18,5,5,0.2,0.2
2026-01-16T0600,4184A,115.479691,35.244011,菏泽市,永昌路1号,细颗粒物(PM2.5),83,110,137,61,57,67,,,,21,27,6,5,0.2,0.3
2026-01-16T0600,4193A,115.471542,35.280012,菏泽市,长城路999号,颗粒物(PM10),76,102,140,53,52,56,,,,26,27,13,8,0.5,0.5
2026-01-16T0600,2514A,111.5264,24.4178,贺州市,环保小区,细颗粒物(PM2.5),77,71,88,56,60,42,,,,30,38,10,10,0.8,0.8
2026-01-16T0600,2515A,111.561,24.4074,贺州市,政协大楼,细颗粒物(PM2.5),64,55,79,46,51,76,,,,11,33,22,17,0.9,1.1
2026-01-16T0600,3534A,111.4744,24.455,贺州市,西湾,细颗粒物(PM2.5),85,74,82,63,57,41,,,,29,41,8,9,0.7,0.7
2026-01-16T0600,2385A,114.17,35.9019,鹤壁市,市监测站,细颗粒物(PM2.5),195,226,108,146,57,3,,,,81,41,13,6,1.3,0.7
2026-01-16T0600,2386A,114.2953,35.7512,鹤壁市,市交警支队,细颗粒物(PM2.5),202,271,135,152,59,0,,,,84,47,12,7,1.6,0.8
2026-01-16T0600,2387A,114.2877,35.7302,鹤壁市,迎宾馆,细颗粒物(PM2.5),207,275,142,157,60,0,,,,91,57,15,6,1.7,0.9
2026-01-16T0600,3474A,114.2616,35.6824,鹤壁市,大新区,细颗粒物(PM2.5),220,278,143,170,62,2,,,,90,55,13,8,1.7,0.9
2026-01-16T0600,3596A,114.1573,35.9607,鹤壁市,南山宾馆,细颗粒物(PM2.5),188,252,128,141,52,4,,,,80,26,22,10,1.5,0.7
2026-01-16T0600,2244A,130.2537,47.3416,鹤岗市,哈啤分公司,,39,28,37,27,24,64,,,,6,12,6,7,0.5,0.5
2026-01-16T0600,2245A,130.2683,47.3087,鹤岗市,斯达机电,,28,28,30,17,23,59,,,,6,13,5,6,0.4,0.5
2026-01-16T0600,2246A,130.3114,47.3388,鹤岗市,东山纸板厂,,22,,23,15,22,63,,,,2,18,7,10,0.4,0.8
2026-01-16T0600,2263A,127.4832,50.2524,黑河市,交通局,,23,,15,16,12,61,,,,1,9,4,5,0.1,0.4
2026-01-16T0600,2264A,127.5146,50.2339,黑河市,环保局,,19,,15,11,15,59,,,,7,12,4,5,0.3,0.3
2026-01-16T0600,1074A,115.6839,37.754,衡水市,电机北厂,细颗粒物(PM2.5),112,130,214,84,112,34,,,,17,52,6,10,0.7,1
2026-01-16T0600,1075A,115.6303,37.7318,衡水市,市监测站,细颗粒物(PM2.5),105,126,198,79,111,36,,,,19,57,4,10,0.8,1.2
2026-01-16T0600,3188A,115.6684,37.7216,衡水市,市城管局,细颗粒物(PM2.5),107,129,210,80,107,40,,,,18,58,5,10,0.8,1.1
2026-01-16T0600,3459A,115.599,37.5491,衡水市,地表水厂,细颗粒物(PM2.5),113,121,190,85,113,40,,,,12,55,4,10,0.6,1
2026-01-16T0600,2457A,112.6209,26.9268,衡阳市,衡阳化工总厂,细颗粒物(PM2.5),127,106,110,96,86,0,,,,49,48,11,19,1.2,1.2
2026-01-16T0600,2458A,112.621,26.8957,衡阳市,珠晖区环保局,细颗粒物(PM2.5),152,136,114,116,95,1,,,,59,62,7,12,1.6,1.5
2026-01-16T0600,2459A,112.628,26.8654,衡阳市,市委党校,细颗粒物(PM2.5),152,127,101,116,87,1,,,,57,45,10,15,1.9,1.4
2026-01-16T0600,2460A,112.6007,26.8977,衡阳市,市监测站,细颗粒物(PM2.5),138,162,142,105,92,0,,,,46,48,9,14,2.3,1.9
2026-01-16T0600,2461A,112.5658,26.9013,衡阳市,真空机电公司,细颗粒物(PM2.5),153,162,120,117,90,2,,,,59,59,8,15,1.7,1.6
2026-01-16T0600,3399A,112.6703,26.8817,衡阳市,师范学院,细颗粒物(PM2.5),115,116,110,87,78,4,,,,42,37,4,8,1.3,1.2
2026-01-16T0600,3038A,103.3757,23.3679,红河哈尼族彝族自治州,州图书馆,,32,31,43,22,35,30,,,,11,10,6,6,0.6,0.6
2026-01-16T0600,4154A,103.401,23.3561,红河哈尼族彝族自治州,蒙自市朝阳路,,36,30,39,25,38,31,,,,13,11,6,6,0.6,0.7
2026-01-16T0600,1090A,111.6506,40.7517,呼和浩特市,呼市一监,,19,19,121,9,27,59,,,,4,22,8,9,0.3,0.5
2026-01-16T0600,1094A,111.7516,40.8369,呼和浩特市,如意水处理厂,,22,22,116,9,30,59,,,,4,29,9,12,0.2,0.5
2026-01-16T0600,1095A,111.727798,40.806187,呼和浩特市,二十九中,,,12,115,8,29,61,,,,,28,10,12,0.3,0.5
2026-01-16T0600,1097A,111.717,40.7617,呼和浩特市,化肥厂生活区,,24,24,129,8,31,61,,,,5,27,5,7,0.2,0.4
2026-01-16T0600,3699A,111.6519,40.8389,呼和浩特市,海东办,,20,12,109,8,27,63,,,,6,25,4,7,0.3,0.5
2026-01-16T0600,4275A,111.591512,40.827312,呼和浩特市,成吉思汗西街8号,,17,14,125,8,28,53,,,,5,24,5,8,0.2,0.4
2026-01-16T0600,4276A,111.6597,40.8077,呼和浩特市,公园东路75号,,18,9,116,9,31,56,,,,8,31,6,9,0.2,0.4
2026-01-16T0600,4277A,111.5427,40.7846,呼和浩特市,金海路35号,,18,18,121,6,28,51,,,,9,27,8,11,0.4,0.6
2026-01-16T0600,3061A,119.7511,49.1576,呼伦贝尔市,国华电力东,,27,27,32,13,24,42,,,,19,24,3,5,0.4,0.5
2026-01-16T0600,4279A,119.7569,49.2222,呼伦贝尔市,伊敏大街东7号,,29,25,38,20,29,47,,,,11,28,8,7,0.1,0.5
2026-01-16T0600,1250A,120.075,30.867,湖州市,城西水厂,细颗粒物(PM2.5),165,162,102,125,72,10,,,,96,68,10,10,0.8,0.7
2026-01-16T0600,2873A,120.083,30.8929,湖州市,仁皇山新区,细颗粒物(PM2.5),140,144,97,107,67,9,,,,111,69,7,10,1.0,0.8
2026-01-16T0600,2907A,120.1846,30.8592,湖州市,吴兴区站,"颗粒物(PM10),细颗粒物(PM2.5)",119,188,130,90,50,9,,,,119,106,11,10,0.4,0.8
2026-01-16T0600,3562A,120.4146,30.8538,湖州市,南浔区站,细颗粒物(PM2.5),200,212,119,150,80,28,,,,68,64,11,12,1.2,1
2026-01-16T0600,1607A,120.904878,40.721091,葫芦岛市,龙港区,,35,35,66,17,38,50,,,,14,23,14,21,0.7,0.9
2026-01-16T0600,1608A,120.8382,40.7521,葫芦岛市,化工街,,34,34,67,17,40,51,,,,11,22,21,24,0.4,0.7
2026-01-16T0600,1609A,120.8339,40.7078,葫芦岛市,新区,,22,20,57,15,37,55,,,,12,23,14,15,0.6,0.7
2026-01-16T0600,1610A,120.8697,40.7679,葫芦岛市,东城区,,31,31,55,15,38,54,,,,14,24,19,16,0.5,0.8
2026-01-16T0600,2483A,109.9297,27.5383,怀化市,河西地税局,细颗粒物(PM2.5),108,89,94,81,86,0,,,,26,24,2,3,/,/
2026-01-16T0600,2484A,109.9783,27.5342,怀化市,市四医院,细颗粒物(PM2.5),139,132,128,106,98,,,,,41,36,6,6,1.0,1
2026-01-16T0600,2485A,109.9971,27.5579,怀化市,监测楼,细颗粒物(PM2.5),138,118,121,105,106,0,,,,27,30,3,4,0.8,0.7
2026-01-16T0600,1210A,119.0566,33.5991,淮安市,钵池山,细颗粒物(PM2.5),249,234,192,199,149,51,,,,45,50,12,12,1.6,1
2026-01-16T0600,1211A,119.0083,33.578,淮安市,北京南路,细颗粒物(PM2.5),256,232,198,206,156,45,,,,44,59,13,11,1.5,1.1
2026-01-16T0600,1212A,118.9938,33.6083,淮安市,市监测站,细颗粒物(PM2.5),247,224,185,197,146,50,,,,44,49,14,13,1.7,1.2
2026-01-16T0600,1213A,119.135,33.5038,淮安市,楚州区监测站,细颗粒物(PM2.5),269,242,202,219,161,29,,,,59,60,10,11,1.5,1.2
2026-01-16T0600,3426A,118.8757,33.2897,淮安市,新华书店,细颗粒物(PM2.5),265,247,187,215,146,25,,,,62,52,10,12,1.2,1
2026-01-16T0600,4092A,119.119691,33.550006,淮安市,枚皋中路89号,细颗粒物(PM2.5),269,266,209,219,163,53,,,,45,49,14,12,1.9,1.1
2026-01-16T0600,4206A,119.028838,33.631911,淮安市,承德北路606号,细颗粒物(PM2.5),246,251,224,196,150,54,,,,43,62,14,11,1.7,1.2
2026-01-16T0600,2282A,116.8005,33.9749,淮北市,监测站,细颗粒物(PM2.5),102,138,168,76,80,58,,,,35,44,13,13,0.6,0.7
2026-01-16T0600,2283A,116.8094,33.9008,淮北市,烈山区政府,细颗粒物(PM2.5),103,135,162,77,82,59,,,,27,31,11,12,0.6,0.5
2026-01-16T0600,4017A,116.7926,33.9534,淮北市,市博物馆,细颗粒物(PM2.5),107,152,172,80,83,60,,,,35,37,9,7,0.8,0.9
2026-01-16T0600,4100A,116.8322,33.9884,淮北市,杜集区第一实验学校,细颗粒物(PM2.5),100,137,172,75,82,70,,,,21,29,12,11,0.7,0.7
2026-01-16T0600,2277A,116.8304,32.7726,淮南市,潘集区政府,细颗粒物(PM2.5),127,153,150,96,81,33,,,,41,36,15,10,1.0,0.8
2026-01-16T0600,2279A,116.8569,32.5949,淮南市,谢家集区政府,颗粒物(PM10),95,139,116,69,56,34,,,,53,34,16,12,0.7,0.7
2026-01-16T0600,2280A,116.8279,32.6333,淮南市,八公山区政府,细颗粒物(PM2.5),93,110,112,69,56,49,,,,30,21,12,8,0.7,0.6
2026-01-16T0600,2894A,117.0561,32.6536,淮南市,经济技术开发区消防队,细颗粒物(PM2.5),93,133,134,69,69,39,,,,43,42,7,8,0.7,0.7
2026-01-16T0600,3329A,117.011,32.5891,淮南市,山南新区,细颗粒物(PM2.5),92,132,150,68,64,54,,,,31,28,7,6,0.8,0.7
2026-01-16T0600,4209A,117.003137,32.644456,淮南市,国庆中路369号,细颗粒物(PM2.5),103,116,110,77,62,46,,,,30,30,15,13,0.9,0.8
2026-01-16T0600,2446A,114.9021,30.474,黄冈市,职工中心,细颗粒物(PM2.5),102,94,108,76,84,68,,,,16,32,7,10,1.1,1.1
2026-01-16T0600,2929A,114.8858,30.4519,黄冈市,红卫路,细颗粒物(PM2.5),104,92,105,78,86,63,,,,17,35,8,12,0.6,0.7
2026-01-16T0600,3398A,114.9134,30.4446,黄冈市,市林业局,细颗粒物(PM2.5),109,92,112,82,90,76,,,,24,46,4,8,0.9,1
2026-01-16T0600,2672A,102.02,35.5101,黄南藏族自治州,同仁县隆务镇,,29,29,38,3,14,56,,,,2,3,9,10,0.3,0.3
2026-01-16T0600,2295A,118.2905,29.6965,黄山市,延安路89号,,46,35,42,32,30,5,,,,23,20,3,4,0.6,0.6
2026-01-16T0600,2297A,118.1369,30.2755,黄山市,黄山区政府5号楼,,48,35,62,33,45,12,,,,8,14,3,3,0.6,0.7
2026-01-16T0600,4210A,118.335445,29.720283,黄山市,滨江东路7-2号,细颗粒物(PM2.5),55,48,63,39,41,14,,,,14,23,/,/,/,/
2026-01-16T0600,2423A,115.0547,30.2332,黄石市,沈家营,细颗粒物(PM2.5),127,134,139,96,92,30,,,,50,61,7,7,1.5,1.5
2026-01-16T0600,2426A,114.899,30.211,黄石市,铁山,,,,90,,88,,,19,,,46,,7,,0.5
2026-01-16T0600,2427A,115.0259,30.2108,黄石市,团城山,细颗粒物(PM2.5),127,122,121,96,95,50,,,,47,50,8,8,1.3,1.2
2026-01-16T0600,3149A,115.0174,30.1591,黄石市,笔架山北路,细颗粒物(PM2.5),123,154,165,93,99,83,,,,27,38,17,14,1.4,1.6
2026-01-16T0600,4185A,115.078022,30.21118,黄石市,磁湖东路29号,细颗粒物(PM2.5),140,126,143,107,109,21,,,,63,69,10,11,1.5,1.7
2026-01-16T0600,1392A,114.4181,23.0528,惠州市,河南岸金山湖子站,"颗粒物(PM10),细颗粒物(PM2.5)",63,75,67,45,38,31,,,,33,36,5,5,0.8,0.7
2026-01-16T0600,1393A,114.4055,23.0824,惠州市,下埔横江三路子站,细颗粒物(PM2.5),82,94,75,60,41,17,,,,57,44,17,8,0.8,0.8
2026-01-16T0600,1395A,114.4645,22.7832,惠州市,惠阳区承修路船湖子站,颗粒物(PM10),59,68,69,39,39,49,,,,40,41,10,9,0.6,0.7
2026-01-16T0600,1396A,114.5316,22.7423,惠州市,大亚湾管委会子站,颗粒物(PM10),63,75,66,43,36,2,,,,71,52,5,7,0.8,0.7
2026-01-16T0600,3314A,114.4334,22.8134,惠州市,惠阳秋长,颗粒物(PM10),57,63,78,39,41,55,,,,40,44,/,/,/,/
2026-01-16T0600,3452A,114.6521,22.7755,惠州市,大亚湾霞涌,,31,31,48,20,28,99,,,,19,28,/,/,/,/
2026-01-16T0600,4300A,114.4089,23.1147,惠州市,文华一路1号,细颗粒物(PM2.5),83,93,78,61,45,39,,,,44,54,/,/,/,/
2026-01-16T0600,2240A,130.9618,45.2926,鸡西市,环保局,,20,19,53,14,38,52,,,,6,22,6,12,0.2,0.5
2026-01-16T0600,2243A,130.9294,45.2959,鸡西市,第一中学,,29,,38,20,29,51,,,,8,20,4,9,0.5,0.6
2026-01-16T0600,3707A,131.0069,45.2988,鸡西市,欧美日汽修厂,,30,29,61,21,47,50,,,,15,27,8,16,0.3,0.6
2026-01-16T0600,2367A,114.9753,27.0803,吉安市,红声器材厂,细颗粒物(PM2.5),73,78,76,53,46,19,,,,52,44,12,10,0.9,0.8
2026-01-16T0600,2369A,114.9903,27.1313,吉安市,市环境监测站,细颗粒物(PM2.5),70,68,64,51,43,26,,,,47,38,15,13,/,/
2026-01-16T0600,2370A,115.009527,27.096792,吉安市,青原区法院,细颗粒物(PM2.5),79,84,77,58,47,2,,,,59,50,12,12,0.9,0.8
2026-01-16T0600,1772A,126.54,43.8622,吉林市,哈达湾,细颗粒物(PM2.5),63,62,64,45,43,36,,,,27,25,8,12,1.2,1.3
2026-01-16T0600,1773A,126.5843,43.8358,吉林市,东局子,细颗粒物(PM2.5),78,66,63,57,52,8,,,,33,31,2,7,1.2,1.3
2026-01-16T0600,1774A,126.5051,43.8243,吉林市,电力学院,细颗粒物(PM2.5),65,53,66,47,52,29,,,,28,30,9,22,0.9,1
2026-01-16T0600,1775A,126.6133,43.8971,吉林市,江北,细颗粒物(PM2.5),94,107,81,70,51,24,,,,30,21,7,15,1.2,1.1
2026-01-16T0600,1776A,126.5549,43.8304,吉林市,江南公园,细颗粒物(PM2.5),70,63,64,51,50,21,,,,34,30,6,11,0.9,1
2026-01-16T0600,2868A,126.4737,43.953,吉林市,九站,细颗粒物(PM2.5),74,61,71,54,56,13,,,,50,41,5,10,0.9,0.8
2026-01-16T0600,1299A,116.9866,36.6118,济南市,科干所,颗粒物(PM10),111,171,177,73,53,22,,,,60,26,11,12,0.7,0.6
2026-01-16T0600,1300A,116.9379,36.6652,济南市,农科所,颗粒物(PM10),133,215,204,81,64,1,,,,77,41,11,10,1.0,0.9
2026-01-16T0600,1301A,117.1265,36.6736,济南市,开发区,颗粒物(PM10),117,183,166,83,48,5,,,,77,38,8,6,0.9,0.7
2026-01-16T0600,1303A,117.0616,36.6865,济南市,省种子仓库,颗粒物(PM10),140,229,194,97,68,6,,,,68,42,11,10,1.2,1.1
2026-01-16T0600,1304A,116.9495185,36.644937,济南市,机床二厂,"颗粒物(PM10),细颗粒物(PM2.5)",125,200,203,95,89,4,,,,75,34,11,16,0.8,0.7
2026-01-16T0600,1305A,117.0496,36.6629,济南市,市监测站,颗粒物(PM10),125,200,170,93,78,12,,,,62,29,9,6,0.9,0.8
2026-01-16T0600,1306A,116.7674,36.5458,济南市,长清党校,颗粒物(PM10),112,173,210,78,78,43,,,,45,33,12,9,0.9,0.7
2026-01-16T0600,1961A,117.5323,36.6865,济南市,东山小学,颗粒物(PM10),134,217,223,98,70,27,,,,55,30,7,8,0.7,0.5
2026-01-16T0600,3059A,117.7181,36.205,济南市,泰兴公司,细颗粒物(PM2.5),128,171,246,97,130,6,,,,68,68,8,15,1.5,1.4
2026-01-16T0600,3064A,117.6861,36.2172,济南市,莱芜战役纪念馆,细颗粒物(PM2.5),150,202,234,115,124,12,,,,70,60,13,14,1.2,1.1
2026-01-16T0600,3494A,117.1673,36.9782,济南市,济阳区政府,细颗粒物(PM2.5),129,161,227,98,87,9,,,,43,58,7,14,1.0,1
2026-01-16T0600,3495A,117.1168,36.6299,济南市,锦屏中学,颗粒物(PM10),111,171,159,71,37,18,,,,64,19,7,4,0.9,0.6
2026-01-16T0600,4108A,117.7107,36.2385,济南市,山财大街5号,细颗粒物(PM2.5),132,178,236,100,104,35,,,,65,69,19,19,1.5,1.2
2026-01-16T0600,4109A,116.9744,36.6889,济南市,无影山路12号,细颗粒物(PM2.5),137,212,196,104,78,2,,,,65,35,12,12,1.1,1
2026-01-16T0600,1653A,116.6229,35.4288,济宁市,火炬城,细颗粒物(PM2.5),144,157,179,110,114,46,,,,29,39,6,7,0.8,0.8
2026-01-16T0600,3500A,116.5808,35.3703,济宁市,北湖一中,细颗粒物(PM2.5),132,151,162,100,101,45,,,,31,34,11,12,0.9,0.8
2026-01-16T0600,3501A,116.8251,35.5592,济宁市,服务中心,细颗粒物(PM2.5),125,170,208,95,109,34,,,,47,53,12,14,0.9,1.1
2026-01-16T0600,3678A,116.5907,35.4054,济宁市,市第七中学,细颗粒物(PM2.5),125,161,178,95,96,44,,,,38,42,12,13,0.9,1
2026-01-16T0600,4111A,116.6075,35.4566,济宁市,任和路,细颗粒物(PM2.5),139,195,202,106,102,48,,,,30,38,9,10,0.9,1
2026-01-16T0600,4112A,116.5648,35.3921,济宁市,文体南路1号,细颗粒物(PM2.5),128,170,188,97,92,47,,,,32,34,9,9,0.8,0.7
2026-01-16T0600,2255A,130.2749,46.8028,佳木斯市,佳纺,,38,30,80,26,57,38,,,,18,32,9,12,0.5,0.7
2026-01-16T0600,2257A,130.3258,46.7975,佳木斯市,环保局,,,18,44,16,46,45,,,,19,37,,11,0.4,0.7
2026-01-16T0600,4285A,130.363,46.806,佳木斯市,顺和街,,26,23,38,18,32,38,,,,16,29,10,13,0.4,0.6
2026-01-16T0600,4286A,130.3952,46.8268,佳木斯市,长安路196号,,25,22,41,17,32,40,,,,19,29,7,9,0.5,0.6
2026-01-16T0600,1252A,120.7439,30.778,嘉兴市,清河小学,细颗粒物(PM2.5),222,212,130,172,89,30,,,,61,66,10,10,0.8,0.9
2026-01-16T0600,1253A,120.7261,30.7477,嘉兴市,嘉兴学院,细颗粒物(PM2.5),192,221,134,144,79,32,,,,62,69,8,9,1.0,0.9
2026-01-16T0600,2872A,120.7845,30.7524,嘉兴市,南湖区残联,细颗粒物(PM2.5),204,207,128,154,84,43,,,,57,65,9,9,1.2,0.9
2026-01-16T0600,3407A,120.6915,30.7741,嘉兴市,秀洲住建,细颗粒物(PM2.5),214,205,128,164,87,25,,,,71,81,9,10,1.0,0.8
2026-01-16T0600,1945A,98.291,39.7705,嘉峪关市,气象局,颗粒物(PM10),70,90,133,27,32,34,,,,22,20,11,19,0.4,0.7
2026-01-16T0600,2884A,98.2672,39.7978,嘉峪关市,酒钢宾馆,颗粒物(PM10),76,102,159,27,33,32,,,,21,23,12,24,0.7,0.9
2026-01-16T0600,3248A,98.2644,39.7723,嘉峪关市,雄关区,颗粒物(PM10),61,72,102,19,30,16,,,,39,30,15,19,0.4,0.7
2026-01-16T0600,1383A,113.1063,22.6058,江门市,北街,细颗粒物(PM2.5),100,88,87,75,62,27,,,,48,49,/,/,/,/
2026-01-16T0600,1384A,113.073,22.5835,江门市,西区,细颗粒物(PM2.5),95,101,97,71,60,12,,,,81,60,/,/,/,/
2026-01-16T0600,1385A,113.0218,22.531,江门市,圭峰西,细颗粒物(PM2.5),88,72,78,65,57,93,,,,24,29,/,/,/,/
2026-01-16T0600,1386A,113.0826,22.5947,江门市,东湖,细颗粒物(PM2.5),85,117,97,63,52,8,,,,78,56,8,10,0.8,0.8
2026-01-16T0600,3311A,113.1077,22.5647,江门市,江海富民,细颗粒物(PM2.5),112,138,113,84,58,21,,,,75,58,/,/,0.9,0.8
2026-01-16T0600,3449A,113.0496,22.4669,江门市,新会银湖,细颗粒物(PM2.5),132,,91,100,78,19,,,,36,40,6,8,0.7,0.6
2026-01-16T0600,3335A,113.3137,35.2643,焦作市,马村街道办,颗粒物(PM10),86,122,106,56,44,10,,,,54,28,13,10,0.7,0.6
2026-01-16T0600,3336A,113.2464,35.2374,焦作市,焦作技师学院,颗粒物(PM10),101,152,108,48,38,7,,,,58,36,17,13,1.2,0.8
2026-01-16T0600,3477A,113.1656,35.2536,焦作市,中站许衡医院,颗粒物(PM10),58,66,91,39,33,51,,,,22,27,6,9,0.5,0.5
2026-01-16T0600,3981A,113.2456,35.18,焦作市,原李万街道办,颗粒物(PM10),95,139,128,58,43,3,,,,52,34,19,14,0.9,0.6
2026-01-16T0600,4264A,113.234,35.219,焦作市,新安路1731号,颗粒物(PM10),100,150,122,62,46,2,,,,60,33,15,10,1.0,0.6
2026-01-16T0600,4295A,113.2722,35.2121,焦作市,人民路3066号,颗粒物(PM10),95,140,124,62,43,1,,,,57,37,13,10,1.1,0.8
2026-01-16T0600,1708A,116.3701,23.5345,揭阳市,新兴,细颗粒物(PM2.5),94,83,85,70,56,19,,,,64,57,10,12,0.8,0.9
2026-01-16T0600,1709A,116.3261,23.5442,揭阳市,西马,细颗粒物(PM2.5),82,90,88,60,51,18,,,,55,41,6,8,0.7,0.7
2026-01-16T0600,1710A,116.361,23.5627,揭阳市,东兴,细颗粒物(PM2.5),68,81,87,49,47,1,,,,68,50,18,14,/,/
2026-01-16T0600,1711A,116.4151,23.5295,揭阳市,渔湖,细颗粒物(PM2.5),92,96,86,68,42,3,,,,69,51,4,8,/,/
2026-01-16T0600,3320A,116.4028,23.5699,揭阳市,曲溪,颗粒物(PM10),75,99,92,50,50,10,,,,69,52,12,8,0.8,1.2
2026-01-16T0600,1944A,102.1691,38.5166,金昌市,天庆家园,颗粒物(PM10),69,88,120,25,27,61,,,,18,15,20,18,0.6,0.6
2026-01-16T0600,4022A,102.1648,38.5369,金昌市,金川区人防中心,颗粒物(PM10),68,86,110,43,45,68,,,,15,15,14,12,0.7,0.8
2026-01-16T0600,4239A,102.193042,38.531887,金昌市,长春路96号,颗粒物(PM10),95,140,112,64,36,30,,,,31,11,433,60,0.7,0.6
2026-01-16T0600,1262A,119.6478,29.0773,金华市,十五中,细颗粒物(PM2.5),100,119,89,75,56,24,,,,69,64,7,5,0.8,0.8
2026-01-16T0600,1263A,119.6859,29.1032,金华市,监测站,细颗粒物(PM2.5),82,100,94,60,55,0,,,,77,71,3,5,0.6,0.6
2026-01-16T0600,3659A,119.656,29.1132,金华市,气象局,细颗粒物(PM2.5),83,103,97,61,59,4,,,,84,79,5,5,0.5,0.6
2026-01-16T0600,1767A,121.1114,41.0879,锦州市,南山,,32,32,46,14,36,58,,,,11,17,11,11,0.6,0.7
2026-01-16T0600,1768A,121.060361,40.842794,锦州市,开发区,,28,28,52,18,39,51,,,,13,20,13,10,0.4,0.8
2026-01-16T0600,1769A,121.1836,41.1118,锦州市,百股街道,,36,36,53,24,44,50,,,,15,19,15,11,0.7,0.8
2026-01-16T0600,1770A,121.1176,41.1224,锦州市,天安街道,,30,30,44,16,33,60,,,,14,17,11,12,0.6,0.8
2026-01-16T0600,1771A,121.1303,41.1385,锦州市,北湖公园,,31,31,54,13,35,54,,,,11,17,9,11,0.6,0.7
2026-01-16T0600,2160A,112.8496,35.5051,晋城市,自来水公司,颗粒物(PM10),71,92,81,44,32,2,,,,54,41,22,11,2.0,1
2026-01-16T0600,2162A,112.8509,35.4886,晋城市,市环保局,颗粒物(PM10),82,113,90,41,30,6,,,,54,45,22,9,1.9,1.1
2026-01-16T0600,3620A,112.8258,35.4804,晋城市,泽州一中,颗粒物(PM10),80,110,104,39,35,8,,,,48,30,12,6,1.7,0.8
2026-01-16T0600,4078A,112.8246,35.5152,晋城市,前书院路,颗粒物(PM10),72,94,95,24,27,3,,,,47,30,14,8,1.9,0.9
2026-01-16T0600,4079A,112.8864,35.4773,晋城市,祥云街666号,颗粒物(PM10),72,93,86,48,32,21,,,,23,20,17,8,1.5,0.8
2026-01-16T0600,2174A,112.6992,37.6984,晋中市,榆次区政府,颗粒物(PM10),89,127,170,56,65,4,,,,58,52,20,25,0.8,1.1
2026-01-16T0600,2865A,112.7195,37.683,晋中市,榆次三中,颗粒物(PM10),76,102,167,27,51,8,,,,38,49,14,21,0.7,1.1
2026-01-16T0600,4080A,112.7375,37.7215,晋中市,广安街188号,颗粒物(PM10),98,145,166,51,60,1,,,,58,54,21,25,0.9,0.9
2026-01-16T0600,4200A,112.7478,37.6954,晋中市,迎宾街26号,颗粒物(PM10),78,105,164,34,55,17,,,,31,42,16,22,0.7,1.1
2026-01-16T0600,2439A,112.2012,31.048,荆门市,竹园小学,细颗粒物(PM2.5),110,117,115,83,80,37,,,,48,32,2,4,1.3,1.4
2026-01-16T0600,2440A,112.1968,30.9892,荆门市,掇刀,细颗粒物(PM2.5),113,116,122,85,86,31,,,,40,33,6,7,0.6,0.6
2026-01-16T0600,3012A,112.1849,31.0361,荆门市,西山林语,细颗粒物(PM2.5),114,110,95,86,68,73,,,,21,25,9,8,0.6,0.6
2026-01-16T0600,3547A,112.1631,31.0134,荆门市,龙泉中学南校,细颗粒物(PM2.5),125,129,119,95,83,79,,,,10,18,8,9,0.9,0.9
2026-01-16T0600,4124A,112.2213,31.0654,荆门市,新台西路6号,细颗粒物(PM2.5),189,172,142,142,108,8,,,,63,46,10,11,2.0,1.1
2026-01-16T0600,1844A,112.2493,30.3198,荆州市,市图书馆,细颗粒物(PM2.5),135,112,111,103,106,19,,,,55,37,8,10,1.0,1.1
2026-01-16T0600,1845A,112.2009,30.3543,荆州市,市委党校,细颗粒物(PM2.5),134,132,122,102,101,5,,,,58,42,4,5,0.9,1
2026-01-16T0600,3194A,112.2749,30.3124,荆州市,管委会,细颗粒物(PM2.5),143,113,121,109,106,2,,,,72,42,7,10,1.1,1.1
2026-01-16T0600,4268A,112.1722,30.3366,荆州市,学苑路85号,细颗粒物(PM2.5),142,129,122,108,103,10,,,,43,37,8,11,1.0,1
2026-01-16T0600,2343A,117.2114,29.2931,景德镇市,老干部活动中心,细颗粒物(PM2.5),69,60,74,50,57,7,,,,28,42,7,15,0.8,1
2026-01-16T0600,2344A,117.1893,29.2789,景德镇市,兽医站,"颗粒物(PM10),细颗粒物(PM2.5)",57,63,76,40,48,24,,,,27,44,7,12,1.0,1
2026-01-16T0600,2346A,117.246,29.2958,景德镇市,陶研所,细颗粒物(PM2.5),58,63,63,41,54,0,,,,28,38,4,6,0.4,0.6
2026-01-16T0600,4289A,117.154766,29.256967,景德镇市,青少年活动中心,细颗粒物(PM2.5),68,58,85,49,52,31,,,,21,50,6,14,/,/
2026-01-16T0600,1803A,115.9873,29.6816,九江市,十里,细颗粒物(PM2.5),99,85,93,74,69,19,,,,67,66,6,8,1.1,1.2
2026-01-16T0600,1804A,115.9583,29.7047,九江市,茅山头,细颗粒物(PM2.5),102,101,90,76,61,1,,,,67,60,10,12,1.1,1.1
2026-01-16T0600,1805A,115.9877,29.7295,九江市,西园,细颗粒物(PM2.5),119,115,103,90,71,11,,,,110,91,4,6,1.2,1.3
2026-01-16T0600,1808A,115.9112,29.6038,九江市,综合工业园,细颗粒物(PM2.5),70,66,89,51,71,20,,,,58,67,3,6,0.6,0.7
2026-01-16T0600,3190A,116.0254,29.6995,九江市,外国语学校,细颗粒物(PM2.5),113,112,101,85,71,0,,,,79,69,10,9,1.3,1.1
2026-01-16T0600,4253A,116.010205,29.659402,九江市,莲花大道8号,细颗粒物(PM2.5),93,87,85,69,65,38,,,,18,21,4,6,0.7,0.7
2026-01-16T0600,4240A,98.495752,39.733935,酒泉市,玉门东路5号,颗粒物(PM10),54,58,138,28,33,39,,,,20,16,10,11,0.6,0.5
2026-01-16T0600,4241A,98.5099,39.7506,酒泉市,北大街108号,,29,29,118,18,30,60,,,,9,18,10,11,0.5,0.5
2026-01-16T0600,2698A,76.0071,39.466,喀什地区,巡警大队,颗粒物(PM10),74,98,125,46,61,34,,,,55,47,6,8,1.0,2.1
2026-01-16T0600,2699A,75.9756,39.4693,喀什地区,吾办,颗粒物(PM10),72,93,116,46,62,36,,,,53,51,9,11,1.1,2
2026-01-16T0600,4027A,75.9485,39.4688,喀什地区,老干局,颗粒物(PM10),76,102,124,27,43,54,,,,24,37,6,8,0.9,1.8
2026-01-16T0600,1824A,114.3389,34.778,开封市,肿瘤医院,颗粒物(PM10),84,118,124,57,43,21,,,,39,41,5,6,0.6,0.5
2026-01-16T0600,1826A,114.2884,34.7966,开封市,世纪星幼儿园,细颗粒物(PM2.5),88,107,117,65,53,21,,,,41,35,7,7,0.5,0.4
2026-01-16T0600,3147A,114.3434,34.8101,开封市,龙亭公园,颗粒物(PM10),81,111,114,56,41,18,,,,36,35,6,8,0.9,0.7
2026-01-16T0600,3210A,114.3645,34.7955,开封市,汴京公园,细颗粒物(PM2.5),84,113,122,62,46,26,,,,40,41,5,6,0.6,0.6
2026-01-16T0600,3473A,114.2485,34.8306,开封市,技师学院,细颗粒物(PM2.5),84,101,110,62,41,12,,,,49,29,7,6,0.8,0.6
2026-01-16T0600,3592A,114.4518,34.7503,开封市,祥符区生态环境局,颗粒物(PM10),88,126,139,50,46,9,,,,57,46,4,6,0.5,0.5
2026-01-16T0600,1951A,84.886,45.6029,克拉玛依市,长征新村,,20,19,21,12,12,61,,,,6,9,6,6,0.2,0.2
2026-01-16T0600,1952A,84.8894,45.5827,克拉玛依市,南林小区,,20,15,21,9,10,61,,,,5,9,2,3,0.5,0.4
2026-01-16T0600,1954A,84.896,44.3328,克拉玛依市,独山子区,,29,29,78,20,52,60,,,,19,26,5,6,0.3,0.6
2026-01-16T0600,1955A,85.6888,46.0909,克拉玛依市,乌尔禾区商贸楼,,19,,23,10,8,60,,,,11,14,7,7,0.4,0.4
2026-01-16T0600,3612A,85.1045,45.6895,克拉玛依市,白碱滩区新站,,28,28,33,11,13,64,,,,8,13,9,19,0.2,0.2
2026-01-16T0600,2697A,76.1457,39.7143,克孜勒苏柯尔克孜自治州,市人民政府,颗粒物(PM10),72,93,58,34,20,54,,,,14,13,4,4,0.7,0.3
2026-01-16T0600,3665A,76.1654,39.7157,克孜勒苏柯尔克孜自治州,克州文化中心,颗粒物(PM10),68,85,51,33,20,78,,,,13,13,6,6,0.6,0.6
2026-01-16T0600,1450A,102.8203,24.889,昆明市,呈贡新区,,22,22,48,13,25,34,,,,13,22,4,4,0.6,0.8
2026-01-16T0600,1452A,102.7253,25.0904,昆明市,龙泉镇,,23,23,48,11,27,68,,,,10,36,2,4,0.3,0.5
2026-01-16T0600,1453A,102.7267,25.0378,昆明市,东风东路,,35,35,51,24,34,53,,,,17,24,6,7,0.4,0.4
2026-01-16T0600,1454A,102.6744,25.0671,昆明市,金鼎山,,23,21,50,16,28,55,,,,10,20,2,5,0.6,0.7
2026-01-16T0600,1455A,102.6643,25.0401,昆明市,碧鸡广场,,25,21,42,17,30,62,,,,14,24,3,5,0.3,0.5
2026-01-16T0600,3179A,102.7491,25.012,昆明市,官渡区博物馆,,23,23,50,16,30,59,,,,19,29,6,5,0.3,0.3
2026-01-16T0600,3375A,102.8016,24.8336,昆明市,青年创业园,,24,24,40,16,29,48,,,,17,11,4,4,0.5,0.6
2026-01-16T0600,3550A,102.8,24.9787,昆明市,昆明学院,颗粒物(PM10),51,51,52,32,32,20,,,,47,28,5,4,0.5,0.4
2026-01-16T0600,3551A,102.5969,24.6738,昆明市,晋宁区生态环境分局,,35,33,40,24,27,62,,,,8,13,2,3,0.4,0.6
2026-01-16T0600,3552A,102.6673,24.9861,昆明市,云天化总部,,28,24,36,19,25,67,,,,15,18,9,8,0.4,0.3
2026-01-16T0600,1456A,91.132,29.6515,拉萨市,八廓街,,21,11,21,3,12,66,,,,7,14,7,7,0.2,0.3
2026-01-16T0600,1457A,91.1221,29.6748,拉萨市,市环保局,,17,14,21,6,15,53,,,,15,23,7,8,0.5,0.7
2026-01-16T0600,1458A,91.0874,29.6476,拉萨市,区监测站,,18,10,17,3,9,56,,,,16,23,4,4,0.7,0.8
2026-01-16T0600,1459A,91.1774,29.6541,拉萨市,西藏大学,,20,11,16,6,9,62,,,,10,14,4,5,0.6,0.5
2026-01-16T0600,1460A,90.9798,29.6586,拉萨市,区辐射站,,19,14,37,11,22,60,,,,16,31,3,5,0.4,0.7
2026-01-16T0600,1461A,91.0831,29.6292,拉萨市,拉萨火车站,,28,28,30,11,15,44,,,,25,25,4,4,1.0,0.8
2026-01-16T0600,2520A,109.2203,23.7252,来宾市,来宾技工学校,细颗粒物(PM2.5),168,136,111,127,84,16,,,,30,28,8,13,1.0,0.9
2026-01-16T0600,3535A,109.1781,23.7293,来宾市,兴宾区政府,细颗粒物(PM2.5),128,127,108,97,83,28,,,,20,21,6,8,0.9,0.8
2026-01-16T0600,4002A,109.2312,23.7428,来宾市,中南小学,细颗粒物(PM2.5),112,116,113,84,78,0,,,,48,40,5,8,0.9,1
2026-01-16T0600,1479A,103.8309,36.0467,兰州市,铁路设计院,,,,,,,,,,,,,,,,
2026-01-16T0600,3241A,103.7439,36.0841,兰州市,百合公园,颗粒物(PM10),97,143,131,37,42,15,,,,41,64,13,13,0.9,1.2
2026-01-16T0600,3242A,103.9613,35.9985,兰州市,和平,颗粒物(PM10),72,94,122,26,43,40,,,,23,32,8,15,0.9,1.1
2026-01-16T0600,4236A,103.629272,36.093822,兰州市,庄浪东路808号,颗粒物(PM10),90,129,128,44,44,28,,,,35,42,11,20,0.5,0.8
2026-01-16T0600,4237A,103.7251,36.104344,兰州市,安宁西路88号,颗粒物(PM10),101,152,148,46,43,7,,,,56,58,9,16,0.5,0.8
2026-01-16T0600,4238A,103.846982,36.067567,兰州市,北滨河东路1号,,,145,129,39,43,3,,,,,73,8,13,0.8,1.4
2026-01-16T0600,1067A,116.6712,39.5109,廊坊市,药材公司,细颗粒物(PM2.5),102,134,147,76,89,12,,,,41,50,7,5,1.2,1.1
2026-01-16T0600,1068A,116.7215,39.5592,廊坊市,开发区,细颗粒物(PM2.5),95,131,158,71,90,3,,,,53,54,4,4,1.0,0.9
2026-01-16T0600,1070A,116.7246,39.5273,廊坊市,北华航天学院,细颗粒物(PM2.5),97,140,159,72,92,4,,,,49,52,5,5,1.1,1
2026-01-16T0600,2919A,116.7022,39.5454,廊坊市,河北工业大学,细颗粒物(PM2.5),102,147,164,76,94,4,,,,47,49,5,4,1.0,0.9
2026-01-16T0600,2536A,103.7629,29.5844,乐山市,牛耳桥,细颗粒物(PM2.5),133,111,96,101,79,1,,,,30,41,4,5,0.8,0.9
2026-01-16T0600,2537A,103.7501,29.6002,乐山市,市第三水厂,细颗粒物(PM2.5),169,150,99,128,76,2,,,,42,45,6,7,1.0,0.8
2026-01-16T0600,2538A,103.7571,29.5664,乐山市,市监测站,细颗粒物(PM2.5),175,171,103,132,83,10,,,,42,37,7,7,1.0,0.9
2026-01-16T0600,3361A,103.7313,29.563,乐山市,理工大学,细颗粒物(PM2.5),149,135,110,114,90,9,,,,39,37,5,6,0.7,0.6
2026-01-16T0600,2599A,100.2497,26.8802,丽江市,丽江古城,,24,17,33,9,21,74,,,,10,16,10,10,0.3,0.5
2026-01-16T0600,2600A,100.2203,26.8906,丽江市,市中心,,25,16,25,7,13,80,,,,6,15,6,7,0.3,0.4
2026-01-16T0600,1267A,119.9141,28.4513,丽水市,监测站大楼,,39,30,52,27,36,9,,,,41,46,8,7,0.3,0.6
2026-01-16T0600,1268A,119.93,28.4589,丽水市,莲都小学,颗粒物(PM10),51,51,59,30,30,1,,,,54,50,/,/,/,/
2026-01-16T0600,1269A,119.8794,28.4232,丽水市,余庄前,,50,50,50,35,31,1,,,,24,29,4,5,0.4,0.4
2026-01-16T0600,1173A,119.1759,34.5885,连云港市,市环境监测站,细颗粒物(PM2.5),238,224,232,188,177,87,,,,21,42,17,17,1.0,1.2
2026-01-16T0600,3000A,119.3577,34.6971,连云港市,德源药业,细颗粒物(PM2.5),206,202,234,156,156,105,,,,24,55,10,10,1.3,1.4
2026-01-16T0600,3007A,119.178,34.8442,连云港市,新城一中,细颗粒物(PM2.5),244,234,233,194,185,19,,,,104,79,12,16,1.3,1.5
2026-01-16T0600,3008A,119.3607,34.7519,连云港市,胡沟管理处,细颗粒物(PM2.5),175,175,213,132,148,112,,,,24,58,14,20,1.5,1.5
2026-01-16T0600,3009A,119.1478,34.5913,连云港市,矿山设计院,细颗粒物(PM2.5),223,229,245,173,169,86,,,,26,50,14,14,1.3,1.5
2026-01-16T0600,3434A,119.2414,34.6539,连云港市,工贸学校,细颗粒物(PM2.5),206,197,233,156,178,106,,,,18,42,16,17,1.3,1.5
2026-01-16T0600,3664A,119.4171,34.734,连云港市,连云街道,细颗粒物(PM2.5),186,195,227,140,152,124,,,,22,56,8,12,0.9,1.2
2026-01-16T0600,2573A,102.2629,27.8981,凉山彝族自治州,西昌市政府,,33,33,42,20,30,45,,,,10,12,8,10,0.8,0.7
2026-01-16T0600,2574A,102.2686,27.885,凉山彝族自治州,凉山州政府,,49,40,48,34,32,37,,,,16,16,8,11,0.7,0.7
2026-01-16T0600,4229A,102.2342,27.8859,凉山彝族自治州,凯乐南路30号,,46,46,56,26,34,18,,,,38,22,6,10,0.6,0.6
2026-01-16T0600,2212A,123.1978,41.2036,辽阳市,宏伟区,细颗粒物(PM2.5),82,63,65,60,59,23,,,,32,23,8,7,1.0,1
2026-01-16T0600,2213A,123.1684,41.2497,辽阳市,新华园,细颗粒物(PM2.5),73,72,68,53,56,11,,,,55,36,15,10,0.8,0.8
2026-01-16T0600,2214A,123.2355,41.2663,辽阳市,滨河路,细颗粒物(PM2.5),83,83,75,61,56,7,,,,48,30,6,6,0.6,0.5
2026-01-16T0600,4083A,123.153,41.2874,辽阳市,铁西路150号,细颗粒物(PM2.5),69,58,60,50,55,22,,,,39,33,11,10,0.9,1
2026-01-16T0600,2227A,125.1359,42.8845,辽源市,环保局,颗粒物(PM10),119,188,102,87,47,10,,,,51,37,4,7,0.9,0.8
2026-01-16T0600,4085A,125.0998,42.9134,辽源市,安宁大街333号,细颗粒物(PM2.5),103,82,62,77,50,5,,,,45,26,4,5,1.2,0.7
2026-01-16T0600,1625A,115.9789,36.4372,聊城市,区政府,细颗粒物(PM2.5),179,249,205,135,95,8,,,,74,52,14,16,1.6,1.1
2026-01-16T0600,3200A,115.9772,36.4986,聊城市,监控中心,细颗粒物(PM2.5),195,241,212,146,106,10,,,,62,46,8,11,1.6,1.1
2026-01-16T0600,3513A,116.0443,36.436,聊城市,九州社区,细颗粒物(PM2.5),192,250,201,144,99,17,,,,50,32,6,9,1.3,0.8
2026-01-16T0600,4018A,116.0564,36.4609,聊城市,星美广场,细颗粒物(PM2.5),188,262,213,141,94,9,,,,59,39,5,8,1.5,0.9
2026-01-16T0600,4113A,116.0091,36.4495,聊城市,利民路,细颗粒物(PM2.5),203,244,187,153,98,2,,,,72,52,10,13,1.6,1.1
2026-01-16T0600,2632A,94.3683,29.6373,林芝市,林芝监测站,,16,12,10,8,8,51,,,,3,4,3,3,0.4,0.4
2026-01-16T0600,2633A,94.3616,29.6634,林芝市,林芝人民医院,,18,12,19,7,9,56,,,,6,8,1,2,0.4,0.4
2026-01-16T0600,2603A,100.0779,23.8981,临沧市,市环保局,,46,,45,32,46,22,,,,9,15,5,5,0.6,0.7
2026-01-16T0600,2604A,100.0894,23.882,临沧市,市气象局,,40,34,53,28,39,23,,,,7,16,4,6,0.4,0.6
2026-01-16T0600,1733A,111.5552,36.0791,临汾市,临钢医院,颗粒物(PM10),88,125,191,42,67,8,,,,36,38,7,8,1.1,1.2
2026-01-16T0600,1734A,111.4984,36.0734,临汾市,技工学校,颗粒物(PM10),100,149,203,58,70,0,,,,45,47,6,9,1.0,1.1
2026-01-16T0600,1736A,111.5017,36.0857,临汾市,市委,颗粒物(PM10),99,147,183,51,61,0,,,,47,46,8,11,1.1,1.3
2026-01-16T0600,3018A,111.5048,36.1015,临汾市,唐尧大酒店,,,,188,,73,,,63,,,49,,7,,1.3
2026-01-16T0600,4244A,111.4879,36.053,临汾市,启星学校,颗粒物(PM10),90,130,175,54,64,0,,,,49,57,4,9,1.3,1.4
2026-01-16T0600,4271A,103.2464,35.6123,临夏回族自治州,滨河东路1号,颗粒物(PM10),109,168,169,67,69,3,,,,28,34,7,9,1.3,1.3
2026-01-16T0600,4310A,103.207136,35.599807,临夏回族自治州,新华街21号,颗粒物(PM10),94,137,133,50,62,15,,,,24,39,10,13,1.4,1.5
2026-01-16T0600,1618A,118.3429,35.0532,临沂市,沂河小区,细颗粒物(PM2.5),314,288,266,264,203,6,,,,72,62,14,22,1.5,1.4
2026-01-16T0600,1619A,118.2962,35.0568,临沂市,鲁南制药厂,细颗粒物(PM2.5),285,283,282,235,198,11,,,,75,68,19,27,1.7,1.7
2026-01-16T0600,1620A,118.2793,34.9976,临沂市,新光毛纺厂,细颗粒物(PM2.5),283,268,268,233,194,14,,,,71,77,16,24,1.5,1.5
2026-01-16T0600,1621A,118.3955,35.0889,临沂市,河东保险公司,细颗粒物(PM2.5),263,285,268,213,179,3,,,,74,72,9,16,1.6,1.5
2026-01-16T0600,3370A,118.3563,35.0215,临沂市,十里堡居委,细颗粒物(PM2.5),245,263,271,195,175,28,,,,61,69,17,24,1.3,1.5
2026-01-16T0600,3496A,118.359,35.1067,临沂市,南坊新区,细颗粒物(PM2.5),277,288,255,227,176,13,,,,72,67,14,19,1.7,1.4
2026-01-16T0600,3860A,118.3915,35.0297,临沂市,皇山花园小区,细颗粒物(PM2.5),260,295,270,210,168,10,,,,73,69,14,21,1.8,1.6
2026-01-16T0600,1870A,109.4854,24.3898,柳州市,柳东小学,细颗粒物(PM2.5),159,142,140,121,128,17,,,,65,36,20,29,1.1,1.3
2026-01-16T0600,1871A,109.4109,24.3304,柳州市,环保监测站,细颗粒物(PM2.5),173,152,150,131,114,8,,,,53,50,18,17,1.7,1.6
2026-01-16T0600,1872A,109.3886,24.3408,柳州市,河西水厂,,,,227,,116,,,130,,,52,,19,,1.4
2026-01-16T0600,1873A,109.4263,24.2951,柳州市,市四中,细颗粒物(PM2.5),137,128,149,104,108,3,,,,62,64,10,15,1.4,1.6
2026-01-16T0600,1874A,109.396,24.3658,柳州市,市九中,细颗粒物(PM2.5),179,146,167,135,124,12,,,,43,51,16,24,1.6,1.6
2026-01-16T0600,1875A,109.4912,24.3164,柳州市,古亭山,细颗粒物(PM2.5),104,100,119,78,86,0,,,,64,59,12,18,0.9,1.3
2026-01-16T0600,3402A,109.5422,24.3994,柳州市,市二中,细颗粒物(PM2.5),159,140,131,121,108,4,,,,60,46,40,18,1.2,1.2
2026-01-16T0600,2307A,116.5078,31.7369,六安市,监测大楼,细颗粒物(PM2.5),78,70,68,57,46,57,,,,27,30,4,5,0.4,0.3
2026-01-16T0600,2308A,116.4738,31.7642,六安市,皖西学院,细颗粒物(PM2.5),83,84,77,61,43,34,,,,35,28,5,6,0.4,0.4
2026-01-16T0600,2309A,116.4997,31.7904,六安市,朝阳厂,细颗粒物(PM2.5),77,73,67,56,45,60,,,,26,30,6,7,0.5,0.5
2026-01-16T0600,2310A,116.5566,31.7885,六安市,开发区,细颗粒物(PM2.5),88,83,78,65,48,45,,,,36,38,28,7,0.5,0.4
2026-01-16T0600,2577A,104.8293,26.592,六盘水市,黄土坡,细颗粒物(PM2.5),77,75,76,56,54,21,,,,20,28,7,13,1.0,0.9
2026-01-16T0600,2579A,104.8481,26.5898,六盘水市,民中,细颗粒物(PM2.5),92,83,74,68,62,53,,,,18,28,5,10,1.1,0.9
2026-01-16T0600,2580A,104.9541,26.5506,六盘水市,双水,细颗粒物(PM2.5),74,70,74,54,57,67,,,,11,17,4,7,0.4,0.6
2026-01-16T0600,4151A,104.8899,26.5685,六盘水市,钟山大道中段564号,细颗粒物(PM2.5),84,80,95,62,62,55,,,,10,22,6,13,0.8,1
2026-01-16T0600,2336A,117.022,25.1031,龙岩市,龙岩市监测站,细颗粒物(PM2.5),58,57,48,41,35,11,,,,48,36,27,29,0.6,0.7
2026-01-16T0600,2337A,117.0257,25.0662,龙岩市,闽西职业技术学院,颗粒物(PM10),54,57,51,31,30,37,,,,27,28,15,15,0.5,0.6
2026-01-16T0600,2338A,117.0195,25.0306,龙岩市,龙岩学院,,49,46,43,34,31,44,,,,19,19,8,10,/,/
2026-01-16T0600,2885A,104.9344,33.3827,陇南市,滨江中学,颗粒物(PM10),71,91,126,35,58,16,,,,31,51,7,22,1.3,2.5
2026-01-16T0600,3247A,104.9551,33.3709,陇南市,市总工会,颗粒物(PM10),54,57,93,30,41,36,,,,16,39,10,12,0.8,1.1
2026-01-16T0600,2488A,111.9984,27.7346,娄底市,市监测站,细颗粒物(PM2.5),109,106,96,82,69,5,,,,58,48,11,10,1.1,1.2
2026-01-16T0600,2491A,111.9888,27.7035,娄底市,市政府,细颗粒物(PM2.5),109,100,102,82,76,15,,,,27,35,8,8,1.0,1.1
2026-01-16T0600,4127A,111.9812,27.7591,娄底市,涟钢职大,细颗粒物(PM2.5),82,110,91,60,57,7,,,,42,44,6,9,1.1,0.8
2026-01-16T0600,4128A,112.0303,27.7457,娄底市,娄底体校,细颗粒物(PM2.5),94,85,90,70,66,11,,,,23,27,2,4,0.6,0.7
2026-01-16T0600,1894A,105.4427,28.9063,泸州市,小市上码头,细颗粒物(PM2.5),183,180,148,138,119,3,,,,44,38,7,8,1.5,1.4
2026-01-16T0600,1895A,105.4241,28.8573,泸州市,兰田宪桥,细颗粒物(PM2.5),210,244,181,160,125,27,,,,12,22,7,8,1.0,1.3
2026-01-16T0600,1896A,105.4378,28.8833,泸州市,市环监站,细颗粒物(PM2.5),208,201,146,158,115,23,,,,26,35,9,9,1.3,1.3
2026-01-16T0600,4272A,105.3689,28.7783,泸州市,纳溪中医医院,细颗粒物(PM2.5),178,149,142,134,133,5,,,,15,24,7,8,1.2,1.3
2026-01-16T0600,2183A,111.1447,37.5212,吕梁市,环保局,颗粒物(PM10),82,114,153,30,46,1,,,,43,46,6,5,0.2,0.3
2026-01-16T0600,2185A,111.1285,37.5338,吕梁市,自来水公司,颗粒物(PM10),87,123,211,41,47,2,,,,45,39,6,8,0.6,0.7
2026-01-16T0600,2867A,111.1225,37.5093,吕梁市,马茂庄小学,颗粒物(PM10),92,134,211,30,52,0,,,,48,46,5,8,0.6,0.5
2026-01-16T0600,1812A,112.3934,34.6517,洛阳市,市委党校,细颗粒物(PM2.5),98,104,117,73,55,7,,,,46,47,12,12,0.9,0.9
2026-01-16T0600,1815A,112.494,34.6883,洛阳市,河南林校,细颗粒物(PM2.5),107,140,138,80,67,3,,,,51,52,22,15,1.2,0.9
2026-01-16T0600,1816A,112.3843,34.623,洛阳市,开发区管委会,细颗粒物(PM2.5),89,119,119,66,50,8,,,,40,38,13,13,0.9,0.8
2026-01-16T0600,1817A,112.4263,34.6249,洛阳市,市委新办公区,细颗粒物(PM2.5),92,121,117,68,54,5,,,,46,49,10,12,0.6,0.6
2026-01-16T0600,3340A,112.6005,34.6323,洛阳市,伊滨,细颗粒物(PM2.5),85,118,119,63,59,19,,,,35,45,9,9,0.6,0.6
2026-01-16T0600,3341A,112.495,34.6338,洛阳市,中移产业园,细颗粒物(PM2.5),80,96,111,59,50,6,,,,38,44,11,12,0.7,0.7
2026-01-16T0600,3593A,112.5736,34.8993,洛阳市,吉利监测站,颗粒物(PM10),58,66,127,28,42,31,,,,28,42,9,10,0.6,0.7
2026-01-16T0600,3635A,112.3678,34.6623,洛阳市,河科大西苑校区,细颗粒物(PM2.5),94,135,136,70,50,4,,,,55,51,29,14,1.3,1
2026-01-16T0600,3636A,112.4387,34.678,洛阳市,英才小学,细颗粒物(PM2.5),120,172,160,91,74,1,,,,58,62,36,18,1.6,1.1
2026-01-16T0600,4214A,112.460027,34.694929,洛阳市,春都路1号院,颗粒物(PM10),103,155,151,62,54,4,,,,48,45,20,13,1.2,1
2026-01-16T0600,2399A,114.051,33.5721,漯河市,三五一五工厂,细颗粒物(PM2.5),78,78,109,57,58,26,,,,35,32,7,7,0.5,0.5
2026-01-16T0600,2400A,114.0055,33.5698,漯河市,漯河大学,颗粒物(PM10),61,72,94,41,49,41,,,,22,21,6,6,0.5,0.6
2026-01-16T0600,2401A,114.0134,33.5826,漯河市,市水利局,"颗粒物(PM10),细颗粒物(PM2.5)",58,66,91,41,51,33,,,,27,21,7,7,0.6,0.6
2026-01-16T0600,2402A,114.0261,33.5697,漯河市,市广电局,颗粒物(PM10),64,78,90,45,45,28,,,,38,24,7,7,0.8,0.7
2026-01-16T0600,3478A,113.9691,33.568,漯河市,市图书馆,细颗粒物(PM2.5),64,76,110,46,62,42,,,,24,22,5,6,0.6,0.6
2026-01-16T0600,4250A,114.089259,33.588274,漯河市,韶山路11号,颗粒物(PM10),69,87,103,45,53,12,,,,52,27,7,8,0.6,0.7
2026-01-16T0600,1798A,118.5084,31.6838,马鞍山市,湖东路四小,细颗粒物(PM2.5),92,114,125,68,67,66,,,,36,61,16,11,0.9,0.9
2026-01-16T0600,1799A,118.5019,31.6449,马鞍山市,开发区,细颗粒物(PM2.5),127,140,134,96,88,40,,,,62,63,18,10,1.0,0.8
2026-01-16T0600,3633A,118.4914,31.681,马鞍山市,雨山,细颗粒物(PM2.5),102,109,121,76,74,68,,,,40,63,19,13,0.9,0.9
2026-01-16T0600,4191A,118.527362,31.722269,马鞍山市,慈湖高新区,细颗粒物(PM2.5),104,128,134,78,78,64,,,,42,62,15,16,0.8,1.2
2026-01-16T0600,1686A,111.0285,21.469,茂名市,电白南海,颗粒物(PM10),56,61,60,39,33,34,,,,29,22,17,14,0.7,0.9
2026-01-16T0600,1687A,110.9294,21.6533,茂名市,茂石化七小,颗粒物(PM10),53,56,70,27,33,48,,,,26,28,8,10,0.4,0.5
2026-01-16T0600,1688A,110.9108,21.6688,茂名市,健康路,,45,36,59,31,35,78,,,,19,26,10,19,0.7,1
2026-01-16T0600,1689A,110.8592,21.6826,茂名市,高岭,颗粒物(PM10),64,78,84,36,36,30,,,,28,32,35,20,/,/
2026-01-16T0600,3450A,111.0101,21.5165,茂名市,电白水东,,48,48,57,29,31,81,,,,16,18,17,14,/,/
2026-01-16T0600,2540A,103.8414,30.0871,眉山市,气象局,细颗粒物(PM2.5),113,86,103,85,84,6,,,,41,40,12,14,0.7,0.8
2026-01-16T0600,3148A,103.829,30.0563,眉山市,区人社局,细颗粒物(PM2.5),113,99,106,85,84,19,,,,39,50,11,12,0.8,1
2026-01-16T0600,4148A,103.8836,30.0695,眉山市,眉职院,细颗粒物(PM2.5),114,118,103,86,68,4,,,,30,34,1,2,0.9,0.8
2026-01-16T0600,1690A,116.1248,24.3307,梅州市,梅江月梅,颗粒物(PM10),55,60,58,34,35,12,,,,43,38,/,/,/,/
2026-01-16T0600,1691A,116.0798,24.2719,梅州市,梅县新城,,49,44,60,34,41,17,,,,36,43,7,8,0.6,0.8
2026-01-16T0600,3315A,116.1234,24.2994,梅州市,梅龙,颗粒物(PM10),56,61,60,39,34,19,,,,40,39,13,11,0.8,0.9
2026-01-16T0600,1878A,104.7775,31.4741,绵阳市,富乐山,细颗粒物(PM2.5),117,108,89,88,71,4,,,,43,28,8,8,0.7,0.6
2026-01-16T0600,1880A,104.6698,31.4668,绵阳市,高新区自来水公司,细颗粒物(PM2.5),104,116,112,78,74,1,,,,40,45,8,9,0.9,1
2026-01-16T0600,3491A,104.6899,31.5324,绵阳市,西科大附属小学,细颗粒物(PM2.5),85,104,109,63,72,29,,,,35,43,8,8,0.9,0.7
2026-01-16T0600,3492A,104.5647,31.5343,绵阳市,安州区旅游局,细颗粒物(PM2.5),94,78,93,70,73,16,,,,26,43,13,11,0.6,0.8
2026-01-16T0600,4146A,104.7092,31.4972,绵阳市,科技城新区公安局,细颗粒物(PM2.5),94,121,112,70,68,48,,,,25,38,10,10,0.9,0.8
2026-01-16T0600,4226A,104.765114,31.453094,绵阳市,绵阳市气象局,细颗粒物(PM2.5),119,118,100,90,76,3,,,,50,44,10,9,0.9,0.9
2026-01-16T0600,1784A,129.61,44.561,牡丹江市,环保大楼,,46,40,47,32,31,41,,,,25,30,12,9,0.3,0.5
2026-01-16T0600,1787A,129.6364,44.6075,牡丹江市,机车工厂,细颗粒物(PM2.5),62,59,61,44,39,6,,,,48,35,4,6,0.7,0.6
2026-01-16T0600,1788A,129.6386,44.5462,牡丹江市,第一中学,,38,27,42,26,39,37,,,,20,24,8,7,0.3,0.5
2026-01-16T0600,4287A,129.5992,44.5964,牡丹江市,东晓云街98号,细颗粒物(PM2.5),70,,67,51,58,39,,,,22,31,6,15,0.6,0.9
2026-01-16T0600,2531A,105.0703,29.61,内江市,市监测站,细颗粒物(PM2.5),189,147,131,142,131,49,,,,18,24,6,7,1.0,1.1
2026-01-16T0600,2533A,105.0657,29.5807,内江市,内江二中,细颗粒物(PM2.5),179,146,145,135,125,28,,,,36,34,5,5,1.2,1.1
2026-01-16T0600,2534A,105.0407,29.5828,内江市,内江日报社,细颗粒物(PM2.5),182,,124,137,124,62,,,,26,34,3,3,1.0,1
2026-01-16T0600,4147A,105.0433,29.6105,内江市,玉峰路西段888号,细颗粒物(PM2.5),195,,124,146,126,45,,,,24,35,2,2,1.0,1.1
2026-01-16T0600,2628A,92.0653,31.4846,那曲市,那曲监测站,,22,22,47,10,28,22,,,,22,24,5,8,1.2,1.3
2026-01-16T0600,4243A,92.0515,31.4787,那曲市,那曲市委宣传部,,23,23,28,14,14,32,,,,16,13,5,6,1.4,0.9
2026-01-16T0600,1291A,115.8887,28.7006,南昌市,省林业公司,细颗粒物(PM2.5),89,100,98,66,66,0,,,,85,68,7,8,1.5,1.3
2026-01-16T0600,1292A,115.813,28.7443,南昌市,林科所,细颗粒物(PM2.5),77,66,73,56,51,108,,,,18,45,10,11,0.4,0.4
2026-01-16T0600,1294A,115.8518,28.687,南昌市,建工学校,细颗粒物(PM2.5),93,114,113,69,75,7,,,,107,74,17,17,1.1,1.2
2026-01-16T0600,1295A,115.8926,28.6425,南昌市,象湖,细颗粒物(PM2.5),113,116,118,85,82,1,,,,94,75,12,12,1.0,1.1
2026-01-16T0600,3046A,115.9084,28.6062,南昌市,机电学校,细颗粒物(PM2.5),140,156,140,107,93,4,,,,98,72,7,10,1.2,1
2026-01-16T0600,3690A,115.9718,28.7032,南昌市,外国语学校,细颗粒物(PM2.5),124,104,106,94,77,18,,,,81,68,15,16,0.8,0.9
2026-01-16T0600,4106A,115.7923,28.6873,南昌市,工业二路,细颗粒物(PM2.5),77,71,86,56,66,7,,,,81,65,5,8,2.1,1.7
2026-01-16T0600,4192A,115.931587,28.686774,南昌市,南京东路235号,细颗粒物(PM2.5),123,116,116,93,85,6,,,,101,71,8,9,1.2,1.1
2026-01-16T0600,1906A,106.0791,30.8022,南充市,南充市委,细颗粒物(PM2.5),143,124,142,109,122,23,,,,28,54,4,4,0.9,1.2
2026-01-16T0600,1907A,106.1038,30.8215,南充市,南充炼油厂,细颗粒物(PM2.5),150,132,137,115,119,38,,,,20,30,6,6,1.0,1.1
2026-01-16T0600,4227A,106.108336,30.788436,南充市,梨树横街98号,细颗粒物(PM2.5),137,124,135,104,111,35,,,,26,40,6,6,0.8,0.9
2026-01-16T0600,4304A,106.1172,30.843,南充市,清泉寺北路188号,细颗粒物(PM2.5),128,110,109,97,111,45,,,,12,19,6,6,0.7,0.7
2026-01-16T0600,4305A,106.067,30.7616,南充市,同庆路1号,细颗粒物(PM2.5),153,,133,117,117,21,,,,36,51,6,6,1.0,1.3
2026-01-16T0600,1151A,118.8033,32.1085,南京市,迈皋桥,细颗粒物(PM2.5),122,124,104,92,62,31,,,,56,60,8,7,0.9,0.8
2026-01-16T0600,1152A,118.7487,32.057,南京市,草场门,细颗粒物(PM2.5),125,146,122,95,66,20,,,,79,61,13,11,1.0,0.8
2026-01-16T0600,1154A,118.770105,32.004342,南京市,中华门,细颗粒物(PM2.5),128,141,113,97,67,19,,,,62,61,8,7,0.9,0.7
2026-01-16T0600,1155A,118.8059,32.0329,南京市,瑞金路,细颗粒物(PM2.5),125,132,119,95,71,,,,,76,72,4,4,1.2,1.3
2026-01-16T0600,1156A,118.7946,32.0774,南京市,玄武湖,细颗粒物(PM2.5),124,138,106,94,62,37,,,,26,22,4,4,1.1,1
2026-01-16T0600,1157A,118.6415,32.0964,南京市,浦口,细颗粒物(PM2.5),128,147,123,97,65,39,,,,53,50,15,11,1.2,0.9
2026-01-16T0600,1158A,118.730129,32.000956,南京市,奥体中心,细颗粒物(PM2.5),140,148,125,107,77,14,,,,97,77,12,11,1.1,0.9
2026-01-16T0600,1159A,118.9072,32.1047,南京市,仙林大学城,细颗粒物(PM2.5),138,168,124,105,67,14,,,,94,62,14,12,1.4,1.1
2026-01-16T0600,3422A,118.8443,31.919,南京市,江宁彩虹桥,细颗粒物(PM2.5),132,156,113,100,69,9,,,,84,64,9,7,1.1,0.8
2026-01-16T0600,3427A,118.8497,32.3599,南京市,六合雄州,细颗粒物(PM2.5),152,178,138,116,95,7,,,,97,56,11,9,1.2,0.9
2026-01-16T0600,4086A,118.7641,32.0841,南京市,新模范马路66号,细颗粒物(PM2.5),139,146,122,106,68,52,,,,34,50,4,4,1.3,1.1
2026-01-16T0600,4249A,118.8707617,31.34017673,南京市,汶溪路181号,细颗粒物(PM2.5),103,98,84,77,69,40,,,,51,42,13,12,1.2,1.1
2026-01-16T0600,4312A,119.019,31.6512,南京市,中山西路1号,细颗粒物(PM2.5),120,117,96,91,74,28,,,,53,49,6,5,0.9,1
2026-01-16T0600,1401A,108.3098,22.788,南宁市,二十一中,细颗粒物(PM2.5),80,72,90,59,66,17,,,,39,42,4,6,0.9,0.8
2026-01-16T0600,1402A,108.3135,22.8529,南宁市,北湖,细颗粒物(PM2.5),97,104,110,72,78,0,,,,67,68,5,5,1.0,1
2026-01-16T0600,1403A,108.3205,22.8222,南宁市,市监测站,细颗粒物(PM2.5),83,62,89,61,63,53,,,,23,52,7,11,0.9,0.9
2026-01-16T0600,1404A,108.3828,22.8038,南宁市,大自然花园,细颗粒物(PM2.5),74,73,82,54,58,51,,,,21,34,7,8,1.0,0.9
2026-01-16T0600,1406A,108.2397,22.8462,南宁市,区农职院,细颗粒物(PM2.5),87,89,87,64,59,4,,,,56,50,13,15,1.1,1
2026-01-16T0600,1407A,108.3285,22.7356,南宁市,英华嘉园,细颗粒物(PM2.5),83,78,102,61,67,16,,,,40,57,4,4,1.0,1
2026-01-16T0600,3401A,108.4829,22.762,南宁市,红星社区,细颗粒物(PM2.5),60,65,82,43,59,69,,,,14,35,7,5,0.8,0.8
2026-01-16T0600,4132A,108.2927,23.1477,南宁市,起凤路9号,细颗粒物(PM2.5),104,92,103,78,77,2,,,,48,39,2,4,0.8,0.8
2026-01-16T0600,4221A,108.2177,22.7774,南宁市,乐贤路16号,细颗粒物(PM2.5),82,78,110,60,65,24,,,,46,61,2,4,1.0,0.9
2026-01-16T0600,2332A,118.1682,26.6371,南平市,南平市监测站,细颗粒物(PM2.5),54,53,47,38,32,14,,,,29,28,7,8,0.2,0.5
2026-01-16T0600,2334A,118.1757,26.6276,南平市,南平七中,细颗粒物(PM2.5),54,,39,38,29,14,,,,26,27,6,9,0.7,0.7
2026-01-16T0600,1168A,120.9056,31.9669,南通市,狼山街道,细颗粒物(PM2.5),235,209,170,185,137,21,,,,48,72,2,7,0.9,0.9
2026-01-16T0600,1170A,120.8635,32.0231,南通市,城中,细颗粒物(PM2.5),225,218,188,175,134,60,,,,37,75,4,9,1.1,1.1
2026-01-16T0600,1171A,120.9376,31.9301,南通市,星湖花园,细颗粒物(PM2.5),231,217,176,181,133,58,,,,37,73,5,11,0.9,1
2026-01-16T0600,1172A,120.8053,32.046,南通市,紫琅学院,细颗粒物(PM2.5),219,213,188,169,132,66,,,,41,63,5,8,0.9,0.9
2026-01-16T0600,3291A,121.0631,32.0644,南通市,通州监测站,细颗粒物(PM2.5),153,132,173,117,137,51,,,,30,57,3,8,1.2,1.2
2026-01-16T0600,3432A,120.9348,31.9874,南通市,环境教育馆,细颗粒物(PM2.5),231,205,173,181,140,3,,,,66,80,5,9,1.1,1.1
2026-01-16T0600,4091A,120.8692,31.9885,南通市,洪江路,细颗粒物(PM2.5),244,195,168,194,146,46,,,,37,73,3,8,1.1,1.2
2026-01-16T0600,2404A,112.5338,33.0086,南阳市,瓦房庄,细颗粒物(PM2.5),139,121,105,106,70,34,,,,30,32,10,8,1.0,1
2026-01-16T0600,2405A,112.5002,32.9734,南阳市,汉画馆,细颗粒物(PM2.5),117,116,101,88,60,36,,,,33,34,7,7,0.8,0.8
2026-01-16T0600,2406A,112.5778,33.0144,南阳市,气象站,细颗粒物(PM2.5),125,140,119,95,62,22,,,,48,31,10,7,0.9,0.9
2026-01-16T0600,2407A,112.548,32.9687,南阳市,理工学院,细颗粒物(PM2.5),112,116,100,84,54,28,,,,39,30,8,8,0.8,0.8
2026-01-16T0600,4008A,112.5233,32.9921,南阳市,卧龙区政府,细颗粒物(PM2.5),122,148,108,92,60,24,,,,49,38,8,7,2.0,0.8
2026-01-16T0600,1234A,121.8352,29.9111,宁波市,区环保大楼,细颗粒物(PM2.5),75,74,88,55,45,41,,,,52,80,6,8,0.9,0.8
2026-01-16T0600,1235A,121.5595,29.8208,宁波市,万里学院,细颗粒物(PM2.5),104,114,97,78,69,1,,,,78,69,5,7,0.7,0.7
2026-01-16T0600,1236A,121.713,29.9564,宁波市,龙赛医院,细颗粒物(PM2.5),89,94,94,66,62,16,,,,69,80,8,7,1.0,0.9
2026-01-16T0600,1240A,121.5855,29.8635,宁波市,太古小学,细颗粒物(PM2.5),102,115,91,76,59,1,,,,72,68,4,6,0.7,0.7
2026-01-16T0600,1241A,121.5239,29.8673,宁波市,市环境监测中心,细颗粒物(PM2.5),89,89,81,66,57,1,,,,83,67,7,9,0.8,0.8
2026-01-16T0600,2871A,121.6156,29.9015,宁波市,万里国际学校,细颗粒物(PM2.5),99,111,86,74,64,2,,,,84,81,5,6,0.7,0.7
2026-01-16T0600,3710A,121.5593,29.8976,宁波市,白沙活动中心,细颗粒物(PM2.5),102,106,77,76,55,0,,,,84,74,4,5,1.1,1
2026-01-16T0600,4095A,121.8962,29.7529,宁波市,中科路88号,细颗粒物(PM2.5),97,90,62,72,44,11,,,,83,54,6,8,0.6,0.4
2026-01-16T0600,2341A,119.5387,26.6611,宁德市,宁德市监测站,,22,16,34,15,19,39,,,,26,29,3,3,0.5,0.6
2026-01-16T0600,3209A,119.5231,26.6562,宁德市,宁德一中,,25,25,30,10,19,49,,,,13,20,6,6,0.4,0.4
2026-01-16T0600,2618A,98.859,25.8541,怒江傈僳族自治州,州监测站,,23,21,33,16,24,52,,,,7,12,5,6,0.3,0.4
2026-01-16T0600,2619A,98.8607,25.8168,怒江傈僳族自治州,泸水一中,,18,12,29,12,20,27,,,,12,18,6,6,0.3,0.5
2026-01-16T0600,1888A,101.6891,26.571,攀枝花市,弄弄坪,,46,46,60,32,36,16,,,,28,36,14,23,1.4,1.7
2026-01-16T0600,1889A,101.577,26.5914,攀枝花市,河门口,颗粒物(PM10),58,65,54,36,34,10,,,,32,25,11,18,1.0,1
2026-01-16T0600,1891A,101.7365,26.4986,攀枝花市,仁和,,34,34,45,20,27,26,,,,16,21,7,12,0.6,1
2026-01-16T0600,2835A,101.7222,26.567,攀枝花市,四十中小,颗粒物(PM10),55,60,65,37,41,3,,,,43,42,19,20,2.3,1.7
2026-01-16T0600,1604A,122.0303,41.1489,盘锦市,开发区,,33,33,55,23,42,56,,,,8,12,2,4,0.8,1
2026-01-16T0600,1605A,122.0486,41.0883,盘锦市,兴隆台,,33,33,52,21,38,49,,,,16,23,5,6,0.5,0.7
2026-01-16T0600,1606A,121.8297,41.1026,盘锦市,新生街道,,35,35,53,17,36,54,,,,11,18,5,6,0.5,0.7
2026-01-16T0600,1832A,113.3257,33.7423,平顶山市,新华旅馆,细颗粒物(PM2.5),103,131,104,77,53,36,,,,60,37,8,6,0.4,0.5
2026-01-16T0600,1833A,113.2917,33.737,平顶山市,规划设计院,细颗粒物(PM2.5),98,121,109,73,57,44,,,,26,26,7,7,0.6,0.6
2026-01-16T0600,1834A,113.182,33.7738,平顶山市,平顶山工学院,细颗粒物(PM2.5),89,105,87,66,48,58,,,,24,23,10,9,0.5,0.4
2026-01-16T0600,3594A,112.8736,33.9068,平顶山市,石龙区,颗粒物(PM10),76,101,100,42,46,32,,,,36,21,7,8,0.4,0.4
2026-01-16T0600,4116A,113.284,33.7139,平顶山市,姚电大道23号,细颗粒物(PM2.5),109,146,112,82,56,84,,,,24,28,13,8,0.5,0.5
2026-01-16T0600,2656A,106.6633,35.5338,平凉市,聚贤嘉苑,颗粒物(PM10),64,78,95,23,27,53,,,,12,22,11,14,0.4,0.4
2026-01-16T0600,2657A,106.7021,35.5307,平凉市,博物馆,颗粒物(PM10),71,91,102,29,31,50,,,,16,27,12,13,0.7,0.7
2026-01-16T0600,2348A,113.8384,27.6436,萍乡市,中医院,细颗粒物(PM2.5),104,117,133,78,81,65,,,,34,56,24,18,1.3,2
2026-01-16T0600,2350A,113.8677,27.6438,萍乡市,市环保局,细颗粒物(PM2.5),99,87,107,74,79,65,,,,34,50,37,27,1.0,1.5
2026-01-16T0600,2351A,113.8663,27.6202,萍乡市,安源区政府,细颗粒物(PM2.5),125,112,123,95,104,72,,,,27,44,25,18,1.0,1.6
2026-01-16T0600,4107A,113.8686,27.6668,萍乡市,联洪村委会,细颗粒物(PM2.5),99,102,109,74,80,72,,,,22,46,6,6,0.9,1.4
2026-01-16T0600,2319A,119.0142,25.4324,莆田市,荔城区仓后路,细颗粒物(PM2.5),59,56,54,42,30,30,,,,34,25,/,/,/,/
2026-01-16T0600,2320A,119.0016,25.4553,莆田市,莆田市监测站,,33,30,40,23,22,59,,,,8,16,2,3,0.6,0.6
2026-01-16T0600,2321A,119.112,25.4561,莆田市,涵江区六中,,41,41,46,25,23,38,,,,31,25,/,/,0.7,0.6
2026-01-16T0600,2322A,119.1014,25.3215,莆田市,秀屿区政府,细颗粒物(PM2.5),52,46,58,36,40,40,,,,31,21,5,4,0.8,0.7
2026-01-16T0600,2392A,115.0312,35.7636,濮阳市,环保局,细颗粒物(PM2.5),159,233,126,121,47,4,,,,81,33,8,8,1.1,0.4
2026-01-16T0600,3021A,115,35.7667,濮阳市,濮水河管理处,颗粒物(PM10),143,236,135,93,40,9,,,,78,32,7,8,1.4,0.7
2026-01-16T0600,4118A,115.0552,35.7816,濮阳市,中原东路68号,细颗粒物(PM2.5),175,245,137,132,47,3,,,,80,34,6,6,1.0,0.3
2026-01-16T0600,4216A,115.0923632,35.76857718,濮阳市,任丘路479号,细颗粒物(PM2.5),182,237,134,137,52,1,,,,82,37,6,7,1.2,0.5
2026-01-16T0600,2601A,100.9801,22.7634,普洱市,市环保局,,50,50,56,3,15,20,,,,5,14,4,5,0.4,0.4
2026-01-16T0600,2602A,100.9763,22.8237,普洱市,普洱第二中学,,37,37,54,23,34,8,,,,19,21,5,5,0.3,0.4
2026-01-16T0600,3345A,131.0413,45.7795,七台河市,中波台,,42,39,52,29,35,36,,,,22,24,8,14,0.6,0.6
2026-01-16T0600,3637A,131.0136,45.7688,七台河市,人民广场,细颗粒物(PM2.5),57,48,52,40,38,38,,,,27,31,7,11,0.7,0.7
2026-01-16T0600,3684A,130.8639,45.8144,七台河市,新建矿广场,细颗粒物(PM2.5),53,44,46,37,32,39,,,,16,19,5,7,0.3,0.5
2026-01-16T0600,1779A,123.9307,47.3641,齐齐哈尔市,安居小区,细颗粒物(PM2.5),88,66,48,65,38,24,,,,30,24,11,8,0.8,0.6
2026-01-16T0600,1780A,123.9497,47.3389,齐齐哈尔市,中心广场,细颗粒物(PM2.5),73,65,48,53,36,28,,,,25,25,10,9,1.1,1
2026-01-16T0600,1781A,123.9483,47.3229,齐齐哈尔市,农牧车辆厂,细颗粒物(PM2.5),64,70,46,46,27,24,,,,27,20,10,8,0.8,0.6
2026-01-16T0600,1783A,123.9442,47.2994,齐齐哈尔市,市环境监测站,细颗粒物(PM2.5),88,84,58,65,40,15,,,,34,31,11,8,1.1,0.9
2026-01-16T0600,3662A,123.6341,47.2079,齐齐哈尔市,富区青少年活动中心,细颗粒物(PM2.5),67,55,58,48,47,33,,,,19,23,16,9,0.9,0.8
2026-01-16T0600,2591A,107.9765,26.5724,黔东南苗族侗族自治州,市环境监测站,细颗粒物(PM2.5),115,100,110,87,99,19,,,,19,39,6,7,0.9,1.1
2026-01-16T0600,2881A,107.8909,26.531,黔东南苗族侗族自治州,凯里学院,细颗粒物(PM2.5),100,92,86,75,68,45,,,,16,24,3,3,0.8,0.8
2026-01-16T0600,2593A,107.5223,26.2371,黔南布依族苗族自治州,小围寨,细颗粒物(PM2.5),73,58,60,53,54,75,,,,7,8,6,6,0.9,0.9
2026-01-16T0600,3538A,107.5175,26.2977,黔南布依族苗族自治州,沙坝,细颗粒物(PM2.5),67,68,69,48,54,66,,,,11,15,5,6,0.9,1
2026-01-16T0600,2589A,104.9022,25.0943,黔西南布依族苗族自治州,场坝街,细颗粒物(PM2.5),69,59,69,50,59,18,,,,13,16,4,6,0.8,0.7
2026-01-16T0600,2590A,104.8812,25.0994,黔西南布依族苗族自治州,坪东大道,细颗粒物(PM2.5),75,,67,55,59,14,,,,20,21,5,7,0.8,0.8
2026-01-16T0600,2502A,108.6238,21.9667,钦州市,市环保站,,49,44,86,34,44,54,,,,20,35,2,6,0.5,0.7
2026-01-16T0600,2503A,108.655,21.9481,钦州市,沙埠小学,,32,,79,22,55,48,,,,15,41,3,7,0.6,0.6
2026-01-16T0600,2504A,108.5989,21.7435,钦州市,港区一小,细颗粒物(PM2.5),52,45,78,36,42,72,,,,26,37,4,7,0.7,0.8
2026-01-16T0600,3404A,108.5959,21.9634,钦州市,北职校,细颗粒物(PM2.5),64,,80,46,55,47,,,,24,33,7,10,0.8,0.9
2026-01-16T0600,1046A,119.5247,39.9346,秦皇岛市,建设大厦,细颗粒物(PM2.5),69,53,95,50,64,43,,,,13,27,9,11,0.5,0.9
2026-01-16T0600,3132A,119.5979,39.938,秦皇岛市,文明里,颗粒物(PM10),55,60,101,29,51,43,,,,24,36,15,15,0.3,0.6
2026-01-16T0600,4066A,119.7458,39.9952,秦皇岛市,南园路157号,颗粒物(PM10),51,52,106,34,61,45,,,,18,33,12,13,0.5,0.8
2026-01-16T0600,4067A,119.5131,39.8858,秦皇岛市,翠岛大街1号,颗粒物(PM10),56,62,101,33,57,38,,,,16,23,14,16,0.5,0.9
2026-01-16T0600,4198A,119.509013,39.825305,秦皇岛市,北戴河轮滑馆,细颗粒物(PM2.5),54,52,93,38,58,55,,,,11,27,8,12,0.4,0.8
2026-01-16T0600,1310A,120.404,36.0625,青岛市,市南区东部子站,颗粒物(PM10),109,168,216,56,106,72,,,,12,59,9,15,0.7,1.1
2026-01-16T0600,1311A,120.362344,36.10282,青岛市,四方区子站,颗粒物(PM10),109,168,196,78,100,75,,,,5,33,1,9,0.9,1.1
2026-01-16T0600,1312A,120.294373,36.054183,青岛市,市南区西部子站,颗粒物(PM10),109,168,209,68,111,74,,,,28,69,9,14,1.3,1.6
2026-01-16T0600,1313A,120.4581,36.0858,青岛市,崂山区子站,颗粒物(PM10),103,156,190,48,85,64,,,,20,44,9,14,0.6,0.8
2026-01-16T0600,1315A,120.3945,36.3083,青岛市,城阳区子站,颗粒物(PM10),109,168,205,56,69,82,,,,22,52,8,12,1.0,1.2
2026-01-16T0600,3642A,120.3454,36.0735,青岛市,市北区南部,颗粒物(PM10),116,182,210,61,99,70,,,,12,44,1,7,1.0,1.2
2026-01-16T0600,3643A,120.3897,36.18,青岛市,李沧区北部,颗粒物(PM10),107,163,190,75,95,70,,,,24,47,9,14,1.0,1.2
2026-01-16T0600,4110A,120.5222,36.4089,青岛市,盟旺路653号,颗粒物(PM10),117,184,197,66,80,81,,,,32,44,4,8,2.0,1
2026-01-16T0600,4290A,120.196923,35.954556,青岛市,珠江路669号,细颗粒物(PM2.5),125,161,197,95,116,77,,,,17,46,9,13,1.0,1.3
2026-01-16T0600,4291A,120.0424,35.8656,青岛市,黄岛区人民政府广场,"颗粒物(PM10),细颗粒物(PM2.5)",113,175,206,85,109,61,,,,29,54,7,12,1.2,1.4
2026-01-16T0600,1703A,113.0218,23.7086,清远市,凤城街办,细颗粒物(PM2.5),75,76,84,55,56,54,,,,37,52,/,/,/,/
2026-01-16T0600,3025A,113.0479,23.6343,清远市,技师学院,"颗粒物(PM10),细颗粒物(PM2.5)",65,80,89,47,49,1,,,,73,70,12,11,0.6,0.7
2026-01-16T0600,3318A,112.9898,23.7403,清远市,清新太和,细颗粒物(PM2.5),72,77,73,52,45,65,,,,33,39,4,5,0.6,0.7
2026-01-16T0600,3455A,113.076,23.72,清远市,清城东城,细颗粒物(PM2.5),64,67,73,46,46,48,,,,33,44,/,/,/,/
2026-01-16T0600,2661A,107.6325,35.7357,庆阳市,庆阳五中,颗粒物(PM10),66,81,101,25,36,66,,,,8,16,6,8,0.3,0.5
2026-01-16T0600,2662A,107.6361,35.7067,庆阳市,市环保局,颗粒物(PM10),71,91,98,24,34,67,,,,10,13,8,8,0.4,0.4
2026-01-16T0600,1916A,103.7897,25.5036,曲靖市,环境监测站,,29,29,61,18,33,64,,,,12,16,7,7,0.4,0.6
2026-01-16T0600,1917A,103.8013,25.5357,曲靖市,烟厂办公区,,36,34,65,25,33,61,,,,15,17,5,6,0.3,0.5
2026-01-16T0600,3376A,103.7926,25.4651,曲靖市,南苑二区,,23,20,54,14,33,71,,,,6,12,4,5,0.3,0.5
2026-01-16T0600,3377A,103.7442,25.5259,曲靖市,曲靖师范学院,,28,28,55,18,34,57,,,,13,16,4,5,0.5,0.5
2026-01-16T0600,1264A,118.8694,28.94,衢州市,环保大楼,细颗粒物(PM2.5),87,91,79,64,52,2,,,,72,63,/,/,/,/
2026-01-16T0600,1266A,118.8622,28.9809,衢州市,衢州学院,细颗粒物(PM2.5),80,79,60,59,38,1,,,,72,58,6,7,0.7,0.6
2026-01-16T0600,4097A,118.9646,28.9832,衢州市,衢州三中,细颗粒物(PM2.5),85,94,84,63,51,0,,,,68,62,6,9,0.9,1
2026-01-16T0600,1611A,118.5818,24.9116,泉州市,涂山街,细颗粒物(PM2.5),74,73,69,54,38,35,,,,33,35,4,3,0.7,0.7
2026-01-16T0600,1612A,118.597,24.8976,泉州市,津头埔,细颗粒物(PM2.5),78,74,67,57,39,38,,,,33,36,5,5,0.7,0.7
2026-01-16T0600,1613A,118.6669,24.9422,泉州市,万安,细颗粒物(PM2.5),64,73,70,46,33,21,,,,43,33,3,3,0.7,0.6
2026-01-16T0600,4105A,118.6355,24.9148,泉州市,霞新路6号,细颗粒物(PM2.5),70,76,62,51,36,34,,,,31,41,/,/,0.7,0.6
2026-01-16T0600,2626A,88.8873,29.2723,日喀则市,日喀则监测站,,24,24,36,13,23,30,,,,15,20,15,20,0.5,0.7
2026-01-16T0600,3726A,88.8775,29.2425,日喀则市,林业技术推广中心,,22,22,28,13,15,34,,,,12,9,10,11,0.6,0.5
2026-01-16T0600,1659A,119.4711,35.421,日照市,监测站,细颗粒物(PM2.5),173,200,224,131,110,1,,,,68,66,9,14,1.8,1.3
2026-01-16T0600,1660A,119.523,35.4216,日照市,市政府广场,细颗粒物(PM2.5),211,232,221,161,110,22,,,,68,51,13,14,1.3,0.9
2026-01-16T0600,1661A,119.5511,35.4113,日照市,港务局,细颗粒物(PM2.5),222,246,238,172,135,33,,,,51,58,8,12,1.3,1.1
2026-01-16T0600,3507A,119.5326,35.4627,日照市,职业技术学院,细颗粒物(PM2.5),203,237,224,153,101,47,,,,50,53,9,11,1.8,1.3
2026-01-16T0600,3604A,119.3267,35.1043,日照市,岚山环保分局,细颗粒物(PM2.5),215,222,239,165,143,80,,,,42,59,15,19,1.4,1.5
2026-01-16T0600,1835A,111.1922,34.7752,三门峡市,市政府,颗粒物(PM10),74,98,103,49,42,0,,,,52,45,16,14,1.0,1
2026-01-16T0600,1836A,111.1588,34.794,三门峡市,开发区,颗粒物(PM10),93,135,122,65,42,3,,,,57,38,12,9,1.0,0.6
2026-01-16T0600,3039A,111.1911,34.7829,三门峡市,三门峡市第一小学,颗粒物(PM10),85,120,130,52,42,1,,,,55,42,13,11,1.0,0.8
2026-01-16T0600,3598A,111.1031,34.719,三门峡市,富达温泉假日酒店,颗粒物(PM10),110,170,125,73,50,4,,,,66,49,17,15,1.0,0.9
2026-01-16T0600,2324A,117.621,26.2626,三明市,三钢,细颗粒物(PM2.5),59,,50,42,38,13,,,,36,39,5,11,0.8,1.2
2026-01-16T0600,2325A,117.6352,26.2714,三明市,三明二中,,46,34,48,32,37,15,,,,33,36,2,9,0.7,1.3
2026-01-16T0600,2326A,117.6028,26.2377,三明市,三元区政府,细颗粒物(PM2.5),59,,54,42,38,10,,,,36,39,5,11,1.0,1
2026-01-16T0600,1877A,109.4962,18.2682,三亚市,河西子站,,29,29,38,16,16,56,,,,10,18,3,3,0.3,0.3
2026-01-16T0600,3540A,109.7348,18.3443,三亚市,君悦子站,,20,20,38,12,16,20,,,,16,14,5,5,0.4,0.4
2026-01-16T0600,4135A,109.1714,18.3739,三亚市,城东小学站,,22,22,37,15,20,31,,,,9,11,/,/,/,/
2026-01-16T0600,2624A,91.7592,29.234,山南市,山南监测站,,15,12,21,6,14,46,,,,5,11,4,5,0.3,0.5
2026-01-16T0600,2625A,91.7701,29.2436,山南市,山南人民医院,,17,17,21,8,10,40,,,,10,12,7,8,0.4,0.4
2026-01-16T0600,1674A,116.6795,23.3666,汕头市,金平子站,细颗粒物(PM2.5),95,92,56,71,42,10,,,,73,40,16,8,1.0,0.8
2026-01-16T0600,1675A,116.7248,23.3632,汕头市,龙湖子站,细颗粒物(PM2.5),75,89,62,55,37,21,,,,55,34,20,14,/,/
2026-01-16T0600,1676A,116.7257,23.2774,汕头市,濠江子站,细颗粒物(PM2.5),79,77,48,58,36,13,,,,59,30,13,9,/,/
2026-01-16T0600,1677A,116.7518,23.4712,汕头市,澄海子站,细颗粒物(PM2.5),58,49,66,41,46,52,,,,23,35,9,12,0.7,0.8
2026-01-16T0600,1678A,116.6088,23.2539,汕头市,潮阳子站,细颗粒物(PM2.5),69,66,46,50,28,37,,,,34,22,13,8,1.1,0.8
2026-01-16T0600,3444A,116.4539,23.2684,汕头市,潮南峡山,细颗粒物(PM2.5),112,115,66,84,45,22,,,,37,28,12,10,1.5,0.8
2026-01-16T0600,3624A,116.4069,23.2533,汕头市,潮南子站,"颗粒物(PM10),细颗粒物(PM2.5)",64,78,68,46,39,19,,,,38,28,10,9,/,/
2026-01-16T0600,1693A,115.3653,22.7751,汕尾市,市环保局,细颗粒物(PM2.5),80,,53,59,45,70,,,,19,22,7,7,0.8,0.8
2026-01-16T0600,1695A,115.362,22.7926,汕尾市,新城中学,,47,47,53,31,39,63,,,,17,23,5,5,0.5,0.6
2026-01-16T0600,2645A,109.9155,33.8714,商洛市,监测站,颗粒物(PM10),54,57,103,22,41,23,,,,25,35,4,9,0.7,0.7
2026-01-16T0600,3045A,109.9647,33.8486,商洛市,商州区中学,,48,48,91,27,35,8,,,,37,37,6,10,0.6,0.6
2026-01-16T0600,2408A,115.6701,34.4283,商丘市,环境监测站,细颗粒物(PM2.5),108,107,120,81,67,64,,,,22,23,4,4,0.5,0.5
2026-01-16T0600,2409A,115.6458,34.4047,商丘市,粮食局,细颗粒物(PM2.5),92,109,118,68,62,60,,,,20,20,5,4,0.6,0.6
2026-01-16T0600,3171A,115.6069,34.4465,商丘市,梁园区档案局,细颗粒物(PM2.5),103,121,120,77,64,62,,,,18,24,7,6,0.5,0.4
2026-01-16T0600,4119A,115.6701,34.3767,商丘市,北海东路185号,细颗粒物(PM2.5),108,141,130,81,62,43,,,,31,31,4,4,0.6,0.6
2026-01-16T0600,4120A,115.6172,34.3704,商丘市,中山大街3号,颗粒物(PM10),99,148,136,68,67,50,,,,28,30,7,6,0.3,0.3
2026-01-16T0600,1141A,121.401,31.2382,上海市,普陀,细颗粒物(PM2.5),208,177,137,158,106,84,,,,46,74,10,10,1.0,1.1
2026-01-16T0600,1142A,121.4774,31.2043,上海市,十五厂,细颗粒物(PM2.5),221,208,143,171,104,22,,,,87,74,9,11,1.2,1.2
2026-01-16T0600,1143A,121.4673,31.3011,上海市,虹口,细颗粒物(PM2.5),202,189,158,152,107,42,,,,64,77,8,11,1.0,1
2026-01-16T0600,1147A,121.4253,31.226,上海市,静安监测站,细颗粒物(PM2.5),206,184,141,156,96,68,,,,59,68,10,11,1.0,1
2026-01-16T0600,1148A,121.7029,31.1905,上海市,浦东川沙,细颗粒物(PM2.5),134,,154,102,95,1,,,,75,78,7,10,0.9,0.8
2026-01-16T0600,1149A,121.5339,31.229,上海市,浦东新区监测站,细颗粒物(PM2.5),226,201,145,176,112,37,,,,79,76,10,11,1.2,1.1
2026-01-16T0600,1150A,121.5776,31.2038,上海市,浦东张江,细颗粒物(PM2.5),212,201,148,162,106,3,,,,101,76,8,11,0.9,0.8
2026-01-16T0600,3265A,121.4242,31.3303,上海市,宝山庙行,细颗粒物(PM2.5),200,187,152,150,109,52,,,,58,81,8,11,0.8,0.8
2026-01-16T0600,3266A,121.8789,31.4662,上海市,崇明上实东滩,颗粒物(PM10),80,110,136,54,97,45,,,,26,46,3,7,0.6,0.7
2026-01-16T0600,3268A,121.316,31.2839,上海市,嘉定南翔,细颗粒物(PM2.5),200,171,139,150,102,6,,,,105,86,6,7,1.0,0.9
2026-01-16T0600,3269A,121.3357,30.7455,上海市,金山新城,细颗粒物(PM2.5),224,,112,174,97,26,,,,64,60,10,14,1.0,0.8
2026-01-16T0600,3270A,121.4996,31.0741,上海市,闵行浦江,细颗粒物(PM2.5),225,211,146,175,99,12,,,,72,70,8,10,0.9,0.8
2026-01-16T0600,3271A,121.2886,31.1663,上海市,青浦徐泾,细颗粒物(PM2.5),218,210,145,168,98,28,,,,86,84,7,8,1.1,1
2026-01-16T0600,3272A,121.2193,31.0382,上海市,松江图书馆,细颗粒物(PM2.5),242,229,149,192,108,1,,,,107,81,8,10,1.0,0.9
2026-01-16T0600,3273A,121.3904,31.206,上海市,长宁仙霞,细颗粒物(PM2.5),200,177,129,150,93,57,,,,58,71,8,10,0.6,0.6
2026-01-16T0600,3274A,121.7964,31.0507,上海市,浦东惠南,细颗粒物(PM2.5),175,,150,132,106,0,,,,69,78,4,8,1.0,1
2026-01-16T0600,3544A,121.4891,30.925,上海市,奉贤南桥新城,细颗粒物(PM2.5),241,216,140,191,103,9,,,,94,74,5,6,1.0,0.7
2026-01-16T0600,4183A,121.417401,31.16637,上海市,冠生园路458号,细颗粒物(PM2.5),210,186,132,160,102,31,,,,57,73,4,6,0.9,0.9
2026-01-16T0600,4205A,121.541914,31.268301,上海市,宁武路151号,细颗粒物(PM2.5),226,211,173,176,116,0,,,,106,94,5,8,1.3,1.3
2026-01-16T0600,2382A,117.9758,28.4439,上饶市,市监测站,颗粒物(PM10),66,81,61,41,31,21,,,,69,40,47,28,/,/
2026-01-16T0600,2383A,117.9521,28.4637,上饶市,凤凰光学,颗粒物(PM10),59,68,78,35,38,10,,,,60,54,33,27,0.8,0.9
2026-01-16T0600,3685A,117.897,28.4316,上饶市,双创科技城,细颗粒物(PM2.5),65,70,74,47,45,50,,,,44,59,20,22,0.9,0.9
2026-01-16T0600,4211A,118.190438,28.444845,上饶市,裕丰大道,颗粒物(PM10),53,56,72,31,36,41,,,,24,33,12,13,0.8,0.8
2026-01-16T0600,1669A,113.5821,24.7733,韶关市,市八中,细颗粒物(PM2.5),99,110,100,74,61,2,,,,60,58,16,14,0.9,0.9
2026-01-16T0600,1671A,113.5916,24.7973,韶关市,园林处,细颗粒物(PM2.5),87,73,70,64,61,0,,,,58,55,8,11,/,/
2026-01-16T0600,1673A,113.5971,24.6864,韶关市,曲江监测站,细颗粒物(PM2.5),64,66,74,46,55,28,,,,34,38,10,15,0.8,0.9
2026-01-16T0600,2809A,113.6668,24.7756,韶关市,大学路288号,细颗粒物(PM2.5),77,65,72,56,56,3,,,,31,22,6,16,/,/
2026-01-16T0600,3622A,113.5556,24.8082,韶关市,碧湖山庄,细颗粒物(PM2.5),80,95,96,59,58,28,,,,27,34,6,9,0.6,0.7
2026-01-16T0600,2464A,111.5277,27.2442,邵阳市,市化工厂,细颗粒物(PM2.5),143,144,116,109,82,20,,,,47,49,8,12,1.1,0.9
2026-01-16T0600,2466A,111.4327,27.2276,邵阳市,市环保局,细颗粒物(PM2.5),142,114,95,108,83,17,,,,39,34,5,9,1.8,1.6
2026-01-16T0600,4218A,111.446,27.2472,邵阳市,北塔二期4-26地块,细颗粒物(PM2.5),155,,121,118,108,5,,,,32,44,9,11,1.4,1.7
2026-01-16T0600,4219A,111.4739,27.2282,邵阳市,邵水西路287号,细颗粒物(PM2.5),124,95,111,94,90,17,,,,29,44,11,13,1.3,1.4
2026-01-16T0600,1247A,120.6053,29.9927,绍兴市,城东开发委,细颗粒物(PM2.5),72,64,69,52,49,21,,,,34,35,7,9,0.5,0.6
2026-01-16T0600,2921A,120.5482,30.0003,绍兴市,树下王站,细颗粒物(PM2.5),75,77,75,55,52,0,,,,58,53,6,7,0.7,0.7
