timepoint,stationcode,longitude,latitude,area,positionname,primarypollutant,aqi,pm10,pm10_24h,pm2_5,pm2_5_24h,o3,o3_24h,o3_8h,o3_8h_24h,no2,no2_24h,so2,so2_24h,co,co_24h
2023-07-23T02:00:00,1001A,116.3621,39.8784,北京市,万寿西宫,,33,26,26,23,23,97,30,31,30,23,16,3,3,0.5,0.6
2023-07-23T02:00:00,1002A,116.2202,40.2915,北京市,定陵,,29,29,29,20,23,79,10,14,12,4,6,3,3,0.6,0.6
2023-07-23T02:00:00,1003A,116.4174,39.9289,北京市,东四,,45,40,28,31,24,94,17,12,12,32,16,1,2,1.0,0.8
2023-07-23T02:00:00,1004A,116.4072,39.8863,北京市,天坛,,32,27,26,22,21,90,9,6,6,9,13,3,3,0.6,0.7
2023-07-23T02:00:00,1005A,116.462,39.9365,北京市,农展馆,,43,43,30,26,22,94,8,7,7,50,20,3,3,0.9,0.6
2023-07-23T02:00:00,1006A,116.3392,39.9295,北京市,官园,,38,29,27,26,24,97,19,15,15,23,13,1,2,0.7,0.6
2023-07-23T02:00:00,1007A,116.2878,39.9611,北京市,海淀万柳,,35,35,28,23,22,98,29,26,26,25,18,1,3,0.6,0.6
2023-07-23T02:00:00,1008A,116.6636,40.135,北京市,顺义新城,,40,40,30,26,21,79,3,9,6,36,12,3,3,0.5,0.5
2023-07-23T02:00:00,1009A,116.6275,40.3275,北京市,怀柔镇,,30,30,29,18,22,75,14,17,16,16,9,3,3,0.7,0.8
2023-07-23T02:00:00,1010A,116.2296,40.217,北京市,昌平镇,,35,31,33,24,28,86,12,24,18,11,12,1,3,0.5,0.6
2023-07-23T02:00:00,1011A,116.3966,39.9821,北京市,奥体中心,,35,32,25,24,22,92,3,12,8,60,25,3,3,0.7,0.6
2023-07-23T02:00:00,1012A,116.184,39.9136,北京市,古城,,35,35,32,24,26,91,24,26,25,19,15,3,3,0.6,0.6
2023-07-23T02:00:00,1015A,117.1444,39.1661,天津市,勤俭道,,28,26,17,19,14,90,59,59,59,19,11,6,5,0.6,0.7
2023-07-23T02:00:00,1017A,117.237,39.1082,天津市,大直沽八号路,,40,34,19,28,17,75,62,61,61,17,11,3,2,0.5,0.6
2023-07-23T02:00:00,1018A,117.202,39.0927,天津市,前进道,,40,34,18,28,15,79,57,56,56,21,14,4,4,0.6,0.7
2023-07-23T02:00:00,1019A,117.1837,39.2133,天津市,淮河道,,32,32,19,21,14,88,51,50,50,30,15,5,5,0.7,0.8
2023-07-23T02:00:00,1021A,117.307,39.0877,天津市,跃进路,细颗粒物(PM2.5),55,50,21,39,17,78,56,56,56,19,13,6,6,0.7,0.7
2023-07-23T02:00:00,1023A,117.707,39.0343,天津市,第四大街,,34,34,15,17,7,77,38,43,40,28,15,4,4,0.9,0.9
2023-07-23T02:00:00,1024A,117.457,38.8394,天津市,永明路,,34,34,16,22,10,88,51,49,49,26,13,4,4,0.6,0.6
2023-07-23T02:00:00,1026A,117.764,39.1587,天津市,汉北路,,42,42,17,29,13,92,35,34,34,27,12,4,4,0.6,0.6
2023-07-23T02:00:00,1027A,117.157,38.9194,天津市,团泊洼,,41,41,20,26,16,77,52,46,46,25,16,3,2,0.5,0.6
2023-07-23T02:00:00,1029A,114.4422,38.0444,石家庄市,职工医院,,44,44,29,24,22,157,74,74,74,14,9,2,2,0.6,0.5
2023-07-23T02:00:00,1030A,114.6063,38.0266,石家庄市,高新区,,43,43,31,20,22,132,66,77,72,25,12,3,2,0.5,0.4
2023-07-23T02:00:00,1031A,114.4898,38.1328,石家庄市,西北水源,,36,29,27,25,28,137,30,47,38,37,14,1,2,0.5,0.5
2023-07-23T02:00:00,1032A,114.4586,38.0058,石家庄市,西南高教,,30,30,23,17,14,153,52,56,54,26,8,3,3,0.6,0.6
2023-07-23T02:00:00,1033A,114.5331,38.0178,石家庄市,世纪公园,,47,47,26,13,9,142,48,48,48,37,14,4,2,0.5,0.4
2023-07-23T02:00:00,1034A,114.509,38.0457,石家庄市,人民会堂,,35,35,29,17,16,146,80,100,90,16,11,2,2,0.5,0.4
2023-07-23T02:00:00,1035A,114.3524,37.8911,石家庄市,封龙山,,42,42,25,25,18,160,120,114,114,7,8,5,5,0.8,0.8
2023-07-23T02:00:00,1037A,118.131,39.6363,唐山市,雷达站,,40,40,30,18,10,96,30,52,41,32,17,1,2,0.4,0.5
2023-07-23T02:00:00,1038A,118.1725,39.6334,唐山市,物资局,,30,25,22,21,15,93,53,58,56,9,10,2,3,0.4,0.5
2023-07-23T02:00:00,1040A,118.1705,39.6506,唐山市,十二中,,26,26,19,13,23,96,54,57,56,8,8,3,2,0.4,0.5
2023-07-23T02:00:00,1041A,118.1869,39.622,唐山市,小山,,22,22,14,12,8,91,54,61,58,6,8,3,3,0.5,0.6
2023-07-23T02:00:00,1042A,119.5134,39.8207,秦皇岛市,北戴河环保局,,15,11,7,5,5,90,46,53,50,16,7,3,3,0.5,0.4
2023-07-23T02:00:00,1043A,119.7493,40.0116,秦皇岛市,第一关,,23,11,7,3,10,81,19,22,20,46,20,2,2,0.3,0.3
2023-07-23T02:00:00,1044A,119.5897,39.9499,秦皇岛市,监测站,,34,30,15,4,3,87,6,5,5,67,23,6,5,0.3,0.2
2023-07-23T02:00:00,1046A,119.5251,39.9041,秦皇岛市,建设大厦,,17,17,16,8,8,89,54,59,56,23,19,5,4,0.4,0.3
2023-07-23T02:00:00,1048A,114.5302,36.6116,邯郸市,东污水处理厂,细颗粒物(PM2.5),62,49,44,44,33,182,58,82,70,22,9,2,3,0.6,0.7
2023-07-23T02:00:00,1049A,114.4918,36.5713,邯郸市,矿院,细颗粒物(PM2.5),73,48,42,53,36,182,51,64,58,22,10,4,4,0.7,0.7
2023-07-23T02:00:00,1050A,114.484,36.6133,邯郸市,丛台公园,颗粒物(PM10),55,59,44,38,31,179,72,74,73,11,8,4,4,0.7,0.8
2023-07-23T02:00:00,1051A,115.493,38.8632,保定市,游泳馆,,34,34,18,15,15,112,32,24,24,24,7,7,7,0.3,0.3
2023-07-23T02:00:00,1052A,115.5213,38.8959,保定市,华电二区,,28,28,22,11,11,124,60,46,46,20,7,5,4,0.2,0.3
2023-07-23T02:00:00,1053A,115.4713,38.9108,保定市,接待中心,,36,36,25,18,15,109,32,49,40,40,6,3,3,0.5,0.5
2023-07-23T02:00:00,1054A,115.4612,38.8416,保定市,地表水厂,颗粒物(PM10),53,55,32,21,17,114,31,24,24,44,13,8,8,0.6,0.5
2023-07-23T02:00:00,1056A,115.5086,38.8639,保定市,监测站,,38,38,24,17,18,130,56,50,50,26,12,6,6,0.4,0.5
2023-07-23T02:00:00,1057A,114.8883,40.8336,张家口市,人民公园,,15,14,20,2,9,124,47,47,47,4,7,3,2,0.2,0.3
2023-07-23T02:00:00,1059A,114.8687,40.8042,张家口市,五金库,,16,13,21,11,15,123,50,64,57,13,12,3,3,0.4,0.5
2023-07-23T02:00:00,1060A,114.8902,40.762,张家口市,世纪豪园,,23,23,29,14,22,123,58,62,60,13,15,4,4,0.2,0.3
2023-07-23T02:00:00,1061A,114.8916,40.8661,张家口市,北泵房,,,,,,,,,,,,,,,,
2023-07-23T02:00:00,1062A,117.9531,40.9081,承德市,铁路,,25,25,24,14,12,78,8,20,14,24,27,8,8,0.5,0.4
2023-07-23T02:00:00,1063A,117.9392,40.9763,承德市,中国银行,,27,27,20,6,12,93,17,28,22,17,14,6,6,0.4,0.4
2023-07-23T02:00:00,1064A,117.9503,40.928,承德市,开发区,,24,24,21,12,12,89,16,16,16,18,14,8,6,0.6,0.4
2023-07-23T02:00:00,1065A,117.8051,40.9655,承德市,文化中心,,32,32,23,12,11,80,21,23,22,15,15,7,8,0.3,0.3
2023-07-23T02:00:00,1066A,117.9268,41.0026,承德市,离宫,,43,43,24,16,14,67,1,3,2,11,9,4,4,0.4,0.3
2023-07-23T02:00:00,1067A,116.6708,39.5111,廊坊市,药材公司,,25,25,32,17,21,108,39,49,44,22,14,1,2,0.4,0.4
2023-07-23T02:00:00,1068A,116.7214,39.5589,廊坊市,开发区,,26,18,26,18,22,101,35,32,32,24,10,1,2,0.5,0.5
2023-07-23T02:00:00,1070A,116.7244,39.5269,廊坊市,北华航天学院,,32,32,32,18,24,108,63,68,66,15,12,4,4,0.4,0.5
2023-07-23T02:00:00,1071A,116.8842,38.2991,沧州市,沧县城建局,,24,22,16,14,12,100,75,66,66,17,14,3,4,0.3,0.4
2023-07-23T02:00:00,1072A,116.8584,38.3254,沧州市,电视转播站,,22,18,19,9,9,93,68,62,62,16,12,8,6,0.3,0.4
2023-07-23T02:00:00,1073A,116.8709,38.3228,沧州市,市环保局,,28,28,22,15,16,98,75,70,70,22,18,3,5,0.1,0.2
2023-07-23T02:00:00,1074A,115.6838,37.7541,衡水市,电机北厂,颗粒物(PM10),54,58,48,31,33,112,63,60,60,13,7,3,3,0.6,0.6
2023-07-23T02:00:00,1075A,115.6303,37.7316,衡水市,市监测站,颗粒物(PM10),51,51,47,32,33,110,50,50,50,24,10,5,5,0.7,0.7
2023-07-23T02:00:00,1077A,114.4704,37.0886,邢台市,达活泉,颗粒物(PM10),68,85,42,48,21,163,88,93,90,10,12,11,9,1.3,0.8
2023-07-23T02:00:00,1078A,114.5062,37.0349,邢台市,邢师高专,细颗粒物(PM2.5),79,77,37,58,24,184,52,55,54,28,12,6,4,1.3,0.5
2023-07-23T02:00:00,1079A,114.5237,37.0851,邢台市,路桥公司,细颗粒物(PM2.5),70,73,35,51,22,172,48,42,42,40,11,3,8,1.0,0.6
2023-07-23T02:00:00,1080A,114.4725,37.0719,邢台市,市环保局,细颗粒物(PM2.5),77,82,40,56,25,189,74,84,79,26,13,7,5,1.3,0.6
2023-07-23T02:00:00,1081A,112.522,37.8873,太原市,尖草坪,,50,50,40,24,19,193,57,66,62,37,22,8,8,0.6,0.6
2023-07-23T02:00:00,1083A,112.434,38.0108,太原市,上兰,,41,41,31,24,16,159,92,97,94,8,8,4,7,0.5,0.5
2023-07-23T02:00:00,1084A,112.469,37.7124,太原市,晋源,,36,36,38,17,21,183,93,99,96,22,19,11,8,0.7,0.7
2023-07-23T02:00:00,1085A,112.5583,37.7394,太原市,小店,,48,48,43,22,21,187,66,60,60,37,28,12,10,0.8,0.8
2023-07-23T02:00:00,1086A,112.5369,37.8692,太原市,桃园,,44,44,36,24,19,197,49,54,52,45,24,8,7,0.7,0.7
2023-07-23T02:00:00,1087A,112.57,37.8195,太原市,坞城,,33,33,37,15,16,197,76,91,84,31,20,7,8,0.7,0.8
2023-07-23T02:00:00,1088A,112.549,37.9854,太原市,南寨,,48,48,44,24,17,174,6,15,10,61,25,4,4,0.6,0.5
2023-07-23T02:00:00,1090A,111.6507,40.7517,呼和浩特市,呼市一监,,27,27,24,15,13,127,25,39,32,26,16,5,6,0.5,0.5
2023-07-23T02:00:00,1091A,111.6572,40.8033,呼和浩特市,小召,,31,31,23,12,10,128,57,78,68,34,20,11,8,0.7,0.6
2023-07-23T02:00:00,1094A,111.7516,40.8369,呼和浩特市,如意水处理厂,,34,34,21,14,9,133,27,63,45,46,17,8,8,0.5,0.5
2023-07-23T02:00:00,1095A,111.7276,40.8062,呼和浩特市,二十九中,,26,25,25,18,14,130,48,52,50,36,20,7,7,0.6,0.5
2023-07-23T02:00:00,1096A,111.5512,40.7866,呼和浩特市,工大金川校区,,38,38,38,18,14,120,55,63,59,24,21,6,7,0.5,0.5
2023-07-23T02:00:00,1097A,111.717,40.7612,呼和浩特市,化肥厂生活区,,33,33,31,10,12,123,33,57,45,30,20,5,5,0.6,0.6
2023-07-23T02:00:00,1098A,123.6836,41.9339,沈阳市,森林路,,,,,,,,,,,,,,,,
2023-07-23T02:00:00,1099A,123.505,41.7406,沈阳市,浑南东路,,20,19,39,14,26,86,40,48,44,20,24,3,4,1.1,0.9
2023-07-23T02:00:00,1100A,123.4231,41.6989,沈阳市,新秀街,,22,19,33,15,23,89,42,44,43,16,26,4,5,1.1,0.7
2023-07-23T02:00:00,1102A,123.5903,41.8411,沈阳市,东陵路,,16,13,43,11,28,82,41,52,46,12,15,4,6,0.8,0.9
2023-07-23T02:00:00,1103A,123.4264,41.8467,沈阳市,陵东街,,22,22,37,15,25,100,46,51,48,12,20,5,6,1.1,0.9
2023-07-23T02:00:00,1104A,123.4114,41.7653,沈阳市,文化路,,22,22,38,14,24,112,48,55,52,14,20,6,8,1.1,0.8
2023-07-23T02:00:00,1105A,123.4678,41.7867,沈阳市,小河沿,,25,25,37,15,22,90,43,49,46,14,18,5,6,1.2,0.9
2023-07-23T02:00:00,1106A,123.4017,41.7972,沈阳市,太原街,,29,21,38,20,27,121,49,57,53,11,18,4,4,1.1,0.8
2023-07-23T02:00:00,1108A,123.3783,41.9228,沈阳市,京沈街,,25,0,41,17,27,105,60,64,62,7,19,8,8,0.8,0.7
2023-07-23T02:00:00,1109A,121.612,38.9741,大连市,甘井子,,25,16,12,13,4,95,78,78,78,14,14,4,3,0.6,0.5
2023-07-23T02:00:00,1110A,121.565,38.9511,大连市,周水子,,,11,17,13,7,95,79,77,77,7,12,,4,0.5,0.4
2023-07-23T02:00:00,1111A,121.5637,38.8845,大连市,星海三站,,24,11,15,8,7,96,76,80,78,10,8,3,3,0.5,0.4
2023-07-23T02:00:00,1112A,121.6302,38.9117,大连市,青泥洼桥,,26,14,10,10,7,94,83,81,81,5,10,4,4,0.8,0.7
2023-07-23T02:00:00,1113A,121.6251,38.8638,大连市,傅家庄,,24,13,23,4,7,95,76,83,80,10,7,6,6,0.4,0.4
2023-07-23T02:00:00,1114A,121.5213,38.8661,大连市,七贤岭,,29,10,14,9,6,105,92,93,92,4,5,5,5,0.3,0.2
2023-07-23T02:00:00,1115A,121.2529,38.8061,大连市,旅顺,,22,18,19,6,4,97,70,70,70,18,17,3,4,0.4,0.3
2023-07-23T02:00:00,1116A,121.7485,39.1311,大连市,金州,,23,12,12,8,6,104,73,79,76,11,8,8,8,0.7,0.5
2023-07-23T02:00:00,1117A,121.7811,39.0496,大连市,开发区,,23,15,19,7,8,106,73,82,78,13,12,4,5,0.7,0.5
2023-07-23T02:00:00,1118A,121.9762,39.0631,大连市,双D港,,17,12,19,4,8,113,53,74,64,15,9,6,6,0.4,0.3
2023-07-23T02:00:00,1119A,125.3325,43.9166,长春市,食品厂,,19,19,40,9,18,86,52,44,44,8,28,4,5,0.5,0.6
2023-07-23T02:00:00,1120A,125.2863,43.9027,长春市,客车厂,,21,21,37,8,18,88,57,49,49,5,26,4,5,0.5,0.6
2023-07-23T02:00:00,1121A,125.2841,43.8463,长春市,邮电学院,,21,21,40,13,20,110,64,52,52,4,17,4,4,0.4,0.6
2023-07-23T02:00:00,1122A,125.3716,43.8772,长春市,劳动公园,,20,18,33,14,15,87,54,45,45,7,23,5,5,0.4,0.5
2023-07-23T02:00:00,1123A,125.3297,43.8805,长春市,园林处,,19,19,35,8,20,100,58,50,50,6,25,3,4,0.5,0.6
2023-07-23T02:00:00,1124A,125.4605,43.79,长春市,净月潭,,19,19,29,10,16,104,60,50,50,4,9,3,3,0.4,0.5
2023-07-23T02:00:00,1125A,125.7194,43.515,长春市,甩湾子,,25,18,36,17,21,119,66,64,64,7,8,3,4,0.6,0.7
2023-07-23T02:00:00,1126A,125.3863,43.8447,长春市,经开区环卫处,,29,29,40,13,19,104,55,46,46,6,23,5,6,0.4,0.5
2023-07-23T02:00:00,1127A,125.245,43.7783,长春市,高新区管委会,,21,16,40,13,22,111,65,55,55,4,20,4,4,0.4,0.6
2023-07-23T02:00:00,1128A,125.1761,43.8325,长春市,岱山公园,,21,19,40,10,21,118,67,58,58,4,27,3,4,0.5,0.6
2023-07-23T02:00:00,1129A,126.5422,45.755,哈尔滨市,岭北,,25,20,21,14,12,121,79,80,80,11,18,9,9,0.8,0.7
2023-07-23T02:00:00,1130A,126.561,45.8167,哈尔滨市,松北商大,,21,9,22,7,8,97,65,65,65,7,22,5,5,0.5,0.5
2023-07-23T02:00:00,1131A,126.979,45.5419,哈尔滨市,阿城会宁,,19,19,27,6,11,69,47,50,48,9,23,7,9,0.5,0.6
2023-07-23T02:00:00,1132A,126.599,45.7222,哈尔滨市,南岗学府路,,23,23,27,12,12,108,63,65,64,7,17,5,5,0.8,0.8
2023-07-23T02:00:00,1133A,126.689,45.7733,哈尔滨市,太平宏伟公园,,,16,25,9,14,98,56,59,58,14,24,5,5,,0.7
2023-07-23T02:00:00,1134A,126.635,45.7667,哈尔滨市,道外承德广场,,21,21,24,9,9,134,59,59,59,17,26,5,5,0.4,0.5
2023-07-23T02:00:00,1135A,126.685,45.7319,哈尔滨市,香坊红旗大街,,23,19,23,16,13,99,66,70,68,12,24,5,6,0.5,0.5
2023-07-23T02:00:00,1136A,126.6411,45.7258,哈尔滨市,动力和平路,,,23,22,,,112,65,72,68,13,21,6,6,0.5,0.5
2023-07-23T02:00:00,1137A,126.593,45.7478,哈尔滨市,道里建国路,,29,29,24,7,9,112,67,66,66,16,27,7,7,0.8,0.7
2023-07-23T02:00:00,1138A,126.615,45.61,哈尔滨市,平房东轻厂,,48,48,44,11,10,74,37,44,40,30,32,5,6,0.3,0.4
2023-07-23T02:00:00,1139A,126.595,45.9855,哈尔滨市,呼兰师专,,24,20,20,8,7,110,76,87,82,10,23,9,9,0.4,0.5
2023-07-23T02:00:00,1140A,126.6206,45.6842,哈尔滨市,省农科院,,35,35,29,8,8,103,65,68,66,15,28,12,12,0.5,0.5
2023-07-23T02:00:00,1141A,121.4,31.238,上海市,普陀,,13,10,22,9,14,148,38,42,40,16,21,5,5,0.5,0.5
2023-07-23T02:00:00,1142A,121.478,31.2036,上海市,十五厂,,15,15,23,7,17,135,33,41,37,16,19,8,8,0.4,0.5
2023-07-23T02:00:00,1143A,121.467,31.3008,上海市,虹口,,14,5,22,0,14,137,43,47,45,12,18,7,7,0.6,0.7
2023-07-23T02:00:00,1144A,121.412,31.1654,上海市,徐汇上师大,,14,4,20,6,13,150,42,47,44,15,20,3,4,0.7,0.7
2023-07-23T02:00:00,1145A,121.536,31.2659,上海市,杨浦四漂,,12,11,24,7,16,146,36,45,40,17,19,5,5,0.3,0.3
2023-07-23T02:00:00,1147A,121.425,31.2261,上海市,静安监测站,,12,7,21,5,14,116,38,38,38,15,27,2,2,0.3,0.4
2023-07-23T02:00:00,1148A,121.703,31.1907,上海市,浦东川沙,,14,8,22,6,16,133,43,45,44,15,20,6,6,0.4,0.5
2023-07-23T02:00:00,1149A,121.533,31.2284,上海市,浦东新区监测站,,15,10,20,10,14,139,38,45,42,17,18,7,7,0.4,0.5
2023-07-23T02:00:00,1150A,121.577,31.2071,上海市,浦东张江,,12,11,21,8,14,135,30,34,32,24,22,6,5,0.5,0.7
2023-07-23T02:00:00,1151A,118.8086,32.1065,南京市,迈皋桥,,22,22,15,12,8,86,20,25,22,18,12,5,4,0.8,0.5
2023-07-23T02:00:00,1152A,118.7538,32.0551,南京市,草场门,,29,29,15,17,7,94,22,28,25,26,18,10,7,1.0,0.7
2023-07-23T02:00:00,1153A,118.7794,32.0745,南京市,山西路,,29,29,20,12,6,101,26,32,29,19,13,4,4,0.7,0.4
2023-07-23T02:00:00,1154A,118.7752,32.0023,南京市,中华门,,20,17,15,14,7,85,21,23,22,13,12,8,7,1.1,1.1
2023-07-23T02:00:00,1155A,118.8109,32.0309,南京市,瑞金路,,24,24,17,12,7,88,28,35,32,15,19,4,4,0.5,0.5
2023-07-23T02:00:00,1156A,118.7997,32.0754,南京市,玄武湖,,35,27,18,24,9,90,26,35,30,16,13,10,8,0.9,0.6
2023-07-23T02:00:00,1157A,118.6414,32.0931,南京市,浦口,,32,32,17,17,8,89,26,24,24,21,17,6,5,0.4,0.5
2023-07-23T02:00:00,1158A,118.7356,31.9996,南京市,奥体中心,,26,26,20,17,11,86,18,18,18,21,20,10,11,0.7,0.7
2023-07-23T02:00:00,1159A,118.9125,32.1028,南京市,仙林大学城,,32,24,18,22,10,109,32,34,33,14,14,8,8,0.7,0.6
2023-07-23T02:00:00,1160A,120.561,31.2472,苏州市,上方山,,19,19,18,8,11,110,32,35,34,11,10,5,5,0.3,0.3
2023-07-23T02:00:00,1162A,120.591,31.3019,苏州市,彩香,,16,14,18,11,11,119,32,33,32,10,12,6,6,0.5,0.5
2023-07-23T02:00:00,1163A,120.596,31.3264,苏州市,轧钢厂,,18,18,19,12,10,117,35,37,36,9,13,7,8,0.5,0.5
2023-07-23T02:00:00,1164A,120.613,31.2703,苏州市,吴中区,,18,18,17,12,10,129,31,28,28,21,22,7,7,0.5,0.5
2023-07-23T02:00:00,1165A,120.543,31.2994,苏州市,苏州新区,,19,17,16,13,12,116,37,39,38,8,10,8,7,0.6,0.6
2023-07-23T02:00:00,1166A,120.669,31.3097,苏州市,苏州工业园区,,22,21,19,15,11,119,29,39,34,13,16,8,8,0.5,0.5
2023-07-23T02:00:00,1167A,120.641,31.3708,苏州市,相城区,,20,13,14,14,9,116,25,29,27,21,20,6,6,0.5,0.5
2023-07-23T02:00:00,1168A,120.9098,31.9663,南通市,狼山街道,,11,0,11,3,7,134,34,43,38,20,23,6,6,0.4,0.5
2023-07-23T02:00:00,1169A,120.86,32.0005,南通市,虹桥,,16,0,7,0,11,125,51,52,52,4,10,8,8,0.6,0.7
2023-07-23T02:00:00,1170A,120.87,32.02,南通市,城中,,17,2,13,2,9,133,52,54,53,10,12,5,7,0.5,0.5
2023-07-23T02:00:00,1171A,120.94,31.93,南通市,星湖花园,,15,0,12,0,6,142,47,50,48,17,20,3,5,0.6,0.6
2023-07-23T02:00:00,1172A,120.81,32.0417,南通市,紫琅学院,,15,6,12,0,4,123,46,52,49,20,24,5,5,0.8,0.6
2023-07-23T02:00:00,1173A,119.176,34.5885,连云港市,市环境监测站,,29,29,34,19,20,134,76,90,83,9,9,3,4,0.1,0.2
2023-07-23T02:00:00,1177A,117.179,34.2761,徐州市,黄河新村,颗粒物(PM10),57,63,27,32,16,107,49,63,56,21,9,6,6,0.6,0.5
2023-07-23T02:00:00,1178A,117.1918,34.2384,徐州市,淮塔,颗粒物(PM10),52,53,24,33,19,122,48,48,48,21,9,8,8,0.5,0.5
2023-07-23T02:00:00,1180A,117.256,34.2153,徐州市,新城区,颗粒物(PM10),56,61,36,22,16,126,29,42,36,41,11,8,7,0.4,0.3
2023-07-23T02:00:00,1181A,117.244,34.2911,徐州市,桃园路,,35,34,19,24,13,127,46,48,47,16,9,8,8,0.4,0.3
2023-07-23T02:00:00,1182A,117.2933,34.2778,徐州市,农科院,,43,39,24,30,19,126,20,16,16,60,22,6,5,0.5,0.3
2023-07-23T02:00:00,1186A,119.389,32.3761,扬州市,邗江监测站,,22,19,26,15,13,125,27,31,29,14,16,3,5,0.7,0.7
2023-07-23T02:00:00,1188A,120.269,31.4867,无锡市,雪浪,,13,12,8,2,3,110,41,51,46,12,8,2,2,0.6,0.6
2023-07-23T02:00:00,1189A,120.275,31.6219,无锡市,黄巷,,14,1,9,2,3,111,44,51,48,18,14,5,5,0.7,0.7
2023-07-23T02:00:00,1190A,120.294,31.56,无锡市,曹张,,13,6,11,9,5,84,21,27,24,20,9,2,2,0.5,0.5
2023-07-23T02:00:00,1191A,120.242,31.5031,无锡市,漆塘,,13,5,5,7,4,108,41,53,47,11,3,4,4,0.5,0.6
2023-07-23T02:00:00,1192A,120.3489,31.5863,无锡市,东亭,,13,12,11,0,6,104,32,41,36,25,14,9,9,0.6,0.6
2023-07-23T02:00:00,1193A,120.354,31.5475,无锡市,旺庄,,13,9,7,2,4,111,26,30,28,25,12,6,6,0.6,0.5
2023-07-23T02:00:00,1194A,120.245,31.5631,无锡市,荣巷,,13,7,7,0,4,98,40,50,45,7,6,8,8,0.4,0.4
2023-07-23T02:00:00,1195A,120.299,31.6817,无锡市,堰桥,,,5,7,,4,94,34,38,36,16,17,6,6,0.6,0.6
2023-07-23T02:00:00,1196A,119.9633,31.762,常州市,市监测站,,15,6,10,0,7,84,45,47,46,9,14,5,6,0.6,0.6
2023-07-23T02:00:00,1200A,119.9468,31.7069,常州市,武进监测站,,16,13,17,4,8,95,50,49,49,5,8,6,9,0.5,0.5
2023-07-23T02:00:00,1201A,119.9255,31.9087,常州市,安家,,13,5,12,3,8,85,41,41,41,7,11,4,5,0.5,0.6
2023-07-23T02:00:00,1203A,119.6707,32.1875,镇江市,新区办事处,,23,21,17,16,10,108,20,26,23,23,14,5,2,0.6,0.6
2023-07-23T02:00:00,1204A,119.4974,32.1968,镇江市,职教中心,,25,25,17,17,11,122,28,30,29,14,9,3,2,0.4,0.6
2023-07-23T02:00:00,1205A,119.4303,32.1328,镇江市,丹徒区监测站,,27,27,21,17,12,124,20,23,22,19,12,9,7,0.7,0.7
2023-07-23T02:00:00,1206A,119.905,32.4878,泰州市,公园路,,25,19,15,17,14,135,23,32,28,22,16,8,9,0.5,0.7
2023-07-23T02:00:00,1207A,119.9189,32.4625,泰州市,莲花,,20,20,19,12,13,135,25,32,28,20,14,6,7,0.5,0.4
2023-07-23T02:00:00,1209A,119.888,32.4639,泰州市,留学生创业园,,29,29,20,16,14,138,20,29,24,22,14,8,7,0.7,0.7
2023-07-23T02:00:00,1210A,119.036,33.5981,淮安市,钵池山,,22,17,20,15,16,103,45,54,50,14,10,7,7,0.7,0.7
2023-07-23T02:00:00,1211A,119.007,33.575,淮安市,北京南路,,24,24,25,16,13,93,27,31,29,29,18,10,10,0.8,0.9
2023-07-23T02:00:00,1212A,118.989,33.6067,淮安市,市监测站,,22,22,27,7,11,100,46,50,48,10,12,9,9,0.6,0.9
2023-07-23T02:00:00,1213A,119.135,33.5039,淮安市,楚州区监测站,,22,22,19,12,10,103,33,48,40,24,10,6,6,0.8,0.8
2023-07-23T02:00:00,1214A,119.0186,33.6297,淮安市,淮阴区监测站,,22,22,27,14,14,105,48,44,44,11,15,9,9,0.6,0.6
2023-07-23T02:00:00,1215A,120.118,33.4022,盐城市,盐城电厂,,34,34,30,19,19,106,48,62,55,8,8,5,5,0.6,0.6
2023-07-23T02:00:00,1216A,120.156,33.3942,盐城市,市监测站,,32,26,22,22,18,119,56,71,64,9,7,4,3,0.4,0.4
2023-07-23T02:00:00,1218A,120.2144,33.38,盐城市,开发区管委会,,43,27,22,30,19,113,50,63,56,11,8,4,6,0.5,0.5
2023-07-23T02:00:00,1220A,118.293,33.9528,宿迁市,宿迁学院,,40,17,31,28,34,130,53,50,50,13,11,7,7,0.7,0.6
2023-07-23T02:00:00,1221A,118.2442,33.9592,宿迁市,宿迁中学,,40,23,32,28,30,136,51,56,54,16,14,6,5,0.5,0.5
2023-07-23T02:00:00,1223A,120.2072,30.2111,杭州市,滨江,,10,10,10,6,7,115,26,36,31,14,9,5,5,0.7,0.7
2023-07-23T02:00:00,1224A,120.0633,30.2747,杭州市,西溪,,13,13,15,4,5,109,23,24,24,8,9,4,4,0.6,0.6
2023-07-23T02:00:00,1226A,120.3461,30.3153,杭州市,下沙,,15,15,17,4,7,120,38,40,39,12,15,4,4,0.4,0.4
2023-07-23T02:00:00,1227A,120.1269,30.2456,杭州市,卧龙桥,,14,14,14,2,6,122,11,14,12,13,11,3,4,0.5,0.5
2023-07-23T02:00:00,1228A,120.1903,30.2692,杭州市,浙江农大,,11,8,10,5,6,124,34,38,36,14,10,6,6,0.6,0.6
2023-07-23T02:00:00,1230A,120.1197,30.3119,杭州市,和睦小学,,11,11,14,6,8,118,24,26,25,15,13,6,5,0.6,0.6
2023-07-23T02:00:00,1231A,120.3019,30.4183,杭州市,临平镇,,12,10,14,3,8,109,38,42,40,11,13,4,4,0.4,0.4
2023-07-23T02:00:00,1232A,120.2697,30.1819,杭州市,城厢镇,,12,9,15,4,9,131,37,35,35,12,13,5,5,0.5,0.5
2023-07-23T02:00:00,1233A,120.0883,30.1808,杭州市,云栖,,22,22,17,3,4,118,7,12,10,11,10,4,4,0.4,0.5
2023-07-23T02:00:00,1234A,121.8358,29.911,宁波市,区环保大楼,,12,12,20,8,12,95,37,39,38,19,11,2,2,0.4,0.5
2023-07-23T02:00:00,1235A,121.56,29.82,宁波市,万里学院,,16,16,22,10,14,79,28,29,28,15,15,4,3,0.5,0.5
2023-07-23T02:00:00,1236A,121.713,29.9572,宁波市,龙赛医院,,12,8,17,8,11,89,37,43,40,19,12,7,7,0.4,0.5
2023-07-23T02:00:00,1239A,121.633,29.7733,宁波市,钱湖水厂,,12,9,20,2,12,92,38,39,38,6,6,2,2,0.4,0.4
2023-07-23T02:00:00,1240A,121.5856,29.8635,宁波市,太古小学,,15,14,20,10,17,84,37,36,36,12,14,4,4,0.5,0.7
2023-07-23T02:00:00,1241A,121.524,29.8674,宁波市,市环境监测中心,,12,9,21,3,10,92,38,43,40,9,9,4,4,0.4,0.4
2023-07-23T02:00:00,1242A,120.634,28.0089,温州市,瓯海,,28,28,37,16,23,131,32,32,32,18,23,5,5,0.5,0.6
2023-07-23T02:00:00,1243A,120.6748,27.9939,温州市,南浦,,23,23,35,12,20,139,36,38,37,9,15,6,6,0.3,0.5
2023-07-23T02:00:00,1244A,120.76,27.9747,温州市,龙湾,,18,18,30,7,15,122,43,42,42,8,19,5,6,0.4,0.5
2023-07-23T02:00:00,1245A,120.6709,28.0167,温州市,市站,,16,14,35,11,21,110,27,30,28,13,21,4,5,0.5,0.6
2023-07-23T02:00:00,1247A,120.6053,29.9928,绍兴市,城东开发委,,12,6,12,1,7,92,37,38,38,9,9,4,4,0.5,0.5
2023-07-23T02:00:00,1250A,120.0751,30.8669,湖州市,城西水厂,,12,9,14,8,8,94,24,30,27,24,22,2,2,0.5,0.5
2023-07-23T02:00:00,1252A,120.7436,30.778,嘉兴市,清河小学,,13,13,18,8,8,122,31,32,32,17,18,6,6,0.6,0.6
2023-07-23T02:00:00,1253A,120.726,30.7478,嘉兴市,嘉兴学院,,15,14,17,10,10,116,31,30,30,18,16,3,3,0.4,0.4
2023-07-23T02:00:00,1255A,121.273,28.6459,台州市,黄岩环保大楼,,13,9,25,5,16,129,39,42,40,6,8,3,3,0.6,0.6
2023-07-23T02:00:00,1256A,121.419,28.6542,台州市,台州环保大楼,,,,,,,,,,,,,,,,
2023-07-23T02:00:00,1257A,121.377,28.5773,台州市,路桥田洋王,,18,18,32,9,20,121,35,42,38,6,12,1,2,0.4,0.5
2023-07-23T02:00:00,1258A,122.122,30.0203,舟山市,定海檀枫,,23,23,29,5,10,55,29,36,32,21,16,6,6,0.3,0.3
2023-07-23T02:00:00,1259A,122.3094,29.9558,舟山市,普陀东港,,14,11,18,3,7,60,44,57,50,5,7,4,4,0.3,0.3
2023-07-23T02:00:00,1260A,122.19,29.9944,舟山市,临城新区,,14,14,19,4,7,66,37,39,38,12,12,2,3,0.3,0.2
2023-07-23T02:00:00,1262A,119.647,29.077,金华市,十五中,,23,23,19,8,7,111,20,26,23,22,14,2,2,0.4,0.4
2023-07-23T02:00:00,1263A,119.686,29.1029,金华市,监测站,,12,12,16,5,7,112,16,22,19,18,15,3,4,0.4,0.4
2023-07-23T02:00:00,1264A,118.8692,28.9398,衢州市,环保大楼,,14,14,21,7,11,106,8,18,13,25,13,4,3,0.4,0.4
2023-07-23T02:00:00,1265A,118.8709,28.9666,衢州市,实验学校,,19,19,28,8,13,99,12,22,17,22,14,14,11,0.4,0.4
2023-07-23T02:00:00,1266A,118.8621,28.9808,衢州市,衢州学院,,14,12,19,3,12,121,4,12,8,27,15,3,2,0.2,0.2
2023-07-23T02:00:00,1267A,119.914,28.4514,丽水市,监测站大楼,,13,13,20,5,8,97,23,20,20,21,14,6,5,0.5,0.6
2023-07-23T02:00:00,1268A,119.93,28.4586,丽水市,莲都小学,,12,12,20,6,8,87,31,24,24,11,12,5,5,0.5,0.5
2023-07-23T02:00:00,1269A,119.879,28.4231,丽水市,余庄前,,20,20,21,8,10,110,16,10,10,12,13,4,4,0.5,0.6
2023-07-23T02:00:00,1270A,117.1959,31.7848,合肥市,明珠广场,,18,17,17,12,10,90,24,31,28,18,17,5,5,0.4,0.3
2023-07-23T02:00:00,1271A,117.3072,31.8764,合肥市,三里街,,12,12,14,7,6,77,29,30,30,15,18,4,4,0.4,0.4
2023-07-23T02:00:00,1272A,117.2588,31.8707,合肥市,琥珀山庄,,14,12,16,7,11,91,44,47,46,7,9,4,4,0.5,0.5
2023-07-23T02:00:00,1273A,117.1604,31.9052,合肥市,董铺水库,,12,9,10,2,5,105,37,38,38,12,11,3,3,0.3,0.3
2023-07-23T02:00:00,1274A,117.25,31.8571,合肥市,长江中路,,17,17,21,9,11,87,30,33,32,10,13,5,5,0.3,0.4
2023-07-23T02:00:00,1275A,117.266,31.9436,合肥市,庐阳区,,14,14,20,7,11,103,34,34,34,14,16,5,5,0.5,0.6
2023-07-23T02:00:00,1276A,117.336,31.8586,合肥市,瑶海区,,12,12,20,6,6,70,35,34,34,5,10,8,8,0.5,0.5
2023-07-23T02:00:00,1277A,117.3027,31.7964,合肥市,包河区,,12,12,12,5,5,74,33,37,35,8,13,5,5,0.4,0.4
2023-07-23T02:00:00,1278A,117.2776,31.7385,合肥市,滨湖新区,,13,10,12,9,5,75,30,37,34,7,9,4,4,0.4,0.4
2023-07-23T02:00:00,1279A,117.1318,31.8403,合肥市,高新区,,17,17,16,10,9,93,34,34,34,14,14,8,8,0.3,0.3
2023-07-23T02:00:00,1280A,119.3903,26.0543,福州市,鼓山,,,,,,,,,,,,,,,,
2023-07-23T02:00:00,1282A,119.2681,26.0504,福州市,师大,,25,25,25,8,10,113,23,27,25,12,10,4,4,0.4,0.4
2023-07-23T02:00:00,1283A,119.2984,26.1028,福州市,五四北路,,34,34,29,16,11,127,14,15,14,18,13,2,3,0.4,0.4
2023-07-23T02:00:00,1284A,119.2648,26.0768,福州市,杨桥西路,,33,33,28,14,9,116,11,13,12,18,12,3,4,0.4,0.4
2023-07-23T02:00:00,1285A,119.317,26.0746,福州市,紫阳,,29,29,27,10,11,123,19,26,22,16,13,2,3,0.4,0.4
2023-07-23T02:00:00,1286A,118.1608,24.8169,厦门市,溪东,,,,,,,,,,,,,,,,
2023-07-23T02:00:00,1287A,118.1514,24.4767,厦门市,洪文,,10,10,14,2,5,42,14,18,16,8,9,1,2,0.1,0.1
2023-07-23T02:00:00,1288A,118.0661,24.4444,厦门市,鼓浪屿,,,17,20,5,9,48,12,12,12,,7,2,2,0.3,0.4
2023-07-23T02:00:00,1290A,115.8931,28.6843,南昌市,省外办,,12,8,18,7,9,108,37,36,36,16,15,6,8,0.5,0.5
2023-07-23T02:00:00,1291A,115.8886,28.7003,南昌市,省林业公司,,14,2,11,5,8,105,43,40,40,18,19,4,7,0.4,0.5
2023-07-23T02:00:00,1292A,115.8126,28.7442,南昌市,林科所,,11,2,9,7,5,91,32,26,26,21,23,6,8,0.6,0.6
2023-07-23T02:00:00,1294A,115.8518,28.687,南昌市,建工学校,,13,2,20,9,7,89,20,10,10,12,13,4,4,0.6,0.6
2023-07-23T02:00:00,1295A,115.8921,28.6424,南昌市,象湖,,13,4,11,6,10,121,40,36,36,12,15,4,4,0.5,0.5
2023-07-23T02:00:00,1296A,115.7423,28.7996,南昌市,武术学校,,16,16,17,11,11,64,17,19,18,1,2,5,4,0.2,0.3
2023-07-23T02:00:00,1298A,115.9314,28.6842,南昌市,省站,,12,10,19,5,9,112,38,36,36,8,8,6,8,0.4,0.5
2023-07-23T02:00:00,1299A,116.9862,36.6114,济南市,科干所,,44,44,31,22,23,136,56,64,60,14,13,5,5,0.5,0.5
2023-07-23T02:00:00,1300A,116.9376,36.665,济南市,农科所,,42,42,29,12,15,121,19,28,24,40,18,6,6,0.3,0.3
2023-07-23T02:00:00,1301A,117.1265,36.6734,济南市,开发区,,34,34,35,22,18,135,60,56,56,17,18,4,4,0.5,0.6
2023-07-23T02:00:00,1303A,117.0624,36.6868,济南市,省种子仓库,颗粒物(PM10),53,56,31,27,19,134,23,59,41,50,13,5,4,0.7,0.6
2023-07-23T02:00:00,1304A,116.9489,36.6447,济南市,机床二厂,颗粒物(PM10),53,56,32,22,17,140,51,48,48,35,20,7,7,0.6,0.6
2023-07-23T02:00:00,1305A,117.0495,36.663,济南市,市监测站,,39,39,27,22,22,140,75,74,74,22,17,5,5,0.5,0.5
2023-07-23T02:00:00,1306A,116.7675,36.5484,济南市,长清党校,,42,42,32,27,23,148,45,79,62,34,14,5,6,0.5,0.5
2023-07-23T02:00:00,1307A,120.6659,36.2403,青岛市,仰口,,32,19,14,22,17,73,55,58,56,7,7,5,5,0.4,0.4
2023-07-23T02:00:00,1310A,120.4134,36.0658,青岛市,市南区东部子站,,28,24,23,19,13,116,88,93,90,6,14,5,5,0.4,0.4
2023-07-23T02:00:00,1311A,120.3664,36.1032,青岛市,四方区子站,,35,27,21,24,12,124,98,106,102,9,18,4,5,0.6,0.6
2023-07-23T02:00:00,1312A,120.2994,36.054,青岛市,市南区西部子站,,39,36,29,27,17,110,82,85,84,11,28,6,7,0.6,0.6
2023-07-23T02:00:00,1313A,120.4581,36.0858,青岛市,崂山区子站,,32,24,35,22,17,114,87,96,92,10,17,6,6,0.4,0.4
2023-07-23T02:00:00,1314A,120.1983,35.9608,青岛市,黄岛区子站,,35,31,20,24,15,137,90,99,94,13,12,5,5,0.6,0.6
2023-07-23T02:00:00,1315A,120.3999,36.3083,青岛市,城阳区子站,,29,29,23,20,14,115,89,98,94,18,20,6,5,0.6,0.5
2023-07-23T02:00:00,1316A,113.69031,34.76122,郑州市,烟厂,颗粒物(PM10),51,52,44,24,20,175,75,77,76,18,15,1,2,0.7,0.6
2023-07-23T02:00:00,1317A,113.65724,34.77134,郑州市,郑纺机,,46,46,42,25,18,170,75,76,76,13,11,1,1,0.6,0.6
2023-07-23T02:00:00,1318A,113.67526,34.80246,郑州市,银行学校,,41,41,36,24,21,183,82,76,76,15,14,3,2,0.7,0.6
2023-07-23T02:00:00,1319A,113.56746,34.81334,郑州市,供水公司,,49,49,42,26,20,178,29,65,47,36,19,2,2,0.6,0.6
2023-07-23T02:00:00,1320A,113.7329,34.7178,郑州市,经开区管委,颗粒物(PM10),56,62,41,29,21,159,56,65,60,17,11,1,1,0.6,0.6
2023-07-23T02:00:00,1321A,113.73961,34.77172,郑州市,四十七中,,,57,41,,,180,56,62,59,19,12,1,1,0.6,0.6
2023-07-23T02:00:00,1322A,113.60532,34.74838,郑州市,市监测站,颗粒物(PM10),58,66,44,27,19,156,72,83,78,17,12,1,3,0.6,0.5
2023-07-23T02:00:00,1323A,113.64164,34.7525,郑州市,河医大,颗粒物(PM10),55,60,44,25,18,153,61,68,64,20,11,3,3,0.6,0.6
2023-07-23T02:00:00,1324A,113.51488,34.91089,郑州市,岗李水库,颗粒物(PM10),63,76,46,26,18,177,55,64,60,20,16,3,3,0.8,0.7
2023-07-23T02:00:00,1325A,114.3677,30.5584,武汉市,东湖梨园,,24,24,12,10,5,99,39,40,40,18,11,7,6,0.7,0.5
2023-07-23T02:00:00,1326A,114.2529,30.558,武汉市,汉阳月湖,,23,23,13,5,3,87,32,34,33,21,16,7,18,0.8,0.6
2023-07-23T02:00:00,1327A,114.282,30.6189,武汉市,汉口花桥,,22,22,16,12,6,103,30,37,34,26,16,7,7,0.8,0.6
2023-07-23T02:00:00,1328A,114.3025,30.5332,武汉市,武昌紫阳,,13,13,11,6,5,101,35,37,36,20,13,6,5,0.8,0.6
2023-07-23T02:00:00,1329A,114.3646,30.6217,武汉市,青山钢花,,29,29,18,14,10,111,30,31,30,22,13,9,8,0.7,0.4
2023-07-23T02:00:00,1330A,114.1566,30.4825,武汉市,沌口新区,,28,28,12,15,10,93,32,36,34,19,13,9,7,1.0,0.8
2023-07-23T02:00:00,1331A,114.3014,30.5944,武汉市,汉口江滩,,22,22,11,9,4,104,32,36,34,23,14,6,5,0.8,0.6
2023-07-23T02:00:00,1333A,114.135,30.6319,武汉市,吴家山,,16,16,14,10,4,86,29,36,32,23,14,5,6,0.9,0.6
2023-07-23T02:00:00,1334A,113.8454,30.2917,武汉市,沉湖七壕,,11,7,10,6,3,84,29,33,31,15,16,6,5,1.1,0.7
2023-07-23T02:00:00,1335A,113.0833,28.2325,长沙市,经开区环保局,,11,8,13,6,8,96,33,34,34,10,12,4,6,0.3,0.3
2023-07-23T02:00:00,1336A,112.8872,28.2189,长沙市,高开区环保局,,13,8,12,9,11,102,36,34,34,11,7,4,6,0.5,0.5
2023-07-23T02:00:00,1337A,113.0792,28.2053,长沙市,马坡岭,,12,10,20,8,12,92,34,35,34,12,13,4,6,0.4,0.4
2023-07-23T02:00:00,1338A,112.9394,28.19,长沙市,湖南师范大学,,13,13,18,8,15,119,28,37,32,6,8,1,1,0.7,0.8
2023-07-23T02:00:00,1339A,113.0178,28.1322,长沙市,雨花区环保局,,22,22,23,10,21,95,34,36,35,9,13,4,4,0.4,0.4
2023-07-23T02:00:00,1340A,112.9792,28.2597,长沙市,伍家岭,,15,12,24,10,15,95,17,32,24,22,17,2,5,0.1,0.4
2023-07-23T02:00:00,1341A,113.0014,28.1944,长沙市,火车新站,,12,8,22,0,6,87,37,36,36,9,12,4,6,0.6,0.7
2023-07-23T02:00:00,1342A,112.9844,28.1178,长沙市,天心区环保局,,12,6,15,5,11,112,37,44,40,9,13,1,3,0.5,0.6
2023-07-23T02:00:00,1343A,112.8908,28.1308,长沙市,湖南中医药大学,,12,12,17,7,13,126,32,35,34,12,7,1,2,0.6,0.7
2023-07-23T02:00:00,1344A,112.9581,28.3611,长沙市,沙坪,,20,20,28,6,11,110,35,38,36,7,8,4,5,0.4,0.4
2023-07-23T02:00:00,1345A,113.2347,23.1423,广州市,广雅中学,,,,,,,,,,,,,,,,
2023-07-23T02:00:00,1346A,113.2612,23.105,广州市,市五中,,18,18,30,8,14,182,21,18,18,13,16,7,8,0.5,0.5
2023-07-23T02:00:00,1348A,113.3478,23.0916,广州市,广东商学院,,21,21,25,9,11,115,9,8,8,25,24,4,8,0.6,0.6
2023-07-23T02:00:00,1349A,113.4332,23.1047,广州市,市八十六中,,28,28,27,7,9,103,7,12,10,31,24,5,4,0.4,0.4
2023-07-23T02:00:00,1350A,113.3505,22.9483,广州市,番禺中学,,22,22,21,9,10,151,16,23,20,28,19,8,8,0.6,0.6
2023-07-23T02:00:00,1351A,113.2146,23.3916,广州市,花都师范,,34,34,33,12,17,185,6,16,11,39,27,6,8,0.5,0.6
2023-07-23T02:00:00,1352A,113.2597,23.1331,广州市,市监测站,,12,12,28,6,14,171,20,19,19,19,24,6,7,0.7,0.8
2023-07-23T02:00:00,1353A,113.5618,23.312,广州市,九龙镇镇龙,,44,44,36,18,14,117,0,1,0,42,31,6,6,0.6,0.5
2023-07-23T02:00:00,1354A,113.2765,23.1544,广州市,麓湖,,16,16,23,1,8,136,17,18,18,17,20,5,6,0.7,0.8
2023-07-23T02:00:00,1355A,113.443,23.3035,广州市,帽峰山森林公园,,,,,,,,,,,,,,,,
2023-07-23T02:00:00,1356A,114.1063,22.5545,深圳市,通心岭子站,,13,13,12,4,6,72,41,41,41,5,13,4,4,0.5,0.5
2023-07-23T02:00:00,1357A,114.117,22.5625,深圳市,洪湖,,13,13,14,2,5,78,41,45,43,9,14,5,5,0.6,0.6
2023-07-23T02:00:00,1358A,113.987,22.5417,深圳市,华侨城,,16,16,14,2,2,56,17,20,18,19,22,6,6,0.6,0.6
2023-07-23T02:00:00,1359A,113.9181,22.5171,深圳市,南海子站,,22,22,31,9,10,38,12,23,18,33,28,4,5,0.6,0.6
2023-07-23T02:00:00,1360A,114.2458,22.5689,深圳市,盐田,,14,12,13,2,5,62,44,50,47,7,15,4,4,0.5,0.5
2023-07-23T02:00:00,1361A,114.2283,22.7244,深圳市,龙岗,,15,6,12,2,4,124,48,47,47,6,11,6,6,0.8,0.8
2023-07-23T02:00:00,1363A,114.494,22.5422,深圳市,南澳,,16,16,12,9,6,53,18,19,18,10,7,4,5,0.5,0.6
2023-07-23T02:00:00,1364A,114.41,22.6342,深圳市,葵涌,,18,18,17,6,5,50,10,8,8,14,12,6,6,0.6,0.5
2023-07-23T02:00:00,1365A,114.297,22.5978,深圳市,梅沙,,14,14,15,2,4,52,35,46,40,6,10,5,5,0.6,0.6
2023-07-23T02:00:00,1366A,114.0678,22.738,深圳市,观澜,,18,18,26,6,9,106,11,12,12,27,23,7,7,0.5,0.6
2023-07-23T02:00:00,1367A,113.5814,22.2618,珠海市,吉大,,14,8,11,6,6,61,44,44,44,10,9,4,4,0.3,0.3
2023-07-23T02:00:00,1368A,113.4881,22.2335,珠海市,前山,,10,5,10,2,6,53,31,32,32,8,7,6,6,0.3,0.3
2023-07-23T02:00:00,1369A,113.628,22.4251,珠海市,唐家,,13,9,10,9,7,64,35,38,36,10,6,4,4,0.2,0.2
2023-07-23T02:00:00,1370A,113.299,22.2281,珠海市,斗门,,10,8,10,4,5,61,32,34,33,5,5,4,4,0.5,0.5
2023-07-23T02:00:00,1371A,113.1294,23.0067,佛山市,湾梁,,17,17,23,8,11,144,25,25,25,11,12,7,8,0.4,0.4
2023-07-23T02:00:00,1372A,113.1083,23.0478,佛山市,华材职中,,17,17,21,9,12,162,30,29,29,11,15,8,8,0.5,0.5
2023-07-23T02:00:00,1373A,113.144,23.0453,佛山市,南海气象局,,23,23,27,11,13,117,18,20,19,16,17,7,7,0.4,0.5
2023-07-23T02:00:00,1374A,113.2881,22.8094,佛山市,顺德苏岗,,8,5,13,2,10,118,23,25,24,9,10,6,6,0.6,0.7
2023-07-23T02:00:00,1376A,112.8383,22.8678,佛山市,高明孔堂,,20,20,18,9,8,107,29,33,31,8,9,5,5,0.5,0.5
2023-07-23T02:00:00,1377A,112.8836,23.1588,佛山市,三水监测站,,19,14,26,13,14,110,10,16,13,25,25,7,8,0.6,0.5
2023-07-23T02:00:00,1378A,112.867,23.185,佛山市,三水云东海,,29,29,27,13,14,113,8,8,8,28,22,8,9,0.5,0.5
2023-07-23T02:00:00,1379A,113.3769,22.5211,中山市,华柏园,,15,15,14,7,6,80,31,34,32,11,9,4,4,0.4,0.4
2023-07-23T02:00:00,1380A,113.3881,22.5497,中山市,张溪,,27,27,18,4,8,88,21,33,27,16,6,6,6,0.5,0.4
2023-07-23T02:00:00,1381A,113.4075,22.5111,中山市,紫马岭,,17,17,15,7,6,80,16,18,17,11,7,6,6,0.3,0.3
2023-07-23T02:00:00,1382A,113.4411,22.4853,中山市,长江旅游区,,11,11,13,3,6,88,12,14,13,7,6,9,10,0.3,0.3
2023-07-23T02:00:00,1383A,113.1064,22.6058,江门市,北街,,17,17,18,6,9,115,28,28,28,12,10,6,6,0.4,0.5
2023-07-23T02:00:00,1384A,113.0731,22.5835,江门市,西区,,19,19,20,6,9,117,24,27,26,18,14,6,7,0.4,0.5
2023-07-23T02:00:00,1385A,113.0219,22.5311,江门市,圭峰西,,16,16,18,6,8,110,27,26,26,14,12,3,4,0.5,0.6
2023-07-23T02:00:00,1386A,113.0828,22.5947,江门市,东湖,,16,16,20,5,14,122,30,32,31,12,10,9,8,0.4,0.5
2023-07-23T02:00:00,1389A,113.7547,23.0494,东莞市,莞城梨川,,28,28,19,11,8,119,7,15,11,42,24,10,9,0.7,0.7
2023-07-23T02:00:00,1390A,113.7944,23.0128,东莞市,东城石井,,24,24,20,9,8,123,3,8,6,34,27,8,7,0.5,0.5
2023-07-23T02:00:00,1391A,113.7383,22.9658,东莞市,南城西平,,17,17,15,4,6,92,15,18,16,31,20,8,7,0.5,0.5
2023-07-23T02:00:00,1392A,114.4183,23.0528,惠州市,河南岸金山湖子站,,20,20,22,12,8,121,19,18,18,19,13,4,4,0.6,0.6
2023-07-23T02:00:00,1393A,114.4053,23.0822,惠州市,下埔横江三路子站,,11,11,18,6,8,126,24,23,23,14,11,5,5,0.7,0.6
2023-07-23T02:00:00,1394A,114.4103,23.1142,惠州市,江北云山西路子站,,13,13,27,8,8,136,26,25,25,12,10,4,5,0.4,0.4
2023-07-23T02:00:00,1395A,114.4645,22.7833,惠州市,惠阳区承修路船湖子站,,15,11,14,10,8,73,38,40,39,10,10,6,5,0.5,0.5
2023-07-23T02:00:00,1396A,114.5317,22.7422,惠州市,大亚湾管委会子站,,10,9,17,7,7,38,20,25,22,16,14,2,2,0.4,0.4
2023-07-23T02:00:00,1397A,112.4267,23.0706,肇庆市,睦岗子站,,15,15,26,6,13,107,27,30,28,9,15,8,24,0.5,0.6
2023-07-23T02:00:00,1398A,112.4645,23.0475,肇庆市,城中子站,,23,23,21,9,11,90,18,27,22,25,17,17,14,0.4,0.4
2023-07-23T02:00:00,1399A,112.5544,23.1522,肇庆市,坑口子站,,10,7,19,4,12,106,17,21,19,19,18,10,10,0.3,0.3
2023-07-23T02:00:00,1400A,112.4753,23.1,肇庆市,七星岩子站,,19,19,23,11,13,105,18,18,18,19,18,16,15,0.4,0.4
2023-07-23T02:00:00,1401A,108.3103,22.7881,南宁市,二十一中,,22,22,23,10,10,93,27,28,28,12,10,7,6,0.9,0.7
2023-07-23T02:00:00,1402A,108.3141,22.8528,南宁市,北湖,,18,18,22,12,13,96,29,33,31,10,8,6,7,0.6,0.6
2023-07-23T02:00:00,1403A,108.3206,22.8225,南宁市,市监测站,,22,14,26,15,13,106,31,33,32,13,14,8,8,0.7,0.7
2023-07-23T02:00:00,1404A,108.3829,22.8037,南宁市,大自然花园,,25,25,24,11,12,108,26,27,26,13,10,6,7,0.7,0.6
2023-07-23T02:00:00,1405A,108.4394,22.7904,南宁市,仙葫,,19,19,26,13,15,103,31,31,31,13,11,5,6,0.6,0.7
2023-07-23T02:00:00,1406A,108.2397,22.8467,南宁市,区农职院,,23,23,25,12,11,89,21,26,24,23,15,10,7,1.0,0.7
2023-07-23T02:00:00,1407A,108.3275,22.735,南宁市,英华嘉园,,27,27,25,11,12,86,19,21,20,21,17,6,6,0.7,0.7
2023-07-23T02:00:00,1408A,108.2257,22.7757,南宁市,沙井镇街道办,,36,36,39,12,12,75,7,14,10,35,18,6,5,0.9,0.6
2023-07-23T02:00:00,1409A,110.576,19.9507,海口市,东寨港,,,,,,,,,,,,,,,,
2023-07-23T02:00:00,1410A,110.3232,20.0574,海口市,海南大学,,12,12,16,6,9,55,24,26,25,13,9,5,5,0.4,0.4
2023-07-23T02:00:00,1411A,110.283,20.0053,海口市,秀英海南医院,,12,12,16,6,9,70,28,33,30,10,10,5,5,0.4,0.4
2023-07-23T02:00:00,1412A,110.338,19.9969,海口市,海南师范大学,,,12,16,6,10,64,29,32,30,7,6,6,6,,0.4
2023-07-23T02:00:00,1413A,110.33,20.0356,海口市,龙华路环保局宿舍,,13,13,15,5,7,56,27,32,30,9,7,6,6,0.3,0.3
2023-07-23T02:00:00,1414A,106.3787,29.8279,重庆市,缙云山,,33,16,21,12,11,184,105,104,104,4,9,7,8,0.3,0.4
2023-07-23T02:00:00,1416A,106.4213,29.8253,重庆市,天生,,36,22,27,25,21,143,9,14,12,35,21,5,5,1.0,1.1
2023-07-23T02:00:00,1417A,106.6263,29.7228,重庆市,两路,,20,17,23,14,20,162,60,58,58,18,33,8,8,1.0,1.2
2023-07-23T02:00:00,1418A,106.2953,29.5983,重庆市,虎溪,,39,39,30,24,20,189,10,26,18,56,25,4,4,0.6,0.6
2023-07-23T02:00:00,1419A,106.5777,29.5102,重庆市,南坪,,34,34,32,20,17,172,68,62,62,16,18,11,8,0.6,0.6
2023-07-23T02:00:00,1420A,106.6556,29.6277,重庆市,唐家沱,,35,35,25,19,15,184,24,20,20,30,22,6,7,0.6,0.8
2023-07-23T02:00:00,1421A,106.6349,29.4906,重庆市,茶园,,44,44,25,13,10,207,36,54,45,55,26,6,6,1.0,0.8
2023-07-23T02:00:00,1422A,106.3754,29.4572,重庆市,白市驿,,41,41,25,26,18,231,34,53,44,47,21,7,6,1.0,0.8
2023-07-23T02:00:00,1425A,106.6205,29.7166,重庆市,空港,,27,27,30,15,19,172,81,78,78,15,26,6,8,0.8,0.9
2023-07-23T02:00:00,1426A,106.4782,29.4875,重庆市,新山村,,33,33,32,20,15,174,37,39,38,32,27,9,6,0.8,0.6
2023-07-23T02:00:00,1427A,106.5616,29.6453,重庆市,礼嘉,,35,35,28,19,18,178,39,59,49,41,34,9,9,0.9,0.9
2023-07-23T02:00:00,1428A,106.4522,29.7091,重庆市,蔡家,颗粒物(PM10),52,54,38,24,20,202,33,40,36,33,23,5,5,0.9,0.9
2023-07-23T02:00:00,1429A,106.5093,29.3917,重庆市,鱼新街,,39,39,23,19,12,181,28,43,36,47,24,6,5,1.2,1
2023-07-23T02:00:00,1431A,103.9728,30.7236,成都市,金泉两河,,48,42,39,33,23,163,78,116,97,15,10,5,4,0.6,0.4
2023-07-23T02:00:00,1432A,104.176,30.6872,成都市,十里店,,23,23,28,10,18,146,73,68,68,12,8,3,4,0.5,0.6
2023-07-23T02:00:00,1433A,104.079,30.5706,成都市,三瓦窑,,33,15,32,3,18,147,105,96,96,7,17,1,2,0.4,0.4
2023-07-23T02:00:00,1434A,104.1114,30.63,成都市,沙河铺,,23,21,31,11,17,143,73,80,76,13,8,1,2,0.5,0.5
2023-07-23T02:00:00,1437A,104.0786,30.6531,成都市,君平街,,28,17,34,16,29,163,89,93,91,10,11,3,3,0.5,0.6
2023-07-23T02:00:00,1438A,103.613,31.0283,成都市,灵岩寺,,42,35,29,27,22,189,132,156,144,5,5,28,10,0.8,0.5
2023-07-23T02:00:00,1439A,106.6899,26.5998,贵阳市,马鞍山,,27,27,23,7,8,90,36,30,30,6,14,4,4,0.5,0.6
2023-07-23T02:00:00,1440A,106.6971,26.5694,贵阳市,市环保站,,14,7,29,5,20,87,44,37,37,10,25,3,4,0.3,0.3
2023-07-23T02:00:00,1441A,106.6243,26.6266,贵阳市,鉴湖路,,17,17,29,0,14,89,34,24,24,12,16,3,4,0.4,0.4
2023-07-23T02:00:00,1442A,106.7487,26.6343,贵阳市,燕子冲,,25,14,13,17,18,91,33,34,34,11,19,5,6,0.6,0.7
2023-07-23T02:00:00,1443A,106.6555,26.4365,贵阳市,碧云窝,,34,34,26,19,10,72,45,44,44,8,10,5,4,0.4,0.4
2023-07-23T02:00:00,1444A,106.694,26.5161,贵阳市,中院村,,19,19,34,9,14,67,39,38,38,10,20,5,6,0.3,0.5
2023-07-23T02:00:00,1445A,106.7109,26.6027,贵阳市,红边门,,22,22,34,12,22,88,37,32,32,16,24,5,7,0.4,0.6
2023-07-23T02:00:00,1446A,106.7164,26.5699,贵阳市,新华路,,16,9,27,7,16,94,51,47,47,8,20,3,4,0.2,0.3
2023-07-23T02:00:00,1447A,106.674,26.5424,贵阳市,太慈桥,,19,19,28,5,9,78,45,40,40,9,15,3,4,0.4,0.4
2023-07-23T02:00:00,1450A,102.8204,24.8886,昆明市,呈贡新区,,39,39,24,16,11,73,12,12,12,36,19,18,12,1.0,0.8
2023-07-23T02:00:00,1451A,102.6251,24.9608,昆明市,西山森林公园,,16,16,16,9,10,48,21,48,34,25,18,7,8,1.0,0.9
2023-07-23T02:00:00,1452A,102.7252,25.0902,昆明市,龙泉镇,,31,31,24,13,11,68,4,11,8,31,23,14,9,0.7,0.6
2023-07-23T02:00:00,1453A,102.7266,25.0375,昆明市,东风东路,,31,31,23,15,11,72,8,22,15,34,23,9,9,0.6,0.5
2023-07-23T02:00:00,1454A,102.6742,25.0669,昆明市,金鼎山,,43,27,25,30,15,68,15,14,14,22,18,6,8,0.7,0.6
2023-07-23T02:00:00,1455A,102.6644,25.0401,昆明市,碧鸡广场,颗粒物(PM10),61,71,24,37,12,69,8,10,9,34,19,11,8,0.7,0.5
2023-07-23T02:00:00,1456A,91.1319,29.6514,拉萨市,八廓街,,20,13,14,7,7,134,62,62,62,21,17,6,6,0.2,0.2
2023-07-23T02:00:00,1457A,91.1221,29.6747,拉萨市,市环保局,,21,8,15,6,7,135,66,70,68,10,14,6,6,0.2,0.3
2023-07-23T02:00:00,1458A,91.0874,29.6475,拉萨市,区监测站,,20,11,11,5,6,126,62,62,62,14,14,8,8,0.3,0.2
2023-07-23T02:00:00,1459A,91.1774,29.6541,拉萨市,西藏大学,,20,20,10,6,6,125,58,60,59,18,9,10,9,0.2,0.2
2023-07-23T02:00:00,1460A,90.9798,29.6588,拉萨市,区辐射站,,22,8,14,7,7,122,68,74,71,11,12,10,9,0.2,0.2
2023-07-23T02:00:00,1461A,91.0834,29.6292,拉萨市,拉萨火车站,,18,15,13,5,6,121,56,70,63,21,11,10,10,0.3,0.2
2023-07-23T02:00:00,1462A,108.882,34.2749,西安市,高压开关厂,,50,50,72,24,29,250,54,75,64,50,39,8,9,0.5,0.6
2023-07-23T02:00:00,1463A,108.993,34.2629,西安市,兴庆小区,,46,46,59,17,20,256,54,69,62,35,26,6,7,0.5,0.5
2023-07-23T02:00:00,1464A,109.06,34.2572,西安市,纺织城,颗粒物(PM10),53,56,69,23,24,246,7,15,11,73,40,4,4,0.4,0.4
2023-07-23T02:00:00,1465A,108.9356,34.2173,西安市,小寨,颗粒物(PM10),51,52,62,14,20,228,54,66,60,35,24,6,7,0.4,0.4
2023-07-23T02:00:00,1466A,108.954,34.2713,西安市,市人民体育场,颗粒物(PM10),54,57,69,20,26,262,51,68,60,39,30,8,7,0.5,0.5
2023-07-23T02:00:00,1467A,108.8922,34.2322,西安市,高新西区,,40,40,56,19,24,221,78,89,84,30,26,7,8,0.5,0.5
2023-07-23T02:00:00,1468A,108.935,34.3474,西安市,经开区,颗粒物(PM10),51,52,72,18,28,280,29,27,27,55,30,3,3,0.4,0.4
2023-07-23T02:00:00,1469A,108.906,34.1546,西安市,长安区,颗粒物(PM10),54,58,59,17,21,206,36,53,44,46,26,4,4,0.6,0.5
2023-07-23T02:00:00,1471A,109.2186,34.3731,西安市,临潼区,颗粒物(PM10),61,72,65,26,25,222,51,90,70,46,21,6,6,0.7,0.6
2023-07-23T02:00:00,1472A,108.869,34.378,西安市,草滩,颗粒物(PM10),67,84,85,22,24,297,28,43,36,68,44,11,11,0.6,0.6
2023-07-23T02:00:00,1473A,108.985,34.1978,西安市,曲江文化产业集团,,29,27,35,20,23,246,51,54,52,47,32,5,6,0.4,0.5
2023-07-23T02:00:00,1474A,109.051,34.3213,西安市,广运潭,颗粒物(PM10),57,63,56,15,18,248,16,33,24,68,30,7,8,0.5,0.4
2023-07-23T02:00:00,1476A,103.631,36.1031,兰州市,兰炼宾馆,颗粒物(PM10),75,100,56,31,23,202,12,36,24,93,41,8,12,0.6,0.5
2023-07-23T02:00:00,1477A,104.1373,35.9454,兰州市,榆中兰大校区,,,,,,,,,,,,,,,,
2023-07-23T02:00:00,1478A,103.8412,36.0726,兰州市,生物制品所,颗粒物(PM10),62,73,53,28,22,172,10,24,17,84,41,10,11,0.6,0.7
2023-07-23T02:00:00,1479A,103.831,36.0464,兰州市,铁路设计院,颗粒物(PM10),67,84,74,34,29,77,2,2,2,102,86,8,18,0.6,1.3
2023-07-23T02:00:00,1483A,101.524,36.6867,西宁市,第五水厂,,,,,,,,,,,,,,,,
2023-07-23T02:00:00,1484A,105.9512,38.6016,银川市,贺兰山马莲口,,46,16,11,8,10,169,145,141,141,8,6,8,5,0.5,0.4
2023-07-23T02:00:00,1488A,106.2328,38.4975,银川市,贺兰山东路,颗粒物(PM10),51,52,30,26,14,180,38,59,48,72,26,10,10,0.7,0.4
2023-07-23T02:00:00,1489A,106.1358,38.5036,银川市,学院路,,50,50,40,23,14,164,48,76,62,49,31,8,11,0.5,0.5
2023-07-23T02:00:00,1490A,87.5801,43.8303,乌鲁木齐市,监测站,颗粒物(PM10),67,84,45,18,13,135,22,12,12,73,30,5,5,0.7,0.5
2023-07-23T02:00:00,1491A,87.6046,43.768,乌鲁木齐市,收费所,颗粒物(PM10),62,73,42,24,17,138,12,8,8,71,34,12,10,0.5,0.3
2023-07-23T02:00:00,1492A,87.4754,43.9469,乌鲁木齐市,新疆农科院农场,细颗粒物(PM2.5),109,134,78,82,36,127,4,5,4,82,34,16,14,0.6,0.5
2023-07-23T02:00:00,1493A,87.5525,43.8711,乌鲁木齐市,铁路局,颗粒物(PM10),67,83,47,27,9,135,0,0,0,106,34,4,4,0.8,0.4
2023-07-23T02:00:00,1494A,87.6432,43.831,乌鲁木齐市,三十一中学,颗粒物(PM10),65,80,41,11,12,140,21,40,30,81,29,4,3,0.6,0.4
2023-07-23T02:00:00,1496A,87.7216,44.1747,乌鲁木齐市,米东区环保局,颗粒物(PM10),68,85,56,33,25,134,37,47,42,49,19,5,6,0.4,0.4
2023-07-23T02:00:00,1508A,112.9433,27.8614,湘潭市,板塘,,20,20,23,9,12,89,31,27,27,16,13,8,9,0.6,0.7
2023-07-23T02:00:00,1511A,112.9118,27.8403,湘潭市,市监测站,,12,12,22,8,15,115,37,34,34,7,13,4,14,0.5,0.9
2023-07-23T02:00:00,1512A,112.8937,27.8728,湘潭市,江麓,,24,24,26,6,11,88,33,26,26,15,16,7,13,0.2,0.3
2023-07-23T02:00:00,1513A,112.9227,27.8159,湘潭市,岳塘,,18,18,22,7,10,99,39,34,34,11,13,8,7,0.2,0.5
2023-07-23T02:00:00,1514A,112.9074,27.9119,湘潭市,科大,,26,26,27,11,13,108,25,20,20,17,14,7,12,0.3,0.4
2023-07-23T02:00:00,1515A,113.135,27.8244,株洲市,天台山庄,,24,24,22,6,9,96,37,38,38,9,5,6,6,0.8,0.5
2023-07-23T02:00:00,1518A,113.095,27.8867,株洲市,株冶医院,,31,31,25,10,10,96,10,18,14,31,15,3,5,0.5,0.4
2023-07-23T02:00:00,1519A,113.167,27.8667,株洲市,市四中,,35,35,24,8,10,97,28,30,29,13,8,6,4,0.6,0.4
2023-07-23T02:00:00,1520A,113.143,27.8381,株洲市,火车站,,25,25,22,9,8,102,32,34,33,12,6,6,4,0.7,0.5
2023-07-23T02:00:00,1524A,113.13,27.8528,株洲市,市监测站,,20,20,22,12,11,101,36,41,38,16,8,9,8,0.8,0.6
2023-07-23T02:00:00,1552A,106.805,26.3003,贵阳市,桐木岭,,19,19,28,9,19,80,59,67,63,3,4,1,1,0.3,0.4
2023-07-23T02:00:00,1559A,113.251,27.8336,株洲市,大京风景区,,16,16,19,5,9,91,11,10,10,9,5,3,4,0.4,0.3
2023-07-23T02:00:00,1562A,113.0048,27.9153,湘潭市,昭山,,17,17,23,7,12,114,18,22,20,21,17,3,4,0.5,0.5
2023-07-23T02:00:00,1564A,112.4876,27.9164,湘潭市,韶山,,20,20,23,9,8,87,0,0,0,9,7,6,7,0.5,0.4
2023-07-23T02:00:00,1585A,109.8756,40.6532,包头市,市环境监测站,颗粒物(PM10),51,51,22,3,10,156,94,108,101,24,16,9,9,0.5,0.5
2023-07-23T02:00:00,1587A,109.9991,40.5842,包头市,包头八中,颗粒物(PM10),57,64,26,5,8,163,119,120,120,16,17,8,8,0.5,0.6
2023-07-23T02:00:00,1588A,109.8538,40.6821,包头市,青山宾馆,,28,27,17,8,8,157,88,107,98,23,13,5,6,0.7,0.6
2023-07-23T02:00:00,1589A,109.8642,40.6288,包头市,惠龙物流,颗粒物(PM10),55,59,23,23,12,159,96,97,96,22,14,10,9,0.6,0.5
2023-07-23T02:00:00,1590A,110.0377,40.5546,包头市,东河鸿龙湾,颗粒物(PM10),55,60,20,11,9,159,118,116,116,13,18,6,7,0.5,0.3
2023-07-23T02:00:00,1591A,110.0023,39.8129,鄂尔多斯市,综合楼,颗粒物(PM10),84,117,39,17,15,165,125,124,124,14,18,3,5,0.4,0.7
2023-07-23T02:00:00,1592A,109.9486,39.8261,鄂尔多斯市,巴音孟克林场办事处,颗粒物(PM10),60,70,39,9,20,174,122,122,122,15,17,5,8,0.4,0.6
2023-07-23T02:00:00,1593A,109.7736,39.5986,鄂尔多斯市,康泽苑,颗粒物(PM10),57,63,21,7,5,150,112,113,112,9,10,7,7,0.3,0.4
2023-07-23T02:00:00,1594A,109.8119,39.5989,鄂尔多斯市,华泰汽车城,颗粒物(PM10),60,70,27,14,12,141,92,105,98,18,21,5,6,0.4,0.5
2023-07-23T02:00:00,1595A,109.9734,39.7884,鄂尔多斯市,奥林花园,颗粒物(PM10),53,56,39,12,16,167,125,124,124,8,15,7,6,0.7,0.9
2023-07-23T02:00:00,1597A,122.2703,40.7094,营口市,大庆路,,25,5,31,1,18,99,77,80,78,6,19,4,9,0.6,1
2023-07-23T02:00:00,1598A,122.2150,40.6511,营口市,镜湖西路,,24,11,28,3,18,104,74,77,76,7,17,6,6,0.5,0.8
2023-07-23T02:00:00,1599A,122.1658,40.6789,营口市,西炮台,,25,12,33,5,16,110,80,84,82,8,18,7,9,0.6,0.8
2023-07-23T02:00:00,1600A,124.3303,40.0625,丹东市,江湾东路,,32,32,36,11,22,110,78,76,76,5,8,4,4,0.6,0.7
2023-07-23T02:00:00,1601A,124.4256,40.1503,丹东市,临江后街,,25,23,32,8,18,104,79,76,76,2,7,5,7,0.7,0.6
2023-07-23T02:00:00,1602A,124.3933,40.1461,丹东市,元宝山,,24,20,33,11,22,98,74,72,72,4,9,6,7,0.5,0.6
2023-07-23T02:00:00,1603A,124.3633,40.1092,丹东市,民主桥,,23,23,48,10,23,96,73,72,72,2,8,4,5,0.5,0.7
2023-07-23T02:00:00,1604A,122.0303,41.1489,盘锦市,开发区,,24,4,24,4,20,94,76,73,73,11,21,5,3,0.8,1
2023-07-23T02:00:00,1605A,122.0485,41.0883,盘锦市,兴隆台,,25,10,28,7,21,91,79,74,74,10,22,4,4,0.6,0.8
2023-07-23T02:00:00,1606A,121.8297,41.1028,盘锦市,新生街道,,27,7,22,4,17,101,85,83,83,14,22,6,5,0.5,0.6
2023-07-23T02:00:00,1607A,120.9092,40.7136,葫芦岛市,龙港区,,22,9,15,8,10,100,69,68,68,10,12,5,11,0.2,0.4
2023-07-23T02:00:00,1608A,120.8392,40.7514,葫芦岛市,化工街,,19,7,6,5,6,95,58,54,54,17,11,5,5,0.7,0.6
2023-07-23T02:00:00,1609A,120.8341,40.7073,葫芦岛市,新区,,20,10,10,3,7,94,61,60,60,15,15,4,4,0.5,0.5
2023-07-23T02:00:00,1610A,120.8695,40.7677,葫芦岛市,东城区,,15,10,9,3,5,101,47,47,47,23,15,5,5,0.4,0.4
2023-07-23T02:00:00,1611A,118.5819,24.9117,泉州市,涂山街,,24,24,27,8,7,85,8,11,10,22,16,11,11,0.5,0.6
2023-07-23T02:00:00,1612A,118.5972,24.8978,泉州市,津头埔,,20,20,23,7,8,91,10,15,12,21,18,9,9,0.5,0.5
2023-07-23T02:00:00,1613A,118.6663,24.9424,泉州市,万安,,19,19,22,4,7,97,10,10,10,20,16,8,8,0.5,0.5
2023-07-23T02:00:00,1614A,118.6117,24.9604,泉州市,清源山,,,,,,,,,,,,,,,,
2023-07-23T02:00:00,1616A,117.6795,36.229,济南市,技术学院,,40,34,23,28,17,158,110,110,110,12,11,20,12,0.8,1.3
2023-07-23T02:00:00,1618A,118.3429,35.0532,临沂市,沂河小区,细颗粒物(PM2.5),57,53,28,40,21,125,75,77,76,24,14,6,4,0.4,0.3
2023-07-23T02:00:00,1619A,118.295,35.0583,临沂市,鲁南制药厂,颗粒物(PM10),53,56,27,30,17,155,72,72,72,27,12,4,3,0.9,0.8
2023-07-23T02:00:00,1620A,118.2794,34.9976,临沂市,新光毛纺厂,,46,46,22,25,14,150,87,89,88,21,12,8,7,0.5,0.3
2023-07-23T02:00:00,1621A,118.3956,35.0888,临沂市,河东保险公司,,44,44,22,15,11,137,93,94,94,17,9,3,2,0.6,0.5
2023-07-23T02:00:00,1622A,116.3032,37.4674,德州市,儿童乐园,细颗粒物(PM2.5),52,51,45,36,35,114,45,44,44,21,12,7,6,0.7,0.6
2023-07-23T02:00:00,1624A,116.2991,37.4451,德州市,监理站,细颗粒物(PM2.5),55,57,49,39,37,111,44,41,41,28,16,8,8,0.6,0.5
2023-07-23T02:00:00,1625A,115.9848,36.4372,聊城市,区政府,,50,42,30,35,23,161,56,77,66,40,10,7,7,0.5,0.4
2023-07-23T02:00:00,1628A,118.0062,37.3803,滨州市,市环保局,,40,33,18,28,17,119,76,87,82,6,6,3,2,0.4,0.2
2023-07-23T02:00:00,1629A,118.0018,37.3617,滨州市,第二水厂,,42,34,27,29,15,124,52,54,53,14,9,2,1,0.6,0.5
2023-07-23T02:00:00,1630A,117.9776,37.393,滨州市,北中新校,,39,36,23,27,13,115,76,81,78,5,7,2,2,0.6,0.4
2023-07-23T02:00:00,1631A,118.0414,36.8103,淄博市,人民公园,,34,34,33,17,24,148,60,65,62,28,22,12,12,0.3,0.3
2023-07-23T02:00:00,1633A,117.8525,36.4847,淄博市,双山,细颗粒物(PM2.5),52,46,22,36,14,136,55,73,64,20,15,7,5,0.6,0.4
2023-07-23T02:00:00,1634A,117.9592,36.6331,淄博市,气象站,,45,40,26,31,22,154,48,63,56,24,16,8,6,0.4,0.3
2023-07-23T02:00:00,1635A,118.3092,36.8194,淄博市,莆田园,,39,36,34,27,28,172,69,68,68,18,18,12,10,0.6,0.5
2023-07-23T02:00:00,1637A,117.558,34.8438,枣庄市,市中区政府,颗粒物(PM10),71,92,39,36,23,177,54,62,58,46,18,11,11,0.6,0.4
2023-07-23T02:00:00,1638A,117.2852,34.7837,枣庄市,薛城环保局,颗粒物(PM10),53,56,38,19,17,170,108,100,100,19,18,8,9,0.4,0.4
2023-07-23T02:00:00,1639A,117.5852,34.7745,枣庄市,峄城区政府,颗粒物(PM10),59,68,33,34,13,170,42,51,46,30,14,7,7,0.7,0.5
2023-07-23T02:00:00,1640A,117.7276,34.5578,枣庄市,台儿庄区环保局,,46,46,24,31,14,147,21,42,32,38,18,8,8,0.7,0.6
2023-07-23T02:00:00,1641A,117.4518,35.0992,枣庄市,山亭区环保局,,46,44,31,32,23,164,76,74,74,14,14,6,7,0.3,0.3
2023-07-23T02:00:00,1642A,121.2514,37.5639,烟台市,开发区,,18,12,10,5,5,66,55,59,57,5,7,7,7,0.8,0.7
2023-07-23T02:00:00,1643A,121.3719,37.5433,烟台市,轴承厂,,29,29,15,13,7,77,18,30,24,12,5,3,3,0.5,0.3
2023-07-23T02:00:00,1644A,121.3181,37.5436,烟台市,西郊化工站,,26,24,14,18,8,66,21,18,18,34,10,4,4,0.5,0.3
2023-07-23T02:00:00,1645A,121.4478,37.4822,烟台市,莱山环保局,,25,5,8,1,5,78,78,76,76,2,6,4,4,0.4,0.4
2023-07-23T02:00:00,1646A,121.2611,37.4967,烟台市,福山环保局,,29,29,14,12,3,64,0,2,1,42,13,7,6,0.4,0.2
2023-07-23T02:00:00,1650A,119.1437,36.7023,潍坊市,环保局,,29,29,22,19,18,156,44,64,54,22,13,8,8,0.7,0.6
2023-07-23T02:00:00,1653A,116.6251,35.4302,济宁市,火炬城,颗粒物(PM10),51,52,39,22,23,151,67,66,66,9,5,4,5,0.6,0.6
2023-07-23T02:00:00,1655A,116.5491,35.4042,济宁市,电化厂,,50,50,37,31,26,153,50,70,60,21,9,4,4,0.6,0.5
2023-07-23T02:00:00,1656A,117.1437,36.1937,泰安市,监测站,,46,46,25,29,15,151,48,117,82,35,9,7,7,0.2,0.2
2023-07-23T02:00:00,1657A,117.0885,36.2017,泰安市,人口学校,,37,36,19,24,12,152,118,137,128,7,9,7,6,0.3,0.3
2023-07-23T02:00:00,1658A,117.1089,36.1758,泰安市,电力学校,,44,44,25,24,14,158,55,88,72,31,9,8,8,0.6,0.5
2023-07-23T02:00:00,1659A,119.471,35.4209,日照市,监测站,,48,44,28,33,19,131,30,51,40,48,26,5,5,0.7,0.7
2023-07-23T02:00:00,1660A,119.523,35.4216,日照市,市政府广场,,44,44,30,27,20,126,63,67,65,22,14,9,9,0.7,0.6
2023-07-23T02:00:00,1661A,119.5587,35.4044,日照市,港务局,颗粒物(PM10),52,53,38,28,16,132,66,79,72,31,26,9,9,0.8,0.7
2023-07-23T02:00:00,1662A,122.1214,37.4236,威海市,华夏技校,,25,24,16,17,16,91,58,56,56,10,8,5,4,0.4,0.3
2023-07-23T02:00:00,1663A,122.0508,37.5236,威海市,山大分校,,27,5,11,2,6,100,86,91,88,2,4,4,4,0.3,0.3
2023-07-23T02:00:00,1664A,122.1067,37.5072,威海市,市监测站,,25,15,16,17,13,87,77,76,76,4,9,8,8,0.5,0.5
2023-07-23T02:00:00,1666A,118.6614,37.4309,东营市,市环保局,,20,12,11,12,11,129,62,66,64,4,6,4,5,0.1,0.1
2023-07-23T02:00:00,1669A,113.5824,24.7733,韶关市,市八中,,39,39,38,11,16,142,108,124,116,17,17,12,12,0.6,0.5
2023-07-23T02:00:00,1671A,113.5917,24.7972,韶关市,园林处,,38,38,35,21,18,147,110,120,115,15,14,14,14,0.7,0.6
2023-07-23T02:00:00,1672A,113.6735,24.7791,韶关市,韶关学院,,39,35,35,25,21,136,123,118,118,11,10,7,10,0.4,0.5
2023-07-23T02:00:00,1673A,113.5971,24.6863,韶关市,曲江监测站,,36,29,36,13,17,138,114,124,119,9,14,9,10,0.5,0.5
2023-07-23T02:00:00,1674A,116.6794,23.3667,汕头市,金平子站,,15,15,14,3,4,60,22,21,21,6,7,4,4,0.6,0.6
2023-07-23T02:00:00,1675A,116.7244,23.3633,汕头市,龙湖子站,,9,8,12,4,4,64,28,28,28,8,9,4,4,0.3,0.4
2023-07-23T02:00:00,1676A,116.7258,23.2775,汕头市,濠江子站,,6,6,15,4,6,54,16,21,18,9,8,8,8,0.5,0.5
2023-07-23T02:00:00,1677A,116.7519,23.4714,汕头市,澄海子站,,12,12,16,7,7,70,24,27,26,12,10,4,4,0.6,0.6
2023-07-23T02:00:00,1678A,116.6092,23.2539,汕头市,潮阳子站,,12,12,14,5,4,59,21,24,22,8,6,8,8,0.6,0.6
2023-07-23T02:00:00,1680A,110.3539,21.2706,湛江市,湛江影剧院,,10,4,19,2,8,80,29,32,30,5,6,6,7,0.5,0.4
2023-07-23T02:00:00,1681A,110.3928,21.2228,湛江市,市环境监测站,,10,6,15,4,7,64,29,31,30,5,6,6,7,0.5,0.6
2023-07-23T02:00:00,1682A,110.4019,21.1997,湛江市,环保局宿舍,,,9,16,,6,66,30,30,30,4,7,2,4,0.5,0.6
2023-07-23T02:00:00,1683A,110.4111,21.2028,湛江市,霞山游泳场,,10,8,13,4,7,56,32,30,30,5,7,6,7,0.7,0.7
2023-07-23T02:00:00,1684A,110.3316,21.2679,湛江市,麻章区环保局,,10,8,22,7,8,96,23,26,24,7,11,4,5,0.5,0.6
2023-07-23T02:00:00,1685A,110.4558,21.2567,湛江市,坡头区环保局,,12,10,13,8,8,57,29,31,30,5,5,5,5,0.4,0.4
2023-07-23T02:00:00,1686A,111.0286,21.4688,茂名市,电白南海,,16,12,19,7,12,55,49,48,48,4,7,4,5,0.5,0.6
2023-07-23T02:00:00,1687A,110.9294,21.6533,茂名市,茂石化七小,,22,22,20,9,12,92,25,26,26,9,7,5,5,0.5,0.5
2023-07-23T02:00:00,1688A,110.9107,21.6687,茂名市,健康路,,10,7,15,2,5,92,31,30,30,6,6,5,6,0.4,0.4
2023-07-23T02:00:00,1689A,110.8592,21.6828,茂名市,高岭,,18,14,23,12,16,89,28,28,28,12,9,6,6,0.5,0.5
2023-07-23T02:00:00,1690A,116.1231,24.3284,梅州市,梅江月梅,,20,20,14,13,8,82,23,28,26,15,11,3,2,0.5,0.4
2023-07-23T02:00:00,1691A,116.0797,24.2719,梅州市,梅县新城,,34,34,18,8,8,71,12,14,13,24,12,6,5,0.6,0.6
2023-07-23T02:00:00,1692A,116.1248,24.2654,梅州市,环境监控中心,,25,25,18,12,8,76,16,17,16,19,14,6,3,0.6,0.6
2023-07-23T02:00:00,1693A,115.3653,22.775,汕尾市,市环保局,,11,11,12,4,5,59,26,33,30,7,5,7,7,0.5,0.5
2023-07-23T02:00:00,1694A,115.3706,22.7898,汕尾市,市政府,,15,14,14,10,6,64,24,28,26,11,5,5,4,0.5,0.5
2023-07-23T02:00:00,1695A,115.3622,22.7925,汕尾市,新城中学,,32,32,18,9,5,59,22,27,24,9,4,6,6,0.5,0.5
2023-07-23T02:00:00,1696A,114.6778,23.7569,河源市,源西,,11,11,19,6,10,91,31,31,31,5,11,5,5,0.6,0.6
2023-07-23T02:00:00,1697A,114.6944,23.7586,河源市,东埔,,31,31,25,3,9,94,29,29,29,10,13,5,5,0.6,0.6
2023-07-23T02:00:00,1698A,114.6892,23.7233,河源市,老城,,20,20,30,2,8,89,28,29,28,7,9,4,5,0.5,0.5
2023-07-23T02:00:00,1699A,111.9797,21.8593,阳江市,鸳鸯湖,,12,11,18,6,7,52,38,38,38,3,6,5,5,0.5,0.6
2023-07-23T02:00:00,1701A,111.9491,21.8658,阳江市,马南垌,,16,16,17,6,7,59,11,34,22,16,7,5,5,0.4,0.4
2023-07-23T02:00:00,1702A,113.0426,23.691,清远市,环保大楼,,25,25,33,13,19,164,26,35,30,20,19,9,8,0.4,0.4
2023-07-23T02:00:00,1703A,113.0208,23.7106,清远市,凤城街办,,,23,32,10,17,150,,40,40,19,15,10,9,0.4,0.6
2023-07-23T02:00:00,1705A,116.6367,23.6719,潮州市,西园路,,15,10,22,10,11,93,19,16,16,9,9,4,4,0.4,0.5
2023-07-23T02:00:00,1706A,116.6447,23.6706,潮州市,档案局,,24,24,23,8,10,119,12,14,13,12,10,7,7,0.4,0.4
2023-07-23T02:00:00,1708A,116.3701,23.5345,揭阳市,新兴,,19,19,21,6,10,80,22,22,22,6,6,6,6,0.4,0.5
2023-07-23T02:00:00,1709A,116.3264,23.5443,揭阳市,西马,,29,14,24,20,15,82,21,20,20,5,7,5,5,0.6,0.6
2023-07-23T02:00:00,1710A,116.3611,23.5626,揭阳市,东兴,,18,18,23,8,8,81,25,26,26,8,8,1,2,0.5,0.5
2023-07-23T02:00:00,1711A,116.4151,23.5294,揭阳市,渔湖,,22,19,19,15,8,77,20,21,20,9,6,3,3,0.5,0.5
2023-07-23T02:00:00,1712A,112.0392,22.9169,云浮市,新市府,,19,19,17,9,8,65,19,25,22,5,3,4,4,0.8,0.7
2023-07-23T02:00:00,1714A,112.0539,22.9539,云浮市,牧羊,,23,23,26,11,9,66,36,43,40,8,14,8,22,0.5,0.5
2023-07-23T02:00:00,1715A,102.575,24.3711,玉溪市,东风水库,,20,11,17,14,9,66,7,14,10,19,12,6,5,0.9,0.6
2023-07-23T02:00:00,1718A,115.4208,35.2464,菏泽市,气象局,颗粒物(PM10),56,62,41,33,25,155,88,88,88,10,7,3,3,0.4,0.3
2023-07-23T02:00:00,1719A,115.4747,35.2375,菏泽市,市政协,细颗粒物(PM2.5),52,47,37,36,26,159,103,105,104,7,6,4,4,0.2,0.2
2023-07-23T02:00:00,1721A,113.3819,40.1097,大同市,果树场,,49,31,25,34,26,126,62,33,33,23,21,5,4,0.7,0.6
2023-07-23T02:00:00,1723A,113.2994,40.0758,大同市,云冈宾馆,,27,27,27,16,17,139,71,96,84,22,15,12,8,0.7,0.7
2023-07-23T02:00:00,1724A,113.3444,40.0917,大同市,大同大学,,28,28,28,9,15,123,74,88,81,18,15,13,13,0.8,0.6
2023-07-23T02:00:00,1725A,113.2661,40.1269,大同市,安家小村,,34,34,25,6,9,129,64,60,60,16,11,10,8,1.0,0.7
2023-07-23T02:00:00,1726A,113.2711,40.0844,大同市,教育学院,,34,34,31,11,17,128,51,76,64,29,18,14,10,0.6,0.6
2023-07-23T02:00:00,1727A,113.1147,36.1547,长治市,清华站,颗粒物(PM10),51,52,34,19,16,158,46,56,51,27,12,8,8,0.9,0.9
2023-07-23T02:00:00,1728A,113.1031,36.1989,长治市,监测站,颗粒物(PM10),60,70,37,34,19,166,51,59,55,34,18,13,11,1.5,0.8
2023-07-23T02:00:00,1730A,113.0886,36.2125,长治市,审计局,细颗粒物(PM2.5),52,42,31,36,19,160,58,74,66,30,14,12,12,1.7,1.1
2023-07-23T02:00:00,1731A,113.0844,36.1856,长治市,长治八中,,44,44,34,26,16,158,63,74,68,29,11,14,10,0.8,0.7
2023-07-23T02:00:00,1733A,111.5531,36.0783,临汾市,临钢医院,颗粒物(PM10),60,70,39,21,26,142,24,32,28,52,23,7,6,0.8,0.8
2023-07-23T02:00:00,1734A,111.5028,36.0714,临汾市,技工学校,,33,33,43,8,16,141,40,50,45,43,22,6,6,0.7,0.8
2023-07-23T02:00:00,1736A,111.5018,36.0855,临汾市,市委,颗粒物(PM10),54,57,46,21,26,140,34,47,40,51,27,6,6,0.7,0.7
2023-07-23T02:00:00,1738A,113.5758,37.8572,阳泉市,市中心,,46,43,27,32,16,159,49,72,60,34,14,8,9,0.9,0.9
2023-07-23T02:00:00,1739A,113.4894,37.8731,阳泉市,赛鱼,,43,42,34,30,18,150,48,38,38,33,20,9,9,0.8,0.7
2023-07-23T02:00:00,1740A,113.5819,37.8486,阳泉市,南庄,颗粒物(PM10),54,57,36,22,17,162,69,77,73,17,13,8,9,0.9,0.9
2023-07-23T02:00:00,1742A,113.5614,37.8703,阳泉市,平坦,细颗粒物(PM2.5),58,54,38,41,22,161,31,45,38,53,16,8,8,0.8,0.8
2023-07-23T02:00:00,1743A,113.5158,37.8392,阳泉市,大阳泉,,47,47,30,25,23,152,79,83,81,15,12,10,9,0.8,0.7
2023-07-23T02:00:00,1744A,118.9233,42.2816,赤峰市,松山一中,,27,0,14,5,9,91,86,91,88,15,26,10,12,0.4,0.5
2023-07-23T02:00:00,1745A,118.9576,42.2728,赤峰市,哈达街,,29,5,19,6,14,101,92,95,94,5,19,12,16,0.3,0.4
2023-07-23T02:00:00,1746A,118.8788,42.2554,赤峰市,天义路,,29,5,15,4,10,108,92,92,92,5,17,14,15,0.3,0.4
2023-07-23T02:00:00,1748A,123.044,41.1196,鞍山市,深沟寺,,22,19,36,5,21,115,70,65,65,6,14,8,7,0.8,0.8
2023-07-23T02:00:00,1749A,123.011,41.0931,鞍山市,太阳城,,22,7,28,3,18,112,70,63,63,6,12,6,6,1.0,0.9
2023-07-23T02:00:00,1750A,123.0485,41.1442,鞍山市,太平,,23,8,43,5,24,125,71,67,67,4,23,4,6,0.9,1
2023-07-23T02:00:00,1751A,122.9642,41.0971,鞍山市,铁西三道街,,22,20,38,12,24,114,70,62,62,9,21,5,4,1.3,1
2023-07-23T02:00:00,1752A,122.9341,41.0833,鞍山市,铁西工业园区,,21,18,37,12,24,99,67,60,60,10,22,3,3,1.5,1.2
2023-07-23T02:00:00,1753A,123.022,41.0821,鞍山市,明达新区,,21,20,32,8,19,121,67,62,62,5,12,4,4,0.8,0.7
2023-07-23T02:00:00,1754A,123.1289,41.0228,鞍山市,千山,,,,,,,,,,,,,,,,
2023-07-23T02:00:00,1755A,123.7977,41.8491,抚顺市,望花区,,14,14,38,8,28,82,39,45,42,24,19,3,4,0.4,0.6
2023-07-23T02:00:00,1756A,123.9161,41.8822,抚顺市,顺城区,,19,15,32,13,22,92,47,54,50,10,14,1,2,0.8,0.6
2023-07-23T02:00:00,1757A,124.0436,41.8611,抚顺市,东洲区,,14,0,25,2,20,92,44,58,51,5,7,4,5,0.4,0.4
2023-07-23T02:00:00,1758A,123.9247,41.8642,抚顺市,新抚区,,16,15,33,11,24,86,31,44,38,10,13,4,4,0.9,0.6
2023-07-23T02:00:00,1759A,124.0972,41.8961,抚顺市,大伙房水库,,18,12,27,1,19,81,55,62,58,1,4,3,3,0.2,0.3
2023-07-23T02:00:00,1760A,123.7086,41.8391,抚顺市,沈抚新城,,14,11,45,4,28,78,42,43,42,14,29,4,7,0.7,1.4
2023-07-23T02:00:00,1761A,123.8275,41.3064,本溪市,大峪,,28,3,44,3,17,111,88,83,83,4,16,4,4,0.3,0.5
2023-07-23T02:00:00,1762A,123.7567,41.3325,本溪市,溪湖,,19,10,38,1,19,74,58,56,56,6,15,3,3,0.5,0.7
2023-07-23T02:00:00,1763A,123.7169,41.3094,本溪市,彩屯,,39,24,47,14,28,67,34,32,32,40,36,6,6,3.9,2
2023-07-23T02:00:00,1764A,123.7669,41.2864,本溪市,东明,,24,2,40,7,23,93,76,73,73,6,19,12,12,0.6,0.8
2023-07-23T02:00:00,1765A,123.7992,41.2664,本溪市,新立屯,,24,0,39,7,22,94,76,73,73,7,18,6,6,0.6,0.8
2023-07-23T02:00:00,1766A,123.8142,41.3472,本溪市,威宁,,,,45,3,25,78,56,54,54,6,19,6,6,0.4,0.6
2023-07-23T02:00:00,1767A,121.1115,41.0879,锦州市,南山,,21,10,12,6,12,95,65,64,64,6,10,5,4,1.2,0.8
2023-07-23T02:00:00,1768A,121.0533,40.8434,锦州市,开发区,,13,7,12,3,8,99,40,38,38,21,19,6,5,0.7,0.8
2023-07-23T02:00:00,1769A,121.1836,41.1119,锦州市,百股街道,,24,4,11,0,9,110,75,77,76,3,7,5,6,0.5,0.8
2023-07-23T02:00:00,1770A,121.1178,41.1222,锦州市,天安街道,,24,2,12,4,8,111,74,73,73,3,8,4,5,0.6,0.8
2023-07-23T02:00:00,1771A,121.1303,41.1386,锦州市,北湖公园,,23,6,14,0,6,102,73,72,72,10,9,11,6,0.7,0.7
2023-07-23T02:00:00,1772A,126.54,43.8622,吉林市,哈达湾,,17,13,38,10,24,116,52,54,53,3,14,5,6,0.6,0.8
2023-07-23T02:00:00,1773A,126.5844,43.8358,吉林市,东局子,,20,18,33,14,23,106,46,49,48,5,15,5,5,0.8,0.9
2023-07-23T02:00:00,1774A,126.5052,43.8245,吉林市,电力学院,,20,19,39,14,24,106,40,47,44,6,16,6,6,0.6,0.7
2023-07-23T02:00:00,1775A,126.6133,43.8972,吉林市,江北,,21,21,39,12,21,100,41,41,41,5,14,6,6,0.8,0.8
2023-07-23T02:00:00,1776A,126.555,43.8306,吉林市,江南公园,,21,21,37,14,28,100,43,47,45,7,20,4,4,0.7,0.9
2023-07-23T02:00:00,1778A,126.7061,43.7133,吉林市,丰满,,,,,,,,,,,,,,,,
2023-07-23T02:00:00,1779A,123.9305,47.3636,齐齐哈尔市,安居小区,,32,21,24,22,14,111,50,61,56,9,17,5,5,0.3,0.4
2023-07-23T02:00:00,1780A,123.9488,47.3386,齐齐哈尔市,中心广场,,22,22,16,2,4,118,55,63,59,10,14,3,3,0.3,0.3
2023-07-23T02:00:00,1781A,123.9483,47.3227,齐齐哈尔市,农牧车辆厂,,29,29,28,10,7,115,56,66,61,10,10,6,6,0.3,0.3
2023-07-23T02:00:00,1783A,123.945,47.2988,齐齐哈尔市,市环境监测站,,19,11,14,13,11,105,58,62,60,9,12,7,7,0.2,0.2
2023-07-23T02:00:00,1784A,129.61,44.561,牡丹江市,环保大楼,,19,7,15,9,11,67,58,58,58,6,10,5,5,0.4,0.5
2023-07-23T02:00:00,1785A,129.6115,44.5782,牡丹江市,文化广场,,18,8,14,10,14,64,55,55,55,5,11,4,5,0.4,0.5
2023-07-23T02:00:00,1786A,129.5904,44.5963,牡丹江市,第一医院,,19,18,18,6,12,62,58,57,57,4,8,4,4,0.3,0.4
2023-07-23T02:00:00,1787A,129.6364,44.6075,牡丹江市,机车工厂,,13,8,17,5,6,60,41,43,42,7,9,5,3,0.5,0.5
2023-07-23T02:00:00,1788A,129.6386,44.5462,牡丹江市,第一中学,,17,17,30,3,6,61,37,33,33,15,14,4,4,0.3,0.4
2023-07-23T02:00:00,1789A,124.81117,46.03138,大庆市,大同区,,26,13,11,8,10,101,81,82,82,5,6,4,3,0.2,0.3
2023-07-23T02:00:00,1790A,125.129,46.533,大庆市,龙凤区,,13,6,8,3,6,103,39,58,48,5,6,4,4,0.2,0.4
2023-07-23T02:00:00,1791A,124.902,46.408,大庆市,红岗区,,20,9,11,7,13,113,61,60,60,8,6,3,3,0.4,0.3
2023-07-23T02:00:00,1792A,125.153,46.586,大庆市,萨尔图区,,12,9,8,7,6,102,36,55,46,5,7,3,3,0.4,0.4
2023-07-23T02:00:00,1793A,124.9042,46.6215,大庆市,让胡路区,,17,9,10,7,7,116,54,57,56,8,10,3,2,0.2,0.3
2023-07-23T02:00:00,1794A,118.3606,31.3519,芜湖市,监测站,,20,20,22,13,10,57,2,3,2,37,30,4,7,0.6,0.9
2023-07-23T02:00:00,1795A,118.3714,31.4134,芜湖市,科创中心,,33,17,21,23,13,61,2,2,2,42,32,9,9,0.9,0.8
2023-07-23T02:00:00,1796A,118.3673,31.3131,芜湖市,四水厂,,17,17,17,11,7,71,27,28,28,17,19,3,3,0.8,0.7
2023-07-23T02:00:00,1798A,118.5092,31.6837,马鞍山市,湖东路四小,,38,25,18,26,14,66,8,6,6,31,18,9,7,1.0,0.9
2023-07-23T02:00:00,1799A,118.5024,31.6449,马鞍山市,开发区,,41,41,24,21,11,58,1,6,4,37,22,8,8,0.8,0.8
2023-07-23T02:00:00,1800A,118.5228,31.7231,马鞍山市,慈湖,,48,48,23,25,13,66,10,8,8,33,19,8,7,0.8,0.7
2023-07-23T02:00:00,1802A,118.6245,31.7241,马鞍山市,濮塘,,19,10,8,13,11,77,24,27,26,11,13,4,4,0.6,0.6
2023-07-23T02:00:00,1803A,115.9872,29.6815,九江市,十里,,19,19,15,2,8,49,9,8,8,24,21,9,10,0.5,0.5
2023-07-23T02:00:00,1804A,115.9584,29.7046,九江市,茅山头,,11,5,11,3,7,52,26,26,26,22,23,7,8,0.7,0.8
2023-07-23T02:00:00,1805A,115.9877,29.7295,九江市,西园,,16,16,16,4,6,52,30,33,32,19,23,9,9,0.8,0.6
2023-07-23T02:00:00,1806A,116.0172,29.6547,九江市,五七二七厂,,19,19,14,3,4,54,6,8,7,16,6,8,7,0.7,0.7
2023-07-23T02:00:00,1808A,115.9114,29.6038,九江市,综合工业园,,14,14,21,7,7,43,22,31,26,16,26,10,10,0.7,0.8
2023-07-23T02:00:00,1809A,116.0721,29.7535,九江市,石化总厂,,16,16,15,4,7,50,42,38,38,12,19,9,11,0.5,0.6
2023-07-23T02:00:00,1810A,115.9773,29.5698,九江市,庐山气象台,,21,3,8,5,6,91,65,70,68,2,2,7,7,0.5,0.9
2023-07-23T02:00:00,1812A,112.3931,34.6516,洛阳市,市委党校,细颗粒物(PM2.5),79,59,42,58,35,163,85,91,88,8,8,4,2,1.1,0.9
2023-07-23T02:00:00,1814A,112.4657,34.6871,洛阳市,豫西宾馆,颗粒物(PM10),75,99,56,52,32,167,81,84,82,11,9,4,2,1.0,0.8
2023-07-23T02:00:00,1815A,112.494,34.6886,洛阳市,河南林校,颗粒物(PM10),53,55,44,31,24,166,76,83,80,20,13,5,4,0.9,0.6
2023-07-23T02:00:00,1816A,112.3844,34.623,洛阳市,开发区管委会,颗粒物(PM10),63,76,48,40,25,173,90,98,94,16,13,9,8,0.9,0.6
2023-07-23T02:00:00,1817A,112.4267,34.6258,洛阳市,市委新办公区,细颗粒物(PM2.5),73,82,51,53,34,172,79,87,83,14,10,1,3,0.6,0.4
2023-07-23T02:00:00,1818A,114.4839,36.0621,安阳市,棉研所,颗粒物(PM10),64,78,39,30,18,151,46,56,51,32,11,6,7,0.9,0.9
2023-07-23T02:00:00,1819A,114.3551,36.1017,安阳市,红庙街,细颗粒物(PM2.5),65,60,45,47,29,156,86,92,89,6,5,3,4,0.6,0.7
2023-07-23T02:00:00,1820A,114.361,36.0681,安阳市,银杏小区,细颗粒物(PM2.5),108,68,43,81,43,160,74,90,82,16,7,6,5,0.7,0.8
2023-07-23T02:00:00,1824A,114.3389,34.7781,开封市,肿瘤医院,,49,49,36,29,18,129,50,56,53,17,7,3,3,0.6,0.5
2023-07-23T02:00:00,1826A,114.2885,34.7965,开封市,世纪星幼儿园,,,39,33,,,140,,69,69,18,9,3,3,0.7,0.6
2023-07-23T02:00:00,1828A,113.227,35.2125,焦作市,市环保局,细颗粒物(PM2.5),62,57,58,44,39,134,94,97,96,10,12,4,4,1.0,0.9
2023-07-23T02:00:00,1830A,113.1992,35.2590,焦作市,影视城,,,,,,,,,,,,,,,,
2023-07-23T02:00:00,1832A,113.3257,33.742,平顶山市,新华旅馆,,43,43,35,29,19,150,54,50,50,28,20,2,3,0.5,0.5
2023-07-23T02:00:00,1833A,113.2919,33.737,平顶山市,规划设计院,,27,27,34,8,16,146,64,64,64,18,14,6,7,0.7,0.7
2023-07-23T02:00:00,1834A,113.182,33.774,平顶山市,平顶山工学院,,40,40,33,14,13,143,68,70,69,16,12,4,4,0.5,0.4
2023-07-23T02:00:00,1835A,111.1922,34.7752,三门峡市,市政府,颗粒物(PM10),55,59,52,22,27,175,32,28,28,57,17,4,5,0.5,0.6
2023-07-23T02:00:00,1836A,111.1587,34.7942,三门峡市,开发区,颗粒物(PM10),59,67,54,26,28,174,48,50,49,34,14,4,5,0.8,0.6
2023-07-23T02:00:00,1838A,111.143,34.7955,三门峡市,风景区,,42,42,44,22,28,177,57,91,74,23,12,6,8,0.6,0.4
2023-07-23T02:00:00,1840A,111.2992,30.6981,宜昌市,白龙岗,,34,34,28,17,8,158,33,37,35,21,17,3,6,0.6,0.5
2023-07-23T02:00:00,1841A,111.3549,30.6465,宜昌市,伍家岗,,32,32,25,19,11,165,29,31,30,39,19,2,3,0.6,0.5
2023-07-23T02:00:00,1842A,111.2628,30.6961,宜昌市,点军区,,38,38,28,9,6,154,39,57,48,12,14,4,4,0.6,0.6
2023-07-23T02:00:00,1843A,111.3275,30.7819,宜昌市,夷陵区,,26,26,27,7,5,140,37,42,40,14,13,2,2,0.5,0.5
2023-07-23T02:00:00,1844A,112.2494,30.3197,荆州市,市图书馆,,35,28,18,24,12,116,45,46,46,13,9,7,7,0.6,0.6
2023-07-23T02:00:00,1845A,112.2008,30.3544,荆州市,市委党校,,36,27,23,25,16,119,50,56,53,12,9,10,7,0.5,0.6
2023-07-23T02:00:00,1847A,113.1094,29.3578,岳阳市,南湖风景区,,19,19,16,13,10,82,30,33,32,17,12,12,8,0.5,0.6
2023-07-23T02:00:00,1848A,113.1493,29.4251,岳阳市,城陵矶,,19,16,15,13,9,84,37,34,34,12,16,6,6,0.9,0.9
2023-07-23T02:00:00,1849A,113.1497,29.3575,岳阳市,开发区,,19,19,17,3,5,77,32,30,30,11,11,8,8,0.5,0.5
2023-07-23T02:00:00,1850A,113.2621,29.4758,岳阳市,云溪区,,12,10,11,5,5,70,37,37,37,2,7,5,6,0.5,0.6
2023-07-23T02:00:00,1851A,112.9943,29.4402,岳阳市,君山区,,22,18,14,15,8,85,36,36,36,11,10,8,7,0.5,0.5
2023-07-23T02:00:00,1852A,113.2117,29.355,岳阳市,金凤水库,,15,14,11,10,6,81,36,32,32,5,5,6,3,0.5,0.4
2023-07-23T02:00:00,1854A,111.6975,28.9703,常德市,市二中,,16,16,11,10,8,76,32,32,32,8,7,3,3,0.5,0.5
2023-07-23T02:00:00,1857A,111.7158,29.1456,常德市,白鹤山,,,11,8,,6,69,32,40,36,6,4,7,6,0.5,0.5
2023-07-23T02:00:00,1858A,110.5319,29.1217,张家界市,永定新区,,33,33,16,18,11,76,13,17,15,11,6,5,5,0.3,0.2
2023-07-23T02:00:00,1859A,110.4697,29.1242,张家界市,电业局,,23,9,16,16,14,52,36,35,35,6,9,3,9,0.2,0.3
2023-07-23T02:00:00,1860A,110.5594,29.3547,张家界市,未央路,,20,20,16,11,12,81,17,17,17,7,8,3,3,0.3,0.3
2023-07-23T02:00:00,1861A,110.4417,29.315,张家界市,袁家界,,12,12,13,8,9,73,18,19,18,2,3,6,6,0.5,0.5
2023-07-23T02:00:00,1862A,110.4144,25.3167,桂林市,电子科大尧山校区,,24,24,26,16,14,105,31,30,30,8,6,4,6,0.6,0.5
2023-07-23T02:00:00,1863A,110.2819,25.2697,桂林市,监测站,,30,30,26,15,13,98,54,66,60,10,8,5,4,0.5,0.5
2023-07-23T02:00:00,1864A,110.3089,25.2708,桂林市,龙隐路小学,,30,30,26,16,14,94,53,58,56,8,9,9,7,0.4,0.4
2023-07-23T02:00:00,1865A,110.2869,25.2178,桂林市,八中,,22,22,25,12,12,97,53,58,56,8,10,4,4,0.5,0.4
2023-07-23T02:00:00,1866A,109.2262,21.588,北海市,牛尾岭水库,,13,13,16,8,8,46,19,18,18,8,7,23,8,0.4,0.4
2023-07-23T02:00:00,1867A,109.1436,21.4086,北海市,海滩公园,,12,12,16,2,3,61,32,35,34,4,3,4,4,0.6,0.6
2023-07-23T02:00:00,1868A,109.0981,21.4661,北海市,新市环保局,,17,17,14,9,8,59,35,40,38,4,4,4,3,0.5,0.5
2023-07-23T02:00:00,1869A,109.1778,21.5233,北海市,北海工业园,,23,23,22,10,12,56,31,31,31,4,4,4,4,0.6,0.6
2023-07-23T02:00:00,1870A,109.4856,24.3895,柳州市,柳东小学,,38,29,22,26,16,96,59,62,60,8,8,6,7,0.3,0.2
2023-07-23T02:00:00,1871A,109.4157,24.3277,柳州市,环保监测站,,38,38,26,23,9,88,51,58,54,10,10,5,5,0.4,0.4
2023-07-23T02:00:00,1872A,109.389,24.341,柳州市,河西水厂,,36,36,29,24,16,89,46,53,50,15,13,4,5,0.6,0.5
2023-07-23T02:00:00,1873A,109.4311,24.2921,柳州市,市四中,,34,34,27,20,16,89,53,57,55,11,10,6,6,0.6,0.6
2023-07-23T02:00:00,1874A,109.4006,24.3631,柳州市,市九中,,37,37,35,16,15,89,50,58,54,10,11,7,7,0.7,0.7
2023-07-23T02:00:00,1875A,109.4958,24.3134,柳州市,古亭山,,26,26,25,17,15,90,52,61,56,16,13,5,6,0.7,0.6
2023-07-23T02:00:00,1876A,109.5078,18.2489,三亚市,河东子站,,23,23,13,8,5,41,20,20,20,6,4,1,1,0.4,0.4
2023-07-23T02:00:00,1877A,109.4964,18.2681,三亚市,河西子站,,14,14,12,6,6,48,18,20,19,8,6,1,1,0.5,0.2
2023-07-23T02:00:00,1878A,104.7778,31.4741,绵阳市,富乐山,,46,29,33,32,26,175,74,91,82,8,10,3,3,0.6,0.6
2023-07-23T02:00:00,1879A,104.7563,31.4535,绵阳市,市人大,,43,40,33,30,24,170,69,77,73,22,16,4,4,0.5,0.6
2023-07-23T02:00:00,1880A,104.6697,31.4668,绵阳市,高新区自来水公司,,45,36,46,31,34,176,89,95,92,13,18,8,7,0.6,0.6
2023-07-23T02:00:00,1881A,104.7287,31.5075,绵阳市,三水厂,,49,48,49,34,30,180,41,64,52,47,27,4,5,0.8,0.7
2023-07-23T02:00:00,1882A,104.563,28.793,宜宾市,石马中学,,38,38,23,20,12,174,49,48,48,26,14,12,7,0.6,0.5
2023-07-23T02:00:00,1883A,104.6201,28.7728,宜宾市,市委,颗粒物(PM10),63,76,28,38,15,148,39,65,52,34,16,11,10,0.7,0.5
2023-07-23T02:00:00,1884A,104.6055,28.793,宜宾市,宜宾四中,颗粒物(PM10),51,52,27,30,14,152,50,72,61,31,17,13,9,0.7,0.6
2023-07-23T02:00:00,1885A,104.639,28.7562,宜宾市,市政府,,48,48,35,33,17,141,51,75,63,30,17,7,8,0.8,0.7
2023-07-23T02:00:00,1886A,104.5742,28.7199,宜宾市,黄金嘴,,38,38,21,21,12,154,24,38,31,40,17,6,6,0.7,0.7
2023-07-23T02:00:00,1888A,101.6891,26.571,攀枝花市,弄弄坪,,39,39,36,10,15,139,26,34,30,16,15,6,10,0.8,0.9
2023-07-23T02:00:00,1889A,101.5769,26.5928,攀枝花市,河门口,,15,15,29,8,16,162,17,34,26,21,18,8,15,1.1,1.3
2023-07-23T02:00:00,1890A,101.7169,26.585,攀枝花市,炳草岗,,43,43,37,19,19,138,8,14,11,37,22,27,18,1.5,1.1
2023-07-23T02:00:00,1891A,101.7369,26.5008,攀枝花市,仁和,,12,12,26,8,18,126,18,20,19,16,13,9,14,0.8,0.9
2023-07-23T02:00:00,1893A,105.4324,28.9634,泸州市,九狮山,,34,34,22,18,10,117,48,93,70,24,17,6,6,0.6,0.4
2023-07-23T02:00:00,1894A,105.4427,28.9063,泸州市,小市上码头,,42,36,29,29,17,138,120,120,120,14,11,8,10,0.9,0.8
2023-07-23T02:00:00,1895A,105.4241,28.8573,泸州市,兰田宪桥,,45,45,33,26,19,137,76,90,83,21,13,8,8,0.9,0.8
2023-07-23T02:00:00,1896A,105.4379,28.8833,泸州市,市环监站,,36,36,27,24,14,137,110,107,107,12,11,5,10,0.6,0.7
2023-07-23T02:00:00,1901A,104.4239,31.1208,德阳市,东山公园,,29,24,25,20,21,175,76,101,88,6,8,1,1,0.5,0.5
2023-07-23T02:00:00,1902A,104.3826,31.1317,德阳市,西小区,,36,36,46,21,30,186,80,92,86,12,18,3,4,0.5,0.6
2023-07-23T02:00:00,1904A,104.3553,31.1091,德阳市,耐火材料厂,细颗粒物(PM2.5),53,38,36,37,32,196,59,82,70,17,14,3,4,0.7,0.7
2023-07-23T02:00:00,1905A,106.056,30.8064,南充市,西山风景区,,45,44,21,31,16,128,62,87,74,13,7,6,3,0.6,0.4
2023-07-23T02:00:00,1906A,106.0789,30.8023,南充市,南充市委,,30,30,30,17,14,126,37,52,44,30,15,9,12,0.5,0.5
2023-07-23T02:00:00,1907A,106.1031,30.8217,南充市,南充炼油厂,颗粒物(PM10),52,54,36,29,19,129,83,80,80,16,15,9,14,0.4,0.3
2023-07-23T02:00:00,1908A,106.1064,30.7856,南充市,高坪区监测站,细颗粒物(PM2.5),55,43,30,39,20,124,23,52,38,51,20,9,19,0.2,0.2
2023-07-23T02:00:00,1909A,106.0642,30.7636,南充市,嘉陵区环保局,,,109,39,,18,125,46,49,48,38,19,146,19,0.5,0.3
2023-07-23T02:00:00,1910A,106.1087,30.8388,南充市,市环境监测站,细颗粒物(PM2.5),53,48,30,37,22,127,52,58,55,25,18,6,10,0.4,0.4
2023-07-23T02:00:00,1911A,106.9222,27.6869,遵义市,丁字口,,29,28,22,20,12,115,27,27,27,31,18,4,5,0.7,0.6
2023-07-23T02:00:00,1912A,106.9242,27.7019,遵义市,凤凰山,,36,28,27,25,21,125,35,47,41,25,11,8,8,0.6,0.4
2023-07-23T02:00:00,1913A,106.8906,27.6486,遵义市,忠庄,,41,41,23,25,12,128,37,57,47,25,13,2,2,0.7,0.6
2023-07-23T02:00:00,1914A,106.9231,27.6506,遵义市,舟水桥,,40,40,23,18,17,122,17,18,18,17,13,1,2,0.6,0.6
2023-07-23T02:00:00,1915A,106.9178,27.72,遵义市,干田坝,,22,22,20,9,11,132,22,22,22,25,15,5,6,0.6,0.5
2023-07-23T02:00:00,1916A,103.7897,25.5035,曲靖市,环境监测站,,24,24,24,11,13,74,12,9,9,19,19,7,3,0.8,0.7
2023-07-23T02:00:00,1917A,103.8,25.5364,曲靖市,烟厂办公区,,32,32,27,18,15,76,17,14,14,18,17,9,6,0.9,0.7
2023-07-23T02:00:00,1918A,108.7197,34.3956,咸阳市,气象站,,,,,,,,,,,,,,,,
2023-07-23T02:00:00,1919A,108.673,34.3155,咸阳市,实验中学,颗粒物(PM10),53,55,67,25,28,201,40,47,44,53,34,5,5,0.6,0.6
2023-07-23T02:00:00,1920A,108.7233,34.3617,咸阳市,师范学院,颗粒物(PM10),70,90,77,41,31,227,52,48,48,67,40,10,9,0.7,0.7
2023-07-23T02:00:00,1922A,109.0656,35.0994,铜川市,党校,,47,47,57,32,24,217,32,33,32,36,22,7,7,1.0,0.9
2023-07-23T02:00:00,1923A,109.0697,35.0697,铜川市,王益区政府,颗粒物(PM10),55,60,50,30,25,218,41,43,42,29,17,4,4,0.7,0.6
2023-07-23T02:00:00,1924A,108.9344,34.9058,铜川市,新区管委会,,47,47,60,26,27,217,109,110,110,14,17,6,6,0.5,0.5
2023-07-23T02:00:00,1926A,109.4131,36.6275,延安市,枣园,,42,42,23,12,8,158,25,34,30,37,22,6,7,0.5,0.4
2023-07-23T02:00:00,1927A,109.4761,36.6028,延安市,延大医附院,,43,43,27,14,10,154,16,16,16,50,29,4,5,0.2,0.1
2023-07-23T02:00:00,1929A,109.5056,36.6106,延安市,百米大道,,37,37,28,9,9,150,18,17,17,55,32,5,6,0.4,0.4
2023-07-23T02:00:00,1930A,107.185,34.3063,宝鸡市,庙沟村,,34,34,30,14,13,146,76,81,78,19,11,8,9,0.3,0.2
2023-07-23T02:00:00,1931A,107.0708,34.3017,宝鸡市,竹园沟,,35,26,31,24,12,188,69,70,70,20,18,5,6,0.4,0.4
2023-07-23T02:00:00,1932A,107.1906,34.3672,宝鸡市,三陆医院,颗粒物(PM10),55,59,49,27,17,185,67,83,75,39,25,35,12,0.5,0.4
2023-07-23T02:00:00,1933A,107.1431,34.3547,宝鸡市,监测站,,38,38,36,18,12,180,72,88,80,28,16,9,10,0.3,0.3
2023-07-23T02:00:00,1934A,107.1186,34.3739,宝鸡市,技工学校,,40,40,40,24,18,184,89,92,90,19,15,8,6,0.4,0.3
2023-07-23T02:00:00,1935A,107.3906,34.3528,宝鸡市,陈仓区环保局家属楼,颗粒物(PM10),58,66,51,23,19,178,22,18,18,66,33,5,8,0.4,0.4
2023-07-23T02:00:00,1936A,107.2058,34.3497,宝鸡市,文理学院,颗粒物(PM10),52,53,45,22,21,185,85,92,88,22,17,11,12,0.3,0.4
2023-07-23T02:00:00,1937A,107.2386,34.3622,宝鸡市,三迪小学,颗粒物(PM10),52,54,48,26,16,179,73,82,78,34,24,7,8,0.3,0.3
2023-07-23T02:00:00,1938A,109.5293,34.5101,渭南市,农科所,,29,29,60,19,28,196,76,80,78,14,20,4,6,0.6,0.7
2023-07-23T02:00:00,1939A,109.4974,34.4877,渭南市,日报社,,36,36,67,23,30,214,64,70,67,18,27,6,9,0.3,0.4
2023-07-23T02:00:00,1940A,109.4636,34.493,渭南市,体育馆,,31,31,63,15,25,230,70,60,60,31,33,4,10,0.4,0.5
2023-07-23T02:00:00,1941A,109.4259,34.5023,渭南市,高新一小,颗粒物(PM10),56,61,73,22,26,230,40,52,46,39,25,5,7,0.5,0.5
2023-07-23T02:00:00,1943A,102.1725,38.5339,金昌市,新川苑,,20,20,37,9,10,135,63,65,64,15,21,8,22,0.6,0.6
2023-07-23T02:00:00,1944A,102.1692,38.5167,金昌市,天庆家园,,21,21,23,4,11,141,65,52,52,24,24,6,11,0.7,0.7
2023-07-23T02:00:00,1945A,98.2908,39.7711,嘉峪关市,气象局,,24,14,20,7,7,140,74,68,68,32,23,1,3,0.1,0.1
2023-07-23T02:00:00,1947A,106.3394,38.817,石嘴山市,沙湖旅游区,,30,30,38,16,10,202,68,108,88,20,17,17,20,0.8,0.6
2023-07-23T02:00:00,1948A,106.3668,39.0145,石嘴山市,大武口朝阳西街,,44,44,47,19,16,184,82,88,85,30,26,20,16,0.7,0.4
2023-07-23T02:00:00,1949A,106.7704,39.2282,石嘴山市,惠农南大街,,31,31,46,9,13,181,86,78,78,19,30,5,16,0.2,0.6
2023-07-23T02:00:00,1950A,106.7099,39.1325,石嘴山市,红果子镇惠新街,,40,40,50,11,18,191,40,61,50,40,28,12,21,0.5,0.6
2023-07-23T02:00:00,1951A,84.895,45.6094,克拉玛依市,长征新村,,34,20,24,8,6,122,108,106,106,2,9,9,9,0.1,0.2
2023-07-23T02:00:00,1952A,84.8988,45.5893,克拉玛依市,南林小区,,34,22,22,20,9,124,107,106,106,5,12,2,3,0.1,0.1
2023-07-23T02:00:00,1954A,84.905,44.3396,克拉玛依市,独山子区,,34,34,33,19,13,142,101,116,108,7,9,6,6,0.4,0.3
2023-07-23T02:00:00,1955A,85.6979,46.098,克拉玛依市,乌尔禾区商贸楼,,26,9,16,14,6,122,82,90,86,3,5,6,6,0.2,0.3
2023-07-23T02:00:00,1956A,86.1472,41.7538,巴音郭楞州,孔雀公园,,37,30,58,14,13,127,117,117,117,7,11,6,5,0.2,0.3
2023-07-23T02:00:00,1957A,86.1972,41.7166,巴音郭楞州,棉纺厂,,44,44,54,19,18,124,101,94,94,10,12,9,5,0.3,0.2
2023-07-23T02:00:00,1958A,86.2357,41.7173,巴音郭楞州,经济开发区,,35,20,42,13,16,126,112,114,113,4,4,4,5,0.2,0.2
2023-07-23T02:00:00,1961A,117.532,36.6868,济南市,东山小学,,46,46,29,24,16,162,28,31,30,39,17,4,4,0.4,0.4
2023-07-23T02:00:00,1966A,120.0405,35.8735,青岛市,黄岛区4号,,41,41,24,27,16,137,78,89,84,15,11,2,4,0.4,0.4
2023-07-23T02:00:00,1982A,122.0693,37.2174,威海市,文登开发区,,32,24,22,22,14,112,70,83,76,7,6,5,5,0.6,0.5
2023-07-23T02:00:00,2031A,113.1817,27.9958,株洲市,云田中学,,26,26,21,2,9,117,29,33,31,8,9,6,7,0.5,0.4
2023-07-23T02:00:00,2054A,114.1099,32.1059,信阳市,平桥分局,,25,25,14,5,5,97,57,60,58,8,5,3,2,0.6,0.6
2023-07-23T02:00:00,2064A,113.9956,32.1271,信阳市,南湾水厂,,25,23,20,8,6,97,77,76,76,5,3,1,1,0.5,0.5
2023-07-23T02:00:00,2065A,114.0775,32.1195,信阳市,市酿酒公司,,19,18,15,12,12,94,60,60,60,8,8,3,3,0.7,0.6
2023-07-23T02:00:00,2066A,114.0609,32.1399,信阳市,审计局,,27,27,20,13,13,102,70,69,69,4,4,3,1,0.6,0.6
2023-07-23T02:00:00,2067A,114.6613,33.6128,周口市,市环境监测站,,,,42,13,15,149,57,64,60,12,9,2,2,0.5,0.5
2023-07-23T02:00:00,2068A,114.6758,33.6347,周口市,周口师范,,22,22,24,7,8,148,59,67,63,8,6,2,3,0.4,0.4
2023-07-23T02:00:00,2069A,114.6546,33.5979,周口市,市运管处,,15,15,22,5,10,150,48,55,52,13,9,2,2,0.6,0.6
2023-07-23T02:00:00,2070A,114.6369,33.6406,周口市,川汇区环保局,,21,21,21,5,5,138,56,63,60,8,5,1,1,0.5,0.5
2023-07-23T02:00:00,2075A,117.6336,24.4674,漳州市,九湖,,,,,,,,,,,,,,,,
2023-07-23T02:00:00,2160A,112.85,35.5051,晋城市,自来水公司,颗粒物(PM10),62,73,54,31,22,185,154,156,155,11,13,8,9,0.9,0.8
2023-07-23T02:00:00,2161A,112.8318,35.4936,晋城市,白云商贸,颗粒物(PM10),58,66,40,34,22,176,141,141,141,14,14,8,9,0.8,0.8
2023-07-23T02:00:00,2162A,112.8508,35.4887,晋城市,市环保局,颗粒物(PM10),59,67,52,41,28,167,134,137,136,13,14,8,9,0.8,0.8
2023-07-23T02:00:00,2163A,112.8676,35.4897,晋城市,技术学院,颗粒物(PM10),58,65,53,31,25,171,136,139,138,11,14,7,8,0.9,0.9
2023-07-23T02:00:00,2165A,112.8453,35.546,晋城市,白马寺,细颗粒物(PM2.5),80,52,33,59,32,169,116,112,112,3,9,6,6,0.8,0.7
2023-07-23T02:00:00,2166A,112.4397,39.3522,朔州市,平朔,颗粒物(PM10),65,79,41,25,23,125,18,26,22,42,13,6,6,0.7,0.6
2023-07-23T02:00:00,2167A,112.4575,39.3617,朔州市,朔唯,颗粒物(PM10),61,72,33,15,24,141,36,41,38,48,19,7,7,0.5,0.6
2023-07-23T02:00:00,2168A,112.4258,39.3197,朔州市,区政府,颗粒物(PM10),53,55,34,10,18,122,42,38,38,22,16,5,8,0.5,0.6
2023-07-23T02:00:00,2169A,112.4072,39.3278,朔州市,市环保局,颗粒物(PM10),56,62,42,13,20,130,50,47,47,16,9,4,8,0.5,0.5
2023-07-23T02:00:00,2170A,112.4272,39.3681,朔州市,市二中,颗粒物(PM10),72,93,48,23,24,133,11,16,14,50,17,7,7,0.4,0.4
2023-07-23T02:00:00,2171A,112.7532,37.6945,晋中市,锦纶小区,,44,44,39,19,13,198,69,60,60,25,21,11,12,0.6,0.5
2023-07-23T02:00:00,2173A,112.7249,37.7067,晋中市,南都小区,颗粒物(PM10),51,51,42,29,21,200,60,58,58,36,20,6,7,0.5,0.5
2023-07-23T02:00:00,2174A,112.6991,37.6982,晋中市,榆次区政府,颗粒物(PM10),61,72,37,18,21,198,55,61,58,40,21,10,11,0.6,0.5
2023-07-23T02:00:00,2175A,110.9956,35.0147,运城市,运城中学,颗粒物(PM10),52,54,59,22,24,186,68,65,65,26,16,5,6,0.3,0.6
2023-07-23T02:00:00,2178A,110.9686,35.0303,运城市,地区技校,颗粒物(PM10),67,84,60,31,25,182,9,6,6,58,20,4,5,0.5,0.5
2023-07-23T02:00:00,2179A,111.0414,35.1147,运城市,空港新区,颗粒物(PM10),65,80,76,29,34,178,71,66,66,26,18,3,5,0.7,1
2023-07-23T02:00:00,2181A,112.7383,38.4519,忻州市,开发区,,42,35,33,29,22,137,52,44,44,34,21,10,10,0.5,0.5
2023-07-23T02:00:00,2182A,112.7003,38.4928,忻州市,会展中心,,36,27,33,25,21,131,63,56,56,26,18,8,8,0.5,0.4
2023-07-23T02:00:00,2183A,111.1406,37.5211,吕梁市,环保局,颗粒物(PM10),53,56,38,19,14,157,29,28,28,58,32,6,5,0.6,0.5
2023-07-23T02:00:00,2185A,111.1297,37.5136,吕梁市,自来水公司,颗粒物(PM10),70,90,46,28,17,153,18,37,28,60,26,4,6,0.5,0.5
2023-07-23T02:00:00,2187A,106.8174,39.6973,乌海市,市林业局,颗粒物(PM10),58,66,41,13,13,147,126,135,130,6,16,9,10,0.6,0.7
2023-07-23T02:00:00,2188A,106.7907,39.6667,乌海市,中海勃湾学校,颗粒物(PM10),55,60,38,11,13,147,129,128,128,10,25,12,10,0.3,0.5
2023-07-23T02:00:00,2191A,122.2532,43.6801,通辽市,艺术职业学校,,26,20,31,16,13,97,81,87,84,8,11,5,5,0.6,0.6
2023-07-23T02:00:00,2192A,119.7594,49.2261,呼伦贝尔市,区环保局,,17,10,17,10,11,88,53,52,52,5,9,4,4,0.3,0.4
2023-07-23T02:00:00,2195A,107.4212,40.761,巴彦淖尔市,附二中,颗粒物(PM10),59,67,32,16,15,169,88,130,109,21,15,2,4,0.4,0.5
2023-07-23T02:00:00,2196A,107.37,40.7372,巴彦淖尔市,市环保大楼,颗粒物(PM10),59,68,40,16,16,161,91,109,100,17,15,2,3,0.4,0.4
2023-07-23T02:00:00,2197A,113.1306,40.9923,乌兰察布市,集宁新区,,38,38,29,21,20,135,32,41,36,38,17,12,11,0.4,0.6
2023-07-23T02:00:00,2200A,122.0392,46.0656,兴安盟,胜华新制药厂,,27,8,16,16,13,96,84,83,83,5,14,2,3,0.3,0.7
2023-07-23T02:00:00,2201A,121.9504,46.0741,兴安盟,科右前旗环保局,,28,7,19,16,12,108,88,88,88,5,9,3,3,0.5,0.5
2023-07-23T02:00:00,2202A,116.1042,43.9317,锡林郭勒盟,市环保监测站,,32,15,33,6,13,121,102,98,98,3,5,5,7,0.4,0.4
2023-07-23T02:00:00,2203A,116.0781,43.9311,锡林郭勒盟,市政府,,33,18,28,9,21,129,105,102,102,5,9,9,11,0.3,0.4
2023-07-23T02:00:00,2204A,105.6467,38.8363,阿拉善盟,西城区西花园,,44,19,19,16,11,148,140,146,143,13,16,11,9,0.5,0.4
2023-07-23T02:00:00,2205A,105.6985,38.8411,阿拉善盟,蒙二幼,,42,21,16,7,5,145,132,128,128,3,6,10,8,0.5,0.4
2023-07-23T02:00:00,2206A,105.724,38.8516,阿拉善盟,环保局新楼,,45,11,12,13,10,144,144,138,138,4,5,12,10,0.4,0.4
2023-07-23T02:00:00,2207A,121.6094,41.998,阜新市,工业园区,,25,4,24,0,12,89,77,76,76,6,20,3,9,0.7,1
2023-07-23T02:00:00,2208A,121.6697,42.0279,阜新市,长青街,,,8,25,,18,86,73,76,74,4,17,4,9,0.6,0.8
2023-07-23T02:00:00,2209A,121.6673,42.0705,阜新市,农业园区,,,,,,,,,,,,,,,,
2023-07-23T02:00:00,2210A,121.6717,42.0224,阜新市,东苑,,25,0,27,6,20,99,79,82,80,2,10,4,16,0.4,0.7
2023-07-23T02:00:00,2211A,121.6506,42.0498,阜新市,玉龙新城,,23,4,23,5,16,95,73,74,74,3,11,3,2,0.6,0.9
2023-07-23T02:00:00,2212A,123.2,41.1953,辽阳市,宏伟区,,14,3,39,4,18,112,42,48,45,11,14,3,4,0.5,0.6
2023-07-23T02:00:00,2213A,123.1683,41.2495,辽阳市,新华园,,14,8,45,5,23,99,44,49,46,11,18,2,7,0.6,0.6
2023-07-23T02:00:00,2214A,123.2354,41.2639,辽阳市,滨河路,,15,10,37,5,25,94,45,52,48,14,23,6,6,0,0.7
2023-07-23T02:00:00,2215A,123.149,41.2991,辽阳市,铁西工业园,,38,38,51,14,25,92,52,54,53,11,20,5,6,1.0,0.8
2023-07-23T02:00:00,2216A,123.8139,42.3022,铁岭市,汇工街西,,16,6,39,7,24,92,50,60,55,11,15,7,7,0.6,0.5
2023-07-23T02:00:00,2217A,123.8649,42.2923,铁岭市,水上乐园,,15,10,33,5,21,77,48,60,54,14,21,2,2,0.6,0.6
2023-07-23T02:00:00,2218A,123.8486,42.2867,铁岭市,银州路东段,,17,10,37,4,21,82,54,60,57,10,17,5,5,0.7,0.6
2023-07-23T02:00:00,2219A,123.7153,42.2217,铁岭市,金沙江路北,,16,16,34,6,19,82,39,51,45,20,16,4,5,0.9,0.7
2023-07-23T02:00:00,2220A,120.4318,41.5881,朝阳市,西梁,,23,6,23,4,9,110,72,71,71,5,7,6,6,0.7,0.8
2023-07-23T02:00:00,2221A,120.4521,41.5646,朝阳市,河畔小区,,24,9,21,5,11,124,75,74,74,7,8,5,6,0.7,0.6
2023-07-23T02:00:00,2222A,120.4176,41.5648,朝阳市,八里堡,,25,0,15,5,12,105,77,76,76,6,10,5,5,0.7,0.7
2023-07-23T02:00:00,2223A,120.3806,41.5969,朝阳市,农业园区,,26,2,17,2,11,93,83,82,82,3,7,4,4,0.6,0.7
2023-07-23T02:00:00,2225A,124.4002,43.1713,四平市,一商场,,26,7,32,18,24,118,63,69,66,5,15,8,8,0.2,0.5
2023-07-23T02:00:00,2226A,124.388,43.193,四平市,境园,,20,10,34,10,24,100,61,68,64,6,9,4,5,0.2,0.3
2023-07-23T02:00:00,2227A,125.1358,42.8845,辽源市,环保局,,25,20,32,17,24,127,56,64,60,15,19,58,11,0.6,0.9
2023-07-23T02:00:00,2229A,125.9358,41.7173,通化市,光明,,19,14,31,13,19,111,37,45,41,16,15,7,8,0.2,0.5
2023-07-23T02:00:00,2230A,125.9446,41.7325,通化市,铁路,,10,8,25,4,15,115,31,32,32,12,12,6,7,0.2,0.4
2023-07-23T02:00:00,2231A,126.4219,41.9171,白山市,喜丰,,34,34,47,9,19,117,59,74,66,5,15,6,8,0.4,0.6
2023-07-23T02:00:00,2232A,126.4077,41.9419,白山市,环保局,,30,30,46,6,20,120,60,57,57,4,20,5,7,0.5,0.7
2023-07-23T02:00:00,2233A,124.8006,45.1214,松原市,江南,,31,4,9,4,8,114,99,96,96,4,8,4,4,0.6,0.5
2023-07-23T02:00:00,2234A,124.7965,45.1722,松原市,江北,,29,4,8,2,8,106,91,90,90,6,9,3,3,0.4,0.4
2023-07-23T02:00:00,2235A,122.7911,45.6077,白城市,洮北区环保局,,28,1,7,5,6,107,88,87,87,6,11,3,3,0.1,0.1
2023-07-23T02:00:00,2236A,122.8738,45.5725,白城市,市环保局,,30,11,13,6,6,111,96,93,93,8,7,4,3,0.3,0.2
2023-07-23T02:00:00,2237A,129.47,42.8883,延边朝鲜族自治州,妇幼医院,,18,12,18,8,7,56,56,54,54,6,9,7,7,0.5,0.6
2023-07-23T02:00:00,2238A,129.5055,42.9108,延边朝鲜族自治州,延边医院,,19,13,16,7,8,59,59,58,58,9,10,6,6,0.4,0.5
2023-07-23T02:00:00,2239A,129.3964,42.8881,延边朝鲜族自治州,朝阳川镇医院,,19,15,21,4,4,62,59,57,57,5,7,6,6,0.5,0.5
2023-07-23T02:00:00,2240A,130.9762,45.3001,鸡西市,环保局,,18,18,40,4,19,48,31,28,28,3,19,4,5,0.2,0.3
2023-07-23T02:00:00,2243A,130.9429,45.3039,鸡西市,第一中学,,20,20,43,6,20,52,29,26,26,4,18,5,6,0.2,0.3
2023-07-23T02:00:00,2244A,130.2537,47.3416,鹤岗市,哈啤分公司,,8,4,11,5,6,67,24,20,20,4,6,10,10,0.3,0.3
2023-07-23T02:00:00,2245A,130.2684,47.3086,鹤岗市,斯达机电,,9,5,11,6,6,72,26,24,24,4,7,11,10,0.3,0.2
2023-07-23T02:00:00,2246A,130.3114,47.3388,鹤岗市,东山纸板厂,,13,9,19,9,9,65,21,19,19,5,9,7,7,0.3,0.3
2023-07-23T02:00:00,2247A,130.1097,47.3382,鹤岗市,五号水库,,12,6,8,6,8,52,36,34,34,3,5,8,8,0.2,0.2
2023-07-23T02:00:00,2248A,131.1511,46.6937,双鸭山市,双合村,,24,24,19,10,9,80,4,4,4,20,18,10,10,0.1,0.1
2023-07-23T02:00:00,2249A,131.1652,46.6191,双鸭山市,南小市,,24,24,32,10,12,80,6,5,5,11,15,6,6,0.2,0.2
2023-07-23T02:00:00,2250A,131.1524,46.6554,双鸭山市,环保局,,14,14,12,6,6,76,11,10,10,13,18,8,8,0.3,0.4
2023-07-23T02:00:00,2251A,131.12,46.5656,双鸭山市,苗圃,,8,7,12,5,9,92,22,23,22,8,9,4,4,0.6,0.5
2023-07-23T02:00:00,2252A,128.5159,47.4311,伊春市,环保局,,14,14,17,0,3,40,40,40,40,4,8,4,4,0.4,0.4
2023-07-23T02:00:00,2253A,128.9102,47.7412,伊春市,电力嘉园,,16,6,8,7,10,50,49,50,50,4,6,5,5,0.6,0.5
2023-07-23T02:00:00,2254A,129.5029,48.471,伊春市,汤旺河国家公园,,27,27,24,12,11,65,24,25,24,1,2,13,13,0.5,0.6
2023-07-23T02:00:00,2255A,130.2751,46.8028,佳木斯市,佳纺,,17,17,24,0,8,64,8,7,7,23,15,3,3,0.4,0.4
2023-07-23T02:00:00,2256A,130.3995,46.8307,佳木斯市,发电厂,,24,24,21,10,8,67,12,10,10,18,9,2,3,0.5,0.5
2023-07-23T02:00:00,2257A,130.3258,46.7975,佳木斯市,环保局,,20,20,19,6,8,58,11,11,11,17,15,2,2,0.4,0.5
2023-07-23T02:00:00,2258A,130.3648,46.8032,佳木斯市,十一中,,13,13,19,6,7,64,13,14,14,17,10,4,4,0.3,0.3
2023-07-23T02:00:00,2259A,130.3794,46.7588,佳木斯市,四丰,,22,22,16,2,9,97,4,6,5,21,16,1,1,0.4,0.4
2023-07-23T02:00:00,2262A,131.0518,45.8751,七台河市,新一中,,20,20,31,11,23,123,25,27,26,13,12,7,8,0.9,0.9
2023-07-23T02:00:00,2263A,127.4833,50.2524,黑河市,交通局,,11,11,9,5,6,78,24,23,23,13,16,5,6,0.3,0.3
2023-07-23T02:00:00,2264A,127.5144,50.2341,黑河市,环保局,,31,31,22,6,7,84,20,29,24,22,12,5,6,0.4,0.3
2023-07-23T02:00:00,2265A,127.5291,50.2472,黑河市,大黑河岛,,13,13,10,7,9,101,23,22,22,1,1,4,6,0.4,0.3
2023-07-23T02:00:00,2266A,126.9785,46.6365,绥化市,人和东街,,18,18,20,8,8,93,50,66,58,23,24,5,6,0.3,0.3
2023-07-23T02:00:00,2267A,126.964,46.6528,绥化市,党政办公中心,,26,14,17,18,11,87,43,53,48,27,23,3,3,0.4,0.4
2023-07-23T02:00:00,2269A,124.1069,50.4097,大兴安岭地区,科技局,,16,16,12,5,8,50,33,31,31,3,6,6,6,0.1,0.2
2023-07-23T02:00:00,2270A,117.396,32.939,蚌埠市,工人疗养院,,28,28,23,8,8,111,37,42,40,11,6,7,8,0.2,0.2
2023-07-23T02:00:00,2271A,117.3605,32.9427,蚌埠市,百货大楼,,25,25,23,8,8,113,34,41,38,11,7,6,5,0.4,0.3
2023-07-23T02:00:00,2273A,117.4185,32.8911,蚌埠市,蚌埠学院,,27,27,20,11,13,119,34,42,38,11,7,7,8,0.4,0.5
2023-07-23T02:00:00,2274A,117.3533,32.9673,蚌埠市,淮上区政府,,27,27,24,13,12,114,37,45,41,13,8,6,5,0.2,0.2
2023-07-23T02:00:00,2275A,117.3145,32.8977,蚌埠市,高新区,,24,24,23,9,10,122,27,41,34,17,7,11,7,0.3,0.3
2023-07-23T02:00:00,2277A,116.8305,32.7727,淮南市,潘集区政府,,18,18,18,12,12,110,46,48,47,10,8,3,4,0.3,0.3
2023-07-23T02:00:00,2278A,117.0067,32.6524,淮南市,师范学院,,23,23,20,7,12,101,40,46,43,8,3,9,9,0.2,0.3
2023-07-23T02:00:00,2279A,116.8569,32.5951,淮南市,谢家集区政府,,12,8,10,8,4,98,34,39,36,14,8,4,4,0.2,0.2
2023-07-23T02:00:00,2280A,116.8281,32.633,淮南市,八公山区政府,,17,17,17,11,9,95,38,46,42,7,5,6,6,0.3,0.3
2023-07-23T02:00:00,2281A,116.6325,32.6201,淮南市,焦岗湖风景区管理处,,15,15,14,1,4,57,20,24,22,3,3,5,5,0.2,0.3
2023-07-23T02:00:00,2282A,116.8004,33.975,淮北市,监测站,,41,41,29,23,16,123,67,67,67,16,11,3,3,0.5,0.4
2023-07-23T02:00:00,2283A,116.8091,33.9007,淮北市,烈山区政府,细颗粒物(PM2.5),55,32,22,39,27,137,43,53,48,27,13,5,5,0.5,0.5
2023-07-23T02:00:00,2285A,117.8177,30.9412,铜陵市,市第四中学,,31,31,24,13,10,42,22,21,21,15,20,18,15,0.7,0.7
2023-07-23T02:00:00,2286A,117.8059,30.9273,铜陵市,市公路局,,22,22,23,9,10,49,26,24,24,15,18,10,8,0.8,0.9
2023-07-23T02:00:00,2287A,117.7807,30.9413,铜陵市,市新民污水厂,,40,40,24,13,10,48,25,24,24,20,21,39,16,0.4,0.4
2023-07-23T02:00:00,2288A,117.7439,30.8792,铜陵市,市第九中学,,38,38,29,1,5,48,14,14,14,27,25,6,5,0.5,0.5
2023-07-23T02:00:00,2289A,117.846,30.9413,铜陵市,车站新区,,20,16,17,14,10,59,30,32,31,17,15,8,3,0.5,0.4
2023-07-23T02:00:00,2290A,117.8483,30.97,铜陵市,市职教基地,,18,18,19,1,7,39,18,19,18,19,19,5,5,1.8,1.1
2023-07-23T02:00:00,2291A,117.0809,30.5177,安庆市,环科院,,14,14,9,8,6,53,21,16,16,18,22,4,4,0.5,0.5
2023-07-23T02:00:00,2292A,117.0331,30.5119,安庆市,马山宾馆,,12,12,8,8,5,53,31,31,31,12,21,4,3,0.3,0.4
2023-07-23T02:00:00,2294A,116.9896,30.6145,安庆市,安庆大学,,15,15,9,4,5,60,31,31,31,16,16,5,5,0.5,0.4
2023-07-23T02:00:00,2295A,118.2903,29.6963,黄山市,延安路89号,,27,27,24,3,4,85,8,11,10,5,6,5,5,0.3,0.3
2023-07-23T02:00:00,2296A,118.327,29.7178,黄山市,黄山东路89号,,14,14,12,5,4,78,11,17,14,5,5,6,6,0.4,0.4
2023-07-23T02:00:00,2297A,118.1371,30.2756,黄山市,黄山区政府5号楼,,26,26,22,3,5,58,12,12,12,5,6,7,6,0.2,0.2
2023-07-23T02:00:00,2298A,118.3093,32.3153,滁州市,老年大学,,27,27,16,13,7,79,38,43,40,9,8,7,8,0.3,0.3
2023-07-23T02:00:00,2299A,118.3244,32.2786,滁州市,人大宾馆,,16,15,8,11,4,87,34,34,34,14,12,8,7,0.4,0.3
2023-07-23T02:00:00,2301A,115.8277,32.8929,阜阳市,市监测站,,18,6,11,8,5,118,56,62,59,11,9,5,4,0.6,0.6
2023-07-23T02:00:00,2303A,115.8554,32.8605,阜阳市,开发区,,14,5,7,9,10,115,43,47,45,16,11,5,5,0.5,0.6
2023-07-23T02:00:00,2307A,116.5079,31.737,六安市,监测大楼,,8,1,6,0,1,80,24,24,24,4,3,2,1,0.3,0.2
2023-07-23T02:00:00,2308A,116.4738,31.7643,六安市,皖西学院,,10,10,9,1,3,81,31,37,34,7,5,6,5,0.2,0.2
2023-07-23T02:00:00,2309A,116.4996,31.7905,六安市,朝阳厂,,10,7,6,7,5,95,29,28,28,5,4,7,6,0.3,0.3
2023-07-23T02:00:00,2310A,116.5567,31.7886,六安市,开发区,,25,19,13,17,9,80,16,21,18,9,5,8,6,0.3,0.3
2023-07-23T02:00:00,2311A,115.8072,33.8399,亳州市,污水处理厂,,22,22,19,7,7,117,53,57,55,10,6,4,3,0.7,0.6
2023-07-23T02:00:00,2312A,115.7789,33.8518,亳州市,三国揽胜宫,,22,22,19,14,8,111,61,70,66,5,5,9,3,0.6,0.6
2023-07-23T02:00:00,2314A,117.47,30.6618,池州市,池州学院,,15,15,11,6,6,49,24,22,22,4,4,13,5,0.6,0.5
2023-07-23T02:00:00,2316A,118.7581,30.9454,宣城市,鳌峰子站,,24,24,19,10,8,65,23,22,22,18,18,4,5,0.4,0.4
2023-07-23T02:00:00,2317A,118.7385,30.9743,宣城市,敬亭山子站,,21,21,18,13,7,52,34,30,30,20,17,6,6,0.4,0.5
2023-07-23T02:00:00,2318A,118.7173,30.9427,宣城市,开发区子站,,29,19,15,20,9,63,7,12,10,22,16,5,5,0.5,0.5
2023-07-23T02:00:00,2319A,119.0141,25.4325,莆田市,荔城区仓后路,,33,33,36,12,17,120,16,14,14,16,15,7,7,0.6,0.6
2023-07-23T02:00:00,2320A,119.0015,25.4553,莆田市,莆田市监测站,,30,30,30,11,15,116,13,17,15,10,8,8,8,0.6,0.6
2023-07-23T02:00:00,2321A,119.1119,25.4561,莆田市,涵江区六中,,25,25,34,14,16,112,3,3,3,22,16,8,8,0.6,0.5
2023-07-23T02:00:00,2322A,119.1013,25.3215,莆田市,秀屿区政府,,24,24,24,6,7,109,15,17,16,11,11,9,10,0.6,0.6
2023-07-23T02:00:00,2323A,118.981,25.4792,莆田市,东圳水库,,,,,,,,,,,,,,,,
2023-07-23T02:00:00,2324A,117.6211,26.2625,三明市,三钢,,16,15,27,11,16,88,11,14,12,20,17,6,11,0.4,0.8
2023-07-23T02:00:00,2325A,117.635,26.2714,三明市,三明二中,,16,16,23,10,13,88,12,17,14,23,19,4,9,0.7,0.9
2023-07-23T02:00:00,2326A,117.6028,26.2378,三明市,三元区政府,,27,27,23,6,14,93,17,22,20,12,12,6,10,0.7,0.9
2023-07-23T02:00:00,2327A,117.7275,26.3108,三明市,洋溪,,,,,,,,,,,,,,,,
2023-07-23T02:00:00,2331A,118.0966,26.6761,南平市,茫荡山,,,,,,,,,,,,,,,,
2023-07-23T02:00:00,2332A,118.1681,26.6369,南平市,南平市监测站,,15,2,18,1,10,93,48,46,46,3,6,5,5,0.5,0.6
2023-07-23T02:00:00,2333A,118.1825,26.6489,南平市,南平铝业有限公司,,18,18,22,2,13,92,47,46,46,7,8,7,7,0.4,0.6
2023-07-23T02:00:00,2334A,118.1756,26.6272,南平市,南平七中,,13,12,16,4,11,89,39,34,34,5,5,3,4,0.7,0.6
2023-07-23T02:00:00,2335A,117.0189,25.1181,龙岩市,龙岩师专,,,,,,,,,,,,,,,,
2023-07-23T02:00:00,2336A,117.0217,25.1033,龙岩市,龙岩市监测站,,20,20,19,12,8,71,7,7,7,17,12,5,3,0.5,0.5
2023-07-23T02:00:00,2337A,117.0258,25.0661,龙岩市,闽西职业技术学院,,30,30,23,15,8,63,3,3,3,24,14,10,7,0.4,0.4
2023-07-23T02:00:00,2338A,117.0196,25.0306,龙岩市,龙岩学院,,21,21,17,9,7,60,22,21,21,6,6,3,5,0.3,0.3
2023-07-23T02:00:00,2339A,119.5001,26.6946,宁德市,金涵水库,,,,,,,,,,,,,,,,
2023-07-23T02:00:00,2341A,119.5388,26.6612,宁德市,宁德市监测站,,19,19,22,9,10,135,23,22,22,3,8,7,7,0.5,0.6
2023-07-23T02:00:00,2342A,117.3102,29.3867,景德镇市,王港中学,,22,22,15,13,8,100,18,21,20,5,5,2,3,0.5,0.5
2023-07-23T02:00:00,2343A,117.2117,29.2933,景德镇市,老干部活动中心,,20,13,18,14,15,76,27,35,31,9,10,7,6,0.2,0.2
2023-07-23T02:00:00,2344A,117.1894,29.2789,景德镇市,兽医站,,33,25,18,23,15,80,8,9,8,24,16,7,9,0.5,0.4
2023-07-23T02:00:00,2345A,117.1547,29.2617,景德镇市,台达陶瓷,,29,29,22,16,13,79,11,12,12,25,20,9,16,0.4,0.5
2023-07-23T02:00:00,2346A,117.2461,29.2956,景德镇市,陶研所,,30,30,40,8,7,81,26,37,32,8,11,11,7,0.2,0.2
2023-07-23T02:00:00,2347A,114.0997,27.5002,萍乡市,武功山,,8,2,8,2,4,69,22,24,23,3,4,19,19,0.8,0.5
2023-07-23T02:00:00,2348A,113.8385,27.6434,萍乡市,中医院,,25,14,19,17,16,76,29,33,31,8,8,15,13,0.5,0.4
2023-07-23T02:00:00,2349A,113.8493,27.6253,萍乡市,市政府车库,,19,16,22,13,15,77,24,29,26,17,11,16,16,0.8,0.4
2023-07-23T02:00:00,2350A,113.8676,27.6435,萍乡市,市环保局,,8,8,20,5,13,71,22,24,23,12,10,16,20,0.5,0.4
2023-07-23T02:00:00,2351A,113.866,27.6198,萍乡市,安源区政府,,24,24,24,5,13,77,19,23,21,19,12,9,11,0.5,0.7
2023-07-23T02:00:00,2352A,115.0861,27.9317,新余市,北岗,,12,12,11,6,8,78,28,29,28,11,8,7,7,0.5,0.6
2023-07-23T02:00:00,2353A,114.9886,27.8431,新余市,飞宇,,28,28,27,11,10,59,34,31,31,9,11,5,5,0.4,0.6
2023-07-23T02:00:00,2354A,114.9231,27.8246,新余市,第二水厂,,32,32,34,7,10,65,39,34,34,6,13,14,9,0.7,0.6
2023-07-23T02:00:00,2355A,114.9308,27.8036,新余市,市气象局,,23,23,27,12,14,60,33,33,33,9,10,6,5,1.3,1.6
2023-07-23T02:00:00,2357A,116.9822,28.1136,鹰潭市,龙虎山,,17,17,17,6,7,66,38,34,34,1,2,2,2,0.8,0.8
2023-07-23T02:00:00,2358A,117.0564,28.2642,鹰潭市,新监测站,,11,11,20,2,7,84,30,40,35,7,6,3,3,0.2,0.4
2023-07-23T02:00:00,2359A,117.0311,28.2475,鹰潭市,财苑宾馆,,10,8,25,2,7,84,31,40,36,13,6,5,5,0.3,0.2
2023-07-23T02:00:00,2360A,117.0222,28.2264,鹰潭市,体育馆,,13,13,23,3,7,86,35,38,36,14,7,1,3,0.2,0.3
2023-07-23T02:00:00,2361A,117.0017,28.2131,鹰潭市,三川水表,,16,16,21,9,7,86,37,29,29,8,7,2,2,0.5,0.3
2023-07-23T02:00:00,2362A,114.9017,25.9149,赣州市,通天岩,,,,,,,,,,,,,,,,
2023-07-23T02:00:00,2363A,114.9367,25.8664,赣州市,地委,,,,,,,,,,,,,,,,
2023-07-23T02:00:00,2364A,114.9461,25.8481,赣州市,气象台,,16,15,28,11,16,118,41,47,44,10,6,10,6,0.8,0.8
2023-07-23T02:00:00,2365A,114.9322,25.8333,赣州市,市图书馆,,20,20,36,13,18,129,46,53,50,11,9,21,23,0.7,0.7
2023-07-23T02:00:00,2366A,114.8905,25.8471,赣州市,华坚鞋城,,26,23,36,18,19,131,42,50,46,9,10,8,6,0.6,0.7
2023-07-23T02:00:00,2367A,114.9754,27.0803,吉安市,红声器材厂,,15,15,28,7,14,104,43,49,46,5,7,7,8,0.6,0.7
2023-07-23T02:00:00,2368A,114.9658,27.0999,吉安市,市森林工业局,,14,10,24,5,13,99,42,48,45,5,8,5,7,0.5,0.5
2023-07-23T02:00:00,2369A,114.99,27.1312,吉安市,市环境监测站,,15,12,26,2,12,106,45,53,49,5,8,8,9,0.8,0.8
2023-07-23T02:00:00,2370A,115.0093,27.0968,吉安市,青原区法院,,14,10,24,8,14,104,43,55,49,6,9,13,12,0.8,0.8
2023-07-23T02:00:00,2371A,114.3408,27.8064,宜春市,槟榔水业,,16,16,24,8,12,71,25,34,30,4,6,2,2,0.2,0.2
2023-07-23T02:00:00,2373A,114.3956,27.7844,宜春市,市石油公司,,21,21,29,10,14,111,34,39,36,7,10,1,3,0.5,0.5
2023-07-23T02:00:00,2374A,114.3703,27.7914,宜春市,市气象局,,17,17,31,10,15,102,41,48,44,10,13,2,4,0.8,0.9
2023-07-23T02:00:00,2375A,114.4013,27.8074,宜春市,市广电局,,32,32,29,14,18,109,34,34,34,6,9,5,7,0.5,0.5
2023-07-23T02:00:00,2376A,116.2127,28.0814,抚州市,桐源党溪,,18,18,18,3,8,106,48,58,53,2,2,1,2,0.9,0.9
2023-07-23T02:00:00,2377A,116.3544,27.9831,抚州市,市站,,18,18,24,10,12,91,48,48,48,3,4,5,4,0.8,0.8
2023-07-23T02:00:00,2378A,116.3565,27.963,抚州市,血防站,,22,22,26,8,10,81,44,43,43,4,5,4,4,0.8,0.8
2023-07-23T02:00:00,2379A,116.3564,28.0007,抚州市,采茶剧团,,20,20,21,10,12,86,45,44,44,4,6,6,5,0.7,0.8
2023-07-23T02:00:00,2380A,116.385,27.9647,抚州市,医学分院,,18,18,21,7,9,84,42,38,38,6,7,4,4,1.1,1.1
2023-07-23T02:00:00,2381A,118.005,28.4572,上饶市,百草园,,26,26,24,12,11,96,22,20,20,4,7,3,4,0.5,0.5
2023-07-23T02:00:00,2382A,117.9756,28.4436,上饶市,市监测站,,14,14,26,4,12,93,30,30,30,4,10,5,5,0.5,0.6
2023-07-23T02:00:00,2383A,117.9519,28.4628,上饶市,凤凰光学,,12,12,24,5,15,107,26,28,27,7,10,6,16,0.7,0.7
2023-07-23T02:00:00,2385A,114.17,35.9019,鹤壁市,市监测站,"颗粒物(PM10),细颗粒物(PM2.5)",59,68,53,42,38,138,43,65,54,31,19,4,5,1.0,1.1
2023-07-23T02:00:00,2386A,114.2956,35.7511,鹤壁市,市交警支队,颗粒物(PM10),64,78,51,41,32,140,59,62,60,22,15,7,12,0.9,0.9
2023-07-23T02:00:00,2387A,114.2878,35.7306,鹤壁市,迎宾馆,细颗粒物(PM2.5),68,48,48,49,39,151,65,70,68,18,13,6,8,1.1,1.2
2023-07-23T02:00:00,2389A,113.836,35.311,新乡市,环保西院,"颗粒物(PM10),细颗粒物(PM2.5)",58,66,54,41,31,127,59,68,64,26,17,7,7,0.8,0.8
2023-07-23T02:00:00,2390A,113.884,35.272,新乡市,开发区,细颗粒物(PM2.5),52,52,37,36,26,136,65,72,68,18,10,4,4,0.8,0.7
2023-07-23T02:00:00,2391A,113.883,35.303,新乡市,环保东院,颗粒物(PM10),57,63,55,29,23,126,71,70,70,17,15,6,7,0.7,0.7
2023-07-23T02:00:00,2392A,115.0312,35.7636,濮阳市,环保局,,49,38,27,34,21,152,99,90,90,10,9,3,2,0.6,0.6
2023-07-23T02:00:00,2394A,115.0574,35.7609,濮阳市,油田运输公司,,40,40,33,28,22,150,104,98,98,8,9,4,4,0.6,0.6
2023-07-23T02:00:00,2395A,115.0866,35.7754,濮阳市,油田物探公司,,48,40,32,33,21,149,78,86,82,12,7,3,5,0.6,0.5
2023-07-23T02:00:00,2396A,113.8276,34.0159,许昌市,监测站,,48,48,34,26,18,137,51,65,58,24,15,4,3,0.7,0.6
2023-07-23T02:00:00,2398A,113.7906,33.9953,许昌市,开发区,"颗粒物(PM10),细颗粒物(PM2.5)",52,54,35,36,17,135,23,37,30,45,17,2,2,0.7,0.6
2023-07-23T02:00:00,2399A,114.051,33.5699,漯河市,三五一五工厂,,22,22,26,12,16,147,32,46,39,21,9,8,8,0.4,0.4
2023-07-23T02:00:00,2400A,114.0055,33.5698,漯河市,漯河大学,,35,24,26,24,22,158,39,52,46,15,9,12,10,0.4,0.4
2023-07-23T02:00:00,2401A,114.0138,33.5828,漯河市,市水利局,,24,24,27,12,14,150,40,54,47,14,9,7,7,0.5,0.5
2023-07-23T02:00:00,2402A,114.0261,33.5698,漯河市,市广电局,,26,17,23,18,17,154,42,46,44,11,7,5,5,0.5,0.5
2023-07-23T02:00:00,2404A,112.5224,33.0122,南阳市,瓦房庄,,33,30,30,23,18,119,59,54,54,14,15,6,6,0.5,0.5
2023-07-23T02:00:00,2405A,112.5003,32.9735,南阳市,汉画馆,,28,27,28,19,23,124,60,57,57,8,9,4,4,0.4,0.4
2023-07-23T02:00:00,2406A,112.5573,33.027,南阳市,气象站,,31,31,33,12,20,130,68,68,68,9,16,4,5,0.5,0.5
2023-07-23T02:00:00,2407A,112.5481,32.9689,南阳市,理工学院,,31,31,26,19,19,120,43,31,31,24,17,6,6,0.4,0.4
2023-07-23T02:00:00,2408A,115.6702,34.4285,商丘市,环境监测站,,,38,27,,7,119,80,72,72,12,11,9,8,0.5,0.6
2023-07-23T02:00:00,2409A,115.6458,34.4045,商丘市,粮食局,,41,41,27,20,15,121,85,82,82,12,8,4,4,0.4,0.4
2023-07-23T02:00:00,2410A,115.6293,34.3948,商丘市,睢阳区环保局,,35,35,26,24,21,122,88,84,84,10,7,3,3,0.5,0.5
2023-07-23T02:00:00,2420A,114.0189,32.9656,驻马店市,市一纸厂,,27,27,19,8,8,124,46,44,44,20,12,4,4,0.6,0.5
2023-07-23T02:00:00,2421A,114.0114,33.015,驻马店市,市彩印厂,,26,26,23,6,8,128,50,49,49,10,6,6,6,0.4,0.4
2023-07-23T02:00:00,2422A,113.9976,32.9771,驻马店市,天方二分厂,,29,25,20,20,16,126,44,39,39,17,9,5,4,0.5,0.3
2023-07-23T02:00:00,2423A,115.0601,30.2313,黄石市,沈家营,颗粒物(PM10),51,51,27,13,6,68,8,9,8,31,17,13,8,0.8,0.6
2023-07-23T02:00:00,2424A,115.0817,30.2006,黄石市,陈家湾,,45,45,28,7,7,73,26,34,30,14,9,9,6,0.5,0.5
2023-07-23T02:00:00,2426A,114.8988,30.2019,黄石市,铁山,,18,18,10,11,3,73,15,15,15,34,15,15,11,0.7,0.6
2023-07-23T02:00:00,2427A,115.0307,30.2092,黄石市,团城山,,32,32,19,9,3,68,25,32,28,15,9,12,8,0.6,0.5
2023-07-23T02:00:00,2428A,111.0419,32.395,十堰市,武当山,,24,24,26,13,13,138,42,42,42,5,5,7,7,0.6,0.6
2023-07-23T02:00:00,2429A,110.78,32.6494,十堰市,滨河新村,,41,41,32,22,15,133,86,82,82,1,4,7,7,0.6,0.6
2023-07-23T02:00:00,2430A,110.7258,32.6389,十堰市,刘家沟,,38,30,30,26,17,144,36,51,44,4,5,5,5,0.5,0.4
2023-07-23T02:00:00,2431A,110.8839,32.5714,十堰市,铁二处,,,,,,,,,,,,,,,,
2023-07-23T02:00:00,2432A,112.155,32.0197,襄阳市,襄城运动路,,29,29,43,20,27,113,60,67,64,8,13,6,7,0.7,0.7
2023-07-23T02:00:00,2433A,112.1392,32.0564,襄阳市,樊城新华路,,28,28,49,17,25,130,64,73,68,6,11,6,8,0.7,0.7
2023-07-23T02:00:00,2434A,112.1825,32.1142,襄阳市,高新管委会,,33,25,38,23,28,130,70,85,78,6,10,6,7,0.7,0.7
2023-07-23T02:00:00,2435A,112.2106,32.0903,襄阳市,襄州航空路,,23,16,39,14,23,109,71,74,72,5,7,5,5,0.6,0.7
2023-07-23T02:00:00,2436A,114.8938,30.3994,鄂州市,市政府,,30,30,18,8,4,97,37,34,34,18,11,8,6,0.4,0.5
2023-07-23T02:00:00,2437A,114.8989,30.3714,鄂州市,赵家坝,,31,31,16,6,2,85,20,16,16,21,9,7,4,0.6,0.6
2023-07-23T02:00:00,2439A,112.2014,31.0481,荆门市,竹园小学,,34,34,31,21,19,137,48,47,47,14,11,9,10,0.8,0.7
2023-07-23T02:00:00,2440A,112.1969,30.9891,荆门市,掇刀,,,72,36,54,18,143,,,,38,13,52,17,0.7,0.6
2023-07-23T02:00:00,2441A,112.2213,31.0386,荆门市,石化一小,,43,43,30,18,13,127,14,15,14,50,18,20,9,0.5,0.4
2023-07-23T02:00:00,2443A,113.9153,30.9285,孝感市,文化路,,10,7,12,7,9,95,29,31,30,20,11,7,6,0.8,0.7
2023-07-23T02:00:00,2444A,113.942,30.9075,孝感市,东城区,,16,16,12,6,6,99,28,32,30,23,13,6,7,0.7,0.6
2023-07-23T02:00:00,2446A,114.9028,30.4742,黄冈市,职工中心,,17,17,21,10,12,95,31,35,33,8,9,12,27,0.5,0.7
2023-07-23T02:00:00,2447A,114.3175,29.8142,咸宁市,森林公园,,13,10,7,4,4,74,41,47,44,4,4,5,5,0.4,0.4
2023-07-23T02:00:00,2448A,114.3107,29.8454,咸宁市,市发改委,,11,10,5,3,3,80,35,39,37,3,3,5,4,0.5,0.5
2023-07-23T02:00:00,2449A,114.2936,29.8566,咸宁市,咸安区政府,,10,10,6,3,3,74,30,34,32,4,4,3,2,0.5,0.5
2023-07-23T02:00:00,2451A,113.3583,31.7275,随州市,市委党校,,22,18,22,15,17,82,55,64,60,2,3,8,7,0.6,0.6
2023-07-23T02:00:00,2452A,113.3833,31.6908,随州市,市林业局,,20,20,21,12,14,86,48,56,52,5,3,3,3,0.6,0.6
2023-07-23T02:00:00,2453A,113.3983,31.7308,随州市,市立交桥水厂,,23,21,23,16,16,85,44,53,48,9,6,6,6,0.6,0.6
2023-07-23T02:00:00,2454A,109.4978,30.2981,恩施土家族苗族自治州,湖北民院,,31,31,33,19,13,153,52,57,54,10,11,9,9,0.6,0.6
2023-07-23T02:00:00,2455A,109.4707,30.2798,恩施土家族苗族自治州,州电力总公司,,34,34,26,17,9,130,27,47,37,24,14,10,10,0.6,0.6
2023-07-23T02:00:00,2456A,112.5003,26.9167,衡阳市,原169医院,,25,25,21,11,11,80,25,28,26,15,8,15,11,0.4,0.3
2023-07-23T02:00:00,2457A,112.6194,26.9258,衡阳市,衡阳化工总厂,,26,24,25,18,13,86,23,30,26,18,8,6,10,0.5,0.5
2023-07-23T02:00:00,2458A,112.6211,26.8956,衡阳市,珠晖区环保局,,,20,22,,,89,42,36,36,9,9,6,10,0.5,0.5
2023-07-23T02:00:00,2459A,112.6197,26.8733,衡阳市,市委党校,,20,20,21,3,12,89,48,48,48,9,9,8,10,0.5,0.6
2023-07-23T02:00:00,2460A,112.6006,26.8919,衡阳市,市监测站,,18,13,22,12,13,86,44,51,48,10,10,6,12,0.5,0.5
2023-07-23T02:00:00,2461A,112.5664,26.9056,衡阳市,真空机电公司,,21,21,25,11,14,86,37,41,39,14,8,8,10,0.8,0.6
2023-07-23T02:00:00,2462A,111.5239,27.3033,邵阳市,市水土所,,22,22,26,14,17,76,8,9,8,8,6,5,7,0.5,0.4
2023-07-23T02:00:00,2463A,111.4733,27.2317,邵阳市,市一中,,48,48,31,11,15,85,22,21,21,13,10,6,8,0.4,0.4
2023-07-23T02:00:00,2464A,111.5283,27.2442,邵阳市,市化工厂,,32,26,27,22,15,85,19,26,22,18,12,4,4,0.4,0.3
2023-07-23T02:00:00,2465A,111.4503,27.2537,邵阳市,市罐头厂,,49,25,37,34,18,70,12,17,14,19,12,25,10,0.4,0.4
2023-07-23T02:00:00,2466A,111.4328,27.2272,邵阳市,市环保局,,33,33,32,20,17,80,17,16,16,17,11,7,10,0.4,0.4
2023-07-23T02:00:00,2467A,112.4067,28.6428,益阳市,甘溪港,,28,28,19,8,7,81,33,38,36,4,3,7,4,0.7,0.6
2023-07-23T02:00:00,2468A,112.3458,28.5808,益阳市,市环保局,,22,12,14,15,8,108,40,45,42,9,12,2,2,0.7,0.6
2023-07-23T02:00:00,2469A,112.3437,28.5531,益阳市,市特殊教育学校,,31,31,21,18,12,101,32,36,34,10,10,2,1,0.7,0.6
2023-07-23T02:00:00,2470A,112.3347,28.6047,益阳市,资阳区政务中心,,14,14,15,4,8,109,41,45,43,5,9,2,3,0.7,0.7
2023-07-23T02:00:00,2471A,112.3744,28.5819,益阳市,赫山环保分局,,20,20,21,7,5,103,42,42,42,7,11,4,4,0.7,0.7
2023-07-23T02:00:00,2472A,113.0073,25.9061,郴州市,马头岭,,24,24,19,7,9,76,38,40,39,22,17,6,5,0.4,0.4
2023-07-23T02:00:00,2473A,113.0116,25.8226,郴州市,市职中,,26,23,20,18,13,101,68,55,55,7,8,7,6,0.5,0.5
2023-07-23T02:00:00,2474A,113.0161,25.8001,郴州市,兴隆步行街,,30,30,25,16,14,98,70,71,70,8,9,8,7,0.5,0.5
2023-07-23T02:00:00,2475A,113.0383,25.8071,郴州市,市审计局,,28,28,18,12,13,92,66,68,67,6,8,5,4,0.4,0.4
2023-07-23T02:00:00,2476A,113.0348,25.7759,郴州市,市环保局,,23,22,19,16,15,108,69,71,70,5,6,7,6,0.5,0.4
2023-07-23T02:00:00,2477A,111.6217,26.2081,永州市,零陵南津渡,,35,34,18,24,14,84,48,45,45,6,5,6,6,0.5,0.4
2023-07-23T02:00:00,2478A,111.6156,26.4214,永州市,市环境监测站,,37,37,27,15,14,86,41,32,32,14,8,5,7,0.6,0.4
2023-07-23T02:00:00,2479A,111.6236,26.2331,永州市,零陵区环保局,,30,30,25,18,15,79,60,59,59,7,8,11,10,0.5,0.5
2023-07-23T02:00:00,2480A,111.5992,26.4364,永州市,永州市环保局,,37,37,25,15,13,88,35,34,34,14,9,5,6,0.5,0.5
2023-07-23T02:00:00,2481A,111.5989,26.4519,永州市,冷水滩区环保局,,35,35,27,15,14,86,36,28,28,14,10,9,9,0.6,0.5
2023-07-23T02:00:00,2482A,109.5981,27.5721,怀化市,林科所,,15,15,14,3,6,57,22,26,24,2,2,9,10,0.8,0.7
2023-07-23T02:00:00,2483A,109.9453,27.5444,怀化市,河西地税局,,26,26,16,10,8,60,1,1,1,13,8,4,5,0.6,0.5
2023-07-23T02:00:00,2484A,109.9781,27.5342,怀化市,市四医院,,29,29,20,11,12,66,12,18,15,19,8,4,4,0.6,0.6
2023-07-23T02:00:00,2485A,109.9972,27.5578,怀化市,监测楼,,30,30,22,15,11,60,7,6,6,11,4,2,3,0.6,0.6
2023-07-23T02:00:00,2486A,110.0394,27.583,怀化市,市委党校,,34,34,17,15,9,61,2,2,2,20,7,6,6,0.8,0.7
2023-07-23T02:00:00,2487A,111.9589,27.8901,娄底市,电视发射台,,25,13,13,17,9,77,9,11,10,6,5,3,3,0.8,0.7
2023-07-23T02:00:00,2488A,111.9975,27.725,娄底市,市监测站,,32,32,28,21,16,78,21,26,24,14,14,9,11,0.4,0.4
2023-07-23T02:00:00,2489A,112.0194,27.7314,娄底市,市委党校,,15,11,28,10,15,69,18,18,18,9,8,9,12,0.4,0.5
