timepoint,stationcode,longitude,latitude,area,positionname,primarypollutant,aqi,pm10,pm10_24h,pm2_5,pm2_5_24h,o3,o3_24h,o3_8h,o3_8h_24h,no2,no2_24h,so2,so2_24h,co,co_24h
2024-08-11T1100,2566A,102.1879,31.914,阿坝藏族羌族自治州,州农科所,,22,22,28,3,9,42,,20,20,9,13,6,7,0,0
2024-08-11T1100,2568A,102.2502,31.8896,阿坝藏族羌族自治州,马师校,,15,15,23,3,9,47,,15,15,6,7,3,3,0.3,0.3
2024-08-11T1100,3994A,102.2165,31.9024,阿坝藏族羌族自治州,马尔康中学西区,,22,,18,15,13,47,,25,25,7,7,4,4,0.3,0.3
2024-08-11T1100,2695A,80.292,41.1694,阿克苏地区,电视台,,35,31,43,24,20,84,,100,100,18,13,5,6,0.5,0.4
2024-08-11T1100,2696A,80.2613,41.1551,阿克苏地区,艺术中心,,29,29,42,15,18,92,,95,95,19,16,4,4,0.6,0.5
2024-08-11T1100,2204A,105.6467,38.8363,阿拉善盟,西城区西花园,,40,17,51,6,13,125,,107,103,10,11,5,7,0.9,0.8
2024-08-11T1100,2205A,105.6985,38.8411,阿拉善盟,蒙二幼,,35,7,58,3,15,112,,105,100,8,6,9,9,0.3,0.4
2024-08-11T1100,2206A,105.724,38.8516,阿拉善盟,环保局新楼,,37,6,54,3,14,117,,115,110,6,5,8,8,0.4,0.3
2024-08-11T1100,2708A,88.1264,47.8517,阿勒泰地区,市站,,36,36,31,8,9,88,,79,78,10,11,7,7,0.5,0.5
2024-08-11T1100,2630A,80.1161,32.5,阿里地区,阿里监测站,,35,12,11,6,6,112,,100,100,11,15,10,9,0.2,0.2
2024-08-11T1100,3192A,80.0903,32.5028,阿里地区,阿里藏医院,,37,10,18,3,5,116,,113,113,5,6,6,6,0.2,0.2
2024-08-11T1100,2642A,109.0318,32.6537,安康市,香溪洞,颗粒物(PM10),69,87,54,21,14,61,,39,39,3,3,5,5,0.3,0.3
2024-08-11T1100,2643A,109.0281,32.6939,安康市,安康市监测站,颗粒物(PM10),69,87,64,24,16,65,,30,30,4,8,6,7,0.4,0.4
2024-08-11T1100,2644A,109.0072,32.6975,安康市,汉滨区检察院,颗粒物(PM10),60,69,46,23,17,61,,26,26,3,7,7,6,0.5,0.5
2024-08-11T1100,2291A,117.0809,30.5177,安庆市,环科院,颗粒物(PM10),56,61,36,28,29,143,,67,67,11,22,10,8,0.9,0.7
2024-08-11T1100,2292A,117.0331,30.5119,安庆市,马山宾馆,,45,32,27,28,26,141,,54,54,20,30,11,10,0.8,0.6
2024-08-11T1100,2294A,116.9896,30.6145,安庆市,安庆大学,,44,42,36,28,21,139,,63,63,13,16,8,9,1.0,0.9
2024-08-11T1100,3173A,117.0598,30.5351,安庆市,市人大,,45,43,37,27,24,141,,65,65,8,17,10,8,0.6,0.5
2024-08-11T1100,3122A,105.9606,26.2611,安顺市,伍家关,,,,,,,,,,,,,,,,
2024-08-11T1100,3123A,105.9408,26.2431,安顺市,凤凰山,,49,49,20,14,8,88,,83,83,10,7,10,9,0.4,0.4
2024-08-11T1100,3124A,105.9439,26.2564,安顺市,金钟山,细颗粒物(PM2.5),53,38,22,37,12,90,,83,83,7,7,8,8,0.5,0.5
2024-08-11T1100,3125A,105.8983,26.2481,安顺市,娄家坡,颗粒物(PM10),75,99,19,29,10,94,,88,88,5,6,8,8,0.5,0.5
2024-08-11T1100,1818A,114.4839,36.0621,安阳市,棉研所,,,,,,,,,,,,,,,,
2024-08-11T1100,1819A,114.3551,36.1017,安阳市,红庙街,,40,23,74,3,18,126,,84,84,2,9,8,8,0.3,0.6
2024-08-11T1100,1820A,114.361,36.0681,安阳市,银杏小区,,42,24,67,3,15,132,,86,86,4,6,6,4,0.7,0.6
2024-08-11T1100,3141A,114.3922,36.0878,安阳市,信访局,,42,26,74,3,16,134,,93,93,2,5,6,5,0.6,0.9
2024-08-11T1100,3669A,114.4705,36.0637,安阳市,左辅环卫站,,40,21,74,3,17,126,,75,75,2,12,7,6,0.7,0.9
2024-08-11T1100,3703A,114.2917,36.0949,安阳市,安钢职工学校,,37,26,85,6,20,118,,74,74,5,12,7,5,0.4,0.5
2024-08-11T1100,1748A,123.044,41.1196,鞍山市,深沟寺,颗粒物(PM10),56,61,31,32,12,84,,79,78,5,5,4,4,0.5,0.5
2024-08-11T1100,1749A,123.011,41.0931,鞍山市,太阳城,颗粒物(PM10),61,72,29,26,12,86,,89,89,6,4,4,3,0.5,0.4
2024-08-11T1100,1750A,123.0485,41.1442,鞍山市,太平,颗粒物(PM10),64,78,29,36,15,84,,84,81,12,8,4,2,0.6,0.5
2024-08-11T1100,1751A,122.9642,41.0971,鞍山市,铁西三道街,颗粒物(PM10),63,75,31,33,16,94,,95,95,13,10,2,2,0.6,0.6
2024-08-11T1100,1752A,122.9341,41.0833,鞍山市,铁西工业园区,颗粒物(PM10),64,77,33,32,19,95,,82,82,8,10,6,5,1.0,1
2024-08-11T1100,1753A,123.022,41.0821,鞍山市,明达新区,,,78,26,34,14,88,,97,95,5,3,3,2,,0.3
2024-08-11T1100,1754A,123.1289,41.0228,鞍山市,千山,,,,,,,,,,,,,,,,
2024-08-11T1100,2195A,107.4212,40.761,巴彦淖尔市,附二中,,33,15,26,14,18,104,,80,80,6,10,6,5,0.5,0.5
2024-08-11T1100,2196A,107.37,40.7372,巴彦淖尔市,市环保大楼,,37,37,39,8,10,97,,66,66,6,7,4,3,0.4,0.4
2024-08-11T1100,1956A,86.1472,41.7538,巴音郭楞蒙古自治州,孔雀公园,颗粒物(PM10),51,51,54,15,16,75,,92,89,22,18,7,6,0.3,0.3
2024-08-11T1100,1957A,86.1972,41.7166,巴音郭楞蒙古自治州,棉纺厂,颗粒物(PM10),51,52,58,18,16,71,,97,92,29,13,6,5,0.3,0.2
2024-08-11T1100,1958A,86.2357,41.7173,巴音郭楞蒙古自治州,经济开发区,,32,32,52,22,17,90,,105,102,13,7,7,5,0.2,0.2
2024-08-11T1100,2914A,106.7677,31.8794,巴中市,苏山坪,颗粒物(PM10),76,101,77,31,21,61,,30,30,11,9,6,4,0.5,0.4
2024-08-11T1100,3182A,106.7656,31.8545,巴中市,丽阳花园,颗粒物(PM10),73,95,67,33,24,56,,28,28,9,13,3,3,0.5,0.5
2024-08-11T1100,3183A,106.7418,31.8654,巴中市,圣泉水务公司,颗粒物(PM10),71,91,70,29,21,60,,32,32,8,12,3,3,0.6,0.6
2024-08-11T1100,3616A,106.7616,31.8344,巴中市,市中心医院,颗粒物(PM10),69,87,59,28,21,57,,25,25,6,12,4,3,0.5,0.6
2024-08-11T1100,2235A,122.7911,45.6077,白城市,洮北区环保局,,28,,21,9,7,87,,101,93,9,7,4,6,0.5,0.4
2024-08-11T1100,2236A,122.8738,45.5725,白城市,市环保局,,29,15,20,3,2,90,,97,93,6,7,5,5,0.4,0.4
2024-08-11T1100,2231A,126.4219,41.9171,白山市,喜丰,,25,25,43,8,13,43,,27,27,22,21,9,10,0.6,0.7
2024-08-11T1100,2232A,126.4077,41.9419,白山市,环保局,,20,20,36,13,16,39,,28,28,28,18,9,8,0.8,0.8
2024-08-11T1100,2647A,104.1724,36.5446,白银市,第三小学,,37,37,30,14,13,104,,74,74,17,17,39,29,0.7,0.6
2024-08-11T1100,2648A,104.1465,36.5482,白银市,动力公司,,37,37,22,13,11,107,,74,74,13,10,36,9,0.6,0.4
2024-08-11T1100,2512A,106.6103,23.9011,百色市,市监测站,,12,10,29,3,16,36,,47,41,6,8,4,8,0.6,0.6
2024-08-11T1100,2513A,106.6538,23.8859,百色市,市中心血站,,18,18,31,8,20,40,,48,43,9,9,2,4,0.6,0.7
2024-08-11T1100,3406A,106.6085,23.8798,百色市,祈福高中,,18,18,30,3,18,35,,46,41,10,8,3,3,0.7,0.8
2024-08-11T1100,2270A,117.396,32.939,蚌埠市,工人疗养院,颗粒物(PM10),133,215,65,54,19,129,,67,67,8,9,11,10,0.4,0.4
2024-08-11T1100,2271A,117.3605,32.9427,蚌埠市,百货大楼,颗粒物(PM10),135,219,64,55,19,137,,68,68,3,6,10,8,0.3,0.4
2024-08-11T1100,2273A,117.4185,32.8911,蚌埠市,蚌埠学院,颗粒物(PM10),109,168,56,28,18,138,,67,67,8,13,10,8,0.5,0.6
2024-08-11T1100,2274A,117.3533,32.9673,蚌埠市,淮上区政府,颗粒物(PM10),119,188,55,41,20,137,,75,75,3,7,8,7,0.4,0.5
2024-08-11T1100,2275A,117.3145,32.8977,蚌埠市,高新区,颗粒物(PM10),134,217,56,55,19,132,,58,58,4,12,8,6,0.5,0.6
2024-08-11T1100,3715A,117.3092,32.9314,蚌埠市,蚌埠田家炳中学,颗粒物(PM10),129,208,60,59,21,129,,62,62,4,7,12,9,0.5,0.6
2024-08-11T1100,1585A,109.8756,40.6532,包头市,市环境监测站,,32,10,12,10,7,101,,84,84,8,8,5,4,0.5,0.4
2024-08-11T1100,1587A,109.9991,40.5842,包头市,包头八中,,30,16,14,7,6,96,,77,77,7,10,4,4,0.4,0.4
2024-08-11T1100,1588A,109.8538,40.6821,包头市,青山宾馆,,31,14,12,7,5,98,,82,82,7,6,3,3,0.4,0.4
2024-08-11T1100,1589A,109.8642,40.6288,包头市,惠龙物流,,32,8,11,6,5,101,,85,85,6,8,5,5,0.5,0.5
2024-08-11T1100,1590A,110.0377,40.5546,包头市,东河鸿龙湾,,30,8,10,6,5,93,,74,74,8,9,4,4,0.5,0.5
2024-08-11T1100,3283A,109.9154,40.5685,包头市,滨河大厦,,32,15,11,8,6,100,,79,79,3,9,7,10,0.5,0.6
2024-08-11T1100,3419A,109.9447,40.6261,包头市,包头市委党校,,30,6,10,3,4,96,,81,81,6,8,3,3,0.4,0.4
2024-08-11T1100,3683A,109.8331,40.6576,包头市,昆区政府,,31,12,10,7,6,97,,82,82,7,8,4,3,0.4,0.4
2024-08-11T1100,1930A,107.185,34.3063,宝鸡市,庙沟村,,,41,88,16,28,91,,87,81,,6,6,6,0.2,0.2
2024-08-11T1100,1931A,107.0708,34.3017,宝鸡市,竹园沟,,45,45,114,17,34,86,,74,74,8,10,8,8,0.4,0.4
2024-08-11T1100,1932A,107.1906,34.3672,宝鸡市,三陆医院,颗粒物(PM10),62,73,117,19,35,74,,37,37,20,20,10,10,0.5,0.5
2024-08-11T1100,1933A,107.1431,34.3547,宝鸡市,监测站,颗粒物(PM10),60,70,129,16,32,82,,49,49,13,18,8,7,0.2,0.3
2024-08-11T1100,1934A,107.1186,34.3739,宝鸡市,技工学校,颗粒物(PM10),58,65,112,14,34,88,,61,61,9,11,8,9,0.4,0.5
2024-08-11T1100,1935A,107.3906,34.3528,宝鸡市,陈仓区环保局家属楼,颗粒物(PM10),56,62,105,19,31,80,,41,41,14,21,8,7,0.3,0.3
2024-08-11T1100,1936A,107.2058,34.3497,宝鸡市,文理学院,颗粒物(PM10),54,58,111,14,33,86,,46,46,13,18,10,9,0.4,0.4
2024-08-11T1100,1937A,107.2386,34.3622,宝鸡市,三迪小学,颗粒物(PM10),55,59,118,12,30,84,,45,45,15,20,10,9,0.4,0.4
2024-08-11T1100,1051A,115.493,38.8632,保定市,游泳馆,,38,18,79,3,20,119,,84,84,6,8,5,5,0.2,0.3
2024-08-11T1100,1052A,115.5213,38.8959,保定市,华电二区,,39,9,66,3,18,122,,87,87,4,8,8,5,0.1,0.1
2024-08-11T1100,1053A,115.4713,38.9108,保定市,接待中心,,35,13,65,3,20,112,,77,77,2,6,1,1,0.2,0.3
2024-08-11T1100,1054A,115.4612,38.8416,保定市,地表水厂,,37,15,83,6,23,118,,78,78,3,8,1,2,0.1,0.2
2024-08-11T1100,3581A,115.31981,38.95208,保定市,满城区生态环境分局,,40,17,60,3,10,126,,98,98,10,12,3,3,0.2,0.2
2024-08-11T1100,3582A,115.47694,38.76408,保定市,清苑区第二中学,,37,29,116,15,31,118,,87,87,4,11,5,5,0.3,0.4
2024-08-11T1100,3583A,115.62909,39.02311,保定市,徐水物探局,,35,10,73,3,13,109,,72,72,4,11,3,2,0.2,0.2
2024-08-11T1100,4004A,115.4202,38.8656,保定市,双鹰农机,,43,24,75,6,17,135,,87,87,4,12,2,2,0.3,0.3
2024-08-11T1100,4034A,115.5150,38.8590,保定市,植保所站,,41,25,71,11,18,131,,98,98,2,4,3,3,0.1,0.3
2024-08-11T1100,2594A,99.1678,25.1081,保山市,市环境监测站,,17,17,20,7,8,20,,9,9,11,9,4,4,0.5,0.5
2024-08-11T1100,2595A,99.1711,25.1328,保山市,市环保局,,25,25,22,13,9,26,,14,14,7,7,7,6,0.5,0.4
2024-08-11T1100,1866A,109.2262,21.588,北海市,牛尾岭水库,,,,,,,,,,,,,,,,
2024-08-11T1100,1867A,109.1436,21.4086,北海市,海滩公园,,15,10,44,3,8,46,,68,63,7,4,4,4,0.4,0.5
2024-08-11T1100,1868A,109.0981,21.4661,北海市,新市环保局,,16,16,23,3,8,49,,67,60,8,4,3,2,0.7,0.7
2024-08-11T1100,1869A,109.1778,21.5233,北海市,北海工业园,,17,7,26,3,14,54,,54,51,4,7,4,4,0.5,0.5
2024-08-11T1100,3400A,109.1911,21.4415,北海市,龙潭自来水厂,,16,14,20,11,13,48,,60,57,4,4,9,8,0.5,0.6
2024-08-11T1100,1001A,116.3621,39.8784,北京市,万寿西宫,,26,7,35,3,15,83,,34,34,8,23,3,3,0.4,0.7
2024-08-11T1100,1002A,116.2202,40.2915,北京市,定陵,,23,6,31,3,8,73,,62,62,2,2,1,2,0.4,0.5
2024-08-11T1100,1003A,116.4174,39.9289,北京市,东四,,30,6,34,3,13,93,,49,49,16,27,2,2,0.5,0.7
2024-08-11T1100,1004A,116.4072,39.8863,北京市,天坛,,29,6,28,3,12,91,,36,36,6,15,3,3,0.4,0.6
2024-08-11T1100,1005A,116.462,39.9365,北京市,农展馆,,26,6,31,3,10,82,,35,35,1,19,1,2,0.3,0.5
2024-08-11T1100,1006A,116.3392,39.9295,北京市,官园,,27,6,39,3,14,86,,38,38,5,27,3,3,0.4,0.6
2024-08-11T1100,1007A,116.2878,39.9611,北京市,海淀万柳,,23,6,37,3,13,71,,32,32,10,20,2,2,0.3,0.5
2024-08-11T1100,1008A,116.6636,40.135,北京市,顺义新城,,27,6,20,3,17,85,,40,40,4,14,3,3,0.1,0.3
2024-08-11T1100,1009A,116.6275,40.3275,北京市,怀柔镇,,26,6,33,3,13,82,,46,46,4,9,5,5,0.1,0.2
2024-08-11T1100,1010A,116.2296,40.217,北京市,昌平镇,,21,8,29,3,9,65,,62,62,9,13,3,4,0.3,0.4
2024-08-11T1100,1011A,116.3966,39.9821,北京市,奥体中心,,24,6,23,3,9,75,,34,34,8,32,3,3,0.2,0.4
2024-08-11T1100,1012A,116.184,39.9136,北京市,古城,,30,30,27,11,9,85,,40,40,24,20,1,2,0.5,0.5
2024-08-11T1100,3281A,115.9718,40.4529,北京市,延庆夏都,,25,9,30,3,6,77,,82,80,4,4,3,3,0.3,0.3
2024-08-11T1100,3417A,117.0709,40.1465,北京市,平谷新城,,26,14,38,3,13,83,,44,44,6,6,3,3,0.2,0.4
2024-08-11T1100,3418A,116.8336,40.4095,北京市,密云新城,,29,14,38,6,12,91,,39,39,3,5,3,3,0.4,0.4
2024-08-11T1100,3671A,116.088,39.9726,北京市,门头沟三家店,,18,7,28,3,8,57,,30,30,7,10,3,3,0.3,0.4
2024-08-11T1100,3672A,116.1541,39.8204,北京市,丰台云岗,,32,32,29,12,9,87,,36,36,9,10,3,2,0.4,0.4
2024-08-11T1100,3673A,116.6804,39.9081,北京市,通州东关,,30,6,34,3,12,96,,46,46,6,16,1,3,0.4,0.5
2024-08-11T1100,3674A,115.9577,39.7603,北京市,房山燕山,颗粒物(PM10),52,53,40,12,12,122,,60,60,9,11,3,3,0.4,0.4
2024-08-11T1100,3675A,116.4672,39.7733,北京市,大兴旧宫,,30,13,39,7,16,93,,36,36,9,21,3,3,0.4,0.6
2024-08-11T1100,3694A,115.986,40.4563,北京市,延庆石河营,,24,7,27,3,6,74,,82,78,2,3,3,3,0.3,0.3
2024-08-11T1100,3695A,116.6151,40.3053,北京市,怀柔新城,,25,6,32,3,11,80,,46,46,1,4,3,3,0.4,0.6
2024-08-11T1100,3696A,116.2545,39.8768,北京市,丰台小屯,,26,22,30,9,11,82,,23,23,10,13,5,6,0.3,0.5
2024-08-11T1100,3697A,116.84,40.3844,北京市,密云镇,,24,12,40,6,15,76,,30,30,5,11,3,3,0.3,0.4
2024-08-11T1100,1761A,123.8275,41.3064,本溪市,大峪,颗粒物(PM10),53,56,17,20,9,90,,51,51,14,10,6,6,0.4,0.4
2024-08-11T1100,1762A,123.7567,41.3325,本溪市,溪湖,,41,41,21,18,9,89,,67,67,9,10,5,5,0.7,0.8
2024-08-11T1100,1763A,123.7169,41.3094,本溪市,彩屯,颗粒物(PM10),56,61,31,26,15,72,,44,44,24,24,7,9,2.4,2.2
2024-08-11T1100,1764A,123.7669,41.2864,本溪市,东明,颗粒物(PM10),63,75,26,15,10,103,,90,90,11,9,4,4,0.6,0.6
2024-08-11T1100,1765A,123.7992,41.2664,本溪市,新立屯,颗粒物(PM10),59,68,24,12,6,99,,91,91,8,8,2,3,0.7,0.6
2024-08-11T1100,1766A,123.8142,41.3472,本溪市,威宁,颗粒物(PM10),53,55,24,25,9,74,,42,42,13,11,8,8,0.6,0.5
2024-08-11T1100,2587A,105.2864,27.3125,毕节市,八中,颗粒物(PM10),73,96,22,31,12,96,,83,77,5,5,5,4,0.3,0.3
2024-08-11T1100,2588A,105.31,27.2944,毕节市,师专,颗粒物(PM10),72,93,21,32,9,92,,79,71,4,6,5,5,0.4,0.4
2024-08-11T1100,3537A,105.3631,27.3533,毕节市,长征村,颗粒物(PM10),63,75,23,34,12,103,,90,83,4,5,5,5,0.5,0.4
2024-08-11T1100,1629A,118.0018,37.3617,滨州市,第二水厂,,,51,100,12,29,129,,65,65,,16,,2,0.7,0.8
2024-08-11T1100,1630A,117.9776,37.393,滨州市,北中新校,,46,46,105,17,28,122,,94,94,6,9,8,4,0.4,0.4
2024-08-11T1100,3514A,117.9378,37.3956,滨州市,中海酒店,,41,41,103,14,30,127,,99,99,6,11,6,9,0.7,0.9
2024-08-11T1100,3515A,117.9378,37.3553,滨州市,开发区一中,,,53,102,14,30,135,,92,92,12,12,10,7,,0.6
2024-08-11T1100,3516A,118.0917,37.694,滨州市,金海六路,,46,46,115,9,26,126,,77,77,8,16,5,3,0.5,0.5
2024-08-11T1100,4028A,117.9956,37.3753,滨州市,滨州市西街道办事处,,46,46,101,19,29,142,,92,92,4,7,7,3,0.5,0.6
2024-08-11T1100,2311A,115.8072,33.8399,亳州市,污水处理厂,,,,203,,52,118,,80,80,9,10,3,1,0.4,0.4
2024-08-11T1100,2312A,115.7789,33.8518,亳州市,三国揽胜宫,颗粒物(PM10),122,194,211,52,57,130,,87,87,8,7,4,3,0.5,0.5
2024-08-11T1100,3332A,115.7633,33.8034,亳州市,亳州学院,颗粒物(PM10),106,161,204,38,42,124,,77,77,5,7,4,2,0.4,0.4
2024-08-11T1100,2693A,82.0485,44.8556,博尔塔拉蒙古自治州,市党校,,33,33,28,9,14,65,,72,69,20,12,7,7,0.5,0.4
2024-08-11T1100,2694A,82.0806,44.8969,博尔塔拉蒙古自治州,市环保局,,46,46,40,15,12,51,,62,61,20,14,6,6,0.3,0.3
2024-08-11T1100,1071A,116.8842,38.2991,沧州市,沧县城建局,,38,26,96,7,26,119,,72,72,7,10,3,3,0.3,0.4
2024-08-11T1100,1072A,116.8584,38.3254,沧州市,电视转播站,,38,17,88,7,27,120,,78,78,8,11,2,3,0.2,0.3
2024-08-11T1100,1073A,116.8709,38.3228,沧州市,市环保局,,39,22,90,3,26,122,,80,80,8,10,4,4,0.3,0.4
2024-08-11T1100,3324A,116.8136,38.3004,沧州市,河北水利电力学院,,40,22,110,11,32,125,,76,76,10,14,6,6,0.4,0.4
2024-08-11T1100,2622A,97.1806,31.1273,昌都市,昌都监测站,,24,12,12,7,7,76,,64,64,12,8,6,7,0.5,0.4
2024-08-11T1100,3719A,97.1714,31.1406,昌都市,昌都会议中心,,29,20,13,6,7,92,,72,70,4,4,7,7,0.4,0.4
2024-08-11T1100,2690A,88.1236,43.8886,昌吉回族自治州,天山天池,,34,34,33,11,8,91,,73,73,7,7,9,10,0.6,0.6
2024-08-11T1100,2692A,87.2717,44.0297,昌吉回族自治州,新区政务中心,颗粒物(PM10),51,52,46,14,14,85,,79,57,17,14,8,9,0.5,0.5
2024-08-11T1100,3613A,87.3095,44.0142,昌吉回族自治州,亚心广场,颗粒物(PM10),54,58,55,17,12,88,,80,60,28,22,7,6,0.3,0.3
2024-08-11T1100,1119A,125.3325,43.9166,长春市,食品厂,,29,29,20,14,13,66,,76,71,12,11,2,2,0.4,0.4
2024-08-11T1100,1120A,125.2863,43.9027,长春市,客车厂,,24,24,22,12,14,72,,80,76,6,11,5,5,0.4,0.4
2024-08-11T1100,1121A,125.2841,43.8463,长春市,邮电学院,,34,34,23,12,12,66,,73,68,6,9,6,6,0.4,0.4
2024-08-11T1100,1122A,125.3716,43.8772,长春市,劳动公园,,27,27,24,12,12,71,,79,74,7,11,6,6,0.5,0.6
2024-08-11T1100,1123A,125.3297,43.8805,长春市,园林处,,28,28,22,11,12,72,,78,73,7,10,1,1,0.5,0.5
2024-08-11T1100,1124A,125.4605,43.79,长春市,净月潭,,20,20,18,10,8,62,,69,65,3,4,5,5,0.4,0.5
2024-08-11T1100,1125A,125.7194,43.515,长春市,甩湾子,,,,,,,,,,,,,,,,
2024-08-11T1100,1126A,125.3863,43.8447,长春市,经开区环卫处,,24,24,22,10,11,66,,72,67,6,11,5,5,0.5,0.5
2024-08-11T1100,1127A,125.245,43.7783,长春市,高新区管委会,,25,22,21,12,12,79,,76,74,3,8,2,2,0.4,0.5
2024-08-11T1100,1128A,125.1761,43.8325,长春市,岱山公园,,31,31,23,16,14,76,,72,71,4,8,2,2,0.4,0.4
2024-08-11T1100,1335A,113.0833,28.2325,长沙市,经开区环保局,,,31,42,19,24,69,,59,59,14,13,2,3,,0.5
2024-08-11T1100,1336A,112.8872,28.2189,长沙市,高开区环保局,,29,,34,20,20,75,,66,66,7,8,2,2,0.6,0.6
2024-08-11T1100,1337A,113.0792,28.2053,长沙市,马坡岭,,37,37,41,23,28,75,,60,60,12,11,2,4,0.5,0.6
2024-08-11T1100,1338A,112.9394,28.19,长沙市,湖南师范大学,,25,19,41,17,23,78,,67,67,5,6,2,4,0.6,0.6
2024-08-11T1100,1339A,113.0178,28.1322,长沙市,雨花区环保局,,26,19,42,18,20,76,,63,63,6,11,3,4,0.3,0.4
2024-08-11T1100,1340A,112.9792,28.2597,长沙市,伍家岭,,29,,38,20,24,76,,59,59,4,10,1,2,0.6,0.5
2024-08-11T1100,1341A,113.0014,28.1944,长沙市,火车新站,,32,,39,22,21,81,,67,67,5,8,3,4,0.5,0.5
2024-08-11T1100,1342A,112.9844,28.1178,长沙市,天心区环保局,,25,18,50,9,24,80,,64,64,9,22,1,3,0.4,0.4
2024-08-11T1100,1343A,112.8908,28.1308,长沙市,湖南中医药大学,,31,31,40,16,24,81,,51,51,5,9,3,4,1.0,1
2024-08-11T1100,1344A,112.9581,28.3611,长沙市,沙坪,,24,23,35,13,18,75,,58,58,12,8,6,7,0.6,0.6
2024-08-11T1100,1727A,113.1147,36.1547,长治市,清华站,,37,12,38,3,9,118,,78,78,5,11,5,5,0.4,0.4
2024-08-11T1100,1728A,113.1031,36.1989,长治市,监测站,,35,18,38,3,10,111,,83,83,11,16,8,8,0.4,0.4
2024-08-11T1100,1730A,113.0886,36.2125,长治市,审计局,,34,22,34,3,8,107,,80,80,4,18,5,4,0.1,0.2
2024-08-11T1100,1731A,113.0844,36.1856,长治市,长治八中,,35,15,44,10,14,111,,80,80,7,14,6,6,0.4,0.4
2024-08-11T1100,2845A,113.1569,36.1911,长治市,德盛苑,,36,11,35,3,8,114,,84,84,4,8,8,8,0.5,0.6
2024-08-11T1100,3568A,113.06,36.0464,长治市,向阳小学,,36,34,63,14,23,115,,84,84,7,13,7,7,0.4,0.5
2024-08-11T1100,3569A,112.8792,36.3144,长治市,屯留一中,,37,23,38,3,13,116,,87,87,8,12,8,8,0.3,0.3
2024-08-11T1100,3570A,113.235,36.3489,长治市,潞城四中,,37,18,54,8,14,116,,80,80,7,15,4,4,0.2,0.4
2024-08-11T1100,1854A,111.6975,28.9703,常德市,市二中,颗粒物(PM10),74,98,26,33,15,88,,57,57,2,6,6,6,0.4,0.4
2024-08-11T1100,1857A,111.7158,29.1456,常德市,白鹤山,,,,,,,,,,,,,,,,
2024-08-11T1100,3138A,111.7153,29.0289,常德市,武陵区永安,颗粒物(PM10),68,85,26,31,15,92,,58,58,4,6,7,7,0.4,0.4
2024-08-11T1100,3139A,111.6892,28.9881,常德市,鼎城区玉霞,颗粒物(PM10),72,93,28,36,19,87,,56,56,5,8,5,5,0.5,0.5
2024-08-11T1100,3140A,111.6625,29.0531,常德市,武陵区长庚,,,,23,,17,,,80,,,8,,6,,0.5
2024-08-11T1100,1196A,119.9633,31.762,常州市,市监测站,臭氧1小时,103,72,56,36,31,205,,126,126,9,12,9,7,0.7,0.6
2024-08-11T1100,1200A,119.9468,31.7069,常州市,武进监测站,臭氧1小时,93,49,43,32,28,194,,124,124,6,7,8,6,0.9,0.8
2024-08-11T1100,1201A,119.9255,31.9087,常州市,安家,颗粒物(PM10),53,55,58,30,35,156,,112,112,8,21,4,4,0.8,0.8
2024-08-11T1100,3002A,119.9805,31.8174,常州市,行政中心,臭氧1小时,74,52,44,34,34,179,,124,124,10,14,7,6,0.5,0.4
2024-08-11T1100,3003A,120.0522,31.7748,常州市,经开区,颗粒物(PM10),51,52,49,26,29,140,,85,85,4,13,7,6,0.2,0.5
2024-08-11T1100,3010A,119.9025,31.7964,常州市,钟楼,,,63,55,32,30,171,,117,117,10,13,,9,0.7,0.6
2024-08-11T1100,3429A,119.8598,31.7066,常州市,武进经发区,臭氧1小时,85,65,55,33,31,188,,121,121,8,10,8,8,0.7,0.6
2024-08-11T1100,3430A,119.5826,31.7245,常州市,金坛城区,臭氧1小时,57,44,44,28,29,165,,96,96,5,10,6,6,0.9,0.8
2024-08-11T1100,2220A,120.4318,41.5881,朝阳市,西梁,颗粒物(PM10),64,78,37,29,19,89,,72,72,4,3,8,7,0.9,0.7
2024-08-11T1100,2221A,120.4521,41.5646,朝阳市,河畔小区,,,79,38,,17,89,,74,72,6,5,8,6,0.9,0.8
2024-08-11T1100,2222A,120.4176,41.5648,朝阳市,八里堡,颗粒物(PM10),77,104,42,30,21,92,,75,75,9,8,4,4,1.0,0.9
2024-08-11T1100,2223A,120.3806,41.5969,朝阳市,农业园区,颗粒物(PM10),70,89,37,34,24,94,,59,59,6,6,6,6,0.9,0.8
2024-08-11T1100,1705A,116.6367,23.6719,潮州市,西园路,颗粒物(PM10),58,65,45,24,28,94,,45,45,6,12,2,3,0.3,0.5
2024-08-11T1100,3026A,116.6183,23.6608,潮州市,市政府,,45,45,48,23,28,114,,56,56,8,14,5,11,0.8,0.9
2024-08-11T1100,4036A,116.6461,23.6761,潮州市,金山,颗粒物(PM10),51,51,48,29,31,97,,45,45,5,13,5,7,0.7,0.7
2024-08-11T1100,2472A,113.0073,25.9061,郴州市,马头岭,,43,43,30,19,14,71,,36,36,8,9,9,7,0.3,0.4
2024-08-11T1100,2473A,113.0116,25.8226,郴州市,市职中,,27,23,23,17,17,85,,36,36,4,7,8,8,0.5,0.5
2024-08-11T1100,2474A,113.0161,25.8001,郴州市,兴隆步行街,,28,20,28,16,16,88,,41,41,10,9,7,6,0.6,0.5
2024-08-11T1100,2475A,113.0383,25.8071,郴州市,市审计局,,35,35,25,24,18,76,,37,37,11,13,6,7,0.5,0.4
2024-08-11T1100,2476A,113.0348,25.7759,郴州市,市环保局,,33,29,28,23,20,80,,44,44,18,17,6,6,0.6,0.5
2024-08-11T1100,1431A,103.9728,30.7236,成都市,金泉两河,,44,44,37,8,14,88,,23,23,8,20,2,2,0.5,0.6
2024-08-11T1100,1432A,104.176,30.6872,成都市,十里店,颗粒物(PM10),58,66,41,22,16,86,,31,31,24,28,4,3,0.6,0.6
2024-08-11T1100,1433A,104.079,30.5706,成都市,三瓦窑,颗粒物(PM10),54,58,42,32,21,65,,18,18,25,37,3,3,0.5,0.5
2024-08-11T1100,1434A,104.1114,30.63,成都市,沙河铺,颗粒物(PM10),53,56,42,13,16,60,,16,16,30,29,6,4,0.6,0.6
2024-08-11T1100,1437A,104.0786,30.6531,成都市,君平街,颗粒物(PM10),60,70,46,32,16,77,,30,30,34,31,4,3,0.7,0.7
2024-08-11T1100,1438A,103.613,31.0283,成都市,灵岩寺,,,,,,,,,,,,,,,,
2024-08-11T1100,2880A,104.0239,30.65639,成都市,大石西路,颗粒物(PM10),61,71,42,21,15,61,,21,21,45,34,5,4,0.7,0.6
2024-08-11T1100,3136A,104.2725,30.5589,成都市,龙泉驿区区政府,,41,41,35,14,12,91,,46,46,11,17,5,5,0.4,0.4
2024-08-11T1100,3357A,104.0106,30.6931,成都市,金博路,,41,41,34,12,14,60,,16,16,25,25,2,2,0.5,0.5
2024-08-11T1100,3359A,104.0578,30.5225,成都市,华阳,颗粒物(PM10),56,61,43,31,26,60,,25,25,28,20,4,3,0.6,0.7
2024-08-11T1100,3487A,104.2394,30.5319,成都市,车城东七路,,42,42,46,19,21,89,,53,53,9,15,3,3,0.3,0.4
2024-08-11T1100,3488A,104.3853,30.7453,成都市,青白江技师分院,,38,38,34,3,13,107,,36,36,12,30,6,4,0.5,0.5
2024-08-11T1100,3489A,104.0789,30.4072,成都市,科学城,,41,41,44,20,25,62,,24,24,12,18,4,4,0.5,0.7
2024-08-11T1100,4011A,103.8506,30.6947,成都市,光华大道三段,颗粒物(PM10),67,84,43,22,13,91,,29,29,18,18,2,2,0.6,0.8
2024-08-11T1100,1062A,117.9531,40.9081,承德市,铁路,颗粒物(PM10),53,55,72,29,21,100,,54,54,14,17,8,9,0.4,0.4
2024-08-11T1100,1063A,117.9392,40.9763,承德市,中国银行,颗粒物(PM10),57,63,77,8,21,116,,48,48,8,13,5,7,0.3,0.4
2024-08-11T1100,1064A,117.9503,40.928,承德市,开发区,颗粒物(PM10),61,71,65,16,17,110,,55,55,12,12,8,9,0.4,0.4
2024-08-11T1100,1065A,117.8051,40.9655,承德市,文化中心,,38,24,84,8,24,120,,57,57,7,18,9,20,0.5,0.4
2024-08-11T1100,1066A,117.9268,41.0026,承德市,离宫,,46,46,65,3,13,95,,40,40,4,7,4,7,0.4,0.5
2024-08-11T1100,2314A,117.47,30.6618,池州市,池州学院,,48,40,34,23,20,151,,86,86,9,9,8,7,0.7,0.7
2024-08-11T1100,3237A,117.4918,30.6617,池州市,展览馆,,50,43,35,26,22,157,,95,95,6,7,6,5,0.7,0.7
2024-08-11T1100,3333A,117.5627,30.695,池州市,第八中学,,45,41,34,25,22,141,,80,80,9,12,5,5,0.6,0.6
2024-08-11T1100,3334A,117.5038,30.6243,池州市,第十二中学,,43,34,32,21,22,135,,73,73,7,11,6,6,0.6,0.8
2024-08-11T1100,1744A,118.9233,42.2816,赤峰市,松山一中,,21,15,15,3,3,65,,67,67,17,13,9,9,0.6,0.6
2024-08-11T1100,1745A,118.9576,42.2728,赤峰市,哈达街,,19,14,14,3,5,60,,64,64,15,13,10,13,0.5,0.5
2024-08-11T1100,1746A,118.8788,42.2554,赤峰市,天义路,,23,9,22,3,11,72,,67,67,13,15,7,8,0.3,0.4
2024-08-11T1100,3058A,119.2658,42.0353,赤峰市,银河街,,21,17,23,3,8,65,,76,72,10,12,10,13,0.3,0.3
2024-08-11T1100,3286A,118.9359,42.3147,赤峰市,桥北物流园区,,24,,12,3,7,76,,76,76,9,8,6,6,0.6,0.6
2024-08-11T1100,2521A,107.3476,22.4136,崇左市,市环保局江州分局,,15,13,24,8,13,48,,52,52,4,5,5,6,0.5,0.5
2024-08-11T1100,2522A,107.3702,22.3707,崇左市,城南新区,,18,14,22,7,11,55,,54,54,2,3,5,4,0.6,0.6
2024-08-11T1100,2298A,118.3093,32.3153,滁州市,老年大学,颗粒物(PM10),87,123,34,33,20,131,,101,101,3,4,6,6,0.4,0.4
2024-08-11T1100,2299A,118.3244,32.2786,滁州市,人大宾馆,颗粒物(PM10),80,110,44,30,23,145,,110,110,6,6,6,6,0.6,0.6
2024-08-11T1100,3207A,118.3118,32.3038,滁州市,市政府原办公楼,颗粒物(PM10),87,123,37,32,24,128,,101,101,5,6,7,7,0.7,0.7
2024-08-11T1100,3331A,118.3267,32.2634,滁州市,图书馆,颗粒物(PM10),63,75,36,20,21,142,,106,106,6,6,5,5,0.8,0.8
2024-08-11T1100,2605A,101.5482,25.0441,楚雄彝族自治州,州环境监测站,,24,16,13,8,10,74,,58,58,11,13,4,5,0.6,0.6
2024-08-11T1100,2606A,101.538,25.0492,楚雄彝族自治州,市经济开发区,,24,12,13,8,8,76,,59,59,10,14,5,5,0.6,0.6
2024-08-11T1100,2548A,107.5277,31.2827,达州市,达州职业技术学院,颗粒物(PM10),61,71,62,15,13,59,,15,15,4,9,6,5,0.4,0.4
2024-08-11T1100,2549A,107.5086,31.2186,达州市,市环境监测站,颗粒物(PM10),67,84,72,24,17,46,,15,15,29,27,10,7,1.0,0.6
2024-08-11T1100,2550A,107.4988,31.2132,达州市,凤凰小区,颗粒物(PM10),69,88,73,34,23,50,,25,25,25,22,14,9,1.3,0.6
2024-08-11T1100,2551A,107.5082,31.1986,达州市,达县机关宾馆,颗粒物(PM10),69,88,76,13,17,42,,13,13,30,31,6,7,0.6,0.5
2024-08-11T1100,2552A,107.4644,31.2124,达州市,市政中心,颗粒物(PM10),61,72,73,27,20,45,,29,29,36,23,14,10,1.1,0.8
2024-08-11T1100,2614A,100.1542,25.7054,大理白族自治州,大理市环境监测站,,27,17,10,13,11,84,,69,69,16,13,3,3,0.6,0.5
2024-08-11T1100,2615A,100.2171,25.5811,大理白族自治州,大理古城,,23,23,16,10,12,57,,67,67,27,14,8,7,0.7,0.6
2024-08-11T1100,1109A,121.612,38.9741,大连市,甘井子,,41,41,30,25,19,120,,102,100,15,14,8,7,0.7,0.7
2024-08-11T1100,1110A,121.565,38.9511,大连市,周水子,,,37,26,23,19,111,,92,90,,13,9,8,0.7,0.6
2024-08-11T1100,1111A,121.5637,38.8845,大连市,星海三站,,37,32,27,24,19,116,,101,98,7,7,8,7,0.6,0.5
2024-08-11T1100,1112A,121.6302,38.9117,大连市,青泥洼桥,,36,36,29,25,19,113,,100,98,4,5,6,6,0.7,0.6
2024-08-11T1100,1113A,121.6251,38.8638,大连市,傅家庄,,38,38,31,26,19,104,,95,93,4,6,5,5,0.8,0.7
2024-08-11T1100,1114A,121.5213,38.8661,大连市,七贤岭,,39,36,27,26,19,123,,99,99,9,9,8,6,0.8,0.7
2024-08-11T1100,1115A,121.2529,38.8061,大连市,旅顺,,42,35,28,24,18,133,,106,106,10,9,8,8,0.4,0.4
2024-08-11T1100,1116A,121.7485,39.1311,大连市,金州,,35,28,21,24,19,102,,92,89,13,9,8,8,0.6,0.5
2024-08-11T1100,1117A,121.7811,39.0496,大连市,开发区,,37,27,26,22,18,117,,100,100,5,6,8,8,0.4,0.4
2024-08-11T1100,1118A,121.9762,39.0631,大连市,双D港,,37,35,28,20,15,116,,99,99,10,11,6,6,0.5,0.5
2024-08-11T1100,1789A,124.81117,46.03138,大庆市,大同区,,22,12,12,10,15,68,,89,80,7,7,8,8,0.4,0.4
2024-08-11T1100,1790A,125.129,46.533,大庆市,龙凤区,,23,,7,8,11,71,,88,81,5,6,4,4,0.3,0.4
2024-08-11T1100,1791A,124.902,46.408,大庆市,红岗区,,24,,18,13,13,74,,92,84,7,7,7,7,0.4,0.4
2024-08-11T1100,1792A,125.153,46.586,大庆市,萨尔图区,,21,7,12,6,4,67,,88,78,4,5,4,5,0.4,0.4
2024-08-11T1100,1793A,124.9042,46.6215,大庆市,让胡路区,,,24,25,3,11,69,,89,79,4,8,,4,0.2,0.2
2024-08-11T1100,3481A,125.141,46.634,大庆市,萨区政府监测点,,22,11,18,7,6,68,,90,81,5,5,6,6,0.3,0.2
2024-08-11T1100,1721A,113.3819,40.1097,大同市,果树场,,,,,,,,,,,,,,,,
2024-08-11T1100,1723A,113.2994,40.0758,大同市,云冈宾馆,,,8,12,3,6,100,,100,96,9,8,6,6,,0.4
2024-08-11T1100,1724A,113.3444,40.0917,大同市,大同大学,,,,,,4,,,97,,,9,,6,,0.3
2024-08-11T1100,1725A,113.2661,40.1269,大同市,安家小村,,31,6,13,3,3,97,,102,97,4,4,8,8,0.4,0.4
2024-08-11T1100,1726A,113.2711,40.0844,大同市,教育学院,,29,12,15,3,4,92,,95,90,12,11,8,8,0.4,0.4
2024-08-11T1100,3282A,113.3397,40.0597,大同市,大同市卫生学校,,31,7,14,3,6,97,,100,96,8,10,6,6,0.4,0.4
2024-08-11T1100,3565A,113.1367,40.1122,大同市,云冈站,,29,12,12,7,6,91,,94,89,7,6,8,7,0.3,0.3
2024-08-11T1100,3566A,113.1186,40.2556,大同市,图书馆,,32,6,9,3,4,101,,106,101,6,6,7,6,0.4,0.4
2024-08-11T1100,3567A,113.5931,40.0461,大同市,区一中,,24,23,20,3,5,76,,93,85,21,11,11,8,0.2,0.2
2024-08-11T1100,3676A,113.2802,40.0995,大同市,第二人民医院,,32,16,14,3,5,102,,100,97,5,7,8,9,0.4,0.4
2024-08-11T1100,2269A,124.1069,50.4097,大兴安岭地区,科技局,,17,17,25,7,11,41,,28,28,3,4,3,3,0.1,0.1
2024-08-11T1100,3663A,124.1164,50.4278,大兴安岭地区,红旗社区,,13,,6,8,8,39,,27,27,2,4,5,5,0.3,0.4
2024-08-11T1100,1600A,124.3303,40.0625,丹东市,江湾东路,,18,18,19,9,11,54,,60,60,3,3,1,2,0.5,0.6
2024-08-11T1100,1601A,124.4256,40.1503,丹东市,临江后街,,19,17,17,12,10,60,,68,67,4,4,4,4,0.4,0.4
2024-08-11T1100,1602A,124.3933,40.1461,丹东市,元宝山,,18,16,16,10,12,57,,64,64,3,3,2,2,0.5,0.5
2024-08-11T1100,1603A,124.3633,40.1092,丹东市,民主桥,,17,17,24,10,12,54,,62,62,3,3,1,2,0.3,0.4
2024-08-11T1100,3541A,109.5726,19.5167,儋州市,第一中学子站,,17,14,19,9,10,54,,42,42,2,4,4,4,0.5,0.5
2024-08-11T1100,3542A,109.5567,19.5187,儋州市,东坡学校子站,,19,17,18,7,12,59,,42,42,2,3,7,6,0.5,0.5
2024-08-11T1100,2616A,98.5842,24.428,德宏傣族景颇族自治州,德宏州监测站,,28,28,23,14,11,17,,7,7,10,10,8,8,0.9,0.9
2024-08-11T1100,3677A,98.5881,24.4368,德宏傣族景颇族自治州,芒市人民政府综合楼,,36,36,24,22,12,17,,4,4,13,8,7,6,0.8,0.7
2024-08-11T1100,1901A,104.4239,31.1208,德阳市,东山公园,,47,47,50,11,15,92,,48,48,16,21,4,4,0.6,0.6
2024-08-11T1100,1902A,104.3826,31.1317,德阳市,西小区,,46,46,47,11,18,98,,38,38,25,28,5,4,0.6,0.7
2024-08-11T1100,1904A,104.3553,31.1091,德阳市,耐火材料厂,颗粒物(PM10),55,59,50,15,20,88,,31,31,30,26,7,6,0.7,0.7
2024-08-11T1100,3639A,104.4019,31.1244,德阳市,市教育局,颗粒物(PM10),52,54,49,14,17,96,,38,38,21,26,4,4,0.6,0.7
2024-08-11T1100,1622A,116.3032,37.4674,德州市,儿童乐园,,38,19,99,7,23,120,,85,85,8,14,10,10,0.5,0.7
2024-08-11T1100,1624A,116.2991,37.4451,德州市,监理站,,39,12,100,3,22,122,,82,82,12,15,14,11,0.5,0.6
2024-08-11T1100,3066A,116.2721,37.4379,德州市,九衢泉纯净水厂,,37,24,94,7,26,117,,72,72,15,12,12,8,0.5,0.6
2024-08-11T1100,3371A,116.3728,37.4403,德州市,开发区人民医院,,40,17,101,3,22,125,,86,86,7,11,10,10,0.6,0.7
2024-08-11T1100,3372A,116.3572,37.4094,德州市,太阳城中学,,41,24,102,3,27,129,,77,77,16,16,12,10,0.5,0.8
2024-08-11T1100,3511A,116.5652,37.3319,德州市,陵城艺术中心,,42,27,103,3,22,132,,70,70,11,15,8,7,0.5,0.6
2024-08-11T1100,2621A,99.7056,27.8317,迪庆藏族自治州,迪庆州站,,31,14,16,6,8,97,,69,69,10,12,10,10,0.4,0.5
2024-08-11T1100,3180A,99.7136,27.8094,迪庆藏族自治州,质量技术监督局,,29,13,12,3,7,91,,79,79,11,14,8,8,0.5,0.6
2024-08-11T1100,2663A,104.6241,35.5734,定西市,东关小学,,46,46,42,20,17,95,,35,35,17,16,13,10,0.4,0.3
2024-08-11T1100,2664A,104.6194,35.5934,定西市,供电公司,,35,35,35,12,18,96,,32,32,14,19,9,6,0.3,0.3
2024-08-11T1100,1389A,113.7547,23.0494,东莞市,莞城梨川,,33,29,32,16,14,105,,45,45,13,17,6,5,0.7,0.7
2024-08-11T1100,1390A,113.7944,23.0128,东莞市,东城石井,,30,25,27,16,12,96,,32,32,10,19,6,5,0.5,0.5
2024-08-11T1100,1391A,113.7383,22.9658,东莞市,南城西平,,39,30,25,27,12,96,,39,39,13,15,6,4,0.7,0.7
2024-08-11T1100,3319A,113.7338,23.0381,东莞市,万江金泰,,33,32,29,19,13,105,,44,44,9,12,4,4,0.8,0.7
2024-08-11T1100,3626A,113.7533,23.0202,东莞市,南城元岭,,31,29,26,18,12,98,,40,40,6,12,5,6,0.7,0.7
2024-08-11T1100,3627A,113.7875,23.0457,东莞市,东城主山,,33,33,30,18,14,86,,40,40,28,17,6,6,0.6,0.6
2024-08-11T1100,1666A,118.6614,37.4309,东营市,市环保局,颗粒物(PM10),67,83,94,24,27,152,,88,88,14,19,9,7,0.3,0.4
2024-08-11T1100,3036A,118.6904,37.4338,东营市,开发区管委会,颗粒物(PM10),78,106,100,27,28,160,,90,90,12,18,9,6,0.2,0.3
2024-08-11T1100,3365A,118.5719,37.565,东营市,垦利区民丰路,,,,107,22,28,141,,92,92,8,13,7,7,0.3,0.4
2024-08-11T1100,3498A,118.5055,37.8612,东营市,河口城区,颗粒物(PM10),58,66,104,20,27,129,,71,71,7,10,6,6,0.7,0.7
2024-08-11T1100,3646A,118.4978,37.4623,东营市,胜利站,颗粒物(PM10),68,85,90,24,26,146,,88,88,16,20,10,6,0.3,0.5
2024-08-11T1100,3734A,118.35,37.26,东营市,理想之城,颗粒物(PM10),53,56,93,14,32,138,,80,80,2,10,6,6,0.6,0.8
2024-08-11T1100,1591A,110.0023,39.8129,鄂尔多斯市,综合楼,颗粒物(PM10),54,58,23,3,2,105,,89,89,12,8,10,7,0.5,0.5
2024-08-11T1100,1592A,109.9486,39.8261,鄂尔多斯市,巴音孟克林场办事处,,31,27,17,7,5,98,,81,81,7,8,6,5,0.4,0.4
2024-08-11T1100,1593A,109.7736,39.5986,鄂尔多斯市,康泽苑,,34,12,12,7,6,106,,89,89,2,3,5,5,0.4,0.3
2024-08-11T1100,1594A,109.8119,39.5989,鄂尔多斯市,华泰汽车城,,31,19,13,12,8,98,,83,83,3,4,3,3,0.7,0.7
2024-08-11T1100,1595A,109.9734,39.7884,鄂尔多斯市,奥林花园,,,,,5,7,102,,86,86,10,8,6,5,0.5,0.5
2024-08-11T1100,2436A,114.8938,30.3994,鄂州市,市政府,颗粒物(PM10),80,109,49,29,18,121,,76,76,11,13,6,10,0.8,0.9
2024-08-11T1100,2437A,114.8989,30.3714,鄂州市,赵家坝,,,85,49,30,19,121,,57,57,2,5,,9,0.5,0.5
2024-08-11T1100,3654A,114.8094,30.4089,鄂州市,精准医疗中心,颗粒物(PM10),62,73,41,26,18,133,,61,61,3,11,6,7,0.5,0.6
2024-08-11T1100,2454A,109.4978,30.2981,恩施土家族苗族自治州,湖北民院,颗粒物(PM10),73,96,43,34,18,82,,34,34,4,13,7,7,0.7,0.7
2024-08-11T1100,2455A,109.4707,30.2798,恩施土家族苗族自治州,州电力总公司,颗粒物(PM10),73,95,38,36,16,57,,24,24,20,19,6,6,0.5,0.5
2024-08-11T1100,3549A,109.5061,30.3772,恩施土家族苗族自治州,龙凤新区,颗粒物(PM10),69,88,41,30,17,66,,29,29,14,13,6,6,0.6,0.6
2024-08-11T1100,2499A,108.3411,21.6158,防城港市,沙万,,13,,29,7,12,22,,53,41,26,16,7,8,0.6,0.6
2024-08-11T1100,2500A,108.3514,21.7731,防城港市,防城档案局,,10,8,22,6,7,22,,34,32,20,8,6,6,0.9,0.7
2024-08-11T1100,2501A,108.3506,21.6414,防城港市,大海花园,,11,6,29,3,8,33,,52,43,9,10,5,5,0.6,0.6
2024-08-11T1100,1371A,113.1294,23.0067,佛山市,湾梁,,29,29,20,18,17,87,,51,51,14,16,7,6,0.6,0.7
2024-08-11T1100,1372A,113.1083,23.0478,佛山市,华材职中,,31,31,24,12,15,79,,49,49,14,15,6,6,0.4,0.4
2024-08-11T1100,1373A,113.144,23.0453,佛山市,南海气象局,,29,29,26,11,14,83,,50,50,6,10,8,7,0.4,0.5
2024-08-11T1100,1374A,113.2881,22.8094,佛山市,顺德苏岗,,26,25,22,12,12,83,,39,39,6,15,6,7,0.5,0.6
2024-08-11T1100,1376A,112.8383,22.8678,佛山市,高明孔堂,,22,18,22,13,12,70,,39,39,5,6,7,7,0.6,0.6
2024-08-11T1100,1377A,112.8836,23.1588,佛山市,三水监测站,,42,31,27,29,17,66,,36,36,17,21,5,5,0.5,0.5
2024-08-11T1100,1378A,112.867,23.185,佛山市,三水云东海,,33,33,29,23,19,71,,35,35,11,19,6,7,0.5,0.5
2024-08-11T1100,3625A,113.2544,22.7642,佛山市,容桂街道办,,25,,19,14,12,79,,40,40,9,18,6,6,0.5,0.6
2024-08-11T1100,1280A,119.3903,26.0543,福州市,鼓山,,,,,,,,,,,,,,,,
2024-08-11T1100,1282A,119.2681,26.0504,福州市,师大,,39,39,42,23,24,114,,52,52,8,11,4,4,0.6,0.6
2024-08-11T1100,1283A,119.2984,26.1028,福州市,五四北路,,,,,20,31,124,,53,53,8,14,4,4,0.5,0.6
2024-08-11T1100,1284A,119.2648,26.0768,福州市,杨桥西路,,39,35,47,23,28,124,,51,51,7,13,4,4,0.5,0.5
2024-08-11T1100,1285A,119.317,26.0746,福州市,紫阳,,38,38,43,20,24,116,,51,51,9,11,7,7,0.4,0.5
2024-08-11T1100,3048A,119.5799,26.0936,福州市,九龙,,48,48,41,29,32,141,,60,60,7,8,8,5,0.5,0.5
2024-08-11T1100,3526A,119.5189,25.9664,福州市,吴航,,46,45,46,32,30,136,,59,59,4,8,8,5,0.6,0.6
2024-08-11T1100,1755A,123.7977,41.8491,抚顺市,望花区,颗粒物(PM10),58,65,30,28,15,81,,49,49,15,15,14,13,0.5,0.6
2024-08-11T1100,1756A,123.9161,41.8822,抚顺市,顺城区,颗粒物(PM10),52,54,21,14,9,84,,51,51,10,9,2,3,0.4,0.4
2024-08-11T1100,1757A,124.0436,41.8611,抚顺市,东洲区,,34,34,16,16,9,78,,60,60,5,5,3,4,0.3,0.3
2024-08-11T1100,1758A,123.9247,41.8642,抚顺市,新抚区,,44,44,19,16,9,71,,48,48,13,11,6,6,0.4,0.5
2024-08-11T1100,1759A,124.0972,41.8961,抚顺市,大伙房水库,,26,,8,18,8,77,,63,63,2,2,2,2,0.5,0.5
2024-08-11T1100,1760A,123.7086,41.8391,抚顺市,沈抚新城,,41,41,24,23,9,88,,57,57,8,9,5,5,0.4,0.3
2024-08-11T1100,2376A,116.2127,28.0814,抚州市,桐源党溪,,44,44,42,28,26,106,,43,43,3,9,7,6,0.7,0.6
2024-08-11T1100,2377A,116.3544,27.9831,抚州市,市站,,39,39,36,25,21,98,,64,64,4,5,4,5,0.8,0.7
2024-08-11T1100,2378A,116.3565,27.963,抚州市,血防站,,,,42,20,20,92,,56,56,6,8,5,4,1.2,1
2024-08-11T1100,2379A,116.3564,28.0007,抚州市,采茶剧团,,42,42,34,21,21,96,,59,59,3,5,7,6,0.9,0.9
2024-08-11T1100,2380A,116.385,27.9647,抚州市,医学分院,,38,38,37,17,20,100,,55,55,6,8,4,4,0.6,0.6
2024-08-11T1100,2207A,121.6094,41.998,阜新市,工业园区,颗粒物(PM10),54,58,42,18,23,68,,92,89,13,10,4,4,0.8,0.8
2024-08-11T1100,2208A,121.6697,42.0279,阜新市,长青街,颗粒物(PM10),53,55,48,23,25,98,,85,85,8,9,5,8,0.7,0.7
2024-08-11T1100,2209A,121.6673,42.0705,阜新市,农业园区,颗粒物(PM10),74,97,48,31,27,93,,102,99,9,10,3,3,0.8,0.8
2024-08-11T1100,2210A,121.6717,42.0224,阜新市,东苑,,,102,47,28,24,100,,99,94,,11,5,7,0.9,0.9
2024-08-11T1100,2211A,121.6506,42.0498,阜新市,玉龙新城,颗粒物(PM10),56,61,45,24,23,80,,89,87,12,11,4,5,0.6,0.6
2024-08-11T1100,2301A,115.8277,32.8929,阜阳市,市监测站,颗粒物(PM10),118,185,78,52,23,122,,76,76,4,4,6,5,0.3,0.4
2024-08-11T1100,2303A,115.8554,32.8605,阜阳市,开发区,颗粒物(PM10),139,228,86,36,18,122,,65,65,12,10,4,4,0.4,0.4
2024-08-11T1100,2875A,115.784,32.8892,阜阳市,阜阳职业技术学院,颗粒物(PM10),126,201,72,54,18,124,,69,69,6,8,5,4,0.4,0.4
2024-08-11T1100,3468A,115.7901,32.8613,阜阳市,市规划展馆,颗粒物(PM10),126,202,70,46,22,124,,70,70,5,9,6,6,0.5,0.5
2024-08-11T1100,3469A,115.836,32.9183,阜阳市,枣园社区,颗粒物(PM10),127,203,75,51,25,122,,72,72,13,8,3,3,0.4,0.5
2024-08-11T1100,2669A,102.9099,34.9841,甘南藏族自治州,州政府,,28,27,34,12,16,89,,38,38,6,15,6,6,0.2,0.2
2024-08-11T1100,3380A,102.8914,34.9617,甘南藏族自治州,甘肃民族师范学院,,26,15,31,3,12,82,,29,29,10,22,8,15,0.4,0.4
2024-08-11T1100,2570A,101.9603,30.0475,甘孜藏族自治州,水桥子,,28,28,34,15,15,43,,40,31,20,12,4,4,0.3,0.3
2024-08-11T1100,3065A,101.9533,29.9972,甘孜藏族自治州,州环保局,,34,34,37,6,8,38,,34,25,28,22,3,2,0.2,0.2
2024-08-11T1100,3414A,115.8347,28.932,赣江新区,桑海产业园,,32,24,28,11,16,102,,49,49,6,15,13,13,0.4,0.4
2024-08-11T1100,2362A,114.9017,25.9149,赣州市,通天岩,,,,,,,,,,,,,,,,
2024-08-11T1100,2363A,114.9367,25.8664,赣州市,地委,,32,31,47,19,26,100,,60,60,9,17,11,12,1.5,1.5
2024-08-11T1100,2364A,114.9461,25.8481,赣州市,气象台,,38,38,42,18,23,101,,65,65,8,11,10,9,0.9,0.9
2024-08-11T1100,2365A,114.9322,25.8333,赣州市,市图书馆,,37,37,39,21,21,111,,68,68,6,11,3,4,0.8,0.8
2024-08-11T1100,2366A,114.8905,25.8471,赣州市,华坚鞋城,,38,38,44,22,24,109,,57,57,6,11,1,5,0.4,0.4
2024-08-11T1100,3109A,115.0093,25.8613,赣州市,赣县区卫计委,,36,36,35,19,21,101,,51,51,17,20,6,7,0.6,0.7
2024-08-11T1100,2683A,106.2319,36.1417,固原市,马园,颗粒物(PM10),58,66,58,17,26,97,,42,42,13,29,6,5,0.4,0.4
2024-08-11T1100,2684A,106.2792,36.0022,固原市,监测站,颗粒物(PM10),61,72,57,21,22,124,,74,74,7,16,6,6,0.5,0.5
2024-08-11T1100,2685A,106.2375,36.0211,固原市,新区,颗粒物(PM10),65,80,60,18,20,112,,61,61,5,18,7,6,0.3,0.3
2024-08-11T1100,3522A,106.2177,35.9959,固原市,原州区十五小,颗粒物(PM10),60,69,66,23,23,116,,101,101,4,9,5,5,0.3,0.3
2024-08-11T1100,2543A,106.6308,30.5278,广安市,小平旧居,,,,,,,,,,,,,,,,
2024-08-11T1100,2544A,106.6303,30.4576,广安市,市委,颗粒物(PM10),54,58,55,23,22,70,,44,44,14,12,6,5,0.4,0.3
2024-08-11T1100,2545A,106.6271,30.4663,广安市,友谊中学,,37,37,41,24,20,77,,49,49,13,13,6,5,0.5,0.4
2024-08-11T1100,2547A,106.6388,30.4551,广安市,广电花园,,49,49,47,27,22,69,,38,38,9,10,8,7,0.4,0.3
2024-08-11T1100,2902A,106.6351,30.4865,广安市,北辰小学,颗粒物(PM10),55,60,50,24,21,74,,48,48,12,9,8,6,0.3,0.3
2024-08-11T1100,2523A,105.8945,32.4535,广元市,黑石坡,,28,28,53,3,12,48,,25,25,9,12,6,6,0.3,0.3
2024-08-11T1100,2524A,105.821,32.4444,广元市,老城,,30,30,71,7,17,58,,20,20,15,28,1,4,0.2,0.4
2024-08-11T1100,2526A,105.8628,32.4287,广元市,监测站,,23,23,55,3,19,62,,28,28,12,13,3,4,0.4,0.5
2024-08-11T1100,3617A,105.8047,32.4166,广元市,经开区,颗粒物(PM10),54,58,86,18,28,71,,21,21,14,21,7,8,0.5,0.6
2024-08-11T1100,1345A,113.2347,23.1423,广州市,广雅中学,颗粒物(PM10),55,60,46,20,17,88,,49,49,15,20,5,5,0.7,0.6
2024-08-11T1100,1346A,113.2612,23.105,广州市,市五中,,32,32,30,21,16,84,,47,47,11,16,4,4,0.7,0.7
2024-08-11T1100,1348A,113.3478,23.0916,广州市,广东商学院,,29,29,28,17,16,83,,48,48,13,18,4,4,0.6,0.6
2024-08-11T1100,1349A,113.4332,23.1047,广州市,市八十六中,,28,27,32,15,15,89,,39,39,13,25,3,3,0.4,0.4
2024-08-11T1100,1350A,113.3505,22.9483,广州市,番禺中学,,31,26,27,12,15,97,,48,48,8,17,4,4,0.5,0.5
2024-08-11T1100,1351A,113.2146,23.3916,广州市,花都师范,,33,33,32,19,17,48,,26,26,10,19,7,6,0.6,0.5
2024-08-11T1100,1352A,113.2597,23.1331,广州市,市监测站,,37,37,30,14,14,77,,42,42,16,17,5,5,0.7,0.7
2024-08-11T1100,1353A,113.5618,23.312,广州市,九龙镇镇龙,,24,24,39,13,20,42,,20,20,14,22,6,6,0.5,0.6
2024-08-11T1100,1354A,113.2765,23.1544,广州市,麓湖,,32,32,33,18,15,88,,44,44,13,19,5,5,0.5,0.5
2024-08-11T1100,1355A,113.443,23.3035,广州市,帽峰山森林公园,,28,22,24,11,13,89,,34,34,11,22,4,5,0.7,0.7
2024-08-11T1100,2846A,113.3221,23.1322,广州市,体育西,,33,33,29,16,15,80,,48,48,8,11,5,5,0.6,0.6
2024-08-11T1100,3298A,113.5717,23.5491,广州市,从化街口,,35,35,33,23,18,83,,36,36,12,18,7,7,0.6,0.6
2024-08-11T1100,3299A,113.3472,23.3692,广州市,白云竹料,,48,48,38,23,18,67,,28,28,24,27,5,5,0.6,0.6
2024-08-11T1100,3300A,113.2981,23.237,广州市,白云嘉禾,,34,34,33,16,15,92,,44,44,18,24,6,7,0.8,0.8
2024-08-11T1100,3301A,113.4256,23.1716,广州市,黄埔科学城,,27,27,32,14,16,59,,31,31,13,26,7,8,0.5,0.5
2024-08-11T1100,3302A,113.3942,23.0483,广州市,番禺大学城,,33,33,28,16,15,83,,38,38,8,16,7,7,0.5,0.5
2024-08-11T1100,3303A,113.4922,22.8168,广州市,南沙黄阁,,36,36,31,23,18,99,,40,40,15,22,4,4,0.7,0.7
2024-08-11T1100,3304A,113.5342,22.7896,广州市,南沙街,,35,24,24,24,14,97,,36,36,12,15,4,4,0.7,0.7
2024-08-11T1100,3443A,113.2902,23.5544,广州市,花都梯面,,26,26,29,18,17,74,,25,25,9,18,5,5,0.5,0.5
2024-08-11T1100,3445A,113.7858,23.7478,广州市,从化良口,,27,27,28,17,18,70,,33,33,8,8,6,5,0.7,0.7
2024-08-11T1100,3446A,113.8051,23.2614,广州市,增城荔城,,28,28,35,19,19,71,,35,35,11,19,6,6,0.5,0.5
2024-08-11T1100,2505A,109.568,23.1478,贵港市,德智高中,,,,,,,,,,,,,,,,
2024-08-11T1100,2506A,109.6047,23.0666,贵港市,江南子站,颗粒物(PM10),57,63,48,29,24,61,,23,23,16,22,10,10,0.8,0.8
2024-08-11T1100,2507A,109.6014,23.0948,贵港市,贵城子站,,36,33,45,25,24,53,,22,22,17,20,15,10,1.4,0.8
2024-08-11T1100,2508A,109.5669,23.1065,贵港市,荷城子站,,41,41,34,17,14,61,,31,31,18,20,14,11,0.8,0.6
2024-08-11T1100,3405A,109.5886,23.1172,贵港市,新世纪学校,,41,41,32,24,16,62,,29,29,17,16,10,9,0.7,0.7
2024-08-11T1100,1439A,106.6899,26.5998,贵阳市,马鞍山,,44,44,14,9,2,72,,56,56,7,6,2,8,0.5,0.5
2024-08-11T1100,1440A,106.6971,26.5694,贵阳市,市环保站,颗粒物(PM10),51,51,11,19,8,68,,70,67,19,12,4,4,0.2,0.2
2024-08-11T1100,1441A,106.6243,26.6266,贵阳市,鉴湖路,颗粒物(PM10),56,61,13,17,2,68,,63,62,7,7,5,5,0.3,0.3
2024-08-11T1100,1442A,106.7487,26.6343,贵阳市,燕子冲,,36,36,8,22,10,66,,61,61,8,8,6,8,0.6,0.6
2024-08-11T1100,1443A,106.6555,26.4365,贵阳市,碧云窝,,44,44,17,9,2,69,,68,67,11,9,3,4,0.1,0.1
2024-08-11T1100,1444A,106.694,26.5161,贵阳市,中院村,,46,46,15,14,7,71,,69,68,12,12,5,5,0.4,0.4
2024-08-11T1100,1445A,106.7109,26.6027,贵阳市,红边门,颗粒物(PM10),51,51,15,27,12,70,,66,66,13,12,4,4,0.3,0.4
2024-08-11T1100,1446A,106.7164,26.5699,贵阳市,新华路,,44,44,11,12,8,67,,66,66,12,11,4,5,0.5,0.5
2024-08-11T1100,1447A,106.674,26.5424,贵阳市,太慈桥,,34,34,5,9,3,65,,66,64,11,10,7,6,0.3,0.3
2024-08-11T1100,1552A,106.805,26.3003,贵阳市,桐木岭,,,,,,,,,,,,,,,,
2024-08-11T1100,1862A,110.4144,25.3167,桂林市,电子科大尧山校区,,27,27,24,13,13,69,,33,33,5,6,6,6,0.5,0.5
2024-08-11T1100,1863A,110.2819,25.2697,桂林市,监测站,颗粒物(PM10),51,52,23,13,13,64,,37,37,12,10,20,8,0.6,0.5
2024-08-11T1100,1864A,110.3089,25.2708,桂林市,龙隐路小学,,50,50,19,14,14,69,,34,34,9,8,22,8,0.5,0.4
2024-08-11T1100,1865A,110.2869,25.2178,桂林市,八中,,41,41,19,8,8,74,,38,38,9,10,7,6,0.6,0.6
2024-08-11T1100,3403A,110.1764,25.2381,桂林市,创业大厦,,24,24,17,12,11,55,,26,26,12,13,7,6,0.3,0.3
2024-08-11T1100,3531A,110.296,25.1253,桂林市,旅游学院,,25,19,9,14,8,79,,37,37,6,8,8,7,0.3,0.3
2024-08-11T1100,2674A,100.2561,34.4714,果洛藏族自治州,玛沁县大武镇,,30,17,22,6,12,94,,57,57,10,5,8,8,0.4,0.4
2024-08-11T1100,1129A,126.5422,45.755,哈尔滨市,岭北,,22,19,24,12,14,68,,70,65,8,13,7,8,0.7,0.7
2024-08-11T1100,1130A,126.561,45.8167,哈尔滨市,松北商大,,21,16,30,8,12,65,,62,58,8,11,7,7,0.6,0.6
2024-08-11T1100,1131A,126.979,45.5419,哈尔滨市,阿城会宁,,18,18,25,9,12,51,,54,52,6,13,3,4,0.6,0.6
2024-08-11T1100,1132A,126.599,45.7222,哈尔滨市,南岗学府路,,34,34,36,6,10,56,,62,56,10,11,8,8,0.5,0.5
2024-08-11T1100,1133A,126.689,45.7733,哈尔滨市,太平宏伟公园,,38,38,32,8,12,54,,60,55,13,17,6,7,0.5,0.5
2024-08-11T1100,1134A,126.635,45.7667,哈尔滨市,道外承德广场,,26,26,25,3,13,53,,58,54,17,19,9,8,0.6,0.7
2024-08-11T1100,1135A,126.685,45.7319,哈尔滨市,香坊红旗大街,,19,19,28,10,13,55,,61,55,15,16,2,4,0.8,0.8
2024-08-11T1100,1136A,126.6411,45.7258,哈尔滨市,动力和平路,颗粒物(PM10),53,55,36,9,11,54,,61,55,14,15,6,7,1.1,0.6
2024-08-11T1100,1137A,126.593,45.7478,哈尔滨市,道里建国路,,38,38,34,8,13,59,,62,57,10,14,7,9,1.0,1.2
2024-08-11T1100,1138A,126.615,45.61,哈尔滨市,平房东轻厂,,32,32,33,9,12,61,,61,56,6,18,4,5,0.3,0.5
2024-08-11T1100,1139A,126.595,45.9855,哈尔滨市,呼兰师专,,21,19,25,8,11,66,,60,57,11,14,9,9,0.5,0.5
2024-08-11T1100,1140A,126.6206,45.6842,哈尔滨市,省农科院,,21,21,27,12,11,52,,58,51,14,16,3,5,0.5,0.6
2024-08-11T1100,2688A,93.5128,42.8172,哈密市,地区监测站,,38,38,66,15,19,103,,84,84,10,24,12,4,0.3,0.4
2024-08-11T1100,2689A,93.4961,42.8328,哈密市,哈密师范学校,,34,28,53,12,17,108,,73,73,12,19,6,10,0.4,0.6
2024-08-11T1100,2671A,100.9048,36.9639,海北藏族自治州,海晏县西海镇,,34,24,15,15,9,108,,70,70,9,6,16,12,0.5,0.3
2024-08-11T1100,3867A,102.0738,36.5056,海东市,平安区公安北苑,,41,41,31,10,16,92,,66,61,18,9,24,12,0.9,0.6
2024-08-11T1100,1409A,110.576,19.9507,海口市,东寨港,,,,,,,,,,,,,,,,
2024-08-11T1100,1410A,110.3232,20.0574,海口市,海南大学,,32,30,27,22,16,92,,45,45,14,10,5,5,0.5,0.5
2024-08-11T1100,1411A,110.283,20.0053,海口市,秀英海南医院,,28,28,29,19,16,76,,35,35,9,14,7,7,0.3,0.4
2024-08-11T1100,1412A,110.338,19.9969,海口市,海南师范大学,,35,35,30,15,15,82,,39,39,6,8,7,7,0.4,0.4
2024-08-11T1100,1413A,110.33,20.0356,海口市,龙华路环保局宿舍,,30,28,29,18,15,93,,46,46,10,10,8,8,0.3,0.3
2024-08-11T1100,3539A,110.5111,19.9736,海口市,桂林洋子站,,20,19,26,9,14,63,,31,31,5,8,6,6,0.3,0.4
2024-08-11T1100,2673A,100.6188,36.2866,海南藏族自治州,共和县恰卜恰镇,,39,,21,18,6,124,,89,89,3,9,6,9,0.4,0.4
2024-08-11T1100,2676A,97.3731,37.3753,海西蒙古族藏族自治州,德令哈市,,41,12,16,9,10,129,,107,107,11,14,8,9,0.2,0.3
2024-08-11T1100,1048A,114.5302,36.6116,邯郸市,东污水处理厂,,35,7,60,3,14,112,,86,86,2,8,5,4,0.7,0.8
2024-08-11T1100,1049A,114.4918,36.5713,邯郸市,矿院,,35,14,53,3,15,110,,85,85,2,10,3,4,0.6,0.7
2024-08-11T1100,1050A,114.484,36.6133,邯郸市,丛台公园,,33,6,48,3,14,105,,80,80,4,11,6,6,0.6,0.8
2024-08-11T1100,3458A,114.7895,36.5593,邯郸市,香泉濮院小区,,40,38,103,6,22,125,,83,83,4,10,7,5,0.4,0.6
2024-08-11T1100,3579A,114.50634,36.77178,邯郸市,永年区实验高中,,34,26,69,3,19,107,,80,80,2,8,3,8,0.4,1.3
2024-08-11T1100,3580A,114.20016,36.44293,邯郸市,峰峰矿区临水派出所,,34,14,52,3,10,108,,90,90,4,6,5,5,0.3,0.3
2024-08-11T1100,2634A,106.9893,33.1842,汉中市,汉川机床厂子校,,43,43,75,20,24,73,,44,44,6,8,4,5,0.5,0.6
2024-08-11T1100,2635A,107.0154,33.0706,汉中市,市监测站,颗粒物(PM10),62,74,92,25,29,61,,26,26,9,11,12,8,1.2,0.9
2024-08-11T1100,2636A,107.0089,33.1138,汉中市,鑫源开发区,颗粒物(PM10),57,63,77,21,26,58,,37,37,9,13,13,12,0.9,0.8
2024-08-11T1100,2637A,107.007,33.0323,汉中市,南郑大河坎水厂,颗粒物(PM10),65,80,88,24,28,56,,24,24,6,8,8,8,0.6,0.7
2024-08-11T1100,1223A,120.2072,30.2111,杭州市,滨江,,47,39,39,25,24,150,,86,86,9,14,4,4,0.8,0.7
2024-08-11T1100,1224A,120.0633,30.2747,杭州市,西溪,,49,38,38,25,27,155,,72,72,13,21,5,5,0.6,0.7
2024-08-11T1100,1226A,120.3461,30.3153,杭州市,下沙,臭氧1小时,57,49,52,27,26,165,,104,104,11,22,8,8,0.6,0.6
2024-08-11T1100,1227A,120.1269,30.2456,杭州市,卧龙桥,臭氧1小时,80,39,38,26,29,184,,78,78,14,18,5,5,0.8,0.8
2024-08-11T1100,1228A,120.1903,30.2692,杭州市,浙江农大,臭氧1小时,52,34,35,26,24,161,,91,91,17,21,8,8,0.8,0.8
2024-08-11T1100,1230A,120.1197,30.3119,杭州市,和睦小学,臭氧1小时,55,34,35,24,25,164,,85,85,12,19,6,6,0.7,0.7
2024-08-11T1100,1231A,120.3019,30.4183,杭州市,临平镇,臭氧1小时,55,43,46,29,30,164,,81,81,9,23,4,4,0.7,0.7
2024-08-11T1100,1232A,120.2697,30.1819,杭州市,城厢镇,,49,38,34,23,24,154,,104,104,14,15,6,5,0.6,0.6
2024-08-11T1100,1233A,120.0883,30.1808,杭州市,云栖,臭氧1小时,63,38,38,22,23,170,,63,63,15,25,8,7,0.8,0.8
2024-08-11T1100,3557A,119.9464,30.0494,杭州市,镇二中,,46,38,33,28,27,146,,81,81,29,17,8,8,0.9,0.8
2024-08-11T1100,3558A,119.7183,30.2367,杭州市,市府大楼,,42,26,26,25,23,132,,63,63,8,14,6,5,0.5,0.6
2024-08-11T1100,3656A,120.1556,30.2864,杭州市,消防大队,臭氧1小时,68,41,38,29,27,174,,98,98,9,18,7,8,0.9,0.8
2024-08-11T1100,1270A,117.1959,31.7848,合肥市,明珠广场,颗粒物(PM10),82,114,42,31,19,130,,85,85,9,16,6,6,0.4,0.4
2024-08-11T1100,1271A,117.3072,31.8764,合肥市,三里街,颗粒物(PM10),80,110,35,24,15,119,,86,86,9,12,7,7,0.4,0.5
2024-08-11T1100,1272A,117.2588,31.8707,合肥市,琥珀山庄,颗粒物(PM10),80,110,40,23,19,128,,95,95,5,9,4,5,0.5,0.5
2024-08-11T1100,1273A,117.1604,31.9052,合肥市,董铺水库,颗粒物(PM10),66,82,32,17,13,101,,84,84,5,7,2,2,0.3,0.3
2024-08-11T1100,1274A,117.25,31.8571,合肥市,长江中路,颗粒物(PM10),73,95,43,24,20,124,,93,93,6,10,7,7,0.6,0.6
2024-08-11T1100,1275A,117.266,31.9436,合肥市,庐阳区,颗粒物(PM10),74,97,35,22,18,121,,95,95,4,8,4,4,0.2,0.3
2024-08-11T1100,1276A,117.336,31.8586,合肥市,瑶海区,颗粒物(PM10),78,105,36,26,16,129,,82,82,10,14,4,4,0.3,0.4
2024-08-11T1100,1277A,117.3027,31.7964,合肥市,包河区,颗粒物(PM10),87,124,41,29,20,145,,88,88,9,16,11,11,0.5,0.4
2024-08-11T1100,1278A,117.2776,31.7385,合肥市,滨湖新区,颗粒物(PM10),84,117,40,27,17,137,,90,90,9,14,7,7,0.4,0.4
2024-08-11T1100,1279A,117.1318,31.8403,合肥市,高新区,颗粒物(PM10),80,110,35,26,16,120,,90,90,6,9,8,8,0.5,0.5
2024-08-11T1100,3464A,117.3803,31.9147,合肥市,高教基地,颗粒物(PM10),84,117,36,22,17,132,,77,77,6,10,10,8,0.5,0.4
2024-08-11T1100,3614A,79.924,37.0877,和田地区,地区环保局,,,117,411,,51,103,,115,112,7,5,6,6,0.4,0.4
2024-08-11T1100,3615A,79.9131,37.113,和田地区,市环保局,颗粒物(PM10),76,102,378,28,74,93,,108,104,14,11,7,7,0.4,0.3
2024-08-11T1100,2516A,108.2011,24.715,河池市,东仁乐园,,,,23,,11,,,26,,,7,,6,,0.6
2024-08-11T1100,2517A,108.0497,24.6947,河池市,市环保站,,,26,21,3,8,,,60,,7,7,8,8,0.5,0.5
2024-08-11T1100,2518A,108.0983,24.6989,河池市,市疾控中心,,14,10,16,7,9,43,,38,31,10,10,8,8,0.5,0.5
2024-08-11T1100,1696A,114.6778,23.7569,河源市,源西,,38,35,33,26,25,74,,39,39,12,15,4,4,0.3,0.3
2024-08-11T1100,1697A,114.6944,23.7586,河源市,东埔,,43,43,30,17,22,78,,42,42,14,15,7,7,0.7,0.7
2024-08-11T1100,1698A,114.6892,23.7233,河源市,老城,,43,39,37,30,19,77,,41,41,12,14,4,5,0.5,0.5
2024-08-11T1100,1718A,115.4208,35.2464,菏泽市,气象局,颗粒物(PM10),58,66,191,13,35,148,,78,78,7,13,8,6,0.3,0.3
2024-08-11T1100,1719A,115.4747,35.2375,菏泽市,市政协,颗粒物(PM10),63,75,187,20,40,139,,72,72,6,12,10,8,0.4,0.4
2024-08-11T1100,3374A,115.5564,35.0891,菏泽市,定陶老年大学,颗粒物(PM10),65,80,173,14,34,125,,65,65,9,10,8,7,0.2,0.3
2024-08-11T1100,3647A,115.4702,35.2706,菏泽市,菏泽医专,颗粒物(PM10),60,69,183,12,30,149,,84,84,7,11,14,7,0.4,0.5
2024-08-11T1100,2514A,111.5264,24.4172,贺州市,环保小区,,36,36,30,18,16,91,,50,50,9,11,6,6,0.6,0.6
2024-08-11T1100,2515A,111.5608,24.4078,贺州市,政协大楼,,38,33,37,26,23,89,,48,48,11,14,8,7,0.5,0.6
2024-08-11T1100,3534A,111.4744,24.4553,贺州市,西湾,,35,35,27,20,20,78,,41,41,10,11,8,8,0.6,0.6
2024-08-11T1100,2385A,114.17,35.9019,鹤壁市,市监测站,,40,27,73,15,19,126,,92,92,14,17,5,7,0.5,0.5
2024-08-11T1100,2386A,114.2956,35.7511,鹤壁市,市交警支队,,40,15,83,3,33,126,,65,65,7,19,2,3,0.4,0.6
2024-08-11T1100,2387A,114.2878,35.7306,鹤壁市,迎宾馆,,41,10,78,3,23,131,,77,77,6,15,2,2,0.4,0.6
2024-08-11T1100,3474A,114.2617,35.6822,鹤壁市,大新区,,41,26,88,8,12,130,,54,54,10,16,3,3,0.4,0.6
2024-08-11T1100,3596A,114.1572,35.9603,鹤壁市,南山宾馆,,39,23,58,8,27,124,,104,104,12,9,4,4,0.4,0.3
2024-08-11T1100,2244A,130.2537,47.3416,鹤岗市,哈啤分公司,,21,21,22,6,11,33,,32,29,9,7,12,11,0.4,0.3
2024-08-11T1100,2245A,130.2684,47.3086,鹤岗市,斯达机电,,,,17,,9,36,,33,30,,10,13,13,,0.3
2024-08-11T1100,2246A,130.3114,47.3388,鹤岗市,东山纸板厂,,19,19,22,10,16,25,,29,25,11,9,14,14,0.5,0.4
2024-08-11T1100,2247A,130.1097,47.3382,鹤岗市,五号水库,,13,,7,3,5,39,,38,35,8,6,12,11,0.5,0.4
2024-08-11T1100,2263A,127.4833,50.2524,黑河市,交通局,,24,24,29,6,12,24,,22,22,8,12,5,6,0.4,0.4
2024-08-11T1100,2264A,127.5144,50.2341,黑河市,环保局,,35,32,29,24,16,23,,21,20,4,11,6,4,0.3,0.4
2024-08-11T1100,2265A,127.5291,50.2472,黑河市,大黑河岛,,,,16,12,18,,,,,10,12,3,2,,
2024-08-11T1100,1074A,115.6838,37.7541,衡水市,电机北厂,,40,34,82,3,25,126,,83,83,8,9,5,5,0.4,0.4
2024-08-11T1100,1075A,115.6303,37.7316,衡水市,市监测站,,38,32,80,3,22,120,,80,80,10,11,6,6,0.3,0.4
2024-08-11T1100,3188A,115.6683,37.7217,衡水市,市城管局,,39,20,81,3,24,122,,79,79,8,7,7,6,0.4,0.4
2024-08-11T1100,3459A,115.5989,37.5491,衡水市,地表水厂,,38,36,96,3,19,119,,71,71,2,13,9,10,0.5,0.4
2024-08-11T1100,2456A,112.5003,26.9167,衡阳市,原169医院,,22,16,31,15,18,52,,47,47,13,11,7,9,0.5,0.5
2024-08-11T1100,2457A,112.6194,26.9258,衡阳市,衡阳化工总厂,,,15,32,,,50,,45,45,6,10,6,7,0.5,0.6
2024-08-11T1100,2458A,112.6211,26.8956,衡阳市,珠晖区环保局,,,16,30,,,49,,45,45,9,8,6,7,0.6,0.7
2024-08-11T1100,2459A,112.6197,26.8733,衡阳市,市委党校,,19,18,32,8,16,58,,51,51,9,8,7,8,0.6,0.6
2024-08-11T1100,2460A,112.6006,26.8919,衡阳市,市监测站,,18,13,27,10,18,56,,55,55,9,7,6,7,0.7,0.7
2024-08-11T1100,2461A,112.5664,26.9056,衡阳市,真空机电公司,,18,,28,12,16,47,,48,48,8,7,6,6,0.7,0.8
2024-08-11T1100,3399A,112.6703,26.882,衡阳市,师范学院,,18,13,30,8,17,57,,46,46,7,8,6,8,0.6,0.7
2024-08-11T1100,2608A,103.3772,23.3993,红河哈尼族彝族自治州,污水处理厂,,,26,16,25,16,59,,38,38,8,8,8,13,,0.3
2024-08-11T1100,2609A,103.3861,23.35,红河哈尼族彝族自治州,监测站,,33,33,18,15,14,76,,59,59,14,10,13,19,0.6,0.5
2024-08-11T1100,3038A,103.3758,23.368,红河哈尼族彝族自治州,州图书馆,,33,33,18,19,11,68,,50,50,11,9,10,15,0.6,0.5
2024-08-11T1100,1090A,111.6507,40.7517,呼和浩特市,呼市一监,,32,,4,3,3,100,,115,105,4,3,8,8,0.4,0.4
2024-08-11T1100,1091A,111.6572,40.8033,呼和浩特市,小召,,31,7,8,3,4,99,,112,103,8,9,9,8,0.4,0.2
2024-08-11T1100,1094A,111.7516,40.8369,呼和浩特市,如意水处理厂,,31,6,7,3,3,99,,112,104,6,6,6,5,0.3,0.3
2024-08-11T1100,1095A,111.7276,40.8062,呼和浩特市,二十九中,,32,6,7,3,2,102,,113,105,5,6,3,3,0.6,0.6
2024-08-11T1100,1096A,111.5512,40.7866,呼和浩特市,工大金川校区,,32,8,12,3,2,100,,111,103,7,6,5,5,0.3,0.3
2024-08-11T1100,1097A,111.717,40.7612,呼和浩特市,化肥厂生活区,,32,22,13,6,4,102,,118,108,7,5,6,6,0.5,0.4
2024-08-11T1100,3698A,111.5968,40.8178,呼和浩特市,红旗小学,,31,6,2,3,2,99,,114,105,7,6,2,2,0.3,0.3
2024-08-11T1100,3699A,111.6518,40.8389,呼和浩特市,海东办,,32,6,5,3,2,100,,114,106,7,6,3,3,0.5,0.6
2024-08-11T1100,2192A,119.7594,49.2261,呼伦贝尔市,区环保局,,37,37,32,23,22,60,,42,42,14,12,5,5,0.4,0.4
2024-08-11T1100,3061A,119.7512,49.1577,呼伦贝尔市,国华电力东,,36,,20,25,15,63,,50,50,5,6,8,4,0.4,0.3
2024-08-11T1100,1250A,120.0751,30.8669,湖州市,城西水厂,,35,29,41,20,27,112,,69,69,13,26,4,4,0.5,0.6
2024-08-11T1100,2873A,120.0875,30.8955,湖州市,仁皇山新区,,44,33,43,23,30,140,,77,77,12,20,7,6,0.6,0.7
2024-08-11T1100,2907A,120.1844,30.8596,湖州市,吴兴区站,臭氧1小时,69,39,43,25,30,175,,86,86,11,19,7,7,0.6,0.6
2024-08-11T1100,3562A,120.4148,30.8538,湖州市,南浔区站,,48,43,46,33,32,152,,73,73,9,17,3,4,0.8,0.8
2024-08-11T1100,1607A,120.9092,40.7136,葫芦岛市,龙港区,,34,30,59,21,21,107,,110,97,10,6,3,3,0.6,0.6
2024-08-11T1100,1608A,120.8392,40.7514,葫芦岛市,化工街,颗粒物(PM10),58,66,42,36,25,111,,113,103,15,12,5,5,0.6,0.6
2024-08-11T1100,1609A,120.8341,40.7073,葫芦岛市,新区,颗粒物(PM10),59,68,45,26,27,111,,107,97,12,7,7,8,0.6,0.6
2024-08-11T1100,1610A,120.8695,40.7677,葫芦岛市,东城区,颗粒物(PM10),56,61,43,28,29,125,,117,107,12,12,4,4,0.5,0.6
2024-08-11T1100,2482A,109.5981,27.5721,怀化市,林科所,,15,15,14,3,10,33,,34,29,8,5,5,5,0.3,0.3
2024-08-11T1100,2483A,109.9453,27.5444,怀化市,河西地税局,,16,12,18,11,10,40,,37,35,16,6,7,9,0.5,0.4
2024-08-11T1100,2484A,109.9781,27.5342,怀化市,市四医院,,16,6,13,6,10,51,,50,50,7,4,3,4,0.6,0.6
2024-08-11T1100,2485A,109.9972,27.5578,怀化市,监测楼,,19,10,14,8,9,58,,50,50,7,6,4,7,0.5,0.5
2024-08-11T1100,2486A,110.0394,27.583,怀化市,市委党校,,15,6,14,3,8,48,,47,47,5,4,8,10,0.7,0.6
2024-08-11T1100,1210A,119.036,33.5981,淮安市,钵池山,颗粒物(PM10),151,251,80,43,25,125,,104,104,10,10,12,8,0.7,0.8
2024-08-11T1100,1211A,119.007,33.575,淮安市,北京南路,颗粒物(PM10),136,222,78,55,29,113,,86,86,10,14,15,9,0.9,0.9
2024-08-11T1100,1212A,118.989,33.6067,淮安市,市监测站,颗粒物(PM10),139,227,89,56,34,124,,98,98,11,14,8,6,0.6,0.7
2024-08-11T1100,1213A,119.135,33.5039,淮安市,楚州区监测站,颗粒物(PM10),166,281,73,45,25,128,,77,77,10,16,7,6,0.5,0.6
2024-08-11T1100,1214A,119.0186,33.6297,淮安市,淮阴区监测站,颗粒物(PM10),158,266,89,41,27,128,,103,103,11,14,6,4,0.6,0.8
2024-08-11T1100,3426A,118.8755,33.2894,淮安市,新华书店,颗粒物(PM10),138,226,60,60,27,131,,99,99,10,10,8,6,0.6,0.5
2024-08-11T1100,2282A,116.8004,33.975,淮北市,监测站,颗粒物(PM10),137,223,165,56,43,138,,85,85,,8,10,7,0.5,0.6
2024-08-11T1100,2283A,116.8091,33.9007,淮北市,烈山区政府,颗粒物(PM10),106,162,156,43,40,132,,76,76,5,12,11,8,0.5,0.7
2024-08-11T1100,3330A,116.8873,33.9836,淮北市,杜集区检察院,颗粒物(PM10),122,193,169,52,43,143,,88,88,4,7,4,2,0.5,0.6
2024-08-11T1100,4017A,116.7923,33.9535,淮北市,市博物馆,颗粒物(PM10),126,202,170,54,42,139,,90,90,9,10,8,6,0.6,0.6
2024-08-11T1100,2277A,116.8305,32.7727,淮南市,潘集区政府,颗粒物(PM10),134,217,60,46,22,119,,64,64,10,12,6,5,0.5,0.5
2024-08-11T1100,2278A,117.0067,32.6524,淮南市,师范学院,颗粒物(PM10),112,173,55,36,23,129,,76,76,6,7,8,7,0.4,0.3
2024-08-11T1100,2279A,116.8569,32.5951,淮南市,谢家集区政府,颗粒物(PM10),109,168,41,33,8,114,,64,64,7,11,7,6,0.4,0.4
2024-08-11T1100,2280A,116.8281,32.633,淮南市,八公山区政府,颗粒物(PM10),118,186,51,43,20,118,,72,72,5,6,6,6,0.4,0.4
2024-08-11T1100,2281A,116.6325,32.6201,淮南市,焦岗湖风景区管理处,颗粒物(PM10),77,103,27,21,6,70,,42,42,5,5,10,9,0.4,0.3
2024-08-11T1100,2894A,117.0566,32.6531,淮南市,经济技术开发区消防队,颗粒物(PM10),93,135,44,26,11,128,,78,78,4,7,5,5,0.5,0.4
2024-08-11T1100,3329A,117.0108,32.5893,淮南市,山南新区,颗粒物(PM10),125,199,52,24,9,110,,65,65,7,11,5,5,0.6,0.5
2024-08-11T1100,2446A,114.9028,30.4742,黄冈市,职工中心,颗粒物(PM10),109,167,54,43,23,136,,72,72,11,16,11,11,0.5,0.4
2024-08-11T1100,2929A,114.8858,30.4519,黄冈市,红卫路,颗粒物(PM10),96,142,44,37,21,140,,74,74,10,14,11,10,0.6,0.5
2024-08-11T1100,3398A,114.9136,30.4445,黄冈市,市林业局,颗粒物(PM10),93,136,42,39,22,142,,76,76,5,10,10,10,0.4,0.4
2024-08-11T1100,2672A,102.0199,35.5102,黄南藏族自治州,同仁县隆务镇,,34,14,24,3,6,107,,88,88,5,2,9,9,0.4,0.3
2024-08-11T1100,2295A,118.2903,29.6963,黄山市,延安路89号,颗粒物(PM10),55,60,51,31,19,121,,52,52,4,7,6,5,0.6,0.6
2024-08-11T1100,2296A,118.327,29.7178,黄山市,黄山东路89号,,46,46,31,28,14,123,,50,50,6,6,6,6,0.5,0.4
2024-08-11T1100,2297A,118.1371,30.2756,黄山市,黄山区政府5号楼,,34,31,28,21,21,108,,43,43,5,7,6,6,0.3,0.4
2024-08-11T1100,2423A,115.0601,30.2313,黄石市,沈家营,颗粒物(PM10),71,92,56,42,19,144,,75,75,10,12,9,12,0.6,0.6
2024-08-11T1100,2424A,115.0817,30.2006,黄石市,陈家湾,颗粒物(PM10),76,101,56,41,19,138,,66,66,10,10,5,5,0.8,0.7
2024-08-11T1100,2426A,114.8988,30.2019,黄石市,铁山,颗粒物(PM10),72,94,49,27,18,132,,69,69,7,12,9,9,0.4,0.4
2024-08-11T1100,2427A,115.0307,30.2092,黄石市,团城山,颗粒物(PM10),65,79,44,32,18,143,,73,73,8,11,6,12,0.7,0.7
2024-08-11T1100,3149A,115.0235,30.1578,黄石市,笔架山北路,颗粒物(PM10),61,72,42,28,12,139,,76,76,11,11,10,8,0.7,0.7
2024-08-11T1100,1392A,114.4183,23.0528,惠州市,河南岸金山湖子站,,28,28,32,18,18,83,,27,27,8,16,4,4,0.6,0.6
2024-08-11T1100,1393A,114.4053,23.0822,惠州市,下埔横江三路子站,,29,29,36,17,19,87,,42,42,9,16,3,3,0.6,0.6
2024-08-11T1100,1394A,114.4103,23.1142,惠州市,江北云山西路子站,,27,23,33,7,16,86,,37,37,5,14,4,4,0.5,0.6
2024-08-11T1100,1395A,114.4645,22.7833,惠州市,惠阳区承修路船湖子站,,24,24,27,11,14,66,,25,25,16,22,4,4,0.5,0.6
2024-08-11T1100,1396A,114.5317,22.7422,惠州市,大亚湾管委会子站,,20,20,24,11,8,64,,22,22,14,19,6,6,0.7,0.8
2024-08-11T1100,3314A,114.4338,22.8134,惠州市,惠阳秋长,,29,29,30,15,17,85,,23,23,19,32,6,6,0.7,0.7
2024-08-11T1100,3452A,114.6517,22.775,惠州市,大亚湾霞涌,,28,28,22,3,10,50,,21,21,8,12,4,3,0.4,0.5
2024-08-11T1100,2240A,130.9762,45.3001,鸡西市,环保局,,10,10,25,3,12,30,,30,30,7,7,8,8,0.3,0.3
2024-08-11T1100,2243A,130.9429,45.3039,鸡西市,第一中学,,10,9,26,3,10,31,,30,30,9,9,4,5,0.2,0.2
2024-08-11T1100,3707A,131.0207,45.3073,鸡西市,欧美日汽修厂,,14,14,17,6,10,28,,28,28,4,7,3,3,0.3,0.3
2024-08-11T1100,3709A,130.9967,45.3106,鸡西市,市政设施管理处,,12,12,24,3,9,28,,25,25,8,10,4,4,0.3,0.3
2024-08-11T1100,2367A,114.9754,27.0803,吉安市,红声器材厂,颗粒物(PM10),53,56,43,33,27,114,,64,64,10,12,15,16,0.6,0.6
2024-08-11T1100,2368A,114.9658,27.0999,吉安市,市森林工业局,颗粒物(PM10),51,51,42,33,28,131,,72,72,11,12,19,14,0.6,0.5
2024-08-11T1100,2369A,114.99,27.1312,吉安市,市环境监测站,,46,46,37,27,23,131,,76,76,11,11,14,13,0.5,0.4
2024-08-11T1100,2370A,115.0093,27.0968,吉安市,青原区法院,,46,44,41,32,28,129,,76,76,12,12,14,13,0.6,0.5
2024-08-11T1100,1772A,126.54,43.8622,吉林市,哈达湾,,20,15,19,7,12,63,,64,62,9,11,5,5,0.5,0.6
2024-08-11T1100,1773A,126.5844,43.8358,吉林市,东局子,,21,13,22,11,13,66,,65,64,2,7,4,4,0.5,0.6
2024-08-11T1100,1774A,126.5052,43.8245,吉林市,电力学院,,24,16,19,10,13,74,,60,60,4,9,4,4,0.6,0.7
2024-08-11T1100,1775A,126.6133,43.8972,吉林市,江北,,18,14,22,6,11,56,,53,53,4,9,7,7,0.6,0.7
2024-08-11T1100,1776A,126.555,43.8306,吉林市,江南公园,,20,16,19,11,15,61,,64,61,11,12,2,2,0.6,0.6
2024-08-11T1100,1778A,126.7061,43.7133,吉林市,丰满,,,,,,,,,,,,,,,,
2024-08-11T1100,2868A,126.4739,43.953,吉林市,九站,,23,16,28,10,12,73,,58,58,2,10,4,5,0.5,0.6
2024-08-11T1100,1299A,116.9862,36.6114,济南市,科干所,颗粒物(PM10),53,56,110,12,29,144,,116,116,12,9,11,10,0.5,0.6
2024-08-11T1100,1300A,116.9376,36.665,济南市,农科所,,49,49,102,12,28,131,,95,95,12,16,11,9,0.4,0.5
2024-08-11T1100,1301A,117.1265,36.6734,济南市,开发区,,45,34,99,12,25,142,,115,115,14,11,12,11,0.5,0.6
2024-08-11T1100,1303A,117.0624,36.6868,济南市,省种子仓库,颗粒物(PM10),52,53,106,7,26,149,,118,118,8,9,8,7,0.5,0.5
2024-08-11T1100,1304A,116.9489,36.6447,济南市,机床二厂,,47,44,109,3,20,148,,113,113,11,13,11,10,0.5,0.5
2024-08-11T1100,1305A,117.0495,36.663,济南市,市监测站,,46,44,106,7,27,146,,123,123,11,9,13,13,0.4,0.5
2024-08-11T1100,1306A,116.7675,36.5484,济南市,长清党校,颗粒物(PM10),52,54,117,15,32,133,,96,96,6,10,13,13,0.6,0.7
2024-08-11T1100,1616A,117.6795,36.229,济南市,技术学院,颗粒物(PM10),147,244,110,56,29,147,,100,100,7,9,14,12,0.8,0.9
2024-08-11T1100,1961A,117.532,36.6868,济南市,东山小学,颗粒物(PM10),57,63,95,10,25,151,,114,114,12,13,12,10,0.5,0.6
2024-08-11T1100,3059A,117.7161,36.2049,济南市,泰兴公司,颗粒物(PM10),137,224,103,51,29,142,,76,76,15,25,15,15,0.6,0.6
2024-08-11T1100,3064A,117.6867,36.2171,济南市,莱芜战役纪念馆,颗粒物(PM10),139,227,106,51,27,132,,87,87,8,12,8,7,0.6,0.7
2024-08-11T1100,3494A,117.1673,36.9782,济南市,济阳区政府,,42,42,116,7,28,132,,94,94,7,16,14,11,0.5,0.5
2024-08-11T1100,3495A,117.1171,36.63,济南市,锦屏中学,颗粒物(PM10),51,51,101,10,26,158,,124,124,12,11,13,11,0.4,0.5
2024-08-11T1100,3682A,116.9814,36.6819,济南市,济南四建,,48,48,100,10,29,138,,108,108,4,6,10,9,0.7,0.9
2024-08-11T1100,1653A,116.6251,35.4302,济宁市,火炬城,颗粒物(PM10),77,104,140,27,39,147,,80,80,12,14,14,11,0.8,0.8
2024-08-11T1100,1655A,116.5491,35.4042,济宁市,电化厂,颗粒物(PM10),88,126,157,44,43,134,,70,70,13,14,16,9,0.8,0.7
2024-08-11T1100,3500A,116.5814,35.3707,济宁市,北湖一中,颗粒物(PM10),110,169,151,51,38,141,,70,70,21,15,14,12,0.7,0.7
2024-08-11T1100,3501A,116.8249,35.5593,济宁市,服务中心,颗粒物(PM10),119,187,132,46,33,137,,72,72,14,11,11,7,0.8,0.5
2024-08-11T1100,3678A,116.5907,35.4054,济宁市,市第七中学,颗粒物(PM10),95,140,144,29,38,148,,78,78,13,15,10,7,0.7,0.7
2024-08-11T1100,2255A,130.2751,46.8028,佳木斯市,佳纺,,15,13,24,6,12,47,,28,28,4,11,3,6,0.5,0.6
2024-08-11T1100,2256A,130.3995,46.8307,佳木斯市,发电厂,,15,14,22,10,12,34,,23,23,10,10,12,8,0.6,0.6
2024-08-11T1100,2257A,130.3258,46.7975,佳木斯市,环保局,,12,10,25,8,12,35,,19,19,10,18,8,8,0.5,0.6
2024-08-11T1100,2258A,130.3648,46.8032,佳木斯市,十一中,,14,14,23,7,13,39,,23,23,10,14,6,6,0.5,0.5
2024-08-11T1100,2259A,130.3794,46.7588,佳木斯市,四丰,,,13,19,7,11,40,,23,23,,,1,1,0.5,0.6
2024-08-11T1100,1252A,120.7436,30.778,嘉兴市,清河小学,臭氧1小时,93,53,48,28,27,194,,97,97,18,21,8,8,0.8,0.8
2024-08-11T1100,1253A,120.726,30.7478,嘉兴市,嘉兴学院,颗粒物(PM10),61,72,57,32,29,166,,80,80,20,23,1,1,0.7,0.7
2024-08-11T1100,2872A,120.7846,30.7525,嘉兴市,南湖区残联,,,47,46,,39,194,,101,101,10,15,3,4,0.7,0.7
2024-08-11T1100,3407A,120.6916,30.7739,嘉兴市,秀洲住建,臭氧1小时,62,42,43,21,21,169,,90,90,9,18,3,3,0.8,0.8
2024-08-11T1100,1945A,98.2908,39.7711,嘉峪关市,气象局,,42,22,18,7,5,132,,96,96,14,15,7,12,0.5,0.4
2024-08-11T1100,2884A,98.2672,39.7978,嘉峪关市,酒钢宾馆,,44,17,26,7,7,138,,97,97,12,11,16,21,0.6,0.4
2024-08-11T1100,3248A,98.2643,39.7724,嘉峪关市,雄关区,,41,25,19,3,6,131,,87,87,13,13,10,10,0.5,0.3
2024-08-11T1100,1383A,113.1064,22.6058,江门市,北街,,30,30,22,10,11,70,,39,39,6,12,4,3,0.4,0.4
2024-08-11T1100,1384A,113.0731,22.5835,江门市,西区,,25,19,19,10,11,78,,50,50,5,10,4,4,0.5,0.5
2024-08-11T1100,1385A,113.0219,22.5311,江门市,圭峰西,,22,21,22,14,12,69,,46,46,6,9,2,3,0.4,0.4
2024-08-11T1100,1386A,113.0828,22.5947,江门市,东湖,,24,24,23,12,11,74,,47,47,6,9,6,6,0.4,0.4
2024-08-11T1100,3311A,113.1075,22.5647,江门市,江海富民,,31,31,36,13,16,80,,39,39,5,13,5,5,0.4,0.4
2024-08-11T1100,3449A,113.05,22.4667,江门市,新会银湖,,24,24,18,10,7,74,,31,31,6,14,4,4,0.5,0.5
2024-08-11T1100,1828A,113.227,35.2125,焦作市,市环保局,,36,33,135,9,42,115,,84,84,9,19,2,8,0.2,0.5
2024-08-11T1100,1830A,113.1992,35.2590,焦作市,影视城,,,,,,,,,,,,,,,,
2024-08-11T1100,3169A,113.2725,35.2067,焦作市,太极体育中心,,36,34,159,3,40,114,,83,83,8,17,1,6,0.3,0.5
2024-08-11T1100,3335A,113.3137,35.2641,焦作市,马村街道办,,35,19,108,3,34,112,,87,87,5,14,1,3,0.3,0.5
2024-08-11T1100,3336A,113.2465,35.2373,焦作市,焦作技师学院,,35,18,133,3,34,111,,82,82,6,20,2,7,0.4,0.7
2024-08-11T1100,3477A,113.1656,35.2539,焦作市,中站许衡医院,,35,12,87,10,30,109,,91,91,8,17,3,6,0.2,0.4
2024-08-11T1100,3981A,113.2449,35.1803,焦作市,原李万街道办,,,17,147,3,45,96,,79,79,,17,1,7,0.2,0.4
2024-08-11T1100,1708A,116.3701,23.5345,揭阳市,新兴,,47,47,31,19,16,128,,66,66,11,9,8,5,0.6,0.6
2024-08-11T1100,1709A,116.3264,23.5443,揭阳市,西马,,40,40,35,21,18,128,,65,65,4,6,5,5,0.7,0.7
2024-08-11T1100,1710A,116.3611,23.5626,揭阳市,东兴,颗粒物(PM10),53,55,35,17,17,123,,64,64,5,6,5,5,0.8,0.7
2024-08-11T1100,1711A,116.4151,23.5294,揭阳市,渔湖,颗粒物(PM10),53,56,35,20,16,117,,67,67,15,11,5,4,0.6,0.5
2024-08-11T1100,3320A,116.403,23.5699,揭阳市,曲溪,,42,38,30,29,17,131,,62,62,11,10,8,2,0.7,0.7
2024-08-11T1100,1944A,102.1692,38.5167,金昌市,天庆家园,颗粒物(PM10),55,59,32,31,12,106,,,,17,15,36,10,0.5,0.5
2024-08-11T1100,3170A,102.1864,38.5253,金昌市,市委党校,颗粒物(PM10),58,66,37,19,11,104,,73,73,7,12,14,14,0.5,0.5
2024-08-11T1100,4022A,102.1647,38.5371,金昌市,金川区人防中心,颗粒物(PM10),75,99,39,25,12,103,,,,14,12,21,11,0.5,0.6
2024-08-11T1100,1262A,119.647,29.077,金华市,十五中,臭氧1小时,62,53,39,35,22,169,,84,84,17,16,4,3,0.5,0.5
2024-08-11T1100,1263A,119.686,29.1029,金华市,监测站,臭氧1小时,58,43,37,29,22,166,,93,93,13,15,5,3,0.7,0.6
2024-08-11T1100,3659A,119.656,29.1131,金华市,气象局,,,49,38,43,23,164,,86,86,13,13,7,5,,0.4
2024-08-11T1100,1767A,121.1115,41.0879,锦州市,南山,颗粒物(PM10),55,60,43,28,31,104,,102,97,9,10,4,7,0.6,0.6
2024-08-11T1100,1768A,121.0533,40.8434,锦州市,开发区,颗粒物(PM10),54,57,46,29,42,111,,113,102,22,17,2,3,0.7,0.8
2024-08-11T1100,1769A,121.1836,41.1119,锦州市,百股街道,,49,49,41,24,23,99,,111,99,9,8,5,6,0.8,0.8
2024-08-11T1100,1770A,121.1178,41.1222,锦州市,天安街道,颗粒物(PM10),60,69,50,25,26,109,,110,103,8,7,6,6,0.9,0.9
2024-08-11T1100,1771A,121.1303,41.1386,锦州市,北湖公园,颗粒物(PM10),71,91,52,26,29,108,,105,98,8,8,2,4,0.8,0.8
2024-08-11T1100,2160A,112.85,35.5051,晋城市,自来水公司,,35,23,84,3,19,111,,101,101,17,22,8,8,0.6,0.6
2024-08-11T1100,2161A,112.8318,35.4936,晋城市,白云商贸,,35,22,102,3,19,112,,101,101,13,19,7,8,0.5,0.6
2024-08-11T1100,2162A,112.8508,35.4887,晋城市,市环保局,,35,16,85,3,19,111,,100,100,16,23,7,8,0.5,0.6
2024-08-11T1100,2163A,112.8676,35.4897,晋城市,技术学院,,,22,96,3,21,112,,102,102,14,19,,9,0.6,0.7
2024-08-11T1100,2165A,112.8453,35.546,晋城市,白马寺,,,,,,,,,,,,,,,,
2024-08-11T1100,3620A,112.8271,35.4828,晋城市,泽州一中,,35,26,88,3,20,109,,100,100,11,16,9,9,0.5,0.7
2024-08-11T1100,2171A,112.7532,37.6945,晋中市,锦纶小区,,33,27,35,7,7,105,,73,73,11,15,8,8,0.3,0.4
2024-08-11T1100,2173A,112.7249,37.7067,晋中市,南都小区,,33,20,31,8,13,105,,78,78,13,16,6,5,0.5,0.5
2024-08-11T1100,2174A,112.6991,37.6982,晋中市,榆次区政府,,33,22,31,18,16,103,,72,72,12,14,8,7,0.3,0.3
2024-08-11T1100,2865A,112.7195,37.6828,晋中市,榆次三中,,34,24,35,3,8,108,,73,73,7,12,9,9,0.5,0.7
2024-08-11T1100,2439A,112.2014,31.0481,荆门市,竹园小学,颗粒物(PM10),105,160,159,42,35,130,,71,64,19,16,10,10,0.6,0.5
2024-08-11T1100,2440A,112.1969,30.9891,荆门市,掇刀,颗粒物(PM10),89,127,146,28,31,117,,73,72,10,15,6,7,0.4,0.5
2024-08-11T1100,2441A,112.2213,31.0386,荆门市,石化一小,颗粒物(PM10),117,184,167,45,29,147,,72,72,19,15,20,19,0.6,0.6
2024-08-11T1100,3012A,112.1849,31.0362,荆门市,西山林语,颗粒物(PM10),84,117,136,33,41,120,,77,73,10,11,8,8,0.6,0.6
2024-08-11T1100,3547A,112.1632,31.0138,荆门市,龙泉中学南校,颗粒物(PM10),96,141,157,35,38,98,,60,60,13,14,9,8,0.5,0.6
2024-08-11T1100,1844A,112.2494,30.3197,荆州市,市图书馆,颗粒物(PM10),93,136,67,49,29,124,,64,63,16,17,8,7,0.6,0.7
2024-08-11T1100,1845A,112.2008,30.3544,荆州市,市委党校,颗粒物(PM10),85,119,65,41,26,129,,60,60,9,12,8,8,0.5,0.6
2024-08-11T1100,3194A,112.2747,30.3122,荆州市,管委会,颗粒物(PM10),79,107,59,32,25,129,,66,65,16,15,7,7,0.5,0.5
2024-08-11T1100,3548A,112.1655,30.3364,荆州市,学苑路,颗粒物(PM10),93,135,67,42,30,121,,59,59,9,13,6,6,0.5,0.6
2024-08-11T1100,2342A,117.3102,29.3867,景德镇市,王港中学,,,,,,,,,,,,,,,,
2024-08-11T1100,2343A,117.2117,29.2933,景德镇市,老干部活动中心,细颗粒物(PM2.5),58,57,39,41,26,111,,46,46,24,15,30,9,0.8,0.6
2024-08-11T1100,2344A,117.1894,29.2789,景德镇市,兽医站,细颗粒物(PM2.5),58,61,39,41,24,122,,57,57,19,13,29,13,0.5,0.3
2024-08-11T1100,2345A,117.1547,29.2617,景德镇市,台达陶瓷,细颗粒物(PM2.5),57,62,47,40,27,115,,44,44,17,27,13,20,0.5,0.4
2024-08-11T1100,2346A,117.2461,29.2956,景德镇市,陶研所,,47,47,50,27,23,96,,49,49,10,12,15,17,0.5,0.4
2024-08-11T1100,1803A,115.9872,29.6815,九江市,十里,,35,30,27,11,16,110,,57,57,5,13,17,11,0.7,0.6
2024-08-11T1100,1804A,115.9584,29.7046,九江市,茅山头,,40,,22,20,15,125,,51,51,8,12,9,8,0.7,0.5
2024-08-11T1100,1805A,115.9877,29.7295,九江市,西园,,43,24,22,14,19,136,,58,58,18,22,17,14,0.7,0.5
2024-08-11T1100,1806A,116.0172,29.6547,九江市,五七二七厂,,35,22,18,17,20,109,,74,74,10,15,10,10,0.6,0.5
2024-08-11T1100,1808A,115.9114,29.6038,九江市,综合工业园,,43,43,24,14,17,112,,55,55,5,15,10,10,1.0,1
2024-08-11T1100,1809A,116.0721,29.7535,九江市,石化总厂,颗粒物(PM10),52,54,41,18,21,146,,67,67,8,20,15,15,0.8,0.7
2024-08-11T1100,1810A,115.9773,29.5698,九江市,庐山气象台,,32,23,23,20,19,102,,103,103,2,3,10,14,1.2,0.8
2024-08-11T1100,3190A,116.0254,29.6994,九江市,外国语学校,,36,14,23,9,15,115,,71,71,10,15,14,9,0.5,0.5
2024-08-11T1100,2658A,98.5061,39.7443,酒泉市,仓门街子站,,48,48,25,3,5,129,,98,98,14,9,14,10,0.4,0.2
2024-08-11T1100,2659A,98.4989,39.7256,酒泉市,油田生活基地,,44,31,22,27,9,140,,98,98,12,9,10,10,0.4,0.3
2024-08-11T1100,2698A,76.0072,39.4467,喀什地区,巡警大队,颗粒物(PM10),77,104,90,20,12,59,,49,35,41,25,5,4,0.6,0.4
2024-08-11T1100,2699A,75.9755,39.4694,喀什地区,吾办,颗粒物(PM10),61,72,84,21,21,66,,38,36,28,23,4,4,0.6,0.5
2024-08-11T1100,4027A,75.9483,39.4689,喀什地区,老干局,颗粒物(PM10),81,112,109,13,13,75,,31,31,18,27,5,5,0.5,0.5
2024-08-11T1100,1824A,114.3389,34.7781,开封市,肿瘤医院,颗粒物(PM10),59,68,231,16,57,137,,86,86,6,13,6,4,0.5,0.6
2024-08-11T1100,1826A,114.2885,34.7965,开封市,世纪星幼儿园,颗粒物(PM10),53,55,217,9,53,122,,84,84,6,11,4,3,0.4,0.4
2024-08-11T1100,3147A,114.3438,34.8106,开封市,龙亭公园,颗粒物(PM10),56,62,225,28,52,126,,89,89,7,11,4,4,0.4,0.5
2024-08-11T1100,3210A,114.3644,34.7964,开封市,汴京公园,颗粒物(PM10),59,67,217,14,64,139,,94,94,7,12,5,5,0.4,0.5
2024-08-11T1100,3473A,114.2485,34.8306,开封市,技师学院,颗粒物(PM10),52,54,217,15,70,126,,87,87,6,12,7,8,0.6,0.7
2024-08-11T1100,3592A,114.4644,34.7556,开封市,祥符区生态环境局,颗粒物(PM10),57,64,235,18,57,132,,66,66,8,20,6,6,0.3,0.4
2024-08-11T1100,1951A,84.895,45.6094,克拉玛依市,长征新村,,49,49,35,9,7,92,,106,89,10,5,7,7,0.2,0.2
2024-08-11T1100,1952A,84.8988,45.5893,克拉玛依市,南林小区,,34,34,29,12,10,92,,102,86,15,8,9,8,0.2,0.1
2024-08-11T1100,1954A,84.905,44.3396,克拉玛依市,独山子区,,34,31,30,11,11,106,,91,90,10,9,7,7,0.3,0.3
2024-08-11T1100,1955A,85.6979,46.098,克拉玛依市,乌尔禾区商贸楼,,41,41,28,8,9,22,,98,68,32,7,4,5,0.3,0.2
2024-08-11T1100,3612A,85.1045,45.6899,克拉玛依市,白碱滩区新站,颗粒物(PM10),52,54,32,10,10,92,,106,84,8,5,8,8,0.2,0.1
2024-08-11T1100,2697A,76.1454,39.7142,克孜勒苏柯尔克孜自治州,市人民政府,颗粒物(PM10),60,69,74,36,22,75,,75,75,23,14,50,13,0.4,0.3
2024-08-11T1100,3665A,76.1658,39.7157,克孜勒苏柯尔克孜自治州,克州文化中心,颗粒物(PM10),68,86,64,31,21,77,,74,74,23,11,20,11,0.5,0.3
2024-08-11T1100,1450A,102.8204,24.8886,昆明市,呈贡新区,颗粒物(PM10),55,60,30,17,14,72,,58,58,12,24,10,6,0.7,0.7
2024-08-11T1100,1451A,102.6251,24.9608,昆明市,西山森林公园,,,,,,,,,,,,,,,,
2024-08-11T1100,1452A,102.7252,25.0902,昆明市,龙泉镇,,34,34,19,10,6,76,,54,54,7,13,8,7,0.5,0.6
2024-08-11T1100,1453A,102.7266,25.0375,昆明市,东风东路,,38,38,21,14,11,72,,57,57,13,17,7,7,0.5,0.5
2024-08-11T1100,1454A,102.6742,25.0669,昆明市,金鼎山,,32,32,23,9,8,70,,51,51,8,13,7,7,0.4,0.5
2024-08-11T1100,1455A,102.6644,25.0401,昆明市,碧鸡广场,,26,26,21,10,11,76,,54,54,15,13,4,4,0.4,0.4
2024-08-11T1100,3179A,102.7494,25.0119,昆明市,官渡区博物馆,,42,42,21,18,10,68,,53,53,14,21,10,8,0.4,0.5
2024-08-11T1100,3375A,102.8017,24.8336,昆明市,青年创业园,,33,33,21,13,12,77,,54,54,8,22,7,3,0.5,0.6
2024-08-11T1100,3550A,102.7997,24.9786,昆明市,昆明学院,,48,48,25,18,14,77,,63,63,19,20,11,7,0.4,0.5
2024-08-11T1100,3551A,102.5967,24.6736,昆明市,晋宁区生态环境分局,,46,46,22,22,12,88,,77,77,12,12,8,4,0.4,0.5
2024-08-11T1100,3552A,102.6678,24.9856,昆明市,云天化总部,,25,22,52,14,11,79,,56,56,10,16,7,6,0.3,0.3
2024-08-11T1100,1456A,91.1319,29.6514,拉萨市,八廓街,,26,21,23,13,12,81,,68,66,12,18,12,7,0.2,0.3
2024-08-11T1100,1457A,91.1221,29.6747,拉萨市,市环保局,,28,28,24,10,12,72,,53,53,20,22,10,7,0.3,0.3
2024-08-11T1100,1458A,91.0874,29.6475,拉萨市,区监测站,,23,21,23,10,12,73,,52,52,14,30,13,8,0.4,0.4
2024-08-11T1100,1459A,91.1774,29.6541,拉萨市,西藏大学,,27,15,18,7,10,84,,70,65,7,12,17,8,0.2,0.3
2024-08-11T1100,1460A,90.9798,29.6588,拉萨市,区辐射站,,26,26,18,15,11,78,,65,64,32,19,11,8,0.2,0.1
2024-08-11T1100,1461A,91.0834,29.6292,拉萨市,拉萨火车站,,25,17,20,10,11,77,,68,54,16,20,13,9,0.2,0.3
2024-08-11T1100,2520A,109.2203,23.7256,来宾市,来宾技工学校,,34,34,39,21,18,66,,33,33,7,11,7,7,0.7,0.7
2024-08-11T1100,3535A,109.1781,23.7297,来宾市,兴宾区政府,,30,30,25,17,12,64,,28,28,7,10,4,4,0.7,0.6
2024-08-11T1100,4002A,109.2416,23.7461,来宾市,中南小学,,35,35,32,22,17,73,,,,6,11,7,7,0.7,0.7
2024-08-11T1100,1476A,103.631,36.1031,兰州市,兰炼宾馆,,44,44,40,28,22,106,,51,51,26,30,44,18,0.6,0.4
2024-08-11T1100,1477A,104.1373,35.9454,兰州市,榆中兰大校区,,,,,,,,,,,,,,,,
2024-08-11T1100,1478A,103.8412,36.0726,兰州市,生物制品所,,50,50,36,27,22,79,,21,21,50,39,39,10,1.0,0.6
2024-08-11T1100,1479A,103.831,36.0464,兰州市,铁路设计院,颗粒物(PM10),52,53,37,26,24,82,,25,25,50,52,44,17,0.8,0.8
2024-08-11T1100,3186A,103.7158,36.1058,兰州市,教育港,,46,46,42,19,23,89,,43,43,26,25,46,12,0.6,0.4
2024-08-11T1100,3241A,103.7439,36.0842,兰州市,百合公园,,30,28,31,8,13,93,,38,38,30,31,42,12,0.7,0.5
2024-08-11T1100,3242A,103.9611,35.998,兰州市,和平,颗粒物(PM10),56,62,32,23,12,96,,81,71,31,16,28,10,0.8,0.3
2024-08-11T1100,3245A,103.6633,36.533,兰州新区,新区管委会,,36,25,30,10,16,114,,78,78,19,11,22,7,0.5,0.3
2024-08-11T1100,3246A,103.6975,36.4789,兰州新区,舟曲中学,,36,19,25,8,9,113,,83,83,10,15,30,10,0.5,0.4
2024-08-11T1100,1067A,116.6708,39.5111,廊坊市,药材公司,,40,40,107,10,27,109,,42,42,14,18,1,1,0.3,0.4
2024-08-11T1100,1068A,116.7214,39.5589,廊坊市,开发区,,36,31,86,10,26,113,,40,40,8,16,3,3,0.4,0.4
2024-08-11T1100,1070A,116.7244,39.5269,廊坊市,北华航天学院,,45,45,112,14,25,113,,41,41,9,15,1,1,0.3,0.4
2024-08-11T1100,2919A,116.7022,39.5453,廊坊市,河北工业大学,,35,34,104,13,28,110,,43,43,10,19,2,2,0.3,0.4
2024-08-11T1100,2535A,103.7723,29.5462,乐山市,花湖湾,细颗粒物(PM2.5),63,65,30,45,20,32,,8,8,24,19,4,4,1.0,0.6
2024-08-11T1100,2536A,103.7627,29.5844,乐山市,牛耳桥,颗粒物(PM10),65,80,31,45,18,42,,10,10,25,23,8,3,1.1,0.7
2024-08-11T1100,2537A,103.7508,29.6006,乐山市,市第三水厂,颗粒物(PM10),63,75,31,39,14,42,,14,14,30,25,10,3,1.4,0.5
2024-08-11T1100,2538A,103.7571,29.5664,乐山市,市监测站,颗粒物(PM10),58,66,30,32,17,45,,11,11,23,19,12,5,1.2,0.9
2024-08-11T1100,3361A,103.7311,29.5628,乐山市,理工大学,颗粒物(PM10),63,76,30,34,15,45,,10,10,23,19,8,4,1.0,0.6
2024-08-11T1100,2598A,100.2143,26.8576,丽江市,西南郊,,,,,,,,,,,,,,,,
2024-08-11T1100,2599A,100.2497,26.8802,丽江市,丽江古城,,20,13,12,11,8,61,,52,52,11,12,10,9,0.7,0.6
2024-08-11T1100,2600A,100.2203,26.8906,丽江市,市中心,,20,14,8,10,6,62,,49,46,11,13,8,8,0.5,0.6
2024-08-11T1100,1267A,119.914,28.4514,丽水市,监测站大楼,,47,44,32,21,20,150,,70,70,10,14,4,5,0.6,0.5
2024-08-11T1100,1268A,119.93,28.4586,丽水市,莲都小学,,45,45,36,25,18,142,,73,73,8,13,5,4,0.4,0.4
2024-08-11T1100,1269A,119.879,28.4231,丽水市,余庄前,,42,36,31,22,21,132,,53,53,10,12,4,4,0.6,0.5
2024-08-11T1100,1173A,119.176,34.5885,连云港市,市环境监测站,颗粒物(PM10),153,256,64,66,24,140,,95,95,8,8,6,6,0.6,0.6
2024-08-11T1100,3000A,119.3581,34.6972,连云港市,德源药业,颗粒物(PM10),142,234,48,63,20,121,,82,82,8,12,6,4,0.4,0.4
2024-08-11T1100,3007A,119.178,34.844,连云港市,新城一中,颗粒物(PM10),88,126,40,61,22,140,,90,90,10,10,4,2,0.8,0.8
2024-08-11T1100,3008A,119.3608,34.7519,连云港市,胡沟管理处,颗粒物(PM10),167,283,70,66,21,124,,94,94,11,10,8,7,0.4,0.5
2024-08-11T1100,3009A,119.1478,34.5911,连云港市,矿山设计院,颗粒物(PM10),156,261,70,56,23,111,,82,82,10,10,6,6,,0.7
2024-08-11T1100,3434A,119.2413,34.6539,连云港市,工贸学校,颗粒物(PM10),138,226,56,64,26,135,,94,94,10,9,7,6,1.0,0.9
2024-08-11T1100,3664A,119.4172,34.7341,连云港市,连云街道,颗粒物(PM10),150,250,67,59,26,136,,113,113,11,10,6,3,0.6,0.6
2024-08-11T1100,2571A,102.3431,27.8099,凉山彝族自治州,青龙寺,,29,29,22,10,7,58,,55,54,3,3,1,1,0.3,0.3
2024-08-11T1100,2572A,102.2721,27.8415,凉山彝族自治州,邛海宾馆,,40,40,25,15,9,61,,62,55,11,11,10,8,0.6,0.5
2024-08-11T1100,2573A,102.2625,27.898,凉山彝族自治州,西昌市政府,颗粒物(PM10),60,70,45,20,10,62,,71,60,14,6,9,8,0.6,0.5
2024-08-11T1100,2574A,102.2685,27.8851,凉山彝族自治州,凉山州政府,颗粒物(PM10),51,52,37,18,16,61,,65,54,12,8,6,6,0.5,0.5
2024-08-11T1100,2575A,102.237,27.8914,凉山彝族自治州,长安,颗粒物(PM10),55,60,40,24,14,58,,53,46,25,10,13,8,0.9,0.6
2024-08-11T1100,2212A,123.2,41.1953,辽阳市,宏伟区,颗粒物(PM10),63,76,26,21,10,97,,93,93,6,4,6,5,0.6,0.5
2024-08-11T1100,2213A,123.1683,41.2495,辽阳市,新华园,颗粒物(PM10),55,60,27,21,10,87,,82,82,5,3,5,4,0.6,0.5
2024-08-11T1100,2214A,123.2354,41.2639,辽阳市,滨河路,颗粒物(PM10),60,69,23,22,9,84,,78,78,5,4,7,7,0.4,0.3
2024-08-11T1100,2215A,123.149,41.2991,辽阳市,铁西工业园,颗粒物(PM10),62,74,31,20,10,83,,70,70,5,5,7,6,0.7,0.6
2024-08-11T1100,2227A,125.1358,42.8845,辽源市,环保局,,25,12,20,8,12,80,,58,58,2,6,8,7,0.6,0.7
2024-08-11T1100,3239A,125.0764,42.9078,辽源市,银鹰制药,,24,16,20,3,13,76,,61,55,4,11,4,5,0.7,0.8
2024-08-11T1100,1625A,115.9848,36.4372,聊城市,区政府,,43,27,115,3,28,136,,68,68,11,15,13,12,0.4,0.5
2024-08-11T1100,2878A,116.0072,36.4343,聊城市,聊大东校,,43,27,118,9,35,137,,69,69,8,14,13,10,0.5,0.7
2024-08-11T1100,3200A,115.9819,36.4978,聊城市,监控中心,,40,22,118,7,29,128,,62,62,6,16,11,8,0.5,0.6
2024-08-11T1100,3513A,116.0445,36.4361,聊城市,九州社区,,41,30,117,6,33,131,,61,61,8,13,7,7,0.6,0.6
2024-08-11T1100,4018A,116.0567,36.4608,聊城市,星美广场,,41,34,124,8,32,130,,65,65,8,11,8,8,0.6,0.7
2024-08-11T1100,2632A,94.3681,29.6376,林芝市,林芝监测站,,20,18,9,6,5,62,,48,48,3,3,9,9,0.3,0.3
2024-08-11T1100,2633A,94.3616,29.6616,林芝市,林芝人民医院,,22,9,9,6,6,69,,49,49,4,6,7,6,0.1,0.2
2024-08-11T1100,2603A,100.0781,23.8982,临沧市,市环保局,,23,18,20,16,20,27,,11,11,7,10,4,4,0.3,0.3
2024-08-11T1100,2604A,100.0894,23.8822,临沧市,市气象局,,11,11,12,7,9,31,,16,16,6,9,4,5,0.4,0.4
2024-08-11T1100,1733A,111.5531,36.0783,临汾市,临钢医院,,33,18,69,9,15,104,,95,95,7,12,4,5,0.5,0.5
2024-08-11T1100,1734A,111.5028,36.0714,临汾市,技工学校,,35,18,62,6,15,112,,98,98,8,15,2,3,0.4,0.4
2024-08-11T1100,1736A,111.5018,36.0855,临汾市,市委,,38,24,64,3,13,119,,102,102,2,10,6,5,0.4,0.4
2024-08-11T1100,3018A,111.505,36.1014,临汾市,唐尧大酒店,,33,25,57,3,11,105,,90,90,7,13,5,4,0.4,0.4
2024-08-11T1100,3668A,111.5036,36.0414,临汾市,城南,,,14,71,3,16,112,,96,96,5,14,,3,0.4,0.5
2024-08-11T1100,2667A,103.2069,35.5993,临夏回族自治州,环保局,,46,46,47,21,20,96,,50,50,11,9,9,8,0.4,0.4
2024-08-11T1100,2668A,103.2417,35.6057,临夏回族自治州,建设大厦,,39,39,39,8,20,94,,53,53,11,9,5,4,0.4,0.4
2024-08-11T1100,1618A,118.3429,35.0532,临沂市,沂河小区,颗粒物(PM10),151,251,90,54,27,138,,74,74,11,13,13,10,0.4,0.5
2024-08-11T1100,1619A,118.295,35.0583,临沂市,鲁南制药厂,颗粒物(PM10),153,256,94,41,23,146,,83,83,12,16,10,8,0.4,0.4
2024-08-11T1100,1620A,118.2794,34.9976,临沂市,新光毛纺厂,颗粒物(PM10),151,251,83,51,26,142,,78,78,9,14,8,9,0.8,0.8
2024-08-11T1100,1621A,118.3956,35.0888,临沂市,河东保险公司,颗粒物(PM10),146,241,76,60,24,140,,75,75,17,17,14,9,0.5,0.4
2024-08-11T1100,3370A,118.3564,35.0215,临沂市,十里堡居委,颗粒物(PM10),157,263,70,66,25,142,,66,66,14,17,13,10,0.7,0.6
2024-08-11T1100,3496A,118.3604,35.1084,临沂市,南坊新区,颗粒物(PM10),147,244,94,53,25,150,,86,86,13,15,12,11,0.8,0.8
2024-08-11T1100,3860A,118.3920,35.0300,临沂市,皇山花园小区,颗粒物(PM10),155,259,74,63,27,132,,66,66,14,19,15,13,0.5,0.6
2024-08-11T1100,1870A,109.4856,24.3895,柳州市,柳东小学,,31,31,21,16,12,73,,38,38,8,11,9,9,0.7,0.7
2024-08-11T1100,1871A,109.4157,24.3277,柳州市,环保监测站,,38,,30,26,15,73,,35,35,6,10,8,7,0.8,0.8
2024-08-11T1100,1872A,109.389,24.341,柳州市,河西水厂,,35,35,34,12,18,76,,30,30,4,13,6,9,0.8,0.8
2024-08-11T1100,1873A,109.4311,24.2921,柳州市,市四中,,25,18,26,14,15,80,,42,42,6,11,6,6,0.5,0.5
2024-08-11T1100,1874A,109.4006,24.3631,柳州市,市九中,,28,28,34,18,18,78,,37,37,11,14,7,7,0.7,0.8
2024-08-11T1100,1875A,109.4958,24.3134,柳州市,古亭山,,25,22,26,17,15,72,,33,33,5,16,6,10,0.8,0.8
2024-08-11T1100,3402A,109.5422,24.3996,柳州市,市二中,,28,28,25,12,13,73,,36,36,6,12,8,12,0.5,0.5
2024-08-11T1100,2307A,116.5079,31.737,六安市,监测大楼,颗粒物(PM10),77,104,32,17,17,115,,77,77,3,7,6,6,0.4,0.5
2024-08-11T1100,2308A,116.4738,31.7643,六安市,皖西学院,颗粒物(PM10),70,89,36,18,15,108,,64,64,3,8,4,4,0.3,0.3
2024-08-11T1100,2309A,116.4996,31.7905,六安市,朝阳厂,颗粒物(PM10),61,72,32,16,17,104,,78,78,2,4,10,10,0.3,0.3
2024-08-11T1100,2310A,116.5567,31.7886,六安市,开发区,颗粒物(PM10),75,99,35,21,19,108,,,,3,6,7,6,0.5,0.5
2024-08-11T1100,2576A,104.8,26.5892,六盘水市,窑上,,,,,,,,,,,,,,,,
2024-08-11T1100,2577A,104.83,26.5917,六盘水市,黄土坡,颗粒物(PM10),108,165,23,48,10,105,,89,89,4,5,7,5,0.4,0.4
2024-08-11T1100,2578A,104.89,26.5939,六盘水市,水钢,颗粒物(PM10),113,175,30,32,5,101,,92,88,8,10,9,9,0.5,0.5
2024-08-11T1100,2579A,104.8475,26.5894,六盘水市,民中,颗粒物(PM10),92,133,21,46,7,104,,86,85,4,6,7,6,0.2,0.2
2024-08-11T1100,2580A,104.9544,26.5506,六盘水市,双水,颗粒物(PM10),107,163,29,38,9,102,,91,91,6,8,8,6,0.3,0.3
2024-08-11T1100,2335A,117.0189,25.1181,龙岩市,龙岩师专,,,,,,,,,,,,,,,,
2024-08-11T1100,2336A,117.0217,25.1033,龙岩市,龙岩市监测站,,48,48,38,26,26,99,,39,39,10,15,6,11,0.4,0.4
2024-08-11T1100,2337A,117.0258,25.0661,龙岩市,闽西职业技术学院,颗粒物(PM10),52,54,49,24,26,89,,24,24,5,24,4,9,0.4,0.5
2024-08-11T1100,2338A,117.0196,25.0306,龙岩市,龙岩学院,,48,48,37,26,24,79,,34,34,5,8,4,4,0.4,0.4
2024-08-11T1100,2665A,105.0822,33.3261,陇南市,汉王镇固水子,,,,,,,,,,,,,,,,
2024-08-11T1100,2885A,104.9339,33.3826,陇南市,滨江中学,颗粒物(PM10),52,54,70,13,19,63,,36,36,10,12,5,5,0.5,0.4
2024-08-11T1100,3247A,104.955,33.371,陇南市,市总工会,颗粒物(PM10),51,52,73,18,18,66,,41,41,7,8,5,5,0.5,0.5
2024-08-11T1100,2487A,111.9589,27.8901,娄底市,电视发射台,,,18,29,15,17,34,,26,26,,5,6,7,,0.8
2024-08-11T1100,2488A,111.9975,27.725,娄底市,市监测站,,19,19,38,11,26,53,,39,39,7,11,7,15,0.5,0.7
2024-08-11T1100,2489A,112.0194,27.7314,娄底市,市委党校,,27,27,39,10,23,44,,33,33,4,7,1,6,0.4,0.6
2024-08-11T1100,2490A,111.9561,27.7569,娄底市,涟钢,,26,26,39,15,21,37,,32,31,18,15,9,9,0.9,0.8
2024-08-11T1100,2491A,111.9892,27.7044,娄底市,市政府,,32,28,33,22,26,42,,28,28,18,10,8,7,0.9,0.3
2024-08-11T1100,1893A,105.4324,28.9634,泸州市,九狮山,,42,42,27,15,12,57,,28,28,8,8,5,5,0.4,0.4
2024-08-11T1100,1894A,105.4427,28.9063,泸州市,小市上码头,颗粒物(PM10),54,57,30,12,11,54,,54,50,18,13,7,7,0.5,0.4
2024-08-11T1100,1895A,105.4241,28.8573,泸州市,兰田宪桥,,46,46,24,30,17,43,,33,29,18,11,7,5,0.4,0.4
2024-08-11T1100,1896A,105.4379,28.8833,泸州市,市环监站,颗粒物(PM10),52,54,29,22,14,59,,56,52,16,11,4,4,0.3,0.2
2024-08-11T1100,3490A,105.3617,28.7703,泸州市,纳溪区环保局,颗粒物(PM10),54,57,26,26,16,49,,42,35,18,16,5,3,0.4,0.4
2024-08-11T1100,2183A,111.1406,37.5211,吕梁市,环保局,,33,33,29,6,10,89,,76,66,7,9,6,6,0.4,0.4
2024-08-11T1100,2185A,111.1297,37.5136,吕梁市,自来水公司,,31,31,24,3,7,92,,83,75,8,9,3,4,0.4,0.4
2024-08-11T1100,2867A,111.1283,37.51,吕梁市,马茂庄小学,,31,31,42,17,9,92,,89,80,12,14,2,3,0.5,0.4
2024-08-11T1100,1812A,112.3931,34.6516,洛阳市,市委党校,颗粒物(PM10),52,53,221,14,60,118,,71,71,5,10,7,5,0.6,0.6
2024-08-11T1100,1814A,112.4657,34.6871,洛阳市,豫西宾馆,颗粒物(PM10),58,66,258,23,63,125,,73,73,8,18,8,7,0.3,0.4
2024-08-11T1100,1815A,112.494,34.6886,洛阳市,河南林校,颗粒物(PM10),65,80,243,24,64,120,,70,70,8,17,7,5,0.5,0.5
2024-08-11T1100,1816A,112.3844,34.623,洛阳市,开发区管委会,,38,38,184,19,61,114,,69,69,4,9,3,2,0.4,0.3
2024-08-11T1100,1817A,112.4267,34.6258,洛阳市,市委新办公区,,40,40,195,23,77,119,,76,76,2,6,6,5,0.5,0.4
2024-08-11T1100,3340A,112.6005,34.6326,洛阳市,伊滨,颗粒物(PM10),62,74,237,18,62,120,,73,73,12,13,7,5,0.3,0.2
2024-08-11T1100,3341A,112.4951,34.6332,洛阳市,中移产业园,颗粒物(PM10),54,57,229,16,62,119,,78,78,4,8,7,5,0.8,0.6
2024-08-11T1100,3593A,112.5736,34.8993,洛阳市,吉利监测站,,37,37,242,7,60,112,,69,69,2,5,2,2,0.3,0.4
2024-08-11T1100,3635A,112.3677,34.662,洛阳市,河科大西苑校区,颗粒物(PM10),55,60,237,19,56,115,,71,71,3,9,7,5,0.6,0.6
2024-08-11T1100,3636A,112.4388,34.6781,洛阳市,英才小学,颗粒物(PM10),64,77,234,31,73,122,,71,71,4,12,10,8,0.5,0.5
2024-08-11T1100,2399A,114.051,33.5699,漯河市,三五一五工厂,颗粒物(PM10),120,190,306,54,65,121,,76,76,6,10,8,8,0.4,0.4
2024-08-11T1100,2400A,114.0055,33.5698,漯河市,漯河大学,颗粒物(PM10),116,181,259,48,64,113,,65,65,6,10,10,10,0.3,0.4
2024-08-11T1100,2401A,114.0138,33.5828,漯河市,市水利局,,,,300,,68,,,98,,,8,,8,,0.4
2024-08-11T1100,2402A,114.0261,33.5698,漯河市,市广电局,颗粒物(PM10),124,198,291,54,67,116,,72,72,3,6,6,6,0.5,0.5
2024-08-11T1100,3478A,113.9749,33.5664,漯河市,市图书馆,颗粒物(PM10),129,207,257,57,67,111,,70,70,6,9,9,9,0.3,0.4
2024-08-11T1100,3479A,114.0967,33.5906,漯河市,召陵区卫健委,颗粒物(PM10),114,178,279,52,73,127,,82,82,4,5,4,4,0.4,0.4
2024-08-11T1100,1798A,118.5092,31.6837,马鞍山市,湖东路四小,颗粒物(PM10),55,60,45,16,25,128,,76,76,7,20,6,11,0.7,1
2024-08-11T1100,1799A,118.5024,31.6449,马鞍山市,开发区,颗粒物(PM10),52,54,46,19,25,122,,71,71,9,33,4,4,0.7,0.8
2024-08-11T1100,1800A,118.5228,31.7231,马鞍山市,慈湖,,43,38,39,25,26,135,,75,75,11,26,10,10,0.9,1
2024-08-11T1100,1802A,118.6245,31.7241,马鞍山市,濮塘,颗粒物(PM10),54,57,34,29,24,133,,75,75,16,13,8,5,1.6,0.9
2024-08-11T1100,3633A,118.4918,31.6809,马鞍山市,雨山,,48,48,42,19,24,121,,71,71,2,19,6,9,0.8,1.1
2024-08-11T1100,1686A,111.0286,21.4688,茂名市,电白南海,,32,29,27,22,18,75,,80,80,6,5,7,7,0.6,0.6
2024-08-11T1100,1687A,110.9294,21.6533,茂名市,茂石化七小,,29,29,26,17,22,71,,43,43,5,8,7,8,0.4,0.4
2024-08-11T1100,1688A,110.9107,21.6687,茂名市,健康路,,31,31,25,12,11,76,,55,55,5,6,8,9,0.6,0.6
2024-08-11T1100,1689A,110.8592,21.6828,茂名市,高岭,,29,29,25,17,18,74,,49,49,13,10,13,12,0.5,0.5
2024-08-11T1100,3450A,111.01,21.5165,茂名市,电白水东,,25,22,21,12,12,78,,68,68,7,4,4,4,0.5,0.5
2024-08-11T1100,2539A,104.0308,30.0478,眉山市,黑龙滩水库,,47,47,42,19,16,42,,17,17,6,8,5,5,0.4,0.4
2024-08-11T1100,2540A,103.8416,30.0874,眉山市,气象局,颗粒物(PM10),69,87,37,41,20,32,,9,9,54,26,6,6,0.7,0.6
2024-08-11T1100,3137A,103.8578,30.0744,眉山市,市委党校,颗粒物(PM10),70,90,41,27,15,37,,16,16,32,27,14,8,0.6,0.5
2024-08-11T1100,3148A,103.8291,30.0564,眉山市,区人社局,颗粒物(PM10),63,76,38,31,16,39,,15,15,37,29,19,12,0.7,0.6
2024-08-11T1100,1690A,116.1231,24.3284,梅州市,梅江月梅,,38,31,30,18,20,119,,85,85,4,6,8,8,0.5,0.5
2024-08-11T1100,1691A,116.0797,24.2719,梅州市,梅县新城,,38,38,30,21,21,113,,78,78,7,8,4,4,0.6,0.6
2024-08-11T1100,1692A,116.1248,24.2654,梅州市,环境监控中心,,,,31,,21,88,,67,67,,14,5,5,,0.3
2024-08-11T1100,3315A,116.1233,24.2991,梅州市,梅龙,,40,22,25,13,16,126,,87,87,5,8,8,9,0.6,0.6
2024-08-11T1100,1878A,104.7778,31.4741,绵阳市,富乐山,,37,37,50,23,28,51,,22,20,13,18,8,9,0.5,0.6
2024-08-11T1100,1879A,104.7563,31.4535,绵阳市,市人大,,46,46,60,23,27,59,,28,26,21,29,12,13,0.5,0.6
2024-08-11T1100,1880A,104.6697,31.4668,绵阳市,高新区自来水公司,颗粒物(PM10),51,51,59,19,25,85,,30,30,18,29,9,8,0.6,0.6
2024-08-11T1100,1881A,104.7287,31.5075,绵阳市,三水厂,颗粒物(PM10),52,53,57,28,27,62,,16,16,27,28,7,6,0.6,0.7
2024-08-11T1100,3491A,104.69,31.5322,绵阳市,西科大附属小学,颗粒物(PM10),51,52,51,27,26,44,,14,14,35,26,13,11,0.5,0.5
2024-08-11T1100,3492A,104.5648,31.5343,绵阳市,安州区旅游局,,38,38,51,24,31,64,,21,20,20,17,10,10,0.5,0.6
2024-08-11T1100,1784A,129.61,44.561,牡丹江市,环保大楼,,19,16,23,13,13,47,,44,44,3,11,7,8,0.3,0.3
2024-08-11T1100,1785A,129.6115,44.5782,牡丹江市,文化广场,,32,,29,22,25,43,,39,39,6,15,7,8,0.3,0.5
2024-08-11T1100,1786A,129.5904,44.5963,牡丹江市,第一医院,,14,12,25,9,17,44,,39,39,6,14,5,6,0.4,0.5
2024-08-11T1100,1787A,129.6364,44.6075,牡丹江市,机车工厂,,14,,32,8,22,43,,27,27,3,13,5,12,0.3,0.4
2024-08-11T1100,1788A,129.6386,44.5462,牡丹江市,第一中学,,20,20,26,7,17,49,,38,38,3,14,5,5,0.3,0.4
2024-08-11T1100,2531A,105.0703,29.61,内江市,市监测站,,33,33,29,22,22,51,,30,30,18,14,3,3,0.4,0.4
2024-08-11T1100,2532A,105.0717,29.5947,内江市,东兴区政府,,30,30,30,14,12,47,,30,30,14,14,10,8,0.8,0.8
2024-08-11T1100,2533A,105.0653,29.5817,内江市,内江二中,,36,36,32,12,16,48,,30,30,10,14,3,2,0.5,0.6
2024-08-11T1100,2534A,105.0406,29.5822,内江市,内江日报社,,38,38,39,20,20,54,,28,28,12,12,5,3,0.4,0.5
2024-08-11T1100,2628A,92.0657,31.4846,那曲市,那曲监测站,颗粒物(PM10),59,67,41,37,16,97,,73,73,9,9,7,6,0.5,0.5
2024-08-11T1100,3128A,92.0506,31.4797,那曲市,那曲会议中心,,50,50,40,21,17,104,,69,69,19,13,5,4,0.3,0.4
2024-08-11T1100,1290A,115.8931,28.6843,南昌市,省外办,颗粒物(PM10),56,61,59,27,27,105,,70,70,20,20,10,10,0.4,0.5
2024-08-11T1100,1291A,115.8886,28.7003,南昌市,省林业公司,,,56,46,27,21,116,,36,36,20,19,,7,,0.5
2024-08-11T1100,1292A,115.8126,28.7442,南昌市,林科所,颗粒物(PM10),53,56,36,24,20,138,,63,63,18,23,10,12,0.2,0.2
2024-08-11T1100,1294A,115.8518,28.687,南昌市,建工学校,,50,50,41,9,15,122,,56,56,19,17,16,11,0.5,0.5
2024-08-11T1100,1295A,115.8921,28.6424,南昌市,象湖,臭氧1小时,53,48,37,34,24,162,,86,86,13,17,15,9,0.7,0.6
2024-08-11T1100,1296A,115.7423,28.7996,南昌市,武术学校,细颗粒物(PM2.5),58,44,31,41,17,63,,27,27,8,7,2,2,0.7,0.7
2024-08-11T1100,1298A,115.9314,28.6842,南昌市,省站,颗粒物(PM10),55,60,43,19,25,87,,59,59,17,13,9,11,0.6,0.6
2024-08-11T1100,3046A,115.9084,28.6062,南昌市,机电学校,颗粒物(PM10),69,87,50,44,26,142,,82,82,11,11,16,11,0.8,0.7
2024-08-11T1100,3690A,115.9721,28.7031,南昌市,外国语学校,,31,31,46,20,18,98,,53,53,7,14,4,6,0.3,0.2
2024-08-11T1100,1905A,106.056,30.8064,南充市,西山风景区,,46,43,47,32,24,39,,25,19,12,9,2,3,0.1,0.1
2024-08-11T1100,1906A,106.0789,30.8023,南充市,南充市委,颗粒物(PM10),65,79,62,43,27,58,,42,39,13,12,8,7,0.5,0.3
2024-08-11T1100,1907A,106.1031,30.8217,南充市,南充炼油厂,颗粒物(PM10),61,71,62,42,26,59,,41,39,13,12,6,6,0.3,0.3
2024-08-11T1100,1908A,106.1064,30.7856,南充市,高坪区监测站,颗粒物(PM10),72,93,59,40,22,44,,36,30,13,13,6,5,0.3,0.2
2024-08-11T1100,1909A,106.0642,30.7636,南充市,嘉陵区环保局,颗粒物(PM10),61,72,56,41,24,48,,39,35,14,13,10,8,0.4,0.3
2024-08-11T1100,1910A,106.1087,30.8388,南充市,市环境监测站,颗粒物(PM10),58,65,58,38,25,53,,35,35,18,16,6,5,0.8,0.6
2024-08-11T1100,1151A,118.8086,32.1065,南京市,迈皋桥,,40,36,30,12,17,125,,79,79,7,18,8,15,0.2,0.3
2024-08-11T1100,1152A,118.7538,32.0551,南京市,草场门,颗粒物(PM10),51,51,36,17,18,119,,76,76,4,12,5,7,0.4,0.5
2024-08-11T1100,1153A,118.7794,32.0745,南京市,山西路,,46,46,36,14,19,128,,84,84,1,8,4,4,0.3,0.4
2024-08-11T1100,1154A,118.7752,32.0023,南京市,中华门,,44,44,35,19,20,134,,76,76,4,22,4,4,0.5,0.5
2024-08-11T1100,1155A,118.8109,32.0309,南京市,瑞金路,,44,44,37,14,20,138,,89,89,2,8,5,7,0.4,0.5
2024-08-11T1100,1156A,118.7997,32.0754,南京市,玄武湖,颗粒物(PM10),51,52,40,14,17,104,,67,67,2,5,4,4,0.6,0.6
2024-08-11T1100,1157A,118.6414,32.0931,南京市,浦口,颗粒物(PM10),52,53,33,20,17,123,,85,85,3,5,6,7,0.4,0.3
2024-08-11T1100,1158A,118.7356,31.9996,南京市,奥体中心,,48,48,38,19,25,120,,65,65,10,23,9,8,0.3,0.4
2024-08-11T1100,1159A,118.9125,32.1028,南京市,仙林大学城,,45,41,38,19,20,142,,85,85,7,18,9,11,0.4,0.8
2024-08-11T1100,3422A,118.8436,31.9198,南京市,江宁彩虹桥,,44,44,37,19,19,135,,71,71,5,18,4,4,1.0,0.8
2024-08-11T1100,3423A,119.0138,31.6494,南京市,溧水永阳,,42,36,34,21,23,132,,86,86,5,11,3,4,0.5,0.5
2024-08-11T1100,3424A,118.879,31.3302,南京市,高淳老职中,臭氧1小时,57,47,36,25,26,165,,89,89,11,12,6,5,0.6,0.5
2024-08-11T1100,3427A,118.8554,32.3578,南京市,六合雄州,颗粒物(PM10),60,69,40,21,21,127,,76,76,6,10,5,6,0.7,0.8
2024-08-11T1100,1401A,108.3103,22.7881,南宁市,二十一中,,17,11,26,8,15,52,,58,50,12,9,4,3,0.6,0.7
2024-08-11T1100,1402A,108.3141,22.8528,南宁市,北湖,,20,20,28,13,16,52,,54,54,10,8,8,3,0.6,0.6
2024-08-11T1100,1403A,108.3206,22.8225,南宁市,市监测站,,26,26,30,14,15,45,,55,49,18,11,5,5,0.7,0.7
2024-08-11T1100,1404A,108.3829,22.8037,南宁市,大自然花园,,15,15,25,9,15,48,,53,50,13,9,5,4,0.6,0.6
2024-08-11T1100,1405A,108.4394,22.7904,南宁市,仙葫,,,,25,3,17,55,,55,51,10,6,6,6,0.8,0.7
2024-08-11T1100,1406A,108.2397,22.8467,南宁市,区农职院,,,61,37,32,21,51,,,,8,8,13,8,,0.9
2024-08-11T1100,1407A,108.3275,22.735,南宁市,英华嘉园,,15,14,26,7,14,48,,48,48,12,13,6,6,0.5,0.6
2024-08-11T1100,1408A,108.2257,22.7757,南宁市,沙井镇街道办,,19,,28,9,13,59,,53,53,7,12,2,2,0.6,0.6
2024-08-11T1100,3401A,108.4834,22.7618,南宁市,红星社区,,15,7,28,6,17,48,,44,44,13,8,7,5,0.7,0.6
2024-08-11T1100,2331A,118.0966,26.6761,南平市,茫荡山,,,,,,,,,,,,,,,,
2024-08-11T1100,2332A,118.1681,26.6369,南平市,南平市监测站,,31,29,26,19,16,98,,36,36,8,10,5,5,0.6,0.6
2024-08-11T1100,2333A,118.1825,26.6489,南平市,南平铝业有限公司,,35,,30,24,19,97,,37,37,6,10,6,6,0.6,0.6
2024-08-11T1100,2334A,118.1756,26.6272,南平市,南平七中,,36,35,32,25,17,92,,29,29,7,8,5,4,0.6,0.6
2024-08-11T1100,1168A,120.9098,31.9663,南通市,狼山街道,臭氧1小时,92,59,41,36,23,193,,71,71,14,35,10,9,0.8,0.6
2024-08-11T1100,1169A,120.86,32.0005,南通市,虹桥,臭氧1小时,80,54,41,39,26,184,,77,77,17,22,7,6,1.1,0.8
2024-08-11T1100,1170A,120.87,32.02,南通市,城中,臭氧1小时,88,63,51,36,24,190,,84,84,14,19,10,14,1.1,0.8
2024-08-11T1100,1171A,120.94,31.93,南通市,星湖花园,臭氧1小时,103,50,40,33,20,206,,82,82,17,31,9,7,1.0,0.7
2024-08-11T1100,1172A,120.81,32.0417,南通市,紫琅学院,臭氧1小时,72,53,43,33,22,177,,58,58,32,41,11,10,1.1,0.8
2024-08-11T1100,3291A,121.067,32.062,南通市,通州监测站,臭氧1小时,100,56,47,36,23,200,,72,72,16,16,9,5,0.9,0.7
2024-08-11T1100,3432A,120.9348,31.9883,南通市,环境教育馆,臭氧1小时,97,56,48,33,23,197,,84,84,20,31,13,11,1.0,0.7
2024-08-11T1100,2404A,112.5224,33.0122,南阳市,瓦房庄,颗粒物(PM10),85,120,190,46,57,120,,76,76,14,15,4,4,0.5,0.5
2024-08-11T1100,2405A,112.5003,32.9735,南阳市,汉画馆,颗粒物(PM10),84,117,197,48,63,106,,55,55,11,16,5,5,0.4,0.5
2024-08-11T1100,2406A,112.5573,33.027,南阳市,气象站,颗粒物(PM10),89,128,191,41,53,129,,50,50,16,20,7,6,0.5,0.5
2024-08-11T1100,2407A,112.5481,32.9689,南阳市,理工学院,颗粒物(PM10),78,106,173,38,51,107,,54,54,13,19,4,5,0.4,0.5
2024-08-11T1100,4008A,112.5234,32.9922,南阳市,卧龙区政府,颗粒物(PM10),88,126,198,45,53,109,,61,61,13,19,5,5,0.5,0.6
2024-08-11T1100,1234A,121.8358,29.911,宁波市,区环保大楼,,42,34,32,25,19,133,,96,96,11,13,8,7,0.7,0.7
2024-08-11T1100,1235A,121.56,29.82,宁波市,万里学院,,45,38,35,24,23,144,,90,90,8,10,9,9,0.7,0.7
2024-08-11T1100,1236A,121.713,29.9572,宁波市,龙赛医院,,47,29,28,19,16,148,,96,96,9,10,10,8,0.7,0.6
2024-08-11T1100,1239A,121.633,29.7733,宁波市,钱湖水厂,,42,34,27,25,19,133,,82,82,5,6,8,7,0.6,0.6
2024-08-11T1100,1240A,121.5856,29.8635,宁波市,太古小学,颗粒物(PM10),52,53,33,27,18,146,,87,87,8,7,6,6,1.1,1
2024-08-11T1100,1241A,121.524,29.8674,宁波市,市环境监测中心,,45,35,31,17,18,144,,95,95,8,9,5,5,0.7,0.6
2024-08-11T1100,2871A,121.6147,29.9017,宁波市,万里国际学校,,50,33,27,25,19,160,,98,98,11,8,6,6,0.5,0.5
2024-08-11T1100,3710A,121.5594,29.8975,宁波市,白沙活动中心,,49,39,30,23,17,155,,95,95,10,10,7,7,0.6,0.5
2024-08-11T1100,2339A,119.5001,26.6946,宁德市,金涵水库,,,,,,,,,,,,,,,,
2024-08-11T1100,2341A,119.5388,26.6612,宁德市,宁德市监测站,颗粒物(PM10),57,63,50,32,35,108,,56,56,11,10,4,4,0.6,0.8
2024-08-11T1100,3209A,119.5231,26.6562,宁德市,宁德一中,颗粒物(PM10),54,57,56,36,36,110,,56,56,10,9,4,4,1.2,1.2
2024-08-11T1100,2618A,98.8601,25.8567,怒江傈僳族自治州,州监测站,,18,13,18,12,12,25,,25,21,5,7,11,10,0.5,0.5
2024-08-11T1100,2619A,98.8546,25.8417,怒江傈僳族自治州,泸水一中,颗粒物(PM10),95,140,25,10,10,21,,15,12,9,12,4,5,0.5,0.5
2024-08-11T1100,1888A,101.6891,26.571,攀枝花市,弄弄坪,细颗粒物(PM2.5),68,68,33,49,11,28,,40,29,33,15,27,10,1.0,0.6
2024-08-11T1100,1889A,101.5769,26.5928,攀枝花市,河门口,,18,18,20,7,10,56,,38,37,11,14,5,6,0.5,0.6
2024-08-11T1100,1890A,101.7169,26.585,攀枝花市,炳草岗,颗粒物(PM10),54,57,33,28,12,32,,31,26,26,18,35,19,1.1,0.8
2024-08-11T1100,1891A,101.7369,26.5008,攀枝花市,仁和,颗粒物(PM10),55,60,27,34,12,50,,37,34,20,16,23,19,1.7,1.1
2024-08-11T1100,2835A,101.7227,26.567,攀枝花市,四十中小,,27,27,16,16,10,48,,40,35,19,16,30,22,0.9,0.8
2024-08-11T1100,1604A,122.0303,41.1489,盘锦市,开发区,,35,35,29,20,15,100,,86,86,12,8,5,5,0.6,0.6
2024-08-11T1100,1605A,122.0485,41.0883,盘锦市,兴隆台,,45,45,31,26,15,95,,80,80,13,10,4,4,0.6,0.5
2024-08-11T1100,1606A,121.8297,41.1028,盘锦市,新生街道,颗粒物(PM10),55,60,28,25,15,117,,98,98,4,5,4,4,0.7,0.6
2024-08-11T1100,1832A,113.3257,33.742,平顶山市,新华旅馆,颗粒物(PM10),90,129,282,46,67,131,,61,61,13,16,10,5,0.5,0.4
2024-08-11T1100,1833A,113.2919,33.737,平顶山市,规划设计院,颗粒物(PM10),86,121,230,44,68,127,,62,62,17,20,13,8,0.9,0.8
2024-08-11T1100,1834A,113.182,33.774,平顶山市,平顶山工学院,颗粒物(PM10),86,121,209,39,68,114,,60,60,17,14,12,9,0.8,0.7
2024-08-11T1100,3204A,113.3025,33.73,平顶山市,规划局,颗粒物(PM10),95,139,267,53,72,117,,58,58,15,17,9,5,0.7,0.7
2024-08-11T1100,3594A,112.8867,33.9116,平顶山市,石龙区,,,65,264,17,74,118,,41,41,6,33,9,12,,0.3
2024-08-11T1100,2656A,106.6692,35.5461,平凉市,聚贤嘉苑,颗粒物(PM10),62,74,48,24,15,100,,72,72,21,28,7,6,0.3,0.2
2024-08-11T1100,2657A,106.7021,35.5307,平凉市,博物馆,,,74,53,20,13,97,,73,73,,14,9,9,,0
2024-08-11T1100,2347A,114.0997,27.5002,萍乡市,武功山,,23,11,9,9,5,71,,39,39,3,4,16,17,0.2,0.2
2024-08-11T1100,2348A,113.8385,27.6434,萍乡市,中医院,,33,33,27,14,19,84,,55,55,5,8,16,9,0.7,0.7
2024-08-11T1100,2349A,113.8493,27.6253,萍乡市,市政府车库,,26,26,33,14,21,75,,43,43,3,7,22,14,0.5,0.6
2024-08-11T1100,2350A,113.8676,27.6435,萍乡市,市环保局,,34,34,33,22,22,78,,38,38,1,7,13,12,0.7,0.8
2024-08-11T1100,2351A,113.866,27.6198,萍乡市,安源区政府,,35,35,32,16,15,72,,36,36,4,10,19,14,0.4,0.5
2024-08-11T1100,2319A,119.0141,25.4325,莆田市,荔城区仓后路,细颗粒物(PM2.5),85,81,49,63,32,178,,72,72,14,12,7,7,0.7,0.7
2024-08-11T1100,2320A,119.0015,25.4553,莆田市,莆田市监测站,细颗粒物(PM2.5),72,74,42,52,30,174,,72,72,14,9,8,6,0.7,0.6
2024-08-11T1100,2321A,119.1119,25.4561,莆田市,涵江区六中,细颗粒物(PM2.5),64,59,46,46,32,157,,69,69,12,12,6,7,0.7,0.8
2024-08-11T1100,2322A,119.1013,25.3215,莆田市,秀屿区政府,颗粒物(PM10),51,52,40,32,36,129,,66,66,7,12,6,8,0.6,0.7
2024-08-11T1100,2323A,118.981,25.4792,莆田市,东圳水库,,,,,,,,,,,,,,,,
2024-08-11T1100,2392A,115.0312,35.7636,濮阳市,环保局,,41,23,105,3,30,131,,66,66,7,16,8,7,0.6,0.7
2024-08-11T1100,2394A,115.0574,35.7609,濮阳市,油田运输公司,,42,15,100,10,33,132,,67,67,9,17,5,3,0.5,0.6
2024-08-11T1100,2395A,115.0866,35.7754,濮阳市,油田物探公司,,44,16,102,7,33,138,,74,74,1,5,6,4,0.4,0.6
2024-08-11T1100,3021A,115,35.7668,濮阳市,濮水河管理处,,35,20,91,8,35,110,,43,43,6,15,4,2,0.7,0.8
2024-08-11T1100,2601A,100.98,22.7633,普洱市,市环保局,,27,27,23,10,14,30,,15,15,6,7,10,9,0.5,0.5
2024-08-11T1100,2602A,100.9817,22.8322,普洱市,普洱第二中学,,23,23,20,13,12,26,,11,11,8,6,6,5,0.5,0.4
2024-08-11T1100,2262A,131.0518,45.8751,七台河市,新一中,,15,,17,3,12,47,,42,42,6,9,10,10,0.8,0.8
2024-08-11T1100,3345A,131.0577,45.7879,七台河市,中波台,,12,8,8,8,7,34,,32,32,12,14,10,10,0.3,0.3
2024-08-11T1100,3637A,131.0176,45.7761,七台河市,人民广场,,12,6,17,3,6,38,,41,41,8,12,11,11,0.3,0.4
2024-08-11T1100,3684A,130.8781,45.8222,七台河市,新建矿广场,,18,,19,12,16,34,,27,27,12,20,5,9,0.4,0.5
2024-08-11T1100,1779A,123.9305,47.3636,齐齐哈尔市,安居小区,,25,12,18,6,14,79,,83,83,7,11,8,8,0.4,0.5
2024-08-11T1100,1780A,123.9488,47.3386,齐齐哈尔市,中心广场,,24,14,22,11,14,76,,85,85,9,12,2,2,0.3,0.4
2024-08-11T1100,1781A,123.9483,47.3227,齐齐哈尔市,农牧车辆厂,,24,19,25,7,11,74,,84,84,11,9,8,8,0.2,0.2
2024-08-11T1100,1783A,123.945,47.2988,齐齐哈尔市,市环境监测站,,24,15,16,8,14,76,,85,85,8,9,6,7,0.2,0.2
2024-08-11T1100,3662A,123.6333,47.2075,齐齐哈尔市,富区青少年活动中心,,26,,15,3,6,83,,84,84,12,9,4,4,0.4,0.5
2024-08-11T1100,2591A,107.9783,26.5747,黔东南苗族侗族自治州,市环境监测站,,18,18,26,11,20,41,,40,40,17,15,4,4,0.7,0.7
2024-08-11T1100,2881A,107.8908,26.5311,黔东南苗族侗族自治州,凯里学院,,15,14,15,10,11,23,,23,23,18,12,5,5,0.4,0.3
2024-08-11T1100,2593A,107.5228,26.2403,黔南布依族苗族自治州,小围寨,,11,7,10,3,3,34,,31,31,4,5,2,4,0.4,0.4
2024-08-11T1100,3538A,107.5175,26.2978,黔南布依族苗族自治州,沙坝,,17,9,14,3,5,52,,36,36,5,7,3,4,0.3,0.4
2024-08-11T1100,2589A,104.9022,25.0925,黔西南布依族苗族自治州,场坝街,,31,31,16,10,7,47,,45,45,15,12,13,12,0.2,0.1
2024-08-11T1100,2590A,104.8811,25.0992,黔西南布依族苗族自治州,坪东大道,,27,27,21,11,9,58,,47,47,11,11,5,6,0.4,0.4
2024-08-11T1100,2502A,108.6236,21.9667,钦州市,市环保站,,,12,24,3,8,26,,42,40,24,16,,6,0.8,0.6
2024-08-11T1100,2503A,108.6549,21.9481,钦州市,沙埠小学,,20,20,30,8,13,30,,31,31,19,17,4,4,0.6,0.6
2024-08-11T1100,2504A,108.5989,21.7431,钦州市,港区一小,,15,15,33,3,12,23,,59,46,22,10,8,7,0.5,0.6
2024-08-11T1100,3404A,108.5959,21.9633,钦州市,北职校,,10,9,29,6,14,32,,36,36,16,16,4,4,0.6,0.6
2024-08-11T1100,1042A,119.5134,39.8207,秦皇岛市,北戴河环保局,颗粒物(PM10),83,115,71,26,19,133,,85,85,12,11,3,2,0.7,0.6
2024-08-11T1100,1043A,119.7493,40.0116,秦皇岛市,第一关,颗粒物(PM10),92,133,67,47,43,140,,62,62,7,22,1,3,0.7,0.5
2024-08-11T1100,1044A,119.5897,39.9499,秦皇岛市,监测站,颗粒物(PM10),82,114,83,45,44,148,,65,65,18,20,2,3,0.8,0.7
2024-08-11T1100,1046A,119.5251,39.9041,秦皇岛市,建设大厦,颗粒物(PM10),78,106,64,12,18,147,,60,60,8,17,4,2,0.6,0.6
2024-08-11T1100,3132A,119.610547,39.943889,秦皇岛市,文明里,颗粒物(PM10),91,131,52,27,22,152,,75,75,7,10,4,2,0.7,0.5
2024-08-11T1100,1307A,120.6659,36.2403,青岛市,仰口,颗粒物(PM10),72,94,49,41,28,138,,107,107,6,5,6,7,0.5,0.4
2024-08-11T1100,1310A,120.4134,36.0658,青岛市,市南区东部子站,,48,48,37,17,11,135,,105,105,5,8,10,8,0.5,0.5
2024-08-11T1100,1311A,120.3664,36.1032,青岛市,四方区子站,颗粒物(PM10),58,66,37,31,21,147,,109,109,10,7,17,11,1.2,0.8
2024-08-11T1100,1312A,120.2994,36.054,青岛市,市南区西部子站,颗粒物(PM10),69,88,43,27,14,128,,97,97,17,11,11,8,1.0,0.8
2024-08-11T1100,1313A,120.4581,36.0858,青岛市,崂山区子站,颗粒物(PM10),54,58,40,22,14,130,,101,101,11,11,9,8,0.7,0.6
2024-08-11T1100,1314A,120.1983,35.9608,青岛市,黄岛区子站,颗粒物(PM10),59,68,36,27,21,132,,98,98,15,14,11,8,0.9,0.8
2024-08-11T1100,1315A,120.3999,36.3083,青岛市,城阳区子站,颗粒物(PM10),75,100,44,22,18,160,,102,102,16,17,13,8,1.0,0.8
2024-08-11T1100,1966A,120.0405,35.8735,青岛市,黄岛区4号,颗粒物(PM10),58,66,40,22,18,119,,88,88,20,17,11,8,0.8,0.7
2024-08-11T1100,3362A,120.5014,36.4034,青岛市,即墨2号,颗粒物(PM10),71,91,48,27,25,151,,99,99,10,12,6,7,0.7,0.6
2024-08-11T1100,3642A,120.3503,36.0736,青岛市,市北区南部,,44,38,33,22,18,138,,108,108,11,10,8,7,0.8,0.7
2024-08-11T1100,3643A,120.3948,36.1805,青岛市,李沧区北部,颗粒物(PM10),74,97,44,31,24,155,,103,103,14,16,15,9,1.0,0.6
2024-08-11T1100,1702A,113.0426,23.691,清远市,环保大楼,,20,12,24,9,14,64,,47,47,8,15,5,5,0.4,0.5
2024-08-11T1100,1703A,113.0208,23.7106,清远市,凤城街办,,15,11,28,3,16,48,,37,37,10,14,4,4,0.5,0.5
2024-08-11T1100,3025A,113.0477,23.6344,清远市,技师学院,,24,12,31,3,15,75,,47,47,6,20,5,6,0.9,0.8
2024-08-11T1100,3318A,112.9903,23.7403,清远市,清新太和,,17,9,29,3,15,52,,39,39,6,11,3,4,0.5,0.5
2024-08-11T1100,3455A,113.076,23.7198,清远市,清城东城,,22,7,28,3,17,68,,47,47,3,12,6,6,0.7,0.7
2024-08-11T1100,2661A,107.6325,35.7357,庆阳市,庆阳五中,,49,49,64,20,22,114,,101,100,5,8,6,5,0.3,0.3
2024-08-11T1100,2662A,107.6364,35.7067,庆阳市,市环保局,,50,50,61,14,17,117,,100,100,7,9,7,10,0.3,0.3
2024-08-11T1100,1916A,103.7897,25.5035,曲靖市,环境监测站,,39,39,43,12,11,73,,83,74,8,10,3,4,0.5,0.5
2024-08-11T1100,1917A,103.8,25.5364,曲靖市,烟厂办公区,,37,37,54,12,12,64,,79,70,10,10,3,5,0.5,0.4
2024-08-11T1100,3376A,103.7947,25.462,曲靖市,南苑二区,,46,46,38,12,12,75,,88,77,9,9,6,7,0.5,0.5
2024-08-11T1100,3377A,103.7444,25.5261,曲靖市,曲靖师范学院,,36,36,45,17,14,79,,90,83,11,9,5,6,0.4,0.4
2024-08-11T1100,1264A,118.8692,28.9398,衢州市,环保大楼,,35,34,38,23,26,109,,58,58,7,14,6,6,0.4,0.5
2024-08-11T1100,1265A,118.8709,28.9666,衢州市,实验学校,,39,37,43,27,27,117,,55,55,6,13,3,4,0.4,0.4
2024-08-11T1100,1266A,118.8621,28.9808,衢州市,衢州学院,,44,44,43,30,26,135,,57,57,9,18,4,4,0.7,0.6
2024-08-11T1100,1611A,118.5819,24.9117,泉州市,涂山街,颗粒物(PM10),66,81,53,35,30,160,,57,57,16,19,5,5,0.8,0.7
2024-08-11T1100,1612A,118.5972,24.8978,泉州市,津头埔,颗粒物(PM10),67,84,54,42,31,134,,53,53,22,22,4,4,0.7,0.8
2024-08-11T1100,1613A,118.6663,24.9424,泉州市,万安,颗粒物(PM10),62,73,46,42,30,141,,57,57,10,17,4,4,0.6,0.5
2024-08-11T1100,1614A,118.6117,24.9604,泉州市,清源山,,,,,,,,,,,,,,,,
2024-08-11T1100,3529A,118.6333,24.9264,泉州市,城华南路,颗粒物(PM10),51,52,44,34,34,152,,53,53,9,15,4,3,0.7,0.6
2024-08-11T1100,2626A,88.8876,29.2718,日喀则市,日喀则监测站,,32,16,9,7,4,100,,94,89,4,5,4,5,0.6,0.5
2024-08-11T1100,3726A,88.8781,29.2426,日喀则市,林业技术推广中心,,33,10,6,7,6,105,,84,79,9,7,6,6,0.6,0.5
2024-08-11T1100,1659A,119.471,35.4209,日照市,监测站,颗粒物(PM10),158,266,58,65,28,133,,69,69,14,23,10,10,0.9,1
2024-08-11T1100,1660A,119.523,35.4216,日照市,市政府广场,颗粒物(PM10),157,263,61,67,26,136,,65,65,18,30,13,12,0.8,1
2024-08-11T1100,1661A,119.5587,35.4044,日照市,港务局,颗粒物(PM10),146,241,77,39,21,111,,57,57,40,39,18,15,0.8,0.8
2024-08-11T1100,3507A,119.5328,35.4625,日照市,职业技术学院,颗粒物(PM10),159,268,68,61,28,140,,71,71,20,28,15,14,0.9,1.1
2024-08-11T1100,3604A,119.3266,35.1044,日照市,岚山环保分局,颗粒物(PM10),147,244,56,54,18,138,,83,83,12,14,12,9,0.8,0.6
2024-08-11T1100,1835A,111.1922,34.7752,三门峡市,市政府,,,,216,13,43,119,,31,31,8,30,,10,0.5,0.6
2024-08-11T1100,1836A,111.1587,34.7942,三门峡市,开发区,细颗粒物(PM2.5),54,,216,38,127,117,,49,49,8,18,12,10,0.5,0.5
2024-08-11T1100,1838A,111.143,34.7955,三门峡市,风景区,,,,,,,,,,,,,,,,
2024-08-11T1100,3039A,111.1911,34.7829,三门峡市,三门峡市第一小学,,44,44,221,10,51,119,,48,48,9,24,10,10,0.5,0.6
2024-08-11T1100,3598A,111.1,34.7167,三门峡市,富达温泉假日酒店,,37,34,211,9,58,118,,49,49,8,20,9,12,0.3,0.5
2024-08-11T1100,2324A,117.6211,26.2625,三明市,三钢,,,52,37,28,26,106,,40,40,,14,,10,0.8,1
2024-08-11T1100,2325A,117.635,26.2714,三明市,三明二中,颗粒物(PM10),52,54,36,26,23,112,,47,47,19,14,16,5,1.7,0.8
2024-08-11T1100,2326A,117.6028,26.2378,三明市,三元区政府,,47,47,36,26,22,107,,46,46,10,10,3,2,0.4,0.4
2024-08-11T1100,2327A,117.7275,26.3108,三明市,洋溪,,,,,,,,,,,,,,,,
2024-08-11T1100,1876A,109.5078,18.2489,三亚市,河东子站,,25,22,19,12,11,78,,48,48,3,6,2,2,0.4,0.4
2024-08-11T1100,1877A,109.4964,18.2681,三亚市,河西子站,,23,15,18,10,10,72,,40,40,5,7,3,3,0.3,0.3
2024-08-11T1100,3540A,109.7348,18.3443,三亚市,君悦子站,,33,33,23,18,11,69,,42,42,4,8,2,2,0.3,0.2
2024-08-11T1100,2624A,91.7608,29.2313,山南市,山南监测站,,33,18,14,3,6,104,,86,86,3,6,6,6,0.2,0.2
2024-08-11T1100,2625A,91.7706,29.2436,山南市,山南人民医院,,33,33,24,8,10,104,,89,89,10,9,7,7,0.3,0.3
2024-08-11T1100,1674A,116.6794,23.3667,汕头市,金平子站,颗粒物(PM10),53,55,29,15,14,112,,69,69,6,6,6,4,1.0,0.9
2024-08-11T1100,1675A,116.7244,23.3633,汕头市,龙湖子站,,38,38,30,15,15,99,,61,61,11,11,7,6,0.5,0.5
2024-08-11T1100,1676A,116.7258,23.2775,汕头市,濠江子站,,43,43,27,21,16,65,,50,48,12,12,5,5,0.6,0.6
2024-08-11T1100,1677A,116.7519,23.4714,汕头市,澄海子站,,44,44,31,21,18,94,,60,60,12,13,4,3,0.8,0.8
2024-08-11T1100,1678A,116.6092,23.2539,汕头市,潮阳子站,,36,36,28,19,17,94,,61,61,5,5,5,5,0.6,0.5
2024-08-11T1100,3444A,116.454,23.2684,汕头市,潮南峡山,,,,32,67,19,,,48,48,,3,5,5,0.4,0.5
2024-08-11T1100,3624A,116.4069,23.2533,汕头市,潮南子站,,48,48,31,25,14,104,,62,62,4,5,4,4,0.6,0.6
2024-08-11T1100,1693A,115.3653,22.775,汕尾市,市环保局,,27,27,20,13,10,74,,41,41,9,12,5,6,0.5,0.4
2024-08-11T1100,1694A,115.3706,22.7898,汕尾市,市政府,,20,20,19,12,10,64,,38,38,7,9,6,6,0.4,0.4
2024-08-11T1100,1695A,115.3622,22.7925,汕尾市,新城中学,,44,44,28,12,11,78,,41,41,5,9,6,6,0.5,0.5
2024-08-11T1100,2645A,109.9154,33.8715,商洛市,监测站,颗粒物(PM10),56,62,149,19,44,105,,55,55,9,13,4,3,0.3,0.3
2024-08-11T1100,3045A,109.9643,33.8471,商洛市,商州区中学,颗粒物(PM10),63,75,156,21,37,106,,47,47,10,17,5,5,0.5,0.5
2024-08-11T1100,2408A,115.6702,34.4285,商丘市,环境监测站,颗粒物(PM10),111,171,199,40,47,134,,82,82,9,9,6,6,0.5,0.5
2024-08-11T1100,2409A,115.6458,34.4045,商丘市,粮食局,颗粒物(PM10),106,162,205,35,44,140,,85,85,8,8,7,6,0.6,0.6
2024-08-11T1100,2410A,115.6293,34.3948,商丘市,睢阳区环保局,颗粒物(PM10),108,166,211,41,46,139,,77,77,9,10,8,7,0.4,0.4
2024-08-11T1100,3171A,115.6071,34.4465,商丘市,梁园区档案局,颗粒物(PM10),108,165,209,38,45,140,,80,80,8,8,7,6,0.4,0.4
