timepoint,stationcode,longitude,latitude,area,positionname,primarypollutant,aqi,pm10,pm10_24h,pm2_5,pm2_5_24h,o3,o3_24h,o3_8h,o3_8h_24h,no2,no2_24h,so2,so2_24h,co,co_24h
2024-01-14T0100,2566A,102.1879,31.914,阿坝藏族羌族自治州,州农科所,,15,10,14,10,14,12,,,,16,20,5,8,1.0,1
2024-01-14T0100,2568A,102.2502,31.8896,阿坝藏族羌族自治州,马师校,,20,20,17,9,12,31,,,,16,20,2,2,0.5,0.6
2024-01-14T0100,3994A,102.2165,31.9024,阿坝藏族羌族自治州,马尔康中学西区,,21,21,12,11,8,30,,,,20,14,4,4,0.4,0.4
2024-01-14T0100,2695A,80.292,41.1694,阿克苏地区,电视台,颗粒物(PM10),113,176,136,68,58,23,,,,77,36,11,11,1.9,1
2024-01-14T0100,2696A,80.2613,41.1551,阿克苏地区,艺术中心,颗粒物(PM10),96,141,143,62,63,58,,,,36,21,12,10,0.7,0.9
2024-01-14T0100,2204A,105.6467,38.8363,阿拉善盟,西城区西花园,,50,50,48,28,23,78,,,,14,16,8,10,0.5,0.6
2024-01-14T0100,2205A,105.6985,38.8411,阿拉善盟,蒙二幼,,50,50,48,13,15,83,,,,8,12,6,7,0.5,0.6
2024-01-14T0100,2206A,105.724,38.8516,阿拉善盟,环保局新楼,,39,39,37,14,17,88,,,,5,8,4,6,0.5,0.5
2024-01-14T0100,2708A,88.1264,47.8517,阿勒泰地区,市站,,42,10,6,5,6,5,,,,84,32,6,5,0.5,0.4
2024-01-14T0100,2630A,80.1161,32.5,阿里地区,阿里监测站,,22,9,13,8,5,70,,,,12,12,11,5,0.5,0.5
2024-01-14T0100,3192A,80.0903,32.5028,阿里地区,阿里藏医院,,29,8,22,2,8,90,,,,2,14,4,8,0.4,0.6
2024-01-14T0100,2642A,109.0318,32.6537,安康市,香溪洞,细颗粒物(PM2.5),79,75,69,58,56,65,,,,14,18,8,8,0.8,0.8
2024-01-14T0100,2643A,109.0281,32.6939,安康市,安康市监测站,细颗粒物(PM2.5),115,120,98,87,71,4,,,,52,35,10,17,1.1,1.1
2024-01-14T0100,2644A,109.0072,32.6975,安康市,汉滨区检察院,细颗粒物(PM2.5),104,110,83,78,63,8,,,,47,29,10,10,1.1,0.9
2024-01-14T0100,2291A,117.0809,30.5177,安庆市,环科院,细颗粒物(PM2.5),98,95,88,73,59,3,,,,107,78,11,12,0.9,0.9
2024-01-14T0100,2292A,117.0331,30.5119,安庆市,马山宾馆,细颗粒物(PM2.5),89,102,87,66,56,4,,,,106,82,11,11,0.7,0.7
2024-01-14T0100,2294A,116.9896,30.6145,安庆市,安庆大学,细颗粒物(PM2.5),83,99,87,61,52,3,,,,80,69,8,10,0.9,1.1
2024-01-14T0100,3173A,117.0598,30.5351,安庆市,市人大,细颗粒物(PM2.5),99,101,94,74,62,1,,,,108,82,8,9,1.0,1
2024-01-14T0100,3122A,105.9606,26.2611,安顺市,伍家关,,,,,,,,,,,,,,,,
2024-01-14T0100,3123A,105.9408,26.2431,安顺市,凤凰山,,19,15,20,13,16,50,,,,10,11,16,15,0.7,0.8
2024-01-14T0100,3124A,105.9439,26.2564,安顺市,金钟山,,18,17,22,11,15,55,,,,8,10,14,18,0.8,0.8
2024-01-14T0100,3125A,105.8983,26.2481,安顺市,娄家坡,,19,15,21,13,17,53,,,,6,8,9,10,0.7,0.7
2024-01-14T0100,1818A,114.4839,36.0621,安阳市,棉研所,,,,,,,,,,,,,,,,
2024-01-14T0100,1819A,114.3551,36.1017,安阳市,红庙街,细颗粒物(PM2.5),317,325,340,267,286,8,,,,111,77,11,11,2.0,2
2024-01-14T0100,1820A,114.361,36.0681,安阳市,银杏小区,细颗粒物(PM2.5),320,286,323,270,310,8,,,,116,83,6,5,2.3,2.3
2024-01-14T0100,3141A,114.3922,36.0878,安阳市,信访局,细颗粒物(PM2.5),326,311,355,276,317,7,,,,121,90,4,4,1.8,1.7
2024-01-14T0100,3669A,114.4705,36.0637,安阳市,左辅环卫站,细颗粒物(PM2.5),330,317,349,280,305,11,,,,124,97,4,5,2.0,1.8
2024-01-14T0100,3703A,114.2917,36.0949,安阳市,安钢职工学校,细颗粒物(PM2.5),344,383,392,294,297,11,,,,99,66,8,10,2.3,2.5
2024-01-14T0100,1748A,123.044,41.1196,鞍山市,深沟寺,颗粒物(PM10),65,79,94,46,48,10,,,,58,54,18,18,2.1,1.3
2024-01-14T0100,1749A,123.011,41.0931,鞍山市,太阳城,颗粒物(PM10),57,64,82,29,46,22,,,,41,51,19,22,1.7,1.6
2024-01-14T0100,1750A,123.0485,41.1442,鞍山市,太平,颗粒物(PM10),58,65,103,38,52,23,,,,38,56,14,24,1.1,1.5
2024-01-14T0100,1751A,122.9642,41.0971,鞍山市,铁西三道街,颗粒物(PM10),55,59,114,35,62,18,,,,37,42,16,24,0.9,1.8
2024-01-14T0100,1752A,122.9341,41.0833,鞍山市,铁西工业园区,颗粒物(PM10),58,66,96,32,62,23,,,,33,56,14,28,1.0,2
2024-01-14T0100,1753A,123.022,41.0821,鞍山市,明达新区,颗粒物(PM10),61,71,77,34,45,21,,,,43,49,18,24,1.7,1.6
2024-01-14T0100,1754A,123.1289,41.0228,鞍山市,千山,,,,,,,,,,,,,,,,
2024-01-14T0100,2195A,107.4212,40.761,巴彦淖尔市,附二中,颗粒物(PM10),51,51,147,22,51,47,,,,15,28,8,10,0.3,0.7
2024-01-14T0100,2196A,107.37,40.7372,巴彦淖尔市,市环保大楼,,45,45,143,23,47,56,,,,14,25,6,9,0.3,0.7
2024-01-14T0100,1956A,86.1472,41.7538,巴音郭楞蒙古自治州,孔雀公园,颗粒物(PM10),59,67,130,34,58,72,,,,17,30,5,7,0.6,0.9
2024-01-14T0100,1957A,86.1972,41.7166,巴音郭楞蒙古自治州,棉纺厂,颗粒物(PM10),62,73,134,34,58,57,,,,35,41,5,5,0.7,0.9
2024-01-14T0100,1958A,86.2357,41.7173,巴音郭楞蒙古自治州,经济开发区,,43,43,103,8,51,77,,,,19,27,4,6,0.4,0.8
2024-01-14T0100,2914A,106.7677,31.8794,巴中市,苏山坪,细颗粒物(PM2.5),98,90,92,73,76,46,,,,20,24,3,4,0.7,0.8
2024-01-14T0100,3182A,106.7656,31.8545,巴中市,丽阳花园,细颗粒物(PM2.5),189,188,132,142,98,4,,,,32,44,5,5,1.5,1.4
2024-01-14T0100,3183A,106.7418,31.8654,巴中市,圣泉水务公司,细颗粒物(PM2.5),148,130,100,113,86,2,,,,40,41,5,4,1.0,0.9
2024-01-14T0100,3616A,106.7616,31.8344,巴中市,市中心医院,细颗粒物(PM2.5),175,174,137,132,101,4,,,,31,40,4,4,1.3,1.2
2024-01-14T0100,2235A,122.7911,45.6077,白城市,洮北区环保局,颗粒物(PM10),54,57,57,35,40,41,,,,17,26,8,8,0.7,0.8
2024-01-14T0100,2236A,122.8738,45.5725,白城市,市环保局,颗粒物(PM10),51,51,53,32,34,58,,,,10,28,8,5,0.7,0.8
2024-01-14T0100,2231A,126.4219,41.9171,白山市,喜丰,颗粒物(PM10),69,88,66,46,34,8,,,,57,36,17,16,1.3,0.9
2024-01-14T0100,2232A,126.4077,41.9419,白山市,环保局,颗粒物(PM10),88,126,79,61,38,5,,,,62,40,20,16,1.4,1
2024-01-14T0100,2647A,104.1724,36.5446,白银市,第三小学,颗粒物(PM10),62,73,95,17,30,45,,,,27,32,5,75,0.7,1.1
2024-01-14T0100,2648A,104.1465,36.5482,白银市,动力公司,颗粒物(PM10),55,59,80,20,32,49,,,,20,21,7,27,0.6,0.9
2024-01-14T0100,2512A,106.6103,23.9011,百色市,市监测站,,48,48,36,33,23,36,,,,16,20,7,11,0.9,1.1
2024-01-14T0100,2513A,106.6538,23.8859,百色市,市中心血站,细颗粒物(PM2.5),60,44,33,43,28,43,,,,21,21,10,12,0.8,0.9
2024-01-14T0100,3406A,106.6085,23.8798,百色市,祈福高中,细颗粒物(PM2.5),83,67,38,61,35,29,,,,26,21,13,14,1.2,1.1
2024-01-14T0100,2270A,117.396,32.939,蚌埠市,工人疗养院,细颗粒物(PM2.5),92,99,132,68,99,31,,,,73,48,8,14,1.0,0.9
2024-01-14T0100,2271A,117.3605,32.9427,蚌埠市,百货大楼,细颗粒物(PM2.5),108,113,139,81,105,11,,,,100,59,5,9,1.0,0.9
2024-01-14T0100,2273A,117.4185,32.8911,蚌埠市,蚌埠学院,细颗粒物(PM2.5),90,85,130,67,102,61,,,,39,35,8,8,0.8,0.9
2024-01-14T0100,2274A,117.3533,32.9673,蚌埠市,淮上区政府,细颗粒物(PM2.5),122,122,140,92,110,13,,,,91,59,7,10,1.0,0.9
2024-01-14T0100,2275A,117.3145,32.8977,蚌埠市,高新区,细颗粒物(PM2.5),87,80,125,64,104,78,,,,60,69,6,8,0.8,1
2024-01-14T0100,3715A,117.3092,32.9314,蚌埠市,蚌埠田家炳中学,细颗粒物(PM2.5),107,112,152,80,114,38,,,,93,65,30,12,0.9,1.1
2024-01-14T0100,1585A,109.8756,40.6532,包头市,市环境监测站,,32,32,132,8,60,64,,,,10,41,10,18,0.4,1.5
2024-01-14T0100,1587A,109.9991,40.5842,包头市,包头八中,,31,31,167,5,73,58,,,,14,45,8,23,0.6,1.8
2024-01-14T0100,1588A,109.8538,40.6821,包头市,青山宾馆,,22,22,132,4,76,70,,,,9,43,5,14,0.4,1.9
2024-01-14T0100,1589A,109.8642,40.6288,包头市,惠龙物流,,34,34,145,9,66,66,,,,8,44,10,29,0.4,1.5
2024-01-14T0100,1590A,110.0377,40.5546,包头市,东河鸿龙湾,,22,22,126,6,66,60,,,,22,50,10,20,0.5,1.5
2024-01-14T0100,3283A,109.9154,40.5685,包头市,滨河大厦,,15,10,122,2,69,47,,,,24,45,13,23,0.6,1.5
2024-01-14T0100,3419A,109.9447,40.6261,包头市,包头市委党校,,24,24,128,4,59,62,,,,12,40,10,20,0.4,1.5
2024-01-14T0100,3683A,109.8331,40.6576,包头市,昆区政府,,29,29,125,4,70,72,,,,9,47,7,26,0.4,1.6
2024-01-14T0100,1930A,107.185,34.3063,宝鸡市,庙沟村,,29,29,110,20,99,61,,,,1,24,8,9,0.5,1
2024-01-14T0100,1931A,107.0708,34.3017,宝鸡市,竹园沟,,38,38,107,14,96,46,,,,21,34,3,4,0.4,0.9
2024-01-14T0100,1932A,107.1906,34.3672,宝鸡市,三陆医院,细颗粒物(PM2.5),90,93,165,67,141,6,,,,66,69,9,9,1.1,1.4
2024-01-14T0100,1933A,107.1431,34.3547,宝鸡市,监测站,颗粒物(PM10),58,66,148,35,112,6,,,,59,62,5,7,0.9,1.2
2024-01-14T0100,1934A,107.1186,34.3739,宝鸡市,技工学校,细颗粒物(PM2.5),58,62,142,41,121,20,,,,40,55,7,15,0.6,1.1
2024-01-14T0100,1935A,107.3906,34.3528,宝鸡市,陈仓区环保局家属楼,细颗粒物(PM2.5),95,112,194,71,158,9,,,,75,70,9,18,1.2,1.6
2024-01-14T0100,1936A,107.2058,34.3497,宝鸡市,文理学院,颗粒物(PM10),64,77,160,37,125,13,,,,60,74,8,8,0.8,1.3
2024-01-14T0100,1937A,107.2386,34.3622,宝鸡市,三迪小学,细颗粒物(PM2.5),78,86,161,57,132,6,,,,68,73,8,9,1.2,1.4
2024-01-14T0100,1051A,115.493,38.8632,保定市,游泳馆,细颗粒物(PM2.5),74,87,125,54,100,9,,,,43,56,2,4,0.8,1.1
2024-01-14T0100,1052A,115.5213,38.8959,保定市,华电二区,细颗粒物(PM2.5),85,73,102,63,92,21,,,,45,62,3,5,0.6,1
2024-01-14T0100,1053A,115.4713,38.9108,保定市,接待中心,细颗粒物(PM2.5),83,89,122,61,102,4,,,,43,64,2,3,0.4,0.8
2024-01-14T0100,1054A,115.4612,38.8416,保定市,地表水厂,细颗粒物(PM2.5),72,72,125,52,98,10,,,,48,67,2,4,0.8,1.1
2024-01-14T0100,1056A,115.5086,38.8639,保定市,监测站,细颗粒物(PM2.5),92,,117,68,100,4,,,,52,66,3,4,0.7,1
2024-01-14T0100,3581A,115.31981,38.95208,保定市,满城区生态环境分局,细颗粒物(PM2.5),92,116,140,68,89,0,,,,71,67,3,4,1.0,1.1
2024-01-14T0100,3582A,115.47694,38.76408,保定市,清苑区第二中学,细颗粒物(PM2.5),77,75,129,56,94,6,,,,54,71,5,6,0.8,1.2
2024-01-14T0100,3583A,115.62909,39.02311,保定市,徐水物探局,细颗粒物(PM2.5),73,83,123,53,82,3,,,,42,54,3,5,0.8,1.2
2024-01-14T0100,4004A,115.4202,38.8656,保定市,双鹰农机,细颗粒物(PM2.5),72,86,116,52,90,16,,,,46,68,3,4,0.8,1.2
2024-01-14T0100,2594A,99.1678,25.1081,保山市,市环境监测站,,30,30,30,12,18,49,,,,13,13,6,6,0.7,0.6
2024-01-14T0100,2595A,99.1711,25.1328,保山市,市环保局,,20,20,34,12,20,63,,,,8,10,5,6,0.3,0.4
2024-01-14T0100,1866A,109.2262,21.588,北海市,牛尾岭水库,,,,,,,,,,,,,,,,
2024-01-14T0100,1867A,109.1436,21.4086,北海市,海滩公园,细颗粒物(PM2.5),55,47,59,39,42,140,,,,12,16,10,13,0.5,0.5
2024-01-14T0100,1868A,109.0981,21.4661,北海市,新市环保局,细颗粒物(PM2.5),62,57,56,44,45,136,,,,15,20,8,11,0.7,0.8
2024-01-14T0100,1869A,109.1778,21.5233,北海市,北海工业园,细颗粒物(PM2.5),70,81,72,51,51,109,,,,17,17,8,13,0.5,0.5
2024-01-14T0100,3400A,109.1911,21.4415,北海市,龙潭自来水厂,细颗粒物(PM2.5),55,51,57,39,45,132,,,,12,15,9,12,0.6,0.6
2024-01-14T0100,1001A,116.3621,39.8784,北京市,万寿西宫,,39,39,74,15,46,54,,,,12,53,2,3,0.2,0.9
2024-01-14T0100,1002A,116.2202,40.2915,北京市,定陵,,20,18,68,8,47,64,,,,5,32,3,3,0.3,0.8
2024-01-14T0100,1003A,116.4174,39.9289,北京市,东四,,48,48,76,14,44,50,,,,15,44,2,5,0.4,1
2024-01-14T0100,1004A,116.4072,39.8863,北京市,天坛,颗粒物(PM10),52,54,70,15,46,59,,,,12,46,1,1,0.2,0.9
2024-01-14T0100,1005A,116.462,39.9365,北京市,农展馆,,46,46,70,15,42,49,,,,16,47,3,3,0.2,0.8
2024-01-14T0100,1006A,116.3392,39.9295,北京市,官园,,39,39,79,14,45,60,,,,10,47,1,3,0.4,1.1
2024-01-14T0100,1007A,116.2878,39.9611,北京市,海淀万柳,,30,30,79,12,47,61,,,,11,53,3,2,0.3,0.9
2024-01-14T0100,1008A,116.6636,40.135,北京市,顺义新城,颗粒物(PM10),60,70,73,42,44,29,,,,29,39,1,3,0.7,0.8
2024-01-14T0100,1009A,116.6275,40.3275,北京市,怀柔镇,颗粒物(PM10),53,56,60,36,38,24,,,,25,34,3,6,0.5,0.6
2024-01-14T0100,1010A,116.2296,40.217,北京市,昌平镇,,38,38,79,12,46,45,,,,20,42,1,2,0.3,0.8
2024-01-14T0100,1011A,116.3966,39.9821,北京市,奥体中心,,39,39,75,14,43,45,,,,19,45,1,3,0.5,1.2
2024-01-14T0100,1012A,116.184,39.9136,北京市,古城,,28,28,89,10,53,60,,,,3,55,1,2,0.3,1.1
2024-01-14T0100,3281A,115.9718,40.4529,北京市,延庆夏都,,19,17,74,12,56,59,,,,10,34,1,2,0.2,0.9
2024-01-14T0100,3417A,117.0709,40.1465,北京市,平谷新城,,48,48,70,21,47,57,,,,16,33,1,3,0.3,1
2024-01-14T0100,3418A,116.8336,40.4095,北京市,密云新城,,45,45,64,23,36,51,,,,12,30,1,3,0.4,0.8
2024-01-14T0100,3671A,116.088,39.9726,北京市,门头沟三家店,,,,,,,,,,,,,,,,
2024-01-14T0100,3672A,116.1541,39.8204,北京市,丰台云岗,,25,25,89,13,55,52,,,,14,56,1,2,0.3,1
2024-01-14T0100,3673A,116.6804,39.9081,北京市,通州东关,颗粒物(PM10),62,74,77,43,48,15,,,,47,50,2,3,0.7,0.9
2024-01-14T0100,3674A,115.9577,39.7603,北京市,房山燕山,,30,30,93,17,67,57,,,,10,51,2,2,0.3,1
2024-01-14T0100,3675A,116.4672,39.7733,北京市,大兴旧宫,颗粒物(PM10),54,57,76,25,50,24,,,,38,50,3,3,0.5,0.9
2024-01-14T0100,3694A,115.986,40.4563,北京市,延庆石河营,,36,33,73,25,54,41,,,,19,32,1,2,0.5,1
2024-01-14T0100,3695A,116.6151,40.3053,北京市,怀柔新城,颗粒物(PM10),52,54,58,34,38,27,,,,18,26,3,3,0.6,0.7
2024-01-14T0100,3696A,116.2545,39.8768,北京市,丰台小屯,,44,44,87,20,51,44,,,,21,55,1,2,0.3,1
2024-01-14T0100,3697A,116.84,40.3844,北京市,密云镇,,46,46,65,25,39,42,,,,15,37,2,3,0.4,0.9
2024-01-14T0100,1761A,123.8275,41.3064,本溪市,大峪,颗粒物(PM10),58,66,50,27,20,55,,,,29,32,12,12,1.0,1.2
2024-01-14T0100,1762A,123.7567,41.3325,本溪市,溪湖,颗粒物(PM10),59,67,50,31,21,50,,,,28,36,22,20,1.5,1.4
2024-01-14T0100,1763A,123.7169,41.3094,本溪市,彩屯,,50,50,43,25,25,56,,,,33,46,11,20,0.8,1.9
2024-01-14T0100,1764A,123.7669,41.2864,本溪市,东明,,44,44,50,29,17,58,,,,24,28,14,14,0.8,0.8
2024-01-14T0100,1765A,123.7992,41.2664,本溪市,新立屯,,43,43,34,14,15,70,,,,17,23,9,9,0.3,0.4
2024-01-14T0100,1766A,123.8142,41.3472,本溪市,威宁,颗粒物(PM10),51,52,56,28,23,53,,,,30,32,7,8,1.1,0.7
2024-01-14T0100,2587A,105.2864,27.3125,毕节市,八中,细颗粒物(PM2.5),95,85,78,71,63,37,,,,13,21,7,10,0.9,1
2024-01-14T0100,2588A,105.31,27.2944,毕节市,师专,细颗粒物(PM2.5),94,84,74,70,58,36,,,,25,24,11,12,1.0,0.9
2024-01-14T0100,3537A,105.3631,27.3533,毕节市,长征村,细颗粒物(PM2.5),83,69,69,61,61,56,,,,13,14,8,11,0.8,0.7
2024-01-14T0100,1629A,118.0018,37.3617,滨州市,第二水厂,细颗粒物(PM2.5),206,246,228,156,187,5,,,,76,63,7,9,1.8,2
2024-01-14T0100,1630A,117.9776,37.393,滨州市,北中新校,细颗粒物(PM2.5),160,232,215,122,158,2,,,,85,68,6,7,1.8,1.8
2024-01-14T0100,3514A,117.9378,37.3956,滨州市,中海酒店,细颗粒物(PM2.5),179,211,196,135,160,9,,,,87,69,10,11,1.7,1.7
2024-01-14T0100,3515A,117.9378,37.3553,滨州市,开发区一中,细颗粒物(PM2.5),192,213,207,144,165,4,,,,90,69,11,14,1.6,1.7
2024-01-14T0100,3516A,118.0917,37.694,滨州市,金海六路,细颗粒物(PM2.5),225,326,189,175,139,9,,,,70,49,6,6,2.1,1.7
2024-01-14T0100,4028A,117.9956,37.3753,滨州市,滨州市西街道办事处,细颗粒物(PM2.5),218,234,223,168,186,3,,,,69,57,9,10,1.8,2
2024-01-14T0100,2311A,115.8072,33.8399,亳州市,污水处理厂,细颗粒物(PM2.5),223,232,196,173,145,30,,,,45,44,7,10,1.3,1.3
2024-01-14T0100,2312A,115.7789,33.8518,亳州市,三国揽胜宫,细颗粒物(PM2.5),224,257,233,174,148,26,,,,45,45,7,8,1.2,1.1
2024-01-14T0100,3332A,115.7633,33.8034,亳州市,亳州学院,细颗粒物(PM2.5),200,195,195,150,141,40,,,,36,34,6,7,1.2,1.2
2024-01-14T0100,2693A,82.0485,44.8556,博尔塔拉蒙古自治州,市党校,,33,33,36,7,19,59,,,,7,12,9,10,0.4,0.4
2024-01-14T0100,2694A,82.0806,44.8969,博尔塔拉蒙古自治州,市环保局,,30,30,33,20,16,50,,,,26,21,6,6,0.7,0.5
2024-01-14T0100,1071A,116.8842,38.2991,沧州市,沧县城建局,细颗粒物(PM2.5),60,67,102,43,84,8,,,,68,61,4,5,1.4,1.4
2024-01-14T0100,1072A,116.8584,38.3254,沧州市,电视转播站,颗粒物(PM10),63,75,100,31,84,4,,,,64,56,11,4,1.2,1.4
2024-01-14T0100,1073A,116.8709,38.3228,沧州市,市环保局,"颗粒物(PM10),细颗粒物(PM2.5)",59,67,99,42,85,1,,,,58,54,6,4,1.1,1.2
2024-01-14T0100,3324A,116.8136,38.3004,沧州市,河北水利电力学院,颗粒物(PM10),60,70,111,40,94,0,,,,60,56,11,10,0.9,1.1
2024-01-14T0100,2622A,97.1806,31.1273,昌都市,昌都监测站,颗粒物(PM10),71,92,41,31,17,6,,,,46,27,6,7,1.2,1.1
2024-01-14T0100,3719A,97.1714,31.1406,昌都市,昌都会议中心,,19,13,12,13,10,35,,,,19,12,4,4,0.5,0.5
2024-01-14T0100,2690A,88.1236,43.8886,昌吉回族自治州,天山天池,,23,,4,7,5,71,,,,4,4,6,6,0.4,0.5
2024-01-14T0100,2692A,87.2717,44.0297,昌吉回族自治州,新区政务中心,细颗粒物(PM2.5),89,93,68,66,51,9,,,,53,39,4,5,0.9,1
2024-01-14T0100,3613A,87.3095,44.0142,昌吉回族自治州,亚心广场,细颗粒物(PM2.5),92,92,66,68,48,21,,,,49,42,5,6,0.9,1
2024-01-14T0100,1119A,125.3325,43.9166,长春市,食品厂,细颗粒物(PM2.5),70,65,64,51,51,29,,,,32,38,14,14,0.7,0.7
2024-01-14T0100,1120A,125.2863,43.9027,长春市,客车厂,细颗粒物(PM2.5),80,75,63,59,51,29,,,,33,40,11,17,0.7,0.7
2024-01-14T0100,1121A,125.2841,43.8463,长春市,邮电学院,"颗粒物(PM10),细颗粒物(PM2.5)",60,69,63,43,51,30,,,,29,32,20,14,0.8,0.6
2024-01-14T0100,1122A,125.3716,43.8772,长春市,劳动公园,颗粒物(PM10),55,60,59,34,45,38,,,,26,30,12,10,0.5,0.5
2024-01-14T0100,1123A,125.3297,43.8805,长春市,园林处,颗粒物(PM10),55,59,53,35,41,31,,,,29,31,17,14,0.6,0.6
2024-01-14T0100,1124A,125.4605,43.79,长春市,净月潭,颗粒物(PM10),52,53,53,32,47,28,,,,28,13,9,6,0.8,0.6
2024-01-14T0100,1125A,125.7194,43.515,长春市,甩湾子,,,,,,,,,,,,,,,,
2024-01-14T0100,1126A,125.3863,43.8447,长春市,经开区环卫处,颗粒物(PM10),56,62,62,35,47,28,,,,29,30,15,9,0.6,0.6
2024-01-14T0100,1127A,125.245,43.7783,长春市,高新区管委会,细颗粒物(PM2.5),55,58,64,39,56,30,,,,30,33,14,10,0.7,0.7
2024-01-14T0100,1128A,125.1761,43.8325,长春市,岱山公园,细颗粒物(PM2.5),62,62,63,44,52,32,,,,24,35,6,6,0.8,0.7
2024-01-14T0100,1335A,113.0833,28.2325,长沙市,经开区环保局,细颗粒物(PM2.5),92,90,94,68,62,26,,,,59,54,9,9,1.0,0.9
2024-01-14T0100,1336A,112.8872,28.2189,长沙市,高开区环保局,细颗粒物(PM2.5),74,69,86,54,61,33,,,,43,45,11,9,1.0,1.1
2024-01-14T0100,1337A,113.0792,28.2053,长沙市,马坡岭,细颗粒物(PM2.5),114,123,105,86,71,3,,,,71,49,9,9,0.9,0.5
2024-01-14T0100,1338A,112.9394,28.19,长沙市,湖南师范大学,细颗粒物(PM2.5),87,75,83,64,59,19,,,,44,42,8,9,1.1,1.1
2024-01-14T0100,1339A,113.0178,28.1322,长沙市,雨花区环保局,细颗粒物(PM2.5),74,63,73,54,53,5,,,,78,42,7,7,1.1,1
2024-01-14T0100,1340A,112.9792,28.2597,长沙市,伍家岭,细颗粒物(PM2.5),179,224,140,135,79,0,,,,70,50,7,8,1.8,1.4
2024-01-14T0100,1341A,113.0014,28.1944,长沙市,火车新站,细颗粒物(PM2.5),117,120,93,88,67,5,,,,84,52,6,6,1.5,1.2
2024-01-14T0100,1342A,112.9844,28.1178,长沙市,天心区环保局,细颗粒物(PM2.5),60,68,80,43,45,20,,,,72,58,8,8,0.5,0.4
2024-01-14T0100,1343A,112.8908,28.1308,长沙市,湖南中医药大学,细颗粒物(PM2.5),83,95,93,61,61,2,,,,55,42,6,8,1.3,1.3
2024-01-14T0100,1344A,112.9581,28.3611,长沙市,沙坪,细颗粒物(PM2.5),72,70,67,52,51,10,,,,64,31,6,6,1.2,1
2024-01-14T0100,1727A,113.1147,36.1547,长治市,清华站,细颗粒物(PM2.5),163,128,106,124,83,43,,,,33,45,13,20,1.3,1.3
2024-01-14T0100,1728A,113.1031,36.1989,长治市,监测站,细颗粒物(PM2.5),175,132,114,132,97,48,,,,38,53,15,20,1.7,1.5
2024-01-14T0100,1730A,113.0886,36.2125,长治市,审计局,细颗粒物(PM2.5),188,,124,141,99,35,,,,41,48,14,24,2.5,1.6
2024-01-14T0100,1731A,113.0844,36.1856,长治市,长治八中,细颗粒物(PM2.5),144,142,127,110,78,37,,,,38,43,19,25,1.3,1.4
2024-01-14T0100,2845A,113.1569,36.1911,长治市,德盛苑,细颗粒物(PM2.5),156,120,86,119,75,82,,,,22,34,15,20,1.4,1.4
2024-01-14T0100,3568A,113.06,36.0464,长治市,向阳小学,细颗粒物(PM2.5),186,156,119,140,90,70,,,,27,32,17,20,1.4,1.2
2024-01-14T0100,3569A,112.8792,36.3144,长治市,屯留一中,细颗粒物(PM2.5),220,173,104,170,91,57,,,,62,54,18,19,1.9,1.1
2024-01-14T0100,3570A,113.235,36.3489,长治市,潞城四中,细颗粒物(PM2.5),205,170,124,155,98,53,,,,37,45,11,16,2.0,1.4
2024-01-14T0100,1854A,111.6975,28.9703,常德市,市二中,细颗粒物(PM2.5),92,110,95,68,67,45,,,,23,36,7,9,1.1,1.1
2024-01-14T0100,1857A,111.7158,29.1456,常德市,白鹤山,细颗粒物(PM2.5),97,98,97,72,64,22,,,,19,13,4,4,1.0,0.9
2024-01-14T0100,3138A,111.7153,29.0289,常德市,武陵区永安,细颗粒物(PM2.5),145,125,31,111,76,5,,,,74,39,8,8,1.6,1.1
2024-01-14T0100,3139A,111.6892,28.9881,常德市,鼎城区玉霞,细颗粒物(PM2.5),129,151,110,98,80,9,,,,50,39,10,10,1.8,1.2
2024-01-14T0100,3140A,111.6625,29.0531,常德市,武陵区长庚,细颗粒物(PM2.5),145,141,102,111,73,5,,,,68,42,7,7,1.7,1.3
2024-01-14T0100,1196A,119.9633,31.762,常州市,市监测站,细颗粒物(PM2.5),166,194,191,126,127,53,,,,57,101,12,15,1.0,1.6
2024-01-14T0100,1200A,119.9468,31.7069,常州市,武进监测站,细颗粒物(PM2.5),149,166,172,114,114,52,,,,55,85,8,15,0.9,1.4
2024-01-14T0100,1201A,119.9255,31.9087,常州市,安家,,,,,,,,,,,,,,,,
2024-01-14T0100,3002A,119.9805,31.8174,常州市,行政中心,细颗粒物(PM2.5),138,148,163,105,120,63,,,,59,101,13,20,0.7,1.2
2024-01-14T0100,3003A,120.0522,31.7748,常州市,经开区,细颗粒物(PM2.5),150,169,204,115,134,57,,,,61,113,12,17,1.1,1.6
2024-01-14T0100,3010A,119.9025,31.7964,常州市,钟楼,细颗粒物(PM2.5),153,149,159,117,120,60,,,,50,90,13,14,1.1,1.6
2024-01-14T0100,3429A,119.8598,31.7066,常州市,武进经发区,细颗粒物(PM2.5),168,173,167,127,122,47,,,,68,89,31,18,1.2,1.6
2024-01-14T0100,3430A,119.5826,31.7245,常州市,金坛城区,细颗粒物(PM2.5),176,165,148,133,112,58,,,,52,70,14,14,1.2,1.3
2024-01-14T0100,2220A,120.4318,41.5881,朝阳市,西梁,颗粒物(PM10),92,133,63,10,23,64,,,,9,20,12,22,0.5,0.8
2024-01-14T0100,2221A,120.4521,41.5646,朝阳市,河畔小区,颗粒物(PM10),107,164,55,6,21,68,,,,5,17,5,18,0.5,0.8
2024-01-14T0100,2222A,120.4176,41.5648,朝阳市,八里堡,颗粒物(PM10),116,182,66,13,26,69,,,,4,23,8,24,0.4,0.9
2024-01-14T0100,2223A,120.3806,41.5969,朝阳市,农业园区,颗粒物(PM10),109,168,73,11,30,69,,,,5,28,6,17,0.5,1
2024-01-14T0100,1705A,116.6367,23.6719,潮州市,西园路,,,,89,48,58,47,,,,29,25,4,6,0.4,0.5
2024-01-14T0100,1706A,116.6447,23.6706,潮州市,档案局,细颗粒物(PM2.5),68,61,77,49,60,36,,,,28,27,5,7,0.6,0.7
2024-01-14T0100,3026A,116.6183,23.6608,潮州市,市政府,细颗粒物(PM2.5),110,118,80,83,56,14,,,,70,32,50,14,1.5,0.9
2024-01-14T0100,2472A,113.0073,25.9061,郴州市,马头岭,颗粒物(PM10),62,73,79,43,41,21,,,,42,35,10,19,0.9,1
2024-01-14T0100,2473A,113.0116,25.8226,郴州市,市职中,细颗粒物(PM2.5),79,84,71,58,56,6,,,,31,26,9,17,1.1,1.1
2024-01-14T0100,2474A,113.0161,25.8001,郴州市,兴隆步行街,细颗粒物(PM2.5),87,116,86,64,60,10,,,,44,35,6,14,1.6,1.2
2024-01-14T0100,2475A,113.0383,25.8071,郴州市,市审计局,细颗粒物(PM2.5),84,77,68,62,55,3,,,,44,36,7,15,1.5,1.2
2024-01-14T0100,2476A,113.0348,25.7759,郴州市,市环保局,细颗粒物(PM2.5),87,99,79,64,59,15,,,,52,41,6,20,1.1,1.1
2024-01-14T0100,1431A,103.9728,30.7236,成都市,金泉两河,细颗粒物(PM2.5),155,131,177,118,143,23,,,,29,42,3,4,0.8,1
2024-01-14T0100,1432A,104.176,30.6872,成都市,十里店,细颗粒物(PM2.5),170,139,168,129,147,4,,,,55,58,1,2,1.1,1.2
2024-01-14T0100,1433A,104.079,30.5706,成都市,三瓦窑,细颗粒物(PM2.5),158,163,183,120,144,8,,,,34,42,2,2,1.1,1.2
2024-01-14T0100,1434A,104.1114,30.63,成都市,沙河铺,细颗粒物(PM2.5),160,154,175,122,148,8,,,,51,59,4,4,1.1,1.2
2024-01-14T0100,1437A,104.0786,30.6531,成都市,君平街,细颗粒物(PM2.5),180,152,193,136,161,9,,,,54,64,4,6,0.9,1.1
2024-01-14T0100,1438A,103.613,31.0283,成都市,灵岩寺,细颗粒物(PM2.5),142,,74,108,109,63,,,,19,23,3,3,1.5,1.5
2024-01-14T0100,2880A,104.0239,30.65639,成都市,大石西路,细颗粒物(PM2.5),166,140,173,126,147,8,,,,58,66,4,5,0.8,1
2024-01-14T0100,3136A,104.2725,30.5589,成都市,龙泉驿区区政府,细颗粒物(PM2.5),153,151,165,117,123,2,,,,56,62,2,2,1.1,1.2
2024-01-14T0100,3357A,104.0106,30.6931,成都市,金博路,细颗粒物(PM2.5),152,150,185,116,140,6,,,,55,63,1,2,1.1,1.3
2024-01-14T0100,3359A,104.0578,30.5225,成都市,华阳,细颗粒物(PM2.5),160,146,153,122,121,3,,,,56,62,1,2,1.3,1.4
2024-01-14T0100,3487A,104.2394,30.5319,成都市,车城东七路,细颗粒物(PM2.5),186,175,176,140,144,3,,,,61,70,2,2,1.1,1.2
2024-01-14T0100,3488A,104.3853,30.7453,成都市,青白江技师分院,细颗粒物(PM2.5),185,192,199,139,148,2,,,,47,54,4,5,1.1,1.2
2024-01-14T0100,3489A,104.0789,30.4072,成都市,科学城,细颗粒物(PM2.5),179,171,160,135,129,2,,,,60,63,4,4,1.3,1.2
2024-01-14T0100,4011A,103.8506,30.6947,成都市,光华大道三段,细颗粒物(PM2.5),139,129,167,106,141,24,,,,35,47,2,3,0.9,1.1
2024-01-14T0100,1062A,117.9531,40.9081,承德市,铁路,颗粒物(PM10),70,90,106,9,63,73,,,,7,54,9,24,0.2,1.5
2024-01-14T0100,1063A,117.9392,40.9763,承德市,中国银行,颗粒物(PM10),63,76,89,12,52,74,,,,5,40,5,9,0.2,1.2
2024-01-14T0100,1064A,117.9503,40.928,承德市,开发区,颗粒物(PM10),70,89,92,31,56,79,,,,9,46,8,18,0.3,1.3
2024-01-14T0100,1065A,117.8051,40.9655,承德市,文化中心,颗粒物(PM10),76,101,108,10,52,77,,,,4,42,5,14,0.2,1.2
2024-01-14T0100,1066A,117.9268,41.0026,承德市,离宫,,48,42,76,33,52,73,,,,5,32,4,5,0.2,0.9
2024-01-14T0100,2314A,117.47,30.6618,池州市,池州学院,细颗粒物(PM2.5),60,62,72,43,48,32,,,,41,40,8,8,1.2,1
2024-01-14T0100,3237A,117.4918,30.6617,池州市,展览馆,细颗粒物(PM2.5),73,77,69,53,40,3,,,,46,47,4,5,0.9,1
2024-01-14T0100,3333A,117.5627,30.695,池州市,第八中学,"颗粒物(PM10),细颗粒物(PM2.5)",54,57,68,38,44,28,,,,51,41,6,11,1.0,0.7
2024-01-14T0100,3334A,117.5038,30.6243,池州市,第十二中学,细颗粒物(PM2.5),58,57,71,41,47,4,,,,64,49,6,6,1.2,1
2024-01-14T0100,1744A,118.9233,42.2816,赤峰市,松山一中,,32,32,60,6,27,70,,,,8,34,2,17,0.3,0.9
2024-01-14T0100,1745A,118.9576,42.2728,赤峰市,哈达街,,26,26,66,15,32,63,,,,8,37,9,46,0.5,1.2
2024-01-14T0100,1746A,118.8788,42.2554,赤峰市,天义路,,21,20,51,8,30,66,,,,9,30,9,14,0.2,0.8
2024-01-14T0100,3058A,119.2658,42.0353,赤峰市,银河街,颗粒物(PM10),63,75,76,4,31,62,,,,10,23,15,23,0.2,0.8
2024-01-14T0100,3286A,118.9359,42.3147,赤峰市,桥北物流园区,,31,31,54,3,31,71,,,,4,30,11,38,0.7,0.9
2024-01-14T0100,2521A,107.3476,22.4136,崇左市,市环保局江州分局,,43,43,33,30,20,9,,,,31,16,6,6,1.0,0.9
2024-01-14T0100,2522A,107.3702,22.3707,崇左市,城南新区,,49,43,34,34,24,49,,,,16,18,8,7,0.8,0.9
2024-01-14T0100,2298A,118.3093,32.3153,滁州市,老年大学,细颗粒物(PM2.5),150,137,117,115,92,27,,,,80,58,8,9,1.2,1.1
2024-01-14T0100,2299A,118.3244,32.2786,滁州市,人大宾馆,细颗粒物(PM2.5),143,148,138,109,112,51,,,,78,74,10,8,0.9,1
2024-01-14T0100,3207A,118.3118,32.3038,滁州市,市政府原办公楼,细颗粒物(PM2.5),133,123,119,101,91,51,,,,66,65,9,8,0.9,1
2024-01-14T0100,3331A,118.3267,32.2634,滁州市,图书馆,细颗粒物(PM2.5),133,129,141,101,109,53,,,,59,56,13,12,1.1,1.1
2024-01-14T0100,2605A,101.5482,25.0441,楚雄彝族自治州,州环境监测站,,37,37,30,24,22,6,,,,47,27,16,9,0.7,0.6
2024-01-14T0100,2606A,101.538,25.0492,楚雄彝族自治州,市经济开发区,,48,48,35,21,21,9,,,,44,28,19,10,0.6,0.6
2024-01-14T0100,2548A,107.5277,31.2827,达州市,达州职业技术学院,细颗粒物(PM2.5),322,347,167,272,112,12,,,,35,37,10,12,1.2,1.1
2024-01-14T0100,2549A,107.5086,31.2186,达州市,市环境监测站,细颗粒物(PM2.5),180,159,131,136,104,5,,,,50,53,12,12,1.3,1.2
2024-01-14T0100,2550A,107.4988,31.2132,达州市,凤凰小区,细颗粒物(PM2.5),195,173,132,146,101,9,,,,52,52,12,12,1.5,1.3
2024-01-14T0100,2551A,107.5082,31.1986,达州市,达县机关宾馆,细颗粒物(PM2.5),185,193,134,139,94,6,,,,52,54,10,10,1.2,1
2024-01-14T0100,2552A,107.4644,31.2124,达州市,市政中心,细颗粒物(PM2.5),170,168,139,129,101,5,,,,57,58,12,10,1.2,1.2
2024-01-14T0100,2614A,100.1542,25.7054,大理白族自治州,大理市环境监测站,,27,27,31,18,22,77,,,,9,18,6,6,0.6,0.6
2024-01-14T0100,2615A,100.2171,25.5811,大理白族自治州,大理古城,,40,37,30,28,20,52,,,,25,21,6,7,0.6,0.5
2024-01-14T0100,1109A,121.612,38.9741,大连市,甘井子,细颗粒物(PM2.5),120,137,55,91,32,60,,,,36,29,16,9,0.7,0.6
2024-01-14T0100,1110A,121.565,38.9511,大连市,周水子,细颗粒物(PM2.5),127,146,62,96,36,56,,,,26,30,14,13,0.7,0.5
2024-01-14T0100,1111A,121.5637,38.8845,大连市,星海三站,细颗粒物(PM2.5),124,137,55,94,32,73,,,,21,25,5,14,0.9,0.7
2024-01-14T0100,1112A,121.6302,38.9117,大连市,青泥洼桥,细颗粒物(PM2.5),124,122,52,94,32,77,,,,19,25,9,12,1.0,0.7
2024-01-14T0100,1113A,121.6251,38.8638,大连市,傅家庄,细颗粒物(PM2.5),113,155,60,85,28,85,,,,14,18,9,14,1.0,0.8
2024-01-14T0100,1114A,121.5213,38.8661,大连市,七贤岭,细颗粒物(PM2.5),120,161,58,91,30,66,,,,25,25,12,17,1.1,0.9
2024-01-14T0100,1115A,121.2529,38.8061,大连市,旅顺,细颗粒物(PM2.5),118,125,48,89,29,53,,,,31,22,9,11,1.3,0.9
2024-01-14T0100,1116A,121.7485,39.1311,大连市,金州,细颗粒物(PM2.5),109,125,48,82,31,56,,,,33,20,11,11,1.0,0.8
2024-01-14T0100,1117A,121.7811,39.0496,大连市,开发区,细颗粒物(PM2.5),99,107,48,74,26,56,,,,38,24,10,9,0.7,0.6
2024-01-14T0100,1118A,121.9762,39.0631,大连市,双D港,细颗粒物(PM2.5),89,94,41,66,23,67,,,,16,11,7,9,0.9,0.8
2024-01-14T0100,1789A,124.81117,46.03138,大庆市,大同区,细颗粒物(PM2.5),168,144,86,127,76,20,,,,48,29,10,10,1.1,0.9
2024-01-14T0100,1790A,125.129,46.533,大庆市,龙凤区,细颗粒物(PM2.5),165,160,94,125,73,24,,,,49,36,6,7,1.1,0.8
2024-01-14T0100,1791A,124.902,46.408,大庆市,红岗区,细颗粒物(PM2.5),128,,58,97,46,38,,,,30,24,7,7,0.8,0.4
2024-01-14T0100,1792A,125.153,46.586,大庆市,萨尔图区,细颗粒物(PM2.5),183,152,88,138,77,34,,,,50,37,10,10,1.1,0.7
2024-01-14T0100,1793A,124.9042,46.6215,大庆市,让胡路区,细颗粒物(PM2.5),94,94,61,70,42,46,,,,24,30,5,7,0.7,0.6
2024-01-14T0100,3481A,125.141,46.634,大庆市,萨区政府监测点,细颗粒物(PM2.5),166,144,74,126,68,11,,,,63,30,10,9,1.0,0.6
2024-01-14T0100,1721A,113.3819,40.1097,大同市,果树场,,,,,,,,,,,,,,,,
2024-01-14T0100,1723A,113.2994,40.0758,大同市,云冈宾馆,,32,32,109,8,52,70,,,,8,50,9,26,0.4,1.7
2024-01-14T0100,1724A,113.3444,40.0917,大同市,大同大学,颗粒物(PM10),65,80,107,9,46,62,,,,19,64,8,24,0.7,1.3
2024-01-14T0100,1725A,113.2661,40.1269,大同市,安家小村,,34,34,128,9,58,68,,,,8,48,10,33,0.2,2.4
2024-01-14T0100,1726A,113.2711,40.0844,大同市,教育学院,颗粒物(PM10),54,58,134,5,53,66,,,,12,56,7,27,0.4,2.4
2024-01-14T0100,3282A,113.3397,40.0597,大同市,大同市卫生学校,颗粒物(PM10),63,75,88,10,49,66,,,,9,49,7,27,0.5,1.2
2024-01-14T0100,3565A,113.1367,40.1122,大同市,云冈站,,50,50,93,18,42,69,,,,4,35,6,32,0.6,1.2
2024-01-14T0100,3566A,113.1186,40.2556,大同市,图书馆,,28,28,116,8,75,60,,,,12,40,13,28,0.6,1.6
2024-01-14T0100,3567A,113.5931,40.0461,大同市,区一中,,29,29,92,15,45,62,,,,16,38,4,31,0.4,0.9
2024-01-14T0100,3676A,113.2802,40.0995,大同市,第二人民医院,颗粒物(PM10),60,69,133,7,55,70,,,,5,49,5,25,0.5,2
2024-01-14T0100,2269A,124.1069,50.4097,大兴安岭地区,科技局,,29,,19,20,19,55,,,,5,9,6,7,0.4,0.5
2024-01-14T0100,3663A,124.1164,50.4278,大兴安岭地区,红旗社区,,19,5,26,3,19,58,,,,6,23,5,12,0.3,0.5
2024-01-14T0100,1600A,124.3303,40.0625,丹东市,江湾东路,细颗粒物(PM2.5),70,65,47,51,31,42,,,,22,20,19,22,1.2,0.9
2024-01-14T0100,1601A,124.4256,40.1503,丹东市,临江后街,细颗粒物(PM2.5),55,53,44,39,29,51,,,,19,20,12,14,1.4,1.1
2024-01-14T0100,1602A,124.3933,40.1461,丹东市,元宝山,细颗粒物(PM2.5),57,54,38,40,26,49,,,,14,18,13,13,1.3,1
2024-01-14T0100,1603A,124.3633,40.1092,丹东市,民主桥,颗粒物(PM10),59,67,53,39,31,35,,,,36,27,20,16,1.1,0.9
2024-01-14T0100,3541A,109.5726,19.5167,儋州市,第一中学子站,,32,32,31,14,16,82,,,,3,4,4,5,0.7,0.7
2024-01-14T0100,3542A,109.5567,19.5187,儋州市,东坡学校子站,,36,36,34,15,16,88,,,,2,3,6,6,0.6,0.6
2024-01-14T0100,2616A,98.5842,24.428,德宏傣族景颇族自治州,德宏州监测站,细颗粒物(PM2.5),55,43,53,39,40,28,,,,28,30,2,21,0.5,0.5
2024-01-14T0100,3677A,98.5881,24.4368,德宏傣族景颇族自治州,芒市人民政府综合楼,颗粒物(PM10),51,51,48,24,31,33,,,,17,21,9,15,0.6,0.6
2024-01-14T0100,1901A,104.4239,31.1208,德阳市,东山公园,细颗粒物(PM2.5),179,146,152,135,139,11,,,,69,51,2,2,0.9,1
2024-01-14T0100,1902A,104.3826,31.1317,德阳市,西小区,细颗粒物(PM2.5),182,141,163,137,156,30,,,,37,53,3,2,1.0,1.2
2024-01-14T0100,1904A,104.3553,31.1091,德阳市,耐火材料厂,细颗粒物(PM2.5),186,143,168,140,155,36,,,,24,47,2,2,0.9,1
2024-01-14T0100,3639A,104.4019,31.1244,德阳市,市教育局,细颗粒物(PM2.5),175,140,152,132,144,11,,,,55,58,1,1,1.1,1.2
2024-01-14T0100,1622A,116.3032,37.4674,德州市,儿童乐园,细颗粒物(PM2.5),188,207,277,141,223,7,,,,58,68,7,13,1.4,2.1
2024-01-14T0100,1624A,116.2991,37.4451,德州市,监理站,细颗粒物(PM2.5),199,205,276,149,230,8,,,,65,73,9,16,1.2,2
2024-01-14T0100,3066A,116.2721,37.4379,德州市,九衢泉纯净水厂,细颗粒物(PM2.5),180,206,278,136,213,5,,,,60,68,6,12,1.3,2.1
2024-01-14T0100,3371A,116.3728,37.4403,德州市,开发区人民医院,细颗粒物(PM2.5),192,219,287,144,219,7,,,,61,74,4,9,1.1,1.8
2024-01-14T0100,3372A,116.3572,37.4094,德州市,太阳城中学,细颗粒物(PM2.5),203,205,269,153,227,9,,,,50,63,5,12,1.3,2.1
2024-01-14T0100,3511A,116.5652,37.3319,德州市,陵城艺术中心,细颗粒物(PM2.5),199,259,261,149,202,10,,,,44,52,2,8,1.5,2.1
2024-01-14T0100,2621A,99.7056,27.8317,迪庆藏族自治州,迪庆州站,,44,44,33,27,21,41,,,,17,14,8,8,0.8,0.7
2024-01-14T0100,3180A,99.7136,27.8094,迪庆藏族自治州,质量技术监督局,,43,34,27,30,20,41,,,,16,13,7,7,1.0,0.7
2024-01-14T0100,2663A,104.6241,35.5734,定西市,东关小学,颗粒物(PM10),80,109,105,53,50,7,,,,26,23,16,24,1.2,1.1
2024-01-14T0100,2664A,104.6194,35.5934,定西市,供电公司,细颗粒物(PM2.5),82,105,101,60,54,6,,,,40,30,17,16,1.2,0.9
2024-01-14T0100,1389A,113.7547,23.0494,东莞市,莞城梨川,颗粒物(PM10),53,55,98,27,55,61,,,,60,54,8,10,0.8,1
2024-01-14T0100,1390A,113.7944,23.0128,东莞市,东城石井,,47,47,84,23,51,37,,,,61,47,9,11,0.8,1
2024-01-14T0100,1391A,113.7383,22.9658,东莞市,南城西平,二氧化氮,54,55,93,26,54,20,,,,107,74,13,13,0.8,1
2024-01-14T0100,3319A,113.7338,23.0381,东莞市,万江金泰,颗粒物(PM10),51,51,101,27,63,59,,,,56,53,8,10,0.8,1
2024-01-14T0100,3626A,113.7533,23.0202,东莞市,南城元岭,颗粒物(PM10),53,55,99,24,56,55,,,,63,56,10,11,0.8,1
2024-01-14T0100,3627A,113.7875,23.0457,东莞市,东城主山,颗粒物(PM10),53,56,85,29,49,44,,,,80,60,9,11,0.6,0.8
2024-01-14T0100,1666A,118.6614,37.4309,东营市,市环保局,细颗粒物(PM2.5),230,207,163,180,140,18,,,,51,48,6,8,1.6,1.5
2024-01-14T0100,3036A,118.6904,37.4338,东营市,开发区管委会,细颗粒物(PM2.5),238,217,155,188,141,17,,,,54,50,3,4,1.4,1.4
2024-01-14T0100,3365A,118.5719,37.565,东营市,垦利区民丰路,细颗粒物(PM2.5),235,268,163,185,137,20,,,,47,51,7,8,1.8,1.6
2024-01-14T0100,3498A,118.5055,37.8612,东营市,河口城区,,,,125,,108,,,,,,40,,3,,1.3
2024-01-14T0100,3646A,118.4978,37.4623,东营市,胜利站,细颗粒物(PM2.5),233,257,206,183,168,19,,,,52,60,8,9,1.7,1.7
2024-01-14T0100,3734A,118.35,37.26,东营市,理想之城,细颗粒物(PM2.5),221,249,182,171,139,15,,,,56,63,5,5,1.8,1.8
2024-01-14T0100,1591A,110.0023,39.8129,鄂尔多斯市,综合楼,颗粒物(PM10),58,66,105,7,29,46,,,,32,36,10,14,0.4,0.6
2024-01-14T0100,1592A,109.9486,39.8261,鄂尔多斯市,巴音孟克林场办事处,颗粒物(PM10),60,70,86,9,24,33,,,,36,29,15,17,0.7,0.7
2024-01-14T0100,1593A,109.7736,39.5986,鄂尔多斯市,康泽苑,颗粒物(PM10),56,61,72,9,30,52,,,,20,30,9,8,0.9,0.7
2024-01-14T0100,1594A,109.8119,39.5989,鄂尔多斯市,华泰汽车城,颗粒物(PM10),57,63,74,17,28,52,,,,21,30,6,5,0.9,0.7
2024-01-14T0100,1595A,109.9734,39.7884,鄂尔多斯市,奥林花园,颗粒物(PM10),60,70,109,9,28,40,,,,37,43,9,11,0.8,1
2024-01-14T0100,2436A,114.8938,30.3994,鄂州市,市政府,细颗粒物(PM2.5),67,56,84,48,65,82,,,,24,39,12,12,0.9,1
2024-01-14T0100,2437A,114.8989,30.3714,鄂州市,赵家坝,细颗粒物(PM2.5),69,63,73,50,60,77,,,,42,48,14,12,1.0,1
2024-01-14T0100,3654A,114.8094,30.4089,鄂州市,精准医疗中心,颗粒物(PM10),77,103,129,54,72,52,,,,52,52,21,28,1.1,2
2024-01-14T0100,2454A,109.4978,30.2981,恩施土家族苗族自治州,湖北民院,细颗粒物(PM2.5),226,186,116,176,98,35,,,,50,38,7,6,1.9,1.3
2024-01-14T0100,2455A,109.4707,30.2798,恩施土家族苗族自治州,州电力总公司,细颗粒物(PM2.5),173,213,134,131,82,48,,,,44,35,7,6,2.3,1.5
2024-01-14T0100,3549A,109.5061,30.3772,恩施土家族苗族自治州,龙凤新区,细颗粒物(PM2.5),186,157,105,140,87,9,,,,39,33,7,7,1.6,1.2
2024-01-14T0100,2499A,108.3411,21.6158,防城港市,沙万,细颗粒物(PM2.5),65,58,41,47,37,13,,,,48,23,4,5,1.0,0.9
2024-01-14T0100,2500A,108.3514,21.7731,防城港市,防城档案局,颗粒物(PM10),70,89,57,39,35,3,,,,54,33,3,4,1.2,1.1
2024-01-14T0100,2501A,108.3506,21.6414,防城港市,大海花园,细颗粒物(PM2.5),60,64,44,43,30,24,,,,42,21,7,6,1.0,0.9
2024-01-14T0100,1371A,113.1294,23.0067,佛山市,湾梁,颗粒物(PM10),74,97,146,33,56,6,,,,92,70,9,11,0.8,0.9
2024-01-14T0100,1372A,113.1083,23.0478,佛山市,华材职中,细颗粒物(PM2.5),74,92,139,54,85,25,,,,75,84,9,12,0.9,1
2024-01-14T0100,1373A,113.144,23.0453,佛山市,南海气象局,颗粒物(PM10),73,95,114,47,68,5,,,,122,88,6,10,1.1,1.1
2024-01-14T0100,1374A,113.2881,22.8094,佛山市,顺德苏岗,,41,41,97,24,63,36,,,,56,71,9,11,0.7,1
2024-01-14T0100,1376A,112.8383,22.8678,佛山市,高明孔堂,颗粒物(PM10),67,84,107,30,68,51,,,,26,41,6,9,0.8,0.9
2024-01-14T0100,1377A,112.8836,23.1588,佛山市,三水监测站,细颗粒物(PM2.5),179,205,173,135,102,2,,,,117,108,11,12,1.5,1.2
2024-01-14T0100,1378A,112.867,23.185,佛山市,三水云东海,细颗粒物(PM2.5),155,147,127,118,97,2,,,,90,90,8,11,1.1,1
2024-01-14T0100,3625A,113.2544,22.7642,佛山市,容桂街道办,颗粒物(PM10),56,61,114,29,59,47,,,,64,69,8,9,0.6,0.8
2024-01-14T0100,1280A,119.3903,26.0543,福州市,鼓山,,,,,,,,,,,,,,,,
2024-01-14T0100,1282A,119.2681,26.0504,福州市,师大,,34,34,44,16,24,32,,,,41,38,6,8,0.5,0.6
2024-01-14T0100,1283A,119.2984,26.1028,福州市,五四北路,,36,36,42,13,30,42,,,,40,39,4,4,0.6,0.7
2024-01-14T0100,1284A,119.2648,26.0768,福州市,杨桥西路,颗粒物(PM10),53,56,46,22,25,12,,,,63,35,4,5,0.5,0.5
2024-01-14T0100,1285A,119.317,26.0746,福州市,紫阳,,36,36,49,21,29,27,,,,51,43,6,7,0.7,0.7
2024-01-14T0100,3048A,119.5799,26.0936,福州市,九龙,,22,22,35,11,23,35,,,,36,27,4,6,0.5,0.7
2024-01-14T0100,3526A,119.5189,25.9664,福州市,吴航,,33,33,40,22,23,27,,,,65,32,7,6,0.6,0.8
2024-01-14T0100,1755A,123.7977,41.8491,抚顺市,望花区,颗粒物(PM10),64,78,66,41,33,13,,,,51,46,24,14,1.9,1.3
2024-01-14T0100,1756A,123.9161,41.8822,抚顺市,顺城区,颗粒物(PM10),60,69,74,39,51,18,,,,48,50,12,9,1.3,1
2024-01-14T0100,1757A,124.0436,41.8611,抚顺市,东洲区,细颗粒物(PM2.5),78,90,51,57,35,10,,,,60,28,17,12,1.6,0.8
2024-01-14T0100,1758A,123.9247,41.8642,抚顺市,新抚区,细颗粒物(PM2.5),77,76,62,56,44,9,,,,67,50,17,11,1.7,1
2024-01-14T0100,1759A,124.0972,41.8961,抚顺市,大伙房水库,颗粒物(PM10),71,92,39,51,29,6,,,,65,22,11,9,1.6,0.7
2024-01-14T0100,1760A,123.7086,41.8391,抚顺市,沈抚新城,颗粒物(PM10),55,60,64,31,30,27,,,,40,42,10,14,1.1,1.3
2024-01-14T0100,2376A,116.2127,28.0814,抚州市,桐源党溪,,43,39,48,30,29,11,,,,20,25,2,8,0.7,0.7
2024-01-14T0100,2377A,116.3544,27.9831,抚州市,市站,细颗粒物(PM2.5),95,113,77,71,41,6,,,,62,51,10,10,1.0,0.8
2024-01-14T0100,2378A,116.3565,27.963,抚州市,血防站,颗粒物(PM10),74,97,62,52,33,12,,,,68,43,8,8,0.8,0.7
2024-01-14T0100,2379A,116.3564,28.0007,抚州市,采茶剧团,细颗粒物(PM2.5),72,76,67,52,38,3,,,,68,46,6,7,1.2,0.8
2024-01-14T0100,2380A,116.385,27.9647,抚州市,医学分院,颗粒物(PM10),67,83,61,45,29,4,,,,56,37,9,9,1.0,0.8
2024-01-14T0100,2207A,121.6094,41.998,阜新市,工业园区,颗粒物(PM10),52,53,64,11,27,61,,,,13,33,5,24,0.5,1
2024-01-14T0100,2208A,121.6697,42.0279,阜新市,长青街,,50,50,51,8,24,60,,,,8,24,4,22,0.3,0.5
2024-01-14T0100,2209A,121.6673,42.0705,阜新市,农业园区,,26,26,38,7,21,60,,,,10,18,9,20,0.3,0.5
2024-01-14T0100,2210A,121.6717,42.0224,阜新市,东苑,,,,,,,,,,,,,,,,
2024-01-14T0100,2211A,121.6506,42.0498,阜新市,玉龙新城,,36,36,43,6,22,61,,,,6,24,6,16,0.1,0.6
2024-01-14T0100,2301A,115.8277,32.8929,阜阳市,市监测站,细颗粒物(PM2.5),159,150,186,121,158,22,,,,67,52,8,9,0.8,0.8
2024-01-14T0100,2303A,115.8554,32.8605,阜阳市,开发区,细颗粒物(PM2.5),172,182,218,130,153,13,,,,78,58,10,11,0.9,0.9
2024-01-14T0100,2875A,115.784,32.8892,阜阳市,阜阳职业技术学院,细颗粒物(PM2.5),125,120,170,95,135,44,,,,50,46,7,8,0.9,1
2024-01-14T0100,3468A,115.7901,32.8613,阜阳市,市规划展馆,细颗粒物(PM2.5),100,108,175,75,132,68,,,,33,40,9,9,0.8,1
2024-01-14T0100,3469A,115.836,32.9183,阜阳市,枣园社区,细颗粒物(PM2.5),138,140,181,105,141,13,,,,79,55,9,8,1.2,1.2
2024-01-14T0100,2669A,102.9099,34.9841,甘南藏族自治州,州政府,细颗粒物(PM2.5),72,78,56,52,29,6,,,,60,30,18,16,0.9,0.8
2024-01-14T0100,3380A,102.8914,34.9617,甘南藏族自治州,甘肃民族师范学院,颗粒物(PM10),96,141,62,44,23,12,,,,56,33,12,13,0.9,0.8
2024-01-14T0100,2570A,101.9603,30.0475,甘孜藏族自治州,水桥子,,20,20,22,10,11,29,,,,24,28,9,10,0.3,0.4
2024-01-14T0100,3065A,101.9533,29.9972,甘孜藏族自治州,州环保局,,20,9,17,5,6,61,,,,5,14,8,8,0.2,0.3
2024-01-14T0100,3414A,115.8347,28.932,赣江新区,桑海产业园,颗粒物(PM10),64,78,85,37,46,27,,,,63,64,13,12,0.7,0.7
2024-01-14T0100,2362A,114.9017,25.9149,赣州市,通天岩,,,,,,,,,,,,,,,,
2024-01-14T0100,2363A,114.9367,25.8664,赣州市,地委,颗粒物(PM10),77,104,73,46,34,4,,,,58,45,12,12,1.1,1.1
2024-01-14T0100,2364A,114.9461,25.8481,赣州市,气象台,颗粒物(PM10),73,96,71,48,36,7,,,,73,57,24,19,1.0,0.9
2024-01-14T0100,2365A,114.9322,25.8333,赣州市,市图书馆,颗粒物(PM10),73,96,73,46,35,3,,,,69,59,21,18,1.2,1
2024-01-14T0100,2366A,114.8905,25.8471,赣州市,华坚鞋城,颗粒物(PM10),85,119,80,57,38,12,,,,82,56,9,7,1.6,1.3
2024-01-14T0100,3109A,115.0093,25.8613,赣州市,赣县区卫计委,颗粒物(PM10),52,53,52,32,31,9,,,,45,36,6,10,0.9,0.9
2024-01-14T0100,2683A,106.2319,36.1417,固原市,马园,颗粒物(PM10),76,101,98,37,26,8,,,,54,37,6,7,0.8,0.7
2024-01-14T0100,2684A,106.2792,36.0022,固原市,监测站,颗粒物(PM10),71,91,86,44,20,36,,,,32,30,9,7,1.2,0.9
2024-01-14T0100,2685A,106.2375,36.0211,固原市,新区,颗粒物(PM10),64,77,85,31,20,12,,,,46,28,6,6,0.8,0.5
2024-01-14T0100,3522A,106.2177,35.9959,固原市,原州区十五小,颗粒物(PM10),75,100,42,37,21,49,,,,18,17,7,6,1.1,0.7
2024-01-14T0100,2543A,106.6308,30.5278,广安市,小平旧居,,,,,,,,,,,,,,,,
2024-01-14T0100,2544A,106.6303,30.4576,广安市,市委,细颗粒物(PM2.5),175,168,134,132,111,7,,,,47,30,6,6,1.2,1.1
2024-01-14T0100,2545A,106.6271,30.4663,广安市,友谊中学,细颗粒物(PM2.5),172,161,133,130,108,6,,,,41,33,6,5,1.4,1.2
2024-01-14T0100,2547A,106.6388,30.4551,广安市,广电花园,细颗粒物(PM2.5),173,148,120,131,112,3,,,,44,31,4,3,1.4,1
2024-01-14T0100,2902A,106.6351,30.4865,广安市,北辰小学,细颗粒物(PM2.5),199,164,131,149,119,6,,,,40,33,5,6,1.2,1.2
2024-01-14T0100,2523A,105.8945,32.4535,广元市,黑石坡,细颗粒物(PM2.5),140,121,124,107,99,18,,,,60,52,7,11,1.1,1.3
2024-01-14T0100,2524A,105.821,32.4444,广元市,老城,细颗粒物(PM2.5),168,185,168,127,109,3,,,,62,62,11,11,2.1,1.9
2024-01-14T0100,2526A,105.8628,32.4287,广元市,监测站,细颗粒物(PM2.5),152,136,127,116,101,4,,,,61,58,13,11,1.9,1.7
2024-01-14T0100,3617A,105.8047,32.4166,广元市,经开区,细颗粒物(PM2.5),160,187,166,122,121,3,,,,56,58,11,23,2.1,1.9
2024-01-14T0100,1345A,113.2347,23.1423,广州市,广雅中学,颗粒物(PM10),91,131,134,42,73,4,,,,119,104,7,11,1.1,1.4
2024-01-14T0100,1346A,113.2612,23.105,广州市,市五中,颗粒物(PM10),62,74,132,43,78,9,,,,92,86,8,13,0.9,1.2
2024-01-14T0100,1348A,113.3478,23.0916,广州市,广东商学院,细颗粒物(PM2.5),73,93,128,53,75,4,,,,115,87,7,11,0.9,1.1
2024-01-14T0100,1349A,113.4332,23.1047,广州市,市八十六中,颗粒物(PM10),80,109,146,46,75,6,,,,120,104,8,11,1.1,1.2
2024-01-14T0100,1350A,113.3505,22.9483,广州市,番禺中学,颗粒物(PM10),52,54,103,20,64,28,,,,89,80,6,7,0.7,0.9
2024-01-14T0100,1351A,113.2146,23.3916,广州市,花都师范,细颗粒物(PM2.5),115,168,137,87,74,6,,,,159,89,7,9,1.3,0.9
2024-01-14T0100,1352A,113.2597,23.1331,广州市,市监测站,细颗粒物(PM2.5),88,110,132,65,77,3,,,,124,95,5,10,1.4,1.2
2024-01-14T0100,1353A,113.5618,23.312,广州市,九龙镇镇龙,颗粒物(PM10),89,128,109,49,54,1,,,,67,56,6,7,0.9,0.9
2024-01-14T0100,1354A,113.2765,23.1544,广州市,麓湖,细颗粒物(PM2.5),77,92,120,56,69,3,,,,109,81,5,8,0.8,0.8
2024-01-14T0100,1355A,113.443,23.3035,广州市,帽峰山森林公园,颗粒物(PM10),56,61,68,32,40,39,,,,62,31,11,10,0.5,0.5
2024-01-14T0100,2846A,113.3221,23.1322,广州市,体育西,颗粒物(PM10),66,82,128,40,72,5,,,,119,103,8,12,1.0,1.2
2024-01-14T0100,3298A,113.5717,23.5491,广州市,从化街口,细颗粒物(PM2.5),92,94,80,68,57,2,,,,54,39,6,7,1.1,1
2024-01-14T0100,3299A,113.3472,23.3692,广州市,白云竹料,细颗粒物(PM2.5),94,133,116,70,63,5,,,,85,63,6,8,1.2,1.1
2024-01-14T0100,3300A,113.2981,23.237,广州市,白云嘉禾,细颗粒物(PM2.5),88,116,123,65,70,4,,,,128,98,9,10,1.1,1.1
2024-01-14T0100,3301A,113.4256,23.1716,广州市,黄埔科学城,细颗粒物(PM2.5),79,97,103,58,71,2,,,,94,74,5,7,1.0,1.1
2024-01-14T0100,3302A,113.3942,23.0483,广州市,番禺大学城,颗粒物(PM10),60,70,146,31,65,20,,,,87,91,9,14,0.8,1.1
2024-01-14T0100,3303A,113.4922,22.8168,广州市,南沙黄阁,颗粒物(PM10),58,66,88,15,50,9,,,,97,60,4,5,0.8,0.8
2024-01-14T0100,3304A,113.5342,22.7896,广州市,南沙街,,43,43,76,17,40,52,,,,59,53,6,7,0.7,0.9
2024-01-14T0100,3443A,113.2902,23.5544,广州市,花都梯面,细颗粒物(PM2.5),64,71,72,46,48,2,,,,56,51,5,8,0.8,0.8
2024-01-14T0100,3445A,113.7858,23.7478,广州市,从化良口,,30,29,26,21,20,20,,,,38,22,6,6,0.6,0.7
2024-01-14T0100,3446A,113.8051,23.2614,广州市,增城荔城,细颗粒物(PM2.5),83,94,92,61,60,13,,,,60,42,6,8,1.0,0.9
2024-01-14T0100,2505A,109.568,23.1478,贵港市,德智高中,,49,49,34,24,26,77,,,,15,23,8,7,0.9,1
2024-01-14T0100,2506A,109.6047,23.0666,贵港市,江南子站,颗粒物(PM10),81,112,59,56,40,4,,,,54,29,7,7,1.4,1.1
2024-01-14T0100,2507A,109.6014,23.0948,贵港市,贵城子站,细颗粒物(PM2.5),87,72,51,64,42,4,,,,52,30,9,8,1.6,1
2024-01-14T0100,2508A,109.5669,23.1065,贵港市,荷城子站,细颗粒物(PM2.5),64,63,44,46,32,6,,,,49,28,10,9,1.5,1.2
2024-01-14T0100,3405A,109.5886,23.1172,贵港市,新世纪学校,细颗粒物(PM2.5),57,51,41,40,33,17,,,,33,25,6,6,1.1,1.1
2024-01-14T0100,1439A,106.6899,26.5998,贵阳市,马鞍山,,15,12,19,5,12,46,,,,9,14,10,12,0.7,0.8
2024-01-14T0100,1440A,106.6971,26.5694,贵阳市,市环保站,,27,27,21,16,17,48,,,,14,20,9,10,0.3,0.4
2024-01-14T0100,1441A,106.6243,26.6266,贵阳市,鉴湖路,,19,19,25,9,11,50,,,,9,12,4,7,0.5,0.5
2024-01-14T0100,1442A,106.7487,26.6343,贵阳市,燕子冲,,17,12,23,9,15,52,,,,10,15,10,11,0.7,0.7
2024-01-14T0100,1443A,106.6555,26.4365,贵阳市,碧云窝,,24,24,23,5,9,44,,,,12,10,8,11,0.6,0.7
2024-01-14T0100,1444A,106.694,26.5161,贵阳市,中院村,,14,12,22,9,13,43,,,,13,17,11,11,0.5,0.6
2024-01-14T0100,1445A,106.7109,26.6027,贵阳市,红边门,,22,22,25,9,16,42,,,,11,16,10,10,0.7,0.7
2024-01-14T0100,1446A,106.7164,26.5699,贵阳市,新华路,,20,17,25,14,17,47,,,,13,17,9,9,0.6,0.7
2024-01-14T0100,1447A,106.674,26.5424,贵阳市,太慈桥,,19,19,25,5,11,45,,,,11,16,8,8,0.4,0.5
2024-01-14T0100,1552A,106.805,26.3003,贵阳市,桐木岭,,,,,,,,,,,,,,,,
2024-01-14T0100,1862A,110.4144,25.3167,桂林市,电子科大尧山校区,,45,,51,31,51,11,,,,18,19,4,8,0.9,1.1
2024-01-14T0100,1863A,110.2819,25.2697,桂林市,监测站,细颗粒物(PM2.5),103,113,93,77,70,4,,,,30,37,11,24,2.3,1.7
2024-01-14T0100,1864A,110.3089,25.2708,桂林市,龙隐路小学,细颗粒物(PM2.5),113,112,87,85,75,9,,,,35,39,7,14,2.0,1.6
2024-01-14T0100,1865A,110.2869,25.2178,桂林市,八中,细颗粒物(PM2.5),93,85,85,69,70,4,,,,28,38,8,19,1.5,1.4
2024-01-14T0100,3403A,110.1764,25.2381,桂林市,创业大厦,细颗粒物(PM2.5),104,92,82,78,70,2,,,,31,31,24,32,1.1,0.8
2024-01-14T0100,3531A,110.296,25.1253,桂林市,旅游学院,细颗粒物(PM2.5),64,51,66,46,59,2,,,,23,29,7,17,1.2,1.1
2024-01-14T0100,2674A,100.2561,34.4714,果洛藏族自治州,玛沁县大武镇,,36,36,36,23,24,24,,,,20,13,14,13,1.0,0.8
2024-01-14T0100,1129A,126.5422,45.755,哈尔滨市,岭北,细颗粒物(PM2.5),170,140,148,129,128,84,,,,79,57,9,22,1.6,1.3
2024-01-14T0100,1130A,126.561,45.8167,哈尔滨市,松北商大,细颗粒物(PM2.5),138,159,133,105,115,18,,,,62,56,15,12,1.2,1.2
2024-01-14T0100,1131A,126.979,45.5419,哈尔滨市,阿城会宁,细颗粒物(PM2.5),68,52,121,49,108,56,,,,17,42,17,17,0.6,1.2
2024-01-14T0100,1132A,126.599,45.7222,哈尔滨市,南岗学府路,细颗粒物(PM2.5),112,118,160,84,118,23,,,,55,57,14,15,1.1,1.2
2024-01-14T0100,1133A,126.689,45.7733,哈尔滨市,太平宏伟公园,细颗粒物(PM2.5),152,154,155,116,126,10,,,,68,60,18,17,1.1,1.2
2024-01-14T0100,1134A,126.635,45.7667,哈尔滨市,道外承德广场,细颗粒物(PM2.5),147,142,132,112,104,7,,,,73,54,17,12,0.9,1
2024-01-14T0100,1135A,126.685,45.7319,哈尔滨市,香坊红旗大街,细颗粒物(PM2.5),130,,148,99,149,24,,,,64,64,26,24,1.2,1.5
2024-01-14T0100,1136A,126.6411,45.7258,哈尔滨市,动力和平路,细颗粒物(PM2.5),122,93,139,92,133,19,,,,64,62,20,20,1.0,1.1
2024-01-14T0100,1137A,126.593,45.7478,哈尔滨市,道里建国路,细颗粒物(PM2.5),159,142,122,121,114,8,,,,69,53,18,25,1.0,1.7
2024-01-14T0100,1138A,126.615,45.61,哈尔滨市,平房东轻厂,细颗粒物(PM2.5),92,74,128,68,123,39,,,,40,42,9,9,0.9,1.1
2024-01-14T0100,1139A,126.595,45.9855,哈尔滨市,呼兰师专,细颗粒物(PM2.5),118,111,157,89,135,46,,,,37,55,13,14,1.0,1.4
2024-01-14T0100,1140A,126.6206,45.6842,哈尔滨市,省农科院,细颗粒物(PM2.5),124,116,171,94,136,26,,,,66,68,17,16,1.2,1.4
2024-01-14T0100,2688A,93.5128,42.8172,哈密市,地区监测站,颗粒物(PM10),71,91,98,47,45,16,,,,46,44,3,6,1.1,0.7
2024-01-14T0100,2689A,93.4961,42.8328,哈密市,哈密师范学校,细颗粒物(PM2.5),97,129,103,72,47,14,,,,56,47,6,10,0.8,0.9
2024-01-14T0100,2671A,100.9048,36.9639,海北藏族自治州,海晏县西海镇,颗粒物(PM10),58,66,27,13,10,44,,,,11,5,16,11,0.6,0.3
2024-01-14T0100,3867A,102.0738,36.5056,海东市,平安区公安北苑,颗粒物(PM10),75,99,74,39,31,47,,,,12,24,14,23,0.6,0.9
2024-01-14T0100,1409A,110.576,19.9507,海口市,东寨港,,,,,,,,,,,,,,,,
2024-01-14T0100,1410A,110.3232,20.0574,海口市,海南大学,,33,33,37,17,18,89,,,,26,18,8,8,0.4,0.4
2024-01-14T0100,1411A,110.283,20.0053,海口市,秀英海南医院,,33,32,35,20,20,103,,,,4,6,8,8,0.4,0.4
2024-01-14T0100,1412A,110.338,19.9969,海口市,海南师范大学,,31,29,35,20,20,99,,,,5,6,6,7,0.4,0.5
2024-01-14T0100,1413A,110.33,20.0356,海口市,龙华路环保局宿舍,,32,31,35,19,19,102,,,,5,7,8,8,0.3,0.3
2024-01-14T0100,3539A,110.5111,19.9736,海口市,桂林洋子站,,34,34,34,19,18,89,,,,8,8,6,6,0.4,0.3
2024-01-14T0100,2673A,100.6188,36.2866,海南藏族自治州,共和县恰卜恰镇,,38,38,41,21,25,12,,,,44,29,13,14,0.6,0.6
2024-01-14T0100,2676A,97.3731,37.3753,海西蒙古族藏族自治州,德令哈市,,32,32,29,10,10,87,,,,5,10,14,14,0.4,0.5
2024-01-14T0100,1048A,114.5302,36.6116,邯郸市,东污水处理厂,细颗粒物(PM2.5),230,210,287,180,266,0,,,,92,87,3,2,1.8,2
2024-01-14T0100,1049A,114.4918,36.5713,邯郸市,矿院,细颗粒物(PM2.5),259,238,302,209,262,1,,,,105,86,3,3,1.9,2
2024-01-14T0100,1050A,114.484,36.6133,邯郸市,丛台公园,细颗粒物(PM2.5),251,215,283,201,251,6,,,,106,89,4,4,1.8,1.8
2024-01-14T0100,3458A,114.7895,36.5593,邯郸市,香泉濮院小区,细颗粒物(PM2.5),270,277,342,220,271,10,,,,94,84,6,7,1.9,1.9
2024-01-14T0100,3579A,114.50634,36.77178,邯郸市,永年区实验高中,细颗粒物(PM2.5),217,203,311,167,240,2,,,,90,88,8,9,1.5,1.8
2024-01-14T0100,3580A,114.20016,36.44293,邯郸市,峰峰矿区临水派出所,细颗粒物(PM2.5),295,268,299,245,284,2,,,,109,61,10,18,2.7,2.5
2024-01-14T0100,2634A,106.9893,33.1842,汉中市,汉川机床厂子校,细颗粒物(PM2.5),132,109,96,100,86,16,,,,32,28,6,11,1.2,1.1
2024-01-14T0100,2635A,107.0154,33.0706,汉中市,市监测站,细颗粒物(PM2.5),208,190,136,158,125,9,,,,60,50,13,14,2.1,1.9
2024-01-14T0100,2636A,107.0089,33.1138,汉中市,鑫源开发区,细颗粒物(PM2.5),232,,117,182,121,9,,,,36,38,11,19,1.8,1.5
2024-01-14T0100,2637A,107.007,33.0323,汉中市,南郑大河坎水厂,细颗粒物(PM2.5),271,276,156,221,137,11,,,,46,41,12,13,2.9,2
2024-01-14T0100,1223A,120.2072,30.2111,杭州市,滨江,细颗粒物(PM2.5),225,238,136,175,91,0,,,,145,82,13,13,1.4,0.9
2024-01-14T0100,1224A,120.0633,30.2747,杭州市,西溪,细颗粒物(PM2.5),159,175,121,121,86,3,,,,95,71,7,9,1.1,0.9
2024-01-14T0100,1226A,120.3461,30.3153,杭州市,下沙,细颗粒物(PM2.5),212,236,159,162,100,4,,,,144,103,10,10,1.1,1
2024-01-14T0100,1227A,120.1269,30.2456,杭州市,卧龙桥,细颗粒物(PM2.5),162,169,115,123,81,12,,,,44,63,6,7,0.9,0.9
2024-01-14T0100,1228A,120.1903,30.2692,杭州市,浙江农大,细颗粒物(PM2.5),217,249,150,167,97,7,,,,112,83,9,12,1.3,0.9
2024-01-14T0100,1230A,120.1197,30.3119,杭州市,和睦小学,细颗粒物(PM2.5),172,196,136,130,84,4,,,,139,84,7,9,1.1,0.9
2024-01-14T0100,1231A,120.3019,30.4183,杭州市,临平镇,细颗粒物(PM2.5),212,203,148,162,102,4,,,,115,84,6,9,1.1,1.2
2024-01-14T0100,1232A,120.2697,30.1819,杭州市,城厢镇,细颗粒物(PM2.5),215,237,156,165,106,3,,,,138,94,9,9,1.3,0.9
2024-01-14T0100,1233A,120.0883,30.1808,杭州市,云栖,细颗粒物(PM2.5),176,186,127,133,85,37,,,,53,67,7,8,0.9,0.8
2024-01-14T0100,3557A,119.9464,30.0494,杭州市,镇二中,细颗粒物(PM2.5),129,128,95,98,69,2,,,,86,72,6,7,1.1,1
2024-01-14T0100,3558A,119.7183,30.2367,杭州市,市府大楼,细颗粒物(PM2.5),130,149,107,99,68,15,,,,64,59,6,7,0.9,0.8
2024-01-14T0100,3656A,120.1556,30.2864,杭州市,消防大队,细颗粒物(PM2.5),217,233,147,167,96,15,,,,108,85,10,11,1.5,1.1
2024-01-14T0100,1270A,117.1959,31.7848,合肥市,明珠广场,细颗粒物(PM2.5),67,75,109,48,68,52,,,,54,65,7,9,0.7,0.9
2024-01-14T0100,1271A,117.3072,31.8764,合肥市,三里街,细颗粒物(PM2.5),85,88,122,63,80,57,,,,53,79,6,8,0.8,1
2024-01-14T0100,1272A,117.2588,31.8707,合肥市,琥珀山庄,细颗粒物(PM2.5),79,80,118,58,79,58,,,,55,66,7,9,0.9,1.3
2024-01-14T0100,1273A,117.1604,31.9052,合肥市,董铺水库,细颗粒物(PM2.5),77,80,121,56,74,81,,,,24,49,5,5,0.6,0.8
2024-01-14T0100,1274A,117.25,31.8571,合肥市,长江中路,细颗粒物(PM2.5),82,80,114,60,84,56,,,,45,57,9,11,1.0,1.4
2024-01-14T0100,1275A,117.266,31.9436,合肥市,庐阳区,细颗粒物(PM2.5),73,88,131,53,76,62,,,,36,59,6,7,0.8,0.9
2024-01-14T0100,1276A,117.336,31.8586,合肥市,瑶海区,细颗粒物(PM2.5),98,97,123,73,85,46,,,,58,69,3,6,0.8,1
2024-01-14T0100,1277A,117.3027,31.7964,合肥市,包河区,细颗粒物(PM2.5),89,85,116,66,84,54,,,,53,68,7,11,0.7,1
2024-01-14T0100,1278A,117.2776,31.7385,合肥市,滨湖新区,细颗粒物(PM2.5),77,75,108,56,77,78,,,,29,54,8,9,0.4,0.7
2024-01-14T0100,1279A,117.1318,31.8403,合肥市,高新区,细颗粒物(PM2.5),64,66,102,46,68,80,,,,31,64,8,9,0.8,1
2024-01-14T0100,3464A,117.3803,31.9147,合肥市,高教基地,细颗粒物(PM2.5),87,97,104,64,64,57,,,,53,65,6,8,0.7,0.8
2024-01-14T0100,3614A,79.924,37.0877,和田地区,地区环保局,颗粒物(PM10),154,258,225,82,61,53,,,,31,29,18,13,1.1,1.2
2024-01-14T0100,3615A,79.9131,37.113,和田地区,市环保局,颗粒物(PM10),153,256,191,69,62,46,,,,38,33,19,13,2.2,1.8
2024-01-14T0100,2516A,108.2011,24.715,河池市,东仁乐园,,45,36,27,31,21,10,,,,16,14,5,5,1.2,1
2024-01-14T0100,2517A,108.0497,24.6947,河池市,市环保站,,48,45,31,33,26,10,,,,21,19,6,10,1.2,1
2024-01-14T0100,2518A,108.0983,24.6989,河池市,市疾控中心,,49,34,31,34,25,5,,,,33,26,6,10,1.1,1
2024-01-14T0100,1696A,114.6778,23.7569,河源市,源西,,43,43,57,27,29,22,,,,42,37,4,5,0.7,0.8
2024-01-14T0100,1697A,114.6944,23.7586,河源市,东埔,细颗粒物(PM2.5),63,64,67,45,40,7,,,,53,39,6,8,1.0,1
2024-01-14T0100,1698A,114.6892,23.7233,河源市,老城,颗粒物(PM10),54,58,53,31,32,11,,,,47,28,5,7,0.7,0.7
2024-01-14T0100,1718A,115.4208,35.2464,菏泽市,气象局,细颗粒物(PM2.5),420,454,352,379,282,10,,,,95,76,5,4,2.2,1.7
2024-01-14T0100,1719A,115.4747,35.2375,菏泽市,市政协,细颗粒物(PM2.5),421,489,364,381,271,9,,,,91,71,7,8,2.0,1.6
2024-01-14T0100,3374A,115.5564,35.0891,菏泽市,定陶老年大学,细颗粒物(PM2.5),424,449,326,385,269,4,,,,90,66,4,5,2.1,1.6
2024-01-14T0100,3647A,115.4702,35.2706,菏泽市,菏泽医专,细颗粒物(PM2.5),412,448,336,367,271,7,,,,92,70,7,9,2.3,1.7
2024-01-14T0100,2514A,111.5264,24.4172,贺州市,环保小区,颗粒物(PM10),56,62,78,31,41,8,,,,33,31,6,7,0.9,1.1
2024-01-14T0100,2515A,111.5608,24.4078,贺州市,政协大楼,颗粒物(PM10),65,80,80,43,45,2,,,,40,36,7,8,0.9,1
2024-01-14T0100,3534A,111.4744,24.4553,贺州市,西湾,颗粒物(PM10),59,67,54,40,40,6,,,,31,21,10,8,1.0,1
2024-01-14T0100,2385A,114.17,35.9019,鹤壁市,市监测站,细颗粒物(PM2.5),352,355,365,302,314,2,,,,96,58,4,6,2.0,1.9
2024-01-14T0100,2386A,114.2956,35.7511,鹤壁市,市交警支队,细颗粒物(PM2.5),345,344,367,295,307,2,,,,90,65,10,10,1.7,1.9
2024-01-14T0100,2387A,114.2878,35.7306,鹤壁市,迎宾馆,细颗粒物(PM2.5),318,297,324,268,284,2,,,,96,68,9,10,1.8,2
2024-01-14T0100,3474A,114.2617,35.6822,鹤壁市,大新区,细颗粒物(PM2.5),336,294,320,286,290,5,,,,98,67,8,9,2.1,2.3
2024-01-14T0100,3596A,114.1572,35.9603,鹤壁市,南山宾馆,细颗粒物(PM2.5),349,359,371,299,310,3,,,,94,50,9,10,2.5,2.4
2024-01-14T0100,2244A,130.2537,47.3416,鹤岗市,哈啤分公司,细颗粒物(PM2.5),80,94,64,59,39,8,,,,50,34,20,16,1.3,0.9
2024-01-14T0100,2245A,130.2684,47.3086,鹤岗市,斯达机电,细颗粒物(PM2.5),69,68,56,50,32,42,,,,31,32,16,14,0.7,0.6
2024-01-14T0100,2246A,130.3114,47.3388,鹤岗市,东山纸板厂,颗粒物(PM10),52,54,49,33,46,39,,,,31,47,28,27,0.4,1.2
2024-01-14T0100,2247A,130.1097,47.3382,鹤岗市,五号水库,细颗粒物(PM2.5),70,73,42,51,32,30,,,,41,23,17,13,1.0,0.8
2024-01-14T0100,2263A,127.4833,50.2524,黑河市,交通局,,38,34,30,26,22,53,,,,8,13,7,7,0.5,0.6
2024-01-14T0100,2264A,127.5144,50.2341,黑河市,环保局,,43,34,32,30,26,54,,,,10,16,9,9,0.4,0.5
2024-01-14T0100,2265A,127.5291,50.2472,黑河市,大黑河岛,,49,,30,34,22,50,,,,8,10,4,3,0.6,0.6
2024-01-14T0100,1074A,115.6838,37.7541,衡水市,电机北厂,细颗粒物(PM2.5),95,81,214,71,202,0,,,,49,67,2,6,0.9,1.7
2024-01-14T0100,1075A,115.6303,37.7316,衡水市,市监测站,细颗粒物(PM2.5),89,81,205,66,191,0,,,,56,75,6,8,0.9,1.7
2024-01-14T0100,3188A,115.6683,37.7217,衡水市,市城管局,细颗粒物(PM2.5),94,88,227,70,208,0,,,,58,75,4,8,0.9,1.8
2024-01-14T0100,3459A,115.5989,37.5491,衡水市,地表水厂,细颗粒物(PM2.5),110,97,236,83,220,2,,,,51,75,,6,1.0,1.9
2024-01-14T0100,2456A,112.5003,26.9167,衡阳市,原169医院,细颗粒物(PM2.5),83,73,76,61,50,9,,,,44,46,9,12,1.1,1.2
2024-01-14T0100,2457A,112.6194,26.9258,衡阳市,衡阳化工总厂,细颗粒物(PM2.5),144,140,111,110,93,2,,,,62,45,7,9,1.6,1.5
2024-01-14T0100,2458A,112.6211,26.8956,衡阳市,珠晖区环保局,细颗粒物(PM2.5),190,180,117,143,101,5,,,,55,45,12,11,2.9,1.9
2024-01-14T0100,2459A,112.6197,26.8733,衡阳市,市委党校,细颗粒物(PM2.5),107,126,105,80,73,4,,,,48,39,13,15,2.0,1.6
2024-01-14T0100,2460A,112.6006,26.8919,衡阳市,市监测站,细颗粒物(PM2.5),170,162,126,129,94,4,,,,56,49,8,9,3.3,2.1
2024-01-14T0100,2461A,112.5664,26.9056,衡阳市,真空机电公司,细颗粒物(PM2.5),139,165,98,106,75,4,,,,76,53,9,10,3.8,2.1
2024-01-14T0100,3399A,112.6703,26.882,衡阳市,师范学院,细颗粒物(PM2.5),150,132,107,115,81,1,,,,48,39,10,11,1.6,1.4
2024-01-14T0100,2608A,103.3772,23.3993,红河哈尼族彝族自治州,污水处理厂,,46,,26,32,23,53,,,,9,7,5,6,0.6,0.5
2024-01-14T0100,2609A,103.3861,23.35,红河哈尼族彝族自治州,监测站,,30,30,25,21,21,60,,,,7,9,7,8,0.6,0.6
2024-01-14T0100,3038A,103.3758,23.368,红河哈尼族彝族自治州,州图书馆,,23,22,21,16,19,56,,,,7,6,7,7,0.6,0.5
2024-01-14T0100,1090A,111.6507,40.7517,呼和浩特市,呼市一监,,23,19,74,5,42,72,,,,7,44,8,12,0.2,0.9
2024-01-14T0100,1091A,111.6572,40.8033,呼和浩特市,小召,,24,24,78,6,32,65,,,,16,50,5,12,0.3,1.2
2024-01-14T0100,1094A,111.7516,40.8369,呼和浩特市,如意水处理厂,,22,16,56,5,30,69,,,,11,51,9,13,0.3,0.9
2024-01-14T0100,1095A,111.7276,40.8062,呼和浩特市,二十九中,,27,27,78,6,31,71,,,,9,46,10,14,0.2,0.8
2024-01-14T0100,1096A,111.5512,40.7866,呼和浩特市,工大金川校区,,22,19,90,4,42,69,,,,9,52,6,10,0.3,1
2024-01-14T0100,1097A,111.717,40.7612,呼和浩特市,化肥厂生活区,,24,16,63,5,35,74,,,,6,44,10,16,0.3,1
2024-01-14T0100,3698A,111.5968,40.8178,呼和浩特市,红旗小学,,23,14,98,5,43,72,,,,12,54,8,15,0.3,1
2024-01-14T0100,3699A,111.6518,40.8389,呼和浩特市,海东办,,22,22,74,5,34,60,,,,20,52,8,13,0.2,0.9
2024-01-14T0100,2192A,119.7594,49.2261,呼伦贝尔市,区环保局,,30,23,25,21,21,67,,,,6,19,6,8,0.3,0.4
2024-01-14T0100,3061A,119.7512,49.1577,呼伦贝尔市,国华电力东,,23,23,25,16,17,68,,,,4,14,5,6,0.2,0.2
2024-01-14T0100,1250A,120.0751,30.8669,湖州市,城西水厂,细颗粒物(PM2.5),165,175,127,125,86,42,,,,76,77,6,7,0.7,0.7
2024-01-14T0100,2873A,120.0875,30.8955,湖州市,仁皇山新区,细颗粒物(PM2.5),166,164,127,126,86,48,,,,70,74,9,10,0.9,0.9
2024-01-14T0100,2907A,120.1844,30.8596,湖州市,吴兴区站,细颗粒物(PM2.5),165,182,134,125,90,45,,,,71,79,12,11,1.0,0.9
2024-01-14T0100,3562A,120.4148,30.8538,湖州市,南浔区站,细颗粒物(PM2.5),127,134,149,96,105,43,,,,70,84,9,12,0.8,0.9
2024-01-14T0100,1607A,120.9092,40.7136,葫芦岛市,龙港区,颗粒物(PM10),60,70,54,34,26,43,,,,24,25,38,47,0.6,0.6
2024-01-14T0100,1608A,120.8392,40.7514,葫芦岛市,化工街,颗粒物(PM10),67,83,43,24,24,48,,,,7,23,15,17,1.1,1.1
2024-01-14T0100,1609A,120.8341,40.7073,葫芦岛市,新区,颗粒物(PM10),55,60,38,27,23,52,,,,18,29,21,17,0.7,0.6
2024-01-14T0100,1610A,120.8695,40.7677,葫芦岛市,东城区,颗粒物(PM10),52,53,37,25,25,48,,,,17,35,21,19,0.8,0.8
2024-01-14T0100,2482A,109.5981,27.5721,怀化市,林科所,细颗粒物(PM2.5),94,77,56,70,46,0,,,,4,4,6,6,1.1,0.8
2024-01-14T0100,2483A,109.9453,27.5444,怀化市,河西地税局,细颗粒物(PM2.5),122,99,71,92,67,4,,,,27,32,6,5,2.1,1.5
2024-01-14T0100,2484A,109.9781,27.5342,怀化市,市四医院,细颗粒物(PM2.5),163,188,101,124,70,5,,,,39,30,8,13,3.0,1.7
2024-01-14T0100,2485A,109.9972,27.5578,怀化市,监测楼,细颗粒物(PM2.5),140,156,83,107,59,10,,,,33,30,8,11,3.0,1.8
2024-01-14T0100,2486A,110.0394,27.583,怀化市,市委党校,细颗粒物(PM2.5),124,130,73,94,57,3,,,,29,23,10,15,2.0,1.3
2024-01-14T0100,1210A,119.036,33.5981,淮安市,钵池山,细颗粒物(PM2.5),242,212,172,192,160,26,,,,66,47,8,8,1.5,1.1
2024-01-14T0100,1211A,119.007,33.575,淮安市,北京南路,细颗粒物(PM2.5),240,202,176,190,167,28,,,,55,50,9,9,1.5,1.3
2024-01-14T0100,1212A,118.989,33.6067,淮安市,市监测站,细颗粒物(PM2.5),240,232,190,190,161,32,,,,62,52,11,10,1.8,1.4
2024-01-14T0100,1213A,119.135,33.5039,淮安市,楚州区监测站,细颗粒物(PM2.5),226,200,173,176,155,0,,,,76,50,7,8,1.5,1.2
2024-01-14T0100,1214A,119.0186,33.6297,淮安市,淮阴区监测站,细颗粒物(PM2.5),216,249,220,166,139,18,,,,73,54,10,8,1.7,1.4
2024-01-14T0100,3426A,118.8755,33.2894,淮安市,新华书店,细颗粒物(PM2.5),252,241,214,202,181,9,,,,94,59,10,11,1.8,1.4
2024-01-14T0100,2282A,116.8004,33.975,淮北市,监测站,细颗粒物(PM2.5),189,207,242,142,176,62,,,,39,44,12,9,1.7,1.3
2024-01-14T0100,2283A,116.8091,33.9007,淮北市,烈山区政府,细颗粒物(PM2.5),183,175,214,138,176,61,,,,50,51,11,9,1.1,1
2024-01-14T0100,3330A,116.8873,33.9836,淮北市,杜集区检察院,细颗粒物(PM2.5),221,203,218,171,183,66,,,,40,48,14,13,1.6,1.5
2024-01-14T0100,4017A,116.7923,33.9535,淮北市,市博物馆,细颗粒物(PM2.5),210,231,240,160,188,56,,,,49,45,12,10,1.5,1.3
2024-01-14T0100,2277A,116.8305,32.7727,淮南市,潘集区政府,细颗粒物(PM2.5),147,142,178,112,135,29,,,,54,57,8,9,1.0,1
2024-01-14T0100,2278A,117.0067,32.6524,淮南市,师范学院,细颗粒物(PM2.5),112,136,161,84,108,18,,,,57,38,10,14,0.9,0.9
2024-01-14T0100,2279A,116.8569,32.5951,淮南市,谢家集区政府,细颗粒物(PM2.5),108,116,137,81,105,55,,,,51,42,10,12,0.7,0.8
2024-01-14T0100,2280A,116.8281,32.633,淮南市,八公山区政府,细颗粒物(PM2.5),110,127,143,83,103,42,,,,44,31,12,12,0.7,0.7
2024-01-14T0100,2281A,116.6325,32.6201,淮南市,焦岗湖风景区管理处,细颗粒物(PM2.5),97,110,140,72,100,9,,,,85,55,3,3,0.6,0.7
2024-01-14T0100,2894A,117.0566,32.6531,淮南市,经济技术开发区消防队,细颗粒物(PM2.5),107,109,154,80,111,47,,,,41,36,6,8,0.7,0.8
2024-01-14T0100,3329A,117.0108,32.5893,淮南市,山南新区,细颗粒物(PM2.5),125,121,146,95,112,58,,,,46,38,8,9,0.9,0.9
2024-01-14T0100,2446A,114.9028,30.4742,黄冈市,职工中心,细颗粒物(PM2.5),62,63,91,44,62,87,,,,19,26,16,12,0.7,0.8
2024-01-14T0100,2929A,114.8858,30.4519,黄冈市,红卫路,细颗粒物(PM2.5),68,72,87,49,65,74,,,,18,21,12,11,0.7,0.9
2024-01-14T0100,3398A,114.9136,30.4445,黄冈市,市林业局,细颗粒物(PM2.5),73,63,79,53,65,72,,,,34,33,7,8,0.7,0.8
2024-01-14T0100,2672A,102.0199,35.5102,黄南藏族自治州,同仁县隆务镇,,48,48,40,24,20,47,,,,7,12,11,12,0.3,0.6
2024-01-14T0100,2295A,118.2903,29.6963,黄山市,延安路89号,,41,41,50,23,28,12,,,,22,19,4,5,0.2,0.3
2024-01-14T0100,2296A,118.327,29.7178,黄山市,黄山东路89号,颗粒物(PM10),53,55,61,23,33,10,,,,30,27,4,5,0.4,0.6
2024-01-14T0100,2297A,118.1371,30.2756,黄山市,黄山区政府5号楼,,50,50,49,35,33,20,,,,13,16,3,4,0.5,0.5
2024-01-14T0100,2423A,115.0601,30.2313,黄石市,沈家营,细颗粒物(PM2.5),85,90,107,63,66,28,,,,74,57,8,11,0.9,0.8
2024-01-14T0100,2424A,115.0817,30.2006,黄石市,陈家湾,细颗粒物(PM2.5),83,84,94,61,69,25,,,,66,57,14,14,1.1,1.3
2024-01-14T0100,2426A,114.8988,30.2019,黄石市,铁山,细颗粒物(PM2.5),74,81,86,54,63,68,,,,39,42,20,17,0.7,0.7
2024-01-14T0100,2427A,115.0307,30.2092,黄石市,团城山,细颗粒物(PM2.5),74,91,99,54,63,38,,,,66,56,15,15,1.0,1.1
2024-01-14T0100,3149A,115.0235,30.1578,黄石市,笔架山北路,细颗粒物(PM2.5),77,92,93,56,67,67,,,,39,48,21,15,0.9,0.9
2024-01-14T0100,1392A,114.4183,23.0528,惠州市,河南岸金山湖子站,颗粒物(PM10),67,83,76,43,47,36,,,,51,34,6,6,0.9,0.9
2024-01-14T0100,1393A,114.4053,23.0822,惠州市,下埔横江三路子站,颗粒物(PM10),67,83,73,42,46,43,,,,56,34,11,12,1.0,0.9
2024-01-14T0100,1394A,114.4103,23.1142,惠州市,江北云山西路子站,颗粒物(PM10),73,95,85,45,45,30,,,,84,33,12,10,1.0,1
2024-01-14T0100,1395A,114.4645,22.7833,惠州市,惠阳区承修路船湖子站,,50,50,68,14,35,65,,,,31,37,10,10,0.6,0.8
2024-01-14T0100,1396A,114.5317,22.7422,惠州市,大亚湾管委会子站,颗粒物(PM10),67,83,78,22,32,17,,,,88,64,7,7,0.7,0.9
2024-01-14T0100,3314A,114.4338,22.8134,惠州市,惠阳秋长,颗粒物(PM10),64,78,87,28,35,48,,,,42,31,8,9,0.7,0.8
2024-01-14T0100,3452A,114.6517,22.775,惠州市,大亚湾霞涌,颗粒物(PM10),51,52,69,25,39,56,,,,30,30,11,10,0.6,0.7
2024-01-14T0100,2240A,130.9762,45.3001,鸡西市,环保局,细颗粒物(PM2.5),108,107,49,81,39,38,,,,24,23,12,9,0.9,0.7
2024-01-14T0100,2243A,130.9429,45.3039,鸡西市,第一中学,细颗粒物(PM2.5),85,95,51,63,36,30,,,,35,21,17,11,0.5,0.3
2024-01-14T0100,3707A,131.0207,45.3073,鸡西市,欧美日汽修厂,细颗粒物(PM2.5),124,131,74,94,61,19,,,,40,39,16,29,1.3,1.2
2024-01-14T0100,3709A,130.9967,45.3106,鸡西市,市政设施管理处,细颗粒物(PM2.5),122,143,67,92,54,19,,,,39,36,7,5,1.0,0.8
2024-01-14T0100,2367A,114.9754,27.0803,吉安市,红声器材厂,细颗粒物(PM2.5),82,112,80,60,45,8,,,,65,49,11,16,0.9,0.9
2024-01-14T0100,2368A,114.9658,27.0999,吉安市,市森林工业局,细颗粒物(PM2.5),90,98,71,67,48,4,,,,70,43,10,17,1.0,0.6
2024-01-14T0100,2369A,114.99,27.1312,吉安市,市环境监测站,细颗粒物(PM2.5),84,98,71,62,43,3,,,,72,47,10,14,0.9,0.8
2024-01-14T0100,2370A,115.0093,27.0968,吉安市,青原区法院,细颗粒物(PM2.5),79,86,74,58,46,1,,,,60,43,17,19,0.8,0.8
2024-01-14T0100,1772A,126.54,43.8622,吉林市,哈达湾,,32,30,66,22,54,53,,,,19,28,12,10,0.8,0.9
2024-01-14T0100,1773A,126.5844,43.8358,吉林市,东局子,,33,30,71,23,60,49,,,,22,28,12,8,0.9,0.9
2024-01-14T0100,1774A,126.5052,43.8245,吉林市,电力学院,,33,30,73,23,65,50,,,,19,29,14,13,0.8,1
2024-01-14T0100,1775A,126.6133,43.8972,吉林市,江北,,31,31,83,21,68,52,,,,20,38,14,14,0.8,1.1
2024-01-14T0100,1776A,126.555,43.8306,吉林市,江南公园,,40,33,76,28,67,48,,,,22,31,16,12,0.7,0.8
2024-01-14T0100,1778A,126.7061,43.7133,吉林市,丰满,,,,,,,,,,,,,,,,
2024-01-14T0100,2868A,126.4739,43.953,吉林市,九站,,43,39,105,30,90,47,,,,26,46,10,13,1.0,1.1
2024-01-14T0100,1299A,116.9862,36.6114,济南市,科干所,细颗粒物(PM2.5),297,300,322,247,240,5,,,,87,101,13,18,2.7,2.2
2024-01-14T0100,1300A,116.9376,36.665,济南市,农科所,细颗粒物(PM2.5),221,217,333,171,235,1,,,,83,111,7,18,2.0,2.6
2024-01-14T0100,1301A,117.1265,36.6734,济南市,开发区,细颗粒物(PM2.5),284,252,316,234,243,2,,,,86,111,9,11,2.5,2.2
2024-01-14T0100,1303A,117.0624,36.6868,济南市,省种子仓库,细颗粒物(PM2.5),252,251,378,202,263,4,,,,76,99,6,17,2.2,2.7
2024-01-14T0100,1304A,116.9489,36.6447,济南市,机床二厂,细颗粒物(PM2.5),272,237,311,222,247,3,,,,82,107,7,25,2.3,2.6
2024-01-14T0100,1305A,117.0495,36.663,济南市,市监测站,细颗粒物(PM2.5),260,242,325,210,244,6,,,,86,106,13,20,2.3,2.3
2024-01-14T0100,1306A,116.7675,36.5484,济南市,长清党校,细颗粒物(PM2.5),250,242,292,200,226,6,,,,96,91,9,11,2.2,1.6
2024-01-14T0100,1616A,117.6795,36.229,济南市,技术学院,细颗粒物(PM2.5),225,197,237,175,193,50,,,,58,65,12,13,1.8,2
2024-01-14T0100,1961A,117.532,36.6868,济南市,东山小学,细颗粒物(PM2.5),260,347,354,210,259,6,,,,86,94,8,11,2.8,2.5
2024-01-14T0100,3059A,117.7161,36.2049,济南市,泰兴公司,细颗粒物(PM2.5),221,200,248,171,188,41,,,,59,72,8,10,1.7,1.9
2024-01-14T0100,3064A,117.6867,36.2171,济南市,莱芜战役纪念馆,细颗粒物(PM2.5),230,207,245,180,191,36,,,,67,70,12,13,1.6,1.8
2024-01-14T0100,3494A,117.1673,36.9782,济南市,济阳区政府,细颗粒物(PM2.5),189,230,312,142,242,5,,,,70,88,9,22,1.6,2.2
2024-01-14T0100,3495A,117.1171,36.63,济南市,锦屏中学,细颗粒物(PM2.5),345,344,289,295,231,4,,,,87,85,10,9,2.7,1.8
2024-01-14T0100,3682A,116.9814,36.6819,济南市,济南四建,细颗粒物(PM2.5),245,234,322,195,260,2,,,,83,112,9,21,2.3,3
2024-01-14T0100,1653A,116.6251,35.4302,济宁市,火炬城,细颗粒物(PM2.5),245,221,224,195,182,20,,,,66,62,6,8,1.6,1.6
2024-01-14T0100,1655A,116.5491,35.4042,济宁市,电化厂,细颗粒物(PM2.5),238,242,238,188,179,15,,,,76,47,9,9,1.8,1.5
2024-01-14T0100,3500A,116.5814,35.3707,济宁市,北湖一中,细颗粒物(PM2.5),233,228,219,183,190,38,,,,46,52,8,8,1.4,1.4
2024-01-14T0100,3501A,116.8249,35.5593,济宁市,服务中心,细颗粒物(PM2.5),217,266,295,167,196,10,,,,69,69,4,6,1.8,1.7
2024-01-14T0100,3678A,116.5907,35.4054,济宁市,市第七中学,细颗粒物(PM2.5),225,212,218,175,185,33,,,,54,56,7,9,1.6,1.5
2024-01-14T0100,2255A,130.2751,46.8028,佳木斯市,佳纺,细颗粒物(PM2.5),63,45,59,45,54,32,,,,45,31,9,10,0.8,0.8
2024-01-14T0100,2256A,130.3995,46.8307,佳木斯市,发电厂,细颗粒物(PM2.5),60,48,58,43,51,48,,,,30,37,16,14,0.8,0.9
2024-01-14T0100,2257A,130.3258,46.7975,佳木斯市,环保局,细颗粒物(PM2.5),58,41,47,41,43,47,,,,27,26,8,9,0.6,0.7
2024-01-14T0100,2258A,130.3648,46.8032,佳木斯市,十一中,细颗粒物(PM2.5),65,47,46,47,42,38,,,,35,32,9,8,0.8,0.8
2024-01-14T0100,2259A,130.3794,46.7588,佳木斯市,四丰,,47,47,46,30,29,71,,,,5,7,1,1,0.4,0.4
2024-01-14T0100,1252A,120.7436,30.778,嘉兴市,清河小学,细颗粒物(PM2.5),93,110,142,69,97,72,,,,42,81,10,12,1.1,1.4
2024-01-14T0100,1253A,120.726,30.7478,嘉兴市,嘉兴学院,细颗粒物(PM2.5),89,112,142,66,93,63,,,,45,75,11,12,0.8,1.2
2024-01-14T0100,2872A,120.7846,30.7525,嘉兴市,南湖区残联,细颗粒物(PM2.5),93,103,141,69,95,89,,,,40,85,12,14,0.6,1.1
2024-01-14T0100,3407A,120.6916,30.7739,嘉兴市,秀洲住建,细颗粒物(PM2.5),98,98,131,73,98,63,,,,52,82,12,14,0.6,1
2024-01-14T0100,1945A,98.2908,39.7711,嘉峪关市,气象局,颗粒物(PM10),134,217,214,53,59,45,,,,36,24,5,10,0.4,0.4
2024-01-14T0100,2884A,98.2672,39.7978,嘉峪关市,酒钢宾馆,颗粒物(PM10),120,190,215,58,60,18,,,,60,20,16,11,0.6,0.5
2024-01-14T0100,3248A,98.2643,39.7724,嘉峪关市,雄关区,颗粒物(PM10),111,172,173,50,46,5,,,,71,27,7,10,0.5,0.5
2024-01-14T0100,1383A,113.1064,22.6058,江门市,北街,,33,33,84,22,56,62,,,,43,66,8,9,0.7,0.9
2024-01-14T0100,1384A,113.0731,22.5835,江门市,西区,颗粒物(PM10),62,73,107,26,54,38,,,,75,64,8,8,0.7,0.9
2024-01-14T0100,1385A,113.0219,22.5311,江门市,圭峰西,颗粒物(PM10),52,53,81,25,62,73,,,,41,40,8,9,0.7,0.9
2024-01-14T0100,1386A,113.0828,22.5947,江门市,东湖,颗粒物(PM10),52,54,95,23,51,49,,,,52,57,8,8,0.8,0.9
2024-01-14T0100,3311A,113.1075,22.5647,江门市,江海富民,颗粒物(PM10),68,86,125,37,71,71,,,,51,53,10,10,0.6,0.7
2024-01-14T0100,3449A,113.05,22.4667,江门市,新会银湖,颗粒物(PM10),55,59,78,36,67,34,,,,30,34,7,9,0.8,0.9
2024-01-14T0100,1828A,113.227,35.2125,焦作市,市环保局,细颗粒物(PM2.5),380,385,341,330,279,8,,,,72,59,13,14,1.9,1.8
2024-01-14T0100,1830A,113.1992,35.2590,焦作市,影视城,,,,,,,,,,,,,,,,
2024-01-14T0100,3169A,113.2725,35.2067,焦作市,太极体育中心,细颗粒物(PM2.5),365,386,340,315,279,9,,,,78,60,14,18,2.0,1.8
2024-01-14T0100,3335A,113.3137,35.2641,焦作市,马村街道办,细颗粒物(PM2.5),397,406,325,347,266,7,,,,72,60,14,15,2.0,1.8
2024-01-14T0100,3336A,113.2465,35.2373,焦作市,焦作技师学院,细颗粒物(PM2.5),367,401,337,317,265,10,,,,70,60,15,17,2.1,1.9
2024-01-14T0100,3477A,113.1656,35.2539,焦作市,中站许衡医院,细颗粒物(PM2.5),243,265,290,193,227,26,,,,52,55,23,20,1.5,1.3
2024-01-14T0100,3981A,113.2449,35.1803,焦作市,原李万街道办,细颗粒物(PM2.5),360,356,330,310,277,12,,,,70,58,10,14,1.7,1.8
2024-01-14T0100,1708A,116.3701,23.5345,揭阳市,新兴,细颗粒物(PM2.5),54,47,96,38,64,67,,,,31,51,18,17,0.5,0.8
2024-01-14T0100,1709A,116.3264,23.5443,揭阳市,西马,细颗粒物(PM2.5),70,56,97,51,63,54,,,,40,44,13,14,1.1,0.9
2024-01-14T0100,1710A,116.3611,23.5626,揭阳市,东兴,颗粒物(PM10),61,71,93,41,53,32,,,,62,50,16,20,0.9,0.9
2024-01-14T0100,1711A,116.4151,23.5294,揭阳市,渔湖,颗粒物(PM10),60,70,90,34,51,41,,,,40,44,13,17,0.7,0.8
2024-01-14T0100,3320A,116.403,23.5699,揭阳市,曲溪,颗粒物(PM10),59,68,86,38,53,14,,,,66,46,14,18,0.8,0.7
2024-01-14T0100,1944A,102.1692,38.5167,金昌市,天庆家园,颗粒物(PM10),63,76,100,31,24,58,,,,21,27,28,23,0.5,0.3
2024-01-14T0100,3170A,102.1864,38.5253,金昌市,市委党校,颗粒物(PM10),71,91,112,28,31,71,,,,7,19,13,37,1.1,0.6
2024-01-14T0100,4022A,102.1647,38.5371,金昌市,金川区人防中心,颗粒物(PM10),71,92,120,25,25,74,,,,11,18,11,28,1.3,0.7
2024-01-14T0100,1262A,119.647,29.077,金华市,十五中,细颗粒物(PM2.5),92,128,96,68,54,4,,,,118,78,6,4,0.9,0.9
2024-01-14T0100,1263A,119.686,29.1029,金华市,监测站,细颗粒物(PM2.5),94,131,95,70,48,2,,,,101,71,6,6,0.7,0.7
2024-01-14T0100,3659A,119.656,29.1131,金华市,气象局,细颗粒物(PM2.5),103,138,108,77,56,3,,,,106,74,6,6,0.8,0.9
2024-01-14T0100,1767A,121.1115,41.0879,锦州市,南山,颗粒物(PM10),57,64,39,18,27,62,,,,10,27,14,24,0.3,0.5
2024-01-14T0100,1768A,121.0533,40.8434,锦州市,开发区,,,62,50,26,22,48,,,,,30,14,21,0.6,0.6
2024-01-14T0100,1769A,121.1836,41.1119,锦州市,百股街道,颗粒物(PM10),62,74,39,19,27,56,,,,13,26,23,20,0.7,0.8
2024-01-14T0100,1770A,121.1178,41.1222,锦州市,天安街道,颗粒物(PM10),51,52,42,13,27,62,,,,8,29,12,17,0.6,0.7
2024-01-14T0100,1771A,121.1303,41.1386,锦州市,北湖公园,,44,44,37,12,28,61,,,,11,28,13,17,0.6,0.8
2024-01-14T0100,2160A,112.85,35.5051,晋城市,自来水公司,细颗粒物(PM2.5),195,177,170,146,130,53,,,,40,49,5,11,1.2,1.5
2024-01-14T0100,2161A,112.8318,35.4936,晋城市,白云商贸,细颗粒物(PM2.5),201,210,177,151,122,23,,,,53,46,4,7,1.5,1.4
2024-01-14T0100,2162A,112.8508,35.4887,晋城市,市环保局,细颗粒物(PM2.5),211,192,184,161,126,30,,,,58,53,6,11,1.3,1.4
2024-01-14T0100,2163A,112.8676,35.4897,晋城市,技术学院,细颗粒物(PM2.5),206,178,167,156,118,39,,,,59,61,6,12,1.3,1.4
2024-01-14T0100,2165A,112.8453,35.546,晋城市,白马寺,,,,,,,,,,,,,,,,
2024-01-14T0100,3620A,112.8271,35.4828,晋城市,泽州一中,细颗粒物(PM2.5),195,185,168,146,121,64,,,,38,47,6,8,1.4,1.4
2024-01-14T0100,2171A,112.7532,37.6945,晋中市,锦纶小区,颗粒物(PM10),74,97,129,46,67,40,,,,38,67,14,22,0.6,1.2
2024-01-14T0100,2173A,112.7249,37.7067,晋中市,南都小区,颗粒物(PM10),79,108,129,53,69,34,,,,40,69,16,22,0.6,1.3
2024-01-14T0100,2174A,112.6991,37.6982,晋中市,榆次区政府,颗粒物(PM10),75,99,122,53,67,31,,,,44,66,19,23,0.5,1.1
2024-01-14T0100,2865A,112.7195,37.6828,晋中市,榆次三中,颗粒物(PM10),82,114,135,44,65,33,,,,42,68,15,21,0.7,1.2
2024-01-14T0100,2439A,112.2014,31.0481,荆门市,竹园小学,细颗粒物(PM2.5),179,171,168,135,126,22,,,,49,51,8,10,1.3,1.5
2024-01-14T0100,2440A,112.1969,30.9891,荆门市,掇刀,细颗粒物(PM2.5),215,184,160,165,132,64,,,,37,45,8,9,1.0,1.1
2024-01-14T0100,2441A,112.2213,31.0386,荆门市,石化一小,细颗粒物(PM2.5),229,222,170,179,141,46,,,,45,52,12,14,1.0,1.2
2024-01-14T0100,3012A,112.1849,31.0362,荆门市,西山林语,细颗粒物(PM2.5),170,161,141,129,99,79,,,,33,37,12,14,0.8,0.8
2024-01-14T0100,3547A,112.1632,31.0138,荆门市,龙泉中学南校,细颗粒物(PM2.5),148,172,151,113,111,55,,,,42,37,10,13,1.3,1.3
2024-01-14T0100,1844A,112.2494,30.3197,荆州市,市图书馆,细颗粒物(PM2.5),128,148,110,97,93,4,,,,83,54,7,8,1.8,1.6
2024-01-14T0100,1845A,112.2008,30.3544,荆州市,市委党校,细颗粒物(PM2.5),185,181,133,139,110,18,,,,52,60,6,7,1.4,1.3
2024-01-14T0100,3194A,112.2747,30.3122,荆州市,管委会,细颗粒物(PM2.5),122,133,117,92,91,4,,,,81,53,7,8,1.6,1.4
2024-01-14T0100,3548A,112.1655,30.3364,荆州市,学苑路,细颗粒物(PM2.5),238,,123,188,130,39,,,,39,65,6,7,1.4,1.4
2024-01-14T0100,2342A,117.3102,29.3867,景德镇市,王港中学,,,,,,,,,,,,,,,,
2024-01-14T0100,2343A,117.2117,29.2933,景德镇市,老干部活动中心,细颗粒物(PM2.5),57,60,62,40,39,3,,,,48,34,8,6,0.7,0.7
2024-01-14T0100,2344A,117.1894,29.2789,景德镇市,兽医站,颗粒物(PM10),61,71,59,43,36,12,,,,42,36,5,7,0.6,0.7
2024-01-14T0100,2345A,117.1547,29.2617,景德镇市,台达陶瓷,颗粒物(PM10),55,60,68,16,30,4,,,,52,43,8,12,0.7,0.8
2024-01-14T0100,2346A,117.2461,29.2956,景德镇市,陶研所,,48,48,51,23,26,3,,,,35,27,4,5,0.5,0.6
2024-01-14T0100,1803A,115.9872,29.6815,九江市,十里,细颗粒物(PM2.5),74,84,75,54,44,8,,,,61,57,10,12,1.0,1
2024-01-14T0100,1804A,115.9584,29.7046,九江市,茅山头,细颗粒物(PM2.5),117,141,82,88,50,5,,,,73,64,14,16,1.8,1
2024-01-14T0100,1805A,115.9877,29.7295,九江市,西园,细颗粒物(PM2.5),118,126,77,89,54,16,,,,77,63,14,12,1.6,0.7
2024-01-14T0100,1806A,116.0172,29.6547,九江市,五七二七厂,颗粒物(PM10),54,58,47,32,29,68,,,,25,28,9,11,1.2,0.9
2024-01-14T0100,1808A,115.9114,29.6038,九江市,综合工业园,细颗粒物(PM2.5),129,105,76,98,59,22,,,,109,57,13,13,1.3,1.1
2024-01-14T0100,1809A,116.0721,29.7535,九江市,石化总厂,细颗粒物(PM2.5),79,91,67,58,42,11,,,,79,39,16,15,0.9,0.7
2024-01-14T0100,1810A,115.9773,29.5698,九江市,庐山气象台,,32,,11,18,10,101,,,,4,3,6,6,0.8,0.7
2024-01-14T0100,3190A,116.0254,29.6994,九江市,外国语学校,细颗粒物(PM2.5),128,105,58,97,42,23,,,,80,43,14,12,1.0,0.6
2024-01-14T0100,2658A,98.5061,39.7443,酒泉市,仓门街子站,颗粒物(PM10),140,229,312,66,69,12,,,,49,19,4,7,0.9,0.6
2024-01-14T0100,2659A,98.4989,39.7256,酒泉市,油田生活基地,颗粒物(PM10),152,254,313,70,70,7,,,,54,23,5,8,0.9,0.6
2024-01-14T0100,2698A,76.0072,39.4467,喀什地区,巡警大队,颗粒物(PM10),165,279,265,66,55,40,,,,54,39,7,8,1.3,1.2
2024-01-14T0100,2699A,75.9755,39.4694,喀什地区,吾办,颗粒物(PM10),180,310,262,93,76,22,,,,80,62,8,7,2.3,1.9
2024-01-14T0100,4027A,75.9483,39.4689,喀什地区,老干局,颗粒物(PM10),286,410,276,122,64,17,,,,84,46,10,10,4.1,1.8
2024-01-14T0100,1824A,114.3389,34.7781,开封市,肿瘤医院,细颗粒物(PM2.5),373,391,360,323,288,17,,,,45,57,5,6,1.9,1.7
2024-01-14T0100,1826A,114.2885,34.7965,开封市,世纪星幼儿园,细颗粒物(PM2.5),410,376,335,365,320,32,,,,50,69,5,5,1.6,1.6
2024-01-14T0100,3147A,114.3438,34.8106,开封市,龙亭公园,细颗粒物(PM2.5),417,386,351,375,329,14,,,,63,72,4,4,1.8,1.7
2024-01-14T0100,3210A,114.3644,34.7964,开封市,汴京公园,细颗粒物(PM2.5),413,405,350,369,316,24,,,,55,66,2,2,1.7,1.5
2024-01-14T0100,3473A,114.2485,34.8306,开封市,技师学院,细颗粒物(PM2.5),414,373,348,370,327,13,,,,63,64,3,3,2.0,1.7
2024-01-14T0100,3592A,114.4644,34.7556,开封市,祥符区生态环境局,细颗粒物(PM2.5),422,451,390,382,319,13,,,,57,69,7,7,1.8,1.5
2024-01-14T0100,1951A,84.895,45.6094,克拉玛依市,长征新村,,18,18,8,12,6,57,,,,16,14,9,9,0.3,0.3
2024-01-14T0100,1952A,84.8988,45.5893,克拉玛依市,南林小区,,42,31,12,29,10,43,,,,28,21,2,3,0.2,0.2
2024-01-14T0100,1954A,84.905,44.3396,克拉玛依市,独山子区,,25,18,31,17,22,46,,,,16,22,4,5,0.5,0.5
2024-01-14T0100,1955A,85.6979,46.098,克拉玛依市,乌尔禾区商贸楼,,19,5,9,3,8,60,,,,13,14,6,6,0.2,0.2
2024-01-14T0100,3612A,85.1045,45.6899,克拉玛依市,白碱滩区新站,,17,11,10,3,4,53,,,,14,13,9,9,0.3,0.2
2024-01-14T0100,2697A,76.1454,39.7142,克孜勒苏柯尔克孜自治州,市人民政府,颗粒物(PM10),145,239,184,56,57,42,,,,20,18,5,5,0.7,0.8
2024-01-14T0100,3665A,76.1658,39.7157,克孜勒苏柯尔克孜自治州,克州文化中心,颗粒物(PM10),148,246,220,60,50,29,,,,39,24,9,9,0.8,0.7
2024-01-14T0100,1450A,102.8204,24.8886,昆明市,呈贡新区,,35,30,52,24,27,25,,,,49,34,9,8,0.6,0.6
2024-01-14T0100,1451A,102.6251,24.9608,昆明市,西山森林公园,,43,,20,30,14,75,,,,14,13,13,10,0.7,0.7
2024-01-14T0100,1452A,102.7252,25.0902,昆明市,龙泉镇,颗粒物(PM10),68,86,46,38,25,4,,,,63,42,9,9,0.9,0.7
2024-01-14T0100,1453A,102.7266,25.0375,昆明市,东风东路,颗粒物(PM10),58,65,43,37,29,10,,,,60,40,12,11,1.0,0.9
2024-01-14T0100,1454A,102.6742,25.0669,昆明市,金鼎山,"颗粒物(PM10),细颗粒物(PM2.5)",72,93,48,52,29,7,,,,62,37,21,24,1.1,0.8
2024-01-14T0100,1455A,102.6644,25.0401,昆明市,碧鸡广场,,50,50,46,30,28,23,,,,46,40,10,13,0.6,0.7
2024-01-14T0100,3179A,102.7494,25.0119,昆明市,官渡区博物馆,颗粒物(PM10),56,61,56,38,31,12,,,,58,41,10,10,0.8,0.9
2024-01-14T0100,3375A,102.8017,24.8336,昆明市,青年创业园,,32,32,32,19,19,25,,,,43,25,18,12,0.6,0.6
2024-01-14T0100,3550A,102.7997,24.9786,昆明市,昆明学院,,47,47,60,27,30,19,,,,52,36,17,12,0.7,0.6
2024-01-14T0100,3551A,102.5967,24.6736,昆明市,晋宁区生态环境分局,颗粒物(PM10),53,56,44,27,29,51,,,,18,25,3,3,0.4,0.5
2024-01-14T0100,3552A,102.6678,24.9856,昆明市,云天化总部,颗粒物(PM10),53,56,41,25,23,6,,,,68,40,7,5,0.7,1.1
2024-01-14T0100,1456A,91.1319,29.6514,拉萨市,八廓街,颗粒物(PM10),51,52,25,35,17,9,,,,61,31,8,7,1.2,0.5
2024-01-14T0100,1457A,91.1221,29.6747,拉萨市,市环保局,细颗粒物(PM2.5),125,112,40,95,29,13,,,,57,30,13,8,3.7,1.2
2024-01-14T0100,1458A,91.0874,29.6475,拉萨市,区监测站,,44,44,18,29,12,10,,,,68,32,6,4,2.0,0.7
2024-01-14T0100,1459A,91.1774,29.6541,拉萨市,西藏大学,,28,27,17,19,11,45,,,,25,14,5,5,1.0,0.6
2024-01-14T0100,1460A,90.9798,29.6588,拉萨市,区辐射站,细颗粒物(PM2.5),87,85,40,64,30,10,,,,63,37,9,8,1.9,1
2024-01-14T0100,1461A,91.0834,29.6292,拉萨市,拉萨火车站,,43,40,21,30,14,12,,,,66,32,5,4,1.4,1
2024-01-14T0100,2520A,109.2203,23.7256,来宾市,来宾技工学校,颗粒物(PM10),65,79,48,42,34,6,,,,37,29,5,7,1.6,1.5
2024-01-14T0100,3535A,109.1781,23.7297,来宾市,兴宾区政府,细颗粒物(PM2.5),57,56,42,40,32,10,,,,28,27,6,8,1.2,1.2
2024-01-14T0100,4002A,109.2416,23.7461,来宾市,中南小学,颗粒物(PM10),61,72,48,32,33,4,,,,35,27,8,9,1.4,1.4
2024-01-14T0100,1476A,103.631,36.1031,兰州市,兰炼宾馆,颗粒物(PM10),79,108,122,40,54,6,,,,74,72,14,25,0.7,1.5
2024-01-14T0100,1477A,104.1373,35.9454,兰州市,榆中兰大校区,,,,,,,,,,,,,,,,
2024-01-14T0100,1478A,103.8412,36.0726,兰州市,生物制品所,颗粒物(PM10),77,103,129,38,57,4,,,,74,69,10,23,0.7,1.7
2024-01-14T0100,1479A,103.831,36.0464,兰州市,铁路设计院,颗粒物(PM10),72,93,124,42,60,4,,,,80,75,15,31,1.1,2.3
2024-01-14T0100,3186A,103.7158,36.1058,兰州市,教育港,颗粒物(PM10),76,101,119,40,51,2,,,,70,76,10,21,0.8,1.7
2024-01-14T0100,3241A,103.7439,36.0842,兰州市,百合公园,颗粒物(PM10),78,105,119,45,55,6,,,,72,73,15,20,1.6,2
2024-01-14T0100,3242A,103.9611,35.998,兰州市,和平,颗粒物(PM10),75,100,127,41,54,36,,,,41,52,7,24,0.7,1.7
2024-01-14T0100,3245A,103.6633,36.533,兰州新区,新区管委会,颗粒物(PM10),68,85,91,27,32,31,,,,26,25,8,22,0.6,0.7
2024-01-14T0100,3246A,103.6975,36.4789,兰州新区,舟曲中学,颗粒物(PM10),88,125,105,31,29,42,,,,37,29,14,25,0.6,0.7
2024-01-14T0100,1067A,116.6708,39.5111,廊坊市,药材公司,颗粒物(PM10),70,90,88,37,44,7,,,,67,57,2,4,0.8,1.1
2024-01-14T0100,1068A,116.7214,39.5589,廊坊市,开发区,"颗粒物(PM10),细颗粒物(PM2.5)",62,74,80,44,53,3,,,,78,64,3,4,0.8,0.9
2024-01-14T0100,1070A,116.7244,39.5269,廊坊市,北华航天学院,细颗粒物(PM2.5),63,69,80,45,50,6,,,,65,51,4,5,0.8,0.9
2024-01-14T0100,2919A,116.7022,39.5453,廊坊市,河北工业大学,颗粒物(PM10),60,70,78,39,47,5,,,,61,50,3,4,0.7,0.8
2024-01-14T0100,2535A,103.7723,29.5462,乐山市,花湖湾,细颗粒物(PM2.5),233,229,182,183,126,5,,,,52,36,4,4,1.1,0.9
2024-01-14T0100,2536A,103.7627,29.5844,乐山市,牛耳桥,细颗粒物(PM2.5),200,185,131,150,110,7,,,,56,44,5,5,1.2,1
2024-01-14T0100,2537A,103.7508,29.6006,乐山市,市第三水厂,细颗粒物(PM2.5),165,182,144,125,100,5,,,,58,46,4,5,1.2,1
2024-01-14T0100,2538A,103.7571,29.5664,乐山市,市监测站,细颗粒物(PM2.5),145,169,124,111,92,8,,,,49,40,8,8,1.2,1.1
2024-01-14T0100,3361A,103.7311,29.5628,乐山市,理工大学,细颗粒物(PM2.5),189,175,151,142,123,10,,,,47,43,8,9,0.9,0.8
2024-01-14T0100,2598A,100.2143,26.8576,丽江市,西南郊,,,,,,,,,,,,,,,,
2024-01-14T0100,2599A,100.2497,26.8802,丽江市,丽江古城,颗粒物(PM10),55,59,60,34,34,48,,,,29,24,8,8,0.8,0.7
2024-01-14T0100,2600A,100.2203,26.8906,丽江市,市中心,,36,36,37,25,26,57,,,,17,19,6,7,0.7,0.7
2024-01-14T0100,1267A,119.914,28.4514,丽水市,监测站大楼,细颗粒物(PM2.5),90,88,70,67,43,5,,,,52,49,5,7,1.2,1.1
2024-01-14T0100,1268A,119.93,28.4586,丽水市,莲都小学,"颗粒物(PM10),细颗粒物(PM2.5)",59,67,71,42,54,16,,,,65,51,4,4,0.5,0.6
2024-01-14T0100,1269A,119.879,28.4231,丽水市,余庄前,颗粒物(PM10),56,61,59,37,33,10,,,,39,38,4,5,0.5,0.5
2024-01-14T0100,1173A,119.176,34.5885,连云港市,市环境监测站,细颗粒物(PM2.5),225,188,126,175,109,77,,,,23,45,6,5,1.1,1.1
2024-01-14T0100,3000A,119.3581,34.6972,连云港市,德源药业,细颗粒物(PM2.5),218,197,132,168,101,81,,,,28,52,7,6,1.2,1.2
2024-01-14T0100,3007A,119.178,34.844,连云港市,新城一中,颗粒物(PM10),60,69,85,23,39,18,,,,73,39,7,7,1.3,1.1
2024-01-14T0100,3008A,119.3608,34.7519,连云港市,胡沟管理处,细颗粒物(PM2.5),185,153,80,139,74,76,,,,38,45,11,9,1.5,1.2
2024-01-14T0100,3009A,119.1478,34.5911,连云港市,矿山设计院,细颗粒物(PM2.5),201,188,113,151,80,70,,,,31,51,5,5,1.3,1.3
2024-01-14T0100,3434A,119.2413,34.6539,连云港市,工贸学校,细颗粒物(PM2.5),200,189,120,150,85,87,,,,29,50,13,8,1.4,1.3
2024-01-14T0100,3664A,119.4172,34.7341,连云港市,连云街道,细颗粒物(PM2.5),215,199,145,165,113,78,,,,40,56,12,7,1.6,1.2
2024-01-14T0100,2571A,102.3431,27.8099,凉山彝族自治州,青龙寺,颗粒物(PM10),81,112,161,30,43,72,,,,15,19,6,9,1.0,1.4
2024-01-14T0100,2572A,102.2721,27.8415,凉山彝族自治州,邛海宾馆,细颗粒物(PM2.5),173,140,163,131,146,58,,,,29,34,11,13,1.2,1.4
2024-01-14T0100,2573A,102.2625,27.898,凉山彝族自治州,西昌市政府,细颗粒物(PM2.5),212,190,150,162,129,56,,,,23,29,11,13,1.3,1.3
2024-01-14T0100,2574A,102.2685,27.8851,凉山彝族自治州,凉山州政府,细颗粒物(PM2.5),212,192,154,162,128,29,,,,46,40,9,11,1.4,1.3
2024-01-14T0100,2575A,102.237,27.8914,凉山彝族自治州,长安,细颗粒物(PM2.5),225,216,170,175,131,21,,,,61,54,16,18,1.5,1.2
2024-01-14T0100,2212A,123.2,41.1953,辽阳市,宏伟区,颗粒物(PM10),63,76,46,27,26,23,,,,33,27,16,16,1.3,1
2024-01-14T0100,2213A,123.1683,41.2495,辽阳市,新华园,颗粒物(PM10),61,71,82,39,46,24,,,,35,52,10,22,1.1,1.6
2024-01-14T0100,2214A,123.2354,41.2639,辽阳市,滨河路,颗粒物(PM10),68,86,62,43,45,30,,,,30,38,13,15,1.2,1.3
2024-01-14T0100,2215A,123.149,41.2991,辽阳市,铁西工业园,细颗粒物(PM2.5),87,71,94,64,79,22,,,,34,55,14,24,1.3,2
2024-01-14T0100,2227A,125.1358,42.8845,辽源市,环保局,,48,47,52,33,38,29,,,,45,33,16,12,1.1,1
2024-01-14T0100,3239A,125.0764,42.9078,辽源市,银鹰制药,,48,48,58,31,45,36,,,,36,32,25,15,0.9,0.9
2024-01-14T0100,1625A,115.9848,36.4372,聊城市,区政府,细颗粒物(PM2.5),298,284,364,248,289,10,,,,76,83,4,8,2.4,2.4
2024-01-14T0100,2878A,116.0072,36.4343,聊城市,聊大东校,细颗粒物(PM2.5),316,273,346,266,304,7,,,,76,84,4,10,2.4,2.3
2024-01-14T0100,3200A,115.9819,36.4978,聊城市,监控中心,细颗粒物(PM2.5),240,300,376,190,263,5,,,,71,93,4,9,2.6,2.6
2024-01-14T0100,3513A,116.0445,36.4361,聊城市,九州社区,细颗粒物(PM2.5),301,287,344,251,280,7,,,,80,85,8,15,1.9,1.7
2024-01-14T0100,4018A,116.0567,36.4608,聊城市,星美广场,细颗粒物(PM2.5),287,272,332,237,271,9,,,,76,89,5,12,1.9,1.8
2024-01-14T0100,2632A,94.3681,29.6376,林芝市,林芝监测站,细颗粒物(PM2.5),62,53,14,44,12,11,,,,48,17,8,7,1.5,0.6
2024-01-14T0100,2633A,94.3616,29.6616,林芝市,林芝人民医院,,15,11,11,7,8,45,,,,14,11,9,9,0.5,0.5
2024-01-14T0100,2603A,100.0781,23.8982,临沧市,市环保局,,40,32,30,28,24,39,,,,14,14,7,8,0.5,0.5
2024-01-14T0100,2604A,100.0894,23.8822,临沧市,市气象局,,46,40,35,32,28,37,,,,17,15,7,6,0.4,0.3
2024-01-14T0100,1733A,111.5531,36.0783,临汾市,临钢医院,细颗粒物(PM2.5),265,300,198,215,129,5,,,,66,56,8,16,2.3,1.7
2024-01-14T0100,1734A,111.5028,36.0714,临汾市,技工学校,细颗粒物(PM2.5),295,334,213,245,147,22,,,,75,62,26,21,3.0,2
2024-01-14T0100,1736A,111.5018,36.0855,临汾市,市委,细颗粒物(PM2.5),294,342,218,244,145,29,,,,78,67,24,22,3.1,2.1
2024-01-14T0100,3018A,111.505,36.1014,临汾市,唐尧大酒店,细颗粒物(PM2.5),269,294,196,219,141,10,,,,76,66,17,20,2.6,1.8
2024-01-14T0100,3668A,111.5036,36.0414,临汾市,城南,细颗粒物(PM2.5),266,318,208,216,142,9,,,,65,62,11,16,2.8,1.9
2024-01-14T0100,2667A,103.2069,35.5993,临夏回族自治州,环保局,颗粒物(PM10),61,72,59,32,30,7,,,,42,40,22,24,1.9,2.2
2024-01-14T0100,2668A,103.2417,35.6057,临夏回族自治州,建设大厦,颗粒物(PM10),68,85,54,38,26,24,,,,19,22,13,16,1.3,1.1
2024-01-14T0100,1618A,118.3429,35.0532,临沂市,沂河小区,细颗粒物(PM2.5),147,117,151,112,131,29,,,,55,59,2,3,1.0,1.5
2024-01-14T0100,1619A,118.295,35.0583,临沂市,鲁南制药厂,细颗粒物(PM2.5),178,146,177,134,147,5,,,,77,66,4,6,1.6,1.8
2024-01-14T0100,1620A,118.2794,34.9976,临沂市,新光毛纺厂,细颗粒物(PM2.5),160,139,194,122,147,8,,,,66,62,3,7,1.4,1.8
2024-01-14T0100,1621A,118.3956,35.0888,临沂市,河东保险公司,细颗粒物(PM2.5),85,85,133,63,102,16,,,,50,56,2,3,1.2,1.7
2024-01-14T0100,3370A,118.3564,35.0215,临沂市,十里堡居委,细颗粒物(PM2.5),132,114,146,100,116,21,,,,52,53,1,3,1.2,1.7
2024-01-14T0100,3496A,118.3604,35.1084,临沂市,南坊新区,细颗粒物(PM2.5),119,110,139,90,113,20,,,,54,63,4,6,1.2,1.7
2024-01-14T0100,3860A,118.3920,35.0300,临沂市,皇山花园小区,细颗粒物(PM2.5),87,92,131,64,93,21,,,,57,69,3,5,1.3,1.8
2024-01-14T0100,1870A,109.4856,24.3895,柳州市,柳东小学,细颗粒物(PM2.5),62,64,43,44,36,22,,,,26,25,10,8,1.4,1.3
2024-01-14T0100,1871A,109.4157,24.3277,柳州市,环保监测站,细颗粒物(PM2.5),77,79,63,56,47,0,,,,38,38,11,11,1.6,1.6
2024-01-14T0100,1872A,109.389,24.341,柳州市,河西水厂,"颗粒物(PM10),细颗粒物(PM2.5)",60,69,61,43,39,0,,,,26,29,8,13,1.3,1.3
2024-01-14T0100,1873A,109.4311,24.2921,柳州市,市四中,细颗粒物(PM2.5),84,99,66,62,46,2,,,,40,38,14,12,1.9,1.7
2024-01-14T0100,1874A,109.4006,24.3631,柳州市,市九中,细颗粒物(PM2.5),72,83,70,52,46,4,,,,29,32,6,9,1.3,1.4
2024-01-14T0100,1875A,109.4958,24.3134,柳州市,古亭山,细颗粒物(PM2.5),64,64,45,46,36,1,,,,31,26,9,10,1.7,1.3
2024-01-14T0100,3402A,109.5422,24.3996,柳州市,市二中,细颗粒物(PM2.5),70,71,44,51,33,5,,,,33,24,8,7,1.6,1.2
2024-01-14T0100,2307A,116.5079,31.737,六安市,监测大楼,细颗粒物(PM2.5),63,48,66,45,61,49,,,,43,45,4,5,0.7,0.8
2024-01-14T0100,2308A,116.4738,31.7643,六安市,皖西学院,颗粒物(PM10),64,77,82,45,53,47,,,,40,37,4,4,0.8,0.8
2024-01-14T0100,2309A,116.4996,31.7905,六安市,朝阳厂,细颗粒物(PM2.5),68,57,78,49,64,50,,,,35,37,5,7,0.6,0.8
2024-01-14T0100,2310A,116.5567,31.7886,六安市,开发区,细颗粒物(PM2.5),93,124,116,69,76,44,,,,41,45,7,11,0.7,0.7
2024-01-14T0100,2576A,104.8,26.5892,六盘水市,窑上,,,,,,,,,,,,,,,,
2024-01-14T0100,2577A,104.83,26.5917,六盘水市,黄土坡,,46,41,39,32,29,56,,,,12,16,7,10,0.7,0.7
2024-01-14T0100,2578A,104.89,26.5939,六盘水市,水钢,,39,28,36,27,26,60,,,,8,12,3,5,0.7,0.7
2024-01-14T0100,2579A,104.8475,26.5894,六盘水市,民中,细颗粒物(PM2.5),62,,34,44,26,48,,,,16,17,8,9,1.0,0.8
2024-01-14T0100,2580A,104.9544,26.5506,六盘水市,双水,,32,29,29,22,22,57,,,,7,10,6,7,0.6,0.6
2024-01-14T0100,2335A,117.0189,25.1181,龙岩市,龙岩师专,,,,,,,,,,,,,,,,
2024-01-14T0100,2336A,117.0217,25.1033,龙岩市,龙岩市监测站,,45,45,46,28,25,20,,,,43,29,10,12,0.6,0.6
2024-01-14T0100,2337A,117.0258,25.0661,龙岩市,闽西职业技术学院,颗粒物(PM10),51,52,56,29,29,57,,,,34,28,21,14,0.6,0.6
2024-01-14T0100,2338A,117.0196,25.0306,龙岩市,龙岩学院,,38,31,40,26,28,61,,,,16,19,5,6,0.5,0.5
2024-01-14T0100,2665A,105.0822,33.3261,陇南市,汉王镇固水子,,,,,,,,,,,,,,,,
2024-01-14T0100,2885A,104.9339,33.3826,陇南市,滨江中学,,,,,,,,,,,,,,,,
2024-01-14T0100,3247A,104.955,33.371,陇南市,市总工会,颗粒物(PM10),65,80,68,46,40,41,,,,21,25,18,16,0.6,0.8
2024-01-14T0100,2487A,111.9589,27.8901,娄底市,电视发射台,细颗粒物(PM2.5),62,59,68,44,48,17,,,,20,28,5,12,1.5,2.2
2024-01-14T0100,2488A,111.9975,27.725,娄底市,市监测站,细颗粒物(PM2.5),95,90,126,71,91,7,,,,50,41,10,18,1.5,1.9
2024-01-14T0100,2489A,112.0194,27.7314,娄底市,市委党校,细颗粒物(PM2.5),82,66,104,60,78,9,,,,42,38,7,12,1.2,1.6
2024-01-14T0100,2490A,111.9561,27.7569,娄底市,涟钢,细颗粒物(PM2.5),85,100,109,63,80,2,,,,39,40,11,21,1.3,2.1
2024-01-14T0100,2491A,111.9892,27.7044,娄底市,市政府,细颗粒物(PM2.5),85,100,98,63,69,6,,,,37,28,8,12,0.9,1.2
2024-01-14T0100,1893A,105.4324,28.9634,泸州市,九狮山,细颗粒物(PM2.5),192,149,156,144,148,43,,,,26,32,7,8,0.7,0.8
2024-01-14T0100,1894A,105.4427,28.9063,泸州市,小市上码头,细颗粒物(PM2.5),180,154,187,136,160,49,,,,20,33,8,11,1.0,1.1
2024-01-14T0100,1895A,105.4241,28.8573,泸州市,兰田宪桥,细颗粒物(PM2.5),180,152,197,136,177,50,,,,23,40,7,9,0.8,1.1
2024-01-14T0100,1896A,105.4379,28.8833,泸州市,市环监站,细颗粒物(PM2.5),159,139,177,121,170,43,,,,23,35,6,10,0.5,0.8
2024-01-14T0100,3490A,105.3617,28.7703,泸州市,纳溪区环保局,细颗粒物(PM2.5),168,140,170,127,158,47,,,,24,43,7,8,1.1,1.4
2024-01-14T0100,2183A,111.1406,37.5211,吕梁市,环保局,颗粒物(PM10),78,106,96,31,38,43,,,,27,54,7,6,0.7,0.8
2024-01-14T0100,2185A,111.1297,37.5136,吕梁市,自来水公司,颗粒物(PM10),83,115,90,31,38,48,,,,29,43,9,11,0.6,0.7
2024-01-14T0100,2867A,111.1283,37.51,吕梁市,马茂庄小学,颗粒物(PM10),88,126,102,35,42,48,,,,25,45,6,8,0.5,0.6
2024-01-14T0100,1812A,112.3931,34.6516,洛阳市,市委党校,细颗粒物(PM2.5),336,347,313,286,254,3,,,,70,70,4,14,1.9,1.8
2024-01-14T0100,1814A,112.4657,34.6871,洛阳市,豫西宾馆,细颗粒物(PM2.5),323,376,349,273,235,6,,,,62,66,7,8,3.2,2.1
2024-01-14T0100,1815A,112.494,34.6886,洛阳市,河南林校,细颗粒物(PM2.5),326,356,315,276,243,3,,,,63,66,7,7,2.3,1.9
2024-01-14T0100,1816A,112.3844,34.623,洛阳市,开发区管委会,细颗粒物(PM2.5),311,317,294,261,234,3,,,,60,62,3,4,1.7,1.6
2024-01-14T0100,1817A,112.4267,34.6258,洛阳市,市委新办公区,细颗粒物(PM2.5),377,328,296,327,282,8,,,,61,60,4,5,2.0,1.9
2024-01-14T0100,3340A,112.6005,34.6326,洛阳市,伊滨,细颗粒物(PM2.5),311,414,338,261,220,7,,,,71,66,2,3,2.0,1.7
2024-01-14T0100,3341A,112.4951,34.6332,洛阳市,中移产业园,细颗粒物(PM2.5),355,338,292,305,261,4,,,,76,70,6,8,2.2,2
2024-01-14T0100,3593A,112.5736,34.8993,洛阳市,吉利监测站,细颗粒物(PM2.5),332,332,348,282,273,2,,,,45,63,5,6,1.7,2
2024-01-14T0100,3635A,112.3677,34.662,洛阳市,河科大西苑校区,细颗粒物(PM2.5),391,434,346,341,263,5,,,,55,65,13,17,2.1,1.6
2024-01-14T0100,3636A,112.4388,34.6781,洛阳市,英才小学,细颗粒物(PM2.5),383,432,345,333,252,5,,,,60,60,8,7,2.4,1.9
2024-01-14T0100,2399A,114.051,33.5699,漯河市,三五一五工厂,细颗粒物(PM2.5),416,413,321,374,297,19,,,,62,63,6,8,1.4,1.2
2024-01-14T0100,2400A,114.0055,33.5698,漯河市,漯河大学,细颗粒物(PM2.5),385,368,297,335,260,22,,,,63,62,5,8,1.4,1.3
2024-01-14T0100,2401A,114.0138,33.5828,漯河市,市水利局,细颗粒物(PM2.5),403,407,319,354,273,26,,,,55,61,8,9,1.5,1.3
2024-01-14T0100,2402A,114.0261,33.5698,漯河市,市广电局,细颗粒物(PM2.5),401,410,320,351,276,27,,,,59,65,3,5,1.5,1.4
2024-01-14T0100,3478A,113.9749,33.5664,漯河市,市图书馆,细颗粒物(PM2.5),401,411,316,351,270,18,,,,59,58,8,9,1.2,1.1
2024-01-14T0100,3479A,114.0967,33.5906,漯河市,召陵区卫健委,细颗粒物(PM2.5),402,425,337,353,276,34,,,,42,56,6,8,1.5,1.3
2024-01-14T0100,1798A,118.5092,31.6837,马鞍山市,湖东路四小,细颗粒物(PM2.5),123,150,121,93,77,69,,,,50,50,11,10,0.8,0.9
2024-01-14T0100,1799A,118.5024,31.6449,马鞍山市,开发区,细颗粒物(PM2.5),138,149,115,105,86,56,,,,59,55,12,12,1.0,1
2024-01-14T0100,1800A,118.5228,31.7231,马鞍山市,慈湖,细颗粒物(PM2.5),133,132,110,101,91,71,,,,60,58,8,9,0.9,1
2024-01-14T0100,1802A,118.6245,31.7241,马鞍山市,濮塘,细颗粒物(PM2.5),113,134,91,85,56,72,,,,39,27,10,8,0.8,0.8
2024-01-14T0100,3633A,118.4918,31.6809,马鞍山市,雨山,细颗粒物(PM2.5),129,137,110,98,79,64,,,,51,52,10,10,0.9,1
2024-01-14T0100,1686A,111.0286,21.4688,茂名市,电白南海,,39,39,72,22,44,120,,,,21,24,8,12,0.4,0.6
2024-01-14T0100,1687A,110.9294,21.6533,茂名市,茂石化七小,,46,46,80,29,53,126,,,,14,15,10,12,0.7,0.9
2024-01-14T0100,1688A,110.9107,21.6687,茂名市,健康路,,41,41,75,27,48,126,,,,17,19,8,9,0.4,0.7
2024-01-14T0100,1689A,110.8592,21.6828,茂名市,高岭,,46,46,90,24,47,122,,,,27,27,16,15,0.7,0.9
2024-01-14T0100,3450A,111.01,21.5165,茂名市,电白水东,,48,48,72,31,45,114,,,,21,21,18,9,0.5,0.6
2024-01-14T0100,2539A,104.0308,30.0478,眉山市,黑龙滩水库,细颗粒物(PM2.5),84,99,94,62,64,7,,,,53,18,6,6,0.9,0.7
2024-01-14T0100,2540A,103.8416,30.0874,眉山市,气象局,细颗粒物(PM2.5),221,194,157,171,132,4,,,,70,62,9,9,1.4,1.3
2024-01-14T0100,3137A,103.8578,30.0744,眉山市,市委党校,细颗粒物(PM2.5),230,219,159,180,125,3,,,,81,64,13,9,1.3,1
2024-01-14T0100,3148A,103.8291,30.0564,眉山市,区人社局,细颗粒物(PM2.5),230,196,136,180,132,4,,,,73,69,9,11,1.3,1.1
2024-01-14T0100,1690A,116.1231,24.3284,梅州市,梅江月梅,细颗粒物(PM2.5),60,66,53,43,34,11,,,,70,40,8,9,0.6,0.6
2024-01-14T0100,1691A,116.0797,24.2719,梅州市,梅县新城,细颗粒物(PM2.5),65,62,57,47,41,23,,,,44,40,5,6,0.8,0.8
2024-01-14T0100,1692A,116.1248,24.2654,梅州市,环境监控中心,细颗粒物(PM2.5),75,82,61,55,43,4,,,,82,46,11,12,0.8,0.7
2024-01-14T0100,3315A,116.1233,24.2991,梅州市,梅龙,细颗粒物(PM2.5),68,73,63,49,42,4,,,,59,39,6,7,0.9,0.9
2024-01-14T0100,1878A,104.7778,31.4741,绵阳市,富乐山,细颗粒物(PM2.5),158,147,152,120,130,7,,,,67,47,7,7,1.2,1.1
2024-01-14T0100,1879A,104.7563,31.4535,绵阳市,市人大,细颗粒物(PM2.5),192,207,209,144,151,9,,,,63,62,3,3,1.1,1.2
2024-01-14T0100,1880A,104.6697,31.4668,绵阳市,高新区自来水公司,细颗粒物(PM2.5),155,175,200,118,135,2,,,,62,54,7,8,1.2,1.3
2024-01-14T0100,1881A,104.7287,31.5075,绵阳市,三水厂,细颗粒物(PM2.5),205,198,213,155,155,4,,,,60,53,6,7,1.3,1.3
2024-01-14T0100,3491A,104.69,31.5322,绵阳市,西科大附属小学,细颗粒物(PM2.5),168,157,192,127,147,8,,,,62,57,7,7,1.3,1.4
2024-01-14T0100,3492A,104.5648,31.5343,绵阳市,安州区旅游局,细颗粒物(PM2.5),150,142,179,115,136,20,,,,43,40,5,5,1.2,1.3
2024-01-14T0100,1784A,129.61,44.561,牡丹江市,环保大楼,细颗粒物(PM2.5),78,82,67,57,45,40,,,,38,39,18,14,0.7,0.6
2024-01-14T0100,1785A,129.6115,44.5782,牡丹江市,文化广场,细颗粒物(PM2.5),88,70,70,65,54,39,,,,36,42,17,15,1.0,1
2024-01-14T0100,1786A,129.5904,44.5963,牡丹江市,第一医院,细颗粒物(PM2.5),85,83,75,63,65,24,,,,47,39,14,14,1.1,1
2024-01-14T0100,1787A,129.6364,44.6075,牡丹江市,机车工厂,细颗粒物(PM2.5),79,86,79,58,56,29,,,,40,44,18,14,0.9,1
2024-01-14T0100,1788A,129.6386,44.5462,牡丹江市,第一中学,细颗粒物(PM2.5),63,58,56,45,48,31,,,,32,32,15,13,0.9,0.8
2024-01-14T0100,2531A,105.0703,29.61,内江市,市监测站,细颗粒物(PM2.5),138,117,93,105,94,47,,,,20,34,7,9,0.7,0.8
2024-01-14T0100,2532A,105.0717,29.5947,内江市,东兴区政府,细颗粒物(PM2.5),130,106,91,99,82,46,,,,14,27,8,10,0.7,0.7
2024-01-14T0100,2533A,105.0653,29.5817,内江市,内江二中,细颗粒物(PM2.5),133,101,92,101,86,49,,,,24,39,8,9,0.9,0.9
2024-01-14T0100,2534A,105.0406,29.5822,内江市,内江日报社,细颗粒物(PM2.5),128,100,93,97,86,49,,,,26,47,7,9,0.8,0.8
2024-01-14T0100,2628A,92.0657,31.4846,那曲市,那曲监测站,细颗粒物(PM2.5),64,65,54,46,32,32,,,,16,14,8,10,1.5,1.4
2024-01-14T0100,3128A,92.0506,31.4797,那曲市,那曲会议中心,,50,50,42,22,20,22,,,,30,20,10,9,1.4,0.9
2024-01-14T0100,1290A,115.8931,28.6843,南昌市,省外办,细颗粒物(PM2.5),128,150,153,97,87,11,,,,74,68,9,11,2.3,1.7
2024-01-14T0100,1291A,115.8886,28.7003,南昌市,省林业公司,细颗粒物(PM2.5),83,95,120,61,67,3,,,,94,80,10,14,1.0,1
2024-01-14T0100,1292A,115.8126,28.7442,南昌市,林科所,,45,39,79,31,48,46,,,,52,55,14,13,0.8,1
2024-01-14T0100,1294A,115.8518,28.687,南昌市,建工学校,细颗粒物(PM2.5),119,104,117,90,67,2,,,,84,69,13,17,1.2,1.2
2024-01-14T0100,1295A,115.8921,28.6424,南昌市,象湖,细颗粒物(PM2.5),128,193,137,97,78,1,,,,96,77,11,12,2.2,1.9
2024-01-14T0100,1296A,115.7423,28.7996,南昌市,武术学校,,50,50,36,8,14,11,,,,11,16,9,10,0.7,0.7
2024-01-14T0100,1298A,115.9314,28.6842,南昌市,省站,细颗粒物(PM2.5),128,183,140,97,73,5,,,,84,59,14,16,1.7,1.3
2024-01-14T0100,3046A,115.9084,28.6062,南昌市,机电学校,细颗粒物(PM2.5),128,158,137,97,72,7,,,,92,71,14,17,1.2,1.1
2024-01-14T0100,3690A,115.9721,28.7031,南昌市,外国语学校,细颗粒物(PM2.5),115,131,108,87,63,2,,,,81,56,12,14,1.2,0.9
2024-01-14T0100,1905A,106.056,30.8064,南充市,西山风景区,细颗粒物(PM2.5),125,,93,95,101,51,,,,15,20,6,5,0.9,0.9
2024-01-14T0100,1906A,106.0789,30.8023,南充市,南充市委,细颗粒物(PM2.5),139,,115,106,88,15,,,,39,39,6,7,0.9,0.9
2024-01-14T0100,1907A,106.1031,30.8217,南充市,南充炼油厂,细颗粒物(PM2.5),134,120,127,102,107,22,,,,28,32,6,6,0.8,0.8
2024-01-14T0100,1908A,106.1064,30.7856,南充市,高坪区监测站,细颗粒物(PM2.5),142,128,130,108,102,18,,,,32,34,6,6,0.7,0.6
2024-01-14T0100,1909A,106.0642,30.7636,南充市,嘉陵区环保局,细颗粒物(PM2.5),128,126,123,97,93,7,,,,48,40,6,5,0.9,0.8
2024-01-14T0100,1910A,106.1087,30.8388,南充市,市环境监测站,细颗粒物(PM2.5),119,114,128,90,95,33,,,,19,28,6,7,0.7,0.7
2024-01-14T0100,1151A,118.8086,32.1065,南京市,迈皋桥,细颗粒物(PM2.5),117,123,127,88,80,83,,,,27,54,4,6,0.5,0.9
2024-01-14T0100,1152A,118.7538,32.0551,南京市,草场门,细颗粒物(PM2.5),125,129,116,95,76,74,,,,55,72,8,8,0.8,1.1
2024-01-14T0100,1153A,118.7794,32.0745,南京市,山西路,细颗粒物(PM2.5),144,142,132,110,88,90,,,,44,60,12,12,0.6,0.9
2024-01-14T0100,1154A,118.7752,32.0023,南京市,中华门,细颗粒物(PM2.5),138,136,119,105,82,73,,,,49,73,14,13,0.8,1
2024-01-14T0100,1155A,118.8109,32.0309,南京市,瑞金路,细颗粒物(PM2.5),132,139,119,100,78,70,,,,50,60,4,4,0.8,1.1
2024-01-14T0100,1156A,118.7997,32.0754,南京市,玄武湖,细颗粒物(PM2.5),123,140,119,93,75,79,,,,32,46,11,10,0.7,0.9
2024-01-14T0100,1157A,118.6414,32.0931,南京市,浦口,细颗粒物(PM2.5),149,153,148,114,97,55,,,,61,74,7,8,0.9,1.1
2024-01-14T0100,1158A,118.7356,31.9996,南京市,奥体中心,细颗粒物(PM2.5),147,150,126,112,84,65,,,,86,86,11,9,0.9,1.2
2024-01-14T0100,1159A,118.9125,32.1028,南京市,仙林大学城,细颗粒物(PM2.5),107,110,108,80,78,87,,,,36,56,9,8,0.7,1
2024-01-14T0100,3422A,118.8436,31.9198,南京市,江宁彩虹桥,细颗粒物(PM2.5),138,163,127,105,79,72,,,,52,62,11,11,0.6,0.7
2024-01-14T0100,3423A,119.0138,31.6494,南京市,溧水永阳,细颗粒物(PM2.5),149,117,101,114,86,71,,,,53,57,5,5,0.7,1
2024-01-14T0100,3424A,118.879,31.3302,南京市,高淳老职中,细颗粒物(PM2.5),117,117,93,88,81,97,,,,34,48,11,11,0.9,0.9
2024-01-14T0100,3427A,118.8554,32.3578,南京市,六合雄州,细颗粒物(PM2.5),115,125,142,87,99,68,,,,49,51,5,6,1.1,1.2
2024-01-14T0100,1401A,108.3103,22.7881,南宁市,二十一中,细颗粒物(PM2.5),67,73,33,48,26,4,,,,52,32,6,5,1.7,1.3
2024-01-14T0100,1402A,108.3141,22.8528,南宁市,北湖,细颗粒物(PM2.5),77,98,41,56,31,4,,,,34,26,6,5,1.6,1.3
2024-01-14T0100,1403A,108.3206,22.8225,南宁市,市监测站,细颗粒物(PM2.5),74,,36,54,25,4,,,,73,44,6,6,1.6,1.3
2024-01-14T0100,1404A,108.3829,22.8037,南宁市,大自然花园,,49,38,26,34,22,5,,,,30,26,6,6,1.1,1
2024-01-14T0100,1405A,108.4394,22.7904,南宁市,仙葫,细颗粒物(PM2.5),77,,30,56,24,2,,,,34,27,7,5,1.4,1.2
2024-01-14T0100,1406A,108.2397,22.8467,南宁市,区农职院,颗粒物(PM10),54,58,35,28,22,1,,,,31,39,8,7,1.2,1.2
2024-01-14T0100,1407A,108.3275,22.735,南宁市,英华嘉园,细颗粒物(PM2.5),69,58,36,50,29,3,,,,45,33,6,5,1.4,1.2
2024-01-14T0100,1408A,108.2257,22.7757,南宁市,沙井镇街道办,细颗粒物(PM2.5),55,51,36,39,29,2,,,,32,42,10,9,1.0,1
2024-01-14T0100,3401A,108.4834,22.7618,南宁市,红星社区,细颗粒物(PM2.5),57,54,30,40,29,1,,,,34,28,7,7,1.3,1.3
2024-01-14T0100,2331A,118.0966,26.6761,南平市,茫荡山,,,,,,,,,,,,,,,,
2024-01-14T0100,2332A,118.1681,26.6369,南平市,南平市监测站,细颗粒物(PM2.5),62,56,47,44,35,16,,,,34,35,6,9,0.6,0.9
2024-01-14T0100,2333A,118.1825,26.6489,南平市,南平铝业有限公司,颗粒物(PM10),56,62,41,37,29,6,,,,61,45,11,11,0.7,0.6
2024-01-14T0100,2334A,118.1756,26.6272,南平市,南平七中,,50,49,45,35,30,18,,,,32,31,8,9,0.7,0.7
2024-01-14T0100,1168A,120.9098,31.9663,南通市,狼山街道,细颗粒物(PM2.5),199,169,181,149,157,28,,,,104,58,10,12,1.1,1.3
2024-01-14T0100,1169A,120.86,32.0005,南通市,虹桥,细颗粒物(PM2.5),199,177,192,149,159,56,,,,66,67,8,10,1.1,1.4
2024-01-14T0100,1170A,120.87,32.02,南通市,城中,细颗粒物(PM2.5),185,189,193,139,147,60,,,,68,65,10,12,0.8,1.2
2024-01-14T0100,1171A,120.94,31.93,南通市,星湖花园,细颗粒物(PM2.5),175,170,184,132,146,55,,,,64,64,8,9,1.0,1.2
2024-01-14T0100,1172A,120.81,32.0417,南通市,紫琅学院,细颗粒物(PM2.5),201,186,194,151,146,58,,,,68,75,10,11,1.0,1.2
2024-01-14T0100,3291A,121.067,32.062,南通市,通州监测站,细颗粒物(PM2.5),188,175,190,141,154,75,,,,31,49,7,9,1.1,1.4
2024-01-14T0100,3432A,120.9348,31.9883,南通市,环境教育馆,细颗粒物(PM2.5),188,163,174,141,149,56,,,,42,43,9,10,0.8,1
2024-01-14T0100,2404A,112.5224,33.0122,南阳市,瓦房庄,细颗粒物(PM2.5),238,196,190,188,172,29,,,,45,56,10,11,1.2,1.1
2024-01-14T0100,2405A,112.5003,32.9735,南阳市,汉画馆,细颗粒物(PM2.5),251,230,200,201,170,3,,,,60,51,5,6,1.5,1.3
2024-01-14T0100,2406A,112.5573,33.027,南阳市,气象站,细颗粒物(PM2.5),235,197,180,185,169,32,,,,54,50,4,6,1.2,1.1
2024-01-14T0100,2407A,112.5481,32.9689,南阳市,理工学院,细颗粒物(PM2.5),252,230,185,202,153,5,,,,84,57,7,8,1.3,0.9
2024-01-14T0100,4008A,112.5234,32.9922,南阳市,卧龙区政府,细颗粒物(PM2.5),247,220,194,197,168,12,,,,68,60,9,10,1.5,1.3
2024-01-14T0100,1234A,121.8358,29.911,宁波市,区环保大楼,细颗粒物(PM2.5),94,85,101,70,64,82,,,,33,87,6,12,0.6,0.7
2024-01-14T0100,1235A,121.56,29.82,宁波市,万里学院,细颗粒物(PM2.5),78,102,107,57,62,36,,,,94,67,7,9,0.7,0.8
2024-01-14T0100,1236A,121.713,29.9572,宁波市,龙赛医院,颗粒物(PM10),73,95,132,49,69,36,,,,95,88,6,9,0.7,0.8
2024-01-14T0100,1239A,121.633,29.7733,宁波市,钱湖水厂,细颗粒物(PM2.5),62,63,70,44,48,95,,,,17,31,9,10,0.8,0.7
2024-01-14T0100,1240A,121.5856,29.8635,宁波市,太古小学,细颗粒物(PM2.5),74,79,91,54,66,94,,,,40,70,8,10,0.8,0.9
2024-01-14T0100,1241A,121.524,29.8674,宁波市,市环境监测中心,细颗粒物(PM2.5),74,84,100,54,63,60,,,,65,72,7,11,0.7,0.9
2024-01-14T0100,2871A,121.6147,29.9017,宁波市,万里国际学校,细颗粒物(PM2.5),72,80,105,52,70,107,,,,26,68,8,10,0.8,1
2024-01-14T0100,3710A,121.5594,29.8975,宁波市,白沙活动中心,"颗粒物(PM10),细颗粒物(PM2.5)",74,97,130,54,71,77,,,,51,75,8,11,0.8,1
2024-01-14T0100,2339A,119.5001,26.6946,宁德市,金涵水库,,,,,,,,,,,,,,,,
2024-01-14T0100,2341A,119.5388,26.6612,宁德市,宁德市监测站,,36,,40,25,28,42,,,,26,21,5,6,0.6,0.9
2024-01-14T0100,3209A,119.5231,26.6562,宁德市,宁德一中,,34,34,38,16,26,61,,,,10,17,4,5,0.4,0.8
2024-01-14T0100,2618A,98.8601,25.8567,怒江傈僳族自治州,州监测站,,38,38,35,26,24,39,,,,22,18,8,8,0.5,0.5
2024-01-14T0100,2619A,98.8546,25.8417,怒江傈僳族自治州,泸水一中,细颗粒物(PM2.5),62,54,44,44,33,11,,,,29,25,8,8,0.6,0.5
2024-01-14T0100,1888A,101.6891,26.571,攀枝花市,弄弄坪,细颗粒物(PM2.5),115,96,87,87,65,50,,,,37,40,14,25,1.0,1.7
2024-01-14T0100,1889A,101.5769,26.5928,攀枝花市,河门口,细颗粒物(PM2.5),79,102,82,58,50,27,,,,44,34,15,23,1.4,1.5
2024-01-14T0100,1890A,101.7169,26.585,攀枝花市,炳草岗,细颗粒物(PM2.5),109,132,96,82,61,6,,,,93,63,19,29,2.0,1.9
2024-01-14T0100,1891A,101.7369,26.5008,攀枝花市,仁和,细颗粒物(PM2.5),102,91,94,76,69,41,,,,32,39,10,27,0.9,1.5
2024-01-14T0100,2835A,101.7227,26.567,攀枝花市,四十中小,细颗粒物(PM2.5),115,132,99,87,67,8,,,,99,66,14,18,2.3,2.1
2024-01-14T0100,1604A,122.0303,41.1489,盘锦市,开发区,,45,39,32,31,23,32,,,,40,30,22,11,0.7,0.7
2024-01-14T0100,1605A,122.0485,41.0883,盘锦市,兴隆台,,42,42,32,28,21,35,,,,34,29,23,12,0.6,0.6
2024-01-14T0100,1606A,121.8297,41.1028,盘锦市,新生街道,,40,40,29,25,23,20,,,,48,29,13,10,0.6,0.5
2024-01-14T0100,1832A,113.3257,33.742,平顶山市,新华旅馆,细颗粒物(PM2.5),360,400,364,310,268,18,,,,61,72,9,12,1.6,1.5
2024-01-14T0100,1833A,113.2919,33.737,平顶山市,规划设计院,细颗粒物(PM2.5),393,439,388,343,293,20,,,,63,68,10,13,1.5,1.4
2024-01-14T0100,1834A,113.182,33.774,平顶山市,平顶山工学院,细颗粒物(PM2.5),365,430,376,315,272,35,,,,52,63,8,9,,1.5
2024-01-14T0100,3204A,113.3025,33.73,平顶山市,规划局,细颗粒物(PM2.5),393,400,368,343,299,22,,,,61,66,10,12,1.9,1.8
2024-01-14T0100,3594A,112.8867,33.9116,平顶山市,石龙区,细颗粒物(PM2.5),292,318,348,242,261,21,,,,88,78,9,10,1.2,1.3
2024-01-14T0100,2656A,106.6692,35.5461,平凉市,聚贤嘉苑,,50,50,62,21,22,31,,,,40,31,6,8,0.6,0.5
2024-01-14T0100,2657A,106.7021,35.5307,平凉市,博物馆,颗粒物(PM10),54,57,75,24,27,36,,,,30,26,11,12,0.7,0.7
2024-01-14T0100,2347A,114.0997,27.5002,萍乡市,武功山,,43,43,36,29,30,37,,,,13,11,8,7,0.8,0.7
2024-01-14T0100,2348A,113.8385,27.6434,萍乡市,中医院,细颗粒物(PM2.5),89,81,99,66,72,50,,,,34,43,30,28,1.1,1.5
2024-01-14T0100,2349A,113.8493,27.6253,萍乡市,市政府车库,细颗粒物(PM2.5),95,118,111,71,78,9,,,,57,44,21,27,2.1,2.3
2024-01-14T0100,2350A,113.8676,27.6435,萍乡市,市环保局,细颗粒物(PM2.5),89,88,96,66,64,41,,,,48,48,43,29,1.1,1.3
2024-01-14T0100,2351A,113.866,27.6198,萍乡市,安源区政府,颗粒物(PM10),70,90,97,50,61,43,,,,30,33,29,26,0.9,1.4
2024-01-14T0100,2319A,119.0141,25.4325,莆田市,荔城区仓后路,,25,16,47,8,27,78,,,,10,23,6,7,0.5,0.8
2024-01-14T0100,2320A,119.0015,25.4553,莆田市,莆田市监测站,,25,12,37,2,19,80,,,,11,20,6,7,0.5,0.7
2024-01-14T0100,2321A,119.1119,25.4561,莆田市,涵江区六中,,26,13,40,5,19,82,,,,20,29,8,8,0.5,0.7
2024-01-14T0100,2322A,119.1013,25.3215,莆田市,秀屿区政府,,26,26,45,6,27,69,,,,24,32,9,11,0.6,0.8
2024-01-14T0100,2323A,118.981,25.4792,莆田市,东圳水库,,,,,,,,,,,,,,,,
2024-01-14T0100,2392A,115.0312,35.7636,濮阳市,环保局,细颗粒物(PM2.5),347,346,361,297,308,1,,,,102,87,6,8,2.3,2.2
2024-01-14T0100,2394A,115.0574,35.7609,濮阳市,油田运输公司,细颗粒物(PM2.5),357,368,385,307,316,0,,,,103,88,7,9,2.4,2.4
2024-01-14T0100,2395A,115.0866,35.7754,濮阳市,油田物探公司,细颗粒物(PM2.5),366,366,382,316,319,1,,,,106,92,5,7,2.1,2.1
2024-01-14T0100,3021A,115,35.7668,濮阳市,濮水河管理处,细颗粒物(PM2.5),348,370,367,298,302,6,,,,105,83,7,7,2.3,2.2
2024-01-14T0100,2601A,100.98,22.7633,普洱市,市环保局,,42,37,37,29,28,20,,,,16,14,3,3,0.5,0.5
2024-01-14T0100,2602A,100.9817,22.8322,普洱市,普洱第二中学,,34,34,30,20,14,6,,,,38,21,7,6,0.6,0.6
2024-01-14T0100,2262A,131.0518,45.8751,七台河市,新一中,细颗粒物(PM2.5),52,49,53,36,44,61,,,,19,22,16,14,0.6,0.7
2024-01-14T0100,3345A,131.0577,45.7879,七台河市,中波台,细颗粒物(PM2.5),88,75,86,65,68,43,,,,36,49,10,11,1.1,1.3
2024-01-14T0100,3637A,131.0176,45.7761,七台河市,人民广场,细颗粒物(PM2.5),79,87,83,58,68,39,,,,36,51,14,14,0.9,1
2024-01-14T0100,3684A,130.8781,45.8222,七台河市,新建矿广场,细颗粒物(PM2.5),97,80,76,72,64,17,,,,58,48,24,12,1.1,1
2024-01-14T0100,1779A,123.9305,47.3636,齐齐哈尔市,安居小区,,20,20,32,10,16,50,,,,11,16,6,8,0.4,0.5
2024-01-14T0100,1780A,123.9488,47.3386,齐齐哈尔市,中心广场,,21,21,32,12,20,48,,,,11,19,3,4,0.3,0.4
2024-01-14T0100,1781A,123.9483,47.3227,齐齐哈尔市,农牧车辆厂,,28,19,32,19,17,52,,,,8,15,8,9,0.4,0.4
2024-01-14T0100,1783A,123.945,47.2988,齐齐哈尔市,市环境监测站,,22,21,33,15,21,55,,,,8,14,4,5,0.4,0.4
2024-01-14T0100,3662A,123.6333,47.2075,齐齐哈尔市,富区青少年活动中心,,22,22,38,12,19,56,,,,6,13,8,9,0.4,0.5
2024-01-14T0100,2591A,107.9783,26.5747,黔东南苗族侗族自治州,市环境监测站,细颗粒物(PM2.5),60,54,55,43,44,4,,,,33,32,13,9,1.4,1.2
2024-01-14T0100,2881A,107.8908,26.5311,黔东南苗族侗族自治州,凯里学院,,28,25,41,19,29,30,,,,15,20,5,5,0.5,0.6
2024-01-14T0100,2593A,107.5228,26.2403,黔南布依族苗族自治州,小围寨,,17,5,9,5,6,53,,,,5,6,6,5,0.6,0.6
2024-01-14T0100,3538A,107.5175,26.2978,黔南布依族苗族自治州,沙坝,,15,12,15,7,12,47,,,,3,6,3,4,0.6,0.7
2024-01-14T0100,2589A,104.9022,25.0925,黔西南布依族苗族自治州,场坝街,,32,32,21,18,13,40,,,,8,8,2,2,0.5,0.5
2024-01-14T0100,2590A,104.8811,25.0992,黔西南布依族苗族自治州,坪东大道,,38,26,21,26,13,43,,,,5,7,3,3,0.5,0.5
2024-01-14T0100,2502A,108.6236,21.9667,钦州市,市环保站,细颗粒物(PM2.5),77,68,43,56,34,23,,,,50,28,5,5,1.5,1.2
2024-01-14T0100,2503A,108.6549,21.9481,钦州市,沙埠小学,细颗粒物(PM2.5),67,,44,48,39,34,,,,32,26,8,7,1.1,1
2024-01-14T0100,2504A,108.5989,21.7431,钦州市,港区一小,细颗粒物(PM2.5),84,89,54,62,40,29,,,,50,37,7,7,1.2,1.1
2024-01-14T0100,3404A,108.5959,21.9633,钦州市,北职校,细颗粒物(PM2.5),68,,40,49,38,17,,,,40,24,7,8,1.3,1
2024-01-14T0100,1042A,119.5134,39.8207,秦皇岛市,北戴河环保局,颗粒物(PM10),58,66,40,40,22,15,,,,64,33,16,12,1.2,0.7
2024-01-14T0100,1043A,119.7493,40.0116,秦皇岛市,第一关,细颗粒物(PM2.5),107,101,57,80,35,5,,,,48,43,12,14,1.0,0.7
2024-01-14T0100,1044A,119.5897,39.9499,秦皇岛市,监测站,细颗粒物(PM2.5),78,86,54,57,30,3,,,,77,39,11,14,1.0,0.6
2024-01-14T0100,1046A,119.5251,39.9041,秦皇岛市,建设大厦,颗粒物(PM10),73,96,49,51,30,11,,,,63,34,7,9,1.1,0.5
2024-01-14T0100,3132A,119.610547,39.943889,秦皇岛市,文明里,"颗粒物(PM10),细颗粒物(PM2.5)",74,97,60,54,29,3,,,,83,44,9,12,1.0,0.7
2024-01-14T0100,1307A,120.6659,36.2403,青岛市,仰口,细颗粒物(PM2.5),107,112,115,80,78,143,,,,29,33,3,2,0.9,0.9
2024-01-14T0100,1310A,120.4134,36.0658,青岛市,市南区东部子站,细颗粒物(PM2.5),83,110,118,61,79,124,,,,17,28,7,8,0.8,0.9
2024-01-14T0100,1311A,120.3664,36.1032,青岛市,四方区子站,细颗粒物(PM2.5),125,129,131,95,99,131,,,,24,36,5,6,1.1,1.1
2024-01-14T0100,1312A,120.2994,36.054,青岛市,市南区西部子站,细颗粒物(PM2.5),98,102,117,73,82,121,,,,19,27,6,7,1.0,1
2024-01-14T0100,1313A,120.4581,36.0858,青岛市,崂山区子站,颗粒物(PM10),80,110,120,58,77,122,,,,26,31,6,7,0.8,0.9
2024-01-14T0100,1314A,120.1983,35.9608,青岛市,黄岛区子站,细颗粒物(PM2.5),102,112,122,76,90,125,,,,32,40,6,6,0.9,0.9
2024-01-14T0100,1315A,120.3999,36.3083,青岛市,城阳区子站,细颗粒物(PM2.5),95,124,138,71,78,127,,,,26,48,6,7,1.0,1.3
2024-01-14T0100,1966A,120.0405,35.8735,青岛市,黄岛区4号,细颗粒物(PM2.5),89,97,119,66,86,119,,,,28,37,6,7,1.0,1.1
2024-01-14T0100,3362A,120.5014,36.4034,青岛市,即墨2号,细颗粒物(PM2.5),122,139,127,92,87,109,,,,26,25,10,7,0.9,1.1
2024-01-14T0100,3642A,120.3503,36.0736,青岛市,市北区南部,细颗粒物(PM2.5),92,107,139,68,81,119,,,,24,28,8,8,1.3,1.1
2024-01-14T0100,3643A,120.3948,36.1805,青岛市,李沧区北部,细颗粒物(PM2.5),125,127,135,95,102,131,,,,28,43,9,10,0.8,0.9
2024-01-14T0100,1702A,113.0426,23.691,清远市,环保大楼,细颗粒物(PM2.5),89,114,80,66,49,58,,,,33,42,5,10,1.1,1.1
2024-01-14T0100,1703A,113.0208,23.7106,清远市,凤城街办,细颗粒物(PM2.5),104,116,85,78,54,69,,,,40,40,8,11,1.0,1
2024-01-14T0100,3025A,113.0477,23.6344,清远市,技师学院,细颗粒物(PM2.5),114,174,113,86,60,5,,,,107,54,8,13,1.1,1
2024-01-14T0100,3318A,112.9903,23.7403,清远市,清新太和,细颗粒物(PM2.5),119,135,74,90,49,108,,,,31,30,8,10,1.1,0.9
2024-01-14T0100,3455A,113.076,23.7198,清远市,清城东城,细颗粒物(PM2.5),94,106,74,70,49,51,,,,32,38,8,12,1.0,0.9
2024-01-14T0100,2661A,107.6325,35.7357,庆阳市,庆阳五中,颗粒物(PM10),53,56,101,13,43,73,,,,6,25,4,11,0.3,0.9
2024-01-14T0100,2662A,107.6364,35.7067,庆阳市,市环保局,颗粒物(PM10),51,51,64,11,49,79,,,,7,23,6,17,0.7,0.7
2024-01-14T0100,1916A,103.7897,25.5035,曲靖市,环境监测站,,48,48,46,22,27,35,,,,38,24,2,5,0.4,0.4
2024-01-14T0100,1917A,103.8,25.5364,曲靖市,烟厂办公区,颗粒物(PM10),56,62,56,36,29,22,,,,63,28,8,5,0.8,0.8
2024-01-14T0100,3376A,103.7947,25.462,曲靖市,南苑二区,,25,25,39,16,26,74,,,,4,6,10,14,0.6,0.7
2024-01-14T0100,3377A,103.7444,25.5261,曲靖市,曲靖师范学院,颗粒物(PM10),52,54,64,33,44,57,,,,30,36,27,78,0.7,0.8
2024-01-14T0100,1264A,118.8692,28.9398,衢州市,环保大楼,颗粒物(PM10),53,56,73,30,42,19,,,,34,45,5,6,0.5,0.6
2024-01-14T0100,1265A,118.8709,28.9666,衢州市,实验学校,颗粒物(PM10),57,64,66,36,40,2,,,,51,45,5,5,0.6,0.6
2024-01-14T0100,1266A,118.8621,28.9808,衢州市,衢州学院,颗粒物(PM10),57,64,64,34,37,3,,,,40,43,7,7,0.6,0.6
2024-01-14T0100,1611A,118.5819,24.9117,泉州市,涂山街,,25,25,57,12,32,56,,,,31,34,5,6,0.5,0.7
2024-01-14T0100,1612A,118.5972,24.8978,泉州市,津头埔,,28,28,51,13,30,55,,,,30,34,3,4,0.6,0.7
