timepoint,stationcode,longitude,latitude,area,positionname,primarypollutant,aqi,pm10,pm10_24h,pm2_5,pm2_5_24h,o3,o3_24h,o3_8h,o3_8h_24h,no2,no2_24h,so2,so2_24h,co,co_24h
2024-01-14T0300,2566A,102.1879,31.914,阿坝藏族羌族自治州,州农科所,,15,10,14,10,14,11,,,,12,20,5,8,0.9,1
2024-01-14T0300,2568A,102.2502,31.8896,阿坝藏族羌族自治州,马师校,,13,13,17,8,12,24,,,,17,21,2,2,0.5,0.6
2024-01-14T0300,3994A,102.2165,31.9024,阿坝藏族羌族自治州,马尔康中学西区,,22,18,13,15,9,30,,,,15,14,4,4,0.4,0.4
2024-01-14T0300,2695A,80.292,41.1694,阿克苏地区,电视台,颗粒物(PM10),115,179,141,82,62,9,,,,80,40,12,12,2.4,1.2
2024-01-14T0300,2696A,80.2613,41.1551,阿克苏地区,艺术中心,颗粒物(PM10),106,162,143,67,63,11,,,,84,25,10,10,1.8,0.9
2024-01-14T0300,2204A,105.6467,38.8363,阿拉善盟,西城区西花园,,39,39,49,12,22,71,,,,12,16,8,10,0.3,0.6
2024-01-14T0300,2205A,105.6985,38.8411,阿拉善盟,蒙二幼,,33,33,49,9,15,74,,,,9,12,7,7,0.5,0.6
2024-01-14T0300,2206A,105.724,38.8516,阿拉善盟,环保局新楼,,28,28,38,10,16,80,,,,4,8,5,6,0.5,0.5
2024-01-14T0300,2708A,88.1264,47.8517,阿勒泰地区,市站,,26,15,6,7,7,32,,,,52,36,5,5,0.4,0.4
2024-01-14T0300,2630A,80.1161,32.5,阿里地区,阿里监测站,,18,10,13,7,5,55,,,,25,13,8,6,0.5,0.5
2024-01-14T0300,3192A,80.0903,32.5028,阿里地区,阿里藏医院,,27,9,21,4,8,85,,,,4,13,5,7,0.5,0.6
2024-01-14T0300,2642A,109.0318,32.6537,安康市,香溪洞,细颗粒物(PM2.5),90,80,69,67,57,51,,,,18,17,18,8,0.9,0.8
2024-01-14T0300,2643A,109.0281,32.6939,安康市,安康市监测站,细颗粒物(PM2.5),117,120,101,88,74,3,,,,47,36,10,17,1.2,1.1
2024-01-14T0300,2644A,109.0072,32.6975,安康市,汉滨区检察院,细颗粒物(PM2.5),109,113,86,82,66,8,,,,46,31,9,10,1.1,0.9
2024-01-14T0300,2291A,117.0809,30.5177,安庆市,环科院,细颗粒物(PM2.5),74,83,87,54,58,2,,,,95,79,9,12,0.9,0.9
2024-01-14T0300,2292A,117.0331,30.5119,安庆市,马山宾馆,细颗粒物(PM2.5),72,88,85,52,56,3,,,,98,82,8,11,0.5,0.7
2024-01-14T0300,2294A,116.9896,30.6145,安庆市,安庆大学,细颗粒物(PM2.5),78,84,84,57,51,10,,,,70,69,8,10,0.9,1
2024-01-14T0300,3173A,117.0598,30.5351,安庆市,市人大,细颗粒物(PM2.5),90,91,92,67,60,0,,,,99,83,6,9,0.9,1
2024-01-14T0300,3122A,105.9606,26.2611,安顺市,伍家关,,,,,,,,,,,,,,,,
2024-01-14T0300,3123A,105.9408,26.2431,安顺市,凤凰山,,17,12,18,10,15,54,,,,6,11,10,15,0.7,0.8
2024-01-14T0300,3124A,105.9439,26.2564,安顺市,金钟山,,18,13,19,8,14,55,,,,5,10,11,17,0.7,0.8
2024-01-14T0300,3125A,105.8983,26.2481,安顺市,娄家坡,,18,14,19,12,16,53,,,,4,8,8,10,0.7,0.7
2024-01-14T0300,1818A,114.4839,36.0621,安阳市,棉研所,,,,,,,,,,,,,,,,
2024-01-14T0300,1819A,114.3551,36.1017,安阳市,红庙街,细颗粒物(PM2.5),285,292,337,235,285,8,,,,106,81,12,11,2.2,2
2024-01-14T0300,1820A,114.361,36.0681,安阳市,银杏小区,细颗粒物(PM2.5),289,276,322,239,307,7,,,,112,86,6,5,2.4,2.3
2024-01-14T0300,3141A,114.3922,36.0878,安阳市,信访局,细颗粒物(PM2.5),299,295,352,249,315,6,,,,115,93,4,4,1.8,1.7
2024-01-14T0300,3669A,114.4705,36.0637,安阳市,左辅环卫站,细颗粒物(PM2.5),274,263,345,224,303,7,,,,108,99,5,5,1.8,1.8
2024-01-14T0300,3703A,114.2917,36.0949,安阳市,安钢职工学校,细颗粒物(PM2.5),289,313,389,239,294,10,,,,105,70,11,10,2.7,2.5
2024-01-14T0300,1748A,123.044,41.1196,鞍山市,深沟寺,,19,19,93,6,48,57,,,,9,53,8,18,0.3,1.3
2024-01-14T0300,1749A,123.011,41.0931,鞍山市,太阳城,,43,43,83,11,46,55,,,,17,51,12,22,0.8,1.6
2024-01-14T0300,1750A,123.0485,41.1442,鞍山市,太平,,25,25,102,8,51,61,,,,10,55,10,24,0.4,1.5
2024-01-14T0300,1751A,122.9642,41.0971,鞍山市,铁西三道街,,34,34,114,9,62,49,,,,16,41,13,24,1.3,1.9
2024-01-14T0300,1752A,122.9341,41.0833,鞍山市,铁西工业园区,,48,48,96,8,62,54,,,,12,54,14,27,0.5,1.9
2024-01-14T0300,1753A,123.022,41.0821,鞍山市,明达新区,颗粒物(PM10),51,52,78,14,46,52,,,,14,49,11,24,0.7,1.6
2024-01-14T0300,1754A,123.1289,41.0228,鞍山市,千山,,,,,,,,,,,,,,,,
2024-01-14T0300,2195A,107.4212,40.761,巴彦淖尔市,附二中,,41,41,135,18,44,51,,,,11,23,12,9,0.3,0.6
2024-01-14T0300,2196A,107.37,40.7372,巴彦淖尔市,市环保大楼,,39,39,132,19,39,55,,,,14,21,5,9,0.3,0.6
2024-01-14T0300,1956A,86.1472,41.7538,巴音郭楞蒙古自治州,孔雀公园,颗粒物(PM10),69,88,124,37,56,54,,,,26,30,6,7,0.7,0.9
2024-01-14T0300,1957A,86.1972,41.7166,巴音郭楞蒙古自治州,棉纺厂,颗粒物(PM10),72,94,127,44,56,49,,,,38,40,5,6,0.8,0.9
2024-01-14T0300,1958A,86.2357,41.7173,巴音郭楞蒙古自治州,经济开发区,颗粒物(PM10),57,63,97,37,49,65,,,,24,25,5,6,0.6,0.8
2024-01-14T0300,2914A,106.7677,31.8794,巴中市,苏山坪,细颗粒物(PM2.5),90,82,92,67,76,44,,,,19,25,4,4,0.7,0.8
2024-01-14T0300,3182A,106.7656,31.8545,巴中市,丽阳花园,细颗粒物(PM2.5),182,181,138,137,103,4,,,,28,44,5,5,1.4,1.4
2024-01-14T0300,3183A,106.7418,31.8654,巴中市,圣泉水务公司,细颗粒物(PM2.5),140,120,103,107,89,2,,,,39,41,5,4,1.1,0.9
2024-01-14T0300,3616A,106.7616,31.8344,巴中市,市中心医院,细颗粒物(PM2.5),170,164,141,129,105,3,,,,29,39,3,4,1.3,1.3
2024-01-14T0300,2235A,122.7911,45.6077,白城市,洮北区环保局,,26,26,53,17,36,58,,,,8,23,4,8,0.5,0.7
2024-01-14T0300,2236A,122.8738,45.5725,白城市,市环保局,,46,46,50,26,31,57,,,,11,26,6,5,0.6,0.8
2024-01-14T0300,2231A,126.4219,41.9171,白山市,喜丰,颗粒物(PM10),71,91,70,46,36,7,,,,55,39,15,17,1.3,0.9
2024-01-14T0300,2232A,126.4077,41.9419,白山市,环保局,颗粒物(PM10),87,124,84,52,40,4,,,,61,44,20,17,1.3,1.1
2024-01-14T0300,2647A,104.1724,36.5446,白银市,第三小学,颗粒物(PM10),65,80,94,16,28,56,,,,16,29,11,66,0.6,1.1
2024-01-14T0300,2648A,104.1465,36.5482,白银市,动力公司,颗粒物(PM10),58,66,81,20,29,55,,,,12,20,6,26,0.6,0.8
2024-01-14T0300,2512A,106.6103,23.9011,百色市,市监测站,颗粒物(PM10),52,53,38,30,25,31,,,,15,20,8,11,0.9,1.1
2024-01-14T0300,2513A,106.6538,23.8859,百色市,市中心血站,细颗粒物(PM2.5),59,54,36,42,31,28,,,,22,22,10,13,0.8,0.9
2024-01-14T0300,3406A,106.6085,23.8798,百色市,祈福高中,细颗粒物(PM2.5),84,,41,62,38,21,,,,25,22,11,14,1.1,1.1
2024-01-14T0300,2270A,117.396,32.939,蚌埠市,工人疗养院,细颗粒物(PM2.5),99,105,123,74,91,44,,,,54,46,9,12,0.9,0.9
2024-01-14T0300,2271A,117.3605,32.9427,蚌埠市,百货大楼,细颗粒物(PM2.5),95,102,129,71,96,47,,,,58,56,7,8,0.9,0.9
2024-01-14T0300,2273A,117.4185,32.8911,蚌埠市,蚌埠学院,细颗粒物(PM2.5),100,105,120,75,93,43,,,,54,35,9,8,0.9,0.9
2024-01-14T0300,2274A,117.3533,32.9673,蚌埠市,淮上区政府,细颗粒物(PM2.5),100,112,130,75,101,28,,,,79,57,9,10,0.9,0.9
2024-01-14T0300,2275A,117.3145,32.8977,蚌埠市,高新区,细颗粒物(PM2.5),104,95,116,78,96,60,,,,67,68,6,8,0.8,0.9
2024-01-14T0300,3715A,117.3092,32.9314,蚌埠市,蚌埠田家炳中学,细颗粒物(PM2.5),94,112,142,70,104,64,,,,47,61,53,14,0.8,1
2024-01-14T0300,1585A,109.8756,40.6532,包头市,市环境监测站,,21,18,120,2,51,65,,,,11,36,8,17,0.4,1.4
2024-01-14T0300,1587A,109.9991,40.5842,包头市,包头八中,,27,27,154,6,63,50,,,,22,40,9,22,0.7,1.7
2024-01-14T0300,1588A,109.8538,40.6821,包头市,青山宾馆,,23,15,116,4,63,72,,,,8,37,5,14,0.4,1.7
2024-01-14T0300,1589A,109.8642,40.6288,包头市,惠龙物流,,22,21,131,6,56,70,,,,5,39,9,27,0.4,1.4
2024-01-14T0300,1590A,110.0377,40.5546,包头市,东河鸿龙湾,,32,32,116,6,58,59,,,,20,45,11,20,0.5,1.4
2024-01-14T0300,3283A,109.9154,40.5685,包头市,滨河大厦,,20,16,111,5,62,61,,,,13,40,13,23,0.5,1.4
2024-01-14T0300,3419A,109.9447,40.6261,包头市,包头市委党校,,22,20,116,15,52,66,,,,8,35,11,19,0.5,1.3
2024-01-14T0300,3683A,109.8331,40.6576,包头市,昆区政府,,22,18,111,4,58,70,,,,10,41,7,25,0.5,1.4
2024-01-14T0300,1930A,107.185,34.3063,宝鸡市,庙沟村,,39,39,101,19,91,61,,,,2,20,8,9,0.5,0.9
2024-01-14T0300,1931A,107.0708,34.3017,宝鸡市,竹园沟,,36,36,100,9,87,46,,,,19,32,3,4,0.4,0.8
2024-01-14T0300,1932A,107.1906,34.3672,宝鸡市,三陆医院,颗粒物(PM10),63,76,159,33,132,11,,,,52,69,33,12,0.8,1.4
2024-01-14T0300,1933A,107.1431,34.3547,宝鸡市,监测站,颗粒物(PM10),52,54,140,32,104,16,,,,38,61,4,7,0.7,1.2
2024-01-14T0300,1934A,107.1186,34.3739,宝鸡市,技工学校,细颗粒物(PM2.5),53,49,134,37,112,30,,,,25,53,11,14,0.6,1.1
2024-01-14T0300,1935A,107.3906,34.3528,宝鸡市,陈仓区环保局家属楼,颗粒物(PM10),69,88,181,39,144,10,,,,65,70,10,18,1.0,1.5
2024-01-14T0300,1936A,107.2058,34.3497,宝鸡市,文理学院,颗粒物(PM10),59,68,152,34,116,23,,,,44,72,8,8,0.7,1.3
2024-01-14T0300,1937A,107.2386,34.3622,宝鸡市,三迪小学,颗粒物(PM10),57,64,154,35,124,16,,,,42,72,14,9,0.8,1.3
2024-01-14T0300,1051A,115.493,38.8632,保定市,游泳馆,细颗粒物(PM2.5),79,77,116,58,92,13,,,,37,52,2,3,0.7,1
2024-01-14T0300,1052A,115.5213,38.8959,保定市,华电二区,细颗粒物(PM2.5),92,91,97,68,86,30,,,,32,57,3,5,0.5,0.9
2024-01-14T0300,1053A,115.4713,38.9108,保定市,接待中心,细颗粒物(PM2.5),94,87,114,70,95,11,,,,33,58,2,3,0.4,0.7
2024-01-14T0300,1054A,115.4612,38.8416,保定市,地表水厂,细颗粒物(PM2.5),83,88,117,61,89,7,,,,46,62,2,3,0.8,1
2024-01-14T0300,1056A,115.5086,38.8639,保定市,监测站,细颗粒物(PM2.5),80,78,108,59,92,12,,,,40,61,4,4,0.6,0.9
2024-01-14T0300,3581A,115.31981,38.95208,保定市,满城区生态环境分局,细颗粒物(PM2.5),100,113,133,75,84,0,,,,66,64,2,4,1.1,1.1
2024-01-14T0300,3582A,115.47694,38.76408,保定市,清苑区第二中学,细颗粒物(PM2.5),82,74,118,60,86,5,,,,52,66,4,6,0.8,1.1
2024-01-14T0300,3583A,115.62909,39.02311,保定市,徐水物探局,细颗粒物(PM2.5),77,83,115,56,77,2,,,,40,51,2,5,0.8,1.1
2024-01-14T0300,4004A,115.4202,38.8656,保定市,双鹰农机,细颗粒物(PM2.5),84,78,109,62,83,7,,,,51,63,2,4,0.9,1.1
2024-01-14T0300,2594A,99.1678,25.1081,保山市,市环境监测站,,32,27,31,22,18,47,,,,10,13,6,6,0.6,0.6
2024-01-14T0300,2595A,99.1711,25.1328,保山市,市环保局,,24,24,33,13,20,55,,,,7,10,5,6,0.3,0.4
2024-01-14T0300,1866A,109.2262,21.588,北海市,牛尾岭水库,,,,,,,,,,,,,,,,
2024-01-14T0300,1867A,109.1436,21.4086,北海市,海滩公园,,47,47,57,27,41,130,,,,13,15,10,12,0.4,0.5
2024-01-14T0300,1868A,109.0981,21.4661,北海市,新市环保局,,45,45,55,29,44,131,,,,13,20,8,10,0.6,0.8
2024-01-14T0300,1869A,109.1778,21.5233,北海市,北海工业园,细颗粒物(PM2.5),68,65,72,49,51,95,,,,18,18,7,12,0.4,0.5
2024-01-14T0300,3400A,109.1911,21.4415,北海市,龙潭自来水厂,,48,46,55,33,43,123,,,,11,14,9,12,0.5,0.6
2024-01-14T0300,1001A,116.3621,39.8784,北京市,万寿西宫,,26,26,64,7,38,65,,,,7,46,1,2,0.1,0.7
2024-01-14T0300,1002A,116.2202,40.2915,北京市,定陵,,22,9,62,3,42,69,,,,2,29,3,3,0.2,0.7
2024-01-14T0300,1003A,116.4174,39.9289,北京市,东四,,27,27,67,7,36,53,,,,17,39,2,5,0.4,0.9
2024-01-14T0300,1004A,116.4072,39.8863,北京市,天坛,,34,34,60,7,36,67,,,,10,41,1,1,0.1,0.7
2024-01-14T0300,1005A,116.462,39.9365,北京市,农展馆,,25,25,62,6,35,58,,,,13,42,3,3,0.1,0.7
2024-01-14T0300,1006A,116.3392,39.9295,北京市,官园,,31,31,69,7,38,70,,,,7,40,1,2,0.3,0.9
2024-01-14T0300,1007A,116.2878,39.9611,北京市,海淀万柳,,20,18,69,6,40,64,,,,9,47,3,2,0.2,0.8
2024-01-14T0300,1008A,116.6636,40.135,北京市,顺义新城,,33,33,67,15,39,52,,,,15,36,1,2,0.3,0.8
2024-01-14T0300,1009A,116.6275,40.3275,北京市,怀柔镇,,20,15,55,6,34,64,,,,6,32,4,6,0.1,0.6
2024-01-14T0300,1010A,116.2296,40.217,北京市,昌平镇,,21,21,72,5,41,46,,,,23,40,3,2,0.2,0.8
2024-01-14T0300,1011A,116.3966,39.9821,北京市,奥体中心,,25,25,65,7,36,53,,,,15,39,1,2,0.4,1
2024-01-14T0300,1012A,116.184,39.9136,北京市,古城,,21,15,78,5,46,67,,,,1,49,1,2,0.2,1
2024-01-14T0300,3281A,115.9718,40.4529,北京市,延庆夏都,,16,13,68,5,52,51,,,,13,32,1,2,0.1,0.8
2024-01-14T0300,3417A,117.0709,40.1465,北京市,平谷新城,,24,14,63,3,40,76,,,,11,31,1,3,0.1,0.9
2024-01-14T0300,3418A,116.8336,40.4095,北京市,密云新城,,23,20,59,4,32,72,,,,3,26,1,3,0.2,0.7
2024-01-14T0300,3671A,116.088,39.9726,北京市,门头沟三家店,,,,,,,,,,,,,,,,
2024-01-14T0300,3672A,116.1541,39.8204,北京市,丰台云岗,,21,14,77,6,48,65,,,,6,49,1,2,0.1,0.9
2024-01-14T0300,3673A,116.6804,39.9081,北京市,通州东关,,28,28,66,13,40,48,,,,21,44,3,3,0.2,0.8
2024-01-14T0300,3674A,115.9577,39.7603,北京市,房山燕山,,22,12,83,4,60,70,,,,3,45,2,2,0.2,0.9
2024-01-14T0300,3675A,116.4672,39.7733,北京市,大兴旧宫,,28,28,62,8,39,57,,,,11,43,3,3,0.1,0.7
2024-01-14T0300,3694A,115.986,40.4563,北京市,延庆石河营,,19,9,68,4,51,59,,,,5,30,1,2,0.2,0.9
2024-01-14T0300,3695A,116.6151,40.3053,北京市,怀柔新城,,20,17,53,8,34,63,,,,3,24,3,3,0.1,0.7
2024-01-14T0300,3696A,116.2545,39.8768,北京市,丰台小屯,,24,24,75,7,43,63,,,,7,49,1,2,0.2,0.9
2024-01-14T0300,3697A,116.84,40.3844,北京市,密云镇,,20,16,60,4,35,63,,,,5,33,1,3,0.1,0.8
2024-01-14T0300,1761A,123.8275,41.3064,本溪市,大峪,颗粒物(PM10),62,74,54,37,22,28,,,,44,35,12,12,1.1,1.2
2024-01-14T0300,1762A,123.7567,41.3325,本溪市,溪湖,颗粒物(PM10),66,82,55,39,24,33,,,,31,37,15,20,1.0,1.4
2024-01-14T0300,1763A,123.7169,41.3094,本溪市,彩屯,颗粒物(PM10),51,52,47,29,27,49,,,,25,47,9,20,0.7,1.9
2024-01-14T0300,1764A,123.7669,41.2864,本溪市,东明,颗粒物(PM10),59,68,53,39,20,35,,,,33,30,13,14,1.0,0.9
2024-01-14T0300,1765A,123.7992,41.2664,本溪市,新立屯,颗粒物(PM10),57,63,37,19,15,34,,,,36,25,12,9,0.9,0.4
2024-01-14T0300,1766A,123.8142,41.3472,本溪市,威宁,颗粒物(PM10),59,68,58,34,24,23,,,,44,33,5,8,0.9,0.8
2024-01-14T0300,2587A,105.2864,27.3125,毕节市,八中,细颗粒物(PM2.5),104,96,78,78,63,39,,,,11,20,7,10,0.9,1
2024-01-14T0300,2588A,105.31,27.2944,毕节市,师专,细颗粒物(PM2.5),104,91,73,78,59,49,,,,12,23,10,12,0.9,0.9
2024-01-14T0300,3537A,105.3631,27.3533,毕节市,长征村,细颗粒物(PM2.5),173,141,73,131,64,54,,,,11,14,7,11,0.9,0.8
2024-01-14T0300,1629A,118.0018,37.3617,滨州市,第二水厂,细颗粒物(PM2.5),200,249,236,150,188,10,,,,59,63,7,9,1.6,2
2024-01-14T0300,1630A,117.9776,37.393,滨州市,北中新校,细颗粒物(PM2.5),168,262,227,127,160,6,,,,64,68,6,7,1.6,1.9
2024-01-14T0300,3514A,117.9378,37.3956,滨州市,中海酒店,细颗粒物(PM2.5),190,267,208,143,162,16,,,,54,69,10,11,1.5,1.7
2024-01-14T0300,3515A,117.9378,37.3553,滨州市,开发区一中,颗粒物(PM10),150,250,213,,166,10,,,,63,70,10,13,1.5,1.7
2024-01-14T0300,3516A,118.0917,37.694,滨州市,金海六路,细颗粒物(PM2.5),159,228,206,121,146,7,,,,59,51,6,6,1.4,1.7
2024-01-14T0300,4028A,117.9956,37.3753,滨州市,滨州市西街道办事处,细颗粒物(PM2.5),216,245,229,166,188,6,,,,54,57,9,10,1.6,2
2024-01-14T0300,2311A,115.8072,33.8399,亳州市,污水处理厂,细颗粒物(PM2.5),218,216,195,168,144,15,,,,43,43,6,10,1.3,1.3
2024-01-14T0300,2312A,115.7789,33.8518,亳州市,三国揽胜宫,细颗粒物(PM2.5),210,237,229,160,146,19,,,,46,44,7,8,1.2,1.1
2024-01-14T0300,3332A,115.7633,33.8034,亳州市,亳州学院,细颗粒物(PM2.5),212,217,193,162,139,24,,,,42,35,5,7,1.2,1.2
2024-01-14T0300,2693A,82.0485,44.8556,博尔塔拉蒙古自治州,市党校,,23,23,35,8,18,52,,,,7,12,8,10,0.4,0.4
2024-01-14T0300,2694A,82.0806,44.8969,博尔塔拉蒙古自治州,市环保局,,33,33,32,16,15,50,,,,20,21,6,6,0.6,0.5
2024-01-14T0300,1071A,116.8842,38.2991,沧州市,沧县城建局,颗粒物(PM10),75,99,98,49,79,21,,,,46,59,3,5,1.1,1.4
2024-01-14T0300,1072A,116.8584,38.3254,沧州市,电视转播站,颗粒物(PM10),67,84,97,41,77,15,,,,44,55,9,4,0.9,1.3
2024-01-14T0300,1073A,116.8709,38.3228,沧州市,市环保局,细颗粒物(PM2.5),65,68,95,47,79,12,,,,44,53,5,4,0.8,1.1
2024-01-14T0300,3324A,116.8136,38.3004,沧州市,河北水利电力学院,颗粒物(PM10),67,83,105,43,85,10,,,,42,53,10,10,0.7,1
2024-01-14T0300,2622A,97.1806,31.1273,昌都市,昌都监测站,,22,22,42,5,17,18,,,,25,28,6,7,0.6,1.1
2024-01-14T0300,3719A,97.1714,31.1406,昌都市,昌都会议中心,,13,10,12,8,10,39,,,,11,12,4,4,0.4,0.5
2024-01-14T0300,2690A,88.1236,43.8886,昌吉回族自治州,天山天池,,25,,4,17,6,71,,,,4,4,6,6,0.4,0.4
2024-01-14T0300,2692A,87.2717,44.0297,昌吉回族自治州,新区政务中心,细颗粒物(PM2.5),90,89,72,67,54,40,,,,23,37,4,5,0.9,1
2024-01-14T0300,3613A,87.3095,44.0142,昌吉回族自治州,亚心广场,细颗粒物(PM2.5),98,90,69,73,52,45,,,,26,40,4,6,0.9,1
2024-01-14T0300,1119A,125.3325,43.9166,长春市,食品厂,,46,43,62,32,48,41,,,,25,38,12,14,0.4,0.7
2024-01-14T0300,1120A,125.2863,43.9027,长春市,客车厂,,45,41,60,31,48,51,,,,12,37,7,17,0.4,0.6
2024-01-14T0300,1121A,125.2841,43.8463,长春市,邮电学院,,38,38,61,26,48,46,,,,16,30,20,15,0.5,0.6
2024-01-14T0300,1122A,125.3716,43.8772,长春市,劳动公园,,43,43,58,23,43,52,,,,14,29,8,10,0.2,0.5
2024-01-14T0300,1123A,125.3297,43.8805,长春市,园林处,,35,35,52,17,39,47,,,,14,30,10,14,0.4,0.6
2024-01-14T0300,1124A,125.4605,43.79,长春市,净月潭,,40,40,51,20,44,45,,,,13,12,10,6,0.5,0.6
2024-01-14T0300,1125A,125.7194,43.515,长春市,甩湾子,,,,,,,,,,,,,,,,
2024-01-14T0300,1126A,125.3863,43.8447,长春市,经开区环卫处,,45,45,61,21,44,44,,,,17,29,20,11,0.4,0.6
2024-01-14T0300,1127A,125.245,43.7783,长春市,高新区管委会,,34,34,62,18,51,53,,,,13,29,10,10,0.4,0.7
2024-01-14T0300,1128A,125.1761,43.8325,长春市,岱山公园,,36,30,60,25,49,51,,,,11,33,6,7,0.4,0.7
2024-01-14T0300,1335A,113.0833,28.2325,长沙市,经开区环保局,细颗粒物(PM2.5),83,95,90,61,58,46,,,,40,51,9,9,0.8,0.9
2024-01-14T0300,1336A,112.8872,28.2189,长沙市,高开区环保局,细颗粒物(PM2.5),79,77,78,58,57,29,,,,43,41,20,10,1.2,1
2024-01-14T0300,1337A,113.0792,28.2053,长沙市,马坡岭,细颗粒物(PM2.5),89,105,102,66,69,18,,,,55,49,10,9,0.6,0.5
2024-01-14T0300,1338A,112.9394,28.19,长沙市,湖南师范大学,细颗粒物(PM2.5),97,72,81,72,58,13,,,,46,40,8,9,1.1,1.1
2024-01-14T0300,1339A,113.0178,28.1322,长沙市,雨花区环保局,细颗粒物(PM2.5),87,94,74,64,53,0,,,,74,44,7,7,1.2,1
2024-01-14T0300,1340A,112.9792,28.2597,长沙市,伍家岭,细颗粒物(PM2.5),125,168,139,95,77,0,,,,68,53,8,8,1.4,1.4
2024-01-14T0300,1341A,113.0014,28.1944,长沙市,火车新站,细颗粒物(PM2.5),94,106,90,70,65,4,,,,70,51,6,6,1.3,1.2
2024-01-14T0300,1342A,112.9844,28.1178,长沙市,天心区环保局,细颗粒物(PM2.5),65,76,76,47,44,0,,,,89,57,7,8,0.6,0.4
2024-01-14T0300,1343A,112.8908,28.1308,长沙市,湖南中医药大学,细颗粒物(PM2.5),84,88,91,62,60,0,,,,59,43,6,8,1.2,1.2
2024-01-14T0300,1344A,112.9581,28.3611,长沙市,沙坪,细颗粒物(PM2.5),78,77,65,57,51,6,,,,67,35,7,6,1.2,1
2024-01-14T0300,1727A,113.1147,36.1547,长治市,清华站,细颗粒物(PM2.5),170,132,110,129,89,53,,,,31,42,14,19,1.5,1.3
2024-01-14T0300,1728A,113.1031,36.1989,长治市,监测站,细颗粒物(PM2.5),201,,115,151,102,29,,,,59,52,15,19,1.6,1.5
2024-01-14T0300,1730A,113.0886,36.2125,长治市,审计局,细颗粒物(PM2.5),201,,121,151,105,30,,,,55,46,17,22,1.7,1.6
2024-01-14T0300,1731A,113.0844,36.1856,长治市,长治八中,细颗粒物(PM2.5),153,164,129,117,82,3,,,,70,43,15,24,1.4,1.4
2024-01-14T0300,2845A,113.1569,36.1911,长治市,德盛苑,细颗粒物(PM2.5),203,153,94,153,85,71,,,,30,35,17,20,1.8,1.4
2024-01-14T0300,3568A,113.06,36.0464,长治市,向阳小学,细颗粒物(PM2.5),195,153,127,146,100,61,,,,26,32,13,19,1.4,1.2
2024-01-14T0300,3569A,112.8792,36.3144,长治市,屯留一中,细颗粒物(PM2.5),215,170,113,165,102,47,,,,62,52,15,19,1.8,1.2
2024-01-14T0300,3570A,113.235,36.3489,长治市,潞城四中,细颗粒物(PM2.5),225,186,133,175,108,38,,,,49,44,16,16,2.3,1.5
2024-01-14T0300,1854A,111.6975,28.9703,常德市,市二中,细颗粒物(PM2.5),72,74,90,52,64,38,,,,17,34,6,9,1.0,1.1
2024-01-14T0300,1857A,111.7158,29.1456,常德市,白鹤山,细颗粒物(PM2.5),87,96,98,64,64,8,,,,26,14,4,4,1.0,0.9
2024-01-14T0300,3138A,111.7153,29.0289,常德市,武陵区永安,细颗粒物(PM2.5),137,135,44,104,76,4,,,,62,39,8,8,1.5,1.1
2024-01-14T0300,3139A,111.6892,28.9881,常德市,鼎城区玉霞,细颗粒物(PM2.5),127,152,111,96,80,5,,,,36,39,9,10,1.5,1.3
2024-01-14T0300,3140A,111.6625,29.0531,常德市,武陵区长庚,细颗粒物(PM2.5),145,145,103,111,74,3,,,,58,42,7,7,1.6,1.3
2024-01-14T0300,1196A,119.9633,31.762,常州市,市监测站,细颗粒物(PM2.5),156,174,189,119,127,45,,,,56,97,12,15,0.9,1.5
2024-01-14T0300,1200A,119.9468,31.7069,常州市,武进监测站,细颗粒物(PM2.5),150,165,174,115,116,42,,,,54,81,9,12,0.9,1.4
2024-01-14T0300,1201A,119.9255,31.9087,常州市,安家,,,,,,,,,,,,,,,,
2024-01-14T0300,3002A,119.9805,31.8174,常州市,行政中心,细颗粒物(PM2.5),130,134,161,99,119,55,,,,54,95,14,20,0.6,1.1
2024-01-14T0300,3003A,120.0522,31.7748,常州市,经开区,细颗粒物(PM2.5),129,145,199,98,132,46,,,,59,106,20,17,1.5,1.6
2024-01-14T0300,3010A,119.9025,31.7964,常州市,钟楼,细颗粒物(PM2.5),155,150,158,118,120,50,,,,49,84,12,14,1.1,1.5
2024-01-14T0300,3429A,119.8598,31.7066,常州市,武进经发区,细颗粒物(PM2.5),166,175,168,126,122,40,,,,62,85,19,18,1.2,1.6
2024-01-14T0300,3430A,119.5826,31.7245,常州市,金坛城区,细颗粒物(PM2.5),186,166,151,140,115,36,,,,57,67,12,14,1.1,1.3
2024-01-14T0300,2220A,120.4318,41.5881,朝阳市,西梁,颗粒物(PM10),68,85,64,9,20,65,,,,10,16,12,17,0.5,0.8
2024-01-14T0300,2221A,120.4521,41.5646,朝阳市,河畔小区,颗粒物(PM10),95,139,64,6,20,71,,,,2,16,4,14,0.5,0.8
2024-01-14T0300,2222A,120.4176,41.5648,朝阳市,八里堡,颗粒物(PM10),79,107,69,12,24,72,,,,4,20,8,20,0.4,0.8
2024-01-14T0300,2223A,120.3806,41.5969,朝阳市,农业园区,颗粒物(PM10),88,126,79,9,29,76,,,,3,25,6,16,0.5,0.9
2024-01-14T0300,1705A,116.6367,23.6719,潮州市,西园路,,,,85,46,55,36,,,,21,25,4,6,0.3,0.5
2024-01-14T0300,1706A,116.6447,23.6706,潮州市,档案局,细颗粒物(PM2.5),64,51,74,46,56,41,,,,20,26,5,7,0.5,0.6
2024-01-14T0300,3026A,116.6183,23.6608,潮州市,市政府,细颗粒物(PM2.5),99,80,77,74,53,10,,,,57,32,31,14,0.9,0.9
2024-01-14T0300,2472A,113.0073,25.9061,郴州市,马头岭,颗粒物(PM10),59,67,78,37,40,13,,,,41,36,6,19,0.9,1
2024-01-14T0300,2473A,113.0116,25.8226,郴州市,市职中,细颗粒物(PM2.5),77,72,72,56,56,6,,,,24,26,8,17,1.1,1.1
2024-01-14T0300,2474A,113.0161,25.8001,郴州市,兴隆步行街,细颗粒物(PM2.5),90,103,88,67,61,7,,,,32,35,5,14,1.3,1.2
2024-01-14T0300,2475A,113.0383,25.8071,郴州市,市审计局,细颗粒物(PM2.5),80,71,69,59,55,1,,,,40,37,5,15,1.3,1.2
2024-01-14T0300,2476A,113.0348,25.7759,郴州市,市环保局,细颗粒物(PM2.5),83,83,80,61,60,14,,,,42,41,4,20,1.0,1.1
2024-01-14T0300,1431A,103.9728,30.7236,成都市,金泉两河,细颗粒物(PM2.5),135,125,172,103,139,35,,,,23,42,4,4,0.8,1
2024-01-14T0300,1432A,104.176,30.6872,成都市,十里店,细颗粒物(PM2.5),160,133,166,122,145,25,,,,35,57,2,2,1.0,1.2
2024-01-14T0300,1433A,104.079,30.5706,成都市,三瓦窑,细颗粒物(PM2.5),168,143,180,127,142,22,,,,26,41,2,2,1.0,1.2
2024-01-14T0300,1434A,104.1114,30.63,成都市,沙河铺,细颗粒物(PM2.5),152,145,173,116,146,28,,,,32,58,4,4,0.9,1.2
2024-01-14T0300,1437A,104.0786,30.6531,成都市,君平街,细颗粒物(PM2.5),175,140,188,132,158,25,,,,36,64,7,6,0.8,1.1
2024-01-14T0300,1438A,103.613,31.0283,成都市,灵岩寺,细颗粒物(PM2.5),135,,74,103,104,71,,,,16,22,2,3,1.4,1.4
2024-01-14T0300,2880A,104.0239,30.65639,成都市,大石西路,细颗粒物(PM2.5),169,141,173,128,146,28,,,,36,65,7,5,0.7,1
2024-01-14T0300,3136A,104.2725,30.5589,成都市,龙泉驿区区政府,细颗粒物(PM2.5),147,151,165,112,122,3,,,,54,62,1,2,1.1,1.2
2024-01-14T0300,3357A,104.0106,30.6931,成都市,金博路,细颗粒物(PM2.5),133,136,182,101,137,30,,,,31,61,3,2,0.9,1.3
2024-01-14T0300,3359A,104.0578,30.5225,成都市,华阳,细颗粒物(PM2.5),140,134,152,107,120,5,,,,54,61,2,2,1.3,1.4
2024-01-14T0300,3487A,104.2394,30.5319,成都市,车城东七路,细颗粒物(PM2.5),186,172,177,140,144,2,,,,60,70,2,2,1.1,1.2
2024-01-14T0300,3488A,104.3853,30.7453,成都市,青白江技师分院,细颗粒物(PM2.5),178,174,198,134,148,2,,,,46,54,3,5,1.0,1.2
2024-01-14T0300,3489A,104.0789,30.4072,成都市,科学城,细颗粒物(PM2.5),178,162,159,134,129,2,,,,54,62,3,4,1.2,1.2
2024-01-14T0300,4011A,103.8506,30.6947,成都市,光华大道三段,细颗粒物(PM2.5),119,109,162,90,136,36,,,,25,46,2,3,0.9,1.1
2024-01-14T0300,1062A,117.9531,40.9081,承德市,铁路,颗粒物(PM10),57,63,105,6,58,70,,,,6,50,8,24,0.2,1.4
2024-01-14T0300,1063A,117.9392,40.9763,承德市,中国银行,颗粒物(PM10),53,55,85,10,47,70,,,,4,36,4,9,0.2,1.1
2024-01-14T0300,1064A,117.9503,40.928,承德市,开发区,颗粒物(PM10),51,51,89,20,53,75,,,,9,42,7,17,0.3,1.2
2024-01-14T0300,1065A,117.8051,40.9655,承德市,文化中心,,41,41,104,4,49,69,,,,8,38,5,14,0.2,1.1
2024-01-14T0300,1066A,117.9268,41.0026,承德市,离宫,,35,32,71,24,49,68,,,,5,29,3,5,0.2,0.8
2024-01-14T0300,2314A,117.47,30.6618,池州市,池州学院,细颗粒物(PM2.5),65,65,71,47,48,10,,,,47,39,6,8,1.2,1
2024-01-14T0300,3237A,117.4918,30.6617,池州市,展览馆,细颗粒物(PM2.5),59,58,69,42,40,2,,,,36,47,4,5,0.8,1
2024-01-14T0300,3333A,117.5627,30.695,池州市,第八中学,细颗粒物(PM2.5),73,80,68,53,44,3,,,,93,45,11,11,0.9,0.8
2024-01-14T0300,3334A,117.5038,30.6243,池州市,第十二中学,细颗粒物(PM2.5),55,50,71,39,47,1,,,,52,49,4,6,1.1,1
2024-01-14T0300,1744A,118.9233,42.2816,赤峰市,松山一中,,25,12,57,10,25,78,,,,5,30,3,16,0.3,0.8
2024-01-14T0300,1745A,118.9576,42.2728,赤峰市,哈达街,,22,18,63,7,30,70,,,,5,33,8,42,0.5,1.1
2024-01-14T0300,1746A,118.8788,42.2554,赤峰市,天义路,,23,11,49,9,28,73,,,,5,28,6,13,0.2,0.8
2024-01-14T0300,3058A,119.2658,42.0353,赤峰市,银河街,,32,32,78,2,31,59,,,,12,23,17,23,0.2,0.7
2024-01-14T0300,3286A,118.9359,42.3147,赤峰市,桥北物流园区,,25,20,53,2,30,78,,,,1,29,10,37,0.7,0.9
2024-01-14T0300,2521A,107.3476,22.4136,崇左市,市环保局江州分局,,47,47,36,26,21,15,,,,23,18,6,6,0.9,0.9
2024-01-14T0300,2522A,107.3702,22.3707,崇左市,城南新区,,47,47,35,31,26,23,,,,23,18,7,7,0.8,0.9
2024-01-14T0300,2298A,118.3093,32.3153,滁州市,老年大学,细颗粒物(PM2.5),138,133,118,105,94,32,,,,62,58,12,9,1.1,1.1
2024-01-14T0300,2299A,118.3244,32.2786,滁州市,人大宾馆,细颗粒物(PM2.5),155,149,138,118,111,40,,,,82,75,13,9,0.9,1
2024-01-14T0300,3207A,118.3118,32.3038,滁州市,市政府原办公楼,细颗粒物(PM2.5),132,128,119,100,91,43,,,,66,65,13,8,0.9,1
2024-01-14T0300,3331A,118.3267,32.2634,滁州市,图书馆,细颗粒物(PM2.5),144,140,139,110,107,41,,,,63,57,14,12,1.0,1.1
2024-01-14T0300,2605A,101.5482,25.0441,楚雄彝族自治州,州环境监测站,,36,29,30,25,21,6,,,,41,26,11,9,0.6,0.6
2024-01-14T0300,2606A,101.538,25.0492,楚雄彝族自治州,市经济开发区,,35,34,35,24,20,6,,,,42,28,10,10,0.5,0.6
2024-01-14T0300,2548A,107.5277,31.2827,达州市,达州职业技术学院,细颗粒物(PM2.5),183,175,174,138,116,7,,,,27,37,8,12,1.0,1.1
2024-01-14T0300,2549A,107.5086,31.2186,达州市,市环境监测站,细颗粒物(PM2.5),180,155,134,136,106,5,,,,43,53,11,13,1.4,1.2
2024-01-14T0300,2550A,107.4988,31.2132,达州市,凤凰小区,细颗粒物(PM2.5),185,161,134,139,104,7,,,,44,53,10,13,1.4,1.3
2024-01-14T0300,2551A,107.5082,31.1986,达州市,达县机关宾馆,细颗粒物(PM2.5),176,175,137,133,97,5,,,,44,54,9,11,1.1,1
2024-01-14T0300,2552A,107.4644,31.2124,达州市,市政中心,细颗粒物(PM2.5),170,155,140,129,102,4,,,,52,59,11,11,1.2,1.2
2024-01-14T0300,2614A,100.1542,25.7054,大理白族自治州,大理市环境监测站,,29,26,32,20,22,73,,,,8,17,6,6,0.6,0.6
2024-01-14T0300,2615A,100.2171,25.5811,大理白族自治州,大理古城,,32,32,30,20,20,58,,,,15,21,6,7,0.5,0.5
2024-01-14T0300,1109A,121.612,38.9741,大连市,甘井子,细颗粒物(PM2.5),118,117,61,89,37,57,,,,24,28,7,9,0.7,0.6
2024-01-14T0300,1110A,121.565,38.9511,大连市,周水子,细颗粒物(PM2.5),132,135,69,100,42,45,,,,23,28,9,13,0.7,0.5
2024-01-14T0300,1111A,121.5637,38.8845,大连市,星海三站,细颗粒物(PM2.5),122,118,60,92,37,60,,,,25,23,7,12,1.0,0.7
2024-01-14T0300,1112A,121.6302,38.9117,大连市,青泥洼桥,细颗粒物(PM2.5),124,119,57,94,37,53,,,,29,24,9,12,1.1,0.8
2024-01-14T0300,1113A,121.6251,38.8638,大连市,傅家庄,细颗粒物(PM2.5),113,93,66,85,33,63,,,,21,16,11,13,1.1,0.8
2024-01-14T0300,1114A,121.5213,38.8661,大连市,七贤岭,细颗粒物(PM2.5),115,130,65,87,35,63,,,,21,23,11,16,1.2,0.9
2024-01-14T0300,1115A,121.2529,38.8061,大连市,旅顺,细颗粒物(PM2.5),130,135,57,99,35,56,,,,22,22,8,11,1.4,1
2024-01-14T0300,1116A,121.7485,39.1311,大连市,金州,细颗粒物(PM2.5),108,120,53,81,35,57,,,,20,18,8,11,1.1,0.8
2024-01-14T0300,1117A,121.7811,39.0496,大连市,开发区,细颗粒物(PM2.5),107,107,54,80,31,54,,,,22,25,5,9,0.9,0.6
2024-01-14T0300,1118A,121.9762,39.0631,大连市,双D港,细颗粒物(PM2.5),77,73,43,56,26,45,,,,20,12,7,9,1.1,0.8
2024-01-14T0300,1789A,124.81117,46.03138,大庆市,大同区,细颗粒物(PM2.5),93,,91,69,80,41,,,,15,30,8,11,0.6,0.9
2024-01-14T0300,1790A,125.129,46.533,大庆市,龙凤区,细颗粒物(PM2.5),67,53,97,48,76,40,,,,22,36,8,7,0.7,0.8
2024-01-14T0300,1791A,124.902,46.408,大庆市,红岗区,细颗粒物(PM2.5),60,59,61,43,48,50,,,,11,24,6,7,0.5,0.4
2024-01-14T0300,1792A,125.153,46.586,大庆市,萨尔图区,细颗粒物(PM2.5),82,,92,60,81,53,,,,16,37,8,9,0.5,0.8
2024-01-14T0300,1793A,124.9042,46.6215,大庆市,让胡路区,细颗粒物(PM2.5),55,44,63,39,45,53,,,,10,30,5,7,0.4,0.6
2024-01-14T0300,3481A,125.141,46.634,大庆市,萨区政府监测点,颗粒物(PM10),54,58,78,37,71,49,,,,9,30,8,9,0.4,0.6
2024-01-14T0300,1721A,113.3819,40.1097,大同市,果树场,,,,,,,,,,,,,,,,
2024-01-14T0300,1723A,113.2994,40.0758,大同市,云冈宾馆,,24,18,101,4,47,74,,,,7,45,8,25,0.4,1.5
2024-01-14T0300,1724A,113.3444,40.0917,大同市,大同大学,,23,23,104,16,44,66,,,,15,60,7,23,0.4,1.2
2024-01-14T0300,1725A,113.2661,40.1269,大同市,安家小村,,23,20,118,6,53,72,,,,4,43,9,31,0.2,2.1
2024-01-14T0300,1726A,113.2711,40.0844,大同市,教育学院,,22,17,125,6,48,69,,,,10,51,5,25,0.4,2.2
2024-01-14T0300,3282A,113.3397,40.0597,大同市,大同市卫生学校,,29,29,85,12,46,72,,,,5,45,5,25,0.4,1.1
2024-01-14T0300,3565A,113.1367,40.1122,大同市,云冈站,,24,24,86,9,38,59,,,,12,32,19,31,0.9,1.1
2024-01-14T0300,3566A,113.1186,40.2556,大同市,图书馆,,25,25,108,13,69,57,,,,13,37,13,28,0.7,1.5
2024-01-14T0300,3567A,113.5931,40.0461,大同市,区一中,,33,33,88,14,43,50,,,,20,37,5,29,0.4,0.9
2024-01-14T0300,3676A,113.2802,40.0995,大同市,第二人民医院,,23,18,124,9,50,72,,,,4,44,4,24,0.5,1.9
2024-01-14T0300,2269A,124.1069,50.4097,大兴安岭地区,科技局,,22,,19,15,19,58,,,,3,9,6,7,0.4,0.5
2024-01-14T0300,3663A,124.1164,50.4278,大兴安岭地区,红旗社区,,19,9,24,3,17,59,,,,6,20,6,12,0.3,0.4
2024-01-14T0300,1600A,124.3303,40.0625,丹东市,江湾东路,,45,44,47,31,32,52,,,,12,20,17,22,1.0,0.9
2024-01-14T0300,1601A,124.4256,40.1503,丹东市,临江后街,细颗粒物(PM2.5),53,53,45,37,31,35,,,,35,21,16,14,1.3,1.2
2024-01-14T0300,1602A,124.3933,40.1461,丹东市,元宝山,颗粒物(PM10),51,51,39,35,27,43,,,,21,18,14,13,1.1,1
2024-01-14T0300,1603A,124.3633,40.1092,丹东市,民主桥,颗粒物(PM10),52,53,54,27,31,52,,,,20,27,16,16,0.8,0.9
2024-01-14T0300,3541A,109.5726,19.5167,儋州市,第一中学子站,,35,35,31,16,16,80,,,,4,4,9,5,0.8,0.7
2024-01-14T0300,3542A,109.5567,19.5187,儋州市,东坡学校子站,,35,35,34,15,16,84,,,,4,3,6,6,0.6,0.6
2024-01-14T0300,2616A,98.5842,24.428,德宏傣族景颇族自治州,德宏州监测站,细颗粒物(PM2.5),82,63,54,60,42,6,,,,39,31,4,20,0.6,0.5
2024-01-14T0300,3677A,98.5881,24.4368,德宏傣族景颇族自治州,芒市人民政府综合楼,,39,39,48,24,30,32,,,,12,21,9,15,0.5,0.6
2024-01-14T0300,1901A,104.4239,31.1208,德阳市,东山公园,细颗粒物(PM2.5),152,130,150,116,137,28,,,,56,51,1,2,0.8,1
2024-01-14T0300,1902A,104.3826,31.1317,德阳市,西小区,细颗粒物(PM2.5),173,,160,131,152,25,,,,34,51,1,2,0.9,1.2
2024-01-14T0300,1904A,104.3553,31.1091,德阳市,耐火材料厂,细颗粒物(PM2.5),172,132,165,130,152,32,,,,24,45,3,2,0.8,1
2024-01-14T0300,3639A,104.4019,31.1244,德阳市,市教育局,细颗粒物(PM2.5),163,126,149,124,142,7,,,,60,57,1,1,1.0,1.2
2024-01-14T0300,1622A,116.3032,37.4674,德州市,儿童乐园,细颗粒物(PM2.5),117,129,264,88,210,5,,,,61,67,8,12,1.2,2.1
2024-01-14T0300,1624A,116.2991,37.4451,德州市,监理站,细颗粒物(PM2.5),125,132,263,95,217,4,,,,68,73,10,15,1.1,2
2024-01-14T0300,3066A,116.2721,37.4379,德州市,九衢泉纯净水厂,细颗粒物(PM2.5),99,124,264,74,200,3,,,,65,68,8,11,1.2,2.1
2024-01-14T0300,3371A,116.3728,37.4403,德州市,开发区人民医院,细颗粒物(PM2.5),119,146,273,90,206,3,,,,66,73,5,8,1.0,1.8
2024-01-14T0300,3372A,116.3572,37.4094,德州市,太阳城中学,细颗粒物(PM2.5),120,135,256,91,213,3,,,,61,63,7,11,1.2,2
2024-01-14T0300,3511A,116.5652,37.3319,德州市,陵城艺术中心,细颗粒物(PM2.5),147,190,250,112,189,3,,,,48,51,2,6,1.2,2
2024-01-14T0300,2621A,99.7056,27.8317,迪庆藏族自治州,迪庆州站,,37,37,34,21,22,40,,,,12,14,8,8,0.6,0.7
2024-01-14T0300,3180A,99.7136,27.8094,迪庆藏族自治州,质量技术监督局,,29,23,27,20,20,38,,,,13,13,7,7,0.9,0.7
2024-01-14T0300,2663A,104.6241,35.5734,定西市,东关小学,颗粒物(PM10),80,110,107,42,49,1,,,,28,24,12,24,1.1,1.1
2024-01-14T0300,2664A,104.6194,35.5934,定西市,供电公司,颗粒物(PM10),75,100,101,51,52,5,,,,32,29,8,15,0.9,0.9
2024-01-14T0300,1389A,113.7547,23.0494,东莞市,莞城梨川,颗粒物(PM10),67,83,91,42,51,17,,,,95,57,10,10,0.9,1
2024-01-14T0300,1390A,113.7944,23.0128,东莞市,东城石井,,50,50,78,25,47,42,,,,45,48,9,11,0.8,0.9
2024-01-14T0300,1391A,113.7383,22.9658,东莞市,南城西平,颗粒物(PM10),54,58,85,26,48,25,,,,96,73,13,13,0.8,0.9
2024-01-14T0300,3319A,113.7338,23.0381,东莞市,万江金泰,颗粒物(PM10),62,73,94,40,57,29,,,,69,54,8,10,0.9,1
2024-01-14T0300,3626A,113.7533,23.0202,东莞市,南城元岭,颗粒物(PM10),60,70,91,29,49,37,,,,66,57,10,11,0.8,0.9
2024-01-14T0300,3627A,113.7875,23.0457,东莞市,东城主山,颗粒物(PM10),70,90,79,47,45,3,,,,109,64,11,11,0.7,0.8
2024-01-14T0300,1666A,118.6614,37.4309,东营市,市环保局,细颗粒物(PM2.5),272,254,171,222,147,28,,,,43,49,14,8,1.6,1.6
2024-01-14T0300,3036A,118.6904,37.4338,东营市,开发区管委会,细颗粒物(PM2.5),269,259,164,219,148,27,,,,47,51,4,4,1.4,1.4
2024-01-14T0300,3365A,118.5719,37.565,东营市,垦利区民丰路,细颗粒物(PM2.5),228,249,179,178,147,29,,,,41,51,8,8,1.8,1.7
2024-01-14T0300,3498A,118.5055,37.8612,东营市,河口城区,,,,142,,122,,,,,,36,,3,,1.3
2024-01-14T0300,3646A,118.4978,37.4623,东营市,胜利站,细颗粒物(PM2.5),260,307,213,210,172,20,,,,50,59,8,9,1.7,1.7
2024-01-14T0300,3734A,118.35,37.26,东营市,理想之城,细颗粒物(PM2.5),255,305,193,205,144,21,,,,49,63,5,6,1.9,1.8
2024-01-14T0300,1591A,110.0023,39.8129,鄂尔多斯市,综合楼,颗粒物(PM10),54,58,104,9,27,41,,,,35,36,7,13,0.5,0.6
2024-01-14T0300,1592A,109.9486,39.8261,鄂尔多斯市,巴音孟克林场办事处,颗粒物(PM10),56,61,87,12,22,28,,,,40,29,22,17,0.8,0.7
2024-01-14T0300,1593A,109.7736,39.5986,鄂尔多斯市,康泽苑,,48,48,73,12,28,57,,,,16,28,8,8,0.7,0.7
2024-01-14T0300,1594A,109.8119,39.5989,鄂尔多斯市,华泰汽车城,,48,48,75,9,26,52,,,,19,27,5,5,0.8,0.7
2024-01-14T0300,1595A,109.9734,39.7884,鄂尔多斯市,奥林花园,颗粒物(PM10),54,58,107,12,26,42,,,,32,40,9,10,0.9,0.9
2024-01-14T0300,2436A,114.8938,30.3994,鄂州市,市政府,细颗粒物(PM2.5),60,59,77,43,59,78,,,,23,34,13,12,0.8,0.9
2024-01-14T0300,2437A,114.8989,30.3714,鄂州市,赵家坝,细颗粒物(PM2.5),59,60,70,42,57,80,,,,32,46,10,12,0.8,1
2024-01-14T0300,3654A,114.8094,30.4089,鄂州市,精准医疗中心,细颗粒物(PM2.5),83,101,124,61,68,47,,,,48,49,24,30,1.5,2
2024-01-14T0300,2454A,109.4978,30.2981,恩施土家族苗族自治州,湖北民院,细颗粒物(PM2.5),229,192,120,179,103,31,,,,33,39,6,6,2.0,1.3
2024-01-14T0300,2455A,109.4707,30.2798,恩施土家族苗族自治州,州电力总公司,细颗粒物(PM2.5),188,224,140,141,85,46,,,,30,36,6,6,2.2,1.5
2024-01-14T0300,3549A,109.5061,30.3772,恩施土家族苗族自治州,龙凤新区,细颗粒物(PM2.5),178,136,108,134,90,8,,,,32,34,7,7,1.6,1.2
2024-01-14T0300,2499A,108.3411,21.6158,防城港市,沙万,细颗粒物(PM2.5),65,59,45,47,39,20,,,,32,24,3,5,1.0,0.9
2024-01-14T0300,2500A,108.3514,21.7731,防城港市,防城档案局,颗粒物(PM10),58,66,58,40,37,2,,,,47,34,3,4,1.1,1.1
2024-01-14T0300,2501A,108.3506,21.6414,防城港市,大海花园,细颗粒物(PM2.5),60,65,48,43,32,40,,,,27,23,4,7,1.0,0.9
2024-01-14T0300,1371A,113.1294,23.0067,佛山市,湾梁,颗粒物(PM10),68,85,144,31,55,4,,,,90,72,11,11,0.7,0.8
2024-01-14T0300,1372A,113.1083,23.0478,佛山市,华材职中,细颗粒物(PM2.5),70,83,139,51,84,6,,,,94,85,8,12,0.9,1
2024-01-14T0300,1373A,113.144,23.0453,佛山市,南海气象局,颗粒物(PM10),61,72,114,35,67,2,,,,115,90,8,9,0.9,1.1
2024-01-14T0300,1374A,113.2881,22.8094,佛山市,顺德苏岗,,39,39,92,24,59,18,,,,64,67,8,11,0.7,1
2024-01-14T0300,1376A,112.8383,22.8678,佛山市,高明孔堂,颗粒物(PM10),61,71,107,26,66,48,,,,24,42,7,9,0.7,0.9
2024-01-14T0300,1377A,112.8836,23.1588,佛山市,三水监测站,细颗粒物(PM2.5),162,190,182,123,108,1,,,,124,112,18,12,1.4,1.2
2024-01-14T0300,1378A,112.867,23.185,佛山市,三水云东海,细颗粒物(PM2.5),160,147,135,122,103,2,,,,85,92,7,11,1.2,1
2024-01-14T0300,3625A,113.2544,22.7642,佛山市,容桂街道办,颗粒物(PM10),58,66,110,27,55,41,,,,56,66,7,9,0.6,0.8
2024-01-14T0300,1280A,119.3903,26.0543,福州市,鼓山,,,,,,,,,,,,,,,,
2024-01-14T0300,1282A,119.2681,26.0504,福州市,师大,,28,28,42,13,22,42,,,,28,37,6,8,0.5,0.6
2024-01-14T0300,1283A,119.2984,26.1028,福州市,五四北路,,23,23,39,9,27,45,,,,25,37,4,4,0.6,0.7
2024-01-14T0300,1284A,119.2648,26.0768,福州市,杨桥西路,,37,37,44,13,23,32,,,,34,34,4,5,0.4,0.5
2024-01-14T0300,1285A,119.317,26.0746,福州市,紫阳,,26,26,46,12,26,39,,,,29,41,7,7,0.6,0.7
2024-01-14T0300,3048A,119.5799,26.0936,福州市,九龙,,18,16,31,10,20,55,,,,24,26,4,5,0.6,0.7
2024-01-14T0300,3526A,119.5189,25.9664,福州市,吴航,,50,50,39,26,23,3,,,,74,36,7,6,0.8,0.8
2024-01-14T0300,1755A,123.7977,41.8491,抚顺市,望花区,,42,42,68,10,33,62,,,,7,46,11,14,0.5,1.3
2024-01-14T0300,1756A,123.9161,41.8822,抚顺市,顺城区,,44,44,74,5,50,67,,,,9,47,7,10,0.3,1
2024-01-14T0300,1757A,124.0436,41.8611,抚顺市,东洲区,,45,45,54,12,35,64,,,,7,29,11,12,0.3,0.8
2024-01-14T0300,1758A,123.9247,41.8642,抚顺市,新抚区,,42,42,64,11,43,69,,,,11,49,7,11,0.3,1
2024-01-14T0300,1759A,124.0972,41.8961,抚顺市,大伙房水库,颗粒物(PM10),52,54,43,11,30,61,,,,7,23,10,9,0.4,0.8
2024-01-14T0300,1760A,123.7086,41.8391,抚顺市,沈抚新城,,47,47,65,7,30,73,,,,5,42,7,14,0.4,1.3
2024-01-14T0300,2376A,116.2127,28.0814,抚州市,桐源党溪,,44,44,47,24,29,1,,,,25,25,3,8,0.7,0.7
2024-01-14T0300,2377A,116.3544,27.9831,抚州市,市站,细颗粒物(PM2.5),79,92,78,58,42,8,,,,55,51,7,10,1.0,0.9
2024-01-14T0300,2378A,116.3565,27.963,抚州市,血防站,细颗粒物(PM2.5),69,76,62,50,34,7,,,,56,43,7,8,0.8,0.7
2024-01-14T0300,2379A,116.3564,28.0007,抚州市,采茶剧团,细颗粒物(PM2.5),78,84,67,57,38,2,,,,66,46,5,7,1.0,0.9
2024-01-14T0300,2380A,116.385,27.9647,抚州市,医学分院,颗粒物(PM10),57,63,60,35,30,6,,,,51,37,8,9,0.8,0.8
2024-01-14T0300,2207A,121.6094,41.998,阜新市,工业园区,颗粒物(PM10),53,55,66,14,26,66,,,,11,31,4,15,0.5,0.9
2024-01-14T0300,2208A,121.6697,42.0279,阜新市,长青街,,37,37,51,4,23,66,,,,5,22,4,20,0.2,0.5
2024-01-14T0300,2209A,121.6673,42.0705,阜新市,农业园区,,29,29,39,7,21,67,,,,8,18,8,20,0.3,0.5
2024-01-14T0300,2210A,121.6717,42.0224,阜新市,东苑,,,,,,,,,,,,,,,,
2024-01-14T0300,2211A,121.6506,42.0498,阜新市,玉龙新城,,26,26,43,2,22,68,,,,2,22,4,15,0.1,0.6
2024-01-14T0300,2301A,115.8277,32.8929,阜阳市,市监测站,细颗粒物(PM2.5),115,109,174,87,145,44,,,,48,52,10,9,0.6,0.8
2024-01-14T0300,2303A,115.8554,32.8605,阜阳市,开发区,细颗粒物(PM2.5),137,152,205,104,143,36,,,,47,57,10,11,0.8,0.9
2024-01-14T0300,2875A,115.784,32.8892,阜阳市,阜阳职业技术学院,细颗粒物(PM2.5),98,99,159,73,124,75,,,,23,44,8,8,0.7,1
2024-01-14T0300,3468A,115.7901,32.8613,阜阳市,市规划展馆,细颗粒物(PM2.5),119,137,163,90,121,55,,,,37,39,8,9,0.8,1
2024-01-14T0300,3469A,115.836,32.9183,阜阳市,枣园社区,细颗粒物(PM2.5),110,118,169,83,130,63,,,,32,52,10,8,0.8,1.1
2024-01-14T0300,2669A,102.9099,34.9841,甘南藏族自治州,州政府,细颗粒物(PM2.5),63,69,57,45,30,13,,,,42,30,13,16,0.9,0.8
2024-01-14T0300,3380A,102.8914,34.9617,甘南藏族自治州,甘肃民族师范学院,颗粒物(PM10),67,83,64,40,24,14,,,,46,34,13,14,0.9,0.8
2024-01-14T0300,2570A,101.9603,30.0475,甘孜藏族自治州,水桥子,,11,11,22,3,11,33,,,,19,28,9,10,0.3,0.3
2024-01-14T0300,3065A,101.9533,29.9972,甘孜藏族自治州,州环保局,,20,4,17,3,6,64,,,,2,14,8,8,0.2,0.3
2024-01-14T0300,3414A,115.8347,28.932,赣江新区,桑海产业园,颗粒物(PM10),73,95,86,50,46,3,,,,75,64,7,12,0.7,0.7
2024-01-14T0300,2362A,114.9017,25.9149,赣州市,通天岩,,,,,,,,,,,,,,,,
2024-01-14T0300,2363A,114.9367,25.8664,赣州市,地委,"颗粒物(PM10),细颗粒物(PM2.5)",57,63,74,40,35,3,,,,46,45,12,12,0.9,1.1
2024-01-14T0300,2364A,114.9461,25.8481,赣州市,气象台,细颗粒物(PM2.5),62,64,72,44,37,6,,,,65,57,69,22,0.7,0.9
2024-01-14T0300,2365A,114.9322,25.8333,赣州市,市图书馆,颗粒物(PM10),57,63,74,38,36,1,,,,62,59,16,19,0.9,1
2024-01-14T0300,2366A,114.8905,25.8471,赣州市,华坚鞋城,颗粒物(PM10),82,113,84,56,40,1,,,,57,56,9,7,1.4,1.3
2024-01-14T0300,3109A,115.0093,25.8613,赣州市,赣县区卫计委,,46,40,53,32,32,20,,,,27,36,8,10,0.8,0.9
2024-01-14T0300,2683A,106.2319,36.1417,固原市,马园,颗粒物(PM10),66,81,101,30,26,8,,,,46,36,5,7,0.7,0.7
2024-01-14T0300,2684A,106.2792,36.0022,固原市,监测站,颗粒物(PM10),56,61,87,11,18,42,,,,23,27,5,6,1.0,0.9
2024-01-14T0300,2685A,106.2375,36.0211,固原市,新区,颗粒物(PM10),57,63,87,26,21,9,,,,44,28,5,6,0.8,0.6
2024-01-14T0300,3522A,106.2177,35.9959,固原市,原州区十五小,,50,50,45,16,21,55,,,,18,18,5,6,0.8,0.7
2024-01-14T0300,2543A,106.6308,30.5278,广安市,小平旧居,,,,,,,,,,,,,,,,
2024-01-14T0300,2544A,106.6303,30.4576,广安市,市委,细颗粒物(PM2.5),185,167,135,139,113,8,,,,39,31,6,6,1.3,1.1
2024-01-14T0300,2545A,106.6271,30.4663,广安市,友谊中学,细颗粒物(PM2.5),182,162,136,137,111,8,,,,33,33,5,5,1.2,1.2
2024-01-14T0300,2547A,106.6388,30.4551,广安市,广电花园,细颗粒物(PM2.5),182,146,121,137,114,2,,,,36,31,4,3,1.3,1.1
2024-01-14T0300,2902A,106.6351,30.4865,广安市,北辰小学,细颗粒物(PM2.5),210,,134,160,123,9,,,,29,33,5,6,1.2,1.2
2024-01-14T0300,2523A,105.8945,32.4535,广元市,黑石坡,细颗粒物(PM2.5),124,110,124,94,101,10,,,,72,56,10,12,1.1,1.3
2024-01-14T0300,2524A,105.821,32.4444,广元市,老城,细颗粒物(PM2.5),152,163,169,116,111,2,,,,55,62,20,12,2.0,1.9
2024-01-14T0300,2526A,105.8628,32.4287,广元市,监测站,细颗粒物(PM2.5),138,130,128,105,102,3,,,,54,58,10,12,1.6,1.7
2024-01-14T0300,3617A,105.8047,32.4166,广元市,经开区,细颗粒物(PM2.5),163,177,169,124,124,2,,,,52,59,31,24,1.7,2
2024-01-14T0300,1345A,113.2347,23.1423,广州市,广雅中学,颗粒物(PM10),83,116,133,38,70,3,,,,112,105,6,10,1.0,1.3
2024-01-14T0300,1346A,113.2612,23.105,广州市,市五中,颗粒物(PM10),57,64,126,35,74,7,,,,90,84,8,13,0.8,1.1
2024-01-14T0300,1348A,113.3478,23.0916,广州市,广东商学院,颗粒物(PM10),69,87,124,46,74,3,,,,110,87,7,10,0.9,1
2024-01-14T0300,1349A,113.4332,23.1047,广州市,市八十六中,颗粒物(PM10),96,142,144,66,73,4,,,,114,103,7,11,1.3,1.2
2024-01-14T0300,1350A,113.3505,22.9483,广州市,番禺中学,颗粒物(PM10),73,95,98,39,60,4,,,,91,77,4,7,0.9,0.9
2024-01-14T0300,1351A,113.2146,23.3916,广州市,花都师范,颗粒物(PM10),95,140,138,67,74,5,,,,126,93,8,9,1.2,1
2024-01-14T0300,1352A,113.2597,23.1331,广州市,市监测站,细颗粒物(PM2.5),83,105,130,61,76,3,,,,115,96,5,9,1.3,1.2
2024-01-14T0300,1353A,113.5618,23.312,广州市,九龙镇镇龙,,,118,111,53,54,,,,,59,57,6,7,0.8,0.9
2024-01-14T0300,1354A,113.2765,23.1544,广州市,麓湖,颗粒物(PM10),64,77,118,45,68,3,,,,92,82,5,8,0.6,0.8
2024-01-14T0300,1355A,113.443,23.3035,广州市,帽峰山森林公园,颗粒物(PM10),58,66,67,34,40,28,,,,64,34,12,10,0.5,0.5
2024-01-14T0300,2846A,113.3221,23.1322,广州市,体育西,颗粒物(PM10),80,109,128,54,72,4,,,,118,103,8,12,1.2,1.2
2024-01-14T0300,3298A,113.5717,23.5491,广州市,从化街口,细颗粒物(PM2.5),79,79,79,58,57,3,,,,42,38,6,7,0.9,1
2024-01-14T0300,3299A,113.3472,23.3692,广州市,白云竹料,细颗粒物(PM2.5),105,142,115,79,64,4,,,,74,62,6,8,1.1,1.1
2024-01-14T0300,3300A,113.2981,23.237,广州市,白云嘉禾,细颗粒物(PM2.5),85,114,122,63,70,4,,,,116,99,8,10,1.1,1.1
2024-01-14T0300,3301A,113.4256,23.1716,广州市,黄埔科学城,细颗粒物(PM2.5),69,82,102,50,69,2,,,,83,74,4,7,0.9,1
2024-01-14T0300,3302A,113.3942,23.0483,广州市,番禺大学城,颗粒物(PM10),70,89,143,42,63,2,,,,104,89,9,14,0.8,1
2024-01-14T0300,3303A,113.4922,22.8168,广州市,南沙黄阁,颗粒物(PM10),55,59,85,19,46,26,,,,76,62,5,6,0.6,0.8
2024-01-14T0300,3304A,113.5342,22.7896,广州市,南沙街,颗粒物(PM10),53,56,75,22,39,41,,,,64,55,6,7,0.7,0.8
2024-01-14T0300,3443A,113.2902,23.5544,广州市,花都梯面,细颗粒物(PM2.5),69,73,73,50,48,2,,,,54,52,5,8,0.8,0.8
2024-01-14T0300,3445A,113.7858,23.7478,广州市,从化良口,,27,27,26,18,20,9,,,,38,23,6,6,0.6,0.6
2024-01-14T0300,3446A,113.8051,23.2614,广州市,增城荔城,细颗粒物(PM2.5),67,74,91,48,59,33,,,,30,40,7,8,0.8,0.9
2024-01-14T0300,2505A,109.568,23.1478,贵港市,德智高中,颗粒物(PM10),52,53,36,30,27,55,,,,23,23,7,7,0.9,1
2024-01-14T0300,2506A,109.6047,23.0666,贵港市,江南子站,"颗粒物(PM10),细颗粒物(PM2.5)",69,88,64,50,42,3,,,,41,30,8,7,1.3,1.1
2024-01-14T0300,2507A,109.6014,23.0948,贵港市,贵城子站,细颗粒物(PM2.5),90,82,54,67,44,0,,,,49,32,8,8,1.7,1.1
2024-01-14T0300,2508A,109.5669,23.1065,贵港市,荷城子站,颗粒物(PM10),59,68,48,41,35,2,,,,45,30,9,9,1.4,1.2
2024-01-14T0300,3405A,109.5886,23.1172,贵港市,新世纪学校,颗粒物(PM10),53,56,45,34,34,3,,,,42,27,6,6,1.2,1.1
2024-01-14T0300,1439A,106.6899,26.5998,贵阳市,马鞍山,,18,17,19,12,12,47,,,,9,14,8,11,0.7,0.8
2024-01-14T0300,1440A,106.6971,26.5694,贵阳市,市环保站,,23,,20,16,17,51,,,,11,20,8,10,0.4,0.4
2024-01-14T0300,1441A,106.6243,26.6266,贵阳市,鉴湖路,,16,14,24,5,11,51,,,,8,12,3,7,0.5,0.5
2024-01-14T0300,1442A,106.7487,26.6343,贵阳市,燕子冲,,20,19,22,14,14,53,,,,10,14,10,11,0.7,0.7
2024-01-14T0300,1443A,106.6555,26.4365,贵阳市,碧云窝,,19,19,23,2,9,50,,,,8,10,7,11,0.6,0.7
2024-01-14T0300,1444A,106.694,26.5161,贵阳市,中院村,,20,19,22,14,13,46,,,,10,16,10,11,0.6,0.6
2024-01-14T0300,1445A,106.7109,26.6027,贵阳市,红边门,,24,24,24,14,16,43,,,,12,16,10,10,0.7,0.7
2024-01-14T0300,1446A,106.7164,26.5699,贵阳市,新华路,,28,19,25,19,16,50,,,,11,16,8,9,0.6,0.7
2024-01-14T0300,1447A,106.674,26.5424,贵阳市,太慈桥,,19,19,25,7,11,42,,,,14,16,7,8,0.5,0.5
2024-01-14T0300,1552A,106.805,26.3003,贵阳市,桐木岭,,,,,,,,,,,,,,,,
2024-01-14T0300,1862A,110.4144,25.3167,桂林市,电子科大尧山校区,,36,,47,25,49,19,,,,15,20,4,8,0.9,1
2024-01-14T0300,1863A,110.2819,25.2697,桂林市,监测站,细颗粒物(PM2.5),99,99,94,74,71,4,,,,34,36,12,24,2.0,1.8
2024-01-14T0300,1864A,110.3089,25.2708,桂林市,龙隐路小学,细颗粒物(PM2.5),90,89,86,67,75,7,,,,41,39,20,14,1.6,1.7
2024-01-14T0300,1865A,110.2869,25.2178,桂林市,八中,细颗粒物(PM2.5),87,85,86,64,71,3,,,,27,37,7,19,1.6,1.4
2024-01-14T0300,3403A,110.1764,25.2381,桂林市,创业大厦,细颗粒物(PM2.5),104,95,81,78,70,2,,,,29,31,21,32,0.8,0.8
2024-01-14T0300,3531A,110.296,25.1253,桂林市,旅游学院,细颗粒物(PM2.5),64,63,66,46,59,1,,,,31,29,7,17,1.0,1.1
2024-01-14T0300,2674A,100.2561,34.4714,果洛藏族自治州,玛沁县大武镇,,31,31,35,18,23,20,,,,19,14,15,14,0.9,0.8
2024-01-14T0300,1129A,126.5422,45.755,哈尔滨市,岭北,细颗粒物(PM2.5),168,161,144,127,123,85,,,,53,56,8,20,1.5,1.3
2024-01-14T0300,1130A,126.561,45.8167,哈尔滨市,松北商大,细颗粒物(PM2.5),144,117,132,110,113,21,,,,61,56,14,13,1.1,1.2
2024-01-14T0300,1131A,126.979,45.5419,哈尔滨市,阿城会宁,细颗粒物(PM2.5),118,,114,89,104,45,,,,28,39,16,17,0.9,1.1
2024-01-14T0300,1132A,126.599,45.7222,哈尔滨市,南岗学府路,细颗粒物(PM2.5),152,151,159,116,117,33,,,,45,56,12,15,1.2,1.2
2024-01-14T0300,1133A,126.689,45.7733,哈尔滨市,太平宏伟公园,细颗粒物(PM2.5),140,120,156,107,127,38,,,,39,59,19,17,0.8,1.2
2024-01-14T0300,1134A,126.635,45.7667,哈尔滨市,道外承德广场,细颗粒物(PM2.5),147,139,133,112,104,36,,,,44,54,12,12,0.8,1
2024-01-14T0300,1135A,126.685,45.7319,哈尔滨市,香坊红旗大街,细颗粒物(PM2.5),152,,149,116,148,45,,,,40,62,22,24,1.1,1.5
2024-01-14T0300,1136A,126.6411,45.7258,哈尔滨市,动力和平路,细颗粒物(PM2.5),155,,139,118,132,33,,,,48,61,20,20,1.0,1.1
2024-01-14T0300,1137A,126.593,45.7478,哈尔滨市,道里建国路,细颗粒物(PM2.5),160,,121,122,113,28,,,,45,53,19,26,0.9,1.7
2024-01-14T0300,1138A,126.615,45.61,哈尔滨市,平房东轻厂,细颗粒物(PM2.5),137,111,125,104,119,37,,,,44,39,10,9,1.1,1.1
2024-01-14T0300,1139A,126.595,45.9855,哈尔滨市,呼兰师专,细颗粒物(PM2.5),120,103,147,91,125,41,,,,41,53,12,14,1.2,1.3
2024-01-14T0300,1140A,126.6206,45.6842,哈尔滨市,省农科院,细颗粒物(PM2.5),163,156,168,124,134,31,,,,61,66,15,16,1.3,1.4
2024-01-14T0300,2688A,93.5128,42.8172,哈密市,地区监测站,颗粒物(PM10),88,126,94,55,44,11,,,,48,44,5,6,1.3,0.7
2024-01-14T0300,2689A,93.4961,42.8328,哈密市,哈密师范学校,颗粒物(PM10),91,132,100,59,46,21,,,,42,46,5,10,1.0,0.9
2024-01-14T0300,2671A,100.9048,36.9639,海北藏族自治州,海晏县西海镇,颗粒物(PM10),59,67,30,18,10,46,,,,11,6,17,11,0.8,0.4
2024-01-14T0300,3867A,102.0738,36.5056,海东市,平安区公安北苑,颗粒物(PM10),74,97,79,39,32,20,,,,38,25,18,23,0.7,0.9
2024-01-14T0300,1409A,110.576,19.9507,海口市,东寨港,,,,,,,,,,,,,,,,
2024-01-14T0300,1410A,110.3232,20.0574,海口市,海南大学,,34,34,36,14,18,101,,,,13,15,8,8,0.3,0.4
2024-01-14T0300,1411A,110.283,20.0053,海口市,秀英海南医院,,35,34,35,16,20,109,,,,3,5,8,8,0.4,0.4
2024-01-14T0300,1412A,110.338,19.9969,海口市,海南师范大学,,33,29,35,18,19,105,,,,4,6,6,6,0.4,0.4
2024-01-14T0300,1413A,110.33,20.0356,海口市,龙华路环保局宿舍,,34,34,35,14,18,106,,,,3,7,7,8,0.3,0.3
2024-01-14T0300,3539A,110.5111,19.9736,海口市,桂林洋子站,,30,29,33,16,18,94,,,,5,7,6,6,0.3,0.3
2024-01-14T0300,2673A,100.6188,36.2866,海南藏族自治州,共和县恰卜恰镇,,30,30,41,11,24,35,,,,24,30,12,14,0.4,0.6
2024-01-14T0300,2676A,97.3731,37.3753,海西蒙古族藏族自治州,德令哈市,,28,28,30,5,9,89,,,,4,10,14,14,0.4,0.5
2024-01-14T0300,1048A,114.5302,36.6116,邯郸市,东污水处理厂,细颗粒物(PM2.5),156,139,275,119,254,1,,,,59,85,3,2,1.3,2
2024-01-14T0300,1049A,114.4918,36.5713,邯郸市,矿院,细颗粒物(PM2.5),165,184,293,125,253,2,,,,69,86,2,3,1.3,1.9
2024-01-14T0300,1050A,114.484,36.6133,邯郸市,丛台公园,细颗粒物(PM2.5),169,,268,128,241,6,,,,70,88,3,4,1.2,1.8
2024-01-14T0300,3458A,114.7895,36.5593,邯郸市,香泉濮院小区,细颗粒物(PM2.5),175,172,332,132,262,14,,,,53,83,4,6,1.0,1.9
2024-01-14T0300,3579A,114.50634,36.77178,邯郸市,永年区实验高中,细颗粒物(PM2.5),147,130,295,112,230,4,,,,58,87,5,8,0.8,1.7
2024-01-14T0300,3580A,114.20016,36.44293,邯郸市,峰峰矿区临水派出所,细颗粒物(PM2.5),277,240,297,227,281,2,,,,91,66,17,18,2.8,2.6
2024-01-14T0300,2634A,106.9893,33.1842,汉中市,汉川机床厂子校,细颗粒物(PM2.5),148,,101,113,91,16,,,,31,30,6,11,1.4,1.2
2024-01-14T0300,2635A,107.0154,33.0706,汉中市,市监测站,细颗粒物(PM2.5),196,150,138,147,129,6,,,,55,52,12,14,2.0,1.9
2024-01-14T0300,2636A,107.0089,33.1138,汉中市,鑫源开发区,细颗粒物(PM2.5),212,162,120,162,125,7,,,,34,36,10,18,1.7,1.5
2024-01-14T0300,2637A,107.007,33.0323,汉中市,南郑大河坎水厂,细颗粒物(PM2.5),217,185,163,167,143,4,,,,46,43,11,13,2.3,2.1
2024-01-14T0300,1223A,120.2072,30.2111,杭州市,滨江,细颗粒物(PM2.5),134,139,140,102,96,1,,,,100,85,12,13,0.9,0.9
2024-01-14T0300,1224A,120.0633,30.2747,杭州市,西溪,细颗粒物(PM2.5),135,152,130,103,92,3,,,,71,74,7,9,1.1,1
2024-01-14T0300,1226A,120.3461,30.3153,杭州市,下沙,细颗粒物(PM2.5),229,260,168,179,108,3,,,,160,106,10,10,1.2,1
2024-01-14T0300,1227A,120.1269,30.2456,杭州市,卧龙桥,细颗粒物(PM2.5),169,167,122,128,87,9,,,,37,62,5,7,0.9,0.9
2024-01-14T0300,1228A,120.1903,30.2692,杭州市,浙江农大,细颗粒物(PM2.5),200,222,159,150,104,2,,,,111,86,10,12,1.0,0.9
2024-01-14T0300,1230A,120.1197,30.3119,杭州市,和睦小学,细颗粒物(PM2.5),172,191,142,130,90,4,,,,122,88,7,9,1.2,0.9
2024-01-14T0300,1231A,120.3019,30.4183,杭州市,临平镇,细颗粒物(PM2.5),260,245,157,210,111,3,,,,120,86,7,9,1.4,1.2
2024-01-14T0300,1232A,120.2697,30.1819,杭州市,城厢镇,细颗粒物(PM2.5),165,181,164,125,112,3,,,,112,97,8,9,1.0,0.9
2024-01-14T0300,1233A,120.0883,30.1808,杭州市,云栖,细颗粒物(PM2.5),186,202,136,140,92,21,,,,50,66,6,8,0.9,0.8
2024-01-14T0300,3557A,119.9464,30.0494,杭州市,镇二中,细颗粒物(PM2.5),128,124,101,97,73,2,,,,74,74,6,7,1.0,1
2024-01-14T0300,3558A,119.7183,30.2367,杭州市,市府大楼,细颗粒物(PM2.5),129,146,114,98,72,14,,,,60,61,6,7,0.8,0.8
2024-01-14T0300,3656A,120.1556,30.2864,杭州市,消防大队,细颗粒物(PM2.5),216,224,158,166,105,6,,,,114,88,10,11,1.3,1.1
2024-01-14T0300,1270A,117.1959,31.7848,合肥市,明珠广场,细颗粒物(PM2.5),64,73,105,46,65,60,,,,38,60,7,9,0.7,0.9
2024-01-14T0300,1271A,117.3072,31.8764,合肥市,三里街,细颗粒物(PM2.5),77,85,118,56,76,30,,,,70,76,5,8,0.8,1
2024-01-14T0300,1272A,117.2588,31.8707,合肥市,琥珀山庄,细颗粒物(PM2.5),83,80,108,61,72,29,,,,73,64,6,9,0.9,1.2
2024-01-14T0300,1273A,117.1604,31.9052,合肥市,董铺水库,细颗粒物(PM2.5),67,68,112,48,69,62,,,,30,43,4,5,0.6,0.8
2024-01-14T0300,1274A,117.25,31.8571,合肥市,长江中路,细颗粒物(PM2.5),78,73,105,57,78,31,,,,61,54,8,11,1.0,1.3
2024-01-14T0300,1275A,117.266,31.9436,合肥市,庐阳区,"颗粒物(PM10),细颗粒物(PM2.5)",73,95,124,53,71,45,,,,47,55,5,7,0.8,0.9
2024-01-14T0300,1276A,117.336,31.8586,合肥市,瑶海区,细颗粒物(PM2.5),90,90,117,67,80,52,,,,44,65,3,5,0.7,1
2024-01-14T0300,1277A,117.3027,31.7964,合肥市,包河区,细颗粒物(PM2.5),83,83,110,61,79,22,,,,77,65,6,10,0.7,0.9
2024-01-14T0300,1278A,117.2776,31.7385,合肥市,滨湖新区,细颗粒物(PM2.5),70,75,103,51,74,76,,,,27,50,8,9,0.4,0.6
2024-01-14T0300,1279A,117.1318,31.8403,合肥市,高新区,"颗粒物(PM10),细颗粒物(PM2.5)",53,56,96,37,63,76,,,,30,57,8,9,0.8,1
2024-01-14T0300,3464A,117.3803,31.9147,合肥市,高教基地,细颗粒物(PM2.5),77,83,103,56,63,70,,,,34,60,6,8,0.6,0.8
2024-01-14T0300,3614A,79.924,37.0877,和田地区,地区环保局,颗粒物(PM10),155,260,233,50,61,39,,,,39,29,18,13,1.6,1.1
2024-01-14T0300,3615A,79.9131,37.113,和田地区,市环保局,颗粒物(PM10),137,223,198,56,62,48,,,,30,29,12,12,1.5,1.7
2024-01-14T0300,2516A,108.2011,24.715,河池市,东仁乐园,,42,30,27,29,23,9,,,,13,14,4,5,1.1,1.1
2024-01-14T0300,2517A,108.0497,24.6947,河池市,市环保站,,45,33,32,31,27,7,,,,21,19,7,10,1.2,1.1
2024-01-14T0300,2518A,108.0983,24.6989,河池市,市疾控中心,,46,34,32,32,26,5,,,,29,26,7,10,1.1,1
2024-01-14T0300,1696A,114.6778,23.7569,河源市,源西,,38,38,55,24,29,19,,,,40,36,4,5,0.7,0.8
2024-01-14T0300,1697A,114.6944,23.7586,河源市,东埔,,49,42,64,34,39,16,,,,37,38,6,8,0.8,0.9
2024-01-14T0300,1698A,114.6892,23.7233,河源市,老城,,40,40,51,28,32,19,,,,35,26,5,7,0.7,0.7
2024-01-14T0300,1718A,115.4208,35.2464,菏泽市,气象局,细颗粒物(PM2.5),414,437,361,371,291,11,,,,88,76,3,4,2.3,1.8
2024-01-14T0300,1719A,115.4747,35.2375,菏泽市,市政协,细颗粒物(PM2.5),408,461,374,362,281,9,,,,85,72,7,8,2.1,1.6
2024-01-14T0300,3374A,115.5564,35.0891,菏泽市,定陶老年大学,细颗粒物(PM2.5),427,447,336,390,279,10,,,,82,66,5,5,2.2,1.6
2024-01-14T0300,3647A,115.4702,35.2706,菏泽市,菏泽医专,细颗粒物(PM2.5),401,422,344,351,279,9,,,,84,70,7,9,2.4,1.8
2024-01-14T0300,2514A,111.5264,24.4172,贺州市,环保小区,颗粒物(PM10),51,52,76,28,40,4,,,,33,31,6,7,0.9,1.1
2024-01-14T0300,2515A,111.5608,24.4078,贺州市,政协大楼,颗粒物(PM10),56,62,79,36,44,3,,,,39,36,7,8,0.8,1
2024-01-14T0300,3534A,111.4744,24.4553,贺州市,西湾,,45,36,52,31,39,7,,,,23,22,7,8,0.9,1
2024-01-14T0300,2385A,114.17,35.9019,鹤壁市,市监测站,细颗粒物(PM2.5),317,308,365,267,315,0,,,,101,61,11,6,1.9,2
2024-01-14T0300,2386A,114.2956,35.7511,鹤壁市,市交警支队,细颗粒物(PM2.5),319,319,365,269,307,2,,,,99,67,10,10,1.8,1.9
2024-01-14T0300,2387A,114.2878,35.7306,鹤壁市,迎宾馆,细颗粒物(PM2.5),305,278,324,255,286,1,,,,106,71,8,10,1.9,2
2024-01-14T0300,3474A,114.2617,35.6822,鹤壁市,大新区,细颗粒物(PM2.5),304,269,324,254,294,4,,,,110,71,9,10,2.2,2.3
2024-01-14T0300,3596A,114.1572,35.9603,鹤壁市,南山宾馆,细颗粒物(PM2.5),312,312,372,262,311,3,,,,105,56,21,10,2.3,2.4
2024-01-14T0300,2244A,130.2537,47.3416,鹤岗市,哈啤分公司,细颗粒物(PM2.5),68,63,68,49,42,23,,,,38,37,20,17,1.0,1
2024-01-14T0300,2245A,130.2684,47.3086,鹤岗市,斯达机电,细颗粒物(PM2.5),59,65,59,42,34,43,,,,30,33,17,14,0.7,0.7
2024-01-14T0300,2246A,130.3114,47.3388,鹤岗市,东山纸板厂,颗粒物(PM10),52,53,50,35,45,42,,,,29,45,25,28,0.5,1.1
2024-01-14T0300,2247A,130.1097,47.3382,鹤岗市,五号水库,细颗粒物(PM2.5),79,71,47,58,35,32,,,,38,25,16,13,1.0,0.8
2024-01-14T0300,2263A,127.4833,50.2524,黑河市,交通局,,33,29,32,23,22,54,,,,7,13,7,8,0.5,0.6
2024-01-14T0300,2264A,127.5144,50.2341,黑河市,环保局,,39,31,33,27,26,54,,,,8,14,7,9,0.4,0.5
2024-01-14T0300,2265A,127.5291,50.2472,黑河市,大黑河岛,颗粒物(PM10),52,54,32,27,23,29,,,,10,10,5,3,0.6,0.6
2024-01-14T0300,1074A,115.6838,37.7541,衡水市,电机北厂,细颗粒物(PM2.5),83,74,196,61,186,0,,,,45,64,2,4,0.8,1.6
2024-01-14T0300,1075A,115.6303,37.7316,衡水市,市监测站,细颗粒物(PM2.5),75,76,192,55,176,1,,,,50,72,6,7,0.8,1.6
2024-01-14T0300,3188A,115.6683,37.7217,衡水市,市城管局,细颗粒物(PM2.5),72,76,210,52,190,0,,,,53,72,4,8,0.8,1.7
2024-01-14T0300,3459A,115.5989,37.5491,衡水市,地表水厂,细颗粒物(PM2.5),95,97,222,71,207,2,,,,52,71,1,6,1.0,1.8
2024-01-14T0300,2456A,112.5003,26.9167,衡阳市,原169医院,细颗粒物(PM2.5),78,74,77,57,52,10,,,,36,46,8,12,1.0,1.2
2024-01-14T0300,2457A,112.6194,26.9258,衡阳市,衡阳化工总厂,细颗粒物(PM2.5),145,131,113,111,95,2,,,,47,46,7,10,1.7,1.5
2024-01-14T0300,2458A,112.6211,26.8956,衡阳市,珠晖区环保局,细颗粒物(PM2.5),198,162,120,148,105,3,,,,45,46,12,11,2.7,2
2024-01-14T0300,2459A,112.6197,26.8733,衡阳市,市委党校,细颗粒物(PM2.5),95,113,105,71,73,4,,,,41,39,12,15,1.7,1.6
2024-01-14T0300,2460A,112.6006,26.8919,衡阳市,市监测站,细颗粒物(PM2.5),183,175,127,138,96,3,,,,49,50,8,9,3.3,2.1
2024-01-14T0300,2461A,112.5664,26.9056,衡阳市,真空机电公司,细颗粒物(PM2.5),130,159,104,99,78,2,,,,54,54,8,10,3.4,2.2
2024-01-14T0300,3399A,112.6703,26.882,衡阳市,师范学院,细颗粒物(PM2.5),122,110,107,92,82,1,,,,38,39,10,11,1.6,1.4
2024-01-14T0300,2608A,103.3772,23.3993,红河哈尼族彝族自治州,污水处理厂,,35,,27,24,24,53,,,,8,7,5,6,0.5,0.5
2024-01-14T0300,2609A,103.3861,23.35,红河哈尼族彝族自治州,监测站,,27,27,26,18,21,56,,,,7,9,7,8,0.6,0.6
2024-01-14T0300,3038A,103.3758,23.368,红河哈尼族彝族自治州,州图书馆,,19,19,21,9,18,54,,,,6,6,6,7,0.6,0.5
2024-01-14T0300,1090A,111.6507,40.7517,呼和浩特市,呼市一监,,24,12,70,4,38,75,,,,7,38,8,11,0.2,0.8
2024-01-14T0300,1091A,111.6572,40.8033,呼和浩特市,小召,,23,14,74,4,28,73,,,,10,44,5,11,0.3,1.1
2024-01-14T0300,1094A,111.7516,40.8369,呼和浩特市,如意水处理厂,,21,15,52,5,27,67,,,,13,45,12,13,0.3,0.9
2024-01-14T0300,1095A,111.7276,40.8062,呼和浩特市,二十九中,,22,18,74,6,28,70,,,,10,40,12,14,0.2,0.7
2024-01-14T0300,1096A,111.5512,40.7866,呼和浩特市,工大金川校区,,23,17,85,4,39,72,,,,8,46,5,9,0.3,0.9
2024-01-14T0300,1097A,111.717,40.7612,呼和浩特市,化肥厂生活区,,22,14,58,5,31,70,,,,9,39,12,15,0.3,0.9
2024-01-14T0300,3698A,111.5968,40.8178,呼和浩特市,红旗小学,,24,12,92,4,38,74,,,,12,48,8,15,0.3,1
2024-01-14T0300,3699A,111.6518,40.8389,呼和浩特市,海东办,,22,9,65,4,26,68,,,,14,46,8,13,0.2,0.8
2024-01-14T0300,2192A,119.7594,49.2261,呼伦贝尔市,区环保局,,32,30,25,22,21,63,,,,9,18,6,8,0.3,0.4
2024-01-14T0300,3061A,119.7512,49.1577,呼伦贝尔市,国华电力东,,28,28,25,17,18,63,,,,8,14,5,6,0.2,0.2
2024-01-14T0300,1250A,120.0751,30.8669,湖州市,城西水厂,细颗粒物(PM2.5),185,193,133,139,91,18,,,,86,76,5,7,0.8,0.7
2024-01-14T0300,2873A,120.0875,30.8955,湖州市,仁皇山新区,细颗粒物(PM2.5),199,194,133,149,92,20,,,,87,72,9,10,1.0,0.9
2024-01-14T0300,2907A,120.1844,30.8596,湖州市,吴兴区站,细颗粒物(PM2.5),182,191,143,137,96,11,,,,97,78,14,12,1.1,0.9
2024-01-14T0300,3562A,120.4148,30.8538,湖州市,南浔区站,细颗粒物(PM2.5),118,121,148,89,105,47,,,,58,80,9,12,0.7,0.9
2024-01-14T0300,1607A,120.9092,40.7136,葫芦岛市,龙港区,颗粒物(PM10),112,173,56,7,24,63,,,,6,22,11,43,0.2,0.5
2024-01-14T0300,1608A,120.8392,40.7514,葫芦岛市,化工街,颗粒物(PM10),90,129,54,7,23,65,,,,1,22,7,15,0.8,1
2024-01-14T0300,1609A,120.8341,40.7073,葫芦岛市,新区,颗粒物(PM10),101,152,45,5,22,71,,,,4,26,6,15,0.3,0.6
2024-01-14T0300,1610A,120.8695,40.7677,葫芦岛市,东城区,颗粒物(PM10),90,130,43,7,24,67,,,,5,33,6,18,0.6,0.8
2024-01-14T0300,2482A,109.5981,27.5721,怀化市,林科所,细颗粒物(PM2.5),94,90,60,70,48,1,,,,4,4,7,6,1.5,0.8
2024-01-14T0300,2483A,109.9453,27.5444,怀化市,河西地税局,细颗粒物(PM2.5),134,,76,102,71,4,,,,20,32,5,6,1.9,1.5
2024-01-14T0300,2484A,109.9781,27.5342,怀化市,市四医院,细颗粒物(PM2.5),108,127,106,81,73,2,,,,28,31,6,12,2.3,1.8
2024-01-14T0300,2485A,109.9972,27.5578,怀化市,监测楼,细颗粒物(PM2.5),124,138,90,94,64,5,,,,28,31,8,11,2.6,1.9
2024-01-14T0300,2486A,110.0394,27.583,怀化市,市委党校,细颗粒物(PM2.5),119,120,79,90,62,2,,,,24,24,10,15,2.0,1.4
2024-01-14T0300,1210A,119.036,33.5981,淮安市,钵池山,细颗粒物(PM2.5),244,197,174,194,161,5,,,,76,49,6,8,1.5,1.2
2024-01-14T0300,1211A,119.007,33.575,淮安市,北京南路,细颗粒物(PM2.5),239,210,178,189,167,12,,,,68,50,9,9,1.6,1.3
2024-01-14T0300,1212A,118.989,33.6067,淮安市,市监测站,细颗粒物(PM2.5),235,222,193,185,163,23,,,,73,51,10,10,1.7,1.5
2024-01-14T0300,1213A,119.135,33.5039,淮安市,楚州区监测站,细颗粒物(PM2.5),231,203,172,181,155,3,,,,64,50,7,8,1.5,1.2
2024-01-14T0300,1214A,119.0186,33.6297,淮安市,淮阴区监测站,细颗粒物(PM2.5),214,285,220,164,140,1,,,,75,54,7,9,1.9,1.4
2024-01-14T0300,3426A,118.8755,33.2894,淮安市,新华书店,细颗粒物(PM2.5),258,241,218,208,184,3,,,,85,61,7,11,1.7,1.5
2024-01-14T0300,2282A,116.8004,33.975,淮北市,监测站,细颗粒物(PM2.5),175,183,236,132,171,57,,,,37,43,11,9,1.1,1.3
2024-01-14T0300,2283A,116.8091,33.9007,淮北市,烈山区政府,细颗粒物(PM2.5),212,206,210,162,171,29,,,,70,51,9,9,1.1,1
2024-01-14T0300,3330A,116.8873,33.9836,淮北市,杜集区检察院,细颗粒物(PM2.5),190,170,212,143,178,60,,,,41,46,14,13,1.5,1.5
2024-01-14T0300,4017A,116.7923,33.9535,淮北市,市博物馆,细颗粒物(PM2.5),201,198,235,151,183,49,,,,47,45,11,10,1.4,1.3
2024-01-14T0300,2277A,116.8305,32.7727,淮南市,潘集区政府,细颗粒物(PM2.5),139,144,167,106,125,21,,,,66,56,8,9,0.9,0.9
2024-01-14T0300,2278A,117.0067,32.6524,淮南市,师范学院,细颗粒物(PM2.5),108,116,151,81,100,21,,,,49,39,11,14,0.9,0.9
2024-01-14T0300,2279A,116.8569,32.5951,淮南市,谢家集区政府,细颗粒物(PM2.5),109,115,128,82,98,50,,,,48,43,12,13,0.7,0.7
2024-01-14T0300,2280A,116.8281,32.633,淮南市,八公山区政府,细颗粒物(PM2.5),92,96,132,68,94,68,,,,22,31,10,12,0.6,0.7
2024-01-14T0300,2281A,116.6325,32.6201,淮南市,焦岗湖风景区管理处,细颗粒物(PM2.5),94,102,132,70,94,6,,,,81,55,3,3,0.6,0.6
2024-01-14T0300,2894A,117.0566,32.6531,淮南市,经济技术开发区消防队,细颗粒物(PM2.5),94,111,145,70,103,42,,,,47,36,6,8,0.6,0.8
2024-01-14T0300,3329A,117.0108,32.5893,淮南市,山南新区,细颗粒物(PM2.5),104,115,138,78,105,63,,,,35,39,8,9,1.0,0.9
2024-01-14T0300,2446A,114.9028,30.4742,黄冈市,职工中心,细颗粒物(PM2.5),58,55,86,41,58,80,,,,13,25,12,13,0.7,0.8
2024-01-14T0300,2929A,114.8858,30.4519,黄冈市,红卫路,细颗粒物(PM2.5),67,63,83,48,61,69,,,,18,20,11,11,0.7,0.9
2024-01-14T0300,3398A,114.9136,30.4445,黄冈市,市林业局,细颗粒物(PM2.5),70,57,75,51,61,63,,,,32,34,8,8,0.6,0.8
2024-01-14T0300,2672A,102.0199,35.5102,黄南藏族自治州,同仁县隆务镇,,43,43,41,23,21,50,,,,7,12,10,12,0.4,0.6
2024-01-14T0300,2295A,118.2903,29.6963,黄山市,延安路89号,,36,36,50,13,29,7,,,,20,19,4,5,0.2,0.3
2024-01-14T0300,2296A,118.327,29.7178,黄山市,黄山东路89号,颗粒物(PM10),51,52,61,24,33,4,,,,24,27,4,5,0.4,0.6
2024-01-14T0300,2297A,118.1371,30.2756,黄山市,黄山区政府5号楼,,37,37,49,21,33,17,,,,12,16,3,4,0.4,0.5
2024-01-14T0300,2423A,115.0601,30.2313,黄石市,沈家营,细颗粒物(PM2.5),78,83,103,57,64,35,,,,62,56,8,11,1.0,0.9
2024-01-14T0300,2424A,115.0817,30.2006,黄石市,陈家湾,细颗粒物(PM2.5),74,78,91,54,67,22,,,,56,55,12,15,1.0,1.2
2024-01-14T0300,2426A,114.8988,30.2019,黄石市,铁山,细颗粒物(PM2.5),77,78,83,56,61,58,,,,41,41,17,16,0.8,0.7
2024-01-14T0300,2427A,115.0307,30.2092,黄石市,团城山,细颗粒物(PM2.5),78,83,95,57,60,44,,,,57,54,21,15,1.1,1.1
2024-01-14T0300,3149A,115.0235,30.1578,黄石市,笔架山北路,细颗粒物(PM2.5),93,94,91,69,66,38,,,,58,47,18,16,0.9,0.9
2024-01-14T0300,1392A,114.4183,23.0528,惠州市,河南岸金山湖子站,颗粒物(PM10),65,79,75,40,45,24,,,,52,36,7,7,0.8,0.8
2024-01-14T0300,1393A,114.4053,23.0822,惠州市,下埔横江三路子站,颗粒物(PM10),69,88,72,46,44,11,,,,77,39,12,12,0.9,0.9
2024-01-14T0300,1394A,114.4103,23.1142,惠州市,江北云山西路子站,颗粒物(PM10),70,90,83,44,44,26,,,,69,37,13,10,1.0,1
2024-01-14T0300,1395A,114.4645,22.7833,惠州市,惠阳区承修路船湖子站,颗粒物(PM10),64,78,66,27,32,28,,,,54,36,9,10,0.8,0.8
2024-01-14T0300,1396A,114.5317,22.7422,惠州市,大亚湾管委会子站,颗粒物(PM10),60,70,76,21,30,45,,,,52,63,7,7,0.7,0.9
2024-01-14T0300,3314A,114.4338,22.8134,惠州市,惠阳秋长,颗粒物(PM10),58,66,84,25,32,46,,,,33,32,9,9,0.8,0.8
2024-01-14T0300,3452A,114.6517,22.775,惠州市,大亚湾霞涌,颗粒物(PM10),55,59,67,21,37,51,,,,29,32,8,10,0.6,0.7
2024-01-14T0300,2240A,130.9762,45.3001,鸡西市,环保局,细颗粒物(PM2.5),79,81,56,58,43,44,,,,19,24,12,9,0.7,0.8
2024-01-14T0300,2243A,130.9429,45.3039,鸡西市,第一中学,细颗粒物(PM2.5),67,65,52,48,37,38,,,,27,22,20,12,0.4,0.4
2024-01-14T0300,3707A,131.0207,45.3073,鸡西市,欧美日汽修厂,细颗粒物(PM2.5),77,73,78,56,63,37,,,,25,39,13,29,1.2,1.3
2024-01-14T0300,3709A,130.9967,45.3106,鸡西市,市政设施管理处,颗粒物(PM10),76,102,71,54,56,42,,,,23,36,5,6,0.7,0.8
2024-01-14T0300,2367A,114.9754,27.0803,吉安市,红声器材厂,颗粒物(PM10),62,74,80,42,46,9,,,,60,50,13,16,0.7,0.9
2024-01-14T0300,2368A,114.9658,27.0999,吉安市,市森林工业局,细颗粒物(PM2.5),83,86,73,61,49,3,,,,58,45,9,17,0.8,0.7
2024-01-14T0300,2369A,114.99,27.1312,吉安市,市环境监测站,细颗粒物(PM2.5),82,93,73,60,44,2,,,,66,49,9,14,0.9,0.8
2024-01-14T0300,2370A,115.0093,27.0968,吉安市,青原区法院,细颗粒物(PM2.5),75,85,76,55,48,1,,,,58,44,16,19,1.2,0.8
2024-01-14T0300,1772A,126.54,43.8622,吉林市,哈达湾,,42,36,58,29,47,46,,,,22,27,9,10,0.8,0.8
2024-01-14T0300,1773A,126.5844,43.8358,吉林市,东局子,,45,42,64,31,54,39,,,,24,27,9,8,0.9,0.9
2024-01-14T0300,1774A,126.5052,43.8245,吉林市,电力学院,,42,39,63,29,56,43,,,,20,27,11,13,0.8,0.9
2024-01-14T0300,1775A,126.6133,43.8972,吉林市,江北,,45,45,75,30,61,40,,,,24,37,12,14,0.8,1
2024-01-14T0300,1776A,126.555,43.8306,吉林市,江南公园,,50,43,66,35,59,40,,,,23,29,12,12,0.7,0.8
2024-01-14T0300,1778A,126.7061,43.7133,吉林市,丰满,,,,,,,,,,,,,,,,
2024-01-14T0300,2868A,126.4739,43.953,吉林市,九站,,40,40,98,28,84,42,,,,25,44,9,14,0.8,1.1
2024-01-14T0300,1299A,116.9862,36.6114,济南市,科干所,细颗粒物(PM2.5),223,212,322,173,241,5,,,,67,100,10,18,2.0,2.2
2024-01-14T0300,1300A,116.9376,36.665,济南市,农科所,细颗粒物(PM2.5),236,217,322,186,230,5,,,,55,107,8,16,1.7,2.5
2024-01-14T0300,1301A,117.1265,36.6734,济南市,开发区,细颗粒物(PM2.5),238,217,313,188,244,2,,,,72,109,7,11,2.0,2.2
2024-01-14T0300,1303A,117.0624,36.6868,济南市,省种子仓库,细颗粒物(PM2.5),243,249,366,193,258,4,,,,60,96,6,17,1.9,2.6
2024-01-14T0300,1304A,116.9489,36.6447,济南市,机床二厂,细颗粒物(PM2.5),245,205,302,195,244,4,,,,57,104,6,22,1.9,2.5
2024-01-14T0300,1305A,117.0495,36.663,济南市,市监测站,细颗粒物(PM2.5),233,227,323,183,244,6,,,,69,104,12,20,1.9,2.3
2024-01-14T0300,1306A,116.7675,36.5484,济南市,长清党校,细颗粒物(PM2.5),250,249,290,200,225,9,,,,72,90,7,11,1.7,1.7
2024-01-14T0300,1616A,117.6795,36.229,济南市,技术学院,细颗粒物(PM2.5),243,232,233,193,191,47,,,,56,62,12,13,1.9,1.9
2024-01-14T0300,1961A,117.532,36.6868,济南市,东山小学,细颗粒物(PM2.5),231,237,354,181,259,6,,,,70,94,7,11,2.2,2.5
2024-01-14T0300,3059A,117.7161,36.2049,济南市,泰兴公司,细颗粒物(PM2.5),218,207,242,168,185,9,,,,87,73,7,10,1.7,1.9
2024-01-14T0300,3064A,117.6867,36.2171,济南市,莱芜战役纪念馆,细颗粒物(PM2.5),228,222,240,178,188,33,,,,65,69,12,13,1.7,1.8
2024-01-14T0300,3494A,117.1673,36.9782,济南市,济阳区政府,细颗粒物(PM2.5),226,264,303,176,232,7,,,,64,85,8,18,1.5,2.1
2024-01-14T0300,3495A,117.1171,36.63,济南市,锦屏中学,细颗粒物(PM2.5),238,227,293,188,235,4,,,,73,87,7,9,2.1,1.9
2024-01-14T0300,3682A,116.9814,36.6819,济南市,济南四建,细颗粒物(PM2.5),236,195,308,186,252,5,,,,56,107,9,19,1.9,2.9
2024-01-14T0300,1653A,116.6251,35.4302,济宁市,火炬城,细颗粒物(PM2.5),228,214,219,178,179,11,,,,70,60,4,8,1.9,1.6
2024-01-14T0300,1655A,116.5491,35.4042,济宁市,电化厂,细颗粒物(PM2.5),240,237,235,190,177,11,,,,73,47,6,9,2.0,1.5
2024-01-14T0300,3500A,116.5814,35.3707,济宁市,北湖一中,细颗粒物(PM2.5),252,229,214,202,187,7,,,,82,50,6,7,1.7,1.4
2024-01-14T0300,3501A,116.8249,35.5593,济宁市,服务中心,细颗粒物(PM2.5),227,249,288,177,192,12,,,,60,66,4,6,1.8,1.7
2024-01-14T0300,3678A,116.5907,35.4054,济宁市,市第七中学,细颗粒物(PM2.5),238,210,212,188,182,14,,,,70,55,4,8,1.8,1.5
2024-01-14T0300,2255A,130.2751,46.8028,佳木斯市,佳纺,细颗粒物(PM2.5),75,60,55,55,50,28,,,,51,31,10,10,0.8,0.8
2024-01-14T0300,2256A,130.3995,46.8307,佳木斯市,发电厂,细颗粒物(PM2.5),67,56,54,48,48,45,,,,30,34,13,14,0.8,0.9
2024-01-14T0300,2257A,130.3258,46.7975,佳木斯市,环保局,细颗粒物(PM2.5),73,56,45,53,40,18,,,,52,27,10,9,0.9,0.7
2024-01-14T0300,2258A,130.3648,46.8032,佳木斯市,十一中,细颗粒物(PM2.5),77,,42,56,40,35,,,,34,30,8,7,0.8,0.7
2024-01-14T0300,2259A,130.3794,46.7588,佳木斯市,四丰,,48,48,47,28,30,44,,,,30,8,1,1,0.4,0.5
2024-01-14T0300,1252A,120.7436,30.778,嘉兴市,清河小学,细颗粒物(PM2.5),73,86,139,53,94,74,,,,33,75,10,12,1.0,1.3
2024-01-14T0300,1253A,120.726,30.7478,嘉兴市,嘉兴学院,颗粒物(PM10),65,79,138,36,89,77,,,,29,70,11,13,0.7,1.1
2024-01-14T0300,2872A,120.7846,30.7525,嘉兴市,南湖区残联,细颗粒物(PM2.5),72,79,137,52,93,93,,,,31,79,12,14,0.6,1
2024-01-14T0300,3407A,120.6916,30.7739,嘉兴市,秀洲住建,细颗粒物(PM2.5),64,64,127,46,95,80,,,,29,77,12,14,0.5,0.9
2024-01-14T0300,1945A,98.2908,39.7711,嘉峪关市,气象局,颗粒物(PM10),85,119,202,39,57,75,,,,12,24,4,10,0.2,0.4
2024-01-14T0300,2884A,98.2672,39.7978,嘉峪关市,酒钢宾馆,颗粒物(PM10),80,110,202,36,57,81,,,,6,20,15,12,0.3,0.5
2024-01-14T0300,3248A,98.2643,39.7724,嘉峪关市,雄关区,颗粒物(PM10),74,97,163,37,45,69,,,,14,28,5,9,0.3,0.5
2024-01-14T0300,1383A,113.1064,22.6058,江门市,北街,颗粒物(PM10),51,52,79,29,52,35,,,,53,61,7,9,0.8,0.8
2024-01-14T0300,1384A,113.0731,22.5835,江门市,西区,颗粒物(PM10),69,87,103,26,51,2,,,,97,63,6,8,0.7,0.9
2024-01-14T0300,1385A,113.0219,22.5311,江门市,圭峰西,,39,39,77,15,57,64,,,,30,39,8,9,0.6,0.9
2024-01-14T0300,1386A,113.0828,22.5947,江门市,东湖,颗粒物(PM10),55,60,90,24,48,5,,,,88,57,7,8,0.9,0.9
2024-01-14T0300,3311A,113.1075,22.5647,江门市,江海富民,颗粒物(PM10),71,91,121,42,67,16,,,,87,58,8,10,0.8,0.7
2024-01-14T0300,3449A,113.05,22.4667,江门市,新会银湖,颗粒物(PM10),64,77,77,38,64,7,,,,55,34,7,9,0.8,0.9
2024-01-14T0300,1828A,113.227,35.2125,焦作市,市环保局,细颗粒物(PM2.5),410,439,354,365,290,5,,,,68,61,10,14,2.0,1.8
2024-01-14T0300,1830A,113.1992,35.2590,焦作市,影视城,,,,,,,,,,,,,,,,
2024-01-14T0300,3169A,113.2725,35.2067,焦作市,太极体育中心,细颗粒物(PM2.5),392,438,351,342,287,3,,,,76,63,16,18,2.2,1.9
2024-01-14T0300,3335A,113.3137,35.2641,焦作市,马村街道办,细颗粒物(PM2.5),397,414,338,347,277,4,,,,74,62,10,14,1.9,1.7
2024-01-14T0300,3336A,113.2465,35.2373,焦作市,焦作技师学院,细颗粒物(PM2.5),394,433,350,344,275,4,,,,74,62,10,17,2.1,1.9
2024-01-14T0300,3477A,113.1656,35.2539,焦作市,中站许衡医院,细颗粒物(PM2.5),304,320,296,254,232,8,,,,56,56,12,19,1.4,1.3
2024-01-14T0300,3981A,113.2449,35.1803,焦作市,原李万街道办,细颗粒物(PM2.5),394,421,341,344,286,5,,,,67,60,14,14,2.2,1.9
2024-01-14T0300,1708A,116.3701,23.5345,揭阳市,新兴,细颗粒物(PM2.5),87,71,92,64,61,27,,,,56,50,15,16,0.8,0.8
2024-01-14T0300,1709A,116.3264,23.5443,揭阳市,西马,细颗粒物(PM2.5),88,84,96,65,62,35,,,,47,44,10,14,0.8,0.9
2024-01-14T0300,1710A,116.3611,23.5626,揭阳市,东兴,细颗粒物(PM2.5),78,85,91,57,52,12,,,,71,50,30,20,1.0,0.9
2024-01-14T0300,1711A,116.4151,23.5294,揭阳市,渔湖,颗粒物(PM10),60,70,88,27,48,30,,,,43,42,14,17,0.8,0.8
2024-01-14T0300,3320A,116.403,23.5699,揭阳市,曲溪,颗粒物(PM10),61,72,85,37,51,17,,,,50,47,6,18,0.7,0.7
2024-01-14T0300,1944A,102.1692,38.5167,金昌市,天庆家园,颗粒物(PM10),59,68,96,18,24,46,,,,28,26,50,24,0.7,0.4
2024-01-14T0300,3170A,102.1864,38.5253,金昌市,市委党校,颗粒物(PM10),75,99,111,36,32,61,,,,11,18,64,42,0.6,0.6
2024-01-14T0300,4022A,102.1647,38.5371,金昌市,金川区人防中心,颗粒物(PM10),74,97,115,26,25,55,,,,16,18,37,28,0.8,0.7
2024-01-14T0300,1262A,119.647,29.077,金华市,十五中,细颗粒物(PM2.5),90,124,100,67,56,4,,,,106,81,7,5,0.9,0.9
2024-01-14T0300,1263A,119.686,29.1029,金华市,监测站,"颗粒物(PM10),细颗粒物(PM2.5)",89,127,98,66,51,2,,,,95,74,6,6,0.7,0.7
2024-01-14T0300,3659A,119.656,29.1131,金华市,气象局,细颗粒物(PM2.5),104,142,110,78,58,3,,,,98,76,7,6,0.9,0.9
2024-01-14T0300,1767A,121.1115,41.0879,锦州市,南山,颗粒物(PM10),64,77,43,5,25,76,,,,3,26,6,22,0.2,0.5
2024-01-14T0300,1768A,121.0533,40.8434,锦州市,开发区,颗粒物(PM10),104,158,57,6,22,65,,,,,31,11,20,0.4,0.6
2024-01-14T0300,1769A,121.1836,41.1119,锦州市,百股街道,颗粒物(PM10),66,82,42,5,26,71,,,,3,25,6,19,0.5,0.8
2024-01-14T0300,1770A,121.1178,41.1222,锦州市,天安街道,颗粒物(PM10),63,76,46,3,25,74,,,,2,27,5,16,0.4,0.7
2024-01-14T0300,1771A,121.1303,41.1386,锦州市,北湖公园,,46,46,38,3,26,72,,,,5,26,6,16,0.5,0.8
2024-01-14T0300,2160A,112.85,35.5051,晋城市,自来水公司,细颗粒物(PM2.5),235,204,174,185,137,43,,,,44,46,7,10,2.8,1.5
2024-01-14T0300,2161A,112.8318,35.4936,晋城市,白云商贸,细颗粒物(PM2.5),216,217,186,166,129,24,,,,46,45,4,6,1.7,1.5
2024-01-14T0300,2162A,112.8508,35.4887,晋城市,市环保局,细颗粒物(PM2.5),211,216,186,161,130,39,,,,40,50,7,10,2.2,1.5
2024-01-14T0300,2163A,112.8676,35.4897,晋城市,技术学院,细颗粒物(PM2.5),218,188,170,168,125,32,,,,54,58,7,11,2.2,1.5
2024-01-14T0300,2165A,112.8453,35.546,晋城市,白马寺,,,,,,,,,,,,,,,,
2024-01-14T0300,3620A,112.8271,35.4828,晋城市,泽州一中,细颗粒物(PM2.5),192,182,172,144,126,51,,,,36,45,6,7,1.7,1.5
2024-01-14T0300,2171A,112.7532,37.6945,晋中市,锦纶小区,颗粒物(PM10),69,88,132,29,67,49,,,,25,67,10,22,0.5,1.2
2024-01-14T0300,2173A,112.7249,37.7067,晋中市,南都小区,细颗粒物(PM2.5),69,78,131,50,69,38,,,,28,66,11,22,0.5,1.2
2024-01-14T0300,2174A,112.6991,37.6982,晋中市,榆次区政府,颗粒物(PM10),65,79,123,38,67,37,,,,32,65,12,23,0.4,1
2024-01-14T0300,2865A,112.7195,37.6828,晋中市,榆次三中,颗粒物(PM10),78,105,140,31,66,32,,,,38,67,9,22,0.6,1.2
2024-01-14T0300,2439A,112.2014,31.0481,荆门市,竹园小学,细颗粒物(PM2.5),209,185,166,159,128,40,,,,37,50,7,10,1.6,1.5
2024-01-14T0300,2440A,112.1969,30.9891,荆门市,掇刀,细颗粒物(PM2.5),180,170,161,136,132,99,,,,12,44,8,9,1.0,1.1
2024-01-14T0300,2441A,112.2213,31.0386,荆门市,石化一小,细颗粒物(PM2.5),222,196,172,172,142,45,,,,29,51,12,14,1.0,1.1
2024-01-14T0300,3012A,112.1849,31.0362,荆门市,西山林语,细颗粒物(PM2.5),159,152,143,121,101,98,,,,19,37,14,14,0.8,0.8
2024-01-14T0300,3547A,112.1632,31.0138,荆门市,龙泉中学南校,细颗粒物(PM2.5),144,161,152,110,112,85,,,,20,38,12,13,1.3,1.3
2024-01-14T0300,1844A,112.2494,30.3197,荆州市,市图书馆,细颗粒物(PM2.5),182,145,112,137,94,36,,,,44,53,8,8,1.3,1.6
2024-01-14T0300,1845A,112.2008,30.3544,荆州市,市委党校,细颗粒物(PM2.5),188,181,137,141,113,30,,,,43,57,6,7,1.3,1.4
2024-01-14T0300,3194A,112.2747,30.3122,荆州市,管委会,细颗粒物(PM2.5),155,139,117,118,91,20,,,,56,52,7,8,1.4,1.4
2024-01-14T0300,3548A,112.1655,30.3364,荆州市,学苑路,细颗粒物(PM2.5),228,,128,178,136,43,,,,28,59,7,7,1.3,1.4
2024-01-14T0300,2342A,117.3102,29.3867,景德镇市,王港中学,,,,,,,,,,,,,,,,
2024-01-14T0300,2343A,117.2117,29.2933,景德镇市,老干部活动中心,,50,50,61,32,38,3,,,,39,34,7,6,0.6,0.7
2024-01-14T0300,2344A,117.1894,29.2789,景德镇市,兽医站,,49,,57,34,35,9,,,,42,36,5,7,0.6,0.7
2024-01-14T0300,2345A,117.1547,29.2617,景德镇市,台达陶瓷,,47,47,66,30,28,4,,,,47,43,7,12,0.7,0.8
2024-01-14T0300,2346A,117.2461,29.2956,景德镇市,陶研所,,43,41,50,30,26,3,,,,27,26,6,5,0.5,0.5
2024-01-14T0300,1803A,115.9872,29.6815,九江市,十里,"颗粒物(PM10),细颗粒物(PM2.5)",62,74,74,44,44,7,,,,57,57,9,12,0.9,1
2024-01-14T0300,1804A,115.9584,29.7046,九江市,茅山头,细颗粒物(PM2.5),122,144,86,92,53,3,,,,67,64,16,16,1.6,1
2024-01-14T0300,1805A,115.9877,29.7295,九江市,西园,细颗粒物(PM2.5),99,110,79,74,54,10,,,,66,63,10,12,0.8,0.7
2024-01-14T0300,1806A,116.0172,29.6547,九江市,五七二七厂,颗粒物(PM10),59,68,49,41,30,64,,,,24,28,11,11,1.4,1
2024-01-14T0300,1808A,115.9114,29.6038,九江市,综合工业园,细颗粒物(PM2.5),112,113,81,84,63,41,,,,56,58,13,13,1.3,1.1
2024-01-14T0300,1809A,116.0721,29.7535,九江市,石化总厂,颗粒物(PM10),70,90,68,46,42,53,,,,34,38,14,15,0.7,0.7
2024-01-14T0300,1810A,115.9773,29.5698,九江市,庐山气象台,,31,,12,15,11,98,,,,4,4,7,7,0.9,0.8
2024-01-14T0300,3190A,116.0254,29.6994,九江市,外国语学校,细颗粒物(PM2.5),117,108,62,88,46,4,,,,82,46,11,13,1.0,0.7
2024-01-14T0300,2658A,98.5061,39.7443,酒泉市,仓门街子站,颗粒物(PM10),128,205,280,74,67,10,,,,44,22,4,8,1.0,0.7
2024-01-14T0300,2659A,98.4989,39.7256,酒泉市,油田生活基地,颗粒物(PM10),102,153,282,50,66,31,,,,37,26,5,8,0.5,0.6
2024-01-14T0300,2698A,76.0072,39.4467,喀什地区,巡警大队,颗粒物(PM10),212,358,278,119,59,14,,,,80,42,7,8,3.3,1.3
2024-01-14T0300,2699A,75.9755,39.4694,喀什地区,吾办,颗粒物(PM10),195,340,271,132,76,12,,,,96,60,7,7,4.3,1.9
2024-01-14T0300,4027A,75.9483,39.4689,喀什地区,老干局,颗粒物(PM10),304,423,290,133,68,16,,,,74,46,8,10,4.6,2
2024-01-14T0300,1824A,114.3389,34.7781,开封市,肿瘤医院,细颗粒物(PM2.5),353,376,365,303,294,25,,,,42,54,6,6,1.8,1.7
2024-01-14T0300,1826A,114.2885,34.7965,开封市,世纪星幼儿园,细颗粒物(PM2.5),392,356,341,342,327,31,,,,52,66,5,5,1.7,1.7
2024-01-14T0300,3147A,114.3438,34.8106,开封市,龙亭公园,细颗粒物(PM2.5),394,361,356,344,336,26,,,,55,69,3,4,1.7,1.7
2024-01-14T0300,3210A,114.3644,34.7964,开封市,汴京公园,细颗粒物(PM2.5),391,378,358,341,325,33,,,,53,65,2,2,1.6,1.5
2024-01-14T0300,3473A,114.2485,34.8306,开封市,技师学院,细颗粒物(PM2.5),384,370,355,334,334,25,,,,55,62,3,3,1.9,1.8
2024-01-14T0300,3592A,114.4644,34.7556,开封市,祥符区生态环境局,细颗粒物(PM2.5),401,409,396,351,326,16,,,,62,66,6,7,1.8,1.6
2024-01-14T0300,1951A,84.895,45.6094,克拉玛依市,长征新村,,20,4,9,3,6,62,,,,12,15,9,9,0.3,0.3
2024-01-14T0300,1952A,84.8988,45.5893,克拉玛依市,南林小区,,29,,13,20,11,53,,,,17,21,2,3,0.1,0.2
2024-01-14T0300,1954A,84.905,44.3396,克拉玛依市,独山子区,,22,16,29,15,21,51,,,,16,19,4,5,0.6,0.5
2024-01-14T0300,1955A,85.6979,46.098,克拉玛依市,乌尔禾区商贸楼,,16,,8,9,8,50,,,,14,14,5,6,0.3,0.2
2024-01-14T0300,3612A,85.1045,45.6899,克拉玛依市,白碱滩区新站,,21,17,10,9,5,13,,,,42,16,9,9,0.5,0.2
2024-01-14T0300,2697A,76.1454,39.7142,克孜勒苏柯尔克孜自治州,市人民政府,颗粒物(PM10),136,221,190,51,54,48,,,,15,16,4,5,0.6,0.8
2024-01-14T0300,3665A,76.1658,39.7157,克孜勒苏柯尔克孜自治州,克州文化中心,颗粒物(PM10),148,245,229,50,50,48,,,,17,23,8,8,0.6,0.7
2024-01-14T0300,1450A,102.8204,24.8886,昆明市,呈贡新区,颗粒物(PM10),101,151,54,68,28,2,,,,56,34,11,8,0.9,0.6
2024-01-14T0300,1451A,102.6251,24.9608,昆明市,西山森林公园,,26,23,20,12,14,82,,,,13,13,10,10,0.6,0.7
2024-01-14T0300,1452A,102.7252,25.0902,昆明市,龙泉镇,,48,48,46,29,25,5,,,,49,43,8,9,0.7,0.7
2024-01-14T0300,1453A,102.7266,25.0375,昆明市,东风东路,颗粒物(PM10),55,59,44,38,30,0,,,,60,41,10,11,1.0,0.9
2024-01-14T0300,1454A,102.6742,25.0669,昆明市,金鼎山,颗粒物(PM10),71,92,50,48,30,6,,,,61,38,36,26,0.9,0.8
2024-01-14T0300,1455A,102.6644,25.0401,昆明市,碧鸡广场,,47,47,44,28,27,21,,,,40,38,10,12,0.7,0.7
2024-01-14T0300,3179A,102.7494,25.0119,昆明市,官渡区博物馆,颗粒物(PM10),76,102,56,50,32,4,,,,60,41,10,10,1.2,0.9
2024-01-14T0300,3375A,102.8017,24.8336,昆明市,青年创业园,,34,34,32,18,19,7,,,,51,25,13,13,0.5,0.6
2024-01-14T0300,3550A,102.7997,24.9786,昆明市,昆明学院,细颗粒物(PM2.5),74,94,60,54,30,3,,,,59,35,12,12,1.0,0.6
2024-01-14T0300,3551A,102.5967,24.6736,昆明市,晋宁区生态环境分局,颗粒物(PM10),57,64,45,29,29,41,,,,21,24,3,3,0.4,0.5
2024-01-14T0300,3552A,102.6678,24.9856,昆明市,云天化总部,,44,44,42,22,23,10,,,,60,40,4,5,0.6,1.1
2024-01-14T0300,1456A,91.1319,29.6514,拉萨市,八廓街,,26,26,26,17,18,43,,,,22,32,7,7,0.6,0.6
2024-01-14T0300,1457A,91.1221,29.6747,拉萨市,市环保局,颗粒物(PM10),52,54,41,34,30,15,,,,41,31,7,8,1.5,1.3
2024-01-14T0300,1458A,91.0874,29.6475,拉萨市,区监测站,,35,31,19,24,13,28,,,,45,33,5,4,0.9,0.7
2024-01-14T0300,1459A,91.1774,29.6541,拉萨市,西藏大学,,25,25,17,14,11,48,,,,18,15,5,5,0.6,0.6
2024-01-14T0300,1460A,90.9798,29.6588,拉萨市,区辐射站,,37,37,43,20,32,12,,,,50,40,6,8,1.2,1
2024-01-14T0300,1461A,91.0834,29.6292,拉萨市,拉萨火车站,,31,31,22,21,14,15,,,,52,33,5,4,1.3,0.9
2024-01-14T0300,2520A,109.2203,23.7256,来宾市,来宾技工学校,"颗粒物(PM10),细颗粒物(PM2.5)",60,69,51,43,35,2,,,,35,29,5,7,1.6,1.5
2024-01-14T0300,3535A,109.1781,23.7297,来宾市,兴宾区政府,细颗粒物(PM2.5),58,61,45,41,34,12,,,,23,27,6,8,1.1,1.2
2024-01-14T0300,4002A,109.2416,23.7461,来宾市,中南小学,颗粒物(PM10),52,54,50,31,34,2,,,,29,28,8,9,1.4,1.4
2024-01-14T0300,1476A,103.631,36.1031,兰州市,兰炼宾馆,颗粒物(PM10),75,100,118,44,51,4,,,,71,71,14,23,0.8,1.4
2024-01-14T0300,1477A,104.1373,35.9454,兰州市,榆中兰大校区,,,,,,,,,,,,,,,,
2024-01-14T0300,1478A,103.8412,36.0726,兰州市,生物制品所,颗粒物(PM10),71,92,126,37,54,4,,,,71,68,11,22,0.7,1.6
2024-01-14T0300,1479A,103.831,36.0464,兰州市,铁路设计院,颗粒物(PM10),92,134,124,49,56,4,,,,72,72,38,32,3.2,2.3
2024-01-14T0300,3186A,103.7158,36.1058,兰州市,教育港,颗粒物(PM10),57,64,115,37,49,2,,,,64,74,9,21,0.7,1.6
2024-01-14T0300,3241A,103.7439,36.0842,兰州市,百合公园,颗粒物(PM10),65,79,115,35,51,17,,,,48,70,10,19,1.1,1.9
2024-01-14T0300,3242A,103.9611,35.998,兰州市,和平,颗粒物(PM10),79,108,124,43,53,38,,,,36,49,7,22,0.6,1.6
2024-01-14T0300,3245A,103.6633,36.533,兰州新区,新区管委会,颗粒物(PM10),73,95,95,32,32,16,,,,29,25,6,22,0.6,0.7
2024-01-14T0300,3246A,103.6975,36.4789,兰州新区,舟曲中学,颗粒物(PM10),91,132,109,43,29,18,,,,41,29,7,24,0.7,0.7
2024-01-14T0300,1067A,116.6708,39.5111,廊坊市,药材公司,颗粒物(PM10),65,79,79,19,35,34,,,,40,53,2,4,0.5,0.9
2024-01-14T0300,1068A,116.7214,39.5589,廊坊市,开发区,颗粒物(PM10),55,59,71,18,42,40,,,,36,60,2,4,0.4,0.8
2024-01-14T0300,1070A,116.7244,39.5269,廊坊市,北华航天学院,颗粒物(PM10),58,65,70,10,39,44,,,,29,47,2,5,0.4,0.8
2024-01-14T0300,2919A,116.7022,39.5453,廊坊市,河北工业大学,颗粒物(PM10),62,74,69,17,38,38,,,,30,46,3,4,0.4,0.7
2024-01-14T0300,2535A,103.7723,29.5462,乐山市,花湖湾,细颗粒物(PM2.5),175,,176,132,128,34,,,,23,33,3,4,0.8,0.9
2024-01-14T0300,2536A,103.7627,29.5844,乐山市,牛耳桥,细颗粒物(PM2.5),196,179,135,147,112,16,,,,44,44,4,5,1.1,1
2024-01-14T0300,2537A,103.7508,29.6006,乐山市,市第三水厂,细颗粒物(PM2.5),172,194,148,130,102,12,,,,49,46,5,5,1.2,1.1
2024-01-14T0300,2538A,103.7571,29.5664,乐山市,市监测站,细颗粒物(PM2.5),132,123,126,100,96,37,,,,22,38,7,8,1.0,1.1
2024-01-14T0300,3361A,103.7311,29.5628,乐山市,理工大学,细颗粒物(PM2.5),134,126,149,102,121,40,,,,24,41,8,9,0.7,0.8
2024-01-14T0300,2598A,100.2143,26.8576,丽江市,西南郊,,,,,,,,,,,,,,,,
2024-01-14T0300,2599A,100.2497,26.8802,丽江市,丽江古城,颗粒物(PM10),51,51,60,34,34,69,,,,22,24,8,8,0.6,0.7
2024-01-14T0300,2600A,100.2203,26.8906,丽江市,市中心,,48,40,38,33,26,70,,,,12,19,7,7,0.6,0.7
2024-01-14T0300,1267A,119.914,28.4514,丽水市,监测站大楼,,40,,70,28,44,13,,,,39,49,6,7,0.3,1.1
2024-01-14T0300,1268A,119.93,28.4586,丽水市,莲都小学,,50,50,72,32,54,16,,,,50,52,8,4,0.5,0.6
2024-01-14T0300,1269A,119.879,28.4231,丽水市,余庄前,,49,49,60,33,34,5,,,,32,38,4,5,0.4,0.5
2024-01-14T0300,1173A,119.176,34.5885,连云港市,市环境监测站,细颗粒物(PM2.5),225,202,131,175,114,69,,,,23,42,6,5,1.1,1.1
2024-01-14T0300,3000A,119.3581,34.6972,连云港市,德源药业,细颗粒物(PM2.5),225,205,133,175,105,66,,,,28,46,8,6,1.2,1.2
2024-01-14T0300,3007A,119.178,34.844,连云港市,新城一中,颗粒物(PM10),59,67,80,31,38,14,,,,66,39,7,7,1.6,1.2
2024-01-14T0300,3008A,119.3608,34.7519,连云港市,胡沟管理处,细颗粒物(PM2.5),149,122,81,114,76,62,,,,39,38,10,8,1.5,1.2
2024-01-14T0300,3009A,119.1478,34.5911,连云港市,矿山设计院,细颗粒物(PM2.5),208,202,123,158,87,65,,,,28,48,5,5,1.3,1.3
2024-01-14T0300,3434A,119.2413,34.6539,连云港市,工贸学校,细颗粒物(PM2.5),204,199,122,154,87,75,,,,35,49,14,8,1.3,1.3
2024-01-14T0300,3664A,119.4172,34.7341,连云港市,连云街道,细颗粒物(PM2.5),124,119,142,94,110,69,,,,48,57,7,7,1.2,1.2
2024-01-14T0300,2571A,102.3431,27.8099,凉山彝族自治州,青龙寺,颗粒物(PM10),89,128,153,35,41,62,,,,14,19,6,9,1.1,1.3
2024-01-14T0300,2572A,102.2721,27.8415,凉山彝族自治州,邛海宾馆,细颗粒物(PM2.5),226,,160,176,142,46,,,,30,34,13,13,1.4,1.4
2024-01-14T0300,2573A,102.2625,27.898,凉山彝族自治州,西昌市政府,细颗粒物(PM2.5),225,200,154,175,133,47,,,,22,29,11,13,1.4,1.3
2024-01-14T0300,2574A,102.2685,27.8851,凉山彝族自治州,凉山州政府,细颗粒物(PM2.5),225,200,159,175,132,37,,,,32,39,10,11,1.3,1.3
2024-01-14T0300,2575A,102.237,27.8914,凉山彝族自治州,长安,细颗粒物(PM2.5),213,200,171,163,133,8,,,,70,54,17,18,1.3,1.2
2024-01-14T0300,2212A,123.2,41.1953,辽阳市,宏伟区,,38,38,47,17,26,57,,,,6,26,12,15,0.6,1
2024-01-14T0300,2213A,123.1683,41.2495,辽阳市,新华园,,45,45,83,19,47,60,,,,7,51,6,22,0.4,1.6
2024-01-14T0300,2214A,123.2354,41.2639,辽阳市,滨河路,,42,42,63,17,44,58,,,,4,37,8,15,0.5,1.3
2024-01-14T0300,2215A,123.149,41.2991,辽阳市,铁西工业园,颗粒物(PM10),53,56,96,19,78,62,,,,7,52,11,24,0.5,1.9
2024-01-14T0300,2227A,125.1358,42.8845,辽源市,环保局,,34,34,52,22,38,59,,,,9,32,9,13,0.5,1
2024-01-14T0300,3239A,125.0764,42.9078,辽源市,银鹰制药,,39,39,57,19,44,60,,,,8,30,9,15,0.5,0.9
2024-01-14T0300,1625A,115.9848,36.4372,聊城市,区政府,细颗粒物(PM2.5),250,240,354,200,283,13,,,,50,81,3,7,1.8,2.4
2024-01-14T0300,2878A,116.0072,36.4343,聊城市,聊大东校,细颗粒物(PM2.5),272,237,336,222,297,14,,,,48,82,3,9,1.9,2.3
2024-01-14T0300,3200A,115.9819,36.4978,聊城市,监控中心,细颗粒物(PM2.5),243,238,364,193,253,10,,,,46,88,3,8,1.9,2.6
2024-01-14T0300,3513A,116.0445,36.4361,聊城市,九州社区,细颗粒物(PM2.5),269,255,335,219,274,11,,,,58,82,7,13,1.4,1.7
2024-01-14T0300,4018A,116.0567,36.4608,聊城市,星美广场,细颗粒物(PM2.5),262,237,324,212,265,13,,,,54,86,4,11,1.4,1.8
2024-01-14T0300,2632A,94.3681,29.6376,林芝市,林芝监测站,,18,18,16,12,14,30,,,,17,18,7,7,0.4,0.6
2024-01-14T0300,2633A,94.3616,29.6616,林芝市,林芝人民医院,,16,8,12,6,8,51,,,,7,12,8,9,0.4,0.5
2024-01-14T0300,2603A,100.0781,23.8982,临沧市,市环保局,,32,32,30,22,24,33,,,,13,14,8,8,0.4,0.5
2024-01-14T0300,2604A,100.0894,23.8822,临沧市,市气象局,,30,29,35,21,28,35,,,,14,15,6,6,0.3,0.3
2024-01-14T0300,1733A,111.5531,36.0783,临汾市,临钢医院,细颗粒物(PM2.5),235,261,209,185,138,9,,,,47,56,6,16,2.1,1.8
2024-01-14T0300,1734A,111.5028,36.0714,临汾市,技工学校,细颗粒物(PM2.5),277,322,224,227,156,7,,,,68,61,12,21,2.9,2.1
2024-01-14T0300,1736A,111.5018,36.0855,临汾市,市委,细颗粒物(PM2.5),251,284,228,201,153,7,,,,65,67,10,22,2.5,2.2
2024-01-14T0300,3018A,111.505,36.1014,临汾市,唐尧大酒店,细颗粒物(PM2.5),228,240,200,178,145,4,,,,57,65,8,20,2.1,1.8
2024-01-14T0300,3668A,111.5036,36.0414,临汾市,城南,细颗粒物(PM2.5),256,285,217,206,151,1,,,,58,62,8,16,2.5,2
2024-01-14T0300,2667A,103.2069,35.5993,临夏回族自治州,环保局,颗粒物(PM10),53,56,56,27,30,4,,,,37,39,18,24,2.2,2.1
2024-01-14T0300,2668A,103.2417,35.6057,临夏回族自治州,建设大厦,颗粒物(PM10),63,76,56,29,26,25,,,,15,23,12,17,1.2,1.1
2024-01-14T0300,1618A,118.3429,35.0532,临沂市,沂河小区,细颗粒物(PM2.5),150,132,144,115,125,29,,,,44,57,2,3,1.0,1.4
2024-01-14T0300,1619A,118.295,35.0583,临沂市,鲁南制药厂,细颗粒物(PM2.5),163,139,168,124,143,4,,,,69,65,3,5,1.3,1.8
2024-01-14T0300,1620A,118.2794,34.9976,临沂市,新光毛纺厂,细颗粒物(PM2.5),195,195,189,146,145,5,,,,75,61,9,7,2.0,1.8
2024-01-14T0300,1621A,118.3956,35.0888,临沂市,河东保险公司,细颗粒物(PM2.5),110,107,125,83,96,11,,,,48,54,2,3,1.1,1.7
2024-01-14T0300,3370A,118.3564,35.0215,临沂市,十里堡居委,细颗粒物(PM2.5),125,117,138,95,111,32,,,,41,52,3,3,1.2,1.7
2024-01-14T0300,3496A,118.3604,35.1084,临沂市,南坊新区,细颗粒物(PM2.5),119,107,132,90,107,12,,,,55,60,5,6,1.2,1.7
2024-01-14T0300,3860A,118.3920,35.0300,临沂市,皇山花园小区,细颗粒物(PM2.5),93,105,124,69,87,30,,,,48,66,3,4,1.3,1.8
2024-01-14T0300,1870A,109.4856,24.3895,柳州市,柳东小学,细颗粒物(PM2.5),67,60,46,48,38,15,,,,27,26,9,8,1.4,1.3
2024-01-14T0300,1871A,109.4157,24.3277,柳州市,环保监测站,细颗粒物(PM2.5),70,80,67,51,49,0,,,,33,38,10,11,1.6,1.6
2024-01-14T0300,1872A,109.389,24.341,柳州市,河西水厂,细颗粒物(PM2.5),65,71,65,47,41,0,,,,23,28,9,13,1.4,1.4
2024-01-14T0300,1873A,109.4311,24.2921,柳州市,市四中,细颗粒物(PM2.5),74,85,70,54,49,2,,,,34,38,11,12,1.7,1.8
2024-01-14T0300,1874A,109.4006,24.3631,柳州市,市九中,细颗粒物(PM2.5),72,70,73,52,48,4,,,,28,32,8,9,1.2,1.4
2024-01-14T0300,1875A,109.4958,24.3134,柳州市,古亭山,细颗粒物(PM2.5),59,66,48,42,38,1,,,,26,26,9,10,1.6,1.4
2024-01-14T0300,3402A,109.5422,24.3996,柳州市,市二中,细颗粒物(PM2.5),67,55,46,48,35,4,,,,30,24,7,7,1.5,1.3
2024-01-14T0300,2307A,116.5079,31.737,六安市,监测大楼,细颗粒物(PM2.5),55,41,61,39,57,62,,,,34,41,7,5,0.6,0.7
2024-01-14T0300,2308A,116.4738,31.7643,六安市,皖西学院,细颗粒物(PM2.5),60,65,78,43,49,28,,,,42,35,3,4,0.7,0.8
2024-01-14T0300,2309A,116.4996,31.7905,六安市,朝阳厂,细颗粒物(PM2.5),64,56,72,46,59,41,,,,28,34,5,6,0.6,0.8
2024-01-14T0300,2310A,116.5567,31.7886,六安市,开发区,细颗粒物(PM2.5),80,89,112,59,73,26,,,,49,42,6,12,0.6,0.7
2024-01-14T0300,2576A,104.8,26.5892,六盘水市,窑上,,,,,,,,,,,,,,,,
2024-01-14T0300,2577A,104.83,26.5917,六盘水市,黄土坡,,48,,39,33,30,58,,,,10,16,8,10,0.7,0.7
2024-01-14T0300,2578A,104.89,26.5939,六盘水市,水钢,,43,43,36,23,26,62,,,,8,12,3,5,0.6,0.6
2024-01-14T0300,2579A,104.8475,26.5894,六盘水市,民中,,35,32,35,24,26,56,,,,11,17,7,9,0.7,0.8
2024-01-14T0300,2580A,104.9544,26.5506,六盘水市,双水,,34,34,31,17,22,57,,,,7,10,5,7,0.6,0.6
2024-01-14T0300,2335A,117.0189,25.1181,龙岩市,龙岩师专,,,,,,,,,,,,,,,,
2024-01-14T0300,2336A,117.0217,25.1033,龙岩市,龙岩市监测站,,45,45,46,28,25,20,,,,40,29,9,13,0.6,0.6
2024-01-14T0300,2337A,117.0258,25.0661,龙岩市,闽西职业技术学院,颗粒物(PM10),53,55,54,31,28,38,,,,38,28,18,14,0.6,0.6
2024-01-14T0300,2338A,117.0196,25.0306,龙岩市,龙岩学院,,38,38,40,26,27,60,,,,14,18,6,6,0.4,0.5
2024-01-14T0300,2665A,105.0822,33.3261,陇南市,汉王镇固水子,,,,,,,,,,,,,,,,
2024-01-14T0300,2885A,104.9339,33.3826,陇南市,滨江中学,,,,,,,,,,,,,,,,
2024-01-14T0300,3247A,104.955,33.371,陇南市,市总工会,颗粒物(PM10),65,80,68,42,40,47,,,,11,22,12,16,0.5,0.7
2024-01-14T0300,2487A,111.9589,27.8901,娄底市,电视发射台,细颗粒物(PM2.5),59,63,69,42,48,12,,,,18,28,5,12,1.5,2.1
2024-01-14T0300,2488A,111.9975,27.725,娄底市,市监测站,细颗粒物(PM2.5),105,100,121,79,88,0,,,,49,41,10,18,1.4,1.8
2024-01-14T0300,2489A,112.0194,27.7314,娄底市,市委党校,细颗粒物(PM2.5),87,77,100,64,75,6,,,,32,38,8,12,1.0,1.6
2024-01-14T0300,2490A,111.9561,27.7569,娄底市,涟钢,细颗粒物(PM2.5),98,102,105,73,77,4,,,,27,39,11,21,1.2,2
2024-01-14T0300,2491A,111.9892,27.7044,娄底市,市政府,细颗粒物(PM2.5),85,93,97,63,68,0,,,,28,29,6,12,0.8,1.2
2024-01-14T0300,1893A,105.4324,28.9634,泸州市,九狮山,细颗粒物(PM2.5),186,,153,140,146,22,,,,25,32,5,8,0.7,0.8
2024-01-14T0300,1894A,105.4427,28.9063,泸州市,小市上码头,细颗粒物(PM2.5),162,152,183,123,157,37,,,,20,32,8,11,0.9,1.1
2024-01-14T0300,1895A,105.4241,28.8573,泸州市,兰田宪桥,细颗粒物(PM2.5),170,147,190,129,171,41,,,,21,37,7,9,0.7,1.1
2024-01-14T0300,1896A,105.4379,28.8833,泸州市,市环监站,细颗粒物(PM2.5),163,139,173,124,166,33,,,,21,34,6,10,0.5,0.8
2024-01-14T0300,3490A,105.3617,28.7703,泸州市,纳溪区环保局,细颗粒物(PM2.5),156,135,167,119,155,42,,,,24,41,7,9,1.0,1.4
2024-01-14T0300,2183A,111.1406,37.5211,吕梁市,环保局,颗粒物(PM10),85,119,98,35,38,30,,,,34,51,9,7,0.8,0.8
2024-01-14T0300,2185A,111.1297,37.5136,吕梁市,自来水公司,颗粒物(PM10),83,116,90,36,36,30,,,,38,41,10,11,0.7,0.7
2024-01-14T0300,2867A,111.1283,37.51,吕梁市,马茂庄小学,颗粒物(PM10),89,128,103,39,40,27,,,,37,43,7,8,0.6,0.6
2024-01-14T0300,1812A,112.3931,34.6516,洛阳市,市委党校,细颗粒物(PM2.5),352,358,320,302,261,5,,,,59,68,3,12,2.1,1.8
2024-01-14T0300,1814A,112.4657,34.6871,洛阳市,豫西宾馆,细颗粒物(PM2.5),314,368,358,264,242,5,,,,52,65,6,8,,2.2
2024-01-14T0300,1815A,112.494,34.6886,洛阳市,河南林校,细颗粒物(PM2.5),313,328,322,263,249,2,,,,55,64,7,7,2.1,2
2024-01-14T0300,1816A,112.3844,34.623,洛阳市,开发区管委会,细颗粒物(PM2.5),280,284,299,230,239,18,,,,36,59,1,4,1.5,1.6
2024-01-14T0300,1817A,112.4267,34.6258,洛阳市,市委新办公区,细颗粒物(PM2.5),347,,300,297,288,18,,,,43,58,4,5,1.8,1.9
2024-01-14T0300,3340A,112.6005,34.6326,洛阳市,伊滨,细颗粒物(PM2.5),296,376,347,246,227,4,,,,61,65,1,3,1.7,1.8
2024-01-14T0300,3341A,112.4951,34.6332,洛阳市,中移产业园,细颗粒物(PM2.5),347,320,297,297,267,3,,,,65,68,6,8,2.0,2
2024-01-14T0300,3593A,112.5736,34.8993,洛阳市,吉利监测站,细颗粒物(PM2.5),323,324,356,273,279,1,,,,49,62,5,6,1.8,2
2024-01-14T0300,3635A,112.3677,34.662,洛阳市,河科大西苑校区,细颗粒物(PM2.5),337,376,356,287,270,3,,,,52,63,9,15,2.2,1.7
2024-01-14T0300,3636A,112.4388,34.6781,洛阳市,英才小学,细颗粒物(PM2.5),348,378,356,298,262,3,,,,52,59,5,7,2.2,1.9
2024-01-14T0300,2399A,114.051,33.5699,漯河市,三五一五工厂,细颗粒物(PM2.5),418,415,331,377,305,4,,,,78,64,6,8,1.4,1.2
2024-01-14T0300,2400A,114.0055,33.5698,漯河市,漯河大学,细颗粒物(PM2.5),384,374,306,334,268,7,,,,75,64,5,8,1.5,1.3
2024-01-14T0300,2401A,114.0138,33.5828,漯河市,市水利局,细颗粒物(PM2.5),396,410,329,346,282,7,,,,72,63,8,9,1.4,1.3
2024-01-14T0300,2402A,114.0261,33.5698,漯河市,市广电局,细颗粒物(PM2.5),398,403,330,348,285,6,,,,79,68,3,5,1.5,1.4
2024-01-14T0300,3478A,113.9749,33.5664,漯河市,市图书馆,细颗粒物(PM2.5),408,420,327,362,278,15,,,,65,59,8,9,1.3,1.1
2024-01-14T0300,3479A,114.0967,33.5906,漯河市,召陵区卫健委,细颗粒物(PM2.5),395,419,346,345,284,6,,,,72,58,6,8,1.5,1.3
2024-01-14T0300,1798A,118.5092,31.6837,马鞍山市,湖东路四小,细颗粒物(PM2.5),132,153,122,100,78,47,,,,56,49,10,11,1.0,0.9
2024-01-14T0300,1799A,118.5024,31.6449,马鞍山市,开发区,细颗粒物(PM2.5),149,140,118,114,88,46,,,,56,54,11,12,1.1,1
2024-01-14T0300,1800A,118.5228,31.7231,马鞍山市,慈湖,细颗粒物(PM2.5),143,130,107,109,91,44,,,,79,58,7,9,1.0,1
2024-01-14T0300,1802A,118.6245,31.7241,马鞍山市,濮塘,细颗粒物(PM2.5),110,130,95,83,58,74,,,,35,28,8,8,0.8,0.8
2024-01-14T0300,3633A,118.4918,31.6809,马鞍山市,雨山,细颗粒物(PM2.5),134,135,110,102,80,48,,,,52,50,8,10,1.0,1
2024-01-14T0300,1686A,111.0286,21.4688,茂名市,电白南海,,39,39,71,22,43,108,,,,21,24,11,12,0.4,0.6
2024-01-14T0300,1687A,110.9294,21.6533,茂名市,茂石化七小,,48,48,79,29,52,109,,,,14,16,12,11,0.8,0.9
2024-01-14T0300,1688A,110.9107,21.6687,茂名市,健康路,细颗粒物(PM2.5),52,51,75,36,47,115,,,,19,19,11,9,0.5,0.6
2024-01-14T0300,1689A,110.8592,21.6828,茂名市,高岭,颗粒物(PM10),52,53,89,29,47,114,,,,33,28,21,15,0.8,0.9
2024-01-14T0300,3450A,111.01,21.5165,茂名市,电白水东,,39,39,72,24,44,110,,,,20,21,15,10,0.4,0.6
2024-01-14T0300,2539A,104.0308,30.0478,眉山市,黑龙滩水库,细颗粒物(PM2.5),142,153,98,108,67,3,,,,60,22,6,6,1.0,0.7
2024-01-14T0300,2540A,103.8416,30.0874,眉山市,气象局,细颗粒物(PM2.5),180,153,159,136,134,7,,,,51,61,8,9,1.2,1.3
2024-01-14T0300,3137A,103.8578,30.0744,眉山市,市委党校,细颗粒物(PM2.5),195,178,164,146,130,4,,,,58,64,10,10,1.1,1
2024-01-14T0300,3148A,103.8291,30.0564,眉山市,区人社局,细颗粒物(PM2.5),192,,139,144,134,10,,,,51,67,9,11,1.0,1.1
2024-01-14T0300,1690A,116.1231,24.3284,梅州市,梅江月梅,细颗粒物(PM2.5),55,57,53,39,35,20,,,,53,41,8,9,0.5,0.6
2024-01-14T0300,1691A,116.0797,24.2719,梅州市,梅县新城,细颗粒物(PM2.5),69,59,59,50,42,12,,,,43,40,4,6,0.8,0.8
2024-01-14T0300,1692A,116.1248,24.2654,梅州市,环境监控中心,细颗粒物(PM2.5),69,71,64,50,45,9,,,,67,48,11,11,0.7,0.7
2024-01-14T0300,3315A,116.1233,24.2991,梅州市,梅龙,细颗粒物(PM2.5),65,66,64,47,43,26,,,,38,39,7,7,0.8,1
2024-01-14T0300,1878A,104.7778,31.4741,绵阳市,富乐山,细颗粒物(PM2.5),165,153,152,125,129,15,,,,42,46,6,7,1.2,1.1
2024-01-14T0300,1879A,104.7563,31.4535,绵阳市,市人大,细颗粒物(PM2.5),178,182,206,134,148,12,,,,51,61,3,3,1.1,1.2
2024-01-14T0300,1880A,104.6697,31.4668,绵阳市,高新区自来水公司,细颗粒物(PM2.5),148,175,195,113,132,3,,,,53,55,8,8,1.1,1.3
2024-01-14T0300,1881A,104.7287,31.5075,绵阳市,三水厂,细颗粒物(PM2.5),192,184,210,144,154,4,,,,46,53,6,7,1.2,1.3
2024-01-14T0300,3491A,104.69,31.5322,绵阳市,西科大附属小学,细颗粒物(PM2.5),152,147,187,116,142,18,,,,43,56,6,7,1.1,1.4
2024-01-14T0300,3492A,104.5648,31.5343,绵阳市,安州区旅游局,细颗粒物(PM2.5),140,126,171,107,131,9,,,,44,40,7,5,1.2,1.3
2024-01-14T0300,1784A,129.61,44.561,牡丹江市,环保大楼,细颗粒物(PM2.5),73,64,69,53,48,53,,,,25,40,13,14,0.5,0.7
2024-01-14T0300,1785A,129.6115,44.5782,牡丹江市,文化广场,细颗粒物(PM2.5),72,64,70,52,55,46,,,,26,41,15,16,0.8,1
2024-01-14T0300,1786A,129.5904,44.5963,牡丹江市,第一医院,细颗粒物(PM2.5),85,,77,63,67,45,,,,23,40,12,14,0.8,1
2024-01-14T0300,1787A,129.6364,44.6075,牡丹江市,机车工厂,细颗粒物(PM2.5),74,73,80,54,56,15,,,,55,44,13,14,0.8,1
2024-01-14T0300,1788A,129.6386,44.5462,牡丹江市,第一中学,细颗粒物(PM2.5),78,62,58,57,49,29,,,,38,33,14,13,0.9,0.9
2024-01-14T0300,2531A,105.0703,29.61,内江市,市监测站,细颗粒物(PM2.5),144,,94,110,97,46,,,,17,33,7,9,0.7,0.8
2024-01-14T0300,2532A,105.0717,29.5947,内江市,东兴区政府,细颗粒物(PM2.5),134,107,93,102,84,44,,,,13,27,8,10,0.7,0.7
2024-01-14T0300,2533A,105.0653,29.5817,内江市,内江二中,细颗粒物(PM2.5),138,,93,105,88,49,,,,22,38,8,9,0.9,0.9
2024-01-14T0300,2534A,105.0406,29.5822,内江市,内江日报社,细颗粒物(PM2.5),134,104,95,102,88,49,,,,24,44,7,9,0.8,0.8
2024-01-14T0300,2628A,92.0657,31.4846,那曲市,那曲监测站,,32,32,53,18,31,34,,,,11,15,5,10,1.1,1.4
2024-01-14T0300,3128A,92.0506,31.4797,那曲市,那曲会议中心,,28,28,42,10,19,17,,,,28,20,7,9,1.1,0.9
2024-01-14T0300,1290A,115.8931,28.6843,南昌市,省外办,细颗粒物(PM2.5),119,129,152,90,86,11,,,,68,66,8,11,2.1,1.7
2024-01-14T0300,1291A,115.8886,28.7003,南昌市,省林业公司,颗粒物(PM10),81,112,114,58,65,2,,,,84,79,12,14,1.0,1
2024-01-14T0300,1292A,115.8126,28.7442,南昌市,林科所,,42,39,75,29,46,46,,,,41,53,11,13,0.7,1
2024-01-14T0300,1294A,115.8518,28.687,南昌市,建工学校,细颗粒物(PM2.5),95,92,112,71,66,2,,,,78,69,14,17,1.1,1.1
2024-01-14T0300,1295A,115.8921,28.6424,南昌市,象湖,细颗粒物(PM2.5),118,144,131,89,77,1,,,,80,75,9,12,1.9,1.8
2024-01-14T0300,1296A,115.7423,28.7996,南昌市,武术学校,,35,35,36,9,14,8,,,,8,16,9,10,0.6,0.7
2024-01-14T0300,1298A,115.9314,28.6842,南昌市,省站,颗粒物(PM10),99,147,136,73,71,4,,,,82,59,13,16,1.3,1.3
2024-01-14T0300,3046A,115.9084,28.6062,南昌市,机电学校,细颗粒物(PM2.5),100,131,133,75,71,6,,,,87,70,15,17,1.3,1.1
2024-01-14T0300,3690A,115.9721,28.7031,南昌市,外国语学校,细颗粒物(PM2.5),108,114,104,81,62,2,,,,72,55,11,13,1.1,0.9
2024-01-14T0300,1905A,106.056,30.8064,南充市,西山风景区,细颗粒物(PM2.5),128,,95,97,103,40,,,,17,21,5,6,0.9,0.9
2024-01-14T0300,1906A,106.0789,30.8023,南充市,南充市委,细颗粒物(PM2.5),145,,116,111,91,7,,,,43,40,6,7,0.9,0.9
2024-01-14T0300,1907A,106.1031,30.8217,南充市,南充炼油厂,细颗粒物(PM2.5),140,121,127,107,109,18,,,,29,32,5,5,0.8,0.8
2024-01-14T0300,1908A,106.1064,30.7856,南充市,高坪区监测站,细颗粒物(PM2.5),137,124,130,104,103,18,,,,28,33,6,6,0.6,0.6
2024-01-14T0300,1909A,106.0642,30.7636,南充市,嘉陵区环保局,细颗粒物(PM2.5),117,111,124,88,95,3,,,,48,40,4,5,0.8,0.8
2024-01-14T0300,1910A,106.1087,30.8388,南充市,市环境监测站,细颗粒物(PM2.5),125,123,129,95,96,35,,,,16,26,6,7,0.7,0.7
2024-01-14T0300,1151A,118.8086,32.1065,南京市,迈皋桥,细颗粒物(PM2.5),110,111,123,83,80,80,,,,27,49,4,5,0.5,0.8
2024-01-14T0300,1152A,118.7538,32.0551,南京市,草场门,细颗粒物(PM2.5),119,127,116,90,78,67,,,,51,67,8,8,0.7,1
2024-01-14T0300,1153A,118.7794,32.0745,南京市,山西路,细颗粒物(PM2.5),132,129,130,100,89,78,,,,39,55,11,12,0.6,0.8
2024-01-14T0300,1154A,118.7752,32.0023,南京市,中华门,细颗粒物(PM2.5),122,134,120,92,84,45,,,,63,67,12,13,0.8,1
2024-01-14T0300,1155A,118.8109,32.0309,南京市,瑞金路,细颗粒物(PM2.5),119,122,122,90,80,54,,,,50,58,4,4,0.8,1.1
2024-01-14T0300,1156A,118.7997,32.0754,南京市,玄武湖,细颗粒物(PM2.5),114,130,120,86,77,80,,,,29,42,11,10,0.7,0.9
2024-01-14T0300,1157A,118.6414,32.0931,南京市,浦口,细颗粒物(PM2.5),139,160,149,106,97,49,,,,54,71,8,8,0.9,1.1
2024-01-14T0300,1158A,118.7356,31.9996,南京市,奥体中心,细颗粒物(PM2.5),138,143,126,105,86,57,,,,84,83,10,9,0.9,1.1
2024-01-14T0300,1159A,118.9125,32.1028,南京市,仙林大学城,细颗粒物(PM2.5),100,105,110,75,79,71,,,,41,52,7,9,0.7,0.9
2024-01-14T0300,3422A,118.8436,31.9198,南京市,江宁彩虹桥,细颗粒物(PM2.5),119,141,129,90,81,75,,,,46,58,10,11,0.6,0.7
2024-01-14T0300,3423A,119.0138,31.6494,南京市,溧水永阳,细颗粒物(PM2.5),150,124,104,115,90,41,,,,53,57,4,5,0.7,0.9
2024-01-14T0300,3424A,118.879,31.3302,南京市,高淳老职中,细颗粒物(PM2.5),156,132,98,119,86,90,,,,35,45,6,11,1.0,0.9
2024-01-14T0300,3427A,118.8554,32.3578,南京市,六合雄州,细颗粒物(PM2.5),103,114,137,77,96,75,,,,37,52,4,6,1.0,1.2
2024-01-14T0300,1401A,108.3103,22.7881,南宁市,二十一中,细颗粒物(PM2.5),67,60,37,48,28,3,,,,48,34,6,5,1.7,1.4
2024-01-14T0300,1402A,108.3141,22.8528,南宁市,北湖,细颗粒物(PM2.5),68,72,47,49,35,3,,,,27,27,6,5,1.4,1.3
2024-01-14T0300,1403A,108.3206,22.8225,南宁市,市监测站,细颗粒物(PM2.5),82,87,42,60,29,4,,,,64,48,6,6,1.8,1.3
2024-01-14T0300,1404A,108.3829,22.8037,南宁市,大自然花园,细颗粒物(PM2.5),52,42,28,36,24,2,,,,34,27,6,6,1.2,1.1
2024-01-14T0300,1405A,108.4394,22.7904,南宁市,仙葫,细颗粒物(PM2.5),69,64,35,50,28,2,,,,31,28,6,5,1.3,1.2
2024-01-14T0300,1406A,108.2397,22.8467,南宁市,区农职院,,47,47,38,32,24,1,,,,33,39,8,8,1.2,1.2
2024-01-14T0300,1407A,108.3275,22.735,南宁市,英华嘉园,细颗粒物(PM2.5),65,53,40,47,32,2,,,,42,35,5,5,1.3,1.2
2024-01-14T0300,1408A,108.2257,22.7757,南宁市,沙井镇街道办,细颗粒物(PM2.5),64,52,39,46,31,1,,,,38,41,9,9,1.1,1
2024-01-14T0300,3401A,108.4834,22.7618,南宁市,红星社区,,46,45,33,32,30,1,,,,27,28,7,7,1.2,1.3
2024-01-14T0300,2331A,118.0966,26.6761,南平市,茫荡山,,,,,,,,,,,,,,,,
2024-01-14T0300,2332A,118.1681,26.6369,南平市,南平市监测站,细颗粒物(PM2.5),57,52,48,40,36,17,,,,27,34,5,9,0.5,0.9
2024-01-14T0300,2333A,118.1825,26.6489,南平市,南平铝业有限公司,,46,44,42,32,30,5,,,,64,45,8,11,0.6,0.7
2024-01-14T0300,2334A,118.1756,26.6272,南平市,南平七中,,50,44,46,35,31,19,,,,25,30,6,9,0.6,0.7
2024-01-14T0300,1168A,120.9098,31.9663,南通市,狼山街道,细颗粒物(PM2.5),169,141,178,128,154,31,,,,84,59,11,12,0.9,1.2
2024-01-14T0300,1169A,120.86,32.0005,南通市,虹桥,细颗粒物(PM2.5),156,143,188,119,156,66,,,,46,64,9,10,1.0,1.3
2024-01-14T0300,1170A,120.87,32.02,南通市,城中,细颗粒物(PM2.5),148,147,188,113,143,70,,,,46,61,11,12,0.7,1.1
2024-01-14T0300,1171A,120.94,31.93,南通市,星湖花园,细颗粒物(PM2.5),144,139,181,110,143,62,,,,48,61,9,9,0.8,1.2
2024-01-14T0300,1172A,120.81,32.0417,南通市,紫琅学院,细颗粒物(PM2.5),152,160,192,116,144,54,,,,62,71,11,11,0.8,1.2
2024-01-14T0300,3291A,121.067,32.062,南通市,通州监测站,细颗粒物(PM2.5),178,163,186,134,151,73,,,,31,46,7,9,1.1,1.3
2024-01-14T0300,3432A,120.9348,31.9883,南通市,环境教育馆,细颗粒物(PM2.5),133,117,171,101,146,77,,,,20,40,10,10,0.6,1
2024-01-14T0300,2404A,112.5224,33.0122,南阳市,瓦房庄,细颗粒物(PM2.5),226,,190,176,173,29,,,,39,56,9,11,1.0,1.1
2024-01-14T0300,2405A,112.5003,32.9735,南阳市,汉画馆,细颗粒物(PM2.5),226,208,202,176,171,4,,,,50,51,5,6,1.3,1.3
2024-01-14T0300,2406A,112.5573,33.027,南阳市,气象站,细颗粒物(PM2.5),221,181,180,171,169,34,,,,40,50,4,6,1.1,1.1
2024-01-14T0300,2407A,112.5481,32.9689,南阳市,理工学院,细颗粒物(PM2.5),222,202,187,172,155,7,,,,71,59,6,8,1.1,0.9
2024-01-14T0300,4008A,112.5234,32.9922,南阳市,卧龙区政府,细颗粒物(PM2.5),229,197,195,179,169,16,,,,50,60,8,10,1.2,1.3
2024-01-14T0300,1234A,121.8358,29.911,宁波市,区环保大楼,细颗粒物(PM2.5),69,67,99,50,63,109,,,,16,82,6,12,0.5,0.7
2024-01-14T0300,1235A,121.56,29.82,宁波市,万里学院,颗粒物(PM10),68,85,106,48,62,63,,,,56,66,7,9,0.6,0.8
2024-01-14T0300,1236A,121.713,29.9572,宁波市,龙赛医院,颗粒物(PM10),73,96,132,50,68,53,,,,70,86,5,9,0.7,0.8
2024-01-14T0300,1239A,121.633,29.7733,宁波市,钱湖水厂,细颗粒物(PM2.5),54,54,70,38,48,100,,,,14,30,9,10,0.8,0.7
2024-01-14T0300,1240A,121.5856,29.8635,宁波市,太古小学,细颗粒物(PM2.5),64,68,89,46,65,91,,,,30,66,8,10,0.8,0.9
2024-01-14T0300,1241A,121.524,29.8674,宁波市,市环境监测中心,细颗粒物(PM2.5),64,74,98,46,62,67,,,,47,69,8,11,0.7,0.9
2024-01-14T0300,2871A,121.6147,29.9017,宁波市,万里国际学校,细颗粒物(PM2.5),64,73,103,46,68,106,,,,20,63,8,10,0.8,1
2024-01-14T0300,3710A,121.5594,29.8975,宁波市,白沙活动中心,颗粒物(PM10),66,82,125,46,69,72,,,,44,72,7,11,0.7,1
2024-01-14T0300,2339A,119.5001,26.6946,宁德市,金涵水库,,,,,,,,,,,,,,,,
2024-01-14T0300,2341A,119.5388,26.6612,宁德市,宁德市监测站,,30,,39,21,27,40,,,,25,21,6,6,0.5,0.8
2024-01-14T0300,3209A,119.5231,26.6562,宁德市,宁德一中,,23,23,37,13,25,58,,,,8,17,4,5,0.4,0.7
2024-01-14T0300,2618A,98.8601,25.8567,怒江傈僳族自治州,州监测站,,35,35,35,22,24,43,,,,16,18,8,8,0.4,0.5
2024-01-14T0300,2619A,98.8546,25.8417,怒江傈僳族自治州,泸水一中,,45,31,45,31,34,16,,,,20,25,8,8,0.5,0.5
2024-01-14T0300,1888A,101.6891,26.571,攀枝花市,弄弄坪,细颗粒物(PM2.5),104,79,87,78,66,45,,,,32,40,13,25,1.0,1.7
2024-01-14T0300,1889A,101.5769,26.5928,攀枝花市,河门口,细颗粒物(PM2.5),84,104,83,62,51,17,,,,45,34,13,24,1.5,1.5
2024-01-14T0300,1890A,101.7169,26.585,攀枝花市,炳草岗,细颗粒物(PM2.5),97,104,97,72,62,5,,,,82,63,16,29,1.6,1.9
2024-01-14T0300,1891A,101.7369,26.5008,攀枝花市,仁和,细颗粒物(PM2.5),100,88,95,75,70,29,,,,34,40,9,27,1.0,1.5
2024-01-14T0300,2835A,101.7227,26.567,攀枝花市,四十中小,细颗粒物(PM2.5),113,125,101,85,69,8,,,,86,67,11,18,2.1,2.1
2024-01-14T0300,1604A,122.0303,41.1489,盘锦市,开发区,,38,38,34,6,23,64,,,,10,29,7,11,0.4,0.7
2024-01-14T0300,1605A,122.0485,41.0883,盘锦市,兴隆台,,45,45,34,14,21,55,,,,21,29,20,13,0.3,0.6
2024-01-14T0300,1606A,121.8297,41.1028,盘锦市,新生街道,,42,42,31,7,22,52,,,,20,29,8,10,0.3,0.5
2024-01-14T0300,1832A,113.3257,33.742,平顶山市,新华旅馆,细颗粒物(PM2.5),325,370,368,275,272,32,,,,49,70,9,12,1.4,1.5
2024-01-14T0300,1833A,113.2919,33.737,平顶山市,规划设计院,细颗粒物(PM2.5),368,403,393,318,298,40,,,,43,66,11,13,1.3,1.4
2024-01-14T0300,1834A,113.182,33.774,平顶山市,平顶山工学院,细颗粒物(PM2.5),352,405,380,302,277,30,,,,55,61,7,9,1.2,1.5
2024-01-14T0300,3204A,113.3025,33.73,平顶山市,规划局,细颗粒物(PM2.5),359,359,371,309,303,40,,,,43,65,10,13,1.7,1.8
2024-01-14T0300,3594A,112.8867,33.9116,平顶山市,石龙区,细颗粒物(PM2.5),282,281,342,232,261,12,,,,83,77,8,10,1.1,1.3
2024-01-14T0300,2656A,106.6692,35.5461,平凉市,聚贤嘉苑,,44,44,63,22,22,40,,,,29,30,5,8,0.5,0.5
2024-01-14T0300,2657A,106.7021,35.5307,平凉市,博物馆,颗粒物(PM10),54,57,75,23,26,42,,,,20,25,9,12,0.6,0.7
2024-01-14T0300,2347A,114.0997,27.5002,萍乡市,武功山,,45,35,37,31,31,29,,,,11,11,8,8,0.7,0.7
2024-01-14T0300,2348A,113.8385,27.6434,萍乡市,中医院,细颗粒物(PM2.5),88,107,98,65,71,4,,,,62,43,23,28,1.5,1.5
2024-01-14T0300,2349A,113.8493,27.6253,萍乡市,市政府车库,细颗粒物(PM2.5),130,126,113,99,80,9,,,,38,45,16,27,1.3,2.2
2024-01-14T0300,2350A,113.8676,27.6435,萍乡市,市环保局,细颗粒物(PM2.5),90,95,95,67,64,27,,,,47,48,34,29,1.2,1.3
2024-01-14T0300,2351A,113.866,27.6198,萍乡市,安源区政府,细颗粒物(PM2.5),92,106,98,68,61,14,,,,30,32,18,27,1.0,1.4
2024-01-14T0300,2319A,119.0141,25.4325,莆田市,荔城区仓后路,,26,13,43,3,24,82,,,,7,22,6,7,0.4,0.7
2024-01-14T0300,2320A,119.0015,25.4553,莆田市,莆田市监测站,,27,7,35,2,16,84,,,,10,19,6,7,0.5,0.7
2024-01-14T0300,2321A,119.1119,25.4561,莆田市,涵江区六中,,22,19,36,6,16,70,,,,26,26,7,8,0.5,0.6
2024-01-14T0300,2322A,119.1013,25.3215,莆田市,秀屿区政府,,25,11,41,3,23,77,,,,18,29,8,11,0.5,0.8
2024-01-14T0300,2323A,118.981,25.4792,莆田市,东圳水库,,,,,,,,,,,,,,,,
2024-01-14T0300,2392A,115.0312,35.7636,濮阳市,环保局,细颗粒物(PM2.5),288,272,359,238,307,1,,,,94,88,6,8,2.3,2.2
2024-01-14T0300,2394A,115.0574,35.7609,濮阳市,油田运输公司,细颗粒物(PM2.5),314,296,383,264,316,0,,,,96,89,7,9,2.4,2.4
2024-01-14T0300,2395A,115.0866,35.7754,濮阳市,油田物探公司,细颗粒物(PM2.5),306,298,381,256,319,1,,,,96,93,5,6,2.0,2.1
2024-01-14T0300,3021A,115,35.7668,濮阳市,濮水河管理处,细颗粒物(PM2.5),291,292,366,241,302,5,,,,100,85,6,7,2.3,2.2
2024-01-14T0300,2601A,100.98,22.7633,普洱市,市环保局,,35,32,36,24,28,21,,,,11,14,3,3,0.5,0.5
2024-01-14T0300,2602A,100.9817,22.8322,普洱市,普洱第二中学,,30,30,30,11,14,6,,,,31,21,6,6,0.6,0.6
2024-01-14T0300,2262A,131.0518,45.8751,七台河市,新一中,,48,42,52,33,44,64,,,,16,22,16,14,0.5,0.7
2024-01-14T0300,3345A,131.0577,45.7879,七台河市,中波台,细颗粒物(PM2.5),55,46,82,39,66,56,,,,24,48,10,11,1.1,1.3
2024-01-14T0300,3637A,131.0176,45.7761,七台河市,人民广场,颗粒物(PM10),54,57,82,35,66,57,,,,20,49,13,14,0.7,1
2024-01-14T0300,3684A,130.8781,45.8222,七台河市,新建矿广场,细颗粒物(PM2.5),80,,78,59,65,33,,,,40,50,29,14,1.0,1
2024-01-14T0300,1779A,123.9305,47.3636,齐齐哈尔市,安居小区,,26,26,30,6,15,51,,,,9,15,6,8,0.3,0.5
2024-01-14T0300,1780A,123.9488,47.3386,齐齐哈尔市,中心广场,,17,17,31,6,19,53,,,,5,18,3,4,0.3,0.4
2024-01-14T0300,1781A,123.9483,47.3227,齐齐哈尔市,农牧车辆厂,,22,22,30,9,16,53,,,,5,13,7,9,0.3,0.4
2024-01-14T0300,1783A,123.945,47.2988,齐齐哈尔市,市环境监测站,,19,16,30,13,19,55,,,,7,13,3,5,0.3,0.4
2024-01-14T0300,3662A,123.6333,47.2075,齐齐哈尔市,富区青少年活动中心,,18,,37,7,18,56,,,,7,12,7,9,0.3,0.5
2024-01-14T0300,2591A,107.9783,26.5747,黔东南苗族侗族自治州,市环境监测站,细颗粒物(PM2.5),67,63,56,48,45,5,,,,27,33,10,10,1.6,1.3
2024-01-14T0300,2881A,107.8908,26.5311,黔东南苗族侗族自治州,凯里学院,,23,21,38,16,27,37,,,,11,18,4,5,0.5,0.6
2024-01-14T0300,2593A,107.5228,26.2403,黔南布依族苗族自治州,小围寨,,15,2,8,2,5,48,,,,4,6,5,5,0.6,0.6
2024-01-14T0300,3538A,107.5175,26.2978,黔南布依族苗族自治州,沙坝,,14,9,14,7,11,44,,,,3,5,3,4,0.6,0.7
2024-01-14T0300,2589A,104.9022,25.0925,黔西南布依族苗族自治州,场坝街,,45,36,24,31,15,40,,,,6,8,2,2,0.4,0.5
2024-01-14T0300,2590A,104.8811,25.0992,黔西南布依族苗族自治州,坪东大道,,21,21,22,14,14,39,,,,4,7,2,3,0.5,0.5
2024-01-14T0300,2502A,108.6236,21.9667,钦州市,市环保站,细颗粒物(PM2.5),70,63,47,51,37,22,,,,40,30,5,5,1.2,1.2
2024-01-14T0300,2503A,108.6549,21.9481,钦州市,沙埠小学,细颗粒物(PM2.5),65,57,47,47,41,20,,,,32,27,8,7,1.1,1
2024-01-14T0300,2504A,108.5989,21.7431,钦州市,港区一小,细颗粒物(PM2.5),67,65,57,48,42,28,,,,47,39,8,7,1.2,1.1
2024-01-14T0300,3404A,108.5959,21.9633,钦州市,北职校,细颗粒物(PM2.5),72,69,43,52,40,7,,,,42,26,7,8,1.3,1.1
2024-01-14T0300,1042A,119.5134,39.8207,秦皇岛市,北戴河环保局,"颗粒物(PM10),细颗粒物(PM2.5)",64,77,41,46,23,3,,,,82,37,11,12,0.8,0.7
2024-01-14T0300,1043A,119.7493,40.0116,秦皇岛市,第一关,颗粒物(PM10),80,110,60,38,36,62,,,,17,41,7,14,0.4,0.6
2024-01-14T0300,1044A,119.5897,39.9499,秦皇岛市,监测站,细颗粒物(PM2.5),79,82,55,58,32,19,,,,61,42,10,13,0.8,0.6
2024-01-14T0300,1046A,119.5251,39.9041,秦皇岛市,建设大厦,颗粒物(PM10),72,94,52,49,31,19,,,,65,38,6,8,0.7,0.6
2024-01-14T0300,3132A,119.610547,39.943889,秦皇岛市,文明里,细颗粒物(PM2.5),73,93,62,53,31,19,,,,63,46,9,11,0.8,0.7
2024-01-14T0300,1307A,120.6659,36.2403,青岛市,仰口,细颗粒物(PM2.5),128,144,116,97,80,131,,,,34,33,3,2,0.9,0.9
2024-01-14T0300,1310A,120.4134,36.0658,青岛市,市南区东部子站,细颗粒物(PM2.5),85,107,115,63,76,112,,,,23,26,7,7,0.8,0.8
2024-01-14T0300,1311A,120.3664,36.1032,青岛市,四方区子站,细颗粒物(PM2.5),125,124,129,95,97,120,,,,28,34,5,6,1.1,1.1
2024-01-14T0300,1312A,120.2994,36.054,青岛市,市南区西部子站,细颗粒物(PM2.5),108,119,115,81,81,93,,,,51,26,7,7,1.0,1
2024-01-14T0300,1313A,120.4581,36.0858,青岛市,崂山区子站,细颗粒物(PM2.5),89,114,117,66,75,106,,,,27,29,6,7,0.9,0.9
2024-01-14T0300,1314A,120.1983,35.9608,青岛市,黄岛区子站,细颗粒物(PM2.5),95,102,119,71,87,118,,,,33,38,6,6,0.9,0.9
2024-01-14T0300,1315A,120.3999,36.3083,青岛市,城阳区子站,细颗粒物(PM2.5),102,134,134,76,76,103,,,,38,43,6,7,1.1,1.2
2024-01-14T0300,1966A,120.0405,35.8735,青岛市,黄岛区4号,细颗粒物(PM2.5),67,63,112,48,81,84,,,,43,34,5,7,1.1,1.1
2024-01-14T0300,3362A,120.5014,36.4034,青岛市,即墨2号,细颗粒物(PM2.5),140,157,130,107,89,80,,,,34,25,9,8,1.1,1
2024-01-14T0300,3642A,120.3503,36.0736,青岛市,市北区南部,细颗粒物(PM2.5),104,120,135,78,80,114,,,,28,28,8,8,1.3,1.1
2024-01-14T0300,3643A,120.3948,36.1805,青岛市,李沧区北部,细颗粒物(PM2.5),125,127,132,95,100,117,,,,36,41,9,10,0.8,0.9
2024-01-14T0300,1702A,113.0426,23.691,清远市,环保大楼,细颗粒物(PM2.5),90,114,85,67,52,37,,,,39,42,5,10,1.0,1.1
2024-01-14T0300,1703A,113.0208,23.7106,清远市,凤城街办,细颗粒物(PM2.5),108,118,90,81,58,51,,,,34,41,8,11,0.9,1
2024-01-14T0300,3025A,113.0477,23.6344,清远市,技师学院,颗粒物(PM10),97,143,115,65,61,3,,,,88,56,11,13,1.0,1
2024-01-14T0300,3318A,112.9903,23.7403,清远市,清新太和,细颗粒物(PM2.5),103,117,80,77,53,88,,,,31,30,7,10,1.0,0.9
2024-01-14T0300,3455A,113.076,23.7198,清远市,清城东城,细颗粒物(PM2.5),99,106,78,74,52,34,,,,41,38,11,12,1.0,0.9
2024-01-14T0300,2661A,107.6325,35.7357,庆阳市,庆阳五中,颗粒物(PM10),60,70,104,14,43,48,,,,25,24,42,11,0.3,0.9
2024-01-14T0300,2662A,107.6364,35.7067,庆阳市,市环保局,颗粒物(PM10),53,55,63,12,43,71,,,,11,23,12,18,0.7,0.8
2024-01-14T0300,1916A,103.7897,25.5035,曲靖市,环境监测站,,36,36,44,21,26,37,,,,31,24,2,5,0.3,0.4
2024-01-14T0300,1917A,103.8,25.5364,曲靖市,烟厂办公区,颗粒物(PM10),59,67,56,27,29,27,,,,49,30,3,5,0.8,0.8
2024-01-14T0300,3376A,103.7947,25.462,曲靖市,南苑二区,,25,25,37,15,24,60,,,,4,6,7,13,0.6,0.7
2024-01-14T0300,3377A,103.7444,25.5261,曲靖市,曲靖师范学院,颗粒物(PM10),52,54,62,34,42,46,,,,33,33,24,65,0.6,0.8
2024-01-14T0300,1264A,118.8692,28.9398,衢州市,环保大楼,"颗粒物(PM10),细颗粒物(PM2.5)",58,65,74,41,43,5,,,,55,46,5,6,0.6,0.7
2024-01-14T0300,1265A,118.8709,28.9666,衢州市,实验学校,"颗粒物(PM10),细颗粒物(PM2.5)",57,64,67,40,41,1,,,,51,46,6,5,0.6,0.6
2024-01-14T0300,1266A,118.8621,28.9808,衢州市,衢州学院,颗粒物(PM10),55,59,66,33,38,2,,,,36,43,6,7,0.6,0.6
2024-01-14T0300,1611A,118.5819,24.9117,泉州市,涂山街,,27,27,51,15,28,60,,,,24,30,5,6,0.5,0.7
2024-01-14T0300,1612A,118.5972,24.8978,泉州市,津头埔,,23,23,48,15,27,53,,,,26,32,3,4,0.6,0.7
2024-01-14T0300,1613A,118.6663,24.9424,泉州市,万安,,26,12,38,9,20,82,,,,18,28,2,3,0.5,0.7
2024-01-14T0300,1614A,118.6117,24.9604,泉州市,清源山,,,,,,,,,,,,,,,,
2024-01-14T0300,3529A,118.6333,24.9264,泉州市,城华南路,,19,15,32,10,22,58,,,,23,24,3,5,0.4,0.5
2024-01-14T0300,2626A,88.8876,29.2718,日喀则市,日喀则监测站,细颗粒物(PM2.5),59,52,29,42,21,9,,,,34,19,2,4,1.3,0.7
2024-01-14T0300,3726A,88.8781,29.2426,日喀则市,林业技术推广中心,,35,27,21,24,11,22,,,,24,16,8,8,0.8,0.6
2024-01-14T0300,1659A,119.471,35.4209,日照市,监测站,细颗粒物(PM2.5),129,153,137,98,98,46,,,,51,46,10,10,3.1,1.1
2024-01-14T0300,1660A,119.523,35.4216,日照市,市政府广场,"颗粒物(PM10),细颗粒物(PM2.5)",90,129,127,67,82,61,,,,38,35,6,8,1.3,1.1
2024-01-14T0300,1661A,119.5587,35.4044,日照市,港务局,颗粒物(PM10),84,117,109,50,69,55,,,,37,31,7,7,1.2,1.1
