timepoint,stationcode,longitude,latitude,area,positionname,primarypollutant,aqi,pm10,pm10_24h,pm2_5,pm2_5_24h,o3,o3_24h,o3_8h,o3_8h_24h,no2,no2_24h,so2,so2_24h,co,co_24h
2023-05-02T21:00:00,1001A,116.3621,39.8784,北京市,万寿西宫,颗粒物(PM10),71,92,97,33,40,170,105,154,150,2,24,1,3,0.6,0.7
2023-05-02T21:00:00,1002A,116.2202,40.2915,北京市,定陵,颗粒物(PM10),69,88,97,25,39,202,140,181,180,11,14,2,4,0.5,0.6
2023-05-02T21:00:00,1003A,116.4174,39.9289,北京市,东四,颗粒物(PM10),70,89,98,25,34,200,146,182,180,24,26,3,5,0.3,0.5
2023-05-02T21:00:00,1004A,116.4072,39.8863,北京市,天坛,颗粒物(PM10),66,81,94,27,40,191,143,175,173,17,27,2,4,0.4,0.6
2023-05-02T21:00:00,1005A,116.462,39.9365,北京市,农展馆,颗粒物(PM10),71,91,104,25,42,186,136,170,168,20,30,3,4,0.4,0.6
2023-05-02T21:00:00,1006A,116.3392,39.9295,北京市,官园,颗粒物(PM10),72,94,98,31,43,175,131,158,158,19,26,3,4,0.5,0.8
2023-05-02T21:00:00,1007A,116.2878,39.9611,北京市,海淀万柳,颗粒物(PM10),69,87,104,25,43,151,122,137,137,19,31,1,2,0.5,0.6
2023-05-02T21:00:00,1008A,116.6636,40.135,北京市,顺义新城,颗粒物(PM10),88,125,111,44,43,196,142,179,178,23,18,6,6,0.6,0.7
2023-05-02T21:00:00,1009A,116.6275,40.3275,北京市,怀柔镇,颗粒物(PM10),80,110,94,36,40,203,150,182,181,28,22,5,5,0.5,0.5
2023-05-02T21:00:00,1010A,116.2296,40.217,北京市,昌平镇,颗粒物(PM10),81,112,102,31,44,203,152,183,183,12,13,4,5,0.4,0.6
2023-05-02T21:00:00,1011A,116.3966,39.9821,北京市,奥体中心,颗粒物(PM10),70,89,101,31,39,174,126,159,158,24,31,3,3,0.5,0.6
2023-05-02T21:00:00,1012A,116.184,39.9136,北京市,古城,,,,,,,,,,,,,,,,
2023-05-02T21:00:00,1015A,117.1444,39.1661,天津市,勤俭道,颗粒物(PM10),89,127,105,33,39,189,136,175,169,18,18,8,10,0.4,0.4
2023-05-02T21:00:00,1017A,117.237,39.1082,天津市,大直沽八号路,颗粒物(PM10),80,109,103,31,34,168,120,158,152,20,22,9,11,0.4,0.4
2023-05-02T21:00:00,1018A,117.202,39.0927,天津市,前进道,颗粒物(PM10),71,92,87,35,32,172,109,162,153,33,24,6,7,0.2,0.2
2023-05-02T21:00:00,1019A,117.1837,39.2133,天津市,淮河道,颗粒物(PM10),73,95,103,34,39,184,139,172,168,20,22,8,10,0.4,0.5
2023-05-02T21:00:00,1021A,117.307,39.0877,天津市,跃进路,颗粒物(PM10),74,98,101,37,33,177,112,164,156,29,30,7,9,0.5,0.7
2023-05-02T21:00:00,1023A,117.707,39.0343,天津市,第四大街,颗粒物(PM10),83,115,111,35,34,162,54,146,136,114,59,11,15,0.6,0.7
2023-05-02T21:00:00,1024A,117.457,38.8394,天津市,永明路,颗粒物(PM10),74,98,83,35,26,151,97,142,137,44,26,11,10,0.7,0.5
2023-05-02T21:00:00,1026A,117.764,39.1587,天津市,汉北路,颗粒物(PM10),57,63,78,37,33,181,154,160,160,24,35,8,11,0.6,0.7
2023-05-02T21:00:00,1027A,117.157,38.9194,天津市,团泊洼,颗粒物(PM10),68,85,79,27,25,168,83,158,147,36,27,4,6,0.5,0.4
2023-05-02T21:00:00,1029A,114.4422,38.0444,石家庄市,职工医院,颗粒物(PM10),66,82,91,40,39,180,117,159,154,18,23,9,10,0.5,0.6
2023-05-02T21:00:00,1030A,114.6063,38.0266,石家庄市,高新区,颗粒物(PM10),60,69,87,35,41,171,128,153,152,12,16,8,10,0.6,0.8
2023-05-02T21:00:00,1031A,114.4898,38.1328,石家庄市,西北水源,颗粒物(PM10),64,78,114,32,42,180,133,163,161,17,28,8,9,0.5,0.6
2023-05-02T21:00:00,1032A,114.4586,38.0058,石家庄市,西南高教,,,98,93,,41,185,117,156,153,20,23,5,8,0.5,0.7
2023-05-02T21:00:00,1033A,114.5331,38.0178,石家庄市,世纪公园,,,85,81,43,47,168,,148,148,16,18,7,8,0.6,0.8
2023-05-02T21:00:00,1034A,114.509,38.0457,石家庄市,人民会堂,颗粒物(PM10),67,83,102,19,27,177,130,156,153,14,21,7,9,0.5,0.6
2023-05-02T21:00:00,1035A,114.3524,37.8911,石家庄市,封龙山,颗粒物(PM10),76,102,128,46,34,172,130,148,148,15,13,18,16,0.5,0.7
2023-05-02T21:00:00,1037A,118.131,39.6363,唐山市,雷达站,颗粒物(PM10),85,119,105,55,43,201,137,185,183,35,28,12,11,1.2,0.9
2023-05-02T21:00:00,1038A,118.1725,39.6334,唐山市,物资局,颗粒物(PM10),92,134,110,49,43,195,122,175,172,34,29,8,12,0.8,1
2023-05-02T21:00:00,1040A,118.1705,39.6506,唐山市,十二中,颗粒物(PM10),81,112,97,42,46,198,128,179,176,24,24,8,12,0.8,1.1
2023-05-02T21:00:00,1041A,118.1869,39.622,唐山市,小山,,,,,,,,,,,,,,,,
2023-05-02T21:00:00,1042A,119.5134,39.8207,秦皇岛市,北戴河环保局,颗粒物(PM10),57,64,76,18,34,161,129,151,149,10,18,2,2,0.3,0.5
2023-05-02T21:00:00,1043A,119.7493,40.0116,秦皇岛市,第一关,颗粒物(PM10),61,72,85,43,35,193,130,181,173,32,39,1,2,0.4,0.5
2023-05-02T21:00:00,1044A,119.5897,39.9499,秦皇岛市,监测站,颗粒物(PM10),67,84,85,37,36,192,144,178,175,16,22,1,2,0.3,0.4
2023-05-02T21:00:00,1046A,119.5251,39.9041,秦皇岛市,建设大厦,颗粒物(PM10),58,66,89,20,26,195,152,180,178,10,30,4,6,0.3,0.4
2023-05-02T21:00:00,1048A,114.5302,36.6116,邯郸市,东污水处理厂,颗粒物(PM10),76,101,90,28,28,139,83,130,124,34,16,7,9,0.5,0.4
2023-05-02T21:00:00,1049A,114.4918,36.5713,邯郸市,矿院,颗粒物(PM10),75,100,73,29,33,139,74,130,124,40,14,6,14,0.5,0.4
2023-05-02T21:00:00,1050A,114.484,36.6133,邯郸市,丛台公园,颗粒物(PM10),64,78,81,33,30,141,111,134,132,15,13,11,11,0.4,0.4
2023-05-02T21:00:00,1051A,115.493,38.8632,保定市,游泳馆,颗粒物(PM10),73,95,87,42,43,180,111,167,161,27,17,9,12,0.2,0.2
2023-05-02T21:00:00,1052A,115.5213,38.8959,保定市,华电二区,颗粒物(PM10),73,96,83,38,47,170,114,159,155,24,16,8,11,0.4,0.4
2023-05-02T21:00:00,1053A,115.4713,38.9108,保定市,接待中心,颗粒物(PM10),63,76,77,21,40,171,124,156,154,10,8,8,11,0.4,0.4
2023-05-02T21:00:00,1054A,115.4612,38.8416,保定市,地表水厂,颗粒物(PM10),76,101,98,31,27,166,100,150,144,38,21,10,12,0.2,0.2
2023-05-02T21:00:00,1056A,115.5086,38.8639,保定市,监测站,,,,95,,41,182,107,168,161,,22,,13,0.4,0.5
2023-05-02T21:00:00,1057A,114.8883,40.8336,张家口市,人民公园,细颗粒物(PM2.5),87,102,99,64,31,169,156,158,158,10,11,6,5,0.5,0.4
2023-05-02T21:00:00,1059A,114.8687,40.8042,张家口市,五金库,,,105,105,40,38,168,,161,161,21,17,5,5,0.4,0.5
2023-05-02T21:00:00,1060A,114.8902,40.762,张家口市,世纪豪园,颗粒物(PM10),87,123,108,51,52,170,153,160,160,13,10,7,8,0.6,0.5
2023-05-02T21:00:00,1061A,114.8916,40.8661,张家口市,北泵房,颗粒物(PM10),76,102,94,42,38,180,160,168,168,12,12,11,10,0.6,0.6
2023-05-02T21:00:00,1062A,117.9531,40.9081,承德市,铁路,颗粒物(PM10),76,102,88,37,34,177,174,165,165,20,21,12,14,0.4,0.7
2023-05-02T21:00:00,1063A,117.9392,40.9763,承德市,中国银行,,,109,92,39,38,181,,171,171,15,18,10,11,0.5,0.8
2023-05-02T21:00:00,1064A,117.9503,40.928,承德市,开发区,臭氧1小时,79,89,87,35,35,183,183,173,173,18,21,9,13,0.5,0.8
2023-05-02T21:00:00,1065A,117.8051,40.9655,承德市,文化中心,,,,91,,44,176,176,167,167,,13,10,14,0.3,0.7
2023-05-02T21:00:00,1066A,117.9268,41.0026,承德市,离宫,颗粒物(PM10),68,86,77,36,36,175,170,165,165,14,14,7,7,0.5,0.7
2023-05-02T21:00:00,1067A,116.6708,39.5111,廊坊市,药材公司,颗粒物(PM10),71,92,97,37,33,178,129,167,163,20,21,4,7,0.3,0.4
2023-05-02T21:00:00,1068A,116.7214,39.5589,廊坊市,开发区,颗粒物(PM10),71,91,101,42,46,182,128,173,167,25,30,7,9,0.5,0.6
2023-05-02T21:00:00,1070A,116.7244,39.5269,廊坊市,北华航天学院,颗粒物(PM10),75,100,104,46,43,174,112,164,157,29,27,8,10,0.4,0.4
2023-05-02T21:00:00,1071A,116.8842,38.2991,沧州市,沧县城建局,颗粒物(PM10),68,85,88,28,25,165,127,150,147,29,21,5,7,0.3,0.4
2023-05-02T21:00:00,1072A,116.8584,38.3254,沧州市,电视转播站,颗粒物(PM10),77,103,90,41,30,164,116,151,148,32,21,10,12,0.5,0.4
2023-05-02T21:00:00,1073A,116.8709,38.3228,沧州市,市环保局,颗粒物(PM10),67,84,75,37,33,166,137,152,151,28,21,8,8,0.3,0.3
2023-05-02T21:00:00,1074A,115.6838,37.7541,衡水市,电机北厂,,,,94,36,25,168,150,161,160,12,11,4,4,0.4,0.3
2023-05-02T21:00:00,1075A,115.6303,37.7316,衡水市,市监测站,颗粒物(PM10),84,117,93,43,35,163,143,156,156,15,9,8,8,0.5,0.4
2023-05-02T21:00:00,1077A,114.4704,37.0886,邢台市,达活泉,颗粒物(PM10),64,78,92,37,31,160,109,146,141,22,17,10,14,0.5,0.6
2023-05-02T21:00:00,1078A,114.5062,37.0349,邢台市,邢师高专,颗粒物(PM10),70,89,82,31,30,149,90,137,131,26,14,7,9,0.5,0.5
2023-05-02T21:00:00,1079A,114.5237,37.0851,邢台市,路桥公司,颗粒物(PM10),65,79,83,36,27,149,105,137,134,18,18,8,10,0.6,0.6
2023-05-02T21:00:00,1080A,114.4725,37.0719,邢台市,市环保局,颗粒物(PM10),72,93,93,34,34,153,106,139,136,18,12,8,11,0.4,0.5
2023-05-02T21:00:00,1081A,112.522,37.8873,太原市,尖草坪,颗粒物(PM10),85,119,116,47,46,168,156,157,156,24,24,11,9,0.8,0.5
2023-05-02T21:00:00,1083A,112.434,38.0108,太原市,上兰,颗粒物(PM10),75,99,97,48,45,164,117,147,138,13,9,8,9,0.6,0.5
2023-05-02T21:00:00,1084A,112.469,37.7124,太原市,晋源,颗粒物(PM10),78,105,108,44,42,165,133,148,133,29,25,10,9,0.8,0.6
2023-05-02T21:00:00,1085A,112.5583,37.7394,太原市,小店,颗粒物(PM10),75,100,91,45,41,165,152,156,154,26,21,12,8,0.7,0.5
2023-05-02T21:00:00,1086A,112.5369,37.8692,太原市,桃园,颗粒物(PM10),81,111,112,48,49,165,154,155,154,25,22,10,9,0.8,0.5
2023-05-02T21:00:00,1087A,112.57,37.8195,太原市,坞城,颗粒物(PM10),81,112,112,49,43,166,159,159,159,22,9,10,8,0.6,0.6
2023-05-02T21:00:00,1088A,112.549,37.9854,太原市,南寨,颗粒物(PM10),89,128,126,40,48,159,149,151,150,26,31,10,13,0.8,0.9
2023-05-02T21:00:00,1090A,111.6507,40.7517,呼和浩特市,呼市一监,颗粒物(PM10),107,163,147,59,46,143,96,132,129,22,24,6,10,0.5,0.5
2023-05-02T21:00:00,1091A,111.6572,40.8033,呼和浩特市,小召,,,,143,,55,126,76,116,108,46,32,8,12,,0.5
2023-05-02T21:00:00,1094A,111.7516,40.8369,呼和浩特市,如意水处理厂,颗粒物(PM10),109,168,138,49,42,130,86,123,119,36,23,9,10,0.5,0.4
2023-05-02T21:00:00,1095A,111.7276,40.8062,呼和浩特市,二十九中,颗粒物(PM10),109,168,150,75,59,133,95,126,123,42,28,8,10,0.5,0.6
2023-05-02T21:00:00,1096A,111.5512,40.7866,呼和浩特市,工大金川校区,细颗粒物(PM2.5),120,172,135,91,54,132,78,122,116,35,28,13,10,0.5,0.5
2023-05-02T21:00:00,1097A,111.717,40.7612,呼和浩特市,化肥厂生活区,颗粒物(PM10),112,173,174,53,53,120,74,113,109,36,27,9,9,0.5,0.6
2023-05-02T21:00:00,1098A,123.6836,41.9339,沈阳市,森林路,,,,,,,,,,,,,,,,
2023-05-02T21:00:00,1099A,123.505,41.7406,沈阳市,浑南东路,颗粒物(PM10),56,61,55,18,18,168,133,156,154,17,17,11,15,0.5,0.6
2023-05-02T21:00:00,1100A,123.4231,41.6989,沈阳市,新秀街,颗粒物(PM10),54,57,56,12,13,166,137,156,154,9,11,18,23,0.4,0.5
2023-05-02T21:00:00,1102A,123.5903,41.8411,沈阳市,东陵路,颗粒物(PM10),57,63,66,21,17,165,131,153,151,15,17,11,13,0.6,0.6
2023-05-02T21:00:00,1103A,123.4264,41.8467,沈阳市,陵东街,颗粒物(PM10),53,55,54,15,17,166,138,156,155,13,17,12,12,0.5,0.6
2023-05-02T21:00:00,1104A,123.4114,41.7653,沈阳市,文化路,颗粒物(PM10),54,58,56,20,20,166,140,158,156,13,15,14,14,0.4,0.5
2023-05-02T21:00:00,1105A,123.4678,41.7867,沈阳市,小河沿,颗粒物(PM10),55,59,54,19,18,161,132,151,150,15,20,29,14,0.4,0.6
2023-05-02T21:00:00,1106A,123.4017,41.7972,沈阳市,太原街,颗粒物(PM10),52,54,48,18,15,166,139,157,155,14,15,18,15,0.4,0.5
2023-05-02T21:00:00,1108A,123.3783,41.9228,沈阳市,京沈街,,43,42,69,20,20,166,137,158,156,12,16,18,15,0.4,0.5
2023-05-02T21:00:00,1109A,121.612,38.9741,大连市,甘井子,颗粒物(PM10),58,66,64,24,26,166,133,148,142,17,24,4,5,0.7,0.5
2023-05-02T21:00:00,1110A,121.565,38.9511,大连市,周水子,颗粒物(PM10),60,70,60,27,26,171,131,153,140,24,25,6,6,0.4,0.5
2023-05-02T21:00:00,1111A,121.5637,38.8845,大连市,星海三站,颗粒物(PM10),65,79,63,28,25,171,126,154,140,22,19,4,5,0.5,0.5
2023-05-02T21:00:00,1112A,121.6302,38.9117,大连市,青泥洼桥,颗粒物(PM10),62,74,66,25,23,188,142,170,156,16,15,5,6,0.6,0.6
2023-05-02T21:00:00,1113A,121.6251,38.8638,大连市,傅家庄,颗粒物(PM10),60,70,60,26,25,178,130,160,145,20,17,6,8,0.6,0.6
2023-05-02T21:00:00,1114A,121.5213,38.8661,大连市,七贤岭,颗粒物(PM10),67,83,63,26,25,188,142,168,154,20,19,6,6,0.3,0.4
2023-05-02T21:00:00,1115A,121.2529,38.8061,大连市,旅顺,颗粒物(PM10),54,57,55,20,27,180,141,160,148,14,16,7,8,0.4,0.4
2023-05-02T21:00:00,1116A,121.7485,39.1311,大连市,金州,颗粒物(PM10),52,53,55,22,23,189,149,168,159,16,17,8,9,0.4,0.5
2023-05-02T21:00:00,1117A,121.7811,39.0496,大连市,开发区,颗粒物(PM10),57,63,52,24,25,165,131,140,136,20,26,3,4,0.4,0.4
2023-05-02T21:00:00,1118A,121.9762,39.0631,大连市,双D港,颗粒物(PM10),56,61,58,28,24,157,126,143,140,23,21,6,5,0.5,0.5
2023-05-02T21:00:00,1119A,125.3325,43.9166,长春市,食品厂,颗粒物(PM10),63,76,71,25,20,158,141,149,148,16,22,8,8,0.4,0.4
2023-05-02T21:00:00,1120A,125.2863,43.9027,长春市,客车厂,颗粒物(PM10),58,66,62,27,21,155,136,146,145,16,18,5,6,0.4,0.4
2023-05-02T21:00:00,1121A,125.2841,43.8463,长春市,邮电学院,颗粒物(PM10),60,69,58,18,16,156,138,147,146,11,16,6,7,0.4,0.4
2023-05-02T21:00:00,1122A,125.3716,43.8772,长春市,劳动公园,颗粒物(PM10),55,59,57,15,15,165,148,154,154,11,20,7,7,0.4,0.4
2023-05-02T21:00:00,1123A,125.3297,43.8805,长春市,园林处,颗粒物(PM10),58,65,61,14,17,155,139,146,146,11,19,3,4,0.4,0.4
2023-05-02T21:00:00,1124A,125.4605,43.79,长春市,净月潭,,40,40,42,14,13,130,121,122,122,5,7,4,4,0.3,0.3
2023-05-02T21:00:00,1125A,125.7194,43.515,长春市,甩湾子,臭氧1小时,58,39,34,16,14,166,166,154,154,7,8,7,5,0.3,0.2
2023-05-02T21:00:00,1126A,125.3863,43.8447,长春市,经开区环卫处,颗粒物(PM10),53,55,64,15,15,149,139,141,140,9,17,7,7,0.4,0.4
2023-05-02T21:00:00,1127A,125.245,43.7783,长春市,高新区管委会,颗粒物(PM10),60,70,47,19,16,161,146,152,152,9,13,4,4,0.3,0.3
2023-05-02T21:00:00,1128A,125.1761,43.8325,长春市,岱山公园,颗粒物(PM10),58,65,69,18,17,154,137,147,146,12,16,6,5,0.3,0.3
2023-05-02T21:00:00,1129A,126.5422,45.755,哈尔滨市,岭北,颗粒物(PM10),150,249,136,41,23,162,158,155,155,11,12,16,15,0.4,0.5
2023-05-02T21:00:00,1130A,126.561,45.8167,哈尔滨市,松北商大,颗粒物(PM10),137,224,93,54,25,160,149,151,151,11,12,6,6,0.6,0.5
2023-05-02T21:00:00,1131A,126.979,45.5419,哈尔滨市,阿城会宁,颗粒物(PM10),53,56,51,21,16,143,100,134,122,15,11,9,10,0.4,0.4
2023-05-02T21:00:00,1132A,126.599,45.7222,哈尔滨市,南岗学府路,颗粒物(PM10),134,217,111,31,19,154,150,144,144,8,14,8,8,0.5,0.5
2023-05-02T21:00:00,1133A,126.689,45.7733,哈尔滨市,太平宏伟公园,颗粒物(PM10),166,282,118,37,21,149,149,139,139,14,17,6,6,0.7,0.6
2023-05-02T21:00:00,1134A,126.635,45.7667,哈尔滨市,道外承德广场,,,,98,55,20,151,,143,143,14,19,6,11,0.5,0.5
2023-05-02T21:00:00,1135A,126.685,45.7319,哈尔滨市,香坊红旗大街,颗粒物(PM10),140,230,107,45,27,152,150,141,141,15,20,12,15,0.5,0.4
2023-05-02T21:00:00,1136A,126.6411,45.7258,哈尔滨市,动力和平路,颗粒物(PM10),226,368,120,37,22,152,151,142,142,15,20,13,15,0.5,0.5
2023-05-02T21:00:00,1137A,126.593,45.7478,哈尔滨市,道里建国路,颗粒物(PM10),164,278,111,32,21,149,147,142,142,14,18,14,14,0.5,0.7
2023-05-02T21:00:00,1138A,126.615,45.61,哈尔滨市,平房东轻厂,颗粒物(PM10),127,203,95,27,16,152,148,144,143,9,7,6,6,0.4,0.4
2023-05-02T21:00:00,1139A,126.595,45.9855,哈尔滨市,呼兰师专,颗粒物(PM10),188,326,132,68,26,158,148,150,150,15,17,12,11,0.5,0.5
2023-05-02T21:00:00,1140A,126.6206,45.6842,哈尔滨市,省农科院,颗粒物(PM10),144,238,127,31,21,157,153,147,147,14,21,11,12,0.5,0.4
2023-05-02T21:00:00,1141A,121.4,31.238,上海市,普陀,,50,50,64,19,15,166,129,158,141,14,17,5,7,0.4,0.4
2023-05-02T21:00:00,1142A,121.478,31.2036,上海市,十五厂,颗粒物(PM10),58,65,69,25,23,152,119,151,129,17,19,8,8,0.5,0.5
2023-05-02T21:00:00,1143A,121.467,31.3008,上海市,虹口,颗粒物(PM10),53,56,53,24,18,159,120,158,133,16,15,9,9,0.4,0.4
2023-05-02T21:00:00,1144A,121.412,31.1654,上海市,徐汇上师大,颗粒物(PM10),52,54,63,17,17,158,137,158,149,19,23,8,12,0.6,0.5
2023-05-02T21:00:00,1145A,121.536,31.2659,上海市,杨浦四漂,颗粒物(PM10),52,53,67,20,18,167,125,167,138,18,19,7,7,0.5,0.5
2023-05-02T21:00:00,1147A,121.425,31.2261,上海市,静安监测站,颗粒物(PM10),54,57,56,16,17,168,128,164,140,16,18,6,7,0.5,0.5
2023-05-02T21:00:00,1148A,121.703,31.1907,上海市,浦东川沙,颗粒物(PM10),57,64,65,23,21,164,127,160,138,14,15,6,6,0.5,0.4
2023-05-02T21:00:00,1149A,121.533,31.2284,上海市,浦东新区监测站,颗粒物(PM10),55,60,59,8,13,172,134,168,143,8,9,8,8,0.4,0.4
2023-05-02T21:00:00,1150A,121.577,31.2071,上海市,浦东张江,颗粒物(PM10),56,61,58,31,20,164,130,162,139,12,14,4,4,0.5,0.5
2023-05-02T21:00:00,1151A,118.8086,32.1065,南京市,迈皋桥,颗粒物(PM10),52,54,62,12,18,190,138,176,171,21,15,6,7,0.3,0.3
2023-05-02T21:00:00,1152A,118.7538,32.0551,南京市,草场门,,44,44,65,17,19,174,134,165,160,21,17,8,6,0.6,0.5
2023-05-02T21:00:00,1153A,118.7794,32.0745,南京市,山西路,颗粒物(PM10),53,56,69,22,20,185,143,174,171,10,9,5,5,0.3,0.2
2023-05-02T21:00:00,1154A,118.7752,32.0023,南京市,中华门,颗粒物(PM10),52,53,59,12,17,176,135,166,160,23,19,4,4,0.5,0.5
2023-05-02T21:00:00,1155A,118.8109,32.0309,南京市,瑞金路,,50,50,62,14,19,184,136,171,166,15,14,9,9,0.3,0.4
2023-05-02T21:00:00,1156A,118.7997,32.0754,南京市,玄武湖,,45,45,64,19,22,181,141,171,168,15,13,6,6,0.6,0.6
2023-05-02T21:00:00,1157A,118.6414,32.0931,南京市,浦口,颗粒物(PM10),52,54,71,17,21,167,122,160,151,42,25,8,7,0.3,0.3
2023-05-02T21:00:00,1158A,118.7356,31.9996,南京市,奥体中心,颗粒物(PM10),51,52,70,17,21,168,137,160,155,18,16,8,8,0.3,0.3
2023-05-02T21:00:00,1159A,118.9125,32.1028,南京市,仙林大学城,,48,48,62,22,22,177,132,166,162,14,14,9,10,0.6,0.5
2023-05-02T21:00:00,1160A,120.561,31.2472,苏州市,上方山,,48,48,54,27,23,139,92,124,112,10,16,8,9,0.4,0.4
2023-05-02T21:00:00,1162A,120.591,31.3019,苏州市,彩香,颗粒物(PM10),56,61,57,20,17,174,108,154,144,6,13,6,7,0.6,0.6
2023-05-02T21:00:00,1163A,120.596,31.3264,苏州市,轧钢厂,颗粒物(PM10),58,65,60,19,18,154,101,137,126,12,14,8,9,0.6,0.5
2023-05-02T21:00:00,1164A,120.613,31.2703,苏州市,吴中区,颗粒物(PM10),54,57,57,18,17,157,104,142,130,12,15,9,10,0.6,0.5
2023-05-02T21:00:00,1165A,120.543,31.2994,苏州市,苏州新区,颗粒物(PM10),55,59,52,21,19,147,102,138,127,6,10,6,7,0.5,0.5
2023-05-02T21:00:00,1166A,120.669,31.3097,苏州市,苏州工业园区,颗粒物(PM10),56,61,56,22,20,154,102,138,126,7,8,8,9,0.5,0.5
2023-05-02T21:00:00,1167A,120.641,31.3708,苏州市,相城区,颗粒物(PM10),53,56,57,18,18,162,110,145,134,10,11,7,8,0.6,0.5
2023-05-02T21:00:00,1168A,120.9098,31.9663,南通市,狼山街道,颗粒物(PM10),58,66,70,15,19,150,113,141,135,12,22,7,8,0.3,0.3
2023-05-02T21:00:00,1169A,120.86,32.0005,南通市,虹桥,颗粒物(PM10),56,62,65,16,17,155,110,144,136,18,23,7,9,0.4,0.4
2023-05-02T21:00:00,1170A,120.87,32.02,南通市,城中,颗粒物(PM10),53,56,76,17,19,161,114,149,141,13,19,6,8,0.5,0.5
2023-05-02T21:00:00,1171A,120.94,31.93,南通市,星湖花园,颗粒物(PM10),51,52,59,17,18,136,98,126,117,17,20,7,8,0.5,0.4
2023-05-02T21:00:00,1172A,120.81,32.0417,南通市,紫琅学院,颗粒物(PM10),58,66,69,17,17,132,100,121,118,17,31,7,9,0.4,0.4
2023-05-02T21:00:00,1173A,119.176,34.5885,连云港市,市环境监测站,颗粒物(PM10),71,92,95,22,31,155,110,148,142,15,10,7,8,0.4,0.5
2023-05-02T21:00:00,1177A,117.179,34.2761,徐州市,黄河新村,颗粒物(PM10),70,90,91,32,33,170,133,162,157,19,16,9,10,0.5,0.6
2023-05-02T21:00:00,1178A,117.1918,34.2384,徐州市,淮塔,颗粒物(PM10),69,88,89,31,33,182,148,169,165,17,17,10,11,0.4,0.5
2023-05-02T21:00:00,1180A,117.256,34.2153,徐州市,新城区,颗粒物(PM10),71,91,84,27,30,175,132,162,157,20,16,11,9,0.6,0.6
2023-05-02T21:00:00,1181A,117.244,34.2911,徐州市,桃园路,颗粒物(PM10),69,88,90,19,27,165,136,157,154,12,10,11,11,0.5,0.6
2023-05-02T21:00:00,1182A,117.2933,34.2778,徐州市,农科院,颗粒物(PM10),67,83,88,17,24,166,149,157,154,22,25,10,10,0.6,0.7
2023-05-02T21:00:00,1186A,119.389,32.3761,扬州市,邗江监测站,颗粒物(PM10),56,61,73,31,27,171,124,155,150,22,23,7,7,0.6,0.4
2023-05-02T21:00:00,1188A,120.269,31.4867,无锡市,雪浪,颗粒物(PM10),52,53,56,14,14,162,100,152,139,14,14,9,9,0.5,0.5
2023-05-02T21:00:00,1189A,120.275,31.6219,无锡市,黄巷,,50,50,60,17,16,164,99,153,139,15,15,5,6,0.9,0.7
2023-05-02T21:00:00,1190A,120.294,31.56,无锡市,曹张,,49,49,52,19,17,168,98,155,142,11,13,5,7,0.7,0.6
2023-05-02T21:00:00,1191A,120.242,31.5031,无锡市,漆塘,,46,46,52,19,18,159,97,149,136,14,12,6,7,0.4,0.3
2023-05-02T21:00:00,1192A,120.3489,31.5863,无锡市,东亭,颗粒物(PM10),51,51,58,17,17,156,96,144,134,11,15,10,11,0.8,0.6
2023-05-02T21:00:00,1193A,120.354,31.5475,无锡市,旺庄,,46,46,54,12,16,158,99,146,135,15,17,5,6,0.5,0.5
2023-05-02T21:00:00,1194A,120.245,31.5631,无锡市,荣巷,,44,44,51,14,18,168,96,157,142,20,15,12,12,0.6,0.5
2023-05-02T21:00:00,1195A,120.299,31.6817,无锡市,堰桥,,48,48,58,17,18,167,112,154,146,10,16,6,7,0.5,0.4
2023-05-02T21:00:00,1196A,119.9633,31.762,常州市,市监测站,颗粒物(PM10),61,71,55,14,18,157,91,149,137,22,14,8,6,0.8,0.3
2023-05-02T21:00:00,1200A,119.9468,31.7069,常州市,武进监测站,颗粒物(PM10),56,62,52,15,18,168,106,160,150,15,11,5,5,0.4,0.3
2023-05-02T21:00:00,1201A,119.9255,31.9087,常州市,安家,颗粒物(PM10),59,68,56,21,25,162,104,153,144,17,17,6,7,0.6,0.5
2023-05-02T21:00:00,1203A,119.6707,32.1875,镇江市,新区办事处,,,66,66,24,22,183,,170,168,25,14,2,4,,0.4
2023-05-02T21:00:00,1204A,119.4974,32.1968,镇江市,职教中心,颗粒物(PM10),58,66,67,26,21,171,114,156,151,21,16,4,4,0.6,0.4
2023-05-02T21:00:00,1205A,119.4303,32.1328,镇江市,丹徒区监测站,,,76,66,,29,184,121,167,160,21,13,9,5,0.5,0.4
2023-05-02T21:00:00,1206A,119.905,32.4878,泰州市,公园路,颗粒物(PM10),51,51,66,22,29,176,117,161,155,13,17,9,10,0.5,0.5
2023-05-02T21:00:00,1207A,119.9189,32.4625,泰州市,莲花,颗粒物(PM10),58,66,78,29,33,184,124,168,163,15,19,8,10,0.4,0.4
2023-05-02T21:00:00,1209A,119.888,32.4639,泰州市,留学生创业园,颗粒物(PM10),63,76,82,19,23,174,121,160,156,15,16,7,8,0.5,0.5
2023-05-02T21:00:00,1210A,119.036,33.5981,淮安市,钵池山,颗粒物(PM10),51,51,70,20,25,171,144,161,160,22,20,11,12,0.5,0.6
2023-05-02T21:00:00,1211A,119.007,33.575,淮安市,北京南路,颗粒物(PM10),59,68,84,23,28,182,140,166,164,26,24,10,11,0.4,0.5
2023-05-02T21:00:00,1212A,118.989,33.6067,淮安市,市监测站,颗粒物(PM10),54,58,83,22,24,176,144,166,165,25,25,11,13,0.6,0.7
2023-05-02T21:00:00,1213A,119.135,33.5039,淮安市,楚州区监测站,颗粒物(PM10),59,68,88,28,32,173,125,157,153,24,22,10,12,0.7,0.7
2023-05-02T21:00:00,1214A,119.0186,33.6297,淮安市,淮阴区监测站,颗粒物(PM10),60,70,86,23,26,173,142,161,160,23,21,10,11,0.4,0.5
2023-05-02T21:00:00,1215A,120.118,33.4022,盐城市,盐城电厂,颗粒物(PM10),51,51,82,18,25,184,146,170,168,11,12,6,8,0.4,0.4
2023-05-02T21:00:00,1216A,120.156,33.3942,盐城市,市监测站,颗粒物(PM10),53,56,78,21,32,168,128,155,152,15,13,8,9,0.3,0.5
2023-05-02T21:00:00,1218A,120.2144,33.38,盐城市,开发区管委会,颗粒物(PM10),51,51,80,16,21,173,132,158,155,15,16,8,10,0.4,0.4
2023-05-02T21:00:00,1220A,118.293,33.9528,宿迁市,宿迁学院,颗粒物(PM10),65,80,96,35,39,176,137,165,158,32,27,9,11,0.5,0.6
2023-05-02T21:00:00,1221A,118.2442,33.9592,宿迁市,宿迁中学,颗粒物(PM10),62,74,89,30,34,180,140,168,164,26,19,10,9,0.4,0.4
2023-05-02T21:00:00,1223A,120.2072,30.2111,杭州市,滨江,,41,41,38,3,18,142,85,134,117,9,12,7,7,0.5,0.4
2023-05-02T21:00:00,1224A,120.0633,30.2747,杭州市,西溪,,44,44,44,14,16,150,84,138,126,17,17,7,7,0.4,0.4
2023-05-02T21:00:00,1226A,120.3461,30.3153,杭州市,下沙,,38,35,48,26,15,141,81,130,114,21,21,7,6,0.5,0.5
2023-05-02T21:00:00,1227A,120.1269,30.2456,杭州市,卧龙桥,,34,34,38,17,17,153,84,138,125,10,13,2,2,0.4,0.4
2023-05-02T21:00:00,1228A,120.1903,30.2692,杭州市,浙江农大,,33,33,41,11,15,147,82,137,120,15,15,7,8,0.4,0.3
2023-05-02T21:00:00,1230A,120.1197,30.3119,杭州市,和睦小学,,39,39,45,19,16,145,77,134,118,14,17,5,6,0.6,0.6
2023-05-02T21:00:00,1231A,120.3019,30.4183,杭州市,临平镇,颗粒物(PM10),51,51,52,17,14,147,82,134,116,11,16,4,5,0.4,0.3
2023-05-02T21:00:00,1232A,120.2697,30.1819,杭州市,城厢镇,颗粒物(PM10),51,52,49,31,18,139,80,130,114,16,17,4,4,0.5,0.3
2023-05-02T21:00:00,1233A,120.0883,30.1808,杭州市,云栖,,32,32,39,21,13,138,79,127,114,19,26,6,6,0.5,0.5
2023-05-02T21:00:00,1234A,121.8358,29.911,宁波市,区环保大楼,,44,44,38,16,15,189,139,146,137,6,10,4,4,0.4,0.4
2023-05-02T21:00:00,1235A,121.56,29.82,宁波市,万里学院,颗粒物(PM10),52,53,52,33,21,142,115,132,119,12,16,4,4,0.5,0.5
2023-05-02T21:00:00,1236A,121.713,29.9572,宁波市,龙赛医院,,45,45,48,13,10,173,132,146,130,6,10,5,4,0.2,0.2
2023-05-02T21:00:00,1239A,121.633,29.7733,宁波市,钱湖水厂,,45,45,33,27,18,151,124,147,128,1,2,4,4,0.3,0.3
2023-05-02T21:00:00,1240A,121.5856,29.8635,宁波市,太古小学,,39,38,45,6,9,158,122,132,125,10,12,8,8,0.5,0.5
2023-05-02T21:00:00,1241A,121.524,29.8674,宁波市,市环境监测中心,,49,49,51,21,13,156,107,155,109,12,15,7,7,0.4,0.4
2023-05-02T21:00:00,1242A,120.634,28.0089,温州市,瓯海,细颗粒物(PM2.5),77,70,75,56,40,97,3,60,23,63,59,7,8,0.6,0.5
2023-05-02T21:00:00,1243A,120.6748,27.9939,温州市,南浦,颗粒物(PM10),59,67,65,39,34,134,10,89,35,50,41,4,5,0.8,0.5
2023-05-02T21:00:00,1244A,120.76,27.9747,温州市,龙湾,颗粒物(PM10),65,79,72,44,28,128,7,88,28,62,55,6,7,0.8,0.5
2023-05-02T21:00:00,1245A,120.6709,28.0167,温州市,市站,,48,48,68,24,32,117,21,77,33,46,47,4,6,0.5,0.4
2023-05-02T21:00:00,1247A,120.6053,29.9928,绍兴市,城东开发委,,31,20,32,10,14,147,99,130,103,3,6,6,6,0.3,0.2
2023-05-02T21:00:00,1250A,120.0751,30.8669,湖州市,城西水厂,,35,33,56,24,22,156,80,139,123,20,21,7,8,0.4,0.4
2023-05-02T21:00:00,1252A,120.7436,30.778,嘉兴市,清河小学,,48,48,53,13,14,134,94,134,112,10,15,5,7,0.2,0.2
2023-05-02T21:00:00,1253A,120.726,30.7478,嘉兴市,嘉兴学院,,42,42,46,16,15,133,94,133,110,10,12,5,7,0.3,0.3
2023-05-02T21:00:00,1255A,121.273,28.6459,台州市,黄岩环保大楼,颗粒物(PM10),53,55,55,30,21,133,57,104,83,23,21,5,7,0.6,0.5
2023-05-02T21:00:00,1256A,121.419,28.6542,台州市,台州环保大楼,细颗粒物(PM2.5),69,65,58,50,26,152,47,115,89,32,17,4,5,0.6,0.4
2023-05-02T21:00:00,1257A,121.377,28.5773,台州市,路桥田洋王,细颗粒物(PM2.5),64,55,67,46,35,123,53,92,70,27,27,5,8,0.4,0.5
2023-05-02T21:00:00,1258A,122.122,30.0203,舟山市,定海檀枫,,45,45,40,17,20,129,112,123,121,17,17,7,6,0.4,0.4
2023-05-02T21:00:00,1259A,122.3094,29.9558,舟山市,普陀东港,,42,42,40,25,21,134,124,131,130,10,11,6,6,0.3,0.3
2023-05-02T21:00:00,1260A,122.19,29.9944,舟山市,临城新区,颗粒物(PM10),52,53,46,24,22,139,120,136,134,20,17,6,5,0.4,0.4
2023-05-02T21:00:00,1262A,119.647,29.077,金华市,十五中,,26,21,39,9,14,157,82,142,100,11,13,5,6,0.4,0.4
2023-05-02T21:00:00,1263A,119.686,29.1029,金华市,监测站,,27,13,40,8,14,163,84,148,100,8,16,4,5,0.4,0.4
2023-05-02T21:00:00,1264A,118.8692,28.9398,衢州市,环保大楼,颗粒物(PM10),59,67,49,37,22,150,53,137,119,39,18,8,8,0.7,0.3
2023-05-02T21:00:00,1265A,118.8709,28.9666,衢州市,实验学校,,45,45,50,20,18,157,62,144,124,23,14,9,7,0.6,0.6
2023-05-02T21:00:00,1266A,118.8621,28.9808,衢州市,衢州学院,,38,38,44,15,18,149,62,136,118,27,17,6,7,0.4,0.3
2023-05-02T21:00:00,1267A,119.914,28.4514,丽水市,监测站大楼,,35,6,33,24,16,131,86,102,94,7,12,4,5,0.3,0.2
2023-05-02T21:00:00,1268A,119.93,28.4586,丽水市,莲都小学,,30,10,32,10,12,145,95,104,100,5,12,5,5,0.3,0.2
2023-05-02T21:00:00,1269A,119.879,28.4231,丽水市,余庄前,,26,8,26,4,12,126,83,100,94,9,12,6,7,0.3,0.2
2023-05-02T21:00:00,1270A,117.1959,31.7848,合肥市,明珠广场,颗粒物(PM10),59,68,68,36,29,139,98,125,111,26,32,6,7,0.5,0.5
2023-05-02T21:00:00,1271A,117.3072,31.8764,合肥市,三里街,颗粒物(PM10),67,83,86,39,35,132,80,117,100,44,54,6,8,0.6,0.5
2023-05-02T21:00:00,1272A,117.2588,31.8707,合肥市,琥珀山庄,颗粒物(PM10),58,66,73,34,30,141,89,130,116,29,25,4,6,0.9,0.8
2023-05-02T21:00:00,1273A,117.1604,31.9052,合肥市,董铺水库,颗粒物(PM10),52,53,77,24,22,122,98,114,108,18,21,4,5,0.5,0.4
2023-05-02T21:00:00,1274A,117.25,31.8571,合肥市,长江中路,颗粒物(PM10),60,70,80,34,32,135,90,123,109,31,24,9,12,0.7,0.5
2023-05-02T21:00:00,1275A,117.266,31.9436,合肥市,庐阳区,,,74,74,29,26,129,,116,106,30,29,8,10,0.5,0.5
2023-05-02T21:00:00,1276A,117.336,31.8586,合肥市,瑶海区,颗粒物(PM10),70,90,91,37,30,130,73,122,104,43,46,8,9,0.7,0.6
2023-05-02T21:00:00,1277A,117.3027,31.7964,合肥市,包河区,颗粒物(PM10),56,61,74,31,30,141,106,129,117,17,37,9,11,0.3,0.4
2023-05-02T21:00:00,1278A,117.2776,31.7385,合肥市,滨湖新区,颗粒物(PM10),54,58,65,22,24,137,115,127,120,15,16,6,9,0.5,0.5
2023-05-02T21:00:00,1279A,117.1318,31.8403,合肥市,高新区,颗粒物(PM10),58,66,67,29,28,136,112,125,117,17,24,8,10,0.3,0.3
2023-05-02T21:00:00,1280A,119.3903,26.0543,福州市,鼓山,,,,,,,,,,,,,,,,
2023-05-02T21:00:00,1282A,119.2681,26.0504,福州市,师大,,43,43,48,11,18,134,73,114,104,22,19,6,7,0.7,0.5
2023-05-02T21:00:00,1283A,119.2984,26.1028,福州市,五四北路,,36,36,44,18,16,141,72,118,100,18,19,3,3,0.5,0.4
2023-05-02T21:00:00,1284A,119.2648,26.0768,福州市,杨桥西路,,45,45,48,26,16,138,62,108,98,25,18,4,5,0.8,0.5
2023-05-02T21:00:00,1285A,119.317,26.0746,福州市,紫阳,颗粒物(PM10),56,62,48,32,17,133,44,121,93,43,20,4,4,0.9,0.5
2023-05-02T21:00:00,1286A,118.1608,24.8169,厦门市,溪东,,,,,,,,,,,,,,,,
2023-05-02T21:00:00,1287A,118.1514,24.4767,厦门市,洪文,,42,42,52,22,19,146,96,133,126,3,9,3,3,0.3,0.2
2023-05-02T21:00:00,1288A,118.0661,24.4444,厦门市,鼓浪屿,,39,39,54,21,20,151,60,127,113,50,23,2,2,0.5,0.4
2023-05-02T21:00:00,1290A,115.8931,28.6843,南昌市,省外办,颗粒物(PM10),61,72,76,34,33,128,72,115,106,32,40,8,12,0.6,0.6
2023-05-02T21:00:00,1291A,115.8886,28.7003,南昌市,省林业公司,颗粒物(PM10),60,70,82,39,33,133,67,116,108,40,52,8,12,0.6,0.5
2023-05-02T21:00:00,1292A,115.8126,28.7442,南昌市,林科所,颗粒物(PM10),51,51,52,27,23,127,54,116,103,46,24,9,12,0.7,0.5
2023-05-02T21:00:00,1294A,115.8518,28.687,南昌市,建工学校,颗粒物(PM10),66,82,83,29,29,127,57,114,105,50,38,12,14,0.8,0.6
2023-05-02T21:00:00,1295A,115.8921,28.6424,南昌市,象湖,颗粒物(PM10),64,78,71,35,30,125,63,112,102,40,37,10,13,0.9,0.8
2023-05-02T21:00:00,1296A,115.7423,28.7996,南昌市,武术学校,,47,47,45,30,16,130,62,120,107,7,6,14,11,0.7,0.6
2023-05-02T21:00:00,1298A,115.9314,28.6842,南昌市,省站,颗粒物(PM10),76,101,90,46,32,123,56,116,105,50,41,11,11,1.2,0.8
2023-05-02T21:00:00,1299A,116.9862,36.6114,济南市,科干所,颗粒物(PM10),54,58,68,32,26,167,154,159,159,16,13,8,9,0.4,0.4
2023-05-02T21:00:00,1300A,116.9376,36.665,济南市,农科所,颗粒物(PM10),62,73,79,24,20,157,119,148,145,27,18,4,4,0.4,0.3
2023-05-02T21:00:00,1301A,117.1265,36.6734,济南市,开发区,颗粒物(PM10),62,73,71,29,27,172,108,160,152,45,12,10,11,0.6,0.4
2023-05-02T21:00:00,1303A,117.0624,36.6868,济南市,省种子仓库,颗粒物(PM10),65,80,74,39,31,173,106,163,157,41,12,9,10,0.6,0.4
2023-05-02T21:00:00,1304A,116.9489,36.6447,济南市,机床二厂,颗粒物(PM10),73,95,88,29,24,164,120,156,152,24,11,4,5,0.5,0.3
2023-05-02T21:00:00,1305A,117.0495,36.663,济南市,市监测站,颗粒物(PM10),63,76,75,34,23,180,117,168,162,42,14,8,9,0.7,0.5
2023-05-02T21:00:00,1306A,116.7675,36.5484,济南市,长清党校,,,68,81,,35,174,154,164,164,17,14,13,12,0.7,0.6
2023-05-02T21:00:00,1307A,120.6659,36.2403,青岛市,仰口,,44,44,75,22,29,117,73,110,82,7,8,3,4,0.4,0.4
2023-05-02T21:00:00,1310A,120.4134,36.0658,青岛市,市南区东部子站,,44,44,79,7,22,184,127,175,142,13,15,5,6,0.4,0.5
2023-05-02T21:00:00,1311A,120.3664,36.1032,青岛市,四方区子站,,41,41,81,12,24,189,127,180,144,19,22,4,7,0.5,0.6
2023-05-02T21:00:00,1312A,120.2994,36.054,青岛市,市南区西部子站,,42,36,82,17,24,201,132,192,153,14,18,5,6,0.5,0.6
2023-05-02T21:00:00,1313A,120.4581,36.0858,青岛市,崂山区子站,,46,46,86,17,27,186,138,176,151,8,12,7,8,0.3,0.4
2023-05-02T21:00:00,1314A,120.1983,35.9608,青岛市,黄岛区子站,,39,39,80,12,26,184,118,177,142,6,10,4,6,0.3,0.5
2023-05-02T21:00:00,1315A,120.3999,36.3083,青岛市,城阳区子站,颗粒物(PM10),51,51,89,12,19,172,132,170,146,16,22,4,6,0.3,0.4
2023-05-02T21:00:00,1316A,113.69031,34.76122,郑州市,烟厂,颗粒物(PM10),101,151,120,39,59,172,114,155,151,24,29,7,9,0.6,0.4
2023-05-02T21:00:00,1317A,113.65724,34.77134,郑州市,郑纺机,颗粒物(PM10),66,82,101,39,41,172,116,157,154,18,25,8,9,0.5,0.5
2023-05-02T21:00:00,1318A,113.67526,34.80246,郑州市,银行学校,颗粒物(PM10),67,84,85,29,35,168,115,153,150,11,15,7,9,0.7,0.6
2023-05-02T21:00:00,1319A,113.56746,34.81334,郑州市,供水公司,颗粒物(PM10),81,112,104,28,38,159,111,146,143,9,15,10,12,0.5,0.5
2023-05-02T21:00:00,1320A,113.7329,34.7178,郑州市,经开区管委,颗粒物(PM10),64,78,90,29,46,166,109,153,148,22,22,4,6,0.5,0.5
2023-05-02T21:00:00,1321A,113.73961,34.77172,郑州市,四十七中,颗粒物(PM10),71,92,102,50,43,163,112,151,147,17,20,7,9,0.7,0.6
2023-05-02T21:00:00,1322A,113.60532,34.74838,郑州市,市监测站,颗粒物(PM10),78,106,134,27,35,176,115,159,155,20,27,4,7,0.6,0.5
2023-05-02T21:00:00,1323A,113.64164,34.7525,郑州市,河医大,颗粒物(PM10),69,87,99,36,41,170,115,155,151,16,24,9,10,0.6,0.5
2023-05-02T21:00:00,1324A,113.51488,34.91089,郑州市,岗李水库,颗粒物(PM10),73,95,96,25,27,176,117,160,156,21,24,10,10,0.7,0.7
2023-05-02T21:00:00,1325A,114.3677,30.5584,武汉市,东湖梨园,,50,50,65,27,28,118,83,110,102,22,29,6,10,0.7,0.7
2023-05-02T21:00:00,1326A,114.2529,30.558,武汉市,汉阳月湖,颗粒物(PM10),56,61,79,29,27,109,60,97,81,32,41,6,9,0.8,0.8
2023-05-02T21:00:00,1327A,114.282,30.6189,武汉市,汉口花桥,颗粒物(PM10),68,86,91,27,26,109,61,97,88,31,30,6,11,0.7,0.7
2023-05-02T21:00:00,1328A,114.3025,30.5332,武汉市,武昌紫阳,细颗粒物(PM2.5),65,55,69,47,39,122,75,101,92,26,39,6,9,1.0,0.8
2023-05-02T21:00:00,1329A,114.3646,30.6217,武汉市,青山钢花,细颗粒物(PM2.5),58,64,91,41,40,144,75,119,112,32,35,7,12,1.2,0.9
2023-05-02T21:00:00,1330A,114.1566,30.4825,武汉市,沌口新区,细颗粒物(PM2.5),62,60,79,44,35,114,52,96,84,45,36,6,8,0.7,0.6
2023-05-02T21:00:00,1331A,114.3014,30.5944,武汉市,汉口江滩,细颗粒物(PM2.5),59,65,74,42,34,119,61,107,77,41,42,6,10,0.9,0.8
2023-05-02T21:00:00,1333A,114.135,30.6319,武汉市,吴家山,颗粒物(PM10),55,60,63,27,27,123,68,109,100,31,27,6,9,0.9,0.7
2023-05-02T21:00:00,1334A,113.8454,30.2917,武汉市,沉湖七壕,,43,43,58,24,19,111,65,90,75,22,19,12,12,0.5,0.4
2023-05-02T21:00:00,1335A,113.0833,28.2325,长沙市,经开区环保局,细颗粒物(PM2.5),67,68,80,48,41,109,71,88,87,19,14,8,8,0.7,0.7
2023-05-02T21:00:00,1336A,112.8872,28.2189,长沙市,高开区环保局,细颗粒物(PM2.5),58,64,72,41,32,108,84,100,99,11,12,12,11,0.6,0.6
2023-05-02T21:00:00,1337A,113.0792,28.2053,长沙市,马坡岭,细颗粒物(PM2.5),89,84,81,66,47,98,56,83,77,22,15,3,2,0.5,0.5
2023-05-02T21:00:00,1338A,112.9394,28.19,长沙市,湖南师范大学,细颗粒物(PM2.5),72,92,89,52,42,105,63,87,83,21,21,10,10,1.1,0.9
2023-05-02T21:00:00,1339A,113.0178,28.1322,长沙市,雨花区环保局,颗粒物(PM10),68,85,76,38,31,108,74,105,92,16,13,11,11,0.6,0.5
2023-05-02T21:00:00,1340A,112.9792,28.2597,长沙市,伍家岭,颗粒物(PM10),72,94,87,45,37,100,72,86,84,20,28,6,4,0.6,0.6
2023-05-02T21:00:00,1341A,113.0014,28.1944,长沙市,火车新站,"颗粒物(PM10),细颗粒物(PM2.5)",64,78,81,46,40,89,65,82,79,20,22,11,10,0.7,0.6
2023-05-02T21:00:00,1342A,112.9844,28.1178,长沙市,天心区环保局,细颗粒物(PM2.5),93,96,79,69,39,92,55,89,78,25,17,6,5,0.7,0.6
2023-05-02T21:00:00,1343A,112.8908,28.1308,长沙市,湖南中医药大学,细颗粒物(PM2.5),62,60,81,44,37,103,64,91,86,31,38,7,7,1.2,1.1
2023-05-02T21:00:00,1344A,112.9581,28.3611,长沙市,沙坪,颗粒物(PM10),59,68,82,40,32,103,71,103,78,14,16,7,7,0.6,0.5
2023-05-02T21:00:00,1345A,113.2347,23.1423,广州市,广雅中学,,41,41,45,23,20,144,75,124,111,31,24,4,5,0.7,0.8
2023-05-02T21:00:00,1346A,113.2612,23.105,广州市,市五中,,45,45,44,23,20,161,85,137,121,22,18,7,8,0.6,0.6
2023-05-02T21:00:00,1348A,113.3478,23.0916,广州市,广东商学院,,46,46,46,20,20,141,77,128,116,26,23,4,6,0.6,0.6
2023-05-02T21:00:00,1349A,113.4332,23.1047,广州市,市八十六中,颗粒物(PM10),55,60,58,20,20,172,60,133,114,45,30,4,6,0.7,0.8
2023-05-02T21:00:00,1350A,113.3505,22.9483,广州市,番禺中学,,39,39,42,21,16,138,82,130,117,26,21,10,7,0.6,0.6
2023-05-02T21:00:00,1351A,113.2146,23.3916,广州市,花都师范,颗粒物(PM10),53,56,53,23,22,174,93,150,141,29,27,6,7,0.7,0.7
2023-05-02T21:00:00,1352A,113.2597,23.1331,广州市,市监测站,颗粒物(PM10),53,56,45,23,20,150,76,129,115,30,22,6,7,0.7,0.8
2023-05-02T21:00:00,1353A,113.5618,23.312,广州市,九龙镇镇龙,颗粒物(PM10),84,117,56,40,20,185,28,149,133,82,33,6,6,0.7,0.5
2023-05-02T21:00:00,1354A,113.2765,23.1544,广州市,麓湖,,44,44,42,19,19,162,92,142,130,24,21,6,7,0.7,0.7
2023-05-02T21:00:00,1355A,113.443,23.3035,广州市,帽峰山森林公园,颗粒物(PM10),51,52,48,18,19,190,89,164,156,28,22,5,4,0.5,0.4
2023-05-02T21:00:00,1356A,114.1063,22.5545,深圳市,通心岭子站,,35,35,37,17,15,128,86,126,92,8,7,3,4,0.6,0.6
2023-05-02T21:00:00,1357A,114.117,22.5625,深圳市,洪湖,,,39,42,15,15,152,,147,115,12,11,9,9,0.5,0.4
2023-05-02T21:00:00,1358A,113.987,22.5417,深圳市,华侨城,,40,40,40,15,17,152,85,147,105,16,13,6,6,0.5,0.4
2023-05-02T21:00:00,1359A,113.9181,22.5171,深圳市,南海子站,,48,48,51,21,16,136,88,135,106,13,12,4,5,0.5,0.5
2023-05-02T21:00:00,1360A,114.2458,22.5689,深圳市,盐田,,,36,40,16,17,151,,136,136,10,19,4,6,0.5,0.6
2023-05-02T21:00:00,1361A,114.2283,22.7244,深圳市,龙岗,,40,40,38,14,13,156,99,152,104,14,12,3,4,0.5,0.5
2023-05-02T21:00:00,1363A,114.494,22.5422,深圳市,南澳,,39,39,36,17,13,150,115,150,132,9,11,7,8,0.5,0.4
2023-05-02T21:00:00,1364A,114.41,22.6342,深圳市,葵涌,,43,43,40,16,14,156,127,150,132,12,11,7,7,0.6,0.5
2023-05-02T21:00:00,1365A,114.297,22.5978,深圳市,梅沙,,47,47,47,19,16,149,119,149,129,11,10,4,5,0.7,0.7
2023-05-02T21:00:00,1366A,114.0678,22.738,深圳市,观澜,颗粒物(PM10),51,51,47,16,14,148,77,148,95,23,15,4,4,0.5,0.6
2023-05-02T21:00:00,1367A,113.5814,22.2618,珠海市,吉大,,39,39,38,18,16,153,103,143,120,12,13,7,7,0.5,0.5
2023-05-02T21:00:00,1368A,113.4881,22.2335,珠海市,前山,,44,44,41,21,16,144,99,138,114,17,16,4,4,0.4,0.3
2023-05-02T21:00:00,1369A,113.628,22.4251,珠海市,唐家,,44,44,39,18,17,135,84,135,102,15,19,4,6,0.4,0.4
2023-05-02T21:00:00,1370A,113.299,22.2281,珠海市,斗门,,34,34,42,18,19,129,90,123,109,10,12,4,5,0.4,0.4
2023-05-02T21:00:00,1371A,113.1294,23.0067,佛山市,湾梁,,48,48,51,19,17,155,87,141,129,20,15,9,9,0.6,0.6
2023-05-02T21:00:00,1372A,113.1083,23.0478,佛山市,华材职中,,46,46,46,21,19,159,89,143,133,23,17,6,7,0.4,0.4
2023-05-02T21:00:00,1373A,113.144,23.0453,佛山市,南海气象局,,,58,46,23,20,124,,111,106,28,23,5,5,0.5,0.6
2023-05-02T21:00:00,1374A,113.2881,22.8094,佛山市,顺德苏岗,,28,28,36,12,17,126,67,111,101,10,15,4,5,0.6,0.6
2023-05-02T21:00:00,1376A,112.8383,22.8678,佛山市,高明孔堂,,46,46,45,18,17,137,83,124,116,12,12,4,4,0.5,0.5
2023-05-02T21:00:00,1377A,112.8836,23.1588,佛山市,三水监测站,颗粒物(PM10),57,63,52,27,25,164,80,149,139,36,32,5,5,0.6,0.7
2023-05-02T21:00:00,1378A,112.867,23.185,佛山市,三水云东海,颗粒物(PM10),56,62,49,26,20,175,94,156,150,29,21,5,6,0.4,0.5
2023-05-02T21:00:00,1379A,113.3769,22.5211,中山市,华柏园,,25,21,38,17,15,116,75,111,96,10,15,4,5,0.4,0.5
2023-05-02T21:00:00,1380A,113.3881,22.5497,中山市,张溪,,24,24,46,16,15,121,68,118,98,12,15,1,3,0.4,0.5
2023-05-02T21:00:00,1381A,113.4075,22.5111,中山市,紫马岭,,25,19,40,11,16,125,78,120,103,6,11,4,5,0.4,0.4
2023-05-02T21:00:00,1382A,113.4411,22.4853,中山市,长江旅游区,,24,21,36,16,16,126,75,113,103,5,11,7,8,0.3,0.4
2023-05-02T21:00:00,1383A,113.1064,22.6058,江门市,北街,,36,36,44,15,14,125,71,120,102,19,16,5,6,0.6,0.5
2023-05-02T21:00:00,1384A,113.0731,22.5835,江门市,西区,,42,42,43,21,17,135,77,125,110,19,15,6,6,0.5,0.5
2023-05-02T21:00:00,1385A,113.0219,22.5311,江门市,圭峰西,,48,48,46,21,16,132,86,125,112,12,10,2,2,0.6,0.6
2023-05-02T21:00:00,1386A,113.0828,22.5947,江门市,东湖,,49,49,43,20,18,132,75,123,109,16,13,6,6,0.6,0.5
2023-05-02T21:00:00,1389A,113.7547,23.0494,东莞市,莞城梨川,,38,38,38,16,16,169,74,147,125,18,16,8,8,0.6,0.6
2023-05-02T21:00:00,1390A,113.7944,23.0128,东莞市,东城石井,,37,37,37,14,14,163,73,151,122,18,15,9,10,0.5,0.3
2023-05-02T21:00:00,1391A,113.7383,22.9658,东莞市,南城西平,颗粒物(PM10),53,56,44,19,19,144,80,133,116,36,16,6,6,0.1,0.3
2023-05-02T21:00:00,1392A,114.4183,23.0528,惠州市,河南岸金山湖子站,,,33,40,21,14,132,65,132,102,16,11,4,5,,0.4
2023-05-02T21:00:00,1393A,114.4053,23.0822,惠州市,下埔横江三路子站,,28,25,41,19,12,152,80,148,120,12,10,4,6,0.5,0.5
2023-05-02T21:00:00,1394A,114.4103,23.1142,惠州市,江北云山西路子站,,38,38,41,21,14,157,81,150,129,9,9,6,7,0.5,0.5
2023-05-02T21:00:00,1395A,114.4645,22.7833,惠州市,惠阳区承修路船湖子站,,43,43,41,18,17,136,110,130,97,15,13,5,6,0.6,0.5
2023-05-02T21:00:00,1396A,114.5317,22.7422,惠州市,大亚湾管委会子站,,44,44,44,14,16,152,124,140,119,19,15,9,8,0.4,0.4
2023-05-02T21:00:00,1397A,112.4267,23.0706,肇庆市,睦岗子站,颗粒物(PM10),57,64,47,24,20,147,105,130,125,18,14,9,9,0.6,0.6
2023-05-02T21:00:00,1398A,112.4645,23.0475,肇庆市,城中子站,颗粒物(PM10),55,60,46,25,22,144,92,124,118,25,20,10,12,0.6,0.6
2023-05-02T21:00:00,1399A,112.5544,23.1522,肇庆市,坑口子站,颗粒物(PM10),56,62,46,31,25,142,88,126,120,31,23,5,6,0.4,0.4
2023-05-02T21:00:00,1400A,112.4753,23.1,肇庆市,七星岩子站,颗粒物(PM10),52,53,46,21,17,148,109,130,127,12,11,5,6,0.5,0.5
2023-05-02T21:00:00,1401A,108.3103,22.7881,南宁市,二十一中,,26,20,39,18,24,110,75,90,87,10,12,6,7,0.8,0.9
2023-05-02T21:00:00,1402A,108.3141,22.8528,南宁市,北湖,,39,39,38,19,23,100,67,82,79,10,10,7,9,0.6,0.6
2023-05-02T21:00:00,1403A,108.3206,22.8225,南宁市,市监测站,,28,24,35,19,26,96,61,82,78,22,19,7,8,0.8,0.8
2023-05-02T21:00:00,1404A,108.3829,22.8037,南宁市,大自然花园,,26,21,33,18,25,99,67,82,74,9,11,6,6,0.8,0.8
2023-05-02T21:00:00,1405A,108.4394,22.7904,南宁市,仙葫,,32,32,35,12,24,100,73,87,82,11,13,5,6,0.6,0.7
2023-05-02T21:00:00,1406A,108.2397,22.8467,南宁市,区农职院,,33,33,38,16,20,104,66,87,78,15,15,6,8,0.5,0.6
2023-05-02T21:00:00,1407A,108.3275,22.735,南宁市,英华嘉园,,38,38,41,20,26,90,57,74,71,22,22,8,8,0.8,0.9
2023-05-02T21:00:00,1408A,108.2257,22.7757,南宁市,沙井镇街道办,,36,36,40,17,22,87,61,81,76,16,22,4,5,0.8,0.8
2023-05-02T21:00:00,1409A,110.576,19.9507,海口市,东寨港,,,26,24,8,13,43,33,40,38,,,6,6,0.5,0.6
2023-05-02T21:00:00,1410A,110.3232,20.0574,海口市,海南大学,,35,35,29,14,14,87,61,77,72,7,6,6,6,0.3,0.4
2023-05-02T21:00:00,1411A,110.283,20.0053,海口市,秀英海南医院,,38,38,30,16,15,86,58,72,65,8,8,4,4,0.5,0.5
2023-05-02T21:00:00,1412A,110.338,19.9969,海口市,海南师范大学,,37,37,32,14,15,77,56,69,65,4,3,4,4,0.3,0.4
2023-05-02T21:00:00,1413A,110.33,20.0356,海口市,龙华路环保局宿舍,,35,35,32,17,15,64,40,51,44,9,7,5,5,0.4,0.4
2023-05-02T21:00:00,1414A,106.3787,29.8279,重庆市,缙云山,颗粒物(PM10),56,61,65,24,19,177,149,141,141,13,15,13,10,0.6,0.4
2023-05-02T21:00:00,1416A,106.4213,29.8253,重庆市,天生,颗粒物(PM10),71,91,64,46,31,163,112,134,134,28,18,11,10,0.9,0.7
2023-05-02T21:00:00,1417A,106.6263,29.7228,重庆市,两路,颗粒物(PM10),59,67,58,26,22,167,96,132,132,26,39,7,9,0.7,0.7
2023-05-02T21:00:00,1418A,106.2953,29.5983,重庆市,虎溪,颗粒物(PM10),67,83,65,46,30,157,118,132,132,29,25,11,9,0.8,0.5
2023-05-02T21:00:00,1419A,106.5777,29.5102,重庆市,南坪,颗粒物(PM10),62,73,64,32,29,166,90,140,136,27,21,12,11,0.7,0.6
2023-05-02T21:00:00,1420A,106.6556,29.6277,重庆市,唐家沱,颗粒物(PM10),60,69,60,28,22,182,97,151,149,26,19,11,9,1.0,0.8
2023-05-02T21:00:00,1421A,106.6349,29.4906,重庆市,茶园,颗粒物(PM10),51,52,71,19,28,163,78,142,134,42,33,8,7,1.0,0.7
2023-05-02T21:00:00,1422A,106.3754,29.4572,重庆市,白市驿,颗粒物(PM10),62,73,63,38,27,166,100,139,139,27,20,13,11,0.9,0.6
2023-05-02T21:00:00,1425A,106.6205,29.7166,重庆市,空港,颗粒物(PM10),55,59,65,36,27,177,101,144,144,21,23,8,10,0.6,0.6
2023-05-02T21:00:00,1426A,106.4782,29.4875,重庆市,新山村,颗粒物(PM10),71,92,83,39,29,160,79,131,131,38,36,12,11,0.8,0.5
2023-05-02T21:00:00,1427A,106.5616,29.6453,重庆市,礼嘉,颗粒物(PM10),66,82,64,34,27,177,85,144,141,35,33,13,9,1.0,0.7
2023-05-02T21:00:00,1428A,106.4522,29.7091,重庆市,蔡家,颗粒物(PM10),69,88,68,39,26,160,101,131,131,20,24,10,9,0.8,0.6
2023-05-02T21:00:00,1429A,106.5093,29.3917,重庆市,鱼新街,颗粒物(PM10),56,62,55,32,27,189,104,154,153,20,25,8,11,0.8,0.7
2023-05-02T21:00:00,1431A,103.9728,30.7236,成都市,金泉两河,颗粒物(PM10),60,70,56,38,28,155,111,144,142,16,9,2,2,0.4,0.3
2023-05-02T21:00:00,1432A,104.176,30.6872,成都市,十里店,颗粒物(PM10),60,69,60,31,31,159,107,141,140,12,11,2,2,0.4,0.4
2023-05-02T21:00:00,1433A,104.079,30.5706,成都市,三瓦窑,颗粒物(PM10),58,66,58,34,30,175,124,157,157,13,11,2,2,0.4,0.3
2023-05-02T21:00:00,1434A,104.1114,30.63,成都市,沙河铺,,,,56,,27,172,116,149,149,10,7,2,2,0.4,0.3
2023-05-02T21:00:00,1437A,104.0786,30.6531,成都市,君平街,细颗粒物(PM2.5),55,58,55,39,32,179,126,157,157,15,14,2,2,0.4,0.5
2023-05-02T21:00:00,1438A,103.613,31.0283,成都市,灵岩寺,,50,45,45,29,29,179,158,161,161,8,9,3,5,0.7,0.7
2023-05-02T21:00:00,1439A,106.6899,26.5998,贵阳市,马鞍山,,39,36,49,27,27,113,94,110,102,11,9,4,5,0.6,0.5
2023-05-02T21:00:00,1440A,106.6971,26.5694,贵阳市,市环保站,细颗粒物(PM2.5),53,41,56,37,33,110,92,105,100,18,16,4,5,0.3,0.3
2023-05-02T21:00:00,1441A,106.6243,26.6266,贵阳市,鉴湖路,,48,48,58,27,24,111,95,111,101,9,8,3,4,0.2,0.2
2023-05-02T21:00:00,1442A,106.7487,26.6343,贵阳市,燕子冲,,46,46,57,31,33,110,91,108,102,14,11,5,6,0.6,0.4
2023-05-02T21:00:00,1443A,106.6555,26.4365,贵阳市,碧云窝,颗粒物(PM10),52,53,58,22,22,116,97,116,103,12,7,5,5,0.6,0.6
2023-05-02T21:00:00,1444A,106.694,26.5161,贵阳市,中院村,,48,48,62,27,26,104,82,100,90,19,15,7,8,0.5,0.5
2023-05-02T21:00:00,1445A,106.7109,26.6027,贵阳市,红边门,颗粒物(PM10),52,53,58,34,32,110,87,108,98,23,17,4,4,0.5,0.5
2023-05-02T21:00:00,1446A,106.7164,26.5699,贵阳市,新华路,,48,48,57,29,28,111,90,110,101,19,11,3,3,0.5,0.5
2023-05-02T21:00:00,1447A,106.674,26.5424,贵阳市,太慈桥,颗粒物(PM10),53,56,59,24,22,116,96,114,103,13,8,4,5,0.4,0.4
2023-05-02T21:00:00,1450A,102.8204,24.8886,昆明市,呈贡新区,,32,23,32,15,22,122,102,113,108,9,7,6,5,0.5,0.6
2023-05-02T21:00:00,1451A,102.6251,24.9608,昆明市,西山森林公园,,38,20,26,11,21,126,119,122,119,10,12,6,7,0.7,0.8
2023-05-02T21:00:00,1452A,102.7252,25.0902,昆明市,龙泉镇,,28,21,29,19,21,110,88,107,103,18,11,6,8,0.4,0.5
2023-05-02T21:00:00,1453A,102.7266,25.0375,昆明市,东风东路,,29,24,33,11,22,104,90,98,95,12,10,6,8,0.6,0.7
2023-05-02T21:00:00,1454A,102.6742,25.0669,昆明市,金鼎山,,36,23,31,25,23,111,94,107,103,17,11,4,4,0.7,0.6
2023-05-02T21:00:00,1455A,102.6644,25.0401,昆明市,碧鸡广场,,31,24,35,15,23,116,99,111,107,16,13,5,6,0.7,0.7
2023-05-02T21:00:00,1456A,91.1319,29.6514,拉萨市,八廓街,,45,16,17,6,6,157,144,153,153,11,11,6,6,0.2,0.2
2023-05-02T21:00:00,1457A,91.1221,29.6747,拉萨市,市环保局,,,22,13,7,4,166,,159,159,12,11,6,5,0.4,0.4
2023-05-02T21:00:00,1458A,91.0874,29.6475,拉萨市,区监测站,,45,18,15,2,5,156,144,153,153,13,12,7,7,0.1,0.1
2023-05-02T21:00:00,1459A,91.1774,29.6541,拉萨市,西藏大学,,48,16,11,5,4,164,153,160,160,6,8,8,9,0.5,0.4
2023-05-02T21:00:00,1460A,90.9798,29.6588,拉萨市,区辐射站,,43,42,22,12,6,143,135,136,136,18,14,8,8,0.4,0.4
2023-05-02T21:00:00,1461A,91.0834,29.6292,拉萨市,拉萨火车站,,46,19,14,0,3,154,145,151,151,6,8,8,8,0.3,0.3
2023-05-02T21:00:00,1462A,108.882,34.2749,西安市,高压开关厂,颗粒物(PM10),60,69,91,30,38,166,98,140,132,17,48,7,10,0.3,0.5
2023-05-02T21:00:00,1463A,108.993,34.2629,西安市,兴庆小区,颗粒物(PM10),53,55,81,21,27,161,98,136,127,6,15,5,7,0.4,0.6
2023-05-02T21:00:00,1464A,109.06,34.2572,西安市,纺织城,颗粒物(PM10),54,58,90,27,36,164,107,137,128,2,17,5,7,0.3,0.4
2023-05-02T21:00:00,1465A,108.9356,34.2173,西安市,小寨,颗粒物(PM10),62,73,80,23,29,166,95,140,129,12,26,10,9,0.2,0.4
2023-05-02T21:00:00,1466A,108.954,34.2713,西安市,市人民体育场,颗粒物(PM10),55,59,86,27,34,163,93,135,126,15,27,6,8,0.2,0.4
2023-05-02T21:00:00,1467A,108.8922,34.2322,西安市,高新西区,颗粒物(PM10),51,52,75,26,30,175,97,147,138,16,36,8,8,0.4,0.5
2023-05-02T21:00:00,1468A,108.935,34.3474,西安市,经开区,颗粒物(PM10),51,52,88,26,38,156,95,138,126,13,39,3,5,0.2,0.4
2023-05-02T21:00:00,1469A,108.906,34.1546,西安市,长安区,颗粒物(PM10),58,65,72,34,30,176,87,147,134,18,28,6,7,0.5,0.5
2023-05-02T21:00:00,1471A,109.2186,34.3731,西安市,临潼区,颗粒物(PM10),52,53,86,21,34,153,120,136,132,6,27,6,9,0.6,0.8
2023-05-02T21:00:00,1472A,108.869,34.378,西安市,草滩,颗粒物(PM10),62,73,97,33,35,141,88,129,119,16,48,5,12,0.0,0.4
2023-05-02T21:00:00,1473A,108.985,34.1978,西安市,曲江文化产业集团,颗粒物(PM10),57,64,87,25,32,171,102,144,133,14,23,9,7,0.3,0.4
2023-05-02T21:00:00,1474A,109.051,34.3213,西安市,广运潭,颗粒物(PM10),65,80,104,26,34,142,101,123,118,13,22,6,9,0.3,0.4
2023-05-02T21:00:00,1476A,103.631,36.1031,兰州市,兰炼宾馆,颗粒物(PM10),60,69,90,42,55,165,112,145,142,17,41,4,18,0.4,0.6
2023-05-02T21:00:00,1477A,104.1373,35.9454,兰州市,榆中兰大校区,,,,,,,,,,,,,,,,
2023-05-02T21:00:00,1478A,103.8412,36.0726,兰州市,生物制品所,颗粒物(PM10),68,86,90,35,36,150,105,132,130,21,39,5,10,0.4,0.7
2023-05-02T21:00:00,1479A,103.831,36.0464,兰州市,铁路设计院,颗粒物(PM10),61,71,82,34,36,157,113,137,136,18,50,4,9,0.4,0.8
2023-05-02T21:00:00,1483A,101.524,36.6867,西宁市,第五水厂,,,,,,,,,,,,,,,,
2023-05-02T21:00:00,1484A,105.9512,38.6016,银川市,贺兰山马莲口,颗粒物(PM10),75,100,58,30,26,165,125,151,148,8,8,10,11,0.4,0.4
2023-05-02T21:00:00,1488A,106.2328,38.4975,银川市,贺兰山东路,颗粒物(PM10),65,80,116,35,48,148,117,142,138,22,15,8,7,0.4,0.3
2023-05-02T21:00:00,1489A,106.1358,38.5036,银川市,学院路,颗粒物(PM10),70,90,116,29,28,154,117,145,140,20,21,8,13,0.4,0.4
2023-05-02T21:00:00,1490A,87.5801,43.8303,乌鲁木齐市,监测站,颗粒物(PM10),54,58,132,15,28,99,93,94,94,12,16,4,5,0.4,0.4
2023-05-02T21:00:00,1491A,87.6046,43.768,乌鲁木齐市,收费所,颗粒物(PM10),62,73,167,21,34,95,82,87,87,16,16,4,4,0.3,0.2
2023-05-02T21:00:00,1492A,87.4754,43.9469,乌鲁木齐市,新疆农科院农场,细颗粒物(PM2.5),125,56,163,95,67,95,89,92,92,13,15,5,5,0.7,0.7
2023-05-02T21:00:00,1493A,87.5525,43.8711,乌鲁木齐市,铁路局,颗粒物(PM10),52,54,130,21,34,103,92,97,97,9,13,4,5,0.4,0.5
2023-05-02T21:00:00,1494A,87.6432,43.831,乌鲁木齐市,三十一中学,颗粒物(PM10),77,104,130,20,27,105,93,98,98,5,6,8,10,0.6,0.7
2023-05-02T21:00:00,1496A,87.7216,44.1747,乌鲁木齐市,米东区环保局,,42,42,114,17,33,106,102,104,104,2,2,8,10,0.2,0.2
2023-05-02T21:00:00,1508A,112.9433,27.8614,湘潭市,板塘,颗粒物(PM10),70,90,80,45,37,91,52,75,73,36,28,19,18,0.7,0.6
2023-05-02T21:00:00,1511A,112.9118,27.8403,湘潭市,市监测站,颗粒物(PM10),66,81,73,45,44,105,66,90,84,30,21,17,14,1.2,0.8
2023-05-02T21:00:00,1512A,112.8937,27.8728,湘潭市,江麓,细颗粒物(PM2.5),80,70,79,59,34,106,50,92,85,20,15,8,10,0.7,0.6
2023-05-02T21:00:00,1513A,112.9227,27.8159,湘潭市,岳塘,,,87,81,47,35,101,61,86,83,21,14,,12,0.9,0.5
2023-05-02T21:00:00,1514A,112.9074,27.9119,湘潭市,科大,颗粒物(PM10),67,83,85,44,34,109,73,92,91,24,20,14,13,1.2,1
2023-05-02T21:00:00,1515A,113.135,27.8244,株洲市,天台山庄,颗粒物(PM10),76,102,84,44,34,113,82,100,99,19,13,18,14,0.9,0.7
2023-05-02T21:00:00,1518A,113.095,27.8867,株洲市,株冶医院,细颗粒物(PM2.5),70,83,82,51,40,107,80,98,96,20,27,14,11,0.8,0.7
2023-05-02T21:00:00,1519A,113.167,27.8667,株洲市,市四中,颗粒物(PM10),60,70,78,37,40,106,81,98,97,22,22,16,14,0.7,0.5
2023-05-02T21:00:00,1520A,113.143,27.8381,株洲市,火车站,细颗粒物(PM2.5),82,92,82,60,36,105,73,95,93,22,17,18,13,1.0,0.8
2023-05-02T21:00:00,1524A,113.13,27.8528,株洲市,市监测站,细颗粒物(PM2.5),72,88,79,52,41,114,83,102,101,22,18,14,9,1.0,0.7
2023-05-02T21:00:00,1552A,106.805,26.3003,贵阳市,桐木岭,,,47,54,,29,118,99,118,102,2,2,2,2,0.5,0.4
2023-05-02T21:00:00,1559A,113.251,27.8336,株洲市,大京风景区,颗粒物(PM10),57,63,69,31,29,101,86,95,95,10,10,9,9,0.9,0.8
2023-05-02T21:00:00,1562A,113.0048,27.9153,湘潭市,昭山,颗粒物(PM10),68,85,82,38,33,103,73,93,91,24,20,14,10,1.1,1
2023-05-02T21:00:00,1564A,112.4876,27.9164,湘潭市,韶山,,40,40,60,19,20,101,61,82,82,6,7,7,7,0.8,0.8
2023-05-02T21:00:00,1585A,109.8756,40.6532,包头市,市环境监测站,颗粒物(PM10),92,134,125,41,48,142,104,128,125,26,35,14,22,0.4,0.5
2023-05-02T21:00:00,1587A,109.9991,40.5842,包头市,包头八中,细颗粒物(PM2.5),99,134,121,74,58,144,96,132,126,33,31,14,29,0.6,0.6
2023-05-02T21:00:00,1588A,109.8538,40.6821,包头市,青山宾馆,颗粒物(PM10),82,114,113,59,53,137,110,124,124,21,37,12,20,0.4,0.8
2023-05-02T21:00:00,1589A,109.8642,40.6288,包头市,惠龙物流,颗粒物(PM10),89,127,114,51,51,140,94,125,123,35,31,12,17,0.4,0.5
2023-05-02T21:00:00,1590A,110.0377,40.5546,包头市,东河鸿龙湾,颗粒物(PM10),105,160,130,57,56,136,77,126,118,26,27,20,22,0.5,0.5
2023-05-02T21:00:00,1591A,110.0023,39.8129,鄂尔多斯市,综合楼,颗粒物(PM10),103,156,144,,42,132,99,121,118,26,22,7,8,0.6,0.6
2023-05-02T21:00:00,1592A,109.9486,39.8261,鄂尔多斯市,巴音孟克林场办事处,颗粒物(PM10),100,149,129,44,37,143,101,129,124,24,15,9,8,0.6,0.6
2023-05-02T21:00:00,1593A,109.7736,39.5986,鄂尔多斯市,康泽苑,颗粒物(PM10),84,117,123,43,42,133,103,125,122,20,21,11,10,0.6,0.6
2023-05-02T21:00:00,1594A,109.8119,39.5989,鄂尔多斯市,华泰汽车城,颗粒物(PM10),84,117,130,41,40,129,96,121,118,22,29,8,8,0.5,0.5
2023-05-02T21:00:00,1595A,109.9734,39.7884,鄂尔多斯市,奥林花园,颗粒物(PM10),93,136,143,41,39,138,95,126,121,25,35,7,6,0.7,0.7
2023-05-02T21:00:00,1597A,122.2703,40.7094,营口市,大庆路,颗粒物(PM10),57,64,54,21,22,183,142,170,168,14,16,6,7,0.5,0.6
2023-05-02T21:00:00,1598A,122.2150,40.6511,营口市,镜湖西路,颗粒物(PM10),54,57,51,17,17,170,127,158,154,15,15,6,12,0.4,0.5
2023-05-02T21:00:00,1599A,122.1658,40.6789,营口市,西炮台,颗粒物(PM10),63,75,66,20,17,187,146,172,169,14,18,8,11,0.3,0.5
2023-05-02T21:00:00,1600A,124.3303,40.0625,丹东市,江湾东路,颗粒物(PM10),71,92,54,39,23,158,149,153,153,11,12,12,10,0.7,0.7
2023-05-02T21:00:00,1601A,124.4256,40.1503,丹东市,临江后街,颗粒物(PM10),61,72,44,21,17,168,154,158,158,9,10,13,12,0.6,0.6
2023-05-02T21:00:00,1602A,124.3933,40.1461,丹东市,元宝山,,44,42,31,29,18,158,139,150,150,15,13,8,9,0.4,0.6
2023-05-02T21:00:00,1603A,124.3633,40.1092,丹东市,民主桥,颗粒物(PM10),66,81,44,32,19,159,139,149,149,17,16,6,6,0.7,0.6
2023-05-02T21:00:00,1604A,122.0303,41.1489,盘锦市,开发区,颗粒物(PM10),55,60,67,19,23,184,126,173,164,21,20,27,11,1.2,1.1
2023-05-02T21:00:00,1605A,122.0485,41.0883,盘锦市,兴隆台,颗粒物(PM10),51,51,72,16,24,178,115,169,156,27,23,10,10,0.9,0.8
2023-05-02T21:00:00,1606A,121.8297,41.1028,盘锦市,新生街道,,48,48,52,20,24,187,138,170,168,16,20,7,8,0.6,0.6
2023-05-02T21:00:00,1607A,120.9092,40.7136,葫芦岛市,龙港区,颗粒物(PM10),56,62,62,17,23,208,155,194,191,16,16,8,9,0.3,0.4
2023-05-02T21:00:00,1608A,120.8392,40.7514,葫芦岛市,化工街,颗粒物(PM10),60,70,81,22,26,214,156,199,193,12,13,7,8,0.5,0.6
2023-05-02T21:00:00,1609A,120.8341,40.7073,葫芦岛市,新区,颗粒物(PM10),56,61,70,18,26,219,158,202,197,13,15,10,12,0.4,0.6
2023-05-02T21:00:00,1610A,120.8695,40.7677,葫芦岛市,东城区,颗粒物(PM10),57,63,71,19,23,216,151,198,193,21,20,8,9,0.5,0.5
2023-05-02T21:00:00,1611A,118.5819,24.9117,泉州市,涂山街,,48,48,53,26,20,154,88,133,122,22,17,9,10,0.7,0.6
2023-05-02T21:00:00,1612A,118.5972,24.8978,泉州市,津头埔,细颗粒物(PM2.5),52,44,52,36,24,150,93,133,121,21,23,10,11,0.7,0.5
2023-05-02T21:00:00,1613A,118.6663,24.9424,泉州市,万安,,49,41,49,34,25,164,97,139,130,11,13,7,9,0.6,0.6
2023-05-02T21:00:00,1614A,118.6117,24.9604,泉州市,清源山,,,,,,,,,,,,,,,,
2023-05-02T21:00:00,1616A,117.6795,36.229,济南市,技术学院,,,95,82,,58,179,163,170,168,30,22,10,11,1.0,0.6
2023-05-02T21:00:00,1618A,118.3429,35.0532,临沂市,沂河小区,,,,98,,46,175,,164,162,37,17,14,15,0.3,0.3
2023-05-02T21:00:00,1619A,118.295,35.0583,临沂市,鲁南制药厂,颗粒物(PM10),60,70,92,27,36,188,141,178,170,19,22,11,20,0.4,0.4
2023-05-02T21:00:00,1620A,118.2794,34.9976,临沂市,新光毛纺厂,,44,44,61,29,39,177,118,167,157,20,19,8,17,0.4,0.4
2023-05-02T21:00:00,1621A,118.3956,35.0888,临沂市,河东保险公司,颗粒物(PM10),59,68,85,26,43,180,122,158,146,26,29,12,14,0.6,0.6
2023-05-02T21:00:00,1622A,116.3032,37.4674,德州市,儿童乐园,颗粒物(PM10),64,78,95,31,34,180,153,164,164,13,12,8,9,0.8,0.7
2023-05-02T21:00:00,1624A,116.2991,37.4451,德州市,监理站,颗粒物(PM10),64,78,97,24,26,177,147,164,163,20,18,12,12,0.6,0.5
2023-05-02T21:00:00,1625A,115.9848,36.4372,聊城市,区政府,颗粒物(PM10),73,96,95,35,33,170,146,159,159,25,22,10,13,0.7,0.6
2023-05-02T21:00:00,1628A,118.0062,37.3803,滨州市,市环保局,颗粒物(PM10),90,130,98,40,32,181,106,160,154,38,22,12,12,0.8,0.6
2023-05-02T21:00:00,1629A,118.0018,37.3617,滨州市,第二水厂,颗粒物(PM10),85,119,100,31,33,178,96,155,148,48,26,9,10,0.7,0.6
2023-05-02T21:00:00,1630A,117.9776,37.393,滨州市,北中新校,颗粒物(PM10),84,118,94,39,29,181,112,161,156,35,17,11,10,0.6,0.4
2023-05-02T21:00:00,1631A,118.0414,36.8103,淄博市,人民公园,颗粒物(PM10),84,117,69,53,31,169,121,158,154,41,12,10,12,0.6,0.4
2023-05-02T21:00:00,1633A,117.8525,36.4847,淄博市,双山,颗粒物(PM10),58,66,70,32,29,179,147,167,164,19,13,11,11,0.4,0.4
2023-05-02T21:00:00,1634A,117.9592,36.6331,淄博市,气象站,颗粒物(PM10),78,106,82,36,24,182,130,168,164,34,13,13,11,0.5,0.4
2023-05-02T21:00:00,1635A,118.3092,36.8194,淄博市,莆田园,颗粒物(PM10),71,92,75,36,29,168,120,159,152,22,10,10,11,0.5,0.5
2023-05-02T21:00:00,1637A,117.558,34.8438,枣庄市,市中区政府,颗粒物(PM10),73,95,110,36,41,192,151,184,180,28,29,9,18,0.4,0.5
2023-05-02T21:00:00,1638A,117.2852,34.7837,枣庄市,薛城环保局,颗粒物(PM10),69,88,98,41,52,184,154,176,173,27,22,13,12,0.4,0.4
2023-05-02T21:00:00,1639A,117.5852,34.7745,枣庄市,峄城区政府,颗粒物(PM10),74,97,99,31,41,191,151,176,172,19,22,12,15,0.4,0.4
2023-05-02T21:00:00,1640A,117.7276,34.5578,枣庄市,台儿庄区环保局,颗粒物(PM10),71,92,117,27,29,176,115,158,147,45,35,16,12,0.7,0.7
2023-05-02T21:00:00,1641A,117.4518,35.0992,枣庄市,山亭区环保局,颗粒物(PM10),67,83,92,37,41,182,166,175,175,19,17,11,9,0.3,0.2
2023-05-02T21:00:00,1642A,121.2514,37.5639,烟台市,开发区,,43,39,69,14,25,184,137,159,145,9,14,8,9,0.4,0.4
2023-05-02T21:00:00,1643A,121.3719,37.5433,烟台市,轴承厂,,45,41,71,16,25,182,141,164,153,5,7,7,8,0.4,0.4
2023-05-02T21:00:00,1644A,121.3181,37.5436,烟台市,西郊化工站,颗粒物(PM10),51,51,81,15,20,182,137,168,153,8,8,4,5,0.2,0.3
2023-05-02T21:00:00,1645A,121.4478,37.4822,烟台市,莱山环保局,,44,44,75,17,24,181,140,160,150,4,8,8,9,0.3,0.3
2023-05-02T21:00:00,1646A,121.2611,37.4967,烟台市,福山环保局,,44,44,82,14,21,180,135,158,146,10,14,8,10,0.0,0.2
2023-05-02T21:00:00,1650A,119.1437,36.7023,潍坊市,环保局,颗粒物(PM10),58,66,94,27,31,176,135,165,153,14,18,7,9,0.5,0.7
2023-05-02T21:00:00,1653A,116.6251,35.4302,济宁市,火炬城,颗粒物(PM10),66,82,87,29,29,194,147,183,179,18,14,14,16,0.8,0.7
2023-05-02T21:00:00,1655A,116.5491,35.4042,济宁市,电化厂,颗粒物(PM10),74,98,97,34,33,201,156,188,184,16,12,10,17,0.7,0.6
2023-05-02T21:00:00,1656A,117.1437,36.1937,泰安市,监测站,颗粒物(PM10),64,78,78,42,36,175,87,167,152,50,16,7,9,0.7,0.5
2023-05-02T21:00:00,1657A,117.0885,36.2017,泰安市,人口学校,颗粒物(PM10),63,75,84,33,33,172,130,164,155,19,11,7,10,0.5,0.4
2023-05-02T21:00:00,1658A,117.1089,36.1758,泰安市,电力学校,细颗粒物(PM2.5),83,97,82,61,36,173,98,166,148,44,17,10,13,0.7,0.5
2023-05-02T21:00:00,1659A,119.471,35.4209,日照市,监测站,颗粒物(PM10),51,51,89,18,33,174,119,169,137,22,26,2,5,0.2,0.4
2023-05-02T21:00:00,1660A,119.523,35.4216,日照市,市政府广场,颗粒物(PM10),56,61,93,18,29,174,123,169,144,13,18,4,6,0.2,0.4
2023-05-02T21:00:00,1661A,119.5587,35.4044,日照市,港务局,,,,104,13,29,182,132,175,151,14,24,5,7,0.1,0.4
2023-05-02T21:00:00,1662A,122.1214,37.4236,威海市,华夏技校,颗粒物(PM10),53,56,70,24,26,166,157,154,150,8,14,3,4,0.3,0.4
2023-05-02T21:00:00,1663A,122.0508,37.5236,威海市,山大分校,"颗粒物(PM10),臭氧1小时",58,66,85,17,18,180,166,169,161,5,8,2,2,0.4,0.4
2023-05-02T21:00:00,1664A,122.1067,37.5072,威海市,市监测站,颗粒物(PM10),56,61,74,32,27,179,164,176,156,7,8,5,5,0.3,0.3
2023-05-02T21:00:00,1666A,118.6614,37.4309,东营市,市环保局,颗粒物(PM10),63,75,99,27,33,364,140,194,167,16,22,11,16,0.7,0.7
2023-05-02T21:00:00,1669A,113.5824,24.7733,韶关市,市八中,,31,30,57,16,27,125,99,114,108,16,19,7,15,0.5,0.7
2023-05-02T21:00:00,1671A,113.5917,24.7972,韶关市,园林处,,30,28,58,12,24,117,96,109,104,12,15,8,13,0.6,0.8
2023-05-02T21:00:00,1672A,113.6735,24.7791,韶关市,韶关学院,,40,38,55,28,30,125,94,113,106,21,24,17,21,0.7,0.7
2023-05-02T21:00:00,1673A,113.5971,24.6863,韶关市,曲江监测站,,33,29,50,18,27,132,103,120,116,17,16,10,10,0.6,0.6
2023-05-02T21:00:00,1674A,116.6794,23.3667,汕头市,金平子站,,38,19,42,24,14,150,121,139,135,13,20,5,8,0.7,0.6
2023-05-02T21:00:00,1675A,116.7244,23.3633,汕头市,龙湖子站,,43,35,44,18,14,162,137,156,152,12,16,3,6,0.6,0.5
2023-05-02T21:00:00,1676A,116.7258,23.2775,汕头市,濠江子站,,38,27,40,18,15,152,121,146,138,10,11,7,9,0.6,0.5
2023-05-02T21:00:00,1677A,116.7519,23.4714,汕头市,澄海子站,,43,32,50,22,20,162,135,153,150,19,20,7,9,0.5,0.4
2023-05-02T21:00:00,1678A,116.6092,23.2539,汕头市,潮阳子站,,40,40,52,16,15,159,123,147,143,10,15,9,11,0.4,0.3
2023-05-02T21:00:00,1680A,110.3539,21.2706,湛江市,湛江影剧院,,43,43,37,21,18,103,82,102,81,4,4,5,5,0.4,0.4
2023-05-02T21:00:00,1681A,110.3928,21.2228,湛江市,市环境监测站,,44,44,35,20,24,103,78,99,76,10,9,6,6,0.5,0.6
2023-05-02T21:00:00,1682A,110.4019,21.1997,湛江市,环保局宿舍,,43,43,35,18,18,109,86,106,84,3,4,4,4,0.4,0.5
2023-05-02T21:00:00,1683A,110.4111,21.2028,湛江市,霞山游泳场,,44,44,38,17,18,114,88,110,89,6,5,5,5,0.5,0.6
2023-05-02T21:00:00,1684A,110.3316,21.2679,湛江市,麻章区环保局,,43,43,37,15,21,109,86,108,84,5,6,5,5,0.5,0.6
2023-05-02T21:00:00,1685A,110.4558,21.2567,湛江市,坡头区环保局,,44,44,31,19,15,114,92,110,92,4,4,6,6,0.6,0.7
2023-05-02T21:00:00,1686A,111.0286,21.4688,茂名市,电白南海,颗粒物(PM10),52,53,52,19,22,116,84,115,97,8,6,5,5,0.5,0.5
2023-05-02T21:00:00,1687A,110.9294,21.6533,茂名市,茂石化七小,,40,40,36,15,18,107,78,104,85,6,6,4,4,0.5,0.5
2023-05-02T21:00:00,1688A,110.9107,21.6687,茂名市,健康路,,39,39,32,15,13,109,80,104,88,5,5,5,6,0.4,0.5
2023-05-02T21:00:00,1689A,110.8592,21.6828,茂名市,高岭,,46,46,43,19,24,113,79,107,86,10,9,6,6,0.6,0.6
2023-05-02T21:00:00,1690A,116.1231,24.3284,梅州市,梅江月梅,,,39,46,26,21,154,,144,136,9,10,12,10,0.5,0.5
2023-05-02T21:00:00,1691A,116.0797,24.2719,梅州市,梅县新城,,34,34,50,18,22,150,107,139,124,11,13,8,10,0.5,0.5
2023-05-02T21:00:00,1692A,116.1248,24.2654,梅州市,环境监控中心,,32,30,51,21,22,153,100,147,127,19,19,6,7,0.5,0.5
2023-05-02T21:00:00,1693A,115.3653,22.775,汕尾市,市环保局,,43,32,42,13,16,153,137,136,136,5,8,10,10,0.6,0.6
2023-05-02T21:00:00,1694A,115.3706,22.7898,汕尾市,市政府,,45,30,41,19,17,158,143,141,141,8,10,6,7,0.7,0.6
2023-05-02T21:00:00,1695A,115.3622,22.7925,汕尾市,新城中学,,,,,,,,,,,,,,,,
2023-05-02T21:00:00,1696A,114.6778,23.7569,河源市,源西,,40,40,41,28,22,121,96,115,112,16,11,5,5,0.6,0.6
2023-05-02T21:00:00,1697A,114.6944,23.7586,河源市,东埔,,42,42,43,24,21,132,98,124,118,14,11,5,6,0.8,0.5
2023-05-02T21:00:00,1698A,114.6892,23.7233,河源市,老城,,44,44,52,14,19,133,95,127,120,7,10,4,6,0.6,0.6
2023-05-02T21:00:00,1699A,111.9797,21.8593,阳江市,鸳鸯湖,,40,40,39,23,18,116,85,112,89,3,4,6,7,0.5,0.6
2023-05-02T21:00:00,1701A,111.9491,21.8658,阳江市,马南垌,颗粒物(PM10),52,54,42,20,19,114,81,110,88,6,7,5,6,0.6,0.6
2023-05-02T21:00:00,1702A,113.0426,23.691,清远市,环保大楼,颗粒物(PM10),59,67,63,40,32,171,101,151,147,28,26,6,7,0.9,0.9
2023-05-02T21:00:00,1703A,113.0208,23.7106,清远市,凤城街办,颗粒物(PM10),63,76,70,34,30,163,101,143,139,21,17,7,7,0.7,0.7
2023-05-02T21:00:00,1705A,116.6367,23.6719,潮州市,西园路,颗粒物(PM10),55,60,57,32,24,146,111,130,130,14,11,5,6,0.5,0.3
2023-05-02T21:00:00,1706A,116.6447,23.6706,潮州市,档案局,细颗粒物(PM2.5),72,69,56,52,29,178,119,162,155,15,10,9,10,0.6,0.4
2023-05-02T21:00:00,1708A,116.3701,23.5345,揭阳市,新兴,颗粒物(PM10),53,56,60,32,24,184,106,167,156,26,22,12,13,0.8,0.6
2023-05-02T21:00:00,1709A,116.3264,23.5443,揭阳市,西马,颗粒物(PM10),61,71,61,30,23,181,111,163,157,20,22,7,10,0.7,0.6
2023-05-02T21:00:00,1710A,116.3611,23.5626,揭阳市,东兴,颗粒物(PM10),58,66,60,30,22,187,107,165,158,26,23,13,10,1.1,0.6
2023-05-02T21:00:00,1711A,116.4151,23.5294,揭阳市,渔湖,颗粒物(PM10),56,62,62,35,28,184,106,165,156,23,22,23,13,1.4,0.5
2023-05-02T21:00:00,1712A,112.0392,22.9169,云浮市,新市府,,43,43,32,24,22,107,77,102,93,7,7,4,4,0.6,0.7
2023-05-02T21:00:00,1714A,112.0539,22.9539,云浮市,牧羊,,47,47,43,22,23,103,89,99,98,10,13,8,9,0.5,0.6
2023-05-02T21:00:00,1715A,102.575,24.3711,玉溪市,东风水库,颗粒物(PM10),51,51,27,33,20,113,106,110,109,9,10,8,7,0.7,0.8
2023-05-02T21:00:00,1718A,115.4208,35.2464,菏泽市,气象局,颗粒物(PM10),64,78,85,29,35,156,121,145,141,16,17,9,8,0.5,0.4
2023-05-02T21:00:00,1719A,115.4747,35.2375,菏泽市,市政协,颗粒物(PM10),51,52,69,28,34,158,119,147,141,15,14,6,6,0.8,0.5
2023-05-02T21:00:00,1721A,113.3819,40.1097,大同市,果树场,颗粒物(PM10),99,148,103,64,40,136,105,130,122,18,16,10,11,0.6,0.5
2023-05-02T21:00:00,1723A,113.2994,40.0758,大同市,云冈宾馆,颗粒物(PM10),116,181,130,60,43,141,110,132,129,30,30,8,10,0.5,0.5
2023-05-02T21:00:00,1724A,113.3444,40.0917,大同市,大同大学,颗粒物(PM10),109,167,124,49,43,144,123,137,135,18,18,11,13,0.5,0.5
2023-05-02T21:00:00,1725A,113.2661,40.1269,大同市,安家小村,颗粒物(PM10),114,178,137,47,45,140,110,133,130,21,19,10,10,0.4,0.4
2023-05-02T21:00:00,1726A,113.2711,40.0844,大同市,教育学院,颗粒物(PM10),106,162,129,53,48,141,108,128,126,26,28,8,11,0.5,0.5
2023-05-02T21:00:00,1727A,113.1147,36.1547,长治市,清华站,颗粒物(PM10),55,59,59,27,21,151,151,144,141,13,9,9,8,0.6,0.5
2023-05-02T21:00:00,1728A,113.1031,36.1989,长治市,监测站,细颗粒物(PM2.5),77,62,60,56,24,143,142,137,134,13,10,8,6,0.5,0.6
2023-05-02T21:00:00,1730A,113.0886,36.2125,长治市,审计局,颗粒物(PM10),57,64,59,24,22,145,134,138,133,19,12,10,9,0.4,0.4
2023-05-02T21:00:00,1731A,113.0844,36.1856,长治市,长治八中,颗粒物(PM10),63,75,72,32,27,145,141,139,135,11,7,6,6,0.4,0.4
2023-05-02T21:00:00,1733A,111.5531,36.0783,临汾市,临钢医院,颗粒物(PM10),71,92,94,44,45,190,90,166,153,43,31,6,6,0.7,0.8
2023-05-02T21:00:00,1734A,111.5028,36.0714,临汾市,技工学校,颗粒物(PM10),67,83,84,35,34,197,127,174,164,19,22,8,7,0.9,0.9
2023-05-02T21:00:00,1736A,111.5018,36.0855,临汾市,市委,颗粒物(PM10),69,88,99,37,35,199,131,177,165,20,23,8,6,0.8,0.8
2023-05-02T21:00:00,1738A,113.5758,37.8572,阳泉市,市中心,颗粒物(PM10),69,88,106,38,33,180,158,168,168,24,52,22,14,1.0,0.9
2023-05-02T21:00:00,1739A,113.4894,37.8731,阳泉市,赛鱼,颗粒物(PM10),85,119,110,45,33,179,160,166,166,22,44,16,12,0.9,0.6
2023-05-02T21:00:00,1740A,113.5819,37.8486,阳泉市,南庄,颗粒物(PM10),91,132,134,49,40,182,167,173,173,21,47,15,13,0.8,0.8
2023-05-02T21:00:00,1742A,113.5614,37.8703,阳泉市,平坦,颗粒物(PM10),83,116,128,50,43,174,159,164,164,22,56,13,11,0.9,0.8
2023-05-02T21:00:00,1743A,113.5158,37.8392,阳泉市,大阳泉,颗粒物(PM10),85,120,101,45,34,179,160,169,169,21,16,15,11,0.9,0.7
2023-05-02T21:00:00,1744A,118.9233,42.2816,赤峰市,松山一中,,45,45,74,10,23,159,110,155,129,18,20,11,13,0.5,0.7
2023-05-02T21:00:00,1745A,118.9576,42.2728,赤峰市,哈达街,颗粒物(PM10),55,60,94,19,30,156,92,156,127,25,19,14,16,0.6,0.6
2023-05-02T21:00:00,1746A,118.8788,42.2554,赤峰市,天义路,,38,34,86,19,26,170,120,170,140,13,14,12,14,0.5,0.7
2023-05-02T21:00:00,1748A,123.044,41.1196,鞍山市,深沟寺,,48,48,44,18,18,173,143,162,160,7,7,9,9,0.5,0.5
2023-05-02T21:00:00,1749A,123.011,41.0931,鞍山市,太阳城,,46,46,43,15,16,170,141,160,157,10,10,7,8,0.4,0.4
2023-05-02T21:00:00,1750A,123.0485,41.1442,鞍山市,太平,颗粒物(PM10),52,53,52,17,17,166,134,154,151,11,11,11,11,0.4,0.4
2023-05-02T21:00:00,1751A,122.9642,41.0971,鞍山市,铁西三道街,颗粒物(PM10),61,71,67,21,24,156,138,150,148,12,16,4,6,0.6,0.7
2023-05-02T21:00:00,1752A,122.9341,41.0833,鞍山市,铁西工业园区,颗粒物(PM10),61,72,54,20,18,164,137,154,152,11,12,8,8,0.5,0.6
2023-05-02T21:00:00,1753A,123.022,41.0821,鞍山市,明达新区,颗粒物(PM10),52,54,43,17,18,169,142,159,157,8,9,7,7,0.3,0.4
2023-05-02T21:00:00,1754A,123.1289,41.0228,鞍山市,千山,,,,,,,,,,,,,,,,
2023-05-02T21:00:00,1755A,123.7977,41.8491,抚顺市,望花区,颗粒物(PM10),57,63,66,21,23,181,160,170,170,10,18,9,18,0.4,0.5
2023-05-02T21:00:00,1756A,123.9161,41.8822,抚顺市,顺城区,,50,47,53,22,19,184,157,173,172,7,11,5,6,0.6,0.7
2023-05-02T21:00:00,1757A,124.0436,41.8611,抚顺市,东洲区,臭氧1小时,60,53,53,20,17,189,168,177,177,7,7,16,9,0.4,0.7
2023-05-02T21:00:00,1758A,123.9247,41.8642,抚顺市,新抚区,,49,49,61,15,19,184,151,173,172,12,12,10,10,0.3,0.3
2023-05-02T21:00:00,1759A,124.0972,41.8961,抚顺市,大伙房水库,臭氧1小时,73,40,44,17,14,200,178,188,188,5,5,7,7,0.4,0.4
2023-05-02T21:00:00,1760A,123.7086,41.8391,抚顺市,沈抚新城,颗粒物(PM10),58,66,66,24,20,190,157,179,177,15,12,15,11,0.6,0.5
2023-05-02T21:00:00,1761A,123.8275,41.3064,本溪市,大峪,颗粒物(PM10),53,55,50,16,16,164,137,148,147,8,12,4,4,0.5,0.5
2023-05-02T21:00:00,1762A,123.7567,41.3325,本溪市,溪湖,颗粒物(PM10),62,73,51,30,18,170,115,154,150,43,19,28,16,1.5,0.7
2023-05-02T21:00:00,1763A,123.7169,41.3094,本溪市,彩屯,颗粒物(PM10),77,103,78,51,34,140,113,128,127,46,42,57,70,2.3,2.3
2023-05-02T21:00:00,1764A,123.7669,41.2864,本溪市,东明,颗粒物(PM10),54,58,55,28,19,168,150,157,157,15,13,8,8,0.6,0.6
2023-05-02T21:00:00,1765A,123.7992,41.2664,本溪市,新立屯,颗粒物(PM10),59,68,52,22,17,165,145,153,153,11,10,7,7,0.3,0.3
2023-05-02T21:00:00,1766A,123.8142,41.3472,本溪市,威宁,颗粒物(PM10),58,65,51,23,18,151,126,136,136,11,13,6,7,0.5,0.5
2023-05-02T21:00:00,1767A,121.1115,41.0879,锦州市,南山,颗粒物(PM10),58,65,78,30,32,222,154,206,202,23,22,45,12,0.7,0.7
2023-05-02T21:00:00,1768A,121.0533,40.8434,锦州市,开发区,颗粒物(PM10),73,95,113,18,30,209,151,192,188,25,29,8,9,0.4,0.5
2023-05-02T21:00:00,1769A,121.1836,41.1119,锦州市,百股街道,颗粒物(PM10),59,68,70,24,29,226,155,209,204,20,18,7,8,0.6,0.6
2023-05-02T21:00:00,1770A,121.1178,41.1222,锦州市,天安街道,,,,,,,,,,,,,,,,
2023-05-02T21:00:00,1771A,121.1303,41.1386,锦州市,北湖公园,颗粒物(PM10),56,61,73,25,28,203,145,189,186,20,21,42,16,0.8,0.8
2023-05-02T21:00:00,1772A,126.54,43.8622,吉林市,哈达湾,臭氧1小时,59,58,36,20,14,167,167,153,153,7,15,6,5,0.5,0.5
2023-05-02T21:00:00,1773A,126.5844,43.8358,吉林市,东局子,颗粒物(PM10),54,58,34,19,12,162,162,148,148,8,11,6,6,0.5,0.5
2023-05-02T21:00:00,1774A,126.5052,43.8245,吉林市,电力学院,臭氧1小时,58,56,44,22,20,166,166,151,151,9,19,8,7,0.5,0.5
2023-05-02T21:00:00,1775A,126.6133,43.8972,吉林市,江北,颗粒物(PM10),55,60,36,20,14,156,156,145,145,7,9,7,7,0.6,0.6
2023-05-02T21:00:00,1776A,126.555,43.8306,吉林市,江南公园,颗粒物(PM10),57,63,38,26,16,162,162,148,148,9,13,7,6,0.5,0.5
2023-05-02T21:00:00,1778A,126.7061,43.7133,吉林市,丰满,,50,45,26,23,15,160,160,146,146,4,5,6,5,0.5,0.6
2023-05-02T21:00:00,1779A,123.9305,47.3636,齐齐哈尔市,安居小区,颗粒物(PM10),199,347,150,45,34,120,116,110,96,16,17,4,4,0.7,0.6
2023-05-02T21:00:00,1780A,123.9488,47.3386,齐齐哈尔市,中心广场,颗粒物(PM10),173,295,135,52,21,121,116,109,98,15,16,6,8,0.5,0.6
2023-05-02T21:00:00,1781A,123.9483,47.3227,齐齐哈尔市,农牧车辆厂,颗粒物(PM10),192,334,152,34,19,131,130,121,111,10,13,5,6,0.4,0.5
2023-05-02T21:00:00,1783A,123.945,47.2988,齐齐哈尔市,市环境监测站,颗粒物(PM10),500,755,185,94,31,127,124,117,106,9,12,6,6,0.5,0.6
2023-05-02T21:00:00,1784A,129.61,44.561,牡丹江市,环保大楼,,34,33,29,21,19,140,108,124,122,12,14,4,4,0.3,0.3
2023-05-02T21:00:00,1785A,129.6115,44.5782,牡丹江市,文化广场,,43,43,36,22,21,136,108,119,119,18,24,4,4,0.5,0.5
2023-05-02T21:00:00,1786A,129.5904,44.5963,牡丹江市,第一医院,颗粒物(PM10),51,52,42,16,26,142,113,129,127,12,17,3,3,0.5,0.5
2023-05-02T21:00:00,1787A,129.6364,44.6075,牡丹江市,机车工厂,,35,35,34,7,16,139,104,124,122,17,15,4,4,0.2,0.3
2023-05-02T21:00:00,1788A,129.6386,44.5462,牡丹江市,第一中学,,45,45,30,20,16,140,116,122,122,6,11,2,2,0.3,0.3
2023-05-02T21:00:00,1789A,124.81117,46.03138,大庆市,大同区,颗粒物(PM10),500,1102,412,102,44,150,150,136,136,9,12,3,4,0.4,0.4
2023-05-02T21:00:00,1790A,125.129,46.533,大庆市,龙凤区,颗粒物(PM10),104,158,172,46,23,128,117,118,118,9,12,2,3,0.4,0.4
2023-05-02T21:00:00,1791A,124.902,46.408,大庆市,红岗区,颗粒物(PM10),135,219,210,51,30,124,112,116,116,10,13,6,6,0.4,0.5
2023-05-02T21:00:00,1792A,125.153,46.586,大庆市,萨尔图区,颗粒物(PM10),120,189,200,59,36,122,117,113,113,9,14,7,7,0.2,0.3
2023-05-02T21:00:00,1793A,124.9042,46.6215,大庆市,让胡路区,颗粒物(PM10),117,184,149,41,20,136,125,123,123,8,12,5,7,0.3,0.4
2023-05-02T21:00:00,1794A,118.3606,31.3519,芜湖市,监测站,颗粒物(PM10),67,83,71,37,31,158,81,149,119,47,25,9,9,0.8,0.7
2023-05-02T21:00:00,1795A,118.3714,31.4134,芜湖市,科创中心,颗粒物(PM10),88,126,78,48,33,158,9,150,107,130,31,8,7,1.1,0.6
2023-05-02T21:00:00,1796A,118.3673,31.3131,芜湖市,四水厂,颗粒物(PM10),59,68,73,40,35,160,93,150,117,46,28,10,11,0.7,0.5
2023-05-02T21:00:00,1798A,118.5092,31.6837,马鞍山市,湖东路四小,颗粒物(PM10),55,60,63,26,28,166,121,155,145,30,18,9,9,0.6,0.6
2023-05-02T21:00:00,1799A,118.5024,31.6449,马鞍山市,开发区,颗粒物(PM10),65,79,81,32,29,165,124,154,144,22,15,7,7,0.6,0.6
2023-05-02T21:00:00,1800A,118.5228,31.7231,马鞍山市,慈湖,颗粒物(PM10),57,63,68,35,36,164,127,153,147,32,23,33,11,0.4,0.5
2023-05-02T21:00:00,1802A,118.6245,31.7241,马鞍山市,濮塘,,43,43,54,21,26,155,128,147,144,18,12,6,8,1.0,1
2023-05-02T21:00:00,1803A,115.9872,29.6815,九江市,十里,颗粒物(PM10),63,75,63,30,27,121,62,111,104,48,27,10,10,0.8,0.6
2023-05-02T21:00:00,1804A,115.9584,29.7046,九江市,茅山头,颗粒物(PM10),69,88,60,37,28,110,27,98,68,78,53,12,9,0.9,0.6
2023-05-02T21:00:00,1805A,115.9877,29.7295,九江市,西园,,41,41,58,27,28,114,109,105,104,15,53,10,9,0.6,0.6
2023-05-02T21:00:00,1806A,116.0172,29.6547,九江市,五七二七厂,,46,46,49,27,22,140,131,129,129,6,11,9,9,0.4,0.4
2023-05-02T21:00:00,1808A,115.9114,29.6038,九江市,综合工业园,颗粒物(PM10),59,67,61,32,27,124,30,113,92,84,36,12,11,0.8,0.6
2023-05-02T21:00:00,1809A,116.0721,29.7535,九江市,石化总厂,颗粒物(PM10),55,59,64,25,24,114,87,108,104,20,26,13,14,0.6,0.6
2023-05-02T21:00:00,1810A,115.9773,29.5698,九江市,庐山气象台,,38,38,43,23,22,132,117,128,113,6,4,6,6,1.1,0.8
2023-05-02T21:00:00,1812A,112.3931,34.6516,洛阳市,市委党校,颗粒物(PM10),78,105,84,43,36,177,113,155,153,35,23,5,7,0.8,0.6
2023-05-02T21:00:00,1814A,112.4657,34.6871,洛阳市,豫西宾馆,颗粒物(PM10),79,108,94,47,36,168,102,148,144,32,16,7,6,1.0,0.8
2023-05-02T21:00:00,1815A,112.494,34.6886,洛阳市,河南林校,颗粒物(PM10),76,102,83,38,30,168,104,149,146,34,21,12,10,0.4,0.3
2023-05-02T21:00:00,1816A,112.3844,34.623,洛阳市,开发区管委会,颗粒物(PM10),75,100,80,40,30,193,126,173,170,23,12,6,8,0.5,0.3
2023-05-02T21:00:00,1817A,112.4267,34.6258,洛阳市,市委新办公区,颗粒物(PM10),76,102,79,41,36,184,123,163,161,26,19,7,9,0.5,0.4
2023-05-02T21:00:00,1818A,114.4839,36.0621,安阳市,棉研所,颗粒物(PM10),71,92,93,51,46,127,70,115,109,24,13,8,14,0.6,0.5
2023-05-02T21:00:00,1819A,114.3551,36.1017,安阳市,红庙街,颗粒物(PM10),81,111,100,35,36,144,87,133,126,28,21,5,8,0.8,0.8
2023-05-02T21:00:00,1820A,114.361,36.0681,安阳市,银杏小区,颗粒物(PM10),75,100,95,46,43,137,72,122,116,29,19,10,12,0.7,0.6
2023-05-02T21:00:00,1824A,114.3389,34.7781,开封市,肿瘤医院,颗粒物(PM10),74,98,96,35,31,149,87,138,130,16,10,9,11,0.5,0.4
2023-05-02T21:00:00,1826A,114.2885,34.7965,开封市,世纪星幼儿园,颗粒物(PM10),74,97,87,32,41,151,97,141,134,16,13,6,10,0.6,0.5
2023-05-02T21:00:00,1828A,113.227,35.2125,焦作市,市环保局,颗粒物(PM10),72,94,96,34,32,177,127,148,148,26,24,8,11,0.5,0.6
2023-05-02T21:00:00,1830A,113.1992,35.2590,焦作市,影视城,颗粒物(PM10),60,69,62,32,27,128,116,108,108,9,10,9,9,0.5,0.5
2023-05-02T21:00:00,1832A,113.3257,33.742,平顶山市,新华旅馆,颗粒物(PM10),74,98,99,36,37,151,89,143,132,21,30,8,15,0.5,0.5
2023-05-02T21:00:00,1833A,113.2919,33.737,平顶山市,规划设计院,颗粒物(PM10),70,90,89,33,36,160,90,146,134,17,19,13,11,0.6,0.5
2023-05-02T21:00:00,1834A,113.182,33.774,平顶山市,平顶山工学院,颗粒物(PM10),69,88,86,27,36,156,98,150,140,15,14,12,7,0.4,0.4
2023-05-02T21:00:00,1835A,111.1922,34.7752,三门峡市,市政府,颗粒物(PM10),75,100,96,38,34,184,151,158,158,17,25,12,11,0.6,0.5
2023-05-02T21:00:00,1836A,111.1587,34.7942,三门峡市,开发区,颗粒物(PM10),87,124,101,46,41,185,156,164,164,23,20,11,10,0.7,0.6
2023-05-02T21:00:00,1838A,111.143,34.7955,三门峡市,风景区,颗粒物(PM10),73,96,89,45,41,187,160,167,167,24,21,13,12,0.5,0.4
2023-05-02T21:00:00,1840A,111.2992,30.6981,宜昌市,白龙岗,"颗粒物(PM10),细颗粒物(PM2.5)",64,78,64,46,30,138,66,116,108,29,30,9,8,0.7,0.6
2023-05-02T21:00:00,1841A,111.3549,30.6465,宜昌市,伍家岗,细颗粒物(PM2.5),67,81,68,48,34,141,76,119,113,20,34,9,9,0.7,0.5
2023-05-02T21:00:00,1842A,111.2628,30.6961,宜昌市,点军区,颗粒物(PM10),68,85,66,41,26,139,57,110,102,48,35,9,9,0.7,0.6
2023-05-02T21:00:00,1843A,111.3275,30.7819,宜昌市,夷陵区,颗粒物(PM10),67,83,63,39,26,133,76,112,106,24,26,9,9,0.6,0.5
2023-05-02T21:00:00,1844A,112.2494,30.3197,荆州市,市图书馆,"颗粒物(PM10),细颗粒物(PM2.5)",58,65,75,41,40,112,70,104,78,18,24,13,12,0.7,0.6
2023-05-02T21:00:00,1845A,112.2008,30.3544,荆州市,市委党校,颗粒物(PM10),59,67,74,40,41,112,71,108,80,23,26,24,12,0.9,0.8
2023-05-02T21:00:00,1847A,113.1094,29.3578,岳阳市,南湖风景区,颗粒物(PM10),58,66,62,26,28,102,74,102,77,16,16,17,12,0.7,0.6
2023-05-02T21:00:00,1848A,113.1493,29.4251,岳阳市,城陵矶,,50,50,72,27,29,102,81,94,84,20,27,10,8,0.7,0.7
2023-05-02T21:00:00,1849A,113.1497,29.3575,岳阳市,开发区,,43,43,61,25,27,97,77,92,74,13,17,7,10,0.7,0.6
2023-05-02T21:00:00,1850A,113.2621,29.4758,岳阳市,云溪区,,40,40,58,23,25,118,103,113,99,5,10,7,8,0.8,0.6
2023-05-02T21:00:00,1851A,112.9943,29.4402,岳阳市,君山区,细颗粒物(PM2.5),53,54,67,37,34,98,84,86,82,14,20,11,10,0.6,0.8
2023-05-02T21:00:00,1852A,113.2117,29.355,岳阳市,金凤水库,,41,41,62,25,28,116,64,86,70,13,17,3,7,0.7,0.5
2023-05-02T21:00:00,1854A,111.6975,28.9703,常德市,市二中,"颗粒物(PM10),细颗粒物(PM2.5)",57,64,64,40,40,125,87,88,88,9,17,7,9,0.6,0.5
2023-05-02T21:00:00,1857A,111.7158,29.1456,常德市,白鹤山,细颗粒物(PM2.5),62,57,65,44,35,120,76,99,79,7,7,8,9,0.8,0.5
2023-05-02T21:00:00,1858A,110.5319,29.1217,张家界市,永定新区,,,,63,,23,134,,93,51,26,24,3,4,0.2,0.2
2023-05-02T21:00:00,1859A,110.4697,29.1242,张家界市,电业局,颗粒物(PM10),58,66,67,39,30,144,26,94,47,31,22,3,4,0.4,0.3
2023-05-02T21:00:00,1860A,110.5594,29.3547,张家界市,未央路,,48,48,52,28,29,75,6,59,42,29,24,3,3,0.4,0.3
2023-05-02T21:00:00,1861A,110.4417,29.315,张家界市,袁家界,,33,29,44,23,25,140,8,136,46,7,16,7,8,0.5,0.5
2023-05-02T21:00:00,1862A,110.4144,25.3167,桂林市,电子科大尧山校区,,31,31,40,21,26,116,86,113,86,7,8,3,4,0.7,0.7
2023-05-02T21:00:00,1863A,110.2819,25.2697,桂林市,监测站,,46,37,55,32,44,111,71,107,59,12,17,5,8,0.8,0.8
2023-05-02T21:00:00,1864A,110.3089,25.2708,桂林市,龙隐路小学,,48,48,57,31,41,93,63,91,44,13,18,6,10,0.8,0.8
2023-05-02T21:00:00,1865A,110.2869,25.2178,桂林市,八中,,,40,43,29,31,100,,93,66,19,15,6,5,0.4,0.7
2023-05-02T21:00:00,1866A,109.2262,21.588,北海市,牛尾岭水库,,27,27,25,13,12,82,62,81,72,4,4,9,9,0.6,0.6
2023-05-02T21:00:00,1867A,109.1436,21.4086,北海市,海滩公园,,32,32,32,10,12,109,74,96,82,4,5,2,3,0.8,0.8
2023-05-02T21:00:00,1868A,109.0981,21.4661,北海市,新市环保局,,29,29,26,5,8,105,75,94,82,8,5,1,2,0.5,0.5
2023-05-02T21:00:00,1869A,109.1778,21.5233,北海市,北海工业园,,23,23,31,12,15,101,68,92,79,5,5,4,4,0.5,0.6
2023-05-02T21:00:00,1870A,109.4856,24.3895,柳州市,柳东小学,细颗粒物(PM2.5),52,40,38,36,27,124,78,112,85,8,9,5,7,0.4,0.4
2023-05-02T21:00:00,1871A,109.4157,24.3277,柳州市,环保监测站,,47,47,46,24,28,95,56,91,64,15,13,4,5,0.7,0.7
2023-05-02T21:00:00,1872A,109.389,24.341,柳州市,河西水厂,,46,46,44,27,23,103,50,93,53,14,14,4,5,1.0,1
2023-05-02T21:00:00,1873A,109.4311,24.2921,柳州市,市四中,,42,42,44,23,25,104,60,97,66,14,12,8,8,0.8,0.8
2023-05-02T21:00:00,1874A,109.4006,24.3631,柳州市,市九中,颗粒物(PM10),51,51,51,30,25,99,58,92,62,15,14,8,8,0.7,0.7
2023-05-02T21:00:00,1875A,109.4958,24.3134,柳州市,古亭山,,32,28,39,22,32,113,72,109,80,6,9,2,3,0.6,0.6
2023-05-02T21:00:00,1876A,109.5078,18.2489,三亚市,河东子站,,35,35,25,16,15,87,51,85,58,5,5,2,3,0.6,0.6
2023-05-02T21:00:00,1877A,109.4964,18.2681,三亚市,河西子站,,24,24,26,13,13,82,50,79,56,5,7,2,2,0.3,0.5
2023-05-02T21:00:00,1878A,104.7778,31.4741,绵阳市,富乐山,,49,49,48,26,27,128,95,122,118,11,11,4,3,0.5,0.4
2023-05-02T21:00:00,1879A,104.7563,31.4535,绵阳市,市人大,颗粒物(PM10),51,51,54,34,28,112,58,104,95,43,20,6,5,0.5,0.4
2023-05-02T21:00:00,1880A,104.6697,31.4668,绵阳市,高新区自来水公司,颗粒物(PM10),53,55,52,29,23,129,83,120,116,25,13,5,6,0.5,0.5
2023-05-02T21:00:00,1881A,104.7287,31.5075,绵阳市,三水厂,细颗粒物(PM2.5),57,48,58,40,37,128,92,122,119,17,18,4,5,0.4,0.4
2023-05-02T21:00:00,1882A,104.563,28.793,宜宾市,石马中学,细颗粒物(PM2.5),84,105,85,62,51,170,140,160,160,19,19,6,8,0.6,0.5
2023-05-02T21:00:00,1883A,104.6201,28.7728,宜宾市,市委,细颗粒物(PM2.5),83,103,99,61,54,168,130,154,153,22,24,8,10,0.5,0.5
2023-05-02T21:00:00,1884A,104.6055,28.793,宜宾市,宜宾四中,细颗粒物(PM2.5),88,103,97,65,58,167,131,155,153,27,23,9,9,0.6,0.6
2023-05-02T21:00:00,1885A,104.639,28.7562,宜宾市,市政府,细颗粒物(PM2.5),82,92,102,60,56,185,134,169,167,28,29,8,14,0.6,0.6
2023-05-02T21:00:00,1886A,104.5742,28.7199,宜宾市,黄金嘴,细颗粒物(PM2.5),85,105,92,63,53,187,138,168,166,23,23,8,10,0.4,0.4
2023-05-02T21:00:00,1888A,101.6891,26.571,攀枝花市,弄弄坪,,47,47,42,20,26,121,81,102,91,23,20,50,18,2.6,0.9
2023-05-02T21:00:00,1889A,101.5769,26.5928,攀枝花市,河门口,,33,16,36,10,22,118,103,111,109,8,21,8,18,0.5,1.1
2023-05-02T21:00:00,1890A,101.7169,26.585,攀枝花市,炳草岗,,29,20,43,11,28,128,91,105,99,14,36,11,10,0.6,0.8
2023-05-02T21:00:00,1891A,101.7369,26.5008,攀枝花市,仁和,,27,20,32,16,23,114,85,108,103,16,13,6,6,0.7,0.7
2023-05-02T21:00:00,1893A,105.4324,28.9634,泸州市,九狮山,颗粒物(PM10),57,64,53,32,28,163,137,158,156,15,12,10,10,0.3,0.3
2023-05-02T21:00:00,1894A,105.4427,28.9063,泸州市,小市上码头,颗粒物(PM10),72,94,85,46,39,170,145,158,158,10,15,10,10,0.5,0.5
2023-05-02T21:00:00,1895A,105.4241,28.8573,泸州市,兰田宪桥,颗粒物(PM10),73,96,86,46,43,170,123,156,153,22,14,6,16,0.7,0.6
2023-05-02T21:00:00,1896A,105.4379,28.8833,泸州市,市环监站,颗粒物(PM10),68,85,77,39,35,158,128,147,146,19,19,8,8,0.6,0.6
2023-05-02T21:00:00,1901A,104.4239,31.1208,德阳市,东山公园,颗粒物(PM10),53,56,49,32,28,131,94,122,118,28,14,2,2,0.4,0.4
2023-05-02T21:00:00,1902A,104.3826,31.1317,德阳市,西小区,,50,50,53,28,30,131,98,123,121,14,10,1,2,0.5,0.4
2023-05-02T21:00:00,1904A,104.3553,31.1091,德阳市,耐火材料厂,,46,42,46,32,28,147,113,137,135,7,7,3,4,0.4,0.3
2023-05-02T21:00:00,1905A,106.056,30.8064,南充市,西山风景区,颗粒物(PM10),52,53,44,35,27,142,98,126,125,9,7,6,6,0.4,0.4
2023-05-02T21:00:00,1906A,106.0789,30.8023,南充市,南充市委,颗粒物(PM10),62,74,56,31,26,144,91,127,125,21,15,12,10,0.5,0.4
2023-05-02T21:00:00,1907A,106.1031,30.8217,南充市,南充炼油厂,颗粒物(PM10),67,84,56,35,26,135,85,118,117,17,11,17,11,0.4,0.3
2023-05-02T21:00:00,1908A,106.1064,30.7856,南充市,高坪区监测站,颗粒物(PM10),60,69,51,39,26,131,88,118,117,22,13,13,11,0.5,0.4
2023-05-02T21:00:00,1909A,106.0642,30.7636,南充市,嘉陵区环保局,颗粒物(PM10),73,95,53,51,27,145,86,124,122,28,16,10,9,0.6,0.4
2023-05-02T21:00:00,1910A,106.1087,30.8388,南充市,市环境监测站,颗粒物(PM10),64,78,56,45,31,134,80,114,112,20,15,17,11,0.6,0.5
2023-05-02T21:00:00,1911A,106.9222,27.6869,遵义市,丁字口,细颗粒物(PM2.5),53,32,41,37,29,112,88,104,100,12,15,8,8,0.5,0.5
2023-05-02T21:00:00,1912A,106.9242,27.7019,遵义市,凤凰山,,40,40,50,20,23,128,108,121,120,10,11,8,6,0.4,0.4
2023-05-02T21:00:00,1913A,106.8906,27.6486,遵义市,忠庄,,50,50,59,32,23,113,81,104,100,10,10,2,4,0.5,0.4
2023-05-02T21:00:00,1914A,106.9231,27.6506,遵义市,舟水桥,,45,35,48,31,22,122,96,113,110,7,12,2,3,0.6,0.6
2023-05-02T21:00:00,1915A,106.9178,27.72,遵义市,干田坝,,35,35,50,21,19,122,96,117,111,11,12,6,7,0.6,0.6
2023-05-02T21:00:00,1916A,103.7897,25.5035,曲靖市,环境监测站,,35,35,33,12,16,118,88,110,103,11,8,9,9,0.7,0.7
2023-05-02T21:00:00,1917A,103.8,25.5364,曲靖市,烟厂办公区,,33,33,33,18,18,133,99,123,116,12,9,4,4,0.7,0.8
2023-05-02T21:00:00,1918A,108.7197,34.3956,咸阳市,气象站,颗粒物(PM10),58,65,96,28,41,147,66,136,122,32,46,5,7,0.4,0.4
2023-05-02T21:00:00,1919A,108.673,34.3155,咸阳市,实验中学,颗粒物(PM10),69,88,96,28,36,167,87,151,138,24,40,5,6,0.8,0.9
2023-05-02T21:00:00,1920A,108.7233,34.3617,咸阳市,师范学院,颗粒物(PM10),65,79,95,30,42,153,70,139,124,31,40,6,7,0.5,0.7
2023-05-02T21:00:00,1922A,109.0656,35.0994,铜川市,党校,细颗粒物(PM2.5),77,82,96,56,46,152,111,140,136,17,37,17,11,0.8,0.8
2023-05-02T21:00:00,1923A,109.0697,35.0697,铜川市,王益区政府,颗粒物(PM10),63,75,73,42,42,153,101,142,136,16,28,8,10,0.4,0.4
2023-05-02T21:00:00,1924A,108.9344,34.9058,铜川市,新区管委会,颗粒物(PM10),64,77,81,28,28,165,130,156,150,22,19,8,9,0.5,0.5
2023-05-02T21:00:00,1926A,109.4131,36.6275,延安市,枣园,颗粒物(PM10),55,60,58,21,21,153,133,144,144,9,24,11,9,0.6,0.6
2023-05-02T21:00:00,1927A,109.4761,36.6028,延安市,延大医附院,颗粒物(PM10),79,107,64,27,24,152,114,143,139,17,27,6,5,0.5,0.4
2023-05-02T21:00:00,1929A,109.5056,36.6106,延安市,百米大道,颗粒物(PM10),54,57,65,28,29,148,114,136,134,21,37,7,5,0.4,0.4
2023-05-02T21:00:00,1930A,107.185,34.3063,宝鸡市,庙沟村,颗粒物(PM10),51,51,46,33,31,170,119,140,139,13,10,8,8,0.6,0.5
2023-05-02T21:00:00,1931A,107.0708,34.3017,宝鸡市,竹园沟,颗粒物(PM10),53,56,43,30,24,167,96,144,137,21,16,7,8,0.5,0.4
2023-05-02T21:00:00,1932A,107.1906,34.3672,宝鸡市,三陆医院,颗粒物(PM10),66,82,72,33,34,174,117,151,150,27,40,8,8,0.6,0.6
2023-05-02T21:00:00,1933A,107.1431,34.3547,宝鸡市,监测站,颗粒物(PM10),67,84,59,30,26,182,126,151,151,24,20,8,7,0.4,0.4
2023-05-02T21:00:00,1934A,107.1186,34.3739,宝鸡市,技工学校,颗粒物(PM10),63,76,61,38,28,172,126,152,151,22,23,7,6,0.5,0.4
2023-05-02T21:00:00,1935A,107.3906,34.3528,宝鸡市,陈仓区环保局家属楼,颗粒物(PM10),77,104,91,29,36,168,98,143,140,36,43,7,19,0.6,0.7
2023-05-02T21:00:00,1936A,107.2058,34.3497,宝鸡市,文理学院,颗粒物(PM10),72,94,65,34,28,183,128,155,155,21,26,13,10,0.6,0.5
2023-05-02T21:00:00,1937A,107.2386,34.3622,宝鸡市,三迪小学,颗粒物(PM10),76,101,77,45,34,178,108,151,146,39,39,10,10,0.6,0.6
2023-05-02T21:00:00,1938A,109.5293,34.5101,渭南市,农科所,颗粒物(PM10),74,97,85,48,41,141,69,130,119,46,26,9,9,0.6,0.5
2023-05-02T21:00:00,1939A,109.4974,34.4877,渭南市,日报社,颗粒物(PM10),73,95,86,41,36,154,103,147,139,29,26,8,7,0.7,0.5
2023-05-02T21:00:00,1940A,109.4636,34.493,渭南市,体育馆,颗粒物(PM10),70,90,84,38,36,155,69,149,138,56,25,9,8,0.6,0.4
2023-05-02T21:00:00,1941A,109.4259,34.5023,渭南市,高新一小,颗粒物(PM10),70,90,92,24,29,153,103,146,137,22,17,5,6,0.6,0.5
2023-05-02T21:00:00,1943A,102.1725,38.5339,金昌市,新川苑,颗粒物(PM10),55,59,152,17,44,134,118,130,128,13,27,10,21,0.5,0.7
2023-05-02T21:00:00,1944A,102.1692,38.5167,金昌市,天庆家园,,44,44,117,18,46,141,125,137,135,10,28,8,13,0.5,0.8
2023-05-02T21:00:00,1945A,98.2908,39.7711,嘉峪关市,气象局,颗粒物(PM10),82,114,147,41,43,126,101,122,119,12,19,3,6,0.1,0.4
2023-05-02T21:00:00,1947A,106.3394,38.817,石嘴山市,沙湖旅游区,颗粒物(PM10),105,160,148,35,36,165,109,151,146,18,22,18,18,0.5,0.5
2023-05-02T21:00:00,1948A,106.3668,39.0145,石嘴山市,大武口朝阳西街,颗粒物(PM10),84,117,131,42,76,154,106,142,139,17,25,10,21,0.3,0.4
2023-05-02T21:00:00,1949A,106.7704,39.2282,石嘴山市,惠农南大街,颗粒物(PM10),92,133,143,63,68,143,84,124,119,27,21,32,22,0.5,0.7
2023-05-02T21:00:00,1950A,106.7099,39.1325,石嘴山市,红果子镇惠新街,颗粒物(PM10),84,118,71,44,62,159,103,135,131,16,17,4,12,0.5,0.6
2023-05-02T21:00:00,1951A,84.895,45.6094,克拉玛依市,长征新村,,32,18,49,12,9,124,100,104,94,1,2,7,7,0.2,0.2
2023-05-02T21:00:00,1952A,84.8988,45.5893,克拉玛依市,南林小区,,31,18,46,21,18,121,97,104,92,3,3,4,4,0.2,0.2
2023-05-02T21:00:00,1954A,84.905,44.3396,克拉玛依市,独山子区,颗粒物(PM10),72,94,70,28,32,110,102,101,101,7,4,6,7,0.3,0.3
2023-05-02T21:00:00,1955A,85.6979,46.098,克拉玛依市,乌尔禾区商贸楼,,33,10,30,22,9,107,105,106,106,1,1,8,8,0.3,0.3
2023-05-02T21:00:00,1956A,86.1472,41.7538,巴音郭楞州,孔雀公园,颗粒物(PM10),52,54,52,6,17,117,104,109,109,4,6,3,3,0.1,0.2
2023-05-02T21:00:00,1957A,86.1972,41.7166,巴音郭楞州,棉纺厂,颗粒物(PM10),63,76,58,18,16,111,103,108,107,7,8,3,3,0.2,0.3
2023-05-02T21:00:00,1958A,86.2357,41.7173,巴音郭楞州,经济开发区,颗粒物(PM10),57,63,50,18,14,117,109,114,113,3,4,6,7,0.2,0.2
2023-05-02T21:00:00,1961A,117.532,36.6868,济南市,东山小学,颗粒物(PM10),61,71,92,24,29,186,105,168,155,37,15,6,10,0.5,0.5
2023-05-02T21:00:00,1966A,120.0405,35.8735,青岛市,黄岛区4号,颗粒物(PM10),52,53,85,9,24,185,121,179,145,6,10,5,7,0.5,0.6
2023-05-02T21:00:00,1982A,122.0693,37.2174,威海市,文登开发区,颗粒物(PM10),57,63,80,17,22,167,160,156,154,8,11,5,5,0.3,0.3
2023-05-02T21:00:00,2031A,113.1817,27.9958,株洲市,云田中学,颗粒物(PM10),63,75,77,44,36,128,91,111,105,9,8,10,9,0.5,0.5
2023-05-02T21:00:00,2054A,114.1099,32.1059,信阳市,平桥分局,,49,45,66,34,32,130,106,124,113,11,12,7,9,0.5,0.3
2023-05-02T21:00:00,2064A,113.9956,32.1271,信阳市,南湾水厂,颗粒物(PM10),51,51,69,27,24,141,96,137,117,8,7,6,7,0.7,0.6
2023-05-02T21:00:00,2065A,114.0775,32.1195,信阳市,市酿酒公司,颗粒物(PM10),68,86,57,39,32,131,111,125,116,14,19,8,9,0.7,0.5
2023-05-02T21:00:00,2066A,114.0609,32.1399,信阳市,审计局,颗粒物(PM10),74,98,67,39,35,132,111,128,119,13,18,7,8,0.7,0.4
2023-05-02T21:00:00,2067A,114.6613,33.6128,周口市,市环境监测站,颗粒物(PM10),66,82,89,38,37,142,101,130,124,14,13,5,8,0.5,0.4
2023-05-02T21:00:00,2068A,114.6758,33.6347,周口市,周口师范,颗粒物(PM10),64,77,99,36,38,135,102,126,121,13,13,9,12,0.5,0.4
2023-05-02T21:00:00,2069A,114.6546,33.5979,周口市,市运管处,颗粒物(PM10),65,80,86,29,28,141,100,129,123,13,15,9,11,0.5,0.4
2023-05-02T21:00:00,2070A,114.6369,33.6406,周口市,川汇区环保局,颗粒物(PM10),67,84,105,31,35,130,96,121,116,14,14,9,10,0.5,0.4
2023-05-02T21:00:00,2075A,117.6336,24.4674,漳州市,九湖,,,,,,,,,,,,,,,,
2023-05-02T21:00:00,2160A,112.85,35.5051,晋城市,自来水公司,颗粒物(PM10),61,71,70,27,26,193,167,170,170,17,16,14,12,0.7,0.7
2023-05-02T21:00:00,2161A,112.8318,35.4936,晋城市,白云商贸,,,,78,,24,181,149,159,159,17,14,7,8,,0.6
2023-05-02T21:00:00,2162A,112.8508,35.4887,晋城市,市环保局,颗粒物(PM10),65,80,77,29,30,189,160,165,165,20,18,11,10,0.6,0.5
2023-05-02T21:00:00,2163A,112.8676,35.4897,晋城市,技术学院,颗粒物(PM10),59,68,73,31,26,178,155,157,157,14,13,10,9,0.4,0.4
2023-05-02T21:00:00,2165A,112.8453,35.546,晋城市,白马寺,,,,,,,,,,,,,,,,
2023-05-02T21:00:00,2166A,112.4397,39.3522,朔州市,平朔,颗粒物(PM10),111,171,143,79,58,130,118,126,126,16,7,17,5,0.6,0.4
2023-05-02T21:00:00,2167A,112.4575,39.3617,朔州市,朔唯,颗粒物(PM10),114,178,146,68,48,132,119,128,128,19,14,15,9,0.7,0.5
2023-05-02T21:00:00,2168A,112.4258,39.3197,朔州市,区政府,颗粒物(PM10),112,174,143,53,38,132,130,128,128,10,6,5,4,0.6,0.4
2023-05-02T21:00:00,2169A,112.4072,39.3278,朔州市,市环保局,颗粒物(PM10),111,172,144,59,46,125,120,120,120,19,11,6,5,0.7,0.5
2023-05-02T21:00:00,2170A,112.4272,39.3681,朔州市,市二中,颗粒物(PM10),114,178,144,81,51,137,130,133,133,15,7,8,5,0.5,0.3
2023-05-02T21:00:00,2171A,112.7532,37.6945,晋中市,锦纶小区,臭氧1小时,83,97,104,35,35,196,186,188,188,20,19,16,12,0.8,0.4
2023-05-02T21:00:00,2173A,112.7249,37.7067,晋中市,南都小区,颗粒物(PM10),78,105,100,41,30,192,181,185,185,18,16,13,10,1.0,0.7
2023-05-02T21:00:00,2174A,112.6991,37.6982,晋中市,榆次区政府,颗粒物(PM10),79,107,102,31,27,179,173,172,172,18,17,15,14,0.9,0.8
2023-05-02T21:00:00,2175A,110.9956,35.0147,运城市,运城中学,颗粒物(PM10),70,90,75,33,33,185,171,164,164,10,6,10,8,0.6,0.4
2023-05-02T21:00:00,2178A,110.9686,35.0303,运城市,地区技校,颗粒物(PM10),76,102,87,25,22,189,178,166,166,12,13,9,6,0.6,0.5
2023-05-02T21:00:00,2179A,111.0414,35.1147,运城市,空港新区,,,107,97,30,31,163,,151,151,11,9,11,8,0.5,0.3
2023-05-02T21:00:00,2181A,112.7383,38.4519,忻州市,开发区,颗粒物(PM10),104,157,111,50,40,176,145,170,168,17,22,8,14,0.7,0.7
2023-05-02T21:00:00,2182A,112.7003,38.4928,忻州市,会展中心,颗粒物(PM10),102,153,116,47,44,164,117,157,152,24,28,6,11,0.5,0.6
2023-05-02T21:00:00,2183A,111.1406,37.5211,吕梁市,环保局,颗粒物(PM10),61,72,86,21,24,153,106,148,134,24,14,6,6,0.6,0.5
2023-05-02T21:00:00,2185A,111.1297,37.5136,吕梁市,自来水公司,颗粒物(PM10),64,77,101,25,22,147,115,135,132,20,35,9,8,0.4,0.5
2023-05-02T21:00:00,2187A,106.8174,39.6973,乌海市,市林业局,颗粒物(PM10),97,144,140,40,43,148,111,135,133,19,23,16,45,0.7,0.9
2023-05-02T21:00:00,2188A,106.7907,39.6667,乌海市,中海勃湾学校,颗粒物(PM10),97,143,148,40,36,150,119,138,136,20,29,14,40,0.4,0.7
2023-05-02T21:00:00,2191A,122.2532,43.6801,通辽市,艺术职业学校,颗粒物(PM10),182,313,313,53,61,187,183,171,171,17,18,6,9,0.7,0.6
2023-05-02T21:00:00,2192A,119.7594,49.2261,呼伦贝尔市,区环保局,颗粒物(PM10),400,500,317,70,47,179,87,131,117,4,7,4,5,0.2,0.2
2023-05-02T21:00:00,2195A,107.4212,40.761,巴彦淖尔市,附二中,,,148,119,,35,137,106,128,124,15,20,2,9,0.3,0.5
2023-05-02T21:00:00,2196A,107.37,40.7372,巴彦淖尔市,市环保大楼,颗粒物(PM10),119,188,132,51,41,135,114,127,124,5,17,2,9,0.3,0.7
2023-05-02T21:00:00,2197A,113.1306,40.9923,乌兰察布市,集宁新区,颗粒物(PM10),86,122,102,36,33,143,86,135,126,28,12,14,13,0.6,0.5
2023-05-02T21:00:00,2200A,122.0392,46.0656,兴安盟,胜华新制药厂,颗粒物(PM10),327,441,123,110,39,150,116,134,132,12,12,4,6,0.4,0.5
2023-05-02T21:00:00,2201A,121.9504,46.0741,兴安盟,科右前旗环保局,颗粒物(PM10),444,544,138,108,39,147,110,132,130,14,14,3,5,0.7,0.7
2023-05-02T21:00:00,2202A,116.1042,43.9317,锡林郭勒盟,市环保监测站,颗粒物(PM10),96,142,180,16,31,144,67,134,101,26,5,10,11,0.3,0.3
2023-05-02T21:00:00,2203A,116.0781,43.9311,锡林郭勒盟,市政府,颗粒物(PM10),111,171,177,24,34,149,40,138,94,58,10,8,8,0.2,0.3
2023-05-02T21:00:00,2204A,105.6467,38.8363,阿拉善盟,西城区西花园,颗粒物(PM10),98,146,101,35,37,145,120,134,134,11,9,9,9,0.5,0.4
2023-05-02T21:00:00,2205A,105.6985,38.8411,阿拉善盟,蒙二幼,颗粒物(PM10),99,147,116,39,42,160,133,154,151,8,7,10,10,0.6,0.5
2023-05-02T21:00:00,2206A,105.724,38.8516,阿拉善盟,环保局新楼,细颗粒物(PM2.5),84,99,83,62,49,167,141,155,155,8,6,8,8,0.4,0.5
2023-05-02T21:00:00,2207A,121.6094,41.998,阜新市,工业园区,颗粒物(PM10),95,140,291,32,33,202,159,185,185,12,13,13,13,0.5,0.6
2023-05-02T21:00:00,2208A,121.6697,42.0279,阜新市,长青街,颗粒物(PM10),79,107,217,24,34,211,161,192,191,14,17,10,15,0.6,0.6
2023-05-02T21:00:00,2209A,121.6673,42.0705,阜新市,农业园区,颗粒物(PM10),88,125,145,44,37,205,170,189,189,12,15,10,12,0.4,1.1
2023-05-02T21:00:00,2210A,121.6717,42.0224,阜新市,东苑,颗粒物(PM10),82,114,196,28,39,200,153,181,181,14,17,9,15,0.6,0.8
2023-05-02T21:00:00,2211A,121.6506,42.0498,阜新市,玉龙新城,颗粒物(PM10),245,381,182,28,33,202,147,184,183,11,12,11,12,,0.7
2023-05-02T21:00:00,2212A,123.2,41.1953,辽阳市,宏伟区,,49,49,41,18,14,162,145,152,152,10,10,11,11,0.4,0.4
2023-05-02T21:00:00,2213A,123.1683,41.2495,辽阳市,新华园,,44,44,52,24,19,152,133,142,142,8,8,11,11,0.4,0.4
2023-05-02T21:00:00,2214A,123.2354,41.2639,辽阳市,滨河路,颗粒物(PM10),56,62,51,22,19,141,126,132,132,12,12,6,6,0.3,0.3
2023-05-02T21:00:00,2215A,123.149,41.2991,辽阳市,铁西工业园,颗粒物(PM10),59,67,73,28,21,151,136,143,143,13,12,7,8,0.4,0.4
2023-05-02T21:00:00,2216A,123.8139,42.3022,铁岭市,汇工街西,颗粒物(PM10),54,58,74,24,31,162,139,156,155,13,12,11,11,0.6,0.6
2023-05-02T21:00:00,2217A,123.8649,42.2923,铁岭市,水上乐园,颗粒物(PM10),56,61,63,17,20,172,138,160,159,16,14,7,8,0.4,0.4
2023-05-02T21:00:00,2218A,123.8486,42.2867,铁岭市,银州路东段,颗粒物(PM10),58,66,62,19,16,160,134,151,150,13,13,10,9,0.6,0.5
2023-05-02T21:00:00,2219A,123.7153,42.2217,铁岭市,金沙江路北,颗粒物(PM10),57,64,73,23,18,160,137,155,153,17,16,13,9,0.5,0.5
2023-05-02T21:00:00,2220A,120.4318,41.5881,朝阳市,西梁,臭氧1小时,79,74,74,35,42,197,183,186,186,14,15,9,12,0.8,0.8
2023-05-02T21:00:00,2221A,120.4521,41.5646,朝阳市,河畔小区,臭氧1小时,97,75,90,26,29,211,197,199,199,11,12,11,14,0.7,0.8
2023-05-02T21:00:00,2222A,120.4176,41.5648,朝阳市,八里堡,臭氧1小时,84,76,85,28,36,200,187,192,192,11,15,12,14,0.8,0.8
2023-05-02T21:00:00,2223A,120.3806,41.5969,朝阳市,农业园区,臭氧1小时,72,87,92,35,39,196,177,186,186,19,17,13,13,0.9,0.8
2023-05-02T21:00:00,2225A,124.4002,43.1713,四平市,一商场,颗粒物(PM10),61,72,71,27,21,167,153,161,161,8,9,7,8,0.3,0.4
2023-05-02T21:00:00,2226A,124.388,43.193,四平市,境园,细颗粒物(PM2.5),98,71,76,73,24,168,150,160,160,8,10,6,7,0.2,0.3
2023-05-02T21:00:00,2227A,125.1358,42.8845,辽源市,环保局,臭氧1小时,53,33,36,19,18,162,162,154,154,4,11,7,8,0.4,0.5
2023-05-02T21:00:00,2229A,125.9358,41.7173,通化市,光明,颗粒物(PM10),53,56,44,22,18,163,156,153,153,6,24,13,17,0.5,0.7
2023-05-02T21:00:00,2230A,125.9446,41.7325,通化市,铁路,,50,50,50,22,20,157,154,147,147,9,27,6,16,0.3,0.5
2023-05-02T21:00:00,2231A,126.4219,41.9171,白山市,喜丰,颗粒物(PM10),52,53,79,14,23,138,137,130,130,9,25,10,15,1.1,1.3
2023-05-02T21:00:00,2232A,126.4077,41.9419,白山市,环保局,颗粒物(PM10),59,68,67,20,20,153,138,142,142,9,20,12,13,0.6,0.6
2023-05-02T21:00:00,2233A,124.8006,45.1214,松原市,江南,颗粒物(PM10),500,706,303,87,58,168,166,159,159,6,9,7,7,0.4,0.4
2023-05-02T21:00:00,2234A,124.7965,45.1722,松原市,江北,颗粒物(PM10),500,794,365,79,54,162,159,154,154,11,12,1,5,0.5,0.5
2023-05-02T21:00:00,2235A,122.7911,45.6077,白城市,洮北区环保局,颗粒物(PM10),500,1035,385,128,50,158,152,156,156,8,11,5,3,0.2,0.3
2023-05-02T21:00:00,2236A,122.8738,45.5725,白城市,市环保局,颗粒物(PM10),500,762,363,111,60,159,152,154,154,6,8,5,6,0.5,0.5
2023-05-02T21:00:00,2237A,129.47,42.8883,延边朝鲜族自治州,妇幼医院,颗粒物(PM10),51,51,28,18,14,129,66,118,100,24,15,8,7,0.7,0.6
2023-05-02T21:00:00,2238A,129.5055,42.9108,延边朝鲜族自治州,延边医院,,45,45,34,18,15,119,65,110,97,28,20,8,8,0.6,0.5
2023-05-02T21:00:00,2239A,129.3964,42.8881,延边朝鲜族自治州,朝阳川镇医院,,41,41,30,23,12,127,77,115,103,17,13,8,7,0.6,0.5
2023-05-02T21:00:00,2240A,130.9762,45.3001,鸡西市,环保局,,47,47,37,16,16,118,114,113,113,10,16,6,5,0.4,0.5
2023-05-02T21:00:00,2243A,130.9429,45.3039,鸡西市,第一中学,,45,45,28,19,13,122,114,116,116,2,4,4,4,0.4,0.3
2023-05-02T21:00:00,2244A,130.2537,47.3416,鹤岗市,哈啤分公司,,34,34,39,17,15,144,107,131,130,19,14,10,11,0.3,0.3
2023-05-02T21:00:00,2245A,130.2684,47.3086,鹤岗市,斯达机电,,38,38,51,18,18,138,105,129,127,16,13,7,7,0.4,0.3
2023-05-02T21:00:00,2246A,130.3114,47.3388,鹤岗市,东山纸板厂,,47,47,62,23,18,127,86,117,114,21,17,8,8,0.4,0.3
2023-05-02T21:00:00,2247A,130.1097,47.3382,鹤岗市,五号水库,,32,31,32,12,13,159,102,143,139,10,8,9,9,0.1,0.1
2023-05-02T21:00:00,2248A,131.1511,46.6937,双鸭山市,双合村,,46,46,48,18,20,137,128,134,133,8,10,9,11,0.8,0.8
2023-05-02T21:00:00,2249A,131.1652,46.6191,双鸭山市,南小市,,40,39,40,17,14,135,127,131,131,8,9,3,4,0.5,0.5
2023-05-02T21:00:00,2250A,131.1524,46.6554,双鸭山市,环保局,,40,37,28,20,17,136,128,130,130,7,9,6,7,0.4,0.5
2023-05-02T21:00:00,2251A,131.12,46.5656,双鸭山市,苗圃,,43,20,19,10,13,154,137,150,148,5,7,3,4,0.2,0.3
2023-05-02T21:00:00,2252A,128.5159,47.4311,伊春市,环保局,,41,36,40,16,20,173,129,162,151,8,10,4,7,0.3,0.4
2023-05-02T21:00:00,2253A,128.9102,47.7412,伊春市,电力嘉园,,42,42,47,19,18,175,127,164,152,7,9,6,8,0.6,0.6
2023-05-02T21:00:00,2254A,129.5029,48.471,伊春市,汤旺河国家公园,,39,27,25,26,19,154,123,152,137,5,4,5,5,0.8,0.7
2023-05-02T21:00:00,2255A,130.2751,46.8028,佳木斯市,佳纺,,39,39,28,12,14,132,123,126,124,4,6,4,4,0.3,0.4
2023-05-02T21:00:00,2256A,130.3995,46.8307,佳木斯市,发电厂,,44,44,34,14,15,130,121,122,120,10,13,5,6,0.3,0.4
2023-05-02T21:00:00,2257A,130.3258,46.7975,佳木斯市,环保局,,37,35,28,15,14,126,118,121,119,7,9,5,4,0.3,0.4
2023-05-02T21:00:00,2258A,130.3648,46.8032,佳木斯市,十一中,颗粒物(PM10),51,51,34,16,16,124,119,118,116,9,14,7,7,0.4,0.4
2023-05-02T21:00:00,2259A,130.3794,46.7588,佳木斯市,四丰,,50,30,25,14,12,172,160,165,162,4,5,1,1,0.2,0.2
2023-05-02T21:00:00,2262A,131.0518,45.8751,七台河市,新一中,,47,47,33,20,17,145,125,141,140,9,8,8,8,0.7,0.7
2023-05-02T21:00:00,2263A,127.4833,50.2524,黑河市,交通局,,49,49,45,22,15,148,95,134,128,13,13,10,8,0.6,0.6
2023-05-02T21:00:00,2264A,127.5144,50.2341,黑河市,环保局,颗粒物(PM10),60,69,63,25,17,155,107,140,135,12,13,4,5,0.6,0.5
2023-05-02T21:00:00,2265A,127.5291,50.2472,黑河市,大黑河岛,颗粒物(PM10),56,62,39,33,19,333,126,229,184,4,3,6,3,0.5,0.4
2023-05-02T21:00:00,2266A,126.9785,46.6365,绥化市,人和东街,颗粒物(PM10),344,455,104,50,24,151,142,140,140,10,13,7,11,0.5,0.4
2023-05-02T21:00:00,2267A,126.964,46.6528,绥化市,党政办公中心,颗粒物(PM10),320,436,103,68,33,167,156,153,153,6,8,6,7,0.5,0.4
2023-05-02T21:00:00,2269A,124.1069,50.4097,大兴安岭地区,科技局,颗粒物(PM10),87,124,70,26,14,132,114,123,123,11,11,6,5,0.4,0.4
2023-05-02T21:00:00,2270A,117.396,32.939,蚌埠市,工人疗养院,颗粒物(PM10),52,53,64,25,27,163,116,156,141,18,20,8,9,0.5,0.5
2023-05-02T21:00:00,2271A,117.3605,32.9427,蚌埠市,百货大楼,颗粒物(PM10),53,56,67,19,27,161,113,155,140,11,13,5,6,0.4,0.4
2023-05-02T21:00:00,2273A,117.4185,32.8911,蚌埠市,蚌埠学院,颗粒物(PM10),57,63,79,27,26,149,103,143,126,11,15,7,9,0.4,0.5
2023-05-02T21:00:00,2274A,117.3533,32.9673,蚌埠市,淮上区政府,颗粒物(PM10),64,78,73,27,27,164,113,154,140,11,12,6,8,0.4,0.4
2023-05-02T21:00:00,2275A,117.3145,32.8977,蚌埠市,高新区,颗粒物(PM10),62,73,75,34,26,159,107,152,136,12,10,7,8,0.5,0.5
2023-05-02T21:00:00,2277A,116.8305,32.7727,淮南市,潘集区政府,细颗粒物(PM2.5),62,66,76,44,38,157,92,140,118,15,17,7,9,0.2,0.3
2023-05-02T21:00:00,2278A,117.0067,32.6524,淮南市,师范学院,细颗粒物(PM2.5),74,73,80,54,30,158,95,145,125,17,13,8,8,0.3,0.3
2023-05-02T21:00:00,2279A,116.8569,32.5951,淮南市,谢家集区政府,颗粒物(PM10),58,66,71,27,27,163,94,145,119,19,17,8,8,0.3,0.3
2023-05-02T21:00:00,2280A,116.8281,32.633,淮南市,八公山区政府,颗粒物(PM10),61,71,80,34,27,156,95,139,117,16,16,8,10,0.3,0.3
2023-05-02T21:00:00,2281A,116.6325,32.6201,淮南市,焦岗湖风景区管理处,细颗粒物(PM2.5),54,51,57,38,25,141,72,124,101,22,17,10,12,0.2,0.3
2023-05-02T21:00:00,2282A,116.8004,33.975,淮北市,监测站,颗粒物(PM10),73,95,90,26,30,171,127,154,149,20,22,6,10,0.6,0.6
2023-05-02T21:00:00,2283A,116.8091,33.9007,淮北市,烈山区政府,颗粒物(PM10),71,91,88,31,33,169,123,156,150,28,23,11,13,0.5,0.7
2023-05-02T21:00:00,2284A,116.7856,33.9477,淮北市,职业技术学院,颗粒物(PM10),77,104,95,30,36,163,134,151,148,19,21,7,9,0.6,0.6
2023-05-02T21:00:00,2285A,117.8177,30.9412,铜陵市,市第四中学,颗粒物(PM10),66,81,65,2,24,138,44,128,111,57,30,6,7,1.0,0.6
2023-05-02T21:00:00,2286A,117.8059,30.9273,铜陵市,市公路局,颗粒物(PM10),67,83,60,38,27,128,58,118,105,47,31,10,12,1.2,0.8
2023-05-02T21:00:00,2287A,117.7807,30.9413,铜陵市,市新民污水厂,颗粒物(PM10),72,94,58,38,24,152,39,130,109,44,44,10,10,0.9,0.5
2023-05-02T21:00:00,2288A,117.7439,30.8792,铜陵市,市第九中学,颗粒物(PM10),91,131,90,25,24,140,70,122,108,51,65,9,8,0.7,0.6
2023-05-02T21:00:00,2289A,117.846,30.9413,铜陵市,车站新区,颗粒物(PM10),57,64,48,25,19,140,83,129,119,35,24,9,10,0.7,0.6
2023-05-02T21:00:00,2290A,117.8483,30.97,铜陵市,市职教基地,颗粒物(PM10),71,92,53,41,17,137,83,125,119,26,18,7,8,0.8,0.6
2023-05-02T21:00:00,2291A,117.0809,30.5177,安庆市,环科院,,50,50,60,32,32,127,67,119,103,32,47,7,8,0.6,0.5
2023-05-02T21:00:00,2292A,117.0331,30.5119,安庆市,马山宾馆,颗粒物(PM10),54,57,62,32,31,128,80,121,106,15,44,14,11,0.6,0.6
2023-05-02T21:00:00,2294A,116.9896,30.6145,安庆市,安庆大学,颗粒物(PM10),61,71,64,36,28,134,66,127,107,34,21,12,12,0.4,0.4
2023-05-02T21:00:00,2295A,118.2903,29.6963,黄山市,延安路89号,,48,36,42,33,27,141,68,128,114,30,12,8,7,0.4,0.3
2023-05-02T21:00:00,2296A,118.327,29.7178,黄山市,黄山东路89号,颗粒物(PM10),51,52,38,35,21,135,37,126,101,34,14,8,7,0.9,0.6
2023-05-02T21:00:00,2297A,118.1371,30.2756,黄山市,黄山区政府5号楼,颗粒物(PM10),55,60,44,30,19,126,54,121,107,17,9,6,6,0.8,0.6
2023-05-02T21:00:00,2298A,118.3093,32.3153,滁州市,老年大学,颗粒物(PM10),57,64,65,29,26,170,135,163,155,24,20,7,8,0.4,0.5
2023-05-02T21:00:00,2299A,118.3244,32.2786,滁州市,人大宾馆,颗粒物(PM10),53,55,67,30,31,172,140,164,157,24,24,7,8,0.4,0.5
2023-05-02T21:00:00,2301A,115.8277,32.8929,阜阳市,市监测站,,50,50,69,26,28,125,81,119,107,19,22,7,8,0.5,0.4
2023-05-02T21:00:00,2303A,115.8554,32.8605,阜阳市,开发区,颗粒物(PM10),54,57,77,25,25,140,83,130,119,21,19,8,9,0.4,0.5
2023-05-02T21:00:00,2307A,116.5079,31.737,六安市,监测大楼,,49,49,52,19,22,118,97,116,102,9,11,5,5,0.3,0.2
2023-05-02T21:00:00,2308A,116.4738,31.7643,六安市,皖西学院,颗粒物(PM10),52,54,60,23,19,120,100,110,105,9,11,6,6,0.3,0.2
2023-05-02T21:00:00,2309A,116.4996,31.7905,六安市,朝阳厂,,45,37,48,31,18,128,100,117,107,11,13,6,6,0.4,0.3
2023-05-02T21:00:00,2310A,116.5567,31.7886,六安市,开发区,颗粒物(PM10),59,68,76,31,28,121,83,111,100,22,19,11,20,0.5,0.4
2023-05-02T21:00:00,2311A,115.8072,33.8399,亳州市,污水处理厂,颗粒物(PM10),68,85,73,34,29,164,127,149,147,10,11,9,8,0.5,0.4
2023-05-02T21:00:00,2312A,115.7789,33.8518,亳州市,三国揽胜宫,颗粒物(PM10),76,101,80,35,27,149,119,137,137,14,13,8,8,0.6,0.5
2023-05-02T21:00:00,2314A,117.47,30.6618,池州市,池州学院,颗粒物(PM10),63,75,63,40,30,160,109,150,143,24,24,7,7,0.6,0.7
2023-05-02T21:00:00,2316A,118.7581,30.9454,宣城市,鳌峰子站,颗粒物(PM10),59,67,64,25,28,115,91,111,104,12,12,3,4,0.5,0.4
2023-05-02T21:00:00,2317A,118.7385,30.9743,宣城市,敬亭山子站,细颗粒物(PM2.5),55,42,62,39,32,121,79,114,97,17,18,5,7,0.4,0.3
2023-05-02T21:00:00,2318A,118.7173,30.9427,宣城市,开发区子站,,43,43,60,23,26,122,86,113,101,11,13,4,8,0.5,0.5
2023-05-02T21:00:00,2319A,119.0141,25.4325,莆田市,荔城区仓后路,,,42,39,31,19,133,,125,116,16,12,7,6,1.0,0.7
2023-05-02T21:00:00,2320A,119.0015,25.4553,莆田市,莆田市监测站,,46,37,31,32,21,135,79,124,115,15,8,11,9,0.9,0.5
2023-05-02T21:00:00,2321A,119.1119,25.4561,莆田市,涵江区六中,,48,44,38,33,22,133,74,119,108,19,11,8,7,0.9,0.6
2023-05-02T21:00:00,2322A,119.1013,25.3215,莆田市,秀屿区政府,,33,22,36,23,21,141,95,122,114,8,10,9,7,0.7,0.6
2023-05-02T21:00:00,2323A,118.981,25.4792,莆田市,东圳水库,,,,,,,,,,,,,,,,
2023-05-02T21:00:00,2324A,117.6211,26.2625,三明市,三钢,颗粒物(PM10),55,59,36,23,19,136,48,126,112,43,17,10,10,0.6,0.4
2023-05-02T21:00:00,2325A,117.635,26.2714,三明市,三明二中,,28,17,31,19,17,135,75,125,116,22,17,9,8,0.5,0.4
2023-05-02T21:00:00,2326A,117.6028,26.2378,三明市,三元区政府,细颗粒物(PM2.5),64,45,38,46,20,139,41,130,116,47,18,10,11,1.0,0.6
2023-05-02T21:00:00,2327A,117.7275,26.3108,三明市,洋溪,,,,,,,,,,,,,,,,
2023-05-02T21:00:00,2331A,118.0966,26.6761,南平市,茫荡山,,,,,,,,,,,,,,,,
2023-05-02T21:00:00,2332A,118.1681,26.6369,南平市,南平市监测站,,42,38,29,29,17,130,40,107,88,26,9,4,4,1.1,0.5
2023-05-02T21:00:00,2333A,118.1825,26.6489,南平市,南平铝业有限公司,,32,29,29,22,17,142,58,108,92,18,11,8,6,0.8,0.6
2023-05-02T21:00:00,2334A,118.1756,26.6272,南平市,南平七中,,43,26,29,30,15,145,53,110,93,21,10,7,5,0.7,0.4
2023-05-02T21:00:00,2335A,117.0189,25.1181,龙岩市,龙岩师专,,,,,,,,,,,,,,,,
2023-05-02T21:00:00,2336A,117.0217,25.1033,龙岩市,龙岩市监测站,,39,38,48,24,21,146,124,134,127,21,26,18,13,0.5,0.4
2023-05-02T21:00:00,2337A,117.0258,25.0661,龙岩市,闽西职业技术学院,,37,36,51,20,18,142,117,126,123,18,26,20,20,0.4,0.4
2023-05-02T21:00:00,2338A,117.0196,25.0306,龙岩市,龙岩学院,,33,33,43,20,18,138,93,120,115,17,18,4,8,0.4,0.4
2023-05-02T21:00:00,2339A,119.5001,26.6946,宁德市,金涵水库,,,,,,,,,,,,,,,,
2023-05-02T21:00:00,2341A,119.5388,26.6612,宁德市,宁德市监测站,颗粒物(PM10),65,80,37,44,22,123,23,101,69,57,18,4,3,0.6,0.4
2023-05-02T21:00:00,2342A,117.3102,29.3867,景德镇市,王港中学,颗粒物(PM10),58,65,42,40,19,76,46,62,46,17,16,10,9,0.6,0.3
2023-05-02T21:00:00,2343A,117.2117,29.2933,景德镇市,老干部活动中心,细颗粒物(PM2.5),68,72,64,49,29,124,65,117,105,22,15,8,6,0.6,0.4
2023-05-02T21:00:00,2344A,117.1894,29.2789,景德镇市,兽医站,颗粒物(PM10),52,54,48,18,24,136,76,129,115,23,16,7,6,0.7,0.6
2023-05-02T21:00:00,2345A,117.1547,29.2617,景德镇市,台达陶瓷,颗粒物(PM10),52,54,47,32,23,119,63,113,97,30,21,36,18,0.7,0.5
2023-05-02T21:00:00,2346A,117.2461,29.2956,景德镇市,陶研所,颗粒物(PM10),51,52,52,24,21,128,74,123,109,7,8,4,6,0.4,0.3
2023-05-02T21:00:00,2347A,114.0997,27.5002,萍乡市,武功山,,33,30,41,23,22,88,48,68,59,8,6,19,17,0.8,0.6
2023-05-02T21:00:00,2348A,113.8385,27.6434,萍乡市,中医院,细颗粒物(PM2.5),73,79,84,53,42,95,56,87,80,23,24,14,19,0.8,0.8
2023-05-02T21:00:00,2349A,113.8493,27.6253,萍乡市,市政府车库,颗粒物(PM10),82,113,103,58,47,101,49,87,80,26,29,21,27,0.8,1.6
2023-05-02T21:00:00,2350A,113.8676,27.6435,萍乡市,市环保局,,,,97,,46,91,,82,82,22,27,18,27,0.6,0.6
2023-05-02T21:00:00,2351A,113.866,27.6198,萍乡市,安源区政府,细颗粒物(PM2.5),73,91,93,53,49,90,50,79,74,28,27,24,23,0.9,1.2
2023-05-02T21:00:00,2352A,115.0861,27.9317,新余市,北岗,,45,40,63,31,36,93,54,74,73,19,14,6,18,0.7,0.6
2023-05-02T21:00:00,2353A,114.9886,27.8431,新余市,飞宇,颗粒物(PM10),54,57,122,29,40,96,84,87,87,12,20,3,7,0.6,0.5
2023-05-02T21:00:00,2354A,114.9231,27.8246,新余市,第二水厂,颗粒物(PM10),70,90,100,41,38,92,79,82,82,19,28,10,14,0.5,0.6
2023-05-02T21:00:00,2355A,114.9308,27.8036,新余市,市气象局,颗粒物(PM10),52,53,83,28,36,113,94,100,100,8,20,7,13,0.6,0.7
2023-05-02T21:00:00,2357A,116.9822,28.1136,鹰潭市,龙虎山,,37,37,48,18,19,122,100,116,112,1,3,2,2,0.3,0.3
2023-05-02T21:00:00,2358A,117.0564,28.2642,鹰潭市,新监测站,细颗粒物(PM2.5),59,65,64,42,29,154,87,138,121,22,20,3,35,0.5,0.8
2023-05-02T21:00:00,2359A,117.0311,28.2475,鹰潭市,财苑宾馆,,50,38,58,35,22,260,91,135,126,18,17,8,24,0.3,0.4
2023-05-02T21:00:00,2360A,117.0222,28.2264,鹰潭市,体育馆,,48,48,44,21,16,154,96,128,123,7,7,1,4,0.2,0.1
2023-05-02T21:00:00,2361A,117.0017,28.2131,鹰潭市,三川水表,,33,25,44,13,19,146,103,125,121,2,9,2,3,0.1,0.2
2023-05-02T21:00:00,2362A,114.9017,25.9149,赣州市,通天岩,,41,41,62,22,30,127,57,113,99,36,16,19,10,1.8,1.7
2023-05-02T21:00:00,2363A,114.9367,25.8664,赣州市,地委,颗粒物(PM10),54,57,73,34,33,123,70,113,97,18,24,11,11,1.2,1.1
2023-05-02T21:00:00,2364A,114.9461,25.8481,赣州市,气象台,,42,40,60,29,27,112,74,105,96,11,26,7,8,0.6,0.7
2023-05-02T21:00:00,2365A,114.9322,25.8333,赣州市,市图书馆,,44,44,68,17,28,126,81,118,103,15,32,3,6,0.8,1.2
2023-05-02T21:00:00,2366A,114.8905,25.8471,赣州市,华坚鞋城,颗粒物(PM10),60,69,82,32,34,125,71,111,98,22,26,19,17,0.7,0.7
2023-05-02T21:00:00,2367A,114.9754,27.0803,吉安市,红声器材厂,,49,49,77,31,34,118,95,108,108,9,16,10,13,0.6,0.6
2023-05-02T21:00:00,2368A,114.9658,27.0999,吉安市,市森林工业局,,41,41,73,27,38,111,91,101,101,7,19,8,11,0.3,0.4
2023-05-02T21:00:00,2369A,114.99,27.1312,吉安市,市环境监测站,,50,50,71,30,33,117,91,105,105,14,19,11,12,0.5,0.6
2023-05-02T21:00:00,2370A,115.0093,27.0968,吉安市,青原区法院,,50,50,67,29,33,121,97,109,109,12,16,13,15,0.8,0.8
2023-05-02T21:00:00,2371A,114.3408,27.8064,宜春市,槟榔水业,颗粒物(PM10),70,90,86,46,40,72,42,56,50,16,16,8,9,0.9,0.7
2023-05-02T21:00:00,2373A,114.3956,27.7844,宜春市,市石油公司,颗粒物(PM10),70,90,86,48,37,115,53,88,84,25,20,5,8,0.8,0.7
2023-05-02T21:00:00,2374A,114.3703,27.7914,宜春市,市气象局,颗粒物(PM10),77,103,90,55,37,120,64,93,89,29,24,9,10,0.9,0.8
2023-05-02T21:00:00,2375A,114.4013,27.8074,宜春市,市广电局,细颗粒物(PM2.5),75,92,86,55,36,122,69,93,90,20,19,14,16,0.7,0.7
2023-05-02T21:00:00,2376A,116.2127,28.0814,抚州市,桐源党溪,细颗粒物(PM2.5),75,57,43,55,21,125,68,118,98,7,4,3,2,1.1,1
2023-05-02T21:00:00,2377A,116.3544,27.9831,抚州市,市站,颗粒物(PM10),55,59,57,26,27,115,90,110,103,14,13,8,11,0.5,0.6
2023-05-02T21:00:00,2378A,116.3565,27.963,抚州市,血防站,颗粒物(PM10),52,54,52,24,21,117,93,113,108,9,11,5,6,0.7,0.7
