timepoint,stationcode,longitude,latitude,area,positionname,primarypollutant,aqi,pm10,pm10_24h,pm2_5,pm2_5_24h,o3,o3_24h,o3_8h,o3_8h_24h,no2,no2_24h,so2,so2_24h,co,co_24h
2023-05-02T20:00:00,1001A,116.3621,39.8784,北京市,万寿西宫,颗粒物(PM10),72,94,99,31,41,170,134,154,154,2,25,2,3,0.6,0.7
2023-05-02T20:00:00,1002A,116.2202,40.2915,北京市,定陵,颗粒物(PM10),72,93,99,26,40,202,167,181,181,13,14,3,4,0.5,0.6
2023-05-02T20:00:00,1003A,116.4174,39.9289,北京市,东四,颗粒物(PM10),70,89,99,24,36,200,159,182,182,21,26,3,5,0.3,0.6
2023-05-02T20:00:00,1004A,116.4072,39.8863,北京市,天坛,颗粒物(PM10),67,83,96,27,41,191,150,175,175,16,27,2,4,0.4,0.6
2023-05-02T20:00:00,1005A,116.462,39.9365,北京市,农展馆,颗粒物(PM10),71,91,105,24,43,186,152,170,170,20,30,3,5,0.4,0.6
2023-05-02T20:00:00,1006A,116.3392,39.9295,北京市,官园,颗粒物(PM10),74,98,99,32,44,175,151,158,158,16,26,3,5,0.5,0.9
2023-05-02T20:00:00,1007A,116.2878,39.9611,北京市,海淀万柳,颗粒物(PM10),70,90,105,24,44,151,131,136,136,21,31,1,2,0.5,0.6
2023-05-02T20:00:00,1008A,116.6636,40.135,北京市,顺义新城,颗粒物(PM10),92,133,111,39,43,196,154,179,179,23,18,5,6,0.5,0.7
2023-05-02T20:00:00,1009A,116.6275,40.3275,北京市,怀柔镇,颗粒物(PM10),84,117,94,36,40,203,164,182,182,27,22,5,5,0.5,0.5
2023-05-02T20:00:00,1010A,116.2296,40.217,北京市,昌平镇,颗粒物(PM10),74,98,103,27,45,203,172,182,182,12,13,5,5,0.5,0.6
2023-05-02T20:00:00,1011A,116.3966,39.9821,北京市,奥体中心,颗粒物(PM10),67,83,102,27,40,174,149,159,159,16,32,2,3,0.4,0.6
2023-05-02T20:00:00,1012A,116.184,39.9136,北京市,古城,,,,,,,,,,,,,,,,
2023-05-02T20:00:00,1015A,117.1444,39.1661,天津市,勤俭道,颗粒物(PM10),86,121,107,50,40,189,143,175,174,18,19,9,10,0.4,0.4
2023-05-02T20:00:00,1017A,117.237,39.1082,天津市,大直沽八号路,颗粒物(PM10),77,104,103,31,34,168,133,158,157,16,23,9,11,0.4,0.5
2023-05-02T20:00:00,1018A,117.202,39.0927,天津市,前进道,颗粒物(PM10),67,84,89,33,32,172,131,162,160,23,25,6,7,0.2,0.2
2023-05-02T20:00:00,1019A,117.1837,39.2133,天津市,淮河道,颗粒物(PM10),72,93,106,34,40,184,149,172,172,17,23,8,11,0.4,0.5
2023-05-02T20:00:00,1021A,117.307,39.0877,天津市,跃进路,颗粒物(PM10),71,92,101,33,33,177,126,164,162,28,31,7,9,0.4,0.7
2023-05-02T20:00:00,1023A,117.707,39.0343,天津市,第四大街,颗粒物(PM10),76,101,111,31,34,162,114,146,146,54,56,12,15,0.6,0.7
2023-05-02T20:00:00,1024A,117.457,38.8394,天津市,永明路,颗粒物(PM10),70,89,85,29,26,151,133,142,142,22,28,10,10,0.5,0.5
2023-05-02T20:00:00,1026A,117.764,39.1587,天津市,汉北路,颗粒物(PM10),61,72,79,41,33,181,150,156,156,33,35,9,11,0.6,0.7
2023-05-02T20:00:00,1027A,117.157,38.9194,天津市,团泊洼,颗粒物(PM10),65,80,80,27,25,168,128,158,156,26,27,4,6,0.4,0.5
2023-05-02T20:00:00,1029A,114.4422,38.0444,石家庄市,职工医院,颗粒物(PM10),72,93,92,44,39,180,130,159,157,14,23,8,10,0.4,0.6
2023-05-02T20:00:00,1030A,114.6063,38.0266,石家庄市,高新区,颗粒物(PM10),61,72,88,40,41,171,136,153,153,8,16,7,10,0.6,0.8
2023-05-02T20:00:00,1031A,114.4898,38.1328,石家庄市,西北水源,颗粒物(PM10),80,109,117,32,42,180,137,163,163,15,28,8,9,0.5,0.6
2023-05-02T20:00:00,1032A,114.4586,38.0058,石家庄市,西南高教,颗粒物(PM10),70,90,94,16,41,185,129,156,156,16,23,4,8,0.5,0.7
2023-05-02T20:00:00,1033A,114.5331,38.0178,石家庄市,世纪公园,细颗粒物(PM2.5),162,78,82,123,47,168,126,146,146,,18,7,8,0.6,0.8
2023-05-02T20:00:00,1034A,114.509,38.0457,石家庄市,人民会堂,颗粒物(PM10),77,104,104,19,27,177,132,156,156,12,21,6,9,0.5,0.6
2023-05-02T20:00:00,1035A,114.3524,37.8911,石家庄市,封龙山,细颗粒物(PM2.5),87,99,136,64,34,172,131,147,147,17,12,17,16,0.5,0.7
2023-05-02T20:00:00,1037A,118.131,39.6363,唐山市,雷达站,颗粒物(PM10),87,123,105,46,43,201,170,185,185,30,28,9,10,0.8,0.9
2023-05-02T20:00:00,1038A,118.1725,39.6334,唐山市,物资局,颗粒物(PM10),90,130,110,40,43,195,146,175,175,39,29,11,12,1.1,1.1
2023-05-02T20:00:00,1040A,118.1705,39.6506,唐山市,十二中,颗粒物(PM10),85,119,97,48,47,198,155,179,179,28,24,11,12,1.1,1.2
2023-05-02T20:00:00,1041A,118.1869,39.622,唐山市,小山,,,,,,,,,,,,,,,,
2023-05-02T20:00:00,1042A,119.5134,39.8207,秦皇岛市,北戴河环保局,颗粒物(PM10),63,76,75,23,34,161,138,151,151,12,19,2,2,0.4,0.5
2023-05-02T20:00:00,1043A,119.7493,40.0116,秦皇岛市,第一关,颗粒物(PM10),65,80,85,45,35,193,151,181,179,28,39,1,2,0.4,0.5
2023-05-02T20:00:00,1044A,119.5897,39.9499,秦皇岛市,监测站,颗粒物(PM10),63,76,84,39,36,192,159,178,178,15,23,1,2,0.3,0.5
2023-05-02T20:00:00,1046A,119.5251,39.9041,秦皇岛市,建设大厦,颗粒物(PM10),66,82,89,25,26,195,162,180,180,10,30,4,6,0.3,0.5
2023-05-02T20:00:00,1048A,114.5302,36.6116,邯郸市,东污水处理厂,颗粒物(PM10),70,89,91,29,28,139,106,130,130,22,15,6,9,0.4,0.4
2023-05-02T20:00:00,1049A,114.4918,36.5713,邯郸市,矿院,颗粒物(PM10),66,82,72,29,32,139,110,130,130,15,13,27,14,0.4,0.4
2023-05-02T20:00:00,1050A,114.484,36.6133,邯郸市,丛台公园,颗粒物(PM10),65,79,83,26,30,141,119,134,134,12,13,16,11,0.4,0.4
2023-05-02T20:00:00,1051A,115.493,38.8632,保定市,游泳馆,颗粒物(PM10),72,94,88,37,43,180,140,167,167,15,17,8,12,0.2,0.2
2023-05-02T20:00:00,1052A,115.5213,38.8959,保定市,华电二区,颗粒物(PM10),68,86,84,37,47,170,138,159,159,12,16,14,11,0.4,0.4
2023-05-02T20:00:00,1053A,115.4713,38.9108,保定市,接待中心,颗粒物(PM10),61,71,78,30,41,171,132,156,156,8,8,8,11,0.3,0.4
2023-05-02T20:00:00,1054A,115.4612,38.8416,保定市,地表水厂,颗粒物(PM10),83,115,100,31,27,166,115,150,150,28,21,10,12,0.1,0.2
2023-05-02T20:00:00,1056A,115.5086,38.8639,保定市,监测站,细颗粒物(PM2.5),84,94,96,62,42,182,139,168,168,16,22,13,13,0.4,0.5
2023-05-02T20:00:00,1057A,114.8883,40.8336,张家口市,人民公园,细颗粒物(PM2.5),79,104,99,58,30,169,158,157,157,12,11,6,5,0.5,0.4
2023-05-02T20:00:00,1059A,114.8687,40.8042,张家口市,五金库,颗粒物(PM10),87,123,105,42,38,168,161,160,160,21,17,4,5,0.4,0.5
2023-05-02T20:00:00,1060A,114.8902,40.762,张家口市,世纪豪园,颗粒物(PM10),86,122,107,57,52,170,161,159,159,13,10,8,7,0.6,0.5
2023-05-02T20:00:00,1061A,114.8916,40.8661,张家口市,北泵房,颗粒物(PM10),77,103,93,42,37,180,167,168,168,11,12,10,10,0.6,0.6
2023-05-02T20:00:00,1062A,117.9531,40.9081,承德市,铁路,颗粒物(PM10),77,104,88,36,35,177,177,161,161,19,21,12,14,0.4,0.7
2023-05-02T20:00:00,1063A,117.9392,40.9763,承德市,中国银行,,,96,92,39,39,181,181,168,168,,18,9,11,,0.8
2023-05-02T20:00:00,1064A,117.9503,40.928,承德市,开发区,臭氧1小时,73,88,88,38,35,178,178,169,169,23,22,10,13,0.6,0.8
2023-05-02T20:00:00,1065A,117.8051,40.9655,承德市,文化中心,,,89,91,50,45,176,176,163,163,10,13,,14,,0.7
2023-05-02T20:00:00,1066A,117.9268,41.0026,承德市,离宫,颗粒物(PM10),66,82,78,38,37,175,140,164,163,14,14,6,7,0.4,0.7
2023-05-02T20:00:00,1067A,116.6708,39.5111,廊坊市,药材公司,颗粒物(PM10),70,89,100,36,33,178,144,167,167,17,22,4,7,0.3,0.4
2023-05-02T20:00:00,1068A,116.7214,39.5589,廊坊市,开发区,颗粒物(PM10),74,98,103,44,46,182,149,173,172,23,30,7,10,0.5,0.6
2023-05-02T20:00:00,1070A,116.7244,39.5269,廊坊市,北华航天学院,颗粒物(PM10),73,95,105,46,43,174,140,164,163,19,27,7,10,0.4,0.4
2023-05-02T20:00:00,1071A,116.8842,38.2991,沧州市,沧县城建局,颗粒物(PM10),70,90,90,30,26,165,119,150,149,34,21,7,7,0.3,0.4
2023-05-02T20:00:00,1072A,116.8584,38.3254,沧州市,电视转播站,颗粒物(PM10),67,84,91,24,29,164,128,151,151,26,20,13,12,0.5,0.4
2023-05-02T20:00:00,1073A,116.8709,38.3228,沧州市,市环保局,颗粒物(PM10),68,85,76,37,33,166,136,152,152,28,21,9,9,0.3,0.3
2023-05-02T20:00:00,1074A,115.6838,37.7541,衡水市,电机北厂,,,95,96,33,25,168,160,161,161,,11,4,4,0.4,0.2
2023-05-02T20:00:00,1075A,115.6303,37.7316,衡水市,市监测站,颗粒物(PM10),75,100,93,53,34,163,154,156,156,12,9,8,8,0.4,0.4
2023-05-02T20:00:00,1077A,114.4704,37.0886,邢台市,达活泉,颗粒物(PM10),69,87,94,46,31,160,122,146,145,18,16,10,14,0.5,0.6
2023-05-02T20:00:00,1078A,114.5062,37.0349,邢台市,邢师高专,颗粒物(PM10),60,69,82,30,30,149,112,137,137,16,13,6,9,0.4,0.5
2023-05-02T20:00:00,1079A,114.5237,37.0851,邢台市,路桥公司,颗粒物(PM10),65,79,85,28,27,149,118,137,137,16,17,8,9,0.6,0.6
2023-05-02T20:00:00,1080A,114.4725,37.0719,邢台市,市环保局,颗粒物(PM10),72,94,94,31,34,153,120,139,139,14,12,8,11,0.4,0.5
2023-05-02T20:00:00,1081A,112.522,37.8873,太原市,尖草坪,颗粒物(PM10),80,110,114,46,46,168,162,157,157,19,24,9,9,0.6,0.5
2023-05-02T20:00:00,1083A,112.434,38.0108,太原市,上兰,颗粒物(PM10),75,100,96,51,44,164,116,147,143,11,9,7,9,0.4,0.5
2023-05-02T20:00:00,1084A,112.469,37.7124,太原市,晋源,颗粒物(PM10),79,108,107,48,42,165,98,148,137,32,25,5,9,0.5,0.6
2023-05-02T20:00:00,1085A,112.5583,37.7394,太原市,小店,颗粒物(PM10),70,90,89,46,40,165,165,156,156,19,20,10,8,0.7,0.5
2023-05-02T20:00:00,1086A,112.5369,37.8692,太原市,桃园,颗粒物(PM10),75,100,110,50,48,165,159,155,155,20,22,9,9,0.6,0.5
2023-05-02T20:00:00,1087A,112.57,37.8195,太原市,坞城,颗粒物(PM10),79,107,111,45,43,166,160,159,159,22,10,9,8,0.6,0.6
2023-05-02T20:00:00,1088A,112.549,37.9854,太原市,南寨,颗粒物(PM10),97,144,125,44,48,159,155,151,151,25,31,8,13,0.7,0.9
2023-05-02T20:00:00,1090A,111.6507,40.7517,呼和浩特市,呼市一监,颗粒物(PM10),111,171,149,49,45,143,118,132,132,18,24,6,11,0.5,0.5
2023-05-02T20:00:00,1091A,111.6572,40.8033,呼和浩特市,小召,颗粒物(PM10),189,327,145,,54,126,77,116,112,,31,,13,0.5,0.5
2023-05-02T20:00:00,1094A,111.7516,40.8369,呼和浩特市,如意水处理厂,颗粒物(PM10),103,155,139,45,41,130,114,123,123,18,22,8,10,0.4,0.4
2023-05-02T20:00:00,1095A,111.7276,40.8062,呼和浩特市,二十九中,颗粒物(PM10),106,162,155,62,58,133,121,126,126,24,27,7,10,0.5,0.6
2023-05-02T20:00:00,1096A,111.5512,40.7866,呼和浩特市,工大金川校区,颗粒物(PM10),106,161,138,54,52,132,94,122,120,32,27,9,10,0.5,0.5
2023-05-02T20:00:00,1097A,111.717,40.7612,呼和浩特市,化肥厂生活区,颗粒物(PM10),110,169,176,52,52,120,103,113,113,22,26,8,10,0.5,0.6
2023-05-02T20:00:00,1098A,123.6836,41.9339,沈阳市,森林路,,,,,,,,,,,,,,,,
2023-05-02T20:00:00,1099A,123.505,41.7406,沈阳市,浑南东路,颗粒物(PM10),56,62,54,19,18,168,140,156,156,17,18,10,16,0.5,0.6
2023-05-02T20:00:00,1100A,123.4231,41.6989,沈阳市,新秀街,颗粒物(PM10),57,64,56,15,13,166,135,156,155,11,11,27,25,0.5,0.5
2023-05-02T20:00:00,1102A,123.5903,41.8411,沈阳市,东陵路,颗粒物(PM10),61,71,66,20,17,165,133,153,152,17,17,11,14,0.6,0.6
2023-05-02T20:00:00,1103A,123.4264,41.8467,沈阳市,陵东街,颗粒物(PM10),54,58,53,17,17,166,141,156,156,15,18,14,12,0.5,0.6
2023-05-02T20:00:00,1104A,123.4114,41.7653,沈阳市,文化路,颗粒物(PM10),56,61,55,21,20,166,142,158,158,14,15,15,15,0.4,0.5
2023-05-02T20:00:00,1105A,123.4678,41.7867,沈阳市,小河沿,颗粒物(PM10),56,61,54,20,18,161,134,151,151,18,20,18,14,0.5,0.6
2023-05-02T20:00:00,1106A,123.4017,41.7972,沈阳市,太原街,颗粒物(PM10),51,51,47,17,15,166,142,157,157,15,16,17,15,0.4,0.5
2023-05-02T20:00:00,1108A,123.3783,41.9228,沈阳市,京沈街,颗粒物(PM10),58,65,70,21,20,166,144,158,158,12,16,16,15,0.4,0.5
2023-05-02T20:00:00,1109A,121.612,38.9741,大连市,甘井子,颗粒物(PM10),56,62,63,21,26,166,129,148,146,21,25,4,5,0.6,0.5
2023-05-02T20:00:00,1110A,121.565,38.9511,大连市,周水子,颗粒物(PM10),61,72,59,28,25,171,117,153,144,34,26,5,6,0.4,0.5
2023-05-02T20:00:00,1111A,121.5637,38.8845,大连市,星海三站,颗粒物(PM10),65,80,61,27,25,171,114,154,146,34,20,4,5,0.5,0.5
2023-05-02T20:00:00,1112A,121.6302,38.9117,大连市,青泥洼桥,颗粒物(PM10),60,69,64,23,23,188,138,170,161,20,16,6,6,0.6,0.6
2023-05-02T20:00:00,1113A,121.6251,38.8638,大连市,傅家庄,颗粒物(PM10),60,69,58,25,24,178,124,160,150,27,17,7,8,0.6,0.6
2023-05-02T20:00:00,1114A,121.5213,38.8661,大连市,七贤岭,颗粒物(PM10),68,85,61,25,25,188,134,168,160,26,20,5,6,0.3,0.4
2023-05-02T20:00:00,1115A,121.2529,38.8061,大连市,旅顺,颗粒物(PM10),52,54,54,17,26,180,137,160,152,15,17,8,8,0.4,0.4
2023-05-02T20:00:00,1116A,121.7485,39.1311,大连市,金州,颗粒物(PM10),51,51,54,22,23,189,144,168,163,17,17,8,9,0.4,0.5
2023-05-02T20:00:00,1117A,121.7811,39.0496,大连市,开发区,颗粒物(PM10),56,61,51,22,25,165,132,140,140,21,27,4,4,0.4,0.4
2023-05-02T20:00:00,1118A,121.9762,39.0631,大连市,双D港,颗粒物(PM10),59,67,56,28,23,157,126,143,143,27,21,6,5,0.5,0.5
2023-05-02T20:00:00,1119A,125.3325,43.9166,长春市,食品厂,颗粒物(PM10),71,92,70,25,19,158,143,149,148,18,23,8,8,0.4,0.4
2023-05-02T20:00:00,1120A,125.2863,43.9027,长春市,客车厂,颗粒物(PM10),65,79,61,28,21,155,139,146,145,18,20,6,6,0.4,0.4
2023-05-02T20:00:00,1121A,125.2841,43.8463,长春市,邮电学院,颗粒物(PM10),63,76,57,19,16,156,141,147,146,13,16,7,7,0.4,0.4
2023-05-02T20:00:00,1122A,125.3716,43.8772,长春市,劳动公园,颗粒物(PM10),59,67,55,16,15,165,148,154,154,12,21,7,7,0.4,0.4
2023-05-02T20:00:00,1123A,125.3297,43.8805,长春市,园林处,颗粒物(PM10),65,80,60,15,17,155,141,146,146,12,20,4,4,0.4,0.4
2023-05-02T20:00:00,1124A,125.4605,43.79,长春市,净月潭,颗粒物(PM10),52,53,41,14,13,130,115,122,121,6,7,4,4,0.3,0.3
2023-05-02T20:00:00,1125A,125.7194,43.515,长春市,甩湾子,臭氧1小时,54,41,34,15,14,163,163,151,151,6,9,6,5,0.2,0.2
2023-05-02T20:00:00,1126A,125.3863,43.8447,长春市,经开区环卫处,颗粒物(PM10),54,57,63,15,15,149,132,141,140,11,19,7,7,0.4,0.4
2023-05-02T20:00:00,1127A,125.245,43.7783,长春市,高新区管委会,颗粒物(PM10),56,61,45,19,16,161,146,152,152,9,14,4,3,0.3,0.3
2023-05-02T20:00:00,1128A,125.1761,43.8325,长春市,岱山公园,颗粒物(PM10),64,78,69,19,17,154,144,147,146,12,18,6,5,0.3,0.3
2023-05-02T20:00:00,1129A,126.5422,45.755,哈尔滨市,岭北,颗粒物(PM10),500,670,127,45,22,162,157,154,154,11,12,16,15,0.3,0.5
2023-05-02T20:00:00,1130A,126.561,45.8167,哈尔滨市,松北商大,颗粒物(PM10),148,246,84,48,24,160,155,151,151,9,13,6,6,0.5,0.5
2023-05-02T20:00:00,1131A,126.979,45.5419,哈尔滨市,阿城会宁,颗粒物(PM10),66,81,51,21,16,143,103,134,128,13,11,10,10,0.4,0.4
2023-05-02T20:00:00,1132A,126.599,45.7222,哈尔滨市,南岗学府路,颗粒物(PM10),212,358,103,34,18,154,151,143,143,10,14,8,8,0.5,0.5
2023-05-02T20:00:00,1133A,126.689,45.7733,哈尔滨市,太平宏伟公园,颗粒物(PM10),209,356,108,33,20,148,147,139,139,16,17,7,6,0.7,0.5
2023-05-02T20:00:00,1134A,126.635,45.7667,哈尔滨市,道外承德广场,,,,96,35,18,151,149,143,143,17,20,7,11,0.5,0.5
2023-05-02T20:00:00,1135A,126.685,45.7319,哈尔滨市,香坊红旗大街,颗粒物(PM10),194,337,99,37,26,152,145,141,141,18,21,14,15,0.4,0.4
2023-05-02T20:00:00,1136A,126.6411,45.7258,哈尔滨市,动力和平路,颗粒物(PM10),240,378,106,41,21,152,150,141,141,16,21,15,15,0.4,0.5
2023-05-02T20:00:00,1137A,126.593,45.7478,哈尔滨市,道里建国路,颗粒物(PM10),229,370,101,33,20,149,147,142,142,15,19,14,14,0.5,0.7
2023-05-02T20:00:00,1138A,126.615,45.61,哈尔滨市,平房东轻厂,颗粒物(PM10),160,270,87,26,16,152,138,144,143,10,7,6,6,0.4,0.4
2023-05-02T20:00:00,1139A,126.595,45.9855,哈尔滨市,呼兰师专,颗粒物(PM10),181,312,119,39,24,158,156,150,150,16,18,12,11,0.5,0.4
2023-05-02T20:00:00,1140A,126.6206,45.6842,哈尔滨市,省农科院,颗粒物(PM10),283,408,119,32,20,157,149,147,147,18,22,12,12,0.5,0.4
2023-05-02T20:00:00,1141A,121.4,31.238,上海市,普陀,颗粒物(PM10),64,78,66,15,16,167,133,158,143,14,17,5,7,0.4,0.4
2023-05-02T20:00:00,1142A,121.478,31.2036,上海市,十五厂,颗粒物(PM10),59,68,71,28,24,152,122,151,131,17,20,8,8,0.6,0.5
2023-05-02T20:00:00,1143A,121.467,31.3008,上海市,虹口,颗粒物(PM10),52,53,54,26,19,159,125,158,135,13,15,8,9,0.4,0.4
2023-05-02T20:00:00,1144A,121.412,31.1654,上海市,徐汇上师大,颗粒物(PM10),55,60,64,22,18,172,142,158,151,18,23,8,12,0.6,0.5
2023-05-02T20:00:00,1145A,121.536,31.2659,上海市,杨浦四漂,颗粒物(PM10),57,63,69,20,18,167,120,167,140,24,20,7,7,0.5,0.5
2023-05-02T20:00:00,1147A,121.425,31.2261,上海市,静安监测站,颗粒物(PM10),55,60,58,16,17,168,132,164,142,16,19,6,7,0.5,0.5
2023-05-02T20:00:00,1148A,121.703,31.1907,上海市,浦东川沙,颗粒物(PM10),58,65,65,18,21,164,129,160,139,15,15,6,6,0.5,0.4
2023-05-02T20:00:00,1149A,121.533,31.2284,上海市,浦东新区监测站,颗粒物(PM10),55,60,60,15,14,172,134,168,144,9,10,7,8,0.4,0.4
2023-05-02T20:00:00,1150A,121.577,31.2071,上海市,浦东张江,颗粒物(PM10),57,64,60,15,20,164,127,162,141,16,15,4,4,0.6,0.5
2023-05-02T20:00:00,1151A,118.8086,32.1065,南京市,迈皋桥,,48,48,62,17,18,190,150,176,175,20,15,7,7,0.3,0.2
2023-05-02T20:00:00,1152A,118.7538,32.0551,南京市,草场门,,48,48,66,14,19,174,148,165,164,18,17,6,6,0.5,0.5
2023-05-02T20:00:00,1153A,118.7794,32.0745,南京市,山西路,,49,48,70,17,20,185,154,174,174,9,9,4,5,0.3,0.2
2023-05-02T20:00:00,1154A,118.7752,32.0023,南京市,中华门,,48,48,59,9,17,176,143,166,165,23,19,4,4,0.5,0.5
2023-05-02T20:00:00,1155A,118.8109,32.0309,南京市,瑞金路,,47,44,63,9,19,184,148,171,170,15,14,10,9,0.4,0.4
2023-05-02T20:00:00,1156A,118.7997,32.0754,南京市,玄武湖,,49,46,64,20,22,181,154,171,171,15,13,6,6,0.6,0.6
2023-05-02T20:00:00,1157A,118.6414,32.0931,南京市,浦口,颗粒物(PM10),51,51,72,9,22,167,133,160,156,41,25,7,7,0.3,0.3
2023-05-02T20:00:00,1158A,118.7356,31.9996,南京市,奥体中心,颗粒物(PM10),53,56,71,17,21,168,148,160,159,17,16,8,8,0.3,0.3
2023-05-02T20:00:00,1159A,118.9125,32.1028,南京市,仙林大学城,,48,48,63,17,22,177,148,166,166,13,14,9,10,0.5,0.5
2023-05-02T20:00:00,1160A,120.561,31.2472,苏州市,上方山,,50,50,56,25,24,156,94,124,116,9,16,8,9,0.4,0.4
2023-05-02T20:00:00,1162A,120.591,31.3019,苏州市,彩香,,,57,58,20,17,188,,154,152,6,13,6,7,0.5,0.6
2023-05-02T20:00:00,1163A,120.596,31.3264,苏州市,轧钢厂,颗粒物(PM10),58,65,61,19,19,170,105,137,131,11,14,8,10,0.6,0.5
2023-05-02T20:00:00,1164A,120.613,31.2703,苏州市,吴中区,颗粒物(PM10),54,58,58,18,17,174,108,142,135,11,15,9,10,0.6,0.5
2023-05-02T20:00:00,1165A,120.543,31.2994,苏州市,苏州新区,颗粒物(PM10),54,58,53,21,19,174,104,138,133,6,10,6,7,0.5,0.5
2023-05-02T20:00:00,1166A,120.669,31.3097,苏州市,苏州工业园区,颗粒物(PM10),57,63,57,23,20,173,106,138,131,8,8,8,9,0.5,0.5
2023-05-02T20:00:00,1167A,120.641,31.3708,苏州市,相城区,颗粒物(PM10),54,58,58,18,19,181,114,145,139,10,11,7,8,0.5,0.5
2023-05-02T20:00:00,1168A,120.9098,31.9663,南通市,狼山街道,颗粒物(PM10),55,59,71,11,20,150,119,141,138,14,22,6,8,0.3,0.3
2023-05-02T20:00:00,1169A,120.86,32.0005,南通市,虹桥,颗粒物(PM10),54,57,67,15,18,155,116,144,140,19,24,7,9,0.4,0.4
2023-05-02T20:00:00,1170A,120.87,32.02,南通市,城中,颗粒物(PM10),54,57,78,16,19,161,121,149,145,13,19,7,8,0.5,0.5
2023-05-02T20:00:00,1171A,120.94,31.93,南通市,星湖花园,颗粒物(PM10),52,53,60,17,18,136,102,126,122,18,21,7,8,0.5,0.4
2023-05-02T20:00:00,1172A,120.81,32.0417,南通市,紫琅学院,颗粒物(PM10),60,70,71,14,18,132,105,121,119,19,32,7,9,0.4,0.4
2023-05-02T20:00:00,1173A,119.176,34.5885,连云港市,市环境监测站,颗粒物(PM10),69,88,96,24,32,155,124,148,147,16,10,8,8,0.4,0.5
2023-05-02T20:00:00,1177A,117.179,34.2761,徐州市,黄河新村,颗粒物(PM10),67,83,92,33,33,170,141,162,160,17,16,9,10,0.6,0.6
2023-05-02T20:00:00,1178A,117.1918,34.2384,徐州市,淮塔,颗粒物(PM10),68,85,90,29,33,182,147,169,167,19,17,10,11,0.5,0.5
2023-05-02T20:00:00,1180A,117.256,34.2153,徐州市,新城区,颗粒物(PM10),69,88,85,31,29,175,140,162,160,19,16,7,9,0.6,0.6
2023-05-02T20:00:00,1181A,117.244,34.2911,徐州市,桃园路,颗粒物(PM10),68,85,91,22,31,165,144,157,156,11,10,10,11,0.6,0.6
2023-05-02T20:00:00,1182A,117.2933,34.2778,徐州市,农科院,颗粒物(PM10),64,78,89,19,24,166,155,157,156,22,25,9,11,0.6,0.7
2023-05-02T20:00:00,1186A,119.389,32.3761,扬州市,邗江监测站,颗粒物(PM10),57,63,74,30,27,171,134,155,154,24,24,6,7,0.5,0.4
2023-05-02T20:00:00,1188A,120.269,31.4867,无锡市,雪浪,颗粒物(PM10),51,51,57,17,14,162,109,152,145,15,14,9,9,0.6,0.5
2023-05-02T20:00:00,1189A,120.275,31.6219,无锡市,黄巷,颗粒物(PM10),53,55,62,12,16,164,107,153,146,17,15,4,6,0.9,0.7
2023-05-02T20:00:00,1190A,120.294,31.56,无锡市,曹张,,46,46,54,22,17,168,110,155,148,10,14,6,7,0.7,0.6
2023-05-02T20:00:00,1191A,120.242,31.5031,无锡市,漆塘,颗粒物(PM10),53,56,54,22,19,159,105,149,142,15,13,6,7,0.4,0.3
2023-05-02T20:00:00,1192A,120.3489,31.5863,无锡市,东亭,颗粒物(PM10),51,51,60,17,18,156,107,144,140,9,16,9,11,0.7,0.6
2023-05-02T20:00:00,1193A,120.354,31.5475,无锡市,旺庄,颗粒物(PM10),51,51,56,17,17,158,107,146,140,15,18,5,6,0.5,0.5
2023-05-02T20:00:00,1194A,120.245,31.5631,无锡市,荣巷,颗粒物(PM10),52,53,52,17,18,168,109,157,150,18,15,12,12,0.6,0.5
2023-05-02T20:00:00,1195A,120.299,31.6817,无锡市,堰桥,颗粒物(PM10),53,56,60,14,19,167,122,154,151,10,16,6,7,0.4,0.4
2023-05-02T20:00:00,1196A,119.9633,31.762,常州市,市监测站,颗粒物(PM10),58,66,56,14,18,157,108,149,144,22,15,7,6,0.7,0.3
2023-05-02T20:00:00,1200A,119.9468,31.7069,常州市,武进监测站,颗粒物(PM10),55,60,53,19,19,168,123,160,156,16,11,4,5,0.4,0.3
2023-05-02T20:00:00,1201A,119.9255,31.9087,常州市,安家,颗粒物(PM10),60,69,57,24,26,162,120,153,150,17,17,6,7,0.6,0.5
2023-05-02T20:00:00,1203A,119.6707,32.1875,镇江市,新区办事处,,,67,67,26,22,183,132,170,168,,13,,4,0.6,0.4
2023-05-02T20:00:00,1204A,119.4974,32.1968,镇江市,职教中心,颗粒物(PM10),55,59,68,23,21,171,137,156,155,16,16,3,4,0.5,0.4
2023-05-02T20:00:00,1205A,119.4303,32.1328,镇江市,丹徒区监测站,细颗粒物(PM2.5),94,73,67,70,30,184,136,167,165,20,13,9,4,0.7,0.4
2023-05-02T20:00:00,1206A,119.905,32.4878,泰州市,公园路,颗粒物(PM10),52,53,68,19,30,176,132,161,159,16,18,9,10,0.5,0.5
2023-05-02T20:00:00,1207A,119.9189,32.4625,泰州市,莲花,颗粒物(PM10),56,61,80,27,34,184,140,168,167,17,20,8,10,0.4,0.4
2023-05-02T20:00:00,1209A,119.888,32.4639,泰州市,留学生创业园,颗粒物(PM10),67,84,84,21,24,174,136,160,159,16,17,7,9,0.5,0.5
2023-05-02T20:00:00,1210A,119.036,33.5981,淮安市,钵池山,颗粒物(PM10),58,66,70,18,25,171,150,161,161,21,20,10,12,0.5,0.6
2023-05-02T20:00:00,1211A,119.007,33.575,淮安市,北京南路,颗粒物(PM10),62,73,88,20,28,182,144,166,166,28,24,9,11,0.5,0.5
2023-05-02T20:00:00,1212A,118.989,33.6067,淮安市,市监测站,颗粒物(PM10),62,73,84,19,25,176,152,166,166,26,25,10,13,0.6,0.7
2023-05-02T20:00:00,1213A,119.135,33.5039,淮安市,楚州区监测站,颗粒物(PM10),69,88,90,36,33,173,139,157,157,23,22,12,12,0.7,0.7
2023-05-02T20:00:00,1214A,119.0186,33.6297,淮安市,淮阴区监测站,颗粒物(PM10),59,68,87,20,27,173,147,161,161,24,22,9,11,0.4,0.5
2023-05-02T20:00:00,1215A,120.118,33.4022,盐城市,盐城电厂,颗粒物(PM10),52,53,84,19,26,185,155,170,170,12,13,7,8,0.4,0.5
2023-05-02T20:00:00,1216A,120.156,33.3942,盐城市,市监测站,颗粒物(PM10),53,55,81,25,33,168,136,155,154,17,13,9,9,0.3,0.5
2023-05-02T20:00:00,1218A,120.2144,33.38,盐城市,开发区管委会,颗粒物(PM10),51,52,83,16,23,185,140,158,158,17,16,8,10,0.4,0.4
2023-05-02T20:00:00,1220A,118.293,33.9528,宿迁市,宿迁学院,颗粒物(PM10),68,86,98,30,39,176,132,165,162,42,27,9,11,0.5,0.6
2023-05-02T20:00:00,1221A,118.2442,33.9592,宿迁市,宿迁中学,颗粒物(PM10),62,73,90,28,35,180,149,168,167,25,19,9,9,0.4,0.4
2023-05-02T20:00:00,1223A,120.2072,30.2111,杭州市,滨江,,44,44,41,4,20,142,85,134,124,13,13,7,8,0.5,0.4
2023-05-02T20:00:00,1224A,120.0633,30.2747,杭州市,西溪,,39,39,46,14,17,159,100,138,132,16,17,7,7,0.4,0.4
2023-05-02T20:00:00,1226A,120.3461,30.3153,杭州市,下沙,,35,35,51,24,16,141,92,130,120,13,21,6,6,0.5,0.5
2023-05-02T20:00:00,1227A,120.1269,30.2456,杭州市,卧龙桥,,34,34,40,16,18,153,92,138,132,11,16,2,2,0.4,0.4
2023-05-02T20:00:00,1228A,120.1903,30.2692,杭州市,浙江农大,,38,38,43,12,16,150,85,137,127,16,15,7,8,0.4,0.3
2023-05-02T20:00:00,1230A,120.1197,30.3119,杭州市,和睦小学,,42,42,47,17,16,145,86,134,126,14,18,6,6,0.6,0.6
2023-05-02T20:00:00,1231A,120.3019,30.4183,杭州市,临平镇,颗粒物(PM10),51,52,54,18,14,150,84,134,122,13,16,4,5,0.4,0.3
2023-05-02T20:00:00,1232A,120.2697,30.1819,杭州市,城厢镇,颗粒物(PM10),51,52,50,30,18,139,88,130,121,15,17,4,4,0.4,0.3
2023-05-02T20:00:00,1233A,120.0883,30.1808,杭州市,云栖,,33,33,41,20,13,138,84,127,120,18,28,6,6,0.5,0.5
2023-05-02T20:00:00,1234A,121.8358,29.911,宁波市,区环保大楼,,48,48,39,16,16,191,141,146,136,7,10,4,4,0.4,0.4
2023-05-02T20:00:00,1235A,121.56,29.82,宁波市,万里学院,颗粒物(PM10),53,55,53,34,21,162,118,132,120,12,16,4,4,0.5,0.5
2023-05-02T20:00:00,1236A,121.713,29.9572,宁波市,龙赛医院,,48,48,50,14,10,174,130,146,130,8,10,5,4,0.2,0.2
2023-05-02T20:00:00,1239A,121.633,29.7733,宁波市,钱湖水厂,,47,47,33,29,17,165,130,147,128,1,3,4,4,0.3,0.3
2023-05-02T20:00:00,1240A,121.5856,29.8635,宁波市,太古小学,,40,39,47,7,9,170,127,132,126,9,12,8,8,0.6,0.5
2023-05-02T20:00:00,1241A,121.524,29.8674,宁波市,市环境监测中心,,50,50,52,23,13,156,108,155,110,15,15,7,7,0.4,0.4
2023-05-02T20:00:00,1242A,120.634,28.0089,温州市,瓯海,细颗粒物(PM2.5),77,69,75,56,39,149,4,60,31,66,57,7,8,0.6,0.5
2023-05-02T20:00:00,1243A,120.6748,27.9939,温州市,南浦,细颗粒物(PM2.5),67,82,65,48,34,162,9,89,42,60,40,4,5,0.8,0.5
2023-05-02T20:00:00,1244A,120.76,27.9747,温州市,龙湾,颗粒物(PM10),61,72,72,41,27,151,12,88,34,59,53,6,7,0.7,0.5
2023-05-02T20:00:00,1245A,120.6709,28.0167,温州市,市站,,49,49,69,23,32,117,27,77,39,46,48,5,6,0.5,0.4
2023-05-02T20:00:00,1247A,120.6053,29.9928,绍兴市,城东开发委,,31,30,34,14,14,151,98,130,105,4,6,6,6,0.3,0.2
2023-05-02T20:00:00,1250A,120.0751,30.8669,湖州市,城西水厂,,34,34,58,23,23,156,89,139,130,18,21,6,8,0.4,0.3
2023-05-02T20:00:00,1252A,120.7436,30.778,嘉兴市,清河小学,,47,47,55,17,14,147,94,134,116,12,16,6,7,0.2,0.2
2023-05-02T20:00:00,1253A,120.726,30.7478,嘉兴市,嘉兴学院,,45,45,48,16,15,142,96,133,114,10,13,5,7,0.3,0.3
2023-05-02T20:00:00,1255A,121.273,28.6459,台州市,黄岩环保大楼,颗粒物(PM10),61,71,55,37,20,142,57,104,88,26,21,6,7,0.6,0.5
2023-05-02T20:00:00,1256A,121.419,28.6542,台州市,台州环保大楼,细颗粒物(PM2.5),64,64,59,46,25,167,54,115,98,33,17,4,5,0.5,0.4
2023-05-02T20:00:00,1257A,121.377,28.5773,台州市,路桥田洋王,细颗粒物(PM2.5),85,79,69,63,35,132,52,92,75,33,27,5,8,0.5,0.5
2023-05-02T20:00:00,1258A,122.122,30.0203,舟山市,定海檀枫,,43,43,42,18,21,129,116,123,123,18,18,6,6,0.4,0.4
2023-05-02T20:00:00,1259A,122.3094,29.9558,舟山市,普陀东港,,42,42,42,25,21,134,123,131,131,13,12,6,6,0.3,0.3
2023-05-02T20:00:00,1260A,122.19,29.9944,舟山市,临城新区,,50,50,48,24,22,143,133,136,136,16,18,5,5,0.4,0.4
2023-05-02T20:00:00,1262A,119.647,29.077,金华市,十五中,,28,21,41,9,14,157,87,142,104,10,13,5,6,0.4,0.4
2023-05-02T20:00:00,1263A,119.686,29.1029,金华市,监测站,,27,18,42,9,15,163,85,148,104,10,17,4,5,0.4,0.4
2023-05-02T20:00:00,1264A,118.8692,28.9398,衢州市,环保大楼,颗粒物(PM10),59,68,49,32,21,150,72,137,129,44,17,7,8,0.6,0.3
2023-05-02T20:00:00,1265A,118.8709,28.9666,衢州市,实验学校,颗粒物(PM10),55,59,51,24,18,157,77,144,134,22,14,8,7,0.6,0.6
2023-05-02T20:00:00,1266A,118.8621,28.9808,衢州市,衢州学院,细颗粒物(PM2.5),65,68,45,47,18,149,80,136,127,24,17,7,7,0.4,0.3
2023-05-02T20:00:00,1267A,119.914,28.4514,丽水市,监测站大楼,,38,16,35,26,16,143,87,102,96,7,12,5,5,0.3,0.2
2023-05-02T20:00:00,1268A,119.93,28.4586,丽水市,莲都小学,,30,14,34,16,12,158,96,104,102,5,12,5,5,0.3,0.2
2023-05-02T20:00:00,1269A,119.879,28.4231,丽水市,余庄前,,29,8,28,4,13,145,90,100,97,8,12,6,7,0.3,0.2
2023-05-02T20:00:00,1270A,117.1959,31.7848,合肥市,明珠广场,颗粒物(PM10),56,61,68,34,29,139,104,125,116,27,32,5,7,0.5,0.5
2023-05-02T20:00:00,1271A,117.3072,31.8764,合肥市,三里街,颗粒物(PM10),62,73,85,34,35,132,84,117,106,45,55,6,9,0.6,0.5
2023-05-02T20:00:00,1272A,117.2588,31.8707,合肥市,琥珀山庄,颗粒物(PM10),54,58,73,31,30,141,111,130,122,20,25,5,6,0.8,0.8
2023-05-02T20:00:00,1273A,117.1604,31.9052,合肥市,董铺水库,颗粒物(PM10),54,58,78,17,22,122,108,114,111,14,22,5,5,0.4,0.4
2023-05-02T20:00:00,1274A,117.25,31.8571,合肥市,长江中路,颗粒物(PM10),63,75,80,36,32,135,100,123,114,29,24,10,12,0.7,0.5
2023-05-02T20:00:00,1275A,117.266,31.9436,合肥市,庐阳区,颗粒物(PM10),56,61,74,24,26,129,89,116,109,25,29,8,10,0.5,0.5
2023-05-02T20:00:00,1276A,117.336,31.8586,合肥市,瑶海区,颗粒物(PM10),57,63,90,23,29,130,76,122,110,40,47,8,10,0.6,0.5
2023-05-02T20:00:00,1277A,117.3027,31.7964,合肥市,包河区,颗粒物(PM10),59,68,75,27,30,141,104,129,121,21,37,9,11,0.3,0.4
2023-05-02T20:00:00,1278A,117.2776,31.7385,合肥市,滨湖新区,颗粒物(PM10),54,58,65,22,24,137,116,127,122,16,16,6,9,0.5,0.5
2023-05-02T20:00:00,1279A,117.1318,31.8403,合肥市,高新区,颗粒物(PM10),52,53,67,29,28,136,112,125,119,21,25,8,10,0.3,0.3
2023-05-02T20:00:00,1280A,119.3903,26.0543,福州市,鼓山,,,,,,,,,,,,,,,,
2023-05-02T20:00:00,1282A,119.2681,26.0504,福州市,师大,,36,36,48,7,19,148,78,114,110,20,19,6,7,0.6,0.4
2023-05-02T20:00:00,1283A,119.2984,26.1028,福州市,五四北路,,36,36,45,20,16,153,74,118,105,19,19,3,4,0.4,0.4
2023-05-02T20:00:00,1284A,119.2648,26.0768,福州市,杨桥西路,,33,33,49,19,16,146,74,108,105,17,17,4,5,0.5,0.5
2023-05-02T20:00:00,1285A,119.317,26.0746,福州市,紫阳,,32,32,47,22,16,152,72,121,102,18,18,3,4,0.6,0.5
2023-05-02T20:00:00,1286A,118.1608,24.8169,厦门市,溪东,,,,,,,,,,,,,,,,
2023-05-02T20:00:00,1287A,118.1514,24.4767,厦门市,洪文,,49,49,54,24,19,146,103,133,131,4,9,3,3,0.4,0.2
2023-05-02T20:00:00,1288A,118.0661,24.4444,厦门市,鼓浪屿,,36,36,56,17,20,151,95,127,124,21,21,3,2,0.5,0.4
2023-05-02T20:00:00,1290A,115.8931,28.6843,南昌市,省外办,颗粒物(PM10),60,70,78,34,34,128,73,115,111,31,41,8,12,0.6,0.6
2023-05-02T20:00:00,1291A,115.8886,28.7003,南昌市,省林业公司,颗粒物(PM10),58,66,83,31,33,133,80,116,114,37,54,8,12,0.5,0.5
2023-05-02T20:00:00,1292A,115.8126,28.7442,南昌市,林科所,颗粒物(PM10),57,63,53,31,23,127,59,116,111,50,24,10,12,0.7,0.5
2023-05-02T20:00:00,1294A,115.8518,28.687,南昌市,建工学校,颗粒物(PM10),63,76,83,36,29,127,83,114,112,29,38,11,14,0.7,0.6
2023-05-02T20:00:00,1295A,115.8921,28.6424,南昌市,象湖,颗粒物(PM10),60,70,71,29,30,125,79,112,109,33,37,10,12,0.8,0.8
2023-05-02T20:00:00,1296A,115.7423,28.7996,南昌市,武术学校,,37,37,46,8,16,130,78,120,114,8,6,14,11,0.6,0.6
2023-05-02T20:00:00,1298A,115.9314,28.6842,南昌市,省站,颗粒物(PM10),66,82,90,39,32,123,86,116,113,26,41,9,11,1.0,0.8
2023-05-02T20:00:00,1299A,116.9862,36.6114,济南市,科干所,颗粒物(PM10),54,58,69,20,26,170,158,159,159,17,13,8,9,0.4,0.4
2023-05-02T20:00:00,1300A,116.9376,36.665,济南市,农科所,颗粒物(PM10),57,63,79,32,20,160,126,148,147,23,18,3,4,0.3,0.3
2023-05-02T20:00:00,1301A,117.1265,36.6734,济南市,开发区,颗粒物(PM10),59,68,72,24,27,172,131,160,158,26,11,10,11,0.5,0.4
2023-05-02T20:00:00,1303A,117.0624,36.6868,济南市,省种子仓库,颗粒物(PM10),57,63,76,29,30,175,149,163,163,20,11,8,10,0.5,0.4
2023-05-02T20:00:00,1304A,116.9489,36.6447,济南市,机床二厂,颗粒物(PM10),73,95,88,29,24,168,139,156,156,21,10,4,5,0.4,0.3
2023-05-02T20:00:00,1305A,117.0495,36.663,济南市,市监测站,颗粒物(PM10),58,66,77,24,22,180,150,168,168,32,13,9,9,0.6,0.5
2023-05-02T20:00:00,1306A,116.7675,36.5484,济南市,长清党校,颗粒物(PM10),59,68,83,0,35,174,159,164,164,16,14,12,12,0.6,0.6
2023-05-02T20:00:00,1307A,120.6659,36.2403,青岛市,仰口,,46,46,76,19,29,117,76,110,84,7,8,4,4,0.4,0.4
2023-05-02T20:00:00,1310A,120.4134,36.0658,青岛市,市南区东部子站,,41,41,81,14,22,184,123,175,148,13,15,4,6,0.4,0.5
2023-05-02T20:00:00,1311A,120.3664,36.1032,青岛市,四方区子站,,44,44,84,17,25,189,123,180,150,19,22,4,8,0.5,0.6
2023-05-02T20:00:00,1312A,120.2994,36.054,青岛市,市南区西部子站,,48,48,84,12,24,201,123,192,159,20,19,5,6,0.4,0.6
2023-05-02T20:00:00,1313A,120.4581,36.0858,青岛市,崂山区子站,颗粒物(PM10),51,51,88,17,28,186,132,176,156,10,12,7,8,0.3,0.4
2023-05-02T20:00:00,1314A,120.1983,35.9608,青岛市,黄岛区子站,,46,46,82,12,27,184,118,177,148,8,10,5,6,0.4,0.5
2023-05-02T20:00:00,1315A,120.3999,36.3083,青岛市,城阳区子站,颗粒物(PM10),57,63,90,15,20,172,126,170,150,20,22,5,6,0.3,0.4
2023-05-02T20:00:00,1316A,113.69031,34.76122,郑州市,烟厂,颗粒物(PM10),82,114,122,44,59,172,123,155,155,25,29,8,9,0.6,0.4
2023-05-02T20:00:00,1317A,113.65724,34.77134,郑州市,郑纺机,颗粒物(PM10),71,92,101,49,41,172,127,157,157,18,25,8,9,0.5,0.5
2023-05-02T20:00:00,1318A,113.67526,34.80246,郑州市,银行学校,颗粒物(PM10),70,90,86,49,35,168,124,153,153,10,15,7,9,0.7,0.6
2023-05-02T20:00:00,1319A,113.56746,34.81334,郑州市,供水公司,颗粒物(PM10),89,127,105,30,38,159,124,146,146,10,15,10,12,0.6,0.5
2023-05-02T20:00:00,1320A,113.7329,34.7178,郑州市,经开区管委,颗粒物(PM10),71,92,92,36,47,166,125,153,152,16,22,5,6,0.5,0.5
2023-05-02T20:00:00,1321A,113.73961,34.77172,郑州市,四十七中,颗粒物(PM10),76,101,104,48,43,163,126,151,151,14,20,7,9,0.7,0.6
2023-05-02T20:00:00,1322A,113.60532,34.74838,郑州市,市监测站,颗粒物(PM10),110,170,136,28,35,176,130,159,159,19,27,4,7,0.6,0.5
2023-05-02T20:00:00,1323A,113.64164,34.7525,郑州市,河医大,颗粒物(PM10),77,103,100,38,41,170,129,155,155,14,24,8,10,0.6,0.5
2023-05-02T20:00:00,1324A,113.51488,34.91089,郑州市,岗李水库,颗粒物(PM10),81,111,96,25,27,176,132,160,160,21,24,10,10,0.7,0.7
2023-05-02T20:00:00,1325A,114.3677,30.5584,武汉市,东湖梨园,颗粒物(PM10),53,56,66,29,28,132,92,110,106,18,28,6,10,0.7,0.7
2023-05-02T20:00:00,1326A,114.2529,30.558,武汉市,汉阳月湖,颗粒物(PM10),61,71,79,29,27,116,46,97,86,48,41,6,9,0.9,0.7
2023-05-02T20:00:00,1327A,114.282,30.6189,武汉市,汉口花桥,颗粒物(PM10),110,170,91,34,26,118,70,97,93,27,30,7,11,0.7,0.7
2023-05-02T20:00:00,1328A,114.3025,30.5332,武汉市,武昌紫阳,细颗粒物(PM2.5),65,70,69,47,38,122,70,101,96,35,39,5,9,0.9,0.8
2023-05-02T20:00:00,1329A,114.3646,30.6217,武汉市,青山钢花,颗粒物(PM10),66,81,93,44,39,144,84,119,116,28,35,7,12,0.9,0.8
2023-05-02T20:00:00,1330A,114.1566,30.4825,武汉市,沌口新区,颗粒物(PM10),59,67,80,40,34,114,61,96,90,33,35,6,9,0.6,0.6
2023-05-02T20:00:00,1331A,114.3014,30.5944,武汉市,汉口江滩,细颗粒物(PM2.5),64,72,75,46,34,129,36,107,82,69,41,6,11,0.9,0.8
2023-05-02T20:00:00,1333A,114.135,30.6319,武汉市,吴家山,颗粒物(PM10),56,62,63,27,27,132,83,109,105,25,27,7,9,0.8,0.7
2023-05-02T20:00:00,1334A,113.8454,30.2917,武汉市,沉湖七壕,,42,42,59,21,19,120,70,90,81,19,19,12,12,0.5,0.4
2023-05-02T20:00:00,1335A,113.0833,28.2325,长沙市,经开区环保局,细颗粒物(PM2.5),68,80,80,49,41,109,78,88,88,16,14,9,8,0.7,0.7
2023-05-02T20:00:00,1336A,112.8872,28.2189,长沙市,高开区环保局,细颗粒物(PM2.5),57,56,73,40,32,116,90,100,100,13,12,12,11,0.6,0.6
2023-05-02T20:00:00,1337A,113.0792,28.2053,长沙市,马坡岭,细颗粒物(PM2.5),92,83,81,68,46,98,60,83,80,22,15,3,2,0.5,0.5
2023-05-02T20:00:00,1338A,112.9394,28.19,长沙市,湖南师范大学,颗粒物(PM10),74,97,89,48,42,105,75,87,87,22,21,10,10,1.1,0.9
2023-05-02T20:00:00,1339A,113.0178,28.1322,长沙市,雨花区环保局,颗粒物(PM10),64,77,75,40,30,108,77,105,94,15,13,11,11,0.3,0.5
2023-05-02T20:00:00,1340A,112.9792,28.2597,长沙市,伍家岭,颗粒物(PM10),66,82,88,43,37,100,79,86,86,18,30,6,4,0.6,0.6
2023-05-02T20:00:00,1341A,113.0014,28.1944,长沙市,火车新站,颗粒物(PM10),68,86,81,47,40,89,65,82,80,23,23,11,10,0.8,0.6
2023-05-02T20:00:00,1342A,112.9844,28.1178,长沙市,天心区环保局,细颗粒物(PM2.5),104,91,78,78,37,92,58,89,81,26,17,5,5,0.8,0.6
2023-05-02T20:00:00,1343A,112.8908,28.1308,长沙市,湖南中医药大学,颗粒物(PM10),63,75,82,36,36,103,77,91,91,27,40,6,7,1.1,1.1
2023-05-02T20:00:00,1344A,112.9581,28.3611,长沙市,沙坪,颗粒物(PM10),59,68,82,40,31,103,74,103,78,14,16,7,7,0.6,0.5
2023-05-02T20:00:00,1345A,113.2347,23.1423,广州市,广雅中学,,42,42,46,24,20,144,84,124,120,26,24,3,5,0.7,0.8
2023-05-02T20:00:00,1346A,113.2612,23.105,广州市,市五中,颗粒物(PM10),51,51,44,26,20,161,94,137,131,19,18,7,8,0.6,0.6
2023-05-02T20:00:00,1348A,113.3478,23.0916,广州市,广东商学院,颗粒物(PM10),51,51,46,22,21,141,90,128,124,24,22,4,6,0.6,0.6
2023-05-02T20:00:00,1349A,113.4332,23.1047,广州市,市八十六中,颗粒物(PM10),59,68,58,24,20,172,66,133,124,51,29,4,6,0.7,0.8
2023-05-02T20:00:00,1350A,113.3505,22.9483,广州市,番禺中学,,38,38,42,20,16,138,96,130,123,23,20,8,7,0.5,0.6
2023-05-02T20:00:00,1351A,113.2146,23.3916,广州市,花都师范,颗粒物(PM10),56,61,55,25,23,174,104,150,147,26,28,6,7,0.7,0.7
2023-05-02T20:00:00,1352A,113.2597,23.1331,广州市,市监测站,颗粒物(PM10),54,58,45,23,20,150,90,129,124,28,22,6,7,0.7,0.8
2023-05-02T20:00:00,1353A,113.5618,23.312,广州市,九龙镇镇龙,颗粒物(PM10),67,83,54,30,19,185,85,149,146,63,31,6,6,0.6,0.6
2023-05-02T20:00:00,1354A,113.2765,23.1544,广州市,麓湖,,46,46,42,20,19,162,103,142,138,22,21,6,7,0.7,0.7
2023-05-02T20:00:00,1355A,113.443,23.3035,广州市,帽峰山森林公园,颗粒物(PM10),52,54,48,20,19,190,108,164,163,29,22,4,4,0.6,0.4
2023-05-02T20:00:00,1356A,114.1063,22.5545,深圳市,通心岭子站,,35,35,37,17,15,128,83,126,94,10,7,3,4,0.6,0.6
2023-05-02T20:00:00,1357A,114.117,22.5625,深圳市,洪湖,,,40,42,16,15,152,111,147,117,,11,9,9,,0.4
2023-05-02T20:00:00,1358A,113.987,22.5417,深圳市,华侨城,,43,43,40,16,17,152,84,147,110,19,13,6,6,0.5,0.4
2023-05-02T20:00:00,1359A,113.9181,22.5171,深圳市,南海子站,颗粒物(PM10),52,54,50,22,15,136,87,135,110,15,12,4,5,0.5,0.5
2023-05-02T20:00:00,1360A,114.2458,22.5689,深圳市,盐田,,39,34,40,15,16,157,122,136,136,6,19,4,7,0.5,0.6
2023-05-02T20:00:00,1361A,114.2283,22.7244,深圳市,龙岗,,42,42,38,13,13,156,99,152,107,15,11,3,4,0.5,0.5
2023-05-02T20:00:00,1363A,114.494,22.5422,深圳市,南澳,,42,42,36,18,13,150,124,150,135,10,11,8,8,0.5,0.4
2023-05-02T20:00:00,1364A,114.41,22.6342,深圳市,葵涌,,45,45,40,17,14,156,142,150,131,10,11,7,7,0.6,0.5
2023-05-02T20:00:00,1365A,114.297,22.5978,深圳市,梅沙,,42,42,47,16,16,149,107,149,131,11,10,5,5,0.7,0.7
2023-05-02T20:00:00,1366A,114.0678,22.738,深圳市,观澜,,49,49,47,15,14,148,65,148,100,24,14,4,4,0.5,0.7
2023-05-02T20:00:00,1367A,113.5814,22.2618,珠海市,吉大,,40,40,38,16,15,153,103,143,122,9,12,6,7,0.5,0.5
2023-05-02T20:00:00,1368A,113.4881,22.2335,珠海市,前山,,41,41,41,20,16,144,93,138,118,18,16,4,4,0.3,0.3
2023-05-02T20:00:00,1369A,113.628,22.4251,珠海市,唐家,,47,47,38,27,16,135,91,135,106,13,20,4,6,0.4,0.4
2023-05-02T20:00:00,1370A,113.299,22.2281,珠海市,斗门,,39,39,42,19,18,129,95,123,112,14,12,5,5,0.4,0.5
2023-05-02T20:00:00,1371A,113.1294,23.0067,佛山市,湾梁,,41,41,51,20,17,155,94,141,135,18,14,9,9,0.6,0.6
2023-05-02T20:00:00,1372A,113.1083,23.0478,佛山市,华材职中,,46,46,46,21,19,159,99,143,140,18,16,6,7,0.4,0.4
2023-05-02T20:00:00,1373A,113.144,23.0453,佛山市,南海气象局,,,,45,,20,124,72,111,106,26,22,5,5,0.5,0.6
2023-05-02T20:00:00,1374A,113.2881,22.8094,佛山市,顺德苏岗,,32,32,36,14,17,126,80,111,105,13,15,4,5,0.6,0.6
2023-05-02T20:00:00,1376A,112.8383,22.8678,佛山市,高明孔堂,,46,46,44,20,17,137,93,124,121,12,12,3,4,0.5,0.5
2023-05-02T20:00:00,1377A,112.8836,23.1588,佛山市,三水监测站,颗粒物(PM10),62,73,52,27,26,164,105,149,146,40,33,5,5,0.7,0.7
2023-05-02T20:00:00,1378A,112.867,23.185,佛山市,三水云东海,颗粒物(PM10),57,64,49,28,21,175,121,156,156,28,21,5,6,0.5,0.5
2023-05-02T20:00:00,1379A,113.3769,22.5211,中山市,华柏园,,29,22,38,20,15,116,78,111,100,10,15,3,5,0.4,0.5
2023-05-02T20:00:00,1380A,113.3881,22.5497,中山市,张溪,,28,28,47,18,15,121,74,118,104,11,16,2,3,0.4,0.5
2023-05-02T20:00:00,1381A,113.4075,22.5111,中山市,紫马岭,,26,25,40,12,16,125,83,120,108,5,11,4,5,0.4,0.4
2023-05-02T20:00:00,1382A,113.4411,22.4853,中山市,长江旅游区,,27,24,36,17,16,126,84,113,107,4,11,7,8,0.3,0.4
2023-05-02T20:00:00,1383A,113.1064,22.6058,江门市,北街,,35,35,44,14,14,125,80,120,108,15,16,5,6,0.6,0.5
2023-05-02T20:00:00,1384A,113.0731,22.5835,江门市,西区,,41,41,42,22,17,135,84,125,116,16,15,6,6,0.5,0.5
2023-05-02T20:00:00,1385A,113.0219,22.5311,江门市,圭峰西,,48,48,45,19,15,132,89,125,117,10,10,2,2,0.6,0.6
2023-05-02T20:00:00,1386A,113.0828,22.5947,江门市,东湖,,42,42,42,19,18,132,87,123,116,12,12,6,6,0.5,0.5
2023-05-02T20:00:00,1389A,113.7547,23.0494,东莞市,莞城梨川,,39,39,38,16,16,169,89,147,135,16,16,7,8,0.6,0.6
2023-05-02T20:00:00,1390A,113.7944,23.0128,东莞市,东城石井,,37,37,37,14,14,163,87,151,135,14,15,9,10,0.5,0.3
2023-05-02T20:00:00,1391A,113.7383,22.9658,东莞市,南城西平,,43,41,43,30,19,144,91,133,124,16,16,6,6,0.1,0.4
2023-05-02T20:00:00,1392A,114.4183,23.0528,惠州市,河南岸金山湖子站,,,,40,,14,132,60,132,110,,11,,6,0.4,0.4
2023-05-02T20:00:00,1393A,114.4053,23.0822,惠州市,下埔横江三路子站,,33,33,41,19,12,152,76,148,128,12,10,4,6,0.5,0.5
2023-05-02T20:00:00,1394A,114.4103,23.1142,惠州市,江北云山西路子站,,31,31,41,20,14,157,90,150,137,9,9,6,7,0.5,0.5
2023-05-02T20:00:00,1395A,114.4645,22.7833,惠州市,惠阳区承修路船湖子站,,34,34,41,19,17,136,91,130,99,12,12,5,6,0.6,0.5
2023-05-02T20:00:00,1396A,114.5317,22.7422,惠州市,大亚湾管委会子站,,46,41,44,17,16,152,145,140,121,14,14,9,8,0.4,0.4
2023-05-02T20:00:00,1397A,112.4267,23.0706,肇庆市,睦岗子站,颗粒物(PM10),54,58,49,23,21,147,116,130,129,15,15,8,10,0.5,0.6
2023-05-02T20:00:00,1398A,112.4645,23.0475,肇庆市,城中子站,颗粒物(PM10),54,58,48,24,23,144,104,124,122,22,22,9,12,0.6,0.6
2023-05-02T20:00:00,1399A,112.5544,23.1522,肇庆市,坑口子站,颗粒物(PM10),56,61,47,29,25,142,109,126,126,27,23,6,6,0.4,0.4
2023-05-02T20:00:00,1400A,112.4753,23.1,肇庆市,七星岩子站,颗粒物(PM10),52,54,46,21,17,148,116,130,130,11,11,5,6,0.5,0.5
2023-05-02T20:00:00,1401A,108.3103,22.7881,南宁市,二十一中,,31,31,40,18,24,120,76,90,89,10,12,5,7,0.8,0.9
2023-05-02T20:00:00,1402A,108.3141,22.8528,南宁市,北湖,,34,34,38,20,24,108,67,82,82,11,11,7,9,0.6,0.6
2023-05-02T20:00:00,1403A,108.3206,22.8225,南宁市,市监测站,,30,30,35,18,26,105,64,82,81,21,19,7,8,0.7,0.8
2023-05-02T20:00:00,1404A,108.3829,22.8037,南宁市,大自然花园,,29,29,34,18,26,111,70,82,74,8,11,6,6,0.8,0.8
2023-05-02T20:00:00,1405A,108.4394,22.7904,南宁市,仙葫,,33,33,36,11,25,112,76,87,83,11,13,5,6,0.6,0.7
2023-05-02T20:00:00,1406A,108.2397,22.8467,南宁市,区农职院,,32,32,38,14,21,117,68,87,81,14,15,7,8,0.6,0.6
2023-05-02T20:00:00,1407A,108.3275,22.735,南宁市,英华嘉园,颗粒物(PM10),52,54,41,19,26,104,60,74,73,20,22,7,8,0.8,0.9
2023-05-02T20:00:00,1408A,108.2257,22.7757,南宁市,沙井镇街道办,,27,27,40,16,23,104,67,81,79,14,22,5,5,0.7,0.8
2023-05-02T20:00:00,1409A,110.576,19.9507,海口市,东寨港,,,22,24,7,13,52,35,40,39,,,6,6,0.5,0.6
2023-05-02T20:00:00,1410A,110.3232,20.0574,海口市,海南大学,,32,32,29,13,14,98,60,77,75,9,6,6,6,0.3,0.4
2023-05-02T20:00:00,1411A,110.283,20.0053,海口市,秀英海南医院,,45,45,30,16,15,90,57,72,67,10,8,4,4,0.5,0.5
2023-05-02T20:00:00,1412A,110.338,19.9969,海口市,海南师范大学,,38,38,32,14,16,83,57,69,67,3,3,4,4,0.3,0.4
2023-05-02T20:00:00,1413A,110.33,20.0356,海口市,龙华路环保局宿舍,,34,34,31,17,15,70,41,51,47,9,7,5,5,0.4,0.4
2023-05-02T20:00:00,1414A,106.3787,29.8279,重庆市,缙云山,颗粒物(PM10),59,68,64,28,19,177,163,130,130,17,15,12,10,0.5,0.4
2023-05-02T20:00:00,1416A,106.4213,29.8253,重庆市,天生,颗粒物(PM10),77,104,64,45,30,163,134,131,131,24,18,10,10,0.8,0.7
2023-05-02T20:00:00,1417A,106.6263,29.7228,重庆市,两路,颗粒物(PM10),60,69,58,29,22,167,98,132,132,36,40,11,9,0.9,0.7
2023-05-02T20:00:00,1418A,106.2953,29.5983,重庆市,虎溪,颗粒物(PM10),70,90,64,46,29,157,143,128,128,31,25,9,9,0.7,0.5
2023-05-02T20:00:00,1419A,106.5777,29.5102,重庆市,南坪,颗粒物(PM10),60,69,64,35,30,166,102,140,140,30,20,12,11,0.7,0.6
2023-05-02T20:00:00,1420A,106.6556,29.6277,重庆市,唐家沱,颗粒物(PM10),65,80,59,26,22,182,113,151,151,22,18,13,9,1.2,0.8
2023-05-02T20:00:00,1421A,106.6349,29.4906,重庆市,茶园,,49,49,72,19,28,163,105,142,141,28,32,7,7,0.8,0.7
2023-05-02T20:00:00,1422A,106.3754,29.4572,重庆市,白市驿,细颗粒物(PM2.5),62,69,63,44,26,166,130,138,138,23,20,11,11,0.7,0.5
2023-05-02T20:00:00,1425A,106.6205,29.7166,重庆市,空港,颗粒物(PM10),98,145,65,37,27,177,106,144,144,30,23,14,10,0.9,0.6
2023-05-02T20:00:00,1426A,106.4782,29.4875,重庆市,新山村,颗粒物(PM10),75,99,82,44,29,160,105,131,131,34,35,12,10,0.7,0.5
2023-05-02T20:00:00,1427A,106.5616,29.6453,重庆市,礼嘉,颗粒物(PM10),63,76,63,30,26,177,109,144,144,28,32,16,9,1.2,0.7
2023-05-02T20:00:00,1428A,106.4522,29.7091,重庆市,蔡家,颗粒物(PM10),76,101,68,41,25,160,124,128,128,24,24,12,8,0.8,0.5
2023-05-02T20:00:00,1429A,106.5093,29.3917,重庆市,鱼新街,,,69,55,28,26,189,120,154,154,26,25,8,11,,0.7
2023-05-02T20:00:00,1431A,103.9728,30.7236,成都市,金泉两河,颗粒物(PM10),52,53,56,15,28,155,130,144,144,13,9,2,2,0.4,0.3
2023-05-02T20:00:00,1432A,104.176,30.6872,成都市,十里店,颗粒物(PM10),56,61,60,36,32,159,122,141,141,10,11,2,2,0.4,0.3
2023-05-02T20:00:00,1433A,104.079,30.5706,成都市,三瓦窑,颗粒物(PM10),56,62,59,22,30,175,146,155,155,9,10,2,2,0.4,0.3
2023-05-02T20:00:00,1434A,104.1114,30.63,成都市,沙河铺,,,,57,,27,172,128,148,148,,7,,2,0.4,0.3
2023-05-02T20:00:00,1437A,104.0786,30.6531,成都市,君平街,细颗粒物(PM2.5),67,58,56,48,32,179,142,155,155,18,14,2,2,0.4,0.5
2023-05-02T20:00:00,1438A,103.613,31.0283,成都市,灵岩寺,,50,38,46,27,29,179,160,158,158,10,9,3,5,0.6,0.7
2023-05-02T20:00:00,1439A,106.6899,26.5998,贵阳市,马鞍山,,44,44,49,29,27,113,93,110,104,14,9,4,5,0.6,0.5
2023-05-02T20:00:00,1440A,106.6971,26.5694,贵阳市,市环保站,细颗粒物(PM2.5),55,46,57,39,33,110,91,105,100,20,16,4,5,0.3,0.3
2023-05-02T20:00:00,1441A,106.6243,26.6266,贵阳市,鉴湖路,颗粒物(PM10),51,51,59,29,24,111,92,111,102,10,8,4,4,0.2,0.2
2023-05-02T20:00:00,1442A,106.7487,26.6343,贵阳市,燕子冲,,48,48,57,29,33,110,95,108,103,14,11,5,6,0.6,0.4
2023-05-02T20:00:00,1443A,106.6555,26.4365,贵阳市,碧云窝,颗粒物(PM10),51,51,59,22,22,116,97,116,104,12,7,5,5,0.7,0.6
2023-05-02T20:00:00,1444A,106.694,26.5161,贵阳市,中院村,颗粒物(PM10),52,53,63,27,26,104,82,100,91,18,15,7,8,0.5,0.5
2023-05-02T20:00:00,1445A,106.7109,26.6027,贵阳市,红边门,,48,48,58,31,31,110,89,108,100,23,17,4,4,0.6,0.5
2023-05-02T20:00:00,1446A,106.7164,26.5699,贵阳市,新华路,颗粒物(PM10),54,58,58,34,28,111,94,110,103,16,11,3,3,0.5,0.5
2023-05-02T20:00:00,1447A,106.674,26.5424,贵阳市,太慈桥,,46,46,59,29,22,116,94,114,104,13,8,4,5,0.4,0.4
2023-05-02T20:00:00,1450A,102.8204,24.8886,昆明市,呈贡新区,,35,35,33,15,23,122,105,113,110,7,7,6,5,0.6,0.6
2023-05-02T20:00:00,1451A,102.6251,24.9608,昆明市,西山森林公园,,37,23,26,13,22,126,116,122,120,11,12,6,7,0.7,0.8
2023-05-02T20:00:00,1452A,102.7252,25.0902,昆明市,龙泉镇,,32,19,29,17,21,110,102,107,105,8,11,6,8,0.4,0.5
2023-05-02T20:00:00,1453A,102.7266,25.0375,昆明市,东风东路,,30,27,34,15,22,104,94,98,97,8,10,6,8,0.6,0.7
2023-05-02T20:00:00,1454A,102.6742,25.0669,昆明市,金鼎山,,33,23,32,22,23,111,103,107,105,14,11,3,4,0.6,0.6
2023-05-02T20:00:00,1455A,102.6644,25.0401,昆明市,碧鸡广场,,34,26,35,15,24,116,107,111,110,10,13,5,6,0.6,0.7
2023-05-02T20:00:00,1456A,91.1319,29.6514,拉萨市,八廓街,,48,20,17,4,6,157,151,153,153,12,11,6,7,0.2,0.2
2023-05-02T20:00:00,1457A,91.1221,29.6747,拉萨市,市环保局,,48,7,13,1,4,166,152,158,158,13,11,6,5,0.7,0.4
2023-05-02T20:00:00,1458A,91.0874,29.6475,拉萨市,区监测站,,48,27,15,5,5,156,151,153,153,12,13,7,7,0.1,0.1
2023-05-02T20:00:00,1459A,91.1774,29.6541,拉萨市,西藏大学,,50,19,11,4,4,164,158,160,160,7,8,8,9,0.5,0.4
2023-05-02T20:00:00,1460A,90.9798,29.6588,拉萨市,区辐射站,,40,32,22,7,6,143,127,135,135,24,15,8,8,0.4,0.4
2023-05-02T20:00:00,1461A,91.0834,29.6292,拉萨市,拉萨火车站,,48,25,14,6,3,154,153,150,150,6,9,8,8,0.3,0.3
2023-05-02T20:00:00,1462A,108.882,34.2749,西安市,高压开关厂,颗粒物(PM10),65,80,92,32,39,166,95,140,138,20,49,7,10,0.4,0.5
2023-05-02T20:00:00,1463A,108.993,34.2629,西安市,兴庆小区,颗粒物(PM10),62,74,81,24,28,161,98,136,133,5,16,5,7,0.5,0.6
2023-05-02T20:00:00,1464A,109.06,34.2572,西安市,纺织城,颗粒物(PM10),56,61,91,30,37,164,102,137,134,2,19,5,7,0.3,0.5
2023-05-02T20:00:00,1465A,108.9356,34.2173,西安市,小寨,颗粒物(PM10),65,79,81,24,30,166,92,140,136,16,27,8,9,0.3,0.4
2023-05-02T20:00:00,1466A,108.954,34.2713,西安市,市人民体育场,颗粒物(PM10),61,71,86,32,34,163,93,135,133,14,28,7,8,0.3,0.4
2023-05-02T20:00:00,1467A,108.8922,34.2322,西安市,高新西区,颗粒物(PM10),54,57,76,26,31,175,98,147,145,13,37,7,8,0.4,0.5
2023-05-02T20:00:00,1468A,108.935,34.3474,西安市,经开区,颗粒物(PM10),63,75,90,31,39,156,90,138,133,15,41,4,5,0.2,0.4
2023-05-02T20:00:00,1469A,108.906,34.1546,西安市,长安区,颗粒物(PM10),51,51,73,31,30,176,92,147,142,14,29,6,7,0.5,0.5
2023-05-02T20:00:00,1471A,109.2186,34.3731,西安市,临潼区,,43,43,86,23,34,153,118,136,136,7,28,6,9,0.6,0.8
2023-05-02T20:00:00,1472A,108.869,34.378,西安市,草滩,颗粒物(PM10),73,95,98,46,35,141,88,129,125,15,50,5,12,0.0,0.4
2023-05-02T20:00:00,1473A,108.985,34.1978,西安市,曲江文化产业集团,颗粒物(PM10),68,85,88,30,33,171,99,144,140,15,24,5,7,0.3,0.4
2023-05-02T20:00:00,1474A,109.051,34.3213,西安市,广运潭,颗粒物(PM10),71,91,104,29,34,142,99,123,122,12,24,6,9,0.3,0.5
2023-05-02T20:00:00,1476A,103.631,36.1031,兰州市,兰炼宾馆,"颗粒物(PM10),细颗粒物(PM2.5)",69,87,91,50,55,165,124,145,145,16,42,4,19,0.3,0.6
2023-05-02T20:00:00,1477A,104.1373,35.9454,兰州市,榆中兰大校区,,,,,,,,,,,,,,,,
2023-05-02T20:00:00,1478A,103.8412,36.0726,兰州市,生物制品所,颗粒物(PM10),72,93,90,32,36,150,118,132,132,21,40,5,10,0.4,0.7
2023-05-02T20:00:00,1479A,103.831,36.0464,兰州市,铁路设计院,颗粒物(PM10),54,57,82,33,36,157,126,137,137,17,50,3,9,0.4,0.8
2023-05-02T20:00:00,1483A,101.524,36.6867,西宁市,第五水厂,,,,,,,,,,,,,,,,
2023-05-02T20:00:00,1484A,105.9512,38.6016,银川市,贺兰山马莲口,颗粒物(PM10),65,79,56,26,25,165,129,151,150,8,8,10,11,0.4,0.4
2023-05-02T20:00:00,1488A,106.2328,38.4975,银川市,贺兰山东路,颗粒物(PM10),84,118,118,34,48,148,126,142,142,18,15,4,7,0.3,0.3
2023-05-02T20:00:00,1489A,106.1358,38.5036,银川市,学院路,颗粒物(PM10),85,120,117,25,27,154,123,145,143,15,21,7,13,0.3,0.4
2023-05-02T20:00:00,1490A,87.5801,43.8303,乌鲁木齐市,监测站,颗粒物(PM10),54,58,135,19,29,99,90,92,92,15,17,4,5,0.4,0.4
2023-05-02T20:00:00,1491A,87.6046,43.768,乌鲁木齐市,收费所,颗粒物(PM10),65,79,171,26,34,95,85,87,87,15,16,4,4,0.2,0.2
2023-05-02T20:00:00,1492A,87.4754,43.9469,乌鲁木齐市,新疆农科院农场,细颗粒物(PM2.5),119,70,166,90,67,96,90,90,90,14,15,5,5,0.7,0.7
2023-05-02T20:00:00,1493A,87.5525,43.8711,乌鲁木齐市,铁路局,颗粒物(PM10),54,57,133,21,34,103,95,96,96,10,13,4,5,0.4,0.5
2023-05-02T20:00:00,1494A,87.6432,43.831,乌鲁木齐市,三十一中学,颗粒物(PM10),62,74,132,30,28,105,94,98,98,5,6,8,10,0.6,0.7
2023-05-02T20:00:00,1496A,87.7216,44.1747,乌鲁木齐市,米东区环保局,颗粒物(PM10),51,51,120,23,34,106,103,104,104,2,2,11,10,0.2,0.2
2023-05-02T20:00:00,1508A,112.9433,27.8614,湘潭市,板塘,颗粒物(PM10),65,80,79,46,37,91,60,75,75,33,28,18,18,0.7,0.6
2023-05-02T20:00:00,1511A,112.9118,27.8403,湘潭市,市监测站,颗粒物(PM10),68,85,69,45,44,105,71,90,86,29,22,18,14,1.1,0.8
2023-05-02T20:00:00,1512A,112.8937,27.8728,湘潭市,江麓,细颗粒物(PM2.5),78,91,79,57,32,106,75,92,91,18,15,9,10,0.6,0.6
2023-05-02T20:00:00,1513A,112.9227,27.8159,湘潭市,岳塘,,,88,81,44,35,101,68,86,86,18,14,3,11,,0.5
2023-05-02T20:00:00,1514A,112.9074,27.9119,湘潭市,科大,颗粒物(PM10),65,80,85,42,34,109,76,92,92,25,20,13,13,1.1,1
2023-05-02T20:00:00,1515A,113.135,27.8244,株洲市,天台山庄,颗粒物(PM10),76,102,83,52,34,113,86,100,100,23,13,19,13,1.0,0.7
2023-05-02T20:00:00,1518A,113.095,27.8867,株洲市,株冶医院,细颗粒物(PM2.5),73,88,82,53,40,107,86,98,97,22,29,14,11,0.9,0.6
2023-05-02T20:00:00,1519A,113.167,27.8667,株洲市,市四中,颗粒物(PM10),64,77,78,44,40,106,87,98,98,22,22,16,14,0.7,0.5
2023-05-02T20:00:00,1520A,113.143,27.8381,株洲市,火车站,,,,82,67,35,105,,95,95,24,18,16,12,0.9,0.8
2023-05-02T20:00:00,1524A,113.13,27.8528,株洲市,市监测站,细颗粒物(PM2.5),77,85,79,56,40,114,92,102,102,20,17,12,8,1.0,0.7
2023-05-02T20:00:00,1552A,106.805,26.3003,贵阳市,桐木岭,,,46,57,,29,118,103,118,101,1,2,2,2,0.5,0.4
2023-05-02T20:00:00,1559A,113.251,27.8336,株洲市,大京风景区,颗粒物(PM10),62,73,69,35,29,101,89,95,95,11,9,10,9,1.0,0.8
2023-05-02T20:00:00,1562A,113.0048,27.9153,湘潭市,昭山,颗粒物(PM10),69,88,82,38,33,103,85,93,93,20,21,12,9,1.1,1
2023-05-02T20:00:00,1564A,112.4876,27.9164,湘潭市,韶山,,41,41,61,23,20,101,61,82,82,6,7,6,7,0.9,0.8
2023-05-02T20:00:00,1585A,109.8756,40.6532,包头市,市环境监测站,颗粒物(PM10),93,135,126,49,48,142,100,128,127,31,36,13,22,0.4,0.5
2023-05-02T20:00:00,1587A,109.9991,40.5842,包头市,包头八中,细颗粒物(PM2.5),97,129,122,72,57,144,98,132,130,37,31,11,29,0.5,0.6
2023-05-02T20:00:00,1588A,109.8538,40.6821,包头市,青山宾馆,细颗粒物(PM2.5),82,106,115,60,53,137,114,124,124,19,40,9,21,0.4,0.9
2023-05-02T20:00:00,1589A,109.8642,40.6288,包头市,惠龙物流,颗粒物(PM10),88,125,121,47,51,140,106,125,125,27,33,8,18,0.4,0.5
2023-05-02T20:00:00,1590A,110.0377,40.5546,包头市,东河鸿龙湾,颗粒物(PM10),96,141,130,58,55,136,86,126,123,27,27,7,22,0.4,0.5
2023-05-02T20:00:00,1591A,110.0023,39.8129,鄂尔多斯市,综合楼,颗粒物(PM10),115,180,143,51,42,132,104,121,120,27,22,7,8,0.5,0.6
2023-05-02T20:00:00,1592A,109.9486,39.8261,鄂尔多斯市,巴音孟克林场办事处,颗粒物(PM10),109,168,127,51,36,143,103,129,127,22,15,9,8,0.6,0.6
2023-05-02T20:00:00,1593A,109.7736,39.5986,鄂尔多斯市,康泽苑,颗粒物(PM10),89,127,123,46,43,133,111,125,124,16,22,10,10,0.6,0.6
2023-05-02T20:00:00,1594A,109.8119,39.5989,鄂尔多斯市,华泰汽车城,颗粒物(PM10),81,112,131,41,40,129,107,121,121,14,31,8,8,0.4,0.6
2023-05-02T20:00:00,1595A,109.9734,39.7884,鄂尔多斯市,奥林花园,颗粒物(PM10),101,151,143,41,39,138,105,126,125,22,36,8,6,0.6,0.7
2023-05-02T20:00:00,1597A,122.2703,40.7094,营口市,大庆路,颗粒物(PM10),58,65,53,22,23,183,151,170,169,15,16,6,8,0.5,0.6
2023-05-02T20:00:00,1598A,122.2150,40.6511,营口市,镜湖西路,颗粒物(PM10),54,58,50,18,17,170,132,158,156,15,16,6,13,0.4,0.5
2023-05-02T20:00:00,1599A,122.1658,40.6789,营口市,西炮台,颗粒物(PM10),65,80,65,20,17,187,150,172,171,17,20,8,11,0.4,0.5
2023-05-02T20:00:00,1600A,124.3303,40.0625,丹东市,江湾东路,颗粒物(PM10),66,81,54,28,23,158,150,152,152,11,12,9,10,0.6,0.7
2023-05-02T20:00:00,1601A,124.4256,40.1503,丹东市,临江后街,颗粒物(PM10),59,67,43,18,17,168,156,155,155,8,10,13,12,0.5,0.6
2023-05-02T20:00:00,1602A,124.3933,40.1461,丹东市,元宝山,,46,41,31,25,17,158,147,148,148,14,13,9,9,0.4,0.6
2023-05-02T20:00:00,1603A,124.3633,40.1092,丹东市,民主桥,颗粒物(PM10),65,79,42,32,18,159,139,148,148,19,16,6,6,0.7,0.6
2023-05-02T20:00:00,1604A,122.0303,41.1489,盘锦市,开发区,颗粒物(PM10),65,80,67,23,24,184,135,173,169,26,20,29,10,1.3,1
2023-05-02T20:00:00,1605A,122.0485,41.0883,盘锦市,兴隆台,颗粒物(PM10),60,70,73,22,25,178,127,169,163,26,23,10,9,0.8,0.8
2023-05-02T20:00:00,1606A,121.8297,41.1028,盘锦市,新生街道,,47,47,51,20,25,187,148,170,170,17,20,7,8,0.6,0.6
2023-05-02T20:00:00,1607A,120.9092,40.7136,葫芦岛市,龙港区,臭氧1小时,63,55,61,18,23,208,170,194,194,16,16,8,9,0.3,0.4
2023-05-02T20:00:00,1608A,120.8392,40.7514,葫芦岛市,化工街,颗粒物(PM10),64,78,81,22,27,214,166,199,198,12,13,7,8,0.6,0.6
2023-05-02T20:00:00,1609A,120.8341,40.7073,葫芦岛市,新区,臭氧1小时,63,68,69,19,26,219,170,202,202,14,15,11,12,0.4,0.6
2023-05-02T20:00:00,1610A,120.8695,40.7677,葫芦岛市,东城区,臭氧1小时,53,53,71,22,24,216,162,198,198,23,20,8,9,0.5,0.5
2023-05-02T20:00:00,1611A,118.5819,24.9117,泉州市,涂山街,,50,50,54,26,20,158,99,133,128,23,17,10,10,0.7,0.6
2023-05-02T20:00:00,1612A,118.5972,24.8978,泉州市,津头埔,细颗粒物(PM2.5),53,53,53,37,23,155,90,133,126,30,23,10,11,0.7,0.5
2023-05-02T20:00:00,1613A,118.6663,24.9424,泉州市,万安,细颗粒物(PM2.5),55,47,50,39,25,164,105,139,136,13,13,7,10,0.7,0.6
2023-05-02T20:00:00,1614A,118.6117,24.9604,泉州市,清源山,,,,,,,,,,,,,,,,
2023-05-02T20:00:00,1616A,117.6795,36.229,济南市,技术学院,细颗粒物(PM2.5),89,78,82,66,57,179,156,170,169,27,22,10,12,0.8,0.6
2023-05-02T20:00:00,1618A,118.3429,35.0532,临沂市,沂河小区,颗粒物(PM10),67,83,98,32,45,175,134,164,162,30,16,13,15,0.3,0.3
2023-05-02T20:00:00,1619A,118.295,35.0583,临沂市,鲁南制药厂,颗粒物(PM10),68,85,92,26,36,188,143,178,175,21,22,12,21,0.4,0.4
2023-05-02T20:00:00,1620A,118.2794,34.9976,临沂市,新光毛纺厂,颗粒物(PM10),51,51,62,28,40,177,125,167,163,21,19,8,17,0.4,0.4
2023-05-02T20:00:00,1621A,118.3956,35.0888,临沂市,河东保险公司,颗粒物(PM10),60,70,86,28,46,180,130,158,151,31,30,12,14,0.6,0.6
2023-05-02T20:00:00,1622A,116.3032,37.4674,德州市,儿童乐园,颗粒物(PM10),67,83,97,29,34,180,161,164,164,12,11,7,9,0.7,0.7
2023-05-02T20:00:00,1624A,116.2991,37.4451,德州市,监理站,颗粒物(PM10),66,81,100,24,27,177,154,164,164,19,18,12,11,0.5,0.5
2023-05-02T20:00:00,1625A,115.9848,36.4372,聊城市,区政府,颗粒物(PM10),72,94,94,36,33,170,154,158,158,25,22,12,13,0.7,0.6
2023-05-02T20:00:00,1628A,118.0062,37.3803,滨州市,市环保局,颗粒物(PM10),76,102,97,35,31,181,119,160,158,35,21,10,13,0.7,0.6
2023-05-02T20:00:00,1629A,118.0018,37.3617,滨州市,第二水厂,颗粒物(PM10),79,107,100,24,33,178,114,155,153,40,26,8,10,0.6,0.6
2023-05-02T20:00:00,1630A,117.9776,37.393,滨州市,北中新校,颗粒物(PM10),70,89,93,30,29,181,125,161,160,28,16,8,10,0.4,0.4
2023-05-02T20:00:00,1631A,118.0414,36.8103,淄博市,人民公园,颗粒物(PM10),68,85,68,45,30,169,147,158,158,25,11,13,12,0.6,0.4
2023-05-02T20:00:00,1633A,117.8525,36.4847,淄博市,双山,颗粒物(PM10),57,64,70,33,29,179,139,167,165,23,13,11,11,0.4,0.4
2023-05-02T20:00:00,1634A,117.9592,36.6331,淄博市,气象站,颗粒物(PM10),74,97,82,36,24,182,156,168,168,24,12,11,10,0.5,0.4
2023-05-02T20:00:00,1635A,118.3092,36.8194,淄博市,莆田园,颗粒物(PM10),73,95,74,39,29,168,125,159,156,26,10,12,11,0.5,0.5
2023-05-02T20:00:00,1637A,117.558,34.8438,枣庄市,市中区政府,颗粒物(PM10),75,100,111,34,41,192,167,184,183,31,29,9,18,0.5,0.5
2023-05-02T20:00:00,1638A,117.2852,34.7837,枣庄市,薛城环保局,颗粒物(PM10),73,95,98,34,52,184,162,176,175,26,22,11,12,0.4,0.3
2023-05-02T20:00:00,1639A,117.5852,34.7745,枣庄市,峄城区政府,颗粒物(PM10),70,90,99,27,41,191,160,176,175,21,22,12,15,0.4,0.4
2023-05-02T20:00:00,1640A,117.7276,34.5578,枣庄市,台儿庄区环保局,,,,120,29,29,176,118,158,152,44,38,14,12,0.8,0.7
2023-05-02T20:00:00,1641A,117.4518,35.0992,枣庄市,山亭区环保局,颗粒物(PM10),71,92,92,42,42,182,169,175,175,22,17,9,9,0.3,0.2
2023-05-02T20:00:00,1642A,121.2514,37.5639,烟台市,开发区,,48,48,70,17,26,184,142,159,147,13,14,8,9,0.4,0.4
2023-05-02T20:00:00,1643A,121.3719,37.5433,烟台市,轴承厂,颗粒物(PM10),53,56,71,20,25,182,147,164,155,7,7,7,8,0.4,0.4
2023-05-02T20:00:00,1644A,121.3181,37.5436,烟台市,西郊化工站,颗粒物(PM10),54,58,82,17,20,182,145,168,156,9,8,4,5,0.3,0.3
2023-05-02T20:00:00,1645A,121.4478,37.4822,烟台市,莱山环保局,颗粒物(PM10),53,56,75,20,24,181,144,160,152,6,8,8,9,0.3,0.3
2023-05-02T20:00:00,1646A,121.2611,37.4967,烟台市,福山环保局,颗粒物(PM10),57,63,83,19,21,180,142,158,148,11,15,9,10,0.1,0.2
2023-05-02T20:00:00,1650A,119.1437,36.7023,潍坊市,环保局,颗粒物(PM10),58,66,95,18,31,176,139,165,158,14,18,7,10,0.5,0.7
2023-05-02T20:00:00,1653A,116.6251,35.4302,济宁市,火炬城,颗粒物(PM10),71,92,86,34,29,194,160,183,183,16,14,13,16,0.7,0.7
2023-05-02T20:00:00,1655A,116.5491,35.4042,济宁市,电化厂,颗粒物(PM10),72,93,96,34,32,201,163,188,187,17,12,10,17,0.6,0.6
2023-05-02T20:00:00,1656A,117.1437,36.1937,泰安市,监测站,颗粒物(PM10),64,78,79,37,36,175,128,167,163,29,14,7,9,0.6,0.5
2023-05-02T20:00:00,1657A,117.0885,36.2017,泰安市,人口学校,颗粒物(PM10),67,83,86,34,33,172,131,164,160,20,10,7,10,0.5,0.4
2023-05-02T20:00:00,1658A,117.1089,36.1758,泰安市,电力学校,细颗粒物(PM2.5),97,88,83,72,35,173,114,166,158,46,17,10,13,0.6,0.5
2023-05-02T20:00:00,1659A,119.471,35.4209,日照市,监测站,颗粒物(PM10),52,53,92,24,34,174,118,169,141,26,26,3,5,0.2,0.4
2023-05-02T20:00:00,1660A,119.523,35.4216,日照市,市政府广场,颗粒物(PM10),56,61,95,17,29,174,130,169,148,11,18,4,6,0.2,0.4
2023-05-02T20:00:00,1661A,119.5587,35.4044,日照市,港务局,,,,104,12,30,182,138,175,155,12,25,6,8,0.2,0.4
2023-05-02T20:00:00,1662A,122.1214,37.4236,威海市,华夏技校,颗粒物(PM10),51,51,69,20,26,166,142,154,149,14,14,3,4,0.3,0.4
2023-05-02T20:00:00,1663A,122.0508,37.5236,威海市,山大分校,颗粒物(PM10),70,90,84,12,18,180,159,169,160,6,8,2,2,0.4,0.4
2023-05-02T20:00:00,1664A,122.1067,37.5072,威海市,市监测站,颗粒物(PM10),58,66,73,12,27,179,158,176,154,8,8,5,5,0.3,0.3
2023-05-02T20:00:00,1666A,118.6614,37.4309,东营市,市环保局,颗粒物(PM10),67,83,101,24,34,364,150,194,170,18,23,10,16,0.7,0.7
2023-05-02T20:00:00,1669A,113.5824,24.7733,韶关市,市八中,,34,34,60,17,27,125,101,114,111,13,19,6,16,0.5,0.7
2023-05-02T20:00:00,1671A,113.5917,24.7972,韶关市,园林处,,31,28,60,14,24,117,97,109,107,10,15,8,14,0.6,0.8
2023-05-02T20:00:00,1672A,113.6735,24.7791,韶关市,韶关学院,,30,29,58,21,30,125,80,113,110,38,24,27,21,1.1,0.7
2023-05-02T20:00:00,1673A,113.5971,24.6863,韶关市,曲江监测站,,36,36,52,20,28,132,111,120,120,14,16,10,10,0.6,0.7
2023-05-02T20:00:00,1674A,116.6794,23.3667,汕头市,金平子站,,40,28,42,20,14,150,127,139,138,13,20,5,9,0.7,0.6
2023-05-02T20:00:00,1675A,116.7244,23.3633,汕头市,龙湖子站,,43,43,45,18,13,162,137,156,155,12,16,3,6,0.6,0.5
2023-05-02T20:00:00,1676A,116.7258,23.2775,汕头市,濠江子站,,38,38,40,19,14,152,120,146,140,13,11,8,9,0.6,0.5
2023-05-02T20:00:00,1677A,116.7519,23.4714,汕头市,澄海子站,,46,46,51,23,19,162,128,153,152,19,20,5,9,0.6,0.4
2023-05-02T20:00:00,1678A,116.6092,23.2539,汕头市,潮阳子站,,49,49,52,19,15,159,127,147,146,12,15,10,11,0.4,0.3
2023-05-02T20:00:00,1680A,110.3539,21.2706,湛江市,湛江影剧院,,42,42,36,21,18,103,81,102,82,4,5,5,5,0.4,0.4
2023-05-02T20:00:00,1681A,110.3928,21.2228,湛江市,市环境监测站,,40,40,34,19,24,103,72,99,76,17,8,6,6,0.5,0.6
2023-05-02T20:00:00,1682A,110.4019,21.1997,湛江市,环保局宿舍,,40,40,34,16,19,109,85,106,84,4,4,4,4,0.4,0.5
2023-05-02T20:00:00,1683A,110.4111,21.2028,湛江市,霞山游泳场,,42,42,37,18,18,114,89,110,90,6,5,5,5,0.5,0.6
2023-05-02T20:00:00,1684A,110.3316,21.2679,湛江市,麻章区环保局,,48,48,36,19,21,109,84,108,85,6,6,5,5,0.5,0.6
2023-05-02T20:00:00,1685A,110.4558,21.2567,湛江市,坡头区环保局,,37,37,30,19,15,115,91,110,93,4,4,6,6,0.6,0.7
2023-05-02T20:00:00,1686A,111.0286,21.4688,茂名市,电白南海,颗粒物(PM10),52,53,52,19,22,116,87,115,100,7,6,5,5,0.5,0.5
2023-05-02T20:00:00,1687A,110.9294,21.6533,茂名市,茂石化七小,,44,44,35,17,18,107,80,104,87,6,6,4,4,0.5,0.5
2023-05-02T20:00:00,1688A,110.9107,21.6687,茂名市,健康路,,41,41,32,18,13,109,83,104,90,5,5,5,6,0.4,0.5
2023-05-02T20:00:00,1689A,110.8592,21.6828,茂名市,高岭,颗粒物(PM10),52,53,43,22,24,113,78,107,88,11,9,4,5,0.6,0.6
2023-05-02T20:00:00,1690A,116.1231,24.3284,梅州市,梅江月梅,,,,47,,21,154,119,144,138,,10,9,10,,0.5
2023-05-02T20:00:00,1691A,116.0797,24.2719,梅州市,梅县新城,,35,32,50,19,22,150,112,139,130,11,13,9,10,0.5,0.5
2023-05-02T20:00:00,1692A,116.1248,24.2654,梅州市,环境监控中心,,35,26,52,24,23,153,108,147,133,20,19,6,7,0.5,0.5
2023-05-02T20:00:00,1693A,115.3653,22.775,汕尾市,市环保局,,43,43,43,14,17,159,135,135,135,6,8,10,10,0.6,0.6
2023-05-02T20:00:00,1694A,115.3706,22.7898,汕尾市,市政府,,45,36,42,20,17,164,142,140,140,8,10,6,7,0.7,0.6
2023-05-02T20:00:00,1695A,115.3622,22.7925,汕尾市,新城中学,,,,,,,,,,,,,,,,
2023-05-02T20:00:00,1696A,114.6778,23.7569,河源市,源西,,,,44,51,22,121,,115,115,15,11,5,5,0.6,0.6
2023-05-02T20:00:00,1697A,114.6944,23.7586,河源市,东埔,,42,42,45,23,22,132,103,124,121,14,11,5,6,0.5,0.5
2023-05-02T20:00:00,1698A,114.6892,23.7233,河源市,老城,,47,47,54,16,20,133,107,127,124,9,10,4,6,0.6,0.6
2023-05-02T20:00:00,1699A,111.9797,21.8593,阳江市,鸳鸯湖,,47,47,38,22,18,116,83,112,92,2,4,6,7,0.5,0.6
2023-05-02T20:00:00,1701A,111.9491,21.8658,阳江市,马南垌,,44,44,41,19,19,114,81,110,91,6,7,5,6,0.6,0.6
2023-05-02T20:00:00,1702A,113.0426,23.691,清远市,环保大楼,颗粒物(PM10),60,69,64,38,32,171,124,151,151,27,27,6,7,0.9,1
2023-05-02T20:00:00,1703A,113.0208,23.7106,清远市,凤城街办,颗粒物(PM10),64,77,72,35,30,163,125,143,143,19,18,7,7,0.7,0.7
2023-05-02T20:00:00,1705A,116.6367,23.6719,潮州市,西园路,颗粒物(PM10),65,79,57,38,24,146,121,129,129,15,11,5,6,0.5,0.3
2023-05-02T20:00:00,1706A,116.6447,23.6706,潮州市,档案局,细颗粒物(PM2.5),92,66,55,68,27,178,138,162,159,15,9,9,10,0.5,0.4
2023-05-02T20:00:00,1708A,116.3701,23.5345,揭阳市,新兴,颗粒物(PM10),58,66,59,38,23,184,112,167,163,27,22,8,12,0.6,0.5
2023-05-02T20:00:00,1709A,116.3264,23.5443,揭阳市,西马,颗粒物(PM10),64,78,61,32,22,181,126,163,162,21,21,7,10,0.6,0.6
2023-05-02T20:00:00,1710A,116.3611,23.5626,揭阳市,东兴,颗粒物(PM10),57,64,60,30,22,187,123,165,164,25,23,6,10,0.7,0.5
2023-05-02T20:00:00,1711A,116.4151,23.5294,揭阳市,渔湖,颗粒物(PM10),56,62,62,33,27,184,120,165,162,20,21,12,13,0.8,0.5
2023-05-02T20:00:00,1712A,112.0392,22.9169,云浮市,新市府,,45,45,33,24,22,107,80,102,97,6,7,4,5,0.6,0.7
2023-05-02T20:00:00,1714A,112.0539,22.9539,云浮市,牧羊,,49,49,44,23,24,111,94,99,99,13,14,7,9,0.5,0.6
2023-05-02T20:00:00,1715A,102.575,24.3711,玉溪市,东风水库,,40,40,27,28,19,113,110,110,110,9,10,6,7,0.6,0.8
2023-05-02T20:00:00,1718A,115.4208,35.2464,菏泽市,气象局,颗粒物(PM10),64,77,85,27,35,156,122,145,144,15,17,8,8,0.5,0.4
2023-05-02T20:00:00,1719A,115.4747,35.2375,菏泽市,市政协,颗粒物(PM10),60,69,70,39,35,158,121,147,144,14,14,6,6,0.7,0.5
2023-05-02T20:00:00,1721A,113.3819,40.1097,大同市,果树场,颗粒物(PM10),97,143,100,67,39,136,82,130,125,29,16,10,12,0.5,0.5
2023-05-02T20:00:00,1723A,113.2994,40.0758,大同市,云冈宾馆,颗粒物(PM10),110,170,127,54,41,141,105,132,131,34,29,8,10,0.4,0.5
2023-05-02T20:00:00,1724A,113.3444,40.0917,大同市,大同大学,颗粒物(PM10),99,148,122,43,42,147,121,137,137,18,18,11,13,0.4,0.5
2023-05-02T20:00:00,1725A,113.2661,40.1269,大同市,安家小村,颗粒物(PM10),108,166,134,59,44,140,116,133,132,21,19,8,10,0.3,0.4
2023-05-02T20:00:00,1726A,113.2711,40.0844,大同市,教育学院,颗粒物(PM10),101,152,127,51,47,141,110,128,128,26,27,9,11,0.4,0.5
2023-05-02T20:00:00,1727A,113.1147,36.1547,长治市,清华站,颗粒物(PM10),53,55,60,17,22,148,134,144,141,13,9,9,8,0.5,0.5
2023-05-02T20:00:00,1728A,113.1031,36.1989,长治市,监测站,颗粒物(PM10),51,51,60,29,24,143,122,137,134,16,10,6,6,0.4,0.6
2023-05-02T20:00:00,1730A,113.0886,36.2125,长治市,审计局,,50,50,60,22,23,145,119,138,134,21,12,9,9,0.4,0.4
2023-05-02T20:00:00,1731A,113.0844,36.1856,长治市,长治八中,颗粒物(PM10),56,62,73,35,27,145,124,139,136,13,7,6,6,0.4,0.4
2023-05-02T20:00:00,1733A,111.5531,36.0783,临汾市,临钢医院,颗粒物(PM10),59,68,95,41,45,190,118,166,162,24,31,5,6,0.8,0.8
2023-05-02T20:00:00,1734A,111.5028,36.0714,临汾市,技工学校,颗粒物(PM10),61,72,85,40,35,197,133,174,171,17,22,7,7,0.8,0.9
2023-05-02T20:00:00,1736A,111.5018,36.0855,临汾市,市委,颗粒物(PM10),65,80,101,28,35,199,132,177,172,20,23,5,6,0.7,0.8
2023-05-02T20:00:00,1738A,113.5758,37.8572,阳泉市,市中心,颗粒物(PM10),80,110,108,40,33,180,161,168,168,28,53,23,13,1.0,0.9
2023-05-02T20:00:00,1739A,113.4894,37.8731,阳泉市,赛鱼,颗粒物(PM10),87,124,109,46,33,179,169,164,164,23,44,17,12,1.0,0.6
2023-05-02T20:00:00,1740A,113.5819,37.8486,阳泉市,南庄,颗粒物(PM10),102,153,135,37,40,182,175,172,172,22,47,16,13,0.9,0.8
2023-05-02T20:00:00,1742A,113.5614,37.8703,阳泉市,平坦,颗粒物(PM10),91,132,129,53,43,174,165,163,163,23,57,14,11,1.0,0.9
2023-05-02T20:00:00,1743A,113.5158,37.8392,阳泉市,大阳泉,颗粒物(PM10),87,124,101,43,34,179,163,168,168,23,16,16,11,0.9,0.7
2023-05-02T20:00:00,1744A,118.9233,42.2816,赤峰市,松山一中,颗粒物(PM10),62,74,73,19,23,159,110,155,133,21,21,11,13,0.5,0.7
2023-05-02T20:00:00,1745A,118.9576,42.2728,赤峰市,哈达街,颗粒物(PM10),78,106,93,18,30,156,102,156,132,26,19,14,17,0.6,0.7
2023-05-02T20:00:00,1746A,118.8788,42.2554,赤峰市,天义路,颗粒物(PM10),92,133,86,25,26,170,122,170,144,15,15,13,15,0.5,0.7
2023-05-02T20:00:00,1748A,123.044,41.1196,鞍山市,深沟寺,,49,49,44,19,18,173,146,162,161,7,7,9,9,0.5,0.5
2023-05-02T20:00:00,1749A,123.011,41.0931,鞍山市,太阳城,,45,44,42,15,16,170,144,160,159,10,10,7,8,0.4,0.4
2023-05-02T20:00:00,1750A,123.0485,41.1442,鞍山市,太平,颗粒物(PM10),57,63,52,22,18,166,136,154,153,13,11,12,11,0.4,0.4
2023-05-02T20:00:00,1751A,122.9642,41.0971,鞍山市,铁西三道街,颗粒物(PM10),64,78,66,26,24,156,142,150,150,14,17,5,6,0.6,0.8
2023-05-02T20:00:00,1752A,122.9341,41.0833,鞍山市,铁西工业园区,颗粒物(PM10),62,74,54,20,19,164,143,154,154,12,12,8,8,0.6,0.6
2023-05-02T20:00:00,1753A,123.022,41.0821,鞍山市,明达新区,颗粒物(PM10),52,54,43,17,18,169,146,159,159,8,9,7,7,0.3,0.4
2023-05-02T20:00:00,1754A,123.1289,41.0228,鞍山市,千山,,,,,,,,,,,,,,,,
2023-05-02T20:00:00,1755A,123.7977,41.8491,抚顺市,望花区,颗粒物(PM10),60,70,66,22,23,181,161,170,170,12,19,10,18,0.5,0.5
2023-05-02T20:00:00,1756A,123.9161,41.8822,抚顺市,顺城区,颗粒物(PM10),54,57,54,36,19,184,161,173,173,9,11,5,6,0.7,0.7
2023-05-02T20:00:00,1757A,124.0436,41.8611,抚顺市,东洲区,"颗粒物(PM10),臭氧1小时",59,67,53,21,17,189,167,177,176,8,7,14,9,0.5,0.7
2023-05-02T20:00:00,1758A,123.9247,41.8642,抚顺市,新抚区,颗粒物(PM10),54,57,61,17,19,184,157,173,173,13,12,9,10,0.3,0.4
2023-05-02T20:00:00,1759A,124.0972,41.8961,抚顺市,大伙房水库,臭氧1小时,75,50,44,18,13,200,180,188,188,6,5,8,7,0.4,0.4
2023-05-02T20:00:00,1760A,123.7086,41.8391,抚顺市,沈抚新城,颗粒物(PM10),66,81,65,26,19,190,162,179,179,16,12,17,11,0.6,0.5
2023-05-02T20:00:00,1761A,123.8275,41.3064,本溪市,大峪,颗粒物(PM10),53,56,49,16,15,164,139,148,148,8,12,4,4,0.5,0.5
2023-05-02T20:00:00,1762A,123.7567,41.3325,本溪市,溪湖,颗粒物(PM10),61,71,50,24,17,170,133,154,154,28,18,19,15,0.9,0.7
2023-05-02T20:00:00,1763A,123.7169,41.3094,本溪市,彩屯,颗粒物(PM10),77,103,76,48,33,140,112,128,128,48,41,75,69,2.3,2.3
2023-05-02T20:00:00,1764A,123.7669,41.2864,本溪市,东明,颗粒物(PM10),58,65,54,36,19,168,153,156,156,15,13,8,8,0.6,0.6
2023-05-02T20:00:00,1765A,123.7992,41.2664,本溪市,新立屯,颗粒物(PM10),56,62,50,20,17,165,148,152,152,11,10,7,7,0.4,0.3
2023-05-02T20:00:00,1766A,123.8142,41.3472,本溪市,威宁,颗粒物(PM10),51,51,49,22,18,151,127,136,136,10,13,7,7,0.5,0.5
2023-05-02T20:00:00,1767A,121.1115,41.0879,锦州市,南山,臭氧1小时,74,78,77,30,32,222,179,206,206,20,22,26,11,0.6,0.7
2023-05-02T20:00:00,1768A,121.0533,40.8434,锦州市,开发区,颗粒物(PM10),77,104,112,25,31,209,159,192,192,34,29,9,9,0.5,0.5
2023-05-02T20:00:00,1769A,121.1836,41.1119,锦州市,百股街道,臭氧1小时,68,70,69,24,29,226,174,209,209,19,18,7,8,0.6,0.6
2023-05-02T20:00:00,1770A,121.1178,41.1222,锦州市,天安街道,,,,,,,,,,,,,,,,
2023-05-02T20:00:00,1771A,121.1303,41.1386,锦州市,北湖公园,颗粒物(PM10),57,63,72,25,29,203,164,189,189,20,21,33,15,0.8,0.8
2023-05-02T20:00:00,1772A,126.54,43.8622,吉林市,哈达湾,颗粒物(PM10),53,55,36,18,14,157,157,151,151,8,17,5,5,0.5,0.6
2023-05-02T20:00:00,1773A,126.5844,43.8358,吉林市,东局子,颗粒物(PM10),54,57,33,18,12,153,153,147,147,9,11,7,6,0.5,0.5
2023-05-02T20:00:00,1774A,126.5052,43.8245,吉林市,电力学院,颗粒物(PM10),52,53,46,20,20,153,153,149,149,11,21,8,7,0.5,0.5
2023-05-02T20:00:00,1775A,126.6133,43.8972,吉林市,江北,颗粒物(PM10),54,58,35,19,14,149,149,144,144,7,9,7,7,0.6,0.6
2023-05-02T20:00:00,1776A,126.555,43.8306,吉林市,江南公园,颗粒物(PM10),56,62,37,27,16,152,152,147,147,10,14,6,6,0.5,0.5
2023-05-02T20:00:00,1778A,126.7061,43.7133,吉林市,丰满,,49,42,24,22,15,154,154,144,144,4,5,6,5,0.9,0.6
2023-05-02T20:00:00,1779A,123.9305,47.3636,齐齐哈尔市,安居小区,颗粒物(PM10),183,316,138,41,33,120,62,110,96,41,17,5,4,0.8,0.6
2023-05-02T20:00:00,1780A,123.9488,47.3386,齐齐哈尔市,中心广场,颗粒物(PM10),156,261,125,45,19,121,69,109,99,36,16,7,8,0.9,0.6
2023-05-02T20:00:00,1781A,123.9483,47.3227,齐齐哈尔市,农牧车辆厂,颗粒物(PM10),180,310,140,33,18,131,88,121,111,26,13,8,6,0.6,0.5
2023-05-02T20:00:00,1783A,123.945,47.2988,齐齐哈尔市,市环境监测站,颗粒物(PM10),199,347,154,51,28,127,86,117,107,23,12,6,6,0.7,0.6
2023-05-02T20:00:00,1784A,129.61,44.561,牡丹江市,环保大楼,,36,36,30,25,20,140,113,124,123,12,15,4,4,0.3,0.3
2023-05-02T20:00:00,1785A,129.6115,44.5782,牡丹江市,文化广场,,45,45,38,27,21,136,113,119,119,17,26,4,4,0.5,0.5
2023-05-02T20:00:00,1786A,129.5904,44.5963,牡丹江市,第一医院,颗粒物(PM10),52,53,41,24,27,142,118,129,128,10,18,2,3,0.5,0.5
2023-05-02T20:00:00,1787A,129.6364,44.6075,牡丹江市,机车工厂,,37,37,35,10,16,139,113,124,123,13,15,4,4,0.2,0.3
2023-05-02T20:00:00,1788A,129.6386,44.5462,牡丹江市,第一中学,,43,43,30,21,16,140,117,122,122,8,11,2,2,0.4,0.4
2023-05-02T20:00:00,1789A,124.81117,46.03138,大庆市,大同区,颗粒物(PM10),500,1100,359,118,40,142,142,133,133,7,12,3,4,0.3,0.4
2023-05-02T20:00:00,1790A,125.129,46.533,大庆市,龙凤区,颗粒物(PM10),195,340,167,46,22,128,124,118,118,10,12,2,3,0.4,0.4
2023-05-02T20:00:00,1791A,124.902,46.408,大庆市,红岗区,颗粒物(PM10),154,257,203,61,29,124,124,116,116,10,13,7,6,0.4,0.5
2023-05-02T20:00:00,1792A,125.153,46.586,大庆市,萨尔图区,颗粒物(PM10),300,420,193,78,34,122,117,113,113,12,14,7,7,0.2,0.3
2023-05-02T20:00:00,1793A,124.9042,46.6215,大庆市,让胡路区,颗粒物(PM10),500,797,142,112,22,136,123,123,122,10,12,6,7,0.3,0.4
2023-05-02T20:00:00,1794A,118.3606,31.3519,芜湖市,监测站,颗粒物(PM10),68,85,71,35,31,158,96,149,129,49,25,9,9,0.8,0.7
2023-05-02T20:00:00,1795A,118.3714,31.4134,芜湖市,科创中心,颗粒物(PM10),72,94,76,45,32,158,48,150,125,94,27,7,7,1.0,0.6
2023-05-02T20:00:00,1796A,118.3673,31.3131,芜湖市,四水厂,颗粒物(PM10),60,69,74,38,35,160,80,150,126,62,27,9,11,0.8,0.5
2023-05-02T20:00:00,1798A,118.5092,31.6837,马鞍山市,湖东路四小,颗粒物(PM10),57,63,64,26,28,166,129,155,149,34,17,8,9,0.6,0.6
2023-05-02T20:00:00,1799A,118.5024,31.6449,马鞍山市,开发区,,,,83,,29,165,133,154,148,22,15,6,7,0.6,0.6
2023-05-02T20:00:00,1800A,118.5228,31.7231,马鞍山市,慈湖,颗粒物(PM10),54,57,68,33,36,164,140,153,151,31,23,31,11,0.4,0.5
2023-05-02T20:00:00,1802A,118.6245,31.7241,马鞍山市,濮塘,,47,47,55,27,26,155,144,147,146,16,12,6,8,1.0,1
2023-05-02T20:00:00,1803A,115.9872,29.6815,九江市,十里,颗粒物(PM10),62,74,63,30,27,121,102,111,111,19,28,9,10,0.8,0.6
2023-05-02T20:00:00,1804A,115.9584,29.7046,九江市,茅山头,颗粒物(PM10),68,85,59,31,28,110,38,98,75,74,51,11,9,1.0,0.5
2023-05-02T20:00:00,1805A,115.9877,29.7295,九江市,西园,,43,43,59,26,28,114,113,105,105,14,57,9,9,0.6,0.6
2023-05-02T20:00:00,1806A,116.0172,29.6547,九江市,五七二七厂,,48,48,49,26,21,140,134,128,128,6,11,9,9,0.4,0.4
2023-05-02T20:00:00,1808A,115.9114,29.6038,九江市,综合工业园,颗粒物(PM10),54,57,61,31,27,124,47,113,102,68,37,12,11,0.8,0.6
2023-05-02T20:00:00,1809A,116.0721,29.7535,九江市,石化总厂,颗粒物(PM10),54,58,65,26,24,114,101,108,107,27,27,12,14,0.6,0.5
2023-05-02T20:00:00,1810A,115.9773,29.5698,九江市,庐山气象台,,40,40,44,25,21,132,117,128,111,7,4,6,6,1.1,0.8
2023-05-02T20:00:00,1812A,112.3931,34.6516,洛阳市,市委党校,颗粒物(PM10),77,103,83,45,36,177,130,155,155,31,22,6,7,0.8,0.6
2023-05-02T20:00:00,1814A,112.4657,34.6871,洛阳市,豫西宾馆,颗粒物(PM10),80,109,94,44,35,168,122,148,148,25,15,7,6,1.0,0.8
2023-05-02T20:00:00,1815A,112.494,34.6886,洛阳市,河南林校,颗粒物(PM10),75,99,83,37,29,168,119,149,149,32,20,11,10,0.4,0.3
2023-05-02T20:00:00,1816A,112.3844,34.623,洛阳市,开发区管委会,颗粒物(PM10),76,101,79,38,29,193,149,173,173,20,12,7,9,0.5,0.3
2023-05-02T20:00:00,1817A,112.4267,34.6258,洛阳市,市委新办公区,颗粒物(PM10),76,102,78,44,36,184,140,163,163,27,19,8,9,0.6,0.4
2023-05-02T20:00:00,1818A,114.4839,36.0621,安阳市,棉研所,颗粒物(PM10),70,89,93,49,46,127,91,115,115,16,12,8,14,0.5,0.5
2023-05-02T20:00:00,1819A,114.3551,36.1017,安阳市,红庙街,颗粒物(PM10),84,118,100,34,37,144,108,133,132,25,21,6,8,0.8,0.8
2023-05-02T20:00:00,1820A,114.361,36.0681,安阳市,银杏小区,颗粒物(PM10),72,93,95,43,42,137,100,122,122,18,18,10,12,0.6,0.6
2023-05-02T20:00:00,1824A,114.3389,34.7781,开封市,肿瘤医院,颗粒物(PM10),74,98,96,32,31,149,106,138,136,10,10,10,11,0.5,0.4
2023-05-02T20:00:00,1826A,114.2885,34.7965,开封市,世纪星幼儿园,颗粒物(PM10),73,96,87,32,41,151,112,141,139,13,13,6,10,0.5,0.5
2023-05-02T20:00:00,1828A,113.227,35.2125,焦作市,市环保局,颗粒物(PM10),70,90,96,35,32,177,142,141,141,27,23,8,11,0.5,0.6
2023-05-02T20:00:00,1830A,113.1992,35.2590,焦作市,影视城,,,,,,,,,,,,,,,,
2023-05-02T20:00:00,1832A,113.3257,33.742,平顶山市,新华旅馆,颗粒物(PM10),77,104,99,36,38,151,109,143,139,16,30,7,15,0.4,0.5
2023-05-02T20:00:00,1833A,113.2919,33.737,平顶山市,规划设计院,颗粒物(PM10),70,90,90,31,36,160,108,146,143,14,19,11,11,0.6,0.5
2023-05-02T20:00:00,1834A,113.182,33.774,平顶山市,平顶山工学院,颗粒物(PM10),68,85,87,27,38,156,120,150,146,11,14,10,7,0.4,0.4
2023-05-02T20:00:00,1835A,111.1922,34.7752,三门峡市,市政府,颗粒物(PM10),70,89,97,37,34,184,161,154,154,16,25,13,11,0.5,0.5
2023-05-02T20:00:00,1836A,111.1587,34.7942,三门峡市,开发区,颗粒物(PM10),85,120,103,47,41,185,167,159,159,21,20,12,10,0.7,0.6
2023-05-02T20:00:00,1838A,111.143,34.7955,三门峡市,风景区,颗粒物(PM10),70,89,89,44,42,187,172,162,162,19,22,14,12,0.5,0.4
2023-05-02T20:00:00,1840A,111.2992,30.6981,宜昌市,白龙岗,颗粒物(PM10),65,80,63,44,29,138,73,116,113,32,30,10,8,0.7,0.6
2023-05-02T20:00:00,1841A,111.3549,30.6465,宜昌市,伍家岗,细颗粒物(PM2.5),70,78,67,51,33,141,86,119,119,21,34,9,9,0.7,0.5
2023-05-02T20:00:00,1842A,111.2628,30.6961,宜昌市,点军区,颗粒物(PM10),74,97,65,39,25,139,61,110,104,67,34,10,10,0.8,0.6
2023-05-02T20:00:00,1843A,111.3275,30.7819,宜昌市,夷陵区,颗粒物(PM10),72,93,62,44,25,133,77,112,110,31,26,9,9,0.6,0.5
2023-05-02T20:00:00,1844A,112.2494,30.3197,荆州市,市图书馆,颗粒物(PM10),54,57,76,37,40,112,72,104,81,22,25,22,12,0.8,0.6
2023-05-02T20:00:00,1845A,112.2008,30.3544,荆州市,市委党校,颗粒物(PM10),57,64,74,35,40,118,75,108,83,23,26,12,11,0.9,0.7
2023-05-02T20:00:00,1847A,113.1094,29.3578,岳阳市,南湖风景区,颗粒物(PM10),57,63,62,25,29,102,78,102,78,14,18,15,12,0.7,0.6
2023-05-02T20:00:00,1848A,113.1493,29.4251,岳阳市,城陵矶,颗粒物(PM10),51,51,73,26,29,102,82,94,83,19,30,13,8,0.7,0.7
2023-05-02T20:00:00,1849A,113.1497,29.3575,岳阳市,开发区,,48,48,62,24,27,97,76,92,73,13,17,7,10,0.7,0.6
2023-05-02T20:00:00,1850A,113.2621,29.4758,岳阳市,云溪区,,39,39,60,25,26,118,104,113,96,6,11,7,8,0.8,0.6
2023-05-02T20:00:00,1851A,112.9943,29.4402,岳阳市,君山区,颗粒物(PM10),56,61,66,32,34,98,84,86,80,16,21,11,10,0.6,0.9
2023-05-02T20:00:00,1852A,113.2117,29.355,岳阳市,金凤水库,,45,45,62,22,27,117,72,86,71,10,17,3,7,0.6,0.5
2023-05-02T20:00:00,1854A,111.6975,28.9703,常德市,市二中,细颗粒物(PM2.5),52,51,64,36,39,135,89,86,86,9,17,7,9,0.5,0.5
2023-05-02T20:00:00,1857A,111.7158,29.1456,常德市,白鹤山,细颗粒物(PM2.5),55,41,65,39,34,129,69,99,75,5,7,7,9,0.7,0.5
2023-05-02T20:00:00,1858A,110.5319,29.1217,张家界市,永定新区,颗粒物(PM10),62,74,63,28,23,154,22,93,50,31,23,3,4,0.3,0.2
2023-05-02T20:00:00,1859A,110.4697,29.1242,张家界市,电业局,颗粒物(PM10),57,63,67,39,30,144,30,94,52,32,21,3,4,0.4,0.3
2023-05-02T20:00:00,1860A,110.5594,29.3547,张家界市,未央路,,50,50,52,32,29,75,10,59,44,35,23,3,3,0.4,0.3
2023-05-02T20:00:00,1861A,110.4417,29.315,张家界市,袁家界,,32,32,45,21,25,140,11,136,53,14,16,8,9,0.5,0.5
2023-05-02T20:00:00,1862A,110.4144,25.3167,桂林市,电子科大尧山校区,,31,31,41,20,27,116,87,113,85,7,8,3,4,0.7,0.7
2023-05-02T20:00:00,1863A,110.2819,25.2697,桂林市,监测站,,45,35,57,31,44,111,76,107,54,11,17,5,8,0.8,0.8
2023-05-02T20:00:00,1864A,110.3089,25.2708,桂林市,龙隐路小学,,46,45,58,32,41,99,65,91,41,14,18,5,10,0.8,0.8
2023-05-02T20:00:00,1865A,110.2869,25.2178,桂林市,八中,,,33,44,26,31,100,68,93,65,13,15,3,5,,0.7
2023-05-02T20:00:00,1866A,109.2262,21.588,北海市,牛尾岭水库,,28,28,25,16,12,82,67,81,74,4,4,8,9,0.6,0.7
2023-05-02T20:00:00,1867A,109.1436,21.4086,北海市,海滩公园,,40,40,32,10,12,112,85,96,84,7,5,2,3,1.0,0.8
2023-05-02T20:00:00,1868A,109.0981,21.4661,北海市,新市环保局,,26,25,26,5,9,107,82,94,83,6,5,1,2,0.5,0.5
2023-05-02T20:00:00,1869A,109.1778,21.5233,北海市,北海工业园,,32,32,32,20,16,102,77,92,81,5,5,4,4,0.6,0.6
2023-05-02T20:00:00,1870A,109.4856,24.3895,柳州市,柳东小学,,38,36,38,26,26,125,81,112,86,10,9,6,7,0.4,0.5
2023-05-02T20:00:00,1871A,109.4157,24.3277,柳州市,环保监测站,,47,47,47,24,29,97,61,91,63,15,13,5,5,0.8,0.7
2023-05-02T20:00:00,1872A,109.389,24.341,柳州市,河西水厂,,42,42,44,25,23,107,55,93,51,13,14,4,5,1.0,1
2023-05-02T20:00:00,1873A,109.4311,24.2921,柳州市,市四中,,40,40,44,23,25,110,63,97,65,14,12,8,9,0.8,0.8
2023-05-02T20:00:00,1874A,109.4006,24.3631,柳州市,市九中,,49,49,52,26,25,103,63,92,61,14,14,8,8,0.7,0.7
2023-05-02T20:00:00,1875A,109.4958,24.3134,柳州市,古亭山,,40,35,40,28,33,113,74,109,80,10,10,2,3,0.6,0.6
2023-05-02T20:00:00,1876A,109.5078,18.2489,三亚市,河东子站,,34,34,25,17,15,89,51,85,60,6,5,3,3,0.6,0.6
2023-05-02T20:00:00,1877A,109.4964,18.2681,三亚市,河西子站,,25,25,26,13,13,86,51,79,58,6,7,2,2,0.4,0.5
2023-05-02T20:00:00,1878A,104.7778,31.4741,绵阳市,富乐山,,48,48,49,26,28,128,92,122,120,9,11,3,3,0.5,0.4
2023-05-02T20:00:00,1879A,104.7563,31.4535,绵阳市,市人大,,49,46,55,34,29,112,63,104,101,47,20,6,5,0.5,0.4
2023-05-02T20:00:00,1880A,104.6697,31.4668,绵阳市,高新区自来水公司,,47,47,53,27,23,129,107,120,120,16,13,5,6,0.5,0.5
2023-05-02T20:00:00,1881A,104.7287,31.5075,绵阳市,三水厂,细颗粒物(PM2.5),67,45,60,48,37,128,109,122,122,14,19,5,5,0.4,0.4
2023-05-02T20:00:00,1882A,104.563,28.793,宜宾市,石马中学,颗粒物(PM10),68,86,84,48,50,170,153,160,160,17,19,5,8,0.5,0.5
2023-05-02T20:00:00,1883A,104.6201,28.7728,宜宾市,市委,细颗粒物(PM2.5),82,103,98,60,54,168,136,154,154,22,25,8,10,0.5,0.5
2023-05-02T20:00:00,1884A,104.6055,28.793,宜宾市,宜宾四中,细颗粒物(PM2.5),82,100,96,60,57,167,143,155,155,22,24,9,9,0.6,0.6
2023-05-02T20:00:00,1885A,104.639,28.7562,宜宾市,市政府,细颗粒物(PM2.5),77,89,102,56,55,185,138,169,169,30,31,7,14,0.7,0.6
2023-05-02T20:00:00,1886A,104.5742,28.7199,宜宾市,黄金嘴,"颗粒物(PM10),细颗粒物(PM2.5)",74,98,91,54,52,187,147,168,168,22,23,7,10,0.4,0.4
2023-05-02T20:00:00,1888A,101.6891,26.571,攀枝花市,弄弄坪,颗粒物(PM10),59,67,42,21,26,121,80,102,96,28,21,53,18,2.6,1
2023-05-02T20:00:00,1889A,101.5769,26.5928,攀枝花市,河门口,,34,20,37,12,22,118,106,111,111,7,21,7,18,0.5,1.1
2023-05-02T20:00:00,1890A,101.7169,26.585,攀枝花市,炳草岗,,37,37,44,14,28,128,86,105,104,22,37,21,10,1.3,0.8
2023-05-02T20:00:00,1891A,101.7369,26.5008,攀枝花市,仁和,,31,18,32,15,24,114,99,108,107,11,13,6,6,0.7,0.7
2023-05-02T20:00:00,1893A,105.4324,28.9634,泸州市,九狮山,颗粒物(PM10),75,100,53,26,28,163,150,158,158,15,12,10,10,0.4,0.3
2023-05-02T20:00:00,1894A,105.4427,28.9063,泸州市,小市上码头,颗粒物(PM10),70,89,85,39,39,170,152,158,158,13,15,10,10,0.5,0.5
2023-05-02T20:00:00,1895A,105.4241,28.8573,泸州市,兰田宪桥,颗粒物(PM10),72,93,86,45,43,170,137,156,156,18,14,6,17,0.6,0.6
2023-05-02T20:00:00,1896A,105.4379,28.8833,泸州市,市环监站,颗粒物(PM10),65,80,77,36,35,158,136,147,147,20,20,7,8,0.6,0.6
2023-05-02T20:00:00,1901A,104.4239,31.1208,德阳市,东山公园,颗粒物(PM10),52,54,50,28,28,131,98,122,121,26,14,2,2,0.4,0.4
2023-05-02T20:00:00,1902A,104.3826,31.1317,德阳市,西小区,,49,49,54,34,31,131,111,123,123,10,10,1,2,0.4,0.4
2023-05-02T20:00:00,1904A,104.3553,31.1091,德阳市,耐火材料厂,,46,44,48,32,28,147,124,137,137,5,8,2,4,0.4,0.3
2023-05-02T20:00:00,1905A,106.056,30.8064,南充市,西山风景区,颗粒物(PM10),53,55,44,35,27,142,117,126,126,12,7,6,5,0.4,0.4
2023-05-02T20:00:00,1906A,106.0789,30.8023,南充市,南充市委,颗粒物(PM10),62,73,55,42,26,144,108,127,127,23,14,10,10,0.5,0.4
2023-05-02T20:00:00,1907A,106.1031,30.8217,南充市,南充炼油厂,颗粒物(PM10),64,77,56,36,26,135,103,118,118,21,11,14,11,0.4,0.3
2023-05-02T20:00:00,1908A,106.1064,30.7856,南充市,高坪区监测站,颗粒物(PM10),56,61,51,30,26,131,110,118,118,18,13,18,11,0.5,0.4
2023-05-02T20:00:00,1909A,106.0642,30.7636,南充市,嘉陵区环保局,颗粒物(PM10),65,79,52,34,26,145,104,124,124,28,15,11,9,0.6,0.4
2023-05-02T20:00:00,1910A,106.1087,30.8388,南充市,市环境监测站,颗粒物(PM10),65,79,56,41,30,134,95,114,114,27,16,11,11,0.6,0.5
2023-05-02T20:00:00,1911A,106.9222,27.6869,遵义市,丁字口,细颗粒物(PM2.5),54,41,41,38,29,112,90,104,102,12,15,8,8,0.6,0.5
2023-05-02T20:00:00,1912A,106.9242,27.7019,遵义市,凤凰山,,44,44,51,27,23,128,112,121,121,10,11,5,6,0.4,0.4
2023-05-02T20:00:00,1913A,106.8906,27.6486,遵义市,忠庄,颗粒物(PM10),54,58,59,32,23,113,86,104,103,11,10,2,4,0.5,0.4
2023-05-02T20:00:00,1914A,106.9231,27.6506,遵义市,舟水桥,,43,43,50,28,22,122,98,113,112,7,12,2,3,0.6,0.6
2023-05-02T20:00:00,1915A,106.9178,27.72,遵义市,干田坝,颗粒物(PM10),52,53,52,10,20,122,102,117,114,10,12,6,7,0.6,0.6
2023-05-02T20:00:00,1916A,103.7897,25.5035,曲靖市,环境监测站,,38,38,33,12,16,118,94,110,107,10,8,9,9,0.7,0.7
2023-05-02T20:00:00,1917A,103.8,25.5364,曲靖市,烟厂办公区,,35,35,33,14,18,133,106,123,120,10,9,3,4,0.7,0.8
2023-05-02T20:00:00,1918A,108.7197,34.3956,咸阳市,气象站,颗粒物(PM10),71,91,102,28,43,147,86,136,132,21,47,5,7,0.3,0.5
2023-05-02T20:00:00,1919A,108.673,34.3155,咸阳市,实验中学,颗粒物(PM10),77,103,97,30,36,167,97,151,147,24,42,4,6,0.8,0.9
2023-05-02T20:00:00,1920A,108.7233,34.3617,咸阳市,师范学院,颗粒物(PM10),77,103,102,30,43,153,84,139,134,24,41,6,7,0.5,0.7
2023-05-02T20:00:00,1922A,109.0656,35.0994,铜川市,党校,颗粒物(PM10),65,80,99,46,46,152,129,140,139,11,39,13,11,0.7,0.8
2023-05-02T20:00:00,1923A,109.0697,35.0697,铜川市,王益区政府,颗粒物(PM10),60,70,75,37,43,153,128,142,141,12,30,7,10,0.4,0.4
2023-05-02T20:00:00,1924A,108.9344,34.9058,铜川市,新区管委会,颗粒物(PM10),65,79,81,29,28,165,132,156,154,19,20,9,9,0.6,0.5
2023-05-02T20:00:00,1926A,109.4131,36.6275,延安市,枣园,颗粒物(PM10),57,63,58,20,21,153,140,144,144,14,26,11,9,0.8,0.6
2023-05-02T20:00:00,1927A,109.4761,36.6028,延安市,延大医附院,颗粒物(PM10),93,135,62,25,24,152,134,143,143,15,28,6,4,0.5,0.4
2023-05-02T20:00:00,1929A,109.5056,36.6106,延安市,百米大道,颗粒物(PM10),56,62,65,25,29,148,134,136,136,13,39,7,5,0.4,0.4
2023-05-02T20:00:00,1930A,107.185,34.3063,宝鸡市,庙沟村,颗粒物(PM10),56,61,46,32,30,170,115,140,140,12,10,8,8,0.6,0.5
2023-05-02T20:00:00,1931A,107.0708,34.3017,宝鸡市,竹园沟,颗粒物(PM10),56,61,43,29,24,167,103,144,142,20,16,8,8,0.5,0.4
2023-05-02T20:00:00,1932A,107.1906,34.3672,宝鸡市,三陆医院,颗粒物(PM10),71,91,72,35,34,174,144,151,151,22,41,7,8,0.6,0.6
2023-05-02T20:00:00,1933A,107.1431,34.3547,宝鸡市,监测站,颗粒物(PM10),72,94,57,33,27,182,150,151,151,26,21,8,7,0.5,0.4
2023-05-02T20:00:00,1934A,107.1186,34.3739,宝鸡市,技工学校,颗粒物(PM10),68,86,61,42,27,172,153,152,152,22,23,6,6,0.5,0.4
2023-05-02T20:00:00,1935A,107.3906,34.3528,宝鸡市,陈仓区环保局家属楼,颗粒物(PM10),71,91,90,27,36,168,118,143,143,32,42,7,19,0.6,0.7
2023-05-02T20:00:00,1936A,107.2058,34.3497,宝鸡市,文理学院,颗粒物(PM10),73,95,64,32,28,183,148,155,155,22,28,11,10,0.6,0.5
2023-05-02T20:00:00,1937A,107.2386,34.3622,宝鸡市,三迪小学,颗粒物(PM10),75,99,76,45,34,178,129,151,148,37,41,8,10,0.6,0.6
2023-05-02T20:00:00,1938A,109.5293,34.5101,渭南市,农科所,颗粒物(PM10),67,83,84,41,40,141,92,130,126,27,25,9,9,0.5,0.5
2023-05-02T20:00:00,1939A,109.4974,34.4877,渭南市,日报社,颗粒物(PM10),71,92,85,50,36,154,123,147,144,22,27,8,7,0.6,0.5
2023-05-02T20:00:00,1940A,109.4636,34.493,渭南市,体育馆,颗粒物(PM10),68,85,84,38,36,155,127,149,147,21,24,10,9,0.5,0.4
2023-05-02T20:00:00,1941A,109.4259,34.5023,渭南市,高新一小,颗粒物(PM10),66,81,91,29,29,153,110,146,142,22,17,5,6,0.6,0.5
2023-05-02T20:00:00,1943A,102.1725,38.5339,金昌市,新川苑,颗粒物(PM10),55,60,158,14,45,134,125,130,130,12,27,11,21,0.5,0.7
2023-05-02T20:00:00,1944A,102.1692,38.5167,金昌市,天庆家园,,47,47,122,18,47,141,132,137,136,10,28,9,13,0.5,0.8
2023-05-02T20:00:00,1945A,98.2908,39.7711,嘉峪关市,气象局,颗粒物(PM10),82,114,153,36,44,126,115,122,122,6,19,1,7,0.1,0.4
2023-05-02T20:00:00,1947A,106.3394,38.817,石嘴山市,沙湖旅游区,颗粒物(PM10),96,142,147,30,36,165,128,151,150,18,22,20,18,0.6,0.5
2023-05-02T20:00:00,1948A,106.3668,39.0145,石嘴山市,大武口朝阳西街,颗粒物(PM10),85,120,130,42,79,154,126,142,142,15,26,11,21,0.3,0.4
2023-05-02T20:00:00,1949A,106.7704,39.2282,石嘴山市,惠农南大街,颗粒物(PM10),96,142,142,65,67,143,105,124,124,19,21,11,21,0.5,0.7
2023-05-02T20:00:00,1950A,106.7099,39.1325,石嘴山市,红果子镇惠新街,颗粒物(PM10),88,125,66,42,61,159,114,135,135,15,18,5,12,0.5,0.6
2023-05-02T20:00:00,1951A,84.895,45.6094,克拉玛依市,长征新村,,32,30,50,1,9,124,102,104,91,2,2,7,7,0.2,0.2
2023-05-02T20:00:00,1952A,84.8988,45.5893,克拉玛依市,南林小区,,40,21,48,28,18,121,99,104,90,2,3,4,4,0.2,0.2
2023-05-02T20:00:00,1954A,84.905,44.3396,克拉玛依市,独山子区,颗粒物(PM10),68,85,68,24,33,121,105,100,100,7,4,7,7,0.3,0.3
2023-05-02T20:00:00,1955A,85.6979,46.098,克拉玛依市,乌尔禾区商贸楼,,34,23,31,2,9,107,107,105,105,1,1,8,9,0.3,0.3
2023-05-02T20:00:00,1956A,86.1472,41.7538,巴音郭楞州,孔雀公园,颗粒物(PM10),54,58,53,19,18,117,105,109,109,4,7,3,3,0.1,0.2
2023-05-02T20:00:00,1957A,86.1972,41.7166,巴音郭楞州,棉纺厂,颗粒物(PM10),56,62,59,12,16,111,105,108,108,7,8,3,3,0.2,0.3
2023-05-02T20:00:00,1958A,86.2357,41.7173,巴音郭楞州,经济开发区,颗粒物(PM10),57,64,51,9,14,117,112,114,114,3,4,6,7,0.2,0.2
2023-05-02T20:00:00,1961A,117.532,36.6868,济南市,东山小学,颗粒物(PM10),67,83,94,29,29,186,107,168,162,39,15,6,10,0.6,0.5
2023-05-02T20:00:00,1966A,120.0405,35.8735,青岛市,黄岛区4号,,48,48,87,9,24,185,123,179,150,7,10,5,7,0.5,0.6
2023-05-02T20:00:00,1982A,122.0693,37.2174,威海市,文登开发区,颗粒物(PM10),54,58,79,19,22,167,151,156,152,9,11,5,5,0.3,0.3
2023-05-02T20:00:00,2031A,113.1817,27.9958,株洲市,云田中学,颗粒物(PM10),65,80,78,44,37,128,96,111,107,8,8,9,9,0.5,0.5
2023-05-02T20:00:00,2054A,114.1099,32.1059,信阳市,平桥分局,,49,43,67,34,32,134,100,124,116,11,12,7,9,0.5,0.3
2023-05-02T20:00:00,2064A,113.9956,32.1271,信阳市,南湾水厂,,39,39,71,22,24,151,105,137,121,7,7,6,7,0.7,0.5
2023-05-02T20:00:00,2065A,114.0775,32.1195,信阳市,市酿酒公司,,45,32,56,31,31,137,99,125,119,15,19,7,9,0.7,0.5
2023-05-02T20:00:00,2066A,114.0609,32.1399,信阳市,审计局,,,54,67,30,35,141,100,128,123,,18,7,8,0.6,0.4
2023-05-02T20:00:00,2067A,114.6613,33.6128,周口市,市环境监测站,颗粒物(PM10),66,82,88,38,37,142,109,130,128,13,13,5,8,0.4,0.4
2023-05-02T20:00:00,2068A,114.6758,33.6347,周口市,周口师范,颗粒物(PM10),65,79,102,34,38,135,108,126,125,12,13,9,12,0.5,0.4
2023-05-02T20:00:00,2069A,114.6546,33.5979,周口市,市运管处,颗粒物(PM10),69,87,86,31,28,141,102,129,126,15,16,9,11,0.5,0.3
2023-05-02T20:00:00,2070A,114.6369,33.6406,周口市,川汇区环保局,颗粒物(PM10),73,95,106,29,36,130,102,121,119,14,15,8,10,0.5,0.4
2023-05-02T20:00:00,2075A,117.6336,24.4674,漳州市,九湖,,,,,,,,,,,,,,,,
2023-05-02T20:00:00,2160A,112.85,35.5051,晋城市,自来水公司,臭氧1小时,68,71,71,24,26,193,174,168,168,17,16,14,12,0.8,0.7
2023-05-02T20:00:00,2161A,112.8318,35.4936,晋城市,白云商贸,,,82,79,29,25,181,157,158,158,,14,,8,0.7,0.6
2023-05-02T20:00:00,2162A,112.8508,35.4887,晋城市,市环保局,颗粒物(PM10),65,79,78,29,31,189,166,163,163,20,17,11,10,0.5,0.5
2023-05-02T20:00:00,2163A,112.8676,35.4897,晋城市,技术学院,颗粒物(PM10),64,77,75,29,25,178,163,155,155,12,13,10,9,0.4,0.4
2023-05-02T20:00:00,2165A,112.8453,35.546,晋城市,白马寺,,,,,,,,,,,,,,,,
2023-05-02T20:00:00,2166A,112.4397,39.3522,朔州市,平朔,细颗粒物(PM2.5),129,175,140,98,56,133,129,125,125,14,6,14,5,0.6,0.4
2023-05-02T20:00:00,2167A,112.4575,39.3617,朔州市,朔唯,颗粒物(PM10),113,175,143,63,46,134,128,127,127,17,13,14,9,0.6,0.5
2023-05-02T20:00:00,2168A,112.4258,39.3197,朔州市,区政府,颗粒物(PM10),114,178,140,56,37,138,130,126,126,11,6,5,4,0.6,0.4
2023-05-02T20:00:00,2169A,112.4072,39.3278,朔州市,市环保局,颗粒物(PM10),112,173,141,59,45,125,123,119,119,19,10,5,5,0.6,0.5
2023-05-02T20:00:00,2170A,112.4272,39.3681,朔州市,市二中,颗粒物(PM10),119,188,140,73,49,141,135,132,132,15,6,9,5,0.5,0.3
2023-05-02T20:00:00,2171A,112.7532,37.6945,晋中市,锦纶小区,臭氧1小时,95,112,105,34,34,196,196,187,187,20,19,17,12,0.7,0.4
2023-05-02T20:00:00,2173A,112.7249,37.7067,晋中市,南都小区,臭氧1小时,88,107,99,36,29,192,190,185,185,18,16,14,10,1.0,0.6
2023-05-02T20:00:00,2174A,112.6991,37.6982,晋中市,榆次区政府,颗粒物(PM10),80,110,100,33,27,179,179,171,171,18,17,15,14,0.8,0.8
2023-05-02T20:00:00,2175A,110.9956,35.0147,运城市,运城中学,臭氧1小时,78,82,76,35,33,185,182,160,160,10,6,11,8,0.4,0.4
2023-05-02T20:00:00,2178A,110.9686,35.0303,运城市,地区技校,臭氧1小时,87,120,87,32,23,189,189,163,163,12,13,8,6,0.5,0.5
2023-05-02T20:00:00,2179A,111.0414,35.1147,运城市,空港新区,,,122,100,35,31,163,162,150,150,13,8,10,8,,0.3
2023-05-02T20:00:00,2181A,112.7383,38.4519,忻州市,开发区,颗粒物(PM10),101,152,108,52,40,176,164,170,170,13,22,8,14,0.7,0.7
2023-05-02T20:00:00,2182A,112.7003,38.4928,忻州市,会展中心,颗粒物(PM10),99,147,114,49,44,164,152,157,157,16,29,7,11,0.5,0.6
2023-05-02T20:00:00,2183A,111.1406,37.5211,吕梁市,环保局,颗粒物(PM10),58,66,88,28,25,153,113,148,138,27,12,7,6,0.6,0.5
2023-05-02T20:00:00,2185A,111.1297,37.5136,吕梁市,自来水公司,颗粒物(PM10),72,93,102,26,21,147,122,135,135,18,36,8,8,0.4,0.6
2023-05-02T20:00:00,2187A,106.8174,39.6973,乌海市,市林业局,颗粒物(PM10),98,146,137,40,43,148,122,135,135,18,23,14,45,0.6,0.9
2023-05-02T20:00:00,2188A,106.7907,39.6667,乌海市,中海勃湾学校,颗粒物(PM10),96,141,146,42,35,150,132,138,138,13,29,14,40,0.3,0.7
2023-05-02T20:00:00,2191A,122.2532,43.6801,通辽市,艺术职业学校,颗粒物(PM10),317,433,302,57,60,187,187,167,167,17,18,6,9,0.7,0.6
2023-05-02T20:00:00,2192A,119.7594,49.2261,呼伦贝尔市,区环保局,颗粒物(PM10),500,894,298,117,44,179,90,131,123,4,7,4,5,0.2,0.2
2023-05-02T20:00:00,2195A,107.4212,40.761,巴彦淖尔市,附二中,细颗粒物(PM2.5),188,167,116,141,34,137,108,128,127,16,21,2,9,0.4,0.5
2023-05-02T20:00:00,2196A,107.37,40.7372,巴彦淖尔市,市环保大楼,颗粒物(PM10),125,200,127,52,40,135,115,127,127,10,18,3,9,0.4,0.7
2023-05-02T20:00:00,2197A,113.1306,40.9923,乌兰察布市,集宁新区,颗粒物(PM10),83,116,100,38,32,147,101,135,132,25,12,12,13,0.6,0.5
2023-05-02T20:00:00,2200A,122.0392,46.0656,兴安盟,胜华新制药厂,颗粒物(PM10),373,478,106,120,35,150,124,134,134,12,11,4,6,0.5,0.5
2023-05-02T20:00:00,2201A,121.9504,46.0741,兴安盟,科右前旗环保局,颗粒物(PM10),500,648,117,127,35,147,120,132,132,15,14,4,5,0.8,0.7
2023-05-02T20:00:00,2202A,116.1042,43.9317,锡林郭勒盟,市环保监测站,颗粒物(PM10),99,147,180,22,31,144,87,134,106,15,4,10,11,0.3,0.3
2023-05-02T20:00:00,2203A,116.0781,43.9311,锡林郭勒盟,市政府,颗粒物(PM10),113,176,175,21,33,149,84,138,103,20,8,7,8,0.2,0.3
2023-05-02T20:00:00,2204A,105.6467,38.8363,阿拉善盟,西城区西花园,颗粒物(PM10),85,120,99,39,38,145,131,134,134,12,10,10,9,0.5,0.4
2023-05-02T20:00:00,2205A,105.6985,38.8411,阿拉善盟,蒙二幼,颗粒物(PM10),99,147,115,43,42,160,147,154,154,9,7,11,10,0.6,0.5
2023-05-02T20:00:00,2206A,105.724,38.8516,阿拉善盟,环保局新楼,颗粒物(PM10),64,78,82,45,48,167,155,154,154,8,6,8,8,0.4,0.5
2023-05-02T20:00:00,2207A,121.6094,41.998,阜新市,工业园区,颗粒物(PM10),106,162,288,32,34,202,178,184,184,12,13,12,13,0.6,0.6
2023-05-02T20:00:00,2208A,121.6697,42.0279,阜新市,长青街,颗粒物(PM10),84,117,215,26,35,211,181,192,192,14,17,11,15,0.6,0.6
2023-05-02T20:00:00,2209A,121.6673,42.0705,阜新市,农业园区,颗粒物(PM10),117,183,142,31,37,205,185,187,187,13,15,10,12,0.5,1.1
2023-05-02T20:00:00,2210A,121.6717,42.0224,阜新市,东苑,颗粒物(PM10),95,140,193,31,40,200,171,181,181,14,18,10,15,0.6,0.8
2023-05-02T20:00:00,2211A,121.6506,42.0498,阜新市,玉龙新城,,,122,168,30,34,202,,184,184,11,13,10,12,0.8,0.7
2023-05-02T20:00:00,2212A,123.2,41.1953,辽阳市,宏伟区,颗粒物(PM10),51,52,40,20,14,162,146,152,152,11,10,11,11,0.5,0.4
2023-05-02T20:00:00,2213A,123.1683,41.2495,辽阳市,新华园,颗粒物(PM10),53,55,51,24,19,152,137,142,142,9,8,11,11,0.4,0.4
2023-05-02T20:00:00,2214A,123.2354,41.2639,辽阳市,滨河路,颗粒物(PM10),56,61,50,23,19,141,127,132,132,13,12,5,6,0.3,0.3
2023-05-02T20:00:00,2215A,123.149,41.2991,辽阳市,铁西工业园,颗粒物(PM10),65,80,72,29,20,151,140,143,143,14,12,7,8,0.4,0.4
2023-05-02T20:00:00,2216A,123.8139,42.3022,铁岭市,汇工街西,颗粒物(PM10),61,72,74,27,32,162,148,156,156,16,13,15,11,0.7,0.6
2023-05-02T20:00:00,2217A,123.8649,42.2923,铁岭市,水上乐园,颗粒物(PM10),55,60,63,22,20,172,147,160,160,19,14,9,8,0.5,0.4
2023-05-02T20:00:00,2218A,123.8486,42.2867,铁岭市,银州路东段,颗粒物(PM10),65,80,62,21,17,160,142,151,151,16,14,12,9,0.6,0.5
2023-05-02T20:00:00,2219A,123.7153,42.2217,铁岭市,金沙江路北,颗粒物(PM10),64,78,74,25,19,160,147,155,155,19,17,12,9,0.6,0.5
2023-05-02T20:00:00,2220A,120.4318,41.5881,朝阳市,西梁,臭氧1小时,83,73,74,42,43,197,186,184,184,15,15,9,12,0.8,0.8
2023-05-02T20:00:00,2221A,120.4521,41.5646,朝阳市,河畔小区,臭氧1小时,98,82,89,26,29,211,198,196,196,13,12,11,15,0.8,0.8
2023-05-02T20:00:00,2222A,120.4176,41.5648,朝阳市,八里堡,臭氧1小时,92,90,84,30,37,200,193,190,190,11,15,12,14,0.8,0.8
2023-05-02T20:00:00,2223A,120.3806,41.5969,朝阳市,农业园区,臭氧1小时,80,103,90,36,38,196,184,184,184,18,16,15,13,0.9,0.7
2023-05-02T20:00:00,2225A,124.4002,43.1713,四平市,一商场,颗粒物(PM10),70,90,71,28,21,167,158,161,161,8,9,8,8,0.4,0.4
2023-05-02T20:00:00,2226A,124.388,43.193,四平市,境园,颗粒物(PM10),69,88,76,34,22,168,156,160,160,8,12,7,7,0.3,0.3
2023-05-02T20:00:00,2227A,125.1358,42.8845,辽源市,环保局,臭氧1小时,52,38,36,20,18,161,161,153,153,4,13,7,8,0.4,0.5
2023-05-02T20:00:00,2229A,125.9358,41.7173,通化市,光明,颗粒物(PM10),56,61,43,23,18,163,155,151,151,6,25,12,17,0.5,0.7
2023-05-02T20:00:00,2230A,125.9446,41.7325,通化市,铁路,颗粒物(PM10),51,52,50,15,21,157,151,145,145,11,28,9,16,0.3,0.5
2023-05-02T20:00:00,2231A,126.4219,41.9171,白山市,喜丰,颗粒物(PM10),54,57,79,18,23,138,138,128,128,9,26,10,15,1.1,1.3
2023-05-02T20:00:00,2232A,126.4077,41.9419,白山市,环保局,颗粒物(PM10),60,70,69,15,20,153,153,142,142,5,22,12,13,0.5,0.6
2023-05-02T20:00:00,2233A,124.8006,45.1214,松原市,江南,颗粒物(PM10),500,1028,274,166,55,168,168,157,157,5,9,6,8,0.4,0.4
2023-05-02T20:00:00,2234A,124.7965,45.1722,松原市,江北,颗粒物(PM10),500,1099,334,155,52,162,162,151,151,10,12,3,5,0.5,0.5
2023-05-02T20:00:00,2235A,122.7911,45.6077,白城市,洮北区环保局,颗粒物(PM10),500,1265,342,145,45,158,155,153,153,10,11,5,3,0.2,0.3
2023-05-02T20:00:00,2236A,122.8738,45.5725,白城市,市环保局,颗粒物(PM10),500,893,333,122,56,159,152,153,153,8,8,6,6,0.5,0.5
2023-05-02T20:00:00,2237A,129.47,42.8883,延边朝鲜族自治州,妇幼医院,,46,46,27,22,14,129,69,118,107,31,15,8,7,0.7,0.6
2023-05-02T20:00:00,2238A,129.5055,42.9108,延边朝鲜族自治州,延边医院,,40,40,34,20,17,119,74,110,104,26,21,8,8,0.6,0.6
2023-05-02T20:00:00,2239A,129.3964,42.8881,延边朝鲜族自治州,朝阳川镇医院,,47,47,31,19,12,127,89,115,109,12,14,7,7,0.5,0.5
2023-05-02T20:00:00,2240A,130.9762,45.3001,鸡西市,环保局,,49,49,37,16,16,118,116,112,112,12,16,5,5,0.5,0.5
2023-05-02T20:00:00,2243A,130.9429,45.3039,鸡西市,第一中学,,39,39,28,19,13,122,118,116,116,3,4,4,4,0.4,0.3
2023-05-02T20:00:00,2244A,130.2537,47.3416,鹤岗市,哈啤分公司,,39,39,39,13,15,144,122,131,131,10,13,11,12,0.3,0.3
2023-05-02T20:00:00,2245A,130.2684,47.3086,鹤岗市,斯达机电,,39,31,50,21,18,138,123,129,129,14,13,7,7,0.4,0.2
2023-05-02T20:00:00,2246A,130.3114,47.3388,鹤岗市,东山纸板厂,,42,42,61,25,18,127,100,117,117,19,17,8,8,0.4,0.3
2023-05-02T20:00:00,2247A,130.1097,47.3382,鹤岗市,五号水库,,37,22,32,9,13,159,118,143,143,11,8,9,9,0.1,0.1
2023-05-02T20:00:00,2248A,131.1511,46.6937,双鸭山市,双合村,颗粒物(PM10),51,51,47,18,20,137,130,134,133,9,10,10,11,0.7,0.8
2023-05-02T20:00:00,2249A,131.1652,46.6191,双鸭山市,南小市,颗粒物(PM10),51,51,40,18,14,135,129,131,131,6,9,4,4,0.5,0.5
2023-05-02T20:00:00,2250A,131.1524,46.6554,双鸭山市,环保局,,40,40,28,18,17,136,124,130,130,7,9,8,7,0.5,0.5
2023-05-02T20:00:00,2251A,131.12,46.5656,双鸭山市,苗圃,,45,24,19,11,13,154,144,150,150,7,7,3,4,0.3,0.3
2023-05-02T20:00:00,2252A,128.5159,47.4311,伊春市,环保局,细颗粒物(PM2.5),57,36,39,40,20,173,132,162,156,8,10,3,7,0.3,0.4
2023-05-02T20:00:00,2253A,128.9102,47.7412,伊春市,电力嘉园,,42,36,46,20,18,175,132,164,157,6,9,7,7,0.6,0.6
2023-05-02T20:00:00,2254A,129.5029,48.471,伊春市,汤旺河国家公园,,43,29,25,28,19,154,137,152,144,5,4,5,5,0.9,0.7
2023-05-02T20:00:00,2255A,130.2751,46.8028,佳木斯市,佳纺,,45,45,28,16,15,132,126,126,125,4,7,4,4,0.3,0.4
2023-05-02T20:00:00,2256A,130.3995,46.8307,佳木斯市,发电厂,,49,49,33,16,15,130,122,122,121,10,13,4,6,0.3,0.4
2023-05-02T20:00:00,2257A,130.3258,46.7975,佳木斯市,环保局,,39,36,28,15,14,126,122,121,120,7,9,4,4,0.3,0.4
2023-05-02T20:00:00,2258A,130.3648,46.8032,佳木斯市,十一中,颗粒物(PM10),52,54,33,20,17,124,117,118,117,13,14,7,7,0.4,0.4
2023-05-02T20:00:00,2259A,130.3794,46.7588,佳木斯市,四丰,臭氧1小时,53,36,25,15,12,172,162,165,164,4,5,1,1,0.2,0.2
2023-05-02T20:00:00,2262A,131.0518,45.8751,七台河市,新一中,,49,49,32,26,17,145,138,141,141,9,8,8,8,0.7,0.7
2023-05-02T20:00:00,2263A,127.4833,50.2524,黑河市,交通局,颗粒物(PM10),60,70,44,23,14,148,100,134,132,16,13,20,10,0.6,0.6
2023-05-02T20:00:00,2264A,127.5144,50.2341,黑河市,环保局,颗粒物(PM10),81,111,62,32,17,155,111,140,139,14,13,4,4,0.6,0.5
2023-05-02T20:00:00,2265A,127.5291,50.2472,黑河市,大黑河岛,颗粒物(PM10),67,83,37,37,18,333,133,229,210,4,3,5,3,0.5,0.4
2023-05-02T20:00:00,2266A,126.9785,46.6365,绥化市,人和东街,颗粒物(PM10),193,336,87,35,23,151,147,140,140,11,14,7,11,0.5,0.4
2023-05-02T20:00:00,2267A,126.964,46.6528,绥化市,党政办公中心,颗粒物(PM10),183,316,89,37,32,167,160,153,153,7,10,6,8,0.5,0.4
2023-05-02T20:00:00,2269A,124.1069,50.4097,大兴安岭地区,科技局,颗粒物(PM10),87,123,66,22,14,132,120,122,122,11,11,6,5,0.4,0.4
2023-05-02T20:00:00,2270A,117.396,32.939,蚌埠市,工人疗养院,,,61,65,26,27,163,116,156,147,,20,8,9,0.5,0.5
2023-05-02T20:00:00,2271A,117.3605,32.9427,蚌埠市,百货大楼,颗粒物(PM10),54,58,68,31,27,161,113,155,146,14,13,5,6,0.4,0.4
2023-05-02T20:00:00,2273A,117.4185,32.8911,蚌埠市,蚌埠学院,颗粒物(PM10),63,75,80,29,26,149,101,143,132,14,15,7,9,0.4,0.5
2023-05-02T20:00:00,2274A,117.3533,32.9673,蚌埠市,淮上区政府,颗粒物(PM10),57,63,73,27,27,164,113,154,146,14,12,6,8,0.4,0.4
2023-05-02T20:00:00,2275A,117.3145,32.8977,蚌埠市,高新区,颗粒物(PM10),60,70,75,29,26,159,111,152,143,12,10,7,8,0.5,0.5
2023-05-02T20:00:00,2277A,116.8305,32.7727,淮南市,潘集区政府,颗粒物(PM10),56,62,76,39,37,157,96,140,126,17,17,7,9,0.2,0.3
2023-05-02T20:00:00,2278A,117.0067,32.6524,淮南市,师范学院,细颗粒物(PM2.5),65,74,80,47,28,158,99,145,132,17,13,7,8,0.3,0.3
2023-05-02T20:00:00,2279A,116.8569,32.5951,淮南市,谢家集区政府,颗粒物(PM10),57,64,72,28,26,163,89,145,128,28,18,9,8,0.3,0.3
2023-05-02T20:00:00,2280A,116.8281,32.633,淮南市,八公山区政府,颗粒物(PM10),60,70,81,29,27,156,92,139,125,22,16,9,11,0.3,0.3
2023-05-02T20:00:00,2281A,116.6325,32.6201,淮南市,焦岗湖风景区管理处,细颗粒物(PM2.5),63,55,58,45,24,141,79,124,110,20,17,10,12,0.2,0.3
2023-05-02T20:00:00,2282A,116.8004,33.975,淮北市,监测站,颗粒物(PM10),73,95,90,27,31,171,138,154,153,16,22,6,10,0.6,0.6
2023-05-02T20:00:00,2283A,116.8091,33.9007,淮北市,烈山区政府,颗粒物(PM10),60,70,88,33,33,169,138,156,155,18,23,10,13,0.5,0.7
2023-05-02T20:00:00,2284A,116.7856,33.9477,淮北市,职业技术学院,颗粒物(PM10),76,102,94,34,37,163,137,151,150,17,22,7,9,0.6,0.6
2023-05-02T20:00:00,2285A,117.8177,30.9412,铜陵市,市第四中学,细颗粒物(PM2.5),65,72,64,47,25,138,77,128,122,41,29,6,7,0.8,0.6
2023-05-02T20:00:00,2286A,117.8059,30.9273,铜陵市,市公路局,颗粒物(PM10),63,75,59,30,26,128,67,118,113,38,30,11,12,1.0,0.8
2023-05-02T20:00:00,2287A,117.7807,30.9413,铜陵市,市新民污水厂,颗粒物(PM10),71,92,56,39,24,152,56,130,121,44,43,12,10,0.8,0.5
2023-05-02T20:00:00,2288A,117.7439,30.8792,铜陵市,市第九中学,颗粒物(PM10),82,114,88,25,24,140,81,122,114,50,66,9,8,0.7,0.6
2023-05-02T20:00:00,2289A,117.846,30.9413,铜陵市,车站新区,颗粒物(PM10),58,65,47,24,19,140,91,129,126,41,24,10,10,0.7,0.6
2023-05-02T20:00:00,2290A,117.8483,30.97,铜陵市,市职教基地,,,75,52,,16,137,100,125,125,29,18,9,8,0.7,0.5
2023-05-02T20:00:00,2291A,117.0809,30.5177,安庆市,环科院,"颗粒物(PM10),细颗粒物(PM2.5)",52,54,61,36,32,127,75,119,110,31,49,7,8,0.6,0.5
2023-05-02T20:00:00,2292A,117.0331,30.5119,安庆市,马山宾馆,颗粒物(PM10),54,57,63,27,32,128,80,121,111,22,48,8,10,0.5,0.6
2023-05-02T20:00:00,2294A,116.9896,30.6145,安庆市,安庆大学,颗粒物(PM10),61,71,64,34,28,134,77,127,115,28,20,14,12,0.4,0.4
2023-05-02T20:00:00,2295A,118.2903,29.6963,黄山市,延安路89号,,40,34,42,28,28,141,111,128,122,13,12,9,7,0.3,0.3
2023-05-02T20:00:00,2296A,118.327,29.7178,黄山市,黄山东路89号,"颗粒物(PM10),细颗粒物(PM2.5)",53,55,38,37,21,135,54,126,112,27,14,7,7,0.9,0.5
2023-05-02T20:00:00,2297A,118.1371,30.2756,黄山市,黄山区政府5号楼,,39,39,44,15,19,126,83,121,115,16,9,7,6,0.7,0.6
2023-05-02T20:00:00,2298A,118.3093,32.3153,滁州市,老年大学,颗粒物(PM10),58,66,65,27,26,170,132,163,159,29,21,8,8,0.5,0.5
2023-05-02T20:00:00,2299A,118.3244,32.2786,滁州市,人大宾馆,颗粒物(PM10),60,70,67,37,30,172,143,164,161,30,24,8,8,0.5,0.5
2023-05-02T20:00:00,2301A,115.8277,32.8929,阜阳市,市监测站,颗粒物(PM10),57,63,71,25,28,125,86,119,113,22,21,8,8,0.5,0.4
2023-05-02T20:00:00,2303A,115.8554,32.8605,阜阳市,开发区,颗粒物(PM10),57,64,78,22,25,140,95,130,126,19,19,9,9,0.5,0.5
2023-05-02T20:00:00,2307A,116.5079,31.737,六安市,监测大楼,颗粒物(PM10),52,53,52,19,22,118,97,116,103,10,11,5,5,0.3,0.2
2023-05-02T20:00:00,2308A,116.4738,31.7643,六安市,皖西学院,颗粒物(PM10),52,54,60,21,19,120,100,110,106,11,10,6,5,0.4,0.2
2023-05-02T20:00:00,2309A,116.4996,31.7905,六安市,朝阳厂,颗粒物(PM10),53,55,49,19,18,128,100,117,109,13,13,6,6,0.4,0.3
2023-05-02T20:00:00,2310A,116.5567,31.7886,六安市,开发区,颗粒物(PM10),62,73,76,31,28,121,86,111,104,22,19,11,20,0.5,0.4
2023-05-02T20:00:00,2311A,115.8072,33.8399,亳州市,污水处理厂,颗粒物(PM10),67,83,72,31,29,164,131,149,149,10,11,8,8,0.5,0.4
2023-05-02T20:00:00,2312A,115.7789,33.8518,亳州市,三国揽胜宫,颗粒物(PM10),85,120,79,30,27,149,125,137,137,14,12,6,8,0.6,0.5
2023-05-02T20:00:00,2314A,117.47,30.6618,池州市,池州学院,颗粒物(PM10),64,78,64,40,30,160,129,150,149,22,25,8,7,0.6,0.7
2023-05-02T20:00:00,2316A,118.7581,30.9454,宣城市,鳌峰子站,颗粒物(PM10),60,70,64,25,28,115,88,111,106,14,12,3,4,0.5,0.4
2023-05-02T20:00:00,2317A,118.7385,30.9743,宣城市,敬亭山子站,,46,46,63,24,34,121,73,114,102,16,18,5,7,0.4,0.3
2023-05-02T20:00:00,2318A,118.7173,30.9427,宣城市,开发区子站,颗粒物(PM10),52,53,61,25,26,122,83,113,106,16,14,4,8,0.5,0.5
2023-05-02T20:00:00,2319A,119.0141,25.4325,莆田市,荔城区仓后路,,40,36,40,28,18,142,94,125,117,16,12,6,6,0.9,0.6
2023-05-02T20:00:00,2320A,119.0015,25.4553,莆田市,莆田市监测站,,36,30,32,25,20,141,93,124,121,16,8,11,9,0.8,0.4
2023-05-02T20:00:00,2321A,119.1119,25.4561,莆田市,涵江区六中,,50,42,38,35,21,145,82,119,114,21,11,10,7,1.3,0.6
2023-05-02T20:00:00,2322A,119.1013,25.3215,莆田市,秀屿区政府,,42,26,36,29,21,148,102,122,119,6,11,10,7,0.7,0.6
2023-05-02T20:00:00,2323A,118.981,25.4792,莆田市,东圳水库,,,,,,,,,,,,,,,,
2023-05-02T20:00:00,2324A,117.6211,26.2625,三明市,三钢,,44,44,35,21,19,136,86,126,122,25,16,10,10,0.5,0.4
2023-05-02T20:00:00,2325A,117.635,26.2714,三明市,三明二中,,30,22,31,20,17,135,96,125,123,17,17,8,7,0.5,0.4
2023-05-02T20:00:00,2326A,117.6028,26.2378,三明市,三元区政府,,45,38,38,31,19,139,92,130,127,23,17,10,11,0.6,0.6
2023-05-02T20:00:00,2327A,117.7275,26.3108,三明市,洋溪,,,,,,,,,,,,,,,,
2023-05-02T20:00:00,2331A,118.0966,26.6761,南平市,茫荡山,,,,,,,,,,,,,,,,
2023-05-02T20:00:00,2332A,118.1681,26.6369,南平市,南平市监测站,,43,36,28,30,17,144,57,107,97,19,8,3,4,1.0,0.4
2023-05-02T20:00:00,2333A,118.1825,26.6489,南平市,南平铝业有限公司,,30,28,30,21,17,147,67,108,99,16,10,7,6,0.8,0.6
2023-05-02T20:00:00,2334A,118.1756,26.6272,南平市,南平七中,,38,21,30,26,14,150,67,110,100,17,10,6,5,0.6,0.4
2023-05-02T20:00:00,2335A,117.0189,25.1181,龙岩市,龙岩师专,,,,,,,,,,,,,,,,
2023-05-02T20:00:00,2336A,117.0217,25.1033,龙岩市,龙岩市监测站,,39,30,48,22,21,156,123,134,129,18,26,13,13,0.4,0.4
2023-05-02T20:00:00,2337A,117.0258,25.0661,龙岩市,闽西职业技术学院,,39,29,51,20,18,149,122,126,124,15,26,18,20,0.4,0.4
2023-05-02T20:00:00,2338A,117.0196,25.0306,龙岩市,龙岩学院,,35,30,44,18,18,150,112,120,120,13,18,4,9,0.4,0.4
2023-05-02T20:00:00,2339A,119.5001,26.6946,宁德市,金涵水库,,,,,,,,,,,,,,,,
2023-05-02T20:00:00,2341A,119.5388,26.6612,宁德市,宁德市监测站,细颗粒物(PM2.5),60,61,36,43,21,138,31,101,76,53,16,3,3,0.6,0.4
2023-05-02T20:00:00,2342A,117.3102,29.3867,景德镇市,王港中学,细颗粒物(PM2.5),65,71,41,47,18,76,42,62,50,16,16,10,9,0.6,0.2
2023-05-02T20:00:00,2343A,117.2117,29.2933,景德镇市,老干部活动中心,颗粒物(PM10),57,63,64,30,28,124,80,117,111,18,15,10,6,0.5,0.4
2023-05-02T20:00:00,2344A,117.1894,29.2789,景德镇市,兽医站,,47,47,48,16,24,136,93,129,122,18,15,7,6,0.7,0.6
2023-05-02T20:00:00,2345A,117.1547,29.2617,景德镇市,台达陶瓷,,44,44,48,22,23,119,66,113,104,35,22,51,19,0.8,0.5
2023-05-02T20:00:00,2346A,117.2461,29.2956,景德镇市,陶研所,颗粒物(PM10),52,53,53,21,21,128,81,123,115,7,8,6,6,0.4,0.3
2023-05-02T20:00:00,2347A,114.0997,27.5002,萍乡市,武功山,,35,33,42,24,22,88,50,68,64,8,6,18,16,0.8,0.6
2023-05-02T20:00:00,2348A,113.8385,27.6434,萍乡市,中医院,细颗粒物(PM2.5),70,83,84,51,41,95,63,87,85,21,25,10,19,0.8,0.8
2023-05-02T20:00:00,2349A,113.8493,27.6253,萍乡市,市政府车库,颗粒物(PM10),81,111,102,58,46,101,58,87,85,26,30,22,27,0.7,1.6
2023-05-02T20:00:00,2350A,113.8676,27.6435,萍乡市,市环保局,,,,97,,45,91,72,82,82,,27,19,27,0.6,0.6
2023-05-02T20:00:00,2351A,113.866,27.6198,萍乡市,安源区政府,细颗粒物(PM2.5),80,100,94,59,49,90,55,79,77,31,27,23,22,1.2,1.2
2023-05-02T20:00:00,2352A,115.0861,27.9317,新余市,北岗,,40,38,64,28,35,93,54,74,74,18,13,7,19,0.6,0.6
2023-05-02T20:00:00,2353A,114.9886,27.8431,新余市,飞宇,颗粒物(PM10),56,62,124,27,40,96,83,84,84,15,21,3,9,0.6,0.5
2023-05-02T20:00:00,2354A,114.9231,27.8246,新余市,第二水厂,颗粒物(PM10),69,88,100,40,37,92,74,77,77,25,28,8,14,0.6,0.6
2023-05-02T20:00:00,2355A,114.9308,27.8036,新余市,市气象局,颗粒物(PM10),54,57,86,30,37,113,92,96,96,12,21,7,13,0.6,0.7
2023-05-02T20:00:00,2357A,116.9822,28.1136,鹰潭市,龙虎山,,34,28,49,15,19,122,107,116,114,1,3,1,2,0.2,0.3
2023-05-02T20:00:00,2358A,117.0564,28.2642,鹰潭市,新监测站,颗粒物(PM10),55,60,65,37,29,154,99,138,124,15,20,2,35,0.6,0.8
2023-05-02T20:00:00,2359A,117.0311,28.2475,鹰潭市,财苑宾馆,颗粒物(PM10),55,59,61,19,22,260,102,135,129,8,18,7,25,0.3,0.4
2023-05-02T20:00:00,2360A,117.0222,28.2264,鹰潭市,体育馆,,40,40,46,16,17,154,110,128,126,3,9,2,4,0.1,0.1
2023-05-02T20:00:00,2361A,117.0017,28.2131,鹰潭市,三川水表,,35,24,47,16,20,146,109,125,123,1,11,2,3,0.2,0.2
2023-05-02T20:00:00,2362A,114.9017,25.9149,赣州市,通天岩,,42,38,64,29,31,127,71,113,107,23,16,9,10,1.8,1.6
2023-05-02T20:00:00,2363A,114.9367,25.8664,赣州市,地委,,49,49,75,22,33,123,52,113,104,41,25,11,11,1.5,1.1
2023-05-02T20:00:00,2364A,114.9461,25.8481,赣州市,气象台,,32,16,61,22,27,112,77,105,101,16,27,7,8,0.7,0.7
2023-05-02T20:00:00,2365A,114.9322,25.8333,赣州市,市图书馆,,,30,69,15,28,126,56,118,109,40,33,,6,,1.3
2023-05-02T20:00:00,2366A,114.8905,25.8471,赣州市,华坚鞋城,,47,47,84,22,34,125,60,111,105,31,27,24,17,0.8,0.7
2023-05-02T20:00:00,2367A,114.9754,27.0803,吉安市,红声器材厂,颗粒物(PM10),52,54,78,27,35,118,104,108,108,6,17,7,13,0.5,0.6
2023-05-02T20:00:00,2368A,114.9658,27.0999,吉安市,市森林工业局,,44,44,75,30,39,111,94,101,101,5,20,6,11,0.3,0.4
2023-05-02T20:00:00,2369A,114.99,27.1312,吉安市,市环境监测站,,50,50,73,30,34,117,99,105,105,10,19,8,12,0.5,0.6
2023-05-02T20:00:00,2370A,115.0093,27.0968,吉安市,青原区法院,颗粒物(PM10),51,51,69,30,34,121,102,109,109,11,17,13,16,0.8,0.8
2023-05-02T20:00:00,2371A,114.3408,27.8064,宜春市,槟榔水业,颗粒物(PM10),70,90,86,50,40,72,36,56,52,19,16,10,9,0.9,0.7
2023-05-02T20:00:00,2373A,114.3956,27.7844,宜春市,市石油公司,颗粒物(PM10),66,82,86,43,36,115,57,88,88,27,19,6,8,0.8,0.7
2023-05-02T20:00:00,2374A,114.3703,27.7914,宜春市,市气象局,颗粒物(PM10),72,93,89,48,35,120,65,93,93,32,24,9,10,0.9,0.8
2023-05-02T20:00:00,2375A,114.4013,27.8074,宜春市,市广电局,颗粒物(PM10),69,88,86,46,35,122,68,93,93,23,19,14,16,0.8,0.7
2023-05-02T20:00:00,2376A,116.2127,28.0814,抚州市,桐源党溪,细颗粒物(PM2.5),63,49,43,45,20,125,64,118,105,15,4,4,2,1.6,1
