timepoint,stationcode,longitude,latitude,area,positionname,primarypollutant,aqi,pm10,pm10_24h,pm2_5,pm2_5_24h,o3,o3_24h,o3_8h,o3_8h_24h,no2,no2_24h,so2,so2_24h,co,co_24h
2024-02-25T2000,2566A,102.1879,31.914,阿坝藏族羌族自治州,州农科所,,29,29,29,17,12,23,,31,31,13,8,7,8,1.2,1.3
2024-02-25T2000,2568A,102.2502,31.8896,阿坝藏族羌族自治州,马师校,,24,,13,14,8,74,,86,86,8,6,4,4,0.5,0.5
2024-02-25T2000,3994A,102.2165,31.9024,阿坝藏族羌族自治州,马尔康中学西区,,25,15,13,10,8,77,,87,87,6,5,5,6,0.4,0.4
2024-02-25T2000,2695A,80.292,41.1694,阿克苏地区,电视台,颗粒物(PM10),375,480,453,92,89,71,,68,68,9,27,6,9,0.5,1
2024-02-25T2000,2696A,80.2613,41.1551,阿克苏地区,艺术中心,颗粒物(PM10),370,476,460,103,95,57,,54,54,10,27,6,8,0.6,1.1
2024-02-25T2000,2204A,105.6467,38.8363,阿拉善盟,西城区西花园,细颗粒物(PM2.5),128,146,139,97,64,137,,126,126,17,13,12,10,1.2,0.9
2024-02-25T2000,2205A,105.6985,38.8411,阿拉善盟,蒙二幼,细颗粒物(PM2.5),124,159,158,94,73,144,,117,117,17,15,9,7,1.1,0.7
2024-02-25T2000,2206A,105.724,38.8516,阿拉善盟,环保局新楼,细颗粒物(PM2.5),125,149,150,95,70,143,,121,121,16,9,9,7,1.1,0.7
2024-02-25T2000,2708A,88.1264,47.8517,阿勒泰地区,市站,,31,31,40,14,17,85,,83,83,17,17,4,6,0.3,0.3
2024-02-25T2000,2630A,80.1161,32.5,阿里地区,阿里监测站,,31,6,9,4,7,98,,105,104,9,10,6,8,0.5,0.5
2024-02-25T2000,3192A,80.0903,32.5028,阿里地区,阿里藏医院,,,,10,,6,101,,109,108,2,3,5,6,0.4,0.6
2024-02-25T2000,2642A,109.0318,32.6537,安康市,香溪洞,细颗粒物(PM2.5),54,46,51,38,38,81,,83,83,6,10,6,10,0.6,0.6
2024-02-25T2000,2643A,109.0281,32.6939,安康市,安康市监测站,细颗粒物(PM2.5),57,52,62,40,53,74,,82,82,14,19,7,13,0.7,0.7
2024-02-25T2000,2644A,109.0072,32.6975,安康市,汉滨区检察院,细颗粒物(PM2.5),54,45,49,38,44,83,,89,89,10,12,25,11,0.5,0.6
2024-02-25T2000,2291A,117.0809,30.5177,安庆市,环科院,细颗粒物(PM2.5),67,61,56,48,45,96,,107,106,17,12,7,5,0.6,0.5
2024-02-25T2000,2292A,117.0331,30.5119,安庆市,马山宾馆,细颗粒物(PM2.5),74,64,58,54,50,99,,110,109,20,13,6,5,0.5,0.5
2024-02-25T2000,2294A,116.9896,30.6145,安庆市,安庆大学,细颗粒物(PM2.5),69,61,55,50,48,100,,109,108,16,11,7,7,0.4,0.4
2024-02-25T2000,3173A,117.0598,30.5351,安庆市,市人大,细颗粒物(PM2.5),77,67,60,56,51,93,,108,106,19,9,5,3,0.6,0.5
2024-02-25T2000,3123A,105.9408,26.2431,安顺市,凤凰山,,28,,16,19,14,37,,37,37,13,9,22,17,0.6,0.6
2024-02-25T2000,3124A,105.9439,26.2564,安顺市,金钟山,,22,16,15,15,13,38,,36,35,11,8,14,12,0.4,0.5
2024-02-25T2000,3125A,105.8983,26.2481,安顺市,娄家坡,,26,21,17,18,15,33,,35,33,13,8,17,16,0.6,0.7
2024-02-25T2000,1819A,114.3551,36.1017,安阳市,红庙街,细颗粒物(PM2.5),102,105,112,76,84,97,,120,119,22,22,10,15,0.9,1
2024-02-25T2000,1820A,114.361,36.0681,安阳市,银杏小区,细颗粒物(PM2.5),122,,109,92,113,98,,118,117,16,20,8,12,1.0,1.2
2024-02-25T2000,3141A,114.3922,36.0878,安阳市,信访局,细颗粒物(PM2.5),124,,112,94,112,91,,120,118,26,24,7,12,0.7,0.9
2024-02-25T2000,3669A,114.4705,36.0637,安阳市,左辅环卫站,细颗粒物(PM2.5),108,111,140,81,124,78,,114,112,31,27,7,11,1.0,1.3
2024-02-25T2000,3703A,114.2917,36.0949,安阳市,安钢职工学校,细颗粒物(PM2.5),104,87,138,78,108,104,,118,118,19,27,10,14,1.0,1.3
2024-02-25T2000,1748A,123.044,41.1196,鞍山市,深沟寺,细颗粒物(PM2.5),58,59,116,41,86,73,,82,81,22,32,8,17,0.6,1
2024-02-25T2000,1749A,123.011,41.0931,鞍山市,太阳城,颗粒物(PM10),54,57,113,36,78,88,,87,87,18,31,12,22,0.6,1.1
2024-02-25T2000,1750A,123.0485,41.1442,鞍山市,太平,细颗粒物(PM2.5),65,71,147,47,109,70,,81,80,26,37,8,20,0.5,1.1
2024-02-25T2000,1751A,122.9642,41.0971,鞍山市,铁西三道街,颗粒物(PM10),64,77,143,45,106,47,,73,69,57,49,46,29,2.6,2.2
2024-02-25T2000,1752A,122.9341,41.0833,鞍山市,铁西工业园区,颗粒物(PM10),57,64,136,36,108,62,,73,73,37,51,24,24,0.8,1.5
2024-02-25T2000,1753A,123.022,41.0821,鞍山市,明达新区,细颗粒物(PM2.5),59,65,144,42,107,80,,80,80,18,32,12,25,0.7,1.1
2024-02-25T2000,2195A,107.4212,40.761,巴彦淖尔市,附二中,颗粒物(PM10),74,98,82,41,38,96,,110,108,14,12,5,14,0.6,0.5
2024-02-25T2000,2196A,107.37,40.7372,巴彦淖尔市,市环保大楼,颗粒物(PM10),68,86,75,39,35,91,,110,109,21,15,8,5,0.6,0.6
2024-02-25T2000,1956A,86.1472,41.7538,巴音郭楞蒙古自治州,孔雀公园,颗粒物(PM10),337,449,443,98,103,66,,63,63,12,22,6,6,0.4,0.5
2024-02-25T2000,1957A,86.1972,41.7166,巴音郭楞蒙古自治州,棉纺厂,颗粒物(PM10),445,545,520,106,100,66,,62,62,10,12,2,4,0.4,0.4
2024-02-25T2000,1958A,86.2357,41.7173,巴音郭楞蒙古自治州,经济开发区,颗粒物(PM10),342,453,442,85,93,69,,66,66,12,16,4,6,0.4,0.4
2024-02-25T2000,2914A,106.7677,31.8794,巴中市,苏山坪,,38,36,33,26,25,60,,64,64,12,11,6,5,0.4,0.4
2024-02-25T2000,3182A,106.7656,31.8545,巴中市,丽阳花园,,39,39,35,27,26,41,,57,56,27,22,4,4,0.7,0.7
2024-02-25T2000,3183A,106.7418,31.8654,巴中市,圣泉水务公司,,48,45,37,33,26,27,,55,52,38,32,4,3,0.6,0.6
2024-02-25T2000,3616A,106.7616,31.8344,巴中市,市中心医院,,35,33,34,24,25,46,,65,65,17,22,5,5,0.6,0.7
2024-02-25T2000,2235A,122.7911,45.6077,白城市,洮北区环保局,细颗粒物(PM2.5),90,108,101,67,59,42,,65,60,29,19,8,8,0.7,0.5
2024-02-25T2000,2236A,122.8738,45.5725,白城市,市环保局,颗粒物(PM10),72,94,89,41,52,16,,72,57,53,28,7,15,0.7,0.6
2024-02-25T2000,2231A,126.4219,41.9171,白山市,喜丰,颗粒物(PM10),51,52,93,32,60,96,,94,94,11,24,11,22,0.9,1.3
2024-02-25T2000,2232A,126.4077,41.9419,白山市,环保局,颗粒物(PM10),64,78,159,40,120,98,,101,101,10,30,13,21,0.9,1.3
2024-02-25T2000,2647A,104.1724,36.5446,白银市,第三小学,颗粒物(PM10),88,125,243,49,83,69,,71,70,14,24,51,109,0.7,1.3
2024-02-25T2000,2648A,104.1465,36.5482,白银市,动力公司,颗粒物(PM10),78,105,245,48,86,70,,72,72,16,24,24,44,0.8,1.1
2024-02-25T2000,2512A,106.6103,23.9011,百色市,市监测站,颗粒物(PM10),51,51,31,24,16,40,,43,43,13,11,12,10,0.8,0.7
2024-02-25T2000,2513A,106.6538,23.8859,百色市,市中心血站,,40,34,28,28,22,38,,42,42,13,12,14,11,0.7,0.6
2024-02-25T2000,3406A,106.6085,23.8798,百色市,祈福高中,,36,36,29,23,21,41,,44,44,10,11,11,10,0.8,0.8
2024-02-25T2000,2270A,117.396,32.939,蚌埠市,工人疗养院,细颗粒物(PM2.5),117,106,122,88,108,119,,121,121,19,22,7,7,0.7,0.7
2024-02-25T2000,2271A,117.3605,32.9427,蚌埠市,百货大楼,细颗粒物(PM2.5),120,109,121,91,110,111,,120,120,26,20,4,4,0.6,0.6
2024-02-25T2000,2273A,117.4185,32.8911,蚌埠市,蚌埠学院,细颗粒物(PM2.5),109,100,118,82,104,111,,116,116,20,18,4,5,0.7,0.7
2024-02-25T2000,2274A,117.3533,32.9673,蚌埠市,淮上区政府,细颗粒物(PM2.5),128,112,131,97,117,111,,122,122,25,22,6,6,0.7,0.6
2024-02-25T2000,2275A,117.3145,32.8977,蚌埠市,高新区,细颗粒物(PM2.5),127,100,125,96,115,105,,119,119,19,16,5,6,0.5,0.4
2024-02-25T2000,3715A,117.3092,32.9314,蚌埠市,蚌埠田家炳中学,细颗粒物(PM2.5),137,131,140,104,124,102,,118,118,30,20,6,7,0.7,0.6
2024-02-25T2000,1585A,109.8756,40.6532,包头市,市环境监测站,"颗粒物(PM10),细颗粒物(PM2.5)",62,73,154,44,115,72,,101,101,50,45,14,22,0.9,1.1
2024-02-25T2000,1587A,109.9991,40.5842,包头市,包头八中,细颗粒物(PM2.5),87,86,179,64,138,76,,98,98,50,52,14,22,1.0,1.4
2024-02-25T2000,1588A,109.8538,40.6821,包头市,青山宾馆,细颗粒物(PM2.5),74,70,110,54,79,75,,99,99,47,37,14,19,0.9,0.8
2024-02-25T2000,1589A,109.8642,40.6288,包头市,惠龙物流,颗粒物(PM10),69,88,147,39,97,79,,104,104,41,50,16,25,0.9,1.4
2024-02-25T2000,1590A,110.0377,40.5546,包头市,东河鸿龙湾,细颗粒物(PM2.5),79,72,88,58,58,62,,106,106,68,41,14,12,1.0,0.9
2024-02-25T2000,3283A,109.9154,40.5685,包头市,滨河大厦,细颗粒物(PM2.5),72,89,82,52,53,49,,114,110,73,31,13,13,1.0,0.9
2024-02-25T2000,3419A,109.9447,40.6261,包头市,包头市委党校,颗粒物(PM10),61,71,105,41,68,53,,101,100,61,50,12,19,0.8,1
2024-02-25T2000,3683A,109.8331,40.6576,包头市,昆区政府,细颗粒物(PM2.5),80,72,164,59,128,77,,95,95,40,33,15,24,0.6,0.5
2024-02-25T2000,1930A,107.185,34.3063,宝鸡市,庙沟村,细颗粒物(PM2.5),95,,110,71,85,57,,76,75,28,19,8,8,0.9,0.9
2024-02-25T2000,1931A,107.0708,34.3017,宝鸡市,竹园沟,细颗粒物(PM2.5),145,130,97,111,78,54,,81,78,23,17,5,5,1.1,0.8
2024-02-25T2000,1932A,107.1906,34.3672,宝鸡市,三陆医院,细颗粒物(PM2.5),112,,160,84,141,74,,91,91,31,34,8,8,0.7,0.9
2024-02-25T2000,1933A,107.1431,34.3547,宝鸡市,监测站,细颗粒物(PM2.5),102,76,116,76,94,74,,84,84,26,27,4,4,0.9,0.9
2024-02-25T2000,1934A,107.1186,34.3739,宝鸡市,技工学校,细颗粒物(PM2.5),93,82,146,69,125,74,,87,87,32,26,6,8,0.9,0.8
2024-02-25T2000,1935A,107.3906,34.3528,宝鸡市,陈仓区环保局家属楼,细颗粒物(PM2.5),122,,156,92,132,62,,89,89,48,43,8,13,1.1,1.3
2024-02-25T2000,1936A,107.2058,34.3497,宝鸡市,文理学院,细颗粒物(PM2.5),104,81,135,78,106,84,,89,89,26,33,7,8,0.9,1
2024-02-25T2000,1937A,107.2386,34.3622,宝鸡市,三迪小学,细颗粒物(PM2.5),109,,164,82,134,76,,88,88,31,35,7,10,0.8,0.9
2024-02-25T2000,1051A,115.493,38.8632,保定市,游泳馆,颗粒物(PM10),75,99,95,45,63,59,,88,88,35,25,4,6,0.4,0.4
2024-02-25T2000,1052A,115.5213,38.8959,保定市,华电二区,颗粒物(PM10),66,81,83,42,65,70,,83,83,25,26,2,6,0.3,0.3
2024-02-25T2000,1053A,115.4713,38.9108,保定市,接待中心,颗粒物(PM10),54,57,94,34,66,82,,87,87,16,22,5,6,0.3,0.5
2024-02-25T2000,1054A,115.4612,38.8416,保定市,地表水厂,颗粒物(PM10),89,128,113,46,68,45,,86,84,47,34,6,6,0.3,0.5
2024-02-25T2000,3581A,115.31981,38.95208,保定市,满城区生态环境分局,细颗粒物(PM2.5),87,112,113,64,89,62,,92,89,36,31,7,6,0.6,0.9
2024-02-25T2000,3582A,115.47694,38.76408,保定市,清苑区第二中学,颗粒物(PM10),88,125,97,50,55,59,,91,89,46,31,6,8,0.5,0.5
2024-02-25T2000,3583A,115.62909,39.02311,保定市,徐水物探局,颗粒物(PM10),63,75,111,36,76,65,,79,79,25,32,2,4,0.4,0.5
2024-02-25T2000,4004A,115.4202,38.8656,保定市,双鹰农机,颗粒物(PM10),73,95,98,47,73,50,,86,85,40,28,5,6,0.6,0.6
2024-02-25T2000,4034A,115.5150,38.8590,保定市,植保所站,颗粒物(PM10),81,111,81,54,62,63,,87,86,40,28,2,6,0.7,0.6
2024-02-25T2000,2594A,99.1678,25.1081,保山市,市环境监测站,细颗粒物(PM2.5),54,48,43,38,24,104,,104,104,6,7,8,7,0.5,0.5
2024-02-25T2000,2595A,99.1711,25.1328,保山市,市环保局,颗粒物(PM10),54,57,45,31,25,102,,102,102,3,4,8,8,0.4,0.4
2024-02-25T2000,1867A,109.1436,21.4086,北海市,海滩公园,,22,22,15,10,9,22,,30,30,15,10,8,7,0.9,0.8
2024-02-25T2000,1868A,109.0981,21.4661,北海市,新市环保局,,28,,12,19,13,31,,34,34,12,9,6,7,1.1,1
2024-02-25T2000,1869A,109.1778,21.5233,北海市,北海工业园,,29,20,13,20,12,24,,30,29,13,11,7,15,1.1,1
2024-02-25T2000,3400A,109.1911,21.4415,北海市,龙潭自来水厂,,26,18,13,18,12,24,,32,31,12,10,8,9,0.8,0.8
2024-02-25T2000,1001A,116.3621,39.8784,北京市,万寿西宫,细颗粒物(PM2.5),65,78,64,47,40,44,,68,66,46,29,1,2,0.4,0.3
2024-02-25T2000,1002A,116.2202,40.2915,北京市,定陵,,44,44,38,15,17,76,,74,74,5,7,3,2,0.2,0.2
2024-02-25T2000,1003A,116.4174,39.9289,北京市,东四,颗粒物(PM10),65,79,54,38,31,56,,77,75,20,12,3,4,0.5,0.4
2024-02-25T2000,1004A,116.4072,39.8863,北京市,天坛,颗粒物(PM10),59,67,57,35,34,58,,74,73,20,18,1,2,0.3,0.3
2024-02-25T2000,1005A,116.462,39.9365,北京市,农展馆,颗粒物(PM10),63,75,48,36,24,56,,71,70,27,18,1,2,0.4,0.3
2024-02-25T2000,1006A,116.3392,39.9295,北京市,官园,颗粒物(PM10),64,77,59,39,32,68,,82,82,23,20,2,3,0.5,0.5
2024-02-25T2000,1007A,116.2878,39.9611,北京市,海淀万柳,颗粒物(PM10),61,71,58,29,30,62,,77,76,25,22,3,3,0.4,0.3
2024-02-25T2000,1008A,116.6636,40.135,北京市,顺义新城,颗粒物(PM10),55,60,60,26,35,51,,73,70,29,25,2,2,0.3,0.4
2024-02-25T2000,1009A,116.6275,40.3275,北京市,怀柔镇,颗粒物(PM10),58,65,48,32,28,44,,69,64,22,16,4,4,0.6,0.6
2024-02-25T2000,1010A,116.2296,40.217,北京市,昌平镇,颗粒物(PM10),54,57,47,23,20,72,,76,76,9,8,2,2,0.2,0.2
2024-02-25T2000,1011A,116.3966,39.9821,北京市,奥体中心,颗粒物(PM10),58,66,42,29,23,54,,71,70,18,14,3,2,0.6,0.4
2024-02-25T2000,1012A,116.184,39.9136,北京市,古城,颗粒物(PM10),62,74,74,39,45,55,,76,74,27,26,1,2,0.5,0.5
2024-02-25T2000,3281A,115.9718,40.4529,北京市,延庆夏都,,43,43,48,15,24,68,,66,66,4,11,1,4,0.2,0.3
2024-02-25T2000,3417A,117.0709,40.1465,北京市,平谷新城,颗粒物(PM10),55,60,53,28,29,50,,77,71,14,13,3,3,0.3,0.4
2024-02-25T2000,3418A,116.8336,40.4095,北京市,密云新城,,46,46,45,16,21,72,,74,73,3,8,3,2,0.2,0.3
2024-02-25T2000,3672A,116.1541,39.8204,北京市,丰台云岗,颗粒物(PM10),63,75,78,38,51,67,,75,75,16,19,1,2,0.3,0.4
2024-02-25T2000,3673A,116.6804,39.9081,北京市,通州东关,颗粒物(PM10),57,64,59,26,35,53,,71,68,25,23,1,2,0.4,0.4
2024-02-25T2000,3674A,115.9577,39.7603,北京市,房山燕山,颗粒物(PM10),55,59,72,38,51,58,,75,74,19,20,3,3,0.3,0.4
2024-02-25T2000,3675A,116.4672,39.7733,北京市,大兴旧宫,颗粒物(PM10),56,62,53,29,33,50,,69,68,24,19,3,3,0.2,0.2
2024-02-25T2000,3694A,115.986,40.4563,北京市,延庆石河营,,42,42,47,15,24,74,,74,74,5,13,3,2,0.2,0.3
2024-02-25T2000,3695A,116.6151,40.3053,北京市,怀柔新城,颗粒物(PM10),51,51,44,25,26,56,,68,67,8,11,1,1,0.2,0.3
2024-02-25T2000,3696A,116.2545,39.8768,北京市,丰台小屯,颗粒物(PM10),63,76,76,36,45,56,,74,73,28,27,1,2,0.3,0.3
2024-02-25T2000,3697A,116.84,40.3844,北京市,密云镇,颗粒物(PM10),51,51,64,21,43,60,,70,66,16,19,2,4,0.2,0.3
2024-02-25T2000,1761A,123.8275,41.3064,本溪市,大峪,细颗粒物(PM2.5),62,62,100,44,74,92,,90,90,19,31,11,14,0.7,1.1
2024-02-25T2000,1762A,123.7567,41.3325,本溪市,溪湖,细颗粒物(PM2.5),60,62,115,43,75,99,,95,95,14,32,8,13,0.8,1.1
2024-02-25T2000,1763A,123.7169,41.3094,本溪市,彩屯,细颗粒物(PM2.5),67,66,124,48,96,95,,88,88,18,37,10,14,0.9,1.2
2024-02-25T2000,1764A,123.7669,41.2864,本溪市,东明,细颗粒物(PM2.5),82,62,160,60,145,92,,88,88,22,42,13,22,1.0,1.3
2024-02-25T2000,1765A,123.7992,41.2664,本溪市,新立屯,细颗粒物(PM2.5),73,53,116,53,93,90,,84,84,19,42,12,14,0.4,1
2024-02-25T2000,1766A,123.8142,41.3472,本溪市,威宁,细颗粒物(PM2.5),74,59,111,54,96,84,,85,85,28,46,8,9,0.7,1
2024-02-25T2000,2587A,105.2864,27.3125,毕节市,八中,,16,16,19,11,15,18,,38,24,15,10,7,8,0.7,0.6
2024-02-25T2000,2588A,105.31,27.2944,毕节市,师专,,12,11,17,8,13,21,,38,25,14,11,7,9,0.6,0.5
2024-02-25T2000,3537A,105.3631,27.3533,毕节市,长征村,,12,10,17,8,13,26,,39,29,11,9,8,8,0.6,0.3
2024-02-25T2000,1629A,118.0018,37.3617,滨州市,第二水厂,细颗粒物(PM2.5),108,127,104,81,69,55,,84,81,48,33,12,21,1.4,1.2
2024-02-25T2000,1630A,117.9776,37.393,滨州市,北中新校,细颗粒物(PM2.5),118,135,110,89,72,52,,83,80,51,34,14,16,1.4,1.1
2024-02-25T2000,3514A,117.9378,37.3956,滨州市,中海酒店,细颗粒物(PM2.5),104,111,100,78,80,60,,86,84,53,40,16,18,1.7,1.1
2024-02-25T2000,3515A,117.9378,37.3553,滨州市,开发区一中,细颗粒物(PM2.5),94,116,112,70,74,62,,86,84,36,34,18,22,1.0,0.8
2024-02-25T2000,3516A,118.0917,37.694,滨州市,金海六路,细颗粒物(PM2.5),124,133,120,94,84,66,,83,78,40,46,13,18,1.4,1.1
2024-02-25T2000,4028A,117.9956,37.3753,滨州市,滨州市西街道办事处,细颗粒物(PM2.5),120,130,106,91,77,50,,80,76,53,34,16,24,1.4,1.1
2024-02-25T2000,2311A,115.8072,33.8399,亳州市,污水处理厂,细颗粒物(PM2.5),85,71,146,63,135,93,,117,116,17,18,10,8,0.7,0.7
2024-02-25T2000,2312A,115.7789,33.8518,亳州市,三国揽胜宫,细颗粒物(PM2.5),103,90,213,77,156,79,,112,110,34,22,10,12,1.0,0.9
2024-02-25T2000,3332A,115.7633,33.8034,亳州市,亳州学院,细颗粒物(PM2.5),85,76,168,63,144,95,,112,112,16,14,9,10,0.5,0.6
2024-02-25T2000,2693A,82.0485,44.8556,博尔塔拉蒙古自治州,市党校,颗粒物(PM10),67,84,108,40,40,88,,78,78,19,16,17,19,0.4,0.4
2024-02-25T2000,2694A,82.0806,44.8969,博尔塔拉蒙古自治州,市环保局,颗粒物(PM10),63,76,96,31,35,85,,81,81,18,26,14,16,0.6,0.8
2024-02-25T2000,1071A,116.8842,38.2991,沧州市,沧县城建局,细颗粒物(PM2.5),155,168,97,118,68,21,,,,70,34,12,10,1.1,1
2024-02-25T2000,1072A,116.8584,38.3254,沧州市,电视转播站,细颗粒物(PM2.5),98,112,88,73,61,47,,74,72,45,30,15,14,0.7,0.6
2024-02-25T2000,1073A,116.8709,38.3228,沧州市,市环保局,细颗粒物(PM2.5),145,161,85,111,59,30,,76,71,56,27,12,9,0.7,0.7
2024-02-25T2000,3324A,116.8136,38.3004,沧州市,河北水利电力学院,细颗粒物(PM2.5),90,114,100,67,73,40,,76,71,52,34,12,15,1.0,1
2024-02-25T2000,2622A,97.1806,31.1273,昌都市,昌都监测站,,33,,16,11,8,103,,99,99,4,13,8,8,0.5,0.5
2024-02-25T2000,3719A,97.1714,31.1406,昌都市,昌都会议中心,,34,13,8,11,6,107,,105,105,5,3,5,5,0.3,0.3
2024-02-25T2000,2690A,88.1236,43.8886,昌吉回族自治州,天山天池,,40,40,90,25,22,86,,92,91,10,6,9,8,0.6,0.5
2024-02-25T2000,2692A,87.2717,44.0297,昌吉回族自治州,新区政务中心,颗粒物(PM10),91,131,179,65,109,106,,104,104,29,33,11,7,1.0,1.2
2024-02-25T2000,3613A,87.3095,44.0142,昌吉回族自治州,亚心广场,颗粒物(PM10),93,136,200,68,123,106,,103,103,19,35,8,7,1.1,1.4
2024-02-25T2000,1119A,125.3325,43.9166,长春市,食品厂,细颗粒物(PM2.5),143,109,156,109,142,80,,88,86,29,37,10,18,0.6,0.7
2024-02-25T2000,1120A,125.2863,43.9027,长春市,客车厂,细颗粒物(PM2.5),122,100,139,92,117,54,,83,75,41,37,10,15,0.8,0.7
2024-02-25T2000,1121A,125.2841,43.8463,长春市,邮电学院,细颗粒物(PM2.5),132,,123,100,105,67,,91,87,37,27,21,17,0.6,0.5
2024-02-25T2000,1122A,125.3716,43.8772,长春市,劳动公园,细颗粒物(PM2.5),129,,130,98,114,85,,104,100,33,33,9,14,0.6,0.7
2024-02-25T2000,1123A,125.3297,43.8805,长春市,园林处,细颗粒物(PM2.5),137,,122,104,107,77,,98,95,33,28,12,19,0.6,0.6
2024-02-25T2000,1124A,125.4605,43.79,长春市,净月潭,细颗粒物(PM2.5),88,,117,65,99,79,,104,100,22,19,8,14,0.6,0.7
2024-02-25T2000,1126A,125.3863,43.8447,长春市,经开区环卫处,细颗粒物(PM2.5),125,,62,95,59,76,,98,93,28,18,6,7,0.7,0.5
2024-02-25T2000,1127A,125.245,43.7783,长春市,高新区管委会,细颗粒物(PM2.5),117,,178,88,115,86,,95,94,25,42,12,25,0.6,0.6
2024-02-25T2000,1128A,125.1761,43.8325,长春市,岱山公园,细颗粒物(PM2.5),109,82,168,82,152,77,,97,95,21,47,6,15,0.7,0.8
2024-02-25T2000,1335A,113.0833,28.2325,长沙市,经开区环保局,颗粒物(PM10),63,75,60,43,53,42,,71,62,32,16,6,6,0.6,0.5
2024-02-25T2000,1336A,112.8872,28.2189,长沙市,高开区环保局,细颗粒物(PM2.5),62,65,63,44,45,80,,74,72,13,9,4,4,0.6,0.5
2024-02-25T2000,1337A,113.0792,28.2053,长沙市,马坡岭,细颗粒物(PM2.5),74,72,66,54,56,49,,67,58,23,12,6,6,0.7,0.6
2024-02-25T2000,1338A,112.9394,28.19,长沙市,湖南师范大学,细颗粒物(PM2.5),73,64,66,53,55,73,,73,68,15,13,2,3,0.7,0.6
2024-02-25T2000,1339A,113.0178,28.1322,长沙市,雨花区环保局,细颗粒物(PM2.5),69,73,69,50,49,48,,69,56,24,13,4,4,0.6,0.5
2024-02-25T2000,1340A,112.9792,28.2597,长沙市,伍家岭,细颗粒物(PM2.5),70,63,70,51,53,68,,68,62,15,10,5,5,0.8,0.7
2024-02-25T2000,1341A,113.0014,28.1944,长沙市,火车新站,细颗粒物(PM2.5),73,67,63,53,54,62,,72,64,22,13,3,4,0.6,0.4
2024-02-25T2000,1342A,112.9844,28.1178,长沙市,天心区环保局,细颗粒物(PM2.5),69,76,67,50,52,49,,69,51,26,13,4,5,0.5,0.4
2024-02-25T2000,1343A,112.8908,28.1308,长沙市,湖南中医药大学,细颗粒物(PM2.5),74,60,62,54,53,64,,71,64,22,14,5,5,0.2,0.2
2024-02-25T2000,1344A,112.9581,28.3611,长沙市,沙坪,细颗粒物(PM2.5),58,45,47,41,42,52,,66,48,14,8,5,4,0.6,0.5
2024-02-25T2000,1727A,113.1147,36.1547,长治市,清华站,细颗粒物(PM2.5),119,92,105,90,91,95,,106,106,27,23,15,15,0.8,1
2024-02-25T2000,1728A,113.1031,36.1989,长治市,监测站,细颗粒物(PM2.5),98,95,116,73,90,107,,107,107,25,29,14,18,0.7,0.9
2024-02-25T2000,1730A,113.0886,36.2125,长治市,审计局,细颗粒物(PM2.5),92,82,96,68,85,114,,112,112,18,25,15,20,1.0,1.2
2024-02-25T2000,1731A,113.0844,36.1856,长治市,长治八中,细颗粒物(PM2.5),95,89,94,71,81,110,,111,111,26,27,8,12,1.0,1.2
2024-02-25T2000,2845A,113.1569,36.1911,长治市,德盛苑,细颗粒物(PM2.5),92,78,97,68,88,108,,111,111,20,20,13,17,1.0,1.3
2024-02-25T2000,3568A,113.06,36.0464,长治市,向阳小学,细颗粒物(PM2.5),168,143,96,127,98,74,,112,109,53,24,23,16,1.0,1
2024-02-25T2000,3569A,112.8792,36.3144,长治市,屯留一中,细颗粒物(PM2.5),144,129,92,110,92,93,,118,118,38,19,18,11,1.2,0.9
2024-02-25T2000,3570A,113.235,36.3489,长治市,潞城四中,细颗粒物(PM2.5),88,92,108,65,97,109,,114,114,23,22,9,11,0.9,0.9
2024-02-25T2000,1854A,111.6975,28.9703,常德市,市二中,细颗粒物(PM2.5),58,52,40,41,37,87,,88,88,14,14,6,6,0.5,0.5
2024-02-25T2000,1857A,111.7158,29.1456,常德市,白鹤山,颗粒物(PM10),51,52,40,35,30,53,,59,59,7,4,2,2,0.5,0.4
2024-02-25T2000,3138A,111.7153,29.0289,常德市,武陵区永安,细颗粒物(PM2.5),52,43,42,36,33,87,,87,87,9,11,7,7,0.4,0.4
2024-02-25T2000,3139A,111.6892,28.9881,常德市,鼎城区玉霞,,50,40,37,35,33,90,,89,89,12,15,8,8,0.4,0.4
2024-02-25T2000,3140A,111.6625,29.0531,常德市,武陵区长庚,细颗粒物(PM2.5),60,48,41,43,36,85,,88,88,10,9,4,4,0.6,0.5
2024-02-25T2000,1196A,119.9633,31.762,常州市,市监测站,细颗粒物(PM2.5),94,101,71,70,56,85,,105,102,30,17,8,7,0.6,0.6
2024-02-25T2000,1200A,119.9468,31.7069,常州市,武进监测站,细颗粒物(PM2.5),84,75,62,62,50,95,,100,100,24,15,3,3,0.8,0.7
2024-02-25T2000,1201A,119.9255,31.9087,常州市,安家,细颗粒物(PM2.5),122,98,64,92,56,55,,107,102,63,19,8,8,0.9,0.6
2024-02-25T2000,3002A,119.9805,31.8174,常州市,行政中心,细颗粒物(PM2.5),94,87,65,70,54,77,,98,97,32,14,4,3,0.8,0.6
2024-02-25T2000,3003A,120.0522,31.7748,常州市,经开区,细颗粒物(PM2.5),104,89,65,78,55,76,,101,100,38,17,8,6,0.8,0.7
2024-02-25T2000,3010A,119.9025,31.7964,常州市,钟楼,细颗粒物(PM2.5),90,76,62,67,55,82,,95,95,32,23,9,8,0.8,0.7
2024-02-25T2000,3429A,119.8598,31.7066,常州市,武进经发区,细颗粒物(PM2.5),82,72,59,60,52,72,,102,100,49,17,9,7,0.8,0.6
2024-02-25T2000,3430A,119.5826,31.7245,常州市,金坛城区,细颗粒物(PM2.5),88,82,56,65,52,96,,107,107,24,12,9,7,1.0,0.7
2024-02-25T2000,2220A,120.4318,41.5881,朝阳市,西梁,细颗粒物(PM2.5),63,74,237,45,186,71,,90,88,18,28,9,26,0.7,1.1
2024-02-25T2000,2221A,120.4521,41.5646,朝阳市,河畔小区,颗粒物(PM10),54,58,250,31,199,72,,83,82,12,27,11,20,0.7,1
2024-02-25T2000,2222A,120.4176,41.5648,朝阳市,八里堡,颗粒物(PM10),60,70,304,42,250,73,,84,83,14,33,8,38,0.6,1.1
2024-02-25T2000,2223A,120.3806,41.5969,朝阳市,农业园区,颗粒物(PM10),58,65,146,30,102,68,,86,83,17,24,8,18,0.6,0.8
2024-02-25T2000,1705A,116.6367,23.6719,潮州市,西园路,,20,,21,14,18,32,,40,40,7,7,4,4,0.6,0.5
2024-02-25T2000,3026A,116.6183,23.6608,潮州市,市政府,,16,,22,11,15,32,,41,41,8,6,5,5,0.8,0.8
2024-02-25T2000,4036A,116.6461,23.6761,潮州市,金山,,23,,21,16,18,28,,36,36,8,7,6,6,0.7,0.6
2024-02-25T2000,2472A,113.0073,25.9061,郴州市,马头岭,,40,40,37,19,16,50,,55,53,10,8,3,3,0.9,1
2024-02-25T2000,2473A,113.0116,25.8226,郴州市,市职中,,42,33,28,29,26,46,,53,48,11,8,3,3,0.7,0.7
2024-02-25T2000,2474A,113.0161,25.8001,郴州市,兴隆步行街,,50,,32,35,29,46,,55,48,14,9,4,4,0.6,0.6
2024-02-25T2000,2475A,113.0383,25.8071,郴州市,市审计局,,32,28,24,22,19,49,,56,50,13,10,3,3,0.8,0.8
2024-02-25T2000,2476A,113.0348,25.7759,郴州市,市环保局,,43,36,27,30,30,45,,53,46,15,10,2,2,0.7,0.7
2024-02-25T2000,1431A,103.9728,30.7236,成都市,金泉两河,细颗粒物(PM2.5),92,77,57,68,42,36,,24,24,26,27,3,3,0.7,0.7
2024-02-25T2000,1432A,104.176,30.6872,成都市,十里店,细颗粒物(PM2.5),73,89,56,53,36,36,,48,48,44,33,1,1,0.7,0.7
2024-02-25T2000,1433A,104.079,30.5706,成都市,三瓦窑,颗粒物(PM10),65,79,56,44,30,44,,49,49,31,29,3,2,0.6,0.5
2024-02-25T2000,1434A,104.1114,30.63,成都市,沙河铺,颗粒物(PM10),76,102,61,55,38,26,,41,41,48,30,4,3,0.8,0.7
2024-02-25T2000,1437A,104.0786,30.6531,成都市,君平街,细颗粒物(PM2.5),78,100,62,57,42,34,,36,33,45,33,2,3,0.9,0.8
2024-02-25T2000,1438A,103.613,31.0283,成都市,灵岩寺,细颗粒物(PM2.5),70,84,72,51,45,66,,63,63,19,14,5,7,1.0,1
2024-02-25T2000,2880A,104.0239,30.65639,成都市,大石西路,细颗粒物(PM2.5),82,92,63,60,40,35,,33,28,49,39,4,4,0.6,0.5
2024-02-25T2000,3136A,104.2725,30.5589,成都市,龙泉驿区区政府,细颗粒物(PM2.5),64,66,55,46,37,40,,59,58,30,14,2,2,0.8,0.6
2024-02-25T2000,3357A,104.0106,30.6931,成都市,金博路,细颗粒物(PM2.5),78,94,65,57,42,34,,29,20,37,35,1,2,0.8,0.8
2024-02-25T2000,3359A,104.0578,30.5225,成都市,华阳,细颗粒物(PM2.5),67,68,53,48,39,37,,50,50,22,12,1,2,0.5,0.5
2024-02-25T2000,3487A,104.2394,30.5319,成都市,车城东七路,细颗粒物(PM2.5),68,70,56,49,39,46,,54,54,32,22,2,2,0.8,0.6
2024-02-25T2000,3488A,104.3853,30.7453,成都市,青白江技师分院,细颗粒物(PM2.5),85,102,54,63,29,11,,61,56,58,22,6,5,0.9,0.8
2024-02-25T2000,3489A,104.0789,30.4072,成都市,科学城,细颗粒物(PM2.5),59,59,46,42,36,46,,61,61,30,17,3,3,0.5,0.5
2024-02-25T2000,4011A,103.8506,30.6947,成都市,光华大道三段,颗粒物(PM10),72,93,65,50,31,38,,34,33,25,23,3,2,0.7,0.6
2024-02-25T2000,1062A,117.9531,40.9081,承德市,铁路,,50,50,60,18,25,88,,86,86,5,14,5,9,0.2,0.3
2024-02-25T2000,1063A,117.9392,40.9763,承德市,中国银行,颗粒物(PM10),51,52,69,15,24,64,,87,86,17,20,8,9,0.3,0.4
2024-02-25T2000,1064A,117.9503,40.928,承德市,开发区,颗粒物(PM10),51,52,50,14,20,91,,88,88,3,18,4,6,0.2,0.3
2024-02-25T2000,1065A,117.8051,40.9655,承德市,文化中心,颗粒物(PM10),54,58,71,13,18,76,,84,84,15,17,4,7,0.3,0.3
2024-02-25T2000,1066A,117.9268,41.0026,承德市,离宫,,46,46,30,21,17,80,,86,86,3,6,2,4,0.2,0.3
2024-02-25T2000,2314A,117.47,30.6618,池州市,池州学院,细颗粒物(PM2.5),102,84,56,76,53,89,,106,103,18,12,5,6,0.5,0.4
2024-02-25T2000,3237A,117.4918,30.6617,池州市,展览馆,细颗粒物(PM2.5),112,109,59,84,53,87,,107,104,16,13,4,5,0.5,0.4
2024-02-25T2000,3333A,117.5627,30.695,池州市,第八中学,细颗粒物(PM2.5),94,83,58,70,53,83,,107,103,15,10,2,3,0.7,0.6
2024-02-25T2000,3334A,117.5038,30.6243,池州市,第十二中学,细颗粒物(PM2.5),109,94,60,82,55,68,,108,102,33,14,4,4,0.6,0.5
2024-02-25T2000,1744A,118.9233,42.2816,赤峰市,松山一中,颗粒物(PM10),61,71,118,10,65,64,,80,77,21,29,7,21,0.4,0.8
2024-02-25T2000,1745A,118.9576,42.2728,赤峰市,哈达街,颗粒物(PM10),62,74,136,17,89,56,,73,70,25,29,9,24,0.5,0.8
2024-02-25T2000,1746A,118.8788,42.2554,赤峰市,天义路,颗粒物(PM10),52,54,92,11,59,58,,73,70,22,26,6,17,0.4,0.8
2024-02-25T2000,3058A,119.2658,42.0353,赤峰市,银河街,颗粒物(PM10),70,90,101,23,60,59,,76,74,19,20,16,24,0.6,0.7
2024-02-25T2000,3286A,118.9359,42.3147,赤峰市,桥北物流园区,颗粒物(PM10),60,70,86,22,55,68,,84,82,16,23,6,18,0.5,0.5
2024-02-25T2000,2521A,107.3476,22.4136,崇左市,市环保局江州分局,,30,30,15,19,10,30,,30,30,9,9,7,7,0.4,0.4
2024-02-25T2000,2522A,107.3702,22.3707,崇左市,城南新区,,38,32,12,26,13,28,,29,29,14,9,6,7,0.5,0.5
2024-02-25T2000,2298A,118.3093,32.3153,滁州市,老年大学,细颗粒物(PM2.5),88,68,71,65,70,85,,108,106,30,14,7,6,0.8,0.7
2024-02-25T2000,2299A,118.3244,32.2786,滁州市,人大宾馆,细颗粒物(PM2.5),79,84,75,58,65,80,,104,101,34,17,5,5,0.7,0.7
2024-02-25T2000,3207A,118.3118,32.3038,滁州市,市政府原办公楼,细颗粒物(PM2.5),79,75,68,58,61,73,,102,98,44,17,4,4,0.7,0.5
2024-02-25T2000,3331A,118.3267,32.2634,滁州市,图书馆,细颗粒物(PM2.5),75,74,75,55,60,92,,104,103,27,17,6,6,0.7,0.7
2024-02-25T2000,2605A,101.5482,25.0441,楚雄彝族自治州,州环境监测站,,37,37,45,17,33,104,,105,105,5,16,6,8,0.4,0.6
2024-02-25T2000,2606A,101.538,25.0492,楚雄彝族自治州,市经济开发区,,47,47,48,21,33,96,,98,98,7,15,6,8,0.4,0.5
2024-02-25T2000,2548A,107.5277,31.2827,达州市,达州职业技术学院,,40,40,42,21,25,10,,38,36,41,21,8,10,0.7,0.7
2024-02-25T2000,2549A,107.5086,31.2186,达州市,市环境监测站,细颗粒物(PM2.5),55,58,45,39,27,10,,30,29,57,32,7,8,1.0,0.8
2024-02-25T2000,2550A,107.4988,31.2132,达州市,凤凰小区,"颗粒物(PM10),细颗粒物(PM2.5)",52,53,45,36,28,20,,34,34,44,29,6,7,0.8,0.7
2024-02-25T2000,2551A,107.5082,31.1986,达州市,达县机关宾馆,颗粒物(PM10),51,51,47,33,31,17,,28,28,41,32,5,7,0.8,0.8
2024-02-25T2000,2552A,107.4644,31.2124,达州市,市政中心,颗粒物(PM10),52,53,50,27,30,17,,33,33,49,36,9,10,0.6,0.7
2024-02-25T2000,2614A,100.1542,25.7054,大理白族自治州,大理市环境监测站,,43,43,34,23,23,100,,102,102,10,8,7,7,0.6,0.6
2024-02-25T2000,2615A,100.2171,25.5811,大理白族自治州,大理古城,,,,29,34,22,,,100,100,6,4,8,7,0.5,0.7
2024-02-25T2000,1109A,121.612,38.9741,大连市,甘井子,,,60,89,43,76,97,,94,94,14,17,,9,0.5,0.6
2024-02-25T2000,1110A,121.565,38.9511,大连市,周水子,细颗粒物(PM2.5),58,57,105,41,96,87,,91,91,22,26,10,11,0.6,1.1
2024-02-25T2000,1111A,121.5637,38.8845,大连市,星海三站,细颗粒物(PM2.5),64,60,90,46,80,83,,91,90,8,20,16,17,0.7,0.8
2024-02-25T2000,1112A,121.6302,38.9117,大连市,青泥洼桥,细颗粒物(PM2.5),63,58,91,45,82,91,,89,89,20,29,14,19,0.7,0.9
2024-02-25T2000,1113A,121.6251,38.8638,大连市,傅家庄,细颗粒物(PM2.5),57,55,102,40,83,101,,95,95,14,25,11,19,0.6,0.9
2024-02-25T2000,1114A,121.5213,38.8661,大连市,七贤岭,细颗粒物(PM2.5),67,56,74,48,53,88,,91,91,20,19,13,16,0.7,0.9
2024-02-25T2000,1115A,121.2529,38.8061,大连市,旅顺,,43,40,64,30,54,89,,89,89,16,22,9,10,0.7,0.9
2024-02-25T2000,1116A,121.7485,39.1311,大连市,金州,细颗粒物(PM2.5),70,58,82,51,73,98,,100,100,19,20,18,12,0.7,0.9
2024-02-25T2000,1117A,121.7811,39.0496,大连市,开发区,细颗粒物(PM2.5),73,64,91,53,72,98,,94,94,18,26,11,13,0.5,0.7
2024-02-25T2000,1118A,121.9762,39.0631,大连市,双D港,颗粒物(PM10),65,80,80,46,63,99,,96,96,17,20,14,14,0.6,0.9
2024-02-25T2000,1789A,124.81117,46.03138,大庆市,大同区,"颗粒物(PM10),细颗粒物(PM2.5)",58,66,103,41,82,61,,77,72,20,19,14,14,0.6,0.7
2024-02-25T2000,1790A,125.129,46.533,大庆市,龙凤区,,49,49,98,28,71,64,,85,81,25,25,4,11,0.4,0.6
2024-02-25T2000,1791A,124.902,46.408,大庆市,红岗区,,,44,97,11,75,66,,85,82,17,25,4,11,,0.2
2024-02-25T2000,1792A,125.153,46.586,大庆市,萨尔图区,,49,49,106,16,83,61,,76,73,23,28,9,14,0.5,0.6
2024-02-25T2000,1793A,124.9042,46.6215,大庆市,让胡路区,,44,44,91,17,65,74,,84,81,12,18,6,11,0.2,0.3
2024-02-25T2000,3481A,125.141,46.634,大庆市,萨区政府监测点,,25,25,91,16,67,74,,88,86,12,23,9,15,0.4,0.5
2024-02-25T2000,1723A,113.2994,40.0758,大同市,云冈宾馆,颗粒物(PM10),58,66,57,30,34,55,,82,80,35,20,6,10,0.5,0.8
2024-02-25T2000,1724A,113.3444,40.0917,大同市,大同大学,颗粒物(PM10),53,55,62,23,33,64,,76,75,25,24,8,16,0.5,0.7
2024-02-25T2000,1725A,113.2661,40.1269,大同市,安家小村,颗粒物(PM10),54,58,56,23,25,52,,80,78,31,17,15,15,0.6,0.9
2024-02-25T2000,1726A,113.2711,40.0844,大同市,教育学院,颗粒物(PM10),58,65,77,27,43,56,,77,76,32,24,8,16,0.6,0.7
2024-02-25T2000,3282A,113.3397,40.0597,大同市,大同市卫生学校,颗粒物(PM10),53,56,55,30,34,68,,80,80,21,19,8,12,0.6,0.8
2024-02-25T2000,3565A,113.1367,40.1122,大同市,云冈站,颗粒物(PM10),51,51,67,10,39,71,,83,82,14,24,6,22,0.3,0.7
2024-02-25T2000,3566A,113.1186,40.2556,大同市,图书馆,颗粒物(PM10),55,59,56,32,32,62,,77,76,20,14,25,12,0.5,0.5
2024-02-25T2000,3567A,113.5931,40.0461,大同市,区一中,颗粒物(PM10),71,92,82,41,48,61,,78,76,26,24,30,18,0.6,0.6
2024-02-25T2000,3676A,113.2802,40.0995,大同市,第二人民医院,颗粒物(PM10),56,61,74,29,36,67,,83,82,26,25,12,14,0.4,0.8
2024-02-25T2000,2269A,124.1069,50.4097,大兴安岭地区,科技局,,33,24,63,23,23,77,,80,80,4,6,10,10,0.4,0.4
2024-02-25T2000,3663A,124.1164,50.4278,大兴安岭地区,红旗社区,,26,17,62,10,40,81,,83,83,3,15,5,12,0.3,0.3
2024-02-25T2000,1600A,124.3303,40.0625,丹东市,江湾东路,细颗粒物(PM2.5),53,54,142,37,116,80,,86,86,19,28,15,24,0.7,1.5
2024-02-25T2000,1601A,124.4256,40.1503,丹东市,临江后街,颗粒物(PM10),52,54,115,34,86,80,,80,80,17,23,9,14,0.7,1.4
2024-02-25T2000,1602A,124.3933,40.1461,丹东市,元宝山,,50,50,158,33,123,77,,80,80,19,28,11,18,0.7,1.3
2024-02-25T2000,1603A,124.3633,40.1092,丹东市,民主桥,颗粒物(PM10),60,69,176,34,137,73,,76,76,20,32,14,23,0.8,1.5
2024-02-25T2000,3541A,109.5726,19.5167,儋州市,第一中学子站,,13,13,23,6,15,34,,37,29,7,7,5,6,0.9,0.9
2024-02-25T2000,3542A,109.5567,19.5187,儋州市,东坡学校子站,,13,13,25,9,18,32,,38,27,10,10,6,6,0.7,0.7
2024-02-25T2000,2616A,98.5842,24.428,德宏傣族景颇族自治州,德宏州监测站,颗粒物(PM10),59,68,59,33,32,87,,105,105,28,26,6,15,0.6,0.6
2024-02-25T2000,3677A,98.5881,24.4368,德宏傣族景颇族自治州,芒市人民政府综合楼,颗粒物(PM10),58,66,56,28,31,85,,100,100,19,18,5,10,0.5,0.4
2024-02-25T2000,1901A,104.4239,31.1208,德阳市,东山公园,细颗粒物(PM2.5),60,59,61,43,40,51,,63,63,22,13,1,1,0.6,0.6
2024-02-25T2000,1902A,104.3826,31.1317,德阳市,西小区,细颗粒物(PM2.5),83,86,70,61,46,37,,48,48,31,29,1,2,0.7,0.7
2024-02-25T2000,1904A,104.3553,31.1091,德阳市,耐火材料厂,细颗粒物(PM2.5),85,84,72,63,47,36,,52,52,32,25,2,2,0.7,0.6
2024-02-25T2000,3639A,104.4019,31.1244,德阳市,市教育局,细颗粒物(PM2.5),58,50,59,41,42,57,,60,60,18,25,2,1,0.6,0.6
2024-02-25T2000,1622A,116.3032,37.4674,德州市,儿童乐园,颗粒物(PM10),75,100,98,31,59,63,,92,90,40,26,8,14,0.7,0.8
2024-02-25T2000,1624A,116.2991,37.4451,德州市,监理站,颗粒物(PM10),69,88,111,29,75,70,,94,93,36,41,5,12,0.7,0.8
2024-02-25T2000,3066A,116.2721,37.4379,德州市,九衢泉纯净水厂,颗粒物(PM10),76,101,112,36,77,48,,89,86,55,34,10,13,0.9,1
2024-02-25T2000,3371A,116.3728,37.4403,德州市,开发区人民医院,颗粒物(PM10),68,85,99,34,61,47,,90,85,52,24,7,12,0.6,0.7
2024-02-25T2000,3372A,116.3572,37.4094,德州市,太阳城中学,颗粒物(PM10),60,70,112,39,79,49,,89,85,46,32,5,12,0.6,0.9
2024-02-25T2000,3511A,116.5652,37.3319,德州市,陵城艺术中心,颗粒物(PM10),89,127,95,61,57,60,,92,90,28,20,9,10,0.9,0.8
2024-02-25T2000,2621A,99.7056,27.8317,迪庆藏族自治州,迪庆州站,,29,26,26,16,15,91,,93,92,10,8,8,8,0.4,0.3
2024-02-25T2000,3180A,99.7136,27.8094,迪庆藏族自治州,质量技术监督局,,29,19,19,6,7,90,,90,90,5,4,9,8,0.4,0.4
2024-02-25T2000,2663A,104.6241,35.5734,定西市,东关小学,颗粒物(PM10),75,100,183,45,71,71,,81,81,10,16,12,15,0.5,0.7
2024-02-25T2000,2664A,104.6194,35.5934,定西市,供电公司,颗粒物(PM10),75,100,176,48,77,67,,78,78,10,20,9,13,0.3,0.6
2024-02-25T2000,1389A,113.7547,23.0494,东莞市,莞城梨川,,20,19,16,14,11,32,,40,40,16,14,7,7,0.8,0.8
2024-02-25T2000,1390A,113.7944,23.0128,东莞市,东城石井,,15,15,16,9,10,32,,34,34,15,13,7,7,0.8,0.8
2024-02-25T2000,1391A,113.7383,22.9658,东莞市,南城西平,,17,17,19,10,12,27,,36,36,20,15,6,6,0.9,0.8
2024-02-25T2000,3319A,113.7338,23.0381,东莞市,万江金泰,,16,15,16,11,11,29,,35,35,8,8,8,8,0.9,0.9
2024-02-25T2000,3626A,113.7533,23.0202,东莞市,南城元岭,,16,16,17,11,10,31,,35,35,9,8,7,8,0.8,0.8
2024-02-25T2000,3627A,113.7875,23.0457,东莞市,东城主山,,16,16,13,11,9,28,,36,36,15,10,6,6,0.8,0.8
2024-02-25T2000,1666A,118.6614,37.4309,东营市,市环保局,细颗粒物(PM2.5),132,122,99,100,75,69,,101,97,36,37,7,14,0.7,0.7
2024-02-25T2000,3036A,118.6904,37.4338,东营市,开发区管委会,细颗粒物(PM2.5),140,115,100,107,79,67,,97,92,38,36,3,10,0.9,0.8
2024-02-25T2000,3365A,118.5719,37.565,东营市,垦利区民丰路,细颗粒物(PM2.5),134,124,108,102,75,66,,90,88,33,35,10,19,1.1,1
2024-02-25T2000,3498A,118.5055,37.8612,东营市,河口城区,细颗粒物(PM2.5),147,153,123,112,87,50,,64,62,37,38,4,7,1.2,0.9
2024-02-25T2000,3646A,118.4978,37.4623,东营市,胜利站,细颗粒物(PM2.5),125,139,119,95,77,71,,95,91,35,39,9,15,0.8,0.8
2024-02-25T2000,3734A,118.35,37.26,东营市,理想之城,细颗粒物(PM2.5),119,124,105,90,72,62,,98,93,36,36,3,11,1.0,0.9
2024-02-25T2000,1591A,110.0023,39.8129,鄂尔多斯市,综合楼,颗粒物(PM10),81,112,100,51,61,66,,100,94,56,32,12,12,0.8,0.7
2024-02-25T2000,1592A,109.9486,39.8261,鄂尔多斯市,巴音孟克林场办事处,颗粒物(PM10),71,92,87,44,54,77,,89,85,35,30,13,11,0.8,0.8
2024-02-25T2000,1593A,109.7736,39.5986,鄂尔多斯市,康泽苑,细颗粒物(PM2.5),92,102,77,68,50,66,,96,93,49,24,10,8,1.0,0.7
2024-02-25T2000,1594A,109.8119,39.5989,鄂尔多斯市,华泰汽车城,颗粒物(PM10),73,95,100,48,70,72,,93,92,41,33,10,8,0.9,0.7
2024-02-25T2000,1595A,109.9734,39.7884,鄂尔多斯市,奥林花园,细颗粒物(PM2.5),77,102,123,56,78,74,,96,94,46,43,11,10,1.0,0.9
2024-02-25T2000,2436A,114.8938,30.3994,鄂州市,市政府,细颗粒物(PM2.5),90,,64,67,62,71,,83,82,25,24,8,11,0.7,0.9
2024-02-25T2000,2437A,114.8989,30.3714,鄂州市,赵家坝,细颗粒物(PM2.5),93,,59,69,60,76,,84,84,16,13,6,5,0.7,0.7
2024-02-25T2000,3654A,114.8094,30.4089,鄂州市,精准医疗中心,细颗粒物(PM2.5),77,94,72,56,59,65,,91,87,24,16,5,4,0.7,0.6
2024-02-25T2000,2454A,109.4978,30.2981,恩施土家族苗族自治州,湖北民院,颗粒物(PM10),55,60,51,18,28,36,,43,43,3,15,10,10,1.1,1
2024-02-25T2000,2455A,109.4707,30.2798,恩施土家族苗族自治州,州电力总公司,,42,42,38,29,30,30,,38,38,16,17,6,6,1.1,0.9
2024-02-25T2000,3549A,109.5061,30.3772,恩施土家族苗族自治州,龙凤新区,,43,,53,30,54,27,,36,35,13,16,7,6,0.9,0.9
2024-02-25T2000,2499A,108.3411,21.6158,防城港市,沙万,,28,25,10,19,5,26,,33,33,13,9,3,3,0.7,0.6
2024-02-25T2000,2500A,108.3514,21.7731,防城港市,防城档案局,,39,27,14,27,10,27,,33,32,16,10,6,6,0.7,0.6
2024-02-25T2000,2501A,108.3506,21.6414,防城港市,大海花园,,22,17,12,15,8,27,,33,33,10,6,3,4,0.6,0.6
2024-02-25T2000,1371A,113.1294,23.0067,佛山市,湾梁,,27,27,21,14,12,19,,29,28,25,15,9,8,0.8,0.8
2024-02-25T2000,1372A,113.1083,23.0478,佛山市,华材职中,,27,27,20,14,12,19,,24,24,29,21,5,7,0.9,0.8
2024-02-25T2000,1373A,113.144,23.0453,佛山市,南海气象局,,23,23,16,16,14,17,,27,26,28,17,6,6,1.0,0.8
2024-02-25T2000,1374A,113.2881,22.8094,佛山市,顺德苏岗,,26,26,20,14,12,14,,25,24,29,18,8,8,0.8,0.7
2024-02-25T2000,1376A,112.8383,22.8678,佛山市,高明孔堂,,31,31,17,15,9,25,,34,34,23,14,5,5,1.0,1
2024-02-25T2000,1377A,112.8836,23.1588,佛山市,三水监测站,,32,22,10,22,8,22,,33,32,18,11,5,5,0.8,0.8
2024-02-25T2000,1378A,112.867,23.185,佛山市,三水云东海,,22,,10,15,10,25,,34,34,17,11,3,3,0.8,0.8
2024-02-25T2000,3625A,113.2544,22.7642,佛山市,容桂街道办,,25,24,20,17,13,17,,26,25,31,19,5,5,0.8,0.8
2024-02-25T2000,1282A,119.2681,26.0504,福州市,师大,,30,30,33,17,25,33,,32,32,19,15,3,3,0.7,0.6
2024-02-25T2000,1283A,119.2984,26.1028,福州市,五四北路,,23,16,39,16,35,37,,34,34,14,14,3,3,0.7,0.6
2024-02-25T2000,1284A,119.2648,26.0768,福州市,杨桥西路,,19,19,43,13,36,34,,33,33,16,15,3,4,0.7,0.6
2024-02-25T2000,1285A,119.317,26.0746,福州市,紫阳,,17,17,41,11,35,36,,31,31,12,14,3,4,0.6,0.6
2024-02-25T2000,3048A,119.5799,26.0936,福州市,九龙,,28,25,18,19,11,56,,49,49,10,10,2,2,0.6,0.6
2024-02-25T2000,3526A,119.5189,25.9664,福州市,吴航,,29,27,18,20,13,52,,46,46,10,9,4,3,0.6,0.5
2024-02-25T2000,1755A,123.7977,41.8491,抚顺市,望花区,细颗粒物(PM2.5),57,54,115,40,103,97,,99,99,16,26,10,16,0.5,0.7
2024-02-25T2000,1756A,123.9161,41.8822,抚顺市,顺城区,颗粒物(PM10),53,56,130,34,93,115,,114,114,13,26,6,11,0.4,0.7
2024-02-25T2000,1757A,124.0436,41.8611,抚顺市,东洲区,细颗粒物(PM2.5),65,62,182,47,145,113,,110,110,13,35,10,16,0.6,1.1
2024-02-25T2000,1758A,123.9247,41.8642,抚顺市,新抚区,颗粒物(PM10),53,56,149,36,124,117,,115,115,13,31,8,13,0.5,0.8
2024-02-25T2000,1759A,124.0972,41.8961,抚顺市,大伙房水库,细颗粒物(PM2.5),68,62,174,49,137,117,,113,113,12,34,12,14,0.5,0.9
2024-02-25T2000,1760A,123.7086,41.8391,抚顺市,沈抚新城,细颗粒物(PM2.5),57,60,106,40,86,91,,110,107,22,29,7,9,0.5,0.6
2024-02-25T2000,2376A,116.2127,28.0814,抚州市,桐源党溪,,46,46,47,28,34,66,,62,62,3,5,2,2,1.5,1.6
2024-02-25T2000,2377A,116.3544,27.9831,抚州市,市站,,42,38,42,29,32,76,,70,70,10,11,2,2,0.3,0.5
2024-02-25T2000,2378A,116.3565,27.963,抚州市,血防站,,49,49,49,31,34,71,,66,66,7,7,3,2,0.8,0.9
2024-02-25T2000,2379A,116.3564,28.0007,抚州市,采茶剧团,,35,31,40,24,34,70,,65,65,5,6,4,4,0.6,0.7
2024-02-25T2000,2380A,116.385,27.9647,抚州市,医学分院,,38,38,43,20,29,74,,68,68,5,7,4,4,0.6,0.7
2024-02-25T2000,2207A,121.6094,41.998,阜新市,工业园区,,43,42,78,30,47,62,,88,84,26,20,8,11,0.6,0.7
2024-02-25T2000,2208A,121.6697,42.0279,阜新市,长青街,细颗粒物(PM2.5),53,38,38,37,30,71,,89,86,16,14,5,7,0.5,0.6
2024-02-25T2000,2209A,121.6673,42.0705,阜新市,农业园区,,34,34,30,17,12,79,,85,83,11,10,9,10,0.5,0.5
2024-02-25T2000,2210A,121.6717,42.0224,阜新市,东苑,,41,41,44,22,24,86,,95,93,10,12,3,6,0.6,0.7
2024-02-25T2000,2211A,121.6506,42.0498,阜新市,玉龙新城,细颗粒物(PM2.5),83,,45,61,27,43,,87,77,40,22,9,8,0.5,0.4
2024-02-25T2000,2301A,115.8277,32.8929,阜阳市,市监测站,细颗粒物(PM2.5),87,75,154,64,149,92,,113,112,24,22,6,9,0.6,0.6
2024-02-25T2000,2303A,115.8554,32.8605,阜阳市,开发区,细颗粒物(PM2.5),89,87,192,66,142,92,,115,114,31,22,5,7,0.7,0.7
2024-02-25T2000,2875A,115.784,32.8892,阜阳市,阜阳职业技术学院,细颗粒物(PM2.5),98,,175,73,159,104,,118,118,19,20,5,9,0.6,0.7
2024-02-25T2000,3468A,115.7901,32.8613,阜阳市,市规划展馆,细颗粒物(PM2.5),84,,213,62,183,103,,119,118,18,17,6,12,0.6,0.6
2024-02-25T2000,3469A,115.836,32.9183,阜阳市,枣园社区,细颗粒物(PM2.5),87,74,186,64,162,88,,117,114,30,18,6,10,0.6,0.6
2024-02-25T2000,2669A,102.9099,34.9841,甘南藏族自治州,州政府,细颗粒物(PM2.5),102,142,93,76,52,68,,83,83,12,10,9,11,0.8,0.7
2024-02-25T2000,3380A,102.8914,34.9617,甘南藏族自治州,甘肃民族师范学院,细颗粒物(PM2.5),94,122,102,70,48,66,,74,73,24,25,6,9,0.9,0.7
2024-02-25T2000,2570A,101.9603,30.0475,甘孜藏族自治州,水桥子,,35,35,22,22,15,61,,72,72,12,8,11,11,0.4,0.4
2024-02-25T2000,3065A,101.9533,29.9972,甘孜藏族自治州,州环保局,,40,40,25,2,6,62,,72,72,13,8,8,8,0.4,0.4
2024-02-25T2000,3414A,115.8347,28.932,赣江新区,桑海产业园,细颗粒物(PM2.5),75,66,56,55,49,58,,63,62,20,15,4,4,0.4,0.6
2024-02-25T2000,2363A,114.9367,25.8664,赣州市,地委,,32,30,20,22,18,38,,39,39,8,10,5,6,0.7,0.7
2024-02-25T2000,2364A,114.9461,25.8481,赣州市,气象台,,35,34,18,24,19,41,,39,39,8,5,1,3,0.7,0.6
2024-02-25T2000,2365A,114.9322,25.8333,赣州市,市图书馆,,41,41,20,24,13,35,,36,36,14,10,4,4,0.9,1
2024-02-25T2000,2366A,114.8905,25.8471,赣州市,华坚鞋城,,40,40,22,15,15,35,,37,37,11,7,4,4,1.2,1
2024-02-25T2000,3109A,115.0093,25.8613,赣州市,赣县区卫计委,,35,35,20,24,13,41,,40,40,10,10,6,6,0.7,0.7
2024-02-25T2000,2683A,106.2319,36.1417,固原市,马园,颗粒物(PM10),77,104,175,44,73,63,,71,70,30,28,4,4,1.1,1.1
2024-02-25T2000,2684A,106.2792,36.0022,固原市,监测站,细颗粒物(PM2.5),73,83,223,53,127,84,,82,82,15,25,5,7,0.7,0.8
2024-02-25T2000,2685A,106.2375,36.0211,固原市,新区,颗粒物(PM10),70,90,174,48,86,79,,76,76,19,31,5,5,0.6,0.8
2024-02-25T2000,3522A,106.2177,35.9959,固原市,原州区十五小,颗粒物(PM10),78,106,186,53,81,72,,71,71,15,23,7,7,0.6,0.9
2024-02-25T2000,2544A,106.6303,30.4576,广安市,市委,细颗粒物(PM2.5),54,47,50,38,41,40,,40,40,19,18,5,5,0.7,0.7
2024-02-25T2000,2545A,106.6271,30.4663,广安市,友谊中学,,50,41,43,35,39,40,,44,44,24,21,4,4,0.7,0.7
2024-02-25T2000,2547A,106.6388,30.4551,广安市,广电花园,,46,39,44,32,38,40,,41,41,18,18,4,4,0.7,0.7
2024-02-25T2000,2902A,106.6351,30.4865,广安市,北辰小学,细颗粒物(PM2.5),52,43,47,36,38,43,,42,42,15,13,6,6,0.7,0.6
2024-02-25T2000,2523A,105.8945,32.4535,广元市,黑石坡,细颗粒物(PM2.5),67,75,84,48,45,57,,58,58,14,18,4,4,0.6,0.6
2024-02-25T2000,2524A,105.821,32.4444,广元市,老城,细颗粒物(PM2.5),72,91,74,52,40,39,,46,44,28,27,3,4,0.9,0.9
2024-02-25T2000,2526A,105.8628,32.4287,广元市,监测站,细颗粒物(PM2.5),65,78,76,47,45,41,,46,46,29,23,2,4,0.7,0.7
2024-02-25T2000,3617A,105.8047,32.4166,广元市,经开区,细颗粒物(PM2.5),67,80,81,48,41,23,,48,38,40,24,12,9,1.0,0.8
2024-02-25T2000,1345A,113.2347,23.1423,广州市,广雅中学,,30,30,22,20,16,18,,24,24,29,22,4,4,1.0,0.9
2024-02-25T2000,1346A,113.2612,23.105,广州市,市五中,,35,34,23,24,16,18,,30,29,29,19,5,5,1.0,0.9
2024-02-25T2000,1348A,113.3478,23.0916,广州市,广东商学院,,26,26,22,15,13,29,,38,38,22,16,5,4,0.8,0.7
2024-02-25T2000,1349A,113.4332,23.1047,广州市,市八十六中,,28,26,22,19,15,30,,36,36,16,11,5,5,0.9,0.8
2024-02-25T2000,1350A,113.3505,22.9483,广州市,番禺中学,,26,26,23,5,18,31,,36,35,24,23,4,4,0.9,0.8
2024-02-25T2000,1351A,113.2146,23.3916,广州市,花都师范,,23,21,17,16,12,30,,34,34,14,13,5,5,0.9,0.8
2024-02-25T2000,1352A,113.2597,23.1331,广州市,市监测站,,34,34,21,20,14,16,,28,28,31,20,4,4,0.9,0.8
2024-02-25T2000,1353A,113.5618,23.312,广州市,九龙镇镇龙,,20,18,17,14,12,29,,39,38,14,11,6,6,0.8,0.8
2024-02-25T2000,1354A,113.2765,23.1544,广州市,麓湖,,31,31,21,19,15,15,,32,30,29,18,5,5,1.0,0.8
2024-02-25T2000,1355A,113.443,23.3035,广州市,帽峰山森林公园,,22,,11,15,10,36,,44,44,10,7,7,7,0.8,0.8
2024-02-25T2000,2846A,113.3221,23.1322,广州市,体育西,,,29,19,24,15,,,38,38,22,14,7,7,1.0,0.9
2024-02-25T2000,3298A,113.5717,23.5491,广州市,从化街口,,32,25,14,22,11,34,,42,41,10,7,5,4,0.8,0.7
2024-02-25T2000,3299A,113.3472,23.3692,广州市,白云竹料,,19,17,16,13,12,34,,43,42,12,11,5,5,0.7,0.7
2024-02-25T2000,3300A,113.2981,23.237,广州市,白云嘉禾,,30,30,20,18,12,14,,36,31,36,22,6,6,0.9,0.7
2024-02-25T2000,3301A,113.4256,23.1716,广州市,黄埔科学城,,23,23,17,16,12,31,,37,37,10,8,4,4,0.9,0.8
2024-02-25T2000,3302A,113.3942,23.0483,广州市,番禺大学城,,22,22,20,14,12,29,,36,35,20,16,6,6,0.8,0.5
2024-02-25T2000,3303A,113.4922,22.8168,广州市,南沙黄阁,,26,25,28,18,23,19,,26,26,33,25,5,5,0.9,0.8
2024-02-25T2000,3304A,113.5342,22.7896,广州市,南沙街,,26,26,26,15,16,18,,26,25,26,21,7,6,0.9,0.9
2024-02-25T2000,3443A,113.2902,23.5544,广州市,花都梯面,,25,22,14,17,11,27,,33,33,13,11,5,5,0.8,0.8
2024-02-25T2000,3445A,113.7858,23.7478,广州市,从化良口,,15,12,9,10,7,34,,42,39,7,6,4,3,0.7,0.5
2024-02-25T2000,3446A,113.8051,23.2614,广州市,增城荔城,,10,9,10,7,7,32,,36,36,8,6,7,7,0.7,0.7
2024-02-25T2000,2505A,109.568,23.1478,贵港市,德智高中,,22,,6,15,9,40,,45,44,9,7,5,4,0.7,0.8
2024-02-25T2000,2506A,109.6047,23.0666,贵港市,江南子站,,14,14,8,7,6,28,,40,38,16,9,5,5,0.7,0.7
2024-02-25T2000,2507A,109.6014,23.0948,贵港市,贵城子站,,22,22,10,12,6,24,,36,32,17,10,6,6,1.0,1
2024-02-25T2000,2508A,109.5669,23.1065,贵港市,荷城子站,,14,14,8,7,2,32,,40,37,10,6,8,8,0.8,0.7
2024-02-25T2000,3405A,109.5886,23.1172,贵港市,新世纪学校,,17,17,11,10,8,32,,40,37,9,5,7,7,0.9,0.9
2024-02-25T2000,1439A,106.6899,26.5998,贵阳市,马鞍山,,13,9,8,9,4,35,,48,43,10,7,4,5,0.5,0.5
2024-02-25T2000,1440A,106.6971,26.5694,贵阳市,市环保站,,22,,9,15,10,40,,58,46,14,10,6,6,0.4,0.7
2024-02-25T2000,1441A,106.6243,26.6266,贵阳市,鉴湖路,,14,14,17,9,8,34,,50,43,11,8,3,4,0.6,0.5
2024-02-25T2000,1442A,106.7487,26.6343,贵阳市,燕子冲,,15,9,7,5,6,46,,49,47,6,6,6,7,0.5,0.5
2024-02-25T2000,1443A,106.6555,26.4365,贵阳市,碧云窝,,24,24,22,12,7,33,,53,41,14,8,14,13,0.7,0.5
2024-02-25T2000,1444A,106.694,26.5161,贵阳市,中院村,,25,17,14,17,11,37,,56,46,17,10,12,10,0.6,0.4
2024-02-25T2000,1445A,106.7109,26.6027,贵阳市,红边门,,17,17,13,9,8,34,,52,41,14,8,9,10,0.5,0.4
2024-02-25T2000,1446A,106.7164,26.5699,贵阳市,新华路,,14,14,17,7,9,40,,53,44,12,10,6,6,0.5,0.4
2024-02-25T2000,1447A,106.674,26.5424,贵阳市,太慈桥,,18,17,12,12,8,31,,50,40,18,11,8,8,0.5,0.4
2024-02-25T2000,1862A,110.4144,25.3167,桂林市,电子科大尧山校区,,27,19,12,14,12,84,,92,90,6,5,4,4,0.4,0.4
2024-02-25T2000,1863A,110.2819,25.2697,桂林市,监测站,,23,,16,16,13,54,,60,60,13,9,6,6,0.3,0.3
2024-02-25T2000,1864A,110.3089,25.2708,桂林市,龙隐路小学,,22,16,11,15,11,58,,67,66,9,6,4,4,0.5,0.5
2024-02-25T2000,1865A,110.2869,25.2178,桂林市,八中,,26,20,15,18,14,58,,60,60,10,8,4,4,0.6,0.6
2024-02-25T2000,3403A,110.1764,25.2381,桂林市,创业大厦,,19,,10,12,9,59,,64,63,6,5,6,6,0.5,0.5
2024-02-25T2000,3531A,110.296,25.1253,桂林市,旅游学院,,18,,6,12,7,56,,67,65,6,4,4,3,0.6,0.7
2024-02-25T2000,2674A,100.2561,34.4714,果洛藏族自治州,玛沁县大武镇,,31,20,33,11,15,98,,100,100,28,28,6,15,0.4,0.4
2024-02-25T2000,1129A,126.5422,45.755,哈尔滨市,岭北,,49,26,164,16,144,154,,149,122,11,37,22,20,0.6,1
2024-02-25T2000,1130A,126.561,45.8167,哈尔滨市,松北商大,,32,30,166,22,136,79,,87,86,11,45,4,13,0.5,1
2024-02-25T2000,1131A,126.979,45.5419,哈尔滨市,阿城会宁,颗粒物(PM10),53,55,113,26,93,72,,89,84,19,37,16,16,0.5,0.9
2024-02-25T2000,1132A,126.599,45.7222,哈尔滨市,南岗学府路,,46,46,117,16,74,78,,82,82,11,36,19,23,0.3,0.6
2024-02-25T2000,1133A,126.689,45.7733,哈尔滨市,太平宏伟公园,,33,25,153,23,114,84,,96,96,20,57,13,26,0.4,0.9
2024-02-25T2000,1134A,126.635,45.7667,哈尔滨市,道外承德广场,,38,31,130,26,101,83,,90,90,12,51,16,18,0.6,0.6
2024-02-25T2000,1135A,126.685,45.7319,哈尔滨市,香坊红旗大街,,27,27,118,18,103,78,,86,86,12,41,16,24,0.5,0.9
2024-02-25T2000,1136A,126.6411,45.7258,哈尔滨市,动力和平路,,31,31,109,20,82,84,,93,93,6,31,10,17,0.4,0.7
2024-02-25T2000,1137A,126.593,45.7478,哈尔滨市,道里建国路,细颗粒物(PM2.5),67,,136,48,110,79,,83,83,15,48,16,20,0.3,0.5
2024-02-25T2000,1138A,126.615,45.61,哈尔滨市,平房东轻厂,,42,,158,29,129,45,,75,67,39,59,10,17,0.5,1
2024-02-25T2000,1139A,126.595,45.9855,哈尔滨市,呼兰师专,细颗粒物(PM2.5),52,44,395,36,373,68,,81,77,14,51,13,31,0.5,1.8
2024-02-25T2000,1140A,126.6206,45.6842,哈尔滨市,省农科院,,43,35,148,30,123,81,,90,90,11,54,10,21,0.4,0.9
2024-02-25T2000,2688A,93.5128,42.8172,哈密市,地区监测站,颗粒物(PM10),133,215,235,39,61,72,,68,68,14,24,7,11,0.1,0.5
2024-02-25T2000,2689A,93.4961,42.8328,哈密市,哈密师范学校,颗粒物(PM10),133,216,250,42,67,68,,44,,14,29,4,12,0.8,1
2024-02-25T2000,2671A,100.9048,36.9639,海北藏族自治州,海晏县西海镇,颗粒物(PM10),79,107,104,48,44,82,,88,88,12,12,15,16,0.6,0.6
2024-02-25T2000,3867A,102.0738,36.5056,海东市,平安区公安北苑,颗粒物(PM10),118,186,183,86,93,63,,79,79,23,23,22,11,0.5,0.6
2024-02-25T2000,1410A,110.3232,20.0574,海口市,海南大学,,26,19,30,18,21,57,,43,43,8,10,6,7,0.7,0.7
2024-02-25T2000,1411A,110.283,20.0053,海口市,秀英海南医院,,26,20,26,18,20,55,,42,42,8,9,8,8,0.6,0.6
2024-02-25T2000,1412A,110.338,19.9969,海口市,海南师范大学,,28,20,24,19,19,58,,43,43,8,10,7,7,0.6,0.6
2024-02-25T2000,1413A,110.33,20.0356,海口市,龙华路环保局宿舍,,28,22,27,19,20,54,,41,41,9,10,8,8,0.5,0.6
2024-02-25T2000,3539A,110.5111,19.9736,海口市,桂林洋子站,,20,18,19,13,14,61,,46,46,6,9,6,6,0.5,0.5
2024-02-25T2000,2673A,100.6188,36.2866,海南藏族自治州,共和县恰卜恰镇,颗粒物(PM10),70,89,73,40,48,80,,90,90,17,19,12,14,0.8,0.5
2024-02-25T2000,2676A,97.3731,37.3753,海西蒙古族藏族自治州,德令哈市,颗粒物(PM10),51,52,33,15,13,95,,104,103,12,5,10,11,0.5,0.4
2024-02-25T2000,1049A,114.4918,36.5713,邯郸市,矿院,细颗粒物(PM2.5),89,101,106,66,79,89,,102,102,26,40,6,7,0.8,0.8
2024-02-25T2000,1050A,114.484,36.6133,邯郸市,丛台公园,细颗粒物(PM2.5),78,82,86,57,62,97,,110,110,18,25,7,12,0.6,0.9
2024-02-25T2000,3458A,114.7895,36.5593,邯郸市,香泉濮院小区,细颗粒物(PM2.5),137,136,122,104,97,96,,111,111,19,18,13,16,0.7,0.7
2024-02-25T2000,3579A,114.50634,36.77178,邯郸市,永年区实验高中,细颗粒物(PM2.5),117,113,94,88,74,55,,105,101,53,44,9,7,0.5,0.9
2024-02-25T2000,3580A,114.20016,36.44293,邯郸市,峰峰矿区临水派出所,细颗粒物(PM2.5),88,87,63,65,50,98,,114,114,16,11,10,21,0.9,1.2
2024-02-25T2000,2634A,106.9893,33.1842,汉中市,汉川机床厂子校,细颗粒物(PM2.5),65,,42,47,40,57,,74,74,15,13,4,4,0.7,0.8
2024-02-25T2000,2635A,107.0154,33.0706,汉中市,市监测站,细颗粒物(PM2.5),60,47,46,43,43,26,,66,59,34,22,6,7,0.8,0.9
2024-02-25T2000,2636A,107.0089,33.1138,汉中市,鑫源开发区,细颗粒物(PM2.5),70,,51,51,53,58,,69,69,23,24,8,8,0.8,0.9
2024-02-25T2000,2637A,107.007,33.0323,汉中市,南郑大河坎水厂,细颗粒物(PM2.5),67,58,47,48,43,46,,73,70,28,18,9,9,1.1,1
2024-02-25T2000,1223A,120.2072,30.2111,杭州市,滨江,细颗粒物(PM2.5),74,63,53,54,46,79,,84,83,17,13,4,4,0.7,0.6
2024-02-25T2000,1224A,120.0633,30.2747,杭州市,西溪,细颗粒物(PM2.5),67,64,53,48,41,79,,89,88,16,11,6,6,0.8,0.8
2024-02-25T2000,1226A,120.3461,30.3153,杭州市,下沙,细颗粒物(PM2.5),83,76,65,61,55,75,,85,83,17,11,7,7,0.7,0.7
2024-02-25T2000,1227A,120.1269,30.2456,杭州市,卧龙桥,细颗粒物(PM2.5),70,59,50,51,44,71,,87,83,10,8,4,4,0.8,0.8
2024-02-25T2000,1228A,120.1903,30.2692,杭州市,浙江农大,细颗粒物(PM2.5),69,63,53,50,48,76,,84,82,16,12,6,6,0.5,0.5
2024-02-25T2000,1230A,120.1197,30.3119,杭州市,和睦小学,细颗粒物(PM2.5),72,58,51,52,47,74,,81,80,17,11,6,6,0.8,0.8
2024-02-25T2000,1231A,120.3019,30.4183,杭州市,临平镇,细颗粒物(PM2.5),84,73,62,62,55,71,,81,79,16,10,5,5,0.8,0.7
2024-02-25T2000,1232A,120.2697,30.1819,杭州市,城厢镇,细颗粒物(PM2.5),92,74,59,68,53,80,,87,84,20,14,7,6,0.6,0.6
2024-02-25T2000,1233A,120.0883,30.1808,杭州市,云栖,细颗粒物(PM2.5),59,56,47,42,39,57,,89,81,10,9,6,6,0.6,0.6
2024-02-25T2000,3557A,119.9464,30.0494,杭州市,镇二中,细颗粒物(PM2.5),65,51,43,47,40,74,,84,83,16,12,6,6,0.8,0.8
2024-02-25T2000,3558A,119.7183,30.2367,杭州市,市府大楼,细颗粒物(PM2.5),63,56,45,45,38,83,,83,83,11,11,5,5,0.6,0.6
2024-02-25T2000,3656A,120.1556,30.2864,杭州市,消防大队,细颗粒物(PM2.5),72,62,56,52,49,79,,86,84,19,12,8,8,0.5,0.5
2024-02-25T2000,1270A,117.1959,31.7848,合肥市,明珠广场,细颗粒物(PM2.5),85,78,64,63,51,90,,107,105,32,20,6,8,0.9,0.9
2024-02-25T2000,1271A,117.3072,31.8764,合肥市,三里街,细颗粒物(PM2.5),122,117,73,92,60,65,,104,99,56,23,6,6,0.9,0.7
2024-02-25T2000,1272A,117.2588,31.8707,合肥市,琥珀山庄,细颗粒物(PM2.5),117,110,67,88,53,89,,112,109,42,23,4,5,1.1,1
2024-02-25T2000,1273A,117.1604,31.9052,合肥市,董铺水库,细颗粒物(PM2.5),67,75,64,48,48,103,,111,110,17,10,3,3,0.5,0.4
2024-02-25T2000,1274A,117.25,31.8571,合肥市,长江中路,细颗粒物(PM2.5),156,129,67,119,62,93,,108,107,31,18,6,6,1.2,0.8
2024-02-25T2000,1275A,117.266,31.9436,合肥市,庐阳区,细颗粒物(PM2.5),100,112,72,75,51,74,,94,93,36,16,4,4,0.7,0.5
2024-02-25T2000,1276A,117.336,31.8586,合肥市,瑶海区,细颗粒物(PM2.5),137,124,68,104,60,85,,104,102,33,16,5,5,0.8,0.6
2024-02-25T2000,1277A,117.3027,31.7964,合肥市,包河区,细颗粒物(PM2.5),117,102,68,88,58,34,,99,87,91,33,3,3,0.4,0.3
2024-02-25T2000,1278A,117.2776,31.7385,合肥市,滨湖新区,细颗粒物(PM2.5),85,88,68,63,52,94,,101,101,22,22,4,5,0.5,0.4
2024-02-25T2000,1279A,117.1318,31.8403,合肥市,高新区,细颗粒物(PM2.5),74,68,63,54,52,99,,105,105,24,16,4,4,0.8,0.7
2024-02-25T2000,3464A,117.3803,31.9147,合肥市,高教基地,细颗粒物(PM2.5),114,127,74,86,54,64,,111,106,51,22,3,4,0.7,0.5
2024-02-25T2000,3614A,79.924,37.0877,和田地区,地区环保局,颗粒物(PM10),189,328,534,67,118,65,,66,66,9,25,7,12,0.4,1
2024-02-25T2000,3615A,79.9131,37.113,和田地区,市环保局,颗粒物(PM10),179,308,480,70,103,67,,73,73,9,25,5,7,0.7,0.8
2024-02-25T2000,2516A,108.2011,24.715,河池市,东仁乐园,,19,18,14,13,8,15,,36,30,7,5,3,3,0.8,0.7
2024-02-25T2000,2517A,108.0497,24.6947,河池市,市环保站,,29,24,15,20,9,39,,56,53,12,8,7,7,0.7,0.6
2024-02-25T2000,2518A,108.0983,24.6989,河池市,市疾控中心,,40,,17,28,14,34,,56,51,16,10,8,8,0.6,0.5
2024-02-25T2000,1696A,114.6778,23.7569,河源市,源西,,13,12,9,9,7,32,,44,42,11,8,4,4,0.8,0.7
2024-02-25T2000,1697A,114.6944,23.7586,河源市,东埔,,26,26,14,10,9,30,,40,38,8,6,6,6,0.8,0.7
2024-02-25T2000,1698A,114.6892,23.7233,河源市,老城,,16,14,12,11,9,30,,39,38,8,6,5,5,0.8,0.7
2024-02-25T2000,1718A,115.4208,35.2464,菏泽市,气象局,细颗粒物(PM2.5),93,120,187,69,153,97,,114,114,36,32,8,8,0.8,0.8
2024-02-25T2000,1719A,115.4747,35.2375,菏泽市,市政协,细颗粒物(PM2.5),113,122,193,85,157,97,,108,108,31,32,8,8,0.8,0.7
2024-02-25T2000,3374A,115.5564,35.0891,菏泽市,定陶老年大学,细颗粒物(PM2.5),117,127,132,88,112,92,,116,115,36,24,9,8,0.8,0.7
2024-02-25T2000,3647A,115.4702,35.2706,菏泽市,菏泽医专,"颗粒物(PM10),细颗粒物(PM2.5)",80,110,192,59,157,92,,109,109,29,32,8,10,0.6,0.7
2024-02-25T2000,2514A,111.5264,24.4172,贺州市,环保小区,,23,20,12,16,9,44,,48,47,10,8,7,7,0.7,0.7
2024-02-25T2000,2515A,111.5608,24.4078,贺州市,政协大楼,,27,27,19,11,9,44,,48,48,12,10,8,8,0.7,0.7
2024-02-25T2000,3534A,111.4744,24.4553,贺州市,西湾,,23,19,15,16,8,45,,50,49,8,7,10,9,0.7,0.7
2024-02-25T2000,2385A,114.17,35.9019,鹤壁市,市监测站,细颗粒物(PM2.5),149,140,115,114,89,98,,118,117,30,27,15,11,0.7,0.5
2024-02-25T2000,2386A,114.2956,35.7511,鹤壁市,市交警支队,细颗粒物(PM2.5),129,122,138,98,106,88,,113,113,30,32,16,15,0.7,0.8
2024-02-25T2000,2387A,114.2878,35.7306,鹤壁市,迎宾馆,细颗粒物(PM2.5),108,98,115,81,107,90,,113,113,28,29,5,7,0.8,1
2024-02-25T2000,3474A,114.2617,35.6822,鹤壁市,大新区,细颗粒物(PM2.5),147,,151,112,136,68,,109,109,46,37,10,10,0.9,0.9
2024-02-25T2000,3596A,114.1572,35.9603,鹤壁市,南山宾馆,细颗粒物(PM2.5),133,138,91,101,77,96,,117,116,18,12,10,10,1.0,0.9
2024-02-25T2000,2244A,130.2537,47.3416,鹤岗市,哈啤分公司,细颗粒物(PM2.5),107,95,48,80,37,47,,77,69,36,14,17,15,1.1,0.5
2024-02-25T2000,2245A,130.2684,47.3086,鹤岗市,斯达机电,细颗粒物(PM2.5),70,58,57,51,43,85,,93,92,24,15,12,12,0.6,0.6
2024-02-25T2000,2246A,130.3114,47.3388,鹤岗市,东山纸板厂,颗粒物(PM10),65,80,106,44,61,43,,84,74,31,35,14,18,0.8,1.3
2024-02-25T2000,2247A,130.1097,47.3382,鹤岗市,五号水库,细颗粒物(PM2.5),57,44,38,40,29,79,,99,96,12,11,7,8,0.3,0.3
2024-02-25T2000,2263A,127.4833,50.2524,黑河市,交通局,颗粒物(PM10),65,80,58,43,38,66,,64,64,23,17,14,13,0.8,0.6
2024-02-25T2000,2264A,127.5144,50.2341,黑河市,环保局,细颗粒物(PM2.5),57,47,101,40,93,73,,77,77,24,24,11,24,0.6,0.6
2024-02-25T2000,2265A,127.5291,50.2472,黑河市,大黑河岛,,,50,68,47,83,,,,,148,158,13,13,,
2024-02-25T2000,1074A,115.6838,37.7541,衡水市,电机北厂,细颗粒物(PM2.5),88,114,72,65,51,58,,92,90,33,15,15,6,0.6,0.5
2024-02-25T2000,1075A,115.6303,37.7316,衡水市,市监测站,细颗粒物(PM2.5),74,92,76,54,55,66,,89,89,29,23,10,10,0.5,0.5
2024-02-25T2000,3188A,115.6683,37.7217,衡水市,市城管局,细颗粒物(PM2.5),100,110,86,75,63,60,,87,86,34,26,11,8,0.7,0.6
2024-02-25T2000,3459A,115.5989,37.5491,衡水市,地表水厂,颗粒物(PM10),61,71,117,41,93,62,,101,98,28,37,4,11,0.5,0.7
2024-02-25T2000,2457A,112.6194,26.9258,衡阳市,衡阳化工总厂,细颗粒物(PM2.5),79,,57,58,58,52,,64,60,16,9,6,8,0.9,0.8
2024-02-25T2000,2458A,112.6211,26.8956,衡阳市,珠晖区环保局,细颗粒物(PM2.5),80,,55,59,54,51,,60,56,20,15,8,7,0.9,0.7
2024-02-25T2000,2459A,112.6197,26.8733,衡阳市,市委党校,细颗粒物(PM2.5),79,62,59,58,58,54,,64,60,21,14,7,8,0.8,0.6
2024-02-25T2000,2460A,112.6006,26.8919,衡阳市,市监测站,细颗粒物(PM2.5),94,84,72,70,59,58,,62,62,19,14,7,7,0.9,0.7
2024-02-25T2000,2461A,112.5664,26.9056,衡阳市,真空机电公司,细颗粒物(PM2.5),73,56,59,53,57,60,,58,53,15,14,5,6,0.7,0.6
2024-02-25T2000,3399A,112.6703,26.882,衡阳市,师范学院,细颗粒物(PM2.5),83,67,54,61,49,53,,67,62,18,12,5,6,0.7,0.6
2024-02-25T2000,2608A,103.3772,23.3993,红河哈尼族彝族自治州,污水处理厂,,48,43,24,33,22,75,,90,90,7,6,6,5,0.6,0.6
2024-02-25T2000,2609A,103.3861,23.35,红河哈尼族彝族自治州,监测站,,49,43,30,34,20,60,,89,87,9,7,14,10,0.6,0.6
2024-02-25T2000,3038A,103.3758,23.368,红河哈尼族彝族自治州,州图书馆,,49,,19,34,20,63,,84,84,7,6,5,5,0.6,0.5
2024-02-25T2000,1090A,111.6507,40.7517,呼和浩特市,呼市一监,,,85,90,54,53,,,99,99,28,24,18,15,0.5,0.5
2024-02-25T2000,1091A,111.6572,40.8033,呼和浩特市,小召,颗粒物(PM10),74,97,99,40,49,47,,81,78,49,31,11,12,0.8,0.7
2024-02-25T2000,1094A,111.7516,40.8369,呼和浩特市,如意水处理厂,,38,38,55,14,29,68,,78,78,26,30,9,11,0.3,0.4
2024-02-25T2000,1095A,111.7276,40.8062,呼和浩特市,二十九中,颗粒物(PM10),51,52,100,25,51,65,,77,77,30,29,11,16,0.4,0.5
2024-02-25T2000,1096A,111.5512,40.7866,呼和浩特市,工大金川校区,颗粒物(PM10),75,99,83,42,34,24,,74,67,64,32,10,9,0.7,0.5
2024-02-25T2000,1097A,111.717,40.7612,呼和浩特市,化肥厂生活区,细颗粒物(PM2.5),85,118,134,63,94,41,,79,75,58,31,19,24,0.8,0.6
2024-02-25T2000,3698A,111.5968,40.8178,呼和浩特市,红旗小学,,31,31,59,15,23,66,,73,72,24,24,7,9,0.4,0.5
2024-02-25T2000,3699A,111.6518,40.8389,呼和浩特市,海东办,,44,44,82,16,43,52,,72,70,42,35,7,13,0.3,0.4
2024-02-25T2000,2192A,119.7594,49.2261,呼伦贝尔市,区环保局,,42,42,34,22,22,83,,83,83,9,13,7,6,0.3,0.4
2024-02-25T2000,3061A,119.7512,49.1577,呼伦贝尔市,国华电力东,,35,35,25,21,19,84,,84,84,4,5,7,6,0.3,0.3
2024-02-25T2000,1250A,120.0751,30.8669,湖州市,城西水厂,细颗粒物(PM2.5),90,73,64,67,58,67,,82,80,31,21,4,4,0.6,0.6
2024-02-25T2000,2873A,120.0875,30.8955,湖州市,仁皇山新区,细颗粒物(PM2.5),90,75,62,67,56,77,,82,78,20,16,6,6,0.6,0.5
2024-02-25T2000,2907A,120.1844,30.8596,湖州市,吴兴区站,细颗粒物(PM2.5),82,76,61,60,50,79,,88,87,27,20,6,5,0.6,0.6
2024-02-25T2000,3562A,120.4148,30.8538,湖州市,南浔区站,细颗粒物(PM2.5),99,76,58,74,57,70,,96,94,22,11,6,6,0.6,0.5
2024-02-25T2000,1607A,120.9092,40.7136,葫芦岛市,龙港区,细颗粒物(PM2.5),64,68,90,46,61,55,,79,75,28,36,14,25,0.6,0.9
2024-02-25T2000,1608A,120.8392,40.7514,葫芦岛市,化工街,颗粒物(PM10),52,53,84,12,52,79,,81,81,8,34,8,16,0.6,0.9
2024-02-25T2000,1609A,120.8341,40.7073,葫芦岛市,新区,,39,39,77,11,55,83,,85,85,9,39,9,16,0.5,0.9
2024-02-25T2000,1610A,120.8695,40.7677,葫芦岛市,东城区,,25,25,89,16,63,77,,83,83,12,31,9,19,0.7,1.2
2024-02-25T2000,2482A,109.5981,27.5721,怀化市,林科所,,26,18,12,18,12,52,,72,67,4,4,9,10,0.9,0.8
2024-02-25T2000,2483A,109.9453,27.5444,怀化市,河西地税局,,46,45,31,32,22,42,,67,60,21,7,5,6,0.7,0.6
2024-02-25T2000,2484A,109.9781,27.5342,怀化市,市四医院,,45,43,28,31,20,43,,67,56,18,6,4,4,0.6,0.5
2024-02-25T2000,2485A,109.9972,27.5578,怀化市,监测楼,,39,39,28,24,20,62,,67,66,9,5,5,5,0.7,0.6
2024-02-25T2000,2486A,110.0394,27.583,怀化市,市委党校,,46,46,25,32,18,52,,66,62,8,4,6,6,0.7,0.6
2024-02-25T2000,1210A,119.036,33.5981,淮安市,钵池山,细颗粒物(PM2.5),115,102,81,87,74,80,,102,101,38,20,9,8,1.0,0.7
2024-02-25T2000,1211A,119.007,33.575,淮安市,北京南路,细颗粒物(PM2.5),98,100,77,73,71,98,,114,114,30,19,10,8,0.9,0.7
2024-02-25T2000,1212A,118.989,33.6067,淮安市,市监测站,细颗粒物(PM2.5),110,100,84,83,81,94,,113,113,33,20,10,8,0.8,0.6
2024-02-25T2000,1213A,119.135,33.5039,淮安市,楚州区监测站,细颗粒物(PM2.5),103,110,89,77,69,81,,109,107,36,20,9,8,1.0,0.8
2024-02-25T2000,1214A,119.0186,33.6297,淮安市,淮阴区监测站,细颗粒物(PM2.5),104,122,97,78,73,80,,111,110,48,24,8,5,0.9,0.7
2024-02-25T2000,3426A,118.8755,33.2894,淮安市,新华书店,细颗粒物(PM2.5),100,102,86,75,75,94,,107,107,29,16,8,6,1.0,0.6
2024-02-25T2000,2282A,116.8004,33.975,淮北市,监测站,细颗粒物(PM2.5),83,77,116,61,88,94,,111,109,27,22,7,8,0.9,0.7
2024-02-25T2000,2283A,116.8091,33.9007,淮北市,烈山区政府,细颗粒物(PM2.5),99,93,138,74,117,97,,118,117,26,29,6,7,0.5,0.6
2024-02-25T2000,3330A,116.8873,33.9836,淮北市,杜集区检察院,细颗粒物(PM2.5),85,85,130,63,106,105,,122,119,16,16,6,7,0.4,0.6
2024-02-25T2000,4017A,116.7923,33.9535,淮北市,市博物馆,细颗粒物(PM2.5),99,87,166,74,150,80,,111,108,38,22,10,11,0.7,0.7
2024-02-25T2000,2277A,116.8305,32.7727,淮南市,潘集区政府,细颗粒物(PM2.5),147,139,117,112,102,112,,120,120,18,16,5,4,0.5,0.5
2024-02-25T2000,2278A,117.0067,32.6524,淮南市,师范学院,细颗粒物(PM2.5),112,101,110,84,90,97,,113,112,25,18,6,6,0.5,0.5
2024-02-25T2000,2279A,116.8569,32.5951,淮南市,谢家集区政府,细颗粒物(PM2.5),104,99,84,78,80,113,,122,121,17,11,5,5,0.5,0.5
2024-02-25T2000,2280A,116.8281,32.633,淮南市,八公山区政府,细颗粒物(PM2.5),105,100,85,79,71,106,,120,119,21,12,5,4,0.6,0.5
2024-02-25T2000,2281A,116.6325,32.6201,淮南市,焦岗湖风景区管理处,细颗粒物(PM2.5),80,76,83,59,64,71,,102,100,35,11,3,3,0,0
2024-02-25T2000,2894A,117.0566,32.6531,淮南市,经济技术开发区消防队,细颗粒物(PM2.5),105,98,103,79,83,99,,112,111,18,17,4,6,0.5,0.5
2024-02-25T2000,3329A,117.0108,32.5893,淮南市,山南新区,细颗粒物(PM2.5),122,108,93,92,90,99,,116,115,21,12,4,4,0.5,0.5
2024-02-25T2000,2446A,114.9028,30.4742,黄冈市,职工中心,细颗粒物(PM2.5),74,65,67,54,58,76,,95,94,14,12,8,9,0.6,0.5
2024-02-25T2000,2929A,114.8858,30.4519,黄冈市,红卫路,细颗粒物(PM2.5),72,60,68,52,61,76,,90,90,15,17,7,7,0.5,0.5
2024-02-25T2000,3398A,114.9136,30.4445,黄冈市,市林业局,细颗粒物(PM2.5),70,56,62,51,57,79,,92,92,12,15,6,7,0.5,0.5
2024-02-25T2000,2672A,102.0199,35.5102,黄南藏族自治州,同仁县隆务镇,细颗粒物(PM2.5),119,151,129,90,82,69,,80,79,18,9,12,10,1.0,0.8
2024-02-25T2000,2295A,118.2903,29.6963,黄山市,延安路89号,颗粒物(PM10),52,54,49,27,30,79,,85,84,7,8,6,6,0.3,0.4
2024-02-25T2000,2296A,118.327,29.7178,黄山市,黄山东路89号,,42,42,40,22,29,72,,82,80,8,9,6,5,0.3,0.3
2024-02-25T2000,2297A,118.1371,30.2756,黄山市,黄山区政府5号楼,"颗粒物(PM10),细颗粒物(PM2.5)",52,54,54,36,40,73,,92,86,12,12,4,4,0.7,0.7
2024-02-25T2000,2423A,115.0601,30.2313,黄石市,沈家营,细颗粒物(PM2.5),97,79,67,72,60,68,,82,82,16,13,4,5,1.0,0.8
2024-02-25T2000,2424A,115.0817,30.2006,黄石市,陈家湾,细颗粒物(PM2.5),129,,83,98,82,61,,76,76,26,24,9,10,0.9,0.7
2024-02-25T2000,2426A,114.8988,30.2019,黄石市,铁山,细颗粒物(PM2.5),118,89,63,89,62,60,,76,74,28,15,5,5,1.1,0.9
2024-02-25T2000,2427A,115.0307,30.2092,黄石市,团城山,细颗粒物(PM2.5),107,84,69,80,59,75,,90,89,23,13,9,8,1.0,0.8
2024-02-25T2000,3149A,115.0235,30.1578,黄石市,笔架山北路,细颗粒物(PM2.5),113,,62,85,62,76,,87,87,18,15,7,6,1.0,0.8
2024-02-25T2000,1392A,114.4183,23.0528,惠州市,河南岸金山湖子站,,15,15,15,10,10,39,,47,47,6,5,5,5,0.9,0.8
2024-02-25T2000,1393A,114.4053,23.0822,惠州市,下埔横江三路子站,,,15,14,11,10,45,,52,52,10,8,,6,0.7,0.7
2024-02-25T2000,1394A,114.4103,23.1142,惠州市,江北云山西路子站,,,,15,,10,,,46,46,6,5,8,8,,0.6
2024-02-25T2000,1395A,114.4645,22.7833,惠州市,惠阳区承修路船湖子站,,17,17,17,10,11,31,,40,40,13,10,7,8,0.7,0.6
2024-02-25T2000,1396A,114.5317,22.7422,惠州市,大亚湾管委会子站,,18,18,18,9,10,34,,42,42,14,10,7,7,0.7,0.7
2024-02-25T2000,3314A,114.4338,22.8134,惠州市,惠阳秋长,,19,19,16,10,10,38,,46,46,12,9,7,6,0.6,0.6
2024-02-25T2000,3452A,114.6517,22.775,惠州市,大亚湾霞涌,,23,19,18,16,13,35,,39,39,7,6,6,6,0.7,0.6
2024-02-25T2000,2240A,130.9762,45.3001,鸡西市,环保局,颗粒物(PM10),52,54,129,31,96,36,,65,62,46,35,9,14,0.7,0.8
2024-02-25T2000,2243A,130.9429,45.3039,鸡西市,第一中学,细颗粒物(PM2.5),92,99,134,68,96,62,,66,66,29,35,19,25,0.4,0.5
2024-02-25T2000,3707A,131.0207,45.3073,鸡西市,欧美日汽修厂,细颗粒物(PM2.5),200,187,116,150,78,13,,74,64,61,33,35,15,2.0,1.6
2024-02-25T2000,3709A,130.9967,45.3106,鸡西市,市政设施管理处,细颗粒物(PM2.5),99,,99,74,73,28,,78,72,45,34,4,5,1.2,0.8
2024-02-25T2000,2367A,114.9754,27.0803,吉安市,红声器材厂,颗粒物(PM10),51,52,48,30,26,49,,42,42,14,17,10,8,0.7,0.9
2024-02-25T2000,2368A,114.9658,27.0999,吉安市,市森林工业局,,46,41,37,32,31,44,,40,40,14,15,10,9,0.5,0.5
2024-02-25T2000,2369A,114.99,27.1312,吉安市,市环境监测站,,43,40,38,30,27,51,,48,48,15,16,5,7,0.4,0.8
2024-02-25T2000,2370A,115.0093,27.0968,吉安市,青原区法院,,50,46,40,35,28,48,,41,41,15,17,26,14,0.8,0.9
2024-02-25T2000,1772A,126.54,43.8622,吉林市,哈达湾,细颗粒物(PM2.5),80,79,142,59,111,88,,106,105,33,32,19,25,0.9,1.2
2024-02-25T2000,1773A,126.5844,43.8358,吉林市,东局子,细颗粒物(PM2.5),133,127,189,101,156,52,,101,96,62,44,12,26,1.3,1.5
2024-02-25T2000,1774A,126.5052,43.8245,吉林市,电力学院,细颗粒物(PM2.5),241,216,126,191,109,36,,103,96,74,35,38,24,2.1,1.2
2024-02-25T2000,1775A,126.6133,43.8972,吉林市,江北,细颗粒物(PM2.5),130,123,159,99,128,75,,96,95,35,39,15,18,1.5,1.2
2024-02-25T2000,1776A,126.555,43.8306,吉林市,江南公园,细颗粒物(PM2.5),102,91,150,76,127,79,,100,100,42,42,13,22,0.8,1.8
2024-02-25T2000,2868A,126.4739,43.953,吉林市,九站,细颗粒物(PM2.5),139,132,129,106,102,76,,96,92,48,42,18,20,1.1,1
2024-02-25T2000,1299A,116.9862,36.6114,济南市,科干所,颗粒物(PM10),64,78,96,44,74,79,,95,94,29,32,10,14,0.5,0.7
2024-02-25T2000,1300A,116.9376,36.665,济南市,农科所,颗粒物(PM10),78,105,111,51,78,52,,92,88,50,45,18,11,1.0,0.9
2024-02-25T2000,1301A,117.1265,36.6734,济南市,开发区,颗粒物(PM10),64,78,62,42,42,72,,94,92,32,26,9,9,0.6,0.6
2024-02-25T2000,1303A,117.0624,36.6868,济南市,省种子仓库,颗粒物(PM10),80,110,87,53,56,57,,95,91,48,37,10,9,0.6,0.6
2024-02-25T2000,1304A,116.9489,36.6447,济南市,机床二厂,细颗粒物(PM2.5),70,88,120,51,88,67,,102,99,47,42,11,22,0.7,0.9
2024-02-25T2000,1305A,117.0495,36.663,济南市,市监测站,颗粒物(PM10),72,93,80,51,52,66,,96,93,51,42,12,12,0.8,0.9
2024-02-25T2000,1306A,116.7675,36.5484,济南市,长清党校,颗粒物(PM10),69,88,94,49,63,85,,111,109,35,36,12,10,0.5,0.6
2024-02-25T2000,1616A,117.6795,36.229,济南市,技术学院,颗粒物(PM10),63,75,103,36,72,77,,98,97,29,40,10,11,0.5,0.8
2024-02-25T2000,1961A,117.532,36.6868,济南市,东山小学,颗粒物(PM10),69,88,83,39,54,29,,100,89,66,31,7,10,0.5,0.5
2024-02-25T2000,3059A,117.7161,36.2049,济南市,泰兴公司,颗粒物(PM10),64,78,122,36,91,66,,100,98,36,42,10,12,0.6,1
2024-02-25T2000,3064A,117.6867,36.2171,济南市,莱芜战役纪念馆,颗粒物(PM10),63,75,117,41,80,73,,96,95,26,38,8,10,0.6,0.9
2024-02-25T2000,3494A,117.1673,36.9782,济南市,济阳区政府,颗粒物(PM10),68,85,98,32,62,48,,89,81,41,40,8,12,0.5,0.8
2024-02-25T2000,3495A,117.1171,36.63,济南市,锦屏中学,细颗粒物(PM2.5),64,76,52,46,36,60,,99,93,33,19,6,8,0.8,0.7
2024-02-25T2000,3682A,116.9814,36.6819,济南市,济南四建,细颗粒物(PM2.5),74,92,109,54,88,40,,87,81,70,47,12,19,0.7,0.8
2024-02-25T2000,1653A,116.6251,35.4302,济宁市,火炬城,细颗粒物(PM2.5),98,96,86,73,76,69,,99,97,40,27,6,5,0.8,0.6
2024-02-25T2000,1655A,116.5491,35.4042,济宁市,电化厂,细颗粒物(PM2.5),117,122,110,88,83,65,,99,93,52,33,17,9,0.7,0.6
2024-02-25T2000,3500A,116.5814,35.3707,济宁市,北湖一中,细颗粒物(PM2.5),113,100,101,85,86,66,,97,95,48,33,12,7,0.8,0.6
2024-02-25T2000,3501A,116.8249,35.5593,济宁市,服务中心,细颗粒物(PM2.5),122,140,150,92,102,66,,101,99,44,33,6,5,0.9,0.7
2024-02-25T2000,3678A,116.5907,35.4054,济宁市,市第七中学,细颗粒物(PM2.5),104,91,95,78,78,73,,100,98,38,27,8,5,0.8,0.7
2024-02-25T2000,2255A,130.2751,46.8028,佳木斯市,佳纺,细颗粒物(PM2.5),70,70,87,51,70,40,,78,73,61,49,13,9,0.9,1
2024-02-25T2000,2256A,130.3995,46.8307,佳木斯市,发电厂,细颗粒物(PM2.5),70,59,69,51,68,58,,89,83,38,31,5,4,0.7,0.6
2024-02-25T2000,2257A,130.3258,46.7975,佳木斯市,环保局,细颗粒物(PM2.5),85,88,188,63,161,67,,77,77,41,60,10,15,0.6,1
2024-02-25T2000,2258A,130.3648,46.8032,佳木斯市,十一中,细颗粒物(PM2.5),90,80,103,67,94,13,,73,60,97,54,9,9,1.7,1
2024-02-25T2000,2259A,130.3794,46.7588,佳木斯市,四丰,颗粒物(PM10),53,56,54,31,32,115,,104,104,11,18,1,1,0.5,0.4
2024-02-25T2000,1252A,120.7436,30.778,嘉兴市,清河小学,细颗粒物(PM2.5),80,72,58,59,48,78,,82,82,13,7,6,7,0.7,0.9
2024-02-25T2000,1253A,120.726,30.7478,嘉兴市,嘉兴学院,细颗粒物(PM2.5),74,68,56,54,44,75,,81,81,19,13,5,5,0.7,0.6
2024-02-25T2000,2872A,120.7846,30.7525,嘉兴市,南湖区残联,细颗粒物(PM2.5),78,78,63,57,48,90,,94,94,18,11,6,6,0.7,0.7
2024-02-25T2000,3407A,120.6916,30.7739,嘉兴市,秀洲住建,细颗粒物(PM2.5),82,65,53,60,49,76,,85,85,22,14,6,6,0.5,0.5
2024-02-25T2000,1945A,98.2908,39.7711,嘉峪关市,气象局,颗粒物(PM10),151,251,304,80,106,65,,74,74,22,30,8,9,0.5,0.5
2024-02-25T2000,2884A,98.2672,39.7978,嘉峪关市,酒钢宾馆,颗粒物(PM10),158,266,326,78,104,65,,68,68,24,26,11,34,0.4,0.7
2024-02-25T2000,3248A,98.2643,39.7724,嘉峪关市,雄关区,颗粒物(PM10),135,220,266,62,79,71,,62,62,18,36,7,18,0,1.1
2024-02-25T2000,1383A,113.1064,22.6058,江门市,北街,,30,26,23,21,17,17,,20,20,36,23,7,7,0.7,0.6
2024-02-25T2000,1384A,113.0731,22.5835,江门市,西区,,42,42,28,20,16,15,,22,22,37,21,5,5,0.7,0.7
2024-02-25T2000,1385A,113.0219,22.5311,江门市,圭峰西,,28,21,18,19,14,19,,28,27,35,20,6,6,0.8,0.7
2024-02-25T2000,1386A,113.0828,22.5947,江门市,东湖,,32,32,24,4,23,17,,24,24,33,20,7,6,0.8,0.7
2024-02-25T2000,3311A,113.1075,22.5647,江门市,江海富民,,32,26,22,22,15,18,,25,24,37,23,7,6,0.7,0.6
2024-02-25T2000,3449A,113.05,22.4667,江门市,新会银湖,,29,26,21,20,16,14,,26,24,38,20,5,5,0.9,0.8
2024-02-25T2000,1828A,113.227,35.2125,焦作市,市环保局,细颗粒物(PM2.5),118,139,196,89,170,82,,103,103,28,31,11,13,0.3,0.7
2024-02-25T2000,3169A,113.2725,35.2067,焦作市,太极体育中心,细颗粒物(PM2.5),143,178,208,109,176,84,,110,110,27,31,10,9,0.6,0.9
2024-02-25T2000,3335A,113.3137,35.2641,焦作市,马村街道办,细颗粒物(PM2.5),128,143,118,97,101,98,,112,112,20,25,14,13,0.5,0.8
2024-02-25T2000,3336A,113.2465,35.2373,焦作市,焦作技师学院,细颗粒物(PM2.5),134,139,129,102,109,93,,110,110,22,24,18,15,0.9,1.1
2024-02-25T2000,3477A,113.1656,35.2539,焦作市,中站许衡医院,细颗粒物(PM2.5),153,147,102,117,81,93,,114,114,24,22,13,10,0.7,0.8
2024-02-25T2000,3981A,113.2449,35.1803,焦作市,原李万街道办,细颗粒物(PM2.5),100,109,166,75,162,88,,102,102,24,28,9,9,0.8,1.1
2024-02-25T2000,1708A,116.3701,23.5345,揭阳市,新兴,细颗粒物(PM2.5),72,,44,52,33,22,,52,51,21,10,10,11,0.9,0.7
2024-02-25T2000,1709A,116.3264,23.5443,揭阳市,西马,细颗粒物(PM2.5),74,,37,54,26,28,,50,50,14,7,10,10,0.7,0.6
2024-02-25T2000,1710A,116.3611,23.5626,揭阳市,东兴,,46,42,46,32,29,17,,45,44,23,10,11,11,1.0,0.8
2024-02-25T2000,1711A,116.4151,23.5294,揭阳市,渔湖,,32,31,44,22,35,26,,52,51,14,11,9,11,0.7,0.6
2024-02-25T2000,3320A,116.403,23.5699,揭阳市,曲溪,颗粒物(PM10),56,61,49,30,35,16,,52,50,25,12,6,7,0.9,0.7
2024-02-25T2000,1944A,102.1692,38.5167,金昌市,天庆家园,"颗粒物(PM10),细颗粒物(PM2.5)",108,165,165,81,60,73,,73,73,24,18,6,10,0.9,0.8
2024-02-25T2000,3170A,102.1864,38.5253,金昌市,市委党校,细颗粒物(PM2.5),162,252,209,123,82,82,,75,75,,10,4,5,0.7,0.6
2024-02-25T2000,4022A,102.1647,38.5371,金昌市,金川区人防中心,细颗粒物(PM2.5),120,186,184,91,66,85,,82,82,17,13,11,13,0.3,0.3
2024-02-25T2000,1262A,119.647,29.077,金华市,十五中,细颗粒物(PM2.5),52,48,40,36,31,63,,55,55,20,20,3,4,0.6,0.7
2024-02-25T2000,1263A,119.686,29.1029,金华市,监测站,颗粒物(PM10),59,68,64,40,50,61,,56,56,18,22,3,3,0.5,0.6
2024-02-25T2000,3659A,119.656,29.1131,金华市,气象局,细颗粒物(PM2.5),52,51,53,36,39,60,,52,52,23,29,3,3,0.8,0.9
2024-02-25T2000,1767A,121.1115,41.0879,锦州市,南山,,42,42,99,12,80,84,,89,89,13,33,8,24,0.5,1.1
2024-02-25T2000,1768A,121.0533,40.8434,锦州市,开发区,,39,39,102,13,67,75,,83,82,18,41,10,36,0.5,0.9
2024-02-25T2000,1769A,121.1836,41.1119,锦州市,百股街道,,35,35,84,14,61,77,,90,88,11,22,9,25,0.4,0.8
2024-02-25T2000,1770A,121.1178,41.1222,锦州市,天安街道,,42,42,92,10,65,81,,82,82,9,28,8,19,0.5,1
2024-02-25T2000,1771A,121.1303,41.1386,锦州市,北湖公园,,34,34,72,15,60,78,,84,84,9,23,11,25,0.6,1
2024-02-25T2000,2160A,112.85,35.5051,晋城市,自来水公司,细颗粒物(PM2.5),117,118,93,88,87,116,,122,122,21,22,10,7,1.0,1
2024-02-25T2000,2161A,112.8318,35.4936,晋城市,白云商贸,细颗粒物(PM2.5),98,135,107,73,78,111,,118,118,28,24,10,6,0.9,1
2024-02-25T2000,2162A,112.8508,35.4887,晋城市,市环保局,细颗粒物(PM2.5),104,122,103,78,76,116,,119,119,25,23,10,6,1.0,1
2024-02-25T2000,2163A,112.8676,35.4897,晋城市,技术学院,细颗粒物(PM2.5),110,116,100,83,79,112,,116,116,23,25,10,7,0.9,1.3
2024-02-25T2000,3620A,112.8271,35.4828,晋城市,泽州一中,细颗粒物(PM2.5),89,106,91,66,67,110,,116,116,25,20,12,8,1.1,1.1
2024-02-25T2000,2171A,112.7532,37.6945,晋中市,锦纶小区,细颗粒物(PM2.5),107,139,177,80,135,87,,102,102,41,39,14,19,1.1,1.1
2024-02-25T2000,2173A,112.7249,37.7067,晋中市,南都小区,细颗粒物(PM2.5),143,179,207,109,155,81,,104,104,50,42,14,20,0.9,1
2024-02-25T2000,2174A,112.6991,37.6982,晋中市,榆次区政府,细颗粒物(PM2.5),118,171,195,89,144,67,,102,101,59,49,18,20,1.1,1.1
2024-02-25T2000,2865A,112.7195,37.6828,晋中市,榆次三中,细颗粒物(PM2.5),113,132,206,85,147,96,,106,106,35,42,15,21,1.0,1.2
2024-02-25T2000,2439A,112.2014,31.0481,荆门市,竹园小学,细颗粒物(PM2.5),107,88,82,80,69,56,,78,78,29,33,7,12,0.7,0.9
2024-02-25T2000,2440A,112.1969,30.9891,荆门市,掇刀,细颗粒物(PM2.5),108,88,79,81,64,61,,78,78,23,22,9,15,0.7,0.7
2024-02-25T2000,2441A,112.2213,31.0386,荆门市,石化一小,细颗粒物(PM2.5),95,88,84,71,62,62,,81,81,29,34,17,19,0.6,0.7
2024-02-25T2000,3012A,112.1849,31.0362,荆门市,西山林语,细颗粒物(PM2.5),100,78,76,75,63,59,,80,80,25,26,14,17,0.6,0.7
2024-02-25T2000,3547A,112.1632,31.0138,荆门市,龙泉中学南校,细颗粒物(PM2.5),107,87,73,80,64,58,,77,77,16,18,10,16,0.6,0.7
2024-02-25T2000,1844A,112.2494,30.3197,荆州市,市图书馆,细颗粒物(PM2.5),125,,61,95,66,21,,56,49,63,30,6,6,0.9,0.7
2024-02-25T2000,1845A,112.2008,30.3544,荆州市,市委党校,细颗粒物(PM2.5),114,,61,86,65,15,,61,52,73,23,5,5,,0.7
2024-02-25T2000,3194A,112.2747,30.3122,荆州市,管委会,细颗粒物(PM2.5),125,,59,95,66,16,,61,49,64,27,7,8,0.9,0.7
2024-02-25T2000,3548A,112.1655,30.3364,荆州市,学苑路,细颗粒物(PM2.5),104,,53,78,61,44,,62,60,42,20,6,6,1.0,0.7
2024-02-25T2000,2342A,117.3102,29.3867,景德镇市,王港中学,,39,,23,27,22,72,,86,85,3,4,4,3,0.4,0.4
2024-02-25T2000,2343A,117.2117,29.2933,景德镇市,老干部活动中心,,46,39,30,32,28,63,,70,69,8,7,3,3,0.3,0.4
2024-02-25T2000,2344A,117.1894,29.2789,景德镇市,兽医站,,50,50,39,29,24,68,,70,70,4,7,5,5,0.3,0.3
2024-02-25T2000,2345A,117.1547,29.2617,景德镇市,台达陶瓷,,45,32,28,31,24,68,,64,64,8,9,3,4,0.4,0.5
2024-02-25T2000,2346A,117.2461,29.2956,景德镇市,陶研所,,28,28,28,18,20,64,,68,68,7,7,5,4,0.3,0.3
2024-02-25T2000,1803A,115.9872,29.6815,九江市,十里,细颗粒物(PM2.5),58,59,60,41,53,71,,80,80,31,21,8,9,0.7,0.7
2024-02-25T2000,1804A,115.9584,29.7046,九江市,茅山头,细颗粒物(PM2.5),72,62,57,52,52,72,,76,76,24,23,12,11,0.7,0.8
2024-02-25T2000,1805A,115.9877,29.7295,九江市,西园,细颗粒物(PM2.5),69,51,58,50,52,65,,83,82,33,20,6,7,0.6,0.7
2024-02-25T2000,1806A,116.0172,29.6547,九江市,五七二七厂,细颗粒物(PM2.5),69,,67,50,57,77,,70,70,11,16,8,10,0.7,0.7
2024-02-25T2000,1808A,115.9114,29.6038,九江市,综合工业园,细颗粒物(PM2.5),79,67,64,58,62,23,,59,43,59,31,10,10,0.7,0.8
2024-02-25T2000,1809A,116.0721,29.7535,九江市,石化总厂,细颗粒物(PM2.5),62,58,62,44,50,104,,100,100,15,16,7,7,0.5,0.7
2024-02-25T2000,1810A,115.9773,29.5698,九江市,庐山气象台,,29,,19,20,20,90,,83,83,3,5,6,6,0.8,1
2024-02-25T2000,3190A,116.0254,29.6994,九江市,外国语学校,细颗粒物(PM2.5),73,60,64,53,56,83,,81,81,29,25,9,10,0.8,0.9
2024-02-25T2000,2658A,98.5061,39.7443,酒泉市,仓门街子站,颗粒物(PM10),155,259,286,74,85,71,,76,76,10,15,6,5,0.6,0.5
2024-02-25T2000,2659A,98.4989,39.7256,酒泉市,油田生活基地,颗粒物(PM10),141,232,290,71,86,68,,77,77,13,18,7,6,0.5,0.5
2024-02-25T2000,2698A,76.0072,39.4467,喀什地区,巡警大队,颗粒物(PM10),362,469,552,106,128,71,,67,67,14,32,2,4,0.7,1.4
2024-02-25T2000,2699A,75.9755,39.4694,喀什地区,吾办,颗粒物(PM10),353,462,542,133,152,72,,65,65,15,34,2,2,0.7,1.5
2024-02-25T2000,4027A,75.9483,39.4689,喀什地区,老干局,颗粒物(PM10),399,499,574,84,106,82,,71,71,9,28,5,5,0.4,1.5
2024-02-25T2000,1826A,114.2885,34.7965,开封市,世纪星幼儿园,细颗粒物(PM2.5),192,,144,144,130,85,,102,102,35,27,4,7,0.9,0.8
2024-02-25T2000,3147A,114.3438,34.8106,开封市,龙亭公园,细颗粒物(PM2.5),173,,146,131,143,86,,95,95,24,26,4,7,0.3,0.4
2024-02-25T2000,3210A,114.3644,34.7964,开封市,汴京公园,细颗粒物(PM2.5),158,146,155,120,133,70,,93,93,39,31,4,6,0.8,0.6
2024-02-25T2000,3473A,114.2485,34.8306,开封市,技师学院,细颗粒物(PM2.5),193,,151,145,142,102,,101,101,16,24,5,6,0.8,0.7
2024-02-25T2000,3592A,114.4644,34.7556,开封市,祥符区生态环境局,细颗粒物(PM2.5),125,102,128,95,116,56,,48,,53,41,4,6,0.6,0.4
2024-02-25T2000,1951A,84.895,45.6094,克拉玛依市,长征新村,颗粒物(PM10),52,54,77,25,42,85,,88,88,17,19,10,11,0.4,0.4
2024-02-25T2000,1952A,84.8988,45.5893,克拉玛依市,南林小区,颗粒物(PM10),53,55,69,34,42,88,,89,89,16,19,4,4,0.2,0.3
2024-02-25T2000,1954A,84.905,44.3396,克拉玛依市,独山子区,颗粒物(PM10),58,65,97,32,40,99,,97,97,16,17,5,6,0.5,0.5
2024-02-25T2000,1955A,85.6979,46.098,克拉玛依市,乌尔禾区商贸楼,,,54,56,10,31,96,,99,98,11,20,6,5,,0.7
2024-02-25T2000,3612A,85.1045,45.6899,克拉玛依市,白碱滩区新站,颗粒物(PM10),59,67,71,28,36,90,,91,91,18,17,10,10,0.4,0.5
2024-02-25T2000,2697A,76.1454,39.7142,克孜勒苏柯尔克孜自治州,市人民政府,颗粒物(PM10),349,459,515,135,138,75,,72,72,8,10,4,6,0.4,0.6
2024-02-25T2000,3665A,76.1658,39.7157,克孜勒苏柯尔克孜自治州,克州文化中心,颗粒物(PM10),389,491,558,127,138,,,60,60,11,14,5,5,0.5,0.6
2024-02-25T2000,1450A,102.8204,24.8886,昆明市,呈贡新区,,43,43,46,19,35,92,,103,99,8,11,4,6,0.5,0.6
2024-02-25T2000,1451A,102.6251,24.9608,昆明市,西山森林公园,,35,35,42,17,29,105,,112,107,5,6,7,9,0.8,0.9
2024-02-25T2000,1452A,102.7252,25.0902,昆明市,龙泉镇,,45,45,74,19,41,94,,104,101,10,36,9,12,0.4,0.6
2024-02-25T2000,1453A,102.7266,25.0375,昆明市,东风东路,,38,37,53,26,40,88,,99,96,13,15,7,9,0.5,0.6
2024-02-25T2000,1454A,102.6742,25.0669,昆明市,金鼎山,,44,44,68,21,46,93,,100,98,11,21,6,15,0.4,0.5
2024-02-25T2000,1455A,102.6644,25.0401,昆明市,碧鸡广场,,38,37,55,26,43,92,,103,100,12,19,10,11,0.7,0.7
2024-02-25T2000,3179A,102.7494,25.0119,昆明市,官渡区博物馆,,41,41,53,22,35,79,,99,94,19,14,8,10,0.5,0.6
2024-02-25T2000,3375A,102.8017,24.8336,昆明市,青年创业园,,34,34,43,20,32,99,,108,105,4,10,10,9,0.3,0.4
2024-02-25T2000,3550A,102.7997,24.9786,昆明市,昆明学院,,34,34,56,19,40,87,,96,93,5,9,8,10,0.5,0.6
2024-02-25T2000,3551A,102.5967,24.6736,昆明市,晋宁区生态环境分局,颗粒物(PM10),63,75,60,19,33,95,,102,99,6,7,3,4,0.3,0.5
2024-02-25T2000,3552A,102.6678,24.9856,昆明市,云天化总部,,32,32,46,21,34,95,,106,102,6,9,9,10,0.5,0.6
2024-02-25T2000,1456A,91.1319,29.6514,拉萨市,八廓街,,35,22,28,8,10,111,,116,116,12,9,7,6,0.3,0.3
2024-02-25T2000,1457A,91.1221,29.6747,拉萨市,市环保局,,39,39,32,12,11,100,,109,109,10,8,6,6,0.7,0.5
2024-02-25T2000,1458A,91.0874,29.6475,拉萨市,区监测站,,35,24,29,5,10,110,,114,114,6,3,4,4,0.5,0.5
2024-02-25T2000,1459A,91.1774,29.6541,拉萨市,西藏大学,,35,32,30,6,9,110,,113,113,7,4,4,4,0.6,0.5
2024-02-25T2000,1460A,90.9798,29.6588,拉萨市,区辐射站,,33,29,46,11,14,103,,111,111,12,4,5,5,0.4,0.4
2024-02-25T2000,1461A,91.0834,29.6292,拉萨市,拉萨火车站,,36,21,30,12,10,114,,117,117,4,3,3,3,0.4,0.5
2024-02-25T2000,2520A,109.2203,23.7256,来宾市,来宾技工学校,,28,28,16,18,12,33,,40,36,12,8,5,5,0.9,0.8
2024-02-25T2000,3535A,109.1781,23.7297,来宾市,兴宾区政府,,35,35,15,20,10,37,,42,41,12,8,3,3,0.7,0.6
2024-02-25T2000,4002A,109.2416,23.7461,来宾市,中南小学,,31,31,18,20,11,31,,41,36,15,9,3,4,0.8,0.7
2024-02-25T2000,1476A,103.631,36.1031,兰州市,兰炼宾馆,颗粒物(PM10),125,199,297,91,164,26,,39,38,46,48,9,20,0.9,1
2024-02-25T2000,1478A,103.8412,36.0726,兰州市,生物制品所,颗粒物(PM10),126,201,241,94,104,25,,46,45,48,47,8,11,0.8,0.8
2024-02-25T2000,1479A,103.831,36.0464,兰州市,铁路设计院,细颗粒物(PM2.5),128,185,270,97,146,32,,37,37,43,54,10,17,0.8,1
2024-02-25T2000,3186A,103.7158,36.1058,兰州市,教育港,颗粒物(PM10),127,203,234,91,102,15,,41,36,63,45,7,8,1.0,0.9
2024-02-25T2000,3241A,103.7439,36.0842,兰州市,百合公园,颗粒物(PM10),112,173,255,83,131,36,,36,36,31,45,9,11,0.7,1.3
2024-02-25T2000,3242A,103.9611,35.998,兰州市,和平,细颗粒物(PM2.5),139,220,251,106,121,24,,48,46,52,36,10,12,1.1,1.2
2024-02-25T2000,3245A,103.6633,36.533,兰州新区,新区管委会,颗粒物(PM10),75,100,199,52,89,75,,73,73,11,19,10,14,0.5,1
2024-02-25T2000,3246A,103.6975,36.4789,兰州新区,舟曲中学,颗粒物(PM10),99,147,240,56,92,72,,74,74,15,24,14,30,0.7,1
2024-02-25T2000,1067A,116.6708,39.5111,廊坊市,药材公司,颗粒物(PM10),68,85,79,34,43,42,,76,71,37,21,1,3,0.5,0.4
2024-02-25T2000,1068A,116.7214,39.5589,廊坊市,开发区,颗粒物(PM10),58,65,69,27,45,41,,58,58,39,27,2,3,0.4,0.4
2024-02-25T2000,1070A,116.7244,39.5269,廊坊市,北华航天学院,颗粒物(PM10),65,79,70,20,34,36,,75,70,43,22,3,4,0.5,0.4
2024-02-25T2000,2919A,116.7022,39.5453,廊坊市,河北工业大学,颗粒物(PM10),63,75,69,33,45,53,,79,76,30,21,3,4,0.4,0.4
2024-02-25T2000,2535A,103.7723,29.5462,乐山市,花湖湾,细颗粒物(PM2.5),64,62,74,46,52,63,,70,70,13,13,7,5,0.5,0.6
2024-02-25T2000,2536A,103.7627,29.5844,乐山市,牛耳桥,细颗粒物(PM2.5),67,63,60,48,46,53,,64,64,27,20,7,5,0.7,0.6
2024-02-25T2000,2537A,103.7508,29.6006,乐山市,市第三水厂,细颗粒物(PM2.5),59,64,57,42,42,60,,71,71,24,21,5,4,0.7,0.8
2024-02-25T2000,2538A,103.7571,29.5664,乐山市,市监测站,细颗粒物(PM2.5),69,64,64,50,52,59,,66,66,18,18,7,6,0.6,0.7
2024-02-25T2000,3361A,103.7311,29.5628,乐山市,理工大学,细颗粒物(PM2.5),64,59,63,46,52,59,,72,72,17,15,6,5,0.5,0.6
2024-02-25T2000,2599A,100.2497,26.8802,丽江市,丽江古城,,31,28,29,16,20,98,,95,95,14,17,6,6,0.5,0.6
2024-02-25T2000,2600A,100.2203,26.8906,丽江市,市中心,,30,21,18,16,10,95,,94,94,10,10,5,6,0.4,0.4
2024-02-25T2000,1267A,119.914,28.4514,丽水市,监测站大楼,,49,34,19,34,17,41,,39,39,16,13,3,3,0.5,0.5
2024-02-25T2000,1268A,119.93,28.4586,丽水市,莲都小学,细颗粒物(PM2.5),55,43,22,39,18,45,,42,42,13,10,3,3,0.6,0.6
2024-02-25T2000,1269A,119.879,28.4231,丽水市,余庄前,细颗粒物(PM2.5),52,39,20,36,18,42,,40,40,14,9,3,3,0.5,0.5
2024-02-25T2000,1173A,119.176,34.5885,连云港市,市环境监测站,细颗粒物(PM2.5),104,92,91,78,82,119,,104,104,,34,11,10,1.4,1.1
2024-02-25T2000,3000A,119.3581,34.6972,连云港市,德源药业,细颗粒物(PM2.5),92,114,100,68,82,32,,99,91,78,41,11,8,1.1,0.8
2024-02-25T2000,3007A,119.178,34.844,连云港市,新城一中,细颗粒物(PM2.5),87,85,100,64,93,65,,109,104,66,32,15,14,1.2,1
2024-02-25T2000,3008A,119.3608,34.7519,连云港市,胡沟管理处,细颗粒物(PM2.5),85,92,94,63,74,87,,101,101,40,26,20,14,1.3,1.2
2024-02-25T2000,3009A,119.1478,34.5911,连云港市,矿山设计院,细颗粒物(PM2.5),98,110,98,73,74,40,,99,91,68,33,18,9,1.0,0.7
2024-02-25T2000,3434A,119.2413,34.6539,连云港市,工贸学校,细颗粒物(PM2.5),99,99,109,74,86,90,,113,112,30,30,25,13,1.0,0.8
2024-02-25T2000,3664A,119.4172,34.7341,连云港市,连云街道,细颗粒物(PM2.5),93,94,97,69,77,96,,96,96,24,30,16,14,1.0,1
2024-02-25T2000,2571A,102.3431,27.8099,凉山彝族自治州,青龙寺,,33,28,21,6,5,105,,102,102,2,3,4,4,0.7,0.7
2024-02-25T2000,2572A,102.2721,27.8415,凉山彝族自治州,邛海宾馆,,31,28,20,17,10,99,,100,100,4,6,8,9,0.5,0.6
2024-02-25T2000,2573A,102.2625,27.898,凉山彝族自治州,西昌市政府,,32,29,17,17,13,100,,103,103,7,5,11,9,1.0,0.7
2024-02-25T2000,2574A,102.2685,27.8851,凉山彝族自治州,凉山州政府,,29,28,19,16,13,91,,93,93,6,6,8,7,0.7,0.5
2024-02-25T2000,2575A,102.237,27.8914,凉山彝族自治州,长安,,33,33,22,13,11,98,,99,99,4,6,8,10,0.6,0.5
2024-02-25T2000,2212A,123.2,41.1953,辽阳市,宏伟区,细颗粒物(PM2.5),63,,122,45,107,77,,81,81,16,31,13,19,0.8,1.3
2024-02-25T2000,2213A,123.1683,41.2495,辽阳市,新华园,细颗粒物(PM2.5),63,45,124,45,120,78,,80,80,18,37,15,23,0.6,1.2
2024-02-25T2000,2214A,123.2354,41.2639,辽阳市,滨河路,细颗粒物(PM2.5),64,,101,46,107,65,,80,79,23,32,8,15,0.8,1.2
2024-02-25T2000,2215A,123.149,41.2991,辽阳市,铁西工业园,细颗粒物(PM2.5),55,50,100,39,93,76,,85,84,23,38,13,15,0.7,1.2
2024-02-25T2000,2227A,125.1358,42.8845,辽源市,环保局,细颗粒物(PM2.5),67,63,142,48,126,92,,108,108,21,24,18,23,0.7,0.9
2024-02-25T2000,3239A,125.0764,42.9078,辽源市,银鹰制药,细颗粒物(PM2.5),65,53,107,47,95,84,,112,109,24,20,8,12,0.7,0.8
2024-02-25T2000,1625A,115.9848,36.4372,聊城市,区政府,细颗粒物(PM2.5),69,62,79,50,80,81,,99,99,30,28,6,11,0.7,0.8
2024-02-25T2000,2878A,116.0072,36.4343,聊城市,聊大东校,细颗粒物(PM2.5),70,85,106,51,83,87,,106,106,36,34,7,14,0.6,0.7
2024-02-25T2000,3200A,115.9819,36.4978,聊城市,监控中心,颗粒物(PM10),81,112,118,56,79,45,,103,98,71,47,9,14,1.0,0.8
2024-02-25T2000,3513A,116.0445,36.4361,聊城市,九州社区,颗粒物(PM10),95,139,134,59,86,57,,100,97,47,31,9,14,0.7,0.8
2024-02-25T2000,4018A,116.0567,36.4608,聊城市,星美广场,颗粒物(PM10),79,107,129,40,83,70,,103,102,41,27,3,11,0.7,0.7
2024-02-25T2000,2632A,94.3681,29.6376,林芝市,林芝监测站,,34,2,6,0,3,108,,110,110,3,2,5,5,0.3,0.3
2024-02-25T2000,2633A,94.3616,29.6616,林芝市,林芝人民医院,,33,10,13,6,5,104,,107,107,4,3,10,10,0.5,0.4
2024-02-25T2000,2603A,100.0781,23.8982,临沧市,市环保局,细颗粒物(PM2.5),80,,49,59,41,88,,97,97,12,11,7,7,0.5,0.5
2024-02-25T2000,2604A,100.0894,23.8822,临沧市,市气象局,,49,41,52,34,46,93,,97,97,8,11,5,6,0.3,0.4
2024-02-25T2000,1733A,111.5531,36.0783,临汾市,临钢医院,细颗粒物(PM2.5),77,80,119,56,86,82,,104,104,24,24,7,7,0.6,0.9
2024-02-25T2000,1734A,111.5028,36.0714,临汾市,技工学校,细颗粒物(PM2.5),89,109,133,66,105,90,,102,102,24,22,9,8,0.8,1.1
2024-02-25T2000,1736A,111.5018,36.0855,临汾市,市委,颗粒物(PM10),74,98,130,50,96,97,,111,111,22,23,8,9,0.7,1
2024-02-25T2000,3018A,111.505,36.1014,临汾市,唐尧大酒店,颗粒物(PM10),66,81,120,44,95,101,,110,110,16,26,8,10,0.7,1.1
2024-02-25T2000,3668A,111.5036,36.0414,临汾市,城南,细颗粒物(PM2.5),94,87,130,70,105,75,,112,112,30,26,8,8,0.7,1
2024-02-25T2000,2667A,103.2069,35.5993,临夏回族自治州,环保局,颗粒物(PM10),129,208,253,29,50,58,,64,64,18,24,5,8,1.0,1.2
2024-02-25T2000,2668A,103.2417,35.6057,临夏回族自治州,建设大厦,颗粒物(PM10),130,210,261,41,75,61,,63,63,13,21,15,16,0.8,1.1
2024-02-25T2000,1618A,118.3429,35.0532,临沂市,沂河小区,细颗粒物(PM2.5),84,95,120,62,106,58,,96,94,52,34,10,10,1.0,0.9
2024-02-25T2000,1619A,118.295,35.0583,临沂市,鲁南制药厂,,,95,128,60,109,67,,103,101,53,40,26,12,,0.9
2024-02-25T2000,1620A,118.2794,34.9976,临沂市,新光毛纺厂,细颗粒物(PM2.5),82,110,115,60,93,80,,102,102,47,35,26,10,1.1,1
2024-02-25T2000,1621A,118.3956,35.0888,临沂市,河东保险公司,细颗粒物(PM2.5),89,97,113,66,96,64,,100,98,51,30,11,10,0.8,0.7
2024-02-25T2000,3370A,118.3564,35.0215,临沂市,十里堡居委,细颗粒物(PM2.5),94,102,128,70,107,60,,103,100,58,39,15,10,1.0,0.8
2024-02-25T2000,3496A,118.3604,35.1084,临沂市,南坊新区,细颗粒物(PM2.5),77,80,113,56,96,78,,103,102,40,28,13,13,0.8,0.7
2024-02-25T2000,3860A,118.3920,35.0300,临沂市,皇山花园小区,细颗粒物(PM2.5),99,114,117,74,90,63,,105,102,52,28,14,12,1.0,0.9
2024-02-25T2000,1870A,109.4856,24.3895,柳州市,柳东小学,,30,25,14,21,11,45,,41,40,12,8,6,6,0.6,0.6
2024-02-25T2000,1871A,109.4157,24.3277,柳州市,环保监测站,,18,18,15,12,11,33,,45,38,12,8,6,6,0.6,0.5
2024-02-25T2000,1872A,109.389,24.341,柳州市,河西水厂,,27,27,16,13,10,26,,35,34,18,19,7,10,0.8,1
2024-02-25T2000,1873A,109.4311,24.2921,柳州市,市四中,,20,20,11,6,6,35,,47,38,12,7,6,5,1.1,1
2024-02-25T2000,1874A,109.4006,24.3631,柳州市,市九中,,31,31,16,17,12,30,,40,38,16,13,2,2,0.8,0.7
2024-02-25T2000,1875A,109.4958,24.3134,柳州市,古亭山,,18,,9,11,7,55,,42,42,8,6,5,5,0.5,0.5
2024-02-25T2000,3402A,109.5422,24.3996,柳州市,市二中,,22,15,11,15,8,52,,43,43,10,12,6,6,0.6,0.6
2024-02-25T2000,2307A,116.5079,31.737,六安市,监测大楼,细颗粒物(PM2.5),60,47,51,43,45,86,,112,107,25,19,4,4,0.6,0.6
2024-02-25T2000,2308A,116.4738,31.7643,六安市,皖西学院,细颗粒物(PM2.5),59,53,59,42,43,94,,114,112,21,14,3,3,0.5,0.5
2024-02-25T2000,2309A,116.4996,31.7905,六安市,朝阳厂,细颗粒物(PM2.5),60,48,52,43,46,95,,113,109,21,11,5,4,0.5,0.5
2024-02-25T2000,2310A,116.5567,31.7886,六安市,开发区,颗粒物(PM10),58,66,60,40,49,87,,112,107,28,15,4,4,0.5,0.5
2024-02-25T2000,2577A,104.83,26.5917,六盘水市,黄土坡,,45,41,32,31,23,21,,24,24,20,17,10,11,0.9,1
2024-02-25T2000,2578A,104.89,26.5939,六盘水市,水钢,,36,32,20,25,16,28,,30,30,14,11,3,4,0.8,0.7
2024-02-25T2000,2579A,104.8475,26.5894,六盘水市,民中,,45,34,25,31,18,21,,22,22,19,14,8,9,0.9,0.9
2024-02-25T2000,2580A,104.9544,26.5506,六盘水市,双水,,,24,15,24,13,19,,31,31,13,11,7,7,,0.7
2024-02-25T2000,2336A,117.0217,25.1033,龙岩市,龙岩市监测站,,25,,19,17,17,13,,17,9,9,8,5,3,0.6,0.6
2024-02-25T2000,2337A,117.0258,25.0661,龙岩市,闽西职业技术学院,,25,,28,17,28,7,,17,7,17,12,3,4,0.7,0.6
2024-02-25T2000,2338A,117.0196,25.0306,龙岩市,龙岩学院,,22,20,26,15,22,3,,15,6,20,12,5,5,0.7,0.6
2024-02-25T2000,2885A,104.9339,33.3826,陇南市,滨江中学,颗粒物(PM10),70,90,142,46,63,74,,79,79,9,13,4,14,0.6,0.8
2024-02-25T2000,3247A,104.955,33.371,陇南市,市总工会,颗粒物(PM10),69,88,131,43,61,71,,73,73,9,12,4,8,0.4,0.4
2024-02-25T2000,2487A,111.9589,27.8901,娄底市,电视发射台,,46,45,46,32,32,73,,81,80,5,5,4,4,1.0,1
2024-02-25T2000,2488A,111.9975,27.725,娄底市,市监测站,细颗粒物(PM2.5),64,53,45,46,40,71,,83,82,15,10,2,2,0.6,0.5
2024-02-25T2000,2489A,112.0194,27.7314,娄底市,市委党校,细颗粒物(PM2.5),57,55,44,40,39,69,,75,75,14,11,3,2,0.7,0.7
2024-02-25T2000,2490A,111.9561,27.7569,娄底市,涟钢,细颗粒物(PM2.5),65,57,45,47,41,57,,72,71,23,9,6,7,1.9,0.8
2024-02-25T2000,2491A,111.9892,27.7044,娄底市,市政府,细颗粒物(PM2.5),64,55,45,46,39,66,,76,76,20,13,4,4,0.8,0.7
2024-02-25T2000,1893A,105.4324,28.9634,泸州市,九狮山,,50,45,34,35,26,33,,45,45,18,14,5,5,0.4,0.3
2024-02-25T2000,1894A,105.4427,28.9063,泸州市,小市上码头,,46,46,38,28,25,27,,39,38,24,20,4,5,0.5,0.5
2024-02-25T2000,1895A,105.4241,28.8573,泸州市,兰田宪桥,细颗粒物(PM2.5),52,49,36,36,28,27,,43,42,25,15,3,4,0.6,0.5
2024-02-25T2000,1896A,105.4379,28.8833,泸州市,市环监站,,50,44,35,35,30,18,,33,32,29,18,4,4,0.6,0.5
2024-02-25T2000,3490A,105.3617,28.7703,泸州市,纳溪区环保局,,,58,40,34,26,33,,46,45,,19,5,6,0.7,0.5
2024-02-25T2000,2183A,111.1406,37.5211,吕梁市,环保局,细颗粒物(PM2.5),83,98,109,61,79,90,,93,93,27,35,5,5,0.6,0.5
2024-02-25T2000,2185A,111.1297,37.5136,吕梁市,自来水公司,细颗粒物(PM2.5),93,105,103,69,79,90,,93,93,24,29,8,9,0.6,0.5
2024-02-25T2000,2867A,111.1283,37.51,吕梁市,马茂庄小学,细颗粒物(PM2.5),97,125,103,72,72,79,,87,87,35,39,5,4,0.6,0.5
2024-02-25T2000,1812A,112.3931,34.6516,洛阳市,市委党校,细颗粒物(PM2.5),103,88,95,77,86,104,,108,108,29,25,6,7,1.0,0.9
2024-02-25T2000,1814A,112.4657,34.6871,洛阳市,豫西宾馆,细颗粒物(PM2.5),98,116,110,73,79,88,,108,108,34,27,10,10,0.7,0.7
2024-02-25T2000,1815A,112.494,34.6886,洛阳市,河南林校,细颗粒物(PM2.5),100,97,96,75,81,92,,110,110,27,27,10,7,0.7,0.7
2024-02-25T2000,1816A,112.3844,34.623,洛阳市,开发区管委会,细颗粒物(PM2.5),95,89,85,71,73,111,,115,115,23,21,9,6,0.8,0.8
2024-02-25T2000,1817A,112.4267,34.6258,洛阳市,市委新办公区,细颗粒物(PM2.5),103,93,88,77,84,91,,103,103,25,17,8,5,0.8,0.6
2024-02-25T2000,3340A,112.6005,34.6326,洛阳市,伊滨,细颗粒物(PM2.5),99,105,97,74,73,97,,105,105,22,18,8,5,0.8,0.8
2024-02-25T2000,3341A,112.4951,34.6332,洛阳市,中移产业园,细颗粒物(PM2.5),103,88,79,77,74,97,,113,113,34,22,10,7,0.9,0.7
2024-02-25T2000,3593A,112.5736,34.8993,洛阳市,吉利监测站,细颗粒物(PM2.5),98,101,91,73,80,90,,113,113,37,28,14,8,0.7,0.7
2024-02-25T2000,3635A,112.3677,34.662,洛阳市,河科大西苑校区,细颗粒物(PM2.5),95,92,99,71,82,108,,113,113,22,26,7,18,0.7,0.7
2024-02-25T2000,3636A,112.4388,34.6781,洛阳市,英才小学,细颗粒物(PM2.5),87,105,99,64,72,94,,110,110,35,30,8,8,0.8,0.9
2024-02-25T2000,2399A,114.051,33.5699,漯河市,三五一五工厂,细颗粒物(PM2.5),140,115,117,107,109,92,,117,113,32,22,7,9,0.8,0.6
2024-02-25T2000,2400A,114.0055,33.5698,漯河市,漯河大学,细颗粒物(PM2.5),144,,119,110,119,79,,109,109,45,22,8,9,0.7,0.4
2024-02-25T2000,2401A,114.0138,33.5828,漯河市,市水利局,细颗粒物(PM2.5),140,117,125,107,120,89,,114,113,29,18,9,11,0.9,0.7
2024-02-25T2000,2402A,114.0261,33.5698,漯河市,市广电局,细颗粒物(PM2.5),145,125,108,111,107,97,,115,115,45,28,4,5,,0.6
2024-02-25T2000,3478A,113.9749,33.5664,漯河市,市图书馆,细颗粒物(PM2.5),133,106,109,101,102,94,,120,119,31,15,9,9,0.7,0.6
2024-02-25T2000,3479A,114.0967,33.5906,漯河市,召陵区卫健委,细颗粒物(PM2.5),133,124,130,101,111,78,,114,111,42,21,8,10,0.7,0.6
2024-02-25T2000,1798A,118.5092,31.6837,马鞍山市,湖东路四小,细颗粒物(PM2.5),92,101,81,68,59,54,,92,88,57,23,9,13,0.9,1
2024-02-25T2000,1799A,118.5024,31.6449,马鞍山市,开发区,细颗粒物(PM2.5),108,88,70,81,65,82,,96,96,28,17,6,6,0.9,0.9
2024-02-25T2000,1800A,118.5228,31.7231,马鞍山市,慈湖,细颗粒物(PM2.5),97,,66,72,64,41,,86,,69,26,6,9,0.8,0.8
2024-02-25T2000,1802A,118.6245,31.7241,马鞍山市,濮塘,细颗粒物(PM2.5),74,78,71,54,51,78,,92,91,10,9,4,5,0.9,1
2024-02-25T2000,3633A,118.4918,31.6809,马鞍山市,雨山,细颗粒物(PM2.5),93,90,78,69,65,74,,92,92,34,20,8,14,0.7,1
2024-02-25T2000,1686A,111.0286,21.4688,茂名市,电白南海,,29,29,47,9,28,77,,68,68,13,15,7,13,0.7,0.8
2024-02-25T2000,1687A,110.9294,21.6533,茂名市,茂石化七小,,32,31,36,22,27,30,,52,52,16,14,13,18,0.9,1
2024-02-25T2000,1688A,110.9107,21.6687,茂名市,健康路,,32,27,31,22,26,25,,46,46,16,14,11,19,0.9,1
2024-02-25T2000,1689A,110.8592,21.6828,茂名市,高岭,,28,24,29,19,24,26,,41,41,11,11,10,21,0.7,0.7
2024-02-25T2000,3450A,111.01,21.5165,茂名市,电白水东,细颗粒物(PM2.5),52,48,39,36,29,39,,64,64,19,15,5,14,1.3,1.2
2024-02-25T2000,2539A,104.0308,30.0478,眉山市,黑龙滩水库,颗粒物(PM10),51,51,43,31,29,73,,78,78,5,4,2,3,0.3,0.3
2024-02-25T2000,2540A,103.8416,30.0874,眉山市,气象局,颗粒物(PM10),68,86,51,48,34,42,,66,64,37,20,7,5,0.6,0.5
2024-02-25T2000,3137A,103.8578,30.0744,眉山市,市委党校,细颗粒物(PM2.5),70,78,46,51,34,43,,64,62,35,17,7,6,0.6,0.6
2024-02-25T2000,3148A,103.8291,30.0564,眉山市,区人社局,细颗粒物(PM2.5),67,82,46,48,36,41,,64,61,42,21,8,7,0.7,0.6
2024-02-25T2000,1690A,116.1231,24.3284,梅州市,梅江月梅,,42,34,15,29,14,27,,37,36,13,7,10,10,0.7,0.6
2024-02-25T2000,1691A,116.0797,24.2719,梅州市,梅县新城,,49,,15,34,12,35,,39,39,9,7,5,6,0.7,0.6
2024-02-25T2000,1692A,116.1248,24.2654,梅州市,环境监控中心,,46,35,16,32,13,32,,37,37,12,9,5,5,0.8,0.7
2024-02-25T2000,3315A,116.1233,24.2991,梅州市,梅龙,,50,39,14,35,14,30,,38,38,8,4,6,6,0.7,0.6
2024-02-25T2000,1878A,104.7778,31.4741,绵阳市,富乐山,细颗粒物(PM2.5),59,56,58,42,42,59,,62,62,9,11,7,6,0.6,0.5
2024-02-25T2000,1879A,104.7563,31.4535,绵阳市,市人大,颗粒物(PM10),60,70,68,38,41,45,,57,57,26,17,4,5,0.6,0.6
2024-02-25T2000,1880A,104.6697,31.4668,绵阳市,高新区自来水公司,细颗粒物(PM2.5),57,62,78,40,53,55,,60,59,24,26,6,7,0.5,0.6
2024-02-25T2000,1881A,104.7287,31.5075,绵阳市,三水厂,细颗粒物(PM2.5),73,73,74,53,53,56,,56,56,16,27,4,5,0.7,0.7
2024-02-25T2000,3491A,104.69,31.5322,绵阳市,西科大附属小学,细颗粒物(PM2.5),58,61,77,41,53,59,,58,58,18,28,8,8,0.7,0.8
2024-02-25T2000,3492A,104.5648,31.5343,绵阳市,安州区旅游局,细颗粒物(PM2.5),84,86,90,62,58,49,,51,51,22,24,11,10,0.7,0.7
2024-02-25T2000,1784A,129.61,44.561,牡丹江市,环保大楼,,46,46,96,21,71,90,,82,82,15,27,8,22,0.4,0.6
2024-02-25T2000,1785A,129.6115,44.5782,牡丹江市,文化广场,细颗粒物(PM2.5),63,57,114,45,78,81,,75,75,20,32,13,30,0.4,0.7
2024-02-25T2000,1786A,129.5904,44.5963,牡丹江市,第一医院,细颗粒物(PM2.5),54,46,84,38,61,92,,80,80,8,25,10,21,0.4,0.7
2024-02-25T2000,1787A,129.6364,44.6075,牡丹江市,机车工厂,颗粒物(PM10),74,97,69,38,41,42,,80,76,42,24,16,16,0.6,0.5
2024-02-25T2000,1788A,129.6386,44.5462,牡丹江市,第一中学,细颗粒物(PM2.5),52,44,48,36,36,92,,85,85,10,19,8,14,0.4,0.6
2024-02-25T2000,2531A,105.0703,29.61,内江市,市监测站,,42,35,25,29,34,26,,42,40,19,15,7,7,0.7,0.7
2024-02-25T2000,2532A,105.0717,29.5947,内江市,东兴区政府,,34,34,31,21,21,21,,40,38,22,13,7,7,0.5,0.5
2024-02-25T2000,2533A,105.0653,29.5817,内江市,内江二中,,35,26,30,24,29,26,,46,44,21,15,3,3,0.7,0.6
2024-02-25T2000,2534A,105.0406,29.5822,内江市,内江日报社,,43,30,35,30,27,22,,40,39,23,25,2,2,0.7,0.6
2024-02-25T2000,2628A,92.0657,31.4846,那曲市,那曲监测站,,,16,37,9,13,,,100,100,5,6,5,6,,0.6
2024-02-25T2000,3128A,92.0506,31.4797,那曲市,那曲会议中心,,33,22,43,8,9,105,,105,105,2,4,6,6,0.5,0.5
2024-02-25T2000,1290A,115.8931,28.6843,南昌市,省外办,细颗粒物(PM2.5),85,73,61,63,54,60,,60,60,18,14,4,4,0.6,0.6
2024-02-25T2000,1291A,115.8886,28.7003,南昌市,省林业公司,细颗粒物(PM2.5),79,63,52,58,49,60,,61,61,16,12,8,7,0.9,0.9
2024-02-25T2000,1292A,115.8126,28.7442,南昌市,林科所,细颗粒物(PM2.5),70,53,43,51,42,66,,66,61,20,14,5,5,0.8,0.7
2024-02-25T2000,1294A,115.8518,28.687,南昌市,建工学校,颗粒物(PM10),61,72,54,42,40,58,,61,61,20,12,5,4,0.5,0.5
2024-02-25T2000,1295A,115.8921,28.6424,南昌市,象湖,细颗粒物(PM2.5),75,55,49,55,50,70,,65,65,15,13,4,4,0.6,0.6
2024-02-25T2000,1296A,115.7423,28.7996,南昌市,武术学校,细颗粒物(PM2.5),87,,34,64,47,58,,71,57,8,4,3,3,0.3,0.3
2024-02-25T2000,1298A,115.9314,28.6842,南昌市,省站,细颗粒物(PM2.5),83,68,54,61,52,65,,64,64,15,11,6,6,0.5,0.6
2024-02-25T2000,3046A,115.9084,28.6062,南昌市,机电学校,细颗粒物(PM2.5),77,64,56,56,51,69,,67,67,18,16,6,5,0.5,0.5
2024-02-25T2000,3690A,115.9721,28.7031,南昌市,外国语学校,细颗粒物(PM2.5),75,65,53,55,50,64,,62,62,15,13,6,6,0.8,0.7
2024-02-25T2000,1905A,106.056,30.8064,南充市,西山风景区,,33,25,31,23,33,48,,48,48,15,15,3,5,0.6,0.6
2024-02-25T2000,1906A,106.0789,30.8023,南充市,南充市委,,22,22,44,14,23,42,,50,50,23,20,5,6,0.4,0.5
2024-02-25T2000,1907A,106.1031,30.8217,南充市,南充炼油厂,,43,35,45,30,36,44,,51,51,21,18,5,6,0.2,0.2
2024-02-25T2000,1908A,106.1064,30.7856,南充市,高坪区监测站,,38,27,47,26,33,37,,46,45,26,21,4,6,0.4,0.4
2024-02-25T2000,1909A,106.0642,30.7636,南充市,嘉陵区环保局,,39,31,44,27,30,42,,46,46,18,20,5,5,0.6,0.6
2024-02-25T2000,1910A,106.1087,30.8388,南充市,市环境监测站,,42,39,45,29,34,49,,54,54,22,13,5,6,0.2,0.3
2024-02-25T2000,1151A,118.8086,32.1065,南京市,迈皋桥,细颗粒物(PM2.5),67,62,66,48,54,60,,80,78,26,13,3,4,0.6,0.6
2024-02-25T2000,1152A,118.7538,32.0551,南京市,草场门,,,,64,,,82,,,,27,21,3,21,1.0,1.1
2024-02-25T2000,1153A,118.7794,32.0745,南京市,山西路,细颗粒物(PM2.5),79,68,65,58,58,76,,90,89,30,17,3,4,0.8,0.9
2024-02-25T2000,1154A,118.7752,32.0023,南京市,中华门,细颗粒物(PM2.5),67,58,56,48,50,78,,94,93,34,18,7,7,0.8,0.7
2024-02-25T2000,1155A,118.8109,32.0309,南京市,瑞金路,细颗粒物(PM2.5),77,68,66,56,55,69,,89,88,38,17,3,4,0.0,0.5
2024-02-25T2000,1156A,118.7997,32.0754,南京市,玄武湖,细颗粒物(PM2.5),67,71,72,48,53,74,,88,87,23,13,8,9,0.3,0.4
2024-02-25T2000,1157A,118.6414,32.0931,南京市,浦口,细颗粒物(PM2.5),59,,74,42,52,89,,93,93,16,16,5,4,0.3,0.6
2024-02-25T2000,1158A,118.7356,31.9996,南京市,奥体中心,细颗粒物(PM2.5),67,71,66,48,52,84,,98,97,31,16,7,6,0.6,0.6
2024-02-25T2000,1159A,118.9125,32.1028,南京市,仙林大学城,细颗粒物(PM2.5),67,58,58,48,49,79,,98,97,29,18,5,5,0.8,0.7
2024-02-25T2000,3422A,118.8436,31.9198,南京市,江宁彩虹桥,细颗粒物(PM2.5),70,62,67,51,51,73,,99,97,38,17,4,3,0.5,0.6
2024-02-25T2000,3423A,119.0138,31.6494,南京市,溧水永阳,细颗粒物(PM2.5),109,85,57,82,60,63,,97,94,33,15,4,4,1.2,0.6
2024-02-25T2000,3424A,118.879,31.3302,南京市,高淳老职中,细颗粒物(PM2.5),102,92,67,76,62,79,,93,92,21,12,5,6,0.6,0.5
2024-02-25T2000,3427A,118.8554,32.3578,南京市,六合雄州,颗粒物(PM10),68,85,68,31,41,105,,104,104,23,12,8,5,0.7,0.4
2024-02-25T2000,1401A,108.3103,22.7881,南宁市,二十一中,,29,,16,20,14,35,,37,33,15,13,4,4,0.7,0.7
2024-02-25T2000,1402A,108.3141,22.8528,南宁市,北湖,,35,,14,24,14,37,,36,36,10,10,6,5,0.8,0.8
2024-02-25T2000,1403A,108.3206,22.8225,南宁市,市监测站,,29,,16,20,12,36,,38,33,17,14,6,6,0.9,0.8
2024-02-25T2000,1404A,108.3829,22.8037,南宁市,大自然花园,,20,17,12,14,9,35,,36,36,14,11,5,4,0.7,0.7
2024-02-25T2000,1405A,108.4394,22.7904,南宁市,仙葫,,17,17,9,8,4,40,,45,43,7,4,8,7,0.9,0.8
2024-02-25T2000,1406A,108.2397,22.8467,南宁市,区农职院,,21,21,16,13,6,34,,35,35,19,14,6,5,1.1,1
2024-02-25T2000,1407A,108.3275,22.735,南宁市,英华嘉园,,23,21,11,16,5,33,,34,32,18,13,6,5,1.0,0.8
2024-02-25T2000,1408A,108.2257,22.7757,南宁市,沙井镇街道办,,22,18,18,15,12,27,,31,28,20,13,7,8,0.7,0.7
2024-02-25T2000,3401A,108.4834,22.7618,南宁市,红星社区,,23,18,11,16,8,40,,44,42,8,7,7,8,0.6,0.6
2024-02-25T2000,2332A,118.1681,26.6369,南平市,南平市监测站,,10,9,7,7,5,21,,25,23,11,8,5,6,0.5,0.4
2024-02-25T2000,2333A,118.1825,26.6489,南平市,南平铝业有限公司,,14,14,11,5,8,32,,28,28,8,7,5,6,0.6,0.6
2024-02-25T2000,2334A,118.1756,26.6272,南平市,南平七中,,16,12,8,11,7,22,,29,26,11,9,4,4,0.7,0.6
2024-02-25T2000,1168A,120.9098,31.9663,南通市,狼山街道,细颗粒物(PM2.5),133,109,73,101,70,97,,102,102,19,14,9,9,0.8,0.7
2024-02-25T2000,1169A,120.86,32.0005,南通市,虹桥,细颗粒物(PM2.5),139,117,79,106,71,89,,96,96,23,15,6,4,0.8,0.6
2024-02-25T2000,1170A,120.87,32.02,南通市,城中,细颗粒物(PM2.5),122,120,78,92,62,90,,97,97,26,17,6,5,0.6,0.4
2024-02-25T2000,1171A,120.94,31.93,南通市,星湖花园,细颗粒物(PM2.5),109,108,75,82,58,90,,96,96,21,21,7,6,0.8,0.6
2024-02-25T2000,1172A,120.81,32.0417,南通市,紫琅学院,细颗粒物(PM2.5),123,112,71,93,61,90,,100,100,23,16,9,8,0.8,0.6
2024-02-25T2000,3291A,121.067,32.062,南通市,通州监测站,细颗粒物(PM2.5),125,114,81,95,71,99,,95,95,20,13,7,7,0.9,0.6
2024-02-25T2000,3432A,120.9348,31.9883,南通市,环境教育馆,细颗粒物(PM2.5),138,117,70,105,69,94,,100,100,24,18,8,7,0.9,0.7
2024-02-25T2000,2404A,112.5224,33.0122,南阳市,瓦房庄,细颗粒物(PM2.5),104,,82,78,86,96,,100,100,22,22,6,8,0.6,0.5
2024-02-25T2000,2405A,112.5003,32.9735,南阳市,汉画馆,细颗粒物(PM2.5),93,81,93,69,87,89,,101,101,20,26,7,8,0.8,0.7
2024-02-25T2000,2406A,112.5573,33.027,南阳市,气象站,细颗粒物(PM2.5),83,72,88,61,86,99,,103,103,23,24,6,7,0.4,0.5
2024-02-25T2000,2407A,112.5481,32.9689,南阳市,理工学院,细颗粒物(PM2.5),92,79,82,68,75,93,,102,102,29,27,8,10,0.8,0.8
2024-02-25T2000,4008A,112.5234,32.9922,南阳市,卧龙区政府,细颗粒物(PM2.5),83,79,91,61,82,76,,96,96,44,24,8,9,0.9,0.8
2024-02-25T2000,1234A,121.8358,29.911,宁波市,区环保大楼,细颗粒物(PM2.5),83,73,55,61,47,64,,76,69,26,15,6,6,0.8,0.7
2024-02-25T2000,1235A,121.56,29.82,宁波市,万里学院,细颗粒物(PM2.5),84,74,55,62,45,63,,74,71,26,16,6,6,0.8,0.7
2024-02-25T2000,1236A,121.713,29.9572,宁波市,龙赛医院,细颗粒物(PM2.5),68,80,57,49,35,61,,73,67,38,21,6,5,0.6,0.6
2024-02-25T2000,1239A,121.633,29.7733,宁波市,钱湖水厂,细颗粒物(PM2.5),77,69,51,56,45,70,,76,74,22,15,4,4,0.6,0.6
2024-02-25T2000,1240A,121.5856,29.8635,宁波市,太古小学,细颗粒物(PM2.5),80,62,46,59,46,70,,74,72,23,16,6,6,0.8,0.8
2024-02-25T2000,1241A,121.524,29.8674,宁波市,市环境监测中心,细颗粒物(PM2.5),64,73,58,46,34,68,,77,76,23,14,5,5,0.9,0.8
2024-02-25T2000,2871A,121.6147,29.9017,宁波市,万里国际学校,细颗粒物(PM2.5),89,99,47,66,48,45,,78,69,46,16,6,6,0.7,0.7
2024-02-25T2000,3710A,121.5594,29.8975,宁波市,白沙活动中心,颗粒物(PM10),58,65,50,38,28,67,,75,72,24,15,6,6,0.7,0.6
2024-02-25T2000,2341A,119.5388,26.6612,宁德市,宁德市监测站,,33,,22,23,21,34,,36,31,14,12,6,6,0.7,0.6
2024-02-25T2000,3209A,119.5231,26.6562,宁德市,宁德一中,,23,23,24,13,17,40,,40,34,13,13,5,5,0.6,0.5
2024-02-25T2000,2618A,98.8601,25.8567,怒江傈僳族自治州,州监测站,,,,32,,21,,,69,69,,12,,9,,0.4
2024-02-25T2000,2619A,98.8546,25.8417,怒江傈僳族自治州,泸水一中,颗粒物(PM10),53,56,34,33,25,33,,64,61,33,16,9,9,0.7,0.5
2024-02-25T2000,1888A,101.6891,26.571,攀枝花市,弄弄坪,颗粒物(PM10),60,70,50,32,27,78,,90,89,37,27,76,36,5.1,2.2
2024-02-25T2000,1889A,101.5769,26.5928,攀枝花市,河门口,,34,34,35,20,21,104,,100,100,7,14,6,9,0.6,0.8
2024-02-25T2000,1890A,101.7169,26.585,攀枝花市,炳草岗,,30,30,35,20,19,96,,100,100,14,21,22,18,1.1,0.9
2024-02-25T2000,1891A,101.7369,26.5008,攀枝花市,仁和,,40,40,31,24,20,105,,108,108,10,12,5,8,0.5,0.6
2024-02-25T2000,2835A,101.7227,26.567,攀枝花市,四十中小,,39,39,32,20,19,111,,108,108,9,17,2,14,0.6,1.1
2024-02-25T2000,1604A,122.0303,41.1489,盘锦市,开发区,细颗粒物(PM2.5),158,176,122,120,107,61,,91,83,36,37,15,15,0.8,1
2024-02-25T2000,1605A,122.0485,41.0883,盘锦市,兴隆台,细颗粒物(PM2.5),189,238,121,142,97,60,,89,83,43,37,21,18,1.1,1
2024-02-25T2000,1606A,121.8297,41.1028,盘锦市,新生街道,细颗粒物(PM2.5),123,102,78,93,64,44,,82,76,43,39,14,13,0.8,0.9
2024-02-25T2000,1832A,113.3257,33.742,平顶山市,新华旅馆,细颗粒物(PM2.5),142,137,114,108,90,99,,113,113,24,20,9,10,0.8,0.7
2024-02-25T2000,1833A,113.2919,33.737,平顶山市,规划设计院,细颗粒物(PM2.5),153,133,116,117,103,105,,108,108,18,26,5,7,0.9,0.7
2024-02-25T2000,1834A,113.182,33.774,平顶山市,平顶山工学院,细颗粒物(PM2.5),138,131,92,105,78,109,,117,117,22,12,7,7,0.8,0.6
2024-02-25T2000,3204A,113.3025,33.73,平顶山市,规划局,细颗粒物(PM2.5),148,139,114,113,98,105,,55,,14,20,8,9,1.0,0.8
2024-02-25T2000,3594A,112.8867,33.9116,平顶山市,石龙区,细颗粒物(PM2.5),129,107,68,98,60,112,,119,119,19,15,11,7,1.5,0.9
2024-02-25T2000,2656A,106.6692,35.5461,平凉市,聚贤嘉苑,颗粒物(PM10),85,120,154,56,67,88,,92,92,19,26,7,7,0.6,0.7
2024-02-25T2000,2657A,106.7021,35.5307,平凉市,博物馆,细颗粒物(PM2.5),87,110,141,64,73,89,,94,94,26,31,7,8,0.8,0.8
2024-02-25T2000,2347A,114.0997,27.5002,萍乡市,武功山,,37,37,25,5,14,39,,53,47,4,6,14,14,1.0,0.5
2024-02-25T2000,2348A,113.8385,27.6434,萍乡市,中医院,,,86,70,64,54,22,,50,28,,15,5,7,,0.9
2024-02-25T2000,2349A,113.8493,27.6253,萍乡市,市政府车库,细颗粒物(PM2.5),134,114,66,102,59,29,,54,40,24,13,2,2,0.9,0.7
2024-02-25T2000,2350A,113.8676,27.6435,萍乡市,市环保局,细颗粒物(PM2.5),104,91,67,78,57,33,,50,35,13,12,8,9,1.0,0.9
2024-02-25T2000,2351A,113.866,27.6198,萍乡市,安源区政府,细颗粒物(PM2.5),100,100,61,75,53,21,,52,39,30,13,1,2,1.0,0.7
2024-02-25T2000,2319A,119.0141,25.4325,莆田市,荔城区仓后路,,33,28,40,23,33,36,,37,35,14,14,5,5,0.8,0.8
2024-02-25T2000,2320A,119.0015,25.4553,莆田市,莆田市监测站,,29,,42,20,38,36,,36,36,16,17,6,6,0.8,0.7
2024-02-25T2000,2321A,119.1119,25.4561,莆田市,涵江区六中,,25,25,39,17,34,39,,40,38,12,13,5,6,0.6,0.6
2024-02-25T2000,2322A,119.1013,25.3215,莆田市,秀屿区政府,,30,30,29,18,21,47,,47,42,14,16,6,6,0.9,0.8
2024-02-25T2000,2392A,115.0312,35.7636,濮阳市,环保局,细颗粒物(PM2.5),97,88,268,72,201,69,,103,102,41,34,10,18,1.1,1
2024-02-25T2000,2394A,115.0574,35.7609,濮阳市,油田运输公司,颗粒物(PM10),97,144,244,69,204,62,,114,112,50,32,17,22,0.9,0.7
2024-02-25T2000,2395A,115.0866,35.7754,濮阳市,油田物探公司,细颗粒物(PM2.5),100,126,247,75,207,67,,111,109,44,34,9,16,0.6,0.6
2024-02-25T2000,3021A,115,35.7668,濮阳市,濮水河管理处,细颗粒物(PM2.5),84,73,234,62,182,60,,108,106,48,30,9,13,0.7,0.7
2024-02-25T2000,2601A,100.98,22.7633,普洱市,市环保局,细颗粒物(PM2.5),53,50,59,37,41,92,,112,109,15,12,5,6,0.5,0.5
2024-02-25T2000,2602A,100.9817,22.8322,普洱市,普洱第二中学,颗粒物(PM10),51,52,54,34,36,77,,114,109,24,21,6,6,0.4,0.5
2024-02-25T2000,2262A,131.0518,45.8751,七台河市,新一中,细颗粒物(PM2.5),58,47,46,41,38,120,,118,118,14,11,11,11,0.7,0.6
2024-02-25T2000,3345A,131.0577,45.7879,七台河市,中波台,细颗粒物(PM2.5),89,82,116,66,94,66,,87,83,56,36,12,14,0.9,0.8
2024-02-25T2000,3637A,131.0176,45.7761,七台河市,人民广场,细颗粒物(PM2.5),93,84,147,69,92,52,,87,83,68,41,16,22,1.0,1
2024-02-25T2000,3684A,130.8781,45.8222,七台河市,新建矿广场,细颗粒物(PM2.5),82,85,63,60,50,82,,105,105,38,39,13,11,0.9,0.8
2024-02-25T2000,1779A,123.9305,47.3636,齐齐哈尔市,安居小区,,31,31,100,15,100,76,,82,81,7,18,8,13,0.4,0.5
2024-02-25T2000,1780A,123.9488,47.3386,齐齐哈尔市,中心广场,,33,33,131,14,96,75,,79,79,7,21,5,14,0.2,0.4
2024-02-25T2000,1781A,123.9483,47.3227,齐齐哈尔市,农牧车辆厂,,28,27,87,19,79,74,,80,79,6,20,7,12,0.3,0.5
2024-02-25T2000,1783A,123.945,47.2988,齐齐哈尔市,市环境监测站,,36,36,109,10,95,78,,83,83,7,25,5,9,0.3,0.5
2024-02-25T2000,3662A,123.6333,47.2075,齐齐哈尔市,富区青少年活动中心,颗粒物(PM10),56,61,91,18,73,64,,80,75,17,17,7,13,0.6,0.8
2024-02-25T2000,2591A,107.9783,26.5747,黔东南苗族侗族自治州,市环境监测站,,22,18,15,15,14,50,,61,53,17,10,12,8,0.6,0.5
2024-02-25T2000,2881A,107.8908,26.5311,黔东南苗族侗族自治州,凯里学院,,20,10,11,8,8,63,,63,62,7,6,8,8,0.5,0.5
2024-02-25T2000,2593A,107.5228,26.2403,黔南布依族苗族自治州,小围寨,,17,,5,7,3,54,,50,50,6,6,5,4,0.5,0.6
2024-02-25T2000,3538A,107.5175,26.2978,黔南布依族苗族自治州,沙坝,,18,9,5,9,4,55,,54,54,3,3,3,4,0.5,0.5
2024-02-25T2000,2589A,104.9022,25.0925,黔西南布依族苗族自治州,场坝街,,33,,21,23,15,33,,32,32,8,9,2,2,0.5,0.5
2024-02-25T2000,2590A,104.8811,25.0992,黔西南布依族苗族自治州,坪东大道,,33,27,25,23,18,30,,29,29,10,10,1,2,0.5,0.5
2024-02-25T2000,2502A,108.6236,21.9667,钦州市,市环保站,,34,34,18,17,9,33,,40,39,18,12,7,9,1.1,1.3
2024-02-25T2000,2503A,108.6549,21.9481,钦州市,沙埠小学,,50,,21,35,10,34,,43,41,15,10,5,5,0.8,0.9
2024-02-25T2000,2504A,108.5989,21.7431,钦州市,港区一小,,33,30,28,23,14,28,,34,33,18,16,6,9,0.8,0.9
2024-02-25T2000,3404A,108.5959,21.9633,钦州市,北职校,,32,30,15,22,12,35,,42,41,12,7,8,7,1.2,0.7
2024-02-25T2000,1042A,119.5134,39.8207,秦皇岛市,北戴河环保局,,42,30,63,29,44,80,,88,88,21,33,9,12,0.4,0.8
2024-02-25T2000,1043A,119.7493,40.0116,秦皇岛市,第一关,细颗粒物(PM2.5),82,86,79,60,53,7,,80,72,90,44,15,15,0.8,0.6
2024-02-25T2000,1044A,119.5897,39.9499,秦皇岛市,监测站,颗粒物(PM10),81,111,87,55,60,56,,76,76,38,37,12,15,0.5,0.6
2024-02-25T2000,1046A,119.5251,39.9041,秦皇岛市,建设大厦,细颗粒物(PM2.5),60,47,68,43,47,78,,84,84,17,32,6,9,0.3,0.6
2024-02-25T2000,3132A,119.610547,39.943889,秦皇岛市,文明里,颗粒物(PM10),58,66,94,34,52,72,,80,80,30,37,10,13,0.5,0.6
2024-02-25T2000,1307A,120.6659,36.2403,青岛市,仰口,细颗粒物(PM2.5),73,75,77,53,59,88,,100,100,21,19,8,8,0.5,0.4
2024-02-25T2000,1310A,120.4134,36.0658,青岛市,市南区东部子站,细颗粒物(PM2.5),107,117,103,80,77,71,,91,89,39,26,12,13,1.1,1
2024-02-25T2000,1311A,120.3664,36.1032,青岛市,四方区子站,细颗粒物(PM2.5),107,102,100,80,85,73,,94,92,45,33,9,10,1.1,1
2024-02-25T2000,1312A,120.2994,36.054,青岛市,市南区西部子站,细颗粒物(PM2.5),83,90,91,61,68,76,,94,93,37,28,11,12,1.0,1
2024-02-25T2000,1313A,120.4581,36.0858,青岛市,崂山区子站,细颗粒物(PM2.5),100,110,97,75,72,61,,94,92,44,25,12,11,1.1,1
2024-02-25T2000,1314A,120.1983,35.9608,青岛市,黄岛区子站,细颗粒物(PM2.5),95,105,98,71,76,34,,91,78,90,39,12,14,1.2,1.1
2024-02-25T2000,1315A,120.3999,36.3083,青岛市,城阳区子站,颗粒物(PM10),76,102,107,54,63,62,,90,87,45,33,16,13,1.1,1.1
2024-02-25T2000,1966A,120.0405,35.8735,青岛市,黄岛区4号,细颗粒物(PM2.5),85,97,95,63,66,86,,108,107,33,24,11,14,1.1,1.1
2024-02-25T2000,3362A,120.5014,36.4034,青岛市,即墨2号,细颗粒物(PM2.5),74,80,98,54,75,74,,88,86,30,32,9,11,0.8,1
2024-02-25T2000,3642A,120.3503,36.0736,青岛市,市北区南部,细颗粒物(PM2.5),100,99,110,75,78,67,,89,87,49,37,13,15,0.9,0.9
2024-02-25T2000,3643A,120.3948,36.1805,青岛市,李沧区北部,细颗粒物(PM2.5),110,110,103,83,88,50,,98,91,66,34,14,13,1.2,1.1
2024-02-25T2000,1702A,113.0426,23.691,清远市,环保大楼,,26,,7,18,5,29,,35,35,8,4,3,3,1.2,1
2024-02-25T2000,1703A,113.0208,23.7106,清远市,凤城街办,,13,13,7,8,6,30,,35,34,11,8,4,8,0.6,0.6
2024-02-25T2000,3025A,113.0477,23.6344,清远市,技师学院,,19,19,11,12,7,31,,36,36,9,5,5,4,0.7,0.6
2024-02-25T2000,3318A,112.9903,23.7403,清远市,清新太和,,20,19,8,14,6,26,,35,35,15,7,6,5,0.6,0.6
2024-02-25T2000,3455A,113.076,23.7198,清远市,清城东城,,22,18,8,15,6,33,,36,36,13,9,8,8,0.7,0.6
2024-02-25T2000,2661A,107.6325,35.7357,庆阳市,庆阳五中,细颗粒物(PM2.5),77,76,110,56,79,88,,92,92,17,19,8,16,0.7,0.8
2024-02-25T2000,2662A,107.6364,35.7067,庆阳市,市环保局,细颗粒物(PM2.5),70,77,101,51,66,92,,101,100,17,12,5,7,0.7,0.7
2024-02-25T2000,1916A,103.7897,25.5035,曲靖市,环境监测站,颗粒物(PM10),52,54,46,20,28,94,,111,109,7,10,1,5,0.6,0.7
2024-02-25T2000,1917A,103.8,25.5364,曲靖市,烟厂办公区,,44,44,49,21,28,94,,108,106,10,11,4,5,0.4,0.6
2024-02-25T2000,3376A,103.7947,25.462,曲靖市,南苑二区,,33,33,49,17,31,89,,102,101,8,11,3,9,0.5,0.6
2024-02-25T2000,3377A,103.7444,25.5261,曲靖市,曲靖师范学院,,46,46,51,23,37,87,,105,102,11,16,6,16,0.5,0.6
2024-02-25T2000,1264A,118.8692,28.9398,衢州市,环保大楼,,48,36,22,33,22,28,,44,36,19,12,5,5,0.8,0.8
2024-02-25T2000,1265A,118.8709,28.9666,衢州市,实验学校,,42,37,22,29,19,27,,46,38,24,12,3,3,0.5,0.5
2024-02-25T2000,1266A,118.8621,28.9808,衢州市,衢州学院,,46,36,22,32,20,19,,44,34,26,13,5,5,0.6,0.6
2024-02-25T2000,1611A,118.5819,24.9117,泉州市,涂山街,,35,32,40,24,37,37,,41,40,18,17,4,4,0.8,0.7
