timepoint,stationcode,longitude,latitude,area,positionname,primarypollutant,aqi,pm10,pm10_24h,pm2_5,pm2_5_24h,o3,o3_24h,o3_8h,o3_8h_24h,no2,no2_24h,so2,so2_24h,co,co_24h
2025-11-28T1500,2566A,102.1879,31.914,阿坝藏族羌族自治州,州农科所,,,,,,,,,,,,,,,,
2025-11-28T1500,2568A,102.2502,31.8896,阿坝藏族羌族自治州,马师校,,21,,17,6,15,66,66,47,47,8,19,5,5,0.4,0.5
2025-11-28T1500,3994A,102.2165,31.9024,阿坝藏族羌族自治州,马尔康中学西区,,22,7,10,3,10,70,70,55,55,5,13,4,5,0.5,0.6
2025-11-28T1500,2695A,80.292,41.1694,阿克苏地区,电视台,,,,184,,80,61,61,36,32,27,50,8,11,,1.8
2025-11-28T1500,2696A,80.2613,41.1551,阿克苏地区,艺术中心,颗粒物(PM10),92,133,145,55,72,60,60,45,35,35,49,8,8,0.9,1.1
2025-11-28T1500,2204A,105.6467,38.8363,阿拉善盟,西城区西花园,,,,,,,,,,,,,,,,
2025-11-28T1500,2205A,105.6985,38.8411,阿拉善盟,蒙二幼,颗粒物(PM10),95,139,147,40,37,88,88,77,72,5,10,9,9,0.6,0.7
2025-11-28T1500,2206A,105.724,38.8516,阿拉善盟,环保局新楼,颗粒物(PM10),96,141,133,44,39,78,78,78,75,4,4,9,9,0.5,0.6
2025-11-28T1500,2708A,88.1264,47.8517,阿勒泰地区,市站,,24,24,26,6,15,40,40,33,27,14,36,6,4,0.5,0.5
2025-11-28T1500,2630A,80.1161,32.5,阿里地区,阿里监测站,,25,6,2,3,2,77,77,57,56,3,12,6,8,0.3,0.4
2025-11-28T1500,3192A,80.0903,32.5028,阿里地区,阿里藏医院,,27,,18,7,10,85,85,59,59,2,14,8,13,0.3,0.6
2025-11-28T1500,2642A,109.0318,32.6537,安康市,香溪洞,,,,,,,,,,,,,,,,
2025-11-28T1500,2644A,109.0072,32.6975,安康市,汉滨区检察院,颗粒物(PM10),82,114,125,45,39,73,73,33,33,20,24,6,5,0.4,0.4
2025-11-28T1500,4054A,109.0325,32.6913,安康市,市邮政管理局,颗粒物(PM10),76,102,142,39,43,73,73,31,31,21,34,5,5,0.6,0.7
2025-11-28T1500,2291A,117.0809,30.5177,安庆市,环科院,颗粒物(PM10),95,139,236,30,55,92,92,57,57,6,33,4,6,0.3,0.4
2025-11-28T1500,2292A,117.0331,30.5119,安庆市,马山宾馆,颗粒物(PM10),99,147,222,28,50,88,88,51,51,16,36,4,5,0.2,0.3
2025-11-28T1500,2294A,116.9896,30.6145,安庆市,安庆大学,颗粒物(PM10),110,170,236,40,56,87,87,51,51,11,33,8,7,0.4,0.5
2025-11-28T1500,3173A,117.0598,30.5351,安庆市,市人大,颗粒物(PM10),106,161,249,39,54,101,101,59,59,7,37,5,6,0.2,0.3
2025-11-28T1500,3122A,105.9606,26.2611,安顺市,伍家关,,,,83,28,43,121,121,81,81,8,29,10,61,0.3,0.6
2025-11-28T1500,3123A,105.9408,26.2431,安顺市,凤凰山,,34,34,77,14,54,108,108,68,68,11,49,8,64,0.4,1.1
2025-11-28T1500,3124A,105.9439,26.2564,安顺市,金钟山,,42,42,72,16,54,120,120,84,84,7,26,12,52,0.4,0.9
2025-11-28T1500,3125A,105.8983,26.2481,安顺市,娄家坡,,34,33,59,17,40,107,107,85,85,9,19,10,27,0.4,0.6
2025-11-28T1500,1818A,114.4839,36.0621,安阳市,棉研所,,,,,,,,,,,,,,,,
2025-11-28T1500,1819A,114.3551,36.1017,安阳市,红庙街,颗粒物(PM10),150,250,263,99,68,54,54,31,31,43,35,9,4,0.6,0.5
2025-11-28T1500,1820A,114.361,36.0681,安阳市,银杏小区,颗粒物(PM10),143,236,258,96,83,53,53,30,30,42,32,7,3,0.6,0.4
2025-11-28T1500,3141A,114.3922,36.0878,安阳市,信访局,细颗粒物(PM2.5),212,241,259,162,80,56,56,31,31,41,33,8,4,0.4,0.2
2025-11-28T1500,3669A,114.4705,36.0637,安阳市,左辅环卫站,颗粒物(PM10),149,248,282,86,75,64,64,37,37,38,29,10,4,0.9,0.6
2025-11-28T1500,3703A,114.2917,36.0949,安阳市,安钢职工学校,颗粒物(PM10),159,267,276,103,79,55,55,30,30,40,31,7,3,1.3,1.2
2025-11-28T1500,1748A,123.044,41.1196,鞍山市,深沟寺,,31,31,25,19,14,54,54,50,50,18,22,10,8,0.6,0.6
2025-11-28T1500,1749A,123.011,41.0931,鞍山市,太阳城,,29,29,25,16,14,61,61,54,54,14,16,10,9,0.6,0.7
2025-11-28T1500,1750A,123.0485,41.1442,鞍山市,太平,,37,37,32,20,16,56,56,52,52,20,23,8,9,0.7,0.8
2025-11-28T1500,1751A,122.9642,41.0971,鞍山市,铁西三道街,颗粒物(PM10),52,53,43,24,20,52,52,44,44,25,31,15,15,1.0,0.8
2025-11-28T1500,1753A,123.022,41.0821,鞍山市,明达新区,,32,32,25,19,15,64,64,57,57,16,21,11,10,0.5,0.7
2025-11-28T1500,1754A,123.1289,41.0228,鞍山市,千山,,,,14,,7,,,42,,,11,,2,,0.4
2025-11-28T1500,4201A,122.9446,41.0826,鞍山市,兴盛南路290号,,46,46,48,23,24,53,53,50,50,29,39,13,12,0.7,1
2025-11-28T1500,2195A,107.4212,40.761,巴彦淖尔市,附二中,颗粒物(PM10),146,241,191,40,43,77,77,62,62,4,8,4,4,0.3,0.3
2025-11-28T1500,2196A,107.37,40.7372,巴彦淖尔市,市环保大楼,,,,180,49,39,84,84,67,67,,8,7,7,0.4,0.3
2025-11-28T1500,1956A,86.1472,41.7538,巴音郭楞蒙古自治州,孔雀公园,,,,200,,47,82,82,25,25,22,51,11,9,0.6,0.8
2025-11-28T1500,1957A,86.1972,41.7166,巴音郭楞蒙古自治州,棉纺厂,颗粒物(PM10),112,174,321,51,58,72,72,59,34,27,27,10,7,0.7,0.5
2025-11-28T1500,1958A,86.2357,41.7173,巴音郭楞蒙古自治州,经济开发区,颗粒物(PM10),91,131,280,38,44,74,74,40,34,18,28,12,8,0.6,0.6
2025-11-28T1500,2914A,106.7677,31.8794,巴中市,苏山坪,,,,,,,,,,,,,,,,
2025-11-28T1500,3181A,106.7768,31.8526,巴中市,市五中,颗粒物(PM10),57,64,82,38,47,75,75,32,32,15,22,9,8,0.7,0.8
2025-11-28T1500,3183A,106.7418,31.8654,巴中市,圣泉水务公司,颗粒物(PM10),58,66,72,37,36,80,80,50,50,14,21,6,4,0.8,0.6
2025-11-28T1500,3616A,106.7616,31.8344,巴中市,市中心医院,细颗粒物(PM2.5),57,62,76,40,49,75,75,33,33,11,25,6,5,0.8,0.9
2025-11-28T1500,2235A,122.7911,45.6077,白城市,洮北区环保局,,35,35,33,18,19,54,54,44,44,13,16,6,6,0.3,0.3
2025-11-28T1500,2236A,122.8738,45.5725,白城市,市环保局,,46,46,36,22,20,50,50,40,40,10,22,6,4,0.4,0.3
2025-11-28T1500,2231A,126.4219,41.9171,白山市,喜丰,,50,50,43,30,25,52,52,39,39,19,20,9,8,0.7,0.6
2025-11-28T1500,2232A,126.4077,41.9419,白山市,环保局,细颗粒物(PM2.5),55,40,34,39,30,30,30,32,32,36,20,12,11,0.8,0.7
2025-11-28T1500,2647A,104.1724,36.5446,白银市,第三小学,,32,32,100,21,42,79,79,38,38,22,59,34,52,0.6,1.1
2025-11-28T1500,2648A,104.1465,36.5482,白银市,动力公司,,44,44,64,22,30,82,82,53,53,19,34,34,22,0.8,1
2025-11-28T1500,2512A,106.6103,23.9011,百色市,市监测站,,33,33,40,17,24,88,88,51,51,6,15,6,6,0.4,0.5
2025-11-28T1500,2513A,106.6538,23.8859,百色市,市中心血站,,39,39,52,20,32,88,88,53,53,10,32,7,7,0.4,0.6
2025-11-28T1500,3406A,106.6085,23.8798,百色市,祈福高中,,33,33,51,18,28,73,73,44,44,8,19,6,5,0.4,0.5
2025-11-28T1500,2270A,117.396,32.939,蚌埠市,工人疗养院,颗粒物(PM10),108,165,247,39,47,82,82,63,63,21,23,6,5,0.3,0.2
2025-11-28T1500,2271A,117.3605,32.9427,蚌埠市,百货大楼,颗粒物(PM10),104,158,231,36,49,81,81,62,62,19,22,4,5,0.3,0.3
2025-11-28T1500,2273A,117.4185,32.8911,蚌埠市,蚌埠学院,颗粒物(PM10),104,158,267,34,60,89,89,62,62,14,26,5,5,0.2,0.2
2025-11-28T1500,2274A,117.3533,32.9673,蚌埠市,淮上区政府,颗粒物(PM10),106,161,249,45,49,86,86,64,64,17,23,7,7,0.2,0.2
2025-11-28T1500,2275A,117.3145,32.8977,蚌埠市,高新区,颗粒物(PM10),115,180,265,39,57,76,76,55,55,15,26,8,9,0.3,0.3
2025-11-28T1500,3715A,117.3092,32.9314,蚌埠市,蚌埠田家炳中学,颗粒物(PM10),116,182,253,41,54,83,83,58,58,21,30,6,9,0.3,0.3
2025-11-28T1500,1585A,109.8756,40.6532,包头市,市环境监测站,颗粒物(PM10),131,211,159,59,48,34,34,14,14,40,56,25,22,1.6,1.9
2025-11-28T1500,1587A,109.9991,40.5842,包头市,包头八中,颗粒物(PM10),116,181,166,63,72,35,35,17,17,39,54,14,22,0.8,1.4
2025-11-28T1500,1588A,109.8538,40.6821,包头市,青山宾馆,颗粒物(PM10),115,179,146,73,65,32,32,14,14,50,59,32,20,1.8,2
2025-11-28T1500,1589A,109.8642,40.6288,包头市,惠龙物流,颗粒物(PM10),117,184,152,62,56,37,37,19,19,40,57,18,24,2.0,2
2025-11-28T1500,1590A,110.0377,40.5546,包头市,东河鸿龙湾,颗粒物(PM10),107,164,135,42,43,44,44,22,22,35,55,14,13,0.7,1
2025-11-28T1500,3283A,109.9154,40.5685,包头市,滨河大厦,颗粒物(PM10),110,169,127,51,43,42,42,23,23,33,46,13,15,0.7,1
2025-11-28T1500,3419A,109.9447,40.6261,包头市,包头市委党校,颗粒物(PM10),106,162,136,59,49,35,35,18,18,43,57,19,20,1.0,1.5
2025-11-28T1500,3683A,109.8331,40.6576,包头市,昆区政府,颗粒物(PM10),124,198,163,72,74,35,35,17,17,51,66,32,27,1.3,2.1
2025-11-28T1500,1930A,107.185,34.3063,宝鸡市,庙沟村,,,,,,,,,,,,,,,,
2025-11-28T1500,1931A,107.0708,34.3017,宝鸡市,竹园沟,,,42,78,26,29,,,75,75,,5,,6,0.4,0
2025-11-28T1500,1932A,107.1906,34.3672,宝鸡市,三陆医院,颗粒物(PM10),65,80,95,20,37,83,83,52,52,14,45,4,5,0.3,0.5
2025-11-28T1500,1933A,107.1431,34.3547,宝鸡市,监测站,颗粒物(PM10),62,73,85,26,32,73,73,47,47,8,21,4,4,0.3,0.4
2025-11-28T1500,1934A,107.1186,34.3739,宝鸡市,技工学校,颗粒物(PM10),59,68,93,22,33,83,83,74,74,9,20,4,4,0.3,0.4
2025-11-28T1500,1936A,107.2058,34.3497,宝鸡市,文理学院,颗粒物(PM10),54,57,86,30,36,82,82,60,60,10,30,4,4,0.4,0.5
2025-11-28T1500,1937A,107.2386,34.3622,宝鸡市,三迪小学,颗粒物(PM10),66,82,99,25,39,85,85,52,52,13,47,4,4,0.2,0.5
2025-11-28T1500,4308A,107.3898,34.3601,宝鸡市,陈仓区北开路21号,颗粒物(PM10),63,76,108,25,45,83,83,61,61,18,34,5,32,0.2,0.4
2025-11-28T1500,1051A,115.493,38.8632,保定市,游泳馆,细颗粒物(PM2.5),80,106,82,59,43,35,35,21,21,46,46,7,4,0.3,0.3
2025-11-28T1500,1052A,115.5213,38.8959,保定市,华电二区,细颗粒物(PM2.5),98,102,76,73,44,34,34,18,18,47,46,8,5,0.6,0.6
2025-11-28T1500,1053A,115.4713,38.9108,保定市,接待中心,细颗粒物(PM2.5),87,110,78,64,44,29,29,18,18,53,43,6,4,0.4,0.4
2025-11-28T1500,1054A,115.4612,38.8416,保定市,地表水厂,颗粒物(PM10),85,119,90,57,42,41,41,25,25,50,48,8,6,0.2,0.2
2025-11-28T1500,3581A,115.31981,38.95208,保定市,满城区生态环境分局,颗粒物(PM10),82,114,94,44,40,36,36,22,22,54,49,5,4,0.3,0.4
2025-11-28T1500,3582A,115.47694,38.76408,保定市,清苑区第二中学,颗粒物(PM10),97,144,107,57,37,41,41,22,22,47,47,10,6,0.5,0.4
2025-11-28T1500,3583A,115.62909,39.02311,保定市,徐水物探局,颗粒物(PM10),102,154,109,66,51,31,31,20,20,42,39,10,9,0.5,0.6
2025-11-28T1500,4004A,115.4202,38.8656,保定市,双鹰农机,颗粒物(PM10),92,133,95,46,38,42,42,29,29,50,44,8,7,0.5,0.4
2025-11-28T1500,4034A,115.5150,38.8590,保定市,植保所站,颗粒物(PM10),87,124,99,61,48,29,29,17,17,49,52,4,6,0.3,0.6
2025-11-28T1500,2594A,99.1678,25.1081,保山市,市环境监测站,,33,26,25,8,15,104,104,65,65,8,10,7,7,0.2,0.3
2025-11-28T1500,2595A,99.1711,25.1328,保山市,市环保局,,34,29,28,14,16,108,108,68,68,7,7,5,5,0.4,0.2
2025-11-28T1500,1866A,109.2262,21.588,北海市,牛尾岭水库,,49,49,50,20,23,101,101,71,71,6,8,5,5,0,0
2025-11-28T1500,1867A,109.1436,21.4086,北海市,海滩公园,颗粒物(PM10),59,68,71,27,23,118,118,88,88,13,11,8,10,0.6,0.3
2025-11-28T1500,1868A,109.0981,21.4661,北海市,新市环保局,颗粒物(PM10),64,77,70,27,28,126,126,92,92,10,9,5,9,0.4,0.4
2025-11-28T1500,1869A,109.1778,21.5233,北海市,北海工业园,,47,47,69,20,27,117,117,86,86,9,15,7,9,0.5,0.5
2025-11-28T1500,3400A,109.1911,21.4415,北海市,龙潭自来水厂,,46,46,69,23,25,102,102,80,80,9,11,13,14,0,0.2
2025-11-28T1500,1001A,116.3621,39.8784,北京市,万寿西宫,颗粒物(PM10),74,97,65,51,27,36,36,23,23,48,51,7,4,0.4,0.5
2025-11-28T1500,1002A,116.2202,40.2915,北京市,定陵,,,,,,,,,,,,,,,,
2025-11-28T1500,1003A,116.4174,39.9289,北京市,东四,颗粒物(PM10),81,111,70,42,28,42,42,27,27,35,45,10,5,0.7,0.7
2025-11-28T1500,1004A,116.4072,39.8863,北京市,天坛,颗粒物(PM10),78,106,58,44,27,35,35,22,22,46,42,8,3,0.6,0.5
2025-11-28T1500,1005A,116.462,39.9365,北京市,农展馆,颗粒物(PM10),79,107,66,46,28,41,41,24,24,33,40,11,6,0.6,0.5
2025-11-28T1500,1006A,116.3392,39.9295,北京市,官园,颗粒物(PM10),76,102,65,43,26,39,39,23,23,39,47,7,6,0.6,0.6
2025-11-28T1500,1007A,116.2878,39.9611,北京市,海淀万柳,颗粒物(PM10),68,86,58,37,24,40,40,20,20,34,45,7,5,0.5,0.5
2025-11-28T1500,1008A,116.6636,40.135,北京市,顺义新城,颗粒物(PM10),82,114,57,59,37,43,43,28,28,32,38,10,5,0.5,0.1
2025-11-28T1500,1009A,116.6275,40.3275,北京市,怀柔镇,颗粒物(PM10),69,87,39,36,19,48,48,34,34,29,21,9,6,0.5,0.4
2025-11-28T1500,1010A,116.2296,40.217,北京市,昌平镇,颗粒物(PM10),59,67,42,31,20,41,41,31,31,28,27,7,5,0.4,0.4
2025-11-28T1500,1011A,116.3966,39.9821,北京市,奥体中心,颗粒物(PM10),67,83,53,38,23,36,36,23,23,47,48,8,5,0.6,0.6
2025-11-28T1500,3281A,115.9718,40.4529,北京市,延庆夏都,颗粒物(PM10),53,56,47,25,18,43,43,26,26,24,24,2,2,0.5,0.5
2025-11-28T1500,3418A,116.8336,40.4095,北京市,密云新城,颗粒物(PM10),68,86,40,33,17,45,45,32,32,27,21,6,3,0.6,0.5
2025-11-28T1500,3671A,116.088,39.9726,北京市,门头沟三家店,颗粒物(PM10),62,73,48,34,18,35,35,32,32,40,30,5,2,0.7,0.6
2025-11-28T1500,3672A,116.1541,39.8204,北京市,丰台云岗,"颗粒物(PM10),细颗粒物(PM2.5)",73,96,64,53,23,38,38,27,27,42,45,6,3,0.4,0.5
2025-11-28T1500,3673A,116.6804,39.9081,北京市,通州东关,颗粒物(PM10),92,133,72,57,31,44,44,24,24,37,47,8,6,0.6,0.6
2025-11-28T1500,3674A,115.9577,39.7603,北京市,房山燕山,颗粒物(PM10),68,85,51,33,21,35,35,27,27,39,22,5,3,0.5,0.5
2025-11-28T1500,3675A,116.4672,39.7733,北京市,大兴旧宫,颗粒物(PM10),89,128,72,54,29,35,35,19,19,40,42,8,5,0.5,0.5
2025-11-28T1500,3694A,115.986,40.4563,北京市,延庆石河营,颗粒物(PM10),55,59,46,24,17,34,34,23,23,30,23,4,3,0.6,0.5
2025-11-28T1500,3695A,116.6151,40.3053,北京市,怀柔新城,颗粒物(PM10),71,92,41,34,21,49,49,35,35,25,15,5,3,0.4,0.3
2025-11-28T1500,3696A,116.2545,39.8768,北京市,丰台小屯,颗粒物(PM10),71,91,62,40,25,36,36,22,22,38,48,6,4,0.5,0.5
2025-11-28T1500,3697A,116.84,40.3844,北京市,密云镇,颗粒物(PM10),65,79,45,31,19,42,42,28,28,26,36,4,2,0.5,0.5
2025-11-28T1500,4182A,116.1942,39.9158,北京市,八角北路9号,颗粒物(PM10),76,101,82,33,28,39,39,23,23,30,46,4,2,0.5,0.5
2025-11-28T1500,4194A,117.0790,40.1518,北京市,洳河巡河路,颗粒物(PM10),80,109,48,42,22,40,40,27,27,25,17,6,3,0.6,0.4
2025-11-28T1500,1761A,123.8275,41.3064,本溪市,大峪,,28,28,44,12,20,63,63,40,40,17,30,10,9,0.5,0.7
2025-11-28T1500,1762A,123.7567,41.3325,本溪市,溪湖,颗粒物(PM10),83,115,49,37,27,55,55,39,39,17,30,10,8,0.7,1
2025-11-28T1500,1763A,123.7169,41.3094,本溪市,彩屯,颗粒物(PM10),52,54,56,22,32,42,42,32,32,26,34,22,10,2.8,1.7
2025-11-28T1500,1764A,123.7669,41.2864,本溪市,东明,,37,37,39,13,23,56,56,45,45,16,30,9,9,0.4,0.7
2025-11-28T1500,1765A,123.7992,41.2664,本溪市,新立屯,,41,41,27,19,13,61,61,55,55,18,27,7,6,0.4,0.6
2025-11-28T1500,1766A,123.8142,41.3472,本溪市,威宁,,40,40,47,18,24,53,53,37,37,17,25,10,7,0.5,0.6
2025-11-28T1500,2587A,105.2864,27.3125,毕节市,八中,细颗粒物(PM2.5),57,60,95,40,70,113,113,61,61,20,23,22,14,0.5,0.8
2025-11-28T1500,2588A,105.31,27.2944,毕节市,师专,,49,49,122,32,83,107,107,55,55,21,43,21,13,0.6,1.1
2025-11-28T1500,4263A,105.3688,27.3598,毕节市,工业大道,颗粒物(PM10),55,59,126,38,84,123,123,58,58,15,30,12,13,0.6,1.2
2025-11-28T1500,1629A,118.0018,37.3617,滨州市,第二水厂,颗粒物(PM10),125,200,101,66,37,72,72,42,42,24,48,13,15,0.5,0.6
2025-11-28T1500,1630A,117.9776,37.393,滨州市,北中新校,颗粒物(PM10),102,153,85,51,35,74,74,38,38,36,56,9,11,0.2,0.5
2025-11-28T1500,3514A,117.9378,37.3956,滨州市,中海酒店,颗粒物(PM10),114,178,101,48,36,91,91,56,56,12,36,12,13,0.5,0.6
2025-11-28T1500,3515A,117.9378,37.3553,滨州市,开发区一中,颗粒物(PM10),128,205,112,53,42,82,82,45,45,16,46,14,17,0.6,0.8
2025-11-28T1500,3516A,118.0917,37.694,滨州市,金海六路,颗粒物(PM10),151,251,94,58,28,73,73,43,43,41,46,14,13,0.6,0.6
2025-11-28T1500,4028A,117.9956,37.3753,滨州市,滨州市西街道办事处,颗粒物(PM10),123,195,100,56,39,73,73,40,40,19,40,12,13,0.5,0.7
2025-11-28T1500,2311A,115.8072,33.8399,亳州市,污水处理厂,颗粒物(PM10),90,129,213,40,59,88,88,60,60,21,29,4,11,0.5,0.5
2025-11-28T1500,2312A,115.7789,33.8518,亳州市,三国揽胜宫,,,,226,39,57,88,88,60,60,18,25,5,10,0.3,0.4
2025-11-28T1500,3332A,115.7633,33.8034,亳州市,亳州学院,颗粒物(PM10),82,114,219,34,52,91,91,60,60,16,24,4,14,0.3,0.3
2025-11-28T1500,2693A,82.0485,44.8556,博尔塔拉蒙古自治州,市党校,,36,36,40,20,18,34,34,22,22,13,16,2,2,0.3,0.3
2025-11-28T1500,2694A,82.0806,44.8969,博尔塔拉蒙古自治州,市环保局,颗粒物(PM10),58,65,47,34,21,27,27,17,17,18,18,6,7,0.5,0.6
2025-11-28T1500,1071A,116.8842,38.2991,沧州市,沧县城建局,颗粒物(PM10),135,219,93,60,39,51,51,29,29,29,41,10,15,0.6,0.5
2025-11-28T1500,1072A,116.8584,38.3254,沧州市,电视转播站,颗粒物(PM10),133,216,92,73,42,49,49,26,26,31,40,7,11,0.6,0.7
2025-11-28T1500,1073A,116.8709,38.3228,沧州市,市环保局,颗粒物(PM10),129,207,100,77,43,51,51,30,30,24,33,8,11,0.5,0.5
2025-11-28T1500,3324A,116.8136,38.3004,沧州市,河北水利电力学院,颗粒物(PM10),157,263,108,56,32,47,47,29,29,27,35,10,14,0.3,0.4
2025-11-28T1500,2622A,97.1806,31.1273,昌都市,昌都监测站,,,6,38,3,18,64,64,48,48,8,21,,6,0.4,0.8
2025-11-28T1500,3719A,97.1714,31.1406,昌都市,昌都会议中心,,19,18,22,3,10,58,58,47,47,6,4,2,3,0.2,0.2
2025-11-28T1500,2690A,88.1236,43.8886,昌吉回族自治州,天山天池,,,,,,,,,,,,,,,,
2025-11-28T1500,2692A,87.2717,44.0297,昌吉回族自治州,新区政务中心,,,66,62,57,42,18,18,9,9,,44,,3,1.3,1.4
2025-11-28T1500,3613A,87.3095,44.0142,昌吉回族自治州,亚心广场,细颗粒物(PM2.5),62,53,62,44,42,18,18,8,8,20,38,7,7,1.0,1.2
2025-11-28T1500,1120A,125.2863,43.9027,长春市,客车厂,,46,38,46,32,41,63,63,52,52,18,32,9,10,0.5,0.5
2025-11-28T1500,1121A,125.2841,43.8463,长春市,邮电学院,,41,41,52,25,43,64,64,52,52,18,29,11,11,0.5,0.6
2025-11-28T1500,1122A,125.3716,43.8772,长春市,劳动公园,,40,40,49,25,33,65,65,55,55,14,27,12,12,0.5,0.7
2025-11-28T1500,1123A,125.3297,43.8805,长春市,园林处,,42,,43,29,36,58,58,48,48,18,25,8,7,0.7,0.6
2025-11-28T1500,1124A,125.4605,43.79,长春市,净月潭,,36,36,39,19,30,69,69,58,58,10,14,9,6,0.4,0.5
2025-11-28T1500,1125A,125.7194,43.515,长春市,甩湾子,,33,30,42,23,37,67,67,55,55,11,17,6,5,0.0,0.2
2025-11-28T1500,1126A,125.3863,43.8447,长春市,经开区环卫处,,34,34,42,23,30,58,58,45,45,17,29,9,8,0.4,0.5
2025-11-28T1500,1127A,125.245,43.7783,长春市,高新区管委会,,40,34,59,28,46,70,70,55,55,10,31,8,7,0.4,0.5
2025-11-28T1500,1128A,125.1761,43.8325,长春市,岱山公园,,50,50,55,30,44,61,61,45,45,17,38,8,8,0.4,0.5
2025-11-28T1500,4281A,125.3346,43.9164,长春市,北亚泰大街1068号,细颗粒物(PM2.5),52,50,44,36,35,50,50,40,40,22,33,8,8,0.6,0.6
2025-11-28T1500,1335A,113.0833,28.2325,长沙市,经开区环保局,颗粒物(PM10),81,111,145,36,45,99,99,61,61,12,33,6,7,0.5,0.5
2025-11-28T1500,1336A,112.8872,28.2189,长沙市,高开区环保局,颗粒物(PM10),75,99,152,30,50,96,96,58,58,5,35,7,8,0.6,0.8
2025-11-28T1500,1337A,113.0792,28.2053,长沙市,马坡岭,颗粒物(PM10),79,108,149,32,43,103,103,62,62,14,40,8,7,0.5,0.6
2025-11-28T1500,1338A,112.9394,28.19,长沙市,湖南师范大学,颗粒物(PM10),89,127,144,42,41,106,106,61,61,15,33,11,6,0.7,0.4
2025-11-28T1500,1339A,113.0178,28.1322,长沙市,雨花区环保局,颗粒物(PM10),83,115,150,25,43,103,103,65,65,12,36,12,10,0.4,0.4
2025-11-28T1500,1340A,112.9792,28.2597,长沙市,伍家岭,颗粒物(PM10),85,120,153,35,46,101,101,53,53,20,41,12,6,0.5,0.5
2025-11-28T1500,1341A,113.0014,28.1944,长沙市,火车新站,颗粒物(PM10),83,116,162,36,49,103,103,61,61,21,49,12,8,0.6,0.6
2025-11-28T1500,1342A,112.9844,28.1178,长沙市,天心区环保局,颗粒物(PM10),80,110,147,35,42,109,109,65,65,15,38,12,9,0.7,0.5
2025-11-28T1500,1343A,112.8908,28.1308,长沙市,湖南中医药大学,颗粒物(PM10),78,106,160,34,48,104,104,55,55,9,38,8,8,0.5,0.6
2025-11-28T1500,1344A,112.9581,28.3611,长沙市,沙坪,,,,,,,,,,,,,,,,
2025-11-28T1500,1727A,113.1147,36.1547,长治市,清华站,颗粒物(PM10),185,320,132,17,39,88,88,40,40,12,28,10,12,0.3,0.5
2025-11-28T1500,1730A,113.0886,36.2125,长治市,审计局,颗粒物(PM10),58,66,132,27,47,78,78,34,34,20,36,11,11,0.3,0.7
2025-11-28T1500,1731A,113.0844,36.1856,长治市,长治八中,颗粒物(PM10),60,70,155,36,72,83,83,37,37,11,25,9,11,0.4,0.7
2025-11-28T1500,2845A,113.1569,36.1911,长治市,德盛苑,颗粒物(PM10),58,66,138,27,44,88,88,53,53,11,19,8,12,0.3,0.5
2025-11-28T1500,3568A,113.06,36.0464,长治市,向阳小学,颗粒物(PM10),65,80,148,28,42,95,95,70,70,14,22,16,18,0.4,0.5
2025-11-28T1500,3569A,112.8792,36.3144,长治市,屯留一中,颗粒物(PM10),53,56,120,3,39,84,84,37,37,11,36,11,17,0.4,0.6
2025-11-28T1500,4189A,113.1131,36.19948,长治市,英华南巷50号,颗粒物(PM10),59,67,138,41,62,88,88,45,45,14,27,7,9,0.4,0.8
2025-11-28T1500,4190A,113.2367,36.3344,长治市,学府街1号,细颗粒物(PM2.5),105,119,153,79,75,65,65,43,43,30,39,10,16,0.9,1.5
2025-11-28T1500,1854A,111.6975,28.9703,常德市,市二中,,47,47,93,21,34,90,90,69,69,6,16,6,6,0.2,0.3
2025-11-28T1500,1857A,111.7158,29.1456,常德市,白鹤山,,,,,,,,,,,,,,,,
2025-11-28T1500,3138A,111.7153,29.0289,常德市,武陵区永安,颗粒物(PM10),57,64,109,17,35,93,93,67,67,1,23,7,9,0.2,0.4
2025-11-28T1500,3139A,111.6892,28.9881,常德市,鼎城区玉霞,颗粒物(PM10),52,54,101,19,37,94,94,60,60,3,25,6,7,0.2,0.4
2025-11-28T1500,3140A,111.6625,29.0531,常德市,武陵区长庚,颗粒物(PM10),54,58,107,19,36,94,94,69,69,4,25,4,5,0.1,0.3
2025-11-28T1500,1196A,119.9633,31.762,常州市,市监测站,颗粒物(PM10),143,235,283,64,66,72,72,47,47,31,46,2,2,0.4,0.6
2025-11-28T1500,1200A,119.9468,31.7069,常州市,武进监测站,颗粒物(PM10),127,203,300,56,73,82,82,52,52,23,46,4,5,0.2,0.4
2025-11-28T1500,1201A,119.9255,31.9087,常州市,安家,颗粒物(PM10),116,182,253,70,67,69,69,39,39,21,48,8,9,0.4,0.6
2025-11-28T1500,3002A,119.9805,31.8174,常州市,行政中心,颗粒物(PM10),168,285,311,58,58,73,73,47,47,31,49,6,7,0.5,0.7
2025-11-28T1500,3003A,120.0522,31.7748,常州市,经开区,颗粒物(PM10),149,248,329,54,69,79,79,46,46,25,47,14,10,1.5,0.6
2025-11-28T1500,3010A,119.9025,31.7964,常州市,钟楼,颗粒物(PM10),122,194,277,72,85,80,80,51,51,22,46,10,10,0.4,0.6
2025-11-28T1500,3429A,119.8598,31.7066,常州市,武进经发区,颗粒物(PM10),142,234,348,53,88,80,80,49,49,27,48,15,12,0.4,0.6
2025-11-28T1500,3430A,119.5826,31.7245,常州市,金坛城区,颗粒物(PM10),141,232,319,58,74,70,70,53,53,25,36,8,8,0.6,0.6
2025-11-28T1500,2220A,120.4318,41.5881,朝阳市,西梁,颗粒物(PM10),70,89,85,21,44,62,62,34,34,20,38,11,12,0.9,1.2
2025-11-28T1500,2221A,120.4521,41.5646,朝阳市,河畔小区,,,81,69,20,42,67,67,40,40,,38,11,10,0.7,1.2
2025-11-28T1500,2222A,120.4176,41.5648,朝阳市,八里堡,颗粒物(PM10),73,96,70,21,38,56,56,35,35,27,41,13,13,0.8,1
2025-11-28T1500,2223A,120.3806,41.5969,朝阳市,农业园区,颗粒物(PM10),63,76,58,29,38,66,66,38,38,20,40,14,13,0.8,0.9
2025-11-28T1500,1705A,116.6367,23.6719,潮州市,西园路,,,,,,,,,,,,,,,,
2025-11-28T1500,3026A,116.6183,23.6608,潮州市,市政府,颗粒物(PM10),58,66,55,21,18,72,72,58,58,4,6,4,4,0.3,0.3
2025-11-28T1500,4036A,116.6461,23.6761,潮州市,金山,,,,42,,18,102,102,82,82,7,9,3,3,,0.4
2025-11-28T1500,2472A,113.0073,25.9061,郴州市,马头岭,,,,,,,,,,,,,,,,
2025-11-28T1500,2473A,113.0116,25.8226,郴州市,市职中,颗粒物(PM10),60,70,77,30,33,97,97,50,50,10,25,6,5,0.3,0.4
2025-11-28T1500,2475A,113.0383,25.8071,郴州市,市审计局,颗粒物(PM10),66,81,80,24,30,93,93,57,57,11,31,7,6,0.4,0.5
2025-11-28T1500,2476A,113.0348,25.7759,郴州市,市环保局,颗粒物(PM10),62,74,91,30,37,95,95,53,53,10,34,6,4,0.4,0.5
2025-11-28T1500,4252A,113.0138,25.8011,郴州市,好美居路49号,颗粒物(PM10),57,64,71,30,38,107,107,58,58,11,33,8,6,0.3,0.4
2025-11-28T1500,1431A,103.9728,30.7236,成都市,金泉两河,细颗粒物(PM2.5),127,119,103,96,66,104,104,48,48,36,47,5,4,0.8,1
2025-11-28T1500,1432A,104.176,30.6872,成都市,十里店,细颗粒物(PM2.5),90,92,107,67,75,124,124,48,48,21,52,5,5,0.6,0.8
2025-11-28T1500,1433A,104.079,30.5706,成都市,三瓦窑,细颗粒物(PM2.5),87,92,108,64,71,128,128,50,50,23,55,5,5,0.7,1
2025-11-28T1500,1434A,104.1114,30.63,成都市,沙河铺,细颗粒物(PM2.5),118,106,112,89,94,97,97,32,32,40,61,6,5,0.6,0.9
2025-11-28T1500,1437A,104.0786,30.6531,成都市,君平街,细颗粒物(PM2.5),134,122,116,102,93,81,81,31,31,47,56,5,5,1.0,1.2
2025-11-28T1500,1438A,103.613,31.0283,成都市,灵岩寺,,,,,,,,,,,,,,,,
2025-11-28T1500,2880A,104.0239,30.65639,成都市,大石西路,细颗粒物(PM2.5),112,98,92,84,83,90,90,35,35,53,53,4,3,1.0,1.3
2025-11-28T1500,3136A,104.2725,30.5589,成都市,龙泉驿区区政府,,,95,80,58,56,115,115,61,61,18,23,,6,0.6,0.6
2025-11-28T1500,3357A,104.0106,30.6931,成都市,金博路,细颗粒物(PM2.5),129,117,101,98,72,87,87,37,37,57,57,6,6,1.1,1.1
2025-11-28T1500,3359A,104.0578,30.5225,成都市,华阳,细颗粒物(PM2.5),85,105,98,63,70,118,118,48,48,23,50,6,4,0.6,0.9
2025-11-28T1500,3488A,104.3880,30.7467,成都市,青石路225号,细颗粒物(PM2.5),97,93,89,72,66,120,120,58,58,15,31,7,6,0.8,0.8
2025-11-28T1500,3489A,104.0789,30.4072,成都市,科学城,细颗粒物(PM2.5),120,111,83,91,61,116,116,57,57,14,31,7,6,0.4,0.6
2025-11-28T1500,4011A,103.8506,30.6947,成都市,光华大道三段,细颗粒物(PM2.5),119,118,110,90,83,112,112,47,47,28,46,3,3,0.7,1
2025-11-28T1500,4224A,104.2433,30.5353,成都市,鲸龙路1057号,细颗粒物(PM2.5),108,136,92,81,67,114,114,51,51,19,46,7,7,0.7,0.9
2025-11-28T1500,1062A,117.9531,40.9081,承德市,铁路,颗粒物(PM10),64,77,50,21,21,48,48,24,24,23,31,6,5,0.4,0.7
2025-11-28T1500,1063A,117.9392,40.9763,承德市,中国银行,颗粒物(PM10),64,77,40,14,17,58,58,35,35,16,26,5,3,0.4,0.5
2025-11-28T1500,1064A,117.9503,40.928,承德市,开发区,颗粒物(PM10),65,80,47,20,22,59,59,31,31,16,29,9,6,0.4,0.5
2025-11-28T1500,1066A,117.9268,41.0026,承德市,离宫,,,,,,,,,,,,,,,,
2025-11-28T1500,4274A,117.7994,40.9605,承德市,滨河大街98号,颗粒物(PM10),54,57,33,20,15,45,45,28,28,18,24,2,3,0.4,0.4
2025-11-28T1500,2314A,117.47,30.6618,池州市,池州学院,颗粒物(PM10),95,139,217,34,54,80,80,61,61,15,22,8,6,0.3,0.8
2025-11-28T1500,3237A,117.4918,30.6617,池州市,展览馆,颗粒物(PM10),91,132,198,26,47,79,79,52,52,14,24,7,6,0.4,0.8
2025-11-28T1500,3333A,117.5627,30.695,池州市,第八中学,颗粒物(PM10),95,139,240,28,50,84,84,60,60,19,25,6,7,0.4,0.7
2025-11-28T1500,3334A,117.5038,30.6243,池州市,第十二中学,颗粒物(PM10),93,136,222,31,47,79,79,53,53,19,32,8,8,0.4,1.2
2025-11-28T1500,1744A,118.9233,42.2816,赤峰市,松山一中,颗粒物(PM10),58,66,43,18,18,69,69,35,35,27,33,7,11,0.7,0.9
2025-11-28T1500,1745A,118.9576,42.2728,赤峰市,哈达街,颗粒物(PM10),57,64,49,21,18,68,68,38,38,21,26,10,15,0.6,0.9
2025-11-28T1500,1746A,118.8788,42.2554,赤峰市,天义路,颗粒物(PM10),53,56,30,24,18,73,73,49,49,16,22,6,8,0.6,0.7
2025-11-28T1500,3058A,119.2658,42.0353,赤峰市,银河街,颗粒物(PM10),70,90,53,27,27,66,66,40,40,17,24,12,22,0.5,0.8
2025-11-28T1500,3286A,118.9359,42.3147,赤峰市,桥北物流园区,颗粒物(PM10),54,57,45,23,28,65,65,34,34,18,30,10,24,0.5,0.8
2025-11-28T1500,2521A,107.3476,22.4136,崇左市,市环保局江州分局,颗粒物(PM10),55,60,59,23,29,91,91,52,52,8,13,4,3,0.4,0.5
2025-11-28T1500,4256A,107.3750,22.3736,崇左市,石景林东路7号,颗粒物(PM10),51,52,44,28,23,104,104,58,58,7,15,9,8,0.4,0.5
2025-11-28T1500,2298A,118.3093,32.3153,滁州市,老年大学,颗粒物(PM10),100,149,217,38,51,73,73,46,46,17,29,12,12,0.4,0.5
2025-11-28T1500,2299A,118.3244,32.2786,滁州市,人大宾馆,颗粒物(PM10),107,163,234,40,61,73,73,46,46,17,32,8,8,0.4,0.5
2025-11-28T1500,3207A,118.3118,32.3038,滁州市,市政府原办公楼,,,,233,,60,,,47,,,42,,8,,0.6
2025-11-28T1500,3331A,118.3267,32.2634,滁州市,图书馆,颗粒物(PM10),103,156,236,35,62,73,73,46,46,20,36,9,11,0.4,0.5
2025-11-28T1500,2605A,101.5482,25.0441,楚雄彝族自治州,州环境监测站,,28,28,34,12,21,86,86,44,44,17,33,6,11,0.5,0.7
2025-11-28T1500,2606A,101.538,25.0492,楚雄彝族自治州,市经济开发区,,,24,39,14,22,91,91,48,48,,25,6,7,0.5,0.6
2025-11-28T1500,2548A,107.5277,31.2827,达州市,达州职业技术学院,,,,,,,,,,,,,,,,
2025-11-28T1500,2549A,107.5086,31.2186,达州市,市环境监测站,颗粒物(PM10),62,73,82,34,51,77,77,27,27,24,39,6,7,0.5,0.8
2025-11-28T1500,2550A,107.4988,31.2132,达州市,凤凰小区,,,75,89,41,54,78,78,34,34,18,45,,7,0.4,0.6
2025-11-28T1500,2551A,107.5082,31.1986,达州市,达县机关宾馆,颗粒物(PM10),64,78,91,34,52,76,76,37,37,32,44,4,5,0.6,0.8
2025-11-28T1500,2552A,107.4644,31.2124,达州市,市政中心,颗粒物(PM10),66,81,100,29,53,67,67,32,32,25,43,7,7,0.5,0.8
2025-11-28T1500,2614A,100.1542,25.7054,大理白族自治州,大理市环境监测站,,25,18,23,17,24,68,68,47,47,9,22,6,6,0.7,0.7
2025-11-28T1500,2615A,100.2171,25.5811,大理白族自治州,大理古城,,,,27,,17,90,90,55,55,6,14,8,7,0.6,0.6
2025-11-28T1500,1109A,121.612,38.9741,大连市,甘井子,,29,29,29,16,13,67,67,57,57,25,32,6,8,0.3,0.4
2025-11-28T1500,1110A,121.565,38.9511,大连市,周水子,,42,42,29,19,17,69,69,53,53,18,38,6,6,0.3,0.5
2025-11-28T1500,1111A,121.5637,38.8845,大连市,星海三站,,24,24,24,15,13,65,65,61,61,19,24,8,8,0.2,0.3
2025-11-28T1500,1112A,121.6302,38.9117,大连市,青泥洼桥,,31,31,22,16,9,69,69,64,64,17,24,11,11,0.3,0.3
2025-11-28T1500,1113A,121.6251,38.8638,大连市,傅家庄,,27,27,21,13,9,64,64,65,65,16,14,9,10,0.5,0.4
2025-11-28T1500,1114A,121.5213,38.8661,大连市,七贤岭,,31,31,24,16,9,67,67,58,58,18,17,9,6,0.4,0.7
2025-11-28T1500,1115A,121.2529,38.8061,大连市,旅顺,,33,33,19,18,11,73,73,66,66,12,12,7,6,0.4,0.3
2025-11-28T1500,1116A,121.7485,39.1311,大连市,金州,,26,26,25,12,12,74,74,58,58,8,14,8,8,0.2,0.3
2025-11-28T1500,1117A,121.7811,39.0496,大连市,开发区,,26,26,29,11,13,67,67,52,52,13,33,9,10,0.3,0.4
2025-11-28T1500,1118A,121.9762,39.0631,大连市,双D港,,27,27,22,10,7,78,78,65,65,12,14,11,10,0.5,0.5
2025-11-28T1500,1789A,124.81117,46.03138,大庆市,大同区,细颗粒物(PM2.5),102,110,64,76,37,52,52,46,46,25,21,9,8,0.7,0.7
2025-11-28T1500,1790A,125.129,46.533,大庆市,龙凤区,,,,54,,47,64,64,50,50,16,25,7,7,,0.8
2025-11-28T1500,1791A,124.902,46.408,大庆市,红岗区,细颗粒物(PM2.5),63,54,58,45,43,59,59,42,42,15,27,6,6,0.5,0.6
2025-11-28T1500,1792A,125.153,46.586,大庆市,萨尔图区,颗粒物(PM10),58,65,56,39,33,59,59,40,,23,31,8,8,0.6,0.7
2025-11-28T1500,1793A,124.9042,46.6215,大庆市,让胡路区,,46,46,48,32,36,55,55,38,38,22,34,8,7,0.6,0.8
2025-11-28T1500,3481A,125.141,46.634,大庆市,萨区政府监测点,颗粒物(PM10),51,51,49,24,19,56,56,42,42,14,20,11,10,0.5,0.6
2025-11-28T1500,1721A,113.3819,40.1097,大同市,果树场,颗粒物(PM10),121,192,136,48,59,58,58,26,26,30,45,16,15,0.7,1.5
2025-11-28T1500,1723A,113.2994,40.0758,大同市,云冈宾馆,颗粒物(PM10),114,177,178,38,47,60,60,23,23,17,45,6,12,0.4,1.2
2025-11-28T1500,1724A,113.3444,40.0917,大同市,大同大学,颗粒物(PM10),134,218,145,61,48,64,64,27,27,27,47,6,15,0.6,0.9
2025-11-28T1500,1725A,113.2661,40.1269,大同市,安家小村,颗粒物(PM10),149,247,156,45,46,69,69,32,32,11,34,8,16,0.4,1.6
2025-11-28T1500,1726A,113.2711,40.0844,大同市,教育学院,颗粒物(PM10),141,231,166,39,61,64,64,23,23,15,48,5,12,0.4,1.5
2025-11-28T1500,3282A,113.3397,40.0597,大同市,大同市卫生学校,颗粒物(PM10),142,233,159,44,54,53,53,20,20,34,53,8,16,0.7,1.1
2025-11-28T1500,3565A,113.1367,40.1122,大同市,云冈站,颗粒物(PM10),147,243,139,51,38,69,69,38,38,8,26,5,11,0.4,0.6
2025-11-28T1500,3566A,113.1186,40.2556,大同市,图书馆,颗粒物(PM10),128,205,131,44,45,72,72,42,42,10,17,4,9,0.4,0.6
2025-11-28T1500,3567A,113.5931,40.0461,大同市,区一中,颗粒物(PM10),146,241,163,41,53,58,58,40,40,28,31,44,28,0.7,0.8
2025-11-28T1500,4199A,113.2798,40.0997,大同市,魏都大道141号,颗粒物(PM10),154,257,176,41,50,70,70,28,28,12,45,4,13,0.4,1.4
2025-11-28T1500,2269A,124.1069,50.4097,大兴安岭地区,科技局,,17,17,18,10,15,45,45,43,43,10,6,5,4,0.2,0.2
2025-11-28T1500,3663A,124.1164,50.4278,大兴安岭地区,红旗社区,,27,27,32,3,21,35,35,30,30,29,28,15,8,0.4,0.5
2025-11-28T1500,1600A,124.3303,40.0625,丹东市,江湾东路,,32,31,34,22,28,62,62,44,44,11,20,9,9,0.6,0.8
2025-11-28T1500,1601A,124.4256,40.1503,丹东市,临江后街,,37,37,32,22,19,54,54,38,38,10,14,12,8,0.5,0.5
2025-11-28T1500,1602A,124.3933,40.1461,丹东市,元宝山,,32,30,29,22,24,57,57,37,37,8,13,14,9,0.7,0.7
2025-11-28T1500,1603A,124.3633,40.1092,丹东市,民主桥,,37,37,34,18,23,59,59,38,38,16,26,11,8,0.8,0.8
2025-11-28T1500,3541A,109.5726,19.5167,儋州市,第一中学子站,颗粒物(PM10),54,58,56,23,26,110,110,75,75,6,9,5,6,0.4,0.5
2025-11-28T1500,3542A,109.5567,19.5187,儋州市,东坡学校子站,颗粒物(PM10),51,51,52,30,23,119,119,79,79,6,13,4,3,0.4,0.5
2025-11-28T1500,2616A,98.5842,24.428,德宏傣族景颇族自治州,德宏州监测站,,33,33,41,22,26,97,97,48,48,11,19,9,8,0.5,0.6
2025-11-28T1500,3677A,98.5881,24.4368,德宏傣族景颇族自治州,芒市人民政府综合楼,,46,46,42,23,20,91,91,47,47,13,16,9,7,0.5,0.6
2025-11-28T1500,1901A,104.4239,31.1208,德阳市,东山公园,细颗粒物(PM2.5),98,96,93,73,72,113,113,59,59,26,25,4,2,0.9,0.9
2025-11-28T1500,1902A,104.3826,31.1317,德阳市,西小区,细颗粒物(PM2.5),108,123,122,81,79,91,91,42,42,35,44,6,5,0.6,0.8
2025-11-28T1500,1904A,104.3553,31.1091,德阳市,耐火材料厂,细颗粒物(PM2.5),120,115,128,91,97,105,105,40,40,32,51,4,3,0.9,1.1
2025-11-28T1500,3639A,104.4019,31.1244,德阳市,市教育局,细颗粒物(PM2.5),99,101,92,74,71,92,92,40,40,26,53,3,2,0.8,1
2025-11-28T1500,1622A,116.3032,37.4674,德州市,儿童乐园,颗粒物(PM10),164,278,201,70,46,58,58,46,46,30,25,14,14,0.8,0.7
2025-11-28T1500,1624A,116.2991,37.4451,德州市,监理站,颗粒物(PM10),158,266,188,75,44,65,65,52,52,28,24,13,13,0.7,0.5
2025-11-28T1500,3066A,116.2721,37.4379,德州市,九衢泉纯净水厂,颗粒物(PM10),155,259,186,73,45,58,58,44,44,37,36,18,16,0.9,0.9
2025-11-28T1500,3371A,116.3728,37.4403,德州市,开发区人民医院,颗粒物(PM10),158,266,188,80,55,65,65,50,50,31,36,17,15,0.9,0.7
2025-11-28T1500,3511A,116.5652,37.3319,德州市,陵城艺术中心,颗粒物(PM10),158,266,175,66,38,62,62,46,46,39,39,14,15,0.7,0.5
2025-11-28T1500,4292A,116.3525,37.4209,德州市,新河东路,颗粒物(PM10),156,261,232,68,48,60,60,45,45,44,41,14,14,0.6,0.7
2025-11-28T1500,2621A,99.7056,27.8317,迪庆藏族自治州,迪庆州站,,27,27,34,15,21,80,80,54,54,6,12,5,6,0.6,0.7
2025-11-28T1500,3180A,99.7136,27.8094,迪庆藏族自治州,质量技术监督局,,26,24,32,10,20,83,83,53,53,8,15,8,8,0.4,0.6
2025-11-28T1500,4257A,104.6092,35.5962,定西市,将台街,,29,14,68,6,34,90,90,45,45,4,30,9,14,0.2,0.8
2025-11-28T1500,4309A,104.6159,35.5701,定西市,正龙路62号,,30,23,71,8,38,93,93,50,50,8,21,7,8,0.5,0.9
2025-11-28T1500,1389A,113.7547,23.0494,东莞市,莞城梨川,颗粒物(PM10),60,69,60,29,23,133,133,98,98,17,19,6,6,0.5,0.5
2025-11-28T1500,1390A,113.7944,23.0128,东莞市,东城石井,颗粒物(PM10),54,58,55,21,20,126,126,91,91,14,21,10,9,0.3,0.3
2025-11-28T1500,1391A,113.7383,22.9658,东莞市,南城西平,颗粒物(PM10),55,59,58,30,22,129,129,86,86,15,34,9,9,0.4,0.4
2025-11-28T1500,3319A,113.7338,23.0381,东莞市,万江金泰,颗粒物(PM10),61,72,60,29,22,126,126,90,90,13,17,7,6,0.6,0.6
2025-11-28T1500,3626A,113.7533,23.0202,东莞市,南城元岭,颗粒物(PM10),63,75,60,29,23,146,146,107,107,17,17,9,8,0.2,0.2
2025-11-28T1500,3627A,113.7875,23.0457,东莞市,东城主山,颗粒物(PM10),62,74,65,27,24,141,141,100,100,16,24,4,4,0.3,0.3
2025-11-28T1500,1666A,118.6614,37.4309,东营市,市环保局,颗粒物(PM10),126,202,88,44,28,64,64,38,38,30,42,13,15,0.7,0.7
2025-11-28T1500,3036A,118.6904,37.4338,东营市,开发区管委会,颗粒物(PM10),138,225,100,46,28,68,68,44,44,28,40,11,13,0.3,0.4
2025-11-28T1500,3365A,118.5719,37.565,东营市,垦利区民丰路,颗粒物(PM10),135,219,89,48,25,64,64,45,45,33,42,7,6,0.9,1
2025-11-28T1500,3498A,118.5055,37.8612,东营市,河口城区,颗粒物(PM10),141,232,77,54,25,78,78,51,51,38,41,7,6,0.7,0.6
2025-11-28T1500,3646A,118.4978,37.4623,东营市,胜利站,颗粒物(PM10),119,187,88,48,29,68,68,34,34,36,51,13,19,0.7,0.8
2025-11-28T1500,3734A,118.35,37.26,东营市,理想之城,颗粒物(PM10),128,205,101,44,34,69,69,35,35,26,44,9,14,0.5,0.6
2025-11-28T1500,1591A,110.0023,39.8129,鄂尔多斯市,综合楼,颗粒物(PM10),71,92,112,24,26,83,83,64,64,6,23,6,9,0.2,0.3
2025-11-28T1500,1592A,109.9486,39.8261,鄂尔多斯市,巴音孟克林场办事处,颗粒物(PM10),86,122,164,27,35,86,86,76,76,5,11,5,6,0.2,0.3
2025-11-28T1500,1593A,109.7736,39.5986,鄂尔多斯市,康泽苑,颗粒物(PM10),89,127,111,27,32,93,93,54,54,2,32,4,4,0.5,0.6
2025-11-28T1500,1594A,109.8119,39.5989,鄂尔多斯市,华泰汽车城,颗粒物(PM10),92,134,119,27,32,92,92,48,48,6,41,6,8,0.1,0.5
2025-11-28T1500,1595A,109.9734,39.7884,鄂尔多斯市,奥林花园,颗粒物(PM10),84,117,116,24,26,81,81,52,52,10,40,8,9,0.3,0.5
2025-11-28T1500,2436A,114.8938,30.3994,鄂州市,市政府,颗粒物(PM10),78,105,169,28,44,63,63,47,47,32,35,13,13,0.5,0.5
2025-11-28T1500,2437A,114.8989,30.3714,鄂州市,赵家坝,颗粒物(PM10),94,138,188,32,42,71,71,47,47,17,24,12,11,0.9,0.8
2025-11-28T1500,3654A,114.8094,30.4089,鄂州市,精准医疗中心,颗粒物(PM10),73,95,163,26,49,91,91,48,48,19,48,4,4,0.8,1.6
2025-11-28T1500,2454A,109.4978,30.2981,恩施土家族苗族自治州,湖北民院,细颗粒物(PM2.5),67,68,75,48,56,96,96,47,47,12,16,7,7,0.6,0.7
2025-11-28T1500,2455A,109.4707,30.2798,恩施土家族苗族自治州,州电力总公司,细颗粒物(PM2.5),60,64,81,43,60,93,93,41,41,13,25,7,6,0.6,0.7
2025-11-28T1500,3549A,109.5061,30.3772,恩施土家族苗族自治州,龙凤新区,颗粒物(PM10),65,80,71,42,42,91,91,47,47,21,17,7,7,0.3,0.3
2025-11-28T1500,2499A,108.3411,21.6158,防城港市,沙万,颗粒物(PM10),56,62,61,22,20,98,98,83,83,7,10,6,7,0.3,0.3
2025-11-28T1500,2500A,108.3514,21.7731,防城港市,防城档案局,颗粒物(PM10),57,63,71,27,20,96,96,80,80,8,13,5,6,0.4,0.4
2025-11-28T1500,2501A,108.3506,21.6414,防城港市,大海花园,颗粒物(PM10),57,64,58,22,23,105,105,90,90,8,10,6,7,0.5,0.5
2025-11-28T1500,1371A,113.1294,23.0067,佛山市,湾梁,,,,60,,22,,,64,,,31,,9,,0.6
2025-11-28T1500,1372A,113.1083,23.0478,佛山市,华材职中,颗粒物(PM10),63,75,70,28,26,102,102,76,76,20,36,7,9,0.4,0.4
2025-11-28T1500,1373A,113.144,23.0453,佛山市,南海气象局,颗粒物(PM10),64,77,66,28,22,112,112,79,79,20,31,7,9,0.4,0.5
2025-11-28T1500,1374A,113.2881,22.8094,佛山市,顺德苏岗,颗粒物(PM10),57,64,55,19,16,97,97,78,78,24,30,9,8,0.3,0.3
2025-11-28T1500,1376A,112.8383,22.8678,佛山市,高明孔堂,颗粒物(PM10),64,77,70,31,27,113,113,79,79,17,29,8,10,0.3,0.3
2025-11-28T1500,1377A,112.8836,23.1588,佛山市,三水监测站,颗粒物(PM10),57,63,78,21,31,93,93,69,69,14,41,9,13,0.5,0.6
2025-11-28T1500,1378A,112.867,23.185,佛山市,三水云东海,颗粒物(PM10),53,55,70,22,31,102,102,68,68,16,44,7,9,0.5,0.5
2025-11-28T1500,3625A,113.2544,22.7642,佛山市,容桂街道办,颗粒物(PM10),64,78,61,27,22,93,93,76,76,29,32,7,12,0.5,0.5
2025-11-28T1500,1280A,119.3903,26.0543,福州市,鼓山,,,,122,,25,,,96,,,11,,3,,0.4
2025-11-28T1500,1282A,119.2681,26.0504,福州市,师大,颗粒物(PM10),106,162,85,40,34,116,116,82,82,17,23,9,7,0.3,0.3
2025-11-28T1500,1283A,119.2984,26.1028,福州市,五四北路,颗粒物(PM10),72,93,88,33,31,110,110,89,89,15,22,6,6,0.4,0.5
2025-11-28T1500,1284A,119.2648,26.0768,福州市,杨桥西路,颗粒物(PM10),92,133,83,34,30,116,116,85,85,16,22,6,5,0.4,0.4
2025-11-28T1500,1285A,119.317,26.0746,福州市,紫阳,颗粒物(PM10),102,153,103,37,33,107,107,82,82,22,25,8,8,0.5,0.6
2025-11-28T1500,3048A,119.5799,26.0936,福州市,九龙,颗粒物(PM10),127,204,114,44,30,133,133,94,94,10,12,4,5,0.3,0.4
2025-11-28T1500,3526A,119.5189,25.9664,福州市,吴航,颗粒物(PM10),113,176,109,40,30,136,136,100,100,13,14,8,8,0.4,0.5
2025-11-28T1500,1755A,123.7977,41.8491,抚顺市,望花区,颗粒物(PM10),51,52,52,23,35,45,45,36,36,29,31,22,10,1.0,0.8
2025-11-28T1500,1756A,123.9161,41.8822,抚顺市,顺城区,,42,42,42,18,31,45,45,38,38,29,29,7,6,0.7,0.8
2025-11-28T1500,1757A,124.0436,41.8611,抚顺市,东洲区,,37,37,42,20,29,57,57,53,53,16,22,9,7,0.5,0.6
2025-11-28T1500,1758A,123.9247,41.8642,抚顺市,新抚区,,38,38,43,19,31,39,39,35,35,32,28,9,7,0.7,0.7
2025-11-28T1500,1759A,124.0972,41.8961,抚顺市,大伙房水库,,35,35,35,18,27,74,74,58,58,9,22,10,10,0.6,0.6
2025-11-28T1500,1760A,123.7086,41.8391,抚顺市,沈抚新城,,45,45,59,26,37,53,53,42,42,25,30,11,12,0.6,1.4
2025-11-28T1500,2376A,116.2127,28.0814,抚州市,桐源党溪,,,,,,,,,,,,,,,,
2025-11-28T1500,2377A,116.3544,27.9831,抚州市,市站,颗粒物(PM10),80,109,119,23,34,100,100,72,72,9,21,5,8,0.7,0.6
2025-11-28T1500,2378A,116.3565,27.963,抚州市,血防站,颗粒物(PM10),72,93,104,21,31,99,99,70,70,10,26,3,5,1.0,1
2025-11-28T1500,2379A,116.3564,28.0007,抚州市,采茶剧团,颗粒物(PM10),81,112,125,26,39,107,107,68,68,6,23,4,5,0.4,0.5
2025-11-28T1500,2380A,116.385,27.9647,抚州市,医学分院,颗粒物(PM10),81,111,125,30,34,106,106,68,68,11,26,4,5,1.1,1.1
2025-11-28T1500,2207A,121.6094,41.998,阜新市,工业园区,,,110,99,50,61,56,56,44,44,33,45,23,21,,0.9
2025-11-28T1500,2208A,121.6697,42.0279,阜新市,长青街,颗粒物(PM10),71,92,83,35,56,56,56,32,32,32,39,19,23,0.7,1.3
2025-11-28T1500,2209A,121.6673,42.0705,阜新市,农业园区,颗粒物(PM10),73,96,64,44,40,60,60,46,46,25,28,19,28,0.8,0.7
2025-11-28T1500,2210A,121.6717,42.0224,阜新市,东苑,颗粒物(PM10),67,83,101,43,45,54,54,35,35,35,42,23,29,0.9,1.7
2025-11-28T1500,2211A,121.6506,42.0498,阜新市,玉龙新城,颗粒物(PM10),74,97,88,38,38,59,59,37,37,32,39,21,17,0.8,1
2025-11-28T1500,2301A,115.8277,32.8929,阜阳市,市监测站,颗粒物(PM10),83,116,203,33,63,98,98,62,62,10,21,5,4,0.3,0.3
2025-11-28T1500,2303A,115.8554,32.8605,阜阳市,开发区,颗粒物(PM10),88,126,269,22,40,100,100,64,64,11,21,5,5,0.3,0.4
2025-11-28T1500,2875A,115.784,32.8892,阜阳市,阜阳职业技术学院,颗粒物(PM10),71,91,201,21,49,102,102,74,74,8,15,6,6,0.2,0.2
2025-11-28T1500,3468A,115.7901,32.8613,阜阳市,市规划展馆,,,124,244,,57,106,106,67,67,8,19,5,5,0.4,0.5
2025-11-28T1500,3469A,115.836,32.9183,阜阳市,枣园社区,颗粒物(PM10),87,123,243,35,68,98,98,61,61,14,31,2,2,0.3,0.2
2025-11-28T1500,2669A,102.9099,34.9841,甘南藏族自治州,州政府,,25,19,70,17,44,77,77,41,41,5,37,8,11,0.2,1.2
2025-11-28T1500,3380A,102.8914,34.9617,甘南藏族自治州,甘肃民族师范学院,,,29,78,3,27,64,64,29,29,2,36,,10,0.3,0.9
2025-11-28T1500,2570A,101.9603,30.0475,甘孜藏族自治州,水桥子,,24,22,21,6,6,76,76,53,53,6,32,9,8,0.2,0.6
2025-11-28T1500,3065A,101.9533,29.9972,甘孜藏族自治州,州环保局,,25,12,17,3,4,79,79,64,63,10,13,6,5,0.6,0.6
2025-11-28T1500,3414A,115.8347,28.932,赣江新区,桑海产业园,颗粒物(PM10),117,183,174,37,30,90,90,54,54,29,33,15,13,0.5,0.5
2025-11-28T1500,2362A,114.9017,25.9149,赣州市,通天岩,颗粒物(PM10),73,96,59,22,20,108,108,81,81,7,8,16,17,1.0,1.2
2025-11-28T1500,2363A,114.9367,25.8664,赣州市,地委,颗粒物(PM10),62,74,68,34,29,114,114,66,66,14,24,8,8,0.6,0.6
2025-11-28T1500,2364A,114.9461,25.8481,赣州市,气象台,颗粒物(PM10),65,79,83,26,26,108,108,64,64,18,32,6,6,0.7,0.8
2025-11-28T1500,2365A,114.9322,25.8333,赣州市,市图书馆,颗粒物(PM10),73,95,81,28,30,105,105,59,59,17,29,4,4,0.4,0.4
2025-11-28T1500,2366A,114.8905,25.8471,赣州市,华坚鞋城,颗粒物(PM10),74,98,84,24,27,103,103,59,59,17,33,7,5,0.6,0.5
2025-11-28T1500,3109A,115.0093,25.8613,赣州市,赣县区卫计委,,,93,78,27,35,101,101,62,62,7,21,,8,0.5,0.6
2025-11-28T1500,2683A,106.2319,36.1417,固原市,马园,,,,,,,,,,,,,,,,
2025-11-28T1500,2684A,106.2792,36.0022,固原市,监测站,,39,39,79,13,26,87,87,63,63,8,15,5,4,0.4,0.5
2025-11-28T1500,2685A,106.2375,36.0211,固原市,新区,颗粒物(PM10),54,57,69,16,19,86,86,77,77,11,7,5,5,0.3,0.3
2025-11-28T1500,3522A,106.2177,35.9959,固原市,原州区十五小,,37,37,68,10,21,87,87,78,78,4,6,8,8,0.4,0.5
2025-11-28T1500,2543A,106.6308,30.5278,广安市,小平旧居,,,,,,,,,,,,,,,,
2025-11-28T1500,2544A,106.6303,30.4576,广安市,市委,颗粒物(PM10),69,88,97,49,68,106,106,50,50,16,34,5,3,0.6,0.8
2025-11-28T1500,2545A,106.6271,30.4663,广安市,友谊中学,细颗粒物(PM2.5),69,82,90,50,65,111,111,54,54,13,24,8,7,0.5,0.6
2025-11-28T1500,2547A,106.6388,30.4551,广安市,广电花园,细颗粒物(PM2.5),74,87,77,54,67,98,98,48,48,14,29,4,3,0.6,0.9
2025-11-28T1500,2902A,106.6351,30.4865,广安市,北辰小学,颗粒物(PM10),69,88,91,48,69,104,104,47,47,11,19,16,14,0.7,1
2025-11-28T1500,2523A,105.8945,32.4535,广元市,黑石坡,,,,,,,,,,,,,,,,
2025-11-28T1500,2524A,105.821,32.4444,广元市,老城,细颗粒物(PM2.5),95,,83,71,47,78,78,40,40,29,39,20,6,1.1,0.9
2025-11-28T1500,2526A,105.8628,32.4287,广元市,监测站,细颗粒物(PM2.5),89,,62,66,54,80,80,36,36,24,33,10,8,0.8,0.9
2025-11-28T1500,3617A,105.8047,32.4166,广元市,经开区,细颗粒物(PM2.5),107,129,107,80,53,65,65,24,24,34,39,52,11,1.5,0.8
2025-11-28T1500,1345A,113.2347,23.1423,广州市,广雅中学,,,87,79,28,28,105,105,79,79,24,57,,10,0.7,0.6
2025-11-28T1500,1346A,113.2612,23.105,广州市,市五中,颗粒物(PM10),62,74,68,26,27,121,121,93,93,15,36,10,11,0.5,0.5
2025-11-28T1500,1348A,113.3478,23.0916,广州市,广东商学院,颗粒物(PM10),55,60,60,24,21,102,102,87,87,14,20,6,7,0.3,0.3
2025-11-28T1500,1349A,113.4332,23.1047,广州市,市八十六中,,43,43,47,15,22,107,107,80,80,8,28,9,8,0.3,0.4
2025-11-28T1500,1350A,113.3505,22.9483,广州市,番禺中学,颗粒物(PM10),65,80,68,26,23,100,100,84,84,19,24,5,5,0.2,0.1
2025-11-28T1500,1351A,113.2146,23.3916,广州市,花都师范,颗粒物(PM10),63,76,66,24,23,103,103,86,86,17,22,6,8,0.3,0.3
2025-11-28T1500,1352A,113.2597,23.1331,广州市,市监测站,颗粒物(PM10),73,95,85,30,30,121,121,90,90,20,45,8,9,0.4,0.4
2025-11-28T1500,1353A,113.5618,23.312,广州市,九龙镇镇龙,,,60,66,17,25,,,69,69,9,26,6,6,0.3,0.4
2025-11-28T1500,1354A,113.2765,23.1544,广州市,麓湖,颗粒物(PM10),63,76,62,27,26,112,112,80,80,16,40,9,9,0.5,0.6
2025-11-28T1500,1355A,113.443,23.3035,广州市,帽峰山森林公园,,,,,,,,,,,,,,,,
2025-11-28T1500,2846A,113.3221,23.1322,广州市,体育西,颗粒物(PM10),59,67,66,22,26,100,100,83,83,17,31,9,10,0.5,0.6
2025-11-28T1500,3298A,113.5717,23.5491,广州市,从化街口,颗粒物(PM10),62,73,68,28,28,103,103,79,79,9,29,7,7,0.4,0.5
2025-11-28T1500,3299A,113.3472,23.3692,广州市,白云竹料,颗粒物(PM10),64,77,71,22,25,114,114,94,94,9,27,5,6,0.4,0.5
2025-11-28T1500,3300A,113.2981,23.237,广州市,白云嘉禾,颗粒物(PM10),72,94,85,27,29,117,117,87,87,18,45,8,9,0.3,0.4
2025-11-28T1500,3301A,113.4256,23.1716,广州市,黄埔科学城,颗粒物(PM10),52,54,59,18,23,111,111,93,93,9,18,7,7,0.4,0.5
2025-11-28T1500,3302A,113.3942,23.0483,广州市,番禺大学城,颗粒物(PM10),56,62,54,23,26,110,110,90,90,12,24,11,10,0.3,0.3
2025-11-28T1500,3303A,113.4922,22.8168,广州市,南沙黄阁,颗粒物(PM10),62,74,78,13,10,138,138,93,93,24,42,12,12,0.3,0.3
2025-11-28T1500,3304A,113.5342,22.7896,广州市,南沙街,颗粒物(PM10),64,78,65,27,24,132,132,88,88,23,28,9,8,0.4,0.4
2025-11-28T1500,3443A,113.2902,23.5544,广州市,花都梯面,,,58,57,20,22,,,86,86,10,16,8,11,0.2,0.3
2025-11-28T1500,3445A,113.7858,23.7478,广州市,从化良口,颗粒物(PM10),54,57,51,26,17,97,97,90,90,8,9,8,8,0.3,0.4
2025-11-28T1500,3446A,113.8051,23.2614,广州市,增城荔城,颗粒物(PM10),53,56,59,22,23,106,106,90,90,8,16,6,6,0.4,0.4
2025-11-28T1500,2505A,109.568,23.1478,贵港市,德智高中,,,,,,,,,,,,,,,,
2025-11-28T1500,2506A,109.6047,23.0666,贵港市,江南子站,颗粒物(PM10),58,66,117,21,42,106,106,59,59,13,30,10,9,0.5,0.6
2025-11-28T1500,2508A,109.5669,23.1065,贵港市,荷城子站,颗粒物(PM10),54,58,83,17,23,98,98,81,81,9,11,6,6,0.4,0.4
2025-11-28T1500,3405A,109.5886,23.1172,贵港市,新世纪学校,颗粒物(PM10),57,63,89,25,27,107,107,80,80,7,9,7,6,0.2,0.3
2025-11-28T1500,4260A,109.5933,23.0951,贵港市,中山路155-3号,颗粒物(PM10),52,53,75,29,29,109,109,72,72,8,17,6,7,0.3,0.4
2025-11-28T1500,1439A,106.6899,26.5998,贵阳市,马鞍山,,48,48,65,19,41,104,104,46,46,14,31,13,7,0.3,0.6
2025-11-28T1500,1441A,106.6243,26.6266,贵阳市,鉴湖路,颗粒物(PM10),59,68,100,29,50,123,123,64,64,25,54,11,12,0.5,0.8
2025-11-28T1500,1442A,106.7487,26.6343,贵阳市,燕子冲,,45,41,66,31,51,114,114,58,58,14,31,10,9,0.1,0.5
2025-11-28T1500,1443A,106.6555,26.4365,贵阳市,碧云窝,颗粒物(PM10),56,61,104,22,62,106,106,61,61,10,27,11,14,4.1,1
2025-11-28T1500,1445A,106.7109,26.6027,贵阳市,红边门,颗粒物(PM10),52,53,86,29,54,112,112,53,53,15,50,12,31,0.2,0.7
2025-11-28T1500,1446A,106.7164,26.5699,贵阳市,新华路,颗粒物(PM10),54,58,96,27,48,117,117,3,,16,47,74,30,0.2,0.6
2025-11-28T1500,1447A,106.674,26.5424,贵阳市,太慈桥,颗粒物(PM10),53,56,79,22,49,106,106,53,53,14,35,11,8,0.2,0.5
2025-11-28T1500,1552A,106.805,26.3003,贵阳市,桐木岭,,44,44,62,14,35,102,102,91,91,2,5,10,22,0.4,0.8
2025-11-28T1500,4230A,106.6882,26.5695,贵阳市,花果园大街66号,,39,39,84,26,58,105,105,50,50,17,50,9,17,0.5,1
2025-11-28T1500,4231A,106.6873,26.5169,贵阳市,漓江路57号,,41,41,83,22,57,101,101,50,50,16,42,17,26,0.4,0.8
2025-11-28T1500,1862A,110.4144,25.3167,桂林市,电子科大尧山校区,,,,,,,,,,,,,,,,
2025-11-28T1500,1864A,110.3089,25.2708,桂林市,龙隐路小学,颗粒物(PM10),63,76,95,24,40,93,93,56,56,13,24,9,22,0.4,0.6
2025-11-28T1500,1865A,110.2869,25.2178,桂林市,八中,颗粒物(PM10),66,81,97,28,39,90,90,50,50,21,32,13,16,0.4,0.5
2025-11-28T1500,3531A,110.296,25.1253,桂林市,旅游学院,颗粒物(PM10),64,78,101,29,36,114,114,69,69,14,25,8,9,0.3,0.3
2025-11-28T1500,4222A,110.1835,25.2444,桂林市,环湖路276号,,,83,98,29,36,86,86,49,49,19,42,,24,0.3,0.4
2025-11-28T1500,4301A,110.2803,25.2773,桂林市,信义路13号,颗粒物(PM10),65,80,103,20,35,92,92,53,53,14,29,10,24,0.3,0.5
2025-11-28T1500,2674A,100.2561,34.4714,果洛藏族自治州,玛沁县大武镇,,29,29,45,3,8,90,90,54,54,2,10,7,9,0.3,0.4
2025-11-28T1500,1129A,126.5422,45.755,哈尔滨市,岭北,,,,,,,,,,,,,,,,
2025-11-28T1500,1130A,126.561,45.8167,哈尔滨市,松北商大,细颗粒物(PM2.5),59,50,53,42,41,57,57,40,40,28,44,7,7,0.6,0.8
2025-11-28T1500,1131A,126.979,45.5419,哈尔滨市,阿城会宁,,30,30,54,21,42,68,68,59,59,17,28,7,5,0.4,0.9
2025-11-28T1500,1132A,126.599,45.7222,哈尔滨市,南岗学府路,颗粒物(PM10),53,55,64,34,44,60,60,43,43,22,38,9,11,0.6,0.8
2025-11-28T1500,1133A,126.689,45.7733,哈尔滨市,太平宏伟公园,颗粒物(PM10),54,57,78,32,51,65,65,46,46,16,33,10,15,0.6,1
2025-11-28T1500,1134A,126.635,45.7667,哈尔滨市,道外承德广场,颗粒物(PM10),58,65,77,32,40,58,58,44,44,36,44,21,11,1.0,0.7
2025-11-28T1500,1135A,126.685,45.7319,哈尔滨市,香坊红旗大街,颗粒物(PM10),51,51,70,34,46,63,63,44,44,24,38,16,16,0.8,1
2025-11-28T1500,1136A,126.6411,45.7258,哈尔滨市,动力和平路,颗粒物(PM10),51,52,66,31,44,59,59,36,36,25,43,10,10,0.7,1
2025-11-28T1500,1137A,126.593,45.7478,哈尔滨市,道里建国路,,,,53,,42,48,48,38,38,37,44,22,15,0.6,1.5
2025-11-28T1500,1138A,126.615,45.61,哈尔滨市,平房东轻厂,,46,36,63,32,47,67,67,50,50,17,42,10,11,0.7,0.9
2025-11-28T1500,1139A,126.595,45.9855,哈尔滨市,呼兰师专,细颗粒物(PM2.5),62,61,90,44,72,53,53,37,37,28,46,12,13,0.8,1
2025-11-28T1500,1140A,126.6206,45.6842,哈尔滨市,省农科院,颗粒物(PM10),52,54,73,33,54,48,48,35,35,39,52,7,8,0.6,0.9
2025-11-28T1500,2688A,93.5128,42.8172,哈密市,地区监测站,颗粒物(PM10),238,376,236,92,68,56,56,48,47,15,30,8,10,0.1,0.3
2025-11-28T1500,2689A,93.4961,42.8328,哈密市,哈密师范学校,颗粒物(PM10),159,267,160,70,55,50,50,44,44,23,40,12,13,0.4,0.7
2025-11-28T1500,2671A,100.9048,36.9639,海北藏族自治州,海晏县西海镇,,29,12,16,8,11,92,92,73,73,1,3,7,9,0.3,0.3
2025-11-28T1500,3867A,102.0738,36.5056,海东市,平安区公安北苑,,28,28,67,10,15,84,84,43,43,14,26,14,15,0.7,1
2025-11-28T1500,1409A,110.576,19.9507,海口市,东寨港,,,,,,,,,,,,,,,,
2025-11-28T1500,1410A,110.3232,20.0574,海口市,海南大学,颗粒物(PM10),53,55,55,20,19,125,125,93,93,6,9,8,9,0.2,0.3
2025-11-28T1500,1411A,110.283,20.0053,海口市,秀英海南医院,颗粒物(PM10),53,56,53,18,20,122,122,90,90,7,12,10,11,0.2,0.2
2025-11-28T1500,1412A,110.338,19.9969,海口市,海南师范大学,颗粒物(PM10),53,55,52,20,18,129,129,98,98,8,10,8,9,0.3,0.3
2025-11-28T1500,1413A,110.33,20.0356,海口市,龙华路环保局宿舍,颗粒物(PM10),52,54,52,21,21,128,128,94,94,8,11,9,11,0.4,0.3
2025-11-28T1500,3539A,110.5111,19.9736,海口市,桂林洋子站,颗粒物(PM10),57,63,49,23,16,129,129,104,104,7,8,9,9,0.3,0.2
2025-11-28T1500,2673A,100.6188,36.2866,海南藏族自治州,共和县恰卜恰镇,,30,,29,16,18,93,93,58,58,3,22,10,11,0.4,0.6
2025-11-28T1500,2676A,97.3731,37.3753,海西蒙古族藏族自治州,德令哈市,,29,21,23,7,9,90,90,72,72,4,7,16,14,0.4,0.5
2025-11-28T1500,1048A,114.5302,36.6116,邯郸市,东污水处理厂,颗粒物(PM10),134,218,192,99,78,44,44,25,25,43,34,14,7,1.0,0.5
2025-11-28T1500,1049A,114.4918,36.5713,邯郸市,矿院,细颗粒物(PM2.5),144,192,169,110,76,59,59,28,28,44,37,14,7,0.9,0.5
2025-11-28T1500,1050A,114.484,36.6133,邯郸市,丛台公园,细颗粒物(PM2.5),149,206,178,114,75,36,36,27,27,48,29,14,5,1.0,0.5
2025-11-28T1500,3458A,114.7895,36.5593,邯郸市,香泉濮院小区,颗粒物(PM10),164,277,218,122,73,57,57,34,34,31,25,12,9,,0.5
2025-11-28T1500,3579A,114.50634,36.77178,邯郸市,永年区实验高中,颗粒物(PM10),103,156,164,60,57,47,47,30,30,40,36,11,7,0.7,0.6
2025-11-28T1500,3580A,114.20016,36.44293,邯郸市,峰峰矿区临水派出所,细颗粒物(PM2.5),134,168,160,102,78,52,52,40,40,49,30,19,15,0.9,0.9
2025-11-28T1500,2634A,106.9893,33.1842,汉中市,汉川机床厂子校,,,,,,,,,,,,,,,,
2025-11-28T1500,2635A,107.0154,33.0706,汉中市,市监测站,细颗粒物(PM2.5),83,114,151,61,72,82,82,37,37,24,37,10,6,0.7,1
2025-11-28T1500,2636A,107.0089,33.1138,汉中市,鑫源开发区,颗粒物(PM10),82,113,156,50,65,100,100,48,48,14,34,8,6,0.6,1.1
2025-11-28T1500,2637A,107.007,33.0323,汉中市,南郑大河坎水厂,细颗粒物(PM2.5),82,111,140,60,64,83,83,35,35,23,28,16,10,0.8,0.9
2025-11-28T1500,1223A,120.2072,30.2111,杭州市,滨江,颗粒物(PM10),126,201,276,48,62,70,70,44,44,25,43,8,8,0.3,0.6
2025-11-28T1500,1224A,120.0633,30.2747,杭州市,西溪,颗粒物(PM10),107,163,200,44,45,67,67,34,34,21,30,8,8,0.1,0.2
2025-11-28T1500,1226A,120.3417,30.3150,杭州市,下沙,颗粒物(PM10),130,209,291,74,79,62,62,42,42,37,51,8,8,0.4,0.5
2025-11-28T1500,1227A,120.1269,30.2456,杭州市,卧龙桥,颗粒物(PM10),106,161,187,43,47,65,65,37,37,21,23,9,8,0.2,0.3
2025-11-28T1500,1228A,120.1903,30.2692,杭州市,浙江农大,颗粒物(PM10),105,160,246,48,73,73,73,47,47,37,57,7,8,0.5,0.6
2025-11-28T1500,1230A,120.1197,30.3119,杭州市,和睦小学,颗粒物(PM10),104,157,246,72,66,69,69,39,39,21,40,10,10,0.4,0.5
2025-11-28T1500,1231A,120.3019,30.4183,杭州市,临平镇,颗粒物(PM10),122,194,305,45,67,68,68,42,42,22,40,7,7,0.4,0.5
2025-11-28T1500,1232A,120.2753,30.1839,杭州市,城厢镇,颗粒物(PM10),125,200,259,45,70,82,82,47,47,18,40,7,7,0.2,0.4
2025-11-28T1500,1233A,120.0883,30.1808,杭州市,云栖,颗粒物(PM10),130,209,204,65,56,58,58,36,36,37,27,4,3,0.5,0.6
2025-11-28T1500,3557A,119.9464,30.0494,杭州市,镇二中,颗粒物(PM10),78,105,198,26,47,74,74,40,40,18,35,5,6,0.5,0.5
2025-11-28T1500,3558A,119.7183,30.2367,杭州市,市府大楼,颗粒物(PM10),94,138,212,37,53,83,83,52,52,13,22,10,10,0.4,0.5
2025-11-28T1500,3656A,120.1556,30.2864,杭州市,消防大队,颗粒物(PM10),115,180,251,44,58,65,65,41,41,26,37,5,5,0.2,0.3
2025-11-28T1500,1270A,117.1959,31.7848,合肥市,明珠广场,颗粒物(PM10),108,166,243,46,52,86,86,52,52,22,33,9,8,0.6,0.6
2025-11-28T1500,1271A,117.3072,31.8764,合肥市,三里街,颗粒物(PM10),109,168,231,36,49,80,80,45,45,31,45,6,6,0.6,0.6
2025-11-28T1500,1272A,117.2588,31.8707,合肥市,琥珀山庄,颗粒物(PM10),119,188,238,54,64,95,95,62,62,17,33,7,6,0.5,0.5
2025-11-28T1500,1273A,117.1604,31.9052,合肥市,董铺水库,,,,,,,,,,,,,,,,
2025-11-28T1500,1274A,117.25,31.8571,合肥市,长江中路,颗粒物(PM10),136,222,257,48,57,94,94,60,60,20,26,8,7,0.5,0.5
2025-11-28T1500,1275A,117.266,31.9436,合肥市,庐阳区,颗粒物(PM10),115,180,257,44,55,95,95,58,58,23,37,7,6,0.5,0.5
2025-11-28T1500,1276A,117.3453,31.8616,合肥市,瑶海区,颗粒物(PM10),119,188,256,66,67,93,93,63,63,26,41,6,5,0.5,0.5
2025-11-28T1500,1277A,117.3027,31.7964,合肥市,包河区,颗粒物(PM10),115,180,245,36,51,95,95,67,67,9,30,8,6,0.6,0.6
2025-11-28T1500,1278A,117.2776,31.7385,合肥市,滨湖新区,颗粒物(PM10),117,183,270,41,57,96,96,70,70,15,29,7,5,0.6,0.6
2025-11-28T1500,1279A,117.1318,31.8403,合肥市,高新区,颗粒物(PM10),113,175,261,41,53,89,89,59,59,27,34,6,5,0.5,0.5
2025-11-28T1500,3464A,117.3803,31.9147,合肥市,高教基地,颗粒物(PM10),114,178,245,46,63,94,94,66,66,20,31,7,6,0.4,0.4
2025-11-28T1500,3614A,79.924,37.0877,和田地区,地区环保局,颗粒物(PM10),157,263,164,74,50,89,89,53,53,30,29,9,10,0.9,0.9
2025-11-28T1500,3615A,79.9131,37.113,和田地区,市环保局,颗粒物(PM10),121,192,154,82,52,84,84,41,41,43,54,7,6,2.3,2.4
2025-11-28T1500,2516A,108.2011,24.715,河池市,东仁乐园,,,,,,,,,,,,,,,,
2025-11-28T1500,2517A,108.0497,24.6947,河池市,市环保站,颗粒物(PM10),52,54,44,20,23,93,93,48,48,7,26,3,3,0.4,0.5
2025-11-28T1500,2518A,108.0983,24.6989,河池市,市疾控中心,,33,33,60,17,29,99,99,44,44,7,32,5,6,0.4,0.6
2025-11-28T1500,1696A,114.6778,23.7569,河源市,源西,,,,,,,,,,,,,,,,
2025-11-28T1500,1697A,114.6944,23.7586,河源市,东埔,颗粒物(PM10),63,76,70,26,25,101,101,85,85,11,15,6,8,0.4,0.4
2025-11-28T1500,1698A,114.6892,23.7233,河源市,老城,颗粒物(PM10),69,87,69,24,22,100,100,82,82,5,13,6,8,0.4,0.5
2025-11-28T1500,1718A,115.4208,35.2464,菏泽市,气象局,颗粒物(PM10),131,212,240,77,87,93,93,58,58,20,26,6,4,0.5,0.4
2025-11-28T1500,3374A,115.5564,35.0891,菏泽市,定陶老年大学,颗粒物(PM10),113,175,208,53,48,86,86,54,54,29,34,6,6,0.4,0.2
2025-11-28T1500,4184A,115.4797,35.24401,菏泽市,永昌路1号,颗粒物(PM10),120,190,223,61,64,76,76,48,48,25,31,6,3,0.4,0.3
2025-11-28T1500,4193A,115.4715,35.2800,菏泽市,长城路999号,颗粒物(PM10),123,196,239,56,52,86,86,54,54,25,27,3,3,0.5,0.4
2025-11-28T1500,2514A,111.5264,24.4172,贺州市,环保小区,颗粒物(PM10),63,76,78,29,35,115,115,72,72,12,25,6,6,0.5,0.6
2025-11-28T1500,2515A,111.5608,24.4078,贺州市,政协大楼,颗粒物(PM10),60,69,67,24,24,106,106,65,65,13,26,7,7,0.8,0.8
2025-11-28T1500,3534A,111.4744,24.4553,贺州市,西湾,颗粒物(PM10),65,80,73,31,26,108,108,67,67,11,22,7,7,0.4,0.6
2025-11-28T1500,2385A,114.17,35.9019,鹤壁市,市监测站,颗粒物(PM10),120,189,200,84,77,57,57,36,36,40,25,16,8,0.8,0.5
2025-11-28T1500,2386A,114.2956,35.7511,鹤壁市,市交警支队,,,,263,67,68,57,57,27,27,38,40,12,6,0.8,0.6
2025-11-28T1500,2387A,114.2878,35.7306,鹤壁市,迎宾馆,颗粒物(PM10),128,206,292,59,65,64,64,31,31,36,42,10,7,0.8,0.7
2025-11-28T1500,3474A,114.2617,35.6822,鹤壁市,大新区,颗粒物(PM10),140,229,286,71,82,68,68,36,36,36,48,9,7,0.7,0.6
2025-11-28T1500,3596A,114.1572,35.9603,鹤壁市,南山宾馆,颗粒物(PM10),147,243,252,73,54,58,58,44,44,41,21,10,7,0.7,0.5
2025-11-28T1500,2244A,130.2537,47.3416,鹤岗市,哈啤分公司,细颗粒物(PM2.5),55,39,31,39,28,44,44,54,53,34,12,19,14,0.7,0.6
2025-11-28T1500,2245A,130.2684,47.3086,鹤岗市,斯达机电,,47,47,36,31,23,61,61,57,56,21,12,14,13,0.7,0.7
2025-11-28T1500,2246A,130.3114,47.3388,鹤岗市,东山纸板厂,,32,28,31,22,26,51,51,48,48,30,21,18,15,0.4,1.1
2025-11-28T1500,2247A,130.1097,47.3382,鹤岗市,五号水库,,,,,,,,,,,,,,,,
2025-11-28T1500,2263A,127.4833,50.2524,黑河市,交通局,,,18,22,13,16,46,46,42,42,17,15,4,4,,0.3
2025-11-28T1500,2264A,127.5144,50.2341,黑河市,环保局,,26,23,27,18,21,47,47,34,34,12,15,9,6,0.4,0.5
2025-11-28T1500,2265A,127.5291,50.2472,黑河市,大黑河岛,,,,,,,,,,,,,,,,
2025-11-28T1500,1074A,115.6838,37.7541,衡水市,电机北厂,颗粒物(PM10),156,261,171,76,44,42,42,28,28,29,26,9,5,0.5,0.4
2025-11-28T1500,1075A,115.6303,37.7316,衡水市,市监测站,颗粒物(PM10),136,221,147,75,45,44,44,32,32,31,28,13,11,0.5,0.4
2025-11-28T1500,3188A,115.6683,37.7217,衡水市,市城管局,颗粒物(PM10),159,268,173,72,48,35,35,22,22,32,32,7,5,0.5,0.4
2025-11-28T1500,3459A,115.5989,37.5491,衡水市,地表水厂,颗粒物(PM10),155,259,167,110,54,52,52,34,34,31,36,15,9,0.6,0.4
2025-11-28T1500,2456A,112.5003,26.9167,衡阳市,原169医院,,,,,,,,,,,,,,,,
2025-11-28T1500,2457A,112.6194,26.9258,衡阳市,衡阳化工总厂,颗粒物(PM10),86,122,119,42,48,88,88,55,55,27,38,11,11,0.9,0.8
2025-11-28T1500,2458A,112.6211,26.8956,衡阳市,珠晖区环保局,颗粒物(PM10),78,106,110,42,43,90,90,54,54,20,40,10,8,1.2,1.1
2025-11-28T1500,2459A,112.6197,26.8733,衡阳市,市委党校,颗粒物(PM10),74,97,121,33,49,98,98,58,58,13,34,17,20,0.8,0.9
2025-11-28T1500,2460A,112.6006,26.8919,衡阳市,市监测站,,,126,137,41,51,,,49,49,23,44,12,11,,1.1
2025-11-28T1500,2461A,112.5664,26.9056,衡阳市,真空机电公司,颗粒物(PM10),76,101,126,29,46,89,89,47,47,17,37,9,11,0.6,0.9
2025-11-28T1500,3399A,112.6703,26.882,衡阳市,师范学院,颗粒物(PM10),81,111,133,30,42,110,110,68,68,15,30,13,14,0.8,0.9
2025-11-28T1500,2608A,103.3772,23.3993,红河哈尼族彝族自治州,污水处理厂,颗粒物(PM10),56,62,55,38,36,110,110,63,63,11,19,36,21,0.1,0.4
2025-11-28T1500,2609A,103.3861,23.35,红河哈尼族彝族自治州,监测站,细颗粒物(PM2.5),53,44,62,37,36,113,113,66,66,12,20,43,24,0.3,0.3
2025-11-28T1500,3038A,103.3758,23.368,红河哈尼族彝族自治州,州图书馆,细颗粒物(PM2.5),59,61,48,42,29,106,106,63,63,9,14,41,29,0.5,0.5
2025-11-28T1500,1090A,111.6507,40.7517,呼和浩特市,呼市一监,颗粒物(PM10),130,210,145,47,46,46,46,27,27,26,44,10,9,0.6,0.7
2025-11-28T1500,1091A,111.6572,40.8033,呼和浩特市,小召,,,,141,,49,,,21,,,53,,10,,0.6
2025-11-28T1500,1094A,111.7516,40.8369,呼和浩特市,如意水处理厂,颗粒物(PM10),110,170,139,55,50,35,35,20,20,35,50,14,11,0.5,0.6
2025-11-28T1500,1095A,111.7276,40.8062,呼和浩特市,二十九中,颗粒物(PM10),111,172,144,58,49,40,40,23,23,33,47,16,14,0.3,0.5
2025-11-28T1500,1096A,111.5512,40.7866,呼和浩特市,工大金川校区,颗粒物(PM10),124,198,160,55,47,32,32,20,20,42,53,20,13,0.5,0.6
2025-11-28T1500,1097A,111.717,40.7612,呼和浩特市,化肥厂生活区,颗粒物(PM10),115,179,153,52,51,47,47,25,25,29,47,10,9,0.6,0.8
2025-11-28T1500,3698A,111.5968,40.8178,呼和浩特市,红旗小学,颗粒物(PM10),137,224,151,54,48,27,27,20,20,41,43,27,15,0.5,0.7
2025-11-28T1500,3699A,111.6518,40.8389,呼和浩特市,海东办,颗粒物(PM10),128,205,153,53,48,28,28,19,19,38,45,18,10,0.4,0.6
2025-11-28T1500,3061A,119.7512,49.1577,呼伦贝尔市,国华电力东,,21,10,27,3,15,65,65,58,58,9,18,9,8,0.4,0.4
2025-11-28T1500,4279A,119.7569,49.2222,呼伦贝尔市,伊敏大街东7号,,21,21,33,8,17,58,58,51,51,6,16,4,5,0.4,0.5
2025-11-28T1500,1250A,120.0751,30.8669,湖州市,城西水厂,颗粒物(PM10),116,182,289,48,69,68,68,52,52,30,43,9,9,0.4,0.5
2025-11-28T1500,2873A,120.0830,30.8929,湖州市,仁皇山新区,颗粒物(PM10),117,183,276,49,70,66,66,50,50,36,42,7,9,0.2,0.4
2025-11-28T1500,2907A,120.1844,30.8596,湖州市,吴兴区站,颗粒物(PM10),115,179,267,48,65,69,69,46,46,28,39,6,7,0.6,0.5
2025-11-28T1500,3562A,120.4148,30.8538,湖州市,南浔区站,颗粒物(PM10),146,242,293,63,62,65,65,39,39,26,53,7,7,0.5,0.4
2025-11-28T1500,1607A,120.9049,40.7211,葫芦岛市,龙港区,颗粒物(PM10),83,115,85,19,46,62,62,34,34,18,43,11,14,0.5,0.9
2025-11-28T1500,1608A,120.8392,40.7514,葫芦岛市,化工街,颗粒物(PM10),108,166,93,36,37,60,60,33,33,20,48,16,27,0.4,0.8
2025-11-28T1500,1609A,120.8341,40.7073,葫芦岛市,新区,颗粒物(PM10),85,119,50,22,27,64,64,36,36,19,41,8,9,0.5,0.8
2025-11-28T1500,1610A,120.8695,40.7677,葫芦岛市,东城区,颗粒物(PM10),94,138,96,23,44,65,65,35,35,23,50,8,47,0.7,1.2
2025-11-28T1500,2482A,109.5981,27.5721,怀化市,林科所,,,,,,,,,,,,,,,,
2025-11-28T1500,2483A,109.9453,27.5444,怀化市,河西地税局,颗粒物(PM10),55,59,70,20,29,91,91,53,53,7,16,6,5,0.3,0.3
2025-11-28T1500,2484A,109.9781,27.5342,怀化市,市四医院,颗粒物(PM10),59,67,95,21,34,92,92,56,56,8,24,9,13,0.2,0.3
2025-11-28T1500,2485A,109.9972,27.5578,怀化市,监测楼,颗粒物(PM10),51,52,101,17,43,91,91,59,59,5,19,3,7,0.1,0.1
2025-11-28T1500,2486A,110.0394,27.583,怀化市,市委党校,,,,89,,39,,,46,,,25,,12,,0.5
2025-11-28T1500,1210A,119.036,33.5981,淮安市,钵池山,颗粒物(PM10),130,210,185,59,108,65,65,47,47,25,32,9,9,0.6,0.6
2025-11-28T1500,1211A,119.007,33.575,淮安市,北京南路,颗粒物(PM10),133,215,205,47,44,62,62,46,46,25,38,8,8,0.5,0.5
2025-11-28T1500,1212A,118.989,33.6067,淮安市,市监测站,颗粒物(PM10),133,215,202,48,42,67,67,50,50,28,37,10,9,0.7,0.8
2025-11-28T1500,1213A,119.135,33.5039,淮安市,楚州区监测站,颗粒物(PM10),142,234,210,50,44,66,66,40,40,24,50,10,9,0.9,0.9
2025-11-28T1500,3426A,118.8755,33.2894,淮安市,新华书店,颗粒物(PM10),112,173,241,47,55,63,63,45,45,26,37,12,11,0.8,0.7
2025-11-28T1500,4206A,119.0288,33.6319,淮安市,承德北路606号,颗粒物(PM10),135,219,203,49,41,64,64,49,49,23,30,,8,0.7,0.8
2025-11-28T1500,2282A,116.8004,33.975,淮北市,监测站,颗粒物(PM10),103,156,246,59,66,82,82,56,56,27,37,8,8,0.4,0.5
2025-11-28T1500,2283A,116.8091,33.9007,淮北市,烈山区政府,颗粒物(PM10),97,144,273,35,65,86,86,58,58,25,42,10,11,0.3,0.4
2025-11-28T1500,3330A,116.8873,33.9836,淮北市,杜集区检察院,颗粒物(PM10),88,125,229,49,70,88,88,65,65,18,26,6,6,0.3,0.3
2025-11-28T1500,4017A,116.7923,33.9535,淮北市,市博物馆,颗粒物(PM10),99,147,258,44,70,84,84,56,56,22,37,10,11,0.3,0.3
2025-11-28T1500,2277A,116.8305,32.7727,淮南市,潘集区政府,细颗粒物(PM2.5),189,168,255,142,78,68,68,47,47,26,29,5,6,0.5,0.6
2025-11-28T1500,2279A,116.8569,32.5951,淮南市,谢家集区政府,颗粒物(PM10),87,123,247,37,52,77,77,50,50,25,36,7,9,0.5,0.6
2025-11-28T1500,2280A,116.8281,32.633,淮南市,八公山区政府,颗粒物(PM10),89,128,238,34,51,79,79,50,50,18,26,6,6,0.4,0.4
2025-11-28T1500,2281A,116.6325,32.6201,淮南市,焦岗湖风景区管理处,,,,,,,,,,,,,,,,
2025-11-28T1500,2894A,117.0566,32.6531,淮南市,经济技术开发区消防队,颗粒物(PM10),104,157,245,51,61,82,82,49,49,23,39,7,6,0.3,0.4
2025-11-28T1500,3329A,117.0108,32.5893,淮南市,山南新区,颗粒物(PM10),127,203,324,54,74,85,85,55,55,25,35,4,4,0.3,0.3
2025-11-28T1500,4209A,117.0031,32.6445,淮南市,国庆中路369号,,,,203,,76,78,78,51,51,19,28,4,3,0.5,0.6
2025-11-28T1500,2446A,114.9028,30.4742,黄冈市,职工中心,颗粒物(PM10),68,85,118,33,41,84,84,60,60,22,27,9,9,2.1,0.7
2025-11-28T1500,2929A,114.8858,30.4519,黄冈市,红卫路,颗粒物(PM10),66,81,109,37,46,71,71,54,54,23,27,8,6,0.6,0.5
2025-11-28T1500,3398A,114.9136,30.4445,黄冈市,市林业局,颗粒物(PM10),75,99,145,35,40,80,80,60,60,26,29,5,5,0.6,0.5
2025-11-28T1500,2672A,102.0199,35.5102,黄南藏族自治州,同仁县隆务镇,,24,15,25,13,13,74,74,60,60,7,5,10,10,0.2,0.3
2025-11-28T1500,2295A,118.2903,29.6963,黄山市,延安路89号,颗粒物(PM10),87,123,143,48,56,90,90,53,53,9,14,4,4,0.3,0.3
2025-11-28T1500,2297A,118.1371,30.2756,黄山市,黄山区政府5号楼,颗粒物(PM10),63,76,153,30,47,88,88,57,57,3,7,6,6,0.6,0.5
2025-11-28T1500,4210A,118.3354,29.7203,黄山市,滨江东路7-2号,颗粒物(PM10),86,122,140,37,46,80,80,44,44,11,15,4,4,0.2,0.2
2025-11-28T1500,2423A,115.0601,30.2313,黄石市,沈家营,颗粒物(PM10),100,150,161,33,39,59,59,39,39,27,28,11,11,1.3,1.2
2025-11-28T1500,2426A,114.8988,30.2019,黄石市,铁山,颗粒物(PM10),63,75,145,30,60,76,76,48,48,22,42,17,9,0.4,0.6
2025-11-28T1500,2427A,115.0307,30.2092,黄石市,团城山,颗粒物(PM10),89,128,160,35,37,64,64,38,38,36,34,11,8,0.9,0.7
2025-11-28T1500,3149A,115.0235,30.1578,黄石市,笔架山北路,颗粒物(PM10),110,170,238,35,41,62,62,42,42,26,28,13,13,0.9,1
2025-11-28T1500,4185A,115.0780,30.21118,黄石市,磁湖东路29号,颗粒物(PM10),85,119,158,46,47,48,48,32,32,31,29,22,14,1.5,1
2025-11-28T1500,1392A,114.4183,23.0528,惠州市,河南岸金山湖子站,颗粒物(PM10),58,65,64,26,23,96,96,82,82,15,20,4,7,0.4,0.4
2025-11-28T1500,1393A,114.4053,23.0822,惠州市,下埔横江三路子站,颗粒物(PM10),58,65,66,22,23,111,111,95,95,6,9,6,8,0.5,0.5
2025-11-28T1500,1394A,114.4103,23.1142,惠州市,江北云山西路子站,颗粒物(PM10),58,65,66,20,22,117,117,101,101,10,13,6,7,0.4,0.5
2025-11-28T1500,1395A,114.4645,22.7833,惠州市,惠阳区承修路船湖子站,颗粒物(PM10),58,65,65,24,25,114,114,88,88,12,19,6,7,0.3,0.4
2025-11-28T1500,1396A,114.5317,22.7422,惠州市,大亚湾管委会子站,颗粒物(PM10),59,68,60,24,21,113,113,94,94,12,12,6,6,0.6,0.5
2025-11-28T1500,3314A,114.4338,22.8134,惠州市,惠阳秋长,颗粒物(PM10),58,66,65,25,24,111,111,96,96,9,13,12,11,0.3,0.3
2025-11-28T1500,3452A,114.6517,22.775,惠州市,大亚湾霞涌,颗粒物(PM10),59,68,65,27,26,113,113,100,100,9,11,7,7,0.6,0.6
2025-11-28T1500,2240A,130.9762,45.3001,鸡西市,环保局,细颗粒物(PM2.5),63,50,55,45,45,66,66,57,57,11,11,6,6,0.6,0.6
2025-11-28T1500,2243A,130.9429,45.3039,鸡西市,第一中学,细颗粒物(PM2.5),55,48,48,39,43,71,71,61,61,8,8,6,6,0.4,0.4
2025-11-28T1500,3707A,131.0207,45.3073,鸡西市,欧美日汽修厂,细颗粒物(PM2.5),62,54,61,44,54,63,63,48,48,14,18,8,10,0.5,0.8
2025-11-28T1500,3709A,130.9967,45.3106,鸡西市,市政设施管理处,细颗粒物(PM2.5),57,47,61,40,48,68,68,52,52,12,27,8,9,0.6,0.6
2025-11-28T1500,2367A,114.9754,27.0803,吉安市,红声器材厂,颗粒物(PM10),83,116,93,34,29,125,125,74,74,18,30,11,10,0.6,0.6
2025-11-28T1500,2368A,114.9658,27.0999,吉安市,市森林工业局,颗粒物(PM10),88,125,101,38,31,111,111,63,63,20,26,11,11,0.4,0.4
2025-11-28T1500,2369A,114.99,27.1312,吉安市,市环境监测站,颗粒物(PM10),75,100,90,23,28,109,109,63,63,11,17,15,17,0.4,0.4
2025-11-28T1500,2370A,115.0093,27.0968,吉安市,青原区法院,,,110,90,26,28,93,93,51,51,,35,11,12,0.5,0.6
2025-11-28T1500,1772A,126.54,43.8622,吉林市,哈达湾,,32,32,40,22,26,61,61,49,49,15,24,8,10,0.8,0.9
2025-11-28T1500,1773A,126.5844,43.8358,吉林市,东局子,,33,29,38,23,24,54,54,42,42,9,23,8,8,0.6,0.7
2025-11-28T1500,1774A,126.5052,43.8245,吉林市,电力学院,,28,22,47,19,34,66,66,45,45,12,26,8,8,0.7,1
2025-11-28T1500,1775A,126.6133,43.8972,吉林市,江北,,29,29,48,18,37,60,60,44,44,9,19,5,6,0.7,1.1
2025-11-28T1500,1776A,126.555,43.8306,吉林市,江南公园,,49,,31,34,27,60,60,46,46,15,26,6,7,0.4,0.6
2025-11-28T1500,1778A,126.7061,43.7133,吉林市,丰满,,32,,22,22,23,53,53,45,45,6,11,9,9,0.5,0.6
2025-11-28T1500,2868A,126.4739,43.953,吉林市,九站,,29,28,41,20,32,69,69,56,56,14,33,2,6,0.8,1
2025-11-28T1500,1299A,116.9862,36.6114,济南市,科干所,颗粒物(PM10),113,175,143,54,44,82,82,73,73,18,10,12,10,0.6,0.5
2025-11-28T1500,1300A,116.9376,36.665,济南市,农科所,颗粒物(PM10),120,190,152,51,31,74,74,66,66,26,20,12,10,0.5,0.5
2025-11-28T1500,1301A,117.1265,36.6734,济南市,开发区,颗粒物(PM10),108,166,137,51,33,86,86,75,75,16,15,7,5,0.6,0.6
2025-11-28T1500,1303A,117.0624,36.6868,济南市,省种子仓库,颗粒物(PM10),112,173,143,48,32,80,80,70,70,22,18,10,8,0.5,0.5
2025-11-28T1500,1304A,116.9489,36.6447,济南市,机床二厂,颗粒物(PM10),134,217,172,59,38,66,66,62,62,30,25,15,13,0.4,0.4
2025-11-28T1500,1305A,117.0495,36.663,济南市,市监测站,颗粒物(PM10),112,173,146,51,38,82,82,74,74,18,14,6,4,0.4,0.3
2025-11-28T1500,1306A,116.7675,36.5484,济南市,长清党校,颗粒物(PM10),123,195,191,61,34,81,81,65,65,23,17,12,10,0.6,0.6
2025-11-28T1500,1616A,117.6795,36.229,济南市,技术学院,颗粒物(PM10),128,205,134,56,39,82,82,52,52,24,44,19,17,0.5,0.7
2025-11-28T1500,1961A,117.532,36.6868,济南市,东山小学,颗粒物(PM10),133,215,159,54,32,89,89,74,74,17,17,12,10,0.5,0.6
2025-11-28T1500,3059A,117.7161,36.2049,济南市,泰兴公司,颗粒物(PM10),124,197,123,48,37,83,83,55,55,22,47,14,12,,0.4
2025-11-28T1500,3064A,117.6867,36.2171,济南市,莱芜战役纪念馆,颗粒物(PM10),122,193,121,53,41,82,82,52,52,23,41,18,14,0.4,0.6
2025-11-28T1500,3494A,117.1673,36.9782,济南市,济阳区政府,颗粒物(PM10),129,208,138,56,34,74,74,54,54,27,35,11,13,0.5,0.5
2025-11-28T1500,3495A,117.1171,36.63,济南市,锦屏中学,颗粒物(PM10),107,164,139,37,23,84,84,75,75,19,14,7,5,0.6,0.5
2025-11-28T1500,3682A,116.9814,36.6819,济南市,济南四建,颗粒物(PM10),122,193,153,51,31,73,73,66,66,24,17,10,8,0.4,0.4
2025-11-28T1500,1653A,116.6251,35.4302,济宁市,火炬城,颗粒物(PM10),125,200,231,80,71,92,92,55,55,22,29,9,7,0.1,0.2
2025-11-28T1500,1655A,116.5491,35.4042,济宁市,电化厂,颗粒物(PM10),112,173,218,68,62,90,90,62,62,30,31,8,6,0.4,0.3
2025-11-28T1500,3500A,116.5814,35.3707,济宁市,北湖一中,颗粒物(PM10),111,172,201,80,72,91,91,58,58,25,28,8,6,0.5,0.4
2025-11-28T1500,3501A,116.8249,35.5593,济宁市,服务中心,颗粒物(PM10),139,228,214,82,65,81,81,51,51,24,31,7,8,0.2,0.1
2025-11-28T1500,3678A,116.5907,35.4054,济宁市,市第七中学,颗粒物(PM10),130,210,234,63,56,97,97,60,60,26,32,6,5,0.4,0.5
2025-11-28T1500,2255A,130.2751,46.8028,佳木斯市,佳纺,细颗粒物(PM2.5),122,94,65,92,54,63,63,46,46,17,23,4,8,0.6,0.7
2025-11-28T1500,2256A,130.3995,46.8307,佳木斯市,发电厂,,,,44,,42,66,66,45,45,16,19,4,3,0.6,0.5
2025-11-28T1500,2257A,130.3258,46.7975,佳木斯市,环保局,细颗粒物(PM2.5),117,,54,88,50,63,63,45,45,18,25,4,5,0.5,0.5
2025-11-28T1500,2258A,130.3648,46.8032,佳木斯市,十一中,细颗粒物(PM2.5),98,,42,73,48,71,71,58,58,15,22,3,4,0.9,0.7
2025-11-28T1500,2259A,130.3794,46.7588,佳木斯市,四丰,,,,,,,,,,,,,,,,
2025-11-28T1500,1252A,120.7436,30.778,嘉兴市,清河小学,颗粒物(PM10),151,251,341,50,64,74,74,46,46,18,39,6,5,0.5,0.7
2025-11-28T1500,1253A,120.726,30.7478,嘉兴市,嘉兴学院,颗粒物(PM10),136,222,314,57,74,74,74,44,44,17,42,8,7,0.4,0.5
2025-11-28T1500,2872A,120.7846,30.7525,嘉兴市,南湖区残联,颗粒物(PM10),152,254,338,74,92,82,82,54,54,18,36,5,5,0.4,0.5
2025-11-28T1500,3407A,120.6916,30.7739,嘉兴市,秀洲住建,颗粒物(PM10),140,229,296,55,72,76,76,52,52,25,39,7,7,0.3,0.5
2025-11-28T1500,1945A,98.2908,39.7711,嘉峪关市,气象局,颗粒物(PM10),89,127,194,31,50,86,86,87,84,11,9,60,21,1.0,0.6
2025-11-28T1500,2884A,98.2672,39.7978,嘉峪关市,酒钢宾馆,颗粒物(PM10),125,200,193,29,34,84,84,82,73,6,9,135,30,1.1,0.6
2025-11-28T1500,3248A,98.2643,39.7724,嘉峪关市,雄关区,颗粒物(PM10),61,72,143,18,34,87,87,83,79,8,12,21,16,0.7,0.7
2025-11-28T1500,1383A,113.1064,22.6058,江门市,北街,颗粒物(PM10),66,81,68,28,25,109,109,82,82,27,39,9,9,0.5,0.5
2025-11-28T1500,1384A,113.0731,22.5835,江门市,西区,颗粒物(PM10),69,88,70,28,22,107,107,80,80,27,32,9,9,0.4,0.4
2025-11-28T1500,1385A,113.0219,22.5311,江门市,圭峰西,颗粒物(PM10),69,87,66,32,23,104,104,83,83,29,29,7,7,0.4,0.4
2025-11-28T1500,1386A,113.0828,22.5947,江门市,东湖,颗粒物(PM10),69,87,66,28,23,107,107,81,81,26,32,11,10,0.3,0.3
2025-11-28T1500,3311A,113.1075,22.5647,江门市,江海富民,,,62,58,27,18,110,110,85,85,30,36,12,12,,0.3
2025-11-28T1500,3449A,113.05,22.4667,江门市,新会银湖,颗粒物(PM10),66,81,65,31,26,98,98,74,74,25,35,8,8,0.4,0.4
2025-11-28T1500,1830A,113.1992,35.2590,焦作市,影视城,,,,173,,42,,,59,,,25,,23,,0.9
2025-11-28T1500,3335A,113.3137,35.2641,焦作市,马村街道办,颗粒物(PM10),98,146,198,65,68,60,60,37,37,29,29,15,11,0.7,0.7
2025-11-28T1500,3336A,113.2465,35.2373,焦作市,焦作技师学院,颗粒物(PM10),96,141,202,51,55,52,52,30,30,34,41,15,9,0.8,0.9
2025-11-28T1500,3477A,113.1656,35.2539,焦作市,中站许衡医院,颗粒物(PM10),106,162,171,61,51,43,43,36,36,50,32,25,15,0.9,0.6
2025-11-28T1500,3981A,113.2449,35.1803,焦作市,原李万街道办,颗粒物(PM10),97,144,230,68,63,73,73,39,39,22,36,11,9,0.5,0.6
2025-11-28T1500,4264A,113.2340,35.2190,焦作市,新安路1731号,颗粒物(PM10),103,156,221,57,80,54,54,30,30,33,47,18,13,0.7,0.9
2025-11-28T1500,4295A,113.2722,35.2121,焦作市,人民路3066号,颗粒物(PM10),92,134,217,41,54,66,66,35,35,23,40,11,8,0.6,0.8
2025-11-28T1500,1708A,116.3701,23.5345,揭阳市,新兴,颗粒物(PM10),59,68,58,30,29,115,115,71,71,17,26,11,12,0.5,0.5
2025-11-28T1500,1709A,116.3264,23.5443,揭阳市,西马,颗粒物(PM10),60,69,63,30,28,112,112,73,73,20,26,6,6,0.5,0.5
2025-11-28T1500,1710A,116.3611,23.5626,揭阳市,东兴,颗粒物(PM10),65,80,62,32,25,113,113,73,73,15,31,8,9,0.4,0.5
2025-11-28T1500,1711A,116.4151,23.5294,揭阳市,渔湖,颗粒物(PM10),58,66,52,24,24,114,114,91,91,12,18,11,12,0.5,0.4
2025-11-28T1500,3320A,116.403,23.5699,揭阳市,曲溪,颗粒物(PM10),51,52,54,31,24,120,120,90,90,10,15,7,3,0.4,0.4
2025-11-28T1500,1944A,102.1692,38.5167,金昌市,天庆家园,颗粒物(PM10),74,97,93,22,31,72,72,50,50,6,24,4,38,0.4,0.7
2025-11-28T1500,4022A,102.1647,38.5371,金昌市,金川区人防中心,颗粒物(PM10),69,88,76,27,32,68,68,48,48,4,16,2,35,0.4,0.6
2025-11-28T1500,4239A,102.1930,38.5319,金昌市,长春路96号,颗粒物(PM10),68,85,91,21,32,76,76,48,48,4,25,6,87,0.4,0.8
2025-11-28T1500,1262A,119.647,29.077,金华市,十五中,颗粒物(PM10),73,96,195,21,42,97,97,61,61,14,41,3,4,0.2,0.5
2025-11-28T1500,1263A,119.686,29.1029,金华市,监测站,颗粒物(PM10),72,93,209,20,44,88,88,50,50,10,47,3,4,0.2,0.3
2025-11-28T1500,3659A,119.656,29.1131,金华市,气象局,颗粒物(PM10),91,132,202,25,39,86,86,57,57,20,51,3,4,0.2,0.4
2025-11-28T1500,1767A,121.1115,41.0879,锦州市,南山,颗粒物(PM10),95,140,59,37,38,68,68,31,31,22,45,11,28,0.5,0.8
2025-11-28T1500,1768A,121.0604,40.8428,锦州市,开发区,颗粒物(PM10),88,126,97,32,41,52,52,24,24,28,53,12,24,0.5,0.9
2025-11-28T1500,1769A,121.1836,41.1119,锦州市,百股街道,颗粒物(PM10),99,148,65,34,42,66,66,30,30,19,47,15,40,0.6,0.9
2025-11-28T1500,1770A,121.1178,41.1222,锦州市,天安街道,,,132,62,,35,67,67,31,31,17,42,11,37,0.6,0.9
2025-11-28T1500,1771A,121.1303,41.1386,锦州市,北湖公园,颗粒物(PM10),93,136,64,26,39,66,66,33,33,20,40,11,31,0.6,0.8
2025-11-28T1500,2160A,112.85,35.5051,晋城市,自来水公司,颗粒物(PM10),80,110,207,51,66,74,74,42,42,36,44,8,10,1.2,1.4
2025-11-28T1500,2161A,112.8318,35.4936,晋城市,白云商贸,细颗粒物(PM2.5),168,139,194,127,64,68,68,36,36,34,23,,7,1.4,1.2
2025-11-28T1500,2162A,112.8508,35.4887,晋城市,市环保局,颗粒物(PM10),85,120,219,41,64,74,74,38,38,28,37,9,10,1.0,1.2
2025-11-28T1500,2163A,112.8676,35.4897,晋城市,技术学院,颗粒物(PM10),72,93,206,41,64,65,65,38,38,34,53,9,11,0.9,1.2
2025-11-28T1500,2165A,112.8453,35.546,晋城市,白马寺,细颗粒物(PM2.5),175,,149,132,61,78,78,61,61,21,18,9,14,1.0,1.1
2025-11-28T1500,3620A,112.8271,35.4828,晋城市,泽州一中,颗粒物(PM10),104,158,215,61,61,74,74,46,46,42,40,8,8,1.3,1.1
2025-11-28T1500,2173A,112.7249,37.7067,晋中市,南都小区,颗粒物(PM10),126,201,200,85,55,56,56,35,35,56,53,40,25,1.2,1.1
2025-11-28T1500,2174A,112.6991,37.6982,晋中市,榆次区政府,颗粒物(PM10),126,202,204,85,69,47,47,30,30,60,51,39,24,1.4,1.1
2025-11-28T1500,2865A,112.7195,37.6828,晋中市,榆次三中,颗粒物(PM10),135,219,206,75,56,54,54,32,32,52,47,40,22,1.4,1.1
2025-11-28T1500,4200A,112.7478,37.6954,晋中市,迎宾街26号,颗粒物(PM10),128,205,200,80,61,59,59,40,40,49,45,41,24,1.2,0.9
2025-11-28T1500,2439A,112.2014,31.0481,荆门市,竹园小学,颗粒物(PM10),70,89,157,48,58,97,97,58,58,17,32,3,7,0.3,0.4
2025-11-28T1500,2440A,112.1969,30.9891,荆门市,掇刀,颗粒物(PM10),71,91,150,47,56,98,98,61,61,10,23,6,5,0.3,0.4
2025-11-28T1500,2441A,112.2213,31.0386,荆门市,石化一小,颗粒物(PM10),73,96,170,51,54,92,92,55,55,18,41,7,9,0.4,0.8
2025-11-28T1500,3012A,112.1849,31.0362,荆门市,西山林语,颗粒物(PM10),66,81,123,42,50,95,95,62,62,12,19,5,5,0.4,0.4
2025-11-28T1500,3547A,112.1632,31.0138,荆门市,龙泉中学南校,颗粒物(PM10),74,97,155,43,52,92,92,59,59,14,21,8,8,0.2,0.3
2025-11-28T1500,1844A,112.2494,30.3197,荆州市,市图书馆,颗粒物(PM10),59,67,120,28,44,98,98,70,70,10,21,4,6,0.6,0.6
2025-11-28T1500,1845A,112.2008,30.3544,荆州市,市委党校,颗粒物(PM10),56,61,130,38,49,82,82,55,55,19,24,4,6,0.6,0.6
2025-11-28T1500,3194A,112.2747,30.3122,荆州市,管委会,细颗粒物(PM2.5),55,57,118,39,52,94,94,66,66,9,18,6,8,0.5,0.6
2025-11-28T1500,4268A,112.1722,30.3366,荆州市,学苑路85号,,49,49,119,29,44,102,102,68,68,19,22,1,1,0.7,0.7
2025-11-28T1500,2342A,117.3102,29.3867,景德镇市,王港中学,,,,,,,,,,,,,,,,
2025-11-28T1500,2343A,117.2117,29.2933,景德镇市,老干部活动中心,颗粒物(PM10),91,131,119,47,35,63,63,41,41,23,18,25,7,0.7,0.5
2025-11-28T1500,2344A,117.1894,29.2789,景德镇市,兽医站,颗粒物(PM10),102,153,139,30,26,62,62,44,44,47,29,34,9,0.5,0.3
2025-11-28T1500,2346A,117.2461,29.2956,景德镇市,陶研所,颗粒物(PM10),80,110,97,31,33,80,80,46,46,2,16,3,4,0.6,0.5
2025-11-28T1500,4289A,117.1542,29.2566,景德镇市,青少年活动中心,颗粒物(PM10),96,142,143,32,30,80,80,47,47,19,33,18,20,0.5,0.5
2025-11-28T1500,1803A,115.9872,29.6815,九江市,十里,颗粒物(PM10),83,116,131,22,38,91,91,43,43,20,47,6,6,0.7,0.8
2025-11-28T1500,1804A,115.9584,29.7046,九江市,茅山头,,,104,127,28,31,91,91,54,54,13,47,4,5,,0.6
2025-11-28T1500,1805A,115.9877,29.7295,九江市,西园,颗粒物(PM10),75,100,132,23,39,90,90,48,48,27,58,4,8,0.4,0.6
2025-11-28T1500,1808A,115.9114,29.6038,九江市,综合工业园,,,,137,,35,86,86,67,67,20,39,3,3,0.5,0.4
2025-11-28T1500,1809A,116.0721,29.7535,九江市,石化总厂,颗粒物(PM10),103,155,196,31,40,84,84,61,61,15,36,7,5,0.5,0.5
2025-11-28T1500,1810A,115.9773,29.5698,九江市,庐山气象台,,,,,,,,,,,,,,,,
2025-11-28T1500,3190A,116.0254,29.6994,九江市,外国语学校,颗粒物(PM10),88,125,144,23,36,77,77,48,48,17,43,5,7,0.7,0.7
2025-11-28T1500,4253A,116.0102,29.6594,九江市,莲花大道8号,颗粒物(PM10),85,120,128,28,29,83,83,46,46,20,27,4,5,0.3,0.3
2025-11-28T1500,4240A,98.4958,39.7339,酒泉市,玉门东路5号,颗粒物(PM10),162,273,236,12,32,96,96,84,84,2,7,9,12,0.2,0.3
2025-11-28T1500,4241A,98.5099,39.7506,酒泉市,北大街108号,颗粒物(PM10),198,346,209,28,29,91,91,78,76,2,10,8,12,0.4,0.4
2025-11-28T1500,2698A,76.0072,39.4467,喀什地区,巡警大队,颗粒物(PM10),115,179,245,73,90,54,54,13,13,49,65,10,13,1.2,2
2025-11-28T1500,2699A,75.9755,39.4694,喀什地区,吾办,颗粒物(PM10),109,167,197,80,85,58,58,16,16,51,63,7,5,1.2,2.1
2025-11-28T1500,4027A,75.9483,39.4689,喀什地区,老干局,颗粒物(PM10),101,152,219,61,86,61,61,22,22,46,56,9,9,1.5,2.9
2025-11-28T1500,1824A,114.3389,34.7781,开封市,肿瘤医院,颗粒物(PM10),126,201,268,50,58,88,88,48,48,24,32,10,9,0.5,0.5
2025-11-28T1500,1826A,114.2885,34.7965,开封市,世纪星幼儿园,颗粒物(PM10),119,187,259,76,73,88,88,48,48,25,32,12,10,0.6,0.5
2025-11-28T1500,3147A,114.3438,34.8106,开封市,龙亭公园,颗粒物(PM10),117,184,257,66,64,88,88,49,49,26,34,11,9,0.6,1
2025-11-28T1500,3210A,114.3644,34.7964,开封市,汴京公园,颗粒物(PM10),123,195,279,71,72,77,77,41,41,31,43,12,10,0.4,0.4
2025-11-28T1500,3473A,114.2485,34.8306,开封市,技师学院,颗粒物(PM10),119,187,252,67,70,88,88,47,47,31,35,10,8,0.7,0.6
2025-11-28T1500,3592A,114.4644,34.7556,开封市,祥符区生态环境局,颗粒物(PM10),121,191,281,67,74,82,82,50,50,33,45,8,7,0.4,0.3
2025-11-28T1500,1951A,84.895,45.6094,克拉玛依市,长征新村,,44,44,40,29,25,40,40,33,33,16,33,7,7,0.6,0.5
2025-11-28T1500,1952A,84.8988,45.5893,克拉玛依市,南林小区,,46,46,38,26,20,41,41,33,33,14,26,1,1,0.2,0.3
2025-11-28T1500,1954A,84.905,44.3396,克拉玛依市,独山子区,颗粒物(PM10),62,73,46,33,26,16,16,29,24,30,24,5,5,0.9,0.6
2025-11-28T1500,1955A,85.6979,46.098,克拉玛依市,乌尔禾区商贸楼,颗粒物(PM10),51,52,32,18,18,45,45,39,39,13,14,6,7,0.1,0.1
2025-11-28T1500,3612A,85.1045,45.6899,克拉玛依市,白碱滩区新站,,40,37,31,28,22,47,47,48,48,14,20,6,7,0.4,0.4
2025-11-28T1500,2697A,76.1454,39.7142,克孜勒苏柯尔克孜自治州,市人民政府,颗粒物(PM10),71,92,84,39,37,99,99,59,59,14,20,11,13,0.5,0.3
2025-11-28T1500,3665A,76.1658,39.7157,克孜勒苏柯尔克孜自治州,克州文化中心,,,,78,,32,90,90,53,53,,25,11,15,0.5,0.7
2025-11-28T1500,1450A,102.8204,24.8886,昆明市,呈贡新区,细颗粒物(PM2.5),69,,31,50,38,119,119,,,12,14,3,3,0.6,0.4
2025-11-28T1500,1451A,102.6251,24.9608,昆明市,西山森林公园,,,,,,,,,,,,,,,,
2025-11-28T1500,1452A,102.7252,25.0902,昆明市,龙泉镇,,38,31,41,26,22,113,113,52,52,22,34,6,3,0.6,0.6
2025-11-28T1500,1453A,102.7266,25.0375,昆明市,东风东路,颗粒物(PM10),53,56,61,31,31,119,119,55,55,22,38,8,3,0.6,0.5
2025-11-28T1500,1454A,102.6742,25.0669,昆明市,金鼎山,颗粒物(PM10),54,57,66,27,28,112,112,62,62,22,39,10,4,0.9,0.7
2025-11-28T1500,1455A,102.6644,25.0401,昆明市,碧鸡广场,颗粒物(PM10),52,53,57,30,28,113,113,61,61,24,47,10,4,0.7,0.5
2025-11-28T1500,3179A,102.7494,25.0119,昆明市,官渡区博物馆,,49,49,72,30,33,117,117,47,47,20,54,7,4,0.4,0.6
2025-11-28T1500,3375A,102.8017,24.8336,昆明市,青年创业园,,48,48,51,29,26,117,117,60,60,12,32,9,4,0.5,0.5
2025-11-28T1500,3550A,102.7997,24.9786,昆明市,昆明学院,,48,48,73,24,32,118,118,57,57,15,47,6,3,0.3,0.4
2025-11-28T1500,3551A,102.5967,24.6736,昆明市,晋宁区生态环境分局,细颗粒物(PM2.5),52,,60,36,40,110,110,59,59,22,36,2,2,0.5,0.5
2025-11-28T1500,3552A,102.6678,24.9856,昆明市,云天化总部,,48,48,51,28,26,120,120,59,59,19,42,11,6,0.5,0.5
2025-11-28T1500,1456A,91.1319,29.6514,拉萨市,八廓街,,,,29,33,19,100,100,70,70,,23,,12,0.4,0.5
2025-11-28T1500,1457A,91.1221,29.6747,拉萨市,市环保局,,30,19,42,8,24,93,93,54,54,12,26,11,12,0.5,1.1
2025-11-28T1500,1458A,91.0874,29.6475,拉萨市,区监测站,,30,19,24,10,15,96,96,63,63,12,36,12,11,0.4,0.7
2025-11-28T1500,1459A,91.1774,29.6541,拉萨市,西藏大学,,30,17,25,6,14,96,96,63,63,11,23,13,13,0.2,0.3
2025-11-28T1500,1460A,90.9798,29.6588,拉萨市,区辐射站,,28,26,40,13,24,88,88,46,46,20,39,10,10,0.4,0.7
2025-11-28T1500,1461A,91.0834,29.6292,拉萨市,拉萨火车站,,29,21,31,8,16,90,90,52,52,13,31,12,10,0.5,0.9
2025-11-28T1500,2520A,109.2203,23.7256,来宾市,来宾技工学校,颗粒物(PM10),60,69,76,25,34,108,108,64,64,8,19,8,14,0.4,0.5
2025-11-28T1500,3535A,109.1781,23.7297,来宾市,兴宾区政府,颗粒物(PM10),64,78,57,43,25,110,110,65,65,6,10,7,6,0.4,0.4
2025-11-28T1500,4002A,109.2416,23.7461,来宾市,中南小学,颗粒物(PM10),57,63,73,17,29,110,110,64,64,7,21,9,8,0.5,0.5
2025-11-28T1500,1477A,104.1373,35.9454,兰州市,榆中兰大校区,,,,,,,,,,,,,,,,
2025-11-28T1500,1479A,103.831,36.0464,兰州市,铁路设计院,,,,,,,,,,,,,,,,
2025-11-28T1500,3241A,103.7439,36.0842,兰州市,百合公园,颗粒物(PM10),65,80,111,37,51,71,71,30,30,54,75,27,13,0.7,1.5
2025-11-28T1500,3242A,103.9611,35.998,兰州市,和平,细颗粒物(PM2.5),67,78,98,48,49,70,70,30,30,37,48,15,18,1.1,1.6
2025-11-28T1500,4236A,103.6293,36.0938,兰州市,庄浪东路808号,细颗粒物(PM2.5),84,104,96,62,48,97,97,44,44,78,73,35,22,1.1,1.3
2025-11-28T1500,4237A,103.7251,36.1043,兰州市,安宁西路88号,颗粒物(PM10),72,94,102,51,49,82,82,39,39,53,62,28,16,1.0,1.2
2025-11-28T1500,4238A,103.8470,36.0676,兰州市,北滨河东路1号,细颗粒物(PM2.5),77,70,124,56,51,56,56,22,22,88,81,24,15,1.5,1.8
2025-11-28T1500,3245A,103.6633,36.533,兰州新区,新区管委会,,40,40,53,15,32,78,78,42,42,9,23,20,15,0.3,0.5
2025-11-28T1500,3246A,103.6975,36.4789,兰州新区,舟曲中学,,30,17,57,9,27,94,94,57,57,7,36,13,17,0.3,0.6
2025-11-28T1500,1067A,116.6708,39.5111,廊坊市,药材公司,颗粒物(PM10),108,165,79,67,40,35,35,18,18,46,49,11,12,0.6,0.7
2025-11-28T1500,1068A,116.7214,39.5589,廊坊市,开发区,颗粒物(PM10),118,186,85,63,38,34,34,18,18,50,52,10,6,0.5,0.5
2025-11-28T1500,1070A,116.7244,39.5269,廊坊市,北华航天学院,颗粒物(PM10),108,166,84,62,40,37,37,20,20,42,50,10,7,0.5,0.6
2025-11-28T1500,2919A,116.7022,39.5453,廊坊市,河北工业大学,颗粒物(PM10),105,160,78,62,38,34,34,18,18,40,42,10,7,0.5,0.5
2025-11-28T1500,2535A,103.7723,29.5462,乐山市,花湖湾,,,,,,,,,,,,,,,,
2025-11-28T1500,2536A,103.7627,29.5844,乐山市,牛耳桥,细颗粒物(PM2.5),107,91,77,80,64,83,83,26,26,22,34,8,7,0.8,0.9
2025-11-28T1500,2537A,103.7508,29.6006,乐山市,市第三水厂,细颗粒物(PM2.5),102,91,76,76,60,89,89,31,31,20,40,8,6,0.8,1.1
2025-11-28T1500,2538A,103.7571,29.5664,乐山市,市监测站,细颗粒物(PM2.5),90,91,76,67,61,93,93,25,25,15,30,7,6,0.8,1
2025-11-28T1500,3361A,103.7311,29.5628,乐山市,理工大学,细颗粒物(PM2.5),89,83,74,66,58,95,95,25,25,14,31,8,7,0.7,0.9
2025-11-28T1500,2598A,100.2143,26.8576,丽江市,西南郊,,,,,,,,,,,,,,,,
2025-11-28T1500,2599A,100.2497,26.8802,丽江市,丽江古城,,24,22,36,16,19,76,76,56,56,9,16,8,8,0.5,0.7
2025-11-28T1500,2600A,100.2203,26.8906,丽江市,市中心,,25,24,25,8,14,79,79,53,53,9,17,8,8,0.4,0.5
2025-11-28T1500,1267A,119.914,28.4514,丽水市,监测站大楼,颗粒物(PM10),65,80,95,20,35,96,96,57,57,14,30,5,6,0.2,0.5
2025-11-28T1500,1268A,119.93,28.4586,丽水市,莲都小学,,38,38,108,9,30,92,92,58,58,6,33,5,5,0.4,0.6
2025-11-28T1500,1269A,119.879,28.4231,丽水市,余庄前,颗粒物(PM10),53,56,76,17,32,92,92,56,56,11,18,4,4,0.2,0.3
2025-11-28T1500,1173A,119.176,34.5885,连云港市,市环境监测站,颗粒物(PM10),128,205,153,44,44,64,64,44,44,28,43,9,11,0.5,0.6
2025-11-28T1500,3000A,119.3581,34.6972,连云港市,德源药业,颗粒物(PM10),129,207,160,48,35,64,64,45,45,25,42,7,7,0.7,0.6
2025-11-28T1500,3007A,119.178,34.844,连云港市,新城一中,颗粒物(PM10),115,179,126,56,45,59,59,51,51,35,37,10,11,0.6,0.6
2025-11-28T1500,3008A,119.3608,34.7519,连云港市,胡沟管理处,颗粒物(PM10),115,180,151,41,32,67,67,58,58,24,31,8,9,0.7,0.6
2025-11-28T1500,3009A,119.1478,34.5911,连云港市,矿山设计院,颗粒物(PM10),131,212,147,39,37,69,69,51,51,33,26,9,7,0.9,0.6
2025-11-28T1500,3434A,119.2413,34.6539,连云港市,工贸学校,颗粒物(PM10),133,215,162,60,37,68,68,61,61,23,13,11,11,1.0,0.9
2025-11-28T1500,3664A,119.4172,34.7341,连云港市,连云街道,颗粒物(PM10),131,212,170,50,36,76,76,65,65,18,11,7,7,0.5,0.4
2025-11-28T1500,2571A,102.3431,27.8099,凉山彝族自治州,青龙寺,,,,,,,,,,,,,,,,
2025-11-28T1500,2572A,102.2721,27.8415,凉山彝族自治州,邛海宾馆,,37,37,30,16,19,106,106,56,56,6,14,10,9,0.7,0.8
2025-11-28T1500,2573A,102.2625,27.898,凉山彝族自治州,西昌市政府,,,51,38,37,27,84,84,45,45,19,15,,8,1.1,0.6
2025-11-28T1500,2574A,102.2685,27.8851,凉山彝族自治州,凉山州政府,,45,45,43,28,22,86,86,44,44,13,16,17,10,0.8,0.6
2025-11-28T1500,4229A,102.2342,27.8859,凉山彝族自治州,凯乐南路30号,颗粒物(PM10),51,52,60,31,34,92,92,39,39,25,37,17,8,1.2,0.8
2025-11-28T1500,2212A,123.2,41.1953,辽阳市,宏伟区,,32,32,25,16,12,57,57,54,54,11,13,4,4,0.4,0.5
2025-11-28T1500,2213A,123.1683,41.2495,辽阳市,新华园,,45,45,41,15,18,52,52,48,48,15,22,2,3,0.4,0.8
2025-11-28T1500,2214A,123.2354,41.2639,辽阳市,滨河路,,32,32,32,14,17,50,50,49,49,16,20,6,6,0.3,0.4
2025-11-28T1500,2215A,123.149,41.2991,辽阳市,铁西工业园,,32,32,40,18,23,54,54,59,59,12,24,8,7,0.5,0.9
2025-11-28T1500,2227A,125.1358,42.8845,辽源市,环保局,,44,44,92,10,39,66,66,47,47,17,28,4,5,0.5,0.8
2025-11-28T1500,3239A,125.0764,42.9078,辽源市,银鹰制药,,26,26,50,12,36,68,68,50,50,16,28,10,6,0.4,0.7
2025-11-28T1500,1625A,115.9848,36.4372,聊城市,区政府,颗粒物(PM10),142,234,223,69,51,78,78,52,52,31,32,13,11,0.6,0.6
2025-11-28T1500,2878A,116.0072,36.4343,聊城市,聊大东校,颗粒物(PM10),150,249,237,79,58,76,76,49,49,31,29,13,10,0.7,0.6
2025-11-28T1500,3200A,115.9819,36.4978,聊城市,监控中心,颗粒物(PM10),152,254,241,73,54,83,83,56,56,26,24,12,11,0.8,0.7
2025-11-28T1500,3513A,116.0445,36.4361,聊城市,九州社区,颗粒物(PM10),146,241,222,72,49,84,84,59,59,24,23,5,3,0.7,0.6
2025-11-28T1500,4018A,116.0567,36.4608,聊城市,星美广场,颗粒物(PM10),150,250,230,72,46,80,80,57,57,24,20,3,3,0.4,0.3
2025-11-28T1500,2632A,94.3681,29.6376,林芝市,林芝监测站,,24,8,18,3,12,76,76,53,53,5,16,9,8,0.2,0.4
2025-11-28T1500,2633A,94.3616,29.6616,林芝市,林芝人民医院,,,,21,,10,,,42,,,12,,2,,0.4
2025-11-28T1500,2603A,100.0781,23.8982,临沧市,市环保局,,31,19,30,17,37,98,98,63,63,2,7,4,4,0.5,0.7
2025-11-28T1500,2604A,100.0894,23.8822,临沧市,市气象局,,32,27,29,13,16,100,100,67,67,9,10,4,6,0.4,0.4
2025-11-28T1500,1733A,111.5531,36.0783,临汾市,临钢医院,颗粒物(PM10),156,261,301,72,63,64,64,30,30,36,36,13,6,1.3,1
2025-11-28T1500,1734A,111.5028,36.0714,临汾市,技工学校,颗粒物(PM10),154,257,293,89,80,61,61,31,31,36,42,15,9,1.1,0.8
2025-11-28T1500,1736A,111.5018,36.0855,临汾市,市委,颗粒物(PM10),167,283,326,91,66,63,63,30,30,37,44,18,12,1.3,1
2025-11-28T1500,3018A,111.505,36.1014,临汾市,唐尧大酒店,颗粒物(PM10),149,247,295,78,74,66,66,30,30,37,41,11,6,1.3,1.1
2025-11-28T1500,4244A,111.4879,36.0530,临汾市,启星学校,颗粒物(PM10),154,258,293,72,60,64,64,30,30,42,43,17,8,1.0,0.9
2025-11-28T1500,4271A,103.2464,35.6123,临夏回族自治州,滨河东路1号,,49,49,93,13,40,71,71,33,33,8,32,9,8,0.3,0.9
2025-11-28T1500,4310A,103.2093,35.5995,临夏回族自治州,新华街21号,,33,33,94,6,52,68,68,32,32,8,28,8,9,0.4,1.5
2025-11-28T1500,1618A,118.3429,35.0532,临沂市,沂河小区,颗粒物(PM10),112,173,184,48,54,76,76,48,48,26,42,16,17,0.5,0.6
2025-11-28T1500,1619A,118.295,35.0583,临沂市,鲁南制药厂,颗粒物(PM10),117,183,197,52,64,85,85,51,51,25,47,14,18,0.5,0.6
2025-11-28T1500,1620A,118.2794,34.9976,临沂市,新光毛纺厂,颗粒物(PM10),125,200,187,48,53,82,82,49,49,21,46,14,19,0.5,0.6
2025-11-28T1500,1621A,118.3956,35.0888,临沂市,河东保险公司,颗粒物(PM10),107,163,168,44,57,86,86,51,51,24,52,12,14,0.3,0.5
2025-11-28T1500,3370A,118.3564,35.0215,临沂市,十里堡居委,颗粒物(PM10),111,171,188,34,44,80,80,49,49,25,43,13,19,0.5,0.6
2025-11-28T1500,3496A,118.3604,35.1084,临沂市,南坊新区,颗粒物(PM10),113,175,172,44,46,83,83,51,51,24,44,16,16,0.6,0.6
2025-11-28T1500,3860A,118.3920,35.0300,临沂市,皇山花园小区,颗粒物(PM10),119,188,183,44,48,89,89,54,54,19,42,14,18,0.4,0.5
2025-11-28T1500,1870A,109.4856,24.3895,柳州市,柳东小学,颗粒物(PM10),63,76,76,34,33,115,115,79,79,6,10,9,15,0.3,0.3
2025-11-28T1500,1871A,109.4157,24.3277,柳州市,环保监测站,颗粒物(PM10),57,63,79,38,38,104,104,68,68,10,24,16,16,0.5,0.5
2025-11-28T1500,1872A,109.389,24.341,柳州市,河西水厂,颗粒物(PM10),64,77,94,33,40,106,106,63,63,12,32,15,18,0.7,0.7
2025-11-28T1500,1873A,109.4311,24.2921,柳州市,市四中,颗粒物(PM10),59,68,75,32,30,111,111,72,72,15,26,18,17,0.8,0.6
2025-11-28T1500,1874A,109.4006,24.3631,柳州市,市九中,细颗粒物(PM2.5),73,69,87,53,43,105,105,67,67,15,30,22,18,0.7,0.6
2025-11-28T1500,1875A,109.4958,24.3134,柳州市,古亭山,颗粒物(PM10),59,68,70,23,25,106,106,62,62,6,40,10,11,0.6,0.6
2025-11-28T1500,3402A,109.5422,24.3996,柳州市,市二中,颗粒物(PM10),58,66,68,30,31,117,117,70,70,10,23,10,8,1.0,0.7
2025-11-28T1500,2307A,116.5079,31.737,六安市,监测大楼,颗粒物(PM10),68,85,186,33,44,78,78,44,44,15,25,4,4,0.3,0.3
2025-11-28T1500,2308A,116.4738,31.7643,六安市,皖西学院,颗粒物(PM10),76,102,197,22,44,82,82,63,63,12,17,3,2,0.3,0.4
2025-11-28T1500,2309A,116.4996,31.7905,六安市,朝阳厂,颗粒物(PM10),62,73,164,23,43,72,72,45,45,20,25,4,4,0.3,0.3
2025-11-28T1500,2310A,116.5567,31.7886,六安市,开发区,,,,238,34,59,90,90,54,54,11,33,3,2,0.3,0.3
2025-11-28T1500,2576A,104.8,26.5892,六盘水市,窑上,,36,33,38,11,19,113,113,82,82,5,7,5,2,0.4,0.4
2025-11-28T1500,2577A,104.83,26.5917,六盘水市,黄土坡,,38,38,52,18,26,106,106,62,62,13,25,11,10,0.4,0.6
2025-11-28T1500,2578A,104.89,26.5939,六盘水市,水钢,,44,44,74,20,41,108,108,69,69,9,30,6,19,0.3,1
2025-11-28T1500,2579A,104.8475,26.5894,六盘水市,民中,,35,34,64,24,36,107,107,60,60,10,40,7,17,0.4,0.9
2025-11-28T1500,2580A,104.9544,26.5506,六盘水市,双水,,48,48,64,26,35,109,109,69,69,13,27,7,10,0.4,0.9
2025-11-28T1500,2335A,117.0189,25.1181,龙岩市,龙岩师专,,,,,,,,,,,,,,,,
2025-11-28T1500,2336A,117.0217,25.1033,龙岩市,龙岩市监测站,,47,47,42,19,19,105,105,81,81,9,18,11,13,0.3,0.3
2025-11-28T1500,2337A,117.0258,25.0661,龙岩市,闽西职业技术学院,,50,50,48,19,20,114,114,87,87,6,20,8,11,0.3,0.4
2025-11-28T1500,2338A,117.0196,25.0306,龙岩市,龙岩学院,,46,46,46,19,21,113,113,79,79,8,16,8,8,0.5,0.4
2025-11-28T1500,2665A,105.0822,33.3261,陇南市,汉王镇固水子,,,,,,,,,,,,,,,,
2025-11-28T1500,2885A,104.9339,33.3826,陇南市,滨江中学,颗粒物(PM10),60,70,119,25,50,60,60,32,32,20,44,6,20,0.7,2.1
2025-11-28T1500,3247A,104.955,33.371,陇南市,市总工会,细颗粒物(PM2.5),67,71,98,48,43,60,60,30,30,18,32,5,7,0.7,1
2025-11-28T1500,2487A,111.9589,27.8901,娄底市,电视发射台,,,,,,,,,,,,,,,,
2025-11-28T1500,2488A,111.9975,27.725,娄底市,市监测站,颗粒物(PM10),79,108,147,50,62,119,119,61,61,10,40,17,19,0.6,1
2025-11-28T1500,2489A,112.0194,27.7314,娄底市,市委党校,颗粒物(PM10),76,101,141,41,55,105,105,55,55,12,34,15,11,0.6,0.8
2025-11-28T1500,2490A,111.9561,27.7569,娄底市,涟钢,颗粒物(PM10),66,81,135,23,60,99,99,54,54,19,28,20,13,0.9,1.1
2025-11-28T1500,2491A,111.9892,27.7044,娄底市,市政府,,,111,131,20,59,109,109,69,69,,27,16,12,0.2,0.5
2025-11-28T1500,1893A,105.4324,28.9634,泸州市,九狮山,,,,,,,,,,,,,,,,
2025-11-28T1500,1894A,105.4427,28.9063,泸州市,小市上码头,细颗粒物(PM2.5),105,98,118,79,87,90,90,35,35,28,32,12,12,0.8,0.8
2025-11-28T1500,1895A,105.4241,28.8573,泸州市,兰田宪桥,细颗粒物(PM2.5),108,125,124,81,91,88,88,41,41,33,28,9,9,0.8,0.4
2025-11-28T1500,1896A,105.4379,28.8833,泸州市,市环监站,细颗粒物(PM2.5),110,104,117,83,82,95,95,34,34,34,33,9,9,0.7,0.7
2025-11-28T1500,4272A,105.3689,28.7783,泸州市,纳溪中医医院,细颗粒物(PM2.5),95,106,97,71,75,114,114,45,45,22,27,11,8,0.7,0.7
2025-11-28T1500,2183A,111.1406,37.5211,吕梁市,环保局,颗粒物(PM10),78,106,139,29,38,59,59,28,28,27,46,9,8,0.4,0.5
2025-11-28T1500,2185A,111.1297,37.5136,吕梁市,自来水公司,颗粒物(PM10),79,107,187,38,49,53,53,25,25,31,42,7,12,0.6,0.6
2025-11-28T1500,2867A,111.1283,37.51,吕梁市,马茂庄小学,颗粒物(PM10),92,134,184,30,51,56,56,26,26,27,44,9,13,0.5,0.6
2025-11-28T1500,1812A,112.3931,34.6516,洛阳市,市委党校,颗粒物(PM10),69,87,166,34,70,70,70,38,38,19,42,9,12,0.4,0.6
2025-11-28T1500,1815A,112.494,34.6886,洛阳市,河南林校,颗粒物(PM10),87,124,188,44,58,70,70,37,37,24,45,14,13,0.5,0.6
2025-11-28T1500,1816A,112.3844,34.623,洛阳市,开发区管委会,颗粒物(PM10),69,87,174,33,61,75,75,41,41,19,37,12,12,0.4,0.5
2025-11-28T1500,1817A,112.4267,34.6258,洛阳市,市委新办公区,颗粒物(PM10),73,96,174,28,54,76,76,41,41,18,40,10,11,0.4,0.5
2025-11-28T1500,3340A,112.6005,34.6326,洛阳市,伊滨,颗粒物(PM10),85,120,213,37,72,77,77,39,39,14,38,14,14,0.4,0.5
2025-11-28T1500,3341A,112.4951,34.6332,洛阳市,中移产业园,颗粒物(PM10),84,118,190,40,66,80,80,46,46,24,47,12,13,0.4,0.5
2025-11-28T1500,3593A,112.5736,34.8993,洛阳市,吉利监测站,颗粒物(PM10),98,145,195,58,53,70,70,45,45,37,41,11,8,0.5,0.5
2025-11-28T1500,3635A,112.3677,34.662,洛阳市,河科大西苑校区,颗粒物(PM10),70,89,193,30,54,67,67,35,35,21,44,9,12,0.5,0.8
2025-11-28T1500,3636A,112.4388,34.6781,洛阳市,英才小学,颗粒物(PM10),71,91,204,35,76,64,64,30,30,23,50,11,16,0.6,0.9
2025-11-28T1500,4214A,112.4600,34.6949,洛阳市,春都路1号院,颗粒物(PM10),86,122,217,31,57,63,63,31,31,22,44,12,16,0.5,0.7
2025-11-28T1500,2399A,114.051,33.5699,漯河市,三五一五工厂,颗粒物(PM10),73,96,230,29,59,90,90,60,60,7,28,6,7,0.5,0.5
2025-11-28T1500,2400A,114.0055,33.5698,漯河市,漯河大学,颗粒物(PM10),75,100,217,34,52,98,98,66,66,11,31,6,6,0.4,0.4
2025-11-28T1500,2401A,114.0138,33.5828,漯河市,市水利局,颗粒物(PM10),69,88,217,29,56,94,94,66,66,15,29,7,7,0.4,0.4
2025-11-28T1500,2402A,114.0261,33.5698,漯河市,市广电局,颗粒物(PM10),72,93,229,36,62,95,95,65,65,9,30,6,7,0.3,0.3
2025-11-28T1500,3478A,113.9749,33.5664,漯河市,市图书馆,颗粒物(PM10),79,107,234,29,56,86,86,61,61,12,27,5,6,0.4,0.5
2025-11-28T1500,4250A,114.0892,33.5882,漯河市,韶山路11号,颗粒物(PM10),73,96,230,50,60,88,88,57,57,14,34,7,7,0.3,0.4
2025-11-28T1500,1798A,118.5092,31.6837,马鞍山市,湖东路四小,颗粒物(PM10),109,167,251,40,63,78,78,54,54,20,37,4,5,0.6,0.8
2025-11-28T1500,1799A,118.5024,31.6449,马鞍山市,开发区,颗粒物(PM10),106,162,262,41,69,80,80,54,54,18,40,5,4,0.5,0.7
2025-11-28T1500,1802A,118.6245,31.7241,马鞍山市,濮塘,,,,,,,,,,,,,,,,
2025-11-28T1500,3633A,118.4918,31.6809,马鞍山市,雨山,颗粒物(PM10),104,157,251,42,61,82,82,55,55,20,38,6,6,0.5,0.7
2025-11-28T1500,4191A,118.5274,31.72227,马鞍山市,慈湖高新区,颗粒物(PM10),113,175,283,43,70,78,78,51,51,20,38,4,4,0.5,0.7
2025-11-28T1500,1686A,111.0286,21.4688,茂名市,电白南海,颗粒物(PM10),58,66,69,22,27,118,118,89,89,10,21,11,24,0.3,0.5
2025-11-28T1500,1687A,110.9294,21.6533,茂名市,茂石化七小,,48,48,59,14,22,111,111,87,87,8,18,11,19,0.4,0.5
2025-11-28T1500,1688A,110.9107,21.6687,茂名市,健康路,颗粒物(PM10),53,56,61,19,24,123,123,91,91,12,22,16,25,0.4,0.5
2025-11-28T1500,1689A,110.8592,21.6828,茂名市,高岭,颗粒物(PM10),62,73,87,24,28,112,112,84,84,19,28,12,24,0.5,0.5
2025-11-28T1500,3450A,111.01,21.5165,茂名市,电白水东,,48,48,52,14,19,113,113,86,86,9,16,8,11,0.3,0.4
2025-11-28T1500,2539A,104.0308,30.0478,眉山市,黑龙滩水库,,,,,,,,,,,,,,,,
2025-11-28T1500,2540A,103.8416,30.0874,眉山市,气象局,细颗粒物(PM2.5),98,89,95,73,82,110,110,44,44,19,37,13,13,0.7,1
2025-11-28T1500,3137A,103.8578,30.0744,眉山市,市委党校,细颗粒物(PM2.5),89,88,94,66,72,97,97,42,42,23,42,8,8,0.4,0.7
2025-11-28T1500,3148A,103.8291,30.0564,眉山市,区人社局,细颗粒物(PM2.5),94,86,99,70,78,102,102,38,38,20,43,11,10,1.1,1.4
2025-11-28T1500,1690A,116.1231,24.3284,梅州市,梅江月梅,颗粒物(PM10),51,52,57,26,24,106,106,77,77,13,22,6,7,0.5,0.5
2025-11-28T1500,1691A,116.0797,24.2719,梅州市,梅县新城,颗粒物(PM10),52,53,66,22,28,107,107,73,73,14,36,8,8,0.4,0.5
2025-11-28T1500,1692A,116.1248,24.2654,梅州市,环境监控中心,,48,48,60,21,28,103,103,74,74,11,36,6,18,0.5,0.6
2025-11-28T1500,3315A,116.1233,24.2991,梅州市,梅龙,,44,44,62,19,23,99,99,75,75,9,23,8,13,0.4,0.5
2025-11-28T1500,1878A,104.7778,31.4741,绵阳市,富乐山,细颗粒物(PM2.5),85,94,89,63,64,94,94,41,41,15,29,11,10,0.6,0.6
2025-11-28T1500,1880A,104.6697,31.4668,绵阳市,高新区自来水公司,细颗粒物(PM2.5),104,109,123,78,73,90,90,41,41,23,44,11,11,0.6,0.8
2025-11-28T1500,1881A,104.7287,31.5075,绵阳市,三水厂,细颗粒物(PM2.5),92,90,109,68,79,94,94,36,36,20,38,14,13,0.7,0.9
2025-11-28T1500,3491A,104.69,31.5322,绵阳市,西科大附属小学,细颗粒物(PM2.5),118,125,122,89,74,98,98,42,42,21,46,9,8,0.5,0.7
2025-11-28T1500,3492A,104.5648,31.5343,绵阳市,安州区旅游局,细颗粒物(PM2.5),100,80,93,75,74,94,94,46,46,23,35,12,8,0.7,0.8
2025-11-28T1500,4226A,104.7651,31.4531,绵阳市,绵阳市气象局,颗粒物(PM10),69,88,105,46,67,91,91,37,37,16,38,8,10,0.6,0.8
2025-11-28T1500,1784A,129.61,44.561,牡丹江市,环保大楼,,38,,41,26,39,58,58,47,47,16,19,8,8,0.5,0.5
2025-11-28T1500,1785A,129.6115,44.5782,牡丹江市,文化广场,,28,22,46,19,36,59,59,51,51,19,18,8,8,0.7,0.5
2025-11-28T1500,1786A,129.5904,44.5963,牡丹江市,第一医院,,50,,49,35,43,53,53,45,45,21,19,4,4,0.5,0.6
2025-11-28T1500,1787A,129.6364,44.6075,牡丹江市,机车工厂,,28,25,55,19,39,62,62,48,48,17,23,4,9,0.4,0.6
2025-11-28T1500,1788A,129.6386,44.5462,牡丹江市,第一中学,,29,23,43,20,40,56,56,49,49,20,15,4,4,0.3,0.4
2025-11-28T1500,2531A,105.0703,29.61,内江市,市监测站,细颗粒物(PM2.5),74,72,81,54,67,127,127,70,70,14,26,4,4,0.6,0.8
2025-11-28T1500,2532A,105.0717,29.5947,内江市,东兴区政府,细颗粒物(PM2.5),65,58,77,47,65,113,113,54,54,16,31,4,4,0.5,0.6
2025-11-28T1500,2533A,105.0653,29.5817,内江市,内江二中,细颗粒物(PM2.5),79,79,88,58,66,112,112,48,48,17,35,6,5,0.7,0.9
2025-11-28T1500,2534A,105.0406,29.5822,内江市,内江日报社,细颗粒物(PM2.5),79,64,82,58,64,124,124,54,54,17,41,4,4,0.5,0.6
2025-11-28T1500,2628A,92.0657,31.4846,那曲市,那曲监测站,,27,22,81,8,44,86,86,48,48,7,37,5,15,0.7,2.2
2025-11-28T1500,4243A,92.0515,31.4787,那曲市,那曲市委宣传部,,,6,47,3,28,87,87,41,41,1,28,4,9,,1.6
2025-11-28T1500,1290A,115.8931,28.6843,南昌市,省外办,,,,115,34,42,84,84,45,45,,52,,4,,1
2025-11-28T1500,1291A,115.8886,28.7003,南昌市,省林业公司,颗粒物(PM10),104,158,176,34,42,83,83,40,40,15,44,9,5,0.8,0.8
2025-11-28T1500,1292A,115.8126,28.7442,南昌市,林科所,颗粒物(PM10),102,153,153,39,32,94,94,52,52,16,37,11,5,0.3,0.3
2025-11-28T1500,1294A,115.8518,28.687,南昌市,建工学校,颗粒物(PM10),104,157,165,38,41,87,87,44,44,20,49,17,12,0.6,0.8
2025-11-28T1500,1295A,115.8921,28.6424,南昌市,象湖,颗粒物(PM10),84,118,136,34,41,84,84,47,47,22,47,13,10,0.7,0.8
2025-11-28T1500,1296A,115.7423,28.7996,南昌市,武术学校,,,,,,,,,,,,,,,,
2025-11-28T1500,3046A,115.9084,28.6062,南昌市,机电学校,颗粒物(PM10),98,145,175,34,44,94,94,57,57,17,40,15,10,0.4,0.6
2025-11-28T1500,3690A,115.9721,28.7031,南昌市,外国语学校,颗粒物(PM10),103,156,173,39,43,96,96,56,56,22,42,13,11,0.5,0.6
2025-11-28T1500,4192A,115.9316,28.68677,南昌市,南京东路235号,颗粒物(PM10),108,165,173,24,40,101,101,61,61,24,48,10,8,0.5,0.9
2025-11-28T1500,1905A,106.056,30.8064,南充市,西山风景区,,,,,,,,,,,,,,,,
2025-11-28T1500,1906A,106.0789,30.8023,南充市,南充市委,细颗粒物(PM2.5),90,94,95,67,63,77,77,33,33,18,33,6,5,0.6,0.7
2025-11-28T1500,1907A,106.1031,30.8217,南充市,南充炼油厂,细颗粒物(PM2.5),77,99,108,56,73,73,73,31,31,14,36,8,8,0.7,0.8
2025-11-28T1500,4227A,106.1083,30.7884,南充市,梨树横街98号,,,76,97,52,68,89,89,42,42,,38,7,6,0.5,0.7
2025-11-28T1500,4304A,106.1172,30.843,南充市,清泉寺北路188号,细颗粒物(PM2.5),84,91,83,62,60,77,77,32,32,13,21,6,6,0.5,0.5
2025-11-28T1500,4305A,106.067,30.7616,南充市,同庆路1号,颗粒物(PM10),75,100,98,51,64,79,79,41,41,18,38,7,7,0.7,0.8
2025-11-28T1500,1151A,118.8086,32.1065,南京市,迈皋桥,颗粒物(PM10),75,100,206,24,49,83,83,58,58,16,28,4,4,0.3,0.4
2025-11-28T1500,1152A,118.7538,32.0551,南京市,草场门,颗粒物(PM10),90,129,279,24,48,78,78,48,48,16,46,2,3,0.2,0.4
2025-11-28T1500,1153A,118.7794,32.0745,南京市,山西路,颗粒物(PM10),92,134,301,19,49,88,88,56,56,11,41,4,4,0.4,0.5
2025-11-28T1500,1154A,118.7752,32.0023,南京市,中华门,颗粒物(PM10),85,119,248,31,65,82,82,47,47,12,33,4,4,0.3,0.4
2025-11-28T1500,1155A,118.8109,32.0309,南京市,瑞金路,颗粒物(PM10),81,112,244,19,53,78,78,45,45,5,39,4,4,0.2,0.3
2025-11-28T1500,1156A,118.7997,32.0754,南京市,玄武湖,颗粒物(PM10),90,129,238,16,48,86,86,55,55,18,26,4,4,0,0.2
2025-11-28T1500,1157A,118.6414,32.0931,南京市,浦口,颗粒物(PM10),105,160,283,31,55,73,73,49,49,26,33,11,10,0.6,0.6
2025-11-28T1500,1158A,118.7356,31.9996,南京市,奥体中心,颗粒物(PM10),87,123,251,24,49,85,85,53,53,14,47,4,5,0.2,0.4
2025-11-28T1500,1159A,118.9125,32.1028,南京市,仙林大学城,颗粒物(PM10),107,163,294,34,58,77,77,48,48,14,40,5,5,0.4,0.5
2025-11-28T1500,3422A,118.8436,31.9198,南京市,江宁彩虹桥,颗粒物(PM10),100,150,253,31,50,103,103,66,66,12,43,4,4,0.2,0.5
2025-11-28T1500,3427A,118.8554,32.3578,南京市,六合雄州,,,,274,,47,77,77,48,48,22,39,4,9,0.3,0.4
2025-11-28T1500,4249A,118.8708,31.3402,南京市,汶溪路181号,颗粒物(PM10),83,115,218,38,61,91,91,66,66,18,35,6,6,0.3,0.4
2025-11-28T1500,4312A,119.019,31.6512,南京市,中山西路1号,颗粒物(PM10),80,110,193,37,66,85,85,53,53,15,34,3,4,0.4,0.6
2025-11-28T1500,1401A,108.3103,22.7881,南宁市,二十一中,颗粒物(PM10),67,83,64,39,34,94,94,47,47,20,39,9,13,0.4,0.5
2025-11-28T1500,1402A,108.3141,22.8528,南宁市,北湖,颗粒物(PM10),56,62,71,26,31,96,96,53,53,19,47,11,13,0.5,0.6
2025-11-28T1500,1403A,108.3206,22.8225,南宁市,市监测站,颗粒物(PM10),68,85,73,33,31,89,89,45,45,29,46,13,14,0.5,0.6
2025-11-28T1500,1404A,108.3829,22.8037,南宁市,大自然花园,颗粒物(PM10),65,80,71,38,30,87,87,39,39,29,40,10,10,0.4,0.5
2025-11-28T1500,1405A,108.4394,22.7904,南宁市,仙葫,,,,,,,,,,,,,,,,
2025-11-28T1500,1406A,108.2397,22.8467,南宁市,区农职院,颗粒物(PM10),55,60,62,30,32,96,96,53,53,12,29,7,13,0.9,0.7
2025-11-28T1500,1407A,108.3275,22.735,南宁市,英华嘉园,颗粒物(PM10),70,90,66,40,31,88,88,49,49,24,37,8,9,0.2,0.8
2025-11-28T1500,3401A,108.4834,22.7618,南宁市,红星社区,颗粒物(PM10),53,56,63,21,30,111,111,48,48,12,31,7,8,0.3,0.5
2025-11-28T1500,4221A,108.2177,22.7774,南宁市,乐贤路16号,颗粒物(PM10),61,71,74,34,34,102,102,54,54,14,34,10,8,0.3,0.4
2025-11-28T1500,2331A,118.0966,26.6761,南平市,茫荡山,,,,68,,19,,,136,,,,,2,,0.3
2025-11-28T1500,2332A,118.1681,26.6369,南平市,南平市监测站,,48,48,50,19,28,111,111,64,64,9,26,6,4,0.5,0.5
2025-11-28T1500,2333A,118.1825,26.6489,南平市,南平铝业有限公司,颗粒物(PM10),58,66,56,20,31,108,108,60,60,11,32,6,7,0.4,0.5
2025-11-28T1500,2334A,118.1756,26.6272,南平市,南平七中,颗粒物(PM10),64,78,54,19,28,109,109,64,64,11,20,7,6,0.4,0.5
2025-11-28T1500,1168A,120.9098,31.9663,南通市,狼山街道,颗粒物(PM10),148,245,179,58,38,55,55,40,40,42,30,6,4,0.7,0.5
2025-11-28T1500,1169A,120.86,32.0005,南通市,虹桥,颗粒物(PM10),128,205,166,52,42,50,50,38,38,51,33,6,6,0.4,0.2
2025-11-28T1500,1170A,120.87,32.02,南通市,城中,颗粒物(PM10),150,250,206,49,39,50,50,39,39,49,35,7,8,0.7,0.6
2025-11-28T1500,1171A,120.94,31.93,南通市,星湖花园,颗粒物(PM10),146,241,192,56,46,63,63,43,43,36,35,6,5,0.5,0.4
2025-11-28T1500,1172A,120.81,32.0417,南通市,紫琅学院,颗粒物(PM10),149,248,209,52,36,49,49,39,39,51,40,6,5,0.6,0.6
2025-11-28T1500,3291A,121.067,32.062,南通市,通州监测站,颗粒物(PM10),126,202,160,46,39,50,50,47,47,58,37,10,5,0.4,0.4
2025-11-28T1500,3432A,120.9348,31.9883,南通市,环境教育馆,颗粒物(PM10),133,215,184,47,39,55,55,37,37,49,39,8,7,0.6,0.4
2025-11-28T1500,2404A,112.5224,33.0122,南阳市,瓦房庄,颗粒物(PM10),83,116,154,48,53,80,80,50,50,17,23,8,9,0.4,0.5
2025-11-28T1500,2405A,112.5003,32.9735,南阳市,汉画馆,颗粒物(PM10),85,120,171,48,53,83,83,46,46,16,28,7,8,0.5,0.6
2025-11-28T1500,2406A,112.5573,33.027,南阳市,气象站,颗粒物(PM10),97,144,195,41,45,82,82,51,51,19,26,10,11,0.6,0.6
2025-11-28T1500,2407A,112.5481,32.9689,南阳市,理工学院,颗粒物(PM10),84,118,165,41,47,82,82,47,47,15,25,7,7,0.6,0.7
2025-11-28T1500,4008A,112.5234,32.9922,南阳市,卧龙区政府,颗粒物(PM10),90,130,185,52,51,72,72,44,44,22,28,7,8,0.5,0.6
2025-11-28T1500,1234A,121.8358,29.911,宁波市,区环保大楼,颗粒物(PM10),175,299,363,54,59,56,56,44,44,80,45,21,9,1.3,0.8
2025-11-28T1500,1235A,121.56,29.82,宁波市,万里学院,颗粒物(PM10),115,179,281,46,56,83,83,50,50,18,39,5,5,0.3,0.4
2025-11-28T1500,1236A,121.713,29.9572,宁波市,龙赛医院,颗粒物(PM10),140,230,377,48,64,62,62,44,44,42,37,7,4,0.6,0.5
2025-11-28T1500,1239A,121.633,29.7733,宁波市,钱湖水厂,颗粒物(PM10),117,184,236,40,57,82,82,56,56,14,34,5,6,0.4,0.7
2025-11-28T1500,1240A,121.5856,29.8635,宁波市,太古小学,颗粒物(PM10),122,193,319,52,66,82,82,50,50,19,35,3,3,0.3,0.5
2025-11-28T1500,1241A,121.524,29.8674,宁波市,市环境监测中心,颗粒物(PM10),117,184,275,47,57,78,78,6,,19,38,7,7,0.6,0.7
2025-11-28T1500,2871A,121.6147,29.9017,宁波市,万里国际学校,颗粒物(PM10),115,180,275,47,61,76,76,46,46,23,44,4,4,0.5,0.6
2025-11-28T1500,3710A,121.5594,29.8975,宁波市,白沙活动中心,颗粒物(PM10),119,188,266,41,52,78,78,53,53,21,36,5,5,0.6,0.6
2025-11-28T1500,2339A,119.5001,26.6946,宁德市,金涵水库,,,,66,,27,,,55,,,13,,2,,0.4
2025-11-28T1500,2341A,119.5388,26.6612,宁德市,宁德市监测站,颗粒物(PM10),70,90,63,23,24,124,124,84,84,14,18,14,8,0.7,0.5
2025-11-28T1500,3209A,119.5231,26.6562,宁德市,宁德一中,颗粒物(PM10),74,97,67,38,28,118,118,85,85,11,15,12,8,0.6,0.5
2025-11-28T1500,2618A,98.8601,25.8567,怒江傈僳族自治州,州监测站,,25,25,34,13,22,74,74,43,43,6,13,6,7,0.3,0.4
2025-11-28T1500,2619A,98.8546,25.8417,怒江傈僳族自治州,泸水一中,,35,35,31,24,20,56,56,30,30,16,22,5,5,0.3,0.4
2025-11-28T1500,1888A,101.6891,26.571,攀枝花市,弄弄坪,细颗粒物(PM2.5),58,45,42,41,25,88,88,36,36,23,27,18,17,1.1,1.3
2025-11-28T1500,1889A,101.5769,26.5928,攀枝花市,河门口,,,41,36,24,19,76,76,36,36,,22,38,18,2.6,1.2
2025-11-28T1500,1890A,101.7169,26.585,攀枝花市,炳草岗,,44,44,56,22,26,90,90,33,33,18,39,16,11,1.0,1
2025-11-28T1500,1891A,101.7369,26.5008,攀枝花市,仁和,细颗粒物(PM2.5),68,70,38,49,24,98,98,54,54,18,18,38,13,1.1,0.9
2025-11-28T1500,2835A,101.7227,26.567,攀枝花市,四十中小,颗粒物(PM10),51,52,49,33,28,88,88,33,33,20,41,21,12,1.1,1
2025-11-28T1500,1604A,122.0303,41.1489,盘锦市,开发区,,,60,55,20,29,59,59,40,40,,30,,7,0.6,0.8
2025-11-28T1500,1605A,122.0485,41.0883,盘锦市,兴隆台,,40,40,54,18,28,60,60,38,38,20,38,10,11,0.4,0.8
2025-11-28T1500,1606A,121.8297,41.1028,盘锦市,新生街道,,44,44,46,13,32,64,64,38,38,21,36,10,13,0.3,0.5
2025-11-28T1500,1832A,113.3257,33.742,平顶山市,新华旅馆,颗粒物(PM10),122,194,171,34,50,85,85,66,66,15,26,8,8,0.5,0.4
2025-11-28T1500,1833A,113.2919,33.737,平顶山市,规划设计院,颗粒物(PM10),88,125,169,41,52,88,88,68,68,21,31,6,6,0.4,0.5
2025-11-28T1500,1834A,113.182,33.774,平顶山市,平顶山工学院,细颗粒物(PM2.5),85,116,155,63,57,88,88,64,64,18,25,8,8,0.6,0.6
2025-11-28T1500,3204A,113.3025,33.73,平顶山市,规划局,颗粒物(PM10),93,136,179,34,45,86,86,67,67,19,27,7,7,0.6,0.5
2025-11-28T1500,3594A,112.8867,33.9116,平顶山市,石龙区,颗粒物(PM10),95,140,221,36,52,94,94,57,57,14,44,7,6,0.5,0.5
2025-11-28T1500,2656A,106.6692,35.5461,平凉市,聚贤嘉苑,,45,45,49,14,21,86,86,59,59,5,29,4,5,0.3,0.4
2025-11-28T1500,2657A,106.7021,35.5307,平凉市,博物馆,,45,45,53,9,23,92,92,58,58,5,27,11,12,0.3,0.7
2025-11-28T1500,2347A,114.0997,27.5002,萍乡市,武功山,,,,,,,,,,,,,,,,
2025-11-28T1500,2348A,113.8385,27.6434,萍乡市,中医院,颗粒物(PM10),77,104,106,22,32,93,93,47,47,20,36,11,8,1.1,1
2025-11-28T1500,2349A,113.8493,27.6253,萍乡市,市政府车库,颗粒物(PM10),68,86,90,35,36,98,98,55,55,20,28,13,10,0.9,0.9
2025-11-28T1500,2350A,113.8676,27.6435,萍乡市,市环保局,颗粒物(PM10),77,103,100,26,35,116,116,61,61,14,30,16,18,0.8,0.9
2025-11-28T1500,2351A,113.866,27.6198,萍乡市,安源区政府,颗粒物(PM10),66,81,89,34,42,82,82,43,43,22,26,14,11,0.9,1
2025-11-28T1500,2319A,119.0141,25.4325,莆田市,荔城区仓后路,颗粒物(PM10),90,129,96,40,34,116,116,101,101,14,13,5,4,0.4,0.4
2025-11-28T1500,2320A,119.0015,25.4553,莆田市,莆田市监测站,颗粒物(PM10),81,111,82,33,28,122,122,105,105,14,12,6,5,0.4,0.4
2025-11-28T1500,2321A,119.1119,25.4561,莆田市,涵江区六中,颗粒物(PM10),86,121,96,34,30,117,117,99,99,11,12,4,4,0.4,0.4
2025-11-28T1500,2322A,119.1013,25.3215,莆田市,秀屿区政府,颗粒物(PM10),107,164,110,52,39,120,120,98,98,13,16,5,5,0.4,0.5
2025-11-28T1500,2323A,118.981,25.4792,莆田市,东圳水库,,,,62,,24,,,105,,,11,,5,,1.0
2025-11-28T1500,2392A,115.0312,35.7636,濮阳市,环保局,颗粒物(PM10),109,168,194,54,49,52,52,32,32,20,28,9,9,0.9,0.8
2025-11-28T1500,2394A,115.0574,35.7609,濮阳市,油田运输公司,颗粒物(PM10),107,164,184,61,54,70,70,41,41,30,33,10,9,0.7,0.7
2025-11-28T1500,3021A,115,35.7668,濮阳市,濮水河管理处,颗粒物(PM10),119,187,203,74,66,68,68,41,41,20,23,9,9,0.7,0.6
2025-11-28T1500,4216A,115.0924,35.7686,濮阳市,任丘路479号,颗粒物(PM10),117,184,212,54,53,65,65,37,37,20,28,8,7,0.8,0.7
2025-11-28T1500,2601A,100.98,22.7633,普洱市,市环保局,,40,40,52,15,22,93,93,62,62,9,10,7,6,0.2,0.2
2025-11-28T1500,2602A,100.9817,22.8322,普洱市,普洱第二中学,,,41,47,14,21,84,84,53,53,,19,6,5,0.0,0.2
2025-11-28T1500,2262A,131.0518,45.8751,七台河市,新一中,,,,,,,,,,,,,,,,
2025-11-28T1500,3345A,131.0577,45.7879,七台河市,中波台,细颗粒物(PM2.5),112,89,81,84,74,62,62,48,48,14,16,7,7,0.5,0.5
2025-11-28T1500,3637A,131.0176,45.7761,七台河市,人民广场,细颗粒物(PM2.5),134,110,92,102,81,50,50,41,41,28,25,14,8,0.6,0.6
2025-11-28T1500,3684A,130.8781,45.8222,七台河市,新建矿广场,细颗粒物(PM2.5),104,97,88,78,68,63,63,48,48,14,16,6,7,0.5,0.5
2025-11-28T1500,1779A,123.9305,47.3636,齐齐哈尔市,安居小区,,44,44,48,23,20,48,48,37,37,18,19,11,11,0.4,0.5
2025-11-28T1500,1780A,123.9488,47.3386,齐齐哈尔市,中心广场,,47,47,46,17,21,45,45,34,34,20,23,9,9,0.4,0.4
2025-11-28T1500,1781A,123.9483,47.3227,齐齐哈尔市,农牧车辆厂,颗粒物(PM10),51,51,64,24,23,44,44,28,28,12,19,6,6,0.5,0.6
2025-11-28T1500,1783A,123.945,47.2988,齐齐哈尔市,市环境监测站,,41,41,52,23,23,49,49,35,35,14,18,7,7,0.6,0.7
2025-11-28T1500,3662A,123.6333,47.2075,齐齐哈尔市,富区青少年活动中心,,39,39,63,12,26,44,44,32,32,14,21,5,7,0.6,0.9
2025-11-28T1500,2591A,107.9783,26.5747,黔东南苗族侗族自治州,市环境监测站,,40,40,47,25,33,86,86,46,46,21,27,5,5,0.5,0.5
2025-11-28T1500,2881A,107.8908,26.5311,黔东南苗族侗族自治州,凯里学院,颗粒物(PM10),52,53,51,23,30,105,105,50,50,13,19,6,6,0.5,0.5
2025-11-28T1500,2593A,107.5228,26.2403,黔南布依族苗族自治州,小围寨,,31,31,44,9,27,94,94,51,51,2,15,6,6,0.4,0.5
2025-11-28T1500,3538A,107.5175,26.2978,黔南布依族苗族自治州,沙坝,,31,31,52,14,29,92,92,46,46,7,15,4,5,0.5,0.7
2025-11-28T1500,2589A,104.9022,25.0925,黔西南布依族苗族自治州,场坝街,,25,16,51,12,39,79,79,55,55,9,20,3,18,0.4,0.5
2025-11-28T1500,2590A,104.8811,25.0992,黔西南布依族苗族自治州,坪东大道,,32,32,41,18,31,80,80,52,52,8,23,4,7,0.5,0.6
2025-11-28T1500,2502A,108.6236,21.9667,钦州市,市环保站,颗粒物(PM10),62,73,81,22,27,107,107,78,78,10,17,4,5,0.6,0.8
2025-11-28T1500,2503A,108.6549,21.9481,钦州市,沙埠小学,颗粒物(PM10),64,77,76,31,31,112,112,83,83,8,18,6,9,0.2,1.1
2025-11-28T1500,2504A,108.5989,21.7431,钦州市,港区一小,颗粒物(PM10),71,92,81,35,28,106,106,72,72,19,30,8,10,0.5,0.4
2025-11-28T1500,3404A,108.5959,21.9633,钦州市,北职校,颗粒物(PM10),58,66,73,25,30,108,108,78,78,8,14,9,10,0.4,0.5
