timepoint,stationcode,longitude,latitude,area,positionname,primarypollutant,aqi,pm10,pm10_24h,pm2_5,pm2_5_24h,o3,o3_24h,o3_8h,o3_8h_24h,no2,no2_24h,so2,so2_24h,co,co_24h
2025-09-07T2200,2566A,102.1879,31.914,阿坝藏族羌族自治州,州农科所,,14,12,18,6,8,42,,46,46,5,5,1,2,0.0,0.1
2025-09-07T2200,2568A,102.2502,31.8896,阿坝藏族羌族自治州,马师校,,28,21,13,19,11,26,,42,38,6,6,8,8,0.5,0.6
2025-09-07T2200,3994A,102.2165,31.9024,阿坝藏族羌族自治州,马尔康中学西区,,27,27,19,11,11,34,,48,46,6,4,9,9,0.5,0.5
2025-09-07T2200,2695A,80.292,41.1694,阿克苏地区,电视台,颗粒物(PM10),465,565,563,178,173,58,,93,90,38,17,5,5,1.0,0.8
2025-09-07T2200,2696A,80.2613,41.1551,阿克苏地区,艺术中心,颗粒物(PM10),357,465,510,177,183,45,,100,98,50,23,5,4,0.6,0.5
2025-09-07T2200,2204A,105.6467,38.8363,阿拉善盟,西城区西花园,颗粒物(PM10),65,80,49,25,16,54,,108,90,37,17,10,9,1.0,0.8
2025-09-07T2200,2205A,105.6985,38.8411,阿拉善盟,蒙二幼,颗粒物(PM10),53,55,51,16,14,88,,104,95,8,9,7,7,0.3,0.3
2025-09-07T2200,2206A,105.724,38.8516,阿拉善盟,环保局新楼,,42,42,40,13,12,104,,106,102,5,5,8,8,0.3,0.3
2025-09-07T2200,2708A,88.1264,47.8517,阿勒泰地区,市站,颗粒物(PM10),62,74,44,21,10,28,,86,72,48,20,3,3,0.6,0.3
2025-09-07T2200,2630A,80.1161,32.5,阿里地区,阿里监测站,,25,6,3,3,2,79,,88,88,8,11,9,9,0.4,0.4
2025-09-07T2200,3192A,80.0903,32.5028,阿里地区,阿里藏医院,,29,7,6,3,2,91,,94,94,1,5,6,6,0.2,0.3
2025-09-07T2200,2642A,109.0318,32.6537,安康市,香溪洞,,19,19,16,3,6,38,,60,57,8,8,8,8,0.5,0.4
2025-09-07T2200,2644A,109.0072,32.6975,安康市,汉滨区检察院,,19,19,20,7,9,17,,56,48,8,9,6,6,0.5,0.5
2025-09-07T2200,4054A,109.0325,32.6913,安康市,市邮政管理局,,20,20,21,10,11,17,,58,46,18,11,5,5,0.6,0.5
2025-09-07T2200,2291A,117.0809,30.5177,安庆市,环科院,细颗粒物(PM2.5),57,54,36,40,28,123,,140,135,12,4,6,5,1.0,0.8
2025-09-07T2200,2292A,117.0331,30.5119,安庆市,马山宾馆,细颗粒物(PM2.5),63,46,35,45,27,113,,128,123,12,6,4,4,1.0,0.8
2025-09-07T2200,2294A,116.9896,30.6145,安庆市,安庆大学,,46,43,35,32,26,89,,128,119,8,6,4,4,0.7,0.7
2025-09-07T2200,3173A,117.0598,30.5351,安庆市,市人大,细颗粒物(PM2.5),59,50,34,42,27,107,,134,128,14,7,5,5,0.8,0.7
2025-09-07T2200,3123A,105.9408,26.2431,安顺市,凤凰山,,25,22,37,16,29,78,,90,88,5,10,9,14,0.6,0.7
2025-09-07T2200,3124A,105.9439,26.2564,安顺市,金钟山,,28,23,33,19,29,76,,89,87,4,7,8,12,0.5,0.6
2025-09-07T2200,3125A,105.8983,26.2481,安顺市,娄家坡,,23,18,30,16,25,72,,87,84,4,6,9,11,0.5,0.6
2025-09-07T2200,1819A,114.3551,36.1017,安阳市,红庙街,颗粒物(PM10),59,67,71,25,22,99,,161,150,16,16,9,11,0.8,0.9
2025-09-07T2200,1820A,114.361,36.0681,安阳市,银杏小区,颗粒物(PM10),62,74,69,28,24,105,,168,158,18,17,10,10,0.7,0.7
2025-09-07T2200,3141A,114.3922,36.0878,安阳市,信访局,颗粒物(PM10),61,72,71,25,22,104,,168,158,19,14,8,10,0.7,0.8
2025-09-07T2200,3669A,114.4705,36.0637,安阳市,左辅环卫站,颗粒物(PM10),56,62,63,26,23,98,,159,149,14,18,6,9,0.8,0.9
2025-09-07T2200,3703A,114.2917,36.0949,安阳市,安钢职工学校,颗粒物(PM10),59,68,75,32,24,106,,161,152,13,12,8,9,0.5,0.7
2025-09-07T2200,1748A,123.044,41.1196,鞍山市,深沟寺,颗粒物(PM10),52,54,31,30,15,118,,132,114,9,8,10,10,1.5,1.1
2025-09-07T2200,1749A,123.011,41.0931,鞍山市,太阳城,颗粒物(PM10),61,72,37,37,18,93,,139,113,15,15,9,10,1.4,1
2025-09-07T2200,1750A,123.0485,41.1442,鞍山市,太平,颗粒物(PM10),74,97,44,43,18,109,,117,98,22,20,16,14,1.5,1.1
2025-09-07T2200,1751A,122.9642,41.0971,鞍山市,铁西三道街,颗粒物(PM10),81,111,50,34,20,96,,121,92,37,31,14,13,2.0,1.3
2025-09-07T2200,1753A,123.022,41.0821,鞍山市,明达新区,颗粒物(PM10),70,89,34,24,13,126,,124,102,13,14,15,11,1.4,0.9
2025-09-07T2200,4201A,122.9446,41.0826,鞍山市,兴盛南路290号,颗粒物(PM10),96,141,59,46,19,84,,128,98,49,29,17,14,2.0,1.3
2025-09-07T2200,2195A,107.4212,40.761,巴彦淖尔市,附二中,,38,38,38,19,15,64,,88,80,10,8,10,9,0.3,0.3
2025-09-07T2200,2196A,107.37,40.7372,巴彦淖尔市,市环保大楼,,33,33,28,18,14,54,,81,73,19,9,10,10,0.5,0.4
2025-09-07T2200,1956A,86.1472,41.7538,巴音郭楞蒙古自治州,孔雀公园,颗粒物(PM10),317,433,493,132,141,45,,83,78,38,22,5,7,0.5,0.3
2025-09-07T2200,1957A,86.1972,41.7166,巴音郭楞蒙古自治州,棉纺厂,颗粒物(PM10),383,486,546,166,179,46,,92,84,34,24,5,6,0.3,0.3
2025-09-07T2200,1958A,86.2357,41.7173,巴音郭楞蒙古自治州,经济开发区,颗粒物(PM10),243,380,472,106,122,63,,90,84,16,13,5,6,0.3,0.3
2025-09-07T2200,2914A,106.7677,31.8794,巴中市,苏山坪,,18,11,11,7,5,56,,59,59,3,4,3,3,0.6,0.5
2025-09-07T2200,3181A,106.7768,31.8526,巴中市,市五中,,19,19,15,8,6,16,,62,52,15,9,6,6,0.6,0.6
2025-09-07T2200,3183A,106.7418,31.8654,巴中市,圣泉水务公司,,14,14,11,3,5,12,,66,54,18,9,6,6,0.6,0.6
2025-09-07T2200,3616A,106.7616,31.8344,巴中市,市中心医院,,19,19,14,3,7,10,,62,49,23,11,6,7,0.7,0.6
2025-09-07T2200,2235A,122.7911,45.6077,白城市,洮北区环保局,,19,19,19,3,5,50,,67,60,2,3,3,3,0.4,0.3
2025-09-07T2200,2236A,122.8738,45.5725,白城市,市环保局,,15,14,13,10,6,44,,66,58,8,6,4,4,0.3,0.3
2025-09-07T2200,2231A,126.4219,41.9171,白山市,喜丰,,19,19,27,8,9,38,,79,65,12,8,6,6,0.6,0.6
2025-09-07T2200,2232A,126.4077,41.9419,白山市,环保局,,23,23,24,15,14,31,,82,64,10,10,5,7,0.6,0.7
2025-09-07T2200,2647A,104.1724,36.5446,白银市,第三小学,颗粒物(PM10),66,81,101,29,35,103,,103,103,8,20,5,45,0.2,0.5
2025-09-07T2200,2648A,104.1465,36.5482,白银市,动力公司,颗粒物(PM10),60,69,94,29,32,101,,101,101,6,18,7,29,0.3,0.5
2025-09-07T2200,2512A,106.6103,23.9011,百色市,市监测站,,39,33,37,27,22,54,,140,116,17,15,6,9,0.6,0.5
2025-09-07T2200,2513A,106.6538,23.8859,百色市,市中心血站,颗粒物(PM10),55,59,44,33,25,56,,132,114,28,17,12,9,0.7,0.7
2025-09-07T2200,3406A,106.6085,23.8798,百色市,祈福高中,颗粒物(PM10),69,88,47,46,23,27,,127,99,49,20,5,10,0.8,0.6
2025-09-07T2200,2270A,117.396,32.939,蚌埠市,工人疗养院,颗粒物(PM10),54,58,48,20,21,106,,158,135,12,11,6,6,0.5,0.5
2025-09-07T2200,2271A,117.3605,32.9427,蚌埠市,百货大楼,,47,47,46,20,23,110,,154,134,14,14,7,8,0.6,0.6
2025-09-07T2200,2273A,117.4185,32.8911,蚌埠市,蚌埠学院,颗粒物(PM10),57,63,47,35,29,112,,160,139,15,12,7,8,0.5,0.6
2025-09-07T2200,2274A,117.3533,32.9673,蚌埠市,淮上区政府,颗粒物(PM10),52,53,47,23,26,106,,161,136,16,17,6,9,0.6,0.6
2025-09-07T2200,2275A,117.3145,32.8977,蚌埠市,高新区,,48,48,48,24,27,115,,150,131,16,17,10,9,0.6,0.6
2025-09-07T2200,3715A,117.3092,32.9314,蚌埠市,蚌埠田家炳中学,颗粒物(PM10),51,52,56,16,24,108,,155,131,15,16,6,9,0.5,0.5
2025-09-07T2200,1585A,109.8756,40.6532,包头市,市环境监测站,,38,38,27,10,10,22,,83,70,49,14,4,7,0.2,0.3
2025-09-07T2200,1587A,109.9991,40.5842,包头市,包头八中,颗粒物(PM10),52,54,29,21,7,16,,85,66,65,20,8,6,0.5,0.4
2025-09-07T2200,1588A,109.8538,40.6821,包头市,青山宾馆,,43,43,21,8,7,44,,80,62,31,16,4,5,0.4,0.5
2025-09-07T2200,1589A,109.8642,40.6288,包头市,惠龙物流,,23,23,20,10,7,45,,84,72,27,13,6,9,0.5,0.5
2025-09-07T2200,1590A,110.0377,40.5546,包头市,东河鸿龙湾,,49,49,25,8,6,11,,93,73,76,20,8,7,0.8,0.6
2025-09-07T2200,3283A,109.9154,40.5685,包头市,滨河大厦,,40,40,24,13,7,15,,88,70,53,14,12,8,0.6,0.4
2025-09-07T2200,3419A,109.9447,40.6261,包头市,包头市委党校,,43,43,24,14,5,9,,89,71,70,16,8,8,0.6,0.4
2025-09-07T2200,3683A,109.8331,40.6576,包头市,昆区政府,,47,47,22,10,6,38,,87,73,38,13,5,8,0.4,0.5
2025-09-07T2200,1930A,107.185,34.3063,宝鸡市,庙沟村,,32,32,41,18,14,75,,85,72,10,16,5,5,0.4,0.4
2025-09-07T2200,1931A,107.0708,34.3017,宝鸡市,竹园沟,颗粒物(PM10),64,77,40,16,16,32,,78,62,16,11,8,8,0.3,0.3
2025-09-07T2200,1932A,107.1906,34.3672,宝鸡市,三陆医院,颗粒物(PM10),57,64,45,24,17,33,,94,81,36,24,8,9,0.6,0.5
2025-09-07T2200,1933A,107.1431,34.3547,宝鸡市,监测站,,49,49,43,20,17,44,,89,71,20,16,9,9,0.6,0.5
2025-09-07T2200,1934A,107.1186,34.3739,宝鸡市,技工学校,颗粒物(PM10),56,61,48,29,20,51,,92,83,20,13,7,6,0.6,0.4
2025-09-07T2200,1936A,107.2058,34.3497,宝鸡市,文理学院,颗粒物(PM10),56,62,46,24,18,51,,102,86,26,18,7,8,0.6,0.5
2025-09-07T2200,1937A,107.2386,34.3622,宝鸡市,三迪小学,颗粒物(PM10),57,64,48,29,22,39,,104,92,42,23,5,6,0.6,0.5
2025-09-07T2200,4308A,107.3898,34.3601,宝鸡市,陈仓区北开路21号,,46,46,48,23,22,69,,108,96,25,24,6,18,0.4,0.5
2025-09-07T2200,1051A,115.493,38.8632,保定市,游泳馆,颗粒物(PM10),62,73,55,35,24,125,,166,161,29,16,5,5,0.3,0.4
2025-09-07T2200,1052A,115.5213,38.8959,保定市,华电二区,颗粒物(PM10),63,76,48,23,20,69,,151,135,45,17,6,3,0.3,0.1
2025-09-07T2200,1053A,115.4713,38.9108,保定市,接待中心,颗粒物(PM10),67,83,49,27,23,68,,144,133,49,20,2,4,0.5,0.4
2025-09-07T2200,1054A,115.4612,38.8416,保定市,地表水厂,颗粒物(PM10),73,96,76,28,20,107,,142,142,26,35,6,7,0.5,0.4
2025-09-07T2200,3581A,115.31981,38.95208,保定市,满城区生态环境分局,颗粒物(PM10),58,66,58,27,19,98,,157,140,30,24,1,2,0.3,0.2
2025-09-07T2200,3582A,115.47694,38.76408,保定市,清苑区第二中学,颗粒物(PM10),83,115,78,28,22,85,,148,135,56,24,4,4,0.5,0.4
2025-09-07T2200,3583A,115.62909,39.02311,保定市,徐水物探局,颗粒物(PM10),75,100,63,37,25,83,,158,143,47,29,4,6,0.5,0.4
2025-09-07T2200,4004A,115.4202,38.8656,保定市,双鹰农机,颗粒物(PM10),63,76,64,26,23,70,,154,143,41,25,4,5,0.3,0.3
2025-09-07T2200,4034A,115.5150,38.8590,保定市,植保所站,颗粒物(PM10),69,87,67,33,27,112,,152,147,40,31,6,5,0.6,0.5
2025-09-07T2200,2594A,99.1678,25.1081,保山市,市环境监测站,,38,,17,26,21,28,,56,50,6,6,11,10,0.4,0.3
2025-09-07T2200,2595A,99.1711,25.1328,保山市,市环保局,,26,26,21,11,11,40,,68,59,3,5,7,7,0.4,0.4
2025-09-07T2200,1867A,109.1436,21.4086,北海市,海滩公园,,29,26,24,20,9,61,,114,91,13,11,10,5,0.7,0.6
2025-09-07T2200,1868A,109.0981,21.4661,北海市,新市环保局,,35,,23,24,14,59,,116,93,19,12,7,6,0.7,0.7
2025-09-07T2200,1869A,109.1778,21.5233,北海市,北海工业园,,25,24,29,17,16,41,,115,76,15,14,5,6,0.6,0.6
2025-09-07T2200,3400A,109.1911,21.4415,北海市,龙潭自来水厂,,39,36,26,27,17,40,,110,77,16,12,9,5,0.5,0.5
2025-09-07T2200,1001A,116.3621,39.8784,北京市,万寿西宫,颗粒物(PM10),53,55,35,19,12,82,,108,106,45,27,3,3,0.8,0.6
2025-09-07T2200,1002A,116.2202,40.2915,北京市,定陵,,17,11,19,3,7,54,,89,70,1,3,5,5,0.2,0.2
2025-09-07T2200,1003A,116.4174,39.9289,北京市,东四,颗粒物(PM10),51,52,39,19,13,90,,101,99,36,24,4,3,0.6,0.3
2025-09-07T2200,1004A,116.4072,39.8863,北京市,天坛,,35,35,28,14,12,46,,98,78,15,15,3,4,0.5,0.4
2025-09-07T2200,1005A,116.462,39.9365,北京市,农展馆,,42,42,32,17,11,76,,91,85,34,23,2,2,0.5,0.2
2025-09-07T2200,1006A,116.3392,39.9295,北京市,官园,,32,32,36,13,12,58,,97,93,34,29,5,4,0.4,0.3
2025-09-07T2200,1007A,116.2878,39.9611,北京市,海淀万柳,,36,36,31,12,11,23,,83,65,48,32,4,3,0.5,0.4
2025-09-07T2200,1009A,116.6275,40.3275,北京市,怀柔镇,,16,,16,3,7,49,,80,67,9,11,1,1,0.4,0.4
2025-09-07T2200,1010A,116.2296,40.217,北京市,昌平镇,,17,12,22,3,8,53,,82,72,7,11,3,4,0.4,0.4
2025-09-07T2200,1011A,116.3966,39.9821,北京市,奥体中心,,34,34,31,11,12,27,,72,62,54,28,4,4,0.3,0.2
2025-09-07T2200,3281A,115.9718,40.4529,北京市,延庆夏都,,33,33,22,13,9,9,,81,60,41,18,2,3,0.4,0.4
2025-09-07T2200,3418A,116.8336,40.4095,北京市,密云新城,,12,12,16,3,6,19,,69,48,8,9,2,2,0.3,0.3
2025-09-07T2200,3671A,116.088,39.9726,北京市,门头沟三家店,,20,19,22,6,8,63,,86,70,8,11,3,3,0.3,0.3
2025-09-07T2200,3672A,116.1541,39.8204,北京市,丰台云岗,颗粒物(PM10),54,57,39,20,14,73,,118,112,31,22,2,2,0.4,0.4
2025-09-07T2200,3673A,116.6804,39.9081,北京市,通州东关,颗粒物(PM10),57,63,42,22,13,24,,100,81,69,34,3,4,0.7,0.5
2025-09-07T2200,3674A,115.9577,39.7603,北京市,房山燕山,,46,46,35,20,15,70,,127,121,16,12,2,2,0.4,0.4
2025-09-07T2200,3675A,116.4672,39.7733,北京市,大兴旧宫,,28,28,32,9,10,21,,95,73,13,16,2,2,0.4,0.4
2025-09-07T2200,3694A,115.986,40.4563,北京市,延庆石河营,,32,32,24,12,9,4,,73,52,33,13,1,2,0.3,0.3
2025-09-07T2200,3695A,116.6151,40.3053,北京市,怀柔新城,,18,7,17,3,7,56,,83,71,4,6,4,4,0.2,0.3
2025-09-07T2200,3696A,116.2545,39.8768,北京市,丰台小屯,颗粒物(PM10),51,51,35,15,13,11,,92,76,54,25,1,2,0.4,0.3
2025-09-07T2200,3697A,116.84,40.3844,北京市,密云镇,,19,19,23,6,9,18,,77,50,28,20,5,5,0.5,0.4
2025-09-07T2200,4182A,116.1942,39.9158,北京市,八角北路9号,,24,24,37,7,12,69,,100,89,12,29,4,4,0.1,0.2
2025-09-07T2200,4194A,117.0790,40.1518,北京市,洳河巡河路,,30,30,23,12,9,18,,79,55,19,9,4,4,0.4,0.4
2025-09-07T2200,1761A,123.8275,41.3064,本溪市,大峪,,47,47,35,12,10,17,,122,78,31,17,6,8,1.3,1.1
2025-09-07T2200,1762A,123.7567,41.3325,本溪市,溪湖,,40,40,39,14,16,34,,121,89,20,15,5,9,0.8,1.3
2025-09-07T2200,1764A,123.7669,41.2864,本溪市,东明,颗粒物(PM10),58,66,51,32,19,42,,126,92,34,25,8,9,1.4,1.5
2025-09-07T2200,1765A,123.7992,41.2664,本溪市,新立屯,,32,32,34,7,11,52,,102,69,31,22,6,7,0.6,0.9
2025-09-07T2200,1766A,123.8142,41.3472,本溪市,威宁,,42,42,45,21,22,15,,112,64,26,18,3,6,0.7,1
2025-09-07T2200,2587A,105.2864,27.3125,毕节市,八中,颗粒物(PM10),52,53,51,34,26,63,,77,68,10,11,6,6,0.6,0.5
2025-09-07T2200,2588A,105.31,27.2944,毕节市,师专,颗粒物(PM10),56,62,58,35,25,60,,75,68,17,14,7,7,0.6,0.5
2025-09-07T2200,4263A,105.3688,27.3598,毕节市,工业大道,,28,28,53,18,27,71,,81,71,8,13,7,7,0.7,0.7
2025-09-07T2200,1629A,118.0018,37.3617,滨州市,第二水厂,颗粒物(PM10),57,63,54,27,24,85,,154,136,36,16,8,8,0.5,0.4
2025-09-07T2200,1630A,117.9776,37.393,滨州市,北中新校,颗粒物(PM10),57,63,50,36,26,64,,155,123,54,19,6,6,0.4,0.1
2025-09-07T2200,3514A,117.9378,37.3956,滨州市,中海酒店,颗粒物(PM10),57,63,55,27,26,71,,162,140,27,16,3,7,0.9,0.6
2025-09-07T2200,3515A,117.9378,37.3553,滨州市,开发区一中,颗粒物(PM10),59,68,61,24,20,116,,158,146,24,17,21,9,0.5,0.4
2025-09-07T2200,3516A,118.0917,37.694,滨州市,金海六路,颗粒物(PM10),59,68,56,17,24,81,,148,126,38,27,7,6,0.2,0.2
2025-09-07T2200,4028A,117.9956,37.3753,滨州市,滨州市西街道办事处,颗粒物(PM10),56,61,50,31,28,77,,155,131,41,17,7,6,0.7,0.4
2025-09-07T2200,2311A,115.8072,33.8399,亳州市,污水处理厂,颗粒物(PM10),53,56,41,35,23,43,,87,73,24,13,13,8,0.5,0.4
2025-09-07T2200,2312A,115.7789,33.8518,亳州市,三国揽胜宫,颗粒物(PM10),56,61,45,29,19,59,,96,88,16,10,11,6,0.7,0.7
2025-09-07T2200,3332A,115.7633,33.8034,亳州市,亳州学院,颗粒物(PM10),54,57,40,21,17,76,,105,99,18,10,12,7,0.6,0.6
2025-09-07T2200,2693A,82.0485,44.8556,博尔塔拉蒙古自治州,市党校,颗粒物(PM10),55,60,44,33,22,88,,123,117,31,12,6,6,0.4,0.3
2025-09-07T2200,2694A,82.0806,44.8969,博尔塔拉蒙古自治州,市环保局,,,52,53,19,18,,,118,117,63,16,10,8,0.9,0.5
2025-09-07T2200,1071A,116.8842,38.2991,沧州市,沧县城建局,颗粒物(PM10),58,65,55,29,21,114,,163,146,21,18,6,6,0.4,0.5
2025-09-07T2200,1072A,116.8584,38.3254,沧州市,电视转播站,颗粒物(PM10),59,68,55,24,24,118,,155,146,15,14,5,5,0.4,0.6
2025-09-07T2200,1073A,116.8709,38.3228,沧州市,市环保局,颗粒物(PM10),65,79,62,33,28,107,,159,141,16,14,6,7,0.4,0.5
2025-09-07T2200,3324A,116.8136,38.3004,沧州市,河北水利电力学院,颗粒物(PM10),59,68,64,32,30,108,,165,147,23,24,8,10,0.3,0.6
2025-09-07T2200,2622A,97.1806,31.1273,昌都市,昌都监测站,,18,18,8,11,5,31,,58,54,13,5,3,4,0.4,0.3
2025-09-07T2200,3719A,97.1714,31.1406,昌都市,昌都会议中心,,13,9,7,6,5,41,,60,59,4,4,4,4,0.2,0.2
2025-09-07T2200,2690A,88.1236,43.8886,昌吉回族自治州,天山天池,,16,15,16,7,5,50,,63,59,6,8,3,3,0.5,0.5
2025-09-07T2200,2692A,87.2717,44.0297,昌吉回族自治州,新区政务中心,,36,36,44,11,17,76,,118,113,24,28,7,8,0.4,0.6
2025-09-07T2200,3613A,87.3095,44.0142,昌吉回族自治州,亚心广场,颗粒物(PM10),53,56,62,22,28,55,,123,116,58,42,9,10,0.7,0.7
2025-09-07T2200,1120A,125.2863,43.9027,长春市,客车厂,,29,29,24,17,11,32,,80,60,41,16,5,5,0.4,0.3
2025-09-07T2200,1121A,125.2841,43.8463,长春市,邮电学院,,33,33,22,15,9,14,,83,59,48,15,5,5,0.5,0.4
2025-09-07T2200,1122A,125.3716,43.8772,长春市,劳动公园,,43,43,30,16,10,23,,80,59,38,15,8,8,0.1,0.1
2025-09-07T2200,1123A,125.3297,43.8805,长春市,园林处,,24,24,20,3,6,39,,79,62,30,11,5,5,0.5,0.5
2025-09-07T2200,1124A,125.4605,43.79,长春市,净月潭,,19,19,20,3,4,29,,84,58,13,8,5,5,0.1,0.2
2025-09-07T2200,1126A,125.3863,43.8447,长春市,经开区环卫处,,41,41,27,13,8,1,,80,57,60,16,5,4,0.5,0.5
2025-09-07T2200,1127A,125.245,43.7783,长春市,高新区管委会,,24,24,23,12,11,21,,83,53,36,14,3,3,0.3,0.3
2025-09-07T2200,1128A,125.1761,43.8325,长春市,岱山公园,,42,42,26,11,8,4,,79,52,64,21,4,4,0.3,0.3
2025-09-07T2200,4281A,125.3346,43.9164,长春市,北亚泰大街1068号,,34,34,26,15,11,21,,77,53,49,18,7,8,0.3,0.3
2025-09-07T2200,1335A,113.0833,28.2325,长沙市,经开区环保局,,42,42,49,18,26,82,,147,137,9,11,4,5,0.4,0.5
2025-09-07T2200,1336A,112.8872,28.2189,长沙市,高开区环保局,颗粒物(PM10),54,57,51,29,25,113,,129,128,7,6,4,5,0.4,0.4
2025-09-07T2200,1337A,113.0792,28.2053,长沙市,马坡岭,,44,44,50,25,29,102,,165,155,7,9,5,5,0.5,0.5
2025-09-07T2200,1338A,112.9394,28.19,长沙市,湖南师范大学,,45,45,48,31,28,109,,136,133,12,8,4,4,0.8,0.7
2025-09-07T2200,1339A,113.0178,28.1322,长沙市,雨花区环保局,,49,49,51,27,25,117,,147,144,10,7,6,6,0.7,0.7
2025-09-07T2200,1340A,112.9792,28.2597,长沙市,伍家岭,,48,48,48,29,27,98,,133,128,14,7,2,3,0.5,0.4
2025-09-07T2200,1341A,113.0014,28.1944,长沙市,火车新站,,50,50,50,29,26,111,,142,139,10,6,7,7,0.7,0.6
2025-09-07T2200,1342A,112.9844,28.1178,长沙市,天心区环保局,,,,47,30,26,,,145,145,,10,,4,,0.4
2025-09-07T2200,1343A,112.8908,28.1308,长沙市,湖南中医药大学,,50,50,48,34,28,116,,127,126,6,5,4,4,0.7,0.7
2025-09-07T2200,1344A,112.9581,28.3611,长沙市,沙坪,颗粒物(PM10),52,54,43,26,24,103,,145,139,12,9,3,4,0.8,0.5
2025-09-07T2200,1727A,113.1147,36.1547,长治市,清华站,颗粒物(PM10),60,70,67,29,27,115,,153,143,12,18,9,12,0.8,0.8
2025-09-07T2200,1730A,113.0886,36.2125,长治市,审计局,颗粒物(PM10),53,56,53,27,27,107,,151,142,22,22,8,11,0.9,1
2025-09-07T2200,1731A,113.0844,36.1856,长治市,长治八中,颗粒物(PM10),65,80,75,41,34,108,,151,143,18,17,9,13,1.0,1
2025-09-07T2200,2845A,113.1569,36.1911,长治市,德盛苑,颗粒物(PM10),60,70,62,19,23,107,,146,137,11,12,9,12,1.0,1
2025-09-07T2200,3568A,113.06,36.0464,长治市,向阳小学,颗粒物(PM10),72,93,112,38,33,109,,154,143,23,20,6,8,0.9,0.9
2025-09-07T2200,3569A,112.8792,36.3144,长治市,屯留一中,颗粒物(PM10),72,93,67,38,25,51,,115,81,26,32,8,10,0.9,0.8
2025-09-07T2200,4189A,113.1131,36.19948,长治市,英华南巷50号,颗粒物(PM10),64,77,70,31,28,92,,148,131,21,20,9,14,1.0,1
2025-09-07T2200,4190A,113.2367,36.3344,长治市,学府街1号,颗粒物(PM10),72,94,78,32,31,25,,150,99,53,27,2,10,0.6,1.2
2025-09-07T2200,1854A,111.6975,28.9703,常德市,市二中,颗粒物(PM10),53,55,38,30,25,84,,128,119,10,8,4,5,0.7,0.5
2025-09-07T2200,3138A,111.7153,29.0289,常德市,武陵区永安,细颗粒物(PM2.5),60,59,40,43,20,81,,129,122,10,6,5,5,0.7,0.6
2025-09-07T2200,3139A,111.6892,28.9881,常德市,鼎城区玉霞,细颗粒物(PM2.5),69,62,39,50,24,80,,130,121,7,5,8,5,0.7,0.5
2025-09-07T2200,3140A,111.6625,29.0531,常德市,武陵区长庚,细颗粒物(PM2.5),53,46,38,37,21,101,,135,132,5,7,5,6,0.7,0.6
2025-09-07T2200,1196A,119.9633,31.762,常州市,市监测站,细颗粒物(PM2.5),52,41,36,36,24,126,,171,153,14,12,12,12,0.8,0.7
2025-09-07T2200,1200A,119.9468,31.7069,常州市,武进监测站,,48,46,33,33,21,103,,134,121,14,13,6,8,0.8,0.8
2025-09-07T2200,1201A,119.9255,31.9087,常州市,安家,,48,44,32,33,21,64,,161,129,46,22,10,10,1.1,1
2025-09-07T2200,3002A,119.9805,31.8174,常州市,行政中心,细颗粒物(PM2.5),57,50,36,40,23,122,,165,149,23,16,2,3,0.8,0.8
2025-09-07T2200,3003A,120.0522,31.7748,常州市,经开区,颗粒物(PM10),61,71,49,39,23,74,,180,153,50,21,4,4,1.1,1
2025-09-07T2200,3010A,119.9025,31.7964,常州市,钟楼,,48,40,38,33,21,100,,148,130,20,18,7,7,0.9,0.8
2025-09-07T2200,3429A,119.8598,31.7066,常州市,武进经发区,颗粒物(PM10),53,56,39,33,23,67,,163,135,38,11,9,9,0.8,0.8
2025-09-07T2200,3430A,119.5826,31.7245,常州市,金坛城区,,42,35,28,29,21,122,,143,136,8,9,7,8,0.8,0.7
2025-09-07T2200,2220A,120.4318,41.5881,朝阳市,西梁,颗粒物(PM10),53,56,37,19,12,9,,82,49,41,22,3,4,0.5,0.7
2025-09-07T2200,2221A,120.4521,41.5646,朝阳市,河畔小区,,25,25,24,8,7,23,,87,67,30,14,6,7,0.4,0.3
2025-09-07T2200,2222A,120.4176,41.5648,朝阳市,八里堡,,45,45,39,13,11,4,,88,58,51,21,7,8,0.7,0.7
2025-09-07T2200,2223A,120.3806,41.5969,朝阳市,农业园区,,18,18,20,6,11,37,,83,58,21,12,4,5,0.3,0.4
2025-09-07T2200,1705A,116.6367,23.6719,潮州市,西园路,,12,12,14,7,8,30,,58,35,8,8,4,5,0.3,0.3
2025-09-07T2200,3026A,116.6183,23.6608,潮州市,市政府,,11,11,13,6,8,26,,54,32,9,7,7,7,0.5,0.4
2025-09-07T2200,4036A,116.6461,23.6761,潮州市,金山,,18,,15,12,15,29,,52,34,6,8,5,5,0.4,0.4
2025-09-07T2200,2472A,113.0073,25.9061,郴州市,马头岭,细颗粒物(PM2.5),62,70,42,44,17,15,,80,65,29,14,11,7,0.8,0.6
2025-09-07T2200,2473A,113.0116,25.8226,郴州市,市职中,细颗粒物(PM2.5),92,75,33,68,29,33,,84,69,14,9,15,7,1.0,0.7
2025-09-07T2200,2475A,113.0383,25.8071,郴州市,市审计局,细颗粒物(PM2.5),78,57,35,57,31,41,,85,75,9,7,12,12,0.8,0.7
2025-09-07T2200,2476A,113.0348,25.7759,郴州市,市环保局,细颗粒物(PM2.5),158,,48,120,55,49,,92,82,13,9,18,13,0.7,0.6
2025-09-07T2200,4252A,113.0138,25.8011,郴州市,好美居路49号,细颗粒物(PM2.5),77,73,34,56,26,42,,87,74,16,9,32,12,0.9,0.5
2025-09-07T2200,1431A,103.9728,30.7236,成都市,金泉两河,颗粒物(PM10),74,97,69,53,26,81,,151,135,19,22,5,4,0.8,0.7
2025-09-07T2200,1432A,104.176,30.6872,成都市,十里店,颗粒物(PM10),72,94,71,38,25,79,,149,138,26,23,4,3,0.7,0.6
2025-09-07T2200,1433A,104.079,30.5706,成都市,三瓦窑,颗粒物(PM10),75,100,72,53,25,104,,147,143,24,28,3,3,0.6,0.5
2025-09-07T2200,1434A,104.1114,30.63,成都市,沙河铺,颗粒物(PM10),68,85,70,47,24,91,,131,126,22,18,5,4,0.6,0.6
2025-09-07T2200,1437A,104.0786,30.6531,成都市,君平街,颗粒物(PM10),75,100,80,40,29,90,,165,155,18,18,5,5,0.5,0.4
2025-09-07T2200,2880A,104.0239,30.65639,成都市,大石西路,细颗粒物(PM2.5),80,106,75,59,32,70,,147,136,27,24,2,2,0.7,0.6
2025-09-07T2200,3136A,104.2725,30.5589,成都市,龙泉驿区区政府,颗粒物(PM10),57,63,53,24,17,68,,107,95,19,14,5,5,0.7,0.7
2025-09-07T2200,3357A,104.0106,30.6931,成都市,金博路,颗粒物(PM10),77,103,69,47,25,73,,150,137,24,32,8,7,0.7,0.6
2025-09-07T2200,3359A,104.0578,30.5225,成都市,华阳,颗粒物(PM10),70,90,64,44,27,115,,125,122,23,15,2,2,0.6,0.6
2025-09-07T2200,3488A,104.3853,30.7453,成都市,青白江技师分院,颗粒物(PM10),66,82,60,30,21,30,,123,101,50,14,5,5,0.6,0.4
2025-09-07T2200,3489A,104.0789,30.4072,成都市,科学城,颗粒物(PM10),74,97,65,36,23,102,,106,106,19,12,5,5,0.6,0.6
2025-09-07T2200,4011A,103.8506,30.6947,成都市,光华大道三段,颗粒物(PM10),70,89,80,50,36,76,,144,127,21,21,3,3,0.7,0.6
2025-09-07T2200,4224A,104.2433,30.5353,成都市,鲸龙路1057号,颗粒物(PM10),74,97,67,42,25,75,,105,100,29,17,4,4,0.6,0.5
2025-09-07T2200,1062A,117.9531,40.9081,承德市,铁路,,20,20,22,3,6,17,,72,47,17,14,4,5,0.2,0.2
2025-09-07T2200,1063A,117.9392,40.9763,承德市,中国银行,,26,26,21,14,6,10,,72,49,17,10,1,1,0.3,0.3
2025-09-07T2200,1064A,117.9503,40.928,承德市,开发区,,25,25,27,15,12,15,,76,53,20,12,3,5,0.3,0.3
2025-09-07T2200,1066A,117.9268,41.0026,承德市,离宫,,18,15,17,12,9,20,,72,48,13,9,5,5,0.2,0.3
2025-09-07T2200,4274A,117.7994,40.9605,承德市,滨河大街98号,,20,20,21,3,9,11,,73,45,18,9,3,4,0.3,0.4
2025-09-07T2200,2314A,117.47,30.6618,池州市,池州学院,细颗粒物(PM2.5),64,57,46,46,32,114,,148,144,17,12,7,7,0.9,0.8
2025-09-07T2200,3237A,117.4918,30.6617,池州市,展览馆,细颗粒物(PM2.5),62,61,47,44,32,111,,153,147,17,12,6,7,1.0,1
2025-09-07T2200,3333A,117.5627,30.695,池州市,第八中学,细颗粒物(PM2.5),69,70,47,50,33,100,,153,145,18,9,6,6,1.0,0.8
2025-09-07T2200,3334A,117.5038,30.6243,池州市,第十二中学,细颗粒物(PM2.5),65,59,43,47,32,112,,149,144,16,11,5,5,1.1,1
2025-09-07T2200,1744A,118.9233,42.2816,赤峰市,松山一中,,15,15,14,3,3,48,,76,58,17,13,6,6,0.5,0.5
2025-09-07T2200,1745A,118.9576,42.2728,赤峰市,哈达街,,17,14,14,3,4,53,,80,63,15,14,9,10,0.4,0.3
2025-09-07T2200,1746A,118.8788,42.2554,赤峰市,天义路,,17,6,8,3,6,52,,79,59,11,10,8,8,0.2,0.2
2025-09-07T2200,3058A,119.2658,42.0353,赤峰市,银河街,,16,16,21,9,9,47,,72,61,11,6,8,15,0.4,0.4
2025-09-07T2200,3286A,118.9359,42.3147,赤峰市,桥北物流园区,,23,23,21,3,9,21,,68,49,31,12,8,8,0.5,0.4
2025-09-07T2200,2521A,107.3476,22.4136,崇左市,市环保局江州分局,,40,40,29,17,14,58,,118,106,17,11,7,7,0.8,0.7
2025-09-07T2200,4256A,107.3750,22.3736,崇左市,石景林东路7号,,37,37,23,19,12,74,,124,113,20,13,4,4,0.7,0.5
2025-09-07T2200,2298A,118.3093,32.3153,滁州市,老年大学,,43,37,40,30,31,80,,131,110,6,2,5,5,0.4,0.5
2025-09-07T2200,2299A,118.3244,32.2786,滁州市,人大宾馆,,32,30,29,22,29,97,,148,125,13,6,5,4,0.6,0.6
2025-09-07T2200,3207A,118.3118,32.3038,滁州市,市政府原办公楼,,43,34,38,30,34,95,,132,111,10,5,6,5,0.5,0.6
2025-09-07T2200,3331A,118.3267,32.2634,滁州市,图书馆,,38,30,30,26,26,96,,145,122,12,6,11,11,0.5,0.6
2025-09-07T2200,2605A,101.5482,25.0441,楚雄彝族自治州,州环境监测站,,15,,15,10,11,38,,52,49,5,12,6,9,0.4,0.5
2025-09-07T2200,2606A,101.538,25.0492,楚雄彝族自治州,市经济开发区,,14,14,16,8,8,42,,52,50,8,15,7,9,0.6,0.6
2025-09-07T2200,2548A,107.5277,31.2827,达州市,达州职业技术学院,,39,39,33,7,4,12,,83,68,34,14,7,7,0.6,0.5
2025-09-07T2200,2549A,107.5086,31.2186,达州市,市环境监测站,,30,30,33,9,6,27,,81,72,29,22,5,6,0.5,0.5
2025-09-07T2200,2550A,107.4988,31.2132,达州市,凤凰小区,,31,31,27,17,12,29,,86,76,30,17,4,5,0.5,0.4
2025-09-07T2200,2551A,107.5082,31.1986,达州市,达县机关宾馆,,39,39,30,7,5,13,,80,62,47,24,3,4,0.5,0.4
2025-09-07T2200,2552A,107.4644,31.2124,达州市,市政中心,,41,41,37,12,8,31,,86,75,27,15,2,3,0.4,0.3
2025-09-07T2200,2614A,100.1542,25.7054,大理白族自治州,大理市环境监测站,,33,,13,23,16,55,,57,57,7,12,4,5,0.5,0.6
2025-09-07T2200,2615A,100.2171,25.5811,大理白族自治州,大理古城,,31,31,17,16,9,35,,74,61,14,9,6,6,0.8,0.7
2025-09-07T2200,1109A,121.612,38.9741,大连市,甘井子,,43,43,30,23,16,113,,148,142,22,19,8,8,0.1,0.2
2025-09-07T2200,1110A,121.565,38.9511,大连市,周水子,,37,34,28,15,14,117,,143,137,10,13,7,7,0.3,0.3
2025-09-07T2200,1111A,121.5637,38.8845,大连市,星海三站,,45,45,35,19,20,130,,162,154,17,16,5,5,0.3,0.4
2025-09-07T2200,1112A,121.6302,38.9117,大连市,青泥洼桥,,43,43,35,20,17,132,,160,154,12,14,9,9,0.4,0.5
2025-09-07T2200,1113A,121.6251,38.8638,大连市,傅家庄,,41,37,27,21,19,131,,171,163,15,13,15,13,0.5,0.5
2025-09-07T2200,1114A,121.5213,38.8661,大连市,七贤岭,,40,39,26,18,15,128,,166,153,10,10,8,8,0.5,0.6
2025-09-07T2200,1115A,121.2529,38.8061,大连市,旅顺,,38,28,28,18,19,121,,137,121,29,34,9,10,0.3,0.4
2025-09-07T2200,1116A,121.7485,39.1311,大连市,金州,,38,38,31,20,18,112,,154,141,25,16,9,9,0.3,0.3
2025-09-07T2200,1117A,121.7811,39.0496,大连市,开发区,,45,45,40,20,22,121,,138,136,17,24,6,7,0.2,0.3
2025-09-07T2200,1118A,121.9762,39.0631,大连市,双D港,,36,33,32,20,16,113,,153,142,10,13,11,11,0.4,0.4
2025-09-07T2200,1789A,124.81117,46.03138,大庆市,大同区,,27,27,23,8,6,38,,60,48,8,7,4,6,0.6,0.6
2025-09-07T2200,1790A,125.129,46.533,大庆市,龙凤区,,28,28,34,11,14,30,,58,42,18,13,6,8,0.6,0.7
2025-09-07T2200,1791A,124.902,46.408,大庆市,红岗区,,35,35,31,12,12,39,,61,47,12,9,6,6,0.5,0.4
2025-09-07T2200,1792A,125.153,46.586,大庆市,萨尔图区,,30,30,30,12,8,32,,52,35,17,14,10,10,0.5,0.5
2025-09-07T2200,1793A,124.9042,46.6215,大庆市,让胡路区,,36,36,26,17,12,28,,60,41,22,11,5,5,0.3,0.2
2025-09-07T2200,3481A,125.141,46.634,大庆市,萨区政府监测点,,29,29,26,9,5,37,,63,46,17,10,8,8,0.3,0.3
2025-09-07T2200,1723A,113.2994,40.0758,大同市,云冈宾馆,,35,35,41,12,13,51,,97,84,24,18,5,10,0.8,0.8
2025-09-07T2200,1724A,113.3444,40.0917,大同市,大同大学,,46,46,40,14,14,9,,92,70,76,29,14,12,0.8,0.7
2025-09-07T2200,1725A,113.2661,40.1269,大同市,安家小村,,27,27,37,10,10,37,,95,81,38,17,3,6,0.7,0.8
2025-09-07T2200,1726A,113.2711,40.0844,大同市,教育学院,,48,48,45,10,16,45,,95,79,30,19,7,12,0.5,0.6
2025-09-07T2200,3282A,113.3397,40.0597,大同市,大同市卫生学校,,31,31,43,19,16,43,,96,81,41,23,7,13,0.6,0.7
2025-09-07T2200,3565A,113.1367,40.1122,大同市,云冈站,,35,35,37,11,14,35,,95,71,12,8,5,9,0.4,0.5
2025-09-07T2200,3566A,113.1186,40.2556,大同市,图书馆,,24,24,34,9,13,31,,87,68,15,10,3,7,0.5,0.7
2025-09-07T2200,3567A,113.5931,40.0461,大同市,区一中,,14,,39,8,15,44,,102,84,12,14,7,8,0.4,0.5
2025-09-07T2200,4199A,113.2798,40.0997,大同市,魏都大道141号,,30,30,45,16,18,48,,97,81,22,20,4,7,0.4,0.6
2025-09-07T2200,2269A,124.1069,50.4097,大兴安岭地区,科技局,,16,16,17,6,8,24,,42,29,2,2,3,4,0.2,0.2
2025-09-07T2200,3663A,124.1164,50.4278,大兴安岭地区,红旗社区,,7,6,6,3,2,20,,40,26,4,4,4,4,0.3,0.3
2025-09-07T2200,1600A,124.3303,40.0625,丹东市,江湾东路,,36,36,19,17,12,79,,132,126,10,11,5,6,0.9,0.8
2025-09-07T2200,1601A,124.4256,40.1503,丹东市,临江后街,,43,43,24,23,12,103,,128,122,15,13,7,6,1.1,0.8
2025-09-07T2200,1602A,124.3933,40.1461,丹东市,元宝山,,39,39,23,17,11,83,,125,118,14,12,6,6,1.2,0.9
2025-09-07T2200,1603A,124.3633,40.1092,丹东市,民主桥,,31,31,21,16,9,85,,127,118,13,14,7,7,0.8,0.7
2025-09-07T2200,3541A,109.5726,19.5167,儋州市,第一中学子站,,26,26,21,14,13,23,,51,40,8,7,6,6,0.7,0.5
2025-09-07T2200,3542A,109.5567,19.5187,儋州市,东坡学校子站,,19,18,21,13,11,24,,51,40,8,8,6,7,0.5,0.5
2025-09-07T2200,2616A,98.5842,24.428,德宏傣族景颇族自治州,德宏州监测站,,30,30,27,18,16,26,,80,60,13,11,6,11,0.6,0.5
2025-09-07T2200,3677A,98.5881,24.4368,德宏傣族景颇族自治州,芒市人民政府综合楼,,34,34,30,17,15,33,,77,59,8,8,6,8,0.5,0.5
2025-09-07T2200,1901A,104.4239,31.1208,德阳市,东山公园,颗粒物(PM10),52,53,52,25,22,69,,118,108,17,10,4,4,0.7,0.6
2025-09-07T2200,1902A,104.3826,31.1317,德阳市,西小区,颗粒物(PM10),59,67,64,36,26,52,,128,111,26,14,3,3,0.8,0.7
2025-09-07T2200,1904A,104.3553,31.1091,德阳市,耐火材料厂,颗粒物(PM10),62,74,65,38,25,58,,127,115,20,16,6,6,0.8,0.7
2025-09-07T2200,3639A,104.4019,31.1244,德阳市,市教育局,颗粒物(PM10),60,69,60,28,22,60,,126,111,24,12,2,2,0.7,0.6
2025-09-07T2200,1622A,116.3032,37.4674,德州市,儿童乐园,颗粒物(PM10),62,73,64,19,24,114,,147,140,24,15,10,10,0.5,0.6
2025-09-07T2200,1624A,116.2991,37.4451,德州市,监理站,颗粒物(PM10),59,68,63,22,22,117,,145,139,29,21,14,13,0.7,0.7
2025-09-07T2200,3066A,116.2721,37.4379,德州市,九衢泉纯净水厂,颗粒物(PM10),58,66,64,24,26,84,,127,113,43,31,7,7,0.5,0.5
2025-09-07T2200,3371A,116.3728,37.4403,德州市,开发区人民医院,颗粒物(PM10),63,75,64,27,24,99,,132,121,20,15,10,10,1.0,1
2025-09-07T2200,3511A,116.5652,37.3319,德州市,陵城艺术中心,颗粒物(PM10),54,58,65,14,24,126,,167,161,22,19,12,16,1.0,1
2025-09-07T2200,4292A,116.3525,37.4209,德州市,新河东路,颗粒物(PM10),65,80,68,31,29,79,,132,113,33,22,10,9,0.6,0.8
2025-09-07T2200,2621A,99.7056,27.8317,迪庆藏族自治州,迪庆州站,,17,15,16,10,12,52,,57,54,5,6,6,6,0.4,0.4
2025-09-07T2200,3180A,99.7136,27.8094,迪庆藏族自治州,质量技术监督局,,16,16,16,11,9,51,,56,53,8,8,6,6,0.5,0.5
2025-09-07T2200,4257A,104.6092,35.5962,定西市,将台街,,43,43,69,22,30,58,,92,86,22,19,7,7,0.3,0.2
2025-09-07T2200,4309A,104.6159,35.5701,定西市,正龙路62号,颗粒物(PM10),52,54,82,29,28,64,,84,80,8,11,4,5,0.2,0.2
2025-09-07T2200,1389A,113.7547,23.0494,东莞市,莞城梨川,,12,6,21,3,12,36,,69,44,9,11,5,6,0.3,0.4
2025-09-07T2200,1390A,113.7944,23.0128,东莞市,东城石井,,34,34,34,12,12,33,,69,43,13,12,5,5,0.5,0.4
2025-09-07T2200,1391A,113.7383,22.9658,东莞市,南城西平,,11,11,25,3,9,29,,69,40,20,19,4,4,0.4,0.4
2025-09-07T2200,3319A,113.7338,23.0381,东莞市,万江金泰,,,9,23,3,12,,,68,46,10,11,4,4,0.7,0.8
2025-09-07T2200,3626A,113.7533,23.0202,东莞市,南城元岭,,10,6,19,3,9,31,,70,43,15,13,5,5,0.3,0.3
2025-09-07T2200,3627A,113.7875,23.0457,东莞市,东城主山,,11,7,30,3,12,33,,69,42,13,15,8,7,0.3,0.4
2025-09-07T2200,1666A,118.6614,37.4309,东营市,市环保局,,48,48,49,19,21,91,,172,152,27,26,12,12,0.4,0.4
2025-09-07T2200,3036A,118.6904,37.4338,东营市,开发区管委会,,46,46,57,17,21,108,,167,156,27,29,24,11,0.4,0.4
2025-09-07T2200,3365A,118.5719,37.565,东营市,垦利区民丰路,,,,60,34,24,44,,164,142,68,25,3,6,0.8,0.9
2025-09-07T2200,3498A,118.5055,37.8612,东营市,河口城区,颗粒物(PM10),63,75,54,15,17,79,,162,142,28,21,7,7,0.7,0.7
2025-09-07T2200,3646A,118.4978,37.4623,东营市,胜利站,颗粒物(PM10),59,68,66,19,25,87,,171,153,52,33,7,7,0.6,0.7
2025-09-07T2200,3734A,118.35,37.26,东营市,理想之城,颗粒物(PM10),53,56,52,19,24,82,,164,144,42,36,6,8,0.4,0.6
2025-09-07T2200,1591A,110.0023,39.8129,鄂尔多斯市,综合楼,颗粒物(PM10),53,56,32,12,6,23,,85,72,67,20,3,6,1.0,0.6
2025-09-07T2200,1592A,109.9486,39.8261,鄂尔多斯市,巴音孟克林场办事处,颗粒物(PM10),57,63,41,24,9,13,,92,78,68,22,7,7,1.2,0.5
2025-09-07T2200,1593A,109.7736,39.5986,鄂尔多斯市,康泽苑,,36,36,38,9,9,20,,75,58,27,16,6,7,0.4,0.3
2025-09-07T2200,1594A,109.8119,39.5989,鄂尔多斯市,华泰汽车城,颗粒物(PM10),53,56,40,19,12,2,,66,43,48,22,8,8,0.9,0.5
2025-09-07T2200,1595A,109.9734,39.7884,鄂尔多斯市,奥林花园,颗粒物(PM10),57,63,41,22,10,3,,80,52,62,22,5,6,0.9,0.6
2025-09-07T2200,2436A,114.8938,30.3994,鄂州市,市政府,,44,39,42,25,19,140,,166,166,11,14,6,7,0.8,0.7
2025-09-07T2200,2437A,114.8989,30.3714,鄂州市,赵家坝,颗粒物(PM10),63,75,54,29,20,128,,164,161,16,13,22,10,0.7,0.7
2025-09-07T2200,3654A,114.8094,30.4089,鄂州市,精准医疗中心,,46,46,42,29,21,116,,157,146,22,11,8,7,0.8,0.8
2025-09-07T2200,2454A,109.4978,30.2981,恩施土家族苗族自治州,湖北民院,,38,36,22,26,14,30,,65,57,11,8,6,6,0.6,0.5
2025-09-07T2200,2455A,109.4707,30.2798,恩施土家族苗族自治州,州电力总公司,,32,,19,22,13,24,,59,50,14,8,5,5,0.5,0.4
2025-09-07T2200,3549A,109.5061,30.3772,恩施土家族苗族自治州,龙凤新区,,43,37,19,30,10,23,,70,55,4,5,6,6,0.6,0.5
2025-09-07T2200,2499A,108.3411,21.6158,防城港市,沙万,,28,26,26,19,13,57,,85,66,9,13,5,5,0.5,0.4
2025-09-07T2200,2500A,108.3514,21.7731,防城港市,防城档案局,,24,24,35,13,14,42,,75,66,9,11,3,3,0.5,0.5
2025-09-07T2200,2501A,108.3506,21.6414,防城港市,大海花园,,28,,23,19,13,61,,93,76,6,7,4,7,0.5,0.6
2025-09-07T2200,1371A,113.1294,23.0067,佛山市,湾梁,,15,,25,10,20,25,,72,41,21,23,6,6,0.6,0.6
2025-09-07T2200,1372A,113.1083,23.0478,佛山市,华材职中,,12,9,25,8,18,30,,80,51,12,16,4,4,0.6,0.6
2025-09-07T2200,1373A,113.144,23.0453,佛山市,南海气象局,,19,19,25,11,19,25,,74,43,15,17,5,6,0.6,0.7
2025-09-07T2200,1374A,113.2881,22.8094,佛山市,顺德苏岗,,8,6,27,3,9,25,,58,33,14,19,6,6,0.5,0.5
2025-09-07T2200,1376A,112.8383,22.8678,佛山市,高明孔堂,,11,10,27,6,14,34,,92,54,16,17,4,4,0.4,0.2
2025-09-07T2200,1377A,112.8836,23.1588,佛山市,三水监测站,,13,9,29,9,19,23,,74,42,14,23,6,7,0.5,0.6
2025-09-07T2200,1378A,112.867,23.185,佛山市,三水云东海,,17,17,31,3,19,26,,84,42,11,23,2,3,0.6,0.7
2025-09-07T2200,3625A,113.2544,22.7642,佛山市,容桂街道办,,9,9,19,3,13,28,,68,36,16,19,6,6,0.6,0.7
2025-09-07T2200,1282A,119.2681,26.0504,福州市,师大,,20,20,18,9,7,34,,109,81,16,7,6,5,0.3,0.3
2025-09-07T2200,1283A,119.2984,26.1028,福州市,五四北路,,18,18,18,7,7,40,,106,80,12,8,4,4,0.2,0.2
2025-09-07T2200,1284A,119.2648,26.0768,福州市,杨桥西路,,18,18,18,3,7,38,,112,84,10,5,4,4,0.2,0.2
2025-09-07T2200,1285A,119.317,26.0746,福州市,紫阳,,23,23,23,8,7,36,,96,73,11,9,5,5,0.2,0.3
2025-09-07T2200,3048A,119.5799,26.0936,福州市,九龙,,11,11,15,3,4,18,,90,61,12,6,4,4,0.2,0.2
2025-09-07T2200,3526A,119.5189,25.9664,福州市,吴航,,15,12,18,3,8,45,,95,69,6,7,5,4,0.3,0.4
2025-09-07T2200,1755A,123.7977,41.8491,抚顺市,望花区,颗粒物(PM10),51,51,46,24,17,29,,115,73,32,25,7,9,0.8,1
2025-09-07T2200,1756A,123.9161,41.8822,抚顺市,顺城区,"颗粒物(PM10),细颗粒物(PM2.5)",52,54,37,36,16,4,,114,63,48,25,6,7,0.7,0.7
2025-09-07T2200,1757A,124.0436,41.8611,抚顺市,东洲区,,16,16,29,11,12,39,,114,80,14,11,5,6,0.4,0.4
2025-09-07T2200,1758A,123.9247,41.8642,抚顺市,新抚区,,,52,36,29,15,,,113,90,38,21,6,7,0.7,0.8
2025-09-07T2200,1759A,124.0972,41.8961,抚顺市,大伙房水库,,20,20,24,6,9,41,,106,77,16,12,8,9,0.5,0.6
2025-09-07T2200,1760A,123.7086,41.8391,抚顺市,沈抚新城,,41,41,33,15,16,19,,113,70,43,25,6,8,1.0,1
2025-09-07T2200,2376A,116.2127,28.0814,抚州市,桐源党溪,,38,38,29,20,17,55,,84,72,4,3,5,5,0.6,0.6
2025-09-07T2200,2377A,116.3544,27.9831,抚州市,市站,,37,37,29,24,17,64,,89,81,8,5,6,6,0.8,0.7
2025-09-07T2200,2378A,116.3565,27.963,抚州市,血防站,,40,40,33,23,19,66,,94,82,6,4,4,5,0.6,0.6
2025-09-07T2200,2379A,116.3564,28.0007,抚州市,采茶剧团,,46,40,31,32,18,62,,84,76,4,2,5,7,0.6,0.6
2025-09-07T2200,2380A,116.385,27.9647,抚州市,医学分院,,42,42,34,24,18,56,,87,77,9,3,3,5,0.7,0.7
2025-09-07T2200,2207A,121.6094,41.998,阜新市,工业园区,颗粒物(PM10),53,55,36,8,9,2,,79,43,40,25,8,14,0.5,0.5
2025-09-07T2200,2208A,121.6697,42.0279,阜新市,长青街,颗粒物(PM10),53,55,22,13,7,2,,78,52,48,18,10,13,2.2,0.5
2025-09-07T2200,2209A,121.6673,42.0705,阜新市,农业园区,,15,14,26,3,7,45,,77,66,15,13,6,9,1.5,0.6
2025-09-07T2200,2210A,121.6717,42.0224,阜新市,东苑,颗粒物(PM10),59,68,34,7,9,6,,80,51,47,20,19,18,4.8,0.6
2025-09-07T2200,2211A,121.6506,42.0498,阜新市,玉龙新城,,44,44,31,6,8,4,,79,43,41,21,9,13,0.3,0.4
2025-09-07T2200,2301A,115.8277,32.8929,阜阳市,市监测站,颗粒物(PM10),52,53,53,27,28,97,,141,129,20,16,5,6,0.5,0.5
2025-09-07T2200,2303A,115.8554,32.8605,阜阳市,开发区,颗粒物(PM10),66,82,54,29,22,84,,144,130,23,14,7,8,0.5,0.5
2025-09-07T2200,2875A,115.784,32.8892,阜阳市,阜阳职业技术学院,颗粒物(PM10),56,62,57,24,23,113,,148,139,14,12,7,8,0.5,0.6
2025-09-07T2200,3468A,115.7901,32.8613,阜阳市,市规划展馆,颗粒物(PM10),57,64,59,35,27,125,,161,150,17,15,4,5,0.6,0.7
2025-09-07T2200,3469A,115.836,32.9183,阜阳市,枣园社区,颗粒物(PM10),58,66,56,38,29,107,,146,136,17,13,7,7,0.7,0.7
2025-09-07T2200,2669A,102.9099,34.9841,甘南藏族自治州,州政府,颗粒物(PM10),59,67,57,31,25,65,,78,70,11,18,5,6,0.4,0.3
2025-09-07T2200,3380A,102.8914,34.9617,甘南藏族自治州,甘肃民族师范学院,颗粒物(PM10),71,92,75,46,25,69,,78,70,9,17,4,4,0.3,0.3
2025-09-07T2200,2570A,101.9603,30.0475,甘孜藏族自治州,水桥子,,25,,16,17,7,33,,62,52,20,16,6,6,0.4,0.4
2025-09-07T2200,3065A,101.9533,29.9972,甘孜藏族自治州,州环保局,,20,20,17,7,6,41,,66,54,14,17,4,4,0.4,0.4
2025-09-07T2200,3414A,115.8347,28.932,赣江新区,桑海产业园,,36,36,31,24,23,89,,115,110,14,8,8,7,0.9,0.6
2025-09-07T2200,2363A,114.9367,25.8664,赣州市,地委,,29,29,32,16,22,66,,107,81,7,9,5,7,0.6,0.8
2025-09-07T2200,2364A,114.9461,25.8481,赣州市,气象台,,31,31,32,12,19,63,,96,72,4,7,6,8,0.6,0.7
2025-09-07T2200,2365A,114.9322,25.8333,赣州市,市图书馆,,29,29,28,13,20,57,,94,69,5,8,4,5,0.6,0.7
2025-09-07T2200,2366A,114.8905,25.8471,赣州市,华坚鞋城,,44,44,33,10,19,53,,96,73,9,12,4,6,0.6,0.6
2025-09-07T2200,3109A,115.0093,25.8613,赣州市,赣县区卫计委,,20,17,29,14,25,60,,92,62,4,9,6,6,0.4,0.5
2025-09-07T2200,2684A,106.2792,36.0022,固原市,监测站,颗粒物(PM10),55,59,56,14,20,36,,102,93,54,21,8,8,0.4,0.3
2025-09-07T2200,2685A,106.2375,36.0211,固原市,新区,颗粒物(PM10),52,53,53,19,20,57,,93,87,31,21,8,8,0.3,0.3
2025-09-07T2200,3522A,106.2177,35.9959,固原市,原州区十五小,颗粒物(PM10),51,51,66,21,24,65,,96,89,21,14,8,8,0.3,0.2
2025-09-07T2200,2544A,106.6303,30.4576,广安市,市委,,20,19,24,14,17,56,,83,74,7,9,5,4,0.5,0.4
2025-09-07T2200,2545A,106.6271,30.4663,广安市,友谊中学,,20,19,23,10,12,64,,90,81,8,9,4,4,0.7,0.6
2025-09-07T2200,2547A,106.6388,30.4551,广安市,广电花园,,18,14,20,7,9,55,,81,72,6,8,3,4,0.5,0.5
2025-09-07T2200,2902A,106.6351,30.4865,广安市,北辰小学,,18,14,23,9,12,57,,82,74,7,7,6,6,0.6,0.5
2025-09-07T2200,2523A,105.8945,32.4535,广元市,黑石坡,,13,13,18,7,8,0,,35,20,16,10,10,8,0.4,0.3
2025-09-07T2200,2524A,105.821,32.4444,广元市,老城,,15,15,12,6,7,41,,71,44,12,12,1,2,0.7,0.7
2025-09-07T2200,2526A,105.8628,32.4287,广元市,监测站,,10,10,15,3,7,26,,59,36,17,12,7,7,0.8,0.7
2025-09-07T2200,3617A,105.8047,32.4166,广元市,经开区,,12,9,21,3,9,36,,53,36,8,14,5,7,0.6,0.6
2025-09-07T2200,1345A,113.2347,23.1423,广州市,广雅中学,,11,8,25,3,14,33,,73,44,12,21,3,4,0.3,0.1
2025-09-07T2200,1346A,113.2612,23.105,广州市,市五中,,11,,28,3,16,33,,82,49,16,18,5,5,0.4,0.4
2025-09-07T2200,1348A,113.3478,23.0916,广州市,广东商学院,,10,9,28,3,16,31,,79,48,16,21,4,4,0.2,0.3
2025-09-07T2200,1349A,113.4332,23.1047,广州市,市八十六中,,9,8,22,3,13,24,,66,40,18,25,4,4,0.7,0.7
2025-09-07T2200,1350A,113.3505,22.9483,广州市,番禺中学,,15,15,26,8,14,29,,74,44,12,15,5,6,0.6,0.6
2025-09-07T2200,1351A,113.2146,23.3916,广州市,花都师范,,15,15,36,7,19,27,,73,45,18,22,4,5,0.5,0.6
2025-09-07T2200,1352A,113.2597,23.1331,广州市,市监测站,,11,9,27,3,13,33,,71,45,11,17,5,6,0.3,0.5
2025-09-07T2200,1353A,113.5618,23.312,广州市,九龙镇镇龙,,9,9,28,3,16,20,,68,41,10,12,6,7,0.3,0.4
2025-09-07T2200,1354A,113.2765,23.1544,广州市,麓湖,,10,10,24,3,14,30,,68,44,14,22,2,3,0.2,0.3
2025-09-07T2200,1355A,113.443,23.3035,广州市,帽峰山森林公园,,10,,15,6,8,32,,66,44,6,12,6,6,0.5,0.5
2025-09-07T2200,2846A,113.3221,23.1322,广州市,体育西,,11,11,27,6,15,31,,73,45,13,19,4,5,0.5,0.6
2025-09-07T2200,3298A,113.5717,23.5491,广州市,从化街口,,,10,25,6,16,29,,68,44,8,13,7,8,,0.7
2025-09-07T2200,3299A,113.3472,23.3692,广州市,白云竹料,,9,7,26,3,15,26,,64,42,14,18,4,4,0.4,0.5
2025-09-07T2200,3300A,113.2981,23.237,广州市,白云嘉禾,,,9,25,3,14,32,,74,48,13,20,7,7,,0.5
2025-09-07T2200,3301A,113.4256,23.1716,广州市,黄埔科学城,,10,6,27,3,14,29,,71,47,9,14,5,5,0.6,0.6
2025-09-07T2200,3302A,113.3942,23.0483,广州市,番禺大学城,,22,22,34,3,14,31,,73,44,16,21,14,10,0.4,0.5
2025-09-07T2200,3303A,113.4922,22.8168,广州市,南沙黄阁,,12,10,26,3,10,38,,68,43,8,14,4,5,0.5,0.6
2025-09-07T2200,3304A,113.5342,22.7896,广州市,南沙街,,12,10,23,3,12,38,,70,44,11,15,4,5,0.4,0.4
2025-09-07T2200,3443A,113.2902,23.5544,广州市,花都梯面,,,,36,1,30,20,,68,44,11,20,4,4,0.5,0.4
2025-09-07T2200,3445A,113.7858,23.7478,广州市,从化良口,,10,6,19,3,13,31,,62,46,7,8,5,5,0.4,0.5
2025-09-07T2200,3446A,113.8051,23.2614,广州市,增城荔城,,10,6,19,3,11,32,,59,39,6,9,8,9,0.4,0.5
2025-09-07T2200,2506A,109.6047,23.0666,贵港市,江南子站,颗粒物(PM10),65,80,51,37,34,59,,124,101,17,15,6,8,1.0,0.7
2025-09-07T2200,2508A,109.5669,23.1065,贵港市,荷城子站,,28,22,34,19,20,68,,115,93,11,16,3,5,0.6,0.6
2025-09-07T2200,3405A,109.5886,23.1172,贵港市,新世纪学校,,35,29,35,24,24,71,,127,102,9,11,3,3,0.6,0.5
2025-09-07T2200,4260A,109.5933,23.0951,贵港市,中山路155-3号,,40,40,45,25,25,71,,128,104,10,13,3,6,0.6,0.5
2025-09-07T2200,1439A,106.6899,26.5998,贵阳市,马鞍山,,20,19,29,14,24,23,,60,53,20,11,3,3,0.7,0.6
2025-09-07T2200,1441A,106.6243,26.6266,贵阳市,鉴湖路,,22,22,42,3,20,68,,74,74,14,15,5,5,0.4,0.5
2025-09-07T2200,1442A,106.7487,26.6343,贵阳市,燕子冲,,25,,28,17,27,47,,74,71,14,14,2,3,0.5,0.5
2025-09-07T2200,1443A,106.6555,26.4365,贵阳市,碧云窝,,27,27,44,7,22,38,,83,70,10,11,4,5,0.3,0.4
2025-09-07T2200,1445A,106.7109,26.6027,贵阳市,红边门,,32,27,33,22,27,38,,76,72,36,18,3,2,0.6,0.4
2025-09-07T2200,1446A,106.7164,26.5699,贵阳市,新华路,,29,29,31,14,17,27,,77,69,47,16,5,8,0.4,0.4
2025-09-07T2200,1447A,106.674,26.5424,贵阳市,太慈桥,,19,19,26,3,17,19,,72,60,13,16,4,5,0.1,0.2
2025-09-07T2200,4230A,106.6882,26.5695,贵阳市,花果园大街66号,,25,22,22,17,23,38,,65,62,32,16,3,4,0.8,0.7
2025-09-07T2200,4231A,106.6873,26.5169,贵阳市,漓江路57号,,29,29,33,7,21,36,,81,72,21,16,4,5,0.4,0.5
2025-09-07T2200,1864A,110.3089,25.2708,桂林市,龙隐路小学,,33,29,33,23,25,38,,101,70,12,9,5,5,0.3,0.3
2025-09-07T2200,1865A,110.2869,25.2178,桂林市,八中,,32,32,30,22,22,46,,105,75,10,7,9,7,0.5,0.5
2025-09-07T2200,3531A,110.296,25.1253,桂林市,旅游学院,,25,,24,17,20,48,,101,70,3,8,4,6,0.4,0.4
2025-09-07T2200,4222A,110.1835,25.2444,桂林市,环湖路276号,,34,34,35,22,26,58,,112,88,10,10,5,11,0.3,0.3
2025-09-07T2200,4301A,110.2803,25.2773,桂林市,信义路13号,,30,30,33,20,20,47,,106,78,13,8,5,6,0.6,0.5
2025-09-07T2200,2674A,100.2561,34.4714,果洛藏族自治州,玛沁县大武镇,颗粒物(PM10),57,63,38,28,18,51,,124,110,29,7,21,20,0.6,0.5
2025-09-07T2200,1129A,126.5422,45.755,哈尔滨市,岭北,,22,18,16,7,7,69,,91,76,12,11,12,13,0.0,0.2
2025-09-07T2200,1130A,126.561,45.8167,哈尔滨市,松北商大,,28,28,23,3,5,32,,70,52,18,10,6,7,0.3,0.3
2025-09-07T2200,1131A,126.979,45.5419,哈尔滨市,阿城会宁,,34,34,24,9,9,31,,75,56,14,9,6,6,0.5,0.5
2025-09-07T2200,1132A,126.599,45.7222,哈尔滨市,南岗学府路,,34,34,35,6,6,46,,79,64,17,12,12,8,0.3,0.3
2025-09-07T2200,1133A,126.689,45.7733,哈尔滨市,太平宏伟公园,,28,28,29,3,8,42,,75,60,18,10,8,8,0.4,0.4
2025-09-07T2200,1134A,126.635,45.7667,哈尔滨市,道外承德广场,,45,45,46,28,12,22,,63,46,34,13,7,7,0.5,0.6
2025-09-07T2200,1135A,126.685,45.7319,哈尔滨市,香坊红旗大街,,31,31,35,6,6,32,,74,57,29,18,10,7,0.5,0.5
2025-09-07T2200,1136A,126.6411,45.7258,哈尔滨市,动力和平路,,33,33,31,3,5,43,,75,59,18,14,8,6,0.4,0.5
2025-09-07T2200,1137A,126.593,45.7478,哈尔滨市,道里建国路,,27,27,27,3,7,37,,64,51,24,18,14,5,1.0,0.9
2025-09-07T2200,1138A,126.615,45.61,哈尔滨市,平房东轻厂,,24,24,26,3,5,40,,70,47,19,14,8,8,0.3,0.4
2025-09-07T2200,1139A,126.595,45.9855,哈尔滨市,呼兰师专,,32,32,33,3,5,41,,68,50,17,12,7,7,0.6,0.6
2025-09-07T2200,1140A,126.6206,45.6842,哈尔滨市,省农科院,,41,41,65,6,7,34,,65,42,23,20,7,6,0.4,0.5
2025-09-07T2200,2688A,93.5128,42.8172,哈密市,地区监测站,颗粒物(PM10),73,95,122,35,37,86,,101,99,18,31,5,5,0.3,0.3
2025-09-07T2200,2689A,93.4961,42.8328,哈密市,哈密师范学校,颗粒物(PM10),72,94,98,29,36,72,,108,104,28,32,4,6,0.4,0.5
2025-09-07T2200,2671A,100.9048,36.9639,海北藏族自治州,海晏县西海镇,,32,28,47,18,22,101,,113,108,2,4,7,7,0.3,0.4
2025-09-07T2200,3867A,102.0738,36.5056,海东市,平安区公安北苑,,37,37,63,19,32,61,,116,107,31,6,9,14,1.0,0.7
2025-09-07T2200,1410A,110.3232,20.0574,海口市,海南大学,,24,9,18,3,8,75,,79,79,7,8,3,3,0.4,0.4
2025-09-07T2200,1411A,110.283,20.0053,海口市,秀英海南医院,,20,13,18,9,12,64,,72,72,10,10,6,6,0.4,0.3
2025-09-07T2200,1412A,110.338,19.9969,海口市,海南师范大学,,26,16,16,11,9,82,,84,84,5,6,4,4,0.5,0.4
2025-09-07T2200,1413A,110.33,20.0356,海口市,龙华路环保局宿舍,,26,11,15,9,9,81,,82,82,8,10,6,6,0.4,0.3
2025-09-07T2200,3539A,110.5111,19.9736,海口市,桂林洋子站,,18,16,18,8,8,56,,73,72,14,11,5,5,0.3,0.2
2025-09-07T2200,2673A,100.6188,36.2866,海南藏族自治州,共和县恰卜恰镇,颗粒物(PM10),62,73,53,18,23,81,,123,110,16,11,17,13,0.5,0.4
2025-09-07T2200,2676A,97.3731,37.3753,海西蒙古族藏族自治州,德令哈市,,41,41,42,10,17,114,,121,121,5,2,10,8,0.4,0.4
2025-09-07T2200,1048A,114.5302,36.6116,邯郸市,东污水处理厂,颗粒物(PM10),60,70,63,37,34,135,,164,157,12,13,13,10,0.7,0.8
2025-09-07T2200,1049A,114.4918,36.5713,邯郸市,矿院,颗粒物(PM10),54,58,46,36,35,139,,166,158,9,12,5,8,0.5,0.7
2025-09-07T2200,1050A,114.484,36.6133,邯郸市,丛台公园,颗粒物(PM10),59,68,53,34,29,138,,169,159,13,15,8,12,0.4,0.7
2025-09-07T2200,3458A,114.7895,36.5593,邯郸市,香泉濮院小区,颗粒物(PM10),70,90,70,28,20,126,,155,149,11,9,4,7,0.6,0.6
2025-09-07T2200,3579A,114.50634,36.77178,邯郸市,永年区实验高中,颗粒物(PM10),58,66,66,26,26,146,,180,164,10,17,6,13,0.9,1.4
2025-09-07T2200,3580A,114.20016,36.44293,邯郸市,峰峰矿区临水派出所,颗粒物(PM10),58,66,60,39,28,134,,180,172,16,14,10,11,1.3,0.7
2025-09-07T2200,2634A,106.9893,33.1842,汉中市,汉川机床厂子校,,40,40,43,28,19,56,,57,55,25,14,4,4,1.3,0.6
2025-09-07T2200,2635A,107.0154,33.0706,汉中市,市监测站,,19,15,28,13,15,46,,59,58,10,12,6,6,0.7,0.6
2025-09-07T2200,2636A,107.0089,33.1138,汉中市,鑫源开发区,,26,23,31,18,18,63,,58,54,22,16,6,8,0.9,0.6
2025-09-07T2200,2637A,107.007,33.0323,汉中市,南郑大河坎水厂,,23,23,25,12,12,27,,48,39,14,12,5,5,0.7,0.6
2025-09-07T2200,1223A,120.2072,30.2111,杭州市,滨江,颗粒物(PM10),57,64,42,36,23,151,,206,188,17,17,7,7,0.7,0.6
2025-09-07T2200,1224A,120.0633,30.2747,杭州市,西溪,细颗粒物(PM2.5),57,41,29,40,26,126,,184,167,20,16,8,8,0.8,0.6
2025-09-07T2200,1226A,120.3417,30.3150,杭州市,下沙,,49,46,35,34,23,117,,181,163,25,15,6,6,0.7,0.5
2025-09-07T2200,1227A,120.1269,30.2456,杭州市,卧龙桥,"颗粒物(PM10),细颗粒物(PM2.5)",52,53,35,36,26,119,,187,170,12,10,7,8,0.8,0.7
2025-09-07T2200,1228A,120.1903,30.2692,杭州市,浙江农大,颗粒物(PM10),58,66,44,39,26,121,,160,145,15,18,5,5,0.8,0.6
2025-09-07T2200,1230A,120.1197,30.3119,杭州市,和睦小学,,43,40,33,26,20,136,,199,174,15,14,5,5,0.7,0.6
2025-09-07T2200,1231A,120.3019,30.4183,杭州市,临平镇,颗粒物(PM10),55,59,41,34,22,135,,180,170,15,12,6,6,0.8,0.6
2025-09-07T2200,1232A,120.2753,30.1839,杭州市,城厢镇,细颗粒物(PM2.5),63,54,38,45,28,125,,202,174,21,16,9,9,0.9,0.7
2025-09-07T2200,1233A,120.0883,30.1808,杭州市,云栖,,47,47,30,29,20,112,,182,162,22,19,10,10,0.9,0.8
2025-09-07T2200,3557A,119.9464,30.0494,杭州市,镇二中,细颗粒物(PM2.5),59,64,34,42,29,131,,174,174,15,18,5,5,0.9,0.7
2025-09-07T2200,3558A,119.7183,30.2367,杭州市,市府大楼,,50,46,28,35,21,152,,168,168,11,10,9,8,0.6,0.5
2025-09-07T2200,3656A,120.1556,30.2864,杭州市,消防大队,细颗粒物(PM2.5),54,47,35,38,25,146,,192,170,15,15,7,8,0.8,0.6
2025-09-07T2200,1270A,117.1959,31.7848,合肥市,明珠广场,颗粒物(PM10),57,63,45,34,28,69,,160,136,41,21,6,6,0.8,0.8
2025-09-07T2200,1271A,117.3072,31.8764,合肥市,三里街,,49,41,45,34,30,98,,167,151,17,14,5,5,0.8,0.8
2025-09-07T2200,1272A,117.2588,31.8707,合肥市,琥珀山庄,,50,48,49,35,30,103,,172,156,17,13,8,8,1.0,0.9
2025-09-07T2200,1273A,117.1604,31.9052,合肥市,董铺水库,细颗粒物(PM2.5),55,58,45,39,31,76,,133,122,15,8,4,4,0.5,0.5
2025-09-07T2200,1274A,117.25,31.8571,合肥市,长江中路,细颗粒物(PM2.5),52,51,48,36,28,114,,172,161,13,12,6,6,0.8,0.7
2025-09-07T2200,1275A,117.266,31.9436,合肥市,庐阳区,颗粒物(PM10),58,66,51,39,29,89,,177,153,25,16,6,6,0.7,0.7
2025-09-07T2200,1276A,117.3453,31.8616,合肥市,瑶海区,,,53,47,32,29,,,176,173,23,18,6,7,0.8,0.8
2025-09-07T2200,1277A,117.3027,31.7964,合肥市,包河区,细颗粒物(PM2.5),58,56,49,41,32,55,,173,142,71,25,9,9,1.0,0.8
2025-09-07T2200,1278A,117.2776,31.7385,合肥市,滨湖新区,细颗粒物(PM2.5),67,63,45,48,36,97,,168,155,21,15,5,5,0.9,0.8
2025-09-07T2200,1279A,117.1318,31.8403,合肥市,高新区,颗粒物(PM10),54,58,46,36,29,100,,161,153,29,17,6,5,0.9,0.8
2025-09-07T2200,3464A,117.3803,31.9147,合肥市,高教基地,细颗粒物(PM2.5),59,51,42,42,29,79,,143,125,12,11,6,6,0.7,0.7
2025-09-07T2200,3614A,79.924,37.0877,和田地区,地区环保局,颗粒物(PM10),240,378,408,99,112,45,,96,88,43,16,3,3,0.7,0.6
2025-09-07T2200,3615A,79.9131,37.113,和田地区,市环保局,颗粒物(PM10),286,410,369,87,100,20,,98,86,70,30,1,1,0.1,0.4
2025-09-07T2200,2517A,108.0497,24.6947,河池市,市环保站,,25,24,26,17,15,51,,92,81,10,10,5,6,0.6,0.6
2025-09-07T2200,2518A,108.0983,24.6989,河池市,市疾控中心,,29,25,27,20,20,51,,98,85,17,13,6,7,0.6,0.6
2025-09-07T2200,1696A,114.6778,23.7569,河源市,源西,,11,,20,3,13,34,,54,40,5,10,2,2,0.8,0.9
2025-09-07T2200,1697A,114.6944,23.7586,河源市,东埔,,12,8,22,8,16,34,,54,41,6,8,4,5,0.7,0.8
2025-09-07T2200,1698A,114.6892,23.7233,河源市,老城,,13,6,23,3,14,40,,53,,4,8,4,5,0.6,0.6
2025-09-07T2200,1718A,115.4208,35.2464,菏泽市,气象局,,,57,64,24,24,69,,114,103,,9,,7,,0.4
2025-09-07T2200,3374A,115.5564,35.0891,菏泽市,定陶老年大学,,29,29,55,9,21,75,,112,92,9,15,5,6,0.0,0.2
2025-09-07T2200,4184A,115.4797,35.24401,菏泽市,永昌路1号,颗粒物(PM10),52,53,59,23,26,65,,116,99,15,12,7,8,0.5,0.6
2025-09-07T2200,4193A,115.4715,35.2800,菏泽市,长城路999号,颗粒物(PM10),53,55,58,19,21,68,,123,107,20,17,9,10,0.2,0.4
2025-09-07T2200,2514A,111.5264,24.4172,贺州市,环保小区,,23,23,30,11,18,49,,101,76,12,10,14,14,0.3,0.4
2025-09-07T2200,2515A,111.5608,24.4078,贺州市,政协大楼,,19,16,24,13,16,56,,114,82,11,12,9,10,0.4,0.5
2025-09-07T2200,3534A,111.4744,24.4553,贺州市,西湾,,11,,19,3,15,33,,66,59,15,14,6,5,0.6,0.5
2025-09-07T2200,2385A,114.17,35.9019,鹤壁市,市监测站,颗粒物(PM10),65,79,59,44,29,114,,158,150,17,12,5,9,0.7,0.6
2025-09-07T2200,2386A,114.2956,35.7511,鹤壁市,市交警支队,颗粒物(PM10),59,67,60,22,31,76,,158,142,18,13,6,5,0.7,0.6
2025-09-07T2200,2387A,114.2878,35.7306,鹤壁市,迎宾馆,颗粒物(PM10),62,74,70,29,30,72,,156,138,22,18,3,6,0.6,0.7
2025-09-07T2200,3474A,114.2617,35.6822,鹤壁市,大新区,颗粒物(PM10),61,71,78,24,21,63,,152,129,22,21,10,10,0.5,0.7
2025-09-07T2200,3596A,114.1572,35.9603,鹤壁市,南山宾馆,颗粒物(PM10),67,83,69,30,32,118,,165,156,16,12,5,7,0.8,0.7
2025-09-07T2200,2244A,130.2537,47.3416,鹤岗市,哈啤分公司,,29,29,30,7,10,53,,86,76,4,7,11,13,0.2,0.2
2025-09-07T2200,2245A,130.2684,47.3086,鹤岗市,斯达机电,,29,29,28,14,15,67,,88,80,4,8,12,13,0.3,0.3
2025-09-07T2200,2246A,130.3114,47.3388,鹤岗市,东山纸板厂,,27,27,37,16,16,60,,87,80,9,12,13,13,0.4,0.5
2025-09-07T2200,2247A,130.1097,47.3382,鹤岗市,五号水库,,14,14,12,3,6,31,,78,62,7,8,7,8,0.2,0.2
2025-09-07T2200,2263A,127.4833,50.2524,黑河市,交通局,,30,,17,21,16,24,,44,33,8,11,7,8,0.4,0.5
2025-09-07T2200,2264A,127.5144,50.2341,黑河市,环保局,,18,18,14,10,9,25,,47,37,9,9,4,4,0.4,0.4
2025-09-07T2200,2265A,127.5291,50.2472,黑河市,大黑河岛,,,,,6,7,26,,38,32,2,2,21,20,0.3,0.3
2025-09-07T2200,1074A,115.6838,37.7541,衡水市,电机北厂,颗粒物(PM10),62,74,72,25,26,92,,169,152,25,15,11,14,0.4,0.7
2025-09-07T2200,1075A,115.6303,37.7316,衡水市,市监测站,颗粒物(PM10),63,75,72,31,23,92,,165,148,21,17,7,11,0.5,0.8
2025-09-07T2200,3188A,115.6683,37.7217,衡水市,市城管局,颗粒物(PM10),64,77,69,30,26,98,,168,151,21,15,8,11,0.4,0.7
2025-09-07T2200,3459A,115.5989,37.5491,衡水市,地表水厂,颗粒物(PM10),67,84,78,24,27,66,,153,126,33,23,3,6,0.3,0.5
2025-09-07T2200,2456A,112.5003,26.9167,衡阳市,原169医院,颗粒物(PM10),55,59,45,33,23,49,,114,101,6,4,7,6,0.8,0.7
2025-09-07T2200,2457A,112.6194,26.9258,衡阳市,衡阳化工总厂,,48,41,45,33,29,86,,109,106,9,8,2,4,1.0,1
2025-09-07T2200,2458A,112.6211,26.8956,衡阳市,珠晖区环保局,,50,50,41,27,23,74,,111,104,20,12,5,6,1.2,1.1
2025-09-07T2200,2459A,112.6197,26.8733,衡阳市,市委党校,,39,38,28,27,22,99,,117,115,6,7,2,3,0.7,0.6
2025-09-07T2200,2460A,112.6006,26.8919,衡阳市,市监测站,颗粒物(PM10),56,62,42,25,24,85,,115,110,15,8,3,4,0.9,0.9
2025-09-07T2200,2461A,112.5664,26.9056,衡阳市,真空机电公司,,,72,48,34,28,,,108,108,5,6,5,4,1.0,1
2025-09-07T2200,3399A,112.6703,26.882,衡阳市,师范学院,,47,47,38,32,22,83,,113,109,9,7,2,2,1.0,0.9
2025-09-07T2200,2608A,103.3772,23.3993,红河哈尼族彝族自治州,污水处理厂,,36,36,29,24,20,51,,79,59,11,9,8,9,0.4,0.3
2025-09-07T2200,2609A,103.3861,23.35,红河哈尼族彝族自治州,监测站,,37,37,29,24,16,63,,80,70,7,4,9,10,0.2,0.2
2025-09-07T2200,3038A,103.3758,23.368,红河哈尼族彝族自治州,州图书馆,细颗粒物(PM2.5),55,,23,39,22,65,,77,67,8,6,2,2,0.3,0.3
2025-09-07T2200,1090A,111.6507,40.7517,呼和浩特市,呼市一监,,46,46,25,18,8,36,,77,69,24,9,3,4,0.3,0.2
2025-09-07T2200,1091A,111.6572,40.8033,呼和浩特市,小召,,36,36,26,13,7,18,,80,67,55,17,5,6,0.5,0.4
2025-09-07T2200,1094A,111.7516,40.8369,呼和浩特市,如意水处理厂,,16,16,18,3,5,34,,80,63,27,13,6,6,0.1,0.2
2025-09-07T2200,1095A,111.7276,40.8062,呼和浩特市,二十九中,,41,41,25,6,6,31,,86,73,33,12,6,7,0.5,0.5
2025-09-07T2200,1096A,111.5512,40.7866,呼和浩特市,工大金川校区,,29,27,31,7,7,9,,81,64,58,18,6,6,0.5,0.4
2025-09-07T2200,1097A,111.717,40.7612,呼和浩特市,化肥厂生活区,,42,42,27,15,8,19,,86,70,46,16,6,7,0.4,0.3
2025-09-07T2200,3698A,111.5968,40.8178,呼和浩特市,红旗小学,,24,24,24,7,5,37,,85,72,39,13,3,4,0.2,0.1
2025-09-07T2200,3699A,111.6518,40.8389,呼和浩特市,海东办,,44,44,25,14,6,18,,86,65,46,15,5,6,0.3,0.3
2025-09-07T2200,2192A,119.7594,49.2261,呼伦贝尔市,区环保局,,29,20,22,20,16,24,,41,27,4,5,6,5,0.3,0.3
2025-09-07T2200,3061A,119.7512,49.1577,呼伦贝尔市,国华电力东,,22,22,19,10,12,30,,44,34,2,2,7,7,0.2,0.2
2025-09-07T2200,1250A,120.0751,30.8669,湖州市,城西水厂,,49,40,36,31,26,156,,170,165,16,22,7,8,0.6,0.6
2025-09-07T2200,2873A,120.0830,30.8929,湖州市,仁皇山新区,,50,45,34,35,25,130,,161,156,11,12,4,5,0.7,0.6
2025-09-07T2200,2907A,120.1844,30.8596,湖州市,吴兴区站,,48,39,30,33,24,120,,158,146,36,13,7,8,0.8,0.7
2025-09-07T2200,3562A,120.4148,30.8538,湖州市,南浔区站,细颗粒物(PM2.5),68,,33,49,33,112,,151,144,14,9,6,7,1.0,1
2025-09-07T2200,1607A,120.9049,40.7211,葫芦岛市,龙港区,细颗粒物(PM2.5),104,88,45,78,23,20,,167,134,72,27,6,7,1.0,0.6
2025-09-07T2200,1608A,120.8392,40.7514,葫芦岛市,化工街,颗粒物(PM10),60,70,44,29,16,34,,158,130,78,39,21,11,0.9,0.6
2025-09-07T2200,1609A,120.8341,40.7073,葫芦岛市,新区,"颗粒物(PM10),细颗粒物(PM2.5)",64,78,42,46,20,27,,170,144,99,28,7,6,1.0,0.7
2025-09-07T2200,1610A,120.8695,40.7677,葫芦岛市,东城区,细颗粒物(PM2.5),84,85,55,62,25,41,,159,132,58,45,42,16,1.1,0.8
2025-09-07T2200,2482A,109.5981,27.5721,怀化市,林科所,,34,34,32,19,12,82,,93,88,6,5,3,4,0.7,0.7
2025-09-07T2200,2483A,109.9453,27.5444,怀化市,河西地税局,,39,39,32,26,23,70,,87,78,9,6,4,5,0.4,0.4
2025-09-07T2200,2484A,109.9781,27.5342,怀化市,市四医院,,40,40,33,25,26,71,,94,88,7,3,7,7,0.1,0.1
2025-09-07T2200,2485A,109.9972,27.5578,怀化市,监测楼,,40,40,34,26,23,70,,90,85,9,5,4,5,0.3,0.3
2025-09-07T2200,2486A,110.0394,27.583,怀化市,市委党校,,45,39,31,31,24,56,,80,75,14,5,5,6,0.4,0.4
2025-09-07T2200,1210A,119.036,33.5981,淮安市,钵池山,,49,44,35,34,27,63,,131,109,24,13,6,7,1.0,0.9
2025-09-07T2200,1211A,119.007,33.575,淮安市,北京南路,颗粒物(PM10),52,53,45,34,30,90,,127,112,18,16,6,8,1.0,1
2025-09-07T2200,1212A,118.989,33.6067,淮安市,市监测站,细颗粒物(PM2.5),52,51,50,36,34,73,,127,105,17,18,10,12,0.9,0.7
2025-09-07T2200,1213A,119.135,33.5039,淮安市,楚州区监测站,,46,46,50,28,27,95,,130,121,15,16,8,8,0.7,0.6
2025-09-07T2200,3426A,118.8755,33.2894,淮安市,新华书店,,35,34,33,24,23,92,,134,120,19,12,7,7,0.9,0.8
2025-09-07T2200,4206A,119.0288,33.6319,淮安市,承德北路606号,颗粒物(PM10),51,51,52,34,28,70,,129,108,19,13,6,7,0.7,0.7
2025-09-07T2200,2282A,116.8004,33.975,淮北市,监测站,颗粒物(PM10),61,72,50,24,22,83,,125,115,15,16,8,9,1.1,0.9
2025-09-07T2200,2283A,116.8091,33.9007,淮北市,烈山区政府,颗粒物(PM10),57,63,52,19,19,83,,121,115,11,10,10,10,0.6,0.5
2025-09-07T2200,3330A,116.8873,33.9836,淮北市,杜集区检察院,颗粒物(PM10),56,61,53,30,25,66,,122,108,12,8,10,11,0.7,0.7
2025-09-07T2200,4017A,116.7923,33.9535,淮北市,市博物馆,颗粒物(PM10),56,62,53,26,24,84,,129,121,15,12,8,9,0.7,0.6
2025-09-07T2200,2279A,116.8569,32.5951,淮南市,谢家集区政府,,41,41,35,28,21,107,,149,129,9,11,7,10,0.4,0.4
2025-09-07T2200,2280A,116.8281,32.633,淮南市,八公山区政府,颗粒物(PM10),53,56,45,34,25,66,,150,116,13,10,6,8,0.4,0.4
2025-09-07T2200,2894A,117.0566,32.6531,淮南市,经济技术开发区消防队,,39,37,33,27,14,95,,144,129,12,11,9,10,0.4,0.4
2025-09-07T2200,3329A,117.0108,32.5893,淮南市,山南新区,,39,39,35,22,16,122,,149,136,8,12,6,6,0.5,0.5
2025-09-07T2200,4209A,117.0031,32.6445,淮南市,国庆中路369号,,42,42,46,26,27,121,,163,155,8,9,5,7,0.5,0.5
2025-09-07T2200,2446A,114.9028,30.4742,黄冈市,职工中心,颗粒物(PM10),51,51,39,35,27,108,,176,166,17,12,4,5,0.8,0.8
2025-09-07T2200,2929A,114.8858,30.4519,黄冈市,红卫路,,48,46,42,33,25,119,,165,160,14,14,4,5,0.7,0.7
2025-09-07T2200,3398A,114.9136,30.4445,黄冈市,市林业局,,40,38,40,26,22,125,,172,167,10,12,5,6,0.6,0.6
2025-09-07T2200,2672A,102.0199,35.5102,黄南藏族自治州,同仁县隆务镇,颗粒物(PM10),68,85,67,32,25,98,,94,94,1,4,10,9,0.4,0.4
2025-09-07T2200,2295A,118.2903,29.6963,黄山市,延安路89号,,44,44,28,8,10,36,,102,71,8,6,4,4,0.5,0.4
2025-09-07T2200,2297A,118.1371,30.2756,黄山市,黄山区政府5号楼,,33,33,25,12,11,53,,87,73,4,3,4,4,0.7,0.7
2025-09-07T2200,4210A,118.3354,29.7203,黄山市,滨江东路7-2号,,35,35,23,15,8,36,,84,58,13,6,2,2,0.5,0.4
2025-09-07T2200,2423A,115.0601,30.2313,黄石市,沈家营,颗粒物(PM10),66,82,56,24,18,57,,150,135,42,10,7,7,0.7,0.8
2025-09-07T2200,2426A,114.8988,30.2019,黄石市,铁山,颗粒物(PM10),55,59,49,33,22,78,,143,128,7,11,7,7,0.4,0.4
2025-09-07T2200,2427A,115.0307,30.2092,黄石市,团城山,颗粒物(PM10),54,57,39,28,18,105,,142,137,8,8,7,7,0.6,0.7
2025-09-07T2200,3149A,115.0235,30.1578,黄石市,笔架山北路,,45,45,34,17,14,90,,122,112,3,7,6,6,0.4,0.4
2025-09-07T2200,4185A,115.0780,30.21118,黄石市,磁湖东路29号,颗粒物(PM10),70,90,60,32,21,80,,147,136,28,13,6,10,0.8,0.9
2025-09-07T2200,1392A,114.4183,23.0528,惠州市,河南岸金山湖子站,,12,7,16,3,5,37,,52,39,5,8,8,8,0.4,0.5
2025-09-07T2200,1393A,114.4053,23.0822,惠州市,下埔横江三路子站,,12,8,18,3,12,37,,58,40,6,6,5,6,0.4,0.5
2025-09-07T2200,1394A,114.4103,23.1142,惠州市,江北云山西路子站,,11,10,18,3,10,35,,63,42,10,9,8,8,0.5,0.5
2025-09-07T2200,1395A,114.4645,22.7833,惠州市,惠阳区承修路船湖子站,,13,8,12,3,6,40,,54,42,8,8,7,7,0.5,0.5
2025-09-07T2200,1396A,114.5317,22.7422,惠州市,大亚湾管委会子站,,12,12,17,3,7,33,,48,42,15,11,8,8,0.6,0.6
2025-09-07T2200,3314A,114.4338,22.8134,惠州市,惠阳秋长,,12,9,16,3,8,36,,53,40,9,7,13,13,0.5,0.5
2025-09-07T2200,3452A,114.6517,22.775,惠州市,大亚湾霞涌,,12,12,11,3,6,38,,58,50,6,5,6,7,0.4,0.5
2025-09-07T2200,2240A,130.9762,45.3001,鸡西市,环保局,,23,23,21,3,8,68,,79,76,12,12,6,6,0.6,0.6
2025-09-07T2200,2243A,130.9429,45.3039,鸡西市,第一中学,,23,18,19,7,7,71,,77,76,6,7,9,9,0.6,0.6
2025-09-07T2200,3707A,131.0207,45.3073,鸡西市,欧美日汽修厂,,20,18,24,10,12,61,,77,73,13,14,9,9,0.7,0.7
2025-09-07T2200,3709A,130.9967,45.3106,鸡西市,市政设施管理处,,30,30,29,14,12,66,,85,79,19,18,8,8,0.7,0.7
2025-09-07T2200,2367A,114.9754,27.0803,吉安市,红声器材厂,,36,36,37,20,17,62,,108,87,8,6,9,9,0.5,0.5
2025-09-07T2200,2368A,114.9658,27.0999,吉安市,市森林工业局,,49,49,171,25,27,54,,47,,8,6,7,9,0.9,0.6
2025-09-07T2200,2369A,114.99,27.1312,吉安市,市环境监测站,,35,35,31,22,17,66,,102,84,5,5,11,12,0.5,0.5
2025-09-07T2200,2370A,115.0093,27.0968,吉安市,青原区法院,,37,37,36,20,21,60,,107,81,7,7,25,11,0.6,0.6
2025-09-07T2200,1772A,126.54,43.8622,吉林市,哈达湾,,20,20,19,8,10,54,,97,86,22,10,7,7,0.3,0.3
2025-09-07T2200,1773A,126.5844,43.8358,吉林市,东局子,,34,34,27,10,10,56,,99,81,21,12,6,6,0.5,0.5
2025-09-07T2200,1774A,126.5052,43.8245,吉林市,电力学院,,41,41,23,16,10,26,,96,70,23,9,6,6,0.6,0.6
2025-09-07T2200,1775A,126.6133,43.8972,吉林市,江北,,24,24,23,12,12,47,,88,69,17,10,6,6,0.5,0.4
2025-09-07T2200,1776A,126.555,43.8306,吉林市,江南公园,,23,23,19,6,10,52,,98,83,18,8,3,2,0.4,0.4
2025-09-07T2200,2868A,126.4739,43.953,吉林市,九站,,19,11,18,10,10,59,,97,76,18,12,4,5,0.3,0.4
2025-09-07T2200,1299A,116.9862,36.6114,济南市,科干所,,44,44,42,20,18,136,,134,134,8,16,7,7,0.5,0.5
2025-09-07T2200,1300A,116.9376,36.665,济南市,农科所,,49,49,44,20,17,101,,121,114,24,21,8,9,0.5,0.5
2025-09-07T2200,1301A,117.1265,36.6734,济南市,开发区,颗粒物(PM10),52,54,40,24,20,86,,134,122,29,19,7,8,0.7,0.5
2025-09-07T2200,1303A,117.0624,36.6868,济南市,省种子仓库,颗粒物(PM10),56,61,52,19,18,103,,133,126,27,25,5,5,0.6,0.6
2025-09-07T2200,1304A,116.9489,36.6447,济南市,机床二厂,颗粒物(PM10),55,59,52,24,20,95,,126,120,28,18,10,10,0.5,0.5
2025-09-07T2200,1305A,117.0495,36.663,济南市,市监测站,颗粒物(PM10),52,54,45,22,19,98,,121,114,29,22,10,10,0.7,0.7
2025-09-07T2200,1306A,116.7675,36.5484,济南市,长清党校,颗粒物(PM10),53,56,44,17,19,112,,126,124,22,23,8,7,0.6,0.6
2025-09-07T2200,1616A,117.6795,36.229,济南市,技术学院,颗粒物(PM10),63,75,48,41,27,117,,151,141,17,26,12,13,1.0,1
2025-09-07T2200,1961A,117.532,36.6868,济南市,东山小学,颗粒物(PM10),53,56,43,24,14,75,,121,112,32,20,6,7,0.5,0.4
2025-09-07T2200,3059A,117.7161,36.2049,济南市,泰兴公司,颗粒物(PM10),60,70,53,34,29,78,,147,121,34,30,16,17,0.8,0.9
2025-09-07T2200,3064A,117.6867,36.2171,济南市,莱芜战役纪念馆,细颗粒物(PM2.5),69,73,52,50,31,112,,145,132,21,30,10,11,0.8,0.8
2025-09-07T2200,3494A,117.1673,36.9782,济南市,济阳区政府,颗粒物(PM10),59,68,68,17,20,103,,152,136,30,32,8,9,0.3,0.4
2025-09-07T2200,3495A,117.1171,36.63,济南市,锦屏中学,,46,46,35,12,11,65,,119,98,24,14,9,9,0.9,0.7
2025-09-07T2200,3682A,116.9814,36.6819,济南市,济南四建,,48,48,45,17,21,128,,135,134,17,17,6,6,0.6,0.6
2025-09-07T2200,1653A,116.6251,35.4302,济宁市,火炬城,颗粒物(PM10),52,53,55,29,27,66,,142,118,13,12,6,7,0.3,0.4
2025-09-07T2200,1655A,116.5491,35.4042,济宁市,电化厂,颗粒物(PM10),62,74,57,29,26,53,,144,114,26,20,4,6,0.6,0.7
2025-09-07T2200,3500A,116.5814,35.3707,济宁市,北湖一中,颗粒物(PM10),56,62,52,35,29,54,,137,110,19,12,6,8,0.4,0.5
2025-09-07T2200,3501A,116.8249,35.5593,济宁市,服务中心,颗粒物(PM10),57,64,53,14,18,62,,135,120,21,19,6,6,0.2,0.3
2025-09-07T2200,3678A,116.5907,35.4054,济宁市,市第七中学,颗粒物(PM10),53,55,57,22,20,65,,141,116,15,12,5,7,0.4,0.4
2025-09-07T2200,2255A,130.2751,46.8028,佳木斯市,佳纺,,26,26,22,6,8,53,,77,72,8,11,6,6,0.4,0.4
2025-09-07T2200,2256A,130.3995,46.8307,佳木斯市,发电厂,,34,34,37,7,8,55,,72,70,6,13,7,7,0.4,0.4
2025-09-07T2200,2257A,130.3258,46.7975,佳木斯市,环保局,,23,23,17,3,6,51,,77,73,12,10,8,8,0.5,0.4
2025-09-07T2200,2258A,130.3648,46.8032,佳木斯市,十一中,,31,31,23,8,9,51,,68,66,10,12,7,7,0.5,0.5
2025-09-07T2200,2259A,130.3794,46.7588,佳木斯市,四丰,,10,10,10,6,5,28,,26,26,12,8,1,25,0.2,0.3
2025-09-07T2200,1252A,120.7436,30.778,嘉兴市,清河小学,,48,48,47,25,28,119,,193,185,14,15,6,6,0.7,0.8
2025-09-07T2200,1253A,120.726,30.7478,嘉兴市,嘉兴学院,细颗粒物(PM2.5),52,42,46,36,34,155,,212,206,15,24,4,5,0.7,0.7
2025-09-07T2200,2872A,120.7846,30.7525,嘉兴市,南湖区残联,细颗粒物(PM2.5),65,,45,47,40,144,,199,191,13,15,5,6,0.8,0.8
2025-09-07T2200,3407A,120.6916,30.7739,嘉兴市,秀洲住建,,50,41,46,27,32,157,,221,214,14,17,6,6,0.7,0.8
2025-09-07T2200,1945A,98.2908,39.7711,嘉峪关市,气象局,颗粒物(PM10),64,78,75,17,18,80,,109,100,31,15,5,19,0,0.3
2025-09-07T2200,2884A,98.2672,39.7978,嘉峪关市,酒钢宾馆,颗粒物(PM10),65,80,90,27,24,99,,118,111,19,12,18,28,0.4,0.4
2025-09-07T2200,3248A,98.2643,39.7724,嘉峪关市,雄关区,颗粒物(PM10),58,65,66,27,20,82,,106,103,24,19,10,18,0.1,0.4
2025-09-07T2200,1383A,113.1064,22.6058,江门市,北街,,14,6,22,3,8,43,,67,50,8,13,3,4,0.3,0.4
2025-09-07T2200,1384A,113.0731,22.5835,江门市,西区,,21,21,28,8,12,38,,65,49,11,13,8,9,0.4,0.5
2025-09-07T2200,1385A,113.0219,22.5311,江门市,圭峰西,,12,6,23,3,12,36,,62,50,12,13,3,4,0.5,0.5
2025-09-07T2200,1386A,113.0828,22.5947,江门市,东湖,,11,8,18,6,14,33,,56,41,11,14,6,6,0.4,0.5
2025-09-07T2200,3311A,113.1075,22.5647,江门市,江海富民,,12,12,37,8,17,38,,64,51,10,12,4,5,0.2,0.2
2025-09-07T2200,3449A,113.05,22.4667,江门市,新会银湖,,11,11,20,3,15,25,,47,39,12,16,2,2,0.4,0.5
2025-09-07T2200,3335A,113.3137,35.2641,焦作市,马村街道办,颗粒物(PM10),59,67,59,27,27,81,,145,127,16,15,7,7,0.5,0.6
2025-09-07T2200,3336A,113.2465,35.2373,焦作市,焦作技师学院,颗粒物(PM10),59,67,72,24,22,68,,140,121,23,18,7,9,0.6,0.6
2025-09-07T2200,3477A,113.1656,35.2539,焦作市,中站许衡医院,细颗粒物(PM2.5),53,50,56,37,29,59,,144,123,32,14,7,8,0.5,0.6
2025-09-07T2200,3981A,113.2449,35.1803,焦作市,原李万街道办,颗粒物(PM10),61,72,66,17,25,75,,144,122,17,17,8,10,0.5,0.6
2025-09-07T2200,4264A,113.2340,35.2190,焦作市,新安路1731号,颗粒物(PM10),61,72,71,21,25,85,,141,124,16,15,6,8,0.7,0.8
2025-09-07T2200,4295A,113.2722,35.2121,焦作市,人民路3066号,颗粒物(PM10),68,86,74,19,23,73,,143,121,18,16,4,5,0.3,0.5
2025-09-07T2200,1708A,116.3701,23.5345,揭阳市,新兴,,10,8,16,7,11,22,,50,33,18,10,4,6,0.5,0.4
2025-09-07T2200,1709A,116.3264,23.5443,揭阳市,西马,,9,9,17,3,7,27,,52,37,12,6,3,4,0.5,0.3
2025-09-07T2200,1710A,116.3611,23.5626,揭阳市,东兴,,10,7,13,7,8,24,,49,33,13,7,6,7,0.6,0.5
2025-09-07T2200,1711A,116.4151,23.5294,揭阳市,渔湖,,12,,14,8,3,17,,54,34,18,5,3,3,0.6,0.5
2025-09-07T2200,3320A,116.403,23.5699,揭阳市,曲溪,,15,15,14,3,8,26,,54,38,13,5,4,2,0.5,0.4
2025-09-07T2200,1944A,102.1692,38.5167,金昌市,天庆家园,颗粒物(PM10),54,58,81,20,26,75,,98,94,13,16,3,13,0.1,0.3
2025-09-07T2200,4022A,102.1647,38.5371,金昌市,金川区人防中心,,49,49,74,18,22,68,,98,92,10,10,8,15,0.4,0.5
2025-09-07T2200,4239A,102.1930,38.5319,金昌市,长春路96号,颗粒物(PM10),52,53,77,15,21,86,,98,97,6,11,4,12,0.6,0.6
2025-09-07T2200,1262A,119.647,29.077,金华市,十五中,颗粒物(PM10),54,58,35,25,18,79,,137,122,32,15,2,2,0.5,0.5
2025-09-07T2200,1263A,119.686,29.1029,金华市,监测站,颗粒物(PM10),55,59,39,36,21,95,,131,123,27,18,5,4,0.6,0.6
2025-09-07T2200,3659A,119.656,29.1131,金华市,气象局,,46,46,34,27,19,100,,129,116,19,20,3,3,0.5,0.5
2025-09-07T2200,1767A,121.1115,41.0879,锦州市,南山,,42,42,36,29,18,93,,133,130,29,20,5,7,0.8,0.7
2025-09-07T2200,1768A,121.0604,40.8428,锦州市,开发区,颗粒物(PM10),55,60,52,36,17,128,,170,167,46,32,7,9,1.0,0.8
2025-09-07T2200,1769A,121.1836,41.1119,锦州市,百股街道,颗粒物(PM10),55,59,35,24,13,40,,127,113,41,19,6,8,0.8,0.7
2025-09-07T2200,1770A,121.1178,41.1222,锦州市,天安街道,"颗粒物(PM10),细颗粒物(PM2.5)",55,60,43,39,21,70,,141,135,51,23,11,12,1.0,0.8
2025-09-07T2200,1771A,121.1303,41.1386,锦州市,北湖公园,,49,49,38,28,18,70,,127,122,26,17,9,7,0.7,0.8
2025-09-07T2200,2160A,112.85,35.5051,晋城市,自来水公司,颗粒物(PM10),59,67,74,27,26,127,,136,136,16,17,4,6,0.6,1.1
2025-09-07T2200,2161A,112.8318,35.4936,晋城市,白云商贸,颗粒物(PM10),69,88,76,22,21,131,,147,146,16,16,4,6,0.6,1
2025-09-07T2200,2162A,112.8508,35.4887,晋城市,市环保局,颗粒物(PM10),62,73,68,24,25,120,,134,132,11,14,4,6,0.9,1.4
2025-09-07T2200,2163A,112.8676,35.4897,晋城市,技术学院,颗粒物(PM10),59,68,63,19,20,119,,134,133,15,15,6,7,0.9,1.3
2025-09-07T2200,3620A,112.8271,35.4828,晋城市,泽州一中,颗粒物(PM10),61,71,77,19,23,126,,153,150,17,14,4,6,0.6,1
2025-09-07T2200,2173A,112.7249,37.7067,晋中市,南都小区,颗粒物(PM10),82,113,72,39,26,42,,157,130,56,20,7,11,0.9,0.8
2025-09-07T2200,2174A,112.6991,37.6982,晋中市,榆次区政府,颗粒物(PM10),89,127,71,41,25,47,,155,131,46,18,8,10,1.0,0.6
2025-09-07T2200,2865A,112.7195,37.6828,晋中市,榆次三中,颗粒物(PM10),78,105,77,31,26,36,,153,124,72,25,11,12,2.3,0.8
2025-09-07T2200,4200A,112.7478,37.6954,晋中市,迎宾街26号,颗粒物(PM10),69,88,66,24,23,50,,160,135,31,16,5,9,0.7,0.8
2025-09-07T2200,2439A,112.2014,31.0481,荆门市,竹园小学,,33,33,41,16,16,62,,121,102,12,10,2,2,0.6,0.4
2025-09-07T2200,2440A,112.1969,30.9891,荆门市,掇刀,,35,35,41,19,18,69,,128,110,11,9,2,1,0.6,0.5
2025-09-07T2200,2441A,112.2213,31.0386,荆门市,石化一小,,40,40,42,16,17,60,,117,99,14,12,9,5,0.5,0.4
2025-09-07T2200,3012A,112.1849,31.0362,荆门市,西山林语,,36,36,37,17,16,84,,122,106,7,7,3,3,0.5,0.6
2025-09-07T2200,3547A,112.1632,31.0138,荆门市,龙泉中学南校,,31,31,33,12,16,88,,124,111,12,12,4,3,0.8,0.7
2025-09-07T2200,1844A,112.2494,30.3197,荆州市,市图书馆,,36,36,35,20,20,96,,135,123,15,14,4,5,0.6,0.5
2025-09-07T2200,1845A,112.2008,30.3544,荆州市,市委党校,,43,41,37,30,23,80,,140,130,21,14,7,7,0.7,0.6
2025-09-07T2200,3194A,112.2747,30.3122,荆州市,管委会,,48,48,37,25,21,62,,138,116,29,14,1,3,0.7,0.6
2025-09-07T2200,4268A,112.1722,30.3366,荆州市,学苑路85号,,45,45,31,31,21,82,,146,134,25,16,4,5,0.6,0.5
2025-09-07T2200,2343A,117.2117,29.2933,景德镇市,老干部活动中心,,26,,17,18,15,33,,115,77,17,9,6,7,0.7,0.7
2025-09-07T2200,2344A,117.1894,29.2789,景德镇市,兽医站,,23,23,24,12,13,42,,115,76,9,6,5,5,0.7,0.7
2025-09-07T2200,2346A,117.2461,29.2956,景德镇市,陶研所,,22,22,25,12,17,32,,118,76,3,4,4,5,0.6,0.6
2025-09-07T2200,4289A,117.1542,29.2566,景德镇市,青少年活动中心,,19,18,20,13,16,48,,107,75,10,9,1,5,0.7,0.7
2025-09-07T2200,1803A,115.9872,29.6815,九江市,十里,,50,37,29,35,29,103,,119,114,15,11,7,5,0.6,0.6
2025-09-07T2200,1804A,115.9584,29.7046,九江市,茅山头,细颗粒物(PM2.5),60,47,35,43,27,105,,108,107,12,11,4,4,0.7,0.6
2025-09-07T2200,1805A,115.9877,29.7295,九江市,西园,,36,36,27,25,20,114,,114,114,18,18,4,4,1.0,1
2025-09-07T2200,1808A,115.9114,29.6038,九江市,综合工业园,,42,32,33,29,23,70,,120,109,47,21,7,7,1.0,0.9
2025-09-07T2200,1809A,116.0721,29.7535,九江市,石化总厂,颗粒物(PM10),51,51,34,34,26,91,,105,100,25,16,4,4,0.7,0.7
2025-09-07T2200,3190A,116.0254,29.6994,九江市,外国语学校,细颗粒物(PM2.5),57,49,29,40,26,81,,108,102,15,15,4,3,0.8,0.8
2025-09-07T2200,4253A,116.0102,29.6594,九江市,莲花大道8号,,38,36,33,26,24,99,,100,99,2,5,6,6,0.8,0.7
2025-09-07T2200,4240A,98.4958,39.7339,酒泉市,玉门东路5号,颗粒物(PM10),73,95,89,35,34,78,,110,101,28,25,11,13,0.5,0.5
2025-09-07T2200,4241A,98.5099,39.7506,酒泉市,北大街108号,颗粒物(PM10),73,95,90,33,32,56,,105,94,38,22,13,17,0.6,0.6
2025-09-07T2200,2698A,76.0072,39.4467,喀什地区,巡警大队,颗粒物(PM10),480,580,887,207,352,,,80,80,,37,,4,,0.6
2025-09-07T2200,2699A,75.9755,39.4694,喀什地区,吾办,颗粒物(PM10),500,622,860,229,312,44,,80,78,28,34,5,5,0.5,0.6
2025-09-07T2200,4027A,75.9483,39.4689,喀什地区,老干局,颗粒物(PM10),387,489,707,174,229,46,,77,76,26,27,3,4,0.5,0.6
2025-09-07T2200,1824A,114.3389,34.7781,开封市,肿瘤医院,颗粒物(PM10),54,58,73,25,27,62,,104,85,28,27,5,5,0.9,0.9
2025-09-07T2200,1826A,114.2885,34.7965,开封市,世纪星幼儿园,颗粒物(PM10),57,63,68,26,30,62,,112,89,22,22,5,6,0.7,0.8
2025-09-07T2200,3147A,114.3438,34.8106,开封市,龙亭公园,,50,50,69,17,24,70,,109,90,19,20,7,7,0.7,0.8
2025-09-07T2200,3210A,114.3644,34.7964,开封市,汴京公园,颗粒物(PM10),52,54,74,22,30,70,,108,90,21,23,6,6,0.3,0.5
2025-09-07T2200,3473A,114.2485,34.8306,开封市,技师学院,,43,43,63,26,27,73,,108,90,14,19,6,8,1.0,1.1
2025-09-07T2200,3592A,114.4644,34.7556,开封市,祥符区生态环境局,颗粒物(PM10),57,63,71,23,27,46,,89,70,25,22,3,5,0.8,0.9
2025-09-07T2200,1951A,84.895,45.6094,克拉玛依市,长征新村,,,,39,74,16,28,,111,100,81,22,6,4,1.3,0.4
2025-09-07T2200,1952A,84.8988,45.5893,克拉玛依市,南林小区,颗粒物(PM10),68,85,46,27,17,18,,107,88,65,32,7,7,1.4,0.8
2025-09-07T2200,1954A,84.905,44.3396,克拉玛依市,独山子区,颗粒物(PM10),60,69,55,16,19,92,,133,126,30,22,8,9,0.5,0.5
2025-09-07T2200,1955A,85.6979,46.098,克拉玛依市,乌尔禾区商贸楼,颗粒物(PM10),63,75,29,22,7,74,,102,99,28,17,4,3,0.2,0.2
2025-09-07T2200,3612A,85.1045,45.6899,克拉玛依市,白碱滩区新站,颗粒物(PM10),59,67,57,12,13,124,,119,119,7,16,13,11,0.4,0.4
2025-09-07T2200,2697A,76.1454,39.7142,克孜勒苏柯尔克孜自治州,市人民政府,,,,890,,326,,,92,92,64,18,6,10,0.3,0.2
2025-09-07T2200,3665A,76.1658,39.7157,克孜勒苏柯尔克孜自治州,克州文化中心,颗粒物(PM10),500,651,882,236,310,48,,76,74,25,22,7,10,0.4,0.4
2025-09-07T2200,1450A,102.8204,24.8886,昆明市,呈贡新区,,33,24,19,23,17,64,,100,94,20,13,3,3,0.5,0.5
2025-09-07T2200,1452A,102.7252,25.0902,昆明市,龙泉镇,,41,41,22,15,11,59,,92,83,21,15,2,2,0.4,0.3
2025-09-07T2200,1453A,102.7266,25.0375,昆明市,东风东路,,31,31,27,16,14,75,,105,100,13,15,4,4,0.3,0.3
2025-09-07T2200,1454A,102.6742,25.0669,昆明市,金鼎山,,30,30,23,10,9,72,,100,95,11,9,2,2,0.3,0.3
2025-09-07T2200,1455A,102.6644,25.0401,昆明市,碧鸡广场,,45,45,28,17,12,58,,97,88,22,13,9,8,0.4,0.4
2025-09-07T2200,3179A,102.7494,25.0119,昆明市,官渡区博物馆,,27,27,23,13,12,71,,100,95,14,16,3,2,0.1,0.1
2025-09-07T2200,3375A,102.8017,24.8336,昆明市,青年创业园,,29,29,29,20,17,69,,90,90,11,16,1,2,0.5,0.6
2025-09-07T2200,3550A,102.7997,24.9786,昆明市,昆明学院,,35,35,27,23,18,58,,90,85,23,15,8,8,0.4,0.4
2025-09-07T2200,3551A,102.5967,24.6736,昆明市,晋宁区生态环境分局,,26,26,25,17,14,69,,94,90,10,10,2,3,0.5,0.5
2025-09-07T2200,3552A,102.6678,24.9856,昆明市,云天化总部,,32,22,21,22,15,76,,95,92,7,9,3,5,0.4,0.4
2025-09-07T2200,1456A,91.1319,29.6514,拉萨市,八廓街,,14,14,12,8,9,44,,77,69,28,15,5,6,0.3,0.2
2025-09-07T2200,1457A,91.1221,29.6747,拉萨市,市环保局,,23,23,12,8,8,29,,77,68,29,15,7,7,0.5,0.4
2025-09-07T2200,1458A,91.0874,29.6475,拉萨市,区监测站,,21,11,11,7,6,37,,73,65,41,22,4,5,0.4,0.3
2025-09-07T2200,1459A,91.1774,29.6541,拉萨市,西藏大学,,23,23,10,9,6,46,,74,69,29,16,7,7,0.6,0.4
2025-09-07T2200,1460A,90.9798,29.6588,拉萨市,区辐射站,,26,26,14,17,8,22,,60,53,48,22,5,6,0.5,0.3
2025-09-07T2200,1461A,91.0834,29.6292,拉萨市,拉萨火车站,,24,24,16,9,7,37,,69,62,36,20,5,5,0.6,0.5
2025-09-07T2200,2520A,109.2203,23.7256,来宾市,来宾技工学校,,27,27,36,17,20,67,,110,90,9,9,7,15,0.7,0.7
2025-09-07T2200,3535A,109.1781,23.7297,来宾市,兴宾区政府,,27,27,29,18,20,62,,120,92,11,9,7,8,0.7,0.7
2025-09-07T2200,4002A,109.2416,23.7461,来宾市,中南小学,,38,27,33,26,20,68,,117,93,10,10,11,11,0.7,0.7
2025-09-07T2200,1479A,103.831,36.0464,兰州市,铁路设计院,颗粒物(PM10),85,120,112,39,41,3,,84,59,91,53,10,13,1.0,0.8
2025-09-07T2200,3241A,103.7439,36.0842,兰州市,百合公园,颗粒物(PM10),77,104,100,39,33,31,,89,78,55,35,3,6,0.4,0.6
2025-09-07T2200,3242A,103.9611,35.998,兰州市,和平,颗粒物(PM10),66,82,105,32,39,62,,102,92,8,16,8,9,0.2,0.4
2025-09-07T2200,4236A,103.6293,36.0938,兰州市,庄浪东路808号,颗粒物(PM10),72,94,112,31,42,9,,126,88,85,48,12,18,0.5,0.6
2025-09-07T2200,4237A,103.7251,36.1043,兰州市,安宁西路88号,颗粒物(PM10),86,121,116,45,40,31,,117,98,65,34,4,6,0.5,0.5
2025-09-07T2200,4238A,103.8470,36.0676,兰州市,北滨河东路1号,颗粒物(PM10),89,128,107,36,38,2,,107,78,85,43,9,9,0.8,0.5
2025-09-07T2200,3245A,103.6633,36.533,兰州新区,新区管委会,颗粒物(PM10),63,76,66,36,31,96,,126,120,9,11,9,16,0.5,0.6
2025-09-07T2200,3246A,103.6975,36.4789,兰州新区,舟曲中学,颗粒物(PM10),71,92,89,30,30,85,,122,114,23,23,8,28,0.4,0.5
2025-09-07T2200,1067A,116.6708,39.5111,廊坊市,药材公司,颗粒物(PM10),57,63,46,26,18,18,,132,105,67,25,4,7,0.5,0.3
2025-09-07T2200,1068A,116.7214,39.5589,廊坊市,开发区,,41,41,44,15,14,67,,118,98,24,20,2,3,0.4,0.3
2025-09-07T2200,1070A,116.7244,39.5269,廊坊市,北华航天学院,颗粒物(PM10),59,68,50,27,15,23,,131,103,49,17,4,7,0.6,0.3
2025-09-07T2200,2919A,116.7022,39.5453,廊坊市,河北工业大学,颗粒物(PM10),53,56,47,23,17,36,,132,115,63,21,4,5,0.7,0.4
2025-09-07T2200,2535A,103.7723,29.5462,乐山市,花湖湾,颗粒物(PM10),59,67,52,31,23,101,,115,113,10,10,5,5,0.4,0.3
2025-09-07T2200,2536A,103.7627,29.5844,乐山市,牛耳桥,颗粒物(PM10),66,82,55,36,25,67,,106,97,21,16,7,7,0.7,0.6
2025-09-07T2200,2537A,103.7508,29.6006,乐山市,市第三水厂,颗粒物(PM10),66,81,56,42,23,80,,108,100,15,15,6,5,0.6,0.5
2025-09-07T2200,2538A,103.7571,29.5664,乐山市,市监测站,颗粒物(PM10),62,74,55,31,22,74,,96,89,14,14,7,8,0.9,0.7
2025-09-07T2200,3361A,103.7311,29.5628,乐山市,理工大学,颗粒物(PM10),64,77,54,28,20,67,,103,94,21,15,9,9,0.7,0.6
2025-09-07T2200,2599A,100.2497,26.8802,丽江市,丽江古城,,27,27,24,13,10,51,,79,74,17,11,10,10,0.5,0.5
2025-09-07T2200,2600A,100.2203,26.8906,丽江市,市中心,,20,,14,9,12,61,,81,78,12,11,10,11,0.6,0.5
2025-09-07T2200,1267A,119.914,28.4514,丽水市,监测站大楼,,21,21,17,8,6,66,,63,63,10,9,4,4,0.5,0.4
2025-09-07T2200,1268A,119.93,28.4586,丽水市,莲都小学,,22,22,17,9,8,69,,68,68,7,10,4,4,0.4,0.4
2025-09-07T2200,1269A,119.879,28.4231,丽水市,余庄前,,22,19,15,14,11,69,,64,50,7,10,5,5,0.3,0.3
2025-09-07T2200,1173A,119.176,34.5885,连云港市,市环境监测站,,36,36,42,17,25,103,,137,128,11,15,5,6,0.7,0.9
2025-09-07T2200,3000A,119.3581,34.6972,连云港市,德源药业,,34,34,43,14,25,87,,130,118,19,23,6,5,0.9,1
2025-09-07T2200,3007A,119.178,34.844,连云港市,新城一中,,33,33,40,16,27,94,,136,128,25,24,4,6,0.8,1
2025-09-07T2200,3008A,119.3608,34.7519,连云港市,胡沟管理处,,41,41,40,12,21,86,,127,115,20,19,6,8,1.4,1.6
2025-09-07T2200,3009A,119.1478,34.5911,连云港市,矿山设计院,,,36,41,22,28,,,133,133,13,18,7,8,0.9,1.1
2025-09-07T2200,3434A,119.2413,34.6539,连云港市,工贸学校,,34,24,40,13,25,107,,135,127,7,12,7,8,1.1,1.4
2025-09-07T2200,3664A,119.4172,34.7341,连云港市,连云街道,,37,28,36,16,23,117,,131,125,4,13,4,6,0.6,0.8
2025-09-07T2200,2571A,102.3431,27.8099,凉山彝族自治州,青龙寺,,21,21,19,8,8,43,,81,68,7,7,3,5,0.4,0.5
2025-09-07T2200,2572A,102.2721,27.8415,凉山彝族自治州,邛海宾馆,,18,18,18,11,10,50,,81,74,11,10,10,14,0.5,0.6
2025-09-07T2200,2573A,102.2625,27.898,凉山彝族自治州,西昌市政府,,15,15,19,6,12,48,,73,62,7,11,11,17,0.5,0.6
2025-09-07T2200,2574A,102.2685,27.8851,凉山彝族自治州,凉山州政府,,22,19,21,15,19,49,,80,71,10,11,10,16,0.8,0.9
2025-09-07T2200,4229A,102.2342,27.8859,凉山彝族自治州,凯乐南路30号,,21,15,22,6,13,66,,70,66,8,19,12,18,0.7,1
2025-09-07T2200,2212A,123.2,41.1953,辽阳市,宏伟区,颗粒物(PM10),55,60,36,7,7,110,,123,103,26,16,7,6,1.2,0.8
2025-09-07T2200,2213A,123.1683,41.2495,辽阳市,新华园,颗粒物(PM10),61,71,41,17,11,16,,131,87,50,24,6,7,0.7,0.6
2025-09-07T2200,2214A,123.2354,41.2639,辽阳市,滨河路,,41,41,34,11,14,51,,120,74,30,15,6,6,0.5,0.6
2025-09-07T2200,2215A,123.149,41.2991,辽阳市,铁西工业园,颗粒物(PM10),72,94,47,43,19,20,,116,70,34,21,4,6,0.9,0.8
2025-09-07T2200,2227A,125.1358,42.8845,辽源市,环保局,颗粒物(PM10),54,57,39,18,8,13,,106,68,30,10,8,9,0.5,0.5
2025-09-07T2200,3239A,125.0764,42.9078,辽源市,银鹰制药,,50,50,29,19,11,4,,104,60,54,23,14,12,0.5,0.5
2025-09-07T2200,1625A,115.9848,36.4372,聊城市,区政府,颗粒物(PM10),57,63,54,19,22,100,,133,128,15,16,10,10,0.6,0.6
2025-09-07T2200,2878A,116.0072,36.4343,聊城市,聊大东校,颗粒物(PM10),59,68,62,23,24,106,,134,130,17,19,10,10,0.3,0.4
2025-09-07T2200,3200A,115.9819,36.4978,聊城市,监控中心,颗粒物(PM10),59,67,62,19,20,110,,134,131,18,18,9,10,0.7,0.6
2025-09-07T2200,3513A,116.0445,36.4361,聊城市,九州社区,颗粒物(PM10),60,69,58,28,23,85,,131,121,16,13,5,6,0.4,0.4
2025-09-07T2200,4018A,116.0567,36.4608,聊城市,星美广场,颗粒物(PM10),58,66,58,16,21,90,,124,117,12,10,3,6,0.6,0.6
2025-09-07T2200,2632A,94.3681,29.6376,林芝市,林芝监测站,,9,9,6,3,6,24,,42,36,6,5,4,4,0.5,0.4
2025-09-07T2200,2633A,94.3616,29.6616,林芝市,林芝人民医院,,8,7,8,3,4,24,,44,37,9,6,5,5,0.5,0.4
2025-09-07T2200,2603A,100.0781,23.8982,临沧市,市环保局,,50,,17,35,18,29,,52,48,10,7,1,4,0.5,0.5
2025-09-07T2200,2604A,100.0894,23.8822,临沧市,市气象局,,18,13,14,12,14,25,,40,38,10,8,7,8,0.5,0.5
2025-09-07T2200,1733A,111.5531,36.0783,临汾市,临钢医院,颗粒物(PM10),87,123,91,35,28,77,,153,143,34,17,6,8,1.9,1.2
2025-09-07T2200,1734A,111.5028,36.0714,临汾市,技工学校,颗粒物(PM10),78,105,83,47,39,90,,144,133,26,18,8,8,1.8,1.1
2025-09-07T2200,1736A,111.5018,36.0855,临汾市,市委,颗粒物(PM10),90,129,97,36,30,74,,148,136,36,22,8,7,1.4,1
2025-09-07T2200,3018A,111.505,36.1014,临汾市,唐尧大酒店,颗粒物(PM10),86,122,91,31,29,68,,147,133,35,20,8,8,1.2,1.1
2025-09-07T2200,4244A,111.4879,36.0530,临汾市,启星学校,颗粒物(PM10),83,115,85,49,41,85,,149,135,32,23,6,7,1.9,1.2
2025-09-07T2200,4271A,103.2464,35.6123,临夏回族自治州,滨河东路1号,颗粒物(PM10),100,150,101,70,37,4,,70,53,47,18,8,8,0.6,0.4
2025-09-07T2200,4310A,103.2093,35.5995,临夏回族自治州,新华街21号,颗粒物(PM10),89,128,98,56,39,31,,91,80,28,16,6,7,0.7,0.4
2025-09-07T2200,1618A,118.3429,35.0532,临沂市,沂河小区,细颗粒物(PM2.5),97,107,58,72,39,100,,136,128,25,22,11,11,0.9,0.8
2025-09-07T2200,1619A,118.295,35.0583,临沂市,鲁南制药厂,细颗粒物(PM2.5),94,107,55,70,38,83,,137,127,32,19,25,11,1.0,0.9
2025-09-07T2200,1620A,118.2794,34.9976,临沂市,新光毛纺厂,细颗粒物(PM2.5),83,100,54,61,31,89,,135,126,33,22,22,10,0.9,0.8
2025-09-07T2200,1621A,118.3956,35.0888,临沂市,河东保险公司,细颗粒物(PM2.5),74,85,57,54,34,71,,141,126,28,23,8,8,0.9,0.7
2025-09-07T2200,3370A,118.3564,35.0215,临沂市,十里堡居委,细颗粒物(PM2.5),110,102,57,83,41,88,,142,130,31,25,12,12,1.0,0.8
2025-09-07T2200,3496A,118.3604,35.1084,临沂市,南坊新区,细颗粒物(PM2.5),77,100,64,56,35,110,,146,140,23,27,9,10,1.0,0.9
2025-09-07T2200,3860A,118.3920,35.0300,临沂市,皇山花园小区,细颗粒物(PM2.5),114,141,66,86,41,80,,142,128,26,24,11,12,1.0,0.8
2025-09-07T2200,1870A,109.4856,24.3895,柳州市,柳东小学,,30,30,28,18,17,41,,105,75,17,9,4,7,0.5,0.4
2025-09-07T2200,1871A,109.4157,24.3277,柳州市,环保监测站,,25,25,32,16,21,40,,103,76,17,10,6,10,0.7,0.6
2025-09-07T2200,1872A,109.389,24.341,柳州市,河西水厂,,30,30,44,15,26,50,,107,85,13,15,5,10,0.7,0.7
2025-09-07T2200,1873A,109.4311,24.2921,柳州市,市四中,,29,28,32,20,19,39,,102,73,16,12,9,10,0.4,0.3
2025-09-07T2200,1874A,109.4006,24.3631,柳州市,市九中,,18,18,37,10,21,52,,106,84,12,11,2,4,0.6,0.6
2025-09-07T2200,1875A,109.4958,24.3134,柳州市,古亭山,,28,28,31,15,18,23,,105,62,18,15,6,7,0.5,0.5
2025-09-07T2200,3402A,109.5422,24.3996,柳州市,市二中,,26,26,30,13,18,44,,106,72,13,13,5,6,0.7,0.6
2025-09-07T2200,2307A,116.5079,31.737,六安市,监测大楼,,40,29,37,28,25,84,,116,104,10,8,3,4,0.5,0.5
2025-09-07T2200,2308A,116.4738,31.7643,六安市,皖西学院,,48,48,50,27,26,98,,133,117,5,6,2,3,0.5,0.5
2025-09-07T2200,2309A,116.4996,31.7905,六安市,朝阳厂,,39,39,44,26,26,79,,122,106,14,12,5,6,0.6,0.5
2025-09-07T2200,2310A,116.5567,31.7886,六安市,开发区,,39,32,37,27,24,55,,118,98,15,10,2,3,0.6,0.6
2025-09-07T2200,2577A,104.83,26.5917,六盘水市,黄土坡,,,23,21,19,11,,,81,81,15,9,2,2,0.4,0.3
2025-09-07T2200,2578A,104.89,26.5939,六盘水市,水钢,,48,39,33,33,23,77,,82,82,7,6,2,2,0.2,0.3
2025-09-07T2200,2579A,104.8475,26.5894,六盘水市,民中,,27,18,17,12,9,84,,82,82,6,7,2,2,0.4,0.4
2025-09-07T2200,2580A,104.9544,26.5506,六盘水市,双水,,24,22,19,12,13,74,,79,79,12,6,3,3,0.1,0.1
2025-09-07T2200,2336A,117.0217,25.1033,龙岩市,龙岩市监测站,,13,10,17,3,10,41,,88,74,9,12,7,6,0.4,0.5
2025-09-07T2200,2337A,117.0258,25.0661,龙岩市,闽西职业技术学院,,13,,23,6,12,39,,88,71,7,10,6,8,0.4,0.5
2025-09-07T2200,2338A,117.0196,25.0306,龙岩市,龙岩学院,,14,,21,3,10,44,,84,72,5,10,6,6,0.4,0.5
2025-09-07T2200,2885A,104.9339,33.3826,陇南市,滨江中学,颗粒物(PM10),72,94,88,40,32,25,,50,44,19,14,4,5,0.7,0.6
2025-09-07T2200,3247A,104.955,33.371,陇南市,市总工会,颗粒物(PM10),71,92,108,35,36,36,,49,44,9,15,6,6,0.4,0.4
2025-09-07T2200,2487A,111.9589,27.8901,娄底市,电视发射台,,38,38,36,25,17,53,,81,73,6,5,4,4,0.6,0.6
2025-09-07T2200,2488A,111.9975,27.725,娄底市,市监测站,,42,42,35,27,24,84,,109,102,11,9,5,6,0.6,0.6
2025-09-07T2200,2489A,112.0194,27.7314,娄底市,市委党校,,42,42,35,29,21,83,,106,100,10,7,3,2,0.5,0.5
2025-09-07T2200,2490A,111.9561,27.7569,娄底市,涟钢,颗粒物(PM10),52,54,35,30,20,66,,92,82,15,10,5,4,1.6,1
2025-09-07T2200,2491A,111.9892,27.7044,娄底市,市政府,,45,31,31,31,23,94,,124,116,7,6,6,7,1.0,0.9
2025-09-07T2200,1893A,105.4324,28.9634,泸州市,九狮山,颗粒物(PM10),54,57,54,21,10,87,,119,116,8,9,7,7,0.5,0.4
2025-09-07T2200,1894A,105.4427,28.9063,泸州市,小市上码头,,,70,48,,15,54,,86,83,9,10,4,5,,0.4
2025-09-07T2200,1895A,105.4241,28.8573,泸州市,兰田宪桥,颗粒物(PM10),57,64,50,23,17,92,,121,119,9,12,4,5,0.5,0.4
2025-09-07T2200,1896A,105.4379,28.8833,泸州市,市环监站,颗粒物(PM10),56,61,43,28,22,76,,102,101,12,16,4,4,0.4,0.4
2025-09-07T2200,4272A,105.3689,28.7783,泸州市,纳溪中医医院,颗粒物(PM10),61,71,47,33,22,96,,121,119,9,18,2,2,0.4,0.4
2025-09-07T2200,2183A,111.1406,37.5211,吕梁市,环保局,颗粒物(PM10),80,109,74,22,20,26,,117,93,46,29,6,6,0.6,0.7
2025-09-07T2200,2185A,111.1297,37.5136,吕梁市,自来水公司,颗粒物(PM10),66,81,70,16,17,41,,108,95,23,20,2,4,0.5,0.5
2025-09-07T2200,2867A,111.1283,37.51,吕梁市,马茂庄小学,颗粒物(PM10),82,113,82,27,18,26,,114,89,53,32,3,4,0.7,0.7
2025-09-07T2200,1812A,112.3931,34.6516,洛阳市,市委党校,,46,46,50,17,22,70,,107,86,12,14,9,7,0.4,0.4
2025-09-07T2200,1815A,112.494,34.6886,洛阳市,河南林校,颗粒物(PM10),55,60,64,28,27,71,,122,96,20,21,8,10,0.6,0.6
2025-09-07T2200,1816A,112.3844,34.623,洛阳市,开发区管委会,,40,40,47,21,21,70,,106,84,11,11,5,5,0.5,0.5
2025-09-07T2200,1817A,112.4267,34.6258,洛阳市,市委新办公区,颗粒物(PM10),52,54,52,27,27,67,,105,86,13,12,9,9,0.3,0.4
2025-09-07T2200,3340A,112.6005,34.6326,洛阳市,伊滨,颗粒物(PM10),60,70,66,26,23,35,,112,84,33,20,8,10,0.6,0.5
2025-09-07T2200,3341A,112.4951,34.6332,洛阳市,中移产业园,,50,50,56,19,20,73,,111,92,17,17,8,10,0.3,0.3
2025-09-07T2200,3593A,112.5736,34.8993,洛阳市,吉利监测站,颗粒物(PM10),61,72,65,26,28,35,,111,88,29,14,9,7,0.6,0.5
2025-09-07T2200,3635A,112.3677,34.662,洛阳市,河科大西苑校区,,50,50,59,15,20,69,,112,89,17,18,9,9,0.5,0.5
2025-09-07T2200,3636A,112.4388,34.6781,洛阳市,英才小学,颗粒物(PM10),51,51,62,27,28,71,,115,91,18,24,9,11,0.4,0.5
2025-09-07T2200,4214A,112.4600,34.6949,洛阳市,春都路1号院,颗粒物(PM10),53,56,64,18,22,66,,113,88,19,23,11,13,0.4,0.5
2025-09-07T2200,2399A,114.051,33.5699,漯河市,三五一五工厂,颗粒物(PM10),51,52,48,27,19,64,,86,82,17,14,7,7,0.8,0.8
2025-09-07T2200,2400A,114.0055,33.5698,漯河市,漯河大学,颗粒物(PM10),51,52,39,22,17,55,,87,82,22,14,6,6,0.5,0.5
2025-09-07T2200,2401A,114.0138,33.5828,漯河市,市水利局,颗粒物(PM10),52,53,45,27,21,58,,84,81,20,13,7,7,0.6,0.6
2025-09-07T2200,2402A,114.0261,33.5698,漯河市,市广电局,颗粒物(PM10),55,59,41,28,22,62,,94,87,18,11,5,4,0.6,0.6
2025-09-07T2200,3478A,113.9749,33.5664,漯河市,市图书馆,颗粒物(PM10),57,63,47,29,21,53,,84,79,27,14,8,6,0.6,0.5
2025-09-07T2200,4250A,114.0892,33.5882,漯河市,韶山路11号,颗粒物(PM10),59,68,54,23,20,54,,87,77,22,17,6,6,0.5,0.5
2025-09-07T2200,1798A,118.5092,31.6837,马鞍山市,湖东路四小,,44,44,53,28,35,96,,143,120,18,17,7,10,0.8,1.1
2025-09-07T2200,1799A,118.5024,31.6449,马鞍山市,开发区,,44,44,50,24,32,97,,161,132,18,16,8,11,0.9,1.1
2025-09-07T2200,1802A,118.6245,31.7241,马鞍山市,濮塘,,43,34,44,30,33,82,,162,133,10,9,7,8,1.0,1.1
2025-09-07T2200,3633A,118.4918,31.6809,马鞍山市,雨山,,48,48,49,25,32,93,,134,111,19,22,8,13,0.8,1.2
2025-09-07T2200,4191A,118.5274,31.72227,马鞍山市,慈湖高新区,,39,39,51,23,31,92,,130,106,26,19,7,11,0.6,0.8
2025-09-07T2200,1686A,111.0286,21.4688,茂名市,电白南海,细颗粒物(PM2.5),52,41,32,36,22,46,,45,,14,15,9,12,0.6,0.6
2025-09-07T2200,1687A,110.9294,21.6533,茂名市,茂石化七小,,35,34,35,24,21,46,,75,62,14,14,15,17,0.9,0.8
2025-09-07T2200,1688A,110.9107,21.6687,茂名市,健康路,,36,36,30,24,24,46,,77,61,14,15,25,19,1.6,1
2025-09-07T2200,1689A,110.8592,21.6828,茂名市,高岭,,36,36,51,12,20,42,,68,48,12,19,14,13,0.7,0.7
2025-09-07T2200,3450A,111.01,21.5165,茂名市,电白水东,,39,39,25,22,14,47,,70,61,14,15,12,17,1.0,0.9
2025-09-07T2200,2539A,104.0308,30.0478,眉山市,黑龙滩水库,,37,37,28,17,10,82,,118,111,5,2,3,2,0.4,0.3
2025-09-07T2200,2540A,103.8416,30.0874,眉山市,气象局,颗粒物(PM10),73,96,68,48,21,82,,114,102,20,18,7,9,0.5,0.4
2025-09-07T2200,3137A,103.8578,30.0744,眉山市,市委党校,颗粒物(PM10),70,90,56,29,15,86,,103,96,19,17,7,7,0.6,0.6
2025-09-07T2200,3148A,103.8291,30.0564,眉山市,区人社局,颗粒物(PM10),79,108,75,36,16,79,,107,98,16,15,5,5,0.9,0.8
2025-09-07T2200,1690A,116.1231,24.3284,梅州市,梅江月梅,,14,,19,8,14,44,,54,47,6,10,9,9,0.4,0.5
2025-09-07T2200,1691A,116.0797,24.2719,梅州市,梅县新城,,12,,19,3,18,37,,55,42,6,8,6,7,0.6,0.6
2025-09-07T2200,1692A,116.1248,24.2654,梅州市,环境监控中心,,12,,17,3,14,36,,49,38,6,9,3,5,0.4,0.5
2025-09-07T2200,3315A,116.1233,24.2991,梅州市,梅龙,,12,7,16,3,10,36,,47,40,4,6,7,8,0.6,0.6
2025-09-07T2200,1878A,104.7778,31.4741,绵阳市,富乐山,,44,44,30,21,13,44,,82,71,12,8,8,8,0.7,0.6
2025-09-07T2200,1880A,104.6697,31.4668,绵阳市,高新区自来水公司,颗粒物(PM10),59,68,39,24,12,38,,88,76,42,14,9,8,0.7,0.6
2025-09-07T2200,1881A,104.7287,31.5075,绵阳市,三水厂,颗粒物(PM10),51,51,33,28,17,26,,88,72,40,17,10,10,0.7,0.5
2025-09-07T2200,3491A,104.69,31.5322,绵阳市,西科大附属小学,颗粒物(PM10),64,78,51,36,21,25,,94,74,45,22,8,8,0.9,0.7
2025-09-07T2200,3492A,104.5648,31.5343,绵阳市,安州区旅游局,颗粒物(PM10),63,76,39,29,16,44,,96,86,22,16,9,8,0.7,0.5
2025-09-07T2200,4226A,104.7651,31.4531,绵阳市,绵阳市气象局,颗粒物(PM10),51,52,32,23,13,66,,82,76,14,11,5,7,0.5,0.4
2025-09-07T2200,1784A,129.61,44.561,牡丹江市,环保大楼,,33,33,26,23,16,52,,79,68,17,13,4,4,0.3,0.3
2025-09-07T2200,1785A,129.6115,44.5782,牡丹江市,文化广场,细颗粒物(PM2.5),52,47,30,36,26,45,,78,66,27,17,7,7,0.5,0.4
2025-09-07T2200,1786A,129.5904,44.5963,牡丹江市,第一医院,,42,41,30,29,19,35,,84,73,28,14,8,8,0.2,0.1
2025-09-07T2200,1787A,129.6364,44.6075,牡丹江市,机车工厂,,48,48,32,31,18,25,,78,63,24,14,8,9,0.5,0.4
2025-09-07T2200,1788A,129.6386,44.5462,牡丹江市,第一中学,,45,45,25,18,16,17,,82,56,24,13,4,4,0.3,0.3
2025-09-07T2200,2531A,105.0703,29.61,内江市,市监测站,,47,47,39,29,24,81,,102,99,14,11,4,5,0.7,0.6
2025-09-07T2200,2532A,105.0717,29.5947,内江市,东兴区政府,,49,49,37,22,16,86,,97,96,9,10,7,6,0.5,0.5
2025-09-07T2200,2533A,105.0653,29.5817,内江市,内江二中,颗粒物(PM10),56,62,39,32,24,84,,96,94,11,11,4,4,0.6,0.6
2025-09-07T2200,2534A,105.0406,29.5822,内江市,内江日报社,颗粒物(PM10),54,57,41,26,24,82,,103,98,21,19,6,6,0.4,0.4
2025-09-07T2200,2628A,92.0657,31.4846,那曲市,那曲监测站,,49,49,25,23,9,76,,82,78,19,14,3,2,0.7,0.3
2025-09-07T2200,4243A,92.0515,31.4787,那曲市,那曲市委宣传部,,26,16,13,10,8,83,,93,90,10,6,5,4,0.5,0.3
2025-09-07T2200,1290A,115.8931,28.6843,南昌市,省外办,,42,36,37,29,29,77,,95,90,1,2,4,5,1.0,0.9
2025-09-07T2200,1291A,115.8886,28.7003,南昌市,省林业公司,,39,39,34,27,23,95,,116,108,7,7,3,3,0.8,0.8
2025-09-07T2200,1292A,115.8126,28.7442,南昌市,林科所,,33,31,29,22,19,105,,120,110,2,5,6,5,0.8,0.7
2025-09-07T2200,1294A,115.8518,28.687,南昌市,建工学校,,42,41,38,29,13,99,,122,114,17,12,7,7,1.0,0.9
2025-09-07T2200,1295A,115.8921,28.6424,南昌市,象湖,,36,35,27,19,20,115,,128,123,10,11,7,8,0.8,0.8
2025-09-07T2200,1296A,115.7423,28.7996,南昌市,武术学校,,45,,24,31,12,27,,92,61,9,8,8,9,0.7,0.8
2025-09-07T2200,3046A,115.9084,28.6062,南昌市,机电学校,,44,44,36,27,22,108,,125,118,12,11,6,6,0.6,0.6
2025-09-07T2200,3690A,115.9721,28.7031,南昌市,外国语学校,,43,41,36,30,20,107,,122,117,10,10,8,6,0.6,0.6
2025-09-07T2200,4192A,115.9316,28.68677,南昌市,南京东路235号,,47,47,38,27,24,110,,125,119,12,10,10,9,1.0,1
2025-09-07T2200,1906A,106.0789,30.8023,南充市,南充市委,,17,17,23,10,15,43,,63,57,12,9,4,3,0.4,0.4
2025-09-07T2200,1907A,106.1031,30.8217,南充市,南充炼油厂,,24,24,30,14,12,45,,62,57,9,6,5,5,0.2,0.1
2025-09-07T2200,4227A,106.1083,30.7884,南充市,梨树横街98号,,25,24,23,17,13,52,,73,68,10,8,3,3,0.3,0.2
2025-09-07T2200,4304A,106.1172,30.843,南充市,清泉寺北路188号,,22,22,20,15,13,51,,66,63,7,7,4,4,0.3,0.2
2025-09-07T2200,4305A,106.067,30.7616,南充市,同庆路1号,,22,22,18,14,11,50,,70,64,11,9,5,5,0.4,0.4
2025-09-07T2200,1151A,118.8086,32.1065,南京市,迈皋桥,,35,30,36,24,28,57,,116,100,29,23,3,4,0.7,0.9
2025-09-07T2200,1152A,118.7538,32.0551,南京市,草场门,,39,39,42,24,30,93,,162,140,15,12,4,4,0.8,0.9
2025-09-07T2200,1153A,118.7794,32.0745,南京市,山西路,,44,44,50,12,24,103,,169,148,11,11,5,4,0.7,0.8
2025-09-07T2200,1154A,118.7752,32.0023,南京市,中华门,,29,29,36,17,27,88,,160,145,14,10,4,4,1.1,1.3
2025-09-07T2200,1155A,118.8109,32.0309,南京市,瑞金路,,34,34,40,22,30,92,,173,159,10,10,6,7,0.3,0.5
2025-09-07T2200,1156A,118.7997,32.0754,南京市,玄武湖,,38,38,44,18,22,82,,156,136,11,10,4,4,0.5,0.7
2025-09-07T2200,1157A,118.6414,32.0931,南京市,浦口,颗粒物(PM10),54,58,42,25,25,94,,134,121,14,11,5,6,0.5,0.5
2025-09-07T2200,1158A,118.7356,31.9996,南京市,奥体中心,,48,48,46,27,28,118,,172,151,17,13,6,7,0.7,0.8
2025-09-07T2200,1159A,118.9125,32.1028,南京市,仙林大学城,,31,31,46,19,24,84,,184,162,14,13,7,8,0.9,1
2025-09-07T2200,3422A,118.8436,31.9198,南京市,江宁彩虹桥,,50,50,42,31,27,123,,179,169,21,17,3,4,0.9,0.9
2025-09-07T2200,3427A,118.8554,32.3578,南京市,六合雄州,,50,50,40,22,27,76,,126,104,14,12,5,5,0.8,0.8
2025-09-07T2200,4249A,118.8708,31.3402,南京市,汶溪路181号,,43,39,28,30,23,89,,136,130,21,9,6,6,0.8,0.8
2025-09-07T2200,4312A,119.019,31.6512,南京市,中山西路1号,,36,29,26,25,19,83,,127,120,20,15,3,4,0.8,0.8
2025-09-07T2200,1401A,108.3103,22.7881,南宁市,二十一中,,38,38,38,23,22,80,,144,127,16,21,5,9,0.7,0.7
2025-09-07T2200,1402A,108.3141,22.8528,南宁市,北湖,,35,33,41,24,22,85,,128,115,12,23,2,8,0.6,0.6
2025-09-07T2200,1403A,108.3206,22.8225,南宁市,市监测站,,32,32,34,22,19,86,,138,122,15,19,4,7,0.5,0.5
2025-09-07T2200,1404A,108.3829,22.8037,南宁市,大自然花园,,37,37,37,23,20,86,,127,113,13,15,5,6,0.5,0.5
2025-09-07T2200,1406A,108.2397,22.8467,南宁市,区农职院,颗粒物(PM10),53,56,34,36,24,43,,129,104,35,18,6,11,0.3,0.3
2025-09-07T2200,1407A,108.3275,22.735,南宁市,英华嘉园,细颗粒物(PM2.5),59,,35,42,25,64,,140,123,25,17,2,4,0.6,0.5
2025-09-07T2200,3401A,108.4834,22.7618,南宁市,红星社区,,46,45,34,32,20,49,,128,103,32,17,4,5,0.6,0.5
2025-09-07T2200,4221A,108.2177,22.7774,南宁市,乐贤路16号,细颗粒物(PM2.5),53,41,42,37,26,52,,146,111,34,23,6,8,0.6,0.6
2025-09-07T2200,2332A,118.1681,26.6369,南平市,南平市监测站,,13,13,16,8,12,37,,68,58,10,9,6,6,0.4,0.4
2025-09-07T2200,2333A,118.1825,26.6489,南平市,南平铝业有限公司,,23,23,17,3,9,42,,66,59,15,12,7,5,0.6,0.5
2025-09-07T2200,2334A,118.1756,26.6272,南平市,南平七中,,10,10,19,6,11,32,,68,57,11,8,3,4,0.5,0.7
2025-09-07T2200,1168A,120.9098,31.9663,南通市,狼山街道,,41,41,32,28,23,67,,161,136,26,24,4,5,0.9,1
2025-09-07T2200,1169A,120.86,32.0005,南通市,虹桥,,42,30,36,29,28,92,,172,152,17,24,4,8,0.9,1
2025-09-07T2200,1170A,120.87,32.02,南通市,城中,,32,31,41,22,25,77,,162,138,22,26,2,5,0.8,0.9
2025-09-07T2200,1171A,120.94,31.93,南通市,星湖花园,,35,30,29,24,23,68,,132,115,16,24,3,4,0.6,0.7
2025-09-07T2200,1172A,120.81,32.0417,南通市,紫琅学院,,28,24,34,19,21,83,,150,131,17,24,3,6,0.9,1.1
2025-09-07T2200,3291A,121.067,32.062,南通市,通州监测站,,32,27,25,22,19,82,,126,111,9,13,1,2,0.9,0.9
2025-09-07T2200,3432A,120.9348,31.9883,南通市,环境教育馆,,34,34,36,22,25,50,,169,131,36,24,4,5,0.6,0.6
2025-09-07T2200,2404A,112.5224,33.0122,南阳市,瓦房庄,,40,40,45,10,13,66,,90,75,7,11,7,7,0.4,0.5
2025-09-07T2200,2405A,112.5003,32.9735,南阳市,汉画馆,,37,37,43,12,17,55,,76,70,8,18,7,8,0.6,0.7
2025-09-07T2200,2406A,112.5573,33.027,南阳市,气象站,,38,38,45,12,14,63,,94,78,8,11,7,7,0.4,0.5
2025-09-07T2200,2407A,112.5481,32.9689,南阳市,理工学院,,38,38,45,6,8,64,,91,77,7,14,8,9,0.5,0.6
2025-09-07T2200,4008A,112.5234,32.9922,南阳市,卧龙区政府,,35,35,42,20,18,61,,87,72,10,14,7,6,0.6,0.6
2025-09-07T2200,1234A,121.8358,29.911,宁波市,区环保大楼,,13,10,14,8,8,41,,93,57,10,11,4,6,0.4,0.4
2025-09-07T2200,1235A,121.56,29.82,宁波市,万里学院,,20,20,21,9,13,37,,124,94,8,9,6,8,0.5,0.5
2025-09-07T2200,1236A,121.713,29.9572,宁波市,龙赛医院,,17,17,32,11,10,38,,149,97,12,11,4,5,0.3,0.4
2025-09-07T2200,1239A,121.633,29.7733,宁波市,钱湖水厂,,12,12,16,3,9,29,,93,64,8,7,5,6,0.5,0.5
2025-09-07T2200,1240A,121.5856,29.8635,宁波市,太古小学,,12,12,25,8,12,34,,135,97,8,9,2,4,0.5,0.5
2025-09-07T2200,1241A,121.524,29.8674,宁波市,市环境监测中心,,23,23,23,10,11,37,,147,108,10,12,6,6,0.5,0.5
2025-09-07T2200,2871A,121.6147,29.9017,宁波市,万里国际学校,,24,24,23,10,13,41,,153,111,6,8,4,6,0.5,0.5
2025-09-07T2200,3710A,121.5594,29.8975,宁波市,白沙活动中心,,19,19,20,8,13,41,,162,120,10,12,6,8,0.4,0.4
2025-09-07T2200,2341A,119.5388,26.6612,宁德市,宁德市监测站,,20,20,16,9,9,60,,105,98,12,9,4,4,0.7,0.6
2025-09-07T2200,3209A,119.5231,26.6562,宁德市,宁德一中,,32,32,18,21,14,55,,102,94,10,7,5,5,0.5,0.4
2025-09-07T2200,2618A,98.8601,25.8567,怒江傈僳族自治州,州监测站,,23,23,18,15,13,24,,60,46,10,5,6,6,0.5,0.4
2025-09-07T2200,2619A,98.8546,25.8417,怒江傈僳族自治州,泸水一中,,15,15,13,9,9,17,,50,37,13,8,4,4,0.5,0.4
2025-09-07T2200,1888A,101.6891,26.571,攀枝花市,弄弄坪,,34,34,35,13,19,32,,94,76,17,12,6,10,0.7,0.8
2025-09-07T2200,1889A,101.5769,26.5928,攀枝花市,河门口,,28,28,30,18,18,32,,94,77,27,14,26,17,2.0,1.2
2025-09-07T2200,1890A,101.7169,26.585,攀枝花市,炳草岗,,,40,32,17,21,,,96,93,28,20,5,7,0.8,1
2025-09-07T2200,1891A,101.7369,26.5008,攀枝花市,仁和,,42,42,26,12,16,19,,82,59,15,12,7,10,0.7,0.8
2025-09-07T2200,2835A,101.7227,26.567,攀枝花市,四十中小,,28,28,26,16,17,13,,92,71,44,12,9,19,1.3,1.3
2025-09-07T2200,1604A,122.0303,41.1489,盘锦市,开发区,,45,45,27,17,10,86,,111,93,34,20,8,9,0.5,0.4
2025-09-07T2200,1605A,122.0485,41.0883,盘锦市,兴隆台,,33,31,28,11,9,105,,119,97,40,26,8,10,0.8,0.6
2025-09-07T2200,1606A,121.8297,41.1028,盘锦市,新生街道,,23,21,20,15,6,72,,107,87,26,16,4,6,0.5,0.4
2025-09-07T2200,1832A,113.3257,33.742,平顶山市,新华旅馆,颗粒物(PM10),52,53,55,12,15,29,,74,64,26,19,5,5,0.6,0.5
2025-09-07T2200,1833A,113.2919,33.737,平顶山市,规划设计院,,39,39,48,18,19,25,,71,57,24,19,4,5,0.7,0.6
2025-09-07T2200,1834A,113.182,33.774,平顶山市,平顶山工学院,,30,30,39,14,13,62,,73,70,11,12,5,5,0.4,0.4
2025-09-07T2200,3204A,113.3025,33.73,平顶山市,规划局,,39,39,47,13,14,12,,73,58,37,20,3,4,0.7,0.5
2025-09-07T2200,3594A,112.8867,33.9116,平顶山市,石龙区,,35,35,44,13,17,12,,60,40,32,22,4,5,0.5,0.5
2025-09-07T2200,2656A,106.6692,35.5461,平凉市,聚贤嘉苑,颗粒物(PM10),51,52,58,25,21,57,,101,77,35,30,9,7,0.6,0.6
2025-09-07T2200,2657A,106.7021,35.5307,平凉市,博物馆,颗粒物(PM10),56,61,60,20,19,54,,104,80,27,23,9,10,0.7,0.6
2025-09-07T2200,2347A,114.0997,27.5002,萍乡市,武功山,,23,23,21,11,12,27,,76,48,3,4,10,11,0.6,0.5
2025-09-07T2200,2348A,113.8385,27.6434,萍乡市,中医院,,28,26,40,19,28,61,,120,100,15,16,4,5,0.7,1
2025-09-07T2200,2349A,113.8493,27.6253,萍乡市,市政府车库,,36,32,35,25,33,40,,111,88,6,8,10,11,0.6,0.9
2025-09-07T2200,2350A,113.8676,27.6435,萍乡市,市环保局,,28,24,42,19,28,55,,123,102,12,12,6,7,0.7,1
2025-09-07T2200,2351A,113.866,27.6198,萍乡市,安源区政府,,39,31,42,27,31,43,,114,89,5,8,9,14,0.5,0.7
2025-09-07T2200,2319A,119.0141,25.4325,莆田市,荔城区仓后路,,11,10,18,3,4,35,,85,57,9,7,8,7,0.5,0.5
2025-09-07T2200,2320A,119.0015,25.4553,莆田市,莆田市监测站,,12,9,16,7,5,38,,90,64,10,7,6,6,0.4,0.4
2025-09-07T2200,2321A,119.1119,25.4561,莆田市,涵江区六中,,13,13,18,3,6,29,,83,53,18,10,6,5,0.3,0.4
2025-09-07T2200,2322A,119.1013,25.3215,莆田市,秀屿区政府,,14,6,16,3,3,43,,70,54,8,9,10,6,0.3,0.4
2025-09-07T2200,2392A,115.0312,35.7636,濮阳市,环保局,颗粒物(PM10),51,52,62,17,24,86,,129,119,10,14,5,5,0.5,0.7
2025-09-07T2200,2394A,115.0574,35.7609,濮阳市,油田运输公司,,49,49,58,22,22,90,,135,123,9,13,4,5,0.8,0.9
2025-09-07T2200,3021A,115,35.7668,濮阳市,濮水河管理处,颗粒物(PM10),52,54,58,24,22,75,,127,117,18,18,4,5,0.3,0.5
2025-09-07T2200,4216A,115.0924,35.7686,濮阳市,任丘路479号,颗粒物(PM10),55,59,64,20,23,81,,127,116,11,12,5,6,0.6,0.7
2025-09-07T2200,2601A,100.98,22.7633,普洱市,市环保局,,40,40,30,16,18,21,,56,45,12,8,7,7,0.7,0.6
2025-09-07T2200,2602A,100.9817,22.8322,普洱市,普洱第二中学,,39,39,31,11,12,25,,52,41,7,8,6,6,0.5,0.4
2025-09-07T2200,2262A,131.0518,45.8751,七台河市,新一中,,23,21,23,11,8,72,,97,92,10,11,10,10,0.7,0.8
2025-09-07T2200,3345A,131.0577,45.7879,七台河市,中波台,,19,19,28,10,6,46,,61,59,22,17,8,7,0.8,0.6
2025-09-07T2200,3637A,131.0176,45.7761,七台河市,人民广场,,21,21,21,6,9,53,,72,67,21,12,12,12,0.5,0.5
2025-09-07T2200,1779A,123.9305,47.3636,齐齐哈尔市,安居小区,,39,39,22,6,5,24,,44,34,23,10,10,9,0.4,0.4
2025-09-07T2200,1780A,123.9488,47.3386,齐齐哈尔市,中心广场,,37,37,17,7,3,32,,49,39,21,11,10,7,0.4,0.4
2025-09-07T2200,1781A,123.9483,47.3227,齐齐哈尔市,农牧车辆厂,,39,39,22,10,4,31,,46,36,17,11,8,6,0.6,0.6
2025-09-07T2200,1783A,123.945,47.2988,齐齐哈尔市,市环境监测站,,32,32,16,3,4,21,,46,35,23,11,16,6,0.4,0.3
2025-09-07T2200,3662A,123.6333,47.2075,齐齐哈尔市,富区青少年活动中心,颗粒物(PM10),66,81,34,19,9,19,,41,33,24,12,20,8,2.4,0.7
2025-09-07T2200,2591A,107.9783,26.5747,黔东南苗族侗族自治州,市环境监测站,,25,19,21,17,20,39,,74,59,11,7,2,3,0.2,0.3
2025-09-07T2200,2881A,107.8908,26.5311,黔东南苗族侗族自治州,凯里学院,,23,17,16,16,16,43,,84,66,14,11,4,4,0.3,0.3
2025-09-07T2200,2593A,107.5228,26.2403,黔南布依族苗族自治州,小围寨,,24,24,15,14,9,21,,70,53,10,5,1,2,0.4,0.3
2025-09-07T2200,3538A,107.5175,26.2978,黔南布依族苗族自治州,沙坝,,24,24,20,14,12,10,,67,45,11,7,3,3,0.0,0.2
2025-09-07T2200,2589A,104.9022,25.0925,黔西南布依族苗族自治州,场坝街,,26,26,25,12,11,57,,75,71,9,14,7,16,0.4,0.4
2025-09-07T2200,2590A,104.8811,25.0992,黔西南布依族苗族自治州,坪东大道,,31,31,30,20,18,36,,72,64,18,12,2,2,0.8,0.7
2025-09-07T2200,2502A,108.6236,21.9667,钦州市,市环保站,,39,39,34,27,16,61,,119,102,17,13,7,5,0.8,0.6
2025-09-07T2200,2503A,108.6549,21.9481,钦州市,沙埠小学,颗粒物(PM10),72,93,53,30,21,23,,120,88,43,19,1,2,0.6,0.6
2025-09-07T2200,2504A,108.5989,21.7431,钦州市,港区一小,颗粒物(PM10),64,78,36,22,16,17,,104,61,43,22,3,5,0.7,0.7
2025-09-07T2200,3404A,108.5959,21.9633,钦州市,北职校,,29,28,34,20,21,50,,118,97,17,13,6,4,1.1,0.8
2025-09-07T2200,1043A,119.7493,40.0116,秦皇岛市,第一关,颗粒物(PM10),61,72,58,28,27,22,,172,117,110,44,9,11,1.0,0.8
2025-09-07T2200,1044A,119.5897,39.9499,秦皇岛市,监测站,颗粒物(PM10),66,81,60,26,19,51,,166,133,78,38,10,13,0.9,0.9
2025-09-07T2200,1046A,119.5251,39.9041,秦皇岛市,建设大厦,颗粒物(PM10),75,100,63,33,17,24,,163,134,98,29,9,12,1.0,0.9
2025-09-07T2200,3132A,119.610547,39.943889,秦皇岛市,文明里,颗粒物(PM10),67,84,59,32,13,68,,158,137,68,34,11,13,0.9,0.7
2025-09-07T2200,4198A,119.5090,39.8253,秦皇岛市,北戴河轮滑馆,颗粒物(PM10),65,79,64,27,20,89,,174,156,25,19,6,8,0.5,0.9
2025-09-07T2200,1307A,120.6659,36.2403,青岛市,仰口,,35,20,21,6,8,109,,110,108,9,9,11,11,0.6,0.6
2025-09-07T2200,1310A,120.4134,36.0658,青岛市,市南区东部子站,,33,19,31,12,16,104,,143,136,13,13,7,8,0.4,0.4
2025-09-07T2200,1311A,120.3664,36.1032,青岛市,四方区子站,,28,27,29,17,19,87,,136,127,21,13,4,6,0.3,0.4
2025-09-07T2200,1312A,120.2994,36.054,青岛市,市南区西部子站,,37,22,37,7,18,117,,145,128,16,18,6,8,0.6,0.8
2025-09-07T2200,1313A,120.4581,36.0858,青岛市,崂山区子站,,19,17,25,12,12,60,,128,116,27,13,8,9,0.3,0.3
2025-09-07T2200,1315A,120.3999,36.3083,青岛市,城阳区子站,,41,41,38,20,15,82,,146,122,24,19,4,5,0.5,0.5
2025-09-07T2200,3362A,120.5014,36.4034,青岛市,即墨2号,,42,42,35,15,15,84,,137,118,25,17,4,5,0.3,0.4
2025-09-07T2200,3642A,120.3503,36.0736,青岛市,市北区南部,,38,23,31,9,16,120,,140,137,8,17,6,6,0.7,0.9
2025-09-07T2200,3643A,120.3948,36.1805,青岛市,李沧区北部,,31,31,33,17,20,94,,123,111,21,16,6,7,0.5,0.5
2025-09-07T2200,4290A,120.1969,35.9546,青岛市,珠江路669号,,38,24,39,15,23,121,,156,148,8,20,7,8,0.5,0.6
2025-09-07T2200,1702A,113.0426,23.691,清远市,环保大楼,,12,7,24,3,19,37,,84,55,8,11,7,8,0.5,0.6
2025-09-07T2200,1703A,113.0208,23.7106,清远市,凤城街办,,11,8,24,3,18,33,,83,53,11,12,8,8,0.4,0.5
2025-09-07T2200,3025A,113.0477,23.6344,清远市,技师学院,,14,14,33,8,20,31,,85,53,17,17,14,11,0.4,0.4
2025-09-07T2200,3318A,112.9903,23.7403,清远市,清新太和,,12,10,21,3,14,36,,86,58,11,11,4,5,0.5,0.5
2025-09-07T2200,3455A,113.076,23.7198,清远市,清城东城,,10,9,22,3,13,29,,80,52,12,11,6,8,0.6,0.7
2025-09-07T2200,2661A,107.6325,35.7357,庆阳市,庆阳五中,颗粒物(PM10),63,76,52,30,20,58,,99,83,30,12,8,8,0.5,0.4
2025-09-07T2200,2662A,107.6364,35.7067,庆阳市,市环保局,颗粒物(PM10),54,57,46,26,18,55,,104,83,32,13,4,4,0.6,0.5
2025-09-07T2200,1916A,103.7897,25.5035,曲靖市,环境监测站,,34,34,21,14,12,37,,90,77,22,12,5,5,0.5,0.5
2025-09-07T2200,1917A,103.8,25.5364,曲靖市,烟厂办公区,,29,29,21,19,15,52,,90,79,11,9,5,4,0.6,0.7
2025-09-07T2200,3376A,103.7947,25.462,曲靖市,南苑二区,,29,29,21,14,12,43,,92,79,17,9,4,4,0.5,0.6
2025-09-07T2200,3377A,103.7444,25.5261,曲靖市,曲靖师范学院,,44,44,21,17,16,45,,89,74,16,11,3,4,0.4,0.5
2025-09-07T2200,1264A,118.8692,28.9398,衢州市,环保大楼,,29,29,30,16,18,50,,107,93,10,12,4,5,0.4,0.4
2025-09-07T2200,1265A,118.8709,28.9666,衢州市,实验学校,,,31,29,19,18,,,109,101,12,14,5,5,0.3,0.4
2025-09-07T2200,1266A,118.8621,28.9808,衢州市,衢州学院,,30,30,27,16,17,58,,120,98,14,17,6,5,0.5,0.4
2025-09-07T2200,1611A,118.5819,24.9117,泉州市,涂山街,,11,11,19,7,11,35,,72,51,12,12,2,2,0.4,0.4
2025-09-07T2200,1612A,118.5972,24.8978,泉州市,津头埔,,13,13,20,3,10,34,,69,49,9,11,3,4,0.3,0.4
2025-09-07T2200,1613A,118.6663,24.9424,泉州市,万安,,15,15,18,3,7,39,,68,48,7,11,2,2,0.4,0.4
2025-09-07T2200,3529A,118.6333,24.9264,泉州市,城华南路,,11,9,15,3,7,35,,68,49,8,9,2,3,0.3,0.3
2025-09-07T2200,2626A,88.8876,29.2718,日喀则市,日喀则监测站,,20,15,7,3,2,64,,90,84,8,5,12,11,0.3,0.3
2025-09-07T2200,3726A,88.8781,29.2426,日喀则市,林业技术推广中心,,19,16,7,3,1,60,,85,80,4,3,6,5,0.3,0.3
2025-09-07T2200,1659A,119.471,35.4209,日照市,监测站,,34,34,39,17,25,92,,131,122,19,21,8,9,0.8,0.8
2025-09-07T2200,1660A,119.523,35.4216,日照市,市政府广场,,42,29,37,11,18,132,,140,139,10,14,7,7,0.8,0.9
2025-09-07T2200,1661A,119.5587,35.4044,日照市,港务局,,39,29,36,20,30,124,,141,138,10,12,6,6,0.8,0.8
2025-09-07T2200,3507A,119.5328,35.4625,日照市,职业技术学院,,35,29,39,17,20,111,,136,126,8,14,6,7,0.8,0.8
2025-09-07T2200,3604A,119.3266,35.1044,日照市,岚山环保分局,,38,31,40,10,20,120,,136,133,14,21,9,13,0.8,1.2
2025-09-07T2200,1835A,111.1922,34.7752,三门峡市,市政府,颗粒物(PM10),61,72,60,33,27,25,,124,95,56,27,6,10,0.7,0.6
2025-09-07T2200,1836A,111.1587,34.7942,三门峡市,开发区,颗粒物(PM10),57,63,70,27,32,54,,114,98,18,16,4,8,0.4,0.5
2025-09-07T2200,3039A,111.1911,34.7829,三门峡市,三门峡市第一小学,颗粒物(PM10),73,95,65,32,24,37,,122,108,31,15,5,9,0.7,0.6
2025-09-07T2200,3598A,111.1,34.7167,三门峡市,富达温泉假日酒店,颗粒物(PM10),59,67,65,28,31,47,,117,94,28,23,6,9,0.6,0.5
2025-09-07T2200,2324A,117.6211,26.2625,三明市,三钢,,32,13,17,10,8,41,,76,68,23,13,16,5,3.2,0.6
2025-09-07T2200,2325A,117.635,26.2714,三明市,三明二中,,24,24,20,11,10,32,,70,62,18,10,3,5,0.9,0.6
2025-09-07T2200,2326A,117.6028,26.2378,三明市,三元区政府,,23,11,21,10,14,73,,79,77,3,12,3,4,0.2,0.5
2025-09-07T2200,1876A,109.5078,18.2489,三亚市,河东子站,,27,27,19,17,10,16,,48,34,23,14,2,2,0.5,0.4
2025-09-07T2200,1877A,109.4964,18.2681,三亚市,河西子站,,38,38,22,16,9,3,,48,29,31,11,3,3,0.5,0.3
2025-09-07T2200,3540A,109.7348,18.3443,三亚市,君悦子站,,26,26,16,8,7,19,,61,43,16,10,3,3,0.4,0.3
2025-09-07T2200,2624A,91.7608,29.2313,山南市,山南监测站,,23,6,7,3,4,71,,74,74,6,6,3,3,0.2,0.2
2025-09-07T2200,2625A,91.7706,29.2436,山南市,山南人民医院,,23,9,10,6,5,72,,73,73,4,6,2,3,0.1,0.1
2025-09-07T2200,1674A,116.6794,23.3667,汕头市,金平子站,,14,6,13,3,6,43,,52,43,4,7,2,2,0.6,0.6
2025-09-07T2200,1675A,116.7244,23.3633,汕头市,龙湖子站,,13,13,13,3,7,38,,48,41,6,5,6,6,0.5,0.5
2025-09-07T2200,1676A,116.7258,23.2775,汕头市,濠江子站,,13,,17,8,7,40,,45,40,1,3,5,5,0.6,0.6
2025-09-07T2200,1677A,116.7519,23.4714,汕头市,澄海子站,,12,,13,8,12,35,,47,37,6,5,3,3,0.6,0.6
2025-09-07T2200,1678A,116.6092,23.2539,汕头市,潮阳子站,,14,14,15,3,8,41,,49,42,1,3,4,5,0.5,0.5
2025-09-07T2200,3444A,116.454,23.2684,汕头市,潮南峡山,,15,15,11,3,4,38,,52,46,6,5,6,6,0.4,0.4
2025-09-07T2200,3624A,116.4069,23.2533,汕头市,潮南子站,,12,12,11,3,4,36,,47,42,4,4,4,5,0.5,0.5
2025-09-07T2200,1693A,115.3653,22.775,汕尾市,市环保局,,15,15,12,3,5,43,,49,46,8,7,3,3,0.4,0.5
2025-09-07T2200,1694A,115.3706,22.7898,汕尾市,市政府,,16,16,13,3,6,44,,51,46,7,7,4,4,0.4,0.4
2025-09-07T2200,1695A,115.3622,22.7925,汕尾市,新城中学,,21,21,16,3,7,43,,51,45,6,7,5,5,0.4,0.4
2025-09-07T2200,2645A,109.9154,33.8715,商洛市,监测站,,50,50,44,19,18,32,,69,59,26,19,6,7,0.7,0.5
2025-09-07T2200,3045A,109.9643,33.8471,商洛市,商州区中学,,47,47,47,16,16,23,,57,43,28,22,5,6,0.5,0.4
2025-09-07T2200,2408A,115.6702,34.4285,商丘市,环境监测站,,30,30,51,15,25,26,,78,66,37,15,2,3,0.6,0.7
2025-09-07T2200,2409A,115.6458,34.4045,商丘市,粮食局,,36,36,49,14,18,44,,79,70,28,15,3,4,0.6,0.6
2025-09-07T2200,2410A,115.6293,34.3948,商丘市,睢阳区环保局,,34,34,57,18,25,40,,69,59,19,14,4,5,0.4,0.5
2025-09-07T2200,3171A,115.6071,34.4465,商丘市,梁园区档案局,,28,28,50,15,26,24,,70,54,47,20,4,5,0.5,0.6
2025-09-07T2200,1141A,121.4,31.238,上海市,普陀,细颗粒物(PM2.5),52,,45,36,34,122,,196,152,23,29,6,7,0.5,0.8
2025-09-07T2200,1142A,121.478,31.2036,上海市,十五厂,,34,,47,23,31,108,,192,153,17,33,8,10,0.8,1
2025-09-07T2200,1143A,121.467,31.3008,上海市,虹口,,,,48,59,31,,,172,143,23,28,6,8,0.7,0.9
2025-09-07T2200,1147A,121.425,31.2261,上海市,静安监测站,,48,33,48,33,31,123,,192,153,21,31,4,5,0.7,1
2025-09-07T2200,1148A,121.703,31.1907,上海市,浦东川沙,,25,25,40,12,22,26,,134,100,43,32,8,9,0.7,0.8
2025-09-07T2200,1149A,121.533,31.2284,上海市,浦东新区监测站,,30,27,46,21,30,89,,178,142,25,37,4,7,0.6,0.9
2025-09-07T2200,1150A,121.577,31.2071,上海市,浦东张江,,29,26,47,20,26,84,,178,142,19,34,5,6,0.8,1
2025-09-07T2200,3265A,121.4316,31.3322,上海市,宝山庙行,,43,41,47,30,35,114,,182,142,18,29,7,8,0.4,0.7
2025-09-07T2200,3266A,121.8791,31.4662,上海市,崇明上实东滩,,17,14,24,9,18,39,,152,123,34,10,6,5,0.2,0.4
2025-09-07T2200,3268A,121.3162,31.2838,上海市,嘉定南翔,细颗粒物(PM2.5),65,54,43,47,33,54,,182,114,48,29,4,6,0.5,0.6
2025-09-07T2200,3269A,121.3359,30.7456,上海市,金山新城,,28,,41,19,26,79,,206,177,13,15,4,4,0.7,0.8
2025-09-07T2200,3270A,121.4996,31.0739,上海市,闵行浦江,,26,22,39,14,18,81,,151,122,10,22,4,5,0.9,0.9
2025-09-07T2200,3271A,121.2886,31.1663,上海市,青浦徐泾,,43,38,38,28,24,135,,228,159,16,23,8,8,0.7,0.8
2025-09-07T2200,3272A,121.2186,31.0378,上海市,松江图书馆,,39,32,36,24,23,123,,200,163,22,22,8,8,0.7,0.8
2025-09-07T2200,3273A,121.3902,31.2059,上海市,长宁仙霞,,,32,47,26,29,,,193,147,17,28,8,8,0.6,0.8
2025-09-07T2200,3274A,121.7965,31.0507,上海市,浦东惠南,,18,18,39,11,19,22,,126,102,32,29,6,6,0.6,0.6
2025-09-07T2200,3544A,121.4891,30.925,上海市,奉贤南桥新城,,40,33,40,28,24,80,,159,126,11,14,6,5,0.6,0.7
2025-09-07T2200,4183A,121.4174,31.16637,上海市,冠生园路458号,,38,35,45,26,28,81,,163,118,20,31,4,4,0.7,0.9
2025-09-07T2200,4205A,121.5419,31.2683,上海市,宁武路151号,,36,36,56,20,29,76,,160,121,42,52,4,4,0.6,1
2025-09-07T2200,2382A,117.9756,28.4436,上饶市,市监测站,,37,37,31,21,16,59,,100,79,15,11,4,13,0.3,0.3
