timepoint,stationcode,longitude,latitude,area,positionname,primarypollutant,aqi,pm10,pm10_24h,pm2_5,pm2_5_24h,o3,o3_24h,o3_8h,o3_8h_24h,no2,no2_24h,so2,so2_24h,co,co_24h
2025-09-07T2100,2566A,102.1879,31.914,阿坝藏族羌族自治州,州农科所,,15,11,18,8,8,46,,46,46,5,5,3,2,0.0,0.1
2025-09-07T2100,2568A,102.2502,31.8896,阿坝藏族羌族自治州,马师校,,28,23,13,19,11,34,,42,41,10,6,8,8,0.6,0.6
2025-09-07T2100,3994A,102.2165,31.9024,阿坝藏族羌族自治州,马尔康中学西区,,25,25,19,16,11,45,,48,48,4,4,9,9,0.5,0.6
2025-09-07T2100,2695A,80.292,41.1694,阿克苏地区,电视台,颗粒物(PM10),415,515,568,151,175,94,,93,93,13,17,6,5,0.7,0.8
2025-09-07T2100,2696A,80.2613,41.1551,阿克苏地区,艺术中心,颗粒物(PM10),365,472,515,180,185,91,,100,100,26,23,5,4,0.4,0.5
2025-09-07T2100,2204A,105.6467,38.8363,阿拉善盟,西城区西花园,颗粒物(PM10),61,71,49,23,17,76,,108,97,27,16,9,9,0.8,0.8
2025-09-07T2100,2205A,105.6985,38.8411,阿拉善盟,蒙二幼,颗粒物(PM10),59,67,52,18,14,71,,104,97,24,9,8,7,0.4,0.3
2025-09-07T2100,2206A,105.724,38.8516,阿拉善盟,环保局新楼,,40,40,40,12,13,98,,106,102,6,5,8,8,0.3,0.3
2025-09-07T2100,2708A,88.1264,47.8517,阿勒泰地区,市站,颗粒物(PM10),58,66,44,15,10,60,,86,80,39,20,3,3,0.3,0.3
2025-09-07T2100,2630A,80.1161,32.5,阿里地区,阿里监测站,,,,3,,2,,,88,88,,12,,9,,0.4
2025-09-07T2100,3192A,80.0903,32.5028,阿里地区,阿里藏医院,,31,6,6,3,2,97,,94,94,1,5,7,6,0.2,0.3
2025-09-07T2100,2642A,109.0318,32.6537,安康市,香溪洞,,16,13,16,3,6,50,,60,60,6,8,8,8,0.5,0.4
2025-09-07T2100,2644A,109.0072,32.6975,安康市,汉滨区检察院,,17,17,20,7,9,21,,56,53,8,9,5,6,0.5,0.5
2025-09-07T2100,4054A,109.0325,32.6913,安康市,市邮政管理局,,18,18,21,10,11,21,,58,52,16,11,5,5,0.6,0.5
2025-09-07T2100,2291A,117.0809,30.5177,安庆市,环科院,,49,46,35,34,28,128,,140,138,6,3,5,5,0.9,0.8
2025-09-07T2100,2292A,117.0331,30.5119,安庆市,马山宾馆,细颗粒物(PM2.5),52,41,35,36,26,114,,128,125,7,5,4,4,0.9,0.8
2025-09-07T2100,2294A,116.9896,30.6145,安庆市,安庆大学,,46,40,35,32,25,98,,128,125,10,6,4,4,0.7,0.7
2025-09-07T2100,3173A,117.0598,30.5351,安庆市,市人大,细颗粒物(PM2.5),52,46,34,36,27,120,,134,131,9,7,5,5,0.8,0.7
2025-09-07T2100,3122A,105.9606,26.2611,安顺市,伍家关,,24,20,49,9,20,75,,88,87,4,9,8,12,0.5,0.5
2025-09-07T2100,3123A,105.9408,26.2431,安顺市,凤凰山,,29,25,39,20,31,78,,90,90,6,10,10,14,0.6,0.7
2025-09-07T2100,3124A,105.9439,26.2564,安顺市,金钟山,,32,24,34,22,31,77,,89,88,4,7,9,12,0.5,0.6
2025-09-07T2100,3125A,105.8983,26.2481,安顺市,娄家坡,,29,22,32,20,27,74,,87,86,6,6,10,11,0.5,0.6
2025-09-07T2100,1818A,114.4839,36.0621,安阳市,棉研所,,,,,,,,,,,,,,,,
2025-09-07T2100,1819A,114.3551,36.1017,安阳市,红庙街,颗粒物(PM10),67,83,72,22,22,123,,161,157,15,16,9,11,0.8,0.9
2025-09-07T2100,1820A,114.361,36.0681,安阳市,银杏小区,颗粒物(PM10),63,76,68,31,24,127,,168,164,17,17,10,10,0.7,0.7
2025-09-07T2100,3141A,114.3922,36.0878,安阳市,信访局,颗粒物(PM10),68,86,71,36,22,132,,168,165,15,14,8,10,0.8,0.8
2025-09-07T2100,3669A,114.4705,36.0637,安阳市,左辅环卫站,颗粒物(PM10),59,67,63,26,23,120,,159,156,14,19,7,9,0.8,0.9
2025-09-07T2100,3703A,114.2917,36.0949,安阳市,安钢职工学校,颗粒物(PM10),72,94,75,36,23,130,,161,158,10,12,8,9,0.5,0.7
2025-09-07T2100,1748A,123.044,41.1196,鞍山市,深沟寺,,44,44,30,24,14,109,,132,116,13,8,9,9,1.5,1.1
2025-09-07T2100,1749A,123.011,41.0931,鞍山市,太阳城,颗粒物(PM10),53,55,36,26,17,80,,139,120,21,15,8,9,1.3,0.9
2025-09-07T2100,1750A,123.0485,41.1442,鞍山市,太平,颗粒物(PM10),62,73,42,34,17,73,,117,100,37,20,12,13,1.3,1.1
2025-09-07T2100,1751A,122.9642,41.0971,鞍山市,铁西三道街,颗粒物(PM10),68,86,48,27,20,80,,121,96,50,32,10,13,1.5,1.3
2025-09-07T2100,1753A,123.022,41.0821,鞍山市,明达新区,颗粒物(PM10),59,67,32,20,13,95,,124,102,20,15,13,11,1.3,0.9
2025-09-07T2100,1754A,123.1289,41.0228,鞍山市,千山,,,,21,,12,,,79,,,5,,4,,0.6
2025-09-07T2100,4201A,122.9446,41.0826,鞍山市,兴盛南路290号,颗粒物(PM10),77,103,57,35,18,102,,128,104,35,28,14,14,1.5,1.3
2025-09-07T2100,2195A,107.4212,40.761,巴彦淖尔市,附二中,,49,49,40,30,15,53,,88,83,23,8,9,9,0.4,0.3
2025-09-07T2100,2196A,107.37,40.7372,巴彦淖尔市,市环保大楼,,33,32,30,23,14,42,,81,76,29,8,8,11,0.6,0.4
2025-09-07T2100,1956A,86.1472,41.7538,巴音郭楞蒙古自治州,孔雀公园,颗粒物(PM10),307,425,499,137,143,73,,83,83,14,23,6,7,0.3,0.4
2025-09-07T2100,1957A,86.1972,41.7166,巴音郭楞蒙古自治州,棉纺厂,颗粒物(PM10),420,520,550,146,180,75,,92,91,13,24,5,6,0.2,0.3
2025-09-07T2100,1958A,86.2357,41.7173,巴音郭楞蒙古自治州,经济开发区,颗粒物(PM10),288,411,477,99,124,64,,90,88,16,13,5,6,0.4,0.3
2025-09-07T2100,2914A,106.7677,31.8794,巴中市,苏山坪,,20,15,11,8,5,63,,59,59,3,4,3,3,0.6,0.5
2025-09-07T2100,3181A,106.7768,31.8526,巴中市,市五中,,21,21,15,9,6,24,,62,58,13,9,6,6,0.6,0.6
2025-09-07T2100,3183A,106.7418,31.8654,巴中市,圣泉水务公司,,15,15,10,3,5,20,,66,60,18,9,6,5,0.7,0.6
2025-09-07T2100,3616A,106.7616,31.8344,巴中市,市中心医院,,18,18,14,7,7,17,,62,56,23,11,6,7,0.6,0.6
2025-09-07T2100,2235A,122.7911,45.6077,白城市,洮北区环保局,,21,21,18,3,5,53,,67,62,2,4,4,3,0.4,0.3
2025-09-07T2100,2236A,122.8738,45.5725,白城市,市环保局,,16,12,13,8,6,50,,66,60,8,6,3,4,0.3,0.3
2025-09-07T2100,2231A,126.4219,41.9171,白山市,喜丰,,24,24,28,9,9,43,,79,71,10,8,6,6,0.6,0.6
2025-09-07T2100,2232A,126.4077,41.9419,白山市,环保局,,22,18,25,15,14,42,,82,72,15,10,8,7,0.7,0.7
2025-09-07T2100,2647A,104.1724,36.5446,白银市,第三小学,颗粒物(PM10),68,86,104,29,36,98,,101,101,9,20,7,47,0.2,0.6
2025-09-07T2100,2648A,104.1465,36.5482,白银市,动力公司,颗粒物(PM10),54,58,96,26,33,95,,100,100,8,18,8,29,0.3,0.5
2025-09-07T2100,2512A,106.6103,23.9011,百色市,市监测站,,41,41,36,27,21,70,,140,126,18,15,6,9,0.5,0.5
2025-09-07T2100,2513A,106.6538,23.8859,百色市,市中心血站,细颗粒物(PM2.5),58,,43,41,25,71,,132,124,27,17,8,8,0.8,0.7
2025-09-07T2100,3406A,106.6085,23.8798,百色市,祈福高中,细颗粒物(PM2.5),70,84,45,51,22,44,,127,114,41,20,6,10,0.7,0.6
2025-09-07T2100,2270A,117.396,32.939,蚌埠市,工人疗养院,颗粒物(PM10),54,57,47,22,21,114,,158,144,13,11,6,6,0.5,0.5
2025-09-07T2100,2271A,117.3605,32.9427,蚌埠市,百货大楼,颗粒物(PM10),51,52,46,29,24,108,,154,141,19,14,7,8,0.6,0.7
2025-09-07T2100,2273A,117.4185,32.8911,蚌埠市,蚌埠学院,颗粒物(PM10),53,56,47,27,28,115,,160,147,15,11,8,8,0.5,0.6
2025-09-07T2100,2274A,117.3533,32.9673,蚌埠市,淮上区政府,颗粒物(PM10),56,61,46,29,26,109,,161,146,22,17,7,9,0.6,0.6
2025-09-07T2100,2275A,117.3145,32.8977,蚌埠市,高新区,,48,48,48,23,27,112,,150,136,19,17,12,9,0.6,0.7
2025-09-07T2100,3715A,117.3092,32.9314,蚌埠市,蚌埠田家炳中学,颗粒物(PM10),58,66,56,23,24,102,,155,139,23,17,6,9,0.5,0.5
2025-09-07T2100,1585A,109.8756,40.6532,包头市,市环境监测站,,37,37,29,14,11,40,,83,78,41,15,7,7,0.3,0.3
2025-09-07T2100,1587A,109.9991,40.5842,包头市,包头八中,,49,49,30,22,7,18,,85,74,66,19,6,6,0.4,0.4
2025-09-07T2100,1588A,109.8538,40.6821,包头市,青山宾馆,,40,40,22,14,8,28,,80,66,58,17,5,5,0.5,0.5
2025-09-07T2100,1589A,109.8642,40.6288,包头市,惠龙物流,,20,20,22,10,8,40,,84,77,38,14,21,9,1.2,0.5
2025-09-07T2100,1590A,110.0377,40.5546,包头市,东河鸿龙湾,,28,19,26,3,6,18,,93,82,56,17,4,7,0.6,0.6
2025-09-07T2100,3283A,109.9154,40.5685,包头市,滨河大厦,,38,38,25,9,7,32,,88,79,41,14,30,7,0.6,0.4
2025-09-07T2100,3419A,109.9447,40.6261,包头市,包头市委党校,,35,34,25,8,6,16,,89,80,70,15,12,8,0.7,0.4
2025-09-07T2100,3683A,109.8331,40.6576,包头市,昆区政府,,36,36,23,15,7,35,,87,78,48,14,13,8,0.7,0.5
2025-09-07T2100,1930A,107.185,34.3063,宝鸡市,庙沟村,,43,43,41,19,14,56,,85,74,24,16,5,5,0.4,0.4
2025-09-07T2100,1931A,107.0708,34.3017,宝鸡市,竹园沟,颗粒物(PM10),73,96,38,21,16,42,,78,69,13,11,8,8,0.3,0.3
2025-09-07T2100,1932A,107.1906,34.3672,宝鸡市,三陆医院,颗粒物(PM10),59,68,45,20,17,59,,94,90,30,25,8,9,0.6,0.5
2025-09-07T2100,1933A,107.1431,34.3547,宝鸡市,监测站,颗粒物(PM10),54,57,43,22,17,50,,89,78,29,16,9,9,0.7,0.5
2025-09-07T2100,1934A,107.1186,34.3739,宝鸡市,技工学校,颗粒物(PM10),55,60,48,29,20,68,,92,89,21,13,6,6,0.5,0.4
2025-09-07T2100,1936A,107.2058,34.3497,宝鸡市,文理学院,颗粒物(PM10),58,66,46,27,18,47,,102,92,38,19,8,8,0.6,0.5
2025-09-07T2100,1937A,107.2386,34.3622,宝鸡市,三迪小学,颗粒物(PM10),61,72,48,33,22,61,,104,100,40,22,5,6,0.7,0.5
2025-09-07T2100,4308A,107.3898,34.3601,宝鸡市,陈仓区北开路21号,颗粒物(PM10),65,80,49,28,22,57,,108,102,44,23,8,18,0.5,0.5
2025-09-07T2100,1051A,115.493,38.8632,保定市,游泳馆,颗粒物(PM10),63,75,54,33,24,134,,166,165,27,15,5,5,0.4,0.4
2025-09-07T2100,1052A,115.5213,38.8959,保定市,华电二区,颗粒物(PM10),60,69,46,20,20,79,,151,145,45,15,4,3,0.3,0.1
2025-09-07T2100,1053A,115.4713,38.9108,保定市,接待中心,颗粒物(PM10),60,70,48,28,22,103,,144,142,33,18,3,4,0.5,0.4
2025-09-07T2100,1054A,115.4612,38.8416,保定市,地表水厂,颗粒物(PM10),76,102,75,28,20,123,,136,136,24,35,6,7,0.4,0.4
2025-09-07T2100,3581A,115.31981,38.95208,保定市,满城区生态环境分局,颗粒物(PM10),70,90,58,44,19,80,,157,148,39,24,1,2,0.4,0.2
2025-09-07T2100,3582A,115.47694,38.76408,保定市,清苑区第二中学,颗粒物(PM10),92,134,75,29,21,78,,148,142,57,23,3,4,0.5,0.4
2025-09-07T2100,3583A,115.62909,39.02311,保定市,徐水物探局,颗粒物(PM10),76,101,62,38,25,67,,158,151,63,29,5,6,0.5,0.4
2025-09-07T2100,4004A,115.4202,38.8656,保定市,双鹰农机,颗粒物(PM10),69,87,64,27,22,122,,154,153,20,24,4,5,0.3,0.3
2025-09-07T2100,4034A,115.5150,38.8590,保定市,植保所站,颗粒物(PM10),74,98,66,32,27,118,,152,151,40,30,5,5,0.5,0.5
2025-09-07T2100,2594A,99.1678,25.1081,保山市,市环境监测站,,42,,17,29,21,35,,56,54,7,7,11,10,0.4,0.3
2025-09-07T2100,2595A,99.1711,25.1328,保山市,市环保局,,25,25,21,10,11,41,,68,65,4,5,8,7,0.4,0.4
2025-09-07T2100,1866A,109.2262,21.588,北海市,牛尾岭水库,,28,28,18,17,10,33,,56,,8,15,3,4,0.6,0.7
2025-09-07T2100,1867A,109.1436,21.4086,北海市,海滩公园,,38,38,23,22,8,67,,114,100,23,11,4,5,0.8,0.6
2025-09-07T2100,1868A,109.0981,21.4661,北海市,新市环保局,,25,20,22,17,14,71,,116,105,16,12,4,6,0.7,0.7
2025-09-07T2100,1869A,109.1778,21.5233,北海市,北海工业园,,32,27,29,22,16,34,,115,90,29,14,4,6,0.7,0.6
2025-09-07T2100,3400A,109.1911,21.4415,北海市,龙潭自来水厂,,36,32,25,25,16,35,,110,87,14,11,4,5,0.6,0.5
2025-09-07T2100,1001A,116.3621,39.8784,北京市,万寿西宫,颗粒物(PM10),52,54,34,20,12,113,,108,108,38,26,3,3,0.7,0.6
2025-09-07T2100,1002A,116.2202,40.2915,北京市,定陵,,14,12,20,3,7,43,,89,75,2,3,5,5,0.2,0.2
2025-09-07T2100,1003A,116.4174,39.9289,北京市,东四,颗粒物(PM10),53,55,38,20,13,101,,101,100,26,23,4,3,0.4,0.3
2025-09-07T2100,1004A,116.4072,39.8863,北京市,天坛,,28,28,28,11,12,46,,98,84,11,15,3,4,0.4,0.4
2025-09-07T2100,1005A,116.462,39.9365,北京市,农展馆,,39,39,32,15,11,70,,91,86,31,22,2,2,0.4,0.2
2025-09-07T2100,1006A,116.3392,39.9295,北京市,官园,,43,43,36,20,12,100,,97,97,33,28,5,4,0.4,0.3
2025-09-07T2100,1007A,116.2878,39.9611,北京市,海淀万柳,,42,42,31,15,12,30,,83,73,44,31,3,3,0.6,0.4
2025-09-07T2100,1008A,116.6636,40.135,北京市,顺义新城,,,,,,,,,,,,,,,,
2025-09-07T2100,1009A,116.6275,40.3275,北京市,怀柔镇,,16,,17,3,7,50,,80,71,10,12,1,1,0.4,0.4
2025-09-07T2100,1010A,116.2296,40.217,北京市,昌平镇,,18,13,22,3,8,55,,82,75,7,11,3,4,0.4,0.4
2025-09-07T2100,1011A,116.3966,39.9821,北京市,奥体中心,,38,38,31,15,13,46,,72,67,45,26,5,4,0.5,0.2
2025-09-07T2100,3281A,115.9718,40.4529,北京市,延庆夏都,,29,29,22,13,9,21,,81,69,38,17,2,3,0.5,0.4
2025-09-07T2100,3418A,116.8336,40.4095,北京市,密云新城,,14,14,16,3,6,17,,69,54,12,9,2,2,0.3,0.3
2025-09-07T2100,3671A,116.088,39.9726,北京市,门头沟三家店,,23,23,23,10,8,58,,86,73,14,11,3,3,0.4,0.3
2025-09-07T2100,3672A,116.1541,39.8204,北京市,丰台云岗,,46,46,39,18,14,86,,118,117,22,23,2,2,0.4,0.4
2025-09-07T2100,3673A,116.6804,39.9081,北京市,通州东关,,46,46,41,15,13,77,,100,92,34,32,3,4,0.6,0.5
2025-09-07T2100,3674A,115.9577,39.7603,北京市,房山燕山,,48,48,35,19,14,113,,127,127,12,12,2,2,0.4,0.4
2025-09-07T2100,3675A,116.4672,39.7733,北京市,大兴旧宫,,28,28,32,8,10,38,,95,81,9,16,2,2,0.4,0.4
2025-09-07T2100,3694A,115.986,40.4563,北京市,延庆石河营,,35,35,24,14,9,12,,73,60,32,12,1,2,0.3,0.3
2025-09-07T2100,3695A,116.6151,40.3053,北京市,怀柔新城,,18,8,17,3,8,55,,83,74,4,6,4,4,0.2,0.3
2025-09-07T2100,3696A,116.2545,39.8768,北京市,丰台小屯,颗粒物(PM10),56,62,35,20,13,31,,92,85,54,24,2,2,0.6,0.3
2025-09-07T2100,3697A,116.84,40.3844,北京市,密云镇,,27,27,24,11,10,8,,77,58,40,21,5,5,0.5,0.5
2025-09-07T2100,4182A,116.1942,39.9158,北京市,八角北路9号,,27,27,39,9,12,66,,100,94,17,30,4,4,0.1,0.2
2025-09-07T2100,4194A,117.0790,40.1518,北京市,洳河巡河路,,23,23,23,9,9,33,,79,62,15,9,4,4,0.4,0.4
2025-09-07T2100,1761A,123.8275,41.3064,本溪市,大峪,,50,50,35,12,10,27,,122,91,26,16,6,8,1.5,1.1
2025-09-07T2100,1762A,123.7567,41.3325,本溪市,溪湖,,39,39,39,14,16,52,,121,100,16,15,7,9,0.7,1.3
2025-09-07T2100,1763A,123.7169,41.3094,本溪市,彩屯,,,,,,,,,,,,,,,,
2025-09-07T2100,1764A,123.7669,41.2864,本溪市,东明,颗粒物(PM10),60,70,53,40,20,45,,126,101,39,25,10,9,1.8,1.5
2025-09-07T2100,1765A,123.7992,41.2664,本溪市,新立屯,,39,39,34,10,12,52,,102,74,30,22,6,7,1.0,0.9
2025-09-07T2100,1766A,123.8142,41.3472,本溪市,威宁,,50,50,44,25,21,12,,112,78,30,18,3,6,0.9,1
2025-09-07T2100,2587A,105.2864,27.3125,毕节市,八中,细颗粒物(PM2.5),72,89,52,52,26,48,,77,71,20,11,6,6,0.7,0.5
2025-09-07T2100,2588A,105.31,27.2944,毕节市,师专,颗粒物(PM10),70,89,59,48,25,47,,75,70,24,14,7,7,0.7,0.5
2025-09-07T2100,4263A,105.3688,27.3598,毕节市,工业大道,,35,35,55,24,27,55,,81,73,18,13,7,7,0.8,0.7
2025-09-07T2100,1629A,118.0018,37.3617,滨州市,第二水厂,颗粒物(PM10),59,68,53,24,23,111,,154,146,30,15,8,7,0.4,0.4
2025-09-07T2100,1630A,117.9776,37.393,滨州市,北中新校,颗粒物(PM10),60,70,50,31,26,78,,155,135,52,18,6,6,0.5,0.1
2025-09-07T2100,3514A,117.9378,37.3956,滨州市,中海酒店,颗粒物(PM10),51,51,54,29,25,94,,162,151,19,15,4,7,0.8,0.6
2025-09-07T2100,3515A,117.9378,37.3553,滨州市,开发区一中,颗粒物(PM10),58,66,60,19,20,144,,158,152,19,17,10,9,0.4,0.4
2025-09-07T2100,3516A,118.0917,37.694,滨州市,金海六路,颗粒物(PM10),59,68,55,17,24,87,,148,135,36,26,6,6,0.2,0.2
2025-09-07T2100,4028A,117.9956,37.3753,滨州市,滨州市西街道办事处,颗粒物(PM10),58,66,50,31,28,90,,155,141,36,16,6,6,0.6,0.4
2025-09-07T2100,2311A,115.8072,33.8399,亳州市,污水处理厂,颗粒物(PM10),51,52,40,31,22,47,,87,79,26,12,9,7,0.5,0.4
2025-09-07T2100,2312A,115.7789,33.8518,亳州市,三国揽胜宫,颗粒物(PM10),53,56,44,23,18,69,,96,93,19,10,7,6,0.7,0.7
2025-09-07T2100,3332A,115.7633,33.8034,亳州市,亳州学院,,44,44,40,18,17,87,,105,103,16,10,10,7,0.6,0.6
2025-09-07T2100,2693A,82.0485,44.8556,博尔塔拉蒙古自治州,市党校,,49,49,44,28,22,89,,123,121,33,12,5,6,0.5,0.3
2025-09-07T2100,2694A,82.0806,44.8969,博尔塔拉蒙古自治州,市环保局,,40,40,53,16,18,89,,118,116,40,14,10,8,0.6,0.4
2025-09-07T2100,1071A,116.8842,38.2991,沧州市,沧县城建局,颗粒物(PM10),58,65,55,32,20,125,,163,154,17,18,5,6,0.4,0.5
2025-09-07T2100,1072A,116.8584,38.3254,沧州市,电视转播站,颗粒物(PM10),55,59,54,22,24,124,,155,151,15,14,6,5,0.4,0.6
2025-09-07T2100,1073A,116.8709,38.3228,沧州市,市环保局,颗粒物(PM10),70,90,60,31,28,107,,159,149,17,14,6,7,0.4,0.5
2025-09-07T2100,3324A,116.8136,38.3004,沧州市,河北水利电力学院,颗粒物(PM10),64,78,63,30,29,110,,165,155,26,25,8,9,0.4,0.6
2025-09-07T2100,2622A,97.1806,31.1273,昌都市,昌都监测站,,16,16,8,11,5,36,,58,57,20,5,4,4,0.4,0.3
2025-09-07T2100,3719A,97.1714,31.1406,昌都市,昌都会议中心,,16,12,7,7,5,49,,60,60,6,4,3,4,0.2,0.2
2025-09-07T2100,2690A,88.1236,43.8886,昌吉回族自治州,天山天池,,23,23,16,8,5,48,,63,61,7,8,3,3,0.6,0.5
2025-09-07T2100,2692A,87.2717,44.0297,昌吉回族自治州,新区政务中心,,35,35,44,14,17,94,,118,118,16,28,8,8,0.3,0.6
2025-09-07T2100,3613A,87.3095,44.0142,昌吉回族自治州,亚心广场,,41,41,62,14,28,105,,123,123,19,42,10,10,0.4,0.7
2025-09-07T2100,1120A,125.2863,43.9027,长春市,客车厂,,28,28,24,15,11,36,,80,66,36,15,4,5,0.4,0.3
2025-09-07T2100,1121A,125.2841,43.8463,长春市,邮电学院,,24,24,22,14,9,30,,83,68,36,14,5,5,0.4,0.4
2025-09-07T2100,1122A,125.3716,43.8772,长春市,劳动公园,,40,40,30,16,10,28,,80,66,37,15,8,8,0.1,0.1
2025-09-07T2100,1123A,125.3297,43.8805,长春市,园林处,,20,20,20,3,6,43,,79,67,24,11,5,5,0.6,0.5
2025-09-07T2100,1124A,125.4605,43.79,长春市,净月潭,,18,18,20,3,4,28,,84,65,14,8,5,5,0.2,0.2
2025-09-07T2100,1125A,125.7194,43.515,长春市,甩湾子,,,,,,,,,,,,,,,,
2025-09-07T2100,1126A,125.3863,43.8447,长春市,经开区环卫处,,25,25,26,13,8,30,,80,67,30,15,5,4,0.5,0.5
2025-09-07T2100,1127A,125.245,43.7783,长春市,高新区管委会,,26,26,22,16,11,10,,83,61,48,14,3,3,0.3,0.3
2025-09-07T2100,1128A,125.1761,43.8325,长春市,岱山公园,,25,17,27,7,8,22,,79,61,49,21,4,4,0.3,0.3
2025-09-07T2100,4281A,125.3346,43.9164,长春市,北亚泰大街1068号,,38,38,26,16,11,21,,77,60,46,18,7,8,0.4,0.3
2025-09-07T2100,1335A,113.0833,28.2325,长沙市,经开区环保局,颗粒物(PM10),52,54,49,31,27,110,,147,145,16,11,5,5,0.5,0.5
2025-09-07T2100,1336A,112.8872,28.2189,长沙市,高开区环保局,颗粒物(PM10),54,58,51,30,24,124,,129,129,7,6,4,5,0.4,0.4
2025-09-07T2100,1337A,113.0792,28.2053,长沙市,马坡岭,颗粒物(PM10),52,53,50,35,29,131,,165,163,12,9,5,5,0.6,0.5
2025-09-07T2100,1338A,112.9394,28.19,长沙市,湖南师范大学,,47,47,48,32,28,121,,136,136,10,8,3,4,0.8,0.7
2025-09-07T2100,1339A,113.0178,28.1322,长沙市,雨花区环保局,颗粒物(PM10),53,56,51,27,25,124,,147,147,9,7,6,6,0.7,0.7
2025-09-07T2100,1340A,112.9792,28.2597,长沙市,伍家岭,,50,50,48,29,27,114,,133,133,10,7,2,3,0.5,0.4
2025-09-07T2100,1341A,113.0014,28.1944,长沙市,火车新站,颗粒物(PM10),54,58,50,27,26,125,,142,142,8,6,7,7,0.6,0.6
2025-09-07T2100,1342A,112.9844,28.1178,长沙市,天心区环保局,,,,47,,25,,,144,144,12,10,4,4,0.4,0.4
2025-09-07T2100,1343A,112.8908,28.1308,长沙市,湖南中医药大学,颗粒物(PM10),53,56,48,30,27,119,,127,127,7,5,4,4,0.7,0.7
2025-09-07T2100,1344A,112.9581,28.3611,长沙市,沙坪,,49,49,42,23,24,116,,145,145,13,9,3,4,0.7,0.5
2025-09-07T2100,1727A,113.1147,36.1547,长治市,清华站,颗粒物(PM10),67,84,68,29,28,114,,153,148,13,19,10,12,0.8,0.8
2025-09-07T2100,1730A,113.0886,36.2125,长治市,审计局,颗粒物(PM10),62,74,54,34,27,108,,151,146,22,22,8,11,1.0,1
2025-09-07T2100,1731A,113.0844,36.1856,长治市,长治八中,颗粒物(PM10),77,103,75,46,34,100,,151,146,22,18,10,13,1.0,1
2025-09-07T2100,2845A,113.1569,36.1911,长治市,德盛苑,颗粒物(PM10),67,84,60,22,23,111,,146,142,10,12,9,12,0.9,1
2025-09-07T2100,3568A,113.06,36.0464,长治市,向阳小学,颗粒物(PM10),80,110,113,38,32,110,,154,148,25,20,7,8,0.9,0.9
2025-09-07T2100,3569A,112.8792,36.3144,长治市,屯留一中,颗粒物(PM10),82,114,65,37,24,36,,115,92,47,31,8,10,0.9,0.8
2025-09-07T2100,4189A,113.1131,36.19948,长治市,英华南巷50号,颗粒物(PM10),75,99,71,29,29,100,,148,140,24,21,10,14,1.0,1
2025-09-07T2100,4190A,113.2367,36.3344,长治市,学府街1号,颗粒物(PM10),77,104,77,30,30,54,,150,117,33,27,3,10,0.6,1.2
2025-09-07T2100,1854A,111.6975,28.9703,常德市,市二中,颗粒物(PM10),55,59,37,34,24,87,,128,125,14,7,5,5,0.7,0.5
2025-09-07T2100,1857A,111.7158,29.1456,常德市,白鹤山,,,,,,,,,,,,,,,,
2025-09-07T2100,3138A,111.7153,29.0289,常德市,武陵区永安,细颗粒物(PM2.5),59,55,40,42,19,96,,129,128,9,5,5,5,0.7,0.5
2025-09-07T2100,3139A,111.6892,28.9881,常德市,鼎城区玉霞,细颗粒物(PM2.5),63,58,38,45,22,95,,130,127,8,5,7,5,0.7,0.5
2025-09-07T2100,3140A,111.6625,29.0531,常德市,武陵区长庚,,48,45,37,33,20,120,,135,135,6,7,5,6,0.7,0.6
2025-09-07T2100,1196A,119.9633,31.762,常州市,市监测站,,46,36,35,32,24,114,,171,162,14,12,12,12,0.7,0.7
2025-09-07T2100,1200A,119.9468,31.7069,常州市,武进监测站,,,44,33,32,21,100,,134,126,14,14,8,8,,0.8
2025-09-07T2100,1201A,119.9255,31.9087,常州市,安家,,50,41,31,35,21,89,,161,145,42,22,10,11,1.1,1
2025-09-07T2100,3002A,119.9805,31.8174,常州市,行政中心,颗粒物(PM10),53,56,35,34,23,117,,165,158,23,16,1,3,0.8,0.8
2025-09-07T2100,3003A,120.0522,31.7748,常州市,经开区,颗粒物(PM10),57,64,48,39,22,108,,180,168,28,20,4,4,1.0,1
2025-09-07T2100,3010A,119.9025,31.7964,常州市,钟楼,,45,37,38,31,20,107,,148,138,17,18,7,7,0.8,0.8
2025-09-07T2100,3429A,119.8598,31.7066,常州市,武进经发区,,50,50,39,30,23,91,,163,149,23,10,9,9,0.8,0.8
2025-09-07T2100,3430A,119.5826,31.7245,常州市,金坛城区,,40,29,27,26,20,125,,143,139,8,8,7,8,0.7,0.7
2025-09-07T2100,2220A,120.4318,41.5881,朝阳市,西梁,颗粒物(PM10),82,113,36,38,12,3,,82,58,53,22,4,4,0.7,0.7
2025-09-07T2100,2221A,120.4521,41.5646,朝阳市,河畔小区,,21,21,24,8,7,26,,87,75,31,13,5,7,0.4,0.3
2025-09-07T2100,2222A,120.4176,41.5648,朝阳市,八里堡,颗粒物(PM10),74,98,38,14,11,16,,88,68,48,20,7,8,0.6,0.7
2025-09-07T2100,2223A,120.3806,41.5969,朝阳市,农业园区,,15,15,22,8,11,33,,83,64,24,13,4,5,0.3,0.5
2025-09-07T2100,1705A,116.6367,23.6719,潮州市,西园路,,15,,15,10,8,27,,58,37,10,8,4,5,0.4,0.3
2025-09-07T2100,3026A,116.6183,23.6608,潮州市,市政府,,10,,13,6,8,29,,54,35,8,7,7,7,0.5,0.4
2025-09-07T2100,4036A,116.6461,23.6761,潮州市,金山,,18,,15,12,15,25,,52,36,9,8,5,6,0.4,0.4
2025-09-07T2100,2472A,113.0073,25.9061,郴州市,马头岭,"颗粒物(PM10),细颗粒物(PM2.5)",60,69,40,43,15,29,,80,74,23,13,14,7,0.7,0.6
2025-09-07T2100,2473A,113.0116,25.8226,郴州市,市职中,细颗粒物(PM2.5),88,72,31,65,27,46,,84,76,13,9,18,6,0.9,0.7
2025-09-07T2100,2475A,113.0383,25.8071,郴州市,市审计局,细颗粒物(PM2.5),80,65,33,59,30,45,,85,80,12,7,14,12,0.9,0.6
2025-09-07T2100,2476A,113.0348,25.7759,郴州市,市环保局,细颗粒物(PM2.5),169,,45,128,51,61,,92,88,11,9,28,12,0.9,0.6
2025-09-07T2100,4252A,113.0138,25.8011,郴州市,好美居路49号,细颗粒物(PM2.5),74,69,32,54,25,50,,87,80,14,8,29,11,0.8,0.5
2025-09-07T2100,1431A,103.9728,30.7236,成都市,金泉两河,颗粒物(PM10),76,102,68,54,26,84,,151,144,19,23,4,4,0.8,0.7
2025-09-07T2100,1432A,104.176,30.6872,成都市,十里店,颗粒物(PM10),78,106,70,47,24,110,,149,146,26,24,4,3,0.7,0.6
2025-09-07T2100,1433A,104.079,30.5706,成都市,三瓦窑,颗粒物(PM10),79,107,71,48,24,147,,147,147,21,29,3,3,0.5,0.5
2025-09-07T2100,1434A,104.1114,30.63,成都市,沙河铺,颗粒物(PM10),75,99,70,44,24,124,,131,130,20,18,4,4,0.6,0.6
2025-09-07T2100,1437A,104.0786,30.6531,成都市,君平街,颗粒物(PM10),74,97,79,42,29,119,,165,163,14,18,4,5,0.4,0.4
2025-09-07T2100,1438A,103.613,31.0283,成都市,灵岩寺,,,,,,,,,,,,,,,,
2025-09-07T2100,2880A,104.0239,30.65639,成都市,大石西路,颗粒物(PM10),72,94,74,42,31,102,,147,144,22,24,3,2,0.7,0.6
2025-09-07T2100,3136A,104.2725,30.5589,成都市,龙泉驿区区政府,颗粒物(PM10),59,68,53,29,17,80,,107,100,17,14,5,5,0.7,0.7
2025-09-07T2100,3357A,104.0106,30.6931,成都市,金博路,颗粒物(PM10),74,98,67,44,24,84,,150,145,22,32,7,6,0.7,0.6
2025-09-07T2100,3359A,104.0578,30.5225,成都市,华阳,颗粒物(PM10),71,92,64,48,26,129,,125,124,25,15,2,2,0.7,0.6
2025-09-07T2100,3488A,104.3853,30.7453,成都市,青白江技师分院,颗粒物(PM10),61,72,59,26,20,49,,123,113,43,12,5,5,0.5,0.4
2025-09-07T2100,3489A,104.0789,30.4072,成都市,科学城,颗粒物(PM10),63,75,64,24,23,98,,106,106,12,12,5,5,0.6,0.6
2025-09-07T2100,4011A,103.8506,30.6947,成都市,光华大道三段,细颗粒物(PM2.5),87,105,80,64,35,93,,144,135,19,21,3,3,0.7,0.6
2025-09-07T2100,4224A,104.2433,30.5353,成都市,鲸龙路1057号,颗粒物(PM10),73,96,66,39,25,96,,105,104,26,16,4,4,0.6,0.5
2025-09-07T2100,1062A,117.9531,40.9081,承德市,铁路,,30,30,22,15,6,18,,72,54,18,15,3,5,0.2,0.2
2025-09-07T2100,1063A,117.9392,40.9763,承德市,中国银行,,19,19,21,3,6,16,,72,57,16,10,1,1,0.3,0.2
2025-09-07T2100,1064A,117.9503,40.928,承德市,开发区,,26,26,28,17,12,22,,76,60,20,11,3,5,0.3,0.3
2025-09-07T2100,1066A,117.9268,41.0026,承德市,离宫,,19,19,17,13,8,26,,72,55,13,8,5,5,0.3,0.3
2025-09-07T2100,4274A,117.7994,40.9605,承德市,滨河大街98号,,27,27,21,9,9,11,,73,53,21,9,3,4,0.3,0.4
2025-09-07T2100,2314A,117.47,30.6618,池州市,池州学院,细颗粒物(PM2.5),58,51,45,41,31,130,,148,148,17,11,7,7,0.9,0.8
2025-09-07T2100,3237A,117.4918,30.6617,池州市,展览馆,细颗粒物(PM2.5),54,52,46,38,31,130,,153,152,14,12,6,7,1.0,0.9
2025-09-07T2100,3333A,117.5627,30.695,池州市,第八中学,细颗粒物(PM2.5),60,62,46,43,32,118,,153,151,14,9,6,6,0.9,0.8
2025-09-07T2100,3334A,117.5038,30.6243,池州市,第十二中学,细颗粒物(PM2.5),67,59,42,48,31,126,,149,148,21,11,5,4,1.1,0.9
2025-09-07T2100,1744A,118.9233,42.2816,赤峰市,松山一中,,16,16,14,3,4,48,,76,61,19,13,6,6,0.5,0.5
2025-09-07T2100,1745A,118.9576,42.2728,赤峰市,哈达街,,16,14,14,3,4,50,,80,66,20,14,10,11,0.4,0.3
2025-09-07T2100,1746A,118.8788,42.2554,赤峰市,天义路,,16,,8,8,7,51,,79,61,13,10,8,9,0.2,0.2
2025-09-07T2100,3058A,119.2658,42.0353,赤峰市,银河街,,21,21,22,13,9,47,,72,64,10,6,9,15,0.4,0.4
2025-09-07T2100,3286A,118.9359,42.3147,赤峰市,桥北物流园区,,34,34,20,6,9,23,,68,55,34,11,8,8,0.5,0.4
2025-09-07T2100,2521A,107.3476,22.4136,崇左市,市环保局江州分局,颗粒物(PM10),51,51,28,17,14,76,,118,114,16,11,7,8,0.8,0.7
2025-09-07T2100,4256A,107.3750,22.3736,崇左市,石景林东路7号,,30,30,23,16,11,77,,124,119,31,13,4,4,0.8,0.5
2025-09-07T2100,2298A,118.3093,32.3153,滁州市,老年大学,,40,35,40,28,31,95,,131,116,4,2,5,5,0.4,0.5
2025-09-07T2100,2299A,118.3244,32.2786,滁州市,人大宾馆,,35,29,29,19,30,109,,148,133,5,5,5,4,0.6,0.6
2025-09-07T2100,3207A,118.3118,32.3038,滁州市,市政府原办公楼,,43,37,38,30,35,96,,132,115,8,5,6,5,0.5,0.6
2025-09-07T2100,3331A,118.3267,32.2634,滁州市,图书馆,,35,26,30,21,26,110,,145,128,7,5,10,11,0.5,0.6
2025-09-07T2100,2605A,101.5482,25.0441,楚雄彝族自治州,州环境监测站,,20,20,15,8,11,42,,52,51,4,14,6,9,0.4,0.5
2025-09-07T2100,2606A,101.538,25.0492,楚雄彝族自治州,市经济开发区,,16,15,16,11,8,40,,52,51,12,15,7,9,0.6,0.6
2025-09-07T2100,2548A,107.5277,31.2827,达州市,达州职业技术学院,,31,31,33,3,4,32,,83,77,22,13,7,7,0.5,0.5
2025-09-07T2100,2549A,107.5086,31.2186,达州市,市环境监测站,,38,38,33,12,6,43,,81,78,29,21,5,6,0.5,0.5
2025-09-07T2100,2550A,107.4988,31.2132,达州市,凤凰小区,,25,24,26,17,11,50,,86,83,25,16,4,5,0.5,0.4
2025-09-07T2100,2551A,107.5082,31.1986,达州市,达县机关宾馆,,39,39,29,7,5,12,,80,70,56,22,3,4,0.5,0.4
2025-09-07T2100,2552A,107.4644,31.2124,达州市,市政中心,,44,44,36,9,8,41,,86,81,24,14,2,3,0.4,0.3
2025-09-07T2100,2614A,100.1542,25.7054,大理白族自治州,大理市环境监测站,,30,,14,21,16,53,,57,57,8,12,5,5,0.5,0.6
2025-09-07T2100,2615A,100.2171,25.5811,大理白族自治州,大理古城,,21,21,17,14,9,37,,74,67,18,8,6,6,0.7,0.7
2025-09-07T2100,1109A,121.612,38.9741,大连市,甘井子,,44,44,30,24,17,123,,148,146,21,19,7,8,0.1,0.2
2025-09-07T2100,1110A,121.565,38.9511,大连市,周水子,,37,37,28,18,15,113,,143,140,13,13,7,7,0.3,0.3
2025-09-07T2100,1111A,121.5637,38.8845,大连市,星海三站,,48,48,35,24,20,129,,162,159,22,16,5,5,0.3,0.4
2025-09-07T2100,1112A,121.6302,38.9117,大连市,青泥洼桥,,50,50,36,22,18,138,,160,158,12,14,9,9,0.4,0.5
2025-09-07T2100,1113A,121.6251,38.8638,大连市,傅家庄,,45,39,26,24,19,142,,171,169,13,13,14,13,0.5,0.5
2025-09-07T2100,1114A,121.5213,38.8661,大连市,七贤岭,,41,41,26,21,16,115,,166,159,16,10,8,8,0.5,0.6
2025-09-07T2100,1115A,121.2529,38.8061,大连市,旅顺,,38,30,28,26,19,95,,137,125,49,34,9,10,0.3,0.4
2025-09-07T2100,1116A,121.7485,39.1311,大连市,金州,,48,48,32,23,18,123,,154,147,22,16,9,9,0.3,0.3
2025-09-07T2100,1117A,121.7811,39.0496,大连市,开发区,,48,48,39,24,23,124,,138,138,21,24,6,7,0.2,0.3
2025-09-07T2100,1118A,121.9762,39.0631,大连市,双D港,,45,45,32,24,16,112,,153,147,16,13,11,11,0.4,0.4
2025-09-07T2100,1789A,124.81117,46.03138,大庆市,大同区,,21,21,23,10,6,39,,60,51,10,7,5,6,0.6,0.6
2025-09-07T2100,1790A,125.129,46.533,大庆市,龙凤区,,29,29,33,11,14,33,,58,46,19,13,6,8,0.6,0.7
2025-09-07T2100,1791A,124.902,46.408,大庆市,红岗区,,37,37,31,16,12,40,,61,50,11,9,5,6,0.4,0.4
2025-09-07T2100,1792A,125.153,46.586,大庆市,萨尔图区,,42,42,30,13,8,23,,52,37,31,13,10,10,0.6,0.5
2025-09-07T2100,1793A,124.9042,46.6215,大庆市,让胡路区,,31,31,26,17,12,27,,60,45,23,11,5,5,0.3,0.2
2025-09-07T2100,3481A,125.141,46.634,大庆市,萨区政府监测点,,33,33,26,7,5,39,,63,50,19,9,8,8,0.3,0.3
2025-09-07T2100,1721A,113.3819,40.1097,大同市,果树场,,,,32,,13,,,59,,,16,,7,,0.3
2025-09-07T2100,1723A,113.2994,40.0758,大同市,云冈宾馆,,34,34,42,7,13,68,,97,90,18,17,5,10,0.8,0.8
2025-09-07T2100,1724A,113.3444,40.0917,大同市,大同大学,,44,44,41,19,14,36,,92,82,47,27,7,12,0.9,0.7
2025-09-07T2100,1725A,113.2661,40.1269,大同市,安家小村,,25,23,38,3,10,78,,95,90,16,16,3,6,0.6,0.8
2025-09-07T2100,1726A,113.2711,40.0844,大同市,教育学院,,32,32,46,20,16,48,,95,86,36,19,9,12,0.6,0.6
2025-09-07T2100,3282A,113.3397,40.0597,大同市,大同市卫生学校,,33,33,45,14,17,66,,96,90,27,23,7,13,0.5,0.7
2025-09-07T2100,3565A,113.1367,40.1122,大同市,云冈站,,34,34,40,10,14,39,,95,79,14,8,4,9,0.4,0.5
2025-09-07T2100,3566A,113.1186,40.2556,大同市,图书馆,,22,22,35,7,13,38,,87,76,14,10,3,7,0.5,0.7
2025-09-07T2100,3567A,113.5931,40.0461,大同市,区一中,,17,,41,8,15,54,,102,93,14,14,7,8,0.4,0.5
2025-09-07T2100,4199A,113.2798,40.0997,大同市,魏都大道141号,,25,22,45,17,18,62,,97,89,20,20,3,7,0.4,0.6
2025-09-07T2100,2269A,124.1069,50.4097,大兴安岭地区,科技局,,12,12,18,8,8,27,,42,31,2,2,3,4,0.2,0.2
2025-09-07T2100,3663A,124.1164,50.4278,大兴安岭地区,红旗社区,,8,6,7,3,2,24,,40,28,2,4,4,4,0.3,0.3
2025-09-07T2100,1600A,124.3303,40.0625,丹东市,江湾东路,,35,32,18,14,12,110,,132,130,9,11,6,6,0.8,0.8
2025-09-07T2100,1601A,124.4256,40.1503,丹东市,临江后街,,36,36,23,17,12,103,,128,125,16,14,7,6,0.9,0.8
2025-09-07T2100,1602A,124.3933,40.1461,丹东市,元宝山,,44,44,22,18,11,91,,125,121,16,12,10,6,1.2,0.9
2025-09-07T2100,1603A,124.3633,40.1092,丹东市,民主桥,,31,31,21,18,9,87,,127,122,14,15,9,7,0.9,0.6
2025-09-07T2100,3541A,109.5726,19.5167,儋州市,第一中学子站,,30,30,21,17,12,29,,51,44,8,6,6,6,0.7,0.5
2025-09-07T2100,3542A,109.5567,19.5187,儋州市,东坡学校子站,,23,23,21,12,11,30,,51,45,8,7,7,7,0.5,0.5
2025-09-07T2100,2616A,98.5842,24.428,德宏傣族景颇族自治州,德宏州监测站,,27,27,27,16,16,49,,80,69,11,11,6,11,0.5,0.5
2025-09-07T2100,3677A,98.5881,24.4368,德宏傣族景颇族自治州,芒市人民政府综合楼,,31,31,30,15,15,38,,77,67,9,8,6,8,0.5,0.5
2025-09-07T2100,1901A,104.4239,31.1208,德阳市,东山公园,颗粒物(PM10),55,60,52,27,22,82,,118,115,14,10,4,4,0.7,0.6
2025-09-07T2100,1902A,104.3826,31.1317,德阳市,西小区,颗粒物(PM10),61,71,64,36,26,75,,128,120,18,14,3,3,0.8,0.7
2025-09-07T2100,1904A,104.3553,31.1091,德阳市,耐火材料厂,,,68,64,36,24,,,127,124,17,16,6,6,0.8,0.7
2025-09-07T2100,3639A,104.4019,31.1244,德阳市,市教育局,颗粒物(PM10),61,71,60,28,22,70,,126,119,20,12,2,2,0.8,0.6
2025-09-07T2100,1622A,116.3032,37.4674,德州市,儿童乐园,颗粒物(PM10),60,70,65,22,25,121,,147,144,21,16,10,10,0.5,0.6
2025-09-07T2100,1624A,116.2991,37.4451,德州市,监理站,颗粒物(PM10),60,70,64,22,23,120,,145,142,27,21,14,13,0.9,0.7
2025-09-07T2100,3066A,116.2721,37.4379,德州市,九衢泉纯净水厂,颗粒物(PM10),59,68,66,22,27,93,,127,120,38,32,7,7,0.5,0.5
2025-09-07T2100,3371A,116.3728,37.4403,德州市,开发区人民医院,颗粒物(PM10),63,75,64,22,24,101,,132,126,21,17,10,10,1.0,1
2025-09-07T2100,3511A,116.5652,37.3319,德州市,陵城艺术中心,颗粒物(PM10),57,63,67,24,25,137,,167,165,20,20,14,16,1.0,1
2025-09-07T2100,4292A,116.3525,37.4209,德州市,新河东路,颗粒物(PM10),67,83,68,34,30,77,,132,121,31,23,9,9,0.7,0.8
2025-09-07T2100,2621A,99.7056,27.8317,迪庆藏族自治州,迪庆州站,,19,18,16,13,12,49,,57,55,7,6,6,6,0.4,0.4
2025-09-07T2100,3180A,99.7136,27.8094,迪庆藏族自治州,质量技术监督局,,19,17,16,13,9,51,,56,54,8,8,6,6,0.5,0.5
2025-09-07T2100,4257A,104.6092,35.5962,定西市,将台街,颗粒物(PM10),51,52,72,25,31,70,,92,90,17,19,7,7,0.2,0.2
2025-09-07T2100,4309A,104.6159,35.5701,定西市,正龙路62号,颗粒物(PM10),53,56,84,26,29,69,,84,82,8,11,5,6,0.2,0.2
2025-09-07T2100,1389A,113.7547,23.0494,东莞市,莞城梨川,,13,6,22,3,13,39,,69,49,7,11,5,6,0.3,0.4
2025-09-07T2100,1390A,113.7944,23.0128,东莞市,东城石井,,32,32,34,10,12,33,,69,49,12,12,4,5,0.4,0.4
2025-09-07T2100,1391A,113.7383,22.9658,东莞市,南城西平,,13,12,26,3,9,26,,69,46,25,20,4,4,0.4,0.4
2025-09-07T2100,3319A,113.7338,23.0381,东莞市,万江金泰,,,9,25,3,13,,,68,51,9,11,3,4,0.7,0.8
2025-09-07T2100,3626A,113.7533,23.0202,东莞市,南城元岭,,10,6,20,3,10,32,,70,49,15,13,4,5,0.3,0.3
2025-09-07T2100,3627A,113.7875,23.0457,东莞市,东城主山,,12,6,32,3,13,37,,69,48,11,15,6,7,0.3,0.4
2025-09-07T2100,1666A,118.6614,37.4309,东营市,市环保局,,44,44,48,17,21,104,,172,161,34,26,7,11,0.4,0.4
2025-09-07T2100,3036A,118.6904,37.4338,东营市,开发区管委会,,46,46,56,14,21,132,,167,163,25,28,11,10,0.4,0.4
2025-09-07T2100,3365A,118.5719,37.565,东营市,垦利区民丰路,,,,59,24,23,106,,164,156,36,24,3,7,0.8,0.9
2025-09-07T2100,3498A,118.5055,37.8612,东营市,河口城区,颗粒物(PM10),51,51,53,12,17,107,,162,152,16,21,7,7,0.6,0.7
2025-09-07T2100,3646A,118.4978,37.4623,东营市,胜利站,颗粒物(PM10),57,63,65,27,25,125,,171,162,44,32,8,7,0.7,0.7
2025-09-07T2100,3734A,118.35,37.26,东营市,理想之城,颗粒物(PM10),53,56,51,29,24,86,,164,152,57,36,5,8,0.6,0.6
2025-09-07T2100,1591A,110.0023,39.8129,鄂尔多斯市,综合楼,,34,34,32,7,6,48,,85,79,46,19,5,6,0.8,0.6
2025-09-07T2100,1592A,109.9486,39.8261,鄂尔多斯市,巴音孟克林场办事处,,44,44,41,12,8,57,,92,88,39,20,6,7,0.6,0.5
2025-09-07T2100,1593A,109.7736,39.5986,鄂尔多斯市,康泽苑,颗粒物(PM10),51,51,39,9,10,10,,75,64,44,15,6,7,0.6,0.3
2025-09-07T2100,1594A,109.8119,39.5989,鄂尔多斯市,华泰汽车城,颗粒物(PM10),56,61,39,14,12,3,,66,50,54,21,7,8,0.8,0.4
2025-09-07T2100,1595A,109.9734,39.7884,鄂尔多斯市,奥林花园,,46,46,41,9,10,9,,80,62,59,21,4,6,0.7,0.5
2025-09-07T2100,2436A,114.8938,30.3994,鄂州市,市政府,颗粒物(PM10),51,51,41,29,18,138,,166,166,19,14,6,7,0.9,0.7
2025-09-07T2100,2437A,114.8989,30.3714,鄂州市,赵家坝,颗粒物(PM10),64,77,52,36,19,128,,164,164,13,12,13,10,0.8,0.7
2025-09-07T2100,3654A,114.8094,30.4089,鄂州市,精准医疗中心,,43,42,42,30,20,137,,157,152,19,11,5,7,0.8,0.8
2025-09-07T2100,2454A,109.4978,30.2981,恩施土家族苗族自治州,湖北民院,,39,33,22,27,14,38,,65,62,12,8,6,6,0.6,0.5
2025-09-07T2100,2455A,109.4707,30.2798,恩施土家族苗族自治州,州电力总公司,,18,16,20,12,13,29,,59,55,10,8,5,5,0.4,0.4
2025-09-07T2100,3549A,109.5061,30.3772,恩施土家族苗族自治州,龙凤新区,,35,30,18,24,9,29,,70,62,7,5,6,6,0.6,0.5
2025-09-07T2100,2499A,108.3411,21.6158,防城港市,沙万,,26,,25,18,12,53,,85,72,22,13,3,5,0.5,0.4
2025-09-07T2100,2500A,108.3514,21.7731,防城港市,防城档案局,,21,21,35,14,14,53,,75,71,11,11,3,3,0.5,0.5
2025-09-07T2100,2501A,108.3506,21.6414,防城港市,大海花园,,30,,22,21,13,72,,93,82,5,7,5,7,0.6,0.5
2025-09-07T2100,1371A,113.1294,23.0067,佛山市,湾梁,,13,12,27,9,21,24,,72,48,23,24,6,6,0.6,0.6
2025-09-07T2100,1372A,113.1083,23.0478,佛山市,华材职中,,15,,26,10,19,31,,80,58,12,16,4,4,0.6,0.6
2025-09-07T2100,1373A,113.144,23.0453,佛山市,南海气象局,,18,,26,12,20,26,,74,50,14,17,5,6,0.6,0.7
2025-09-07T2100,1374A,113.2881,22.8094,佛山市,顺德苏岗,,26,26,30,3,10,23,,58,39,16,20,6,6,0.5,0.5
2025-09-07T2100,1376A,112.8383,22.8678,佛山市,高明孔堂,,,7,29,7,15,33,,92,62,16,17,3,4,,0.2
2025-09-07T2100,1377A,112.8836,23.1588,佛山市,三水监测站,,12,,30,8,20,26,,74,48,12,24,6,7,0.5,0.6
2025-09-07T2100,1378A,112.867,23.185,佛山市,三水云东海,,15,15,33,3,20,23,,84,49,14,24,2,3,0.6,0.7
2025-09-07T2100,3625A,113.2544,22.7642,佛山市,容桂街道办,,13,,21,9,14,26,,68,44,18,20,6,6,0.7,0.7
2025-09-07T2100,1280A,119.3903,26.0543,福州市,鼓山,,,,16,,9,,,64,,,6,,1,,0.2
2025-09-07T2100,1282A,119.2681,26.0504,福州市,师大,,15,15,18,9,7,43,,109,92,13,7,5,5,0.2,0.3
2025-09-07T2100,1283A,119.2984,26.1028,福州市,五四北路,,16,12,18,6,7,49,,106,90,10,8,4,4,0.2,0.2
2025-09-07T2100,1284A,119.2648,26.0768,福州市,杨桥西路,,19,19,18,3,7,48,,112,95,8,5,4,4,0.2,0.2
2025-09-07T2100,1285A,119.317,26.0746,福州市,紫阳,,14,12,23,8,6,42,,96,82,10,9,5,5,0.2,0.3
2025-09-07T2100,3048A,119.5799,26.0936,福州市,九龙,,15,15,15,6,3,25,,90,71,13,6,4,4,0.2,0.2
2025-09-07T2100,3526A,119.5189,25.9664,福州市,吴航,,14,12,17,3,8,44,,95,76,8,7,4,4,0.3,0.4
2025-09-07T2100,1755A,123.7977,41.8491,抚顺市,望花区,,39,39,46,27,18,10,,115,85,51,26,7,9,0.8,1
2025-09-07T2100,1756A,123.9161,41.8822,抚顺市,顺城区,,42,42,37,28,15,4,,114,77,58,25,6,7,0.7,0.7
2025-09-07T2100,1757A,124.0436,41.8611,抚顺市,东洲区,,26,,30,18,12,35,,114,91,28,11,7,6,0.4,0.5
2025-09-07T2100,1758A,123.9247,41.8642,抚顺市,新抚区,,,29,36,22,14,,,113,95,42,21,6,7,0.7,0.8
2025-09-07T2100,1759A,124.0972,41.8961,抚顺市,大伙房水库,,22,22,25,3,9,54,,106,86,12,12,8,9,0.5,0.6
2025-09-07T2100,1760A,123.7086,41.8391,抚顺市,沈抚新城,,42,42,33,13,16,16,,113,82,51,25,6,8,1.2,1
2025-09-07T2100,2376A,116.2127,28.0814,抚州市,桐源党溪,,33,33,29,19,17,49,,84,76,5,3,5,5,0.5,0.6
2025-09-07T2100,2377A,116.3544,27.9831,抚州市,市站,,37,37,29,24,17,79,,89,84,4,4,7,6,0.8,0.7
2025-09-07T2100,2378A,116.3565,27.963,抚州市,血防站,,38,38,33,25,19,81,,94,86,4,4,3,5,0.6,0.6
2025-09-07T2100,2379A,116.3564,28.0007,抚州市,采茶剧团,,46,39,31,32,18,73,,84,78,2,2,10,7,0.6,0.6
2025-09-07T2100,2380A,116.385,27.9647,抚州市,医学分院,,46,46,34,23,18,74,,87,80,2,3,3,5,0.7,0.7
2025-09-07T2100,2207A,121.6094,41.998,阜新市,工业园区,颗粒物(PM10),63,75,34,15,9,3,,79,53,58,24,9,14,0.6,0.5
2025-09-07T2100,2208A,121.6697,42.0279,阜新市,长青街,颗粒物(PM10),52,53,21,18,7,6,,78,61,49,17,9,14,1.2,0.4
2025-09-07T2100,2209A,121.6673,42.0705,阜新市,农业园区,,,13,27,,8,54,,77,70,10,13,3,9,0.7,0.5
2025-09-07T2100,2210A,121.6717,42.0224,阜新市,东苑,颗粒物(PM10),62,73,33,9,9,5,,80,61,54,19,15,19,0.7,0.5
2025-09-07T2100,2211A,121.6506,42.0498,阜新市,玉龙新城,颗粒物(PM10),53,56,30,9,8,4,,79,52,45,20,9,13,0.4,0.5
2025-09-07T2100,2301A,115.8277,32.8929,阜阳市,市监测站,颗粒物(PM10),53,55,52,30,28,105,,141,136,21,16,6,6,0.5,0.5
2025-09-07T2100,2303A,115.8554,32.8605,阜阳市,开发区,颗粒物(PM10),59,68,52,24,21,96,,144,139,22,13,8,8,0.5,0.5
2025-09-07T2100,2875A,115.784,32.8892,阜阳市,阜阳职业技术学院,颗粒物(PM10),56,62,56,27,24,115,,148,145,16,12,8,8,0.6,0.6
2025-09-07T2100,3468A,115.7901,32.8613,阜阳市,市规划展馆,颗粒物(PM10),57,64,58,35,27,122,,161,156,19,15,5,5,0.6,0.7
2025-09-07T2100,3469A,115.836,32.9183,阜阳市,枣园社区,颗粒物(PM10),60,69,55,39,28,113,,146,143,18,12,6,7,0.7,0.7
2025-09-07T2100,2669A,102.9099,34.9841,甘南藏族自治州,州政府,颗粒物(PM10),67,83,58,32,25,54,,78,73,14,18,5,6,0.4,0.4
2025-09-07T2100,3380A,102.8914,34.9617,甘南藏族自治州,甘肃民族师范学院,颗粒物(PM10),70,90,77,44,24,60,,78,73,11,19,4,4,0.3,0.3
2025-09-07T2100,2570A,101.9603,30.0475,甘孜藏族自治州,水桥子,,26,26,16,3,7,37,,62,57,19,16,6,6,0.4,0.4
2025-09-07T2100,3065A,101.9533,29.9972,甘孜藏族自治州,州环保局,,21,21,16,9,6,40,,66,59,17,18,4,4,0.5,0.4
2025-09-07T2100,3414A,115.8347,28.932,赣江新区,桑海产业园,,36,36,30,24,22,100,,115,113,12,8,7,7,0.8,0.6
2025-09-07T2100,2362A,114.9017,25.9149,赣州市,通天岩,,18,18,30,9,17,34,,88,53,3,4,15,15,0.6,0.7
2025-09-07T2100,2363A,114.9367,25.8664,赣州市,地委,,27,27,33,17,22,64,,107,86,10,9,6,7,0.7,0.8
2025-09-07T2100,2364A,114.9461,25.8481,赣州市,气象台,,30,30,32,13,20,57,,96,76,6,7,6,8,0.7,0.7
2025-09-07T2100,2365A,114.9322,25.8333,赣州市,市图书馆,,26,22,28,18,21,54,,94,74,7,8,4,5,0.7,0.7
2025-09-07T2100,2366A,114.8905,25.8471,赣州市,华坚鞋城,,35,35,33,16,20,52,,96,79,13,12,4,6,0.6,0.6
2025-09-07T2100,3109A,115.0093,25.8613,赣州市,赣县区卫计委,,42,31,29,29,25,37,,92,66,13,9,6,6,0.5,0.5
2025-09-07T2100,2683A,106.2319,36.1417,固原市,马园,,,,,,,,,,,,,,,,
2025-09-07T2100,2684A,106.2792,36.0022,固原市,监测站,,50,50,56,16,20,83,,102,101,19,19,8,8,0.4,0.3
2025-09-07T2100,2685A,106.2375,36.0211,固原市,新区,,41,41,53,16,20,79,,93,92,16,20,8,8,0.3,0.3
2025-09-07T2100,3522A,106.2177,35.9959,固原市,原州区十五小,颗粒物(PM10),53,55,66,21,24,66,,96,92,27,14,8,8,0.3,0.3
2025-09-07T2100,2543A,106.6308,30.5278,广安市,小平旧居,,,,,,,,,,,,,,,,
2025-09-07T2100,2544A,106.6303,30.4576,广安市,市委,,22,20,25,15,17,62,,83,78,7,9,5,3,0.4,0.4
2025-09-07T2100,2545A,106.6271,30.4663,广安市,友谊中学,,22,19,24,13,12,70,,90,85,8,9,4,4,0.6,0.6
2025-09-07T2100,2547A,106.6388,30.4551,广安市,广电花园,,20,13,20,6,10,61,,81,76,6,8,3,4,0.5,0.5
2025-09-07T2100,2902A,106.6351,30.4865,广安市,北辰小学,,20,14,23,11,12,64,,82,78,6,7,6,6,0.6,0.5
2025-09-07T2100,2523A,105.8945,32.4535,广元市,黑石坡,,12,12,19,3,8,2,,35,25,15,9,9,8,0.3,0.3
2025-09-07T2100,2524A,105.821,32.4444,广元市,老城,,13,13,12,8,7,25,,71,47,22,12,1,2,0.7,0.7
2025-09-07T2100,2526A,105.8628,32.4287,广元市,监测站,,14,14,15,7,7,19,,59,40,20,12,6,7,0.8,0.7
2025-09-07T2100,3617A,105.8047,32.4166,广元市,经开区,,14,14,22,6,9,11,,53,38,24,15,6,7,0.7,0.6
2025-09-07T2100,1345A,113.2347,23.1423,广州市,广雅中学,,11,11,27,3,15,31,,73,50,15,22,3,4,0.3,0.1
2025-09-07T2100,1346A,113.2612,23.105,广州市,市五中,,11,,30,6,16,34,,82,56,16,19,4,5,0.4,0.4
2025-09-07T2100,1348A,113.3478,23.0916,广州市,广东商学院,,14,14,30,7,17,37,,79,55,18,21,4,4,0.2,0.3
2025-09-07T2100,1349A,113.4332,23.1047,广州市,市八十六中,,11,11,24,6,14,25,,66,46,19,26,4,4,0.7,0.7
2025-09-07T2100,1350A,113.3505,22.9483,广州市,番禺中学,,14,14,28,7,15,34,,74,52,10,15,5,6,0.6,0.6
2025-09-07T2100,1351A,113.2146,23.3916,广州市,花都师范,,14,14,37,6,20,26,,73,51,22,22,4,5,0.5,0.6
2025-09-07T2100,1352A,113.2597,23.1331,广州市,市监测站,,12,12,28,3,13,30,,71,50,13,18,5,6,0.4,0.5
2025-09-07T2100,1353A,113.5618,23.312,广州市,九龙镇镇龙,,10,10,29,6,17,21,,68,48,14,13,6,7,0.4,0.4
2025-09-07T2100,1354A,113.2765,23.1544,广州市,麓湖,,12,12,25,6,15,32,,68,50,13,23,2,3,0.2,0.3
2025-09-07T2100,1355A,113.443,23.3035,广州市,帽峰山森林公园,,12,,15,8,9,37,,66,46,7,12,6,6,0.5,0.5
2025-09-07T2100,2846A,113.3221,23.1322,广州市,体育西,,14,14,28,7,16,32,,73,50,13,20,4,5,0.6,0.6
2025-09-07T2100,3298A,113.5717,23.5491,广州市,从化街口,,,10,26,6,17,31,,68,49,10,15,7,8,,0.7
2025-09-07T2100,3299A,113.3472,23.3692,广州市,白云竹料,,10,7,28,3,16,29,,64,47,15,19,4,4,0.4,0.5
2025-09-07T2100,3300A,113.2981,23.237,广州市,白云嘉禾,,,14,26,6,15,32,,74,54,17,21,6,7,,0.5
2025-09-07T2100,3301A,113.4256,23.1716,广州市,黄埔科学城,,11,11,28,3,15,32,,71,52,9,14,4,5,0.6,0.6
2025-09-07T2100,3302A,113.3942,23.0483,广州市,番禺大学城,,23,23,35,7,14,29,,73,50,18,22,14,10,0.5,0.5
2025-09-07T2100,3303A,113.4922,22.8168,广州市,南沙黄阁,,14,14,28,3,10,36,,68,48,10,14,4,5,0.5,0.6
2025-09-07T2100,3304A,113.5342,22.7896,广州市,南沙街,,13,13,25,6,13,34,,70,49,14,15,5,5,0.4,0.4
2025-09-07T2100,3443A,113.2902,23.5544,广州市,花都梯面,,10,6,36,3,31,30,,68,50,8,22,4,4,0.5,0.4
2025-09-07T2100,3445A,113.7858,23.7478,广州市,从化良口,,11,7,20,3,14,35,,62,50,6,8,5,5,0.4,0.5
2025-09-07T2100,3446A,113.8051,23.2614,广州市,增城荔城,,10,7,20,3,12,31,,59,43,7,9,8,9,0.4,0.5
2025-09-07T2100,2505A,109.568,23.1478,贵港市,德智高中,,,,,,,,,,,,,,,,
2025-09-07T2100,2506A,109.6047,23.0666,贵港市,江南子站,,45,,51,31,34,81,,124,110,7,16,4,8,0.6,0.7
2025-09-07T2100,2508A,109.5669,23.1065,贵港市,荷城子站,,25,22,34,17,20,72,,115,100,11,16,3,5,0.6,0.6
2025-09-07T2100,3405A,109.5886,23.1172,贵港市,新世纪学校,,29,27,35,20,24,80,,127,112,8,11,1,3,0.5,0.5
2025-09-07T2100,4260A,109.5933,23.0951,贵港市,中山路155-3号,,33,27,45,23,24,84,,128,113,7,14,2,6,0.5,0.6
2025-09-07T2100,1439A,106.6899,26.5998,贵阳市,马鞍山,,24,24,30,12,25,31,,60,58,13,11,3,3,0.6,0.7
2025-09-07T2100,1441A,106.6243,26.6266,贵阳市,鉴湖路,,29,29,43,7,22,63,,72,72,15,15,4,5,0.4,0.5
2025-09-07T2100,1442A,106.7487,26.6343,贵阳市,燕子冲,,25,,29,17,28,58,,74,74,14,14,2,4,0.4,0.5
2025-09-07T2100,1443A,106.6555,26.4365,贵阳市,碧云窝,,27,27,46,3,23,52,,83,78,13,12,4,5,0.3,0.4
2025-09-07T2100,1445A,106.7109,26.6027,贵阳市,红边门,,20,17,34,12,28,64,,76,76,26,17,3,2,0.5,0.4
2025-09-07T2100,1446A,106.7164,26.5699,贵阳市,新华路,,27,27,32,3,18,57,,77,76,27,15,6,8,0.3,0.4
2025-09-07T2100,1447A,106.674,26.5424,贵阳市,太慈桥,,8,7,27,3,18,23,,72,69,13,16,4,5,0.0,0.2
2025-09-07T2100,1552A,106.805,26.3003,贵阳市,桐木岭,,28,26,34,19,21,62,,79,74,8,7,3,3,1.0,1
2025-09-07T2100,4230A,106.6882,26.5695,贵阳市,花果园大街66号,,16,12,23,11,24,50,,65,65,27,15,3,4,0.7,0.7
2025-09-07T2100,4231A,106.6873,26.5169,贵阳市,漓江路57号,,16,14,33,3,22,51,,81,79,19,15,4,5,0.4,0.5
2025-09-07T2100,1862A,110.4144,25.3167,桂林市,电子科大尧山校区,,,,,,,,,,,,,,,,
2025-09-07T2100,1864A,110.3089,25.2708,桂林市,龙隐路小学,,46,46,33,27,25,43,,101,80,12,9,5,5,0.3,0.3
2025-09-07T2100,1865A,110.2869,25.2178,桂林市,八中,,30,23,31,21,22,56,,105,84,6,7,8,7,0.5,0.5
2025-09-07T2100,3531A,110.296,25.1253,桂林市,旅游学院,,20,17,25,14,20,51,,101,80,4,9,5,6,0.4,0.4
2025-09-07T2100,4222A,110.1835,25.2444,桂林市,环湖路276号,,34,34,35,22,26,65,,112,98,10,10,5,11,0.3,0.3
2025-09-07T2100,4301A,110.2803,25.2773,桂林市,信义路13号,,30,30,34,13,20,56,,106,88,9,8,5,6,0.6,0.5
2025-09-07T2100,2674A,100.2561,34.4714,果洛藏族自治州,玛沁县大武镇,颗粒物(PM10),54,58,39,33,18,92,,124,120,6,7,21,20,0.6,0.5
2025-09-07T2100,1129A,126.5422,45.755,哈尔滨市,岭北,,23,23,16,6,7,70,,91,79,10,11,12,13,0,0.2
2025-09-07T2100,1130A,126.561,45.8167,哈尔滨市,松北商大,,26,26,23,3,5,42,,70,56,12,10,6,7,0.3,0.3
2025-09-07T2100,1131A,126.979,45.5419,哈尔滨市,阿城会宁,,30,30,23,9,8,44,,75,61,14,9,6,6,0.5,0.5
2025-09-07T2100,1132A,126.599,45.7222,哈尔滨市,南岗学府路,,43,43,35,8,6,52,,79,68,13,12,8,8,0.3,0.3
2025-09-07T2100,1133A,126.689,45.7733,哈尔滨市,太平宏伟公园,,31,31,29,3,8,46,,75,64,16,11,8,8,0.5,0.4
2025-09-07T2100,1134A,126.635,45.7667,哈尔滨市,道外承德广场,,,42,46,38,11,26,,63,51,,13,7,7,,0.6
2025-09-07T2100,1135A,126.685,45.7319,哈尔滨市,香坊红旗大街,,39,39,35,12,6,37,,74,62,26,18,6,6,0.5,0.5
2025-09-07T2100,1136A,126.6411,45.7258,哈尔滨市,动力和平路,,44,44,31,3,5,49,,75,63,14,14,5,6,0.4,0.5
2025-09-07T2100,1137A,126.593,45.7478,哈尔滨市,道里建国路,,27,27,27,6,7,37,,64,54,26,18,14,4,0.9,0.9
2025-09-07T2100,1138A,126.615,45.61,哈尔滨市,平房东轻厂,,29,29,25,3,5,30,,70,51,33,14,9,8,0.4,0.4
2025-09-07T2100,1139A,126.595,45.9855,哈尔滨市,呼兰师专,,34,34,32,10,5,41,,68,53,20,12,7,7,0.7,0.6
2025-09-07T2100,1140A,126.6206,45.6842,哈尔滨市,省农科院,颗粒物(PM10),51,51,64,7,7,27,,65,46,31,20,9,6,0.5,0.4
2025-09-07T2100,2688A,93.5128,42.8172,哈密市,地区监测站,颗粒物(PM10),75,99,122,19,37,82,,101,101,24,32,5,4,0.3,0.3
2025-09-07T2100,2689A,93.4961,42.8328,哈密市,哈密师范学校,颗粒物(PM10),53,56,103,15,39,98,,108,108,12,34,4,6,0.2,0.5
2025-09-07T2100,2671A,100.9048,36.9639,海北藏族自治州,海晏县西海镇,,32,32,48,16,22,96,,113,109,3,5,7,7,0.4,0.4
2025-09-07T2100,3867A,102.0738,36.5056,海东市,平安区公安北苑,,34,28,66,14,32,107,,116,115,3,6,9,14,0.5,0.7
2025-09-07T2100,1409A,110.576,19.9507,海口市,东寨港,,,,34,,74,,,33,,,8,,7,,0.4
2025-09-07T2100,1410A,110.3232,20.0574,海口市,海南大学,,23,7,19,3,8,72,,77,77,7,8,3,3,0.3,0.4
2025-09-07T2100,1411A,110.283,20.0053,海口市,秀英海南医院,,20,16,18,7,12,64,,71,71,7,10,6,6,0.4,0.3
2025-09-07T2100,1412A,110.338,19.9969,海口市,海南师范大学,,23,16,16,7,9,71,,82,82,6,6,4,4,0.4,0.4
2025-09-07T2100,1413A,110.33,20.0356,海口市,龙华路环保局宿舍,,24,12,15,6,9,74,,81,81,8,10,6,6,0.3,0.3
2025-09-07T2100,3539A,110.5111,19.9736,海口市,桂林洋子站,,23,23,18,13,8,61,,73,73,15,11,5,5,0.3,0.2
2025-09-07T2100,2673A,100.6188,36.2866,海南藏族自治州,共和县恰卜恰镇,颗粒物(PM10),63,75,53,16,23,63,,123,116,34,12,15,13,0.5,0.4
2025-09-07T2100,2676A,97.3731,37.3753,海西蒙古族藏族自治州,德令哈市,颗粒物(PM10),52,53,43,16,18,110,,120,120,5,2,8,8,0.4,0.4
2025-09-07T2100,1048A,114.5302,36.6116,邯郸市,东污水处理厂,颗粒物(PM10),63,76,63,36,34,147,,164,162,9,14,16,10,0.6,0.8
2025-09-07T2100,1049A,114.4918,36.5713,邯郸市,矿院,细颗粒物(PM2.5),55,54,45,39,35,150,,166,162,7,12,6,8,0.5,0.7
2025-09-07T2100,1050A,114.484,36.6133,邯郸市,丛台公园,颗粒物(PM10),55,59,53,29,28,150,,169,164,12,15,12,12,0.5,0.7
2025-09-07T2100,3458A,114.7895,36.5593,邯郸市,香泉濮院小区,颗粒物(PM10),83,115,70,26,19,132,,155,153,11,9,5,7,0.6,0.6
2025-09-07T2100,3579A,114.50634,36.77178,邯郸市,永年区实验高中,颗粒物(PM10),59,68,66,32,26,146,,180,172,10,17,7,13,1.0,1.4
2025-09-07T2100,3580A,114.20016,36.44293,邯郸市,峰峰矿区临水派出所,颗粒物(PM10),63,76,60,31,28,153,,180,178,16,14,11,11,0.7,0.6
2025-09-07T2100,2634A,106.9893,33.1842,汉中市,汉川机床厂子校,,36,33,42,25,18,55,,57,56,18,13,4,4,0.9,0.5
2025-09-07T2100,2635A,107.0154,33.0706,汉中市,市监测站,,25,22,29,17,15,59,,59,59,13,11,6,6,0.8,0.6
2025-09-07T2100,2636A,107.0089,33.1138,汉中市,鑫源开发区,,30,26,31,21,17,65,,58,54,22,15,7,8,1.0,0.6
2025-09-07T2100,2637A,107.007,33.0323,汉中市,南郑大河坎水厂,,28,27,25,19,12,25,,48,44,18,12,5,5,0.9,0.6
2025-09-07T2100,1223A,120.2072,30.2111,杭州市,滨江,颗粒物(PM10),60,70,41,36,22,150,,206,196,20,18,7,7,0.7,0.5
2025-09-07T2100,1224A,120.0633,30.2747,杭州市,西溪,细颗粒物(PM2.5),59,42,28,42,25,141,,184,177,20,16,8,8,0.8,0.6
2025-09-07T2100,1226A,120.3417,30.3150,杭州市,下沙,,45,42,34,30,22,142,,181,172,16,14,6,6,0.7,0.5
2025-09-07T2100,1227A,120.1269,30.2456,杭州市,卧龙桥,细颗粒物(PM2.5),57,55,34,40,25,135,,187,182,13,10,7,8,0.8,0.7
2025-09-07T2100,1228A,120.1903,30.2692,杭州市,浙江农大,颗粒物(PM10),59,67,42,38,25,118,,160,151,15,19,5,5,0.8,0.6
2025-09-07T2100,1230A,120.1197,30.3119,杭州市,和睦小学,,46,42,32,27,20,147,,199,186,14,14,5,5,0.7,0.6
2025-09-07T2100,1231A,120.3019,30.4183,杭州市,临平镇,颗粒物(PM10),53,55,40,35,21,152,,180,177,14,12,6,6,0.7,0.6
2025-09-07T2100,1232A,120.2753,30.1839,杭州市,城厢镇,细颗粒物(PM2.5),60,54,37,43,27,131,,202,185,23,16,10,9,0.8,0.7
2025-09-07T2100,1233A,120.0883,30.1808,杭州市,云栖,,48,48,29,30,20,115,,182,170,22,19,10,10,0.9,0.8
2025-09-07T2100,3557A,119.9464,30.0494,杭州市,镇二中,颗粒物(PM10),56,61,32,39,28,140,,174,174,15,18,5,5,0.8,0.7
2025-09-07T2100,3558A,119.7183,30.2367,杭州市,市府大楼,,48,46,27,32,20,153,,166,166,11,10,9,8,0.6,0.5
2025-09-07T2100,3656A,120.1556,30.2864,杭州市,消防大队,细颗粒物(PM2.5),54,48,34,38,24,146,,192,178,17,15,8,8,0.8,0.6
2025-09-07T2100,1270A,117.1959,31.7848,合肥市,明珠广场,颗粒物(PM10),59,68,44,36,28,89,,160,147,39,21,6,6,0.8,0.8
2025-09-07T2100,1271A,117.3072,31.8764,合肥市,三里街,细颗粒物(PM2.5),52,51,45,36,30,105,,167,159,20,13,6,5,0.9,0.8
2025-09-07T2100,1272A,117.2588,31.8707,合肥市,琥珀山庄,颗粒物(PM10),52,53,49,35,30,114,,172,164,17,13,8,8,1.0,0.9
2025-09-07T2100,1273A,117.1604,31.9052,合肥市,董铺水库,"颗粒物(PM10),细颗粒物(PM2.5)",58,66,45,41,31,89,,133,127,14,8,5,4,0.5,0.5
2025-09-07T2100,1274A,117.25,31.8571,合肥市,长江中路,细颗粒物(PM2.5),64,61,48,46,28,126,,172,168,16,12,6,6,0.9,0.7
2025-09-07T2100,1275A,117.266,31.9436,合肥市,庐阳区,颗粒物(PM10),58,66,50,36,29,105,,177,164,30,15,5,6,0.7,0.7
2025-09-07T2100,1276A,117.3453,31.8616,合肥市,瑶海区,,,53,48,37,30,,,176,174,17,18,7,7,0.8,0.8
2025-09-07T2100,1277A,117.3027,31.7964,合肥市,包河区,细颗粒物(PM2.5),77,78,48,56,32,74,,173,157,71,23,10,9,1.0,0.8
2025-09-07T2100,1278A,117.2776,31.7385,合肥市,滨湖新区,细颗粒物(PM2.5),79,70,45,58,36,125,,168,163,16,15,6,5,0.9,0.8
2025-09-07T2100,1279A,117.1318,31.8403,合肥市,高新区,细颗粒物(PM2.5),54,56,45,38,28,136,,161,160,19,16,5,5,0.8,0.8
2025-09-07T2100,3464A,117.3803,31.9147,合肥市,高教基地,细颗粒物(PM2.5),59,46,41,42,28,98,,143,134,10,11,6,6,0.7,0.7
2025-09-07T2100,3614A,79.924,37.0877,和田地区,地区环保局,颗粒物(PM10),226,368,412,100,115,71,,96,94,18,16,1,3,0.5,0.6
2025-09-07T2100,3615A,79.9131,37.113,和田地区,市环保局,颗粒物(PM10),210,357,370,85,100,66,,98,96,28,29,1,2,0.3,0.4
2025-09-07T2100,2516A,108.2011,24.715,河池市,东仁乐园,,,,,,,,,,,,,,,,
2025-09-07T2100,2517A,108.0497,24.6947,河池市,市环保站,,26,18,25,18,15,61,,92,87,9,10,5,6,0.6,0.6
2025-09-07T2100,2518A,108.0983,24.6989,河池市,市疾控中心,,28,,27,19,19,69,,98,92,11,13,6,7,0.6,0.6
2025-09-07T2100,1696A,114.6778,23.7569,河源市,源西,,12,12,22,3,14,32,,54,43,4,11,2,2,0.8,0.9
2025-09-07T2100,1697A,114.6944,23.7586,河源市,东埔,,13,9,23,9,17,30,,54,43,7,9,4,5,0.7,0.8
2025-09-07T2100,1698A,114.6892,23.7233,河源市,老城,,13,6,24,3,15,39,,53,,3,8,4,5,0.5,0.6
2025-09-07T2100,1718A,115.4208,35.2464,菏泽市,气象局,,,69,64,20,25,71,,114,108,,10,,6,,0.4
2025-09-07T2100,3374A,115.5564,35.0891,菏泽市,定陶老年大学,,39,39,56,9,21,72,,112,98,11,16,5,6,0.1,0.2
2025-09-07T2100,4184A,115.4797,35.24401,菏泽市,永昌路1号,颗粒物(PM10),56,61,60,23,26,73,,116,106,13,11,7,8,0.5,0.6
2025-09-07T2100,4193A,115.4715,35.2800,菏泽市,长城路999号,颗粒物(PM10),54,58,58,17,22,77,,123,114,18,17,9,10,0.2,0.4
2025-09-07T2100,2514A,111.5264,24.4172,贺州市,环保小区,,26,26,30,11,18,49,,101,86,11,10,14,14,0.4,0.4
2025-09-07T2100,2515A,111.5608,24.4078,贺州市,政协大楼,,28,28,24,15,16,43,,114,93,18,12,11,10,0.5,0.5
2025-09-07T2100,3534A,111.4744,24.4553,贺州市,西湾,,13,,21,3,17,39,,66,63,10,14,6,5,0.5,0.5
2025-09-07T2100,2385A,114.17,35.9019,鹤壁市,市监测站,"颗粒物(PM10),细颗粒物(PM2.5)",65,80,58,47,28,125,,158,156,17,12,8,9,0.6,0.6
2025-09-07T2100,2386A,114.2956,35.7511,鹤壁市,市交警支队,颗粒物(PM10),58,65,60,28,32,94,,158,152,16,13,5,5,0.6,0.6
2025-09-07T2100,2387A,114.2878,35.7306,鹤壁市,迎宾馆,颗粒物(PM10),57,64,69,32,31,87,,156,149,20,17,6,6,0.6,0.7
2025-09-07T2100,3474A,114.2617,35.6822,鹤壁市,大新区,颗粒物(PM10),56,61,77,24,20,70,,152,141,31,21,10,10,0.6,0.7
2025-09-07T2100,3596A,114.1572,35.9603,鹤壁市,南山宾馆,颗粒物(PM10),72,94,69,33,31,134,,165,162,16,12,6,7,0.7,0.7
2025-09-07T2100,2244A,130.2537,47.3416,鹤岗市,哈啤分公司,,30,30,30,3,10,61,,86,82,4,7,13,13,0.2,0.2
2025-09-07T2100,2245A,130.2684,47.3086,鹤岗市,斯达机电,,35,33,31,24,15,70,,88,84,5,8,12,13,0.3,0.3
2025-09-07T2100,2246A,130.3114,47.3388,鹤岗市,东山纸板厂,,32,32,40,20,16,69,,87,84,8,13,13,13,0.3,0.5
2025-09-07T2100,2247A,130.1097,47.3382,鹤岗市,五号水库,,16,12,12,3,6,50,,78,70,6,8,8,8,0.2,0.2
2025-09-07T2100,2263A,127.4833,50.2524,黑河市,交通局,,29,,18,20,16,17,,44,37,15,11,8,8,0.5,0.5
2025-09-07T2100,2264A,127.5144,50.2341,黑河市,环保局,,17,17,14,10,9,25,,47,41,13,9,6,4,0.4,0.4
2025-09-07T2100,2265A,127.5291,50.2472,黑河市,大黑河岛,,,,,9,7,26,,38,34,2,2,21,20,0.3,0.3
2025-09-07T2100,1074A,115.6838,37.7541,衡水市,电机北厂,颗粒物(PM10),67,84,71,34,26,99,,169,162,25,14,11,14,0.4,0.7
2025-09-07T2100,1075A,115.6303,37.7316,衡水市,市监测站,颗粒物(PM10),65,79,71,23,23,108,,165,158,21,17,8,11,0.5,0.8
2025-09-07T2100,3188A,115.6683,37.7217,衡水市,市城管局,颗粒物(PM10),68,86,68,30,25,98,,168,161,26,15,8,11,0.4,0.7
2025-09-07T2100,3459A,115.5989,37.5491,衡水市,地表水厂,颗粒物(PM10),70,90,78,24,27,87,,153,140,27,25,3,6,0.3,0.5
2025-09-07T2100,2456A,112.5003,26.9167,衡阳市,原169医院,,50,50,44,35,23,75,,114,110,2,4,7,6,0.8,0.7
2025-09-07T2100,2457A,112.6194,26.9258,衡阳市,衡阳化工总厂,,47,47,44,32,28,93,,109,108,9,8,3,4,1.0,1
2025-09-07T2100,2458A,112.6211,26.8956,衡阳市,珠晖区环保局,,47,47,40,27,23,84,,111,108,20,12,5,6,1.2,1.1
2025-09-07T2100,2459A,112.6197,26.8733,衡阳市,市委党校,,42,41,27,29,21,103,,117,116,8,7,3,3,0.7,0.6
2025-09-07T2100,2460A,112.6006,26.8919,衡阳市,市监测站,细颗粒物(PM2.5),55,46,40,39,24,100,,115,113,10,8,2,4,0.9,0.9
2025-09-07T2100,2461A,112.5664,26.9056,衡阳市,真空机电公司,,,150,46,34,28,100,,106,106,6,6,3,4,,1
2025-09-07T2100,3399A,112.6703,26.882,衡阳市,师范学院,细颗粒物(PM2.5),53,38,37,37,22,92,,113,112,10,7,2,2,1.0,0.9
2025-09-07T2100,2608A,103.3772,23.3993,红河哈尼族彝族自治州,污水处理厂,,36,36,29,21,19,50,,79,63,12,9,9,10,0.4,0.3
2025-09-07T2100,2609A,103.3861,23.35,红河哈尼族彝族自治州,监测站,,39,39,29,25,16,64,,80,72,7,4,10,10,0.2,0.2
2025-09-07T2100,3038A,103.3758,23.368,红河哈尼族彝族自治州,州图书馆,,45,35,23,31,22,64,,77,68,10,7,2,2,0.3,0.3
2025-09-07T2100,1090A,111.6507,40.7517,呼和浩特市,呼市一监,,48,48,26,16,8,47,,77,74,22,9,3,4,0.3,0.2
2025-09-07T2100,1091A,111.6572,40.8033,呼和浩特市,小召,,36,36,28,16,8,39,,80,75,42,16,5,6,0.5,0.4
2025-09-07T2100,1094A,111.7516,40.8369,呼和浩特市,如意水处理厂,,24,24,20,8,6,25,,80,69,43,12,5,6,0.2,0.2
2025-09-07T2100,1095A,111.7276,40.8062,呼和浩特市,二十九中,,38,38,26,11,7,29,,86,80,43,11,6,7,0.6,0.5
2025-09-07T2100,1096A,111.5512,40.7866,呼和浩特市,工大金川校区,,40,40,33,6,8,32,,81,73,41,16,6,6,0.4,0.4
2025-09-07T2100,1097A,111.717,40.7612,呼和浩特市,化肥厂生活区,颗粒物(PM10),51,52,28,19,8,35,,86,79,52,15,6,7,0.5,0.3
2025-09-07T2100,3698A,111.5968,40.8178,呼和浩特市,红旗小学,,21,14,27,3,6,65,,85,79,13,12,3,4,0.1,0.1
2025-09-07T2100,3699A,111.6518,40.8389,呼和浩特市,海东办,,36,36,27,10,6,18,,86,74,52,14,5,6,0.3,0.3
2025-09-07T2100,2192A,119.7594,49.2261,呼伦贝尔市,区环保局,,25,18,22,17,15,25,,41,28,5,5,5,5,0.3,0.3
2025-09-07T2100,3061A,119.7512,49.1577,呼伦贝尔市,国华电力东,,22,22,18,12,12,32,,44,36,2,2,10,7,0.2,0.2
2025-09-07T2100,1250A,120.0751,30.8669,湖州市,城西水厂,,45,43,35,31,26,136,,170,167,32,22,7,8,0.6,0.6
2025-09-07T2100,2873A,120.0830,30.8929,湖州市,仁皇山新区,,49,44,33,34,24,146,,161,160,8,12,4,5,0.6,0.6
2025-09-07T2100,2907A,120.1844,30.8596,湖州市,吴兴区站,,46,38,30,32,24,116,,158,152,32,12,7,8,0.8,0.7
2025-09-07T2100,3562A,120.4148,30.8538,湖州市,南浔区站,细颗粒物(PM2.5),52,,33,36,32,128,,151,149,7,8,5,7,1.0,0.9
2025-09-07T2100,1607A,120.9049,40.7211,葫芦岛市,龙港区,细颗粒物(PM2.5),93,79,42,69,20,30,,167,153,72,24,5,7,1.0,0.6
2025-09-07T2100,1608A,120.8392,40.7514,葫芦岛市,化工街,颗粒物(PM10),87,124,42,53,15,3,,158,144,130,38,36,11,1.1,0.6
2025-09-07T2100,1609A,120.8341,40.7073,葫芦岛市,新区,细颗粒物(PM2.5),98,,40,73,18,57,,170,160,67,25,6,6,1.0,0.7
2025-09-07T2100,1610A,120.8695,40.7677,葫芦岛市,东城区,细颗粒物(PM2.5),85,79,53,63,23,34,,159,146,98,44,11,15,1.3,0.8
2025-09-07T2100,2482A,109.5981,27.5721,怀化市,林科所,,35,35,32,20,12,76,,93,90,6,5,4,4,0.8,0.7
2025-09-07T2100,2483A,109.9453,27.5444,怀化市,河西地税局,,44,44,32,26,23,62,,87,81,14,6,4,5,0.5,0.4
2025-09-07T2100,2484A,109.9781,27.5342,怀化市,市四医院,,41,41,32,27,26,76,,94,92,5,3,7,7,0.1,0.1
2025-09-07T2100,2485A,109.9972,27.5578,怀化市,监测楼,,43,38,34,30,23,76,,90,88,8,5,5,5,0.3,0.3
2025-09-07T2100,2486A,110.0394,27.583,怀化市,市委党校,,42,42,31,29,23,59,,80,78,15,5,5,6,0.4,0.4
2025-09-07T2100,1210A,119.036,33.5981,淮安市,钵池山,,48,41,35,33,27,91,,131,118,16,12,6,7,0.9,0.9
2025-09-07T2100,1211A,119.007,33.575,淮安市,北京南路,,48,48,44,30,30,101,,127,118,15,16,6,8,1.0,1
2025-09-07T2100,1212A,118.989,33.6067,淮安市,市监测站,细颗粒物(PM2.5),58,51,49,41,34,91,,127,113,14,18,10,12,0.9,0.7
2025-09-07T2100,1213A,119.135,33.5039,淮安市,楚州区监测站,颗粒物(PM10),52,54,51,27,27,108,,130,125,13,16,8,8,0.7,0.6
2025-09-07T2100,3426A,118.8755,33.2894,淮安市,新华书店,,32,32,33,21,23,95,,134,126,18,12,7,7,0.8,0.8
2025-09-07T2100,4206A,119.0288,33.6319,淮安市,承德北路606号,颗粒物(PM10),52,53,52,32,28,86,,129,116,16,13,6,7,0.7,0.7
2025-09-07T2100,2282A,116.8004,33.975,淮北市,监测站,颗粒物(PM10),62,74,49,19,21,93,,125,121,15,15,9,9,1.0,0.9
2025-09-07T2100,2283A,116.8091,33.9007,淮北市,烈山区政府,颗粒物(PM10),59,67,51,24,19,112,,121,120,15,10,13,10,0.7,0.5
2025-09-07T2100,3330A,116.8873,33.9836,淮北市,杜集区检察院,颗粒物(PM10),56,61,52,30,24,77,,122,116,12,7,10,11,0.7,0.7
2025-09-07T2100,4017A,116.7923,33.9535,淮北市,市博物馆,颗粒物(PM10),56,61,52,25,24,104,,129,127,14,12,10,9,0.6,0.6
2025-09-07T2100,2277A,116.8305,32.7727,淮南市,潘集区政府,,,,,,,,,,,,,,,,
2025-09-07T2100,2279A,116.8569,32.5951,淮南市,谢家集区政府,颗粒物(PM10),52,54,35,25,21,118,,149,136,10,10,8,10,0.4,0.4
2025-09-07T2100,2280A,116.8281,32.633,淮南市,八公山区政府,颗粒物(PM10),54,58,44,34,25,72,,150,128,15,10,6,7,0.4,0.4
2025-09-07T2100,2281A,116.6325,32.6201,淮南市,焦岗湖风景区管理处,,,,,,,,,,,,,,,,
2025-09-07T2100,2894A,117.0566,32.6531,淮南市,经济技术开发区消防队,,41,41,33,16,13,102,,144,137,12,11,9,10,0.4,0.4
2025-09-07T2100,3329A,117.0108,32.5893,淮南市,山南新区,,40,40,35,26,15,121,,149,141,9,12,6,6,0.5,0.5
2025-09-07T2100,4209A,117.0031,32.6445,淮南市,国庆中路369号,颗粒物(PM10),51,52,46,28,27,134,,163,160,8,9,6,7,0.5,0.5
2025-09-07T2100,2446A,114.9028,30.4742,黄冈市,职工中心,,43,43,37,30,26,132,,176,175,11,12,4,5,0.8,0.8
2025-09-07T2100,2929A,114.8858,30.4519,黄冈市,红卫路,,43,40,41,30,24,132,,165,164,11,14,4,5,0.7,0.7
2025-09-07T2100,3398A,114.9136,30.4445,黄冈市,市林业局,,40,38,40,27,21,127,,172,170,12,12,5,6,0.7,0.6
2025-09-07T2100,2672A,102.0199,35.5102,黄南藏族自治州,同仁县隆务镇,颗粒物(PM10),70,90,66,30,25,92,,94,94,3,4,10,9,0.4,0.4
2025-09-07T2100,2295A,118.2903,29.6963,黄山市,延安路89号,,47,47,27,22,10,36,,102,82,9,5,4,4,0.5,0.4
2025-09-07T2100,2297A,118.1371,30.2756,黄山市,黄山区政府5号楼,,24,24,24,12,11,62,,87,79,3,3,4,4,0.7,0.7
2025-09-07T2100,4210A,118.3354,29.7203,黄山市,滨江东路7-2号,,37,37,22,21,8,28,,84,66,13,5,3,2,0.5,0.4
2025-09-07T2100,2423A,115.0601,30.2313,黄石市,沈家营,颗粒物(PM10),64,78,54,25,18,112,,150,146,4,8,6,7,0.7,0.8
2025-09-07T2100,2426A,114.8988,30.2019,黄石市,铁山,颗粒物(PM10),54,58,48,27,21,87,,143,136,2,10,4,7,0.4,0.4
2025-09-07T2100,2427A,115.0307,30.2092,黄石市,团城山,颗粒物(PM10),52,53,38,26,18,114,,142,140,8,8,7,7,0.6,0.7
2025-09-07T2100,3149A,115.0235,30.1578,黄石市,笔架山北路,颗粒物(PM10),54,57,34,17,14,97,,122,116,6,7,6,6,0.4,0.4
2025-09-07T2100,4185A,115.0780,30.21118,黄石市,磁湖东路29号,颗粒物(PM10),68,85,57,32,20,111,,148,148,8,13,6,10,0.8,0.9
2025-09-07T2100,1392A,114.4183,23.0528,惠州市,河南岸金山湖子站,,12,7,16,3,5,38,,52,40,5,8,8,8,0.4,0.5
2025-09-07T2100,1393A,114.4053,23.0822,惠州市,下埔横江三路子站,,12,7,18,3,12,38,,58,42,4,6,5,6,0.4,0.5
2025-09-07T2100,1394A,114.4103,23.1142,惠州市,江北云山西路子站,,12,8,19,3,10,38,,63,45,8,9,8,8,0.5,0.5
2025-09-07T2100,1395A,114.4645,22.7833,惠州市,惠阳区承修路船湖子站,,14,9,12,3,6,42,,54,44,9,8,7,7,0.5,0.5
2025-09-07T2100,1396A,114.5317,22.7422,惠州市,大亚湾管委会子站,,13,12,17,3,7,39,,48,43,14,11,8,8,0.6,0.6
2025-09-07T2100,3314A,114.4338,22.8134,惠州市,惠阳秋长,,12,9,16,3,8,38,,53,43,8,7,14,13,0.5,0.5
2025-09-07T2100,3452A,114.6517,22.775,惠州市,大亚湾霞涌,,16,16,11,3,7,43,,58,51,6,5,7,7,0.4,0.5
2025-09-07T2100,2240A,130.9762,45.3001,鸡西市,环保局,,26,26,21,9,8,78,,79,78,9,12,6,6,0.6,0.6
2025-09-07T2100,2243A,130.9429,45.3039,鸡西市,第一中学,,24,22,19,7,8,76,,77,77,5,7,9,9,0.6,0.6
2025-09-07T2100,3707A,131.0207,45.3073,鸡西市,欧美日汽修厂,,24,20,25,13,13,74,,77,76,11,14,8,9,0.6,0.7
2025-09-07T2100,3709A,130.9967,45.3106,鸡西市,市政设施管理处,,30,30,29,12,12,78,,85,82,12,19,8,8,0.7,0.7
2025-09-07T2100,2367A,114.9754,27.0803,吉安市,红声器材厂,,32,32,37,19,18,70,,108,92,6,6,11,9,0.5,0.5
2025-09-07T2100,2368A,114.9658,27.0999,吉安市,市森林工业局,颗粒物(PM10),65,80,183,28,27,61,,47,,8,6,11,10,0.3,0.6
2025-09-07T2100,2369A,114.99,27.1312,吉安市,市环境监测站,,33,33,31,20,17,62,,102,89,7,5,12,13,0.5,0.5
2025-09-07T2100,2370A,115.0093,27.0968,吉安市,青原区法院,,33,33,36,21,21,60,,107,87,11,7,18,11,0.6,0.6
2025-09-07T2100,1772A,126.54,43.8622,吉林市,哈达湾,,25,15,19,8,10,77,,97,92,8,10,7,7,0.2,0.3
2025-09-07T2100,1773A,126.5844,43.8358,吉林市,东局子,,37,37,27,13,10,54,,99,87,28,11,6,6,0.6,0.5
2025-09-07T2100,1774A,126.5052,43.8245,吉林市,电力学院,,41,41,23,17,11,22,,96,79,30,9,6,6,0.6,0.6
2025-09-07T2100,1775A,126.6133,43.8972,吉林市,江北,,30,27,23,21,12,47,,88,75,20,10,6,6,0.6,0.4
2025-09-07T2100,1776A,126.555,43.8306,吉林市,江南公园,,22,22,19,7,11,67,,98,89,12,8,3,2,0.3,0.4
2025-09-07T2100,1778A,126.7061,43.7133,吉林市,丰满,,28,12,12,8,10,87,,120,113,4,4,6,6,0.1,0.3
2025-09-07T2100,2868A,126.4739,43.953,吉林市,九站,,15,13,18,10,10,48,,97,82,27,12,4,5,0.3,0.4
2025-09-07T2100,1299A,116.9862,36.6114,济南市,科干所,,46,46,43,22,19,133,,132,132,8,17,7,7,0.5,0.5
2025-09-07T2100,1300A,116.9376,36.665,济南市,农科所,,44,44,45,17,17,96,,121,117,23,21,8,9,0.5,0.5
2025-09-07T2100,1301A,117.1265,36.6734,济南市,开发区,,44,44,40,22,20,107,,134,128,20,19,8,8,0.6,0.5
2025-09-07T2100,1303A,117.0624,36.6868,济南市,省种子仓库,颗粒物(PM10),51,51,52,22,19,107,,133,130,26,27,5,5,0.6,0.6
2025-09-07T2100,1304A,116.9489,36.6447,济南市,机床二厂,颗粒物(PM10),55,59,53,22,20,105,,126,124,21,18,10,10,0.5,0.5
2025-09-07T2100,1305A,117.0495,36.663,济南市,市监测站,颗粒物(PM10),51,51,46,22,20,93,,121,117,27,23,10,10,0.7,0.7
2025-09-07T2100,1306A,116.7675,36.5484,济南市,长清党校,颗粒物(PM10),53,56,44,22,19,122,,126,126,19,23,7,7,0.6,0.6
2025-09-07T2100,1616A,117.6795,36.229,济南市,技术学院,颗粒物(PM10),56,61,48,34,26,111,,151,147,19,27,10,13,0.9,1
2025-09-07T2100,1961A,117.532,36.6868,济南市,东山小学,,44,44,42,22,14,117,,121,118,20,20,7,7,0.5,0.4
2025-09-07T2100,3059A,117.7161,36.2049,济南市,泰兴公司,颗粒物(PM10),59,68,52,34,29,56,,147,132,57,31,15,17,0.8,0.9
2025-09-07T2100,3064A,117.6867,36.2171,济南市,莱芜战役纪念馆,颗粒物(PM10),60,70,52,37,30,97,,145,139,28,30,9,11,0.8,0.8
2025-09-07T2100,3494A,117.1673,36.9782,济南市,济阳区政府,颗粒物(PM10),61,71,68,17,21,102,,152,142,32,32,9,9,0.3,0.4
2025-09-07T2100,3495A,117.1171,36.63,济南市,锦屏中学,,44,44,34,15,11,54,,119,105,29,13,9,9,0.9,0.7
2025-09-07T2100,3682A,116.9814,36.6819,济南市,济南四建,颗粒物(PM10),51,51,47,22,22,127,,135,135,17,18,6,6,0.6,0.6
2025-09-07T2100,1653A,116.6251,35.4302,济宁市,火炬城,,50,50,54,27,26,75,,142,128,11,12,7,7,0.3,0.4
2025-09-07T2100,1655A,116.5491,35.4042,济宁市,电化厂,颗粒物(PM10),60,70,57,29,26,61,,144,125,26,20,4,6,0.6,0.7
2025-09-07T2100,3500A,116.5814,35.3707,济宁市,北湖一中,颗粒物(PM10),54,58,52,30,29,66,,137,120,13,12,6,8,0.4,0.5
2025-09-07T2100,3501A,116.8249,35.5593,济宁市,服务中心,颗粒物(PM10),58,65,52,16,18,80,,135,129,20,19,6,6,0.2,0.3
2025-09-07T2100,3678A,116.5907,35.4054,济宁市,市第七中学,颗粒物(PM10),56,61,57,22,20,74,,141,126,13,13,5,7,0.4,0.4
2025-09-07T2100,2255A,130.2751,46.8028,佳木斯市,佳纺,,29,29,22,7,8,59,,77,74,10,12,6,6,0.4,0.4
2025-09-07T2100,2256A,130.3995,46.8307,佳木斯市,发电厂,,40,40,37,8,9,64,,72,71,7,14,7,7,0.4,0.4
2025-09-07T2100,2257A,130.3258,46.7975,佳木斯市,环保局,,22,22,17,3,7,62,,77,76,9,9,8,8,0.4,0.4
2025-09-07T2100,2258A,130.3648,46.8032,佳木斯市,十一中,,33,33,22,7,9,59,,68,68,8,12,7,7,0.5,0.5
2025-09-07T2100,2259A,130.3794,46.7588,佳木斯市,四丰,,10,10,10,3,5,32,,24,24,7,8,1,25,0.2,0.3
2025-09-07T2100,1252A,120.7436,30.778,嘉兴市,清河小学,颗粒物(PM10),51,51,46,26,28,159,,193,193,14,15,6,6,0.8,0.8
2025-09-07T2100,1253A,120.726,30.7478,嘉兴市,嘉兴学院,细颗粒物(PM2.5),58,50,46,41,33,162,,212,211,18,25,4,5,0.7,0.7
2025-09-07T2100,2872A,120.7846,30.7525,嘉兴市,南湖区残联,细颗粒物(PM2.5),73,,44,53,39,160,,199,196,14,15,5,6,0.8,0.8
2025-09-07T2100,3407A,120.6916,30.7739,嘉兴市,秀洲住建,臭氧1小时,60,48,45,33,31,168,,221,219,18,17,6,6,0.8,0.8
2025-09-07T2100,1945A,98.2908,39.7711,嘉峪关市,气象局,颗粒物(PM10),62,73,77,17,20,70,,109,103,42,16,5,20,0.1,0.3
2025-09-07T2100,2884A,98.2672,39.7978,嘉峪关市,酒钢宾馆,颗粒物(PM10),73,95,94,19,25,96,,118,113,28,14,32,28,0.8,0.5
2025-09-07T2100,3248A,98.2643,39.7724,嘉峪关市,雄关区,,,,67,,20,,,106,105,46,21,18,18,0.6,0.4
2025-09-07T2100,1383A,113.1064,22.6058,江门市,北街,,11,8,24,3,9,34,,67,54,14,14,4,4,0.3,0.4
2025-09-07T2100,1384A,113.0731,22.5835,江门市,西区,,27,27,30,10,14,32,,65,53,15,14,8,9,0.4,0.5
2025-09-07T2100,1385A,113.0219,22.5311,江门市,圭峰西,,10,,24,3,13,31,,62,55,14,13,3,4,0.5,0.5
2025-09-07T2100,1386A,113.0828,22.5947,江门市,东湖,,10,10,20,3,14,27,,56,44,15,14,6,6,0.4,0.5
2025-09-07T2100,3311A,113.1075,22.5647,江门市,江海富民,,16,16,39,11,17,34,,64,55,12,12,4,5,0.2,0.3
2025-09-07T2100,3449A,113.05,22.4667,江门市,新会银湖,,9,6,22,6,16,20,,47,42,17,17,2,2,0.4,0.5
2025-09-07T2100,1830A,113.1992,35.2590,焦作市,影视城,,,,58,,15,,,111,,,13,,11,,0.6
2025-09-07T2100,3335A,113.3137,35.2641,焦作市,马村街道办,颗粒物(PM10),52,54,58,25,27,94,,145,137,14,15,6,7,0.5,0.6
2025-09-07T2100,3336A,113.2465,35.2373,焦作市,焦作技师学院,颗粒物(PM10),68,86,72,22,21,82,,140,132,20,18,8,9,0.6,0.6
2025-09-07T2100,3477A,113.1656,35.2539,焦作市,中站许衡医院,颗粒物(PM10),51,51,57,33,28,92,,144,136,13,13,7,8,0.5,0.6
2025-09-07T2100,3981A,113.2449,35.1803,焦作市,原李万街道办,颗粒物(PM10),64,78,66,31,25,86,,144,133,18,17,10,10,0.5,0.6
2025-09-07T2100,4264A,113.2340,35.2190,焦作市,新安路1731号,颗粒物(PM10),66,82,71,26,25,97,,141,133,14,15,6,8,0.7,0.8
2025-09-07T2100,4295A,113.2722,35.2121,焦作市,人民路3066号,颗粒物(PM10),56,61,73,20,23,89,,143,132,15,16,4,5,0.3,0.5
2025-09-07T2100,1708A,116.3701,23.5345,揭阳市,新兴,,10,,16,7,11,25,,50,38,17,9,4,6,0.5,0.4
2025-09-07T2100,1709A,116.3264,23.5443,揭阳市,西马,,10,10,17,3,7,28,,52,40,12,6,4,4,0.4,0.3
2025-09-07T2100,1710A,116.3611,23.5626,揭阳市,东兴,,10,8,13,7,8,25,,49,36,13,7,5,7,0.6,0.5
2025-09-07T2100,1711A,116.4151,23.5294,揭阳市,渔湖,,12,,14,8,4,25,,54,39,12,4,3,4,0.6,0.4
2025-09-07T2100,3320A,116.403,23.5699,揭阳市,曲溪,,10,8,14,3,9,30,,54,42,10,5,2,2,0.4,0.4
2025-09-07T2100,1944A,102.1692,38.5167,金昌市,天庆家园,颗粒物(PM10),53,56,85,18,27,81,,98,97,8,17,3,14,0.1,0.3
2025-09-07T2100,4022A,102.1647,38.5371,金昌市,金川区人防中心,颗粒物(PM10),57,64,77,18,23,75,,98,96,6,11,8,15,0.5,0.5
2025-09-07T2100,4239A,102.1930,38.5319,金昌市,长春路96号,颗粒物(PM10),51,52,80,14,22,87,,98,98,5,12,4,12,0.6,0.7
2025-09-07T2100,1262A,119.647,29.077,金华市,十五中,,44,44,34,23,17,106,,137,129,19,15,3,3,0.5,0.4
2025-09-07T2100,1263A,119.686,29.1029,金华市,监测站,,45,45,38,27,20,103,,131,126,19,20,5,4,0.5,0.6
2025-09-07T2100,3659A,119.656,29.1131,金华市,气象局,,38,38,33,20,18,87,,129,119,24,22,3,3,0.5,0.5
2025-09-07T2100,1767A,121.1115,41.0879,锦州市,南山,,47,47,36,24,18,125,,133,133,20,20,6,7,0.7,0.6
2025-09-07T2100,1768A,121.0604,40.8428,锦州市,开发区,臭氧1小时,80,88,52,29,16,184,,170,170,10,32,7,9,1.0,0.8
2025-09-07T2100,1769A,121.1836,41.1119,锦州市,百股街道,,50,50,34,22,12,82,,127,123,32,18,7,8,0.7,0.7
2025-09-07T2100,1770A,121.1178,41.1222,锦州市,天安街道,,47,47,43,26,21,140,,141,141,20,23,9,12,0.9,0.8
2025-09-07T2100,1771A,121.1303,41.1386,锦州市,北湖公园,,35,35,38,22,17,104,,127,127,19,17,4,7,0.8,0.8
2025-09-07T2100,2160A,112.85,35.5051,晋城市,自来水公司,颗粒物(PM10),65,79,75,31,26,128,,136,136,16,17,4,5,0.6,1.1
2025-09-07T2100,2161A,112.8318,35.4936,晋城市,白云商贸,颗粒物(PM10),69,88,75,22,21,137,,147,147,15,16,5,6,0.6,1
2025-09-07T2100,2162A,112.8508,35.4887,晋城市,市环保局,颗粒物(PM10),54,58,68,22,24,123,,134,133,11,14,5,6,0.9,1.4
2025-09-07T2100,2163A,112.8676,35.4897,晋城市,技术学院,颗粒物(PM10),60,70,64,19,19,127,,134,134,14,15,6,7,0.9,1.3
2025-09-07T2100,2165A,112.8453,35.546,晋城市,白马寺,,47,45,57,28,29,150,,156,156,7,9,9,11,0.7,1.5
2025-09-07T2100,3620A,112.8271,35.4828,晋城市,泽州一中,颗粒物(PM10),59,68,77,31,23,144,,153,153,12,13,5,6,0.6,1
2025-09-07T2100,2173A,112.7249,37.7067,晋中市,南都小区,颗粒物(PM10),104,158,69,66,26,73,,157,145,51,19,9,11,1.2,0.8
2025-09-07T2100,2174A,112.6991,37.6982,晋中市,榆次区政府,颗粒物(PM10),87,124,69,44,25,97,,155,145,31,17,9,11,1.2,0.6
2025-09-07T2100,2865A,112.7195,37.6828,晋中市,榆次三中,"颗粒物(PM10),细颗粒物(PM2.5)",134,217,75,102,25,64,,153,140,80,24,14,12,2.3,0.7
2025-09-07T2100,4200A,112.7478,37.6954,晋中市,迎宾街26号,颗粒物(PM10),82,114,64,31,22,64,,160,149,42,15,7,9,1.0,0.8
2025-09-07T2100,2439A,112.2014,31.0481,荆门市,竹园小学,,41,41,41,16,16,62,,121,112,9,10,2,2,0.4,0.3
2025-09-07T2100,2440A,112.1969,30.9891,荆门市,掇刀,,35,35,41,19,18,74,,128,120,9,9,1,1,0.5,0.5
2025-09-07T2100,2441A,112.2213,31.0386,荆门市,石化一小,,31,31,41,18,16,66,,117,108,11,12,8,5,0.4,0.4
2025-09-07T2100,3012A,112.1849,31.0362,荆门市,西山林语,,37,37,37,17,16,67,,122,113,9,7,2,3,0.7,0.6
2025-09-07T2100,3547A,112.1632,31.0138,荆门市,龙泉中学南校,,33,33,33,13,17,76,,124,117,12,12,4,3,0.9,0.7
2025-09-07T2100,1844A,112.2494,30.3197,荆州市,市图书馆,,32,27,35,21,20,100,,135,130,14,14,4,5,0.6,0.5
2025-09-07T2100,1845A,112.2008,30.3544,荆州市,市委党校,,46,39,37,32,23,91,,140,137,19,13,7,7,0.7,0.6
2025-09-07T2100,3194A,112.2747,30.3122,荆州市,管委会,,42,42,37,23,20,86,,138,128,18,14,1,3,0.7,0.6
2025-09-07T2100,4268A,112.1722,30.3366,荆州市,学苑路85号,,43,43,30,28,21,94,,146,143,24,16,4,5,0.6,0.5
2025-09-07T2100,2342A,117.3102,29.3867,景德镇市,王港中学,,,,,,,,,,,,,,,,
2025-09-07T2100,2343A,117.2117,29.2933,景德镇市,老干部活动中心,,22,17,18,15,15,50,,115,90,13,8,6,7,0.7,0.7
2025-09-07T2100,2344A,117.1894,29.2789,景德镇市,兽医站,,24,24,24,16,14,49,,115,88,7,6,4,5,0.7,0.7
2025-09-07T2100,2346A,117.2461,29.2956,景德镇市,陶研所,,20,20,26,13,17,37,,118,91,3,4,4,5,0.6,0.6
2025-09-07T2100,4289A,117.1542,29.2566,景德镇市,青少年活动中心,,23,23,20,11,17,57,,107,85,8,9,1,5,0.7,0.7
2025-09-07T2100,1803A,115.9872,29.6815,九江市,十里,细颗粒物(PM2.5),53,40,28,37,29,90,,119,116,17,11,5,6,0.6,0.6
2025-09-07T2100,1804A,115.9584,29.7046,九江市,茅山头,细颗粒物(PM2.5),62,44,34,44,26,98,,108,107,12,11,4,4,0.7,0.6
2025-09-07T2100,1805A,115.9877,29.7295,九江市,西园,,34,34,27,23,19,107,,114,114,21,18,4,4,1.0,1
2025-09-07T2100,1808A,115.9114,29.6038,九江市,综合工业园,,50,50,32,25,23,85,,120,117,24,20,6,7,0.9,0.9
2025-09-07T2100,1809A,116.0721,29.7535,九江市,石化总厂,细颗粒物(PM2.5),62,,33,44,26,89,,105,103,26,16,4,4,0.7,0.7
2025-09-07T2100,1810A,115.9773,29.5698,九江市,庐山气象台,,,,,,,,,,,,,,,,
2025-09-07T2100,3190A,116.0254,29.6994,九江市,外国语学校,细颗粒物(PM2.5),54,44,27,38,25,87,,108,106,16,15,3,3,0.8,0.8
2025-09-07T2100,4253A,116.0102,29.6594,九江市,莲花大道8号,,35,35,33,24,23,93,,100,99,2,5,6,6,0.7,0.7
2025-09-07T2100,4240A,98.4958,39.7339,酒泉市,玉门东路5号,颗粒物(PM10),78,105,92,38,36,67,,110,105,38,27,11,13,0.5,0.6
2025-09-07T2100,4241A,98.5099,39.7506,酒泉市,北大街108号,颗粒物(PM10),81,112,91,36,33,60,,105,100,36,23,14,17,0.9,0.7
2025-09-07T2100,2698A,76.0072,39.4467,喀什地区,巡警大队,颗粒物(PM10),484,584,912,206,363,,,76,76,,36,,4,,0.6
2025-09-07T2100,2699A,75.9755,39.4694,喀什地区,吾办,颗粒物(PM10),500,610,880,210,319,69,,80,80,18,34,4,5,0.3,0.6
2025-09-07T2100,4027A,75.9483,39.4689,喀什地区,老干局,颗粒物(PM10),384,487,723,161,234,64,,77,77,10,27,4,4,0.4,0.6
2025-09-07T2100,1824A,114.3389,34.7781,开封市,肿瘤医院,颗粒物(PM10),51,51,74,22,28,69,,104,92,24,28,4,5,0.8,1
2025-09-07T2100,1826A,114.2885,34.7965,开封市,世纪星幼儿园,颗粒物(PM10),55,59,69,25,30,69,,112,98,20,22,5,6,0.7,0.8
2025-09-07T2100,3147A,114.3438,34.8106,开封市,龙亭公园,,48,48,70,17,24,74,,109,98,16,20,6,7,0.7,0.8
2025-09-07T2100,3210A,114.3644,34.7964,开封市,汴京公园,颗粒物(PM10),52,54,76,21,30,75,,108,97,18,23,5,6,0.3,0.6
2025-09-07T2100,3473A,114.2485,34.8306,开封市,技师学院,,40,40,65,25,28,75,,108,98,14,20,7,8,1.0,1.1
2025-09-07T2100,3592A,114.4644,34.7556,开封市,祥符区生态环境局,颗粒物(PM10),60,69,71,23,27,48,,89,77,27,22,4,5,0.8,0.9
2025-09-07T2100,1951A,84.895,45.6094,克拉玛依市,长征新村,,,,40,,16,57,,111,108,66,21,6,4,0.8,0.3
2025-09-07T2100,1952A,84.8988,45.5893,克拉玛依市,南林小区,颗粒物(PM10),69,88,46,18,17,30,,107,98,54,32,8,7,1.2,0.8
2025-09-07T2100,1954A,84.905,44.3396,克拉玛依市,独山子区,颗粒物(PM10),54,57,53,16,19,118,,133,130,20,22,8,9,0.4,0.5
2025-09-07T2100,1955A,85.6979,46.098,克拉玛依市,乌尔禾区商贸楼,,43,43,28,11,6,94,,102,102,12,16,3,3,0.1,0.2
2025-09-07T2100,3612A,85.1045,45.6899,克拉玛依市,白碱滩区新站,颗粒物(PM10),57,64,56,23,14,105,,116,116,30,16,13,11,0.4,0.4
2025-09-07T2100,2697A,76.1454,39.7142,克孜勒苏柯尔克孜自治州,市人民政府,,,,896,,328,,,91,91,14,17,5,10,0.2,0.2
2025-09-07T2100,3665A,76.1658,39.7157,克孜勒苏柯尔克孜自治州,克州文化中心,颗粒物(PM10),500,767,899,237,316,69,,76,76,10,22,7,10,0.3,0.4
2025-09-07T2100,1450A,102.8204,24.8886,昆明市,呈贡新区,,28,,19,19,17,86,,100,98,12,13,2,3,0.5,0.5
2025-09-07T2100,1451A,102.6251,24.9608,昆明市,西山森林公园,,,,,,,,,,,,,,,,
2025-09-07T2100,1452A,102.7252,25.0902,昆明市,龙泉镇,,44,44,22,13,11,76,,92,87,16,15,2,2,0.4,0.3
2025-09-07T2100,1453A,102.7266,25.0375,昆明市,东风东路,,33,33,27,18,14,85,,105,103,12,16,3,4,0.3,0.3
2025-09-07T2100,1454A,102.6742,25.0669,昆明市,金鼎山,,25,22,23,10,9,78,,100,98,14,10,2,2,0.3,0.3
2025-09-07T2100,1455A,102.6644,25.0401,昆明市,碧鸡广场,,44,44,28,13,12,67,,97,94,22,13,10,8,0.4,0.4
2025-09-07T2100,3179A,102.7494,25.0119,昆明市,官渡区博物馆,,28,28,23,15,12,81,,100,98,17,17,2,2,0.1,0.1
2025-09-07T2100,3375A,102.8017,24.8336,昆明市,青年创业园,,32,31,30,22,17,69,,57,,14,17,1,2,0.5,0.6
2025-09-07T2100,3550A,102.7997,24.9786,昆明市,昆明学院,,28,26,27,19,18,77,,90,88,17,15,7,8,0.4,0.4
2025-09-07T2100,3551A,102.5967,24.6736,昆明市,晋宁区生态环境分局,,25,19,26,14,14,79,,94,93,8,11,3,3,0.5,0.5
2025-09-07T2100,3552A,102.6678,24.9856,昆明市,云天化总部,,28,21,21,19,15,77,,95,94,11,10,4,5,0.4,0.5
2025-09-07T2100,1456A,91.1319,29.6514,拉萨市,八廓街,,19,11,12,8,9,58,,77,74,23,15,5,6,0.2,0.2
2025-09-07T2100,1457A,91.1221,29.6747,拉萨市,市环保局,,17,11,11,7,8,53,,77,74,20,14,7,7,0.5,0.4
2025-09-07T2100,1458A,91.0874,29.6475,拉萨市,区监测站,,19,19,11,6,6,58,,73,68,28,21,4,5,0.3,0.3
2025-09-07T2100,1459A,91.1774,29.6541,拉萨市,西藏大学,,21,8,9,7,6,65,,74,72,18,16,7,7,0.5,0.3
2025-09-07T2100,1460A,90.9798,29.6588,拉萨市,区辐射站,,28,28,14,8,8,43,,60,58,36,21,5,6,0.4,0.3
2025-09-07T2100,1461A,91.0834,29.6292,拉萨市,拉萨火车站,,19,19,15,6,7,57,,69,65,22,20,5,5,0.5,0.5
2025-09-07T2100,2520A,109.2203,23.7256,来宾市,来宾技工学校,,30,30,36,16,20,77,,110,96,7,9,7,15,0.7,0.7
2025-09-07T2100,3535A,109.1781,23.7297,来宾市,兴宾区政府,,28,28,29,18,20,64,,120,100,9,9,7,8,0.7,0.7
2025-09-07T2100,4002A,109.2416,23.7461,来宾市,中南小学,,32,28,33,22,20,76,,117,100,10,10,9,11,0.7,0.7
2025-09-07T2100,1477A,104.1373,35.9454,兰州市,榆中兰大校区,,,,,,,,,,,,,,,,
2025-09-07T2100,1479A,103.831,36.0464,兰州市,铁路设计院,颗粒物(PM10),82,114,119,58,46,1,,84,70,109,54,10,13,1.1,0.9
2025-09-07T2100,3241A,103.7439,36.0842,兰州市,百合公园,颗粒物(PM10),74,98,102,34,33,57,,89,87,35,36,5,6,0.4,0.6
2025-09-07T2100,3242A,103.9611,35.998,兰州市,和平,颗粒物(PM10),75,99,107,37,39,55,,102,97,13,16,8,9,0.3,0.4
2025-09-07T2100,4236A,103.6293,36.0938,兰州市,庄浪东路808号,颗粒物(PM10),75,99,115,29,43,18,,126,107,90,48,12,18,0.5,0.6
2025-09-07T2100,4237A,103.7251,36.1043,兰州市,安宁西路88号,颗粒物(PM10),87,123,117,47,41,67,,117,112,43,34,4,6,0.5,0.5
2025-09-07T2100,4238A,103.8470,36.0676,兰州市,北滨河东路1号,颗粒物(PM10),83,116,108,40,38,2,,107,91,100,43,9,9,0.8,0.5
2025-09-07T2100,3245A,103.6633,36.533,兰州新区,新区管委会,颗粒物(PM10),61,71,66,32,31,94,,126,124,10,12,9,17,0.5,0.6
2025-09-07T2100,3246A,103.6975,36.4789,兰州新区,舟曲中学,颗粒物(PM10),65,80,90,26,30,89,,122,119,20,23,7,28,0.4,0.5
2025-09-07T2100,1067A,116.6708,39.5111,廊坊市,药材公司,,48,48,46,23,18,43,,132,120,44,23,4,8,0.4,0.3
2025-09-07T2100,1068A,116.7214,39.5589,廊坊市,开发区,,44,44,44,14,14,66,,118,106,24,20,2,4,0.4,0.3
2025-09-07T2100,1070A,116.7244,39.5269,廊坊市,北华航天学院,颗粒物(PM10),57,64,50,24,14,45,,131,117,45,16,5,7,0.6,0.3
2025-09-07T2100,2919A,116.7022,39.5453,廊坊市,河北工业大学,,50,50,47,19,17,79,,132,127,35,19,4,6,0.5,0.3
2025-09-07T2100,2535A,103.7723,29.5462,乐山市,花湖湾,颗粒物(PM10),56,62,52,27,23,110,,115,115,8,10,5,5,0.3,0.3
2025-09-07T2100,2536A,103.7627,29.5844,乐山市,牛耳桥,颗粒物(PM10),70,89,54,37,24,78,,106,102,17,16,7,6,0.7,0.5
2025-09-07T2100,2537A,103.7508,29.6006,乐山市,市第三水厂,颗粒物(PM10),66,81,55,37,22,87,,108,104,13,15,6,5,0.6,0.5
2025-09-07T2100,2538A,103.7571,29.5664,乐山市,市监测站,颗粒物(PM10),62,73,54,32,22,73,,96,92,20,14,8,8,0.8,0.7
2025-09-07T2100,3361A,103.7311,29.5628,乐山市,理工大学,颗粒物(PM10),61,72,54,24,20,87,,103,99,10,14,10,9,0.7,0.6
2025-09-07T2100,2598A,100.2143,26.8576,丽江市,西南郊,,20,10,18,3,9,64,,78,78,4,7,6,6,1.0,1.1
2025-09-07T2100,2599A,100.2497,26.8802,丽江市,丽江古城,,27,27,24,12,10,62,,79,78,14,11,10,10,0.4,0.5
2025-09-07T2100,2600A,100.2203,26.8906,丽江市,市中心,,21,,15,11,12,67,,81,80,12,11,10,11,0.5,0.5
2025-09-07T2100,1267A,119.914,28.4514,丽水市,监测站大楼,,24,22,17,7,6,74,,63,63,9,9,5,4,0.5,0.4
2025-09-07T2100,1268A,119.93,28.4586,丽水市,莲都小学,,25,22,17,8,8,79,,68,68,8,10,4,4,0.4,0.4
2025-09-07T2100,1269A,119.879,28.4231,丽水市,余庄前,,21,17,15,12,11,66,,64,50,9,10,6,5,0.3,0.3
2025-09-07T2100,1173A,119.176,34.5885,连云港市,市环境监测站,,39,39,42,12,25,108,,137,132,11,15,5,6,0.7,0.9
2025-09-07T2100,3000A,119.3581,34.6972,连云港市,德源药业,,41,41,43,14,25,98,,130,124,14,24,5,5,0.9,1.1
2025-09-07T2100,3007A,119.178,34.844,连云港市,新城一中,,34,33,40,17,28,108,,136,133,22,23,4,6,0.8,1
2025-09-07T2100,3008A,119.3608,34.7519,连云港市,胡沟管理处,,36,36,40,17,21,91,,127,121,25,19,6,8,1.4,1.6
2025-09-07T2100,3009A,119.1478,34.5911,连云港市,矿山设计院,,,34,41,19,28,,,133,133,13,18,6,8,0.9,1.1
2025-09-07T2100,3434A,119.2413,34.6539,连云港市,工贸学校,,35,26,40,14,25,110,,135,131,8,12,8,8,1.1,1.4
2025-09-07T2100,3664A,119.4172,34.7341,连云港市,连云街道,,32,27,37,14,23,102,,131,126,4,14,4,6,0.5,0.8
2025-09-07T2100,2571A,102.3431,27.8099,凉山彝族自治州,青龙寺,,17,17,19,7,8,43,,81,73,6,7,3,5,0.4,0.5
2025-09-07T2100,2572A,102.2721,27.8415,凉山彝族自治州,邛海宾馆,,24,13,18,8,10,75,,81,79,4,10,10,14,0.4,0.6
2025-09-07T2100,2573A,102.2625,27.898,凉山彝族自治州,西昌市政府,,15,12,19,6,12,46,,73,66,11,11,14,17,0.6,0.6
2025-09-07T2100,2574A,102.2685,27.8851,凉山彝族自治州,凉山州政府,,23,16,21,16,19,66,,80,75,7,11,10,16,0.7,0.9
2025-09-07T2100,4229A,102.2342,27.8859,凉山彝族自治州,凯乐南路30号,,19,19,22,9,14,58,,70,66,15,19,30,18,1.1,1
2025-09-07T2100,2212A,123.2,41.1953,辽阳市,宏伟区,,28,28,34,6,8,82,,123,106,25,16,5,5,0.8,0.8
2025-09-07T2100,2213A,123.1683,41.2495,辽阳市,新华园,颗粒物(PM10),55,60,40,21,11,13,,131,102,64,24,10,7,0.7,0.6
2025-09-07T2100,2214A,123.2354,41.2639,辽阳市,滨河路,,42,42,34,16,14,39,,120,83,37,15,5,6,0.5,0.6
2025-09-07T2100,2215A,123.149,41.2991,辽阳市,铁西工业园,"颗粒物(PM10),细颗粒物(PM2.5)",53,55,46,37,19,28,,116,82,32,21,8,6,0.8,0.8
2025-09-07T2100,2227A,125.1358,42.8845,辽源市,环保局,颗粒物(PM10),53,55,39,17,8,26,,106,80,30,10,9,9,0.5,0.5
2025-09-07T2100,3239A,125.0764,42.9078,辽源市,银鹰制药,颗粒物(PM10),58,66,28,15,11,15,,104,73,63,23,30,12,0.5,0.5
2025-09-07T2100,1625A,115.9848,36.4372,聊城市,区政府,颗粒物(PM10),58,66,54,22,23,107,,133,132,14,16,10,10,0.5,0.6
2025-09-07T2100,2878A,116.0072,36.4343,聊城市,聊大东校,颗粒物(PM10),56,61,62,22,24,111,,134,133,17,20,10,10,0.3,0.4
2025-09-07T2100,3200A,115.9819,36.4978,聊城市,监控中心,颗粒物(PM10),60,69,62,19,20,111,,134,133,18,18,9,10,0.6,0.6
2025-09-07T2100,3513A,116.0445,36.4361,聊城市,九州社区,颗粒物(PM10),61,71,58,18,23,92,,131,126,17,13,6,6,0.4,0.4
2025-09-07T2100,4018A,116.0567,36.4608,聊城市,星美广场,颗粒物(PM10),58,65,57,22,21,94,,124,121,12,10,4,6,0.6,0.6
2025-09-07T2100,2632A,94.3681,29.6376,林芝市,林芝监测站,,10,9,6,7,6,22,,42,38,7,5,4,4,0.5,0.4
2025-09-07T2100,2633A,94.3616,29.6616,林芝市,林芝人民医院,,13,13,8,8,4,24,,44,40,10,6,5,5,0.5,0.4
2025-09-07T2100,2603A,100.0781,23.8982,临沧市,市环保局,,49,,17,34,17,42,,52,51,9,7,2,4,0.5,0.5
2025-09-07T2100,2604A,100.0894,23.8822,临沧市,市气象局,,23,,14,16,14,34,,40,40,10,8,8,9,0.6,0.5
2025-09-07T2100,1733A,111.5531,36.0783,临汾市,临钢医院,颗粒物(PM10),86,122,91,33,29,113,,153,152,25,17,7,8,1.8,1.2
2025-09-07T2100,1734A,111.5028,36.0714,临汾市,技工学校,颗粒物(PM10),82,114,83,39,40,86,,144,139,34,19,9,8,1.5,1.1
2025-09-07T2100,1736A,111.5018,36.0855,临汾市,市委,颗粒物(PM10),87,124,98,41,30,97,,148,144,35,22,10,7,1.4,1
2025-09-07T2100,3018A,111.505,36.1014,临汾市,唐尧大酒店,颗粒物(PM10),79,108,90,34,29,93,,147,142,36,20,11,8,1.3,1.1
2025-09-07T2100,4244A,111.4879,36.0530,临汾市,启星学校,颗粒物(PM10),80,110,85,48,41,79,,149,142,44,23,7,7,1.5,1.2
2025-09-07T2100,4271A,103.2464,35.6123,临夏回族自治州,滨河东路1号,颗粒物(PM10),93,136,102,56,37,7,,70,62,54,18,7,8,0.6,0.4
2025-09-07T2100,4310A,103.2093,35.5995,临夏回族自治州,新华街21号,颗粒物(PM10),81,112,98,44,39,55,,91,88,24,17,7,7,0.7,0.4
2025-09-07T2100,1618A,118.3429,35.0532,临沂市,沂河小区,细颗粒物(PM2.5),85,88,55,63,37,112,,136,134,21,22,10,11,0.8,0.8
2025-09-07T2100,1619A,118.295,35.0583,临沂市,鲁南制药厂,细颗粒物(PM2.5),83,90,53,61,36,109,,137,134,22,18,10,10,1.0,0.9
2025-09-07T2100,1620A,118.2794,34.9976,临沂市,新光毛纺厂,细颗粒物(PM2.5),83,100,52,61,29,105,,135,133,26,21,10,9,0.9,0.8
2025-09-07T2100,1621A,118.3956,35.0888,临沂市,河东保险公司,颗粒物(PM10),63,75,55,43,33,86,,141,136,26,23,8,8,0.9,0.7
2025-09-07T2100,3370A,118.3564,35.0215,临沂市,十里堡居委,细颗粒物(PM2.5),104,90,54,78,38,113,,142,138,24,24,12,12,0.8,0.8
2025-09-07T2100,3496A,118.3604,35.1084,临沂市,南坊新区,细颗粒物(PM2.5),79,92,62,58,34,125,,146,145,21,27,9,10,0.9,0.9
2025-09-07T2100,3860A,118.3920,35.0300,临沂市,皇山花园小区,细颗粒物(PM2.5),114,134,62,86,38,97,,142,136,22,23,11,12,0.9,0.8
2025-09-07T2100,1870A,109.4856,24.3895,柳州市,柳东小学,,30,30,27,20,17,43,,105,85,15,9,4,7,0.4,0.4
2025-09-07T2100,1871A,109.4157,24.3277,柳州市,环保监测站,,28,28,32,18,21,50,,103,86,16,10,7,10,0.7,0.6
2025-09-07T2100,1872A,109.389,24.341,柳州市,河西水厂,,35,35,44,22,26,60,,107,94,11,15,5,10,0.7,0.7
2025-09-07T2100,1873A,109.4311,24.2921,柳州市,市四中,,32,32,32,19,19,49,,102,83,13,12,9,10,0.4,0.3
2025-09-07T2100,1874A,109.4006,24.3631,柳州市,市九中,,38,38,37,10,21,56,,106,93,12,11,3,4,0.6,0.6
2025-09-07T2100,1875A,109.4958,24.3134,柳州市,古亭山,,27,27,32,17,18,29,,105,75,13,15,6,7,0.5,0.5
2025-09-07T2100,3402A,109.5422,24.3996,柳州市,市二中,,40,40,30,14,19,44,,106,82,16,13,5,6,0.7,0.6
2025-09-07T2100,2307A,116.5079,31.737,六安市,监测大楼,,36,29,37,25,25,92,,116,110,6,8,4,4,0.4,0.5
2025-09-07T2100,2308A,116.4738,31.7643,六安市,皖西学院,,49,46,50,34,26,95,,133,123,6,6,3,3,0.5,0.5
2025-09-07T2100,2309A,116.4996,31.7905,六安市,朝阳厂,,39,32,43,27,26,95,,122,113,10,12,5,6,0.5,0.5
2025-09-07T2100,2310A,116.5567,31.7886,六安市,开发区,,38,38,36,26,23,77,,118,106,10,10,2,3,0.6,0.6
2025-09-07T2100,2576A,104.8,26.5892,六盘水市,窑上,,29,29,29,20,19,36,,74,64,2,3,3,3,0.3,0.3
2025-09-07T2100,2577A,104.83,26.5917,六盘水市,黄土坡,,,31,22,18,11,,,80,80,10,9,2,2,0.4,0.3
2025-09-07T2100,2578A,104.89,26.5939,六盘水市,水钢,细颗粒物(PM2.5),52,51,33,36,22,80,,82,82,7,6,1,2,0.3,0.3
2025-09-07T2100,2579A,104.8475,26.5894,六盘水市,民中,,27,20,18,12,9,86,,81,81,7,9,2,2,0.4,0.4
2025-09-07T2100,2580A,104.9544,26.5506,六盘水市,双水,,35,27,19,24,13,79,,78,78,9,6,3,3,0.2,0.1
2025-09-07T2100,2335A,117.0189,25.1181,龙岩市,龙岩师专,,,,,,,,,,,,,,,,
2025-09-07T2100,2336A,117.0217,25.1033,龙岩市,龙岩市监测站,,15,14,18,3,11,46,,88,81,9,13,6,6,0.4,0.5
2025-09-07T2100,2337A,117.0258,25.0661,龙岩市,闽西职业技术学院,,14,,24,6,12,44,,88,78,6,11,5,8,0.4,0.5
2025-09-07T2100,2338A,117.0196,25.0306,龙岩市,龙岩学院,,16,6,21,3,10,49,,84,77,4,10,6,6,0.4,0.5
2025-09-07T2100,2665A,105.0822,33.3261,陇南市,汉王镇固水子,,,,,,,,,,,,,,,,
2025-09-07T2100,2885A,104.9339,33.3826,陇南市,滨江中学,颗粒物(PM10),80,109,90,39,33,23,,50,47,28,14,5,5,0.8,0.6
2025-09-07T2100,3247A,104.955,33.371,陇南市,市总工会,颗粒物(PM10),77,104,110,38,37,28,,49,46,21,14,6,6,0.5,0.4
2025-09-07T2100,2487A,111.9589,27.8901,娄底市,电视发射台,,40,40,36,22,17,58,,81,76,5,5,5,4,0.6,0.6
2025-09-07T2100,2488A,111.9975,27.725,娄底市,市监测站,,42,38,35,29,23,86,,109,106,11,9,5,6,0.6,0.6
2025-09-07T2100,2489A,112.0194,27.7314,娄底市,市委党校,,43,43,34,27,21,86,,106,104,10,7,4,2,0.5,0.4
2025-09-07T2100,2490A,111.9561,27.7569,娄底市,涟钢,颗粒物(PM10),53,55,34,25,19,59,,92,87,23,10,5,4,2.2,1
2025-09-07T2100,2491A,111.9892,27.7044,娄底市,市政府,,40,32,31,28,22,95,,124,122,7,6,5,7,1.0,0.9
2025-09-07T2100,1893A,105.4324,28.9634,泸州市,九狮山,,50,50,54,15,9,99,,119,119,9,9,6,7,0.5,0.4
2025-09-07T2100,1894A,105.4427,28.9063,泸州市,小市上码头,,,,48,,15,,,86,86,,10,,5,,0.4
2025-09-07T2100,1895A,105.4241,28.8573,泸州市,兰田宪桥,颗粒物(PM10),57,64,49,20,17,106,,121,121,8,12,4,5,0.5,0.4
2025-09-07T2100,1896A,105.4379,28.8833,泸州市,市环监站,颗粒物(PM10),53,56,43,25,21,88,,102,102,12,16,4,4,0.4,0.4
2025-09-07T2100,4272A,105.3689,28.7783,泸州市,纳溪中医医院,颗粒物(PM10),63,75,47,29,22,107,,121,121,9,19,2,2,0.4,0.4
2025-09-07T2100,2183A,111.1406,37.5211,吕梁市,环保局,颗粒物(PM10),92,134,73,29,20,37,,117,104,47,30,5,6,0.7,0.7
2025-09-07T2100,2185A,111.1297,37.5136,吕梁市,自来水公司,颗粒物(PM10),66,81,70,24,17,54,,108,103,18,21,3,4,0.6,0.5
2025-09-07T2100,2867A,111.1283,37.51,吕梁市,马茂庄小学,颗粒物(PM10),84,118,81,28,17,24,,114,101,57,31,3,4,0.8,0.7
2025-09-07T2100,1812A,112.3931,34.6516,洛阳市,市委党校,颗粒物(PM10),52,54,51,20,22,68,,107,93,15,14,9,7,0.4,0.4
2025-09-07T2100,1815A,112.494,34.6886,洛阳市,河南林校,颗粒物(PM10),57,63,65,26,27,73,,122,105,20,21,10,10,0.6,0.6
2025-09-07T2100,1816A,112.3844,34.623,洛阳市,开发区管委会,颗粒物(PM10),51,51,48,23,21,65,,106,91,14,11,6,5,0.5,0.5
2025-09-07T2100,1817A,112.4267,34.6258,洛阳市,市委新办公区,颗粒物(PM10),53,55,52,31,27,71,,105,93,13,12,9,9,0.3,0.4
2025-09-07T2100,3340A,112.6005,34.6326,洛阳市,伊滨,颗粒物(PM10),64,78,67,27,23,48,,112,96,28,19,9,10,0.6,0.5
2025-09-07T2100,3341A,112.4951,34.6332,洛阳市,中移产业园,颗粒物(PM10),53,55,57,20,20,74,,111,100,18,17,8,10,0.3,0.3
2025-09-07T2100,3593A,112.5736,34.8993,洛阳市,吉利监测站,颗粒物(PM10),61,71,66,28,28,57,,111,98,22,14,12,6,0.6,0.5
2025-09-07T2100,3635A,112.3677,34.662,洛阳市,河科大西苑校区,颗粒物(PM10),56,62,60,17,20,67,,112,96,20,18,10,9,0.5,0.5
2025-09-07T2100,3636A,112.4388,34.6781,洛阳市,英才小学,颗粒物(PM10),53,55,63,28,28,71,,115,99,18,24,11,11,0.4,0.5
2025-09-07T2100,4214A,112.4600,34.6949,洛阳市,春都路1号院,颗粒物(PM10),56,62,65,18,22,65,,113,98,20,23,14,13,0.5,0.5
2025-09-07T2100,2399A,114.051,33.5699,漯河市,三五一五工厂,颗粒物(PM10),62,74,48,27,19,66,,86,85,16,14,8,7,0.7,0.8
2025-09-07T2100,2400A,114.0055,33.5698,漯河市,漯河大学,颗粒物(PM10),53,55,38,22,17,64,,87,86,19,13,8,6,0.5,0.5
2025-09-07T2100,2401A,114.0138,33.5828,漯河市,市水利局,颗粒物(PM10),53,56,45,29,21,64,,84,84,18,13,9,7,0.6,0.6
2025-09-07T2100,2402A,114.0261,33.5698,漯河市,市广电局,颗粒物(PM10),56,61,41,28,22,61,,94,91,19,11,6,4,0.6,0.6
2025-09-07T2100,3478A,113.9749,33.5664,漯河市,市图书馆,颗粒物(PM10),60,70,47,31,20,55,,84,82,22,14,7,6,0.6,0.5
2025-09-07T2100,4250A,114.0892,33.5882,漯河市,韶山路11号,颗粒物(PM10),59,68,54,24,20,49,,87,82,22,17,6,6,0.6,0.5
2025-09-07T2100,1798A,118.5092,31.6837,马鞍山市,湖东路四小,颗粒物(PM10),53,55,53,30,37,87,,143,128,23,17,9,10,1.0,1.1
2025-09-07T2100,1799A,118.5024,31.6449,马鞍山市,开发区,,50,50,50,24,32,100,,161,144,17,17,8,11,1.0,1.2
2025-09-07T2100,1802A,118.6245,31.7241,马鞍山市,濮塘,,40,39,44,28,33,85,,162,144,10,9,7,8,1.0,1.1
2025-09-07T2100,3633A,118.4918,31.6809,马鞍山市,雨山,颗粒物(PM10),55,59,49,29,32,70,,134,118,35,22,8,13,0.9,1.2
2025-09-07T2100,4191A,118.5274,31.72227,马鞍山市,慈湖高新区,,43,43,52,25,32,71,,130,112,31,19,7,11,0.6,0.8
2025-09-07T2100,1686A,111.0286,21.4688,茂名市,电白南海,,42,41,30,29,21,55,,45,,15,14,10,11,0.6,0.6
2025-09-07T2100,1687A,110.9294,21.6533,茂名市,茂石化七小,,49,48,34,34,20,49,,75,66,13,14,42,17,1.6,0.8
2025-09-07T2100,1688A,110.9107,21.6687,茂名市,健康路,,39,39,30,27,23,46,,77,65,14,15,33,19,1.5,1
2025-09-07T2100,1689A,110.8592,21.6828,茂名市,高岭,,36,36,51,14,20,41,,68,53,12,20,9,13,0.7,0.7
2025-09-07T2100,3450A,111.01,21.5165,茂名市,电白水东,,42,41,24,29,13,52,,70,64,17,15,16,17,1.2,0.9
2025-09-07T2100,2539A,104.0308,30.0478,眉山市,黑龙滩水库,,35,35,28,16,10,102,,118,116,2,2,1,2,0.4,0.3
2025-09-07T2100,2540A,103.8416,30.0874,眉山市,气象局,颗粒物(PM10),72,93,67,31,20,76,,114,107,16,18,8,9,0.4,0.4
2025-09-07T2100,3137A,103.8578,30.0744,眉山市,市委党校,颗粒物(PM10),59,68,55,17,15,80,,103,98,14,17,7,7,0.6,0.6
2025-09-07T2100,3148A,103.8291,30.0564,眉山市,区人社局,颗粒物(PM10),66,82,74,17,15,84,,107,101,14,15,4,5,0.9,0.8
2025-09-07T2100,1690A,116.1231,24.3284,梅州市,梅江月梅,,14,,20,8,15,42,,54,48,6,10,8,9,0.5,0.5
2025-09-07T2100,1691A,116.0797,24.2719,梅州市,梅县新城,,13,,21,3,19,39,,55,45,4,8,6,7,0.6,0.6
2025-09-07T2100,1692A,116.1248,24.2654,梅州市,环境监控中心,,11,,18,7,14,34,,49,40,6,9,4,5,0.4,0.5
2025-09-07T2100,3315A,116.1233,24.2991,梅州市,梅龙,,11,6,17,3,11,35,,47,41,4,6,7,8,0.6,0.6
2025-09-07T2100,1878A,104.7778,31.4741,绵阳市,富乐山,,44,44,31,22,13,53,,82,76,12,8,8,8,0.7,0.6
2025-09-07T2100,1880A,104.6697,31.4668,绵阳市,高新区自来水公司,颗粒物(PM10),58,66,38,22,12,58,,88,84,28,13,9,8,0.6,0.5
2025-09-07T2100,1881A,104.7287,31.5075,绵阳市,三水厂,,41,41,33,25,17,51,,88,81,27,16,10,10,0.6,0.5
2025-09-07T2100,3491A,104.69,31.5322,绵阳市,西科大附属小学,颗粒物(PM10),61,71,50,33,20,49,,94,86,32,22,8,8,0.8,0.7
2025-09-07T2100,3492A,104.5648,31.5343,绵阳市,安州区旅游局,颗粒物(PM10),57,64,38,27,16,61,,96,92,17,16,9,8,0.7,0.5
2025-09-07T2100,4226A,104.7651,31.4531,绵阳市,绵阳市气象局,颗粒物(PM10),51,52,32,22,12,66,,82,79,18,11,7,7,0.5,0.4
2025-09-07T2100,1784A,129.61,44.561,牡丹江市,环保大楼,,33,33,27,19,16,65,,79,71,17,13,4,4,0.3,0.3
2025-09-07T2100,1785A,129.6115,44.5782,牡丹江市,文化广场,,50,50,32,33,26,47,,78,70,31,18,6,7,0.5,0.5
2025-09-07T2100,1786A,129.5904,44.5963,牡丹江市,第一医院,,42,42,29,27,19,52,,84,79,27,14,8,8,0.2,0.1
2025-09-07T2100,1787A,129.6364,44.6075,牡丹江市,机车工厂,,43,43,32,26,17,45,,78,69,26,14,8,9,0.5,0.4
2025-09-07T2100,1788A,129.6386,44.5462,牡丹江市,第一中学,颗粒物(PM10),53,56,24,25,16,14,,82,64,35,13,4,4,0.3,0.3
2025-09-07T2100,2531A,105.0703,29.61,内江市,市监测站,颗粒物(PM10),59,67,39,37,24,87,,102,101,12,11,6,5,0.7,0.6
2025-09-07T2100,2532A,105.0717,29.5947,内江市,东兴区政府,颗粒物(PM10),52,54,36,25,16,91,,97,96,10,10,9,6,0.6,0.5
2025-09-07T2100,2533A,105.0653,29.5817,内江市,内江二中,颗粒物(PM10),56,61,38,34,24,91,,96,96,12,11,7,4,0.6,0.6
2025-09-07T2100,2534A,105.0406,29.5822,内江市,内江日报社,颗粒物(PM10),54,58,40,30,24,90,,103,102,20,19,7,6,0.5,0.4
2025-09-07T2100,2628A,92.0657,31.4846,那曲市,那曲监测站,,50,50,24,17,9,71,,82,80,24,14,4,2,0.4,0.3
2025-09-07T2100,4243A,92.0515,31.4787,那曲市,那曲市委宣传部,,25,24,13,14,8,79,,93,92,16,7,6,4,0.5,0.3
2025-09-07T2100,1290A,115.8931,28.6843,南昌市,省外办,细颗粒物(PM2.5),52,39,36,36,29,84,,95,93,2,2,4,5,1.0,0.9
2025-09-07T2100,1291A,115.8886,28.7003,南昌市,省林业公司,,39,39,33,27,22,91,,116,112,10,7,2,3,0.8,0.8
2025-09-07T2100,1292A,115.8126,28.7442,南昌市,林科所,,36,36,28,22,18,96,,120,113,3,5,4,5,0.7,0.7
2025-09-07T2100,1294A,115.8518,28.687,南昌市,建工学校,颗粒物(PM10),53,56,37,20,12,103,,122,117,15,12,6,7,0.9,0.9
2025-09-07T2100,1295A,115.8921,28.6424,南昌市,象湖,,37,28,27,22,20,118,,128,125,9,11,7,8,0.8,0.8
2025-09-07T2100,1296A,115.7423,28.7996,南昌市,武术学校,,35,27,24,24,12,38,,92,71,9,8,8,9,0.7,0.8
2025-09-07T2100,3046A,115.9084,28.6062,南昌市,机电学校,,37,37,35,22,21,111,,125,121,10,11,6,6,0.6,0.6
2025-09-07T2100,3690A,115.9721,28.7031,南昌市,外国语学校,,44,44,35,25,20,108,,122,120,12,10,6,6,0.5,0.6
2025-09-07T2100,4192A,115.9316,28.68677,南昌市,南京东路235号,,36,36,37,24,23,108,,125,122,12,10,9,9,0.9,0.9
2025-09-07T2100,1905A,106.056,30.8064,南充市,西山风景区,,,,,,,,,,,,,,,,
2025-09-07T2100,1906A,106.0789,30.8023,南充市,南充市委,,18,18,23,12,15,50,,63,60,11,9,3,3,0.4,0.4
2025-09-07T2100,1907A,106.1031,30.8217,南充市,南充炼油厂,,34,34,30,12,12,50,,62,60,9,6,5,5,0.2,0.1
2025-09-07T2100,4227A,106.1083,30.7884,南充市,梨树横街98号,,25,25,23,16,13,57,,73,71,11,8,2,3,0.3,0.2
2025-09-07T2100,4304A,106.1172,30.843,南充市,清泉寺北路188号,,23,22,20,16,13,58,,66,65,6,7,4,4,0.3,0.2
2025-09-07T2100,4305A,106.067,30.7616,南充市,同庆路1号,,19,19,17,12,11,56,,70,68,12,9,4,5,0.5,0.4
2025-09-07T2100,1151A,118.8086,32.1065,南京市,迈皋桥,,,39,36,22,28,,,116,110,33,23,4,4,0.7,1
2025-09-07T2100,1152A,118.7538,32.0551,南京市,草场门,,42,39,42,29,30,108,,162,150,14,12,4,5,0.9,0.9
2025-09-07T2100,1153A,118.7794,32.0745,南京市,山西路,,48,48,49,24,24,111,,169,157,15,11,4,4,0.7,0.8
2025-09-07T2100,1154A,118.7752,32.0023,南京市,中华门,,42,41,35,29,26,113,,160,156,19,10,4,4,1.2,1.3
2025-09-07T2100,1155A,118.8109,32.0309,南京市,瑞金路,,45,44,39,31,29,117,,173,170,11,10,6,7,0.4,0.5
2025-09-07T2100,1156A,118.7997,32.0754,南京市,玄武湖,,41,41,43,20,22,96,,156,147,9,10,3,4,0.5,0.7
2025-09-07T2100,1157A,118.6414,32.0931,南京市,浦口,颗粒物(PM10),51,52,42,26,25,115,,134,127,14,11,5,6,0.5,0.5
2025-09-07T2100,1158A,118.7356,31.9996,南京市,奥体中心,颗粒物(PM10),53,55,44,31,27,130,,172,160,18,13,8,6,0.7,0.8
2025-09-07T2100,1159A,118.9125,32.1028,南京市,仙林大学城,,41,41,45,22,23,87,,184,173,16,12,7,8,0.9,1
2025-09-07T2100,3422A,118.8436,31.9198,南京市,江宁彩虹桥,颗粒物(PM10),53,56,40,29,26,128,,179,174,21,16,3,4,0.8,0.8
2025-09-07T2100,3427A,118.8554,32.3578,南京市,六合雄州,,41,41,40,20,27,80,,126,113,14,12,5,5,0.8,0.8
2025-09-07T2100,4249A,118.8708,31.3402,南京市,汶溪路181号,,49,36,27,34,22,117,,136,135,10,9,5,6,0.8,0.8
2025-09-07T2100,4312A,119.019,31.6512,南京市,中山西路1号,,33,31,25,23,18,101,,127,125,18,14,3,4,0.8,0.8
2025-09-07T2100,1401A,108.3103,22.7881,南宁市,二十一中,,40,40,37,23,22,89,,144,136,14,21,5,9,0.7,0.7
2025-09-07T2100,1402A,108.3141,22.8528,南宁市,北湖,,36,32,41,25,22,90,,128,121,10,24,2,8,0.6,0.6
2025-09-07T2100,1403A,108.3206,22.8225,南宁市,市监测站,,30,25,34,21,19,80,,138,128,20,19,4,7,0.5,0.5
2025-09-07T2100,1404A,108.3829,22.8037,南宁市,大自然花园,颗粒物(PM10),55,60,38,30,21,79,,127,118,16,15,5,6,0.6,0.5
2025-09-07T2100,1405A,108.4394,22.7904,南宁市,仙葫,,36,33,33,25,19,78,,107,101,14,15,3,5,0.7,0.6
2025-09-07T2100,1406A,108.2397,22.8467,南宁市,区农职院,,40,37,33,28,23,61,,129,115,36,17,6,11,0.4,0.3
2025-09-07T2100,1407A,108.3275,22.735,南宁市,英华嘉园,细颗粒物(PM2.5),57,43,34,40,24,84,,140,131,14,17,2,4,0.5,0.5
2025-09-07T2100,3401A,108.4834,22.7618,南宁市,红星社区,,36,35,34,25,20,74,,128,114,24,17,5,5,0.6,0.5
2025-09-07T2100,4221A,108.2177,22.7774,南宁市,乐贤路16号,,49,42,42,34,26,66,,146,125,31,23,5,8,0.6,0.6
2025-09-07T2100,2331A,118.0966,26.6761,南平市,茫荡山,,,,10,,5,,,46,,,,,2,,0.3
2025-09-07T2100,2332A,118.1681,26.6369,南平市,南平市监测站,,14,14,16,9,12,38,,68,62,12,10,4,6,0.5,0.4
2025-09-07T2100,2333A,118.1825,26.6489,南平市,南平铝业有限公司,,24,24,17,3,9,46,,66,62,13,12,5,5,0.6,0.5
2025-09-07T2100,2334A,118.1756,26.6272,南平市,南平七中,,12,7,20,7,11,38,,68,62,10,8,3,4,0.5,0.7
2025-09-07T2100,1168A,120.9098,31.9663,南通市,狼山街道,,35,34,31,24,22,97,,161,149,19,24,5,5,1.0,1
2025-09-07T2100,1169A,120.86,32.0005,南通市,虹桥,,46,32,36,32,28,102,,172,163,19,26,4,8,0.9,1
2025-09-07T2100,1170A,120.87,32.02,南通市,城中,,30,30,41,17,25,80,,162,149,25,27,2,5,0.7,0.9
2025-09-07T2100,1171A,120.94,31.93,南通市,星湖花园,,30,25,29,21,23,76,,132,123,17,25,3,4,0.6,0.7
2025-09-07T2100,1172A,120.81,32.0417,南通市,紫琅学院,,27,19,34,10,21,84,,150,139,20,24,3,6,0.8,1.1
2025-09-07T2100,3291A,121.067,32.062,南通市,通州监测站,,35,27,24,24,18,92,,126,117,9,13,3,2,1.0,0.9
2025-09-07T2100,3432A,120.9348,31.9883,南通市,环境教育馆,,40,36,36,28,24,66,,169,148,34,23,5,5,0.6,0.6
2025-09-07T2100,2404A,112.5224,33.0122,南阳市,瓦房庄,,39,39,46,11,13,60,,90,78,7,11,7,7,0.4,0.5
2025-09-07T2100,2405A,112.5003,32.9735,南阳市,汉画馆,,40,40,43,14,17,51,,76,73,10,18,7,8,0.6,0.7
2025-09-07T2100,2406A,112.5573,33.027,南阳市,气象站,,36,36,45,12,15,57,,94,82,10,11,7,7,0.5,0.5
2025-09-07T2100,2407A,112.5481,32.9689,南阳市,理工学院,,41,41,46,3,9,59,,91,80,8,14,9,9,0.5,0.6
2025-09-07T2100,4008A,112.5234,32.9922,南阳市,卧龙区政府,,41,41,42,20,18,56,,87,74,11,14,7,6,0.6,0.6
2025-09-07T2100,1234A,121.8358,29.911,宁波市,区环保大楼,,13,10,15,8,8,41,,93,68,11,11,5,6,0.4,0.4
2025-09-07T2100,1235A,121.56,29.82,宁波市,万里学院,,22,22,21,9,13,42,,124,103,8,9,6,8,0.5,0.5
2025-09-07T2100,1236A,121.713,29.9572,宁波市,龙赛医院,,22,22,32,11,10,41,,149,115,11,11,4,5,0.3,0.4
2025-09-07T2100,1239A,121.633,29.7733,宁波市,钱湖水厂,,15,15,16,3,10,39,,93,74,7,7,5,6,0.5,0.4
2025-09-07T2100,1240A,121.5856,29.8635,宁波市,太古小学,,14,14,26,9,12,40,,135,110,7,8,2,4,0.5,0.5
2025-09-07T2100,1241A,121.524,29.8674,宁波市,市环境监测中心,,24,24,23,12,11,39,,147,120,11,12,5,6,0.5,0.5
2025-09-07T2100,2871A,121.6147,29.9017,宁波市,万里国际学校,,24,24,23,11,13,46,,153,129,6,8,4,6,0.5,0.5
2025-09-07T2100,3710A,121.5594,29.8975,宁波市,白沙活动中心,,20,20,20,8,14,47,,162,134,9,12,6,8,0.4,0.4
2025-09-07T2100,2339A,119.5001,26.6946,宁德市,金涵水库,,,,14,,9,,,27,,,6,,1,,0.4
2025-09-07T2100,2341A,119.5388,26.6612,宁德市,宁德市监测站,,22,22,16,9,9,70,,105,104,13,9,6,4,0.9,0.6
2025-09-07T2100,3209A,119.5231,26.6562,宁德市,宁德一中,,29,23,17,20,13,62,,102,100,11,7,5,5,0.5,0.4
2025-09-07T2100,2618A,98.8601,25.8567,怒江傈僳族自治州,州监测站,,25,25,18,16,13,31,,60,52,8,5,6,6,0.4,0.4
2025-09-07T2100,2619A,98.8546,25.8417,怒江傈僳族自治州,泸水一中,,12,11,13,8,9,22,,50,43,12,8,5,4,0.5,0.4
2025-09-07T2100,1888A,101.6891,26.571,攀枝花市,弄弄坪,,41,41,35,13,19,37,,94,84,23,12,6,10,1.2,0.8
2025-09-07T2100,1889A,101.5769,26.5928,攀枝花市,河门口,,30,30,29,20,18,44,,94,87,23,13,19,16,1.9,1.1
2025-09-07T2100,1890A,101.7169,26.585,攀枝花市,炳草岗,,,29,32,17,20,,,96,95,28,19,6,7,0.8,1
2025-09-07T2100,1891A,101.7369,26.5008,攀枝花市,仁和,,33,33,25,11,16,26,,82,70,15,12,8,10,0.7,0.8
2025-09-07T2100,2835A,101.7227,26.567,攀枝花市,四十中小,,30,30,25,20,17,30,,92,81,36,10,10,19,1.6,1.2
2025-09-07T2100,1604A,122.0303,41.1489,盘锦市,开发区,,45,45,26,17,10,78,,111,96,39,19,8,9,0.5,0.4
2025-09-07T2100,1605A,122.0485,41.0883,盘锦市,兴隆台,,37,37,28,15,9,80,,119,98,50,25,8,9,0.8,0.6
2025-09-07T2100,1606A,121.8297,41.1028,盘锦市,新生街道,,20,18,20,14,6,62,,107,91,28,16,4,6,0.5,0.4
2025-09-07T2100,1832A,113.3257,33.742,平顶山市,新华旅馆,颗粒物(PM10),55,59,56,12,15,46,,74,71,21,19,5,5,0.5,0.5
2025-09-07T2100,1833A,113.2919,33.737,平顶山市,规划设计院,,47,47,50,19,20,27,,71,64,25,19,4,5,0.7,0.6
2025-09-07T2100,1834A,113.182,33.774,平顶山市,平顶山工学院,,37,37,39,24,14,67,,73,72,11,12,5,5,0.4,0.4
2025-09-07T2100,3204A,113.3025,33.73,平顶山市,规划局,,46,46,48,15,15,24,,73,67,30,19,3,4,0.6,0.5
2025-09-07T2100,3594A,112.8867,33.9116,平顶山市,石龙区,,32,32,44,15,17,16,,60,48,33,21,4,5,0.5,0.5
2025-09-07T2100,2656A,106.6692,35.5461,平凉市,聚贤嘉苑,,,71,57,31,21,22,,101,84,59,30,,7,0.7,0.6
2025-09-07T2100,2657A,106.7021,35.5307,平凉市,博物馆,颗粒物(PM10),59,67,60,20,19,47,,104,87,32,23,9,10,0.7,0.6
2025-09-07T2100,2347A,114.0997,27.5002,萍乡市,武功山,,23,23,21,9,12,28,,76,56,3,4,11,11,0.6,0.5
2025-09-07T2100,2348A,113.8385,27.6434,萍乡市,中医院,,25,25,40,12,28,71,,120,110,13,16,3,5,0.6,1
2025-09-07T2100,2349A,113.8493,27.6253,萍乡市,市政府车库,,36,25,34,25,32,65,,111,100,6,8,10,11,0.5,0.9
2025-09-07T2100,2350A,113.8676,27.6435,萍乡市,市环保局,,30,30,42,19,28,75,,123,114,8,12,5,6,0.6,1.1
2025-09-07T2100,2351A,113.866,27.6198,萍乡市,安源区政府,,43,37,42,30,31,54,,114,101,7,8,9,14,0.5,0.7
2025-09-07T2100,2319A,119.0141,25.4325,莆田市,荔城区仓后路,,26,26,19,3,4,40,,85,66,9,7,7,7,0.5,0.5
2025-09-07T2100,2320A,119.0015,25.4553,莆田市,莆田市监测站,,14,12,16,7,4,42,,90,72,9,7,6,6,0.4,0.4
2025-09-07T2100,2321A,119.1119,25.4561,莆田市,涵江区六中,,20,20,17,3,6,40,,83,61,14,9,6,5,0.3,0.4
2025-09-07T2100,2322A,119.1013,25.3215,莆田市,秀屿区政府,,14,9,16,3,3,42,,70,57,10,9,6,5,0.4,0.4
2025-09-07T2100,2323A,118.981,25.4792,莆田市,东圳水库,,,,13,,5,,,56,,,6,,5,,0.5
2025-09-07T2100,2392A,115.0312,35.7636,濮阳市,环保局,颗粒物(PM10),59,67,62,22,24,87,,129,124,11,14,4,5,0.6,0.7
2025-09-07T2100,2394A,115.0574,35.7609,濮阳市,油田运输公司,颗粒物(PM10),56,62,59,21,23,88,,135,129,11,13,4,5,0.8,0.9
2025-09-07T2100,3021A,115,35.7668,濮阳市,濮水河管理处,颗粒物(PM10),58,66,59,26,22,85,,127,124,17,18,4,5,0.4,0.5
2025-09-07T2100,4216A,115.0924,35.7686,濮阳市,任丘路479号,颗粒物(PM10),62,74,64,27,23,85,,127,121,12,12,5,6,0.7,0.7
2025-09-07T2100,2601A,100.98,22.7633,普洱市,市环保局,,39,39,30,9,18,21,,56,50,8,8,6,7,0.7,0.6
2025-09-07T2100,2602A,100.9817,22.8322,普洱市,普洱第二中学,,47,47,31,14,13,20,,52,45,10,8,6,6,0.5,0.4
2025-09-07T2100,2262A,131.0518,45.8751,七台河市,新一中,,26,24,23,9,8,81,,97,95,10,11,10,10,0.6,0.8
2025-09-07T2100,3345A,131.0577,45.7879,七台河市,中波台,,29,29,28,7,6,60,,61,61,12,17,7,7,0.6,0.6
2025-09-07T2100,3637A,131.0176,45.7761,七台河市,人民广场,,24,24,22,3,10,66,,72,69,13,12,12,12,0.5,0.5
2025-09-07T2100,3684A,130.8781,45.8222,七台河市,新建矿广场,,,,,,,,,,,,,,,,
2025-09-07T2100,1779A,123.9305,47.3636,齐齐哈尔市,安居小区,,30,30,22,10,5,22,,44,36,26,9,8,9,0.5,0.4
2025-09-07T2100,1780A,123.9488,47.3386,齐齐哈尔市,中心广场,,36,36,16,9,3,26,,49,41,28,11,6,7,0.5,0.4
2025-09-07T2100,1781A,123.9483,47.3227,齐齐哈尔市,农牧车辆厂,,41,41,21,9,4,16,,46,37,35,10,6,6,1.1,0.6
2025-09-07T2100,1783A,123.945,47.2988,齐齐哈尔市,市环境监测站,,26,26,15,3,4,21,,46,38,25,10,6,6,0.4,0.3
2025-09-07T2100,3662A,123.6333,47.2075,齐齐哈尔市,富区青少年活动中心,,41,41,32,19,10,24,,41,35,15,13,6,8,0.6,0.7
2025-09-07T2100,2591A,107.9783,26.5747,黔东南苗族侗族自治州,市环境监测站,,25,19,23,17,20,39,,74,62,10,7,2,3,0.2,0.4
2025-09-07T2100,2881A,107.8908,26.5311,黔东南苗族侗族自治州,凯里学院,,34,34,16,18,15,39,,84,70,24,11,5,4,0.4,0.3
2025-09-07T2100,2593A,107.5228,26.2403,黔南布依族苗族自治州,小围寨,,19,19,14,12,9,33,,70,60,8,5,1,2,0.4,0.3
2025-09-07T2100,3538A,107.5175,26.2978,黔南布依族苗族自治州,沙坝,,29,29,21,17,12,20,,67,53,10,7,3,3,0.0,0.2
2025-09-07T2100,2589A,104.9022,25.0925,黔西南布依族苗族自治州,场坝街,,34,34,26,10,11,60,,75,73,13,15,6,16,0.4,0.4
2025-09-07T2100,2590A,104.8811,25.0992,黔西南布依族苗族自治州,坪东大道,,32,31,30,22,18,54,,72,68,13,12,2,2,0.7,0.7
2025-09-07T2100,2502A,108.6236,21.9667,钦州市,市环保站,,36,36,34,24,16,75,,119,110,15,13,8,5,0.7,0.6
2025-09-07T2100,2503A,108.6549,21.9481,钦州市,沙埠小学,颗粒物(PM10),62,73,51,38,20,40,,120,100,32,18,1,2,0.6,0.6
2025-09-07T2100,2504A,108.5989,21.7431,钦州市,港区一小,颗粒物(PM10),64,77,34,27,16,8,,104,74,64,21,4,6,0.7,0.6
2025-09-07T2100,3404A,108.5959,21.9633,钦州市,北职校,,30,,34,21,21,63,,118,106,13,13,6,4,1.0,0.7
2025-09-07T2100,1043A,119.7493,40.0116,秦皇岛市,第一关,颗粒物(PM10),63,76,57,42,27,22,,172,137,120,43,10,11,1.1,0.8
2025-09-07T2100,1044A,119.5897,39.9499,秦皇岛市,监测站,颗粒物(PM10),70,89,60,31,19,51,,166,148,103,38,12,12,1.3,0.9
2025-09-07T2100,1046A,119.5251,39.9041,秦皇岛市,建设大厦,颗粒物(PM10),72,94,62,19,16,64,,163,151,80,27,11,12,1.2,0.8
2025-09-07T2100,3132A,119.610547,39.943889,秦皇岛市,文明里,颗粒物(PM10),74,97,58,31,12,71,,158,148,76,36,13,13,1.2,0.7
2025-09-07T2100,4198A,119.5090,39.8253,秦皇岛市,北戴河轮滑馆,颗粒物(PM10),61,71,63,24,20,115,,174,168,15,19,5,8,0.5,0.9
2025-09-07T2100,1307A,120.6659,36.2403,青岛市,仰口,,35,19,22,9,8,112,,110,109,9,9,11,11,0.6,0.6
2025-09-07T2100,1310A,120.4134,36.0658,青岛市,市南区东部子站,,35,22,32,12,17,111,,143,140,12,13,7,8,0.4,0.4
2025-09-07T2100,1311A,120.3664,36.1032,青岛市,四方区子站,,31,27,28,14,19,99,,136,133,15,13,4,6,0.3,0.4
2025-09-07T2100,1312A,120.2994,36.054,青岛市,市南区西部子站,,36,24,37,10,18,115,,145,132,20,18,6,8,0.6,0.8
2025-09-07T2100,1313A,120.4581,36.0858,青岛市,崂山区子站,,26,14,25,9,12,81,,128,123,17,12,8,9,0.2,0.3
2025-09-07T2100,1315A,120.3999,36.3083,青岛市,城阳区子站,,41,41,37,12,15,97,,146,134,22,18,4,5,0.5,0.5
2025-09-07T2100,1966A,120.0405,35.8735,青岛市,黄岛区4号,,,,49,,25,,,99,,,20,,9,,0.9
2025-09-07T2100,3362A,120.5014,36.4034,青岛市,即墨2号,,43,43,34,15,15,100,,137,125,17,16,4,5,0.3,0.4
2025-09-07T2100,3642A,120.3503,36.0736,青岛市,市北区南部,,39,24,32,9,16,123,,140,140,6,17,6,6,0.7,0.9
2025-09-07T2100,3643A,120.3948,36.1805,青岛市,李沧区北部,,39,39,33,17,20,89,,123,114,27,16,6,7,0.5,0.5
2025-09-07T2100,4290A,120.1969,35.9546,青岛市,珠江路669号,,39,22,40,17,24,123,,156,152,8,21,7,9,0.5,0.6
2025-09-07T2100,1702A,113.0426,23.691,清远市,环保大楼,,14,6,25,3,20,42,,84,60,6,11,7,8,0.5,0.6
2025-09-07T2100,1703A,113.0208,23.7106,清远市,凤城街办,,12,8,26,3,19,37,,83,59,10,12,7,8,0.4,0.5
2025-09-07T2100,3025A,113.0477,23.6344,清远市,技师学院,,14,14,34,7,20,36,,85,59,13,17,17,11,0.4,0.4
2025-09-07T2100,3318A,112.9903,23.7403,清远市,清新太和,,13,9,22,3,15,41,,86,64,11,11,5,5,0.4,0.5
2025-09-07T2100,3455A,113.076,23.7198,清远市,清城东城,,11,11,23,3,13,33,,80,58,10,11,7,8,0.6,0.7
2025-09-07T2100,2661A,107.6325,35.7357,庆阳市,庆阳五中,颗粒物(PM10),60,70,51,30,19,67,,99,89,21,12,7,8,0.5,0.4
2025-09-07T2100,2662A,107.6364,35.7067,庆阳市,市环保局,颗粒物(PM10),56,61,45,26,18,60,,104,89,29,12,3,4,0.6,0.5
2025-09-07T2100,1916A,103.7897,25.5035,曲靖市,环境监测站,,27,27,21,14,12,56,,90,84,16,12,4,5,0.5,0.5
2025-09-07T2100,1917A,103.8,25.5364,曲靖市,烟厂办公区,,28,28,21,18,15,48,,90,84,19,8,4,4,0.7,0.7
2025-09-07T2100,3376A,103.7947,25.462,曲靖市,南苑二区,,24,24,21,13,13,52,,92,86,13,9,4,4,0.5,0.6
2025-09-07T2100,3377A,103.7444,25.5261,曲靖市,曲靖师范学院,,36,36,20,20,16,38,,89,80,23,11,5,4,0.6,0.5
2025-09-07T2100,1264A,118.8692,28.9398,衢州市,环保大楼,,34,34,30,19,18,57,,107,100,22,12,17,5,0.8,0.4
2025-09-07T2100,1265A,118.8709,28.9666,衢州市,实验学校,,,34,29,21,18,,,109,102,26,15,21,5,0.7,0.4
2025-09-07T2100,1266A,118.8621,28.9808,衢州市,衢州学院,,36,36,27,19,17,58,,120,103,26,18,14,5,1.0,0.4
2025-09-07T2100,1611A,118.5819,24.9117,泉州市,涂山街,,16,16,20,7,11,38,,72,56,10,12,2,3,0.4,0.4
2025-09-07T2100,1612A,118.5972,24.8978,泉州市,津头埔,,17,17,20,3,11,36,,69,54,9,11,3,4,0.4,0.4
2025-09-07T2100,1613A,118.6663,24.9424,泉州市,万安,,22,22,19,6,7,35,,68,52,12,11,2,2,0.4,0.4
2025-09-07T2100,1614A,118.6117,24.9604,泉州市,清源山,,,,12,,8,,,48,,,8,,1,,0.1
2025-09-07T2100,3529A,118.6333,24.9264,泉州市,城华南路,,12,9,15,3,7,36,,68,53,8,9,3,3,0.3,0.3
2025-09-07T2100,2626A,88.8876,29.2718,日喀则市,日喀则监测站,,20,10,7,3,2,64,,90,87,14,6,13,12,0.3,0.3
2025-09-07T2100,3726A,88.8781,29.2426,日喀则市,林业技术推广中心,,22,19,8,3,1,68,,85,83,6,3,6,5,0.4,0.3
2025-09-07T2100,1659A,119.471,35.4209,日照市,监测站,,32,29,38,18,26,102,,131,128,19,21,9,9,0.8,0.8
2025-09-07T2100,1660A,119.523,35.4216,日照市,市政府广场,,43,31,38,12,19,136,,140,140,9,14,7,7,0.8,0.9
2025-09-07T2100,1661A,119.5587,35.4044,日照市,港务局,,44,22,36,21,31,138,,141,140,8,12,5,6,0.7,0.8
2025-09-07T2100,3507A,119.5328,35.4625,日照市,职业技术学院,,33,31,40,14,21,105,,136,131,10,14,6,7,0.7,0.8
2025-09-07T2100,3604A,119.3266,35.1044,日照市,岚山环保分局,,39,31,41,13,20,122,,136,135,19,21,9,12,0.8,1.2
2025-09-07T2100,1835A,111.1922,34.7752,三门峡市,市政府,颗粒物(PM10),60,70,60,32,26,25,,124,108,77,26,7,10,0.7,0.6
2025-09-07T2100,1836A,111.1587,34.7942,三门峡市,开发区,颗粒物(PM10),60,70,70,29,31,57,,114,107,22,15,4,8,0.4,0.5
2025-09-07T2100,1838A,111.143,34.7955,三门峡市,风景区,,46,46,62,21,29,62,,123,114,17,10,5,6,0.5,0.6
2025-09-07T2100,3039A,111.1911,34.7829,三门峡市,三门峡市第一小学,,,,64,,24,,,122,122,,16,,9,,0.6
2025-09-07T2100,3598A,111.1,34.7167,三门峡市,富达温泉假日酒店,颗粒物(PM10),66,81,65,30,31,45,,117,104,31,23,6,9,0.6,0.5
2025-09-07T2100,2324A,117.6211,26.2625,三明市,三钢,,18,14,18,7,8,57,,76,73,12,13,10,4,1.0,0.5
2025-09-07T2100,2325A,117.635,26.2714,三明市,三明二中,,14,14,19,6,10,40,,70,67,17,10,4,5,0.7,0.6
2025-09-07T2100,2326A,117.6028,26.2378,三明市,三元区政府,,30,30,22,12,14,71,,79,78,4,13,12,4,0.2,0.5
2025-09-07T2100,2327A,117.7275,26.3108,三明市,洋溪,,,,16,,8,,,43,,,10,,6,,0.7
2025-09-07T2100,1876A,109.5078,18.2489,三亚市,河东子站,,32,32,19,14,10,16,,48,39,29,14,2,2,0.4,0.4
2025-09-07T2100,1877A,109.4964,18.2681,三亚市,河西子站,,31,31,22,12,9,13,,48,35,25,10,3,3,0.4,0.3
2025-09-07T2100,3540A,109.7348,18.3443,三亚市,君悦子站,,22,22,16,7,7,20,,61,49,19,9,3,3,0.4,0.3
2025-09-07T2100,2624A,91.7608,29.2313,山南市,山南监测站,,24,6,8,3,4,74,,74,74,7,6,3,3,0.2,0.2
2025-09-07T2100,2625A,91.7706,29.2436,山南市,山南人民医院,,24,10,10,6,5,76,,73,73,6,7,4,3,0.1,0.1
2025-09-07T2100,1674A,116.6794,23.3667,汕头市,金平子站,,13,8,13,3,7,40,,52,44,8,7,2,2,0.7,0.6
2025-09-07T2100,1675A,116.7244,23.3633,汕头市,龙湖子站,,12,11,13,3,8,38,,48,42,6,5,6,6,0.5,0.5
