timepoint,stationcode,longitude,latitude,area,positionname,primarypollutant,aqi,pm10,pm10_24h,pm2_5,pm2_5_24h,o3,o3_24h,o3_8h,o3_8h_24h,no2,no2_24h,so2,so2_24h,co,co_24h
2022-05-10T16:00:00,1001A,116.3621,39.8784,北京市,万寿西宫,细颗粒物(PM2.5),60,63,66,43,42,110,89,64,64,23,23,3,3,0.5,0.4
2022-05-10T16:00:00,1002A,116.2202,40.2915,北京市,定陵(对照点),颗粒物(PM10),64,78,62,43,34,128,54,44,40,19,17,3,3,0.5,0.4
2022-05-10T16:00:00,1003A,116.4174,39.9289,北京市,东四,细颗粒物(PM2.5),67,62,79,48,48,121,86,64,64,14,17,1,1,0.5,0.5
2022-05-10T16:00:00,1004A,116.4072,39.8863,北京市,天坛,颗粒物(PM10),53,55,58,33,33,118,87,66,66,12,16,3,3,0.5,0.5
2022-05-10T16:00:00,1005A,116.462,39.9365,北京市,农展馆,细颗粒物(PM2.5),58,59,64,41,40,123,94,69,69,17,17,3,3,0.2,0.4
2022-05-10T16:00:00,1006A,116.3392,39.9295,北京市,官园,细颗粒物(PM2.5),63,61,66,45,44,122,82,63,62,14,17,3,3,0.4,0.4
2022-05-10T16:00:00,1007A,116.2878,39.9611,北京市,海淀万柳,细颗粒物(PM2.5),58,63,69,41,45,125,70,54,51,21,22,3,3,0.4,0.4
2022-05-10T16:00:00,1008A,116.6636,40.135,北京市,顺义新城,细颗粒物(PM2.5),72,66,72,52,49,116,81,61,56,14,20,3,3,0.4,0.4
2022-05-10T16:00:00,1009A,116.6275,40.3275,北京市,怀柔镇,颗粒物(PM10),66,82,80,44,35,128,60,48,48,22,24,1,1,0.4,0.5
2022-05-10T16:00:00,1010A,116.2296,40.217,北京市,昌平镇,颗粒物(PM10),66,81,76,41,38,130,55,70,44,21,23,3,3,0.5,0.5
2022-05-10T16:00:00,1011A,116.3966,39.9821,北京市,奥体中心,细颗粒物(PM2.5),62,67,75,44,44,125,94,72,69,15,18,1,2,0.6,0.4
2022-05-10T16:00:00,1012A,116.184,39.9136,北京市,古城,细颗粒物(PM2.5),68,72,76,49,49,114,77,49,49,15,22,3,3,0.4,0.4
2022-05-10T16:00:00,1015A,117.1444,39.1661,天津市,勤俭道,细颗粒物(PM2.5),57,47,57,40,44,105,100,80,80,16,21,5,5,0.7,0.7
2022-05-10T16:00:00,1017A,117.237,39.1082,天津市,大直沽八号路,细颗粒物(PM2.5),54,50,58,38,42,111,104,86,86,18,20,9,9,0.4,0.5
2022-05-10T16:00:00,1018A,117.202,39.0927,天津市,前进道,,45,45,55,31,36,100,99,78,78,16,22,5,5,0.6,0.7
2022-05-10T16:00:00,1019A,117.1837,39.2133,天津市,淮河道,细颗粒物(PM2.5),57,52,64,40,44,102,102,79,79,16,25,6,7,0.6,0.6
2022-05-10T16:00:00,1021A,117.307,39.0877,天津市,跃进路,颗粒物(PM10),51,52,61,30,33,111,90,79,79,18,23,5,5,0.5,0.5
2022-05-10T16:00:00,1023A,117.707,39.0343,天津市,第四大街,细颗粒物(PM2.5),67,52,71,48,57,96,87,74,74,15,24,5,5,0.7,1
2022-05-10T16:00:00,1024A,117.457,38.8394,天津市,永明路,,30,28,42,13,27,103,95,90,90,11,13,8,9,0.5,0.6
2022-05-10T16:00:00,1026A,117.764,39.1587,天津市,汉北路,细颗粒物(PM2.5),68,62,62,49,48,90,74,78,78,30,28,9,9,0.7,0.8
2022-05-10T16:00:00,1027A,117.157,38.9194,天津市,团泊洼(对照点),颗粒物(PM10),51,52,61,35,41,100,100,77,77,18,23,5,5,0.7,0.8
2022-05-10T16:00:00,1029A,114.4422,38.0444,石家庄市,职工医院,细颗粒物(PM2.5),107,106,89,80,56,67,59,35,35,34,38,8,9,1.6,0.8
2022-05-10T16:00:00,1030A,114.6063,38.0266,石家庄市,高新区,细颗粒物(PM2.5),107,105,72,80,54,91,91,44,44,24,28,6,5,1.4,0.7
2022-05-10T16:00:00,1031A,114.4898,38.1328,石家庄市,西北水源,,,71,78,70,51,65,65,35,35,,42,4,6,1.3,0.7
2022-05-10T16:00:00,1032A,114.4586,38.0058,石家庄市,西南高教,细颗粒物(PM2.5),140,97,72,107,65,64,59,29,29,32,37,4,4,1.8,0.9
2022-05-10T16:00:00,1033A,114.5331,38.0178,石家庄市,世纪公园,细颗粒物(PM2.5),120,107,80,91,52,82,82,43,43,20,26,3,3,1.6,0.8
2022-05-10T16:00:00,1034A,114.509,38.0457,石家庄市,人民会堂,细颗粒物(PM2.5),130,99,72,99,61,78,78,42,42,30,35,8,7,1.7,0.8
2022-05-10T16:00:00,1035A,114.3524,37.8911,石家庄市,封龙山(对照点),细颗粒物(PM2.5),125,131,48,95,35,114,87,110,66,26,10,15,13,1.9,0.7
2022-05-10T16:00:00,1037A,118.131,39.6363,唐山市,雷达站,细颗粒物(PM2.5),92,83,76,68,56,120,88,81,81,27,20,2,3,0.6,0.6
2022-05-10T16:00:00,1038A,118.1725,39.6334,唐山市,物资局,细颗粒物(PM2.5),72,76,67,52,50,117,91,81,81,30,26,6,7,0.6,0.7
2022-05-10T16:00:00,1040A,118.1705,39.6506,唐山市,十二中,细颗粒物(PM2.5),90,71,59,67,52,110,84,77,77,29,25,4,5,0.5,0.6
2022-05-10T16:00:00,1041A,118.1869,39.622,唐山市,小山,细颗粒物(PM2.5),72,72,65,52,50,117,92,80,80,32,31,6,6,0.6,0.6
2022-05-10T16:00:00,1042A,119.5134,39.8207,秦皇岛市,北戴河环保局,,49,32,67,34,35,120,107,94,94,16,20,7,10,0.3,0.6
2022-05-10T16:00:00,1043A,119.7493,40.0116,秦皇岛市,第一关,,43,43,76,22,55,110,110,93,93,13,33,10,12,0.5,0.8
2022-05-10T16:00:00,1044A,119.5897,39.9499,秦皇岛市,监测站,,45,45,65,24,51,112,103,87,87,15,18,4,8,0.8,1.1
2022-05-10T16:00:00,1046A,119.5251,39.9041,秦皇岛市,建设大厦,细颗粒物(PM2.5),60,53,69,43,48,117,104,86,86,14,20,4,6,0.6,0.8
2022-05-10T16:00:00,1048A,114.5302,36.6116,邯郸市,东污水处理厂,细颗粒物(PM2.5),72,48,39,52,44,124,124,73,73,8,12,7,4,0.6,0.8
2022-05-10T16:00:00,1049A,114.4918,36.5713,邯郸市,矿院,细颗粒物(PM2.5),64,71,47,46,39,125,125,75,75,1,9,11,7,0.8,0.6
2022-05-10T16:00:00,1050A,114.484,36.6133,邯郸市,丛台公园,细颗粒物(PM2.5),57,43,34,40,36,131,131,77,77,6,10,10,5,0.8,0.8
2022-05-10T16:00:00,1051A,115.493,38.8632,保定市,游泳馆,细颗粒物(PM2.5),77,74,57,56,41,108,107,75,75,16,18,6,6,1.2,0.9
2022-05-10T16:00:00,1053A,115.4713,38.9108,保定市,接待中心,细颗粒物(PM2.5),72,67,60,52,43,108,105,72,72,15,23,6,6,1.2,0.9
2022-05-10T16:00:00,1054A,115.4612,38.8416,保定市,地表水厂,细颗粒物(PM2.5),83,93,69,61,45,110,110,73,73,12,17,8,8,1.0,0.7
2022-05-10T16:00:00,1055A,115.4323,38.8697,保定市,胶片厂,细颗粒物(PM2.5),75,64,63,55,42,109,108,71,71,12,18,8,8,1.1,0.7
2022-05-10T16:00:00,1056A,115.5086,38.8639,保定市,监测站,细颗粒物(PM2.5),115,94,65,87,57,108,96,62,62,14,18,7,7,1.0,0.7
2022-05-10T16:00:00,1057A,114.8883,40.8336,张家口市,人民公园,,27,15,34,1,12,124,85,109,92,7,11,3,4,0.3,0.3
2022-05-10T16:00:00,1059A,114.8687,40.8042,张家口市,五金库,,27,10,35,7,16,120,85,117,94,9,15,4,4,0.1,0.2
2022-05-10T16:00:00,1060A,114.8902,40.762,张家口市,世纪豪园,,26,17,35,2,22,119,82,102,91,12,17,3,4,0.2,0.3
2022-05-10T16:00:00,1061A,114.8916,40.8661,张家口市,北泵房(对照点),,28,10,30,10,18,121,89,96,96,4,8,8,8,0.4,0.5
2022-05-10T16:00:00,1062A,117.9531,40.9081,承德市,铁路,细颗粒物(PM2.5),63,66,57,45,40,116,70,82,82,23,30,6,7,0.4,0.7
2022-05-10T16:00:00,1063A,117.9392,40.9763,承德市,中国银行,细颗粒物(PM2.5),62,39,43,44,38,116,80,88,88,12,23,1,2,0.4,0.7
2022-05-10T16:00:00,1064A,117.9503,40.928,承德市,开发区,细颗粒物(PM2.5),59,59,56,42,35,127,88,96,96,17,24,6,7,0.5,0.8
2022-05-10T16:00:00,1065A,117.8051,40.9655,承德市,文化中心,细颗粒物(PM2.5),60,41,41,43,31,130,92,93,93,13,25,11,6,0.5,0.6
2022-05-10T16:00:00,1066A,117.9268,41.0026,承德市,离宫(对照点),细颗粒物(PM2.5),74,56,51,54,43,116,79,89,89,11,13,4,5,0.4,0.7
2022-05-10T16:00:00,1067A,116.6708,39.5111,廊坊市,药材公司,,43,40,57,30,43,112,96,80,80,19,18,8,3,0.5,0.5
2022-05-10T16:00:00,1068A,116.7214,39.5589,廊坊市,开发区,,48,47,57,33,44,111,93,76,76,18,22,8,8,0.4,0.5
2022-05-10T16:00:00,1070A,116.7244,39.5269,廊坊市,北华航天学院,细颗粒物(PM2.5),57,45,66,40,45,113,90,77,77,21,24,5,5,0.4,0.4
2022-05-10T16:00:00,1071A,116.8842,38.2991,沧州市,沧县城建局,颗粒物(PM10),52,53,68,35,44,123,123,85,85,17,22,8,8,0.4,0.5
2022-05-10T16:00:00,1072A,116.8584,38.3254,沧州市,电视转播站,,41,41,52,24,37,111,111,85,85,15,23,9,9,0.3,0.5
2022-05-10T16:00:00,1073A,116.8709,38.3228,沧州市,市环保局,,46,38,52,32,45,111,111,55,43,21,25,7,6,0.7,0.8
2022-05-10T16:00:00,1074A,115.6838,37.7541,衡水市,电机北厂,,48,48,40,31,35,133,133,99,99,9,14,10,11,0.5,0.4
2022-05-10T16:00:00,1075A,115.6303,37.7316,衡水市,市监测站,颗粒物(PM10),52,53,45,30,35,132,132,97,97,10,13,9,11,0.6,0.5
2022-05-10T16:00:00,1077A,114.4704,37.0886,邢台市,达活泉,细颗粒物(PM2.5),63,65,65,45,50,129,129,75,75,9,21,6,4,0.7,1.1
2022-05-10T16:00:00,1078A,114.5062,37.0349,邢台市,邢师高专,细颗粒物(PM2.5),67,49,58,48,51,135,135,79,79,7,22,3,2,0.6,0.9
2022-05-10T16:00:00,1079A,114.5237,37.0851,邢台市,路桥公司,细颗粒物(PM2.5),77,63,65,56,48,127,127,75,75,16,26,5,3,0.7,0.9
2022-05-10T16:00:00,1081A,112.5139,37.8873,太原市,尖草坪,臭氧1小时,116,86,109,64,76,231,231,120,120,16,41,16,8,0.9,0.9
2022-05-10T16:00:00,1083A,112.434,38.0108,太原市,上兰(对照点),臭氧1小时,121,101,68,82,55,241,241,114,114,16,17,16,8,1.0,0.8
2022-05-10T16:00:00,1084A,112.469,37.7124,太原市,晋源,臭氧1小时,114,93,95,70,69,252,228,141,141,20,41,25,14,0.9,0.9
2022-05-10T16:00:00,1085A,112.5583,37.7394,太原市,小店,细颗粒物(PM2.5),80,75,96,59,68,223,178,132,132,21,36,8,9,0.8,0.9
2022-05-10T16:00:00,1086A,112.5369,37.8692,太原市,桃园,臭氧1小时,105,74,106,58,79,214,210,118,118,16,40,14,10,0.7,0.8
2022-05-10T16:00:00,1087A,112.57,37.8195,太原市,坞城,臭氧1小时,102,76,93,56,70,228,203,126,126,19,40,12,11,0.7,0.8
2022-05-10T16:00:00,1088A,112.549,37.9854,太原市,南寨,臭氧1小时,103,76,87,56,58,206,206,106,106,16,34,12,10,0.8,1.1
2022-05-10T16:00:00,1090A,111.6507,40.7517,呼和浩特市,呼市一监,,32,7,43,2,24,155,100,89,89,6,16,6,7,0.3,0.4
2022-05-10T16:00:00,1091A,111.6572,40.8033,呼和浩特市,小召,,28,7,38,2,28,141,89,81,81,12,27,6,9,0.3,0.5
2022-05-10T16:00:00,1094A,111.7516,40.8369,呼和浩特市,如意水处理厂,,30,16,43,2,27,148,96,86,86,6,22,8,11,0.3,0.5
2022-05-10T16:00:00,1095A,111.7276,40.8062,呼和浩特市,二十九中,,29,6,37,0,20,136,91,81,81,6,18,6,10,0.3,0.5
2022-05-10T16:00:00,1096A,111.5512,40.7866,呼和浩特市,工大金川校区,,,8,46,,41,135,86,79,79,9,21,5,9,0.3,0.5
2022-05-10T16:00:00,1097A,111.717,40.7612,呼和浩特市,化肥厂生活区,,,22,46,,25,142,92,78,78,5,18,8,11,0.5,0.6
2022-05-10T16:00:00,1098A,123.6836,41.9339,沈阳市,森林路(对照点),,40,33,51,14,29,144,126,122,122,10,23,10,20,0.2,0.8
2022-05-10T16:00:00,1099A,123.505,41.7406,沈阳市,浑南东路,,50,50,61,18,30,147,119,114,114,14,29,15,29,0.7,1.1
2022-05-10T16:00:00,1100A,123.4231,41.6989,沈阳市,新秀街,颗粒物(PM10),59,67,54,31,32,133,106,109,109,29,39,13,30,0.7,1.2
2022-05-10T16:00:00,1102A,123.5903,41.8411,沈阳市,东陵路,颗粒物(PM10),52,54,59,20,31,135,116,111,111,11,25,13,22,0.6,1.1
2022-05-10T16:00:00,1103A,123.4264,41.8467,沈阳市,陵东街,,49,49,45,24,25,138,118,113,113,18,23,11,15,0.6,0.8
2022-05-10T16:00:00,1105A,123.4678,41.7867,沈阳市,小河沿,颗粒物(PM10),58,65,50,26,30,138,115,111,111,19,27,10,19,0.8,1.1
2022-05-10T16:00:00,1106A,123.4017,41.7972,沈阳市,太原街,颗粒物(PM10),54,58,53,34,37,144,119,113,113,20,28,11,20,0.7,1.1
2022-05-10T16:00:00,1108A,123.3783,41.9228,沈阳市,京沈街,颗粒物(PM10),73,95,56,32,28,143,125,119,119,19,22,14,17,0.8,0.9
2022-05-10T16:00:00,1109A,121.612,38.9741,大连市,甘井子,,32,25,35,17,20,104,102,90,90,17,31,14,14,0.4,0.5
2022-05-10T16:00:00,1110A,121.565,38.9511,大连市,周水子,,32,19,29,10,15,102,102,96,96,13,28,7,8,0.5,0.6
2022-05-10T16:00:00,1111A,121.5637,38.8845,大连市,星海三站,,26,20,23,18,16,112,54,90,78,34,22,7,5,0.4,0.4
2022-05-10T16:00:00,1112A,121.6302,38.9117,大连市,青泥洼桥,,34,19,33,16,13,112,106,102,102,17,32,10,8,0.4,0.5
2022-05-10T16:00:00,1113A,121.6251,38.8638,大连市,傅家庄,,20,16,22,6,10,106,63,81,79,33,16,12,10,0.4,0.5
2022-05-10T16:00:00,1114A,121.5213,38.8661,大连市,七贤岭,,,28,24,17,9,278,26,234,128,,14,16,13,0.4,0.5
2022-05-10T16:00:00,1115A,121.2529,38.8061,大连市,旅顺,,21,21,21,12,13,95,66,87,73,37,22,8,6,0.5,0.5
2022-05-10T16:00:00,1116A,121.7485,39.1311,大连市,金州,,35,28,68,13,14,114,112,100,100,16,24,5,6,0.4,0.4
2022-05-10T16:00:00,1117A,121.7811,39.0496,大连市,开发区,,32,31,28,22,16,96,86,76,76,29,33,5,7,0.6,0.6
2022-05-10T16:00:00,1118A,121.9762,39.0631,大连市,双D港,,25,9,19,15,14,92,78,75,75,26,27,10,10,0.5,0.6
2022-05-10T16:00:00,1119A,125.3325,43.9166,长春市,食品厂,,45,45,50,15,28,141,134,129,129,14,19,5,7,0.5,0.5
2022-05-10T16:00:00,1120A,125.2863,43.9027,长春市,客车厂,颗粒物(PM10),57,63,54,17,24,140,132,123,123,12,20,7,8,0.5,0.5
2022-05-10T16:00:00,1121A,125.2841,43.8463,长春市,邮电学院,颗粒物(PM10),53,56,65,12,25,147,135,128,128,6,11,2,4,0.6,0.7
2022-05-10T16:00:00,1122A,125.3716,43.8772,长春市,劳动公园,,44,30,50,12,24,152,139,133,133,8,13,3,4,0.6,0.7
2022-05-10T16:00:00,1123A,125.3297,43.8805,长春市,园林处,,43,34,45,13,21,146,136,128,128,10,14,5,6,0.4,0.7
2022-05-10T16:00:00,1124A,125.4605,43.79,长春市,净月潭,,44,21,34,8,20,152,140,136,136,4,9,6,7,0.4,0.5
2022-05-10T16:00:00,1125A,125.7194,43.515,长春市,甩湾子(对照点),,37,23,46,9,23,126,116,114,114,6,13,8,9,0.6,0.7
2022-05-10T16:00:00,1126A,125.3863,43.8447,长春市,经开区环卫处,,44,25,43,9,23,155,139,132,132,4,9,8,10,0.6,0.7
2022-05-10T16:00:00,1127A,125.245,43.7783,长春市,高新区管委会,,,36,44,14,27,149,135,128,128,,18,,8,0.3,0.4
2022-05-10T16:00:00,1128A,125.1761,43.8325,长春市,岱山公园,,42,37,52,14,24,134,134,123,123,13,18,7,8,0.5,0.5
2022-05-10T16:00:00,1130A,126.561,45.8167,哈尔滨市,松北商大,,,,35,20,21,148,,132,132,10,10,5,5,,0.5
2022-05-10T16:00:00,1131A,126.979,45.5419,哈尔滨市,阿城会宁,,,60,59,19,36,152,143,140,140,12,16,,11,0.1,0.3
2022-05-10T16:00:00,1132A,126.599,45.7222,哈尔滨市,南岗学府路,,,52,47,13,25,155,152,140,140,10,13,,19,0.6,0.6
2022-05-10T16:00:00,1133A,126.689,45.7733,哈尔滨市,太平宏伟公园,颗粒物(PM10),62,74,66,23,38,154,153,139,139,10,14,9,11,0.5,0.5
2022-05-10T16:00:00,1134A,126.635,45.7667,哈尔滨市,道外承德广场,颗粒物(PM10),62,73,65,16,28,148,145,132,132,20,21,13,13,0.6,0.6
2022-05-10T16:00:00,1135A,126.685,45.7319,哈尔滨市,香坊红旗大街,颗粒物(PM10),66,81,71,23,29,148,146,133,133,16,25,8,9,0.7,0.7
2022-05-10T16:00:00,1136A,126.6411,45.7258,哈尔滨市,动力和平路,颗粒物(PM10),68,85,67,24,32,150,147,138,138,7,12,10,10,0.4,0.4
2022-05-10T16:00:00,1137A,126.593,45.7478,哈尔滨市,道里建国路,颗粒物(PM10),60,69,59,25,30,140,140,126,126,15,18,11,13,0.6,0.5
2022-05-10T16:00:00,1138A,126.615,45.61,哈尔滨市,平房东轻厂,,,,33,24,29,151,148,139,139,,17,25,19,0.2,0.9
2022-05-10T16:00:00,1139A,126.595,45.9855,哈尔滨市,呼兰师专,颗粒物(PM10),61,72,61,17,28,139,139,128,128,12,14,8,7,0.6,0.6
2022-05-10T16:00:00,1140A,126.6206,45.6842,哈尔滨市,省农科院,,,39,66,69,39,156,152,139,139,,27,4,5,0.5,0.7
2022-05-10T16:00:00,1141A,121.4,31.238,上海市,普陀,,38,22,29,4,11,125,120,104,104,11,13,2,2,0.7,0.7
2022-05-10T16:00:00,1142A,121.478,31.2036,上海市,十五厂,,35,27,22,12,16,115,110,98,98,11,12,5,5,0.9,0.9
2022-05-10T16:00:00,1143A,121.467,31.3008,上海市,虹口,,33,29,25,16,14,109,103,89,89,7,12,3,4,1.1,1.1
2022-05-10T16:00:00,1144A,121.412,31.1654,上海市,徐汇上师大,,34,29,27,13,10,112,108,97,97,6,6,5,5,1.0,1
2022-05-10T16:00:00,1145A,121.536,31.2659,上海市,杨浦四漂,,35,19,23,11,11,119,109,100,98,5,7,8,8,0.4,0.4
2022-05-10T16:00:00,1147A,121.425,31.2261,上海市,静安监测站,,35,29,27,15,13,112,112,96,96,13,15,4,4,0.1,0.1
2022-05-10T16:00:00,1148A,121.703,31.1907,上海市,浦东川沙,,35,28,26,13,12,122,112,104,104,12,12,4,4,1.0,1
2022-05-10T16:00:00,1149A,121.533,31.2284,上海市,浦东新区监测站,,37,24,26,15,15,123,116,104,102,7,10,5,5,0.6,0.7
2022-05-10T16:00:00,1150A,121.577,31.2071,上海市,浦东张江,,33,25,23,17,14,111,105,95,95,11,14,3,3,0.8,0.8
2022-05-10T16:00:00,1151A,118.8086,32.1065,南京市,迈皋桥,,44,44,46,27,15,105,51,79,56,46,35,6,6,0.9,0.7
2022-05-10T16:00:00,1152A,118.7538,32.0551,南京市,草场门,,41,41,40,24,17,125,55,89,67,44,26,5,6,0.8,0.4
2022-05-10T16:00:00,1153A,118.7794,32.0745,南京市,山西路,细颗粒物(PM2.5),55,56,47,39,22,123,50,88,65,46,20,3,4,0.6,0.4
2022-05-10T16:00:00,1154A,118.7752,32.0023,南京市,中华门,颗粒物(PM10),51,51,51,29,14,127,51,82,63,40,19,4,4,0.6,0.4
2022-05-10T16:00:00,1155A,118.8109,32.0309,南京市,瑞金路,,45,42,42,31,19,121,55,82,64,31,19,5,4,0.8,0.6
2022-05-10T16:00:00,1156A,118.7997,32.0754,南京市,玄武湖,,39,39,38,27,20,115,38,86,52,52,26,5,4,0.9,0.6
2022-05-10T16:00:00,1157A,118.6414,32.0931,南京市,浦口,,46,46,42,31,20,126,62,82,67,47,27,4,5,1.1,0.8
2022-05-10T16:00:00,1158A,118.7356,31.9996,南京市,奥体中心,,46,46,44,27,17,122,59,79,67,38,24,6,8,1.0,0.7
2022-05-10T16:00:00,1159A,118.9125,32.1028,南京市,仙林大学城,颗粒物(PM10),51,51,40,24,20,128,60,92,62,31,18,6,6,1.1,0.8
2022-05-10T16:00:00,1160A,120.561,31.2472,苏州市,上方山(对照点),,35,19,26,24,19,127,69,84,72,24,20,5,6,0.3,0.3
2022-05-10T16:00:00,1162A,120.591,31.3019,苏州市,彩香,,33,18,28,23,18,138,89,84,84,14,13,5,6,0.5,0.6
2022-05-10T16:00:00,1163A,120.596,31.3264,苏州市,轧钢厂,,28,20,26,19,17,137,88,84,83,21,16,6,8,0.4,0.5
2022-05-10T16:00:00,1164A,120.613,31.2703,苏州市,吴中区,,39,28,33,27,20,140,82,89,80,22,19,4,6,0.5,0.6
2022-05-10T16:00:00,1165A,120.543,31.2994,苏州市,苏州新区,,30,30,36,21,18,142,95,88,88,15,15,5,6,0.5,0.6
2022-05-10T16:00:00,1166A,120.669,31.3097,苏州市,苏州工业园区,,25,18,28,13,14,134,79,81,72,20,16,4,5,0.5,0.6
2022-05-10T16:00:00,1167A,120.641,31.3708,苏州市,相城区,,48,38,36,33,22,125,61,72,60,35,21,5,6,0.5,0.5
2022-05-10T16:00:00,1168A,120.9098,31.9663,南通市,狼山街道,,42,42,36,12,11,127,101,98,93,8,9,8,9,0.8,0.6
2022-05-10T16:00:00,1169A,120.86,32.0005,南通市,虹桥,,29,29,29,17,22,112,90,90,81,13,11,5,5,0.5,0.5
2022-05-10T16:00:00,1170A,120.87,32.02,南通市,城中,,33,33,29,18,14,111,87,89,80,18,15,7,7,0.5,0.5
2022-05-10T16:00:00,1171A,120.94,31.93,南通市,星湖花园,,29,28,27,9,10,120,90,93,84,13,12,7,8,0.6,0.6
2022-05-10T16:00:00,1172A,120.81,32.0417,南通市,紫琅学院,,,36,32,7,12,119,90,91,81,,15,5,5,0.5,0.5
2022-05-10T16:00:00,1173A,119.176,34.5885,连云港市,市环境监测站,,35,24,27,12,11,114,111,107,107,13,14,5,5,0.1,0.1
2022-05-10T16:00:00,1177A,117.179,34.2761,徐州市,黄河新村,颗粒物(PM10),52,53,58,25,33,109,109,87,87,12,19,6,9,0.4,0.6
2022-05-10T16:00:00,1178A,117.1918,34.2384,徐州市,淮塔,,47,47,51,24,30,106,106,89,89,17,20,9,11,0.5,0.6
2022-05-10T16:00:00,1180A,117.256,34.2153,徐州市,新城区,颗粒物(PM10),55,59,58,24,28,102,102,87,87,16,20,9,10,0.6,0.7
2022-05-10T16:00:00,1181A,117.244,34.2911,徐州市,桃园路,,,,68,24,33,102,102,85,85,18,24,,14,0.5,0.6
2022-05-10T16:00:00,1182A,117.2933,34.2778,徐州市,农科院,颗粒物(PM10),51,51,54,22,27,94,93,81,81,24,27,9,8,0.4,0.6
2022-05-10T16:00:00,1186A,119.389,32.3761,扬州市,邗江监测站,,36,36,35,24,18,129,88,100,87,15,9,5,4,0.8,0.6
2022-05-10T16:00:00,1188A,120.269,31.4867,无锡市,雪浪,,36,36,36,14,12,114,82,77,74,16,16,7,8,0.5,0.5
2022-05-10T16:00:00,1189A,120.275,31.6219,无锡市,黄巷,,40,40,48,19,16,144,68,87,70,35,22,6,8,0.7,0.6
2022-05-10T16:00:00,1190A,120.294,31.56,无锡市,曹张,,28,27,31,19,12,140,74,83,71,19,10,4,5,0.5,0.5
2022-05-10T16:00:00,1191A,120.242,31.5031,无锡市,漆塘,,29,24,31,16,16,128,90,85,82,18,18,5,5,0.4,0.4
2022-05-10T16:00:00,1192A,120.3489,31.5863,无锡市,东亭,,29,29,35,17,16,139,79,88,74,22,16,7,8,0.7,0.8
2022-05-10T16:00:00,1193A,120.354,31.5475,无锡市,旺庄,,29,29,37,19,20,138,79,84,74,22,16,8,9,0.7,0.7
2022-05-10T16:00:00,1194A,120.245,31.5631,无锡市,荣巷,,,34,38,19,18,146,82,85,73,22,21,,9,0.4,0.5
2022-05-10T16:00:00,1195A,120.299,31.6817,无锡市,堰桥,,31,31,32,19,17,147,88,88,77,17,15,5,7,0.7,0.7
2022-05-10T16:00:00,1196A,119.9633,31.762,常州市,市监测站,颗粒物(PM10),56,61,52,22,14,132,56,78,64,35,18,9,11,0.5,0.6
2022-05-10T16:00:00,1200A,119.9468,31.7069,常州市,武进监测站,颗粒物(PM10),54,57,51,29,24,147,76,76,71,26,23,7,10,0.6,0.8
2022-05-10T16:00:00,1201A,119.9255,31.9087,常州市,安家,细颗粒物(PM2.5),63,67,53,45,32,138,59,79,62,25,18,7,5,0.7,0.8
2022-05-10T16:00:00,1203A,119.6707,32.1875,镇江市,新区办事处,,30,30,42,17,16,115,58,89,62,30,24,1,4,0.6,0.5
2022-05-10T16:00:00,1204A,119.4974,32.1968,镇江市,职教中心,,45,34,35,31,22,123,56,88,65,30,19,3,4,0.9,0.6
2022-05-10T16:00:00,1205A,119.4303,32.1328,镇江市,丹徒区监测站,细颗粒物(PM2.5),58,32,42,41,36,138,71,94,72,25,20,4,5,0.8,0.6
2022-05-10T16:00:00,1206A,119.905,32.4878,泰州市,公园路,,25,24,28,14,13,102,77,90,77,13,9,4,4,0.5,0.4
2022-05-10T16:00:00,1207A,119.9189,32.4625,泰州市,莲花,,32,32,27,19,18,111,74,94,78,11,9,5,7,0.5,0.6
2022-05-10T16:00:00,1209A,119.888,32.4639,泰州市,留学生创业园,,35,35,35,24,17,114,83,99,86,13,8,4,5,0.6,0.5
2022-05-10T16:00:00,1210A,119.036,33.5981,淮安市,钵池山,,34,32,31,16,19,108,106,99,99,13,14,6,6,0.4,0.4
2022-05-10T16:00:00,1211A,119.007,33.575,淮安市,北京南路,,41,41,38,18,18,107,107,99,99,13,13,7,7,0.5,0.4
2022-05-10T16:00:00,1212A,118.989,33.6067,淮安市,市监测站,,34,34,33,14,15,108,106,98,98,15,15,10,10,0.5,0.5
2022-05-10T16:00:00,1213A,119.135,33.5039,淮安市,楚州区监测站,,34,29,34,10,18,108,106,97,97,16,18,7,7,0.5,0.5
2022-05-10T16:00:00,1214A,119.0186,33.6297,淮安市,淮阴区监测站,,34,34,31,18,21,102,101,93,93,12,13,7,6,0.4,0.3
2022-05-10T16:00:00,1215A,120.118,33.4022,盐城市,盐城电厂,,31,31,28,15,14,121,87,114,96,14,11,8,8,0.4,0.4
2022-05-10T16:00:00,1216A,120.156,33.3942,盐城市,市监测站,,27,26,26,7,11,118,86,113,93,8,8,8,8,0.4,0.4
2022-05-10T16:00:00,1218A,120.2144,33.38,盐城市,开发区管委会,,24,19,24,14,14,109,76,104,80,7,7,8,6,0.4,0.5
2022-05-10T16:00:00,1220A,118.293,33.9528,宿迁市,宿迁学院,,,26,42,18,16,107,106,100,100,10,10,,6,0.6,0.6
2022-05-10T16:00:00,1221A,118.2442,33.9592,宿迁市,宿迁中学,,37,37,39,21,19,105,101,98,98,13,11,6,6,0.5,0.5
2022-05-10T16:00:00,1223A,120.2072,30.2111,杭州市,滨江,颗粒物(PM10),60,69,62,30,30,85,37,80,44,67,41,4,6,0.5,0.5
2022-05-10T16:00:00,1224A,120.0633,30.2747,杭州市,西溪,颗粒物(PM10),59,68,49,39,26,46,11,18,18,58,47,8,8,0.6,0.5
2022-05-10T16:00:00,1226A,120.3461,30.3153,杭州市,下沙,,48,48,46,28,24,100,46,100,68,60,33,7,8,0.5,0.4
2022-05-10T16:00:00,1227A,120.1269,30.2456,杭州市,卧龙桥,细颗粒物(PM2.5),62,63,47,44,29,63,12,45,30,54,30,5,15,0.7,0.5
2022-05-10T16:00:00,1228A,120.1903,30.2692,杭州市,浙江农大,细颗粒物(PM2.5),80,66,58,59,41,92,37,78,49,67,38,5,6,0.4,0.3
2022-05-10T16:00:00,1230A,120.1197,30.3119,杭州市,和睦小学,细颗粒物(PM2.5),63,68,58,45,29,82,16,65,31,75,46,3,3,1.0,0.8
2022-05-10T16:00:00,1231A,120.3019,30.4183,杭州市,临平镇,颗粒物(PM10),55,60,54,33,22,102,69,102,71,36,24,3,4,0.6,0.5
2022-05-10T16:00:00,1232A,120.2697,30.1819,杭州市,城厢镇,颗粒物(PM10),53,56,52,36,30,84,39,82,46,54,40,7,8,0.7,0.6
2022-05-10T16:00:00,1233A,120.0883,30.1808,杭州市,云栖,颗粒物(PM10),68,85,54,43,23,77,38,61,47,56,37,7,8,0.7,0.5
2022-05-10T16:00:00,1234A,121.8358,29.911,宁波市,区环保大楼,,34,34,37,14,16,95,75,87,87,16,29,8,9,0.5,0.5
2022-05-10T16:00:00,1235A,121.56,29.82,宁波市,万里学院,,32,32,39,18,16,117,82,99,98,21,22,8,10,0.5,0.5
2022-05-10T16:00:00,1236A,121.713,29.9572,宁波市,龙赛医院,,33,33,30,16,14,122,89,94,94,18,26,5,9,0.5,0.5
2022-05-10T16:00:00,1239A,121.633,29.7733,宁波市,钱湖水厂,,28,23,31,15,18,108,87,92,92,7,16,6,7,0.3,0.4
2022-05-10T16:00:00,1240A,121.5856,29.8635,宁波市,太古小学,,27,27,32,18,14,101,67,80,80,22,27,5,7,0.4,0.4
2022-05-10T16:00:00,1241A,121.524,29.8674,宁波市,市环境监测中心,,33,33,32,18,12,116,66,88,87,26,22,6,8,0.5,0.4
2022-05-10T16:00:00,1242A,120.634,28.0089,温州市,瓯海,,41,41,34,24,18,88,74,80,80,33,25,6,7,0.4,0.3
2022-05-10T16:00:00,1243A,120.6748,27.9939,温州市,南浦,,46,46,36,23,16,96,78,83,83,26,19,6,7,0.4,0.4
2022-05-10T16:00:00,1244A,120.76,27.9747,温州市,龙湾,颗粒物(PM10),51,51,39,18,12,99,88,87,87,21,25,5,6,0.4,0.4
2022-05-10T16:00:00,1245A,120.6709,28.0167,温州市,市站,颗粒物(PM10),51,52,38,23,17,93,69,83,83,41,26,5,6,0.4,0.4
2022-05-10T16:00:00,1247A,120.6053,29.9928,绍兴市,城东开发委,细颗粒物(PM2.5),62,48,45,44,32,86,47,66,58,48,29,7,11,0.8,0.7
2022-05-10T16:00:00,1250A,120.0751,30.8669,湖州市,城西水厂,,42,42,33,24,19,84,67,72,67,28,32,6,7,0.5,0.5
2022-05-10T16:00:00,1252A,120.7436,30.778,嘉兴市,清河小学,,39,39,40,13,12,90,90,83,83,24,20,8,9,0.5,0.5
2022-05-10T16:00:00,1253A,120.726,30.7478,嘉兴市,嘉兴学院,,36,36,32,19,15,95,92,82,82,22,28,6,7,0.4,0.3
2022-05-10T16:00:00,1255A,121.273,28.6459,台州市,黄岩环保大楼,,47,47,35,16,11,113,85,94,94,17,15,5,6,0.3,0.3
2022-05-10T16:00:00,1256A,121.419,28.6542,台州市,台州环保大楼,,40,40,38,18,14,118,87,110,104,15,16,5,7,0.2,0.2
2022-05-10T16:00:00,1257A,121.377,28.5773,台州市,路桥田洋王,颗粒物(PM10),54,57,32,34,13,111,82,105,98,17,12,5,5,0.3,0.2
2022-05-10T16:00:00,1258A,122.122,30.0203,舟山市,定海檀枫,,29,23,24,9,11,113,90,88,88,7,6,2,2,0.2,0.2
2022-05-10T16:00:00,1259A,122.3094,29.9558,舟山市,普陀东港,,28,26,24,10,10,111,89,88,88,17,10,4,3,0.3,0.3
2022-05-10T16:00:00,1260A,122.19,29.9944,舟山市,临城新区,,28,28,26,11,10,118,89,88,88,6,7,3,3,0.3,0.3
2022-05-10T16:00:00,1262A,119.647,29.077,金华市,十五中,,40,31,45,28,30,35,34,28,28,50,45,5,11,0.7,0.6
2022-05-10T16:00:00,1263A,119.686,29.1029,金华市,监测站,,40,32,46,28,34,37,37,30,30,43,42,5,17,0.6,0.7
2022-05-10T16:00:00,1264A,118.8692,28.9398,衢州市,环保大楼,,36,36,36,18,21,52,34,36,33,28,22,3,3,0.6,0.6
2022-05-10T16:00:00,1265A,118.8709,28.9666,衢州市,实验学校,,29,29,28,17,16,57,40,37,37,24,22,4,4,0.6,0.5
2022-05-10T16:00:00,1266A,118.8621,28.9808,衢州市,衢州学院,,32,32,30,17,16,57,47,41,41,28,24,4,4,0.6,0.5
2022-05-10T16:00:00,1267A,119.914,28.4514,丽水市,监测站大楼,,35,35,22,18,12,63,42,62,51,15,12,5,5,0.4,0.4
2022-05-10T16:00:00,1268A,119.93,28.4586,丽水市,莲都小学,,24,24,25,15,11,74,45,67,55,18,13,5,5,0.3,0.3
2022-05-10T16:00:00,1269A,119.879,28.4231,丽水市,余庄前,,32,32,24,18,13,60,46,51,51,6,9,5,5,0.4,0.4
2022-05-10T16:00:00,1270A,117.1959,31.7848,合肥市,明珠广场,颗粒物(PM10),58,66,47,36,21,91,73,77,56,42,35,6,6,0.6,0.5
2022-05-10T16:00:00,1271A,117.3072,31.8764,合肥市,三里街,颗粒物(PM10),51,51,43,27,19,103,101,81,75,15,19,6,7,0.6,0.6
2022-05-10T16:00:00,1272A,117.2588,31.8707,合肥市,琥珀山庄,颗粒物(PM10),52,53,42,27,19,111,102,90,78,17,18,5,5,0.7,0.6
2022-05-10T16:00:00,1273A,117.1604,31.9052,合肥市,董铺水库(对照点),颗粒物(PM10),58,66,44,27,14,109,104,82,74,17,22,10,12,0.6,0.5
2022-05-10T16:00:00,1274A,117.25,31.8571,合肥市,长江中路,颗粒物(PM10),52,53,46,22,15,117,116,96,87,20,22,7,8,0.6,0.5
2022-05-10T16:00:00,1275A,117.266,31.9436,合肥市,庐阳区,颗粒物(PM10),57,63,48,27,13,114,111,87,87,18,23,8,9,0.5,0.5
2022-05-10T16:00:00,1276A,117.336,31.8586,合肥市,瑶海区,,46,46,45,30,24,110,110,90,84,16,18,6,7,0.7,0.6
2022-05-10T16:00:00,1277A,117.3027,31.7964,合肥市,包河区,颗粒物(PM10),58,66,50,29,25,97,94,70,69,25,35,6,6,0.6,0.5
2022-05-10T16:00:00,1278A,117.2776,31.7385,合肥市,滨湖新区,颗粒物(PM10),56,61,47,31,22,109,109,88,84,20,22,5,6,0.5,0.4
2022-05-10T16:00:00,1279A,117.1318,31.8403,合肥市,高新区,细颗粒物(PM2.5),55,58,48,39,24,100,91,68,68,31,33,8,9,0.7,0.8
2022-05-10T16:00:00,1280A,119.3903,26.0543,福州市,鼓山(对照点),,,8,8,14,7,60,32,42,36,,,,,,
2022-05-10T16:00:00,1282A,119.2681,26.0504,福州市,师大,,39,39,26,24,17,65,57,52,52,26,18,2,2,0.5,0.5
2022-05-10T16:00:00,1283A,119.2984,26.1028,福州市,五四北路,,34,34,23,18,14,53,49,45,45,21,21,2,2,0.5,0.5
2022-05-10T16:00:00,1284A,119.2648,26.0768,福州市,杨桥西路,,45,32,23,31,21,61,52,53,53,26,21,2,2,0.5,0.4
2022-05-10T16:00:00,1285A,119.317,26.0746,福州市,紫阳,,37,37,27,21,17,47,42,40,40,32,27,4,4,0.5,0.4
2022-05-10T16:00:00,1286A,118.1608,24.8169,厦门市,溪东(对照点),,25,24,20,17,20,58,46,48,48,2,2,2,2,0.4,0.4
2022-05-10T16:00:00,1287A,118.1514,24.4767,厦门市,洪文,,42,42,34,24,22,98,62,98,80,35,27,4,4,0.4,0.5
2022-05-10T16:00:00,1288A,118.0661,24.4444,厦门市,鼓浪屿,,39,26,24,27,24,96,78,67,67,9,11,1,2,0.6,0.6
2022-05-10T16:00:00,1290A,115.8931,28.6843,南昌市,省外办,,32,28,26,22,18,86,69,60,60,14,13,2,4,0.8,0.9
2022-05-10T16:00:00,1291A,115.8886,28.7003,南昌市,省林业公司,,29,29,25,17,14,81,66,58,58,22,20,13,15,0.8,1
2022-05-10T16:00:00,1292A,115.8126,28.7442,南昌市,林科所,,42,27,19,29,19,82,78,63,63,5,11,4,4,0.6,0.8
2022-05-10T16:00:00,1294A,115.8518,28.687,南昌市,建工学校,,33,33,23,21,20,80,69,58,58,15,14,7,7,0.6,0.8
2022-05-10T16:00:00,1295A,115.8921,28.6424,南昌市,象湖,,38,38,26,11,14,84,68,57,57,18,15,1,2,0.5,0.7
2022-05-10T16:00:00,1296A,115.7423,28.7996,南昌市,武术学校(对照点),细颗粒物(PM2.5),55,37,24,39,13,82,82,61,61,9,14,7,22,0.6,0.8
2022-05-10T16:00:00,1298A,115.9314,28.6842,南昌市,省站,,29,27,30,20,13,82,67,57,57,17,17,6,6,0.6,0.7
2022-05-10T16:00:00,1299A,116.9862,36.6114,济南市,科干所,细颗粒物(PM2.5),64,75,55,46,33,134,131,110,110,14,29,9,9,0.9,1.1
2022-05-10T16:00:00,1300A,116.9376,36.665,济南市,农科所,颗粒物(PM10),63,76,58,37,36,113,107,87,87,20,35,8,8,0.4,0.6
2022-05-10T16:00:00,1301A,117.1265,36.6734,济南市,开发区,细颗粒物(PM2.5),52,51,48,36,40,128,128,95,95,12,35,8,8,0.6,0.8
2022-05-10T16:00:00,1303A,117.0624,36.6868,济南市,省种子仓库,颗粒物(PM10),67,83,75,42,50,121,121,95,95,7,26,8,8,0.2,0.4
2022-05-10T16:00:00,1304A,116.9489,36.6447,济南市,机床二厂,细颗粒物(PM2.5),83,98,68,61,52,119,114,94,94,11,27,4,4,0.4,0.6
2022-05-10T16:00:00,1305A,117.0495,36.663,济南市,市监测站,细颗粒物(PM2.5),60,66,58,43,48,129,129,104,104,8,26,6,6,0.5,0.6
2022-05-10T16:00:00,1306A,116.7675,36.5484,济南市,长清党校,细颗粒物(PM2.5),68,83,62,49,43,120,118,100,100,15,22,9,9,0.7,0.9
2022-05-10T16:00:00,1307A,120.6659,36.2403,青岛市,仰口(对照点),,25,12,13,17,9,95,80,83,82,5,7,4,4,0.4,0.4
2022-05-10T16:00:00,1310A,120.4134,36.0658,青岛市,市南区东部子站,,29,19,14,12,9,99,90,88,84,6,13,5,5,0.3,0.3
2022-05-10T16:00:00,1311A,120.3664,36.1032,青岛市,四方区子站,,32,27,16,14,12,100,100,96,85,10,19,5,4,0.6,0.5
2022-05-10T16:00:00,1312A,120.2994,36.054,青岛市,市南区西部子站,,33,22,12,7,6,114,105,98,94,8,14,5,6,0.4,0.4
2022-05-10T16:00:00,1313A,120.4581,36.0858,青岛市,崂山区子站,,31,7,9,9,6,114,98,102,97,8,12,7,7,0.3,0.3
2022-05-10T16:00:00,1314A,120.1983,35.9608,青岛市,黄岛区子站,,30,17,14,10,12,109,93,106,92,19,16,5,4,0.1,0.2
2022-05-10T16:00:00,1315A,120.3999,36.3083,青岛市,城阳区子站,,,,29,,14,100,98,82,82,14,22,4,4,0.5,0.5
2022-05-10T16:00:00,1316A,113.69031,34.76122,郑州市,烟厂,细颗粒物(PM2.5),57,51,37,40,28,150,150,109,109,8,12,6,7,0.9,0.7
2022-05-10T16:00:00,1317A,113.65724,34.77134,郑州市,郑纺机,,47,45,37,26,19,148,148,106,106,5,13,6,7,1.1,1
2022-05-10T16:00:00,1318A,113.67526,34.80246,郑州市,银行学校,,50,36,28,32,27,157,157,112,112,8,14,5,5,0.9,0.7
2022-05-10T16:00:00,1319A,113.56746,34.81334,郑州市,供水公司,细颗粒物(PM2.5),52,35,29,36,30,126,126,88,88,12,20,6,7,0.8,0.7
2022-05-10T16:00:00,1320A,113.7329,34.7178,郑州市,经开区管委,,47,44,26,30,41,148,148,106,106,15,14,5,5,0.8,0.7
2022-05-10T16:00:00,1321A,113.73961,34.77172,郑州市,四十七中,,49,42,31,28,20,155,155,114,114,8,12,6,6,1.1,0.9
2022-05-10T16:00:00,1322A,113.60532,34.74838,郑州市,市监测站,"颗粒物(PM10),细颗粒物(PM2.5)",54,57,39,38,28,145,145,104,104,9,15,7,8,1.0,0.9
2022-05-10T16:00:00,1323A,113.64164,34.7525,郑州市,河医大,颗粒物(PM10),54,58,33,37,26,148,148,106,106,7,9,4,5,0.8,0.7
2022-05-10T16:00:00,1324A,113.51488,34.91089,郑州市,岗李水库(对照点),颗粒物(PM10),55,60,32,29,18,152,152,101,101,11,18,7,7,1.2,1.1
2022-05-10T16:00:00,1325A,114.3677,30.5584,武汉市,东湖梨园,细颗粒物(PM2.5),55,45,48,39,30,75,75,55,50,14,14,6,6,0.8,0.7
2022-05-10T16:00:00,1326A,114.2529,30.558,武汉市,汉阳月湖,,42,42,43,25,19,82,82,59,59,20,21,9,8,0.9,0.8
2022-05-10T16:00:00,1327A,114.282,30.6189,武汉市,汉口花桥,,42,33,38,29,28,74,74,53,50,22,23,8,8,1.0,0.9
2022-05-10T16:00:00,1328A,114.3025,30.5332,武汉市,武昌紫阳,,46,42,47,32,19,61,60,50,45,31,24,8,8,1.0,0.9
2022-05-10T16:00:00,1329A,114.3646,30.6217,武汉市,青山钢花,细颗粒物(PM2.5),62,46,47,44,36,82,82,51,51,14,19,7,7,0.8,0.7
2022-05-10T16:00:00,1330A,114.1566,30.4825,武汉市,沌口新区,,46,46,47,32,23,61,61,53,44,31,27,8,7,0.8,0.7
2022-05-10T16:00:00,1331A,114.3014,30.5944,武汉市,汉口江滩,颗粒物(PM10),51,52,50,34,20,73,66,55,50,21,14,6,6,0.8,0.7
2022-05-10T16:00:00,1333A,114.135,30.6319,武汉市,吴家山,细颗粒物(PM2.5),53,46,47,37,33,90,90,58,53,16,18,6,6,1.0,1
2022-05-10T16:00:00,1334A,113.8454,30.2917,武汉市,沉湖七壕(对照点),,44,44,49,19,18,85,85,53,53,14,15,5,5,0.9,0.8
2022-05-10T16:00:00,1335A,113.0833,28.2325,长沙市,经开区环保局,,46,34,39,32,34,92,40,36,36,22,23,3,3,0.6,0.7
2022-05-10T16:00:00,1336A,112.8872,28.2189,长沙市,高开区环保局,,43,21,30,30,28,68,58,46,46,10,10,5,5,0.3,0.5
2022-05-10T16:00:00,1337A,113.0792,28.2053,长沙市,马坡岭,,42,6,43,29,32,120,54,43,43,15,17,3,3,0.5,0.6
2022-05-10T16:00:00,1338A,112.9394,28.19,长沙市,湖南师范大学,,,42,35,,40,93,61,49,49,12,12,3,3,0.3,0.6
2022-05-10T16:00:00,1339A,113.0178,28.1322,长沙市,雨花区环保局,,45,35,32,31,31,120,57,45,45,11,13,4,4,0.5,0.5
2022-05-10T16:00:00,1340A,112.9792,28.2597,长沙市,伍家岭,细颗粒物(PM2.5),59,48,43,42,36,68,52,43,43,12,14,6,6,0.5,0.6
2022-05-10T16:00:00,1341A,113.0014,28.1944,长沙市,火车新站,细颗粒物(PM2.5),74,39,45,54,40,91,55,44,44,11,12,5,5,0.4,0.5
2022-05-10T16:00:00,1342A,112.9844,28.1178,长沙市,天心区环保局,细颗粒物(PM2.5),63,30,32,45,41,107,50,45,45,5,8,3,4,0.5,0.6
2022-05-10T16:00:00,1343A,112.8908,28.1308,长沙市,湖南中医药大学,,40,32,36,28,25,87,60,51,51,13,14,3,3,0.7,0.8
2022-05-10T16:00:00,1344A,112.9581,28.3611,长沙市,沙坪(对照点),细颗粒物(PM2.5),52,44,48,36,33,58,54,43,43,10,12,3,4,0.6,0.6
2022-05-10T16:00:00,1345A,113.2347,23.1423,广州市,广雅中学,,22,22,35,13,22,177,43,68,45,31,28,6,6,0.8,0.9
2022-05-10T16:00:00,1346A,113.2612,23.105,广州市,市五中,,22,22,32,11,19,198,38,69,43,28,26,4,5,0.6,0.6
2022-05-10T16:00:00,1348A,113.3478,23.0916,广州市,广东商学院,,19,19,35,8,20,188,45,47,35,20,36,3,4,0.6,0.7
2022-05-10T16:00:00,1349A,113.4332,23.1047,广州市,市八十六中,,24,24,45,7,17,195,32,31,28,30,49,6,7,0.6,0.6
2022-05-10T16:00:00,1350A,113.3505,22.9483,广州市,番禺中学,,17,17,28,8,15,189,49,62,44,15,21,8,7,0.6,0.6
2022-05-10T16:00:00,1351A,113.2146,23.3916,广州市,花都师范,,30,30,44,18,25,166,36,44,36,40,36,3,4,0.7,0.7
2022-05-10T16:00:00,1352A,113.2597,23.1331,广州市,市监测站,,29,29,38,11,20,190,41,73,38,27,28,5,6,0.7,0.8
2022-05-10T16:00:00,1353A,113.5618,23.312,广州市,九龙镇镇龙,,33,20,58,9,29,157,12,47,46,65,50,6,7,0.6,0.7
2022-05-10T16:00:00,1354A,113.2765,23.1544,广州市,麓湖,,22,22,35,10,19,154,40,64,39,26,29,3,4,0.8,0.8
2022-05-10T16:00:00,1355A,113.443,23.3035,广州市,帽峰山森林公园(对照点),,13,10,35,5,21,129,40,48,33,17,25,4,5,0.4,0.6
2022-05-10T16:00:00,1356A,114.1063,22.5545,深圳市,通心岭子站,,20,20,16,11,9,106,63,86,56,4,4,4,4,0.3,0.3
2022-05-10T16:00:00,1357A,114.117,22.5625,深圳市,洪湖,,24,24,19,15,9,122,70,90,62,9,11,6,6,0.3,0.3
2022-05-10T16:00:00,1358A,113.987,22.5417,深圳市,华侨城,,20,20,18,9,9,114,48,79,41,16,12,6,6,0.7,0.7
2022-05-10T16:00:00,1359A,113.9181,22.5171,深圳市,南海子站,,22,22,22,8,11,110,49,78,45,10,10,3,3,0.4,0.5
2022-05-10T16:00:00,1360A,114.2458,22.5689,深圳市,盐田,,30,30,19,20,12,123,69,83,53,12,18,2,2,0.6,0.6
2022-05-10T16:00:00,1361A,114.2283,22.7244,深圳市,龙岗,,22,22,19,11,9,109,64,88,56,19,21,3,3,0.5,0.5
2022-05-10T16:00:00,1363A,114.494,22.5422,深圳市,南澳,,26,26,19,14,9,117,80,80,71,5,6,5,7,0.6,0.6
2022-05-10T16:00:00,1364A,114.41,22.6342,深圳市,葵涌,,27,27,19,15,9,98,70,78,58,5,6,5,5,0.4,0.4
2022-05-10T16:00:00,1365A,114.297,22.5978,深圳市,梅沙,,26,26,20,14,11,157,77,92,65,5,7,4,5,0.4,0.4
2022-05-10T16:00:00,1366A,114.0678,22.738,深圳市,观澜,,34,34,28,14,10,81,37,54,36,21,22,8,8,0.5,0.5
2022-05-10T16:00:00,1367A,113.5814,22.2618,珠海市,吉大,,32,22,24,22,20,129,62,81,67,4,9,6,6,0.4,0.4
2022-05-10T16:00:00,1368A,113.4881,22.2335,珠海市,前山,,21,21,23,12,11,119,52,80,54,14,19,8,9,0.3,0.4
2022-05-10T16:00:00,1369A,113.628,22.4251,珠海市,唐家,,24,24,25,14,11,149,61,65,65,14,13,8,9,0.3,0.4
2022-05-10T16:00:00,1370A,113.299,22.2281,珠海市,斗门,,17,17,18,10,11,120,54,78,61,14,12,8,8,0.5,0.5
2022-05-10T16:00:00,1371A,113.1294,23.0067,佛山市,湾梁,,19,17,46,13,22,200,51,62,62,19,27,7,10,0.5,0.6
2022-05-10T16:00:00,1372A,113.1083,23.0478,佛山市,华材职中,,24,24,45,11,23,186,48,60,60,22,23,7,7,0.5,0.6
2022-05-10T16:00:00,1373A,113.144,23.0453,佛山市,南海气象局,,22,15,37,15,26,161,46,56,56,25,33,4,5,0.6,0.6
2022-05-10T16:00:00,1374A,113.2881,22.8094,佛山市,顺德苏岗,,18,18,30,7,22,185,52,55,48,17,23,5,5,0.7,0.8
2022-05-10T16:00:00,1376A,112.8383,22.8678,佛山市,高明孔堂,,15,14,34,6,16,203,48,70,56,5,13,4,5,0.5,0.6
2022-05-10T16:00:00,1377A,112.8836,23.1588,佛山市,三水监测站,,30,29,56,21,29,176,44,47,47,24,29,6,6,0.7,0.7
2022-05-10T16:00:00,1378A,112.867,23.185,佛山市,三水云东海,,36,36,57,12,24,184,47,51,51,33,29,4,4,0.6,0.7
2022-05-10T16:00:00,1379A,113.3769,22.5211,中山市,华柏园,,28,28,28,11,14,124,43,64,46,7,13,2,3,0.5,0.6
2022-05-10T16:00:00,1380A,113.3881,22.5497,中山市,张溪,,23,23,30,14,16,129,53,67,53,7,11,1,1,0.5,0.5
2022-05-10T16:00:00,1381A,113.4075,22.5111,中山市,紫马岭,,15,14,25,10,15,133,44,63,49,12,12,3,4,0.4,0.3
2022-05-10T16:00:00,1382A,113.4411,22.4853,中山市,长江旅游区(对照点),,17,17,20,11,14,124,45,73,52,8,9,2,3,0.3,0.3
2022-05-10T16:00:00,1383A,113.1064,22.6058,江门市,北街,,18,14,25,9,13,173,57,58,52,6,14,5,5,0.5,0.6
2022-05-10T16:00:00,1384A,113.0731,22.5835,江门市,西区,,23,23,32,11,16,183,55,62,57,13,20,7,6,0.4,0.5
2022-05-10T16:00:00,1385A,113.0219,22.5311,江门市,圭峰西,,19,18,30,13,17,164,49,65,53,14,18,5,5,0.5,0.5
2022-05-10T16:00:00,1386A,113.0828,22.5947,江门市,东湖,,23,18,30,16,16,191,59,63,63,12,16,6,6,0.4,0.5
2022-05-10T16:00:00,1389A,113.7547,23.0494,东莞市,莞城梨川,,20,20,31,8,17,225,41,58,51,19,25,8,8,0.8,0.9
2022-05-10T16:00:00,1390A,113.7944,23.0128,东莞市,东城石井,,24,24,31,9,17,209,31,63,48,29,29,7,7,0.5,0.6
2022-05-10T16:00:00,1391A,113.7383,22.9658,东莞市,南城西平,,19,15,31,13,19,174,45,42,41,22,31,4,4,0.7,0.7
2022-05-10T16:00:00,1392A,114.4183,23.0528,惠州市,河南岸金山湖子站,,43,43,28,18,12,123,53,63,48,10,11,3,3,0.4,0.4
2022-05-10T16:00:00,1393A,114.4053,23.0822,惠州市,下埔横江三路子站,,29,29,24,14,11,127,53,69,52,16,16,3,3,0.5,0.5
2022-05-10T16:00:00,1394A,114.4103,23.1142,惠州市,江北云山西路子站,,33,33,23,16,12,133,57,71,54,10,11,5,6,0.4,0.4
2022-05-10T16:00:00,1395A,114.4645,22.7833,惠州市,惠阳区承修路船湖子站,,28,28,20,18,14,103,68,75,51,10,12,3,1,0.4,0.4
2022-05-10T16:00:00,1396A,114.5317,22.7422,惠州市,大亚湾管委会子站,,,,24,,15,119,69,81,56,,14,,4,0.4,0.4
2022-05-10T16:00:00,1397A,112.4267,23.0706,肇庆市,睦岗子站,,13,10,53,8,34,155,36,72,45,26,33,6,11,0.8,0.9
2022-05-10T16:00:00,1398A,112.4645,23.0475,肇庆市,城中子站,,,10,52,5,35,170,39,75,46,20,31,,16,0.5,0.7
2022-05-10T16:00:00,1399A,112.5544,23.1522,肇庆市,坑口子站,,18,13,49,12,36,176,42,75,48,18,18,8,11,0.6,0.7
2022-05-10T16:00:00,1400A,112.4753,23.1,肇庆市,七星岩子站(对照点),,16,8,47,6,33,154,50,66,51,3,13,9,14,0.4,0.5
2022-05-10T16:00:00,1401A,108.3103,22.7881,南宁市,二十一中,,18,18,23,8,14,60,39,37,34,10,14,5,6,0.6,0.7
2022-05-10T16:00:00,1402A,108.3141,22.8528,南宁市,北湖,,17,17,27,10,16,57,47,39,39,9,12,7,8,0.4,0.6
2022-05-10T16:00:00,1403A,108.3206,22.8225,南宁市,市监测站,,18,18,26,7,13,59,40,36,33,16,18,8,8,0.5,0.6
2022-05-10T16:00:00,1404A,108.3829,22.8037,南宁市,大自然花园,,16,8,21,11,14,61,48,42,42,8,9,6,6,0.5,0.6
2022-05-10T16:00:00,1405A,108.4394,22.7904,南宁市,仙葫(对照点),,16,16,21,7,14,62,47,41,40,8,14,3,4,0.4,0.5
2022-05-10T16:00:00,1406A,108.2397,22.8467,南宁市,区农职院,,13,9,26,6,13,65,41,40,40,18,20,7,7,0.4,0.5
2022-05-10T16:00:00,1407A,108.3275,22.735,南宁市,英华嘉园,,12,11,28,6,13,51,37,34,34,16,23,4,4,0.5,0.6
2022-05-10T16:00:00,1408A,108.2257,22.7757,南宁市,沙井镇街道办,,16,11,25,11,13,55,37,36,36,9,20,4,5,0.4,0.5
2022-05-10T16:00:00,1409A,110.576,19.9507,海口市,东寨港(对照点),,21,21,19,10,7,14,13,12,12,2,2,4,4,0.2,0.2
2022-05-10T16:00:00,1410A,110.3232,20.0574,海口市,海南大学,,23,23,25,13,11,70,68,54,54,3,4,4,4,0.4,0.4
2022-05-10T16:00:00,1411A,110.283,20.0053,海口市,秀英海南医院,,36,36,23,8,10,53,50,41,41,14,8,3,3,0.4,0.4
2022-05-10T16:00:00,1412A,110.338,19.9969,海口市,海南师范大学,,37,37,20,7,8,42,42,32,32,11,5,3,2,0.5,0.4
2022-05-10T16:00:00,1413A,110.33,20.0356,海口市,龙华路环保局宿舍,,46,46,28,31,10,53,53,43,43,5,5,4,4,0.4,0.4
2022-05-10T16:00:00,1414A,106.3787,29.8279,重庆市,缙云山(对照点),,37,13,17,6,13,124,117,121,89,13,10,7,10,0.4,0.3
2022-05-10T16:00:00,1416A,106.4213,29.8253,重庆市,天生,,42,11,27,6,16,134,134,92,92,10,21,5,6,0.7,0.8
2022-05-10T16:00:00,1417A,106.6263,29.7228,重庆市,两路,,33,6,16,5,12,121,103,83,83,22,31,11,11,0.7,0.8
2022-05-10T16:00:00,1418A,106.2953,29.5983,重庆市,虎溪,,44,25,38,18,17,139,139,80,80,16,26,5,6,0.8,0.8
2022-05-10T16:00:00,1419A,106.5777,29.5102,重庆市,南坪,,48,28,29,14,16,157,152,97,97,7,23,4,4,0.5,0.6
2022-05-10T16:00:00,1420A,106.6556,29.6277,重庆市,唐家沱,臭氧1小时,77,23,18,13,10,181,181,101,101,11,24,8,4,0.7,0.6
2022-05-10T16:00:00,1421A,106.6349,29.4906,重庆市,茶园,臭氧1小时,54,14,25,9,13,164,163,107,107,11,36,6,6,0.7,0.8
2022-05-10T16:00:00,1422A,106.3754,29.4572,重庆市,白市驿,,49,21,32,10,16,156,156,88,88,8,15,6,5,1.0,1
2022-05-10T16:00:00,1425A,106.6205,29.7166,重庆市,空港,,37,28,28,12,12,120,117,81,81,5,22,4,4,0.4,0.7
2022-05-10T16:00:00,1426A,106.4782,29.4875,重庆市,新山村,臭氧1小时,54,21,42,6,29,163,163,98,98,20,46,4,5,0.7,0.8
2022-05-10T16:00:00,1427A,106.5616,29.6453,重庆市,礼嘉,,45,22,30,11,13,142,142,78,78,24,53,9,8,0.5,0.6
2022-05-10T16:00:00,1428A,106.4522,29.7091,重庆市,蔡家,,49,11,23,5,13,154,154,82,82,14,20,5,5,0.6,0.6
2022-05-10T16:00:00,1429A,106.5093,29.3917,重庆市,鱼新街,臭氧1小时,65,16,32,8,19,172,172,96,96,12,32,5,7,0.9,1
2022-05-10T16:00:00,1431A,103.9728,30.7236,成都市,金泉两河,臭氧1小时,75,34,52,20,33,193,180,145,145,5,26,2,3,0.3,0.5
2022-05-10T16:00:00,1432A,104.1419,30.6764,成都市,十里店,,44,37,58,22,41,165,140,119,119,6,24,2,3,0.4,0.4
2022-05-10T16:00:00,1433A,104.0594,30.5767,成都市,三瓦窑,,43,32,53,19,32,161,136,114,114,8,34,2,4,0.4,0.5
2022-05-10T16:00:00,1434A,104.1122,30.6306,成都市,沙河铺,,45,31,51,24,39,169,141,116,116,9,25,3,4,0.5,0.5
2022-05-10T16:00:00,1437A,104.0431,30.6556,成都市,君平街,,50,30,56,21,42,181,158,130,130,12,34,2,4,0.5,0.6
2022-05-10T16:00:00,1438A,103.6202,31.0201,成都市,灵岩寺(对照点),,47,38,28,25,16,148,148,118,118,5,7,1,10,0.5,0.5
2022-05-10T16:00:00,1439A,106.6899,26.5998,贵阳市,马鞍山,,32,14,12,4,10,102,102,78,78,5,8,4,4,0.3,0.5
2022-05-10T16:00:00,1440A,106.6971,26.5694,贵阳市,市环保站,,,,14,,10,92,85,80,77,8,18,5,5,0.4,0.4
2022-05-10T16:00:00,1441A,106.6243,26.6266,贵阳市,鉴湖路,,33,14,19,12,7,105,105,93,93,5,7,3,2,0.5,0.5
2022-05-10T16:00:00,1442A,106.7487,26.6343,贵阳市,燕子冲,,30,9,19,9,15,95,95,87,87,4,9,7,6,0.5,0.5
2022-05-10T16:00:00,1443A,106.6555,26.4365,贵阳市,碧云窝,,35,19,28,7,13,112,109,100,100,5,11,3,5,0.6,0.6
2022-05-10T16:00:00,1444A,106.694,26.5161,贵阳市,中院村,,32,24,23,9,9,100,100,88,88,8,14,4,4,0.5,0.5
2022-05-10T16:00:00,1445A,106.7109,26.6027,贵阳市,红边门,细颗粒物(PM2.5),58,14,16,41,14,102,102,94,94,11,15,2,3,0.4,0.4
2022-05-10T16:00:00,1446A,106.7164,26.5699,贵阳市,新华路,,33,5,11,12,10,103,103,92,92,1,10,2,3,0.4,0.4
2022-05-10T16:00:00,1447A,106.674,26.5424,贵阳市,太慈桥,,33,24,24,0,5,104,104,86,86,5,15,4,4,0.8,0.4
2022-05-10T16:00:00,1450A,102.8204,24.8886,昆明市,呈贡新区,,44,22,25,17,12,148,138,116,116,9,16,10,12,0.5,0.5
2022-05-10T16:00:00,1451A,102.6251,24.9608,昆明市,西山森林公园(对照点),,40,28,19,15,12,128,128,114,114,6,9,9,10,0.7,0.6
2022-05-10T16:00:00,1452A,102.7252,25.0902,昆明市,龙泉镇,,35,24,22,13,11,124,109,99,99,8,18,10,10,0.5,0.5
2022-05-10T16:00:00,1453A,102.7266,25.0375,昆明市,东风东路,,36,27,23,19,13,129,115,111,111,8,17,6,10,0.5,0.4
2022-05-10T16:00:00,1454A,102.6742,25.0669,昆明市,金鼎山,,35,27,23,9,17,121,112,102,102,6,13,4,9,0.3,0.4
2022-05-10T16:00:00,1455A,102.6644,25.0401,昆明市,碧鸡广场,,37,18,22,5,13,121,116,107,107,8,18,9,10,0.4,0.6
2022-05-10T16:00:00,1456A,91.1319,29.6514,拉萨市,八廓街,,39,17,15,12,11,124,124,102,102,12,12,6,6,0.2,0.2
2022-05-10T16:00:00,1457A,91.1221,29.6747,拉萨市,市环保局,,44,12,12,5,8,138,138,112,112,6,10,6,7,0.3,0.3
2022-05-10T16:00:00,1458A,91.0874,29.6475,拉萨市,区监测站,,37,8,11,2,3,118,118,96,96,7,11,7,8,0.3,0.3
2022-05-10T16:00:00,1459A,91.1774,29.6541,拉萨市,西藏大学,,40,5,12,4,5,125,125,101,101,7,10,7,10,0.3,0.3
2022-05-10T16:00:00,1460A,90.9798,29.6588,拉萨市,区辐射站,,46,13,16,7,8,146,146,118,118,6,18,7,8,0.3,0.3
2022-05-10T16:00:00,1461A,91.0834,29.6292,拉萨市,拉萨火车站,,45,15,14,5,4,144,144,114,114,7,8,7,9,0.3,0.3
2022-05-10T16:00:00,1462A,108.882,34.2749,西安市,高压开关厂,颗粒物(PM10),55,59,42,37,19,151,151,86,86,20,24,4,5,0.7,0.6
2022-05-10T16:00:00,1463A,108.993,34.2629,西安市,兴庆小区,颗粒物(PM10),56,62,39,36,21,138,138,65,65,27,29,4,5,0.9,1
2022-05-10T16:00:00,1464A,109.06,34.2572,西安市,纺织城,颗粒物(PM10),56,61,52,35,26,129,129,64,64,32,38,6,7,0.6,0.6
2022-05-10T16:00:00,1465A,108.9356,34.2173,西安市,小寨,颗粒物(PM10),58,66,37,29,18,148,148,80,80,28,26,2,3,0.6,0.6
2022-05-10T16:00:00,1466A,108.954,34.2713,西安市,市人民体育场,颗粒物(PM10),51,51,36,32,22,144,144,75,75,22,24,6,6,0.7,0.7
2022-05-10T16:00:00,1467A,108.8922,34.2322,西安市,高新西区,颗粒物(PM10),55,60,34,29,22,153,153,85,85,17,17,6,6,0.8,0.8
2022-05-10T16:00:00,1468A,108.935,34.3474,西安市,经开区,,45,45,34,28,17,141,141,79,79,21,24,1,2,0.6,0.6
2022-05-10T16:00:00,1469A,108.906,34.1546,西安市,长安区,颗粒物(PM10),64,77,51,32,22,147,147,86,86,28,27,5,5,0.8,0.8
2022-05-10T16:00:00,1471A,109.2186,34.3731,西安市,临潼区,,46,46,34,22,21,139,139,73,73,12,22,3,4,0.8,0.8
2022-05-10T16:00:00,1472A,108.869,34.378,西安市,草滩(对照点),,48,48,38,25,19,153,153,92,92,18,23,8,7,0.7,0.8
2022-05-10T16:00:00,1473A,108.985,34.1978,西安市,曲江文化产业集团,颗粒物(PM10),63,75,46,39,27,131,131,61,61,35,30,4,4,1.0,0.9
2022-05-10T16:00:00,1474A,109.051,34.3213,西安市,广运潭,,,,39,,19,136,136,70,70,20,25,4,5,0.7,0.8
2022-05-10T16:00:00,1476A,103.631,36.1031,兰州市,兰炼宾馆,颗粒物(PM10),202,351,98,123,47,134,106,102,102,12,31,12,11,0.3,0.4
2022-05-10T16:00:00,1478A,103.8412,36.0726,兰州市,生物制品所,颗粒物(PM10),164,278,108,47,23,117,108,78,78,14,41,6,10,0.7,0.8
2022-05-10T16:00:00,1479A,103.831,36.0464,兰州市,铁路设计院,颗粒物(PM10),166,282,83,72,33,124,102,70,70,20,57,5,9,0.2,0.6
2022-05-10T16:00:00,1483A,101.524,36.6867,西宁市,第五水厂(对照点),,45,44,35,21,16,173,144,121,121,16,14,27,16,0.8,0.8
2022-05-10T16:00:00,1484A,105.9512,38.6016,银川市,贺兰山马莲口(对照点),颗粒物(PM10),107,164,76,46,21,148,139,122,107,8,10,10,10,0.3,0.3
2022-05-10T16:00:00,1488A,106.2328,38.4975,银川市,贺兰山东路,颗粒物(PM10),88,126,100,35,30,129,125,94,94,11,22,7,8,0.5,0.5
2022-05-10T16:00:00,1489A,106.1358,38.5036,银川市,学院路,颗粒物(PM10),105,160,101,34,23,137,132,99,99,8,24,9,11,0.3,0.4
2022-05-10T16:00:00,1490A,87.5801,43.8303,乌鲁木齐市,监测站,颗粒物(PM10),56,61,54,39,23,102,102,57,57,14,39,11,11,0.7,0.8
2022-05-10T16:00:00,1491A,87.6046,43.768,乌鲁木齐市,收费所,颗粒物(PM10),54,58,56,6,18,89,89,55,55,12,25,5,5,0.4,0.3
2022-05-10T16:00:00,1492A,87.4754,43.9469,乌鲁木齐市,新疆农科院农场(对照点),,33,22,56,13,23,105,105,66,66,4,30,13,13,0.4,0.5
2022-05-10T16:00:00,1493A,87.5525,43.8711,乌鲁木齐市,铁路局,,47,47,53,13,19,109,109,60,60,10,42,9,11,0.5,0.7
2022-05-10T16:00:00,1494A,87.6432,43.831,乌鲁木齐市,三十一中学,颗粒物(PM10),54,57,53,15,14,103,103,66,66,11,26,14,13,0.3,0.5
2022-05-10T16:00:00,1496A,87.7216,44.1747,乌鲁木齐市,米东区环保局,,34,14,25,6,10,107,107,78,78,3,7,8,8,0.2,0.2
2022-05-10T16:00:00,1508A,112.9433,27.8614,湘潭市,板塘,细颗粒物(PM2.5),52,40,43,36,31,115,50,45,45,19,19,2,4,0.7,0.7
2022-05-10T16:00:00,1511A,112.9118,27.8403,湘潭市,市监测站,细颗粒物(PM2.5),63,27,27,45,31,89,38,36,35,14,9,6,6,0.8,0.9
2022-05-10T16:00:00,1512A,112.8937,27.8728,湘潭市,江麓,,,45,40,26,26,103,46,43,43,16,15,8,9,,0.7
2022-05-10T16:00:00,1513A,112.9227,27.8159,湘潭市,岳塘,,48,48,48,31,25,107,41,43,42,20,16,7,6,0.4,0.4
2022-05-10T16:00:00,1514A,112.9074,27.9119,湘潭市,科大,,29,29,32,19,28,109,48,43,43,17,19,6,4,0.5,0.6
2022-05-10T16:00:00,1515A,113.135,27.8244,株洲市,天台山庄,,38,17,25,26,26,119,44,37,37,17,21,5,5,0.6,0.7
2022-05-10T16:00:00,1518A,113.095,27.8867,株洲市,株冶医院,,38,19,26,26,26,108,43,37,37,15,20,12,10,0.5,0.5
2022-05-10T16:00:00,1519A,113.167,27.8667,株洲市,市四中,,,20,26,30,29,111,46,39,39,15,18,3,3,,0.5
2022-05-10T16:00:00,1520A,113.143,27.8381,株洲市,火车站,,28,24,33,19,22,117,42,37,37,16,20,4,5,0.4,0.5
2022-05-10T16:00:00,1524A,113.13,27.8528,株洲市,市监测站,,,31,35,,33,120,45,38,38,15,18,9,4,0.7,0.7
2022-05-10T16:00:00,1552A,106.805,26.3003,贵阳市,桐木岭(对照点),,33,24,28,12,15,104,104,98,98,4,7,6,9,0.4,0.4
2022-05-10T16:00:00,1562A,113.0048,27.9153,湘潭市,昭山,细颗粒物(PM2.5),52,24,32,36,31,109,43,39,39,13,14,5,5,0.7,0.7
2022-05-10T16:00:00,1564A,112.4876,27.9164,湘潭市,韶山(对照点),,36,36,30,13,20,74,60,47,46,7,9,3,3,0.7,0.7
2022-05-10T16:00:00,1585A,109.8756,40.6532,包头市,市环境监测站,,32,5,46,2,10,133,100,95,95,6,14,5,7,0.3,0.4
2022-05-10T16:00:00,1587A,109.9991,40.5842,包头市,包头八中,,34,31,48,9,20,146,107,102,98,7,13,10,11,0.4,0.5
2022-05-10T16:00:00,1588A,109.8538,40.6821,包头市,青山宾馆,,30,16,50,9,19,126,96,96,89,6,14,9,11,0.4,0.5
2022-05-10T16:00:00,1590A,110.0377,40.5546,包头市,东河鸿龙湾,,32,7,38,4,12,142,100,104,88,5,10,9,11,0.4,0.5
2022-05-10T16:00:00,1591A,110.0023,39.8129,鄂尔多斯市,综合楼,颗粒物(PM10),51,51,39,34,26,114,94,91,76,13,17,6,7,0.6,0.5
2022-05-10T16:00:00,1592A,109.9486,39.8261,鄂尔多斯市,巴音孟克林场办事处,,41,41,31,24,15,140,117,102,98,10,14,6,8,0.4,0.5
2022-05-10T16:00:00,1593A,109.7736,39.5986,鄂尔多斯市,康泽苑,,33,29,27,2,7,129,105,96,94,4,9,4,5,0.4,0.5
2022-05-10T16:00:00,1594A,109.8119,39.5989,鄂尔多斯市,华泰汽车城,,32,29,30,14,15,124,102,94,89,4,8,6,7,0.4,0.5
2022-05-10T16:00:00,1595A,109.9734,39.7884,鄂尔多斯市,奥林花园,颗粒物(PM10),51,51,32,19,15,118,94,83,80,8,14,5,5,0.4,0.5
2022-05-10T16:00:00,1597A,122.2703,40.7094,营口市,大庆路,,40,40,29,27,19,128,128,116,116,5,6,3,4,0.7,0.6
2022-05-10T16:00:00,1598A,122.215,40.6511,营口市,镜湖西路,,41,34,26,13,22,130,130,118,118,9,10,4,4,0.5,0.4
2022-05-10T16:00:00,1600A,124.3303,40.0625,丹东市,江湾东路,,40,28,38,19,28,128,125,118,118,9,13,10,9,0.5,0.6
2022-05-10T16:00:00,1601A,124.4256,40.1503,丹东市,临江后街,,39,27,32,12,13,127,122,114,114,7,9,13,11,0.9,1.1
2022-05-10T16:00:00,1602A,124.3933,40.1461,丹东市,元宝山,,37,28,33,16,22,120,118,110,110,7,10,12,11,0.6,0.8
2022-05-10T16:00:00,1603A,124.3633,40.1092,丹东市,民主桥,,38,26,37,14,23,122,120,111,111,4,11,12,11,0.7,0.8
2022-05-10T16:00:00,1604A,122.0303,41.1489,盘锦市,开发区,,50,47,38,35,30,144,110,106,106,16,17,6,6,0.7,0.7
2022-05-10T16:00:00,1605A,122.0485,41.0883,盘锦市,兴隆台,,47,47,38,29,25,136,108,106,106,17,17,8,8,0.7,0.8
2022-05-10T16:00:00,1606A,121.8297,41.1028,盘锦市,新生街道,,38,32,31,26,27,142,108,106,106,14,14,6,7,0.8,0.8
2022-05-10T16:00:00,1607A,120.9092,40.7136,葫芦岛市,龙港区,细颗粒物(PM2.5),52,40,38,36,30,121,104,109,99,11,11,11,11,0.7,0.8
2022-05-10T16:00:00,1608A,120.8392,40.7514,葫芦岛市,化工街,颗粒物(PM10),55,60,56,36,31,136,107,104,104,21,29,5,7,1.6,0.8
2022-05-10T16:00:00,1609A,120.8341,40.7073,葫芦岛市,新区,颗粒物(PM10),51,51,49,33,39,128,107,101,101,13,18,8,9,0.9,0.8
2022-05-10T16:00:00,1610A,120.8695,40.7677,葫芦岛市,东城区,细颗粒物(PM2.5),130,39,54,99,57,131,99,96,96,12,19,6,8,0.7,0.6
2022-05-10T16:00:00,1611A,118.5819,24.9117,泉州市,涂山街,,40,34,23,28,16,73,69,66,66,27,16,5,6,0.5,0.4
2022-05-10T16:00:00,1612A,118.5972,24.8978,泉州市,津头埔,,45,42,26,31,17,67,60,58,58,31,22,5,5,0.4,0.3
2022-05-10T16:00:00,1613A,118.6663,24.9424,泉州市,万安,,45,41,25,31,19,76,63,65,65,21,14,5,7,0.5,0.5
2022-05-10T16:00:00,1614A,118.6117,24.9604,泉州市,清源山(对照点),,38,22,19,26,16,72,72,62,62,15,12,6,6,0.4,0.3
2022-05-10T16:00:00,1616A,117.6795,36.229,济南市,技术学院,细颗粒物(PM2.5),60,66,68,43,58,132,132,107,107,19,36,12,11,0.7,1.1
2022-05-10T16:00:00,1618A,118.3429,35.0532,临沂市,沂河小区,,49,48,49,34,29,94,94,86,72,20,24,6,6,0.4,0.6
2022-05-10T16:00:00,1619A,118.295,35.0583,临沂市,鲁南制药厂,,48,48,40,27,21,104,102,100,86,23,23,8,9,0.6,0.9
2022-05-10T16:00:00,1620A,118.2794,34.9976,临沂市,新光毛纺厂,颗粒物(PM10),51,51,42,32,25,95,93,95,80,17,19,3,5,0.5,0.8
2022-05-10T16:00:00,1621A,118.3956,35.0888,临沂市,河东保险公司,颗粒物(PM10),53,56,43,35,27,99,99,80,72,21,26,4,5,0.5,0.7
2022-05-10T16:00:00,1622A,116.3032,37.4674,德州市,儿童乐园,颗粒物(PM10),59,68,40,33,32,126,123,102,102,9,12,3,3,0.4,0.5
2022-05-10T16:00:00,1624A,116.2991,37.4451,德州市,监理站,,43,40,32,30,27,121,121,101,101,7,14,7,6,0.5,0.6
2022-05-10T16:00:00,1625A,115.9848,36.4372,聊城市,区政府,细颗粒物(PM2.5),75,81,54,55,39,115,115,96,96,8,17,7,7,0.6,0.6
2022-05-10T16:00:00,1628A,118.0062,37.3803,滨州市,市环保局,细颗粒物(PM2.5),117,85,78,88,75,136,136,96,96,11,20,8,9,1.0,1
2022-05-10T16:00:00,1629A,118.0018,37.3617,滨州市,第二水厂,细颗粒物(PM2.5),80,93,72,59,58,115,115,83,83,12,20,10,9,0.8,0.8
2022-05-10T16:00:00,1630A,117.9776,37.393,滨州市,北中新校,细颗粒物(PM2.5),92,71,54,68,63,118,118,85,85,17,22,7,5,1.0,0.9
2022-05-10T16:00:00,1631A,118.0414,36.8103,淄博市,人民公园,细颗粒物(PM2.5),57,41,74,40,50,129,129,93,93,13,35,4,6,0.4,0.6
2022-05-10T16:00:00,1633A,117.8525,36.4847,淄博市,双山,细颗粒物(PM2.5),84,88,73,62,66,125,115,98,98,22,31,4,3,0.9,0.6
2022-05-10T16:00:00,1634A,117.9592,36.6331,淄博市,气象站,颗粒物(PM10),51,51,88,31,58,131,125,103,103,19,37,7,8,0.5,0.7
2022-05-10T16:00:00,1635A,118.3092,36.8194,淄博市,莆田园,"颗粒物(PM10),细颗粒物(PM2.5)",62,73,73,44,52,98,90,68,68,25,26,42,10,0.6,0.6
2022-05-10T16:00:00,1637A,117.558,34.8438,枣庄市,市中区政府,,,63,62,,33,113,113,95,95,13,20,9,13,0.5,0.5
2022-05-10T16:00:00,1638A,117.2852,34.7837,枣庄市,薛城环保局,"颗粒物(PM10),细颗粒物(PM2.5)",55,59,70,39,37,109,109,91,91,19,36,10,16,0.7,0.8
2022-05-10T16:00:00,1639A,117.5852,34.7745,枣庄市,峄城区政府,颗粒物(PM10),53,56,62,27,22,104,104,92,92,15,24,7,11,0.5,0.6
2022-05-10T16:00:00,1640A,117.7276,34.5578,枣庄市,台儿庄区环保局,,39,39,46,14,24,108,108,84,84,17,22,7,10,0.7,0.9
2022-05-10T16:00:00,1641A,117.4518,35.0992,枣庄市,山亭区环保局,,,80,49,39,31,117,,100,100,17,19,7,9,0.7,0.5
2022-05-10T16:00:00,1642A,121.2514,37.5639,烟台市,开发区,,32,22,37,12,20,101,101,65,65,8,19,4,5,0.4,0.4
2022-05-10T16:00:00,1643A,121.3719,37.5433,烟台市,轴承厂,,34,31,33,8,17,109,106,93,85,13,24,5,6,0.4,0.4
2022-05-10T16:00:00,1644A,121.3181,37.5436,烟台市,西郊化工站,,34,34,35,17,19,104,94,83,83,14,21,6,7,0.4,0.4
2022-05-10T16:00:00,1645A,121.4478,37.4822,烟台市,莱山环保局,,36,29,27,19,16,117,114,96,96,8,17,6,6,0.3,0.4
2022-05-10T16:00:00,1646A,121.2611,37.4967,烟台市,福山环保局,,36,24,40,14,19,114,114,100,100,10,28,6,11,0.1,0.2
2022-05-10T16:00:00,1650A,119.1437,36.7023,潍坊市,环保局,,39,39,40,26,25,107,99,88,88,15,17,6,6,0.6,0.7
2022-05-10T16:00:00,1653A,116.6251,35.4302,济宁市,火炬城,,49,47,50,34,48,123,123,95,95,8,20,10,10,0.6,0.9
2022-05-10T16:00:00,1655A,116.5491,35.4042,济宁市,电化厂,细颗粒物(PM2.5),64,70,62,46,52,126,126,103,103,13,23,4,4,0.8,0.9
2022-05-10T16:00:00,1656A,117.1437,36.1937,泰安市,监测站,颗粒物(PM10),64,78,72,37,38,110,110,90,90,14,18,7,9,0.4,0.7
2022-05-10T16:00:00,1657A,117.0885,36.2017,泰安市,人口学校,颗粒物(PM10),59,68,64,37,38,114,114,93,93,18,21,9,9,0.6,0.8
2022-05-10T16:00:00,1658A,117.1089,36.1758,泰安市,电力学校,细颗粒物(PM2.5),63,53,67,45,59,123,123,96,96,15,24,7,8,0.6,0.8
2022-05-10T16:00:00,1659A,119.471,35.4209,日照市,监测站,,28,24,20,15,14,106,89,98,91,5,13,4,5,0.2,0.2
2022-05-10T16:00:00,1660A,119.523,35.4216,日照市,市政府广场,,29,29,17,15,11,114,92,104,96,2,4,3,4,0.3,0.3
2022-05-10T16:00:00,1661A,119.5587,35.4044,日照市,港务局,,33,22,15,11,7,122,104,116,111,2,2,2,3,0.4,0.4
2022-05-10T16:00:00,1662A,122.1214,37.4236,威海市,华夏技校,,30,22,25,12,18,107,94,99,99,12,17,3,4,0.3,0.3
2022-05-10T16:00:00,1663A,122.0508,37.5236,威海市,山大分校,,34,20,20,2,11,114,108,98,98,13,21,5,6,0.1,0.2
2022-05-10T16:00:00,1664A,122.1067,37.5072,威海市,市监测站,,32,20,27,11,19,111,102,88,88,13,26,6,8,0.1,0.1
2022-05-10T16:00:00,1666A,118.6614,37.4309,东营市,市环保局,细颗粒物(PM2.5),70,61,41,51,41,122,122,95,95,14,17,7,10,0.6,0.7
2022-05-10T16:00:00,1669A,113.5824,24.7733,韶关市,市八中,,30,16,49,21,27,121,19,36,36,29,28,9,10,0.7,0.7
2022-05-10T16:00:00,1671A,113.5917,24.7972,韶关市,园林处,,22,18,45,15,29,180,8,24,24,25,25,8,9,1.0,0.8
2022-05-10T16:00:00,1672A,113.6735,24.7791,韶关市,韶关学院,,26,14,32,18,25,79,36,25,25,10,18,10,10,0.4,0.7
2022-05-10T16:00:00,1673A,113.5971,24.6863,韶关市,曲江监测站,,25,14,34,17,30,88,32,34,33,24,23,5,6,0.5,0.5
2022-05-10T16:00:00,1674A,116.6794,23.3667,汕头市,金平子站,,34,34,26,20,16,86,81,68,68,9,10,8,8,0.4,0.5
2022-05-10T16:00:00,1675A,116.7244,23.3633,汕头市,龙湖子站,,28,17,27,19,15,83,81,68,68,12,12,6,6,0.6,0.6
2022-05-10T16:00:00,1676A,116.7258,23.2775,汕头市,濠江子站,,32,25,17,22,15,85,82,71,68,11,9,8,8,0.4,0.4
2022-05-10T16:00:00,1677A,116.7519,23.4714,汕头市,澄海子站,,29,29,26,19,19,82,82,69,69,19,14,5,6,0.6,0.6
2022-05-10T16:00:00,1678A,116.6092,23.2539,汕头市,潮阳子站,,36,36,27,22,15,98,78,72,64,14,10,8,7,0.5,0.5
2022-05-10T16:00:00,1680A,110.3539,21.2706,湛江市,湛江影剧院,,27,27,27,15,13,75,49,69,48,5,4,5,5,0.6,0.5
2022-05-10T16:00:00,1681A,110.3928,21.2228,湛江市,市环境监测站,,33,33,26,19,17,83,56,77,53,5,3,4,4,0.5,0.3
2022-05-10T16:00:00,1682A,110.4019,21.1997,湛江市,环保局宿舍,,19,16,25,13,13,79,52,75,50,4,3,4,4,0.4,0.4
2022-05-10T16:00:00,1683A,110.4111,21.2028,湛江市,霞山游泳场,,19,19,26,12,13,80,48,75,51,8,4,4,4,0.3,0.3
2022-05-10T16:00:00,1684A,110.3316,21.2679,湛江市,麻章区环保局,,25,25,30,17,17,70,46,64,43,9,6,5,5,0.4,0.5
2022-05-10T16:00:00,1685A,110.4558,21.2567,湛江市,坡头区环保局,,19,17,29,11,13,93,60,83,57,3,3,4,4,0.4,0.4
2022-05-10T16:00:00,1686A,111.0286,21.4688,茂名市,电白南海,,29,29,34,12,15,89,39,72,42,13,13,4,5,0.5,0.5
2022-05-10T16:00:00,1687A,110.9294,21.6533,茂名市,茂石化七小,,27,27,30,14,18,68,42,67,41,9,11,6,6,0.5,0.5
2022-05-10T16:00:00,1688A,110.9107,21.6687,茂名市,健康路,,19,19,24,6,9,67,39,65,42,7,9,6,6,0.6,0.6
2022-05-10T16:00:00,1689A,110.8592,21.6828,茂名市,高岭,,,22,29,5,8,69,38,64,42,,9,,7,0.4,0.5
2022-05-10T16:00:00,1690A,116.1231,24.3284,梅州市,梅江月梅,,19,12,32,13,20,54,52,38,38,7,18,3,4,0.5,0.6
2022-05-10T16:00:00,1691A,116.0797,24.2719,梅州市,梅县新城,,20,15,30,14,22,74,63,42,42,9,21,4,5,0.5,0.7
2022-05-10T16:00:00,1692A,116.1248,24.2654,梅州市,环境监控中心,,26,24,36,18,24,60,54,34,34,15,23,9,8,0.6,0.7
2022-05-10T16:00:00,1693A,115.3653,22.775,汕尾市,市环保局,,25,24,16,10,9,113,78,70,70,6,6,7,7,0.4,0.4
2022-05-10T16:00:00,1694A,115.3706,22.7898,汕尾市,市政府,,25,9,15,9,11,78,78,72,70,7,6,5,5,0.5,0.4
2022-05-10T16:00:00,1695A,115.3622,22.7925,汕尾市,新城中学,,27,27,18,13,10,118,78,72,71,7,6,6,6,0.6,0.5
2022-05-10T16:00:00,1696A,114.6778,23.7569,河源市,源西(对照点),,39,39,35,15,20,114,54,67,52,12,13,2,3,0.7,0.7
2022-05-10T16:00:00,1697A,114.6944,23.7586,河源市,东埔,,27,27,31,10,17,117,52,67,50,13,19,3,4,0.6,0.7
2022-05-10T16:00:00,1698A,114.6892,23.7233,河源市,老城,,30,30,30,14,17,129,59,74,57,10,15,2,3,0.7,0.7
2022-05-10T16:00:00,1699A,111.9797,21.8593,阳江市,鸳鸯湖(对照点),,20,17,22,11,11,122,61,83,69,3,4,5,6,0.5,0.5
2022-05-10T16:00:00,1701A,111.9491,21.8658,阳江市,马南垌,,19,17,25,13,14,114,56,84,64,7,6,4,4,0.5,0.5
2022-05-10T16:00:00,1702A,113.0426,23.691,清远市,环保大楼(对照点),,39,39,43,27,31,140,48,46,30,38,27,8,8,0.6,0.6
2022-05-10T16:00:00,1703A,113.0208,23.7106,清远市,凤城街办,颗粒物(PM10),52,54,52,27,33,132,59,42,40,33,27,7,7,0.7,0.8
2022-05-10T16:00:00,1705A,116.6367,23.6719,潮州市,西园路(对照点),,31,31,29,18,23,81,64,52,52,14,14,3,6,0.7,0.6
2022-05-10T16:00:00,1706A,116.6447,23.6706,潮州市,档案局,,38,34,30,26,28,86,65,55,55,16,15,6,10,0.6,0.6
2022-05-10T16:00:00,1708A,116.3701,23.5345,揭阳市,新兴,,35,30,39,24,24,124,75,60,60,24,14,12,9,0.8,0.7
2022-05-10T16:00:00,1709A,116.3264,23.5443,揭阳市,西马,,36,36,39,21,23,144,87,63,63,17,13,8,7,0.7,0.6
2022-05-10T16:00:00,1710A,116.3611,23.5626,揭阳市,东兴,,49,31,37,34,31,128,74,60,60,14,11,6,7,0.6,0.7
2022-05-10T16:00:00,1711A,116.4151,23.5294,揭阳市,渔湖,,32,25,25,22,20,102,56,52,52,19,12,7,7,0.7,0.6
2022-05-10T16:00:00,1712A,112.0392,22.9169,云浮市,新市府(对照点),,16,16,35,10,22,100,51,48,45,3,9,6,6,0.4,0.5
2022-05-10T16:00:00,1714A,112.0539,22.9539,云浮市,牧羊,,32,32,55,10,45,124,29,50,34,26,25,8,9,0.4,0.6
2022-05-10T16:00:00,1715A,102.575,24.3711,玉溪市,东风水库,,34,10,27,8,16,124,106,95,95,8,16,7,8,0.5,0.8
2022-05-10T16:00:00,1718A,115.4208,35.2464,菏泽市,气象局,细颗粒物(PM2.5),85,67,58,63,56,110,110,80,80,12,21,7,7,0.7,0.7
2022-05-10T16:00:00,1719A,115.4747,35.2375,菏泽市,市政协,细颗粒物(PM2.5),77,47,42,56,47,111,111,83,83,16,26,7,7,0.5,0.5
2022-05-10T16:00:00,1721A,113.3819,40.1097,大同市,果树场(对照点),,40,40,59,16,40,142,90,78,78,9,38,10,20,0.5,0.6
2022-05-10T16:00:00,1723A,113.2994,40.0758,大同市,云冈宾馆,,25,14,74,8,41,132,80,74,74,13,38,7,33,0.2,0.4
2022-05-10T16:00:00,1724A,113.3444,40.0917,大同市,大同大学,,,,41,2,26,144,86,82,82,10,30,7,17,0.3,0.4
2022-05-10T16:00:00,1725A,113.2661,40.1269,大同市,安家小村,,29,18,90,3,27,140,91,85,85,11,31,15,35,0.5,0.7
2022-05-10T16:00:00,1726A,113.2711,40.0844,大同市,教育学院,,26,0,81,8,33,131,81,74,74,10,30,12,42,0.3,0.5
2022-05-10T16:00:00,1727A,113.1147,36.1547,长治市,清华站,,39,39,36,22,27,116,116,74,74,11,14,9,9,0.5,0.7
2022-05-10T16:00:00,1728A,113.1031,36.1989,长治市,监测站,,40,34,37,27,32,126,126,82,82,13,20,9,9,0.1,0.4
2022-05-10T16:00:00,1730A,113.0886,36.2125,长治市,审计局,,42,34,36,29,36,121,121,78,78,19,22,16,14,0.4,0.7
2022-05-10T16:00:00,1731A,113.0844,36.1856,长治市,长治八中,,42,38,42,29,25,117,117,68,68,18,25,9,9,0.6,0.9
2022-05-10T16:00:00,1733A,111.5531,36.0783,临汾市,临钢医院,细颗粒物(PM2.5),112,104,55,84,36,154,154,104,104,16,28,10,7,1.7,1.6
2022-05-10T16:00:00,1734A,111.5028,36.0714,临汾市,技工学校,细颗粒物(PM2.5),122,152,56,92,46,145,145,101,101,15,28,19,24,1.0,1.2
2022-05-10T16:00:00,1736A,111.5018,36.0855,临汾市,市委,细颗粒物(PM2.5),137,109,54,104,47,149,149,105,105,17,31,15,16,1.3,1.3
2022-05-10T16:00:00,1738A,113.5758,37.8572,阳泉市,市中心,颗粒物(PM10),64,78,73,33,33,147,79,104,104,52,41,29,24,1.0,0.7
2022-05-10T16:00:00,1739A,113.4894,37.8731,阳泉市,赛鱼,颗粒物(PM10),60,69,50,25,33,154,121,140,140,27,34,13,9,0.9,0.7
2022-05-10T16:00:00,1740A,113.5819,37.8486,阳泉市,南庄,,,,72,,40,142,85,123,123,45,35,36,20,,0.7
2022-05-10T16:00:00,1742A,113.5614,37.8703,阳泉市,平坦,颗粒物(PM10),90,129,68,57,39,144,62,103,103,45,37,14,19,1.0,0.6
2022-05-10T16:00:00,1743A,113.5158,37.8392,阳泉市,大阳泉,,47,47,34,15,33,151,127,114,114,32,28,16,10,0.7,0.6
2022-05-10T16:00:00,1744A,118.9233,42.2816,赤峰市,松山一中,颗粒物(PM10),60,69,32,24,16,135,94,115,115,18,15,11,13,0.6,0.7
2022-05-10T16:00:00,1745A,118.9576,42.2728,赤峰市,哈达街,,50,50,38,20,16,130,89,115,111,25,17,14,14,0.6,0.6
2022-05-10T16:00:00,1746A,118.8788,42.2554,赤峰市,天义路,颗粒物(PM10),51,52,28,24,15,145,91,126,124,17,12,8,10,0.5,0.6
2022-05-10T16:00:00,1748A,123.044,41.1196,鞍山市,深沟寺,颗粒物(PM10),65,80,66,46,39,149,94,106,106,28,25,14,17,1.1,1.3
2022-05-10T16:00:00,1749A,123.011,41.0931,鞍山市,太阳城,颗粒物(PM10),62,74,66,40,37,145,86,100,100,30,28,14,15,1.3,1.5
2022-05-10T16:00:00,1751A,122.9642,41.0971,鞍山市,铁西三道街,颗粒物(PM10),64,77,78,45,50,141,92,100,100,25,31,12,20,1.0,1.5
2022-05-10T16:00:00,1752A,122.9341,41.0833,鞍山市,铁西工业园区,颗粒物(PM10),58,65,69,40,42,146,97,104,104,20,26,15,21,0.8,1.2
2022-05-10T16:00:00,1753A,123.022,41.0821,鞍山市,明达新区,"颗粒物(PM10),细颗粒物(PM2.5)",62,74,64,44,36,144,91,104,104,25,26,13,18,0.9,1.1
2022-05-10T16:00:00,1754A,123.1289,41.0228,鞍山市,千山(对照点),,32,17,30,13,21,120,100,100,100,8,13,9,10,0.5,0.8
2022-05-10T16:00:00,1755A,123.7977,41.8491,抚顺市,望花区,颗粒物(PM10),68,85,93,14,42,123,103,98,98,9,24,9,21,0.4,0.9
2022-05-10T16:00:00,1756A,123.9161,41.8822,抚顺市,顺城区,颗粒物(PM10),54,58,87,13,41,124,108,97,97,15,37,8,15,0.5,0.9
2022-05-10T16:00:00,1757A,124.0436,41.8611,抚顺市,东洲区,,44,44,69,13,39,140,123,115,115,9,20,5,12,0.5,0.9
2022-05-10T16:00:00,1758A,123.9247,41.8642,抚顺市,新抚区,,,,91,20,46,136,112,104,104,12,41,8,16,0.6,0.9
2022-05-10T16:00:00,1759A,124.0972,41.8961,抚顺市,大伙房水库,,40,29,54,11,33,153,128,126,126,5,14,5,10,0.4,0.7
2022-05-10T16:00:00,1760A,123.7086,41.8391,抚顺市,沈抚新城,颗粒物(PM10),67,84,76,18,36,142,118,113,113,10,27,11,22,0.5,0.9
2022-05-10T16:00:00,1761A,123.8275,41.3064,本溪市,大峪,,43,43,67,6,24,137,117,111,111,9,37,12,17,0.4,1.1
2022-05-10T16:00:00,1762A,123.7567,41.3325,本溪市,溪湖,,35,35,71,11,34,154,104,108,108,25,36,58,17,1.2,1.2
2022-05-10T16:00:00,1763A,123.7169,41.3094,本溪市,彩屯,,43,43,79,12,40,149,109,107,107,15,32,18,18,1.0,1.3
2022-05-10T16:00:00,1764A,123.7669,41.2864,本溪市,东明,,,,66,24,34,136,116,117,117,9,41,10,18,0.6,1.2
2022-05-10T16:00:00,1765A,123.7992,41.2664,本溪市,新立屯,,37,30,45,12,20,133,116,118,118,4,25,10,12,0.5,0.9
2022-05-10T16:00:00,1766A,123.8142,41.3472,本溪市,威宁,,39,32,66,9,27,135,122,101,101,4,33,12,13,0.3,0.7
2022-05-10T16:00:00,1767A,121.1115,41.0879,锦州市,南山,,,56,56,43,45,125,97,96,96,7,15,13,12,,
2022-05-10T16:00:00,1768A,121.0533,40.8434,锦州市,开发区,"颗粒物(PM10),细颗粒物(PM2.5)",59,68,77,42,42,107,86,86,86,20,23,7,21,0.9,0.9
2022-05-10T16:00:00,1769A,121.1836,41.1119,锦州市,百股街道,,39,39,53,23,33,143,108,109,109,12,16,5,9,0.8,0.8
2022-05-10T16:00:00,1770A,121.1178,41.1222,锦州市,天安街道,"颗粒物(PM10),细颗粒物(PM2.5)",57,64,66,40,48,133,107,105,105,15,20,13,12,0.8,0.9
2022-05-10T16:00:00,1771A,121.1303,41.1386,锦州市,北湖公园,细颗粒物(PM2.5),52,52,55,36,39,132,107,104,104,13,17,11,11,0.7,0.7
2022-05-10T16:00:00,1772A,126.54,43.8622,吉林市,哈达湾,,43,30,36,10,20,141,136,132,132,5,12,5,6,0.4,0.5
2022-05-10T16:00:00,1773A,126.5844,43.8358,吉林市,东局子,颗粒物(PM10),55,59,42,13,23,140,130,128,128,8,17,3,4,0.5,0.6
2022-05-10T16:00:00,1774A,126.5052,43.8245,吉林市,电力学院,,,24,42,,,156,146,143,143,7,17,12,13,0.5,0.7
2022-05-10T16:00:00,1775A,126.6133,43.8972,吉林市,江北,,41,20,36,7,21,136,131,128,128,5,11,6,7,0.5,0.6
2022-05-10T16:00:00,1776A,126.555,43.8306,吉林市,江南公园,,40,27,34,17,22,135,127,123,123,6,12,5,6,0.4,0.5
2022-05-10T16:00:00,1778A,126.7061,43.7133,吉林市,丰满(对照点),,43,22,38,16,21,141,137,133,133,2,5,6,6,0.5,0.5
2022-05-10T16:00:00,1779A,123.9305,47.3636,齐齐哈尔市,安居小区,,32,32,67,12,15,111,93,92,90,10,13,3,4,0.4,0.4
2022-05-10T16:00:00,1780A,123.9488,47.3386,齐齐哈尔市,中心广场,,31,24,77,15,15,114,98,96,92,12,13,6,7,0.3,0.4
2022-05-10T16:00:00,1781A,123.9483,47.3227,齐齐哈尔市,农牧车辆厂,颗粒物(PM10),51,51,69,19,16,118,94,96,94,14,11,3,3,0.4,0.4
2022-05-10T16:00:00,1783A,123.945,47.2988,齐齐哈尔市,市环境监测站,,35,35,76,19,24,111,95,92,92,10,11,5,6,0.5,0.5
2022-05-10T16:00:00,1784A,129.61,44.561,牡丹江市,环保大楼,,40,25,32,6,13,129,127,122,122,7,18,3,3,0.3,0.4
2022-05-10T16:00:00,1785A,129.6115,44.5782,牡丹江市,文化广场,,38,8,30,9,19,123,121,116,116,9,26,3,4,0.2,0.4
2022-05-10T16:00:00,1786A,129.5904,44.5963,牡丹江市,第一医院,,,,,,38,126,121,116,116,8,19,4,5,0.5,0.7
2022-05-10T16:00:00,1788A,129.6386,44.5462,牡丹江市,第一中学,,,24,28,6,16,131,127,124,124,8,15,,2,0.3,0.3
2022-05-10T16:00:00,1789A,124.81117,46.03138,大庆市,大同区,颗粒物(PM10),72,94,53,15,14,132,121,116,116,9,6,3,4,0.4,0.6
2022-05-10T16:00:00,1790A,125.129,46.533,大庆市,龙凤区,颗粒物(PM10),61,71,56,9,14,116,115,107,107,11,10,6,6,0.3,0.3
2022-05-10T16:00:00,1791A,124.902,46.408,大庆市,红岗区,,50,50,44,11,12,118,118,98,98,5,5,3,2,0.4,0.5
2022-05-10T16:00:00,1792A,125.153,46.586,大庆市,萨尔图区,颗粒物(PM10),51,52,44,17,16,117,112,107,107,12,8,5,4,0.1,0.1
2022-05-10T16:00:00,1793A,124.9042,46.6215,大庆市,让胡路区,,47,47,54,27,18,125,125,112,112,8,8,9,8,0.3,0.3
2022-05-10T16:00:00,1794A,118.3606,31.3519,芜湖市,监测站,,46,46,36,30,21,107,61,107,68,38,27,10,8,1.0,0.6
2022-05-10T16:00:00,1795A,118.3714,31.4134,芜湖市,科创中心,颗粒物(PM10),53,55,38,29,23,84,60,79,62,36,30,9,7,1.2,0.7
2022-05-10T16:00:00,1796A,118.3673,31.3131,芜湖市,四水厂,,46,46,35,28,23,113,70,108,71,27,21,7,8,0.9,0.7
2022-05-10T16:00:00,1798A,118.5092,31.6837,马鞍山市,湖东路四小,,49,45,38,34,27,134,70,84,69,26,19,5,5,0.7,0.6
2022-05-10T16:00:00,1799A,118.5024,31.6449,马鞍山市,开发区,,46,46,43,27,19,108,71,78,65,26,25,8,9,0.8,0.8
2022-05-10T16:00:00,1800A,118.5228,31.7231,马鞍山市,慈湖,颗粒物(PM10),57,63,47,35,24,121,66,80,64,28,23,9,12,0.9,0.8
2022-05-10T16:00:00,1802A,118.6245,31.7241,马鞍山市,濮塘(对照点),,47,47,42,23,19,130,67,81,64,18,13,7,9,0.8,0.7
2022-05-10T16:00:00,1803A,115.9872,29.6815,九江市,十里,"颗粒物(PM10),细颗粒物(PM2.5)",52,54,34,36,22,100,100,79,79,16,18,6,4,0.6,0.6
2022-05-10T16:00:00,1804A,115.9584,29.7046,九江市,茅山头,细颗粒物(PM2.5),52,40,32,36,24,100,100,80,78,15,16,6,3,0.7,0.7
2022-05-10T16:00:00,1805A,115.9877,29.7295,九江市,西园,,,53,37,,20,93,93,75,70,21,21,7,5,0.4,0.5
2022-05-10T16:00:00,1806A,116.0172,29.6547,九江市,五七二七厂,颗粒物(PM10),52,53,31,27,14,71,63,66,62,7,5,6,5,0.5,0.5
2022-05-10T16:00:00,1808A,115.9114,29.6038,九江市,综合工业园,颗粒物(PM10),54,58,31,36,18,82,82,64,62,23,22,9,8,0.7,0.7
2022-05-10T16:00:00,1809A,116.0721,29.7535,九江市,石化总厂,细颗粒物(PM2.5),72,69,36,52,24,83,83,73,70,16,18,6,4,0.6,0.5
2022-05-10T16:00:00,1810A,115.9773,29.5698,九江市,庐山气象台(对照点),,24,10,9,13,9,102,76,99,78,5,5,6,6,0.3,0.5
2022-05-10T16:00:00,1812A,112.3931,34.6516,洛阳市,市委党校,,47,29,25,23,20,150,150,107,107,6,8,4,4,0.7,0.7
2022-05-10T16:00:00,1814A,112.4657,34.6871,洛阳市,豫西宾馆,,50,39,25,21,22,160,160,110,110,9,9,2,2,0.7,0.8
2022-05-10T16:00:00,1815A,112.494,34.6886,洛阳市,河南林校,,50,35,24,20,19,159,159,110,110,11,12,4,3,0.5,0.6
2022-05-10T16:00:00,1816A,112.3844,34.623,洛阳市,开发区管委会,,49,49,29,20,23,150,150,107,107,8,12,2,2,0.6,0.6
2022-05-10T16:00:00,1817A,112.4267,34.6258,洛阳市,市委新办公区,,46,33,23,21,20,146,146,99,99,9,10,4,3,0.5,0.5
2022-05-10T16:00:00,1818A,114.4839,36.0621,安阳市,棉研所(对照点),,37,37,34,25,19,105,105,69,69,10,16,5,4,0.7,0.6
2022-05-10T16:00:00,1819A,114.3551,36.1017,安阳市,红庙街,颗粒物(PM10),56,62,47,34,36,108,108,70,70,11,21,6,6,0.8,0.8
2022-05-10T16:00:00,1820A,114.361,36.0681,安阳市,银杏小区,,46,43,38,32,24,116,116,74,74,12,25,5,5,0.7,0.8
2022-05-10T16:00:00,1824A,114.3389,34.7781,开封市,肿瘤医院,细颗粒物(PM2.5),53,35,29,37,32,136,136,112,112,9,16,4,4,0.6,0.6
2022-05-10T16:00:00,1826A,114.2885,34.7965,开封市,世纪星幼儿园,,48,46,31,33,26,141,141,114,114,10,15,3,3,0.4,0.5
2022-05-10T16:00:00,1828A,113.2269,35.2127,焦作市,市环保局,细颗粒物(PM2.5),55,57,46,39,37,154,154,92,92,14,21,3,4,0.8,0.8
2022-05-10T16:00:00,1829A,113.2467,35.176,焦作市,高新区政府,,,35,55,,26,141,141,92,92,27,22,5,5,0.3,0.5
2022-05-10T16:00:00,1830A,113.1987,35.2703,焦作市,影视城(对照点),细颗粒物(PM2.5),64,51,62,46,47,128,128,78,78,12,22,6,12,0.7,0.8
2022-05-10T16:00:00,1832A,113.3257,33.742,平顶山市,新华旅馆,颗粒物(PM10),57,63,47,16,29,129,129,86,86,9,12,8,3,0.4,0.3
2022-05-10T16:00:00,1833A,113.2919,33.737,平顶山市,规划设计院,细颗粒物(PM2.5),59,63,46,42,26,123,123,83,83,16,16,4,4,0.6,0.5
2022-05-10T16:00:00,1834A,113.182,33.774,平顶山市,平顶山工学院,细颗粒物(PM2.5),68,58,46,49,43,130,130,88,88,20,23,2,4,0.7,0.6
2022-05-10T16:00:00,1835A,111.1922,34.7752,三门峡市,市政府,,45,31,22,17,13,144,141,104,104,16,22,7,7,0.7,0.8
2022-05-10T16:00:00,1836A,111.1587,34.7942,三门峡市,开发区,,42,25,20,16,17,134,134,101,101,7,13,6,7,0.8,0.8
2022-05-10T16:00:00,1838A,111.143,34.7955,三门峡市,风景区(对照点),,43,23,22,23,16,135,135,104,104,6,13,2,7,0.8,0.8
2022-05-10T16:00:00,1840A,111.2992,30.6981,宜昌市,白龙岗,,44,36,22,24,13,138,138,66,66,19,22,8,7,0.4,0.4
2022-05-10T16:00:00,1841A,111.3549,30.6465,宜昌市,伍家岗,细颗粒物(PM2.5),52,43,28,36,16,122,122,73,73,16,18,8,6,0.7,0.6
2022-05-10T16:00:00,1842A,111.2628,30.6961,宜昌市,点军区,,43,32,21,22,16,135,135,69,69,18,18,9,8,0.5,0.4
2022-05-10T16:00:00,1843A,111.3275,30.7819,宜昌市,夷陵区,,40,27,20,12,12,128,128,66,66,13,16,6,6,0.4,0.4
2022-05-10T16:00:00,1844A,112.2494,30.3197,荆州市,市图书馆,,41,34,33,12,21,129,129,97,97,9,12,6,5,0.6,0.6
2022-05-10T16:00:00,1845A,112.2008,30.3544,荆州市,市委党校,,41,15,30,15,29,129,129,95,95,9,12,9,8,0.7,0.6
2022-05-10T16:00:00,1847A,113.1094,29.3578,岳阳市,南湖风景区,颗粒物(PM10),51,51,43,26,31,69,69,53,53,17,20,6,6,0.8,0.8
2022-05-10T16:00:00,1848A,113.1493,29.4251,岳阳市,城陵矶,,38,35,37,26,28,63,63,53,48,24,22,9,8,0.7,0.7
2022-05-10T16:00:00,1849A,113.1497,29.3575,岳阳市,开发区,,42,42,39,27,24,66,60,58,48,21,16,6,6,0.7,0.6
2022-05-10T16:00:00,1850A,113.2621,29.4758,岳阳市,云溪区,,36,27,36,25,28,67,67,58,51,13,16,8,8,0.7,0.7
2022-05-10T16:00:00,1851A,112.9943,29.4402,岳阳市,君山区,,46,38,39,32,36,83,83,58,58,10,11,4,4,0.6,0.6
2022-05-10T16:00:00,1852A,113.2117,29.355,岳阳市,金凤水库(对照点),,38,35,37,26,29,67,63,50,46,14,14,5,5,0.5,0.5
2022-05-10T16:00:00,1854A,111.6975,28.9703,常德市,市二中,,,35,26,,18,105,105,86,86,7,9,5,5,0.6,0.7
2022-05-10T16:00:00,1857A,111.7158,29.1456,常德市,白鹤山(对照点),,42,27,23,29,27,105,105,87,87,7,9,6,4,0.7,0.7
2022-05-10T16:00:00,1858A,110.5319,29.1217,张家界市,永定新区,,,8,10,7,8,104,94,83,83,,10,,2,0.5,0.7
2022-05-10T16:00:00,1859A,110.4697,29.1242,张家界市,电业局,,23,5,7,7,7,76,72,62,62,8,10,2,3,0.2,0.3
2022-05-10T16:00:00,1860A,110.5594,29.3547,张家界市,未央路,,28,6,7,3,7,90,87,80,80,6,7,1,3,0.5,0.5
2022-05-10T16:00:00,1861A,110.4417,29.315,张家界市,袁家界(对照点),,29,12,7,2,6,93,92,85,83,7,8,6,6,0.4,0.4
2022-05-10T16:00:00,1862A,110.4144,25.3167,桂林市,电子科大尧山校区(对照点),,19,3,8,6,7,67,58,60,60,4,4,5,5,0.7,0.6
2022-05-10T16:00:00,1863A,110.2819,25.2697,桂林市,监测站,,20,13,17,6,12,69,61,60,60,8,15,3,4,0.6,0.6
2022-05-10T16:00:00,1864A,110.3089,25.2708,桂林市,龙隐路小学,,21,4,16,11,12,72,66,65,65,7,13,5,6,0.5,0.6
2022-05-10T16:00:00,1865A,110.2869,25.2178,桂林市,八中,,,16,17,2,10,60,58,54,54,,15,5,7,0.7,0.8
2022-05-10T16:00:00,1866A,109.2262,21.588,北海市,牛尾岭水库(对照点),,15,15,22,9,9,62,38,41,31,4,6,8,6,0.4,0.5
2022-05-10T16:00:00,1867A,109.1436,21.4086,北海市,海滩公园,,17,9,25,5,6,80,53,48,43,2,3,3,4,0.5,0.5
2022-05-10T16:00:00,1868A,109.0981,21.4661,北海市,新市环保局,,15,12,21,7,11,72,47,45,38,3,4,4,4,0.5,0.6
2022-05-10T16:00:00,1869A,109.1778,21.5233,北海市,北海工业园,,14,12,25,7,12,76,44,48,38,4,4,4,5,0.6,0.6
2022-05-10T16:00:00,1870A,109.4856,24.3895,柳州市,柳东小学,,35,13,24,24,24,81,73,60,60,5,10,6,6,0.9,0.9
2022-05-10T16:00:00,1871A,109.4157,24.3277,柳州市,环保监测站,,26,15,21,18,23,64,54,44,44,20,20,4,4,1.3,1
2022-05-10T16:00:00,1872A,109.389,24.341,柳州市,河西水厂,,48,37,35,33,28,68,56,46,46,24,21,12,10,1.2,0.8
2022-05-10T16:00:00,1873A,109.4311,24.2921,柳州市,市四中,,38,38,38,16,22,71,52,45,45,23,20,6,6,1.1,0.9
2022-05-10T16:00:00,1874A,109.4006,24.3631,柳州市,市九中,,,19,29,,2,64,64,45,45,12,19,5,5,0.8,0.9
2022-05-10T16:00:00,1875A,109.4958,24.3134,柳州市,古亭山,,25,17,27,17,20,56,48,45,36,17,17,5,4,1.0,0.8
2022-05-10T16:00:00,1876A,109.5078,18.2489,三亚市,河东子站,,14,13,16,7,9,52,44,46,46,4,4,2,2,0.4,0.4
2022-05-10T16:00:00,1877A,109.4964,18.2681,三亚市,河西子站,,26,26,20,8,10,57,44,45,45,2,4,2,2,0.2,0.2
2022-05-10T16:00:00,1878A,104.7778,31.4741,绵阳市,富乐山,,50,50,38,29,26,169,158,116,116,9,12,16,14,0.5,0.5
2022-05-10T16:00:00,1879A,104.7563,31.4535,绵阳市,市人大,细颗粒物(PM2.5),59,52,54,42,32,153,139,104,104,18,30,13,13,0.5,0.6
2022-05-10T16:00:00,1880A,104.6697,31.4668,绵阳市,高新区自来水公司,,47,43,60,31,34,155,150,109,109,9,31,2,2,0.7,0.7
2022-05-10T16:00:00,1881A,104.7287,31.5075,绵阳市,三水厂,,,,60,,31,173,160,111,111,17,33,10,11,0.6,0.6
2022-05-10T16:00:00,1882A,104.563,28.793,宜宾市,石马中学(对照点),,39,20,34,19,25,124,124,89,89,3,12,7,10,0.6,0.7
2022-05-10T16:00:00,1883A,104.6201,28.7728,宜宾市,市委,,41,22,38,16,28,130,130,88,88,7,19,11,10,0.4,0.6
2022-05-10T16:00:00,1884A,104.6055,28.793,宜宾市,宜宾四中,,40,19,35,15,28,125,125,90,90,9,17,7,11,0.5,0.6
2022-05-10T16:00:00,1885A,104.639,28.7562,宜宾市,市政府,,41,30,36,19,27,131,131,84,84,8,19,8,10,0.5,0.7
2022-05-10T16:00:00,1886A,104.5742,28.7199,宜宾市,黄金嘴,,38,25,34,18,24,121,121,86,86,5,15,10,8,0.5,0.6
2022-05-10T16:00:00,1888A,101.6891,26.571,攀枝花市,弄弄坪,,50,27,34,33,20,160,157,101,101,14,17,14,7,1.5,1.4
2022-05-10T16:00:00,1889A,101.5769,26.5928,攀枝花市,河门口,,45,42,28,25,15,143,143,99,99,26,16,29,11,2.3,1.1
2022-05-10T16:00:00,1890A,101.7169,26.585,攀枝花市,炳草岗,,50,36,27,13,20,158,158,108,108,12,14,22,13,0.8,0.6
2022-05-10T16:00:00,1891A,101.7369,26.5008,攀枝花市,仁和,,45,30,29,22,20,146,141,111,111,11,13,19,14,1.0,1
2022-05-10T16:00:00,1893A,105.4324,28.9634,泸州市,九狮山(对照点),,39,16,33,8,12,122,122,89,89,10,14,5,5,0.4,0.5
2022-05-10T16:00:00,1894A,105.4427,28.9063,泸州市,小市上码头,,37,17,36,10,11,118,118,87,87,5,15,6,11,0.4,0.6
2022-05-10T16:00:00,1895A,105.4241,28.8573,泸州市,兰田宪桥,,38,19,35,10,12,123,121,99,99,9,14,8,12,0.5,0.5
2022-05-10T16:00:00,1896A,105.4379,28.8833,泸州市,市环监站,,35,15,35,6,14,114,111,83,83,7,16,4,7,0.4,0.5
2022-05-10T16:00:00,1901A,104.4239,31.1208,德阳市,东山公园,,,55,50,,27,177,177,120,120,10,18,5,7,0.5,0.6
2022-05-10T16:00:00,1902A,104.3826,31.1317,德阳市,西小区,臭氧1小时,82,62,66,34,32,188,185,135,135,16,38,7,8,0.6,0.7
2022-05-10T16:00:00,1904A,104.3553,31.1091,德阳市,耐火材料厂,臭氧1小时,103,69,67,36,34,210,206,138,138,17,40,7,8,0.4,0.5
2022-05-10T16:00:00,1905A,106.056,30.8064,南充市,西山风景区(对照点),,50,36,44,35,39,131,124,98,98,11,13,2,4,0.7,0.8
2022-05-10T16:00:00,1906A,106.0789,30.8023,南充市,南充市委,细颗粒物(PM2.5),60,45,55,43,39,133,124,98,98,5,14,3,4,0.6,0.7
2022-05-10T16:00:00,1907A,106.1031,30.8217,南充市,南充炼油厂,"颗粒物(PM10),细颗粒物(PM2.5)",57,64,55,40,32,160,148,115,115,11,12,1,2,0.5,0.6
2022-05-10T16:00:00,1908A,106.1064,30.7856,南充市,高坪区监测站,细颗粒物(PM2.5),57,38,45,40,37,133,111,99,99,12,11,2,11,0.4,0.6
2022-05-10T16:00:00,1909A,106.0642,30.7636,南充市,嘉陵区环保局,,36,24,43,24,39,117,115,100,100,4,9,4,18,0.4,0.6
2022-05-10T16:00:00,1910A,106.1087,30.8388,南充市,市环境监测站,,41,41,47,28,36,131,131,99,99,6,15,4,4,0.4,0.5
2022-05-10T16:00:00,1911A,106.9222,27.6869,遵义市,丁字口,,30,18,23,5,10,101,94,91,91,9,10,4,5,0.8,0.8
2022-05-10T16:00:00,1912A,106.9242,27.7019,遵义市,凤凰山,,29,6,11,6,10,99,92,88,88,7,9,5,5,0.7,0.6
2022-05-10T16:00:00,1913A,106.8906,27.6486,遵义市,忠庄,,31,6,14,7,9,108,99,96,96,7,9,3,2,0.4,0.4
2022-05-10T16:00:00,1914A,106.9231,27.6506,遵义市,舟水桥,,29,9,12,5,8,93,92,85,85,6,14,1,1,0.4,0.4
2022-05-10T16:00:00,1915A,106.9178,27.72,遵义市,干田坝,,30,5,14,9,10,99,93,91,91,7,9,5,5,0.8,0.8
2022-05-10T16:00:00,1916A,103.7897,25.5035,曲靖市,环境监测站,,45,28,26,9,12,164,144,128,128,12,20,8,15,0.6,0.8
2022-05-10T16:00:00,1917A,103.8,25.5364,曲靖市,烟厂办公区,臭氧1小时,60,20,18,13,10,184,168,150,150,7,15,5,11,0.6,0.7
2022-05-10T16:00:00,1918A,108.7197,34.3956,咸阳市,气象站(对照点),颗粒物(PM10),55,60,39,21,17,136,136,90,90,14,19,6,6,0.8,0.8
2022-05-10T16:00:00,1919A,108.673,34.3155,咸阳市,实验中学,颗粒物(PM10),51,52,33,27,19,146,146,92,92,17,21,3,4,0.5,0.5
2022-05-10T16:00:00,1920A,108.7233,34.3617,咸阳市,师范学院,,48,43,30,22,16,151,151,97,97,17,19,4,4,0.9,0.9
2022-05-10T16:00:00,1922A,109.0656,35.0994,铜川市,党校(对照点),,42,37,35,29,21,96,96,66,66,23,21,7,6,1.0,1
2022-05-10T16:00:00,1923A,109.0697,35.0697,铜川市,王益区政府,,36,36,43,23,28,103,103,70,70,18,22,5,6,0.7,0.8
2022-05-10T16:00:00,1924A,108.9344,34.9058,铜川市,新区管委会,,37,24,41,20,30,116,116,80,80,11,20,5,5,0.7,0.9
2022-05-10T16:00:00,1926A,109.4131,36.6275,延安市,枣园(对照点),,42,16,18,10,9,133,133,97,97,8,18,4,4,0.4,0.5
2022-05-10T16:00:00,1927A,109.4761,36.6028,延安市,延大医附院,,44,26,20,9,7,140,140,102,102,8,16,3,3,0.3,0.4
2022-05-10T16:00:00,1929A,109.5056,36.6106,延安市,百米大道,,41,34,22,10,10,130,130,94,94,11,17,2,5,0.6,0.7
2022-05-10T16:00:00,1930A,107.185,34.3063,宝鸡市,庙沟村(对照点),,40,40,32,19,21,102,102,71,66,7,7,4,4,0.7,0.8
2022-05-10T16:00:00,1931A,107.0708,34.3017,宝鸡市,竹园沟,,36,34,36,25,35,103,85,74,66,12,16,5,5,0.8,0.9
2022-05-10T16:00:00,1933A,107.1431,34.3547,宝鸡市,监测站,,35,30,34,20,23,110,110,84,84,16,17,4,4,0.8,0.9
2022-05-10T16:00:00,1934A,107.1186,34.3739,宝鸡市,技工学校,细颗粒物(PM2.5),92,42,37,68,42,107,107,88,83,16,16,4,4,0.7,0.8
2022-05-10T16:00:00,1935A,107.3906,34.3528,宝鸡市,陈仓区环保局家属楼,,36,36,40,10,12,105,102,82,82,12,16,5,5,0.8,0.8
2022-05-10T16:00:00,1936A,107.2058,34.3497,宝鸡市,文理学院,,45,45,42,17,26,127,127,89,89,19,19,6,6,0.5,0.6
2022-05-10T16:00:00,1937A,107.2386,34.3622,宝鸡市,三迪小学,,39,36,42,20,28,123,123,92,92,17,18,7,7,0.6,0.7
2022-05-10T16:00:00,1938A,109.5293,34.5101,渭南市,农科所(对照点),,42,31,29,22,22,133,133,91,91,21,23,6,6,0.6,0.5
2022-05-10T16:00:00,1939A,109.4974,34.4877,渭南市,日报社,,46,41,31,24,23,145,145,96,96,4,20,8,8,0.7,0.7
2022-05-10T16:00:00,1940A,109.4636,34.493,渭南市,体育馆,,49,36,33,24,21,154,154,102,102,11,24,7,7,0.7,0.7
2022-05-10T16:00:00,1941A,109.4259,34.5023,渭南市,高新一小,,43,37,36,24,24,135,135,90,90,11,17,4,4,0.7,0.7
2022-05-10T16:00:00,1943A,102.1725,38.5339,金昌市,新川苑,颗粒物(PM10),382,485,419,106,86,127,125,106,106,12,17,16,17,0.3,0.4
2022-05-10T16:00:00,1944A,102.1692,38.5167,金昌市,天庆家园,颗粒物(PM10),296,417,362,98,85,116,116,97,97,9,15,8,10,0.4,0.5
2022-05-10T16:00:00,1945A,98.2908,39.7711,嘉峪关市,气象局,颗粒物(PM10),108,166,113,44,26,137,112,103,103,4,12,5,5,0.4,0.7
2022-05-10T16:00:00,1947A,106.3394,38.817,石嘴山市,沙湖旅游区(对照点),颗粒物(PM10),82,113,153,47,29,156,117,99,99,10,28,39,38,0.5,0.6
2022-05-10T16:00:00,1948A,106.3668,39.0145,石嘴山市,大武口朝阳西街,颗粒物(PM10),60,70,121,36,41,152,104,96,96,6,19,5,12,0,0.2
2022-05-10T16:00:00,1949A,106.7704,39.2282,石嘴山市,惠农南大街,颗粒物(PM10),54,57,141,22,27,151,108,99,95,14,22,16,18,0.6,0.6
2022-05-10T16:00:00,1950A,106.7099,39.1325,石嘴山市,红果子镇惠新街,,45,45,141,29,34,136,99,86,86,11,24,17,18,0.3,0.4
2022-05-10T16:00:00,1951A,84.895,45.6094,克拉玛依市,长征新村,,32,21,36,1,7,107,100,82,82,5,12,5,5,0.2,0.2
2022-05-10T16:00:00,1952A,84.8988,45.5893,克拉玛依市,南林小区,,33,19,30,10,19,111,104,84,84,7,20,7,7,0.3,0.4
2022-05-10T16:00:00,1954A,84.905,44.3396,克拉玛依市,独山子区,颗粒物(PM10),56,61,46,19,14,145,145,90,90,11,14,15,7,0.5,0.5
2022-05-10T16:00:00,1955A,85.6979,46.098,克拉玛依市,乌尔禾区商贸楼,,32,15,24,3,7,102,102,71,71,1,12,9,9,0.2,0.2
2022-05-10T16:00:00,1956A,86.1472,41.7538,巴音郭楞州,孔雀公园,颗粒物(PM10),66,81,86,20,21,119,119,88,88,5,26,2,2,0.4,0.5
2022-05-10T16:00:00,1957A,86.1972,41.7166,巴音郭楞州,棉纺厂,,48,48,65,27,25,111,105,78,78,7,21,4,4,0.3,0.4
2022-05-10T16:00:00,1958A,86.2357,41.7173,巴音郭楞州,经济开发区,颗粒物(PM10),54,58,77,13,24,111,111,90,90,4,12,2,2,0.5,0.5
2022-05-10T16:00:00,1961A,117.532,36.6868,济南市,东山小学,细颗粒物(PM2.5),59,61,90,42,66,120,120,96,96,15,39,8,8,0.4,0.8
2022-05-10T16:00:00,1966A,120.0405,35.8735,青岛市,黄岛区4号,,30,24,14,14,7,114,96,102,99,17,13,5,5,0.3,0.3
2022-05-10T16:00:00,1982A,122.0693,37.2174,威海市,文登开发区,,,34,34,9,16,120,93,101,101,17,15,,5,0.1,0.1
2022-05-10T16:00:00,2031A,113.1817,27.9958,株洲市,云田中学,,40,39,36,28,27,133,49,43,43,16,20,4,4,0.8,0.6
2022-05-10T16:00:00,2054A,114.1099,32.1059,信阳市,平桥分局,,49,37,42,34,28,74,74,46,46,21,20,7,7,0.6,0.7
2022-05-10T16:00:00,2064A,113.9956,32.1271,信阳市,南湾水厂,颗粒物(PM10),59,67,59,27,27,90,90,53,53,16,17,6,6,0.5,0.6
2022-05-10T16:00:00,2065A,114.0775,32.1195,信阳市,市酿酒公司,,40,40,50,25,28,86,86,51,51,19,21,5,5,0.6,0.6
2022-05-10T16:00:00,2066A,114.0609,32.1399,信阳市,审计局,细颗粒物(PM2.5),72,49,49,52,48,93,93,52,52,16,19,5,5,0.4,0.5
2022-05-10T16:00:00,2067A,114.6613,33.6128,周口市,市环境监测站,细颗粒物(PM2.5),62,67,56,44,46,104,104,72,72,11,14,8,8,0.7,0.8
2022-05-10T16:00:00,2068A,114.6758,33.6347,周口市,周口师范,"颗粒物(PM10),细颗粒物(PM2.5)",52,53,52,36,34,97,97,66,66,12,15,7,7,0.6,0.7
2022-05-10T16:00:00,2069A,114.6546,33.5979,周口市,市运管处,颗粒物(PM10),73,96,65,38,37,100,100,71,71,11,14,5,5,0.6,0.7
2022-05-10T16:00:00,2070A,114.6369,33.6406,周口市,川汇区环保局,细颗粒物(PM2.5),69,49,45,50,44,104,104,70,70,13,16,2,4,0.7,0.8
2022-05-10T16:00:00,2075A,117.6336,24.4674,漳州市,九湖(对照点),,33,33,36,14,22,83,53,47,47,16,17,7,8,0.5,0.5
2022-05-10T16:00:00,2160A,112.85,35.5051,晋城市,自来水公司,,47,36,38,9,24,150,150,102,102,13,17,9,5,0.8,0.9
2022-05-10T16:00:00,2161A,112.8318,35.4936,晋城市,白云商贸,颗粒物(PM10),57,64,38,22,21,156,156,110,110,15,15,7,3,0.7,0.9
2022-05-10T16:00:00,2162A,112.8508,35.4887,晋城市,市环保局,细颗粒物(PM2.5),62,43,30,44,27,148,148,104,104,13,17,11,5,0.8,0.9
2022-05-10T16:00:00,2163A,112.8676,35.4897,晋城市,技术学院,颗粒物(PM10),67,84,44,12,21,139,139,97,97,12,16,7,3,0.8,0.9
2022-05-10T16:00:00,2165A,112.8453,35.546,晋城市,白马寺 (对照点),颗粒物(PM10),58,66,34,22,16,161,161,107,107,14,15,5,4,0.8,1
2022-05-10T16:00:00,2166A,112.4397,39.3522,朔州市,平朔,,,39,61,,47,138,118,110,110,17,27,3,2,0.5,0.6
2022-05-10T16:00:00,2167A,112.4575,39.3617,朔州市,朔唯,,37,36,68,22,47,138,118,106,106,15,31,2,4,0.6,0.7
2022-05-10T16:00:00,2168A,112.4258,39.3197,朔州市,区政府,,48,48,57,19,27,139,122,115,115,17,22,3,9,0.6,0.4
2022-05-10T16:00:00,2169A,112.4072,39.3278,朔州市,市环保局,颗粒物(PM10),56,62,64,19,26,135,118,112,112,21,24,8,9,0.4,0.5
2022-05-10T16:00:00,2170A,112.4272,39.3681,朔州市,市二中,,,39,75,22,43,136,117,107,107,14,26,,7,0.3,0.4
2022-05-10T16:00:00,2171A,112.7532,37.6945,晋中市,锦纶小区,,,,74,52,45,159,159,103,103,,28,10,8,0.6,0.6
2022-05-10T16:00:00,2173A,112.7249,37.7067,晋中市,南都小区,细颗粒物(PM2.5),73,63,68,53,49,165,165,119,119,19,31,4,8,0.5,0.6
2022-05-10T16:00:00,2174A,112.6991,37.6982,晋中市,榆次区政府,"颗粒物(PM10),臭氧1小时",59,68,72,40,52,167,167,107,107,17,29,5,5,0.4,0.5
2022-05-10T16:00:00,2175A,110.9956,35.0147,运城市,运城中学,,43,36,23,28,21,135,135,101,101,8,11,5,5,0.7,0.7
2022-05-10T16:00:00,2178A,110.9686,35.0303,运城市,地区技校,,43,25,22,18,16,135,135,101,101,6,10,3,4,0.8,0.8
2022-05-10T16:00:00,2179A,111.0414,35.1147,运城市,空港新区,,45,31,34,26,27,141,141,96,96,9,15,5,5,0.8,0.9
2022-05-10T16:00:00,2181A,112.7383,38.4519,忻州市,开发区,细颗粒物(PM2.5),140,138,76,107,62,153,153,106,106,23,31,12,24,0.6,0.9
2022-05-10T16:00:00,2182A,112.7003,38.4928,忻州市,会展中心,细颗粒物(PM2.5),90,104,70,67,45,144,142,97,97,34,33,13,13,0.7,0.8
2022-05-10T16:00:00,2183A,111.1406,37.5211,吕梁市,环保局,,,34,48,11,15,127,123,98,98,,34,,9,0.6,0.6
2022-05-10T16:00:00,2185A,111.1297,37.5136,吕梁市,自来水公司,,39,33,46,16,15,123,123,93,93,17,33,5,6,0.5,0.7
2022-05-10T16:00:00,2187A,106.8174,39.6973,乌海市,市林业局,,36,26,100,9,30,173,115,107,107,3,18,5,19,0.4,0.7
2022-05-10T16:00:00,2188A,106.7907,39.6667,乌海市,中海勃湾学校,,34,19,108,13,33,182,107,101,101,6,27,9,16,0.3,0.7
2022-05-10T16:00:00,2191A,122.2532,43.6801,通辽市,艺术职业学校,颗粒物(PM10),90,130,73,40,24,139,128,125,125,16,15,6,7,0.0,0.3
2022-05-10T16:00:00,2192A,119.7594,49.2261,呼伦贝尔市,区环保局,,40,40,62,18,26,115,70,86,70,7,6,4,4,0.3,0.4
2022-05-10T16:00:00,2195A,107.4212,40.761,巴彦淖尔市,附二中,,34,34,114,12,29,121,108,96,96,4,11,4,6,0.3,0.5
2022-05-10T16:00:00,2196A,107.37,40.7372,巴彦淖尔市,市环保大楼,,42,42,134,16,35,119,107,96,96,4,3,5,7,0.3,0.4
2022-05-10T16:00:00,2197A,113.1306,40.9923,乌兰察布市,集宁新区,,30,15,52,10,31,146,95,91,90,9,17,10,10,0.3,0.4
2022-05-10T16:00:00,2200A,122.0392,46.0656,兴安盟,胜华新制药厂,,41,41,54,24,16,114,76,92,86,6,6,2,4,0.2,0.2
2022-05-10T16:00:00,2201A,121.9504,46.0741,兴安盟,科右前旗环保局,,41,41,47,28,20,120,77,94,90,7,8,4,4,0.2,0.2
2022-05-10T16:00:00,2202A,116.1042,43.9317,锡林郭勒盟,市环保监测站,,23,12,38,16,11,119,69,68,64,6,5,10,9,0.7,0.6
2022-05-10T16:00:00,2203A,116.0781,43.9311,锡林郭勒盟,市政府,,22,16,33,5,14,120,69,69,66,10,8,7,7,0.5,0.5
2022-05-10T16:00:00,2204A,105.6467,38.8363,阿拉善盟,西城区西花园(对照点),颗粒物(PM10),69,88,87,26,30,160,126,142,125,4,7,6,7,0.1,0.1
2022-05-10T16:00:00,2205A,105.6985,38.8411,阿拉善盟,蒙二幼,颗粒物(PM10),67,83,81,16,27,138,109,125,108,4,9,9,10,0.3,0.3
2022-05-10T16:00:00,2206A,105.724,38.8516,阿拉善盟,环保局新楼,颗粒物(PM10),55,59,59,22,29,130,100,126,106,5,7,6,7,0.3,0.3
2022-05-10T16:00:00,2207A,121.6094,41.998,阜新市,工业园区,颗粒物(PM10),86,121,82,18,31,136,121,124,124,13,16,6,15,0.5,0.5
2022-05-10T16:00:00,2208A,121.6697,42.0279,阜新市,长青街,颗粒物(PM10),57,64,55,14,25,121,104,106,106,10,14,9,20,0.6,0.5
2022-05-10T16:00:00,2209A,121.6673,42.0705,阜新市,农业园区,颗粒物(PM10),74,97,60,27,34,132,110,110,110,7,14,7,13,0.6,0.6
2022-05-10T16:00:00,2210A,121.6717,42.0224,阜新市,东苑,颗粒物(PM10),76,101,80,28,28,122,109,111,111,15,18,6,13,0.8,0.7
2022-05-10T16:00:00,2211A,121.6506,42.0498,阜新市,玉龙新城,颗粒物(PM10),66,81,62,13,23,123,103,102,102,7,11,9,15,0.4,0.6
2022-05-10T16:00:00,2212A,123.2,41.1953,辽阳市,宏伟区,,46,46,51,27,25,138,88,103,103,31,29,14,18,0.7,0.8
2022-05-10T16:00:00,2213A,123.1683,41.2495,辽阳市,新华园,细颗粒物(PM2.5),62,71,65,44,39,140,94,106,106,35,32,17,19,1.1,1
2022-05-10T16:00:00,2214A,123.2354,41.2639,辽阳市,滨河路,细颗粒物(PM2.5),64,72,59,46,43,142,101,110,110,28,25,15,15,0.7,0.7
2022-05-10T16:00:00,2215A,123.149,41.2991,辽阳市,铁西工业园,细颗粒物(PM2.5),108,64,74,81,46,143,94,106,104,35,38,19,21,1.3,1.3
2022-05-10T16:00:00,2216A,123.8139,42.3022,铁岭市,汇工街西,颗粒物(PM10),67,83,67,15,29,147,129,125,125,18,32,9,15,0.4,0.7
2022-05-10T16:00:00,2217A,123.8649,42.2923,铁岭市,水上乐园,颗粒物(PM10),52,54,68,7,28,152,138,133,133,12,31,9,20,0.2,0.6
2022-05-10T16:00:00,2218A,123.8486,42.2867,铁岭市,银州路东段,颗粒物(PM10),62,73,68,18,31,150,141,136,136,16,31,8,14,0.4,0.8
2022-05-10T16:00:00,2219A,123.7153,42.2217,铁岭市,金沙江路北,颗粒物(PM10),54,58,61,15,28,144,128,120,120,16,34,6,14,0.5,0.9
2022-05-10T16:00:00,2220A,120.4318,41.5881,朝阳市,西梁,颗粒物(PM10),60,70,44,38,28,128,113,114,114,9,10,9,11,0.9,0.7
2022-05-10T16:00:00,2221A,120.4521,41.5646,朝阳市,河畔小区,颗粒物(PM10),63,76,50,39,30,130,116,117,117,9,7,7,11,0.7,0.6
2022-05-10T16:00:00,2222A,120.4176,41.5648,朝阳市,八里堡,细颗粒物(PM2.5),90,106,56,67,39,122,106,109,109,9,11,8,11,0.9,0.8
2022-05-10T16:00:00,2223A,120.3806,41.5969,朝阳市,农业园区,颗粒物(PM10),56,62,64,37,36,128,115,116,116,12,19,7,9,0.9,0.8
2022-05-10T16:00:00,2225A,124.4002,43.1713,四平市,一商场,颗粒物(PM10),61,72,53,23,25,148,143,132,132,12,19,11,12,0.4,0.4
2022-05-10T16:00:00,2226A,124.388,43.193,四平市,境园,颗粒物(PM10),88,126,58,17,24,157,149,141,141,9,19,14,15,0.4,0.4
2022-05-10T16:00:00,2227A,125.1358,42.8845,辽源市,环保局,,40,12,29,4,21,142,128,126,126,5,14,8,8,0.3,0.6
2022-05-10T16:00:00,2229A,125.9358,41.7173,通化市,光明,,41,25,30,9,14,130,129,112,112,5,16,8,10,0.4,0.6
2022-05-10T16:00:00,2230A,125.9446,41.7325,通化市,铁路,,40,26,35,15,20,130,126,110,110,7,21,7,15,0.3,0.7
2022-05-10T16:00:00,2231A,126.4219,41.9171,白山市,喜丰,,40,38,84,11,20,147,128,114,114,5,33,8,14,0.3,0.6
2022-05-10T16:00:00,2232A,126.4077,41.9419,白山市,环保局,,38,26,45,4,18,137,120,111,111,9,24,9,10,1.0,0.6
2022-05-10T16:00:00,2233A,124.8006,45.1214,松原市,江南,颗粒物(PM10),108,166,69,26,16,138,132,129,129,12,10,3,3,0.3,0.2
2022-05-10T16:00:00,2234A,124.7965,45.1722,松原市,江北,颗粒物(PM10),103,156,60,10,19,132,129,124,124,9,10,2,2,0.4,0.3
2022-05-10T16:00:00,2235A,122.7911,45.6077,白城市,洮北区环保局,,,49,53,,,127,93,104,90,9,11,3,4,0.3,0.3
2022-05-10T16:00:00,2236A,122.8738,45.5725,白城市,市环保局,,,48,55,27,22,90,52,71,61,,16,5,5,0.3,0.3
2022-05-10T16:00:00,2237A,129.47,42.8883,延边朝鲜族自治州,妇幼医院,,42,42,31,11,14,125,124,111,111,4,14,6,6,0.4,0.4
2022-05-10T16:00:00,2238A,129.5055,42.9108,延边朝鲜族自治州,延边医院,,43,43,41,11,21,121,119,109,109,8,20,8,9,0.4,0.6
2022-05-10T16:00:00,2239A,129.3964,42.8881,延边朝鲜族自治州,朝阳川镇医院,,48,48,39,9,18,131,127,117,117,4,15,7,7,0.5,0.5
2022-05-10T16:00:00,2240A,130.9762,45.3001,鸡西市,环保局,,38,24,34,14,18,128,121,122,122,17,26,3,4,0.2,0.3
2022-05-10T16:00:00,2243A,130.9429,45.3039,鸡西市,第一中学,,42,25,41,6,20,135,133,131,131,13,17,5,7,0.2,0.2
2022-05-10T16:00:00,2244A,130.2537,47.3416,鹤岗市,哈啤分公司,颗粒物(PM10),62,74,44,13,20,152,152,134,134,10,13,13,13,0.4,0.4
2022-05-10T16:00:00,2245A,130.2684,47.3086,鹤岗市,斯达机电,颗粒物(PM10),70,90,58,18,21,170,142,124,124,8,13,7,10,0.3,0.4
2022-05-10T16:00:00,2246A,130.3114,47.3388,鹤岗市,东山纸板厂,颗粒物(PM10),101,151,56,21,22,133,133,120,120,9,19,9,10,0.3,0.4
2022-05-10T16:00:00,2247A,130.1097,47.3382,鹤岗市,五号水库(对照点),,43,13,28,10,17,137,135,126,126,5,9,6,5,0.3,0.3
2022-05-10T16:00:00,2248A,131.1511,46.6937,双鸭山市,双合村,,46,34,54,20,27,184,145,152,152,8,12,4,7,0.4,0.5
2022-05-10T16:00:00,2249A,131.1652,46.6191,双鸭山市,南小市,,43,27,54,14,22,138,137,134,134,6,9,5,5,0.4,0.4
2022-05-10T16:00:00,2250A,131.1524,46.6554,双鸭山市,环保局,,45,25,36,15,19,150,144,144,144,10,11,6,7,0.6,0.5
2022-05-10T16:00:00,2251A,131.12,46.5656,双鸭山市,苗圃(对照点),,47,18,30,19,22,165,150,152,152,5,6,2,2,0.5,0.5
2022-05-10T16:00:00,2252A,128.5159,47.4311,伊春市,环保局,,47,47,48,20,31,156,143,122,122,8,12,6,7,0.4,0.5
2022-05-10T16:00:00,2253A,128.9102,47.7412,伊春市,电力嘉园,颗粒物(PM10),51,51,56,20,32,176,157,138,138,9,11,4,6,0.4,0.4
2022-05-10T16:00:00,2255A,130.2751,46.8028,佳木斯市,佳纺,,,,22,,26,121,,105,,,10,,3,,0.5
2022-05-10T16:00:00,2256A,130.3995,46.8307,佳木斯市,发电厂,,45,44,43,19,24,152,142,144,144,7,12,6,6,0.4,0.3
2022-05-10T16:00:00,2257A,130.3258,46.7975,佳木斯市,环保局,,45,37,42,21,25,150,142,142,142,9,11,4,5,0.4,0.4
2022-05-10T16:00:00,2258A,130.3648,46.8032,佳木斯市,十一中,颗粒物(PM10),55,59,50,20,29,141,130,132,132,13,16,2,3,0.4,0.4
2022-05-10T16:00:00,2259A,130.3794,46.7588,佳木斯市,四丰(对照点),,45,27,32,20,24,151,141,143,143,5,7,4,4,0.3,0.4
2022-05-10T16:00:00,2262A,131.0518,45.8751,七台河市,新一中(对照点),,46,22,31,14,17,146,145,144,144,8,12,7,10,0.6,0.6
2022-05-10T16:00:00,2263A,127.4833,50.2524,黑河市,交通局,,,,38,,20,116,97,93,93,7,11,1,5,0.4,0.5
2022-05-10T16:00:00,2264A,127.5144,50.2341,黑河市,环保局,,34,33,42,8,19,124,108,100,100,6,9,4,6,0.2,0.3
2022-05-10T16:00:00,2265A,127.5291,50.2472,黑河市,大黑河岛(对照点),,35,19,59,2,21,129,111,105,105,3,5,4,7,0.3,0.4
2022-05-10T16:00:00,2266A,126.9785,46.6365,绥化市,人和东街,颗粒物(PM10),71,92,76,27,38,137,137,120,120,8,13,6,6,0.4,0.4
2022-05-10T16:00:00,2267A,126.964,46.6528,绥化市,党政办公中心,颗粒物(PM10),67,84,69,24,41,143,143,129,129,9,15,5,8,0.4,0.4
2022-05-10T16:00:00,2269A,124.1069,50.4097,大兴安岭地区,科技局,,28,13,26,10,15,114,87,88,88,7,6,4,4,0.4,0.4
2022-05-10T16:00:00,2270A,117.396,32.939,蚌埠市,工人疗养院,,50,50,45,15,22,120,120,95,95,8,9,5,6,0.3,0.2
2022-05-10T16:00:00,2271A,117.3605,32.9427,蚌埠市,百货大楼,颗粒物(PM10),53,55,47,22,15,121,119,92,92,16,16,6,6,0.4,0.4
2022-05-10T16:00:00,2273A,117.4185,32.8911,蚌埠市,蚌埠学院,颗粒物(PM10),56,61,44,27,20,98,98,85,85,28,29,14,14,0.4,0.3
2022-05-10T16:00:00,2274A,117.3533,32.9673,蚌埠市,淮上区政府,颗粒物(PM10),58,66,44,31,19,118,118,91,91,7,11,8,9,0.4,0.4
2022-05-10T16:00:00,2275A,117.3145,32.8977,蚌埠市,高新区,颗粒物(PM10),59,68,44,31,20,119,119,92,92,22,19,9,8,0.3,0.3
2022-05-10T16:00:00,2277A,116.8305,32.7727,淮南市,潘集区政府,颗粒物(PM10),56,62,43,27,28,102,102,80,80,8,8,6,6,0.3,0.3
2022-05-10T16:00:00,2278A,117.0067,32.6524,淮南市,师范学院,细颗粒物(PM2.5),74,61,58,54,27,101,101,86,86,11,9,9,9,0.5,0.4
2022-05-10T16:00:00,2279A,116.8569,32.5951,淮南市,谢家集区政府,颗粒物(PM10),67,84,49,42,24,98,93,80,80,14,13,6,6,0.3,0.2
2022-05-10T16:00:00,2280A,116.8281,32.633,淮南市,八公山区政府,颗粒物(PM10),55,60,49,34,25,96,94,78,78,7,11,5,7,0.4,0.3
2022-05-10T16:00:00,2281A,116.6325,32.6201,淮南市,焦岗湖风景区管理处(对照点),颗粒物(PM10),54,57,44,36,24,103,103,78,78,14,15,12,10,0.4,0.3
2022-05-10T16:00:00,2282A,116.8004,33.975,淮北市,监测站,,41,41,55,25,30,108,108,87,87,6,13,6,8,0.4,0.5
2022-05-10T16:00:00,2283A,116.8091,33.9007,淮北市,烈山区政府,,48,41,56,33,38,112,112,92,92,7,14,4,5,0.4,0.5
2022-05-10T16:00:00,2284A,116.7856,33.9477,淮北市,职业技术学院,颗粒物(PM10),93,136,54,24,29,106,106,89,89,8,15,6,7,0.5,0.5
2022-05-10T16:00:00,2285A,117.8177,30.9412,铜陵市,市第四中学,颗粒物(PM10),60,69,36,24,18,118,59,105,68,37,17,5,4,0.7,0.2
2022-05-10T16:00:00,2286A,117.8059,30.9273,铜陵市,市公路局,颗粒物(PM10),67,83,52,22,17,96,45,91,57,40,17,6,4,1.0,0.4
2022-05-10T16:00:00,2287A,117.7807,30.9413,铜陵市,市新民污水厂,细颗粒物(PM2.5),63,73,49,45,28,116,58,104,61,32,19,12,11,0.8,0.3
2022-05-10T16:00:00,2288A,117.7439,30.8792,铜陵市,市第九中学,颗粒物(PM10),63,76,48,31,23,84,44,74,47,43,28,13,10,1.1,0.9
2022-05-10T16:00:00,2289A,117.846,30.9413,铜陵市,车站新区,,48,48,36,33,28,107,52,95,63,36,17,8,6,0.7,0.3
2022-05-10T16:00:00,2290A,117.8483,30.97,铜陵市,市职教基地,,,47,33,,21,109,53,93,60,28,17,5,5,1.0,0.5
2022-05-10T16:00:00,2291A,117.0809,30.5177,安庆市,环科院,"颗粒物(PM10),细颗粒物(PM2.5)",53,55,31,37,23,102,77,94,66,17,14,6,6,0.8,0.7
2022-05-10T16:00:00,2292A,117.0331,30.5119,安庆市,马山宾馆,细颗粒物(PM2.5),54,50,30,38,22,95,72,90,63,19,17,7,6,0.8,0.7
2022-05-10T16:00:00,2294A,116.9896,30.6145,安庆市,安庆大学,细颗粒物(PM2.5),62,54,31,44,22,98,68,98,62,16,12,5,5,0.8,0.6
2022-05-10T16:00:00,2295A,118.2903,29.6963,黄山市,延安路89号,,26,26,19,8,7,92,36,70,41,12,7,5,5,0.4,0.3
2022-05-10T16:00:00,2296A,118.327,29.7178,黄山市,黄山东路89号,,24,24,18,16,10,93,36,70,43,13,7,5,5,0.5,0.4
2022-05-10T16:00:00,2297A,118.1371,30.2756,黄山市,黄山区政府5号楼,,38,29,30,26,16,47,40,38,38,11,10,5,5,0.7,0.6
2022-05-10T16:00:00,2298A,118.3093,32.3153,滁州市,老年大学,,45,45,45,23,19,118,111,93,93,21,21,5,5,0.2,0.3
2022-05-10T16:00:00,2299A,118.3244,32.2786,滁州市,人大宾馆,,,47,43,,32,115,109,90,90,18,20,5,5,0.3,0.3
2022-05-10T16:00:00,2301A,115.8277,32.8929,阜阳市,市监测站,颗粒物(PM10),51,52,61,22,37,101,101,78,78,8,17,8,13,0.5,0.6
2022-05-10T16:00:00,2303A,115.8554,32.8605,阜阳市,开发区,细颗粒物(PM2.5),59,52,57,42,41,95,95,67,67,15,18,5,5,0.5,0.6
2022-05-10T16:00:00,2307A,116.5079,31.737,六安市,监测大楼,,,51,38,27,19,92,82,74,74,,17,5,5,0.4,0.4
2022-05-10T16:00:00,2308A,116.4738,31.7643,六安市,皖西学院,颗粒物(PM10),52,54,44,28,22,96,96,82,82,14,16,8,8,0.4,0.4
2022-05-10T16:00:00,2309A,116.4996,31.7905,六安市,朝阳厂,细颗粒物(PM2.5),59,52,43,42,26,90,90,75,75,16,17,6,7,0.4,0.4
2022-05-10T16:00:00,2310A,116.5567,31.7886,六安市,开发区,颗粒物(PM10),54,57,50,33,23,98,98,82,82,12,18,5,5,0.4,0.3
2022-05-10T16:00:00,2311A,115.8072,33.8399,亳州市,污水处理厂,细颗粒物(PM2.5),68,46,58,49,58,86,86,60,60,1,9,4,5,0.4,0.6
2022-05-10T16:00:00,2312A,115.7789,33.8518,亳州市,三国揽胜宫,细颗粒物(PM2.5),59,41,51,42,47,81,81,57,57,7,16,3,4,0.5,0.7
2022-05-10T16:00:00,2314A,117.47,30.6618,池州市,池州学院,颗粒物(PM10),54,58,36,33,24,76,62,72,51,21,18,7,7,0.5,0.4
2022-05-10T16:00:00,2316A,118.7581,30.9454,宣城市,鳌峰子站,,46,35,30,32,21,67,67,60,60,20,27,5,6,0.6,0.4
2022-05-10T16:00:00,2317A,118.7385,30.9743,宣城市,敬亭山子站,,40,37,32,28,21,61,61,53,53,20,32,6,6,0.4,0.4
2022-05-10T16:00:00,2318A,118.7173,30.9427,宣城市,开发区子站,,43,35,28,30,22,73,73,64,64,20,24,5,6,0.5,0.4
2022-05-10T16:00:00,2319A,119.0141,25.4325,莆田市,荔城区仓后路,,42,42,29,25,15,70,66,58,58,19,21,5,5,0.6,0.5
2022-05-10T16:00:00,2320A,119.0015,25.4553,莆田市,莆田市监测站,,43,43,23,28,15,71,54,60,60,17,11,5,4,0.6,0.6
2022-05-10T16:00:00,2321A,119.1119,25.4561,莆田市,涵江区六中,细颗粒物(PM2.5),54,39,30,38,22,73,62,56,56,12,23,5,6,0.6,0.6
2022-05-10T16:00:00,2322A,119.1013,25.3215,莆田市,秀屿区政府,细颗粒物(PM2.5),62,44,26,44,23,65,55,57,56,27,11,8,8,0.7,0.7
2022-05-10T16:00:00,2323A,118.981,25.4792,莆田市,东圳水库(对照点),,31,31,17,14,9,63,51,55,55,10,6,4,4,0.6,0.6
2022-05-10T16:00:00,2324A,117.6211,26.2625,三明市,三钢,,23,21,29,16,21,62,27,30,30,21,22,2,5,0.6,0.8
2022-05-10T16:00:00,2325A,117.635,26.2714,三明市,三明二中,,21,21,27,12,16,66,28,30,30,19,19,2,4,0.5,0.7
2022-05-10T16:00:00,2326A,117.6028,26.2378,三明市,三元区政府,,17,17,36,10,19,60,36,32,32,19,19,2,3,0.7,0.7
2022-05-10T16:00:00,2327A,117.7275,26.3108,三明市,洋溪(对照点),,,,26,12,19,75,32,40,40,8,11,4,6,0.5,0.6
2022-05-10T16:00:00,2331A,118.0966,26.6761,南平市,茫荡山(对照点),,16,0,1,4,3,51,51,48,48,3,4,4,4,0.8,0.8
2022-05-10T16:00:00,2332A,118.1681,26.6369,南平市,南平市监测站,,,13,11,,13,68,43,54,54,14,9,8,6,0.6,0.6
2022-05-10T16:00:00,2333A,118.1825,26.6489,南平市,南平铝业有限公司,,14,14,14,8,11,67,35,54,53,13,11,5,5,0.5,0.5
2022-05-10T16:00:00,2334A,118.1756,26.6272,南平市,南平七中,,18,15,13,12,10,66,32,50,49,12,10,2,2,0.4,0.3
2022-05-10T16:00:00,2335A,117.0189,25.1181,龙岩市,龙岩师专(对照点),,20,20,23,8,14,63,30,31,31,19,20,5,6,0.6,0.6
2022-05-10T16:00:00,2336A,117.0217,25.1033,龙岩市,龙岩市监测站,,18,18,23,8,13,62,30,33,33,19,20,4,6,0.6,0.5
2022-05-10T16:00:00,2337A,117.0258,25.0661,龙岩市,闽西职业技术学院,,19,14,24,13,15,60,18,30,30,27,18,4,7,0.5,0.5
2022-05-10T16:00:00,2338A,117.0196,25.0306,龙岩市,龙岩学院,,30,30,19,6,9,62,32,31,31,12,14,4,4,0.4,0.5
2022-05-10T16:00:00,2339A,119.5001,26.6946,宁德市,金涵水库(对照点),,23,23,15,15,15,76,70,72,72,13,9,6,6,0.6,0.5
2022-05-10T16:00:00,2341A,119.5388,26.6612,宁德市,宁德市监测站,,30,27,20,21,16,78,65,76,68,16,9,8,8,0.5,0.5
2022-05-10T16:00:00,2342A,117.3102,29.3867,景德镇市,王港中学(对照点),,12,11,17,8,11,81,36,38,30,3,3,4,4,0.4,0.4
2022-05-10T16:00:00,2343A,117.2117,29.2933,景德镇市,老干部活动中心,,21,21,32,8,15,68,37,51,35,11,12,4,4,0.4,0.4
2022-05-10T16:00:00,2344A,117.1894,29.2789,景德镇市,兽医站,,26,16,16,18,13,68,33,49,31,16,14,8,5,0.6,0.7
2022-05-10T16:00:00,2345A,117.1547,29.2617,景德镇市,台达陶瓷,,16,16,20,8,11,65,36,51,34,15,12,9,4,0.6,0.6
2022-05-10T16:00:00,2346A,117.2461,29.2956,景德镇市,陶研所,,24,24,26,8,10,68,33,50,30,8,8,4,5,0.5,0.4
2022-05-10T16:00:00,2347A,114.0997,27.5002,萍乡市,武功山(对照点),,12,1,4,5,3,54,38,29,29,12,9,10,21,0.7,0.6
2022-05-10T16:00:00,2348A,113.8385,27.6434,萍乡市,中医院,,16,7,18,11,18,116,32,55,22,21,18,7,8,0.7,0.9
2022-05-10T16:00:00,2349A,113.8493,27.6253,萍乡市,市政府车库,,12,10,22,2,8,108,37,46,26,14,16,4,6,0.5,1.1
2022-05-10T16:00:00,2350A,113.8676,27.6435,萍乡市,市环保局,,16,13,19,11,18,118,39,56,28,22,20,8,8,0.6,0.8
2022-05-10T16:00:00,2351A,113.866,27.6198,萍乡市,安源区政府,,18,18,24,4,9,113,39,44,27,17,19,8,9,0.7,1
2022-05-10T16:00:00,2352A,115.0861,27.9317,新余市,北岗(对照点),,18,9,24,6,19,96,57,42,42,15,21,8,10,0.5,0.7
2022-05-10T16:00:00,2353A,114.9886,27.8431,新余市,飞宇,,22,22,32,7,17,107,58,55,42,13,15,5,9,0.6,0.8
2022-05-10T16:00:00,2354A,114.9231,27.8246,新余市,第二水厂,,,12,34,,23,100,54,53,40,16,18,,6,0.3,0.8
2022-05-10T16:00:00,2355A,114.9308,27.8036,新余市,市气象局,,38,38,28,14,20,81,47,48,34,16,18,6,6,1.0,1.1
2022-05-10T16:00:00,2357A,116.9822,28.1136,鹰潭市,龙虎山(对照点),,11,2,21,7,17,74,34,47,22,5,4,1,3,0.6,0.6
2022-05-10T16:00:00,2358A,117.0564,28.2642,鹰潭市,新监测站,,13,10,30,5,22,110,39,45,45,13,12,11,11,0.6,0.7
2022-05-10T16:00:00,2359A,117.0311,28.2475,鹰潭市,财苑宾馆,,12,12,29,0,17,96,37,38,26,15,13,8,12,0.6,0.7
2022-05-10T16:00:00,2360A,117.0222,28.2264,鹰潭市,体育馆,,10,10,33,0,25,87,31,30,24,17,15,4,15,0.7,0.9
2022-05-10T16:00:00,2361A,117.0017,28.2131,鹰潭市,三川水表,,10,9,34,7,24,83,30,34,22,20,17,7,14,0.7,0.9
2022-05-10T16:00:00,2362A,114.9017,25.9149,赣州市,通天岩(对照点),,25,25,34,16,22,139,59,58,58,16,18,5,6,1.0,1
2022-05-10T16:00:00,2363A,114.9367,25.8664,赣州市,地委,,22,22,31,12,19,111,37,47,45,15,14,5,7,0.8,0.9
2022-05-10T16:00:00,2364A,114.9461,25.8481,赣州市,气象台,,16,16,27,10,16,115,51,58,56,9,11,7,8,0.8,0.8
2022-05-10T16:00:00,2365A,114.9322,25.8333,赣州市,市图书馆,,20,16,24,14,19,109,31,46,40,16,17,6,7,0.7,0.7
2022-05-10T16:00:00,2366A,114.8905,25.8471,赣州市,华坚鞋城,,20,9,26,14,19,112,43,50,49,11,15,3,5,0.9,0.9
2022-05-10T16:00:00,2367A,114.9754,27.0803,吉安市,红声器材厂,,16,16,29,6,17,83,38,49,36,16,9,5,10,0.7,0.5
2022-05-10T16:00:00,2368A,114.9658,27.0999,吉安市,市森林工业局,,13,13,27,4,15,83,40,54,35,14,9,5,10,0.6,0.5
2022-05-10T16:00:00,2369A,114.99,27.1312,吉安市,市环境监测站,,12,10,30,6,19,90,36,49,32,16,11,5,22,0.6,0.6
2022-05-10T16:00:00,2370A,115.0093,27.0968,吉安市,青原区法院,,13,10,27,6,18,86,40,54,33,17,10,8,17,0.6,0.5
2022-05-10T16:00:00,2371A,114.3408,27.8064,宜春市,槟榔水业(对照点),,20,13,25,8,17,85,63,58,46,6,10,3,5,0.6,0.7
2022-05-10T16:00:00,2373A,114.3956,27.7844,宜春市,市石油公司,,20,11,24,6,17,75,63,61,46,7,9,5,5,0.8,0.8
2022-05-10T16:00:00,2374A,114.3703,27.7914,宜春市,市气象局,,23,16,25,8,18,82,71,65,52,9,11,4,6,0.7,0.8
2022-05-10T16:00:00,2375A,114.4013,27.8074,宜春市,市广电局,,19,8,24,8,20,88,60,54,44,10,12,3,3,0.7,0.8
2022-05-10T16:00:00,2376A,116.2127,28.0814,抚州市,桐源党溪(对照点),,15,8,26,7,19,110,45,40,31,7,6,1,3,0.7,0.7
2022-05-10T16:00:00,2377A,116.3544,27.9831,抚州市,市站,,12,11,34,5,23,97,38,53,24,23,16,6,7,0.8,0.7
2022-05-10T16:00:00,2378A,116.3565,27.963,抚州市,血防站,,,17,32,2,19,95,33,45,24,23,16,,8,0.8,0.8
2022-05-10T16:00:00,2379A,116.3564,28.0007,抚州市,采茶剧团,,11,10,30,5,18,91,35,40,21,18,14,3,5,0.8,0.8
2022-05-10T16:00:00,2380A,116.385,27.9647,抚州市,医学分院,,15,15,37,3,21,97,37,48,25,26,17,3,5,0.9,1
2022-05-10T16:00:00,2381A,118.005,28.4572,上饶市,百草园(对照点),,,25,33,,,62,31,28,26,15,11,5,5,1.0,1.1
2022-05-10T16:00:00,2382A,117.9756,28.4436,上饶市,市监测站,,18,17,35,12,22,79,37,32,32,17,14,5,6,0.4,0.4
2022-05-10T16:00:00,2383A,117.9519,28.4628,上饶市,凤凰光学,,15,14,33,10,24,76,37,31,31,14,13,7,12,0.6,0.6
2022-05-10T16:00:00,2385A,114.17,35.9019,鹤壁市,市监测站,,,,62,51,38,124,124,75,75,19,23,6,6,1.1,1.1
2022-05-10T16:00:00,2386A,114.2956,35.7511,鹤壁市,市交警支队,细颗粒物(PM2.5),77,73,48,56,37,101,101,65,65,15,20,7,5,1.1,0.9
2022-05-10T16:00:00,2387A,114.2878,35.7306,鹤壁市,迎宾馆,细颗粒物(PM2.5),67,56,40,48,29,106,106,66,66,12,19,3,4,0.7,0.6
2022-05-10T16:00:00,2389A,113.836,35.311,新乡市,环保西院,细颗粒物(PM2.5),62,61,52,44,34,128,128,84,84,9,13,5,6,1.0,0.8
2022-05-10T16:00:00,2390A,113.884,35.272,新乡市,开发区,细颗粒物(PM2.5),67,55,44,48,31,129,129,84,84,12,19,3,3,1.0,0.9
2022-05-10T16:00:00,2391A,113.883,35.303,新乡市,环保东院,细颗粒物(PM2.5),57,52,37,40,32,128,128,87,87,13,17,3,3,0.8,0.7
2022-05-10T16:00:00,2392A,115.0312,35.7636,濮阳市,环保局,,45,34,20,31,24,110,110,92,92,11,12,6,6,0.3,0.4
2022-05-10T16:00:00,2394A,115.0574,35.7609,濮阳市,油田运输公司,细颗粒物(PM2.5),62,51,28,44,26,122,122,100,100,11,13,6,6,0.4,0.4
2022-05-10T16:00:00,2395A,115.0866,35.7754,濮阳市,油田物探公司,细颗粒物(PM2.5),65,53,26,47,25,118,118,96,96,10,12,8,8,0.2,0.2
2022-05-10T16:00:00,2396A,113.8276,34.0159,许昌市,监测站,,,,,25,26,117,104,102,102,5,9,5,5,0.5,0.5
2022-05-10T16:00:00,2398A,113.7906,33.9953,许昌市,开发区,颗粒物(PM10),98,145,46,18,28,123,116,106,106,5,13,4,5,0.6,0.7
2022-05-10T16:00:00,2399A,114.051,33.5699,漯河市,三五一五工厂,,45,44,39,31,35,122,122,99,99,15,12,10,9,0.6,0.6
2022-05-10T16:00:00,2400A,114.0055,33.5698,漯河市,漯河大学,,38,38,38,20,20,122,118,98,98,8,6,2,2,0.6,0.7
2022-05-10T16:00:00,2401A,114.0138,33.5828,漯河市,市水利局,细颗粒物(PM2.5),58,27,27,41,30,125,125,100,100,8,8,3,3,0.6,0.6
2022-05-10T16:00:00,2402A,114.0261,33.5698,漯河市,市广电局,,49,39,32,34,40,124,121,97,97,6,7,5,5,0.4,0.4
2022-05-10T16:00:00,2403A,112.5192,32.9917,南阳市,环保局,颗粒物(PM10),59,67,32,38,22,143,143,92,92,13,13,1,2,0.6,0.5
2022-05-10T16:00:00,2404A,112.5339,33.0086,南阳市,瓦房庄,,43,43,30,30,21,135,135,91,91,16,14,3,3,0.7,0.6
2022-05-10T16:00:00,2405A,112.5003,32.9735,南阳市,汉画馆,,46,42,31,28,25,147,147,93,93,17,17,4,5,0.7,0.6
2022-05-10T16:00:00,2406A,112.5779,33.0144,南阳市,气象站,,43,40,30,28,21,136,136,97,97,14,14,4,4,0.6,0.5
2022-05-10T16:00:00,2407A,112.548,32.9692,南阳市,理工学院,,41,34,26,28,21,131,131,91,91,15,14,3,3,0.7,0.6
2022-05-10T16:00:00,2408A,115.6702,34.4285,商丘市,环境监测站,细颗粒物(PM2.5),73,63,64,53,64,79,79,57,57,13,21,7,6,0.6,0.8
2022-05-10T16:00:00,2409A,115.6458,34.4045,商丘市,粮食局,细颗粒物(PM2.5),75,72,69,55,43,81,81,58,58,17,24,6,6,0.6,0.7
2022-05-10T16:00:00,2410A,115.6293,34.3948,商丘市,睢阳区环保局,,,60,54,,73,75,75,58,58,19,23,5,4,0.6,0.7
2022-05-10T16:00:00,2420A,114.0189,32.9656,驻马店市,市一纸厂,细颗粒物(PM2.5),62,71,56,44,43,104,100,81,81,17,17,12,11,0.4,0.5
2022-05-10T16:00:00,2421A,114.0114,33.015,驻马店市,市彩印厂,颗粒物(PM10),55,59,56,37,36,102,102,73,73,18,13,4,4,0.4,0.5
2022-05-10T16:00:00,2422A,113.9976,32.9771,驻马店市,天方二分厂,细颗粒物(PM2.5),59,64,61,42,41,113,109,82,82,13,15,1,1,0.3,0.4
2022-05-10T16:00:00,2423A,115.0601,30.2313,黄石市,沈家营,颗粒物(PM10),57,64,67,27,30,67,67,50,47,14,17,6,6,0.7,0.8
2022-05-10T16:00:00,2424A,115.0817,30.2006,黄石市,陈家湾,颗粒物(PM10),59,67,61,33,31,74,55,52,39,17,19,5,4,0.7,0.7
2022-05-10T16:00:00,2426A,114.8988,30.2019,黄石市,铁山,颗粒物(PM10),62,73,64,43,42,56,55,38,38,18,24,6,5,0.6,0.7
2022-05-10T16:00:00,2427A,115.0307,30.2092,黄石市,团城山,,48,48,57,24,30,73,64,45,45,17,18,7,6,0.7,0.8
2022-05-10T16:00:00,2428A,111.0419,32.395,十堰市,武当山(对照点),,20,14,8,9,5,88,64,51,51,8,7,7,6,0.7,0.6
2022-05-10T16:00:00,2429A,110.78,32.6494,十堰市,滨河新村,,34,24,30,14,16,107,107,66,66,10,15,8,8,0.7,0.6
2022-05-10T16:00:00,2430A,110.7258,32.6389,十堰市,刘家沟,,37,20,15,11,14,116,116,77,77,15,14,8,7,0.8,0.7
2022-05-10T16:00:00,2431A,110.8839,32.5714,十堰市,铁二处,,33,23,29,14,19,105,105,78,78,10,15,8,10,0.7,0.7
2022-05-10T16:00:00,2432A,112.155,32.0197,襄阳市,襄城运动路,,40,27,42,22,33,125,125,95,95,8,11,8,8,0.7,0.6
2022-05-10T16:00:00,2433A,112.1392,32.0564,襄阳市,樊城新华路,,40,11,45,22,34,128,128,92,92,9,11,6,6,0.6,0.6
2022-05-10T16:00:00,2434A,112.1825,32.1142,襄阳市,高新管委会,,34,15,36,22,34,107,107,83,83,10,13,3,4,0.7,0.5
2022-05-10T16:00:00,2435A,112.2106,32.0903,襄阳市,襄州航空路,,,12,36,17,32,105,105,83,83,,20,5,5,,0.9
2022-05-10T16:00:00,2436A,114.8938,30.3994,鄂州市,市政府,,30,26,48,21,25,60,60,53,40,18,19,6,6,1.0,0.9
2022-05-10T16:00:00,2437A,114.8989,30.3714,鄂州市,赵家坝,,40,40,51,24,26,72,72,60,52,19,18,3,3,0.4,0.3
2022-05-10T16:00:00,2439A,112.2014,31.0481,荆门市,竹园小学,,45,39,38,20,26,142,142,98,98,6,10,8,6,0.6,0.5
2022-05-10T16:00:00,2440A,112.1969,30.9891,荆门市,掇刀,,43,40,41,20,28,136,136,94,94,8,12,5,3,0.6,0.5
2022-05-10T16:00:00,2441A,112.2213,31.0386,荆门市,石化一小,,,41,39,24,29,130,130,89,89,7,8,,8,0.4,0.8
2022-05-10T16:00:00,2443A,113.9153,30.9285,孝感市,文化路,颗粒物(PM10),64,77,76,32,37,106,106,63,63,12,14,3,3,0.7,0.7
