timepoint,stationcode,longitude,latitude,area,positionname,primarypollutant,aqi,pm10,pm10_24h,pm2_5,pm2_5_24h,o3,o3_24h,o3_8h,o3_8h_24h,no2,no2_24h,so2,so2_24h,co,co_24h
2025-05-11T2100,2566A,102.1879,31.914,阿坝藏族羌族自治州,州农科所,,27,27,16,3,7,71,,100,98,13,9,11,11,0.6,0.6
2025-05-11T2100,2568A,102.2502,31.8896,阿坝藏族羌族自治州,马师校,,38,29,19,26,15,60,,104,99,29,13,4,4,0.4,0.4
2025-05-11T2100,3994A,102.2165,31.9024,阿坝藏族羌族自治州,马尔康中学西区,,30,30,18,21,17,70,,114,110,28,7,4,4,0.4,0.4
2025-05-11T2100,2695A,80.292,41.1694,阿克苏地区,电视台,颗粒物(PM10),235,374,221,72,68,97,,112,112,29,37,5,4,0.5,0.5
2025-05-11T2100,2696A,80.2613,41.1551,阿克苏地区,艺术中心,颗粒物(PM10),173,295,238,85,74,55,,104,100,45,23,3,3,0.4,0.4
2025-05-11T2100,2204A,105.6467,38.8363,阿拉善盟,西城区西花园,,35,35,27,22,14,107,,141,137,31,11,6,8,0.8,0.5
2025-05-11T2100,2205A,105.6985,38.8411,阿拉善盟,蒙二幼,,35,35,17,14,5,85,,122,118,23,8,8,8,0.5,0.3
2025-05-11T2100,2206A,105.724,38.8516,阿拉善盟,环保局新楼,,36,17,11,6,6,114,,127,126,7,4,8,8,0.3,0.4
2025-05-11T2100,2708A,88.1264,47.8517,阿勒泰地区,市站,颗粒物(PM10),58,66,23,3,5,69,,94,90,10,6,2,2,0.6,0.4
2025-05-11T2100,2630A,80.1161,32.5,阿里地区,阿里监测站,,39,,4,3,4,122,,131,129,2,4,7,6,0.4,0.4
2025-05-11T2100,3192A,80.0903,32.5028,阿里地区,阿里藏医院,,,6,12,3,3,,,138,137,1,2,6,8,0.3,0.3
2025-05-11T2100,2642A,109.0318,32.6537,安康市,香溪洞,颗粒物(PM10),51,52,46,25,23,127,,136,136,4,8,7,11,0.4,0.5
2025-05-11T2100,2644A,109.0072,32.6975,安康市,汉滨区检察院,颗粒物(PM10),64,77,51,30,24,85,,145,138,26,11,9,15,0.6,0.5
2025-05-11T2100,4054A,109.0325,32.6913,安康市,市邮政管理局,"颗粒物(PM10),细颗粒物(PM2.5)",82,114,60,60,29,67,,143,133,36,13,10,18,0.9,0.4
2025-05-11T2100,2291A,117.0809,30.5177,安庆市,环科院,颗粒物(PM10),55,60,48,32,30,131,,146,145,20,18,4,4,0.5,0.5
2025-05-11T2100,2292A,117.0331,30.5119,安庆市,马山宾馆,细颗粒物(PM2.5),85,89,48,63,33,96,,141,135,37,25,6,6,0.8,0.6
2025-05-11T2100,2294A,116.9896,30.6145,安庆市,安庆大学,颗粒物(PM10),52,54,44,15,24,113,,148,145,29,20,5,6,0.4,0.3
2025-05-11T2100,3173A,117.0598,30.5351,安庆市,市人大,颗粒物(PM10),63,75,49,43,31,134,,156,154,24,23,8,8,0.5,0.4
2025-05-11T2100,3122A,105.9606,26.2611,安顺市,伍家关,颗粒物(PM10),70,90,32,40,16,117,,161,155,22,11,13,8,0.6,0.3
2025-05-11T2100,3123A,105.9408,26.2431,安顺市,凤凰山,细颗粒物(PM2.5),69,58,24,50,16,96,,133,129,22,10,14,11,0.6,0.4
2025-05-11T2100,3124A,105.9439,26.2564,安顺市,金钟山,细颗粒物(PM2.5),72,,19,52,16,102,,127,125,16,8,12,8,0.3,0.2
2025-05-11T2100,3125A,105.8983,26.2481,安顺市,娄家坡,细颗粒物(PM2.5),59,52,23,42,17,101,,128,125,14,8,10,9,0.7,0.5
2025-05-11T2100,1818A,114.4839,36.0621,安阳市,棉研所,,,,,,,,,,,,,,,,
2025-05-11T2100,1819A,114.3551,36.1017,安阳市,红庙街,,46,46,59,14,29,101,,152,146,11,10,6,4,0.5,0.5
2025-05-11T2100,1820A,114.361,36.0681,安阳市,银杏小区,颗粒物(PM10),51,51,59,12,26,107,,152,147,15,16,13,5,0.2,0.3
2025-05-11T2100,3141A,114.3922,36.0878,安阳市,信访局,,42,42,58,16,23,122,,158,155,12,11,8,4,0.3,0.5
2025-05-11T2100,3669A,114.4705,36.0637,安阳市,左辅环卫站,颗粒物(PM10),51,51,60,11,28,100,,153,144,19,26,3,5,0.3,0.4
2025-05-11T2100,3703A,114.2917,36.0949,安阳市,安钢职工学校,,46,46,72,10,32,108,,146,141,14,17,4,4,0.4,0.5
2025-05-11T2100,1748A,123.044,41.1196,鞍山市,深沟寺,细颗粒物(PM2.5),94,98,54,70,31,134,,154,154,26,19,14,10,1.2,0.9
2025-05-11T2100,1749A,123.011,41.0931,鞍山市,太阳城,细颗粒物(PM2.5),95,109,57,71,33,112,,138,136,26,18,14,12,1.3,0.9
2025-05-11T2100,1750A,123.0485,41.1442,鞍山市,太平,"颗粒物(PM10),细颗粒物(PM2.5)",92,134,78,68,34,124,,136,136,28,24,20,12,1.5,1
2025-05-11T2100,1751A,122.9642,41.0971,鞍山市,铁西三道街,细颗粒物(PM2.5),100,111,75,75,40,129,,152,152,40,34,15,13,1.2,1
2025-05-11T2100,1753A,123.022,41.0821,鞍山市,明达新区,"颗粒物(PM10),细颗粒物(PM2.5)",82,113,56,60,27,137,,152,152,22,15,17,10,1.0,0.7
2025-05-11T2100,1754A,123.1289,41.0228,鞍山市,千山,,,,35,,15,,,107,,,11,,6,,0.6
2025-05-11T2100,4201A,122.9446,41.0826,鞍山市,兴盛南路290号,细颗粒物(PM2.5),98,130,86,73,36,141,,151,151,30,36,16,13,1.0,0.9
2025-05-11T2100,2195A,107.4212,40.761,巴彦淖尔市,附二中,,46,46,51,22,13,51,,113,102,40,12,7,7,0.4,0.3
2025-05-11T2100,2196A,107.37,40.7372,巴彦淖尔市,市环保大楼,颗粒物(PM10),57,63,50,16,17,49,,120,106,39,17,4,4,0.3,0.1
2025-05-11T2100,1956A,86.1472,41.7538,巴音郭楞蒙古自治州,孔雀公园,颗粒物(PM10),77,104,103,39,29,93,,103,103,10,37,7,9,0.2,0.3
2025-05-11T2100,1957A,86.1972,41.7166,巴音郭楞蒙古自治州,棉纺厂,颗粒物(PM10),105,159,125,34,27,92,,107,106,5,20,3,6,0.2,0.3
2025-05-11T2100,1958A,86.2357,41.7173,巴音郭楞蒙古自治州,经济开发区,颗粒物(PM10),93,135,95,32,22,85,,103,101,7,9,7,8,0.2,0.2
2025-05-11T2100,2914A,106.7677,31.8794,巴中市,苏山坪,颗粒物(PM10),51,51,66,26,34,126,,136,136,16,10,5,5,0.3,0.3
2025-05-11T2100,3181A,106.7768,31.8526,巴中市,市五中,颗粒物(PM10),63,75,68,40,32,106,,132,130,16,12,7,6,0.5,0.5
2025-05-11T2100,3183A,106.7418,31.8654,巴中市,圣泉水务公司,颗粒物(PM10),62,73,65,40,33,74,,136,130,44,14,8,8,0.4,0.3
2025-05-11T2100,3616A,106.7616,31.8344,巴中市,市中心医院,颗粒物(PM10),59,68,66,40,39,91,,129,126,27,12,5,5,0.5,0.5
2025-05-11T2100,2235A,122.7911,45.6077,白城市,洮北区环保局,颗粒物(PM10),53,55,32,29,19,76,,117,105,20,10,4,3,0.4,0.3
2025-05-11T2100,2236A,122.8738,45.5725,白城市,市环保局,颗粒物(PM10),58,66,38,25,19,50,,121,106,49,11,3,2,0.4,0.4
2025-05-11T2100,2231A,126.4219,41.9171,白山市,喜丰,,42,42,28,17,13,61,,128,113,37,19,6,6,0.8,0.7
2025-05-11T2100,2232A,126.4077,41.9419,白山市,环保局,颗粒物(PM10),57,64,31,32,16,43,,123,104,37,15,9,9,1.1,0.8
2025-05-11T2100,2647A,104.1724,36.5446,白银市,第三小学,,46,46,49,12,23,115,,134,133,15,26,31,60,0.2,0.4
2025-05-11T2100,2648A,104.1465,36.5482,白银市,动力公司,颗粒物(PM10),53,56,36,12,16,101,,135,132,25,21,46,33,0.4,0.7
2025-05-11T2100,2512A,106.6103,23.9011,百色市,市监测站,,33,33,16,17,5,77,,101,100,18,9,5,4,0.6,0.5
2025-05-11T2100,2513A,106.6538,23.8859,百色市,市中心血站,,43,43,21,11,4,58,,109,105,50,16,28,6,0.8,0.5
2025-05-11T2100,3406A,106.6085,23.8798,百色市,祈福高中,颗粒物(PM10),56,61,22,13,6,54,,100,97,43,10,6,5,0.5,0.4
2025-05-11T2100,2270A,117.396,32.939,蚌埠市,工人疗养院,颗粒物(PM10),61,71,55,27,23,107,,144,140,36,15,6,5,0.5,0.4
2025-05-11T2100,2271A,117.3605,32.9427,蚌埠市,百货大楼,颗粒物(PM10),58,66,49,31,24,127,,145,143,21,14,7,7,0.2,0.2
2025-05-11T2100,2273A,117.4185,32.8911,蚌埠市,蚌埠学院,颗粒物(PM10),52,53,51,30,26,134,,152,150,18,18,4,4,0.5,0.6
2025-05-11T2100,2274A,117.3533,32.9673,蚌埠市,淮上区政府,颗粒物(PM10),57,63,55,30,28,132,,151,150,20,14,6,6,0.5,0.5
2025-05-11T2100,2275A,117.3145,32.8977,蚌埠市,高新区,颗粒物(PM10),65,80,51,38,27,109,,147,142,30,16,6,5,0.4,0.4
2025-05-11T2100,3715A,117.3092,32.9314,蚌埠市,蚌埠田家炳中学,颗粒物(PM10),67,84,58,36,25,106,,148,144,24,17,41,7,0.4,0.4
2025-05-11T2100,1585A,109.8756,40.6532,包头市,市环境监测站,,49,45,49,22,17,13,,117,99,98,46,14,14,1.1,0.7
2025-05-11T2100,1587A,109.9991,40.5842,包头市,包头八中,颗粒物(PM10),62,73,65,32,24,32,,120,102,78,47,10,17,0.8,0.8
2025-05-11T2100,1588A,109.8538,40.6821,包头市,青山宾馆,细颗粒物(PM2.5),87,,48,64,33,10,,112,91,95,52,11,16,0.6,1.1
2025-05-11T2100,1589A,109.8642,40.6288,包头市,惠龙物流,,43,43,53,17,18,70,,116,109,42,38,18,15,0.6,0.6
2025-05-11T2100,1590A,110.0377,40.5546,包头市,东河鸿龙湾,颗粒物(PM10),54,58,59,23,23,72,,116,109,26,36,9,14,0.5,0.8
2025-05-11T2100,3283A,109.9154,40.5685,包头市,滨河大厦,,46,46,48,22,17,68,,120,112,31,35,10,11,0.5,0.6
2025-05-11T2100,3419A,109.9447,40.6261,包头市,包头市委党校,,44,44,44,20,21,74,,119,111,40,33,22,15,0.6,0.7
2025-05-11T2100,3683A,109.8331,40.6576,包头市,昆区政府,,46,46,50,26,21,32,,113,102,82,51,23,14,2.8,1.4
2025-05-11T2100,1930A,107.185,34.3063,宝鸡市,庙沟村,,42,41,37,28,22,134,,153,152,28,12,8,8,0.6,0.6
2025-05-11T2100,1931A,107.0708,34.3017,宝鸡市,竹园沟,颗粒物(PM10),51,52,43,23,22,104,,150,146,24,12,4,3,0.3,0.3
2025-05-11T2100,1932A,107.1906,34.3672,宝鸡市,三陆医院,颗粒物(PM10),55,59,55,22,22,130,,150,149,19,23,6,8,0.4,0.4
2025-05-11T2100,1933A,107.1431,34.3547,宝鸡市,监测站,颗粒物(PM10),59,68,54,24,21,92,,142,137,28,17,5,5,0.5,0.5
2025-05-11T2100,1934A,107.1186,34.3739,宝鸡市,技工学校,,42,,54,29,28,115,,143,141,24,10,9,8,0.6,0.5
2025-05-11T2100,1935A,107.3906,34.3528,宝鸡市,陈仓区环保局家属楼,细颗粒物(PM2.5),58,52,55,41,29,103,,146,142,37,20,8,33,0.5,0.6
2025-05-11T2100,1936A,107.2058,34.3497,宝鸡市,文理学院,颗粒物(PM10),53,55,51,23,24,110,,151,147,34,17,7,7,0.5,0.4
2025-05-11T2100,1937A,107.2386,34.3622,宝鸡市,三迪小学,,40,34,57,26,30,127,,148,147,19,17,6,7,0.4,0.3
2025-05-11T2100,1051A,115.493,38.8632,保定市,游泳馆,颗粒物(PM10),62,74,64,29,36,116,,145,144,23,23,4,3,0.2,0.2
2025-05-11T2100,1052A,115.5213,38.8959,保定市,华电二区,颗粒物(PM10),51,52,43,25,32,128,,150,149,15,13,5,3,0.5,0.3
2025-05-11T2100,1053A,115.4713,38.9108,保定市,接待中心,颗粒物(PM10),58,66,55,26,31,130,,153,152,16,17,6,5,0.4,0.2
2025-05-11T2100,1054A,115.4612,38.8416,保定市,地表水厂,颗粒物(PM10),70,89,68,22,29,111,,144,143,28,25,6,5,0.6,0.4
2025-05-11T2100,3581A,115.31981,38.95208,保定市,满城区生态环境分局,颗粒物(PM10),62,73,56,22,26,116,,154,152,20,17,8,7,0.5,0.4
2025-05-11T2100,3582A,115.47694,38.76408,保定市,清苑区第二中学,颗粒物(PM10),58,65,62,32,31,122,,144,143,15,16,9,10,0.4,0.4
2025-05-11T2100,3583A,115.62909,39.02311,保定市,徐水物探局,颗粒物(PM10),67,83,67,24,32,111,,138,138,22,24,4,3,0.6,0.4
2025-05-11T2100,4004A,115.4202,38.8656,保定市,双鹰农机,颗粒物(PM10),68,86,56,25,32,102,,143,139,27,21,5,3,0.5,0.3
2025-05-11T2100,4034A,115.5150,38.8590,保定市,植保所站,颗粒物(PM10),54,57,55,30,30,121,,143,142,15,14,2,3,0.6,0.5
2025-05-11T2100,2594A,99.1678,25.1081,保山市,市环境监测站,细颗粒物(PM2.5),58,,37,41,31,108,,118,118,7,9,4,5,0.6,0.6
2025-05-11T2100,2595A,99.1711,25.1328,保山市,市环保局,,43,43,37,23,26,116,,126,125,5,6,6,5,0.4,0.4
2025-05-11T2100,1866A,109.2262,21.588,北海市,牛尾岭水库,,,,29,,14,,,64,,,7,,6,,0.5
2025-05-11T2100,1867A,109.1436,21.4086,北海市,海滩公园,,49,49,35,15,17,111,,113,113,10,8,7,6,0.6,0.6
2025-05-11T2100,1868A,109.0981,21.4661,北海市,新市环保局,,40,40,34,24,22,98,,112,111,11,7,7,4,0.7,0.7
2025-05-11T2100,1869A,109.1778,21.5233,北海市,北海工业园,,32,30,35,22,23,100,,110,110,14,9,13,10,0.2,0.3
2025-05-11T2100,3400A,109.1911,21.4415,北海市,龙潭自来水厂,,40,40,35,19,21,77,,104,102,15,8,8,9,0.4,0.4
2025-05-11T2100,1001A,116.3621,39.8784,北京市,万寿西宫,颗粒物(PM10),55,60,62,31,43,137,,169,169,33,33,3,3,0.7,0.5
2025-05-11T2100,1002A,116.2202,40.2915,北京市,定陵,,,,,,,,,,,,,,,,
2025-05-11T2100,1003A,116.4174,39.9289,北京市,东四,颗粒物(PM10),52,54,68,25,42,134,,161,161,39,34,5,4,0.6,0.5
2025-05-11T2100,1004A,116.4072,39.8863,北京市,天坛,,40,40,60,24,39,88,,149,146,25,29,3,3,0.7,0.5
2025-05-11T2100,1005A,116.462,39.9365,北京市,农展馆,颗粒物(PM10),54,58,63,26,43,123,,152,152,28,22,3,3,0.8,0.8
2025-05-11T2100,1006A,116.3392,39.9295,北京市,官园,颗粒物(PM10),56,61,66,39,41,147,,157,157,32,30,5,5,0.7,0.5
2025-05-11T2100,1007A,116.2878,39.9611,北京市,海淀万柳,,50,50,66,22,40,92,,138,135,35,29,5,5,0.4,0.4
2025-05-11T2100,1008A,116.6636,40.135,北京市,顺义新城,颗粒物(PM10),56,61,57,25,37,81,,146,140,36,28,4,5,0.6,0.4
2025-05-11T2100,1009A,116.6275,40.3275,北京市,怀柔镇,颗粒物(PM10),51,51,48,32,35,96,,144,141,27,18,3,3,0.6,0.5
2025-05-11T2100,1010A,116.2296,40.217,北京市,昌平镇,颗粒物(PM10),51,51,47,30,32,117,,148,148,19,21,2,3,0.2,0.2
2025-05-11T2100,1011A,116.3966,39.9821,北京市,奥体中心,颗粒物(PM10),53,55,58,33,38,118,,140,140,39,33,4,4,0.7,0.4
2025-05-11T2100,3281A,115.9718,40.4529,北京市,延庆夏都,细颗粒物(PM2.5),72,64,30,52,24,149,,146,146,19,14,4,6,0.5,0.5
2025-05-11T2100,3418A,116.8336,40.4095,北京市,密云新城,颗粒物(PM10),61,72,55,38,34,112,,146,145,30,18,4,4,0.5,0.4
2025-05-11T2100,3671A,116.088,39.9726,北京市,门头沟三家店,,,,,,,,,,,,,,,,
2025-05-11T2100,3672A,116.1541,39.8204,北京市,丰台云岗,颗粒物(PM10),61,71,69,35,39,67,,152,147,80,33,5,5,0.4,0.3
2025-05-11T2100,3673A,116.6804,39.9081,北京市,通州东关,颗粒物(PM10),67,84,74,35,44,40,,151,140,119,35,6,6,0.5,0.5
2025-05-11T2100,3674A,115.9577,39.7603,北京市,房山燕山,,39,39,50,20,35,124,,179,147,28,27,2,3,0.4,0.4
2025-05-11T2100,3675A,116.4672,39.7733,北京市,大兴旧宫,,33,33,64,16,38,103,,151,150,16,25,2,1,0.5,0.4
2025-05-11T2100,3694A,115.986,40.4563,北京市,延庆石河营,颗粒物(PM10),62,73,38,43,24,142,,135,135,19,19,2,2,0.5,0.4
2025-05-11T2100,3695A,116.6151,40.3053,北京市,怀柔新城,颗粒物(PM10),52,53,49,31,36,105,,140,139,22,16,1,2,0.6,0.5
2025-05-11T2100,3696A,116.2545,39.8768,北京市,丰台小屯,二氧化氮,57,46,62,14,39,41,,136,129,114,39,2,2,0.3,0.3
2025-05-11T2100,3697A,116.84,40.3844,北京市,密云镇,颗粒物(PM10),69,87,53,46,35,127,,152,152,29,21,6,5,0.6,0.5
2025-05-11T2100,4182A,116.1942,39.9158,北京市,八角北路9号,颗粒物(PM10),66,81,69,33,42,79,,147,144,72,41,6,5,0.4,0.1
2025-05-11T2100,4194A,117.0790,40.1518,北京市,洳河巡河路,细颗粒物(PM2.5),67,67,63,48,33,127,,168,167,25,17,3,3,0.4,0.3
2025-05-11T2100,1761A,123.8275,41.3064,本溪市,大峪,,42,40,45,18,17,133,,138,137,6,21,6,7,0.5,0.7
2025-05-11T2100,1762A,123.7567,41.3325,本溪市,溪湖,,45,45,71,21,34,123,,133,132,13,27,6,6,0.8,1
2025-05-11T2100,1763A,123.7169,41.3094,本溪市,彩屯,颗粒物(PM10),55,60,56,28,31,107,,133,126,28,32,21,19,1.9,1.6
2025-05-11T2100,1764A,123.7669,41.2864,本溪市,东明,,43,38,50,18,20,135,,136,136,9,28,7,8,0.5,0.6
2025-05-11T2100,1765A,123.7992,41.2664,本溪市,新立屯,,42,32,33,18,18,132,,134,134,9,26,6,6,0.4,0.5
2025-05-11T2100,1766A,123.8142,41.3472,本溪市,威宁,,40,40,51,19,22,106,,133,128,8,19,5,6,0.6,0.8
2025-05-11T2100,2587A,105.2864,27.3125,毕节市,八中,,47,47,29,26,12,74,,108,106,22,9,9,8,0.6,0.4
2025-05-11T2100,2588A,105.31,27.2944,毕节市,师专,,40,40,30,22,14,97,,117,116,19,13,7,7,0.4,0.4
2025-05-11T2100,4263A,105.3688,27.3598,毕节市,工业大道,,44,44,28,20,13,86,,117,114,23,13,8,7,0.4,0.4
2025-05-11T2100,1629A,118.0018,37.3617,滨州市,第二水厂,颗粒物(PM10),51,51,52,14,25,124,,152,149,21,21,8,8,0.2,0.2
2025-05-11T2100,1630A,117.9776,37.393,滨州市,北中新校,,44,44,46,19,27,123,,145,143,22,20,10,7,0.6,0.6
2025-05-11T2100,3514A,117.9378,37.3956,滨州市,中海酒店,颗粒物(PM10),52,53,59,29,34,131,,160,157,20,20,22,15,0.8,0.7
2025-05-11T2100,3515A,117.9378,37.3553,滨州市,开发区一中,颗粒物(PM10),53,56,52,24,26,110,,147,143,29,25,8,6,0.5,0.4
2025-05-11T2100,3516A,118.0917,37.694,滨州市,金海六路,颗粒物(PM10),56,61,49,17,20,117,,148,144,36,30,9,8,0.5,0.4
2025-05-11T2100,4028A,117.9956,37.3753,滨州市,滨州市西街道办事处,颗粒物(PM10),51,51,50,24,28,133,,163,161,19,17,6,6,0.4,0.3
2025-05-11T2100,2311A,115.8072,33.8399,亳州市,污水处理厂,,43,38,42,13,19,136,,148,147,16,17,4,4,0.2,0.3
2025-05-11T2100,2312A,115.7789,33.8518,亳州市,三国揽胜宫,,44,43,45,11,17,139,,156,155,14,12,5,6,0.4,0.4
2025-05-11T2100,3332A,115.7633,33.8034,亳州市,亳州学院,,39,38,38,12,19,124,,148,145,20,15,5,9,0.3,0.3
2025-05-11T2100,2693A,82.0485,44.8556,博尔塔拉蒙古自治州,市党校,,31,29,41,14,18,98,,107,104,10,11,6,6,0.5,0.5
2025-05-11T2100,2694A,82.0806,44.8969,博尔塔拉蒙古自治州,市环保局,,30,30,45,18,16,89,,104,101,14,12,1,1,0.5,0.5
2025-05-11T2100,1071A,116.8842,38.2991,沧州市,沧县城建局,颗粒物(PM10),51,52,57,25,29,106,,147,144,27,24,4,6,0.4,0.4
2025-05-11T2100,1072A,116.8584,38.3254,沧州市,电视转播站,颗粒物(PM10),58,66,57,24,31,98,,145,142,22,18,5,3,0.4,0.4
2025-05-11T2100,1073A,116.8709,38.3228,沧州市,市环保局,颗粒物(PM10),73,96,59,34,35,108,,156,153,23,18,9,9,0.4,0.4
2025-05-11T2100,3324A,116.8136,38.3004,沧州市,河北水利电力学院,颗粒物(PM10),54,58,57,25,29,112,,159,156,28,28,6,6,0.4,0.4
2025-05-11T2100,2622A,97.1806,31.1273,昌都市,昌都监测站,,40,13,23,13,12,128,,135,135,6,7,2,2,0.5,0.5
2025-05-11T2100,3719A,97.1714,31.1406,昌都市,昌都会议中心,,37,,27,24,19,118,,130,130,5,5,3,3,0.2,0.2
2025-05-11T2100,2690A,88.1236,43.8886,昌吉回族自治州,天山天池,,22,6,36,3,6,68,,103,98,5,5,7,6,0.5,0.5
2025-05-11T2100,2692A,87.2717,44.0297,昌吉回族自治州,新区政务中心,,37,20,48,3,35,117,,124,124,4,6,8,8,0.2,0.3
2025-05-11T2100,3613A,87.3095,44.0142,昌吉回族自治州,亚心广场,,35,24,53,3,27,111,,116,116,8,12,8,8,0.2,0.3
2025-05-11T2100,1119A,125.3325,43.9166,长春市,食品厂,颗粒物(PM10),52,53,64,33,32,111,,130,128,26,42,6,6,0.4,0.5
2025-05-11T2100,1120A,125.2863,43.9027,长春市,客车厂,颗粒物(PM10),51,52,55,30,30,112,,132,129,28,43,8,6,0.4,0.4
2025-05-11T2100,1121A,125.2841,43.8463,长春市,邮电学院,颗粒物(PM10),55,59,46,26,26,120,,138,136,22,32,8,7,0.5,0.4
2025-05-11T2100,1122A,125.3716,43.8772,长春市,劳动公园,颗粒物(PM10),53,56,54,25,34,122,,136,135,20,30,8,7,0.6,0.5
2025-05-11T2100,1123A,125.3297,43.8805,长春市,园林处,颗粒物(PM10),53,55,48,24,26,124,,138,137,18,30,8,7,0.6,0.6
2025-05-11T2100,1124A,125.4605,43.79,长春市,净月潭,,44,44,34,21,18,104,,127,124,12,11,7,6,0.4,0.3
2025-05-11T2100,1125A,125.7194,43.515,长春市,甩湾子,,,,,,,,,,,,,,,,
2025-05-11T2100,1126A,125.3863,43.8447,长春市,经开区环卫处,颗粒物(PM10),57,64,67,19,24,97,,124,120,32,34,7,6,0.4,0.4
2025-05-11T2100,1127A,125.245,43.7783,长春市,高新区管委会,,50,50,57,26,33,102,,131,126,23,34,6,8,0.4,0.4
2025-05-11T2100,1128A,125.1761,43.8325,长春市,岱山公园,颗粒物(PM10),54,58,52,30,29,67,,129,115,65,48,7,6,0.5,0.4
2025-05-11T2100,1335A,113.0833,28.2325,长沙市,经开区环保局,,43,43,49,26,25,75,,155,148,72,27,8,6,0.6,0.5
2025-05-11T2100,1336A,112.8872,28.2189,长沙市,高开区环保局,,45,45,51,23,30,130,,148,146,20,18,6,6,0.5,0.4
2025-05-11T2100,1337A,113.0792,28.2053,长沙市,马坡岭,颗粒物(PM10),55,59,50,32,31,100,,156,151,44,30,4,5,0.6,0.6
2025-05-11T2100,1338A,112.9394,28.19,长沙市,湖南师范大学,,37,37,49,22,29,97,,142,138,29,22,3,3,0.3,0.3
2025-05-11T2100,1339A,113.0178,28.1322,长沙市,雨花区环保局,,47,47,51,23,29,124,,153,152,30,23,6,6,0.9,0.8
2025-05-11T2100,1340A,112.9792,28.2597,长沙市,伍家岭,颗粒物(PM10),52,54,51,27,24,29,,144,127,77,23,3,4,0.7,0.4
2025-05-11T2100,1341A,113.0014,28.1944,长沙市,火车新站,颗粒物(PM10),54,57,53,36,30,91,,142,137,48,24,8,8,0.6,0.5
2025-05-11T2100,1342A,112.9844,28.1178,长沙市,天心区环保局,细颗粒物(PM2.5),54,49,50,38,30,90,,150,144,52,26,5,5,0.7,0.4
2025-05-11T2100,1343A,112.8908,28.1308,长沙市,湖南中医药大学,"颗粒物(PM10),细颗粒物(PM2.5)",54,58,51,38,28,32,,142,122,70,26,3,4,0.5,0.4
2025-05-11T2100,1344A,112.9581,28.3611,长沙市,沙坪,,28,28,32,19,23,88,,146,134,13,13,5,6,0.6,0.6
2025-05-11T2100,1727A,113.1147,36.1547,长治市,清华站,,34,34,67,7,17,106,,140,136,20,29,8,7,0.6,0.6
2025-05-11T2100,1730A,113.0886,36.2125,长治市,审计局,,39,26,41,7,16,122,,145,142,18,28,8,11,0.3,0.6
2025-05-11T2100,1731A,113.0844,36.1856,长治市,长治八中,,30,30,56,12,26,91,,141,135,38,29,9,12,0.5,0.7
2025-05-11T2100,2845A,113.1569,36.1911,长治市,德盛苑,,38,28,30,12,16,119,,140,137,13,14,6,8,0.4,0.6
2025-05-11T2100,3568A,113.06,36.0464,长治市,向阳小学,颗粒物(PM10),53,56,63,25,21,107,,141,137,26,22,9,9,0.3,0.3
2025-05-11T2100,3569A,112.8792,36.3144,长治市,屯留一中,,37,20,33,19,13,116,,144,141,20,28,9,8,0.4,0.4
2025-05-11T2100,4189A,113.1131,36.19948,长治市,英华南巷50号,,39,27,46,12,18,124,,152,149,17,22,5,11,0.4,0.7
2025-05-11T2100,4190A,113.2367,36.3344,长治市,学府街1号,,40,40,59,11,20,121,,148,146,14,43,4,8,0.5,0.9
2025-05-11T2100,1854A,111.6975,28.9703,常德市,市二中,,,108,33,,15,106,,113,113,18,10,8,6,0.6,0.5
2025-05-11T2100,1857A,111.7158,29.1456,常德市,白鹤山,,,,,,,,,,,,,,,,
2025-05-11T2100,3138A,111.7153,29.0289,常德市,武陵区永安,细颗粒物(PM2.5),67,67,36,48,18,89,,115,115,29,7,10,7,0.6,0.3
2025-05-11T2100,3139A,111.6892,28.9881,常德市,鼎城区玉霞,颗粒物(PM10),67,83,35,46,19,70,,111,109,36,11,8,4,0.6,0.4
2025-05-11T2100,3140A,111.6625,29.0531,常德市,武陵区长庚,颗粒物(PM10),57,63,32,36,16,99,,119,119,22,7,8,7,0.7,0.6
2025-05-11T2100,1196A,119.9633,31.762,常州市,市监测站,颗粒物(PM10),57,64,41,30,20,136,,158,157,26,17,14,12,0.8,0.7
2025-05-11T2100,1200A,119.9468,31.7069,常州市,武进监测站,颗粒物(PM10),51,52,42,34,16,123,,151,149,35,22,10,12,0.6,0.6
2025-05-11T2100,1201A,119.9255,31.9087,常州市,安家,颗粒物(PM10),62,74,58,42,20,41,,152,134,122,30,15,12,0.6,0.5
2025-05-11T2100,3002A,119.9805,31.8174,常州市,行政中心,颗粒物(PM10),51,51,37,28,19,120,,151,148,30,17,14,12,0.5,0.5
2025-05-11T2100,3003A,120.0522,31.7748,常州市,经开区,颗粒物(PM10),59,68,39,31,17,137,,161,159,30,19,7,4,0.6,0.5
2025-05-11T2100,3010A,119.9025,31.7964,常州市,钟楼,颗粒物(PM10),57,63,61,32,20,121,,153,150,33,18,9,8,0.6,0.6
2025-05-11T2100,3429A,119.8598,31.7066,常州市,武进经发区,颗粒物(PM10),56,62,42,34,21,130,,153,152,22,15,12,11,0.7,0.6
2025-05-11T2100,3430A,119.5826,31.7245,常州市,金坛城区,颗粒物(PM10),52,53,34,30,20,131,,160,158,27,15,10,9,0.6,0.6
2025-05-11T2100,2220A,120.4318,41.5881,朝阳市,西梁,细颗粒物(PM2.5),79,64,52,58,33,114,,128,128,24,26,8,7,0.7,0.8
2025-05-11T2100,2221A,120.4521,41.5646,朝阳市,河畔小区,,50,48,41,35,23,139,,139,139,12,16,10,9,0.5,0.5
2025-05-11T2100,2222A,120.4176,41.5648,朝阳市,八里堡,细颗粒物(PM2.5),62,61,58,44,27,115,,126,126,21,26,11,9,0.6,0.6
2025-05-11T2100,2223A,120.3806,41.5969,朝阳市,农业园区,细颗粒物(PM2.5),82,,55,60,38,105,,130,128,22,25,13,13,0.7,0.8
2025-05-11T2100,1705A,116.6367,23.6719,潮州市,西园路,,41,41,16,13,10,35,,78,68,18,5,3,3,0.4,0.2
2025-05-11T2100,3026A,116.6183,23.6608,潮州市,市政府,,41,41,22,20,10,65,,89,76,15,5,6,3,0.7,0.5
2025-05-11T2100,4036A,116.6461,23.6761,潮州市,金山,,38,38,21,8,6,29,,86,67,24,7,6,6,0.7,0.5
2025-05-11T2100,2472A,113.0073,25.9061,郴州市,马头岭,,45,45,42,25,18,92,,126,123,14,11,8,8,0.3,0.2
2025-05-11T2100,2473A,113.0116,25.8226,郴州市,市职中,,45,39,40,31,30,62,,131,118,23,13,4,4,0.6,0.5
2025-05-11T2100,2475A,113.0383,25.8071,郴州市,市审计局,,40,40,38,28,28,89,,135,129,21,12,6,6,0.6,0.5
2025-05-11T2100,2476A,113.0348,25.7759,郴州市,市环保局,,49,49,45,29,30,65,,130,122,39,12,3,4,0.5,0.4
2025-05-11T2100,4252A,113.0138,25.8011,郴州市,好美居路49号,,39,38,40,27,30,65,,134,123,34,13,6,7,0.5,0.4
2025-05-11T2100,1431A,103.9728,30.7236,成都市,金泉两河,,47,47,85,30,35,75,,113,111,26,18,3,5,0.8,0.8
2025-05-11T2100,1432A,104.176,30.6872,成都市,十里店,颗粒物(PM10),60,70,73,42,30,135,,149,149,24,13,5,5,0.5,0.5
2025-05-11T2100,1433A,104.079,30.5706,成都市,三瓦窑,"颗粒物(PM10),细颗粒物(PM2.5)",60,70,73,43,36,109,,142,140,41,22,5,6,0.7,0.6
2025-05-11T2100,1434A,104.1114,30.63,成都市,沙河铺,颗粒物(PM10),59,67,73,35,34,113,,132,132,22,16,7,8,0.6,0.6
2025-05-11T2100,1437A,104.0786,30.6531,成都市,君平街,颗粒物(PM10),58,66,82,33,40,116,,131,131,22,21,7,10,0.5,0.5
2025-05-11T2100,1438A,103.613,31.0283,成都市,灵岩寺,,,,,,,,,,,,,,,,
2025-05-11T2100,2880A,104.0239,30.65639,成都市,大石西路,,50,49,83,35,40,109,,138,137,28,24,4,7,0.6,0.6
2025-05-11T2100,3136A,104.2725,30.5589,成都市,龙泉驿区区政府,颗粒物(PM10),53,56,62,22,24,142,,150,150,20,20,5,5,0.4,0.4
2025-05-11T2100,3357A,104.0106,30.6931,成都市,金博路,颗粒物(PM10),56,62,68,29,29,78,,118,114,39,19,8,9,0.5,0.4
2025-05-11T2100,3359A,104.0578,30.5225,成都市,华阳,细颗粒物(PM2.5),55,51,73,39,45,82,,132,128,32,18,7,8,0.7,0.6
2025-05-11T2100,3488A,104.3853,30.7453,成都市,青白江技师分院,细颗粒物(PM2.5),69,62,69,50,32,148,,161,161,23,21,4,4,0.3,0.4
2025-05-11T2100,3489A,104.0789,30.4072,成都市,科学城,颗粒物(PM10),57,64,74,37,44,131,,148,148,16,12,6,5,0.5,0.5
2025-05-11T2100,4011A,103.8506,30.6947,成都市,光华大道三段,颗粒物(PM10),62,74,82,36,39,75,,161,152,51,17,2,4,0.8,0.6
2025-05-11T2100,4224A,104.2433,30.5353,成都市,鲸龙路1057号,颗粒物(PM10),52,53,72,25,35,142,,148,148,13,13,7,6,0.4,0.4
2025-05-11T2100,1062A,117.9531,40.9081,承德市,铁路,,35,35,39,13,23,45,,107,94,27,18,2,6,0.3,0.4
2025-05-11T2100,1063A,117.9392,40.9763,承德市,中国银行,,46,46,42,16,23,39,,108,96,36,15,7,5,0.5,0.4
2025-05-11T2100,1064A,117.9503,40.928,承德市,开发区,,41,41,43,20,29,42,,107,99,36,18,4,6,0.4,0.5
2025-05-11T2100,1065A,117.8051,40.9655,承德市,文化中心,颗粒物(PM10),52,54,53,24,26,44,,107,100,34,25,22,22,0.4,0.6
2025-05-11T2100,1066A,117.9268,41.0026,承德市,离宫,颗粒物(PM10),51,52,39,14,34,75,,108,103,9,13,4,5,0.3,0.3
2025-05-11T2100,2314A,117.47,30.6618,池州市,池州学院,,47,47,42,31,26,131,,151,150,15,12,6,6,0.4,0.5
2025-05-11T2100,3237A,117.4918,30.6617,池州市,展览馆,,46,46,42,27,23,137,,153,152,11,11,6,6,0.4,0.4
2025-05-11T2100,3333A,117.5627,30.695,池州市,第八中学,颗粒物(PM10),51,51,46,26,22,143,,156,155,10,11,6,6,0.3,0.4
2025-05-11T2100,3334A,117.5038,30.6243,池州市,第十二中学,颗粒物(PM10),52,53,41,30,21,117,,150,144,18,14,5,5,0.4,0.6
2025-05-11T2100,1744A,118.9233,42.2816,赤峰市,松山一中,,27,27,43,9,19,84,,104,97,28,31,7,8,0.4,0.5
2025-05-11T2100,1745A,118.9576,42.2728,赤峰市,哈达街,,32,27,34,17,23,101,,106,105,18,25,7,8,0.5,0.5
2025-05-11T2100,1746A,118.8788,42.2554,赤峰市,天义路,,29,,32,20,27,91,,110,107,18,18,9,11,0.4,0.4
2025-05-11T2100,3058A,119.2658,42.0353,赤峰市,银河街,,39,39,47,13,28,74,,114,106,17,18,24,25,0.6,0.7
2025-05-11T2100,3286A,118.9359,42.3147,赤峰市,桥北物流园区,,39,38,45,27,41,79,,99,90,37,37,8,8,0.2,0.4
2025-05-11T2100,2521A,107.3476,22.4136,崇左市,市环保局江州分局,,42,42,23,18,9,74,,95,92,14,5,6,6,0.5,0.3
2025-05-11T2100,4256A,107.3750,22.3736,崇左市,石景林东路7号,,30,30,23,9,6,68,,100,93,14,6,4,4,0.5,0.4
2025-05-11T2100,2298A,118.3093,32.3153,滁州市,老年大学,,43,40,33,30,23,128,,154,151,17,8,3,3,0.4,0.3
2025-05-11T2100,2299A,118.3244,32.2786,滁州市,人大宾馆,颗粒物(PM10),53,55,35,34,22,94,,138,130,31,12,8,8,0.4,0.3
2025-05-11T2100,3207A,118.3118,32.3038,滁州市,市政府原办公楼,,43,34,27,26,21,136,,152,149,16,11,4,4,0.2,0.1
2025-05-11T2100,3331A,118.3267,32.2634,滁州市,图书馆,,45,45,37,29,24,107,,141,137,17,10,8,8,0.3,0.3
2025-05-11T2100,2605A,101.5482,25.0441,楚雄彝族自治州,州环境监测站,,34,20,13,14,10,106,,116,116,10,8,6,11,0.4,0.4
2025-05-11T2100,2606A,101.538,25.0492,楚雄彝族自治州,市经济开发区,,44,44,13,15,11,92,,108,108,17,9,7,11,0.6,0.6
2025-05-11T2100,2548A,107.5277,31.2827,达州市,达州职业技术学院,颗粒物(PM10),68,86,70,39,29,65,,131,118,37,23,6,6,0.9,0.7
2025-05-11T2100,2549A,107.5086,31.2186,达州市,市环境监测站,颗粒物(PM10),78,105,73,44,24,62,,133,125,54,24,5,5,0.5,0.2
2025-05-11T2100,2550A,107.4988,31.2132,达州市,凤凰小区,颗粒物(PM10),68,85,71,36,28,71,,133,126,50,19,7,7,0.6,0.4
2025-05-11T2100,2551A,107.5082,31.1986,达州市,达县机关宾馆,,,95,75,,27,23,,132,117,81,28,5,5,0.5,0.3
2025-05-11T2100,2552A,107.4644,31.2124,达州市,市政中心,颗粒物(PM10),76,101,75,41,26,63,,127,120,48,16,4,3,0.6,0.3
2025-05-11T2100,2614A,100.1542,25.7054,大理白族自治州,大理市环境监测站,,45,,15,31,21,92,,118,114,16,8,7,7,0.4,0.4
2025-05-11T2100,2615A,100.2171,25.5811,大理白族自治州,大理古城,,40,40,19,21,14,83,,117,111,16,8,8,8,0.7,0.6
2025-05-11T2100,1109A,121.612,38.9741,大连市,甘井子,细颗粒物(PM2.5),65,69,47,47,29,117,,159,150,44,21,8,6,0.4,0.3
2025-05-11T2100,1110A,121.565,38.9511,大连市,周水子,细颗粒物(PM2.5),74,80,49,54,31,124,,151,146,34,16,5,8,0.5,0.4
2025-05-11T2100,1111A,121.5637,38.8845,大连市,星海三站,细颗粒物(PM2.5),55,52,46,39,33,139,,162,160,16,12,5,5,0.4,0.4
2025-05-11T2100,1112A,121.6302,38.9117,大连市,青泥洼桥,,47,43,40,32,29,149,,170,168,16,12,8,8,0.4,0.4
2025-05-11T2100,1113A,121.6251,38.8638,大连市,傅家庄,,48,45,48,32,33,152,,173,171,23,20,6,7,0.3,0.3
2025-05-11T2100,1114A,121.5213,38.8661,大连市,七贤岭,细颗粒物(PM2.5),70,81,48,51,31,104,,160,151,42,14,6,7,0.6,0.4
2025-05-11T2100,1115A,121.2529,38.8061,大连市,旅顺,细颗粒物(PM2.5),53,44,42,37,32,124,,146,143,25,20,5,5,0.3,0.3
2025-05-11T2100,1116A,121.7485,39.1311,大连市,金州,颗粒物(PM10),63,75,68,28,30,166,,161,161,14,20,6,8,0.3,0.4
2025-05-11T2100,1117A,121.7811,39.0496,大连市,开发区,细颗粒物(PM2.5),63,55,46,45,33,114,,153,149,49,27,5,6,0.5,0.4
2025-05-11T2100,1118A,121.9762,39.0631,大连市,双D港,,48,33,43,33,35,128,,156,152,18,21,7,10,0.4,0.5
2025-05-11T2100,1789A,124.81117,46.03138,大庆市,大同区,细颗粒物(PM2.5),92,119,54,68,31,48,,121,108,50,11,7,6,1.0,0.6
2025-05-11T2100,1790A,125.129,46.533,大庆市,龙凤区,颗粒物(PM10),81,112,57,50,25,23,,118,92,84,20,15,5,0.9,0.5
2025-05-11T2100,1791A,124.902,46.408,大庆市,红岗区,颗粒物(PM10),60,69,38,30,19,70,,124,110,30,12,8,6,0.5,0.3
2025-05-11T2100,1792A,125.153,46.586,大庆市,萨尔图区,颗粒物(PM10),81,112,60,56,27,54,,109,90,55,20,9,8,0.7,0.4
2025-05-11T2100,1793A,124.9042,46.6215,大庆市,让胡路区,细颗粒物(PM2.5),60,68,43,43,29,80,,115,107,27,10,8,7,0.4,0.3
2025-05-11T2100,3481A,125.141,46.634,大庆市,萨区政府监测点,颗粒物(PM10),65,79,48,39,20,78,,124,111,36,13,7,6,0.6,0.4
2025-05-11T2100,1721A,113.3819,40.1097,大同市,果树场,,,,,,,,,,,,,,,,
2025-05-11T2100,1723A,113.2994,40.0758,大同市,云冈宾馆,,48,48,30,20,13,91,,124,118,35,22,15,11,0.3,0.2
2025-05-11T2100,1724A,113.3444,40.0917,大同市,大同大学,,48,48,36,20,18,80,,119,114,42,24,3,3,0.8,0.4
2025-05-11T2100,1725A,113.2661,40.1269,大同市,安家小村,,,34,34,12,11,,,118,,11,17,9,12,0.4,0.7
2025-05-11T2100,1726A,113.2711,40.0844,大同市,教育学院,颗粒物(PM10),59,68,38,20,14,64,,116,108,42,20,10,8,0.4,0.4
2025-05-11T2100,3282A,113.3397,40.0597,大同市,大同市卫生学校,颗粒物(PM10),63,76,40,39,18,60,,113,106,46,19,10,10,0.7,0.5
2025-05-11T2100,3565A,113.1367,40.1122,大同市,云冈站,,50,50,34,12,14,55,,114,105,23,14,13,8,0.4,0.4
2025-05-11T2100,3566A,113.1186,40.2556,大同市,图书馆,,28,28,27,9,12,79,,112,107,16,10,6,6,0.4,0.4
2025-05-11T2100,3567A,113.5931,40.0461,大同市,区一中,,25,25,41,15,13,76,,120,113,23,18,12,16,0.5,0.5
2025-05-11T2100,4199A,113.2798,40.0997,大同市,魏都大道141号,颗粒物(PM10),64,77,45,14,13,86,,129,120,30,21,8,8,0.5,0.6
2025-05-11T2100,2269A,124.1069,50.4097,大兴安岭地区,科技局,,31,31,35,16,21,76,,91,89,6,4,6,5,0.3,0.4
2025-05-11T2100,3663A,124.1164,50.4278,大兴安岭地区,红旗社区,,21,19,20,3,16,67,,90,88,8,4,3,2,0.4,0.4
2025-05-11T2100,1600A,124.3303,40.0625,丹东市,江湾东路,细颗粒物(PM2.5),53,53,37,37,25,125,,130,129,12,16,19,12,0.6,0.7
2025-05-11T2100,1601A,124.4256,40.1503,丹东市,临江后街,颗粒物(PM10),69,87,40,30,25,113,,129,126,15,15,8,7,1.0,0.8
2025-05-11T2100,1602A,124.3933,40.1461,丹东市,元宝山,颗粒物(PM10),65,80,37,28,18,117,,126,126,15,17,8,8,0.7,0.6
2025-05-11T2100,1603A,124.3633,40.1092,丹东市,民主桥,颗粒物(PM10),64,77,49,36,21,120,,131,130,10,20,5,7,0.7,0.7
2025-05-11T2100,3541A,109.5726,19.5167,儋州市,第一中学子站,,35,35,22,19,10,68,,70,70,5,5,5,5,0.9,0.7
2025-05-11T2100,3542A,109.5567,19.5187,儋州市,东坡学校子站,,40,40,21,20,11,77,,76,76,5,5,6,5,0.6,0.6
2025-05-11T2100,2616A,98.5842,24.428,德宏傣族景颇族自治州,德宏州监测站,,,87,70,60,50,,,103,98,18,14,8,8,0.9,0.8
2025-05-11T2100,3677A,98.5881,24.4368,德宏傣族景颇族自治州,芒市人民政府综合楼,颗粒物(PM10),83,116,83,59,47,72,,124,112,20,14,6,6,0.9,0.6
2025-05-11T2100,1901A,104.4239,31.1208,德阳市,东山公园,颗粒物(PM10),53,56,80,24,40,145,,158,158,11,15,5,5,0.8,0.8
2025-05-11T2100,1902A,104.3826,31.1317,德阳市,西小区,颗粒物(PM10),54,57,87,35,44,130,,154,152,22,28,3,6,0.9,1
2025-05-11T2100,1904A,104.3553,31.1091,德阳市,耐火材料厂,颗粒物(PM10),60,70,90,34,46,124,,159,156,24,22,7,8,0.5,0.5
2025-05-11T2100,3639A,104.4019,31.1244,德阳市,市教育局,颗粒物(PM10),51,52,77,29,40,136,,159,158,20,20,6,6,0.5,0.5
2025-05-11T2100,1622A,116.3032,37.4674,德州市,儿童乐园,颗粒物(PM10),57,63,58,14,27,133,,149,148,16,19,7,8,0.5,0.6
2025-05-11T2100,1624A,116.2991,37.4451,德州市,监理站,,48,48,56,12,25,130,,146,145,15,19,10,11,0.5,0.5
2025-05-11T2100,3066A,116.2721,37.4379,德州市,九衢泉纯净水厂,颗粒物(PM10),53,56,54,14,31,118,,136,135,19,30,5,7,0.4,0.5
2025-05-11T2100,3371A,116.3728,37.4403,德州市,开发区人民医院,颗粒物(PM10),58,66,57,12,26,112,,138,136,18,16,6,7,0.6,0.7
2025-05-11T2100,3372A,116.3572,37.4094,德州市,太阳城中学,,,61,62,19,34,,,154,154,18,25,5,6,0.8,0.4
2025-05-11T2100,3511A,116.5652,37.3319,德州市,陵城艺术中心,,,78,63,29,31,115,,151,146,30,25,3,5,,0.4
2025-05-11T2100,2621A,99.7056,27.8317,迪庆藏族自治州,迪庆州站,,34,32,33,17,16,106,,108,108,10,10,5,5,0.2,0.3
2025-05-11T2100,3180A,99.7136,27.8094,迪庆藏族自治州,质量技术监督局,,35,34,26,15,10,110,,114,114,10,9,5,5,0.4,0.4
2025-05-11T2100,4257A,104.6092,35.5962,定西市,将台街,,,60,42,23,20,,,149,149,20,30,5,6,0.3,0.4
2025-05-11T2100,4309A,104.6159,35.5701,定西市,正龙路62号,,42,34,33,16,18,134,,153,151,4,9,7,8,0.3,0.3
2025-05-11T2100,1389A,113.7547,23.0494,东莞市,莞城梨川,,,,32,16,18,100,,120,114,18,13,8,6,0.5,0.5
2025-05-11T2100,1390A,113.7944,23.0128,东莞市,东城石井,,26,26,27,13,15,79,,115,104,19,14,5,5,0.6,0.6
2025-05-11T2100,1391A,113.7383,22.9658,东莞市,南城西平,,32,32,30,19,19,87,,130,117,33,23,3,3,0.5,0.5
2025-05-11T2100,3319A,113.7338,23.0381,东莞市,万江金泰,,31,26,26,13,14,98,,120,114,13,9,6,6,0.6,0.6
2025-05-11T2100,3626A,113.7533,23.0202,东莞市,南城元岭,,31,29,27,14,14,97,,125,116,23,15,8,6,0.5,0.5
2025-05-11T2100,3627A,113.7875,23.0457,东莞市,东城主山,,36,36,29,18,14,93,,118,111,20,11,7,5,0.3,0.3
2025-05-11T2100,1666A,118.6614,37.4309,东营市,市环保局,颗粒物(PM10),58,66,54,19,27,81,,156,144,54,35,6,9,0.6,0.5
2025-05-11T2100,3036A,118.6904,37.4338,东营市,开发区管委会,颗粒物(PM10),54,58,64,19,26,100,,157,146,39,30,6,8,0.5,0.5
2025-05-11T2100,3365A,118.5719,37.565,东营市,垦利区民丰路,颗粒物(PM10),60,70,55,39,28,97,,158,146,36,29,8,6,0.3,0.4
2025-05-11T2100,3498A,118.5055,37.8612,东营市,河口城区,颗粒物(PM10),57,63,51,22,23,103,,147,142,30,26,11,14,0.6,0.6
2025-05-11T2100,3646A,118.4978,37.4623,东营市,胜利站,颗粒物(PM10),55,60,63,29,25,82,,146,136,50,32,10,11,0.7,0.7
2025-05-11T2100,3734A,118.35,37.26,东营市,理想之城,颗粒物(PM10),52,53,56,22,28,72,,156,141,52,33,5,7,0.6,0.6
2025-05-11T2100,1591A,110.0023,39.8129,鄂尔多斯市,综合楼,,31,31,36,7,9,82,,116,109,30,19,9,8,0.5,0.3
2025-05-11T2100,1592A,109.9486,39.8261,鄂尔多斯市,巴音孟克林场办事处,,30,24,32,9,10,94,,122,115,22,14,7,7,0.3,0.3
2025-05-11T2100,1593A,109.7736,39.5986,鄂尔多斯市,康泽苑,,30,22,28,9,11,94,,123,120,18,13,7,7,0.3,0.3
2025-05-11T2100,1594A,109.8119,39.5989,鄂尔多斯市,华泰汽车城,,29,29,35,12,12,86,,126,120,30,24,5,5,0.3,0.2
2025-05-11T2100,1595A,109.9734,39.7884,鄂尔多斯市,奥林花园,,34,34,40,12,12,39,,121,104,65,33,4,4,0.7,0.6
2025-05-11T2100,2436A,114.8938,30.3994,鄂州市,市政府,细颗粒物(PM2.5),64,76,49,46,29,115,,143,141,30,18,11,11,1.1,1
2025-05-11T2100,2437A,114.8989,30.3714,鄂州市,赵家坝,细颗粒物(PM2.5),72,63,43,52,22,114,,166,161,28,14,7,6,0.8,0.5
2025-05-11T2100,3654A,114.8094,30.4089,鄂州市,精准医疗中心,细颗粒物(PM2.5),59,58,45,42,23,121,,146,145,18,13,3,4,0.6,0.5
2025-05-11T2100,2454A,109.4978,30.2981,恩施土家族苗族自治州,湖北民院,颗粒物(PM10),68,85,49,27,23,60,,127,123,30,9,6,6,0.5,0.3
2025-05-11T2100,2455A,109.4707,30.2798,恩施土家族苗族自治州,州电力总公司,颗粒物(PM10),52,54,41,29,20,71,,115,113,23,10,10,7,0.2,0.2
2025-05-11T2100,3549A,109.5061,30.3772,恩施土家族苗族自治州,龙凤新区,颗粒物(PM10),54,58,40,14,19,85,,129,126,11,7,6,6,0.6,0.5
2025-05-11T2100,2499A,108.3411,21.6158,防城港市,沙万,,50,50,29,12,13,82,,90,90,14,7,2,1,0.5,0.5
2025-05-11T2100,2500A,108.3514,21.7731,防城港市,防城档案局,颗粒物(PM10),82,114,47,20,14,63,,90,85,35,14,2,2,0.5,0.4
2025-05-11T2100,2501A,108.3506,21.6414,防城港市,大海花园,,36,36,32,16,13,93,,102,102,15,12,2,2,0.4,0.4
2025-05-11T2100,1371A,113.1294,23.0067,佛山市,湾梁,,41,41,32,18,15,46,,123,109,51,22,7,8,0.6,0.6
2025-05-11T2100,1372A,113.1083,23.0478,佛山市,华材职中,,34,34,34,19,18,80,,124,116,26,25,5,5,0.5,0.4
2025-05-11T2100,1373A,113.144,23.0453,佛山市,南海气象局,,37,37,32,16,16,74,,116,108,36,23,1,2,0.5,0.4
2025-05-11T2100,1374A,113.2881,22.8094,佛山市,顺德苏岗,,40,40,32,14,14,74,,121,116,29,16,6,6,0.5,0.5
2025-05-11T2100,1376A,112.8383,22.8678,佛山市,高明孔堂,,47,47,37,15,17,76,,133,124,21,21,6,7,0.5,0.5
2025-05-11T2100,1377A,112.8836,23.1588,佛山市,三水监测站,颗粒物(PM10),57,63,35,3,10,12,,112,95,101,24,3,4,0.8,0.5
2025-05-11T2100,1378A,112.867,23.185,佛山市,三水云东海,,44,44,38,16,16,63,,122,107,48,22,3,2,0.6,0.5
2025-05-11T2100,3625A,113.2544,22.7642,佛山市,容桂街道办,,31,27,27,17,18,97,,135,131,28,20,6,5,0.7,0.6
2025-05-11T2100,1280A,119.3903,26.0543,福州市,鼓山,,,,26,,6,,,85,,,7,,3,,0.3
2025-05-11T2100,1282A,119.2681,26.0504,福州市,师大,,38,38,29,26,15,88,,102,101,26,14,4,4,0.4,0.3
2025-05-11T2100,1283A,119.2984,26.1028,福州市,五四北路,,44,44,29,22,14,86,,98,97,23,12,4,4,0.6,0.4
2025-05-11T2100,1284A,119.2648,26.0768,福州市,杨桥西路,,42,42,34,20,14,95,,102,102,17,10,4,4,0.4,0.3
2025-05-11T2100,1285A,119.317,26.0746,福州市,紫阳,,,35,37,18,17,,,95,95,20,14,6,6,0.4,0.4
2025-05-11T2100,3048A,119.5799,26.0936,福州市,九龙,,29,17,23,7,12,91,,108,108,4,7,4,4,0.3,0.3
2025-05-11T2100,3526A,119.5189,25.9664,福州市,吴航,,27,27,27,18,16,63,,106,102,12,10,4,4,0.4,0.4
2025-05-11T2100,1755A,123.7977,41.8491,抚顺市,望花区,细颗粒物(PM2.5),77,94,68,56,37,144,,154,154,23,30,10,8,0.8,0.7
2025-05-11T2100,1756A,123.9161,41.8822,抚顺市,顺城区,细颗粒物(PM2.5),67,81,54,48,30,127,,147,144,33,32,14,9,0.7,0.7
2025-05-11T2100,1757A,124.0436,41.8611,抚顺市,东洲区,"颗粒物(PM10),细颗粒物(PM2.5)",77,103,44,56,23,124,,140,137,22,15,14,7,0.9,0.5
2025-05-11T2100,1758A,123.9247,41.8642,抚顺市,新抚区,细颗粒物(PM2.5),68,79,55,49,27,121,,132,132,20,27,12,8,0.8,0.6
2025-05-11T2100,1759A,124.0972,41.8961,抚顺市,大伙房水库,颗粒物(PM10),75,100,37,51,25,137,,151,148,18,10,16,9,0.9,0.6
2025-05-11T2100,1760A,123.7086,41.8391,抚顺市,沈抚新城,细颗粒物(PM2.5),80,78,66,59,32,150,,153,153,20,34,10,13,0.6,1
2025-05-11T2100,2376A,116.2127,28.0814,抚州市,桐源党溪,,37,37,33,24,18,82,,133,122,2,3,6,6,0.4,0.4
2025-05-11T2100,2377A,116.3544,27.9831,抚州市,市站,,40,40,35,26,18,94,,115,113,14,7,1,4,0.3,0.3
2025-05-11T2100,2378A,116.3565,27.963,抚州市,血防站,颗粒物(PM10),51,52,40,23,20,97,,120,116,13,5,6,3,0.6,0.4
2025-05-11T2100,2379A,116.3564,28.0007,抚州市,采茶剧团,,42,42,34,28,18,89,,112,110,9,4,1,3,1.0,0.9
2025-05-11T2100,2380A,116.385,27.9647,抚州市,医学分院,,48,48,34,16,14,96,,118,116,13,4,7,7,1.1,1
2025-05-11T2100,2207A,121.6094,41.998,阜新市,工业园区,细颗粒物(PM2.5),104,,69,78,40,148,,141,141,18,30,21,16,0.6,0.6
2025-05-11T2100,2208A,121.6697,42.0279,阜新市,长青街,,,,58,,33,,,69,,,38,,15,,3.0
2025-05-11T2100,2209A,121.6673,42.0705,阜新市,农业园区,细颗粒物(PM2.5),70,74,48,51,29,147,,138,138,17,18,24,29,0.7,0.8
2025-05-11T2100,2210A,121.6717,42.0224,阜新市,东苑,细颗粒物(PM2.5),118,,82,89,48,135,,143,140,30,34,24,21,0.7,3.1
2025-05-11T2100,2211A,121.6506,42.0498,阜新市,玉龙新城,细颗粒物(PM2.5),92,68,58,68,29,139,,139,137,18,29,25,17,0.7,0.7
2025-05-11T2100,2301A,115.8277,32.8929,阜阳市,市监测站,,40,40,44,27,30,118,,140,138,16,11,7,8,0.1,0.1
2025-05-11T2100,2303A,115.8554,32.8605,阜阳市,开发区,,,,60,23,25,101,,148,141,23,12,6,7,0.2,0.2
2025-05-11T2100,2875A,115.784,32.8892,阜阳市,阜阳职业技术学院,,47,47,49,19,24,116,,153,147,24,12,6,6,0.3,0.3
2025-05-11T2100,3468A,115.7901,32.8613,阜阳市,市规划展馆,,40,30,41,23,27,127,,159,156,13,7,7,7,0.2,0.2
2025-05-11T2100,3469A,115.836,32.9183,阜阳市,枣园社区,,40,35,44,19,24,128,,149,148,13,10,4,4,0.2,0.2
2025-05-11T2100,2669A,102.9099,34.9841,甘南藏族自治州,州政府,,36,36,42,22,16,92,,112,109,14,24,8,9,0.3,0.3
2025-05-11T2100,3380A,102.8914,34.9617,甘南藏族自治州,甘肃民族师范学院,,,,46,36,16,22,,134,117,86,38,9,9,0.5,0.4
2025-05-11T2100,2570A,101.9603,30.0475,甘孜藏族自治州,水桥子,,40,40,45,13,17,86,,93,93,8,16,4,4,0.3,0.3
2025-05-11T2100,3065A,101.9533,29.9972,甘孜藏族自治州,州环保局,,44,44,44,13,10,77,,92,92,12,15,1,1,0.2,0.1
2025-05-11T2100,3414A,115.8347,28.932,赣江新区,桑海产业园,颗粒物(PM10),59,68,39,29,20,117,,146,142,34,19,4,2,0.3,0.3
2025-05-11T2100,2362A,114.9017,25.9149,赣州市,通天岩,,30,30,29,8,6,85,,138,123,5,4,8,8,0.3,0.2
2025-05-11T2100,2363A,114.9367,25.8664,赣州市,地委,,36,36,32,17,14,105,,129,127,12,8,1,2,0.4,0.2
2025-05-11T2100,2364A,114.9461,25.8481,赣州市,气象台,,37,34,31,18,12,117,,128,127,16,12,12,9,0.4,0.3
2025-05-11T2100,2365A,114.9322,25.8333,赣州市,市图书馆,,41,33,27,23,14,129,,136,136,11,8,5,4,0.4,0.3
2025-05-11T2100,2366A,114.8905,25.8471,赣州市,华坚鞋城,,38,34,31,21,14,120,,135,134,15,9,5,5,0.4,0.2
2025-05-11T2100,3109A,115.0093,25.8613,赣州市,赣县区卫计委,细颗粒物(PM2.5),52,45,25,36,15,59,,114,108,39,9,3,3,0.7,0.5
2025-05-11T2100,2683A,106.2319,36.1417,固原市,马园,颗粒物(PM10),57,64,46,22,13,35,,132,,72,36,5,5,0.6,0.5
2025-05-11T2100,2684A,106.2792,36.0022,固原市,监测站,颗粒物(PM10),57,63,29,26,12,78,,130,121,38,19,6,5,0.4,0.4
2025-05-11T2100,2685A,106.2375,36.0211,固原市,新区,,48,48,31,14,10,82,,117,110,28,15,6,6,0.1,0.1
2025-05-11T2100,3522A,106.2177,35.9959,固原市,原州区十五小,,45,45,32,16,12,100,,127,122,23,8,8,8,0.4,0.2
2025-05-11T2100,2543A,106.6308,30.5278,广安市,小平旧居,,,,,,,,,,,,,,,,
2025-05-11T2100,2544A,106.6303,30.4576,广安市,市委,颗粒物(PM10),80,110,71,39,29,71,,137,130,50,12,5,4,0.6,0.4
2025-05-11T2100,2545A,106.6271,30.4663,广安市,友谊中学,颗粒物(PM10),63,76,59,37,27,92,,122,,39,16,5,4,0.8,0.4
2025-05-11T2100,2547A,106.6388,30.4551,广安市,广电花园,颗粒物(PM10),67,84,61,38,28,80,,136,131,44,15,5,5,0.7,0.4
2025-05-11T2100,2902A,106.6351,30.4865,广安市,北辰小学,颗粒物(PM10),66,81,65,42,28,86,,145,139,29,13,7,5,0.7,0.4
2025-05-11T2100,2523A,105.8945,32.4535,广元市,黑石坡,颗粒物(PM10),62,73,84,16,27,110,,116,115,11,10,4,4,0.3,0.4
2025-05-11T2100,2524A,105.821,32.4444,广元市,老城,颗粒物(PM10),63,75,67,26,22,128,,129,129,5,20,1,2,0.6,0.7
2025-05-11T2100,2526A,105.8628,32.4287,广元市,监测站,颗粒物(PM10),51,52,55,30,26,120,,130,129,10,13,6,7,0.4,0.5
2025-05-11T2100,3617A,105.8047,32.4166,广元市,经开区,颗粒物(PM10),56,62,79,32,36,131,,133,133,9,22,5,9,0.5,0.6
2025-05-11T2100,1345A,113.2347,23.1423,广州市,广雅中学,,50,50,41,29,21,79,,124,116,37,25,4,4,0.2,0.1
2025-05-11T2100,1346A,113.2612,23.105,广州市,市五中,,38,38,27,26,18,68,,116,106,31,16,2,2,0.8,0.7
2025-05-11T2100,1348A,113.3478,23.0916,广州市,广东商学院,,46,46,30,23,16,63,,122,110,39,15,4,4,0.6,0.5
2025-05-11T2100,1349A,113.4332,23.1047,广州市,市八十六中,颗粒物(PM10),59,68,46,24,19,63,,123,110,48,19,3,2,0.6,0.5
2025-05-11T2100,1350A,113.3505,22.9483,广州市,番禺中学,,40,40,34,14,14,84,,132,123,29,18,6,6,0.5,0.5
2025-05-11T2100,1351A,113.2146,23.3916,广州市,花都师范,,42,42,27,15,11,84,,125,120,36,17,4,5,0.5,0.4
2025-05-11T2100,1352A,113.2597,23.1331,广州市,市监测站,颗粒物(PM10),52,54,35,28,17,53,,112,99,47,24,5,5,0.3,0.1
2025-05-11T2100,1353A,113.5618,23.312,广州市,九龙镇镇龙,,26,26,24,14,13,67,,101,92,14,15,5,5,0.4,0.4
2025-05-11T2100,1354A,113.2765,23.1544,广州市,麓湖,,,,32,16,15,45,,110,94,39,20,5,5,,0.5
2025-05-11T2100,1355A,113.443,23.3035,广州市,帽峰山森林公园,,28,15,22,14,15,87,,111,97,11,9,5,5,0.5,0.6
2025-05-11T2100,2846A,113.3221,23.1322,广州市,体育西,颗粒物(PM10),53,55,33,17,12,72,,116,108,33,17,5,4,0.5,0.4
2025-05-11T2100,3298A,113.5717,23.5491,广州市,从化街口,,37,37,28,20,15,36,,118,98,37,12,6,7,0.6,0.4
2025-05-11T2100,3299A,113.3472,23.3692,广州市,白云竹料,颗粒物(PM10),54,58,29,31,16,54,,126,115,38,10,3,3,0.7,0.4
2025-05-11T2100,3300A,113.2981,23.237,广州市,白云嘉禾,,43,43,34,21,18,45,,114,95,56,25,6,6,0.7,0.5
2025-05-11T2100,3301A,113.4256,23.1716,广州市,黄埔科学城,,41,41,31,21,17,34,,101,88,26,9,2,2,0.5,0.5
2025-05-11T2100,3302A,113.3942,23.0483,广州市,番禺大学城,,29,29,24,16,14,70,,127,116,44,23,4,3,0.3,0.3
2025-05-11T2100,3303A,113.4922,22.8168,广州市,南沙黄阁,,38,38,36,23,17,63,,130,118,42,18,7,7,0.8,0.6
2025-05-11T2100,3304A,113.5342,22.7896,广州市,南沙街,,44,44,39,22,18,78,,138,126,34,19,3,4,0.6,0.6
2025-05-11T2100,3443A,113.2902,23.5544,广州市,花都梯面,,30,30,30,16,16,15,,110,89,43,11,5,6,0.6,0.5
2025-05-11T2100,3445A,113.7858,23.7478,广州市,从化良口,,25,24,28,12,14,80,,120,103,7,7,6,7,0.3,0.3
2025-05-11T2100,3446A,113.8051,23.2614,广州市,增城荔城,,37,37,28,20,13,55,,115,99,20,9,8,8,0.6,0.5
2025-05-11T2100,2505A,109.568,23.1478,贵港市,德智高中,,,,,,,,,,,,,,,,
2025-05-11T2100,2506A,109.6047,23.0666,贵港市,江南子站,,35,34,35,16,19,110,,123,123,16,12,4,4,0.5,0.5
2025-05-11T2100,2508A,109.5669,23.1065,贵港市,荷城子站,,33,28,31,14,15,103,,107,107,13,11,8,5,0.3,0.3
2025-05-11T2100,3405A,109.5886,23.1172,贵港市,新世纪学校,,41,41,39,25,22,97,,109,109,9,4,1,2,0.9,0.9
2025-05-11T2100,4260A,109.5933,23.0951,贵港市,中山路155-3号,,38,38,38,20,19,116,,124,124,13,10,4,4,0.6,0.6
2025-05-11T2100,1439A,106.6899,26.5998,贵阳市,马鞍山,,27,27,32,14,11,82,,101,97,10,10,2,3,0.6,0.4
2025-05-11T2100,1441A,106.6243,26.6266,贵阳市,鉴湖路,,44,44,44,12,14,99,,124,124,12,11,4,3,0.3,0.3
2025-05-11T2100,1442A,106.7487,26.6343,贵阳市,燕子冲,,34,34,43,19,25,102,,126,125,9,10,15,15,0.1,0.2
2025-05-11T2100,1443A,106.6555,26.4365,贵阳市,碧云窝,,46,46,43,17,17,80,,129,125,18,10,5,5,0.3,0.2
2025-05-11T2100,1445A,106.7109,26.6027,贵阳市,红边门,,41,41,40,14,22,104,,129,128,20,12,12,10,0.0,0
2025-05-11T2100,1446A,106.7164,26.5699,贵阳市,新华路,,46,46,43,17,14,99,,119,118,14,9,7,9,0.3,0.3
2025-05-11T2100,1447A,106.674,26.5424,贵阳市,太慈桥,,48,48,37,19,14,73,,124,120,43,15,5,5,0.3,0.3
2025-05-11T2100,1552A,106.805,26.3003,贵阳市,桐木岭,细颗粒物(PM2.5),70,75,50,51,23,92,,114,111,9,6,4,3,0.7,0.6
2025-05-11T2100,4230A,106.6882,26.5695,贵阳市,花果园大街66号,,41,41,40,18,21,107,,124,124,10,6,4,4,0.3,0.2
2025-05-11T2100,4231A,106.6873,26.5169,贵阳市,漓江路57号,,41,41,40,24,19,87,,127,124,24,12,9,8,0.5,0.3
2025-05-11T2100,1862A,110.4144,25.3167,桂林市,电子科大尧山校区,,,,,,,,,,,,,,,,
2025-05-11T2100,1864A,110.3089,25.2708,桂林市,龙隐路小学,,36,36,32,24,16,109,,131,128,12,6,10,10,0.3,0.3
2025-05-11T2100,1865A,110.2869,25.2178,桂林市,八中,,44,44,39,22,16,88,,120,113,29,11,6,4,0.4,0.3
2025-05-11T2100,3531A,110.296,25.1253,桂林市,旅游学院,,29,29,27,17,15,90,,120,115,16,7,2,2,0.6,0.6
2025-05-11T2100,4222A,110.1835,25.2444,桂林市,环湖路276号,,48,48,45,27,28,89,,111,108,19,10,33,30,0.3,0.3
2025-05-11T2100,4301A,110.2803,25.2773,桂林市,信义路13号,,35,35,36,24,16,97,,128,123,24,10,12,5,0.2,0.2
2025-05-11T2100,2674A,100.2561,34.4714,果洛藏族自治州,玛沁县大武镇,,47,47,30,19,13,102,,122,120,4,5,22,23,0.4,0.4
2025-05-11T2100,1129A,126.5422,45.755,哈尔滨市,岭北,细颗粒物(PM2.5),58,45,36,41,24,108,,137,132,21,15,22,8,0.8,0.3
2025-05-11T2100,1130A,126.561,45.8167,哈尔滨市,松北商大,细颗粒物(PM2.5),55,54,35,39,22,99,,124,119,18,12,8,7,0.6,0.5
2025-05-11T2100,1131A,126.979,45.5419,哈尔滨市,阿城会宁,颗粒物(PM10),51,51,49,32,37,85,,129,119,18,21,6,6,0.5,0.5
2025-05-11T2100,1132A,126.599,45.7222,哈尔滨市,南岗学府路,颗粒物(PM10),58,65,42,35,21,94,,130,125,22,14,6,6,0.6,0.5
2025-05-11T2100,1133A,126.689,45.7733,哈尔滨市,太平宏伟公园,颗粒物(PM10),52,54,43,30,22,103,,131,128,29,19,6,5,0.5,0.5
2025-05-11T2100,1134A,126.635,45.7667,哈尔滨市,道外承德广场,颗粒物(PM10),59,68,47,39,28,102,,123,119,25,23,7,7,0.7,0.3
2025-05-11T2100,1135A,126.685,45.7319,哈尔滨市,香坊红旗大街,"颗粒物(PM10),细颗粒物(PM2.5)",60,70,50,43,24,89,,126,120,31,25,13,12,0.7,0.6
2025-05-11T2100,1136A,126.6411,45.7258,哈尔滨市,动力和平路,细颗粒物(PM2.5),55,52,42,39,25,96,,117,115,20,15,8,8,0.4,0.4
2025-05-11T2100,1137A,126.593,45.7478,哈尔滨市,道里建国路,细颗粒物(PM2.5),58,58,43,41,27,102,,124,120,22,20,6,6,0.4,0.4
2025-05-11T2100,1138A,126.615,45.61,哈尔滨市,平房东轻厂,颗粒物(PM10),53,56,39,28,17,95,,138,130,17,16,8,8,0.6,0.5
2025-05-11T2100,1139A,126.595,45.9855,哈尔滨市,呼兰师专,细颗粒物(PM2.5),54,48,48,38,26,110,,118,118,22,17,8,9,0.6,0.6
2025-05-11T2100,1140A,126.6206,45.6842,哈尔滨市,省农科院,细颗粒物(PM2.5),63,74,74,45,29,75,,119,112,36,23,8,10,0.7,0.6
2025-05-11T2100,2688A,93.5128,42.8172,哈密市,地区监测站,,40,40,62,13,20,86,,102,101,15,19,3,3,0.0,0
2025-05-11T2100,2689A,93.4961,42.8328,哈密市,哈密师范学校,,49,49,52,14,22,97,,118,118,18,26,5,15,0.4,0.2
2025-05-11T2100,2671A,100.9048,36.9639,海北藏族自治州,海晏县西海镇,,29,12,12,7,8,91,,124,120,11,6,10,8,0.3,0.3
2025-05-11T2100,3867A,102.0738,36.5056,海东市,平安区公安北苑,,34,34,32,14,12,106,,135,132,23,11,18,10,0.6,0.7
2025-05-11T2100,1409A,110.576,19.9507,海口市,东寨港,,,25,19,7,6,107,,105,105,4,4,12,6,,
2025-05-11T2100,1410A,110.3232,20.0574,海口市,海南大学,,40,35,28,17,13,128,,122,122,6,6,4,4,0.4,0.4
2025-05-11T2100,1411A,110.283,20.0053,海口市,秀英海南医院,,39,35,23,22,17,122,,117,117,7,10,5,5,0.3,0.3
2025-05-11T2100,1412A,110.338,19.9969,海口市,海南师范大学,,38,38,25,20,14,119,,119,119,6,6,4,4,0.4,0.4
2025-05-11T2100,1413A,110.33,20.0356,海口市,龙华路环保局宿舍,,40,39,27,19,15,125,,121,121,7,7,5,4,0.3,0.3
2025-05-11T2100,3539A,110.5111,19.9736,海口市,桂林洋子站,,37,36,28,19,13,118,,118,118,7,5,4,4,0.2,0.3
2025-05-11T2100,2673A,100.6188,36.2866,海南藏族自治州,共和县恰卜恰镇,颗粒物(PM10),55,60,30,3,10,83,,137,131,44,11,16,14,0.4,0.3
2025-05-11T2100,2676A,97.3731,37.3753,海西蒙古族藏族自治州,德令哈市,,35,31,25,10,10,112,,124,124,7,4,10,10,0.4,0.3
2025-05-11T2100,1048A,114.5302,36.6116,邯郸市,东污水处理厂,,50,50,47,3,14,101,,131,130,24,22,4,6,0.5,0.7
2025-05-11T2100,1049A,114.4918,36.5713,邯郸市,矿院,,39,39,45,9,20,93,,124,122,24,25,4,6,0.4,0.6
2025-05-11T2100,1050A,114.484,36.6133,邯郸市,丛台公园,颗粒物(PM10),53,55,41,15,19,104,,138,136,26,20,5,6,0.4,0.6
2025-05-11T2100,3458A,114.7895,36.5593,邯郸市,香泉濮院小区,,47,47,60,9,12,106,,135,132,17,17,4,5,0.4,0.4
2025-05-11T2100,3579A,114.50634,36.77178,邯郸市,永年区实验高中,颗粒物(PM10),56,62,59,21,26,101,,126,126,19,16,9,10,0.8,1
2025-05-11T2100,3580A,114.20016,36.44293,邯郸市,峰峰矿区临水派出所,,49,49,32,11,10,100,,126,126,27,16,11,6,0.7,0.6
2025-05-11T2100,2634A,106.9893,33.1842,汉中市,汉川机床厂子校,细颗粒物(PM2.5),68,84,55,49,34,92,,158,151,16,11,8,8,0.8,0.8
2025-05-11T2100,2635A,107.0154,33.0706,汉中市,市监测站,颗粒物(PM10),63,76,65,27,30,108,,138,134,8,14,6,7,0.4,0.4
2025-05-11T2100,2636A,107.0089,33.1138,汉中市,鑫源开发区,颗粒物(PM10),56,61,61,29,33,118,,148,145,10,17,5,6,0.4,0.4
2025-05-11T2100,2637A,107.007,33.0323,汉中市,南郑大河坎水厂,颗粒物(PM10),58,66,54,29,25,124,,147,144,8,14,6,6,0.4,0.4
2025-05-11T2100,1223A,120.2072,30.2111,杭州市,滨江,,50,39,29,35,15,123,,151,148,27,17,7,7,0.5,0.4
2025-05-11T2100,1224A,120.0633,30.2747,杭州市,西溪,,33,33,16,11,8,70,,134,123,24,10,5,5,0.4,0.3
2025-05-11T2100,1226A,120.3417,30.3150,杭州市,下沙,,49,45,27,30,14,52,,152,138,98,22,8,7,0.5,0.4
2025-05-11T2100,1227A,120.1269,30.2456,杭州市,卧龙桥,,35,35,24,21,16,66,,145,128,19,9,6,6,0.5,0.5
2025-05-11T2100,1228A,120.1903,30.2692,杭州市,浙江农大,颗粒物(PM10),61,72,35,43,26,65,,136,123,60,21,9,9,0.5,0.4
2025-05-11T2100,1230A,120.1197,30.3119,杭州市,和睦小学,,49,49,26,19,9,98,,143,136,38,11,9,8,0.4,0.2
2025-05-11T2100,1231A,120.3019,30.4183,杭州市,临平镇,颗粒物(PM10),53,55,30,27,14,110,,152,145,32,16,6,6,0.5,0.3
2025-05-11T2100,1232A,120.2753,30.1839,杭州市,城厢镇,,,40,21,26,16,73,,144,135,,12,7,8,0.3,0.2
2025-05-11T2100,1233A,120.0883,30.1808,杭州市,云栖,,39,39,31,21,12,71,,140,121,32,21,5,5,0.5,0.6
2025-05-11T2100,3557A,119.9464,30.0494,杭州市,镇二中,颗粒物(PM10),52,53,26,27,12,42,,130,114,58,16,4,3,0.4,0.4
2025-05-11T2100,3558A,119.7183,30.2367,杭州市,市府大楼,,49,49,24,31,16,82,,140,131,27,12,8,8,0.5,0.5
2025-05-11T2100,3656A,120.1556,30.2864,杭州市,消防大队,,38,34,19,26,14,102,,147,142,34,17,4,4,0.5,0.4
2025-05-11T2100,1270A,117.1959,31.7848,合肥市,明珠广场,颗粒物(PM10),56,61,35,31,16,84,,142,127,50,24,9,7,0.5,0.3
2025-05-11T2100,1271A,117.3072,31.8764,合肥市,三里街,颗粒物(PM10),59,68,36,39,18,41,,131,117,84,20,6,5,0.8,0.5
2025-05-11T2100,1272A,117.2588,31.8707,合肥市,琥珀山庄,颗粒物(PM10),58,66,38,34,22,78,,137,124,39,16,4,4,0.8,0.5
2025-05-11T2100,1273A,117.1604,31.9052,合肥市,董铺水库,,48,48,35,17,13,103,,128,125,21,12,1,1,0.3,0.3
2025-05-11T2100,1274A,117.25,31.8571,合肥市,长江中路,颗粒物(PM10),64,78,38,38,20,83,,138,131,45,15,7,6,0.8,0.5
2025-05-11T2100,1275A,117.266,31.9436,合肥市,庐阳区,,44,44,34,19,16,116,,138,136,21,10,7,6,0.4,0.4
2025-05-11T2100,1276A,117.3453,31.8616,合肥市,瑶海区,颗粒物(PM10),57,63,38,27,17,65,,125,118,73,23,6,6,0.3,0.3
2025-05-11T2100,1277A,117.3027,31.7964,合肥市,包河区,颗粒物(PM10),58,66,39,27,19,105,,133,127,32,23,7,6,0.5,0.4
2025-05-11T2100,1278A,117.2776,31.7385,合肥市,滨湖新区,,49,44,34,34,22,127,,126,123,19,30,9,8,0.6,0.5
2025-05-11T2100,1279A,117.1318,31.8403,合肥市,高新区,,48,48,35,20,15,94,,135,131,33,11,2,2,0.4,0.4
2025-05-11T2100,3464A,117.3803,31.9147,合肥市,高教基地,颗粒物(PM10),60,70,38,21,18,82,,136,125,24,20,7,6,0.4,0.4
2025-05-11T2100,3614A,79.924,37.0877,和田地区,地区环保局,颗粒物(PM10),265,395,562,130,195,64,,70,70,14,9,2,1,0.4,0.2
2025-05-11T2100,3615A,79.9131,37.113,和田地区,市环保局,颗粒物(PM10),194,338,523,112,159,59,,76,75,21,13,3,2,0.4,0.3
2025-05-11T2100,2516A,108.2011,24.715,河池市,东仁乐园,,,,,,,,,,,,,,,,
2025-05-11T2100,2517A,108.0497,24.6947,河池市,市环保站,,31,6,19,3,3,97,,112,111,8,5,10,6,0.5,0.4
2025-05-11T2100,2518A,108.0983,24.6989,河池市,市疾控中心,,28,28,17,16,4,61,,104,100,29,8,12,8,0.5,0.4
2025-05-11T2100,1696A,114.6778,23.7569,河源市,源西,,39,39,29,15,14,50,,106,88,29,12,5,4,0.8,0.6
2025-05-11T2100,1697A,114.6944,23.7586,河源市,东埔,,50,50,28,19,15,44,,121,106,45,14,4,4,0.8,0.4
2025-05-11T2100,1698A,114.6892,23.7233,河源市,老城,细颗粒物(PM2.5),73,,30,53,16,68,,107,96,16,14,4,4,0.4,0.4
2025-05-11T2100,1718A,115.4208,35.2464,菏泽市,气象局,颗粒物(PM10),73,95,69,23,32,140,,157,156,16,20,4,4,0.3,0.4
2025-05-11T2100,3374A,115.5564,35.0891,菏泽市,定陶老年大学,颗粒物(PM10),54,58,55,29,24,135,,160,159,14,14,12,6,0.4,0.4
2025-05-11T2100,4184A,115.4797,35.24401,菏泽市,永昌路1号,颗粒物(PM10),56,61,60,23,32,135,,152,151,17,20,6,6,0.3,0.3
2025-05-11T2100,4193A,115.4715,35.2800,菏泽市,长城路999号,颗粒物(PM10),59,67,56,11,23,143,,152,152,17,22,8,8,0.2,0.3
2025-05-11T2100,2514A,111.5264,24.4172,贺州市,环保小区,颗粒物(PM10),54,57,39,30,22,66,,113,107,29,10,6,6,0.8,0.6
2025-05-11T2100,2515A,111.5608,24.4078,贺州市,政协大楼,,39,37,35,27,19,77,,116,111,25,10,8,7,0.6,0.5
2025-05-11T2100,3534A,111.4744,24.4553,贺州市,西湾,,43,43,38,24,18,81,,111,108,21,10,10,10,0.6,0.5
2025-05-11T2100,2385A,114.17,35.9019,鹤壁市,市监测站,,40,32,34,12,17,126,,154,151,10,11,3,3,0.4,0.4
2025-05-11T2100,2386A,114.2956,35.7511,鹤壁市,市交警支队,,39,30,49,10,19,123,,151,148,13,26,5,6,0.3,0.6
2025-05-11T2100,2387A,114.2878,35.7306,鹤壁市,迎宾馆,,47,47,62,17,23,126,,154,152,8,20,4,6,0.3,0.5
2025-05-11T2100,3474A,114.2617,35.6822,鹤壁市,大新区,,43,43,50,14,26,109,,140,137,22,36,10,9,0.3,0.4
2025-05-11T2100,3596A,114.1572,35.9603,鹤壁市,南山宾馆,,50,50,51,21,25,138,,161,160,1,6,6,7,0.2,0.2
2025-05-11T2100,2244A,130.2537,47.3416,鹤岗市,哈啤分公司,,49,49,31,27,23,101,,103,103,14,13,14,15,0.4,0.3
2025-05-11T2100,2245A,130.2684,47.3086,鹤岗市,斯达机电,细颗粒物(PM2.5),52,36,35,36,25,99,,104,104,12,14,12,15,0.4,0.3
2025-05-11T2100,2246A,130.3114,47.3388,鹤岗市,东山纸板厂,颗粒物(PM10),52,54,65,28,34,89,,102,99,15,24,14,15,0.5,0.9
2025-05-11T2100,2247A,130.1097,47.3382,鹤岗市,五号水库,,,,,,,,,,,,,,,,
2025-05-11T2100,2263A,127.4833,50.2524,黑河市,交通局,细颗粒物(PM2.5),172,,63,130,46,75,,87,84,18,8,8,8,0.7,0.3
2025-05-11T2100,2264A,127.5144,50.2341,黑河市,环保局,细颗粒物(PM2.5),229,,55,179,50,70,,84,80,23,14,9,11,0.8,0.3
2025-05-11T2100,2265A,127.5291,50.2472,黑河市,大黑河岛,,23,23,60,14,37,70,,68,59,26,11,6,3,0.7,0.4
2025-05-11T2100,1074A,115.6838,37.7541,衡水市,电机北厂,颗粒物(PM10),55,60,50,32,24,142,,157,157,12,14,8,8,0.4,0.5
2025-05-11T2100,1075A,115.6303,37.7316,衡水市,市监测站,颗粒物(PM10),54,58,46,26,22,126,,147,146,15,15,6,8,0.4,0.5
2025-05-11T2100,3188A,115.6683,37.7217,衡水市,市城管局,颗粒物(PM10),56,62,51,27,26,130,,151,151,14,14,8,7,0.3,0.5
2025-05-11T2100,3459A,115.5989,37.5491,衡水市,地表水厂,颗粒物(PM10),63,75,65,22,28,105,,148,145,30,27,8,8,0.4,0.5
2025-05-11T2100,2456A,112.5003,26.9167,衡阳市,原169医院,颗粒物(PM10),81,111,58,44,33,62,,154,138,71,15,13,8,0.9,0.6
2025-05-11T2100,2457A,112.6194,26.9258,衡阳市,衡阳化工总厂,细颗粒物(PM2.5),79,77,47,58,29,121,,146,144,20,13,8,7,0.6,0.4
2025-05-11T2100,2458A,112.6211,26.8956,衡阳市,珠晖区环保局,颗粒物(PM10),55,59,44,35,30,136,,158,156,18,20,11,10,0.7,0.5
2025-05-11T2100,2459A,112.6197,26.8733,衡阳市,市委党校,细颗粒物(PM2.5),77,63,49,56,25,116,,150,147,20,13,10,9,0.6,0.6
2025-05-11T2100,2460A,112.6006,26.8919,衡阳市,市监测站,细颗粒物(PM2.5),70,65,45,51,30,121,,146,144,16,11,12,10,0.5,0.3
2025-05-11T2100,2461A,112.5664,26.9056,衡阳市,真空机电公司,颗粒物(PM10),75,100,49,45,27,92,,143,137,44,13,9,6,1.9,0.4
2025-05-11T2100,3399A,112.6703,26.882,衡阳市,师范学院,细颗粒物(PM2.5),99,,58,74,40,124,,157,155,16,15,11,11,0.9,0.6
2025-05-11T2100,2608A,103.3772,23.3993,红河哈尼族彝族自治州,污水处理厂,,38,31,18,26,15,91,,112,111,8,7,5,8,0.4,0.4
2025-05-11T2100,2609A,103.3861,23.35,红河哈尼族彝族自治州,监测站,,46,40,26,32,18,92,,116,114,7,5,12,10,0.4,0.4
2025-05-11T2100,3038A,103.3758,23.368,红河哈尼族彝族自治州,州图书馆,,,13,15,,14,86,,102,101,9,6,3,9,0.2,0.2
2025-05-11T2100,1090A,111.6507,40.7517,呼和浩特市,呼市一监,颗粒物(PM10),60,70,54,26,24,63,,111,108,25,21,9,11,0.5,0.5
2025-05-11T2100,1091A,111.6572,40.8033,呼和浩特市,小召,颗粒物(PM10),74,97,52,22,19,39,,113,106,65,34,9,9,0.8,0.5
2025-05-11T2100,1094A,111.7516,40.8369,呼和浩特市,如意水处理厂,颗粒物(PM10),56,62,39,24,16,66,,109,106,36,34,8,8,0.5,0.4
2025-05-11T2100,1095A,111.7276,40.8062,呼和浩特市,二十九中,颗粒物(PM10),59,67,46,23,22,73,,110,109,29,28,9,7,0.6,0.6
2025-05-11T2100,1096A,111.5512,40.7866,呼和浩特市,工大金川校区,颗粒物(PM10),58,65,42,20,19,46,,110,106,63,34,7,8,0.6,0.5
2025-05-11T2100,1097A,111.717,40.7612,呼和浩特市,化肥厂生活区,颗粒物(PM10),64,77,50,29,23,49,,114,107,57,31,7,9,0.5,0.5
2025-05-11T2100,3698A,111.5968,40.8178,呼和浩特市,红旗小学,颗粒物(PM10),62,73,46,23,18,42,,112,107,70,39,4,6,0.6,0.5
2025-05-11T2100,3699A,111.6518,40.8389,呼和浩特市,海东办,颗粒物(PM10),56,61,43,22,17,36,,103,97,67,32,8,9,0.6,0.5
2025-05-11T2100,2192A,119.7594,49.2261,呼伦贝尔市,区环保局,细颗粒物(PM2.5),220,,83,170,67,28,,103,92,83,24,7,6,1.2,0.5
2025-05-11T2100,3061A,119.7512,49.1577,呼伦贝尔市,国华电力东,细颗粒物(PM2.5),119,143,73,90,51,68,,110,106,33,12,6,4,0.7,0.5
2025-05-11T2100,1250A,120.0751,30.8669,湖州市,城西水厂,二氧化氮,70,47,35,28,19,25,,138,121,140,35,8,7,0.5,0.5
2025-05-11T2100,2873A,120.0830,30.8929,湖州市,仁皇山新区,,43,43,35,29,19,119,,144,141,31,23,5,5,0.7,0.5
2025-05-11T2100,2907A,120.1844,30.8596,湖州市,吴兴区站,,45,45,31,25,18,105,,146,140,45,18,8,7,0.4,0.4
2025-05-11T2100,3562A,120.4148,30.8538,湖州市,南浔区站,,41,41,35,26,18,122,,153,150,20,14,4,5,0.4,0.4
2025-05-11T2100,1607A,120.9049,40.7211,葫芦岛市,龙港区,细颗粒物(PM2.5),113,,62,85,45,168,,147,147,15,39,8,18,0.7,0.7
2025-05-11T2100,1608A,120.8392,40.7514,葫芦岛市,化工街,细颗粒物(PM2.5),79,85,74,58,47,154,,141,141,25,50,11,17,0.8,0.7
2025-05-11T2100,1609A,120.8341,40.7073,葫芦岛市,新区,细颗粒物(PM2.5),102,,55,76,43,173,,145,145,16,50,7,9,0.8,0.8
2025-05-11T2100,1610A,120.8695,40.7677,葫芦岛市,东城区,细颗粒物(PM2.5),128,,75,97,72,145,,139,139,24,44,6,25,0.9,0.7
2025-05-11T2100,2482A,109.5981,27.5721,怀化市,林科所,颗粒物(PM10),57,63,31,22,15,68,,105,103,14,7,4,4,0.3,0.2
2025-05-11T2100,2483A,109.9453,27.5444,怀化市,河西地税局,颗粒物(PM10),60,70,30,32,16,42,,100,95,30,11,5,5,0.7,0.5
2025-05-11T2100,2484A,109.9781,27.5342,怀化市,市四医院,颗粒物(PM10),52,54,36,23,19,66,,108,105,20,7,2,2,0.3,0.1
2025-05-11T2100,2485A,109.9972,27.5578,怀化市,监测楼,,,66,34,34,16,82,,108,108,11,7,,2,0.3,0.2
2025-05-11T2100,2486A,110.0394,27.583,怀化市,市委党校,颗粒物(PM10),60,69,32,42,16,70,,101,100,10,6,1,3,0.5,0.4
2025-05-11T2100,1210A,119.036,33.5981,淮安市,钵池山,,46,46,46,29,24,130,,151,151,16,15,8,13,0.4,0.7
2025-05-11T2100,1211A,119.007,33.575,淮安市,北京南路,颗粒物(PM10),53,56,55,30,29,112,,143,141,22,18,8,18,0.4,1.3
2025-05-11T2100,1212A,118.989,33.6067,淮安市,市监测站,,,,32,,25,,,84,,,18,,9,,0.2
2025-05-11T2100,1213A,119.135,33.5039,淮安市,楚州区监测站,颗粒物(PM10),52,54,48,30,24,88,,140,132,40,19,7,7,0.4,0.4
2025-05-11T2100,3426A,118.8755,33.2894,淮安市,新华书店,,36,35,40,25,22,101,,150,146,25,13,8,8,0.3,0.4
2025-05-11T2100,4206A,119.0288,33.6319,淮安市,承德北路606号,颗粒物(PM10),54,58,47,29,23,114,,143,142,23,15,13,8,1.8,0.5
2025-05-11T2100,2282A,116.8004,33.975,淮北市,监测站,,44,44,53,22,26,121,,146,142,26,20,9,8,0.9,0.7
2025-05-11T2100,2283A,116.8091,33.9007,淮北市,烈山区政府,颗粒物(PM10),52,53,43,25,28,84,,141,131,40,26,11,6,0.7,0.7
2025-05-11T2100,3330A,116.8873,33.9836,淮北市,杜集区检察院,,45,45,59,19,37,116,,147,143,20,20,14,8,0.6,0.7
2025-05-11T2100,4017A,116.7923,33.9535,淮北市,市博物馆,,44,44,52,20,31,120,,145,142,21,20,8,7,0.7,0.6
2025-05-11T2100,2277A,116.8305,32.7727,淮南市,潘集区政府,颗粒物(PM10),66,81,58,33,31,110,,143,139,27,15,4,4,0.3,0.3
2025-05-11T2100,2279A,116.8569,32.5951,淮南市,谢家集区政府,颗粒物(PM10),55,60,46,27,26,108,,140,138,22,15,5,5,0.2,0.2
2025-05-11T2100,2280A,116.8281,32.633,淮南市,八公山区政府,颗粒物(PM10),57,63,53,29,26,122,,142,142,13,10,6,6,0.3,0.2
2025-05-11T2100,2281A,116.6325,32.6201,淮南市,焦岗湖风景区管理处,,,,,,,,,,,,,,,,
2025-05-11T2100,2894A,117.0566,32.6531,淮南市,经济技术开发区消防队,颗粒物(PM10),52,53,48,28,33,121,,140,139,16,12,6,5,0.3,0.3
2025-05-11T2100,3329A,117.0108,32.5893,淮南市,山南新区,颗粒物(PM10),59,67,49,29,20,130,,147,146,12,11,9,7,0.4,0.3
2025-05-11T2100,4209A,117.0031,32.6445,淮南市,国庆中路369号,细颗粒物(PM2.5),54,51,45,38,28,114,,135,133,14,10,9,8,0.4,0.4
2025-05-11T2100,2446A,114.9028,30.4742,黄冈市,职工中心,,,,,,,,,,,,,,,,
2025-05-11T2100,2929A,114.8858,30.4519,黄冈市,红卫路,颗粒物(PM10),51,52,40,30,23,126,,149,148,12,7,8,7,0.5,0.4
2025-05-11T2100,3398A,114.9136,30.4445,黄冈市,市林业局,,48,48,42,20,22,129,,147,147,15,13,8,12,0.8,1
2025-05-11T2100,2672A,102.0199,35.5102,黄南藏族自治州,同仁县隆务镇,,41,41,21,7,8,98,,120,118,5,4,4,4,0.1,0.1
2025-05-11T2100,2295A,118.2903,29.6963,黄山市,延安路89号,,42,39,28,29,18,115,,138,135,9,6,7,6,0.3,0.2
2025-05-11T2100,2297A,118.1371,30.2756,黄山市,黄山区政府5号楼,,42,42,28,23,14,92,,137,131,8,5,4,4,0.3,0.4
2025-05-11T2100,4210A,118.3354,29.7203,黄山市,滨江东路7-2号,,40,40,31,27,14,125,,137,136,9,6,7,5,0.4,0.4
2025-05-11T2100,2423A,115.0601,30.2313,黄石市,沈家营,,,,47,29,20,121,,156,152,16,12,7,8,0.7,0.7
2025-05-11T2100,2426A,114.8988,30.2019,黄石市,铁山,颗粒物(PM10),53,56,47,28,21,95,,143,133,13,12,10,9,0.2,0.4
2025-05-11T2100,2427A,115.0307,30.2092,黄石市,团城山,,40,34,42,21,21,125,,146,144,14,14,8,12,0.5,0.6
2025-05-11T2100,3149A,115.0235,30.1578,黄石市,笔架山北路,细颗粒物(PM2.5),60,57,37,43,25,112,,151,144,19,20,34,9,0.7,0.7
2025-05-11T2100,4185A,115.0780,30.21118,黄石市,磁湖东路29号,颗粒物(PM10),52,54,42,31,23,94,,155,147,35,13,7,7,0.8,0.6
2025-05-11T2100,1392A,114.4183,23.0528,惠州市,河南岸金山湖子站,,35,35,27,19,14,79,,103,98,22,12,10,9,0.5,0.4
2025-05-11T2100,1393A,114.4053,23.0822,惠州市,下埔横江三路子站,,39,39,30,20,15,90,,111,106,26,16,9,8,0.5,0.4
2025-05-11T2100,1394A,114.4103,23.1142,惠州市,江北云山西路子站,,33,33,30,18,16,92,,99,,22,11,12,11,0.5,0.5
2025-05-11T2100,1395A,114.4645,22.7833,惠州市,惠阳区承修路船湖子站,,39,39,33,18,16,59,,105,93,32,13,8,8,0.7,0.6
2025-05-11T2100,1396A,114.5317,22.7422,惠州市,大亚湾管委会子站,,,24,27,12,14,,,98,96,29,10,10,10,0.4,0.4
2025-05-11T2100,3314A,114.4338,22.8134,惠州市,惠阳秋长,,44,44,30,20,14,71,,111,102,25,8,12,11,0.3,0.3
2025-05-11T2100,3452A,114.6517,22.775,惠州市,大亚湾霞涌,,25,25,30,13,14,72,,97,92,16,11,9,8,0.5,0.5
2025-05-11T2100,2240A,130.9762,45.3001,鸡西市,环保局,颗粒物(PM10),52,54,41,30,27,29,,120,96,63,20,7,6,0.9,0.6
2025-05-11T2100,2243A,130.9429,45.3039,鸡西市,第一中学,,36,31,33,25,23,95,,119,115,15,8,7,7,0.5,0.4
2025-05-11T2100,3707A,131.0207,45.3073,鸡西市,欧美日汽修厂,,,,14,,,,,,,,11,,6,,0.5
2025-05-11T2100,3709A,130.9967,45.3106,鸡西市,市政设施管理处,颗粒物(PM10),65,80,52,41,29,28,,116,92,56,26,9,8,0.8,0.6
2025-05-11T2100,2367A,114.9754,27.0803,吉安市,红声器材厂,,46,46,44,22,16,110,,150,144,20,10,11,12,0.5,0.4
2025-05-11T2100,2368A,114.9658,27.0999,吉安市,市森林工业局,,39,39,34,22,17,100,,143,138,23,8,9,11,0.6,0.3
2025-05-11T2100,2369A,114.99,27.1312,吉安市,市环境监测站,,41,28,33,24,18,129,,147,146,5,5,12,17,0.2,0.3
2025-05-11T2100,2370A,115.0093,27.0968,吉安市,青原区法院,,47,47,35,26,18,109,,157,149,18,9,10,11,0.3,0.3
2025-05-11T2100,1772A,126.54,43.8622,吉林市,哈达湾,颗粒物(PM10),54,58,39,32,23,112,,139,136,23,16,7,7,0.5,0.4
2025-05-11T2100,1773A,126.5844,43.8358,吉林市,东局子,细颗粒物(PM2.5),52,46,32,36,21,91,,129,123,36,20,7,6,0.6,0.5
2025-05-11T2100,1774A,126.5052,43.8245,吉林市,电力学院,细颗粒物(PM2.5),107,113,45,80,31,66,,133,121,43,19,6,5,0.9,0.6
2025-05-11T2100,1775A,126.6133,43.8972,吉林市,江北,颗粒物(PM10),58,66,79,31,23,112,,134,126,16,17,7,7,0.5,0.5
2025-05-11T2100,1776A,126.555,43.8306,吉林市,江南公园,颗粒物(PM10),51,52,33,34,24,93,,135,129,23,14,6,6,0.5,0.4
2025-05-11T2100,1778A,126.7061,43.7133,吉林市,丰满,,,,,,,,,,,,,,,,
2025-05-11T2100,2868A,126.4739,43.953,吉林市,九站,,45,31,39,18,28,141,,142,142,14,20,8,7,0.4,0.4
2025-05-11T2100,1299A,116.9862,36.6114,济南市,科干所,,44,36,33,7,20,138,,148,145,14,16,4,4,0.1,0.2
2025-05-11T2100,1300A,116.9376,36.665,济南市,农科所,,42,42,44,22,30,111,,142,138,22,21,7,7,0.3,0.3
2025-05-11T2100,1301A,117.1265,36.6734,济南市,开发区,,45,37,34,10,21,144,,148,147,7,10,8,8,0.4,0.5
2025-05-11T2100,1303A,117.0624,36.6868,济南市,省种子仓库,颗粒物(PM10),54,58,55,14,19,135,,148,145,12,18,4,5,0.3,0.4
2025-05-11T2100,1304A,116.9489,36.6447,济南市,机床二厂,,40,39,56,10,22,128,,140,138,18,26,9,8,0.4,0.5
2025-05-11T2100,1305A,117.0495,36.663,济南市,市监测站,,43,37,40,10,19,137,,143,142,8,12,8,8,0.3,0.4
2025-05-11T2100,1306A,116.7675,36.5484,济南市,长清党校,,45,29,39,12,30,141,,152,152,13,20,6,6,0.5,0.6
2025-05-11T2100,1616A,117.6795,36.229,济南市,技术学院,,46,46,52,17,29,124,,140,138,9,34,10,12,0.4,1
2025-05-11T2100,1961A,117.532,36.6868,济南市,东山小学,,44,44,42,7,18,129,,144,140,10,14,6,6,0.3,0.3
2025-05-11T2100,3059A,117.7161,36.2049,济南市,泰兴公司,,48,48,48,19,29,75,,145,134,55,47,6,7,0.2,0.3
2025-05-11T2100,3064A,117.6867,36.2171,济南市,莱芜战役纪念馆,,38,36,53,14,26,119,,142,138,26,44,5,7,0.3,0.6
2025-05-11T2100,3494A,117.1673,36.9782,济南市,济阳区政府,颗粒物(PM10),52,54,60,20,24,100,,148,138,36,30,5,5,0.3,0.4
2025-05-11T2100,3495A,117.1171,36.63,济南市,锦屏中学,,45,32,33,12,16,142,,147,146,10,12,6,6,0.3,0.3
2025-05-11T2100,3682A,116.9814,36.6819,济南市,济南四建,,44,44,44,20,26,130,,149,146,17,18,8,5,0.3,0.4
2025-05-11T2100,1653A,116.6251,35.4302,济宁市,火炬城,颗粒物(PM10),51,51,48,22,23,136,,146,146,9,8,8,7,0.3,0.3
2025-05-11T2100,1655A,116.5491,35.4042,济宁市,电化厂,颗粒物(PM10),54,58,56,19,24,98,,139,134,31,25,3,3,0.3,0.4
2025-05-11T2100,3500A,116.5814,35.3707,济宁市,北湖一中,颗粒物(PM10),52,54,58,24,34,138,,146,146,10,26,6,5,0.2,0.3
2025-05-11T2100,3501A,116.8249,35.5593,济宁市,服务中心,颗粒物(PM10),53,55,77,14,24,106,,139,134,32,36,3,3,0.2,0.4
2025-05-11T2100,3678A,116.5907,35.4054,济宁市,市第七中学,颗粒物(PM10),52,53,53,17,20,135,,144,144,10,18,8,6,0.3,0.4
2025-05-11T2100,2255A,130.2751,46.8028,佳木斯市,佳纺,,34,32,58,23,26,106,,118,116,8,13,7,7,0.3,0.3
2025-05-11T2100,2256A,130.3995,46.8307,佳木斯市,发电厂,,46,46,41,26,25,113,,120,120,10,17,4,4,0.3,0.3
2025-05-11T2100,2257A,130.3258,46.7975,佳木斯市,环保局,,43,43,38,18,25,111,,120,118,10,10,7,7,0.3,0.3
2025-05-11T2100,2258A,130.3648,46.8032,佳木斯市,十一中,,44,44,49,25,31,105,,115,112,15,21,6,6,0.4,0.5
2025-05-11T2100,2259A,130.3794,46.7588,佳木斯市,四丰,,34,26,25,13,18,107,,112,112,6,7,1,1,0.3,0.3
2025-05-11T2100,1252A,120.7436,30.778,嘉兴市,清河小学,颗粒物(PM10),56,61,36,33,17,64,,137,126,54,15,5,5,0.8,0.6
2025-05-11T2100,1253A,120.726,30.7478,嘉兴市,嘉兴学院,,40,40,31,28,18,74,,145,136,54,17,6,7,0.4,0.3
2025-05-11T2100,2872A,120.7846,30.7525,嘉兴市,南湖区残联,颗粒物(PM10),53,56,40,30,20,111,,159,151,30,12,6,6,0.3,0.3
2025-05-11T2100,3407A,120.6916,30.7739,嘉兴市,秀洲住建,颗粒物(PM10),62,73,38,30,21,51,,155,139,49,9,6,7,0.6,0.5
2025-05-11T2100,1945A,98.2908,39.7711,嘉峪关市,气象局,,37,27,32,7,12,117,,133,131,14,25,4,19,0.2,0.5
2025-05-11T2100,2884A,98.2672,39.7978,嘉峪关市,酒钢宾馆,,32,29,44,14,21,102,,122,118,15,18,6,31,0.2,0.4
2025-05-11T2100,3248A,98.2643,39.7724,嘉峪关市,雄关区,,35,35,31,8,12,111,,127,124,19,27,10,15,0,0.4
2025-05-11T2100,1383A,113.1064,22.6058,江门市,北街,,40,40,37,20,16,92,,156,149,36,23,3,3,0.4,0.3
2025-05-11T2100,1384A,113.0731,22.5835,江门市,西区,,46,46,29,8,14,98,,151,145,28,19,7,7,0.5,0.4
2025-05-11T2100,1385A,113.0219,22.5311,江门市,圭峰西,,31,30,32,14,15,97,,145,140,21,16,5,5,0.4,0.4
2025-05-11T2100,1386A,113.0828,22.5947,江门市,东湖,,36,36,30,18,18,88,,143,137,30,21,8,8,0.6,0.5
2025-05-11T2100,3311A,113.1075,22.5647,江门市,江海富民,,46,46,37,17,18,95,,150,145,33,20,9,8,0.7,0.5
2025-05-11T2100,3449A,113.05,22.4667,江门市,新会银湖,,49,49,36,22,17,62,,164,150,54,20,2,2,0.8,0.6
2025-05-11T2100,1830A,113.1992,35.2590,焦作市,影视城,,,,,,,,,,,,,,,,
2025-05-11T2100,3169A,113.2725,35.2067,焦作市,太极体育中心,颗粒物(PM10),54,57,62,16,33,78,,130,119,24,17,4,8,0.1,0.3
2025-05-11T2100,3335A,113.3137,35.2641,焦作市,马村街道办,,49,49,60,25,30,88,,142,133,27,20,9,9,0.2,0.3
2025-05-11T2100,3336A,113.2465,35.2373,焦作市,焦作技师学院,颗粒物(PM10),57,64,54,17,24,64,,137,124,22,15,12,9,0.9,0.8
2025-05-11T2100,3477A,113.1656,35.2539,焦作市,中站许衡医院,颗粒物(PM10),53,56,64,25,30,103,,141,135,30,29,13,12,0.5,0.6
2025-05-11T2100,3981A,113.2449,35.1803,焦作市,原李万街道办,颗粒物(PM10),52,54,58,14,31,80,,136,122,27,16,6,11,0.2,0.4
2025-05-11T2100,4264A,113.2340,35.2190,焦作市,新安路1731号,颗粒物(PM10),53,56,68,28,28,70,,136,123,46,22,27,14,0.6,0.7
2025-05-11T2100,1708A,116.3701,23.5345,揭阳市,新兴,,26,26,25,16,16,64,,92,86,18,10,5,5,0.7,0.5
2025-05-11T2100,1709A,116.3264,23.5443,揭阳市,西马,,46,46,27,26,15,49,,90,80,27,9,7,7,0.9,0.6
2025-05-11T2100,1710A,116.3611,23.5626,揭阳市,东兴,,30,30,25,15,14,57,,90,81,14,7,4,4,0.6,0.6
2025-05-11T2100,1711A,116.4151,23.5294,揭阳市,渔湖,,37,37,29,25,11,45,,85,72,37,19,9,6,0.6,0.6
2025-05-11T2100,3320A,116.403,23.5699,揭阳市,曲溪,,39,39,22,21,14,50,,96,84,33,16,3,3,0.6,0.5
2025-05-11T2100,1944A,102.1692,38.5167,金昌市,天庆家园,,37,31,61,8,29,116,,139,136,6,21,6,26,0.7,0.8
2025-05-11T2100,4022A,102.1647,38.5371,金昌市,金川区人防中心,颗粒物(PM10),54,58,59,21,25,116,,147,143,9,18,3,14,0.6,0.6
2025-05-11T2100,4239A,102.1930,38.5319,金昌市,长春路96号,,39,31,58,7,22,122,,139,137,4,18,7,16,0.4,0.7
2025-05-11T2100,1262A,119.647,29.077,金华市,十五中,颗粒物(PM10),52,54,40,31,18,96,,149,139,34,19,4,4,0.5,0.4
2025-05-11T2100,1263A,119.686,29.1029,金华市,监测站,颗粒物(PM10),52,54,43,30,21,71,,140,126,39,17,4,5,0.4,0.4
2025-05-11T2100,3659A,119.656,29.1131,金华市,气象局,,49,49,40,26,14,62,,149,133,54,23,4,3,0.4,0.4
2025-05-11T2100,1767A,121.1115,41.0879,锦州市,南山,细颗粒物(PM2.5),119,,58,90,54,138,,141,141,23,33,7,10,0.8,0.8
2025-05-11T2100,1768A,121.0604,40.8428,锦州市,开发区,细颗粒物(PM2.5),124,,99,94,58,150,,131,131,38,62,7,13,0.8,0.8
2025-05-11T2100,1769A,121.1836,41.1119,锦州市,百股街道,细颗粒物(PM2.5),100,,58,75,43,144,,142,142,28,28,5,17,0.8,0.8
2025-05-11T2100,1770A,121.1178,41.1222,锦州市,天安街道,细颗粒物(PM2.5),107,,64,80,45,130,,138,137,30,35,7,9,0.9,0.9
2025-05-11T2100,1771A,121.1303,41.1386,锦州市,北湖公园,细颗粒物(PM2.5),115,,62,87,49,139,,142,142,27,33,8,10,0.8,0.9
2025-05-11T2100,2160A,112.85,35.5051,晋城市,自来水公司,颗粒物(PM10),52,53,55,9,14,120,,137,136,29,30,7,7,0.8,0.6
2025-05-11T2100,2161A,112.8318,35.4936,晋城市,白云商贸,颗粒物(PM10),67,83,53,17,10,105,,140,137,37,29,7,6,1.3,0.6
2025-05-11T2100,2162A,112.8508,35.4887,晋城市,市环保局,颗粒物(PM10),72,94,54,22,17,93,,136,131,39,27,6,5,1.2,0.6
2025-05-11T2100,2163A,112.8676,35.4897,晋城市,技术学院,,46,46,28,9,11,104,,127,125,31,27,8,6,0.8,0.6
2025-05-11T2100,2165A,112.8453,35.546,晋城市,白马寺,,45,23,31,15,15,144,,147,147,13,10,5,5,0.4,0.4
2025-05-11T2100,3620A,112.8271,35.4828,晋城市,泽州一中,,35,25,38,9,11,109,,144,141,28,23,4,5,0.6,0.5
2025-05-11T2100,2173A,112.7249,37.7067,晋中市,南都小区,,45,45,49,22,17,104,,135,131,23,29,6,13,0.4,0.5
2025-05-11T2100,2174A,112.6991,37.6982,晋中市,榆次区政府,颗粒物(PM10),51,51,52,21,16,97,,136,131,26,32,6,13,0.3,0.6
2025-05-11T2100,2865A,112.7195,37.6828,晋中市,榆次三中,颗粒物(PM10),57,63,53,9,15,102,,138,134,20,29,6,10,0.3,0.3
2025-05-11T2100,4200A,112.7478,37.6954,晋中市,迎宾街26号,,48,48,48,17,19,102,,131,127,21,27,5,10,0.3,0.4
2025-05-11T2100,2439A,112.2014,31.0481,荆门市,竹园小学,颗粒物(PM10),57,64,49,25,26,149,,161,161,15,14,5,6,0.0,0.1
2025-05-11T2100,2440A,112.1969,30.9891,荆门市,掇刀,颗粒物(PM10),59,67,54,30,28,139,,155,155,14,15,1,4,0.3,0.2
2025-05-11T2100,2441A,112.2213,31.0386,荆门市,石化一小,颗粒物(PM10),54,57,46,24,28,140,,155,155,18,11,8,9,0.3,0.3
2025-05-11T2100,3012A,112.1849,31.0362,荆门市,西山林语,,43,34,43,26,24,137,,150,150,9,8,8,8,0.3,0.4
2025-05-11T2100,3547A,112.1632,31.0138,荆门市,龙泉中学南校,颗粒物(PM10),53,55,47,33,25,134,,151,151,12,13,8,5,0.4,0.4
2025-05-11T2100,1844A,112.2494,30.3197,荆州市,市图书馆,颗粒物(PM10),58,66,38,35,22,109,,148,143,31,17,30,7,0.6,0.4
2025-05-11T2100,1845A,112.2008,30.3544,荆州市,市委党校,颗粒物(PM10),59,67,40,31,24,103,,136,131,25,14,8,8,0.6,0.5
2025-05-11T2100,3194A,112.2747,30.3122,荆州市,管委会,颗粒物(PM10),56,61,37,34,23,104,,142,139,35,15,9,9,0.6,0.5
2025-05-11T2100,4268A,112.1722,30.3366,荆州市,学苑路85号,,,,30,47,24,99,,140,134,31,15,5,3,0.6,0.5
2025-05-11T2100,2342A,117.3102,29.3867,景德镇市,王港中学,,,,,,,,,,,,,,,,
2025-05-11T2100,2343A,117.2117,29.2933,景德镇市,老干部活动中心,,42,42,37,26,21,123,,142,139,12,15,7,11,0.4,0.4
2025-05-11T2100,2344A,117.1894,29.2789,景德镇市,兽医站,颗粒物(PM10),52,53,48,31,23,99,,135,128,17,19,7,10,0.6,0.6
2025-05-11T2100,2345A,117.1547,29.2617,景德镇市,台达陶瓷,颗粒物(PM10),56,62,52,31,25,86,,137,131,48,25,117,49,0.6,0.7
2025-05-11T2100,2346A,117.2461,29.2956,景德镇市,陶研所,,41,41,34,26,25,95,,140,131,8,13,12,14,0.4,0.4
2025-05-11T2100,1803A,115.9872,29.6815,九江市,十里,,48,44,33,33,22,76,,151,140,30,16,1,3,0.6,0.4
2025-05-11T2100,1804A,115.9584,29.7046,九江市,茅山头,颗粒物(PM10),62,73,39,28,25,53,,142,126,58,16,5,6,0.6,0.5
2025-05-11T2100,1805A,115.9877,29.7295,九江市,西园,,47,47,37,27,23,104,,146,141,44,24,8,11,0.8,0.7
2025-05-11T2100,1808A,115.9114,29.6038,九江市,综合工业园,,48,44,42,33,24,114,,141,136,17,25,8,9,0.6,0.5
2025-05-11T2100,1809A,116.0721,29.7535,九江市,石化总厂,细颗粒物(PM2.5),97,,47,72,27,113,,148,144,29,22,5,6,0.5,0.6
2025-05-11T2100,1810A,115.9773,29.5698,九江市,庐山气象台,,41,35,36,21,22,130,,130,130,6,6,6,7,0.7,0.7
2025-05-11T2100,3190A,116.0254,29.6994,九江市,外国语学校,,46,44,39,32,21,97,,137,133,22,17,8,9,0.8,0.8
2025-05-11T2100,4253A,116.0102,29.6594,九江市,莲花大道8号,,34,34,35,23,22,105,,138,130,11,6,4,5,0.4,0.5
2025-05-11T2100,4240A,98.4958,39.7339,酒泉市,玉门东路5号,,,70,52,,28,88,,127,121,26,15,9,13,0.4,0.4
2025-05-11T2100,4241A,98.5099,39.7506,酒泉市,北大街108号,,48,48,47,17,18,94,,127,121,23,21,10,14,0.4,0.4
2025-05-11T2100,2698A,76.0072,39.4467,喀什地区,巡警大队,颗粒物(PM10),82,113,327,27,75,106,,104,104,10,24,3,4,0.2,0.4
2025-05-11T2100,2699A,75.9755,39.4694,喀什地区,吾办,细颗粒物(PM2.5),196,149,303,147,174,109,,111,111,10,18,4,6,0.2,0.2
2025-05-11T2100,4027A,75.9483,39.4689,喀什地区,老干局,,,,266,,83,110,,109,109,9,15,4,3,0.5,0.5
2025-05-11T2100,1824A,114.3389,34.7781,开封市,肿瘤医院,颗粒物(PM10),66,81,71,14,27,109,,146,136,20,19,9,9,0.4,0.4
2025-05-11T2100,1826A,114.2885,34.7965,开封市,世纪星幼儿园,颗粒物(PM10),70,90,69,27,27,110,,154,143,26,23,10,10,0.5,0.5
2025-05-11T2100,3147A,114.3438,34.8106,开封市,龙亭公园,颗粒物(PM10),62,73,57,35,26,117,,156,148,26,21,4,4,0.4,0.5
2025-05-11T2100,3210A,114.3644,34.7964,开封市,汴京公园,颗粒物(PM10),54,57,62,16,27,113,,146,138,22,24,12,13,0.5,0.6
2025-05-11T2100,3473A,114.2485,34.8306,开封市,技师学院,细颗粒物(PM2.5),69,66,54,50,37,116,,156,149,23,19,6,6,0.5,0.6
2025-05-11T2100,3592A,114.4644,34.7556,开封市,祥符区生态环境局,,39,33,40,17,29,122,,148,139,22,33,7,9,0.5,0.6
2025-05-11T2100,1951A,84.895,45.6094,克拉玛依市,长征新村,,32,32,22,3,5,95,,100,98,4,6,8,8,0.2,0.2
2025-05-11T2100,1952A,84.8988,45.5893,克拉玛依市,南林小区,,32,24,20,10,9,101,,103,102,1,5,4,5,0.1,0.1
2025-05-11T2100,1954A,84.905,44.3396,克拉玛依市,独山子区,颗粒物(PM10),70,90,62,14,23,95,,112,110,4,8,8,7,0.4,0.5
2025-05-11T2100,1955A,85.6979,46.098,克拉玛依市,乌尔禾区商贸楼,,,30,26,3,5,,,107,107,2,5,10,12,0.3,0.4
2025-05-11T2100,3612A,85.1045,45.6899,克拉玛依市,白碱滩区新站,,43,43,48,17,22,98,,104,102,2,3,12,12,0.4,0.4
2025-05-11T2100,2697A,76.1454,39.7142,克孜勒苏柯尔克孜自治州,市人民政府,颗粒物(PM10),67,83,202,15,64,126,,125,125,8,11,5,10,0.3,0.3
2025-05-11T2100,3665A,76.1658,39.7157,克孜勒苏柯尔克孜自治州,克州文化中心,,,32,183,18,66,127,,124,124,,10,7,13,0.4,0.4
2025-05-11T2100,1450A,102.8204,24.8886,昆明市,呈贡新区,,39,31,25,11,14,123,,144,144,12,12,4,5,0.5,0.5
2025-05-11T2100,1451A,102.6251,24.9608,昆明市,西山森林公园,,,,,,,,,,,,,,,,
2025-05-11T2100,1452A,102.7252,25.0902,昆明市,龙泉镇,,46,46,14,16,8,82,,134,131,46,12,9,8,0.4,0.2
2025-05-11T2100,1453A,102.7266,25.0375,昆明市,东风东路,,45,31,24,31,15,125,,139,139,24,14,9,8,0.5,0.4
2025-05-11T2100,1454A,102.6742,25.0669,昆明市,金鼎山,,36,31,18,23,13,115,,134,134,25,12,1,2,0.5,0.4
2025-05-11T2100,1455A,102.6644,25.0401,昆明市,碧鸡广场,,35,31,17,24,12,89,,121,118,40,15,6,6,0.5,0.4
2025-05-11T2100,3179A,102.7494,25.0119,昆明市,官渡区博物馆,,38,31,18,26,10,110,,138,137,24,14,7,6,0.5,0.4
2025-05-11T2100,3375A,102.8017,24.8336,昆明市,青年创业园,,40,11,17,8,10,125,,143,143,13,10,8,8,0.6,0.5
2025-05-11T2100,3550A,102.7997,24.9786,昆明市,昆明学院,,36,21,21,12,12,113,,141,140,24,13,5,4,0.3,0.4
2025-05-11T2100,3551A,102.5967,24.6736,昆明市,晋宁区生态环境分局,,37,22,12,19,10,118,,132,132,16,9,4,5,0.5,0.4
2025-05-11T2100,3552A,102.6678,24.9856,昆明市,云天化总部,,32,18,15,15,9,101,,128,128,19,11,6,6,0.6,0.5
2025-05-11T2100,1456A,91.1319,29.6514,拉萨市,八廓街,,43,11,34,6,11,137,,142,142,10,14,6,6,0.3,0.3
2025-05-11T2100,1457A,91.1221,29.6747,拉萨市,市环保局,,41,17,39,7,13,131,,138,138,9,13,4,4,0.5,0.5
2025-05-11T2100,1458A,91.0874,29.6475,拉萨市,区监测站,,44,7,33,6,12,138,,141,141,13,17,5,6,0.4,0.4
2025-05-11T2100,1459A,91.1774,29.6541,拉萨市,西藏大学,,42,14,39,6,13,133,,137,137,12,14,6,6,0.4,0.4
2025-05-11T2100,1460A,90.9798,29.6588,拉萨市,区辐射站,,38,19,28,7,10,119,,132,130,22,13,5,5,0.4,0.4
2025-05-11T2100,1461A,91.0834,29.6292,拉萨市,拉萨火车站,,,10,36,3,11,,,140,140,,9,,4,,0.4
2025-05-11T2100,2520A,109.2203,23.7256,来宾市,来宾技工学校,,48,48,33,9,7,73,,125,120,36,8,19,7,0.6,0.5
2025-05-11T2100,3535A,109.1781,23.7297,来宾市,兴宾区政府,,31,30,29,16,17,99,,116,115,21,7,7,5,0.4,0.4
2025-05-11T2100,4002A,109.2416,23.7461,来宾市,中南小学,颗粒物(PM10),56,62,35,28,16,50,,122,114,45,9,10,8,0.6,0.4
2025-05-11T2100,1477A,104.1373,35.9454,兰州市,榆中兰大校区,,,,,,,,,,,,,,,,
2025-05-11T2100,1479A,103.831,36.0464,兰州市,铁路设计院,,42,42,49,25,28,83,,141,137,82,56,11,16,0.7,0.7
2025-05-11T2100,3241A,103.7439,36.0842,兰州市,百合公园,二氧化氮,66,68,46,25,19,25,,150,134,131,48,5,9,1.1,0.6
2025-05-11T2100,3242A,103.9611,35.998,兰州市,和平,,50,50,44,28,19,112,,144,142,33,20,7,11,0.4,0.5
2025-05-11T2100,4236A,103.6293,36.0938,兰州市,庄浪东路808号,二氧化氮,67,68,49,21,26,25,,198,152,134,45,12,17,0.6,0.5
2025-05-11T2100,4237A,103.7251,36.1043,兰州市,安宁西路88号,颗粒物(PM10),59,67,61,28,27,105,,176,166,52,40,8,12,0.7,0.5
2025-05-11T2100,4238A,103.8470,36.0676,兰州市,北滨河东路1号,颗粒物(PM10),60,69,59,28,23,90,,154,149,70,54,11,17,0.9,1
2025-05-11T2100,3245A,103.6633,36.533,兰州新区,新区管委会,颗粒物(PM10),54,58,40,22,24,113,,148,145,22,16,21,16,0.4,0.4
2025-05-11T2100,3246A,103.6975,36.4789,兰州新区,舟曲中学,,39,39,39,13,19,117,,151,147,23,20,29,26,0.5,0.5
2025-05-11T2100,1067A,116.6708,39.5111,廊坊市,药材公司,颗粒物(PM10),66,81,67,35,42,132,,165,164,21,17,4,3,0.4,0.4
2025-05-11T2100,1068A,116.7214,39.5589,廊坊市,开发区,颗粒物(PM10),59,68,66,33,41,99,,167,162,43,20,2,3,0.4,0.3
2025-05-11T2100,1070A,116.7244,39.5269,廊坊市,北华航天学院,颗粒物(PM10),74,98,78,34,42,119,,162,160,31,23,6,5,0.5,0.4
2025-05-11T2100,2919A,116.7022,39.5453,廊坊市,河北工业大学,颗粒物(PM10),68,86,70,31,42,142,,171,170,21,17,5,5,0.5,0.4
2025-05-11T2100,2535A,103.7723,29.5462,乐山市,花湖湾,细颗粒物(PM2.5),74,82,79,54,50,136,,144,144,17,11,13,4,0.8,0.7
2025-05-11T2100,2536A,103.7627,29.5844,乐山市,牛耳桥,"颗粒物(PM10),细颗粒物(PM2.5)",57,64,74,40,46,122,,134,134,22,15,12,9,0.6,0.6
2025-05-11T2100,2537A,103.7508,29.6006,乐山市,市第三水厂,颗粒物(PM10),62,74,77,41,46,112,,134,134,33,16,9,6,0.8,0.7
2025-05-11T2100,2538A,103.7571,29.5664,乐山市,市监测站,细颗粒物(PM2.5),62,65,77,44,45,129,,135,135,16,13,12,9,0.7,0.8
2025-05-11T2100,3361A,103.7311,29.5628,乐山市,理工大学,颗粒物(PM10),54,58,87,35,48,111,,129,129,20,15,8,8,0.6,0.7
2025-05-11T2100,2598A,100.2143,26.8576,丽江市,西南郊,,34,14,23,8,14,106,,111,111,8,8,5,5,1.0,0.9
2025-05-11T2100,2599A,100.2497,26.8802,丽江市,丽江古城,,30,25,19,19,15,93,,105,104,15,11,10,9,0.6,0.5
2025-05-11T2100,2600A,100.2203,26.8906,丽江市,市中心,,31,13,16,13,11,98,,105,105,16,12,8,8,0.6,0.6
2025-05-11T2100,1267A,119.914,28.4514,丽水市,监测站大楼,,36,36,42,20,18,84,,132,124,21,15,3,3,0.2,0.3
2025-05-11T2100,1268A,119.93,28.4586,丽水市,莲都小学,,38,31,39,26,22,93,,135,128,21,14,4,4,0.2,0.3
2025-05-11T2100,1269A,119.879,28.4231,丽水市,余庄前,,30,30,38,20,21,57,,130,115,15,13,3,3,0.4,0.4
2025-05-11T2100,1173A,119.176,34.5885,连云港市,市环境监测站,颗粒物(PM10),57,63,44,34,26,130,,156,154,18,19,7,9,0.5,0.5
2025-05-11T2100,3000A,119.3581,34.6972,连云港市,德源药业,,,,41,,22,,,73,,,24,,11,,0.5
2025-05-11T2100,3007A,119.178,34.844,连云港市,新城一中,颗粒物(PM10),54,58,47,29,32,106,,151,145,26,20,8,13,0.5,0.6
2025-05-11T2100,3008A,119.3608,34.7519,连云港市,胡沟管理处,,42,41,37,29,22,133,,154,154,21,26,9,11,0.7,0.7
2025-05-11T2100,3009A,119.1478,34.5911,连云港市,矿山设计院,颗粒物(PM10),51,51,48,27,25,137,,154,153,16,20,7,9,0.5,0.5
2025-05-11T2100,3434A,119.2413,34.6539,连云港市,工贸学校,颗粒物(PM10),51,52,39,29,28,132,,160,158,17,19,9,11,0.5,0.5
2025-05-11T2100,3664A,119.4172,34.7341,连云港市,连云街道,,48,48,39,25,21,151,,159,159,12,12,9,10,0.6,0.6
2025-05-11T2100,2571A,102.3431,27.8099,凉山彝族自治州,青龙寺,,28,26,26,9,6,88,,118,117,8,8,5,5,0.6,0.7
2025-05-11T2100,2572A,102.2721,27.8415,凉山彝族自治州,邛海宾馆,,41,41,32,17,13,76,,114,113,28,14,13,11,0.8,0.8
2025-05-11T2100,2573A,102.2625,27.898,凉山彝族自治州,西昌市政府,,29,29,31,14,16,82,,114,113,13,8,11,12,0.7,0.6
2025-05-11T2100,2574A,102.2685,27.8851,凉山彝族自治州,凉山州政府,,49,49,33,25,15,70,,116,112,26,12,8,8,1.2,1.1
2025-05-11T2100,4229A,102.2342,27.8859,凉山彝族自治州,凯乐南路30号,颗粒物(PM10),53,56,54,28,23,68,,95,94,22,19,8,8,1.1,1
2025-05-11T2100,2212A,123.2,41.1953,辽阳市,宏伟区,细颗粒物(PM2.5),124,,51,94,35,135,,157,156,27,16,17,10,1.1,0.6
2025-05-11T2100,2213A,123.1683,41.2495,辽阳市,新华园,细颗粒物(PM2.5),120,96,74,91,57,122,,142,141,31,25,16,11,1.1,0.8
2025-05-11T2100,2214A,123.2354,41.2639,辽阳市,滨河路,细颗粒物(PM2.5),82,98,58,60,31,122,,149,148,34,26,15,10,0.9,0.5
2025-05-11T2100,2215A,123.149,41.2991,辽阳市,铁西工业园,细颗粒物(PM2.5),105,91,74,79,52,96,,140,136,31,27,16,11,1.8,0.8
2025-05-11T2100,2227A,125.1358,42.8845,辽源市,环保局,细颗粒物(PM2.5),65,68,48,47,24,52,,143,123,53,29,7,7,1.0,0.5
2025-05-11T2100,3239A,125.0764,42.9078,辽源市,银鹰制药,颗粒物(PM10),61,71,37,31,25,58,,152,133,49,26,4,3,0.6,0.4
2025-05-11T2100,1625A,115.9848,36.4372,聊城市,区政府,颗粒物(PM10),53,55,56,17,26,127,,138,137,14,21,7,8,0.6,0.6
2025-05-11T2100,2878A,116.0072,36.4343,聊城市,聊大东校,颗粒物(PM10),54,58,56,22,33,118,,136,133,18,22,5,9,0.3,0.4
2025-05-11T2100,3200A,115.9819,36.4978,聊城市,监控中心,,45,45,52,19,26,128,,140,139,16,25,9,10,0.4,0.4
2025-05-11T2100,3513A,116.0445,36.4361,聊城市,九州社区,,48,48,53,14,24,119,,147,143,19,25,13,7,0.3,0.5
2025-05-11T2100,4018A,116.0567,36.4608,聊城市,星美广场,,40,40,50,8,22,123,,139,137,13,17,10,10,0.5,0.6
2025-05-11T2100,2632A,94.3681,29.6376,林芝市,林芝监测站,,32,28,17,12,8,101,,107,107,5,8,5,5,0.1,0.1
2025-05-11T2100,2633A,94.3616,29.6616,林芝市,林芝人民医院,,34,34,19,13,8,98,,103,103,1,3,5,5,0.2,0.2
2025-05-11T2100,2603A,100.0781,23.8982,临沧市,市环保局,细颗粒物(PM2.5),52,47,41,36,28,71,,109,102,15,10,8,7,0.7,0.6
2025-05-11T2100,2604A,100.0894,23.8822,临沧市,市气象局,,40,40,36,26,26,81,,121,113,22,12,8,8,0.7,0.6
2025-05-11T2100,1733A,111.5531,36.0783,临汾市,临钢医院,,44,44,54,8,18,110,,147,143,22,23,9,10,0.9,0.7
2025-05-11T2100,1734A,111.5028,36.0714,临汾市,技工学校,,49,49,54,27,26,105,,152,146,24,23,7,11,0.5,0.7
2025-05-11T2100,1736A,111.5018,36.0855,临汾市,市委,,36,36,56,11,19,110,,152,148,25,26,8,11,0.4,0.7
2025-05-11T2100,3018A,111.505,36.1014,临汾市,唐尧大酒店,,45,45,61,12,22,109,,150,145,22,27,5,7,0.4,0.6
2025-05-11T2100,4244A,111.4879,36.0530,临汾市,启星学校,,41,41,53,23,25,99,,147,141,27,24,7,10,0.5,0.8
2025-05-11T2100,4271A,103.2464,35.6123,临夏回族自治州,滨河东路1号,细颗粒物(PM2.5),84,,55,62,41,14,,129,112,93,23,8,6,0.7,0.4
2025-05-11T2100,4310A,103.2093,35.5995,临夏回族自治州,新华街21号,,,76,55,29,28,,,123,121,45,24,6,7,0.5,0.4
2025-05-11T2100,1618A,118.3429,35.0532,临沂市,沂河小区,颗粒物(PM10),56,61,59,24,36,119,,146,142,20,26,10,11,0.3,0.4
2025-05-11T2100,1619A,118.295,35.0583,临沂市,鲁南制药厂,颗粒物(PM10),60,70,57,26,29,122,,159,154,26,36,9,9,0.4,0.5
2025-05-11T2100,1620A,118.2794,34.9976,临沂市,新光毛纺厂,颗粒物(PM10),59,68,51,27,30,115,,155,150,28,36,10,12,0.3,0.4
2025-05-11T2100,1621A,118.3956,35.0888,临沂市,河东保险公司,,45,44,45,21,25,142,,161,159,13,20,7,7,0.3,0.5
2025-05-11T2100,3370A,118.3564,35.0215,临沂市,十里堡居委,颗粒物(PM10),59,68,62,36,35,113,,166,158,36,38,8,7,0.5,0.6
2025-05-11T2100,3496A,118.3604,35.1084,临沂市,南坊新区,颗粒物(PM10),52,53,55,17,24,128,,153,149,17,26,9,8,0.2,0.4
2025-05-11T2100,3860A,118.3920,35.0300,临沂市,皇山花园小区,颗粒物(PM10),59,68,59,29,33,117,,159,154,30,36,12,12,0.5,0.6
2025-05-11T2100,1870A,109.4856,24.3895,柳州市,柳东小学,,39,27,29,14,16,123,,119,119,8,6,17,12,0.6,0.4
2025-05-11T2100,1871A,109.4157,24.3277,柳州市,环保监测站,,48,48,33,12,15,53,,106,101,46,12,6,8,0.6,0.6
2025-05-11T2100,1872A,109.389,24.341,柳州市,河西水厂,,50,50,37,22,17,68,,108,105,30,12,8,13,0.6,0.8
2025-05-11T2100,1873A,109.4311,24.2921,柳州市,市四中,颗粒物(PM10),54,57,29,16,11,48,,109,101,43,11,10,10,0.9,0.5
2025-05-11T2100,1874A,109.4006,24.3631,柳州市,市九中,颗粒物(PM10),61,71,35,17,11,43,,103,97,48,10,10,12,0.6,0.5
2025-05-11T2100,1875A,109.4958,24.3134,柳州市,古亭山,,22,22,34,13,16,62,,110,104,32,6,7,8,0.7,0.7
2025-05-11T2100,3402A,109.5422,24.3996,柳州市,市二中,,32,,30,22,17,66,,118,114,34,10,13,11,0.4,0.4
2025-05-11T2100,2307A,116.5079,31.737,六安市,监测大楼,细颗粒物(PM2.5),55,,34,39,22,113,,133,132,18,12,2,2,0.4,0.3
2025-05-11T2100,2308A,116.4738,31.7643,六安市,皖西学院,,48,48,39,27,17,132,,138,138,13,12,5,5,0.2,0.2
2025-05-11T2100,2309A,116.4996,31.7905,六安市,朝阳厂,,42,42,30,26,17,125,,128,128,23,16,6,5,0.3,0.3
2025-05-11T2100,2310A,116.5567,31.7886,六安市,开发区,,45,45,45,23,20,121,,134,132,22,15,5,4,0.3,0.3
2025-05-11T2100,2576A,104.8,26.5892,六盘水市,窑上,,,,23,16,13,67,,114,105,5,5,5,5,0.2,0.2
2025-05-11T2100,2577A,104.83,26.5917,六盘水市,黄土坡,,37,37,22,10,11,87,,120,116,26,11,9,9,0.4,0.3
2025-05-11T2100,2578A,104.89,26.5939,六盘水市,水钢,,38,20,28,9,11,119,,124,123,7,12,9,11,0.2,0.8
2025-05-11T2100,2579A,104.8475,26.5894,六盘水市,民中,,34,22,18,7,7,107,,121,119,16,11,8,8,0.3,0.3
2025-05-11T2100,2580A,104.9544,26.5506,六盘水市,双水,,31,31,25,15,9,95,,119,114,17,15,9,10,0.2,0.9
2025-05-11T2100,2335A,117.0189,25.1181,龙岩市,龙岩师专,,,,,,,,,,,,,,,,
2025-05-11T2100,2336A,117.0217,25.1033,龙岩市,龙岩市监测站,,23,15,22,8,9,73,,110,105,17,10,6,5,0.4,0.4
2025-05-11T2100,2337A,117.0258,25.0661,龙岩市,闽西职业技术学院,,37,37,24,14,8,54,,109,101,33,10,52,7,0.4,0.3
2025-05-11T2100,2338A,117.0196,25.0306,龙岩市,龙岩学院,,24,15,23,7,11,75,,110,105,9,9,6,6,0.3,0.3
2025-05-11T2100,2665A,105.0822,33.3261,陇南市,汉王镇固水子,,,,,,,,,,,,,,,,
2025-05-11T2100,2885A,104.9339,33.3826,陇南市,滨江中学,颗粒物(PM10),72,94,52,46,23,120,,90,,4,9,9,10,0,0.3
2025-05-11T2100,3247A,104.955,33.371,陇南市,市总工会,颗粒物(PM10),63,76,46,31,18,126,,122,122,6,6,8,7,0.4,0.3
2025-05-11T2100,2487A,111.9589,27.8901,娄底市,电视发射台,,38,38,27,21,13,86,,120,110,4,2,6,6,0.4,0.3
2025-05-11T2100,2488A,111.9975,27.725,娄底市,市监测站,细颗粒物(PM2.5),55,50,46,39,28,119,,133,132,18,22,12,22,0.6,0.7
2025-05-11T2100,2489A,112.0194,27.7314,娄底市,市委党校,细颗粒物(PM2.5),68,81,54,49,29,106,,113,111,13,20,3,14,0.4,0.7
2025-05-11T2100,2490A,111.9561,27.7569,娄底市,涟钢,颗粒物(PM10),62,74,39,38,22,108,,112,109,25,15,30,12,0.7,0.3
2025-05-11T2100,2491A,111.9892,27.7044,娄底市,市政府,细颗粒物(PM2.5),58,54,37,41,20,107,,131,129,9,8,9,8,0.6,0.5
2025-05-11T2100,1893A,105.4324,28.9634,泸州市,九狮山,,,,,,,,,,,,,,,,
2025-05-11T2100,1894A,105.4427,28.9063,泸州市,小市上码头,颗粒物(PM10),56,61,44,23,16,121,,130,129,22,15,4,6,0.6,0.6
2025-05-11T2100,1895A,105.4241,28.8573,泸州市,兰田宪桥,颗粒物(PM10),54,58,51,32,22,98,,122,120,24,11,10,9,0.6,0.5
2025-05-11T2100,1896A,105.4379,28.8833,泸州市,市环监站,,,,,,,,,,,,,,,,
2025-05-11T2100,4272A,105.3689,28.7783,泸州市,纳溪中医医院,颗粒物(PM10),59,67,48,33,24,71,,115,112,38,19,8,7,0.4,0.3
2025-05-11T2100,2183A,111.1406,37.5211,吕梁市,环保局,颗粒物(PM10),67,83,51,31,17,51,,128,117,51,23,2,3,0.6,0.4
2025-05-11T2100,2185A,111.1297,37.5136,吕梁市,自来水公司,颗粒物(PM10),59,68,98,39,25,47,,123,109,50,32,4,5,1.0,0.7
2025-05-11T2100,2867A,111.1283,37.51,吕梁市,马茂庄小学,颗粒物(PM10),59,67,55,36,17,50,,122,112,45,28,6,6,0.5,0.4
2025-05-11T2100,1812A,112.3931,34.6516,洛阳市,市委党校,颗粒物(PM10),59,67,37,35,25,73,,134,123,47,18,6,5,0.9,0.4
2025-05-11T2100,1815A,112.494,34.6886,洛阳市,河南林校,,43,36,39,30,33,84,,131,122,27,16,6,7,0.4,0.3
2025-05-11T2100,1816A,112.3844,34.623,洛阳市,开发区管委会,,33,33,34,18,21,86,,128,120,23,14,5,5,0.4,0.3
2025-05-11T2100,1817A,112.4267,34.6258,洛阳市,市委新办公区,,,51,35,17,18,83,,134,126,29,12,,5,0.3,0.2
2025-05-11T2100,3340A,112.6005,34.6326,洛阳市,伊滨,颗粒物(PM10),51,51,40,24,27,96,,139,132,20,12,5,5,0.4,0.4
2025-05-11T2100,3341A,112.4951,34.6332,洛阳市,中移产业园,,35,32,42,18,20,109,,140,135,23,13,5,5,0.2,0.2
2025-05-11T2100,3593A,112.5736,34.8993,洛阳市,吉利监测站,,33,33,42,16,19,93,,124,118,19,16,14,7,0.4,0.4
2025-05-11T2100,3635A,112.3677,34.662,洛阳市,河科大西苑校区,,42,42,41,18,20,68,,134,122,45,19,8,7,0.5,0.3
2025-05-11T2100,3636A,112.4388,34.6781,洛阳市,英才小学,颗粒物(PM10),52,53,40,18,21,60,,141,127,69,27,4,5,0.6,0.3
2025-05-11T2100,4214A,112.4600,34.6949,洛阳市,春都路1号院,颗粒物(PM10),57,63,62,18,26,72,,143,132,37,25,4,8,0.5,0.4
2025-05-11T2100,2399A,114.051,33.5699,漯河市,三五一五工厂,,46,46,52,22,30,112,,152,146,18,12,5,6,0.4,0.4
2025-05-11T2100,2400A,114.0055,33.5698,漯河市,漯河大学,颗粒物(PM10),54,57,54,31,27,106,,153,146,17,14,6,7,0.3,0.4
2025-05-11T2100,2401A,114.0138,33.5828,漯河市,市水利局,,44,44,50,29,30,110,,151,145,16,14,4,6,0.2,0.3
2025-05-11T2100,2402A,114.0261,33.5698,漯河市,市广电局,,,42,42,23,31,,,149,148,14,11,4,6,0.4,0.4
2025-05-11T2100,3478A,113.9749,33.5664,漯河市,市图书馆,,37,33,55,15,33,117,,151,146,16,16,4,5,0.1,0.3
2025-05-11T2100,4250A,114.0892,33.5882,漯河市,韶山路11号,,,,55,1,28,,,154,152,17,16,4,5,0.3,0.4
2025-05-11T2100,1798A,118.5092,31.6837,马鞍山市,湖东路四小,细颗粒物(PM2.5),62,54,39,44,22,116,,161,157,31,15,8,6,0.6,0.6
2025-05-11T2100,1799A,118.5024,31.6449,马鞍山市,开发区,颗粒物(PM10),52,54,39,32,23,110,,155,151,32,21,11,9,0.6,0.5
2025-05-11T2100,1802A,118.6245,31.7241,马鞍山市,濮塘,细颗粒物(PM2.5),57,60,37,40,22,133,,167,165,19,12,11,9,0.8,0.7
2025-05-11T2100,3633A,118.4918,31.6809,马鞍山市,雨山,颗粒物(PM10),56,61,44,34,23,114,,155,152,32,18,10,8,0.6,0.6
2025-05-11T2100,4191A,118.5274,31.72227,马鞍山市,慈湖高新区,颗粒物(PM10),56,61,45,36,26,125,,153,152,24,23,12,13,0.6,0.8
2025-05-11T2100,1686A,111.0286,21.4688,茂名市,电白南海,,42,41,31,29,21,87,,108,104,14,8,5,4,1.0,1
2025-05-11T2100,1687A,110.9294,21.6533,茂名市,茂石化七小,,34,34,29,19,16,84,,99,94,17,10,1,6,0.4,0.4
2025-05-11T2100,1688A,110.9107,21.6687,茂名市,健康路,,49,44,29,34,19,92,,102,99,14,4,110,13,0.9,0.8
2025-05-11T2100,1689A,110.8592,21.6828,茂名市,高岭,颗粒物(PM10),51,51,38,17,14,79,,91,88,14,8,16,12,0.4,0.5
2025-05-11T2100,3450A,111.01,21.5165,茂名市,电白水东,,36,36,28,19,14,85,,104,98,20,12,10,3,0.4,0.5
2025-05-11T2100,2539A,104.0308,30.0478,眉山市,黑龙滩水库,颗粒物(PM10),51,52,49,28,21,145,,160,160,7,4,1,2,0.6,0.5
2025-05-11T2100,2540A,103.8416,30.0874,眉山市,气象局,颗粒物(PM10),65,80,109,41,59,138,,39,,23,25,3,3,0.4,0.4
2025-05-11T2100,3137A,103.8578,30.0744,眉山市,市委党校,,,102,84,73,47,,,144,144,25,17,12,9,0.6,0.2
2025-05-11T2100,3148A,103.8291,30.0564,眉山市,区人社局,细颗粒物(PM2.5),64,68,75,46,43,134,,144,144,27,22,12,11,0.5,0.5
2025-05-11T2100,1690A,116.1231,24.3284,梅州市,梅江月梅,,22,22,25,10,9,62,,95,90,10,7,6,6,0.6,0.6
2025-05-11T2100,1691A,116.0797,24.2719,梅州市,梅县新城,,22,22,26,14,10,27,,104,92,44,13,6,6,0.7,0.6
2025-05-11T2100,1692A,116.1248,24.2654,梅州市,环境监控中心,,24,24,24,11,11,41,,98,87,38,13,7,8,0.5,0.5
2025-05-11T2100,3315A,116.1233,24.2991,梅州市,梅龙,,29,29,26,11,13,56,,98,90,23,8,27,8,0.4,0.3
2025-05-11T2100,1878A,104.7778,31.4741,绵阳市,富乐山,颗粒物(PM10),56,62,88,33,46,122,,146,145,14,14,8,9,0.4,0.5
2025-05-11T2100,1880A,104.6697,31.4668,绵阳市,高新区自来水公司,颗粒物(PM10),53,56,91,24,41,110,,143,141,27,19,5,4,0.5,0.5
2025-05-11T2100,1881A,104.7287,31.5075,绵阳市,三水厂,颗粒物(PM10),53,55,112,28,47,112,,146,144,30,20,8,9,0.5,0.5
2025-05-11T2100,3491A,104.69,31.5322,绵阳市,西科大附属小学,颗粒物(PM10),55,60,98,28,45,106,,151,148,47,25,8,8,0.5,0.6
2025-05-11T2100,3492A,104.5648,31.5343,绵阳市,安州区旅游局,颗粒物(PM10),60,70,110,22,52,123,,160,159,24,19,9,12,0.5,0.5
2025-05-11T2100,4226A,104.7651,31.4531,绵阳市,绵阳市气象局,颗粒物(PM10),54,57,85,25,45,122,,136,136,16,13,3,5,0.5,0.6
2025-05-11T2100,1784A,129.61,44.561,牡丹江市,环保大楼,细颗粒物(PM2.5),58,60,26,41,20,41,,115,90,44,19,6,6,0.5,0.3
2025-05-11T2100,1785A,129.6115,44.5782,牡丹江市,文化广场,颗粒物(PM10),83,115,35,51,25,26,,116,90,62,24,14,10,1.0,0.4
2025-05-11T2100,1786A,129.5904,44.5963,牡丹江市,第一医院,颗粒物(PM10),56,61,34,35,20,52,,120,97,32,19,6,6,0.6,0.4
2025-05-11T2100,1787A,129.6364,44.6075,牡丹江市,机车工厂,颗粒物(PM10),51,52,36,23,20,56,,114,99,21,16,9,7,0.5,0.4
2025-05-11T2100,1788A,129.6386,44.5462,牡丹江市,第一中学,,42,42,26,25,17,58,,124,95,26,17,4,4,0.4,0.3
2025-05-11T2100,2531A,105.0703,29.61,内江市,市监测站,颗粒物(PM10),70,89,59,37,38,62,,135,127,52,13,13,13,0.8,0.6
2025-05-11T2100,2532A,105.0717,29.5947,内江市,东兴区政府,细颗粒物(PM2.5),55,51,56,39,35,94,,136,132,36,14,15,13,0.5,0.4
2025-05-11T2100,2533A,105.0653,29.5817,内江市,内江二中,颗粒物(PM10),68,85,69,27,41,80,,138,133,17,16,6,6,0.5,0.5
2025-05-11T2100,2534A,105.0406,29.5822,内江市,内江日报社,颗粒物(PM10),59,67,63,27,48,71,,128,122,53,11,3,3,0.5,0.4
2025-05-11T2100,2628A,92.0657,31.4846,那曲市,那曲监测站,,38,32,48,9,23,121,,121,121,20,22,8,8,0.6,0.6
2025-05-11T2100,4243A,92.0515,31.4787,那曲市,那曲市委宣传部,,,29,37,11,15,,,83,40,7,15,,6,0.4,0.5
2025-05-11T2100,1290A,115.8931,28.6843,南昌市,省外办,细颗粒物(PM2.5),62,55,41,44,29,143,,148,148,21,21,10,10,0.6,0.5
2025-05-11T2100,1291A,115.8886,28.7003,南昌市,省林业公司,细颗粒物(PM2.5),58,51,37,41,25,137,,145,145,17,20,12,10,0.7,0.6
2025-05-11T2100,1292A,115.8126,28.7442,南昌市,林科所,二氧化氮,56,58,34,34,20,42,,153,137,112,29,9,6,0.6,0.5
2025-05-11T2100,1294A,115.8518,28.687,南昌市,建工学校,颗粒物(PM10),58,65,44,37,34,147,,157,157,24,21,9,8,0.5,0.4
2025-05-11T2100,1295A,115.8921,28.6424,南昌市,象湖,颗粒物(PM10),52,53,38,34,23,142,,153,153,22,19,12,10,0.6,0.5
2025-05-11T2100,1296A,115.7423,28.7996,南昌市,武术学校,,40,,23,28,16,89,,138,129,9,6,4,4,0.4,0.4
2025-05-11T2100,3046A,115.9084,28.6062,南昌市,机电学校,颗粒物(PM10),57,63,45,36,25,136,,153,153,22,20,7,7,0.4,0.3
2025-05-11T2100,3690A,115.9721,28.7031,南昌市,外国语学校,颗粒物(PM10),58,66,48,38,26,149,,161,161,20,22,12,9,0.5,0.4
2025-05-11T2100,4192A,115.9316,28.68677,南昌市,南京东路235号,颗粒物(PM10),57,64,51,36,24,142,,155,155,19,8,8,6,0.7,0.7
2025-05-11T2100,1905A,106.056,30.8064,南充市,西山风景区,,,,,,,,,,,,,,,,
2025-05-11T2100,1906A,106.0789,30.8023,南充市,南充市委,颗粒物(PM10),60,69,67,37,34,120,,146,144,33,12,6,6,0.4,0.3
2025-05-11T2100,1907A,106.1031,30.8217,南充市,南充炼油厂,颗粒物(PM10),60,69,65,36,33,131,,136,136,20,11,6,5,0.2,0.2
2025-05-11T2100,4227A,106.1083,30.7884,南充市,梨树横街98号,颗粒物(PM10),63,76,96,32,28,81,,136,131,63,12,5,5,0.4,0.3
2025-05-11T2100,4304A,106.1172,30.843,南充市,清泉寺北路188号,,,,63,36,33,139,,137,137,18,11,7,5,0.2,0.2
2025-05-11T2100,4305A,106.067,30.7616,南充市,同庆路1号,细颗粒物(PM2.5),73,88,64,53,34,113,,130,129,24,11,5,5,0.5,0.3
2025-05-11T2100,1151A,118.8086,32.1065,南京市,迈皋桥,,,,27,27,18,63,,148,134,,10,4,4,0.2,0.1
2025-05-11T2100,1152A,118.7538,32.0551,南京市,草场门,颗粒物(PM10),54,58,35,36,20,117,,146,141,36,22,9,3,1.1,0.2
2025-05-11T2100,1153A,118.7794,32.0745,南京市,山西路,颗粒物(PM10),58,66,44,29,16,119,,152,149,33,23,9,4,1.0,0.2
2025-05-11T2100,1154A,118.7752,32.0023,南京市,中华门,颗粒物(PM10),52,53,37,29,17,109,,139,135,19,20,8,8,0.5,0.4
2025-05-11T2100,1155A,118.8109,32.0309,南京市,瑞金路,颗粒物(PM10),52,53,33,29,18,113,,146,136,31,14,6,6,0.7,0.7
2025-05-11T2100,1156A,118.7997,32.0754,南京市,玄武湖,颗粒物(PM10),52,53,32,22,13,85,,144,137,19,8,4,4,0.7,0.5
2025-05-11T2100,1157A,118.6414,32.0931,南京市,浦口,,43,43,37,22,15,88,,121,116,19,16,3,3,0.6,0.6
2025-05-11T2100,1158A,118.7356,31.9996,南京市,奥体中心,颗粒物(PM10),56,61,37,29,18,110,,157,151,40,21,9,5,0.7,0.4
2025-05-11T2100,1159A,118.9125,32.1028,南京市,仙林大学城,,46,46,37,24,16,71,,149,138,68,19,9,10,0.7,0.4
2025-05-11T2100,3422A,118.8436,31.9198,南京市,江宁彩虹桥,颗粒物(PM10),52,53,34,29,18,127,,160,158,29,19,4,4,0.5,0.6
2025-05-11T2100,3427A,118.8554,32.3578,南京市,六合雄州,,45,45,35,26,16,121,,149,146,31,22,6,6,0.4,0.3
2025-05-11T2100,4249A,118.8708,31.3402,南京市,汶溪路181号,,,,36,36,21,124,,160,158,26,16,5,3,,0.4
2025-05-11T2100,4312A,119.019,31.6512,南京市,中山西路1号,,43,36,30,28,17,136,,107,107,20,20,7,8,0.5,0.6
2025-05-11T2100,1401A,108.3103,22.7881,南宁市,二十一中,,26,23,24,10,11,82,,106,102,24,12,4,4,0.7,0.6
2025-05-11T2100,1402A,108.3141,22.8528,南宁市,北湖,,39,37,24,27,13,83,,107,104,28,11,7,9,0.5,0.4
2025-05-11T2100,1403A,108.3206,22.8225,南宁市,市监测站,,27,25,28,10,13,86,,95,92,21,13,6,7,0.3,0.3
2025-05-11T2100,1404A,108.3829,22.8037,南宁市,大自然花园,,31,31,29,11,15,79,,113,107,26,10,6,6,0.3,0.3
2025-05-11T2100,1405A,108.4394,22.7904,南宁市,仙葫,,36,36,28,24,15,67,,101,96,31,10,7,6,0.5,0.4
2025-05-11T2100,1406A,108.2397,22.8467,南宁市,区农职院,,44,44,29,18,11,72,,107,101,26,11,6,5,0.7,0.7
2025-05-11T2100,1407A,108.3275,22.735,南宁市,英华嘉园,,33,33,28,19,17,45,,112,102,60,14,10,8,0.4,0.3
2025-05-11T2100,3401A,108.4834,22.7618,南宁市,红星社区,,45,45,27,24,16,57,,120,109,35,9,9,9,0.4,0.3
2025-05-11T2100,4221A,108.2177,22.7774,南宁市,乐贤路16号,,43,43,28,24,14,38,,99,87,41,8,18,5,0.6,0.5
2025-05-11T2100,2331A,118.0966,26.6761,南平市,茫荡山,,,,,,,,,,,,,,,,
2025-05-11T2100,2332A,118.1681,26.6369,南平市,南平市监测站,,29,28,28,20,10,59,,107,98,21,8,4,5,0.5,0.4
2025-05-11T2100,2333A,118.1825,26.6489,南平市,南平铝业有限公司,,34,34,23,22,10,64,,116,108,21,8,4,4,0.6,0.5
2025-05-11T2100,2334A,118.1756,26.6272,南平市,南平七中,,22,,22,15,10,68,,111,103,11,6,4,5,0.5,0.5
2025-05-11T2100,1168A,120.9098,31.9663,南通市,狼山街道,,50,46,33,35,19,52,,156,135,68,29,7,7,0.9,0.7
2025-05-11T2100,1169A,120.86,32.0005,南通市,虹桥,"颗粒物(PM10),细颗粒物(PM2.5)",57,64,39,40,23,74,,148,134,92,40,11,5,0.9,0.7
2025-05-11T2100,1170A,120.87,32.02,南通市,城中,颗粒物(PM10),54,57,43,34,20,68,,165,147,102,32,9,6,0.7,0.5
2025-05-11T2100,1171A,120.94,31.93,南通市,星湖花园,,45,45,35,30,22,90,,125,103,63,44,9,6,0.6,0.5
2025-05-11T2100,1172A,120.81,32.0417,南通市,紫琅学院,颗粒物(PM10),53,56,40,26,17,43,,154,137,37,20,7,6,0.6,0.5
2025-05-11T2100,3291A,121.067,32.062,南通市,通州监测站,颗粒物(PM10),57,63,38,39,20,103,,165,158,45,18,6,6,0.6,0.6
2025-05-11T2100,3432A,120.9348,31.9883,南通市,环境教育馆,颗粒物(PM10),56,61,45,34,22,93,,171,160,57,24,7,6,0.6,0.5
2025-05-11T2100,2404A,112.5224,33.0122,南阳市,瓦房庄,,,,56,,28,,,71,,,26,,8,,0.4
2025-05-11T2100,2405A,112.5003,32.9735,南阳市,汉画馆,,47,47,48,17,24,121,,136,134,24,30,5,7,0.2,0.3
2025-05-11T2100,2406A,112.5573,33.027,南阳市,气象站,颗粒物(PM10),52,53,50,19,25,124,,140,138,20,19,5,8,0.4,0.4
2025-05-11T2100,2407A,112.5481,32.9689,南阳市,理工学院,颗粒物(PM10),52,53,52,20,27,118,,134,132,25,21,4,7,0.3,0.3
2025-05-11T2100,4008A,112.5234,32.9922,南阳市,卧龙区政府,颗粒物(PM10),56,61,54,15,26,119,,135,132,28,27,4,7,0.4,0.5
2025-05-11T2100,1234A,121.8358,29.911,宁波市,区环保大楼,颗粒物(PM10),53,56,42,28,21,117,,144,140,35,25,9,9,0.5,0.4
2025-05-11T2100,1235A,121.56,29.82,宁波市,万里学院,,42,39,35,29,23,109,,162,157,31,18,4,5,0.4,0.4
2025-05-11T2100,1236A,121.713,29.9572,宁波市,龙赛医院,,50,50,42,20,12,117,,152,147,28,17,7,7,0.4,0.4
2025-05-11T2100,1239A,121.633,29.7733,宁波市,钱湖水厂,,35,33,34,20,17,112,,163,159,15,12,8,8,0.3,0.3
2025-05-11T2100,1240A,121.5856,29.8635,宁波市,太古小学,,40,40,38,18,17,114,,163,158,20,15,6,7,0.5,0.4
2025-05-11T2100,1241A,121.524,29.8674,宁波市,市环境监测中心,,50,50,38,23,16,115,,156,152,25,19,11,11,0.7,0.6
2025-05-11T2100,2871A,121.6147,29.9017,宁波市,万里国际学校,,39,36,46,21,19,124,,162,159,17,22,8,9,0.6,0.6
2025-05-11T2100,3710A,121.5594,29.8975,宁波市,白沙活动中心,,39,39,32,21,17,119,,160,157,19,15,8,8,0.5,0.5
2025-05-11T2100,2339A,119.5001,26.6946,宁德市,金涵水库,,,,,,,,,,,,,,,,
2025-05-11T2100,2341A,119.5388,26.6612,宁德市,宁德市监测站,,36,,28,25,18,108,,109,109,15,13,6,5,0.5,0.4
2025-05-11T2100,3209A,119.5231,26.6562,宁德市,宁德一中,,31,28,28,20,14,98,,106,106,13,9,4,2,0.4,0.2
2025-05-11T2100,2618A,98.8601,25.8567,怒江傈僳族自治州,州监测站,,44,44,41,24,24,84,,108,105,12,9,9,9,0.4,0.4
2025-05-11T2100,2619A,98.8546,25.8417,怒江傈僳族自治州,泸水一中,,41,41,46,23,29,63,,89,86,15,16,6,6,0.4,0.4
2025-05-11T2100,1888A,101.6891,26.571,攀枝花市,弄弄坪,,37,37,32,21,14,91,,110,108,22,16,11,17,0.7,0.6
2025-05-11T2100,1889A,101.5769,26.5928,攀枝花市,河门口,,33,28,37,14,17,105,,120,119,11,14,9,16,0.5,0.9
2025-05-11T2100,1890A,101.7169,26.585,攀枝花市,炳草岗,,34,34,34,17,18,100,,119,117,18,17,6,14,0.7,0.7
2025-05-11T2100,1891A,101.7369,26.5008,攀枝花市,仁和,,23,23,36,13,22,67,,110,103,17,12,9,15,0.5,0.6
2025-05-11T2100,2835A,101.7227,26.567,攀枝花市,四十中小,,35,35,41,23,15,104,,120,119,29,12,16,20,0.8,0.7
2025-05-11T2100,1604A,122.0303,41.1489,盘锦市,开发区,细颗粒物(PM2.5),88,,52,65,42,172,,174,174,18,34,10,10,0.5,0.5
2025-05-11T2100,1605A,122.0485,41.0883,盘锦市,兴隆台,细颗粒物(PM2.5),104,,61,78,45,156,,160,160,26,40,8,10,0.7,0.6
2025-05-11T2100,1606A,121.8297,41.1028,盘锦市,新生街道,细颗粒物(PM2.5),114,,42,86,42,183,,174,174,20,36,9,10,0.7,0.6
2025-05-11T2100,1832A,113.3257,33.742,平顶山市,新华旅馆,,42,42,54,25,26,122,,156,149,15,19,5,5,0.4,0.4
2025-05-11T2100,1833A,113.2919,33.737,平顶山市,规划设计院,颗粒物(PM10),53,56,55,27,24,116,,153,146,18,21,5,8,0.4,0.4
2025-05-11T2100,1834A,113.182,33.774,平顶山市,平顶山工学院,,40,40,44,17,21,122,,153,146,13,11,3,4,0.2,0.3
2025-05-11T2100,3204A,113.3025,33.73,平顶山市,规划局,,46,46,50,18,24,116,,149,142,13,18,5,7,0.4,0.5
2025-05-11T2100,3594A,112.8867,33.9116,平顶山市,石龙区,,45,45,62,18,24,135,,140,140,10,26,7,12,0.4,0.2
2025-05-11T2100,2656A,106.6692,35.5461,平凉市,聚贤嘉苑,颗粒物(PM10),54,58,44,30,19,111,,130,128,24,23,12,13,0.3,0.2
2025-05-11T2100,2657A,106.7021,35.5307,平凉市,博物馆,颗粒物(PM10),55,59,49,21,15,119,,134,133,22,20,13,12,0.3,0.3
2025-05-11T2100,2347A,114.0997,27.5002,萍乡市,武功山,,33,,21,22,13,105,,131,128,7,6,12,13,0.7,0.6
2025-05-11T2100,2348A,113.8385,27.6434,萍乡市,中医院,,50,50,45,18,22,111,,142,140,13,10,11,14,0.6,0.7
2025-05-11T2100,2349A,113.8493,27.6253,萍乡市,市政府车库,,50,50,39,16,28,84,,136,131,25,16,8,9,0.5,0.5
2025-05-11T2100,2350A,113.8676,27.6435,萍乡市,市环保局,,49,49,45,25,27,107,,143,140,19,15,7,9,0.6,0.7
2025-05-11T2100,2351A,113.866,27.6198,萍乡市,安源区政府,,45,45,43,24,23,88,,127,123,19,12,5,6,0.5,0.6
2025-05-11T2100,2319A,119.0141,25.4325,莆田市,荔城区仓后路,,31,31,27,18,12,90,,96,96,19,10,4,4,0.8,0.6
2025-05-11T2100,2320A,119.0015,25.4553,莆田市,莆田市监测站,,32,32,25,19,15,72,,95,92,10,6,5,4,0.8,0.5
2025-05-11T2100,2321A,119.1119,25.4561,莆田市,涵江区六中,,32,32,27,22,14,81,,96,94,23,13,4,4,0.6,0.5
2025-05-11T2100,2322A,119.1013,25.3215,莆田市,秀屿区政府,,32,20,26,14,14,100,,106,106,14,10,4,4,0.9,0.6
2025-05-11T2100,2323A,118.981,25.4792,莆田市,东圳水库,,,,,,,,,,,,,,,,
2025-05-11T2100,2392A,115.0312,35.7636,濮阳市,环保局,,43,28,49,15,26,135,,143,143,15,22,8,8,0.6,0.7
2025-05-11T2100,2394A,115.0574,35.7609,濮阳市,油田运输公司,,46,46,56,15,27,137,,155,155,17,23,6,8,0.6,0.7
2025-05-11T2100,3021A,115,35.7668,濮阳市,濮水河管理处,颗粒物(PM10),51,52,59,19,30,117,,150,148,21,22,7,7,0.5,0.6
2025-05-11T2100,4216A,115.0924,35.7686,濮阳市,任丘路479号,颗粒物(PM10),54,57,55,15,24,122,,144,143,20,22,7,8,0.3,0.4
2025-05-11T2100,2601A,100.98,22.7633,普洱市,市环保局,,29,29,39,14,23,84,,104,101,6,4,8,7,0.6,0.6
2025-05-11T2100,2602A,100.9817,22.8322,普洱市,普洱第二中学,,,21,25,20,19,,,103,103,8,8,7,7,0.6,0.6
2025-05-11T2100,2262A,131.0518,45.8751,七台河市,新一中,,41,41,30,22,21,108,,134,124,14,11,9,10,0.6,0.7
2025-05-11T2100,3345A,131.0577,45.7879,七台河市,中波台,,33,33,38,11,17,82,,99,92,20,23,6,7,0.4,0.4
2025-05-11T2100,3637A,131.0176,45.7761,七台河市,人民广场,,48,41,47,33,28,102,,115,110,13,19,10,11,0.6,0.6
2025-05-11T2100,3684A,130.8781,45.8222,七台河市,新建矿广场,颗粒物(PM10),73,95,68,30,20,81,,114,103,19,18,10,9,0.7,0.5
2025-05-11T2100,1779A,123.9305,47.3636,齐齐哈尔市,安居小区,细颗粒物(PM2.5),63,70,55,45,34,56,,99,87,21,14,8,8,0.5,0.4
2025-05-11T2100,1780A,123.9488,47.3386,齐齐哈尔市,中心广场,颗粒物(PM10),70,90,66,46,34,64,,106,95,20,15,5,4,0.5,0.4
2025-05-11T2100,1781A,123.9483,47.3227,齐齐哈尔市,农牧车辆厂,细颗粒物(PM2.5),72,75,59,52,30,64,,104,95,17,12,8,6,0.4,0.3
2025-05-11T2100,1783A,123.945,47.2988,齐齐哈尔市,市环境监测站,颗粒物(PM10),66,82,60,46,34,65,,108,98,17,11,4,4,0.4,0.4
2025-05-11T2100,3662A,123.6333,47.2075,齐齐哈尔市,富区青少年活动中心,细颗粒物(PM2.5),73,72,61,53,43,72,,102,96,9,12,2,6,0.5,0.6
2025-05-11T2100,2591A,107.9783,26.5747,黔东南苗族侗族自治州,市环境监测站,,34,34,22,20,16,46,,98,92,44,8,3,3,0.4,0.3
2025-05-11T2100,2881A,107.8908,26.5311,黔东南苗族侗族自治州,凯里学院,,36,36,25,18,10,73,,104,102,12,6,2,2,0.3,0.3
2025-05-11T2100,2593A,107.5228,26.2403,黔南布依族苗族自治州,小围寨,,27,27,22,14,10,73,,103,101,11,5,1,2,0.3,0.2
2025-05-11T2100,3538A,107.5175,26.2978,黔南布依族苗族自治州,沙坝,,46,46,29,14,11,55,,109,104,22,7,3,4,0.2,0.2
2025-05-11T2100,2589A,104.9022,25.0925,黔西南布依族苗族自治州,场坝街,,40,40,17,16,10,93,,122,119,11,8,6,9,0.3,0.2
2025-05-11T2100,2590A,104.8811,25.0992,黔西南布依族苗族自治州,坪东大道,,41,41,20,26,10,87,,110,107,12,12,3,4,0.4,0.3
2025-05-11T2100,2502A,108.6236,21.9667,钦州市,市环保站,,41,41,36,19,16,92,,105,104,15,11,2,2,0.8,0.8
2025-05-11T2100,2503A,108.6549,21.9481,钦州市,沙埠小学,颗粒物(PM10),60,70,35,22,13,92,,108,107,19,9,6,5,0.6,0.3
2025-05-11T2100,2504A,108.5989,21.7431,钦州市,港区一小,颗粒物(PM10),55,59,47,26,20,77,,97,95,18,16,8,9,0.8,0.6
2025-05-11T2100,3404A,108.5959,21.9633,钦州市,北职校,,42,42,36,22,18,81,,98,96,16,8,8,7,0.6,0.7
2025-05-11T2100,1043A,119.7493,40.0116,秦皇岛市,第一关,细颗粒物(PM2.5),114,130,79,86,44,85,,140,131,40,49,7,10,0.8,0.8
2025-05-11T2100,1044A,119.5897,39.9499,秦皇岛市,监测站,细颗粒物(PM2.5),112,149,85,84,38,50,,139,120,70,32,6,10,1.1,0.9
2025-05-11T2100,1046A,119.5251,39.9041,秦皇岛市,建设大厦,颗粒物(PM10),80,109,83,47,36,112,,140,134,36,33,12,10,0.8,0.9
2025-05-11T2100,3132A,119.610547,39.943889,秦皇岛市,文明里,颗粒物(PM10),98,146,86,63,35,43,,130,110,80,34,5,9,0.9,0.7
2025-05-11T2100,4198A,119.5090,39.8253,秦皇岛市,北戴河轮滑馆,细颗粒物(PM2.5),72,87,70,52,42,111,,136,131,33,28,8,9,0.8,0.8
2025-05-11T2100,1307A,120.6659,36.2403,青岛市,仰口,臭氧1小时,68,51,30,35,24,174,,154,154,7,8,10,8,0.4,0.3
2025-05-11T2100,1310A,120.4134,36.0658,青岛市,市南区东部子站,颗粒物(PM10),51,51,56,24,28,141,,134,134,16,36,9,10,0.5,0.6
2025-05-11T2100,1311A,120.3664,36.1032,青岛市,四方区子站,,47,44,45,29,28,150,,154,154,16,31,7,8,0.7,0.7
2025-05-11T2100,1312A,120.2994,36.054,青岛市,市南区西部子站,,44,36,46,22,26,138,,136,136,23,49,7,9,0.8,0.8
2025-05-11T2100,1313A,120.4581,36.0858,青岛市,崂山区子站,,48,34,41,27,22,152,,143,143,12,25,9,10,0.5,0.6
2025-05-11T2100,1315A,120.3999,36.3083,青岛市,城阳区子站,颗粒物(PM10),53,56,48,24,23,156,,152,152,19,34,7,6,0.5,0.5
2025-05-11T2100,1966A,120.0405,35.8735,青岛市,黄岛区4号,,49,44,43,27,29,154,,152,152,16,25,9,11,0.6,0.7
2025-05-11T2100,3362A,120.5014,36.4034,青岛市,即墨2号,颗粒物(PM10),66,82,55,38,30,160,,151,151,14,21,10,9,0.7,0.6
2025-05-11T2100,3642A,120.3503,36.0736,青岛市,市北区南部,,48,48,51,29,28,141,,138,138,8,28,10,11,0.4,0.5
2025-05-11T2100,3643A,120.3948,36.1805,青岛市,李沧区北部,,46,46,44,31,31,129,,132,132,22,32,10,10,0.6,0.6
2025-05-11T2100,4290A,120.1969,35.9546,青岛市,珠江路669号,细颗粒物(PM2.5),53,53,44,37,27,154,,150,150,13,15,8,9,0.7,0.7
2025-05-11T2100,1702A,113.0426,23.691,清远市,环保大楼,,29,29,22,15,9,90,,138,131,31,14,7,7,0.8,0.6
2025-05-11T2100,1703A,113.0208,23.7106,清远市,凤城街办,,34,34,29,14,15,76,,119,115,36,14,6,5,0.6,0.4
2025-05-11T2100,3025A,113.0477,23.6344,清远市,技师学院,,40,40,29,22,15,69,,118,111,33,15,9,7,0.7,0.5
2025-05-11T2100,3318A,112.9903,23.7403,清远市,清新太和,,33,25,28,11,13,105,,114,114,12,8,10,9,0.5,0.4
2025-05-11T2100,3455A,113.076,23.7198,清远市,清城东城,,38,38,30,20,15,81,,122,117,15,8,7,8,0.5,0.4
2025-05-11T2100,2661A,107.6325,35.7357,庆阳市,庆阳五中,,40,40,44,21,21,111,,133,130,14,10,3,5,0.5,0.5
2025-05-11T2100,2662A,107.6364,35.7067,庆阳市,市环保局,,39,39,49,18,19,122,,133,132,7,7,6,8,0.4,0.4
2025-05-11T2100,1916A,103.7897,25.5035,曲靖市,环境监测站,,47,47,24,22,11,105,,126,125,17,14,6,6,0.5,0.6
2025-05-11T2100,1917A,103.8,25.5364,曲靖市,烟厂办公区,,39,39,26,11,12,112,,128,128,12,10,4,5,0.4,0.6
2025-05-11T2100,3376A,103.7947,25.462,曲靖市,南苑二区,颗粒物(PM10),52,53,25,14,10,108,,133,132,14,13,11,9,0.6,0.7
2025-05-11T2100,3377A,103.7444,25.5261,曲靖市,曲靖师范学院,,44,44,20,24,12,111,,134,133,11,10,9,8,0.4,0.4
