timepoint,stationcode,longitude,latitude,area,positionname,primarypollutant,aqi,pm10,pm10_24h,pm2_5,pm2_5_24h,o3,o3_24h,o3_8h,o3_8h_24h,no2,no2_24h,so2,so2_24h,co,co_24h
2023-09-09T01:00:00,1001A,116.3621,39.8784,北京市,万寿西宫,,30,18,98,17,84,113,95,95,95,7,24,3,3,0.5,1
2023-09-09T01:00:00,1002A,116.2202,40.2915,北京市,定陵,,30,14,61,21,41,62,41,41,41,3,9,3,3,0.5,0.6
2023-09-09T01:00:00,1003A,116.4174,39.9289,北京市,东四,,29,23,100,20,77,116,88,88,88,10,27,3,2,0.5,0.9
2023-09-09T01:00:00,1004A,116.4072,39.8863,北京市,天坛,,28,19,96,17,81,108,87,87,87,11,28,3,3,0.5,0.9
2023-09-09T01:00:00,1005A,116.462,39.9365,北京市,农展馆,,36,25,111,25,92,106,77,77,77,13,37,3,2,0.6,1
2023-09-09T01:00:00,1006A,116.3392,39.9295,北京市,官园,,37,18,79,19,82,124,117,117,117,8,26,3,3,0.4,0.8
2023-09-09T01:00:00,1007A,116.2878,39.9611,北京市,海淀万柳,,29,19,90,16,70,110,91,91,91,8,27,3,3,0.3,0.7
2023-09-09T01:00:00,1008A,116.6636,40.135,北京市,顺义新城,,27,22,107,18,82,101,85,85,85,10,20,3,2,0.4,0.9
2023-09-09T01:00:00,1009A,116.6275,40.3275,北京市,怀柔镇,,28,24,91,19,72,113,80,80,80,4,16,3,2,0.4,0.9
2023-09-09T01:00:00,1010A,116.2296,40.217,北京市,昌平镇,,32,28,73,22,54,96,46,46,46,15,22,3,3,0.4,0.6
2023-09-09T01:00:00,1011A,116.3966,39.9821,北京市,奥体中心,,28,23,74,19,65,106,67,67,67,32,31,3,3,0.5,0.9
2023-09-09T01:00:00,1012A,116.184,39.9136,北京市,古城,,34,24,85,20,67,116,108,108,108,10,23,3,3,0.5,0.8
2023-09-09T01:00:00,1015A,117.1444,39.1661,天津市,勤俭道,细颗粒物(PM2.5),133,134,83,101,54,221,47,47,47,20,25,6,8,1.0,0.8
2023-09-09T01:00:00,1017A,117.237,39.1082,天津市,大直沽八号路,细颗粒物(PM2.5),127,138,80,96,51,176,67,67,67,30,27,4,5,0.8,0.7
2023-09-09T01:00:00,1018A,117.202,39.0927,天津市,前进道,细颗粒物(PM2.5),105,123,76,79,46,176,83,83,83,32,30,8,9,0.8,0.7
2023-09-09T01:00:00,1019A,117.1837,39.2133,天津市,淮河道,细颗粒物(PM2.5),139,155,84,106,54,198,45,45,45,20,32,5,6,1.0,0.9
2023-09-09T01:00:00,1021A,117.307,39.0877,天津市,跃进路,细颗粒物(PM2.5),122,135,82,92,50,192,56,56,56,40,42,6,8,0.9,0.8
2023-09-09T01:00:00,1023A,117.707,39.0343,天津市,第四大街,细颗粒物(PM2.5),54,56,76,38,47,177,114,114,114,33,41,6,7,0.6,0.8
2023-09-09T01:00:00,1024A,117.457,38.8394,天津市,永明路,细颗粒物(PM2.5),54,54,72,38,50,184,125,125,125,20,22,8,10,0.7,0.7
2023-09-09T01:00:00,1026A,117.764,39.1587,天津市,汉北路,细颗粒物(PM2.5),58,56,77,41,48,240,148,148,148,8,28,5,8,0.7,0.8
2023-09-09T01:00:00,1027A,117.157,38.9194,天津市,团泊洼,细颗粒物(PM2.5),103,112,71,77,49,171,44,44,44,53,40,4,4,0.9,0.8
2023-09-09T01:00:00,1029A,114.4422,38.0444,石家庄市,职工医院,细颗粒物(PM2.5),74,87,97,54,58,143,54,54,54,24,31,1,3,0.8,1.1
2023-09-09T01:00:00,1030A,114.6063,38.0266,石家庄市,高新区,细颗粒物(PM2.5),78,86,99,57,70,131,47,47,47,27,34,2,2,0.7,0.9
2023-09-09T01:00:00,1031A,114.4898,38.1328,石家庄市,西北水源,,,,,,,,,,,,,,,,
2023-09-09T01:00:00,1032A,114.4586,38.0058,石家庄市,西南高教,细颗粒物(PM2.5),78,85,84,57,57,130,43,43,43,18,21,3,2,1.0,1.1
2023-09-09T01:00:00,1033A,114.5331,38.0178,石家庄市,世纪公园,细颗粒物(PM2.5),84,83,95,62,53,120,51,51,51,20,26,1,2,0.9,1.1
2023-09-09T01:00:00,1034A,114.509,38.0457,石家庄市,人民会堂,细颗粒物(PM2.5),85,66,88,63,65,127,62,62,62,19,25,4,5,0.7,0.9
2023-09-09T01:00:00,1035A,114.3524,37.8911,石家庄市,封龙山,颗粒物(PM10),85,119,76,44,42,184,136,136,136,11,14,5,6,1.4,1.3
2023-09-09T01:00:00,1037A,118.131,39.6363,唐山市,雷达站,细颗粒物(PM2.5),84,90,79,62,42,208,83,83,83,26,38,13,7,2.3,1
2023-09-09T01:00:00,1038A,118.1725,39.6334,唐山市,物资局,颗粒物(PM10),63,76,72,44,35,201,55,55,55,39,42,14,11,2.2,1
2023-09-09T01:00:00,1040A,118.1705,39.6506,唐山市,十二中,细颗粒物(PM2.5),69,74,69,50,40,191,43,43,43,52,46,13,8,1.8,1
2023-09-09T01:00:00,1041A,118.1869,39.622,唐山市,小山,颗粒物(PM10),66,81,82,44,36,216,49,49,49,42,44,12,9,2.3,1.1
2023-09-09T01:00:00,1042A,119.5134,39.8207,秦皇岛市,北戴河环保局,颗粒物(PM10),64,77,43,44,25,204,79,79,79,23,24,10,12,0.2,0.4
2023-09-09T01:00:00,1043A,119.7493,40.0116,秦皇岛市,第一关,颗粒物(PM10),62,74,48,34,30,176,49,49,49,36,41,9,10,0.6,0.5
2023-09-09T01:00:00,1044A,119.5897,39.9499,秦皇岛市,监测站,颗粒物(PM10),54,57,50,35,32,178,71,71,71,17,29,9,10,0.6,0.7
2023-09-09T01:00:00,1046A,119.5251,39.9041,秦皇岛市,建设大厦,颗粒物(PM10),54,58,60,23,14,191,81,81,81,18,31,8,7,0.3,0.5
2023-09-09T01:00:00,1048A,114.5302,36.6116,邯郸市,东污水处理厂,细颗粒物(PM2.5),55,44,54,39,46,160,104,104,104,24,23,8,6,0.5,0.6
2023-09-09T01:00:00,1049A,114.4918,36.5713,邯郸市,矿院,细颗粒物(PM2.5),67,47,49,48,47,158,78,78,78,33,29,9,3,0.5,0.6
2023-09-09T01:00:00,1050A,114.484,36.6133,邯郸市,丛台公园,颗粒物(PM10),57,63,56,38,35,163,95,95,95,18,13,15,8,0.4,0.5
2023-09-09T01:00:00,1051A,115.493,38.8632,保定市,游泳馆,,40,32,89,21,61,154,126,126,126,8,30,7,9,0.2,0.5
2023-09-09T01:00:00,1052A,115.5213,38.8959,保定市,华电二区,,38,31,76,24,54,135,119,119,119,1,22,4,6,0.3,0.7
2023-09-09T01:00:00,1053A,115.4713,38.9108,保定市,接待中心,,43,34,86,30,53,129,121,121,121,2,22,6,6,0.4,0.7
2023-09-09T01:00:00,1054A,115.4612,38.8416,保定市,地表水厂,,50,46,98,35,51,150,124,124,124,4,28,8,10,0.4,0.7
2023-09-09T01:00:00,1056A,115.5086,38.8639,保定市,监测站,,48,39,81,33,57,151,134,134,134,2,29,6,7,0.3,0.6
2023-09-09T01:00:00,1057A,114.8883,40.8336,张家口市,人民公园,,17,16,37,4,20,90,54,54,54,6,16,2,2,0.2,0.4
2023-09-09T01:00:00,1059A,114.8687,40.8042,张家口市,五金库,,20,19,38,14,28,89,62,62,62,3,16,1,1,0.4,0.6
2023-09-09T01:00:00,1060A,114.8902,40.762,张家口市,世纪豪园,,40,23,33,28,29,100,53,53,53,20,17,3,3,0.4,0.4
2023-09-09T01:00:00,1061A,114.8916,40.8661,张家口市,北泵房,,20,11,31,14,22,89,59,59,59,4,12,6,6,0.3,0.5
2023-09-09T01:00:00,1062A,117.9531,40.9081,承德市,铁路,,44,44,56,12,30,88,20,20,20,34,43,7,7,0.4,0.5
2023-09-09T01:00:00,1063A,117.9392,40.9763,承德市,中国银行,,36,36,48,17,26,94,19,19,19,25,24,7,7,0.4,0.5
2023-09-09T01:00:00,1064A,117.9503,40.928,承德市,开发区,,21,21,40,13,28,106,19,19,19,36,28,4,5,0.5,0.6
2023-09-09T01:00:00,1065A,117.8051,40.9655,承德市,文化中心,,32,32,46,21,28,91,22,22,22,24,23,4,5,0.3,0.5
2023-09-09T01:00:00,1066A,117.9268,41.0026,承德市,离宫,,33,33,55,6,23,82,2,2,2,12,13,1,1,0.3,0.5
2023-09-09T01:00:00,1067A,116.6708,39.5111,廊坊市,药材公司,,42,34,98,29,66,152,84,84,84,12,24,3,4,0.5,0.7
2023-09-09T01:00:00,1068A,116.7214,39.5589,廊坊市,开发区,,32,32,102,17,66,140,81,81,81,14,20,1,2,0.4,0.7
2023-09-09T01:00:00,1070A,116.7244,39.5269,廊坊市,北华航天学院,,37,37,104,19,56,149,87,87,87,13,24,2,5,0.4,0.7
2023-09-09T01:00:00,1071A,116.8842,38.2991,沧州市,沧县城建局,细颗粒物(PM2.5),78,75,72,57,44,187,121,121,121,20,25,6,9,0.7,0.7
2023-09-09T01:00:00,1072A,116.8584,38.3254,沧州市,电视转播站,细颗粒物(PM2.5),67,67,71,48,50,189,133,133,133,18,22,7,7,0.7,0.6
2023-09-09T01:00:00,1073A,116.8709,38.3228,沧州市,市环保局,细颗粒物(PM2.5),77,81,75,56,44,186,111,111,111,20,24,7,9,0.5,0.5
2023-09-09T01:00:00,1074A,115.6838,37.7541,衡水市,电机北厂,颗粒物(PM10),54,58,67,30,36,181,110,110,110,18,11,2,5,0.5,0.5
2023-09-09T01:00:00,1075A,115.6303,37.7316,衡水市,市监测站,颗粒物(PM10),51,51,64,34,39,179,117,117,117,23,20,5,5,0.5,0.5
2023-09-09T01:00:00,1077A,114.4704,37.0886,邢台市,达活泉,细颗粒物(PM2.5),112,125,115,84,52,224,82,82,82,12,20,5,14,1.1,1.4
2023-09-09T01:00:00,1078A,114.5062,37.0349,邢台市,邢师高专,细颗粒物(PM2.5),115,121,94,87,52,195,47,47,47,24,24,5,9,1.1,1
2023-09-09T01:00:00,1079A,114.5237,37.0851,邢台市,路桥公司,细颗粒物(PM2.5),117,136,104,88,63,226,60,60,60,28,25,3,13,1.2,1.4
2023-09-09T01:00:00,1080A,114.4725,37.0719,邢台市,市环保局,细颗粒物(PM2.5),108,,117,81,63,226,73,73,73,9,20,3,13,1.1,1.6
2023-09-09T01:00:00,1081A,112.522,37.8873,太原市,尖草坪,细颗粒物(PM2.5),124,119,111,94,81,126,48,48,48,36,42,10,12,1.2,1.5
2023-09-09T01:00:00,1083A,112.434,38.0108,太原市,上兰,,,,,,,,,,,,,,,,
2023-09-09T01:00:00,1084A,112.469,37.7124,太原市,晋源,细颗粒物(PM2.5),99,126,102,74,68,162,52,52,52,31,37,6,8,1.2,1.2
2023-09-09T01:00:00,1085A,112.5583,37.7394,太原市,小店,颗粒物(PM10),95,139,107,67,57,158,50,50,50,39,35,5,7,1.2,1
2023-09-09T01:00:00,1086A,112.5369,37.8692,太原市,桃园,细颗粒物(PM2.5),88,104,98,65,64,124,35,35,35,39,43,7,10,1.3,1.6
2023-09-09T01:00:00,1087A,112.57,37.8195,太原市,坞城,细颗粒物(PM2.5),102,107,92,76,62,155,35,35,35,42,37,18,12,1.5,1.3
2023-09-09T01:00:00,1088A,112.549,37.9854,太原市,南寨,细颗粒物(PM2.5),94,98,88,70,60,120,26,26,26,36,37,7,6,1.1,1.1
2023-09-09T01:00:00,1090A,111.6507,40.7517,呼和浩特市,呼市一监,,20,14,34,14,38,81,28,28,28,19,20,7,6,0.6,0.8
2023-09-09T01:00:00,1091A,111.6572,40.8033,呼和浩特市,小召,,31,31,38,18,37,77,19,19,19,34,23,5,5,0.8,1
2023-09-09T01:00:00,1094A,111.7516,40.8369,呼和浩特市,如意水处理厂,,26,24,49,12,39,80,7,7,7,52,31,7,7,0.6,0.7
2023-09-09T01:00:00,1095A,111.7276,40.8062,呼和浩特市,二十九中,,48,28,45,33,46,79,39,39,39,30,25,6,6,0.7,0.9
2023-09-09T01:00:00,1096A,111.5512,40.7866,呼和浩特市,工大金川校区,颗粒物(PM10),52,54,69,20,46,68,5,5,5,44,30,4,4,0.5,0.8
2023-09-09T01:00:00,1097A,111.717,40.7612,呼和浩特市,化肥厂生活区,,32,31,54,22,38,93,46,46,46,21,25,10,7,0.6,0.8
2023-09-09T01:00:00,1098A,123.6836,41.9339,沈阳市,森林路,,,,,,,,,,,,,,,,
2023-09-09T01:00:00,1099A,123.505,41.7406,沈阳市,浑南东路,颗粒物(PM10),57,63,58,33,26,125,22,22,22,44,34,4,8,1.0,0.9
2023-09-09T01:00:00,1100A,123.4231,41.6989,沈阳市,新秀街,颗粒物(PM10),58,65,64,32,22,117,33,33,33,36,33,7,23,0.8,0.8
2023-09-09T01:00:00,1102A,123.5903,41.8411,沈阳市,东陵路,,49,49,52,26,27,129,7,7,7,30,25,6,9,0.8,0.9
2023-09-09T01:00:00,1103A,123.4264,41.8467,沈阳市,陵东街,颗粒物(PM10),57,64,46,39,28,125,11,11,11,23,19,6,10,0.9,0.8
2023-09-09T01:00:00,1104A,123.4114,41.7653,沈阳市,文化路,细颗粒物(PM2.5),78,94,65,57,35,126,25,25,25,36,21,5,15,0.9,0.8
2023-09-09T01:00:00,1105A,123.4678,41.7867,沈阳市,小河沿,细颗粒物(PM2.5),72,92,56,52,31,122,24,24,24,37,24,5,11,1.0,0.9
2023-09-09T01:00:00,1106A,123.4017,41.7972,沈阳市,太原街,细颗粒物(PM2.5),73,88,57,53,35,126,27,27,27,34,21,7,13,0.9,0.8
2023-09-09T01:00:00,1108A,123.3783,41.9228,沈阳市,京沈街,颗粒物(PM10),69,88,58,49,36,129,23,23,23,15,14,9,12,0.8,0.8
2023-09-09T01:00:00,1109A,121.612,38.9741,大连市,甘井子,细颗粒物(PM2.5),64,69,47,46,28,151,113,113,113,16,17,4,4,0.7,0.6
2023-09-09T01:00:00,1110A,121.565,38.9511,大连市,周水子,细颗粒物(PM2.5),55,44,38,39,28,146,126,126,126,14,19,3,5,0.5,0.8
2023-09-09T01:00:00,1111A,121.5637,38.8845,大连市,星海三站,细颗粒物(PM2.5),59,42,33,42,31,183,124,124,124,8,11,9,8,0.3,0.4
2023-09-09T01:00:00,1112A,121.6302,38.9117,大连市,青泥洼桥,细颗粒物(PM2.5),62,45,32,44,29,149,99,99,99,14,12,6,6,0.7,0.6
2023-09-09T01:00:00,1113A,121.6251,38.8638,大连市,傅家庄,细颗粒物(PM2.5),54,34,35,38,32,191,100,100,100,38,17,10,8,0.5,0.5
2023-09-09T01:00:00,1114A,121.5213,38.8661,大连市,七贤岭,,43,29,31,30,28,168,70,70,70,5,13,5,6,0.4,0.5
2023-09-09T01:00:00,1115A,121.2529,38.8061,大连市,旅顺,,42,32,31,26,23,165,132,132,132,8,14,4,5,0.5,0.6
2023-09-09T01:00:00,1116A,121.7485,39.1311,大连市,金州,细颗粒物(PM2.5),53,45,37,37,28,170,44,44,44,21,18,7,8,0.3,0.3
2023-09-09T01:00:00,1117A,121.7811,39.0496,大连市,开发区,,50,34,34,35,31,166,95,95,95,26,16,9,9,0.5,0.5
2023-09-09T01:00:00,1118A,121.9762,39.0631,大连市,双D港,,42,32,29,29,25,180,46,46,46,20,14,7,8,0.6,0.5
2023-09-09T01:00:00,1119A,125.3325,43.9166,长春市,食品厂,,26,26,55,7,24,97,40,40,40,29,24,5,6,0.3,0.6
2023-09-09T01:00:00,1120A,125.2863,43.9027,长春市,客车厂,,24,24,50,9,22,94,42,42,42,26,18,6,6,0.3,0.6
2023-09-09T01:00:00,1121A,125.2841,43.8463,长春市,邮电学院,,,21,52,13,21,103,,,,15,13,6,7,0.3,0.5
2023-09-09T01:00:00,1122A,125.3716,43.8772,长春市,劳动公园,,30,30,53,11,20,105,37,37,37,30,16,6,5,0.3,0.5
2023-09-09T01:00:00,1123A,125.3297,43.8805,长春市,园林处,,23,23,50,7,18,101,57,57,57,18,16,6,7,0.4,0.6
2023-09-09T01:00:00,1124A,125.4605,43.79,长春市,净月潭,,19,19,44,7,17,97,41,41,41,12,11,6,6,0.3,0.5
2023-09-09T01:00:00,1125A,125.7194,43.515,长春市,甩湾子,,,,,,,,,,,,,,,,
2023-09-09T01:00:00,1126A,125.3863,43.8447,长春市,经开区环卫处,,25,25,56,6,20,97,38,38,38,23,16,5,6,0.3,0.5
2023-09-09T01:00:00,1127A,125.245,43.7783,长春市,高新区管委会,,21,21,59,13,25,98,48,48,48,27,16,5,5,0.4,0.6
2023-09-09T01:00:00,1128A,125.1761,43.8325,长春市,岱山公园,,36,36,55,12,21,95,24,24,24,44,22,5,5,1.2,0.8
2023-09-09T01:00:00,1129A,126.5422,45.755,哈尔滨市,岭北,,14,12,26,5,13,114,42,42,42,14,9,9,9,0.4,0.4
2023-09-09T01:00:00,1130A,126.561,45.8167,哈尔滨市,松北商大,,27,27,31,5,12,98,26,26,26,22,14,7,7,0.4,0.5
2023-09-09T01:00:00,1131A,126.979,45.5419,哈尔滨市,阿城会宁,,29,29,40,9,15,116,20,20,20,28,17,6,6,0.5,0.6
2023-09-09T01:00:00,1132A,126.599,45.7222,哈尔滨市,南岗学府路,,21,21,40,2,12,106,36,36,36,15,9,6,6,0.6,0.7
2023-09-09T01:00:00,1133A,126.689,45.7733,哈尔滨市,太平宏伟公园,,37,37,38,7,13,99,26,26,26,28,14,5,5,0.3,0.4
2023-09-09T01:00:00,1134A,126.635,45.7667,哈尔滨市,道外承德广场,,21,21,35,10,13,103,30,30,30,24,16,5,5,0.2,0.4
2023-09-09T01:00:00,1135A,126.685,45.7319,哈尔滨市,香坊红旗大街,,20,20,34,4,15,113,46,46,46,13,15,8,8,0.4,0.5
2023-09-09T01:00:00,1136A,126.6411,45.7258,哈尔滨市,动力和平路,,,24,33,,3,108,44,44,44,16,15,7,8,0.3,0.4
2023-09-09T01:00:00,1137A,126.593,45.7478,哈尔滨市,道里建国路,,13,13,33,6,14,101,40,40,40,18,17,5,5,0.1,0.3
2023-09-09T01:00:00,1138A,126.615,45.61,哈尔滨市,平房东轻厂,,25,25,39,7,12,106,30,30,30,25,21,7,7,0.2,0.3
2023-09-09T01:00:00,1139A,126.595,45.9855,哈尔滨市,呼兰师专,,25,25,35,5,15,104,27,27,27,20,12,7,7,0.5,0.5
2023-09-09T01:00:00,1140A,126.6206,45.6842,哈尔滨市,省农科院,,29,29,43,3,11,116,43,43,43,22,16,7,7,0.4,0.5
2023-09-09T01:00:00,1141A,121.4,31.238,上海市,普陀,,25,25,28,14,14,137,68,68,68,26,19,5,4,0.6,0.6
2023-09-09T01:00:00,1142A,121.478,31.2036,上海市,十五厂,,30,30,31,13,18,144,60,60,60,38,22,9,9,0.6,0.6
2023-09-09T01:00:00,1143A,121.467,31.3008,上海市,虹口,,24,21,26,16,17,131,76,76,76,27,26,8,7,0.5,0.5
2023-09-09T01:00:00,1144A,121.412,31.1654,上海市,徐汇上师大,,27,27,25,17,19,148,55,55,55,38,19,6,6,0.6,0.5
2023-09-09T01:00:00,1145A,121.536,31.2659,上海市,杨浦四漂,,32,32,37,10,18,132,49,49,49,49,33,7,6,0.5,0.5
2023-09-09T01:00:00,1147A,121.425,31.2261,上海市,静安监测站,,24,22,26,15,18,145,74,74,74,30,21,3,3,0.8,0.8
2023-09-09T01:00:00,1148A,121.703,31.1907,上海市,浦东川沙,,22,22,24,15,18,129,65,65,65,25,15,6,6,0.6,0.6
2023-09-09T01:00:00,1149A,121.533,31.2284,上海市,浦东新区监测站,,24,24,25,13,15,128,58,58,58,28,16,6,6,0.5,0.5
2023-09-09T01:00:00,1150A,121.577,31.2071,上海市,浦东张江,,23,23,25,10,18,113,58,58,58,29,19,5,5,0.5,0.6
2023-09-09T01:00:00,1151A,118.8086,32.1065,南京市,迈皋桥,,46,46,44,19,24,208,53,53,53,35,20,5,5,0.6,0.6
2023-09-09T01:00:00,1152A,118.7538,32.0551,南京市,草场门,,42,42,45,24,24,199,62,62,62,32,22,4,4,0.7,0.8
2023-09-09T01:00:00,1153A,118.7794,32.0745,南京市,山西路,,46,46,48,24,24,207,65,65,65,22,15,4,4,0.5,0.5
2023-09-09T01:00:00,1154A,118.7752,32.0023,南京市,中华门,,48,48,43,24,24,193,57,57,57,29,19,4,3,0.8,0.9
2023-09-09T01:00:00,1155A,118.8109,32.0309,南京市,瑞金路,,46,46,46,14,23,194,56,56,56,24,14,4,7,0.5,0.5
2023-09-09T01:00:00,1156A,118.7997,32.0754,南京市,玄武湖,,50,50,43,17,22,188,58,58,58,28,22,7,6,0.7,0.7
2023-09-09T01:00:00,1157A,118.6414,32.0931,南京市,浦口,细颗粒物(PM2.5),53,54,47,37,26,210,49,49,49,39,23,6,5,0.5,0.4
2023-09-09T01:00:00,1158A,118.7356,31.9996,南京市,奥体中心,颗粒物(PM10),53,55,47,29,28,202,64,64,64,32,20,8,7,0.6,0.6
2023-09-09T01:00:00,1159A,118.9125,32.1028,南京市,仙林大学城,,39,39,41,24,24,211,68,68,68,20,17,10,9,0.8,0.8
2023-09-09T01:00:00,1160A,120.561,31.2472,苏州市,上方山,,24,24,30,15,19,169,68,68,68,16,12,7,8,0.4,0.4
2023-09-09T01:00:00,1162A,120.591,31.3019,苏州市,彩香,,24,21,29,10,18,199,75,75,75,14,13,8,8,0.6,0.6
2023-09-09T01:00:00,1163A,120.596,31.3264,苏州市,轧钢厂,,25,24,31,12,18,201,78,78,78,13,13,11,9,0.6,0.6
2023-09-09T01:00:00,1164A,120.613,31.2703,苏州市,吴中区,,24,24,32,10,16,196,74,74,74,15,16,8,9,0.5,0.5
2023-09-09T01:00:00,1165A,120.543,31.2994,苏州市,苏州新区,,26,18,28,8,16,197,82,82,82,15,15,8,8,0.6,0.7
2023-09-09T01:00:00,1166A,120.669,31.3097,苏州市,苏州工业园区,,24,22,28,12,18,201,76,76,76,20,20,10,8,0.6,0.6
2023-09-09T01:00:00,1167A,120.641,31.3708,苏州市,相城区,,27,27,37,12,19,190,65,65,65,26,26,13,10,0.5,0.6
2023-09-09T01:00:00,1168A,120.9098,31.9663,南通市,狼山街道,,24,20,28,6,15,191,75,75,75,13,21,7,9,0.4,0.5
2023-09-09T01:00:00,1169A,120.86,32.0005,南通市,虹桥,,31,23,32,18,23,204,99,99,99,10,17,5,7,0.5,0.6
2023-09-09T01:00:00,1170A,120.87,32.02,南通市,城中,,28,21,29,11,20,189,87,87,87,13,18,6,7,0.5,0.7
2023-09-09T01:00:00,1171A,120.94,31.93,南通市,星湖花园,,27,12,29,8,17,177,86,86,86,8,11,6,7,0.5,0.6
2023-09-09T01:00:00,1172A,120.81,32.0417,南通市,紫琅学院,,31,13,29,7,15,186,98,98,98,9,26,6,7,0.5,0.6
2023-09-09T01:00:00,1173A,119.176,34.5885,连云港市,市环境监测站,,28,27,40,19,25,149,74,74,74,7,9,6,7,0.3,0.5
2023-09-09T01:00:00,1177A,117.179,34.2761,徐州市,黄河新村,颗粒物(PM10),68,85,60,33,38,166,99,99,99,22,19,5,5,0.5,0.5
2023-09-09T01:00:00,1178A,117.1918,34.2384,徐州市,淮塔,颗粒物(PM10),60,69,61,39,39,175,114,114,114,18,22,10,9,0.5,0.4
2023-09-09T01:00:00,1180A,117.256,34.2153,徐州市,新城区,细颗粒物(PM2.5),53,51,60,37,36,167,90,90,90,33,27,6,6,0.6,0.5
2023-09-09T01:00:00,1181A,117.244,34.2911,徐州市,桃园路,颗粒物(PM10),53,56,67,35,36,167,95,95,95,18,17,10,10,0.6,0.6
2023-09-09T01:00:00,1182A,117.2933,34.2778,徐州市,农科院,颗粒物(PM10),51,51,56,32,38,164,91,91,91,29,29,12,9,0.5,0.5
2023-09-09T01:00:00,1186A,119.389,32.3761,扬州市,邗江监测站,,36,36,48,23,26,167,48,48,48,20,19,6,7,0.6,0.7
2023-09-09T01:00:00,1188A,120.269,31.4867,无锡市,雪浪,,29,29,38,12,20,168,65,65,65,26,18,6,6,0.5,0.6
2023-09-09T01:00:00,1189A,120.275,31.6219,无锡市,黄巷,,27,27,38,9,22,161,50,50,50,41,34,7,7,0.7,0.8
2023-09-09T01:00:00,1190A,120.294,31.56,无锡市,曹张,,26,26,34,17,19,169,56,56,56,30,21,9,8,0.5,0.6
2023-09-09T01:00:00,1191A,120.242,31.5031,无锡市,漆塘,,27,27,31,9,19,157,65,65,65,27,21,7,6,0.5,0.6
2023-09-09T01:00:00,1192A,120.3489,31.5863,无锡市,东亭,,24,24,37,14,25,171,53,53,53,29,22,5,5,0.7,0.7
2023-09-09T01:00:00,1193A,120.354,31.5475,无锡市,旺庄,,29,29,36,12,23,174,56,56,56,28,23,13,11,0.7,0.7
2023-09-09T01:00:00,1194A,120.245,31.5631,无锡市,荣巷,,19,19,31,12,18,171,53,53,53,28,16,10,10,0.5,0.6
2023-09-09T01:00:00,1195A,120.299,31.6817,无锡市,堰桥,,29,29,32,14,18,168,42,42,42,24,14,5,6,0.8,0.6
2023-09-09T01:00:00,1196A,119.9633,31.762,常州市,市监测站,,31,31,43,19,28,201,41,41,41,36,25,9,9,0.7,0.7
2023-09-09T01:00:00,1200A,119.9468,31.7069,常州市,武进监测站,,32,32,44,8,24,206,57,57,57,26,21,7,7,0.6,0.9
2023-09-09T01:00:00,1201A,119.9255,31.9087,常州市,安家,,42,42,47,19,28,212,60,60,60,22,22,6,7,0.6,0.8
2023-09-09T01:00:00,1203A,119.6707,32.1875,镇江市,新区办事处,,35,35,39,21,26,190,44,44,44,34,22,5,5,0.8,0.7
2023-09-09T01:00:00,1204A,119.4974,32.1968,镇江市,职教中心,,39,39,41,25,29,202,48,48,48,28,28,7,7,0.8,0.9
2023-09-09T01:00:00,1205A,119.4303,32.1328,镇江市,丹徒区监测站,,39,28,50,27,34,234,55,55,55,23,16,3,3,0.7,0.8
2023-09-09T01:00:00,1206A,119.905,32.4878,泰州市,公园路,,32,31,35,22,25,139,61,61,61,10,10,6,8,0.7,0.9
2023-09-09T01:00:00,1207A,119.9189,32.4625,泰州市,莲花,,32,27,34,22,23,143,57,57,57,11,10,4,5,0.6,0.7
2023-09-09T01:00:00,1209A,119.888,32.4639,泰州市,留学生创业园,,39,39,39,26,24,148,62,62,62,14,12,7,7,0.6,0.6
2023-09-09T01:00:00,1210A,119.036,33.5981,淮安市,钵池山,,32,24,36,22,26,151,44,44,44,17,16,6,6,0.6,0.7
2023-09-09T01:00:00,1211A,119.007,33.575,淮安市,北京南路,,26,24,40,18,25,176,50,50,50,17,20,8,8,0.5,0.7
2023-09-09T01:00:00,1212A,118.989,33.6067,淮安市,市监测站,,27,27,44,12,24,154,53,53,53,15,18,6,7,0.5,0.6
2023-09-09T01:00:00,1213A,119.135,33.5039,淮安市,楚州区监测站,,29,29,35,16,23,116,39,39,39,17,15,7,8,0.6,0.7
2023-09-09T01:00:00,1214A,119.0186,33.6297,淮安市,淮阴区监测站,,28,24,44,19,27,153,51,51,51,15,23,6,7,0.6,0.7
2023-09-09T01:00:00,1215A,120.118,33.4022,盐城市,盐城电厂,,25,24,34,17,19,147,68,68,68,5,9,6,6,0.4,0.4
2023-09-09T01:00:00,1216A,120.156,33.3942,盐城市,市监测站,,26,26,32,12,14,158,66,66,66,11,15,4,4,0.3,0.3
2023-09-09T01:00:00,1218A,120.2144,33.38,盐城市,开发区管委会,,32,20,25,22,17,138,53,53,53,12,10,9,10,0.4,0.4
2023-09-09T01:00:00,1220A,118.293,33.9528,宿迁市,宿迁学院,,48,45,48,33,37,153,66,66,66,20,19,10,9,0.6,0.7
2023-09-09T01:00:00,1221A,118.2442,33.9592,宿迁市,宿迁中学,,38,38,50,22,34,157,77,77,77,16,17,8,7,0.6,0.7
2023-09-09T01:00:00,1223A,120.2072,30.2111,杭州市,滨江,,43,43,38,22,22,173,81,81,81,20,19,8,9,0.7,0.6
2023-09-09T01:00:00,1224A,120.0633,30.2747,杭州市,西溪,,28,28,31,12,19,180,61,61,61,15,14,3,3,0.6,0.6
2023-09-09T01:00:00,1226A,120.3461,30.3153,杭州市,下沙,,36,36,32,18,17,148,69,69,69,29,17,7,4,0.6,0.6
2023-09-09T01:00:00,1227A,120.1269,30.2456,杭州市,卧龙桥,,33,31,32,23,21,182,27,27,27,20,15,3,4,0.6,0.6
2023-09-09T01:00:00,1228A,120.1903,30.2692,杭州市,浙江农大,,30,30,29,21,21,149,70,70,70,26,20,11,9,0.6,0.6
2023-09-09T01:00:00,1230A,120.1197,30.3119,杭州市,和睦小学,,34,34,38,15,23,171,77,77,77,27,21,11,8,0.5,0.5
2023-09-09T01:00:00,1231A,120.3019,30.4183,杭州市,临平镇,,29,29,33,19,19,139,69,69,69,21,14,5,4,0.5,0.5
2023-09-09T01:00:00,1232A,120.2697,30.1819,杭州市,城厢镇,细颗粒物(PM2.5),64,62,40,46,32,161,70,70,70,26,23,8,8,0.6,0.4
2023-09-09T01:00:00,1233A,120.0883,30.1808,杭州市,云栖,,34,34,36,13,16,191,32,32,32,18,13,6,7,0.6,0.6
2023-09-09T01:00:00,1234A,121.8358,29.911,宁波市,区环保大楼,,23,22,24,16,16,147,45,45,45,30,25,3,4,0.6,0.5
2023-09-09T01:00:00,1235A,121.56,29.82,宁波市,万里学院,,42,42,39,20,19,173,7,7,7,73,32,5,5,0.5,0.5
2023-09-09T01:00:00,1236A,121.713,29.9572,宁波市,龙赛医院,颗粒物(PM10),54,58,41,14,17,133,42,42,42,42,27,8,8,0.6,0.6
2023-09-09T01:00:00,1239A,121.633,29.7733,宁波市,钱湖水厂,,18,18,27,11,17,185,38,38,38,8,11,5,6,0.5,0.6
2023-09-09T01:00:00,1240A,121.5856,29.8635,宁波市,太古小学,,28,28,36,15,19,158,57,57,57,36,35,6,6,0.7,0.9
2023-09-09T01:00:00,1241A,121.524,29.8674,宁波市,市环境监测中心,,24,23,32,12,18,172,76,76,76,16,22,8,8,0.3,0.4
2023-09-09T01:00:00,1242A,120.634,28.0089,温州市,瓯海,,31,31,35,16,19,128,71,71,71,19,24,6,7,0.5,0.5
2023-09-09T01:00:00,1243A,120.6748,27.9939,温州市,南浦,,31,22,31,11,16,127,97,97,97,8,15,5,5,0.5,0.5
2023-09-09T01:00:00,1244A,120.76,27.9747,温州市,龙湾,,25,25,34,13,13,120,62,62,62,23,24,6,7,0.5,0.5
2023-09-09T01:00:00,1245A,120.6709,28.0167,温州市,市站,,39,39,38,25,18,120,53,53,53,26,22,6,6,0.5,0.5
2023-09-09T01:00:00,1247A,120.6053,29.9928,绍兴市,城东开发委,颗粒物(PM10),52,54,35,34,22,156,60,60,60,20,15,6,6,0.5,0.4
2023-09-09T01:00:00,1250A,120.0751,30.8669,湖州市,城西水厂,,28,28,33,13,21,175,64,64,64,30,19,5,4,0.4,0.5
2023-09-09T01:00:00,1252A,120.7436,30.778,嘉兴市,清河小学,,25,22,24,10,14,156,77,77,77,23,19,5,5,0.6,0.5
2023-09-09T01:00:00,1253A,120.726,30.7478,嘉兴市,嘉兴学院,,28,21,23,12,17,163,87,87,87,19,17,4,4,0.5,0.5
2023-09-09T01:00:00,1255A,121.273,28.6459,台州市,黄岩环保大楼,,45,45,29,21,14,126,58,58,58,14,10,6,6,0.5,0.5
2023-09-09T01:00:00,1256A,121.419,28.6542,台州市,台州环保大楼,,28,28,27,13,17,111,66,66,66,12,13,6,6,0.3,0.4
2023-09-09T01:00:00,1257A,121.377,28.5773,台州市,路桥田洋王,,37,37,33,19,17,121,45,45,45,24,10,6,4,0.5,0.4
2023-09-09T01:00:00,1258A,122.122,30.0203,舟山市,定海檀枫,,24,24,25,12,13,109,53,53,53,8,8,6,6,0.5,0.5
2023-09-09T01:00:00,1259A,122.3094,29.9558,舟山市,普陀东港,,25,19,19,10,11,125,77,77,77,7,6,5,5,0.4,0.4
2023-09-09T01:00:00,1260A,122.19,29.9944,舟山市,临城新区,,22,22,21,11,12,120,64,64,64,6,8,6,7,0.4,0.4
2023-09-09T01:00:00,1262A,119.647,29.077,金华市,十五中,,42,42,29,15,14,161,74,74,74,31,21,4,4,0.4,0.4
2023-09-09T01:00:00,1263A,119.686,29.1029,金华市,监测站,,46,46,39,31,22,172,68,68,68,40,24,4,4,0.5,0.4
2023-09-09T01:00:00,1264A,118.8692,28.9398,衢州市,环保大楼,,40,40,44,25,29,152,97,97,97,19,18,4,4,0.5,0.4
2023-09-09T01:00:00,1265A,118.8709,28.9666,衢州市,实验学校,,44,44,40,23,26,160,110,110,110,14,15,7,5,0.6,0.6
2023-09-09T01:00:00,1266A,118.8621,28.9808,衢州市,衢州学院,,44,44,39,30,26,145,93,93,93,24,22,4,4,0.4,0.5
2023-09-09T01:00:00,1267A,119.914,28.4514,丽水市,监测站大楼,,29,29,25,7,12,109,80,80,80,8,10,5,5,0.4,0.4
2023-09-09T01:00:00,1268A,119.93,28.4586,丽水市,莲都小学,,26,19,26,11,13,117,82,82,82,7,9,5,5,0.4,0.4
2023-09-09T01:00:00,1269A,119.879,28.4231,丽水市,余庄前,,28,28,24,15,13,99,77,77,77,9,9,5,5,0.4,0.4
2023-09-09T01:00:00,1270A,117.1959,31.7848,合肥市,明珠广场,颗粒物(PM10),52,53,54,34,30,167,96,96,96,31,27,8,6,0.8,0.8
2023-09-09T01:00:00,1271A,117.3072,31.8764,合肥市,三里街,细颗粒物(PM2.5),62,61,49,44,33,154,58,58,58,46,24,7,6,0.6,0.5
2023-09-09T01:00:00,1272A,117.2588,31.8707,合肥市,琥珀山庄,颗粒物(PM10),53,56,49,31,28,167,81,81,81,34,19,6,5,0.9,0.8
2023-09-09T01:00:00,1273A,117.1604,31.9052,合肥市,董铺水库,颗粒物(PM10),52,53,48,29,26,165,84,84,84,24,18,5,5,0.5,0.5
2023-09-09T01:00:00,1274A,117.25,31.8571,合肥市,长江中路,颗粒物(PM10),54,58,57,35,33,155,86,86,86,29,19,9,8,0.7,0.7
2023-09-09T01:00:00,1275A,117.266,31.9436,合肥市,庐阳区,颗粒物(PM10),54,58,53,31,30,144,84,84,84,26,23,6,6,0.6,0.6
2023-09-09T01:00:00,1276A,117.336,31.8586,合肥市,瑶海区,颗粒物(PM10),57,63,62,38,30,145,86,86,86,22,17,6,5,0.9,0.8
2023-09-09T01:00:00,1277A,117.3027,31.7964,合肥市,包河区,颗粒物(PM10),57,63,56,34,31,154,14,14,14,101,43,6,6,0.9,0.4
2023-09-09T01:00:00,1278A,117.2776,31.7385,合肥市,滨湖新区,颗粒物(PM10),56,61,52,34,30,160,106,106,106,23,19,12,9,0.6,0.6
2023-09-09T01:00:00,1279A,117.1318,31.8403,合肥市,高新区,,46,46,48,30,32,168,107,107,107,24,20,8,6,0.8,0.7
2023-09-09T01:00:00,1280A,119.3903,26.0543,福州市,鼓山,,,,,,,,,,,,,,,,
2023-09-09T01:00:00,1282A,119.2681,26.0504,福州市,师大,,32,32,30,12,10,100,45,45,45,19,12,4,4,0.1,0.2
2023-09-09T01:00:00,1283A,119.2984,26.1028,福州市,五四北路,,25,25,28,12,10,96,68,68,68,10,11,3,3,0.4,0.5
2023-09-09T01:00:00,1284A,119.2648,26.0768,福州市,杨桥西路,,30,30,32,13,11,99,59,59,59,13,9,3,3,0.4,0.4
2023-09-09T01:00:00,1285A,119.317,26.0746,福州市,紫阳,,31,31,30,11,9,96,74,74,74,7,7,4,4,0.4,0.4
2023-09-09T01:00:00,1286A,118.1608,24.8169,厦门市,溪东,,,,,,,,,,,,,,,,
2023-09-09T01:00:00,1287A,118.1514,24.4767,厦门市,洪文,,30,30,25,8,12,77,62,62,62,6,6,2,1,0.3,0.3
2023-09-09T01:00:00,1288A,118.0661,24.4444,厦门市,鼓浪屿,,31,31,23,14,11,68,52,52,52,10,10,5,2,0.5,0.4
2023-09-09T01:00:00,1290A,115.8931,28.6843,南昌市,省外办,细颗粒物(PM2.5),62,69,50,44,29,116,64,64,64,34,18,4,5,0.6,0.6
2023-09-09T01:00:00,1291A,115.8886,28.7003,南昌市,省林业公司,颗粒物(PM10),64,78,51,27,26,114,33,33,33,69,29,6,7,0.8,0.8
2023-09-09T01:00:00,1292A,115.8126,28.7442,南昌市,林科所,,31,31,33,17,17,128,99,99,99,16,14,6,7,0.3,0.4
2023-09-09T01:00:00,1294A,115.8518,28.687,南昌市,建工学校,,35,35,39,17,15,133,101,101,101,21,14,6,7,0.6,0.6
2023-09-09T01:00:00,1295A,115.8921,28.6424,南昌市,象湖,,30,29,29,21,22,129,83,83,83,29,14,7,7,0.5,0.5
2023-09-09T01:00:00,1296A,115.7423,28.7996,南昌市,武术学校,,29,19,18,20,18,121,11,11,11,6,7,9,8,0.2,0.2
2023-09-09T01:00:00,1298A,115.9314,28.6842,南昌市,省站,颗粒物(PM10),53,56,43,26,25,132,66,66,66,26,13,9,8,0.7,0.7
2023-09-09T01:00:00,1299A,116.9862,36.6114,济南市,科干所,细颗粒物(PM2.5),74,83,68,54,42,214,67,67,67,43,22,5,7,0.7,0.6
2023-09-09T01:00:00,1300A,116.9376,36.665,济南市,农科所,颗粒物(PM10),67,83,60,44,35,212,40,40,40,59,22,6,6,0.6,0.5
2023-09-09T01:00:00,1301A,117.1265,36.6734,济南市,开发区,颗粒物(PM10),66,81,68,46,37,225,61,61,61,59,31,8,7,0.8,0.7
2023-09-09T01:00:00,1303A,117.0624,36.6868,济南市,省种子仓库,"颗粒物(PM10),细颗粒物(PM2.5)",73,95,71,53,38,234,90,90,90,39,26,9,7,0.7,0.6
2023-09-09T01:00:00,1304A,116.9489,36.6447,济南市,机床二厂,颗粒物(PM10),94,137,75,49,37,209,56,56,56,66,29,6,7,0.7,0.6
2023-09-09T01:00:00,1305A,117.0495,36.663,济南市,市监测站,细颗粒物(PM2.5),77,90,68,56,40,230,67,67,67,63,37,7,6,0.8,0.7
2023-09-09T01:00:00,1306A,116.7675,36.5484,济南市,长清党校,颗粒物(PM10),66,81,68,46,42,207,83,83,83,37,26,4,4,0.6,0.6
2023-09-09T01:00:00,1307A,120.6659,36.2403,青岛市,仰口,,21,14,22,9,19,102,65,65,65,4,5,6,6,0.2,0.4
2023-09-09T01:00:00,1310A,120.4134,36.0658,青岛市,市南区东部子站,,35,27,25,12,18,118,110,110,110,2,5,5,5,0.4,0.4
2023-09-09T01:00:00,1311A,120.3664,36.1032,青岛市,四方区子站,,36,22,26,12,16,117,115,115,115,4,11,5,5,0.5,0.5
2023-09-09T01:00:00,1312A,120.2994,36.054,青岛市,市南区西部子站,,32,14,25,10,15,107,101,101,101,6,14,4,4,0.4,0.5
2023-09-09T01:00:00,1313A,120.4581,36.0858,青岛市,崂山区子站,,35,22,22,12,19,122,110,110,110,10,10,7,7,0.3,0.4
2023-09-09T01:00:00,1314A,120.1983,35.9608,青岛市,黄岛区子站,,32,22,21,7,16,125,102,102,102,8,9,5,5,0.5,0.5
2023-09-09T01:00:00,1315A,120.3999,36.3083,青岛市,城阳区子站,,34,34,42,15,18,152,84,84,84,15,25,5,5,0.5,0.6
2023-09-09T01:00:00,1316A,113.69031,34.76122,郑州市,烟厂,,38,38,47,24,20,170,85,85,85,26,23,2,4,0.5,0.5
2023-09-09T01:00:00,1317A,113.65724,34.77134,郑州市,郑纺机,颗粒物(PM10),51,52,47,20,20,176,88,88,88,26,21,2,3,0.6,0.6
2023-09-09T01:00:00,1318A,113.67526,34.80246,郑州市,银行学校,颗粒物(PM10),52,54,45,23,20,169,68,68,68,34,28,4,5,0.5,0.5
2023-09-09T01:00:00,1319A,113.56746,34.81334,郑州市,供水公司,颗粒物(PM10),56,61,56,21,24,179,72,72,72,39,34,4,4,0.5,0.5
2023-09-09T01:00:00,1320A,113.7329,34.7178,郑州市,经开区管委,颗粒物(PM10),63,76,53,32,23,167,31,31,31,65,30,4,5,0.7,0.6
2023-09-09T01:00:00,1321A,113.73961,34.77172,郑州市,四十七中,细颗粒物(PM2.5),54,55,46,38,21,156,71,71,71,26,26,3,5,0.6,0.5
2023-09-09T01:00:00,1322A,113.60532,34.74838,郑州市,市监测站,颗粒物(PM10),51,51,53,23,24,177,94,94,94,15,23,6,7,0.5,0.5
2023-09-09T01:00:00,1323A,113.64164,34.7525,郑州市,河医大,颗粒物(PM10),57,64,52,20,21,167,87,87,87,22,21,5,6,0.6,0.6
2023-09-09T01:00:00,1324A,113.51488,34.91089,郑州市,岗李水库,,,,,,,,,,,,,,,,
2023-09-09T01:00:00,1325A,114.3677,30.5584,武汉市,东湖梨园,,42,42,34,17,19,172,76,76,76,22,18,8,8,0.6,0.6
2023-09-09T01:00:00,1326A,114.2529,30.558,武汉市,汉阳月湖,,39,33,35,27,19,182,48,48,48,47,34,8,7,0.9,0.7
2023-09-09T01:00:00,1327A,114.282,30.6189,武汉市,汉口花桥,,39,37,40,27,24,195,96,96,96,15,21,6,7,0.6,0.7
2023-09-09T01:00:00,1328A,114.3025,30.5332,武汉市,武昌紫阳,,40,40,32,20,19,189,72,72,72,34,21,8,9,0.7,0.6
2023-09-09T01:00:00,1329A,114.3646,30.6217,武汉市,青山钢花,,42,38,38,29,27,175,68,68,68,34,26,9,10,0.7,0.7
2023-09-09T01:00:00,1330A,114.1566,30.4825,武汉市,沌口新区,细颗粒物(PM2.5),54,50,41,38,31,200,72,72,72,42,29,10,10,0.7,0.7
2023-09-09T01:00:00,1331A,114.3014,30.5944,武汉市,汉口江滩,,37,37,34,19,20,216,102,102,102,13,19,6,8,0.6,0.6
2023-09-09T01:00:00,1333A,114.135,30.6319,武汉市,吴家山,,39,24,36,27,21,223,97,97,97,16,20,8,9,0.6,0.7
2023-09-09T01:00:00,1334A,113.8454,30.2917,武汉市,沉湖七壕,,48,48,38,22,20,186,54,54,54,44,21,4,4,0.8,0.7
2023-09-09T01:00:00,1335A,113.0833,28.2325,长沙市,经开区环保局,,48,31,19,33,17,100,77,77,77,17,13,6,6,0.4,0.3
2023-09-09T01:00:00,1336A,112.8872,28.2189,长沙市,高开区环保局,,31,30,24,16,15,129,99,99,99,9,13,6,6,0.5,0.5
2023-09-09T01:00:00,1337A,113.0792,28.2053,长沙市,马坡岭,,35,34,28,24,15,115,88,88,88,12,14,5,7,0.8,0.7
2023-09-09T01:00:00,1338A,112.9394,28.19,长沙市,湖南师范大学,,35,25,26,24,19,121,84,84,84,7,12,4,4,0.7,0.6
2023-09-09T01:00:00,1339A,113.0178,28.1322,长沙市,雨花区环保局,,25,22,22,16,14,123,77,77,77,14,16,6,6,0.7,0.5
2023-09-09T01:00:00,1340A,112.9792,28.2597,长沙市,伍家岭,,30,18,32,21,16,120,32,32,32,17,18,3,3,0.5,0.5
2023-09-09T01:00:00,1341A,113.0014,28.1944,长沙市,火车新站,,27,25,24,17,15,114,86,86,86,12,18,5,5,0.7,0.7
2023-09-09T01:00:00,1342A,112.9844,28.1178,长沙市,天心区环保局,,27,25,21,13,15,127,84,84,84,12,17,3,4,0.5,0.5
2023-09-09T01:00:00,1343A,112.8908,28.1308,长沙市,湖南中医药大学,,33,33,34,18,17,133,91,91,91,7,16,2,2,0.8,0.8
2023-09-09T01:00:00,1344A,112.9581,28.3611,长沙市,沙坪,颗粒物(PM10),61,71,31,20,15,104,76,76,76,4,6,5,6,0.4,0.4
2023-09-09T01:00:00,1345A,113.2347,23.1423,广州市,广雅中学,,36,32,16,25,12,51,4,4,4,47,26,9,6,1.2,1
2023-09-09T01:00:00,1346A,113.2612,23.105,广州市,市五中,,46,35,17,32,16,59,3,3,3,45,22,8,6,0.8,0.7
2023-09-09T01:00:00,1348A,113.3478,23.0916,广州市,广东商学院,,40,40,18,28,14,52,5,5,5,40,26,4,3,0.6,0.5
2023-09-09T01:00:00,1349A,113.4332,23.1047,广州市,市八十六中,,50,42,18,35,15,52,6,6,6,34,24,6,5,0.8,0.7
2023-09-09T01:00:00,1350A,113.3505,22.9483,广州市,番禺中学,,,,13,,10,40,,45,,,27,,5,,0.8
2023-09-09T01:00:00,1351A,113.2146,23.3916,广州市,花都师范,,28,28,17,19,11,48,3,3,3,39,23,6,6,0.7,0.6
2023-09-09T01:00:00,1352A,113.2597,23.1331,广州市,市监测站,,35,28,19,24,14,50,3,3,3,48,31,8,7,0.8,0.6
2023-09-09T01:00:00,1353A,113.5618,23.312,广州市,九龙镇镇龙,,26,24,14,18,9,48,10,10,10,20,12,7,7,0.5,0.4
2023-09-09T01:00:00,1354A,113.2765,23.1544,广州市,麓湖,,35,34,15,24,10,45,2,2,2,40,26,6,5,1.0,0.8
2023-09-09T01:00:00,1355A,113.443,23.3035,广州市,帽峰山森林公园,,17,17,9,10,5,58,14,14,14,13,7,5,5,0.2,0.2
2023-09-09T01:00:00,1356A,114.1063,22.5545,深圳市,通心岭子站,,14,10,10,8,8,58,43,43,43,13,17,2,2,0.2,0.3
2023-09-09T01:00:00,1357A,114.117,22.5625,深圳市,洪湖,,,,15,,1,40,,40,,,22,,5,,0.5
2023-09-09T01:00:00,1358A,113.987,22.5417,深圳市,华侨城,,16,9,9,2,3,59,51,51,51,8,12,6,6,0.7,0.7
2023-09-09T01:00:00,1359A,113.9181,22.5171,深圳市,南海子站,,17,12,10,5,4,59,54,54,54,9,12,4,4,0.6,0.6
2023-09-09T01:00:00,1360A,114.2458,22.5689,深圳市,盐田,,17,11,14,3,5,54,54,54,54,15,36,4,4,0.5,0.5
2023-09-09T01:00:00,1361A,114.2283,22.7244,深圳市,龙岗,,15,11,16,5,11,70,45,45,45,8,15,8,8,0.8,0.8
2023-09-09T01:00:00,1363A,114.494,22.5422,深圳市,南澳,,19,19,9,1,2,72,28,28,28,7,9,4,5,0.7,0.6
2023-09-09T01:00:00,1364A,114.41,22.6342,深圳市,葵涌,,15,10,11,5,5,76,46,46,46,6,10,5,5,0.5,0.5
2023-09-09T01:00:00,1365A,114.297,22.5978,深圳市,梅沙,,13,13,17,3,5,70,36,36,36,20,8,5,5,0.6,0.6
2023-09-09T01:00:00,1366A,114.0678,22.738,深圳市,观澜,,23,23,16,14,12,67,27,27,27,23,20,6,6,0.7,0.7
2023-09-09T01:00:00,1367A,113.5814,22.2618,珠海市,吉大,,23,7,9,4,4,83,73,73,73,10,13,4,4,0.4,0.5
2023-09-09T01:00:00,1368A,113.4881,22.2335,珠海市,前山,,23,6,5,6,5,72,72,72,72,8,16,7,7,0.4,0.4
2023-09-09T01:00:00,1369A,113.628,22.4251,珠海市,唐家,,19,6,9,2,3,77,60,60,60,14,16,5,5,0.4,0.4
2023-09-09T01:00:00,1370A,113.299,22.2281,珠海市,斗门,,23,2,4,3,2,75,71,71,71,6,10,5,5,0.5,0.5
2023-09-09T01:00:00,1371A,113.1294,23.0067,佛山市,湾梁,,25,24,10,17,8,67,3,3,3,47,28,6,5,0.7,0.6
2023-09-09T01:00:00,1372A,113.1083,23.0478,佛山市,华材职中,,29,29,10,17,8,55,3,3,3,43,24,5,4,0.5,0.4
2023-09-09T01:00:00,1373A,113.144,23.0453,佛山市,南海气象局,,31,31,16,15,6,52,2,2,2,36,25,8,7,0.7,0.6
2023-09-09T01:00:00,1374A,113.2881,22.8094,佛山市,顺德苏岗,,32,23,10,22,8,70,0,0,0,45,28,6,6,0.8,0.6
2023-09-09T01:00:00,1376A,112.8383,22.8678,佛山市,高明孔堂,颗粒物(PM10),53,56,13,15,5,70,12,12,12,48,24,5,5,0.8,0.6
2023-09-09T01:00:00,1377A,112.8836,23.1588,佛山市,三水监测站,,39,34,15,27,9,68,2,2,2,45,29,2,3,0.7,0.7
2023-09-09T01:00:00,1378A,112.867,23.185,佛山市,三水云东海,,33,22,13,23,9,73,2,2,2,32,22,4,4,0.6,0.5
2023-09-09T01:00:00,1379A,113.3769,22.5211,中山市,华柏园,,15,15,9,8,6,77,37,37,37,12,16,4,4,0.4,0.5
2023-09-09T01:00:00,1380A,113.3881,22.5497,中山市,张溪,,14,14,11,4,7,83,41,41,41,17,17,4,4,0.4,0.4
2023-09-09T01:00:00,1381A,113.4075,22.5111,中山市,紫马岭,,16,16,8,6,4,80,46,46,46,8,11,5,5,0.3,0.3
2023-09-09T01:00:00,1382A,113.4411,22.4853,中山市,长江旅游区,,,,,,,,,,,,,,,,
2023-09-09T01:00:00,1383A,113.1064,22.6058,江门市,北街,,23,14,12,16,9,69,23,23,23,24,23,5,5,0.5,0.5
2023-09-09T01:00:00,1384A,113.0731,22.5835,江门市,西区,,14,5,10,7,5,71,30,30,30,28,23,5,5,0.7,0.7
2023-09-09T01:00:00,1385A,113.0219,22.5311,江门市,圭峰西,,19,19,11,5,5,69,44,44,44,15,18,4,4,0.5,0.6
2023-09-09T01:00:00,1386A,113.0828,22.5947,江门市,东湖,,23,23,13,12,5,70,20,20,20,19,18,6,6,0.7,0.6
2023-09-09T01:00:00,1389A,113.7547,23.0494,东莞市,莞城梨川,,48,47,23,33,17,59,8,8,8,38,20,6,5,0.9,0.7
2023-09-09T01:00:00,1390A,113.7944,23.0128,东莞市,东城石井,,42,42,24,25,14,56,2,2,2,31,20,3,2,1.0,0.8
2023-09-09T01:00:00,1391A,113.7383,22.9658,东莞市,南城西平,,33,33,21,22,17,50,10,10,10,30,23,6,5,0.6,0.6
2023-09-09T01:00:00,1392A,114.4183,23.0528,惠州市,河南岸金山湖子站,,42,37,23,29,18,49,20,20,20,17,14,5,5,0.6,0.5
2023-09-09T01:00:00,1393A,114.4053,23.0822,惠州市,下埔横江三路子站,,38,38,22,25,15,51,22,22,22,17,13,6,5,0.6,0.6
2023-09-09T01:00:00,1394A,114.4103,23.1142,惠州市,江北云山西路子站,,32,31,17,22,14,50,22,22,22,12,10,8,5,0.6,0.6
2023-09-09T01:00:00,1395A,114.4645,22.7833,惠州市,惠阳区承修路船湖子站,,12,11,17,7,11,40,37,37,37,14,13,4,4,0.7,0.8
2023-09-09T01:00:00,1396A,114.5317,22.7422,惠州市,大亚湾管委会子站,,14,14,19,8,11,66,42,42,42,21,22,5,6,0.6,0.6
2023-09-09T01:00:00,1397A,112.4267,23.0706,肇庆市,睦岗子站,,42,42,21,28,8,65,28,28,28,25,18,6,4,0.4,0.3
2023-09-09T01:00:00,1398A,112.4645,23.0475,肇庆市,城中子站,,36,32,14,25,8,64,26,26,26,30,23,10,9,0.5,0.5
2023-09-09T01:00:00,1399A,112.5544,23.1522,肇庆市,坑口子站,,34,34,15,20,8,65,19,19,19,35,22,8,4,0.4,0.3
2023-09-09T01:00:00,1400A,112.4753,23.1,肇庆市,七星岩子站,,,,,,,,,,,,,,,,
2023-09-09T01:00:00,1401A,108.3103,22.7881,南宁市,二十一中,,31,31,22,20,14,65,27,27,27,27,22,6,5,0.9,0.8
2023-09-09T01:00:00,1402A,108.3141,22.8528,南宁市,北湖,,43,36,26,30,15,59,22,22,22,24,16,6,5,0.7,0.7
2023-09-09T01:00:00,1403A,108.3206,22.8225,南宁市,市监测站,,43,16,23,30,16,58,30,30,30,27,28,8,8,0.8,0.7
2023-09-09T01:00:00,1404A,108.3829,22.8037,南宁市,大自然花园,,26,24,21,18,15,53,29,29,29,25,21,9,6,0.7,0.6
2023-09-09T01:00:00,1405A,108.4394,22.7904,南宁市,仙葫,,24,24,18,10,10,56,4,4,4,39,22,6,7,0.7,0.6
2023-09-09T01:00:00,1406A,108.2397,22.8467,南宁市,区农职院,,44,44,26,16,12,60,16,16,16,30,18,9,9,1.0,0.7
2023-09-09T01:00:00,1407A,108.3275,22.735,南宁市,英华嘉园,,40,40,23,16,13,49,4,4,4,43,26,6,6,0.8,0.6
2023-09-09T01:00:00,1408A,108.2257,22.7757,南宁市,沙井镇街道办,,37,37,25,14,15,64,4,4,4,30,24,6,5,0.7,0.7
2023-09-09T01:00:00,1409A,110.576,19.9507,海口市,东寨港,,,,,,,,,,,,,,,,
2023-09-09T01:00:00,1410A,110.3232,20.0574,海口市,海南大学,,14,14,20,7,9,96,41,41,41,18,16,6,6,0.4,0.4
2023-09-09T01:00:00,1411A,110.283,20.0053,海口市,秀英海南医院,,16,16,22,6,10,94,44,44,44,15,18,7,6,0.4,0.4
2023-09-09T01:00:00,1412A,110.338,19.9969,海口市,海南师范大学,,15,8,16,5,8,101,47,47,47,9,12,7,7,0.4,0.4
2023-09-09T01:00:00,1413A,110.33,20.0356,海口市,龙华路环保局宿舍,,13,11,18,6,9,95,41,41,41,14,13,7,7,0.3,0.3
2023-09-09T01:00:00,1414A,106.3787,29.8279,重庆市,缙云山,,31,31,23,10,12,166,57,57,57,22,15,14,13,0.4,0.3
2023-09-09T01:00:00,1416A,106.4213,29.8253,重庆市,天生,,38,37,38,26,21,163,36,36,36,43,31,8,6,0.7,0.7
2023-09-09T01:00:00,1417A,106.6263,29.7228,重庆市,两路,,28,18,19,19,16,164,54,54,54,28,37,6,6,0.5,0.6
2023-09-09T01:00:00,1418A,106.2953,29.5983,重庆市,虎溪,颗粒物(PM10),58,65,32,37,18,148,11,11,11,74,32,5,5,0.7,0.5
2023-09-09T01:00:00,1419A,106.5777,29.5102,重庆市,南坪,颗粒物(PM10),58,66,34,23,16,134,41,41,41,27,19,6,7,0.5,0.5
2023-09-09T01:00:00,1420A,106.6556,29.6277,重庆市,唐家沱,,37,37,33,16,15,163,23,23,23,48,32,7,7,0.5,0.5
2023-09-09T01:00:00,1421A,106.6349,29.4906,重庆市,茶园,颗粒物(PM10),99,148,58,22,15,133,17,17,17,67,42,5,5,0.8,0.7
2023-09-09T01:00:00,1422A,106.3754,29.4572,重庆市,白市驿,,38,28,24,26,19,146,56,56,56,21,14,10,8,0.6,0.6
2023-09-09T01:00:00,1425A,106.6205,29.7166,重庆市,空港,,26,26,22,10,11,173,56,56,56,27,24,6,6,0.6,0.6
2023-09-09T01:00:00,1426A,106.4782,29.4875,重庆市,新山村,,29,29,25,14,12,144,58,58,58,20,24,7,7,0.5,0.5
2023-09-09T01:00:00,1427A,106.5616,29.6453,重庆市,礼嘉,,42,42,26,18,12,157,38,38,38,36,32,10,10,0.6,0.7
2023-09-09T01:00:00,1428A,106.4522,29.7091,重庆市,蔡家,,48,48,47,30,23,165,40,40,40,39,29,7,7,0.9,0.8
2023-09-09T01:00:00,1429A,106.5093,29.3917,重庆市,鱼新街,,39,39,22,15,11,127,35,35,35,30,24,5,5,0.7,0.7
2023-09-09T01:00:00,1431A,103.9728,30.7236,成都市,金泉两河,,40,16,41,4,24,166,127,127,127,8,19,2,3,0.4,0.5
2023-09-09T01:00:00,1432A,104.176,30.6872,成都市,十里店,颗粒物(PM10),53,56,47,34,27,206,44,44,44,30,21,6,5,0.7,0.6
2023-09-09T01:00:00,1433A,104.079,30.5706,成都市,三瓦窑,,48,45,54,33,29,207,76,76,76,23,40,3,3,0.6,0.7
2023-09-09T01:00:00,1434A,104.1114,30.63,成都市,沙河铺,颗粒物(PM10),54,57,51,28,32,205,51,51,51,31,23,5,4,0.7,0.6
2023-09-09T01:00:00,1437A,104.0786,30.6531,成都市,君平街,,36,27,48,25,30,214,107,107,107,16,21,4,5,0.5,0.6
2023-09-09T01:00:00,1438A,103.613,31.0283,成都市,灵岩寺,,26,23,22,18,17,121,80,80,80,5,4,17,15,0.8,0.8
2023-09-09T01:00:00,1439A,106.6899,26.5998,贵阳市,马鞍山,,29,29,20,12,9,93,17,17,17,17,10,4,4,0.6,0.5
2023-09-09T01:00:00,1440A,106.6971,26.5694,贵阳市,市环保站,,24,24,20,16,19,99,51,51,51,16,13,4,4,0.3,0.2
2023-09-09T01:00:00,1441A,106.6243,26.6266,贵阳市,鉴湖路,,22,22,22,7,12,89,58,58,58,10,9,3,3,0.4,0.4
2023-09-09T01:00:00,1442A,106.7487,26.6343,贵阳市,燕子冲,,20,19,17,14,14,84,48,48,48,6,6,5,5,0.6,0.6
2023-09-09T01:00:00,1443A,106.6555,26.4365,贵阳市,碧云窝,,29,29,31,12,16,96,50,50,50,15,13,5,4,0.2,0.3
2023-09-09T01:00:00,1444A,106.694,26.5161,贵阳市,中院村,,19,19,28,12,15,80,42,42,42,19,14,9,6,0.2,0.3
2023-09-09T01:00:00,1445A,106.7109,26.6027,贵阳市,红边门,,35,24,26,24,23,90,52,52,52,11,11,4,5,0.6,0.5
2023-09-09T01:00:00,1446A,106.7164,26.5699,贵阳市,新华路,,32,24,22,22,17,91,47,47,47,19,9,6,5,0.4,0.3
2023-09-09T01:00:00,1447A,106.674,26.5424,贵阳市,太慈桥,,22,22,18,9,12,86,13,13,13,39,13,5,3,0.4,0.4
2023-09-09T01:00:00,1450A,102.8204,24.8886,昆明市,呈贡新区,,30,30,45,16,29,161,42,42,42,24,28,7,8,0.7,0.8
2023-09-09T01:00:00,1451A,102.6251,24.9608,昆明市,西山森林公园,,25,20,24,5,21,176,78,78,78,6,11,8,7,0.5,0.7
2023-09-09T01:00:00,1452A,102.7252,25.0902,昆明市,龙泉镇,颗粒物(PM10),56,61,36,30,30,146,3,3,3,54,28,8,14,0.8,0.6
2023-09-09T01:00:00,1453A,102.7266,25.0375,昆明市,东风东路,,29,25,41,20,25,153,32,32,32,38,26,12,8,0.6,0.6
2023-09-09T01:00:00,1454A,102.6742,25.0669,昆明市,金鼎山,颗粒物(PM10),71,92,47,31,23,141,20,20,20,48,24,55,17,0.7,0.5
2023-09-09T01:00:00,1455A,102.6644,25.0401,昆明市,碧鸡广场,颗粒物(PM10),55,59,39,34,29,146,12,12,12,60,26,26,9,0.9,0.6
2023-09-09T01:00:00,1456A,91.1319,29.6514,拉萨市,八廓街,,30,9,19,6,9,99,93,93,93,14,16,6,7,0.4,0.4
2023-09-09T01:00:00,1457A,91.1221,29.6747,拉萨市,市环保局,,23,10,17,7,8,110,73,73,73,17,15,6,6,0.2,0.2
2023-09-09T01:00:00,1458A,91.0874,29.6475,拉萨市,区监测站,,25,10,17,6,8,103,80,80,80,14,15,8,8,0.3,0.3
2023-09-09T01:00:00,1459A,91.1774,29.6541,拉萨市,西藏大学,,29,7,14,7,6,105,90,90,90,6,8,10,10,0.3,0.4
2023-09-09T01:00:00,1460A,90.9798,29.6588,拉萨市,区辐射站,,26,9,19,5,8,100,81,81,81,15,14,9,10,0.1,0.1
2023-09-09T01:00:00,1461A,91.0834,29.6292,拉萨市,拉萨火车站,,28,8,25,5,7,102,87,87,87,6,14,6,6,0.2,0.2
2023-09-09T01:00:00,1462A,108.882,34.2749,西安市,高压开关厂,颗粒物(PM10),111,171,191,65,69,193,87,87,87,34,26,9,10,0.7,0.7
2023-09-09T01:00:00,1463A,108.993,34.2629,西安市,兴庆小区,,40,33,147,28,52,181,60,60,60,15,18,6,7,0.5,0.6
2023-09-09T01:00:00,1464A,109.06,34.2572,西安市,纺织城,,30,30,132,20,54,182,33,33,33,36,28,4,6,0.6,0.7
2023-09-09T01:00:00,1465A,108.9356,34.2173,西安市,小寨,颗粒物(PM10),59,68,153,26,58,183,35,35,35,37,24,6,7,0.7,0.6
2023-09-09T01:00:00,1466A,108.954,34.2713,西安市,市人民体育场,颗粒物(PM10),52,54,172,31,65,181,52,52,52,17,20,7,8,0.5,0.6
2023-09-09T01:00:00,1467A,108.8922,34.2322,西安市,高新西区,颗粒物(PM10),100,149,171,55,65,196,103,103,103,27,21,7,8,0.7,0.6
2023-09-09T01:00:00,1468A,108.935,34.3474,西安市,经开区,颗粒物(PM10),51,52,140,28,56,164,8,8,8,65,26,4,5,0.5,0.6
2023-09-09T01:00:00,1469A,108.906,34.1546,西安市,长安区,颗粒物(PM10),61,71,130,43,58,222,53,53,53,34,24,7,8,0.6,0.6
2023-09-09T01:00:00,1471A,109.2186,34.3731,西安市,临潼区,颗粒物(PM10),92,133,78,60,43,168,38,38,38,39,25,8,6,0.7,0.6
2023-09-09T01:00:00,1472A,108.869,34.378,西安市,草滩,颗粒物(PM10),71,92,123,28,34,177,31,31,31,70,37,11,12,0.6,0.5
2023-09-09T01:00:00,1473A,108.985,34.1978,西安市,曲江文化产业集团,,40,40,157,27,59,184,31,31,31,38,24,10,7,0.6,0.7
2023-09-09T01:00:00,1474A,109.051,34.3213,西安市,广运潭,细颗粒物(PM2.5),69,67,101,50,49,163,3,3,3,67,29,8,8,0.7,0.6
2023-09-09T01:00:00,1476A,103.631,36.1031,兰州市,兰炼宾馆,颗粒物(PM10),56,61,50,34,31,74,14,14,14,44,27,3,11,0.5,0.5
2023-09-09T01:00:00,1477A,104.1373,35.9454,兰州市,榆中兰大校区,,,,,,,,,,,,,,,,
2023-09-09T01:00:00,1478A,103.8412,36.0726,兰州市,生物制品所,,46,46,50,30,32,82,7,7,7,57,28,4,7,0.5,0.6
2023-09-09T01:00:00,1479A,103.831,36.0464,兰州市,铁路设计院,,48,48,44,33,33,64,13,13,13,61,40,8,11,0.6,0.6
2023-09-09T01:00:00,1483A,101.524,36.6867,西宁市,第五水厂,,,,,,,,,,,,,,,,
2023-09-09T01:00:00,1484A,105.9512,38.6016,银川市,贺兰山马莲口,,33,33,45,16,18,67,50,50,50,10,23,3,3,0.8,0.7
2023-09-09T01:00:00,1488A,106.2328,38.4975,银川市,贺兰山东路,细颗粒物(PM2.5),58,64,59,41,32,79,66,66,66,16,27,7,10,0.9,0.7
2023-09-09T01:00:00,1489A,106.1358,38.5036,银川市,学院路,颗粒物(PM10),63,76,61,38,36,77,46,46,46,16,21,5,8,0.9,0.7
2023-09-09T01:00:00,1490A,87.5801,43.8303,乌鲁木齐市,监测站,,39,39,57,9,16,172,70,70,70,25,42,8,7,0.5,0.6
2023-09-09T01:00:00,1491A,87.6046,43.768,乌鲁木齐市,收费所,颗粒物(PM10),51,51,61,16,25,191,69,69,69,30,45,7,5,0.3,0.5
2023-09-09T01:00:00,1492A,87.4754,43.9469,乌鲁木齐市,新疆农科院农场,颗粒物(PM10),55,59,105,12,26,135,50,50,50,29,45,5,5,0.6,0.8
2023-09-09T01:00:00,1493A,87.5525,43.8711,乌鲁木齐市,铁路局,颗粒物(PM10),53,55,66,21,20,183,64,64,64,29,43,7,6,0.5,0.6
2023-09-09T01:00:00,1494A,87.6432,43.831,乌鲁木齐市,三十一中学,,45,45,61,6,19,158,76,76,76,19,30,7,8,0.3,0.4
2023-09-09T01:00:00,1496A,87.7216,44.1747,乌鲁木齐市,米东区环保局,,48,48,68,19,23,155,64,64,64,15,29,12,11,0.3,0.5
2023-09-09T01:00:00,1508A,112.9433,27.8614,湘潭市,板塘,,48,48,36,19,19,123,46,46,46,28,20,6,6,0.5,0.5
2023-09-09T01:00:00,1511A,112.9118,27.8403,湘潭市,市监测站,,29,29,29,15,17,121,34,34,34,30,20,4,5,0.5,0.5
2023-09-09T01:00:00,1512A,112.8937,27.8728,湘潭市,江麓,,31,31,35,14,16,128,62,62,62,18,15,14,15,0.2,0.3
2023-09-09T01:00:00,1513A,112.9227,27.8159,湘潭市,岳塘,颗粒物(PM10),51,51,33,18,18,124,64,64,64,17,15,7,7,0.2,0.2
2023-09-09T01:00:00,1514A,112.9074,27.9119,湘潭市,科大,,29,29,37,19,16,129,72,72,72,13,16,4,5,0.4,0.4
2023-09-09T01:00:00,1515A,113.135,27.8244,株洲市,天台山庄,,42,42,30,8,18,111,62,62,62,18,18,6,6,0.6,0.4
2023-09-09T01:00:00,1518A,113.095,27.8867,株洲市,株冶医院,,39,39,33,18,18,107,54,54,54,14,13,4,4,0.5,0.5
2023-09-09T01:00:00,1519A,113.167,27.8667,株洲市,市四中,,43,43,36,19,20,108,53,53,53,15,11,9,9,0.5,0.5
2023-09-09T01:00:00,1520A,113.143,27.8381,株洲市,火车站,,45,45,34,21,20,109,55,55,55,16,10,6,6,0.6,0.6
2023-09-09T01:00:00,1524A,113.13,27.8528,株洲市,市监测站,,43,43,37,27,24,110,52,52,52,20,12,3,6,0.7,0.7
2023-09-09T01:00:00,1552A,106.805,26.3003,贵阳市,桐木岭,,,,,,,,,,,,,,,,
2023-09-09T01:00:00,1559A,113.251,27.8336,株洲市,大京风景区,,25,21,28,17,17,114,23,23,23,10,4,5,5,0.4,0.4
2023-09-09T01:00:00,1562A,113.0048,27.9153,湘潭市,昭山,,34,34,37,16,16,114,63,63,63,18,22,5,5,0.5,0.4
2023-09-09T01:00:00,1564A,112.4876,27.9164,湘潭市,韶山,,30,30,33,12,9,121,43,43,43,9,10,7,7,0.4,0.4
2023-09-09T01:00:00,1585A,109.8756,40.6532,包头市,市环境监测站,,40,40,34,21,23,71,28,28,28,43,32,11,8,0.9,0.9
2023-09-09T01:00:00,1587A,109.9991,40.5842,包头市,包头八中,,42,42,44,23,31,81,23,23,23,52,35,10,13,0.8,0.9
2023-09-09T01:00:00,1588A,109.8538,40.6821,包头市,青山宾馆,,45,45,35,22,27,87,5,5,5,41,27,7,8,1.0,1
2023-09-09T01:00:00,1589A,109.8642,40.6288,包头市,惠龙物流,,34,34,43,16,25,81,47,47,47,42,30,19,11,1.0,1
2023-09-09T01:00:00,1590A,110.0377,40.5546,包头市,东河鸿龙湾,,30,30,31,13,22,82,16,16,16,44,26,9,11,0.7,0.7
2023-09-09T01:00:00,1591A,110.0023,39.8129,鄂尔多斯市,综合楼,,24,17,24,7,12,97,74,74,74,15,23,70,22,0.6,0.6
2023-09-09T01:00:00,1592A,109.9486,39.8261,鄂尔多斯市,巴音孟克林场办事处,,25,12,24,12,15,106,77,77,77,15,20,24,9,0.5,0.5
2023-09-09T01:00:00,1593A,109.7736,39.5986,鄂尔多斯市,康泽苑,,23,14,28,7,19,89,71,71,71,10,16,4,4,0.4,0.5
2023-09-09T01:00:00,1594A,109.8119,39.5989,鄂尔多斯市,华泰汽车城,,19,9,28,7,20,87,58,58,58,14,16,6,6,0.5,0.5
2023-09-09T01:00:00,1595A,109.9734,39.7884,鄂尔多斯市,奥林花园,,26,17,31,9,16,98,82,82,82,9,18,24,10,0.6,0.7
2023-09-09T01:00:00,1597A,122.2703,40.7094,营口市,大庆路,细颗粒物(PM2.5),102,61,42,76,38,146,50,50,50,20,15,4,5,1.2,0.8
2023-09-09T01:00:00,1598A,122.2150,40.6511,营口市,镜湖西路,,50,44,39,35,27,144,92,92,92,10,14,5,7,0.6,0.6
2023-09-09T01:00:00,1599A,122.1658,40.6789,营口市,西炮台,细颗粒物(PM2.5),62,49,41,44,23,143,56,56,56,17,6,5,5,0.8,0.7
2023-09-09T01:00:00,1600A,124.3303,40.0625,丹东市,江湾东路,颗粒物(PM10),52,54,54,28,27,121,30,30,30,8,12,7,9,0.8,0.8
2023-09-09T01:00:00,1601A,124.4256,40.1503,丹东市,临江后街,,48,48,37,24,19,126,34,34,34,13,10,6,7,0.7,0.6
2023-09-09T01:00:00,1602A,124.3933,40.1461,丹东市,元宝山,细颗粒物(PM2.5),69,49,48,50,47,80,22,22,22,16,13,8,8,1.0,0.7
2023-09-09T01:00:00,1603A,124.3633,40.1092,丹东市,民主桥,,40,40,40,23,22,119,32,32,32,22,11,6,5,0.9,0.8
2023-09-09T01:00:00,1604A,122.0303,41.1489,盘锦市,开发区,颗粒物(PM10),69,88,50,33,31,130,60,60,60,22,19,3,4,0.7,0.8
2023-09-09T01:00:00,1605A,122.0485,41.0883,盘锦市,兴隆台,颗粒物(PM10),76,101,48,46,32,134,47,47,47,24,17,6,5,0.7,0.7
2023-09-09T01:00:00,1606A,121.8297,41.1028,盘锦市,新生街道,颗粒物(PM10),61,71,46,32,26,139,27,27,27,28,18,7,7,0.5,0.6
2023-09-09T01:00:00,1607A,120.9092,40.7136,葫芦岛市,龙港区,颗粒物(PM10),68,85,54,36,27,143,18,18,18,40,22,20,23,0.7,0.5
2023-09-09T01:00:00,1608A,120.8392,40.7514,葫芦岛市,化工街,颗粒物(PM10),60,70,53,29,26,132,21,21,21,30,23,12,10,0.6,0.6
2023-09-09T01:00:00,1609A,120.8341,40.7073,葫芦岛市,新区,颗粒物(PM10),71,91,49,43,29,125,21,21,21,18,11,9,6,1.2,1
2023-09-09T01:00:00,1610A,120.8695,40.7677,葫芦岛市,东城区,颗粒物(PM10),68,86,51,40,30,139,24,24,24,43,31,15,12,0.8,0.7
2023-09-09T01:00:00,1611A,118.5819,24.9117,泉州市,涂山街,,28,24,22,10,7,89,89,89,89,6,8,4,4,0.5,0.4
2023-09-09T01:00:00,1612A,118.5972,24.8978,泉州市,津头埔,,26,22,21,13,11,87,82,82,82,12,13,4,4,0.6,0.5
2023-09-09T01:00:00,1613A,118.6663,24.9424,泉州市,万安,,28,25,24,11,10,89,89,89,89,8,11,2,2,0.5,0.5
2023-09-09T01:00:00,1614A,118.6117,24.9604,泉州市,清源山,,,,,,,,,,,,,,,,
2023-09-09T01:00:00,1616A,117.6795,36.229,济南市,技术学院,"颗粒物(PM10),细颗粒物(PM2.5)",65,80,82,47,42,253,131,131,131,20,27,8,12,1.2,1.1
2023-09-09T01:00:00,1618A,118.3429,35.0532,临沂市,沂河小区,颗粒物(PM10),53,56,67,30,36,303,80,80,80,18,18,6,10,0.5,0.5
2023-09-09T01:00:00,1619A,118.295,35.0583,临沂市,鲁南制药厂,,46,46,62,24,33,210,80,80,80,11,12,5,11,0.5,0.5
2023-09-09T01:00:00,1620A,118.2794,34.9976,临沂市,新光毛纺厂,,46,46,58,28,35,191,57,57,57,21,19,8,16,0.7,0.8
2023-09-09T01:00:00,1621A,118.3956,35.0888,临沂市,河东保险公司,,40,36,53,28,37,192,77,77,77,15,15,3,6,0.5,0.6
2023-09-09T01:00:00,1622A,116.3032,37.4674,德州市,儿童乐园,细颗粒物(PM2.5),67,80,73,48,41,200,150,150,150,8,13,15,11,0.9,0.9
2023-09-09T01:00:00,1624A,116.2991,37.4451,德州市,监理站,颗粒物(PM10),66,81,74,46,43,201,125,125,125,15,17,15,12,0.7,0.7
2023-09-09T01:00:00,1625A,115.9848,36.4372,聊城市,区政府,细颗粒物(PM2.5),64,66,68,46,42,203,88,88,88,34,19,14,9,0.6,0.5
2023-09-09T01:00:00,1628A,118.0062,37.3803,滨州市,市环保局,,44,44,75,27,37,264,68,68,68,24,37,25,18,0.4,0.7
2023-09-09T01:00:00,1629A,118.0018,37.3617,滨州市,第二水厂,,48,36,73,33,36,273,63,63,63,25,38,14,11,0.6,0.8
2023-09-09T01:00:00,1630A,117.9776,37.393,滨州市,北中新校,,41,41,71,22,35,258,70,70,70,26,39,16,14,0.6,0.7
2023-09-09T01:00:00,1631A,118.0414,36.8103,淄博市,人民公园,颗粒物(PM10),73,95,80,44,35,240,81,81,81,37,36,15,13,1.1,0.8
2023-09-09T01:00:00,1633A,117.8525,36.4847,淄博市,双山,颗粒物(PM10),52,53,71,29,38,263,104,104,104,24,22,4,7,0.4,0.6
2023-09-09T01:00:00,1634A,117.9592,36.6331,淄博市,气象站,颗粒物(PM10),56,62,72,39,40,265,88,88,88,23,19,11,12,0.4,0.6
2023-09-09T01:00:00,1635A,118.3092,36.8194,淄博市,莆田园,颗粒物(PM10),54,58,83,29,38,267,77,77,77,27,37,6,17,0.6,1.6
2023-09-09T01:00:00,1637A,117.558,34.8438,枣庄市,市中区政府,细颗粒物(PM2.5),77,100,93,56,56,189,74,74,74,35,32,9,17,0.5,0.6
2023-09-09T01:00:00,1638A,117.2852,34.7837,枣庄市,薛城环保局,细颗粒物(PM2.5),69,81,76,50,46,189,115,115,115,26,26,7,8,0.6,0.7
2023-09-09T01:00:00,1639A,117.5852,34.7745,枣庄市,峄城区政府,细颗粒物(PM2.5),64,70,80,46,48,189,104,104,104,19,21,8,9,0.7,0.7
2023-09-09T01:00:00,1640A,117.7276,34.5578,枣庄市,台儿庄区环保局,细颗粒物(PM2.5),55,58,72,39,48,177,73,73,73,22,26,11,9,0.7,0.8
2023-09-09T01:00:00,1641A,117.4518,35.0992,枣庄市,山亭区环保局,细颗粒物(PM2.5),74,80,66,54,42,211,121,121,121,18,18,12,11,0.6,0.6
2023-09-09T01:00:00,1642A,121.2514,37.5639,烟台市,开发区,,27,22,30,14,17,196,84,84,84,10,16,2,3,0.7,0.7
2023-09-09T01:00:00,1643A,121.3719,37.5433,烟台市,轴承厂,,32,22,28,15,21,164,100,100,100,5,9,7,7,0.3,0.4
2023-09-09T01:00:00,1644A,121.3181,37.5436,烟台市,西郊化工站,,33,17,29,13,21,160,104,104,104,6,15,3,2,0.5,0.6
2023-09-09T01:00:00,1645A,121.4478,37.4822,烟台市,莱山环保局,,26,19,24,11,17,170,81,81,81,6,7,5,5,0.5,0.5
2023-09-09T01:00:00,1646A,121.2611,37.4967,烟台市,福山环保局,,,36,37,7,11,142,,,,29,26,6,9,0.7,0.7
2023-09-09T01:00:00,1650A,119.1437,36.7023,潍坊市,环保局,,31,31,49,20,33,170,65,65,65,20,15,8,8,0.7,0.7
2023-09-09T01:00:00,1653A,116.6251,35.4302,济宁市,火炬城,颗粒物(PM10),60,69,57,22,23,197,98,98,98,27,16,8,9,0.6,0.6
2023-09-09T01:00:00,1655A,116.5491,35.4042,济宁市,电化厂,颗粒物(PM10),58,65,65,29,28,184,97,97,97,24,17,10,11,0.7,0.6
2023-09-09T01:00:00,1656A,117.1437,36.1937,泰安市,监测站,细颗粒物(PM2.5),67,80,70,48,41,216,76,76,76,45,20,10,10,0.6,0.6
2023-09-09T01:00:00,1657A,117.0885,36.2017,泰安市,人口学校,颗粒物(PM10),60,70,56,37,34,213,123,123,123,27,16,8,9,0.6,0.6
2023-09-09T01:00:00,1658A,117.1089,36.1758,泰安市,电力学校,颗粒物(PM10),67,83,73,46,40,212,71,71,71,39,19,9,10,0.5,0.5
2023-09-09T01:00:00,1659A,119.471,35.4209,日照市,监测站,,40,27,31,16,23,145,4,4,4,79,43,9,6,0.8,0.7
2023-09-09T01:00:00,1660A,119.523,35.4216,日照市,市政府广场,,29,29,30,20,20,136,65,65,65,26,20,4,4,0.6,0.6
2023-09-09T01:00:00,1661A,119.5587,35.4044,日照市,港务局,,31,29,27,19,20,141,97,97,97,13,12,7,7,0.5,0.5
2023-09-09T01:00:00,1662A,122.1214,37.4236,威海市,华夏技校,,40,12,23,10,16,144,128,128,128,7,15,5,5,0.3,0.4
2023-09-09T01:00:00,1663A,122.0508,37.5236,威海市,山大分校,,36,22,26,20,17,147,115,115,115,8,11,9,8,0.4,0.5
2023-09-09T01:00:00,1664A,122.1067,37.5072,威海市,市监测站,,26,17,27,12,17,146,83,83,83,11,15,5,6,0.5,0.5
2023-09-09T01:00:00,1666A,118.6614,37.4309,东营市,市环保局,,41,41,51,17,30,218,79,79,79,16,15,18,14,0.6,0.6
2023-09-09T01:00:00,1669A,113.5824,24.7733,韶关市,市八中,,45,45,27,12,10,63,22,22,22,29,11,11,11,0.6,0.6
2023-09-09T01:00:00,1671A,113.5917,24.7972,韶关市,园林处,,25,25,20,16,11,67,9,9,9,22,8,17,12,0.6,0.6
2023-09-09T01:00:00,1672A,113.6735,24.7791,韶关市,韶关学院,,37,37,21,13,11,58,4,4,4,13,9,5,7,0.4,0.4
2023-09-09T01:00:00,1673A,113.5971,24.6863,韶关市,曲江监测站,,35,35,26,12,10,66,8,8,8,16,10,8,8,0.6,0.6
2023-09-09T01:00:00,1674A,116.6794,23.3667,汕头市,金平子站,,26,26,21,8,12,66,51,51,51,17,21,5,5,0.7,0.8
2023-09-09T01:00:00,1675A,116.7244,23.3633,汕头市,龙湖子站,,21,13,16,4,8,89,66,66,66,10,16,5,6,0.6,0.8
2023-09-09T01:00:00,1676A,116.7258,23.2775,汕头市,濠江子站,,24,10,14,6,9,76,75,75,75,5,10,7,7,0.3,0.5
2023-09-09T01:00:00,1677A,116.7519,23.4714,汕头市,澄海子站,,18,12,23,10,14,113,55,55,55,14,22,6,7,0.1,0.3
2023-09-09T01:00:00,1678A,116.6092,23.2539,汕头市,潮阳子站,,20,15,13,3,4,74,64,64,64,6,9,7,7,0.3,0.4
2023-09-09T01:00:00,1680A,110.3539,21.2706,湛江市,湛江影剧院,,23,22,31,16,16,81,58,58,58,12,16,6,23,0.6,0.7
2023-09-09T01:00:00,1681A,110.3928,21.2228,湛江市,市环境监测站,,38,19,29,26,21,74,53,53,53,14,20,8,12,0.6,0.6
2023-09-09T01:00:00,1682A,110.4019,21.1997,湛江市,环保局宿舍,,43,32,33,30,23,80,31,31,31,19,20,8,14,0.6,0.6
2023-09-09T01:00:00,1683A,110.4111,21.2028,湛江市,霞山游泳场,,36,36,28,21,17,74,37,37,37,18,17,8,11,0.6,0.6
2023-09-09T01:00:00,1684A,110.3316,21.2679,湛江市,麻章区环保局,,28,15,32,19,21,86,54,54,54,14,19,6,14,0.7,0.7
2023-09-09T01:00:00,1685A,110.4558,21.2567,湛江市,坡头区环保局,,23,21,23,13,18,74,71,71,71,8,14,5,14,0.5,0.5
2023-09-09T01:00:00,1686A,111.0286,21.4688,茂名市,电白南海,,22,12,21,7,15,89,68,68,68,7,10,8,10,0.6,0.6
2023-09-09T01:00:00,1687A,110.9294,21.6533,茂名市,茂石化七小,,,2,17,14,12,68,,,,,12,,11,,0.7
2023-09-09T01:00:00,1688A,110.9107,21.6687,茂名市,健康路,,18,9,14,2,6,76,55,55,55,8,11,4,9,0.6,0.7
2023-09-09T01:00:00,1689A,110.8592,21.6828,茂名市,高岭,,17,17,21,9,13,55,36,36,36,19,16,5,7,0.8,0.7
2023-09-09T01:00:00,1690A,116.1231,24.3284,梅州市,梅江月梅,,36,36,19,9,8,66,14,14,14,12,10,2,2,0.8,0.6
2023-09-09T01:00:00,1691A,116.0797,24.2719,梅州市,梅县新城,,20,20,20,10,8,67,18,18,18,15,11,6,6,0.7,0.6
2023-09-09T01:00:00,1692A,116.1248,24.2654,梅州市,环境监控中心,,32,32,20,13,11,66,15,15,15,21,11,7,7,0.6,0.5
2023-09-09T01:00:00,1693A,115.3653,22.775,汕尾市,市环保局,,15,6,17,10,11,70,40,40,40,5,5,7,8,0.6,0.5
2023-09-09T01:00:00,1694A,115.3706,22.7898,汕尾市,市政府,,18,18,18,12,8,71,30,30,30,8,7,6,7,0.5,0.5
2023-09-09T01:00:00,1695A,115.3622,22.7925,汕尾市,新城中学,,20,20,19,11,11,64,19,19,19,10,7,8,7,0.6,0.5
2023-09-09T01:00:00,1696A,114.6778,23.7569,河源市,源西,,22,22,22,13,14,48,2,2,2,26,22,4,4,0.7,0.7
2023-09-09T01:00:00,1697A,114.6944,23.7586,河源市,东埔,,37,37,30,21,16,46,3,3,3,24,15,5,5,0.7,0.8
2023-09-09T01:00:00,1698A,114.6892,23.7233,河源市,老城,,25,25,24,8,7,50,12,12,12,19,16,4,4,0.6,0.7
2023-09-09T01:00:00,1699A,111.9797,21.8593,阳江市,鸳鸯湖,,19,2,8,4,9,76,60,60,60,5,9,4,5,0.6,0.7
2023-09-09T01:00:00,1701A,111.9491,21.8658,阳江市,马南垌,,20,8,12,3,8,77,64,64,64,3,10,4,5,0.3,0.5
2023-09-09T01:00:00,1702A,113.0426,23.691,清远市,环保大楼,,28,28,16,17,8,60,6,6,6,33,13,6,6,0.8,0.6
2023-09-09T01:00:00,1703A,113.0208,23.7106,清远市,凤城街办,,36,36,19,20,10,54,2,2,2,36,14,6,5,0.6,0.6
2023-09-09T01:00:00,1705A,116.6367,23.6719,潮州市,西园路,,19,15,25,13,15,53,37,37,37,8,13,3,4,0.4,0.5
2023-09-09T01:00:00,1706A,116.6447,23.6706,潮州市,档案局,,20,20,20,9,10,63,38,38,38,10,12,6,6,0.6,0.6
2023-09-09T01:00:00,1708A,116.3701,23.5345,揭阳市,新兴,,28,28,28,17,18,62,17,17,17,22,19,9,10,0.9,0.9
2023-09-09T01:00:00,1709A,116.3264,23.5443,揭阳市,西马,,20,10,28,14,15,63,21,21,21,14,19,7,8,0.8,0.9
2023-09-09T01:00:00,1710A,116.3611,23.5626,揭阳市,东兴,,30,30,32,16,15,61,7,7,7,35,25,6,7,1.0,1
2023-09-09T01:00:00,1711A,116.4151,23.5294,揭阳市,渔湖,,32,32,29,11,13,70,5,5,5,38,22,6,7,0.9,0.8
2023-09-09T01:00:00,1712A,112.0392,22.9169,云浮市,新市府,,23,23,9,6,5,59,25,25,25,26,13,5,5,0.9,0.8
2023-09-09T01:00:00,1714A,112.0539,22.9539,云浮市,牧羊,,28,28,9,9,4,61,30,30,30,25,17,5,5,0.4,0.4
2023-09-09T01:00:00,1715A,102.575,24.3711,玉溪市,东风水库,,20,11,26,14,18,102,25,25,25,17,13,7,8,0.8,0.9
2023-09-09T01:00:00,1718A,115.4208,35.2464,菏泽市,气象局,,48,48,54,30,30,185,130,130,130,18,17,5,7,0.5,0.5
2023-09-09T01:00:00,1719A,115.4747,35.2375,菏泽市,市政协,颗粒物(PM10),53,55,53,36,35,187,126,126,126,15,13,6,8,0.5,0.5
2023-09-09T01:00:00,1721A,113.3819,40.1097,大同市,果树场,,,,,,,,,,,,,,,,
2023-09-09T01:00:00,1723A,113.2994,40.0758,大同市,云冈宾馆,,30,21,31,21,24,106,58,58,58,19,19,8,8,0.7,0.7
2023-09-09T01:00:00,1724A,113.3444,40.0917,大同市,大同大学,,25,20,25,13,21,106,77,77,77,16,19,10,8,0.6,0.5
2023-09-09T01:00:00,1725A,113.2661,40.1269,大同市,安家小村,,25,25,25,15,16,92,73,73,73,10,12,11,10,0.6,0.5
2023-09-09T01:00:00,1726A,113.2711,40.0844,大同市,教育学院,,28,27,31,19,22,102,56,56,56,21,24,6,5,0.7,0.7
2023-09-09T01:00:00,1727A,113.1147,36.1547,长治市,清华站,,35,34,43,22,26,179,110,110,110,16,13,9,9,0.5,0.6
2023-09-09T01:00:00,1728A,113.1031,36.1989,长治市,监测站,,39,33,46,17,30,203,123,123,123,16,19,6,6,0.6,0.8
2023-09-09T01:00:00,1730A,113.0886,36.2125,长治市,审计局,,39,30,43,19,32,188,123,123,123,8,15,8,8,0.4,0.6
2023-09-09T01:00:00,1731A,113.0844,36.1856,长治市,长治八中,,37,36,53,16,26,187,117,117,117,14,15,10,10,0.5,0.6
2023-09-09T01:00:00,1733A,111.5531,36.0783,临汾市,临钢医院,颗粒物(PM10),60,70,79,36,34,201,102,102,102,16,23,9,10,1.0,1.1
2023-09-09T01:00:00,1734A,111.5028,36.0714,临汾市,技工学校,颗粒物(PM10),65,79,86,46,48,199,110,110,110,22,23,23,13,0.9,0.8
2023-09-09T01:00:00,1736A,111.5018,36.0855,临汾市,市委,"颗粒物(PM10),细颗粒物(PM2.5)",64,78,84,46,42,173,99,99,99,22,24,21,14,1.0,0.9
2023-09-09T01:00:00,1738A,113.5758,37.8572,阳泉市,市中心,细颗粒物(PM2.5),107,103,94,80,59,139,101,101,101,16,43,14,42,1.3,1.8
2023-09-09T01:00:00,1739A,113.4894,37.8731,阳泉市,赛鱼,细颗粒物(PM2.5),109,99,73,82,52,133,101,101,101,15,39,9,14,1.2,1.3
2023-09-09T01:00:00,1740A,113.5819,37.8486,阳泉市,南庄,颗粒物(PM10),91,132,124,64,60,141,106,106,106,14,41,6,31,1.3,1.8
2023-09-09T01:00:00,1742A,113.5614,37.8703,阳泉市,平坦,细颗粒物(PM2.5),105,106,108,79,70,142,105,105,105,15,40,10,27,1.1,1.4
2023-09-09T01:00:00,1743A,113.5158,37.8392,阳泉市,大阳泉,细颗粒物(PM2.5),72,90,87,52,63,186,88,88,88,16,23,6,11,1.2,1.3
2023-09-09T01:00:00,1744A,118.9233,42.2816,赤峰市,松山一中,,43,43,37,12,16,128,40,40,40,35,25,69,17,0.9,0.6
2023-09-09T01:00:00,1745A,118.9576,42.2728,赤峰市,哈达街,颗粒物(PM10),56,62,37,25,20,139,20,20,20,57,20,137,24,0.7,0.5
2023-09-09T01:00:00,1746A,118.8788,42.2554,赤峰市,天义路,,25,25,32,11,20,136,55,55,55,30,17,29,12,0.4,0.4
2023-09-09T01:00:00,1748A,123.044,41.1196,鞍山市,深沟寺,细颗粒物(PM2.5),72,71,37,52,25,137,40,40,40,27,16,5,5,1.2,0.7
2023-09-09T01:00:00,1749A,123.011,41.0931,鞍山市,太阳城,颗粒物(PM10),65,80,44,44,23,137,47,47,47,28,16,7,7,1.2,0.8
2023-09-09T01:00:00,1750A,123.0485,41.1442,鞍山市,太平,颗粒物(PM10),115,179,64,72,30,136,47,47,47,25,21,11,9,1.4,0.8
2023-09-09T01:00:00,1751A,122.9642,41.0971,鞍山市,铁西三道街,颗粒物(PM10),85,120,66,59,30,126,34,34,34,39,25,10,8,1.5,1.1
2023-09-09T01:00:00,1752A,122.9341,41.0833,鞍山市,铁西工业园区,细颗粒物(PM2.5),75,92,51,55,28,126,28,28,28,38,20,10,8,1.8,0.9
2023-09-09T01:00:00,1753A,123.022,41.0821,鞍山市,明达新区,颗粒物(PM10),57,63,42,35,24,130,58,58,58,21,17,6,5,0.9,0.7
2023-09-09T01:00:00,1754A,123.1289,41.0228,鞍山市,千山,,,,,,,,,,,,,,,,
2023-09-09T01:00:00,1755A,123.7977,41.8491,抚顺市,望花区,"颗粒物(PM10),细颗粒物(PM2.5)",62,74,54,44,32,131,13,13,13,31,24,4,16,0.7,0.7
2023-09-09T01:00:00,1756A,123.9161,41.8822,抚顺市,顺城区,,50,50,55,32,33,124,20,20,20,35,35,7,9,1.0,0.8
2023-09-09T01:00:00,1757A,124.0436,41.8611,抚顺市,东洲区,,48,48,48,30,28,131,25,25,25,26,20,5,8,0.9,0.8
2023-09-09T01:00:00,1758A,123.9247,41.8642,抚顺市,新抚区,细颗粒物(PM2.5),55,51,55,39,32,118,11,11,11,27,31,5,8,1.0,0.8
2023-09-09T01:00:00,1759A,124.0972,41.8961,抚顺市,大伙房水库,,48,41,39,33,21,127,23,23,23,28,13,6,8,1.0,0.7
2023-09-09T01:00:00,1760A,123.7086,41.8391,抚顺市,沈抚新城,细颗粒物(PM2.5),58,49,46,41,33,122,22,22,22,17,21,5,9,0.8,0.9
2023-09-09T01:00:00,1761A,123.8275,41.3064,本溪市,大峪,颗粒物(PM10),58,66,51,26,20,126,40,40,40,22,21,5,6,1.4,0.8
2023-09-09T01:00:00,1762A,123.7567,41.3325,本溪市,溪湖,颗粒物(PM10),70,89,60,38,28,153,16,16,16,33,30,8,12,1.1,1.4
2023-09-09T01:00:00,1763A,123.7169,41.3094,本溪市,彩屯,颗粒物(PM10),54,57,54,35,28,148,14,14,14,35,25,6,7,1.2,1.1
2023-09-09T01:00:00,1764A,123.7669,41.2864,本溪市,东明,颗粒物(PM10),60,70,50,35,23,150,38,38,38,36,28,7,9,1.4,1
2023-09-09T01:00:00,1765A,123.7992,41.2664,本溪市,新立屯,,42,42,34,20,12,118,52,52,52,34,20,8,8,1.0,0.7
2023-09-09T01:00:00,1766A,123.8142,41.3472,本溪市,威宁,颗粒物(PM10),52,53,52,33,28,119,9,9,9,32,24,6,6,1.1,0.8
2023-09-09T01:00:00,1767A,121.1115,41.0879,锦州市,南山,颗粒物(PM10),58,66,54,38,34,146,49,49,49,18,22,6,8,0.7,0.7
2023-09-09T01:00:00,1768A,121.0533,40.8434,锦州市,开发区,颗粒物(PM10),66,81,63,36,30,119,13,13,13,33,25,17,35,0.7,0.8
2023-09-09T01:00:00,1769A,121.1836,41.1119,锦州市,百股街道,颗粒物(PM10),61,71,50,31,31,149,51,51,51,15,19,12,8,0.8,0.8
2023-09-09T01:00:00,1770A,121.1178,41.1222,锦州市,天安街道,颗粒物(PM10),59,68,58,30,25,133,46,46,46,15,18,7,10,0.7,0.8
2023-09-09T01:00:00,1771A,121.1303,41.1386,锦州市,北湖公园,颗粒物(PM10),62,74,59,30,29,122,33,33,33,14,13,7,10,0.9,0.9
2023-09-09T01:00:00,1772A,126.54,43.8622,吉林市,哈达湾,,41,41,48,16,26,110,54,54,54,19,14,10,8,0.6,0.7
2023-09-09T01:00:00,1773A,126.5844,43.8358,吉林市,东局子,,45,45,49,25,25,110,51,51,51,14,21,7,7,0.7,0.8
2023-09-09T01:00:00,1774A,126.5052,43.8245,吉林市,电力学院,,48,48,62,24,24,108,51,51,51,17,15,13,11,0.8,0.7
2023-09-09T01:00:00,1775A,126.6133,43.8972,吉林市,江北,颗粒物(PM10),51,51,66,23,29,106,31,31,31,34,20,8,9,0.6,0.8
2023-09-09T01:00:00,1776A,126.555,43.8306,吉林市,江南公园,,45,45,43,24,28,111,51,51,51,20,15,8,7,0.6,0.7
2023-09-09T01:00:00,1778A,126.7061,43.7133,吉林市,丰满,,,,,,,,,,,,,,,,
2023-09-09T01:00:00,1779A,123.9305,47.3636,齐齐哈尔市,安居小区,颗粒物(PM10),62,73,33,14,17,110,4,4,4,39,16,6,5,0.8,0.4
2023-09-09T01:00:00,1780A,123.9488,47.3386,齐齐哈尔市,中心广场,,35,35,25,24,15,118,9,9,9,35,16,4,3,0.6,0.5
2023-09-09T01:00:00,1781A,123.9483,47.3227,齐齐哈尔市,农牧车辆厂,颗粒物(PM10),51,51,35,21,10,116,3,3,3,32,16,6,6,0.5,0.4
2023-09-09T01:00:00,1783A,123.945,47.2988,齐齐哈尔市,市环境监测站,,35,35,33,22,14,117,4,4,4,27,14,4,4,0.4,0.3
2023-09-09T01:00:00,1784A,129.61,44.561,牡丹江市,环保大楼,颗粒物(PM10),55,59,41,36,20,104,24,24,24,21,13,5,5,0.7,0.6
2023-09-09T01:00:00,1785A,129.6115,44.5782,牡丹江市,文化广场,颗粒物(PM10),63,75,46,39,22,101,30,30,30,19,16,6,6,0.7,0.5
2023-09-09T01:00:00,1786A,129.5904,44.5963,牡丹江市,第一医院,颗粒物(PM10),60,69,48,31,22,95,33,33,33,12,13,5,5,0.6,0.5
2023-09-09T01:00:00,1787A,129.6364,44.6075,牡丹江市,机车工厂,颗粒物(PM10),63,76,56,17,15,96,19,19,19,13,14,3,3,0.8,0.6
2023-09-09T01:00:00,1788A,129.6386,44.5462,牡丹江市,第一中学,颗粒物(PM10),53,56,43,23,16,106,13,13,13,20,14,5,5,0.7,0.5
2023-09-09T01:00:00,1789A,124.81117,46.03138,大庆市,大同区,,26,26,31,13,19,126,24,24,24,27,10,6,6,0.4,0.4
2023-09-09T01:00:00,1790A,125.129,46.533,大庆市,龙凤区,,18,18,28,8,15,112,31,31,31,13,15,3,3,0.4,0.4
2023-09-09T01:00:00,1791A,124.902,46.408,大庆市,红岗区,,26,26,29,14,13,121,20,20,20,25,16,4,4,0.5,0.5
2023-09-09T01:00:00,1792A,125.153,46.586,大庆市,萨尔图区,,16,15,32,8,14,114,49,49,49,8,13,6,6,0.4,0.4
2023-09-09T01:00:00,1793A,124.9042,46.6215,大庆市,让胡路区,,35,35,32,4,9,126,3,3,3,48,20,4,4,0.5,0.4
2023-09-09T01:00:00,1794A,118.3606,31.3519,芜湖市,监测站,,41,41,39,20,24,151,101,101,101,18,13,7,7,0.4,0.5
2023-09-09T01:00:00,1795A,118.3714,31.4134,芜湖市,科创中心,颗粒物(PM10),51,52,46,24,26,143,79,79,79,30,26,8,8,0.6,0.6
2023-09-09T01:00:00,1796A,118.3673,31.3131,芜湖市,四水厂,,32,29,39,18,22,155,102,102,102,19,16,5,5,0.4,0.5
2023-09-09T01:00:00,1798A,118.5092,31.6837,马鞍山市,湖东路四小,颗粒物(PM10),52,53,38,32,27,155,100,100,100,25,18,7,6,0.7,0.6
2023-09-09T01:00:00,1799A,118.5024,31.6449,马鞍山市,开发区,颗粒物(PM10),59,68,50,31,27,158,73,73,73,38,22,8,8,0.9,0.9
2023-09-09T01:00:00,1800A,118.5228,31.7231,马鞍山市,慈湖,颗粒物(PM10),52,54,44,32,28,156,109,109,109,23,18,14,15,0.9,0.8
2023-09-09T01:00:00,1802A,118.6245,31.7241,马鞍山市,濮塘,,46,46,32,32,27,149,107,107,107,16,8,5,4,1.1,0.9
2023-09-09T01:00:00,1803A,115.9872,29.6815,九江市,十里,颗粒物(PM10),53,55,43,34,26,192,98,98,98,16,15,9,11,0.8,0.9
2023-09-09T01:00:00,1804A,115.9584,29.7046,九江市,茅山头,,38,34,39,26,28,167,99,99,99,19,21,8,10,0.7,0.7
2023-09-09T01:00:00,1805A,115.9877,29.7295,九江市,西园,,48,48,40,29,24,166,89,89,89,28,21,10,10,0.5,0.6
2023-09-09T01:00:00,1806A,116.0172,29.6547,九江市,五七二七厂,,35,30,34,24,23,177,72,72,72,9,11,9,13,0.6,0.8
2023-09-09T01:00:00,1808A,115.9114,29.6038,九江市,综合工业园,,43,43,46,28,26,193,118,118,118,24,22,13,15,0.8,0.9
2023-09-09T01:00:00,1809A,116.0721,29.7535,九江市,石化总厂,,46,46,48,26,26,191,77,77,77,30,18,9,9,0.8,0.8
2023-09-09T01:00:00,1810A,115.9773,29.5698,九江市,庐山气象台,,31,13,26,17,20,131,98,98,98,3,4,12,11,0.6,0.7
2023-09-09T01:00:00,1812A,112.3931,34.6516,洛阳市,市委党校,颗粒物(PM10),68,85,68,45,45,175,22,22,22,72,24,6,9,0.5,0.4
2023-09-09T01:00:00,1814A,112.4657,34.6871,洛阳市,豫西宾馆,颗粒物(PM10),61,72,76,38,44,175,74,74,74,24,27,3,2,0.6,0.6
2023-09-09T01:00:00,1815A,112.494,34.6886,洛阳市,河南林校,颗粒物(PM10),56,62,66,33,40,179,69,69,69,30,25,8,7,0.5,0.7
2023-09-09T01:00:00,1816A,112.3844,34.623,洛阳市,开发区管委会,,46,46,60,27,34,174,92,92,92,11,16,1,4,0.3,0.4
2023-09-09T01:00:00,1817A,112.4267,34.6258,洛阳市,市委新办公区,细颗粒物(PM2.5),74,79,64,54,47,170,66,66,66,23,14,2,3,0.5,0.5
2023-09-09T01:00:00,1818A,114.4839,36.0621,安阳市,棉研所,,,,,,,,,,,,,,,,
2023-09-09T01:00:00,1819A,114.3551,36.1017,安阳市,红庙街,颗粒物(PM10),51,51,63,26,30,170,92,92,92,16,16,15,8,0.8,0.8
2023-09-09T01:00:00,1820A,114.361,36.0681,安阳市,银杏小区,,,53,66,,,173,71,71,71,23,16,30,10,0.5,0.6
2023-09-09T01:00:00,1824A,114.3389,34.7781,开封市,肿瘤医院,颗粒物(PM10),66,82,59,36,28,161,53,53,53,35,14,8,5,0.7,0.5
2023-09-09T01:00:00,1826A,114.2885,34.7965,开封市,世纪星幼儿园,,,73,52,,16,160,78,78,78,22,17,11,7,0.6,0.5
2023-09-09T01:00:00,1828A,113.227,35.2125,焦作市,市环保局,颗粒物(PM10),52,53,53,30,33,189,105,105,105,16,17,6,6,0.4,0.5
2023-09-09T01:00:00,1830A,113.1992,35.2590,焦作市,影视城,,,,,,,,,,,,,,,,
2023-09-09T01:00:00,1832A,113.3257,33.742,平顶山市,新华旅馆,颗粒物(PM10),69,87,70,42,28,150,50,50,50,54,36,4,9,0.5,0.5
2023-09-09T01:00:00,1833A,113.2919,33.737,平顶山市,规划设计院,颗粒物(PM10),63,76,68,43,31,151,84,84,84,25,32,8,8,0.6,0.6
2023-09-09T01:00:00,1834A,113.182,33.774,平顶山市,平顶山工学院,颗粒物(PM10),59,68,60,36,25,157,70,70,70,33,30,5,6,0.7,0.7
2023-09-09T01:00:00,1835A,111.1922,34.7752,三门峡市,市政府,颗粒物(PM10),54,58,60,35,34,155,123,123,123,12,19,6,6,0.7,0.7
2023-09-09T01:00:00,1836A,111.1587,34.7942,三门峡市,开发区,颗粒物(PM10),66,82,64,41,40,158,117,117,117,20,18,8,8,0.6,0.6
2023-09-09T01:00:00,1838A,111.143,34.7955,三门峡市,风景区,,,,,,,,,,,,,,,,
2023-09-09T01:00:00,1840A,111.2992,30.6981,宜昌市,白龙岗,,44,44,38,22,19,147,61,61,61,19,18,2,2,0.6,0.6
2023-09-09T01:00:00,1841A,111.3549,30.6465,宜昌市,伍家岗,,39,34,27,27,24,146,70,70,70,22,23,4,5,0.5,0.5
2023-09-09T01:00:00,1842A,111.2628,30.6961,宜昌市,点军区,,41,41,36,27,18,151,55,55,55,16,16,7,7,0.5,0.5
2023-09-09T01:00:00,1843A,111.3275,30.7819,宜昌市,夷陵区,,44,44,38,22,19,155,58,58,58,17,19,5,5,0.4,0.4
2023-09-09T01:00:00,1844A,112.2494,30.3197,荆州市,市图书馆,细颗粒物(PM2.5),52,41,41,36,26,155,22,22,22,79,20,10,12,0.8,0.6
2023-09-09T01:00:00,1845A,112.2008,30.3544,荆州市,市委党校,细颗粒物(PM2.5),60,55,43,43,27,146,13,13,13,60,20,10,11,0.8,0.7
2023-09-09T01:00:00,1847A,113.1094,29.3578,岳阳市,南湖风景区,,39,36,36,27,26,184,70,70,70,23,19,10,11,0.6,0.6
2023-09-09T01:00:00,1848A,113.1493,29.4251,岳阳市,城陵矶,,44,44,42,26,24,149,27,27,27,64,32,9,13,0.7,0.7
2023-09-09T01:00:00,1849A,113.1497,29.3575,岳阳市,开发区,,42,38,38,29,24,189,54,54,54,28,21,9,11,0.6,0.6
2023-09-09T01:00:00,1850A,113.2621,29.4758,岳阳市,云溪区,,35,31,32,24,24,153,57,57,57,18,14,7,9,0.6,0.6
2023-09-09T01:00:00,1851A,112.9943,29.4402,岳阳市,君山区,细颗粒物(PM2.5),59,51,39,42,29,143,73,73,73,21,14,9,9,0.7,0.6
2023-09-09T01:00:00,1852A,113.2117,29.355,岳阳市,金凤水库,,29,26,28,20,18,169,47,47,47,28,9,4,4,0.7,0.6
2023-09-09T01:00:00,1854A,111.6975,28.9703,常德市,市二中,细颗粒物(PM2.5),93,77,46,69,35,126,62,62,62,14,10,7,7,0.8,0.6
2023-09-09T01:00:00,1857A,111.7158,29.1456,常德市,白鹤山,,27,26,24,14,7,116,85,85,85,4,4,4,7,0.6,0.5
2023-09-09T01:00:00,1858A,110.5319,29.1217,张家界市,永定新区,,45,41,38,31,26,130,59,59,59,24,14,6,5,0.3,0.4
2023-09-09T01:00:00,1859A,110.4697,29.1242,张家界市,电业局,,,,37,28,24,125,48,48,48,17,12,3,3,0.5,0.5
2023-09-09T01:00:00,1860A,110.5594,29.3547,张家界市,未央路,,,21,32,19,20,124,,,,6,7,4,3,0.5,0.4
2023-09-09T01:00:00,1861A,110.4417,29.315,张家界市,袁家界,,22,18,28,14,21,120,68,68,68,4,5,8,9,0.4,0.6
2023-09-09T01:00:00,1862A,110.4144,25.3167,桂林市,电子科大尧山校区,,17,10,16,10,12,64,52,52,52,6,6,4,4,0.6,0.6
2023-09-09T01:00:00,1863A,110.2819,25.2697,桂林市,监测站,,22,22,19,6,10,75,48,48,48,9,9,17,8,0.6,0.6
2023-09-09T01:00:00,1864A,110.3089,25.2708,桂林市,龙隐路小学,,15,15,18,10,12,72,46,46,46,9,7,12,9,0.6,0.6
2023-09-09T01:00:00,1865A,110.2869,25.2178,桂林市,八中,,22,22,19,8,10,70,52,52,52,7,11,4,4,0.8,0.8
2023-09-09T01:00:00,1866A,109.2262,21.588,北海市,牛尾岭水库,,10,7,17,7,11,73,19,19,19,13,10,5,4,0.5,0.5
2023-09-09T01:00:00,1867A,109.1436,21.4086,北海市,海滩公园,,15,13,25,5,12,87,48,48,48,7,8,4,5,0.6,0.6
2023-09-09T01:00:00,1868A,109.0981,21.4661,北海市,新市环保局,,16,14,22,5,13,89,50,50,50,6,7,4,6,0.5,0.5
2023-09-09T01:00:00,1869A,109.1778,21.5233,北海市,北海工业园,,15,15,26,5,15,86,40,40,40,8,10,8,7,0.5,0.5
2023-09-09T01:00:00,1870A,109.4856,24.3895,柳州市,柳东小学,,13,8,18,9,15,83,38,38,38,5,5,6,9,0.2,0.3
2023-09-09T01:00:00,1871A,109.4157,24.3277,柳州市,环保监测站,,22,22,24,8,13,70,30,30,30,9,9,5,4,0.5,0.5
2023-09-09T01:00:00,1872A,109.389,24.341,柳州市,河西水厂,,28,17,27,19,15,71,21,21,21,15,8,11,8,0.7,0.6
2023-09-09T01:00:00,1873A,109.4311,24.2921,柳州市,市四中,,13,8,21,9,14,84,39,39,39,10,11,8,10,0.6,0.6
2023-09-09T01:00:00,1874A,109.4006,24.3631,柳州市,市九中,,29,29,31,10,15,75,28,28,28,11,10,12,10,0.5,0.5
2023-09-09T01:00:00,1875A,109.4958,24.3134,柳州市,古亭山,,13,12,19,6,12,87,41,41,41,7,8,6,7,0.5,0.6
2023-09-09T01:00:00,1876A,109.5078,18.2489,三亚市,河东子站,,15,15,11,8,6,69,22,22,22,13,8,3,3,0.4,0.4
2023-09-09T01:00:00,1877A,109.4964,18.2681,三亚市,河西子站,,29,29,10,7,5,66,17,17,17,15,6,1,1,0.5,0.4
2023-09-09T01:00:00,1878A,104.7778,31.4741,绵阳市,富乐山,,49,49,48,32,34,155,76,76,76,15,17,4,5,0.7,0.7
2023-09-09T01:00:00,1879A,104.7563,31.4535,绵阳市,市人大,细颗粒物(PM2.5),53,51,47,37,32,144,52,52,52,28,22,8,9,0.6,0.6
2023-09-09T01:00:00,1880A,104.6697,31.4668,绵阳市,高新区自来水公司,,43,40,51,30,29,160,63,63,63,21,22,7,8,0.6,0.5
2023-09-09T01:00:00,1881A,104.7287,31.5075,绵阳市,三水厂,细颗粒物(PM2.5),65,65,57,47,36,149,37,37,37,31,28,7,8,0.8,0.7
2023-09-09T01:00:00,1882A,104.563,28.793,宜宾市,石马中学,,,,,,,,,,,,,,,,
2023-09-09T01:00:00,1883A,104.6201,28.7728,宜宾市,市委,细颗粒物(PM2.5),102,117,72,76,50,218,58,58,58,42,24,11,12,0.8,0.7
2023-09-09T01:00:00,1884A,104.6055,28.793,宜宾市,宜宾四中,细颗粒物(PM2.5),103,114,74,77,52,226,86,86,86,32,24,15,14,0.8,0.7
2023-09-09T01:00:00,1885A,104.639,28.7562,宜宾市,市政府,细颗粒物(PM2.5),94,88,70,70,47,210,74,74,74,36,25,11,11,0.8,0.7
2023-09-09T01:00:00,1886A,104.5742,28.7199,宜宾市,黄金嘴,细颗粒物(PM2.5),82,90,69,60,48,222,52,52,52,42,25,10,11,0.7,0.7
2023-09-09T01:00:00,1888A,101.6891,26.571,攀枝花市,弄弄坪,,39,39,66,20,36,138,38,38,38,21,24,9,12,0.9,1.2
2023-09-09T01:00:00,1889A,101.5769,26.5928,攀枝花市,河门口,,24,24,51,14,34,169,31,31,31,24,22,10,20,1.0,1.8
2023-09-09T01:00:00,1890A,101.7169,26.585,攀枝花市,炳草岗,颗粒物(PM10),56,62,69,26,36,156,7,7,7,55,31,17,22,0.9,1
2023-09-09T01:00:00,1891A,101.7369,26.5008,攀枝花市,仁和,,36,36,42,24,26,146,29,29,29,19,16,6,10,0.4,0.5
2023-09-09T01:00:00,1893A,105.4324,28.9634,泸州市,九狮山,颗粒物(PM10),61,72,30,43,17,102,24,24,24,24,22,6,6,0.5,0.4
2023-09-09T01:00:00,1894A,105.4427,28.9063,泸州市,小市上码头,颗粒物(PM10),58,65,43,40,28,117,36,36,36,30,19,17,14,0.5,0.4
2023-09-09T01:00:00,1895A,105.4241,28.8573,泸州市,兰田宪桥,细颗粒物(PM2.5),72,77,44,52,31,107,17,17,17,28,19,8,8,0.5,0.3
2023-09-09T01:00:00,1896A,105.4379,28.8833,泸州市,市环监站,颗粒物(PM10),56,61,36,29,19,97,31,31,31,37,20,58,9,0.6,0.5
2023-09-09T01:00:00,1901A,104.4239,31.1208,德阳市,东山公园,颗粒物(PM10),57,63,53,37,25,159,65,65,65,22,16,2,4,0.6,0.5
2023-09-09T01:00:00,1902A,104.3826,31.1317,德阳市,西小区,,50,50,51,30,26,158,64,64,64,15,16,8,4,0.6,0.6
2023-09-09T01:00:00,1904A,104.3553,31.1091,德阳市,耐火材料厂,颗粒物(PM10),55,59,59,37,28,165,49,49,49,20,18,11,4,0.7,0.7
2023-09-09T01:00:00,1905A,106.056,30.8064,南充市,西山风景区,细颗粒物(PM2.5),58,41,34,41,32,133,47,47,47,29,13,6,5,0.7,0.5
2023-09-09T01:00:00,1906A,106.0789,30.8023,南充市,南充市委,细颗粒物(PM2.5),68,64,54,49,38,140,34,34,34,34,23,7,8,0.5,0.5
2023-09-09T01:00:00,1907A,106.1031,30.8217,南充市,南充炼油厂,颗粒物(PM10),85,120,67,61,37,138,21,21,21,34,21,7,8,0.7,0.5
2023-09-09T01:00:00,1908A,106.1064,30.7856,南充市,高坪区监测站,细颗粒物(PM2.5),90,103,52,67,38,129,31,31,31,34,28,9,8,0.5,0.3
2023-09-09T01:00:00,1909A,106.0642,30.7636,南充市,嘉陵区环保局,细颗粒物(PM2.5),67,73,57,48,34,141,28,28,28,48,30,7,7,0.6,0.4
2023-09-09T01:00:00,1910A,106.1087,30.8388,南充市,市环境监测站,细颗粒物(PM2.5),80,92,57,59,40,128,29,29,29,37,23,11,10,0.6,0.4
2023-09-09T01:00:00,1911A,106.9222,27.6869,遵义市,丁字口,,30,30,24,13,14,91,50,50,50,19,21,4,4,0.7,0.7
2023-09-09T01:00:00,1912A,106.9242,27.7019,遵义市,凤凰山,,32,25,29,22,21,102,81,81,81,7,9,6,7,0.5,0.6
2023-09-09T01:00:00,1913A,106.8906,27.6486,遵义市,忠庄,,31,31,27,20,16,95,61,61,61,9,9,1,1,0.5,0.5
2023-09-09T01:00:00,1914A,106.9231,27.6506,遵义市,舟水桥,,24,24,31,16,18,99,26,26,26,14,10,1,1,0.3,0.3
2023-09-09T01:00:00,1915A,106.9178,27.72,遵义市,干田坝,,25,23,22,17,13,100,24,24,24,30,13,5,6,0.7,0.6
2023-09-09T01:00:00,1916A,103.7897,25.5035,曲靖市,环境监测站,细颗粒物(PM2.5),52,52,37,36,21,116,35,35,35,26,16,10,8,0.7,0.8
2023-09-09T01:00:00,1917A,103.8,25.5364,曲靖市,烟厂办公区,,,38,36,,19,121,22,22,22,34,14,,10,0.7,0.7
2023-09-09T01:00:00,1918A,108.7197,34.3956,咸阳市,气象站,,,,,,,,,,,,,,,,
2023-09-09T01:00:00,1919A,108.673,34.3155,咸阳市,实验中学,细颗粒物(PM2.5),82,86,197,60,66,205,32,32,32,54,22,7,8,0.6,0.6
2023-09-09T01:00:00,1920A,108.7233,34.3617,咸阳市,师范学院,细颗粒物(PM2.5),82,80,157,60,65,181,57,57,57,41,28,6,6,0.7,0.6
2023-09-09T01:00:00,1922A,109.0656,35.0994,铜川市,党校,细颗粒物(PM2.5),53,40,56,37,32,127,30,30,30,28,21,11,12,0.7,0.7
2023-09-09T01:00:00,1923A,109.0697,35.0697,铜川市,王益区政府,,47,47,50,31,31,145,19,19,19,30,18,7,6,0.6,0.6
2023-09-09T01:00:00,1924A,108.9344,34.9058,铜川市,新区管委会,颗粒物(PM10),53,55,59,34,33,150,50,50,50,24,20,8,7,0.6,0.7
2023-09-09T01:00:00,1926A,109.4131,36.6275,延安市,枣园,,,,69,19,28,148,70,70,70,10,20,6,6,0.5,0.5
2023-09-09T01:00:00,1927A,109.4761,36.6028,延安市,延大医附院,,21,12,69,4,27,155,66,66,66,9,22,4,4,0.4,0.5
2023-09-09T01:00:00,1929A,109.5056,36.6106,延安市,百米大道,,20,6,83,4,32,142,64,64,64,15,28,6,9,0.7,0.8
2023-09-09T01:00:00,1930A,107.185,34.3063,宝鸡市,庙沟村,颗粒物(PM10),77,103,162,53,66,151,57,57,57,49,24,8,8,0.3,0.2
2023-09-09T01:00:00,1931A,107.0708,34.3017,宝鸡市,竹园沟,细颗粒物(PM2.5),73,68,151,53,66,188,58,58,58,21,15,5,5,0.7,0.6
2023-09-09T01:00:00,1932A,107.1906,34.3672,宝鸡市,三陆医院,颗粒物(PM10),92,133,171,62,72,178,59,59,59,31,25,11,10,0.7,0.5
2023-09-09T01:00:00,1933A,107.1431,34.3547,宝鸡市,监测站,颗粒物(PM10),75,100,155,53,69,176,74,74,74,26,24,7,8,0.5,0.5
2023-09-09T01:00:00,1934A,107.1186,34.3739,宝鸡市,技工学校,细颗粒物(PM2.5),80,98,162,59,71,179,69,69,69,20,19,6,6,0.7,0.6
2023-09-09T01:00:00,1935A,107.3906,34.3528,宝鸡市,陈仓区环保局家属楼,细颗粒物(PM2.5),78,98,187,57,80,177,34,34,34,59,30,7,8,0.6,0.6
2023-09-09T01:00:00,1936A,107.2058,34.3497,宝鸡市,文理学院,颗粒物(PM10),84,118,174,52,67,176,70,70,70,27,21,6,6,0.6,0.6
2023-09-09T01:00:00,1937A,107.2386,34.3622,宝鸡市,三迪小学,颗粒物(PM10),82,113,172,57,75,178,72,72,72,24,24,5,6,0.6,0.5
2023-09-09T01:00:00,1938A,109.5293,34.5101,渭南市,农科所,细颗粒物(PM2.5),52,48,70,36,40,265,26,26,26,31,24,5,6,0.5,0.5
2023-09-09T01:00:00,1939A,109.4974,34.4877,渭南市,日报社,细颗粒物(PM2.5),59,48,51,42,37,149,13,13,13,43,26,5,6,0.5,0.5
2023-09-09T01:00:00,1940A,109.4636,34.493,渭南市,体育馆,颗粒物(PM10),52,53,58,34,36,157,3,3,3,65,38,3,4,0.6,0.6
2023-09-09T01:00:00,1941A,109.4259,34.5023,渭南市,高新一小,颗粒物(PM10),80,110,77,53,38,155,34,34,34,24,23,5,6,0.6,0.6
2023-09-09T01:00:00,1943A,102.1725,38.5339,金昌市,新川苑,,,,,,,,,,,,,,,,
2023-09-09T01:00:00,1944A,102.1692,38.5167,金昌市,天庆家园,,32,14,31,4,8,129,101,101,101,15,19,6,14,0.5,0.5
2023-09-09T01:00:00,1945A,98.2908,39.7711,嘉峪关市,气象局,,48,48,53,14,17,127,7,7,7,89,36,3,3,0.3,0.2
2023-09-09T01:00:00,1947A,106.3394,38.817,石嘴山市,沙湖旅游区,细颗粒物(PM2.5),73,65,51,53,34,104,36,36,36,20,16,6,10,1.5,0.9
2023-09-09T01:00:00,1948A,106.3668,39.0145,石嘴山市,大武口朝阳西街,细颗粒物(PM2.5),123,114,54,93,46,90,28,28,28,38,27,10,10,1.4,0.7
2023-09-09T01:00:00,1949A,106.7704,39.2282,石嘴山市,惠农南大街,,32,32,28,21,19,86,16,16,16,53,36,12,11,1.6,0.8
2023-09-09T01:00:00,1950A,106.7099,39.1325,石嘴山市,红果子镇惠新街,,38,27,26,26,30,85,10,10,10,37,29,15,15,1.1,0.9
2023-09-09T01:00:00,1951A,84.895,45.6094,克拉玛依市,长征新村,,30,14,16,4,5,109,96,96,96,3,6,9,10,0.1,0.2
2023-09-09T01:00:00,1952A,84.8988,45.5893,克拉玛依市,南林小区,,30,10,16,6,7,109,94,94,94,9,10,6,6,0.3,0.3
2023-09-09T01:00:00,1954A,84.905,44.3396,克拉玛依市,独山子区,,30,12,19,14,14,126,95,95,95,7,10,9,9,0.5,0.5
2023-09-09T01:00:00,1955A,85.6979,46.098,克拉玛依市,乌尔禾区商贸楼,,27,27,25,1,5,106,55,55,55,7,8,6,8,0.3,0.4
2023-09-09T01:00:00,1956A,86.1472,41.7538,巴音郭楞州,孔雀公园,颗粒物(PM10),110,170,140,56,40,102,1,1,1,84,37,10,10,1.4,0.6
2023-09-09T01:00:00,1957A,86.1972,41.7166,巴音郭楞州,棉纺厂,颗粒物(PM10),184,318,159,84,53,108,2,2,2,65,27,6,7,0.5,0.4
2023-09-09T01:00:00,1958A,86.2357,41.7173,巴音郭楞州,经济开发区,颗粒物(PM10),448,548,160,120,45,106,9,9,9,60,16,7,8,0.3,0.3
2023-09-09T01:00:00,1961A,117.532,36.6868,济南市,东山小学,颗粒物(PM10),75,100,80,49,41,248,77,77,77,50,25,8,9,0.7,0.7
2023-09-09T01:00:00,1966A,120.0405,35.8735,青岛市,黄岛区4号,,33,27,30,12,20,140,105,105,105,8,16,5,5,0.4,0.5
2023-09-09T01:00:00,1982A,122.0693,37.2174,威海市,文登开发区,,41,41,35,19,18,148,40,40,40,20,17,6,6,0.4,0.3
2023-09-09T01:00:00,2031A,113.1817,27.9958,株洲市,云田中学,,32,32,32,10,17,107,63,63,63,10,10,5,6,0.6,0.6
2023-09-09T01:00:00,2054A,114.1099,32.1059,信阳市,平桥分局,颗粒物(PM10),60,69,43,27,22,142,92,92,92,17,16,3,4,0.7,0.6
2023-09-09T01:00:00,2064A,113.9956,32.1271,信阳市,南湾水厂,,38,38,41,23,19,140,74,74,74,11,11,3,3,0.7,0.6
2023-09-09T01:00:00,2065A,114.0775,32.1195,信阳市,市酿酒公司,颗粒物(PM10),52,53,38,29,21,146,86,86,86,21,16,4,3,0.7,0.6
2023-09-09T01:00:00,2066A,114.0609,32.1399,信阳市,审计局,颗粒物(PM10),52,54,41,25,18,147,98,98,98,21,13,4,4,0.8,0.7
2023-09-09T01:00:00,2067A,114.6613,33.6128,周口市,市环境监测站,颗粒物(PM10),59,67,57,35,34,164,106,106,106,14,19,7,8,0.6,0.6
2023-09-09T01:00:00,2068A,114.6758,33.6347,周口市,周口师范,颗粒物(PM10),57,63,59,31,26,155,109,109,109,9,11,7,6,0.5,0.5
2023-09-09T01:00:00,2069A,114.6546,33.5979,周口市,市运管处,颗粒物(PM10),63,75,64,42,34,162,103,103,103,25,21,14,12,0.7,0.6
2023-09-09T01:00:00,2070A,114.6369,33.6406,周口市,川汇区环保局,颗粒物(PM10),53,56,54,29,26,154,110,110,110,7,9,7,8,0.6,0.6
2023-09-09T01:00:00,2075A,117.6336,24.4674,漳州市,九湖,,,,,,,,,,,,,,,,
2023-09-09T01:00:00,2160A,112.85,35.5051,晋城市,自来水公司,颗粒物(PM10),57,64,64,29,33,194,103,103,103,26,20,8,9,0.8,0.8
2023-09-09T01:00:00,2161A,112.8318,35.4936,晋城市,白云商贸,颗粒物(PM10),51,51,67,27,31,190,87,87,87,34,23,9,9,0.8,0.9
2023-09-09T01:00:00,2162A,112.8508,35.4887,晋城市,市环保局,颗粒物(PM10),52,53,73,27,34,184,102,102,102,28,30,8,9,0.8,0.9
2023-09-09T01:00:00,2163A,112.8676,35.4897,晋城市,技术学院,,43,43,56,19,30,183,113,113,113,32,32,8,9,0.8,0.9
2023-09-09T01:00:00,2165A,112.8453,35.546,晋城市,白马寺,,,,,,,,,,,,,,,,
2023-09-09T01:00:00,2166A,112.4397,39.3522,朔州市,平朔,,36,7,22,6,21,113,113,113,113,6,15,3,6,0.4,0.5
2023-09-09T01:00:00,2167A,112.4575,39.3617,朔州市,朔唯,,33,1,26,2,21,105,105,105,105,2,11,4,6,0.5,0.7
2023-09-09T01:00:00,2168A,112.4258,39.3197,朔州市,区政府,,34,2,23,1,21,106,106,106,106,4,11,4,6,0.5,0.7
2023-09-09T01:00:00,2169A,112.4072,39.3278,朔州市,市环保局,,37,6,26,2,21,117,117,117,117,4,12,4,9,0.6,0.6
2023-09-09T01:00:00,2170A,112.4272,39.3681,朔州市,市二中,,32,2,17,2,24,102,101,101,101,6,16,5,7,0.5,0.7
2023-09-09T01:00:00,2171A,112.7532,37.6945,晋中市,锦纶小区,细颗粒物(PM2.5),69,78,79,50,38,170,74,74,74,26,25,8,10,1.0,0.8
2023-09-09T01:00:00,2173A,112.7249,37.7067,晋中市,南都小区,细颗粒物(PM2.5),87,97,79,64,47,170,76,76,76,24,23,7,9,0.9,0.7
2023-09-09T01:00:00,2174A,112.6991,37.6982,晋中市,榆次区政府,颗粒物(PM10),70,90,79,39,42,177,58,58,58,38,26,10,13,1.1,0.9
2023-09-09T01:00:00,2175A,110.9956,35.0147,运城市,运城中学,颗粒物(PM10),57,64,52,33,29,159,138,138,138,6,7,5,5,0.7,0.6
2023-09-09T01:00:00,2178A,110.9686,35.0303,运城市,地区技校,颗粒物(PM10),56,61,55,34,31,145,130,130,130,6,8,5,5,0.5,0.5
2023-09-09T01:00:00,2179A,111.0414,35.1147,运城市,空港新区,颗粒物(PM10),60,70,73,37,41,151,140,140,140,6,16,5,7,0.6,0.7
2023-09-09T01:00:00,2181A,112.7383,38.4519,忻州市,开发区,细颗粒物(PM2.5),64,48,60,46,59,122,66,66,66,17,16,8,9,1.0,0.9
2023-09-09T01:00:00,2182A,112.7003,38.4928,忻州市,会展中心,,46,42,60,32,52,109,76,76,76,15,20,5,6,0.7,0.8
2023-09-09T01:00:00,2183A,111.1406,37.5211,吕梁市,环保局,颗粒物(PM10),74,97,101,48,45,135,49,49,49,15,24,2,3,0.6,0.7
2023-09-09T01:00:00,2185A,111.1297,37.5136,吕梁市,自来水公司,颗粒物(PM10),69,87,111,45,49,128,57,57,57,19,29,4,5,0.6,0.7
2023-09-09T01:00:00,2187A,106.8174,39.6973,乌海市,市林业局,细颗粒物(PM2.5),128,136,99,97,50,46,5,5,5,67,48,57,36,1.8,1.6
2023-09-09T01:00:00,2188A,106.7907,39.6667,乌海市,中海勃湾学校,颗粒物(PM10),88,125,65,64,41,65,1,1,1,61,40,22,24,1.4,1.3
2023-09-09T01:00:00,2191A,122.2532,43.6801,通辽市,艺术职业学校,,47,47,56,8,22,131,59,59,59,12,12,5,5,0.3,0.5
2023-09-09T01:00:00,2192A,119.7594,49.2261,呼伦贝尔市,区环保局,,31,31,22,16,17,68,29,29,29,14,12,4,5,0.3,0.4
2023-09-09T01:00:00,2195A,107.4212,40.761,巴彦淖尔市,附二中,颗粒物(PM10),59,67,47,18,21,102,47,47,47,19,15,6,4,0.5,0.5
2023-09-09T01:00:00,2196A,107.37,40.7372,巴彦淖尔市,市环保大楼,颗粒物(PM10),58,65,60,25,19,98,58,58,58,12,12,4,4,0.5,0.5
2023-09-09T01:00:00,2197A,113.1306,40.9923,乌兰察布市,集宁新区,,48,39,46,33,31,91,35,35,35,30,24,11,13,1.0,0.8
2023-09-09T01:00:00,2200A,122.0392,46.0656,兴安盟,胜华新制药厂,,34,34,47,9,21,82,36,36,36,12,12,2,3,0.3,0.2
2023-09-09T01:00:00,2201A,121.9504,46.0741,兴安盟,科右前旗环保局,,36,36,43,21,25,88,5,5,5,27,10,3,4,0.6,0.5
2023-09-09T01:00:00,2202A,116.1042,43.9317,锡林郭勒盟,市环保监测站,,20,8,258,2,6,79,64,64,64,9,12,12,10,0.2,0.2
2023-09-09T01:00:00,2203A,116.0781,43.9311,锡林郭勒盟,市政府,,21,10,24,2,6,95,67,67,67,10,9,12,11,0.2,0.2
2023-09-09T01:00:00,2204A,105.6467,38.8363,阿拉善盟,西城区西花园,,42,42,38,26,19,93,73,73,73,16,17,8,8,0.6,0.7
2023-09-09T01:00:00,2205A,105.6985,38.8411,阿拉善盟,蒙二幼,,27,24,29,18,20,92,86,86,86,12,14,9,9,0.6,0.5
2023-09-09T01:00:00,2206A,105.724,38.8516,阿拉善盟,环保局新楼,,39,32,29,27,21,89,81,81,81,9,11,6,6,0.6,0.5
2023-09-09T01:00:00,2207A,121.6094,41.998,阜新市,工业园区,颗粒物(PM10),75,100,67,32,34,98,4,4,4,30,25,7,11,1.0,1.1
2023-09-09T01:00:00,2208A,121.6697,42.0279,阜新市,长青街,颗粒物(PM10),82,113,72,42,35,103,1,1,1,37,24,10,14,6.2,1.1
2023-09-09T01:00:00,2209A,121.6673,42.0705,阜新市,农业园区,颗粒物(PM10),78,106,74,45,34,104,39,39,39,12,17,14,13,2.1,1
2023-09-09T01:00:00,2210A,121.6717,42.0224,阜新市,东苑,颗粒物(PM10),90,129,77,56,40,99,4,4,4,33,25,17,18,8.3,1.6
2023-09-09T01:00:00,2211A,121.6506,42.0498,阜新市,玉龙新城,颗粒物(PM10),74,98,70,27,30,94,5,5,5,31,23,7,9,0.8,0.7
2023-09-09T01:00:00,2212A,123.2,41.1953,辽阳市,宏伟区,颗粒物(PM10),86,122,45,39,20,139,43,43,43,32,24,7,8,0.9,0.7
2023-09-09T01:00:00,2213A,123.1683,41.2495,辽阳市,新华园,颗粒物(PM10),76,101,55,30,26,117,66,66,66,12,21,6,9,0.7,0.8
2023-09-09T01:00:00,2214A,123.2354,41.2639,辽阳市,滨河路,颗粒物(PM10),68,86,48,41,26,129,69,69,69,13,21,9,14,0.8,0.9
2023-09-09T01:00:00,2215A,123.149,41.2991,辽阳市,铁西工业园,颗粒物(PM10),57,63,51,27,22,133,90,90,90,8,27,6,8,0.7,0.8
2023-09-09T01:00:00,2216A,123.8139,42.3022,铁岭市,汇工街西,颗粒物(PM10),60,70,57,36,30,122,18,18,18,17,16,8,11,0.6,0.7
2023-09-09T01:00:00,2217A,123.8649,42.2923,铁岭市,水上乐园,颗粒物(PM10),56,62,63,34,29,122,7,7,7,34,33,2,5,0.8,1
2023-09-09T01:00:00,2218A,123.8486,42.2867,铁岭市,银州路东段,颗粒物(PM10),63,76,65,43,31,117,14,14,14,31,28,3,6,0.8,0.8
2023-09-09T01:00:00,2219A,123.7153,42.2217,铁岭市,金沙江路北,颗粒物(PM10),56,61,60,37,35,114,32,32,32,10,25,7,10,0.8,0.9
2023-09-09T01:00:00,2220A,120.4318,41.5881,朝阳市,西梁,,46,46,90,19,36,145,12,12,12,31,21,14,11,0.6,1
2023-09-09T01:00:00,2221A,120.4521,41.5646,朝阳市,河畔小区,颗粒物(PM10),52,54,87,19,35,136,17,17,17,34,18,13,9,0.6,1
2023-09-09T01:00:00,2222A,120.4176,41.5648,朝阳市,八里堡,颗粒物(PM10),51,52,74,18,35,120,24,24,24,31,25,11,9,0.7,1.2
2023-09-09T01:00:00,2223A,120.3806,41.5969,朝阳市,农业园区,颗粒物(PM10),59,67,72,14,51,135,5,5,5,42,24,8,7,0.7,1
2023-09-09T01:00:00,2225A,124.4002,43.1713,四平市,一商场,,35,35,58,8,32,102,36,36,36,14,16,8,9,0.3,0.6
2023-09-09T01:00:00,2226A,124.388,43.193,四平市,境园,,29,29,56,12,33,108,38,38,38,8,14,5,6,0.3,0.6
2023-09-09T01:00:00,2227A,125.1358,42.8845,辽源市,环保局,细颗粒物(PM2.5),62,66,36,44,23,136,50,50,50,15,11,10,9,0.9,0.8
2023-09-09T01:00:00,2229A,125.9358,41.7173,通化市,光明,,35,35,44,23,25,97,7,7,7,19,19,14,15,0.5,1.1
2023-09-09T01:00:00,2230A,125.9446,41.7325,通化市,铁路,,26,25,44,18,27,98,12,12,12,12,20,6,17,0.8,1.5
2023-09-09T01:00:00,2231A,126.4219,41.9171,白山市,喜丰,颗粒物(PM10),61,72,69,24,20,135,9,9,9,25,19,6,4,0.9,0.8
2023-09-09T01:00:00,2232A,126.4077,41.9419,白山市,环保局,,48,48,43,28,20,131,11,11,11,16,18,6,9,0.7,0.6
2023-09-09T01:00:00,2233A,124.8006,45.1214,松原市,江南,,21,14,34,7,20,141,66,66,66,8,11,6,6,0.5,0.6
2023-09-09T01:00:00,2234A,124.7965,45.1722,松原市,江北,,17,17,37,5,22,134,45,45,45,15,9,5,4,0.4,0.5
2023-09-09T01:00:00,2235A,122.7911,45.6077,白城市,洮北区环保局,,15,14,44,7,21,140,45,45,45,24,12,5,5,0.1,0.1
2023-09-09T01:00:00,2236A,122.8738,45.5725,白城市,市环保局,,21,21,40,4,13,130,23,23,23,40,20,7,7,0.1,0.2
2023-09-09T01:00:00,2237A,129.47,42.8883,延边朝鲜族自治州,妇幼医院,,30,30,29,14,17,100,27,27,27,8,14,8,8,0.6,0.5
2023-09-09T01:00:00,2238A,129.5055,42.9108,延边朝鲜族自治州,延边医院,,38,38,36,24,19,98,20,20,20,22,19,6,6,0.7,0.6
2023-09-09T01:00:00,2239A,129.3964,42.8881,延边朝鲜族自治州,朝阳川镇医院,,30,22,28,21,12,111,9,9,9,15,12,7,7,0.6,0.6
2023-09-09T01:00:00,2240A,130.9762,45.3001,鸡西市,环保局,颗粒物(PM10),58,65,59,30,22,75,54,54,54,5,15,5,5,0.3,0.4
2023-09-09T01:00:00,2243A,130.9429,45.3039,鸡西市,第一中学,细颗粒物(PM2.5),55,48,48,39,23,100,54,54,54,8,7,6,6,0.3,0.2
2023-09-09T01:00:00,2244A,130.2537,47.3416,鹤岗市,哈啤分公司,,20,18,23,14,12,96,46,46,46,2,8,9,11,0.2,0.3
2023-09-09T01:00:00,2245A,130.2684,47.3086,鹤岗市,斯达机电,,27,27,25,13,11,93,48,48,48,3,9,6,9,0.2,0.3
2023-09-09T01:00:00,2246A,130.3114,47.3388,鹤岗市,东山纸板厂,,32,32,33,11,12,97,44,44,44,2,9,10,11,0.2,0.3
2023-09-09T01:00:00,2247A,130.1097,47.3382,鹤岗市,五号水库,,18,18,20,12,13,104,50,50,50,2,5,10,10,0.3,0.4
2023-09-09T01:00:00,2248A,131.1511,46.6937,双鸭山市,双合村,,27,27,45,0,14,104,40,40,40,4,7,6,8,0.1,0.2
2023-09-09T01:00:00,2249A,131.1652,46.6191,双鸭山市,南小市,,20,17,51,14,20,104,49,49,49,3,5,6,7,0.1,0.2
2023-09-09T01:00:00,2250A,131.1524,46.6554,双鸭山市,环保局,,33,33,42,13,17,87,45,45,45,7,11,8,9,0.0,0.3
2023-09-09T01:00:00,2251A,131.12,46.5656,双鸭山市,苗圃,,48,35,18,33,15,132,69,69,69,4,5,3,4,0.3,0.5
2023-09-09T01:00:00,2252A,128.5159,47.4311,伊春市,环保局,,19,19,29,6,14,118,25,25,25,4,8,4,4,0.3,0.4
2023-09-09T01:00:00,2253A,128.9102,47.7412,伊春市,电力嘉园,,20,20,29,7,15,124,25,25,25,5,6,6,5,0.4,0.5
2023-09-09T01:00:00,2254A,129.5029,48.471,伊春市,汤旺河国家公园,,16,16,31,8,15,107,16,16,16,2,2,12,13,0.2,0.3
2023-09-09T01:00:00,2255A,130.2751,46.8028,佳木斯市,佳纺,,24,24,37,8,17,100,47,47,47,2,7,2,5,0.3,0.5
2023-09-09T01:00:00,2256A,130.3995,46.8307,佳木斯市,发电厂,,29,29,40,4,15,102,52,52,52,2,6,1,1,0.6,0.6
2023-09-09T01:00:00,2257A,130.3258,46.7975,佳木斯市,环保局,,24,24,39,5,16,97,43,43,43,8,10,3,4,0.4,0.5
2023-09-09T01:00:00,2258A,130.3648,46.8032,佳木斯市,十一中,,26,26,45,0,17,97,50,50,50,2,11,4,4,0.3,0.5
2023-09-09T01:00:00,2259A,130.3794,46.7588,佳木斯市,四丰,,18,16,27,3,12,118,55,55,55,5,6,1,1,0.2,0.3
2023-09-09T01:00:00,2262A,131.0518,45.8751,七台河市,新一中,,36,36,44,6,26,125,54,54,54,3,6,8,8,0.7,0.8
2023-09-09T01:00:00,2263A,127.4833,50.2524,黑河市,交通局,,16,12,30,11,12,107,30,30,30,6,10,4,6,0.5,0.5
2023-09-09T01:00:00,2264A,127.5144,50.2341,黑河市,环保局,,24,24,36,12,12,109,42,42,42,5,9,3,3,0.3,0.3
2023-09-09T01:00:00,2265A,127.5291,50.2472,黑河市,大黑河岛,,,24,41,16,14,,,,,2,2,2,8,0.3,0.4
2023-09-09T01:00:00,2266A,126.9785,46.6365,绥化市,人和东街,,22,22,34,6,11,109,37,37,37,15,9,3,4,0.2,0.3
2023-09-09T01:00:00,2267A,126.964,46.6528,绥化市,党政办公中心,,17,17,26,5,10,107,40,40,40,10,8,5,5,0.2,0.3
2023-09-09T01:00:00,2269A,124.1069,50.4097,大兴安岭地区,科技局,,19,13,21,13,15,75,16,16,16,3,5,4,4,0.2,0.2
2023-09-09T01:00:00,2270A,117.396,32.939,蚌埠市,工人疗养院,颗粒物(PM10),52,53,52,27,27,161,63,63,63,28,17,5,5,0.5,0.5
2023-09-09T01:00:00,2271A,117.3605,32.9427,蚌埠市,百货大楼,颗粒物(PM10),53,56,60,30,28,167,52,52,52,31,14,7,6,0.5,0.5
2023-09-09T01:00:00,2273A,117.4185,32.8911,蚌埠市,蚌埠学院,,39,39,49,27,30,163,78,78,78,12,18,4,6,0.4,0.5
2023-09-09T01:00:00,2274A,117.3533,32.9673,蚌埠市,淮上区政府,颗粒物(PM10),51,51,58,35,36,162,83,83,83,12,18,6,6,0.4,0.5
2023-09-09T01:00:00,2275A,117.3145,32.8977,蚌埠市,高新区,,39,39,48,25,31,178,98,98,98,13,20,4,6,0.6,0.6
2023-09-09T01:00:00,2277A,116.8305,32.7727,淮南市,潘集区政府,颗粒物(PM10),54,57,58,33,33,174,68,68,68,19,14,8,10,0.4,0.5
2023-09-09T01:00:00,2278A,117.0067,32.6524,淮南市,师范学院,颗粒物(PM10),51,51,55,28,27,152,96,96,96,14,12,7,8,0.6,0.6
2023-09-09T01:00:00,2279A,116.8569,32.5951,淮南市,谢家集区政府,,44,44,41,14,16,158,105,105,105,15,15,16,10,0.4,0.4
2023-09-09T01:00:00,2280A,116.8281,32.633,淮南市,八公山区政府,"颗粒物(PM10),细颗粒物(PM2.5)",53,55,55,37,34,167,88,88,88,14,12,8,8,0.7,0.6
2023-09-09T01:00:00,2281A,116.6325,32.6201,淮南市,焦岗湖风景区管理处,,37,37,40,25,22,155,78,78,78,13,14,3,2,0.6,0.5
2023-09-09T01:00:00,2282A,116.8004,33.975,淮北市,监测站,颗粒物(PM10),52,53,49,34,30,130,115,115,115,10,10,7,2,1.0,0.4
2023-09-09T01:00:00,2283A,116.8091,33.9007,淮北市,烈山区政府,颗粒物(PM10),59,67,60,36,36,149,105,105,105,16,15,8,7,0.6,0.6
2023-09-09T01:00:00,2285A,117.8177,30.9412,铜陵市,市第四中学,,38,38,42,24,25,143,83,83,83,16,9,3,3,0.2,0.2
2023-09-09T01:00:00,2286A,117.8059,30.9273,铜陵市,市公路局,,39,38,44,27,25,157,103,103,103,17,14,8,7,0.4,0.4
2023-09-09T01:00:00,2287A,117.7807,30.9413,铜陵市,市新民污水厂,,48,48,52,24,23,170,94,94,94,16,18,6,8,0.4,0.4
2023-09-09T01:00:00,2288A,117.7439,30.8792,铜陵市,市第九中学,颗粒物(PM10),56,62,61,28,28,164,55,55,55,66,32,40,11,0.6,0.7
2023-09-09T01:00:00,2289A,117.846,30.9413,铜陵市,车站新区,,43,39,41,30,29,143,87,87,87,24,16,8,8,0.5,0.5
2023-09-09T01:00:00,2290A,117.8483,30.97,铜陵市,市职教基地,,35,35,36,15,18,139,101,101,101,10,9,4,5,0.4,0.5
2023-09-09T01:00:00,2291A,117.0809,30.5177,安庆市,环科院,颗粒物(PM10),51,51,44,21,24,166,111,111,111,15,15,8,7,0.6,0.6
2023-09-09T01:00:00,2292A,117.0331,30.5119,安庆市,马山宾馆,,41,41,39,24,26,168,122,122,122,14,13,5,5,0.7,0.7
2023-09-09T01:00:00,2294A,116.9896,30.6145,安庆市,安庆大学,细颗粒物(PM2.5),68,47,43,49,41,163,91,91,91,11,10,4,5,0.6,0.6
2023-09-09T01:00:00,2295A,118.2903,29.6963,黄山市,延安路89号,,33,33,35,11,10,120,16,16,16,14,7,4,4,0.4,0.4
2023-09-09T01:00:00,2296A,118.327,29.7178,黄山市,黄山东路89号,,37,30,26,14,9,117,117,117,117,8,7,5,4,0.4,0.4
2023-09-09T01:00:00,2297A,118.1371,30.2756,黄山市,黄山区政府5号楼,,40,40,35,23,16,132,43,43,43,8,10,6,6,0.5,0.4
2023-09-09T01:00:00,2298A,118.3093,32.3153,滁州市,老年大学,,46,46,46,30,25,177,81,81,81,21,16,9,9,0.4,0.5
2023-09-09T01:00:00,2299A,118.3244,32.2786,滁州市,人大宾馆,细颗粒物(PM2.5),53,45,46,37,34,194,79,79,79,19,19,9,8,0.4,0.5
2023-09-09T01:00:00,2301A,115.8277,32.8929,阜阳市,市监测站,细颗粒物(PM2.5),67,52,51,48,37,170,75,75,75,13,12,14,11,0.7,0.6
2023-09-09T01:00:00,2303A,115.8554,32.8605,阜阳市,开发区,颗粒物(PM10),53,55,54,36,37,174,77,77,77,16,15,10,9,0.6,0.6
2023-09-09T01:00:00,2307A,116.5079,31.737,六安市,监测大楼,,48,48,41,23,20,149,112,112,112,14,14,6,5,0.6,0.6
2023-09-09T01:00:00,2308A,116.4738,31.7643,六安市,皖西学院,颗粒物(PM10),52,53,48,18,21,157,126,126,126,16,16,10,8,0.6,0.5
2023-09-09T01:00:00,2309A,116.4996,31.7905,六安市,朝阳厂,颗粒物(PM10),52,54,45,32,26,178,116,116,116,20,14,12,9,0.7,0.6
2023-09-09T01:00:00,2310A,116.5567,31.7886,六安市,开发区,颗粒物(PM10),64,77,56,29,28,172,89,89,89,20,13,6,7,0.7,0.5
2023-09-09T01:00:00,2311A,115.8072,33.8399,亳州市,污水处理厂,,50,50,45,32,27,144,82,82,82,10,8,24,13,0.7,0.6
2023-09-09T01:00:00,2312A,115.7789,33.8518,亳州市,三国揽胜宫,,50,50,42,32,29,141,87,87,87,13,12,11,9,0.7,0.7
2023-09-09T01:00:00,2314A,117.47,30.6618,池州市,池州学院,,38,38,45,24,28,168,107,107,107,12,16,5,6,0.6,0.7
2023-09-09T01:00:00,2316A,118.7581,30.9454,宣城市,鳌峰子站,,36,36,39,24,23,132,65,65,65,38,18,4,5,0.5,0.5
2023-09-09T01:00:00,2317A,118.7385,30.9743,宣城市,敬亭山子站,,42,41,40,29,24,124,62,62,62,26,21,10,8,0.5,0.6
2023-09-09T01:00:00,2318A,118.7173,30.9427,宣城市,开发区子站,,36,36,37,24,23,134,72,72,72,32,16,6,7,0.4,0.4
2023-09-09T01:00:00,2319A,119.0141,25.4325,莆田市,荔城区仓后路,,24,24,21,11,10,77,66,66,66,10,10,8,8,0.7,0.6
2023-09-09T01:00:00,2320A,119.0015,25.4553,莆田市,莆田市监测站,,38,38,20,8,6,83,57,57,57,2,3,7,7,0.5,0.5
2023-09-09T01:00:00,2321A,119.1119,25.4561,莆田市,涵江区六中,,30,26,22,8,8,102,96,96,96,5,7,8,7,0.6,0.6
2023-09-09T01:00:00,2322A,119.1013,25.3215,莆田市,秀屿区政府,,28,26,20,8,7,88,88,88,88,6,7,7,7,0.6,0.6
2023-09-09T01:00:00,2323A,118.981,25.4792,莆田市,东圳水库,,,,,,,,,,,,,,,,
2023-09-09T01:00:00,2324A,117.6211,26.2625,三明市,三钢,,29,29,26,15,17,87,33,33,33,12,15,6,7,0.6,0.6
2023-09-09T01:00:00,2325A,117.635,26.2714,三明市,三明二中,,27,27,25,11,11,87,40,40,40,13,17,3,4,0.6,0.7
2023-09-09T01:00:00,2326A,117.6028,26.2378,三明市,三元区政府,,37,37,37,13,14,88,11,11,11,21,19,7,8,0.9,0.8
2023-09-09T01:00:00,2327A,117.7275,26.3108,三明市,洋溪,,,,,,,,,,,,,,,,
2023-09-09T01:00:00,2331A,118.0966,26.6761,南平市,茫荡山,,,,,,,,,,,,,,,,
2023-09-09T01:00:00,2332A,118.1681,26.6369,南平市,南平市监测站,,27,27,27,7,9,88,35,35,35,13,11,4,5,0.6,0.6
2023-09-09T01:00:00,2333A,118.1825,26.6489,南平市,南平铝业有限公司,,27,27,28,11,11,86,21,21,21,24,12,6,6,0.6,0.6
2023-09-09T01:00:00,2334A,118.1756,26.6272,南平市,南平七中,,18,18,25,4,9,88,32,32,32,9,5,4,5,0.6,0.6
2023-09-09T01:00:00,2335A,117.0189,25.1181,龙岩市,龙岩师专,,,,,,,,,,,,,,,,
2023-09-09T01:00:00,2336A,117.0217,25.1033,龙岩市,龙岩市监测站,,23,23,22,14,12,81,44,44,44,12,10,11,9,0.4,0.4
2023-09-09T01:00:00,2337A,117.0258,25.0661,龙岩市,闽西职业技术学院,,50,50,27,14,11,80,11,11,11,27,11,14,9,0.3,0.4
2023-09-09T01:00:00,2338A,117.0196,25.0306,龙岩市,龙岩学院,,33,33,25,13,9,80,21,21,21,9,10,5,5,0.3,0.4
2023-09-09T01:00:00,2339A,119.5001,26.6946,宁德市,金涵水库,,,,,,,,,,,,,,,,
2023-09-09T01:00:00,2341A,119.5388,26.6612,宁德市,宁德市监测站,,22,22,25,13,13,103,36,36,36,11,11,4,5,0.6,0.6
2023-09-09T01:00:00,2342A,117.3102,29.3867,景德镇市,王港中学,,21,21,23,13,15,98,23,23,23,6,5,4,4,0.2,0.2
2023-09-09T01:00:00,2343A,117.2117,29.2933,景德镇市,老干部活动中心,细颗粒物(PM2.5),57,43,34,40,25,102,18,18,18,25,11,4,4,0.3,0.2
2023-09-09T01:00:00,2344A,117.1894,29.2789,景德镇市,兽医站,,33,33,29,16,21,108,19,19,19,24,11,6,6,0.4,0.4
2023-09-09T01:00:00,2345A,117.1547,29.2617,景德镇市,台达陶瓷,,48,48,30,28,23,112,28,28,28,17,16,6,14,0.3,0.4
2023-09-09T01:00:00,2346A,117.2461,29.2956,景德镇市,陶研所,颗粒物(PM10),55,60,38,30,16,100,18,18,18,17,11,4,4,0.3,0.3
2023-09-09T01:00:00,2347A,114.0997,27.5002,萍乡市,武功山,,9,1,4,6,4,74,24,24,24,4,3,6,8,0.3,0.3
2023-09-09T01:00:00,2348A,113.8385,27.6434,萍乡市,中医院,,50,31,28,35,21,112,68,68,68,11,11,34,20,0.6,0.6
2023-09-09T01:00:00,2349A,113.8493,27.6253,萍乡市,市政府车库,,39,37,35,27,20,109,29,29,29,27,17,13,20,0.8,1.3
2023-09-09T01:00:00,2350A,113.8676,27.6435,萍乡市,市环保局,,48,48,29,27,18,109,62,62,62,11,11,24,14,0.4,0.5
2023-09-09T01:00:00,2351A,113.866,27.6198,萍乡市,安源区政府,,48,32,29,33,18,113,44,44,44,26,14,12,12,0.8,0.6
2023-09-09T01:00:00,2352A,115.0861,27.9317,新余市,北岗,,35,31,27,24,19,112,29,29,29,12,9,21,16,0.6,0.6
2023-09-09T01:00:00,2353A,114.9886,27.8431,新余市,飞宇,颗粒物(PM10),53,56,46,26,21,107,54,54,54,21,16,22,14,0.5,0.5
2023-09-09T01:00:00,2354A,114.9231,27.8246,新余市,第二水厂,颗粒物(PM10),52,53,42,26,21,91,48,48,48,22,19,8,7,0.2,0.4
2023-09-09T01:00:00,2355A,114.9308,27.8036,新余市,市气象局,颗粒物(PM10),53,56,40,31,22,110,55,55,55,21,11,15,12,0.9,0.7
2023-09-09T01:00:00,2357A,116.9822,28.1136,鹰潭市,龙虎山,,23,20,22,16,15,131,25,25,25,4,3,3,5,0.2,0.3
2023-09-09T01:00:00,2358A,117.0564,28.2642,鹰潭市,新监测站,,16,16,39,10,23,146,36,36,36,10,9,1,8,0.2,0.4
2023-09-09T01:00:00,2359A,117.0311,28.2475,鹰潭市,财苑宾馆,,27,27,39,3,20,151,32,32,32,18,11,3,9,0.3,0.4
2023-09-09T01:00:00,2360A,117.0222,28.2264,鹰潭市,体育馆,,23,23,36,12,18,145,43,43,43,7,9,5,6,0.4,0.3
2023-09-09T01:00:00,2361A,117.0017,28.2131,鹰潭市,三川水表,,23,22,36,16,19,140,44,44,44,1,7,3,5,0.4,0.4
2023-09-09T01:00:00,2362A,114.9017,25.9149,赣州市,通天岩,,,,,,,,,,,,,,,,
2023-09-09T01:00:00,2363A,114.9367,25.8664,赣州市,地委,,37,37,31,17,14,92,13,13,13,18,9,14,12,0.8,0.9
2023-09-09T01:00:00,2364A,114.9461,25.8481,赣州市,气象台,,21,21,25,14,15,108,17,17,17,19,13,10,9,0.6,0.6
2023-09-09T01:00:00,2365A,114.9322,25.8333,赣州市,市图书馆,,25,16,47,17,16,97,40,40,40,9,12,12,9,0.6,0.5
2023-09-09T01:00:00,2366A,114.8905,25.8471,赣州市,华坚鞋城,,50,50,37,21,17,103,39,39,39,8,10,13,5,1.0,0.7
2023-09-09T01:00:00,2367A,114.9754,27.0803,吉安市,红声器材厂,,37,37,33,16,14,92,38,38,38,11,11,7,8,0.5,0.6
2023-09-09T01:00:00,2368A,114.9658,27.0999,吉安市,市森林工业局,,32,32,27,21,15,89,25,25,25,18,8,18,16,0.5,0.5
2023-09-09T01:00:00,2369A,114.99,27.1312,吉安市,市环境监测站,,35,35,27,20,13,84,29,29,29,16,11,17,14,0.7,0.6
2023-09-09T01:00:00,2370A,115.0093,27.0968,吉安市,青原区法院,,37,37,31,17,16,95,33,33,33,14,14,17,17,0.6,0.6
2023-09-09T01:00:00,2371A,114.3408,27.8064,宜春市,槟榔水业,,44,44,33,30,18,114,32,32,32,19,15,4,2,0.9,0.9
2023-09-09T01:00:00,2373A,114.3956,27.7844,宜春市,市石油公司,,49,49,43,30,24,124,16,16,16,20,15,3,7,0.7,0.8
2023-09-09T01:00:00,2374A,114.3703,27.7914,宜春市,市气象局,,40,37,41,28,24,129,54,54,54,13,16,5,9,0.6,0.7
2023-09-09T01:00:00,2375A,114.4013,27.8074,宜春市,市广电局,颗粒物(PM10),51,51,38,29,23,139,64,64,64,19,12,24,11,0.8,0.8
2023-09-09T01:00:00,2376A,116.2127,28.0814,抚州市,桐源党溪,,40,29,28,28,18,107,11,11,11,16,8,1,2,0.6,0.6
2023-09-09T01:00:00,2377A,116.3544,27.9831,抚州市,市站,,49,49,41,24,24,123,32,32,32,23,17,4,4,0.5,0.4
2023-09-09T01:00:00,2378A,116.3565,27.963,抚州市,血防站,颗粒物(PM10),51,52,41,29,20,128,50,50,50,7,10,7,5,0.7,0.6
2023-09-09T01:00:00,2379A,116.3564,28.0007,抚州市,采茶剧团,,,,34,,19,42,,21,,,15,,4,,0.9
2023-09-09T01:00:00,2380A,116.385,27.9647,抚州市,医学分院,,35,35,36,17,19,132,40,40,40,15,15,15,9,0.6,0.6
2023-09-09T01:00:00,2381A,118.005,28.4572,上饶市,百草园,,,,27,,14,18,,24,,,19,,8,,0.8
2023-09-09T01:00:00,2382A,117.9756,28.4436,上饶市,市监测站,,39,39,35,21,19,147,81,81,81,16,9,7,7,0.4,0.4
2023-09-09T01:00:00,2383A,117.9519,28.4628,上饶市,凤凰光学,,47,47,39,27,20,141,80,80,80,19,16,6,7,0.4,0.3
2023-09-09T01:00:00,2385A,114.17,35.9019,鹤壁市,市监测站,颗粒物(PM10),62,73,62,30,34,162,48,48,48,42,26,5,7,0.7,0.7
2023-09-09T01:00:00,2386A,114.2956,35.7511,鹤壁市,市交警支队,颗粒物(PM10),61,71,55,22,29,167,34,34,34,60,32,14,6,0.8,0.6
2023-09-09T01:00:00,2387A,114.2878,35.7306,鹤壁市,迎宾馆,颗粒物(PM10),53,56,54,36,32,171,37,37,37,54,35,17,8,0.8,0.8
2023-09-09T01:00:00,2389A,113.836,35.311,新乡市,环保西院,,50,43,57,35,32,157,14,14,14,65,25,8,12,0.8,0.7
2023-09-09T01:00:00,2390A,113.884,35.272,新乡市,开发区,,39,37,45,27,27,160,85,85,85,22,22,5,4,0.5,0.6
2023-09-09T01:00:00,2391A,113.883,35.303,新乡市,环保东院,颗粒物(PM10),53,55,56,20,28,156,96,96,96,23,25,7,6,0.6,0.6
2023-09-09T01:00:00,2392A,115.0312,35.7636,濮阳市,环保局,"颗粒物(PM10),细颗粒物(PM2.5)",52,54,52,36,32,189,101,101,101,21,15,7,8,0.6,0.6
2023-09-09T01:00:00,2394A,115.0574,35.7609,濮阳市,油田运输公司,颗粒物(PM10),59,68,62,39,37,191,96,96,96,22,17,10,10,0.6,0.6
2023-09-09T01:00:00,2395A,115.0866,35.7754,濮阳市,油田物探公司,细颗粒物(PM2.5),78,72,71,57,42,189,89,89,89,21,18,8,12,0.6,0.6
2023-09-09T01:00:00,2396A,113.8276,34.0159,许昌市,监测站,颗粒物(PM10),58,66,48,33,24,138,72,72,72,30,22,5,6,0.6,0.3
2023-09-09T01:00:00,2398A,113.7906,33.9953,许昌市,开发区,颗粒物(PM10),59,68,47,34,25,143,59,59,59,28,19,4,4,0.6,0.5
2023-09-09T01:00:00,2399A,114.051,33.5699,漯河市,三五一五工厂,颗粒物(PM10),56,61,46,31,25,146,108,108,108,12,12,12,11,0.6,0.5
2023-09-09T01:00:00,2400A,114.0055,33.5698,漯河市,漯河大学,颗粒物(PM10),57,64,42,25,23,154,101,101,101,21,15,11,11,0.7,0.5
2023-09-09T01:00:00,2401A,114.0138,33.5828,漯河市,市水利局,细颗粒物(PM2.5),57,56,46,40,29,148,120,120,120,10,11,14,11,0.6,0.5
2023-09-09T01:00:00,2402A,114.0261,33.5698,漯河市,市广电局,颗粒物(PM10),56,61,48,36,24,149,113,113,113,12,14,8,8,0.7,0.5
2023-09-09T01:00:00,2404A,112.5224,33.0122,南阳市,瓦房庄,颗粒物(PM10),52,53,47,28,25,140,107,107,107,12,12,5,5,0.5,0.5
2023-09-09T01:00:00,2405A,112.5003,32.9735,南阳市,汉画馆,颗粒物(PM10),51,51,43,24,23,145,108,108,108,12,13,6,6,0.6,0.5
2023-09-09T01:00:00,2406A,112.5573,33.027,南阳市,气象站,颗粒物(PM10),54,57,47,25,21,135,102,102,102,13,11,7,8,0.7,0.6
2023-09-09T01:00:00,2407A,112.5481,32.9689,南阳市,理工学院,颗粒物(PM10),57,63,44,31,25,144,98,98,98,13,9,5,5,0.4,0.4
2023-09-09T01:00:00,2408A,115.6702,34.4285,商丘市,环境监测站,颗粒物(PM10),51,52,48,28,27,147,96,96,96,12,12,13,8,0.6,0.5
2023-09-09T01:00:00,2409A,115.6458,34.4045,商丘市,粮食局,"颗粒物(PM10),细颗粒物(PM2.5)",52,54,46,36,32,137,87,87,87,14,10,19,8,0.5,0.5
2023-09-09T01:00:00,2410A,115.6293,34.3948,商丘市,睢阳区环保局,颗粒物(PM10),58,66,55,33,29,144,90,90,90,14,12,13,8,0.5,0.5
2023-09-09T01:00:00,2420A,114.0189,32.9656,驻马店市,市一纸厂,颗粒物(PM10),54,58,41,31,18,154,89,89,89,21,14,12,13,0.5,0.6
2023-09-09T01:00:00,2421A,114.0114,33.015,驻马店市,市彩印厂,颗粒物(PM10),55,60,47,33,26,157,105,105,105,14,13,8,7,0.4,0.4
2023-09-09T01:00:00,2422A,113.9976,32.9771,驻马店市,天方二分厂,颗粒物(PM10),55,59,45,33,31,155,98,98,98,18,11,13,10,0.5,0.3
2023-09-09T01:00:00,2423A,115.0601,30.2313,黄石市,沈家营,,48,48,50,33,21,179,75,75,75,34,16,18,9,0.8,0.5
2023-09-09T01:00:00,2424A,115.0817,30.2006,黄石市,陈家湾,细颗粒物(PM2.5),53,42,42,37,22,163,103,103,103,6,8,10,9,0.6,0.5
2023-09-09T01:00:00,2426A,114.8988,30.2019,黄石市,铁山,,43,43,37,22,22,187,87,87,87,28,16,10,11,0.6,0.7
2023-09-09T01:00:00,2427A,115.0307,30.2092,黄石市,团城山,,45,45,46,14,17,181,126,126,126,5,10,8,9,0.3,0.4
2023-09-09T01:00:00,2428A,111.0419,32.395,十堰市,武当山,,30,29,26,21,17,116,78,78,78,5,6,7,7,0.8,0.8
2023-09-09T01:00:00,2429A,110.78,32.6494,十堰市,滨河新村,颗粒物(PM10),52,53,51,28,31,116,44,44,44,19,19,7,7,0.7,0.7
2023-09-09T01:00:00,2430A,110.7258,32.6389,十堰市,刘家沟,,40,40,49,17,30,128,35,35,35,10,8,7,7,0.9,0.8
2023-09-09T01:00:00,2431A,110.8839,32.5714,十堰市,铁二处,,36,36,40,25,24,130,46,46,46,5,7,5,6,0.7,0.7
2023-09-09T01:00:00,2432A,112.155,32.0197,襄阳市,襄城运动路,颗粒物(PM10),54,58,53,17,22,144,44,44,44,34,20,7,10,0.6,0.5
2023-09-09T01:00:00,2433A,112.1392,32.0564,襄阳市,樊城新华路,颗粒物(PM10),59,67,61,30,28,158,72,72,72,24,25,8,10,0.5,0.5
2023-09-09T01:00:00,2434A,112.1825,32.1142,襄阳市,高新管委会,,42,42,62,23,32,159,107,107,107,11,23,9,8,0.8,0.8
2023-09-09T01:00:00,2435A,112.2106,32.0903,襄阳市,襄州航空路,颗粒物(PM10),54,58,60,17,25,137,96,96,96,13,26,6,7,0.6,0.6
2023-09-09T01:00:00,2436A,114.8938,30.3994,鄂州市,市政府,,31,31,35,18,18,153,76,76,76,20,11,11,5,1.1,0.7
2023-09-09T01:00:00,2437A,114.8989,30.3714,鄂州市,赵家坝,,46,46,41,24,20,156,81,81,81,19,17,8,7,0.9,0.6
2023-09-09T01:00:00,2439A,112.2014,31.0481,荆门市,竹园小学,颗粒物(PM10),56,62,55,29,26,162,52,52,52,28,20,9,10,0.8,0.6
2023-09-09T01:00:00,2440A,112.1969,30.9891,荆门市,掇刀,,40,40,44,26,23,174,37,37,37,40,16,10,9,0.6,0.5
2023-09-09T01:00:00,2441A,112.2213,31.0386,荆门市,石化一小,颗粒物(PM10),52,54,56,27,25,173,64,64,64,29,17,8,10,0.9,0.5
2023-09-09T01:00:00,2443A,113.9153,30.9285,孝感市,文化路,,36,24,32,25,22,143,112,112,112,9,13,8,8,0.5,0.6
2023-09-09T01:00:00,2444A,113.942,30.9075,孝感市,东城区,,42,38,35,29,18,151,121,121,121,10,14,6,8,0.5,0.6
2023-09-09T01:00:00,2446A,114.9028,30.4742,黄冈市,职工中心,颗粒物(PM10),51,52,40,31,24,158,73,73,73,17,6,12,10,0.8,0.7
2023-09-09T01:00:00,2447A,114.3175,29.8142,咸宁市,森林公园,,32,27,32,20,18,164,102,102,102,9,6,6,6,0.7,0.7
2023-09-09T01:00:00,2448A,114.3107,29.8454,咸宁市,市发改委,,32,21,26,21,17,186,102,102,102,6,6,10,11,0.5,0.5
2023-09-09T01:00:00,2449A,114.2936,29.8566,咸宁市,咸安区政府,,35,24,31,19,22,184,109,109,109,8,11,13,12,0.5,0.6
2023-09-09T01:00:00,2451A,113.3583,31.7275,随州市,市委党校,,36,36,37,19,21,142,90,90,90,8,7,8,7,0.7,0.7
2023-09-09T01:00:00,2452A,113.3833,31.6908,随州市,市林业局,,35,27,32,20,22,158,110,110,110,8,11,5,5,0.7,0.7
2023-09-09T01:00:00,2453A,113.3983,31.7308,随州市,市立交桥水厂,,32,28,30,22,20,132,73,73,73,12,13,9,8,0.7,0.7
