timepoint,stationcode,longitude,latitude,area,positionname,primarypollutant,aqi,pm10,pm10_24h,pm2_5,pm2_5_24h,o3,o3_24h,o3_8h,o3_8h_24h,no2,no2_24h,so2,so2_24h,co,co_24h
2024-10-18T1400,2566A,102.1879,31.914,阿坝藏族羌族自治州,州农科所,,19,19,28,9,9,55,,30,30,10,11,10,11,0,0.1
2024-10-18T1400,2568A,102.2502,31.8896,阿坝藏族羌族自治州,马师校,,17,12,21,7,16,52,,25,25,10,14,5,4,0.2,0.2
2024-10-18T1400,3994A,102.2165,31.9024,阿坝藏族羌族自治州,马尔康中学西区,,,19,24,12,14,49,,30,30,,14,9,4,0.4,0.4
2024-10-18T1400,2695A,80.292,41.1694,阿克苏地区,电视台,,37,37,114,14,18,90,,,,10,11,8,4,0.4,0.3
2024-10-18T1400,2696A,80.2613,41.1551,阿克苏地区,艺术中心,,29,,114,12,20,92,,78,56,8,14,4,4,0.4,0.4
2024-10-18T1400,2204A,105.6467,38.8363,阿拉善盟,西城区西花园,,42,32,32,29,28,99,,69,69,11,12,7,8,1.0,1
2024-10-18T1400,2205A,105.6985,38.8411,阿拉善盟,蒙二幼,,29,,19,20,17,92,,74,74,11,12,10,9,0.8,0.8
2024-10-18T1400,2206A,105.724,38.8516,阿拉善盟,环保局新楼,,30,22,15,16,12,93,,76,76,10,11,9,9,0.7,0.7
2024-10-18T1400,2708A,88.1264,47.8517,阿勒泰地区,市站,,19,19,27,8,16,21,,22,20,14,14,7,7,0.2,0.6
2024-10-18T1400,2630A,80.1161,32.5,阿里地区,阿里监测站,,29,11,13,6,7,92,,72,63,1,10,5,9,0.4,0.4
2024-10-18T1400,3192A,80.0903,32.5028,阿里地区,阿里藏医院,,29,8,17,3,5,92,,84,75,3,6,6,7,0.4,0.4
2024-10-18T1400,2642A,109.0318,32.6537,安康市,香溪洞,,31,31,20,14,13,84,,49,49,5,6,8,8,0.4,0.5
2024-10-18T1400,2643A,109.0281,32.6939,安康市,安康市监测站,,,,31,,23,,,57,,,15,,7,,0.7
2024-10-18T1400,2644A,109.0072,32.6975,安康市,汉滨区检察院,,27,26,36,17,22,85,,50,50,8,15,8,7,0.5,0.6
2024-10-18T1400,2291A,117.0809,30.5177,安庆市,环科院,,50,50,35,26,20,95,,48,48,16,33,11,9,0.8,0.8
2024-10-18T1400,2292A,117.0331,30.5119,安庆市,马山宾馆,,35,35,33,22,21,96,,50,50,18,34,9,8,0.9,1
2024-10-18T1400,2294A,116.9896,30.6145,安庆市,安庆大学,,40,39,33,28,21,94,,57,57,14,21,10,9,0.8,0.8
2024-10-18T1400,3173A,117.0598,30.5351,安庆市,市人大,,42,42,33,25,20,96,,50,50,14,34,12,10,0.8,0.8
2024-10-18T1400,3122A,105.9606,26.2611,安顺市,伍家关,,20,18,17,14,16,62,,46,46,3,5,4,3,0.4,0.5
2024-10-18T1400,3123A,105.9408,26.2431,安顺市,凤凰山,,23,17,21,12,17,73,,51,51,3,7,7,7,0.3,0.3
2024-10-18T1400,3124A,105.9439,26.2564,安顺市,金钟山,,24,20,23,14,19,76,,56,56,2,6,9,9,0.5,0.5
2024-10-18T1400,3125A,105.8983,26.2481,安顺市,娄家坡,,23,17,16,15,16,72,,58,58,4,5,6,5,0.4,0.5
2024-10-18T1400,1818A,114.4839,36.0621,安阳市,棉研所,,32,26,19,19,34,100,,66,66,16,20,5,5,0.6,0.6
2024-10-18T1400,1819A,114.3551,36.1017,安阳市,红庙街,,28,25,39,17,32,88,,52,52,6,21,2,2,0.6,0.7
2024-10-18T1400,1820A,114.361,36.0681,安阳市,银杏小区,,,,33,12,20,93,,54,54,5,10,2,1,0.5,0.7
2024-10-18T1400,3141A,114.3922,36.0878,安阳市,信访局,,28,26,32,15,22,89,,54,54,3,11,3,3,0.5,0.5
2024-10-18T1400,3669A,114.4705,36.0637,安阳市,左辅环卫站,,39,39,36,20,18,93,,60,60,10,16,2,2,0.4,0.5
2024-10-18T1400,3703A,114.2917,36.0949,安阳市,安钢职工学校,,32,22,49,22,41,88,,51,51,11,26,3,4,1.0,1
2024-10-18T1400,1748A,123.044,41.1196,鞍山市,深沟寺,,27,27,79,11,49,40,,79,49,16,20,6,6,0.4,0.7
2024-10-18T1400,1749A,123.011,41.0931,鞍山市,太阳城,,19,18,83,13,52,44,,96,68,15,20,8,9,0.3,0.6
2024-10-18T1400,1750A,123.0485,41.1442,鞍山市,太平,,23,23,82,11,50,38,,66,30,18,31,10,10,0.4,0.8
2024-10-18T1400,1751A,122.9642,41.0971,鞍山市,铁西三道街,,41,41,111,13,65,22,,15,15,33,50,32,13,2.2,1.6
2024-10-18T1400,1752A,122.9341,41.0833,鞍山市,铁西工业园区,,31,31,114,11,69,42,,28,28,18,49,11,12,0.4,1
2024-10-18T1400,1753A,123.022,41.0821,鞍山市,明达新区,,20,20,88,12,57,40,,77,49,14,18,5,6,0.4,0.8
2024-10-18T1400,1754A,123.1289,41.0228,鞍山市,千山,,,,63,,46,,,64,,,15,,7,,0.4
2024-10-18T1400,2195A,107.4212,40.761,巴彦淖尔市,附二中,颗粒物(PM10),57,64,59,14,30,67,,55,54,5,19,4,4,0.4,0.6
2024-10-18T1400,2196A,107.37,40.7372,巴彦淖尔市,市环保大楼,颗粒物(PM10),51,52,60,23,23,68,,57,56,5,12,3,4,0.4,0.5
2024-10-18T1400,1956A,86.1472,41.7538,巴音郭楞蒙古自治州,孔雀公园,,35,35,67,11,20,85,,78,78,9,26,2,4,0.2,0.3
2024-10-18T1400,1957A,86.1972,41.7166,巴音郭楞蒙古自治州,棉纺厂,颗粒物(PM10),53,55,70,3,20,84,,71,71,8,23,1,3,0.2,0.3
2024-10-18T1400,1958A,86.2357,41.7173,巴音郭楞蒙古自治州,经济开发区,颗粒物(PM10),51,51,60,19,20,81,,72,72,8,11,3,3,0.2,0.3
2024-10-18T1400,2914A,106.7677,31.8794,巴中市,苏山坪,,25,13,28,10,15,78,,48,48,6,9,4,4,0.3,0.4
2024-10-18T1400,3182A,106.7656,31.8545,巴中市,丽阳花园,,25,15,25,11,16,77,,39,39,7,17,5,5,0.4,0.6
2024-10-18T1400,3183A,106.7418,31.8654,巴中市,圣泉水务公司,,26,17,22,13,16,81,,35,35,6,17,4,4,0.5,0.6
2024-10-18T1400,3616A,106.7616,31.8344,巴中市,市中心医院,,26,18,24,11,15,81,,38,38,6,15,5,5,0.5,0.6
2024-10-18T1400,2235A,122.7911,45.6077,白城市,洮北区环保局,,27,27,41,3,18,17,,39,27,8,20,5,6,0.6,0.5
2024-10-18T1400,2236A,122.8738,45.5725,白城市,市环保局,,25,19,38,6,15,78,,68,68,5,23,3,5,0.5,0.5
2024-10-18T1400,2231A,126.4219,41.9171,白山市,喜丰,颗粒物(PM10),63,76,147,42,56,23,,9,9,36,58,8,19,1.0,1.1
2024-10-18T1400,2232A,126.4077,41.9419,白山市,环保局,颗粒物(PM10),62,73,109,43,55,36,,8,8,18,53,9,12,0.9,1.2
2024-10-18T1400,2647A,104.1724,36.5446,白银市,第三小学,,30,24,32,21,25,96,,84,80,13,16,24,29,0.7,0.7
2024-10-18T1400,2648A,104.1465,36.5482,白银市,动力公司,,,,30,,22,95,,73,73,,14,15,19,,0.7
2024-10-18T1400,2512A,106.6103,23.9011,百色市,市监测站,,50,50,39,32,23,114,,48,48,10,15,20,21,0.8,0.9
2024-10-18T1400,2513A,106.6538,23.8859,百色市,市中心血站,,46,46,41,28,25,104,,44,44,11,18,16,17,0.8,0.8
2024-10-18T1400,3406A,106.6085,23.8798,百色市,祈福高中,颗粒物(PM10),55,60,49,30,25,108,,44,44,9,21,17,16,0.9,0.9
2024-10-18T1400,2270A,117.396,32.939,蚌埠市,工人疗养院,,28,28,38,6,15,71,,65,65,10,16,5,6,0.5,0.5
2024-10-18T1400,2271A,117.3605,32.9427,蚌埠市,百货大楼,,29,29,40,6,16,64,,61,60,9,15,5,5,0.4,0.4
2024-10-18T1400,2273A,117.4185,32.8911,蚌埠市,蚌埠学院,,25,24,27,14,17,78,,66,66,7,11,6,6,0.5,0.5
2024-10-18T1400,2274A,117.3533,32.9673,蚌埠市,淮上区政府,,31,31,34,13,18,63,,62,62,10,14,7,7,0.6,0.6
2024-10-18T1400,2275A,117.3145,32.8977,蚌埠市,高新区,,27,27,28,13,17,59,,59,59,14,15,6,6,0.5,0.6
2024-10-18T1400,3715A,117.3092,32.9314,蚌埠市,蚌埠田家炳中学,,29,29,38,6,17,56,,55,55,10,14,5,7,0.4,0.5
2024-10-18T1400,1585A,109.8756,40.6532,包头市,市环境监测站,,19,16,20,8,14,58,,57,52,12,30,6,6,0.5,0.7
2024-10-18T1400,1587A,109.9991,40.5842,包头市,包头八中,,22,10,35,3,23,69,,56,56,10,36,3,19,0.5,0.9
2024-10-18T1400,1588A,109.8538,40.6821,包头市,青山宾馆,,19,12,13,3,8,60,,57,52,9,25,8,7,0.5,0.7
2024-10-18T1400,1589A,109.8642,40.6288,包头市,惠龙物流,,18,16,22,3,17,56,,55,50,12,32,6,8,0.5,0.8
2024-10-18T1400,1590A,110.0377,40.5546,包头市,东河鸿龙湾,,25,20,27,3,19,78,,56,56,7,30,6,12,0.4,0.7
2024-10-18T1400,3283A,109.9154,40.5685,包头市,滨河大厦,,19,11,27,3,17,58,,53,53,14,31,10,14,0.4,0.6
2024-10-18T1400,3419A,109.9447,40.6261,包头市,包头市委党校,,17,6,23,3,16,54,,57,54,10,34,4,7,0.5,0.9
2024-10-18T1400,3683A,109.8331,40.6576,包头市,昆区政府,,19,14,15,3,9,58,,60,51,10,19,6,6,0.4,0.6
2024-10-18T1400,1930A,107.185,34.3063,宝鸡市,庙沟村,,37,37,48,25,29,110,,47,47,7,16,8,7,0.7,0.7
2024-10-18T1400,1931A,107.0708,34.3017,宝鸡市,竹园沟,,49,41,45,34,30,108,,32,32,13,19,7,7,0.6,0.5
2024-10-18T1400,1932A,107.1906,34.3672,宝鸡市,三陆医院,颗粒物(PM10),51,52,63,28,40,106,,33,33,12,27,6,7,0.7,0.8
2024-10-18T1400,1933A,107.1431,34.3547,宝鸡市,监测站,,48,48,60,26,34,103,,35,35,16,25,7,7,0.7,0.7
2024-10-18T1400,1934A,107.1186,34.3739,宝鸡市,技工学校,,50,50,63,28,56,107,,37,37,17,24,7,7,0.7,0.8
2024-10-18T1400,1935A,107.3906,34.3528,宝鸡市,陈仓区环保局家属楼,,46,46,60,30,57,110,,35,35,12,32,9,9,0.6,0.7
2024-10-18T1400,1936A,107.2058,34.3497,宝鸡市,文理学院,,40,40,57,22,35,112,,37,37,12,24,8,8,0.6,0.6
2024-10-18T1400,1937A,107.2386,34.3622,宝鸡市,三迪小学,,45,45,62,29,41,112,,37,37,16,31,8,8,0.7,0.8
2024-10-18T1400,1051A,115.493,38.8632,保定市,游泳馆,细颗粒物(PM2.5),73,55,75,53,60,79,,37,37,9,29,4,5,0.6,0.6
2024-10-18T1400,1052A,115.5213,38.8959,保定市,华电二区,细颗粒物(PM2.5),67,63,73,48,50,72,,30,30,16,34,5,6,0.9,0.9
2024-10-18T1400,1053A,115.4713,38.9108,保定市,接待中心,细颗粒物(PM2.5),69,60,82,50,59,72,,33,33,14,33,3,3,0.7,0.6
2024-10-18T1400,1054A,115.4612,38.8416,保定市,地表水厂,细颗粒物(PM2.5),65,62,72,47,54,79,,37,37,13,31,3,3,0.5,0.5
2024-10-18T1400,3581A,115.31981,38.95208,保定市,满城区生态环境分局,细颗粒物(PM2.5),73,56,74,53,48,76,,51,51,15,30,4,4,0.6,0.5
2024-10-18T1400,3582A,115.47694,38.76408,保定市,清苑区第二中学,细颗粒物(PM2.5),70,58,80,51,52,75,,39,39,21,42,5,6,0.7,0.7
2024-10-18T1400,3583A,115.62909,39.02311,保定市,徐水物探局,细颗粒物(PM2.5),92,,65,68,55,60,,28,28,17,35,4,4,0.7,0.6
2024-10-18T1400,4004A,115.4202,38.8656,保定市,双鹰农机,细颗粒物(PM2.5),64,58,78,46,52,75,,36,36,20,37,1,2,0.7,0.7
2024-10-18T1400,4034A,115.5150,38.8590,保定市,植保所站,细颗粒物(PM2.5),77,56,76,56,51,77,,34,34,15,35,7,5,0.6,0.6
2024-10-18T1400,2594A,99.1678,25.1081,保山市,市环境监测站,,36,36,30,16,17,91,,50,50,6,7,6,4,0.4,0.5
2024-10-18T1400,2595A,99.1711,25.1328,保山市,市环保局,,31,6,30,3,14,97,,58,58,4,5,6,4,0.5,0.5
2024-10-18T1400,1866A,109.2262,21.588,北海市,牛尾岭水库,,,15,12,8,6,38,,29,29,,7,4,5,0.6,0.6
2024-10-18T1400,1867A,109.1436,21.4086,北海市,海滩公园,,24,9,16,3,5,76,,50,49,3,5,6,6,0.6,0.6
2024-10-18T1400,1868A,109.0981,21.4661,北海市,新市环保局,,20,16,16,7,8,64,,44,44,8,8,4,5,0.5,0.5
2024-10-18T1400,1869A,109.1778,21.5233,北海市,北海工业园,,22,22,22,12,12,54,,38,38,11,10,6,8,0.5,0.5
2024-10-18T1400,3400A,109.1911,21.4415,北海市,龙潭自来水厂,,23,11,15,6,9,73,,42,42,3,6,7,7,0.5,0.5
2024-10-18T1400,1001A,116.3621,39.8784,北京市,万寿西宫,,32,27,69,22,45,40,,27,27,23,31,1,2,0.8,0.8
2024-10-18T1400,1002A,116.2202,40.2915,北京市,定陵,,12,,50,3,44,36,,33,31,4,10,3,2,0.5,0.7
2024-10-18T1400,1003A,116.4174,39.9289,北京市,东四,,38,34,63,26,40,41,,34,34,30,30,3,3,0.9,0.8
2024-10-18T1400,1004A,116.4072,39.8863,北京市,天坛,,38,31,64,26,44,41,,31,31,29,30,3,2,0.8,0.7
2024-10-18T1400,1005A,116.462,39.9365,北京市,农展馆,,35,29,56,24,37,41,,30,30,18,24,3,3,0.7,0.7
2024-10-18T1400,1006A,116.3392,39.9295,北京市,官园,,18,15,71,12,43,44,,23,23,20,37,3,4,0.8,0.9
2024-10-18T1400,1007A,116.2878,39.9611,北京市,海淀万柳,,14,9,67,7,42,43,,23,23,19,40,3,3,0.5,0.6
2024-10-18T1400,1008A,116.6636,40.135,北京市,顺义新城,,19,6,47,3,33,59,,46,46,7,17,3,3,0.5,0.6
2024-10-18T1400,1009A,116.6275,40.3275,北京市,怀柔镇,,17,6,36,3,27,53,,37,37,6,18,3,3,0.5,0.7
2024-10-18T1400,1010A,116.2296,40.217,北京市,昌平镇,,14,6,64,3,37,42,,24,24,7,31,3,3,0.5,0.7
2024-10-18T1400,1011A,116.3966,39.9821,北京市,奥体中心,,29,24,64,20,41,38,,20,20,27,39,3,3,0.8,0.8
2024-10-18T1400,1012A,116.184,39.9136,北京市,古城,,20,6,87,3,54,62,,28,28,8,34,3,3,0.5,0.8
2024-10-18T1400,3281A,115.9718,40.4529,北京市,延庆夏都,,32,,32,22,25,25,,44,37,19,10,3,3,0.7,0.6
2024-10-18T1400,3417A,117.0709,40.1465,北京市,平谷新城,,30,26,65,21,49,61,,38,38,6,14,1,1,0.6,0.6
2024-10-18T1400,3418A,116.8336,40.4095,北京市,密云新城,,18,6,36,3,23,56,,50,50,4,9,3,3,0.4,0.5
2024-10-18T1400,3671A,116.088,39.9726,北京市,门头沟三家店,,15,7,47,6,35,45,,25,25,16,29,4,3,0.5,0.6
2024-10-18T1400,3672A,116.1541,39.8204,北京市,丰台云岗,,14,8,71,3,46,42,,24,24,11,27,3,3,0.4,0.7
2024-10-18T1400,3673A,116.6804,39.9081,北京市,通州东关,,19,11,68,7,40,60,,32,32,8,33,3,2,0.5,0.6
2024-10-18T1400,3674A,115.9577,39.7603,北京市,房山燕山,,25,6,63,3,38,77,,56,56,5,14,3,3,0.4,0.5
2024-10-18T1400,3675A,116.4672,39.7733,北京市,大兴旧宫,,32,28,60,22,40,55,,28,28,14,31,3,3,0.6,0.7
2024-10-18T1400,3694A,115.986,40.4563,北京市,延庆石河营,,32,,30,22,26,22,,38,32,19,8,3,3,0.6,0.5
2024-10-18T1400,3695A,116.6151,40.3053,北京市,怀柔新城,,17,6,38,3,28,53,,39,39,4,12,3,3,0.4,0.6
2024-10-18T1400,3696A,116.2545,39.8768,北京市,丰台小屯,,15,11,74,8,50,45,,32,32,13,29,1,1,0.7,0.9
2024-10-18T1400,3697A,116.84,40.3844,北京市,密云镇,,17,6,39,3,25,53,,49,49,6,13,3,4,0.4,0.5
2024-10-18T1400,1761A,123.8275,41.3064,本溪市,大峪,,32,28,84,22,48,48,,29,28,16,32,10,10,0.9,1
2024-10-18T1400,1762A,123.7567,41.3325,本溪市,溪湖,,38,38,102,21,59,47,,28,28,18,37,10,12,0.5,1.3
2024-10-18T1400,1763A,123.7169,41.3094,本溪市,彩屯,,35,31,95,24,61,30,,26,18,34,46,8,17,0.7,2
2024-10-18T1400,1764A,123.7669,41.2864,本溪市,东明,,24,24,71,15,46,45,,29,23,21,39,5,6,0.7,0.9
2024-10-18T1400,1765A,123.7992,41.2664,本溪市,新立屯,,23,16,60,16,31,45,,28,24,22,39,6,6,0.4,0.6
2024-10-18T1400,1766A,123.8142,41.3472,本溪市,威宁,,32,25,90,22,53,46,,23,23,20,37,7,8,0.7,0.9
2024-10-18T1400,2587A,105.2864,27.3125,毕节市,八中,,27,24,31,18,22,86,,42,42,8,13,6,6,0.5,0.6
2024-10-18T1400,2588A,105.31,27.2944,毕节市,师专,,26,26,39,17,26,78,,41,41,7,16,8,6,0.5,0.6
2024-10-18T1400,3537A,105.3631,27.3533,毕节市,长征村,,35,29,34,24,25,81,,49,49,7,10,7,7,0.5,0.6
2024-10-18T1400,1629A,118.0018,37.3617,滨州市,第二水厂,,28,,21,3,8,89,,82,82,10,17,4,5,0.3,0.1
2024-10-18T1400,1630A,117.9776,37.393,滨州市,北中新校,,28,6,25,3,9,88,,79,79,10,19,6,8,0.4,0.5
2024-10-18T1400,3514A,117.9378,37.3956,滨州市,中海酒店,,30,,18,3,10,96,,88,88,14,20,4,5,0.4,0.4
2024-10-18T1400,3515A,117.9378,37.3553,滨州市,开发区一中,,30,6,27,3,9,96,,89,89,11,18,5,6,0.6,0.6
2024-10-18T1400,3516A,118.0917,37.694,滨州市,金海六路,,30,6,27,3,9,95,,86,86,11,16,4,5,0.2,0.3
2024-10-18T1400,4028A,117.9956,37.3753,滨州市,滨州市西街道办事处,,29,,19,3,12,92,,83,83,12,19,6,7,0.3,0.4
2024-10-18T1400,2311A,115.8072,33.8399,亳州市,污水处理厂,,21,14,16,11,15,67,,44,44,6,9,3,3,0.4,0.6
2024-10-18T1400,2312A,115.7789,33.8518,亳州市,三国揽胜宫,,22,17,19,3,6,70,,47,47,8,11,2,3,0.3,0.4
2024-10-18T1400,3332A,115.7633,33.8034,亳州市,亳州学院,,22,11,18,7,13,70,,46,46,9,13,2,2,0.4,0.5
2024-10-18T1400,2693A,82.0485,44.8556,博尔塔拉蒙古自治州,市党校,,28,28,22,10,14,55,,35,35,12,11,6,4,0.4,0.4
2024-10-18T1400,2694A,82.0806,44.8969,博尔塔拉蒙古自治州,市环保局,,18,,24,11,11,56,,43,43,18,14,10,4,0.3,0.7
2024-10-18T1400,1071A,116.8842,38.2991,沧州市,沧县城建局,,33,24,63,23,47,75,,76,76,16,22,1,3,0.7,0.6
2024-10-18T1400,1072A,116.8584,38.3254,沧州市,电视转播站,,42,32,68,29,51,76,,80,80,16,22,3,4,0.6,0.5
2024-10-18T1400,1073A,116.8709,38.3228,沧州市,市环保局,,46,42,75,32,53,69,,74,74,20,23,3,3,0.6,0.6
2024-10-18T1400,3324A,116.8136,38.3004,沧州市,河北水利电力学院,细颗粒物(PM2.5),52,,65,36,56,77,,84,84,19,22,4,6,0.5,0.4
2024-10-18T1400,2622A,97.1806,31.1273,昌都市,昌都监测站,,20,11,9,3,6,64,,51,50,6,10,8,8,0.5,0.5
2024-10-18T1400,3719A,97.1714,31.1406,昌都市,昌都会议中心,,,8,7,3,5,67,,59,57,4,4,,8,0.5,0.4
2024-10-18T1400,2690A,88.1236,43.8886,昌吉回族自治州,天山天池,,20,6,4,3,3,62,,52,52,4,6,3,4,0.5,0.5
2024-10-18T1400,2692A,87.2717,44.0297,昌吉回族自治州,新区政务中心,,19,6,14,6,12,60,,57,55,11,10,5,5,0.5,0.5
2024-10-18T1400,3613A,87.3095,44.0142,昌吉回族自治州,亚心广场,,19,6,9,3,3,58,,60,55,18,15,2,3,0.6,0.5
2024-10-18T1400,1119A,125.3325,43.9166,长春市,食品厂,,,20,54,8,37,58,,40,37,,32,5,8,0.3,0.7
2024-10-18T1400,1120A,125.2863,43.9027,长春市,客车厂,,21,21,51,6,47,48,,39,35,19,29,19,11,0.2,0.6
2024-10-18T1400,1121A,125.2841,43.8463,长春市,邮电学院,,17,15,54,9,35,54,,42,40,18,35,9,12,0.2,0.6
2024-10-18T1400,1122A,125.3716,43.8772,长春市,劳动公园,,20,17,53,3,36,61,,47,47,15,29,8,10,0.3,0.7
2024-10-18T1400,1123A,125.3297,43.8805,长春市,园林处,,19,19,54,8,40,53,,41,41,11,26,6,10,0.3,0.7
2024-10-18T1400,1124A,125.4605,43.79,长春市,净月潭,,18,13,46,6,36,56,,44,44,12,19,6,6,0.3,0.7
2024-10-18T1400,1125A,125.7194,43.515,长春市,甩湾子,,,,,,,,,,,,,,,,
2024-10-18T1400,1126A,125.3863,43.8447,长春市,经开区环卫处,,18,13,54,6,38,55,,44,44,14,31,9,10,0.2,0.6
2024-10-18T1400,1127A,125.245,43.7783,长春市,高新区管委会,,18,9,49,3,39,57,,42,42,11,26,6,7,0.2,0.6
2024-10-18T1400,1128A,125.1761,43.8325,长春市,岱山公园,,18,11,53,3,44,56,,40,40,8,35,4,6,0.2,0.6
2024-10-18T1400,1335A,113.0833,28.2325,长沙市,经开区环保局,颗粒物(PM10),52,53,48,27,26,111,,42,42,12,25,5,4,0.6,0.7
2024-10-18T1400,1336A,112.8872,28.2189,长沙市,高开区环保局,,46,45,51,32,32,101,,38,38,7,28,4,5,0.8,0.9
2024-10-18T1400,1337A,113.0792,28.2053,长沙市,马坡岭,"颗粒物(PM10),细颗粒物(PM2.5)",53,56,48,37,32,115,,44,44,10,20,4,5,0.6,0.7
2024-10-18T1400,1338A,112.9394,28.19,长沙市,湖南师范大学,颗粒物(PM10),53,55,56,34,36,98,,39,39,10,23,3,4,0.7,0.7
2024-10-18T1400,1339A,113.0178,28.1322,长沙市,雨花区环保局,颗粒物(PM10),53,55,46,29,24,108,,39,39,13,23,6,5,0.9,0.9
2024-10-18T1400,1340A,112.9792,28.2597,长沙市,伍家岭,,,50,47,,20,103,,29,29,5,30,4,3,0.6,0.8
2024-10-18T1400,1341A,113.0014,28.1944,长沙市,火车新站,颗粒物(PM10),55,59,56,34,34,104,,36,36,9,33,5,5,0.9,1.1
2024-10-18T1400,1342A,112.9844,28.1178,长沙市,天心区环保局,细颗粒物(PM2.5),64,65,56,46,34,105,,35,35,18,29,4,4,0.9,0.9
2024-10-18T1400,1343A,112.8908,28.1308,长沙市,湖南中医药大学,颗粒物(PM10),51,51,54,12,33,104,,36,36,9,28,5,6,0.9,1
2024-10-18T1400,1344A,112.9581,28.3611,长沙市,沙坪,,28,26,34,19,20,85,,42,42,4,11,8,7,0.7,0.8
2024-10-18T1400,1727A,113.1147,36.1547,长治市,清华站,,28,,18,19,15,67,,38,38,23,24,9,6,0.9,0.8
2024-10-18T1400,1728A,113.1031,36.1989,长治市,监测站,,27,27,23,17,13,64,,34,34,25,25,13,9,1.6,1.5
2024-10-18T1400,1730A,113.0886,36.2125,长治市,审计局,,25,17,16,17,12,67,,33,33,15,16,11,6,1.0,0.9
2024-10-18T1400,1731A,113.0844,36.1856,长治市,长治八中,,25,25,21,17,12,69,,35,35,20,22,10,6,1.3,1.2
2024-10-18T1400,2845A,113.1569,36.1911,长治市,德盛苑,,25,,15,17,10,65,,39,39,24,21,7,4,1.0,0.9
2024-10-18T1400,3568A,113.06,36.0464,长治市,向阳小学,,,42,35,21,23,75,,40,40,,27,,9,1.0,0.9
2024-10-18T1400,3569A,112.8792,36.3144,长治市,屯留一中,,28,24,28,14,17,88,,59,59,15,24,12,12,0.7,1
2024-10-18T1400,3570A,113.235,36.3489,长治市,潞城四中,,28,18,16,16,18,87,,46,46,16,22,6,6,1.0,1
2024-10-18T1400,1854A,111.6975,28.9703,常德市,市二中,,29,24,19,6,9,90,,40,40,7,17,3,3,0.7,0.9
2024-10-18T1400,1857A,111.7158,29.1456,常德市,白鹤山,,,,,,,,,,,,,,,,
2024-10-18T1400,3138A,111.7153,29.0289,常德市,武陵区永安,,,13,19,3,9,86,,49,49,6,15,,3,0.5,0.7
2024-10-18T1400,3139A,111.6892,28.9881,常德市,鼎城区玉霞,,30,8,21,3,10,93,,44,44,4,18,5,6,0.6,0.9
2024-10-18T1400,3140A,111.6625,29.0531,常德市,武陵区长庚,,29,9,19,3,10,90,,49,49,8,18,3,4,0.6,0.9
2024-10-18T1400,1196A,119.9633,31.762,常州市,市监测站,,35,29,54,18,25,112,,68,68,9,28,7,8,0.6,0.7
2024-10-18T1400,1200A,119.9468,31.7069,常州市,武进监测站,,33,26,41,15,26,105,,68,68,4,18,9,10,0.5,0.6
2024-10-18T1400,1201A,119.9255,31.9087,常州市,安家,,34,29,43,20,25,107,,66,66,9,25,7,7,0.6,0.7
2024-10-18T1400,3002A,119.9805,31.8174,常州市,行政中心,,35,35,50,18,20,107,,68,68,4,20,11,11,0.5,0.6
2024-10-18T1400,3003A,120.0522,31.7748,常州市,经开区,,39,32,43,22,26,123,,70,70,8,28,7,8,0.2,0.4
2024-10-18T1400,3010A,119.9025,31.7964,常州市,钟楼,,32,20,47,17,24,102,,67,67,9,28,6,6,0.5,0.6
2024-10-18T1400,3429A,119.8598,31.7066,常州市,武进经发区,,33,17,50,10,21,103,,65,65,4,23,5,6,0.7,0.7
2024-10-18T1400,3430A,119.5826,31.7245,常州市,金坛城区,,33,13,33,10,18,105,,68,68,4,13,6,7,0.7,0.7
2024-10-18T1400,2220A,120.4318,41.5881,朝阳市,西梁,,18,12,57,3,58,56,,80,54,8,19,9,11,0.4,0.8
2024-10-18T1400,2221A,120.4521,41.5646,朝阳市,河畔小区,,18,,52,12,48,56,,98,58,11,14,7,9,0.6,1
2024-10-18T1400,2222A,120.4176,41.5648,朝阳市,八里堡,,24,24,67,13,57,56,,79,56,13,23,7,9,0.5,1
2024-10-18T1400,2223A,120.3806,41.5969,朝阳市,农业园区,,19,9,66,3,73,60,,51,51,8,33,5,7,0.4,0.9
2024-10-18T1400,1705A,116.6367,23.6719,潮州市,西园路,,45,39,36,31,21,111,,70,70,7,9,5,5,0.5,0.6
2024-10-18T1400,3026A,116.6183,23.6608,潮州市,市政府,,39,36,40,22,20,123,,81,81,8,11,6,7,0.4,0.5
2024-10-18T1400,4036A,116.6461,23.6761,潮州市,金山,,38,38,36,25,22,120,,76,76,5,9,8,8,0.5,0.5
2024-10-18T1400,2472A,113.0073,25.9061,郴州市,马头岭,,26,25,40,15,17,82,,62,62,8,15,8,11,0.5,0.5
2024-10-18T1400,2473A,113.0116,25.8226,郴州市,市职中,,42,33,45,29,30,79,,58,58,9,19,11,10,0.8,0.7
2024-10-18T1400,2474A,113.0161,25.8001,郴州市,兴隆步行街,,48,47,46,33,28,85,,69,69,11,21,8,10,0.7,0.7
2024-10-18T1400,2475A,113.0383,25.8071,郴州市,市审计局,,41,41,38,28,29,74,,66,66,10,15,7,12,0.8,0.7
2024-10-18T1400,2476A,113.0348,25.7759,郴州市,市环保局,,50,50,40,32,26,73,,67,67,9,14,9,16,0.8,0.6
2024-10-18T1400,1431A,103.9728,30.7236,成都市,金泉两河,,45,45,39,23,21,61,,43,43,25,31,2,2,0.7,0.7
2024-10-18T1400,1432A,104.176,30.6872,成都市,十里店,,48,36,30,33,20,61,,32,32,24,29,2,2,0.6,0.6
2024-10-18T1400,1433A,104.079,30.5706,成都市,三瓦窑,,42,41,30,29,25,36,,21,21,46,38,1,2,0.7,0.5
2024-10-18T1400,1434A,104.1114,30.63,成都市,沙河铺,,30,30,33,19,19,39,,23,23,30,29,4,3,0.6,0.6
2024-10-18T1400,1437A,104.0786,30.6531,成都市,君平街,,46,46,39,30,23,66,,37,37,26,31,4,4,0.6,0.6
2024-10-18T1400,1438A,103.613,31.0283,成都市,灵岩寺,,,,,,,,,,,,,,,,
2024-10-18T1400,2880A,104.0239,30.65639,成都市,大石西路,,35,35,34,22,20,64,,38,38,23,25,3,3,0.7,0.7
2024-10-18T1400,3136A,104.2725,30.5589,成都市,龙泉驿区区政府,,28,14,17,14,13,88,,56,56,12,13,2,2,0.7,0.7
2024-10-18T1400,3357A,104.0106,30.6931,成都市,金博路,,49,39,32,34,18,52,,33,33,28,32,2,2,0.6,0.6
2024-10-18T1400,3359A,104.0578,30.5225,成都市,华阳,,39,39,27,27,16,56,,32,32,26,22,1,1,0.7,0.6
2024-10-18T1400,3487A,104.2394,30.5319,成都市,车城东七路,,48,48,29,31,19,73,,51,51,27,23,2,1,0.8,0.7
2024-10-18T1400,3488A,104.3853,30.7453,成都市,青白江技师分院,,27,17,23,9,14,84,,36,36,11,23,6,3,0.7,0.7
2024-10-18T1400,3489A,104.0789,30.4072,成都市,科学城,细颗粒物(PM2.5),65,56,23,47,19,58,,54,54,33,13,5,4,0.8,0.6
2024-10-18T1400,4011A,103.8506,30.6947,成都市,光华大道三段,,38,38,34,24,18,54,,47,47,19,24,3,3,0.5,0.5
2024-10-18T1400,1062A,117.9531,40.9081,承德市,铁路,,20,20,88,7,49,46,,18,18,16,50,3,6,0.2,0.7
2024-10-18T1400,1063A,117.9392,40.9763,承德市,中国银行,,14,10,70,3,39,42,,24,24,17,39,1,2,0.2,0.6
2024-10-18T1400,1064A,117.9503,40.928,承德市,开发区,,33,31,81,23,43,44,,27,27,22,39,3,5,0.3,0.7
2024-10-18T1400,1065A,117.8051,40.9655,承德市,文化中心,,23,23,73,3,37,35,,19,19,19,41,3,2,0.3,0.6
2024-10-18T1400,1066A,117.9268,41.0026,承德市,离宫,,30,,75,21,53,43,,27,27,5,20,3,3,0.2,0.5
2024-10-18T1400,2314A,117.47,30.6618,池州市,池州学院,,41,41,33,21,18,96,,50,50,9,28,8,7,0.6,0.6
2024-10-18T1400,3237A,117.4918,30.6617,池州市,展览馆,,,48,35,23,18,88,,46,46,12,30,7,6,,0.6
2024-10-18T1400,3333A,117.5627,30.695,池州市,第八中学,,31,31,34,21,19,80,,46,46,14,28,6,7,0.5,0.6
2024-10-18T1400,3334A,117.5038,30.6243,池州市,第十二中学,,44,44,34,23,20,79,,39,39,14,29,5,5,0.7,0.9
2024-10-18T1400,1744A,118.9233,42.2816,赤峰市,松山一中,,,,49,,28,63,,47,47,11,38,,13,0.3,1
2024-10-18T1400,1745A,118.9576,42.2728,赤峰市,哈达街,,20,9,42,3,31,64,,45,45,11,24,8,11,0.4,0.9
2024-10-18T1400,1746A,118.8788,42.2554,赤峰市,天义路,,22,18,38,3,24,70,,48,48,11,33,6,8,0.2,0.6
2024-10-18T1400,3058A,119.2658,42.0353,赤峰市,银河街,,20,12,75,7,50,64,,57,57,11,27,10,15,0.3,0.9
2024-10-18T1400,3286A,118.9359,42.3147,赤峰市,桥北物流园区,,24,13,51,3,29,74,,57,57,13,32,6,14,0.6,1
2024-10-18T1400,2521A,107.3476,22.4136,崇左市,市环保局江州分局,,31,31,22,12,8,91,,38,38,5,11,4,4,0.5,0.5
2024-10-18T1400,2522A,107.3702,22.3707,崇左市,城南新区,,,24,17,12,9,88,,35,35,,9,5,5,0.6,0.6
2024-10-18T1400,2298A,118.3093,32.3153,滁州市,老年大学,,26,,24,14,19,83,,66,63,4,22,8,6,0.4,0.5
2024-10-18T1400,2299A,118.3244,32.2786,滁州市,人大宾馆,,28,14,33,7,24,89,,67,63,9,20,6,6,0.3,0.4
2024-10-18T1400,3207A,118.3118,32.3038,滁州市,市政府原办公楼,,26,,29,18,27,83,,66,60,6,24,5,6,0.4,0.6
2024-10-18T1400,3331A,118.3267,32.2634,滁州市,图书馆,,29,11,25,3,20,90,,68,63,6,20,5,5,0.4,0.5
2024-10-18T1400,2605A,101.5482,25.0441,楚雄彝族自治州,州环境监测站,,,21,21,16,16,73,,44,44,,17,8,26,0.4,0.6
2024-10-18T1400,2606A,101.538,25.0492,楚雄彝族自治州,市经济开发区,,29,23,27,20,20,78,,38,38,4,18,6,12,0.5,0.6
2024-10-18T1400,2548A,107.5277,31.2827,达州市,达州职业技术学院,,21,,6,3,5,67,,31,31,8,23,5,4,0.7,0.8
2024-10-18T1400,2549A,107.5086,31.2186,达州市,市环境监测站,,25,25,20,3,3,61,,34,34,19,26,9,5,0.7,0.6
2024-10-18T1400,2550A,107.4988,31.2132,达州市,凤凰小区,,21,19,16,12,7,67,,38,38,16,23,13,7,0.8,0.7
2024-10-18T1400,2551A,107.5082,31.1986,达州市,达县机关宾馆,,27,27,19,12,10,61,,31,31,21,32,8,5,0.7,0.7
2024-10-18T1400,2552A,107.4644,31.2124,达州市,市政中心,,34,34,23,12,7,51,,34,34,30,27,34,7,1.9,0.8
2024-10-18T1400,2614A,100.1542,25.7054,大理白族自治州,大理市环境监测站,,27,27,27,16,18,73,,59,59,5,9,7,7,0.4,0.4
2024-10-18T1400,2615A,100.2171,25.5811,大理白族自治州,大理古城,,30,26,26,3,15,93,,59,59,6,12,7,7,0.4,0.4
2024-10-18T1400,1109A,121.612,38.9741,大连市,甘井子,细颗粒物(PM2.5),74,79,41,54,24,112,,73,72,16,22,7,7,0.6,0.5
2024-10-18T1400,1110A,121.565,38.9511,大连市,周水子,细颗粒物(PM2.5),79,74,40,58,25,104,,65,62,21,27,8,10,0.8,0.7
2024-10-18T1400,1111A,121.5637,38.8845,大连市,星海三站,细颗粒物(PM2.5),78,86,36,57,21,110,,71,65,17,16,6,7,0.6,0.4
2024-10-18T1400,1112A,121.6302,38.9117,大连市,青泥洼桥,细颗粒物(PM2.5),77,95,45,56,24,104,,70,63,18,18,7,8,0.8,0.7
2024-10-18T1400,1113A,121.6251,38.8638,大连市,傅家庄,细颗粒物(PM2.5),77,75,33,56,21,104,,72,71,14,15,7,8,0.9,0.7
2024-10-18T1400,1114A,121.5213,38.8661,大连市,七贤岭,细颗粒物(PM2.5),82,100,39,60,22,106,,74,68,19,16,8,7,0.5,0.4
2024-10-18T1400,1115A,121.2529,38.8061,大连市,旅顺,细颗粒物(PM2.5),73,59,25,53,16,114,,86,83,17,17,5,6,0.6,0.5
2024-10-18T1400,1116A,121.7485,39.1311,大连市,金州,细颗粒物(PM2.5),68,69,37,49,25,99,,76,76,14,13,6,7,0.8,0.7
2024-10-18T1400,1117A,121.7811,39.0496,大连市,开发区,细颗粒物(PM2.5),65,72,42,47,26,105,,77,77,12,15,10,10,0.5,0.5
2024-10-18T1400,1118A,121.9762,39.0631,大连市,双D港,细颗粒物(PM2.5),68,53,30,49,25,118,,91,91,12,12,6,8,0.8,0.7
2024-10-18T1400,1789A,124.81117,46.03138,大庆市,大同区,,35,35,46,10,24,66,,56,56,2,22,3,4,0.2,0.4
2024-10-18T1400,1790A,125.129,46.533,大庆市,龙凤区,颗粒物(PM10),61,72,45,13,22,68,,57,57,8,38,3,5,0.3,0.5
2024-10-18T1400,1791A,124.902,46.408,大庆市,红岗区,,47,47,32,14,16,73,,61,61,4,18,5,6,0.2,0.4
2024-10-18T1400,1792A,125.153,46.586,大庆市,萨尔图区,,44,44,40,9,15,67,,54,54,7,23,6,7,0.2,0.3
2024-10-18T1400,1793A,124.9042,46.6215,大庆市,让胡路区,,43,43,34,20,22,68,,55,55,4,19,5,6,0.3,0.4
2024-10-18T1400,3481A,125.141,46.634,大庆市,萨区政府监测点,细颗粒物(PM2.5),52,40,32,36,19,73,,58,58,2,21,4,6,0.3,0.4
2024-10-18T1400,1721A,113.3819,40.1097,大同市,果树场,,23,19,26,3,26,71,,50,50,11,28,6,7,0.5,0.8
2024-10-18T1400,1723A,113.2994,40.0758,大同市,云冈宾馆,,25,6,32,3,27,78,,61,58,11,23,6,7,0.3,0.7
2024-10-18T1400,1724A,113.3444,40.0917,大同市,大同大学,,23,13,25,7,21,72,,60,54,11,23,11,12,0.3,0.6
2024-10-18T1400,1725A,113.2661,40.1269,大同市,安家小村,,24,11,31,3,26,76,,75,63,12,23,11,11,0.3,0.6
2024-10-18T1400,1726A,113.2711,40.0844,大同市,教育学院,,24,17,35,8,23,74,,65,55,12,24,7,7,0.4,0.8
2024-10-18T1400,3282A,113.3397,40.0597,大同市,大同市卫生学校,,24,14,31,3,23,76,,64,56,10,21,7,7,0.3,0.8
2024-10-18T1400,3565A,113.1367,40.1122,大同市,云冈站,,26,22,44,3,26,81,,63,63,10,20,9,9,0.3,0.7
2024-10-18T1400,3566A,113.1186,40.2556,大同市,图书馆,,24,15,52,11,39,74,,61,60,11,19,8,11,0.3,0.8
2024-10-18T1400,3567A,113.5931,40.0461,大同市,区一中,,25,16,20,10,14,79,,62,62,12,18,14,15,0.3,0.7
2024-10-18T1400,3676A,113.2802,40.0995,大同市,第二人民医院,,24,20,32,8,25,76,,67,60,12,24,10,10,0.4,0.7
2024-10-18T1400,2269A,124.1069,50.4097,大兴安岭地区,科技局,,,19,19,14,16,,,61,58,2,5,7,8,0.3,0.3
2024-10-18T1400,3663A,124.1164,50.4278,大兴安岭地区,红旗社区,,16,12,13,3,6,49,,59,54,2,6,1,4,0.4,0.4
2024-10-18T1400,1600A,124.3303,40.0625,丹东市,江湾东路,"颗粒物(PM10),细颗粒物(PM2.5)",57,63,62,40,37,68,,50,50,20,33,8,10,0.6,0.8
2024-10-18T1400,1601A,124.4256,40.1503,丹东市,临江后街,颗粒物(PM10),54,57,58,34,31,78,,47,47,13,31,6,8,0.6,0.7
2024-10-18T1400,1602A,124.3933,40.1461,丹东市,元宝山,颗粒物(PM10),54,57,45,33,22,60,,44,44,16,22,4,5,0.6,0.6
2024-10-18T1400,1603A,124.3633,40.1092,丹东市,民主桥,颗粒物(PM10),54,57,56,32,28,68,,38,38,24,39,5,6,0.6,0.8
2024-10-18T1400,3541A,109.5726,19.5167,儋州市,第一中学子站,,14,7,11,3,4,44,,34,34,2,3,4,5,0.4,0.4
2024-10-18T1400,3542A,109.5567,19.5187,儋州市,东坡学校子站,,20,20,9,7,4,54,,35,35,2,3,4,5,0.3,0.4
2024-10-18T1400,2616A,98.5842,24.428,德宏傣族景颇族自治州,德宏州监测站,,38,34,32,26,18,79,,39,39,12,16,17,8,0.5,0.5
2024-10-18T1400,3677A,98.5881,24.4368,德宏傣族景颇族自治州,芒市人民政府综合楼,,,83,34,20,17,77,,33,33,,12,16,6,0.5,0.6
2024-10-18T1400,1901A,104.4239,31.1208,德阳市,东山公园,,45,45,37,27,16,81,,43,37,11,15,4,3,0.6,0.6
2024-10-18T1400,1902A,104.3826,31.1317,德阳市,西小区,颗粒物(PM10),55,60,45,34,26,71,,20,20,21,32,4,3,0.6,0.7
2024-10-18T1400,1904A,104.3553,31.1091,德阳市,耐火材料厂,颗粒物(PM10),61,71,44,37,26,42,,23,23,45,32,6,6,0.4,0.6
2024-10-18T1400,3639A,104.4019,31.1244,德阳市,市教育局,,47,47,34,22,20,75,,23,23,13,26,4,2,0.7,0.7
2024-10-18T1400,1622A,116.3032,37.4674,德州市,儿童乐园,,30,17,29,14,18,95,,74,74,14,18,8,8,0.6,0.6
2024-10-18T1400,1624A,116.2991,37.4451,德州市,监理站,,32,,29,14,21,101,,78,78,14,16,10,10,0.5,0.5
2024-10-18T1400,3066A,116.2721,37.4379,德州市,九衢泉纯净水厂,,31,9,30,9,18,97,,76,76,14,18,8,8,0.6,0.6
2024-10-18T1400,3371A,116.3728,37.4403,德州市,开发区人民医院,,30,,31,14,17,96,,67,67,12,17,8,8,0.6,0.5
2024-10-18T1400,3372A,116.3572,37.4094,德州市,太阳城中学,,30,14,30,12,18,96,,71,71,19,27,9,10,0.7,0.6
2024-10-18T1400,3511A,116.5652,37.3319,德州市,陵城艺术中心,,29,12,21,3,11,92,,78,78,13,13,6,8,0.6,0.5
2024-10-18T1400,2621A,99.7056,27.8317,迪庆藏族自治州,迪庆州站,,23,15,29,14,17,71,,42,42,9,13,7,13,0.3,0.4
2024-10-18T1400,3180A,99.7136,27.8094,迪庆藏族自治州,质量技术监督局,,25,19,26,3,17,77,,44,44,10,14,7,7,0.4,0.5
2024-10-18T1400,2663A,104.6241,35.5734,定西市,东关小学,,43,43,50,27,27,90,,33,33,9,22,8,9,0.5,0.5
2024-10-18T1400,2664A,104.6194,35.5934,定西市,供电公司,,49,49,51,26,30,77,,25,25,13,27,7,8,0.5,0.6
2024-10-18T1400,1389A,113.7547,23.0494,东莞市,莞城梨川,臭氧1小时,58,46,38,20,18,166,,95,95,18,18,8,8,0.6,0.6
2024-10-18T1400,1390A,113.7944,23.0128,东莞市,东城石井,臭氧1小时,68,38,33,26,17,174,,97,97,16,19,7,7,0.6,0.6
2024-10-18T1400,1391A,113.7383,22.9658,东莞市,南城西平,,48,48,37,30,21,151,,76,76,18,23,11,11,0.6,0.6
2024-10-18T1400,3319A,113.7338,23.0381,东莞市,万江金泰,,,,37,,17,,,110,,,17,,8,,0.5
2024-10-18T1400,3626A,113.7533,23.0202,东莞市,南城元岭,,49,48,40,33,18,155,,82,82,12,17,7,7,0.7,0.7
2024-10-18T1400,3627A,113.7875,23.0457,东莞市,东城主山,臭氧1小时,80,58,45,24,19,184,,101,101,18,25,7,8,0.6,0.6
2024-10-18T1400,1666A,118.6614,37.4309,东营市,市环保局,,33,7,21,7,6,104,,98,98,6,13,2,4,0.2,0.2
2024-10-18T1400,3036A,118.6904,37.4338,东营市,开发区管委会,,35,13,22,3,7,112,,107,107,8,16,1,3,0.2,0.3
2024-10-18T1400,3365A,118.5719,37.565,东营市,垦利区民丰路,,30,6,20,3,8,96,,89,89,9,18,9,11,0.4,0.5
2024-10-18T1400,3498A,118.5055,37.8612,东营市,河口城区,,25,6,30,3,12,79,,69,69,7,11,4,7,0.6,0.7
2024-10-18T1400,3646A,118.4978,37.4623,东营市,胜利站,,,6,22,3,5,103,,96,96,8,16,,9,0.6,0.6
2024-10-18T1400,3734A,118.35,37.26,东营市,理想之城,,33,9,22,9,10,105,,97,97,9,17,2,3,0.3,0.3
2024-10-18T1400,1591A,110.0023,39.8129,鄂尔多斯市,综合楼,,31,24,18,3,9,98,,91,75,7,16,4,4,0.3,0.6
2024-10-18T1400,1592A,109.9486,39.8261,鄂尔多斯市,巴音孟克林场办事处,,27,22,18,7,11,84,,77,61,10,17,6,6,0.4,0.7
2024-10-18T1400,1593A,109.7736,39.5986,鄂尔多斯市,康泽苑,,30,17,21,3,11,93,,74,71,8,17,6,7,0.4,0.7
2024-10-18T1400,1594A,109.8119,39.5989,鄂尔多斯市,华泰汽车城,,29,19,22,9,17,92,,70,68,3,15,6,8,0.3,0.6
2024-10-18T1400,1595A,109.9734,39.7884,鄂尔多斯市,奥林花园,,27,19,21,3,13,85,,77,63,7,16,6,5,0.5,0.8
2024-10-18T1400,2436A,114.8938,30.3994,鄂州市,市政府,,34,28,29,11,15,107,,66,66,15,19,12,14,0.9,1.1
2024-10-18T1400,2437A,114.8989,30.3714,鄂州市,赵家坝,,,29,32,,12,115,,65,65,,16,14,10,0.8,1.1
2024-10-18T1400,3654A,114.8094,30.4089,鄂州市,精准医疗中心,,38,22,25,14,14,121,,75,75,6,17,9,9,0.8,1.1
2024-10-18T1400,2454A,109.4978,30.2981,恩施土家族苗族自治州,湖北民院,,32,20,27,10,14,100,,46,46,7,19,8,8,0.7,0.8
2024-10-18T1400,2455A,109.4707,30.2798,恩施土家族苗族自治州,州电力总公司,,30,14,26,3,13,93,,40,40,10,21,7,7,0.7,0.9
2024-10-18T1400,3549A,109.5061,30.3772,恩施土家族苗族自治州,龙凤新区,,28,10,17,6,10,87,,41,41,11,15,6,6,0.9,0.9
2024-10-18T1400,2499A,108.3411,21.6158,防城港市,沙万,,38,38,25,17,11,64,,43,43,19,22,20,12,0.8,0.8
2024-10-18T1400,2500A,108.3514,21.7731,防城港市,防城档案局,,22,14,24,11,11,70,,32,32,8,16,8,9,0.6,0.7
2024-10-18T1400,2501A,108.3506,21.6414,防城港市,大海花园,,23,22,23,13,10,73,,39,39,15,17,11,9,0.6,0.6
2024-10-18T1400,1371A,113.1294,23.0067,佛山市,湾梁,,44,44,37,20,14,89,,57,57,27,32,7,7,0.6,0.6
2024-10-18T1400,1372A,113.1083,23.0478,佛山市,华材职中,,35,31,36,24,18,79,,52,52,19,26,8,8,0.4,0.4
2024-10-18T1400,1373A,113.144,23.0453,佛山市,南海气象局,,,50,37,18,18,70,,47,47,12,26,7,8,,0.5
2024-10-18T1400,1374A,113.2881,22.8094,佛山市,顺德苏岗,,45,45,38,12,13,74,,47,47,18,25,8,8,0.5,0.5
2024-10-18T1400,1376A,112.8383,22.8678,佛山市,高明孔堂,,39,39,37,18,16,66,,54,54,16,15,5,5,0.6,0.6
2024-10-18T1400,1377A,112.8836,23.1588,佛山市,三水监测站,颗粒物(PM10),68,85,48,41,22,49,,32,32,72,45,7,7,0.6,0.6
2024-10-18T1400,1378A,112.867,23.185,佛山市,三水云东海,细颗粒物(PM2.5),78,72,44,57,26,49,,31,31,70,42,10,8,0.7,0.6
2024-10-18T1400,3625A,113.2544,22.7642,佛山市,容桂街道办,,24,24,29,14,16,70,,52,52,19,23,8,8,0.5,0.5
2024-10-18T1400,1280A,119.3903,26.0543,福州市,鼓山,,,,24,,18,,,65,,,4,,3,,0.3
2024-10-18T1400,1282A,119.2681,26.0504,福州市,师大,,35,21,44,11,27,112,,69,69,4,14,2,3,0.2,0.2
2024-10-18T1400,1283A,119.2984,26.1028,福州市,五四北路,,37,20,35,15,22,116,,67,67,11,14,3,2,0.3,0.3
2024-10-18T1400,1284A,119.2648,26.0768,福州市,杨桥西路,,33,20,39,9,23,103,,63,63,4,11,3,4,0.3,0.3
2024-10-18T1400,1285A,119.317,26.0746,福州市,紫阳,,48,48,44,21,25,138,,63,63,11,15,3,3,0.4,0.4
2024-10-18T1400,3048A,119.5799,26.0936,福州市,九龙,,29,29,30,14,19,81,,62,62,4,5,3,2,0.2,0.2
2024-10-18T1400,3526A,119.5189,25.9664,福州市,吴航,,25,22,30,13,19,78,,51,51,4,10,3,3,0.3,0.3
2024-10-18T1400,1755A,123.7977,41.8491,抚顺市,望花区,,22,,82,15,55,34,,34,30,12,36,6,12,0.4,1
2024-10-18T1400,1756A,123.9161,41.8822,抚顺市,顺城区,,28,28,127,13,76,34,,27,27,18,57,4,9,0.4,1.2
2024-10-18T1400,1757A,124.0436,41.8611,抚顺市,东洲区,,28,27,97,19,131,40,,27,27,10,38,7,8,0.4,0.9
2024-10-18T1400,1758A,123.9247,41.8642,抚顺市,新抚区,,22,21,121,15,72,40,,30,30,15,45,4,6,0.3,1
2024-10-18T1400,1759A,124.0972,41.8961,抚顺市,大伙房水库,,40,40,73,16,56,42,,38,38,13,27,7,8,0.5,0.8
2024-10-18T1400,1760A,123.7086,41.8391,抚顺市,沈抚新城,,22,22,77,14,53,35,,36,36,15,39,6,12,0.3,0.9
2024-10-18T1400,2376A,116.2127,28.0814,抚州市,桐源党溪,,39,39,47,22,26,83,,40,40,3,7,8,6,0.7,0.8
2024-10-18T1400,2377A,116.3544,27.9831,抚州市,市站,,44,44,40,19,24,80,,49,49,5,16,8,7,0.5,0.5
2024-10-18T1400,2378A,116.3565,27.963,抚州市,血防站,,42,42,41,21,23,88,,51,51,2,7,10,9,0.8,0.9
2024-10-18T1400,2379A,116.3564,28.0007,抚州市,采茶剧团,,36,36,40,19,26,83,,48,48,3,11,5,5,0.7,0.8
2024-10-18T1400,2380A,116.385,27.9647,抚州市,医学分院,,42,42,41,18,21,81,,46,46,5,13,3,4,0.8,0.9
2024-10-18T1400,2207A,121.6094,41.998,阜新市,工业园区,,26,26,67,6,31,63,,55,55,12,29,6,14,0.4,0.9
2024-10-18T1400,2208A,121.6697,42.0279,阜新市,长青街,,25,25,67,6,33,59,,53,53,13,24,5,12,0.2,0.6
2024-10-18T1400,2209A,121.6673,42.0705,阜新市,农业园区,,19,15,70,3,50,60,,56,54,9,20,6,11,0.1,0.5
2024-10-18T1400,2210A,121.6717,42.0224,阜新市,东苑,,23,23,59,3,32,60,,57,54,10,30,8,18,0.3,0.8
2024-10-18T1400,2211A,121.6506,42.0498,阜新市,玉龙新城,,20,,84,6,40,63,,56,56,11,27,7,13,0.2,0.5
2024-10-18T1400,2301A,115.8277,32.8929,阜阳市,市监测站,,21,21,26,10,19,63,,40,40,12,16,5,6,0.3,0.5
2024-10-18T1400,2303A,115.8554,32.8605,阜阳市,开发区,,20,19,27,3,11,62,,37,37,14,19,5,5,0.4,0.5
2024-10-18T1400,2875A,115.784,32.8892,阜阳市,阜阳职业技术学院,,20,16,20,13,18,63,,39,39,12,16,5,5,0.4,0.5
2024-10-18T1400,3468A,115.7901,32.8613,阜阳市,市规划展馆,,21,11,25,3,21,65,,42,42,7,11,5,5,0.4,0.5
2024-10-18T1400,3469A,115.836,32.9183,阜阳市,枣园社区,,21,17,26,3,21,67,,39,39,10,16,6,6,0.4,0.5
2024-10-18T1400,2669A,102.9099,34.9841,甘南藏族自治州,州政府,,30,,26,15,18,94,,46,46,1,22,10,10,0.4,0.5
2024-10-18T1400,3380A,102.8914,34.9617,甘南藏族自治州,甘肃民族师范学院,,30,6,22,3,14,94,,43,43,4,27,4,7,0.5,0.6
2024-10-18T1400,2570A,101.9603,30.0475,甘孜藏族自治州,水桥子,,,6,20,3,8,73,,30,30,1,20,6,6,,0.3
2024-10-18T1400,3065A,101.9533,29.9972,甘孜藏族自治州,州环保局,,25,9,15,8,5,78,,47,47,6,15,3,3,0.2,0.2
2024-10-18T1400,3414A,115.8347,28.932,赣江新区,桑海产业园,颗粒物(PM10),51,51,51,31,29,58,,34,34,18,37,13,12,0.4,0.5
2024-10-18T1400,2362A,114.9017,25.9149,赣州市,通天岩,,36,36,37,11,33,114,,87,87,5,9,2,2,0.9,0.3
2024-10-18T1400,2363A,114.9367,25.8664,赣州市,地委,,37,28,58,24,37,116,,71,71,6,23,4,6,1.1,1.2
2024-10-18T1400,2364A,114.9461,25.8481,赣州市,气象台,,36,28,53,23,39,115,,68,68,3,18,8,9,0.5,0.8
2024-10-18T1400,2365A,114.9322,25.8333,赣州市,市图书馆,,39,22,61,12,33,123,,70,70,6,24,3,6,0.7,0.9
2024-10-18T1400,2366A,114.8905,25.8471,赣州市,华坚鞋城,,,36,59,13,35,121,,59,59,,24,3,6,0.4,0.7
2024-10-18T1400,3109A,115.0093,25.8613,赣州市,赣县区卫计委,,35,,45,18,34,109,,69,69,9,20,5,6,0.5,0.7
2024-10-18T1400,2683A,106.2319,36.1417,固原市,马园,,26,,52,18,29,74,,52,52,13,24,7,7,0.6,0.5
2024-10-18T1400,2684A,106.2792,36.0022,固原市,监测站,,43,,34,30,33,73,,66,58,13,15,7,6,0.5,0.5
2024-10-18T1400,2685A,106.2375,36.0211,固原市,新区,,39,,33,27,30,80,,70,64,10,15,6,6,0.6,0.5
2024-10-18T1400,3522A,106.2177,35.9959,固原市,原州区十五小,,35,34,45,24,27,78,,72,64,11,18,6,7,0.7,0.6
2024-10-18T1400,2543A,106.6308,30.5278,广安市,小平旧居,,,,,,,,,,,,,,,,
2024-10-18T1400,2544A,106.6303,30.4576,广安市,市委,,27,22,25,8,14,85,,51,51,10,14,4,3,0.5,0.5
2024-10-18T1400,2545A,106.6271,30.4663,广安市,友谊中学,,26,10,20,9,14,82,,49,49,10,14,2,2,0.5,0.5
2024-10-18T1400,2547A,106.6388,30.4551,广安市,广电花园,,25,16,22,7,13,80,,47,47,11,14,2,1,0.4,0.4
2024-10-18T1400,2902A,106.6351,30.4865,广安市,北辰小学,,26,21,22,9,13,82,,47,47,15,15,3,2,0.8,0.7
2024-10-18T1400,2523A,105.8945,32.4535,广元市,黑石坡,,13,11,24,8,19,39,,15,15,7,12,7,9,0.4,0.5
2024-10-18T1400,2524A,105.821,32.4444,广元市,老城,,20,9,26,3,15,63,,31,31,6,26,3,2,0.6,0.7
2024-10-18T1400,2526A,105.8628,32.4287,广元市,监测站,,18,14,23,6,17,57,,31,31,11,17,2,3,0.5,0.6
2024-10-18T1400,3617A,105.8047,32.4166,广元市,经开区,,20,19,30,9,19,63,,30,30,7,25,3,5,0.6,0.7
2024-10-18T1400,1345A,113.2347,23.1423,广州市,广雅中学,,31,30,28,19,19,97,,57,57,28,32,6,6,0.8,0.8
2024-10-18T1400,1346A,113.2612,23.105,广州市,市五中,,42,42,38,26,22,97,,63,63,19,23,4,5,0.6,0.6
2024-10-18T1400,1348A,113.3478,23.0916,广州市,广东商学院,,,38,40,,21,120,,66,66,19,34,6,6,,0.6
2024-10-18T1400,1349A,113.4332,23.1047,广州市,市八十六中,,,,48,,18,148,,62,62,26,45,6,5,0.7,0.7
2024-10-18T1400,1350A,113.3505,22.9483,广州市,番禺中学,,33,33,34,21,18,94,,67,67,19,26,6,7,0.5,0.5
2024-10-18T1400,1351A,113.2146,23.3916,广州市,花都师范,,50,50,50,26,21,98,,60,60,28,37,5,5,0.9,0.8
2024-10-18T1400,1352A,113.2597,23.1331,广州市,市监测站,,39,39,36,19,18,104,,59,59,19,27,5,6,0.6,0.6
2024-10-18T1400,1353A,113.5618,23.312,广州市,九龙镇镇龙,,,,51,,25,126,,62,62,14,28,,7,0.6,0.6
2024-10-18T1400,1354A,113.2765,23.1544,广州市,麓湖,,34,34,40,18,20,91,,51,51,12,31,3,4,0.6,0.6
2024-10-18T1400,1355A,113.443,23.3035,广州市,帽峰山森林公园,,,42,30,29,15,101,,58,58,,24,,7,0.6,0.6
2024-10-18T1400,2846A,113.3221,23.1322,广州市,体育西,,40,40,40,20,19,121,,62,62,16,29,5,5,0.6,0.7
2024-10-18T1400,3298A,113.5717,23.5491,广州市,从化街口,,35,35,34,22,18,97,,56,56,9,24,6,6,0.6,0.7
2024-10-18T1400,3299A,113.3472,23.3692,广州市,白云竹料,颗粒物(PM10),59,67,53,33,26,108,,56,56,18,34,6,6,0.6,0.6
2024-10-18T1400,3300A,113.2981,23.237,广州市,白云嘉禾,颗粒物(PM10),54,57,43,26,20,98,,59,59,36,37,7,6,0.8,0.8
2024-10-18T1400,3301A,113.4256,23.1716,广州市,黄埔科学城,颗粒物(PM10),53,56,42,25,21,104,,58,58,29,32,5,6,0.8,0.7
2024-10-18T1400,3302A,113.3942,23.0483,广州市,番禺大学城,,37,37,33,18,18,115,,65,65,18,30,6,6,0.9,0.8
2024-10-18T1400,3303A,113.4922,22.8168,广州市,南沙黄阁,,45,45,34,23,18,91,,64,64,27,26,5,6,0.7,0.7
2024-10-18T1400,3304A,113.5342,22.7896,广州市,南沙街,,39,39,35,19,16,108,,68,68,17,23,6,6,0.7,0.6
2024-10-18T1400,3443A,113.2902,23.5544,广州市,花都梯面,,35,35,35,18,20,107,,55,55,15,24,6,6,0.6,0.6
2024-10-18T1400,3445A,113.7858,23.7478,广州市,从化良口,,23,19,19,14,13,71,,43,43,7,15,6,6,0.9,0.9
2024-10-18T1400,3446A,113.8051,23.2614,广州市,增城荔城,,,40,39,28,20,137,,90,90,,17,6,7,0.6,0.6
2024-10-18T1400,2505A,109.568,23.1478,贵港市,德智高中,,,,,,,,,,,,,,,,
2024-10-18T1400,2506A,109.6047,23.0666,贵港市,江南子站,,31,31,52,18,23,44,,32,32,15,23,9,9,0.7,0.7
2024-10-18T1400,2507A,109.6014,23.0948,贵港市,贵城子站,,31,31,45,15,25,43,,33,33,12,20,8,9,0.9,0.7
2024-10-18T1400,2508A,109.5669,23.1065,贵港市,荷城子站,,22,22,37,14,15,48,,36,36,13,20,12,11,0.7,0.5
2024-10-18T1400,3405A,109.5886,23.1172,贵港市,新世纪学校,,18,17,37,12,19,50,,34,34,11,19,8,9,0.6,0.7
2024-10-18T1400,1439A,106.6899,26.5998,贵阳市,马鞍山,,30,19,16,7,4,93,,45,45,9,11,5,4,0.4,0.6
2024-10-18T1400,1440A,106.6971,26.5694,贵阳市,市环保站,,31,24,32,14,21,98,,44,44,11,30,5,5,0.5,0.7
2024-10-18T1400,1441A,106.6243,26.6266,贵阳市,鉴湖路,,28,22,23,14,11,87,,57,57,10,10,4,5,0.4,0.4
2024-10-18T1400,1442A,106.7487,26.6343,贵阳市,燕子冲,,30,9,16,9,15,94,,36,36,6,15,6,6,0.3,0.6
2024-10-18T1400,1443A,106.6555,26.4365,贵阳市,碧云窝,,26,24,23,7,9,82,,49,49,4,9,7,5,0.4,0.4
2024-10-18T1400,1444A,106.694,26.5161,贵阳市,中院村,,27,19,32,14,17,86,,42,42,9,24,9,11,0.6,0.7
2024-10-18T1400,1445A,106.7109,26.6027,贵阳市,红边门,,30,27,32,17,24,93,,43,43,11,28,4,7,0.4,0.8
2024-10-18T1400,1446A,106.7164,26.5699,贵阳市,新华路,,29,12,26,9,17,90,,39,39,8,23,3,4,0.4,0.7
2024-10-18T1400,1447A,106.674,26.5424,贵阳市,太慈桥,,28,24,17,12,8,87,,42,42,9,16,7,6,0.4,0.4
2024-10-18T1400,1552A,106.805,26.3003,贵阳市,桐木岭,,34,34,28,14,16,57,,56,56,1,1,4,4,0.3,0.4
2024-10-18T1400,1862A,110.4144,25.3167,桂林市,电子科大尧山校区,,29,,37,20,29,58,,39,39,8,12,4,8,0.6,0.8
2024-10-18T1400,1863A,110.2819,25.2697,桂林市,监测站,细颗粒物(PM2.5),52,44,60,36,42,56,,28,28,13,23,20,16,0.8,1.1
2024-10-18T1400,1864A,110.3089,25.2708,桂林市,龙隐路小学,,45,35,48,31,35,61,,36,36,11,20,21,13,0.6,0.8
2024-10-18T1400,1865A,110.2869,25.2178,桂林市,八中,,49,49,58,29,39,41,,23,23,16,20,11,13,0.6,0.8
2024-10-18T1400,3403A,110.1764,25.2381,桂林市,创业大厦,,28,,50,19,45,65,,31,31,7,19,10,58,0.4,0.5
2024-10-18T1400,3531A,110.296,25.1253,桂林市,旅游学院,,35,27,38,24,32,72,,34,34,7,17,7,10,0.4,0.6
2024-10-18T1400,2674A,100.2561,34.4714,果洛藏族自治州,玛沁县大武镇,,32,16,24,7,14,101,,80,80,1,5,7,9,0.4,0.4
2024-10-18T1400,1129A,126.5422,45.755,哈尔滨市,岭北,,30,9,53,3,37,94,,78,78,5,24,4,8,0.3,0.7
2024-10-18T1400,1130A,126.561,45.8167,哈尔滨市,松北商大,,23,23,50,11,31,69,,50,50,10,28,8,9,0.3,0.6
2024-10-18T1400,1131A,126.979,45.5419,哈尔滨市,阿城会宁,,,15,96,3,63,,,41,41,13,28,18,13,0.4,0.9
2024-10-18T1400,1132A,126.599,45.7222,哈尔滨市,南岗学府路,,34,34,75,3,39,69,,54,54,9,29,7,9,0.4,0.7
2024-10-18T1400,1133A,126.689,45.7733,哈尔滨市,太平宏伟公园,,35,35,67,13,41,67,,50,50,8,29,7,8,0.4,0.6
2024-10-18T1400,1134A,126.635,45.7667,哈尔滨市,道外承德广场,,33,33,70,7,33,68,,52,52,9,32,3,8,0.4,0.5
2024-10-18T1400,1135A,126.685,45.7319,哈尔滨市,香坊红旗大街,,36,36,74,3,46,70,,54,54,13,40,7,12,0.3,0.6
2024-10-18T1400,1136A,126.6411,45.7258,哈尔滨市,动力和平路,,22,13,66,3,40,68,,52,52,9,32,8,13,0.3,0.6
2024-10-18T1400,1137A,126.593,45.7478,哈尔滨市,道里建国路,,22,22,62,3,41,66,,50,50,13,37,10,15,0.3,0.9
2024-10-18T1400,1138A,126.615,45.61,哈尔滨市,平房东轻厂,,42,42,73,12,42,61,,45,45,18,28,6,7,0.2,0.6
2024-10-18T1400,1139A,126.595,45.9855,哈尔滨市,呼兰师专,,,22,57,7,36,57,,45,45,30,41,6,9,,0.6
2024-10-18T1400,1140A,126.6206,45.6842,哈尔滨市,省农科院,,37,37,84,3,48,64,,48,48,9,44,5,9,0.3,0.6
2024-10-18T1400,2688A,93.5128,42.8172,哈密市,地区监测站,颗粒物(PM10),55,59,74,17,25,77,,56,56,9,36,7,7,0.3,0.4
2024-10-18T1400,2689A,93.4961,42.8328,哈密市,哈密师范学校,,36,36,72,25,29,79,,52,52,9,36,6,6,0.4,0.6
2024-10-18T1400,2671A,100.9048,36.9639,海北藏族自治州,海晏县西海镇,,33,,21,23,18,102,,70,70,5,9,15,12,0.5,0.5
2024-10-18T1400,3867A,102.0738,36.5056,海东市,平安区公安北苑,,31,26,38,14,24,98,,66,66,11,23,9,14,0.4,0.7
2024-10-18T1400,1409A,110.576,19.9507,海口市,东寨港,,,,,,,,,,,,,,,,
2024-10-18T1400,1410A,110.3232,20.0574,海口市,海南大学,,19,15,17,8,7,59,,50,50,4,8,3,3,0.4,0.4
2024-10-18T1400,1411A,110.283,20.0053,海口市,秀英海南医院,,,15,16,7,7,55,,47,47,,13,5,5,0.3,0.3
2024-10-18T1400,1412A,110.338,19.9969,海口市,海南师范大学,,17,11,15,3,8,54,,48,48,1,6,6,6,0.4,0.4
2024-10-18T1400,1413A,110.33,20.0356,海口市,龙华路环保局宿舍,,17,16,16,7,8,52,,48,48,9,9,4,4,0.3,0.3
2024-10-18T1400,3539A,110.5111,19.9736,海口市,桂林洋子站,,17,17,14,8,6,38,,40,40,6,6,7,7,0.3,0.3
2024-10-18T1400,2673A,100.6188,36.2866,海南藏族自治州,共和县恰卜恰镇,,40,,26,28,11,89,,82,82,3,18,9,12,0.3,0.4
2024-10-18T1400,2676A,97.3731,37.3753,海西蒙古族藏族自治州,德令哈市,,30,25,21,3,26,93,,80,80,2,2,10,7,0.5,0.4
2024-10-18T1400,1048A,114.5302,36.6116,邯郸市,东污水处理厂,,32,31,55,22,47,94,,62,62,8,29,1,2,0.4,0.5
2024-10-18T1400,1049A,114.4918,36.5713,邯郸市,矿院,,50,50,62,29,42,88,,62,62,9,25,2,3,0.3,0.3
2024-10-18T1400,1050A,114.484,36.6133,邯郸市,丛台公园,,36,,61,25,43,87,,60,60,3,23,4,4,0.4,0.5
2024-10-18T1400,3458A,114.7895,36.5593,邯郸市,香泉濮院小区,,29,,37,19,22,90,,74,74,11,13,2,2,0.5,0.3
2024-10-18T1400,3579A,114.50634,36.77178,邯郸市,永年区实验高中,,42,31,72,29,51,107,,72,72,6,33,3,3,0.4,0.7
2024-10-18T1400,3580A,114.20016,36.44293,邯郸市,峰峰矿区临水派出所,,30,15,42,8,34,96,,66,66,6,26,4,4,0.1,0.5
2024-10-18T1400,2634A,106.9893,33.1842,汉中市,汉川机床厂子校,,38,37,33,26,23,77,,38,38,8,11,5,5,0.7,0.6
2024-10-18T1400,2635A,107.0154,33.0706,汉中市,市监测站,,42,38,42,29,30,77,,36,36,10,18,9,10,1.1,1
2024-10-18T1400,2636A,107.0089,33.1138,汉中市,鑫源开发区,,40,32,51,28,31,73,,38,38,11,25,11,12,0.9,0.9
2024-10-18T1400,2637A,107.007,33.0323,汉中市,南郑大河坎水厂,,25,24,30,17,20,73,,33,33,8,16,7,6,0.7,0.6
2024-10-18T1400,1223A,120.2072,30.2111,杭州市,滨江,,27,16,41,11,21,85,,52,52,14,38,5,5,0.7,0.9
2024-10-18T1400,1224A,120.0633,30.2747,杭州市,西溪,,26,26,36,9,16,78,,48,48,11,21,6,6,0.6,0.8
2024-10-18T1400,1226A,120.3461,30.3153,杭州市,下沙,,34,,39,16,21,106,,61,61,15,42,6,6,0.6,0.7
2024-10-18T1400,1227A,120.1269,30.2456,杭州市,卧龙桥,,28,23,31,9,19,87,,47,47,14,22,7,6,0.5,0.7
2024-10-18T1400,1228A,120.1903,30.2692,杭州市,浙江农大,,28,23,33,11,21,88,,52,52,12,32,3,2,0.6,0.7
2024-10-18T1400,1230A,120.1197,30.3119,杭州市,和睦小学,,29,17,33,16,21,90,,55,55,9,30,3,3,0.5,0.7
2024-10-18T1400,1231A,120.3019,30.4183,杭州市,临平镇,,35,15,44,10,22,110,,64,64,9,32,5,5,0.5,0.6
2024-10-18T1400,1232A,120.2697,30.1819,杭州市,城厢镇,,32,27,42,12,33,100,,61,61,21,40,7,7,0.5,0.7
2024-10-18T1400,1233A,120.0883,30.1808,杭州市,云栖,,27,16,28,11,16,86,,44,44,10,22,8,8,0.6,0.7
2024-10-18T1400,3557A,119.9464,30.0494,杭州市,镇二中,,27,12,32,10,19,86,,49,49,14,26,6,6,0.7,0.9
2024-10-18T1400,3558A,119.7183,30.2367,杭州市,市府大楼,,25,15,34,9,24,80,,54,54,12,28,6,6,0.5,0.7
2024-10-18T1400,3656A,120.1556,30.2864,杭州市,消防大队,,29,21,36,11,20,90,,54,54,10,32,6,6,0.6,0.7
2024-10-18T1400,1270A,117.1959,31.7848,合肥市,明珠广场,,31,31,17,9,12,80,,59,54,13,18,4,4,0.5,0.5
2024-10-18T1400,1271A,117.3072,31.8764,合肥市,三里街,,26,24,19,3,12,81,,49,49,5,24,2,2,0.6,0.6
2024-10-18T1400,1272A,117.2588,31.8707,合肥市,琥珀山庄,,27,19,17,3,12,84,,67,62,10,21,6,7,0.7,0.7
2024-10-18T1400,1273A,117.1604,31.9052,合肥市,董铺水库,,25,19,18,3,10,78,,65,59,5,12,2,2,0.4,0.4
2024-10-18T1400,1274A,117.25,31.8571,合肥市,长江中路,,34,34,27,8,17,81,,63,57,6,16,8,8,0.6,0.6
2024-10-18T1400,1275A,117.266,31.9436,合肥市,庐阳区,,28,17,19,3,11,89,,71,65,10,23,4,4,0.7,0.7
2024-10-18T1400,1276A,117.336,31.8586,合肥市,瑶海区,,25,22,20,3,11,78,,57,,7,24,3,3,0.6,0.6
2024-10-18T1400,1277A,117.3027,31.7964,合肥市,包河区,,27,27,16,3,10,76,,65,57,10,17,6,6,0.5,0.5
2024-10-18T1400,1278A,117.2776,31.7385,合肥市,滨湖新区,,29,29,17,3,12,78,,68,56,9,9,6,6,0.5,0.5
2024-10-18T1400,1279A,117.1318,31.8403,合肥市,高新区,,,24,17,3,13,82,,65,59,8,16,10,6,,0.8
2024-10-18T1400,3464A,117.3803,31.9147,合肥市,高教基地,,28,28,22,3,16,84,,57,57,6,16,5,5,0.5,0.4
2024-10-18T1400,3614A,79.924,37.0877,和田地区,地区环保局,颗粒物(PM10),108,166,230,41,59,85,,68,58,9,18,8,9,0.6,0.7
2024-10-18T1400,3615A,79.9131,37.113,和田地区,市环保局,颗粒物(PM10),109,167,228,54,61,82,,56,41,11,26,8,9,0.6,0.8
2024-10-18T1400,2516A,108.2011,24.715,河池市,东仁乐园,,26,26,23,12,13,64,,33,33,6,10,5,4,0.5,0.5
2024-10-18T1400,2517A,108.0497,24.6947,河池市,市环保站,,30,30,32,16,16,61,,29,29,6,16,9,8,0.5,0.6
2024-10-18T1400,2518A,108.0983,24.6989,河池市,市疾控中心,,25,,29,17,16,64,,28,28,9,19,8,7,0.5,0.5
2024-10-18T1400,1696A,114.6778,23.7569,河源市,源西,,32,21,38,14,23,100,,59,59,6,21,5,5,0.0,0.1
2024-10-18T1400,1697A,114.6944,23.7586,河源市,东埔,,32,32,34,9,24,92,,62,62,9,17,3,3,0.5,0.7
2024-10-18T1400,1698A,114.6892,23.7233,河源市,老城,,32,20,35,10,16,101,,67,67,5,12,4,4,0.5,0.6
2024-10-18T1400,1718A,115.4208,35.2464,菏泽市,气象局,,26,21,14,18,13,75,,70,70,14,13,3,2,0.6,0.3
2024-10-18T1400,1719A,115.4747,35.2375,菏泽市,市政协,,23,18,13,16,13,70,,66,66,15,14,3,3,0.3,0.3
2024-10-18T1400,3374A,115.5564,35.0891,菏泽市,定陶老年大学,,23,14,12,12,6,72,,62,62,15,18,5,5,0.5,0.4
2024-10-18T1400,3647A,115.4702,35.2706,菏泽市,菏泽医专,,23,12,12,12,9,73,,67,67,17,18,2,3,0.5,0.4
2024-10-18T1400,2514A,111.5264,24.4172,贺州市,环保小区,细颗粒物(PM2.5),54,,48,38,28,75,,65,65,18,18,5,11,0.5,0.5
2024-10-18T1400,2515A,111.5608,24.4078,贺州市,政协大楼,,36,36,50,19,30,87,,63,63,9,20,8,13,0.4,0.5
2024-10-18T1400,3534A,111.4744,24.4553,贺州市,西湾,,36,36,44,20,32,69,,59,59,12,24,5,7,0.5,0.6
2024-10-18T1400,2385A,114.17,35.9019,鹤壁市,市监测站,颗粒物(PM10),52,53,41,17,26,97,,52,52,18,33,4,3,0.4,0.8
2024-10-18T1400,2386A,114.2956,35.7511,鹤壁市,市交警支队,,33,22,29,19,15,104,,55,55,15,21,2,2,0.6,0.5
2024-10-18T1400,2387A,114.2878,35.7306,鹤壁市,迎宾馆,,33,19,28,17,23,105,,56,56,16,20,3,4,0.6,0.7
2024-10-18T1400,3474A,114.2617,35.6822,鹤壁市,大新区,,30,14,21,9,16,96,,52,52,4,9,2,1,0.7,0.7
2024-10-18T1400,3596A,114.1572,35.9603,鹤壁市,南山宾馆,细颗粒物(PM2.5),115,,15,87,32,102,,54,54,2,12,3,3,0.1,0.6
2024-10-18T1400,2244A,130.2537,47.3416,鹤岗市,哈啤分公司,,37,37,48,25,26,85,,47,47,3,27,14,15,0.3,0.5
2024-10-18T1400,2245A,130.2684,47.3086,鹤岗市,斯达机电,,,,50,,27,,,55,,,30,,16,,0.3
2024-10-18T1400,2246A,130.3114,47.3388,鹤岗市,东山纸板厂,,26,26,79,18,32,83,,45,45,5,36,17,19,0.1,0.9
2024-10-18T1400,2247A,130.1097,47.3382,鹤岗市,五号水库,,29,13,24,8,11,91,,64,64,4,11,10,9,0.3,0.3
2024-10-18T1400,2263A,127.4833,50.2524,黑河市,交通局,,36,36,26,15,17,55,,52,52,5,13,7,8,0.4,0.4
2024-10-18T1400,2264A,127.5144,50.2341,黑河市,环保局,,34,34,22,14,15,60,,60,60,2,10,4,6,0.2,0.2
2024-10-18T1400,2265A,127.5291,50.2472,黑河市,大黑河岛,,,,,5,15,23,,57,50,11,13,1,2,,
2024-10-18T1400,1074A,115.6838,37.7541,衡水市,电机北厂,,38,38,61,18,44,83,,58,58,12,23,5,5,0.4,0.4
2024-10-18T1400,1075A,115.6303,37.7316,衡水市,市监测站,,28,27,63,8,42,87,,63,62,12,26,6,7,0.4,0.4
2024-10-18T1400,3188A,115.6683,37.7217,衡水市,市城管局,,28,18,50,18,41,89,,63,63,13,23,9,9,0.3,0.4
2024-10-18T1400,3459A,115.5989,37.5491,衡水市,地表水厂,,29,,40,9,27,92,,69,69,11,19,2,2,0.4,0.4
2024-10-18T1400,2456A,112.5003,26.9167,衡阳市,原169医院,,46,46,52,29,30,61,,27,27,3,31,6,8,0.7,1
2024-10-18T1400,2457A,112.6194,26.9258,衡阳市,衡阳化工总厂,,46,46,59,32,37,69,,29,29,10,21,10,7,0.8,0.9
2024-10-18T1400,2458A,112.6211,26.8956,衡阳市,珠晖区环保局,,,40,54,,36,69,,35,35,9,26,11,10,0.8,1.1
2024-10-18T1400,2459A,112.6197,26.8733,衡阳市,市委党校,颗粒物(PM10),51,51,55,27,31,69,,32,32,11,21,10,9,0.8,1
2024-10-18T1400,2460A,112.6006,26.8919,衡阳市,市监测站,,,,54,,44,71,,34,34,11,26,12,10,0.9,1.2
2024-10-18T1400,2461A,112.5664,26.9056,衡阳市,真空机电公司,,40,40,58,28,34,64,,27,27,11,31,9,7,0.8,1.2
2024-10-18T1400,3399A,112.6703,26.882,衡阳市,师范学院,,,,52,24,29,61,,28,28,18,25,15,11,1.0,1.1
2024-10-18T1400,2608A,103.3772,23.3993,红河哈尼族彝族自治州,污水处理厂,,27,25,22,9,16,84,,58,58,2,7,4,7,0.4,0.4
2024-10-18T1400,2609A,103.3861,23.35,红河哈尼族彝族自治州,监测站,,24,17,21,9,15,74,,55,55,5,6,5,5,0.3,0.4
2024-10-18T1400,3038A,103.3758,23.368,红河哈尼族彝族自治州,州图书馆,,23,23,17,6,8,72,,55,55,4,6,6,6,0.3,0.3
2024-10-18T1400,1090A,111.6507,40.7517,呼和浩特市,呼市一监,,22,9,24,3,26,68,,55,55,2,12,7,7,0.4,0.6
2024-10-18T1400,1091A,111.6572,40.8033,呼和浩特市,小召,,23,9,23,3,21,71,,56,56,8,18,7,7,0.3,0.5
2024-10-18T1400,1094A,111.7516,40.8369,呼和浩特市,如意水处理厂,,22,6,26,3,19,69,,57,57,9,25,2,2,0.3,0.5
2024-10-18T1400,1095A,111.7276,40.8062,呼和浩特市,二十九中,,23,11,26,3,27,71,,62,62,8,20,5,5,0.4,0.6
2024-10-18T1400,1096A,111.5512,40.7866,呼和浩特市,工大金川校区,,22,13,32,3,23,70,,66,58,9,25,3,3,0.3,0.5
2024-10-18T1400,1097A,111.717,40.7612,呼和浩特市,化肥厂生活区,,23,6,28,3,32,72,,60,60,8,19,7,8,0.3,0.6
2024-10-18T1400,3698A,111.5968,40.8178,呼和浩特市,红旗小学,,22,7,28,3,26,70,,60,52,11,29,2,2,0.3,0.5
2024-10-18T1400,3699A,111.6518,40.8389,呼和浩特市,海东办,,24,7,24,3,23,74,,61,61,8,29,5,5,0.4,0.6
2024-10-18T1400,2192A,119.7594,49.2261,呼伦贝尔市,区环保局,,48,48,35,16,19,57,,60,55,5,7,7,6,0.4,0.3
2024-10-18T1400,3061A,119.7512,49.1577,呼伦贝尔市,国华电力东,,41,41,28,12,17,60,,64,58,2,4,5,4,0.3,0.3
2024-10-18T1400,1250A,120.0751,30.8669,湖州市,城西水厂,,31,12,34,8,22,98,,62,62,29,26,5,5,0.4,0.4
2024-10-18T1400,2873A,120.0875,30.8955,湖州市,仁皇山新区,,35,11,34,8,21,112,,60,60,12,21,6,6,0.6,0.7
2024-10-18T1400,2907A,120.1844,30.8596,湖州市,吴兴区站,,35,18,37,9,21,111,,57,57,8,20,6,6,0.5,0.5
2024-10-18T1400,3562A,120.4148,30.8538,湖州市,南浔区站,,,22,27,12,19,96,,60,60,,20,2,4,0.5,0.6
2024-10-18T1400,1607A,120.9092,40.7136,葫芦岛市,龙港区,,19,,19,3,26,58,,65,40,12,15,14,17,0.4,0.7
2024-10-18T1400,1608A,120.8392,40.7514,葫芦岛市,化工街,,,95,50,12,24,54,,44,36,,26,,18,0.4,0.8
2024-10-18T1400,1609A,120.8341,40.7073,葫芦岛市,新区,,33,33,34,3,33,55,,53,38,13,22,11,10,0.3,0.7
2024-10-18T1400,1610A,120.8695,40.7677,葫芦岛市,东城区,,24,24,32,3,32,53,,36,32,7,26,8,9,0.2,0.6
2024-10-18T1400,2482A,109.5981,27.5721,怀化市,林科所,,19,19,17,7,7,57,,29,29,5,9,7,4,0.8,0.9
2024-10-18T1400,2483A,109.9453,27.5444,怀化市,河西地税局,,20,10,29,6,18,61,,26,26,5,14,8,10,0.4,0.6
2024-10-18T1400,2484A,109.9781,27.5342,怀化市,市四医院,,32,32,28,16,23,77,,28,28,4,14,8,9,0.7,0.9
2024-10-18T1400,2485A,109.9972,27.5578,怀化市,监测楼,,22,16,30,3,21,70,,31,31,4,14,7,10,0.6,0.9
2024-10-18T1400,2486A,110.0394,27.583,怀化市,市委党校,,21,19,25,11,17,65,,30,30,5,14,8,12,0.5,0.8
2024-10-18T1400,1210A,119.036,33.5981,淮安市,钵池山,,26,12,17,10,14,82,,72,72,11,14,6,4,0.8,0.5
2024-10-18T1400,1211A,119.007,33.575,淮安市,北京南路,,27,27,24,12,14,70,,62,62,15,14,14,6,1.5,0.7
2024-10-18T1400,1212A,118.989,33.6067,淮安市,市监测站,,26,19,17,9,13,81,,69,69,13,18,7,7,0.8,0.7
2024-10-18T1400,1213A,119.135,33.5039,淮安市,楚州区监测站,,29,29,25,8,13,79,,66,66,10,15,6,6,0.5,0.5
2024-10-18T1400,1214A,119.0186,33.6297,淮安市,淮阴区监测站,,25,14,20,12,14,79,,68,68,16,21,7,6,0.6,0.5
2024-10-18T1400,3426A,118.8755,33.2894,淮安市,新华书店,,26,8,19,8,9,82,,70,70,8,16,4,4,0.7,0.4
2024-10-18T1400,2282A,116.8004,33.975,淮北市,监测站,,15,,21,3,12,46,,47,38,10,13,3,3,0.4,0.4
2024-10-18T1400,2283A,116.8091,33.9007,淮北市,烈山区政府,,15,,24,3,17,45,,41,37,15,14,2,2,0.4,0.4
2024-10-18T1400,3330A,116.8873,33.9836,淮北市,杜集区检察院,,24,24,27,8,22,44,,49,38,16,13,1,2,0.1,0.1
2024-10-18T1400,4017A,116.7923,33.9535,淮北市,市博物馆,,15,12,20,6,13,45,,47,40,14,13,2,2,0.6,0.6
2024-10-18T1400,2277A,116.8305,32.7727,淮南市,潘集区政府,,,23,30,14,21,36,,59,52,,12,,6,,0.6
2024-10-18T1400,2278A,117.0067,32.6524,淮南市,师范学院,,22,22,34,12,24,61,,68,63,11,11,8,8,0.4,0.4
2024-10-18T1400,2279A,116.8569,32.5951,淮南市,谢家集区政府,,24,24,23,10,21,56,,50,50,13,19,8,8,0.4,0.4
2024-10-18T1400,2280A,116.8281,32.633,淮南市,八公山区政府,,18,18,33,12,20,44,,56,54,8,9,9,8,0.3,0.4
2024-10-18T1400,2281A,116.6325,32.6201,淮南市,焦岗湖风景区管理处,,18,18,29,6,10,37,,36,36,9,10,7,9,0.1,0.2
2024-10-18T1400,2894A,117.0566,32.6531,淮南市,经济技术开发区消防队,,32,32,32,3,14,65,,59,59,11,14,4,4,0.4,0.5
2024-10-18T1400,3329A,117.0108,32.5893,淮南市,山南新区,,30,30,35,6,19,76,,60,60,8,10,2,2,0.6,0.6
2024-10-18T1400,2446A,114.9028,30.4742,黄冈市,职工中心,,35,24,30,14,24,109,,70,70,9,17,8,8,0.6,0.4
2024-10-18T1400,2929A,114.8858,30.4519,黄冈市,红卫路,,35,25,26,16,21,111,,69,69,10,18,9,9,0.8,0.8
2024-10-18T1400,3398A,114.9136,30.4445,黄冈市,市林业局,,38,,33,14,19,119,,77,77,6,13,8,8,0.5,0.5
2024-10-18T1400,2672A,102.0199,35.5102,黄南藏族自治州,同仁县隆务镇,,,,29,,11,95,,85,85,7,5,,10,0.4,0.4
2024-10-18T1400,2295A,118.2903,29.6963,黄山市,延安路89号,,32,32,27,3,8,69,,35,35,4,8,6,6,0.4,0.4
2024-10-18T1400,2296A,118.327,29.7178,黄山市,黄山东路89号,,32,32,29,17,7,70,,38,38,8,11,5,5,0.4,0.5
2024-10-18T1400,2297A,118.1371,30.2756,黄山市,黄山区政府5号楼,,28,,24,19,12,80,,38,38,5,7,7,7,0.4,0.4
2024-10-18T1400,2423A,115.0601,30.2313,黄石市,沈家营,,37,23,45,12,16,118,,59,59,6,22,6,9,0.6,0.7
2024-10-18T1400,2424A,115.0817,30.2006,黄石市,陈家湾,,37,22,36,11,16,117,,62,62,4,13,8,8,0.6,0.7
2024-10-18T1400,2426A,114.8988,30.2019,黄石市,铁山,,38,26,27,18,21,120,,63,63,7,15,12,10,0.6,0.5
2024-10-18T1400,2427A,115.0307,30.2092,黄石市,团城山,,36,21,33,3,13,113,,62,62,8,15,6,7,0.7,0.6
2024-10-18T1400,3149A,115.0235,30.1578,黄石市,笔架山北路,,35,18,36,3,12,110,,61,61,7,15,7,8,0.8,0.8
2024-10-18T1400,1392A,114.4183,23.0528,惠州市,河南岸金山湖子站,,34,28,32,18,15,108,,77,77,5,7,5,6,0.5,0.5
2024-10-18T1400,1393A,114.4053,23.0822,惠州市,下埔横江三路子站,,38,32,32,14,16,121,,88,88,7,9,4,5,0.6,0.7
2024-10-18T1400,1394A,114.4103,23.1142,惠州市,江北云山西路子站,,39,31,31,16,16,122,,82,82,4,8,5,6,0.5,0.5
2024-10-18T1400,1395A,114.4645,22.7833,惠州市,惠阳区承修路船湖子站,,,27,32,12,15,,,64,,,13,8,7,0.3,0.4
2024-10-18T1400,1396A,114.5317,22.7422,惠州市,大亚湾管委会子站,,32,32,29,17,15,100,,76,76,7,11,10,9,0.7,0.7
2024-10-18T1400,3314A,114.4338,22.8134,惠州市,惠阳秋长,,28,19,21,13,14,88,,79,79,6,11,6,6,0.5,0.6
2024-10-18T1400,3452A,114.6517,22.775,惠州市,大亚湾霞涌,,38,32,28,26,16,93,,74,74,6,7,6,6,0.2,0.4
2024-10-18T1400,2240A,130.9762,45.3001,鸡西市,环保局,,38,36,62,26,27,55,,53,53,12,26,5,9,0.6,0.5
2024-10-18T1400,2243A,130.9429,45.3039,鸡西市,第一中学,,24,24,47,15,21,59,,64,64,10,22,5,8,0.5,0.3
2024-10-18T1400,3707A,131.0207,45.3073,鸡西市,欧美日汽修厂,,28,28,79,17,33,57,,48,48,22,29,9,12,0.5,0.3
2024-10-18T1400,3709A,130.9967,45.3106,鸡西市,市政设施管理处,,49,49,78,21,32,53,,39,39,17,33,5,9,0.6,0.5
2024-10-18T1400,2367A,114.9754,27.0803,吉安市,红声器材厂,颗粒物(PM10),54,57,52,30,30,123,,64,64,12,22,13,12,0.6,0.7
2024-10-18T1400,2368A,114.9658,27.0999,吉安市,市森林工业局,颗粒物(PM10),52,54,49,30,31,125,,67,67,15,23,11,13,0.6,0.7
2024-10-18T1400,2369A,114.99,27.1312,吉安市,市环境监测站,颗粒物(PM10),51,51,46,29,28,134,,70,70,16,21,16,18,0.6,0.7
2024-10-18T1400,2370A,115.0093,27.0968,吉安市,青原区法院,,49,49,50,22,30,132,,67,67,17,26,17,17,0.6,0.7
2024-10-18T1400,1772A,126.54,43.8622,吉林市,哈达湾,,21,21,63,9,48,52,,67,48,17,18,10,7,0.5,0.8
2024-10-18T1400,1773A,126.5844,43.8358,吉林市,东局子,,22,,79,15,50,47,,67,43,22,23,13,6,0.5,0.8
2024-10-18T1400,1774A,126.5052,43.8245,吉林市,电力学院,,25,,77,17,53,52,,62,48,11,17,6,6,0.5,0.9
2024-10-18T1400,1775A,126.6133,43.8972,吉林市,江北,,17,14,89,10,55,52,,58,45,13,22,9,9,0.5,0.9
2024-10-18T1400,1776A,126.555,43.8306,吉林市,江南公园,,18,14,77,12,56,50,,67,47,16,18,10,8,0.5,0.8
2024-10-18T1400,1778A,126.7061,43.7133,吉林市,丰满,,,16,58,12,55,45,,88,51,11,10,,7,,0.7
2024-10-18T1400,2868A,126.4739,43.953,吉林市,九站,,,15,76,10,50,54,,55,42,,20,,7,0.5,0.8
2024-10-18T1400,1299A,116.9862,36.6114,济南市,科干所,,25,,20,3,10,79,,46,46,16,22,6,6,0.6,0.7
2024-10-18T1400,1300A,116.9376,36.665,济南市,农科所,,26,6,21,3,10,83,,51,51,20,30,5,5,0.4,0.6
2024-10-18T1400,1301A,117.1265,36.6734,济南市,开发区,,25,,20,7,16,77,,48,48,14,27,4,4,0.4,0.5
2024-10-18T1400,1303A,117.0624,36.6868,济南市,省种子仓库,,24,6,26,3,16,76,,50,50,12,24,2,2,0.3,0.4
2024-10-18T1400,1304A,116.9489,36.6447,济南市,机床二厂,,27,6,19,3,8,84,,52,52,15,26,3,3,0.5,0.6
2024-10-18T1400,1305A,117.0495,36.663,济南市,市监测站,,25,6,18,3,13,80,,49,49,17,26,4,4,0.5,0.6
2024-10-18T1400,1306A,116.7675,36.5484,济南市,长清党校,,27,,17,7,10,86,,50,50,16,26,4,5,0.6,0.7
2024-10-18T1400,1616A,117.6795,36.229,济南市,技术学院,,23,6,10,3,5,72,,53,49,19,21,7,7,0.6,0.6
2024-10-18T1400,1961A,117.532,36.6868,济南市,东山小学,,21,10,22,3,9,65,,52,52,16,26,3,3,0.6,0.5
2024-10-18T1400,3059A,117.7161,36.2049,济南市,泰兴公司,,22,6,11,3,5,70,,50,44,20,24,2,2,0.3,0.3
2024-10-18T1400,3064A,117.6867,36.2171,济南市,莱芜战役纪念馆,,22,6,14,3,4,69,,49,46,21,22,5,5,0.5,0.5
2024-10-18T1400,3494A,117.1673,36.9782,济南市,济阳区政府,,28,7,22,3,10,89,,70,70,9,18,2,3,0.2,0.3
2024-10-18T1400,3495A,117.1171,36.63,济南市,锦屏中学,,25,6,13,3,9,78,,52,52,21,26,4,4,0.4,0.5
2024-10-18T1400,3682A,116.9814,36.6819,济南市,济南四建,,24,,19,3,13,76,,46,46,14,24,2,2,0.4,0.5
2024-10-18T1400,1653A,116.6251,35.4302,济宁市,火炬城,,16,8,19,3,8,51,,38,38,16,36,11,10,0.7,0.7
2024-10-18T1400,1655A,116.5491,35.4042,济宁市,电化厂,,15,12,19,7,11,48,,36,35,19,20,6,6,0.7,0.6
2024-10-18T1400,3500A,116.5814,35.3707,济宁市,北湖一中,,15,11,16,7,8,45,,38,34,20,18,8,7,0.4,0.4
2024-10-18T1400,3501A,116.8249,35.5593,济宁市,服务中心,,17,6,17,3,8,52,,39,39,13,18,5,5,0.7,0.7
2024-10-18T1400,3678A,116.5907,35.4054,济宁市,市第七中学,,17,7,16,3,6,52,,39,39,16,19,6,6,0.6,0.6
2024-10-18T1400,2255A,130.2751,46.8028,佳木斯市,佳纺,,35,35,43,24,24,69,,62,62,10,25,4,5,0.3,0.4
2024-10-18T1400,2256A,130.3995,46.8307,佳木斯市,发电厂,,38,33,39,26,23,72,,60,60,7,28,5,6,0.4,0.5
2024-10-18T1400,2257A,130.3258,46.7975,佳木斯市,环保局,,37,37,30,23,19,67,,60,60,9,18,8,8,0.4,0.5
2024-10-18T1400,2258A,130.3648,46.8032,佳木斯市,十一中,,40,34,39,28,24,75,,65,65,8,23,6,7,0.4,0.5
2024-10-18T1400,2259A,130.3794,46.7588,佳木斯市,四丰,,,29,24,21,14,72,,64,64,,,1,1,0.2,0.3
2024-10-18T1400,1252A,120.7436,30.778,嘉兴市,清河小学,,45,44,29,22,14,142,,76,76,19,20,5,6,0.6,0.6
2024-10-18T1400,1253A,120.726,30.7478,嘉兴市,嘉兴学院,,43,40,30,23,19,135,,72,72,16,18,4,4,0.5,0.5
2024-10-18T1400,2872A,120.7846,30.7525,嘉兴市,南湖区残联,臭氧1小时,60,43,30,30,17,168,,93,93,14,16,6,7,0.6,0.6
2024-10-18T1400,3407A,120.6916,30.7739,嘉兴市,秀洲住建,,42,,23,19,15,132,,71,71,12,18,7,7,0.6,0.6
2024-10-18T1400,1945A,98.2908,39.7711,嘉峪关市,气象局,颗粒物(PM10),500,698,103,112,31,89,,82,77,18,23,3,4,0.5,0.5
2024-10-18T1400,2884A,98.2672,39.7978,嘉峪关市,酒钢宾馆,颗粒物(PM10),500,713,112,117,36,78,,76,74,26,23,29,18,1.7,0.7
2024-10-18T1400,3248A,98.2643,39.7724,嘉峪关市,雄关区,颗粒物(PM10),323,438,87,65,33,91,,77,77,12,20,9,9,0.5,0.4
2024-10-18T1400,1383A,113.1064,22.6058,江门市,北街,,45,45,33,18,16,94,,68,68,12,15,5,6,0.4,0.4
2024-10-18T1400,1384A,113.0731,22.5835,江门市,西区,,32,32,34,13,14,91,,67,67,12,16,6,7,0.4,0.5
2024-10-18T1400,1385A,113.0219,22.5311,江门市,圭峰西,,41,41,30,16,16,81,,62,62,14,16,3,4,0.4,0.5
2024-10-18T1400,1386A,113.0828,22.5947,江门市,东湖,,35,35,32,19,14,91,,66,66,11,14,6,6,0.4,0.4
2024-10-18T1400,3311A,113.1075,22.5647,江门市,江海富民,,41,41,50,14,19,98,,71,71,10,15,6,7,0.4,0.4
2024-10-18T1400,3449A,113.05,22.4667,江门市,新会银湖,,32,32,31,11,18,88,,56,56,6,16,6,5,0.4,0.5
2024-10-18T1400,1828A,113.227,35.2125,焦作市,市环保局,,30,29,36,21,19,39,,30,30,24,19,2,2,0.7,0.4
2024-10-18T1400,1830A,113.1992,35.2590,焦作市,影视城,细颗粒物(PM2.5),52,,27,36,23,42,,34,32,16,13,6,6,0.8,0.6
2024-10-18T1400,3169A,113.2725,35.2067,焦作市,太极体育中心,,28,,25,19,22,38,,31,31,12,9,1,2,0.9,0.7
2024-10-18T1400,3335A,113.3137,35.2641,焦作市,马村街道办,,39,,25,27,25,33,,30,30,25,17,6,3,0.9,0.6
2024-10-18T1400,3336A,113.2465,35.2373,焦作市,焦作技师学院,,39,30,26,27,17,34,,28,28,21,17,1,3,0.9,0.7
2024-10-18T1400,3477A,113.1656,35.2539,焦作市,中站许衡医院,,33,31,26,23,22,37,,29,27,18,13,3,2,0.6,0.4
2024-10-18T1400,3981A,113.2449,35.1803,焦作市,原李万街道办,,28,28,42,16,17,42,,29,29,19,16,7,7,1.0,0.8
2024-10-18T1400,1708A,116.3701,23.5345,揭阳市,新兴,,41,30,40,26,22,131,,88,88,10,14,6,8,0.5,0.5
2024-10-18T1400,1709A,116.3264,23.5443,揭阳市,西马,,44,44,43,27,21,135,,84,84,4,9,6,8,0.7,0.7
2024-10-18T1400,1710A,116.3611,23.5626,揭阳市,东兴,,46,46,46,20,19,132,,93,93,4,10,5,8,0.8,0.8
2024-10-18T1400,1711A,116.4151,23.5294,揭阳市,渔湖,,45,40,41,20,19,143,,91,91,8,15,8,9,0.5,0.6
2024-10-18T1400,3320A,116.403,23.5699,揭阳市,曲溪,,50,43,41,23,22,157,,90,90,12,16,2,5,0.5,0.5
2024-10-18T1400,1944A,102.1692,38.5167,金昌市,天庆家园,,35,27,48,24,43,85,,86,86,10,16,18,12,0.8,0.7
2024-10-18T1400,3170A,102.1864,38.5253,金昌市,市委党校,,29,29,75,19,43,91,,87,87,8,17,7,16,0.3,0.8
2024-10-18T1400,4022A,102.1647,38.5371,金昌市,金川区人防中心,颗粒物(PM10),51,51,68,22,46,89,,88,88,7,18,9,14,0.7,0.9
2024-10-18T1400,1262A,119.647,29.077,金华市,十五中,,39,36,40,17,19,123,,66,66,15,35,3,4,0.5,0.6
2024-10-18T1400,1263A,119.686,29.1029,金华市,监测站,,41,29,36,18,20,131,,64,64,14,37,3,3,0.5,0.6
2024-10-18T1400,3659A,119.656,29.1131,金华市,气象局,,40,30,34,16,18,126,,66,66,16,35,4,4,0.5,0.6
2024-10-18T1400,1767A,121.1115,41.0879,锦州市,南山,,,33,42,,51,56,,39,39,11,29,7,13,0.3,0.6
2024-10-18T1400,1768A,121.0533,40.8434,锦州市,开发区,颗粒物(PM10),58,65,62,13,39,44,,38,36,11,52,6,9,0.4,0.7
2024-10-18T1400,1769A,121.1836,41.1119,锦州市,百股街道,,43,43,42,7,24,52,,37,37,10,27,9,17,0.7,1
2024-10-18T1400,1770A,121.1178,41.1222,锦州市,天安街道,,35,35,52,7,52,54,,39,39,10,29,8,13,0.4,0.8
2024-10-18T1400,1771A,121.1303,41.1386,锦州市,北湖公园,,26,26,53,14,56,59,,41,41,11,25,8,13,0.6,0.9
2024-10-18T1400,2160A,112.85,35.5051,晋城市,自来水公司,,31,,25,19,29,99,,62,62,19,21,9,5,1.3,1.1
2024-10-18T1400,2161A,112.8318,35.4936,晋城市,白云商贸,,32,21,25,9,12,102,,64,64,21,22,7,4,1.1,0.9
2024-10-18T1400,2162A,112.8508,35.4887,晋城市,市环保局,,31,17,18,12,12,97,,60,60,19,22,10,5,1.3,1.1
2024-10-18T1400,2163A,112.8676,35.4897,晋城市,技术学院,,30,19,29,14,14,94,,57,57,20,24,9,5,1.3,1.1
2024-10-18T1400,2165A,112.8453,35.546,晋城市,白马寺,,30,20,22,20,18,93,,62,62,17,18,11,8,1.2,1
2024-10-18T1400,3620A,112.8271,35.4828,晋城市,泽州一中,,,9,23,9,11,96,,63,63,26,23,,8,1.2,1.1
2024-10-18T1400,2171A,112.7532,37.6945,晋中市,锦纶小区,,,,26,,19,,,41,,,28,,6,,0.8
2024-10-18T1400,2173A,112.7249,37.7067,晋中市,南都小区,,28,28,34,17,26,54,,30,30,26,33,5,5,0.7,0.7
2024-10-18T1400,2174A,112.6991,37.6982,晋中市,榆次区政府,,25,,27,17,22,51,,35,35,26,35,5,6,0.8,0.7
2024-10-18T1400,2865A,112.7195,37.6828,晋中市,榆次三中,,18,12,27,3,18,55,,34,34,26,30,7,8,0.8,0.8
2024-10-18T1400,2439A,112.2014,31.0481,荆门市,竹园小学,,32,28,25,22,23,99,,50,50,10,15,13,11,0.7,0.8
2024-10-18T1400,2440A,112.1969,30.9891,荆门市,掇刀,,33,18,22,18,26,104,,60,60,11,16,9,6,0.5,0.6
2024-10-18T1400,2441A,112.2213,31.0386,荆门市,石化一小,,33,21,25,21,28,103,,56,56,10,16,21,17,0.4,0.5
2024-10-18T1400,3012A,112.1849,31.0362,荆门市,西山林语,,31,24,22,16,22,99,,55,55,12,14,9,8,0.5,0.5
2024-10-18T1400,3547A,112.1632,31.0138,荆门市,龙泉中学南校,,32,31,20,13,14,100,,57,57,23,21,3,5,0.7,0.8
2024-10-18T1400,1844A,112.2494,30.3197,荆州市,市图书馆,,,20,18,17,16,101,,54,54,10,14,,9,,1
2024-10-18T1400,1845A,112.2008,30.3544,荆州市,市委党校,,33,17,20,15,15,105,,57,57,10,16,6,6,0.6,0.7
2024-10-18T1400,3194A,112.2747,30.3122,荆州市,管委会,,33,,21,20,17,103,,54,54,7,13,8,7,0.7,0.8
2024-10-18T1400,3548A,112.1655,30.3364,荆州市,学苑路,,35,29,20,16,17,112,,62,62,7,14,6,10,0.8,0.9
2024-10-18T1400,2342A,117.3102,29.3867,景德镇市,王港中学,,,,,,,,,,,,,,,,
2024-10-18T1400,2343A,117.2117,29.2933,景德镇市,老干部活动中心,,44,44,33,22,17,70,,36,36,10,18,9,7,0.3,0.3
2024-10-18T1400,2344A,117.1894,29.2789,景德镇市,兽医站,,33,33,34,22,15,76,,44,44,10,15,10,8,0.6,0.6
2024-10-18T1400,2345A,117.1547,29.2617,景德镇市,台达陶瓷,颗粒物(PM10),55,59,42,35,22,62,,32,32,22,23,26,26,0.6,0.6
2024-10-18T1400,2346A,117.2461,29.2956,景德镇市,陶研所,,41,41,31,17,13,74,,44,44,16,16,8,7,0.4,0.3
2024-10-18T1400,1803A,115.9872,29.6815,九江市,十里,细颗粒物(PM2.5),60,68,42,43,24,51,,21,21,24,28,11,9,0.9,0.8
2024-10-18T1400,1804A,115.9584,29.7046,九江市,茅山头,细颗粒物(PM2.5),65,67,46,47,29,37,,18,18,30,32,10,10,1.0,0.9
2024-10-18T1400,1805A,115.9877,29.7295,九江市,西园,细颗粒物(PM2.5),68,63,42,49,29,53,,27,27,26,26,10,10,0.9,0.7
2024-10-18T1400,1806A,116.0172,29.6547,九江市,五七二七厂,,42,39,28,29,19,58,,35,35,17,17,9,8,0.8,0.7
2024-10-18T1400,1808A,115.9114,29.6038,九江市,综合工业园,细颗粒物(PM2.5),60,57,45,43,28,53,,26,26,30,42,16,11,0.9,0.7
2024-10-18T1400,1809A,116.0721,29.7535,九江市,石化总厂,细颗粒物(PM2.5),69,61,43,50,29,55,,25,25,33,26,16,11,1.0,0.9
2024-10-18T1400,1810A,115.9773,29.5698,九江市,庐山气象台,,23,21,22,10,17,71,,80,73,4,2,14,10,0.6,0.7
2024-10-18T1400,3190A,116.0254,29.6994,九江市,外国语学校,细颗粒物(PM2.5),59,55,39,42,24,55,,24,24,31,32,7,7,0.9,0.8
2024-10-18T1400,2658A,98.5061,39.7443,酒泉市,仓门街子站,颗粒物(PM10),500,779,120,121,37,74,,62,62,8,15,2,5,0.4,0.5
2024-10-18T1400,2659A,98.4989,39.7256,酒泉市,油田生活基地,颗粒物(PM10),500,801,117,111,40,86,,62,62,6,17,2,4,0.3,0.5
2024-10-18T1400,2698A,76.0072,39.4467,喀什地区,巡警大队,,,136,94,18,18,67,,27,17,,37,4,4,,0.6
2024-10-18T1400,2699A,75.9755,39.4694,喀什地区,吾办,颗粒物(PM10),77,103,94,33,27,66,,19,18,27,36,3,3,0.3,0.6
2024-10-18T1400,4027A,75.9483,39.4689,喀什地区,老干局,颗粒物(PM10),76,101,110,17,15,73,,23,23,19,35,1,2,0.3,0.5
2024-10-18T1400,1824A,114.3389,34.7781,开封市,肿瘤医院,,29,22,13,16,16,90,,59,59,11,16,3,2,0.5,0.5
2024-10-18T1400,1826A,114.2885,34.7965,开封市,世纪星幼儿园,,30,17,13,8,7,93,,61,61,10,15,3,3,0.5,0.5
2024-10-18T1400,3147A,114.3438,34.8106,开封市,龙亭公园,,29,28,13,9,7,90,,59,59,13,18,2,2,0.8,0.7
2024-10-18T1400,3210A,114.3644,34.7964,开封市,汴京公园,,28,,17,12,9,87,,59,59,11,17,1,1,0.5,0.3
2024-10-18T1400,3473A,114.2485,34.8306,开封市,技师学院,,33,19,15,7,8,103,,64,64,8,14,2,2,0.6,0.6
2024-10-18T1400,3592A,114.4644,34.7556,开封市,祥符区生态环境局,,26,12,7,8,4,81,,61,61,8,19,3,3,0.8,0.8
2024-10-18T1400,1951A,84.895,45.6094,克拉玛依市,长征新村,,20,6,7,3,6,61,,59,49,6,6,6,5,0.2,0.2
2024-10-18T1400,1952A,84.8988,45.5893,克拉玛依市,南林小区,,18,,7,10,10,56,,59,45,12,8,3,4,0.4,0.3
2024-10-18T1400,1954A,84.905,44.3396,克拉玛依市,独山子区,,20,6,5,3,2,63,,66,63,8,6,8,8,0.2,0.1
2024-10-18T1400,1955A,85.6979,46.098,克拉玛依市,乌尔禾区商贸楼,,,,10,,8,68,,65,58,3,3,,2,0.2,0.1
2024-10-18T1400,3612A,85.1045,45.6899,克拉玛依市,白碱滩区新站,,20,6,17,3,7,61,,47,47,14,13,7,7,0.2,0.1
2024-10-18T1400,2697A,76.1454,39.7142,克孜勒苏柯尔克孜自治州,市人民政府,,43,43,47,19,17,80,,91,69,10,7,3,11,0.5,0.4
2024-10-18T1400,3665A,76.1658,39.7157,克孜勒苏柯尔克孜自治州,克州文化中心,,33,33,40,13,11,71,,81,64,13,7,6,10,0.4,0.4
2024-10-18T1400,1450A,102.8204,24.8886,昆明市,呈贡新区,,35,30,24,22,13,110,,65,65,6,14,7,6,0.5,0.6
2024-10-18T1400,1451A,102.6251,24.9608,昆明市,西山森林公园,,,,,,,,,,,,,,,,
2024-10-18T1400,1452A,102.7252,25.0902,昆明市,龙泉镇,,40,29,25,28,12,111,,44,44,10,21,10,8,0.8,0.8
2024-10-18T1400,1453A,102.7266,25.0375,昆明市,东风东路,,40,40,26,24,15,116,,46,46,10,22,7,10,0.4,0.6
2024-10-18T1400,1454A,102.6742,25.0669,昆明市,金鼎山,颗粒物(PM10),51,52,32,30,14,118,,51,51,12,26,10,10,0.5,0.6
2024-10-18T1400,1455A,102.6644,25.0401,昆明市,碧鸡广场,,36,34,26,22,15,113,,52,52,13,25,10,11,0.2,0.3
2024-10-18T1400,3179A,102.7494,25.0119,昆明市,官渡区博物馆,,37,34,34,20,16,116,,52,52,7,23,7,8,0.4,0.6
2024-10-18T1400,3375A,102.8017,24.8336,昆明市,青年创业园,,34,34,24,23,12,108,,57,57,3,18,6,6,0.4,0.5
2024-10-18T1400,3550A,102.7997,24.9786,昆明市,昆明学院,,37,37,30,22,18,114,,53,53,7,21,7,7,0.3,0.5
2024-10-18T1400,3551A,102.5967,24.6736,昆明市,晋宁区生态环境分局,,31,,19,17,17,99,,63,63,3,10,2,2,0.2,0.4
2024-10-18T1400,3552A,102.6678,24.9856,昆明市,云天化总部,,,34,21,22,12,,,39,39,,25,,9,,0.3
2024-10-18T1400,1456A,91.1319,29.6514,拉萨市,八廓街,,37,19,16,7,8,118,,102,102,8,15,8,10,0.2,0.2
2024-10-18T1400,1457A,91.1221,29.6747,拉萨市,市环保局,,35,12,19,3,9,111,,96,96,11,18,8,8,0.3,0.3
2024-10-18T1400,1458A,91.0874,29.6475,拉萨市,区监测站,,34,9,15,3,8,107,,96,96,10,22,8,9,0.5,0.5
2024-10-18T1400,1459A,91.1774,29.6541,拉萨市,西藏大学,,35,6,13,3,6,112,,100,100,4,8,8,9,0.2,0.4
2024-10-18T1400,1460A,90.9798,29.6588,拉萨市,区辐射站,,30,,23,9,10,96,,90,90,16,32,10,10,0.3,0.3
2024-10-18T1400,1461A,91.0834,29.6292,拉萨市,拉萨火车站,,33,6,12,3,8,105,,97,97,6,17,7,8,0.2,0.2
2024-10-18T1400,2520A,109.2203,23.7256,来宾市,来宾技工学校,,37,37,29,12,15,61,,45,45,6,12,7,10,0.6,0.7
2024-10-18T1400,3535A,109.1781,23.7297,来宾市,兴宾区政府,,36,,26,25,17,61,,43,43,6,8,7,7,0.7,0.7
2024-10-18T1400,4002A,109.2416,23.7461,来宾市,中南小学,,45,45,28,22,16,58,,41,41,4,11,7,7,0.6,0.6
2024-10-18T1400,1476A,103.631,36.1031,兰州市,兰炼宾馆,,41,41,66,23,41,92,,48,48,21,59,11,9,0.6,0.7
2024-10-18T1400,1477A,104.1373,35.9454,兰州市,榆中兰大校区,,,,,,,,,,,,,,,,
2024-10-18T1400,1478A,103.8412,36.0726,兰州市,生物制品所,,48,46,57,33,39,80,,31,31,25,50,16,12,0.7,0.7
2024-10-18T1400,1479A,103.831,36.0464,兰州市,铁路设计院,细颗粒物(PM2.5),52,51,66,36,42,74,,29,29,33,68,15,13,0.8,1.1
2024-10-18T1400,3186A,103.7158,36.1058,兰州市,教育港,细颗粒物(PM2.5),52,40,62,36,39,90,,41,41,20,51,12,10,0.7,0.7
2024-10-18T1400,3241A,103.7439,36.0842,兰州市,百合公园,,30,30,53,20,30,85,,37,37,25,55,14,10,0.7,0.9
2024-10-18T1400,3242A,103.9611,35.998,兰州市,和平,,32,24,44,12,26,102,,63,60,8,26,9,15,0.3,0.5
2024-10-18T1400,3245A,103.6633,36.533,兰州新区,新区管委会,,35,28,48,22,33,111,,65,65,8,15,11,11,0.5,0.5
2024-10-18T1400,3246A,103.6975,36.4789,兰州新区,舟曲中学,,35,26,42,15,25,112,,72,70,11,19,13,11,0.4,0.4
2024-10-18T1400,1067A,116.6708,39.5111,廊坊市,药材公司,颗粒物(PM10),54,58,79,37,46,24,,29,29,40,48,2,4,0.8,0.8
2024-10-18T1400,1068A,116.7214,39.5589,廊坊市,开发区,颗粒物(PM10),52,54,83,25,42,30,,26,26,28,42,1,2,0.6,0.8
2024-10-18T1400,1070A,116.7244,39.5269,廊坊市,北华航天学院,"颗粒物(PM10),细颗粒物(PM2.5)",52,53,79,36,50,25,,28,28,35,42,2,3,0.7,0.8
2024-10-18T1400,2919A,116.7022,39.5453,廊坊市,河北工业大学,颗粒物(PM10),57,63,76,26,44,31,,30,30,35,49,3,4,0.6,0.7
2024-10-18T1400,2535A,103.7723,29.5462,乐山市,花湖湾,,22,22,27,15,17,70,,54,40,17,12,3,4,0.8,0.8
2024-10-18T1400,2536A,103.7627,29.5844,乐山市,牛耳桥,,35,30,24,24,20,61,,53,39,25,23,5,4,0.6,0.6
2024-10-18T1400,2537A,103.7508,29.6006,乐山市,市第三水厂,,42,38,26,29,21,65,,60,38,24,21,4,4,0.8,0.7
2024-10-18T1400,2538A,103.7571,29.5664,乐山市,市监测站,,28,21,24,19,17,74,,58,45,14,14,5,4,0.7,0.7
2024-10-18T1400,3361A,103.7311,29.5628,乐山市,理工大学,,43,43,26,28,21,45,,54,37,28,16,3,3,0.8,0.7
2024-10-18T1400,2598A,100.2143,26.8576,丽江市,西南郊,,27,10,18,3,10,84,,56,56,2,10,7,6,0.6,0.7
2024-10-18T1400,2599A,100.2497,26.8802,丽江市,丽江古城,,24,15,21,9,13,74,,50,50,7,12,10,14,0.4,0.5
2024-10-18T1400,2600A,100.2203,26.8906,丽江市,市中心,,,12,14,7,9,79,,43,43,,12,4,6,,0.6
2024-10-18T1400,1267A,119.914,28.4514,丽水市,监测站大楼,,,46,41,28,20,105,,25,,,18,3,3,0.5,0.6
2024-10-18T1400,1268A,119.93,28.4586,丽水市,莲都小学,,42,42,31,13,15,103,,55,55,6,17,4,4,0.3,0.4
2024-10-18T1400,1269A,119.879,28.4231,丽水市,余庄前,,37,22,29,13,19,118,,58,58,11,12,4,4,0.4,0.4
2024-10-18T1400,1173A,119.176,34.5885,连云港市,市环境监测站,,25,14,16,9,8,78,,68,61,10,12,7,7,0.2,0.2
2024-10-18T1400,3000A,119.3581,34.6972,连云港市,德源药业,,24,7,14,7,6,74,,70,61,6,10,4,4,0.3,0.2
2024-10-18T1400,3007A,119.178,34.844,连云港市,新城一中,,25,22,25,6,6,78,,66,58,10,14,5,4,0.6,0.5
2024-10-18T1400,3008A,119.3608,34.7519,连云港市,胡沟管理处,,23,14,13,7,6,72,,76,61,11,13,5,6,0.6,0.6
2024-10-18T1400,3009A,119.1478,34.5911,连云港市,矿山设计院,,22,17,16,7,8,70,,68,60,9,9,6,6,0.5,0.4
2024-10-18T1400,3434A,119.2413,34.6539,连云港市,工贸学校,,23,15,39,10,8,73,,72,58,11,11,7,7,0.6,0.7
2024-10-18T1400,3664A,119.4172,34.7341,连云港市,连云街道,,24,10,14,3,6,76,,79,71,5,5,4,5,0.5,0.4
2024-10-18T1400,2571A,102.3431,27.8099,凉山彝族自治州,青龙寺,,28,14,16,3,6,89,,44,44,2,2,10,9,0.6,0.6
2024-10-18T1400,2572A,102.2721,27.8415,凉山彝族自治州,邛海宾馆,,30,26,22,16,13,95,,43,43,6,13,18,12,0.9,0.7
2024-10-18T1400,2573A,102.2625,27.898,凉山彝族自治州,西昌市政府,,30,28,18,21,12,92,,44,44,12,10,15,11,0.9,0.6
2024-10-18T1400,2574A,102.2685,27.8851,凉山彝族自治州,凉山州政府,颗粒物(PM10),51,52,25,25,14,95,,44,44,15,14,20,9,1.2,0.7
2024-10-18T1400,2575A,102.237,27.8914,凉山彝族自治州,长安,,48,48,23,24,14,90,,40,40,18,16,24,15,1.5,1
2024-10-18T1400,2212A,123.2,41.1953,辽阳市,宏伟区,,25,,48,17,37,36,,77,36,16,16,7,8,0.4,0.7
2024-10-18T1400,2213A,123.1683,41.2495,辽阳市,新华园,,23,,57,16,42,34,,50,30,16,24,10,11,0.4,0.7
2024-10-18T1400,2214A,123.2354,41.2639,辽阳市,滨河路,,16,,50,11,33,38,,75,38,12,22,10,11,0.5,0.8
2024-10-18T1400,2215A,123.149,41.2991,辽阳市,铁西工业园,,19,,70,13,33,29,,23,23,14,23,11,12,0.6,0.9
2024-10-18T1400,2227A,125.1358,42.8845,辽源市,环保局,,42,34,60,29,43,39,,81,54,13,27,7,9,0.6,1
2024-10-18T1400,3239A,125.0764,42.9078,辽源市,银鹰制药,,19,19,65,11,43,39,,91,50,14,29,8,18,0.4,0.7
2024-10-18T1400,1625A,115.9848,36.4372,聊城市,区政府,,24,6,25,3,11,74,,59,58,19,20,8,8,0.5,0.5
2024-10-18T1400,2878A,116.0072,36.4343,聊城市,聊大东校,,25,,22,7,16,79,,61,61,16,20,7,7,0.3,0.4
2024-10-18T1400,3200A,115.9819,36.4978,聊城市,监控中心,,24,6,19,3,13,74,,60,60,21,24,7,7,0.5,0.6
2024-10-18T1400,3513A,116.0445,36.4361,聊城市,九州社区,,24,9,28,3,13,75,,58,58,12,17,3,4,0.3,0.4
2024-10-18T1400,4018A,116.0567,36.4608,聊城市,星美广场,,25,9,25,3,12,79,,60,60,11,16,5,6,0.4,0.5
2024-10-18T1400,2632A,94.3681,29.6376,林芝市,林芝监测站,,26,7,4,3,4,82,,59,59,2,3,5,6,0.3,0.2
2024-10-18T1400,2633A,94.3616,29.6616,林芝市,林芝人民医院,,25,6,7,3,4,80,,59,59,6,6,6,6,0.3,0.2
2024-10-18T1400,2603A,100.0781,23.8982,临沧市,市环保局,,30,30,26,16,17,87,,47,47,7,10,6,6,0.4,0.5
2024-10-18T1400,2604A,100.0894,23.8822,临沧市,市气象局,,33,30,24,23,20,92,,47,47,7,10,9,9,0.4,0.5
2024-10-18T1400,1733A,111.5531,36.0783,临汾市,临钢医院,细颗粒物(PM2.5),52,,34,36,22,65,,40,40,18,19,4,4,1.1,0.9
2024-10-18T1400,1734A,111.5028,36.0714,临汾市,技工学校,颗粒物(PM10),51,51,24,34,20,56,,46,46,22,17,8,6,1.1,0.8
2024-10-18T1400,1736A,111.5018,36.0855,临汾市,市委,,50,50,24,30,14,56,,51,51,19,12,7,5,1.2,0.9
2024-10-18T1400,3018A,111.505,36.1014,临汾市,唐尧大酒店,细颗粒物(PM2.5),54,,22,38,15,60,,54,54,21,16,5,4,1.1,0.8
2024-10-18T1400,3668A,111.5036,36.0414,临汾市,城南,细颗粒物(PM2.5),59,,25,42,22,44,,37,37,22,16,5,5,1.2,1
2024-10-18T1400,2667A,103.2069,35.5993,临夏回族自治州,环保局,,36,36,49,12,17,86,,33,33,16,29,6,5,0.5,0.7
2024-10-18T1400,2668A,103.2417,35.6057,临夏回族自治州,建设大厦,,35,35,38,23,20,93,,42,42,8,21,4,3,0.3,0.5
2024-10-18T1400,1618A,118.3429,35.0532,临沂市,沂河小区,,17,14,12,11,9,26,,66,41,34,16,6,6,0.6,0.4
2024-10-18T1400,1619A,118.295,35.0583,临沂市,鲁南制药厂,,22,,7,14,8,23,,67,39,43,18,6,5,0.9,0.5
2024-10-18T1400,1620A,118.2794,34.9976,临沂市,新光毛纺厂,,24,,4,13,8,23,,66,40,47,23,5,4,1.0,0.6
2024-10-18T1400,1621A,118.3956,35.0888,临沂市,河东保险公司,,16,,12,6,5,26,,60,35,31,21,3,3,0.6,0.5
2024-10-18T1400,3370A,118.3564,35.0215,临沂市,十里堡居委,,25,,6,17,8,22,,52,32,41,23,4,4,0.8,0.5
2024-10-18T1400,3496A,118.3604,35.1084,临沂市,南坊新区,,19,19,12,7,5,28,,65,41,32,20,3,3,0.7,0.6
2024-10-18T1400,3860A,118.3920,35.0300,临沂市,皇山花园小区,,28,,12,19,10,23,,60,35,43,24,2,6,1.0,0.8
2024-10-18T1400,1870A,109.4856,24.3895,柳州市,柳东小学,,27,23,20,12,11,86,,46,46,6,7,8,8,0.5,0.5
2024-10-18T1400,1871A,109.4157,24.3277,柳州市,环保监测站,,32,22,21,22,14,85,,47,47,7,11,8,8,0.7,0.8
2024-10-18T1400,1872A,109.389,24.341,柳州市,河西水厂,,,,30,15,16,76,,40,40,3,13,7,7,0.6,0.8
2024-10-18T1400,1873A,109.4311,24.2921,柳州市,市四中,,44,44,31,14,18,86,,47,47,8,11,6,6,0.6,0.8
2024-10-18T1400,1874A,109.4006,24.3631,柳州市,市九中,,27,18,23,16,15,84,,39,39,6,14,6,6,0.4,0.4
2024-10-18T1400,1875A,109.4958,24.3134,柳州市,古亭山,,36,36,26,16,14,77,,33,33,9,17,8,8,0.7,0.8
2024-10-18T1400,3402A,109.5422,24.3996,柳州市,市二中,,27,24,23,13,12,84,,37,37,10,17,9,8,0.7,0.7
2024-10-18T1400,2307A,116.5079,31.737,六安市,监测大楼,,27,,13,7,9,84,,58,58,9,10,5,4,0.4,0.4
2024-10-18T1400,2308A,116.4738,31.7643,六安市,皖西学院,,29,23,14,3,8,92,,56,56,8,10,5,5,0.4,0.4
2024-10-18T1400,2309A,116.4996,31.7905,六安市,朝阳厂,,30,20,11,7,9,93,,58,58,5,9,2,2,0.5,0.5
2024-10-18T1400,2310A,116.5567,31.7886,六安市,开发区,,39,39,17,3,7,92,,59,59,10,10,5,5,0.5,0.5
2024-10-18T1400,2576A,104.8,26.5892,六盘水市,窑上,,,,29,24,19,79,,43,43,3,4,6,5,0.4,0.4
2024-10-18T1400,2577A,104.83,26.5917,六盘水市,黄土坡,,27,13,25,7,16,84,,45,45,5,16,6,9,0.3,0.5
2024-10-18T1400,2578A,104.89,26.5939,六盘水市,水钢,,27,23,35,15,20,85,,52,52,4,10,5,8,0.2,0.3
2024-10-18T1400,2579A,104.8475,26.5894,六盘水市,民中,,26,20,25,9,14,81,,44,44,6,21,8,9,0.3,0.6
2024-10-18T1400,2580A,104.9544,26.5506,六盘水市,双水,,25,24,20,7,10,79,,54,54,3,6,6,6,0.4,0.4
2024-10-18T1400,2335A,117.0189,25.1181,龙岩市,龙岩师专,,,,,,,,,,,,,,,,
2024-10-18T1400,2336A,117.0217,25.1033,龙岩市,龙岩市监测站,,35,15,24,13,17,109,,61,61,6,20,1,3,0.4,0.5
2024-10-18T1400,2337A,117.0258,25.0661,龙岩市,闽西职业技术学院,,35,21,31,16,18,112,,59,59,3,16,2,7,0.3,0.4
2024-10-18T1400,2338A,117.0196,25.0306,龙岩市,龙岩学院,,36,19,23,14,16,113,,58,58,4,10,6,5,0.3,0.3
2024-10-18T1400,2665A,105.0822,33.3261,陇南市,汉王镇固水子,,,,,,,,,,,,,,,,
2024-10-18T1400,2885A,104.9339,33.3826,陇南市,滨江中学,,46,46,44,18,20,67,,32,32,13,15,6,9,0.6,0.6
2024-10-18T1400,3247A,104.955,33.371,陇南市,市总工会,,35,35,34,17,8,78,,34,34,9,9,5,5,0.5,0.5
2024-10-18T1400,2487A,111.9589,27.8901,娄底市,电视发射台,,32,26,32,22,18,72,,34,34,7,11,6,5,0.6,1.1
2024-10-18T1400,2488A,111.9975,27.725,娄底市,市监测站,细颗粒物(PM2.5),68,65,66,49,40,94,,31,31,11,27,13,12,1.0,1.4
2024-10-18T1400,2489A,112.0194,27.7314,娄底市,市委党校,,36,29,48,25,38,76,,26,26,6,23,9,10,0.5,1.2
2024-10-18T1400,2490A,111.9561,27.7569,娄底市,涟钢,,,,49,99,35,61,,20,20,68,25,55,17,3.9,0.8
2024-10-18T1400,2491A,111.9892,27.7044,娄底市,市政府,细颗粒物(PM2.5),57,42,45,40,35,88,,32,32,7,23,7,6,0.6,1
2024-10-18T1400,1893A,105.4324,28.9634,泸州市,九狮山,,39,31,29,27,17,29,,14,14,29,23,5,5,0.1,0.2
2024-10-18T1400,1894A,105.4427,28.9063,泸州市,小市上码头,细颗粒物(PM2.5),65,72,39,47,22,50,,28,26,21,19,4,4,0.8,0.6
2024-10-18T1400,1895A,105.4241,28.8573,泸州市,兰田宪桥,细颗粒物(PM2.5),69,53,31,50,22,52,,27,27,19,18,4,4,0.9,0.7
2024-10-18T1400,1896A,105.4379,28.8833,泸州市,市环监站,细颗粒物(PM2.5),82,72,39,60,32,49,,24,24,19,18,4,4,0.7,0.6
2024-10-18T1400,3490A,105.3617,28.7703,泸州市,纳溪区环保局,细颗粒物(PM2.5),63,48,40,45,25,33,,19,19,22,25,6,6,0.7,0.7
2024-10-18T1400,2183A,111.1406,37.5211,吕梁市,环保局,,20,11,21,11,21,64,,46,46,11,21,3,6,0.6,0.7
2024-10-18T1400,2185A,111.1297,37.5136,吕梁市,自来水公司,,19,13,18,10,19,60,,47,47,13,23,2,6,0.7,0.7
2024-10-18T1400,2867A,111.1283,37.51,吕梁市,马茂庄小学,,21,15,20,12,19,65,,46,46,13,24,2,6,0.6,0.6
2024-10-18T1400,1812A,112.3931,34.6516,洛阳市,市委党校,,27,16,24,15,24,84,,47,47,8,15,2,3,0.7,0.6
2024-10-18T1400,1814A,112.4657,34.6871,洛阳市,豫西宾馆,,31,16,18,11,17,97,,56,56,14,16,2,2,0.5,0.4
2024-10-18T1400,1815A,112.494,34.6886,洛阳市,河南林校,,25,,18,15,20,77,,48,48,10,14,2,2,0.6,0.5
2024-10-18T1400,1816A,112.3844,34.623,洛阳市,开发区管委会,,30,16,24,13,21,96,,53,53,6,8,7,2,0.8,0.7
2024-10-18T1400,1817A,112.4267,34.6258,洛阳市,市委新办公区,,28,,25,15,23,89,,48,48,9,15,4,2,0.6,0.5
2024-10-18T1400,3340A,112.6005,34.6326,洛阳市,伊滨,,26,,23,9,16,82,,47,47,9,12,3,2,0.6,0.5
2024-10-18T1400,3341A,112.4951,34.6332,洛阳市,中移产业园,,31,19,19,12,18,97,,53,53,10,13,4,2,0.8,0.7
2024-10-18T1400,3593A,112.5736,34.8993,洛阳市,吉利监测站,,22,6,19,3,20,70,,44,44,6,11,3,3,0.6,0.5
2024-10-18T1400,3635A,112.3677,34.662,洛阳市,河科大西苑校区,,29,14,18,7,11,90,,51,51,11,18,5,3,0.6,0.5
2024-10-18T1400,3636A,112.4388,34.6781,洛阳市,英才小学,,28,,20,13,26,88,,48,48,8,15,3,2,0.5,0.5
2024-10-18T1400,2399A,114.051,33.5699,漯河市,三五一五工厂,,25,17,18,12,17,77,,68,68,14,17,6,5,0.6,0.6
2024-10-18T1400,2400A,114.0055,33.5698,漯河市,漯河大学,,24,20,23,14,19,75,,68,68,16,15,5,4,0.6,0.5
2024-10-18T1400,2401A,114.0138,33.5828,漯河市,市水利局,,23,14,19,3,15,73,,66,66,9,8,5,4,0.7,0.5
2024-10-18T1400,2402A,114.0261,33.5698,漯河市,市广电局,,25,17,16,9,14,77,,69,69,14,14,2,2,0.7,0.6
2024-10-18T1400,3478A,113.9749,33.5664,漯河市,市图书馆,,23,22,19,11,13,71,,70,70,16,14,3,3,0.7,0.6
2024-10-18T1400,3479A,114.0967,33.5906,漯河市,召陵区卫健委,,26,14,26,9,22,82,,66,66,12,14,6,6,0.5,0.4
2024-10-18T1400,1798A,118.5092,31.6837,马鞍山市,湖东路四小,,27,13,33,3,20,86,,58,58,5,14,7,5,0.6,0.8
2024-10-18T1400,1799A,118.5024,31.6449,马鞍山市,开发区,,27,16,36,10,18,85,,48,47,9,20,8,7,0.7,0.8
2024-10-18T1400,1800A,118.5228,31.7231,马鞍山市,慈湖,,25,14,40,12,21,77,,56,54,12,17,26,10,1.3,0.9
2024-10-18T1400,1802A,118.6245,31.7241,马鞍山市,濮塘,,30,7,33,7,23,94,,61,61,15,23,6,6,0.6,0.7
2024-10-18T1400,3633A,118.4918,31.6809,马鞍山市,雨山,,26,14,31,8,16,81,,54,52,4,12,6,4,0.9,1
2024-10-18T1400,1686A,111.0286,21.4688,茂名市,电白南海,,14,14,27,3,3,44,,57,46,8,10,12,9,0.5,0.5
2024-10-18T1400,1687A,110.9294,21.6533,茂名市,茂石化七小,,13,7,26,7,11,41,,40,37,7,9,7,9,0.6,0.7
2024-10-18T1400,1688A,110.9107,21.6687,茂名市,健康路,,,,19,2,7,48,,47,42,4,7,11,10,0.6,0.6
2024-10-18T1400,1689A,110.8592,21.6828,茂名市,高岭,,14,9,34,3,11,43,,45,35,7,13,12,11,0.5,0.5
2024-10-18T1400,3450A,111.01,21.5165,茂名市,电白水东,,13,,17,9,11,40,,49,41,7,7,7,7,0.6,0.6
2024-10-18T1400,2539A,104.0308,30.0478,眉山市,黑龙滩水库,,29,25,29,15,19,91,,57,57,3,3,6,6,0.0,0.1
2024-10-18T1400,2540A,103.8416,30.0874,眉山市,气象局,细颗粒物(PM2.5),62,,23,44,16,63,,36,35,24,22,8,6,0.7,0.6
2024-10-18T1400,3137A,103.8578,30.0744,眉山市,市委党校,,48,48,23,29,11,70,,47,44,20,19,10,8,0.6,0.5
2024-10-18T1400,3148A,103.8291,30.0564,眉山市,区人社局,细颗粒物(PM2.5),58,50,28,41,14,62,,44,42,29,25,9,10,0.7,0.7
2024-10-18T1400,1690A,116.1231,24.3284,梅州市,梅江月梅,,38,21,31,17,20,120,,71,71,4,11,7,8,0.5,0.5
2024-10-18T1400,1691A,116.0797,24.2719,梅州市,梅县新城,,31,24,37,15,22,98,,73,73,4,20,4,5,0.5,0.5
2024-10-18T1400,1692A,116.1248,24.2654,梅州市,环境监控中心,,33,30,37,17,21,104,,69,69,6,28,5,6,0.5,0.6
2024-10-18T1400,3315A,116.1233,24.2991,梅州市,梅龙,,36,19,30,13,19,113,,74,74,4,11,10,12,0.6,0.7
2024-10-18T1400,1878A,104.7778,31.4741,绵阳市,富乐山,,26,24,28,18,23,66,,30,30,9,12,3,3,0.6,0.6
2024-10-18T1400,1879A,104.7563,31.4535,绵阳市,市人大,,35,35,42,24,25,70,,27,27,9,30,12,11,0.6,0.7
2024-10-18T1400,1880A,104.6697,31.4668,绵阳市,高新区自来水公司,,35,34,49,24,30,67,,26,26,12,30,4,4,0.6,0.7
2024-10-18T1400,1881A,104.7287,31.5075,绵阳市,三水厂,,35,35,45,20,31,73,,26,26,10,29,7,7,0.6,0.8
2024-10-18T1400,3491A,104.69,31.5322,绵阳市,西科大附属小学,,36,36,47,17,25,53,,22,22,12,28,3,3,0.6,0.8
2024-10-18T1400,3492A,104.5648,31.5343,绵阳市,安州区旅游局,,28,26,37,19,27,55,,29,29,20,19,8,8,0.6,0.7
2024-10-18T1400,1784A,129.61,44.561,牡丹江市,环保大楼,,,,65,,33,,,58,,,48,,9,,0.7
2024-10-18T1400,1785A,129.6115,44.5782,牡丹江市,文化广场,细颗粒物(PM2.5),57,40,84,40,44,52,,22,22,16,57,9,12,0.5,1
2024-10-18T1400,1786A,129.5904,44.5963,牡丹江市,第一医院,,43,38,64,30,46,62,,35,35,11,44,8,10,0.4,0.7
2024-10-18T1400,1787A,129.6364,44.6075,牡丹江市,机车工厂,细颗粒物(PM2.5),55,43,69,39,35,56,,20,20,12,42,8,57,0.4,0.7
2024-10-18T1400,1788A,129.6386,44.5462,牡丹江市,第一中学,,39,39,59,15,34,57,,35,35,12,43,7,9,0.5,0.6
2024-10-18T1400,2531A,105.0703,29.61,内江市,市监测站,,25,,15,15,13,77,,40,40,8,17,6,7,0.5,0.5
2024-10-18T1400,2532A,105.0717,29.5947,内江市,东兴区政府,,24,19,13,9,10,74,,41,41,6,14,7,7,0.6,0.6
2024-10-18T1400,2533A,105.0653,29.5817,内江市,内江二中,,27,18,23,14,16,85,,45,45,10,19,5,5,0.5,0.6
2024-10-18T1400,2534A,105.0406,29.5822,内江市,内江日报社,,25,17,23,14,15,78,,44,44,20,26,7,8,0.5,0.6
2024-10-18T1400,2628A,92.0657,31.4846,那曲市,那曲监测站,,42,42,51,10,23,91,,53,53,8,18,6,7,0.3,0.7
2024-10-18T1400,3128A,92.0506,31.4797,那曲市,那曲会议中心,,47,47,68,6,23,97,,57,57,5,18,3,4,0.4,0.6
2024-10-18T1400,1290A,115.8931,28.6843,南昌市,省外办,颗粒物(PM10),54,57,65,34,46,94,,56,56,12,40,17,11,0.6,1
2024-10-18T1400,1291A,115.8886,28.7003,南昌市,省林业公司,颗粒物(PM10),51,51,70,34,39,97,,50,50,14,41,13,8,1.2,1.2
2024-10-18T1400,1292A,115.8126,28.7442,南昌市,林科所,,46,46,49,27,28,92,,48,48,20,52,9,9,0.9,1
2024-10-18T1400,1294A,115.8518,28.687,南昌市,建工学校,颗粒物(PM10),55,60,63,23,32,88,,54,54,19,41,15,10,0.6,0.8
2024-10-18T1400,1295A,115.8921,28.6424,南昌市,象湖,颗粒物(PM10),52,54,71,31,40,101,,53,53,15,45,16,10,0.7,0.9
2024-10-18T1400,1296A,115.7423,28.7996,南昌市,武术学校,,39,,21,27,22,34,,21,21,8,6,2,2,0.6,0.7
2024-10-18T1400,1298A,115.9314,28.6842,南昌市,省站,颗粒物(PM10),57,64,75,37,48,88,,46,46,20,39,17,11,0.8,1.1
2024-10-18T1400,3046A,115.9084,28.6062,南昌市,机电学校,,,55,80,29,41,96,,49,49,12,47,14,9,,0.8
2024-10-18T1400,3690A,115.9721,28.7031,南昌市,外国语学校,颗粒物(PM10),53,55,66,31,33,96,,46,46,16,37,13,8,0.7,0.9
2024-10-18T1400,1905A,106.056,30.8064,南充市,西山风景区,,20,,18,14,17,64,,28,28,5,11,1,1,0.7,0.7
2024-10-18T1400,1906A,106.0789,30.8023,南充市,南充市委,,29,25,25,20,20,69,,33,33,8,20,2,3,0.5,0.6
2024-10-18T1400,1907A,106.1031,30.8217,南充市,南充炼油厂,,32,32,31,16,19,68,,36,36,6,16,2,2,0.4,0.6
2024-10-18T1400,1908A,106.1064,30.7856,南充市,高坪区监测站,,28,24,34,19,24,77,,37,37,7,18,6,11,0.4,0.5
2024-10-18T1400,1909A,106.0642,30.7636,南充市,嘉陵区环保局,,28,28,32,12,20,64,,28,28,10,25,2,4,0.5,0.6
2024-10-18T1400,1910A,106.1087,30.8388,南充市,市环境监测站,,32,29,29,22,22,66,,36,36,8,14,2,3,0.3,0.4
2024-10-18T1400,1151A,118.8086,32.1065,南京市,迈皋桥,,28,21,27,14,16,88,,55,55,12,18,4,3,0.5,0.4
2024-10-18T1400,1152A,118.7538,32.0551,南京市,草场门,,25,24,27,17,19,71,,45,45,18,22,6,5,0.7,0.7
2024-10-18T1400,1153A,118.7794,32.0745,南京市,山西路,,30,29,33,19,19,93,,76,76,15,17,5,4,0.6,0.6
2024-10-18T1400,1154A,118.7752,32.0023,南京市,中华门,,25,22,27,14,18,79,,52,52,9,14,8,6,0.8,0.5
2024-10-18T1400,1155A,118.8109,32.0309,南京市,瑞金路,,25,22,28,14,19,80,,47,47,4,14,7,6,0.7,0.6
2024-10-18T1400,1156A,118.7997,32.0754,南京市,玄武湖,,24,18,30,13,13,76,,50,48,19,23,6,5,0.8,0.7
2024-10-18T1400,1157A,118.6414,32.0931,南京市,浦口,,24,15,26,3,18,76,,46,46,3,16,5,4,0.5,0.7
2024-10-18T1400,1158A,118.7356,31.9996,南京市,奥体中心,,28,24,31,19,23,82,,52,52,12,19,9,6,0.5,0.5
2024-10-18T1400,1159A,118.9125,32.1028,南京市,仙林大学城,,29,22,30,14,16,90,,62,62,12,15,7,6,0.7,0.6
2024-10-18T1400,3422A,118.8436,31.9198,南京市,江宁彩虹桥,,26,20,32,9,17,81,,56,56,17,16,9,5,0.8,0.5
2024-10-18T1400,3423A,119.0138,31.6494,南京市,溧水永阳,,25,14,29,11,16,78,,56,56,12,18,3,3,0.6,0.5
2024-10-18T1400,3424A,118.879,31.3302,南京市,高淳老职中,,30,30,25,8,17,91,,63,63,11,15,3,4,0.5,0.5
2024-10-18T1400,3427A,118.8554,32.3578,南京市,六合雄州,,28,15,28,9,18,89,,55,52,7,25,4,4,0.7,0.7
2024-10-18T1400,1401A,108.3103,22.7881,南宁市,二十一中,,,,22,,11,,,53,,,13,,3,,0.7
2024-10-18T1400,1402A,108.3141,22.8528,南宁市,北湖,,28,23,26,13,15,87,,46,46,5,13,6,6,0.6,0.7
2024-10-18T1400,1403A,108.3206,22.8225,南宁市,市监测站,,25,22,23,11,14,77,,42,42,11,12,6,7,0.6,0.6
2024-10-18T1400,1404A,108.3829,22.8037,南宁市,大自然花园,,,32,23,13,13,81,,43,43,,12,5,6,0.4,0.5
2024-10-18T1400,1405A,108.4394,22.7904,南宁市,仙葫,,22,19,25,7,12,68,,40,40,5,12,6,6,0.6,0.7
2024-10-18T1400,1406A,108.2397,22.8467,南宁市,区农职院,,29,29,26,15,14,89,,41,41,7,16,5,6,0.6,0.6
2024-10-18T1400,1407A,108.3275,22.735,南宁市,英华嘉园,,33,23,25,23,13,76,,45,45,10,16,5,5,0.5,0.5
2024-10-18T1400,1408A,108.2257,22.7757,南宁市,沙井镇街道办,,24,12,35,9,14,76,,36,36,4,27,4,5,0.7,0.8
2024-10-18T1400,3401A,108.4834,22.7618,南宁市,红星社区,,23,17,22,15,11,73,,44,44,5,11,4,4,0.6,0.6
2024-10-18T1400,2331A,118.0966,26.6761,南平市,茫荡山,,,,,,,,,,,,,,,,
2024-10-18T1400,2332A,118.1681,26.6369,南平市,南平市监测站,,27,20,24,18,15,84,,53,53,2,10,3,3,0.3,0.4
2024-10-18T1400,2333A,118.1825,26.6489,南平市,南平铝业有限公司,,27,26,24,14,16,85,,53,53,2,13,3,3,0.4,0.5
2024-10-18T1400,2334A,118.1756,26.6272,南平市,南平七中,,30,30,24,16,15,87,,52,52,2,6,3,3,0.4,0.4
2024-10-18T1400,1168A,120.9098,31.9663,南通市,狼山街道,,44,44,36,22,16,117,,69,69,32,20,7,6,0.6,0.5
2024-10-18T1400,1169A,120.86,32.0005,南通市,虹桥,,44,44,30,27,17,92,,64,64,57,20,9,7,0.5,0.4
2024-10-18T1400,1170A,120.87,32.02,南通市,城中,,48,48,37,27,14,119,,79,79,44,25,9,7,0.6,0.5
2024-10-18T1400,1171A,120.94,31.93,南通市,星湖花园,,44,37,28,23,14,140,,76,76,26,22,7,6,0.6,0.5
2024-10-18T1400,1172A,120.81,32.0417,南通市,紫琅学院,,40,40,28,19,13,111,,60,60,32,21,6,3,0.8,0.6
2024-10-18T1400,3291A,121.067,32.062,南通市,通州监测站,,47,39,33,19,13,148,,84,84,16,14,4,3,0.8,0.7
2024-10-18T1400,3432A,120.9348,31.9883,南通市,环境教育馆,,48,48,35,27,13,142,,80,80,27,23,5,4,0.6,0.6
2024-10-18T1400,2404A,112.5224,33.0122,南阳市,瓦房庄,,,14,17,7,12,,,29,,11,17,4,3,0.5,0.7
2024-10-18T1400,2405A,112.5003,32.9735,南阳市,汉画馆,,32,,20,19,18,100,,47,47,12,20,7,6,0.6,0.7
2024-10-18T1400,2406A,112.5573,33.027,南阳市,气象站,,32,12,15,7,12,101,,47,47,10,17,6,4,0.7,0.8
2024-10-18T1400,2407A,112.5481,32.9689,南阳市,理工学院,,31,16,17,3,12,99,,47,47,13,19,4,3,0.5,0.7
2024-10-18T1400,4008A,112.5234,32.9922,南阳市,卧龙区政府,,33,16,16,15,18,104,,49,49,9,18,4,3,0.6,0.8
2024-10-18T1400,1234A,121.8358,29.911,宁波市,区环保大楼,,30,20,36,13,16,93,,64,64,7,33,7,7,0.6,0.8
2024-10-18T1400,1235A,121.56,29.82,宁波市,万里学院,,33,24,30,9,18,104,,66,66,9,25,8,7,0.6,0.7
2024-10-18T1400,1236A,121.713,29.9572,宁波市,龙赛医院,,30,23,34,11,16,95,,59,59,7,31,9,10,0.6,0.7
2024-10-18T1400,1239A,121.633,29.7733,宁波市,钱湖水厂,,25,11,22,7,12,79,,54,54,8,11,9,8,0.5,0.6
2024-10-18T1400,1240A,121.5856,29.8635,宁波市,太古小学,,31,16,32,12,15,98,,60,60,12,33,9,8,0.7,0.9
2024-10-18T1400,1241A,121.524,29.8674,宁波市,市环境监测中心,,32,21,32,11,14,101,,60,60,11,31,7,8,0.6,0.7
2024-10-18T1400,2871A,121.6147,29.9017,宁波市,万里国际学校,,35,26,39,15,16,109,,67,67,10,23,8,8,0.7,0.7
2024-10-18T1400,3710A,121.5594,29.8975,宁波市,白沙活动中心,,34,17,34,8,14,108,,65,65,10,31,10,9,0.5,0.7
2024-10-18T1400,2339A,119.5001,26.6946,宁德市,金涵水库,,,,,,,,,,,,,,,,
2024-10-18T1400,2341A,119.5388,26.6612,宁德市,宁德市监测站,,44,44,35,19,21,99,,57,57,9,10,2,3,0.3,0.4
2024-10-18T1400,3209A,119.5231,26.6562,宁德市,宁德一中,,33,33,33,23,22,100,,59,59,5,8,4,2,0.5,0.3
2024-10-18T1400,2618A,98.8601,25.8567,怒江傈僳族自治州,州监测站,,25,25,29,17,16,72,,30,30,5,14,5,7,0.3,0.3
2024-10-18T1400,2619A,98.8546,25.8417,怒江傈僳族自治州,泸水一中,,23,23,23,14,13,66,,25,25,7,16,7,6,0.3,0.4
2024-10-18T1400,1888A,101.6891,26.571,攀枝花市,弄弄坪,,46,46,51,27,27,109,,39,39,18,26,24,20,1.6,1.3
2024-10-18T1400,1889A,101.5769,26.5928,攀枝花市,河门口,细颗粒物(PM2.5),59,52,41,42,27,120,,41,41,22,22,37,12,3.1,1.3
2024-10-18T1400,1890A,101.7169,26.585,攀枝花市,炳草岗,,36,36,52,20,30,108,,39,39,15,30,18,16,1.4,1.2
2024-10-18T1400,1891A,101.7369,26.5008,攀枝花市,仁和,,44,44,37,28,23,108,,44,44,14,17,23,11,0.8,0.8
2024-10-18T1400,2835A,101.7227,26.567,攀枝花市,四十中小,颗粒物(PM10),53,56,53,34,34,96,,34,34,16,18,21,18,1.9,1.6
2024-10-18T1400,1604A,122.0303,41.1489,盘锦市,开发区,,32,32,40,7,43,59,,48,46,11,26,6,13,0.2,0.5
2024-10-18T1400,1605A,122.0485,41.0883,盘锦市,兴隆台,,27,27,38,6,43,55,,42,42,18,40,7,7,0.2,0.5
2024-10-18T1400,1606A,121.8297,41.1028,盘锦市,新生街道,,44,44,29,7,21,66,,44,44,11,24,8,8,0.2,0.5
2024-10-18T1400,1832A,113.3257,33.742,平顶山市,新华旅馆,,28,20,24,19,21,50,,42,42,15,16,6,5,0.5,0.4
2024-10-18T1400,1833A,113.2919,33.737,平顶山市,规划设计院,,17,16,23,8,15,52,,43,43,16,15,6,6,1.0,0.8
2024-10-18T1400,1834A,113.182,33.774,平顶山市,平顶山工学院,,28,28,22,7,10,53,,36,36,10,14,6,6,0.7,0.6
2024-10-18T1400,3204A,113.3025,33.73,平顶山市,规划局,,19,19,18,13,16,53,,43,43,15,18,5,4,0.8,0.6
2024-10-18T1400,3594A,112.8867,33.9116,平顶山市,石龙区,,27,12,19,9,13,86,,56,56,12,17,9,8,0.8,0.7
2024-10-18T1400,2656A,106.6692,35.5461,平凉市,聚贤嘉苑,,49,46,53,34,33,94,,59,59,13,30,7,8,0.5,0.5
2024-10-18T1400,2657A,106.7021,35.5307,平凉市,博物馆,颗粒物(PM10),51,51,57,31,34,96,,63,63,13,28,9,9,0.5,0.6
2024-10-18T1400,2347A,114.0997,27.5002,萍乡市,武功山,,25,19,11,17,9,63,,34,34,10,6,12,12,0.4,0.5
2024-10-18T1400,2348A,113.8385,27.6434,萍乡市,中医院,细颗粒物(PM2.5),72,62,57,52,43,42,,27,22,23,20,12,21,1.3,1.1
2024-10-18T1400,2349A,113.8493,27.6253,萍乡市,市政府车库,,50,44,45,35,37,43,,27,27,19,19,18,24,1.1,1.2
2024-10-18T1400,2350A,113.8676,27.6435,萍乡市,市环保局,细颗粒物(PM2.5),57,54,51,40,38,45,,26,26,21,18,13,25,1.0,0.8
2024-10-18T1400,2351A,113.866,27.6198,萍乡市,安源区政府,颗粒物(PM10),52,53,54,31,35,44,,24,24,22,26,20,25,0.9,0.8
2024-10-18T1400,2319A,119.0141,25.4325,莆田市,荔城区仓后路,,39,35,36,18,24,122,,72,72,6,7,2,1,0.5,0.5
2024-10-18T1400,2320A,119.0015,25.4553,莆田市,莆田市监测站,,42,42,32,18,23,126,,76,76,5,4,3,1,0.3,0.5
2024-10-18T1400,2321A,119.1119,25.4561,莆田市,涵江区六中,,32,32,33,14,23,98,,74,74,1,5,3,2,0.6,0.4
2024-10-18T1400,2322A,119.1013,25.3215,莆田市,秀屿区政府,,27,25,33,8,23,86,,63,63,1,8,2,2,0.6,0.5
2024-10-18T1400,2323A,118.981,25.4792,莆田市,东圳水库,,,,,,,,,,,,,,,,
2024-10-18T1400,2392A,115.0312,35.7636,濮阳市,环保局,,24,,16,15,19,75,,70,70,16,13,1,2,0.6,0.5
2024-10-18T1400,2394A,115.0574,35.7609,濮阳市,油田运输公司,,25,18,23,17,19,77,,71,71,14,13,1,2,0.5,0.5
2024-10-18T1400,2395A,115.0866,35.7754,濮阳市,油田物探公司,,28,,25,19,23,73,,67,67,13,12,3,3,0.5,0.5
2024-10-18T1400,3021A,115,35.7668,濮阳市,濮水河管理处,,32,23,27,22,22,64,,60,60,9,8,3,2,0.7,0.5
2024-10-18T1400,2601A,100.98,22.7633,普洱市,市环保局,,39,39,28,21,17,73,,41,41,6,7,4,4,0.4,0.4
2024-10-18T1400,2602A,100.9817,22.8322,普洱市,普洱第二中学,,32,32,32,9,12,74,,40,40,4,11,5,6,0.3,0.4
2024-10-18T1400,2262A,131.0518,45.8751,七台河市,新一中,,36,33,28,25,17,73,,58,58,12,17,9,12,1.2,1.2
2024-10-18T1400,3345A,131.0577,45.7879,七台河市,中波台,,47,47,30,27,16,52,,49,36,19,22,11,8,0.4,0.4
2024-10-18T1400,3637A,131.0176,45.7761,七台河市,人民广场,颗粒物(PM10),52,54,39,29,26,52,,53,38,22,28,9,9,0.7,0.7
2024-10-18T1400,3684A,130.8781,45.8222,七台河市,新建矿广场,,46,46,81,32,31,52,,39,39,16,43,8,9,0.6,0.8
2024-10-18T1400,1779A,123.9305,47.3636,齐齐哈尔市,安居小区,,41,41,35,3,3,67,,67,67,3,15,8,10,0.1,0.2
2024-10-18T1400,1780A,123.9488,47.3386,齐齐哈尔市,中心广场,,25,25,27,3,18,64,,63,63,4,14,3,4,0.1,0.2
2024-10-18T1400,1781A,123.9483,47.3227,齐齐哈尔市,农牧车辆厂,颗粒物(PM10),60,70,39,14,10,63,,62,62,2,13,4,5,0.4,0.3
2024-10-18T1400,1783A,123.945,47.2988,齐齐哈尔市,市环境监测站,,50,50,32,11,11,66,,65,65,4,12,9,9,0.2,0.3
2024-10-18T1400,3662A,123.6333,47.2075,齐齐哈尔市,富区青少年活动中心,颗粒物(PM10),64,77,64,12,13,65,,62,62,5,12,5,8,0.2,0.4
2024-10-18T1400,2591A,107.9783,26.5747,黔东南苗族侗族自治州,市环境监测站,,23,21,22,12,14,71,,23,23,9,21,4,4,0.4,0.6
2024-10-18T1400,2881A,107.8908,26.5311,黔东南苗族侗族自治州,凯里学院,,20,,10,11,10,63,,22,22,4,11,5,5,0.4,0.5
2024-10-18T1400,2593A,107.5228,26.2403,黔南布依族苗族自治州,小围寨,,21,7,11,3,8,66,,29,29,5,10,4,4,0.4,0.5
2024-10-18T1400,3538A,107.5175,26.2978,黔南布依族苗族自治州,沙坝,,,,17,,5,60,,26,26,4,9,3,4,0.5,0.5
2024-10-18T1400,2589A,104.9022,25.0925,黔西南布依族苗族自治州,场坝街,,20,13,19,7,11,64,,46,46,3,5,3,3,0.4,0.4
2024-10-18T1400,2590A,104.8811,25.0992,黔西南布依族苗族自治州,坪东大道,,19,12,21,3,11,59,,44,44,1,3,1,1,0.2,0.3
2024-10-18T1400,2502A,108.6236,21.9667,钦州市,市环保站,,22,17,24,9,7,68,,42,42,10,14,9,7,0.6,0.6
2024-10-18T1400,2503A,108.6549,21.9481,钦州市,沙埠小学,,23,14,30,14,11,73,,46,46,10,18,5,6,0.7,0.7
2024-10-18T1400,2504A,108.5989,21.7431,钦州市,港区一小,,21,19,40,12,12,66,,38,38,14,24,5,7,0.5,0.6
2024-10-18T1400,3404A,108.5959,21.9633,钦州市,北职校,,22,19,27,12,12,69,,42,42,8,14,6,7,0.5,0.6
2024-10-18T1400,1042A,119.5134,39.8207,秦皇岛市,北戴河环保局,,30,30,47,17,21,61,,54,54,12,23,1,1,0.3,0.4
2024-10-18T1400,1043A,119.7493,40.0116,秦皇岛市,第一关,,,64,54,34,33,56,,42,42,14,42,3,2,,0.4
2024-10-18T1400,1044A,119.5897,39.9499,秦皇岛市,监测站,,46,33,57,32,43,66,,42,42,9,43,1,1,0.2,0.5
2024-10-18T1400,1046A,119.5251,39.9041,秦皇岛市,建设大厦,,29,26,58,20,32,61,,44,44,11,39,3,3,0.2,0.5
2024-10-18T1400,3132A,119.610547,39.943889,秦皇岛市,文明里,,25,25,63,17,32,69,,54,54,12,37,3,2,0.1,0.3
2024-10-18T1400,1307A,120.6659,36.2403,青岛市,仰口,,23,,11,8,10,72,,85,65,3,3,6,6,0.7,0.7
2024-10-18T1400,1310A,120.4134,36.0658,青岛市,市南区东部子站,,29,29,16,14,6,58,,96,59,36,12,14,7,0.5,0.4
2024-10-18T1400,1311A,120.3664,36.1032,青岛市,四方区子站,,27,19,12,9,6,84,,94,63,24,20,14,11,0.5,0.4
2024-10-18T1400,1312A,120.2994,36.054,青岛市,市南区西部子站,,26,14,18,3,4,81,,94,66,20,13,9,8,0.6,0.5
2024-10-18T1400,1313A,120.4581,36.0858,青岛市,崂山区子站,,24,24,16,14,4,50,,104,62,46,19,9,8,0.8,0.5
2024-10-18T1400,1314A,120.1983,35.9608,青岛市,黄岛区子站,,41,31,10,17,5,14,,92,40,81,22,12,7,0.7,0.6
2024-10-18T1400,1315A,120.3999,36.3083,青岛市,城阳区子站,,25,22,17,12,9,77,,90,76,27,25,8,8,0.7,0.6
2024-10-18T1400,1966A,120.0405,35.8735,青岛市,黄岛区4号,,20,7,13,3,1,64,,96,65,27,14,6,6,0.6,0.5
2024-10-18T1400,3362A,120.5014,36.4034,青岛市,即墨2号,,24,7,11,7,8,74,,96,76,11,12,6,6,0.5,0.4
2024-10-18T1400,3642A,120.3503,36.0736,青岛市,市北区南部,,24,,16,12,5,76,,88,64,32,21,8,7,0.8,0.7
2024-10-18T1400,3643A,120.3948,36.1805,青岛市,李沧区北部,,25,,9,17,8,76,,86,66,29,21,9,9,0.8,0.6
2024-10-18T1400,1702A,113.0426,23.691,清远市,环保大楼,,36,25,40,15,23,114,,62,62,6,20,4,6,0.5,0.6
2024-10-18T1400,1703A,113.0208,23.7106,清远市,凤城街办,,40,40,42,20,21,112,,74,74,17,21,8,10,0.5,0.6
2024-10-18T1400,3025A,113.0477,23.6344,清远市,技师学院,,47,47,51,21,23,109,,56,56,15,31,6,7,0.7,0.8
2024-10-18T1400,3318A,112.9903,23.7403,清远市,清新太和,,44,44,38,21,20,116,,78,78,14,18,3,4,0.6,0.6
2024-10-18T1400,3455A,113.076,23.7198,清远市,清城东城,,35,27,35,13,20,110,,64,64,5,15,6,8,0.6,0.7
2024-10-18T1400,2661A,107.6325,35.7357,庆阳市,庆阳五中,,37,37,47,22,26,82,,66,66,10,12,6,6,0.5,0.6
2024-10-18T1400,2662A,107.6364,35.7067,庆阳市,市环保局,,35,35,44,19,22,82,,68,68,14,14,5,6,0.5,0.5
2024-10-18T1400,1916A,103.7897,25.5035,曲靖市,环境监测站,,28,7,26,3,13,88,,40,40,7,22,5,6,0.6,0.8
2024-10-18T1400,1917A,103.8,25.5364,曲靖市,烟厂办公区,,29,12,35,6,19,92,,41,41,5,22,3,5,0.4,0.6
2024-10-18T1400,3376A,103.7947,25.462,曲靖市,南苑二区,,28,16,18,9,10,89,,49,49,1,6,11,10,0.4,0.5
2024-10-18T1400,3377A,103.7444,25.5261,曲靖市,曲靖师范学院,,31,,33,14,21,97,,50,50,6,23,8,14,0.4,0.7
2024-10-18T1400,1264A,118.8692,28.9398,衢州市,环保大楼,,34,20,33,13,20,108,,62,62,11,25,4,5,0.4,0.6
2024-10-18T1400,1265A,118.8709,28.9666,衢州市,实验学校,,37,20,32,11,19,118,,66,66,9,24,5,5,0.3,0.4
2024-10-18T1400,1266A,118.8621,28.9808,衢州市,衢州学院,,38,24,33,13,19,121,,66,66,12,29,6,6,0.3,0.4
2024-10-18T1400,1611A,118.5819,24.9117,泉州市,涂山街,,42,40,47,18,29,134,,76,76,13,16,2,1,0.4,0.5
2024-10-18T1400,1612A,118.5972,24.8978,泉州市,津头埔,,41,41,50,17,29,113,,72,72,9,15,1,2,0.4,0.5
2024-10-18T1400,1613A,118.6663,24.9424,泉州市,万安,,43,43,44,20,27,126,,79,79,6,13,2,2,0.5,0.5
2024-10-18T1400,1614A,118.6117,24.9604,泉州市,清源山,,,,,,,,,,,,,,,,
2024-10-18T1400,3529A,118.6333,24.9264,泉州市,城华南路,,37,33,41,18,24,118,,72,72,6,11,2,2,0.3,0.3
2024-10-18T1400,2626A,88.8876,29.2718,日喀则市,日喀则监测站,,35,18,23,8,8,109,,71,71,4,10,5,5,0.4,0.4
2024-10-18T1400,3726A,88.8781,29.2426,日喀则市,林业技术推广中心,,33,10,18,3,3,104,,80,80,4,5,7,7,0.4,0.3
2024-10-18T1400,1659A,119.471,35.4209,日照市,监测站,,17,,7,7,6,52,,91,62,23,17,6,5,0.6,0.6
2024-10-18T1400,1660A,119.523,35.4216,日照市,市政府广场,,19,,12,13,4,45,,93,58,25,13,6,5,0.5,0.4
2024-10-18T1400,1661A,119.5587,35.4044,日照市,港务局,,29,,16,20,12,52,,94,74,18,7,4,3,0.6,0.5
2024-10-18T1400,3507A,119.5328,35.4625,日照市,职业技术学院,,17,,9,7,4,53,,96,65,22,12,4,3,0.5,0.4
2024-10-18T1400,3604A,119.3266,35.1044,日照市,岚山环保分局,,,14,14,9,8,66,,76,54,14,17,5,8,,0.6
2024-10-18T1400,1835A,111.1922,34.7752,三门峡市,市政府,,42,42,22,29,16,84,,42,42,16,17,7,5,0.8,0.7
2024-10-18T1400,1836A,111.1587,34.7942,三门峡市,开发区,颗粒物(PM10),59,67,39,32,19,79,,46,46,11,11,4,5,0.6,0.5
2024-10-18T1400,1838A,111.143,34.7955,三门峡市,风景区,,40,37,25,28,19,62,,38,38,10,10,10,9,0.7,0.6
2024-10-18T1400,3039A,111.1911,34.7829,三门峡市,三门峡市第一小学,,42,38,23,29,17,81,,43,43,14,15,8,6,0.7,0.6
2024-10-18T1400,3598A,111.1,34.7167,三门峡市,富达温泉假日酒店,颗粒物(PM10),67,83,35,41,23,86,,44,44,14,16,9,5,0.4,0.4
2024-10-18T1400,2324A,117.6211,26.2625,三明市,三钢,,41,33,22,20,16,131,,62,62,13,10,22,5,2.4,0.5
2024-10-18T1400,2325A,117.635,26.2714,三明市,三明二中,,40,40,20,21,13,124,,60,60,14,10,19,4,2.2,0.6
2024-10-18T1400,2326A,117.6028,26.2378,三明市,三元区政府,,30,28,29,17,14,96,,52,52,5,18,3,6,0.5,0.8
2024-10-18T1400,2327A,117.7275,26.3108,三明市,洋溪,,,,,,,,,,,,,,,,
2024-10-18T1400,1876A,109.5078,18.2489,三亚市,河东子站,,19,9,10,3,5,60,,52,52,3,4,4,4,0.3,0.3
2024-10-18T1400,1877A,109.4964,18.2681,三亚市,河西子站,,22,8,10,3,5,68,,50,50,5,6,4,4,0.2,0.2
2024-10-18T1400,3540A,109.7348,18.3443,三亚市,君悦子站,,18,11,14,3,5,55,,45,45,2,7,2,3,0.2,0.2
2024-10-18T1400,2624A,91.7608,29.2313,山南市,山南监测站,,27,13,12,9,6,86,,73,72,4,6,3,3,0.4,0.4
2024-10-18T1400,2625A,91.7706,29.2436,山南市,山南人民医院,,28,19,23,3,7,87,,73,72,6,10,4,5,0.5,0.4
2024-10-18T1400,1674A,116.6794,23.3667,汕头市,金平子站,颗粒物(PM10),53,56,33,23,22,113,,82,82,8,11,6,7,0.5,0.6
2024-10-18T1400,1675A,116.7244,23.3633,汕头市,龙湖子站,,42,42,33,21,18,99,,77,77,2,5,8,8,0.6,0.6
2024-10-18T1400,1676A,116.7258,23.2775,汕头市,濠江子站,,46,46,29,26,28,102,,74,74,6,6,7,7,0.5,0.5
2024-10-18T1400,1677A,116.7519,23.4714,汕头市,澄海子站,,39,33,33,27,26,124,,84,84,6,10,7,10,0.6,0.7
2024-10-18T1400,1678A,116.6092,23.2539,汕头市,潮阳子站,,37,30,32,20,17,117,,78,78,2,4,6,6,0.5,0.5
2024-10-18T1400,3444A,116.454,23.2684,汕头市,潮南峡山,,42,32,34,29,17,121,,82,82,7,8,7,7,0.7,0.7
2024-10-18T1400,3624A,116.4069,23.2533,汕头市,潮南子站,颗粒物(PM10),53,56,42,21,21,127,,81,81,11,12,7,7,0.8,0.7
2024-10-18T1400,1693A,115.3653,22.775,汕尾市,市环保局,,,37,28,13,22,103,,79,79,,13,9,9,0.6,0.5
2024-10-18T1400,1694A,115.3706,22.7898,汕尾市,市政府,,43,32,29,30,19,99,,69,69,7,10,8,7,0.5,0.6
2024-10-18T1400,1695A,115.3622,22.7925,汕尾市,新城中学,,45,45,30,20,14,102,,72,72,6,8,11,10,0.4,0.5
2024-10-18T1400,2645A,109.9154,33.8715,商洛市,监测站,,35,35,12,24,11,86,,49,49,9,17,5,6,0.6,0.7
2024-10-18T1400,3045A,109.9643,33.8471,商洛市,商州区中学,,49,44,19,34,10,89,,45,45,8,31,2,3,0.6,0.7
2024-10-18T1400,2408A,115.6702,34.4285,商丘市,环境监测站,,24,,22,13,12,76,,48,48,8,14,4,4,0.3,0.4
2024-10-18T1400,2409A,115.6458,34.4045,商丘市,粮食局,,26,,18,14,16,82,,52,52,7,15,4,4,0.3,0.5
2024-10-18T1400,2410A,115.6293,34.3948,商丘市,睢阳区环保局,,25,,21,14,13,77,,47,47,6,14,4,3,0.2,0.4
2024-10-18T1400,3171A,115.6071,34.4465,商丘市,梁园区档案局,,28,,15,19,11,72,,45,45,7,15,2,2,0.3,0.5
2024-10-18T1400,1141A,121.4,31.238,上海市,普陀,,45,32,35,19,18,142,,77,77,19,23,6,6,0.7,0.6
2024-10-18T1400,1142A,121.478,31.2036,上海市,十五厂,,43,27,36,24,21,136,,76,76,18,29,11,10,0.5,0.5
2024-10-18T1400,1143A,121.467,31.3008,上海市,虹口,,44,28,32,23,19,139,,75,75,18,25,9,7,0.7,0.7
2024-10-18T1400,1144A,121.412,31.1654,上海市,徐汇上师大,,46,28,36,22,21,145,,77,77,21,30,8,8,0.7,0.6
2024-10-18T1400,1145A,121.536,31.2659,上海市,杨浦四漂,,,32,39,25,20,128,,76,76,,31,6,9,0.9,0.8
2024-10-18T1400,1147A,121.425,31.2261,上海市,静安监测站,,45,28,34,25,19,143,,78,78,20,25,8,7,0.5,0.5
2024-10-18T1400,1148A,121.703,31.1907,上海市,浦东川沙,细颗粒物(PM2.5),98,,35,73,19,159,,80,80,14,20,7,7,0.5,0.4
2024-10-18T1400,1149A,121.533,31.2284,上海市,浦东新区监测站,,41,24,31,22,20,130,,79,79,20,26,8,7,0.7,0.6
2024-10-18T1400,1150A,121.577,31.2071,上海市,浦东张江,,42,,30,27,25,133,,83,83,17,28,6,6,0.9,0.8
2024-10-18T1400,3265A,121.4316,31.3322,上海市,宝山庙行,,44,31,37,24,17,139,,77,77,14,20,10,9,0.6,0.6
2024-10-18T1400,3266A,121.8791,31.4662,上海市,崇明上实东滩,,43,24,25,16,12,135,,75,75,12,15,9,8,0.6,0.6
2024-10-18T1400,3268A,121.3162,31.2838,上海市,嘉定南翔,,45,34,33,16,13,144,,73,73,20,29,8,8,0.3,0.3
2024-10-18T1400,3269A,121.3359,30.7456,上海市,金山新城,,50,34,29,7,15,158,,86,86,18,15,8,5,0.5,0.4
2024-10-18T1400,3270A,121.4996,31.0739,上海市,闵行浦江,,44,23,35,23,20,139,,86,86,16,25,7,6,0.6,0.6
2024-10-18T1400,3271A,121.2886,31.1663,上海市,青浦徐泾,臭氧1小时,52,28,38,25,20,161,,80,80,16,25,7,7,0.5,0.5
2024-10-18T1400,3272A,121.2186,31.0378,上海市,松江图书馆,臭氧1小时,62,28,35,25,19,169,,88,88,16,28,6,5,0.6,0.6
2024-10-18T1400,3273A,121.3902,31.2059,上海市,长宁仙霞,,42,39,35,24,17,132,,70,70,25,27,8,7,0.8,0.8
2024-10-18T1400,3274A,121.7965,31.0507,上海市,浦东惠南,,,20,30,18,9,134,,80,80,,23,,10,0.8,0.8
2024-10-18T1400,3544A,121.4891,30.925,上海市,奉贤南桥新城,,49,22,31,22,21,156,,93,93,20,26,9,9,0.7,0.6
2024-10-18T1400,2381A,118.005,28.4572,上饶市,百草园,,35,22,38,3,21,110,,66,66,5,17,7,14,0.1,0.1
2024-10-18T1400,2382A,117.9756,28.4436,上饶市,市监测站,,33,31,41,16,21,104,,70,70,10,22,6,11,0.5,0.7
2024-10-18T1400,2383A,117.9519,28.4628,上饶市,凤凰光学,,31,30,36,13,20,97,,66,66,2,18,8,9,0.7,0.7
2024-10-18T1400,3413A,118.1953,28.4401,上饶市,广丰区教体局,,,23,40,10,24,114,,61,61,,13,8,4,0.3,0.5
2024-10-18T1400,3685A,117.897,28.4315,上饶市,双创科技城,,33,33,40,14,21,97,,71,71,8,20,13,8,0.5,0.6
2024-10-18T1400,1669A,113.5824,24.7733,韶关市,市八中,,43,37,49,20,33,137,,64,64,6,16,18,16,0.5,0.7
