timepoint,stationcode,longitude,latitude,area,positionname,primarypollutant,aqi,pm10,pm10_24h,pm2_5,pm2_5_24h,o3,o3_24h,o3_8h,o3_8h_24h,no2,no2_24h,so2,so2_24h,co,co_24h
2024-07-09T1800,2566A,102.1879,31.914,阿坝藏族羌族自治州,州农科所,,17,9,19,7,7,54,,45,45,18,9,5,5,0.2,0.2
2024-07-09T1800,2568A,102.2502,31.8896,阿坝藏族羌族自治州,马师校,,22,15,19,15,10,47,,40,40,14,11,6,5,0.2,0.2
2024-07-09T1800,3994A,102.2165,31.9024,阿坝藏族羌族自治州,马尔康中学西区,,22,15,19,15,10,54,,44,44,8,7,6,6,0.3,0.4
2024-07-09T1800,2695A,80.292,41.1694,阿克苏地区,电视台,,49,49,33,8,11,142,,121,121,4,10,6,4,0.1,0.2
2024-07-09T1800,2696A,80.2613,41.1551,阿克苏地区,艺术中心,,45,45,35,11,13,139,,120,120,3,10,4,4,0.4,0.4
2024-07-09T1800,2204A,105.6467,38.8363,阿拉善盟,西城区西花园,臭氧1小时,64,21,26,9,19,171,,167,167,7,9,7,8,0.6,0.5
2024-07-09T1800,2205A,105.6985,38.8411,阿拉善盟,蒙二幼,,49,20,22,7,14,155,,154,154,9,8,12,12,0.5,0.6
2024-07-09T1800,2206A,105.724,38.8516,阿拉善盟,环保局新楼,,48,14,21,8,13,153,,155,155,7,8,11,11,0.5,0.5
2024-07-09T1800,2708A,88.1264,47.8517,阿勒泰地区,市站,,40,14,19,3,5,125,,114,114,10,8,6,6,0.5,0.5
2024-07-09T1800,2630A,80.1161,32.5,阿里地区,阿里监测站,,49,12,7,3,4,155,,155,155,3,5,5,7,0.3,0.4
2024-07-09T1800,3192A,80.0903,32.5028,阿里地区,阿里藏医院,臭氧1小时,52,6,9,3,3,161,,160,160,3,3,8,8,0.4,0.3
2024-07-09T1800,2642A,109.0318,32.6537,安康市,香溪洞,,20,15,7,3,3,62,,70,63,5,4,6,5,0.7,0.7
2024-07-09T1800,2643A,109.0281,32.6939,安康市,安康市监测站,,17,9,8,3,6,53,,57,57,4,5,6,6,0.5,0.6
2024-07-09T1800,2644A,109.0072,32.6975,安康市,汉滨区检察院,,21,6,10,3,4,66,,62,62,5,6,6,6,0.5,0.6
2024-07-09T1800,2291A,117.0809,30.5177,安庆市,环科院,,38,38,23,20,13,100,,104,104,17,18,5,6,0.5,0.5
2024-07-09T1800,2292A,117.0331,30.5119,安庆市,马山宾馆,,35,27,22,20,15,112,,105,105,13,23,8,9,0.4,0.4
2024-07-09T1800,2294A,116.9896,30.6145,安庆市,安庆大学,,36,36,30,22,18,107,,106,106,11,13,7,8,0.4,0.4
2024-07-09T1800,3173A,117.0598,30.5351,安庆市,市人大,,34,24,20,17,14,107,,105,105,7,12,8,8,0.4,0.3
2024-07-09T1800,3122A,105.9606,26.2611,安顺市,伍家关,,,,,,,,,,,,,,,,
2024-07-09T1800,3123A,105.9408,26.2431,安顺市,凤凰山,,24,13,13,8,8,76,,70,70,3,3,4,7,0.5,0.5
2024-07-09T1800,3124A,105.9439,26.2564,安顺市,金钟山,,26,12,12,10,10,82,,76,76,4,3,4,4,0.5,0.4
2024-07-09T1800,3125A,105.8983,26.2481,安顺市,娄家坡,,25,21,21,10,9,78,,73,73,4,3,5,5,0.4,0.4
2024-07-09T1800,1818A,114.4839,36.0621,安阳市,棉研所,,,,,,,,,,,,,,,,
2024-07-09T1800,1819A,114.3551,36.1017,安阳市,红庙街,臭氧1小时,62,50,39,35,28,169,,154,154,2,4,3,3,0.5,0.6
2024-07-09T1800,1820A,114.361,36.0681,安阳市,银杏小区,,,52,34,,22,167,,152,152,4,5,3,3,0.5,0.7
2024-07-09T1800,3141A,114.3922,36.0878,安阳市,信访局,,,,34,43,23,168,,153,153,,3,4,3,0.7,0.7
2024-07-09T1800,3669A,114.4705,36.0637,安阳市,左辅环卫站,臭氧1小时,55,48,35,37,27,164,,149,149,2,5,5,4,0.7,0.7
2024-07-09T1800,3703A,114.2917,36.0949,安阳市,安钢职工学校,颗粒物(PM10),73,96,45,38,38,162,,150,150,2,7,2,2,0.6,0.7
2024-07-09T1800,1748A,123.044,41.1196,鞍山市,深沟寺,,36,36,59,21,38,111,,133,130,16,21,6,5,0.6,0.8
2024-07-09T1800,1749A,123.011,41.0931,鞍山市,太阳城,,37,32,54,22,37,118,,133,133,13,17,9,7,0.6,0.7
2024-07-09T1800,1750A,123.0485,41.1442,鞍山市,太平,,36,33,67,20,44,113,,136,136,19,26,6,6,0.9,1
2024-07-09T1800,1751A,122.9642,41.0971,鞍山市,铁西三道街,,38,38,69,23,54,99,,124,124,38,37,24,17,1.7,2.3
2024-07-09T1800,1752A,122.9341,41.0833,鞍山市,铁西工业园区,,39,33,56,20,43,123,,133,133,17,31,8,13,1.0,1.8
2024-07-09T1800,1753A,123.022,41.0821,鞍山市,明达新区,,36,28,50,17,38,113,,129,129,14,21,8,7,0.8,0.8
2024-07-09T1800,1754A,123.1289,41.0228,鞍山市,千山,,,,,,,,,,,,,,,,
2024-07-09T1800,2195A,107.4212,40.761,巴彦淖尔市,附二中,臭氧1小时,74,45,49,40,26,179,,179,179,5,16,3,6,0.6,0.7
2024-07-09T1800,2196A,107.37,40.7372,巴彦淖尔市,市环保大楼,,49,49,64,19,22,150,,149,149,7,20,3,9,0.5,0.6
2024-07-09T1800,1956A,86.1472,41.7538,巴音郭楞蒙古自治州,孔雀公园,颗粒物(PM10),56,61,58,23,19,119,,116,116,2,12,3,3,0.2,0.2
2024-07-09T1800,1957A,86.1972,41.7166,巴音郭楞蒙古自治州,棉纺厂,颗粒物(PM10),57,64,60,17,20,117,,115,115,7,11,4,4,0.2,0.2
2024-07-09T1800,1958A,86.2357,41.7173,巴音郭楞蒙古自治州,经济开发区,颗粒物(PM10),54,58,49,23,21,130,,122,122,3,8,3,3,0.2,0.2
2024-07-09T1800,2914A,106.7677,31.8794,巴中市,苏山坪,,16,9,14,8,10,51,,38,38,3,5,3,3,0.5,0.4
2024-07-09T1800,3182A,106.7656,31.8545,巴中市,丽阳花园,,14,11,21,6,14,42,,28,28,9,14,6,6,0.5,0.6
2024-07-09T1800,3183A,106.7418,31.8654,巴中市,圣泉水务公司,,11,11,18,6,10,32,,26,26,15,15,3,4,0.6,0.6
2024-07-09T1800,3616A,106.7616,31.8344,巴中市,市中心医院,,15,10,23,3,11,48,,36,36,9,16,6,6,0.5,0.6
2024-07-09T1800,2235A,122.7911,45.6077,白城市,洮北区环保局,细颗粒物(PM2.5),59,49,51,42,57,103,,126,125,10,30,3,6,0.3,0.3
2024-07-09T1800,2236A,122.8738,45.5725,白城市,市环保局,细颗粒物(PM2.5),53,46,58,37,46,94,,116,116,9,23,3,4,0.4,0.4
2024-07-09T1800,2231A,126.4219,41.9171,白山市,喜丰,,50,50,53,31,32,88,,98,98,10,10,7,11,1.0,1.2
2024-07-09T1800,2232A,126.4077,41.9419,白山市,环保局,,42,42,51,27,36,87,,90,90,1,6,10,9,0.9,1
2024-07-09T1800,2647A,104.1724,36.5446,白银市,第三小学,颗粒物(PM10),96,142,65,49,28,124,,120,120,10,22,38,18,0.5,0.9
2024-07-09T1800,2648A,104.1465,36.5482,白银市,动力公司,颗粒物(PM10),96,141,57,40,25,125,,120,120,11,15,36,12,0.3,0.6
2024-07-09T1800,2512A,106.6103,23.9011,百色市,市监测站,,46,46,36,21,18,92,,85,85,11,13,7,16,0.8,0.8
2024-07-09T1800,2513A,106.6538,23.8859,百色市,市中心血站,,43,43,38,15,18,98,,84,84,8,12,6,14,0.7,0.7
2024-07-09T1800,3406A,106.6085,23.8798,百色市,祈福高中,,50,50,45,17,30,97,,87,87,5,15,8,20,0.6,0.9
2024-07-09T1800,2270A,117.396,32.939,蚌埠市,工人疗养院,,25,24,26,6,9,79,,78,78,4,4,8,8,0.4,0.4
2024-07-09T1800,2271A,117.3605,32.9427,蚌埠市,百货大楼,,27,25,28,14,13,84,,78,78,3,4,5,5,0.4,0.3
2024-07-09T1800,2273A,117.4185,32.8911,蚌埠市,蚌埠学院,,29,17,21,17,14,91,,90,90,3,4,6,7,0.5,0.5
2024-07-09T1800,2274A,117.3533,32.9673,蚌埠市,淮上区政府,,28,17,22,10,14,87,,88,88,4,5,5,5,0.5,0.5
2024-07-09T1800,2275A,117.3145,32.8977,蚌埠市,高新区,,27,19,23,15,13,86,,82,82,4,6,5,6,0.5,0.5
2024-07-09T1800,3715A,117.3092,32.9314,蚌埠市,蚌埠田家炳中学,,24,23,27,12,14,75,,74,74,3,4,6,6,0.5,0.4
2024-07-09T1800,1585A,109.8756,40.6532,包头市,市环境监测站,臭氧1小时,82,44,59,31,34,185,,169,169,19,45,11,14,0.7,0.8
2024-07-09T1800,1587A,109.9991,40.5842,包头市,包头八中,臭氧1小时,87,40,52,29,32,189,,168,168,15,30,11,17,0.6,0.6
2024-07-09T1800,1588A,109.8538,40.6821,包头市,青山宾馆,臭氧1小时,90,62,59,36,40,192,,177,177,19,42,19,14,1.1,0.9
2024-07-09T1800,1589A,109.8642,40.6288,包头市,惠龙物流,臭氧1小时,98,50,53,31,30,198,,181,181,15,30,19,18,0.8,0.8
2024-07-09T1800,1590A,110.0377,40.5546,包头市,东河鸿龙湾,,,,46,28,28,184,,172,172,,21,,10,0.6,0.9
2024-07-09T1800,3283A,109.9154,40.5685,包头市,滨河大厦,臭氧1小时,89,39,44,30,29,191,,174,174,8,38,11,11,0.8,0.8
2024-07-09T1800,3419A,109.9447,40.6261,包头市,包头市委党校,臭氧1小时,100,36,50,25,30,200,,178,178,13,34,7,11,0.5,0.6
2024-07-09T1800,3683A,109.8331,40.6576,包头市,昆区政府,臭氧1小时,95,58,53,37,36,196,,179,179,23,34,23,16,1.4,1
2024-07-09T1800,1930A,107.185,34.3063,宝鸡市,庙沟村,,29,29,27,15,14,76,,56,47,5,8,8,8,0.5,0.4
2024-07-09T1800,1931A,107.0708,34.3017,宝鸡市,竹园沟,颗粒物(PM10),53,55,25,24,15,99,,74,74,17,13,9,9,0.7,0.7
2024-07-09T1800,1932A,107.1906,34.3672,宝鸡市,三陆医院,,34,26,37,13,22,107,,69,69,10,24,7,7,0.6,0.7
2024-07-09T1800,1933A,107.1431,34.3547,宝鸡市,监测站,,32,22,45,22,23,102,,68,68,16,21,8,8,0.5,0.5
2024-07-09T1800,1934A,107.1186,34.3739,宝鸡市,技工学校,,35,35,34,20,22,104,,71,71,15,19,7,7,0.6,0.6
2024-07-09T1800,1935A,107.3906,34.3528,宝鸡市,陈仓区环保局家属楼,,,22,26,,14,109,,98,98,17,17,6,6,0.5,0.5
2024-07-09T1800,1936A,107.2058,34.3497,宝鸡市,文理学院,,43,,35,30,19,108,,77,77,13,19,8,8,0.5,0.6
2024-07-09T1800,1937A,107.2386,34.3622,宝鸡市,三迪小学,,32,25,34,15,22,102,,76,76,13,21,7,8,0.6,0.6
2024-07-09T1800,1051A,115.493,38.8632,保定市,游泳馆,细颗粒物(PM2.5),60,52,53,43,34,138,,125,125,1,8,7,6,0.4,0.3
2024-07-09T1800,1052A,115.5213,38.8959,保定市,华电二区,细颗粒物(PM2.5),59,59,63,42,31,145,,141,141,7,19,3,6,0.6,0.6
2024-07-09T1800,1053A,115.4713,38.9108,保定市,接待中心,细颗粒物(PM2.5),62,57,53,44,32,137,,129,129,3,16,3,3,0.6,0.5
2024-07-09T1800,1054A,115.4612,38.8416,保定市,地表水厂,细颗粒物(PM2.5),70,71,66,51,42,139,,128,128,6,13,2,2,0.9,0.9
2024-07-09T1800,3581A,115.31981,38.95208,保定市,满城区生态环境分局,细颗粒物(PM2.5),62,56,57,44,31,126,,115,115,2,11,2,2,0.5,0.4
2024-07-09T1800,3582A,115.47694,38.76408,保定市,清苑区第二中学,细颗粒物(PM2.5),73,90,71,53,35,149,,144,144,11,19,5,5,0.7,0.6
2024-07-09T1800,3583A,115.62909,39.02311,保定市,徐水物探局,细颗粒物(PM2.5),67,64,55,48,31,149,,134,134,10,23,4,4,0.5,0.5
2024-07-09T1800,4004A,115.4202,38.8656,保定市,双鹰农机,细颗粒物(PM2.5),63,50,46,45,29,140,,131,131,6,14,5,5,0.4,0.4
2024-07-09T1800,4034A,115.5150,38.8590,保定市,植保所站,细颗粒物(PM2.5),67,56,49,48,37,160,,148,148,7,14,3,4,0.4,0.5
2024-07-09T1800,2594A,99.1678,25.1081,保山市,市环境监测站,,11,8,18,3,9,35,,36,36,4,6,5,6,0.4,0.4
2024-07-09T1800,2595A,99.1711,25.1328,保山市,市环保局,,13,11,19,3,7,40,,41,41,2,4,4,5,0.5,0.5
2024-07-09T1800,1866A,109.2262,21.588,北海市,牛尾岭水库,,,,,,,,,,,,,,,,
2024-07-09T1800,1867A,109.1436,21.4086,北海市,海滩公园,,44,44,26,3,2,66,,55,55,3,4,4,3,0.6,0.6
2024-07-09T1800,1868A,109.0981,21.4661,北海市,新市环保局,,20,19,11,3,4,63,,56,56,3,4,5,5,0.5,0.5
2024-07-09T1800,1869A,109.1778,21.5233,北海市,北海工业园,,23,23,13,7,7,56,,56,56,6,7,4,4,0.4,0.4
2024-07-09T1800,3400A,109.1911,21.4415,北海市,龙潭自来水厂,,20,10,11,3,6,61,,54,54,4,4,5,5,0.4,0.5
2024-07-09T1800,1001A,116.3621,39.8784,北京市,万寿西宫,臭氧1小时,89,65,59,53,45,191,,182,182,13,23,3,3,0.8,0.8
2024-07-09T1800,1002A,116.2202,40.2915,北京市,定陵,臭氧1小时,111,64,48,43,39,222,,182,182,8,7,5,3,0.7,0.6
2024-07-09T1800,1003A,116.4174,39.9289,北京市,东四,臭氧1小时,101,71,64,52,47,202,,189,189,12,28,4,4,0.8,0.7
2024-07-09T1800,1004A,116.4072,39.8863,北京市,天坛,臭氧1小时,90,67,57,54,43,192,,185,185,10,21,3,2,0.7,0.7
2024-07-09T1800,1005A,116.462,39.9365,北京市,农展馆,臭氧1小时,84,68,62,50,43,187,,173,173,13,30,3,3,0.7,0.7
2024-07-09T1800,1006A,116.3392,39.9295,北京市,官园,臭氧1小时,100,73,64,60,45,200,,189,189,13,22,4,5,0.7,0.6
2024-07-09T1800,1007A,116.2878,39.9611,北京市,海淀万柳,臭氧1小时,100,72,63,54,44,200,,182,182,11,29,5,5,0.8,0.7
2024-07-09T1800,1008A,116.6636,40.135,北京市,顺义新城,臭氧1小时,94,56,53,54,42,195,,157,157,11,15,1,2,0.6,0.6
2024-07-09T1800,1009A,116.6275,40.3275,北京市,怀柔镇,臭氧1小时,67,50,51,42,40,173,,154,154,6,4,2,2,0.4,0.4
2024-07-09T1800,1010A,116.2296,40.217,北京市,昌平镇,臭氧1小时,90,67,54,49,41,192,,165,165,15,16,1,2,0.7,0.6
2024-07-09T1800,1011A,116.3966,39.9821,北京市,奥体中心,臭氧1小时,85,65,59,47,43,188,,166,166,16,24,6,4,0.8,0.6
2024-07-09T1800,1012A,116.184,39.9136,北京市,古城,臭氧1小时,88,67,56,49,40,190,,179,179,14,22,1,1,0.7,0.6
2024-07-09T1800,3281A,115.9718,40.4529,北京市,延庆夏都,臭氧1小时,60,52,49,42,39,168,,140,140,7,9,3,3,0.6,0.5
2024-07-09T1800,3417A,117.0709,40.1465,北京市,平谷新城,细颗粒物(PM2.5),53,46,58,37,45,153,,142,142,12,8,3,3,0.5,0.6
2024-07-09T1800,3418A,116.8336,40.4095,北京市,密云新城,臭氧1小时,78,61,55,50,43,182,,156,156,14,8,3,2,0.6,0.5
2024-07-09T1800,3671A,116.088,39.9726,北京市,门头沟三家店,,,,,,,,,,,,,,,,
2024-07-09T1800,3672A,116.1541,39.8204,北京市,丰台云岗,细颗粒物(PM2.5),72,67,62,52,39,170,,157,157,13,18,1,1,0.7,0.6
2024-07-09T1800,3673A,116.6804,39.9081,北京市,通州东关,臭氧1小时,69,48,66,25,45,175,,165,165,6,17,3,3,0.5,0.7
2024-07-09T1800,3674A,115.9577,39.7603,北京市,房山燕山,细颗粒物(PM2.5),64,59,49,46,38,159,,152,152,8,10,3,3,0.7,0.6
2024-07-09T1800,3675A,116.4672,39.7733,北京市,大兴旧宫,臭氧1小时,80,47,52,39,43,184,,170,170,9,12,3,3,0.5,0.7
2024-07-09T1800,3694A,115.986,40.4563,北京市,延庆石河营,臭氧1小时,62,53,49,42,40,169,,139,139,6,8,3,3,0.6,0.5
2024-07-09T1800,3695A,116.6151,40.3053,北京市,怀柔新城,细颗粒物(PM2.5),58,51,50,41,40,155,,142,142,10,6,1,2,0.6,0.6
2024-07-09T1800,3696A,116.2545,39.8768,北京市,丰台小屯,"细颗粒物(PM2.5),臭氧1小时",68,63,59,49,40,174,,164,164,3,17,3,3,0.8,0.7
2024-07-09T1800,3697A,116.84,40.3844,北京市,密云镇,细颗粒物(PM2.5),77,69,54,56,42,172,,147,147,7,11,3,3,0.6,0.5
2024-07-09T1800,1761A,123.8275,41.3064,本溪市,大峪,,42,34,54,24,24,134,,121,121,10,14,9,9,0.6,0.9
2024-07-09T1800,1762A,123.7567,41.3325,本溪市,溪湖,,44,33,43,22,24,138,,124,124,10,15,6,6,0.7,0.9
2024-07-09T1800,1763A,123.7169,41.3094,本溪市,彩屯,,41,33,37,25,28,129,,122,122,18,21,7,6,0.7,0.9
2024-07-09T1800,1764A,123.7669,41.2864,本溪市,东明,颗粒物(PM10),51,51,48,24,27,134,,122,122,17,19,8,7,0.7,0.9
2024-07-09T1800,1765A,123.7992,41.2664,本溪市,新立屯,,42,41,40,22,19,134,,122,122,6,10,5,4,0.7,0.9
2024-07-09T1800,1766A,123.8142,41.3472,本溪市,威宁,,43,43,44,25,32,124,,111,111,14,21,8,8,0.7,0.9
2024-07-09T1800,2587A,105.2864,27.3125,毕节市,八中,,27,25,22,17,17,85,,81,81,11,12,5,6,0.4,0.4
2024-07-09T1800,2588A,105.31,27.2944,毕节市,师专,,24,23,21,12,15,75,,73,73,14,12,5,4,0.5,0.5
2024-07-09T1800,3537A,105.3631,27.3533,毕节市,长征村,,27,25,24,17,17,85,,84,84,7,8,7,7,0.4,0.5
2024-07-09T1800,1629A,118.0018,37.3617,滨州市,第二水厂,颗粒物(PM10),53,56,48,36,36,157,,151,151,4,6,4,2,0.4,0.5
2024-07-09T1800,1630A,117.9776,37.393,滨州市,北中新校,颗粒物(PM10),54,58,51,31,33,150,,147,147,4,5,4,2,0.4,0.6
2024-07-09T1800,3514A,117.9378,37.3956,滨州市,中海酒店,臭氧1小时,53,51,48,31,35,162,,159,159,7,8,4,4,0.3,0.4
2024-07-09T1800,3515A,117.9378,37.3553,滨州市,开发区一中,细颗粒物(PM2.5),55,56,50,39,37,153,,146,146,6,7,6,5,0.6,0.7
2024-07-09T1800,3516A,118.0917,37.694,滨州市,金海六路,,50,49,48,31,30,157,,153,153,9,10,2,3,0.3,0.4
2024-07-09T1800,4028A,117.9956,37.3753,滨州市,滨州市西街道办事处,臭氧1小时,57,51,47,36,37,165,,158,158,3,6,4,2,0.5,0.6
2024-07-09T1800,2311A,115.8072,33.8399,亳州市,污水处理厂,,37,20,8,18,10,117,,108,108,3,3,1,2,0.6,0.7
2024-07-09T1800,2312A,115.7789,33.8518,亳州市,三国揽胜宫,,35,19,13,16,7,110,,102,102,3,4,1,2,0.5,0.5
2024-07-09T1800,3332A,115.7633,33.8034,亳州市,亳州学院,,40,17,10,3,10,125,,116,116,3,4,2,2,0.5,0.5
2024-07-09T1800,2693A,82.0485,44.8556,博尔塔拉蒙古自治州,市党校,,,18,19,6,7,,,104,104,55,14,10,9,0.4,0.2
2024-07-09T1800,2694A,82.0806,44.8969,博尔塔拉蒙古自治州,市环保局,,38,28,27,14,11,121,,106,106,11,16,7,8,0.3,0.4
2024-07-09T1800,1071A,116.8842,38.2991,沧州市,沧县城建局,臭氧1小时,62,62,52,36,34,169,,169,169,12,14,4,2,0.6,0.8
2024-07-09T1800,1072A,116.8584,38.3254,沧州市,电视转播站,臭氧1小时,74,56,50,34,35,179,,170,170,11,13,3,4,0.4,0.6
2024-07-09T1800,1073A,116.8709,38.3228,沧州市,市环保局,臭氧1小时,62,61,51,41,33,169,,167,167,10,13,3,3,0.2,0.3
2024-07-09T1800,3324A,116.8136,38.3004,沧州市,河北水利电力学院,臭氧1小时,82,58,44,42,41,185,,183,183,14,13,4,6,0.5,0.6
2024-07-09T1800,2622A,97.1806,31.1273,昌都市,昌都监测站,,23,9,12,3,7,72,,65,65,8,12,8,8,0.5,0.5
2024-07-09T1800,3719A,97.1714,31.1406,昌都市,昌都会议中心,,23,8,7,3,4,71,,66,66,5,6,6,6,0.4,0.3
2024-07-09T1800,2690A,88.1236,43.8886,昌吉回族自治州,天山天池,,47,21,11,7,5,149,,127,127,8,7,8,5,0.7,0.6
2024-07-09T1800,2692A,87.2717,44.0297,昌吉回族自治州,新区政务中心,,38,19,28,3,12,120,,121,121,9,17,8,9,0.4,0.4
2024-07-09T1800,3613A,87.3095,44.0142,昌吉回族自治州,亚心广场,,39,34,34,3,5,122,,121,121,16,26,5,7,0.2,0.3
2024-07-09T1800,1119A,125.3325,43.9166,长春市,食品厂,细颗粒物(PM2.5),59,51,46,42,33,127,,110,110,13,22,5,5,0.4,0.5
2024-07-09T1800,1120A,125.2863,43.9027,长春市,客车厂,细颗粒物(PM2.5),69,,46,50,35,115,,107,107,23,21,2,3,0.5,0.4
2024-07-09T1800,1121A,125.2841,43.8463,长春市,邮电学院,细颗粒物(PM2.5),60,48,49,43,30,116,,100,100,13,17,7,6,0.4,0.4
2024-07-09T1800,1122A,125.3716,43.8772,长春市,劳动公园,,48,48,54,33,27,127,,115,115,15,21,4,4,0.6,0.6
2024-07-09T1800,1123A,125.3297,43.8805,长春市,园林处,细颗粒物(PM2.5),54,42,50,38,36,121,,110,110,16,17,5,5,0.4,0.4
2024-07-09T1800,1124A,125.4605,43.79,长春市,净月潭,,46,46,45,31,23,106,,108,108,8,11,4,4,0.4,0.4
2024-07-09T1800,1125A,125.7194,43.515,长春市,甩湾子,,,,,,,,,,,,,,,,
2024-07-09T1800,1126A,125.3863,43.8447,长春市,经开区环卫处,,48,47,50,33,27,132,,118,118,15,18,4,4,0.4,0.4
2024-07-09T1800,1127A,125.245,43.7783,长春市,高新区管委会,细颗粒物(PM2.5),59,46,48,42,31,114,,111,111,16,18,5,5,0.4,0.4
2024-07-09T1800,1128A,125.1761,43.8325,长春市,岱山公园,,48,48,50,33,29,101,,107,107,29,29,4,4,0.6,0.9
2024-07-09T1800,1335A,113.0833,28.2325,长沙市,经开区环保局,,28,28,29,13,12,76,,91,90,6,10,5,6,0.4,0.3
2024-07-09T1800,1336A,112.8872,28.2189,长沙市,高开区环保局,,29,24,26,15,11,90,,95,95,4,7,4,6,0.5,0.6
2024-07-09T1800,1337A,113.0792,28.2053,长沙市,马坡岭,,29,23,28,9,14,91,,112,109,5,10,9,10,0.5,0.5
2024-07-09T1800,1338A,112.9394,28.19,长沙市,湖南师范大学,,28,25,32,14,15,88,,95,94,4,10,3,5,0.4,0.5
2024-07-09T1800,1339A,113.0178,28.1322,长沙市,雨花区环保局,,28,28,26,12,11,84,,97,96,1,7,3,6,0.2,0.5
2024-07-09T1800,1340A,112.9792,28.2597,长沙市,伍家岭,,28,26,29,19,13,89,,96,95,4,7,1,4,0.3,0.4
2024-07-09T1800,1341A,113.0014,28.1944,长沙市,火车新站,,30,27,28,17,13,93,,99,98,4,10,3,6,0.3,0.4
2024-07-09T1800,1342A,112.9844,28.1178,长沙市,天心区环保局,,31,31,32,8,13,83,,88,88,6,12,3,6,0.2,0.5
2024-07-09T1800,1343A,112.8908,28.1308,长沙市,湖南中医药大学,,29,28,30,20,12,88,,100,98,1,7,4,6,0.4,0.5
2024-07-09T1800,1344A,112.9581,28.3611,长沙市,沙坪,,29,21,19,13,12,90,,96,96,6,9,6,7,0.4,0.4
2024-07-09T1800,1727A,113.1147,36.1547,长治市,清华站,,43,23,33,19,29,136,,149,144,7,8,9,10,0.3,0.6
2024-07-09T1800,1728A,113.1031,36.1989,长治市,监测站,,42,26,37,19,27,133,,140,138,8,11,4,4,0.7,0.9
2024-07-09T1800,1730A,113.0886,36.2125,长治市,审计局,,42,20,33,14,28,133,,145,142,11,15,2,3,0.6,1
2024-07-09T1800,1731A,113.0844,36.1856,长治市,长治八中,,,,42,,30,,,122,,,11,,3,,1.0
2024-07-09T1800,2845A,113.1569,36.1911,长治市,德盛苑,,44,,31,19,26,138,,149,144,3,6,6,7,0.7,0.9
2024-07-09T1800,3568A,113.06,36.0464,长治市,向阳小学,,49,43,60,30,48,156,,160,158,6,13,5,7,0.8,1.1
2024-07-09T1800,3569A,112.8792,36.3144,长治市,屯留一中,,50,40,47,18,37,157,,168,167,6,16,9,14,0.4,0.9
2024-07-09T1800,3570A,113.235,36.3489,长治市,潞城四中,,47,28,40,28,38,150,,158,156,5,6,7,7,0.5,0.8
2024-07-09T1800,1854A,111.6975,28.9703,常德市,市二中,,29,27,16,13,11,90,,80,80,8,7,7,7,0.4,0.4
2024-07-09T1800,1857A,111.7158,29.1456,常德市,白鹤山,,,,,,,,,,,,,,,,
2024-07-09T1800,3138A,111.7153,29.0289,常德市,武陵区永安,,25,21,21,10,11,78,,81,81,4,6,7,9,0.3,0.3
2024-07-09T1800,3139A,111.6892,28.9881,常德市,鼎城区玉霞,,26,24,21,14,14,83,,80,80,7,4,5,6,0.4,0.5
2024-07-09T1800,3140A,111.6625,29.0531,常德市,武陵区长庚,,25,21,21,14,13,79,,80,80,3,4,10,10,0.5,0.5
2024-07-09T1800,1196A,119.9633,31.762,常州市,市监测站,,30,25,25,12,11,95,,99,99,2,6,6,9,0.3,0.3
2024-07-09T1800,1200A,119.9468,31.7069,常州市,武进监测站,,29,25,25,12,14,91,,94,94,2,6,5,10,0.6,0.6
2024-07-09T1800,1201A,119.9255,31.9087,常州市,安家,,30,30,32,14,14,91,,86,86,9,21,5,6,0.5,0.5
2024-07-09T1800,3002A,119.9805,31.8174,常州市,行政中心,,29,29,23,16,17,92,,95,95,8,9,14,14,0.3,0.3
2024-07-09T1800,3003A,120.0522,31.7748,常州市,经开区,,27,24,34,13,15,84,,94,94,5,22,5,8,0.2,0.4
2024-07-09T1800,3010A,119.9025,31.7964,常州市,钟楼,,28,28,28,16,13,88,,92,92,10,12,4,5,0.5,0.5
2024-07-09T1800,3429A,119.8598,31.7066,常州市,武进经发区,,,41,31,24,16,86,,96,96,,8,6,12,0.4,0.4
2024-07-09T1800,3430A,119.5826,31.7245,常州市,金坛城区,,31,27,24,16,18,99,,99,99,5,11,6,7,0.4,0.5
2024-07-09T1800,2220A,120.4318,41.5881,朝阳市,西梁,细颗粒物(PM2.5),52,52,66,36,42,134,,132,132,10,20,8,9,0.6,0.7
2024-07-09T1800,2221A,120.4521,41.5646,朝阳市,河畔小区,颗粒物(PM10),52,53,62,30,36,141,,138,138,7,10,6,7,0.4,0.6
2024-07-09T1800,2222A,120.4176,41.5648,朝阳市,八里堡,颗粒物(PM10),53,55,61,33,40,138,,137,137,11,19,6,5,0.9,1
2024-07-09T1800,2223A,120.3806,41.5969,朝阳市,农业园区,,50,47,59,35,40,135,,133,133,7,12,6,6,0.5,0.6
2024-07-09T1800,1705A,116.6367,23.6719,潮州市,西园路,,,,20,5,8,79,,91,91,13,11,2,4,0.5,0.5
2024-07-09T1800,3026A,116.6183,23.6608,潮州市,市政府,,25,,26,12,10,80,,94,94,9,8,3,8,0.7,0.7
2024-07-09T1800,4036A,116.6461,23.6761,潮州市,金山,,25,6,20,3,7,80,,91,91,10,8,5,7,0.6,0.6
2024-07-09T1800,2472A,113.0073,25.9061,郴州市,马头岭,,,,33,4,11,63,,81,72,6,5,7,10,0.4,0.5
2024-07-09T1800,2473A,113.0116,25.8226,郴州市,市职中,,22,,15,10,13,69,,84,74,5,6,5,10,0.3,0.3
2024-07-09T1800,2474A,113.0161,25.8001,郴州市,兴隆步行街,,22,13,18,3,10,68,,82,71,6,5,6,12,0.4,0.4
2024-07-09T1800,2475A,113.0383,25.8071,郴州市,市审计局,,23,10,15,8,11,71,,84,73,7,6,12,14,0.2,0.3
2024-07-09T1800,2476A,113.0348,25.7759,郴州市,市环保局,,24,17,16,9,13,76,,86,76,2,3,12,21,0.4,0.4
2024-07-09T1800,1431A,103.9728,30.7236,成都市,金泉两河,,18,16,10,12,4,56,,50,50,5,5,1,1,0.4,0.4
2024-07-09T1800,1432A,104.176,30.6872,成都市,十里店,,16,16,6,3,3,51,,56,56,17,14,3,3,0.5,0.4
2024-07-09T1800,1433A,104.079,30.5706,成都市,三瓦窑,,21,7,8,3,4,67,,66,66,7,6,1,1,0.7,0.5
2024-07-09T1800,1434A,104.1114,30.63,成都市,沙河铺,,19,12,10,6,3,59,,62,62,11,8,2,2,0.4,0.4
2024-07-09T1800,1437A,104.0786,30.6531,成都市,君平街,,22,12,9,3,3,68,,71,71,12,9,2,2,0.4,0.4
2024-07-09T1800,1438A,103.613,31.0283,成都市,灵岩寺,,,,,,,,,,,,,,,,
2024-07-09T1800,2880A,104.0239,30.65639,成都市,大石西路,,22,22,12,12,4,64,,61,61,6,7,2,2,0.5,0.4
2024-07-09T1800,3136A,104.2725,30.5589,成都市,龙泉驿区区政府,,21,6,1,3,0,65,,62,62,9,9,2,3,0.5,0.4
2024-07-09T1800,3357A,104.0106,30.6931,成都市,金博路,,,,5,,4,48,,47,47,,3,1,2,,0.5
2024-07-09T1800,3359A,104.0578,30.5225,成都市,华阳,,19,7,6,7,8,58,,57,57,4,3,3,3,0.6,0.5
2024-07-09T1800,3487A,104.2394,30.5319,成都市,车城东七路,,18,17,10,10,7,57,,56,56,14,12,2,2,0.6,0.6
2024-07-09T1800,3488A,104.3853,30.7453,成都市,青白江技师分院,,17,,10,9,5,54,,54,54,8,8,5,5,0.6,0.6
2024-07-09T1800,3489A,104.0789,30.4072,成都市,科学城,,22,15,8,9,4,69,,64,64,12,10,2,2,0.5,0.4
2024-07-09T1800,4011A,103.8506,30.6947,成都市,光华大道三段,,20,,11,8,4,62,,55,55,2,3,2,3,0.4,0.4
2024-07-09T1800,1062A,117.9531,40.9081,承德市,铁路,,48,41,57,33,42,130,,142,142,18,23,6,6,0.3,0.6
2024-07-09T1800,1063A,117.9392,40.9763,承德市,中国银行,,49,47,55,34,42,137,,132,132,5,15,5,5,0.2,0.4
2024-07-09T1800,1064A,117.9503,40.928,承德市,开发区,颗粒物(PM10),51,51,60,28,39,138,,144,144,15,20,6,5,0.3,0.5
2024-07-09T1800,1065A,117.8051,40.9655,承德市,文化中心,"细颗粒物(PM2.5),臭氧1小时",57,54,66,40,43,165,,147,147,8,23,6,5,0.4,0.5
2024-07-09T1800,1066A,117.9268,41.0026,承德市,离宫,细颗粒物(PM2.5),54,,48,38,44,120,,124,124,1,9,4,3,0.4,0.4
2024-07-09T1800,2314A,117.47,30.6618,池州市,池州学院,,32,32,25,18,13,91,,88,88,6,7,6,6,0.4,0.3
2024-07-09T1800,3237A,117.4918,30.6617,池州市,展览馆,,29,29,22,14,13,92,,89,89,7,6,4,4,0.4,0.4
2024-07-09T1800,3333A,117.5627,30.695,池州市,第八中学,,30,22,22,14,12,95,,90,90,5,6,3,3,0.3,0.3
2024-07-09T1800,3334A,117.5038,30.6243,池州市,第十二中学,,32,32,22,15,13,89,,89,89,8,12,6,6,0.4,0.4
2024-07-09T1800,1744A,118.9233,42.2816,赤峰市,松山一中,,43,35,64,30,43,130,,138,138,17,26,9,10,0.5,0.7
2024-07-09T1800,1745A,118.9576,42.2728,赤峰市,哈达街,,40,31,59,24,46,127,,141,141,14,15,7,11,0.6,0.7
2024-07-09T1800,1746A,118.8788,42.2554,赤峰市,天义路,,46,34,55,31,44,146,,157,157,19,24,6,7,0.2,0.4
2024-07-09T1800,3058A,119.2658,42.0353,赤峰市,银河街,,48,41,64,33,53,151,,139,139,14,16,11,14,0.3,0.4
2024-07-09T1800,3286A,118.9359,42.3147,赤峰市,桥北物流园区,,46,33,58,32,49,129,,137,137,15,21,8,7,1.4,0.9
2024-07-09T1800,2521A,107.3476,22.4136,崇左市,市环保局江州分局,,25,25,24,12,12,56,,70,70,9,8,5,6,0.7,0.7
2024-07-09T1800,2522A,107.3702,22.3707,崇左市,城南新区,,25,25,21,12,11,60,,71,71,7,6,3,3,0.7,0.6
2024-07-09T1800,2298A,118.3093,32.3153,滁州市,老年大学,,26,25,25,11,15,82,,98,98,3,6,5,7,0.4,0.5
2024-07-09T1800,2299A,118.3244,32.2786,滁州市,人大宾馆,,26,12,29,11,19,83,,106,103,4,10,5,6,0.5,0.5
2024-07-09T1800,3207A,118.3118,32.3038,滁州市,市政府原办公楼,,28,,24,19,18,79,,95,95,6,9,6,8,0.6,0.6
2024-07-09T1800,3331A,118.3267,32.2634,滁州市,图书馆,,40,40,31,7,21,80,,101,101,2,7,7,10,0.8,0.9
2024-07-09T1800,2605A,101.5482,25.0441,楚雄彝族自治州,州环境监测站,,13,10,7,3,4,39,,40,40,5,5,3,3,0.5,0.5
2024-07-09T1800,2606A,101.538,25.0492,楚雄彝族自治州,市经济开发区,,12,9,14,8,6,37,,39,38,5,6,4,4,0.5,0.6
2024-07-09T1800,2548A,107.5277,31.2827,达州市,达州职业技术学院,,9,9,16,3,5,11,,14,14,15,11,3,3,0.3,0.3
2024-07-09T1800,2549A,107.5086,31.2186,达州市,市环境监测站,,16,10,19,3,3,12,,18,18,32,22,6,7,0.6,0.6
2024-07-09T1800,2550A,107.4988,31.2132,达州市,凤凰小区,,14,7,11,3,6,16,,22,22,27,20,6,7,0.6,0.5
2024-07-09T1800,2551A,107.5082,31.1986,达州市,达县机关宾馆,,15,9,17,3,8,20,,20,20,29,22,4,4,0.3,0.3
2024-07-09T1800,2552A,107.4644,31.2124,达州市,市政中心,,17,17,22,3,5,30,,21,21,20,19,6,6,0.5,0.5
2024-07-09T1800,2614A,100.1542,25.7054,大理白族自治州,大理市环境监测站,,16,16,14,9,14,41,,35,35,5,6,4,4,0.5,0.5
2024-07-09T1800,2615A,100.2171,25.5811,大理白族自治州,大理古城,,30,30,17,14,10,34,,31,31,21,11,6,6,0.8,0.8
2024-07-09T1800,1109A,121.612,38.9741,大连市,甘井子,,50,41,50,35,45,108,,122,122,13,15,6,8,0.7,0.8
2024-07-09T1800,1110A,121.565,38.9511,大连市,周水子,细颗粒物(PM2.5),57,42,45,40,46,112,,131,131,17,21,10,8,0.7,0.8
2024-07-09T1800,1111A,121.5637,38.8845,大连市,星海三站,,48,48,49,29,33,127,,137,137,9,10,7,8,0.7,0.8
2024-07-09T1800,1112A,121.6302,38.9117,大连市,青泥洼桥,细颗粒物(PM2.5),52,48,60,36,46,117,,135,135,9,16,8,9,0.7,0.9
2024-07-09T1800,1113A,121.6251,38.8638,大连市,傅家庄,细颗粒物(PM2.5),54,40,45,38,43,131,,133,133,10,13,7,7,0.8,0.9
2024-07-09T1800,1114A,121.5213,38.8661,大连市,七贤岭,,43,35,46,30,42,116,,126,126,11,12,5,6,0.6,0.7
2024-07-09T1800,1115A,121.2529,38.8061,大连市,旅顺,细颗粒物(PM2.5),55,,46,39,42,158,,152,152,10,10,8,8,0.7,0.7
2024-07-09T1800,1116A,121.7485,39.1311,大连市,金州,细颗粒物(PM2.5),57,41,46,40,46,109,,123,123,12,10,7,8,0.7,0.9
2024-07-09T1800,1117A,121.7811,39.0496,大连市,开发区,细颗粒物(PM2.5),53,49,52,37,43,114,,123,123,14,15,6,6,0.8,0.9
2024-07-09T1800,1118A,121.9762,39.0631,大连市,双D港,,48,40,47,33,40,132,,133,133,9,12,6,6,0.9,1.1
2024-07-09T1800,1789A,124.81117,46.03138,大庆市,大同区,细颗粒物(PM2.5),88,86,76,65,60,137,,116,116,12,15,6,7,0.6,0.4
2024-07-09T1800,1790A,125.129,46.533,大庆市,龙凤区,颗粒物(PM10),62,73,67,43,38,146,,139,139,16,18,11,6,0.6,0.5
2024-07-09T1800,1791A,124.902,46.408,大庆市,红岗区,细颗粒物(PM2.5),64,53,60,46,41,156,,145,145,11,15,7,7,0.7,0.6
2024-07-09T1800,1792A,125.153,46.586,大庆市,萨尔图区,细颗粒物(PM2.5),73,75,62,53,42,133,,125,125,17,14,8,8,0.5,0.4
2024-07-09T1800,1793A,124.9042,46.6215,大庆市,让胡路区,细颗粒物(PM2.5),63,74,75,45,50,146,,143,143,18,22,6,6,0.5,0.5
2024-07-09T1800,3481A,125.141,46.634,大庆市,萨区政府监测点,颗粒物(PM10),60,69,60,39,38,150,,140,140,14,16,6,7,0.3,0.3
2024-07-09T1800,1721A,113.3819,40.1097,大同市,果树场,,,,,,,,,,,,,,,,
2024-07-09T1800,1723A,113.2994,40.0758,大同市,云冈宾馆,,39,31,35,22,21,124,,156,154,16,13,6,7,0.5,0.5
2024-07-09T1800,1724A,113.3444,40.0917,大同市,大同大学,,38,27,30,15,20,121,,149,147,10,11,8,12,0.5,0.5
2024-07-09T1800,1725A,113.2661,40.1269,大同市,安家小村,,41,41,35,16,16,128,,157,156,14,14,14,13,0.6,0.5
2024-07-09T1800,1726A,113.2711,40.0844,大同市,教育学院,,40,40,35,17,24,125,,157,154,19,20,7,10,0.6,0.5
2024-07-09T1800,3282A,113.3397,40.0597,大同市,大同市卫生学校,,44,44,33,18,21,128,,154,153,14,12,9,10,0.7,0.6
2024-07-09T1800,3565A,113.1367,40.1122,大同市,云冈站,,44,44,35,20,20,133,,157,157,14,13,8,9,0.5,0.5
2024-07-09T1800,3566A,113.1186,40.2556,大同市,图书馆,,49,44,34,22,23,156,,172,172,15,14,7,8,0.6,0.5
2024-07-09T1800,3567A,113.5931,40.0461,大同市,区一中,,36,15,28,10,15,113,,150,146,17,11,4,6,0.6,0.6
2024-07-09T1800,3676A,113.2802,40.0995,大同市,第二人民医院,,42,28,33,18,20,133,,163,159,14,14,8,10,0.5,0.6
2024-07-09T1800,2269A,124.1069,50.4097,大兴安岭地区,科技局,细颗粒物(PM2.5),73,71,66,53,45,97,,88,88,6,7,6,6,0.5,0.4
2024-07-09T1800,3663A,124.1164,50.4278,大兴安岭地区,红旗社区,细颗粒物(PM2.5),89,70,57,66,58,88,,85,85,6,10,7,7,0.6,0.6
2024-07-09T1800,1600A,124.3303,40.0625,丹东市,江湾东路,,29,17,25,7,22,92,,94,94,14,10,15,6,0.5,0.6
2024-07-09T1800,1601A,124.4256,40.1503,丹东市,临江后街,,32,10,26,3,17,100,,98,98,5,7,8,9,0.5,0.6
2024-07-09T1800,1602A,124.3933,40.1461,丹东市,元宝山,,28,8,30,7,17,88,,85,85,10,6,7,6,0.5,0.4
2024-07-09T1800,1603A,124.3633,40.1092,丹东市,民主桥,,27,18,26,8,18,85,,87,87,6,7,4,4,0.5,0.6
2024-07-09T1800,3541A,109.5726,19.5167,儋州市,第一中学子站,,16,11,13,6,6,51,,52,52,1,2,5,6,0.4,0.5
2024-07-09T1800,3542A,109.5567,19.5187,儋州市,东坡学校子站,,16,10,12,9,6,50,,50,50,1,3,4,5,0.4,0.4
2024-07-09T1800,2616A,98.5842,24.428,德宏傣族景颇族自治州,德宏州监测站,,22,22,20,6,9,29,,34,34,19,12,4,8,0.9,0.7
2024-07-09T1800,3677A,98.5881,24.4368,德宏傣族景颇族自治州,芒市人民政府综合楼,,16,16,20,8,9,33,,32,32,9,12,4,18,0.6,0.4
2024-07-09T1800,1901A,104.4239,31.1208,德阳市,东山公园,,21,12,12,6,5,66,,52,52,4,10,2,2,0.5,0.5
2024-07-09T1800,1902A,104.3826,31.1317,德阳市,西小区,,16,,7,3,6,51,,48,48,12,15,1,2,0.6,0.6
2024-07-09T1800,1904A,104.3553,31.1091,德阳市,耐火材料厂,,20,7,5,7,6,63,,52,52,6,9,3,3,0.5,0.6
2024-07-09T1800,3639A,104.4019,31.1244,德阳市,市教育局,,15,8,8,3,6,46,,52,52,13,14,3,4,0.6,0.6
2024-07-09T1800,1622A,116.3032,37.4674,德州市,儿童乐园,臭氧1小时,92,61,51,34,36,193,,172,172,9,12,9,8,0.7,0.8
2024-07-09T1800,1624A,116.2991,37.4451,德州市,监理站,臭氧1小时,101,61,52,36,36,201,,177,177,13,14,9,10,0.6,0.7
2024-07-09T1800,3066A,116.2721,37.4379,德州市,九衢泉纯净水厂,臭氧1小时,101,58,51,34,35,201,,175,175,9,13,6,6,0.8,0.8
2024-07-09T1800,3371A,116.3728,37.4403,德州市,开发区人民医院,臭氧1小时,98,66,52,34,32,198,,177,177,10,14,12,12,0.7,0.7
2024-07-09T1800,3372A,116.3572,37.4094,德州市,太阳城中学,臭氧1小时,98,63,46,36,35,198,,179,179,13,12,9,9,0.7,0.8
2024-07-09T1800,3511A,116.5652,37.3319,德州市,陵城艺术中心,臭氧1小时,90,66,53,31,33,192,,171,171,12,15,8,8,0.7,0.7
2024-07-09T1800,2621A,99.7056,27.8317,迪庆藏族自治州,迪庆州站,,17,17,17,3,8,29,,30,30,9,8,6,10,0.4,0.3
2024-07-09T1800,3180A,99.7136,27.8094,迪庆藏族自治州,质量技术监督局,,12,12,14,7,7,31,,32,32,8,8,6,8,0.3,0.4
2024-07-09T1800,2663A,104.6241,35.5734,定西市,东关小学,颗粒物(PM10),63,76,47,40,24,119,,122,122,8,14,6,5,0.2,0.2
2024-07-09T1800,2664A,104.6194,35.5934,定西市,供电公司,颗粒物(PM10),65,79,46,32,29,116,,125,125,11,19,6,5,0.3,0.3
2024-07-09T1800,1389A,113.7547,23.0494,东莞市,莞城梨川,,24,24,17,16,9,74,,97,97,10,10,7,7,0.7,0.7
2024-07-09T1800,1390A,113.7944,23.0128,东莞市,东城石井,,22,21,14,13,7,68,,92,92,10,11,1,2,0.4,0.5
2024-07-09T1800,1391A,113.7383,22.9658,东莞市,南城西平,,19,19,15,11,8,60,,87,87,7,9,2,2,0.5,0.5
2024-07-09T1800,3319A,113.7338,23.0381,东莞市,万江金泰,,23,20,16,11,8,71,,98,98,5,8,6,6,0.6,0.7
2024-07-09T1800,3626A,113.7533,23.0202,东莞市,南城元岭,,23,23,15,8,6,71,,96,96,4,6,7,7,0.6,0.6
2024-07-09T1800,3627A,113.7875,23.0457,东莞市,东城主山,,30,30,15,10,7,75,,98,98,6,7,6,5,0.5,0.5
2024-07-09T1800,1666A,118.6614,37.4309,东营市,市环保局,臭氧1小时,54,44,40,34,34,163,,148,148,7,5,9,9,0.4,0.5
2024-07-09T1800,3036A,118.6904,37.4338,东营市,开发区管委会,臭氧1小时,59,54,45,31,34,167,,152,152,8,6,7,7,0.3,0.4
2024-07-09T1800,3365A,118.5719,37.565,东营市,垦利区民丰路,臭氧1小时,63,53,43,36,35,170,,150,150,10,7,9,9,0.5,0.6
2024-07-09T1800,3498A,118.5055,37.8612,东营市,河口城区,臭氧1小时,63,48,49,32,36,170,,158,158,2,9,8,9,0.2,0.4
2024-07-09T1800,3646A,118.4978,37.4623,东营市,胜利站,臭氧1小时,54,51,43,36,31,163,,152,152,7,7,6,5,0.7,0.9
2024-07-09T1800,3734A,118.35,37.26,东营市,理想之城,颗粒物(PM10),51,51,45,29,34,154,,141,141,8,6,7,7,0.3,0.5
2024-07-09T1800,1591A,110.0023,39.8129,鄂尔多斯市,综合楼,颗粒物(PM10),62,73,66,29,25,153,,177,177,46,48,9,14,0.8,0.7
2024-07-09T1800,1592A,109.9486,39.8261,鄂尔多斯市,巴音孟克林场办事处,,,41,64,29,29,147,,162,162,,47,7,12,0.9,0.8
2024-07-09T1800,1593A,109.7736,39.5986,鄂尔多斯市,康泽苑,臭氧1小时,84,48,47,24,23,187,,176,176,13,23,10,11,0.6,0.5
2024-07-09T1800,1594A,109.8119,39.5989,鄂尔多斯市,华泰汽车城,臭氧1小时,60,36,50,24,26,168,,167,167,12,36,9,10,0.5,0.5
2024-07-09T1800,1595A,109.9734,39.7884,鄂尔多斯市,奥林花园,颗粒物(PM10),54,58,64,27,32,139,,165,165,33,41,6,8,0.8,0.8
2024-07-09T1800,2436A,114.8938,30.3994,鄂州市,市政府,,27,24,25,3,7,84,,81,81,9,8,7,8,0.7,0.5
2024-07-09T1800,2437A,114.8989,30.3714,鄂州市,赵家坝,,27,27,24,8,8,84,,78,78,6,7,6,8,0.5,0.6
2024-07-09T1800,3654A,114.8094,30.4089,鄂州市,精准医疗中心,,27,20,39,6,13,85,,83,83,3,11,5,8,0.4,0.5
2024-07-09T1800,2454A,109.4978,30.2981,恩施土家族苗族自治州,湖北民院,,,36,33,20,15,93,,31,31,,15,6,6,0.8,0.8
2024-07-09T1800,2455A,109.4707,30.2798,恩施土家族苗族自治州,州电力总公司,,34,34,34,3,17,35,,20,20,39,34,8,8,0.7,0.7
2024-07-09T1800,3549A,109.5061,30.3772,恩施土家族苗族自治州,龙凤新区,,30,24,30,21,20,36,,21,21,16,14,7,6,0.6,0.7
2024-07-09T1800,2499A,108.3411,21.6158,防城港市,沙万,,18,18,17,8,5,54,,53,53,8,10,10,10,0.4,0.4
2024-07-09T1800,2500A,108.3514,21.7731,防城港市,防城档案局,,23,23,13,10,6,52,,45,45,7,7,5,5,0.5,0.4
2024-07-09T1800,2501A,108.3506,21.6414,防城港市,大海花园,,25,25,16,11,5,55,,53,53,7,9,6,6,0.5,0.5
2024-07-09T1800,1371A,113.1294,23.0067,佛山市,湾梁,,33,24,15,13,10,103,,115,115,14,11,6,6,0.6,0.5
2024-07-09T1800,1372A,113.1083,23.0478,佛山市,华材职中,,37,,12,25,9,116,,116,116,16,11,6,4,0.3,0.4
2024-07-09T1800,1373A,113.144,23.0453,佛山市,南海气象局,,,,19,,10,110,,118,118,,8,8,7,0.5,0.4
2024-07-09T1800,1374A,113.2881,22.8094,佛山市,顺德苏岗,,35,24,13,24,7,78,,99,99,10,10,6,6,0.4,0.4
2024-07-09T1800,1376A,112.8383,22.8678,佛山市,高明孔堂,,24,24,20,15,10,68,,76,76,5,6,6,6,0.6,0.6
2024-07-09T1800,1377A,112.8836,23.1588,佛山市,三水监测站,,33,29,18,12,12,104,,102,102,24,20,4,4,0.3,0.3
2024-07-09T1800,1378A,112.867,23.185,佛山市,三水云东海,,36,17,17,13,13,114,,109,109,22,17,4,4,0.2,0.2
2024-07-09T1800,3625A,113.2544,22.7642,佛山市,容桂街道办,,27,27,10,17,10,65,,76,76,22,16,6,7,0.5,0.4
2024-07-09T1800,1280A,119.3903,26.0543,福州市,鼓山,,,,,,,,,,,,,,,,
2024-07-09T1800,1282A,119.2681,26.0504,福州市,师大,,43,43,20,3,4,102,,95,95,9,8,4,4,0.4,0.4
2024-07-09T1800,1283A,119.2984,26.1028,福州市,五四北路,颗粒物(PM10),59,68,22,7,4,113,,104,104,10,8,4,3,0.4,0.3
2024-07-09T1800,1284A,119.2648,26.0768,福州市,杨桥西路,颗粒物(PM10),52,54,22,15,5,109,,102,102,7,8,4,3,0.6,0.5
2024-07-09T1800,1285A,119.317,26.0746,福州市,紫阳,,47,47,22,8,4,102,,95,95,11,10,3,2,0.2,0.3
2024-07-09T1800,3048A,119.5799,26.0936,福州市,九龙,,29,26,20,3,4,90,,96,96,4,7,4,6,0.2,0.2
2024-07-09T1800,3526A,119.5189,25.9664,福州市,吴航,,27,15,17,7,7,84,,89,89,3,5,6,5,0.4,0.3
2024-07-09T1800,1755A,123.7977,41.8491,抚顺市,望花区,,37,35,42,20,29,116,,117,117,11,17,2,2,0.3,0.4
2024-07-09T1800,1756A,123.9161,41.8822,抚顺市,顺城区,,38,34,44,26,29,113,,112,112,12,25,4,4,0.3,0.4
2024-07-09T1800,1757A,124.0436,41.8611,抚顺市,东洲区,,36,,40,25,31,106,,106,106,8,13,5,4,0.3,0.5
2024-07-09T1800,1758A,123.9247,41.8642,抚顺市,新抚区,,31,25,32,20,22,99,,98,98,12,18,2,2,0.3,0.5
2024-07-09T1800,1759A,124.0972,41.8961,抚顺市,大伙房水库,,34,29,36,20,24,106,,105,105,6,10,4,4,0.3,0.4
2024-07-09T1800,1760A,123.7086,41.8391,抚顺市,沈抚新城,,35,30,45,24,36,112,,117,117,7,15,4,4,0.3,0.5
2024-07-09T1800,2376A,116.2127,28.0814,抚州市,桐源党溪,,32,32,26,9,16,76,,100,100,7,4,5,6,0.2,0.3
2024-07-09T1800,2377A,116.3544,27.9831,抚州市,市站,,25,24,23,12,12,78,,88,88,3,4,5,5,0.6,0.6
2024-07-09T1800,2378A,116.3565,27.963,抚州市,血防站,,24,22,24,10,12,75,,84,84,4,5,2,5,0.6,0.6
2024-07-09T1800,2379A,116.3564,28.0007,抚州市,采茶剧团,,24,20,21,10,11,76,,86,86,2,2,3,4,0.7,0.7
2024-07-09T1800,2380A,116.385,27.9647,抚州市,医学分院,,27,24,28,12,11,84,,96,94,5,7,4,5,0.5,0.6
2024-07-09T1800,2207A,121.6094,41.998,阜新市,工业园区,,44,44,61,25,40,133,,134,134,8,23,6,5,0.5,0.8
2024-07-09T1800,2208A,121.6697,42.0279,阜新市,长青街,,42,42,66,25,41,121,,122,122,10,15,5,5,0.4,1.1
2024-07-09T1800,2209A,121.6673,42.0705,阜新市,农业园区,,38,38,59,19,45,116,,119,118,11,12,5,5,0.5,1.4
2024-07-09T1800,2210A,121.6717,42.0224,阜新市,东苑,,43,43,68,24,43,122,,124,124,14,22,7,10,0.4,0.8
2024-07-09T1800,2211A,121.6506,42.0498,阜新市,玉龙新城,,40,39,59,22,36,125,,130,130,14,18,3,3,0.5,0.9
2024-07-09T1800,2301A,115.8277,32.8929,阜阳市,市监测站,,28,,10,3,5,88,,78,78,10,8,4,4,0.5,0.5
2024-07-09T1800,2303A,115.8554,32.8605,阜阳市,开发区,,36,36,14,6,7,80,,76,76,14,10,4,4,0.3,0.3
2024-07-09T1800,2875A,115.784,32.8892,阜阳市,阜阳职业技术学院,,30,7,10,3,7,93,,84,84,7,8,5,5,0.3,0.3
2024-07-09T1800,3468A,115.7901,32.8613,阜阳市,市规划展馆,,25,,16,13,13,77,,69,69,9,9,1,2,0.5,0.5
2024-07-09T1800,3469A,115.836,32.9183,阜阳市,枣园社区,,27,18,13,8,9,84,,77,77,9,8,1,2,0.5,0.5
2024-07-09T1800,2669A,102.9099,34.9841,甘南藏族自治州,州政府,,31,20,29,17,16,98,,99,99,7,8,7,7,0.3,0.3
2024-07-09T1800,3380A,102.8914,34.9617,甘南藏族自治州,甘肃民族师范学院,,31,21,21,9,14,97,,100,100,6,9,3,3,0.2,0.3
2024-07-09T1800,2570A,101.9603,30.0475,甘孜藏族自治州,水桥子,,18,6,7,3,6,57,,62,62,6,11,4,4,0.3,0.3
2024-07-09T1800,3065A,101.9533,29.9972,甘孜藏族自治州,州环保局,,18,,9,3,5,57,,63,63,11,15,2,2,0.3,0.2
2024-07-09T1800,3414A,115.8347,28.932,赣江新区,桑海产业园,,46,46,26,20,13,126,,117,117,16,18,11,12,0.4,0.4
2024-07-09T1800,2362A,114.9017,25.9149,赣州市,通天岩,,,,,,,,,,,,,,,,
2024-07-09T1800,2363A,114.9367,25.8664,赣州市,地委,,28,20,19,9,12,88,,89,89,4,4,8,9,1.0,0.9
2024-07-09T1800,2364A,114.9461,25.8481,赣州市,气象台,,27,17,17,11,11,85,,85,85,6,6,7,8,0.6,0.6
2024-07-09T1800,2365A,114.9322,25.8333,赣州市,市图书馆,,28,14,18,14,10,89,,90,90,6,5,6,15,0.6,1
2024-07-09T1800,2366A,114.8905,25.8471,赣州市,华坚鞋城,,28,22,21,8,11,88,,90,90,6,6,6,21,0.5,0.5
2024-07-09T1800,3109A,115.0093,25.8613,赣州市,赣县区卫计委,,28,18,17,11,11,88,,89,89,5,5,7,7,0.6,0.6
2024-07-09T1800,2683A,106.2319,36.1417,固原市,马园,颗粒物(PM10),54,57,58,12,13,114,,128,128,27,22,5,5,0.7,0.9
2024-07-09T1800,2684A,106.2792,36.0022,固原市,监测站,,42,26,28,8,23,132,,135,135,8,16,6,6,0.3,0.4
2024-07-09T1800,2685A,106.2375,36.0211,固原市,新区,,39,19,28,10,13,124,,128,128,6,14,5,5,0.5,0.5
2024-07-09T1800,3522A,106.2177,35.9959,固原市,原州区十五小,,40,18,26,14,17,127,,132,132,7,14,6,6,0.6,0.7
2024-07-09T1800,2543A,106.6308,30.5278,广安市,小平旧居,,,,,,,,,,,,,,,,
2024-07-09T1800,2544A,106.6303,30.4576,广安市,市委,,,27,20,12,12,41,,44,44,3,9,,7,,0.4
2024-07-09T1800,2545A,106.6271,30.4663,广安市,友谊中学,,23,22,15,16,11,60,,56,56,11,10,7,7,0.5,0.4
2024-07-09T1800,2547A,106.6388,30.4551,广安市,广电花园,,34,34,21,13,11,40,,47,47,12,9,6,6,0.5,0.4
2024-07-09T1800,2902A,106.6351,30.4865,广安市,北辰小学,,20,15,16,14,12,55,,55,55,8,7,7,7,0.3,0.3
2024-07-09T1800,2523A,105.8945,32.4535,广元市,黑石坡,,16,12,12,3,7,49,,59,59,4,9,14,14,0.4,0.4
2024-07-09T1800,2524A,105.821,32.4444,广元市,老城,,20,13,12,7,6,63,,69,69,18,18,4,5,0.5,0.5
2024-07-09T1800,2526A,105.8628,32.4287,广元市,监测站,,26,14,16,3,8,81,,70,70,5,15,6,7,0.5,0.5
2024-07-09T1800,3617A,105.8047,32.4166,广元市,经开区,,23,23,11,8,5,55,,67,67,22,19,4,4,0.7,0.6
2024-07-09T1800,1345A,113.2347,23.1423,广州市,广雅中学,,33,32,24,21,15,104,,123,123,20,16,4,5,0.4,0.4
2024-07-09T1800,1346A,113.2612,23.105,广州市,市五中,,43,,21,30,14,114,,133,133,10,11,4,4,0.6,0.6
2024-07-09T1800,1348A,113.3478,23.0916,广州市,广东商学院,,32,26,21,20,13,102,,122,119,11,18,4,4,0.5,0.5
2024-07-09T1800,1349A,113.4332,23.1047,广州市,市八十六中,,,,23,,9,78,,116,116,,25,3,3,,0.5
2024-07-09T1800,1350A,113.3505,22.9483,广州市,番禺中学,,28,22,21,16,12,89,,123,123,10,14,7,7,0.5,0.5
2024-07-09T1800,1351A,113.2146,23.3916,广州市,花都师范,,50,29,21,23,12,159,,141,141,16,15,6,6,0.4,0.4
2024-07-09T1800,1352A,113.2597,23.1331,广州市,市监测站,,40,40,34,21,11,107,,127,127,14,14,4,5,0.6,0.6
2024-07-09T1800,1353A,113.5618,23.312,广州市,九龙镇镇龙,,45,35,23,17,12,141,,130,130,22,21,7,7,0.5,0.5
2024-07-09T1800,1354A,113.2765,23.1544,广州市,麓湖,,36,34,24,17,13,114,,128,128,12,15,4,4,0.4,0.4
2024-07-09T1800,1355A,113.443,23.3035,广州市,帽峰山森林公园,,49,27,17,13,9,154,,145,145,17,17,5,5,0.5,0.5
2024-07-09T1800,2846A,113.3221,23.1322,广州市,体育西,,37,37,23,22,12,105,,122,122,14,16,4,4,0.5,0.5
2024-07-09T1800,3298A,113.5717,23.5491,广州市,从化街口,臭氧1小时,60,25,20,17,12,168,,133,133,11,15,6,6,0.5,0.5
2024-07-09T1800,3299A,113.3472,23.3692,广州市,白云竹料,,49,47,26,18,11,155,,137,137,22,22,4,4,0.6,0.5
2024-07-09T1800,3300A,113.2981,23.237,广州市,白云嘉禾,,38,37,24,18,11,121,,128,128,20,22,6,6,0.6,0.6
2024-07-09T1800,3301A,113.4256,23.1716,广州市,黄埔科学城,,30,30,22,9,8,90,,123,123,20,21,6,7,0.5,0.6
2024-07-09T1800,3302A,113.3942,23.0483,广州市,番禺大学城,,29,,19,14,9,90,,115,115,10,14,5,5,0.4,0.4
2024-07-09T1800,3303A,113.4922,22.8168,广州市,南沙黄阁,,20,20,24,10,10,53,,90,90,6,13,5,5,0.5,0.6
2024-07-09T1800,3304A,113.5342,22.7896,广州市,南沙街,,30,30,21,9,10,43,,81,79,9,13,5,5,0.5,0.6
2024-07-09T1800,3443A,113.2902,23.5544,广州市,花都梯面,臭氧1小时,73,22,21,14,12,178,,148,148,13,18,4,4,0.5,0.5
2024-07-09T1800,3445A,113.7858,23.7478,广州市,从化良口,,46,19,18,11,10,145,,110,110,6,12,5,5,0.4,0.5
2024-07-09T1800,3446A,113.8051,23.2614,广州市,增城荔城,,45,22,17,14,10,142,,131,131,9,14,6,6,0.5,0.4
2024-07-09T1800,2505A,109.568,23.1478,贵港市,德智高中,,,,,,,,,,,,,,,,
2024-07-09T1800,2506A,109.6047,23.0666,贵港市,江南子站,,29,29,24,15,13,90,,74,74,7,8,7,7,0.5,0.5
2024-07-09T1800,2507A,109.6014,23.0948,贵港市,贵城子站,,27,24,27,18,18,86,,71,71,8,8,7,7,0.5,0.5
2024-07-09T1800,2508A,109.5669,23.1065,贵港市,荷城子站,,27,27,22,3,7,85,,72,72,4,7,10,10,0.5,0.4
2024-07-09T1800,3405A,109.5886,23.1172,贵港市,新世纪学校,,28,27,23,13,12,87,,74,74,5,6,6,6,0.5,0.6
2024-07-09T1800,1439A,106.6899,26.5998,贵阳市,马鞍山,,21,17,14,3,4,66,,67,67,8,8,6,7,0.4,0.4
2024-07-09T1800,1440A,106.6971,26.5694,贵阳市,市环保站,,36,36,27,16,15,58,,60,60,16,17,5,5,0.3,0.3
2024-07-09T1800,1441A,106.6243,26.6266,贵阳市,鉴湖路,,24,24,16,7,7,67,,62,62,5,5,2,3,0.5,0.4
2024-07-09T1800,1442A,106.7487,26.6343,贵阳市,燕子冲,,21,6,8,3,8,66,,67,67,7,7,6,6,0.5,0.5
2024-07-09T1800,1443A,106.6555,26.4365,贵阳市,碧云窝,,24,24,20,3,3,68,,67,67,5,6,5,6,0.8,0.5
2024-07-09T1800,1444A,106.694,26.5161,贵阳市,中院村,,20,19,21,12,8,61,,64,64,10,8,5,5,0.4,0.4
2024-07-09T1800,1445A,106.7109,26.6027,贵阳市,红边门,,35,,21,24,18,62,,63,63,16,13,5,5,0.5,0.6
2024-07-09T1800,1446A,106.7164,26.5699,贵阳市,新华路,,,,,,,,,,,,,,,,
2024-07-09T1800,1447A,106.674,26.5424,贵阳市,太慈桥,,27,27,16,12,9,61,,65,65,8,6,7,7,0.5,0.4
2024-07-09T1800,1552A,106.805,26.3003,贵阳市,桐木岭,,,,,,,,,,,,,,,,
2024-07-09T1800,1862A,110.4144,25.3167,桂林市,电子科大尧山校区,,22,12,20,12,12,69,,63,63,3,6,4,4,0.3,0.4
2024-07-09T1800,1863A,110.2819,25.2697,桂林市,监测站,,20,18,18,8,15,61,,57,57,6,7,5,6,0.5,0.5
2024-07-09T1800,1864A,110.3089,25.2708,桂林市,龙隐路小学,,26,26,19,12,14,63,,59,59,5,7,6,5,0.5,0.5
2024-07-09T1800,1865A,110.2869,25.2178,桂林市,八中,,19,11,17,8,10,58,,56,56,4,7,7,6,0.4,0.5
2024-07-09T1800,3403A,110.1764,25.2381,桂林市,创业大厦,,24,14,15,9,9,74,,64,64,6,5,3,3,0.4,0.3
2024-07-09T1800,3531A,110.296,25.1253,桂林市,旅游学院,,21,6,11,3,9,66,,62,62,4,6,8,8,0.4,0.4
2024-07-09T1800,2674A,100.2561,34.4714,果洛藏族自治州,玛沁县大武镇,,29,20,26,11,10,92,,84,84,11,10,11,11,0.4,0.4
2024-07-09T1800,1129A,126.5422,45.755,哈尔滨市,岭北,细颗粒物(PM2.5),60,55,52,43,38,118,,121,121,11,22,6,6,0.6,0.5
2024-07-09T1800,1130A,126.561,45.8167,哈尔滨市,松北商大,,49,41,62,34,32,92,,105,104,18,30,6,6,0.6,0.6
2024-07-09T1800,1131A,126.979,45.5419,哈尔滨市,阿城会宁,,48,48,57,33,35,113,,117,117,16,26,10,9,0.5,0.6
2024-07-09T1800,1132A,126.599,45.7222,哈尔滨市,南岗学府路,颗粒物(PM10),57,63,67,36,37,115,,121,121,9,23,4,5,0.6,0.5
2024-07-09T1800,1133A,126.689,45.7733,哈尔滨市,太平宏伟公园,颗粒物(PM10),60,70,64,39,36,117,,118,118,17,29,4,6,0.6,0.5
2024-07-09T1800,1134A,126.635,45.7667,哈尔滨市,道外承德广场,细颗粒物(PM2.5),60,64,63,43,27,111,,116,116,20,35,6,8,0.6,0.6
2024-07-09T1800,1135A,126.685,45.7319,哈尔滨市,香坊红旗大街,细颗粒物(PM2.5),68,66,68,49,45,114,,120,120,14,25,8,11,0.5,0.5
2024-07-09T1800,1136A,126.6411,45.7258,哈尔滨市,动力和平路,细颗粒物(PM2.5),62,64,70,44,40,110,,118,117,17,29,7,7,0.5,0.5
2024-07-09T1800,1137A,126.593,45.7478,哈尔滨市,道里建国路,颗粒物(PM10),58,65,58,38,35,108,,111,111,18,29,6,4,0.2,0.3
2024-07-09T1800,1138A,126.615,45.61,哈尔滨市,平房东轻厂,颗粒物(PM10),64,77,79,37,36,101,,109,109,22,38,9,12,0.3,0.3
2024-07-09T1800,1139A,126.595,45.9855,哈尔滨市,呼兰师专,细颗粒物(PM2.5),54,54,55,38,34,104,,110,110,12,25,10,11,0.6,0.5
2024-07-09T1800,1140A,126.6206,45.6842,哈尔滨市,省农科院,颗粒物(PM10),70,89,79,43,37,79,,91,88,44,40,7,12,0.6,0.7
2024-07-09T1800,2688A,93.5128,42.8172,哈密市,地区监测站,,49,49,77,16,29,148,,150,150,4,20,3,5,0.2,0.4
2024-07-09T1800,2689A,93.4961,42.8328,哈密市,哈密师范学校,,,41,80,20,27,145,,148,148,,24,,5,,0.6
2024-07-09T1800,2671A,100.9048,36.9639,海北藏族自治州,海晏县西海镇,,40,38,35,26,26,128,,120,120,8,13,16,15,0.5,0.6
2024-07-09T1800,3867A,102.0738,36.5056,海东市,平安区公安北苑,颗粒物(PM10),69,88,46,28,28,135,,126,126,16,15,15,13,0.5,0.5
2024-07-09T1800,1409A,110.576,19.9507,海口市,东寨港,,,,,,,,,,,,,,,,
2024-07-09T1800,1410A,110.3232,20.0574,海口市,海南大学,,22,11,12,6,6,68,,78,78,7,9,6,6,0.4,0.4
2024-07-09T1800,1411A,110.283,20.0053,海口市,秀英海南医院,,,,16,8,7,83,,78,78,,15,6,6,0.2,0.2
2024-07-09T1800,1412A,110.338,19.9969,海口市,海南师范大学,,23,12,13,6,7,72,,81,81,6,9,6,6,0.4,0.4
2024-07-09T1800,1413A,110.33,20.0356,海口市,龙华路环保局宿舍,,20,16,15,8,6,64,,82,80,7,9,7,7,0.3,0.3
2024-07-09T1800,3539A,110.5111,19.9736,海口市,桂林洋子站,,16,13,14,10,5,51,,58,58,9,8,6,6,0.2,0.2
2024-07-09T1800,2673A,100.6188,36.2866,海南藏族自治州,共和县恰卜恰镇,,33,19,30,13,20,104,,107,107,5,12,6,6,0.5,0.5
2024-07-09T1800,2676A,97.3731,37.3753,海西蒙古族藏族自治州,德令哈市,颗粒物(PM10),51,51,34,6,14,120,,117,117,9,11,9,8,0.4,0.5
2024-07-09T1800,1048A,114.5302,36.6116,邯郸市,东污水处理厂,细颗粒物(PM2.5),67,55,38,48,24,161,,143,143,2,4,1,2,0.7,0.5
2024-07-09T1800,1049A,114.4918,36.5713,邯郸市,矿院,细颗粒物(PM2.5),67,63,39,48,26,172,,155,155,8,9,4,4,0.7,0.6
2024-07-09T1800,1050A,114.484,36.6133,邯郸市,丛台公园,细颗粒物(PM2.5),70,61,40,51,25,169,,154,154,2,4,6,6,0.6,0.5
2024-07-09T1800,3458A,114.7895,36.5593,邯郸市,香泉濮院小区,臭氧1小时,65,65,39,44,23,172,,155,155,5,7,1,2,0.6,0.4
2024-07-09T1800,3579A,114.50634,36.77178,邯郸市,永年区实验高中,细颗粒物(PM2.5),69,78,55,50,33,153,,136,136,5,8,1,2,0.5,0.5
2024-07-09T1800,3580A,114.20016,36.44293,邯郸市,峰峰矿区临水派出所,臭氧1小时,55,58,44,36,24,164,,149,149,5,6,2,3,0.3,0.4
2024-07-09T1800,2634A,106.9893,33.1842,汉中市,汉川机床厂子校,,19,18,16,6,7,59,,53,53,5,9,4,5,0.8,0.7
2024-07-09T1800,2635A,107.0154,33.0706,汉中市,市监测站,,19,11,14,3,5,60,,56,56,9,8,6,6,0.9,0.7
2024-07-09T1800,2636A,107.0089,33.1138,汉中市,鑫源开发区,,17,10,19,8,7,54,,53,53,15,12,8,8,0.9,0.8
2024-07-09T1800,2637A,107.007,33.0323,汉中市,南郑大河坎水厂,,21,12,11,6,4,66,,57,57,6,8,7,7,0.8,0.6
2024-07-09T1800,1223A,120.2072,30.2111,杭州市,滨江,,36,36,31,14,14,105,,101,100,8,11,3,3,0.6,0.6
2024-07-09T1800,1224A,120.0633,30.2747,杭州市,西溪,,32,27,21,21,15,101,,92,92,4,10,6,6,0.4,0.5
2024-07-09T1800,1226A,120.3461,30.3153,杭州市,下沙,,33,33,32,16,14,102,,108,106,6,16,5,6,0.4,0.4
2024-07-09T1800,1227A,120.1269,30.2456,杭州市,卧龙桥,,25,23,22,17,16,66,,87,84,12,15,5,5,0.7,0.7
2024-07-09T1800,1228A,120.1903,30.2692,杭州市,浙江农大,,30,22,25,15,15,93,,94,94,8,17,6,7,0.4,0.4
2024-07-09T1800,1230A,120.1197,30.3119,杭州市,和睦小学,,32,25,23,17,13,101,,96,96,10,14,6,6,0.4,0.5
2024-07-09T1800,1231A,120.3019,30.4183,杭州市,临平镇,,33,26,34,9,13,104,,109,108,8,17,5,5,0.4,0.4
2024-07-09T1800,1232A,120.2697,30.1819,杭州市,城厢镇,,37,32,28,21,15,116,,115,115,9,19,3,4,0.5,0.4
2024-07-09T1800,1233A,120.0883,30.1808,杭州市,云栖,,29,29,28,14,11,81,,98,95,10,17,8,7,0.6,0.6
2024-07-09T1800,3557A,119.9464,30.0494,杭州市,镇二中,,37,30,27,20,21,118,,104,104,9,20,8,8,0.5,0.5
2024-07-09T1800,3558A,119.7183,30.2367,杭州市,市府大楼,,28,22,20,16,16,89,,83,83,8,13,7,6,0.3,0.4
2024-07-09T1800,3656A,120.1556,30.2864,杭州市,消防大队,,31,28,27,16,18,99,,105,104,5,13,6,7,0.8,0.7
2024-07-09T1800,1270A,117.1959,31.7848,合肥市,明珠广场,,41,41,30,17,16,86,,92,92,18,12,7,8,0.3,0.3
2024-07-09T1800,1271A,117.3072,31.8764,合肥市,三里街,,39,39,25,22,14,95,,100,100,15,14,6,6,0.4,0.3
2024-07-09T1800,1272A,117.2588,31.8707,合肥市,琥珀山庄,,44,44,30,22,12,85,,98,98,13,9,8,8,0.6,0.4
2024-07-09T1800,1273A,117.1604,31.9052,合肥市,董铺水库,,40,40,28,27,14,82,,88,88,10,7,3,2,0.4,0.2
2024-07-09T1800,1274A,117.25,31.8571,合肥市,长江中路,,48,48,34,29,18,86,,95,95,12,8,5,6,0.5,0.5
2024-07-09T1800,1275A,117.266,31.9436,合肥市,庐阳区,,35,34,27,24,17,95,,96,96,8,9,4,5,0.4,0.3
2024-07-09T1800,1276A,117.336,31.8586,合肥市,瑶海区,颗粒物(PM10),56,61,30,31,15,83,,90,90,17,11,9,10,0.6,0.5
2024-07-09T1800,1277A,117.3027,31.7964,合肥市,包河区,,36,36,24,14,12,81,,90,90,18,8,5,5,0.5,0.4
2024-07-09T1800,1278A,117.2776,31.7385,合肥市,滨湖新区,,26,22,22,17,13,83,,97,97,11,7,9,9,0.5,0.5
2024-07-09T1800,1279A,117.1318,31.8403,合肥市,高新区,,36,36,26,24,14,80,,86,86,11,10,7,7,0.6,0.5
2024-07-09T1800,3464A,117.3803,31.9147,合肥市,高教基地,,39,38,24,27,15,70,,80,80,14,9,7,7,0.4,0.3
2024-07-09T1800,3614A,79.924,37.0877,和田地区,地区环保局,颗粒物(PM10),228,369,564,93,87,129,,141,140,2,7,7,7,0.3,0.4
2024-07-09T1800,3615A,79.9131,37.113,和田地区,市环保局,颗粒物(PM10),193,335,499,110,94,126,,135,135,2,9,6,7,0.4,0.5
2024-07-09T1800,2516A,108.2011,24.715,河池市,东仁乐园,,30,30,27,15,11,59,,58,58,9,11,6,5,0.6,0.7
2024-07-09T1800,2517A,108.0497,24.6947,河池市,市环保站,,23,19,18,16,13,70,,64,64,6,7,6,11,0.4,0.4
2024-07-09T1800,2518A,108.0983,24.6989,河池市,市疾控中心,,21,14,21,10,12,66,,64,64,9,12,8,8,0.5,0.5
2024-07-09T1800,1696A,114.6778,23.7569,河源市,源西,,,32,26,13,33,126,,106,106,,12,,4,0.5,0.5
2024-07-09T1800,1697A,114.6944,23.7586,河源市,东埔,,40,,22,11,19,126,,108,108,10,9,7,7,0.5,0.5
2024-07-09T1800,1698A,114.6892,23.7233,河源市,老城,,42,27,28,12,10,133,,111,111,6,7,5,4,0.6,0.6
2024-07-09T1800,1718A,115.4208,35.2464,菏泽市,气象局,细颗粒物(PM2.5),67,66,29,48,23,171,,152,152,5,4,4,3,0.5,0.3
2024-07-09T1800,1719A,115.4747,35.2375,菏泽市,市政协,细颗粒物(PM2.5),69,79,26,50,24,170,,151,151,7,5,2,3,0.4,0.3
2024-07-09T1800,3374A,115.5564,35.0891,菏泽市,定陶老年大学,臭氧1小时,62,58,22,41,12,169,,152,152,5,5,2,2,0.6,0.5
2024-07-09T1800,3647A,115.4702,35.2706,菏泽市,菏泽医专,臭氧1小时,68,64,25,41,17,174,,158,158,5,4,2,2,0.6,0.2
2024-07-09T1800,2514A,111.5264,24.4172,贺州市,环保小区,,29,18,22,3,13,92,,72,72,9,10,7,7,0.6,0.6
2024-07-09T1800,2515A,111.5608,24.4078,贺州市,政协大楼,,30,24,27,13,16,94,,78,78,8,13,7,8,0.6,0.5
2024-07-09T1800,3534A,111.4744,24.4553,贺州市,西湾,,28,22,26,19,17,86,,73,73,6,15,8,9,0.4,0.6
2024-07-09T1800,2385A,114.17,35.9019,鹤壁市,市监测站,臭氧1小时,70,54,43,35,34,176,,155,155,7,8,6,5,0.6,0.9
2024-07-09T1800,2386A,114.2956,35.7511,鹤壁市,市交警支队,,,54,45,47,33,171,,149,149,,13,2,5,0.5,0.7
2024-07-09T1800,2387A,114.2878,35.7306,鹤壁市,迎宾馆,细颗粒物(PM2.5),67,48,44,48,39,171,,152,152,14,16,1,2,0.5,0.6
2024-07-09T1800,3474A,114.2617,35.6822,鹤壁市,大新区,颗粒物(PM10),54,58,37,28,21,162,,147,147,9,12,2,2,0.4,0.5
2024-07-09T1800,3596A,114.1572,35.9603,鹤壁市,南山宾馆,臭氧1小时,78,56,42,42,39,182,,158,158,6,8,6,7,0.7,0.9
2024-07-09T1800,2244A,130.2537,47.3416,鹤岗市,哈啤分公司,,42,38,52,29,44,54,,64,60,5,6,13,14,0.4,0.4
2024-07-09T1800,2245A,130.2684,47.3086,鹤岗市,斯达机电,细颗粒物(PM2.5),53,43,56,37,44,59,,71,66,10,9,12,12,0.2,0.2
2024-07-09T1800,2246A,130.3114,47.3388,鹤岗市,东山纸板厂,细颗粒物(PM2.5),55,,62,39,57,58,,70,63,7,7,16,16,0.5,0.5
2024-07-09T1800,2247A,130.1097,47.3382,鹤岗市,五号水库,,36,36,49,17,35,56,,68,,5,6,10,10,0.1,0.2
2024-07-09T1800,2263A,127.4833,50.2524,黑河市,交通局,颗粒物(PM10),66,82,109,47,77,74,,75,74,19,16,14,10,0.5,0.6
2024-07-09T1800,2264A,127.5144,50.2341,黑河市,环保局,颗粒物(PM10),68,85,103,46,74,91,,96,96,10,14,5,7,0.2,0.4
2024-07-09T1800,2265A,127.5291,50.2472,黑河市,大黑河岛,,,,115,65,99,,,,,15,18,1,2,,
2024-07-09T1800,1074A,115.6838,37.7541,衡水市,电机北厂,臭氧1小时,110,80,67,57,41,219,,182,182,7,12,2,4,0.5,0.5
2024-07-09T1800,1075A,115.6303,37.7316,衡水市,市监测站,臭氧1小时,109,65,56,55,36,218,,184,184,9,12,7,7,0.6,0.7
2024-07-09T1800,3188A,115.6683,37.7217,衡水市,市城管局,臭氧1小时,109,66,55,54,38,217,,183,183,7,10,5,5,0.6,0.6
2024-07-09T1800,3459A,115.5989,37.5491,衡水市,地表水厂,臭氧1小时,104,80,53,43,30,208,,177,177,5,8,7,7,0.5,0.5
2024-07-09T1800,2456A,112.5003,26.9167,衡阳市,原169医院,,23,21,20,10,10,73,,73,73,3,11,6,11,0.6,0.7
2024-07-09T1800,2457A,112.6194,26.9258,衡阳市,衡阳化工总厂,,,22,23,,4,74,,79,78,4,6,6,16,0.3,0.4
2024-07-09T1800,2458A,112.6211,26.8956,衡阳市,珠晖区环保局,,,18,20,,,77,,82,82,4,4,6,16,0.5,0.6
2024-07-09T1800,2459A,112.6197,26.8733,衡阳市,市委党校,,24,19,22,8,10,75,,80,78,5,7,8,12,0.4,0.5
2024-07-09T1800,2460A,112.6006,26.8919,衡阳市,市监测站,,24,15,23,12,12,76,,82,81,5,8,6,17,0.4,0.5
2024-07-09T1800,2461A,112.5664,26.9056,衡阳市,真空机电公司,,,29,23,,13,74,,77,77,4,9,6,16,0.5,0.7
2024-07-09T1800,3399A,112.6703,26.882,衡阳市,师范学院,,24,9,20,7,9,74,,79,77,5,7,9,9,0.6,0.6
2024-07-09T1800,2608A,103.3772,23.3993,红河哈尼族彝族自治州,污水处理厂,,13,11,15,3,10,41,,47,46,4,5,4,4,0.4,0.4
2024-07-09T1800,2609A,103.3861,23.35,红河哈尼族彝族自治州,监测站,,18,18,12,9,9,44,,50,49,4,4,7,5,0.4,0.4
2024-07-09T1800,3038A,103.3758,23.368,红河哈尼族彝族自治州,州图书馆,,14,,11,9,7,43,,49,46,3,4,2,2,0.3,0.3
2024-07-09T1800,1090A,111.6507,40.7517,呼和浩特市,呼市一监,,44,39,41,22,26,140,,160,160,15,16,2,3,0.4,0.5
2024-07-09T1800,1091A,111.6572,40.8033,呼和浩特市,小召,,41,41,35,23,20,122,,143,143,28,21,6,7,0.6,0.6
2024-07-09T1800,1094A,111.7516,40.8369,呼和浩特市,如意水处理厂,,42,35,31,17,19,132,,154,154,19,19,4,5,0.5,0.6
2024-07-09T1800,1095A,111.7276,40.8062,呼和浩特市,二十九中,,,33,41,19,22,139,,158,158,20,25,,4,0.5,0.7
2024-07-09T1800,1096A,111.5512,40.7866,呼和浩特市,工大金川校区,,47,47,46,22,24,129,,144,144,19,30,4,6,0.5,0.6
2024-07-09T1800,1097A,111.717,40.7612,呼和浩特市,化肥厂生活区,,47,47,42,22,25,130,,150,150,28,19,8,9,0.6,0.7
2024-07-09T1800,3698A,111.5968,40.8178,呼和浩特市,红旗小学,,,34,40,24,22,132,,156,156,25,26,5,5,,0.5
2024-07-09T1800,3699A,111.6518,40.8389,呼和浩特市,海东办,,40,39,41,21,23,125,,150,150,25,32,2,3,0.5,0.5
2024-07-09T1800,2192A,119.7594,49.2261,呼伦贝尔市,区环保局,细颗粒物(PM2.5),70,68,49,51,37,163,,150,150,13,16,5,4,0.5,0.5
2024-07-09T1800,3061A,119.7512,49.1577,呼伦贝尔市,国华电力东,细颗粒物(PM2.5),53,49,44,37,36,160,,144,144,6,8,4,4,0.3,0.3
2024-07-09T1800,1250A,120.0751,30.8669,湖州市,城西水厂,,30,28,30,17,17,93,,97,97,11,23,3,3,0.4,0.4
2024-07-09T1800,2873A,120.0875,30.8955,湖州市,仁皇山新区,,31,29,30,19,16,97,,106,106,13,20,6,6,0.6,0.6
2024-07-09T1800,2907A,120.1844,30.8596,湖州市,吴兴区站,,30,27,30,19,20,94,,99,99,11,19,6,6,0.5,0.5
2024-07-09T1800,3562A,120.4148,30.8538,湖州市,南浔区站,,29,26,32,16,21,90,,105,104,8,17,3,3,0.5,0.5
2024-07-09T1800,1607A,120.9092,40.7136,葫芦岛市,龙港区,颗粒物(PM10),57,63,62,28,41,118,,124,124,23,19,65,18,0.5,0.6
2024-07-09T1800,1608A,120.8392,40.7514,葫芦岛市,化工街,颗粒物(PM10),56,61,64,31,43,137,,135,135,18,26,17,17,0.7,0.9
2024-07-09T1800,1609A,120.8341,40.7073,葫芦岛市,新区,颗粒物(PM10),53,56,66,29,42,144,,140,140,16,23,7,6,0.6,0.7
2024-07-09T1800,1610A,120.8695,40.7677,葫芦岛市,东城区,细颗粒物(PM2.5),93,,55,69,44,152,,153,153,18,14,10,11,0.7,0.8
2024-07-09T1800,2482A,109.5981,27.5721,怀化市,林科所,,27,11,14,6,5,84,,83,83,4,4,5,7,0.7,0.7
2024-07-09T1800,2483A,109.9453,27.5444,怀化市,河西地税局,,21,14,16,10,10,66,,66,66,4,5,4,4,0.5,0.5
2024-07-09T1800,2484A,109.9781,27.5342,怀化市,市四医院,,20,18,20,10,10,61,,64,64,2,4,2,3,0.4,0.4
2024-07-09T1800,2485A,109.9972,27.5578,怀化市,监测楼,,22,22,17,7,8,54,,56,56,2,4,2,7,0.4,0.5
2024-07-09T1800,2486A,110.0394,27.583,怀化市,市委党校,,19,14,15,9,8,59,,58,58,3,3,5,6,0.4,0.4
2024-07-09T1800,1210A,119.036,33.5981,淮安市,钵池山,,34,19,19,16,14,108,,91,91,8,13,7,7,0.7,0.7
2024-07-09T1800,1211A,119.007,33.575,淮安市,北京南路,,38,,19,26,15,97,,76,76,8,12,6,6,0.8,0.7
2024-07-09T1800,1212A,118.989,33.6067,淮安市,市监测站,,31,27,21,17,18,98,,78,78,9,12,5,5,0.7,0.6
2024-07-09T1800,1213A,119.135,33.5039,淮安市,楚州区监测站,,29,29,29,18,16,87,,84,84,14,13,6,4,0.6,0.5
2024-07-09T1800,1214A,119.0186,33.6297,淮安市,淮阴区监测站,,33,22,18,16,13,103,,83,83,11,15,6,6,0.6,0.5
2024-07-09T1800,3426A,118.8755,33.2894,淮安市,新华书店,,,,22,16,18,96,,68,,,16,5,5,0.7,0.5
2024-07-09T1800,2282A,116.8004,33.975,淮北市,监测站,,35,29,12,24,10,101,,95,95,10,4,5,4,0.6,0.5
2024-07-09T1800,2283A,116.8091,33.9007,淮北市,烈山区政府,,34,32,16,22,12,108,,98,98,8,4,6,6,0.7,0.7
2024-07-09T1800,3330A,116.8873,33.9836,淮北市,杜集区检察院,,38,38,21,23,13,115,,105,105,2,2,5,4,0.6,0.7
2024-07-09T1800,4017A,116.7923,33.9535,淮北市,市博物馆,,37,,14,21,9,117,,104,104,6,3,4,3,0.8,0.7
2024-07-09T1800,2277A,116.8305,32.7727,淮南市,潘集区政府,,,18,22,14,12,81,,75,75,5,7,2,2,,0.2
2024-07-09T1800,2278A,117.0067,32.6524,淮南市,师范学院,,35,31,30,24,19,90,,78,78,7,6,9,8,0.2,0
2024-07-09T1800,2279A,116.8569,32.5951,淮南市,谢家集区政府,,30,25,17,3,7,96,,75,75,3,5,5,5,0.2,0.1
2024-07-09T1800,2280A,116.8281,32.633,淮南市,八公山区政府,,32,32,28,19,15,93,,77,77,4,5,6,5,0.4,0.3
2024-07-09T1800,2281A,116.6325,32.6201,淮南市,焦岗湖风景区管理处,,21,21,12,3,6,51,,35,35,7,8,4,4,0.3,0.2
2024-07-09T1800,2894A,117.0566,32.6531,淮南市,经济技术开发区消防队,,28,26,21,9,9,89,,77,77,7,8,5,4,0.5,0.4
2024-07-09T1800,3329A,117.0108,32.5893,淮南市,山南新区,,29,26,33,3,9,90,,78,78,6,7,5,2,0.5,0.4
2024-07-09T1800,2446A,114.9028,30.4742,黄冈市,职工中心,,32,32,32,16,16,86,,80,80,8,13,7,10,0.3,0.4
2024-07-09T1800,2929A,114.8858,30.4519,黄冈市,红卫路,,27,26,27,13,16,86,,81,81,10,14,7,10,0.2,0.4
2024-07-09T1800,3398A,114.9136,30.4445,黄冈市,市林业局,,28,20,33,12,16,89,,80,80,6,16,6,9,0.4,0.5
2024-07-09T1800,2672A,102.0199,35.5102,黄南藏族自治州,同仁县隆务镇,,36,23,35,6,20,114,,97,97,11,4,5,5,0.3,0.4
2024-07-09T1800,2295A,118.2903,29.6963,黄山市,延安路89号,,35,35,34,3,10,93,,86,86,2,5,6,7,0.5,0.5
2024-07-09T1800,2296A,118.327,29.7178,黄山市,黄山东路89号,,29,19,23,9,9,91,,82,82,4,6,6,6,0.3,0.3
2024-07-09T1800,2297A,118.1371,30.2756,黄山市,黄山区政府5号楼,,27,26,22,8,11,85,,81,81,6,6,6,6,0.5,0.5
2024-07-09T1800,2423A,115.0601,30.2313,黄石市,沈家营,,23,23,29,6,8,69,,78,78,8,11,7,8,0.3,0.3
2024-07-09T1800,2424A,115.0817,30.2006,黄石市,陈家湾,,28,28,26,8,8,78,,84,84,12,6,8,7,0.5,0.4
2024-07-09T1800,2426A,114.8988,30.2019,黄石市,铁山,,28,28,36,9,11,84,,84,84,14,8,8,16,0.6,0.4
2024-07-09T1800,2427A,115.0307,30.2092,黄石市,团城山,,25,24,24,9,9,80,,87,87,5,3,8,6,0.4,0.3
2024-07-09T1800,3149A,115.0235,30.1578,黄石市,笔架山北路,,28,28,28,3,5,84,,83,83,8,3,7,6,0.4,0.4
2024-07-09T1800,1392A,114.4183,23.0528,惠州市,河南岸金山湖子站,,25,15,23,10,13,79,,106,106,8,14,4,4,0.4,0.4
2024-07-09T1800,1393A,114.4053,23.0822,惠州市,下埔横江三路子站,,28,17,28,9,13,87,,112,112,11,14,6,7,0.4,0.5
2024-07-09T1800,1394A,114.4103,23.1142,惠州市,江北云山西路子站,,,12,24,12,14,88,,118,118,,14,,4,0.4,0.4
2024-07-09T1800,1395A,114.4645,22.7833,惠州市,惠阳区承修路船湖子站,,26,19,13,12,8,83,,75,75,14,10,1,1,0.6,0.5
2024-07-09T1800,1396A,114.5317,22.7422,惠州市,大亚湾管委会子站,,24,11,11,6,7,74,,76,76,8,9,5,5,0.5,0.4
2024-07-09T1800,3314A,114.4338,22.8134,惠州市,惠阳秋长,,30,17,13,7,7,96,,101,100,10,7,4,5,0.5,0.4
2024-07-09T1800,3452A,114.6517,22.775,惠州市,大亚湾霞涌,,22,15,10,14,7,68,,67,67,3,5,4,4,0.5,0.4
2024-07-09T1800,2240A,130.9762,45.3001,鸡西市,环保局,,47,47,52,31,34,64,,67,66,8,7,7,7,0.5,0.5
2024-07-09T1800,2243A,130.9429,45.3039,鸡西市,第一中学,颗粒物(PM10),54,58,56,36,33,76,,82,82,4,5,7,7,0.4,0.4
2024-07-09T1800,3707A,131.0207,45.3073,鸡西市,欧美日汽修厂,细颗粒物(PM2.5),59,55,56,42,40,67,,74,74,9,11,8,5,0.4,0.4
2024-07-09T1800,3709A,130.9967,45.3106,鸡西市,市政设施管理处,细颗粒物(PM2.5),55,58,58,39,35,61,,75,74,15,17,8,8,0.3,0.4
2024-07-09T1800,2367A,114.9754,27.0803,吉安市,红声器材厂,,35,34,33,19,17,112,,115,115,7,9,12,14,0.3,0.3
2024-07-09T1800,2368A,114.9658,27.0999,吉安市,市森林工业局,,34,34,31,20,18,106,,113,113,13,12,9,12,0.3,0.5
2024-07-09T1800,2369A,114.99,27.1312,吉安市,市环境监测站,,,32,28,15,15,118,,121,121,,11,9,13,0.2,0.5
2024-07-09T1800,2370A,115.0093,27.0968,吉安市,青原区法院,,35,35,30,16,15,109,,112,112,10,11,12,15,0.6,0.5
2024-07-09T1800,1772A,126.54,43.8622,吉林市,哈达湾,细颗粒物(PM2.5),52,50,57,36,35,120,,108,108,7,21,5,12,0.5,0.7
2024-07-09T1800,1773A,126.5844,43.8358,吉林市,东局子,,50,43,52,35,36,108,,112,108,13,23,4,6,0.6,0.7
2024-07-09T1800,1774A,126.5052,43.8245,吉林市,电力学院,细颗粒物(PM2.5),52,52,62,36,39,101,,110,109,19,23,10,17,0.6,0.7
2024-07-09T1800,1775A,126.6133,43.8972,吉林市,江北,,48,48,46,31,29,104,,99,99,7,13,8,10,0.6,0.6
2024-07-09T1800,1776A,126.555,43.8306,吉林市,江南公园,颗粒物(PM10),60,70,100,37,34,109,,106,106,17,29,2,5,0.7,0.9
2024-07-09T1800,1778A,126.7061,43.7133,吉林市,丰满,,,,,,,,,,,,,,,,
2024-07-09T1800,2868A,126.4739,43.953,吉林市,九站,细颗粒物(PM2.5),68,62,54,49,41,148,,116,116,12,31,10,28,0.7,0.7
2024-07-09T1800,1299A,116.9862,36.6114,济南市,科干所,细颗粒物(PM2.5),62,63,48,44,35,159,,152,152,15,21,8,7,0.5,0.7
2024-07-09T1800,1300A,116.9376,36.665,济南市,农科所,颗粒物(PM10),59,68,50,29,27,161,,161,161,16,23,8,8,0.5,0.5
2024-07-09T1800,1301A,117.1265,36.6734,济南市,开发区,"颗粒物(PM10),细颗粒物(PM2.5)",55,59,46,39,27,160,,159,159,14,18,9,9,0.6,0.8
2024-07-09T1800,1303A,117.0624,36.6868,济南市,省种子仓库,颗粒物(PM10),60,70,56,41,36,157,,160,160,18,20,7,7,0.4,0.7
2024-07-09T1800,1304A,116.9489,36.6447,济南市,机床二厂,臭氧1小时,70,63,49,39,27,176,,174,174,12,20,9,9,0.3,0.4
2024-07-09T1800,1305A,117.0495,36.663,济南市,市监测站,细颗粒物(PM2.5),59,66,49,42,36,164,,164,164,17,23,10,9,0.5,0.6
2024-07-09T1800,1306A,116.7675,36.5484,济南市,长清党校,臭氧1小时,68,68,45,39,34,174,,174,174,9,12,9,8,0.6,0.7
2024-07-09T1800,1616A,117.6795,36.229,济南市,技术学院,细颗粒物(PM2.5),67,66,37,48,33,168,,163,163,8,12,8,8,0.9,1
2024-07-09T1800,1961A,117.532,36.6868,济南市,东山小学,细颗粒物(PM2.5),62,68,56,44,36,167,,167,167,12,18,6,6,0.6,0.8
2024-07-09T1800,3059A,117.7161,36.2049,济南市,泰兴公司,细颗粒物(PM2.5),73,58,38,53,30,167,,154,154,9,14,8,8,0.6,0.7
2024-07-09T1800,3064A,117.6867,36.2171,济南市,莱芜战役纪念馆,"颗粒物(PM10),细颗粒物(PM2.5)",62,73,42,44,27,166,,154,154,9,13,8,8,0.7,0.8
2024-07-09T1800,3494A,117.1673,36.9782,济南市,济阳区政府,细颗粒物(PM2.5),59,66,55,42,35,166,,160,160,7,8,5,7,0.4,0.4
2024-07-09T1800,3495A,117.1171,36.63,济南市,锦屏中学,臭氧1小时,68,59,47,42,35,174,,164,164,14,16,10,10,0.6,0.6
2024-07-09T1800,3682A,116.9814,36.6819,济南市,济南四建,细颗粒物(PM2.5),59,63,50,42,35,158,,155,155,14,21,8,8,0.6,0.8
2024-07-09T1800,1653A,116.6251,35.4302,济宁市,火炬城,细颗粒物(PM2.5),62,60,28,44,21,156,,132,132,9,8,9,9,0.8,0.8
2024-07-09T1800,1655A,116.5491,35.4042,济宁市,电化厂,细颗粒物(PM2.5),70,64,33,51,24,167,,142,142,11,8,6,6,0.7,0.6
2024-07-09T1800,3500A,116.5814,35.3707,济宁市,北湖一中,臭氧1小时,62,65,30,39,18,169,,142,142,10,9,6,6,0.7,0.7
2024-07-09T1800,3501A,116.8249,35.5593,济宁市,服务中心,细颗粒物(PM2.5),62,52,26,44,20,161,,141,141,10,9,2,2,0.6,0.6
2024-07-09T1800,3678A,116.5907,35.4054,济宁市,市第七中学,臭氧1小时,73,58,35,41,19,178,,148,148,14,12,4,4,0.7,0.6
2024-07-09T1800,2255A,130.2751,46.8028,佳木斯市,佳纺,细颗粒物(PM2.5),58,56,56,41,41,56,,77,73,15,13,4,7,0.6,0.5
2024-07-09T1800,2256A,130.3995,46.8307,佳木斯市,发电厂,细颗粒物(PM2.5),60,50,53,43,43,56,,75,72,9,8,7,6,0.5,0.5
2024-07-09T1800,2257A,130.3258,46.7975,佳木斯市,环保局,颗粒物(PM10),53,55,55,30,42,48,,75,70,20,13,7,7,0.8,0.7
2024-07-09T1800,2258A,130.3648,46.8032,佳木斯市,十一中,细颗粒物(PM2.5),58,54,53,41,44,53,,81,75,18,11,8,8,0.5,0.5
2024-07-09T1800,2259A,130.3794,46.7588,佳木斯市,四丰,,,50,48,44,35,38,,68,62,,12,1,1,0.8,0.8
2024-07-09T1800,1252A,120.7436,30.778,嘉兴市,清河小学,,30,29,34,12,14,93,,129,126,8,12,5,6,0.5,0.6
2024-07-09T1800,1253A,120.726,30.7478,嘉兴市,嘉兴学院,,27,27,32,13,17,84,,120,117,10,16,2,2,0.4,0.5
2024-07-09T1800,2872A,120.7846,30.7525,嘉兴市,南湖区残联,,32,28,30,16,18,101,,140,138,14,15,5,6,0.4,0.5
2024-07-09T1800,3407A,120.6916,30.7739,嘉兴市,秀洲住建,,37,37,38,15,16,107,,131,130,13,18,4,4,0.6,0.6
2024-07-09T1800,1945A,98.2908,39.7711,嘉峪关市,气象局,颗粒物(PM10),104,158,235,41,73,146,,140,140,5,14,2,8,0.3,0.4
2024-07-09T1800,2884A,98.2672,39.7978,嘉峪关市,酒钢宾馆,颗粒物(PM10),102,153,255,53,83,150,,142,142,4,14,10,21,0.4,0.5
2024-07-09T1800,3248A,98.2643,39.7724,嘉峪关市,雄关区,颗粒物(PM10),85,120,200,34,57,142,,137,137,5,15,8,10,0.3,0.4
2024-07-09T1800,1383A,113.1064,22.6058,江门市,北街,,33,33,16,20,9,66,,76,76,6,7,4,3,0.4,0.3
2024-07-09T1800,1384A,113.0731,22.5835,江门市,西区,,21,19,18,12,9,67,,79,79,8,8,6,6,0.3,0.3
2024-07-09T1800,1385A,113.0219,22.5311,江门市,圭峰西,,20,20,16,10,10,57,,73,71,9,10,4,4,0.2,0.5
2024-07-09T1800,1386A,113.0828,22.5947,江门市,东湖,,32,25,15,22,9,68,,79,79,7,9,4,5,0.3,0.3
2024-07-09T1800,3311A,113.1075,22.5647,江门市,江海富民,,22,20,25,9,12,68,,80,80,7,8,6,6,0.5,0.5
2024-07-09T1800,3449A,113.05,22.4667,江门市,新会银湖,,20,20,17,7,7,48,,64,63,9,11,5,4,0.4,0.5
2024-07-09T1800,1828A,113.227,35.2125,焦作市,市环保局,细颗粒物(PM2.5),52,44,46,36,34,153,,134,134,4,9,3,3,0.5,0.5
2024-07-09T1800,1830A,113.1992,35.2590,焦作市,影视城,,,,,,,,,,,,,,,,
2024-07-09T1800,3169A,113.2725,35.2067,焦作市,太极体育中心,细颗粒物(PM2.5),54,38,48,38,30,151,,136,136,4,7,1,2,0.3,0.4
2024-07-09T1800,3335A,113.3137,35.2641,焦作市,马村街道办,细颗粒物(PM2.5),55,42,37,39,32,150,,142,142,6,9,7,6,0.6,0.6
2024-07-09T1800,3336A,113.2465,35.2373,焦作市,焦作技师学院,颗粒物(PM10),51,52,40,31,26,132,,110,110,4,8,2,2,0.2,0.3
2024-07-09T1800,3477A,113.1656,35.2539,焦作市,中站许衡医院,,46,32,31,28,29,147,,130,130,7,13,5,7,0.6,0.7
2024-07-09T1800,3981A,113.2449,35.1803,焦作市,原李万街道办,,49,47,37,34,25,138,,118,118,6,9,5,5,0.5,0.5
2024-07-09T1800,1708A,116.3701,23.5345,揭阳市,新兴,,40,40,30,13,16,78,,82,82,8,15,4,4,0.6,0.7
2024-07-09T1800,1709A,116.3264,23.5443,揭阳市,西马,,44,44,39,11,18,85,,83,83,4,14,3,4,0.6,0.8
2024-07-09T1800,1710A,116.3611,23.5626,揭阳市,东兴,,40,40,34,12,14,84,,90,90,4,14,1,2,0.7,0.8
2024-07-09T1800,1711A,116.4151,23.5294,揭阳市,渔湖,,49,49,32,16,16,71,,78,78,13,16,4,4,0.6,0.7
2024-07-09T1800,3320A,116.403,23.5699,揭阳市,曲溪,,25,13,24,7,15,79,,89,87,8,15,5,4,0.6,0.6
2024-07-09T1800,1944A,102.1692,38.5167,金昌市,天庆家园,颗粒物(PM10),77,103,91,50,47,128,,120,120,3,13,10,12,0.5,0.6
2024-07-09T1800,3170A,102.1864,38.5253,金昌市,市委党校,颗粒物(PM10),84,118,103,34,37,130,,118,118,5,13,10,22,0.5,0.5
2024-07-09T1800,4022A,102.1647,38.5371,金昌市,金川区人防中心,颗粒物(PM10),80,109,104,48,45,143,,135,135,3,11,11,10,0.4,0.6
2024-07-09T1800,1262A,119.647,29.077,金华市,十五中,,32,32,33,18,12,100,,119,114,12,16,3,3,0.4,0.5
2024-07-09T1800,1263A,119.686,29.1029,金华市,监测站,,32,25,30,13,16,101,,115,115,6,12,3,3,0.3,0.4
2024-07-09T1800,3659A,119.656,29.1131,金华市,气象局,,33,31,29,15,9,105,,121,121,10,12,6,7,0.2,0.3
2024-07-09T1800,1767A,121.1115,41.0879,锦州市,南山,细颗粒物(PM2.5),64,52,56,46,48,157,,147,147,16,11,7,5,0.7,0.7
2024-07-09T1800,1768A,121.0533,40.8434,锦州市,开发区,颗粒物(PM10),53,55,63,33,45,137,,140,140,11,15,7,16,0.6,1
2024-07-09T1800,1769A,121.1836,41.1119,锦州市,百股街道,细颗粒物(PM2.5),52,52,61,36,46,148,,145,145,13,13,11,12,0.7,0.9
2024-07-09T1800,1770A,121.1178,41.1222,锦州市,天安街道,细颗粒物(PM2.5),60,56,59,43,50,145,,134,134,9,11,7,6,0.7,0.8
2024-07-09T1800,1771A,121.1303,41.1386,锦州市,北湖公园,细颗粒物(PM2.5),53,45,56,37,46,138,,131,131,7,4,7,6,0.7,0.7
2024-07-09T1800,2160A,112.85,35.5051,晋城市,自来水公司,颗粒物(PM10),52,53,50,29,31,153,,151,151,10,20,5,5,0.8,1.1
2024-07-09T1800,2161A,112.8318,35.4936,晋城市,白云商贸,,,,49,,25,154,,150,150,,19,6,7,,1.1
2024-07-09T1800,2162A,112.8508,35.4887,晋城市,市环保局,,48,41,41,27,28,151,,148,148,10,23,6,6,0.7,1
2024-07-09T1800,2163A,112.8676,35.4897,晋城市,技术学院,,48,44,38,29,28,151,,150,150,13,26,6,6,0.8,1.1
2024-07-09T1800,2165A,112.8453,35.546,晋城市,白马寺,,,,,,,,,,,,,,,,
2024-07-09T1800,3620A,112.8271,35.4828,晋城市,泽州一中,,49,48,37,27,26,154,,153,153,10,16,9,8,0.8,1.1
2024-07-09T1800,2171A,112.7532,37.6945,晋中市,锦纶小区,臭氧1小时,74,56,44,29,26,179,,172,172,14,11,13,8,0.8,0.6
2024-07-09T1800,2173A,112.7249,37.7067,晋中市,南都小区,臭氧1小时,83,59,52,23,34,186,,176,176,13,11,10,6,0.5,0.5
2024-07-09T1800,2174A,112.6991,37.6982,晋中市,榆次区政府,臭氧1小时,73,56,48,30,31,178,,173,173,14,12,12,7,0.6,0.4
2024-07-09T1800,2865A,112.7195,37.6828,晋中市,榆次三中,臭氧1小时,72,58,47,27,23,177,,176,176,13,10,12,6,1.3,0.7
2024-07-09T1800,2439A,112.2014,31.0481,荆门市,竹园小学,,30,16,23,8,13,93,,90,90,12,10,8,9,0.5,0.4
2024-07-09T1800,2440A,112.1969,30.9891,荆门市,掇刀,,31,12,22,12,14,99,,96,96,12,11,4,7,0.6,0.5
2024-07-09T1800,2441A,112.2213,31.0386,荆门市,石化一小,,,10,22,3,9,101,,94,94,7,9,,15,0.5,0.5
2024-07-09T1800,3012A,112.1849,31.0362,荆门市,西山林语,,33,18,18,10,13,105,,97,97,5,6,6,7,0.6,0.5
2024-07-09T1800,3547A,112.1632,31.0138,荆门市,龙泉中学南校,,33,6,18,3,10,103,,94,94,10,9,8,8,0.6,0.5
2024-07-09T1800,1844A,112.2494,30.3197,荆州市,市图书馆,,25,,17,11,15,80,,86,86,11,9,6,7,0.6,0.5
2024-07-09T1800,1845A,112.2008,30.3544,荆州市,市委党校,,28,,19,9,14,87,,90,90,12,11,6,7,0.5,0.4
2024-07-09T1800,3194A,112.2747,30.3122,荆州市,管委会,,26,11,19,3,18,83,,85,84,9,10,5,6,0.5,0.4
2024-07-09T1800,3548A,112.1655,30.3364,荆州市,学苑路,,29,,26,14,16,90,,92,92,10,9,6,7,0.5,0.5
2024-07-09T1800,2342A,117.3102,29.3867,景德镇市,王港中学,,,,,,,,,,,,,,,,
2024-07-09T1800,2343A,117.2117,29.2933,景德镇市,老干部活动中心,,31,,17,20,13,98,,94,94,9,7,10,8,0.3,0.2
2024-07-09T1800,2344A,117.1894,29.2789,景德镇市,兽医站,,32,23,23,8,15,101,,100,100,14,17,12,18,0.4,0.5
2024-07-09T1800,2345A,117.1547,29.2617,景德镇市,台达陶瓷,,35,34,25,24,15,73,,71,71,16,15,23,27,0.2,0.2
2024-07-09T1800,2346A,117.2461,29.2956,景德镇市,陶研所,,30,20,16,14,10,96,,87,87,3,3,5,4,0.3,0.2
2024-07-09T1800,1803A,115.9872,29.6815,九江市,十里,,35,27,22,13,13,109,,101,101,12,10,10,15,0.6,0.6
2024-07-09T1800,1804A,115.9584,29.7046,九江市,茅山头,,42,28,22,18,15,134,,124,124,9,8,11,11,0.5,0.5
2024-07-09T1800,1805A,115.9877,29.7295,九江市,西园,,39,26,20,16,15,124,,116,116,12,14,11,11,0.8,0.7
2024-07-09T1800,1806A,116.0172,29.6547,九江市,五七二七厂,,37,,13,24,13,116,,94,94,9,10,10,10,0.6,0.7
2024-07-09T1800,1808A,115.9114,29.6038,九江市,综合工业园,,45,24,22,22,16,143,,128,128,7,12,7,14,1.0,0.8
2024-07-09T1800,1809A,116.0721,29.7535,九江市,石化总厂,,38,33,30,21,13,120,,117,117,13,13,10,13,0.7,0.6
2024-07-09T1800,1810A,115.9773,29.5698,九江市,庐山气象台,,37,25,16,22,13,116,,89,89,2,1,7,6,1.2,0.8
2024-07-09T1800,3190A,116.0254,29.6994,九江市,外国语学校,,42,31,25,17,15,132,,117,117,12,13,10,16,0.6,0.6
2024-07-09T1800,2658A,98.5061,39.7443,酒泉市,仓门街子站,颗粒物(PM10),118,185,254,47,69,139,,133,133,4,11,10,9,0.2,0.3
2024-07-09T1800,2659A,98.4989,39.7256,酒泉市,油田生活基地,颗粒物(PM10),118,185,265,73,99,145,,139,139,6,14,10,10,0.2,0.3
2024-07-09T1800,2698A,76.0072,39.4467,喀什地区,巡警大队,,48,43,58,3,7,151,,138,138,8,13,3,3,0.1,0.2
2024-07-09T1800,2699A,75.9755,39.4694,喀什地区,吾办,,45,37,56,14,22,143,,132,132,6,13,3,3,0.2,0.3
2024-07-09T1800,4027A,75.9483,39.4689,喀什地区,老干局,,,48,67,3,5,151,,137,137,4,11,,4,0.3,0.3
2024-07-09T1800,1824A,114.3389,34.7781,开封市,肿瘤医院,颗粒物(PM10),55,60,27,34,13,142,,126,126,3,3,3,2,0.6,0.5
2024-07-09T1800,1826A,114.2885,34.7965,开封市,世纪星幼儿园,细颗粒物(PM2.5),59,62,27,42,20,154,,138,138,3,2,3,2,0.6,0.4
2024-07-09T1800,3147A,114.3438,34.8106,开封市,龙亭公园,细颗粒物(PM2.5),62,65,28,44,17,150,,132,132,8,6,2,2,0.6,0.5
2024-07-09T1800,3210A,114.3644,34.7964,开封市,汴京公园,,,,,,,,,,,,,,,,
2024-07-09T1800,3473A,114.2485,34.8306,开封市,技师学院,颗粒物(PM10),65,79,27,40,18,146,,123,123,8,6,4,4,0.8,1
2024-07-09T1800,3592A,114.4644,34.7556,开封市,祥符区生态环境局,,,60,30,40,21,139,,127,127,,9,,3,1.5,0.7
2024-07-09T1800,1951A,84.895,45.6094,克拉玛依市,长征新村,,31,31,24,3,5,81,,91,91,6,13,9,9,0.2,0.2
2024-07-09T1800,1952A,84.8988,45.5893,克拉玛依市,南林小区,,33,31,26,8,11,105,,87,87,4,19,6,5,0.1,0.2
2024-07-09T1800,1954A,84.905,44.3396,克拉玛依市,独山子区,,39,20,22,3,10,124,,122,122,5,7,6,7,0.4,0.4
2024-07-09T1800,1955A,85.6979,46.098,克拉玛依市,乌尔禾区商贸楼,,25,,16,17,6,80,,93,90,15,7,4,3,0.5,0.4
2024-07-09T1800,3612A,85.1045,45.6899,克拉玛依市,白碱滩区新站,,43,43,21,7,14,114,,99,99,2,10,5,6,0.2,0.2
2024-07-09T1800,2697A,76.1454,39.7142,克孜勒苏柯尔克孜自治州,市人民政府,,50,36,49,14,18,157,,137,137,1,6,8,13,0.3,0.4
2024-07-09T1800,3665A,76.1658,39.7157,克孜勒苏柯尔克孜自治州,克州文化中心,,50,40,36,11,16,159,,144,144,6,6,10,12,0.4,0.4
2024-07-09T1800,1450A,102.8204,24.8886,昆明市,呈贡新区,,20,20,17,3,6,58,,61,61,8,8,4,5,0.5,0.5
2024-07-09T1800,1451A,102.6251,24.9608,昆明市,西山森林公园,,,,,,,,,,,,,,,,
2024-07-09T1800,1452A,102.7252,25.0902,昆明市,龙泉镇,,16,6,13,3,5,51,,52,52,6,8,6,7,0.4,0.5
2024-07-09T1800,1453A,102.7266,25.0375,昆明市,东风东路,,15,11,15,8,8,47,,52,51,11,10,2,2,0.3,0.3
2024-07-09T1800,1454A,102.6742,25.0669,昆明市,金鼎山,,16,13,16,3,4,49,,51,51,8,11,7,8,0.2,0.3
2024-07-09T1800,1455A,102.6644,25.0401,昆明市,碧鸡广场,,15,12,18,3,8,48,,51,51,10,12,2,4,0.3,0.4
2024-07-09T1800,3179A,102.7494,25.0119,昆明市,官渡区博物馆,,19,12,13,3,7,59,,59,59,9,7,8,6,0.4,0.4
2024-07-09T1800,3375A,102.8017,24.8336,昆明市,青年创业园,,18,14,15,7,7,56,,60,60,4,8,7,9,0.3,0.3
2024-07-09T1800,3550A,102.7997,24.9786,昆明市,昆明学院,,20,8,13,3,7,63,,60,60,9,7,5,4,0.3,0.4
2024-07-09T1800,3551A,102.5967,24.6736,昆明市,晋宁区生态环境分局,,16,10,12,3,5,50,,52,52,4,6,6,6,0.4,0.4
2024-07-09T1800,3552A,102.6678,24.9856,昆明市,云天化总部,,16,11,16,3,9,50,,56,56,8,7,2,2,0.4,0.4
2024-07-09T1800,1456A,91.1319,29.6514,拉萨市,八廓街,,35,9,9,8,8,111,,110,110,8,10,7,6,0.3,0.3
2024-07-09T1800,1457A,91.1221,29.6747,拉萨市,市环保局,,,8,12,3,7,101,,105,105,14,15,10,9,,0.2
2024-07-09T1800,1458A,91.0874,29.6475,拉萨市,区监测站,,35,18,12,3,6,112,,111,111,8,11,7,7,0.4,0.4
2024-07-09T1800,1459A,91.1774,29.6541,拉萨市,西藏大学,,33,,7,7,6,103,,104,104,3,5,8,8,0.1,0.1
2024-07-09T1800,1460A,90.9798,29.6588,拉萨市,区辐射站,,36,9,12,3,8,113,,106,106,9,15,7,8,0.2,0.3
2024-07-09T1800,1461A,91.0834,29.6292,拉萨市,拉萨火车站,,35,8,7,6,7,111,,110,110,6,6,8,8,0.2,0.3
2024-07-09T1800,2520A,109.2203,23.7256,来宾市,来宾技工学校,,25,20,18,15,10,80,,69,69,6,5,6,7,0.6,0.6
2024-07-09T1800,3535A,109.1781,23.7297,来宾市,兴宾区政府,,25,17,17,11,10,80,,74,74,5,8,4,5,0.6,0.6
2024-07-09T1800,4002A,109.2416,23.7461,来宾市,中南小学,,25,17,19,16,11,80,,74,74,6,7,8,7,0.6,0.6
2024-07-09T1800,1476A,103.631,36.1031,兰州市,兰炼宾馆,颗粒物(PM10),84,118,59,55,38,150,,139,139,15,23,11,13,0.3,0.4
2024-07-09T1800,1477A,104.1373,35.9454,兰州市,榆中兰大校区,,,,,,,,,,,,,,,,
2024-07-09T1800,1478A,103.8412,36.0726,兰州市,生物制品所,颗粒物(PM10),78,105,58,47,34,131,,134,134,28,33,12,13,0.4,0.5
2024-07-09T1800,1479A,103.831,36.0464,兰州市,铁路设计院,颗粒物(PM10),87,124,58,45,31,120,,131,131,47,36,7,9,0.5,0.6
2024-07-09T1800,3186A,103.7158,36.1058,兰州市,教育港,颗粒物(PM10),86,121,60,48,30,158,,158,158,13,21,13,16,0.4,0.5
2024-07-09T1800,3241A,103.7439,36.0842,兰州市,百合公园,"颗粒物(PM10),细颗粒物(PM2.5)",78,106,54,57,30,139,,148,148,16,26,10,12,0.7,0.8
2024-07-09T1800,3242A,103.9611,35.998,兰州市,和平,颗粒物(PM10),85,120,59,52,30,152,,149,149,9,16,6,7,0.4,0.6
2024-07-09T1800,3245A,103.6633,36.533,兰州新区,新区管委会,颗粒物(PM10),84,118,55,46,27,163,,140,140,10,14,12,16,0.4,0.4
2024-07-09T1800,3246A,103.6975,36.4789,兰州新区,舟曲中学,颗粒物(PM10),82,114,47,40,25,154,,140,140,9,15,8,9,0.4,0.5
2024-07-09T1800,1067A,116.6708,39.5111,廊坊市,药材公司,臭氧1小时,74,36,59,32,39,179,,165,165,7,14,1,3,0.5,0.7
2024-07-09T1800,1068A,116.7214,39.5589,廊坊市,开发区,臭氧1小时,79,47,59,39,42,183,,163,163,8,15,2,2,0.5,0.7
2024-07-09T1800,1070A,116.7244,39.5269,廊坊市,北华航天学院,臭氧1小时,75,55,64,32,39,180,,160,160,10,14,2,2,0.4,0.6
2024-07-09T1800,2919A,116.7022,39.5453,廊坊市,河北工业大学,臭氧1小时,77,54,64,35,41,181,,162,162,10,15,2,2,0.5,0.6
2024-07-09T1800,2535A,103.7723,29.5462,乐山市,花湖湾,,13,12,5,3,3,41,,40,40,21,15,3,3,0.4,0.3
2024-07-09T1800,2536A,103.7627,29.5844,乐山市,牛耳桥,,18,14,9,10,5,55,,50,50,19,16,2,3,0.5,0.6
2024-07-09T1800,2537A,103.7508,29.6006,乐山市,市第三水厂,,18,14,10,10,5,56,,51,51,20,16,2,2,0.5,0.4
2024-07-09T1800,2538A,103.7571,29.5664,乐山市,市监测站,,19,12,9,3,3,58,,56,56,17,14,2,2,0.6,0.5
2024-07-09T1800,3361A,103.7311,29.5628,乐山市,理工大学,,21,6,7,3,4,65,,60,60,12,12,4,4,0.4,0.4
2024-07-09T1800,2598A,100.2143,26.8576,丽江市,西南郊,,,,,,,,,,,,,,,,
2024-07-09T1800,2599A,100.2497,26.8802,丽江市,丽江古城,,22,22,15,10,10,31,,33,33,11,11,6,6,0,0.4
2024-07-09T1800,2600A,100.2203,26.8906,丽江市,市中心,,13,12,8,9,5,34,,33,33,10,9,11,11,0.3,0.4
2024-07-09T1800,1267A,119.914,28.4514,丽水市,监测站大楼,,25,22,20,17,8,72,,86,86,7,9,3,3,0.4,0.4
2024-07-09T1800,1268A,119.93,28.4586,丽水市,莲都小学,,31,31,22,6,10,76,,89,89,7,10,4,4,0.5,0.4
2024-07-09T1800,1269A,119.879,28.4231,丽水市,余庄前,,26,26,21,12,11,65,,81,80,7,9,2,2,0.4,0.4
2024-07-09T1800,1173A,119.176,34.5885,连云港市,市环境监测站,,31,14,10,9,7,99,,93,91,18,12,4,4,0.6,0.5
2024-07-09T1800,3000A,119.3581,34.6972,连云港市,德源药业,,33,12,7,3,5,105,,107,97,21,8,4,3,0.7,0.5
2024-07-09T1800,3007A,119.178,34.844,连云港市,新城一中,,35,,12,16,8,111,,113,113,14,10,4,3,0.8,0.8
2024-07-09T1800,3008A,119.3608,34.7519,连云港市,胡沟管理处,,27,12,9,7,6,84,,95,92,15,14,5,5,0.8,0.8
2024-07-09T1800,3009A,119.1478,34.5911,连云港市,矿山设计院,,31,14,9,9,7,97,,92,84,14,11,3,3,0.4,0.4
2024-07-09T1800,3434A,119.2413,34.6539,连云港市,工贸学校,,35,11,10,8,6,112,,104,104,9,5,8,6,0.8,0.8
2024-07-09T1800,3664A,119.4172,34.7341,连云港市,连云街道,,44,23,10,16,6,140,,117,110,15,8,6,3,0.6,0.7
2024-07-09T1800,2571A,102.3431,27.8099,凉山彝族自治州,青龙寺,,12,9,20,3,10,37,,40,40,4,8,2,2,0.4,0.6
2024-07-09T1800,2572A,102.2721,27.8415,凉山彝族自治州,邛海宾馆,,19,10,14,10,11,59,,53,53,4,11,11,10,0.6,0.7
2024-07-09T1800,2573A,102.2625,27.898,凉山彝族自治州,西昌市政府,,23,19,21,16,14,49,,41,41,8,14,13,10,0.6,0.7
2024-07-09T1800,2574A,102.2685,27.8851,凉山彝族自治州,凉山州政府,,17,16,21,11,13,52,,46,46,9,14,11,10,0.6,0.8
2024-07-09T1800,2575A,102.237,27.8914,凉山彝族自治州,长安,,24,24,23,12,13,52,,48,48,11,18,26,12,0.8,0.7
2024-07-09T1800,2212A,123.2,41.1953,辽阳市,宏伟区,,42,41,59,20,32,134,,132,132,13,21,10,11,0.6,0.8
2024-07-09T1800,2213A,123.1683,41.2495,辽阳市,新华园,,48,48,58,24,35,119,,134,134,17,25,10,12,0.6,0.9
2024-07-09T1800,2214A,123.2354,41.2639,辽阳市,滨河路,,49,49,50,20,32,131,,135,135,16,27,10,10,0.5,0.8
2024-07-09T1800,2215A,123.149,41.2991,辽阳市,铁西工业园,,46,46,50,17,27,104,,121,121,10,19,9,10,0.8,1
2024-07-09T1800,2227A,125.1358,42.8845,辽源市,环保局,,37,30,40,18,29,116,,116,116,11,14,14,9,0.6,0.7
2024-07-09T1800,3239A,125.0764,42.9078,辽源市,银鹰制药,,35,28,41,20,31,112,,114,114,9,14,4,5,0.8,0.8
2024-07-09T1800,1625A,115.9848,36.4372,聊城市,区政府,臭氧1小时,60,61,43,42,29,168,,155,155,12,14,9,10,0.5,0.6
2024-07-09T1800,2878A,116.0072,36.4343,聊城市,聊大东校,臭氧1小时,68,57,33,48,32,174,,164,164,14,12,6,8,0.6,0.6
2024-07-09T1800,3200A,115.9819,36.4978,聊城市,监控中心,颗粒物(PM10),60,69,40,36,26,159,,151,151,11,14,8,8,0.4,0.4
2024-07-09T1800,3513A,116.0445,36.4361,聊城市,九州社区,细颗粒物(PM2.5),59,63,45,42,28,164,,150,150,12,12,6,8,0.7,0.7
2024-07-09T1800,4018A,116.0567,36.4608,聊城市,星美广场,颗粒物(PM10),62,73,53,42,29,158,,147,147,20,18,6,7,0.7,0.8
2024-07-09T1800,2632A,94.3681,29.6376,林芝市,林芝监测站,,14,6,5,3,4,44,,39,39,1,2,7,7,0.3,0.3
2024-07-09T1800,2633A,94.3616,29.6616,林芝市,林芝人民医院,,14,9,8,3,4,44,,40,40,3,4,9,9,0.1,0.1
2024-07-09T1800,2603A,100.0781,23.8982,临沧市,市环保局,,36,,15,25,13,37,,40,40,7,8,4,4,0.1,0.2
2024-07-09T1800,2604A,100.0894,23.8822,临沧市,市气象局,,15,15,16,3,12,35,,40,40,8,9,4,5,0.2,0.4
2024-07-09T1800,1733A,111.5531,36.0783,临汾市,临钢医院,颗粒物(PM10),61,72,54,31,28,165,,156,156,10,13,6,6,0.8,0.8
2024-07-09T1800,1734A,111.5028,36.0714,临汾市,技工学校,"细颗粒物(PM2.5),臭氧1小时",67,58,50,48,35,173,,163,163,11,19,6,6,0.8,0.7
2024-07-09T1800,1736A,111.5018,36.0855,临汾市,市委,臭氧1小时,89,78,66,37,27,191,,176,176,8,18,6,7,1.1,0.9
2024-07-09T1800,3018A,111.505,36.1014,临汾市,唐尧大酒店,臭氧1小时,62,46,42,25,24,169,,161,161,10,18,4,4,0.9,0.8
2024-07-09T1800,3668A,111.5036,36.0414,临汾市,城南,,,,38,,23,,,103,,,25,,4,,0.8
2024-07-09T1800,2667A,103.2069,35.5993,临夏回族自治州,环保局,,42,36,40,29,26,107,,101,101,5,13,7,7,0.3,0.5
2024-07-09T1800,2668A,103.2417,35.6057,临夏回族自治州,建设大厦,,39,39,29,19,20,90,,100,100,18,14,10,10,0.4,0.5
2024-07-09T1800,1618A,118.3429,35.0532,临沂市,沂河小区,细颗粒物(PM2.5),67,48,22,48,19,146,,128,128,23,18,8,8,0.5,0.5
2024-07-09T1800,1619A,118.295,35.0583,临沂市,鲁南制药厂,细颗粒物(PM2.5),55,48,18,39,16,154,,131,131,4,6,8,8,0.7,0.7
2024-07-09T1800,1620A,118.2794,34.9976,临沂市,新光毛纺厂,,50,48,15,35,15,136,,126,126,19,12,4,4,0.8,0.8
2024-07-09T1800,1621A,118.3956,35.0888,临沂市,河东保险公司,颗粒物(PM10),51,51,22,35,17,139,,122,122,6,8,4,4,0.6,0.6
2024-07-09T1800,3370A,118.3564,35.0215,临沂市,十里堡居委,细颗粒物(PM2.5),79,,21,58,18,148,,130,130,11,10,8,8,0.7,0.7
2024-07-09T1800,3496A,118.3604,35.1084,临沂市,南坊新区,细颗粒物(PM2.5),55,53,23,39,16,152,,129,129,12,11,6,6,0.9,0.9
2024-07-09T1800,3860A,118.3920,35.0300,临沂市,皇山花园小区,细颗粒物(PM2.5),55,48,20,39,18,145,,127,127,12,14,7,7,0.9,0.9
2024-07-09T1800,1870A,109.4856,24.3895,柳州市,柳东小学,,26,17,19,10,10,81,,75,75,6,9,6,7,0.5,0.5
2024-07-09T1800,1871A,109.4157,24.3277,柳州市,环保监测站,,,,25,,15,81,,71,71,6,7,6,6,0.5,0.6
2024-07-09T1800,1872A,109.389,24.341,柳州市,河西水厂,,25,19,20,16,11,80,,73,73,5,6,6,7,0.3,0.4
2024-07-09T1800,1873A,109.4311,24.2921,柳州市,市四中,,29,29,20,15,13,90,,80,80,5,8,5,6,0.3,0.3
2024-07-09T1800,1874A,109.4006,24.3631,柳州市,市九中,,28,28,27,6,10,81,,75,75,10,10,4,4,0.4,0.5
2024-07-09T1800,1875A,109.4958,24.3134,柳州市,古亭山,,29,27,20,12,12,90,,78,78,7,10,6,6,0.4,0.4
2024-07-09T1800,3402A,109.5422,24.3996,柳州市,市二中,,28,20,20,8,11,89,,78,78,6,9,6,7,0.5,0.5
2024-07-09T1800,2307A,116.5079,31.737,六安市,监测大楼,,33,23,21,23,15,79,,96,95,6,8,5,5,0.5,0.4
2024-07-09T1800,2308A,116.4738,31.7643,六安市,皖西学院,,26,18,27,18,14,70,,88,85,3,5,3,4,0.4,0.3
2024-07-09T1800,2309A,116.4996,31.7905,六安市,朝阳厂,,33,33,21,20,15,65,,87,78,2,3,8,8,0.4,0.3
2024-07-09T1800,2310A,116.5567,31.7886,六安市,开发区,,26,,25,18,17,68,,82,79,5,6,6,6,0.5,0.5
2024-07-09T1800,2576A,104.8,26.5892,六盘水市,窑上,,,,,,,,,,,,,,,,
2024-07-09T1800,2577A,104.83,26.5917,六盘水市,黄土坡,,29,17,18,12,9,91,,73,73,8,8,6,6,0.4,0.4
2024-07-09T1800,2578A,104.89,26.5939,六盘水市,水钢,,31,23,23,13,10,97,,76,76,4,5,12,10,0.3,0.3
2024-07-09T1800,2579A,104.8475,26.5894,六盘水市,民中,,29,19,19,9,10,92,,72,72,7,9,7,7,0.2,0.2
2024-07-09T1800,2580A,104.9544,26.5506,六盘水市,双水,,32,19,19,11,12,100,,80,80,5,5,6,6,0.2,0.2
2024-07-09T1800,2335A,117.0189,25.1181,龙岩市,龙岩师专,,,,,,,,,,,,,,,,
2024-07-09T1800,2336A,117.0217,25.1033,龙岩市,龙岩市监测站,,24,24,12,7,9,62,,61,61,6,7,4,6,0.3,0.3
2024-07-09T1800,2337A,117.0258,25.0661,龙岩市,闽西职业技术学院,,20,16,14,3,7,64,,65,65,3,5,3,7,0.4,0.4
2024-07-09T1800,2338A,117.0196,25.0306,龙岩市,龙岩学院,,19,16,11,3,7,60,,63,63,4,4,2,4,0.3,0.3
2024-07-09T1800,2665A,105.0822,33.3261,陇南市,汉王镇固水子,,,,,,,,,,,,,,,,
2024-07-09T1800,2885A,104.9339,33.3826,陇南市,滨江中学,,48,48,33,9,8,106,,93,93,16,16,3,3,0.4,0.4
2024-07-09T1800,3247A,104.955,33.371,陇南市,市总工会,,44,44,27,18,10,104,,98,98,20,12,6,6,0.3,0.3
2024-07-09T1800,2487A,111.9589,27.8901,娄底市,电视发射台,,24,24,24,7,10,56,,75,74,5,5,7,7,0.6,0.6
2024-07-09T1800,2488A,111.9975,27.725,娄底市,市监测站,,20,20,19,10,9,64,,74,74,4,4,7,7,0.4,0.4
2024-07-09T1800,2489A,112.0194,27.7314,娄底市,市委党校,,,23,23,9,13,58,,65,64,5,5,11,8,,0.6
2024-07-09T1800,2490A,111.9561,27.7569,娄底市,涟钢,颗粒物(PM10),55,59,62,19,29,46,,51,50,21,29,24,25,1.0,1.1
2024-07-09T1800,2491A,111.9892,27.7044,娄底市,市政府,,20,12,19,3,13,64,,74,73,4,5,10,10,0.3,0.3
2024-07-09T1800,1893A,105.4324,28.9634,泸州市,九狮山,,17,8,11,3,7,52,,43,43,12,12,5,5,0.6,0.5
2024-07-09T1800,1894A,105.4427,28.9063,泸州市,小市上码头,,21,9,16,3,8,67,,54,54,12,11,3,5,0.4,0.4
2024-07-09T1800,1895A,105.4241,28.8573,泸州市,兰田宪桥,,20,9,14,8,13,63,,57,57,10,11,6,6,0.3,0.3
2024-07-09T1800,1896A,105.4379,28.8833,泸州市,市环监站,,20,10,16,6,11,61,,53,53,11,9,6,6,0.4,0.4
2024-07-09T1800,3490A,105.3617,28.7703,泸州市,纳溪区环保局,,21,15,16,3,7,65,,66,66,12,13,3,3,0.5,0.5
2024-07-09T1800,2183A,111.1406,37.5211,吕梁市,环保局,,43,22,35,16,35,137,,105,105,10,31,1,2,0.6,0.8
2024-07-09T1800,2185A,111.1297,37.5136,吕梁市,自来水公司,,45,29,38,22,33,144,,120,120,15,24,4,3,0.9,0.8
2024-07-09T1800,2867A,111.1283,37.51,吕梁市,马茂庄小学,,47,29,40,18,37,149,,117,117,16,34,4,2,1.1,0.9
2024-07-09T1800,1812A,112.3931,34.6516,洛阳市,市委党校,细颗粒物(PM2.5),53,48,26,37,23,155,,132,132,8,9,2,3,0.8,0.6
2024-07-09T1800,1814A,112.4657,34.6871,洛阳市,豫西宾馆,细颗粒物(PM2.5),55,54,36,39,25,160,,140,140,11,14,3,4,0.7,0.6
2024-07-09T1800,1815A,112.494,34.6886,洛阳市,河南林校,,48,37,23,28,20,151,,128,128,9,12,1,2,0.7,0.6
2024-07-09T1800,1816A,112.3844,34.623,洛阳市,开发区管委会,,50,47,25,35,18,152,,130,130,7,5,9,8,0.7,0.4
2024-07-09T1800,1817A,112.4267,34.6258,洛阳市,市委新办公区,细颗粒物(PM2.5),58,42,22,41,21,155,,133,133,7,4,6,5,0.7,0.5
2024-07-09T1800,3340A,112.6005,34.6326,洛阳市,伊滨,细颗粒物(PM2.5),60,67,28,43,26,152,,132,132,7,7,4,4,0.7,0.5
2024-07-09T1800,3341A,112.4951,34.6332,洛阳市,中移产业园,细颗粒物(PM2.5),58,45,26,41,25,152,,131,131,6,6,8,7,0.8,0.6
2024-07-09T1800,3593A,112.5736,34.8993,洛阳市,吉利监测站,"颗粒物(PM10),细颗粒物(PM2.5)",52,53,26,36,20,154,,128,128,3,3,2,3,0.9,0.6
2024-07-09T1800,3635A,112.3677,34.662,洛阳市,河科大西苑校区,,50,50,24,33,15,158,,136,136,5,6,4,5,0.9,0.6
2024-07-09T1800,3636A,112.4388,34.6781,洛阳市,英才小学,细颗粒物(PM2.5),53,49,40,37,28,152,,131,131,2,7,2,5,0.8,0.7
2024-07-09T1800,2399A,114.051,33.5699,漯河市,三五一五工厂,,43,20,13,20,13,135,,122,122,4,5,7,6,0.5,0.4
2024-07-09T1800,2400A,114.0055,33.5698,漯河市,漯河大学,,45,22,15,22,13,141,,131,131,4,4,7,7,0.6,0.6
2024-07-09T1800,2401A,114.0138,33.5828,漯河市,市水利局,,45,,12,31,15,135,,125,125,5,4,7,7,0.4,0.3
2024-07-09T1800,2402A,114.0261,33.5698,漯河市,市广电局,,44,27,13,20,12,138,,127,127,2,2,3,3,0.6,0.6
2024-07-09T1800,3478A,113.9749,33.5664,漯河市,市图书馆,,45,26,16,22,15,141,,130,130,1,2,5,6,0.4,0.3
2024-07-09T1800,3479A,114.0967,33.5906,漯河市,召陵区卫健委,,42,26,16,20,15,133,,126,126,4,4,4,4,0.4,0.3
2024-07-09T1800,1798A,118.5092,31.6837,马鞍山市,湖东路四小,,32,29,32,20,20,102,,115,115,11,15,8,10,0.5,0.7
2024-07-09T1800,1799A,118.5024,31.6449,马鞍山市,开发区,,36,36,34,23,18,85,,106,106,27,26,9,10,0.6,0.8
2024-07-09T1800,1800A,118.5228,31.7231,马鞍山市,慈湖,,33,33,27,21,18,100,,116,116,19,21,13,12,0.7,0.8
2024-07-09T1800,1802A,118.6245,31.7241,马鞍山市,濮塘,,40,,27,28,18,97,,107,107,13,12,4,4,0.6,0.7
2024-07-09T1800,3633A,118.4918,31.6809,马鞍山市,雨山,,37,37,34,23,18,96,,113,110,12,22,6,7,0.6,0.8
2024-07-09T1800,1686A,111.0286,21.4688,茂名市,电白南海,,17,17,19,9,8,40,,45,45,5,3,5,5,0.2,0.4
2024-07-09T1800,1687A,110.9294,21.6533,茂名市,茂石化七小,,15,12,13,9,11,45,,50,50,4,4,8,9,0.5,0.6
2024-07-09T1800,1688A,110.9107,21.6687,茂名市,健康路,,17,14,11,3,4,52,,55,55,6,6,8,9,0.4,0.4
2024-07-09T1800,1689A,110.8592,21.6828,茂名市,高岭,,27,27,15,12,11,49,,47,47,10,7,9,9,0.6,0.5
2024-07-09T1800,3450A,111.01,21.5165,茂名市,电白水东,,14,6,8,3,5,44,,46,46,8,5,3,3,0.6,0.6
2024-07-09T1800,2539A,104.0308,30.0478,眉山市,黑龙滩水库,,22,,18,15,16,52,,39,39,4,9,6,6,0.5,0.5
2024-07-09T1800,2540A,103.8416,30.0874,眉山市,气象局,,17,9,9,7,4,53,,48,48,14,15,7,7,0.4,0.4
2024-07-09T1800,3137A,103.8578,30.0744,眉山市,市委党校,,17,12,7,3,0,52,,49,49,19,15,7,7,0.5,0.4
2024-07-09T1800,3148A,103.8291,30.0564,眉山市,区人社局,,19,6,10,3,1,58,,50,50,19,20,9,9,0.5,0.4
2024-07-09T1800,1690A,116.1231,24.3284,梅州市,梅江月梅,,25,22,24,15,10,79,,81,81,2,9,8,9,0.4,0.4
2024-07-09T1800,1691A,116.0797,24.2719,梅州市,梅县新城,,38,38,21,15,13,78,,75,75,5,9,4,4,0.3,0.4
2024-07-09T1800,1692A,116.1248,24.2654,梅州市,环境监控中心,,39,39,25,14,14,74,,69,69,6,14,4,9,0.3,0.3
2024-07-09T1800,3315A,116.1233,24.2991,梅州市,梅龙,,24,17,19,11,12,74,,81,80,4,8,8,12,0.4,0.5
2024-07-09T1800,1878A,104.7778,31.4741,绵阳市,富乐山,,10,10,7,7,6,29,,34,34,19,12,8,8,0.6,0.5
2024-07-09T1800,1879A,104.7563,31.4535,绵阳市,市人大,,18,16,10,11,7,24,,31,31,36,21,5,5,0.7,0.6
2024-07-09T1800,1880A,104.6697,31.4668,绵阳市,高新区自来水公司,,17,17,11,3,3,31,,36,36,24,21,5,5,0.6,0.6
2024-07-09T1800,1881A,104.7287,31.5075,绵阳市,三水厂,,,8,10,6,9,10,,22,22,,24,8,7,0.7,0.6
2024-07-09T1800,3491A,104.69,31.5322,绵阳市,西科大附属小学,,11,10,12,6,6,34,,35,35,15,18,5,5,0.6,0.6
2024-07-09T1800,3492A,104.5648,31.5343,绵阳市,安州区旅游局,,14,14,6,7,7,37,,39,39,20,15,8,8,0.5,0.4
2024-07-09T1800,1784A,129.61,44.561,牡丹江市,环保大楼,,42,42,46,24,31,70,,87,86,10,13,6,7,0.4,0.5
2024-07-09T1800,1785A,129.6115,44.5782,牡丹江市,文化广场,细颗粒物(PM2.5),63,53,52,45,45,65,,83,83,16,18,7,7,0.5,0.6
2024-07-09T1800,1786A,129.5904,44.5963,牡丹江市,第一医院,细颗粒物(PM2.5),58,41,45,41,39,68,,85,84,10,12,5,5,0.4,0.5
2024-07-09T1800,1787A,129.6364,44.6075,牡丹江市,机车工厂,细颗粒物(PM2.5),110,100,55,83,39,62,,83,82,7,9,8,25,2.7,0.5
2024-07-09T1800,1788A,129.6386,44.5462,牡丹江市,第一中学,颗粒物(PM10),54,57,56,32,27,72,,93,91,12,14,4,4,0.4,0.4
2024-07-09T1800,2531A,105.0703,29.61,内江市,市监测站,,15,,10,10,10,39,,19,19,14,10,8,6,0.4,0.4
2024-07-09T1800,2532A,105.0717,29.5947,内江市,东兴区政府,,17,17,14,3,2,43,,23,23,16,13,10,9,0.6,0.5
2024-07-09T1800,2533A,105.0653,29.5817,内江市,内江二中,,15,6,10,3,7,47,,24,24,15,15,8,8,0.6,0.6
2024-07-09T1800,2534A,105.0406,29.5822,内江市,内江日报社,,,,8,8,6,,,24,23,13,11,,7,0.7,0.7
2024-07-09T1800,2628A,92.0657,31.4846,那曲市,那曲监测站,,28,18,31,6,18,87,,82,82,5,10,6,7,0.5,0.7
2024-07-09T1800,3128A,92.0506,31.4797,那曲市,那曲会议中心,,,10,27,3,13,96,,90,90,,14,3,4,0.3,0.5
2024-07-09T1800,1290A,115.8931,28.6843,南昌市,省外办,,41,41,38,19,17,125,,124,124,9,12,7,8,0.4,0.4
2024-07-09T1800,1291A,115.8886,28.7003,南昌市,省林业公司,,40,34,27,19,13,127,,128,128,11,12,6,8,0.7,0.7
2024-07-09T1800,1292A,115.8126,28.7442,南昌市,林科所,,43,24,30,17,13,137,,139,138,7,25,4,11,0.6,0.5
2024-07-09T1800,1294A,115.8518,28.687,南昌市,建工学校,,40,26,24,7,9,127,,130,130,6,9,8,11,0.4,0.3
2024-07-09T1800,1295A,115.8921,28.6424,南昌市,象湖,,43,19,20,14,12,135,,142,142,8,8,5,7,0.7,0.6
2024-07-09T1800,1296A,115.7423,28.7996,南昌市,武术学校,,,24,26,22,13,128,,120,120,,7,5,5,0.5,0.5
2024-07-09T1800,1298A,115.9314,28.6842,南昌市,省站,,38,26,45,22,16,119,,120,120,13,12,6,7,0.6,0.5
2024-07-09T1800,3046A,115.9084,28.6062,南昌市,机电学校,,38,38,31,17,12,119,,125,125,10,9,9,10,0.6,0.6
2024-07-09T1800,3690A,115.9721,28.7031,南昌市,外国语学校,,40,34,30,20,15,125,,124,124,9,10,5,5,0.4,0.4
2024-07-09T1800,1905A,106.056,30.8064,南充市,西山风景区,,,39,31,19,9,23,,21,16,4,10,6,4,,0.5
2024-07-09T1800,1906A,106.0789,30.8023,南充市,南充市委,,39,39,52,15,14,51,,36,36,11,11,5,5,0.3,0.2
2024-07-09T1800,1907A,106.1031,30.8217,南充市,南充炼油厂,,29,23,16,20,12,50,,38,38,6,7,4,4,0.1,0.1
2024-07-09T1800,1908A,106.1064,30.7856,南充市,高坪区监测站,,32,22,16,22,8,42,,40,40,11,9,4,5,0.3,0.3
2024-07-09T1800,1909A,106.0642,30.7636,南充市,嘉陵区环保局,,25,19,17,17,12,56,,35,35,11,11,2,3,0.3,0.3
2024-07-09T1800,1910A,106.1087,30.8388,南充市,市环境监测站,,,,21,,12,33,,27,26,6,6,2,3,,0.5
2024-07-09T1800,1151A,118.8086,32.1065,南京市,迈皋桥,,32,32,24,14,13,101,,104,104,10,18,7,8,0.3,0.5
2024-07-09T1800,1152A,118.7538,32.0551,南京市,草场门,,39,39,27,7,13,91,,100,99,15,21,6,7,0.4,0.8
2024-07-09T1800,1153A,118.7794,32.0745,南京市,山西路,,34,34,26,12,10,104,,108,108,6,11,4,4,0.3,0.5
2024-07-09T1800,1154A,118.7752,32.0023,南京市,中华门,,31,31,20,17,11,79,,89,88,18,17,6,6,0.7,0.5
2024-07-09T1800,1155A,118.8109,32.0309,南京市,瑞金路,,31,31,24,17,12,94,,103,103,12,10,6,5,0.5,0.4
2024-07-09T1800,1156A,118.7997,32.0754,南京市,玄武湖,,27,27,27,14,9,84,,89,89,7,6,3,5,0.3,0.5
2024-07-09T1800,1157A,118.6414,32.0931,南京市,浦口,,32,32,36,10,11,87,,96,96,8,18,6,7,0.6,0.7
2024-07-09T1800,1158A,118.7356,31.9996,南京市,奥体中心,,32,27,27,22,16,86,,94,94,21,19,8,8,0.3,0.4
2024-07-09T1800,1159A,118.9125,32.1028,南京市,仙林大学城,,34,24,25,14,10,106,,112,112,15,15,10,8,0.5,0.6
2024-07-09T1800,3422A,118.8436,31.9198,南京市,江宁彩虹桥,,35,25,25,17,11,109,,115,115,8,11,4,4,0.5,0.5
2024-07-09T1800,3423A,119.0138,31.6494,南京市,溧水永阳,,35,24,15,12,11,110,,95,95,14,12,4,4,0.4,0.1
2024-07-09T1800,3424A,118.879,31.3302,南京市,高淳老职中,,40,,19,28,16,78,,81,81,5,6,5,4,0.3,0.6
2024-07-09T1800,3427A,118.8554,32.3578,南京市,六合雄州,,29,29,36,19,19,91,,105,105,10,13,6,9,0.7,0.8
2024-07-09T1800,1401A,108.3103,22.7881,南宁市,二十一中,,29,29,17,7,7,67,,74,74,8,9,2,3,0.6,0.7
2024-07-09T1800,1402A,108.3141,22.8528,南宁市,北湖,,20,19,15,7,7,62,,75,75,8,8,2,3,0.7,0.6
2024-07-09T1800,1403A,108.3206,22.8225,南宁市,市监测站,,20,19,18,12,11,64,,77,77,8,11,3,4,0.4,0.4
2024-07-09T1800,1404A,108.3829,22.8037,南宁市,大自然花园,,27,27,17,10,9,63,,72,72,6,7,4,5,0.6,0.7
2024-07-09T1800,1405A,108.4394,22.7904,南宁市,仙葫,,28,16,15,3,8,88,,94,94,9,12,4,4,0.3,0.3
2024-07-09T1800,1406A,108.2397,22.8467,南宁市,区农职院,,25,25,18,3,7,68,,77,76,7,8,6,6,0.6,0.6
2024-07-09T1800,1407A,108.3275,22.735,南宁市,英华嘉园,,17,13,16,10,8,54,,62,62,14,16,5,6,0.5,0.5
2024-07-09T1800,1408A,108.2257,22.7757,南宁市,沙井镇街道办,,25,25,31,11,10,56,,61,61,10,15,2,2,0.5,0.5
2024-07-09T1800,3401A,108.4834,22.7618,南宁市,红星社区,,24,24,18,10,10,71,,75,75,5,9,5,5,0.8,0.8
2024-07-09T1800,2331A,118.0966,26.6761,南平市,茫荡山,,,,,,,,,,,,,,,,
2024-07-09T1800,2332A,118.1681,26.6369,南平市,南平市监测站,,25,21,15,9,7,78,,91,90,5,10,4,5,0.6,0.7
2024-07-09T1800,2333A,118.1825,26.6489,南平市,南平铝业有限公司,,28,18,19,12,10,88,,87,87,7,10,6,7,0.5,0.5
2024-07-09T1800,2334A,118.1756,26.6272,南平市,南平七中,,25,18,17,7,8,79,,94,93,3,8,4,5,0.5,0.5
2024-07-09T1800,1168A,120.9098,31.9663,南通市,狼山街道,,,,31,10,14,113,,122,122,14,31,6,7,0.3,0.4
2024-07-09T1800,1169A,120.86,32.0005,南通市,虹桥,,35,31,33,14,14,111,,116,116,24,39,6,7,0.5,0.7
2024-07-09T1800,1170A,120.87,32.02,南通市,城中,,39,36,41,12,15,123,,132,132,22,33,6,7,0.7,0.8
2024-07-09T1800,1171A,120.94,31.93,南通市,星湖花园,,35,21,36,10,15,110,,132,132,36,38,6,7,0.3,0.4
2024-07-09T1800,1172A,120.81,32.0417,南通市,紫琅学院,,34,34,43,13,14,100,,115,115,43,57,11,8,0.5,0.4
2024-07-09T1800,3291A,121.067,32.062,南通市,通州监测站,,44,31,44,7,18,139,,147,147,14,28,4,6,0.8,0.9
2024-07-09T1800,3432A,120.9348,31.9883,南通市,环境教育馆,,40,31,42,12,18,128,,135,135,22,34,8,10,0.5,0.6
2024-07-09T1800,2404A,112.5224,33.0122,南阳市,瓦房庄,,43,37,17,30,14,122,,117,117,10,7,3,3,0.7,0.5
2024-07-09T1800,2405A,112.5003,32.9735,南阳市,汉画馆,,40,40,20,28,11,108,,110,110,12,8,3,3,0.6,0.5
2024-07-09T1800,2406A,112.5573,33.027,南阳市,气象站,,42,39,15,29,11,121,,114,114,10,6,5,4,0.5,0.3
2024-07-09T1800,2407A,112.5481,32.9689,南阳市,理工学院,,39,39,18,21,10,113,,116,116,12,7,2,2,0.5,0.4
2024-07-09T1800,4008A,112.5234,32.9922,南阳市,卧龙区政府,,42,31,13,29,14,112,,103,103,12,9,4,4,0.6,0.6
2024-07-09T1800,1234A,121.8358,29.911,宁波市,区环保大楼,,48,48,30,16,14,119,,108,108,16,10,6,6,0.6,0.5
2024-07-09T1800,1235A,121.56,29.82,宁波市,万里学院,,,41,28,,15,118,,120,120,12,15,8,8,0.4,0.6
2024-07-09T1800,1236A,121.713,29.9572,宁波市,龙赛医院,,37,25,25,13,10,118,,114,114,9,14,6,6,0.2,0.2
2024-07-09T1800,1239A,121.633,29.7733,宁波市,钱湖水厂,,35,28,22,17,13,109,,99,99,6,7,6,6,0.6,0.5
2024-07-09T1800,1240A,121.5856,29.8635,宁波市,太古小学,,36,35,30,22,13,115,,118,118,11,14,6,7,0.6,0.6
2024-07-09T1800,1241A,121.524,29.8674,宁波市,市环境监测中心,,36,36,26,18,9,115,,117,117,13,15,2,4,0.6,0.5
2024-07-09T1800,2871A,121.6147,29.9017,宁波市,万里国际学校,,,26,23,21,14,123,,123,123,8,12,,6,0.2,0.2
2024-07-09T1800,3710A,121.5594,29.8975,宁波市,白沙活动中心,,39,25,23,17,12,122,,124,124,9,13,8,9,0.3,0.3
2024-07-09T1800,2339A,119.5001,26.6946,宁德市,金涵水库,,,,,,,,,,,,,,,,
2024-07-09T1800,2341A,119.5388,26.6612,宁德市,宁德市监测站,,38,37,31,16,12,119,,129,129,12,14,6,8,0.6,1.1
2024-07-09T1800,3209A,119.5231,26.6562,宁德市,宁德一中,,41,40,30,16,12,130,,136,136,10,11,7,8,1.0,1.2
2024-07-09T1800,2618A,98.8601,25.8567,怒江傈僳族自治州,州监测站,,20,20,19,11,11,50,,51,51,4,12,10,10,0.5,0.6
2024-07-09T1800,2619A,98.8546,25.8417,怒江傈僳族自治州,泸水一中,,20,20,20,3,9,39,,40,40,13,13,4,5,0.2,0.3
2024-07-09T1800,1888A,101.6891,26.571,攀枝花市,弄弄坪,,20,20,29,10,9,51,,54,54,12,18,10,13,0.5,0.6
2024-07-09T1800,1889A,101.5769,26.5928,攀枝花市,河门口,,25,25,25,13,11,60,,64,64,13,19,8,12,0.7,0.9
2024-07-09T1800,1890A,101.7169,26.585,攀枝花市,炳草岗,,17,16,31,8,12,52,,53,52,12,18,3,12,0.5,0.6
2024-07-09T1800,1891A,101.7369,26.5008,攀枝花市,仁和,,18,10,17,6,9,57,,54,54,7,10,8,7,0.4,0.4
2024-07-09T1800,2835A,101.7227,26.567,攀枝花市,四十中小,,19,16,19,11,7,59,,60,60,7,12,5,9,0.4,0.5
2024-07-09T1800,1604A,122.0303,41.1489,盘锦市,开发区,,36,34,51,16,36,114,,116,116,12,11,4,5,0.2,0.3
2024-07-09T1800,1605A,122.0485,41.0883,盘锦市,兴隆台,,36,28,47,17,31,114,,115,115,16,14,3,2,0.2,0.3
2024-07-09T1800,1606A,121.8297,41.1028,盘锦市,新生街道,,34,30,47,21,37,106,,107,107,12,15,2,2,0.2,0.3
2024-07-09T1800,1832A,113.3257,33.742,平顶山市,新华旅馆,,48,36,20,29,21,153,,136,136,8,4,3,3,0.7,0.4
2024-07-09T1800,1833A,113.2919,33.737,平顶山市,规划设计院,,49,41,20,33,16,156,,137,137,9,7,4,4,0.8,0.7
2024-07-09T1800,1834A,113.182,33.774,平顶山市,平顶山工学院,臭氧1小时,55,50,26,34,16,164,,138,138,7,6,5,6,0.9,0.7
2024-07-09T1800,3204A,113.3025,33.73,平顶山市,规划局,细颗粒物(PM2.5),52,51,18,36,18,154,,134,134,8,7,2,2,0.4,0.3
2024-07-09T1800,3594A,112.8867,33.9116,平顶山市,石龙区,细颗粒物(PM2.5),52,50,25,36,20,151,,129,129,6,7,6,7,0.4,0.3
2024-07-09T1800,2656A,106.6692,35.5461,平凉市,聚贤嘉苑,,45,37,43,31,25,141,,136,136,10,15,8,8,0.5,0.4
2024-07-09T1800,2657A,106.7021,35.5307,平凉市,博物馆,颗粒物(PM10),60,69,49,21,20,142,,142,142,23,24,16,4,0.6,0.6
2024-07-09T1800,2347A,114.0997,27.5002,萍乡市,武功山,,25,14,7,8,4,79,,88,84,3,5,12,10,0.7,0.5
2024-07-09T1800,2348A,113.8385,27.6434,萍乡市,中医院,,26,20,25,11,13,81,,79,79,7,16,3,8,0.6,0.7
2024-07-09T1800,2349A,113.8493,27.6253,萍乡市,市政府车库,,24,20,18,13,12,75,,73,73,2,7,9,10,0.4,0.4
2024-07-09T1800,2350A,113.8676,27.6435,萍乡市,市环保局,,25,18,25,14,14,80,,76,76,2,10,3,11,0.4,0.4
2024-07-09T1800,2351A,113.866,27.6198,萍乡市,安源区政府,,25,18,24,17,6,78,,74,74,5,12,3,7,0.3,0.3
2024-07-09T1800,2319A,119.0141,25.4325,莆田市,荔城区仓后路,,31,31,21,11,5,56,,82,81,11,10,8,8,0.6,0.6
2024-07-09T1800,2320A,119.0015,25.4553,莆田市,莆田市监测站,,39,39,25,6,6,66,,84,84,9,6,11,10,0.6,0.6
2024-07-09T1800,2321A,119.1119,25.4561,莆田市,涵江区六中,,27,27,20,3,5,46,,87,85,10,9,13,11,1.1,0.7
2024-07-09T1800,2322A,119.1013,25.3215,莆田市,秀屿区政府,,20,20,18,3,5,47,,86,80,2,7,10,12,0.5,0.6
2024-07-09T1800,2323A,118.981,25.4792,莆田市,东圳水库,,,,,,,,,,,,,,,,
2024-07-09T1800,2392A,115.0312,35.7636,濮阳市,环保局,细颗粒物(PM2.5),64,62,30,46,25,154,,143,143,7,9,6,6,0.8,0.7
2024-07-09T1800,2394A,115.0574,35.7609,濮阳市,油田运输公司,细颗粒物(PM2.5),58,61,36,41,24,165,,153,153,7,8,3,4,0.8,0.5
2024-07-09T1800,2395A,115.0866,35.7754,濮阳市,油田物探公司,,,62,36,53,32,158,,148,148,,8,2,2,0.6,0.4
2024-07-09T1800,3021A,115,35.7668,濮阳市,濮水河管理处,细颗粒物(PM2.5),68,54,32,49,32,133,,125,125,8,9,4,4,0.9,0.6
2024-07-09T1800,2601A,100.98,22.7633,普洱市,市环保局,,16,11,14,3,10,51,,44,44,8,6,6,5,0.5,0.5
2024-07-09T1800,2602A,100.9817,22.8322,普洱市,普洱第二中学,,13,,16,3,9,39,,43,43,6,8,9,9,0.5,0.5
2024-07-09T1800,2262A,131.0518,45.8751,七台河市,新一中,细颗粒物(PM2.5),72,76,56,52,42,103,,108,108,9,8,10,10,0.8,0.7
2024-07-09T1800,3345A,131.0577,45.7879,七台河市,中波台,,34,34,47,23,31,76,,86,84,13,13,10,12,0.3,0.4
2024-07-09T1800,3637A,131.0176,45.7761,七台河市,人民广场,颗粒物(PM10),64,77,63,42,40,74,,77,77,18,15,13,11,0.4,0.4
2024-07-09T1800,3684A,130.8781,45.8222,七台河市,新建矿广场,颗粒物(PM10),75,100,62,40,35,82,,84,84,17,16,9,12,0.3,0.3
2024-07-09T1800,1779A,123.9305,47.3636,齐齐哈尔市,安居小区,细颗粒物(PM2.5),64,58,71,46,59,152,,151,151,14,23,20,15,0.6,0.5
2024-07-09T1800,1780A,123.9488,47.3386,齐齐哈尔市,中心广场,颗粒物(PM10),55,59,91,32,58,144,,142,142,17,24,11,13,0.6,0.6
2024-07-09T1800,1781A,123.9483,47.3227,齐齐哈尔市,农牧车辆厂,颗粒物(PM10),57,63,83,33,51,139,,141,141,12,24,8,10,0.3,0.5
2024-07-09T1800,1783A,123.945,47.2988,齐齐哈尔市,市环境监测站,细颗粒物(PM2.5),68,55,73,49,55,142,,142,142,9,18,7,8,0.4,0.4
2024-07-09T1800,3662A,123.6333,47.2075,齐齐哈尔市,富区青少年活动中心,细颗粒物(PM2.5),59,66,95,42,62,134,,141,141,22,35,12,26,1.5,1.3
2024-07-09T1800,2591A,107.9783,26.5747,黔东南苗族侗族自治州,市环境监测站,,20,17,14,12,11,64,,66,63,4,4,3,3,0.3,0.3
2024-07-09T1800,2881A,107.8908,26.5311,黔东南苗族侗族自治州,凯里学院,,19,12,11,11,9,60,,60,58,4,4,6,6,0.4,0.4
2024-07-09T1800,2593A,107.5228,26.2403,黔南布依族苗族自治州,小围寨,,19,7,10,7,5,60,,64,64,2,2,5,4,0.4,0.4
2024-07-09T1800,3538A,107.5175,26.2978,黔南布依族苗族自治州,沙坝,,18,17,11,9,5,55,,58,58,5,4,4,4,0.5,0.4
2024-07-09T1800,2589A,104.9022,25.0925,黔西南布依族苗族自治州,场坝街,,24,13,13,3,6,75,,69,69,5,5,3,3,0.3,0.3
2024-07-09T1800,2590A,104.8811,25.0992,黔西南布依族苗族自治州,坪东大道,,22,11,12,3,6,70,,67,67,2,3,4,4,0.4,0.4
2024-07-09T1800,2502A,108.6236,21.9667,钦州市,市环保站,,27,27,15,3,2,51,,56,56,13,12,8,6,0.7,0.6
2024-07-09T1800,2503A,108.6549,21.9481,钦州市,沙埠小学,,18,18,20,10,7,53,,63,63,10,12,6,5,0.7,0.6
2024-07-09T1800,2504A,108.5989,21.7431,钦州市,港区一小,,31,31,18,10,6,54,,53,53,7,9,7,8,0.4,0.4
2024-07-09T1800,3404A,108.5959,21.9633,钦州市,北职校,,26,26,18,6,7,54,,54,54,4,10,6,8,0.5,0.5
2024-07-09T1800,1042A,119.5134,39.8207,秦皇岛市,北戴河环保局,颗粒物(PM10),59,68,68,29,27,144,,142,142,9,13,3,4,0.3,0.5
2024-07-09T1800,1043A,119.7493,40.0116,秦皇岛市,第一关,颗粒物(PM10),57,63,65,35,39,139,,129,129,10,14,2,2,0.3,0.4
2024-07-09T1800,1044A,119.5897,39.9499,秦皇岛市,监测站,颗粒物(PM10),67,84,61,37,35,135,,133,133,28,19,6,5,0.6,0.5
2024-07-09T1800,1046A,119.5251,39.9041,秦皇岛市,建设大厦,颗粒物(PM10),56,62,61,30,32,129,,121,121,11,12,3,4,0.2,0.2
2024-07-09T1800,3132A,119.610547,39.943889,秦皇岛市,文明里,颗粒物(PM10),69,88,65,34,38,143,,134,134,3,10,2,3,0.3,0.4
2024-07-09T1800,1307A,120.6659,36.2403,青岛市,仰口,,34,,12,7,13,108,,112,111,2,5,3,3,0.4,0.4
2024-07-09T1800,1310A,120.4134,36.0658,青岛市,市南区东部子站,,30,12,7,3,2,96,,111,107,12,16,7,7,0.7,0.7
2024-07-09T1800,1311A,120.3664,36.1032,青岛市,四方区子站,,31,7,14,3,9,98,,107,107,14,32,9,11,0.5,0.6
2024-07-09T1800,1312A,120.2994,36.054,青岛市,市南区西部子站,,28,9,14,3,4,88,,109,106,22,30,7,8,0.6,0.6
2024-07-09T1800,1313A,120.4581,36.0858,青岛市,崂山区子站,,32,14,9,3,4,101,,113,107,10,21,7,7,0.5,0.5
2024-07-09T1800,1314A,120.1983,35.9608,青岛市,黄岛区子站,,29,9,12,3,8,71,,104,96,57,28,8,7,0.6,0.5
2024-07-09T1800,1315A,120.3999,36.3083,青岛市,城阳区子站,,35,6,18,3,14,109,,105,105,8,19,6,6,0.6,0.7
2024-07-09T1800,1966A,120.0405,35.8735,青岛市,黄岛区4号,,31,6,10,3,6,98,,114,105,20,18,9,9,0.6,0.5
2024-07-09T1800,3362A,120.5014,36.4034,青岛市,即墨2号,,37,,17,3,13,117,,116,116,5,11,4,5,0.5,0.5
2024-07-09T1800,3642A,120.3503,36.0736,青岛市,市北区南部,,30,6,14,3,8,96,,119,110,19,26,6,6,0.6,0.6
2024-07-09T1800,3643A,120.3948,36.1805,青岛市,李沧区北部,,30,,17,3,12,94,,90,90,13,34,9,10,0.4,0.4
2024-07-09T1800,1702A,113.0426,23.691,清远市,环保大楼,,50,17,19,10,11,159,,122,122,11,12,5,7,0.6,0.6
2024-07-09T1800,1703A,113.0208,23.7106,清远市,凤城街办,,48,28,28,18,14,153,,118,118,8,12,4,5,0.4,0.3
2024-07-09T1800,3025A,113.0477,23.6344,清远市,技师学院,臭氧1小时,72,31,26,17,12,177,,129,129,9,13,5,6,0.2,0.2
2024-07-09T1800,3318A,112.9903,23.7403,清远市,清新太和,,40,26,18,22,13,126,,103,103,7,9,7,7,0.6,0.6
2024-07-09T1800,3455A,113.076,23.7198,清远市,清城东城,,50,41,28,27,16,158,,114,114,8,8,4,4,0.4,0.5
2024-07-09T1800,2661A,107.6325,35.7357,庆阳市,庆阳五中,,32,26,34,9,20,101,,122,119,8,9,3,4,0.5,0.5
2024-07-09T1800,2662A,107.6364,35.7067,庆阳市,市环保局,,32,14,34,6,18,101,,120,110,7,10,3,3,0.5,0.5
2024-07-09T1800,1916A,103.7897,25.5035,曲靖市,环境监测站,,23,19,15,10,5,71,,69,69,5,6,4,4,0.6,0.7
2024-07-09T1800,1917A,103.8,25.5364,曲靖市,烟厂办公区,,22,17,14,12,7,68,,70,70,6,7,4,4,0.3,0.3
2024-07-09T1800,3376A,103.7947,25.462,曲靖市,南苑二区,,24,,13,9,6,76,,72,72,5,6,5,4,0.4,0.6
2024-07-09T1800,3377A,103.7444,25.5261,曲靖市,曲靖师范学院,,20,14,15,3,8,64,,72,72,6,7,4,5,0.3,0.3
2024-07-09T1800,1264A,118.8692,28.9398,衢州市,环保大楼,,35,26,25,16,16,112,,101,101,7,17,5,8,0.4,0.4
2024-07-09T1800,1265A,118.8709,28.9666,衢州市,实验学校,,35,30,31,18,15,111,,99,99,8,11,11,11,0.3,0.4
2024-07-09T1800,1266A,118.8621,28.9808,衢州市,衢州学院,,36,27,29,16,16,114,,103,103,8,20,4,5,0.4,0.4
2024-07-09T1800,1611A,118.5819,24.9117,泉州市,涂山街,,21,21,25,6,7,56,,84,83,6,10,4,5,0.5,0.6
2024-07-09T1800,1612A,118.5972,24.8978,泉州市,津头埔,,22,22,21,6,7,49,,80,78,11,12,2,3,0.6,0.7
2024-07-09T1800,1613A,118.6663,24.9424,泉州市,万安,,23,23,22,7,6,55,,82,82,3,5,2,2,0.4,0.4
2024-07-09T1800,1614A,118.6117,24.9604,泉州市,清源山,,,,,,,,,,,,,,,,
2024-07-09T1800,3529A,118.6333,24.9264,泉州市,城华南路,,17,17,18,7,7,49,,80,79,9,10,3,3,0.5,0.4
2024-07-09T1800,2626A,88.8876,29.2718,日喀则市,日喀则监测站,,24,16,17,3,6,74,,77,77,5,9,5,5,0.3,0.4
2024-07-09T1800,3726A,88.8781,29.2426,日喀则市,林业技术推广中心,,24,19,9,3,5,76,,76,76,6,8,7,6,0.5,0.5
2024-07-09T1800,1659A,119.471,35.4209,日照市,监测站,,39,31,10,26,12,122,,127,118,15,17,9,9,0.4,0.3
2024-07-09T1800,1660A,119.523,35.4216,日照市,市政府广场,,35,31,13,17,9,111,,119,107,7,10,8,8,0.6,0.5
2024-07-09T1800,1661A,119.5587,35.4044,日照市,港务局,,40,27,20,17,7,127,,136,123,7,11,9,9,0.6,0.6
2024-07-09T1800,3507A,119.5328,35.4625,日照市,职业技术学院,,39,27,12,24,10,122,,123,115,10,10,8,8,0.7,0.7
2024-07-09T1800,3604A,119.3266,35.1044,日照市,岚山环保分局,,39,27,13,10,8,123,,123,113,19,20,9,9,1.0,0.7
2024-07-09T1800,1835A,111.1922,34.7752,三门峡市,市政府,,43,34,22,18,14,135,,125,125,10,10,6,6,0.6,0.6
2024-07-09T1800,1836A,111.1587,34.7942,三门峡市,开发区,,42,33,30,20,15,133,,120,120,14,13,8,9,0.5,0.5
2024-07-09T1800,1838A,111.143,34.7955,三门峡市,风景区,,,,,,,,,,,,,,,,
2024-07-09T1800,3039A,111.1911,34.7829,三门峡市,三门峡市第一小学,,43,32,23,22,12,135,,123,123,8,8,6,6,0.7,0.7
2024-07-09T1800,3598A,111.1,34.7167,三门峡市,富达温泉假日酒店,,40,36,31,20,19,125,,118,118,10,11,11,11,0.7,0.6
2024-07-09T1800,2324A,117.6211,26.2625,三明市,三钢,,29,20,27,20,16,79,,77,77,13,16,21,14,2.1,1.3
2024-07-09T1800,2325A,117.635,26.2714,三明市,三明二中,,27,,20,12,13,84,,82,82,6,14,4,6,0.6,0.7
2024-07-09T1800,2326A,117.6028,26.2378,三明市,三元区政府,,25,22,26,10,16,80,,78,78,9,13,5,5,0.3,0.3
2024-07-09T1800,2327A,117.7275,26.3108,三明市,洋溪,,,,,,,,,,,,,,,,
2024-07-09T1800,1876A,109.5078,18.2489,三亚市,河东子站,,16,13,19,9,7,50,,52,52,5,8,3,2,0.3,0.4
2024-07-09T1800,1877A,109.4964,18.2681,三亚市,河西子站,,16,14,16,3,4,49,,47,47,2,7,3,2,0.4,0.4
2024-07-09T1800,3540A,109.7348,18.3443,三亚市,君悦子站,,16,14,17,3,6,51,,50,50,4,8,3,3,0.4,0.5
2024-07-09T1800,2624A,91.7608,29.2313,山南市,山南监测站,,29,8,7,3,4,91,,87,87,6,5,6,6,0.3,0.3
2024-07-09T1800,2625A,91.7706,29.2436,山南市,山南人民医院,,25,14,10,3,4,80,,82,82,26,10,5,5,0.3,0.2
2024-07-09T1800,1674A,116.6794,23.3667,汕头市,金平子站,,23,16,17,3,5,72,,72,72,4,9,5,7,0.7,0.8
2024-07-09T1800,1675A,116.7244,23.3633,汕头市,龙湖子站,,19,,10,7,4,60,,64,64,6,9,5,6,0.6,0.6
2024-07-09T1800,1676A,116.7258,23.2775,汕头市,濠江子站,,24,19,14,3,5,76,,72,72,6,8,5,5,0.6,0.5
2024-07-09T1800,1677A,116.7519,23.4714,汕头市,澄海子站,,18,18,14,3,6,55,,56,56,6,11,4,5,0.7,0.7
2024-07-09T1800,1678A,116.6092,23.2539,汕头市,潮阳子站,,21,15,15,3,3,65,,61,61,7,5,7,6,0.9,0.8
2024-07-09T1800,3444A,116.454,23.2684,汕头市,潮南峡山,,21,,23,12,14,66,,66,66,3,5,4,4,0.6,0.6
2024-07-09T1800,3624A,116.4069,23.2533,汕头市,潮南子站,,21,16,29,3,16,65,,71,70,3,8,7,7,0.5,0.6
2024-07-09T1800,1693A,115.3653,22.775,汕尾市,市环保局,,32,32,14,7,8,64,,62,62,6,6,5,5,0.5,0.5
2024-07-09T1800,1694A,115.3706,22.7898,汕尾市,市政府,,25,25,11,3,7,65,,60,60,3,3,7,7,0.5,0.5
2024-07-09T1800,1695A,115.3622,22.7925,汕尾市,新城中学,,21,11,13,3,6,67,,63,63,2,4,5,4,0.5,0.5
2024-07-09T1800,2645A,109.9154,33.8715,商洛市,监测站,,26,26,29,13,8,76,,90,88,11,4,9,7,0.8,0.8
2024-07-09T1800,3045A,109.9643,33.8471,商洛市,商州区中学,,28,28,16,12,5,69,,86,86,15,10,3,3,0.7,0.7
2024-07-09T1800,2408A,115.6702,34.4285,商丘市,环境监测站,,46,27,15,19,12,145,,133,133,2,3,9,8,0.6,0.6
2024-07-09T1800,2409A,115.6458,34.4045,商丘市,粮食局,,,27,18,20,11,143,,129,129,5,4,,5,0.4,0.4
2024-07-09T1800,2410A,115.6293,34.3948,商丘市,睢阳区环保局,,49,44,21,20,13,154,,141,141,2,3,5,5,0.4,0.4
2024-07-09T1800,3171A,115.6071,34.4465,商丘市,梁园区档案局,,46,39,18,25,13,147,,134,134,6,5,7,7,0.5,0.5
2024-07-09T1800,1141A,121.4,31.238,上海市,普陀,,,44,39,,22,148,,156,156,15,18,5,7,0.4,0.5
2024-07-09T1800,1142A,121.478,31.2036,上海市,十五厂,,48,48,41,24,21,143,,164,164,24,26,8,11,0.4,0.4
2024-07-09T1800,1143A,121.467,31.3008,上海市,虹口,,45,45,38,24,22,144,,153,153,17,21,6,7,0.6,0.6
2024-07-09T1800,1144A,121.412,31.1654,上海市,徐汇上师大,,,45,41,23,22,,,125,,21,25,6,6,0.6,0.7
2024-07-09T1800,1145A,121.536,31.2659,上海市,杨浦四漂,颗粒物(PM10),53,56,41,30,22,148,,165,165,24,25,7,10,0.6,0.6
