timepoint,stationcode,longitude,latitude,area,positionname,primarypollutant,aqi,pm10,pm10_24h,pm2_5,pm2_5_24h,o3,o3_24h,o3_8h,o3_8h_24h,no2,no2_24h,so2,so2_24h,co,co_24h
2024-07-12T1900,2566A,102.1879,31.914,阿坝藏族羌族自治州,州农科所,颗粒物(PM10),67,84,24,24,8,34,,45,45,12,10,5,5,0.2,0.2
2024-07-12T1900,2568A,102.2502,31.8896,阿坝藏族羌族自治州,马师校,,33,25,16,23,14,33,,49,49,11,13,5,5,0.5,0.5
2024-07-12T1900,3994A,102.2165,31.9024,阿坝藏族羌族自治州,马尔康中学西区,,31,31,19,14,11,35,,55,55,6,7,4,6,0.4,0.4
2024-07-12T1900,2695A,80.292,41.1694,阿克苏地区,电视台,,,75,40,24,14,158,,126,126,8,11,3,3,,0.3
2024-07-12T1900,2696A,80.2613,41.1551,阿克苏地区,艺术中心,,50,50,45,26,16,149,,122,122,7,10,4,4,0.3,0.4
2024-07-12T1900,2204A,105.6467,38.8363,阿拉善盟,西城区西花园,臭氧1小时,53,18,35,3,14,162,,163,163,9,12,12,9,0.3,0.4
2024-07-12T1900,2205A,105.6985,38.8411,阿拉善盟,蒙二幼,,46,23,36,7,12,145,,146,146,7,8,9,9,0.4,0.5
2024-07-12T1900,2206A,105.724,38.8516,阿拉善盟,环保局新楼,,45,15,25,6,10,144,,144,144,7,7,11,11,0.4,0.4
2024-07-12T1900,2708A,88.1264,47.8517,阿勒泰地区,市站,,31,20,17,3,5,98,,94,94,14,10,7,7,0.3,0.5
2024-07-12T1900,2630A,80.1161,32.5,阿里地区,阿里监测站,臭氧1小时,73,16,14,7,6,178,,178,178,4,5,7,8,0.3,0.3
2024-07-12T1900,3192A,80.0903,32.5028,阿里地区,阿里藏医院,臭氧1小时,79,18,15,13,5,183,,184,184,4,3,8,8,0.3,0.3
2024-07-12T1900,2642A,109.0318,32.6537,安康市,香溪洞,,,,15,,6,,,101,101,,3,,6,,0.7
2024-07-12T1900,2643A,109.0281,32.6939,安康市,安康市监测站,,32,28,17,11,8,102,,104,104,4,6,6,6,0.5,0.6
2024-07-12T1900,2644A,109.0072,32.6975,安康市,汉滨区检察院,,34,24,15,19,9,106,,100,100,3,5,6,6,0.6,0.7
2024-07-12T1900,2291A,117.0809,30.5177,安庆市,环科院,,27,9,37,3,27,85,,62,62,17,31,4,7,0.5,1.2
2024-07-12T1900,2292A,117.0331,30.5119,安庆市,马山宾馆,,24,6,34,3,25,74,,65,65,25,31,6,7,0.6,1.2
2024-07-12T1900,2294A,116.9896,30.6145,安庆市,安庆大学,,20,11,37,3,22,64,,70,69,17,17,7,7,0.4,0.8
2024-07-12T1900,3173A,117.0598,30.5351,安庆市,市人大,,26,6,36,3,28,82,,62,62,17,26,6,8,0.4,1
2024-07-12T1900,3123A,105.9408,26.2431,安顺市,凤凰山,,19,13,12,8,8,60,,64,64,4,4,4,4,0.6,0.2
2024-07-12T1900,3124A,105.9439,26.2564,安顺市,金钟山,,21,13,11,12,11,66,,67,67,5,4,4,4,0.7,0.5
2024-07-12T1900,3125A,105.8983,26.2481,安顺市,娄家坡,,20,11,15,8,8,62,,65,65,3,3,5,5,0.4,0.4
2024-07-12T1900,1819A,114.3551,36.1017,安阳市,红庙街,颗粒物(PM10),52,53,55,14,29,125,,141,141,2,4,3,4,0.5,0.6
2024-07-12T1900,1820A,114.361,36.0681,安阳市,银杏小区,,,39,47,,25,120,,138,138,3,5,2,2,0.5,0.7
2024-07-12T1900,3141A,114.3922,36.0878,安阳市,信访局,,38,33,45,16,24,121,,136,136,1,3,2,3,0.7,0.8
2024-07-12T1900,3669A,114.4705,36.0637,安阳市,左辅环卫站,,37,24,43,13,32,118,,135,135,1,6,4,6,0.8,0.8
2024-07-12T1900,3703A,114.2917,36.0949,安阳市,安钢职工学校,,47,47,53,18,36,126,,135,135,2,6,2,3,0.5,0.7
2024-07-12T1900,1748A,123.044,41.1196,鞍山市,深沟寺,颗粒物(PM10),57,63,66,37,42,162,,216,211,25,17,7,7,0.9,1
2024-07-12T1900,1749A,123.011,41.0931,鞍山市,太阳城,颗粒物(PM10),51,52,64,33,43,149,,219,212,22,15,8,8,0.9,0.9
2024-07-12T1900,1750A,123.0485,41.1442,鞍山市,太平,臭氧1小时,74,78,83,50,52,179,,210,207,29,22,8,8,1.3,1.4
2024-07-12T1900,1751A,122.9642,41.0971,鞍山市,铁西三道街,细颗粒物(PM2.5),67,78,88,48,59,164,,221,215,27,25,5,7,1.0,1.3
2024-07-12T1900,1752A,122.9341,41.0833,鞍山市,铁西工业园区,细颗粒物(PM2.5),59,65,81,42,52,140,,220,209,25,25,4,6,1.0,1.3
2024-07-12T1900,1753A,123.022,41.0821,鞍山市,明达新区,,43,43,63,26,40,135,,206,197,20,16,7,7,1.0,1.1
2024-07-12T1900,2195A,107.4212,40.761,巴彦淖尔市,附二中,,45,36,53,23,29,143,,146,146,12,13,2,6,0.4,0.5
2024-07-12T1900,2196A,107.37,40.7372,巴彦淖尔市,市环保大楼,颗粒物(PM10),54,58,59,16,17,134,,133,133,6,10,3,3,0.4,0.5
2024-07-12T1900,1956A,86.1472,41.7538,巴音郭楞蒙古自治州,孔雀公园,颗粒物(PM10),56,62,113,19,30,115,,115,115,9,7,4,3,0.2,0.2
2024-07-12T1900,1957A,86.1972,41.7166,巴音郭楞蒙古自治州,棉纺厂,,36,34,106,25,32,107,,106,106,5,7,4,4,0.3,0.3
2024-07-12T1900,1958A,86.2357,41.7173,巴音郭楞蒙古自治州,经济开发区,,37,27,98,15,32,117,,115,115,3,5,3,3,0.1,0.2
2024-07-12T1900,2914A,106.7677,31.8794,巴中市,苏山坪,,33,17,16,10,8,105,,100,100,6,6,5,5,0.5,0.6
2024-07-12T1900,3182A,106.7656,31.8545,巴中市,丽阳花园,,37,37,29,22,11,95,,96,96,12,11,6,6,0.5,0.6
2024-07-12T1900,3183A,106.7418,31.8654,巴中市,圣泉水务公司,,30,20,19,12,12,94,,96,96,10,14,5,4,0.6,0.7
2024-07-12T1900,3616A,106.7616,31.8344,巴中市,市中心医院,,29,17,16,16,11,90,,95,95,7,8,6,6,0.5,0.5
2024-07-12T1900,2235A,122.7911,45.6077,白城市,洮北区环保局,,,,49,44,70,84,,88,88,11,20,5,4,0.3,0.5
2024-07-12T1900,2236A,122.8738,45.5725,白城市,市环保局,颗粒物(PM10),55,59,66,36,56,76,,93,92,11,21,4,6,0.4,0.6
2024-07-12T1900,2231A,126.4219,41.9171,白山市,喜丰,"颗粒物(PM10),细颗粒物(PM2.5)",62,73,83,44,43,90,,130,129,18,22,13,12,1.4,1.2
2024-07-12T1900,2232A,126.4077,41.9419,白山市,环保局,细颗粒物(PM2.5),69,86,67,50,44,84,,128,128,29,14,12,10,1.3,1
2024-07-12T1900,2647A,104.1724,36.5446,白银市,第三小学,颗粒物(PM10),67,84,142,39,47,102,,132,128,21,13,7,28,0.6,0.5
2024-07-12T1900,2648A,104.1465,36.5482,白银市,动力公司,颗粒物(PM10),62,74,120,35,42,113,,140,133,17,10,7,16,0.5,0.4
2024-07-12T1900,2512A,106.6103,23.9011,百色市,市监测站,,27,27,34,16,17,86,,92,92,10,11,6,13,0.6,0.7
2024-07-12T1900,2513A,106.6538,23.8859,百色市,市中心血站,,35,35,35,16,18,88,,92,92,10,10,4,11,0.7,0.7
2024-07-12T1900,3406A,106.6085,23.8798,百色市,祈福高中,,34,34,36,14,19,90,,95,95,5,10,5,12,0.7,0.8
2024-07-12T1900,2270A,117.396,32.939,蚌埠市,工人疗养院,,24,24,33,6,18,48,,90,79,27,6,6,7,0.7,0.6
2024-07-12T1900,2271A,117.3605,32.9427,蚌埠市,百货大楼,,26,26,32,3,16,44,,97,82,31,7,5,5,0.9,0.6
2024-07-12T1900,2273A,117.4185,32.8911,蚌埠市,蚌埠学院,,25,,24,16,20,79,,94,88,4,3,6,6,0.8,0.6
2024-07-12T1900,2274A,117.3533,32.9673,蚌埠市,淮上区政府,,17,17,27,9,21,54,,99,88,33,7,7,7,0.7,0.6
2024-07-12T1900,2275A,117.3145,32.8977,蚌埠市,高新区,,22,9,25,7,19,70,,95,85,7,3,5,5,0.8,0.6
2024-07-12T1900,3715A,117.3092,32.9314,蚌埠市,蚌埠田家炳中学,,21,20,30,9,19,65,,91,82,5,4,6,7,0.7,0.5
2024-07-12T1900,1585A,109.8756,40.6532,包头市,市环境监测站,,49,42,44,10,21,156,,165,165,17,19,9,12,0.3,0.6
2024-07-12T1900,1587A,109.9991,40.5842,包头市,包头八中,臭氧1小时,58,48,41,20,16,166,,162,162,16,13,19,10,0.8,0.6
2024-07-12T1900,1588A,109.8538,40.6821,包头市,青山宾馆,臭氧1小时,52,31,39,13,21,161,,169,169,14,20,12,15,0.6,1.1
2024-07-12T1900,1589A,109.8642,40.6288,包头市,惠龙物流,臭氧1小时,58,32,46,19,19,166,,166,166,11,16,13,16,0.5,0.7
2024-07-12T1900,1590A,110.0377,40.5546,包头市,东河鸿龙湾,臭氧1小时,67,48,35,16,15,173,,162,162,14,9,12,8,0.7,0.6
2024-07-12T1900,3283A,109.9154,40.5685,包头市,滨河大厦,臭氧1小时,65,38,36,18,16,172,,162,162,8,13,9,9,0.6,0.6
2024-07-12T1900,3419A,109.9447,40.6261,包头市,包头市委党校,臭氧1小时,62,40,37,16,18,169,,177,177,16,14,8,7,0.7,0.7
2024-07-12T1900,3683A,109.8331,40.6576,包头市,昆区政府,臭氧1小时,52,41,41,14,20,161,,162,162,14,20,10,15,0.7,1.2
2024-07-12T1900,1930A,107.185,34.3063,宝鸡市,庙沟村,,24,24,21,12,10,71,,113,111,6,7,8,8,0.3,0.3
2024-07-12T1900,1931A,107.0708,34.3017,宝鸡市,竹园沟,,27,27,23,13,12,78,,134,131,15,12,8,8,0.6,0.5
2024-07-12T1900,1932A,107.1906,34.3672,宝鸡市,三陆医院,,40,18,28,18,12,128,,152,152,22,23,8,9,0.7,0.6
2024-07-12T1900,1933A,107.1431,34.3547,宝鸡市,监测站,,37,37,27,15,13,82,,145,142,24,17,8,8,0.5,0.4
2024-07-12T1900,1934A,107.1186,34.3739,宝鸡市,技工学校,,34,26,27,7,13,107,,153,152,29,15,7,8,0.6,0.5
2024-07-12T1900,1935A,107.3906,34.3528,宝鸡市,陈仓区环保局家属楼,,45,38,28,18,12,141,,154,154,24,19,7,7,0.5,0.4
2024-07-12T1900,1936A,107.2058,34.3497,宝鸡市,文理学院,,42,40,28,14,14,133,,152,152,18,17,9,9,0.5,0.4
2024-07-12T1900,1937A,107.2386,34.3622,宝鸡市,三迪小学,,37,26,37,21,14,118,,148,148,25,20,8,9,0.7,0.5
2024-07-12T1900,1051A,115.493,38.8632,保定市,游泳馆,,37,37,74,19,44,106,,113,112,2,6,3,4,0.3,0.4
2024-07-12T1900,1052A,115.5213,38.8959,保定市,华电二区,,49,49,78,28,44,127,,146,144,6,10,3,2,0.4,0.6
2024-07-12T1900,1053A,115.4713,38.9108,保定市,接待中心,,40,38,72,14,43,127,,137,136,4,4,2,2,0.2,0.4
2024-07-12T1900,1054A,115.4612,38.8416,保定市,地表水厂,颗粒物(PM10),51,51,82,18,45,117,,129,128,4,9,3,2,0.6,1
2024-07-12T1900,3581A,115.31981,38.95208,保定市,满城区生态环境分局,,39,19,80,12,46,122,,131,131,1,8,2,2,0.4,0.4
2024-07-12T1900,3582A,115.47694,38.76408,保定市,清苑区第二中学,颗粒物(PM10),56,62,93,24,52,122,,116,116,7,11,3,2,0.6,0.6
2024-07-12T1900,3583A,115.62909,39.02311,保定市,徐水物探局,,40,25,71,7,45,128,,143,142,8,14,3,3,0.4,0.5
2024-07-12T1900,4004A,115.4202,38.8656,保定市,双鹰农机,,37,32,69,23,42,117,,119,118,8,14,3,3,0.3,0.5
2024-07-12T1900,4034A,115.5150,38.8590,保定市,植保所站,,46,,61,32,49,135,,151,149,4,10,2,5,0.4,0.5
2024-07-12T1900,2594A,99.1678,25.1081,保山市,市环境监测站,,15,15,17,3,8,34,,34,34,5,10,6,6,0.5,0.5
2024-07-12T1900,2595A,99.1711,25.1328,保山市,市环保局,,18,18,19,3,6,39,,40,40,2,7,5,5,0.5,0.5
2024-07-12T1900,1867A,109.1436,21.4086,北海市,海滩公园,,29,29,29,3,3,68,,66,65,4,4,3,3,0.7,0.6
2024-07-12T1900,1868A,109.0981,21.4661,北海市,新市环保局,,19,17,14,3,5,58,,63,62,4,5,5,5,0.6,0.6
2024-07-12T1900,1869A,109.1778,21.5233,北海市,北海工业园,,23,23,18,7,10,63,,65,65,6,7,4,4,0.5,0.5
2024-07-12T1900,3400A,109.1911,21.4415,北海市,龙潭自来水厂,,22,12,13,10,8,70,,65,65,4,4,6,6,0.5,0.5
2024-07-12T1900,1001A,116.3621,39.8784,北京市,万寿西宫,,32,24,68,14,45,101,,130,117,22,25,3,2,0.8,1
2024-07-12T1900,1002A,116.2202,40.2915,北京市,定陵,,25,13,62,9,39,80,,127,113,7,12,3,3,0.6,0.7
2024-07-12T1900,1003A,116.4174,39.9289,北京市,东四,,35,17,63,14,41,109,,137,130,24,27,3,5,0.6,0.6
2024-07-12T1900,1004A,116.4072,39.8863,北京市,天坛,,33,18,68,12,45,103,,132,124,21,26,3,2,0.8,0.8
2024-07-12T1900,1005A,116.462,39.9365,北京市,农展馆,,30,17,62,11,38,96,,122,114,17,25,3,3,0.6,0.7
2024-07-12T1900,1006A,116.3392,39.9295,北京市,官园,,34,21,59,14,37,108,,139,131,22,19,3,5,0.7,0.7
2024-07-12T1900,1007A,116.2878,39.9611,北京市,海淀万柳,,32,25,54,16,35,102,,136,125,21,17,5,5,0.6,0.6
2024-07-12T1900,1008A,116.6636,40.135,北京市,顺义新城,,35,27,40,14,24,112,,132,131,8,10,3,3,0.4,0.5
2024-07-12T1900,1009A,116.6275,40.3275,北京市,怀柔镇,,32,24,33,17,22,102,,132,130,7,6,1,1,0.6,0.6
2024-07-12T1900,1010A,116.2296,40.217,北京市,昌平镇,,24,19,58,11,35,76,,119,105,17,15,3,3,0.5,0.6
2024-07-12T1900,1011A,116.3966,39.9821,北京市,奥体中心,,33,21,54,16,33,105,,134,126,20,23,2,2,0.7,0.6
2024-07-12T1900,1012A,116.184,39.9136,北京市,古城,,32,16,55,9,35,101,,136,126,18,23,1,1,0.5,0.6
2024-07-12T1900,3281A,115.9718,40.4529,北京市,延庆夏都,,34,17,44,11,29,108,,135,127,8,9,3,3,0.5,0.5
2024-07-12T1900,3417A,117.0709,40.1465,北京市,平谷新城,,29,27,62,20,44,87,,96,94,11,11,3,3,0.5,0.6
2024-07-12T1900,3418A,116.8336,40.4095,北京市,密云新城,,33,22,30,14,17,104,,122,120,5,5,3,3,0.4,0.5
2024-07-12T1900,3672A,116.1541,39.8204,北京市,丰台云岗,,24,15,63,3,37,75,,125,110,12,15,3,3,0.6,0.6
2024-07-12T1900,3673A,116.6804,39.9081,北京市,通州东关,,35,19,82,12,51,110,,136,133,11,18,3,2,0.6,0.7
2024-07-12T1900,3674A,115.9577,39.7603,北京市,房山燕山,,30,15,60,10,43,93,,142,132,8,13,3,3,0.5,0.7
2024-07-12T1900,3675A,116.4672,39.7733,北京市,大兴旧宫,,26,17,71,12,50,83,,133,122,20,25,3,3,0.8,0.7
2024-07-12T1900,3694A,115.986,40.4563,北京市,延庆石河营,,33,16,42,12,30,104,,132,122,8,10,3,1,0.5,0.5
2024-07-12T1900,3695A,116.6151,40.3053,北京市,怀柔新城,,31,22,35,16,24,97,,127,125,8,7,3,3,0.6,0.6
2024-07-12T1900,3696A,116.2545,39.8768,北京市,丰台小屯,,24,14,58,10,36,75,,123,108,11,17,3,3,0.4,0.5
2024-07-12T1900,3697A,116.84,40.3844,北京市,密云镇,,28,27,37,17,19,88,,115,112,14,10,3,3,0.3,0.4
2024-07-12T1900,1761A,123.8275,41.3064,本溪市,大峪,,40,40,51,24,33,87,,135,130,42,21,18,9,3.2,1.1
2024-07-12T1900,1762A,123.7567,41.3325,本溪市,溪湖,,39,32,72,19,42,124,,133,133,10,24,11,10,0.7,1.6
2024-07-12T1900,1763A,123.7169,41.3094,本溪市,彩屯,,35,28,60,19,44,110,,126,126,13,27,7,9,0.7,1.6
2024-07-12T1900,1764A,123.7669,41.2864,本溪市,东明,颗粒物(PM10),62,74,69,24,36,103,,131,126,31,32,13,8,2.2,1.1
2024-07-12T1900,1765A,123.7992,41.2664,本溪市,新立屯,颗粒物(PM10),54,58,53,20,28,97,,126,121,11,23,5,5,1.0,1.2
2024-07-12T1900,1766A,123.8142,41.3472,本溪市,威宁,颗粒物(PM10),59,68,59,26,41,104,,139,136,17,24,8,9,0.9,1.1
2024-07-12T1900,2587A,105.2864,27.3125,毕节市,八中,,18,13,13,12,12,57,,62,62,8,9,5,5,0.5,0.4
2024-07-12T1900,2588A,105.31,27.2944,毕节市,师专,,20,18,14,10,8,62,,59,59,10,9,5,5,0.6,0.5
2024-07-12T1900,3537A,105.3631,27.3533,毕节市,长征村,,26,22,22,16,15,82,,70,70,8,8,10,7,0.4,0.6
2024-07-12T1900,1629A,118.0018,37.3617,滨州市,第二水厂,臭氧1小时,125,95,86,70,53,250,,243,243,18,29,3,5,0.8,0.8
2024-07-12T1900,1630A,117.9776,37.393,滨州市,北中新校,臭氧1小时,130,105,81,61,49,260,,245,245,18,21,7,6,0.7,0.8
2024-07-12T1900,3514A,117.9378,37.3956,滨州市,中海酒店,臭氧1小时,144,90,79,56,50,287,,254,254,13,19,8,9,0.6,0.7
2024-07-12T1900,3515A,117.9378,37.3553,滨州市,开发区一中,臭氧1小时,122,100,84,61,53,243,,229,229,12,24,8,8,0.9,0.8
2024-07-12T1900,3516A,118.0917,37.694,滨州市,金海六路,臭氧1小时,120,120,86,61,51,240,,225,225,16,16,7,14,0.6,0.6
2024-07-12T1900,4028A,117.9956,37.3753,滨州市,滨州市西街道办事处,臭氧1小时,138,100,81,73,57,275,,259,259,12,24,3,5,0.9,0.9
2024-07-12T1900,2311A,115.8072,33.8399,亳州市,污水处理厂,,43,27,28,17,22,136,,147,147,7,4,1,1,0.6,0.6
2024-07-12T1900,2312A,115.7789,33.8518,亳州市,三国揽胜宫,,46,33,32,23,27,145,,146,146,6,6,2,2,0.4,0.5
2024-07-12T1900,3332A,115.7633,33.8034,亳州市,亳州学院,,47,28,31,8,22,148,,151,151,6,5,2,2,0.6,0.6
2024-07-12T1900,2693A,82.0485,44.8556,博尔塔拉蒙古自治州,市党校,,,16,27,3,10,125,,114,114,,12,10,10,0.4,0.4
2024-07-12T1900,2694A,82.0806,44.8969,博尔塔拉蒙古自治州,市环保局,,36,24,34,8,11,115,,105,105,11,16,8,8,0.2,0.3
2024-07-12T1900,1071A,116.8842,38.2991,沧州市,沧县城建局,颗粒物(PM10),63,76,71,30,39,150,,158,158,15,12,4,6,0.3,0.3
2024-07-12T1900,1072A,116.8584,38.3254,沧州市,电视转播站,颗粒物(PM10),96,141,76,19,47,145,,159,159,14,11,3,3,0.4,0.5
2024-07-12T1900,1073A,116.8709,38.3228,沧州市,市环保局,颗粒物(PM10),65,79,68,36,44,132,,146,146,18,14,3,2,0.3,0.4
2024-07-12T1900,3324A,116.8136,38.3004,沧州市,河北水利电力学院,颗粒物(PM10),65,80,68,34,52,158,,165,165,18,18,5,6,0.5,0.6
2024-07-12T1900,2622A,97.1806,31.1273,昌都市,昌都监测站,,18,11,13,3,6,56,,64,64,4,9,8,8,0.5,0.6
2024-07-12T1900,3719A,97.1714,31.1406,昌都市,昌都会议中心,,,,8,15,5,66,,73,73,5,5,6,6,,0.2
2024-07-12T1900,2690A,88.1236,43.8886,昌吉回族自治州,天山天池,,39,9,8,3,4,122,,112,112,9,6,5,6,0.5,0.5
2024-07-12T1900,2692A,87.2717,44.0297,昌吉回族自治州,新区政务中心,,39,13,17,3,5,124,,120,120,5,12,7,8,0.3,0.4
2024-07-12T1900,3613A,87.3095,44.0142,昌吉回族自治州,亚心广场,,41,9,21,3,2,129,,126,126,9,20,5,6,0.2,0.3
2024-07-12T1900,1119A,125.3325,43.9166,长春市,食品厂,细颗粒物(PM2.5),72,74,96,52,56,117,,135,134,38,46,5,5,0.9,0.8
2024-07-12T1900,1120A,125.2863,43.9027,长春市,客车厂,细颗粒物(PM2.5),78,91,82,57,56,123,,146,146,41,43,2,2,0.7,0.7
2024-07-12T1900,1121A,125.2841,43.8463,长春市,邮电学院,细颗粒物(PM2.5),74,77,74,54,47,98,,128,126,30,29,6,6,0.8,0.7
2024-07-12T1900,1122A,125.3716,43.8772,长春市,劳动公园,细颗粒物(PM2.5),83,89,89,61,50,115,,122,122,37,40,3,2,1.0,0.9
2024-07-12T1900,1123A,125.3297,43.8805,长春市,园林处,细颗粒物(PM2.5),74,73,76,54,55,126,,135,135,30,30,4,4,0.8,0.7
2024-07-12T1900,1124A,125.4605,43.79,长春市,净月潭,细颗粒物(PM2.5),65,68,62,47,42,74,,116,112,13,9,4,4,0.7,0.6
2024-07-12T1900,1126A,125.3863,43.8447,长春市,经开区环卫处,细颗粒物(PM2.5),73,93,83,53,46,105,,129,129,52,42,3,3,0.9,0.8
2024-07-12T1900,1127A,125.245,43.7783,长春市,高新区管委会,细颗粒物(PM2.5),73,72,71,53,45,108,,154,151,38,33,4,4,0.8,0.7
2024-07-12T1900,1128A,125.1761,43.8325,长春市,岱山公园,细颗粒物(PM2.5),75,74,82,55,50,115,,146,144,36,48,3,4,0.7,0.7
2024-07-12T1900,1335A,113.0833,28.2325,长沙市,经开区环保局,,29,28,35,16,17,92,,97,97,5,11,4,6,0.4,0.4
2024-07-12T1900,1336A,112.8872,28.2189,长沙市,高开区环保局,,34,34,34,19,18,96,,100,100,4,11,5,7,0.5,0.5
2024-07-12T1900,1337A,113.0792,28.2053,长沙市,马坡岭,,41,41,38,12,22,97,,112,112,6,15,8,9,0.5,0.5
2024-07-12T1900,1338A,112.9394,28.19,长沙市,湖南师范大学,,44,44,42,19,21,92,,100,100,8,13,5,7,0.1,0.5
2024-07-12T1900,1339A,113.0178,28.1322,长沙市,雨花区环保局,,29,24,33,16,16,90,,103,103,1,9,3,3,0.3,0.4
2024-07-12T1900,1340A,112.9792,28.2597,长沙市,伍家岭,,35,29,36,24,18,94,,108,107,7,12,2,3,0.4,0.5
2024-07-12T1900,1341A,113.0014,28.1944,长沙市,火车新站,,29,26,35,19,17,92,,108,107,5,11,3,5,0.4,0.5
2024-07-12T1900,1342A,112.9844,28.1178,长沙市,天心区环保局,,32,32,34,13,17,81,,95,94,6,11,3,5,0.1,0.2
2024-07-12T1900,1343A,112.8908,28.1308,长沙市,湖南中医药大学,,30,30,39,20,21,93,,108,107,3,16,4,6,0.6,0.7
2024-07-12T1900,1344A,112.9581,28.3611,长沙市,沙坪,,32,27,28,6,16,100,,104,104,6,13,6,6,0.4,0.4
2024-07-12T1900,1727A,113.1147,36.1547,长治市,清华站,,47,44,49,31,38,148,,184,182,14,14,3,3,0.5,0.7
2024-07-12T1900,1728A,113.1031,36.1989,长治市,监测站,,50,50,54,31,36,146,,175,175,17,20,4,4,0.6,1.2
2024-07-12T1900,1730A,113.0886,36.2125,长治市,审计局,,46,42,47,29,35,145,,174,173,21,27,3,3,1.0,1.2
2024-07-12T1900,1731A,113.0844,36.1856,长治市,长治八中,,46,46,53,32,34,144,,179,177,16,15,4,3,0.6,0.8
2024-07-12T1900,2845A,113.1569,36.1911,长治市,德盛苑,,49,47,48,34,40,134,,180,173,10,9,8,9,1.0,1.3
2024-07-12T1900,3568A,113.06,36.0464,长治市,向阳小学,细颗粒物(PM2.5),67,54,73,48,60,150,,178,177,13,14,6,8,0.9,1.1
2024-07-12T1900,3569A,112.8792,36.3144,长治市,屯留一中,细颗粒物(PM2.5),54,48,52,38,37,162,,186,184,10,16,9,12,0.6,0.5
2024-07-12T1900,3570A,113.235,36.3489,长治市,潞城四中,臭氧1小时,72,54,62,38,46,177,,193,192,6,18,6,8,0.7,1.7
2024-07-12T1900,1854A,111.6975,28.9703,常德市,市二中,,25,25,40,10,24,71,,73,73,11,6,6,6,0.4,0.6
2024-07-12T1900,3138A,111.7153,29.0289,常德市,武陵区永安,,28,28,41,11,27,73,,78,78,7,6,7,7,0.3,0.5
2024-07-12T1900,3139A,111.6892,28.9881,常德市,鼎城区玉霞,,27,27,41,12,29,73,,71,71,6,6,4,4,0.5,0.7
2024-07-12T1900,3140A,111.6625,29.0531,常德市,武陵区长庚,,26,26,40,9,26,79,,87,87,2,4,8,8,0.5,0.7
2024-07-12T1900,1196A,119.9633,31.762,常州市,市监测站,,28,,22,13,22,87,,81,81,19,20,7,6,0.5,0.7
2024-07-12T1900,1200A,119.9468,31.7069,常州市,武进监测站,,29,,25,12,23,91,,85,85,6,17,2,6,0.8,1
2024-07-12T1900,1201A,119.9255,31.9087,常州市,安家,,25,,27,14,25,78,,71,71,11,20,5,5,0.6,0.9
2024-07-12T1900,3002A,119.9805,31.8174,常州市,行政中心,,29,,29,20,25,86,,77,77,24,24,10,10,0.6,0.7
2024-07-12T1900,3003A,120.0522,31.7748,常州市,经开区,,,21,27,,24,83,,69,69,,25,,4,0.7,0.7
2024-07-12T1900,3010A,119.9025,31.7964,常州市,钟楼,,26,,22,12,25,81,,74,74,21,23,4,4,0.9,1.1
2024-07-12T1900,3429A,119.8598,31.7066,常州市,武进经发区,,28,6,28,3,17,88,,78,78,10,27,8,7,0.5,0.9
2024-07-12T1900,3430A,119.5826,31.7245,常州市,金坛城区,,28,6,19,3,13,87,,84,84,6,19,6,6,0.6,0.8
2024-07-12T1900,2220A,120.4318,41.5881,朝阳市,西梁,臭氧1小时,70,62,108,44,55,176,,170,170,10,13,13,15,1.0,1.1
2024-07-12T1900,2221A,120.4521,41.5646,朝阳市,河畔小区,臭氧1小时,85,70,117,43,52,188,,174,174,7,11,9,9,0.9,1
2024-07-12T1900,2222A,120.4176,41.5648,朝阳市,八里堡,颗粒物(PM10),64,78,97,39,52,154,,160,160,13,13,6,10,1.2,1.3
2024-07-12T1900,2223A,120.3806,41.5969,朝阳市,农业园区,细颗粒物(PM2.5),65,64,107,47,64,158,,159,159,12,14,8,9,1.0,1.1
2024-07-12T1900,1705A,116.6367,23.6719,潮州市,西园路,,22,,26,15,15,40,,53,51,12,14,2,3,0.4,0.5
2024-07-12T1900,3026A,116.6183,23.6608,潮州市,市政府,,21,21,32,11,14,42,,64,60,10,12,4,9,0.9,0.8
2024-07-12T1900,4036A,116.6461,23.6761,潮州市,金山,,30,28,27,21,14,37,,68,62,10,11,5,6,0.7,0.7
2024-07-12T1900,2472A,113.0073,25.9061,郴州市,马头岭,,29,29,24,3,6,68,,82,75,5,7,8,11,0.5,0.5
2024-07-12T1900,2473A,113.0116,25.8226,郴州市,市职中,,24,10,16,3,11,75,,88,80,5,6,20,13,0.3,0.3
2024-07-12T1900,2474A,113.0161,25.8001,郴州市,兴隆步行街,,26,26,19,3,9,74,,87,77,5,5,20,15,0.4,0.4
2024-07-12T1900,2475A,113.0383,25.8071,郴州市,市审计局,,23,14,20,10,11,72,,87,77,8,8,6,12,0.3,0.3
2024-07-12T1900,2476A,113.0348,25.7759,郴州市,市环保局,,25,11,18,10,12,78,,91,81,8,9,10,16,0.4,0.4
2024-07-12T1900,1431A,103.9728,30.7236,成都市,金泉两河,,44,29,31,28,15,139,,157,157,4,20,1,2,0.4,0.6
2024-07-12T1900,1432A,104.176,30.6872,成都市,十里店,颗粒物(PM10),52,54,26,16,10,150,,162,162,9,21,4,4,0.5,0.6
2024-07-12T1900,1433A,104.079,30.5706,成都市,三瓦窑,,45,31,30,15,15,141,,140,140,13,28,1,2,0.4,0.4
2024-07-12T1900,1434A,104.1114,30.63,成都市,沙河铺,,45,21,29,6,12,142,,153,153,13,24,3,3,0.5,0.5
2024-07-12T1900,1437A,104.0786,30.6531,成都市,君平街,,50,44,30,23,13,159,,167,167,18,26,3,5,0.3,0.6
2024-07-12T1900,2880A,104.0239,30.65639,成都市,大石西路,,49,14,30,3,13,155,,157,157,9,26,6,7,0.5,0.6
2024-07-12T1900,3136A,104.2725,30.5589,成都市,龙泉驿区区政府,,28,14,13,3,6,87,,122,118,11,8,3,3,0.5,0.5
2024-07-12T1900,3357A,104.0106,30.6931,成都市,金博路,,48,27,27,20,12,151,,152,152,7,24,3,2,0.4,0.6
2024-07-12T1900,3359A,104.0578,30.5225,成都市,华阳,,45,27,25,22,18,142,,135,135,2,10,1,2,0.6,0.7
2024-07-12T1900,3487A,104.2394,30.5319,成都市,车城东七路,,33,20,23,14,14,103,,126,123,2,5,2,2,0.5,0.6
2024-07-12T1900,3488A,104.3853,30.7453,成都市,青白江技师分院,,43,29,16,13,7,135,,169,169,4,19,5,6,0.5,0.6
2024-07-12T1900,3489A,104.0789,30.4072,成都市,科学城,,40,20,25,14,16,127,,137,137,2,8,2,3,0.5,0.6
2024-07-12T1900,4011A,103.8506,30.6947,成都市,光华大道三段,,45,8,38,3,17,141,,152,152,3,17,3,4,0.5,0.6
2024-07-12T1900,1062A,117.9531,40.9081,承德市,铁路,,50,50,38,35,23,89,,75,75,35,23,24,9,1.1,0.6
2024-07-12T1900,1063A,117.9392,40.9763,承德市,中国银行,细颗粒物(PM2.5),58,60,43,41,21,90,,78,78,26,17,14,8,1.0,0.6
2024-07-12T1900,1064A,117.9503,40.928,承德市,开发区,,47,47,36,32,21,90,,79,79,26,19,32,13,1.1,0.6
2024-07-12T1900,1065A,117.8051,40.9655,承德市,文化中心,,48,48,46,31,23,85,,83,83,17,18,18,11,0.9,0.6
2024-07-12T1900,1066A,117.9268,41.0026,承德市,离宫,,,62,34,3,35,26,,,,16,10,5,5,,0.3
2024-07-12T1900,2314A,117.47,30.6618,池州市,池州学院,,28,8,39,3,21,89,,68,68,6,15,6,7,0.4,1
2024-07-12T1900,3237A,117.4918,30.6617,池州市,展览馆,,27,10,36,3,20,86,,66,66,7,13,4,4,0.4,1
2024-07-12T1900,3333A,117.5627,30.695,池州市,第八中学,,26,11,31,6,21,82,,59,59,7,13,3,3,0.5,1.1
2024-07-12T1900,3334A,117.5038,30.6243,池州市,第十二中学,,28,14,34,3,21,87,,68,68,8,16,5,5,0.5,1.2
2024-07-12T1900,1744A,118.9233,42.2816,赤峰市,松山一中,,34,34,30,16,16,108,,144,142,29,21,9,13,0.8,0.7
2024-07-12T1900,1745A,118.9576,42.2728,赤峰市,哈达街,颗粒物(PM10),51,51,35,23,16,120,,154,152,18,16,9,14,0.6,0.6
2024-07-12T1900,1746A,118.8788,42.2554,赤峰市,天义路,,36,28,23,12,14,113,,155,154,34,19,10,10,0.5,0.3
2024-07-12T1900,3058A,119.2658,42.0353,赤峰市,银河街,,48,48,52,32,35,125,,155,154,19,19,12,23,0.6,0.6
2024-07-12T1900,3286A,118.9359,42.3147,赤峰市,桥北物流园区,颗粒物(PM10),53,55,35,19,24,110,,154,151,24,21,6,10,0.6,0.6
2024-07-12T1900,2521A,107.3476,22.4136,崇左市,市环保局江州分局,,20,17,24,12,11,64,,82,80,5,7,5,5,0.8,0.8
2024-07-12T1900,2522A,107.3702,22.3707,崇左市,城南新区,,22,22,18,11,9,63,,75,74,10,7,3,3,0.8,0.7
2024-07-12T1900,2298A,118.3093,32.3153,滁州市,老年大学,,32,17,29,12,28,100,,114,114,13,16,7,6,1.1,0.9
2024-07-12T1900,2299A,118.3244,32.2786,滁州市,人大宾馆,,31,10,31,6,32,98,,111,111,15,15,6,6,1.0,0.9
2024-07-12T1900,3207A,118.3118,32.3038,滁州市,市政府原办公楼,,30,14,27,14,29,94,,109,109,13,15,7,7,1.2,1
2024-07-12T1900,3331A,118.3267,32.2634,滁州市,图书馆,,30,12,32,6,30,93,,105,105,11,13,9,9,1.3,1.1
2024-07-12T1900,2605A,101.5482,25.0441,楚雄彝族自治州,州环境监测站,,12,11,9,3,4,38,,38,38,3,3,3,3,0.6,0.5
2024-07-12T1900,2606A,101.538,25.0492,楚雄彝族自治州,市经济开发区,,19,15,8,13,5,33,,34,34,6,5,4,4,0.7,0.6
2024-07-12T1900,2548A,107.5277,31.2827,达州市,达州职业技术学院,,14,13,10,6,6,44,,54,53,8,10,3,3,0.3,0.4
2024-07-12T1900,2549A,107.5086,31.2186,达州市,市环境监测站,,26,26,18,3,2,65,,109,109,15,21,7,8,0.5,0.7
2024-07-12T1900,2550A,107.4988,31.2132,达州市,凤凰小区,,24,9,11,3,6,74,,119,119,10,21,7,9,0.5,0.8
2024-07-12T1900,2551A,107.5082,31.1986,达州市,达县机关宾馆,,23,14,16,3,6,71,,111,111,15,24,5,6,0.4,0.6
2024-07-12T1900,2552A,107.4644,31.2124,达州市,市政中心,,30,16,28,7,7,94,,122,122,10,26,8,11,0.6,1.1
2024-07-12T1900,2614A,100.1542,25.7054,大理白族自治州,大理市环境监测站,,11,9,6,7,9,33,,35,35,7,4,3,3,0.5,0.5
2024-07-12T1900,2615A,100.2171,25.5811,大理白族自治州,大理古城,,19,13,10,13,6,57,,43,43,6,8,6,6,0.8,0.8
2024-07-12T1900,1109A,121.612,38.9741,大连市,甘井子,细颗粒物(PM2.5),73,62,75,53,52,129,,145,141,26,30,8,9,0.7,0.7
2024-07-12T1900,1110A,121.565,38.9511,大连市,周水子,细颗粒物(PM2.5),73,60,66,53,50,120,,136,130,26,27,9,9,0.8,0.8
2024-07-12T1900,1111A,121.5637,38.8845,大连市,星海三站,细颗粒物(PM2.5),64,64,68,46,53,152,,166,166,12,16,7,8,0.7,0.7
2024-07-12T1900,1112A,121.6302,38.9117,大连市,青泥洼桥,细颗粒物(PM2.5),72,72,62,52,44,148,,158,157,12,19,9,10,0.6,0.6
2024-07-12T1900,1113A,121.6251,38.8638,大连市,傅家庄,细颗粒物(PM2.5),72,57,54,52,48,162,,160,160,8,14,7,11,0.6,0.6
2024-07-12T1900,1114A,121.5213,38.8661,大连市,七贤岭,细颗粒物(PM2.5),79,70,62,58,46,160,,169,169,19,18,8,8,0.7,0.7
2024-07-12T1900,1115A,121.2529,38.8061,大连市,旅顺,臭氧1小时,60,39,53,35,43,168,,179,178,18,20,9,11,0.5,0.6
2024-07-12T1900,1116A,121.7485,39.1311,大连市,金州,细颗粒物(PM2.5),58,46,59,41,51,134,,158,154,16,16,8,8,0.7,0.8
2024-07-12T1900,1117A,121.7811,39.0496,大连市,开发区,细颗粒物(PM2.5),68,68,72,49,51,140,,153,150,32,34,7,8,0.8,0.9
2024-07-12T1900,1118A,121.9762,39.0631,大连市,双D港,细颗粒物(PM2.5),62,,49,44,43,157,,158,158,12,16,6,6,0.8,0.9
2024-07-12T1900,1789A,124.81117,46.03138,大庆市,大同区,颗粒物(PM10),60,69,66,38,58,81,,74,74,13,12,6,6,0.5,0.6
2024-07-12T1900,1790A,125.129,46.533,大庆市,龙凤区,,46,46,64,30,45,99,,82,82,12,15,5,5,0.3,0.4
2024-07-12T1900,1791A,124.902,46.408,大庆市,红岗区,细颗粒物(PM2.5),54,48,49,38,47,102,,105,105,6,11,7,8,0.6,0.6
2024-07-12T1900,1792A,125.153,46.586,大庆市,萨尔图区,颗粒物(PM10),52,54,55,34,46,93,,84,84,11,9,7,5,0.4,0.4
2024-07-12T1900,1793A,124.9042,46.6215,大庆市,让胡路区,细颗粒物(PM2.5),55,56,70,39,45,100,,108,108,16,15,6,6,0.5,0.5
2024-07-12T1900,3481A,125.141,46.634,大庆市,萨区政府监测点,,48,46,58,33,40,96,,89,89,11,13,6,7,0.3,0.4
2024-07-12T1900,1723A,113.2994,40.0758,大同市,云冈宾馆,,37,13,29,3,16,116,,153,149,24,16,6,9,0.4,0.5
2024-07-12T1900,1724A,113.3444,40.0917,大同市,大同大学,,37,12,28,3,15,117,,143,141,16,15,8,10,0.4,0.5
2024-07-12T1900,1725A,113.2661,40.1269,大同市,安家小村,,39,14,38,3,11,123,,149,146,10,15,11,14,0.4,0.6
2024-07-12T1900,1726A,113.2711,40.0844,大同市,教育学院,,37,18,34,12,17,116,,152,148,25,21,8,11,0.5,0.7
2024-07-12T1900,3282A,113.3397,40.0597,大同市,大同市卫生学校,,40,21,38,10,21,126,,156,150,19,16,9,11,0.7,0.7
2024-07-12T1900,3565A,113.1367,40.1122,大同市,云冈站,,37,,30,12,16,118,,144,141,11,13,8,10,0.4,0.5
2024-07-12T1900,3566A,113.1186,40.2556,大同市,图书馆,,38,,24,16,17,121,,155,147,16,13,7,8,0.5,0.5
2024-07-12T1900,3567A,113.5931,40.0461,大同市,区一中,,45,11,35,6,14,142,,160,160,16,17,7,9,0.4,0.5
2024-07-12T1900,3676A,113.2802,40.0995,大同市,第二人民医院,,39,16,31,3,15,124,,156,152,16,16,7,11,0.5,0.7
2024-07-12T1900,2269A,124.1069,50.4097,大兴安岭地区,科技局,颗粒物(PM10),66,82,122,36,84,79,,88,88,8,8,8,7,0.5,0.8
2024-07-12T1900,3663A,124.1164,50.4278,大兴安岭地区,红旗社区,细颗粒物(PM2.5),68,53,98,49,99,81,,88,88,6,9,8,8,0.6,0.9
2024-07-12T1900,1600A,124.3303,40.0625,丹东市,江湾东路,,50,46,50,35,42,131,,147,142,12,10,4,5,0.7,0.8
2024-07-12T1900,1601A,124.4256,40.1503,丹东市,临江后街,,37,35,49,22,33,116,,132,132,15,8,9,8,0.7,0.9
2024-07-12T1900,1602A,124.3933,40.1461,丹东市,元宝山,,36,33,54,25,37,100,,119,119,18,15,10,8,0.7,0.9
2024-07-12T1900,1603A,124.3633,40.1092,丹东市,民主桥,,45,45,54,27,35,118,,126,126,11,8,5,4,0.8,0.9
2024-07-12T1900,3541A,109.5726,19.5167,儋州市,第一中学子站,,32,18,15,8,7,102,,68,68,4,4,6,7,0.5,0.5
2024-07-12T1900,3542A,109.5567,19.5187,儋州市,东坡学校子站,,33,11,14,9,8,104,,68,68,3,3,5,6,0.5,0.5
2024-07-12T1900,2616A,98.5842,24.428,德宏傣族景颇族自治州,德宏州监测站,,26,26,13,13,7,36,,38,38,15,11,2,3,0.7,0.6
2024-07-12T1900,3677A,98.5881,24.4368,德宏傣族景颇族自治州,芒市人民政府综合楼,,18,15,14,12,7,38,,39,39,13,11,14,11,0.6,0.5
2024-07-12T1900,1901A,104.4239,31.1208,德阳市,东山公园,,48,30,37,13,16,153,,169,169,9,15,3,3,0.6,0.6
2024-07-12T1900,1902A,104.3826,31.1317,德阳市,西小区,臭氧1小时,70,32,33,19,17,176,,166,166,13,23,3,3,0.7,0.8
2024-07-12T1900,1904A,104.3553,31.1091,德阳市,耐火材料厂,臭氧1小时,98,30,39,19,18,198,,183,183,12,23,3,4,0.7,0.7
2024-07-12T1900,3639A,104.4019,31.1244,德阳市,市教育局,臭氧1小时,72,29,35,15,17,177,,180,180,12,24,4,4,0.6,0.7
2024-07-12T1900,1622A,116.3032,37.4674,德州市,儿童乐园,臭氧1小时,83,66,64,44,44,186,,172,172,11,11,8,8,0.8,0.8
2024-07-12T1900,1624A,116.2991,37.4451,德州市,监理站,臭氧1小时,88,63,64,41,45,190,,175,175,12,13,10,10,0.7,0.6
2024-07-12T1900,3066A,116.2721,37.4379,德州市,九衢泉纯净水厂,臭氧1小时,73,66,65,46,44,178,,163,163,14,14,5,6,0.9,0.9
2024-07-12T1900,3371A,116.3728,37.4403,德州市,开发区人民医院,,,66,68,39,42,193,,183,183,14,16,,11,0.9,0.8
2024-07-12T1900,3372A,116.3572,37.4094,德州市,太阳城中学,臭氧1小时,72,66,69,39,46,177,,176,176,8,14,9,9,0.8,0.8
2024-07-12T1900,3511A,116.5652,37.3319,德州市,陵城艺术中心,臭氧1小时,88,61,64,41,40,190,,182,182,14,18,8,8,0.8,0.8
2024-07-12T1900,2621A,99.7056,27.8317,迪庆藏族自治州,迪庆州站,,22,22,19,10,9,27,,34,34,13,10,7,7,0.6,0.5
2024-07-12T1900,3180A,99.7136,27.8094,迪庆藏族自治州,质量技术监督局,,14,14,16,6,8,34,,37,37,8,9,6,6,0.4,0.4
2024-07-12T1900,2663A,104.6241,35.5734,定西市,东关小学,,42,42,109,15,33,105,,111,111,9,15,6,7,0.3,0.3
2024-07-12T1900,2664A,104.6194,35.5934,定西市,供电公司,,45,40,102,31,39,122,,122,122,5,22,4,5,0.2,0.3
2024-07-12T1900,1389A,113.7547,23.0494,东莞市,莞城梨川,,20,20,14,10,6,61,,83,83,12,17,8,8,0.7,0.7
2024-07-12T1900,1390A,113.7944,23.0128,东莞市,东城石井,,,19,13,11,5,61,,86,86,,16,1,2,0.5,0.6
2024-07-12T1900,1391A,113.7383,22.9658,东莞市,南城西平,,17,14,13,6,4,54,,78,78,9,13,3,2,0.6,0.6
2024-07-12T1900,3319A,113.7338,23.0381,东莞市,万江金泰,,19,17,13,11,6,58,,84,84,7,11,6,6,0.7,0.7
2024-07-12T1900,3626A,113.7533,23.0202,东莞市,南城元岭,,20,20,15,8,5,58,,85,85,8,13,5,5,0.6,0.6
2024-07-12T1900,3627A,113.7875,23.0457,东莞市,东城主山,,20,20,13,8,6,63,,87,87,9,12,6,5,0.6,0.6
2024-07-12T1900,1666A,118.6614,37.4309,东营市,市环保局,臭氧1小时,113,73,75,48,50,226,,246,246,15,22,13,16,0.7,0.7
2024-07-12T1900,3036A,118.6904,37.4338,东营市,开发区管委会,臭氧1小时,116,78,77,46,47,231,,244,244,14,22,11,13,0.5,0.4
2024-07-12T1900,3365A,118.5719,37.565,东营市,垦利区民丰路,臭氧1小时,102,58,73,39,49,204,,252,252,21,23,11,12,0.6,0.7
2024-07-12T1900,3498A,118.5055,37.8612,东营市,河口城区,臭氧1小时,116,75,74,46,49,231,,249,249,9,12,8,8,0.6,0.6
2024-07-12T1900,3646A,118.4978,37.4623,东营市,胜利站,臭氧1小时,108,92,74,36,49,215,,250,250,18,28,8,10,0.8,1.1
2024-07-12T1900,3734A,118.35,37.26,东营市,理想之城,臭氧1小时,106,68,76,46,53,211,,249,249,21,25,13,13,0.7,0.8
2024-07-12T1900,1591A,110.0023,39.8129,鄂尔多斯市,综合楼,臭氧1小时,63,61,57,17,20,170,,158,158,16,16,10,13,0.5,0.5
2024-07-12T1900,1592A,109.9486,39.8261,鄂尔多斯市,巴音孟克林场办事处,,43,36,48,9,21,136,,140,140,11,13,5,8,0.5,0.6
2024-07-12T1900,1593A,109.7736,39.5986,鄂尔多斯市,康泽苑,,48,29,43,9,19,152,,154,154,5,10,8,9,0.4,0.5
2024-07-12T1900,1594A,109.8119,39.5989,鄂尔多斯市,华泰汽车城,,44,24,42,17,22,139,,144,144,10,14,9,10,0.3,0.4
2024-07-12T1900,1595A,109.9734,39.7884,鄂尔多斯市,奥林花园,,43,31,47,9,22,137,,144,144,16,14,6,9,0.5,0.6
2024-07-12T1900,2436A,114.8938,30.3994,鄂州市,市政府,,44,44,44,11,13,70,,100,98,16,15,23,10,0.5,0.7
2024-07-12T1900,2437A,114.8989,30.3714,鄂州市,赵家坝,,35,35,40,6,11,60,,99,94,18,14,6,7,0.4,0.6
2024-07-12T1900,3654A,114.8094,30.4089,鄂州市,精准医疗中心,,26,26,33,15,16,72,,112,106,16,22,8,9,0.5,1.1
2024-07-12T1900,2454A,109.4978,30.2981,恩施土家族苗族自治州,湖北民院,,26,26,15,13,9,62,,71,71,16,14,5,6,0.7,0.7
2024-07-12T1900,2455A,109.4707,30.2798,恩施土家族苗族自治州,州电力总公司,,19,,11,13,10,49,,55,55,16,16,8,7,0.8,0.8
2024-07-12T1900,3549A,109.5061,30.3772,恩施土家族苗族自治州,龙凤新区,,18,13,11,12,7,42,,64,64,11,13,7,7,0.6,0.5
2024-07-12T1900,2499A,108.3411,21.6158,防城港市,沙万,,15,,20,9,6,48,,54,53,12,16,12,12,0.5,0.5
2024-07-12T1900,2500A,108.3514,21.7731,防城港市,防城档案局,,27,27,15,3,6,49,,45,45,6,7,6,5,0.6,0.5
2024-07-12T1900,2501A,108.3506,21.6414,防城港市,大海花园,,34,34,22,14,8,44,,52,51,11,11,6,6,0.6,0.6
2024-07-12T1900,1371A,113.1294,23.0067,佛山市,湾梁,,23,12,11,10,10,72,,95,95,15,13,6,6,0.5,0.5
2024-07-12T1900,1372A,113.1083,23.0478,佛山市,华材职中,,22,9,9,8,6,69,,91,90,18,15,5,5,0.4,0.4
2024-07-12T1900,1373A,113.144,23.0453,佛山市,南海气象局,,22,21,16,9,8,68,,96,96,10,11,7,8,0.4,0.4
2024-07-12T1900,1374A,113.2881,22.8094,佛山市,顺德苏岗,,30,30,13,9,6,66,,78,78,10,15,6,6,0.5,0.5
2024-07-12T1900,1376A,112.8383,22.8678,佛山市,高明孔堂,,14,14,14,3,4,43,,49,49,4,6,6,6,0.4,0.4
2024-07-12T1900,1377A,112.8836,23.1588,佛山市,三水监测站,,14,14,14,3,7,39,,63,61,22,25,5,6,0.4,0.4
2024-07-12T1900,1378A,112.867,23.185,佛山市,三水云东海,,16,16,14,11,8,42,,64,62,23,22,7,6,0.4,0.4
2024-07-12T1900,3625A,113.2544,22.7642,佛山市,容桂街道办,,18,9,8,9,7,56,,77,76,13,16,6,6,0.5,0.5
2024-07-12T1900,1282A,119.2681,26.0504,福州市,师大,,45,45,28,10,11,87,,103,100,13,9,4,4,0.2,0.2
2024-07-12T1900,1283A,119.2984,26.1028,福州市,五四北路,,47,47,26,12,13,94,,114,112,11,10,4,3,0.3,0.3
2024-07-12T1900,1284A,119.2648,26.0768,福州市,杨桥西路,,46,46,28,13,12,93,,115,113,12,10,4,4,0.2,0.2
2024-07-12T1900,1285A,119.317,26.0746,福州市,紫阳,,37,37,29,12,13,85,,100,99,11,11,3,3,0.2,0.2
2024-07-12T1900,3048A,119.5799,26.0936,福州市,九龙,,28,26,32,7,12,89,,113,111,4,10,4,6,0.3,0.3
2024-07-12T1900,3526A,119.5189,25.9664,福州市,吴航,,24,21,26,7,11,76,,109,106,5,8,5,5,0.5,0.5
2024-07-12T1900,1755A,123.7977,41.8491,抚顺市,望花区,臭氧1小时,93,68,87,44,51,194,,200,200,20,31,6,5,0.8,1
2024-07-12T1900,1756A,123.9161,41.8822,抚顺市,顺城区,臭氧1小时,102,92,66,52,46,203,,206,206,28,32,7,7,1.2,1
2024-07-12T1900,1757A,124.0436,41.8611,抚顺市,东洲区,臭氧1小时,67,73,51,47,45,173,,162,162,14,17,9,6,0.8,0.7
2024-07-12T1900,1758A,123.9247,41.8642,抚顺市,新抚区,臭氧1小时,82,75,66,50,45,185,,173,173,19,30,4,6,1.0,0.9
2024-07-12T1900,1759A,124.0972,41.8961,抚顺市,大伙房水库,臭氧1小时,67,51,57,40,44,173,,92,,8,17,4,4,0.9,0.8
2024-07-12T1900,1760A,123.7086,41.8391,抚顺市,沈抚新城,臭氧1小时,75,71,63,48,56,180,,203,203,20,26,6,8,0.6,0.7
2024-07-12T1900,2376A,116.2127,28.0814,抚州市,桐源党溪,,27,27,33,13,18,58,,91,86,17,8,5,6,0.4,0.3
2024-07-12T1900,2377A,116.3544,27.9831,抚州市,市站,,25,25,27,16,14,75,,83,82,4,5,4,5,0.6,0.6
2024-07-12T1900,2378A,116.3565,27.963,抚州市,血防站,,23,22,27,13,13,71,,82,81,6,8,1,5,0.7,0.7
2024-07-12T1900,2379A,116.3564,28.0007,抚州市,采茶剧团,,26,26,25,14,14,75,,83,83,4,4,5,4,0.9,0.8
2024-07-12T1900,2380A,116.385,27.9647,抚州市,医学分院,,27,27,27,15,13,78,,91,89,8,7,4,8,0.7,0.8
2024-07-12T1900,2207A,121.6094,41.998,阜新市,工业园区,臭氧1小时,89,62,92,34,45,191,,201,200,17,42,19,15,0.8,1
2024-07-12T1900,2208A,121.6697,42.0279,阜新市,长青街,臭氧1小时,74,64,88,30,49,179,,197,195,22,28,10,16,0.8,1
2024-07-12T1900,2209A,121.6673,42.0705,阜新市,农业园区,臭氧1小时,69,57,89,39,56,175,,191,190,16,17,8,19,0.7,0.9
2024-07-12T1900,2210A,121.6717,42.0224,阜新市,东苑,臭氧1小时,59,57,81,32,49,167,,184,183,26,36,14,26,0.8,1
2024-07-12T1900,2211A,121.6506,42.0498,阜新市,玉龙新城,臭氧1小时,92,56,68,31,40,193,,199,199,9,30,10,10,0.6,0.7
2024-07-12T1900,2301A,115.8277,32.8929,阜阳市,市监测站,,19,,27,8,13,60,,84,74,5,7,4,4,0.6,0.7
2024-07-12T1900,2303A,115.8554,32.8605,阜阳市,开发区,,21,18,25,7,18,67,,84,72,8,9,4,4,0.4,0.5
2024-07-12T1900,2875A,115.784,32.8892,阜阳市,阜阳职业技术学院,,20,12,24,10,17,62,,95,77,9,8,6,5,0.7,0.7
2024-07-12T1900,3468A,115.7901,32.8613,阜阳市,市规划展馆,,20,18,32,3,31,61,,87,74,7,10,1,2,0.5,0.6
2024-07-12T1900,3469A,115.836,32.9183,阜阳市,枣园社区,,19,19,34,3,29,56,,83,70,9,10,1,2,0.6,0.6
2024-07-12T1900,2669A,102.9099,34.9841,甘南藏族自治州,州政府,,38,33,39,26,22,78,,95,94,13,13,9,8,0.4,0.4
2024-07-12T1900,3380A,102.8914,34.9617,甘南藏族自治州,甘肃民族师范学院,,30,18,34,16,16,93,,101,101,7,13,4,4,0.3,0.3
2024-07-12T1900,2570A,101.9603,30.0475,甘孜藏族自治州,水桥子,,31,13,18,11,9,97,,96,96,6,18,4,4,0.4,0.4
2024-07-12T1900,3065A,101.9533,29.9972,甘孜藏族自治州,州环保局,,31,15,30,3,6,98,,108,108,14,20,2,2,0.3,0.3
2024-07-12T1900,3414A,115.8347,28.932,赣江新区,桑海产业园,,41,41,27,13,14,103,,116,116,19,24,11,11,0.4,0.4
2024-07-12T1900,2363A,114.9367,25.8664,赣州市,地委,,23,14,16,7,8,73,,84,83,4,5,9,10,0.8,0.8
2024-07-12T1900,2364A,114.9461,25.8481,赣州市,气象台,,22,13,15,8,9,69,,81,79,11,9,7,7,0.6,0.6
2024-07-12T1900,2365A,114.9322,25.8333,赣州市,市图书馆,,23,16,14,3,7,73,,87,84,8,6,61,27,0.7,0.9
2024-07-12T1900,2366A,114.8905,25.8471,赣州市,华坚鞋城,,,20,18,10,9,75,,87,85,,6,,22,,0.6
2024-07-12T1900,3109A,115.0093,25.8613,赣州市,赣县区卫计委,,19,14,18,9,9,60,,66,65,9,10,7,7,0.7,0.7
2024-07-12T1900,2683A,106.2319,36.1417,固原市,马园,,38,38,109,20,29,111,,130,130,14,19,5,7,0.7,0.7
2024-07-12T1900,2684A,106.2792,36.0022,固原市,监测站,,37,37,94,23,30,88,,132,126,23,16,5,7,0.3,0.3
2024-07-12T1900,2685A,106.2375,36.0211,固原市,新区,,40,40,85,22,25,78,,138,126,27,17,6,6,0.5,0.4
2024-07-12T1900,3522A,106.2177,35.9959,固原市,原州区十五小,,45,45,93,20,28,75,,130,123,24,16,7,8,0.5,0.4
2024-07-12T1900,2544A,106.6303,30.4576,广安市,市委,,29,11,20,10,11,91,,97,96,8,12,9,8,0.4,0.5
2024-07-12T1900,2545A,106.6271,30.4663,广安市,友谊中学,,29,13,16,8,10,91,,96,95,10,13,7,7,0.5,0.5
2024-07-12T1900,2547A,106.6388,30.4551,广安市,广电花园,,30,11,22,9,9,94,,104,101,8,10,6,6,0.5,0.5
2024-07-12T1900,2902A,106.6351,30.4865,广安市,北辰小学,,29,12,19,8,10,92,,94,93,4,8,8,8,0.3,0.4
2024-07-12T1900,2523A,105.8945,32.4535,广元市,黑石坡,,28,13,12,6,7,87,,96,96,6,9,15,15,0.5,0.5
2024-07-12T1900,2524A,105.821,32.4444,广元市,老城,,29,13,19,7,10,92,,110,110,26,26,7,18,0.6,0.6
2024-07-12T1900,2526A,105.8628,32.4287,广元市,监测站,,35,19,18,11,8,111,,109,109,10,14,8,9,0.5,0.5
2024-07-12T1900,3617A,105.8047,32.4166,广元市,经开区,,,23,26,10,12,92,,108,108,20,26,8,7,,0.7
2024-07-12T1900,1345A,113.2347,23.1423,广州市,广雅中学,,,18,20,3,10,96,,114,114,20,19,,4,0.7,0.5
2024-07-12T1900,1346A,113.2612,23.105,广州市,市五中,,30,28,16,17,8,95,,120,120,15,15,3,3,0.6,0.5
2024-07-12T1900,1348A,113.3478,23.0916,广州市,广东商学院,,28,25,15,19,9,75,,98,98,15,18,4,3,0.5,0.5
2024-07-12T1900,1349A,113.4332,23.1047,广州市,市八十六中,,19,19,17,10,8,36,,80,76,37,26,3,3,0.5,0.5
2024-07-12T1900,1350A,113.3505,22.9483,广州市,番禺中学,,26,19,14,7,7,81,,102,102,18,17,7,7,0.7,0.7
2024-07-12T1900,1351A,113.2146,23.3916,广州市,花都师范,,29,26,20,19,11,92,,94,94,23,23,6,6,0.7,0.6
2024-07-12T1900,1352A,113.2597,23.1331,广州市,市监测站,,28,28,18,15,9,88,,110,110,18,15,4,4,0.7,0.7
2024-07-12T1900,1353A,113.5618,23.312,广州市,九龙镇镇龙,,27,27,22,12,10,66,,112,112,24,22,8,7,0.5,0.5
2024-07-12T1900,1354A,113.2765,23.1544,广州市,麓湖,,28,27,20,13,8,89,,112,112,18,16,3,3,0.6,0.5
2024-07-12T1900,1355A,113.443,23.3035,广州市,帽峰山森林公园,,25,15,12,10,6,77,,110,106,19,17,5,4,0.6,0.5
2024-07-12T1900,2846A,113.3221,23.1322,广州市,体育西,,27,27,20,14,9,74,,102,102,18,18,4,4,0.6,0.5
2024-07-12T1900,3298A,113.5717,23.5491,广州市,从化街口,,34,32,19,17,10,108,,104,104,14,15,5,5,0.6,0.5
2024-07-12T1900,3299A,113.3472,23.3692,广州市,白云竹料,,38,38,25,25,13,63,,83,83,57,24,4,4,0.7,0.5
2024-07-12T1900,3300A,113.2981,23.237,广州市,白云嘉禾,,,75,23,58,12,78,,98,98,29,25,5,5,,0.7
2024-07-12T1900,3301A,113.4256,23.1716,广州市,黄埔科学城,,21,21,18,8,7,49,,86,85,28,22,8,7,0.6,0.6
2024-07-12T1900,3302A,113.3942,23.0483,广州市,番禺大学城,,20,18,18,10,6,63,,87,87,18,15,5,5,0.6,0.4
2024-07-12T1900,3303A,113.4922,22.8168,广州市,南沙黄阁,,22,22,14,9,8,53,,70,70,14,16,5,5,0.6,0.6
2024-07-12T1900,3304A,113.5342,22.7896,广州市,南沙街,,15,15,12,10,5,45,,63,61,11,13,5,5,0.7,0.5
2024-07-12T1900,3443A,113.2902,23.5544,广州市,花都梯面,,,23,16,13,8,98,,103,103,,17,4,4,0.5,0.5
2024-07-12T1900,3445A,113.7858,23.7478,广州市,从化良口,,23,15,13,12,10,71,,78,78,8,12,5,5,0.6,0.5
2024-07-12T1900,3446A,113.8051,23.2614,广州市,增城荔城,,36,36,20,15,9,82,,103,103,20,17,7,6,0.9,0.7
2024-07-12T1900,2506A,109.6047,23.0666,贵港市,江南子站,,23,22,25,16,17,63,,85,83,16,8,7,8,0.5,0.5
2024-07-12T1900,2507A,109.6014,23.0948,贵港市,贵城子站,,23,,26,16,18,64,,83,81,16,8,7,8,0.5,0.5
2024-07-12T1900,2508A,109.5669,23.1065,贵港市,荷城子站,,27,27,24,7,7,64,,86,84,12,7,9,9,0.5,0.5
2024-07-12T1900,3405A,109.5886,23.1172,贵港市,新世纪学校,,21,19,24,13,13,66,,85,84,11,6,6,7,0.7,0.6
2024-07-12T1900,1439A,106.6899,26.5998,贵阳市,马鞍山,,20,12,11,3,4,62,,67,67,7,8,3,5,0.3,0.4
2024-07-12T1900,1440A,106.6971,26.5694,贵阳市,市环保站,,23,,16,16,15,54,,63,63,13,10,5,5,0.3,0.2
2024-07-12T1900,1441A,106.6243,26.6266,贵阳市,鉴湖路,,18,17,15,7,7,57,,63,63,8,6,3,3,0.3,0.4
2024-07-12T1900,1442A,106.7487,26.6343,贵阳市,燕子冲,,18,,7,3,7,56,,66,66,8,8,5,6,0.5,0.6
2024-07-12T1900,1443A,106.6555,26.4365,贵阳市,碧云窝,,27,27,19,3,1,61,,62,62,6,7,6,5,0.7,0.5
2024-07-12T1900,1444A,106.694,26.5161,贵阳市,中院村,,17,9,20,3,7,54,,57,57,11,11,6,5,0.5,0.4
2024-07-12T1900,1445A,106.7109,26.6027,贵阳市,红边门,,,17,21,,16,56,,62,62,13,13,4,5,0.6,0.6
2024-07-12T1900,1447A,106.674,26.5424,贵阳市,太慈桥,,19,12,12,7,6,60,,63,63,6,7,8,7,0.4,0.3
2024-07-12T1900,1862A,110.4144,25.3167,桂林市,电子科大尧山校区,,22,22,27,12,13,67,,77,76,4,7,4,9,0.4,0.4
2024-07-12T1900,1863A,110.2819,25.2697,桂林市,监测站,,23,23,20,14,13,67,,69,69,8,7,6,7,0.6,0.6
2024-07-12T1900,1864A,110.3089,25.2708,桂林市,龙隐路小学,,23,23,19,12,12,67,,70,70,7,7,6,5,0.5,0.6
2024-07-12T1900,1865A,110.2869,25.2178,桂林市,八中,,22,21,21,11,10,70,,68,68,5,8,6,8,0.5,0.5
2024-07-12T1900,3403A,110.1764,25.2381,桂林市,创业大厦,,,,18,,12,81,,80,80,,6,6,3,0.4,0.4
2024-07-12T1900,3531A,110.296,25.1253,桂林市,旅游学院,,21,9,12,7,11,65,,72,72,7,7,5,6,0.4,0.4
2024-07-12T1900,2674A,100.2561,34.4714,果洛藏族自治州,玛沁县大武镇,,,20,19,10,10,70,,79,75,8,11,12,13,,0.4
2024-07-12T1900,1129A,126.5422,45.755,哈尔滨市,岭北,颗粒物(PM10),52,53,57,28,46,111,,120,120,15,25,10,7,0,0.7
2024-07-12T1900,1130A,126.561,45.8167,哈尔滨市,松北商大,颗粒物(PM10),51,51,63,34,38,109,,104,104,16,26,6,6,0.7,0.7
2024-07-12T1900,1131A,126.979,45.5419,哈尔滨市,阿城会宁,,48,48,81,28,57,89,,102,102,18,28,19,20,0.6,0.8
2024-07-12T1900,1132A,126.599,45.7222,哈尔滨市,南岗学府路,颗粒物(PM10),55,59,80,26,43,101,,116,116,15,21,4,4,0.5,0.6
2024-07-12T1900,1133A,126.689,45.7733,哈尔滨市,太平宏伟公园,细颗粒物(PM2.5),58,59,73,41,45,105,,108,108,21,27,6,6,0.5,0.5
2024-07-12T1900,1134A,126.635,45.7667,哈尔滨市,道外承德广场,颗粒物(PM10),57,64,73,35,38,103,,109,109,22,29,8,8,0.6,0.7
2024-07-12T1900,1135A,126.685,45.7319,哈尔滨市,香坊红旗大街,颗粒物(PM10),57,63,73,37,50,96,,110,110,27,24,5,4,0.6,0.7
2024-07-12T1900,1136A,126.6411,45.7258,哈尔滨市,动力和平路,,,65,75,,48,102,,113,113,17,25,6,6,0.5,0.6
2024-07-12T1900,1137A,126.593,45.7478,哈尔滨市,道里建国路,细颗粒物(PM2.5),52,49,63,36,41,102,,112,112,18,23,6,6,0.4,0.4
2024-07-12T1900,1138A,126.615,45.61,哈尔滨市,平房东轻厂,颗粒物(PM10),60,70,82,34,45,93,,119,118,38,40,12,11,0.3,0.5
2024-07-12T1900,1139A,126.595,45.9855,哈尔滨市,呼兰师专,细颗粒物(PM2.5),59,64,62,42,43,102,,107,107,31,31,10,11,0.7,0.6
2024-07-12T1900,1140A,126.6206,45.6842,哈尔滨市,省农科院,颗粒物(PM10),55,59,82,28,59,98,,118,118,22,31,9,9,0.7,0.8
2024-07-12T1900,2688A,93.5128,42.8172,哈密市,地区监测站,,35,34,47,15,12,109,,113,113,24,10,4,3,0.4,0.2
2024-07-12T1900,2689A,93.4961,42.8328,哈密市,哈密师范学校,颗粒物(PM10),54,57,38,14,8,95,,109,106,14,11,5,4,0.4,0.2
2024-07-12T1900,2671A,100.9048,36.9639,海北藏族自治州,海晏县西海镇,,38,,24,26,20,110,,100,100,12,13,13,13,0.5,0.5
2024-07-12T1900,3867A,102.0738,36.5056,海东市,平安区公安北苑,颗粒物(PM10),53,55,46,32,30,68,,76,76,37,29,19,14,1.3,1.1
2024-07-12T1900,1410A,110.3232,20.0574,海口市,海南大学,,19,14,16,7,8,59,,84,81,7,6,6,6,0.4,0.4
2024-07-12T1900,1411A,110.283,20.0053,海口市,秀英海南医院,,22,22,15,11,10,59,,90,85,9,13,6,7,0.3,0.3
2024-07-12T1900,1412A,110.338,19.9969,海口市,海南师范大学,,18,17,16,9,8,57,,84,82,6,6,7,6,0.4,0.4
2024-07-12T1900,1413A,110.33,20.0356,海口市,龙华路环保局宿舍,,19,18,19,13,7,52,,80,77,12,6,7,7,0.3,0.3
2024-07-12T1900,3539A,110.5111,19.9736,海口市,桂林洋子站,,20,18,16,14,8,46,,64,62,10,7,6,6,0.3,0.3
2024-07-12T1900,2673A,100.6188,36.2866,海南藏族自治州,共和县恰卜恰镇,,33,23,35,11,22,104,,97,97,8,21,14,12,0.7,0.6
2024-07-12T1900,2676A,97.3731,37.3753,海西蒙古族藏族自治州,德令哈市,,,25,21,10,15,95,,109,98,11,8,7,7,,0.5
2024-07-12T1900,1048A,114.5302,36.6116,邯郸市,东污水处理厂,,42,42,47,19,27,127,,128,128,2,4,1,2,0.5,0.5
2024-07-12T1900,1049A,114.4918,36.5713,邯郸市,矿院,,42,32,48,19,30,132,,131,131,5,6,1,2,0.4,0.5
2024-07-12T1900,1050A,114.484,36.6133,邯郸市,丛台公园,,41,37,47,28,29,131,,131,131,2,5,2,5,0.6,0.5
2024-07-12T1900,3458A,114.7895,36.5593,邯郸市,香泉濮院小区,,,43,46,21,29,136,,145,145,5,4,,2,0.5,0.4
2024-07-12T1900,3579A,114.50634,36.77178,邯郸市,永年区实验高中,,46,45,60,32,37,126,,133,133,4,5,3,2,0.4,0.5
2024-07-12T1900,3580A,114.20016,36.44293,邯郸市,峰峰矿区临水派出所,颗粒物(PM10),51,51,62,24,35,138,,150,150,2,5,2,4,0.2,0.6
2024-07-12T1900,2634A,106.9893,33.1842,汉中市,汉川机床厂子校,,28,24,19,19,9,74,,89,89,8,6,3,3,0.6,0.5
2024-07-12T1900,2635A,107.0154,33.0706,汉中市,市监测站,,31,18,27,9,10,99,,108,108,6,10,6,7,0.6,0.7
2024-07-12T1900,2636A,107.0089,33.1138,汉中市,鑫源开发区,,31,15,24,13,8,97,,106,106,5,12,9,9,0.5,0.6
2024-07-12T1900,2637A,107.007,33.0323,汉中市,南郑大河坎水厂,,32,20,25,10,11,100,,110,110,6,10,8,8,0.6,0.6
2024-07-12T1900,1223A,120.2072,30.2111,杭州市,滨江,,21,7,43,6,24,67,,71,71,18,20,3,3,0.5,0.7
2024-07-12T1900,1224A,120.0633,30.2747,杭州市,西溪,,14,8,34,6,23,43,,54,53,16,16,6,6,0.6,0.8
2024-07-12T1900,1226A,120.3461,30.3153,杭州市,下沙,,23,23,43,6,22,53,,76,64,32,22,6,6,0.6,0.7
2024-07-12T1900,1227A,120.1269,30.2456,杭州市,卧龙桥,,16,16,36,3,31,34,,50,47,20,17,4,5,0.6,0.9
2024-07-12T1900,1228A,120.1903,30.2692,杭州市,浙江农大,,23,13,32,3,28,71,,66,63,13,19,6,6,0.7,0.8
2024-07-12T1900,1230A,120.1197,30.3119,杭州市,和睦小学,,21,,35,8,23,67,,68,68,22,23,4,5,0.5,0.7
2024-07-12T1900,1231A,120.3019,30.4183,杭州市,临平镇,,39,,39,27,27,61,,77,68,28,16,4,4,0.7,0.7
2024-07-12T1900,1232A,120.2697,30.1819,杭州市,城厢镇,,21,9,43,3,34,66,,99,71,22,20,3,3,0.6,0.8
2024-07-12T1900,1233A,120.0883,30.1808,杭州市,云栖,,10,8,38,3,19,28,,74,62,19,17,6,6,0.7,0.9
2024-07-12T1900,3557A,119.9464,30.0494,杭州市,镇二中,,21,12,38,3,23,65,,104,95,18,19,6,6,0.6,0.8
2024-07-12T1900,3558A,119.7183,30.2367,杭州市,市府大楼,,20,12,26,6,24,63,,80,78,20,16,6,6,0.6,0.8
2024-07-12T1900,3656A,120.1556,30.2864,杭州市,消防大队,,21,8,41,3,28,66,,68,68,20,18,6,6,0.8,1
2024-07-12T1900,1270A,117.1959,31.7848,合肥市,明珠广场,,39,31,38,27,31,58,,55,55,18,22,7,8,0.8,0.7
2024-07-12T1900,1271A,117.3072,31.8764,合肥市,三里街,,35,24,30,24,27,66,,50,50,22,26,6,6,1.0,0.9
2024-07-12T1900,1272A,117.2588,31.8707,合肥市,琥珀山庄,,32,29,39,22,26,69,,60,60,16,18,7,7,1.0,0.9
2024-07-12T1900,1273A,117.1604,31.9052,合肥市,董铺水库,,39,,34,27,31,68,,64,64,12,13,2,2,0.7,0.7
2024-07-12T1900,1274A,117.25,31.8571,合肥市,长江中路,,34,34,38,21,31,69,,61,61,14,16,5,5,1.1,1
2024-07-12T1900,1275A,117.266,31.9436,合肥市,庐阳区,,35,,31,24,27,76,,63,63,17,24,5,4,0.9,0.8
2024-07-12T1900,1276A,117.336,31.8586,合肥市,瑶海区,,29,24,34,20,27,70,,53,53,14,22,8,8,1.1,1
2024-07-12T1900,1277A,117.3027,31.7964,合肥市,包河区,,29,29,38,19,28,72,,60,60,11,34,6,6,0.9,0.9
2024-07-12T1900,1278A,117.2776,31.7385,合肥市,滨湖新区,,25,22,31,17,25,65,,64,64,12,12,6,6,1.0,0.9
2024-07-12T1900,1279A,117.1318,31.8403,合肥市,高新区,,22,,31,15,29,60,,56,56,15,17,7,7,0.9,0.9
2024-07-12T1900,3464A,117.3803,31.9147,合肥市,高教基地,,24,24,29,16,20,68,,54,54,11,11,7,7,0.8,0.7
2024-07-12T1900,3614A,79.924,37.0877,和田地区,地区环保局,颗粒物(PM10),121,192,119,44,28,138,,129,129,2,6,6,7,0.4,0.4
2024-07-12T1900,3615A,79.9131,37.113,和田地区,市环保局,,,,94,,30,128,,122,122,,10,,7,0.5,0.5
2024-07-12T1900,2516A,108.2011,24.715,河池市,东仁乐园,,29,29,26,9,13,49,,60,60,8,8,4,8,0.7,0.7
2024-07-12T1900,2517A,108.0497,24.6947,河池市,市环保站,,22,20,17,9,12,68,,67,67,6,6,7,9,0.4,0.5
2024-07-12T1900,2518A,108.0983,24.6989,河池市,市疾控中心,,21,18,20,7,13,66,,64,64,8,12,8,9,0.5,0.5
2024-07-12T1900,1697A,114.6944,23.7586,河源市,东埔,,20,12,12,9,7,62,,74,74,12,11,8,7,0.5,0.5
2024-07-12T1900,1698A,114.6892,23.7233,河源市,老城,,20,16,16,7,7,63,,76,76,7,8,5,4,0.6,0.6
2024-07-12T1900,1718A,115.4208,35.2464,菏泽市,气象局,细颗粒物(PM2.5),54,55,52,38,34,153,,146,146,8,7,2,3,0.4,0.4
2024-07-12T1900,1719A,115.4747,35.2375,菏泽市,市政协,细颗粒物(PM2.5),64,51,43,46,37,158,,149,149,7,5,2,3,0.4,0.3
2024-07-12T1900,3374A,115.5564,35.0891,菏泽市,定陶老年大学,颗粒物(PM10),52,53,45,34,29,157,,146,146,7,6,2,3,0.6,0.6
2024-07-12T1900,3647A,115.4702,35.2706,菏泽市,菏泽医专,颗粒物(PM10),83,116,47,34,28,149,,147,147,20,7,2,3,0.6,0.5
2024-07-12T1900,2514A,111.5264,24.4172,贺州市,环保小区,,34,34,24,13,14,99,,92,92,12,11,7,8,0.6,0.5
2024-07-12T1900,2515A,111.5608,24.4078,贺州市,政协大楼,,41,41,29,20,17,100,,93,93,13,12,7,8,0.6,0.5
2024-07-12T1900,3534A,111.4744,24.4553,贺州市,西湾,,,45,33,15,18,76,,95,95,19,16,7,8,,0.5
2024-07-12T1900,2385A,114.17,35.9019,鹤壁市,市监测站,,45,,47,31,37,131,,130,130,8,10,6,5,0.8,0.8
2024-07-12T1900,2386A,114.2956,35.7511,鹤壁市,市交警支队,颗粒物(PM10),55,60,47,25,33,128,,135,135,9,11,4,4,0.6,0.6
2024-07-12T1900,2387A,114.2878,35.7306,鹤壁市,迎宾馆,细颗粒物(PM2.5),60,,38,43,37,129,,135,135,12,13,2,2,0.5,0.5
2024-07-12T1900,3474A,114.2617,35.6822,鹤壁市,大新区,,39,35,39,15,21,122,,130,130,11,14,1,2,0.3,0.4
2024-07-12T1900,3596A,114.1572,35.9603,鹤壁市,南山宾馆,,49,44,46,34,42,140,,139,139,6,10,9,9,0.8,0.9
2024-07-12T1900,2244A,130.2537,47.3416,鹤岗市,哈啤分公司,,49,49,74,32,60,36,,65,64,10,10,13,14,0.5,0.8
2024-07-12T1900,2245A,130.2684,47.3086,鹤岗市,斯达机电,,38,38,77,21,58,40,,66,66,9,12,12,13,0.3,0.6
2024-07-12T1900,2246A,130.3114,47.3388,鹤岗市,东山纸板厂,,45,39,87,31,72,39,,64,64,10,15,17,17,0.6,0.9
2024-07-12T1900,2247A,130.1097,47.3382,鹤岗市,五号水库,,23,23,61,16,52,50,,74,73,11,7,10,10,0.5,0.7
2024-07-12T1900,2263A,127.4833,50.2524,黑河市,交通局,细颗粒物(PM2.5),84,95,110,62,76,88,,93,93,10,13,6,6,0.8,0.7
2024-07-12T1900,2264A,127.5144,50.2341,黑河市,环保局,细颗粒物(PM2.5),99,99,121,74,88,96,,94,94,10,14,4,7,0.7,0.7
2024-07-12T1900,2265A,127.5291,50.2472,黑河市,大黑河岛,细颗粒物(PM2.5),122,,113,92,103,,,,,10,14,2,2,,
2024-07-12T1900,1074A,115.6838,37.7541,衡水市,电机北厂,颗粒物(PM10),62,74,71,34,41,159,,160,160,7,7,2,4,0.4,0.4
2024-07-12T1900,1075A,115.6303,37.7316,衡水市,市监测站,颗粒物(PM10),57,64,62,27,39,146,,156,156,11,9,7,7,0.4,0.5
2024-07-12T1900,3188A,115.6683,37.7217,衡水市,市城管局,颗粒物(PM10),56,62,63,33,42,154,,161,161,11,9,3,4,0.4,0.5
2024-07-12T1900,3459A,115.5989,37.5491,衡水市,地表水厂,,,88,74,26,37,97,,149,145,,12,8,8,0.4,0.5
2024-07-12T1900,2456A,112.5003,26.9167,衡阳市,原169医院,,25,25,24,14,13,76,,77,77,6,12,5,7,0.7,0.7
2024-07-12T1900,2457A,112.6194,26.9258,衡阳市,衡阳化工总厂,,,31,32,,,72,,88,85,12,10,8,14,0.7,0.5
2024-07-12T1900,2458A,112.6211,26.8956,衡阳市,珠晖区环保局,,,25,27,,,80,,90,88,8,7,7,16,0.9,0.6
2024-07-12T1900,2459A,112.6197,26.8733,衡阳市,市委党校,,26,26,27,14,13,76,,88,86,11,10,4,10,0.5,0.5
2024-07-12T1900,2460A,112.6006,26.8919,衡阳市,市监测站,,23,15,29,12,16,71,,90,86,17,10,8,16,0.9,0.5
2024-07-12T1900,2461A,112.5664,26.9056,衡阳市,真空机电公司,,,28,26,,14,77,,81,81,7,10,6,15,0.6,0.9
2024-07-12T1900,3399A,112.6703,26.882,衡阳市,师范学院,,23,18,24,16,10,72,,89,86,10,8,8,9,0.6,0.6
2024-07-12T1900,2608A,103.3772,23.3993,红河哈尼族彝族自治州,污水处理厂,,16,16,10,10,9,34,,39,38,5,4,4,4,0.4,0.4
2024-07-12T1900,2609A,103.3861,23.35,红河哈尼族彝族自治州,监测站,,18,12,8,12,7,36,,40,40,4,4,4,4,0.3,0.3
2024-07-12T1900,3038A,103.3758,23.368,红河哈尼族彝族自治州,州图书馆,,16,11,9,11,7,33,,37,36,4,3,4,4,0.4,0.3
2024-07-12T1900,1090A,111.6507,40.7517,呼和浩特市,呼市一监,,44,19,33,9,23,140,,138,138,13,13,3,4,0.4,0.4
2024-07-12T1900,1091A,111.6572,40.8033,呼和浩特市,小召,,40,29,35,8,25,127,,122,122,17,19,7,8,0.5,0.6
2024-07-12T1900,1094A,111.7516,40.8369,呼和浩特市,如意水处理厂,,40,15,35,7,20,128,,127,127,11,15,4,4,0.4,0.5
2024-07-12T1900,1095A,111.7276,40.8062,呼和浩特市,二十九中,,40,27,38,10,26,128,,135,135,14,15,3,5,0.5,0.6
2024-07-12T1900,1096A,111.5512,40.7866,呼和浩特市,工大金川校区,,38,23,36,8,24,119,,131,131,23,17,5,6,0.5,0.5
2024-07-12T1900,1097A,111.717,40.7612,呼和浩特市,化肥厂生活区,,39,12,42,10,27,123,,133,133,18,17,8,9,0.5,0.5
2024-07-12T1900,3698A,111.5968,40.8178,呼和浩特市,红旗小学,,39,29,36,9,23,124,,134,134,27,22,5,6,0.4,0.4
2024-07-12T1900,3699A,111.6518,40.8389,呼和浩特市,海东办,,40,24,35,9,24,125,,129,129,20,18,6,6,0.6,0.6
2024-07-12T1900,2192A,119.7594,49.2261,呼伦贝尔市,区环保局,细颗粒物(PM2.5),125,116,111,95,98,94,,114,113,18,14,5,6,0.9,0.9
2024-07-12T1900,3061A,119.7512,49.1577,呼伦贝尔市,国华电力东,细颗粒物(PM2.5),99,77,95,74,91,100,,118,118,7,10,4,4,0.6,0.7
2024-07-12T1900,1250A,120.0751,30.8669,湖州市,城西水厂,,20,7,27,6,17,64,,64,62,28,28,3,3,0.6,0.7
2024-07-12T1900,2873A,120.0875,30.8955,湖州市,仁皇山新区,,19,10,22,8,18,58,,64,62,31,22,6,5,0.8,0.9
2024-07-12T1900,2907A,120.1844,30.8596,湖州市,吴兴区站,,19,11,27,6,25,60,,65,64,21,17,6,6,0.6,0.7
2024-07-12T1900,3562A,120.4148,30.8538,湖州市,南浔区站,,18,7,26,3,25,56,,62,62,16,16,2,3,0.5,0.7
2024-07-12T1900,1607A,120.9092,40.7136,葫芦岛市,龙港区,细颗粒物(PM2.5),53,50,62,37,61,147,,153,150,13,12,4,5,0.6,0.7
2024-07-12T1900,1608A,120.8392,40.7514,葫芦岛市,化工街,,41,36,60,27,41,129,,164,153,27,16,13,13,1.1,1.2
2024-07-12T1900,1609A,120.8341,40.7073,葫芦岛市,新区,细颗粒物(PM2.5),53,,62,37,65,155,,159,156,17,12,3,3,0.7,0.8
2024-07-12T1900,1610A,120.8695,40.7677,葫芦岛市,东城区,细颗粒物(PM2.5),57,,60,40,66,142,,191,179,33,16,8,9,1.0,1
2024-07-12T1900,2482A,109.5981,27.5721,怀化市,林科所,,25,16,16,9,8,77,,92,89,9,6,4,6,0.8,0.8
2024-07-12T1900,2483A,109.9453,27.5444,怀化市,河西地税局,,,18,21,10,12,59,,76,73,7,6,,4,,0.6
2024-07-12T1900,2484A,109.9781,27.5342,怀化市,市四医院,,24,24,28,16,16,60,,72,69,5,9,2,3,0.5,0.5
2024-07-12T1900,2485A,109.9972,27.5578,怀化市,监测楼,,20,20,23,12,13,54,,65,63,4,7,5,4,0.5,0.6
2024-07-12T1900,2486A,110.0394,27.583,怀化市,市委党校,,23,16,20,16,12,54,,66,63,3,6,5,6,0.4,0.5
2024-07-12T1900,1210A,119.036,33.5981,淮安市,钵池山,,47,41,36,29,31,148,,150,150,10,11,5,5,0.9,0.8
2024-07-12T1900,1211A,119.007,33.575,淮安市,北京南路,,45,39,37,31,31,142,,146,146,10,13,6,6,0.9,0.8
2024-07-12T1900,1212A,118.989,33.6067,淮安市,市监测站,细颗粒物(PM2.5),55,44,44,39,38,145,,146,146,13,17,5,6,0.8,0.9
2024-07-12T1900,1213A,119.135,33.5039,淮安市,楚州区监测站,,46,46,43,29,30,132,,141,141,12,14,4,4,0.8,0.7
2024-07-12T1900,1214A,119.0186,33.6297,淮安市,淮阴区监测站,细颗粒物(PM2.5),55,48,45,39,39,146,,151,151,15,18,6,7,0.7,0.8
2024-07-12T1900,3426A,118.8755,33.2894,淮安市,新华书店,,49,44,35,34,29,153,,147,147,18,18,5,6,1.1,0.8
2024-07-12T1900,2282A,116.8004,33.975,淮北市,监测站,颗粒物(PM10),52,53,46,21,36,121,,144,143,6,5,5,6,0.7,0.7
2024-07-12T1900,2283A,116.8091,33.9007,淮北市,烈山区政府,,36,34,49,22,38,115,,147,143,6,7,5,5,0.7,0.8
2024-07-12T1900,3330A,116.8873,33.9836,淮北市,杜集区检察院,,42,42,58,29,49,131,,153,151,2,4,5,5,0.7,0.8
2024-07-12T1900,4017A,116.7923,33.9535,淮北市,市博物馆,,41,27,43,22,38,131,,155,153,4,4,4,4,0.7,0.8
2024-07-12T1900,2277A,116.8305,32.7727,淮南市,潘集区政府,,20,12,19,9,16,62,,84,68,10,6,2,3,0.6,0.4
2024-07-12T1900,2278A,117.0067,32.6524,淮南市,师范学院,,22,14,26,6,20,68,,91,80,9,5,9,9,0.7,0.5
2024-07-12T1900,2279A,116.8569,32.5951,淮南市,谢家集区政府,,18,,16,8,11,38,,83,56,35,14,7,6,0.4,0.4
2024-07-12T1900,2280A,116.8281,32.633,淮南市,八公山区政府,,29,20,27,20,24,53,,86,66,16,9,3,5,0.6,0.5
2024-07-12T1900,2281A,116.6325,32.6201,淮南市,焦岗湖风景区管理处,,11,6,14,3,11,33,,45,37,7,8,4,4,0.4,0.4
2024-07-12T1900,2894A,117.0566,32.6531,淮南市,经济技术开发区消防队,,21,8,20,3,12,65,,82,77,13,7,4,4,1.0,0.7
2024-07-12T1900,3329A,117.0108,32.5893,淮南市,山南新区,,26,26,26,3,16,70,,93,79,8,5,5,5,0.9,0.7
2024-07-12T1900,2446A,114.9028,30.4742,黄冈市,职工中心,,24,24,33,15,19,74,,108,104,10,13,8,10,0.4,0.6
2024-07-12T1900,2929A,114.8858,30.4519,黄冈市,红卫路,,27,27,32,14,20,77,,108,105,12,16,8,10,0.4,0.6
2024-07-12T1900,3398A,114.9136,30.4445,黄冈市,市林业局,,23,23,29,13,19,72,,106,104,10,13,6,6,0.4,0.6
2024-07-12T1900,2672A,102.0199,35.5102,黄南藏族自治州,同仁县隆务镇,,32,32,37,19,18,88,,92,91,13,4,8,8,0.4,0.3
2024-07-12T1900,2295A,118.2903,29.6963,黄山市,延安路89号,颗粒物(PM10),53,56,35,11,10,65,,89,85,11,6,8,7,0.6,0.5
2024-07-12T1900,2296A,118.327,29.7178,黄山市,黄山东路89号,,38,38,22,15,7,63,,87,83,15,7,7,6,0.6,0.4
2024-07-12T1900,2297A,118.1371,30.2756,黄山市,黄山区政府5号楼,,33,33,22,22,12,81,,77,77,6,6,6,6,0.6,0.6
2024-07-12T1900,2423A,115.0601,30.2313,黄石市,沈家营,,23,23,47,9,13,45,,91,81,28,31,14,16,0.4,0.6
2024-07-12T1900,2424A,115.0817,30.2006,黄石市,陈家湾,,42,42,42,17,14,53,,98,87,27,18,18,13,0.5,0.5
2024-07-12T1900,2426A,114.8988,30.2019,黄石市,铁山,,22,22,29,8,12,62,,93,85,10,14,10,9,0.3,0.4
2024-07-12T1900,2427A,115.0307,30.2092,黄石市,团城山,,22,22,35,15,13,51,,92,82,22,13,16,12,0.5,0.5
2024-07-12T1900,3149A,115.0235,30.1578,黄石市,笔架山北路,,34,34,41,6,7,61,,89,83,12,12,8,10,0.3,0.5
2024-07-12T1900,1392A,114.4183,23.0528,惠州市,河南岸金山湖子站,,17,16,17,10,9,53,,66,65,8,11,4,4,0.4,0.4
2024-07-12T1900,1393A,114.4053,23.0822,惠州市,下埔横江三路子站,,20,20,16,8,7,55,,71,70,11,10,6,7,0.5,0.5
2024-07-12T1900,1394A,114.4103,23.1142,惠州市,江北云山西路子站,,21,21,16,3,5,55,,75,73,13,8,3,3,0.5,0.4
2024-07-12T1900,1395A,114.4645,22.7833,惠州市,惠阳区承修路船湖子站,,17,13,9,8,4,54,,53,53,9,9,1,1,0.6,0.5
2024-07-12T1900,1396A,114.5317,22.7422,惠州市,大亚湾管委会子站,,19,8,8,3,4,58,,62,61,7,8,5,5,0.4,0.5
2024-07-12T1900,3314A,114.4338,22.8134,惠州市,惠阳秋长,,22,7,7,7,4,69,,69,69,5,5,4,4,0.5,0.5
2024-07-12T1900,3452A,114.6517,22.775,惠州市,大亚湾霞涌,,20,16,7,11,4,63,,63,63,5,5,4,3,0.4,0.5
2024-07-12T1900,2240A,130.9762,45.3001,鸡西市,环保局,,32,32,42,15,28,49,,64,63,11,8,8,8,0.4,0.5
2024-07-12T1900,2243A,130.9429,45.3039,鸡西市,第一中学,,41,41,48,12,28,56,,75,74,8,7,9,9,0.3,0.4
2024-07-12T1900,3707A,131.0207,45.3073,鸡西市,欧美日汽修厂,,24,24,36,14,24,55,,67,66,6,6,4,4,0.3,0.4
2024-07-12T1900,3709A,130.9967,45.3106,鸡西市,市政设施管理处,,35,35,44,13,23,46,,67,66,12,11,6,6,0.3,0.4
2024-07-12T1900,2367A,114.9754,27.0803,吉安市,红声器材厂,,37,37,36,18,18,97,,110,109,12,12,11,11,0.5,0.5
2024-07-12T1900,2368A,114.9658,27.0999,吉安市,市森林工业局,,35,34,35,24,19,104,,113,112,15,13,11,13,0.4,0.4
2024-07-12T1900,2369A,114.99,27.1312,吉安市,市环境监测站,,35,30,29,19,18,109,,120,119,11,12,11,13,0.5,0.5
2024-07-12T1900,2370A,115.0093,27.0968,吉安市,青原区法院,,34,34,35,14,18,97,,111,109,12,14,14,16,0.4,0.5
2024-07-12T1900,1772A,126.54,43.8622,吉林市,哈达湾,细颗粒物(PM2.5),119,116,96,90,73,140,,160,160,14,27,6,7,1.1,0.9
2024-07-12T1900,1773A,126.5844,43.8358,吉林市,东局子,细颗粒物(PM2.5),130,131,97,99,69,104,,156,154,43,27,7,5,1.1,0.9
2024-07-12T1900,1774A,126.5052,43.8245,吉林市,电力学院,细颗粒物(PM2.5),142,134,88,108,68,127,,140,140,24,27,15,11,1.2,0.8
2024-07-12T1900,1775A,126.6133,43.8972,吉林市,江北,细颗粒物(PM2.5),103,115,102,77,67,107,,150,148,14,21,9,9,1.1,1
2024-07-12T1900,1776A,126.555,43.8306,吉林市,江南公园,细颗粒物(PM2.5),122,117,84,92,66,122,,154,154,32,25,5,4,1.1,1
2024-07-12T1900,2868A,126.4739,43.953,吉林市,九站,细颗粒物(PM2.5),120,134,119,91,77,117,,152,152,25,38,8,13,1.0,0.9
2024-07-12T1900,1299A,116.9862,36.6114,济南市,科干所,臭氧1小时,79,61,60,49,42,183,,174,174,12,13,9,8,0.7,0.6
2024-07-12T1900,1300A,116.9376,36.665,济南市,农科所,臭氧1小时,69,73,63,34,34,175,,170,170,19,20,8,8,0.6,0.5
2024-07-12T1900,1301A,117.1265,36.6734,济南市,开发区,臭氧1小时,104,76,61,42,37,208,,197,197,26,19,10,10,0.8,0.7
2024-07-12T1900,1303A,117.0624,36.6868,济南市,省种子仓库,臭氧1小时,98,73,65,39,38,198,,195,195,19,15,7,6,0.6,0.6
2024-07-12T1900,1304A,116.9489,36.6447,济南市,机床二厂,臭氧1小时,100,83,67,39,34,200,,190,190,16,16,10,10,0.5,0.5
2024-07-12T1900,1305A,117.0495,36.663,济南市,市监测站,臭氧1小时,100,68,62,46,42,200,,196,196,20,15,10,10,0.6,0.6
2024-07-12T1900,1306A,116.7675,36.5484,济南市,长清党校,臭氧1小时,88,61,58,49,42,190,,183,183,11,9,10,10,0.7,0.7
2024-07-12T1900,1616A,117.6795,36.229,济南市,技术学院,臭氧1小时,85,66,70,51,50,188,,200,200,16,15,12,11,1.1,1.1
2024-07-12T1900,1961A,117.532,36.6868,济南市,东山小学,臭氧1小时,103,81,66,42,41,206,,215,215,17,21,7,7,0.9,0.8
2024-07-12T1900,3059A,117.7161,36.2049,济南市,泰兴公司,臭氧1小时,80,68,72,44,49,184,,191,191,14,31,9,12,0.7,0.9
2024-07-12T1900,3064A,117.6867,36.2171,济南市,莱芜战役纪念馆,臭氧1小时,73,75,83,41,45,178,,178,178,17,25,10,11,0.9,0.9
2024-07-12T1900,3494A,117.1673,36.9782,济南市,济阳区政府,臭氧1小时,79,81,81,42,42,183,,209,209,16,21,8,6,0.5,0.5
2024-07-12T1900,3495A,117.1171,36.63,济南市,锦屏中学,臭氧1小时,106,59,53,44,39,212,,207,207,13,13,11,10,0.8,0.7
2024-07-12T1900,3682A,116.9814,36.6819,济南市,济南四建,臭氧1小时,80,66,58,42,40,184,,179,179,19,15,8,8,0.8,0.7
2024-07-12T1900,1653A,116.6251,35.4302,济宁市,火炬城,"细颗粒物(PM2.5),臭氧1小时",62,57,58,44,40,169,,162,162,10,13,9,10,0.9,0.8
2024-07-12T1900,1655A,116.5491,35.4042,济宁市,电化厂,细颗粒物(PM2.5),73,68,59,53,43,169,,166,166,13,11,6,6,0.8,0.7
2024-07-12T1900,3500A,116.5814,35.3707,济宁市,北湖一中,臭氧1小时,77,74,60,46,38,181,,168,168,8,11,7,6,0.9,0.7
2024-07-12T1900,3501A,116.8249,35.5593,济宁市,服务中心,臭氧1小时,84,55,66,48,44,187,,190,190,9,15,2,3,0.6,0.6
2024-07-12T1900,3678A,116.5907,35.4054,济宁市,市第七中学,,,77,61,,39,185,,175,175,,15,,5,0.8,0.7
2024-07-12T1900,2255A,130.2751,46.8028,佳木斯市,佳纺,"颗粒物(PM10),细颗粒物(PM2.5)",54,58,35,38,23,36,,87,78,20,12,5,5,0.5,0.5
2024-07-12T1900,2256A,130.3995,46.8307,佳木斯市,发电厂,,45,45,33,27,21,33,,86,76,15,11,14,7,0.4,0.5
2024-07-12T1900,2257A,130.3258,46.7975,佳木斯市,环保局,颗粒物(PM10),55,60,37,36,23,22,,78,67,28,15,7,7,0.7,0.6
2024-07-12T1900,2258A,130.3648,46.8032,佳木斯市,十一中,,36,36,27,21,19,30,,82,73,23,16,8,7,0.4,0.4
2024-07-12T1900,2259A,130.3794,46.7588,佳木斯市,四丰,,35,34,25,24,17,24,,68,59,24,13,1,1,0.7,0.7
2024-07-12T1900,1252A,120.7436,30.778,嘉兴市,清河小学,,,,29,,14,61,,73,69,25,13,6,6,0.7,1.1
2024-07-12T1900,1253A,120.726,30.7478,嘉兴市,嘉兴学院,,19,10,22,6,19,58,,66,59,20,15,1,2,0.5,0.6
2024-07-12T1900,2872A,120.7846,30.7525,嘉兴市,南湖区残联,,22,9,23,6,18,70,,79,74,26,18,4,4,0.5,0.6
2024-07-12T1900,3407A,120.6916,30.7739,嘉兴市,秀洲住建,,16,10,22,8,16,50,,72,64,29,19,3,3,0.8,0.8
2024-07-12T1900,1945A,98.2908,39.7711,嘉峪关市,气象局,,41,34,42,14,14,131,,131,131,10,13,3,3,0.3,0.4
2024-07-12T1900,2884A,98.2672,39.7978,嘉峪关市,酒钢宾馆,,44,31,48,17,19,138,,135,135,8,13,6,21,0.3,0.4
2024-07-12T1900,3248A,98.2643,39.7724,嘉峪关市,雄关区,,41,33,40,9,16,130,,126,126,8,12,6,8,0.4,0.4
2024-07-12T1900,1383A,113.1064,22.6058,江门市,北街,,20,12,13,9,5,62,,70,70,7,9,3,3,0.3,0.3
2024-07-12T1900,1384A,113.0731,22.5835,江门市,西区,,20,12,14,10,5,63,,68,68,9,10,5,5,0.4,0.4
2024-07-12T1900,1385A,113.0219,22.5311,江门市,圭峰西,,18,15,12,9,6,57,,61,61,9,10,4,4,0.2,0.2
2024-07-12T1900,1386A,113.0828,22.5947,江门市,东湖,,21,20,14,12,9,65,,68,68,9,9,4,5,0.3,0.3
2024-07-12T1900,3311A,113.1075,22.5647,江门市,江海富民,,20,17,22,10,10,64,,74,72,9,9,5,5,0.4,0.4
2024-07-12T1900,3449A,113.05,22.4667,江门市,新会银湖,,17,16,12,8,4,52,,57,57,10,12,6,4,0.3,0.3
2024-07-12T1900,1828A,113.227,35.2125,焦作市,市环保局,颗粒物(PM10),54,57,57,30,43,158,,162,162,7,9,3,4,0.4,0.5
2024-07-12T1900,3169A,113.2725,35.2067,焦作市,太极体育中心,颗粒物(PM10),52,53,64,24,38,144,,157,157,11,12,1,4,0.5,0.7
2024-07-12T1900,3335A,113.3137,35.2641,焦作市,马村街道办,颗粒物(PM10),52,53,56,27,45,126,,151,151,19,13,3,2,0.5,0.6
2024-07-12T1900,3336A,113.2465,35.2373,焦作市,焦作技师学院,,47,46,65,24,42,150,,168,168,23,17,2,3,0.6,0.7
2024-07-12T1900,3477A,113.1656,35.2539,焦作市,中站许衡医院,颗粒物(PM10),59,67,46,30,51,149,,151,151,17,12,4,4,0.6,0.7
2024-07-12T1900,3981A,113.2449,35.1803,焦作市,原李万街道办,,48,33,56,29,40,153,,154,154,7,12,3,3,0.3,0.4
2024-07-12T1900,1708A,116.3701,23.5345,揭阳市,新兴,,18,18,33,10,17,38,,61,56,13,21,4,5,0.7,0.8
2024-07-12T1900,1709A,116.3264,23.5443,揭阳市,西马,,23,23,34,10,12,46,,60,58,6,14,4,3,0.7,0.8
2024-07-12T1900,1710A,116.3611,23.5626,揭阳市,东兴,,16,16,31,8,11,46,,66,62,7,17,2,3,0.8,0.8
2024-07-12T1900,1711A,116.4151,23.5294,揭阳市,渔湖,,20,,35,14,16,38,,58,53,14,24,4,5,0.7,0.8
2024-07-12T1900,3320A,116.403,23.5699,揭阳市,曲溪,,28,28,23,10,10,38,,64,58,9,15,2,5,0.6,0.6
2024-07-12T1900,1944A,102.1692,38.5167,金昌市,天庆家园,,36,34,44,11,26,115,,117,117,18,17,11,21,0.4,0.6
2024-07-12T1900,3170A,102.1864,38.5253,金昌市,市委党校,,39,19,60,6,33,124,,121,121,10,15,32,29,0.4,0.6
2024-07-12T1900,4022A,102.1647,38.5371,金昌市,金川区人防中心,,41,40,57,8,27,130,,125,125,8,13,10,17,0.4,0.6
2024-07-12T1900,1262A,119.647,29.077,金华市,十五中,颗粒物(PM10),51,51,39,21,19,114,,134,130,27,20,2,3,0.6,0.5
2024-07-12T1900,1263A,119.686,29.1029,金华市,监测站,,49,49,32,24,19,99,,127,122,42,19,3,4,0.5,0.5
2024-07-12T1900,3659A,119.656,29.1131,金华市,气象局,颗粒物(PM10),53,55,37,26,14,95,,125,120,30,23,4,4,0.3,0.4
2024-07-12T1900,1767A,121.1115,41.0879,锦州市,南山,颗粒物(PM10),51,51,63,35,48,146,,181,179,26,15,4,7,0.7,0.9
2024-07-12T1900,1768A,121.0533,40.8434,锦州市,开发区,,49,38,77,30,48,156,,176,173,25,21,14,9,1.0,1
2024-07-12T1900,1769A,121.1836,41.1119,锦州市,百股街道,臭氧1小时,53,50,80,27,44,162,,192,192,14,25,7,11,0.9,1
2024-07-12T1900,1770A,121.1178,41.1222,锦州市,天安街道,细颗粒物(PM2.5),53,46,72,37,51,127,,166,164,24,12,5,9,0.9,1.1
2024-07-12T1900,1771A,121.1303,41.1386,锦州市,北湖公园,细颗粒物(PM2.5),79,,76,58,87,140,,175,174,25,22,6,8,0.8,0.9
2024-07-12T1900,2160A,112.85,35.5051,晋城市,自来水公司,臭氧1小时,82,79,75,48,49,185,,187,187,12,16,5,6,0.8,0.9
2024-07-12T1900,2161A,112.8318,35.4936,晋城市,白云商贸,臭氧1小时,77,89,76,48,44,181,,181,181,12,16,5,6,0.9,0.9
2024-07-12T1900,2162A,112.8508,35.4887,晋城市,市环保局,臭氧1小时,78,74,80,44,48,182,,182,182,13,17,5,6,0.8,0.9
2024-07-12T1900,2163A,112.8676,35.4897,晋城市,技术学院,臭氧1小时,77,54,65,46,48,181,,183,183,18,19,6,6,1.0,1
2024-07-12T1900,3620A,112.8271,35.4828,晋城市,泽州一中,,,,65,,55,176,,178,178,13,16,,9,0.9,0.9
2024-07-12T1900,2171A,112.7532,37.6945,晋中市,锦纶小区,臭氧1小时,65,66,49,17,26,172,,199,199,12,18,6,11,0.5,0.7
2024-07-12T1900,2173A,112.7249,37.7067,晋中市,南都小区,臭氧1小时,70,67,48,31,28,176,,203,203,11,15,6,11,0.4,0.6
2024-07-12T1900,2174A,112.6991,37.6982,晋中市,榆次区政府,臭氧1小时,65,68,48,28,32,172,,201,201,14,18,7,12,0.4,0.6
2024-07-12T1900,2865A,112.7195,37.6828,晋中市,榆次三中,,,110,50,17,21,188,,201,201,,18,7,12,0.5,0.8
2024-07-12T1900,2439A,112.2014,31.0481,荆门市,竹园小学,,37,37,36,23,24,106,,104,104,13,11,8,9,0.7,0.7
2024-07-12T1900,2440A,112.1969,30.9891,荆门市,掇刀,,42,42,37,26,30,115,,118,118,15,12,9,7,0.7,0.8
2024-07-12T1900,2441A,112.2213,31.0386,荆门市,石化一小,,39,36,44,27,27,114,,112,112,9,12,20,12,0.7,0.6
2024-07-12T1900,3012A,112.1849,31.0362,荆门市,西山林语,,36,35,34,24,30,113,,108,108,8,6,7,7,0.7,0.9
2024-07-12T1900,3547A,112.1632,31.0138,荆门市,龙泉中学南校,,36,21,28,20,20,114,,107,107,10,11,7,8,0.7,0.8
2024-07-12T1900,1844A,112.2494,30.3197,荆州市,市图书馆,细颗粒物(PM2.5),64,,33,46,27,117,,109,109,10,13,6,6,0.9,0.8
2024-07-12T1900,1845A,112.2008,30.3544,荆州市,市委党校,细颗粒物(PM2.5),69,51,41,50,28,108,,106,106,8,12,5,6,0.8,0.8
2024-07-12T1900,3194A,112.2747,30.3122,荆州市,管委会,细颗粒物(PM2.5),55,47,35,39,24,120,,108,108,8,12,4,4,0.7,0.6
2024-07-12T1900,3548A,112.1655,30.3364,荆州市,学苑路,细颗粒物(PM2.5),58,51,36,41,32,104,,103,103,9,13,7,7,0.8,0.7
2024-07-12T1900,2343A,117.2117,29.2933,景德镇市,老干部活动中心,,39,30,19,27,11,60,,88,86,18,11,8,9,0.3,0.3
2024-07-12T1900,2344A,117.1894,29.2789,景德镇市,兽医站,,39,39,21,12,12,70,,93,90,12,8,7,9,0.6,0.4
2024-07-12T1900,2345A,117.1547,29.2617,景德镇市,台达陶瓷,,29,29,23,16,13,54,,71,69,18,12,39,16,0.3,0.3
2024-07-12T1900,2346A,117.2461,29.2956,景德镇市,陶研所,,28,28,19,14,8,50,,83,78,8,7,5,7,0.4,0.3
2024-07-12T1900,1803A,115.9872,29.6815,九江市,十里,,34,34,30,19,17,80,,93,91,12,20,10,18,0.5,0.6
2024-07-12T1900,1804A,115.9584,29.7046,九江市,茅山头,,30,30,27,19,15,85,,110,106,14,22,10,11,0.4,0.5
2024-07-12T1900,1805A,115.9877,29.7295,九江市,西园,,28,28,22,18,13,69,,93,91,20,30,10,11,0.7,0.8
2024-07-12T1900,1806A,116.0172,29.6547,九江市,五七二七厂,,23,22,19,14,14,73,,80,79,15,14,9,10,0.2,0.3
2024-07-12T1900,1808A,115.9114,29.6038,九江市,综合工业园,,36,36,28,10,17,78,,105,101,28,27,5,8,0.7,0.9
2024-07-12T1900,1809A,116.0721,29.7535,九江市,石化总厂,,32,32,28,13,17,75,,112,111,16,17,9,12,0.6,0.7
2024-07-12T1900,1810A,115.9773,29.5698,九江市,庐山气象台,,35,,25,24,15,103,,86,82,5,2,6,9,0.9,0.9
2024-07-12T1900,3190A,116.0254,29.6994,九江市,外国语学校,,28,27,26,19,18,75,,113,108,21,20,14,18,0.5,0.6
2024-07-12T1900,2658A,98.5061,39.7443,酒泉市,仓门街子站,,44,44,55,18,21,126,,132,132,6,14,6,17,0.3,0.3
2024-07-12T1900,2659A,98.4989,39.7256,酒泉市,油田生活基地,,41,41,54,17,20,126,,138,138,11,16,6,14,0.2,0.2
2024-07-12T1900,2698A,76.0072,39.4467,喀什地区,巡警大队,颗粒物(PM10),70,90,113,14,23,161,,150,150,7,13,3,3,0.1,0.2
2024-07-12T1900,2699A,75.9755,39.4694,喀什地区,吾办,颗粒物(PM10),70,90,114,26,31,156,,145,145,13,14,2,2,0.2,0.2
2024-07-12T1900,4027A,75.9483,39.4689,喀什地区,老干局,颗粒物(PM10),66,82,128,12,20,167,,149,149,7,15,3,2,0.1,0.2
2024-07-12T1900,1824A,114.3389,34.7781,开封市,肿瘤医院,,30,11,33,3,17,95,,110,109,4,5,3,3,0.5,0.6
2024-07-12T1900,1826A,114.2885,34.7965,开封市,世纪星幼儿园,,31,20,32,3,11,98,,118,117,3,4,3,2,0.5,0.5
2024-07-12T1900,3147A,114.3438,34.8106,开封市,龙亭公园,,32,23,31,11,17,100,,113,112,5,7,2,2,0.4,0.5
2024-07-12T1900,3473A,114.2485,34.8306,开封市,技师学院,,32,17,35,8,18,100,,121,120,4,5,4,4,0.7,0.8
2024-07-12T1900,3592A,114.4644,34.7556,开封市,祥符区生态环境局,,29,17,29,9,17,92,,102,101,15,12,2,2,0.6,0.6
2024-07-12T1900,1951A,84.895,45.6094,克拉玛依市,长征新村,,39,21,16,9,5,122,,109,109,8,5,9,9,0.2,0.1
2024-07-12T1900,1952A,84.8988,45.5893,克拉玛依市,南林小区,,38,20,16,7,9,119,,109,109,10,8,7,6,0.2,0.2
2024-07-12T1900,1954A,84.905,44.3396,克拉玛依市,独山子区,,40,16,25,6,7,126,,132,132,6,12,5,9,0.4,0.4
2024-07-12T1900,1955A,85.6979,46.098,克拉玛依市,乌尔禾区商贸楼,,39,17,14,3,7,122,,104,104,2,4,6,4,0.2,0.4
2024-07-12T1900,3612A,85.1045,45.6899,克拉玛依市,白碱滩区新站,,41,14,18,11,13,131,,115,115,8,4,6,6,0.1,0.1
2024-07-12T1900,2697A,76.1454,39.7142,克孜勒苏柯尔克孜自治州,市人民政府,颗粒物(PM10),67,84,79,39,34,168,,156,156,5,9,8,8,0.4,0.4
2024-07-12T1900,3665A,76.1658,39.7157,克孜勒苏柯尔克孜自治州,克州文化中心,颗粒物(PM10),63,75,62,29,24,165,,150,150,4,6,12,11,0.4,0.4
2024-07-12T1900,1450A,102.8204,24.8886,昆明市,呈贡新区,,22,22,17,8,7,51,,57,57,6,9,4,7,0.5,0.6
2024-07-12T1900,1452A,102.7252,25.0902,昆明市,龙泉镇,,21,21,12,8,7,43,,54,54,9,18,6,6,0.5,0.5
2024-07-12T1900,1453A,102.7266,25.0375,昆明市,东风东路,,11,10,13,3,13,34,,47,47,13,14,3,2,0.3,0.4
2024-07-12T1900,1454A,102.6742,25.0669,昆明市,金鼎山,,26,26,17,3,5,41,,54,54,10,12,10,11,0.4,0.4
2024-07-12T1900,1455A,102.6644,25.0401,昆明市,碧鸡广场,,12,12,13,3,6,37,,52,52,13,13,2,3,0.4,0.4
2024-07-12T1900,3179A,102.7494,25.0119,昆明市,官渡区博物馆,,14,9,11,3,4,44,,54,54,9,8,5,6,0.4,0.4
2024-07-12T1900,3375A,102.8017,24.8336,昆明市,青年创业园,,15,6,11,3,6,47,,53,53,4,7,7,8,0.5,0.5
2024-07-12T1900,3550A,102.7997,24.9786,昆明市,昆明学院,,15,6,12,3,6,46,,56,56,8,8,3,4,0.4,0.4
2024-07-12T1900,3551A,102.5967,24.6736,昆明市,晋宁区生态环境分局,,14,12,13,3,5,43,,46,46,15,15,6,6,0.4,0.4
2024-07-12T1900,3552A,102.6678,24.9856,昆明市,云天化总部,,12,8,12,3,7,38,,47,47,6,8,1,2,0.5,0.5
2024-07-12T1900,1456A,91.1319,29.6514,拉萨市,八廓街,,,,9,6,6,72,,76,76,,13,6,6,0.2,0.3
2024-07-12T1900,1457A,91.1221,29.6747,拉萨市,市环保局,,23,7,9,3,6,72,,73,73,10,13,8,9,0.3,0.2
2024-07-12T1900,1458A,91.0874,29.6475,拉萨市,区监测站,,23,8,8,7,6,72,,72,72,8,12,7,7,0.4,0.3
2024-07-12T1900,1459A,91.1774,29.6541,拉萨市,西藏大学,,23,13,7,3,5,71,,75,75,7,7,9,8,0.2,0.1
2024-07-12T1900,1460A,90.9798,29.6588,拉萨市,区辐射站,,23,8,9,3,6,71,,68,68,8,10,7,7,0.2,0.2
2024-07-12T1900,1461A,91.0834,29.6292,拉萨市,拉萨火车站,,21,10,8,3,5,67,,70,70,10,10,9,8,0.2,0.2
2024-07-12T1900,2520A,109.2203,23.7256,来宾市,来宾技工学校,,25,24,27,17,15,78,,88,88,6,6,6,7,0.7,0.6
2024-07-12T1900,3535A,109.1781,23.7297,来宾市,兴宾区政府,,26,19,23,13,14,83,,88,88,5,9,5,5,0.7,0.8
2024-07-12T1900,4002A,109.2416,23.7461,来宾市,中南小学,,26,22,28,18,14,78,,88,88,7,8,7,9,0.6,0.7
2024-07-12T1900,1476A,103.631,36.1031,兰州市,兰炼宾馆,颗粒物(PM10),57,64,84,32,37,128,,114,114,23,21,10,18,0.4,0.4
2024-07-12T1900,1478A,103.8412,36.0726,兰州市,生物制品所,颗粒物(PM10),59,67,90,31,39,104,,113,113,20,26,10,13,0.4,0.5
2024-07-12T1900,1479A,103.831,36.0464,兰州市,铁路设计院,颗粒物(PM10),68,85,93,32,36,111,,106,106,26,40,6,10,0.5,0.6
2024-07-12T1900,3186A,103.7158,36.1058,兰州市,教育港,颗粒物(PM10),65,79,98,32,37,116,,132,132,22,27,10,16,0.4,0.5
2024-07-12T1900,3241A,103.7439,36.0842,兰州市,百合公园,,50,50,83,35,36,108,,112,112,26,30,5,8,0.5,0.6
2024-07-12T1900,3242A,103.9611,35.998,兰州市,和平,颗粒物(PM10),61,72,104,36,40,66,,80,69,22,16,7,7,0.5,0.4
2024-07-12T1900,3245A,103.6633,36.533,兰州新区,新区管委会,颗粒物(PM10),60,70,69,32,30,116,,138,137,17,15,11,16,0.5,0.5
2024-07-12T1900,3246A,103.6975,36.4789,兰州新区,舟曲中学,颗粒物(PM10),68,86,119,38,44,111,,127,126,18,12,7,14,0.5,0.4
2024-07-12T1900,1067A,116.6708,39.5111,廊坊市,药材公司,,35,26,83,7,46,112,,152,147,22,19,3,3,0.5,0.6
2024-07-12T1900,1068A,116.7214,39.5589,廊坊市,开发区,,28,24,83,16,50,87,,156,145,15,19,3,2,0.4,0.5
2024-07-12T1900,1070A,116.7244,39.5269,廊坊市,北华航天学院,,32,32,95,10,46,94,,150,143,20,19,3,3,0.5,0.6
2024-07-12T1900,2919A,116.7022,39.5453,廊坊市,河北工业大学,,37,37,90,11,46,107,,151,146,17,17,3,2,0.4,0.5
2024-07-12T1900,2535A,103.7723,29.5462,乐山市,花湖湾,,30,,16,8,14,94,,102,102,9,14,3,4,0.3,0.5
2024-07-12T1900,2536A,103.7627,29.5844,乐山市,牛耳桥,,30,14,25,8,16,94,,112,112,13,21,2,3,0.5,0.6
2024-07-12T1900,2537A,103.7508,29.6006,乐山市,市第三水厂,,32,20,27,9,17,100,,115,115,10,21,2,4,0.4,0.6
2024-07-12T1900,2538A,103.7571,29.5664,乐山市,市监测站,,32,16,27,10,15,101,,118,118,8,16,3,6,0.3,0.6
2024-07-12T1900,3361A,103.7311,29.5628,乐山市,理工大学,,35,17,22,9,14,110,,127,127,5,13,4,7,0.4,0.6
2024-07-12T1900,2599A,100.2497,26.8802,丽江市,丽江古城,,,19,14,16,11,27,,34,34,,11,7,6,0.9,0.8
2024-07-12T1900,2600A,100.2203,26.8906,丽江市,市中心,,14,14,7,9,8,23,,34,34,8,7,11,10,0.5,0.4
2024-07-12T1900,1267A,119.914,28.4514,丽水市,监测站大楼,,26,15,26,10,10,83,,96,92,6,16,2,3,0.5,0.5
2024-07-12T1900,1268A,119.93,28.4586,丽水市,莲都小学,,28,25,30,6,13,88,,103,98,8,17,3,3,0.5,0.5
2024-07-12T1900,1269A,119.879,28.4231,丽水市,余庄前,,23,22,23,13,13,71,,81,80,7,10,2,2,0.5,0.6
2024-07-12T1900,1173A,119.176,34.5885,连云港市,市环境监测站,细颗粒物(PM2.5),83,66,71,61,68,171,,171,171,14,12,5,5,0.7,0.7
2024-07-12T1900,3000A,119.3581,34.6972,连云港市,德源药业,臭氧1小时,63,48,74,44,61,170,,173,173,10,18,2,2,0.6,0.8
2024-07-12T1900,3007A,119.178,34.844,连云港市,新城一中,臭氧1小时,69,68,83,38,49,175,,194,194,20,14,4,4,0.8,0.9
2024-07-12T1900,3008A,119.3608,34.7519,连云港市,胡沟管理处,细颗粒物(PM2.5),62,61,74,44,61,163,,158,158,16,18,7,5,0.7,0.8
2024-07-12T1900,3009A,119.1478,34.5911,连云港市,矿山设计院,细颗粒物(PM2.5),77,66,74,56,62,165,,159,159,11,8,4,3,0.6,0.6
2024-07-12T1900,3434A,119.2413,34.6539,连云港市,工贸学校,臭氧1小时,74,45,60,37,49,179,,178,178,13,9,6,6,0.8,1
2024-07-12T1900,3664A,119.4172,34.7341,连云港市,连云街道,臭氧1小时,97,53,70,34,48,197,,190,190,5,20,5,6,0.5,0.7
2024-07-12T1900,2571A,102.3431,27.8099,凉山彝族自治州,青龙寺,,25,10,12,3,5,78,,90,90,3,3,5,4,0.7,0.5
2024-07-12T1900,2572A,102.2721,27.8415,凉山彝族自治州,邛海宾馆,,35,17,13,14,7,109,,100,100,11,9,13,12,0.9,0.7
2024-07-12T1900,2573A,102.2625,27.898,凉山彝族自治州,西昌市政府,,34,15,14,7,9,106,,97,97,6,11,10,11,0.8,0.7
2024-07-12T1900,2574A,102.2685,27.8851,凉山彝族自治州,凉山州政府,,34,24,18,11,9,108,,98,98,7,10,9,11,0.9,0.7
2024-07-12T1900,2575A,102.237,27.8914,凉山彝族自治州,长安,,34,17,14,11,9,108,,103,103,10,12,11,14,0.9,0.7
2024-07-12T1900,2212A,123.2,41.1953,辽阳市,宏伟区,颗粒物(PM10),56,62,76,36,41,160,,201,201,26,21,11,10,1.1,1.2
2024-07-12T1900,2213A,123.1683,41.2495,辽阳市,新华园,颗粒物(PM10),67,83,78,45,46,168,,211,210,21,27,10,13,1.1,1.4
2024-07-12T1900,2214A,123.2354,41.2639,辽阳市,滨河路,臭氧1小时,80,65,71,41,43,184,,204,204,14,23,8,8,1.0,1.2
2024-07-12T1900,2215A,123.149,41.2991,辽阳市,铁西工业园,颗粒物(PM10),66,82,89,40,44,165,,174,174,17,31,9,10,1.0,1.5
2024-07-12T1900,2227A,125.1358,42.8845,辽源市,环保局,细颗粒物(PM2.5),58,52,56,41,42,154,,166,165,9,21,7,8,0.9,0.9
2024-07-12T1900,3239A,125.0764,42.9078,辽源市,银鹰制药,细颗粒物(PM2.5),57,47,57,40,42,145,,162,161,9,25,11,6,1.1,1
2024-07-12T1900,1625A,115.9848,36.4372,聊城市,区政府,臭氧1小时,67,59,63,42,39,173,,172,172,15,14,9,9,0.6,0.6
2024-07-12T1900,2878A,116.0072,36.4343,聊城市,聊大东校,臭氧1小时,80,50,51,40,44,184,,180,180,12,13,6,8,0.6,0.6
2024-07-12T1900,3200A,115.9819,36.4978,聊城市,监控中心,臭氧1小时,77,61,59,36,39,181,,172,172,14,8,9,9,0.6,0.6
2024-07-12T1900,3513A,116.0445,36.4361,聊城市,九州社区,臭氧1小时,59,58,69,34,42,167,,164,164,17,15,8,12,0.6,0.6
2024-07-12T1900,4018A,116.0567,36.4608,聊城市,星美广场,臭氧1小时,60,62,71,39,40,168,,167,167,23,15,8,8,0.5,0.8
2024-07-12T1900,2632A,94.3681,29.6376,林芝市,林芝监测站,,16,6,6,3,4,50,,49,49,2,3,7,8,0.4,0.4
2024-07-12T1900,2633A,94.3616,29.6616,林芝市,林芝人民医院,,,15,7,3,4,50,,49,49,,6,,9,0.1,0.1
2024-07-12T1900,2603A,100.0781,23.8982,临沧市,市环保局,,22,,14,15,15,31,,35,35,8,10,4,4,0.2,0.2
2024-07-12T1900,2604A,100.0894,23.8822,临沧市,市气象局,,19,19,16,3,6,31,,36,36,8,10,4,4,0.3,0.3
2024-07-12T1900,1733A,111.5531,36.0783,临汾市,临钢医院,臭氧1小时,101,92,52,25,22,201,,198,198,13,15,5,6,0.8,0.7
2024-07-12T1900,1734A,111.5028,36.0714,临汾市,技工学校,臭氧1小时,102,64,46,27,23,204,,209,209,15,17,6,6,0.9,0.8
2024-07-12T1900,1736A,111.5018,36.0855,临汾市,市委,臭氧1小时,108,79,62,26,24,216,,222,222,11,12,6,6,1.2,1.2
2024-07-12T1900,3018A,111.505,36.1014,临汾市,唐尧大酒店,臭氧1小时,101,84,68,25,24,201,,206,206,,11,6,6,0.8,0.8
2024-07-12T1900,3668A,111.5036,36.0414,临汾市,城南,臭氧1小时,103,65,50,33,22,205,,214,214,9,13,7,6,1.0,0.9
2024-07-12T1900,2667A,103.2069,35.5993,临夏回族自治州,环保局,颗粒物(PM10),59,67,51,34,28,94,,104,104,7,9,8,7,0.4,0.4
2024-07-12T1900,2668A,103.2417,35.6057,临夏回族自治州,建设大厦,颗粒物(PM10),63,76,44,37,24,92,,106,105,10,8,12,11,0.3,0.3
2024-07-12T1900,1618A,118.3429,35.0532,临沂市,沂河小区,臭氧1小时,72,68,81,48,57,177,,185,185,17,21,9,13,0.6,0.7
2024-07-12T1900,1619A,118.295,35.0583,临沂市,鲁南制药厂,臭氧1小时,80,68,84,39,52,184,,192,192,8,15,8,12,0.8,0.8
2024-07-12T1900,1620A,118.2794,34.9976,临沂市,新光毛纺厂,臭氧1小时,70,58,77,39,52,176,,184,184,7,15,4,10,0.8,0.9
2024-07-12T1900,1621A,118.3956,35.0888,临沂市,河东保险公司,细颗粒物(PM2.5),70,58,81,51,64,170,,182,182,8,13,4,8,0.6,0.8
2024-07-12T1900,3370A,118.3564,35.0215,临沂市,十里堡居委,臭氧1小时,68,56,74,48,62,174,,182,182,14,21,10,12,0.8,0.9
2024-07-12T1900,3496A,118.3604,35.1084,临沂市,南坊新区,臭氧1小时,75,66,78,53,58,180,,195,194,17,19,6,10,0.9,1
2024-07-12T1900,3860A,118.3920,35.0300,临沂市,皇山花园小区,细颗粒物(PM2.5),68,66,83,49,60,169,,177,177,14,24,8,12,0.9,1
2024-07-12T1900,1870A,109.4856,24.3895,柳州市,柳东小学,,28,19,28,14,15,88,,87,87,7,13,7,9,0.5,0.6
2024-07-12T1900,1871A,109.4157,24.3277,柳州市,环保监测站,,,35,28,29,17,95,,86,86,10,8,,7,0.6,0.6
2024-07-12T1900,1872A,109.389,24.341,柳州市,河西水厂,,30,17,27,10,16,96,,87,87,7,7,7,7,0.4,0.4
2024-07-12T1900,1873A,109.4311,24.2921,柳州市,市四中,,31,29,27,13,14,99,,93,93,8,10,5,6,0.4,0.4
2024-07-12T1900,1874A,109.4006,24.3631,柳州市,市九中,,42,42,34,10,17,96,,89,89,10,10,5,5,0.5,0.5
2024-07-12T1900,1875A,109.4958,24.3134,柳州市,古亭山,,,36,30,17,17,89,,88,88,8,12,,7,0.4,0.5
2024-07-12T1900,3402A,109.5422,24.3996,柳州市,市二中,,29,21,27,8,14,92,,85,85,8,11,7,9,0.5,0.5
2024-07-12T1900,2307A,116.5079,31.737,六安市,监测大楼,,12,,13,8,20,34,,74,39,11,6,5,4,0.6,0.8
2024-07-12T1900,2308A,116.4738,31.7643,六安市,皖西学院,,,,19,,18,44,,68,40,,8,3,4,0.4,0.6
2024-07-12T1900,2309A,116.4996,31.7905,六安市,朝阳厂,,15,6,15,3,15,45,,68,38,4,7,7,8,0.4,0.7
2024-07-12T1900,2310A,116.5567,31.7886,六安市,开发区,,15,,12,10,16,42,,67,37,7,7,5,4,0.5,0.7
2024-07-12T1900,2577A,104.83,26.5917,六盘水市,黄土坡,,25,25,13,6,10,68,,70,70,9,8,4,5,0.1,0.3
2024-07-12T1900,2578A,104.89,26.5939,六盘水市,水钢,,24,17,19,3,8,76,,74,74,4,4,11,9,0.2,0.2
2024-07-12T1900,2579A,104.8475,26.5894,六盘水市,民中,,22,18,14,12,6,70,,71,71,8,7,6,6,0.3,0.2
2024-07-12T1900,2580A,104.9544,26.5506,六盘水市,双水,,23,12,13,7,9,73,,72,72,7,4,6,6,0.2,0.2
2024-07-12T1900,2336A,117.0217,25.1033,龙岩市,龙岩市监测站,,13,,10,9,8,33,,51,49,14,9,9,6,0.5,0.3
2024-07-12T1900,2337A,117.0258,25.0661,龙岩市,闽西职业技术学院,,20,20,14,6,5,42,,54,53,7,6,4,8,0.4,0.3
2024-07-12T1900,2338A,117.0196,25.0306,龙岩市,龙岩学院,,16,16,9,8,4,49,,54,54,4,3,4,5,0.3,0.2
2024-07-12T1900,2885A,104.9339,33.3826,陇南市,滨江中学,,38,38,33,16,10,85,,105,105,6,11,2,4,0.3,0.4
2024-07-12T1900,3247A,104.955,33.371,陇南市,市总工会,,29,26,29,10,10,90,,107,107,3,8,3,3,0.4,0.4
2024-07-12T1900,2487A,111.9589,27.8901,娄底市,电视发射台,,32,32,27,19,15,71,,87,86,5,6,7,6,0.8,0.8
2024-07-12T1900,2488A,111.9975,27.725,娄底市,市监测站,,25,24,28,12,20,79,,86,86,6,7,7,9,0.5,0.5
2024-07-12T1900,2489A,112.0194,27.7314,娄底市,市委党校,,23,,30,15,19,72,,79,79,9,11,8,9,0.6,0.6
2024-07-12T1900,2490A,111.9561,27.7569,娄底市,涟钢,,39,39,62,19,27,60,,64,64,19,23,16,19,0.6,0.7
2024-07-12T1900,2491A,111.9892,27.7044,娄底市,市政府,,25,12,28,8,18,79,,86,86,5,9,6,11,0.2,0.4
2024-07-12T1900,1893A,105.4324,28.9634,泸州市,九狮山,,30,14,18,8,11,93,,94,94,9,16,5,5,0.5,0.5
2024-07-12T1900,1894A,105.4427,28.9063,泸州市,小市上码头,,34,18,22,3,7,107,,108,108,8,16,3,4,0.2,0.3
2024-07-12T1900,1895A,105.4241,28.8573,泸州市,兰田宪桥,,35,15,21,11,15,109,,114,114,11,17,6,6,0.3,0.4
2024-07-12T1900,1896A,105.4379,28.8833,泸州市,市环监站,,33,15,18,7,9,105,,104,104,5,16,6,7,0.5,0.5
2024-07-12T1900,3490A,105.3617,28.7703,泸州市,纳溪区环保局,,35,13,22,3,5,112,,133,133,12,17,2,3,0.4,0.5
2024-07-12T1900,2183A,111.1406,37.5211,吕梁市,环保局,臭氧1小时,52,40,39,12,20,161,,168,168,8,19,1,3,0.5,0.6
2024-07-12T1900,2185A,111.1297,37.5136,吕梁市,自来水公司,,42,40,41,18,20,132,,159,157,27,22,3,4,0.5,0.5
2024-07-12T1900,2867A,111.1283,37.51,吕梁市,马茂庄小学,臭氧1小时,64,32,41,12,20,171,,175,175,8,22,3,3,0.3,0.5
2024-07-12T1900,1812A,112.3931,34.6516,洛阳市,市委党校,臭氧1小时,78,61,37,49,28,182,,173,173,10,9,4,4,0.8,0.7
2024-07-12T1900,1814A,112.4657,34.6871,洛阳市,豫西宾馆,臭氧1小时,84,70,45,41,27,187,,174,174,12,11,3,3,0.6,0.6
2024-07-12T1900,1815A,112.494,34.6886,洛阳市,河南林校,臭氧1小时,74,54,31,44,24,179,,168,168,9,9,3,2,0.6,0.6
2024-07-12T1900,1816A,112.3844,34.623,洛阳市,开发区管委会,细颗粒物(PM2.5),64,61,36,46,25,166,,170,170,10,8,12,10,0.6,0.5
2024-07-12T1900,1817A,112.4267,34.6258,洛阳市,市委新办公区,细颗粒物(PM2.5),73,54,32,53,31,175,,174,174,10,6,10,8,0.8,0.6
2024-07-12T1900,3340A,112.6005,34.6326,洛阳市,伊滨,臭氧1小时,80,72,45,45,30,184,,173,173,12,12,4,5,0.6,0.6
2024-07-12T1900,3341A,112.4951,34.6332,洛阳市,中移产业园,"细颗粒物(PM2.5),臭氧1小时",64,61,38,46,29,171,,168,168,9,6,6,7,0.9,0.7
2024-07-12T1900,3593A,112.5736,34.8993,洛阳市,吉利监测站,"颗粒物(PM10),细颗粒物(PM2.5)",57,63,48,40,31,161,,166,166,3,8,2,2,0.8,0.8
2024-07-12T1900,3635A,112.3677,34.662,洛阳市,河科大西苑校区,臭氧1小时,84,80,36,42,20,187,,172,172,2,2,6,7,0.8,0.7
2024-07-12T1900,3636A,112.4388,34.6781,洛阳市,英才小学,臭氧1小时,67,,28,43,27,173,,167,167,2,4,2,4,0.7,0.7
2024-07-12T1900,2399A,114.051,33.5699,漯河市,三五一五工厂,,42,20,25,19,22,133,,126,126,6,10,6,6,0.7,0.7
2024-07-12T1900,2400A,114.0055,33.5698,漯河市,漯河大学,,42,25,28,14,21,133,,132,132,8,7,8,7,0.8,0.7
2024-07-12T1900,2401A,114.0138,33.5828,漯河市,市水利局,,41,29,27,9,20,129,,126,126,3,4,7,7,0.6,0.6
2024-07-12T1900,2402A,114.0261,33.5698,漯河市,市广电局,,42,22,23,14,21,132,,128,128,3,5,4,3,0.6,0.7
2024-07-12T1900,3478A,113.9749,33.5664,漯河市,市图书馆,,41,30,29,20,23,129,,132,132,4,5,5,7,0.5,0.5
2024-07-12T1900,3479A,114.0967,33.5906,漯河市,召陵区卫健委,,41,35,30,18,21,130,,127,127,5,7,4,4,0.7,0.7
2024-07-12T1900,1798A,118.5092,31.6837,马鞍山市,湖东路四小,,24,18,19,3,12,76,,73,73,10,12,7,7,0.7,0.9
2024-07-12T1900,1799A,118.5024,31.6449,马鞍山市,开发区,,24,10,21,3,13,76,,68,68,10,18,8,9,0.7,0.8
2024-07-12T1900,1800A,118.5228,31.7231,马鞍山市,慈湖,,25,16,24,6,12,80,,75,75,14,17,3,3,1.0,0.9
2024-07-12T1900,1802A,118.6245,31.7241,马鞍山市,濮塘,,18,6,10,3,11,56,,64,64,4,6,3,3,0.7,0.9
2024-07-12T1900,3633A,118.4918,31.6809,马鞍山市,雨山,,25,17,26,3,9,78,,69,69,6,12,6,6,1.0,1.2
2024-07-12T1900,1686A,111.0286,21.4688,茂名市,电白南海,,20,19,16,9,9,61,,63,62,5,3,5,5,0.5,0.5
2024-07-12T1900,1687A,110.9294,21.6533,茂名市,茂石化七小,,22,22,16,14,13,58,,67,66,4,3,8,8,0.6,0.6
2024-07-12T1900,1688A,110.9107,21.6687,茂名市,健康路,,24,24,14,7,4,65,,72,72,3,2,8,9,0.4,0.4
2024-07-12T1900,1689A,110.8592,21.6828,茂名市,高岭,,31,31,15,12,12,62,,64,64,10,7,10,9,0.6,0.5
2024-07-12T1900,3450A,111.01,21.5165,茂名市,电白水东,,18,9,9,7,7,57,,58,56,8,6,3,3,0.4,0.4
2024-07-12T1900,2539A,104.0308,30.0478,眉山市,黑龙滩水库,,34,21,27,21,18,107,,104,104,4,4,7,7,0.6,0.6
2024-07-12T1900,2540A,103.8416,30.0874,眉山市,气象局,,36,18,18,9,12,113,,122,122,5,17,6,6,0.4,0.5
2024-07-12T1900,3137A,103.8578,30.0744,眉山市,市委党校,,35,14,21,3,6,111,,121,121,5,15,5,6,0.6,0.5
2024-07-12T1900,1690A,116.1231,24.3284,梅州市,梅江月梅,,13,9,13,3,5,39,,56,54,4,5,8,10,0.4,0.4
2024-07-12T1900,1691A,116.0797,24.2719,梅州市,梅县新城,,13,,11,3,7,39,,54,52,6,8,3,4,0.4,0.4
2024-07-12T1900,1692A,116.1248,24.2654,梅州市,环境监控中心,,13,9,12,9,5,33,,51,49,11,11,4,4,0.4,0.3
2024-07-12T1900,3315A,116.1233,24.2991,梅州市,梅龙,,18,12,9,12,5,36,,56,54,9,7,8,13,0.6,0.5
2024-07-12T1900,1878A,104.7778,31.4741,绵阳市,富乐山,,46,34,34,24,21,146,,171,171,8,12,8,8,0.6,0.6
2024-07-12T1900,1879A,104.7563,31.4535,绵阳市,市人大,臭氧1小时,73,41,42,26,23,178,,178,178,10,24,3,3,0.5,0.6
2024-07-12T1900,1880A,104.6697,31.4668,绵阳市,高新区自来水公司,,46,29,46,14,20,147,,162,162,10,29,6,6,0.6,0.7
2024-07-12T1900,1881A,104.7287,31.5075,绵阳市,三水厂,,38,36,56,26,30,120,,164,164,30,27,6,6,0.6,0.7
2024-07-12T1900,3491A,104.69,31.5322,绵阳市,西科大附属小学,,36,26,42,16,22,114,,135,135,10,27,5,5,0.5,0.6
2024-07-12T1900,3492A,104.5648,31.5343,绵阳市,安州区旅游局,,,,33,24,23,160,,160,160,9,17,5,7,,0.5
2024-07-12T1900,1784A,129.61,44.561,牡丹江市,环保大楼,细颗粒物(PM2.5),54,51,69,38,52,82,,117,113,14,13,9,7,0.5,0.6
2024-07-12T1900,1785A,129.6115,44.5782,牡丹江市,文化广场,细颗粒物(PM2.5),75,92,72,55,61,72,,106,103,22,16,9,8,0.7,0.7
2024-07-12T1900,1786A,129.5904,44.5963,牡丹江市,第一医院,细颗粒物(PM2.5),57,61,62,40,53,77,,106,104,17,13,5,5,0.6,0.6
2024-07-12T1900,1788A,129.6386,44.5462,牡丹江市,第一中学,颗粒物(PM10),78,106,78,41,38,71,,114,110,22,16,5,4,0.5,0.6
2024-07-12T1900,2531A,105.0703,29.61,内江市,市监测站,,25,18,13,15,18,77,,96,92,21,18,6,7,0.4,0.4
2024-07-12T1900,2532A,105.0717,29.5947,内江市,东兴区政府,,28,18,22,9,8,87,,99,94,8,13,9,9,0.5,0.5
2024-07-12T1900,2533A,105.0653,29.5817,内江市,内江二中,,29,9,18,7,9,91,,102,99,7,16,9,9,0.6,0.7
2024-07-12T1900,2534A,105.0406,29.5822,内江市,内江日报社,,28,21,20,11,16,89,,108,103,15,16,9,9,0.6,0.8
2024-07-12T1900,2628A,92.0657,31.4846,那曲市,那曲监测站,,,,31,6,9,55,,56,56,5,6,3,5,0.2,0.3
2024-07-12T1900,3128A,92.0506,31.4797,那曲市,那曲会议中心,,39,39,21,9,7,59,,61,61,7,7,3,4,0.4,0.4
2024-07-12T1900,1290A,115.8931,28.6843,南昌市,省外办,,38,38,42,22,24,104,,117,116,11,22,8,8,0.4,0.5
2024-07-12T1900,1291A,115.8886,28.7003,南昌市,省林业公司,,35,34,36,24,19,102,,123,123,18,31,7,8,0.5,0.6
2024-07-12T1900,1292A,115.8126,28.7442,南昌市,林科所,,34,34,26,12,14,104,,126,126,17,27,7,10,0.5,0.5
2024-07-12T1900,1294A,115.8518,28.687,南昌市,建工学校,,34,30,33,16,12,106,,123,123,12,25,7,10,0.4,0.5
2024-07-12T1900,1295A,115.8921,28.6424,南昌市,象湖,,32,22,33,20,18,102,,132,131,19,24,6,6,0.6,0.7
2024-07-12T1900,1296A,115.7423,28.7996,南昌市,武术学校,,31,31,18,13,17,83,,108,108,7,6,9,10,0.5,0.5
2024-07-12T1900,1298A,115.9314,28.6842,南昌市,省站,,33,24,34,21,23,103,,119,119,20,21,5,8,0.5,0.7
2024-07-12T1900,3046A,115.9084,28.6062,南昌市,机电学校,,44,44,42,17,18,93,,119,116,18,24,9,10,0.7,0.8
2024-07-12T1900,3690A,115.9721,28.7031,南昌市,外国语学校,,40,40,35,20,16,102,,121,121,16,14,4,5,0.5,0.5
2024-07-12T1900,1905A,106.056,30.8064,南充市,西山风景区,,38,27,25,13,14,120,,120,120,5,8,5,5,0.6,0.7
2024-07-12T1900,1906A,106.0789,30.8023,南充市,南充市委,,43,30,29,15,15,135,,143,143,8,14,6,6,0.2,0.3
2024-07-12T1900,1907A,106.1031,30.8217,南充市,南充炼油厂,,43,26,27,13,14,135,,140,140,7,11,4,4,0.2,0.3
2024-07-12T1900,1908A,106.1064,30.7856,南充市,高坪区监测站,,38,19,26,13,10,119,,133,133,15,15,6,6,0.3,0.3
2024-07-12T1900,1909A,106.0642,30.7636,南充市,嘉陵区环保局,,49,21,23,12,12,155,,150,150,13,16,3,3,0.3,0.4
2024-07-12T1900,1910A,106.1087,30.8388,南充市,市环境监测站,,37,28,28,12,13,116,,119,119,12,14,3,3,0.3,0.4
2024-07-12T1900,1151A,118.8086,32.1065,南京市,迈皋桥,,27,12,17,7,15,86,,97,97,18,16,4,4,0.4,0.4
2024-07-12T1900,1152A,118.7538,32.0551,南京市,草场门,,25,17,15,7,12,79,,92,92,16,14,2,2,0.7,0.7
2024-07-12T1900,1153A,118.7794,32.0745,南京市,山西路,,26,17,14,7,13,83,,98,98,14,12,3,4,0.6,0.6
2024-07-12T1900,1154A,118.7752,32.0023,南京市,中华门,,19,12,9,3,8,59,,80,80,18,14,6,6,0.7,0.7
2024-07-12T1900,1155A,118.8109,32.0309,南京市,瑞金路,,23,12,13,12,12,72,,87,87,11,8,4,3,0.6,0.6
2024-07-12T1900,1156A,118.7997,32.0754,南京市,玄武湖,,24,16,19,3,9,76,,87,87,4,8,2,3,0.7,0.7
2024-07-12T1900,1157A,118.6414,32.0931,南京市,浦口,,25,20,20,3,11,80,,93,93,20,13,5,5,0.9,1
2024-07-12T1900,1158A,118.7356,31.9996,南京市,奥体中心,,23,9,12,9,14,71,,87,87,16,18,6,5,0.5,0.6
2024-07-12T1900,1159A,118.9125,32.1028,南京市,仙林大学城,,27,6,16,3,13,86,,98,98,14,14,6,6,0.7,0.8
2024-07-12T1900,3422A,118.8436,31.9198,南京市,江宁彩虹桥,,26,26,16,7,10,60,,82,82,20,10,4,3,0.7,0.8
2024-07-12T1900,3423A,119.0138,31.6494,南京市,溧水永阳,,17,,13,7,12,53,,61,61,10,13,4,4,0.6,0.8
2024-07-12T1900,3424A,118.879,31.3302,南京市,高淳老职中,,19,,10,13,10,60,,72,72,7,10,4,4,0.4,0.7
2024-07-12T1900,3427A,118.8554,32.3578,南京市,六合雄州,,40,13,31,6,28,128,,128,128,2,5,5,5,0.8,0.7
2024-07-12T1900,1401A,108.3103,22.7881,南宁市,二十一中,,29,22,20,13,10,92,,85,85,7,8,3,3,0.6,0.7
2024-07-12T1900,1402A,108.3141,22.8528,南宁市,北湖,,27,24,20,11,12,84,,86,86,9,8,2,3,0.7,0.7
2024-07-12T1900,1403A,108.3206,22.8225,南宁市,市监测站,,28,16,22,10,11,88,,87,87,10,9,4,4,0.5,0.5
2024-07-12T1900,1404A,108.3829,22.8037,南宁市,大自然花园,,32,32,21,11,13,83,,82,82,6,7,5,5,0.7,0.7
2024-07-12T1900,1405A,108.4394,22.7904,南宁市,仙葫,,27,24,19,3,26,85,,83,83,12,12,14,14,0.3,0.3
2024-07-12T1900,1406A,108.2397,22.8467,南宁市,区农职院,,29,28,23,14,10,91,,92,92,11,8,6,7,0.7,0.6
2024-07-12T1900,1407A,108.3275,22.735,南宁市,英华嘉园,,22,14,25,11,10,68,,72,72,17,15,6,6,0.6,0.6
2024-07-12T1900,1408A,108.2257,22.7757,南宁市,沙井镇街道办,,23,23,29,8,10,72,,75,75,6,14,2,3,0.4,0.6
2024-07-12T1900,3401A,108.4834,22.7618,南宁市,红星社区,细颗粒物(PM2.5),58,,25,41,18,78,,85,85,6,8,5,5,0.7,0.8
2024-07-12T1900,2332A,118.1681,26.6369,南平市,南平市监测站,,19,16,16,13,9,50,,83,77,10,14,4,5,0.5,0.5
2024-07-12T1900,2333A,118.1825,26.6489,南平市,南平铝业有限公司,,22,22,20,13,10,48,,75,71,10,13,5,6,0.7,0.7
2024-07-12T1900,2334A,118.1756,26.6272,南平市,南平七中,,19,12,19,3,11,59,,86,83,8,12,5,5,0.6,0.6
2024-07-12T1900,1168A,120.9098,31.9663,南通市,狼山街道,,17,13,10,7,7,52,,85,73,22,6,6,5,0.6,0.6
2024-07-12T1900,1169A,120.86,32.0005,南通市,虹桥,,21,18,16,10,9,66,,84,74,25,14,5,5,0.8,1.3
2024-07-12T1900,1170A,120.87,32.02,南通市,城中,,23,22,14,8,7,73,,89,81,22,14,6,5,0.7,1.1
2024-07-12T1900,1171A,120.94,31.93,南通市,星湖花园,,21,15,6,3,5,44,,78,67,42,18,4,3,0.7,0.7
2024-07-12T1900,1172A,120.81,32.0417,南通市,紫琅学院,,23,11,11,6,4,72,,80,73,24,23,5,5,0.5,0.5
2024-07-12T1900,3291A,121.067,32.062,南通市,通州监测站,,28,14,16,3,8,89,,103,96,6,5,2,2,0.9,0.9
2024-07-12T1900,3432A,120.9348,31.9883,南通市,环境教育馆,,27,27,17,10,9,52,,83,71,37,21,7,6,0.6,0.6
2024-07-12T1900,2404A,112.5224,33.0122,南阳市,瓦房庄,,32,20,25,15,20,102,,115,115,10,11,4,4,0.5,0.6
2024-07-12T1900,2405A,112.5003,32.9735,南阳市,汉画馆,,30,26,28,17,18,94,,117,117,10,13,3,3,0.6,0.7
2024-07-12T1900,2406A,112.5573,33.027,南阳市,气象站,,35,,20,12,17,112,,121,121,7,9,3,2,0.5,0.6
2024-07-12T1900,2407A,112.5481,32.9689,南阳市,理工学院,,30,22,26,10,13,96,,118,118,10,10,2,2,0.4,0.5
2024-07-12T1900,4008A,112.5234,32.9922,南阳市,卧龙区政府,,32,,17,20,23,100,,116,116,9,9,4,3,0.6,0.7
2024-07-12T1900,1234A,121.8358,29.911,宁波市,区环保大楼,,28,28,61,18,28,77,,82,82,25,49,6,9,0.7,0.7
2024-07-12T1900,1235A,121.56,29.82,宁波市,万里学院,,37,37,55,18,38,73,,94,94,26,29,6,6,0.7,0.8
2024-07-12T1900,1236A,121.713,29.9572,宁波市,龙赛医院,,34,34,52,16,25,70,,83,83,31,46,6,10,0.5,0.6
2024-07-12T1900,1239A,121.633,29.7733,宁波市,钱湖水厂,,34,34,46,23,31,60,,93,90,20,21,6,6,0.7,0.7
2024-07-12T1900,1240A,121.5856,29.8635,宁波市,太古小学,,35,35,56,18,31,73,,93,90,28,31,6,7,0.8,0.8
2024-07-12T1900,1241A,121.524,29.8674,宁波市,市环境监测中心,,33,33,50,15,22,65,,119,103,33,31,4,4,0.7,0.7
2024-07-12T1900,2871A,121.6147,29.9017,宁波市,万里国际学校,,31,31,44,21,27,78,,91,89,27,35,5,6,0.5,0.5
2024-07-12T1900,3710A,121.5594,29.8975,宁波市,白沙活动中心,,35,35,49,13,29,75,,108,104,27,31,8,10,0.4,0.5
2024-07-12T1900,2341A,119.5388,26.6612,宁德市,宁德市监测站,,37,37,42,20,21,104,,126,125,16,19,8,8,0.8,0.8
2024-07-12T1900,3209A,119.5231,26.6562,宁德市,宁德一中,颗粒物(PM10),54,57,41,13,18,114,,131,130,12,13,8,7,1.0,0.9
2024-07-12T1900,2618A,98.8601,25.8567,怒江傈僳族自治州,州监测站,,17,17,17,9,10,51,,46,46,8,7,10,10,0.5,0.5
2024-07-12T1900,2619A,98.8546,25.8417,怒江傈僳族自治州,泸水一中,,15,10,13,10,7,41,,41,41,18,11,5,5,0.5,0.5
2024-07-12T1900,1888A,101.6891,26.571,攀枝花市,弄弄坪,,38,38,50,11,18,57,,56,56,19,22,17,18,1.0,1.3
2024-07-12T1900,1889A,101.5769,26.5928,攀枝花市,河门口,,31,31,23,20,13,45,,56,56,27,16,4,6,1.0,0.8
2024-07-12T1900,1890A,101.7169,26.585,攀枝花市,炳草岗,,42,42,41,21,17,67,,57,57,34,25,34,25,3.1,1.5
2024-07-12T1900,1891A,101.7369,26.5008,攀枝花市,仁和,,23,23,28,12,17,67,,68,68,12,17,9,16,0.6,1.1
2024-07-12T1900,2835A,101.7227,26.567,攀枝花市,四十中小,,32,31,24,22,16,71,,67,67,26,19,24,23,2.2,1.4
2024-07-12T1900,1604A,122.0303,41.1489,盘锦市,开发区,臭氧1小时,83,57,55,40,39,186,,185,181,12,17,6,7,0.5,0.5
2024-07-12T1900,1605A,122.0485,41.0883,盘锦市,兴隆台,臭氧1小时,73,48,54,37,36,178,,176,174,12,20,4,6,0.5,0.6
2024-07-12T1900,1606A,121.8297,41.1028,盘锦市,新生街道,臭氧1小时,80,55,50,33,34,184,,189,186,13,14,3,3,0.5,0.6
2024-07-12T1900,1832A,113.3257,33.742,平顶山市,新华旅馆,,42,,33,26,27,133,,138,138,7,12,3,3,0.7,0.7
2024-07-12T1900,1833A,113.2919,33.737,平顶山市,规划设计院,,42,24,23,16,18,133,,142,142,12,13,5,4,0.6,0.7
2024-07-12T1900,1834A,113.182,33.774,平顶山市,平顶山工学院,,44,29,24,17,14,139,,144,144,10,8,5,5,0.8,0.8
2024-07-12T1900,3204A,113.3025,33.73,平顶山市,规划局,,42,,28,24,23,132,,136,136,9,15,2,2,0.6,0.6
2024-07-12T1900,3594A,112.8867,33.9116,平顶山市,石龙区,,49,46,49,24,29,156,,149,149,10,17,8,7,0.4,0.4
2024-07-12T1900,2656A,106.6692,35.5461,平凉市,聚贤嘉苑,,50,50,59,22,20,78,,137,125,26,27,9,9,0.5,0.5
2024-07-12T1900,2657A,106.7021,35.5307,平凉市,博物馆,,38,38,60,13,19,90,,153,136,24,23,9,9,0.6,0.6
2024-07-12T1900,2347A,114.0997,27.5002,萍乡市,武功山,,23,,8,13,4,71,,85,84,5,4,14,12,0.6,0.5
2024-07-12T1900,2348A,113.8385,27.6434,萍乡市,中医院,,33,33,27,17,14,88,,84,84,4,12,5,4,0.6,0.6
2024-07-12T1900,2349A,113.8493,27.6253,萍乡市,市政府车库,,30,30,23,16,17,83,,82,82,2,8,10,11,0.4,0.5
2024-07-12T1900,2350A,113.8676,27.6435,萍乡市,市环保局,,27,27,27,16,16,86,,87,87,2,9,6,8,0.4,0.5
2024-07-12T1900,2351A,113.866,27.6198,萍乡市,安源区政府,,28,12,22,6,11,87,,74,74,3,10,8,11,0.3,0.4
2024-07-12T1900,2319A,119.0141,25.4325,莆田市,荔城区仓后路,,,40,29,15,10,59,,95,93,,11,,8,0.7,0.6
2024-07-12T1900,2320A,119.0015,25.4553,莆田市,莆田市监测站,,30,30,24,9,8,73,,91,91,8,6,7,6,0.8,0.7
2024-07-12T1900,2321A,119.1119,25.4561,莆田市,涵江区六中,,30,30,25,6,9,46,,101,91,12,13,13,12,0.7,0.7
2024-07-12T1900,2322A,119.1013,25.3215,莆田市,秀屿区政府,,30,30,27,3,9,44,,103,88,9,10,14,13,0.7,0.7
2024-07-12T1900,2392A,115.0312,35.7636,濮阳市,环保局,,45,41,38,25,28,141,,134,134,7,7,6,6,0.6,0.6
2024-07-12T1900,2394A,115.0574,35.7609,濮阳市,油田运输公司,,45,45,38,26,27,141,,133,133,10,8,4,4,0.7,0.7
2024-07-12T1900,2395A,115.0866,35.7754,濮阳市,油田物探公司,,,43,42,33,32,143,,132,132,,7,,3,0.6,0.1
2024-07-12T1900,3021A,115,35.7668,濮阳市,濮水河管理处,,40,34,37,28,33,126,,124,124,6,2,4,5,0.6,0.7
2024-07-12T1900,2601A,100.98,22.7633,普洱市,市环保局,,18,13,10,12,10,31,,38,38,8,5,4,4,0.5,0.4
2024-07-12T1900,2602A,100.9817,22.8322,普洱市,普洱第二中学,,18,12,10,12,11,34,,38,38,5,7,3,4,0.5,0.5
2024-07-12T1900,2262A,131.0518,45.8751,七台河市,新一中,,19,18,17,6,13,60,,79,77,9,7,9,9,0.4,0.5
2024-07-12T1900,3345A,131.0577,45.7879,七台河市,中波台,,17,,9,7,6,54,,72,71,10,11,7,7,0.2,0.2
2024-07-12T1900,3637A,131.0176,45.7761,七台河市,人民广场,,26,26,26,10,14,61,,76,75,10,10,11,11,0.2,0.2
2024-07-12T1900,3684A,130.8781,45.8222,七台河市,新建矿广场,,33,,48,23,23,61,,70,70,12,23,11,15,0,0.2
2024-07-12T1900,1779A,123.9305,47.3636,齐齐哈尔市,安居小区,细颗粒物(PM2.5),108,105,90,81,75,126,,145,145,36,21,16,7,0.8,0.7
2024-07-12T1900,1780A,123.9488,47.3386,齐齐哈尔市,中心广场,细颗粒物(PM2.5),84,111,99,62,69,138,,146,146,20,18,11,11,0.7,0.6
2024-07-12T1900,1781A,123.9483,47.3227,齐齐哈尔市,农牧车辆厂,细颗粒物(PM2.5),94,90,95,70,60,133,,145,145,16,17,9,8,0.5,0.5
2024-07-12T1900,1783A,123.945,47.2988,齐齐哈尔市,市环境监测站,细颗粒物(PM2.5),107,100,88,80,79,132,,142,142,15,17,8,7,0.7,0.6
2024-07-12T1900,3662A,123.6333,47.2075,齐齐哈尔市,富区青少年活动中心,细颗粒物(PM2.5),83,79,90,61,67,136,,139,139,15,22,9,5,1.0,0.8
2024-07-12T1900,2591A,107.9783,26.5747,黔东南苗族侗族自治州,市环境监测站,,46,36,15,32,11,60,,72,63,10,7,3,3,0.9,0.4
2024-07-12T1900,2881A,107.8908,26.5311,黔东南苗族侗族自治州,凯里学院,,19,,6,10,9,60,,71,61,4,4,4,4,0.5,0.4
2024-07-12T1900,2593A,107.5228,26.2403,黔南布依族苗族自治州,小围寨,,20,6,6,3,3,61,,64,64,2,2,3,5,0.4,0.4
2024-07-12T1900,3538A,107.5175,26.2978,黔南布依族苗族自治州,沙坝,,16,12,8,3,3,50,,60,60,5,5,4,4,0.5,0.4
2024-07-12T1900,2589A,104.9022,25.0925,黔西南布依族苗族自治州,场坝街,,,10,12,6,6,55,,51,51,,5,3,4,,0.3
2024-07-12T1900,2590A,104.8811,25.0992,黔西南布依族苗族自治州,坪东大道,,16,10,13,6,6,51,,48,48,2,3,4,4,0.4,0.4
2024-07-12T1900,2502A,108.6236,21.9667,钦州市,市环保站,,24,24,18,3,5,50,,58,58,16,14,7,6,1.0,0.8
2024-07-12T1900,2503A,108.6549,21.9481,钦州市,沙埠小学,,27,27,28,16,13,52,,59,59,12,15,3,3,1.1,0.8
2024-07-12T1900,2504A,108.5989,21.7431,钦州市,港区一小,,28,28,21,3,2,82,,60,60,10,11,7,7,0.5,0.6
2024-07-12T1900,3404A,108.5959,21.9633,钦州市,北职校,,15,15,26,7,11,47,,55,55,10,14,7,8,0.6,0.6
2024-07-12T1900,1042A,119.5134,39.8207,秦皇岛市,北戴河环保局,颗粒物(PM10),65,80,87,27,45,162,,187,187,18,14,4,4,0.9,0.7
2024-07-12T1900,1043A,119.7493,40.0116,秦皇岛市,第一关,,,,89,,58,159,,178,176,17,12,,2,0.6,0.6
2024-07-12T1900,1044A,119.5897,39.9499,秦皇岛市,监测站,"颗粒物(PM10),臭氧1小时",60,69,82,34,48,168,,191,190,18,15,5,7,0.7,0.7
2024-07-12T1900,1046A,119.5251,39.9041,秦皇岛市,建设大厦,,50,50,78,22,39,159,,183,182,11,10,3,3,0.4,0.4
2024-07-12T1900,3132A,119.610547,39.943889,秦皇岛市,文明里,颗粒物(PM10),61,72,88,37,52,164,,189,188,10,11,2,4,0.6,0.5
2024-07-12T1900,1307A,120.6659,36.2403,青岛市,仰口,细颗粒物(PM2.5),100,90,62,75,53,136,,142,142,4,7,3,4,0.7,0.6
2024-07-12T1900,1310A,120.4134,36.0658,青岛市,市南区东部子站,细颗粒物(PM2.5),94,90,63,70,43,168,,163,163,10,13,6,8,1.5,1.1
2024-07-12T1900,1311A,120.3664,36.1032,青岛市,四方区子站,细颗粒物(PM2.5),100,88,75,75,56,171,,180,180,25,24,10,11,1.3,1
2024-07-12T1900,1312A,120.2994,36.054,青岛市,市南区西部子站,细颗粒物(PM2.5),70,83,54,51,35,140,,154,151,20,14,7,7,1.3,1
2024-07-12T1900,1313A,120.4581,36.0858,青岛市,崂山区子站,细颗粒物(PM2.5),117,105,59,88,45,167,,162,162,15,15,7,7,1.2,0.9
2024-07-12T1900,1314A,120.1983,35.9608,青岛市,黄岛区子站,细颗粒物(PM2.5),102,90,61,76,52,147,,155,155,22,17,7,7,1.1,1
2024-07-12T1900,1315A,120.3999,36.3083,青岛市,城阳区子站,颗粒物(PM10),58,66,73,39,44,164,,206,195,30,30,7,8,0.9,1
2024-07-12T1900,1966A,120.0405,35.8735,青岛市,黄岛区4号,细颗粒物(PM2.5),98,88,73,73,57,143,,144,128,15,14,9,10,1.1,1.2
2024-07-12T1900,3362A,120.5014,36.4034,青岛市,即墨2号,细颗粒物(PM2.5),75,74,68,55,47,162,,174,169,12,18,5,6,0.8,0.8
2024-07-12T1900,3642A,120.3503,36.0736,青岛市,市北区南部,细颗粒物(PM2.5),107,,55,80,53,168,,173,173,13,14,5,7,1.2,1
2024-07-12T1900,3643A,120.3948,36.1805,青岛市,李沧区北部,细颗粒物(PM2.5),117,102,83,88,59,175,,164,164,28,43,11,11,1.2,0.9
2024-07-12T1900,1702A,113.0426,23.691,清远市,环保大楼,,25,18,16,12,12,78,,108,108,19,17,5,5,0.7,0.6
2024-07-12T1900,1703A,113.0208,23.7106,清远市,凤城街办,,24,22,24,12,10,75,,99,99,14,15,4,4,0.5,0.4
2024-07-12T1900,3025A,113.0477,23.6344,清远市,技师学院,,35,35,26,17,11,95,,124,124,21,19,5,5,0.6,0.5
2024-07-12T1900,3318A,112.9903,23.7403,清远市,清新太和,,30,30,26,7,12,73,,96,96,8,11,8,8,0.4,0.4
2024-07-12T1900,3455A,113.076,23.7198,清远市,清城东城,,24,,27,13,13,76,,101,101,10,14,4,4,0.5,0.5
2024-07-12T1900,2661A,107.6325,35.7357,庆阳市,庆阳五中,,40,30,26,14,11,128,,148,148,10,11,4,5,0.5,0.4
2024-07-12T1900,2662A,107.6364,35.7067,庆阳市,市环保局,,38,31,24,13,10,121,,138,138,14,10,4,4,0.5,0.4
2024-07-12T1900,1916A,103.7897,25.5035,曲靖市,环境监测站,,20,18,17,7,7,61,,56,56,7,8,3,4,0.4,0.3
2024-07-12T1900,1917A,103.8,25.5364,曲靖市,烟厂办公区,,21,15,14,10,9,66,,58,58,6,8,3,4,0.4,0.3
2024-07-12T1900,3376A,103.7947,25.462,曲靖市,南苑二区,,22,8,12,3,7,69,,63,63,4,6,5,4,0.5,0.5
2024-07-12T1900,3377A,103.7444,25.5261,曲靖市,曲靖师范学院,,21,17,12,6,8,67,,61,61,7,8,4,4,0.4,0.4
2024-07-12T1900,1264A,118.8692,28.9398,衢州市,环保大楼,,35,35,26,18,13,83,,104,103,10,18,5,4,0.5,0.5
2024-07-12T1900,1265A,118.8709,28.9666,衢州市,实验学校,,30,30,24,20,14,76,,102,100,12,17,3,2,0.5,0.5
2024-07-12T1900,1266A,118.8621,28.9808,衢州市,衢州学院,,43,43,27,19,12,87,,110,108,11,19,4,4,0.4,0.4
2024-07-12T1900,1611A,118.5819,24.9117,泉州市,涂山街,,35,35,39,7,14,47,,108,98,12,21,4,8,0.4,0.5
2024-07-12T1900,1612A,118.5972,24.8978,泉州市,津头埔,,35,35,35,6,14,47,,103,91,14,22,3,5,0.4,0.4
2024-07-12T1900,1613A,118.6663,24.9424,泉州市,万安,,27,27,32,8,11,45,,109,98,8,15,2,4,0.5,0.5
2024-07-12T1900,3529A,118.6333,24.9264,泉州市,城华南路,,22,22,32,9,14,45,,104,93,12,19,2,5,0.5,0.5
2024-07-12T1900,2626A,88.8876,29.2718,日喀则市,日喀则监测站,,20,6,8,3,3,64,,68,68,10,6,6,6,0.4,0.3
2024-07-12T1900,3726A,88.8781,29.2426,日喀则市,林业技术推广中心,,21,12,5,8,4,67,,69,69,11,8,7,6,0.7,0.7
2024-07-12T1900,1659A,119.471,35.4209,日照市,监测站,臭氧1小时,92,80,82,67,69,193,,204,204,23,33,9,10,0.9,0.9
2024-07-12T1900,1660A,119.523,35.4216,日照市,市政府广场,细颗粒物(PM2.5),95,95,94,71,66,168,,193,193,12,25,8,10,1.0,1
2024-07-12T1900,1661A,119.5587,35.4044,日照市,港务局,细颗粒物(PM2.5),85,83,106,63,63,170,,194,194,15,39,9,12,1.1,1.2
2024-07-12T1900,3507A,119.5328,35.4625,日照市,职业技术学院,细颗粒物(PM2.5),100,88,96,75,71,174,,194,194,15,28,8,10,1.1,1.2
2024-07-12T1900,3604A,119.3266,35.1044,日照市,岚山环保分局,,,58,86,49,65,167,,194,194,20,23,,8,0.8,1
2024-07-12T1900,1835A,111.1922,34.7752,三门峡市,市政府,,48,43,40,24,23,153,,167,167,14,16,7,7,0.8,0.7
2024-07-12T1900,1836A,111.1587,34.7942,三门峡市,开发区,,44,39,46,28,28,140,,157,157,10,15,9,10,0.7,0.6
2024-07-12T1900,3039A,111.1911,34.7829,三门峡市,三门峡市第一小学,,50,40,44,34,28,160,,168,168,13,14,9,8,0.7,0.6
2024-07-12T1900,3598A,111.1,34.7167,三门峡市,富达温泉假日酒店,颗粒物(PM10),51,51,47,28,28,126,,162,162,17,17,14,16,0.9,0.8
2024-07-12T1900,2324A,117.6211,26.2625,三明市,三钢,,18,15,23,12,12,33,,66,58,17,17,15,14,0.6,0.9
2024-07-12T1900,2325A,117.635,26.2714,三明市,三明二中,,15,15,20,8,13,38,,71,63,13,16,2,6,0.8,0.7
2024-07-12T1900,2326A,117.6028,26.2378,三明市,三元区政府,,16,16,20,3,11,34,,66,60,19,13,4,6,0.3,0.3
2024-07-12T1900,1876A,109.5078,18.2489,三亚市,河东子站,,19,8,13,3,6,58,,68,66,10,8,3,2,0.3,0.4
2024-07-12T1900,1877A,109.4964,18.2681,三亚市,河西子站,,18,6,11,3,6,57,,65,65,5,6,3,3,0.3,0.3
2024-07-12T1900,3540A,109.7348,18.3443,三亚市,君悦子站,,22,14,11,3,4,69,,65,65,4,7,1,2,0.3,0.3
2024-07-12T1900,2624A,91.7608,29.2313,山南市,山南监测站,,28,28,10,6,4,68,,72,72,6,10,6,6,0.3,0.3
2024-07-12T1900,2625A,91.7706,29.2436,山南市,山南人民医院,,44,44,20,6,5,64,,70,70,12,11,5,6,0.3,0.3
2024-07-12T1900,1674A,116.6794,23.3667,汕头市,金平子站,,17,,16,7,6,54,,59,57,6,7,6,6,0.7,0.7
2024-07-12T1900,1675A,116.7244,23.3633,汕头市,龙湖子站,,18,18,15,11,6,45,,50,49,9,9,6,6,0.6,0.7
2024-07-12T1900,1676A,116.7258,23.2775,汕头市,濠江子站,,18,12,13,3,4,56,,60,59,9,7,5,5,0.6,0.6
2024-07-12T1900,1677A,116.7519,23.4714,汕头市,澄海子站,,22,22,24,7,13,42,,48,47,12,16,4,6,0.8,0.8
2024-07-12T1900,1678A,116.6092,23.2539,汕头市,潮阳子站,,29,29,14,6,2,50,,54,53,3,3,4,4,0.6,0.6
2024-07-12T1900,3444A,116.454,23.2684,汕头市,潮南峡山,,21,21,15,14,6,44,,49,47,1,3,4,4,0.6,0.7
2024-07-12T1900,3624A,116.4069,23.2533,汕头市,潮南子站,,32,32,14,12,6,48,,53,53,4,3,7,7,0.6,0.6
2024-07-12T1900,1693A,115.3653,22.775,汕尾市,市环保局,,20,19,7,3,3,62,,60,60,8,6,5,5,0.6,0.5
2024-07-12T1900,1694A,115.3706,22.7898,汕尾市,市政府,,20,6,9,3,3,62,,58,58,4,3,7,7,0.6,0.5
2024-07-12T1900,1695A,115.3622,22.7925,汕尾市,新城中学,,20,8,12,3,6,64,,59,59,3,3,5,5,0.4,0.5
2024-07-12T1900,2645A,109.9154,33.8715,商洛市,监测站,,41,31,30,28,18,129,,124,124,12,8,9,8,0.8,0.7
2024-07-12T1900,3045A,109.9643,33.8471,商洛市,商州区中学,颗粒物(PM10),53,55,36,27,19,113,,122,122,14,12,5,4,0.7,0.7
2024-07-12T1900,2408A,115.6702,34.4285,商丘市,环境监测站,,50,48,47,29,27,159,,154,154,5,5,8,8,0.4,0.6
2024-07-12T1900,2409A,115.6458,34.4045,商丘市,粮食局,臭氧1小时,63,54,43,27,25,170,,159,159,8,6,4,5,0.5,0.5
2024-07-12T1900,2410A,115.6293,34.3948,商丘市,睢阳区环保局,臭氧1小时,64,64,46,36,33,171,,160,160,6,7,5,5,0.5,0.5
2024-07-12T1900,3171A,115.6071,34.4465,商丘市,梁园区档案局,臭氧1小时,52,,19,33,32,161,,154,154,9,8,7,7,0.5,0.5
2024-07-12T1900,1141A,121.4,31.238,上海市,普陀,,19,,25,11,18,59,,61,60,30,28,5,5,0.5,0.6
2024-07-12T1900,1142A,121.478,31.2036,上海市,十五厂,,23,,21,14,20,73,,67,61,27,29,8,9,0.6,0.6
2024-07-12T1900,1143A,121.467,31.3008,上海市,虹口,,23,16,21,16,19,48,,68,55,40,29,9,6,0.7,0.7
2024-07-12T1900,1144A,121.412,31.1654,上海市,徐汇上师大,,23,,31,16,26,18,,59,45,30,30,6,6,0.7,0.8
2024-07-12T1900,1145A,121.536,31.2659,上海市,杨浦四漂,,26,26,46,13,24,67,,65,52,30,41,7,7,0.7,0.7
2024-07-12T1900,1147A,121.425,31.2261,上海市,静安监测站,,20,,24,14,23,64,,64,59,29,29,7,6,0.6,0.7
2024-07-12T1900,1148A,121.703,31.1907,上海市,浦东川沙,,26,,19,13,14,81,,78,78,28,29,6,6,0.9,0.9
2024-07-12T1900,1149A,121.533,31.2284,上海市,浦东新区监测站,,25,,20,14,19,77,,64,64,25,34,4,5,0.4,0.5
2024-07-12T1900,1150A,121.577,31.2071,上海市,浦东张江,,25,,21,12,23,79,,69,67,29,33,5,5,0.7,0.7
2024-07-12T1900,3265A,121.4316,31.3322,上海市,宝山庙行,,25,,25,17,20,54,,68,64,39,34,9,9,0.7,0.8
2024-07-12T1900,3266A,121.8791,31.4662,上海市,崇明上实东滩,,29,9,8,6,5,91,,112,103,26,10,8,6,0.6,0.7
2024-07-12T1900,3268A,121.3162,31.2838,上海市,嘉定南翔,,22,,23,13,24,42,,41,41,44,40,5,5,0.6,0.7
2024-07-12T1900,3269A,121.3359,30.7456,上海市,金山新城,,28,6,20,3,20,88,,82,77,13,15,7,7,0.5,0.5
2024-07-12T1900,3270A,121.4996,31.0739,上海市,闵行浦江,,23,,16,7,22,73,,64,64,20,24,5,5,0.5,0.6
2024-07-12T1900,3271A,121.2886,31.1663,上海市,青浦徐泾,,20,,31,14,28,54,,48,48,32,34,5,6,0.5,0.6
2024-07-12T1900,3272A,121.2186,31.0378,上海市,松江图书馆,,20,,28,11,30,63,,57,57,25,31,6,6,0.6,0.7
2024-07-12T1900,3273A,121.3902,31.2059,上海市,长宁仙霞,,19,,23,12,24,55,,60,51,38,34,6,6,0.9,1
2024-07-12T1900,3274A,121.7965,31.0507,上海市,浦东惠南,,23,,17,9,19,72,,81,80,33,24,7,7,0.6,0.7
2024-07-12T1900,3544A,121.4891,30.925,上海市,奉贤南桥新城,,19,,25,7,24,59,,57,57,32,24,5,5,0.6,0.7
2024-07-12T1900,2381A,118.005,28.4572,上饶市,百草园,,29,,24,20,13,76,,100,98,3,5,1,7,0.7,0.8
2024-07-12T1900,2382A,117.9756,28.4436,上饶市,市监测站,,26,20,30,12,15,81,,98,98,7,9,3,8,0.5,0.5
2024-07-12T1900,2383A,117.9519,28.4628,上饶市,凤凰光学,,30,16,28,13,15,96,,104,104,5,11,16,13,0.8,0.8
2024-07-12T1900,3413A,118.1953,28.4401,上饶市,广丰区教体局,,41,41,21,11,10,68,,87,85,5,4,18,16,0.7,0.5
2024-07-12T1900,3685A,117.897,28.4315,上饶市,双创科技城,,26,26,33,11,17,78,,92,92,11,14,4,12,0.6,0.7
2024-07-12T1900,1669A,113.5824,24.7733,韶关市,市八中,,40,40,17,15,8,72,,92,92,6,8,10,10,0.5,0.5
2024-07-12T1900,1671A,113.5917,24.7972,韶关市,园林处,,26,23,19,14,12,81,,99,99,5,8,8,9,0.6,0.6
2024-07-12T1900,1672A,113.6735,24.7791,韶关市,韶关学院,,26,25,13,11,9,81,,87,87,8,9,9,11,0.3,0.4
2024-07-12T1900,1673A,113.5971,24.6863,韶关市,曲江监测站,,34,34,21,19,8,77,,91,91,8,10,8,10,0.4,0.4
2024-07-12T1900,3622A,113.5556,24.8082,韶关市,碧湖山庄,,26,23,20,10,10,82,,100,100,6,9,12,11,0.3,0.3
