timepoint,stationcode,longitude,latitude,area,positionname,primarypollutant,aqi,pm10,pm10_24h,pm2_5,pm2_5_24h,o3,o3_24h,o3_8h,o3_8h_24h,no2,no2_24h,so2,so2_24h,co,co_24h
2024-07-12T2000,2566A,102.1879,31.914,阿坝藏族羌族自治州,州农科所,,22,22,24,14,8,29,,46,46,7,9,5,5,0.2,0.2
2024-07-12T2000,2568A,102.2502,31.8896,阿坝藏族羌族自治州,马师校,,35,29,16,24,14,25,,49,49,14,13,5,5,0.5,0.5
2024-07-12T2000,3994A,102.2165,31.9024,阿坝藏族羌族自治州,马尔康中学西区,,28,27,17,19,11,25,,55,55,7,7,5,6,0.4,0.4
2024-07-12T2000,2695A,80.292,41.1694,阿克苏地区,电视台,,,37,41,13,14,156,,133,133,9,11,,3,,0.3
2024-07-12T2000,2696A,80.2613,41.1551,阿克苏地区,艺术中心,,47,38,46,21,17,150,,128,128,6,10,5,4,0.4,0.4
2024-07-12T2000,2204A,105.6467,38.8363,阿拉善盟,西城区西花园,臭氧1小时,55,22,31,3,13,164,,164,164,10,11,9,9,0.3,0.4
2024-07-12T2000,2205A,105.6985,38.8411,阿拉善盟,蒙二幼,,45,24,30,12,12,142,,146,146,11,8,9,9,0.5,0.5
2024-07-12T2000,2206A,105.724,38.8516,阿拉善盟,环保局新楼,,47,26,24,10,9,149,,145,145,8,7,10,11,0.4,0.4
2024-07-12T2000,2708A,88.1264,47.8517,阿勒泰地区,市站,,31,17,16,9,5,97,,96,96,14,10,7,7,0.4,0.5
2024-07-12T2000,2630A,80.1161,32.5,阿里地区,阿里监测站,臭氧1小时,60,6,13,3,6,168,,178,177,4,5,7,8,0.3,0.3
2024-07-12T2000,3192A,80.0903,32.5028,阿里地区,阿里藏医院,臭氧1小时,68,14,14,3,5,174,,184,184,3,3,7,8,0.3,0.3
2024-07-12T2000,2642A,109.0318,32.6537,安康市,香溪洞,,32,30,16,18,6,101,,104,104,4,3,6,6,0.7,0.7
2024-07-12T2000,2643A,109.0281,32.6939,安康市,安康市监测站,,34,34,19,12,8,82,,104,104,7,6,5,6,0.6,0.6
2024-07-12T2000,2644A,109.0072,32.6975,安康市,汉滨区检察院,,35,33,16,24,10,83,,101,101,12,5,7,6,0.7,0.7
2024-07-12T2000,2291A,117.0809,30.5177,安庆市,环科院,,20,6,35,3,26,63,,66,66,28,31,4,7,0.5,1.2
2024-07-12T2000,2292A,117.0331,30.5119,安庆市,马山宾馆,,21,6,33,3,24,66,,66,66,25,31,6,7,0.6,1.1
2024-07-12T2000,2294A,116.9896,30.6145,安庆市,安庆大学,,16,9,36,3,22,49,,70,65,21,18,7,7,0.4,0.8
2024-07-12T2000,3173A,117.0598,30.5351,安庆市,市人大,,21,6,35,3,27,67,,66,66,22,27,5,7,0.4,1
2024-07-12T2000,3122A,105.9606,26.2611,安顺市,伍家关,,,,,,,,,,,,,,,,
2024-07-12T2000,3123A,105.9408,26.2431,安顺市,凤凰山,,18,13,12,9,8,57,,64,64,5,4,4,4,0.6,0.2
2024-07-12T2000,3124A,105.9439,26.2564,安顺市,金钟山,,19,11,11,11,11,58,,67,67,5,4,4,4,0.7,0.5
2024-07-12T2000,3125A,105.8983,26.2481,安顺市,娄家坡,,19,11,14,8,8,58,,65,64,4,3,5,5,0.4,0.4
2024-07-12T2000,1818A,114.4839,36.0621,安阳市,棉研所,,,,,,,,,,,,,,,,
2024-07-12T2000,1819A,114.3551,36.1017,安阳市,红庙街,,36,32,54,16,28,113,,141,139,2,4,3,4,0.4,0.6
2024-07-12T2000,1820A,114.361,36.0681,安阳市,银杏小区,,,15,46,,25,107,,138,135,3,5,3,2,0.5,0.7
2024-07-12T2000,3141A,114.3922,36.0878,安阳市,信访局,,35,24,43,14,24,111,,136,135,2,3,3,3,0.7,0.8
2024-07-12T2000,3669A,114.4705,36.0637,安阳市,左辅环卫站,,30,24,42,11,31,96,,135,131,5,6,10,6,0.7,0.8
2024-07-12T2000,3703A,114.2917,36.0949,安阳市,安钢职工学校,,35,27,52,17,35,109,,135,133,3,6,2,3,0.5,0.7
2024-07-12T2000,1748A,123.044,41.1196,鞍山市,深沟寺,颗粒物(PM10),51,51,65,28,41,113,,216,199,23,16,6,6,0.9,0.9
2024-07-12T2000,1749A,123.011,41.0931,鞍山市,太阳城,颗粒物(PM10),52,53,63,34,42,126,,219,201,22,16,8,8,1.4,0.9
2024-07-12T2000,1750A,123.0485,41.1442,鞍山市,太平,细颗粒物(PM2.5),67,80,81,48,51,126,,210,197,37,22,6,7,1.4,1.4
2024-07-12T2000,1751A,122.9642,41.0971,鞍山市,铁西三道街,细颗粒物(PM2.5),68,78,87,49,58,128,,221,204,27,25,4,7,1.0,1.3
2024-07-12T2000,1752A,122.9341,41.0833,鞍山市,铁西工业园区,细颗粒物(PM2.5),60,66,81,43,52,110,,220,196,26,25,3,6,1.0,1.3
2024-07-12T2000,1753A,123.022,41.0821,鞍山市,明达新区,,48,48,61,28,39,123,,206,188,21,16,7,7,1.1,1.1
2024-07-12T2000,1754A,123.1289,41.0228,鞍山市,千山,,,,,,,,,,,,,,,,
2024-07-12T2000,2195A,107.4212,40.761,巴彦淖尔市,附二中,,44,44,50,24,28,134,,146,146,15,13,2,6,0.5,0.5
2024-07-12T2000,2196A,107.37,40.7372,巴彦淖尔市,市环保大楼,,48,48,56,19,17,117,,133,133,18,10,3,3,0.5,0.5
2024-07-12T2000,1956A,86.1472,41.7538,巴音郭楞蒙古自治州,孔雀公园,,48,48,113,14,31,112,,115,115,10,7,4,3,0.2,0.2
2024-07-12T2000,1957A,86.1972,41.7166,巴音郭楞蒙古自治州,棉纺厂,,,34,106,3,32,108,,106,106,,7,,4,,0.3
2024-07-12T2000,1958A,86.2357,41.7173,巴音郭楞蒙古自治州,经济开发区,,50,50,98,18,32,118,,116,116,3,5,3,3,0.2,0.2
2024-07-12T2000,2914A,106.7677,31.8794,巴中市,苏山坪,,29,16,16,10,8,90,,101,101,9,6,5,5,0.5,0.6
2024-07-12T2000,3182A,106.7656,31.8545,巴中市,丽阳花园,颗粒物(PM10),52,53,30,32,12,51,,96,92,28,12,7,6,0.7,0.6
2024-07-12T2000,3183A,106.7418,31.8654,巴中市,圣泉水务公司,,25,25,20,15,12,59,,96,94,23,14,4,4,0.7,0.7
2024-07-12T2000,3616A,106.7616,31.8344,巴中市,市中心医院,,23,18,17,16,12,58,,95,92,18,9,6,6,0.5,0.5
2024-07-12T2000,2235A,122.7911,45.6077,白城市,洮北区环保局,,,,49,43,69,74,,88,86,12,20,5,4,0.3,0.4
2024-07-12T2000,2236A,122.8738,45.5725,白城市,市环保局,颗粒物(PM10),55,60,66,37,56,44,,93,86,30,21,3,6,0.4,0.5
2024-07-12T2000,2231A,126.4219,41.9171,白山市,喜丰,颗粒物(PM10),71,91,84,46,43,68,,130,123,29,21,13,13,1.3,1.2
2024-07-12T2000,2232A,126.4077,41.9419,白山市,环保局,"颗粒物(PM10),细颗粒物(PM2.5)",68,86,67,49,44,83,,128,124,25,15,10,10,1.1,1
2024-07-12T2000,2647A,104.1724,36.5446,白银市,第三小学,颗粒物(PM10),66,81,140,39,47,94,,132,123,20,13,9,28,0.6,0.5
2024-07-12T2000,2648A,104.1465,36.5482,白银市,动力公司,颗粒物(PM10),63,75,117,34,42,107,,140,130,12,10,6,16,0.5,0.4
2024-07-12T2000,2512A,106.6103,23.9011,百色市,市监测站,,36,36,34,21,17,85,,92,91,12,11,9,13,0.7,0.7
2024-07-12T2000,2513A,106.6538,23.8859,百色市,市中心血站,,42,42,35,17,18,84,,92,91,12,10,7,11,0.7,0.7
2024-07-12T2000,3406A,106.6085,23.8798,百色市,祈福高中,,49,49,36,14,19,84,,95,94,8,10,6,12,0.7,0.8
2024-07-12T2000,2270A,117.396,32.939,蚌埠市,工人疗养院,,26,26,32,11,17,52,,90,74,20,7,6,7,0.7,0.6
2024-07-12T2000,2271A,117.3605,32.9427,蚌埠市,百货大楼,,26,26,31,7,15,41,,97,74,30,8,5,5,0.8,0.6
2024-07-12T2000,2273A,117.4185,32.8911,蚌埠市,蚌埠学院,,25,,23,17,20,75,,94,85,6,3,6,6,0.8,0.6
2024-07-12T2000,2274A,117.3533,32.9673,蚌埠市,淮上区政府,,23,19,26,16,21,57,,99,82,24,8,7,7,0.7,0.6
2024-07-12T2000,2275A,117.3145,32.8977,蚌埠市,高新区,,23,14,24,12,18,72,,95,80,6,3,5,5,0.8,0.6
2024-07-12T2000,3715A,117.3092,32.9314,蚌埠市,蚌埠田家炳中学,,23,23,29,11,19,62,,91,77,5,4,6,7,0.8,0.5
2024-07-12T2000,1585A,109.8756,40.6532,包头市,市环境监测站,,48,48,42,10,20,151,,166,166,31,19,17,12,0.6,0.6
2024-07-12T2000,1587A,109.9991,40.5842,包头市,包头八中,颗粒物(PM10),54,57,40,22,16,147,,162,162,23,13,53,11,1.1,0.6
2024-07-12T2000,1588A,109.8538,40.6821,包头市,青山宾馆,,49,49,39,20,20,152,,170,170,26,19,16,14,0.8,1
2024-07-12T2000,1589A,109.8642,40.6288,包头市,惠龙物流,臭氧1小时,57,34,43,20,19,165,,168,168,19,16,25,16,0.7,0.7
2024-07-12T2000,1590A,110.0377,40.5546,包头市,东河鸿龙湾,颗粒物(PM10),55,60,35,22,15,145,,163,163,21,10,19,9,0.7,0.6
2024-07-12T2000,3283A,109.9154,40.5685,包头市,滨河大厦,臭氧1小时,52,43,34,22,16,161,,164,164,16,13,10,9,0.7,0.6
2024-07-12T2000,3419A,109.9447,40.6261,包头市,包头市委党校,,50,41,38,25,18,157,,177,176,26,15,11,7,0.7,0.7
2024-07-12T2000,3683A,109.8331,40.6576,包头市,昆区政府,臭氧1小时,52,41,40,18,20,161,,165,165,19,19,15,15,0.9,1.1
2024-07-12T2000,1930A,107.185,34.3063,宝鸡市,庙沟村,,27,20,21,13,10,84,,113,108,6,7,8,8,0.3,0.3
2024-07-12T2000,1931A,107.0708,34.3017,宝鸡市,竹园沟,,22,22,22,14,12,70,,134,124,14,12,8,8,0.6,0.5
2024-07-12T2000,1932A,107.1906,34.3672,宝鸡市,三陆医院,,33,22,29,14,13,103,,152,148,27,23,8,9,0.7,0.6
2024-07-12T2000,1933A,107.1431,34.3547,宝鸡市,监测站,,34,34,27,15,13,64,,145,134,26,17,8,8,0.5,0.4
2024-07-12T2000,1934A,107.1186,34.3739,宝鸡市,技工学校,,35,35,27,15,13,80,,153,145,21,14,8,8,0.6,0.5
2024-07-12T2000,1935A,107.3906,34.3528,宝鸡市,陈仓区环保局家属楼,,35,35,28,17,12,88,,154,147,31,20,7,7,0.6,0.4
2024-07-12T2000,1936A,107.2058,34.3497,宝鸡市,文理学院,,37,37,29,16,14,73,,152,144,33,18,8,9,0.5,0.4
2024-07-12T2000,1937A,107.2386,34.3622,宝鸡市,三迪小学,,32,30,37,22,15,87,,148,141,33,20,8,9,0.7,0.6
2024-07-12T2000,1051A,115.493,38.8632,保定市,游泳馆,,36,36,73,16,43,100,,113,110,4,6,2,4,0.3,0.4
2024-07-12T2000,1052A,115.5213,38.8959,保定市,华电二区,,39,35,76,27,43,118,,146,140,8,9,3,2,0.4,0.6
2024-07-12T2000,1053A,115.4713,38.9108,保定市,接待中心,,40,35,71,14,42,127,,137,134,4,4,3,2,0.2,0.4
2024-07-12T2000,1054A,115.4612,38.8416,保定市,地表水厂,颗粒物(PM10),59,68,82,23,44,107,,129,125,7,8,1,2,0.6,0.9
2024-07-12T2000,3581A,115.31981,38.95208,保定市,满城区生态环境分局,,36,29,77,12,45,115,,131,131,3,7,2,2,0.4,0.4
2024-07-12T2000,3582A,115.47694,38.76408,保定市,清苑区第二中学,颗粒物(PM10),123,196,97,31,51,112,,116,116,13,11,3,2,0.6,0.6
2024-07-12T2000,3583A,115.62909,39.02311,保定市,徐水物探局,,37,27,69,9,44,118,,143,136,9,13,3,3,0.4,0.5
2024-07-12T2000,4004A,115.4202,38.8656,保定市,双鹰农机,,37,30,67,22,41,116,,119,118,8,13,3,3,0.3,0.5
2024-07-12T2000,4034A,115.5150,38.8590,保定市,植保所站,,45,,60,31,49,132,,151,146,5,9,2,5,0.4,0.5
2024-07-12T2000,2594A,99.1678,25.1081,保山市,市环境监测站,,16,16,17,10,8,29,,34,34,9,10,6,6,0.5,0.5
2024-07-12T2000,2595A,99.1711,25.1328,保山市,市环保局,,16,16,19,3,6,37,,41,41,2,6,5,5,0.5,0.5
2024-07-12T2000,1866A,109.2262,21.588,北海市,牛尾岭水库,,,,,,,,,,,,,,,,
2024-07-12T2000,1867A,109.1436,21.4086,北海市,海滩公园,,48,48,29,3,3,59,,66,63,4,4,4,3,0.7,0.6
2024-07-12T2000,1868A,109.0981,21.4661,北海市,新市环保局,,21,16,14,7,5,65,,63,62,6,5,6,5,0.6,0.6
2024-07-12T2000,1869A,109.1778,21.5233,北海市,北海工业园,,23,23,18,3,10,63,,65,64,7,7,4,4,0.5,0.5
2024-07-12T2000,3400A,109.1911,21.4415,北海市,龙潭自来水厂,,20,15,14,7,8,62,,65,63,4,4,6,6,0.5,0.5
2024-07-12T2000,1001A,116.3621,39.8784,北京市,万寿西宫,,35,25,65,16,43,109,,130,105,20,26,3,2,0.7,0.9
2024-07-12T2000,1002A,116.2202,40.2915,北京市,定陵,,22,15,58,10,37,70,,127,102,6,11,3,3,0.6,0.7
2024-07-12T2000,1003A,116.4174,39.9289,北京市,东四,,34,19,60,16,40,108,,137,122,19,27,4,5,0.5,0.6
2024-07-12T2000,1004A,116.4072,39.8863,北京市,天坛,,34,20,65,14,43,107,,132,116,20,26,3,2,0.7,0.8
2024-07-12T2000,1005A,116.462,39.9365,北京市,农展馆,,29,19,59,13,36,90,,122,107,17,25,3,3,0.6,0.7
2024-07-12T2000,1006A,116.3392,39.9295,北京市,官园,,34,21,56,15,36,107,,139,121,16,20,4,5,0.6,0.7
2024-07-12T2000,1007A,116.2878,39.9611,北京市,海淀万柳,,33,22,51,15,33,104,,136,117,14,17,5,5,0.6,0.6
2024-07-12T2000,1008A,116.6636,40.135,北京市,顺义新城,,31,27,38,16,22,97,,132,126,14,10,3,3,0.5,0.5
2024-07-12T2000,1009A,116.6275,40.3275,北京市,怀柔镇,,28,28,30,19,20,87,,132,122,10,6,1,1,0.6,0.6
2024-07-12T2000,1010A,116.2296,40.217,北京市,昌平镇,,24,21,54,12,32,74,,119,96,10,15,3,3,0.5,0.6
2024-07-12T2000,1011A,116.3966,39.9821,北京市,奥体中心,,29,25,51,19,32,91,,134,118,22,23,2,2,0.7,0.6
2024-07-12T2000,1012A,116.184,39.9136,北京市,古城,,31,31,52,16,33,93,,136,116,24,23,1,1,0.6,0.6
2024-07-12T2000,3281A,115.9718,40.4529,北京市,延庆夏都,,31,17,41,11,27,98,,135,121,7,9,3,3,0.5,0.5
2024-07-12T2000,3417A,117.0709,40.1465,北京市,平谷新城,,29,27,60,20,42,73,,96,92,12,10,3,3,0.5,0.6
2024-07-12T2000,3418A,116.8336,40.4095,北京市,密云新城,,28,24,28,14,16,89,,122,111,7,5,3,3,0.4,0.4
2024-07-12T2000,3671A,116.088,39.9726,北京市,门头沟三家店,,,,,,,,,,,,,,,,
2024-07-12T2000,3672A,116.1541,39.8204,北京市,丰台云岗,,21,19,60,7,35,67,,125,98,16,16,3,3,0.6,0.6
2024-07-12T2000,3673A,116.6804,39.9081,北京市,通州东关,,34,18,79,11,49,107,,136,126,7,18,3,2,0.6,0.7
2024-07-12T2000,3674A,115.9577,39.7603,北京市,房山燕山,,27,14,58,9,42,84,,142,122,10,13,3,3,0.6,0.7
2024-07-12T2000,3675A,116.4672,39.7733,北京市,大兴旧宫,,30,19,69,14,49,94,,133,113,18,25,3,3,0.7,0.8
2024-07-12T2000,3694A,115.986,40.4563,北京市,延庆石河营,,27,16,39,11,27,85,,132,115,8,10,3,2,0.5,0.5
2024-07-12T2000,3695A,116.6151,40.3053,北京市,怀柔新城,,28,24,32,18,21,87,,127,118,10,7,3,3,0.6,0.6
2024-07-12T2000,3696A,116.2545,39.8768,北京市,丰台小屯,,29,18,56,13,35,90,,123,98,14,17,3,3,0.5,0.5
2024-07-12T2000,3697A,116.84,40.3844,北京市,密云镇,,29,29,35,18,18,69,,115,101,17,10,3,3,0.3,0.4
2024-07-12T2000,1761A,123.8275,41.3064,本溪市,大峪,,40,40,51,23,33,78,,135,120,37,22,17,9,3.5,1.2
2024-07-12T2000,1762A,123.7567,41.3325,本溪市,溪湖,,37,37,70,22,41,96,,133,128,13,24,9,10,1.1,1.6
2024-07-12T2000,1763A,123.7169,41.3094,本溪市,彩屯,,30,30,59,20,43,82,,126,119,15,26,7,9,1.1,1.6
2024-07-12T2000,1764A,123.7669,41.2864,本溪市,东明,,50,50,68,26,36,88,,131,119,32,31,10,8,1.4,1.1
2024-07-12T2000,1765A,123.7992,41.2664,本溪市,新立屯,,46,46,53,19,27,78,,126,113,22,22,4,4,0.9,1.1
2024-07-12T2000,1766A,123.8142,41.3472,本溪市,威宁,颗粒物(PM10),56,62,59,29,41,72,,139,126,29,24,8,9,1.0,1.1
2024-07-12T2000,2587A,105.2864,27.3125,毕节市,八中,,19,14,13,13,12,42,,62,61,11,9,5,5,0.6,0.4
2024-07-12T2000,2588A,105.31,27.2944,毕节市,师专,,19,19,14,11,8,56,,60,60,13,9,5,5,0.6,0.5
2024-07-12T2000,3537A,105.3631,27.3533,毕节市,长征村,,23,23,22,16,15,71,,72,72,8,8,8,7,0.4,0.6
2024-07-12T2000,1629A,118.0018,37.3617,滨州市,第二水厂,臭氧1小时,110,105,87,73,54,220,,249,249,15,29,4,5,0.9,0.8
2024-07-12T2000,1630A,117.9776,37.393,滨州市,北中新校,臭氧1小时,115,112,82,66,50,230,,251,251,16,20,8,6,0.7,0.8
2024-07-12T2000,3514A,117.9378,37.3956,滨州市,中海酒店,臭氧1小时,127,110,80,70,51,253,,262,262,15,19,11,10,0.7,0.7
2024-07-12T2000,3515A,117.9378,37.3553,滨州市,开发区一中,臭氧1小时,106,110,86,68,54,212,,235,235,16,24,13,8,0.9,0.8
2024-07-12T2000,3516A,118.0917,37.694,滨州市,金海六路,臭氧1小时,102,83,86,51,51,204,,231,231,7,16,16,14,0.6,0.6
2024-07-12T2000,4028A,117.9956,37.3753,滨州市,滨州市西街道办事处,臭氧1小时,114,107,82,75,58,228,,264,264,13,24,4,5,0.9,0.9
2024-07-12T2000,2311A,115.8072,33.8399,亳州市,污水处理厂,,38,29,28,18,21,120,,147,144,5,4,1,1,0.7,0.6
2024-07-12T2000,2312A,115.7789,33.8518,亳州市,三国揽胜宫,,39,36,32,21,26,124,,146,144,7,6,1,2,0.5,0.5
2024-07-12T2000,3332A,115.7633,33.8034,亳州市,亳州学院,,40,25,31,18,22,127,,151,149,6,5,2,2,0.6,0.6
2024-07-12T2000,2693A,82.0485,44.8556,博尔塔拉蒙古自治州,市党校,,,18,26,3,10,122,,117,117,,12,10,10,0.4,0.4
2024-07-12T2000,2694A,82.0806,44.8969,博尔塔拉蒙古自治州,市环保局,,36,33,34,10,11,114,,109,109,12,16,4,8,0.2,0.3
2024-07-12T2000,1071A,116.8842,38.2991,沧州市,沧县城建局,颗粒物(PM10),63,75,71,31,38,133,,158,158,16,12,3,5,0.3,0.3
2024-07-12T2000,1072A,116.8584,38.3254,沧州市,电视转播站,颗粒物(PM10),57,63,75,24,46,134,,159,157,16,11,3,3,0.4,0.5
2024-07-12T2000,1073A,116.8709,38.3228,沧州市,市环保局,颗粒物(PM10),55,60,67,35,43,121,,146,145,16,14,3,2,0.3,0.3
2024-07-12T2000,3324A,116.8136,38.3004,沧州市,河北水利电力学院,"颗粒物(PM10),细颗粒物(PM2.5)",58,66,68,41,52,146,,165,165,20,18,5,6,0.5,0.6
2024-07-12T2000,2622A,97.1806,31.1273,昌都市,昌都监测站,,16,7,13,3,6,50,,64,63,4,9,8,8,0.5,0.6
2024-07-12T2000,3719A,97.1714,31.1406,昌都市,昌都会议中心,,,,8,6,5,45,,73,70,,5,,6,0.4,0.2
2024-07-12T2000,2690A,88.1236,43.8886,昌吉回族自治州,天山天池,,37,11,7,6,4,116,,113,113,6,6,6,6,0.5,0.5
2024-07-12T2000,2692A,87.2717,44.0297,昌吉回族自治州,新区政务中心,,39,13,17,3,5,122,,122,122,6,12,7,8,0.3,0.4
2024-07-12T2000,3613A,87.3095,44.0142,昌吉回族自治州,亚心广场,,,,22,,2,126,,126,126,,21,,6,,0.3
2024-07-12T2000,1119A,125.3325,43.9166,长春市,食品厂,细颗粒物(PM2.5),84,96,96,62,56,101,,135,132,42,46,5,5,0.9,0.8
2024-07-12T2000,1120A,125.2863,43.9027,长春市,客车厂,细颗粒物(PM2.5),88,88,82,65,57,104,,146,140,48,42,2,2,0.7,0.7
2024-07-12T2000,1121A,125.2841,43.8463,长春市,邮电学院,细颗粒物(PM2.5),79,77,74,58,47,78,,128,120,32,30,6,6,0.8,0.7
2024-07-12T2000,1122A,125.3716,43.8772,长春市,劳动公园,细颗粒物(PM2.5),95,117,90,71,50,95,,122,121,43,41,2,2,1.0,0.9
2024-07-12T2000,1123A,125.3297,43.8805,长春市,园林处,细颗粒物(PM2.5),95,83,76,71,56,113,,135,134,35,31,4,4,0.8,0.7
2024-07-12T2000,1124A,125.4605,43.79,长春市,净月潭,细颗粒物(PM2.5),65,65,62,47,42,74,,116,105,8,9,4,4,0.6,0.6
2024-07-12T2000,1125A,125.7194,43.515,长春市,甩湾子,,,,,,,,,,,,,,,,
2024-07-12T2000,1126A,125.3863,43.8447,长春市,经开区环卫处,"颗粒物(PM10),细颗粒物(PM2.5)",78,105,85,57,47,105,,129,127,37,42,3,3,0.9,0.8
2024-07-12T2000,1127A,125.245,43.7783,长春市,高新区管委会,细颗粒物(PM2.5),79,81,71,58,45,100,,154,144,36,34,4,4,0.8,0.7
2024-07-12T2000,1128A,125.1761,43.8325,长春市,岱山公园,细颗粒物(PM2.5),80,75,83,59,51,112,,146,139,36,48,3,4,0.7,0.7
2024-07-12T2000,1335A,113.0833,28.2325,长沙市,经开区环保局,,28,28,35,16,17,82,,97,96,7,11,4,6,0.4,0.4
2024-07-12T2000,1336A,112.8872,28.2189,长沙市,高开区环保局,,33,33,33,19,18,91,,100,99,4,11,5,7,0.5,0.5
2024-07-12T2000,1337A,113.0792,28.2053,长沙市,马坡岭,,33,33,38,14,21,91,,112,110,8,14,8,9,0.5,0.5
2024-07-12T2000,1338A,112.9394,28.19,长沙市,湖南师范大学,,36,36,42,19,21,88,,100,99,8,13,5,7,0.1,0.5
2024-07-12T2000,1339A,113.0178,28.1322,长沙市,雨花区环保局,,29,29,32,15,16,87,,103,100,4,9,3,3,0.3,0.4
2024-07-12T2000,1340A,112.9792,28.2597,长沙市,伍家岭,,32,32,36,21,18,84,,108,103,6,11,2,3,0.4,0.5
2024-07-12T2000,1341A,113.0014,28.1944,长沙市,火车新站,,29,27,34,17,17,90,,108,104,5,11,3,5,0.4,0.5
2024-07-12T2000,1342A,112.9844,28.1178,长沙市,天心区环保局,,30,30,34,18,17,74,,95,91,13,11,3,5,0.1,0.2
2024-07-12T2000,1343A,112.8908,28.1308,长沙市,湖南中医药大学,,33,33,38,19,21,85,,108,103,7,16,4,6,0.7,0.7
2024-07-12T2000,1344A,112.9581,28.3611,长沙市,沙坪,,30,30,29,11,16,84,,104,102,11,13,6,6,0.4,0.4
2024-07-12T2000,1727A,113.1147,36.1547,长治市,清华站,,44,44,50,24,39,138,,184,174,13,14,3,3,0.5,0.7
2024-07-12T2000,1728A,113.1031,36.1989,长治市,监测站,,47,47,54,22,36,141,,175,171,18,20,4,4,0.6,1.1
2024-07-12T2000,1730A,113.0886,36.2125,长治市,审计局,,44,41,47,24,35,138,,174,168,24,27,3,3,0.9,1.2
2024-07-12T2000,1731A,113.0844,36.1856,长治市,长治八中,,48,48,54,33,34,137,,179,172,14,15,4,4,0.6,0.8
2024-07-12T2000,2845A,113.1569,36.1911,长治市,德盛苑,,46,46,50,27,41,130,,180,166,11,9,9,9,1.0,1.3
2024-07-12T2000,3568A,113.06,36.0464,长治市,向阳小学,细颗粒物(PM2.5),63,55,73,45,60,138,,178,172,12,14,6,8,0.8,1.1
2024-07-12T2000,3569A,112.8792,36.3144,长治市,屯留一中,细颗粒物(PM2.5),57,50,53,40,37,147,,186,177,11,16,8,12,0.5,0.5
2024-07-12T2000,3570A,113.235,36.3489,长治市,潞城四中,细颗粒物(PM2.5),60,53,63,43,48,156,,193,183,8,18,6,8,0.9,1.7
2024-07-12T2000,1854A,111.6975,28.9703,常德市,市二中,,28,28,39,11,23,61,,73,71,10,6,6,6,0.5,0.6
2024-07-12T2000,1857A,111.7158,29.1456,常德市,白鹤山,,,,,,,,,,,,,,,,
2024-07-12T2000,3138A,111.7153,29.0289,常德市,武陵区永安,,35,35,39,12,25,60,,78,75,9,6,7,7,0.4,0.5
2024-07-12T2000,3139A,111.6892,28.9881,常德市,鼎城区玉霞,,32,32,39,15,27,56,,71,69,11,6,4,4,0.5,0.7
2024-07-12T2000,3140A,111.6625,29.0531,常德市,武陵区长庚,,28,28,38,11,25,69,,87,84,7,4,8,8,0.6,0.7
2024-07-12T2000,1196A,119.9633,31.762,常州市,市监测站,,23,,22,16,22,67,,83,83,22,20,6,6,0.5,0.7
2024-07-12T2000,1200A,119.9468,31.7069,常州市,武进监测站,,24,,24,14,22,76,,86,86,9,16,1,6,0.8,1
2024-07-12T2000,1201A,119.9255,31.9087,常州市,安家,,,,26,16,24,63,,75,75,16,19,,5,0.6,0.9
2024-07-12T2000,3002A,119.9805,31.8174,常州市,行政中心,,40,,29,28,25,72,,80,80,27,23,10,10,0.7,0.7
2024-07-12T2000,3003A,120.0522,31.7748,常州市,经开区,,,,27,15,24,67,,73,73,17,24,4,4,,0.7
2024-07-12T2000,3010A,119.9025,31.7964,常州市,钟楼,,23,,21,14,25,72,,77,77,22,23,4,4,0.9,1.1
2024-07-12T2000,3429A,119.8598,31.7066,常州市,武进经发区,,22,7,27,3,16,68,,80,80,19,25,7,7,0.5,0.8
2024-07-12T2000,3430A,119.5826,31.7245,常州市,金坛城区,,25,6,18,3,12,79,,86,86,9,18,6,6,0.6,0.8
2024-07-12T2000,2220A,120.4318,41.5881,朝阳市,西梁,细颗粒物(PM2.5),58,60,107,41,55,164,,173,173,10,13,12,15,0.8,1.1
2024-07-12T2000,2221A,120.4521,41.5646,朝阳市,河畔小区,臭氧1小时,62,53,115,36,52,169,,180,180,8,11,9,9,0.7,0.9
2024-07-12T2000,2222A,120.4176,41.5648,朝阳市,八里堡,颗粒物(PM10),57,64,96,38,52,143,,160,160,13,13,6,10,1.1,1.3
2024-07-12T2000,2223A,120.3806,41.5969,朝阳市,农业园区,细颗粒物(PM2.5),60,66,106,43,64,150,,160,160,14,14,7,9,0.9,1.1
2024-07-12T2000,1705A,116.6367,23.6719,潮州市,西园路,,10,8,26,6,15,31,,53,48,11,14,2,3,0.4,0.5
2024-07-12T2000,3026A,116.6183,23.6608,潮州市,市政府,,27,27,31,11,14,36,,64,54,10,12,4,9,0.8,0.8
2024-07-12T2000,4036A,116.6461,23.6761,潮州市,金山,,22,20,26,15,13,30,,68,55,8,11,5,6,0.6,0.7
2024-07-12T2000,2472A,113.0073,25.9061,郴州市,马头岭,,29,29,24,3,6,64,,82,72,6,7,9,11,0.5,0.5
2024-07-12T2000,2473A,113.0116,25.8226,郴州市,市职中,,23,12,16,9,12,73,,88,78,6,6,12,13,0.3,0.3
2024-07-12T2000,2474A,113.0161,25.8001,郴州市,兴隆步行街,,25,19,20,17,9,72,,87,75,5,5,14,15,0.4,0.4
2024-07-12T2000,2475A,113.0383,25.8071,郴州市,市审计局,,22,16,20,12,12,70,,87,75,7,8,16,12,0.3,0.3
2024-07-12T2000,2476A,113.0348,25.7759,郴州市,市环保局,,24,17,18,11,12,76,,91,80,9,9,19,16,0.4,0.4
2024-07-12T2000,1431A,103.9728,30.7236,成都市,金泉两河,,42,30,30,3,14,132,,157,155,5,20,1,2,0.4,0.6
2024-07-12T2000,1432A,104.176,30.6872,成都市,十里店,,33,28,26,3,10,104,,162,156,13,21,4,4,0.5,0.6
2024-07-12T2000,1433A,104.079,30.5706,成都市,三瓦窑,,37,37,30,23,16,116,,140,136,30,29,1,2,0.4,0.5
2024-07-12T2000,1434A,104.1114,30.63,成都市,沙河铺,,41,22,28,6,12,130,,153,150,17,24,3,3,0.5,0.5
2024-07-12T2000,1437A,104.0786,30.6531,成都市,君平街,,49,37,30,15,13,155,,168,168,19,26,4,5,0.4,0.6
2024-07-12T2000,1438A,103.613,31.0283,成都市,灵岩寺,,,,,,,,,,,,,,,,
2024-07-12T2000,2880A,104.0239,30.65639,成都市,大石西路,,45,24,31,6,13,144,,159,159,12,26,7,7,0.5,0.6
2024-07-12T2000,3136A,104.2725,30.5589,成都市,龙泉驿区区政府,,28,17,13,7,6,87,,122,114,8,8,3,3,0.5,0.5
2024-07-12T2000,3357A,104.0106,30.6931,成都市,金博路,,40,,26,3,12,125,,152,151,11,24,2,2,0.4,0.6
2024-07-12T2000,3359A,104.0578,30.5225,成都市,华阳,,42,24,25,19,18,133,,136,136,1,10,1,2,0.6,0.7
2024-07-12T2000,3487A,104.2394,30.5319,成都市,车城东七路,,32,18,22,12,14,101,,126,120,2,5,2,2,0.5,0.6
2024-07-12T2000,3488A,104.3853,30.7453,成都市,青白江技师分院,,36,6,15,3,7,115,,169,165,12,18,5,6,0.6,0.6
2024-07-12T2000,3489A,104.0789,30.4072,成都市,科学城,,40,24,25,15,16,126,,137,136,2,8,2,3,0.5,0.6
2024-07-12T2000,4011A,103.8506,30.6947,成都市,光华大道三段,,45,37,38,16,17,142,,152,151,5,17,4,4,0.6,0.6
2024-07-12T2000,1062A,117.9531,40.9081,承德市,铁路,,48,48,39,24,24,93,,83,83,21,22,9,9,0.7,0.6
2024-07-12T2000,1063A,117.9392,40.9763,承德市,中国银行,细颗粒物(PM2.5),59,59,44,42,23,92,,85,85,25,17,11,8,0.8,0.6
2024-07-12T2000,1064A,117.9503,40.928,承德市,开发区,,48,48,37,31,22,92,,85,85,22,19,18,13,0.8,0.6
2024-07-12T2000,1065A,117.8051,40.9655,承德市,文化中心,颗粒物(PM10),58,66,48,37,24,80,,89,89,20,18,13,11,0.9,0.6
2024-07-12T2000,1066A,117.9268,41.0026,承德市,离宫,颗粒物(PM10),62,74,37,32,34,18,,,,16,11,4,5,1.0,0.4
2024-07-12T2000,2314A,117.47,30.6618,池州市,池州学院,,27,7,38,3,20,84,,72,72,5,15,6,7,0.3,1
2024-07-12T2000,3237A,117.4918,30.6617,池州市,展览馆,,25,8,34,3,20,79,,69,69,5,13,3,4,0.3,1
2024-07-12T2000,3333A,117.5627,30.695,池州市,第八中学,,26,8,30,3,20,83,,64,64,8,13,3,3,0.4,1
2024-07-12T2000,3334A,117.5038,30.6243,池州市,第十二中学,,27,11,33,3,20,84,,70,70,8,15,5,5,0.5,1.1
2024-07-12T2000,1744A,118.9233,42.2816,赤峰市,松山一中,,38,38,30,13,15,117,,144,138,18,21,8,13,0.6,0.7
2024-07-12T2000,1745A,118.9576,42.2728,赤峰市,哈达街,,43,40,34,30,16,117,,154,148,17,16,8,14,0.6,0.6
2024-07-12T2000,1746A,118.8788,42.2554,赤峰市,天义路,,36,31,23,14,14,115,,155,148,26,20,7,11,0.4,0.3
2024-07-12T2000,3058A,119.2658,42.0353,赤峰市,银河街,,45,42,50,31,34,142,,155,152,13,19,10,23,0.4,0.6
2024-07-12T2000,3286A,118.9359,42.3147,赤峰市,桥北物流园区,,36,36,35,10,23,113,,154,144,19,20,6,10,0.6,0.6
2024-07-12T2000,2521A,107.3476,22.4136,崇左市,市环保局江州分局,,21,21,24,12,11,63,,82,77,7,7,5,5,0.8,0.8
2024-07-12T2000,2522A,107.3702,22.3707,崇左市,城南新区,,,23,19,13,9,63,,75,73,,8,,3,0.8,0.7
2024-07-12T2000,2298A,118.3093,32.3153,滁州市,老年大学,,29,,28,15,28,90,,114,112,16,15,8,6,1.3,0.9
2024-07-12T2000,2299A,118.3244,32.2786,滁州市,人大宾馆,,29,14,30,8,30,90,,111,110,18,15,8,6,1.2,0.9
2024-07-12T2000,3207A,118.3118,32.3038,滁州市,市政府原办公楼,,27,17,27,16,28,86,,109,107,17,15,9,7,1.4,1
2024-07-12T2000,3331A,118.3267,32.2634,滁州市,图书馆,,27,15,31,8,28,84,,105,104,14,13,10,9,1.4,1.1
2024-07-12T2000,2605A,101.5482,25.0441,楚雄彝族自治州,州环境监测站,,11,9,9,3,4,35,,38,38,4,3,3,3,0.6,0.5
2024-07-12T2000,2606A,101.538,25.0492,楚雄彝族自治州,市经济开发区,,22,22,8,14,5,29,,34,34,8,5,5,4,0.7,0.6
2024-07-12T2000,2548A,107.5277,31.2827,达州市,达州职业技术学院,,19,19,10,6,6,21,,54,50,25,10,3,3,0.4,0.4
2024-07-12T2000,2549A,107.5086,31.2186,达州市,市环境监测站,,25,25,19,3,2,40,,109,104,27,21,6,8,0.5,0.7
2024-07-12T2000,2550A,107.4988,31.2132,达州市,凤凰小区,,19,19,12,7,7,51,,119,115,22,21,7,9,0.6,0.8
2024-07-12T2000,2551A,107.5082,31.1986,达州市,达县机关宾馆,,24,24,16,10,6,48,,111,107,27,24,5,6,0.5,0.6
2024-07-12T2000,2552A,107.4644,31.2124,达州市,市政中心,,21,21,28,7,7,56,,122,119,25,26,8,11,0.7,1.1
2024-07-12T2000,2614A,100.1542,25.7054,大理白族自治州,大理市环境监测站,,13,13,7,9,9,32,,35,35,6,4,4,3,0.5,0.5
2024-07-12T2000,2615A,100.2171,25.5811,大理白族自治州,大理古城,,21,21,10,11,6,32,,44,44,9,8,6,6,0.8,0.8
2024-07-12T2000,1109A,121.612,38.9741,大连市,甘井子,细颗粒物(PM2.5),82,70,74,60,52,123,,145,138,28,30,8,9,0.7,0.7
2024-07-12T2000,1110A,121.565,38.9511,大连市,周水子,细颗粒物(PM2.5),84,67,66,62,50,120,,136,128,20,27,15,9,0.8,0.8
2024-07-12T2000,1111A,121.5637,38.8845,大连市,星海三站,细颗粒物(PM2.5),52,49,68,36,52,146,,166,165,9,15,6,8,0.6,0.7
2024-07-12T2000,1112A,121.6302,38.9117,大连市,青泥洼桥,细颗粒物(PM2.5),85,90,63,63,45,150,,158,156,11,18,9,10,0.6,0.6
2024-07-12T2000,1113A,121.6251,38.8638,大连市,傅家庄,细颗粒物(PM2.5),68,53,53,49,47,163,,167,167,8,14,8,10,0.5,0.6
2024-07-12T2000,1114A,121.5213,38.8661,大连市,七贤岭,细颗粒物(PM2.5),82,72,62,60,46,159,,170,170,12,17,7,7,0.6,0.7
2024-07-12T2000,1115A,121.2529,38.8061,大连市,旅顺,臭氧1小时,57,51,53,35,42,165,,179,176,13,19,9,11,0.5,0.6
2024-07-12T2000,1116A,121.7485,39.1311,大连市,金州,细颗粒物(PM2.5),64,50,58,46,51,128,,158,150,17,16,8,8,0.8,0.8
2024-07-12T2000,1117A,121.7811,39.0496,大连市,开发区,细颗粒物(PM2.5),80,76,72,59,52,149,,153,148,16,34,6,7,0.8,0.9
2024-07-12T2000,1118A,121.9762,39.0631,大连市,双D港,细颗粒物(PM2.5),75,,49,55,44,154,,160,160,9,16,6,6,0.8,0.9
2024-07-12T2000,1789A,124.81117,46.03138,大庆市,大同区,颗粒物(PM10),70,89,66,39,57,58,,75,75,30,12,6,6,0.6,0.6
2024-07-12T2000,1790A,125.129,46.533,大庆市,龙凤区,,50,50,62,28,43,92,,85,85,15,14,5,5,0.3,0.4
2024-07-12T2000,1791A,124.902,46.408,大庆市,红岗区,颗粒物(PM10),51,52,48,31,45,90,,105,105,10,11,6,8,0.6,0.6
2024-07-12T2000,1792A,125.153,46.586,大庆市,萨尔图区,颗粒物(PM10),51,51,53,34,44,84,,86,86,16,9,6,5,0.4,0.4
2024-07-12T2000,1793A,124.9042,46.6215,大庆市,让胡路区,细颗粒物(PM2.5),59,60,69,42,44,98,,108,108,15,14,7,6,0.5,0.5
2024-07-12T2000,3481A,125.141,46.634,大庆市,萨区政府监测点,,49,49,56,29,38,92,,92,92,16,14,6,7,0.4,0.4
2024-07-12T2000,1721A,113.3819,40.1097,大同市,果树场,,,,,,,,,,,,,,,,
2024-07-12T2000,1723A,113.2994,40.0758,大同市,云冈宾馆,,32,19,28,19,15,100,,153,141,29,16,6,8,0.5,0.5
2024-07-12T2000,1724A,113.3444,40.0917,大同市,大同大学,,30,,27,11,15,96,,143,132,22,15,8,10,0.6,0.5
2024-07-12T2000,1725A,113.2661,40.1269,大同市,安家小村,,32,11,36,3,10,101,,149,138,12,15,11,13,0.4,0.6
2024-07-12T2000,1726A,113.2711,40.0844,大同市,教育学院,,30,16,32,13,16,96,,152,138,33,21,8,11,0.6,0.7
2024-07-12T2000,3282A,113.3397,40.0597,大同市,大同市卫生学校,,32,21,36,17,20,102,,156,143,30,17,9,11,0.8,0.7
2024-07-12T2000,3565A,113.1367,40.1122,大同市,云冈站,,34,8,28,7,15,108,,144,134,10,12,7,10,0.4,0.4
2024-07-12T2000,3566A,113.1186,40.2556,大同市,图书馆,,36,,22,21,16,113,,155,140,20,12,8,8,0.6,0.5
2024-07-12T2000,3567A,113.5931,40.0461,大同市,区一中,,39,11,35,9,14,123,,160,154,20,17,9,9,0.6,0.5
2024-07-12T2000,3676A,113.2802,40.0995,大同市,第二人民医院,,32,,29,9,15,102,,156,143,27,16,8,11,0.5,0.7
2024-07-12T2000,2269A,124.1069,50.4097,大兴安岭地区,科技局,颗粒物(PM10),57,64,118,35,80,78,,88,88,7,8,8,7,0.4,0.8
2024-07-12T2000,3663A,124.1164,50.4278,大兴安岭地区,红旗社区,细颗粒物(PM2.5),53,44,94,37,94,75,,88,87,6,9,9,8,0.6,0.9
2024-07-12T2000,1600A,124.3303,40.0625,丹东市,江湾东路,细颗粒物(PM2.5),59,48,51,42,42,110,,147,137,19,10,4,5,0.7,0.8
2024-07-12T2000,1601A,124.4256,40.1503,丹东市,临江后街,,40,40,49,25,33,104,,132,129,18,8,9,8,0.8,0.9
2024-07-12T2000,1602A,124.3933,40.1461,丹东市,元宝山,,38,34,53,26,36,95,,119,117,17,15,9,8,0.7,0.9
2024-07-12T2000,1603A,124.3633,40.1092,丹东市,民主桥,,44,44,54,27,34,111,,126,123,9,8,4,4,0.7,0.9
2024-07-12T2000,3541A,109.5726,19.5167,儋州市,第一中学子站,,22,10,15,3,7,68,,70,70,3,4,5,7,0.4,0.5
2024-07-12T2000,3542A,109.5567,19.5187,儋州市,东坡学校子站,,21,13,14,6,8,65,,70,70,2,3,5,6,0.5,0.5
2024-07-12T2000,2616A,98.5842,24.428,德宏傣族景颇族自治州,德宏州监测站,,34,34,14,16,7,32,,40,40,15,11,3,3,0.8,0.6
2024-07-12T2000,3677A,98.5881,24.4368,德宏傣族景颇族自治州,芒市人民政府综合楼,,25,21,14,17,8,32,,40,40,12,11,17,11,0.6,0.5
2024-07-12T2000,1901A,104.4239,31.1208,德阳市,东山公园,,48,32,37,14,16,151,,169,165,9,15,3,3,0.6,0.6
2024-07-12T2000,1902A,104.3826,31.1317,德阳市,西小区,,47,33,33,21,18,150,,166,166,19,23,3,3,0.7,0.8
2024-07-12T2000,1904A,104.3553,31.1091,德阳市,耐火材料厂,臭氧1小时,78,29,39,23,18,182,,185,185,10,22,3,4,0.7,0.8
2024-07-12T2000,3639A,104.4019,31.1244,德阳市,市教育局,臭氧1小时,85,32,35,16,17,188,,180,178,13,23,4,4,0.7,0.7
2024-07-12T2000,1622A,116.3032,37.4674,德州市,儿童乐园,臭氧1小时,80,70,64,44,44,184,,176,176,11,11,8,8,0.8,0.8
2024-07-12T2000,1624A,116.2991,37.4451,德州市,监理站,臭氧1小时,82,66,63,51,45,185,,179,179,15,13,10,10,0.7,0.6
2024-07-12T2000,3066A,116.2721,37.4379,德州市,九衢泉纯净水厂,细颗粒物(PM2.5),64,70,65,46,44,163,,166,166,21,14,6,6,0.9,0.9
2024-07-12T2000,3371A,116.3728,37.4403,德州市,开发区人民医院,,,,68,,41,189,,187,187,,16,12,11,,0.8
2024-07-12T2000,3372A,116.3572,37.4094,德州市,太阳城中学,颗粒物(PM10),63,75,69,44,46,159,,176,176,13,14,8,9,0.8,0.8
2024-07-12T2000,3511A,116.5652,37.3319,德州市,陵城艺术中心,臭氧1小时,73,75,64,44,40,178,,184,184,21,18,8,8,0.8,0.8
2024-07-12T2000,2621A,99.7056,27.8317,迪庆藏族自治州,迪庆州站,,19,19,18,8,9,28,,34,34,10,10,7,7,0.4,0.5
2024-07-12T2000,3180A,99.7136,27.8094,迪庆藏族自治州,质量技术监督局,,13,10,16,9,8,34,,37,36,7,9,6,6,0.4,0.4
2024-07-12T2000,2663A,104.6241,35.5734,定西市,东关小学,,39,39,108,17,33,99,,112,112,9,15,5,7,0.3,0.3
2024-07-12T2000,2664A,104.6194,35.5934,定西市,供电公司,,49,35,102,34,40,115,,125,125,4,22,4,5,0.2,0.3
2024-07-12T2000,1389A,113.7547,23.0494,东莞市,莞城梨川,,25,25,15,11,6,44,,83,77,16,17,8,8,0.7,0.7
2024-07-12T2000,1390A,113.7944,23.0128,东莞市,东城石井,,,24,14,12,5,44,,86,80,,16,,2,0.5,0.6
2024-07-12T2000,1391A,113.7383,22.9658,东莞市,南城西平,,16,16,13,6,4,44,,78,73,13,13,3,2,0.6,0.6
2024-07-12T2000,3319A,113.7338,23.0381,东莞市,万江金泰,,19,19,13,11,6,42,,84,77,12,11,6,6,0.7,0.7
2024-07-12T2000,3626A,113.7533,23.0202,东莞市,南城元岭,,22,22,15,9,5,42,,85,78,14,13,5,5,0.6,0.6
2024-07-12T2000,3627A,113.7875,23.0457,东莞市,东城主山,,18,18,13,9,6,45,,87,80,12,12,5,5,0.6,0.6
2024-07-12T2000,1666A,118.6614,37.4309,东营市,市环保局,臭氧1小时,114,73,76,48,50,228,,246,246,12,22,11,16,0.7,0.7
2024-07-12T2000,3036A,118.6904,37.4338,东营市,开发区管委会,臭氧1小时,114,73,78,51,48,227,,244,242,14,22,9,13,0.4,0.4
2024-07-12T2000,3365A,118.5719,37.565,东营市,垦利区民丰路,臭氧1小时,97,66,74,36,49,197,,252,250,22,23,10,12,0.6,0.7
2024-07-12T2000,3498A,118.5055,37.8612,东营市,河口城区,臭氧1小时,110,83,74,51,49,219,,250,250,8,12,7,8,0.6,0.6
2024-07-12T2000,3646A,118.4978,37.4623,东营市,胜利站,臭氧1小时,109,70,75,41,49,218,,250,249,16,27,7,10,0.9,1.1
2024-07-12T2000,3734A,118.35,37.26,东营市,理想之城,臭氧1小时,108,78,77,46,53,215,,249,248,20,25,11,13,0.7,0.8
2024-07-12T2000,1591A,110.0023,39.8129,鄂尔多斯市,综合楼,颗粒物(PM10),58,66,58,17,20,158,,158,158,25,16,9,13,0.5,0.5
2024-07-12T2000,1592A,109.9486,39.8261,鄂尔多斯市,巴音孟克林场办事处,,44,44,48,17,21,132,,140,139,16,12,5,8,0.5,0.6
2024-07-12T2000,1593A,109.7736,39.5986,鄂尔多斯市,康泽苑,,46,27,43,12,19,147,,154,152,7,9,8,9,0.4,0.5
2024-07-12T2000,1594A,109.8119,39.5989,鄂尔多斯市,华泰汽车城,,33,24,41,12,21,104,,144,138,36,15,9,10,0.5,0.4
2024-07-12T2000,1595A,109.9734,39.7884,鄂尔多斯市,奥林花园,,45,41,47,14,21,144,,144,143,16,14,6,9,0.6,0.6
2024-07-12T2000,2436A,114.8938,30.3994,鄂州市,市政府,,39,39,43,8,13,62,,100,93,8,15,19,10,0.5,0.7
2024-07-12T2000,2437A,114.8989,30.3714,鄂州市,赵家坝,,32,32,39,3,10,54,,99,88,9,14,6,7,0.4,0.6
2024-07-12T2000,3654A,114.8094,30.4089,鄂州市,精准医疗中心,,29,29,32,12,15,47,,112,98,25,22,19,10,0.9,1.1
2024-07-12T2000,2454A,109.4978,30.2981,恩施土家族苗族自治州,湖北民院,,24,24,15,15,9,60,,73,73,10,14,5,6,0.7,0.7
2024-07-12T2000,2455A,109.4707,30.2798,恩施土家族苗族自治州,州电力总公司,,18,15,10,12,9,50,,58,58,12,16,8,7,0.7,0.8
2024-07-12T2000,3549A,109.5061,30.3772,恩施土家族苗族自治州,龙凤新区,,18,18,11,12,7,47,,65,65,11,13,6,7,0.5,0.5
2024-07-12T2000,2499A,108.3411,21.6158,防城港市,沙万,,22,22,19,8,6,44,,54,51,16,16,14,12,0.5,0.5
2024-07-12T2000,2500A,108.3514,21.7731,防城港市,防城档案局,,25,25,15,6,6,42,,45,44,7,7,6,5,0.6,0.5
2024-07-12T2000,2501A,108.3506,21.6414,防城港市,大海花园,,22,22,21,12,8,41,,52,50,14,11,7,7,0.6,0.6
2024-07-12T2000,1371A,113.1294,23.0067,佛山市,湾梁,,22,22,12,10,10,70,,95,91,15,13,6,6,0.6,0.5
2024-07-12T2000,1372A,113.1083,23.0478,佛山市,华材职中,,21,12,9,6,6,66,,91,87,17,15,5,5,0.5,0.4
2024-07-12T2000,1373A,113.144,23.0453,佛山市,南海气象局,,21,17,15,10,8,65,,96,92,17,11,7,8,0.4,0.4
2024-07-12T2000,1374A,113.2881,22.8094,佛山市,顺德苏岗,,30,30,14,17,6,54,,78,78,24,16,6,6,0.6,0.5
2024-07-12T2000,1376A,112.8383,22.8678,佛山市,高明孔堂,,17,17,14,6,4,47,,49,49,7,6,6,6,0.4,0.4
2024-07-12T2000,1377A,112.8836,23.1588,佛山市,三水监测站,,22,22,15,3,7,24,,63,55,30,26,6,6,0.4,0.4
2024-07-12T2000,1378A,112.867,23.185,佛山市,三水云东海,,17,17,14,11,8,28,,64,56,27,22,6,6,0.5,0.4
2024-07-12T2000,3625A,113.2544,22.7642,佛山市,容桂街道办,,20,19,8,14,7,54,,77,74,20,16,6,6,0.6,0.5
2024-07-12T2000,1280A,119.3903,26.0543,福州市,鼓山,,,,,,,,,,,,,,,,
2024-07-12T2000,1282A,119.2681,26.0504,福州市,师大,,36,36,28,10,11,73,,103,95,14,9,4,4,0.2,0.2
2024-07-12T2000,1283A,119.2984,26.1028,福州市,五四北路,,39,39,26,13,13,77,,114,106,13,10,4,3,0.3,0.3
2024-07-12T2000,1284A,119.2648,26.0768,福州市,杨桥西路,,42,42,29,14,12,76,,115,107,14,10,4,4,0.2,0.2
2024-07-12T2000,1285A,119.317,26.0746,福州市,紫阳,,34,34,29,12,13,68,,100,95,13,11,3,3,0.2,0.2
2024-07-12T2000,3048A,119.5799,26.0936,福州市,九龙,,26,24,31,6,12,82,,113,105,4,10,4,6,0.3,0.3
2024-07-12T2000,3526A,119.5189,25.9664,福州市,吴航,,22,22,26,8,11,66,,109,100,5,8,5,5,0.5,0.5
2024-07-12T2000,1755A,123.7977,41.8491,抚顺市,望花区,臭氧1小时,75,64,86,46,51,180,,200,200,20,30,5,5,0.8,1
2024-07-12T2000,1756A,123.9161,41.8822,抚顺市,顺城区,"细颗粒物(PM2.5),臭氧1小时",62,72,66,44,46,169,,206,202,21,31,6,7,1.1,1
2024-07-12T2000,1757A,124.0436,41.8611,抚顺市,东洲区,细颗粒物(PM2.5),60,67,52,43,45,150,,162,162,11,17,7,6,0.7,0.7
2024-07-12T2000,1758A,123.9247,41.8642,抚顺市,新抚区,细颗粒物(PM2.5),62,64,65,44,45,135,,173,170,19,28,4,6,0.9,0.9
2024-07-12T2000,1759A,124.0972,41.8961,抚顺市,大伙房水库,细颗粒物(PM2.5),57,44,57,40,44,152,,155,155,6,16,4,4,0.8,0.8
2024-07-12T2000,1760A,123.7086,41.8391,抚顺市,沈抚新城,细颗粒物(PM2.5),67,68,65,48,55,161,,203,200,22,26,6,8,0.6,0.7
2024-07-12T2000,2376A,116.2127,28.0814,抚州市,桐源党溪,,30,30,33,17,18,64,,91,82,16,8,6,6,0.6,0.4
2024-07-12T2000,2377A,116.3544,27.9831,抚州市,市站,,28,28,26,16,14,68,,83,80,6,5,3,4,0.6,0.6
2024-07-12T2000,2378A,116.3565,27.963,抚州市,血防站,,27,27,27,14,13,63,,82,79,9,7,2,5,0.7,0.7
2024-07-12T2000,2379A,116.3564,28.0007,抚州市,采茶剧团,,26,26,25,17,14,64,,83,80,7,4,5,5,0.9,0.8
2024-07-12T2000,2380A,116.385,27.9647,抚州市,医学分院,,33,33,27,16,13,65,,91,84,10,7,5,8,0.8,0.8
2024-07-12T2000,2207A,121.6094,41.998,阜新市,工业园区,臭氧1小时,75,72,92,36,46,180,,201,198,21,41,16,15,0.8,1
2024-07-12T2000,2208A,121.6697,42.0279,阜新市,长青街,臭氧1小时,65,66,89,32,49,172,,197,192,23,28,13,16,0.8,1
2024-07-12T2000,2209A,121.6673,42.0705,阜新市,农业园区,臭氧1小时,75,57,89,34,56,180,,191,188,15,17,8,19,0.7,0.9
2024-07-12T2000,2210A,121.6717,42.0224,阜新市,东苑,臭氧1小时,54,53,82,32,49,163,,184,180,26,36,16,26,0.8,1
2024-07-12T2000,2211A,121.6506,42.0498,阜新市,玉龙新城,臭氧1小时,80,61,68,31,40,184,,199,197,12,30,10,10,0.6,0.7
2024-07-12T2000,2301A,115.8277,32.8929,阜阳市,市监测站,,20,7,27,6,13,63,,84,72,5,7,4,4,0.7,0.7
2024-07-12T2000,2303A,115.8554,32.8605,阜阳市,开发区,,21,8,24,7,17,66,,84,71,8,9,4,4,0.5,0.5
2024-07-12T2000,2875A,115.784,32.8892,阜阳市,阜阳职业技术学院,,20,,23,6,17,63,,95,75,7,8,6,5,0.6,0.7
2024-07-12T2000,3468A,115.7901,32.8613,阜阳市,市规划展馆,,20,6,31,3,30,62,,87,71,7,10,1,2,0.5,0.6
2024-07-12T2000,3469A,115.836,32.9183,阜阳市,枣园社区,,19,13,33,3,28,58,,83,68,10,10,1,2,0.6,0.6
2024-07-12T2000,2669A,102.9099,34.9841,甘南藏族自治州,州政府,,32,31,38,22,22,87,,95,91,12,13,9,8,0.4,0.4
2024-07-12T2000,3380A,102.8914,34.9617,甘南藏族自治州,甘肃民族师范学院,,32,19,33,17,17,100,,101,101,6,13,4,4,0.3,0.3
2024-07-12T2000,2570A,101.9603,30.0475,甘孜藏族自治州,水桥子,,27,15,18,8,9,86,,100,100,11,18,4,4,0.4,0.4
2024-07-12T2000,3065A,101.9533,29.9972,甘孜藏族自治州,州环保局,,27,20,31,3,6,85,,108,107,21,20,2,2,0.4,0.3
2024-07-12T2000,3414A,115.8347,28.932,赣江新区,桑海产业园,,29,19,27,13,14,92,,116,115,20,24,10,11,0.4,0.4
2024-07-12T2000,2362A,114.9017,25.9149,赣州市,通天岩,,,,,,,,,,,,,,,,
2024-07-12T2000,2363A,114.9367,25.8664,赣州市,地委,,23,17,16,8,8,72,,84,82,7,6,9,10,0.8,0.8
2024-07-12T2000,2364A,114.9461,25.8481,赣州市,气象台,,22,15,15,10,9,69,,81,78,5,9,8,7,0.6,0.6
2024-07-12T2000,2365A,114.9322,25.8333,赣州市,市图书馆,,23,16,14,10,7,71,,87,83,9,6,66,28,0.8,0.9
2024-07-12T2000,2366A,114.8905,25.8471,赣州市,华坚鞋城,,,20,18,9,8,71,,87,82,8,6,,22,0.5,0.6
2024-07-12T2000,3109A,115.0093,25.8613,赣州市,赣县区卫计委,,,,18,6,9,63,,66,64,9,10,7,7,0.7,0.7
2024-07-12T2000,2683A,106.2319,36.1417,固原市,马园,,35,32,109,19,29,111,,130,126,8,19,5,7,0.7,0.7
2024-07-12T2000,2684A,106.2792,36.0022,固原市,监测站,,35,34,93,24,30,72,,132,116,26,17,6,7,0.3,0.3
2024-07-12T2000,2685A,106.2375,36.0211,固原市,新区,,35,35,85,20,26,101,,138,122,14,18,5,6,0.4,0.4
2024-07-12T2000,3522A,106.2177,35.9959,固原市,原州区十五小,,39,39,93,18,28,93,,130,118,12,16,6,8,0.4,0.4
2024-07-12T2000,2543A,106.6308,30.5278,广安市,小平旧居,,,,,,,,,,,,,,,,
2024-07-12T2000,2544A,106.6303,30.4576,广安市,市委,,27,17,20,11,11,86,,97,93,10,12,8,8,0.5,0.5
2024-07-12T2000,2545A,106.6271,30.4663,广安市,友谊中学,,25,18,15,13,10,80,,96,92,16,13,7,7,0.5,0.5
2024-07-12T2000,2547A,106.6388,30.4551,广安市,广电花园,,30,12,22,11,9,94,,104,99,8,10,7,6,0.5,0.5
2024-07-12T2000,2902A,106.6351,30.4865,广安市,北辰小学,,29,,18,20,10,83,,94,92,8,8,8,8,0.3,0.4
2024-07-12T2000,2523A,105.8945,32.4535,广元市,黑石坡,,26,15,12,3,7,82,,96,96,9,9,14,15,0.4,0.5
2024-07-12T2000,2524A,105.821,32.4444,广元市,老城,,19,16,19,3,10,49,,110,104,38,26,7,18,0.6,0.6
2024-07-12T2000,2526A,105.8628,32.4287,广元市,监测站,,24,24,19,7,8,73,,109,106,14,14,6,9,0.5,0.5
2024-07-12T2000,3617A,105.8047,32.4166,广元市,经开区,,,25,27,10,12,50,,108,101,37,26,4,7,,0.7
2024-07-12T2000,1345A,113.2347,23.1423,广州市,广雅中学,,,24,20,11,10,68,,114,111,,19,5,4,,0.5
2024-07-12T2000,1346A,113.2612,23.105,广州市,市五中,,33,33,17,20,8,71,,120,117,19,15,4,3,0.6,0.6
2024-07-12T2000,1348A,113.3478,23.0916,广州市,广东商学院,,27,27,16,18,9,61,,98,95,22,18,4,3,0.5,0.5
2024-07-12T2000,1349A,113.4332,23.1047,广州市,市八十六中,,22,22,17,12,8,30,,80,69,37,27,2,3,0.5,0.5
2024-07-12T2000,1350A,113.3505,22.9483,广州市,番禺中学,,20,20,14,8,7,54,,102,99,22,17,7,7,0.7,0.7
2024-07-12T2000,1351A,113.2146,23.3916,广州市,花都师范,,42,41,21,29,12,61,,94,92,33,24,6,6,0.8,0.6
2024-07-12T2000,1352A,113.2597,23.1331,广州市,市监测站,,28,28,19,15,10,67,,110,108,19,16,4,4,0.8,0.7
2024-07-12T2000,1353A,113.5618,23.312,广州市,九龙镇镇龙,,29,29,21,13,10,49,,112,107,30,22,8,7,0.5,0.5
2024-07-12T2000,1354A,113.2765,23.1544,广州市,麓湖,,31,31,20,15,9,70,,112,109,21,16,3,3,0.6,0.6
2024-07-12T2000,1355A,113.443,23.3035,广州市,帽峰山森林公园,,20,17,12,10,6,62,,110,103,25,17,4,4,0.5,0.5
2024-07-12T2000,2846A,113.3221,23.1322,广州市,体育西,,30,30,20,16,9,54,,102,98,25,18,4,4,0.6,0.5
2024-07-12T2000,3298A,113.5717,23.5491,广州市,从化街口,,38,38,20,20,11,80,,104,104,20,16,5,5,0.7,0.5
2024-07-12T2000,3299A,113.3472,23.3692,广州市,白云竹料,,40,40,25,25,13,55,,84,84,53,25,4,4,0.7,0.5
2024-07-12T2000,3300A,113.2981,23.237,广州市,白云嘉禾,细颗粒物(PM2.5),67,63,24,48,14,52,,98,94,32,26,6,5,0.7,0.7
2024-07-12T2000,3301A,113.4256,23.1716,广州市,黄埔科学城,,23,23,18,9,7,38,,86,79,33,22,8,7,0.6,0.6
2024-07-12T2000,3302A,113.3942,23.0483,广州市,番禺大学城,,18,18,18,10,7,47,,87,84,20,16,5,5,0.6,0.5
2024-07-12T2000,3303A,113.4922,22.8168,广州市,南沙黄阁,,17,17,14,7,8,49,,70,67,12,16,6,5,0.6,0.6
2024-07-12T2000,3304A,113.5342,22.7896,广州市,南沙街,,19,19,12,7,5,44,,63,58,10,13,5,5,0.7,0.5
2024-07-12T2000,3443A,113.2902,23.5544,广州市,花都梯面,,34,34,17,16,8,82,,103,103,18,16,4,4,0.5,0.5
2024-07-12T2000,3445A,113.7858,23.7478,广州市,从化良口,,25,17,13,11,10,77,,80,80,9,12,6,5,0.6,0.5
2024-07-12T2000,3446A,113.8051,23.2614,广州市,增城荔城,,34,34,20,14,9,58,,103,102,26,18,7,6,0.8,0.7
2024-07-12T2000,2505A,109.568,23.1478,贵港市,德智高中,,,,,,,,,,,,,,,,
2024-07-12T2000,2506A,109.6047,23.0666,贵港市,江南子站,,22,22,24,15,16,59,,85,79,12,8,7,8,0.5,0.5
2024-07-12T2000,2507A,109.6014,23.0948,贵港市,贵城子站,,28,28,26,16,18,59,,83,78,14,9,8,8,0.5,0.5
2024-07-12T2000,2508A,109.5669,23.1065,贵港市,荷城子站,,22,22,24,3,7,60,,86,80,9,7,8,9,0.5,0.5
2024-07-12T2000,3405A,109.5886,23.1172,贵港市,新世纪学校,,22,22,24,12,13,63,,85,80,7,6,6,7,0.7,0.6
2024-07-12T2000,1439A,106.6899,26.5998,贵阳市,马鞍山,,20,14,12,3,4,63,,67,67,7,8,4,5,0.3,0.4
2024-07-12T2000,1440A,106.6971,26.5694,贵阳市,市环保站,,20,14,16,14,15,52,,63,63,13,10,4,5,0.3,0.2
2024-07-12T2000,1441A,106.6243,26.6266,贵阳市,鉴湖路,,19,19,15,9,7,55,,63,62,7,6,4,3,0.2,0.4
2024-07-12T2000,1442A,106.7487,26.6343,贵阳市,燕子冲,,19,6,6,3,7,58,,66,66,7,8,5,6,0.5,0.6
2024-07-12T2000,1443A,106.6555,26.4365,贵阳市,碧云窝,,24,24,19,3,1,57,,62,62,8,7,7,5,0.6,0.5
2024-07-12T2000,1444A,106.694,26.5161,贵阳市,中院村,,16,14,20,3,7,51,,57,57,13,11,4,5,0.4,0.4
2024-07-12T2000,1445A,106.7109,26.6027,贵阳市,红边门,,,,21,,16,54,,62,62,14,13,3,5,0.6,0.6
2024-07-12T2000,1446A,106.7164,26.5699,贵阳市,新华路,,,,,,,,,,,,,,,,
2024-07-12T2000,1447A,106.674,26.5424,贵阳市,太慈桥,,19,17,12,9,7,58,,64,64,6,7,8,7,0.4,0.3
2024-07-12T2000,1552A,106.805,26.3003,贵阳市,桐木岭,,,,,,,,,,,,,,,,
2024-07-12T2000,1862A,110.4144,25.3167,桂林市,电子科大尧山校区,,20,20,26,14,13,55,,77,73,5,7,4,8,0.4,0.4
2024-07-12T2000,1863A,110.2819,25.2697,桂林市,监测站,,27,27,20,11,13,69,,69,69,10,7,6,7,0.6,0.6
2024-07-12T2000,1864A,110.3089,25.2708,桂林市,龙隐路小学,,21,21,19,12,12,57,,70,68,10,7,6,5,0.6,0.6
2024-07-12T2000,1865A,110.2869,25.2178,桂林市,八中,,22,18,21,15,10,65,,68,68,8,8,6,8,0.5,0.5
2024-07-12T2000,3403A,110.1764,25.2381,桂林市,创业大厦,,,,18,,12,77,,80,80,,6,6,3,0.4,0.4
2024-07-12T2000,3531A,110.296,25.1253,桂林市,旅游学院,,20,,12,14,12,61,,72,71,8,7,6,6,0.4,0.4
2024-07-12T2000,2674A,100.2561,34.4714,果洛藏族自治州,玛沁县大武镇,,,,19,,10,71,,79,74,,11,12,13,0.4,0.4
2024-07-12T2000,1129A,126.5422,45.755,哈尔滨市,岭北,细颗粒物(PM2.5),59,63,56,42,45,113,,120,120,20,25,8,7,0,0.6
2024-07-12T2000,1130A,126.561,45.8167,哈尔滨市,松北商大,颗粒物(PM10),55,59,62,32,37,98,,104,103,21,26,6,6,0.7,0.7
2024-07-12T2000,1131A,126.979,45.5419,哈尔滨市,阿城会宁,,46,46,78,32,55,80,,102,101,24,28,19,20,0.6,0.8
2024-07-12T2000,1132A,126.599,45.7222,哈尔滨市,南岗学府路,颗粒物(PM10),59,67,78,36,42,100,,116,115,19,21,4,4,0.6,0.6
2024-07-12T2000,1133A,126.689,45.7733,哈尔滨市,太平宏伟公园,颗粒物(PM10),78,106,72,52,44,88,,108,106,32,28,5,6,0.6,0.5
2024-07-12T2000,1134A,126.635,45.7667,哈尔滨市,道外承德广场,颗粒物(PM10),65,79,72,46,37,100,,109,108,24,29,8,8,0.7,0.7
2024-07-12T2000,1135A,126.685,45.7319,哈尔滨市,香坊红旗大街,细颗粒物(PM2.5),65,68,72,47,48,104,,110,110,25,24,5,4,0.8,0.7
2024-07-12T2000,1136A,126.6411,45.7258,哈尔滨市,动力和平路,颗粒物(PM10),62,74,73,42,46,99,,113,112,23,25,6,6,0.6,0.6
2024-07-12T2000,1137A,126.593,45.7478,哈尔滨市,道里建国路,细颗粒物(PM2.5),68,69,62,49,40,105,,112,111,20,24,6,6,0.4,0.4
2024-07-12T2000,1138A,126.615,45.61,哈尔滨市,平房东轻厂,颗粒物(PM10),62,73,80,30,44,80,,119,115,36,39,12,12,0.2,0.4
2024-07-12T2000,1139A,126.595,45.9855,哈尔滨市,呼兰师专,颗粒物(PM10),66,82,61,42,41,93,,108,108,37,31,11,11,0.7,0.6
2024-07-12T2000,1140A,126.6206,45.6842,哈尔滨市,省农科院,颗粒物(PM10),57,63,78,37,56,97,,118,116,25,29,10,9,0.8,0.8
2024-07-12T2000,2688A,93.5128,42.8172,哈密市,地区监测站,,46,46,48,22,12,111,,113,113,26,11,5,3,0.4,0.3
2024-07-12T2000,2689A,93.4961,42.8328,哈密市,哈密师范学校,,32,27,37,8,9,101,,109,105,27,11,5,4,0.4,0.3
2024-07-12T2000,2671A,100.9048,36.9639,海北藏族自治州,海晏县西海镇,,35,26,24,24,20,108,,104,104,10,13,12,13,0.6,0.5
2024-07-12T2000,3867A,102.0738,36.5056,海东市,平安区公安北苑,颗粒物(PM10),61,71,46,35,31,72,,78,78,31,29,26,15,1.1,1.1
2024-07-12T2000,1409A,110.576,19.9507,海口市,东寨港,,,,,,,,,,,,,,,,
2024-07-12T2000,1410A,110.3232,20.0574,海口市,海南大学,,16,16,16,8,7,50,,84,75,10,6,6,6,0.4,0.4
2024-07-12T2000,1411A,110.283,20.0053,海口市,秀英海南医院,,25,25,16,15,10,42,,90,78,17,13,6,7,0.3,0.3
2024-07-12T2000,1412A,110.338,19.9969,海口市,海南师范大学,,18,17,16,12,8,42,,84,77,13,7,6,6,0.5,0.4
2024-07-12T2000,1413A,110.33,20.0356,海口市,龙华路环保局宿舍,,22,22,19,14,7,44,,80,71,12,6,7,7,0.3,0.3
2024-07-12T2000,3539A,110.5111,19.9736,海口市,桂林洋子站,,19,18,15,13,8,37,,64,58,12,7,6,6,0.3,0.3
2024-07-12T2000,2673A,100.6188,36.2866,海南藏族自治州,共和县恰卜恰镇,,29,27,35,10,22,91,,98,98,10,21,14,12,0.6,0.6
2024-07-12T2000,2676A,97.3731,37.3753,海西蒙古族藏族自治州,德令哈市,,30,20,21,7,14,93,,109,97,10,8,7,7,0.5,0.5
2024-07-12T2000,1048A,114.5302,36.6116,邯郸市,东污水处理厂,颗粒物(PM10),53,56,47,22,26,121,,130,130,4,4,1,2,0.5,0.5
2024-07-12T2000,1049A,114.4918,36.5713,邯郸市,矿院,,42,42,46,22,29,120,,132,132,7,6,1,2,0.5,0.4
2024-07-12T2000,1050A,114.484,36.6133,邯郸市,丛台公园,,47,47,47,23,28,126,,133,133,3,5,2,5,0.6,0.5
2024-07-12T2000,3458A,114.7895,36.5593,邯郸市,香泉濮院小区,,,,44,,28,122,,146,146,,4,1,2,,0.4
2024-07-12T2000,3579A,114.50634,36.77178,邯郸市,永年区实验高中,细颗粒物(PM2.5),72,60,59,52,38,119,,133,133,14,5,3,2,0.4,0.5
2024-07-12T2000,3580A,114.20016,36.44293,邯郸市,峰峰矿区临水派出所,,44,44,61,20,35,117,,150,146,1,5,1,4,0.2,0.6
2024-07-12T2000,2634A,106.9893,33.1842,汉中市,汉川机床厂子校,,26,24,19,18,10,68,,89,87,6,6,3,3,0.6,0.5
2024-07-12T2000,2635A,107.0154,33.0706,汉中市,市监测站,,32,26,27,9,10,102,,108,108,8,11,7,7,0.7,0.7
2024-07-12T2000,2636A,107.0089,33.1138,汉中市,鑫源开发区,,26,16,25,16,8,83,,106,104,11,12,8,9,0.6,0.6
2024-07-12T2000,2637A,107.007,33.0323,汉中市,南郑大河坎水厂,,30,24,26,10,11,93,,110,109,10,10,8,8,0.6,0.6
2024-07-12T2000,1223A,120.2072,30.2111,杭州市,滨江,,19,8,40,6,23,59,,71,70,23,20,2,3,0.6,0.7
2024-07-12T2000,1224A,120.0633,30.2747,杭州市,西溪,,10,10,32,6,22,27,,54,51,15,16,6,6,0.6,0.8
2024-07-12T2000,1226A,120.3461,30.3153,杭州市,下沙,,29,25,42,7,21,22,,76,59,58,23,6,6,0.6,0.7
2024-07-12T2000,1227A,120.1269,30.2456,杭州市,卧龙桥,,16,16,35,3,30,21,,50,43,22,17,5,5,0.6,0.8
2024-07-12T2000,1228A,120.1903,30.2692,杭州市,浙江农大,,19,14,30,3,27,58,,66,64,20,19,6,6,0.7,0.8
2024-07-12T2000,1230A,120.1197,30.3119,杭州市,和睦小学,,23,,33,8,22,72,,71,71,19,23,4,5,0.5,0.7
2024-07-12T2000,1231A,120.3019,30.4183,杭州市,临平镇,,49,,36,34,28,46,,77,67,38,17,4,4,0.7,0.7
2024-07-12T2000,1232A,120.2697,30.1819,杭州市,城厢镇,,20,9,41,3,32,64,,99,69,20,20,4,3,0.6,0.8
2024-07-12T2000,1233A,120.0883,30.1808,杭州市,云栖,,8,8,37,3,18,24,,74,52,15,17,6,6,0.7,0.9
2024-07-12T2000,3557A,119.9464,30.0494,杭州市,镇二中,,17,11,37,3,22,37,,104,81,33,19,6,6,0.6,0.8
2024-07-12T2000,3558A,119.7183,30.2367,杭州市,市府大楼,,17,13,25,7,23,53,,80,70,20,16,6,6,0.6,0.8
2024-07-12T2000,3656A,120.1556,30.2864,杭州市,消防大队,,21,10,39,6,27,67,,70,70,18,18,6,6,0.8,1
2024-07-12T2000,1270A,117.1959,31.7848,合肥市,明珠广场,,35,31,38,24,30,42,,56,56,23,22,8,8,0.8,0.7
2024-07-12T2000,1271A,117.3072,31.8764,合肥市,三里街,,35,24,30,24,27,52,,54,54,24,26,5,6,0.9,0.9
2024-07-12T2000,1272A,117.2588,31.8707,合肥市,琥珀山庄,,36,36,38,24,25,57,,63,63,19,18,7,7,1.0,0.9
2024-07-12T2000,1273A,117.1604,31.9052,合肥市,董铺水库,,28,19,33,19,31,61,,67,67,11,13,2,2,0.6,0.7
2024-07-12T2000,1274A,117.25,31.8571,合肥市,长江中路,,,,38,,31,,,63,,,16,,5,,1.0
2024-07-12T2000,1275A,117.266,31.9436,合肥市,庐阳区,,28,19,30,19,26,67,,67,67,16,23,5,4,0.8,0.8
2024-07-12T2000,1276A,117.336,31.8586,合肥市,瑶海区,,26,24,34,18,26,52,,56,56,16,21,8,8,1.0,1.1
2024-07-12T2000,1277A,117.3027,31.7964,合肥市,包河区,,27,27,37,14,27,55,,63,63,13,32,6,6,0.8,0.9
2024-07-12T2000,1278A,117.2776,31.7385,合肥市,滨湖新区,,19,14,30,12,25,60,,65,65,11,12,6,6,0.8,0.9
2024-07-12T2000,1279A,117.1318,31.8403,合肥市,高新区,,19,17,31,13,28,54,,59,59,15,17,8,7,0.8,0.9
2024-07-12T2000,3464A,117.3803,31.9147,合肥市,高教基地,,23,21,28,16,20,57,,56,56,12,11,7,7,0.7,0.7
2024-07-12T2000,3614A,79.924,37.0877,和田地区,地区环保局,颗粒物(PM10),103,156,120,40,29,133,,134,134,4,6,7,7,0.4,0.4
2024-07-12T2000,3615A,79.9131,37.113,和田地区,市环保局,,,147,96,35,30,124,,127,127,5,10,6,7,,0.5
2024-07-12T2000,2516A,108.2011,24.715,河池市,东仁乐园,,19,19,25,7,13,40,,60,58,11,8,4,8,0.7,0.7
2024-07-12T2000,2517A,108.0497,24.6947,河池市,市环保站,,20,17,16,8,12,62,,67,67,7,6,7,9,0.4,0.5
2024-07-12T2000,2518A,108.0983,24.6989,河池市,市疾控中心,,22,21,21,15,13,56,,64,64,14,12,9,9,0.6,0.5
2024-07-12T2000,1696A,114.6778,23.7569,河源市,源西,,,,14,,14,,,45,,,10,,4,,0.5
2024-07-12T2000,1697A,114.6944,23.7586,河源市,东埔,,17,17,12,9,7,52,,74,72,10,11,6,7,0.5,0.5
2024-07-12T2000,1698A,114.6892,23.7233,河源市,老城,,20,20,16,7,7,51,,76,73,8,8,4,4,0.7,0.6
2024-07-12T2000,1718A,115.4208,35.2464,菏泽市,气象局,细颗粒物(PM2.5),62,71,52,44,34,154,,148,148,9,7,2,3,0.5,0.4
2024-07-12T2000,1719A,115.4747,35.2375,菏泽市,市政协,细颗粒物(PM2.5),75,66,43,55,37,153,,150,150,9,6,2,3,0.5,0.3
2024-07-12T2000,3374A,115.5564,35.0891,菏泽市,定陶老年大学,细颗粒物(PM2.5),62,68,46,44,30,144,,147,147,12,7,3,3,0.6,0.6
2024-07-12T2000,3647A,115.4702,35.2706,菏泽市,菏泽医专,颗粒物(PM10),60,69,48,40,29,151,,148,148,11,7,1,3,0.6,0.5
2024-07-12T2000,2514A,111.5264,24.4172,贺州市,环保小区,,41,41,25,19,15,80,,93,93,12,11,8,8,0.6,0.5
2024-07-12T2000,2515A,111.5608,24.4078,贺州市,政协大楼,,43,43,29,28,17,77,,93,92,17,12,7,8,0.6,0.5
2024-07-12T2000,3534A,111.4744,24.4553,贺州市,西湾,,,,33,19,18,60,,95,93,27,16,7,8,0.6,0.5
2024-07-12T2000,2385A,114.17,35.9019,鹤壁市,市监测站,,49,45,46,34,37,116,,131,131,8,10,7,5,0.8,0.8
2024-07-12T2000,2386A,114.2956,35.7511,鹤壁市,市交警支队,,48,39,46,33,32,116,,135,134,11,11,5,4,0.6,0.6
2024-07-12T2000,2387A,114.2878,35.7306,鹤壁市,迎宾馆,细颗粒物(PM2.5),55,,37,39,36,115,,135,135,14,13,3,2,0.5,0.5
2024-07-12T2000,3474A,114.2617,35.6822,鹤壁市,大新区,,34,34,38,12,20,99,,130,128,14,14,1,2,0.3,0.4
2024-07-12T2000,3596A,114.1572,35.9603,鹤壁市,南山宾馆,细颗粒物(PM2.5),53,39,45,37,41,128,,139,139,6,10,8,9,0.8,0.8
2024-07-12T2000,2244A,130.2537,47.3416,鹤岗市,哈啤分公司,,45,45,74,28,60,34,,65,61,11,10,13,14,0.5,0.8
2024-07-12T2000,2245A,130.2684,47.3086,鹤岗市,斯达机电,,34,34,76,21,58,41,,66,64,10,12,13,13,0.3,0.6
2024-07-12T2000,2246A,130.3114,47.3388,鹤岗市,东山纸板厂,,39,28,85,27,71,34,,64,62,12,15,16,17,0.6,0.9
2024-07-12T2000,2247A,130.1097,47.3382,鹤岗市,五号水库,,24,24,61,13,51,45,,74,70,11,7,10,10,0.5,0.7
2024-07-12T2000,2263A,127.4833,50.2524,黑河市,交通局,细颗粒物(PM2.5),85,92,112,63,77,75,,93,91,13,13,7,6,0.8,0.7
2024-07-12T2000,2264A,127.5144,50.2341,黑河市,环保局,细颗粒物(PM2.5),88,85,123,65,89,85,,94,94,8,14,4,7,0.6,0.7
2024-07-12T2000,2265A,127.5291,50.2472,黑河市,大黑河岛,细颗粒物(PM2.5),120,94,115,91,104,,,,,10,14,3,2,,
2024-07-12T2000,1074A,115.6838,37.7541,衡水市,电机北厂,细颗粒物(PM2.5),68,64,70,49,41,154,,160,160,10,7,2,4,0.4,0.4
2024-07-12T2000,1075A,115.6303,37.7316,衡水市,市监测站,颗粒物(PM10),54,57,61,25,39,147,,157,157,10,9,7,7,0.4,0.5
2024-07-12T2000,3188A,115.6683,37.7217,衡水市,市城管局,颗粒物(PM10),60,69,63,32,41,141,,161,160,13,9,3,4,0.4,0.4
2024-07-12T2000,3459A,115.5989,37.5491,衡水市,地表水厂,颗粒物(PM10),62,74,74,32,36,101,,149,140,28,12,8,8,0.5,0.5
2024-07-12T2000,2456A,112.5003,26.9167,衡阳市,原169医院,,23,20,24,15,13,72,,77,77,7,12,5,7,0.7,0.7
2024-07-12T2000,2457A,112.6194,26.9258,衡阳市,衡阳化工总厂,,,27,32,,,73,,88,84,8,10,6,14,0.5,0.5
2024-07-12T2000,2458A,112.6211,26.8956,衡阳市,珠晖区环保局,,,30,27,,,77,,90,87,6,7,5,16,0.6,0.6
2024-07-12T2000,2459A,112.6197,26.8733,衡阳市,市委党校,,36,36,27,23,13,56,,88,82,26,11,5,10,0.5,0.5
2024-07-12T2000,2460A,112.6006,26.8919,衡阳市,市监测站,,28,28,29,16,16,74,,90,85,11,10,6,16,0.7,0.5
2024-07-12T2000,2461A,112.5664,26.9056,衡阳市,真空机电公司,,,29,26,,14,73,,81,80,6,10,6,14,0.6,0.9
2024-07-12T2000,3399A,112.6703,26.882,衡阳市,师范学院,,26,26,25,17,10,62,,89,82,12,8,8,9,0.6,0.6
2024-07-12T2000,2608A,103.3772,23.3993,红河哈尼族彝族自治州,污水处理厂,,20,18,10,14,9,34,,39,38,4,4,4,4,0.4,0.4
2024-07-12T2000,2609A,103.3861,23.35,红河哈尼族彝族自治州,监测站,,12,11,8,8,7,37,,40,39,3,4,3,4,0.3,0.3
2024-07-12T2000,3038A,103.3758,23.368,红河哈尼族彝族自治州,州图书馆,,13,11,9,9,7,34,,37,36,4,3,4,4,0.4,0.3
2024-07-12T2000,1090A,111.6507,40.7517,呼和浩特市,呼市一监,,40,19,31,10,22,125,,139,139,16,13,2,4,0.4,0.4
2024-07-12T2000,1091A,111.6572,40.8033,呼和浩特市,小召,,40,24,34,7,24,125,,126,126,15,19,6,8,0.5,0.6
2024-07-12T2000,1094A,111.7516,40.8369,呼和浩特市,如意水处理厂,,37,23,34,11,20,117,,127,127,15,15,4,4,0.4,0.5
2024-07-12T2000,1095A,111.7276,40.8062,呼和浩特市,二十九中,,40,23,37,9,25,127,,136,136,13,15,3,4,0.5,0.6
2024-07-12T2000,1096A,111.5512,40.7866,呼和浩特市,工大金川校区,,37,37,35,8,23,107,,131,129,26,17,5,6,0.5,0.5
2024-07-12T2000,1097A,111.717,40.7612,呼和浩特市,化肥厂生活区,,37,12,40,10,26,118,,133,132,17,17,8,9,0.6,0.5
2024-07-12T2000,3698A,111.5968,40.8178,呼和浩特市,红旗小学,,37,31,34,10,22,116,,135,135,28,21,5,6,0.4,0.4
2024-07-12T2000,3699A,111.6518,40.8389,呼和浩特市,海东办,,37,27,33,10,23,118,,130,130,21,17,5,6,0.6,0.6
2024-07-12T2000,2192A,119.7594,49.2261,呼伦贝尔市,区环保局,细颗粒物(PM2.5),132,128,111,100,97,86,,114,110,19,14,5,6,0.9,0.9
2024-07-12T2000,3061A,119.7512,49.1577,呼伦贝尔市,国华电力东,细颗粒物(PM2.5),92,80,93,68,90,85,,118,115,7,10,4,4,0.6,0.7
2024-07-12T2000,1250A,120.0751,30.8669,湖州市,城西水厂,,17,8,26,6,17,53,,64,61,32,27,3,3,0.6,0.7
2024-07-12T2000,2873A,120.0875,30.8955,湖州市,仁皇山新区,,17,9,22,6,18,54,,64,60,28,22,5,5,0.8,0.9
2024-07-12T2000,2907A,120.1844,30.8596,湖州市,吴兴区站,,15,12,26,7,24,47,,65,62,25,17,6,6,0.5,0.6
2024-07-12T2000,3562A,120.4148,30.8538,湖州市,南浔区站,,15,8,25,3,24,46,,62,60,20,16,2,3,0.5,0.7
2024-07-12T2000,1607A,120.9092,40.7136,葫芦岛市,龙港区,,46,,59,32,60,136,,153,149,13,12,4,4,0.6,0.7
2024-07-12T2000,1608A,120.8392,40.7514,葫芦岛市,化工街,,48,48,60,27,41,114,,164,147,36,17,13,13,1.1,1.2
2024-07-12T2000,1609A,120.8341,40.7073,葫芦岛市,新区,,50,36,61,35,64,141,,159,155,23,12,3,3,0.7,0.8
2024-07-12T2000,1610A,120.8695,40.7677,葫芦岛市,东城区,细颗粒物(PM2.5),68,,58,49,65,137,,191,172,35,17,8,9,1.0,1
2024-07-12T2000,2482A,109.5981,27.5721,怀化市,林科所,,23,17,16,11,8,72,,92,88,7,6,5,6,0.7,0.8
2024-07-12T2000,2483A,109.9453,27.5444,怀化市,河西地税局,,,21,21,16,12,51,,76,70,,5,4,4,0.5,0.5
2024-07-12T2000,2484A,109.9781,27.5342,怀化市,市四医院,,18,10,27,8,16,55,,72,66,8,9,2,3,0.6,0.5
2024-07-12T2000,2485A,109.9972,27.5578,怀化市,监测楼,,21,21,23,13,13,50,,65,60,5,7,4,4,0.6,0.6
2024-07-12T2000,2486A,110.0394,27.583,怀化市,市委党校,,20,16,20,14,12,53,,66,61,4,6,5,6,0.4,0.5
2024-07-12T2000,1210A,119.036,33.5981,淮安市,钵池山,,45,41,36,31,31,133,,150,149,10,11,4,5,0.9,0.8
2024-07-12T2000,1211A,119.007,33.575,淮安市,北京南路,,46,44,37,32,31,124,,146,145,12,13,6,6,1.0,0.8
2024-07-12T2000,1212A,118.989,33.6067,淮安市,市监测站,细颗粒物(PM2.5),55,46,44,39,37,136,,146,146,12,17,5,6,0.8,0.9
2024-07-12T2000,1213A,119.135,33.5039,淮安市,楚州区监测站,,49,49,44,32,31,114,,141,138,13,14,4,4,0.8,0.7
2024-07-12T2000,1214A,119.0186,33.6297,淮安市,淮阴区监测站,细颗粒物(PM2.5),57,48,45,40,39,134,,151,150,14,18,6,7,0.7,0.8
2024-07-12T2000,3426A,118.8755,33.2894,淮安市,新华书店,,46,38,35,32,29,146,,150,150,17,18,5,6,1.0,0.8
2024-07-12T2000,2282A,116.8004,33.975,淮北市,监测站,颗粒物(PM10),65,79,48,18,35,108,,144,137,4,5,5,6,0.6,0.7
2024-07-12T2000,2283A,116.8091,33.9007,淮北市,烈山区政府,,32,29,48,17,37,101,,147,136,6,7,4,5,0.7,0.8
2024-07-12T2000,3330A,116.8873,33.9836,淮北市,杜集区检察院,,44,44,58,24,48,119,,153,146,2,4,5,5,0.7,0.8
2024-07-12T2000,4017A,116.7923,33.9535,淮北市,市博物馆,,38,36,43,18,37,120,,155,147,2,4,4,4,0.7,0.8
2024-07-12T2000,2277A,116.8305,32.7727,淮南市,潘集区政府,,19,10,19,9,15,58,,84,66,12,7,2,3,0.7,0.4
2024-07-12T2000,2278A,117.0067,32.6524,淮南市,师范学院,,20,18,26,12,19,61,,91,76,10,5,9,9,0.8,0.5
2024-07-12T2000,2279A,116.8569,32.5951,淮南市,谢家集区政府,,20,6,15,3,11,31,,83,52,39,15,7,6,0.4,0.4
2024-07-12T2000,2280A,116.8281,32.633,淮南市,八公山区政府,,25,23,27,17,24,50,,86,64,15,9,4,5,0.7,0.5
2024-07-12T2000,2281A,116.6325,32.6201,淮南市,焦岗湖风景区管理处,,10,,14,3,10,31,,45,36,9,8,3,4,0.4,0.4
2024-07-12T2000,2894A,117.0566,32.6531,淮南市,经济技术开发区消防队,,19,,19,9,12,60,,82,73,13,8,4,4,1.0,0.7
2024-07-12T2000,3329A,117.0108,32.5893,淮南市,山南新区,,24,24,26,6,16,65,,93,77,9,5,5,5,1.0,0.7
2024-07-12T2000,2446A,114.9028,30.4742,黄冈市,职工中心,,22,22,32,14,19,60,,108,99,10,13,8,10,0.4,0.6
2024-07-12T2000,2929A,114.8858,30.4519,黄冈市,红卫路,,24,24,31,14,20,60,,108,99,15,16,8,10,0.4,0.6
2024-07-12T2000,3398A,114.9136,30.4445,黄冈市,市林业局,,19,19,28,13,18,54,,106,98,13,13,6,6,0.4,0.6
2024-07-12T2000,2672A,102.0199,35.5102,黄南藏族自治州,同仁县隆务镇,,35,31,37,24,18,86,,92,90,11,5,8,8,0.4,0.3
2024-07-12T2000,2295A,118.2903,29.6963,黄山市,延安路89号,颗粒物(PM10),55,60,36,15,11,47,,89,78,18,7,7,7,0.7,0.5
2024-07-12T2000,2296A,118.327,29.7178,黄山市,黄山东路89号,,,40,23,15,8,42,,87,76,17,7,,6,0.7,0.4
2024-07-12T2000,2297A,118.1371,30.2756,黄山市,黄山区政府5号楼,,30,30,22,19,12,43,,77,71,8,6,6,6,0.7,0.6
2024-07-12T2000,2423A,115.0601,30.2313,黄石市,沈家营,,30,30,46,8,12,39,,91,73,32,31,18,16,0.6,0.6
2024-07-12T2000,2424A,115.0817,30.2006,黄石市,陈家湾,,45,45,42,3,13,69,,98,82,11,18,17,13,0.4,0.5
2024-07-12T2000,2426A,114.8988,30.2019,黄石市,铁山,,26,26,28,9,12,61,,93,81,10,13,9,9,0.3,0.4
2024-07-12T2000,2427A,115.0307,30.2092,黄石市,团城山,,25,25,34,10,12,58,,92,78,20,13,11,12,0.5,0.5
2024-07-12T2000,3149A,115.0235,30.1578,黄石市,笔架山北路,,38,38,42,3,7,61,,89,79,11,12,9,10,0.4,0.5
2024-07-12T2000,1392A,114.4183,23.0528,惠州市,河南岸金山湖子站,,21,21,17,13,9,51,,66,62,8,10,4,4,0.4,0.4
2024-07-12T2000,1393A,114.4053,23.0822,惠州市,下埔横江三路子站,,26,26,16,12,7,63,,71,69,11,10,6,7,0.5,0.5
2024-07-12T2000,1394A,114.4103,23.1142,惠州市,江北云山西路子站,,24,24,16,3,5,55,,75,70,10,8,3,3,0.5,0.4
2024-07-12T2000,1395A,114.4645,22.7833,惠州市,惠阳区承修路船湖子站,,16,16,9,9,5,47,,53,53,10,9,1,1,0.6,0.5
2024-07-12T2000,1396A,114.5317,22.7422,惠州市,大亚湾管委会子站,,18,8,8,3,4,57,,62,61,6,8,5,5,0.4,0.5
2024-07-12T2000,3314A,114.4338,22.8134,惠州市,惠阳秋长,,19,9,7,8,4,60,,69,68,4,5,4,4,0.5,0.5
2024-07-12T2000,3452A,114.6517,22.775,惠州市,大亚湾霞涌,,18,14,8,11,4,57,,63,63,7,5,4,3,0.4,0.5
2024-07-12T2000,2240A,130.9762,45.3001,鸡西市,环保局,,31,31,40,12,27,49,,64,62,11,8,9,8,0.4,0.5
2024-07-12T2000,2243A,130.9429,45.3039,鸡西市,第一中学,,37,37,46,10,26,53,,75,72,8,8,10,9,0.3,0.4
2024-07-12T2000,3707A,131.0207,45.3073,鸡西市,欧美日汽修厂,,20,20,33,6,22,57,,67,65,4,6,4,4,0.3,0.3
2024-07-12T2000,3709A,130.9967,45.3106,鸡西市,市政设施管理处,,33,33,42,16,21,43,,67,63,11,11,6,6,0.3,0.4
2024-07-12T2000,2367A,114.9754,27.0803,吉安市,红声器材厂,,37,37,36,23,18,83,,110,106,11,11,11,11,0.5,0.5
2024-07-12T2000,2368A,114.9658,27.0999,吉安市,市森林工业局,,37,37,35,24,19,90,,113,109,14,13,12,13,0.4,0.4
2024-07-12T2000,2369A,114.99,27.1312,吉安市,市环境监测站,,31,29,29,19,18,97,,120,116,11,11,13,13,0.5,0.5
2024-07-12T2000,2370A,115.0093,27.0968,吉安市,青原区法院,,33,33,34,16,18,88,,111,106,13,14,17,17,0.5,0.5
2024-07-12T2000,1772A,126.54,43.8622,吉林市,哈达湾,细颗粒物(PM2.5),115,114,98,87,74,134,,160,160,17,27,6,7,1.0,0.9
2024-07-12T2000,1773A,126.5844,43.8358,吉林市,东局子,细颗粒物(PM2.5),128,126,99,97,71,81,,156,145,44,27,9,5,1.1,0.9
2024-07-12T2000,1774A,126.5052,43.8245,吉林市,电力学院,细颗粒物(PM2.5),138,130,90,105,70,90,,140,133,29,27,14,12,1.1,0.8
2024-07-12T2000,1775A,126.6133,43.8972,吉林市,江北,细颗粒物(PM2.5),98,104,104,73,68,88,,150,142,17,21,9,9,1.1,1
2024-07-12T2000,1776A,126.555,43.8306,吉林市,江南公园,细颗粒物(PM2.5),123,112,85,93,67,92,,154,147,41,25,4,4,1.1,1
2024-07-12T2000,1778A,126.7061,43.7133,吉林市,丰满,,,,,,,,,,,,,,,,
2024-07-12T2000,2868A,126.4739,43.953,吉林市,九站,颗粒物(PM10),108,165,123,80,78,102,,152,146,16,38,6,13,1.0,0.9
2024-07-12T2000,1299A,116.9862,36.6114,济南市,科干所,"细颗粒物(PM2.5),臭氧1小时",68,61,60,49,42,174,,178,178,11,13,8,8,0.7,0.6
2024-07-12T2000,1300A,116.9376,36.665,济南市,农科所,"颗粒物(PM10),细颗粒物(PM2.5)",62,73,63,44,34,149,,170,170,24,20,8,8,0.6,0.5
2024-07-12T2000,1301A,117.1265,36.6734,济南市,开发区,臭氧1小时,85,76,62,42,37,188,,198,198,24,19,11,10,0.8,0.7
2024-07-12T2000,1303A,117.0624,36.6868,济南市,省种子仓库,臭氧1小时,82,70,65,41,38,185,,196,196,25,15,6,6,0.6,0.6
2024-07-12T2000,1304A,116.9489,36.6447,济南市,机床二厂,臭氧1小时,79,76,67,39,34,183,,193,193,21,16,9,10,0.5,0.4
2024-07-12T2000,1305A,117.0495,36.663,济南市,市监测站,臭氧1小时,85,68,62,54,42,188,,198,198,24,16,10,10,0.6,0.6
2024-07-12T2000,1306A,116.7675,36.5484,济南市,长清党校,臭氧1小时,89,59,57,49,42,191,,188,188,13,9,10,10,0.7,0.7
2024-07-12T2000,1616A,117.6795,36.229,济南市,技术学院,臭氧1小时,78,73,71,48,50,182,,200,199,21,15,9,11,1.0,1.1
2024-07-12T2000,1961A,117.532,36.6868,济南市,东山小学,臭氧1小时,75,66,66,44,41,180,,215,215,19,21,6,7,0.8,0.8
2024-07-12T2000,3059A,117.7161,36.2049,济南市,泰兴公司,"颗粒物(PM10),细颗粒物(PM2.5)",64,78,73,46,49,151,,191,188,41,32,9,12,0.8,0.9
2024-07-12T2000,3064A,117.6867,36.2171,济南市,莱芜战役纪念馆,"细颗粒物(PM2.5),臭氧1小时",67,73,83,48,46,173,,178,178,24,25,7,11,0.8,0.9
2024-07-12T2000,3494A,117.1673,36.9782,济南市,济阳区政府,颗粒物(PM10),70,90,81,42,42,161,,209,208,20,21,12,7,0.5,0.5
2024-07-12T2000,3495A,117.1171,36.63,济南市,锦屏中学,臭氧1小时,75,68,53,51,39,180,,207,206,17,14,10,10,0.8,0.7
2024-07-12T2000,3682A,116.9814,36.6819,济南市,济南四建,细颗粒物(PM2.5),64,75,58,46,40,166,,179,179,27,15,8,8,0.8,0.7
2024-07-12T2000,1653A,116.6251,35.4302,济宁市,火炬城,细颗粒物(PM2.5),67,70,58,48,40,165,,165,165,11,13,9,10,1.0,0.8
2024-07-12T2000,1655A,116.5491,35.4042,济宁市,电化厂,细颗粒物(PM2.5),73,73,59,53,44,162,,168,168,18,12,6,6,0.8,0.7
2024-07-12T2000,3500A,116.5814,35.3707,济宁市,北湖一中,细颗粒物(PM2.5),77,74,60,56,39,179,,173,173,8,11,6,6,0.9,0.7
2024-07-12T2000,3501A,116.8249,35.5593,济宁市,服务中心,细颗粒物(PM2.5),68,70,66,49,45,165,,190,190,13,15,2,3,0.6,0.6
2024-07-12T2000,3678A,116.5907,35.4054,济宁市,市第七中学,,,76,61,51,40,179,,177,177,13,15,4,5,,0.7
2024-07-12T2000,2255A,130.2751,46.8028,佳木斯市,佳纺,,48,48,35,28,23,32,,87,71,20,13,5,5,0.5,0.5
2024-07-12T2000,2256A,130.3995,46.8307,佳木斯市,发电厂,,42,42,32,19,21,30,,86,69,16,11,16,7,0.5,0.5
2024-07-12T2000,2257A,130.3258,46.7975,佳木斯市,环保局,颗粒物(PM10),54,58,37,24,22,19,,78,60,25,15,9,7,0.6,0.6
2024-07-12T2000,2258A,130.3648,46.8032,佳木斯市,十一中,,35,35,27,19,18,29,,82,67,20,16,8,8,0.4,0.4
2024-07-12T2000,2259A,130.3794,46.7588,佳木斯市,四丰,,28,28,25,19,17,20,,68,53,24,14,1,1,0.7,0.7
2024-07-12T2000,1252A,120.7436,30.778,嘉兴市,清河小学,,,,28,6,14,60,,73,68,23,13,6,6,0.7,1.1
2024-07-12T2000,1253A,120.726,30.7478,嘉兴市,嘉兴学院,,18,11,21,6,18,56,,66,58,19,15,2,2,0.5,0.6
2024-07-12T2000,2872A,120.7846,30.7525,嘉兴市,南湖区残联,,22,10,22,6,17,70,,79,73,23,18,4,4,0.5,0.5
2024-07-12T2000,3407A,120.6916,30.7739,嘉兴市,秀洲住建,,20,10,21,8,15,61,,72,62,22,19,3,3,0.7,0.8
2024-07-12T2000,1945A,98.2908,39.7711,嘉峪关市,气象局,,39,36,40,14,14,124,,132,132,12,13,2,3,0.4,0.4
2024-07-12T2000,2884A,98.2672,39.7978,嘉峪关市,酒钢宾馆,,40,36,47,14,18,128,,136,136,11,14,11,21,0.3,0.4
2024-07-12T2000,3248A,98.2643,39.7724,嘉峪关市,雄关区,,38,36,39,10,15,120,,127,127,12,12,6,8,0.4,0.4
2024-07-12T2000,1383A,113.1064,22.6058,江门市,北街,,17,,13,8,5,54,,70,68,7,8,3,3,0.3,0.3
2024-07-12T2000,1384A,113.0731,22.5835,江门市,西区,,17,13,14,10,5,52,,68,66,8,9,5,5,0.4,0.4
2024-07-12T2000,1385A,113.0219,22.5311,江门市,圭峰西,,16,14,12,9,6,51,,61,60,9,10,4,4,0.2,0.2
2024-07-12T2000,1386A,113.0828,22.5947,江门市,东湖,,17,17,14,10,8,54,,68,67,9,9,4,5,0.3,0.3
2024-07-12T2000,3311A,113.1075,22.5647,江门市,江海富民,,17,13,21,8,10,52,,74,70,9,9,5,5,0.5,0.4
2024-07-12T2000,3449A,113.05,22.4667,江门市,新会银湖,,17,17,12,9,4,46,,57,56,9,12,5,4,0.3,0.3
2024-07-12T2000,1828A,113.227,35.2125,焦作市,市环保局,颗粒物(PM10),51,52,57,23,42,135,,166,166,7,9,3,4,0.4,0.5
2024-07-12T2000,1830A,113.1992,35.2590,焦作市,影视城,,,,,,,,,,,,,,,,
2024-07-12T2000,3169A,113.2725,35.2067,焦作市,太极体育中心,颗粒物(PM10),61,71,63,20,37,124,,159,159,11,12,3,4,0.5,0.7
2024-07-12T2000,3335A,113.3137,35.2641,焦作市,马村街道办,颗粒物(PM10),63,76,56,30,44,107,,151,151,18,13,2,2,0.5,0.6
2024-07-12T2000,3336A,113.2465,35.2373,焦作市,焦作技师学院,,47,47,65,29,42,142,,171,171,13,17,2,3,0.6,0.7
2024-07-12T2000,3477A,113.1656,35.2539,焦作市,中站许衡医院,,39,32,45,22,50,124,,154,154,21,13,4,4,0.6,0.7
2024-07-12T2000,3981A,113.2449,35.1803,焦作市,原李万街道办,,41,41,54,24,39,128,,156,156,10,12,3,4,0.3,0.4
2024-07-12T2000,1708A,116.3701,23.5345,揭阳市,新兴,,32,32,33,10,17,34,,61,51,14,20,4,5,0.7,0.8
2024-07-12T2000,1709A,116.3264,23.5443,揭阳市,西马,,29,29,34,9,12,41,,60,54,7,14,4,3,0.7,0.8
2024-07-12T2000,1710A,116.3611,23.5626,揭阳市,东兴,,23,23,30,10,11,42,,66,58,7,16,2,3,0.8,0.8
2024-07-12T2000,1711A,116.4151,23.5294,揭阳市,渔湖,,32,32,35,11,16,36,,58,48,12,24,3,5,0.7,0.8
2024-07-12T2000,3320A,116.403,23.5699,揭阳市,曲溪,,22,22,23,9,10,36,,64,52,9,14,3,5,0.5,0.6
2024-07-12T2000,1944A,102.1692,38.5167,金昌市,天庆家园,,41,41,45,12,26,115,,118,118,12,17,12,21,0.4,0.6
2024-07-12T2000,3170A,102.1864,38.5253,金昌市,市委党校,,37,22,59,6,32,117,,123,123,15,15,11,27,0.4,0.6
2024-07-12T2000,4022A,102.1647,38.5371,金昌市,金川区人防中心,,44,44,57,10,26,122,,127,127,9,13,9,17,0.5,0.6
2024-07-12T2000,1262A,119.647,29.077,金华市,十五中,,46,46,39,17,19,101,,134,125,22,20,3,3,0.5,0.5
2024-07-12T2000,1263A,119.686,29.1029,金华市,监测站,颗粒物(PM10),52,54,33,26,19,78,,127,114,32,20,2,4,0.5,0.5
2024-07-12T2000,3659A,119.656,29.1131,金华市,气象局,颗粒物(PM10),55,59,38,35,15,81,,125,113,29,24,4,4,0.3,0.4
2024-07-12T2000,1767A,121.1115,41.0879,锦州市,南山,,49,38,63,34,47,134,,181,174,24,16,4,7,0.7,0.9
2024-07-12T2000,1768A,121.0533,40.8434,锦州市,开发区,,49,38,75,34,47,153,,176,170,24,22,10,9,0.9,1
2024-07-12T2000,1769A,121.1836,41.1119,锦州市,百股街道,,45,26,79,22,43,142,,192,185,18,25,8,11,0.9,1
2024-07-12T2000,1770A,121.1178,41.1222,锦州市,天安街道,细颗粒物(PM2.5),52,42,71,36,50,125,,166,159,20,13,5,9,0.9,1.1
2024-07-12T2000,1771A,121.1303,41.1386,锦州市,北湖公园,细颗粒物(PM2.5),84,,75,62,88,140,,175,171,21,22,5,8,0.8,0.9
2024-07-12T2000,2160A,112.85,35.5051,晋城市,自来水公司,臭氧1小时,72,88,77,46,50,177,,187,185,12,16,5,6,0.8,0.9
2024-07-12T2000,2161A,112.8318,35.4936,晋城市,白云商贸,臭氧1小时,73,69,75,41,44,178,,181,180,12,16,5,6,0.8,0.9
2024-07-12T2000,2162A,112.8508,35.4887,晋城市,市环保局,颗粒物(PM10),66,81,81,41,48,172,,182,180,16,17,5,6,0.8,0.9
2024-07-12T2000,2163A,112.8676,35.4897,晋城市,技术学院,臭氧1小时,68,84,66,44,48,174,,183,180,16,19,6,6,0.9,1
2024-07-12T2000,2165A,112.8453,35.546,晋城市,白马寺,,,,,,,,,,,,,,,,
2024-07-12T2000,3620A,112.8271,35.4828,晋城市,泽州一中,细颗粒物(PM2.5),73,77,66,53,55,171,,178,176,15,16,7,9,0.8,0.9
2024-07-12T2000,2171A,112.7532,37.6945,晋中市,锦纶小区,,50,41,49,19,26,159,,199,195,10,18,6,11,0.6,0.7
2024-07-12T2000,2173A,112.7249,37.7067,晋中市,南都小区,颗粒物(PM10),54,57,49,37,29,161,,203,200,10,15,6,11,0.5,0.6
2024-07-12T2000,2174A,112.6991,37.6982,晋中市,榆次区政府,颗粒物(PM10),52,53,49,33,33,158,,201,197,12,18,6,12,0.5,0.6
2024-07-12T2000,2865A,112.7195,37.6828,晋中市,榆次三中,臭氧1小时,78,66,51,17,21,182,,201,200,19,18,7,12,0.6,0.8
2024-07-12T2000,2439A,112.2014,31.0481,荆门市,竹园小学,颗粒物(PM10),51,52,36,26,24,99,,106,106,17,11,8,9,0.7,0.7
2024-07-12T2000,2440A,112.1969,30.9891,荆门市,掇刀,,45,45,37,28,29,98,,118,118,17,12,8,7,0.8,0.8
2024-07-12T2000,2441A,112.2213,31.0386,荆门市,石化一小,,36,33,43,25,27,101,,113,113,20,12,22,12,0.7,0.7
2024-07-12T2000,3012A,112.1849,31.0362,荆门市,西山林语,,46,36,34,32,30,101,,110,110,11,6,7,7,0.8,0.9
2024-07-12T2000,3547A,112.1632,31.0138,荆门市,龙泉中学南校,,,26,28,20,20,100,,109,109,,11,8,8,0.8,0.8
2024-07-12T2000,1844A,112.2494,30.3197,荆州市,市图书馆,细颗粒物(PM2.5),60,,33,43,28,100,,114,114,10,12,6,6,0.9,0.8
2024-07-12T2000,1845A,112.2008,30.3544,荆州市,市委党校,细颗粒物(PM2.5),67,,42,48,29,105,,110,110,8,12,5,6,0.8,0.8
2024-07-12T2000,3194A,112.2747,30.3122,荆州市,管委会,细颗粒物(PM2.5),57,48,34,40,25,96,,113,113,11,12,4,4,0.7,0.6
2024-07-12T2000,3548A,112.1655,30.3364,荆州市,学苑路,细颗粒物(PM2.5),60,50,37,43,33,108,,108,108,10,13,6,6,0.8,0.7
2024-07-12T2000,2342A,117.3102,29.3867,景德镇市,王港中学,,,,,,,,,,,,,,,,
2024-07-12T2000,2343A,117.2117,29.2933,景德镇市,老干部活动中心,,39,38,20,27,12,48,,88,81,14,12,8,9,0.3,0.3
2024-07-12T2000,2344A,117.1894,29.2789,景德镇市,兽医站,,41,41,22,20,12,59,,93,86,14,9,7,9,0.6,0.5
2024-07-12T2000,2345A,117.1547,29.2617,景德镇市,台达陶瓷,,31,31,22,14,13,52,,71,67,18,13,25,17,0.4,0.3
2024-07-12T2000,2346A,117.2461,29.2956,景德镇市,陶研所,,38,38,20,17,8,39,,83,72,12,7,8,7,0.4,0.3
2024-07-12T2000,1803A,115.9872,29.6815,九江市,十里,,28,28,30,15,17,71,,93,87,15,19,22,18,0.5,0.6
2024-07-12T2000,1804A,115.9584,29.7046,九江市,茅山头,,24,19,27,3,15,75,,110,101,16,22,9,11,0.5,0.5
2024-07-12T2000,1805A,115.9877,29.7295,九江市,西园,,25,20,22,17,13,62,,93,87,18,29,11,11,0.7,0.8
2024-07-12T2000,1806A,116.0172,29.6547,九江市,五七二七厂,,35,24,19,24,15,66,,80,76,14,15,13,10,0.1,0.3
2024-07-12T2000,1808A,115.9114,29.6038,九江市,综合工业园,,25,25,27,11,17,60,,105,95,42,27,17,9,0.5,0.9
2024-07-12T2000,1809A,116.0721,29.7535,九江市,石化总厂,,24,24,29,7,17,72,,112,106,11,17,9,11,0.6,0.7
2024-07-12T2000,1810A,115.9773,29.5698,九江市,庐山气象台,,36,,25,25,15,114,,88,88,2,2,6,9,1.0,0.9
2024-07-12T2000,3190A,116.0254,29.6994,九江市,外国语学校,,25,17,25,17,18,74,,113,104,19,20,12,17,0.5,0.6
2024-07-12T2000,2658A,98.5061,39.7443,酒泉市,仓门街子站,,44,44,54,20,21,125,,132,131,6,14,24,18,0.3,0.3
2024-07-12T2000,2659A,98.4989,39.7256,酒泉市,油田生活基地,,46,46,53,18,20,125,,138,136,10,16,5,13,0.2,0.2
2024-07-12T2000,2698A,76.0072,39.4467,喀什地区,巡警大队,颗粒物(PM10),66,82,115,17,23,161,,156,156,8,13,3,3,0.1,0.2
2024-07-12T2000,2699A,75.9755,39.4694,喀什地区,吾办,细颗粒物(PM2.5),77,90,116,56,33,155,,150,150,11,14,2,2,0.2,0.2
2024-07-12T2000,4027A,75.9483,39.4689,喀什地区,老干局,颗粒物(PM10),68,85,129,12,20,162,,155,155,8,15,2,2,0.1,0.2
2024-07-12T2000,1824A,114.3389,34.7781,开封市,肿瘤医院,,31,25,32,9,16,97,,110,107,3,5,3,3,0.6,0.6
2024-07-12T2000,1826A,114.2885,34.7965,开封市,世纪星幼儿园,,32,27,32,6,11,100,,118,115,3,4,3,2,0.5,0.5
2024-07-12T2000,3147A,114.3438,34.8106,开封市,龙亭公园,,32,21,30,12,17,100,,113,110,5,6,2,2,0.5,0.5
2024-07-12T2000,3210A,114.3644,34.7964,开封市,汴京公园,,,,,,,,,,,,,,,,
2024-07-12T2000,3473A,114.2485,34.8306,开封市,技师学院,,32,27,34,9,17,100,,121,118,5,5,4,4,0.8,0.8
2024-07-12T2000,3592A,114.4644,34.7556,开封市,祥符区生态环境局,,25,25,29,12,17,75,,102,97,30,12,2,2,0.7,0.6
2024-07-12T2000,1951A,84.895,45.6094,克拉玛依市,长征新村,,41,21,16,3,5,129,,114,114,8,5,10,9,0.2,0.1
2024-07-12T2000,1952A,84.8988,45.5893,克拉玛依市,南林小区,,38,18,16,12,9,119,,113,113,16,8,6,6,0.3,0.2
2024-07-12T2000,1954A,84.905,44.3396,克拉玛依市,独山子区,,40,16,25,6,7,127,,132,132,6,12,5,9,0.4,0.4
2024-07-12T2000,1955A,85.6979,46.098,克拉玛依市,乌尔禾区商贸楼,,35,,14,7,7,112,,108,108,4,4,7,4,0.2,0.4
2024-07-12T2000,3612A,85.1045,45.6899,克拉玛依市,白碱滩区新站,,41,25,18,9,13,131,,120,120,5,4,7,6,0.1,0.1
2024-07-12T2000,2697A,76.1454,39.7142,克孜勒苏柯尔克孜自治州,市人民政府,颗粒物(PM10),62,74,81,24,34,168,,162,162,3,9,8,8,0.4,0.4
2024-07-12T2000,3665A,76.1658,39.7157,克孜勒苏柯尔克孜自治州,克州文化中心,颗粒物(PM10),55,59,64,23,24,162,,156,156,4,6,12,11,0.4,0.4
2024-07-12T2000,1450A,102.8204,24.8886,昆明市,呈贡新区,,20,20,17,9,7,44,,57,57,8,9,4,7,0.5,0.6
2024-07-12T2000,1451A,102.6251,24.9608,昆明市,西山森林公园,,,,,,,,,,,,,,,,
2024-07-12T2000,1452A,102.7252,25.0902,昆明市,龙泉镇,,26,26,12,14,8,17,,54,52,18,18,6,6,0.6,0.5
2024-07-12T2000,1453A,102.7266,25.0375,昆明市,东风东路,,15,15,13,3,13,24,,47,46,19,13,3,2,0.4,0.4
2024-07-12T2000,1454A,102.6742,25.0669,昆明市,金鼎山,,23,23,17,6,5,24,,54,52,22,12,10,11,0.6,0.4
2024-07-12T2000,1455A,102.6644,25.0401,昆明市,碧鸡广场,,15,15,13,8,6,24,,52,50,21,13,2,3,0.5,0.4
2024-07-12T2000,3179A,102.7494,25.0119,昆明市,官渡区博物馆,,10,10,11,3,4,29,,54,54,12,8,5,6,0.4,0.4
2024-07-12T2000,3375A,102.8017,24.8336,昆明市,青年创业园,,11,6,11,3,6,34,,53,52,9,8,7,8,0.4,0.5
2024-07-12T2000,3550A,102.7997,24.9786,昆明市,昆明学院,,13,9,12,3,6,39,,56,55,10,8,4,4,0.4,0.4
2024-07-12T2000,3551A,102.5967,24.6736,昆明市,晋宁区生态环境分局,,13,11,13,3,5,40,,47,47,16,15,6,6,0.4,0.4
2024-07-12T2000,3552A,102.6678,24.9856,昆明市,云天化总部,,11,11,12,6,7,31,,47,46,8,8,1,2,0.6,0.5
2024-07-12T2000,1456A,91.1319,29.6514,拉萨市,八廓街,颗粒物(PM10),57,63,11,6,6,66,,76,76,13,13,7,6,0.2,0.3
2024-07-12T2000,1457A,91.1221,29.6747,拉萨市,市环保局,,22,6,9,3,6,69,,73,73,11,13,8,9,0.3,0.2
2024-07-12T2000,1458A,91.0874,29.6475,拉萨市,区监测站,,22,,8,7,6,70,,73,73,10,12,7,7,0.2,0.3
2024-07-12T2000,1459A,91.1774,29.6541,拉萨市,西藏大学,,21,9,7,3,5,67,,76,76,8,7,9,8,0.2,0.2
2024-07-12T2000,1460A,90.9798,29.6588,拉萨市,区辐射站,,20,12,9,3,6,64,,68,68,16,9,7,7,0.3,0.2
2024-07-12T2000,1461A,91.0834,29.6292,拉萨市,拉萨火车站,,23,8,8,3,5,71,,71,71,7,10,9,8,0.2,0.2
2024-07-12T2000,2520A,109.2203,23.7256,来宾市,来宾技工学校,,26,26,27,17,15,68,,88,87,6,6,6,6,0.7,0.6
2024-07-12T2000,3535A,109.1781,23.7297,来宾市,兴宾区政府,,22,20,23,10,14,69,,88,87,9,9,5,5,0.8,0.8
2024-07-12T2000,4002A,109.2416,23.7461,来宾市,中南小学,,26,19,28,18,14,70,,88,87,8,8,7,9,0.7,0.7
2024-07-12T2000,1476A,103.631,36.1031,兰州市,兰炼宾馆,颗粒物(PM10),60,69,83,32,36,103,,115,115,33,22,9,18,0.4,0.4
2024-07-12T2000,1477A,104.1373,35.9454,兰州市,榆中兰大校区,,,,,,,,,,,,,,,,
2024-07-12T2000,1478A,103.8412,36.0726,兰州市,生物制品所,颗粒物(PM10),54,57,87,37,39,92,,113,112,21,26,10,13,0.4,0.5
2024-07-12T2000,1479A,103.831,36.0464,兰州市,铁路设计院,颗粒物(PM10),56,61,91,35,36,91,,106,105,38,40,6,10,0.6,0.6
2024-07-12T2000,3186A,103.7158,36.1058,兰州市,教育港,,,,97,35,37,103,,132,129,22,28,10,16,0.4,0.5
2024-07-12T2000,3241A,103.7439,36.0842,兰州市,百合公园,颗粒物(PM10),55,59,80,33,36,99,,112,110,23,31,4,8,0.5,0.6
2024-07-12T2000,3242A,103.9611,35.998,兰州市,和平,颗粒物(PM10),59,67,102,35,41,65,,80,70,23,16,7,7,0.5,0.4
2024-07-12T2000,3245A,103.6633,36.533,兰州新区,新区管委会,颗粒物(PM10),59,67,69,38,31,100,,138,130,25,16,11,16,0.5,0.5
2024-07-12T2000,3246A,103.6975,36.4789,兰州新区,舟曲中学,颗粒物(PM10),67,84,117,39,44,113,,127,124,19,13,6,14,0.5,0.4
2024-07-12T2000,1067A,116.6708,39.5111,廊坊市,药材公司,,33,32,81,15,45,105,,152,140,21,19,3,3,0.5,0.6
2024-07-12T2000,1068A,116.7214,39.5589,廊坊市,开发区,,31,22,80,9,49,98,,156,134,16,18,3,2,0.4,0.5
2024-07-12T2000,1070A,116.7244,39.5269,廊坊市,北华航天学院,,33,33,92,13,44,92,,150,134,21,19,3,3,0.5,0.6
2024-07-12T2000,2919A,116.7022,39.5453,廊坊市,河北工业大学,,31,30,87,11,45,98,,151,136,19,17,3,2,0.4,0.5
2024-07-12T2000,2535A,103.7723,29.5462,乐山市,花湖湾,,28,,15,9,14,88,,102,100,15,14,3,4,0.3,0.5
2024-07-12T2000,2536A,103.7627,29.5844,乐山市,牛耳桥,,25,17,25,9,16,80,,112,108,19,21,3,3,0.5,0.6
2024-07-12T2000,2537A,103.7508,29.6006,乐山市,市第三水厂,,30,19,27,9,17,93,,115,112,13,21,2,4,0.5,0.6
2024-07-12T2000,2538A,103.7571,29.5664,乐山市,市监测站,,30,17,28,11,15,94,,118,115,11,16,3,6,0.4,0.6
2024-07-12T2000,3361A,103.7311,29.5628,乐山市,理工大学,,28,16,22,9,14,89,,127,122,9,13,4,7,0.5,0.6
2024-07-12T2000,2598A,100.2143,26.8576,丽江市,西南郊,,,,,,,,,,,,,,,,
2024-07-12T2000,2599A,100.2497,26.8802,丽江市,丽江古城,,,17,14,10,10,21,,34,34,17,11,7,6,,0.8
2024-07-12T2000,2600A,100.2203,26.8906,丽江市,市中心,,15,,6,10,8,16,,34,32,14,7,10,10,0.5,0.4
2024-07-12T2000,1267A,119.914,28.4514,丽水市,监测站大楼,,22,14,25,8,10,68,,96,88,9,15,2,3,0.5,0.5
2024-07-12T2000,1268A,119.93,28.4586,丽水市,莲都小学,,24,23,29,7,12,74,,103,94,9,16,4,3,0.5,0.5
2024-07-12T2000,1269A,119.879,28.4231,丽水市,余庄前,,20,20,23,9,13,38,,81,74,10,9,2,2,0.5,0.6
2024-07-12T2000,1173A,119.176,34.5885,连云港市,市环境监测站,细颗粒物(PM2.5),73,58,71,53,68,144,,172,172,15,12,5,5,0.7,0.7
2024-07-12T2000,3000A,119.3581,34.6972,连云港市,德源药业,细颗粒物(PM2.5),58,51,74,41,60,136,,173,172,14,18,3,2,0.6,0.7
2024-07-12T2000,3007A,119.178,34.844,连云港市,新城一中,"颗粒物(PM10),臭氧1小时",55,59,82,36,48,164,,194,192,23,15,5,4,0.7,0.9
2024-07-12T2000,3008A,119.3608,34.7519,连云港市,胡沟管理处,细颗粒物(PM2.5),64,58,73,46,61,150,,161,161,14,18,6,5,0.7,0.8
2024-07-12T2000,3009A,119.1478,34.5911,连云港市,矿山设计院,细颗粒物(PM2.5),70,63,73,51,61,142,,160,160,11,8,4,3,0.6,0.6
2024-07-12T2000,3434A,119.2413,34.6539,连云港市,工贸学校,,50,39,59,35,49,147,,178,178,13,9,6,6,0.8,1
2024-07-12T2000,3664A,119.4172,34.7341,连云港市,连云街道,,50,44,69,29,47,157,,190,188,4,20,5,6,0.5,0.7
2024-07-12T2000,2571A,102.3431,27.8099,凉山彝族自治州,青龙寺,,20,11,12,3,5,64,,91,91,4,4,5,4,0.6,0.5
2024-07-12T2000,2572A,102.2721,27.8415,凉山彝族自治州,邛海宾馆,,25,24,13,17,8,72,,102,102,17,9,15,12,1.1,0.7
2024-07-12T2000,2573A,102.2625,27.898,凉山彝族自治州,西昌市政府,,32,16,14,8,9,100,,103,103,11,11,11,11,1.0,0.7
2024-07-12T2000,2574A,102.2685,27.8851,凉山彝族自治州,凉山州政府,,34,29,19,14,9,108,,104,104,8,10,11,11,1.0,0.7
2024-07-12T2000,2575A,102.237,27.8914,凉山彝族自治州,长安,,20,20,14,12,9,62,,104,104,18,13,11,14,0.9,0.7
2024-07-12T2000,2212A,123.2,41.1953,辽阳市,宏伟区,颗粒物(PM10),61,71,76,29,40,133,,201,196,26,21,10,10,1.0,1.2
2024-07-12T2000,2213A,123.1683,41.2495,辽阳市,新华园,细颗粒物(PM2.5),59,63,77,42,46,157,,211,205,24,28,11,13,1.5,1.4
2024-07-12T2000,2214A,123.2354,41.2639,辽阳市,滨河路,颗粒物(PM10),57,64,71,39,43,141,,204,199,22,23,8,8,1.0,1.2
2024-07-12T2000,2215A,123.149,41.2991,辽阳市,铁西工业园,颗粒物(PM10),66,81,89,40,44,144,,176,176,20,31,9,10,0.9,1.5
2024-07-12T2000,2227A,125.1358,42.8845,辽源市,环保局,细颗粒物(PM2.5),57,50,56,40,42,134,,166,161,10,21,7,8,0.9,0.9
2024-07-12T2000,3239A,125.0764,42.9078,辽源市,银鹰制药,细颗粒物(PM2.5),60,48,57,43,42,129,,162,157,15,24,13,7,1.1,1.1
2024-07-12T2000,1625A,115.9848,36.4372,聊城市,区政府,细颗粒物(PM2.5),63,64,63,45,40,166,,173,173,18,14,9,9,0.6,0.6
2024-07-12T2000,2878A,116.0072,36.4343,聊城市,聊大东校,臭氧1小时,60,50,51,40,44,168,,181,181,16,13,6,8,0.6,0.6
2024-07-12T2000,3200A,115.9819,36.4978,聊城市,监控中心,臭氧1小时,68,57,59,39,39,174,,175,175,14,8,6,9,0.6,0.6
2024-07-12T2000,3513A,116.0445,36.4361,聊城市,九州社区,"颗粒物(PM10),细颗粒物(PM2.5)",57,63,69,40,42,147,,164,164,23,16,7,12,0.6,0.6
2024-07-12T2000,4018A,116.0567,36.4608,聊城市,星美广场,颗粒物(PM10),60,69,71,41,40,133,,167,164,46,16,8,8,0.5,0.8
2024-07-12T2000,2632A,94.3681,29.6376,林芝市,林芝监测站,,16,,6,3,4,51,,50,50,2,2,8,8,0.3,0.4
2024-07-12T2000,2633A,94.3616,29.6616,林芝市,林芝人民医院,,,10,7,3,4,51,,50,50,3,5,9,9,,0.1
2024-07-12T2000,2603A,100.0781,23.8982,临沧市,市环保局,,29,,14,20,16,28,,35,35,10,10,4,4,0.2,0.2
2024-07-12T2000,2604A,100.0894,23.8822,临沧市,市气象局,,14,14,16,3,6,30,,37,37,7,10,4,4,0.3,0.3
2024-07-12T2000,1733A,111.5531,36.0783,临汾市,临钢医院,颗粒物(PM10),62,74,53,28,23,162,,198,197,13,15,5,6,0.9,0.8
2024-07-12T2000,1734A,111.5028,36.0714,临汾市,技工学校,颗粒物(PM10),59,68,48,28,23,166,,209,207,14,17,7,6,1.0,0.8
2024-07-12T2000,1736A,111.5018,36.0855,临汾市,市委,臭氧1小时,70,77,64,31,25,176,,222,220,10,12,7,6,1.3,1.2
2024-07-12T2000,3018A,111.505,36.1014,临汾市,唐尧大酒店,,,,68,,24,164,,206,204,,11,6,6,0.9,0.8
2024-07-12T2000,3668A,111.5036,36.0414,临汾市,城南,颗粒物(PM10),61,71,51,32,23,164,,214,212,10,13,6,6,1.0,0.9
2024-07-12T2000,2667A,103.2069,35.5993,临夏回族自治州,环保局,颗粒物(PM10),63,75,52,36,28,86,,104,101,9,9,9,7,0.5,0.4
2024-07-12T2000,2668A,103.2417,35.6057,临夏回族自治州,建设大厦,颗粒物(PM10),66,81,46,44,24,91,,106,104,10,8,12,11,0.4,0.3
2024-07-12T2000,1618A,118.3429,35.0532,临沂市,沂河小区,细颗粒物(PM2.5),67,68,81,48,57,172,,185,184,15,21,8,12,0.7,0.7
2024-07-12T2000,1619A,118.295,35.0583,临沂市,鲁南制药厂,臭氧1小时,73,63,84,39,52,178,,192,191,14,15,9,12,0.7,0.8
2024-07-12T2000,1620A,118.2794,34.9976,临沂市,新光毛纺厂,颗粒物(PM10),57,63,76,39,52,163,,184,182,10,15,4,10,0.8,0.9
2024-07-12T2000,1621A,118.3956,35.0888,临沂市,河东保险公司,细颗粒物(PM2.5),78,70,81,57,64,154,,182,178,15,13,4,8,0.6,0.7
2024-07-12T2000,3370A,118.3564,35.0215,临沂市,十里堡居委,细颗粒物(PM2.5),79,70,75,58,62,163,,182,180,14,20,10,12,1.0,0.9
2024-07-12T2000,3496A,118.3604,35.1084,临沂市,南坊新区,细颗粒物(PM2.5),73,70,78,53,58,170,,195,191,20,19,6,10,0.9,1
2024-07-12T2000,3860A,118.3920,35.0300,临沂市,皇山花园小区,细颗粒物(PM2.5),68,61,82,49,60,162,,177,175,17,24,7,12,0.9,1
2024-07-12T2000,1870A,109.4856,24.3895,柳州市,柳东小学,,28,26,28,15,15,88,,88,88,10,13,7,8,0.5,0.6
2024-07-12T2000,1871A,109.4157,24.3277,柳州市,环保监测站,,,36,29,31,18,87,,88,88,9,8,8,7,,0.6
2024-07-12T2000,1872A,109.389,24.341,柳州市,河西水厂,,27,22,27,14,16,85,,88,88,8,7,7,7,0.4,0.4
2024-07-12T2000,1873A,109.4311,24.2921,柳州市,市四中,,31,31,27,14,14,89,,93,93,8,10,6,6,0.4,0.4
2024-07-12T2000,1874A,109.4006,24.3631,柳州市,市九中,,39,39,34,11,16,90,,90,90,11,10,5,5,0.5,0.5
2024-07-12T2000,1875A,109.4958,24.3134,柳州市,古亭山,,,35,31,17,17,86,,88,88,11,12,6,7,,0.5
2024-07-12T2000,3402A,109.5422,24.3996,柳州市,市二中,,28,23,27,10,14,89,,87,87,10,11,9,9,0.5,0.5
2024-07-12T2000,2307A,116.5079,31.737,六安市,监测大楼,,13,,12,8,19,40,,74,40,9,6,5,4,0.5,0.8
2024-07-12T2000,2308A,116.4738,31.7643,六安市,皖西学院,,15,,18,3,17,45,,68,43,7,8,4,4,0.3,0.6
2024-07-12T2000,2309A,116.4996,31.7905,六安市,朝阳厂,,14,8,14,3,14,44,,68,40,5,7,7,8,0.4,0.7
2024-07-12T2000,2310A,116.5567,31.7886,六安市,开发区,,15,,11,10,15,33,,67,38,9,7,6,5,0.5,0.7
2024-07-12T2000,2576A,104.8,26.5892,六盘水市,窑上,,,,,,,,,,,,,,,,
2024-07-12T2000,2577A,104.83,26.5917,六盘水市,黄土坡,,22,18,13,8,10,68,,71,71,8,8,5,5,0.1,0.3
2024-07-12T2000,2578A,104.89,26.5939,六盘水市,水钢,,26,26,19,3,7,73,,76,76,4,4,10,9,0.2,0.2
2024-07-12T2000,2579A,104.8475,26.5894,六盘水市,民中,,22,19,14,12,6,70,,73,73,7,7,6,6,0.3,0.2
2024-07-12T2000,2580A,104.9544,26.5506,六盘水市,双水,,22,19,13,3,8,70,,73,73,7,4,6,6,0.2,0.2
2024-07-12T2000,2335A,117.0189,25.1181,龙岩市,龙岩师专,,,,,,,,,,,,,,,,
2024-07-12T2000,2336A,117.0217,25.1033,龙岩市,龙岩市监测站,,15,15,11,10,8,22,,51,45,19,10,12,6,0.6,0.3
2024-07-12T2000,2337A,117.0258,25.0661,龙岩市,闽西职业技术学院,,18,15,14,12,5,42,,54,52,6,6,3,8,0.3,0.3
2024-07-12T2000,2338A,117.0196,25.0306,龙岩市,龙岩学院,,23,16,9,16,4,37,,54,52,5,3,3,5,0.3,0.2
2024-07-12T2000,2665A,105.0822,33.3261,陇南市,汉王镇固水子,,,,,,,,,,,,,,,,
2024-07-12T2000,2885A,104.9339,33.3826,陇南市,滨江中学,,41,41,33,21,11,76,,105,102,5,11,2,4,0.4,0.3
2024-07-12T2000,3247A,104.955,33.371,陇南市,市总工会,,27,26,28,8,10,84,,107,104,2,8,3,3,0.4,0.4
2024-07-12T2000,2487A,111.9589,27.8901,娄底市,电视发射台,,34,34,28,18,15,55,,87,83,5,6,6,6,0.8,0.8
2024-07-12T2000,2488A,111.9975,27.725,娄底市,市监测站,,23,12,28,3,19,73,,86,85,6,7,7,9,0.5,0.5
2024-07-12T2000,2489A,112.0194,27.7314,娄底市,市委党校,,25,25,29,17,19,66,,79,77,11,11,8,9,0.6,0.6
2024-07-12T2000,2490A,111.9561,27.7569,娄底市,涟钢,,37,37,63,21,28,58,,64,64,16,23,16,19,0.4,0.7
2024-07-12T2000,2491A,111.9892,27.7044,娄底市,市政府,,29,,27,20,18,76,,86,86,6,9,5,11,0.2,0.4
2024-07-12T2000,1893A,105.4324,28.9634,泸州市,九狮山,,23,21,19,16,11,63,,94,90,16,16,5,5,0.5,0.5
2024-07-12T2000,1894A,105.4427,28.9063,泸州市,小市上码头,,35,20,22,9,7,110,,108,107,7,16,4,5,0.3,0.3
2024-07-12T2000,1895A,105.4241,28.8573,泸州市,兰田宪桥,,30,16,21,15,15,94,,114,110,16,17,7,6,0.3,0.4
2024-07-12T2000,1896A,105.4379,28.8833,泸州市,市环监站,,30,19,18,9,10,94,,104,102,12,17,6,7,0.5,0.5
2024-07-12T2000,3490A,105.3617,28.7703,泸州市,纳溪区环保局,,33,23,22,3,5,103,,133,129,13,17,2,3,0.4,0.5
2024-07-12T2000,2183A,111.1406,37.5211,吕梁市,环保局,,38,38,38,20,20,98,,168,158,48,20,2,3,0.6,0.6
2024-07-12T2000,2185A,111.1297,37.5136,吕梁市,自来水公司,颗粒物(PM10),56,61,42,18,20,109,,159,150,34,23,2,4,0.5,0.5
2024-07-12T2000,2867A,111.1283,37.51,吕梁市,马茂庄小学,,50,50,41,22,20,111,,175,168,36,24,6,4,0.6,0.5
2024-07-12T2000,1812A,112.3931,34.6516,洛阳市,市委党校,臭氧1小时,74,62,38,45,29,179,,177,177,14,9,3,4,0.8,0.7
2024-07-12T2000,1814A,112.4657,34.6871,洛阳市,豫西宾馆,臭氧1小时,99,77,46,44,27,199,,179,179,15,11,3,3,0.7,0.6
2024-07-12T2000,1815A,112.494,34.6886,洛阳市,河南林校,臭氧1小时,88,58,32,48,24,190,,173,173,13,9,3,2,0.7,0.6
2024-07-12T2000,1816A,112.3844,34.623,洛阳市,开发区管委会,臭氧1小时,82,65,37,49,26,185,,176,176,10,8,9,10,0.6,0.5
2024-07-12T2000,1817A,112.4267,34.6258,洛阳市,市委新办公区,臭氧1小时,82,61,33,52,32,185,,178,178,13,6,7,8,0.8,0.6
2024-07-12T2000,3340A,112.6005,34.6326,洛阳市,伊滨,细颗粒物(PM2.5),69,66,46,50,31,170,,176,176,27,12,4,5,0.7,0.6
2024-07-12T2000,3341A,112.4951,34.6332,洛阳市,中移产业园,臭氧1小时,82,75,39,47,30,185,,174,174,8,6,4,7,0.9,0.7
2024-07-12T2000,3593A,112.5736,34.8993,洛阳市,吉利监测站,细颗粒物(PM2.5),64,66,48,46,31,167,,168,168,3,8,1,2,0.8,0.8
2024-07-12T2000,3635A,112.3677,34.662,洛阳市,河科大西苑校区,臭氧1小时,73,65,37,40,21,178,,177,177,6,2,4,6,0.8,0.7
2024-07-12T2000,3636A,112.4388,34.6781,洛阳市,英才小学,,,,29,39,27,175,,171,171,6,4,2,4,0.7,0.7
2024-07-12T2000,2399A,114.051,33.5699,漯河市,三五一五工厂,,35,22,25,17,21,109,,127,127,7,10,6,6,0.6,0.7
2024-07-12T2000,2400A,114.0055,33.5698,漯河市,漯河大学,,36,26,28,12,20,115,,133,133,9,7,8,8,0.8,0.7
2024-07-12T2000,2401A,114.0138,33.5828,漯河市,市水利局,,36,22,27,12,19,113,,127,127,7,4,7,7,0.6,0.6
2024-07-12T2000,2402A,114.0261,33.5698,漯河市,市广电局,,37,20,23,15,20,116,,130,130,2,5,4,3,0.6,0.6
2024-07-12T2000,3478A,113.9749,33.5664,漯河市,市图书馆,,37,30,28,20,22,118,,134,134,6,5,5,7,0.5,0.5
2024-07-12T2000,3479A,114.0967,33.5906,漯河市,召陵区卫健委,,34,29,30,14,20,108,,127,127,6,7,4,4,0.7,0.7
2024-07-12T2000,1798A,118.5092,31.6837,马鞍山市,湖东路四小,,19,17,19,8,12,58,,73,73,16,12,7,7,0.8,0.9
2024-07-12T2000,1799A,118.5024,31.6449,马鞍山市,开发区,,22,11,21,3,12,69,,71,71,11,18,8,9,0.6,0.8
2024-07-12T2000,1800A,118.5228,31.7231,马鞍山市,慈湖,,22,13,23,6,11,70,,76,76,17,17,3,3,1.1,0.9
2024-07-12T2000,1802A,118.6245,31.7241,马鞍山市,濮塘,,17,,10,10,11,52,,64,63,4,6,4,3,0.7,0.9
2024-07-12T2000,3633A,118.4918,31.6809,马鞍山市,雨山,,21,15,25,3,9,67,,71,71,9,12,6,6,1.0,1.2
2024-07-12T2000,1686A,111.0286,21.4688,茂名市,电白南海,,20,19,16,14,9,59,,63,61,5,3,5,5,0.5,0.5
2024-07-12T2000,1687A,110.9294,21.6533,茂名市,茂石化七小,,25,19,16,17,14,55,,67,64,4,3,7,8,0.6,0.6
2024-07-12T2000,1688A,110.9107,21.6687,茂名市,健康路,,19,19,14,7,4,60,,72,70,3,2,8,9,0.4,0.4
2024-07-12T2000,1689A,110.8592,21.6828,茂名市,高岭,,25,24,16,17,12,54,,64,63,7,7,8,9,0.5,0.5
2024-07-12T2000,3450A,111.01,21.5165,茂名市,电白水东,,16,12,9,9,7,51,,58,55,12,6,3,3,0.4,0.4
2024-07-12T2000,2539A,104.0308,30.0478,眉山市,黑龙滩水库,,35,28,27,19,18,110,,104,103,4,4,7,7,0.6,0.6
2024-07-12T2000,2540A,103.8416,30.0874,眉山市,气象局,,33,21,18,12,12,104,,122,119,11,17,6,6,0.4,0.5
2024-07-12T2000,3137A,103.8578,30.0744,眉山市,市委党校,,32,24,21,7,6,100,,121,118,12,15,5,5,0.7,0.5
2024-07-12T2000,3148A,103.8291,30.0564,眉山市,区人社局,,,,24,,11,,,32,,,27,,8,,0.5
2024-07-12T2000,1690A,116.1231,24.3284,梅州市,梅江月梅,,11,10,13,3,5,34,,56,51,5,5,8,10,0.4,0.4
2024-07-12T2000,1691A,116.0797,24.2719,梅州市,梅县新城,,,,11,4,6,34,,54,50,8,8,4,4,0.4,0.4
2024-07-12T2000,1692A,116.1248,24.2654,梅州市,环境监控中心,,15,13,12,10,5,27,,51,46,16,12,4,4,0.4,0.3
2024-07-12T2000,3315A,116.1233,24.2991,梅州市,梅龙,,19,19,10,13,5,31,,56,50,12,8,8,13,0.6,0.5
2024-07-12T2000,1878A,104.7778,31.4741,绵阳市,富乐山,,38,35,34,22,21,120,,171,169,7,11,8,8,0.6,0.6
2024-07-12T2000,1879A,104.7563,31.4535,绵阳市,市人大,臭氧1小时,58,43,42,28,24,166,,180,180,16,24,3,3,0.6,0.6
2024-07-12T2000,1880A,104.6697,31.4668,绵阳市,高新区自来水公司,,44,36,46,22,20,138,,162,162,16,29,6,6,0.6,0.7
2024-07-12T2000,1881A,104.7287,31.5075,绵阳市,三水厂,,36,34,56,25,30,94,,164,159,51,28,6,6,0.7,0.7
2024-07-12T2000,3491A,104.69,31.5322,绵阳市,西科大附属小学,,34,31,42,20,22,107,,135,134,12,27,5,5,0.5,0.6
2024-07-12T2000,3492A,104.5648,31.5343,绵阳市,安州区旅游局,,47,45,35,24,23,150,,163,163,11,16,7,7,0.6,0.5
2024-07-12T2000,1784A,129.61,44.561,牡丹江市,环保大楼,细颗粒物(PM2.5),52,46,66,36,50,66,,117,107,16,13,8,8,0.5,0.6
2024-07-12T2000,1785A,129.6115,44.5782,牡丹江市,文化广场,细颗粒物(PM2.5),90,80,71,67,60,55,,106,97,26,17,8,8,0.9,0.7
2024-07-12T2000,1786A,129.5904,44.5963,牡丹江市,第一医院,细颗粒物(PM2.5),59,58,60,42,51,65,,106,99,17,12,6,5,0.6,0.6
2024-07-12T2000,1787A,129.6364,44.6075,牡丹江市,机车工厂,,,,68,,55,,,78,,,12,,18,,0.6
2024-07-12T2000,1788A,129.6386,44.5462,牡丹江市,第一中学,颗粒物(PM10),60,69,76,37,37,62,,114,104,16,16,5,4,0.5,0.6
2024-07-12T2000,2531A,105.0703,29.61,内江市,市监测站,,25,18,13,17,17,78,,96,89,16,18,6,7,0.3,0.4
2024-07-12T2000,2532A,105.0717,29.5947,内江市,东兴区政府,,26,24,23,3,8,82,,99,91,9,13,9,9,0.5,0.5
2024-07-12T2000,2533A,105.0653,29.5817,内江市,内江二中,,27,22,18,12,9,84,,102,95,10,16,9,9,0.6,0.7
2024-07-12T2000,2534A,105.0406,29.5822,内江市,内江日报社,,26,24,20,11,16,82,,108,98,17,16,9,9,0.6,0.8
2024-07-12T2000,2628A,92.0657,31.4846,那曲市,那曲监测站,,,,30,6,9,49,,56,56,8,6,3,5,0.3,0.3
2024-07-12T2000,3128A,92.0506,31.4797,那曲市,那曲会议中心,颗粒物(PM10),55,60,23,16,7,53,,61,60,11,7,4,4,0.5,0.4
2024-07-12T2000,1290A,115.8931,28.6843,南昌市,省外办,,,43,42,17,24,88,,117,112,12,22,,9,0.4,0.5
2024-07-12T2000,1291A,115.8886,28.7003,南昌市,省林业公司,,39,39,37,22,20,90,,123,118,17,32,7,8,0.5,0.6
2024-07-12T2000,1292A,115.8126,28.7442,南昌市,林科所,,30,12,26,9,14,93,,126,123,25,27,7,10,0.4,0.5
2024-07-12T2000,1294A,115.8518,28.687,南昌市,建工学校,,35,35,34,14,12,99,,123,120,11,24,8,10,0.4,0.5
2024-07-12T2000,1295A,115.8921,28.6424,南昌市,象湖,,28,24,34,19,19,84,,132,124,18,24,5,7,0.6,0.6
2024-07-12T2000,1296A,115.7423,28.7996,南昌市,武术学校,,23,,18,13,17,73,,108,105,7,6,8,10,0.5,0.5
2024-07-12T2000,1298A,115.9314,28.6842,南昌市,省站,,35,,34,24,23,78,,119,114,21,21,5,8,0.5,0.6
2024-07-12T2000,3046A,115.9084,28.6062,南昌市,机电学校,,34,34,43,17,18,68,,119,110,23,24,8,10,0.7,0.8
2024-07-12T2000,3690A,115.9721,28.7031,南昌市,外国语学校,,38,36,36,26,16,82,,121,116,12,14,4,5,0.4,0.5
2024-07-12T2000,1905A,106.056,30.8064,南充市,西山风景区,,38,33,26,23,15,119,,123,123,5,8,5,5,0.6,0.6
2024-07-12T2000,1906A,106.0789,30.8023,南充市,南充市委,,35,30,29,14,15,112,,143,142,13,14,6,6,0.3,0.3
2024-07-12T2000,1907A,106.1031,30.8217,南充市,南充炼油厂,,37,22,26,13,14,117,,140,139,10,11,4,4,0.3,0.3
2024-07-12T2000,1908A,106.1064,30.7856,南充市,高坪区监测站,,33,,26,23,10,90,,133,130,22,15,5,6,0.3,0.3
2024-07-12T2000,1909A,106.0642,30.7636,南充市,嘉陵区环保局,,42,29,24,14,13,132,,152,152,20,16,4,3,0.4,0.4
2024-07-12T2000,1910A,106.1087,30.8388,南充市,市环境监测站,,35,35,29,13,13,96,,119,118,20,14,3,3,0.4,0.4
2024-07-12T2000,1151A,118.8086,32.1065,南京市,迈皋桥,,23,14,16,7,13,72,,97,97,15,15,4,4,0.3,0.4
2024-07-12T2000,1152A,118.7538,32.0551,南京市,草场门,,20,9,14,7,11,61,,92,90,22,14,2,2,0.7,0.7
2024-07-12T2000,1153A,118.7794,32.0745,南京市,山西路,,22,12,14,3,12,70,,98,98,16,12,3,4,0.6,0.6
2024-07-12T2000,1154A,118.7752,32.0023,南京市,中华门,,16,7,8,3,7,49,,80,77,21,14,6,6,0.6,0.7
2024-07-12T2000,1155A,118.8109,32.0309,南京市,瑞金路,,18,9,12,7,11,56,,87,86,11,8,4,3,0.5,0.6
2024-07-12T2000,1156A,118.7997,32.0754,南京市,玄武湖,,19,17,18,3,8,58,,87,87,3,8,2,3,0.6,0.7
2024-07-12T2000,1157A,118.6414,32.0931,南京市,浦口,,22,17,20,3,10,70,,93,92,16,14,6,5,0.9,1
2024-07-12T2000,1158A,118.7356,31.9996,南京市,奥体中心,,19,9,11,7,13,59,,87,85,21,18,5,5,0.4,0.6
2024-07-12T2000,1159A,118.9125,32.1028,南京市,仙林大学城,,22,9,15,3,12,68,,98,98,13,13,6,6,0.6,0.8
2024-07-12T2000,3422A,118.8436,31.9198,南京市,江宁彩虹桥,,19,15,16,3,10,58,,82,81,12,11,4,3,0.5,0.8
2024-07-12T2000,3423A,119.0138,31.6494,南京市,溧水永阳,,14,,12,7,12,43,,61,60,6,12,5,4,0.5,0.8
2024-07-12T2000,3424A,118.879,31.3302,南京市,高淳老职中,,18,12,10,12,11,53,,72,69,8,10,3,4,0.4,0.7
2024-07-12T2000,3427A,118.8554,32.3578,南京市,六合雄州,,28,10,29,3,27,87,,128,128,4,5,4,5,0.8,0.7
2024-07-12T2000,1401A,108.3103,22.7881,南宁市,二十一中,,20,,20,13,10,63,,85,83,10,8,3,3,0.6,0.7
2024-07-12T2000,1402A,108.3141,22.8528,南宁市,北湖,,20,18,20,12,12,64,,86,83,11,8,3,3,0.7,0.7
2024-07-12T2000,1403A,108.3206,22.8225,南宁市,市监测站,,20,18,22,11,11,64,,87,84,11,9,4,4,0.5,0.5
2024-07-12T2000,1404A,108.3829,22.8037,南宁市,大自然花园,,20,19,21,11,13,63,,82,80,7,7,4,5,0.7,0.7
2024-07-12T2000,1405A,108.4394,22.7904,南宁市,仙葫,,24,24,19,6,26,68,,83,82,11,11,15,14,0.3,0.3
2024-07-12T2000,1406A,108.2397,22.8467,南宁市,区农职院,,24,24,23,16,10,70,,92,89,10,8,7,7,0.6,0.6
2024-07-12T2000,1407A,108.3275,22.735,南宁市,英华嘉园,,20,17,25,14,10,48,,72,70,18,14,6,6,0.6,0.6
2024-07-12T2000,1408A,108.2257,22.7757,南宁市,沙井镇街道办,,24,24,29,10,10,60,,75,73,9,14,2,3,0.4,0.5
2024-07-12T2000,3401A,108.4834,22.7618,南宁市,红星社区,,,63,27,51,20,62,,85,83,,8,,5,0.7,0.8
2024-07-12T2000,2331A,118.0966,26.6761,南平市,茫荡山,,,,,,,,,,,,,,,,
2024-07-12T2000,2332A,118.1681,26.6369,南平市,南平市监测站,,15,14,16,10,9,38,,83,71,13,14,4,5,0.5,0.5
2024-07-12T2000,2333A,118.1825,26.6489,南平市,南平铝业有限公司,,29,29,20,14,10,31,,75,64,15,13,6,6,0.7,0.7
2024-07-12T2000,2334A,118.1756,26.6272,南平市,南平七中,,18,18,18,6,11,42,,86,76,14,12,5,5,0.7,0.6
2024-07-12T2000,1168A,120.9098,31.9663,南通市,狼山街道,,16,16,11,10,7,43,,85,68,27,7,5,5,0.6,0.6
2024-07-12T2000,1169A,120.86,32.0005,南通市,虹桥,,24,24,17,16,9,46,,84,69,35,15,5,5,0.8,1.3
2024-07-12T2000,1170A,120.87,32.02,南通市,城中,,26,26,14,9,7,54,,89,77,33,15,6,5,0.7,1.1
2024-07-12T2000,1171A,120.94,31.93,南通市,星湖花园,,24,10,6,9,5,33,,78,60,48,20,4,3,0.7,0.7
2024-07-12T2000,1172A,120.81,32.0417,南通市,紫琅学院,,18,12,11,3,4,57,,80,70,31,23,5,5,0.5,0.5
2024-07-12T2000,3291A,121.067,32.062,南通市,通州监测站,,26,17,16,7,8,81,,103,93,9,5,2,2,0.9,0.9
2024-07-12T2000,3432A,120.9348,31.9883,南通市,环境教育馆,,25,19,17,13,9,30,,83,65,50,22,7,6,0.6,0.6
2024-07-12T2000,2404A,112.5224,33.0122,南阳市,瓦房庄,,27,22,25,17,20,85,,115,113,16,11,4,4,0.5,0.6
2024-07-12T2000,2405A,112.5003,32.9735,南阳市,汉画馆,,26,25,28,17,18,82,,117,115,11,12,3,3,0.6,0.7
2024-07-12T2000,2406A,112.5573,33.027,南阳市,气象站,,29,21,20,9,17,92,,121,118,12,9,3,2,0.5,0.6
2024-07-12T2000,2407A,112.5481,32.9689,南阳市,理工学院,,25,25,26,13,13,79,,118,115,13,11,2,2,0.5,0.5
2024-07-12T2000,4008A,112.5234,32.9922,南阳市,卧龙区政府,,36,,17,25,23,81,,116,114,12,10,4,3,0.6,0.7
2024-07-12T2000,1234A,121.8358,29.911,宁波市,区环保大楼,,43,35,60,20,28,16,,82,72,86,50,10,9,0.7,0.8
2024-07-12T2000,1235A,121.56,29.82,宁波市,万里学院,,29,29,54,10,38,56,,94,88,31,29,6,6,0.7,0.8
2024-07-12T2000,1236A,121.713,29.9572,宁波市,龙赛医院,,35,35,51,18,25,43,,83,80,50,45,6,10,0.6,0.6
2024-07-12T2000,1239A,121.633,29.7733,宁波市,钱湖水厂,,32,32,45,21,31,50,,93,84,18,21,6,6,0.8,0.7
2024-07-12T2000,1240A,121.5856,29.8635,宁波市,太古小学,,26,26,55,14,31,65,,93,86,30,31,6,7,0.8,0.8
2024-07-12T2000,1241A,121.524,29.8674,宁波市,市环境监测中心,,24,24,49,12,22,58,,119,94,32,31,4,4,0.7,0.7
2024-07-12T2000,2871A,121.6147,29.9017,宁波市,万里国际学校,,33,33,44,22,27,61,,91,87,38,35,5,6,0.5,0.5
2024-07-12T2000,3710A,121.5594,29.8975,宁波市,白沙活动中心,,30,30,49,10,28,72,,108,96,25,31,8,10,0.4,0.5
2024-07-12T2000,2339A,119.5001,26.6946,宁德市,金涵水库,,,,,,,,,,,,,,,,
2024-07-12T2000,2341A,119.5388,26.6612,宁德市,宁德市监测站,,44,44,42,19,21,87,,126,120,18,19,7,7,0.8,0.8
2024-07-12T2000,3209A,119.5231,26.6562,宁德市,宁德一中,,45,45,40,17,18,101,,131,126,12,13,8,7,0.8,0.9
2024-07-12T2000,2618A,98.8601,25.8567,怒江傈僳族自治州,州监测站,,25,25,17,9,10,38,,46,46,17,8,10,10,0.6,0.5
2024-07-12T2000,2619A,98.8546,25.8417,怒江傈僳族自治州,泸水一中,,24,24,13,3,6,32,,42,42,20,11,5,5,0.6,0.5
2024-07-12T2000,1888A,101.6891,26.571,攀枝花市,弄弄坪,,47,47,50,12,18,46,,59,59,21,23,15,18,0.9,1.3
2024-07-12T2000,1889A,101.5769,26.5928,攀枝花市,河门口,,31,31,23,20,13,40,,57,57,29,17,4,6,1.0,0.9
2024-07-12T2000,1890A,101.7169,26.585,攀枝花市,炳草岗,,45,45,40,14,17,41,,60,60,34,25,19,24,1.2,1.5
2024-07-12T2000,1891A,101.7369,26.5008,攀枝花市,仁和,,20,20,28,11,16,58,,69,69,15,17,8,16,0.5,1.1
2024-07-12T2000,2835A,101.7227,26.567,攀枝花市,四十中小,,35,33,24,24,17,66,,71,71,25,19,19,23,1.8,1.4
2024-07-12T2000,1604A,122.0303,41.1489,盘锦市,开发区,臭氧1小时,73,53,55,35,39,178,,185,180,14,17,5,7,0.5,0.5
2024-07-12T2000,1605A,122.0485,41.0883,盘锦市,兴隆台,颗粒物(PM10),56,61,53,38,36,154,,176,170,27,20,4,6,0.5,0.6
2024-07-12T2000,1606A,121.8297,41.1028,盘锦市,新生街道,臭氧1小时,55,40,49,31,33,164,,189,182,14,13,2,3,0.5,0.6
2024-07-12T2000,1832A,113.3257,33.742,平顶山市,新华旅馆,,40,30,33,27,27,127,,139,139,8,12,2,3,0.7,0.7
2024-07-12T2000,1833A,113.2919,33.737,平顶山市,规划设计院,,41,29,24,19,18,129,,144,144,13,13,5,4,0.6,0.7
2024-07-12T2000,1834A,113.182,33.774,平顶山市,平顶山工学院,,41,31,25,19,14,129,,147,147,12,9,6,5,0.8,0.8
2024-07-12T2000,3204A,113.3025,33.73,平顶山市,规划局,,40,29,29,23,23,128,,137,137,12,15,5,2,0.6,0.6
2024-07-12T2000,3594A,112.8867,33.9116,平顶山市,石龙区,颗粒物(PM10),54,58,50,27,29,137,,154,154,13,17,7,7,0.4,0.4
2024-07-12T2000,2656A,106.6692,35.5461,平凉市,聚贤嘉苑,,45,45,59,25,20,61,,137,114,27,27,9,9,0.6,0.5
2024-07-12T2000,2657A,106.7021,35.5307,平凉市,博物馆,,33,33,60,14,19,79,,153,126,24,23,9,9,0.6,0.6
2024-07-12T2000,2347A,114.0997,27.5002,萍乡市,武功山,,20,15,8,6,4,62,,85,82,5,4,13,12,0.6,0.5
2024-07-12T2000,2348A,113.8385,27.6434,萍乡市,中医院,,30,30,27,16,14,81,,86,86,4,12,3,4,0.6,0.6
2024-07-12T2000,2349A,113.8493,27.6253,萍乡市,市政府车库,,27,27,23,9,17,78,,83,83,3,8,9,11,0.4,0.5
2024-07-12T2000,2350A,113.8676,27.6435,萍乡市,市环保局,,28,28,27,18,16,80,,87,87,2,9,4,8,0.4,0.5
2024-07-12T2000,2351A,113.866,27.6198,萍乡市,安源区政府,,26,,22,9,11,82,,77,77,3,10,9,11,0.3,0.4
2024-07-12T2000,2319A,119.0141,25.4325,莆田市,荔城区仓后路,,30,30,29,11,10,47,,95,90,14,11,6,8,0.7,0.6
2024-07-12T2000,2320A,119.0015,25.4553,莆田市,莆田市监测站,,32,32,24,18,7,56,,91,90,8,6,6,6,0.7,0.7
2024-07-12T2000,2321A,119.1119,25.4561,莆田市,涵江区六中,,28,28,25,7,9,39,,101,86,13,13,12,12,0.7,0.7
2024-07-12T2000,2322A,119.1013,25.3215,莆田市,秀屿区政府,,28,28,27,3,9,46,,103,79,8,10,12,13,0.7,0.7
2024-07-12T2000,2323A,118.981,25.4792,莆田市,东圳水库,,,,,,,,,,,,,,,,
2024-07-12T2000,2392A,115.0312,35.7636,濮阳市,环保局,,49,35,37,34,28,132,,134,134,11,7,6,6,0.7,0.6
2024-07-12T2000,2394A,115.0574,35.7609,濮阳市,油田运输公司,,49,49,38,31,27,132,,134,134,13,8,4,4,0.8,0.7
2024-07-12T2000,2395A,115.0866,35.7754,濮阳市,油田物探公司,颗粒物(PM10),52,53,42,34,32,135,,134,134,10,8,4,3,0.6,0.1
2024-07-12T2000,3021A,115,35.7668,濮阳市,濮水河管理处,,44,44,37,29,33,102,,124,121,13,3,5,5,0.7,0.6
2024-07-12T2000,2601A,100.98,22.7633,普洱市,市环保局,,22,18,10,15,10,30,,38,38,10,5,4,4,0.5,0.4
2024-07-12T2000,2602A,100.9817,22.8322,普洱市,普洱第二中学,,25,,10,17,11,28,,38,37,5,6,4,4,0.5,0.5
2024-07-12T2000,2262A,131.0518,45.8751,七台河市,新一中,,18,18,16,10,11,57,,79,75,8,7,9,9,0.4,0.5
2024-07-12T2000,3345A,131.0577,45.7879,七台河市,中波台,,14,,7,9,5,42,,72,68,12,11,7,7,0.2,0.2
2024-07-12T2000,3637A,131.0176,45.7761,七台河市,人民广场,,37,37,25,3,12,47,,76,73,13,10,11,11,0.3,0.2
2024-07-12T2000,3684A,130.8781,45.8222,七台河市,新建矿广场,,36,,47,25,22,41,,70,67,20,23,12,16,0,0.1
2024-07-12T2000,1779A,123.9305,47.3636,齐齐哈尔市,安居小区,细颗粒物(PM2.5),114,96,89,86,74,125,,145,143,23,21,16,8,0.8,0.7
2024-07-12T2000,1780A,123.9488,47.3386,齐齐哈尔市,中心广场,细颗粒物(PM2.5),87,115,99,64,68,122,,146,144,20,18,10,11,0.8,0.6
2024-07-12T2000,1781A,123.9483,47.3227,齐齐哈尔市,农牧车辆厂,细颗粒物(PM2.5),103,95,94,77,60,124,,145,144,15,17,8,8,0.5,0.5
2024-07-12T2000,1783A,123.945,47.2988,齐齐哈尔市,市环境监测站,细颗粒物(PM2.5),113,102,88,85,79,124,,142,141,16,17,8,7,0.7,0.6
2024-07-12T2000,3662A,123.6333,47.2075,齐齐哈尔市,富区青少年活动中心,细颗粒物(PM2.5),88,94,91,65,68,123,,142,142,18,22,18,6,1.1,0.8
2024-07-12T2000,2591A,107.9783,26.5747,黔东南苗族侗族自治州,市环境监测站,,46,34,16,32,12,50,,72,62,18,7,3,3,0.9,0.4
2024-07-12T2000,2881A,107.8908,26.5311,黔东南苗族侗族自治州,凯里学院,,20,,6,9,9,61,,71,61,4,4,4,4,0.4,0.4
2024-07-12T2000,2593A,107.5228,26.2403,黔南布依族苗族自治州,小围寨,,19,6,6,3,3,59,,64,64,2,2,3,5,0.4,0.4
2024-07-12T2000,3538A,107.5175,26.2978,黔南布依族苗族自治州,沙坝,,16,9,8,3,3,50,,60,59,4,5,3,4,0.5,0.4
2024-07-12T2000,2589A,104.9022,25.0925,黔西南布依族苗族自治州,场坝街,,,,12,,6,50,,51,51,5,5,5,4,0.3,0.3
2024-07-12T2000,2590A,104.8811,25.0992,黔西南布依族苗族自治州,坪东大道,,15,14,13,3,6,46,,48,48,4,3,4,4,0.3,0.4
2024-07-12T2000,2502A,108.6236,21.9667,钦州市,市环保站,,31,31,19,3,5,39,,58,57,22,14,6,6,1.0,0.8
2024-07-12T2000,2503A,108.6549,21.9481,钦州市,沙埠小学,,25,25,28,16,14,39,,59,58,15,15,3,3,0.9,0.8
2024-07-12T2000,2504A,108.5989,21.7431,钦州市,港区一小,,35,24,21,3,2,112,,67,67,11,11,7,7,0.5,0.6
2024-07-12T2000,3404A,108.5959,21.9633,钦州市,北职校,,13,11,26,6,11,41,,55,54,11,14,7,8,0.6,0.6
2024-07-12T2000,1042A,119.5134,39.8207,秦皇岛市,北戴河环保局,颗粒物(PM10),52,54,85,25,44,152,,187,185,18,14,4,4,0.9,0.7
2024-07-12T2000,1043A,119.7493,40.0116,秦皇岛市,第一关,,,71,87,38,57,133,,178,171,,12,3,2,,0.6
2024-07-12T2000,1044A,119.5897,39.9499,秦皇岛市,监测站,,49,45,79,31,46,154,,191,186,23,15,4,7,0.7,0.7
2024-07-12T2000,1046A,119.5251,39.9041,秦皇岛市,建设大厦,颗粒物(PM10),53,55,76,22,38,148,,183,179,9,10,3,3,0.4,0.4
2024-07-12T2000,3132A,119.610547,39.943889,秦皇岛市,文明里,细颗粒物(PM2.5),53,53,86,37,51,153,,189,185,14,10,1,4,0.6,0.5
2024-07-12T2000,1307A,120.6659,36.2403,青岛市,仰口,细颗粒物(PM2.5),104,95,64,78,54,134,,142,141,5,7,4,4,0.7,0.6
2024-07-12T2000,1310A,120.4134,36.0658,青岛市,市南区东部子站,细颗粒物(PM2.5),70,83,64,51,43,157,,163,163,9,13,6,7,1.3,1.1
2024-07-12T2000,1311A,120.3664,36.1032,青岛市,四方区子站,细颗粒物(PM2.5),92,85,76,68,56,166,,180,179,22,24,10,11,1.2,1.1
2024-07-12T2000,1312A,120.2994,36.054,青岛市,市南区西部子站,"颗粒物(PM10),细颗粒物(PM2.5)",62,73,54,44,35,140,,154,150,14,14,7,7,1.2,1
2024-07-12T2000,1313A,120.4581,36.0858,青岛市,崂山区子站,细颗粒物(PM2.5),122,112,62,92,47,163,,163,163,14,15,7,7,1.2,0.9
2024-07-12T2000,1314A,120.1983,35.9608,青岛市,黄岛区子站,细颗粒物(PM2.5),74,66,61,54,52,150,,156,156,16,17,7,7,0.9,1
2024-07-12T2000,1315A,120.3999,36.3083,青岛市,城阳区子站,"颗粒物(PM10),细颗粒物(PM2.5)",68,85,74,49,44,161,,206,188,36,30,7,8,1.1,1.1
2024-07-12T2000,1966A,120.0405,35.8735,青岛市,黄岛区4号,细颗粒物(PM2.5),85,73,73,63,58,149,,144,133,12,14,9,10,0.9,1.1
2024-07-12T2000,3362A,120.5014,36.4034,青岛市,即墨2号,细颗粒物(PM2.5),84,88,69,62,48,167,,174,167,12,17,5,6,0.9,0.8
2024-07-12T2000,3642A,120.3503,36.0736,青岛市,市北区南部,细颗粒物(PM2.5),113,,56,85,54,158,,173,171,13,13,6,7,1.2,1
2024-07-12T2000,3643A,120.3948,36.1805,青岛市,李沧区北部,细颗粒物(PM2.5),119,102,84,90,60,145,,164,162,34,42,10,11,1.0,0.9
2024-07-12T2000,1702A,113.0426,23.691,清远市,环保大楼,,27,18,16,13,12,86,,108,107,16,17,4,5,0.7,0.6
2024-07-12T2000,1703A,113.0208,23.7106,清远市,凤城街办,,27,27,23,15,10,80,,100,100,16,15,4,4,0.5,0.4
2024-07-12T2000,3025A,113.0477,23.6344,清远市,技师学院,,25,24,25,11,11,80,,124,123,22,19,5,5,0.5,0.5
2024-07-12T2000,3318A,112.9903,23.7403,清远市,清新太和,,32,32,26,14,11,87,,98,98,12,11,8,8,0.4,0.4
2024-07-12T2000,3455A,113.076,23.7198,清远市,清城东城,,21,,25,12,12,67,,101,100,12,14,4,4,0.5,0.5
2024-07-12T2000,2661A,107.6325,35.7357,庆阳市,庆阳五中,,39,34,27,16,11,123,,148,144,11,11,4,5,0.5,0.4
2024-07-12T2000,2662A,107.6364,35.7067,庆阳市,市环保局,,38,31,24,14,10,121,,138,136,13,10,4,4,0.5,0.4
2024-07-12T2000,1916A,103.7897,25.5035,曲靖市,环境监测站,,,,17,,7,51,,57,57,10,8,,4,0.4,0.3
2024-07-12T2000,1917A,103.8,25.5364,曲靖市,烟厂办公区,,20,20,14,8,9,57,,60,60,8,8,3,4,0.4,0.3
2024-07-12T2000,3376A,103.7947,25.462,曲靖市,南苑二区,,19,11,12,6,7,60,,64,64,6,6,5,4,0.5,0.5
2024-07-12T2000,3377A,103.7444,25.5261,曲靖市,曲靖师范学院,,24,24,13,9,8,56,,62,62,10,8,7,5,0.5,0.4
2024-07-12T2000,1264A,118.8692,28.9398,衢州市,环保大楼,,39,39,26,19,13,79,,104,101,12,17,6,4,0.5,0.5
2024-07-12T2000,1265A,118.8709,28.9666,衢州市,实验学校,,36,36,24,22,14,70,,102,96,14,17,3,2,0.5,0.5
2024-07-12T2000,1266A,118.8621,28.9808,衢州市,衢州学院,,48,48,28,22,13,81,,110,105,13,18,4,4,0.4,0.4
2024-07-12T2000,1611A,118.5819,24.9117,泉州市,涂山街,,34,34,38,8,14,44,,108,90,17,21,4,8,0.4,0.5
2024-07-12T2000,1612A,118.5972,24.8978,泉州市,津头埔,,33,33,34,6,14,45,,103,85,19,22,3,5,0.4,0.4
2024-07-12T2000,1613A,118.6663,24.9424,泉州市,万安,,30,30,32,7,11,46,,109,89,8,15,2,4,0.5,0.5
2024-07-12T2000,1614A,118.6117,24.9604,泉州市,清源山,,,,,,,,,,,,,,,,
2024-07-12T2000,3529A,118.6333,24.9264,泉州市,城华南路,,23,23,32,12,14,45,,104,84,14,19,3,5,0.5,0.5
2024-07-12T2000,2626A,88.8876,29.2718,日喀则市,日喀则监测站,,19,10,8,3,3,58,,68,67,11,6,6,6,0.4,0.3
2024-07-12T2000,3726A,88.8781,29.2426,日喀则市,林业技术推广中心,,21,9,5,3,4,65,,69,69,10,8,6,6,0.7,0.7
2024-07-12T2000,1659A,119.471,35.4209,日照市,监测站,细颗粒物(PM2.5),90,78,82,67,69,160,,204,199,21,33,9,10,0.9,0.9
2024-07-12T2000,1660A,119.523,35.4216,日照市,市政府广场,细颗粒物(PM2.5),78,78,92,57,66,150,,193,193,12,24,8,10,0.9,1
2024-07-12T2000,1661A,119.5587,35.4044,日照市,港务局,细颗粒物(PM2.5),62,61,105,44,62,154,,195,195,11,38,11,12,0.9,1.2
2024-07-12T2000,3507A,119.5328,35.4625,日照市,职业技术学院,细颗粒物(PM2.5),79,63,94,58,70,154,,196,196,16,27,8,10,1.0,1.2
2024-07-12T2000,3604A,119.3266,35.1044,日照市,岚山环保分局,,,63,85,42,65,148,,194,191,,23,,8,0.7,1
2024-07-12T2000,1835A,111.1922,34.7752,三门峡市,市政府,,42,37,41,26,23,133,,167,164,14,16,7,7,0.8,0.7
2024-07-12T2000,1836A,111.1587,34.7942,三门峡市,开发区,颗粒物(PM10),52,53,47,34,28,129,,157,155,22,16,8,10,0.8,0.6
2024-07-12T2000,1838A,111.143,34.7955,三门峡市,风景区,,,,,,,,,,,,,,,,
2024-07-12T2000,3039A,111.1911,34.7829,三门峡市,三门峡市第一小学,,48,43,44,33,28,138,,168,166,14,13,9,8,0.7,0.6
2024-07-12T2000,3598A,111.1,34.7167,三门峡市,富达温泉假日酒店,颗粒物(PM10),55,59,48,33,29,94,,162,155,15,17,13,16,0.9,0.8
2024-07-12T2000,2324A,117.6211,26.2625,三明市,三钢,,25,25,23,16,12,26,,66,51,18,17,6,14,0.4,0.9
2024-07-12T2000,2325A,117.635,26.2714,三明市,三明二中,,24,24,20,8,13,19,,71,55,25,16,2,6,0.7,0.7
2024-07-12T2000,2326A,117.6028,26.2378,三明市,三元区政府,,34,34,20,3,10,30,,66,54,20,13,6,6,0.4,0.3
2024-07-12T2000,2327A,117.7275,26.3108,三明市,洋溪,,,,,,,,,,,,,,,,
2024-07-12T2000,1876A,109.5078,18.2489,三亚市,河东子站,,20,7,12,3,6,63,,68,66,8,8,3,2,0.3,0.4
2024-07-12T2000,1877A,109.4964,18.2681,三亚市,河西子站,,19,9,11,7,6,58,,65,64,6,6,3,3,0.3,0.3
2024-07-12T2000,3540A,109.7348,18.3443,三亚市,君悦子站,,24,12,11,3,4,74,,67,67,5,7,2,2,0.3,0.3
2024-07-12T2000,2624A,91.7608,29.2313,山南市,山南监测站,,20,11,10,3,4,64,,73,73,7,9,6,6,0.3,0.3
2024-07-12T2000,2625A,91.7706,29.2436,山南市,山南人民医院,,20,16,20,3,5,64,,71,71,10,11,5,6,0.3,0.3
2024-07-12T2000,1674A,116.6794,23.3667,汕头市,金平子站,,,,16,6,6,48,,59,55,5,7,6,6,0.7,0.7
2024-07-12T2000,1675A,116.7244,23.3633,汕头市,龙湖子站,,14,,14,8,5,43,,50,47,8,9,5,6,0.6,0.7
2024-07-12T2000,1676A,116.7258,23.2775,汕头市,濠江子站,,18,,13,7,4,56,,60,58,8,7,4,5,0.6,0.6
2024-07-12T2000,1677A,116.7519,23.4714,汕头市,澄海子站,,26,26,24,9,13,36,,48,45,14,16,4,5,0.8,0.8
2024-07-12T2000,1678A,116.6092,23.2539,汕头市,潮阳子站,,19,19,14,3,2,47,,54,52,2,3,4,4,0.6,0.6
2024-07-12T2000,3444A,116.454,23.2684,汕头市,潮南峡山,,21,21,15,10,6,41,,49,46,1,3,4,4,0.6,0.7
2024-07-12T2000,3624A,116.4069,23.2533,汕头市,潮南子站,,25,25,15,12,6,47,,53,52,4,3,7,7,0.6,0.6
2024-07-12T2000,1693A,115.3653,22.775,汕尾市,市环保局,,18,6,7,3,3,55,,61,61,9,6,6,5,0.6,0.5
2024-07-12T2000,1694A,115.3706,22.7898,汕尾市,市政府,,,,9,4,3,56,,58,58,3,3,7,7,0.5,0.5
2024-07-12T2000,1695A,115.3622,22.7925,汕尾市,新城中学,,,,12,2,6,58,,60,60,2,3,5,5,0.4,0.4
2024-07-12T2000,2645A,109.9154,33.8715,商洛市,监测站,,36,32,30,25,18,106,,125,125,12,8,7,8,0.7,0.7
2024-07-12T2000,3045A,109.9643,33.8471,商洛市,商州区中学,颗粒物(PM10),51,52,37,26,19,84,,122,120,16,12,4,4,0.7,0.7
2024-07-12T2000,2408A,115.6702,34.4285,商丘市,环境监测站,颗粒物(PM10),58,66,48,40,28,136,,154,154,10,5,8,8,0.5,0.6
2024-07-12T2000,2409A,115.6458,34.4045,商丘市,粮食局,颗粒物(PM10),57,63,43,31,25,158,,161,161,10,6,4,5,0.5,0.5
2024-07-12T2000,2410A,115.6293,34.3948,商丘市,睢阳区环保局,细颗粒物(PM2.5),63,64,46,45,33,162,,162,162,8,7,5,5,0.5,0.5
2024-07-12T2000,3171A,115.6071,34.4465,商丘市,梁园区档案局,细颗粒物(PM2.5),54,,17,38,32,154,,156,156,11,8,7,7,0.5,0.5
