timepoint,stationcode,longitude,latitude,area,positionname,primarypollutant,aqi,pm10,pm10_24h,pm2_5,pm2_5_24h,o3,o3_24h,o3_8h,o3_8h_24h,no2,no2_24h,so2,so2_24h,co,co_24h
2025-04-12T2100,2566A,102.1879,31.914,阿坝藏族羌族自治州,州农科所,,28,15,19,12,9,89,,108,106,8,7,12,12,0.5,0.4
2025-04-12T2100,2568A,102.2502,31.8896,阿坝藏族羌族自治州,马师校,,29,28,20,18,16,92,,108,106,11,7,5,6,0.4,0.4
2025-04-12T2100,3994A,102.2165,31.9024,阿坝藏族羌族自治州,马尔康中学西区,,35,18,17,14,12,110,,114,114,2,4,3,4,0.3,0.3
2025-04-12T2100,2695A,80.292,41.1694,阿克苏地区,电视台,颗粒物(PM10),191,331,276,79,54,110,,113,113,7,7,8,8,0.4,0.5
2025-04-12T2100,2696A,80.2613,41.1551,阿克苏地区,艺术中心,颗粒物(PM10),190,330,278,78,58,105,,110,110,7,9,4,4,0.4,0.6
2025-04-12T2100,2204A,105.6467,38.8363,阿拉善盟,西城区西花园,颗粒物(PM10),83,116,239,30,47,74,,98,92,19,7,19,19,0.9,0.7
2025-04-12T2100,2205A,105.6985,38.8411,阿拉善盟,蒙二幼,颗粒物(PM10),87,124,295,36,70,71,,89,84,10,5,5,5,0.5,0.4
2025-04-12T2100,2206A,105.724,38.8516,阿拉善盟,环保局新楼,颗粒物(PM10),87,124,273,34,68,83,,94,87,4,3,8,8,0.5,0.4
2025-04-12T2100,2708A,88.1264,47.8517,阿勒泰地区,市站,,27,21,9,3,5,86,,103,98,16,4,2,2,0.2,0.2
2025-04-12T2100,2630A,80.1161,32.5,阿里地区,阿里监测站,,,,15,,9,,,124,124,6,8,6,8,0.5,0.5
2025-04-12T2100,3192A,80.0903,32.5028,阿里地区,阿里藏医院,,42,42,21,3,7,121,,115,115,2,3,7,8,0.4,0.4
2025-04-12T2100,2642A,109.0318,32.6537,安康市,香溪洞,颗粒物(PM10),403,503,504,148,108,89,,95,91,3,4,6,6,0.3,0.3
2025-04-12T2100,2644A,109.0072,32.6975,安康市,汉滨区检察院,颗粒物(PM10),379,483,463,144,103,55,,92,82,18,8,7,7,0.3,0.2
2025-04-12T2100,4054A,109.0325,32.6913,安康市,市邮政管理局,颗粒物(PM10),438,538,491,151,108,43,,98,81,26,8,6,5,0.5,0.3
2025-04-12T2100,2291A,117.0809,30.5177,安庆市,环科院,颗粒物(PM10),127,204,259,59,65,100,,110,102,7,6,6,6,0.3,0.5
2025-04-12T2100,2292A,117.0331,30.5119,安庆市,马山宾馆,颗粒物(PM10),114,177,301,43,57,102,,110,103,7,5,3,4,0.1,0.5
2025-04-12T2100,2294A,116.9896,30.6145,安庆市,安庆大学,颗粒物(PM10),121,192,339,42,58,105,,113,109,2,2,3,2,0.2,0.2
2025-04-12T2100,3173A,117.0598,30.5351,安庆市,市人大,颗粒物(PM10),118,186,285,29,46,99,,100,100,4,2,5,6,0.2,0.1
2025-04-12T2100,3122A,105.9606,26.2611,安顺市,伍家关,颗粒物(PM10),349,459,202,90,36,94,,106,105,8,5,11,3,0.3,0.4
2025-04-12T2100,3123A,105.9408,26.2431,安顺市,凤凰山,颗粒物(PM10),278,404,133,111,50,79,,103,90,12,7,8,7,0.3,0.4
2025-04-12T2100,3124A,105.9439,26.2564,安顺市,金钟山,颗粒物(PM10),218,362,118,99,46,76,,98,85,11,8,10,7,0.4,0.5
2025-04-12T2100,3125A,105.8983,26.2481,安顺市,娄家坡,颗粒物(PM10),266,396,137,105,48,75,,103,85,13,9,7,6,0.4,0.6
2025-04-12T2100,1818A,114.4839,36.0621,安阳市,棉研所,,,,,,,,,,,,,,,,
2025-04-12T2100,1819A,114.3551,36.1017,安阳市,红庙街,颗粒物(PM10),106,162,404,19,80,77,,84,84,2,2,2,4,0.3,0.5
2025-04-12T2100,1820A,114.361,36.0681,安阳市,银杏小区,颗粒物(PM10),78,105,491,16,82,86,,91,91,7,4,2,5,0.2,0.1
2025-04-12T2100,3141A,114.3922,36.0878,安阳市,信访局,颗粒物(PM10),85,120,448,11,51,90,,97,97,6,4,3,3,0.0,0.1
2025-04-12T2100,3669A,114.4705,36.0637,安阳市,左辅环卫站,颗粒物(PM10),95,140,469,18,49,98,,106,106,14,10,3,2,0.6,0.4
2025-04-12T2100,3703A,114.2917,36.0949,安阳市,安钢职工学校,颗粒物(PM10),81,112,477,25,87,81,,88,88,5,3,1,2,0.4,0.5
2025-04-12T2100,1748A,123.044,41.1196,鞍山市,深沟寺,,18,18,32,10,16,53,,118,57,16,16,10,10,0.5,0.7
2025-04-12T2100,1749A,123.011,41.0931,鞍山市,太阳城,,21,21,29,14,14,46,,112,64,13,10,2,3,0.7,0.7
2025-04-12T2100,1750A,123.0485,41.1442,鞍山市,太平,,17,17,32,8,14,45,,111,59,19,12,9,8,1.0,0.8
2025-04-12T2100,1751A,122.9642,41.0971,鞍山市,铁西三道街,,22,22,33,14,15,42,,117,61,26,16,3,3,0.7,0.6
2025-04-12T2100,1753A,123.022,41.0821,鞍山市,明达新区,,25,23,29,17,15,52,,132,64,16,12,5,5,0.4,0.4
2025-04-12T2100,1754A,123.1289,41.0228,鞍山市,千山,,,,18,,4,,,112,,,7,,4,,0.8
2025-04-12T2100,4201A,122.9446,41.0826,鞍山市,兴盛南路290号,,21,21,31,13,13,49,,118,63,20,15,5,6,0.5,0.6
2025-04-12T2100,2195A,107.4212,40.761,巴彦淖尔市,附二中,颗粒物(PM10),62,74,51,22,17,62,,90,84,20,5,6,6,0.4,0.3
2025-04-12T2100,2196A,107.37,40.7372,巴彦淖尔市,市环保大楼,颗粒物(PM10),66,82,57,17,21,64,,90,84,16,5,5,5,0.5,0.6
2025-04-12T2100,1956A,86.1472,41.7538,巴音郭楞蒙古自治州,孔雀公园,,,,46,,15,68,,107,103,31,19,7,8,0.3,0.3
2025-04-12T2100,1957A,86.1972,41.7166,巴音郭楞蒙古自治州,棉纺厂,,32,32,50,9,9,75,,96,93,2,17,3,6,0.3,0.3
2025-04-12T2100,1958A,86.2357,41.7173,巴音郭楞蒙古自治州,经济开发区,,35,35,40,10,6,100,,111,110,6,7,5,5,0.3,0.3
2025-04-12T2100,2914A,106.7677,31.8794,巴中市,苏山坪,颗粒物(PM10),500,828,814,222,188,87,,101,98,6,4,3,3,0.2,0.1
2025-04-12T2100,3181A,106.7768,31.8526,巴中市,市五中,颗粒物(PM10),500,887,818,212,174,76,,95,90,13,6,4,4,0.5,0.4
2025-04-12T2100,3183A,106.7418,31.8654,巴中市,圣泉水务公司,颗粒物(PM10),500,915,810,230,174,89,,104,101,3,2,1,2,0.5,0.4
2025-04-12T2100,3616A,106.7616,31.8344,巴中市,市中心医院,颗粒物(PM10),500,840,784,172,181,75,,101,97,13,6,5,5,0.4,0.3
2025-04-12T2100,2235A,122.7911,45.6077,白城市,洮北区环保局,,23,10,20,6,15,73,,78,76,7,7,5,4,0.2,0.2
2025-04-12T2100,2236A,122.8738,45.5725,白城市,市环保局,,24,,11,9,12,75,,77,76,3,3,5,5,0.4,0.4
2025-04-12T2100,2231A,126.4219,41.9171,白山市,喜丰,,30,17,76,6,26,96,,124,119,8,30,8,14,1.0,1.1
2025-04-12T2100,2232A,126.4077,41.9419,白山市,环保局,,32,31,65,8,22,101,,121,117,6,18,6,7,0.9,1
2025-04-12T2100,2647A,104.1724,36.5446,白银市,第三小学,细颗粒物(PM2.5),123,128,1044,93,217,66,,97,94,26,8,32,24,0.4,0.2
2025-04-12T2100,2648A,104.1465,36.5482,白银市,动力公司,颗粒物(PM10),74,97,960,43,231,75,,98,96,19,7,10,13,0.4,0.4
2025-04-12T2100,2512A,106.6103,23.9011,百色市,市监测站,,25,25,51,7,33,78,,90,86,9,14,7,10,0.2,0.6
2025-04-12T2100,2513A,106.6538,23.8859,百色市,市中心血站,,29,29,60,3,35,80,,94,89,10,17,4,8,0.4,0.7
2025-04-12T2100,3406A,106.6085,23.8798,百色市,祈福高中,,30,30,65,7,33,85,,91,89,8,17,5,8,0.2,0.6
2025-04-12T2100,2270A,117.396,32.939,蚌埠市,工人疗养院,颗粒物(PM10),80,109,346,32,66,86,,90,90,11,9,3,3,0.4,0.5
2025-04-12T2100,2271A,117.3605,32.9427,蚌埠市,百货大楼,颗粒物(PM10),81,111,385,21,66,87,,88,88,17,14,4,5,0.3,0.4
2025-04-12T2100,2273A,117.4185,32.8911,蚌埠市,蚌埠学院,颗粒物(PM10),84,117,311,22,63,92,,96,96,10,9,2,3,0.3,0.5
2025-04-12T2100,2274A,117.3533,32.9673,蚌埠市,淮上区政府,颗粒物(PM10),89,127,325,44,76,77,,85,84,18,11,6,5,0.2,0.3
2025-04-12T2100,2275A,117.3145,32.8977,蚌埠市,高新区,颗粒物(PM10),80,110,379,25,70,81,,91,90,16,10,3,4,0.3,0.4
2025-04-12T2100,3715A,117.3092,32.9314,蚌埠市,蚌埠田家炳中学,颗粒物(PM10),83,115,406,22,64,94,,93,93,18,16,4,4,0.2,0.3
2025-04-12T2100,1585A,109.8756,40.6532,包头市,市环境监测站,颗粒物(PM10),52,54,96,15,15,83,,89,89,9,4,9,9,0.4,0.4
2025-04-12T2100,1587A,109.9991,40.5842,包头市,包头八中,颗粒物(PM10),51,52,98,10,14,80,,88,88,12,5,9,9,0.3,0.3
2025-04-12T2100,1588A,109.8538,40.6821,包头市,青山宾馆,,41,41,71,7,13,82,,88,88,7,3,8,8,0.4,0.3
2025-04-12T2100,1589A,109.8642,40.6288,包头市,惠龙物流,颗粒物(PM10),60,69,103,15,40,85,,91,91,8,5,8,7,0.4,0.3
2025-04-12T2100,1590A,110.0377,40.5546,包头市,东河鸿龙湾,颗粒物(PM10),54,57,91,7,11,83,,88,88,12,8,7,7,0.2,0.2
2025-04-12T2100,3283A,109.9154,40.5685,包头市,滨河大厦,颗粒物(PM10),54,58,81,8,11,84,,90,90,6,4,9,9,0.4,0.5
2025-04-12T2100,3419A,109.9447,40.6261,包头市,包头市委党校,颗粒物(PM10),51,52,126,7,10,80,,83,83,8,3,7,6,0.4,0.4
2025-04-12T2100,3683A,109.8331,40.6576,包头市,昆区政府,,48,48,90,10,12,81,,89,88,12,6,7,3,0.6,0.5
2025-04-12T2100,1930A,107.185,34.3063,宝鸡市,庙沟村,颗粒物(PM10),129,208,1290,67,310,81,,96,90,9,3,6,6,0.4,0.4
2025-04-12T2100,1931A,107.0708,34.3017,宝鸡市,竹园沟,颗粒物(PM10),200,349,1484,109,331,62,,98,90,14,4,6,6,0.4,0.4
2025-04-12T2100,1932A,107.1906,34.3672,宝鸡市,三陆医院,细颗粒物(PM2.5),226,351,1393,176,370,56,,95,85,26,5,4,4,0.5,0.3
2025-04-12T2100,1933A,107.1431,34.3547,宝鸡市,监测站,颗粒物(PM10),262,393,1547,174,328,49,,96,79,18,5,7,7,0.6,0.5
2025-04-12T2100,1934A,107.1186,34.3739,宝鸡市,技工学校,颗粒物(PM10),268,397,1193,116,373,61,,93,87,16,4,4,4,0.6,0.4
2025-04-12T2100,1935A,107.3906,34.3528,宝鸡市,陈仓区环保局家属楼,颗粒物(PM10),182,314,917,99,282,59,,92,84,27,7,7,6,0.4,0.3
2025-04-12T2100,1936A,107.2058,34.3497,宝鸡市,文理学院,颗粒物(PM10),252,386,1465,120,320,59,,94,86,22,6,5,6,0.4,0.3
2025-04-12T2100,1937A,107.2386,34.3622,宝鸡市,三迪小学,颗粒物(PM10),252,386,1422,127,338,50,,95,86,36,8,5,8,0.7,0.5
2025-04-12T2100,1051A,115.493,38.8632,保定市,游泳馆,颗粒物(PM10),51,52,230,11,53,82,,90,87,7,4,3,3,0.1,0.1
2025-04-12T2100,1052A,115.5213,38.8959,保定市,华电二区,颗粒物(PM10),52,53,225,28,64,81,,89,87,1,2,3,3,0,0
2025-04-12T2100,1053A,115.4713,38.9108,保定市,接待中心,细颗粒物(PM2.5),119,,231,90,38,81,,88,85,3,2,3,3,0,0
2025-04-12T2100,1054A,115.4612,38.8416,保定市,地表水厂,颗粒物(PM10),54,58,318,15,51,86,,92,90,8,7,3,2,0.3,0.3
2025-04-12T2100,3581A,115.31981,38.95208,保定市,满城区生态环境分局,颗粒物(PM10),54,58,259,3,34,85,,91,89,8,5,2,2,0,0
2025-04-12T2100,3582A,115.47694,38.76408,保定市,清苑区第二中学,颗粒物(PM10),54,57,389,9,45,82,,92,89,6,4,2,3,0.2,0.2
2025-04-12T2100,3583A,115.62909,39.02311,保定市,徐水物探局,,42,42,347,3,41,81,,91,88,4,2,3,3,0.1,0
2025-04-12T2100,4004A,115.4202,38.8656,保定市,双鹰农机,颗粒物(PM10),55,59,289,29,72,82,,88,86,1,2,1,2,0.1,0.1
2025-04-12T2100,4034A,115.5150,38.8590,保定市,植保所站,颗粒物(PM10),57,63,263,26,56,75,,76,75,2,2,3,3,0.3,0.2
2025-04-12T2100,2594A,99.1678,25.1081,保山市,市环境监测站,,49,43,43,34,38,45,,84,82,15,14,10,10,0.7,0.6
2025-04-12T2100,2595A,99.1711,25.1328,保山市,市环保局,,49,49,47,31,31,50,,89,87,12,12,6,6,0.7,0.7
2025-04-12T2100,1866A,109.2262,21.588,北海市,牛尾岭水库,,,107,39,27,18,53,,59,59,,6,6,6,0.4,0.5
2025-04-12T2100,1867A,109.1436,21.4086,北海市,海滩公园,颗粒物(PM10),94,138,52,39,17,80,,72,72,12,16,6,5,0.4,0.5
2025-04-12T2100,1868A,109.0981,21.4661,北海市,新市环保局,颗粒物(PM10),120,190,51,51,26,80,,73,73,12,11,3,3,0.3,0.4
2025-04-12T2100,1869A,109.1778,21.5233,北海市,北海工业园,颗粒物(PM10),89,127,54,51,27,79,,75,75,9,12,10,9,0.3,0.5
2025-04-12T2100,3400A,109.1911,21.4415,北海市,龙潭自来水厂,颗粒物(PM10),87,123,47,34,26,82,,76,76,11,11,6,6,0.3,0.4
2025-04-12T2100,1001A,116.3621,39.8784,北京市,万寿西宫,颗粒物(PM10),93,135,131,20,16,86,,90,88,8,8,6,6,0.5,0.5
2025-04-12T2100,1002A,116.2202,40.2915,北京市,定陵,,,,,,,,,,,,,,,,
2025-04-12T2100,1003A,116.4174,39.9289,北京市,东四,颗粒物(PM10),100,149,152,26,21,78,,83,81,3,2,5,5,0.3,0.3
2025-04-12T2100,1004A,116.4072,39.8863,北京市,天坛,颗粒物(PM10),86,122,132,23,20,76,,81,79,7,6,3,1,0.4,0.4
2025-04-12T2100,1005A,116.462,39.9365,北京市,农展馆,颗粒物(PM10),87,123,121,24,17,81,,86,84,3,4,6,6,0.3,0.3
2025-04-12T2100,1006A,116.3392,39.9295,北京市,官园,颗粒物(PM10),98,146,151,26,21,75,,80,78,4,4,6,6,0.4,0.3
2025-04-12T2100,1007A,116.2878,39.9611,北京市,海淀万柳,颗粒物(PM10),82,114,124,21,15,66,,68,67,9,9,3,3,0.5,0.4
2025-04-12T2100,1008A,116.6636,40.135,北京市,顺义新城,颗粒物(PM10),146,242,168,19,21,83,,92,85,2,3,5,5,0.3,0.3
2025-04-12T2100,1009A,116.6275,40.3275,北京市,怀柔镇,颗粒物(PM10),200,349,145,23,16,73,,78,74,1,2,2,2,0.2,0.2
2025-04-12T2100,1010A,116.2296,40.217,北京市,昌平镇,颗粒物(PM10),77,104,103,20,16,77,,82,80,4,5,3,3,0.5,0.5
2025-04-12T2100,1011A,116.3966,39.9821,北京市,奥体中心,颗粒物(PM10),83,115,121,22,16,78,,82,80,7,9,2,2,0.3,0.4
2025-04-12T2100,3281A,115.9718,40.4529,北京市,延庆夏都,颗粒物(PM10),81,111,100,20,19,80,,86,83,3,4,5,5,0.3,0.3
2025-04-12T2100,3418A,116.8336,40.4095,北京市,密云新城,颗粒物(PM10),225,367,151,21,16,76,,78,76,2,2,3,4,0.3,0.2
2025-04-12T2100,3671A,116.088,39.9726,北京市,门头沟三家店,颗粒物(PM10),151,252,258,27,30,71,,77,74,1,2,4,4,0.3,0.3
2025-04-12T2100,3672A,116.1541,39.8204,北京市,丰台云岗,颗粒物(PM10),119,187,171,37,28,83,,87,85,2,2,1,2,0.2,0.2
2025-04-12T2100,3673A,116.6804,39.9081,北京市,通州东关,颗粒物(PM10),133,216,257,35,35,77,,81,79,2,4,3,4,0.5,0.4
2025-04-12T2100,3674A,115.9577,39.7603,北京市,房山燕山,颗粒物(PM10),79,108,170,24,23,77,,79,77,2,3,4,4,0.3,0.3
2025-04-12T2100,3675A,116.4672,39.7733,北京市,大兴旧宫,颗粒物(PM10),95,139,152,25,22,77,,82,81,5,5,3,3,0.2,0.2
2025-04-12T2100,3694A,115.986,40.4563,北京市,延庆石河营,颗粒物(PM10),74,98,94,17,14,81,,86,83,3,4,4,4,0.3,0.3
2025-04-12T2100,3695A,116.6151,40.3053,北京市,怀柔新城,颗粒物(PM10),165,280,123,19,16,73,,78,74,2,2,1,1,0.4,0.4
2025-04-12T2100,3696A,116.2545,39.8768,北京市,丰台小屯,颗粒物(PM10),118,185,157,35,23,71,,74,72,2,2,1,1,0.2,0.2
2025-04-12T2100,3697A,116.84,40.3844,北京市,密云镇,颗粒物(PM10),202,351,143,23,14,78,,80,79,2,2,3,4,0.3,0.3
2025-04-12T2100,4182A,116.1942,39.9158,北京市,八角北路9号,颗粒物(PM10),120,190,162,36,22,74,,79,76,1,2,3,3,0.1,0.1
2025-04-12T2100,4194A,117.0790,40.1518,北京市,洳河巡河路,颗粒物(PM10),194,338,109,23,14,79,,82,80,2,3,1,1,0.2,0.2
2025-04-12T2100,1761A,123.8275,41.3064,本溪市,大峪,,,31,24,,36,42,,130,76,24,10,4,4,0.9,0.4
2025-04-12T2100,1762A,123.7567,41.3325,本溪市,溪湖,,18,14,28,6,13,55,,125,68,12,13,5,7,0.5,0.7
2025-04-12T2100,1763A,123.7169,41.3094,本溪市,彩屯,,19,15,47,9,18,59,,116,70,11,23,8,15,0.6,1.5
2025-04-12T2100,1764A,123.7669,41.2864,本溪市,东明,,16,12,31,11,11,45,,131,74,20,9,5,5,0.9,0.7
2025-04-12T2100,1765A,123.7992,41.2664,本溪市,新立屯,,28,,24,19,12,59,,131,84,27,13,6,7,0.6,0.5
2025-04-12T2100,1766A,123.8142,41.3472,本溪市,威宁,,16,10,33,8,11,49,,120,66,8,5,4,4,0.7,0.6
2025-04-12T2100,2587A,105.2864,27.3125,毕节市,八中,颗粒物(PM10),350,460,185,101,44,69,,93,79,9,6,6,4,0.3,0.3
2025-04-12T2100,2588A,105.31,27.2944,毕节市,师专,颗粒物(PM10),319,435,179,103,45,79,,102,90,9,6,8,6,0.4,0.4
2025-04-12T2100,4263A,105.3688,27.3598,毕节市,工业大道,颗粒物(PM10),418,518,197,120,49,60,,92,74,15,9,8,7,0.4,0.5
2025-04-12T2100,1629A,118.0018,37.3617,滨州市,第二水厂,颗粒物(PM10),328,442,245,9,60,76,,86,84,8,7,6,7,0,0.4
2025-04-12T2100,1630A,117.9776,37.393,滨州市,北中新校,颗粒物(PM10),73,95,133,9,56,82,,92,90,7,8,2,8,0.4,0.4
2025-04-12T2100,3514A,117.9378,37.3956,滨州市,中海酒店,颗粒物(PM10),74,97,256,9,39,81,,90,89,5,7,6,7,0.4,0.5
2025-04-12T2100,3515A,117.9378,37.3553,滨州市,开发区一中,颗粒物(PM10),97,144,198,14,32,75,,,,13,12,11,29,0.2,0.3
2025-04-12T2100,3516A,118.0917,37.694,滨州市,金海六路,颗粒物(PM10),74,98,382,7,47,73,,90,88,10,9,5,6,0.3,0.3
2025-04-12T2100,4028A,117.9956,37.3753,滨州市,滨州市西街道办事处,颗粒物(PM10),87,124,169,19,52,89,,98,97,9,9,3,4,0.2,0.3
2025-04-12T2100,2311A,115.8072,33.8399,亳州市,污水处理厂,颗粒物(PM10),67,83,475,16,65,84,,94,94,17,11,2,2,0.2,0.2
2025-04-12T2100,2312A,115.7789,33.8518,亳州市,三国揽胜宫,颗粒物(PM10),67,84,418,18,61,81,,95,94,21,12,3,3,0.1,0.1
2025-04-12T2100,3332A,115.7633,33.8034,亳州市,亳州学院,颗粒物(PM10),61,71,447,16,55,88,,99,98,14,11,3,3,0.3,0.2
2025-04-12T2100,2693A,82.0485,44.8556,博尔塔拉蒙古自治州,市党校,颗粒物(PM10),59,68,55,21,16,132,,139,139,41,25,3,3,0.1,0.3
2025-04-12T2100,2694A,82.0806,44.8969,博尔塔拉蒙古自治州,市环保局,颗粒物(PM10),61,71,74,11,14,103,,117,117,16,16,2,2,0.6,0.5
2025-04-12T2100,1071A,116.8842,38.2991,沧州市,沧县城建局,颗粒物(PM10),74,97,340,22,56,71,,78,77,8,7,2,3,0.0,0.1
2025-04-12T2100,1072A,116.8584,38.3254,沧州市,电视转播站,颗粒物(PM10),75,99,273,22,55,79,,93,91,10,9,2,3,0.2,0.2
2025-04-12T2100,1073A,116.8709,38.3228,沧州市,市环保局,颗粒物(PM10),62,74,275,42,78,76,,90,88,9,7,3,4,0.3,0.3
2025-04-12T2100,3324A,116.8136,38.3004,沧州市,河北水利电力学院,颗粒物(PM10),91,132,437,12,38,87,,99,98,9,8,4,4,0.3,0.2
2025-04-12T2100,2622A,97.1806,31.1273,昌都市,昌都监测站,,29,14,4,12,7,90,,100,96,4,3,2,2,0.2,0.2
2025-04-12T2100,3719A,97.1714,31.1406,昌都市,昌都会议中心,,26,18,9,14,7,83,,96,94,9,5,2,2,0.2,0.1
2025-04-12T2100,2690A,88.1236,43.8886,昌吉回族自治州,天山天池,,26,26,9,6,3,58,,99,91,7,5,5,4,0.5,0.5
2025-04-12T2100,2692A,87.2717,44.0297,昌吉回族自治州,新区政务中心,,32,32,41,6,6,102,,124,123,12,10,5,5,0.3,0.3
2025-04-12T2100,3613A,87.3095,44.0142,昌吉回族自治州,亚心广场,,48,48,62,3,9,95,,120,117,18,11,8,7,0.3,0.4
2025-04-12T2100,1119A,125.3325,43.9166,长春市,食品厂,,30,19,46,12,36,94,,114,112,14,20,6,8,0.5,0.5
2025-04-12T2100,1120A,125.2863,43.9027,长春市,客车厂,,26,14,41,12,35,81,,108,104,18,19,5,6,0.5,0.5
2025-04-12T2100,1121A,125.2841,43.8463,长春市,邮电学院,,30,19,49,15,37,93,,115,113,16,20,5,7,0.4,0.5
2025-04-12T2100,1122A,125.3716,43.8772,长春市,劳动公园,,30,17,46,11,32,94,,110,110,6,16,6,8,0.3,0.4
2025-04-12T2100,1123A,125.3297,43.8805,长春市,园林处,,31,13,42,3,27,98,,118,117,9,15,6,8,0.5,0.5
2025-04-12T2100,1124A,125.4605,43.79,长春市,净月潭,,30,13,38,10,24,94,,110,109,9,12,6,7,0.2,0.2
2025-04-12T2100,1125A,125.7194,43.515,长春市,甩湾子,,,,,,,,,,,,,,,,
2025-04-12T2100,1126A,125.3863,43.8447,长春市,经开区环卫处,,27,15,44,11,30,85,,101,100,8,16,6,7,0.4,0.4
2025-04-12T2100,1127A,125.245,43.7783,长春市,高新区管委会,,28,11,41,10,35,87,,107,106,10,17,6,8,0.4,0.5
2025-04-12T2100,1128A,125.1761,43.8325,长春市,岱山公园,,26,10,42,9,32,81,,110,104,19,29,4,6,0.4,0.4
2025-04-12T2100,1335A,113.0833,28.2325,长沙市,经开区环保局,颗粒物(PM10),181,311,319,57,50,80,,95,92,17,6,5,5,0.2,0.3
2025-04-12T2100,1336A,112.8872,28.2189,长沙市,高开区环保局,颗粒物(PM10),176,301,338,49,50,90,,96,93,9,4,4,4,0.4,0.5
2025-04-12T2100,1337A,113.0792,28.2053,长沙市,马坡岭,颗粒物(PM10),181,312,316,70,61,79,,94,92,17,8,4,3,0.1,0.3
2025-04-12T2100,1338A,112.9394,28.19,长沙市,湖南师范大学,颗粒物(PM10),169,288,328,61,57,84,,92,86,11,6,4,4,0.3,0.4
2025-04-12T2100,1339A,113.0178,28.1322,长沙市,雨花区环保局,颗粒物(PM10),184,318,310,64,63,83,,88,87,13,8,4,3,0.2,0.3
2025-04-12T2100,1340A,112.9792,28.2597,长沙市,伍家岭,颗粒物(PM10),171,291,329,55,52,79,,87,84,17,10,3,2,0.2,0.4
2025-04-12T2100,1341A,113.0014,28.1944,长沙市,火车新站,颗粒物(PM10),177,303,337,63,64,82,,92,91,19,7,6,6,0.3,0.4
2025-04-12T2100,1342A,112.9844,28.1178,长沙市,天心区环保局,颗粒物(PM10),174,298,300,76,52,83,,96,92,16,8,4,3,0.1,0.2
2025-04-12T2100,1343A,112.8908,28.1308,长沙市,湖南中医药大学,颗粒物(PM10),172,294,334,53,67,90,,95,87,11,7,3,2,0.2,0.3
2025-04-12T2100,1344A,112.9581,28.3611,长沙市,沙坪,颗粒物(PM10),168,285,246,76,87,66,,76,75,9,8,5,6,0.4,0.5
2025-04-12T2100,1727A,113.1147,36.1547,长治市,清华站,颗粒物(PM10),91,131,317,7,55,88,,95,95,6,5,3,3,0.5,0.5
2025-04-12T2100,1730A,113.0886,36.2125,长治市,审计局,颗粒物(PM10),70,90,287,14,67,89,,95,95,10,8,10,5,0.2,0.1
2025-04-12T2100,1731A,113.0844,36.1856,长治市,长治八中,颗粒物(PM10),86,121,312,24,91,91,,99,98,9,7,8,7,0.4,0.4
2025-04-12T2100,2845A,113.1569,36.1911,长治市,德盛苑,颗粒物(PM10),82,113,343,12,55,89,,95,95,7,5,2,2,0.3,0.2
2025-04-12T2100,3568A,113.06,36.0464,长治市,向阳小学,颗粒物(PM10),72,94,326,24,64,93,,103,103,8,6,6,7,0.1,0.1
2025-04-12T2100,3569A,112.8792,36.3144,长治市,屯留一中,颗粒物(PM10),61,71,296,11,51,83,,97,96,19,11,5,5,0.4,0.3
2025-04-12T2100,4189A,113.1131,36.19948,长治市,英华南巷50号,颗粒物(PM10),80,109,321,14,69,92,,98,98,6,5,4,2,0.4,0.4
2025-04-12T2100,4190A,113.2367,36.3344,长治市,学府街1号,颗粒物(PM10),89,127,343,17,60,89,,98,97,8,5,5,2,0.4,0.3
2025-04-12T2100,1854A,111.6975,28.9703,常德市,市二中,颗粒物(PM10),401,501,437,126,105,58,,75,70,20,9,5,5,0.4,0.5
2025-04-12T2100,1857A,111.7158,29.1456,常德市,白鹤山,,,,,,,,,,,,,,,,
2025-04-12T2100,3138A,111.7153,29.0289,常德市,武陵区永安,颗粒物(PM10),416,516,473,111,92,82,,87,86,11,7,2,1,0.4,0.4
2025-04-12T2100,3139A,111.6892,28.9881,常德市,鼎城区玉霞,颗粒物(PM10),410,510,451,106,90,79,,86,85,10,6,3,3,0.4,0.5
2025-04-12T2100,3140A,111.6625,29.0531,常德市,武陵区长庚,颗粒物(PM10),459,559,452,106,80,86,,88,88,6,5,7,5,0.4,0.5
2025-04-12T2100,1196A,119.9633,31.762,常州市,市监测站,颗粒物(PM10),329,443,191,60,55,92,,90,90,13,28,8,10,0.4,0.7
2025-04-12T2100,1200A,119.9468,31.7069,常州市,武进监测站,颗粒物(PM10),171,291,186,84,52,88,,87,87,15,28,6,11,0.1,0.4
2025-04-12T2100,1201A,119.9255,31.9087,常州市,安家,颗粒物(PM10),172,293,187,65,56,85,,81,81,12,30,7,9,0.5,0.5
2025-04-12T2100,3002A,119.9805,31.8174,常州市,行政中心,颗粒物(PM10),140,229,150,51,52,87,,83,83,15,26,12,16,0.4,0.5
2025-04-12T2100,3003A,120.0522,31.7748,常州市,经开区,颗粒物(PM10),199,347,179,56,49,88,,83,83,16,30,8,9,0.4,0.6
2025-04-12T2100,3010A,119.9025,31.7964,常州市,钟楼,颗粒物(PM10),162,274,172,53,52,83,,82,82,15,26,6,8,0.8,1
2025-04-12T2100,3429A,119.8598,31.7066,常州市,武进经发区,颗粒物(PM10),238,376,220,73,52,88,,86,86,13,24,8,9,0.5,0.8
2025-04-12T2100,3430A,119.5826,31.7245,常州市,金坛城区,颗粒物(PM10),225,367,233,66,51,93,,90,90,9,18,6,8,0.4,0.7
2025-04-12T2100,2220A,120.4318,41.5881,朝阳市,西梁,,28,28,106,3,13,75,,84,75,6,9,11,12,0.3,0.4
2025-04-12T2100,2221A,120.4521,41.5646,朝阳市,河畔小区,,25,20,94,6,16,79,,95,78,7,10,7,7,0.3,0.4
2025-04-12T2100,2222A,120.4176,41.5648,朝阳市,八里堡,,24,24,101,8,19,76,,85,75,7,10,8,8,0.5,0.5
2025-04-12T2100,2223A,120.3806,41.5969,朝阳市,农业园区,,26,17,107,7,20,82,,85,81,6,10,9,9,0.4,0.5
2025-04-12T2100,1705A,116.6367,23.6719,潮州市,西园路,,,,,,,,,,,,,,,,
2025-04-12T2100,3026A,116.6183,23.6608,潮州市,市政府,颗粒物(PM10),68,85,45,18,22,69,,54,54,8,18,3,4,0.6,0.9
2025-04-12T2100,4036A,116.6461,23.6761,潮州市,金山,颗粒物(PM10),58,66,40,24,24,66,,56,56,8,18,6,7,0.4,0.6
2025-04-12T2100,2472A,113.0073,25.9061,郴州市,马头岭,颗粒物(PM10),276,403,225,72,38,48,,72,71,20,11,10,8,0.6,0.7
2025-04-12T2100,2473A,113.0116,25.8226,郴州市,市职中,颗粒物(PM10),235,374,179,88,50,58,,83,73,18,8,1,2,0.3,0.4
2025-04-12T2100,2475A,113.0383,25.8071,郴州市,市审计局,颗粒物(PM10),203,352,164,90,47,70,,83,78,11,7,3,2,0.3,0.4
2025-04-12T2100,2476A,113.0348,25.7759,郴州市,市环保局,颗粒物(PM10),253,387,176,97,44,68,,75,72,9,7,3,3,0.2,0.4
2025-04-12T2100,4252A,113.0138,25.8011,郴州市,好美居路49号,颗粒物(PM10),183,315,154,104,50,71,,87,75,12,9,3,3,0.3,0.5
2025-04-12T2100,1431A,103.9728,30.7236,成都市,金泉两河,颗粒物(PM10),225,367,195,102,56,50,,78,76,20,11,2,2,0.7,0.7
2025-04-12T2100,1432A,104.176,30.6872,成都市,十里店,颗粒物(PM10),308,426,265,110,72,59,,83,80,24,15,3,3,0.6,0.5
2025-04-12T2100,1433A,104.079,30.5706,成都市,三瓦窑,颗粒物(PM10),334,447,246,112,72,43,,76,73,43,22,4,4,0.5,0.4
2025-04-12T2100,1434A,104.1114,30.63,成都市,沙河铺,颗粒物(PM10),235,374,233,111,75,46,,69,67,23,14,5,6,0.6,0.6
2025-04-12T2100,1437A,104.0786,30.6531,成都市,君平街,颗粒物(PM10),215,360,210,118,75,60,,86,81,,16,6,6,0.6,0.6
2025-04-12T2100,1438A,103.613,31.0283,成都市,灵岩寺,,,,,,,,,,,,,,,,
2025-04-12T2100,2880A,104.0239,30.65639,成都市,大石西路,颗粒物(PM10),232,372,218,98,65,48,,74,72,29,16,4,4,0.5,0.4
2025-04-12T2100,3136A,104.2725,30.5589,成都市,龙泉驿区区政府,颗粒物(PM10),303,422,266,85,68,54,,72,71,21,17,4,4,0.5,0.5
2025-04-12T2100,3357A,104.0106,30.6931,成都市,金博路,颗粒物(PM10),195,340,205,89,57,51,,72,70,23,15,7,7,0.3,0.3
2025-04-12T2100,3359A,104.0578,30.5225,成都市,华阳,颗粒物(PM10),255,388,235,110,76,63,,80,79,23,18,6,5,0.7,0.6
2025-04-12T2100,3488A,104.3853,30.7453,成都市,青白江技师分院,颗粒物(PM10),290,413,278,120,83,17,,87,75,60,26,8,7,0.5,0.3
2025-04-12T2100,3489A,104.0789,30.4072,成都市,科学城,颗粒物(PM10),243,380,223,93,60,62,,72,72,12,12,4,4,0.2,0.3
2025-04-12T2100,4011A,103.8506,30.6947,成都市,光华大道三段,颗粒物(PM10),197,344,193,97,59,63,,85,83,18,13,1,1,0.5,0.5
2025-04-12T2100,4224A,104.2433,30.5353,成都市,鲸龙路1057号,颗粒物(PM10),360,468,256,109,70,62,,79,78,22,21,4,4,0.4,0.5
2025-04-12T2100,1062A,117.9531,40.9081,承德市,铁路,颗粒物(PM10),80,110,152,11,17,82,,82,81,3,7,6,6,0.2,0.2
2025-04-12T2100,1063A,117.9392,40.9763,承德市,中国银行,颗粒物(PM10),79,108,125,10,16,86,,85,84,2,3,3,3,0.1,0.2
2025-04-12T2100,1064A,117.9503,40.928,承德市,开发区,颗粒物(PM10),68,86,126,18,23,79,,80,80,6,6,6,7,0.2,0.2
2025-04-12T2100,1065A,117.8051,40.9655,承德市,文化中心,颗粒物(PM10),86,121,147,15,20,84,,83,83,2,5,4,4,0.2,0.2
2025-04-12T2100,1066A,117.9268,41.0026,承德市,离宫,,,,41,,33,,,52,,,14,,36,,0.3
2025-04-12T2100,2314A,117.47,30.6618,池州市,池州学院,颗粒物(PM10),142,234,235,55,63,99,,104,103,3,4,4,4,0.2,0.3
2025-04-12T2100,3237A,117.4918,30.6617,池州市,展览馆,颗粒物(PM10),143,236,238,51,57,99,,108,103,4,4,4,4,0.2,0.3
2025-04-12T2100,3333A,117.5627,30.695,池州市,第八中学,颗粒物(PM10),157,263,271,52,58,93,,103,100,3,5,4,4,0.3,0.4
2025-04-12T2100,3334A,117.5038,30.6243,池州市,第十二中学,颗粒物(PM10),152,254,243,53,53,100,,110,103,3,3,5,5,,0.5
2025-04-12T2100,1744A,118.9233,42.2816,赤峰市,松山一中,,44,44,98,3,12,92,,90,90,8,10,8,8,0.3,0.4
2025-04-12T2100,1745A,118.9576,42.2728,赤峰市,哈达街,,37,37,91,3,12,83,,80,80,7,9,8,9,0.5,0.5
2025-04-12T2100,1746A,118.8788,42.2554,赤峰市,天义路,,,,96,,28,,,85,,,8,,6,,0.2
2025-04-12T2100,3058A,119.2658,42.0353,赤峰市,银河街,,47,47,114,9,14,82,,82,81,5,7,12,13,0.3,0.3
2025-04-12T2100,3286A,118.9359,42.3147,赤峰市,桥北物流园区,,24,21,69,7,14,75,,73,73,6,7,6,6,0.6,0.5
2025-04-12T2100,2521A,107.3476,22.4136,崇左市,市环保局江州分局,,28,28,49,7,31,83,,98,90,6,8,5,6,0.4,0.7
2025-04-12T2100,4256A,107.3750,22.3736,崇左市,石景林东路7号,,28,20,44,3,30,88,,109,97,7,9,4,5,0.6,0.8
2025-04-12T2100,2298A,118.3093,32.3153,滁州市,老年大学,颗粒物(PM10),116,181,287,46,70,90,,95,95,12,15,2,5,0.1,0.3
2025-04-12T2100,2299A,118.3244,32.2786,滁州市,人大宾馆,颗粒物(PM10),132,213,363,44,68,92,,96,96,6,14,7,8,0.3,0.4
2025-04-12T2100,3207A,118.3118,32.3038,滁州市,市政府原办公楼,颗粒物(PM10),116,182,305,47,74,89,,94,94,6,6,3,4,0.2,0.4
2025-04-12T2100,3331A,118.3267,32.2634,滁州市,图书馆,颗粒物(PM10),158,266,290,44,71,91,,97,97,8,9,6,7,0.3,0.5
2025-04-12T2100,2605A,101.5482,25.0441,楚雄彝族自治州,州环境监测站,,24,16,29,15,23,74,,85,82,8,13,8,8,0.4,0.5
2025-04-12T2100,2606A,101.538,25.0492,楚雄彝族自治州,市经济开发区,,25,25,35,8,17,72,,87,80,8,12,6,7,0.5,0.6
2025-04-12T2100,2548A,107.5277,31.2827,达州市,达州职业技术学院,颗粒物(PM10),185,319,679,101,145,19,,90,76,47,12,5,4,0.4,0.4
2025-04-12T2100,2549A,107.5086,31.2186,达州市,市环境监测站,颗粒物(PM10),233,373,662,102,127,19,,91,75,70,18,4,4,0.7,0.4
2025-04-12T2100,2550A,107.4988,31.2132,达州市,凤凰小区,颗粒物(PM10),233,373,705,90,131,56,,92,82,34,15,6,6,0.3,0.2
2025-04-12T2100,2551A,107.5082,31.1986,达州市,达县机关宾馆,颗粒物(PM10),209,356,716,103,152,3,,84,62,66,20,6,4,0.5,0.3
2025-04-12T2100,2552A,107.4644,31.2124,达州市,市政中心,颗粒物(PM10),205,353,611,100,121,22,,98,82,61,16,1,1,0.5,0.3
2025-04-12T2100,2614A,100.1542,25.7054,大理白族自治州,大理市环境监测站,,49,,31,34,30,77,,83,82,13,11,7,7,0.7,0.8
2025-04-12T2100,2615A,100.2171,25.5811,大理白族自治州,大理古城,,38,,32,26,31,64,,90,82,19,12,7,7,0.8,0.8
2025-04-12T2100,1109A,121.612,38.9741,大连市,甘井子,颗粒物(PM10),53,55,51,17,19,74,,112,88,20,16,5,6,0.4,0.4
2025-04-12T2100,1110A,121.565,38.9511,大连市,周水子,颗粒物(PM10),53,56,89,16,21,65,,100,75,13,11,4,6,0.3,0.3
2025-04-12T2100,1111A,121.5637,38.8845,大连市,星海三站,颗粒物(PM10),51,52,53,15,20,78,,110,87,6,5,6,6,0.4,0.3
2025-04-12T2100,1112A,121.6302,38.9117,大连市,青泥洼桥,颗粒物(PM10),54,57,53,16,19,74,,111,86,18,13,8,8,0.4,0.5
2025-04-12T2100,1113A,121.6251,38.8638,大连市,傅家庄,颗粒物(PM10),55,59,56,13,19,75,,106,82,15,15,6,6,0.2,0.2
2025-04-12T2100,1114A,121.5213,38.8661,大连市,七贤岭,颗粒物(PM10),53,55,56,13,19,78,,101,84,10,11,5,5,0.2,0.3
2025-04-12T2100,1115A,121.2529,38.8061,大连市,旅顺,颗粒物(PM10),52,53,50,11,18,74,,94,77,11,14,6,7,0.4,0.5
2025-04-12T2100,1116A,121.7485,39.1311,大连市,金州,颗粒物(PM10),55,60,52,10,18,73,,115,84,15,14,6,6,0.3,0.4
2025-04-12T2100,1117A,121.7811,39.0496,大连市,开发区,颗粒物(PM10),53,55,52,15,20,58,,90,74,19,16,8,8,0.4,0.4
2025-04-12T2100,1118A,121.9762,39.0631,大连市,双D港,,33,33,50,11,18,68,,105,88,7,6,8,8,0.3,0.3
2025-04-12T2100,1789A,124.81117,46.03138,大庆市,大同区,,32,,59,20,34,101,,88,88,11,14,6,6,0.6,0.6
2025-04-12T2100,1790A,125.129,46.533,大庆市,龙凤区,,36,25,70,16,31,115,,103,103,10,18,6,7,0.5,0.5
2025-04-12T2100,1791A,124.902,46.408,大庆市,红岗区,,34,21,50,18,28,107,,102,102,7,14,7,7,0.5,0.5
2025-04-12T2100,1792A,125.153,46.586,大庆市,萨尔图区,,32,17,73,12,34,101,,93,93,14,21,8,9,0.5,0.5
2025-04-12T2100,1793A,124.9042,46.6215,大庆市,让胡路区,,39,,52,27,32,89,,77,77,11,14,6,6,0.4,0.3
2025-04-12T2100,3481A,125.141,46.634,大庆市,萨区政府监测点,,34,22,75,7,24,106,,97,97,12,16,6,7,0.5,0.5
2025-04-12T2100,1721A,113.3819,40.1097,大同市,果树场,,37,37,56,3,12,72,,82,79,7,6,9,7,0.3,0.3
2025-04-12T2100,1723A,113.2994,40.0758,大同市,云冈宾馆,,42,29,31,29,14,79,,88,86,9,5,9,7,0.2,0.1
2025-04-12T2100,1724A,113.3444,40.0917,大同市,大同大学,,25,20,61,10,11,78,,85,82,4,1,7,8,0.4,0.3
2025-04-12T2100,1725A,113.2661,40.1269,大同市,安家小村,,24,21,54,3,7,75,,74,74,4,3,11,9,0.4,0.3
2025-04-12T2100,1726A,113.2711,40.0844,大同市,教育学院,,25,20,50,8,8,78,,87,84,9,5,8,7,0.4,0.4
2025-04-12T2100,3282A,113.3397,40.0597,大同市,大同市卫生学校,,23,,40,10,8,73,,86,79,10,5,7,6,0.4,0.4
2025-04-12T2100,3565A,113.1367,40.1122,大同市,云冈站,,23,10,43,3,8,71,,79,76,7,6,8,8,0.3,0.3
2025-04-12T2100,3566A,113.1186,40.2556,大同市,图书馆,,21,21,84,9,17,64,,72,69,9,3,10,8,0.8,0.8
2025-04-12T2100,3567A,113.5931,40.0461,大同市,区一中,,25,11,79,3,6,77,,84,82,3,3,12,12,0.3,0.3
2025-04-12T2100,4199A,113.2798,40.0997,大同市,魏都大道141号,,25,20,58,3,15,78,,86,84,10,5,13,11,0.4,0.3
2025-04-12T2100,2269A,124.1069,50.4097,大兴安岭地区,科技局,,25,20,20,17,16,78,,79,77,4,4,2,2,0.2,0.2
2025-04-12T2100,3663A,124.1164,50.4278,大兴安岭地区,红旗社区,,25,6,5,3,4,80,,78,78,1,2,4,4,0.2,0.2
2025-04-12T2100,1600A,124.3303,40.0625,丹东市,江湾东路,,31,19,41,6,26,97,,122,96,8,15,7,9,0.2,0.4
2025-04-12T2100,1601A,124.4256,40.1503,丹东市,临江后街,,30,15,62,3,28,95,,119,94,5,17,4,6,0.5,0.8
2025-04-12T2100,1602A,124.3933,40.1461,丹东市,元宝山,,29,14,38,11,24,90,,118,90,8,14,6,6,0.3,0.5
2025-04-12T2100,1603A,124.3633,40.1092,丹东市,民主桥,,30,24,41,3,22,95,,120,94,8,14,9,9,0.7,0.9
2025-04-12T2100,3541A,109.5726,19.5167,儋州市,第一中学子站,,43,43,35,25,33,68,,98,97,6,6,4,5,0.5,0.5
2025-04-12T2100,3542A,109.5567,19.5187,儋州市,东坡学校子站,,42,42,37,15,21,75,,105,103,6,6,5,5,0.4,0.5
2025-04-12T2100,2616A,98.5842,24.428,德宏傣族景颇族自治州,德宏州监测站,,36,36,52,21,36,28,,76,70,29,20,7,8,0.3,0.7
2025-04-12T2100,3677A,98.5881,24.4368,德宏傣族景颇族自治州,芒市人民政府综合楼,颗粒物(PM10),55,60,74,26,40,37,,82,73,15,17,6,6,0.8,0.7
2025-04-12T2100,1901A,104.4239,31.1208,德阳市,东山公园,颗粒物(PM10),392,493,200,120,63,70,,90,88,21,12,3,3,0.3,0.3
2025-04-12T2100,1902A,104.3826,31.1317,德阳市,西小区,颗粒物(PM10),377,481,190,127,61,66,,86,83,22,14,2,3,0.5,0.4
2025-04-12T2100,1904A,104.3553,31.1091,德阳市,耐火材料厂,颗粒物(PM10),338,450,195,119,58,55,,87,82,28,13,4,4,0.4,0.3
2025-04-12T2100,3639A,104.4019,31.1244,德阳市,市教育局,颗粒物(PM10),347,457,180,123,62,64,,89,86,24,14,4,4,0.6,0.5
2025-04-12T2100,1622A,116.3032,37.4674,德州市,儿童乐园,,,78,421,12,65,,,93,92,5,8,4,4,0.3,0.2
2025-04-12T2100,1624A,116.2991,37.4451,德州市,监理站,颗粒物(PM10),64,78,543,7,61,70,,91,87,20,10,12,12,0.4,0.3
2025-04-12T2100,3066A,116.2721,37.4379,德州市,九衢泉纯净水厂,颗粒物(PM10),67,83,225,19,68,79,,91,88,12,12,43,18,0.4,0.5
2025-04-12T2100,3371A,116.3728,37.4403,德州市,开发区人民医院,颗粒物(PM10),60,70,488,12,56,77,,89,87,9,7,5,6,0.4,0.4
2025-04-12T2100,3372A,116.3572,37.4094,德州市,太阳城中学,颗粒物(PM10),65,80,506,12,64,77,,90,88,11,6,6,5,0.7,0.8
2025-04-12T2100,3511A,116.5652,37.3319,德州市,陵城艺术中心,颗粒物(PM10),67,83,345,12,43,75,,81,81,7,8,2,2,0.5,0.5
2025-04-12T2100,2621A,99.7056,27.8317,迪庆藏族自治州,迪庆州站,,30,20,23,10,13,95,,116,109,9,8,9,9,0.5,0.5
2025-04-12T2100,3180A,99.7136,27.8094,迪庆藏族自治州,质量技术监督局,,30,,17,13,8,93,,114,106,12,9,9,9,0.6,0.6
2025-04-12T2100,4257A,104.6092,35.5962,定西市,将台街,,,,1262,,238,,,108,108,31,10,10,5,0.4,0.4
2025-04-12T2100,4309A,104.6159,35.5701,定西市,正龙路62号,颗粒物(PM10),146,242,1339,73,220,81,,110,108,15,5,16,9,0.5,0.3
2025-04-12T2100,1389A,113.7547,23.0494,东莞市,莞城梨川,颗粒物(PM10),62,73,25,24,17,80,,61,61,5,12,4,5,0.4,0.5
2025-04-12T2100,1390A,113.7944,23.0128,东莞市,东城石井,颗粒物(PM10),55,59,24,24,12,77,,86,,9,14,5,5,0.5,0.5
2025-04-12T2100,1391A,113.7383,22.9658,东莞市,南城西平,,46,46,22,15,11,79,,60,60,10,12,5,5,0.5,0.6
2025-04-12T2100,3319A,113.7338,23.0381,东莞市,万江金泰,,45,45,23,13,14,83,,56,56,2,8,4,5,0.8,0.8
2025-04-12T2100,3626A,113.7533,23.0202,东莞市,南城元岭,颗粒物(PM10),53,56,22,22,14,78,,59,59,2,9,6,5,0.6,0.7
2025-04-12T2100,3627A,113.7875,23.0457,东莞市,东城主山,颗粒物(PM10),61,72,28,20,12,76,,57,57,14,18,3,3,0.4,0.6
2025-04-12T2100,1666A,118.6614,37.4309,东营市,市环保局,颗粒物(PM10),84,117,167,7,52,90,,94,94,6,9,3,5,0.3,0.4
2025-04-12T2100,3036A,118.6904,37.4338,东营市,开发区管委会,颗粒物(PM10),102,153,340,22,47,81,,77,77,10,31,2,4,0.5,0.6
2025-04-12T2100,3365A,118.5719,37.565,东营市,垦利区民丰路,颗粒物(PM10),79,107,314,19,40,79,,91,90,6,12,10,7,1.1,1
2025-04-12T2100,3498A,118.5055,37.8612,东营市,河口城区,颗粒物(PM10),76,102,315,15,34,81,,91,90,10,14,4,4,0.8,0.8
2025-04-12T2100,3646A,118.4978,37.4623,东营市,胜利站,颗粒物(PM10),79,107,275,3,35,83,,94,93,12,15,6,8,0.4,0.6
2025-04-12T2100,3734A,118.35,37.26,东营市,理想之城,颗粒物(PM10),89,127,310,7,41,83,,93,92,8,12,4,6,0.3,0.4
2025-04-12T2100,1591A,110.0023,39.8129,鄂尔多斯市,综合楼,,44,44,167,12,13,76,,87,86,16,7,5,4,0.2,0.1
2025-04-12T2100,1592A,109.9486,39.8261,鄂尔多斯市,巴音孟克林场办事处,颗粒物(PM10),53,56,143,27,21,71,,89,87,21,6,6,6,0.3,0.1
2025-04-12T2100,1593A,109.7736,39.5986,鄂尔多斯市,康泽苑,细颗粒物(PM2.5),62,,128,44,33,82,,90,90,6,3,4,4,0.2,0.2
2025-04-12T2100,1594A,109.8119,39.5989,鄂尔多斯市,华泰汽车城,,41,41,124,9,17,78,,86,86,9,4,3,4,0.3,0.3
2025-04-12T2100,1595A,109.9734,39.7884,鄂尔多斯市,奥林花园,,41,41,149,14,19,80,,90,89,12,6,5,5,0.3,0.3
2025-04-12T2100,2436A,114.8938,30.3994,鄂州市,市政府,颗粒物(PM10),107,163,264,30,55,89,,92,92,6,3,4,4,0.3,0.4
2025-04-12T2100,2437A,114.8989,30.3714,鄂州市,赵家坝,颗粒物(PM10),122,193,281,29,55,,,73,73,12,7,3,3,0.4,0.5
2025-04-12T2100,3654A,114.8094,30.4089,鄂州市,精准医疗中心,颗粒物(PM10),105,160,263,35,57,108,,111,111,5,2,4,4,0.2,0.4
2025-04-12T2100,2454A,109.4978,30.2981,恩施土家族苗族自治州,湖北民院,,,,112,,40,59,,78,76,8,6,8,5,,0.2
2025-04-12T2100,2455A,109.4707,30.2798,恩施土家族苗族自治州,州电力总公司,颗粒物(PM10),280,406,156,103,42,66,,78,78,12,6,4,4,0.4,0.3
2025-04-12T2100,3549A,109.5061,30.3772,恩施土家族苗族自治州,龙凤新区,颗粒物(PM10),289,412,137,95,31,50,,73,71,7,8,6,6,0.3,0.4
2025-04-12T2100,2499A,108.3411,21.6158,防城港市,沙万,颗粒物(PM10),80,109,42,23,20,73,,66,66,3,9,3,2,0.3,0.5
2025-04-12T2100,2500A,108.3514,21.7731,防城港市,防城档案局,颗粒物(PM10),87,124,42,22,24,66,,70,70,9,4,1,2,0.3,0.5
2025-04-12T2100,2501A,108.3506,21.6414,防城港市,大海花园,颗粒物(PM10),82,114,41,23,17,77,,75,75,6,5,2,2,0.3,0.5
2025-04-12T2100,1371A,113.1294,23.0067,佛山市,湾梁,颗粒物(PM10),141,232,47,26,15,64,,61,61,15,20,7,7,0.5,0.5
2025-04-12T2100,1372A,113.1083,23.0478,佛山市,华材职中,颗粒物(PM10),169,288,59,44,18,60,,59,59,18,20,7,6,0.4,0.5
2025-04-12T2100,1373A,113.144,23.0453,佛山市,南海气象局,颗粒物(PM10),129,207,48,28,19,57,,55,55,15,19,6,6,0.5,0.6
2025-04-12T2100,1374A,113.2881,22.8094,佛山市,顺德苏岗,颗粒物(PM10),66,82,34,24,14,64,,50,50,10,16,5,6,0.5,0.6
2025-04-12T2100,1376A,112.8383,22.8678,佛山市,高明孔堂,颗粒物(PM10),202,351,57,52,19,58,,61,61,20,10,7,5,0.5,0.6
2025-04-12T2100,1377A,112.8836,23.1588,佛山市,三水监测站,颗粒物(PM10),383,486,74,54,26,59,,65,65,19,22,4,5,0.3,0.4
2025-04-12T2100,1378A,112.867,23.185,佛山市,三水云东海,颗粒物(PM10),253,387,80,75,26,54,,58,58,17,25,4,4,0.4,0.6
2025-04-12T2100,3625A,113.2544,22.7642,佛山市,容桂街道办,颗粒物(PM10),70,90,30,27,18,64,,49,49,12,21,5,6,0.5,0.6
2025-04-12T2100,1280A,119.3903,26.0543,福州市,鼓山,,,,23,,16,,,60,,,5,,3,,0.3
2025-04-12T2100,1282A,119.2681,26.0504,福州市,师大,颗粒物(PM10),51,52,39,11,24,93,,70,70,2,15,3,3,0.2,0.4
2025-04-12T2100,1283A,119.2984,26.1028,福州市,五四北路,,36,36,40,13,30,86,,65,65,9,23,3,3,0.4,0.6
2025-04-12T2100,1284A,119.2648,26.0768,福州市,杨桥西路,颗粒物(PM10),59,68,44,11,30,90,,70,70,5,19,3,3,0.3,0.5
2025-04-12T2100,1285A,119.317,26.0746,福州市,紫阳,颗粒物(PM10),54,57,44,12,33,85,,57,57,7,24,4,4,0.3,0.5
2025-04-12T2100,3048A,119.5799,26.0936,福州市,九龙,,25,10,23,3,18,78,,56,56,6,10,3,3,0.3,0.4
2025-04-12T2100,3526A,119.5189,25.9664,福州市,吴航,,27,26,26,13,19,85,,58,58,6,10,3,3,0.3,0.5
2025-04-12T2100,1755A,123.7977,41.8491,抚顺市,望花区,,23,,29,16,18,53,,118,72,19,19,8,16,0.4,0.5
2025-04-12T2100,1756A,123.9161,41.8822,抚顺市,顺城区,,28,25,26,19,14,54,,121,74,23,17,6,8,0.8,0.6
2025-04-12T2100,1757A,124.0436,41.8611,抚顺市,东洲区,,18,15,26,10,14,55,,128,74,16,12,4,6,0.6,0.6
2025-04-12T2100,1758A,123.9247,41.8642,抚顺市,新抚区,,22,,28,15,12,54,,109,72,17,15,5,7,0.7,0.7
2025-04-12T2100,1759A,124.0972,41.8961,抚顺市,大伙房水库,,22,19,22,15,13,63,,134,82,13,7,7,7,0.7,0.5
2025-04-12T2100,1760A,123.7086,41.8391,抚顺市,沈抚新城,,18,,26,12,10,52,,113,66,20,18,5,7,0.5,0.6
2025-04-12T2100,2376A,116.2127,28.0814,抚州市,桐源党溪,颗粒物(PM10),195,340,199,76,49,38,,81,68,3,3,6,5,0.4,0.5
2025-04-12T2100,2377A,116.3544,27.9831,抚州市,市站,颗粒物(PM10),309,427,222,79,49,58,,74,73,12,4,13,8,0.8,0.9
2025-04-12T2100,2378A,116.3565,27.963,抚州市,血防站,颗粒物(PM10),215,360,203,77,46,53,,75,74,20,3,2,5,0.5,1
2025-04-12T2100,2379A,116.3564,28.0007,抚州市,采茶剧团,颗粒物(PM10),262,393,215,82,51,62,,80,79,8,2,8,2,1.3,1.3
2025-04-12T2100,2380A,116.385,27.9647,抚州市,医学分院,颗粒物(PM10),225,367,207,78,47,62,,79,78,12,5,3,4,0.4,0.8
2025-04-12T2100,2207A,121.6094,41.998,阜新市,工业园区,,23,6,43,3,18,72,,90,74,8,9,6,8,0.2,0.3
2025-04-12T2100,2208A,121.6697,42.0279,阜新市,长青街,,23,7,39,7,16,71,,90,73,7,8,4,5,0.3,0.4
2025-04-12T2100,2209A,121.6673,42.0705,阜新市,农业园区,,21,6,37,3,18,67,,92,69,4,6,6,7,0.4,0.5
2025-04-12T2100,2210A,121.6717,42.0224,阜新市,东苑,,21,7,41,3,15,66,,90,68,7,10,4,7,0.5,0.5
2025-04-12T2100,2211A,121.6506,42.0498,阜新市,玉龙新城,,22,7,42,3,14,69,,87,71,8,8,7,8,0.3,0.5
2025-04-12T2100,2301A,115.8277,32.8929,阜阳市,市监测站,颗粒物(PM10),70,89,295,25,62,83,,95,92,11,10,7,7,0.2,0.2
2025-04-12T2100,2303A,115.8554,32.8605,阜阳市,开发区,颗粒物(PM10),92,133,437,20,45,92,,97,95,12,11,6,5,0.4,0.4
2025-04-12T2100,2875A,115.784,32.8892,阜阳市,阜阳职业技术学院,颗粒物(PM10),80,110,404,24,49,80,,87,86,15,8,7,6,0.2,0.2
2025-04-12T2100,3468A,115.7901,32.8613,阜阳市,市规划展馆,颗粒物(PM10),75,100,331,25,45,83,,101,95,9,5,6,6,0.5,0.4
2025-04-12T2100,3469A,115.836,32.9183,阜阳市,枣园社区,颗粒物(PM10),70,90,313,31,54,92,,101,99,15,13,4,6,0.3,0.3
2025-04-12T2100,2669A,102.9099,34.9841,甘南藏族自治州,州政府,,38,35,62,26,21,80,,95,94,7,11,7,7,0.3,0.3
2025-04-12T2100,3380A,102.8914,34.9617,甘南藏族自治州,甘肃民族师范学院,,49,49,66,14,20,53,,95,90,34,21,12,9,0.5,0.5
2025-04-12T2100,2570A,101.9603,30.0475,甘孜藏族自治州,水桥子,,27,9,5,3,5,86,,93,82,10,7,4,4,0.0,0
2025-04-12T2100,3065A,101.9533,29.9972,甘孜藏族自治州,州环保局,,31,11,8,7,5,99,,96,83,5,9,1,1,0.1,0.1
2025-04-12T2100,3414A,115.8347,28.932,赣江新区,桑海产业园,颗粒物(PM10),293,415,333,79,131,55,,77,69,24,12,4,4,0.3,0.3
2025-04-12T2100,2362A,114.9017,25.9149,赣州市,通天岩,颗粒物(PM10),188,325,79,27,10,56,,100,83,2,2,13,14,0.8,1
2025-04-12T2100,2363A,114.9367,25.8664,赣州市,地委,颗粒物(PM10),190,329,76,71,24,43,,68,60,11,7,1,1,0.8,1.1
2025-04-12T2100,2364A,114.9461,25.8481,赣州市,气象台,颗粒物(PM10),198,346,96,72,23,67,,84,77,14,10,7,8,0.4,0.7
2025-04-12T2100,2365A,114.9322,25.8333,赣州市,市图书馆,颗粒物(PM10),283,408,110,76,28,77,,90,85,10,7,4,4,0.3,0.6
2025-04-12T2100,2366A,114.8905,25.8471,赣州市,华坚鞋城,颗粒物(PM10),490,590,118,102,29,70,,82,76,11,10,9,10,0.1,0.3
2025-04-12T2100,3109A,115.0093,25.8613,赣州市,赣县区卫计委,颗粒物(PM10),239,377,82,78,28,63,,79,72,5,3,3,4,0.2,0.3
2025-04-12T2100,2683A,106.2319,36.1417,固原市,马园,颗粒物(PM10),95,140,1073,41,190,65,,87,84,15,7,4,5,0.6,0.6
2025-04-12T2100,2684A,106.2792,36.0022,固原市,监测站,颗粒物(PM10),95,140,992,38,189,76,,91,89,13,4,3,3,0.3,0.4
2025-04-12T2100,2685A,106.2375,36.0211,固原市,新区,颗粒物(PM10),88,125,983,46,186,74,,89,87,14,5,5,5,0.3,0.4
2025-04-12T2100,3522A,106.2177,35.9959,固原市,原州区十五小,颗粒物(PM10),101,151,814,65,218,77,,97,94,12,5,5,5,,0.2
2025-04-12T2100,2543A,106.6308,30.5278,广安市,小平旧居,,,,,,,,,,,,,,,,
2025-04-12T2100,2544A,106.6303,30.4576,广安市,市委,颗粒物(PM10),500,810,587,194,124,65,,107,100,21,8,8,5,0.4,0.3
2025-04-12T2100,2545A,106.6271,30.4663,广安市,友谊中学,颗粒物(PM10),500,707,482,176,117,69,,97,91,19,12,5,3,0.1,0.2
2025-04-12T2100,2547A,106.6388,30.4551,广安市,广电花园,颗粒物(PM10),500,705,499,183,113,58,,100,91,23,15,6,3,0.3,0.3
2025-04-12T2100,2902A,106.6351,30.4865,广安市,北辰小学,颗粒物(PM10),500,899,618,175,117,74,,94,90,15,10,6,6,0.4,0.2
2025-04-12T2100,2523A,105.8945,32.4535,广元市,黑石坡,颗粒物(PM10),500,831,1391,245,269,69,,84,76,11,4,2,1,0.2,0.2
2025-04-12T2100,2524A,105.821,32.4444,广元市,老城,颗粒物(PM10),500,724,1353,175,286,71,,90,76,14,6,1,1,0.3,0.3
2025-04-12T2100,2526A,105.8628,32.4287,广元市,监测站,颗粒物(PM10),480,580,1274,167,300,82,,92,82,9,4,6,6,0.3,0.3
2025-04-12T2100,3617A,105.8047,32.4166,广元市,经开区,颗粒物(PM10),295,416,1455,132,344,85,,80,73,9,15,3,2,0.3,0.2
2025-04-12T2100,1345A,113.2347,23.1423,广州市,广雅中学,颗粒物(PM10),114,177,46,51,18,54,,50,50,34,24,4,3,0.4,0.5
2025-04-12T2100,1346A,113.2612,23.105,广州市,市五中,颗粒物(PM10),86,122,31,43,17,62,,60,60,8,22,2,1,0.6,0.6
2025-04-12T2100,1348A,113.3478,23.0916,广州市,广东商学院,颗粒物(PM10),75,100,34,38,16,72,,63,63,10,26,4,4,0.4,0.5
2025-04-12T2100,1349A,113.4332,23.1047,广州市,市八十六中,颗粒物(PM10),79,107,37,33,14,72,,58,58,9,31,2,3,0.7,0.7
2025-04-12T2100,1350A,113.3505,22.9483,广州市,番禺中学,颗粒物(PM10),70,89,34,22,15,74,,60,60,8,23,4,4,0.4,0.5
2025-04-12T2100,1351A,113.2146,23.3916,广州市,花都师范,颗粒物(PM10),143,235,56,39,18,62,,65,65,10,24,4,3,0.4,0.6
2025-04-12T2100,1352A,113.2597,23.1331,广州市,市监测站,颗粒物(PM10),90,129,38,38,17,56,,52,52,13,26,5,4,0.5,0.4
2025-04-12T2100,1353A,113.5618,23.312,广州市,九龙镇镇龙,颗粒物(PM10),79,108,34,29,17,76,,66,66,8,23,4,5,0.4,0.5
2025-04-12T2100,1354A,113.2765,23.1544,广州市,麓湖,颗粒物(PM10),96,141,39,41,15,65,,61,61,10,23,4,3,0.4,0.5
2025-04-12T2100,1355A,113.443,23.3035,广州市,帽峰山森林公园,细颗粒物(PM2.5),114,158,34,86,20,77,,68,68,7,20,5,3,0.3,0.5
2025-04-12T2100,2846A,113.3221,23.1322,广州市,体育西,,,106,40,34,12,60,,40,,,26,,4,0.6,0.5
2025-04-12T2100,3298A,113.5717,23.5491,广州市,从化街口,颗粒物(PM10),89,127,34,33,17,74,,74,74,7,14,8,8,0.6,0.7
2025-04-12T2100,3299A,113.3472,23.3692,广州市,白云竹料,颗粒物(PM10),94,138,44,38,18,78,,77,77,7,20,7,6,0.4,0.5
2025-04-12T2100,3300A,113.2981,23.237,广州市,白云嘉禾,颗粒物(PM10),93,136,40,34,18,60,,58,58,15,31,4,4,0.5,0.7
2025-04-12T2100,3301A,113.4256,23.1716,广州市,黄埔科学城,颗粒物(PM10),70,90,37,26,17,81,,66,66,5,24,7,7,0.3,0.3
2025-04-12T2100,3302A,113.3942,23.0483,广州市,番禺大学城,,46,46,34,28,17,78,,67,67,9,25,6,8,0.4,0.4
2025-04-12T2100,3303A,113.4922,22.8168,广州市,南沙黄阁,颗粒物(PM10),53,55,27,14,14,61,,54,54,16,17,5,4,0.7,0.7
2025-04-12T2100,3304A,113.5342,22.7896,广州市,南沙街,,39,39,27,13,14,63,,54,54,16,16,5,4,0.5,0.5
2025-04-12T2100,3443A,113.2902,23.5544,广州市,花都梯面,颗粒物(PM10),139,227,51,56,19,62,,72,72,10,22,4,4,0.6,0.7
2025-04-12T2100,3445A,113.7858,23.7478,广州市,从化良口,颗粒物(PM10),146,242,33,55,17,81,,84,84,6,9,6,6,0.3,0.5
2025-04-12T2100,3446A,113.8051,23.2614,广州市,增城荔城,颗粒物(PM10),52,53,30,22,17,77,,64,64,7,20,7,6,0.2,0.2
2025-04-12T2100,2505A,109.568,23.1478,贵港市,德智高中,,,,,,,,,,,,,,,,
2025-04-12T2100,2506A,109.6047,23.0666,贵港市,江南子站,颗粒物(PM10),213,359,119,64,34,82,,92,90,14,11,2,3,0.4,0.6
2025-04-12T2100,2508A,109.5669,23.1065,贵港市,荷城子站,颗粒物(PM10),171,292,89,63,35,76,,83,81,11,14,3,4,0.3,0.3
2025-04-12T2100,3405A,109.5886,23.1172,贵港市,新世纪学校,颗粒物(PM10),190,329,108,72,40,78,,86,83,11,14,1,7,0.6,0.8
2025-04-12T2100,4260A,109.5933,23.0951,贵港市,中山路155-3号,颗粒物(PM10),190,330,102,61,36,81,,90,88,12,11,6,6,0.7,0.8
2025-04-12T2100,1439A,106.6899,26.5998,贵阳市,马鞍山,颗粒物(PM10),194,337,149,80,43,54,,81,73,9,8,4,4,0.2,0.3
2025-04-12T2100,1441A,106.6243,26.6266,贵阳市,鉴湖路,颗粒物(PM10),279,405,172,90,45,64,,86,80,10,6,10,10,0.3,0.4
2025-04-12T2100,1442A,106.7487,26.6343,贵阳市,燕子冲,颗粒物(PM10),245,381,155,90,54,69,,81,78,11,11,2,2,0,0.2
2025-04-12T2100,1443A,106.6555,26.4365,贵阳市,碧云窝,颗粒物(PM10),370,476,188,107,47,73,,98,84,12,10,6,5,0.3,0.3
2025-04-12T2100,1445A,106.7109,26.6027,贵阳市,红边门,颗粒物(PM10),318,434,170,88,49,76,,90,84,14,13,3,3,0,0.2
2025-04-12T2100,1446A,106.7164,26.5699,贵阳市,新华路,颗粒物(PM10),355,464,177,85,48,75,,86,84,11,9,2,3,0.1,0.3
2025-04-12T2100,1447A,106.674,26.5424,贵阳市,太慈桥,颗粒物(PM10),337,449,166,97,46,74,,83,82,14,13,5,5,0.4,0.3
2025-04-12T2100,1552A,106.805,26.3003,贵阳市,桐木岭,颗粒物(PM10),409,509,159,122,50,78,,101,88,7,4,3,1,0.5,0.7
2025-04-12T2100,4230A,106.6882,26.5695,贵阳市,花果园大街66号,颗粒物(PM10),358,466,168,106,50,72,,83,77,11,10,4,4,0.2,0.2
2025-04-12T2100,4231A,106.6873,26.5169,贵阳市,漓江路57号,颗粒物(PM10),355,464,169,110,51,78,,87,85,12,9,9,8,0.3,0.4
2025-04-12T2100,1862A,110.4144,25.3167,桂林市,电子科大尧山校区,,,,,,,,,,,,,,,,
2025-04-12T2100,1864A,110.3089,25.2708,桂林市,龙隐路小学,颗粒物(PM10),417,517,144,91,37,82,,96,88,7,7,20,8,0.2,0.7
2025-04-12T2100,1865A,110.2869,25.2178,桂林市,八中,,,,49,68,37,71,,93,,,15,,8,1.2,0.7
2025-04-12T2100,3531A,110.296,25.1253,桂林市,旅游学院,颗粒物(PM10),385,488,152,122,50,78,,77,77,11,13,,7,0.4,0.4
2025-04-12T2100,4222A,110.1835,25.2444,桂林市,环湖路276号,颗粒物(PM10),394,495,154,117,51,63,,76,68,12,13,5,6,0.3,0.4
2025-04-12T2100,4301A,110.2803,25.2773,桂林市,信义路13号,颗粒物(PM10),403,503,146,100,37,83,,94,88,10,10,6,6,0.2,0.5
2025-04-12T2100,2674A,100.2561,34.4714,果洛藏族自治州,玛沁县大武镇,,49,49,33,20,15,104,,114,113,2,1,13,14,0.4,0.4
2025-04-12T2100,1129A,126.5422,45.755,哈尔滨市,岭北,,33,21,62,14,51,105,,105,104,15,23,16,16,0.9,1.1
2025-04-12T2100,1130A,126.561,45.8167,哈尔滨市,松北商大,,25,,64,13,41,80,,109,104,26,16,12,11,0.8,0.8
2025-04-12T2100,1131A,126.979,45.5419,哈尔滨市,阿城会宁,细颗粒物(PM2.5),58,42,69,41,48,79,,113,104,25,17,12,8,0.6,0.5
2025-04-12T2100,1132A,126.599,45.7222,哈尔滨市,南岗学府路,,30,28,87,18,47,94,,103,102,22,22,8,10,0.9,0.9
2025-04-12T2100,1133A,126.689,45.7733,哈尔滨市,太平宏伟公园,,32,,78,22,45,102,,108,106,9,11,6,8,0.6,0.7
2025-04-12T2100,1134A,126.635,45.7667,哈尔滨市,道外承德广场,,30,30,81,17,55,93,,98,96,20,25,8,13,0.4,0.5
2025-04-12T2100,1135A,126.685,45.7319,哈尔滨市,香坊红旗大街,,28,19,77,14,53,87,,103,100,30,26,10,13,0.6,0.6
2025-04-12T2100,1136A,126.6411,45.7258,哈尔滨市,动力和平路,,29,22,89,18,45,90,,100,99,24,22,9,12,0.6,0.7
2025-04-12T2100,1137A,126.593,45.7478,哈尔滨市,道里建国路,,31,,72,18,47,99,,98,98,24,25,12,15,0.8,0.9
2025-04-12T2100,1138A,126.615,45.61,哈尔滨市,平房东轻厂,,46,,75,32,53,91,,101,100,19,16,10,11,0.6,0.5
2025-04-12T2100,1139A,126.595,45.9855,哈尔滨市,呼兰师专,,30,17,78,15,55,96,,98,97,16,21,8,9,0.6,0.7
2025-04-12T2100,1140A,126.6206,45.6842,哈尔滨市,省农科院,,43,,93,30,55,73,,98,93,37,30,10,11,0.7,0.7
2025-04-12T2100,2688A,93.5128,42.8172,哈密市,地区监测站,,,,63,,19,87,,104,103,17,18,9,6,0.4,0.3
2025-04-12T2100,2689A,93.4961,42.8328,哈密市,哈密师范学校,,36,36,57,8,15,95,,111,110,16,24,4,5,0.5,0.6
2025-04-12T2100,2671A,100.9048,36.9639,海北藏族自治州,海晏县西海镇,,25,19,13,14,10,80,,102,98,6,2,7,7,0.4,0.3
2025-04-12T2100,3867A,102.0738,36.5056,海东市,平安区公安北苑,颗粒物(PM10),87,123,38,29,18,81,,107,104,25,10,8,4,0.6,0.5
2025-04-12T2100,1409A,110.576,19.9507,海口市,东寨港,,48,48,27,25,14,52,,64,63,8,5,7,7,0.4,0.4
2025-04-12T2100,1410A,110.3232,20.0574,海口市,海南大学,颗粒物(PM10),51,52,36,35,23,51,,44,,13,10,2,2,0.7,0.5
2025-04-12T2100,1411A,110.283,20.0053,海口市,秀英海南医院,细颗粒物(PM2.5),59,54,36,42,23,39,,71,65,27,14,4,4,0.5,0.3
2025-04-12T2100,1412A,110.338,19.9969,海口市,海南师范大学,,50,49,31,35,19,55,,84,79,12,8,3,3,0.6,0.4
2025-04-12T2100,1413A,110.33,20.0356,海口市,龙华路环保局宿舍,,48,48,31,30,19,56,,79,74,10,8,4,4,0.4,0.4
2025-04-12T2100,3539A,110.5111,19.9736,海口市,桂林洋子站,颗粒物(PM10),52,53,31,34,19,70,,76,76,10,8,5,4,0.3,0.3
2025-04-12T2100,2673A,100.6188,36.2866,海南藏族自治州,共和县恰卜恰镇,,33,33,27,3,8,92,,116,112,14,4,14,12,0.5,0.4
2025-04-12T2100,2676A,97.3731,37.3753,海西蒙古族藏族自治州,德令哈市,,45,,25,31,21,90,,108,105,17,3,14,10,0.6,0.4
2025-04-12T2100,1048A,114.5302,36.6116,邯郸市,东污水处理厂,颗粒物(PM10),64,78,288,7,60,80,,88,87,12,10,3,3,0.3,0.2
2025-04-12T2100,1049A,114.4918,36.5713,邯郸市,矿院,颗粒物(PM10),69,88,271,9,53,71,,72,72,2,2,1,3,0.3,0.3
2025-04-12T2100,1050A,114.484,36.6133,邯郸市,丛台公园,颗粒物(PM10),76,102,325,15,61,83,,88,88,9,7,2,4,0.3,0.2
2025-04-12T2100,3458A,114.7895,36.5593,邯郸市,香泉濮院小区,颗粒物(PM10),73,95,434,15,62,62,,80,77,16,6,3,3,0.7,0.4
2025-04-12T2100,3579A,114.50634,36.77178,邯郸市,永年区实验高中,颗粒物(PM10),81,111,355,14,56,77,,84,84,8,2,3,3,0.4,0.4
2025-04-12T2100,3580A,114.20016,36.44293,邯郸市,峰峰矿区临水派出所,颗粒物(PM10),91,131,321,17,60,89,,92,92,10,6,2,2,0.6,0.5
2025-04-12T2100,2634A,106.9893,33.1842,汉中市,汉川机床厂子校,颗粒物(PM10),484,584,1380,261,333,59,,100,87,8,4,7,6,1.1,0.8
2025-04-12T2100,2635A,107.0154,33.0706,汉中市,市监测站,颗粒物(PM10),500,721,1096,224,284,59,,90,82,20,6,5,5,0.8,0.5
2025-04-12T2100,2636A,107.0089,33.1138,汉中市,鑫源开发区,颗粒物(PM10),500,733,1304,252,301,43,,93,79,33,6,4,4,0.4,0.3
2025-04-12T2100,2637A,107.007,33.0323,汉中市,南郑大河坎水厂,颗粒物(PM10),500,632,1223,261,351,51,,100,87,29,7,4,4,0.5,0.4
2025-04-12T2100,1223A,120.2072,30.2111,杭州市,滨江,颗粒物(PM10),190,329,179,70,54,66,,73,66,21,19,6,6,0.5,0.6
2025-04-12T2100,1224A,120.0633,30.2747,杭州市,西溪,颗粒物(PM10),135,220,167,38,43,79,,72,70,13,18,5,5,0.3,0.5
2025-04-12T2100,1226A,120.3417,30.3150,杭州市,下沙,颗粒物(PM10),190,330,176,59,50,64,,71,64,24,28,5,5,0.3,0.5
2025-04-12T2100,1227A,120.1269,30.2456,杭州市,卧龙桥,颗粒物(PM10),142,234,167,62,43,63,,70,64,11,18,5,5,0.3,0.4
2025-04-12T2100,1228A,120.1903,30.2692,杭州市,浙江农大,颗粒物(PM10),176,302,197,75,54,65,,72,68,15,22,2,1,0.3,0.4
2025-04-12T2100,1230A,120.1197,30.3119,杭州市,和睦小学,颗粒物(PM10),168,286,185,62,48,77,,77,72,13,20,6,6,0.5,0.6
2025-04-12T2100,1231A,120.3019,30.4183,杭州市,临平镇,颗粒物(PM10),246,382,202,53,53,78,,72,68,18,22,6,5,0.3,0.5
2025-04-12T2100,1232A,120.2753,30.1839,杭州市,城厢镇,颗粒物(PM10),170,290,178,85,46,80,,79,74,14,18,6,6,0.4,0.6
2025-04-12T2100,1233A,120.0883,30.1808,杭州市,云栖,颗粒物(PM10),137,224,176,36,42,34,,67,55,14,21,8,9,0.4,0.6
2025-04-12T2100,3557A,119.9464,30.0494,杭州市,镇二中,颗粒物(PM10),135,220,130,54,36,80,,76,75,18,19,1,2,0.3,0.5
2025-04-12T2100,3558A,119.7183,30.2367,杭州市,市府大楼,颗粒物(PM10),146,242,164,54,47,96,,80,80,9,15,7,7,0.5,0.7
2025-04-12T2100,3656A,120.1556,30.2864,杭州市,消防大队,颗粒物(PM10),174,297,189,70,60,79,,81,76,19,24,4,4,0.5,0.7
2025-04-12T2100,1270A,117.1959,31.7848,合肥市,明珠广场,颗粒物(PM10),73,95,181,19,50,73,,102,95,20,9,3,1,0.2,0.3
2025-04-12T2100,1271A,117.3072,31.8764,合肥市,三里街,颗粒物(PM10),74,97,232,22,50,80,,93,87,11,9,3,3,0.2,0.3
2025-04-12T2100,1272A,117.2588,31.8707,合肥市,琥珀山庄,颗粒物(PM10),75,100,238,24,44,80,,95,93,12,10,2,2,0.3,0.4
2025-04-12T2100,1273A,117.1604,31.9052,合肥市,董铺水库,颗粒物(PM10),82,113,352,22,60,84,,108,85,12,5,1,2,0.2,0.2
2025-04-12T2100,1274A,117.25,31.8571,合肥市,长江中路,颗粒物(PM10),82,114,248,24,53,83,,99,93,11,8,7,6,0.4,0.4
2025-04-12T2100,1275A,117.266,31.9436,合肥市,庐阳区,颗粒物(PM10),74,97,237,22,48,81,,99,91,8,6,4,4,0.2,0.3
2025-04-12T2100,1276A,117.3453,31.8616,合肥市,瑶海区,颗粒物(PM10),79,107,209,15,47,82,,98,88,11,9,4,5,0.2,0.4
2025-04-12T2100,1277A,117.3027,31.7964,合肥市,包河区,颗粒物(PM10),73,95,208,27,57,73,,92,84,20,17,5,6,0.3,0.3
2025-04-12T2100,1278A,117.2776,31.7385,合肥市,滨湖新区,颗粒物(PM10),80,110,193,22,68,66,,96,87,25,12,4,5,0.5,0.5
2025-04-12T2100,1279A,117.1318,31.8403,合肥市,高新区,颗粒物(PM10),74,97,199,40,52,79,,100,91,10,7,1,1,0.3,0.4
2025-04-12T2100,3464A,117.3803,31.9147,合肥市,高教基地,颗粒物(PM10),76,102,166,30,51,85,,94,85,8,13,4,4,0.2,0.2
2025-04-12T2100,3614A,79.924,37.0877,和田地区,地区环保局,颗粒物(PM10),358,466,629,186,194,72,,79,78,10,6,3,2,0.5,0.6
2025-04-12T2100,3615A,79.9131,37.113,和田地区,市环保局,颗粒物(PM10),353,462,603,170,176,73,,84,82,8,3,1,2,0.8,0.7
2025-04-12T2100,2516A,108.2011,24.715,河池市,东仁乐园,,48,48,43,13,25,93,,95,94,7,11,7,8,1.0,1.2
2025-04-12T2100,2517A,108.0497,24.6947,河池市,市环保站,颗粒物(PM10),52,54,42,8,22,92,,96,95,9,10,5,5,0.2,0.5
2025-04-12T2100,2518A,108.0983,24.6989,河池市,市疾控中心,,49,49,41,12,23,95,,98,97,11,17,5,7,0.4,0.7
2025-04-12T2100,1696A,114.6778,23.7569,河源市,源西,颗粒物(PM10),182,313,44,43,24,84,,73,73,9,12,4,3,0.3,0.4
2025-04-12T2100,1697A,114.6944,23.7586,河源市,东埔,颗粒物(PM10),124,197,35,50,31,84,,77,77,9,15,5,4,0.4,0.5
2025-04-12T2100,1698A,114.6892,23.7233,河源市,老城,颗粒物(PM10),182,314,48,62,26,85,,77,77,7,14,4,4,0.4,0.5
2025-04-12T2100,1718A,115.4208,35.2464,菏泽市,气象局,颗粒物(PM10),78,106,254,25,96,86,,92,92,14,14,3,3,0.3,0.3
2025-04-12T2100,3374A,115.5564,35.0891,菏泽市,定陶老年大学,颗粒物(PM10),63,75,237,14,80,92,,95,95,14,12,3,3,0.3,0.3
2025-04-12T2100,4184A,115.4797,35.24401,菏泽市,永昌路1号,颗粒物(PM10),70,89,220,22,86,79,,84,84,12,11,3,3,0.3,0.3
2025-04-12T2100,4193A,115.4715,35.2800,菏泽市,长城路999号,颗粒物(PM10),65,80,407,12,63,86,,97,96,16,16,5,9,0.1,0.1
2025-04-12T2100,2514A,111.5264,24.4172,贺州市,环保小区,颗粒物(PM10),406,506,132,121,40,72,,76,69,12,17,6,7,0.3,0.5
2025-04-12T2100,2515A,111.5608,24.4078,贺州市,政协大楼,颗粒物(PM10),285,409,136,124,54,62,,76,71,16,15,7,10,0.2,0.4
2025-04-12T2100,3534A,111.4744,24.4553,贺州市,西湾,颗粒物(PM10),383,486,119,120,42,75,,79,72,9,18,7,7,0.3,0.6
2025-04-12T2100,2385A,114.17,35.9019,鹤壁市,市监测站,颗粒物(PM10),72,94,368,19,73,89,,96,96,6,5,2,3,0.6,0.6
2025-04-12T2100,2386A,114.2956,35.7511,鹤壁市,市交警支队,颗粒物(PM10),73,95,433,13,56,78,,94,93,21,12,12,5,0.4,0.2
2025-04-12T2100,2387A,114.2878,35.7306,鹤壁市,迎宾馆,颗粒物(PM10),83,115,505,14,44,81,,97,96,18,13,1,2,0.4,0.3
2025-04-12T2100,3474A,114.2617,35.6822,鹤壁市,大新区,,,107,463,,80,84,,95,95,11,9,5,5,0.2,0.2
2025-04-12T2100,3596A,114.1572,35.9603,鹤壁市,南山宾馆,颗粒物(PM10),78,106,427,24,72,93,,97,97,4,4,2,2,0.3,0.2
2025-04-12T2100,2244A,130.2537,47.3416,鹤岗市,哈啤分公司,颗粒物(PM10),64,77,60,39,40,96,,93,92,12,17,17,16,0.3,0.4
2025-04-12T2100,2245A,130.2684,47.3086,鹤岗市,斯达机电,细颗粒物(PM2.5),58,50,60,41,44,96,,94,92,10,18,12,14,0.7,0.6
2025-04-12T2100,2246A,130.3114,47.3388,鹤岗市,东山纸板厂,细颗粒物(PM2.5),59,56,73,42,47,89,,87,83,11,18,13,15,0.3,0.4
2025-04-12T2100,2247A,130.1097,47.3382,鹤岗市,五号水库,,,,,,,,,,,,,,,,
2025-04-12T2100,2263A,127.4833,50.2524,黑河市,交通局,,22,14,15,13,13,68,,70,69,3,5,6,7,0.2,0.4
2025-04-12T2100,2264A,127.5144,50.2341,黑河市,环保局,,22,,13,15,14,55,,67,63,15,8,10,4,0.3,0.3
2025-04-12T2100,2265A,127.5291,50.2472,黑河市,大黑河岛,,,,,,,,,,,,,,,,
2025-04-12T2100,1074A,115.6838,37.7541,衡水市,电机北厂,颗粒物(PM10),57,64,428,14,76,82,,93,90,4,5,3,3,0.2,0.2
2025-04-12T2100,1075A,115.6303,37.7316,衡水市,市监测站,,,45,165,8,29,78,,80,80,8,7,,2,0.1,0.1
2025-04-12T2100,3188A,115.6683,37.7217,衡水市,市城管局,颗粒物(PM10),57,63,426,20,67,80,,90,88,7,7,2,3,0.4,0.3
2025-04-12T2100,3459A,115.5989,37.5491,衡水市,地表水厂,颗粒物(PM10),56,61,423,16,65,79,,94,90,7,6,4,5,0.2,0.2
2025-04-12T2100,2456A,112.5003,26.9167,衡阳市,原169医院,颗粒物(PM10),335,448,262,44,34,60,,96,87,16,8,28,30,0.4,0.5
2025-04-12T2100,2457A,112.6194,26.9258,衡阳市,衡阳化工总厂,颗粒物(PM10),410,510,288,103,52,63,,82,57,18,9,6,6,0.5,0.6
2025-04-12T2100,2458A,112.6211,26.8956,衡阳市,珠晖区环保局,颗粒物(PM10),325,440,250,92,71,64,,86,77,12,6,6,6,0.3,0.5
2025-04-12T2100,2459A,112.6197,26.8733,衡阳市,市委党校,颗粒物(PM10),325,440,332,89,135,68,,86,82,15,10,2,2,0.3,0.5
2025-04-12T2100,2460A,112.6006,26.8919,衡阳市,市监测站,颗粒物(PM10),375,480,268,112,61,67,,88,81,17,10,7,7,0.4,0.5
2025-04-12T2100,2461A,112.5664,26.9056,衡阳市,真空机电公司,颗粒物(PM10),423,523,274,106,52,68,,92,82,13,7,6,6,0.2,0.5
2025-04-12T2100,3399A,112.6703,26.882,衡阳市,师范学院,颗粒物(PM10),394,495,268,114,61,68,,95,84,15,9,9,8,0.4,0.5
2025-04-12T2100,2608A,103.3772,23.3993,红河哈尼族彝族自治州,污水处理厂,细颗粒物(PM2.5),54,43,55,38,45,75,,92,85,6,13,8,14,0.2,0.5
2025-04-12T2100,2609A,103.3861,23.35,红河哈尼族彝族自治州,监测站,颗粒物(PM10),61,71,67,39,43,79,,93,89,6,11,5,10,0.2,0.5
2025-04-12T2100,3038A,103.3758,23.368,红河哈尼族彝族自治州,州图书馆,细颗粒物(PM2.5),57,,44,40,38,78,,95,90,8,11,5,10,0.2,0.3
2025-04-12T2100,1090A,111.6507,40.7517,呼和浩特市,呼市一监,,29,12,24,3,6,90,,87,87,2,2,12,11,0.5,0.5
2025-04-12T2100,1091A,111.6572,40.8033,呼和浩特市,小召,,26,14,27,3,7,82,,81,81,9,6,5,5,0.3,0.3
2025-04-12T2100,1094A,111.7516,40.8369,呼和浩特市,如意水处理厂,,26,16,31,3,6,82,,79,79,3,3,6,6,0.3,0.3
2025-04-12T2100,1095A,111.7276,40.8062,呼和浩特市,二十九中,,27,10,30,3,6,85,,84,84,3,2,3,3,0.4,0.4
2025-04-12T2100,1096A,111.5512,40.7866,呼和浩特市,工大金川校区,,29,10,21,3,5,92,,87,87,4,3,5,6,0.4,0.3
2025-04-12T2100,1097A,111.717,40.7612,呼和浩特市,化肥厂生活区,,27,19,28,3,6,85,,84,84,7,4,6,6,0.3,0.3
2025-04-12T2100,3698A,111.5968,40.8178,呼和浩特市,红旗小学,,30,9,22,3,5,93,,88,88,5,4,3,3,0.4,0.4
2025-04-12T2100,3699A,111.6518,40.8389,呼和浩特市,海东办,,27,7,23,3,5,84,,81,81,3,5,6,6,0.5,0.5
2025-04-12T2100,2192A,119.7594,49.2261,呼伦贝尔市,区环保局,,32,22,25,22,22,76,,82,78,8,6,5,5,0.3,0.2
2025-04-12T2100,3061A,119.7512,49.1577,呼伦贝尔市,国华电力东,,26,24,34,18,13,81,,84,83,6,4,5,4,0.3,0.3
2025-04-12T2100,1250A,120.0751,30.8669,湖州市,城西水厂,颗粒物(PM10),230,371,236,56,54,85,,74,69,25,27,8,6,0.3,0.5
2025-04-12T2100,2873A,120.0830,30.8929,湖州市,仁皇山新区,颗粒物(PM10),219,363,238,58,56,94,,105,81,14,20,4,4,0.3,0.7
2025-04-12T2100,2907A,120.1844,30.8596,湖州市,吴兴区站,颗粒物(PM10),179,307,211,60,49,92,,81,78,9,16,5,6,0.2,0.4
2025-04-12T2100,3562A,120.4148,30.8538,湖州市,南浔区站,颗粒物(PM10),275,402,222,67,46,98,,96,89,10,15,3,3,0.2,0.4
2025-04-12T2100,1607A,120.9049,40.7211,葫芦岛市,龙港区,,39,39,65,6,18,76,,82,70,9,14,8,11,0.3,0.4
2025-04-12T2100,1608A,120.8392,40.7514,葫芦岛市,化工街,,36,36,70,7,25,68,,72,66,15,20,6,10,0.3,0.4
2025-04-12T2100,1609A,120.8341,40.7073,葫芦岛市,新区,颗粒物(PM10),54,57,67,8,20,79,,83,74,10,17,8,9,0.3,0.5
2025-04-12T2100,1610A,120.8695,40.7677,葫芦岛市,东城区,,28,28,65,8,19,75,,83,72,14,19,11,8,0.4,0.5
2025-04-12T2100,2482A,109.5981,27.5721,怀化市,林科所,颗粒物(PM10),57,63,38,18,22,54,,83,69,8,6,4,4,0.3,0.3
2025-04-12T2100,2483A,109.9453,27.5444,怀化市,河西地税局,颗粒物(PM10),56,61,43,26,23,28,,84,71,15,8,9,9,0.5,0.4
2025-04-12T2100,2484A,109.9781,27.5342,怀化市,市四医院,颗粒物(PM10),63,75,51,20,23,55,,87,80,14,7,5,7,0.3,0.4
2025-04-12T2100,2485A,109.9972,27.5578,怀化市,监测楼,颗粒物(PM10),63,76,51,26,26,42,,85,72,11,5,8,8,0.3,0.4
2025-04-12T2100,2486A,110.0394,27.583,怀化市,市委党校,颗粒物(PM10),64,78,49,32,23,61,,84,80,6,6,4,5,0.4,0.5
2025-04-12T2100,1210A,119.036,33.5981,淮安市,钵池山,颗粒物(PM10),107,163,243,36,57,86,,92,92,15,14,9,10,0.4,0.6
2025-04-12T2100,1211A,119.007,33.575,淮安市,北京南路,颗粒物(PM10),103,156,247,32,54,82,,90,89,12,13,6,8,0.4,0.6
2025-04-12T2100,1212A,118.989,33.6067,淮安市,市监测站,颗粒物(PM10),100,149,247,51,56,78,,89,88,17,13,9,8,0.3,0.5
2025-04-12T2100,1213A,119.135,33.5039,淮安市,楚州区监测站,颗粒物(PM10),106,161,263,52,77,79,,82,82,7,12,7,8,0.4,0.5
2025-04-12T2100,3426A,118.8755,33.2894,淮安市,新华书店,颗粒物(PM10),129,207,304,37,43,89,,95,94,10,13,7,8,0.4,0.6
2025-04-12T2100,4206A,119.0288,33.6319,淮安市,承德北路606号,颗粒物(PM10),102,153,248,36,60,78,,85,85,10,11,6,7,0.4,0.5
2025-04-12T2100,2282A,116.8004,33.975,淮北市,监测站,颗粒物(PM10),83,116,296,39,48,76,,90,88,20,12,8,5,0.6,0.4
2025-04-12T2100,2283A,116.8091,33.9007,淮北市,烈山区政府,颗粒物(PM10),77,103,298,28,67,78,,92,90,24,15,5,4,0.3,0.4
2025-04-12T2100,3330A,116.8873,33.9836,淮北市,杜集区检察院,颗粒物(PM10),84,118,337,28,61,92,,84,84,12,13,5,5,0.6,0.8
2025-04-12T2100,4017A,116.7923,33.9535,淮北市,市博物馆,颗粒物(PM10),79,108,332,37,63,76,,87,86,19,12,7,5,0.7,0.7
2025-04-12T2100,2277A,116.8305,32.7727,淮南市,潘集区政府,,,,530,,77,77,,90,84,14,10,4,4,0.2,0.3
2025-04-12T2100,2279A,116.8569,32.5951,淮南市,谢家集区政府,颗粒物(PM10),82,114,366,23,53,80,,103,87,9,7,6,6,0.5,0.4
2025-04-12T2100,2280A,116.8281,32.633,淮南市,八公山区政府,颗粒物(PM10),81,111,416,26,66,80,,93,84,8,5,3,3,0.2,0.3
2025-04-12T2100,2281A,116.6325,32.6201,淮南市,焦岗湖风景区管理处,,,,,,,,,,,,,,,,
2025-04-12T2100,2894A,117.0566,32.6531,淮南市,经济技术开发区消防队,颗粒物(PM10),87,123,524,27,69,87,,90,90,15,10,7,6,0.3,0.3
2025-04-12T2100,3329A,117.0108,32.5893,淮南市,山南新区,颗粒物(PM10),83,115,544,17,80,85,,97,90,8,7,7,7,0.2,0.3
2025-04-12T2100,4209A,117.0031,32.6445,淮南市,国庆中路369号,颗粒物(PM10),83,116,462,27,80,77,,94,88,14,8,5,6,0.4,0.3
2025-04-12T2100,2446A,114.9028,30.4742,黄冈市,职工中心,颗粒物(PM10),81,111,199,32,57,106,,121,119,9,7,4,5,0.4,0.4
2025-04-12T2100,2929A,114.8858,30.4519,黄冈市,红卫路,颗粒物(PM10),101,152,308,26,55,96,,105,104,5,3,5,7,0.4,1.3
2025-04-12T2100,3398A,114.9136,30.4445,黄冈市,市林业局,颗粒物(PM10),97,143,219,30,33,90,,102,102,1,16,6,6,0.4,0.4
2025-04-12T2100,2672A,102.0199,35.5102,黄南藏族自治州,同仁县隆务镇,,38,38,28,6,7,86,,102,99,4,3,14,12,0.2,0.2
2025-04-12T2100,2295A,118.2903,29.6963,黄山市,延安路89号,细颗粒物(PM2.5),179,224,196,135,164,35,,79,65,6,3,3,4,0.1,0.1
2025-04-12T2100,2297A,118.1371,30.2756,黄山市,黄山区政府5号楼,颗粒物(PM10),171,292,226,46,47,94,,90,79,1,2,4,3,0.8,0.9
2025-04-12T2100,4210A,118.3354,29.7203,黄山市,滨江东路7-2号,颗粒物(PM10),173,295,195,101,61,44,,90,66,7,8,4,4,0.4,0.5
2025-04-12T2100,2423A,115.0601,30.2313,黄石市,沈家营,颗粒物(PM10),111,172,279,35,65,100,,112,112,6,4,6,6,0.4,0.5
2025-04-12T2100,2426A,114.8988,30.2019,黄石市,铁山,颗粒物(PM10),104,157,291,39,66,97,,106,106,6,4,7,6,1.0,0.7
2025-04-12T2100,2427A,115.0307,30.2092,黄石市,团城山,颗粒物(PM10),111,172,286,33,62,92,,102,102,9,6,7,7,0.4,0.4
2025-04-12T2100,3149A,115.0235,30.1578,黄石市,笔架山北路,颗粒物(PM10),86,121,211,26,59,100,,110,109,6,3,4,4,0.4,0.5
2025-04-12T2100,4185A,115.0780,30.21118,黄石市,磁湖东路29号,颗粒物(PM10),113,175,325,33,69,103,,114,113,9,4,7,6,0.9,0.7
2025-04-12T2100,1392A,114.4183,23.0528,惠州市,河南岸金山湖子站,颗粒物(PM10),89,128,30,41,17,85,,58,58,12,19,9,8,0.4,0.6
2025-04-12T2100,1393A,114.4053,23.0822,惠州市,下埔横江三路子站,颗粒物(PM10),88,126,32,45,18,88,,61,61,8,17,9,8,0.5,0.6
2025-04-12T2100,1394A,114.4103,23.1142,惠州市,江北云山西路子站,颗粒物(PM10),98,146,31,45,15,88,,69,69,10,15,9,9,0.3,0.4
2025-04-12T2100,1395A,114.4645,22.7833,惠州市,惠阳区承修路船湖子站,颗粒物(PM10),75,99,26,31,14,84,,50,50,8,17,8,7,0.4,0.5
2025-04-12T2100,1396A,114.5317,22.7422,惠州市,大亚湾管委会子站,颗粒物(PM10),57,63,24,26,13,89,,52,52,5,15,6,5,0.4,0.4
2025-04-12T2100,3314A,114.4338,22.8134,惠州市,惠阳秋长,颗粒物(PM10),159,268,37,41,14,91,,53,53,,12,9,11,0.2,0.4
2025-04-12T2100,3452A,114.6517,22.775,惠州市,大亚湾霞涌,颗粒物(PM10),59,68,22,30,12,80,,30,,12,17,6,5,0.4,0.3
2025-04-12T2100,2240A,130.9762,45.3001,鸡西市,环保局,,42,36,106,19,64,133,,127,127,4,20,4,7,0.4,0.7
2025-04-12T2100,2243A,130.9429,45.3039,鸡西市,第一中学,,41,27,100,16,61,129,,124,124,4,17,5,9,0.5,0.8
2025-04-12T2100,3707A,131.0207,45.3073,鸡西市,欧美日汽修厂,颗粒物(PM10),56,62,155,37,74,117,,109,,6,18,7,13,0.5,0.6
2025-04-12T2100,3709A,130.9967,45.3106,鸡西市,市政设施管理处,颗粒物(PM10),51,52,133,26,68,122,,121,121,5,22,7,8,0.4,0.6
2025-04-12T2100,2367A,114.9754,27.0803,吉安市,红声器材厂,颗粒物(PM10),263,394,175,94,45,65,,84,79,20,10,14,9,0.3,0.4
2025-04-12T2100,2368A,114.9658,27.0999,吉安市,市森林工业局,颗粒物(PM10),252,386,175,86,45,72,,81,79,12,8,12,9,0.3,0.4
2025-04-12T2100,2369A,114.99,27.1312,吉安市,市环境监测站,颗粒物(PM10),196,341,156,78,42,70,,83,80,10,8,23,14,0.2,0.3
2025-04-12T2100,2370A,115.0093,27.0968,吉安市,青原区法院,颗粒物(PM10),258,390,181,95,48,58,,88,80,14,7,11,11,0.3,0.4
2025-04-12T2100,1772A,126.54,43.8622,吉林市,哈达湾,,46,46,46,28,24,97,,116,108,12,13,10,9,0.5,0.4
2025-04-12T2100,1773A,126.5844,43.8358,吉林市,东局子,细颗粒物(PM2.5),53,50,52,37,24,77,,116,103,22,14,11,8,0.7,0.5
2025-04-12T2100,1774A,126.5052,43.8245,吉林市,电力学院,颗粒物(PM10),52,54,43,35,24,92,,113,106,12,16,6,6,0.6,0.5
2025-04-12T2100,1775A,126.6133,43.8972,吉林市,江北,细颗粒物(PM2.5),68,65,46,49,23,72,,117,103,25,15,9,6,0.8,0.6
2025-04-12T2100,1776A,126.555,43.8306,吉林市,江南公园,颗粒物(PM10),52,53,46,32,26,85,,114,104,17,14,6,7,0.5,0.4
2025-04-12T2100,1778A,126.7061,43.7133,吉林市,丰满,,36,22,37,15,25,114,,127,119,7,9,6,7,0.7,0.6
2025-04-12T2100,2868A,126.4739,43.953,吉林市,九站,,45,45,49,29,27,74,,112,99,27,16,12,10,0.6,0.6
2025-04-12T2100,1299A,116.9862,36.6114,济南市,科干所,,,,488,,75,,,,,,13,,7,,0.5
2025-04-12T2100,1300A,116.9376,36.665,济南市,农科所,颗粒物(PM10),69,88,308,10,58,78,,92,91,13,11,5,6,0.4,0.4
2025-04-12T2100,1301A,117.1265,36.6734,济南市,开发区,颗粒物(PM10),74,98,306,12,54,81,,96,94,13,11,6,6,0.4,0.5
2025-04-12T2100,1303A,117.0624,36.6868,济南市,省种子仓库,颗粒物(PM10),90,129,472,22,56,79,,92,91,3,3,10,11,0.5,0.6
2025-04-12T2100,1304A,116.9489,36.6447,济南市,机床二厂,颗粒物(PM10),80,110,462,32,46,84,,99,98,15,13,6,7,0.4,0.4
2025-04-12T2100,1305A,117.0495,36.663,济南市,市监测站,颗粒物(PM10),81,112,362,17,51,72,,86,84,12,10,7,7,0.3,0.4
2025-04-12T2100,1306A,116.7675,36.5484,济南市,长清党校,颗粒物(PM10),70,90,335,17,53,90,,103,101,10,10,5,5,0.4,0.5
2025-04-12T2100,1616A,117.6795,36.229,济南市,技术学院,颗粒物(PM10),68,85,158,19,43,86,,91,91,11,10,10,10,0.6,0.5
2025-04-12T2100,1961A,117.532,36.6868,济南市,东山小学,,,,350,,53,,,99,,,5,,6,,0.3
2025-04-12T2100,3059A,117.7161,36.2049,济南市,泰兴公司,颗粒物(PM10),60,70,118,22,33,91,,96,96,9,12,8,8,0.5,0.5
2025-04-12T2100,3064A,117.6867,36.2171,济南市,莱芜战役纪念馆,颗粒物(PM10),63,75,124,12,27,91,,96,96,13,13,5,5,0.4,0.4
2025-04-12T2100,3494A,117.1673,36.9782,济南市,济阳区政府,颗粒物(PM10),74,98,323,22,48,87,,96,95,11,9,9,8,0.3,0.4
2025-04-12T2100,3495A,117.1171,36.63,济南市,锦屏中学,颗粒物(PM10),81,112,316,34,56,77,,90,89,12,10,7,8,0.1,0.2
2025-04-12T2100,3682A,116.9814,36.6819,济南市,济南四建,颗粒物(PM10),92,134,194,17,64,74,,91,89,13,10,4,4,0.3,0.3
2025-04-12T2100,1653A,116.6251,35.4302,济宁市,火炬城,颗粒物(PM10),51,51,321,17,66,72,,85,84,6,4,2,3,0.1,0.2
2025-04-12T2100,1655A,116.5491,35.4042,济宁市,电化厂,颗粒物(PM10),63,76,396,19,76,69,,87,86,21,12,1,2,0.1,0.1
2025-04-12T2100,3500A,116.5814,35.3707,济宁市,北湖一中,,50,50,324,14,66,79,,95,94,13,10,3,3,0.0,0.1
2025-04-12T2100,3501A,116.8249,35.5593,济宁市,服务中心,颗粒物(PM10),61,71,290,7,41,75,,90,88,14,11,1,2,0.5,0.4
2025-04-12T2100,3678A,116.5907,35.4054,济宁市,市第七中学,颗粒物(PM10),68,85,180,9,106,77,,92,91,11,7,3,3,0.2,0.3
2025-04-12T2100,2255A,130.2751,46.8028,佳木斯市,佳纺,颗粒物(PM10),74,98,85,30,49,118,,117,115,4,15,6,9,0.6,0.7
2025-04-12T2100,2256A,130.3995,46.8307,佳木斯市,发电厂,,,,84,53,50,111,,112,111,15,17,8,7,0.7,0.6
2025-04-12T2100,2257A,130.3258,46.7975,佳木斯市,环保局,颗粒物(PM10),62,74,74,28,42,122,,119,119,10,21,3,5,0.4,0.5
2025-04-12T2100,2258A,130.3648,46.8032,佳木斯市,十一中,颗粒物(PM10),61,71,68,25,43,115,,115,115,8,16,6,8,0.5,0.6
2025-04-12T2100,2259A,130.3794,46.7588,佳木斯市,四丰,颗粒物(PM10),52,53,67,15,38,106,,108,108,3,16,1,1,0.9,1
2025-04-12T2100,1252A,120.7436,30.778,嘉兴市,清河小学,颗粒物(PM10),298,418,145,58,34,77,,75,70,9,14,6,6,0.8,0.8
2025-04-12T2100,1253A,120.726,30.7478,嘉兴市,嘉兴学院,颗粒物(PM10),186,322,147,62,39,90,,83,83,13,14,6,7,0.6,0.6
2025-04-12T2100,2872A,120.7846,30.7525,嘉兴市,南湖区残联,颗粒物(PM10),262,393,163,91,48,86,,82,80,8,14,5,6,0.5,0.6
2025-04-12T2100,3407A,120.6916,30.7739,嘉兴市,秀洲住建,颗粒物(PM10),313,430,196,66,41,90,,83,83,8,12,6,6,0.4,0.6
2025-04-12T2100,1945A,98.2908,39.7711,嘉峪关市,气象局,,48,48,32,12,10,98,,117,116,14,14,3,4,0.5,0.5
2025-04-12T2100,2884A,98.2672,39.7978,嘉峪关市,酒钢宾馆,,48,48,40,12,12,106,,117,117,9,14,2,13,0.3,0.2
2025-04-12T2100,3248A,98.2643,39.7724,嘉峪关市,雄关区,,38,38,32,12,17,95,,116,114,14,19,5,6,0.5,0.5
2025-04-12T2100,1383A,113.1064,22.6058,江门市,北街,颗粒物(PM10),104,158,40,30,15,62,,53,53,11,8,2,2,0.4,0.4
2025-04-12T2100,1384A,113.0731,22.5835,江门市,西区,颗粒物(PM10),111,172,39,27,15,67,,67,67,20,18,7,7,0.4,0.4
2025-04-12T2100,1385A,113.0219,22.5311,江门市,圭峰西,颗粒物(PM10),121,191,40,30,15,55,,58,58,18,16,6,4,0.3,0.3
2025-04-12T2100,1386A,113.0828,22.5947,江门市,东湖,颗粒物(PM10),84,118,35,42,18,66,,59,59,13,11,6,6,0.4,0.4
2025-04-12T2100,3311A,113.1075,22.5647,江门市,江海富民,颗粒物(PM10),72,93,38,14,17,59,,53,53,16,12,7,6,0.4,0.4
2025-04-12T2100,3449A,113.05,22.4667,江门市,新会银湖,颗粒物(PM10),107,163,39,37,16,53,,52,52,15,10,1,3,0.4,0.3
2025-04-12T2100,1830A,113.1992,35.2590,焦作市,影视城,,,,356,,61,,,,,,2,,4,,0.6
2025-04-12T2100,3169A,113.2725,35.2067,焦作市,太极体育中心,颗粒物(PM10),104,157,576,58,81,108,,110,110,3,3,6,5,0.4,0.4
2025-04-12T2100,3335A,113.3137,35.2641,焦作市,马村街道办,,,,511,,88,,,97,,,9,,6,,0.4
2025-04-12T2100,3336A,113.2465,35.2373,焦作市,焦作技师学院,颗粒物(PM10),92,133,582,12,65,98,,99,99,7,4,4,4,0.3,0.3
2025-04-12T2100,3477A,113.1656,35.2539,焦作市,中站许衡医院,颗粒物(PM10),81,111,473,23,70,105,,109,109,5,5,6,5,0.4,0.4
2025-04-12T2100,3981A,113.2449,35.1803,焦作市,原李万街道办,颗粒物(PM10),106,161,535,9,83,98,,98,98,11,9,6,5,0.5,0.5
2025-04-12T2100,4264A,113.2340,35.2190,焦作市,新安路1731号,颗粒物(PM10),89,127,527,17,81,101,,102,102,6,4,5,4,0.2,0.2
2025-04-12T2100,1708A,116.3701,23.5345,揭阳市,新兴,颗粒物(PM10),76,101,51,31,30,74,,59,59,8,17,5,6,0.5,0.7
2025-04-12T2100,1709A,116.3264,23.5443,揭阳市,西马,颗粒物(PM10),104,158,47,42,20,81,,60,60,1,9,6,7,0.3,0.6
2025-04-12T2100,1710A,116.3611,23.5626,揭阳市,东兴,颗粒物(PM10),77,104,54,30,25,72,,58,58,8,11,7,7,0.6,0.8
2025-04-12T2100,1711A,116.4151,23.5294,揭阳市,渔湖,颗粒物(PM10),56,62,51,3,16,71,,60,60,8,13,4,5,0.5,0.7
2025-04-12T2100,3320A,116.403,23.5699,揭阳市,曲溪,颗粒物(PM10),54,57,33,7,20,70,,61,61,10,14,2,2,0.4,0.7
2025-04-12T2100,1944A,102.1692,38.5167,金昌市,天庆家园,,29,23,443,11,137,90,,100,100,6,6,6,20,0.8,0.7
2025-04-12T2100,4022A,102.1647,38.5371,金昌市,金川区人防中心,,48,48,622,22,142,82,,98,96,8,7,12,13,0.5,0.5
2025-04-12T2100,4239A,102.1930,38.5319,金昌市,长春路96号,,49,49,638,10,136,86,,93,92,6,5,9,22,0.6,0.6
2025-04-12T2100,1262A,119.647,29.077,金华市,十五中,颗粒物(PM10),225,367,109,85,35,70,,78,74,14,15,5,6,0.4,0.6
2025-04-12T2100,1263A,119.686,29.1029,金华市,监测站,颗粒物(PM10),184,318,79,103,39,69,,80,78,15,15,5,4,0.2,0.4
2025-04-12T2100,3659A,119.656,29.1131,金华市,气象局,颗粒物(PM10),249,384,110,84,35,59,,76,73,22,17,1,2,0.2,0.5
2025-04-12T2100,1767A,121.1115,41.0879,锦州市,南山,,26,26,63,10,22,75,,82,72,10,13,7,10,0.5,0.5
2025-04-12T2100,1768A,121.0604,40.8428,锦州市,开发区,颗粒物(PM10),51,52,73,18,23,48,,84,59,28,21,9,7,0.6,0.6
2025-04-12T2100,1769A,121.1836,41.1119,锦州市,百股街道,,24,15,59,3,18,76,,87,72,9,14,6,7,0.3,0.4
2025-04-12T2100,1770A,121.1178,41.1222,锦州市,天安街道,,26,23,67,7,21,83,,92,80,12,14,9,11,0.4,0.5
2025-04-12T2100,1771A,121.1303,41.1386,锦州市,北湖公园,,24,16,59,8,21,75,,80,70,11,15,7,9,0.4,0.6
2025-04-12T2100,2160A,112.85,35.5051,晋城市,自来水公司,颗粒物(PM10),79,108,476,17,66,94,,94,94,7,5,6,6,0.3,0.3
2025-04-12T2100,2161A,112.8318,35.4936,晋城市,白云商贸,颗粒物(PM10),83,115,517,48,149,93,,95,95,10,8,3,4,0.4,0.4
2025-04-12T2100,2162A,112.8508,35.4887,晋城市,市环保局,颗粒物(PM10),87,124,464,19,67,92,,94,94,4,3,2,3,0.3,0.2
2025-04-12T2100,2163A,112.8676,35.4897,晋城市,技术学院,颗粒物(PM10),97,143,529,19,83,89,,91,91,7,6,4,5,0.3,0.3
2025-04-12T2100,2165A,112.8453,35.546,晋城市,白马寺,颗粒物(PM10),73,95,407,28,86,97,,94,94,3,29,6,5,0.5,0.4
2025-04-12T2100,3620A,112.8271,35.4828,晋城市,泽州一中,颗粒物(PM10),82,114,497,14,91,94,,95,95,6,5,5,5,0.3,0.3
2025-04-12T2100,2173A,112.7249,37.7067,晋中市,南都小区,颗粒物(PM10),100,150,423,21,53,85,,86,86,8,8,3,3,0.2,0.2
2025-04-12T2100,2174A,112.6991,37.6982,晋中市,榆次区政府,颗粒物(PM10),103,156,442,18,44,90,,92,92,7,5,4,4,0,0
2025-04-12T2100,2865A,112.7195,37.6828,晋中市,榆次三中,颗粒物(PM10),115,180,531,19,52,88,,90,90,5,2,3,2,0.1,0.1
2025-04-12T2100,4200A,112.7478,37.6954,晋中市,迎宾街26号,颗粒物(PM10),107,163,445,41,63,85,,88,88,3,3,2,2,0.3,0.2
2025-04-12T2100,2439A,112.2014,31.0481,荆门市,竹园小学,颗粒物(PM10),150,250,519,68,86,54,,103,92,28,14,3,4,0.3,0.1
2025-04-12T2100,2440A,112.1969,30.9891,荆门市,掇刀,颗粒物(PM10),149,248,473,70,75,40,,106,84,34,6,9,7,0.5,0.2
2025-04-12T2100,2441A,112.2213,31.0386,荆门市,石化一小,颗粒物(PM10),149,247,443,75,84,51,,100,93,33,8,10,6,0.3,0.2
2025-04-12T2100,3012A,112.1849,31.0362,荆门市,西山林语,颗粒物(PM10),118,186,417,62,76,66,,100,92,9,4,5,5,0.1,0.2
2025-04-12T2100,3547A,112.1632,31.0138,荆门市,龙泉中学南校,颗粒物(PM10),148,246,561,76,109,69,,100,94,17,11,6,6,0.7,0.6
2025-04-12T2100,1844A,112.2494,30.3197,荆州市,市图书馆,颗粒物(PM10),135,219,358,67,90,60,,94,89,30,9,3,3,0.5,0.5
2025-04-12T2100,1845A,112.2008,30.3544,荆州市,市委党校,颗粒物(PM10),134,217,336,66,84,55,,100,94,40,12,5,4,0.5,0.4
2025-04-12T2100,3194A,112.2747,30.3122,荆州市,管委会,颗粒物(PM10),127,204,305,65,96,75,,101,96,28,12,4,3,0.4,0.4
2025-04-12T2100,4268A,112.1722,30.3366,荆州市,学苑路85号,颗粒物(PM10),126,202,327,58,88,46,,96,86,32,13,1,2,0.3,0.3
2025-04-12T2100,2342A,117.3102,29.3867,景德镇市,王港中学,,,,,,,,,,,,,,,,
2025-04-12T2100,2343A,117.2117,29.2933,景德镇市,老干部活动中心,颗粒物(PM10),226,368,219,88,52,31,,93,66,19,10,7,6,0.3,0.4
2025-04-12T2100,2344A,117.1894,29.2789,景德镇市,兽医站,颗粒物(PM10),256,389,249,85,52,47,,90,60,18,13,4,4,0.4,0.5
2025-04-12T2100,2345A,117.1547,29.2617,景德镇市,台达陶瓷,颗粒物(PM10),272,400,232,84,45,28,,91,59,44,17,20,33,0.3,0.3
2025-04-12T2100,2346A,117.2461,29.2956,景德镇市,陶研所,颗粒物(PM10),184,318,204,101,64,31,,93,61,13,8,5,6,0.4,0.6
2025-04-12T2100,1803A,115.9872,29.6815,九江市,十里,颗粒物(PM10),105,160,287,38,64,99,,105,105,6,5,4,2,0.4,0.4
2025-04-12T2100,1804A,115.9584,29.7046,九江市,茅山头,颗粒物(PM10),103,155,320,36,63,95,,100,100,12,10,10,4,0.2,0.3
2025-04-12T2100,1805A,115.9877,29.7295,九江市,西园,颗粒物(PM10),92,134,249,32,62,108,,110,110,11,11,4,7,0.6,0.8
2025-04-12T2100,1808A,115.9114,29.6038,九江市,综合工业园,颗粒物(PM10),114,178,337,39,71,72,,95,93,33,20,7,6,0.4,0.5
2025-04-12T2100,1809A,116.0721,29.7535,九江市,石化总厂,颗粒物(PM10),100,149,263,30,64,95,,107,107,17,6,3,4,0.9,0.6
2025-04-12T2100,1810A,115.9773,29.5698,九江市,庐山气象台,颗粒物(PM10),124,198,282,34,57,102,,97,97,4,7,6,7,0.7,0.7
2025-04-12T2100,3190A,116.0254,29.6994,九江市,外国语学校,颗粒物(PM10),109,168,607,36,66,76,,87,87,21,10,6,6,0.8,0.8
2025-04-12T2100,4253A,116.0102,29.6594,九江市,莲花大道8号,颗粒物(PM10),120,190,326,34,53,88,,96,96,5,5,3,3,0.3,0.5
2025-04-12T2100,4240A,98.4958,39.7339,酒泉市,玉门东路5号,颗粒物(PM10),56,61,78,27,28,93,,117,114,14,13,8,8,0.5,0.3
2025-04-12T2100,4241A,98.5099,39.7506,酒泉市,北大街108号,颗粒物(PM10),51,51,89,19,22,93,,129,125,20,13,12,11,0.6,0.3
2025-04-12T2100,2698A,76.0072,39.4467,喀什地区,巡警大队,颗粒物(PM10),500,984,448,225,108,84,,90,90,14,15,3,3,0.4,0.4
2025-04-12T2100,2699A,75.9755,39.4694,喀什地区,吾办,颗粒物(PM10),500,945,414,309,128,83,,89,89,16,12,4,3,0.4,0.4
2025-04-12T2100,4027A,75.9483,39.4689,喀什地区,老干局,颗粒物(PM10),500,945,415,243,112,83,,96,95,17,11,1,2,0.4,0.2
2025-04-12T2100,1824A,114.3389,34.7781,开封市,肿瘤医院,颗粒物(PM10),78,106,586,14,63,86,,93,93,11,8,6,6,0.4,0.4
2025-04-12T2100,1826A,114.2885,34.7965,开封市,世纪星幼儿园,颗粒物(PM10),74,97,638,8,77,91,,101,100,15,11,3,4,0.4,0.4
2025-04-12T2100,3147A,114.3438,34.8106,开封市,龙亭公园,颗粒物(PM10),79,107,617,29,95,90,,97,97,15,12,2,2,0.4,0.4
2025-04-12T2100,3210A,114.3644,34.7964,开封市,汴京公园,颗粒物(PM10),82,113,355,19,72,95,,100,100,11,9,3,2,0.7,0.8
2025-04-12T2100,3473A,114.2485,34.8306,开封市,技师学院,颗粒物(PM10),66,81,432,23,128,78,,93,91,24,14,3,3,0.5,0.6
2025-04-12T2100,3592A,114.4644,34.7556,开封市,祥符区生态环境局,颗粒物(PM10),91,132,287,16,89,89,,95,95,13,11,5,5,0.4,0.4
2025-04-12T2100,1951A,84.895,45.6094,克拉玛依市,长征新村,,30,17,20,9,7,94,,102,102,9,7,8,7,0.2,0.2
2025-04-12T2100,1952A,84.8988,45.5893,克拉玛依市,南林小区,,32,21,22,3,9,101,,108,108,1,2,2,3,0.3,0.3
2025-04-12T2100,1954A,84.905,44.3396,克拉玛依市,独山子区,颗粒物(PM10),53,56,35,11,12,112,,122,122,23,10,9,8,0.3,0.2
2025-04-12T2100,1955A,85.6979,46.098,克拉玛依市,乌尔禾区商贸楼,,31,12,21,6,8,98,,108,108,4,10,6,7,0.2,0.2
2025-04-12T2100,3612A,85.1045,45.6899,克拉玛依市,白碱滩区新站,,31,17,11,3,4,97,,106,106,6,3,10,9,0.3,0.2
2025-04-12T2100,2697A,76.1454,39.7142,克孜勒苏柯尔克孜自治州,市人民政府,颗粒物(PM10),500,1070,470,316,132,96,,104,104,2,5,4,11,0.2,0.2
2025-04-12T2100,3665A,76.1658,39.7157,克孜勒苏柯尔克孜自治州,克州文化中心,颗粒物(PM10),500,1074,506,307,134,92,,100,100,2,3,5,8,0.3,0.3
2025-04-12T2100,1450A,102.8204,24.8886,昆明市,呈贡新区,颗粒物(PM10),73,95,51,31,20,84,,92,87,7,11,5,7,0.3,0.5
2025-04-12T2100,1451A,102.6251,24.9608,昆明市,西山森林公园,,,,,,,,,,,,,,,,
2025-04-12T2100,1452A,102.7252,25.0902,昆明市,龙泉镇,颗粒物(PM10),72,94,48,28,18,73,,86,80,8,11,6,8,0.3,0.4
2025-04-12T2100,1453A,102.7266,25.0375,昆明市,东风东路,颗粒物(PM10),82,114,51,36,23,81,,89,85,11,12,7,8,0.3,0.4
2025-04-12T2100,1454A,102.6742,25.0669,昆明市,金鼎山,颗粒物(PM10),68,86,45,39,23,78,,89,84,11,12,5,7,0.5,0.6
2025-04-12T2100,1455A,102.6644,25.0401,昆明市,碧鸡广场,颗粒物(PM10),76,102,45,31,24,79,,90,84,10,12,6,7,0.5,0.6
2025-04-12T2100,3179A,102.7494,25.0119,昆明市,官渡区博物馆,颗粒物(PM10),79,107,67,35,20,68,,84,78,17,15,6,8,0.3,0.4
2025-04-12T2100,3375A,102.8017,24.8336,昆明市,青年创业园,颗粒物(PM10),86,121,47,31,20,79,,91,85,9,11,9,9,0.4,0.5
2025-04-12T2100,3550A,102.7997,24.9786,昆明市,昆明学院,颗粒物(PM10),87,123,65,35,24,83,,89,85,9,13,4,5,0.2,0.4
2025-04-12T2100,3551A,102.5967,24.6736,昆明市,晋宁区生态环境分局,颗粒物(PM10),69,88,30,44,24,81,,98,91,7,9,3,8,0.5,0.7
2025-04-12T2100,3552A,102.6678,24.9856,昆明市,云天化总部,颗粒物(PM10),80,110,53,37,26,75,,88,83,14,14,5,9,0.4,0.6
2025-04-12T2100,1456A,91.1319,29.6514,拉萨市,八廓街,,47,30,14,11,8,148,,153,153,11,9,6,6,0.5,0.5
2025-04-12T2100,1457A,91.1221,29.6747,拉萨市,市环保局,,43,20,16,7,8,135,,150,150,18,14,3,4,0.3,0.3
2025-04-12T2100,1458A,91.0874,29.6475,拉萨市,区监测站,,44,15,11,8,6,138,,149,147,17,12,6,6,0.4,0.5
2025-04-12T2100,1459A,91.1774,29.6541,拉萨市,西藏大学,,46,32,13,9,6,145,,147,147,10,11,6,5,0.2,0.2
2025-04-12T2100,1460A,90.9798,29.6588,拉萨市,区辐射站,,50,22,14,7,7,158,,151,151,6,14,8,8,0.3,0.4
2025-04-12T2100,1461A,91.0834,29.6292,拉萨市,拉萨火车站,,46,14,9,8,6,147,,148,148,5,8,3,3,0.2,0.2
2025-04-12T2100,2520A,109.2203,23.7256,来宾市,来宾技工学校,颗粒物(PM10),91,132,71,18,25,75,,90,84,8,6,5,6,0.6,0.7
2025-04-12T2100,3535A,109.1781,23.7297,来宾市,兴宾区政府,颗粒物(PM10),105,159,62,52,32,79,,90,85,5,5,5,5,0.4,0.6
2025-04-12T2100,4002A,109.2416,23.7461,来宾市,中南小学,颗粒物(PM10),94,138,70,28,26,74,,89,83,8,6,6,6,0.4,0.6
2025-04-12T2100,1477A,104.1373,35.9454,兰州市,榆中兰大校区,,,,,,,,,,,,,,,,
2025-04-12T2100,1479A,103.831,36.0464,兰州市,铁路设计院,颗粒物(PM10),165,279,1142,87,274,30,,92,87,82,24,10,9,0.8,0.6
2025-04-12T2100,3241A,103.7439,36.0842,兰州市,百合公园,颗粒物(PM10),181,312,1113,85,262,45,,95,91,48,13,8,5,0.4,0.4
2025-04-12T2100,3242A,103.9611,35.998,兰州市,和平,颗粒物(PM10),256,389,1272,106,354,71,,93,92,16,12,10,14,0.5,0.6
2025-04-12T2100,4236A,103.6293,36.0938,兰州市,庄浪东路808号,颗粒物(PM10),197,343,1391,147,362,44,,97,94,60,22,10,9,0.4,0.4
2025-04-12T2100,4237A,103.7251,36.1043,兰州市,安宁西路88号,颗粒物(PM10),265,395,1369,104,271,59,,102,99,36,12,9,6,0.5,0.3
2025-04-12T2100,4238A,103.8470,36.0676,兰州市,北滨河东路1号,颗粒物(PM10),198,346,1144,94,260,48,,101,97,56,15,13,12,0.8,0.5
2025-04-12T2100,3245A,103.6633,36.533,兰州新区,新区管委会,颗粒物(PM10),84,118,936,29,269,89,,103,103,14,7,10,20,0.2,0.3
2025-04-12T2100,3246A,103.6975,36.4789,兰州新区,舟曲中学,颗粒物(PM10),99,148,1471,33,338,88,,101,101,11,7,7,30,0.1,0.2
2025-04-12T2100,1067A,116.6708,39.5111,廊坊市,药材公司,颗粒物(PM10),87,124,236,35,46,76,,82,80,4,4,1,1,0.4,0.4
2025-04-12T2100,1068A,116.7214,39.5589,廊坊市,开发区,颗粒物(PM10),95,139,253,24,39,79,,85,82,3,5,2,1,0.3,0.2
2025-04-12T2100,1070A,116.7244,39.5269,廊坊市,北华航天学院,颗粒物(PM10),109,167,267,33,24,78,,84,82,6,4,4,3,0.2,0.2
2025-04-12T2100,2919A,116.7022,39.5453,廊坊市,河北工业大学,颗粒物(PM10),118,186,247,34,39,78,,84,82,4,5,4,4,0.3,0.2
2025-04-12T2100,2535A,103.7723,29.5462,乐山市,花湖湾,颗粒物(PM10),220,364,185,126,69,45,,79,49,19,14,5,5,0.4,0.4
2025-04-12T2100,2536A,103.7627,29.5844,乐山市,牛耳桥,颗粒物(PM10),213,359,198,104,58,30,,78,47,28,16,6,7,0.5,0.4
2025-04-12T2100,2537A,103.7508,29.6006,乐山市,市第三水厂,颗粒物(PM10),218,362,193,90,50,38,,82,52,23,13,4,4,0.6,0.4
2025-04-12T2100,2538A,103.7571,29.5664,乐山市,市监测站,颗粒物(PM10),216,361,192,90,50,36,,78,48,28,15,6,6,0.5,0.4
2025-04-12T2100,3361A,103.7311,29.5628,乐山市,理工大学,颗粒物(PM10),188,326,192,91,59,27,,82,50,27,16,4,4,0.5,0.4
2025-04-12T2100,2598A,100.2143,26.8576,丽江市,西南郊,,35,25,26,24,19,69,,111,88,15,8,4,4,1.0,0.7
2025-04-12T2100,2599A,100.2497,26.8802,丽江市,丽江古城,,32,25,27,22,20,78,,102,89,15,12,8,8,0.8,0.7
2025-04-12T2100,2600A,100.2203,26.8906,丽江市,市中心,,26,,24,18,24,72,,91,84,16,14,6,7,0.5,0.5
2025-04-12T2100,1267A,119.914,28.4514,丽水市,监测站大楼,颗粒物(PM10),123,195,58,45,23,71,,85,85,8,12,2,2,0.2,0.6
2025-04-12T2100,1268A,119.93,28.4586,丽水市,莲都小学,颗粒物(PM10),126,201,51,64,20,66,,84,84,11,12,3,3,0.2,0.4
2025-04-12T2100,1269A,119.879,28.4231,丽水市,余庄前,颗粒物(PM10),130,210,58,63,24,48,,77,75,14,13,3,3,0.3,0.5
2025-04-12T2100,1173A,119.176,34.5885,连云港市,市环境监测站,颗粒物(PM10),58,66,137,14,32,52,,90,85,42,13,9,9,0.6,0.5
2025-04-12T2100,3000A,119.3581,34.6972,连云港市,德源药业,颗粒物(PM10),64,78,153,14,37,74,,84,83,21,22,8,8,0.3,0.4
2025-04-12T2100,3007A,119.178,34.844,连云港市,新城一中,颗粒物(PM10),76,102,117,16,27,87,,91,91,12,15,7,7,0.6,0.6
2025-04-12T2100,3008A,119.3608,34.7519,连云港市,胡沟管理处,颗粒物(PM10),51,51,105,9,35,89,,92,92,12,16,8,9,0.4,0.4
2025-04-12T2100,3009A,119.1478,34.5911,连云港市,矿山设计院,颗粒物(PM10),57,63,133,22,32,38,,84,76,58,21,7,7,0.4,0.4
2025-04-12T2100,3434A,119.2413,34.6539,连云港市,工贸学校,颗粒物(PM10),62,74,152,14,23,82,,89,88,19,12,7,7,0.5,0.5
2025-04-12T2100,3664A,119.4172,34.7341,连云港市,连云街道,颗粒物(PM10),63,76,99,14,19,86,,90,88,14,15,6,6,0.4,0.5
2025-04-12T2100,2571A,102.3431,27.8099,凉山彝族自治州,青龙寺,,33,33,30,8,8,62,,87,75,4,7,7,7,0.4,0.4
2025-04-12T2100,2572A,102.2721,27.8415,凉山彝族自治州,邛海宾馆,,33,33,28,15,15,79,,95,80,10,10,6,7,0.3,0.4
2025-04-12T2100,2573A,102.2625,27.898,凉山彝族自治州,西昌市政府,,39,39,31,13,16,76,,100,80,6,6,8,7,0.3,0.4
2025-04-12T2100,2574A,102.2685,27.8851,凉山彝族自治州,凉山州政府,,33,33,30,15,14,80,,102,82,8,8,5,5,0.8,0.7
2025-04-12T2100,4229A,102.2342,27.8859,凉山彝族自治州,凯乐南路30号,,46,46,40,17,16,75,,92,72,11,10,8,9,0.6,0.7
2025-04-12T2100,2212A,123.2,41.1953,辽阳市,宏伟区,,17,17,19,11,10,54,,130,66,14,8,9,9,0.7,0.6
2025-04-12T2100,2213A,123.1683,41.2495,辽阳市,新华园,,18,18,18,12,8,53,,133,68,17,8,9,7,0.9,0.6
2025-04-12T2100,2214A,123.2354,41.2639,辽阳市,滨河路,,26,,20,18,15,56,,121,67,12,9,6,7,0.6,0.6
2025-04-12T2100,2215A,123.149,41.2991,辽阳市,铁西工业园,,45,,29,31,20,50,,126,65,15,11,9,8,0.8,0.5
2025-04-12T2100,2227A,125.1358,42.8845,辽源市,环保局,,35,12,33,3,11,111,,123,118,10,13,4,6,0.4,0.4
2025-04-12T2100,3239A,125.0764,42.9078,辽源市,银鹰制药,,37,14,22,3,13,116,,128,124,6,14,6,8,0.4,0.5
2025-04-12T2100,1625A,115.9848,36.4372,聊城市,区政府,颗粒物(PM10),79,108,165,25,55,83,,96,94,22,20,7,8,0.2,0.3
2025-04-12T2100,2878A,116.0072,36.4343,聊城市,聊大东校,颗粒物(PM10),76,102,385,16,81,78,,92,90,19,14,7,7,0.6,0.5
2025-04-12T2100,3200A,115.9819,36.4978,聊城市,监控中心,颗粒物(PM10),78,106,181,9,73,78,,88,87,14,11,4,5,0.3,0.3
2025-04-12T2100,3513A,116.0445,36.4361,聊城市,九州社区,颗粒物(PM10),73,95,384,8,39,84,,98,96,8,5,8,3,0.4,0.3
2025-04-12T2100,4018A,116.0567,36.4608,聊城市,星美广场,颗粒物(PM10),64,78,282,16,35,83,,95,94,11,10,6,7,0.4,0.5
2025-04-12T2100,2632A,94.3681,29.6376,林芝市,林芝监测站,,35,7,9,3,4,111,,113,113,6,5,5,5,0.3,0.3
2025-04-12T2100,2633A,94.3616,29.6616,林芝市,林芝人民医院,,34,14,11,7,5,107,,109,109,2,2,5,5,0.3,0.4
2025-04-12T2100,2603A,100.0781,23.8982,临沧市,市环保局,细颗粒物(PM2.5),53,48,41,37,28,59,,79,77,15,17,6,6,0.6,0.7
2025-04-12T2100,2604A,100.0894,23.8822,临沧市,市气象局,,48,40,39,33,36,64,,81,80,16,17,7,7,0.7,0.8
2025-04-12T2100,1733A,111.5531,36.0783,临汾市,临钢医院,颗粒物(PM10),112,174,656,30,75,82,,91,90,6,3,2,3,0.4,0.4
2025-04-12T2100,1734A,111.5028,36.0714,临汾市,技工学校,颗粒物(PM10),106,162,620,25,81,83,,93,92,3,3,3,3,0.3,0.2
2025-04-12T2100,1736A,111.5018,36.0855,临汾市,市委,颗粒物(PM10),123,195,626,30,82,84,,93,92,2,2,1,2,0.3,0.3
2025-04-12T2100,3018A,111.505,36.1014,临汾市,唐尧大酒店,颗粒物(PM10),110,170,555,23,72,82,,94,94,3,2,4,5,0.3,0.3
2025-04-12T2100,4244A,111.4879,36.0530,临汾市,启星学校,颗粒物(PM10),115,180,590,30,74,84,,92,92,1,2,1,2,0.3,0.3
2025-04-12T2100,4271A,103.2464,35.6123,临夏回族自治州,滨河东路1号,"颗粒物(PM10),细颗粒物(PM2.5)",67,84,260,48,51,59,,100,95,29,6,5,3,0.4,0.3
2025-04-12T2100,4310A,103.2093,35.5995,临夏回族自治州,新华街21号,颗粒物(PM10),69,87,212,28,54,82,,96,95,13,11,10,8,0.3,0.3
2025-04-12T2100,1618A,118.3429,35.0532,临沂市,沂河小区,颗粒物(PM10),58,66,190,15,19,78,,86,86,13,8,7,7,0.4,0.5
2025-04-12T2100,1619A,118.295,35.0583,临沂市,鲁南制药厂,颗粒物(PM10),57,63,210,18,27,84,,98,96,22,16,8,8,0.3,0.3
2025-04-12T2100,1620A,118.2794,34.9976,临沂市,新光毛纺厂,颗粒物(PM10),51,51,185,15,24,79,,90,89,24,18,4,5,0.3,0.3
2025-04-12T2100,1621A,118.3956,35.0888,临沂市,河东保险公司,颗粒物(PM10),52,53,168,17,31,79,,92,91,20,12,2,1,0.3,0.2
2025-04-12T2100,3370A,118.3564,35.0215,临沂市,十里堡居委,颗粒物(PM10),60,70,204,12,33,81,,92,91,22,18,2,2,0.5,0.6
2025-04-12T2100,3496A,118.3604,35.1084,临沂市,南坊新区,颗粒物(PM10),60,70,208,19,33,84,,101,100,21,10,6,5,0.5,0.6
2025-04-12T2100,3860A,118.3920,35.0300,临沂市,皇山花园小区,颗粒物(PM10),59,68,209,12,29,87,,94,93,10,8,5,6,0.3,0.5
2025-04-12T2100,1870A,109.4856,24.3895,柳州市,柳东小学,颗粒物(PM10),80,110,52,3,30,67,,76,,16,14,8,9,0.6,0.7
2025-04-12T2100,1871A,109.4157,24.3277,柳州市,环保监测站,颗粒物(PM10),86,121,67,37,28,64,,81,74,15,9,11,9,0.5,0.7
2025-04-12T2100,1872A,109.389,24.341,柳州市,河西水厂,颗粒物(PM10),94,137,57,44,34,57,,77,64,26,13,14,8,1.1,1
2025-04-12T2100,1873A,109.4311,24.2921,柳州市,市四中,颗粒物(PM10),77,104,64,25,28,64,,77,72,12,10,8,7,0.4,0.6
2025-04-12T2100,1874A,109.4006,24.3631,柳州市,市九中,颗粒物(PM10),91,132,71,33,26,61,,83,73,17,9,11,8,0.6,0.7
2025-04-12T2100,1875A,109.4958,24.3134,柳州市,古亭山,颗粒物(PM10),92,133,71,33,29,64,,85,77,8,8,6,7,0.6,0.8
2025-04-12T2100,3402A,109.5422,24.3996,柳州市,市二中,颗粒物(PM10),135,219,75,43,30,71,,85,79,13,12,9,11,0.3,0.6
2025-04-12T2100,2307A,116.5079,31.737,六安市,监测大楼,颗粒物(PM10),107,164,284,48,75,86,,88,73,5,4,4,4,0.3,0.3
2025-04-12T2100,2308A,116.4738,31.7643,六安市,皖西学院,颗粒物(PM10),128,205,355,49,59,74,,90,87,,9,5,3,0.4,0.4
2025-04-12T2100,2309A,116.4996,31.7905,六安市,朝阳厂,颗粒物(PM10),110,170,269,40,54,80,,100,94,14,9,3,3,0.3,0.3
2025-04-12T2100,2310A,116.5567,31.7886,六安市,开发区,颗粒物(PM10),139,227,354,46,59,83,,89,74,13,7,4,4,0.3,0.4
2025-04-12T2100,2576A,104.8,26.5892,六盘水市,窑上,,,,140,,70,,,111,,,7,,5,,0.5
2025-04-12T2100,2577A,104.83,26.5917,六盘水市,黄土坡,颗粒物(PM10),250,385,198,91,53,78,,100,84,12,8,13,8,0.1,0.1
2025-04-12T2100,2578A,104.89,26.5939,六盘水市,水钢,颗粒物(PM10),293,415,223,85,54,82,,92,81,9,18,11,13,0.3,0.6
2025-04-12T2100,2579A,104.8475,26.5894,六盘水市,民中,颗粒物(PM10),195,340,172,85,49,84,,105,86,10,8,11,8,0.3,0.4
2025-04-12T2100,2580A,104.9544,26.5506,六盘水市,双水,颗粒物(PM10),345,456,222,93,54,74,,104,81,15,13,10,9,0.2,0.2
2025-04-12T2100,2335A,117.0189,25.1181,龙岩市,龙岩师专,,,,,,,,,,,,,,,,
2025-04-12T2100,2336A,117.0217,25.1033,龙岩市,龙岩市监测站,颗粒物(PM10),337,449,57,76,20,85,,72,72,7,11,4,4,0.2,0.4
2025-04-12T2100,2337A,117.0258,25.0661,龙岩市,闽西职业技术学院,颗粒物(PM10),298,418,53,62,21,83,,66,66,8,10,4,4,0.3,0.5
2025-04-12T2100,2338A,117.0196,25.0306,龙岩市,龙岩学院,颗粒物(PM10),292,414,52,93,22,84,,72,72,5,7,2,2,0.2,0.4
2025-04-12T2100,2665A,105.0822,33.3261,陇南市,汉王镇固水子,,,,,,,,,,,,,,,,
2025-04-12T2100,2885A,104.9339,33.3826,陇南市,滨江中学,颗粒物(PM10),500,715,621,198,111,59,,78,75,14,5,6,7,0.5,0.4
2025-04-12T2100,3247A,104.955,33.371,陇南市,市总工会,颗粒物(PM10),500,746,625,217,142,68,,79,77,7,6,8,8,0.3,0.2
2025-04-12T2100,2487A,111.9589,27.8901,娄底市,电视发射台,颗粒物(PM10),500,679,424,132,89,49,,89,70,5,3,8,7,0.5,0.5
2025-04-12T2100,2488A,111.9975,27.725,娄底市,市监测站,颗粒物(PM10),500,630,439,146,112,76,,94,84,10,6,8,9,0.6,0.6
2025-04-12T2100,2489A,112.0194,27.7314,娄底市,市委党校,颗粒物(PM10),500,629,325,137,68,73,,83,80,11,8,4,4,0.2,0.2
2025-04-12T2100,2490A,111.9561,27.7569,娄底市,涟钢,颗粒物(PM10),500,629,426,154,93,37,,88,70,28,10,3,9,0.1,0.2
2025-04-12T2100,2491A,111.9892,27.7044,娄底市,市政府,颗粒物(PM10),421,521,395,129,90,51,,94,77,17,7,3,3,0.4,0.3
2025-04-12T2100,1893A,105.4324,28.9634,泸州市,九狮山,,,,,,,,,,,,,,,,
2025-04-12T2100,1894A,105.4427,28.9063,泸州市,小市上码头,细颗粒物(PM2.5),137,184,90,104,51,56,,72,62,23,15,5,5,0.6,0.6
2025-04-12T2100,1895A,105.4241,28.8573,泸州市,兰田宪桥,细颗粒物(PM2.5),149,198,97,114,56,40,,66,60,24,9,7,6,0.5,0.5
2025-04-12T2100,1896A,105.4379,28.8833,泸州市,市环监站,,,,,,,,,,,,,,,,
2025-04-12T2100,4272A,105.3689,28.7783,泸州市,纳溪中医医院,颗粒物(PM10),295,416,188,78,40,16,,63,53,46,15,6,7,0.7,0.5
2025-04-12T2100,2183A,111.1406,37.5211,吕梁市,环保局,颗粒物(PM10),87,124,436,25,43,91,,94,94,5,2,5,4,0.4,0.3
2025-04-12T2100,2185A,111.1297,37.5136,吕梁市,自来水公司,颗粒物(PM10),85,119,379,20,47,90,,94,94,7,3,2,3,0.5,0.4
2025-04-12T2100,2867A,111.1283,37.51,吕梁市,马茂庄小学,颗粒物(PM10),85,119,412,23,69,89,,95,95,8,3,1,2,0.3,0.2
2025-04-12T2100,1812A,112.3931,34.6516,洛阳市,市委党校,颗粒物(PM10),80,110,524,40,126,80,,94,92,15,10,2,2,0.4,0.4
2025-04-12T2100,1815A,112.494,34.6886,洛阳市,河南林校,细颗粒物(PM2.5),88,107,292,65,104,81,,96,95,11,5,1,2,0.5,0.5
2025-04-12T2100,1816A,112.3844,34.623,洛阳市,开发区管委会,颗粒物(PM10),74,98,623,23,139,78,,96,94,17,8,5,4,0.2,0.2
2025-04-12T2100,1817A,112.4267,34.6258,洛阳市,市委新办公区,颗粒物(PM10),75,99,599,17,98,89,,102,100,9,6,3,3,0.1,0.1
2025-04-12T2100,3340A,112.6005,34.6326,洛阳市,伊滨,颗粒物(PM10),64,78,484,15,124,87,,99,98,8,5,3,3,0.5,0.4
2025-04-12T2100,3341A,112.4951,34.6332,洛阳市,中移产业园,颗粒物(PM10),122,193,1097,29,125,80,,91,90,9,5,5,3,0.2,0.2
2025-04-12T2100,3593A,112.5736,34.8993,洛阳市,吉利监测站,颗粒物(PM10),76,102,534,14,60,72,,100,93,14,4,5,5,0.4,0.4
2025-04-12T2100,3635A,112.3677,34.662,洛阳市,河科大西苑校区,颗粒物(PM10),89,128,749,17,94,74,,96,93,24,11,5,5,0.4,0.3
2025-04-12T2100,3636A,112.4388,34.6781,洛阳市,英才小学,颗粒物(PM10),82,114,754,17,110,86,,96,96,10,6,5,4,0.3,0.3
2025-04-12T2100,4214A,112.4600,34.6949,洛阳市,春都路1号院,颗粒物(PM10),88,125,829,13,95,79,,103,100,17,6,5,4,0.4,0.4
2025-04-12T2100,2399A,114.051,33.5699,漯河市,三五一五工厂,颗粒物(PM10),63,76,740,19,90,94,,102,102,8,6,3,3,0.3,0.3
2025-04-12T2100,2400A,114.0055,33.5698,漯河市,漯河大学,颗粒物(PM10),61,71,538,22,100,93,,101,100,7,5,5,4,0.2,0.2
2025-04-12T2100,2401A,114.0138,33.5828,漯河市,市水利局,,,80,714,24,108,88,,97,96,12,9,3,3,,0.3
2025-04-12T2100,2402A,114.0261,33.5698,漯河市,市广电局,,,68,669,15,61,,,99,99,8,6,4,3,0.2,0.2
2025-04-12T2100,3478A,113.9749,33.5664,漯河市,市图书馆,颗粒物(PM10),55,60,519,12,87,91,,101,101,13,9,2,2,0.5,0.4
2025-04-12T2100,4250A,114.0892,33.5882,漯河市,韶山路11号,细颗粒物(PM2.5),172,,483,130,94,91,,102,101,14,9,1,2,0.3,0.3
2025-04-12T2100,1798A,118.5092,31.6837,马鞍山市,湖东路四小,颗粒物(PM10),149,248,342,61,72,77,,90,87,20,15,12,11,0.6,0.8
2025-04-12T2100,1799A,118.5024,31.6449,马鞍山市,开发区,颗粒物(PM10),147,244,356,62,71,84,,92,91,12,15,6,8,0.4,0.8
2025-04-12T2100,1802A,118.6245,31.7241,马鞍山市,濮塘,颗粒物(PM10),150,249,355,67,78,95,,97,97,4,6,7,6,0.3,0.4
2025-04-12T2100,3633A,118.4918,31.6809,马鞍山市,雨山,颗粒物(PM10),158,265,352,73,73,85,,88,88,9,16,6,12,0.8,1.4
2025-04-12T2100,4191A,118.5274,31.72227,马鞍山市,慈湖高新区,颗粒物(PM10),165,279,327,103,67,76,,82,82,27,21,15,11,1.1,0.8
2025-04-12T2100,1686A,111.0286,21.4688,茂名市,电白南海,,36,36,38,24,24,58,,46,46,9,10,2,1,0.8,0.6
2025-04-12T2100,1687A,110.9294,21.6533,茂名市,茂石化七小,颗粒物(PM10),58,66,43,24,21,58,,70,70,9,11,2,4,0.7,0.8
2025-04-12T2100,1688A,110.9107,21.6687,茂名市,健康路,,,68,43,31,25,62,,76,75,,8,7,5,0.6,0.7
2025-04-12T2100,1689A,110.8592,21.6828,茂名市,高岭,颗粒物(PM10),74,97,50,29,18,57,,63,62,8,10,4,8,0.6,0.6
2025-04-12T2100,3450A,111.01,21.5165,茂名市,电白水东,,46,46,28,17,13,55,,47,47,16,13,4,1,0.8,0.7
2025-04-12T2100,2539A,104.0308,30.0478,眉山市,黑龙滩水库,颗粒物(PM10),192,334,187,57,38,52,,74,73,6,7,3,3,0.3,0.3
2025-04-12T2100,2540A,103.8416,30.0874,眉山市,气象局,颗粒物(PM10),339,451,228,97,65,57,,74,70,24,16,2,2,0.5,0.4
2025-04-12T2100,3137A,103.8578,30.0744,眉山市,市委党校,颗粒物(PM10),293,415,240,92,65,50,,72,68,21,15,5,5,0.6,0.5
2025-04-12T2100,3148A,103.8291,30.0564,眉山市,区人社局,细颗粒物(PM2.5),128,182,124,97,68,57,,76,69,20,18,6,6,0.6,0.5
2025-04-12T2100,1690A,116.1231,24.3284,梅州市,梅江月梅,颗粒物(PM10),337,449,67,69,26,84,,75,75,7,15,4,4,0.3,0.5
2025-04-12T2100,1691A,116.0797,24.2719,梅州市,梅县新城,颗粒物(PM10),325,440,72,62,25,89,,82,82,13,19,5,6,0.3,0.5
2025-04-12T2100,1692A,116.1248,24.2654,梅州市,环境监控中心,颗粒物(PM10),332,445,66,60,28,86,,75,75,11,22,6,7,0.3,0.6
2025-04-12T2100,3315A,116.1233,24.2991,梅州市,梅龙,颗粒物(PM10),349,459,77,73,25,82,,74,74,6,13,6,7,0.4,0.6
2025-04-12T2100,1878A,104.7778,31.4741,绵阳市,富乐山,颗粒物(PM10),270,399,290,115,69,73,,86,85,16,10,6,6,0.3,0.3
2025-04-12T2100,1880A,104.6697,31.4668,绵阳市,高新区自来水公司,颗粒物(PM10),210,357,209,117,63,71,,91,89,21,13,2,2,0.4,0.3
2025-04-12T2100,1881A,104.7287,31.5075,绵阳市,三水厂,颗粒物(PM10),347,457,302,114,67,72,,89,88,20,13,5,5,0.5,0.5
2025-04-12T2100,3491A,104.69,31.5322,绵阳市,西科大附属小学,颗粒物(PM10),327,441,257,113,57,80,,96,94,18,13,8,7,0.4,0.4
2025-04-12T2100,3492A,104.5648,31.5343,绵阳市,安州区旅游局,颗粒物(PM10),353,462,161,102,41,75,,88,87,17,11,8,9,0.2,0.2
2025-04-12T2100,4226A,104.7651,31.4531,绵阳市,绵阳市气象局,颗粒物(PM10),364,471,315,112,72,65,,86,84,25,10,3,3,0.3,0.2
2025-04-12T2100,1784A,129.61,44.561,牡丹江市,环保大楼,,38,24,79,8,42,120,,119,119,9,30,5,8,0.2,0.6
2025-04-12T2100,1785A,129.6115,44.5782,牡丹江市,文化广场,,38,29,108,19,66,120,,114,114,9,35,9,13,0.4,0.9
2025-04-12T2100,1786A,129.5904,44.5963,牡丹江市,第一医院,,39,20,75,18,48,123,,119,119,6,22,5,9,0.2,0.5
2025-04-12T2100,1787A,129.6364,44.6075,牡丹江市,机车工厂,,39,26,110,11,63,124,,119,119,10,32,5,40,0.4,0.7
2025-04-12T2100,1788A,129.6386,44.5462,牡丹江市,第一中学,,40,28,68,11,39,125,,121,121,5,25,6,8,0.4,0.7
2025-04-12T2100,2531A,105.0703,29.61,内江市,市监测站,颗粒物(PM10),162,274,293,95,94,54,,73,70,23,14,8,7,0.5,0.4
2025-04-12T2100,2532A,105.0717,29.5947,内江市,东兴区政府,颗粒物(PM10),172,293,266,102,75,58,,69,68,,16,3,4,0.4,0.3
2025-04-12T2100,2533A,105.0653,29.5817,内江市,内江二中,颗粒物(PM10),202,351,283,121,79,48,,66,62,24,18,6,6,0.4,0.3
2025-04-12T2100,2534A,105.0406,29.5822,内江市,内江日报社,颗粒物(PM10),243,380,316,114,83,59,,69,66,21,15,5,5,0.3,0.3
2025-04-12T2100,2628A,92.0657,31.4846,那曲市,那曲监测站,,36,36,23,21,14,82,,95,93,28,13,8,6,0.6,0.5
2025-04-12T2100,4243A,92.0515,31.4787,那曲市,那曲市委宣传部,,36,35,24,25,15,91,,99,98,21,10,6,6,0.8,0.4
2025-04-12T2100,1290A,115.8931,28.6843,南昌市,省外办,颗粒物(PM10),182,313,262,97,67,59,,85,78,25,15,6,5,0.4,0.5
2025-04-12T2100,1291A,115.8886,28.7003,南昌市,省林业公司,颗粒物(PM10),355,464,376,122,69,,,83,80,,6,8,6,0.3,0.4
2025-04-12T2100,1292A,115.8126,28.7442,南昌市,林科所,颗粒物(PM10),255,388,259,95,66,18,,95,68,78,12,8,7,0.1,0.5
2025-04-12T2100,1294A,115.8518,28.687,南昌市,建工学校,颗粒物(PM10),337,449,330,111,68,62,,92,82,17,8,4,2,0.4,0.5
2025-04-12T2100,1295A,115.8921,28.6424,南昌市,象湖,颗粒物(PM10),255,388,279,90,64,74,,100,92,15,7,10,6,0.3,0.4
2025-04-12T2100,1296A,115.7423,28.7996,南昌市,武术学校,颗粒物(PM10),164,277,292,62,43,43,,91,70,3,2,8,10,0.5,0.6
2025-04-12T2100,3046A,115.9084,28.6062,南昌市,机电学校,颗粒物(PM10),258,390,308,90,72,64,,88,80,22,13,4,1,0.4,0.5
2025-04-12T2100,3690A,115.9721,28.7031,南昌市,外国语学校,颗粒物(PM10),283,408,333,76,65,74,,88,86,29,15,4,3,0,0.1
2025-04-12T2100,4192A,115.9316,28.68677,南昌市,南京东路235号,颗粒物(PM10),375,480,352,90,65,71,,96,93,22,12,8,8,0.3,0.4
2025-04-12T2100,1905A,106.056,30.8064,南充市,西山风景区,颗粒物(PM10),500,657,637,204,179,84,,95,93,5,5,2,3,0.3,0.2
2025-04-12T2100,1906A,106.0789,30.8023,南充市,南充市委,颗粒物(PM10),500,900,775,212,174,80,,95,90,12,14,3,3,0.3,0.3
2025-04-12T2100,1907A,106.1031,30.8217,南充市,南充炼油厂,颗粒物(PM10),500,821,796,226,200,69,,88,83,,11,3,3,,0.4
2025-04-12T2100,4227A,106.1083,30.7884,南充市,梨树横街98号,颗粒物(PM10),500,938,758,153,124,76,,93,89,15,12,4,5,0.2,0.2
2025-04-12T2100,4304A,106.1172,30.843,南充市,清泉寺北路188号,颗粒物(PM10),500,785,787,181,164,73,,91,84,14,9,3,3,0.1,0.1
2025-04-12T2100,4305A,106.067,30.7616,南充市,同庆路1号,颗粒物(PM10),500,822,799,193,170,73,,86,83,12,14,5,4,0.3,0.3
2025-04-12T2100,1151A,118.8086,32.1065,南京市,迈皋桥,颗粒物(PM10),155,259,221,51,69,84,,87,87,3,22,4,5,0.0,0.4
2025-04-12T2100,1152A,118.7538,32.0551,南京市,草场门,颗粒物(PM10),180,310,349,68,67,92,,92,92,12,18,3,4,0.5,0.7
2025-04-12T2100,1153A,118.7794,32.0745,南京市,山西路,颗粒物(PM10),240,378,304,41,67,92,,92,92,11,20,4,4,0.1,0.3
2025-04-12T2100,1154A,118.7752,32.0023,南京市,中华门,颗粒物(PM10),159,268,221,46,65,78,,80,80,13,15,6,9,0.5,0.5
2025-04-12T2100,1155A,118.8109,32.0309,南京市,瑞金路,颗粒物(PM10),170,290,222,51,66,84,,83,83,3,10,6,6,0.3,0.3
2025-04-12T2100,1156A,118.7997,32.0754,南京市,玄武湖,颗粒物(PM10),190,329,292,44,62,80,,81,81,10,16,6,8,0.3,0.5
2025-04-12T2100,1157A,118.6414,32.0931,南京市,浦口,颗粒物(PM10),236,375,334,35,55,94,,98,98,16,18,5,6,0.3,0.4
2025-04-12T2100,1158A,118.7356,31.9996,南京市,奥体中心,颗粒物(PM10),164,278,221,48,65,86,,86,86,12,18,6,7,0.2,0.4
2025-04-12T2100,1159A,118.9125,32.1028,南京市,仙林大学城,颗粒物(PM10),250,385,352,53,68,83,,86,86,8,19,8,10,0.5,0.8
2025-04-12T2100,3422A,118.8436,31.9198,南京市,江宁彩虹桥,颗粒物(PM10),236,375,318,53,64,86,,89,89,3,11,3,4,0.4,0.6
2025-04-12T2100,3427A,118.8554,32.3578,南京市,六合雄州,颗粒物(PM10),146,242,241,36,65,76,,84,84,1,12,4,6,0.2,0.6
2025-04-12T2100,4249A,118.8708,31.3402,南京市,汶溪路181号,颗粒物(PM10),183,316,286,53,62,92,,96,90,9,15,2,3,0.5,0.7
2025-04-12T2100,4312A,119.019,31.6512,南京市,中山西路1号,颗粒物(PM10),156,261,280,80,67,86,,89,89,12,14,4,5,0.3,0.5
2025-04-12T2100,1401A,108.3103,22.7881,南宁市,二十一中,颗粒物(PM10),65,79,51,21,27,80,,101,90,18,15,4,4,0.6,0.8
2025-04-12T2100,1402A,108.3141,22.8528,南宁市,北湖,,,,51,,29,,,80,,,17,,6,,0.9
2025-04-12T2100,1403A,108.3206,22.8225,南宁市,市监测站,颗粒物(PM10),63,75,52,20,26,70,,93,81,22,16,4,5,0.3,0.5
2025-04-12T2100,1404A,108.3829,22.8037,南宁市,大自然花园,颗粒物(PM10),68,86,49,20,26,91,,110,98,14,12,5,5,0.3,0.6
2025-04-12T2100,1405A,108.4394,22.7904,南宁市,仙葫,颗粒物(PM10),68,85,56,26,27,73,,93,83,8,12,6,6,0.4,0.7
2025-04-12T2100,1406A,108.2397,22.8467,南宁市,区农职院,颗粒物(PM10),58,66,50,18,26,61,,94,76,18,16,5,5,0.6,0.7
2025-04-12T2100,1407A,108.3275,22.735,南宁市,英华嘉园,,,79,51,18,27,,,109,97,16,19,6,7,0.4,0.6
2025-04-12T2100,3401A,108.4834,22.7618,南宁市,红星社区,颗粒物(PM10),70,89,52,25,32,91,,116,99,8,11,8,9,0.5,0.9
2025-04-12T2100,4221A,108.2177,22.7774,南宁市,乐贤路16号,颗粒物(PM10),61,71,60,24,31,61,,92,73,21,27,9,8,0.6,0.8
2025-04-12T2100,2331A,118.0966,26.6761,南平市,茫荡山,,,,,,,,,,,,,,,,
2025-04-12T2100,2332A,118.1681,26.6369,南平市,南平市监测站,颗粒物(PM10),81,111,39,27,23,67,,79,79,8,14,3,3,0.5,0.8
2025-04-12T2100,2333A,118.1825,26.6489,南平市,南平铝业有限公司,颗粒物(PM10),108,166,50,31,21,70,,80,80,11,18,2,3,0.5,0.8
2025-04-12T2100,2334A,118.1756,26.6272,南平市,南平七中,颗粒物(PM10),107,164,47,44,25,69,,80,80,5,11,5,4,0.6,0.7
2025-04-12T2100,1168A,120.9098,31.9663,南通市,狼山街道,颗粒物(PM10),181,312,135,44,31,93,,99,85,14,21,6,7,0.4,0.7
2025-04-12T2100,1169A,120.86,32.0005,南通市,虹桥,颗粒物(PM10),153,256,131,55,36,89,,99,83,14,18,6,6,0.3,0.5
2025-04-12T2100,1170A,120.87,32.02,南通市,城中,颗粒物(PM10),183,316,150,51,34,92,,98,84,14,18,3,6,0.3,0.6
2025-04-12T2100,1171A,120.94,31.93,南通市,星湖花园,颗粒物(PM10),187,324,134,55,32,37,,97,67,73,24,6,7,0.4,0.5
2025-04-12T2100,1172A,120.81,32.0417,南通市,紫琅学院,颗粒物(PM10),175,300,140,42,31,97,,94,90,12,19,3,4,0.4,0.6
2025-04-12T2100,3291A,121.067,32.062,南通市,通州监测站,颗粒物(PM10),145,239,121,41,30,87,,98,81,12,12,5,5,0.2,0.4
2025-04-12T2100,3432A,120.9348,31.9883,南通市,环境教育馆,颗粒物(PM10),167,283,137,49,32,100,,107,91,8,15,5,6,0.4,0.4
2025-04-12T2100,2404A,112.5224,33.0122,南阳市,瓦房庄,颗粒物(PM10),81,111,453,31,78,80,,108,102,20,12,3,3,0.5,0.4
2025-04-12T2100,2405A,112.5003,32.9735,南阳市,汉画馆,,,118,413,32,81,51,,102,92,,15,4,3,0.3,0.3
2025-04-12T2100,2406A,112.5573,33.027,南阳市,气象站,颗粒物(PM10),94,138,527,27,88,72,,102,95,26,11,2,2,0.4,0.3
2025-04-12T2100,2407A,112.5481,32.9689,南阳市,理工学院,颗粒物(PM10),84,117,455,24,81,73,,106,99,27,14,2,2,0.3,0.3
2025-04-12T2100,4008A,112.5234,32.9922,南阳市,卧龙区政府,颗粒物(PM10),85,119,448,21,73,70,,106,98,27,12,2,2,0.5,0.4
2025-04-12T2100,1234A,121.8358,29.911,宁波市,区环保大楼,颗粒物(PM10),467,567,177,120,50,64,,83,68,15,13,8,7,0.5,0.7
2025-04-12T2100,1235A,121.56,29.82,宁波市,万里学院,颗粒物(PM10),315,432,174,88,44,73,,88,72,8,8,5,5,0.4,0.6
2025-04-12T2100,1236A,121.713,29.9572,宁波市,龙赛医院,颗粒物(PM10),443,543,180,76,31,69,,96,69,10,9,9,8,0.4,0.5
2025-04-12T2100,1239A,121.633,29.7733,宁波市,钱湖水厂,颗粒物(PM10),387,489,167,79,32,73,,86,72,11,10,8,8,0.5,0.6
2025-04-12T2100,1240A,121.5856,29.8635,宁波市,太古小学,颗粒物(PM10),404,504,171,78,39,71,,86,74,14,10,8,8,0.3,0.6
2025-04-12T2100,1241A,121.524,29.8674,宁波市,市环境监测中心,颗粒物(PM10),293,415,188,82,38,68,,83,68,16,15,6,8,0.4,0.5
2025-04-12T2100,2871A,121.6147,29.9017,宁波市,万里国际学校,颗粒物(PM10),307,425,158,86,40,63,,88,69,11,7,7,7,0.4,0.5
2025-04-12T2100,3710A,121.5594,29.8975,宁波市,白沙活动中心,颗粒物(PM10),289,412,162,96,49,68,,88,71,10,8,7,6,0.4,0.5
2025-04-12T2100,2339A,119.5001,26.6946,宁德市,金涵水库,,,,,,,,,,,,,,,,
2025-04-12T2100,2341A,119.5388,26.6612,宁德市,宁德市监测站,,23,15,35,7,34,73,,72,45,12,21,4,4,0.4,0.8
2025-04-12T2100,3209A,119.5231,26.6562,宁德市,宁德一中,,28,16,40,6,43,89,,73,55,5,15,5,5,0.1,0.6
2025-04-12T2100,2618A,98.8601,25.8567,怒江傈僳族自治州,州监测站,,49,41,48,34,37,51,,65,64,6,11,7,8,0.4,0.5
2025-04-12T2100,2619A,98.8546,25.8417,怒江傈僳族自治州,泸水一中,,38,31,44,26,39,34,,56,54,18,18,6,7,0.5,0.6
2025-04-12T2100,1888A,101.6891,26.571,攀枝花市,弄弄坪,,38,38,56,9,22,71,,90,82,15,18,5,7,0.5,0.7
2025-04-12T2100,1889A,101.5769,26.5928,攀枝花市,河门口,,32,32,42,11,22,72,,93,84,8,11,10,18,0.8,0.9
2025-04-12T2100,1890A,101.7169,26.585,攀枝花市,炳草岗,,41,41,57,14,27,70,,90,82,12,20,11,13,0.3,0.4
2025-04-12T2100,1891A,101.7369,26.5008,攀枝花市,仁和,颗粒物(PM10),67,83,54,27,24,93,,98,94,13,13,8,9,0.3,0.5
2025-04-12T2100,2835A,101.7227,26.567,攀枝花市,四十中小,,47,47,41,17,23,73,,93,86,9,12,4,8,0.5,0.6
2025-04-12T2100,1604A,122.0303,41.1489,盘锦市,开发区,,,,39,12,24,64,,95,61,14,14,8,9,0.3,0.4
2025-04-12T2100,1605A,122.0485,41.0883,盘锦市,兴隆台,,20,20,42,3,19,60,,94,62,18,16,7,8,0.4,0.5
2025-04-12T2100,1606A,121.8297,41.1028,盘锦市,新生街道,,35,35,46,6,19,65,,91,66,22,18,15,15,0.3,0.4
2025-04-12T2100,1832A,113.3257,33.742,平顶山市,新华旅馆,颗粒物(PM10),57,64,609,19,59,86,,126,103,12,7,5,4,0.2,0.2
2025-04-12T2100,1833A,113.2919,33.737,平顶山市,规划设计院,颗粒物(PM10),58,66,517,26,104,86,,105,103,12,5,6,4,0.2,0.2
2025-04-12T2100,1834A,113.182,33.774,平顶山市,平顶山工学院,颗粒物(PM10),59,68,499,9,93,92,,107,106,8,4,6,6,0.4,0.3
2025-04-12T2100,3204A,113.3025,33.73,平顶山市,规划局,细颗粒物(PM2.5),162,,680,123,123,87,,104,102,9,4,5,4,0.6,0.3
2025-04-12T2100,3594A,112.8867,33.9116,平顶山市,石龙区,颗粒物(PM10),74,98,943,38,109,89,,104,102,13,7,5,5,0.3,0.3
2025-04-12T2100,2656A,106.6692,35.5461,平凉市,聚贤嘉苑,颗粒物(PM10),92,133,1021,30,162,55,,98,92,38,5,6,8,0.6,0.6
2025-04-12T2100,2657A,106.7021,35.5307,平凉市,博物馆,颗粒物(PM10),97,143,971,30,158,70,,96,92,20,4,9,8,0.4,0.3
2025-04-12T2100,2347A,114.0997,27.5002,萍乡市,武功山,颗粒物(PM10),196,342,277,75,55,46,,75,68,5,6,9,13,0.6,0.7
2025-04-12T2100,2348A,113.8385,27.6434,萍乡市,中医院,颗粒物(PM10),475,575,370,135,80,58,,80,76,14,7,8,8,0.6,0.6
2025-04-12T2100,2349A,113.8493,27.6253,萍乡市,市政府车库,颗粒物(PM10),318,434,324,117,74,45,,85,77,18,8,4,4,0.4,0.5
2025-04-12T2100,2350A,113.8676,27.6435,萍乡市,市环保局,颗粒物(PM10),462,562,351,164,90,56,,81,79,12,10,3,4,0.5,0.6
2025-04-12T2100,2351A,113.866,27.6198,萍乡市,安源区政府,颗粒物(PM10),413,513,336,134,88,42,,80,73,16,10,6,10,0.2,0.4
2025-04-12T2100,2319A,119.0141,25.4325,莆田市,荔城区仓后路,,24,21,41,3,20,74,,40,40,6,19,2,3,0.5,0.7
2025-04-12T2100,2320A,119.0015,25.4553,莆田市,莆田市监测站,,25,21,37,3,20,79,,45,45,4,13,3,4,0.3,0.5
2025-04-12T2100,2321A,119.1119,25.4561,莆田市,涵江区六中,,30,30,34,3,21,74,,38,38,6,21,2,4,0.4,0.6
2025-04-12T2100,2322A,119.1013,25.3215,莆田市,秀屿区政府,,25,20,23,3,16,77,,38,38,3,14,3,6,0.5,0.5
2025-04-12T2100,2323A,118.981,25.4792,莆田市,东圳水库,,,,,,,,,,,,,,,,
2025-04-12T2100,2392A,115.0312,35.7636,濮阳市,环保局,颗粒物(PM10),53,55,365,8,50,83,,92,92,16,12,7,6,1.0,0.9
2025-04-12T2100,2394A,115.0574,35.7609,濮阳市,油田运输公司,颗粒物(PM10),62,73,361,15,56,87,,99,98,19,14,6,5,0.4,0.5
2025-04-12T2100,3021A,115,35.7668,濮阳市,濮水河管理处,,,54,396,,57,81,,97,95,13,9,4,4,0.5,0.6
2025-04-12T2100,4216A,115.0924,35.7686,濮阳市,任丘路479号,颗粒物(PM10),65,79,401,17,62,93,,103,102,21,15,5,6,0.2,0.3
2025-04-12T2100,2601A,100.98,22.7633,普洱市,市环保局,颗粒物(PM10),57,64,69,13,30,61,,81,78,19,18,3,3,0.7,0.7
2025-04-12T2100,2602A,100.9817,22.8322,普洱市,普洱第二中学,细颗粒物(PM2.5),57,45,49,40,34,44,,96,86,31,29,8,7,0.6,0.6
2025-04-12T2100,2262A,131.0518,45.8751,七台河市,新一中,,42,35,80,12,46,134,,129,129,7,16,12,14,0.5,1
2025-04-12T2100,3345A,131.0577,45.7879,七台河市,中波台,颗粒物(PM10),55,60,112,10,58,118,,106,106,10,26,10,9,0.4,0.7
2025-04-12T2100,3637A,131.0176,45.7761,七台河市,人民广场,颗粒物(PM10),52,54,145,15,68,130,,122,122,10,24,8,10,0.7,1
2025-04-12T2100,3684A,130.8781,45.8222,七台河市,新建矿广场,,46,46,187,30,88,118,,117,116,16,34,7,13,0.5,0.9
2025-04-12T2100,1779A,123.9305,47.3636,齐齐哈尔市,安居小区,,23,12,14,3,6,72,,69,69,8,9,3,3,0.2,0.2
2025-04-12T2100,1780A,123.9488,47.3386,齐齐哈尔市,中心广场,,22,8,14,8,7,68,,64,64,6,9,5,6,0.3,0.3
2025-04-12T2100,1781A,123.9483,47.3227,齐齐哈尔市,农牧车辆厂,,23,9,15,9,9,73,,69,69,6,8,4,4,0.2,0.2
2025-04-12T2100,1783A,123.945,47.2988,齐齐哈尔市,市环境监测站,,23,9,12,3,7,72,,68,68,6,8,2,2,0.4,0.3
2025-04-12T2100,3662A,123.6333,47.2075,齐齐哈尔市,富区青少年活动中心,,23,6,8,3,6,73,,72,72,4,5,1,2,0.4,0.3
2025-04-12T2100,2591A,107.9783,26.5747,黔东南苗族侗族自治州,市环境监测站,颗粒物(PM10),154,258,57,70,26,68,,95,81,12,7,3,2,0.3,0.4
2025-04-12T2100,2881A,107.8908,26.5311,黔东南苗族侗族自治州,凯里学院,颗粒物(PM10),240,378,89,64,28,56,,91,78,12,6,2,2,0.3,0.4
2025-04-12T2100,2593A,107.5228,26.2403,黔南布依族苗族自治州,小围寨,颗粒物(PM10),206,354,90,95,31,75,,87,79,5,6,4,4,0.3,0.4
2025-04-12T2100,3538A,107.5175,26.2978,黔南布依族苗族自治州,沙坝,颗粒物(PM10),282,407,108,90,30,75,,93,83,8,7,4,4,0.2,0.4
2025-04-12T2100,2589A,104.9022,25.0925,黔西南布依族苗族自治州,场坝街,颗粒物(PM10),125,199,73,75,35,,,90,90,13,10,11,6,0.1,0.3
2025-04-12T2100,2590A,104.8811,25.0992,黔西南布依族苗族自治州,坪东大道,颗粒物(PM10),110,169,61,70,32,75,,89,86,19,13,11,4,0.3,0.2
2025-04-12T2100,2502A,108.6236,21.9667,钦州市,市环保站,颗粒物(PM10),117,183,58,46,21,71,,80,80,17,12,12,9,0.8,0.7
2025-04-12T2100,2503A,108.6549,21.9481,钦州市,沙埠小学,颗粒物(PM10),108,166,57,33,21,77,,81,81,10,9,6,6,0.7,0.9
2025-04-12T2100,2504A,108.5989,21.7431,钦州市,港区一小,颗粒物(PM10),101,151,70,40,21,58,,65,65,29,24,12,10,0.7,0.7
2025-04-12T2100,3404A,108.5959,21.9633,钦州市,北职校,颗粒物(PM10),96,141,52,33,22,75,,80,80,14,12,6,6,0.5,0.7
2025-04-12T2100,1043A,119.7493,40.0116,秦皇岛市,第一关,颗粒物(PM10),63,76,138,25,33,78,,78,78,13,23,3,4,0.2,0.2
2025-04-12T2100,1044A,119.5897,39.9499,秦皇岛市,监测站,颗粒物(PM10),62,74,114,17,26,81,,81,81,1,10,3,3,0.3,0.3
2025-04-12T2100,1046A,119.5251,39.9041,秦皇岛市,建设大厦,颗粒物(PM10),81,111,127,22,27,78,,80,79,9,19,2,2,0.2,0.2
2025-04-12T2100,3132A,119.610547,39.943889,秦皇岛市,文明里,颗粒物(PM10),74,98,140,19,24,78,,78,78,2,11,2,3,0.2,0.2
2025-04-12T2100,4198A,119.5090,39.8253,秦皇岛市,北戴河轮滑馆,颗粒物(PM10),76,101,137,13,20,76,,79,78,1,8,5,5,0.1,0.2
2025-04-12T2100,1307A,120.6659,36.2403,青岛市,仰口,,,,154,,28,,,102,,,5,,5,,0.5
2025-04-12T2100,1310A,120.4134,36.0658,青岛市,市南区东部子站,颗粒物(PM10),100,149,155,9,21,86,,89,89,9,10,6,7,0.5,0.4
2025-04-12T2100,1311A,120.3664,36.1032,青岛市,四方区子站,颗粒物(PM10),95,139,131,12,24,93,,98,98,8,10,7,6,0.3,0.4
2025-04-12T2100,1312A,120.2994,36.054,青岛市,市南区西部子站,颗粒物(PM10),91,132,143,7,20,84,,88,88,12,17,6,7,0.5,0.6
2025-04-12T2100,1313A,120.4581,36.0858,青岛市,崂山区子站,颗粒物(PM10),89,127,139,3,18,95,,98,98,5,8,7,8,0.4,0.4
2025-04-12T2100,1315A,120.3999,36.3083,青岛市,城阳区子站,颗粒物(PM10),85,119,129,12,20,89,,94,94,11,12,7,9,0.5,0.5
2025-04-12T2100,1966A,120.0405,35.8735,青岛市,黄岛区4号,颗粒物(PM10),92,134,166,7,21,83,,93,88,12,13,9,8,0.5,0.6
2025-04-12T2100,3362A,120.5014,36.4034,青岛市,即墨2号,颗粒物(PM10),104,158,162,13,18,84,,92,90,8,10,7,8,0.4,0.5
2025-04-12T2100,3642A,120.3503,36.0736,青岛市,市北区南部,颗粒物(PM10),68,85,114,9,20,85,,87,87,10,14,5,6,0.4,0.5
2025-04-12T2100,3643A,120.3948,36.1805,青岛市,李沧区北部,颗粒物(PM10),90,129,135,14,29,83,,87,87,10,12,8,8,0.5,0.5
2025-04-12T2100,4290A,120.1969,35.9546,青岛市,珠江路669号,颗粒物(PM10),85,119,182,7,28,88,,96,92,9,12,6,6,0.5,0.5
