timepoint,stationcode,longitude,latitude,area,positionname,primarypollutant,aqi,pm10,pm10_24h,pm2_5,pm2_5_24h,o3,o3_24h,o3_8h,o3_8h_24h,no2,no2_24h,so2,so2_24h,co,co_24h
2025-04-12T1000,2566A,102.1879,31.914,阿坝藏族羌族自治州,州农科所,,24,21,20,10,9,76,,74,74,10,8,12,12,0.4,0.4
2025-04-12T1000,2568A,102.2502,31.8896,阿坝藏族羌族自治州,马师校,,28,,19,19,17,81,,82,81,11,7,6,6,0.4,0.4
2025-04-12T1000,3994A,102.2165,31.9024,阿坝藏族羌族自治州,马尔康中学西区,,29,16,18,11,13,90,,88,88,6,5,4,4,0.3,0.3
2025-04-12T1000,2695A,80.292,41.1694,阿克苏地区,电视台,颗粒物(PM10),93,135,407,38,61,79,,90,89,10,6,7,6,0.6,0.5
2025-04-12T1000,2696A,80.2613,41.1551,阿克苏地区,艺术中心,颗粒物(PM10),129,207,407,36,64,78,,88,88,12,8,5,4,0.6,0.6
2025-04-12T1000,2204A,105.6467,38.8363,阿拉善盟,西城区西花园,,50,50,1297,14,296,99,,90,90,6,6,18,18,0.7,0.7
2025-04-12T1000,2205A,105.6985,38.8411,阿拉善盟,蒙二幼,,32,32,1372,13,310,90,,83,83,5,6,5,6,0.4,0.4
2025-04-12T1000,2206A,105.724,38.8516,阿拉善盟,环保局新楼,颗粒物(PM10),52,54,1118,18,289,94,,89,89,3,2,8,8,0.4,0.4
2025-04-12T1000,2708A,88.1264,47.8517,阿勒泰地区,市站,,32,,10,6,5,102,,102,102,4,6,2,2,0.2,0.2
2025-04-12T1000,2630A,80.1161,32.5,阿里地区,阿里监测站,,30,30,14,13,8,85,,101,93,11,6,7,8,0.5,0.4
2025-04-12T1000,3192A,80.0903,32.5028,阿里地区,阿里藏医院,,37,37,19,12,8,70,,101,93,19,3,15,7,0.6,0.4
2025-04-12T1000,2642A,109.0318,32.6537,安康市,香溪洞,颗粒物(PM10),500,712,323,121,70,93,,93,93,4,9,6,6,0.3,0.4
2025-04-12T1000,2644A,109.0072,32.6975,安康市,汉滨区检察院,颗粒物(PM10),500,634,283,146,62,93,,89,89,3,15,7,10,0.2,0.4
2025-04-12T1000,4054A,109.0325,32.6913,安康市,市邮政管理局,颗粒物(PM10),500,646,295,112,71,96,,93,93,3,16,5,8,0.3,0.4
2025-04-12T1000,2291A,117.0809,30.5177,安庆市,环科院,颗粒物(PM10),500,1012,82,15,20,92,,110,105,11,11,6,7,0.3,0.7
2025-04-12T1000,2292A,117.0331,30.5119,安庆市,马山宾馆,颗粒物(PM10),500,982,75,130,27,93,,110,105,5,10,3,5,0.3,0.8
2025-04-12T1000,2294A,116.9896,30.6145,安庆市,安庆大学,颗粒物(PM10),500,1200,98,142,28,99,,113,108,2,5,2,3,0.1,0.4
2025-04-12T1000,3173A,117.0598,30.5351,安庆市,市人大,,,,49,,26,,,94,,,14,,8,,0.6
2025-04-12T1000,3122A,105.9606,26.2611,安顺市,伍家关,,,,52,11,31,92,,102,96,3,4,1,4,0.3,0.6
2025-04-12T1000,3123A,105.9408,26.2431,安顺市,凤凰山,,27,15,44,3,30,86,,103,94,5,8,6,7,0.2,0.5
2025-04-12T1000,3124A,105.9439,26.2564,安顺市,金钟山,,25,20,43,3,31,79,,98,88,6,8,5,6,0.4,0.7
2025-04-12T1000,3125A,105.8983,26.2481,安顺市,娄家坡,,25,15,40,6,31,77,,103,92,10,8,4,6,0.5,0.6
2025-04-12T1000,1818A,114.4839,36.0621,安阳市,棉研所,,,,,,,,,,,,,,,,
2025-04-12T1000,1819A,114.3551,36.1017,安阳市,红庙街,颗粒物(PM10),419,519,417,76,96,74,,79,78,1,10,2,7,0.4,0.7
2025-04-12T1000,1820A,114.361,36.0681,安阳市,银杏小区,颗粒物(PM10),472,572,480,101,102,82,,88,87,3,12,4,8,0.1,0.4
2025-04-12T1000,3141A,114.3922,36.0878,安阳市,信访局,颗粒物(PM10),433,533,463,50,75,86,,92,91,3,13,2,4,0.1,0.4
2025-04-12T1000,3669A,114.4705,36.0637,安阳市,左辅环卫站,颗粒物(PM10),489,589,493,54,73,97,,102,102,10,17,1,6,0.3,0.5
2025-04-12T1000,3703A,114.2917,36.0949,安阳市,安钢职工学校,颗粒物(PM10),367,473,496,91,102,79,,85,84,2,14,1,6,0.5,0.7
2025-04-12T1000,1748A,123.044,41.1196,鞍山市,深沟寺,,38,8,32,3,13,119,,118,115,10,11,9,9,0.5,0.4
2025-04-12T1000,1749A,123.011,41.0931,鞍山市,太阳城,,37,6,30,3,12,118,,112,112,6,6,2,3,0.7,0.6
2025-04-12T1000,1750A,123.0485,41.1442,鞍山市,太平,,36,6,35,3,13,114,,111,110,8,8,7,8,0.8,0.6
2025-04-12T1000,1751A,122.9642,41.0971,鞍山市,铁西三道街,,31,15,42,3,15,99,,117,113,25,13,4,3,0.7,0.5
2025-04-12T1000,1753A,123.022,41.0821,鞍山市,明达新区,,39,6,29,3,14,124,,132,122,6,7,5,6,0.4,0.3
2025-04-12T1000,1754A,123.1289,41.0228,鞍山市,千山,,,,27,,9,,,126,,,7,,4,,0.7
2025-04-12T1000,4201A,122.9446,41.0826,鞍山市,兴盛南路290号,,36,6,38,3,14,114,,118,116,13,12,7,6,0.6,0.5
2025-04-12T1000,2195A,107.4212,40.761,巴彦淖尔市,附二中,,30,28,311,21,45,78,,70,70,3,3,6,6,0.3,0.3
2025-04-12T1000,2196A,107.37,40.7372,巴彦淖尔市,市环保大楼,,38,38,290,12,48,77,,66,66,3,4,5,5,0.6,0.5
2025-04-12T1000,1956A,86.1472,41.7538,巴音郭楞蒙古自治州,孔雀公园,,48,48,58,16,15,68,,81,79,27,17,11,7,0.3,0.2
2025-04-12T1000,1957A,86.1972,41.7166,巴音郭楞蒙古自治州,棉纺厂,颗粒物(PM10),60,69,59,6,9,59,,64,59,25,18,4,6,0.3,0.2
2025-04-12T1000,1958A,86.2357,41.7173,巴音郭楞蒙古自治州,经济开发区,,45,45,55,3,6,89,,90,90,10,7,5,4,0.4,0.3
2025-04-12T1000,2914A,106.7677,31.8794,巴中市,苏山坪,颗粒物(PM10),466,566,602,145,136,97,,97,97,4,6,2,3,0.1,0.2
2025-04-12T1000,3181A,106.7768,31.8526,巴中市,市五中,颗粒物(PM10),500,615,594,136,126,92,,90,89,5,7,4,5,0.5,0.5
2025-04-12T1000,3183A,106.7418,31.8654,巴中市,圣泉水务公司,颗粒物(PM10),497,597,586,136,121,99,,97,97,2,6,1,3,0.4,0.4
2025-04-12T1000,3616A,106.7616,31.8344,巴中市,市中心医院,颗粒物(PM10),486,586,568,243,129,94,,95,94,8,11,5,6,0.3,0.5
2025-04-12T1000,2235A,122.7911,45.6077,白城市,洮北区环保局,,23,16,81,8,49,72,,63,63,9,13,5,5,0.2,0.3
2025-04-12T1000,2236A,122.8738,45.5725,白城市,市环保局,,23,,77,11,51,73,,62,62,3,8,5,6,0.4,0.6
2025-04-12T1000,2231A,126.4219,41.9171,白山市,喜丰,颗粒物(PM10),77,103,81,39,31,110,,42,42,11,32,14,15,0.9,1
2025-04-12T1000,2232A,126.4077,41.9419,白山市,环保局,颗粒物(PM10),104,158,65,53,29,81,,46,43,34,21,8,7,1.1,0.9
2025-04-12T1000,2647A,104.1724,36.5446,白银市,第三小学,颗粒物(PM10),500,969,1229,243,226,60,,78,68,16,6,36,14,0.4,0.3
2025-04-12T1000,2648A,104.1465,36.5482,白银市,动力公司,颗粒物(PM10),500,874,1125,262,245,71,,82,76,14,6,18,7,0.5,0.4
2025-04-12T1000,2512A,106.6103,23.9011,百色市,市监测站,细颗粒物(PM2.5),68,70,68,49,49,80,,62,60,14,16,9,12,0.8,0.8
2025-04-12T1000,2513A,106.6538,23.8859,百色市,市中心血站,细颗粒物(PM2.5),83,85,76,61,56,75,,63,55,22,18,6,9,1.0,0.9
2025-04-12T1000,3406A,106.6085,23.8798,百色市,祈福高中,细颗粒物(PM2.5),72,71,79,52,46,73,,41,41,18,20,6,10,0.9,0.8
2025-04-12T1000,2270A,117.396,32.939,蚌埠市,工人疗养院,颗粒物(PM10),500,1140,250,141,53,77,,88,80,11,13,3,5,0.4,0.6
2025-04-12T1000,2271A,117.3605,32.9427,蚌埠市,百货大楼,颗粒物(PM10),500,1182,273,167,58,70,,79,74,17,19,4,6,0.3,0.6
2025-04-12T1000,2273A,117.4185,32.8911,蚌埠市,蚌埠学院,颗粒物(PM10),500,1262,186,142,53,82,,91,86,7,13,2,5,0.3,0.7
2025-04-12T1000,2274A,117.3533,32.9673,蚌埠市,淮上区政府,颗粒物(PM10),500,1245,194,149,68,72,,79,72,11,17,4,6,0.2,0.5
2025-04-12T1000,2275A,117.3145,32.8977,蚌埠市,高新区,颗粒物(PM10),500,1182,271,180,62,76,,90,87,15,13,3,7,0.3,0.7
2025-04-12T1000,3715A,117.3092,32.9314,蚌埠市,蚌埠田家炳中学,颗粒物(PM10),500,1225,291,154,59,77,,86,82,19,18,4,7,0.2,0.5
2025-04-12T1000,1585A,109.8756,40.6532,包头市,市环境监测站,颗粒物(PM10),55,59,337,3,50,75,,74,74,4,5,10,9,0.4,0.4
2025-04-12T1000,1587A,109.9991,40.5842,包头市,包头八中,,27,27,369,8,50,74,,74,73,5,6,9,9,0.3,0.3
2025-04-12T1000,1588A,109.8538,40.6821,包头市,青山宾馆,,36,36,318,9,49,74,,73,73,3,3,8,8,0.3,0.4
2025-04-12T1000,1589A,109.8642,40.6288,包头市,惠龙物流,颗粒物(PM10),54,57,361,12,49,76,,76,76,5,6,7,7,0.3,0.4
2025-04-12T1000,1590A,110.0377,40.5546,包头市,东河鸿龙湾,,33,33,325,3,41,73,,74,73,8,8,8,7,0.2,0.2
2025-04-12T1000,3283A,109.9154,40.5685,包头市,滨河大厦,,33,33,409,12,51,75,,72,72,2,6,9,10,0.4,0.5
2025-04-12T1000,3419A,109.9447,40.6261,包头市,包头市委党校,,,,417,2,42,68,,72,70,3,3,7,6,0.4,0.4
2025-04-12T1000,3683A,109.8331,40.6576,包头市,昆区政府,颗粒物(PM10),51,52,347,8,49,73,,74,73,6,7,2,2,0.5,0.5
2025-04-12T1000,1930A,107.185,34.3063,宝鸡市,庙沟村,颗粒物(PM10),500,1020,1118,256,271,91,,95,92,2,4,6,7,0.4,0.4
2025-04-12T1000,1931A,107.0708,34.3017,宝鸡市,竹园沟,颗粒物(PM10),500,1291,1244,282,264,94,,98,96,4,6,9,7,0.4,0.4
2025-04-12T1000,1932A,107.1906,34.3672,宝鸡市,三陆医院,颗粒物(PM10),500,1117,1185,301,289,91,,95,93,3,6,13,5,0.4,0.4
2025-04-12T1000,1933A,107.1431,34.3547,宝鸡市,监测站,颗粒物(PM10),500,1113,1334,249,281,90,,96,94,2,5,7,7,0.6,0.4
2025-04-12T1000,1934A,107.1186,34.3739,宝鸡市,技工学校,颗粒物(PM10),500,1012,942,291,313,84,,92,90,4,6,4,5,0.4,0.4
2025-04-12T1000,1935A,107.3906,34.3528,宝鸡市,陈仓区环保局家属楼,颗粒物(PM10),500,784,754,196,246,91,,92,90,4,9,6,8,0.2,0.3
2025-04-12T1000,1936A,107.2058,34.3497,宝鸡市,文理学院,颗粒物(PM10),500,1090,1279,279,280,89,,94,92,5,8,10,6,0.3,0.3
2025-04-12T1000,1937A,107.2386,34.3622,宝鸡市,三迪小学,颗粒物(PM10),500,961,1375,455,280,92,,95,93,6,8,10,8,0.5,0.4
2025-04-12T1000,1051A,115.493,38.8632,保定市,游泳馆,颗粒物(PM10),136,221,276,30,74,84,,86,84,4,10,3,7,0.1,0.2
2025-04-12T1000,1052A,115.5213,38.8959,保定市,华电二区,颗粒物(PM10),98,145,244,29,84,83,,86,84,1,7,3,3,0.1,0.3
2025-04-12T1000,1053A,115.4713,38.9108,保定市,接待中心,颗粒物(PM10),76,101,261,7,52,83,,85,84,1,7,3,4,0.0,0.2
2025-04-12T1000,1054A,115.4612,38.8416,保定市,地表水厂,颗粒物(PM10),79,107,343,13,66,85,,89,87,8,12,1,4,0.3,0.4
2025-04-12T1000,3581A,115.31981,38.95208,保定市,满城区生态环境分局,,44,44,297,3,57,85,,88,86,6,9,2,5,0,0.3
2025-04-12T1000,3582A,115.47694,38.76408,保定市,清苑区第二中学,颗粒物(PM10),116,182,407,20,59,84,,87,85,5,10,2,6,0.2,0.3
2025-04-12T1000,3583A,115.62909,39.02311,保定市,徐水物探局,细颗粒物(PM2.5),62,51,387,44,62,84,,90,87,3,10,3,5,0,0
2025-04-12T1000,4004A,115.4202,38.8656,保定市,双鹰农机,颗粒物(PM10),106,161,343,33,92,82,,85,83,2,9,2,5,0.0,0.3
2025-04-12T1000,4034A,115.5150,38.8590,保定市,植保所站,颗粒物(PM10),85,119,321,28,76,71,,74,72,2,7,3,4,0.3,0.4
2025-04-12T1000,2594A,99.1678,25.1081,保山市,市环境监测站,细颗粒物(PM2.5),68,,40,49,34,30,,17,16,23,11,10,8,0.7,0.6
2025-04-12T1000,2595A,99.1711,25.1328,保山市,市环保局,细颗粒物(PM2.5),93,81,44,69,31,26,,24,20,21,9,7,6,0.8,0.7
2025-04-12T1000,1866A,109.2262,21.588,北海市,牛尾岭水库,,,28,28,15,19,40,,33,33,,8,6,6,0.5,0.6
2025-04-12T1000,1867A,109.1436,21.4086,北海市,海滩公园,,43,43,36,17,15,45,,61,55,19,17,6,5,0.4,0.6
2025-04-12T1000,1868A,109.0981,21.4661,北海市,新市环保局,,33,33,36,17,24,53,,71,64,10,13,3,3,0.4,0.5
2025-04-12T1000,1869A,109.1778,21.5233,北海市,北海工业园,,45,45,42,29,27,63,,57,57,8,13,9,9,0.4,0.6
2025-04-12T1000,3400A,109.1911,21.4415,北海市,龙潭自来水厂,,33,33,35,16,27,57,,71,64,8,12,6,6,0.3,0.4
2025-04-12T1000,1001A,116.3621,39.8784,北京市,万寿西宫,颗粒物(PM10),62,73,143,8,41,88,,90,89,8,14,6,8,0.5,0.6
2025-04-12T1000,1002A,116.2202,40.2915,北京市,定陵,,,,,,,,,,,,,,,,
2025-04-12T1000,1003A,116.4174,39.9289,北京市,东四,颗粒物(PM10),66,82,166,12,49,82,,83,82,2,11,5,7,0.3,0.5
2025-04-12T1000,1004A,116.4072,39.8863,北京市,天坛,颗粒物(PM10),67,83,146,9,43,79,,81,79,6,13,1,3,0.4,0.5
2025-04-12T1000,1005A,116.462,39.9365,北京市,农展馆,颗粒物(PM10),66,82,137,7,41,85,,85,84,3,12,6,8,0.2,0.6
2025-04-12T1000,1006A,116.3392,39.9295,北京市,官园,颗粒物(PM10),62,73,162,12,48,78,,80,79,4,12,6,7,0.3,0.5
2025-04-12T1000,1007A,116.2878,39.9611,北京市,海淀万柳,颗粒物(PM10),55,59,151,3,50,67,,,,9,22,3,6,0.4,0.7
2025-04-12T1000,1008A,116.6636,40.135,北京市,顺义新城,颗粒物(PM10),69,87,152,3,51,91,,92,89,1,11,5,7,0.3,0.5
2025-04-12T1000,1009A,116.6275,40.3275,北京市,怀柔镇,,38,38,132,7,46,78,,78,76,3,10,2,4,0.2,0.4
2025-04-12T1000,1010A,116.2296,40.217,北京市,昌平镇,颗粒物(PM10),55,59,127,6,39,82,,79,79,2,14,3,3,0.5,0.5
2025-04-12T1000,1011A,116.3966,39.9821,北京市,奥体中心,颗粒物(PM10),59,68,142,10,40,82,,81,81,7,17,2,4,0.4,0.6
2025-04-12T1000,3281A,115.9718,40.4529,北京市,延庆夏都,颗粒物(PM10),73,95,114,12,30,84,,86,84,3,8,5,6,0.3,0.4
2025-04-12T1000,3418A,116.8336,40.4095,北京市,密云新城,颗粒物(PM10),60,70,121,3,40,78,,77,75,2,7,4,6,0.2,0.4
2025-04-12T1000,3671A,116.088,39.9726,北京市,门头沟三家店,颗粒物(PM10),107,164,213,23,50,73,,77,75,2,13,4,5,0.3,0.4
2025-04-12T1000,3672A,116.1541,39.8204,北京市,丰台云岗,颗粒物(PM10),66,81,156,13,47,85,,87,86,1,10,2,4,0.2,0.4
2025-04-12T1000,3673A,116.6804,39.9081,北京市,通州东关,颗粒物(PM10),102,154,208,24,57,81,,79,79,2,16,3,6,0.4,0.6
2025-04-12T1000,3674A,115.9577,39.7603,北京市,房山燕山,颗粒物(PM10),68,86,170,11,45,77,,79,78,2,11,4,5,0.3,0.4
2025-04-12T1000,3675A,116.4672,39.7733,北京市,大兴旧宫,颗粒物(PM10),76,101,142,13,42,80,,81,80,4,12,3,3,0.2,0.3
2025-04-12T1000,3694A,115.986,40.4563,北京市,延庆石河营,颗粒物(PM10),54,57,105,6,26,84,,86,85,4,9,4,5,0.3,0.4
2025-04-12T1000,3695A,116.6151,40.3053,北京市,怀柔新城,,32,32,126,3,45,79,,78,76,2,8,1,3,0.4,0.6
2025-04-12T1000,3696A,116.2545,39.8768,北京市,丰台小屯,颗粒物(PM10),72,94,147,21,37,73,,74,74,1,12,1,3,0.2,0.3
2025-04-12T1000,3697A,116.84,40.3844,北京市,密云镇,,43,43,120,3,40,78,,79,77,1,9,3,6,0.3,0.5
2025-04-12T1000,4182A,116.1942,39.9158,北京市,八角北路9号,颗粒物(PM10),64,77,158,9,42,77,,79,78,2,12,3,5,0.1,0.4
2025-04-12T1000,4194A,117.0790,40.1518,北京市,洳河巡河路,,29,29,109,3,49,79,,82,79,2,10,1,4,0.2,0.5
2025-04-12T1000,1761A,123.8275,41.3064,本溪市,大峪,,39,6,35,3,37,123,,130,128,7,8,4,4,0.4,0.4
2025-04-12T1000,1762A,123.7567,41.3325,本溪市,溪湖,,38,21,39,3,16,120,,125,124,9,11,7,7,0.6,0.6
2025-04-12T1000,1763A,123.7169,41.3094,本溪市,彩屯,,33,31,62,13,22,104,,116,115,26,24,17,18,1.8,1.8
2025-04-12T1000,1764A,123.7669,41.2864,本溪市,东明,,39,,47,6,13,122,,131,128,7,8,5,5,0.7,0.6
2025-04-12T1000,1765A,123.7992,41.2664,本溪市,新立屯,,39,6,34,3,14,122,,131,128,11,11,7,7,0.5,0.5
2025-04-12T1000,1766A,123.8142,41.3472,本溪市,威宁,,35,6,54,3,18,110,,120,115,3,5,5,5,0.6,0.7
2025-04-12T1000,2587A,105.2864,27.3125,毕节市,八中,颗粒物(PM10),105,160,54,38,38,86,,93,90,5,7,,3,0.2,0.4
2025-04-12T1000,2588A,105.31,27.2944,毕节市,师专,颗粒物(PM10),99,148,50,37,31,96,,102,100,6,8,6,7,0.3,0.5
2025-04-12T1000,4263A,105.3688,27.3598,毕节市,工业大道,颗粒物(PM10),103,156,56,48,35,84,,92,88,10,9,7,8,0.3,0.7
2025-04-12T1000,1629A,118.0018,37.3617,滨州市,第二水厂,颗粒物(PM10),131,212,201,44,71,74,,78,76,,13,7,9,0.6,0.7
2025-04-12T1000,1630A,117.9776,37.393,滨州市,北中新校,颗粒物(PM10),79,107,131,31,65,81,,82,81,5,15,4,15,0.3,0.5
2025-04-12T1000,3514A,117.9378,37.3956,滨州市,中海酒店,颗粒物(PM10),114,178,257,27,53,80,,80,80,3,13,6,11,0.4,0.6
2025-04-12T1000,3515A,117.9378,37.3553,滨州市,开发区一中,,,,,,,,,,,,,,,,
2025-04-12T1000,3516A,118.0917,37.694,滨州市,金海六路,颗粒物(PM10),96,142,336,14,59,82,,79,79,5,16,5,9,0.3,0.4
2025-04-12T1000,4028A,117.9956,37.3753,滨州市,滨州市西街道办事处,颗粒物(PM10),93,136,152,24,60,86,,88,88,7,14,4,8,0.2,0.4
2025-04-12T1000,2311A,115.8072,33.8399,亳州市,污水处理厂,颗粒物(PM10),285,409,393,64,65,88,,89,89,8,13,1,4,0.2,0.5
2025-04-12T1000,2312A,115.7789,33.8518,亳州市,三国揽胜宫,颗粒物(PM10),500,619,342,55,64,89,,89,89,11,12,2,4,0.0,0.3
2025-04-12T1000,3332A,115.7633,33.8034,亳州市,亳州学院,颗粒物(PM10),319,435,370,57,58,93,,93,93,12,11,2,4,0.2,0.4
2025-04-12T1000,2693A,82.0485,44.8556,博尔塔拉蒙古自治州,市党校,,,51,49,16,16,,,93,84,30,25,,3,0.2,0.3
2025-04-12T1000,2694A,82.0806,44.8969,博尔塔拉蒙古自治州,市环保局,颗粒物(PM10),60,70,69,8,13,39,,50,48,20,16,2,2,0.4,0.5
2025-04-12T1000,1071A,116.8842,38.2991,沧州市,沧县城建局,颗粒物(PM10),93,135,326,17,66,66,,69,67,5,13,3,4,0.0,0.3
2025-04-12T1000,1072A,116.8584,38.3254,沧州市,电视转播站,颗粒物(PM10),87,123,275,29,74,85,,84,84,8,13,1,6,0.2,0.3
2025-04-12T1000,1073A,116.8709,38.3228,沧州市,市环保局,颗粒物(PM10),81,112,283,18,82,83,,82,81,6,12,1,8,0.3,0.4
2025-04-12T1000,3324A,116.8136,38.3004,沧州市,河北水利电力学院,颗粒物(PM10),113,175,436,10,56,92,,90,89,5,13,4,8,0.2,0.3
2025-04-12T1000,2622A,97.1806,31.1273,昌都市,昌都监测站,,30,,8,7,7,94,,100,96,3,5,2,2,0.2,0.3
2025-04-12T1000,3719A,97.1714,31.1406,昌都市,昌都会议中心,,27,9,9,7,9,86,,95,91,6,5,2,2,0.2,0.2
2025-04-12T1000,2690A,88.1236,43.8886,昌吉回族自治州,天山天池,,25,6,8,3,4,78,,67,67,4,5,3,4,0.5,0.5
2025-04-12T1000,2692A,87.2717,44.0297,昌吉回族自治州,新区政务中心,,39,39,33,3,8,100,,104,104,10,11,6,5,0.3,0.3
2025-04-12T1000,3613A,87.3095,44.0142,昌吉回族自治州,亚心广场,颗粒物(PM10),59,68,48,3,7,89,,95,95,12,11,7,7,0.4,0.5
2025-04-12T1000,1119A,125.3325,43.9166,长春市,食品厂,细颗粒物(PM2.5),64,60,80,46,53,86,,89,89,25,24,7,10,0.6,0.5
2025-04-12T1000,1120A,125.2863,43.9027,长春市,客车厂,细颗粒物(PM2.5),65,59,77,47,53,83,,88,88,26,23,5,8,0.6,0.5
2025-04-12T1000,1121A,125.2841,43.8463,长春市,邮电学院,细颗粒物(PM2.5),84,71,85,62,49,83,,92,92,26,23,6,9,0.6,0.5
2025-04-12T1000,1122A,125.3716,43.8772,长春市,劳动公园,细颗粒物(PM2.5),72,68,82,52,48,83,,93,92,24,21,6,9,0.5,0.6
2025-04-12T1000,1123A,125.3297,43.8805,长春市,园林处,细颗粒物(PM2.5),74,56,74,54,43,83,,92,92,25,18,7,9,0.7,0.5
2025-04-12T1000,1124A,125.4605,43.79,长春市,净月潭,细颗粒物(PM2.5),57,42,76,40,44,87,,92,92,12,18,6,9,0.3,0.4
2025-04-12T1000,1125A,125.7194,43.515,长春市,甩湾子,,,,,,,,,,,,,,,,
2025-04-12T1000,1126A,125.3863,43.8447,长春市,经开区环卫处,细颗粒物(PM2.5),64,61,85,46,46,73,,80,80,22,21,6,8,0.5,0.5
2025-04-12T1000,1127A,125.245,43.7783,长春市,高新区管委会,细颗粒物(PM2.5),89,,73,66,53,80,,78,78,23,21,8,10,0.6,0.5
2025-04-12T1000,1128A,125.1761,43.8325,长春市,岱山公园,细颗粒物(PM2.5),73,,84,53,49,87,,70,70,27,34,5,7,0.5,0.5
2025-04-12T1000,1335A,113.0833,28.2325,长沙市,经开区环保局,颗粒物(PM10),136,222,52,29,25,75,,95,94,6,6,6,6,0.3,0.6
2025-04-12T1000,1336A,112.8872,28.2189,长沙市,高开区环保局,颗粒物(PM10),327,441,59,122,30,79,,96,93,4,4,4,4,0.4,0.8
2025-04-12T1000,1337A,113.0792,28.2053,长沙市,马坡岭,颗粒物(PM10),133,216,51,46,26,75,,92,91,9,7,4,3,0.3,0.5
2025-04-12T1000,1338A,112.9394,28.19,长沙市,湖南师范大学,颗粒物(PM10),146,241,52,75,27,73,,92,88,7,5,5,5,0.3,0.6
2025-04-12T1000,1339A,113.0178,28.1322,长沙市,雨花区环保局,颗粒物(PM10),124,198,50,57,27,70,,87,85,10,7,4,4,0.2,0.5
2025-04-12T1000,1340A,112.9792,28.2597,长沙市,伍家岭,颗粒物(PM10),130,209,53,58,23,70,,87,83,10,8,3,3,0.3,0.7
2025-04-12T1000,1341A,113.0014,28.1944,长沙市,火车新站,颗粒物(PM10),128,206,51,80,26,71,,90,87,7,6,7,7,0.4,0.6
2025-04-12T1000,1342A,112.9844,28.1178,长沙市,天心区环保局,颗粒物(PM10),105,159,48,44,28,74,,96,92,11,8,4,4,0.2,0.5
2025-04-12T1000,1343A,112.8908,28.1308,长沙市,湖南中医药大学,细颗粒物(PM2.5),217,275,56,167,39,77,,95,91,7,7,2,3,0.2,0.6
2025-04-12T1000,1344A,112.9581,28.3611,长沙市,沙坪,颗粒物(PM10),188,325,55,77,29,67,,70,68,5,7,5,6,0.4,0.7
2025-04-12T1000,1727A,113.1147,36.1547,长治市,清华站,颗粒物(PM10),148,246,318,31,62,78,,88,86,3,8,3,4,0.5,0.6
2025-04-12T1000,1730A,113.0886,36.2125,长治市,审计局,颗粒物(PM10),102,154,313,12,82,78,,88,85,6,11,5,6,0.1,0.2
2025-04-12T1000,1731A,113.0844,36.1856,长治市,长治八中,颗粒物(PM10),110,170,321,31,99,81,,91,89,5,10,6,8,0.4,0.4
2025-04-12T1000,2845A,113.1569,36.1911,长治市,德盛苑,颗粒物(PM10),116,182,337,14,63,77,,88,86,4,8,2,4,0.3,0.3
2025-04-12T1000,3568A,113.06,36.0464,长治市,向阳小学,颗粒物(PM10),114,178,330,24,73,86,,99,96,5,10,6,9,0.1,0.2
2025-04-12T1000,3569A,112.8792,36.3144,长治市,屯留一中,颗粒物(PM10),71,91,301,10,61,79,,88,86,9,14,6,7,0.3,0.3
2025-04-12T1000,4189A,113.1131,36.19948,长治市,英华南巷50号,颗粒物(PM10),104,158,328,19,74,80,,91,88,4,10,2,4,0.4,0.4
2025-04-12T1000,4190A,113.2367,36.3344,长治市,学府街1号,颗粒物(PM10),163,276,330,22,69,81,,91,87,4,10,1,5,0.3,0.4
2025-04-12T1000,1854A,111.6975,28.9703,常德市,市二中,颗粒物(PM10),500,680,78,145,38,65,,66,60,8,9,5,6,0.4,0.8
2025-04-12T1000,1857A,111.7158,29.1456,常德市,白鹤山,,,,,,,,,,,,,,,,
2025-04-12T1000,3138A,111.7153,29.0289,常德市,武陵区永安,颗粒物(PM10),500,774,86,155,32,78,,86,80,8,8,1,3,0.3,0.6
2025-04-12T1000,3139A,111.6892,28.9881,常德市,鼎城区玉霞,颗粒物(PM10),500,745,80,172,34,76,,72,66,7,7,3,5,0.4,0.8
2025-04-12T1000,3140A,111.6625,29.0531,常德市,武陵区长庚,颗粒物(PM10),500,758,76,120,29,77,,78,73,8,7,5,6,0.4,0.8
2025-04-12T1000,1196A,119.9633,31.762,常州市,市监测站,颗粒物(PM10),77,103,109,40,47,89,,62,59,18,46,9,12,0.8,1
2025-04-12T1000,1200A,119.9468,31.7069,常州市,武进监测站,颗粒物(PM10),85,120,105,34,37,85,,64,62,26,41,12,14,0.5,0.5
2025-04-12T1000,1201A,119.9255,31.9087,常州市,安家,颗粒物(PM10),88,125,130,48,54,58,,39,39,26,45,9,11,0.5,0.6
2025-04-12T1000,3002A,119.9805,31.8174,常州市,行政中心,颗粒物(PM10),69,87,96,34,42,87,,59,58,19,41,15,20,0.6,0.8
2025-04-12T1000,3003A,120.0522,31.7748,常州市,经开区,颗粒物(PM10),62,73,88,40,37,78,,58,53,25,48,8,12,0.7,0.9
2025-04-12T1000,3010A,119.9025,31.7964,常州市,钟楼,颗粒物(PM10),82,114,103,40,44,72,,66,61,26,40,7,10,1.1,1
2025-04-12T1000,3429A,119.8598,31.7066,常州市,武进经发区,颗粒物(PM10),64,77,86,40,36,83,,66,63,22,34,8,10,0.9,0.9
2025-04-12T1000,3430A,119.5826,31.7245,常州市,金坛城区,,37,37,71,25,34,77,,68,59,15,26,7,10,0.7,0.8
2025-04-12T1000,2220A,120.4318,41.5881,朝阳市,西梁,颗粒物(PM10),52,53,120,6,28,65,,84,79,12,12,12,13,0.4,0.5
2025-04-12T1000,2221A,120.4521,41.5646,朝阳市,河畔小区,颗粒物(PM10),51,52,109,12,27,69,,95,86,14,12,7,8,0.4,0.5
2025-04-12T1000,2222A,120.4176,41.5648,朝阳市,八里堡,颗粒物(PM10),52,53,118,15,31,65,,85,81,12,13,8,8,0.5,0.6
2025-04-12T1000,2223A,120.3806,41.5969,朝阳市,农业园区,颗粒物(PM10),52,54,135,12,38,67,,85,82,12,14,9,10,0.5,0.6
2025-04-12T1000,1705A,116.6367,23.6719,潮州市,西园路,,,,,,,,,,,,,,,,
2025-04-12T1000,3026A,116.6183,23.6608,潮州市,市政府,颗粒物(PM10),51,51,43,22,26,25,,27,25,21,18,5,4,1.1,0.9
2025-04-12T1000,4036A,116.6461,23.6761,潮州市,金山,颗粒物(PM10),58,65,42,24,31,17,,27,22,28,17,7,7,0.7,0.6
2025-04-12T1000,2472A,113.0073,25.9061,郴州市,马头岭,,22,14,33,10,16,69,,62,62,9,13,6,8,0.7,0.8
2025-04-12T1000,2473A,113.0116,25.8226,郴州市,市职中,,29,14,32,10,25,90,,77,77,5,7,2,4,0.4,0.5
2025-04-12T1000,2475A,113.0383,25.8071,郴州市,市审计局,,28,13,30,8,23,89,,79,79,6,7,2,2,0.4,0.5
2025-04-12T1000,2476A,113.0348,25.7759,郴州市,市环保局,,26,16,36,3,21,81,,72,72,6,6,3,4,0.4,0.5
2025-04-12T1000,4252A,113.0138,25.8011,郴州市,好美居路49号,,30,7,31,3,22,96,,81,81,5,7,3,3,0.6,0.7
2025-04-12T1000,1431A,103.9728,30.7236,成都市,金泉两河,颗粒物(PM10),86,121,70,42,30,53,,54,53,15,14,2,3,0.7,0.8
2025-04-12T1000,1432A,104.176,30.6872,成都市,十里店,颗粒物(PM10),126,202,125,73,43,60,,70,70,19,18,3,3,0.6,0.6
2025-04-12T1000,1433A,104.079,30.5706,成都市,三瓦窑,颗粒物(PM10),121,192,107,68,45,53,,64,59,28,23,4,4,0.5,0.5
2025-04-12T1000,1434A,104.1114,30.63,成都市,沙河铺,颗粒物(PM10),124,198,106,69,47,53,,55,55,17,17,6,6,0.6,0.7
2025-04-12T1000,1437A,104.0786,30.6531,成都市,君平街,,,120,93,59,46,,,73,73,24,20,6,7,0.6,0.7
2025-04-12T1000,1438A,103.613,31.0283,成都市,灵岩寺,,,,,,,,,,,,,,,,
2025-04-12T1000,2880A,104.0239,30.65639,成都市,大石西路,颗粒物(PM10),82,114,95,43,41,43,,59,58,30,18,4,4,0.5,0.5
2025-04-12T1000,3136A,104.2725,30.5589,成都市,龙泉驿区区政府,颗粒物(PM10),161,271,117,83,37,54,,58,56,16,19,3,4,0.5,0.5
2025-04-12T1000,3357A,104.0106,30.6931,成都市,金博路,颗粒物(PM10),81,111,78,46,31,51,,54,54,18,18,6,7,0.3,0.4
2025-04-12T1000,3359A,104.0578,30.5225,成都市,华阳,颗粒物(PM10),123,195,94,75,45,51,,62,59,28,23,5,6,0.7,0.7
2025-04-12T1000,3488A,104.3853,30.7453,成都市,青白江技师分院,颗粒物(PM10),173,295,142,94,48,53,,68,66,29,22,7,6,0.4,0.4
2025-04-12T1000,3489A,104.0789,30.4072,成都市,科学城,,,,85,,32,,,70,70,,16,,5,,0.4
2025-04-12T1000,4011A,103.8506,30.6947,成都市,光华大道三段,颗粒物(PM10),82,113,69,55,30,59,,64,63,20,15,1,2,0.6,0.6
2025-04-12T1000,4224A,104.2433,30.5353,成都市,鲸龙路1057号,颗粒物(PM10),166,281,112,78,38,55,,67,62,19,26,3,4,0.4,0.7
2025-04-12T1000,1062A,117.9531,40.9081,承德市,铁路,,39,39,149,3,39,78,,81,79,5,17,7,8,0.2,0.4
2025-04-12T1000,1063A,117.9392,40.9763,承德市,中国银行,,39,39,123,3,40,81,,85,82,1,10,2,4,0.1,0.4
2025-04-12T1000,1064A,117.9503,40.928,承德市,开发区,,48,48,126,15,37,71,,80,77,10,13,6,9,0.2,0.5
2025-04-12T1000,1065A,117.8051,40.9655,承德市,文化中心,,47,47,144,3,40,79,,82,79,4,11,4,6,0.2,0.4
2025-04-12T1000,1066A,117.9268,41.0026,承德市,离宫,,,,91,,52,,,61,,,14,,34,,0.5
2025-04-12T1000,2314A,117.47,30.6618,池州市,池州学院,颗粒物(PM10),500,620,71,164,32,86,,104,99,5,11,4,7,0.2,0.5
2025-04-12T1000,3237A,117.4918,30.6617,池州市,展览馆,颗粒物(PM10),500,669,77,165,32,88,,108,102,4,12,4,7,0.3,0.6
2025-04-12T1000,3333A,117.5627,30.695,池州市,第八中学,颗粒物(PM10),500,684,81,160,33,90,,103,97,4,18,4,8,0.2,0.5
2025-04-12T1000,3334A,117.5038,30.6243,池州市,第十二中学,颗粒物(PM10),495,595,69,144,32,89,,110,104,4,9,4,7,0.3,0.7
2025-04-12T1000,1744A,118.9233,42.2816,赤峰市,松山一中,,36,36,99,3,17,83,,87,81,11,14,8,9,0.3,0.4
2025-04-12T1000,1745A,118.9576,42.2728,赤峰市,哈达街,,25,25,99,3,25,73,,79,74,10,14,9,10,0.5,0.5
2025-04-12T1000,1746A,118.8788,42.2554,赤峰市,天义路,,,,76,,32,,,108,,,15,,7,,0.3
2025-04-12T1000,3058A,119.2658,42.0353,赤峰市,银河街,颗粒物(PM10),68,86,145,6,28,73,,82,77,6,11,12,16,0.3,0.5
2025-04-12T1000,3286A,118.9359,42.3147,赤峰市,桥北物流园区,,21,11,90,3,19,65,,71,66,11,10,7,7,0.5,0.5
2025-04-12T1000,2521A,107.3476,22.4136,崇左市,市环保局江州分局,细颗粒物(PM2.5),63,59,53,45,39,75,,75,72,10,8,8,6,0.7,0.8
2025-04-12T1000,4256A,107.3750,22.3736,崇左市,石景林东路7号,细颗粒物(PM2.5),55,50,46,39,38,84,,86,84,10,9,6,5,0.8,0.8
2025-04-12T1000,2298A,118.3093,32.3153,滁州市,老年大学,颗粒物(PM10),500,1351,127,266,55,61,,72,71,15,20,4,8,0.2,0.6
2025-04-12T1000,2299A,118.3244,32.2786,滁州市,人大宾馆,颗粒物(PM10),500,1889,151,148,52,66,,86,83,15,27,7,11,0.3,0.6
2025-04-12T1000,3207A,118.3118,32.3038,滁州市,市政府原办公楼,颗粒物(PM10),500,1593,134,275,60,65,,80,78,3,11,3,6,0.2,0.7
2025-04-12T1000,3331A,118.3267,32.2634,滁州市,图书馆,颗粒物(PM10),481,581,96,314,55,66,,86,82,6,16,6,10,0.3,0.7
2025-04-12T1000,2605A,101.5482,25.0441,楚雄彝族自治州,州环境监测站,细颗粒物(PM2.5),52,51,37,36,31,68,,70,63,24,13,9,8,0.6,0.6
2025-04-12T1000,2606A,101.538,25.0492,楚雄彝族自治州,市经济开发区,,48,41,40,33,29,69,,68,62,21,12,8,7,0.7,0.7
2025-04-12T1000,2548A,107.5277,31.2827,达州市,达州职业技术学院,颗粒物(PM10),500,997,483,244,97,67,,83,78,15,15,4,7,0.4,0.5
2025-04-12T1000,2549A,107.5086,31.2186,达州市,市环境监测站,颗粒物(PM10),500,1034,466,207,88,62,,91,84,31,21,3,5,0.4,0.5
2025-04-12T1000,2550A,107.4988,31.2132,达州市,凤凰小区,颗粒物(PM10),500,1091,496,207,88,82,,88,87,16,18,5,7,0.2,0.3
2025-04-12T1000,2551A,107.5082,31.1986,达州市,达县机关宾馆,颗粒物(PM10),500,1177,497,251,99,73,,84,79,17,19,3,5,0.3,0.3
2025-04-12T1000,2552A,107.4644,31.2124,达州市,市政中心,颗粒物(PM10),500,1022,425,197,81,86,,88,87,15,19,1,3,0.3,0.4
2025-04-12T1000,2614A,100.1542,25.7054,大理白族自治州,大理市环境监测站,,49,,35,34,31,78,,77,77,10,12,6,7,0.7,0.8
2025-04-12T1000,2615A,100.2171,25.5811,大理白族自治州,大理古城,,42,36,30,29,25,80,,75,75,9,11,7,7,0.8,0.8
2025-04-12T1000,1109A,121.612,38.9741,大连市,甘井子,颗粒物(PM10),51,51,45,13,22,80,,112,104,16,24,6,6,0.5,0.5
2025-04-12T1000,1110A,121.565,38.9511,大连市,周水子,颗粒物(PM10),73,95,80,14,25,64,,100,90,12,18,7,6,0.4,0.4
2025-04-12T1000,1111A,121.5637,38.8845,大连市,星海三站,,48,48,47,14,24,72,,110,102,5,11,6,7,0.3,0.4
2025-04-12T1000,1112A,121.6302,38.9117,大连市,青泥洼桥,,49,49,47,15,22,66,,111,99,18,16,9,9,0.6,0.5
2025-04-12T1000,1113A,121.6251,38.8638,大连市,傅家庄,颗粒物(PM10),51,51,49,15,23,71,,106,98,15,23,6,7,0.3,0.3
2025-04-12T1000,1114A,121.5213,38.8661,大连市,七贤岭,,43,43,52,13,24,72,,101,94,10,20,5,6,0.2,0.3
2025-04-12T1000,1115A,121.2529,38.8061,大连市,旅顺,,44,44,43,14,23,66,,94,83,14,20,7,7,0.5,0.5
2025-04-12T1000,1116A,121.7485,39.1311,大连市,金州,,,69,45,19,20,,,115,108,18,17,7,7,0.6,0.4
2025-04-12T1000,1117A,121.7811,39.0496,大连市,开发区,颗粒物(PM10),55,59,48,17,23,65,,90,84,15,26,8,9,0.5,0.5
2025-04-12T1000,1118A,121.9762,39.0631,大连市,双D港,,,,42,28,21,79,,105,98,10,10,9,8,0.4,0.3
2025-04-12T1000,1789A,124.81117,46.03138,大庆市,大同区,,39,30,128,27,51,26,,34,31,23,16,6,7,0.6,0.7
2025-04-12T1000,1790A,125.129,46.533,大庆市,龙凤区,,43,43,101,20,47,21,,43,28,27,22,6,8,0.5,0.6
2025-04-12T1000,1791A,124.902,46.408,大庆市,红岗区,,30,23,83,21,40,27,,34,32,18,16,7,9,0.5,0.6
2025-04-12T1000,1792A,125.153,46.586,大庆市,萨尔图区,颗粒物(PM10),51,51,114,19,56,25,,53,37,27,25,8,10,0.4,0.6
2025-04-12T1000,1793A,124.9042,46.6215,大庆市,让胡路区,,,,86,,50,20,,35,32,22,17,5,7,0.3,0.4
2025-04-12T1000,3481A,125.141,46.634,大庆市,萨区政府监测点,,30,30,120,14,43,27,,49,32,14,21,5,8,0.4,0.6
2025-04-12T1000,1721A,113.3819,40.1097,大同市,果树场,颗粒物(PM10),60,70,246,25,42,80,,80,80,3,7,8,7,0.3,0.3
2025-04-12T1000,1723A,113.2994,40.0758,大同市,云冈宾馆,,39,39,227,8,34,84,,88,87,5,7,8,7,0.1,0
2025-04-12T1000,1724A,113.3444,40.0917,大同市,大同大学,颗粒物(PM10),51,52,297,14,45,78,,85,83,1,3,9,10,0.3,0.3
2025-04-12T1000,1725A,113.2661,40.1269,大同市,安家小村,,45,45,324,15,42,40,,74,63,7,4,9,9,0.4,0.3
2025-04-12T1000,1726A,113.2711,40.0844,大同市,教育学院,,39,39,299,13,42,84,,87,86,5,7,8,7,0.4,0.3
2025-04-12T1000,3282A,113.3397,40.0597,大同市,大同市卫生学校,,,23,275,8,42,,,83,82,6,8,6,6,0.5,0.4
2025-04-12T1000,3565A,113.1367,40.1122,大同市,云冈站,,48,48,278,10,51,74,,79,77,7,5,9,9,0.3,0.3
2025-04-12T1000,3566A,113.1186,40.2556,大同市,图书馆,,49,37,269,34,52,68,,72,70,3,3,8,8,0.8,0.6
2025-04-12T1000,3567A,113.5931,40.0461,大同市,区一中,颗粒物(PM10),72,93,327,6,34,81,,84,84,3,6,12,12,0.3,0.3
2025-04-12T1000,4199A,113.2798,40.0997,大同市,魏都大道141号,颗粒物(PM10),59,68,302,15,45,84,,86,85,5,7,12,11,0.3,0.3
2025-04-12T1000,2269A,124.1069,50.4097,大兴安岭地区,科技局,,28,27,19,19,15,77,,79,78,4,4,3,2,0.2,0.2
2025-04-12T1000,3663A,124.1164,50.4278,大兴安岭地区,红旗社区,,24,,4,3,3,75,,78,78,3,2,4,4,0.3,0.2
2025-04-12T1000,1600A,124.3303,40.0625,丹东市,江湾东路,,42,41,45,25,30,134,,95,95,9,17,7,10,0.2,0.5
2025-04-12T1000,1601A,124.4256,40.1503,丹东市,临江后街,,43,43,68,23,32,131,,89,89,6,21,5,7,0.6,0.9
2025-04-12T1000,1602A,124.3933,40.1461,丹东市,元宝山,,40,40,39,21,27,126,,96,96,10,15,7,7,0.4,0.6
2025-04-12T1000,1603A,124.3633,40.1092,丹东市,民主桥,,45,45,43,26,24,128,,98,98,8,15,9,9,0.8,0.9
2025-04-12T1000,3541A,109.5726,19.5167,儋州市,第一中学子站,,,28,33,,26,54,,64,62,3,5,5,5,0.4,0.6
2025-04-12T1000,3542A,109.5567,19.5187,儋州市,东坡学校子站,,33,33,37,13,22,57,,68,67,3,5,5,5,0.4,0.5
2025-04-12T1000,2616A,98.5842,24.428,德宏傣族景颇族自治州,德宏州监测站,细颗粒物(PM2.5),72,75,60,52,46,6,,2,2,28,21,11,9,0.9,0.8
2025-04-12T1000,3677A,98.5881,24.4368,德宏傣族景颇族自治州,芒市人民政府综合楼,颗粒物(PM10),61,72,87,41,50,8,,8,6,26,17,8,7,0.9,0.8
2025-04-12T1000,1901A,104.4239,31.1208,德阳市,东山公园,颗粒物(PM10),88,126,76,44,30,70,,69,68,14,12,3,3,0.4,0.4
2025-04-12T1000,1902A,104.3826,31.1317,德阳市,西小区,颗粒物(PM10),88,126,73,44,30,69,,68,66,15,15,3,4,0.4,0.5
2025-04-12T1000,1904A,104.3553,31.1091,德阳市,耐火材料厂,颗粒物(PM10),86,121,67,30,28,70,,64,64,12,15,5,5,0.4,0.4
2025-04-12T1000,3639A,104.4019,31.1244,德阳市,市教育局,颗粒物(PM10),82,114,69,43,30,67,,64,63,17,16,4,5,0.5,0.6
2025-04-12T1000,1622A,116.3032,37.4674,德州市,儿童乐园,颗粒物(PM10),194,337,370,29,87,84,,82,82,6,13,4,7,0.2,0.5
2025-04-12T1000,1624A,116.2991,37.4451,德州市,监理站,颗粒物(PM10),172,293,506,85,74,80,,81,80,9,13,9,15,0.3,0.5
2025-04-12T1000,3066A,116.2721,37.4379,德州市,九衢泉纯净水厂,颗粒物(PM10),209,356,191,53,77,80,,82,80,11,19,22,13,0.4,0.7
2025-04-12T1000,3371A,116.3728,37.4403,德州市,开发区人民医院,颗粒物(PM10),113,175,462,31,68,79,,80,78,5,12,5,8,0.4,0.6
2025-04-12T1000,3372A,116.3572,37.4094,德州市,太阳城中学,颗粒物(PM10),175,300,476,44,74,80,,80,79,5,12,4,7,0.8,0.7
2025-04-12T1000,3511A,116.5652,37.3319,德州市,陵城艺术中心,颗粒物(PM10),122,193,298,22,61,,,81,78,8,16,3,5,0.5,0.6
2025-04-12T1000,2621A,99.7056,27.8317,迪庆藏族自治州,迪庆州站,,35,17,27,12,14,112,,112,110,10,9,9,8,0.5,0.5
2025-04-12T1000,3180A,99.7136,27.8094,迪庆藏族自治州,质量技术监督局,,34,19,23,8,10,108,,114,112,12,9,9,9,0.6,0.6
2025-04-12T1000,4257A,104.6092,35.5962,定西市,将台街,颗粒物(PM10),500,1232,1087,268,203,68,,82,74,14,9,4,5,0.4,0.4
2025-04-12T1000,4309A,104.6159,35.5701,定西市,正龙路62号,颗粒物(PM10),500,1269,1297,265,214,75,,87,81,8,5,8,8,0.2,0.2
2025-04-12T1000,1389A,113.7547,23.0494,东莞市,莞城梨川,,43,,22,30,16,16,,32,28,20,10,5,5,0.5,0.4
2025-04-12T1000,1390A,113.7944,23.0128,东莞市,东城石井,,38,32,22,15,13,121,,63,63,16,13,5,5,0.5,0.5
2025-04-12T1000,1391A,113.7383,22.9658,东莞市,南城西平,,34,34,20,17,11,28,,37,33,17,9,5,6,0.6,0.5
2025-04-12T1000,3319A,113.7338,23.0381,东莞市,万江金泰,,,27,20,20,12,,,17,13,17,5,5,5,0.9,0.8
2025-04-12T1000,3626A,113.7533,23.0202,东莞市,南城元岭,,33,29,20,23,12,15,,31,26,17,7,5,5,0.7,0.6
2025-04-12T1000,3627A,113.7875,23.0457,东莞市,东城主山,,33,33,27,18,12,19,,30,27,24,15,2,3,0.6,0.6
2025-04-12T1000,1666A,118.6614,37.4309,东营市,市环保局,颗粒物(PM10),76,102,148,19,55,87,,86,86,5,14,4,8,0.3,0.5
2025-04-12T1000,3036A,118.6904,37.4338,东营市,开发区管委会,颗粒物(PM10),103,155,300,22,57,64,,62,62,25,36,3,7,0.5,0.8
2025-04-12T1000,3365A,118.5719,37.565,东营市,垦利区民丰路,颗粒物(PM10),91,132,292,19,49,81,,80,80,6,23,4,11,1.0,1
2025-04-12T1000,3498A,118.5055,37.8612,东营市,河口城区,颗粒物(PM10),85,119,270,15,46,82,,83,83,11,20,4,7,0.7,0.9
2025-04-12T1000,3646A,118.4978,37.4623,东营市,胜利站,颗粒物(PM10),86,122,256,12,44,81,,84,82,12,22,6,10,0.5,0.8
2025-04-12T1000,3734A,118.35,37.26,东营市,理想之城,颗粒物(PM10),82,114,293,17,53,79,,79,79,7,20,5,8,0.3,0.6
2025-04-12T1000,1591A,110.0023,39.8129,鄂尔多斯市,综合楼,颗粒物(PM10),133,215,560,7,58,71,,73,71,8,7,5,4,0.1,0.1
2025-04-12T1000,1592A,109.9486,39.8261,鄂尔多斯市,巴音孟克林场办事处,颗粒物(PM10),97,144,510,24,53,73,,74,73,6,6,6,7,0.1,0.1
2025-04-12T1000,1593A,109.7736,39.5986,鄂尔多斯市,康泽苑,颗粒物(PM10),75,100,458,19,86,75,,72,72,3,4,4,4,0.2,0.2
2025-04-12T1000,1594A,109.8119,39.5989,鄂尔多斯市,华泰汽车城,颗粒物(PM10),85,119,445,12,84,74,,71,70,4,4,4,4,0.3,0.3
2025-04-12T1000,1595A,109.9734,39.7884,鄂尔多斯市,奥林花园,颗粒物(PM10),106,161,542,14,50,75,,75,74,6,8,6,5,0.3,0.3
2025-04-12T1000,2436A,114.8938,30.3994,鄂州市,市政府,颗粒物(PM10),500,929,149,129,40,91,,76,76,2,5,4,5,0.2,0.7
2025-04-12T1000,2437A,114.8989,30.3714,鄂州市,赵家坝,颗粒物(PM10),500,806,114,141,38,68,,58,58,7,7,3,4,0.4,0.8
2025-04-12T1000,3654A,114.8094,30.4089,鄂州市,精准医疗中心,颗粒物(PM10),500,964,142,144,39,97,,82,82,2,5,4,7,0.2,0.8
2025-04-12T1000,2454A,109.4978,30.2981,恩施土家族苗族自治州,湖北民院,颗粒物(PM10),60,70,29,37,15,52,,65,63,12,9,5,5,0.2,0.4
2025-04-12T1000,2455A,109.4707,30.2798,恩施土家族苗族自治州,州电力总公司,颗粒物(PM10),67,84,29,33,14,49,,60,58,7,10,4,4,0.3,0.4
2025-04-12T1000,3549A,109.5061,30.3772,恩施土家族苗族自治州,龙凤新区,颗粒物(PM10),68,85,24,27,10,39,,43,40,10,9,7,6,0.3,0.5
2025-04-12T1000,2499A,108.3411,21.6158,防城港市,沙万,,39,39,40,18,24,41,,56,49,13,16,1,2,0.4,0.5
2025-04-12T1000,2500A,108.3514,21.7731,防城港市,防城档案局,,38,38,36,19,26,54,,68,62,2,6,3,2,0.4,0.6
2025-04-12T1000,2501A,108.3506,21.6414,防城港市,大海花园,,36,36,36,13,19,59,,72,65,5,11,3,2,0.4,0.5
2025-04-12T1000,1371A,113.1294,23.0067,佛山市,湾梁,,29,29,27,15,14,32,,30,28,20,17,6,7,0.5,0.5
2025-04-12T1000,1372A,113.1083,23.0478,佛山市,华材职中,,29,29,29,16,17,29,,28,27,20,17,6,6,0.5,0.5
2025-04-12T1000,1373A,113.144,23.0453,佛山市,南海气象局,,36,36,34,16,17,23,,22,21,21,18,6,6,0.6,0.6
2025-04-12T1000,1374A,113.2881,22.8094,佛山市,顺德苏岗,,34,34,30,9,13,17,,26,22,20,12,5,5,0.6,0.6
2025-04-12T1000,1376A,112.8383,22.8678,佛山市,高明孔堂,,26,20,26,18,15,48,,42,42,6,7,5,5,0.6,0.6
2025-04-12T1000,1377A,112.8836,23.1588,佛山市,三水监测站,,45,31,31,31,25,22,,16,16,24,25,6,4,0.4,0.4
2025-04-12T1000,1378A,112.867,23.185,佛山市,三水云东海,,39,39,35,22,19,18,,16,16,27,25,4,3,0.6,0.6
2025-04-12T1000,3625A,113.2544,22.7642,佛山市,容桂街道办,,29,29,27,19,18,13,,22,19,25,18,5,6,0.7,0.6
2025-04-12T1000,1280A,119.3903,26.0543,福州市,鼓山,,,,28,,20,,,113,,,5,,2,,0.4
2025-04-12T1000,1282A,119.2681,26.0504,福州市,师大,,50,50,42,28,30,16,,41,30,30,16,3,4,0.6,0.6
2025-04-12T1000,1283A,119.2984,26.1028,福州市,五四北路,细颗粒物(PM2.5),58,46,41,41,34,10,,30,17,36,22,4,4,0.8,0.7
2025-04-12T1000,1284A,119.2648,26.0768,福州市,杨桥西路,细颗粒物(PM2.5),85,87,45,63,36,14,,37,26,36,20,4,4,0.8,0.6
2025-04-12T1000,1285A,119.317,26.0746,福州市,紫阳,细颗粒物(PM2.5),77,84,46,56,36,5,,34,21,46,29,5,5,0.9,0.6
2025-04-12T1000,3048A,119.5799,26.0936,福州市,九龙,,16,15,27,11,27,40,,37,32,10,11,3,4,0.4,0.4
2025-04-12T1000,3526A,119.5189,25.9664,福州市,吴航,,25,22,31,17,22,40,,46,43,9,11,3,4,0.5,0.7
2025-04-12T1000,1755A,123.7977,41.8491,抚顺市,望花区,,35,15,58,11,27,110,,118,117,22,20,22,17,0.5,0.5
2025-04-12T1000,1756A,123.9161,41.8822,抚顺市,顺城区,,37,12,53,7,20,118,,121,116,12,15,8,9,0.6,0.6
2025-04-12T1000,1757A,124.0436,41.8611,抚顺市,东洲区,,37,8,44,6,17,118,,128,123,8,11,6,8,0.5,0.5
2025-04-12T1000,1758A,123.9247,41.8642,抚顺市,新抚区,,35,24,53,3,18,109,,109,104,11,14,7,7,0.6,0.6
2025-04-12T1000,1759A,124.0972,41.8961,抚顺市,大伙房水库,,39,,33,6,16,124,,134,130,4,5,7,7,0.5,0.4
2025-04-12T1000,1760A,123.7086,41.8391,抚顺市,沈抚新城,,37,24,54,3,18,116,,113,113,12,16,7,7,0.6,0.6
2025-04-12T1000,2376A,116.2127,28.0814,抚州市,桐源党溪,,33,33,38,11,20,79,,77,77,2,3,5,6,0.6,0.6
2025-04-12T1000,2377A,116.3544,27.9831,抚州市,市站,,23,23,34,11,19,69,,65,65,4,4,3,8,0.9,1.1
2025-04-12T1000,2378A,116.3565,27.963,抚州市,血防站,,29,29,36,11,19,72,,67,67,4,2,5,7,1.1,1.4
2025-04-12T1000,2379A,116.3564,28.0007,抚州市,采茶剧团,,22,19,36,11,20,70,,64,64,2,2,3,2,1.4,1.4
2025-04-12T1000,2380A,116.385,27.9647,抚州市,医学分院,,21,21,34,12,17,66,,61,61,6,5,3,4,0.9,1.1
2025-04-12T1000,2207A,121.6094,41.998,阜新市,工业园区,,,129,109,,28,89,,90,87,9,12,7,10,0.2,0.4
2025-04-12T1000,2208A,121.6697,42.0279,阜新市,长青街,颗粒物(PM10),72,93,90,21,26,91,,90,88,7,12,4,8,0.4,0.6
2025-04-12T1000,2209A,121.6673,42.0705,阜新市,农业园区,颗粒物(PM10),95,139,89,29,30,91,,92,89,4,9,6,9,0.4,0.6
2025-04-12T1000,2210A,121.6717,42.0224,阜新市,东苑,颗粒物(PM10),95,140,101,17,27,91,,90,87,9,15,6,10,0.4,0.6
2025-04-12T1000,2211A,121.6506,42.0498,阜新市,玉龙新城,颗粒物(PM10),90,130,86,19,24,91,,87,86,6,11,7,10,0.4,0.6
2025-04-12T1000,2301A,115.8277,32.8929,阜阳市,市监测站,颗粒物(PM10),223,366,240,62,58,96,,82,82,,15,6,8,0.0,0.3
2025-04-12T1000,2303A,115.8554,32.8605,阜阳市,开发区,颗粒物(PM10),425,525,343,55,42,98,,84,84,8,17,4,5,0.4,0.4
2025-04-12T1000,2875A,115.784,32.8892,阜阳市,阜阳职业技术学院,颗粒物(PM10),302,421,317,52,47,85,,75,75,4,13,6,7,0.1,0.4
2025-04-12T1000,3468A,115.7901,32.8613,阜阳市,市规划展馆,颗粒物(PM10),293,415,252,53,44,102,,88,88,2,9,5,7,0.2,0.5
2025-04-12T1000,3469A,115.836,32.9183,阜阳市,枣园社区,颗粒物(PM10),285,409,250,71,48,100,,85,85,10,17,5,7,0.2,0.5
2025-04-12T1000,2669A,102.9099,34.9841,甘南藏族自治州,州政府,颗粒物(PM10),78,106,88,42,27,42,,48,42,34,10,10,7,0.5,0.3
2025-04-12T1000,3380A,102.8914,34.9617,甘南藏族自治州,甘肃民族师范学院,颗粒物(PM10),81,112,98,32,28,38,,30,28,34,17,9,8,0.6,0.5
2025-04-12T1000,2570A,101.9603,30.0475,甘孜藏族自治州,水桥子,,28,,13,3,8,87,,90,90,7,6,4,4,0,0.1
2025-04-12T1000,3065A,101.9533,29.9972,甘孜藏族自治州,州环保局,,25,,15,6,7,80,,96,89,17,8,1,2,0.1,0.2
2025-04-12T1000,3414A,115.8347,28.932,赣江新区,桑海产业园,颗粒物(PM10),343,454,56,,71,64,,77,73,8,13,2,6,0.2,0.5
2025-04-12T1000,2362A,114.9017,25.9149,赣州市,通天岩,,29,26,35,3,7,92,,64,64,2,3,11,16,1.1,1.1
2025-04-12T1000,2363A,114.9367,25.8664,赣州市,地委,,30,30,37,14,24,53,,41,39,8,9,1,1,1.3,1.2
2025-04-12T1000,2364A,114.9461,25.8481,赣州市,气象台,,26,26,37,12,20,63,,53,51,14,11,8,9,0.9,0.7
2025-04-12T1000,2365A,114.9322,25.8333,赣州市,市图书馆,,21,,32,12,21,66,,52,52,9,9,3,5,0.9,0.8
2025-04-12T1000,2366A,114.8905,25.8471,赣州市,华坚鞋城,,20,19,36,10,20,62,,52,52,14,11,8,11,0.5,0.5
2025-04-12T1000,3109A,115.0093,25.8613,赣州市,赣县区卫计委,,20,6,31,3,20,64,,54,54,7,5,4,5,0.5,0.3
2025-04-12T1000,2683A,106.2319,36.1417,固原市,马园,颗粒物(PM10),493,593,1739,154,312,66,,70,65,11,6,5,5,0.8,0.6
2025-04-12T1000,2684A,106.2792,36.0022,固原市,监测站,颗粒物(PM10),500,648,1613,135,283,79,,79,76,5,4,3,4,0.5,0.4
2025-04-12T1000,2685A,106.2375,36.0211,固原市,新区,颗粒物(PM10),500,632,1454,144,259,75,,76,73,6,5,5,5,0.6,0.4
2025-04-12T1000,3522A,106.2177,35.9959,固原市,原州区十五小,颗粒物(PM10),500,600,1098,149,285,81,,87,81,8,5,5,6,0.3,0.2
2025-04-12T1000,2543A,106.6308,30.5278,广安市,小平旧居,,,,,,,,,,,,,,,,
2025-04-12T1000,2544A,106.6303,30.4576,广安市,市委,颗粒物(PM10),500,1361,292,274,64,77,,86,83,11,9,4,5,0.3,0.3
2025-04-12T1000,2545A,106.6271,30.4663,广安市,友谊中学,颗粒物(PM10),500,1071,239,253,61,72,,83,79,15,11,2,2,0.1,0.2
2025-04-12T1000,2547A,106.6388,30.4551,广安市,广电花园,颗粒物(PM10),500,1236,255,255,58,55,,81,72,28,14,1,3,0.3,0.4
2025-04-12T1000,2902A,106.6351,30.4865,广安市,北辰小学,颗粒物(PM10),500,1312,314,249,61,,,84,81,14,9,5,8,0.2,0.3
2025-04-12T1000,2523A,105.8945,32.4535,广元市,黑石坡,颗粒物(PM10),500,1748,913,364,154,81,,84,84,2,5,1,1,0.2,0.2
2025-04-12T1000,2524A,105.821,32.4444,广元市,老城,颗粒物(PM10),500,1757,851,393,167,78,,90,86,8,5,3,2,0.3,0.2
2025-04-12T1000,2526A,105.8628,32.4287,广元市,监测站,颗粒物(PM10),500,1728,846,398,190,85,,92,91,5,4,5,6,0.2,0.3
2025-04-12T1000,3617A,105.8047,32.4166,广元市,经开区,颗粒物(PM10),500,2056,902,464,188,67,,80,77,35,13,2,3,0.2,0.3
2025-04-12T1000,1345A,113.2347,23.1423,广州市,广雅中学,,30,30,32,15,15,19,,15,15,23,24,3,3,0.5,0.6
2025-04-12T1000,1346A,113.2612,23.105,广州市,市五中,,25,23,27,17,15,28,,25,25,20,23,1,1,0.6,0.6
2025-04-12T1000,1348A,113.3478,23.0916,广州市,广东商学院,,26,26,29,15,15,17,,11,11,26,30,4,4,0.5,0.5
2025-04-12T1000,1349A,113.4332,23.1047,广州市,市八十六中,,30,30,29,14,11,5,,8,6,34,38,3,3,0.8,0.7
2025-04-12T1000,1350A,113.3505,22.9483,广州市,番禺中学,,32,32,31,20,14,15,,15,15,25,24,4,4,0.6,0.5
2025-04-12T1000,1351A,113.2146,23.3916,广州市,花都师范,,36,36,40,16,18,14,,8,8,28,30,2,3,0.6,0.6
2025-04-12T1000,1352A,113.2597,23.1331,广州市,市监测站,,27,27,32,16,16,20,,12,12,23,28,4,4,0.5,0.4
2025-04-12T1000,1353A,113.5618,23.312,广州市,九龙镇镇龙,,,25,33,17,17,5,,18,15,32,25,,5,0.5,0.5
2025-04-12T1000,1354A,113.2765,23.1544,广州市,麓湖,,28,28,31,13,14,17,,12,12,21,26,3,3,0.5,0.5
2025-04-12T1000,1355A,113.443,23.3035,广州市,帽峰山森林公园,,18,,26,12,11,24,,19,19,21,23,1,3,0.5,0.6
2025-04-12T1000,2846A,113.3221,23.1322,广州市,体育西,,41,41,38,15,14,6,,5,5,25,28,4,4,0.6,0.6
2025-04-12T1000,3298A,113.5717,23.5491,广州市,从化街口,,26,26,31,16,18,24,,24,23,16,16,8,8,0.7,0.7
2025-04-12T1000,3299A,113.3472,23.3692,广州市,白云竹料,,35,35,36,17,17,27,,24,24,22,24,6,6,0.5,0.5
2025-04-12T1000,3300A,113.2981,23.237,广州市,白云嘉禾,,27,27,33,17,18,16,,5,5,28,36,4,4,0.8,0.7
2025-04-12T1000,3301A,113.4256,23.1716,广州市,黄埔科学城,,34,34,34,18,16,6,,8,8,26,29,6,7,0.3,0.2
2025-04-12T1000,3302A,113.3942,23.0483,广州市,番禺大学城,,,,34,,14,,,39,,,28,,8,,0.4
2025-04-12T1000,3303A,113.4922,22.8168,广州市,南沙黄阁,,29,21,27,20,14,20,,27,24,17,16,4,4,0.8,0.7
2025-04-12T1000,3304A,113.5342,22.7896,广州市,南沙街,,24,24,30,15,15,15,,25,22,19,17,4,4,0.6,0.6
2025-04-12T1000,3443A,113.2902,23.5544,广州市,花都梯面,,37,37,35,18,17,6,,15,13,32,25,4,4,0.8,0.8
2025-04-12T1000,3445A,113.7858,23.7478,广州市,从化良口,,16,12,23,11,19,42,,38,36,7,10,6,6,0.5,0.5
2025-04-12T1000,3446A,113.8051,23.2614,广州市,增城荔城,,30,30,35,20,20,13,,8,6,20,20,6,6,0.2,0.2
2025-04-12T1000,2505A,109.568,23.1478,贵港市,德智高中,,,,,,,,,,,,,,,,
2025-04-12T1000,2506A,109.6047,23.0666,贵港市,江南子站,,48,48,46,26,32,68,,71,68,9,11,3,3,0.7,0.7
2025-04-12T1000,2508A,109.5669,23.1065,贵港市,荷城子站,,45,45,52,24,28,60,,62,61,13,15,5,4,0.3,0.4
2025-04-12T1000,3405A,109.5886,23.1172,贵港市,新世纪学校,,44,44,47,30,35,68,,70,69,16,18,8,9,0.8,0.9
2025-04-12T1000,4260A,109.5933,23.0951,贵港市,中山路155-3号,,48,48,53,29,35,64,,67,65,11,13,6,6,0.9,0.9
2025-04-12T1000,1439A,106.6899,26.5998,贵阳市,马鞍山,,21,7,46,3,22,65,,71,71,8,10,4,4,0.2,0.5
2025-04-12T1000,1441A,106.6243,26.6266,贵阳市,鉴湖路,,23,17,57,3,26,73,,84,82,6,8,10,11,0.3,0.5
2025-04-12T1000,1442A,106.7487,26.6343,贵阳市,燕子冲,,22,9,50,9,35,68,,75,74,10,12,1,4,0.0,0.4
2025-04-12T1000,1443A,106.6555,26.4365,贵阳市,碧云窝,,23,17,57,3,26,72,,98,91,11,11,4,5,0.2,0.4
2025-04-12T1000,1445A,106.7109,26.6027,贵阳市,红边门,,23,7,55,3,34,71,,90,86,10,17,2,5,0.0,0.4
2025-04-12T1000,1446A,106.7164,26.5699,贵阳市,新华路,,22,9,52,3,33,68,,86,84,10,12,1,22,0.1,0.5
2025-04-12T1000,1447A,106.674,26.5424,贵阳市,太慈桥,,22,7,47,3,26,69,,79,79,11,14,4,5,0.3,0.4
2025-04-12T1000,1552A,106.805,26.3003,贵阳市,桐木岭,,30,24,65,14,39,93,,101,94,1,4,1,3,0.5,0.9
2025-04-12T1000,4230A,106.6882,26.5695,贵阳市,花果园大街66号,,20,6,37,3,32,62,,83,79,9,14,3,6,0.1,0.3
2025-04-12T1000,4231A,106.6873,26.5169,贵阳市,漓江路57号,,22,6,46,3,31,69,,82,82,10,11,8,9,0.3,0.5
2025-04-12T1000,1862A,110.4144,25.3167,桂林市,电子科大尧山校区,,,,,,,,,,,,,,,,
2025-04-12T1000,1864A,110.3089,25.2708,桂林市,龙隐路小学,,33,33,52,16,34,103,,92,92,3,10,7,8,0.9,0.9
2025-04-12T1000,1865A,110.2869,25.2178,桂林市,八中,,30,24,55,21,38,94,,93,93,10,17,8,8,0.5,0.7
2025-04-12T1000,3531A,110.296,25.1253,桂林市,旅游学院,,28,27,40,19,30,80,,71,71,9,14,7,8,0.4,0.5
2025-04-12T1000,4222A,110.1835,25.2444,桂林市,环湖路276号,,41,41,50,22,35,74,,76,75,15,13,5,6,0.4,0.5
2025-04-12T1000,4301A,110.2803,25.2773,桂林市,信义路13号,,31,28,52,11,35,98,,90,90,7,13,7,7,0.4,0.7
2025-04-12T1000,2674A,100.2561,34.4714,果洛藏族自治州,玛沁县大武镇,,35,34,50,12,20,109,,105,101,1,2,13,14,0.4,0.3
2025-04-12T1000,1129A,126.5422,45.755,哈尔滨市,岭北,,34,34,103,22,71,104,,97,97,19,26,16,20,1.0,1.2
2025-04-12T1000,1130A,126.561,45.8167,哈尔滨市,松北商大,,40,40,123,17,56,103,,95,95,14,19,10,12,0.7,0.9
2025-04-12T1000,1131A,126.979,45.5419,哈尔滨市,阿城会宁,,46,46,136,23,86,107,,97,97,13,21,5,11,0.4,0.7
2025-04-12T1000,1132A,126.599,45.7222,哈尔滨市,南岗学府路,颗粒物(PM10),58,66,148,24,72,91,,82,82,22,24,9,11,0.8,1
2025-04-12T1000,1133A,126.689,45.7733,哈尔滨市,太平宏伟公园,颗粒物(PM10),56,62,141,29,63,93,,87,87,13,14,7,9,0.6,0.8
2025-04-12T1000,1134A,126.635,45.7667,哈尔滨市,道外承德广场,颗粒物(PM10),52,54,139,31,84,87,,82,82,30,27,17,13,0.4,0.7
2025-04-12T1000,1135A,126.685,45.7319,哈尔滨市,香坊红旗大街,颗粒物(PM10),58,66,150,25,81,85,,84,83,30,30,17,16,0.5,0.7
2025-04-12T1000,1136A,126.6411,45.7258,哈尔滨市,动力和平路,颗粒物(PM10),70,89,163,24,65,86,,81,81,22,25,13,14,0.6,0.8
2025-04-12T1000,1137A,126.593,45.7478,哈尔滨市,道里建国路,,,55,131,26,64,86,,81,81,28,28,,18,0.8,1
2025-04-12T1000,1138A,126.615,45.61,哈尔滨市,平房东轻厂,颗粒物(PM10),51,51,143,34,73,99,,87,87,14,17,10,12,0.5,0.7
2025-04-12T1000,1139A,126.595,45.9855,哈尔滨市,呼兰师专,,43,43,134,21,67,88,,75,75,20,23,7,10,0.5,0.8
2025-04-12T1000,1140A,126.6206,45.6842,哈尔滨市,省农科院,颗粒物(PM10),58,66,165,37,76,88,,73,73,28,33,11,13,0.6,0.8
2025-04-12T1000,2688A,93.5128,42.8172,哈密市,地区监测站,颗粒物(PM10),61,71,69,26,18,56,,64,64,28,18,7,5,0.4,0.3
2025-04-12T1000,2689A,93.4961,42.8328,哈密市,哈密师范学校,颗粒物(PM10),64,78,58,13,16,50,,63,62,46,24,5,4,0.6,0.6
2025-04-12T1000,2671A,100.9048,36.9639,海北藏族自治州,海晏县西海镇,,32,11,24,9,14,100,,94,94,1,2,7,7,0.4,0.4
2025-04-12T1000,3867A,102.0738,36.5056,海东市,平安区公安北苑,,36,36,56,16,27,57,,44,44,23,11,10,6,0.7,0.5
2025-04-12T1000,1409A,110.576,19.9507,海口市,东寨港,,37,37,23,8,16,33,,23,23,3,4,4,6,0.4,0.4
2025-04-12T1000,1410A,110.3232,20.0574,海口市,海南大学,,,,28,,18,,,60,,,9,,2,,0.4
2025-04-12T1000,1411A,110.283,20.0053,海口市,秀英海南医院,,32,32,33,14,20,42,,37,37,8,13,4,4,0.3,0.3
2025-04-12T1000,1412A,110.338,19.9969,海口市,海南师范大学,,25,25,28,14,16,42,,34,34,3,5,3,3,0.4,0.4
2025-04-12T1000,1413A,110.33,20.0356,海口市,龙华路环保局宿舍,,26,26,29,14,16,43,,42,41,4,6,4,4,0.3,0.4
2025-04-12T1000,3539A,110.5111,19.9736,海口市,桂林洋子站,,25,25,24,14,15,41,,35,34,5,6,4,4,0.2,0.3
2025-04-12T1000,2673A,100.6188,36.2866,海南藏族自治州,共和县恰卜恰镇,,34,34,46,19,10,84,,108,98,11,3,12,12,0.5,0.4
2025-04-12T1000,2676A,97.3731,37.3753,海西蒙古族藏族自治州,德令哈市,,31,22,36,7,14,99,,108,104,1,2,6,9,0.3,0.4
2025-04-12T1000,1048A,114.5302,36.6116,邯郸市,东污水处理厂,颗粒物(PM10),92,133,329,36,83,80,,86,85,6,18,3,5,0.1,0.5
2025-04-12T1000,1049A,114.4918,36.5713,邯郸市,矿院,颗粒物(PM10),101,152,297,27,79,,,70,70,2,8,4,6,0.3,0.6
2025-04-12T1000,1050A,114.484,36.6133,邯郸市,丛台公园,颗粒物(PM10),98,145,355,40,79,80,,85,84,6,15,3,10,0.2,0.5
2025-04-12T1000,3458A,114.7895,36.5593,邯郸市,香泉濮院小区,颗粒物(PM10),174,298,466,30,83,73,,,,3,11,3,5,0.3,0.4
2025-04-12T1000,3579A,114.50634,36.77178,邯郸市,永年区实验高中,颗粒物(PM10),123,196,382,25,76,76,,82,81,2,12,3,8,0.4,0.7
2025-04-12T1000,3580A,114.20016,36.44293,邯郸市,峰峰矿区临水派出所,颗粒物(PM10),121,192,350,91,79,82,,90,87,3,12,1,8,0.6,1
2025-04-12T1000,2634A,106.9893,33.1842,汉中市,汉川机床厂子校,颗粒物(PM10),500,1150,1093,275,254,99,,100,100,3,7,6,7,0.9,0.7
2025-04-12T1000,2635A,107.0154,33.0706,汉中市,市监测站,颗粒物(PM10),500,1139,658,295,187,85,,90,89,5,11,5,6,0.5,0.7
2025-04-12T1000,2636A,107.0089,33.1138,汉中市,鑫源开发区,颗粒物(PM10),500,1075,1017,304,193,89,,93,93,4,9,4,6,0.3,0.5
2025-04-12T1000,2637A,107.007,33.0323,汉中市,南郑大河坎水厂,颗粒物(PM10),500,1054,862,325,231,93,,100,99,7,11,3,6,0.4,0.6
2025-04-12T1000,1223A,120.2072,30.2111,杭州市,滨江,,23,23,49,12,22,68,,69,60,20,25,6,7,0.7,0.6
2025-04-12T1000,1224A,120.0633,30.2747,杭州市,西溪,,18,16,47,11,27,56,,59,58,18,23,5,6,0.6,0.6
2025-04-12T1000,1226A,120.3417,30.3150,杭州市,下沙,,24,24,48,13,23,73,,56,56,23,36,5,7,0.5,0.5
2025-04-12T1000,1227A,120.1269,30.2456,杭州市,卧龙桥,,19,13,43,7,25,58,,61,60,18,27,5,6,0.5,0.5
2025-04-12T1000,1228A,120.1903,30.2692,杭州市,浙江农大,,20,19,42,13,22,64,,60,54,24,29,1,3,0.5,0.5
2025-04-12T1000,1230A,120.1197,30.3119,杭州市,和睦小学,,23,,42,16,27,71,,66,64,18,26,6,7,0.7,0.7
2025-04-12T1000,1231A,120.3019,30.4183,杭州市,临平镇,,39,38,56,27,28,70,,62,62,26,28,5,6,0.6,0.6
2025-04-12T1000,1232A,120.2753,30.1839,杭州市,城厢镇,,27,27,53,18,26,70,,72,67,21,27,6,8,0.7,0.7
2025-04-12T1000,1233A,120.0883,30.1808,杭州市,云栖,,21,14,47,8,22,66,,59,58,16,35,9,10,0.6,0.6
2025-04-12T1000,3557A,119.9464,30.0494,杭州市,镇二中,,22,19,48,15,28,55,,69,61,25,26,1,2,0.6,0.6
2025-04-12T1000,3558A,119.7183,30.2367,杭州市,市府大楼,,,20,54,15,29,,,72,70,15,19,7,8,0.8,0.7
2025-04-12T1000,3656A,120.1556,30.2864,杭州市,消防大队,,24,19,46,10,23,75,,67,65,18,30,4,4,0.7,0.7
2025-04-12T1000,1270A,117.1959,31.7848,合肥市,明珠广场,细颗粒物(PM2.5),192,,37,144,41,93,,102,100,9,15,1,2,0.1,0.5
2025-04-12T1000,1271A,117.3072,31.8764,合肥市,三里街,细颗粒物(PM2.5),188,,73,141,37,77,,93,90,11,14,4,4,0.3,0.4
2025-04-12T1000,1272A,117.2588,31.8707,合肥市,琥珀山庄,细颗粒物(PM2.5),107,,76,80,35,,,95,93,6,14,2,3,0.3,0.6
2025-04-12T1000,1273A,117.1604,31.9052,合肥市,董铺水库,颗粒物(PM10),500,1346,151,196,36,72,,108,99,45,5,,2,0.1,0.4
2025-04-12T1000,1274A,117.25,31.8571,合肥市,长江中路,细颗粒物(PM2.5),201,,81,151,41,86,,99,95,8,13,6,6,0.3,0.6
2025-04-12T1000,1275A,117.266,31.9436,合肥市,庐阳区,细颗粒物(PM2.5),192,,73,144,36,85,,99,95,6,12,4,6,0.2,0.5
2025-04-12T1000,1276A,117.3453,31.8616,合肥市,瑶海区,细颗粒物(PM2.5),185,,75,139,37,81,,98,92,8,17,5,6,0.3,0.7
2025-04-12T1000,1277A,117.3027,31.7964,合肥市,包河区,细颗粒物(PM2.5),213,,74,163,42,78,,92,89,11,24,6,6,0.2,0.5
2025-04-12T1000,1278A,117.2776,31.7385,合肥市,滨湖新区,细颗粒物(PM2.5),235,,38,185,46,83,,96,92,10,14,4,6,0.3,0.6
2025-04-12T1000,1279A,117.1318,31.8403,合肥市,高新区,细颗粒物(PM2.5),201,,38,151,40,85,,100,96,6,12,1,2,0.3,0.6
2025-04-12T1000,3464A,117.3803,31.9147,合肥市,高教基地,细颗粒物(PM2.5),200,,56,150,35,87,,94,93,8,11,4,5,0.1,0.4
2025-04-12T1000,3614A,79.924,37.0877,和田地区,地区环保局,颗粒物(PM10),248,383,1163,128,288,72,,70,70,7,7,2,2,0.6,0.6
2025-04-12T1000,3615A,79.9131,37.113,和田地区,市环保局,颗粒物(PM10),353,462,1106,114,287,73,,74,74,3,3,3,2,0.6,0.6
2025-04-12T1000,2516A,108.2011,24.715,河池市,东仁乐园,颗粒物(PM10),58,65,59,36,40,66,,59,52,13,12,9,9,1.5,1.3
2025-04-12T1000,2517A,108.0497,24.6947,河池市,市环保站,,49,48,51,34,34,56,,56,50,13,10,5,6,0.8,0.7
2025-04-12T1000,2518A,108.0983,24.6989,河池市,市疾控中心,细颗粒物(PM2.5),53,49,50,37,35,62,,56,50,20,17,7,7,0.9,0.8
2025-04-12T1000,1696A,114.6778,23.7569,河源市,源西,,33,29,25,23,25,26,,26,25,13,13,3,3,0.4,0.5
2025-04-12T1000,1697A,114.6944,23.7586,河源市,东埔,,43,31,26,30,31,20,,23,21,18,16,3,4,0.5,0.6
2025-04-12T1000,1698A,114.6892,23.7233,河源市,老城,,45,,31,31,24,16,,21,19,19,14,4,4,0.5,0.5
2025-04-12T1000,1718A,115.4208,35.2464,菏泽市,气象局,颗粒物(PM10),384,487,203,58,93,66,,81,81,20,15,3,4,0.3,0.4
2025-04-12T1000,3374A,115.5564,35.0891,菏泽市,定陶老年大学,颗粒物(PM10),181,312,205,58,85,78,,89,89,11,15,3,4,0.2,0.5
2025-04-12T1000,4184A,115.4797,35.24401,菏泽市,永昌路1号,颗粒物(PM10),273,401,187,84,93,69,,77,77,10,12,3,5,0.3,0.4
2025-04-12T1000,4193A,115.4715,35.2800,菏泽市,长城路999号,颗粒物(PM10),269,398,373,56,74,78,,88,88,11,17,,14,0.1,0.3
2025-04-12T1000,2514A,111.5264,24.4172,贺州市,环保小区,颗粒物(PM10),72,93,51,33,33,43,,36,35,34,19,10,8,0.7,0.7
2025-04-12T1000,2515A,111.5608,24.4078,贺州市,政协大楼,,,,57,37,30,,,37,36,22,17,14,10,0.5,0.6
2025-04-12T1000,3534A,111.4744,24.4553,贺州市,西湾,,46,44,52,32,33,63,,29,29,15,22,8,7,0.8,0.7
2025-04-12T1000,2385A,114.17,35.9019,鹤壁市,市监测站,颗粒物(PM10),198,345,388,72,96,84,,90,90,5,15,1,6,0.6,0.8
2025-04-12T1000,2386A,114.2956,35.7511,鹤壁市,市交警支队,颗粒物(PM10),349,459,459,48,85,84,,90,89,10,23,5,8,0.2,0.5
2025-04-12T1000,2387A,114.2878,35.7306,鹤壁市,迎宾馆,颗粒物(PM10),373,478,531,37,71,88,,93,92,15,23,3,5,0.3,0.6
2025-04-12T1000,3474A,114.2617,35.6822,鹤壁市,大新区,颗粒物(PM10),423,523,467,62,105,85,,90,89,4,22,4,8,0.2,0.6
2025-04-12T1000,3596A,114.1572,35.9603,鹤壁市,南山宾馆,颗粒物(PM10),220,364,437,63,88,,,94,94,3,14,1,6,0.1,0.3
2025-04-12T1000,2244A,130.2537,47.3416,鹤岗市,哈啤分公司,细颗粒物(PM2.5),60,60,39,43,27,68,,45,45,15,13,17,15,0.4,0.3
2025-04-12T1000,2245A,130.2684,47.3086,鹤岗市,斯达机电,细颗粒物(PM2.5),63,58,40,45,29,69,,46,46,16,12,15,13,0.5,0.4
2025-04-12T1000,2246A,130.3114,47.3388,鹤岗市,东山纸板厂,细颗粒物(PM2.5),69,63,51,50,35,63,,41,41,14,13,15,13,0.3,0.3
2025-04-12T1000,2247A,130.1097,47.3382,鹤岗市,五号水库,,,,,,,,,,,,,,,,
2025-04-12T1000,2263A,127.4833,50.2524,黑河市,交通局,,23,,22,16,15,67,,68,67,6,7,7,8,0.6,0.5
2025-04-12T1000,2264A,127.5144,50.2341,黑河市,环保局,,21,,20,11,14,66,,67,66,10,8,3,4,0.3,0.2
2025-04-12T1000,2265A,127.5291,50.2472,黑河市,大黑河岛,,,,,,,,,,,,,,,,
2025-04-12T1000,1074A,115.6838,37.7541,衡水市,电机北厂,颗粒物(PM10),142,234,414,22,92,82,,83,80,5,10,3,7,0.2,0.3
2025-04-12T1000,1075A,115.6303,37.7316,衡水市,市监测站,,,,179,,64,,,108,,,16,,7,,0.5
2025-04-12T1000,3188A,115.6683,37.7217,衡水市,市城管局,颗粒物(PM10),121,192,417,28,85,79,,81,77,7,12,3,6,0.3,0.4
2025-04-12T1000,3459A,115.5989,37.5491,衡水市,地表水厂,颗粒物(PM10),80,109,454,17,83,82,,83,80,6,10,5,9,0.2,0.3
2025-04-12T1000,2456A,112.5003,26.9167,衡阳市,原169医院,,38,38,42,26,30,82,,96,96,5,8,30,23,0.5,0.6
2025-04-12T1000,2457A,112.6194,26.9258,衡阳市,衡阳化工总厂,颗粒物(PM10),80,110,47,24,27,57,,82,82,8,6,6,8,0.5,0.7
2025-04-12T1000,2458A,112.6211,26.8956,衡阳市,珠晖区环保局,颗粒物(PM10),53,56,42,18,18,73,,85,85,3,3,7,8,0.5,0.7
2025-04-12T1000,2459A,112.6197,26.8733,衡阳市,市委党校,,,,60,,,,,83,,,7,,2,,0.6
2025-04-12T1000,2460A,112.6006,26.8919,衡阳市,市监测站,,47,47,45,22,28,74,,88,88,9,8,7,8,0.5,0.7
2025-04-12T1000,2461A,112.5664,26.9056,衡阳市,真空机电公司,,50,50,44,19,30,77,,92,92,3,5,6,8,0.4,0.7
2025-04-12T1000,3399A,112.6703,26.882,衡阳市,师范学院,颗粒物(PM10),74,97,56,12,31,90,,92,92,6,7,8,9,0.4,0.7
2025-04-12T1000,2608A,103.3772,23.3993,红河哈尼族彝族自治州,污水处理厂,颗粒物(PM10),58,66,58,33,47,73,,70,63,20,12,25,11,0.6,0.5
2025-04-12T1000,2609A,103.3861,23.35,红河哈尼族彝族自治州,监测站,细颗粒物(PM2.5),69,82,69,50,46,64,,82,75,26,10,12,7,0.6,0.5
2025-04-12T1000,3038A,103.3758,23.368,红河哈尼族彝族自治州,州图书馆,细颗粒物(PM2.5),113,,48,85,41,68,,87,80,22,10,14,7,0.5,0.3
2025-04-12T1000,1090A,111.6507,40.7517,呼和浩特市,呼市一监,,25,22,208,3,21,78,,85,82,1,3,10,11,0.5,0.5
2025-04-12T1000,1091A,111.6572,40.8033,呼和浩特市,小召,,31,31,182,6,19,71,,80,77,8,8,6,6,0.3,0.3
2025-04-12T1000,1094A,111.7516,40.8369,呼和浩特市,如意水处理厂,,33,33,122,7,18,69,,78,75,3,5,7,7,0.3,0.3
2025-04-12T1000,1095A,111.7276,40.8062,呼和浩特市,二十九中,,27,27,165,6,20,72,,83,79,3,3,4,4,0.4,0.3
2025-04-12T1000,1096A,111.5512,40.7866,呼和浩特市,工大金川校区,,25,16,160,3,18,78,,85,82,4,5,6,6,0.3,0.3
2025-04-12T1000,1097A,111.717,40.7612,呼和浩特市,化肥厂生活区,,31,31,131,8,22,75,,84,80,4,6,7,7,0.3,0.3
2025-04-12T1000,3698A,111.5968,40.8178,呼和浩特市,红旗小学,,25,17,202,3,17,79,,87,84,4,6,4,4,0.4,0.4
2025-04-12T1000,3699A,111.6518,40.8389,呼和浩特市,海东办,,23,17,174,3,18,71,,80,76,2,6,6,6,0.5,0.5
2025-04-12T1000,2192A,119.7594,49.2261,呼伦贝尔市,区环保局,,36,,69,25,23,74,,82,80,6,5,5,5,0.2,0.2
2025-04-12T1000,3061A,119.7512,49.1577,呼伦贝尔市,国华电力东,,43,43,76,14,14,80,,84,82,3,3,4,4,0.3,0.2
2025-04-12T1000,1250A,120.0751,30.8669,湖州市,城西水厂,细颗粒物(PM2.5),88,91,60,65,27,65,,74,72,32,27,6,7,0.7,0.5
2025-04-12T1000,2873A,120.0830,30.8929,湖州市,仁皇山新区,细颗粒物(PM2.5),90,90,65,67,31,108,,96,96,29,28,3,4,1.1,0.8
2025-04-12T1000,2907A,120.1844,30.8596,湖州市,吴兴区站,细颗粒物(PM2.5),74,83,48,54,23,64,,81,78,27,23,5,7,0.6,0.5
2025-04-12T1000,3562A,120.4148,30.8538,湖州市,南浔区站,,33,18,49,10,24,104,,94,94,12,22,2,5,0.5,0.6
2025-04-12T1000,1607A,120.9049,40.7211,葫芦岛市,龙港区,颗粒物(PM10),107,164,61,28,22,84,,82,78,17,17,10,11,0.4,0.5
2025-04-12T1000,1608A,120.8392,40.7514,葫芦岛市,化工街,颗粒物(PM10),93,136,77,41,30,79,,69,68,19,22,7,11,0.4,0.4
2025-04-12T1000,1609A,120.8341,40.7073,葫芦岛市,新区,颗粒物(PM10),112,173,65,27,25,86,,83,82,19,20,8,9,0.5,0.5
2025-04-12T1000,1610A,120.8695,40.7677,葫芦岛市,东城区,颗粒物(PM10),103,156,67,23,26,85,,83,81,18,22,4,8,0.5,0.5
2025-04-12T1000,2482A,109.5981,27.5721,怀化市,林科所,,29,29,41,13,27,75,,83,83,5,8,5,4,0.3,0.4
2025-04-12T1000,2483A,109.9453,27.5444,怀化市,河西地税局,,37,37,39,24,30,75,,84,84,6,7,9,10,0.4,0.6
2025-04-12T1000,2484A,109.9781,27.5342,怀化市,市四医院,,26,26,47,16,30,75,,87,87,6,7,6,7,0.3,0.7
2025-04-12T1000,2485A,109.9972,27.5578,怀化市,监测楼,,39,39,44,21,31,73,,85,85,4,5,6,7,0.3,0.5
2025-04-12T1000,2486A,110.0394,27.583,怀化市,市委党校,,29,29,42,16,27,68,,84,84,6,6,6,4,0.5,0.7
2025-04-12T1000,1210A,119.036,33.5981,淮安市,钵池山,颗粒物(PM10),500,1240,191,81,80,72,,79,74,10,22,10,13,0.4,0.9
2025-04-12T1000,1211A,119.007,33.575,淮安市,北京南路,颗粒物(PM10),500,1255,191,80,80,68,,81,72,10,22,7,11,0.4,0.9
2025-04-12T1000,1212A,118.989,33.6067,淮安市,市监测站,颗粒物(PM10),500,1147,192,149,69,70,,78,71,9,23,7,11,0.3,0.9
2025-04-12T1000,1213A,119.135,33.5039,淮安市,楚州区监测站,颗粒物(PM10),500,1433,196,105,92,65,,67,64,8,19,7,10,0.3,0.8
2025-04-12T1000,3426A,118.8755,33.2894,淮安市,新华书店,颗粒物(PM10),500,1440,230,96,52,78,,82,80,7,24,6,11,0.3,0.9
2025-04-12T1000,4206A,119.0288,33.6319,淮安市,承德北路606号,颗粒物(PM10),500,1191,208,84,79,65,,73,67,10,21,6,10,0.3,0.8
2025-04-12T1000,2282A,116.8004,33.975,淮北市,监测站,颗粒物(PM10),500,710,216,41,46,83,,68,68,7,16,5,7,0.2,0.5
2025-04-12T1000,2283A,116.8091,33.9007,淮北市,烈山区政府,颗粒物(PM10),169,288,234,56,64,85,,67,67,12,19,3,7,0.2,0.5
2025-04-12T1000,3330A,116.8873,33.9836,淮北市,杜集区检察院,颗粒物(PM10),194,338,249,48,55,72,,66,66,9,18,4,7,0.6,0.9
2025-04-12T1000,4017A,116.7923,33.9535,淮北市,市博物馆,颗粒物(PM10),389,491,250,65,53,80,,65,65,6,17,3,6,0.5,0.9
2025-04-12T1000,2277A,116.8305,32.7727,淮南市,潘集区政府,颗粒物(PM10),500,1300,336,161,69,84,,90,87,9,18,3,6,0.3,0.6
2025-04-12T1000,2279A,116.8569,32.5951,淮南市,谢家集区政府,颗粒物(PM10),500,1272,210,145,49,84,,103,97,5,19,5,9,0.4,0.4
2025-04-12T1000,2280A,116.8281,32.633,淮南市,八公山区政府,颗粒物(PM10),500,1128,298,166,61,81,,93,89,3,13,3,5,0.2,0.4
2025-04-12T1000,2281A,116.6325,32.6201,淮南市,焦岗湖风景区管理处,,,,,,,,,,,,,,,,
2025-04-12T1000,2894A,117.0566,32.6531,淮南市,经济技术开发区消防队,颗粒物(PM10),500,1595,332,163,62,83,,90,87,10,16,5,8,0.3,0.5
2025-04-12T1000,3329A,117.0108,32.5893,淮南市,山南新区,颗粒物(PM10),500,1652,353,212,72,84,,97,92,8,12,6,8,0.2,0.5
2025-04-12T1000,4209A,117.0031,32.6445,淮南市,国庆中路369号,颗粒物(PM10),500,1318,310,177,68,86,,94,91,8,13,4,8,0.4,0.3
2025-04-12T1000,2446A,114.9028,30.4742,黄冈市,职工中心,颗粒物(PM10),416,516,124,135,45,117,,97,97,6,10,4,7,0.3,0.6
2025-04-12T1000,2929A,114.8858,30.4519,黄冈市,红卫路,颗粒物(PM10),500,715,180,111,44,101,,87,87,2,7,4,9,1.4,1.3
2025-04-12T1000,3398A,114.9136,30.4445,黄冈市,市林业局,,,,50,,36,,,101,,,7,,10,,0.9
2025-04-12T1000,2672A,102.0199,35.5102,黄南藏族自治州,同仁县隆务镇,,31,31,76,3,24,80,,63,63,2,3,12,12,0.2,0.2
2025-04-12T1000,2295A,118.2903,29.6963,黄山市,延安路89号,,24,12,41,3,20,74,,,,6,5,6,5,0.1,0.4
2025-04-12T1000,2297A,118.1371,30.2756,黄山市,黄山区政府5号楼,细颗粒物(PM2.5),67,65,30,48,15,87,,88,88,3,3,3,4,1.0,0.8
2025-04-12T1000,4210A,118.3354,29.7203,黄山市,滨江东路7-2号,,30,18,34,6,14,93,,90,86,7,7,4,4,0.6,0.6
2025-04-12T1000,2423A,115.0601,30.2313,黄石市,沈家营,颗粒物(PM10),500,821,117,240,48,102,,92,92,4,10,7,7,0.4,0.6
2025-04-12T1000,2426A,114.8988,30.2019,黄石市,铁山,颗粒物(PM10),500,930,170,168,44,102,,90,90,2,5,6,9,1.2,0.4
2025-04-12T1000,2427A,115.0307,30.2092,黄石市,团城山,颗粒物(PM10),500,839,110,233,43,92,,84,84,5,11,7,8,0.4,0.5
2025-04-12T1000,3149A,115.0235,30.1578,黄石市,笔架山北路,颗粒物(PM10),500,824,104,226,42,103,,91,91,2,4,4,6,0.4,0.7
2025-04-12T1000,4185A,115.0780,30.21118,黄石市,磁湖东路29号,颗粒物(PM10),500,1318,180,246,49,104,,97,97,7,9,6,7,0.8,0.6
2025-04-12T1000,1392A,114.4183,23.0528,惠州市,河南岸金山湖子站,,26,26,24,17,15,18,,16,15,19,19,7,7,0.7,0.5
2025-04-12T1000,1393A,114.4053,23.0822,惠州市,下埔横江三路子站,,28,28,27,18,16,18,,18,16,19,17,8,8,0.7,0.6
2025-04-12T1000,1394A,114.4103,23.1142,惠州市,江北云山西路子站,,22,22,27,14,14,19,,21,20,17,16,9,9,0.5,0.5
2025-04-12T1000,1395A,114.4645,22.7833,惠州市,惠阳区承修路船湖子站,,25,25,22,16,14,10,,22,19,26,16,8,7,0.8,0.6
2025-04-12T1000,1396A,114.5317,22.7422,惠州市,大亚湾管委会子站,,24,24,24,12,13,15,,24,23,20,17,6,5,0.5,0.5
2025-04-12T1000,3314A,114.4338,22.8134,惠州市,惠阳秋长,,24,24,26,12,13,18,,20,19,12,10,11,10,0.4,0.5
2025-04-12T1000,3452A,114.6517,22.775,惠州市,大亚湾霞涌,,23,23,17,15,10,16,,30,27,24,15,6,5,0.3,0.3
2025-04-12T1000,2240A,130.9762,45.3001,鸡西市,环保局,细颗粒物(PM2.5),88,95,131,65,92,94,,49,49,22,27,14,9,0.7,0.9
2025-04-12T1000,2243A,130.9429,45.3039,鸡西市,第一中学,细颗粒物(PM2.5),85,103,121,63,86,91,,58,58,25,25,16,11,0.8,1
2025-04-12T1000,3707A,131.0207,45.3073,鸡西市,欧美日汽修厂,细颗粒物(PM2.5),72,80,152,52,95,116,,60,60,16,22,9,10,0.4,0.7
2025-04-12T1000,3709A,130.9967,45.3106,鸡西市,市政设施管理处,颗粒物(PM10),82,113,135,56,89,91,,42,42,24,29,10,9,0.5,0.8
2025-04-12T1000,2367A,114.9754,27.0803,吉安市,红声器材厂,,27,19,40,7,23,84,,73,73,6,8,8,9,0.5,0.6
2025-04-12T1000,2368A,114.9658,27.0999,吉安市,市森林工业局,,26,19,38,14,24,82,,74,74,5,7,9,9,0.5,0.5
2025-04-12T1000,2369A,114.99,27.1312,吉安市,市环境监测站,,27,13,34,6,20,84,,75,75,7,7,12,13,0.3,0.5
2025-04-12T1000,2370A,115.0093,27.0968,吉安市,青原区法院,,28,17,37,16,24,88,,80,80,5,6,11,12,0.6,0.5
2025-04-12T1000,1772A,126.54,43.8622,吉林市,哈达湾,颗粒物(PM10),52,53,65,27,35,106,,106,105,18,17,10,9,0.4,0.5
2025-04-12T1000,1773A,126.5844,43.8358,吉林市,东局子,,49,49,66,29,36,109,,108,108,17,18,9,8,0.6,0.6
2025-04-12T1000,1774A,126.5052,43.8245,吉林市,电力学院,颗粒物(PM10),54,57,58,31,36,104,,102,101,23,21,8,8,0.5,0.6
2025-04-12T1000,1775A,126.6133,43.8972,吉林市,江北,,46,46,63,23,31,110,,104,104,18,17,7,7,0.6,0.7
2025-04-12T1000,1776A,126.555,43.8306,吉林市,江南公园,,48,48,61,32,39,104,,106,104,20,16,9,8,0.4,0.4
2025-04-12T1000,1778A,126.7061,43.7133,吉林市,丰满,颗粒物(PM10),51,51,52,33,39,122,,118,118,12,11,9,8,0.6,0.7
2025-04-12T1000,2868A,126.4739,43.953,吉林市,九站,颗粒物(PM10),54,58,63,34,36,97,,100,98,24,17,11,10,0.6,0.7
2025-04-12T1000,1299A,116.9862,36.6114,济南市,科干所,,,,311,,57,,,152,,,12,,8,,0.6
2025-04-12T1000,1300A,116.9376,36.665,济南市,农科所,细颗粒物(PM2.5),123,183,284,93,60,78,,81,80,9,15,5,8,0.4,0.4
2025-04-12T1000,1301A,117.1265,36.6734,济南市,开发区,,26,6,282,3,58,82,,87,84,12,12,6,8,0.4,0.6
2025-04-12T1000,1303A,117.0624,36.6868,济南市,省种子仓库,颗粒物(PM10),123,195,375,36,61,78,,83,81,1,8,10,12,0.5,0.8
2025-04-12T1000,1304A,116.9489,36.6447,济南市,机床二厂,颗粒物(PM10),136,222,426,37,54,84,,87,86,11,17,6,10,0.3,0.5
2025-04-12T1000,1305A,117.0495,36.663,济南市,市监测站,颗粒物(PM10),113,176,332,27,57,74,,77,75,7,14,6,9,0.3,0.5
2025-04-12T1000,1306A,116.7675,36.5484,济南市,长清党校,颗粒物(PM10),112,173,320,49,63,88,,90,90,7,15,4,9,0.4,0.7
2025-04-12T1000,1616A,117.6795,36.229,济南市,技术学院,颗粒物(PM10),118,185,137,24,54,81,,85,83,9,16,8,13,0.5,0.7
2025-04-12T1000,1961A,117.532,36.6868,济南市,东山小学,颗粒物(PM10),113,176,320,39,56,84,,88,84,3,9,5,8,0.3,0.4
2025-04-12T1000,3059A,117.7161,36.2049,济南市,泰兴公司,颗粒物(PM10),87,124,111,27,46,86,,83,83,9,20,7,12,0.4,0.7
2025-04-12T1000,3064A,117.6867,36.2171,济南市,莱芜战役纪念馆,颗粒物(PM10),90,129,115,17,39,86,,86,86,13,19,4,8,0.4,0.7
2025-04-12T1000,3494A,117.1673,36.9782,济南市,济阳区政府,颗粒物(PM10),128,205,314,17,58,86,,86,85,6,15,7,9,0.3,0.5
2025-04-12T1000,3495A,117.1171,36.63,济南市,锦屏中学,颗粒物(PM10),97,144,290,29,58,77,,81,78,9,11,7,9,0.1,0.4
2025-04-12T1000,3682A,116.9814,36.6819,济南市,济南四建,颗粒物(PM10),135,219,154,61,67,78,,80,79,8,12,3,6,0.3,0.5
2025-04-12T1000,1653A,116.6251,35.4302,济宁市,火炬城,颗粒物(PM10),136,222,323,46,80,72,,71,71,2,9,2,7,0.0,0.5
2025-04-12T1000,1655A,116.5491,35.4042,济宁市,电化厂,颗粒物(PM10),189,327,382,66,84,73,,73,73,12,16,3,6,0.0,0.4
2025-04-12T1000,3500A,116.5814,35.3707,济宁市,北湖一中,颗粒物(PM10),124,198,318,51,71,80,,80,80,8,18,3,7,0,0.3
2025-04-12T1000,3501A,116.8249,35.5593,济宁市,服务中心,颗粒物(PM10),140,229,292,30,52,77,,75,75,6,16,1,4,0.4,0.6
2025-04-12T1000,3678A,116.5907,35.4054,济宁市,市第七中学,颗粒物(PM10),192,334,144,92,108,77,,76,76,4,13,3,6,0.2,0.5
2025-04-12T1000,2255A,130.2751,46.8028,佳木斯市,佳纺,,49,49,98,32,90,56,,36,35,11,24,12,11,0.7,0.9
2025-04-12T1000,2256A,130.3995,46.8307,佳木斯市,发电厂,细颗粒物(PM2.5),53,44,106,37,97,67,,40,40,13,26,12,9,0.7,0.8
2025-04-12T1000,2257A,130.3258,46.7975,佳木斯市,环保局,细颗粒物(PM2.5),52,44,106,36,81,52,,40,38,18,32,8,7,0.6,0.7
2025-04-12T1000,2258A,130.3648,46.8032,佳木斯市,十一中,,48,35,92,33,82,57,,40,39,14,24,10,10,0.6,0.7
2025-04-12T1000,2259A,130.3794,46.7588,佳木斯市,四丰,细颗粒物(PM2.5),57,43,93,40,60,46,,31,30,19,28,1,1,1.1,1.2
2025-04-12T1000,1252A,120.7436,30.778,嘉兴市,清河小学,,25,18,56,7,20,78,,75,71,17,23,5,8,0.9,0.8
2025-04-12T1000,1253A,120.726,30.7478,嘉兴市,嘉兴学院,,28,28,55,10,25,81,,76,72,15,22,7,9,0.6,0.6
2025-04-12T1000,2872A,120.7846,30.7525,嘉兴市,南湖区残联,,28,28,57,9,28,84,,78,72,15,24,5,8,0.7,0.7
2025-04-12T1000,3407A,120.6916,30.7739,嘉兴市,秀洲住建,,27,14,57,8,20,84,,78,75,14,21,6,8,0.8,0.7
2025-04-12T1000,1945A,98.2908,39.7711,嘉峪关市,气象局,,36,36,37,14,11,84,,68,66,16,13,4,4,0.6,0.5
2025-04-12T1000,2884A,98.2672,39.7978,嘉峪关市,酒钢宾馆,,36,36,46,3,14,75,,60,60,15,13,13,13,0.3,0.2
2025-04-12T1000,3248A,98.2643,39.7724,嘉峪关市,雄关区,,27,27,39,12,19,82,,54,54,17,18,9,7,0.5,0.5
2025-04-12T1000,1383A,113.1064,22.6058,江门市,北街,,32,28,25,22,11,19,,29,24,17,4,2,2,0.6,0.4
2025-04-12T1000,1384A,113.0731,22.5835,江门市,西区,,29,29,27,13,14,19,,29,24,28,14,7,7,0.6,0.4
2025-04-12T1000,1385A,113.0219,22.5311,江门市,圭峰西,,42,42,31,14,12,29,,24,22,15,17,4,4,0.3,0.3
2025-04-12T1000,1386A,113.0828,22.5947,江门市,东湖,,34,34,20,20,15,19,,32,26,22,8,6,6,0.6,0.4
2025-04-12T1000,3311A,113.1075,22.5647,江门市,江海富民,,36,32,34,25,17,18,,31,26,20,8,6,6,0.4,0.4
2025-04-12T1000,3449A,113.05,22.4667,江门市,新会银湖,,30,30,25,18,11,26,,28,26,12,7,3,3,0.4,0.3
2025-04-12T1000,1830A,113.1992,35.2590,焦作市,影视城,,,,260,,46,,,,,,3,,6,,0.6
2025-04-12T1000,3169A,113.2725,35.2067,焦作市,太极体育中心,颗粒物(PM10),183,315,606,36,105,93,,108,106,2,12,5,9,0.5,0.4
2025-04-12T1000,3335A,113.3137,35.2641,焦作市,马村街道办,颗粒物(PM10),133,215,443,61,88,85,,96,94,9,16,6,11,0.3,0.6
2025-04-12T1000,3336A,113.2465,35.2373,焦作市,焦作技师学院,颗粒物(PM10),183,316,607,41,83,84,,98,96,4,12,3,8,0.3,0.6
2025-04-12T1000,3477A,113.1656,35.2539,焦作市,中站许衡医院,颗粒物(PM10),121,191,467,41,82,94,,108,106,5,15,5,13,0.3,0.7
2025-04-12T1000,3981A,113.2449,35.1803,焦作市,原李万街道办,颗粒物(PM10),136,222,564,22,103,84,,92,92,8,15,3,11,0.5,0.5
2025-04-12T1000,4264A,113.2340,35.2190,焦作市,新安路1731号,颗粒物(PM10),147,244,592,39,106,87,,99,97,2,10,4,8,0.3,0.5
2025-04-12T1000,1708A,116.3701,23.5345,揭阳市,新兴,颗粒物(PM10),58,65,52,30,35,27,,24,21,19,19,7,6,0.8,0.8
2025-04-12T1000,1709A,116.3264,23.5443,揭阳市,西马,颗粒物(PM10),55,60,43,20,25,27,,30,27,17,9,9,7,0.9,0.7
2025-04-12T1000,1710A,116.3611,23.5626,揭阳市,东兴,颗粒物(PM10),58,66,50,22,32,26,,32,28,17,12,8,7,0.8,0.9
2025-04-12T1000,1711A,116.4151,23.5294,揭阳市,渔湖,颗粒物(PM10),59,67,50,21,20,25,,29,27,19,15,5,5,0.7,0.9
2025-04-12T1000,3320A,116.403,23.5699,揭阳市,曲溪,,40,40,37,21,24,26,,31,27,20,16,2,2,0.7,0.9
2025-04-12T1000,1944A,102.1692,38.5167,金昌市,天庆家园,颗粒物(PM10),500,655,997,225,196,86,,81,79,24,4,95,16,0.7,0.6
2025-04-12T1000,4022A,102.1647,38.5371,金昌市,金川区人防中心,颗粒物(PM10),500,956,1581,257,244,79,,74,72,22,6,28,11,0.6,0.5
2025-04-12T1000,4239A,102.1930,38.5319,金昌市,长春路96号,颗粒物(PM10),500,940,1035,212,205,74,,71,70,20,4,104,18,0.8,0.5
2025-04-12T1000,1262A,119.647,29.077,金华市,十五中,,32,32,45,11,18,46,,78,67,31,17,6,6,0.8,0.6
2025-04-12T1000,1263A,119.686,29.1029,金华市,监测站,,28,28,47,17,25,38,,80,68,40,18,4,5,0.7,0.5
2025-04-12T1000,3659A,119.656,29.1131,金华市,气象局,,25,25,44,15,21,37,,69,58,38,20,3,2,0.7,0.5
2025-04-12T1000,1767A,121.1115,41.0879,锦州市,南山,颗粒物(PM10),101,151,76,29,30,84,,82,82,14,17,12,10,0.5,0.6
2025-04-12T1000,1768A,121.0604,40.8428,锦州市,开发区,颗粒物(PM10),107,163,79,33,28,79,,84,79,20,25,5,6,0.6,0.6
2025-04-12T1000,1769A,121.1836,41.1119,锦州市,百股街道,颗粒物(PM10),94,138,66,34,24,92,,87,87,12,17,5,6,0.4,0.4
2025-04-12T1000,1770A,121.1178,41.1222,锦州市,天安街道,颗粒物(PM10),99,147,81,26,29,94,,92,92,10,17,9,11,0.5,0.6
2025-04-12T1000,1771A,121.1303,41.1386,锦州市,北湖公园,颗粒物(PM10),94,138,74,27,29,74,,80,79,12,19,7,10,0.5,0.6
2025-04-12T1000,2160A,112.85,35.5051,晋城市,自来水公司,颗粒物(PM10),124,197,483,34,73,79,,91,88,3,9,6,8,0.3,0.5
2025-04-12T1000,2161A,112.8318,35.4936,晋城市,白云商贸,颗粒物(PM10),116,182,519,44,146,80,,91,88,7,12,4,6,0.4,0.6
2025-04-12T1000,2162A,112.8508,35.4887,晋城市,市环保局,颗粒物(PM10),112,173,482,19,75,80,,92,89,1,8,3,5,0.3,0.3
2025-04-12T1000,2163A,112.8676,35.4897,晋城市,技术学院,颗粒物(PM10),122,194,604,34,97,76,,87,84,5,12,5,7,0.3,0.5
2025-04-12T1000,2165A,112.8453,35.546,晋城市,白马寺,颗粒物(PM10),105,159,409,62,98,75,,86,83,42,22,4,6,0.5,0.5
2025-04-12T1000,3620A,112.8271,35.4828,晋城市,泽州一中,颗粒物(PM10),157,264,504,63,95,82,,92,89,4,8,6,8,0.3,0.5
2025-04-12T1000,2173A,112.7249,37.7067,晋中市,南都小区,颗粒物(PM10),69,88,519,15,69,72,,80,77,7,12,3,6,0.2,0.2
2025-04-12T1000,2174A,112.6991,37.6982,晋中市,榆次区政府,,,,593,,63,,,86,,,9,,6,,0.1
2025-04-12T1000,2865A,112.7195,37.6828,晋中市,榆次三中,颗粒物(PM10),81,112,653,14,74,75,,84,80,4,7,3,5,0.1,0.1
2025-04-12T1000,4200A,112.7478,37.6954,晋中市,迎宾街26号,颗粒物(PM10),68,85,549,14,76,73,,82,78,3,7,3,6,0.2,0.2
2025-04-12T1000,2439A,112.2014,31.0481,荆门市,竹园小学,颗粒物(PM10),500,907,343,127,60,91,,95,94,18,10,3,4,0,0.2
2025-04-12T1000,2440A,112.1969,30.9891,荆门市,掇刀,颗粒物(PM10),500,877,296,115,52,81,,106,98,5,6,4,7,0.1,0.3
2025-04-12T1000,2441A,112.2213,31.0386,荆门市,石化一小,颗粒物(PM10),500,831,277,111,57,90,,90,89,6,9,8,6,0.0,0.2
2025-04-12T1000,3012A,112.1849,31.0362,荆门市,西山林语,颗粒物(PM10),500,838,268,116,54,92,,93,93,2,4,5,5,0.0,0.2
2025-04-12T1000,3547A,112.1632,31.0138,荆门市,龙泉中学南校,颗粒物(PM10),500,1113,359,198,73,92,,97,96,10,8,4,6,0.6,0.6
2025-04-12T1000,1844A,112.2494,30.3197,荆州市,市图书馆,颗粒物(PM10),500,912,201,239,46,88,,84,84,7,10,3,3,0.4,0.6
2025-04-12T1000,1845A,112.2008,30.3544,荆州市,市委党校,颗粒物(PM10),500,842,183,229,39,93,,86,86,12,11,4,4,0.4,0.6
2025-04-12T1000,3194A,112.2747,30.3122,荆州市,管委会,颗粒物(PM10),500,710,169,230,59,93,,89,89,12,9,3,4,0.3,0.6
2025-04-12T1000,4268A,112.1722,30.3366,荆州市,学苑路85号,颗粒物(PM10),500,970,177,196,59,88,,82,82,13,13,1,5,0.2,0.5
2025-04-12T1000,2342A,117.3102,29.3867,景德镇市,王港中学,,,,,,,,,,,,,,,,
2025-04-12T1000,2343A,117.2117,29.2933,景德镇市,老干部活动中心,,42,42,26,9,12,100,,93,92,9,8,6,7,0.4,0.5
2025-04-12T1000,2344A,117.1894,29.2789,景德镇市,兽医站,颗粒物(PM10),83,115,46,15,19,94,,85,85,8,9,3,4,0.4,0.5
2025-04-12T1000,2345A,117.1547,29.2617,景德镇市,台达陶瓷,,39,39,33,12,20,97,,87,87,7,14,8,31,0.3,0.5
2025-04-12T1000,2346A,117.2461,29.2956,景德镇市,陶研所,,,21,23,14,18,103,,90,90,7,8,5,7,,0.9
2025-04-12T1000,1803A,115.9872,29.6815,九江市,十里,颗粒物(PM10),180,309,44,76,22,73,,92,86,4,6,1,2,0.4,0.6
2025-04-12T1000,1804A,115.9584,29.7046,九江市,茅山头,颗粒物(PM10),407,507,53,105,24,71,,92,84,10,13,4,5,0.2,0.4
2025-04-12T1000,1805A,115.9877,29.7295,九江市,西园,颗粒物(PM10),167,283,56,81,20,79,,101,94,11,15,5,6,0.6,0.9
2025-04-12T1000,1808A,115.9114,29.6038,九江市,综合工业园,颗粒物(PM10),497,597,64,195,24,74,,91,87,15,18,7,8,0.4,0.8
2025-04-12T1000,1809A,116.0721,29.7535,九江市,石化总厂,颗粒物(PM10),161,271,45,78,34,75,,99,91,5,6,1,6,0.5,0.8
2025-04-12T1000,1810A,115.9773,29.5698,九江市,庐山气象台,细颗粒物(PM2.5),203,206,31,153,20,66,,93,86,8,9,7,8,0.7,0.7
2025-04-12T1000,3190A,116.0254,29.6994,九江市,外国语学校,,,,29,75,21,62,,80,74,,10,7,7,0.8,0.9
2025-04-12T1000,4253A,116.0102,29.6594,九江市,莲花大道8号,颗粒物(PM10),197,343,40,69,21,68,,87,81,6,3,3,4,0.4,0.6
2025-04-12T1000,4240A,98.4958,39.7339,酒泉市,玉门东路5号,,36,36,87,16,31,70,,65,65,18,10,9,8,0.3,0.2
2025-04-12T1000,4241A,98.5099,39.7506,酒泉市,北大街108号,颗粒物(PM10),51,51,101,7,26,83,,65,65,16,12,10,11,0.3,0.2
2025-04-12T1000,2698A,76.0072,39.4467,喀什地区,巡警大队,颗粒物(PM10),122,194,127,41,39,42,,72,66,27,15,3,5,0.5,0.5
2025-04-12T1000,2699A,75.9755,39.4694,喀什地区,吾办,颗粒物(PM10),103,155,117,58,56,49,,72,68,20,11,3,4,0.5,0.5
2025-04-12T1000,4027A,75.9483,39.4689,喀什地区,老干局,颗粒物(PM10),100,150,112,49,44,48,,74,71,22,10,3,6,0.2,0.1
2025-04-12T1000,1824A,114.3389,34.7781,开封市,肿瘤医院,颗粒物(PM10),476,576,539,56,77,87,,93,93,6,13,5,7,0.4,0.7
2025-04-12T1000,1826A,114.2885,34.7965,开封市,世纪星幼儿园,颗粒物(PM10),446,546,612,58,92,94,,101,100,10,19,4,6,0.4,0.5
2025-04-12T1000,3147A,114.3438,34.8106,开封市,龙亭公园,颗粒物(PM10),409,509,570,111,97,87,,96,95,13,16,1,4,0.4,0.6
2025-04-12T1000,3210A,114.3644,34.7964,开封市,汴京公园,颗粒物(PM10),436,536,287,103,87,87,,,,4,16,4,4,1.5,0.7
2025-04-12T1000,3473A,114.2485,34.8306,开封市,技师学院,颗粒物(PM10),328,442,411,135,126,86,,92,92,11,20,3,5,0.5,0.9
2025-04-12T1000,3592A,114.4644,34.7556,开封市,祥符区生态环境局,颗粒物(PM10),500,610,226,132,89,85,,94,93,11,15,4,7,0.4,0.6
2025-04-12T1000,1951A,84.895,45.6094,克拉玛依市,长征新村,,28,17,14,6,7,87,,87,86,7,7,7,6,0.2,0.1
2025-04-12T1000,1952A,84.8988,45.5893,克拉玛依市,南林小区,,29,15,14,7,5,92,,99,98,2,2,3,3,0.3,0.2
2025-04-12T1000,1954A,84.905,44.3396,克拉玛依市,独山子区,,38,38,28,9,10,76,,70,66,14,9,12,7,0.3,0.2
2025-04-12T1000,1955A,85.6979,46.098,克拉玛依市,乌尔禾区商贸楼,,47,47,22,12,9,69,,67,67,24,11,8,6,0.3,0.2
2025-04-12T1000,3612A,85.1045,45.6899,克拉玛依市,白碱滩区新站,,30,14,11,3,6,93,,96,95,2,4,9,9,0.2,0.2
2025-04-12T1000,2697A,76.1454,39.7142,克孜勒苏柯尔克孜自治州,市人民政府,颗粒物(PM10),197,344,188,87,57,84,,100,99,13,5,13,10,0.2,0.2
2025-04-12T1000,3665A,76.1658,39.7157,克孜勒苏柯尔克孜自治州,克州文化中心,颗粒物(PM10),310,428,179,98,57,87,,95,94,6,3,15,8,0.3,0.3
2025-04-12T1000,1450A,102.8204,24.8886,昆明市,呈贡新区,,42,42,46,25,27,66,,68,64,17,12,10,7,0.6,0.6
2025-04-12T1000,1451A,102.6251,24.9608,昆明市,西山森林公园,,,,,,,,,,,,,,,,
2025-04-12T1000,1452A,102.7252,25.0902,昆明市,龙泉镇,,30,30,39,18,24,66,,68,66,14,12,8,8,0.5,0.5
2025-04-12T1000,1453A,102.7266,25.0375,昆明市,东风东路,,33,31,38,23,28,74,,73,71,16,13,8,8,0.5,0.5
2025-04-12T1000,1454A,102.6742,25.0669,昆明市,金鼎山,,43,43,41,26,26,73,,71,71,17,12,7,7,0.7,0.7
2025-04-12T1000,1455A,102.6644,25.0401,昆明市,碧鸡广场,,36,31,38,25,27,77,,68,68,11,12,7,7,0.7,0.7
2025-04-12T1000,3179A,102.7494,25.0119,昆明市,官渡区博物馆,,30,30,41,21,24,68,,65,60,21,14,10,8,0.5,0.5
2025-04-12T1000,3375A,102.8017,24.8336,昆明市,青年创业园,,32,32,39,21,28,71,,60,53,11,11,11,9,0.5,0.5
2025-04-12T1000,3550A,102.7997,24.9786,昆明市,昆明学院,颗粒物(PM10),52,53,43,29,28,57,,67,62,32,13,5,5,0.5,0.4
2025-04-12T1000,3551A,102.5967,24.6736,昆明市,晋宁区生态环境分局,,34,34,29,22,27,72,,66,62,13,8,10,8,0.8,0.8
2025-04-12T1000,3552A,102.6678,24.9856,昆明市,云天化总部,,42,36,38,29,27,75,,67,61,16,12,17,10,0.9,0.7
2025-04-12T1000,1456A,91.1319,29.6514,拉萨市,八廓街,,38,14,14,10,9,121,,135,126,13,9,6,6,0.5,0.5
2025-04-12T1000,1457A,91.1221,29.6747,拉萨市,市环保局,,31,31,16,14,8,99,,128,116,27,14,4,4,0.5,0.3
2025-04-12T1000,1458A,91.0874,29.6475,拉萨市,区监测站,,,,13,,7,,,139,,,12,,6,,0.5
2025-04-12T1000,1459A,91.1774,29.6541,拉萨市,西藏大学,,35,10,16,7,7,111,,131,121,17,12,7,5,0.3,0.3
2025-04-12T1000,1460A,90.9798,29.6588,拉萨市,区辐射站,,36,18,18,12,7,115,,123,112,22,16,8,8,0.4,0.4
2025-04-12T1000,1461A,91.0834,29.6292,拉萨市,拉萨火车站,,38,8,11,6,6,119,,125,117,10,9,4,3,0.2,0.2
2025-04-12T1000,2520A,109.2203,23.7256,来宾市,来宾技工学校,,50,50,47,30,30,76,,88,86,11,7,13,6,0.8,0.8
2025-04-12T1000,3535A,109.1781,23.7297,来宾市,兴宾区政府,,45,44,43,31,31,81,,85,82,6,6,5,5,0.8,0.8
2025-04-12T1000,4002A,109.2416,23.7461,来宾市,中南小学,颗粒物(PM10),52,54,46,28,29,77,,89,87,10,7,8,6,0.8,0.8
2025-04-12T1000,1477A,104.1373,35.9454,兰州市,榆中兰大校区,,,,,,,,,,,,,,,,
2025-04-12T1000,1479A,103.831,36.0464,兰州市,铁路设计院,颗粒物(PM10),500,1280,999,331,233,60,,76,68,24,22,19,7,0.6,0.5
2025-04-12T1000,3241A,103.7439,36.0842,兰州市,百合公园,颗粒物(PM10),500,1304,887,329,205,59,,70,65,14,11,10,3,0.5,0.4
2025-04-12T1000,3242A,103.9611,35.998,兰州市,和平,颗粒物(PM10),500,1594,984,463,266,66,,62,60,9,13,17,13,0.5,0.7
2025-04-12T1000,4236A,103.6293,36.0938,兰州市,庄浪东路808号,颗粒物(PM10),500,1571,1121,401,277,62,,59,53,20,19,10,8,0.4,0.3
2025-04-12T1000,4237A,103.7251,36.1043,兰州市,安宁西路88号,颗粒物(PM10),500,1609,1088,325,215,69,,75,70,11,9,14,4,0.3,0.2
2025-04-12T1000,4238A,103.8470,36.0676,兰州市,北滨河东路1号,颗粒物(PM10),500,1352,923,326,209,73,,82,76,10,14,29,10,0.5,0.5
2025-04-12T1000,3245A,103.6633,36.533,兰州新区,新区管委会,颗粒物(PM10),500,1214,970,325,261,70,,73,68,10,6,31,17,0.6,0.3
2025-04-12T1000,3246A,103.6975,36.4789,兰州新区,舟曲中学,颗粒物(PM10),500,1714,1398,416,296,77,,78,74,10,8,100,27,0.4,0.2
2025-04-12T1000,1067A,116.6708,39.5111,廊坊市,药材公司,颗粒物(PM10),103,155,228,12,66,79,,80,80,,10,2,4,0.3,0.5
2025-04-12T1000,1068A,116.7214,39.5589,廊坊市,开发区,颗粒物(PM10),64,78,239,10,58,82,,83,83,4,14,2,4,0.2,0.4
2025-04-12T1000,1070A,116.7244,39.5269,廊坊市,北华航天学院,颗粒物(PM10),71,92,251,10,50,81,,83,82,4,10,3,6,0.2,0.4
2025-04-12T1000,2919A,116.7022,39.5453,廊坊市,河北工业大学,颗粒物(PM10),68,85,239,16,59,81,,82,82,4,14,4,7,0.2,0.4
2025-04-12T1000,2535A,103.7723,29.5462,乐山市,花湖湾,颗粒物(PM10),112,174,60,58,30,56,,79,74,23,15,6,6,0.4,0.5
2025-04-12T1000,2536A,103.7627,29.5844,乐山市,牛耳桥,颗粒物(PM10),121,191,67,50,29,57,,78,73,22,16,7,7,0.4,0.5
2025-04-12T1000,2537A,103.7508,29.6006,乐山市,市第三水厂,颗粒物(PM10),119,187,65,39,28,58,,82,76,19,14,4,5,0.4,0.5
2025-04-12T1000,2538A,103.7571,29.5664,乐山市,市监测站,颗粒物(PM10),113,176,66,40,31,53,,78,72,24,16,8,6,0.4,0.5
2025-04-12T1000,3361A,103.7311,29.5628,乐山市,理工大学,颗粒物(PM10),117,183,65,54,31,54,,82,75,24,16,5,5,0.4,0.5
2025-04-12T1000,2598A,100.2143,26.8576,丽江市,西南郊,,34,34,27,19,15,95,,111,105,14,4,4,5,0.7,0.6
2025-04-12T1000,2599A,100.2497,26.8802,丽江市,丽江古城,,37,37,24,19,16,93,,102,97,16,10,8,7,0.7,0.6
2025-04-12T1000,2600A,100.2203,26.8906,丽江市,市中心,,,,25,,14,,,118,,,15,,8,,0.5
2025-04-12T1000,1267A,119.914,28.4514,丽水市,监测站大楼,,,23,34,18,18,,,65,57,20,13,2,3,0.8,0.6
2025-04-12T1000,1268A,119.93,28.4586,丽水市,莲都小学,,23,23,34,10,14,50,,67,57,19,12,3,3,0.5,0.4
2025-04-12T1000,1269A,119.879,28.4231,丽水市,余庄前,,27,27,37,18,19,35,,47,39,21,12,3,3,0.7,0.5
2025-04-12T1000,1173A,119.176,34.5885,连云港市,市环境监测站,颗粒物(PM10),461,561,115,75,54,72,,74,71,10,18,9,10,0.5,0.5
2025-04-12T1000,3000A,119.3581,34.6972,连云港市,德源药业,颗粒物(PM10),500,686,128,122,54,45,,53,53,28,31,8,9,0.4,0.7
2025-04-12T1000,3007A,119.178,34.844,连云港市,新城一中,颗粒物(PM10),141,232,97,57,33,69,,77,77,14,25,6,7,0.6,0.8
2025-04-12T1000,3008A,119.3608,34.7519,连云港市,胡沟管理处,颗粒物(PM10),337,449,99,110,48,70,,81,75,14,30,10,11,0.3,0.5
2025-04-12T1000,3009A,119.1478,34.5911,连云港市,矿山设计院,颗粒物(PM10),408,508,120,63,51,71,,60,60,12,23,7,9,0.4,0.6
2025-04-12T1000,3434A,119.2413,34.6539,连云港市,工贸学校,颗粒物(PM10),500,620,102,58,44,74,,80,74,13,18,7,8,0.5,0.7
2025-04-12T1000,3664A,119.4172,34.7341,连云港市,连云街道,颗粒物(PM10),273,401,99,56,35,62,,90,81,22,27,7,8,0.5,0.7
2025-04-12T1000,2571A,102.3431,27.8099,凉山彝族自治州,青龙寺,,24,7,28,3,10,74,,86,86,4,7,7,7,0.4,0.4
2025-04-12T1000,2572A,102.2721,27.8415,凉山彝族自治州,邛海宾馆,,27,11,29,3,17,84,,95,95,7,10,7,8,0.4,0.4
2025-04-12T1000,2573A,102.2625,27.898,凉山彝族自治州,西昌市政府,,27,14,29,3,19,84,,100,95,5,7,7,9,0.3,0.5
2025-04-12T1000,2574A,102.2685,27.8851,凉山彝族自治州,凉山州政府,,27,7,31,3,17,86,,102,98,6,9,5,6,0.7,0.6
2025-04-12T1000,4229A,102.2342,27.8859,凉山彝族自治州,凯乐南路30号,,24,17,33,3,18,76,,92,87,14,10,9,11,0.6,0.8
2025-04-12T1000,2212A,123.2,41.1953,辽阳市,宏伟区,,40,,30,7,13,128,,130,127,4,6,9,9,0.6,0.5
2025-04-12T1000,2213A,123.1683,41.2495,辽阳市,新华园,,,,47,3,7,,,133,131,5,10,8,6,0.6,0.4
2025-04-12T1000,2214A,123.2354,41.2639,辽阳市,滨河路,,37,,31,8,15,116,,121,118,7,9,6,8,0.6,0.5
2025-04-12T1000,2215A,123.149,41.2991,辽阳市,铁西工业园,,40,,44,8,15,128,,126,123,10,10,12,8,0.6,0.5
2025-04-12T1000,2227A,125.1358,42.8845,辽源市,环保局,,38,38,56,16,23,120,,106,106,11,17,6,7,0.4,0.4
2025-04-12T1000,3239A,125.0764,42.9078,辽源市,银鹰制药,,39,33,43,21,26,124,,98,98,8,20,9,8,0.6,0.5
2025-04-12T1000,1625A,115.9848,36.4372,聊城市,区政府,颗粒物(PM10),147,243,167,22,72,82,,87,86,18,23,8,11,0.2,0.4
2025-04-12T1000,2878A,116.0072,36.4343,聊城市,聊大东校,颗粒物(PM10),124,197,390,31,105,78,,83,82,10,18,7,9,0.5,0.7
2025-04-12T1000,3200A,115.9819,36.4978,聊城市,监控中心,颗粒物(PM10),176,301,179,22,84,75,,81,80,8,16,4,7,0.2,0.5
2025-04-12T1000,3513A,116.0445,36.4361,聊城市,九州社区,颗粒物(PM10),153,255,389,20,58,84,,88,88,2,10,2,3,0.3,0.4
2025-04-12T1000,4018A,116.0567,36.4608,聊城市,星美广场,颗粒物(PM10),109,168,303,16,52,82,,86,86,7,15,6,9,0.4,0.7
2025-04-12T1000,2632A,94.3681,29.6376,林芝市,林芝监测站,,27,8,7,3,4,84,,104,96,8,5,5,5,0.4,0.4
2025-04-12T1000,2633A,94.3616,29.6616,林芝市,林芝人民医院,,25,11,10,6,5,78,,98,90,6,2,5,5,0.4,0.4
2025-04-12T1000,2603A,100.0781,23.8982,临沧市,市环保局,,39,39,48,25,38,26,,23,21,21,17,7,6,0.8,0.8
2025-04-12T1000,2604A,100.0894,23.8822,临沧市,市气象局,细颗粒物(PM2.5),59,48,44,42,42,22,,28,20,23,16,8,7,0.9,0.8
2025-04-12T1000,1733A,111.5531,36.0783,临汾市,临钢医院,颗粒物(PM10),87,124,672,8,83,78,,87,83,3,11,3,6,0.4,0.5
2025-04-12T1000,1734A,111.5028,36.0714,临汾市,技工学校,颗粒物(PM10),83,116,639,17,96,81,,89,85,2,11,3,4,0.2,0.4
2025-04-12T1000,1736A,111.5018,36.0855,临汾市,市委,颗粒物(PM10),94,137,689,24,93,80,,88,84,2,10,1,4,0.3,0.4
2025-04-12T1000,3018A,111.505,36.1014,临汾市,唐尧大酒店,颗粒物(PM10),94,137,573,17,80,82,,91,87,2,9,5,7,0.3,0.5
2025-04-12T1000,4244A,111.4879,36.0530,临汾市,启星学校,颗粒物(PM10),79,108,606,11,84,78,,89,84,2,9,2,4,0.3,0.4
2025-04-12T1000,4271A,103.2464,35.6123,临夏回族自治州,滨河东路1号,颗粒物(PM10),500,760,227,92,48,57,,35,35,5,6,3,4,0.3,0.3
2025-04-12T1000,4310A,103.2093,35.5995,临夏回族自治州,新华街21号,颗粒物(PM10),278,404,217,93,52,45,,42,39,18,12,8,8,0.4,0.3
2025-04-12T1000,1618A,118.3429,35.0532,临沂市,沂河小区,颗粒物(PM10),130,210,188,13,43,72,,65,65,10,11,6,11,0.4,0.7
2025-04-12T1000,1619A,118.295,35.0583,临沂市,鲁南制药厂,颗粒物(PM10),125,200,211,23,43,84,,74,74,14,20,8,12,0.2,0.5
2025-04-12T1000,1620A,118.2794,34.9976,临沂市,新光毛纺厂,颗粒物(PM10),107,163,184,23,40,76,,67,67,17,22,5,10,0.2,0.4
2025-04-12T1000,1621A,118.3956,35.0888,临沂市,河东保险公司,颗粒物(PM10),123,195,167,20,50,74,,63,63,14,18,1,4,0.3,0.3
2025-04-12T1000,3370A,118.3564,35.0215,临沂市,十里堡居委,颗粒物(PM10),137,224,195,24,53,76,,66,66,21,19,1,6,0.5,0.8
2025-04-12T1000,3496A,118.3604,35.1084,临沂市,南坊新区,颗粒物(PM10),145,239,194,29,49,84,,74,74,9,15,5,9,0.6,0.7
2025-04-12T1000,3860A,118.3920,35.0300,临沂市,皇山花园小区,颗粒物(PM10),152,254,211,23,45,79,,71,71,5,14,5,9,0.3,0.7
2025-04-12T1000,1870A,109.4856,24.3895,柳州市,柳东小学,,45,41,43,31,34,80,,76,72,15,13,10,9,0.8,0.8
2025-04-12T1000,1871A,109.4157,24.3277,柳州市,环保监测站,,46,40,50,32,36,74,,76,76,14,9,10,9,0.9,0.8
2025-04-12T1000,1872A,109.389,24.341,柳州市,河西水厂,细颗粒物(PM2.5),59,50,54,42,36,79,,74,74,10,11,6,5,0.9,0.9
2025-04-12T1000,1873A,109.4311,24.2921,柳州市,市四中,,46,42,52,32,35,68,,69,68,16,11,8,7,0.7,0.7
2025-04-12T1000,1874A,109.4006,24.3631,柳州市,市九中,颗粒物(PM10),52,54,56,29,34,84,,79,79,9,9,8,8,0.8,0.8
2025-04-12T1000,1875A,109.4958,24.3134,柳州市,古亭山,,43,40,56,30,33,80,,68,64,9,9,10,7,0.9,0.9
2025-04-12T1000,3402A,109.5422,24.3996,柳州市,市二中,,45,44,48,31,33,69,,67,63,16,12,15,13,0.7,0.7
2025-04-12T1000,2307A,116.5079,31.737,六安市,监测大楼,颗粒物(PM10),393,494,171,104,45,71,,88,78,7,9,4,5,0.2,0.5
2025-04-12T1000,2308A,116.4738,31.7643,六安市,皖西学院,颗粒物(PM10),488,588,218,112,46,89,,90,85,15,11,3,4,0.3,0.5
2025-04-12T1000,2309A,116.4996,31.7905,六安市,朝阳厂,颗粒物(PM10),380,484,176,96,44,99,,87,87,9,15,3,4,0.3,0.4
2025-04-12T1000,2310A,116.5567,31.7886,六安市,开发区,颗粒物(PM10),500,662,213,103,44,62,,89,80,7,13,3,5,0.4,0.6
2025-04-12T1000,2576A,104.8,26.5892,六盘水市,窑上,,,,56,,43,,,111,,,7,,6,,0.4
2025-04-12T1000,2577A,104.83,26.5917,六盘水市,黄土坡,,39,39,41,3,26,90,,100,94,7,9,6,9,0,0.3
2025-04-12T1000,2578A,104.89,26.5939,六盘水市,水钢,,33,33,53,3,25,84,,92,86,12,16,6,10,0.2,0.6
2025-04-12T1000,2579A,104.8475,26.5894,六盘水市,民中,,30,28,38,7,24,93,,105,98,7,9,7,8,0.2,0.5
2025-04-12T1000,2580A,104.9544,26.5506,六盘水市,双水,,29,29,48,3,22,85,,104,94,14,13,7,9,0.1,0.2
2025-04-12T1000,2335A,117.0189,25.1181,龙岩市,龙岩师专,,,,,,,,,,,,,,,,
2025-04-12T1000,2336A,117.0217,25.1033,龙岩市,龙岩市监测站,,25,25,30,15,21,43,,57,53,14,11,5,6,0.5,0.5
2025-04-12T1000,2337A,117.0258,25.0661,龙岩市,闽西职业技术学院,,27,27,32,17,23,43,,49,48,9,11,5,6,0.5,0.5
2025-04-12T1000,2338A,117.0196,25.0306,龙岩市,龙岩学院,,40,30,30,28,23,40,,53,50,10,8,2,3,0.5,0.5
2025-04-12T1000,2665A,105.0822,33.3261,陇南市,汉王镇固水子,,,,,,,,,,,,,,,,
2025-04-12T1000,2885A,104.9339,33.3826,陇南市,滨江中学,颗粒物(PM10),494,594,387,93,64,60,,75,69,8,7,7,8,0.4,0.4
2025-04-12T1000,3247A,104.955,33.371,陇南市,市总工会,颗粒物(PM10),500,644,368,131,73,63,,77,72,10,8,8,9,0.3,0.3
2025-04-12T1000,2487A,111.9589,27.8901,娄底市,电视发射台,颗粒物(PM10),417,517,88,,27,79,,89,88,3,5,7,8,0.4,0.6
2025-04-12T1000,2488A,111.9975,27.725,娄底市,市监测站,颗粒物(PM10),500,764,98,114,37,83,,94,93,5,6,8,10,0.5,0.7
2025-04-12T1000,2489A,112.0194,27.7314,娄底市,市委党校,,,,43,,29,,,80,,,8,,4,,0.4
2025-04-12T1000,2490A,111.9561,27.7569,娄底市,涟钢,颗粒物(PM10),500,731,99,122,37,75,,88,85,8,14,3,24,0.0,0.5
2025-04-12T1000,2491A,111.9892,27.7044,娄底市,市政府,颗粒物(PM10),500,714,91,135,36,79,,94,92,5,6,4,5,0.2,0.4
2025-04-12T1000,1893A,105.4324,28.9634,泸州市,九狮山,,,,,,,,,,,,,,,,
2025-04-12T1000,1894A,105.4427,28.9063,泸州市,小市上码头,,48,48,45,27,27,47,,72,63,20,12,5,5,0.6,0.7
2025-04-12T1000,1895A,105.4241,28.8573,泸州市,兰田宪桥,,49,46,40,34,34,49,,66,57,10,9,6,6,0.5,0.6
2025-04-12T1000,1896A,105.4379,28.8833,泸州市,市环监站,,,,,,,,,,,,,,,,
2025-04-12T1000,4272A,105.3689,28.7783,泸州市,纳溪中医医院,颗粒物(PM10),62,73,57,20,31,47,,63,51,17,10,7,7,0.5,0.6
2025-04-12T1000,2183A,111.1406,37.5211,吕梁市,环保局,,,,634,14,98,74,,,,2,8,5,6,0.4,0.3
2025-04-12T1000,2185A,111.1297,37.5136,吕梁市,自来水公司,颗粒物(PM10),59,68,528,21,92,75,,81,79,3,7,4,5,0.4,0.5
2025-04-12T1000,2867A,111.1283,37.51,吕梁市,马茂庄小学,细颗粒物(PM2.5),79,76,574,58,97,75,,80,78,3,8,2,4,0.2,0.3
2025-04-12T1000,1812A,112.3931,34.6516,洛阳市,市委党校,颗粒物(PM10),338,450,531,116,121,83,,89,88,8,15,2,5,0.4,0.6
2025-04-12T1000,1815A,112.494,34.6886,洛阳市,河南林校,颗粒物(PM10),296,417,309,60,117,86,,94,93,3,13,2,5,0.5,0.7
2025-04-12T1000,1816A,112.3844,34.623,洛阳市,开发区管委会,颗粒物(PM10),253,387,626,94,150,84,,90,90,7,13,3,8,0.2,0.3
2025-04-12T1000,1817A,112.4267,34.6258,洛阳市,市委新办公区,颗粒物(PM10),249,384,609,69,108,90,,96,96,5,12,2,6,0.1,0.3
2025-04-12T1000,3340A,112.6005,34.6326,洛阳市,伊滨,颗粒物(PM10),197,343,482,48,121,88,,96,95,4,13,2,6,0.4,0.5
2025-04-12T1000,3341A,112.4951,34.6332,洛阳市,中移产业园,颗粒物(PM10),500,813,1057,78,131,80,,83,83,4,12,3,7,0.1,0.5
2025-04-12T1000,3593A,112.5736,34.8993,洛阳市,吉利监测站,颗粒物(PM10),136,221,560,26,74,86,,100,98,3,12,5,8,0.4,0.6
2025-04-12T1000,3635A,112.3677,34.662,洛阳市,河科大西苑校区,颗粒物(PM10),403,503,747,54,104,85,,91,91,8,18,4,8,0.3,0.5
2025-04-12T1000,3636A,112.4388,34.6781,洛阳市,英才小学,颗粒物(PM10),308,426,765,64,121,86,,93,92,6,15,4,8,0.2,0.6
2025-04-12T1000,4214A,112.4600,34.6949,洛阳市,春都路1号院,颗粒物(PM10),253,387,864,56,106,92,,99,98,4,14,4,8,0.4,0.6
2025-04-12T1000,2399A,114.051,33.5699,漯河市,三五一五工厂,颗粒物(PM10),500,698,669,94,92,91,,97,97,4,10,3,5,0.3,0.5
2025-04-12T1000,2400A,114.0055,33.5698,漯河市,漯河大学,颗粒物(PM10),447,547,522,110,98,88,,95,95,3,9,4,6,0.2,0.4
2025-04-12T1000,2401A,114.0138,33.5828,漯河市,市水利局,颗粒物(PM10),500,696,579,119,100,85,,93,93,7,11,3,5,0.4,0.4
2025-04-12T1000,2402A,114.0261,33.5698,漯河市,市广电局,颗粒物(PM10),500,662,565,85,68,87,,94,94,3,10,2,4,0.3,0.5
2025-04-12T1000,3478A,113.9749,33.5664,漯河市,市图书馆,颗粒物(PM10),417,517,421,87,94,89,,95,95,8,13,2,5,0.4,0.5
2025-04-12T1000,4250A,114.0892,33.5882,漯河市,韶山路11号,颗粒物(PM10),433,533,420,87,87,90,,96,96,7,12,3,3,0.3,0.5
2025-04-12T1000,1798A,118.5092,31.6837,马鞍山市,湖东路四小,细颗粒物(PM2.5),73,91,66,53,33,65,,90,82,25,17,21,9,2.0,0.9
2025-04-12T1000,1799A,118.5024,31.6449,马鞍山市,开发区,细颗粒物(PM2.5),78,90,70,57,48,79,,92,88,13,21,7,9,0.6,0.9
2025-04-12T1000,1802A,118.6245,31.7241,马鞍山市,濮塘,颗粒物(PM10),120,189,70,,38,83,,85,82,6,8,7,8,0.4,0.5
2025-04-12T1000,3633A,118.4918,31.6809,马鞍山市,雨山,细颗粒物(PM2.5),93,96,66,69,31,72,,84,76,15,19,18,10,1.1,1.2
2025-04-12T1000,4191A,118.5274,31.72227,马鞍山市,慈湖高新区,颗粒物(PM10),113,176,74,60,37,70,,78,75,20,20,16,8,0.7,0.7
2025-04-12T1000,1686A,111.0286,21.4688,茂名市,电白南海,,35,34,32,24,22,23,,25,24,8,9,1,1,0.6,0.6
2025-04-12T1000,1687A,110.9294,21.6533,茂名市,茂石化七小,,46,46,33,27,15,19,,28,26,17,9,4,2,0.9,0.8
2025-04-12T1000,1688A,110.9107,21.6687,茂名市,健康路,,46,46,33,24,17,23,,30,27,12,7,6,3,0.7,0.6
2025-04-12T1000,1689A,110.8592,21.6828,茂名市,高岭,,48,48,40,14,13,19,,25,22,13,9,12,5,0.6,0.6
2025-04-12T1000,3450A,111.01,21.5165,茂名市,电白水东,,24,24,23,12,10,27,,29,28,12,12,1,1,0.7,0.7
2025-04-12T1000,2539A,104.0308,30.0478,眉山市,黑龙滩水库,颗粒物(PM10),123,195,61,42,22,57,,65,63,9,10,3,2,0.2,0.4
2025-04-12T1000,2540A,103.8416,30.0874,眉山市,气象局,颗粒物(PM10),139,227,79,73,35,63,,70,66,20,20,1,4,0.4,0.5
2025-04-12T1000,3137A,103.8578,30.0744,眉山市,市委党校,颗粒物(PM10),144,237,86,80,32,63,,72,70,21,19,5,8,0.5,0.7
2025-04-12T1000,3148A,103.8291,30.0564,眉山市,区人社局,细颗粒物(PM2.5),113,143,61,85,32,58,,76,71,25,25,4,8,0.5,0.6
2025-04-12T1000,1690A,116.1231,24.3284,梅州市,梅江月梅,,35,32,38,24,29,30,,20,20,16,15,4,5,0.6,0.6
2025-04-12T1000,1691A,116.0797,24.2719,梅州市,梅县新城,,44,44,43,27,28,25,,24,24,21,21,6,6,0.4,0.5
2025-04-12T1000,1692A,116.1248,24.2654,梅州市,环境监控中心,,38,38,39,23,29,18,,16,16,26,23,8,7,0.6,0.6
2025-04-12T1000,3315A,116.1233,24.2991,梅州市,梅龙,,36,36,38,21,28,24,,22,17,20,15,6,7,0.7,0.6
2025-04-12T1000,1878A,104.7778,31.4741,绵阳市,富乐山,颗粒物(PM10),138,225,185,58,42,59,,78,70,19,9,7,7,0.4,0.3
2025-04-12T1000,1880A,104.6697,31.4668,绵阳市,高新区自来水公司,颗粒物(PM10),79,108,111,34,33,61,,82,73,19,14,3,3,0.4,0.4
2025-04-12T1000,1881A,104.7287,31.5075,绵阳市,三水厂,颗粒物(PM10),127,204,192,56,43,56,,80,69,24,12,6,6,0.5,0.5
2025-04-12T1000,3491A,104.69,31.5322,绵阳市,西科大附属小学,颗粒物(PM10),115,179,143,36,30,66,,81,72,17,14,8,6,0.5,0.4
2025-04-12T1000,3492A,104.5648,31.5343,绵阳市,安州区旅游局,颗粒物(PM10),79,107,58,29,15,53,,68,61,19,11,10,9,0.2,0.2
2025-04-12T1000,4226A,104.7651,31.4531,绵阳市,绵阳市气象局,颗粒物(PM10),91,132,184,37,44,58,,82,73,21,9,3,4,0.2,0.2
2025-04-12T1000,1784A,129.61,44.561,牡丹江市,环保大楼,颗粒物(PM10),63,76,81,3,53,101,,41,41,22,39,8,9,0.5,0.7
2025-04-12T1000,1785A,129.6115,44.5782,牡丹江市,文化广场,颗粒物(PM10),66,82,113,32,75,92,,43,43,30,42,13,15,0.7,1
2025-04-12T1000,1786A,129.5904,44.5963,牡丹江市,第一医院,细颗粒物(PM2.5),80,97,91,59,66,92,,54,54,36,33,11,11,0.7,0.7
2025-04-12T1000,1787A,129.6364,44.6075,牡丹江市,机车工厂,颗粒物(PM10),99,147,117,38,73,95,,36,36,35,38,12,48,0.7,0.8
2025-04-12T1000,1788A,129.6386,44.5462,牡丹江市,第一中学,颗粒物(PM10),63,76,78,36,51,108,,47,47,17,32,12,10,0.6,0.7
2025-04-12T1000,2531A,105.0703,29.61,内江市,市监测站,颗粒物(PM10),399,499,111,144,42,51,,69,67,30,9,7,5,0.4,0.6
2025-04-12T1000,2532A,105.0717,29.5947,内江市,东兴区政府,颗粒物(PM10),456,556,97,140,31,54,,67,65,34,13,2,5,0.3,0.4
2025-04-12T1000,2533A,105.0653,29.5817,内江市,内江二中,颗粒物(PM10),434,534,107,113,32,49,,66,64,39,14,5,6,0.4,0.4
2025-04-12T1000,2534A,105.0406,29.5822,内江市,内江日报社,颗粒物(PM10),500,636,123,121,35,58,,69,67,26,11,3,6,0.3,0.3
2025-04-12T1000,2628A,92.0657,31.4846,那曲市,那曲监测站,,40,40,22,24,14,90,,85,85,14,15,7,6,0.5,0.5
2025-04-12T1000,4243A,92.0515,31.4787,那曲市,那曲市委宣传部,,39,39,27,23,19,95,,91,91,6,12,6,6,0.3,0.4
2025-04-12T1000,1290A,115.8931,28.6843,南昌市,省外办,颗粒物(PM10),153,255,50,58,27,74,,76,76,14,15,5,6,0.4,0.6
2025-04-12T1000,1291A,115.8886,28.7003,南昌市,省林业公司,颗粒物(PM10),223,366,52,68,26,75,,76,76,4,9,7,8,0.3,0.5
2025-04-12T1000,1292A,115.8126,28.7442,南昌市,林科所,颗粒物(PM10),230,371,54,66,22,85,,91,91,2,5,6,8,0.3,0.7
2025-04-12T1000,1294A,115.8518,28.687,南昌市,建工学校,颗粒物(PM10),164,277,51,59,20,84,,84,84,3,9,2,3,0.5,0.7
2025-04-12T1000,1295A,115.8921,28.6424,南昌市,象湖,颗粒物(PM10),121,192,43,58,24,90,,93,93,4,8,6,7,0.4,0.6
2025-04-12T1000,1296A,115.7423,28.7996,南昌市,武术学校,颗粒物(PM10),157,264,41,22,23,81,,85,85,2,4,11,13,0.5,0.8
2025-04-12T1000,3046A,115.9084,28.6062,南昌市,机电学校,颗粒物(PM10),222,365,58,66,25,81,,81,81,8,8,2,2,0.4,0.6
2025-04-12T1000,3690A,115.9721,28.7031,南昌市,外国语学校,颗粒物(PM10),218,362,53,39,24,78,,82,82,12,12,3,4,0,0.2
2025-04-12T1000,4192A,115.9316,28.68677,南昌市,南京东路235号,颗粒物(PM10),123,195,52,59,24,85,,89,89,11,14,7,9,0.3,0.6
2025-04-12T1000,1905A,106.056,30.8064,南充市,西山风景区,颗粒物(PM10),500,1129,349,322,96,76,,88,85,9,6,3,3,0.2,0.3
2025-04-12T1000,1906A,106.0789,30.8023,南充市,南充市委,颗粒物(PM10),500,1531,371,330,84,69,,80,76,19,17,3,3,0.3,0.5
2025-04-12T1000,1907A,106.1031,30.8217,南充市,南充炼油厂,颗粒物(PM10),500,1471,472,384,121,62,,78,74,18,11,3,3,0.4,0.4
2025-04-12T1000,4227A,106.1083,30.7884,南充市,梨树横街98号,颗粒物(PM10),500,1556,380,241,72,74,,81,78,13,11,5,5,0.2,0.2
2025-04-12T1000,4304A,106.1172,30.843,南充市,清泉寺北路188号,颗粒物(PM10),500,1460,444,312,109,72,,84,81,12,8,3,3,0.1,0.2
2025-04-12T1000,4305A,106.067,30.7616,南充市,同庆路1号,颗粒物(PM10),500,1418,440,312,95,55,,76,71,27,18,3,3,0.2,0.3
2025-04-12T1000,1151A,118.8086,32.1065,南京市,迈皋桥,颗粒物(PM10),500,719,113,136,56,63,,62,62,18,43,4,5,0.4,0.5
2025-04-12T1000,1152A,118.7538,32.0551,南京市,草场门,颗粒物(PM10),500,627,100,80,43,70,,76,72,16,25,4,6,0.6,0.8
2025-04-12T1000,1153A,118.7794,32.0745,南京市,山西路,颗粒物(PM10),500,859,123,92,52,68,,77,70,19,25,3,5,0.2,0.5
2025-04-12T1000,1154A,118.7752,32.0023,南京市,中华门,颗粒物(PM10),392,493,96,68,44,61,,64,63,12,22,9,11,0.4,0.5
2025-04-12T1000,1155A,118.8109,32.0309,南京市,瑞金路,颗粒物(PM10),385,488,108,75,48,63,,60,60,6,15,7,6,0.2,0.3
2025-04-12T1000,1156A,118.7997,32.0754,南京市,玄武湖,细颗粒物(PM2.5),118,97,88,89,46,57,,51,50,18,22,8,9,0.4,0.7
2025-04-12T1000,1157A,118.6414,32.0931,南京市,浦口,细颗粒物(PM2.5),144,163,77,110,40,71,,84,82,15,28,5,7,0.3,0.6
2025-04-12T1000,1158A,118.7356,31.9996,南京市,奥体中心,颗粒物(PM10),208,355,100,58,48,63,,74,68,18,25,7,8,0.3,0.5
2025-04-12T1000,1159A,118.9125,32.1028,南京市,仙林大学城,颗粒物(PM10),500,849,120,136,54,64,,58,58,13,26,10,12,0.7,1
2025-04-12T1000,3422A,118.8436,31.9198,南京市,江宁彩虹桥,,36,36,71,24,42,75,,75,74,9,18,4,4,0.5,0.7
2025-04-12T1000,3427A,118.8554,32.3578,南京市,六合雄州,细颗粒物(PM2.5),234,332,114,184,62,,,61,61,4,22,3,8,0.4,0.8
2025-04-12T1000,4249A,118.8708,31.3402,南京市,汶溪路181号,,49,49,54,18,34,95,,96,90,14,19,2,4,0.7,0.8
2025-04-12T1000,4312A,119.019,31.6512,南京市,中山西路1号,,29,29,60,13,35,84,,87,81,14,18,3,6,0.5,0.7
2025-04-12T1000,1401A,108.3103,22.7881,南宁市,二十一中,颗粒物(PM10),51,51,43,33,27,60,,66,62,27,14,5,4,0.9,0.8
2025-04-12T1000,1402A,108.3141,22.8528,南宁市,北湖,细颗粒物(PM2.5),52,41,44,36,30,59,,67,60,30,16,7,6,1.1,1
2025-04-12T1000,1403A,108.3206,22.8225,南宁市,市监测站,颗粒物(PM10),51,52,41,27,26,60,,66,61,26,14,6,4,0.6,0.6
2025-04-12T1000,1404A,108.3829,22.8037,南宁市,大自然花园,颗粒物(PM10),51,52,37,31,27,64,,72,65,26,9,6,5,0.7,0.7
2025-04-12T1000,1405A,108.4394,22.7904,南宁市,仙葫,颗粒物(PM10),53,55,39,36,27,66,,61,55,16,11,7,5,0.8,0.8
2025-04-12T1000,1406A,108.2397,22.8467,南宁市,区农职院,颗粒物(PM10),58,65,44,34,27,53,,51,46,28,17,5,3,0.9,0.9
2025-04-12T1000,1407A,108.3275,22.735,南宁市,英华嘉园,颗粒物(PM10),60,69,41,33,27,62,,49,45,33,20,7,7,0.7,0.7
2025-04-12T1000,3401A,108.4834,22.7618,南宁市,红星社区,细颗粒物(PM2.5),58,44,39,41,30,78,,69,62,16,9,14,8,1.0,1
2025-04-12T1000,4221A,108.2177,22.7774,南宁市,乐贤路16号,细颗粒物(PM2.5),55,56,50,39,30,61,,28,28,21,27,15,8,0.9,0.8
2025-04-12T1000,2331A,118.0966,26.6761,南平市,茫荡山,,,,,,,,,,,,,,,,
2025-04-12T1000,2332A,118.1681,26.6369,南平市,南平市监测站,,42,38,32,29,24,13,,16,12,19,14,4,3,1.1,0.9
2025-04-12T1000,2333A,118.1825,26.6489,南平市,南平铝业有限公司,,45,45,35,30,22,8,,13,9,28,18,3,3,1.1,0.8
2025-04-12T1000,2334A,118.1756,26.6272,南平市,南平七中,,,39,32,28,21,12,,17,15,16,10,,4,,0.8
2025-04-12T1000,1168A,120.9098,31.9663,南通市,狼山街道,,35,14,60,9,28,112,,83,83,9,36,5,9,0.7,0.9
2025-04-12T1000,1169A,120.86,32.0005,南通市,虹桥,,35,22,67,9,38,110,,90,90,8,34,5,8,0.4,0.7
2025-04-12T1000,1170A,120.87,32.02,南通市,城中,,,18,66,10,32,,,89,89,8,31,6,9,0.7,0.9
2025-04-12T1000,1171A,120.94,31.93,南通市,星湖花园,,34,11,52,8,29,108,,86,86,8,32,6,10,0.6,0.7
2025-04-12T1000,1172A,120.81,32.0417,南通市,紫琅学院,,28,28,59,19,34,83,,82,82,15,39,4,6,0.7,0.8
2025-04-12T1000,3291A,121.067,32.062,南通市,通州监测站,,35,9,49,3,24,111,,87,87,7,18,4,6,0.4,0.6
2025-04-12T1000,3432A,120.9348,31.9883,南通市,环境教育馆,,38,12,59,3,33,119,,94,94,7,27,5,8,0.3,0.5
2025-04-12T1000,2404A,112.5224,33.0122,南阳市,瓦房庄,颗粒物(PM10),177,304,417,50,80,107,,99,99,10,15,2,4,0.4,0.5
2025-04-12T1000,2405A,112.5003,32.9735,南阳市,汉画馆,颗粒物(PM10),155,259,381,51,88,,,92,92,12,20,2,4,0.2,0.5
2025-04-12T1000,2406A,112.5573,33.027,南阳市,气象站,颗粒物(PM10),213,359,500,46,94,99,,91,91,9,16,1,3,0.2,0.5
2025-04-12T1000,2407A,112.5481,32.9689,南阳市,理工学院,颗粒物(PM10),173,295,419,56,86,105,,97,97,11,17,1,3,0.2,0.5
2025-04-12T1000,4008A,112.5234,32.9922,南阳市,卧龙区政府,颗粒物(PM10),178,305,408,48,80,106,,97,97,8,15,2,4,0.4,0.6
2025-04-12T1000,1234A,121.8358,29.911,宁波市,区环保大楼,,30,30,43,12,12,64,,83,79,14,22,7,8,0.8,0.7
2025-04-12T1000,1235A,121.56,29.82,宁波市,万里学院,,30,29,37,21,18,56,,88,77,17,9,6,6,0.7,0.6
2025-04-12T1000,1236A,121.713,29.9572,宁波市,龙赛医院,,40,40,34,14,19,58,,96,85,21,9,8,8,0.7,0.5
2025-04-12T1000,1239A,121.633,29.7733,宁波市,钱湖水厂,,25,25,27,16,14,58,,86,75,16,9,8,8,0.8,0.6
2025-04-12T1000,1240A,121.5856,29.8635,宁波市,太古小学,,36,36,36,16,16,57,,86,77,20,10,8,8,0.8,0.6
2025-04-12T1000,1241A,121.524,29.8674,宁波市,市环境监测中心,,33,33,32,13,16,49,,83,70,29,18,8,9,0.7,0.6
2025-04-12T1000,2871A,121.6147,29.9017,宁波市,万里国际学校,,34,34,39,16,15,59,,88,78,13,6,8,8,0.7,0.5
2025-04-12T1000,3710A,121.5594,29.8975,宁波市,白沙活动中心,,20,20,31,14,14,55,,88,77,17,8,7,7,0.7,0.5
2025-04-12T1000,2339A,119.5001,26.6946,宁德市,金涵水库,,,,,,,,,,,,,,,,
2025-04-12T1000,2341A,119.5388,26.6612,宁德市,宁德市监测站,细颗粒物(PM2.5),57,55,38,40,35,39,,72,61,24,16,4,5,1.1,0.9
2025-04-12T1000,3209A,119.5231,26.6562,宁德市,宁德一中,细颗粒物(PM2.5),67,60,40,48,40,48,,73,65,20,11,6,7,0.9,0.7
2025-04-12T1000,2618A,98.8601,25.8567,怒江傈僳族自治州,州监测站,,,,,,,,,,,,,,,,
2025-04-12T1000,2619A,98.8546,25.8417,怒江傈僳族自治州,泸水一中,细颗粒物(PM2.5),60,48,47,43,41,22,,17,15,21,21,7,7,0.6,0.6
2025-04-12T1000,1888A,101.6891,26.571,攀枝花市,弄弄坪,颗粒物(PM10),59,68,47,28,23,56,,79,67,34,21,15,15,0.8,1.2
2025-04-12T1000,1889A,101.5769,26.5928,攀枝花市,河门口,颗粒物(PM10),53,56,38,34,22,76,,69,64,18,9,35,16,1.6,0.8
2025-04-12T1000,1890A,101.7169,26.585,攀枝花市,炳草岗,颗粒物(PM10),62,74,43,39,25,62,,64,55,35,21,25,13,0.6,0.5
2025-04-12T1000,1891A,101.7369,26.5008,攀枝花市,仁和,,50,49,42,35,22,67,,71,62,21,13,10,8,0.6,0.5
2025-04-12T1000,2835A,101.7227,26.567,攀枝花市,四十中小,,49,49,39,30,25,65,,79,69,30,13,14,7,0.8,0.6
2025-04-12T1000,1604A,122.0303,41.1489,盘锦市,开发区,,,,51,,22,,,130,,,13,,9,,0.5
2025-04-12T1000,1605A,122.0485,41.0883,盘锦市,兴隆台,颗粒物(PM10),58,66,52,20,24,83,,94,90,11,17,7,9,0.4,0.5
2025-04-12T1000,1606A,121.8297,41.1028,盘锦市,新生街道,颗粒物(PM10),77,104,40,27,23,83,,91,88,21,19,14,15,0.3,0.4
2025-04-12T1000,1832A,113.3257,33.742,平顶山市,新华旅馆,颗粒物(PM10),286,410,576,40,69,110,,123,123,6,13,4,5,0.2,0.5
2025-04-12T1000,1833A,113.2919,33.737,平顶山市,规划设计院,颗粒物(PM10),276,403,508,82,108,95,,101,101,2,11,4,4,0.2,0.5
2025-04-12T1000,1834A,113.182,33.774,平顶山市,平顶山工学院,颗粒物(PM10),252,386,520,70,113,96,,102,102,2,9,7,6,0.3,0.5
2025-04-12T1000,3204A,113.3025,33.73,平顶山市,规划局,颗粒物(PM10),355,464,588,132,105,94,,101,101,2,11,4,5,0.2,0.4
2025-04-12T1000,3594A,112.8867,33.9116,平顶山市,石龙区,颗粒物(PM10),409,509,879,57,100,91,,100,100,6,10,4,6,0.4,0.3
2025-04-12T1000,2656A,106.6692,35.5461,平凉市,聚贤嘉苑,颗粒物(PM10),499,599,1498,113,221,79,,92,88,8,6,9,10,0.6,0.5
2025-04-12T1000,2657A,106.7021,35.5307,平凉市,博物馆,颗粒物(PM10),497,597,1422,112,222,80,,89,85,5,4,8,9,0.3,0.3
2025-04-12T1000,2347A,114.0997,27.5002,萍乡市,武功山,,24,,20,14,21,75,,65,63,8,6,13,16,0.7,0.7
2025-04-12T1000,2348A,113.8385,27.6434,萍乡市,中医院,,,,42,86,25,85,,70,70,7,6,7,10,0.4,0.8
2025-04-12T1000,2349A,113.8493,27.6253,萍乡市,市政府车库,颗粒物(PM10),293,415,47,67,31,89,,73,73,6,8,4,6,0.3,0.8
2025-04-12T1000,2350A,113.8676,27.6435,萍乡市,市环保局,颗粒物(PM10),99,148,42,23,27,82,,76,76,21,5,3,6,0.4,0.7
2025-04-12T1000,2351A,113.866,27.6198,萍乡市,安源区政府,细颗粒物(PM2.5),93,112,42,69,26,83,,60,60,9,10,9,14,0.2,0.6
2025-04-12T1000,2319A,119.0141,25.4325,莆田市,荔城区仓后路,颗粒物(PM10),53,55,49,11,29,34,,25,25,14,20,2,3,0.6,0.8
2025-04-12T1000,2320A,119.0015,25.4553,莆田市,莆田市监测站,,42,42,46,20,29,23,,24,22,16,16,4,5,0.6,0.6
2025-04-12T1000,2321A,119.1119,25.4561,莆田市,涵江区六中,,,,41,,29,25,,32,31,22,19,,4,0.5,0.7
2025-04-12T1000,2322A,119.1013,25.3215,莆田市,秀屿区政府,,26,26,31,14,25,35,,38,37,12,13,6,7,0.5,0.6
2025-04-12T1000,2323A,118.981,25.4792,莆田市,东圳水库,,,,,,,,,,,,,,,,
2025-04-12T1000,2392A,115.0312,35.7636,濮阳市,环保局,颗粒物(PM10),252,386,359,61,73,82,,87,87,8,15,5,8,0.9,0.8
2025-04-12T1000,2394A,115.0574,35.7609,濮阳市,油田运输公司,颗粒物(PM10),246,382,375,47,73,89,,96,96,11,16,3,7,0.4,0.7
2025-04-12T1000,3021A,115,35.7668,濮阳市,濮水河管理处,颗粒物(PM10),289,412,412,57,80,86,,92,92,6,14,3,6,0.5,0.8
2025-04-12T1000,4216A,115.0924,35.7686,濮阳市,任丘路479号,颗粒物(PM10),323,438,408,54,80,93,,99,99,12,14,4,7,0.2,0.8
2025-04-12T1000,2601A,100.98,22.7633,普洱市,市环保局,颗粒物(PM10),74,97,69,28,28,14,,37,31,41,16,3,3,1.0,0.7
2025-04-12T1000,2602A,100.9817,22.8322,普洱市,普洱第二中学,颗粒物(PM10),52,54,49,33,33,17,,15,14,44,26,7,7,0.7,0.6
2025-04-12T1000,2262A,131.0518,45.8751,七台河市,新一中,细颗粒物(PM2.5),60,54,103,43,72,111,,87,87,21,23,16,15,1.1,1.4
2025-04-12T1000,3345A,131.0577,45.7879,七台河市,中波台,颗粒物(PM10),61,72,130,30,93,88,,57,57,20,32,7,10,0.5,0.8
2025-04-12T1000,3637A,131.0176,45.7761,七台河市,人民广场,颗粒物(PM10),74,97,161,36,106,94,,62,62,21,34,10,13,0.9,1.2
2025-04-12T1000,3684A,130.8781,45.8222,七台河市,新建矿广场,颗粒物(PM10),91,132,215,41,117,90,,42,42,30,42,19,16,0.7,1.2
2025-04-12T1000,1779A,123.9305,47.3636,齐齐哈尔市,安居小区,,22,11,60,10,21,69,,66,66,10,12,3,4,0.2,0.3
2025-04-12T1000,1780A,123.9488,47.3386,齐齐哈尔市,中心广场,,20,17,66,3,24,61,,62,62,12,12,5,6,0.3,0.4
2025-04-12T1000,1781A,123.9483,47.3227,齐齐哈尔市,农牧车辆厂,,21,19,56,3,21,65,,64,64,11,10,4,5,0.2,0.2
2025-04-12T1000,1783A,123.945,47.2988,齐齐哈尔市,市环境监测站,,21,19,64,12,26,67,,65,65,9,10,1,2,0.3,0.4
2025-04-12T1000,3662A,123.6333,47.2075,齐齐哈尔市,富区青少年活动中心,,23,,65,7,31,72,,66,66,5,9,2,3,0.4,0.4
2025-04-12T1000,2591A,107.9783,26.5747,黔东南苗族侗族自治州,市环境监测站,,31,23,37,16,30,98,,90,90,7,6,2,2,0.3,0.5
2025-04-12T1000,2881A,107.8908,26.5311,黔东南苗族侗族自治州,凯里学院,,,22,33,19,32,96,,88,86,,2,1,1,0.3,0.5
2025-04-12T1000,2593A,107.5228,26.2403,黔南布依族苗族自治州,小围寨,,,19,33,12,23,,,69,69,4,5,3,5,0.4,0.5
2025-04-12T1000,3538A,107.5175,26.2978,黔南布依族苗族自治州,沙坝,,32,22,35,14,22,101,,76,76,6,7,3,4,0.2,0.6
2025-04-12T1000,2589A,104.9022,25.0925,黔西南布依族苗族自治州,场坝街,,33,33,36,16,23,89,,70,69,12,10,2,5,0.2,0.4
2025-04-12T1000,2590A,104.8811,25.0992,黔西南布依族苗族自治州,坪东大道,,29,24,29,10,19,92,,65,65,8,12,2,3,0.2,0.3
2025-04-12T1000,2502A,108.6236,21.9667,钦州市,市环保站,,34,34,42,12,24,58,,68,66,8,18,8,9,0.5,0.8
2025-04-12T1000,2503A,108.6549,21.9481,钦州市,沙埠小学,,44,44,46,16,24,55,,67,66,7,15,5,6,0.8,1
2025-04-12T1000,2504A,108.5989,21.7431,钦州市,港区一小,颗粒物(PM10),53,55,57,16,24,41,,51,47,19,27,11,9,0.6,0.8
2025-04-12T1000,3404A,108.5959,21.9633,钦州市,北职校,,38,38,46,15,30,58,,68,66,9,18,6,7,0.6,0.8
2025-04-12T1000,1043A,119.7493,40.0116,秦皇岛市,第一关,颗粒物(PM10),205,353,125,39,39,65,,66,61,18,31,4,5,0.3,0.3
2025-04-12T1000,1044A,119.5897,39.9499,秦皇岛市,监测站,颗粒物(PM10),105,160,106,26,33,74,,80,72,7,19,3,4,0.3,0.4
2025-04-12T1000,1046A,119.5251,39.9041,秦皇岛市,建设大厦,颗粒物(PM10),118,186,117,22,35,74,,76,68,16,26,2,3,0.2,0.3
2025-04-12T1000,3132A,119.610547,39.943889,秦皇岛市,文明里,颗粒物(PM10),133,216,119,20,30,69,,76,68,10,19,3,4,0.2,0.3
2025-04-12T1000,4198A,119.5090,39.8253,秦皇岛市,北戴河轮滑馆,颗粒物(PM10),77,104,133,20,29,72,,72,64,7,16,6,6,0.2,0.3
2025-04-12T1000,1307A,120.6659,36.2403,青岛市,仰口,颗粒物(PM10),86,121,121,23,34,80,,108,98,6,9,5,5,0.5,0.6
2025-04-12T1000,1310A,120.4134,36.0658,青岛市,市南区东部子站,颗粒物(PM10),87,124,122,9,26,72,,85,80,11,14,7,8,0.5,0.4
2025-04-12T1000,1311A,120.3664,36.1032,青岛市,四方区子站,颗粒物(PM10),81,112,107,12,27,79,,90,84,9,14,5,6,0.4,0.5
2025-04-12T1000,1312A,120.2994,36.054,青岛市,市南区西部子站,颗粒物(PM10),93,136,115,7,24,75,,80,77,11,23,7,7,0.5,0.7
2025-04-12T1000,1313A,120.4581,36.0858,青岛市,崂山区子站,颗粒物(PM10),86,122,109,3,23,76,,92,86,8,13,7,8,0.4,0.4
2025-04-12T1000,1315A,120.3999,36.3083,青岛市,城阳区子站,颗粒物(PM10),82,114,112,7,26,76,,84,78,11,16,8,9,0.5,0.6
2025-04-12T1000,1966A,120.0405,35.8735,青岛市,黄岛区4号,颗粒物(PM10),115,180,135,12,24,72,,93,86,12,17,7,8,0.5,0.7
2025-04-12T1000,3362A,120.5014,36.4034,青岛市,即墨2号,颗粒物(PM10),97,144,120,11,23,68,,92,80,11,14,7,8,0.4,0.5
2025-04-12T1000,3642A,120.3503,36.0736,青岛市,市北区南部,颗粒物(PM10),202,351,78,12,26,75,,68,68,17,12,6,6,0.3,0.6
2025-04-12T1000,3643A,120.3948,36.1805,青岛市,李沧区北部,颗粒物(PM10),82,114,112,12,32,69,,81,75,12,19,8,8,0.5,0.6
2025-04-12T1000,4290A,120.1969,35.9546,青岛市,珠江路669号,颗粒物(PM10),107,163,156,22,33,75,,96,88,14,15,6,6,0.5,0.6
2025-04-12T1000,1702A,113.0426,23.691,清远市,环保大楼,,32,32,45,18,24,21,,17,17,12,22,7,8,0.8,0.9
2025-04-12T1000,1703A,113.0208,23.7106,清远市,凤城街办,,40,40,45,20,22,15,,14,14,28,34,5,6,0.6,0.6
2025-04-12T1000,3025A,113.0477,23.6344,清远市,技师学院,,35,35,41,18,20,18,,14,14,26,29,6,6,0.3,0.4
2025-04-12T1000,3318A,112.9903,23.7403,清远市,清新太和,,44,44,43,25,22,11,,14,14,31,32,7,6,0.5,0.6
2025-04-12T1000,3455A,113.076,23.7198,清远市,清城东城,,38,38,51,21,24,19,,15,15,21,30,6,7,0.8,0.8
2025-04-12T1000,2661A,107.6325,35.7357,庆阳市,庆阳五中,颗粒物(PM10),174,298,960,59,205,85,,90,85,3,3,1,1,0.2,0.2
2025-04-12T1000,2662A,107.6364,35.7067,庆阳市,市环保局,颗粒物(PM10),167,284,922,63,201,87,,92,87,1,3,2,3,0.2,0.1
2025-04-12T1000,1916A,103.7897,25.5035,曲靖市,环境监测站,,37,37,56,7,22,80,,58,58,12,14,5,7,0.2,0.4
2025-04-12T1000,1917A,103.8,25.5364,曲靖市,烟厂办公区,,30,20,47,11,22,94,,72,72,7,11,3,7,0.4,0.5
2025-04-12T1000,3376A,103.7947,25.462,曲靖市,南苑二区,,25,11,42,6,23,80,,62,62,13,12,8,6,0.6,0.6
2025-04-12T1000,3377A,103.7444,25.5261,曲靖市,曲靖师范学院,,29,22,51,3,29,90,,66,66,9,13,5,18,0.3,0.5
2025-04-12T1000,1264A,118.8692,28.9398,衢州市,环保大楼,,22,6,44,3,23,69,,77,76,14,18,2,4,0.6,0.6
2025-04-12T1000,1265A,118.8709,28.9666,衢州市,实验学校,,19,6,39,3,20,58,,72,70,19,19,3,4,0.5,0.5
2025-04-12T1000,1266A,118.8621,28.9808,衢州市,衢州学院,,16,6,35,3,19,50,,72,70,25,22,5,5,0.6,0.5
2025-04-12T1000,1611A,118.5819,24.9117,泉州市,涂山街,,36,36,32,22,23,27,,38,37,26,21,4,4,0.6,0.7
2025-04-12T1000,1612A,118.5972,24.8978,泉州市,津头埔,,29,28,30,20,23,25,,39,36,26,20,3,3,0.5,0.6
2025-04-12T1000,1613A,118.6663,24.9424,泉州市,万安,,25,25,30,16,21,29,,39,36,20,16,3,3,0.5,0.6
2025-04-12T1000,1614A,118.6117,24.9604,泉州市,清源山,,,,,,,,,,,,,,,,
2025-04-12T1000,3529A,118.6333,24.9264,泉州市,城华南路,,23,21,28,16,20,27,,34,34,18,17,3,3,0.5,0.6
