timepoint,stationcode,longitude,latitude,area,positionname,primarypollutant,aqi,pm10,pm10_24h,pm2_5,pm2_5_24h,o3,o3_24h,o3_8h,o3_8h_24h,no2,no2_24h,so2,so2_24h,co,co_24h
2025-04-12T1100,2566A,102.1879,31.914,阿坝藏族羌族自治州,州农科所,,30,21,18,11,9,95,,77,77,6,8,11,12,0.4,0.4
2025-04-12T1100,2568A,102.2502,31.8896,阿坝藏族羌族自治州,马师校,,30,13,19,12,17,95,,82,82,8,7,5,6,0.4,0.4
2025-04-12T1100,3994A,102.2165,31.9024,阿坝藏族羌族自治州,马尔康中学西区,,32,16,18,10,13,101,,90,90,6,5,4,4,0.3,0.3
2025-04-12T1100,2695A,80.292,41.1694,阿克苏地区,电视台,颗粒物(PM10),119,188,408,31,61,73,,90,87,16,6,8,6,0.6,0.5
2025-04-12T1100,2696A,80.2613,41.1551,阿克苏地区,艺术中心,颗粒物(PM10),111,172,405,40,64,78,,88,86,14,8,4,4,0.6,0.6
2025-04-12T1100,2204A,105.6467,38.8363,阿拉善盟,西城区西花园,颗粒物(PM10),52,54,1256,15,290,100,,92,92,6,6,19,18,0.7,0.7
2025-04-12T1100,2205A,105.6985,38.8411,阿拉善盟,蒙二幼,颗粒物(PM10),52,54,1351,17,303,90,,85,85,5,6,5,6,0.4,0.4
2025-04-12T1100,2206A,105.724,38.8516,阿拉善盟,环保局新楼,颗粒物(PM10),59,67,1087,21,281,95,,91,91,3,2,8,8,0.4,0.4
2025-04-12T1100,2708A,88.1264,47.8517,阿勒泰地区,市站,,33,,10,10,5,103,,103,103,3,6,2,2,0.2,0.2
2025-04-12T1100,2630A,80.1161,32.5,阿里地区,阿里监测站,,31,25,14,10,9,97,,101,92,7,6,8,8,0.6,0.5
2025-04-12T1100,3192A,80.0903,32.5028,阿里地区,阿里藏医院,,33,33,19,16,8,85,,101,91,12,3,9,7,0.5,0.4
2025-04-12T1100,2642A,109.0318,32.6537,安康市,香溪洞,颗粒物(PM10),390,492,342,90,73,94,,95,95,3,9,6,6,0.3,0.4
2025-04-12T1100,2644A,109.0072,32.6975,安康市,汉滨区检察院,颗粒物(PM10),373,478,300,114,66,93,,92,92,3,14,7,10,0.2,0.4
2025-04-12T1100,4054A,109.0325,32.6913,安康市,市邮政管理局,颗粒物(PM10),390,492,313,79,73,96,,95,95,3,15,5,7,0.3,0.4
2025-04-12T1100,2291A,117.0809,30.5177,安庆市,环科院,,,,83,,19,94,,110,103,10,10,7,7,0.3,0.7
2025-04-12T1100,2292A,117.0331,30.5119,安庆市,马山宾馆,颗粒物(PM10),500,1122,120,135,32,95,,110,103,6,9,3,5,0.3,0.7
2025-04-12T1100,2294A,116.9896,30.6145,安庆市,安庆大学,颗粒物(PM10),500,1206,146,129,33,103,,113,107,1,5,2,3,0.1,0.4
2025-04-12T1100,3173A,117.0598,30.5351,安庆市,市人大,,,,49,,26,,,98,,,14,,8,,0.7
2025-04-12T1100,3122A,105.9606,26.2611,安顺市,伍家关,,30,13,50,10,30,93,,102,93,4,4,1,4,0.3,0.6
2025-04-12T1100,3123A,105.9408,26.2431,安顺市,凤凰山,,27,24,44,8,29,86,,103,91,6,8,6,7,0.3,0.5
2025-04-12T1100,3124A,105.9439,26.2564,安顺市,金钟山,,26,23,42,7,30,81,,98,85,6,8,7,6,0.4,0.7
2025-04-12T1100,3125A,105.8983,26.2481,安顺市,娄家坡,,26,23,39,11,30,82,,103,88,10,9,4,6,0.4,0.6
2025-04-12T1100,1818A,114.4839,36.0621,安阳市,棉研所,,,,,,,,,,,,,,,,
2025-04-12T1100,1819A,114.3551,36.1017,安阳市,红庙街,颗粒物(PM10),151,251,422,45,94,76,,79,77,2,9,2,7,0.3,0.7
2025-04-12T1100,1820A,114.361,36.0681,安阳市,银杏小区,颗粒物(PM10),183,316,488,66,101,84,,88,86,4,12,4,8,0.0,0.3
2025-04-12T1100,3141A,114.3922,36.0878,安阳市,信访局,颗粒物(PM10),175,299,469,24,73,88,,92,89,2,12,2,4,0.0,0.4
2025-04-12T1100,3669A,114.4705,36.0637,安阳市,左辅环卫站,颗粒物(PM10),157,264,497,30,72,98,,102,100,8,17,2,6,0.3,0.5
2025-04-12T1100,3703A,114.2917,36.0949,安阳市,安钢职工学校,颗粒物(PM10),141,231,498,57,101,80,,85,83,2,13,1,6,0.5,0.6
2025-04-12T1100,1748A,123.044,41.1196,鞍山市,深沟寺,,28,23,31,12,13,88,,118,113,28,11,11,10,1.3,0.4
2025-04-12T1100,1749A,123.011,41.0931,鞍山市,太阳城,,30,13,29,7,12,95,,112,112,19,6,3,3,0.9,0.6
2025-04-12T1100,1750A,123.0485,41.1442,鞍山市,太平,细颗粒物(PM2.5),55,54,35,39,14,78,,111,106,26,9,9,8,1.4,0.6
2025-04-12T1100,1751A,122.9642,41.0971,鞍山市,铁西三道街,,29,29,41,17,15,81,,117,109,34,14,5,3,1.3,0.6
2025-04-12T1100,1753A,123.022,41.0821,鞍山市,明达新区,,32,10,27,6,13,101,,132,121,19,7,5,6,0.6,0.4
2025-04-12T1100,1754A,123.1289,41.0228,鞍山市,千山,,,,26,,9,,,127,,,6,,4,,0.7
2025-04-12T1100,4201A,122.9446,41.0826,鞍山市,兴盛南路290号,,26,19,37,9,13,83,,118,112,36,13,9,6,1.3,0.5
2025-04-12T1100,2195A,107.4212,40.761,巴彦淖尔市,附二中,,34,34,299,16,43,86,,72,72,3,3,6,6,0.3,0.3
2025-04-12T1100,2196A,107.37,40.7372,巴彦淖尔市,市环保大楼,,39,39,277,17,47,82,,67,67,4,4,6,5,0.6,0.5
2025-04-12T1100,1956A,86.1472,41.7538,巴音郭楞蒙古自治州,孔雀公园,颗粒物(PM10),57,64,58,27,15,80,,81,79,18,17,11,7,0.3,0.2
2025-04-12T1100,1957A,86.1972,41.7166,巴音郭楞蒙古自治州,棉纺厂,颗粒物(PM10),62,73,60,13,9,67,,64,61,23,18,11,6,0.4,0.2
2025-04-12T1100,1958A,86.2357,41.7173,巴音郭楞蒙古自治州,经济开发区,,41,41,55,3,6,89,,90,90,9,7,5,4,0.4,0.3
2025-04-12T1100,2914A,106.7677,31.8794,巴中市,苏山坪,颗粒物(PM10),430,530,623,132,141,99,,97,97,4,6,3,3,0.1,0.2
2025-04-12T1100,3181A,106.7768,31.8526,巴中市,市五中,颗粒物(PM10),447,547,615,124,130,93,,90,90,4,6,4,5,0.5,0.5
2025-04-12T1100,3183A,106.7418,31.8654,巴中市,圣泉水务公司,颗粒物(PM10),447,547,607,126,126,102,,98,98,1,6,1,3,0.4,0.4
2025-04-12T1100,3616A,106.7616,31.8344,巴中市,市中心医院,颗粒物(PM10),437,537,589,196,136,94,,95,94,8,10,5,6,0.3,0.4
2025-04-12T1100,2235A,122.7911,45.6077,白城市,洮北区环保局,,25,14,76,3,45,77,,65,65,7,12,4,5,0.2,0.3
2025-04-12T1100,2236A,122.8738,45.5725,白城市,市环保局,,24,,71,10,47,76,,64,64,3,8,5,6,0.4,0.6
2025-04-12T1100,2231A,126.4219,41.9171,白山市,喜丰,,48,48,80,13,30,118,,52,52,8,32,12,15,0.9,1
2025-04-12T1100,2232A,126.4077,41.9419,白山市,环保局,颗粒物(PM10),66,81,66,22,29,115,,51,51,9,21,6,7,0.8,0.9
2025-04-12T1100,2647A,104.1724,36.5446,白银市,第三小学,颗粒物(PM10),500,848,1256,218,234,68,,78,65,14,6,40,15,0.4,0.3
2025-04-12T1100,2648A,104.1465,36.5482,白银市,动力公司,颗粒物(PM10),500,815,1152,242,253,75,,82,74,13,6,43,9,0.6,0.4
2025-04-12T1100,2512A,106.6103,23.9011,百色市,市监测站,颗粒物(PM10),65,79,68,44,49,96,,63,63,14,16,9,12,0.7,0.8
2025-04-12T1100,2513A,106.6538,23.8859,百色市,市中心血站,细颗粒物(PM2.5),78,85,76,57,56,105,,63,60,17,18,7,9,0.9,0.9
2025-04-12T1100,3406A,106.6085,23.8798,百色市,祈福高中,细颗粒物(PM2.5),67,70,79,48,46,98,,48,48,14,19,6,10,0.9,0.8
2025-04-12T1100,2270A,117.396,32.939,蚌埠市,工人疗养院,颗粒物(PM10),409,509,267,69,54,79,,88,78,10,13,3,4,0.4,0.6
2025-04-12T1100,2271A,117.3605,32.9427,蚌埠市,百货大楼,颗粒物(PM10),499,599,293,75,59,78,,79,73,15,19,4,6,0.3,0.5
2025-04-12T1100,2273A,117.4185,32.8911,蚌埠市,蚌埠学院,颗粒物(PM10),488,588,208,71,55,84,,91,84,8,13,2,4,0.4,0.6
2025-04-12T1100,2274A,117.3533,32.9673,蚌埠市,淮上区政府,颗粒物(PM10),500,600,215,73,69,73,,79,71,10,16,4,6,0.3,0.5
2025-04-12T1100,2275A,117.3145,32.8977,蚌埠市,高新区,颗粒物(PM10),405,505,289,80,64,82,,90,84,14,13,4,7,0.3,0.7
2025-04-12T1100,3715A,117.3092,32.9314,蚌埠市,蚌埠田家炳中学,颗粒物(PM10),492,592,312,68,60,83,,86,81,18,18,4,7,0.2,0.4
2025-04-12T1100,1585A,109.8756,40.6532,包头市,市环境监测站,颗粒物(PM10),69,87,331,8,48,79,,74,74,3,5,10,9,0.4,0.4
2025-04-12T1100,1587A,109.9991,40.5842,包头市,包头八中,颗粒物(PM10),51,52,362,8,50,78,,74,73,4,6,9,9,0.3,0.3
2025-04-12T1100,1588A,109.8538,40.6821,包头市,青山宾馆,颗粒物(PM10),57,63,312,11,48,79,,73,73,2,3,8,8,0.3,0.4
2025-04-12T1100,1589A,109.8642,40.6288,包头市,惠龙物流,颗粒物(PM10),71,92,355,14,48,81,,76,76,4,6,6,7,0.3,0.3
2025-04-12T1100,1590A,110.0377,40.5546,包头市,东河鸿龙湾,颗粒物(PM10),54,58,317,3,40,77,,74,73,7,8,8,7,0.2,0.2
2025-04-12T1100,3283A,109.9154,40.5685,包头市,滨河大厦,颗粒物(PM10),54,58,402,8,50,79,,72,72,1,5,9,10,0.4,0.5
2025-04-12T1100,3419A,109.9447,40.6261,包头市,包头市委党校,,,,425,11,42,70,,72,70,2,3,7,6,0.4,0.4
2025-04-12T1100,3683A,109.8331,40.6576,包头市,昆区政府,颗粒物(PM10),73,96,343,13,48,78,,74,74,5,6,2,2,0.5,0.5
2025-04-12T1100,1930A,107.185,34.3063,宝鸡市,庙沟村,颗粒物(PM10),500,877,1149,247,279,90,,95,92,3,4,6,7,0.4,0.4
2025-04-12T1100,1931A,107.0708,34.3017,宝鸡市,竹园沟,颗粒物(PM10),500,1085,1286,266,274,93,,98,95,5,6,8,7,0.4,0.4
2025-04-12T1100,1932A,107.1906,34.3672,宝鸡市,三陆医院,颗粒物(PM10),500,993,1222,351,302,91,,95,92,1,5,8,5,0.3,0.4
2025-04-12T1100,1933A,107.1431,34.3547,宝鸡市,监测站,颗粒物(PM10),500,968,1370,251,290,88,,96,93,1,4,9,7,0.6,0.4
2025-04-12T1100,1934A,107.1186,34.3739,宝鸡市,技工学校,颗粒物(PM10),500,949,983,266,323,87,,92,89,3,5,5,5,0.4,0.4
2025-04-12T1100,1935A,107.3906,34.3528,宝鸡市,陈仓区环保局家属楼,颗粒物(PM10),500,754,784,197,252,89,,92,89,5,8,6,7,0.2,0.3
2025-04-12T1100,1936A,107.2058,34.3497,宝鸡市,文理学院,细颗粒物(PM2.5),308,,1332,258,290,91,,94,91,4,7,13,6,0.3,0.3
2025-04-12T1100,1937A,107.2386,34.3622,宝鸡市,三迪小学,颗粒物(PM10),500,931,1414,291,290,92,,95,92,6,7,23,9,0.5,0.4
2025-04-12T1100,1051A,115.493,38.8632,保定市,游泳馆,颗粒物(PM10),64,77,273,22,71,88,,86,85,4,9,3,7,0.1,0.2
2025-04-12T1100,1052A,115.5213,38.8959,保定市,华电二区,颗粒物(PM10),87,123,246,29,83,88,,86,84,1,6,3,3,0.1,0.3
2025-04-12T1100,1053A,115.4713,38.9108,保定市,接待中心,颗粒物(PM10),68,86,260,6,50,87,,85,84,1,6,3,4,0,0.2
2025-04-12T1100,1054A,115.4612,38.8416,保定市,地表水厂,颗粒物(PM10),67,83,341,12,64,90,,89,87,8,11,1,4,0.3,0.4
2025-04-12T1100,3581A,115.31981,38.95208,保定市,满城区生态环境分局,颗粒物(PM10),64,78,296,12,54,90,,88,87,6,8,2,5,0,0.2
2025-04-12T1100,3582A,115.47694,38.76408,保定市,清苑区第二中学,细颗粒物(PM2.5),129,162,408,98,60,89,,87,85,4,9,3,6,0.2,0.3
2025-04-12T1100,3583A,115.62909,39.02311,保定市,徐水物探局,颗粒物(PM10),124,198,379,14,60,88,,90,86,2,10,3,5,0,0
2025-04-12T1100,4004A,115.4202,38.8656,保定市,双鹰农机,颗粒物(PM10),72,94,333,30,90,86,,85,83,2,7,1,5,0.0,0.2
2025-04-12T1100,4034A,115.5150,38.8590,保定市,植保所站,颗粒物(PM10),69,87,320,16,74,73,,74,72,2,6,3,4,0.3,0.3
2025-04-12T1100,2594A,99.1678,25.1081,保山市,市环境监测站,细颗粒物(PM2.5),75,,39,55,35,48,,18,18,19,12,11,8,0.7,0.6
2025-04-12T1100,2595A,99.1711,25.1328,保山市,市环保局,颗粒物(PM10),65,79,45,43,32,52,,24,23,19,9,6,6,0.8,0.7
2025-04-12T1100,1866A,109.2262,21.588,北海市,牛尾岭水库,,,24,28,15,19,42,,37,37,,8,6,6,0.4,0.6
2025-04-12T1100,1867A,109.1436,21.4086,北海市,海滩公园,,39,39,36,12,15,50,,61,52,8,17,5,5,0.4,0.6
2025-04-12T1100,1868A,109.0981,21.4661,北海市,新市环保局,,32,32,36,17,24,56,,71,60,7,13,3,3,0.4,0.5
2025-04-12T1100,1869A,109.1778,21.5233,北海市,北海工业园,,40,40,42,24,27,65,,60,60,6,13,9,9,0.4,0.6
2025-04-12T1100,3400A,109.1911,21.4415,北海市,龙潭自来水厂,,34,34,36,19,27,56,,71,62,7,12,6,6,0.3,0.4
2025-04-12T1100,1001A,116.3621,39.8784,北京市,万寿西宫,颗粒物(PM10),66,81,139,11,38,87,,90,88,8,13,6,8,0.5,0.6
2025-04-12T1100,1002A,116.2202,40.2915,北京市,定陵,,,,,,,,,,,,,,,,
2025-04-12T1100,1003A,116.4174,39.9289,北京市,东四,颗粒物(PM10),64,77,162,13,45,81,,83,82,3,10,5,7,0.3,0.5
2025-04-12T1100,1004A,116.4072,39.8863,北京市,天坛,颗粒物(PM10),67,83,142,10,40,79,,81,79,6,12,1,3,0.3,0.5
2025-04-12T1100,1005A,116.462,39.9365,北京市,农展馆,颗粒物(PM10),87,124,135,10,37,85,,85,84,4,11,6,8,0.2,0.5
2025-04-12T1100,1006A,116.3392,39.9295,北京市,官园,颗粒物(PM10),68,86,159,12,45,77,,80,78,4,11,6,7,0.3,0.5
2025-04-12T1100,1007A,116.2878,39.9611,北京市,海淀万柳,颗粒物(PM10),58,66,146,3,45,65,,,,9,19,4,6,0.4,0.6
2025-04-12T1100,1008A,116.6636,40.135,北京市,顺义新城,颗粒物(PM10),70,90,149,6,48,92,,92,89,1,10,5,6,0.3,0.4
2025-04-12T1100,1009A,116.6275,40.3275,北京市,怀柔镇,颗粒物(PM10),65,80,129,9,43,79,,78,75,2,9,2,4,0.2,0.4
2025-04-12T1100,1010A,116.2296,40.217,北京市,昌平镇,颗粒物(PM10),61,71,124,7,36,81,,79,79,3,13,3,3,0.5,0.5
2025-04-12T1100,1011A,116.3966,39.9821,北京市,奥体中心,颗粒物(PM10),53,56,138,11,36,80,,81,81,7,16,3,4,0.4,0.5
2025-04-12T1100,3281A,115.9718,40.4529,北京市,延庆夏都,颗粒物(PM10),56,62,112,12,28,83,,86,84,3,8,5,6,0.3,0.4
2025-04-12T1100,3418A,116.8336,40.4095,北京市,密云新城,颗粒物(PM10),55,59,118,16,37,82,,77,76,2,7,4,6,0.3,0.4
2025-04-12T1100,3671A,116.088,39.9726,北京市,门头沟三家店,颗粒物(PM10),140,229,215,22,47,72,,77,74,2,11,4,5,0.3,0.4
2025-04-12T1100,3672A,116.1541,39.8204,北京市,丰台云岗,颗粒物(PM10),74,98,152,14,43,84,,87,85,1,8,2,4,0.2,0.4
2025-04-12T1100,3673A,116.6804,39.9081,北京市,通州东关,颗粒物(PM10),166,281,212,24,54,82,,79,79,2,14,4,6,0.4,0.5
2025-04-12T1100,3674A,115.9577,39.7603,北京市,房山燕山,颗粒物(PM10),99,147,170,13,41,76,,79,78,2,10,4,5,0.3,0.4
2025-04-12T1100,3675A,116.4672,39.7733,北京市,大兴旧宫,颗粒物(PM10),83,115,141,21,39,80,,81,80,4,11,3,3,0.2,0.3
2025-04-12T1100,3694A,115.986,40.4563,北京市,延庆石河营,颗粒物(PM10),56,61,103,6,24,83,,86,84,3,8,4,5,0.3,0.4
2025-04-12T1100,3695A,116.6151,40.3053,北京市,怀柔新城,,45,45,122,7,42,79,,78,76,2,7,3,3,0.4,0.6
2025-04-12T1100,3696A,116.2545,39.8768,北京市,丰台小屯,颗粒物(PM10),78,105,146,19,34,72,,74,74,1,10,1,2,0.2,0.3
2025-04-12T1100,3697A,116.84,40.3844,北京市,密云镇,,48,48,116,3,36,84,,79,77,1,8,3,6,0.3,0.4
2025-04-12T1100,4182A,116.1942,39.9158,北京市,八角北路9号,颗粒物(PM10),65,80,155,12,39,76,,79,77,1,10,3,5,0.1,0.4
2025-04-12T1100,4194A,117.0790,40.1518,北京市,洳河巡河路,,43,43,105,3,45,83,,82,79,2,9,1,3,0.2,0.4
2025-04-12T1100,1761A,123.8275,41.3064,本溪市,大峪,,,3,32,,38,123,,130,127,7,7,4,4,0.5,0.4
2025-04-12T1100,1762A,123.7567,41.3325,本溪市,溪湖,,37,20,38,3,15,118,,125,122,10,11,5,7,0.6,0.6
2025-04-12T1100,1763A,123.7169,41.3094,本溪市,彩屯,,33,30,60,12,21,104,,116,112,26,24,17,18,1.9,1.8
2025-04-12T1100,1764A,123.7669,41.2864,本溪市,东明,,38,,44,6,13,120,,131,127,8,8,6,5,0.7,0.6
2025-04-12T1100,1765A,123.7992,41.2664,本溪市,新立屯,,39,13,31,3,13,122,,131,126,12,11,7,7,0.6,0.5
2025-04-12T1100,1766A,123.8142,41.3472,本溪市,威宁,,35,6,50,3,18,110,,120,113,4,5,5,5,0.7,0.7
2025-04-12T1100,2587A,105.2864,27.3125,毕节市,八中,颗粒物(PM10),130,210,61,44,39,82,,93,88,7,7,4,3,0.2,0.4
2025-04-12T1100,2588A,105.31,27.2944,毕节市,师专,颗粒物(PM10),120,190,56,44,31,93,,102,98,6,8,6,7,0.3,0.5
2025-04-12T1100,4263A,105.3688,27.3598,毕节市,工业大道,颗粒物(PM10),132,213,62,52,35,81,,92,86,10,9,7,8,0.3,0.7
2025-04-12T1100,1629A,118.0018,37.3617,滨州市,第二水厂,,,,204,,72,,,78,76,2,12,6,8,,0.7
2025-04-12T1100,1630A,117.9776,37.393,滨州市,北中新校,颗粒物(PM10),75,100,131,34,65,83,,82,81,5,14,4,15,0.3,0.5
2025-04-12T1100,3514A,117.9378,37.3956,滨州市,中海酒店,颗粒物(PM10),93,136,252,22,52,83,,81,81,4,13,6,11,0.4,0.6
2025-04-12T1100,3515A,117.9378,37.3553,滨州市,开发区一中,,,,,,,,,,,,,,,,
2025-04-12T1100,3516A,118.0917,37.694,滨州市,金海六路,颗粒物(PM10),120,190,340,17,58,84,,80,80,5,15,5,9,0.2,0.4
2025-04-12T1100,4028A,117.9956,37.3753,滨州市,滨州市西街道办事处,颗粒物(PM10),117,183,154,46,60,90,,88,88,6,13,4,7,0.2,0.4
2025-04-12T1100,2311A,115.8072,33.8399,亳州市,污水处理厂,颗粒物(PM10),213,359,404,60,65,87,,90,90,9,13,1,3,0.2,0.4
2025-04-12T1100,2312A,115.7789,33.8518,亳州市,三国揽胜宫,颗粒物(PM10),318,434,346,49,63,88,,90,90,12,11,3,3,0.0,0.3
2025-04-12T1100,3332A,115.7633,33.8034,亳州市,亳州学院,颗粒物(PM10),197,344,380,47,58,90,,95,95,12,11,2,4,0.2,0.4
2025-04-12T1100,2693A,82.0485,44.8556,博尔塔拉蒙古自治州,市党校,,,51,50,18,16,76,,93,80,31,25,,3,0.2,0.3
2025-04-12T1100,2694A,82.0806,44.8969,博尔塔拉蒙古自治州,市环保局,颗粒物(PM10),63,76,70,12,13,47,,50,48,20,16,4,2,0.4,0.5
2025-04-12T1100,1071A,116.8842,38.2991,沧州市,沧县城建局,颗粒物(PM10),96,142,327,39,66,72,,69,67,5,12,3,4,0.0,0.3
2025-04-12T1100,1072A,116.8584,38.3254,沧州市,电视转播站,颗粒物(PM10),67,84,274,31,72,86,,84,82,7,13,3,6,0.2,0.3
2025-04-12T1100,1073A,116.8709,38.3228,沧州市,市环保局,颗粒物(PM10),72,93,282,31,80,84,,82,80,6,11,3,8,0.3,0.4
2025-04-12T1100,3324A,116.8136,38.3004,沧州市,河北水利电力学院,颗粒物(PM10),98,146,437,16,54,93,,90,88,6,13,4,8,0.2,0.3
2025-04-12T1100,2622A,97.1806,31.1273,昌都市,昌都监测站,,,,8,11,7,90,,100,95,3,4,,2,0.3,0.2
2025-04-12T1100,3719A,97.1714,31.1406,昌都市,昌都会议中心,,26,,9,8,9,82,,95,89,5,5,2,2,0.1,0.2
2025-04-12T1100,2690A,88.1236,43.8886,昌吉回族自治州,天山天池,,,0,8,,4,83,,69,69,4,5,4,4,0.5,0.5
2025-04-12T1100,2692A,87.2717,44.0297,昌吉回族自治州,新区政务中心,颗粒物(PM10),56,62,34,3,7,112,,108,108,6,10,5,5,0.3,0.3
2025-04-12T1100,3613A,87.3095,44.0142,昌吉回族自治州,亚心广场,颗粒物(PM10),86,122,50,19,7,110,,99,99,2,9,6,7,0.4,0.5
2025-04-12T1100,1119A,125.3325,43.9166,长春市,食品厂,细颗粒物(PM2.5),72,,78,52,53,97,,90,90,18,24,8,10,0.5,0.5
2025-04-12T1100,1120A,125.2863,43.9027,长春市,客车厂,细颗粒物(PM2.5),67,,73,48,52,94,,89,89,19,23,5,8,0.6,0.5
2025-04-12T1100,1121A,125.2841,43.8463,长春市,邮电学院,细颗粒物(PM2.5),70,,82,51,49,100,,94,94,19,23,6,9,0.5,0.5
2025-04-12T1100,1122A,125.3716,43.8772,长春市,劳动公园,细颗粒物(PM2.5),72,,79,52,48,96,,93,92,17,21,7,9,0.5,0.6
2025-04-12T1100,1123A,125.3297,43.8805,长春市,园林处,细颗粒物(PM2.5),65,,72,47,43,96,,92,92,19,18,7,9,0.6,0.6
2025-04-12T1100,1124A,125.4605,43.79,长春市,净月潭,细颗粒物(PM2.5),62,48,73,44,43,95,,94,94,13,17,6,9,0.3,0.4
2025-04-12T1100,1125A,125.7194,43.515,长春市,甩湾子,,,,,,,,,,,,,,,,
2025-04-12T1100,1126A,125.3863,43.8447,长春市,经开区环卫处,细颗粒物(PM2.5),68,,81,49,46,82,,80,80,17,21,7,8,0.5,0.5
2025-04-12T1100,1127A,125.245,43.7783,长春市,高新区管委会,细颗粒物(PM2.5),75,,71,55,53,95,,80,80,16,21,8,10,0.5,0.5
2025-04-12T1100,1128A,125.1761,43.8325,长春市,岱山公园,细颗粒物(PM2.5),73,,80,53,49,95,,74,74,22,34,6,7,0.5,0.5
2025-04-12T1100,1335A,113.0833,28.2325,长沙市,经开区环保局,颗粒物(PM10),500,694,79,123,29,85,,95,93,6,6,5,6,0.1,0.6
2025-04-12T1100,1336A,112.8872,28.2189,长沙市,高开区环保局,颗粒物(PM10),500,1217,108,126,34,96,,96,93,5,3,4,4,0.4,0.8
2025-04-12T1100,1337A,113.0792,28.2053,长沙市,马坡岭,颗粒物(PM10),500,695,78,138,31,83,,92,91,10,7,2,3,0.1,0.5
2025-04-12T1100,1338A,112.9394,28.19,长沙市,湖南师范大学,颗粒物(PM10),500,1067,94,137,31,87,,92,88,8,5,4,5,0.3,0.6
2025-04-12T1100,1339A,113.0178,28.1322,长沙市,雨花区环保局,颗粒物(PM10),500,725,78,193,34,76,,87,84,10,7,3,4,0.2,0.4
2025-04-12T1100,1340A,112.9792,28.2597,长沙市,伍家岭,颗粒物(PM10),500,913,90,150,28,88,,87,83,8,8,3,3,0.2,0.7
2025-04-12T1100,1341A,113.0014,28.1944,长沙市,火车新站,颗粒物(PM10),500,809,82,239,34,87,,90,86,9,6,6,7,0.2,0.6
2025-04-12T1100,1342A,112.9844,28.1178,长沙市,天心区环保局,颗粒物(PM10),500,636,73,94,31,85,,96,91,11,8,3,4,0.0,0.5
2025-04-12T1100,1343A,112.8908,28.1308,长沙市,湖南中医药大学,颗粒物(PM10),500,1087,99,190,46,91,,95,91,8,7,2,3,0.1,0.5
2025-04-12T1100,1344A,112.9581,28.3611,长沙市,沙坪,颗粒物(PM10),500,649,80,233,39,74,,70,68,10,7,6,6,0.4,0.7
2025-04-12T1100,1727A,113.1147,36.1547,长治市,清华站,颗粒物(PM10),96,141,319,14,61,78,,88,83,4,7,4,4,0.6,0.6
2025-04-12T1100,1730A,113.0886,36.2125,长治市,审计局,颗粒物(PM10),81,112,313,9,80,78,,88,83,6,10,5,6,0.1,0.1
2025-04-12T1100,1731A,113.0844,36.1856,长治市,长治八中,颗粒物(PM10),78,106,320,25,97,82,,91,86,5,9,7,7,0.4,0.4
2025-04-12T1100,2845A,113.1569,36.1911,长治市,德盛苑,颗粒物(PM10),92,134,339,19,62,79,,88,83,4,7,3,4,0.2,0.3
2025-04-12T1100,3568A,113.06,36.0464,长治市,向阳小学,颗粒物(PM10),94,138,331,20,72,87,,99,92,5,9,6,8,0.1,0.2
2025-04-12T1100,3569A,112.8792,36.3144,长治市,屯留一中,颗粒物(PM10),62,74,301,12,60,81,,88,83,10,13,5,7,0.3,0.3
2025-04-12T1100,4189A,113.1131,36.19948,长治市,英华南巷50号,颗粒物(PM10),76,102,327,14,73,80,,91,86,4,9,2,3,0.4,0.4
2025-04-12T1100,4190A,113.2367,36.3344,长治市,学府街1号,颗粒物(PM10),107,163,331,18,67,81,,91,84,4,9,2,4,0.3,0.4
2025-04-12T1100,1854A,111.6975,28.9703,常德市,市二中,颗粒物(PM10),500,1211,124,290,47,70,,66,60,9,9,6,6,0.4,0.7
2025-04-12T1100,1857A,111.7158,29.1456,常德市,白鹤山,,,,,,,,,,,,,,,,
2025-04-12T1100,3138A,111.7153,29.0289,常德市,武陵区永安,颗粒物(PM10),500,1361,139,208,38,80,,86,78,9,7,1,2,0.3,0.6
2025-04-12T1100,3139A,111.6892,28.9881,常德市,鼎城区玉霞,颗粒物(PM10),500,1323,132,198,40,82,,72,66,8,6,2,4,0.4,0.7
2025-04-12T1100,3140A,111.6625,29.0531,常德市,武陵区长庚,颗粒物(PM10),500,1121,120,137,33,81,,78,72,8,7,5,6,0.4,0.7
2025-04-12T1100,1196A,119.9633,31.762,常州市,市监测站,颗粒物(PM10),80,110,107,47,46,75,,62,60,19,45,8,12,0.8,1
2025-04-12T1100,1200A,119.9468,31.7069,常州市,武进监测站,颗粒物(PM10),88,126,104,34,36,71,,64,62,27,41,10,14,0.5,0.5
2025-04-12T1100,1201A,119.9255,31.9087,常州市,安家,,,118,128,56,53,,,39,37,18,43,8,11,0.3,0.6
2025-04-12T1100,3002A,119.9805,31.8174,常州市,行政中心,颗粒物(PM10),71,91,95,39,41,72,,59,58,20,41,15,19,0.6,0.8
2025-04-12T1100,3003A,120.0522,31.7748,常州市,经开区,颗粒物(PM10),58,66,85,32,37,80,,58,54,20,47,8,11,0.6,0.8
2025-04-12T1100,3010A,119.9025,31.7964,常州市,钟楼,颗粒物(PM10),85,120,103,46,43,70,,66,60,18,39,6,9,1.1,1
2025-04-12T1100,3429A,119.8598,31.7066,常州市,武进经发区,颗粒物(PM10),81,111,86,45,36,74,,66,63,18,33,8,10,0.8,0.9
2025-04-12T1100,3430A,119.5826,31.7245,常州市,金坛城区,颗粒物(PM10),86,122,76,51,34,74,,68,58,10,25,6,9,0.5,0.8
2025-04-12T1100,2220A,120.4318,41.5881,朝阳市,西梁,,28,28,118,3,26,57,,84,77,11,12,12,13,0.3,0.4
2025-04-12T1100,2221A,120.4521,41.5646,朝阳市,河畔小区,,31,31,108,9,26,59,,95,82,15,12,7,8,0.4,0.5
2025-04-12T1100,2222A,120.4176,41.5648,朝阳市,八里堡,,32,32,117,11,29,55,,85,77,15,13,7,8,0.5,0.6
2025-04-12T1100,2223A,120.3806,41.5969,朝阳市,农业园区,,26,26,133,6,36,62,,85,80,9,14,9,10,0.4,0.6
2025-04-12T1100,1705A,116.6367,23.6719,潮州市,西园路,,,,,,,,,,,,,,,,
2025-04-12T1100,3026A,116.6183,23.6608,潮州市,市政府,颗粒物(PM10),51,52,43,25,26,19,,27,23,28,18,5,4,1.2,0.9
2025-04-12T1100,4036A,116.6461,23.6761,潮州市,金山,颗粒物(PM10),60,70,42,30,31,11,,27,19,37,18,8,7,0.7,0.6
2025-04-12T1100,2472A,113.0073,25.9061,郴州市,马头岭,,24,24,32,14,16,66,,64,64,10,13,6,8,0.7,0.8
2025-04-12T1100,2473A,113.0116,25.8226,郴州市,市职中,,28,20,31,12,24,87,,80,80,6,7,2,3,0.4,0.5
2025-04-12T1100,2475A,113.0383,25.8071,郴州市,市审计局,,28,19,29,8,22,88,,82,82,6,7,2,2,0.4,0.4
2025-04-12T1100,2476A,113.0348,25.7759,郴州市,市环保局,,25,19,34,9,20,79,,74,74,6,6,3,4,0.4,0.5
2025-04-12T1100,4252A,113.0138,25.8011,郴州市,好美居路49号,,29,11,29,6,21,92,,85,85,6,7,2,3,0.6,0.7
2025-04-12T1100,1431A,103.9728,30.7236,成都市,金泉两河,颗粒物(PM10),83,115,72,49,30,61,,54,52,14,14,2,2,0.7,0.8
2025-04-12T1100,1432A,104.176,30.6872,成都市,十里店,颗粒物(PM10),125,199,132,50,44,67,,70,70,17,18,3,3,0.6,0.6
2025-04-12T1100,1433A,104.079,30.5706,成都市,三瓦窑,颗粒物(PM10),108,166,112,50,46,61,,64,59,23,23,4,4,0.5,0.5
2025-04-12T1100,1434A,104.1114,30.63,成都市,沙河铺,颗粒物(PM10),119,188,111,62,48,55,,56,56,16,17,6,6,0.6,0.7
2025-04-12T1100,1437A,104.0786,30.6531,成都市,君平街,,,143,95,51,46,,,73,,21,20,6,7,0.6,0.7
2025-04-12T1100,1438A,103.613,31.0283,成都市,灵岩寺,,,,,,,,,,,,,,,,
2025-04-12T1100,2880A,104.0239,30.65639,成都市,大石西路,颗粒物(PM10),96,142,98,51,42,52,,59,57,24,19,4,4,0.5,0.5
2025-04-12T1100,3136A,104.2725,30.5589,成都市,龙泉驿区区政府,颗粒物(PM10),140,229,124,73,38,,,58,55,21,19,4,4,0.6,0.5
2025-04-12T1100,3357A,104.0106,30.6931,成都市,金博路,颗粒物(PM10),94,137,80,49,31,59,,55,55,15,17,6,7,0.3,0.4
2025-04-12T1100,3359A,104.0578,30.5225,成都市,华阳,颗粒物(PM10),108,166,98,68,46,63,,62,60,20,23,5,6,0.6,0.7
2025-04-12T1100,3488A,104.3853,30.7453,成都市,青白江技师分院,颗粒物(PM10),142,233,150,72,50,61,,68,65,27,22,7,7,0.4,0.4
2025-04-12T1100,3489A,104.0789,30.4072,成都市,科学城,颗粒物(PM10),138,226,99,62,35,43,,70,64,21,16,5,5,0.4,0.4
2025-04-12T1100,4011A,103.8506,30.6947,成都市,光华大道三段,颗粒物(PM10),92,134,71,52,30,65,,64,62,18,15,1,2,0.6,0.6
2025-04-12T1100,4224A,104.2433,30.5353,成都市,鲸龙路1057号,颗粒物(PM10),155,259,120,75,40,52,,67,60,25,26,3,4,0.4,0.6
2025-04-12T1100,1062A,117.9531,40.9081,承德市,铁路,颗粒物(PM10),52,53,147,9,37,80,,81,78,4,16,6,8,0.1,0.4
2025-04-12T1100,1063A,117.9392,40.9763,承德市,中国银行,颗粒物(PM10),51,52,120,6,38,84,,85,82,1,9,3,4,0.1,0.4
2025-04-12T1100,1064A,117.9503,40.928,承德市,开发区,,49,49,124,13,36,77,,80,76,6,12,7,9,0.2,0.4
2025-04-12T1100,1065A,117.8051,40.9655,承德市,文化中心,颗粒物(PM10),58,65,144,12,38,80,,82,79,4,10,4,6,0.2,0.4
2025-04-12T1100,1066A,117.9268,41.0026,承德市,离宫,,,,91,,53,,,62,,,14,,34,,0.5
2025-04-12T1100,2314A,117.47,30.6618,池州市,池州学院,颗粒物(PM10),500,682,98,141,37,97,,104,98,5,11,4,7,0.2,0.5
2025-04-12T1100,3237A,117.4918,30.6617,池州市,展览馆,颗粒物(PM10),500,688,104,144,36,98,,108,100,4,11,4,7,0.3,0.6
2025-04-12T1100,3333A,117.5627,30.695,池州市,第八中学,颗粒物(PM10),500,835,114,155,39,95,,103,96,4,17,4,7,0.3,0.5
2025-04-12T1100,3334A,117.5038,30.6243,池州市,第十二中学,颗粒物(PM10),500,664,94,129,36,99,,110,101,1,9,4,7,0.2,0.6
2025-04-12T1100,1744A,118.9233,42.2816,赤峰市,松山一中,颗粒物(PM10),53,55,98,3,16,86,,87,81,10,14,8,9,0.3,0.4
2025-04-12T1100,1745A,118.9576,42.2728,赤峰市,哈达街,,42,42,97,3,24,77,,79,73,9,14,9,10,0.5,0.5
2025-04-12T1100,1746A,118.8788,42.2554,赤峰市,天义路,,,,77,,32,,,107,,,15,,7,,0.3
2025-04-12T1100,3058A,119.2658,42.0353,赤峰市,银河街,颗粒物(PM10),74,98,142,3,26,77,,82,74,6,11,12,16,0.3,0.5
2025-04-12T1100,3286A,118.9359,42.3147,赤峰市,桥北物流园区,,22,19,87,3,18,68,,71,65,10,10,6,7,0.5,0.5
2025-04-12T1100,2521A,107.3476,22.4136,崇左市,市环保局江州分局,细颗粒物(PM2.5),55,53,53,39,39,88,,75,73,5,8,6,6,0.8,0.8
2025-04-12T1100,4256A,107.3750,22.3736,崇左市,石景林东路7号,细颗粒物(PM2.5),58,64,47,41,38,94,,86,85,9,9,5,5,0.8,0.8
2025-04-12T1100,2298A,118.3093,32.3153,滁州市,老年大学,颗粒物(PM10),500,1252,175,192,61,72,,72,72,16,19,4,7,0.2,0.6
2025-04-12T1100,2299A,118.3244,32.2786,滁州市,人大宾馆,颗粒物(PM10),500,1746,220,156,56,73,,86,82,11,26,6,11,0.3,0.6
2025-04-12T1100,3207A,118.3118,32.3038,滁州市,市政府原办公楼,颗粒物(PM10),500,1408,189,196,66,72,,80,77,6,10,3,6,0.2,0.6
2025-04-12T1100,3331A,118.3267,32.2634,滁州市,图书馆,颗粒物(PM10),500,1051,135,230,63,72,,86,81,8,15,6,10,0.3,0.7
2025-04-12T1100,2605A,101.5482,25.0441,楚雄彝族自治州,州环境监测站,,45,45,37,28,30,82,,70,63,22,14,8,8,0.6,0.6
2025-04-12T1100,2606A,101.538,25.0492,楚雄彝族自治州,市经济开发区,,43,43,38,22,28,88,,68,63,13,12,7,7,0.6,0.7
2025-04-12T1100,2548A,107.5277,31.2827,达州市,达州职业技术学院,颗粒物(PM10),500,804,515,195,104,84,,83,78,5,15,4,7,0.6,0.5
2025-04-12T1100,2549A,107.5086,31.2186,达州市,市环境监测站,颗粒物(PM10),500,866,500,175,95,72,,91,81,21,21,3,5,0.4,0.5
2025-04-12T1100,2550A,107.4988,31.2132,达州市,凤凰小区,颗粒物(PM10),500,884,531,173,94,83,,88,86,15,18,5,7,0.2,0.3
2025-04-12T1100,2551A,107.5082,31.1986,达州市,达县机关宾馆,颗粒物(PM10),500,996,537,213,108,,,84,78,19,19,3,5,0.3,0.3
2025-04-12T1100,2552A,107.4644,31.2124,达州市,市政中心,颗粒物(PM10),500,664,451,127,86,92,,88,87,12,18,1,3,0.2,0.4
2025-04-12T1100,2614A,100.1542,25.7054,大理白族自治州,大理市环境监测站,,42,31,34,29,31,77,,77,77,12,12,6,7,0.8,0.8
2025-04-12T1100,2615A,100.2171,25.5811,大理白族自治州,大理古城,,46,33,29,32,25,87,,75,75,9,11,6,7,0.8,0.8
2025-04-12T1100,1109A,121.612,38.9741,大连市,甘井子,,48,48,45,11,22,82,,112,100,15,23,6,6,0.3,0.5
2025-04-12T1100,1110A,121.565,38.9511,大连市,周水子,颗粒物(PM10),56,61,81,12,25,68,,100,86,10,17,4,6,0.2,0.4
2025-04-12T1100,1111A,121.5637,38.8845,大连市,星海三站,,41,41,48,11,24,76,,110,97,4,11,6,7,0.3,0.4
2025-04-12T1100,1112A,121.6302,38.9117,大连市,青泥洼桥,,36,36,48,12,22,75,,111,94,13,16,9,9,0.4,0.5
2025-04-12T1100,1113A,121.6251,38.8638,大连市,傅家庄,,43,43,49,11,22,73,,106,93,14,22,6,7,0.2,0.2
2025-04-12T1100,1114A,121.5213,38.8661,大连市,七贤岭,,35,35,52,10,23,75,,101,91,9,19,5,6,0.2,0.3
2025-04-12T1100,1115A,121.2529,38.8061,大连市,旅顺,,37,37,43,10,22,70,,94,78,13,19,7,7,0.5,0.5
2025-04-12T1100,1116A,121.7485,39.1311,大连市,金州,,,35,45,,20,74,,115,101,,17,6,7,0.5,0.4
2025-04-12T1100,1117A,121.7811,39.0496,大连市,开发区,,48,48,48,12,23,66,,90,81,13,26,7,9,0.4,0.4
2025-04-12T1100,1118A,121.9762,39.0631,大连市,双D港,颗粒物(PM10),71,91,45,14,21,75,,105,95,8,10,9,8,0.4,0.3
2025-04-12T1100,1789A,124.81117,46.03138,大庆市,大同区,,39,28,124,27,49,66,,34,34,18,16,6,7,0.7,0.7
2025-04-12T1100,1790A,125.129,46.533,大庆市,龙凤区,,,41,95,18,43,46,,43,27,22,22,,7,0.5,0.6
2025-04-12T1100,1791A,124.902,46.408,大庆市,红岗区,,33,26,80,23,39,20,,34,30,28,17,8,8,0.5,0.6
2025-04-12T1100,1792A,125.153,46.586,大庆市,萨尔图区,,49,49,106,22,49,34,,53,31,29,24,8,10,0.5,0.6
2025-04-12T1100,1793A,124.9042,46.6215,大庆市,让胡路区,,,34,81,24,46,,,35,31,,17,,7,,0.4
2025-04-12T1100,3481A,125.141,46.634,大庆市,萨区政府监测点,,34,34,108,19,37,28,,49,25,18,21,5,8,0.4,0.6
2025-04-12T1100,1721A,113.3819,40.1097,大同市,果树场,颗粒物(PM10),67,83,242,15,41,81,,80,80,3,7,8,7,0.3,0.3
2025-04-12T1100,1723A,113.2994,40.0758,大同市,云冈宾馆,,42,42,221,10,32,86,,88,86,4,7,8,7,0.1,0
2025-04-12T1100,1724A,113.3444,40.0917,大同市,大同大学,颗粒物(PM10),63,75,289,8,43,81,,85,82,1,3,9,10,0.3,0.3
2025-04-12T1100,1725A,113.2661,40.1269,大同市,安家小村,颗粒物(PM10),60,70,315,9,40,37,,74,57,7,4,9,9,0.3,0.3
2025-04-12T1100,1726A,113.2711,40.0844,大同市,教育学院,颗粒物(PM10),51,52,289,18,41,84,,87,85,4,6,7,7,0.4,0.3
2025-04-12T1100,3282A,113.3397,40.0597,大同市,大同市卫生学校,,,61,266,12,39,,,83,82,5,7,6,6,0.4,0.4
2025-04-12T1100,3565A,113.1367,40.1122,大同市,云冈站,颗粒物(PM10),55,59,269,10,48,74,,79,76,7,5,9,8,0.3,0.3
2025-04-12T1100,3566A,113.1186,40.2556,大同市,图书馆,细颗粒物(PM2.5),83,74,264,61,52,68,,72,70,2,3,8,8,0.8,0.6
2025-04-12T1100,3567A,113.5931,40.0461,大同市,区一中,颗粒物(PM10),69,88,320,6,32,82,,84,83,2,5,12,12,0.3,0.3
2025-04-12T1100,4199A,113.2798,40.0997,大同市,魏都大道141号,颗粒物(PM10),73,96,294,9,43,85,,86,85,4,6,11,11,0.3,0.3
2025-04-12T1100,2269A,124.1069,50.4097,大兴安岭地区,科技局,,26,20,20,18,15,77,,79,78,4,4,2,2,0.2,0.2
2025-04-12T1100,3663A,124.1164,50.4278,大兴安岭地区,红旗社区,,24,,4,6,3,75,,78,77,2,2,4,4,0.3,0.2
2025-04-12T1100,1600A,124.3303,40.0625,丹东市,江湾东路,,44,44,44,27,30,137,,106,106,9,17,7,10,0.3,0.5
2025-04-12T1100,1601A,124.4256,40.1503,丹东市,临江后街,,47,47,68,22,32,133,,100,100,6,20,5,7,0.6,0.9
2025-04-12T1100,1602A,124.3933,40.1461,丹东市,元宝山,,43,43,39,21,27,128,,103,103,10,15,6,7,0.4,0.6
2025-04-12T1100,1603A,124.3633,40.1092,丹东市,民主桥,,44,44,43,26,24,133,,106,106,7,14,9,9,0.8,0.9
2025-04-12T1100,3541A,109.5726,19.5167,儋州市,第一中学子站,,,24,32,,25,58,,64,62,4,5,5,5,0.4,0.5
2025-04-12T1100,3542A,109.5567,19.5187,儋州市,东坡学校子站,,29,29,36,14,21,62,,68,66,3,5,4,5,0.4,0.5
2025-04-12T1100,2616A,98.5842,24.428,德宏傣族景颇族自治州,德宏州监测站,细颗粒物(PM2.5),74,77,59,54,45,16,,4,4,30,21,11,9,0.9,0.8
2025-04-12T1100,3677A,98.5881,24.4368,德宏傣族景颇族自治州,芒市人民政府综合楼,细颗粒物(PM2.5),74,77,85,54,48,26,,8,8,28,17,8,7,0.9,0.8
2025-04-12T1100,1901A,104.4239,31.1208,德阳市,东山公园,颗粒物(PM10),104,157,80,59,32,72,,69,68,12,12,3,3,0.4,0.4
2025-04-12T1100,1902A,104.3826,31.1317,德阳市,西小区,颗粒物(PM10),98,146,76,46,30,72,,68,66,14,15,3,4,0.5,0.5
2025-04-12T1100,1904A,104.3553,31.1091,德阳市,耐火材料厂,颗粒物(PM10),112,174,72,53,28,72,,65,65,11,15,4,5,0.4,0.4
2025-04-12T1100,3639A,104.4019,31.1244,德阳市,市教育局,颗粒物(PM10),96,141,72,44,30,74,,64,64,12,15,3,4,0.6,0.6
2025-04-12T1100,1622A,116.3032,37.4674,德州市,儿童乐园,颗粒物(PM10),258,390,381,22,85,85,,82,80,6,12,4,7,0.2,0.5
2025-04-12T1100,1624A,116.2991,37.4451,德州市,监理站,颗粒物(PM10),165,280,511,58,74,83,,81,78,8,13,9,15,0.3,0.5
2025-04-12T1100,3066A,116.2721,37.4379,德州市,九衢泉纯净水厂,颗粒物(PM10),150,249,196,58,77,84,,82,78,11,18,13,13,0.5,0.6
2025-04-12T1100,3371A,116.3728,37.4403,德州市,开发区人民医院,颗粒物(PM10),126,202,465,24,67,82,,80,76,4,12,5,8,0.4,0.5
2025-04-12T1100,3372A,116.3572,37.4094,德州市,太阳城中学,颗粒物(PM10),146,241,481,41,73,82,,80,77,5,11,4,7,0.7,0.7
2025-04-12T1100,3511A,116.5652,37.3319,德州市,陵城艺术中心,,,,306,,62,70,,81,75,8,15,,5,0.5,0.6
2025-04-12T1100,2621A,99.7056,27.8317,迪庆藏族自治州,迪庆州站,,36,19,26,13,14,113,,112,110,9,9,9,8,0.5,0.5
2025-04-12T1100,3180A,99.7136,27.8094,迪庆藏族自治州,质量技术监督局,,35,22,23,9,10,110,,114,111,13,9,9,9,0.6,0.6
2025-04-12T1100,4257A,104.6092,35.5962,定西市,将台街,颗粒物(PM10),500,1131,1130,251,213,73,,82,72,13,9,5,5,0.4,0.4
2025-04-12T1100,4309A,104.6159,35.5701,定西市,正龙路62号,颗粒物(PM10),500,1133,1343,229,223,77,,87,78,7,5,8,8,0.2,0.2
2025-04-12T1100,1389A,113.7547,23.0494,东莞市,莞城梨川,,42,31,23,29,16,23,,32,26,16,10,5,5,0.5,0.4
2025-04-12T1100,1390A,113.7944,23.0128,东莞市,东城石井,,30,30,22,15,13,47,,63,54,15,13,5,5,0.5,0.5
2025-04-12T1100,1391A,113.7383,22.9658,东莞市,南城西平,,25,25,20,16,11,32,,37,32,11,9,6,6,0.6,0.5
2025-04-12T1100,3319A,113.7338,23.0381,东莞市,万江金泰,,29,27,20,20,12,8,,17,12,12,5,5,5,0.9,0.8
2025-04-12T1100,3626A,113.7533,23.0202,东莞市,南城元岭,,33,30,20,23,13,24,,31,25,12,7,6,5,0.7,0.6
2025-04-12T1100,3627A,113.7875,23.0457,东莞市,东城主山,,40,40,27,22,12,25,,30,26,19,16,3,3,0.6,0.6
2025-04-12T1100,1666A,118.6614,37.4309,东营市,市环保局,颗粒物(PM10),69,88,148,19,54,91,,86,86,4,14,3,8,0.3,0.5
2025-04-12T1100,3036A,118.6904,37.4338,东营市,开发区管委会,颗粒物(PM10),78,105,300,14,57,67,,62,61,32,36,2,7,0.5,0.8
2025-04-12T1100,3365A,118.5719,37.565,东营市,垦利区民丰路,颗粒物(PM10),73,95,293,12,49,83,,81,81,4,22,2,11,1.0,1
2025-04-12T1100,3498A,118.5055,37.8612,东营市,河口城区,颗粒物(PM10),71,92,270,3,45,85,,83,82,9,20,3,7,0.7,0.9
2025-04-12T1100,3646A,118.4978,37.4623,东营市,胜利站,颗粒物(PM10),76,102,256,7,44,86,,84,82,11,22,6,10,0.5,0.8
2025-04-12T1100,3734A,118.35,37.26,东营市,理想之城,颗粒物(PM10),81,112,294,12,52,84,,80,80,6,19,4,8,0.3,0.6
2025-04-12T1100,1591A,110.0023,39.8129,鄂尔多斯市,综合楼,颗粒物(PM10),120,190,553,14,57,75,,73,72,6,7,5,4,0.1,0.1
2025-04-12T1100,1592A,109.9486,39.8261,鄂尔多斯市,巴音孟克林场办事处,颗粒物(PM10),125,200,503,24,52,77,,74,73,5,6,6,7,0.1,0.1
2025-04-12T1100,1593A,109.7736,39.5986,鄂尔多斯市,康泽苑,颗粒物(PM10),97,144,443,14,85,79,,72,72,3,3,4,4,0.2,0.2
2025-04-12T1100,1594A,109.8119,39.5989,鄂尔多斯市,华泰汽车城,颗粒物(PM10),86,122,432,12,83,77,,71,71,4,4,4,4,0.3,0.3
2025-04-12T1100,1595A,109.9734,39.7884,鄂尔多斯市,奥林花园,颗粒物(PM10),93,136,533,14,49,78,,75,74,6,8,5,5,0.3,0.3
2025-04-12T1100,2436A,114.8938,30.3994,鄂州市,市政府,颗粒物(PM10),500,617,172,103,43,90,,78,78,2,4,4,5,0.2,0.7
2025-04-12T1100,2437A,114.8989,30.3714,鄂州市,赵家坝,颗粒物(PM10),500,892,148,106,42,69,,59,59,6,7,3,4,0.3,0.8
2025-04-12T1100,3654A,114.8094,30.4089,鄂州市,精准医疗中心,颗粒物(PM10),500,757,171,112,43,100,,85,85,2,4,4,6,0.2,0.8
2025-04-12T1100,2454A,109.4978,30.2981,恩施土家族苗族自治州,湖北民院,颗粒物(PM10),66,81,31,36,15,57,,65,62,10,9,5,5,0.2,0.3
2025-04-12T1100,2455A,109.4707,30.2798,恩施土家族苗族自治州,州电力总公司,颗粒物(PM10),75,100,32,37,15,54,,60,58,7,9,4,4,0.3,0.4
2025-04-12T1100,3549A,109.5061,30.3772,恩施土家族苗族自治州,龙凤新区,颗粒物(PM10),82,114,28,38,10,50,,43,41,11,9,6,6,0.4,0.5
2025-04-12T1100,2499A,108.3411,21.6158,防城港市,沙万,,38,38,40,18,23,39,,56,47,14,15,1,2,0.5,0.5
2025-04-12T1100,2500A,108.3514,21.7731,防城港市,防城档案局,,36,35,36,25,26,54,,68,60,3,6,2,2,0.4,0.6
2025-04-12T1100,2501A,108.3506,21.6414,防城港市,大海花园,,33,33,36,13,19,55,,72,62,4,10,2,2,0.4,0.5
2025-04-12T1100,1371A,113.1294,23.0067,佛山市,湾梁,,31,31,27,16,14,32,,30,29,23,18,7,7,0.5,0.5
2025-04-12T1100,1372A,113.1083,23.0478,佛山市,华材职中,,31,31,28,17,16,33,,28,27,18,17,6,6,0.5,0.5
2025-04-12T1100,1373A,113.144,23.0453,佛山市,南海气象局,,50,50,35,24,18,24,,22,21,22,18,6,6,0.6,0.5
2025-04-12T1100,1374A,113.2881,22.8094,佛山市,顺德苏岗,,25,25,30,17,13,22,,26,22,22,12,5,5,0.6,0.6
2025-04-12T1100,1376A,112.8383,22.8678,佛山市,高明孔堂,,27,27,26,18,15,44,,42,42,6,7,5,5,0.6,0.6
2025-04-12T1100,1377A,112.8836,23.1588,佛山市,三水监测站,,48,34,31,33,26,28,,17,17,22,25,6,4,0.4,0.4
2025-04-12T1100,1378A,112.867,23.185,佛山市,三水云东海,,45,45,35,27,19,16,,16,15,32,25,4,3,0.6,0.6
2025-04-12T1100,3625A,113.2544,22.7642,佛山市,容桂街道办,,32,29,27,22,18,18,,22,18,27,18,6,6,0.7,0.6
2025-04-12T1100,1280A,119.3903,26.0543,福州市,鼓山,,,,28,,19,,,111,,,5,,2,,0.4
2025-04-12T1100,1282A,119.2681,26.0504,福州市,师大,颗粒物(PM10),54,58,43,28,30,13,,41,26,38,17,4,4,0.6,0.6
2025-04-12T1100,1283A,119.2984,26.1028,福州市,五四北路,,40,31,40,28,34,20,,30,15,37,23,4,4,0.7,0.7
2025-04-12T1100,1284A,119.2648,26.0768,福州市,杨桥西路,颗粒物(PM10),58,66,46,40,36,17,,37,23,39,21,4,4,0.7,0.6
2025-04-12T1100,1285A,119.317,26.0746,福州市,紫阳,,40,39,46,28,36,10,,34,17,41,29,5,5,0.5,0.6
2025-04-12T1100,3048A,119.5799,26.0936,福州市,九龙,,20,20,27,9,26,45,,37,32,8,10,3,4,0.3,0.4
2025-04-12T1100,3526A,119.5189,25.9664,福州市,吴航,,22,19,30,15,21,43,,46,42,8,10,3,4,0.4,0.6
2025-04-12T1100,1755A,123.7977,41.8491,抚顺市,望花区,,34,15,54,7,25,108,,118,115,23,20,16,17,0.5,0.5
2025-04-12T1100,1756A,123.9161,41.8822,抚顺市,顺城区,,37,,49,7,18,116,,121,118,14,15,8,9,0.6,0.6
2025-04-12T1100,1757A,124.0436,41.8611,抚顺市,东洲区,,36,6,41,3,16,115,,128,122,8,11,6,8,0.5,0.5
2025-04-12T1100,1758A,123.9247,41.8642,抚顺市,新抚区,,34,15,50,3,17,108,,109,103,13,14,6,7,0.6,0.6
2025-04-12T1100,1759A,124.0972,41.8961,抚顺市,大伙房水库,,39,,31,6,15,122,,134,128,4,5,7,7,0.5,0.4
2025-04-12T1100,1760A,123.7086,41.8391,抚顺市,沈抚新城,,37,11,50,3,16,118,,113,113,13,16,7,7,0.7,0.6
2025-04-12T1100,2376A,116.2127,28.0814,抚州市,桐源党溪,,40,40,38,16,20,75,,77,77,3,3,5,6,0.5,0.6
2025-04-12T1100,2377A,116.3544,27.9831,抚州市,市站,颗粒物(PM10),57,63,35,22,19,68,,66,66,5,3,4,7,0.8,1.1
2025-04-12T1100,2378A,116.3565,27.963,抚州市,血防站,颗粒物(PM10),54,57,37,18,19,71,,68,68,3,2,4,7,0.9,1.4
2025-04-12T1100,2379A,116.3564,28.0007,抚州市,采茶剧团,颗粒物(PM10),53,55,37,22,20,68,,65,65,2,2,3,2,1.3,1.4
2025-04-12T1100,2380A,116.385,27.9647,抚州市,医学分院,颗粒物(PM10),55,59,35,19,17,66,,62,62,7,5,3,4,0.6,1.1
2025-04-12T1100,2207A,121.6094,41.998,阜新市,工业园区,颗粒物(PM10),52,54,107,6,26,79,,90,86,8,12,7,10,0.3,0.3
2025-04-12T1100,2208A,121.6697,42.0279,阜新市,长青街,,35,35,86,13,25,80,,90,87,6,11,4,8,0.4,0.6
2025-04-12T1100,2209A,121.6673,42.0705,阜新市,农业园区,颗粒物(PM10),58,66,87,17,29,81,,92,88,5,9,6,9,0.5,0.6
2025-04-12T1100,2210A,121.6717,42.0224,阜新市,东苑,颗粒物(PM10),56,61,99,12,25,77,,90,85,9,15,5,9,0.5,0.6
2025-04-12T1100,2211A,121.6506,42.0498,阜新市,玉龙新城,颗粒物(PM10),54,58,85,12,23,77,,87,85,7,11,7,10,0.4,0.6
2025-04-12T1100,2301A,115.8277,32.8929,阜阳市,市监测站,颗粒物(PM10),188,326,251,69,59,89,,86,86,8,15,6,7,,0.3
2025-04-12T1100,2303A,115.8554,32.8605,阜阳市,开发区,颗粒物(PM10),411,511,359,48,42,91,,87,87,8,17,4,5,0.4,0.4
2025-04-12T1100,2875A,115.784,32.8892,阜阳市,阜阳职业技术学院,颗粒物(PM10),300,420,331,50,48,82,,79,79,4,12,6,7,0.1,0.3
2025-04-12T1100,3468A,115.7901,32.8613,阜阳市,市规划展馆,颗粒物(PM10),280,406,265,57,44,97,,92,92,1,8,5,7,0.2,0.5
2025-04-12T1100,3469A,115.836,32.9183,阜阳市,枣园社区,颗粒物(PM10),249,384,262,74,50,95,,90,90,9,16,4,7,0.2,0.5
2025-04-12T1100,2669A,102.9099,34.9841,甘南藏族自治州,州政府,颗粒物(PM10),55,59,86,32,27,64,,48,44,23,11,9,7,0.4,0.3
2025-04-12T1100,3380A,102.8914,34.9617,甘南藏族自治州,甘肃民族师范学院,颗粒物(PM10),53,55,95,28,27,66,,32,32,19,18,12,8,0.5,0.5
2025-04-12T1100,2570A,101.9603,30.0475,甘孜藏族自治州,水桥子,,27,6,12,3,7,86,,93,88,9,6,4,4,0,0.1
2025-04-12T1100,3065A,101.9533,29.9972,甘孜藏族自治州,州环保局,,27,6,14,3,6,86,,96,87,12,8,1,2,0.0,0.2
2025-04-12T1100,3414A,115.8347,28.932,赣江新区,桑海产业园,,,,56,,74,64,,77,72,6,12,3,5,0.2,0.4
2025-04-12T1100,2362A,114.9017,25.9149,赣州市,通天岩,,30,18,34,3,7,93,,68,68,3,3,11,15,1.2,1.1
2025-04-12T1100,2363A,114.9367,25.8664,赣州市,地委,,28,28,36,15,23,61,,41,41,5,8,2,1,1.3,1.2
2025-04-12T1100,2364A,114.9461,25.8481,赣州市,气象台,,24,19,35,9,19,75,,53,53,10,10,9,9,0.9,0.7
2025-04-12T1100,2365A,114.9322,25.8333,赣州市,市图书馆,,25,,30,6,20,78,,55,55,6,8,4,5,0.8,0.8
2025-04-12T1100,2366A,114.8905,25.8471,赣州市,华坚鞋城,,23,20,34,8,19,73,,54,54,11,10,8,10,0.5,0.5
2025-04-12T1100,3109A,115.0093,25.8613,赣州市,赣县区卫计委,,25,,29,8,19,77,,56,56,2,4,4,5,0.4,0.3
2025-04-12T1100,2683A,106.2319,36.1417,固原市,马园,颗粒物(PM10),500,618,1753,126,316,74,,70,64,8,6,4,5,0.7,0.6
2025-04-12T1100,2684A,106.2792,36.0022,固原市,监测站,颗粒物(PM10),397,497,1625,91,285,87,,79,76,3,4,4,4,0.5,0.4
2025-04-12T1100,2685A,106.2375,36.0211,固原市,新区,颗粒物(PM10),423,523,1469,100,262,87,,76,73,3,5,5,5,0.5,0.4
2025-04-12T1100,3522A,106.2177,35.9959,固原市,原州区十五小,颗粒物(PM10),317,433,1111,98,288,98,,87,82,4,5,4,6,0.2,0.2
2025-04-12T1100,2543A,106.6308,30.5278,广安市,小平旧居,,,,,,,,,,,,,,,,
2025-04-12T1100,2544A,106.6303,30.4576,广安市,市委,颗粒物(PM10),500,1088,336,219,72,83,,86,82,9,9,4,5,0.3,0.3
2025-04-12T1100,2545A,106.6271,30.4663,广安市,友谊中学,颗粒物(PM10),500,920,276,213,69,78,,83,78,11,11,2,2,0.1,0.2
2025-04-12T1100,2547A,106.6388,30.4551,广安市,广电花园,颗粒物(PM10),500,1024,287,210,65,76,,81,71,15,14,1,3,0.3,0.4
2025-04-12T1100,2902A,106.6351,30.4865,广安市,北辰小学,颗粒物(PM10),500,1117,359,204,69,,,84,80,12,9,4,7,0.3,0.3
2025-04-12T1100,2523A,105.8945,32.4535,广元市,黑石坡,颗粒物(PM10),500,1613,978,359,168,80,,84,84,3,4,1,1,0.2,0.2
2025-04-12T1100,2524A,105.821,32.4444,广元市,老城,颗粒物(PM10),500,1721,921,406,183,80,,90,85,6,4,1,2,0.3,0.2
2025-04-12T1100,2526A,105.8628,32.4287,广元市,监测站,颗粒物(PM10),500,1559,909,375,205,82,,92,90,6,3,6,6,0.3,0.3
2025-04-12T1100,3617A,105.8047,32.4166,广元市,经开区,"颗粒物(PM10),细颗粒物(PM2.5)",500,1920,980,556,210,68,,80,75,30,13,2,3,0.2,0.3
2025-04-12T1100,1345A,113.2347,23.1423,广州市,广雅中学,,36,36,32,18,15,19,,15,15,26,24,3,3,0.5,0.6
2025-04-12T1100,1346A,113.2612,23.105,广州市,市五中,,29,27,26,20,15,26,,25,25,25,23,1,1,0.6,0.6
2025-04-12T1100,1348A,113.3478,23.0916,广州市,广东商学院,,34,34,30,19,16,13,,11,11,30,30,4,4,0.6,0.5
2025-04-12T1100,1349A,113.4332,23.1047,广州市,市八十六中,,36,36,29,16,11,4,,8,6,35,37,3,3,0.8,0.7
2025-04-12T1100,1350A,113.3505,22.9483,广州市,番禺中学,,34,34,31,20,14,21,,15,15,27,24,4,4,0.6,0.5
2025-04-12T1100,1351A,113.2146,23.3916,广州市,花都师范,,38,38,40,18,18,20,,10,10,26,30,2,3,0.6,0.6
2025-04-12T1100,1352A,113.2597,23.1331,广州市,市监测站,,32,32,31,20,16,19,,13,13,28,27,4,4,0.4,0.4
2025-04-12T1100,1353A,113.5618,23.312,广州市,九龙镇镇龙,,,28,33,20,18,,,18,13,32,25,4,5,,0.5
2025-04-12T1100,1354A,113.2765,23.1544,广州市,麓湖,,32,32,31,16,14,21,,13,13,23,25,3,3,0.5,0.5
2025-04-12T1100,1355A,113.443,23.3035,广州市,帽峰山森林公园,,35,,26,24,12,28,,20,20,13,23,1,3,0.6,0.6
2025-04-12T1100,2846A,113.3221,23.1322,广州市,体育西,,46,46,39,21,14,10,,6,6,26,28,4,4,0.6,0.6
2025-04-12T1100,3298A,113.5717,23.5491,广州市,从化街口,,24,24,30,16,18,24,,24,23,17,16,8,8,0.7,0.7
2025-04-12T1100,3299A,113.3472,23.3692,广州市,白云竹料,,39,39,36,19,17,35,,26,26,20,24,6,6,0.6,0.5
2025-04-12T1100,3300A,113.2981,23.237,广州市,白云嘉禾,,31,31,33,20,18,21,,8,8,28,35,4,4,0.8,0.7
2025-04-12T1100,3301A,113.4256,23.1716,广州市,黄埔科学城,,40,40,35,24,16,6,,8,7,28,29,6,7,0.3,0.2
2025-04-12T1100,3302A,113.3942,23.0483,广州市,番禺大学城,,,,34,,14,,,41,,,28,,8,,0.4
2025-04-12T1100,3303A,113.4922,22.8168,广州市,南沙黄阁,,32,32,28,19,14,19,,27,22,22,16,4,4,0.8,0.7
2025-04-12T1100,3304A,113.5342,22.7896,广州市,南沙街,,24,24,30,15,15,18,,25,20,21,17,4,4,0.6,0.6
2025-04-12T1100,3443A,113.2902,23.5544,广州市,花都梯面,,40,40,35,18,17,8,,15,12,34,25,4,4,0.8,0.8
2025-04-12T1100,3445A,113.7858,23.7478,广州市,从化良口,,19,14,23,13,18,42,,38,37,7,10,6,6,0.5,0.5
2025-04-12T1100,3446A,113.8051,23.2614,广州市,增城荔城,,28,27,35,19,20,14,,8,7,20,20,6,6,0.2,0.2
2025-04-12T1100,2505A,109.568,23.1478,贵港市,德智高中,,,,,,,,,,,,,,,,
2025-04-12T1100,2506A,109.6047,23.0666,贵港市,江南子站,,44,44,46,26,32,72,,71,68,9,11,4,3,0.7,0.7
2025-04-12T1100,2508A,109.5669,23.1065,贵港市,荷城子站,,46,46,52,29,28,63,,62,61,14,15,5,4,0.3,0.4
2025-04-12T1100,3405A,109.5886,23.1172,贵港市,新世纪学校,,48,41,45,33,34,71,,70,69,14,17,8,8,0.8,0.9
2025-04-12T1100,4260A,109.5933,23.0951,贵港市,中山路155-3号,,47,47,51,30,34,70,,67,64,10,12,7,6,0.8,0.9
2025-04-12T1100,1439A,106.6899,26.5998,贵阳市,马鞍山,,25,12,43,3,21,77,,73,73,7,9,4,4,0.2,0.4
2025-04-12T1100,1441A,106.6243,26.6266,贵阳市,鉴湖路,,27,27,55,3,24,84,,84,81,4,8,10,11,0.2,0.5
2025-04-12T1100,1442A,106.7487,26.6343,贵阳市,燕子冲,,25,19,47,14,34,78,,76,76,10,12,1,4,0.1,0.4
2025-04-12T1100,1443A,106.6555,26.4365,贵阳市,碧云窝,,25,22,55,3,24,80,,98,88,10,11,4,5,0.2,0.4
2025-04-12T1100,1445A,106.7109,26.6027,贵阳市,红边门,,25,14,52,3,32,79,,90,84,10,17,2,4,0.0,0.4
2025-04-12T1100,1446A,106.7164,26.5699,贵阳市,新华路,,24,17,49,9,32,76,,86,82,8,12,1,21,0.0,0.5
2025-04-12T1100,1447A,106.674,26.5424,贵阳市,太慈桥,,23,17,45,3,25,73,,79,78,12,13,4,5,0.3,0.4
2025-04-12T1100,1552A,106.805,26.3003,贵阳市,桐木岭,,29,24,63,9,38,92,,101,93,2,4,1,3,0.5,0.8
2025-04-12T1100,4230A,106.6882,26.5695,贵阳市,花果园大街66号,,23,6,35,3,31,73,,83,77,8,13,3,6,0.1,0.3
2025-04-12T1100,4231A,106.6873,26.5169,贵阳市,漓江路57号,,24,12,43,3,29,76,,82,81,9,11,8,9,0.3,0.5
2025-04-12T1100,1862A,110.4144,25.3167,桂林市,电子科大尧山校区,,,,,,,,,,,,,,,,
2025-04-12T1100,1864A,110.3089,25.2708,桂林市,龙隐路小学,,43,43,51,17,33,99,,96,96,3,10,7,8,0.9,0.9
2025-04-12T1100,1865A,110.2869,25.2178,桂林市,八中,,,,55,,37,,,67,,,17,,8,,0.7
2025-04-12T1100,3531A,110.296,25.1253,桂林市,旅游学院,,46,46,41,27,30,78,,72,72,8,13,6,8,0.3,0.5
2025-04-12T1100,4222A,110.1835,25.2444,桂林市,环湖路276号,,44,44,50,29,34,71,,76,74,13,13,5,6,0.4,0.5
2025-04-12T1100,4301A,110.2803,25.2773,桂林市,信义路13号,,39,39,52,14,34,95,,93,93,8,13,6,7,0.4,0.7
2025-04-12T1100,2674A,100.2561,34.4714,果洛藏族自治州,玛沁县大武镇,,36,24,49,10,19,115,,105,101,2,2,15,14,0.4,0.3
2025-04-12T1100,1129A,126.5422,45.755,哈尔滨市,岭北,,50,50,96,29,66,112,,100,100,20,25,14,19,1.0,1.1
2025-04-12T1100,1130A,126.561,45.8167,哈尔滨市,松北商大,,,,117,,51,110,,98,98,15,18,11,12,,0.9
2025-04-12T1100,1131A,126.979,45.5419,哈尔滨市,阿城会宁,,35,35,127,21,80,111,,99,99,13,20,5,11,0.4,0.7
2025-04-12T1100,1132A,126.599,45.7222,哈尔滨市,南岗学府路,颗粒物(PM10),59,67,139,31,66,98,,84,84,22,24,10,11,0.9,1
2025-04-12T1100,1133A,126.689,45.7733,哈尔滨市,太平宏伟公园,,,,134,,59,99,,89,89,10,13,7,8,0.6,0.8
2025-04-12T1100,1134A,126.635,45.7667,哈尔滨市,道外承德广场,颗粒物(PM10),53,56,130,31,76,95,,84,84,29,26,16,13,0.4,0.6
2025-04-12T1100,1135A,126.685,45.7319,哈尔滨市,香坊红旗大街,颗粒物(PM10),54,58,137,24,74,94,,85,85,27,29,13,16,0.5,0.7
2025-04-12T1100,1136A,126.6411,45.7258,哈尔滨市,动力和平路,颗粒物(PM10),72,94,151,26,59,94,,84,84,21,24,13,14,0.6,0.8
2025-04-12T1100,1137A,126.593,45.7478,哈尔滨市,道里建国路,,,57,122,32,59,92,,83,83,26,28,,18,0.8,1
2025-04-12T1100,1138A,126.615,45.61,哈尔滨市,平房东轻厂,细颗粒物(PM2.5),52,52,133,36,69,104,,91,91,14,16,10,12,0.5,0.6
2025-04-12T1100,1139A,126.595,45.9855,哈尔滨市,呼兰师专,,46,46,127,22,63,94,,77,77,20,23,9,10,0.5,0.8
2025-04-12T1100,1140A,126.6206,45.6842,哈尔滨市,省农科院,颗粒物(PM10),59,67,154,37,71,90,,76,76,32,33,12,13,0.6,0.8
2025-04-12T1100,2688A,93.5128,42.8172,哈密市,地区监测站,,38,38,68,18,18,84,,66,66,14,18,7,4,0.2,0.3
2025-04-12T1100,2689A,93.4961,42.8328,哈密市,哈密师范学校,,35,35,57,14,16,87,,64,64,18,24,6,4,0.5,0.6
2025-04-12T1100,2671A,100.9048,36.9639,海北藏族自治州,海晏县西海镇,,32,8,21,6,13,100,,95,95,1,2,8,7,0.5,0.4
2025-04-12T1100,3867A,102.0738,36.5056,海东市,平安区公安北苑,,28,28,52,3,26,87,,49,49,7,11,4,5,0.5,0.5
2025-04-12T1100,1409A,110.576,19.9507,海口市,东寨港,,32,32,23,10,15,43,,25,25,3,4,6,6,0.4,0.4
2025-04-12T1100,1410A,110.3232,20.0574,海口市,海南大学,,,,28,,18,,,62,,,9,,2,,0.4
2025-04-12T1100,1411A,110.283,20.0053,海口市,秀英海南医院,,37,37,33,16,20,53,,38,38,7,13,4,4,0.3,0.3
2025-04-12T1100,1412A,110.338,19.9969,海口市,海南师范大学,,26,26,28,16,16,54,,36,36,3,5,3,3,0.4,0.4
2025-04-12T1100,1413A,110.33,20.0356,海口市,龙华路环保局宿舍,,28,28,29,14,16,54,,42,42,3,6,4,4,0.3,0.4
2025-04-12T1100,3539A,110.5111,19.9736,海口市,桂林洋子站,,27,27,24,16,15,52,,36,36,5,6,4,4,0.2,0.3
2025-04-12T1100,2673A,100.6188,36.2866,海南藏族自治州,共和县恰卜恰镇,,35,29,45,24,10,99,,108,95,7,3,10,12,0.4,0.4
2025-04-12T1100,2676A,97.3731,37.3753,海西蒙古族藏族自治州,德令哈市,,34,19,34,7,13,106,,108,103,1,1,6,9,0.6,0.4
2025-04-12T1100,1048A,114.5302,36.6116,邯郸市,东污水处理厂,颗粒物(PM10),78,106,328,3,80,81,,86,83,7,17,3,5,0.2,0.5
2025-04-12T1100,1049A,114.4918,36.5713,邯郸市,矿院,,,83,295,9,76,,,70,68,2,7,2,6,0.2,0.5
2025-04-12T1100,1050A,114.484,36.6133,邯郸市,丛台公园,颗粒物(PM10),76,102,355,23,77,80,,85,82,6,14,3,9,0.2,0.5
2025-04-12T1100,3458A,114.7895,36.5593,邯郸市,香泉濮院小区,颗粒物(PM10),101,151,466,15,81,73,,,,4,11,2,5,0.3,0.4
2025-04-12T1100,3579A,114.50634,36.77178,邯郸市,永年区实验高中,颗粒物(PM10),85,120,381,21,74,77,,82,79,2,11,3,7,0.4,0.7
2025-04-12T1100,3580A,114.20016,36.44293,邯郸市,峰峰矿区临水派出所,颗粒物(PM10),79,108,351,24,78,81,,90,84,4,11,2,7,0.6,1
2025-04-12T1100,2634A,106.9893,33.1842,汉中市,汉川机床厂子校,颗粒物(PM10),500,1259,1148,275,265,98,,100,100,2,7,6,7,0.9,0.7
2025-04-12T1100,2635A,107.0154,33.0706,汉中市,市监测站,颗粒物(PM10),500,1184,710,298,198,86,,90,89,5,10,4,6,0.5,0.7
2025-04-12T1100,2636A,107.0089,33.1138,汉中市,鑫源开发区,颗粒物(PM10),500,1113,1021,325,205,89,,93,93,4,9,4,5,0.3,0.5
2025-04-12T1100,2637A,107.007,33.0323,汉中市,南郑大河坎水厂,颗粒物(PM10),500,1089,903,328,243,94,,100,98,6,10,2,6,0.4,0.6
2025-04-12T1100,1223A,120.2072,30.2111,杭州市,滨江,,37,37,50,20,23,68,,69,58,27,26,5,7,0.7,0.6
2025-04-12T1100,1224A,120.0633,30.2747,杭州市,西溪,,28,28,46,18,27,60,,59,57,20,22,5,6,0.6,0.6
2025-04-12T1100,1226A,120.3417,30.3150,杭州市,下沙,细颗粒物(PM2.5),59,48,48,42,24,71,,58,58,28,36,5,7,0.6,0.5
2025-04-12T1100,1227A,120.1269,30.2456,杭州市,卧龙桥,,33,29,42,23,25,66,,61,60,20,26,5,6,0.6,0.5
2025-04-12T1100,1228A,120.1903,30.2692,杭州市,浙江农大,,33,33,42,23,23,62,,60,53,33,30,1,3,0.6,0.5
2025-04-12T1100,1230A,120.1197,30.3119,杭州市,和睦小学,,34,34,42,22,27,74,,66,65,20,26,6,7,0.8,0.7
2025-04-12T1100,1231A,120.3019,30.4183,杭州市,临平镇,细颗粒物(PM2.5),67,66,56,48,29,72,,62,62,26,27,5,6,0.7,0.6
2025-04-12T1100,1232A,120.2753,30.1839,杭州市,城厢镇,颗粒物(PM10),54,58,54,37,26,82,,72,67,22,26,6,8,0.7,0.7
2025-04-12T1100,1233A,120.0883,30.1808,杭州市,云栖,,33,33,46,20,22,66,,59,56,22,34,9,10,0.7,0.6
2025-04-12T1100,3557A,119.9464,30.0494,杭州市,镇二中,,,24,47,21,28,,,69,58,20,26,1,2,0.7,0.6
2025-04-12T1100,3558A,119.7183,30.2367,杭州市,市府大楼,,,16,52,11,28,,,72,70,13,18,7,8,0.9,0.7
2025-04-12T1100,3656A,120.1556,30.2864,杭州市,消防大队,,41,41,46,26,24,82,,67,67,20,30,4,4,0.7,0.7
2025-04-12T1100,1270A,117.1959,31.7848,合肥市,明珠广场,颗粒物(PM10),500,791,73,114,45,90,,102,98,8,14,3,2,0.2,0.4
2025-04-12T1100,1271A,117.3072,31.8764,合肥市,三里街,颗粒物(PM10),500,935,114,124,41,76,,93,87,10,14,3,4,0.2,0.4
2025-04-12T1100,1272A,117.2588,31.8707,合肥市,琥珀山庄,颗粒物(PM10),500,937,115,79,36,87,,95,92,,13,2,2,0.3,0.6
2025-04-12T1100,1273A,117.1604,31.9052,合肥市,董铺水库,颗粒物(PM10),500,1340,203,215,44,76,,108,95,,5,1,2,0.1,0.3
2025-04-12T1100,1274A,117.25,31.8571,合肥市,长江中路,颗粒物(PM10),500,911,119,120,45,85,,99,93,8,13,5,6,0.3,0.6
2025-04-12T1100,1275A,117.266,31.9436,合肥市,庐阳区,颗粒物(PM10),500,901,111,110,40,83,,99,92,6,12,4,6,0.2,0.5
2025-04-12T1100,1276A,117.3453,31.8616,合肥市,瑶海区,细颗粒物(PM2.5),160,,75,122,41,78,,98,91,8,16,5,6,0.3,0.7
2025-04-12T1100,1277A,117.3027,31.7964,合肥市,包河区,细颗粒物(PM2.5),180,,75,136,46,72,,92,86,16,24,5,6,0.2,0.5
2025-04-12T1100,1278A,117.2776,31.7385,合肥市,滨湖新区,细颗粒物(PM2.5),216,,36,166,52,79,,96,89,11,14,4,6,0.4,0.6
2025-04-12T1100,1279A,117.1318,31.8403,合肥市,高新区,颗粒物(PM10),500,835,75,110,43,83,,100,95,6,12,1,2,0.3,0.6
2025-04-12T1100,3464A,117.3803,31.9147,合肥市,高教基地,细颗粒物(PM2.5),170,,55,129,39,61,,94,89,31,12,4,4,0.1,0.4
2025-04-12T1100,3614A,79.924,37.0877,和田地区,地区环保局,颗粒物(PM10),220,364,1042,127,259,67,,70,70,9,7,2,2,0.6,0.6
2025-04-12T1100,3615A,79.9131,37.113,和田地区,市环保局,颗粒物(PM10),304,423,999,118,266,73,,74,74,4,3,3,2,0.7,0.6
2025-04-12T1100,2516A,108.2011,24.715,河池市,东仁乐园,颗粒物(PM10),71,92,60,14,39,92,,59,55,7,12,8,9,1.2,1.3
2025-04-12T1100,2517A,108.0497,24.6947,河池市,市环保站,颗粒物(PM10),53,56,51,9,33,86,,56,53,6,10,5,6,0.4,0.7
2025-04-12T1100,2518A,108.0983,24.6989,河池市,市疾控中心,颗粒物(PM10),53,55,51,6,35,97,,56,54,8,17,6,7,0.6,0.8
2025-04-12T1100,1696A,114.6778,23.7569,河源市,源西,,38,28,25,26,24,28,,26,25,12,12,3,3,0.5,0.5
2025-04-12T1100,1697A,114.6944,23.7586,河源市,东埔,,46,32,25,32,31,20,,23,21,18,16,4,3,0.5,0.6
2025-04-12T1100,1698A,114.6892,23.7233,河源市,老城,细颗粒物(PM2.5),55,41,30,39,24,17,,21,18,19,14,4,4,0.5,0.5
2025-04-12T1100,1718A,115.4208,35.2464,菏泽市,气象局,颗粒物(PM10),490,590,226,103,95,73,,81,81,17,15,3,4,0.3,0.4
2025-04-12T1100,3374A,115.5564,35.0891,菏泽市,定陶老年大学,颗粒物(PM10),334,447,220,90,86,80,,89,89,10,14,2,4,0.2,0.5
2025-04-12T1100,4184A,115.4797,35.24401,菏泽市,永昌路1号,颗粒物(PM10),441,541,205,95,93,71,,78,78,10,12,3,5,0.3,0.4
2025-04-12T1100,4193A,115.4715,35.2800,菏泽市,长城路999号,颗粒物(PM10),383,486,388,75,75,82,,89,89,10,17,,14,0.1,0.3
2025-04-12T1100,2514A,111.5264,24.4172,贺州市,环保小区,颗粒物(PM10),64,77,51,32,33,95,,42,42,7,18,6,7,0.4,0.7
2025-04-12T1100,2515A,111.5608,24.4078,贺州市,政协大楼,,,,57,50,30,88,,43,43,10,16,,11,,0.6
2025-04-12T1100,3534A,111.4744,24.4553,贺州市,西湾,,39,39,52,16,32,96,,37,37,6,22,7,7,0.5,0.7
2025-04-12T1100,2385A,114.17,35.9019,鹤壁市,市监测站,颗粒物(PM10),139,227,391,46,95,83,,90,90,4,14,2,6,0.6,0.8
2025-04-12T1100,2386A,114.2956,35.7511,鹤壁市,市交警支队,颗粒物(PM10),176,302,465,35,84,83,,90,88,10,22,5,7,0.2,0.5
2025-04-12T1100,2387A,114.2878,35.7306,鹤壁市,迎宾馆,颗粒物(PM10),180,310,536,19,69,86,,93,91,15,22,3,5,0.4,0.6
2025-04-12T1100,3474A,114.2617,35.6822,鹤壁市,大新区,颗粒物(PM10),338,450,479,34,103,84,,90,88,4,21,4,8,0.2,0.6
2025-04-12T1100,3596A,114.1572,35.9603,鹤壁市,南山宾馆,颗粒物(PM10),120,190,439,34,87,85,,94,92,3,13,,6,,0.3
2025-04-12T1100,2244A,130.2537,47.3416,鹤岗市,哈啤分公司,细颗粒物(PM2.5),67,60,40,48,28,75,,49,49,18,13,18,15,0.4,0.3
2025-04-12T1100,2245A,130.2684,47.3086,鹤岗市,斯达机电,细颗粒物(PM2.5),68,61,41,49,30,79,,50,50,18,13,15,13,0.5,0.4
2025-04-12T1100,2246A,130.3114,47.3388,鹤岗市,东山纸板厂,细颗粒物(PM2.5),72,85,52,52,36,76,,46,46,17,13,15,13,0.4,0.3
2025-04-12T1100,2247A,130.1097,47.3382,鹤岗市,五号水库,,,,,,,,,,,,,,,,
2025-04-12T1100,2263A,127.4833,50.2524,黑河市,交通局,,22,12,21,12,15,70,,68,67,6,7,6,8,0.6,0.5
2025-04-12T1100,2264A,127.5144,50.2341,黑河市,环保局,,22,,19,11,14,68,,67,66,10,8,3,4,0.3,0.2
2025-04-12T1100,2265A,127.5291,50.2472,黑河市,大黑河岛,,,,,,,,,,,,,,,,
2025-04-12T1100,1074A,115.6838,37.7541,衡水市,电机北厂,颗粒物(PM10),179,308,421,39,90,86,,83,80,5,9,3,7,0.2,0.3
2025-04-12T1100,1075A,115.6303,37.7316,衡水市,市监测站,,,,183,,64,,,109,,,16,,7,,0.5
2025-04-12T1100,3188A,115.6683,37.7217,衡水市,市城管局,颗粒物(PM10),138,225,422,33,84,84,,81,77,6,11,2,5,0.3,0.4
2025-04-12T1100,3459A,115.5989,37.5491,衡水市,地表水厂,颗粒物(PM10),108,166,456,16,81,88,,83,80,5,10,4,8,0.2,0.3
2025-04-12T1100,2456A,112.5003,26.9167,衡阳市,原169医院,颗粒物(PM10),253,387,57,42,30,76,,96,95,5,8,30,24,0.4,0.6
2025-04-12T1100,2457A,112.6194,26.9258,衡阳市,衡阳化工总厂,颗粒物(PM10),269,398,61,49,27,46,,82,78,8,6,5,7,0.5,0.7
2025-04-12T1100,2458A,112.6211,26.8956,衡阳市,珠晖区环保局,颗粒物(PM10),164,277,51,29,24,,,86,86,5,3,,8,0.4,0.7
2025-04-12T1100,2459A,112.6197,26.8733,衡阳市,市委党校,细颗粒物(PM2.5),135,,60,103,103,65,,,,,7,,2,0.8,0.6
2025-04-12T1100,2460A,112.6006,26.8919,衡阳市,市监测站,颗粒物(PM10),94,138,49,38,28,71,,88,87,8,8,7,8,0.5,0.7
2025-04-12T1100,2461A,112.5664,26.9056,衡阳市,真空机电公司,颗粒物(PM10),108,165,47,30,29,74,,92,90,4,5,6,7,0.4,0.7
2025-04-12T1100,3399A,112.6703,26.882,衡阳市,师范学院,颗粒物(PM10),169,288,65,20,30,80,,93,93,8,7,8,8,0.4,0.6
2025-04-12T1100,2608A,103.3772,23.3993,红河哈尼族彝族自治州,污水处理厂,"颗粒物(PM10),细颗粒物(PM2.5)",62,74,59,44,47,81,,70,63,16,12,32,12,0.5,0.5
2025-04-12T1100,2609A,103.3861,23.35,红河哈尼族彝族自治州,监测站,细颗粒物(PM2.5),69,82,70,50,47,81,,82,73,20,10,18,8,0.5,0.5
2025-04-12T1100,3038A,103.3758,23.368,红河哈尼族彝族自治州,州图书馆,细颗粒物(PM2.5),68,59,49,49,41,84,,87,79,19,10,19,7,0.4,0.3
2025-04-12T1100,1090A,111.6507,40.7517,呼和浩特市,呼市一监,,27,27,202,3,18,80,,85,81,1,2,11,10,0.5,0.5
2025-04-12T1100,1091A,111.6572,40.8033,呼和浩特市,小召,,36,36,177,3,18,76,,80,76,6,7,5,6,0.3,0.3
2025-04-12T1100,1094A,111.7516,40.8369,呼和浩特市,如意水处理厂,,36,36,118,3,17,73,,78,74,3,4,6,7,0.3,0.3
2025-04-12T1100,1095A,111.7276,40.8062,呼和浩特市,二十九中,,30,30,161,6,18,77,,83,78,2,2,3,3,0.4,0.3
2025-04-12T1100,1096A,111.5512,40.7866,呼和浩特市,工大金川校区,,25,22,156,3,16,80,,85,81,3,4,6,6,0.3,0.3
2025-04-12T1100,1097A,111.717,40.7612,呼和浩特市,化肥厂生活区,,29,29,125,3,20,79,,84,79,4,5,7,7,0.3,0.3
2025-04-12T1100,3698A,111.5968,40.8178,呼和浩特市,红旗小学,,26,22,197,3,15,82,,87,83,4,5,4,4,0.4,0.4
2025-04-12T1100,3699A,111.6518,40.8389,呼和浩特市,海东办,,27,27,170,3,16,74,,80,75,3,5,6,6,0.5,0.5
2025-04-12T1100,2192A,119.7594,49.2261,呼伦贝尔市,区环保局,,35,,62,24,23,77,,82,79,5,5,5,5,0.2,0.2
2025-04-12T1100,3061A,119.7512,49.1577,呼伦贝尔市,国华电力东,,39,39,75,13,14,80,,84,81,4,3,4,4,0.3,0.2
2025-04-12T1100,1250A,120.0751,30.8669,湖州市,城西水厂,,43,42,58,30,27,88,,74,73,28,27,5,7,0.5,0.5
2025-04-12T1100,2873A,120.0830,30.8929,湖州市,仁皇山新区,,48,46,64,33,31,134,,102,102,14,27,3,4,0.8,0.8
2025-04-12T1100,2907A,120.1844,30.8596,湖州市,吴兴区站,,49,49,47,31,23,105,,81,81,11,22,5,7,0.4,0.5
2025-04-12T1100,3562A,120.4148,30.8538,湖州市,南浔区站,颗粒物(PM10),58,65,47,40,24,101,,94,94,17,22,2,5,0.7,0.6
2025-04-12T1100,1607A,120.9049,40.7211,葫芦岛市,龙港区,颗粒物(PM10),80,110,64,18,22,81,,82,77,13,17,10,11,0.4,0.5
2025-04-12T1100,1608A,120.8392,40.7514,葫芦岛市,化工街,颗粒物(PM10),65,80,77,24,30,80,,69,69,15,22,8,11,0.4,0.4
2025-04-12T1100,1609A,120.8341,40.7073,葫芦岛市,新区,颗粒物(PM10),90,129,68,19,24,84,,83,81,17,20,8,9,0.4,0.5
2025-04-12T1100,1610A,120.8695,40.7677,葫芦岛市,东城区,颗粒物(PM10),70,90,68,15,25,85,,83,82,15,22,5,8,0.5,0.5
2025-04-12T1100,2482A,109.5981,27.5721,怀化市,林科所,,38,38,40,20,27,70,,83,81,6,8,4,4,0.3,0.3
2025-04-12T1100,2483A,109.9453,27.5444,怀化市,河西地税局,,45,45,39,20,30,70,,84,82,9,7,9,9,0.4,0.5
2025-04-12T1100,2484A,109.9781,27.5342,怀化市,市四医院,,44,44,46,22,29,75,,87,86,7,7,7,7,0.3,0.6
2025-04-12T1100,2485A,109.9972,27.5578,怀化市,监测楼,,48,48,43,20,30,74,,85,84,4,5,7,7,0.3,0.5
2025-04-12T1100,2486A,110.0394,27.583,怀化市,市委党校,,49,49,41,19,26,78,,84,83,5,5,6,5,0.4,0.7
2025-04-12T1100,1210A,119.036,33.5981,淮安市,钵池山,颗粒物(PM10),500,642,212,53,79,78,,79,73,11,21,10,13,0.4,0.9
2025-04-12T1100,1211A,119.007,33.575,淮安市,北京南路,颗粒物(PM10),500,644,214,54,79,75,,81,70,9,22,6,10,0.3,0.8
2025-04-12T1100,1212A,118.989,33.6067,淮安市,市监测站,颗粒物(PM10),500,637,215,73,69,75,,78,69,8,22,7,11,0.3,0.9
2025-04-12T1100,1213A,119.135,33.5039,淮安市,楚州区监测站,颗粒物(PM10),500,830,226,84,92,71,,67,64,9,18,7,10,0.3,0.7
2025-04-12T1100,3426A,118.8755,33.2894,淮安市,新华书店,颗粒物(PM10),500,834,260,74,52,82,,82,80,8,24,7,10,0.3,0.9
2025-04-12T1100,4206A,119.0288,33.6319,淮安市,承德北路606号,颗粒物(PM10),493,593,228,60,79,71,,73,66,8,20,7,10,0.3,0.8
2025-04-12T1100,2282A,116.8004,33.975,淮北市,监测站,颗粒物(PM10),357,465,231,44,47,84,,72,72,8,15,5,7,0.3,0.5
2025-04-12T1100,2283A,116.8091,33.9007,淮北市,烈山区政府,颗粒物(PM10),156,261,241,50,64,85,,70,70,12,18,4,6,0.2,0.5
2025-04-12T1100,3330A,116.8873,33.9836,淮北市,杜集区检察院,颗粒物(PM10),162,274,257,47,55,73,,67,67,8,17,4,7,0.6,0.9
2025-04-12T1100,4017A,116.7923,33.9535,淮北市,市博物馆,颗粒物(PM10),220,364,260,68,54,81,,68,68,7,16,4,6,0.5,0.9
2025-04-12T1100,2277A,116.8305,32.7727,淮南市,潘集区政府,颗粒物(PM10),500,832,367,119,72,,,90,85,,17,4,5,0.3,0.6
2025-04-12T1100,2279A,116.8569,32.5951,淮南市,谢家集区政府,颗粒物(PM10),500,832,243,104,52,85,,103,93,5,18,5,8,0.4,0.4
2025-04-12T1100,2280A,116.8281,32.633,淮南市,八公山区政府,颗粒物(PM10),500,782,326,107,64,81,,93,87,4,12,4,5,0.2,0.4
2025-04-12T1100,2281A,116.6325,32.6201,淮南市,焦岗湖风景区管理处,,,,,,,,,,,,,,,,
2025-04-12T1100,2894A,117.0566,32.6531,淮南市,经济技术开发区消防队,颗粒物(PM10),500,1008,370,96,64,79,,90,84,10,16,6,7,0.3,0.4
2025-04-12T1100,3329A,117.0108,32.5893,淮南市,山南新区,颗粒物(PM10),500,1151,396,152,76,79,,97,88,8,12,7,8,0.3,0.5
2025-04-12T1100,4209A,117.0031,32.6445,淮南市,国庆中路369号,颗粒物(PM10),500,750,337,128,71,79,,94,88,9,13,4,8,0.4,0.3
2025-04-12T1100,2446A,114.9028,30.4742,黄冈市,职工中心,颗粒物(PM10),290,413,140,108,48,115,,100,100,5,9,4,7,0.3,0.5
2025-04-12T1100,2929A,114.8858,30.4519,黄冈市,红卫路,颗粒物(PM10),437,537,204,83,46,101,,88,88,2,7,3,8,1.4,1.3
2025-04-12T1100,3398A,114.9136,30.4445,黄冈市,市林业局,,,,50,,37,,,103,,,6,,10,,0.9
2025-04-12T1100,2672A,102.0199,35.5102,黄南藏族自治州,同仁县隆务镇,,30,18,68,3,21,93,,68,68,1,3,13,12,0.2,0.2
2025-04-12T1100,2295A,118.2903,29.6963,黄山市,延安路89号,,49,49,40,34,20,92,,,,3,5,5,5,0.0,0.3
2025-04-12T1100,2297A,118.1371,30.2756,黄山市,黄山区政府5号楼,,,,29,,15,80,,88,88,3,3,3,4,0.9,0.8
2025-04-12T1100,4210A,118.3354,29.7203,黄山市,滨江东路7-2号,,30,30,33,13,13,89,,90,85,10,8,4,4,0.6,0.6
2025-04-12T1100,2423A,115.0601,30.2313,黄石市,沈家营,颗粒物(PM10),500,955,152,151,52,104,,94,94,3,9,7,7,0.4,0.6
2025-04-12T1100,2426A,114.8988,30.2019,黄石市,铁山,颗粒物(PM10),500,640,196,129,49,104,,91,91,2,5,5,8,1.2,0.4
2025-04-12T1100,2427A,115.0307,30.2092,黄石市,团城山,颗粒物(PM10),500,988,149,145,48,97,,86,86,6,10,7,8,0.4,0.5
2025-04-12T1100,3149A,115.0235,30.1578,黄石市,笔架山北路,颗粒物(PM10),500,717,131,106,45,107,,93,93,2,3,4,6,0.4,0.7
2025-04-12T1100,4185A,115.0780,30.21118,黄石市,磁湖东路29号,颗粒物(PM10),500,1045,221,158,54,108,,98,98,4,8,6,7,0.8,0.5
2025-04-12T1100,1392A,114.4183,23.0528,惠州市,河南岸金山湖子站,,23,22,24,16,15,22,,16,15,20,19,8,7,0.6,0.5
2025-04-12T1100,1393A,114.4053,23.0822,惠州市,下埔横江三路子站,,20,20,27,14,16,25,,18,17,16,17,8,8,0.7,0.6
2025-04-12T1100,1394A,114.4103,23.1142,惠州市,江北云山西路子站,,18,18,26,12,14,27,,21,20,15,16,9,9,0.5,0.5
2025-04-12T1100,1395A,114.4645,22.7833,惠州市,惠阳区承修路船湖子站,,26,26,22,16,14,15,,22,18,23,17,8,7,0.7,0.6
2025-04-12T1100,1396A,114.5317,22.7422,惠州市,大亚湾管委会子站,,21,21,24,13,13,26,,24,23,14,17,5,5,0.5,0.5
2025-04-12T1100,3314A,114.4338,22.8134,惠州市,惠阳秋长,,31,31,26,13,13,19,,20,18,13,10,10,10,0.4,0.4
2025-04-12T1100,3452A,114.6517,22.775,惠州市,大亚湾霞涌,,23,22,17,16,11,16,,30,26,23,16,6,5,0.2,0.3
2025-04-12T1100,2240A,130.9762,45.3001,鸡西市,环保局,细颗粒物(PM2.5),82,92,129,60,90,113,,59,59,19,27,10,9,0.7,0.9
2025-04-12T1100,2243A,130.9429,45.3039,鸡西市,第一中学,细颗粒物(PM2.5),90,110,122,67,86,109,,64,64,20,25,13,11,0.8,1
2025-04-12T1100,3707A,131.0207,45.3073,鸡西市,欧美日汽修厂,颗粒物(PM10),75,99,149,50,93,123,,71,71,21,22,9,10,0.5,0.7
2025-04-12T1100,3709A,130.9967,45.3106,鸡西市,市政设施管理处,颗粒物(PM10),77,103,132,51,88,102,,51,51,28,30,10,9,0.5,0.8
2025-04-12T1100,2367A,114.9754,27.0803,吉安市,红声器材厂,,34,34,39,13,22,89,,76,76,7,7,9,9,0.5,0.6
2025-04-12T1100,2368A,114.9658,27.0999,吉安市,市森林工业局,,36,36,38,16,23,84,,75,75,6,6,9,9,0.5,0.5
2025-04-12T1100,2369A,114.99,27.1312,吉安市,市环境监测站,,41,41,34,18,20,90,,77,77,8,7,13,13,0.2,0.4
2025-04-12T1100,2370A,115.0093,27.0968,吉安市,青原区法院,,36,36,36,16,24,94,,81,81,7,6,11,12,0.6,0.5
2025-04-12T1100,1772A,126.54,43.8622,吉林市,哈达湾,颗粒物(PM10),66,81,65,45,35,113,,106,106,21,17,10,9,0.5,0.5
2025-04-12T1100,1773A,126.5844,43.8358,吉林市,东局子,细颗粒物(PM2.5),60,57,66,43,35,109,,108,108,23,18,10,8,0.6,0.6
2025-04-12T1100,1774A,126.5052,43.8245,吉林市,电力学院,细颗粒物(PM2.5),78,94,59,57,37,105,,102,101,25,21,8,8,0.7,0.6
2025-04-12T1100,1775A,126.6133,43.8972,吉林市,江北,细颗粒物(PM2.5),64,71,62,46,32,111,,105,105,22,18,8,7,0.7,0.7
2025-04-12T1100,1776A,126.555,43.8306,吉林市,江南公园,细颗粒物(PM2.5),69,74,61,50,39,109,,106,104,21,16,10,8,0.5,0.4
2025-04-12T1100,1778A,126.7061,43.7133,吉林市,丰满,,46,46,51,30,38,122,,118,118,11,11,8,8,0.6,0.7
2025-04-12T1100,2868A,126.4739,43.953,吉林市,九站,颗粒物(PM10),61,72,63,42,36,111,,100,98,19,17,10,10,0.7,0.7
2025-04-12T1100,1299A,116.9862,36.6114,济南市,科干所,,,,323,,59,,,152,,,12,,8,,0.6
2025-04-12T1100,1300A,116.9376,36.665,济南市,农科所,颗粒物(PM10),106,161,286,68,61,83,,81,80,8,15,5,8,0.4,0.4
2025-04-12T1100,1301A,117.1265,36.6734,济南市,开发区,颗粒物(PM10),103,156,284,42,58,88,,87,85,10,12,5,8,0.5,0.6
2025-04-12T1100,1303A,117.0624,36.6868,济南市,省种子仓库,颗粒物(PM10),185,320,383,31,61,84,,83,81,2,8,10,12,0.6,0.7
2025-04-12T1100,1304A,116.9489,36.6447,济南市,机床二厂,颗粒物(PM10),147,244,430,24,54,89,,87,86,9,17,7,9,0.3,0.5
2025-04-12T1100,1305A,117.0495,36.663,济南市,市监测站,颗粒物(PM10),119,188,334,29,56,78,,77,76,6,13,7,9,0.4,0.5
2025-04-12T1100,1306A,116.7675,36.5484,济南市,长清党校,颗粒物(PM10),119,188,323,29,62,91,,90,90,6,14,4,9,0.4,0.7
2025-04-12T1100,1616A,117.6795,36.229,济南市,技术学院,颗粒物(PM10),101,151,140,17,53,81,,85,82,8,16,8,13,0.5,0.7
2025-04-12T1100,1961A,117.532,36.6868,济南市,东山小学,颗粒物(PM10),108,166,322,27,56,86,,88,84,2,9,5,8,0.3,0.4
2025-04-12T1100,3059A,117.7161,36.2049,济南市,泰兴公司,颗粒物(PM10),84,117,113,19,45,86,,84,84,8,19,7,11,0.4,0.7
2025-04-12T1100,3064A,117.6867,36.2171,济南市,莱芜战役纪念馆,颗粒物(PM10),90,129,117,14,38,86,,86,86,12,18,4,8,0.3,0.6
2025-04-12T1100,3494A,117.1673,36.9782,济南市,济阳区政府,颗粒物(PM10),100,149,313,63,58,86,,86,85,6,15,7,9,0.3,0.5
2025-04-12T1100,3495A,117.1171,36.63,济南市,锦屏中学,颗粒物(PM10),106,161,292,24,58,81,,81,79,8,11,7,9,0.2,0.4
2025-04-12T1100,3682A,116.9814,36.6819,济南市,济南四建,颗粒物(PM10),173,295,161,27,67,83,,80,79,6,12,3,6,0.3,0.5
2025-04-12T1100,1653A,116.6251,35.4302,济宁市,火炬城,颗粒物(PM10),152,253,331,53,80,71,,74,74,2,8,2,7,0.1,0.4
2025-04-12T1100,1655A,116.5491,35.4042,济宁市,电化厂,颗粒物(PM10),168,285,389,88,85,73,,76,76,11,16,3,6,0.0,0.4
2025-04-12T1100,3500A,116.5814,35.3707,济宁市,北湖一中,颗粒物(PM10),132,213,324,61,72,79,,83,83,7,17,3,6,0,0.3
2025-04-12T1100,3501A,116.8249,35.5593,济宁市,服务中心,颗粒物(PM10),134,217,298,29,52,77,,79,79,6,15,3,3,0.4,0.6
2025-04-12T1100,3678A,116.5907,35.4054,济宁市,市第七中学,细颗粒物(PM2.5),267,340,157,217,116,76,,79,79,4,12,3,5,0.2,0.5
2025-04-12T1100,2255A,130.2751,46.8028,佳木斯市,佳纺,细颗粒物(PM2.5),54,55,98,38,91,75,,39,39,13,23,11,11,0.8,0.9
2025-04-12T1100,2256A,130.3995,46.8307,佳木斯市,发电厂,,,59,106,48,98,89,,46,46,,27,10,9,0.8,0.8
2025-04-12T1100,2257A,130.3258,46.7975,佳木斯市,环保局,细颗粒物(PM2.5),59,47,106,42,81,70,,42,42,21,32,9,7,0.7,0.7
2025-04-12T1100,2258A,130.3648,46.8032,佳木斯市,十一中,细颗粒物(PM2.5),57,44,91,40,82,74,,43,43,15,24,11,10,0.7,0.7
2025-04-12T1100,2259A,130.3794,46.7588,佳木斯市,四丰,细颗粒物(PM2.5),59,44,93,42,60,65,,34,34,22,28,1,1,1.2,1.2
2025-04-12T1100,1252A,120.7436,30.778,嘉兴市,清河小学,,28,28,54,10,18,74,,75,70,17,22,5,7,0.9,0.8
2025-04-12T1100,1253A,120.726,30.7478,嘉兴市,嘉兴学院,,32,32,52,13,24,86,,76,73,15,21,7,9,0.6,0.6
2025-04-12T1100,2872A,120.7846,30.7525,嘉兴市,南湖区残联,,31,31,55,14,27,90,,78,74,16,23,5,7,0.7,0.7
2025-04-12T1100,3407A,120.6916,30.7739,嘉兴市,秀洲住建,,29,19,54,10,19,90,,78,76,14,20,6,7,0.7,0.7
2025-04-12T1100,1945A,98.2908,39.7711,嘉峪关市,气象局,,30,29,36,9,11,95,,68,68,15,13,10,4,0.7,0.5
2025-04-12T1100,2884A,98.2672,39.7978,嘉峪关市,酒钢宾馆,,41,41,46,14,14,87,,62,62,22,13,30,14,0.9,0.2
2025-04-12T1100,3248A,98.2643,39.7724,嘉峪关市,雄关区,,30,24,39,11,18,94,,57,57,17,19,8,7,0.6,0.5
2025-04-12T1100,1383A,113.1064,22.6058,江门市,北街,,44,44,25,22,11,25,,29,23,14,4,2,2,0.5,0.4
2025-04-12T1100,1384A,113.0731,22.5835,江门市,西区,,36,36,27,13,14,34,,29,24,16,15,7,7,0.4,0.4
2025-04-12T1100,1385A,113.0219,22.5311,江门市,圭峰西,,42,42,30,11,12,35,,24,23,11,17,4,4,0.3,0.3
2025-04-12T1100,1386A,113.0828,22.5947,江门市,东湖,,32,32,21,22,15,34,,32,25,13,8,6,6,0.4,0.4
2025-04-12T1100,3311A,113.1075,22.5647,江门市,江海富民,,35,35,33,18,16,32,,31,25,12,8,7,6,0.4,0.4
2025-04-12T1100,3449A,113.05,22.4667,江门市,新会银湖,,38,38,25,16,11,36,,28,26,7,8,1,3,0.3,0.3
2025-04-12T1100,1830A,113.1992,35.2590,焦作市,影视城,,,,260,,46,,,,,,3,,6,,0.6
2025-04-12T1100,3169A,113.2725,35.2067,焦作市,太极体育中心,颗粒物(PM10),96,142,606,24,103,92,,108,102,1,11,5,8,0.5,0.4
2025-04-12T1100,3335A,113.3137,35.2641,焦作市,马村街道办,颗粒物(PM10),93,136,444,40,87,84,,96,92,10,15,6,10,0.3,0.6
2025-04-12T1100,3336A,113.2465,35.2373,焦作市,焦作技师学院,颗粒物(PM10),121,192,608,19,81,84,,98,93,4,11,4,7,0.4,0.6
2025-04-12T1100,3477A,113.1656,35.2539,焦作市,中站许衡医院,颗粒物(PM10),84,118,467,39,81,94,,108,103,3,14,6,12,0.3,0.7
2025-04-12T1100,3981A,113.2449,35.1803,焦作市,原李万街道办,颗粒物(PM10),98,145,564,19,101,83,,92,90,8,14,4,10,0.5,0.5
2025-04-12T1100,4264A,113.2340,35.2190,焦作市,新安路1731号,颗粒物(PM10),99,147,591,28,103,86,,99,94,3,8,5,8,0.3,0.5
2025-04-12T1100,1708A,116.3701,23.5345,揭阳市,新兴,颗粒物(PM10),57,63,52,34,35,23,,24,21,27,19,6,6,0.9,0.8
2025-04-12T1100,1709A,116.3264,23.5443,揭阳市,西马,颗粒物(PM10),55,59,44,17,25,27,,30,27,15,9,8,7,0.7,0.7
2025-04-12T1100,1710A,116.3611,23.5626,揭阳市,东兴,,,72,51,24,31,25,,32,27,,12,,7,0.8,0.9
2025-04-12T1100,1711A,116.4151,23.5294,揭阳市,渔湖,,,,49,,20,,,58,,,15,,5,,0.8
2025-04-12T1100,3320A,116.403,23.5699,揭阳市,曲溪,颗粒物(PM10),51,52,38,22,23,27,,31,26,23,16,3,2,0.6,0.9
2025-04-12T1100,1944A,102.1692,38.5167,金昌市,天庆家园,颗粒物(PM10),489,589,1018,193,203,82,,81,78,19,5,77,18,0.9,0.6
2025-04-12T1100,4022A,102.1647,38.5371,金昌市,金川区人防中心,颗粒物(PM10),500,867,1612,213,252,71,,74,70,24,6,23,12,0.7,0.5
2025-04-12T1100,4239A,102.1930,38.5319,金昌市,长春路96号,颗粒物(PM10),500,827,1064,186,212,78,,71,69,14,4,47,20,0.7,0.6
2025-04-12T1100,1262A,119.647,29.077,金华市,十五中,,20,15,44,3,17,63,,78,64,23,17,6,6,0.8,0.6
2025-04-12T1100,1263A,119.686,29.1029,金华市,监测站,,20,9,45,6,23,63,,80,65,23,18,4,5,0.7,0.5
2025-04-12T1100,3659A,119.656,29.1131,金华市,气象局,,18,11,42,3,20,57,,69,56,24,20,1,2,0.8,0.5
2025-04-12T1100,1767A,121.1115,41.0879,锦州市,南山,颗粒物(PM10),74,97,77,19,29,73,,82,82,12,17,9,10,0.5,0.6
2025-04-12T1100,1768A,121.0604,40.8428,锦州市,开发区,颗粒物(PM10),80,110,81,25,28,84,,84,78,13,24,5,6,0.6,0.6
2025-04-12T1100,1769A,121.1836,41.1119,锦州市,百股街道,颗粒物(PM10),73,96,67,19,24,76,,87,85,14,17,5,6,0.4,0.4
2025-04-12T1100,1770A,121.1178,41.1222,锦州市,天安街道,颗粒物(PM10),67,83,82,17,28,80,,92,92,12,17,9,11,0.5,0.6
2025-04-12T1100,1771A,121.1303,41.1386,锦州市,北湖公园,,,80,75,19,28,,,80,79,11,18,7,9,0.6,0.6
2025-04-12T1100,2160A,112.85,35.5051,晋城市,自来水公司,颗粒物(PM10),83,116,482,14,72,81,,91,86,4,8,6,7,0.3,0.4
2025-04-12T1100,2161A,112.8318,35.4936,晋城市,白云商贸,颗粒物(PM10),116,182,521,,151,82,,91,86,7,11,4,6,0.4,0.5
2025-04-12T1100,2162A,112.8508,35.4887,晋城市,市环保局,颗粒物(PM10),107,163,483,22,74,82,,92,86,1,6,3,4,0.3,0.2
2025-04-12T1100,2163A,112.8676,35.4897,晋城市,技术学院,颗粒物(PM10),123,196,606,22,96,78,,87,82,5,10,4,6,0.3,0.4
2025-04-12T1100,2165A,112.8453,35.546,晋城市,白马寺,颗粒物(PM10),80,110,408,47,97,74,,86,80,45,23,4,5,0.5,0.5
2025-04-12T1100,3620A,112.8271,35.4828,晋城市,泽州一中,颗粒物(PM10),113,176,504,34,94,84,,92,88,4,7,6,7,0.3,0.4
2025-04-12T1100,2173A,112.7249,37.7067,晋中市,南都小区,,,,536,15,69,79,,80,76,6,10,3,4,0.3,0.2
2025-04-12T1100,2174A,112.6991,37.6982,晋中市,榆次区政府,颗粒物(PM10),57,63,588,13,62,81,,86,83,5,7,4,5,0,0
2025-04-12T1100,2865A,112.7195,37.6828,晋中市,榆次三中,颗粒物(PM10),59,68,648,3,72,79,,84,79,4,5,3,4,0.1,0.1
2025-04-12T1100,4200A,112.7478,37.6954,晋中市,迎宾街26号,颗粒物(PM10),56,61,545,9,75,79,,82,77,3,6,3,4,0.2,0.2
2025-04-12T1100,2439A,112.2014,31.0481,荆门市,竹园小学,颗粒物(PM10),500,734,373,116,63,94,,95,95,16,11,3,4,0,0.2
2025-04-12T1100,2440A,112.1969,30.9891,荆门市,掇刀,颗粒物(PM10),500,700,324,110,54,84,,106,97,4,6,5,7,0.1,0.3
2025-04-12T1100,2441A,112.2213,31.0386,荆门市,石化一小,颗粒物(PM10),500,661,302,97,60,92,,91,91,6,8,7,6,0.0,0.2
2025-04-12T1100,3012A,112.1849,31.0362,荆门市,西山林语,颗粒物(PM10),500,633,292,109,57,95,,96,96,2,4,5,5,0.1,0.2
2025-04-12T1100,3547A,112.1632,31.0138,荆门市,龙泉中学南校,颗粒物(PM10),500,841,393,152,78,93,,97,96,17,8,5,6,0.6,0.6
2025-04-12T1100,1844A,112.2494,30.3197,荆州市,市图书馆,颗粒物(PM10),500,656,226,212,53,87,,84,84,7,9,3,3,0.5,0.6
2025-04-12T1100,1845A,112.2008,30.3544,荆州市,市委党校,颗粒物(PM10),500,620,206,208,46,91,,88,88,12,10,4,4,0.4,0.6
2025-04-12T1100,3194A,112.2747,30.3122,荆州市,管委会,颗粒物(PM10),411,511,188,204,65,90,,89,89,14,9,3,4,0.3,0.5
2025-04-12T1100,4268A,112.1722,30.3366,荆州市,学苑路85号,颗粒物(PM10),500,711,206,146,63,85,,82,82,10,12,1,4,0.2,0.4
2025-04-12T1100,2342A,117.3102,29.3867,景德镇市,王港中学,,,,,,,,,,,,,,,,
2025-04-12T1100,2343A,117.2117,29.2933,景德镇市,老干部活动中心,颗粒物(PM10),123,196,32,69,14,88,,93,93,9,9,6,7,0.3,0.5
2025-04-12T1100,2344A,117.1894,29.2789,景德镇市,兽医站,颗粒物(PM10),101,152,50,40,19,85,,86,86,6,10,3,4,0.4,0.5
2025-04-12T1100,2345A,117.1547,29.2617,景德镇市,台达陶瓷,颗粒物(PM10),102,154,37,28,20,82,,87,87,6,14,4,30,0.2,0.5
2025-04-12T1100,2346A,117.2461,29.2956,景德镇市,陶研所,细颗粒物(PM2.5),110,162,28,83,20,90,,91,91,6,8,32,7,0.4,0.8
2025-04-12T1100,1803A,115.9872,29.6815,九江市,十里,颗粒物(PM10),500,694,71,151,27,78,,92,83,4,6,1,2,0.3,0.5
2025-04-12T1100,1804A,115.9584,29.7046,九江市,茅山头,颗粒物(PM10),500,1165,99,200,32,76,,92,80,9,12,4,5,0.2,0.4
2025-04-12T1100,1805A,115.9877,29.7295,九江市,西园,颗粒物(PM10),498,598,79,146,25,85,,101,90,11,13,6,6,0.6,0.9
2025-04-12T1100,1808A,115.9114,29.6038,九江市,综合工业园,颗粒物(PM10),500,1225,112,319,37,76,,91,84,19,17,6,7,0.3,0.8
2025-04-12T1100,1809A,116.0721,29.7535,九江市,石化总厂,颗粒物(PM10),500,630,70,105,37,92,,99,89,5,6,3,6,0.4,0.7
2025-04-12T1100,1810A,115.9773,29.5698,九江市,庐山气象台,颗粒物(PM10),414,514,51,261,30,72,,93,82,7,9,7,8,0.6,0.7
2025-04-12T1100,3190A,116.0254,29.6994,九江市,外国语学校,颗粒物(PM10),500,1890,173,150,27,67,,80,72,10,10,6,7,0.7,0.9
2025-04-12T1100,4253A,116.0102,29.6594,九江市,莲花大道8号,颗粒物(PM10),500,825,72,173,27,72,,87,78,6,3,3,4,0.3,0.6
2025-04-12T1100,4240A,98.4958,39.7339,酒泉市,玉门东路5号,,34,34,85,11,30,96,,69,69,9,10,9,8,0.3,0.3
2025-04-12T1100,4241A,98.5099,39.7506,酒泉市,北大街108号,颗粒物(PM10),67,83,102,3,25,100,,70,70,14,12,14,11,0.4,0.2
2025-04-12T1100,2698A,76.0072,39.4467,喀什地区,巡警大队,颗粒物(PM10),155,259,133,83,41,40,,72,64,38,16,4,5,0.6,0.5
2025-04-12T1100,2699A,75.9755,39.4694,喀什地区,吾办,颗粒物(PM10),145,240,121,69,56,41,,72,67,33,12,1,4,0.7,0.5
2025-04-12T1100,4027A,75.9483,39.4689,喀什地区,老干局,颗粒物(PM10),141,232,116,64,45,37,,74,68,35,11,3,5,0.3,0.1
2025-04-12T1100,1824A,114.3389,34.7781,开封市,肿瘤医院,颗粒物(PM10),475,575,559,51,76,87,,93,92,6,12,5,7,0.4,0.7
2025-04-12T1100,1826A,114.2885,34.7965,开封市,世纪星幼儿园,颗粒物(PM10),389,491,627,90,93,93,,101,100,9,18,4,6,0.4,0.5
2025-04-12T1100,3147A,114.3438,34.8106,开封市,龙亭公园,颗粒物(PM10),475,575,589,102,99,90,,96,94,10,16,1,4,0.4,0.6
2025-04-12T1100,3210A,114.3644,34.7964,开封市,汴京公园,颗粒物(PM10),500,655,314,,88,88,,,,6,15,2,4,1.6,0.7
2025-04-12T1100,3473A,114.2485,34.8306,开封市,技师学院,颗粒物(PM10),304,423,424,218,132,86,,92,91,10,19,3,5,0.6,0.9
2025-04-12T1100,3592A,114.4644,34.7556,开封市,祥符区生态环境局,颗粒物(PM10),500,610,252,119,91,88,,94,93,10,14,4,7,0.4,0.6
2025-04-12T1100,1951A,84.895,45.6094,克拉玛依市,长征新村,,28,12,14,3,7,89,,87,87,6,7,7,6,0.2,0.1
2025-04-12T1100,1952A,84.8988,45.5893,克拉玛依市,南林小区,,,16,14,6,5,,,99,98,2,2,3,3,0.3,0.2
2025-04-12T1100,1954A,84.905,44.3396,克拉玛依市,独山子区,,39,39,29,16,10,91,,70,67,6,9,11,7,0.3,0.2
2025-04-12T1100,1955A,85.6979,46.098,克拉玛依市,乌尔禾区商贸楼,颗粒物(PM10),55,59,22,7,9,94,,71,71,4,10,6,6,0.2,0.2
2025-04-12T1100,3612A,85.1045,45.6899,克拉玛依市,白碱滩区新站,,29,21,11,3,5,92,,96,95,3,3,10,9,0.2,0.2
2025-04-12T1100,2697A,76.1454,39.7142,克孜勒苏柯尔克孜自治州,市人民政府,颗粒物(PM10),299,419,200,102,59,81,,100,96,15,5,12,10,0.2,0.2
2025-04-12T1100,3665A,76.1658,39.7157,克孜勒苏柯尔克孜自治州,克州文化中心,颗粒物(PM10),317,433,192,109,60,80,,95,92,11,3,13,8,0.4,0.3
2025-04-12T1100,1450A,102.8204,24.8886,昆明市,呈贡新区,,30,30,44,18,26,82,,68,66,13,12,10,7,0.6,0.6
2025-04-12T1100,1451A,102.6251,24.9608,昆明市,西山森林公园,,,,,,,,,,,,,,,,
2025-04-12T1100,1452A,102.7252,25.0902,昆明市,龙泉镇,,30,30,38,10,23,87,,70,70,10,12,8,8,0.4,0.5
2025-04-12T1100,1453A,102.7266,25.0375,昆明市,东风东路,,30,30,37,16,27,89,,73,73,14,13,8,8,0.5,0.5
2025-04-12T1100,1454A,102.6742,25.0669,昆明市,金鼎山,,32,32,40,17,26,85,,72,72,14,12,7,7,0.6,0.7
2025-04-12T1100,1455A,102.6644,25.0401,昆明市,碧鸡广场,,30,29,37,21,26,86,,70,70,14,13,7,7,0.7,0.7
2025-04-12T1100,3179A,102.7494,25.0119,昆明市,官渡区博物馆,颗粒物(PM10),53,56,41,14,23,80,,65,60,20,14,7,8,0.4,0.4
2025-04-12T1100,3375A,102.8017,24.8336,昆明市,青年创业园,,28,28,38,18,28,85,,60,55,10,11,9,9,0.5,0.5
2025-04-12T1100,3550A,102.7997,24.9786,昆明市,昆明学院,,39,39,42,16,27,82,,67,63,19,13,4,5,0.4,0.4
2025-04-12T1100,3551A,102.5967,24.6736,昆明市,晋宁区生态环境分局,,39,27,29,27,27,94,,66,65,8,8,11,8,0.7,0.8
2025-04-12T1100,3552A,102.6678,24.9856,昆明市,云天化总部,,37,37,37,25,26,79,,67,61,18,13,9,10,0.7,0.7
2025-04-12T1100,1456A,91.1319,29.6514,拉萨市,八廓街,,43,18,14,10,9,135,,135,125,9,9,6,6,0.5,0.5
2025-04-12T1100,1457A,91.1221,29.6747,拉萨市,市环保局,,40,22,17,13,8,126,,128,114,15,14,4,4,0.4,0.3
2025-04-12T1100,1458A,91.0874,29.6475,拉萨市,区监测站,,,,13,,7,,,140,,,12,,6,,0.5
2025-04-12T1100,1459A,91.1774,29.6541,拉萨市,西藏大学,,40,9,16,8,7,126,,131,119,13,11,6,5,0.2,0.3
2025-04-12T1100,1460A,90.9798,29.6588,拉萨市,区辐射站,,39,13,18,6,7,124,,123,111,15,16,8,8,0.4,0.4
2025-04-12T1100,1461A,91.0834,29.6292,拉萨市,拉萨火车站,,39,11,11,3,6,124,,125,116,10,9,4,3,0.2,0.2
2025-04-12T1100,2520A,109.2203,23.7256,来宾市,来宾技工学校,,46,44,47,32,31,85,,88,85,12,7,8,6,0.8,0.8
2025-04-12T1100,3535A,109.1781,23.7297,来宾市,兴宾区政府,,46,42,43,32,31,88,,85,82,8,6,6,4,0.8,0.8
2025-04-12T1100,4002A,109.2416,23.7461,来宾市,中南小学,"颗粒物(PM10),细颗粒物(PM2.5)",52,53,46,36,29,84,,89,86,11,7,7,6,0.8,0.8
2025-04-12T1100,1477A,104.1373,35.9454,兰州市,榆中兰大校区,,,,,,,,,,,,,,,,
2025-04-12T1100,1479A,103.831,36.0464,兰州市,铁路设计院,颗粒物(PM10),500,1356,1055,336,247,65,,76,66,22,22,16,8,0.6,0.5
2025-04-12T1100,3241A,103.7439,36.0842,兰州市,百合公园,颗粒物(PM10),500,1341,937,328,218,62,,70,63,15,12,10,3,0.5,0.4
2025-04-12T1100,3242A,103.9611,35.998,兰州市,和平,颗粒物(PM10),500,1603,1045,466,284,71,,62,60,11,13,17,12,0.5,0.6
2025-04-12T1100,4236A,103.6293,36.0938,兰州市,庄浪东路808号,颗粒物(PM10),500,1530,1178,428,293,62,,59,53,19,19,11,7,0.4,0.3
2025-04-12T1100,4237A,103.7251,36.1043,兰州市,安宁西路88号,颗粒物(PM10),500,1584,1146,323,227,66,,75,68,14,10,11,5,0.4,0.2
2025-04-12T1100,4238A,103.8470,36.0676,兰州市,北滨河东路1号,颗粒物(PM10),500,1433,976,339,221,78,,82,75,10,14,18,10,0.5,0.5
2025-04-12T1100,3245A,103.6633,36.533,兰州新区,新区管委会,颗粒物(PM10),500,1019,1010,300,273,76,,73,67,9,6,51,19,0.6,0.3
2025-04-12T1100,3246A,103.6975,36.4789,兰州新区,舟曲中学,颗粒物(PM10),500,1614,1460,392,312,78,,78,73,8,8,18,28,0.2,0.2
2025-04-12T1100,1067A,116.6708,39.5111,廊坊市,药材公司,颗粒物(PM10),123,195,221,22,63,81,,80,79,3,10,1,4,,0.5
2025-04-12T1100,1068A,116.7214,39.5589,廊坊市,开发区,颗粒物(PM10),123,196,240,27,56,85,,83,83,3,13,1,4,0.2,0.4
2025-04-12T1100,1070A,116.7244,39.5269,廊坊市,北华航天学院,颗粒物(PM10),110,170,251,13,46,84,,83,82,4,9,3,6,0.2,0.4
2025-04-12T1100,2919A,116.7022,39.5453,廊坊市,河北工业大学,颗粒物(PM10),114,177,240,23,56,83,,82,82,4,13,4,7,0.2,0.4
2025-04-12T1100,2535A,103.7723,29.5462,乐山市,花湖湾,颗粒物(PM10),156,262,68,93,32,54,,79,70,25,14,6,6,0.4,0.5
2025-04-12T1100,2536A,103.7627,29.5844,乐山市,牛耳桥,颗粒物(PM10),182,314,76,87,31,60,,78,70,24,16,9,7,0.4,0.5
2025-04-12T1100,2537A,103.7508,29.6006,乐山市,市第三水厂,颗粒物(PM10),179,308,74,70,29,63,,82,73,21,14,6,5,0.4,0.5
2025-04-12T1100,2538A,103.7571,29.5664,乐山市,市监测站,颗粒物(PM10),164,277,74,65,32,56,,78,69,24,15,8,6,0.4,0.5
2025-04-12T1100,3361A,103.7311,29.5628,乐山市,理工大学,颗粒物(PM10),164,277,73,82,32,63,,82,72,21,15,5,5,0.4,0.5
2025-04-12T1100,2598A,100.2143,26.8576,丽江市,西南郊,,38,36,27,26,15,100,,111,103,13,4,5,5,0.7,0.6
2025-04-12T1100,2599A,100.2497,26.8802,丽江市,丽江古城,,36,36,25,21,16,102,,102,97,13,10,8,7,0.7,0.6
2025-04-12T1100,2600A,100.2203,26.8906,丽江市,市中心,,,,24,,13,,,,,,15,,8,,0.5
2025-04-12T1100,1267A,119.914,28.4514,丽水市,监测站大楼,,,16,33,14,17,54,,65,54,,13,,2,0.9,0.6
2025-04-12T1100,1268A,119.93,28.4586,丽水市,莲都小学,,20,20,33,10,13,50,,67,53,20,12,3,3,0.5,0.4
2025-04-12T1100,1269A,119.879,28.4231,丽水市,余庄前,,27,27,35,18,18,36,,47,38,22,12,3,3,0.7,0.5
2025-04-12T1100,1173A,119.176,34.5885,连云港市,市环境监测站,颗粒物(PM10),159,268,122,29,53,76,,74,71,7,17,8,10,0.6,0.5
2025-04-12T1100,3000A,119.3581,34.6972,连云港市,德源药业,颗粒物(PM10),226,368,139,31,52,68,,54,54,14,30,8,9,0.4,0.6
2025-04-12T1100,3007A,119.178,34.844,连云港市,新城一中,颗粒物(PM10),102,153,101,32,33,73,,79,79,10,24,6,7,0.5,0.8
2025-04-12T1100,3008A,119.3608,34.7519,连云港市,胡沟管理处,,,,100,,48,74,,81,74,14,29,10,11,0.4,0.5
2025-04-12T1100,3009A,119.1478,34.5911,连云港市,矿山设计院,颗粒物(PM10),150,249,126,29,50,72,,62,62,13,22,7,9,0.4,0.6
2025-04-12T1100,3434A,119.2413,34.6539,连云港市,工贸学校,颗粒物(PM10),292,414,117,29,42,76,,80,74,11,17,7,8,0.5,0.7
2025-04-12T1100,3664A,119.4172,34.7341,连云港市,连云街道,颗粒物(PM10),140,230,103,25,34,62,,90,78,24,26,7,8,0.5,0.7
2025-04-12T1100,2571A,102.3431,27.8099,凉山彝族自治州,青龙寺,,25,7,27,3,10,77,,86,85,3,7,6,7,0.4,0.4
2025-04-12T1100,2572A,102.2721,27.8415,凉山彝族自治州,邛海宾馆,,27,11,28,3,16,85,,95,94,6,10,6,8,0.3,0.4
2025-04-12T1100,2573A,102.2625,27.898,凉山彝族自治州,西昌市政府,,27,13,28,3,18,84,,100,92,5,6,8,9,0.3,0.4
2025-04-12T1100,2574A,102.2685,27.8851,凉山彝族自治州,凉山州政府,,27,6,30,3,17,86,,102,95,6,9,5,5,0.7,0.5
2025-04-12T1100,4229A,102.2342,27.8859,凉山彝族自治州,凯乐南路30号,,24,16,32,3,17,75,,92,85,15,10,8,10,0.6,0.8
2025-04-12T1100,2212A,123.2,41.1953,辽阳市,宏伟区,,38,,28,7,12,121,,130,126,6,6,9,9,0.6,0.5
2025-04-12T1100,2213A,123.1683,41.2495,辽阳市,新华园,,,,44,3,7,,,133,132,9,9,8,6,0.7,0.5
2025-04-12T1100,2214A,123.2354,41.2639,辽阳市,滨河路,,37,,29,7,15,118,,121,116,7,9,6,8,0.6,0.5
2025-04-12T1100,2215A,123.149,41.2991,辽阳市,铁西工业园,,37,,42,12,15,116,,126,124,16,10,11,8,0.7,0.5
2025-04-12T1100,2227A,125.1358,42.8845,辽源市,环保局,,38,25,54,12,23,119,,108,108,11,17,7,7,0.5,0.4
2025-04-12T1100,3239A,125.0764,42.9078,辽源市,银鹰制药,,39,27,42,16,25,124,,100,100,7,20,8,8,0.5,0.5
2025-04-12T1100,1625A,115.9848,36.4372,聊城市,区政府,颗粒物(PM10),131,211,172,20,71,86,,87,86,18,23,8,10,0.2,0.4
2025-04-12T1100,2878A,116.0072,36.4343,聊城市,聊大东校,颗粒物(PM10),129,207,393,55,105,81,,83,82,10,17,8,9,0.5,0.7
2025-04-12T1100,3200A,115.9819,36.4978,聊城市,监控中心,颗粒物(PM10),122,193,183,22,82,75,,81,78,8,16,4,7,0.2,0.5
2025-04-12T1100,3513A,116.0445,36.4361,聊城市,九州社区,颗粒物(PM10),119,187,393,11,57,86,,88,88,2,10,2,2,0.3,0.4
2025-04-12T1100,4018A,116.0567,36.4608,聊城市,星美广场,颗粒物(PM10),93,135,304,9,51,85,,86,86,7,15,6,8,0.4,0.7
2025-04-12T1100,2632A,94.3681,29.6376,林芝市,林芝监测站,,31,6,7,3,4,98,,104,95,7,5,5,5,0.4,0.4
2025-04-12T1100,2633A,94.3616,29.6616,林芝市,林芝人民医院,,28,15,10,6,5,87,,98,88,7,2,5,5,0.4,0.4
2025-04-12T1100,2603A,100.0781,23.8982,临沧市,市环保局,颗粒物(PM10),56,61,48,25,37,47,,24,24,17,17,7,6,0.8,0.8
2025-04-12T1100,2604A,100.0894,23.8822,临沧市,市气象局,细颗粒物(PM2.5),65,55,44,47,42,42,,28,22,21,17,7,7,0.9,0.8
2025-04-12T1100,1733A,111.5531,36.0783,临汾市,临钢医院,颗粒物(PM10),82,113,673,7,82,80,,87,82,2,10,3,5,0.4,0.5
2025-04-12T1100,1734A,111.5028,36.0714,临汾市,技工学校,颗粒物(PM10),62,74,638,13,95,82,,89,84,2,9,3,4,0.2,0.3
2025-04-12T1100,1736A,111.5018,36.0855,临汾市,市委,颗粒物(PM10),71,91,663,13,89,81,,88,83,2,9,1,3,0.3,0.4
2025-04-12T1100,3018A,111.505,36.1014,临汾市,唐尧大酒店,颗粒物(PM10),87,124,573,17,80,84,,91,86,2,7,5,6,0.3,0.5
2025-04-12T1100,4244A,111.4879,36.0530,临汾市,启星学校,颗粒物(PM10),65,80,605,18,84,81,,89,83,2,8,2,4,0.3,0.4
2025-04-12T1100,4271A,103.2464,35.6123,临夏回族自治州,滨河东路1号,颗粒物(PM10),500,670,244,62,48,66,,40,40,7,6,3,3,0.3,0.3
2025-04-12T1100,4310A,103.2093,35.5995,临夏回族自治州,新华街21号,颗粒物(PM10),252,386,224,97,54,64,,42,42,12,12,8,8,0.3,0.3
2025-04-12T1100,1618A,118.3429,35.0532,临沂市,沂河小区,颗粒物(PM10),104,158,190,13,41,77,,67,67,8,10,7,10,0.4,0.6
2025-04-12T1100,1619A,118.295,35.0583,临沂市,鲁南制药厂,颗粒物(PM10),104,158,209,22,42,88,,76,76,14,20,9,12,0.3,0.4
2025-04-12T1100,1620A,118.2794,34.9976,临沂市,新光毛纺厂,颗粒物(PM10),106,161,187,22,39,80,,69,69,15,22,5,10,0.2,0.4
2025-04-12T1100,1621A,118.3956,35.0888,临沂市,河东保险公司,颗粒物(PM10),106,161,169,22,48,81,,67,67,11,17,1,4,0.3,0.3
2025-04-12T1100,3370A,118.3564,35.0215,临沂市,十里堡居委,颗粒物(PM10),107,163,197,22,51,81,,70,70,20,19,2,5,0.5,0.8
2025-04-12T1100,3496A,118.3604,35.1084,临沂市,南坊新区,颗粒物(PM10),117,183,197,17,48,90,,76,76,8,14,5,9,0.6,0.7
2025-04-12T1100,3860A,118.3920,35.0300,临沂市,皇山花园小区,颗粒物(PM10),131,212,217,22,43,,,73,73,3,13,6,9,0.3,0.7
2025-04-12T1100,1870A,109.4856,24.3895,柳州市,柳东小学,,,,43,,34,,,85,,,13,,9,,0.8
2025-04-12T1100,1871A,109.4157,24.3277,柳州市,环保监测站,,50,50,50,33,35,86,,77,77,12,9,10,9,0.8,0.8
2025-04-12T1100,1872A,109.389,24.341,柳州市,河西水厂,颗粒物(PM10),60,70,54,40,36,85,,76,76,11,10,6,5,0.9,0.9
2025-04-12T1100,1873A,109.4311,24.2921,柳州市,市四中,颗粒物(PM10),51,52,52,30,34,80,,70,70,11,11,8,7,0.7,0.7
2025-04-12T1100,1874A,109.4006,24.3631,柳州市,市九中,颗粒物(PM10),57,63,57,33,34,90,,81,81,9,9,9,8,0.7,0.8
2025-04-12T1100,1875A,109.4958,24.3134,柳州市,古亭山,颗粒物(PM10),55,60,56,29,33,86,,68,65,7,9,7,7,0.9,0.9
2025-04-12T1100,3402A,109.5422,24.3996,柳州市,市二中,,50,50,48,25,33,84,,67,64,11,12,16,13,0.6,0.7
2025-04-12T1100,2307A,116.5079,31.737,六安市,监测大楼,颗粒物(PM10),216,361,184,104,49,70,,88,77,6,9,3,5,0.2,0.5
2025-04-12T1100,2308A,116.4738,31.7643,六安市,皖西学院,颗粒物(PM10),323,438,234,63,48,88,,90,85,15,10,3,4,0.3,0.5
2025-04-12T1100,2309A,116.4996,31.7905,六安市,朝阳厂,颗粒物(PM10),216,361,189,66,46,100,,89,89,8,14,2,4,0.2,0.4
2025-04-12T1100,2310A,116.5567,31.7886,六安市,开发区,颗粒物(PM10),380,484,231,70,45,79,,89,78,6,13,3,5,0.4,0.6
2025-04-12T1100,2576A,104.8,26.5892,六盘水市,窑上,,,,56,,43,,,114,,,7,,6,,0.4
2025-04-12T1100,2577A,104.83,26.5917,六盘水市,黄土坡,颗粒物(PM10),156,262,50,47,26,90,,100,92,7,9,6,9,0,0.2
2025-04-12T1100,2578A,104.89,26.5939,六盘水市,水钢,颗粒物(PM10),225,367,66,54,26,85,,92,85,13,16,6,10,0.3,0.6
2025-04-12T1100,2579A,104.8475,26.5894,六盘水市,民中,颗粒物(PM10),120,190,44,48,25,94,,105,96,6,9,7,8,0.2,0.5
2025-04-12T1100,2580A,104.9544,26.5506,六盘水市,双水,颗粒物(PM10),140,229,56,46,23,90,,104,90,10,13,8,9,0.1,0.2
2025-04-12T1100,2335A,117.0189,25.1181,龙岩市,龙岩师专,,,,,,,,,,,,,,,,
2025-04-12T1100,2336A,117.0217,25.1033,龙岩市,龙岩市监测站,,24,24,29,14,20,34,,57,50,19,11,4,6,0.5,0.5
2025-04-12T1100,2337A,117.0258,25.0661,龙岩市,闽西职业技术学院,,29,29,32,17,22,31,,49,46,17,10,5,6,0.5,0.5
2025-04-12T1100,2338A,117.0196,25.0306,龙岩市,龙岩学院,,34,34,30,22,22,32,,53,48,10,8,2,3,0.5,0.5
2025-04-12T1100,2665A,105.0822,33.3261,陇南市,汉王镇固水子,,,,,,,,,,,,,,,,
2025-04-12T1100,2885A,104.9339,33.3826,陇南市,滨江中学,颗粒物(PM10),347,457,405,68,66,68,,75,67,5,7,7,8,0.4,0.4
2025-04-12T1100,3247A,104.955,33.371,陇南市,市总工会,颗粒物(PM10),355,464,386,95,77,67,,77,70,8,8,8,9,0.2,0.2
2025-04-12T1100,2487A,111.9589,27.8901,娄底市,电视发射台,颗粒物(PM10),500,671,115,143,32,82,,89,86,2,5,7,8,0.4,0.6
2025-04-12T1100,2488A,111.9975,27.725,娄底市,市监测站,颗粒物(PM10),500,920,134,167,43,87,,94,92,4,6,8,10,0.5,0.7
2025-04-12T1100,2489A,112.0194,27.7314,娄底市,市委党校,,,,42,,29,,,83,,,8,,4,,0.4
2025-04-12T1100,2490A,111.9561,27.7569,娄底市,涟钢,颗粒物(PM10),500,824,131,141,42,77,,88,83,7,14,2,22,0.0,0.4
2025-04-12T1100,2491A,111.9892,27.7044,娄底市,市政府,颗粒物(PM10),500,875,125,164,41,83,,94,90,5,6,3,4,0.2,0.4
2025-04-12T1100,1893A,105.4324,28.9634,泸州市,九狮山,,,,,,,,,,,,,,,,
2025-04-12T1100,1894A,105.4427,28.9063,泸州市,小市上码头,颗粒物(PM10),58,65,44,35,26,50,,72,60,18,12,5,5,0.5,0.6
2025-04-12T1100,1895A,105.4241,28.8573,泸州市,兰田宪桥,颗粒物(PM10),57,64,39,38,33,50,,66,54,13,9,6,6,0.5,0.6
2025-04-12T1100,1896A,105.4379,28.8833,泸州市,市环监站,,,,,,,,,,,,,,,,
2025-04-12T1100,4272A,105.3689,28.7783,泸州市,纳溪中医医院,颗粒物(PM10),87,123,58,29,28,55,,63,48,15,10,7,6,0.6,0.6
2025-04-12T1100,2183A,111.1406,37.5211,吕梁市,环保局,,,,665,2,97,75,,,,4,6,4,6,0.4,0.3
2025-04-12T1100,2185A,111.1297,37.5136,吕梁市,自来水公司,颗粒物(PM10),53,56,525,24,91,77,,81,78,3,5,4,5,0.4,0.5
2025-04-12T1100,2867A,111.1283,37.51,吕梁市,马茂庄小学,细颗粒物(PM2.5),73,63,572,53,98,78,,80,78,3,6,2,3,0.2,0.2
2025-04-12T1100,1812A,112.3931,34.6516,洛阳市,市委党校,颗粒物(PM10),152,253,535,88,122,84,,89,87,7,14,2,4,0.4,0.6
2025-04-12T1100,1815A,112.494,34.6886,洛阳市,河南林校,颗粒物(PM10),148,246,313,33,115,86,,94,91,3,12,2,5,0.5,0.7
2025-04-12T1100,1816A,112.3844,34.623,洛阳市,开发区管委会,颗粒物(PM10),164,277,632,57,149,85,,90,90,6,12,4,8,0.2,0.3
2025-04-12T1100,1817A,112.4267,34.6258,洛阳市,市委新办公区,颗粒物(PM10),137,224,612,46,108,90,,96,95,5,12,3,5,0.1,0.3
2025-04-12T1100,3340A,112.6005,34.6326,洛阳市,伊滨,颗粒物(PM10),141,232,487,30,120,87,,96,94,3,12,2,6,0.4,0.5
2025-04-12T1100,3341A,112.4951,34.6332,洛阳市,中移产业园,颗粒物(PM10),500,623,1077,56,131,77,,83,82,3,11,2,6,0.1,0.5
2025-04-12T1100,3593A,112.5736,34.8993,洛阳市,吉利监测站,颗粒物(PM10),105,160,562,22,73,85,,100,94,2,11,6,8,0.4,0.5
2025-04-12T1100,3635A,112.3677,34.662,洛阳市,河科大西苑校区,颗粒物(PM10),162,273,752,41,103,85,,91,90,7,17,4,8,0.3,0.5
2025-04-12T1100,3636A,112.4388,34.6781,洛阳市,英才小学,颗粒物(PM10),139,228,767,52,120,86,,93,91,6,13,4,8,0.2,0.5
2025-04-12T1100,4214A,112.4600,34.6949,洛阳市,春都路1号院,颗粒物(PM10),137,223,867,48,106,91,,99,97,4,13,4,7,0.3,0.6
2025-04-12T1100,2399A,114.051,33.5699,漯河市,三五一五工厂,颗粒物(PM10),500,669,693,83,94,91,,97,97,4,9,2,4,0.3,0.5
2025-04-12T1100,2400A,114.0055,33.5698,漯河市,漯河大学,颗粒物(PM10),388,490,540,129,101,88,,96,96,3,8,4,6,0.2,0.4
2025-04-12T1100,2401A,114.0138,33.5828,漯河市,市水利局,颗粒物(PM10),478,578,599,102,102,85,,93,93,6,10,2,5,0.5,0.4
2025-04-12T1100,2402A,114.0261,33.5698,漯河市,市广电局,颗粒物(PM10),500,613,586,72,68,87,,94,94,2,9,2,4,0.2,0.4
2025-04-12T1100,3478A,113.9749,33.5664,漯河市,市图书馆,颗粒物(PM10),459,559,439,85,95,89,,96,96,7,12,2,5,0.4,0.5
2025-04-12T1100,4250A,114.0892,33.5882,漯河市,韶山路11号,颗粒物(PM10),462,562,439,90,89,91,,97,97,6,12,3,3,0.3,0.5
2025-04-12T1100,1798A,118.5092,31.6837,马鞍山市,湖东路四小,颗粒物(PM10),500,1063,107,132,38,64,,90,79,21,18,14,10,0.5,0.9
2025-04-12T1100,1799A,118.5024,31.6449,马鞍山市,开发区,颗粒物(PM10),500,1038,110,110,51,73,,92,84,13,21,7,9,0.6,0.9
2025-04-12T1100,1802A,118.6245,31.7241,马鞍山市,濮塘,颗粒物(PM10),500,1508,130,119,42,66,,85,80,5,8,6,8,0.3,0.5
2025-04-12T1100,3633A,118.4918,31.6809,马鞍山市,雨山,颗粒物(PM10),500,1042,106,163,37,66,,84,73,17,19,26,11,1.5,1.3
2025-04-12T1100,4191A,118.5274,31.72227,马鞍山市,慈湖高新区,颗粒物(PM10),496,596,96,149,42,61,,78,74,21,20,11,8,0.5,0.7
2025-04-12T1100,1686A,111.0286,21.4688,茂名市,电白南海,,31,31,32,19,21,24,,25,24,8,9,1,1,0.6,0.6
2025-04-12T1100,1687A,110.9294,21.6533,茂名市,茂石化七小,颗粒物(PM10),51,51,34,22,15,22,,28,24,17,9,5,3,0.9,0.8
2025-04-12T1100,1688A,110.9107,21.6687,茂名市,健康路,颗粒物(PM10),51,51,34,34,18,29,,30,27,12,7,8,3,0.8,0.6
2025-04-12T1100,1689A,110.8592,21.6828,茂名市,高岭,,46,46,41,24,14,26,,25,22,10,9,10,5,0.6,0.6
2025-04-12T1100,3450A,111.01,21.5165,茂名市,电白水东,,29,29,23,12,10,27,,29,28,14,12,1,1,0.7,0.7
2025-04-12T1100,2539A,104.0308,30.0478,眉山市,黑龙滩水库,颗粒物(PM10),122,194,68,47,23,68,,65,63,7,10,3,2,0.2,0.3
2025-04-12T1100,2540A,103.8416,30.0874,眉山市,气象局,颗粒物(PM10),177,304,87,107,37,71,,70,66,14,19,1,4,0.4,0.5
2025-04-12T1100,3137A,103.8578,30.0744,眉山市,市委党校,颗粒物(PM10),192,334,96,112,34,72,,72,69,15,18,4,8,0.5,0.6
2025-04-12T1100,3148A,103.8291,30.0564,眉山市,区人社局,细颗粒物(PM2.5),149,175,65,114,35,65,,76,69,21,23,3,8,0.5,0.6
2025-04-12T1100,1690A,116.1231,24.3284,梅州市,梅江月梅,,34,34,37,22,28,28,,21,21,15,16,4,5,0.6,0.6
2025-04-12T1100,1691A,116.0797,24.2719,梅州市,梅县新城,,46,46,43,23,28,20,,24,24,24,22,6,6,0.5,0.5
2025-04-12T1100,1692A,116.1248,24.2654,梅州市,环境监控中心,,36,34,38,25,28,12,,16,16,33,24,8,7,0.6,0.6
2025-04-12T1100,3315A,116.1233,24.2991,梅州市,梅龙,,34,34,38,23,28,24,,22,18,19,16,6,7,0.7,0.6
2025-04-12T1100,1878A,104.7778,31.4741,绵阳市,富乐山,颗粒物(PM10),113,175,190,47,42,70,,78,68,15,9,8,7,0.3,0.3
2025-04-12T1100,1880A,104.6697,31.4668,绵阳市,高新区自来水公司,颗粒物(PM10),95,140,114,46,33,74,,82,70,14,13,3,3,0.4,0.4
2025-04-12T1100,1881A,104.7287,31.5075,绵阳市,三水厂,颗粒物(PM10),120,190,197,48,43,68,,80,66,19,12,6,6,0.5,0.5
2025-04-12T1100,3491A,104.69,31.5322,绵阳市,西科大附属小学,颗粒物(PM10),131,211,149,43,30,78,,81,71,12,13,7,6,0.5,0.4
2025-04-12T1100,3492A,104.5648,31.5343,绵阳市,安州区旅游局,颗粒物(PM10),91,132,61,24,15,71,,68,62,11,11,10,9,0.2,0.2
2025-04-12T1100,4226A,104.7651,31.4531,绵阳市,绵阳市气象局,颗粒物(PM10),107,163,189,38,44,71,,82,70,14,9,3,4,0.2,0.2
2025-04-12T1100,1784A,129.61,44.561,牡丹江市,环保大楼,颗粒物(PM10),57,63,82,10,52,114,,53,53,11,38,6,9,0.3,0.7
2025-04-12T1100,1785A,129.6115,44.5782,牡丹江市,文化广场,颗粒物(PM10),68,85,114,32,74,110,,53,53,11,42,11,14,0.5,1
2025-04-12T1100,1786A,129.5904,44.5963,牡丹江市,第一医院,颗粒物(PM10),66,81,93,45,66,116,,62,62,13,33,8,11,0.4,0.7
2025-04-12T1100,1787A,129.6364,44.6075,牡丹江市,机车工厂,颗粒物(PM10),66,81,117,33,73,110,,48,48,15,38,6,48,0.4,0.8
2025-04-12T1100,1788A,129.6386,44.5462,牡丹江市,第一中学,,39,39,77,22,50,119,,58,58,5,31,7,10,0.5,0.7
2025-04-12T1100,2531A,105.0703,29.61,内江市,市监测站,颗粒物(PM10),445,545,136,156,47,63,,69,65,22,10,7,5,0.4,0.6
2025-04-12T1100,2532A,105.0717,29.5947,内江市,东兴区政府,颗粒物(PM10),454,554,119,136,36,54,,67,62,31,13,3,5,0.3,0.4
2025-04-12T1100,2533A,105.0653,29.5817,内江市,内江二中,颗粒物(PM10),461,561,129,131,37,52,,66,61,34,15,6,6,0.3,0.4
2025-04-12T1100,2534A,105.0406,29.5822,内江市,内江日报社,颗粒物(PM10),495,595,146,136,39,51,,69,64,34,12,4,6,0.3,0.3
2025-04-12T1100,2628A,92.0657,31.4846,那曲市,那曲监测站,,46,46,23,26,15,93,,86,86,12,15,8,6,0.4,0.5
2025-04-12T1100,4243A,92.0515,31.4787,那曲市,那曲市委宣传部,,39,39,28,25,19,98,,92,92,9,11,6,6,0.4,0.4
2025-04-12T1100,1290A,115.8931,28.6843,南昌市,省外办,颗粒物(PM10),500,684,76,163,33,73,,79,79,12,15,5,6,0.4,0.6
2025-04-12T1100,1291A,115.8886,28.7003,南昌市,省林业公司,颗粒物(PM10),500,1028,92,175,31,71,,78,78,4,8,6,7,0.3,0.5
2025-04-12T1100,1292A,115.8126,28.7442,南昌市,林科所,细颗粒物(PM2.5),252,,55,202,29,80,,92,92,2,5,6,8,0.3,0.7
2025-04-12T1100,1294A,115.8518,28.687,南昌市,建工学校,颗粒物(PM10),500,645,75,91,23,79,,87,87,4,8,2,3,0.4,0.7
2025-04-12T1100,1295A,115.8921,28.6424,南昌市,象湖,颗粒物(PM10),315,432,59,141,29,,,96,96,6,7,5,6,0.3,0.6
2025-04-12T1100,1296A,115.7423,28.7996,南昌市,武术学校,颗粒物(PM10),500,730,70,51,25,81,,87,87,3,4,10,12,0.5,0.8
2025-04-12T1100,3046A,115.9084,28.6062,南昌市,机电学校,颗粒物(PM10),500,844,91,158,30,74,,84,84,10,8,1,2,0.4,0.6
2025-04-12T1100,3690A,115.9721,28.7031,南昌市,外国语学校,颗粒物(PM10),500,842,85,77,26,71,,82,81,14,11,3,4,0,0.2
2025-04-12T1100,4192A,115.9316,28.68677,南昌市,南京东路235号,颗粒物(PM10),406,506,73,152,30,80,,90,90,11,14,8,8,0.3,0.6
2025-04-12T1100,1905A,106.056,30.8064,南充市,西山风景区,颗粒物(PM10),500,893,384,258,105,86,,88,84,5,6,3,3,0.1,0.3
2025-04-12T1100,1906A,106.0789,30.8023,南充市,南充市委,颗粒物(PM10),500,1210,419,262,94,,,80,75,,17,3,3,0.3,0.4
2025-04-12T1100,1907A,106.1031,30.8217,南充市,南充炼油厂,颗粒物(PM10),500,1059,518,257,132,80,,78,73,9,11,3,3,0.4,0.4
2025-04-12T1100,4227A,106.1083,30.7884,南充市,梨树横街98号,颗粒物(PM10),500,1184,430,179,79,83,,81,78,11,11,4,5,0.2,0.2
2025-04-12T1100,4304A,106.1172,30.843,南充市,清泉寺北路188号,颗粒物(PM10),500,1022,485,210,114,89,,84,81,6,8,3,3,0.1,0.2
2025-04-12T1100,4305A,106.067,30.7616,南充市,同庆路1号,颗粒物(PM10),500,1098,484,222,103,81,,76,71,8,17,3,3,0.1,0.3
2025-04-12T1100,1151A,118.8086,32.1065,南京市,迈皋桥,细颗粒物(PM2.5),279,,115,229,66,63,,67,67,13,42,4,5,0.4,0.5
2025-04-12T1100,1152A,118.7538,32.0551,南京市,草场门,颗粒物(PM10),500,1834,173,224,51,70,,76,75,11,24,3,6,0.5,0.8
2025-04-12T1100,1153A,118.7794,32.0745,南京市,山西路,细颗粒物(PM2.5),265,,123,215,59,70,,77,72,14,24,4,5,0.2,0.4
2025-04-12T1100,1154A,118.7752,32.0023,南京市,中华门,细颗粒物(PM2.5),287,,96,237,52,59,,64,63,6,21,7,11,0.4,0.5
2025-04-12T1100,1155A,118.8109,32.0309,南京市,瑞金路,细颗粒物(PM2.5),282,,107,232,56,63,,62,62,2,15,6,6,0.2,0.3
2025-04-12T1100,1156A,118.7997,32.0754,南京市,玄武湖,颗粒物(PM10),500,1026,126,218,54,60,,55,55,15,22,7,9,0.3,0.6
2025-04-12T1100,1157A,118.6414,32.0931,南京市,浦口,颗粒物(PM10),500,1231,125,194,46,68,,84,82,13,27,5,7,0.3,0.6
2025-04-12T1100,1158A,118.7356,31.9996,南京市,奥体中心,细颗粒物(PM2.5),262,,99,212,55,60,,74,68,15,24,6,8,0.2,0.5
2025-04-12T1100,1159A,118.9125,32.1028,南京市,仙林大学城,颗粒物(PM10),500,1817,192,234,62,59,,62,62,10,25,9,12,0.6,1
2025-04-12T1100,3422A,118.8436,31.9198,南京市,江宁彩虹桥,颗粒物(PM10),500,727,98,239,50,67,,75,73,3,18,4,4,0.4,0.7
2025-04-12T1100,3427A,118.8554,32.3578,南京市,六合雄州,颗粒物(PM10),500,608,135,154,67,,,64,64,3,21,3,7,0.2,0.8
2025-04-12T1100,4249A,118.8708,31.3402,南京市,汶溪路181号,颗粒物(PM10),72,94,55,38,34,70,,96,85,17,19,2,4,0.7,0.8
2025-04-12T1100,4312A,119.019,31.6512,南京市,中山西路1号,颗粒物(PM10),500,639,84,47,35,69,,87,77,11,18,3,6,0.5,0.7
2025-04-12T1100,1401A,108.3103,22.7881,南宁市,二十一中,颗粒物(PM10),61,72,44,37,27,78,,66,63,23,15,5,4,0.9,0.8
2025-04-12T1100,1402A,108.3141,22.8528,南宁市,北湖,细颗粒物(PM2.5),57,48,44,40,30,92,,67,61,21,16,7,6,1.0,1
2025-04-12T1100,1403A,108.3206,22.8225,南宁市,市监测站,颗粒物(PM10),59,68,42,29,26,76,,66,61,25,14,6,4,0.6,0.5
2025-04-12T1100,1404A,108.3829,22.8037,南宁市,大自然花园,颗粒物(PM10),51,51,37,34,27,95,,72,66,16,9,6,5,0.7,0.7
2025-04-12T1100,1405A,108.4394,22.7904,南宁市,仙葫,颗粒物(PM10),56,62,39,34,27,80,,61,56,16,11,8,5,0.8,0.8
2025-04-12T1100,1406A,108.2397,22.8467,南宁市,区农职院,颗粒物(PM10),55,59,44,38,27,87,,51,50,20,17,7,4,0.8,0.9
2025-04-12T1100,1407A,108.3275,22.735,南宁市,英华嘉园,颗粒物(PM10),53,55,41,33,27,97,,50,50,12,20,7,7,0.7,0.7
2025-04-12T1100,3401A,108.4834,22.7618,南宁市,红星社区,细颗粒物(PM2.5),69,51,39,50,31,107,,69,63,10,10,14,8,1.0,1
2025-04-12T1100,4221A,108.2177,22.7774,南宁市,乐贤路16号,细颗粒物(PM2.5),59,48,50,42,31,90,,35,35,8,26,9,8,0.9,0.8
2025-04-12T1100,2331A,118.0966,26.6761,南平市,茫荡山,,,,,,,,,,,,,,,,
2025-04-12T1100,2332A,118.1681,26.6369,南平市,南平市监测站,,45,40,33,31,25,14,,16,12,23,14,4,3,1.2,0.9
2025-04-12T1100,2333A,118.1825,26.6489,南平市,南平铝业有限公司,,40,40,35,28,23,17,,13,9,25,19,4,3,1.0,0.8
2025-04-12T1100,2334A,118.1756,26.6272,南平市,南平七中,,,,31,29,21,18,,17,14,,11,4,4,1.0,0.8
2025-04-12T1100,1168A,120.9098,31.9663,南通市,狼山街道,,32,19,57,10,27,102,,92,92,10,35,6,9,0.7,0.9
2025-04-12T1100,1169A,120.86,32.0005,南通市,虹桥,,32,32,64,14,35,96,,95,95,12,33,5,8,0.5,0.7
2025-04-12T1100,1170A,120.87,32.02,南通市,城中,,,29,63,16,30,,,94,94,12,30,,9,0.7,0.9
2025-04-12T1100,1171A,120.94,31.93,南通市,星湖花园,,33,19,49,9,28,105,,92,92,8,31,6,9,0.6,0.6
2025-04-12T1100,1172A,120.81,32.0417,南通市,紫琅学院,,31,22,56,11,32,98,,90,90,10,37,3,6,0.6,0.8
2025-04-12T1100,3291A,121.067,32.062,南通市,通州监测站,,35,12,46,12,23,110,,92,92,6,18,4,6,0.4,0.6
2025-04-12T1100,3432A,120.9348,31.9883,南通市,环境教育馆,,35,24,57,8,31,112,,101,101,8,26,5,8,0.3,0.5
2025-04-12T1100,2404A,112.5224,33.0122,南阳市,瓦房庄,颗粒物(PM10),155,260,424,42,79,108,,103,103,10,14,2,4,0.4,0.5
2025-04-12T1100,2405A,112.5003,32.9735,南阳市,汉画馆,颗粒物(PM10),136,221,386,41,88,,,94,94,12,19,3,4,0.2,0.5
2025-04-12T1100,2406A,112.5573,33.027,南阳市,气象站,颗粒物(PM10),181,311,492,53,92,102,,95,95,8,15,1,3,0.2,0.5
2025-04-12T1100,2407A,112.5481,32.9689,南阳市,理工学院,颗粒物(PM10),147,244,425,44,86,106,,100,100,12,16,1,3,0.2,0.5
2025-04-12T1100,4008A,112.5234,32.9922,南阳市,卧龙区政府,颗粒物(PM10),147,243,415,39,80,104,,100,100,10,14,2,3,0.4,0.6
2025-04-12T1100,1234A,121.8358,29.911,宁波市,区环保大楼,,30,30,42,14,11,56,,83,76,21,19,7,8,0.8,0.7
2025-04-12T1100,1235A,121.56,29.82,宁波市,万里学院,,32,29,36,22,19,54,,88,72,18,9,6,6,0.8,0.6
2025-04-12T1100,1236A,121.713,29.9572,宁波市,龙赛医院,,38,38,34,14,18,53,,96,78,23,9,8,8,0.7,0.5
2025-04-12T1100,1239A,121.633,29.7733,宁波市,钱湖水厂,,33,33,27,22,14,49,,86,71,22,9,8,8,0.8,0.6
2025-04-12T1100,1240A,121.5856,29.8635,宁波市,太古小学,,30,30,35,15,16,58,,86,73,19,10,8,8,0.8,0.6
2025-04-12T1100,1241A,121.524,29.8674,宁波市,市环境监测中心,,33,33,32,14,16,44,,83,64,34,18,8,8,0.7,0.6
2025-04-12T1100,2871A,121.6147,29.9017,宁波市,万里国际学校,,32,32,39,14,15,57,,88,74,16,6,8,8,0.7,0.5
2025-04-12T1100,3710A,121.5594,29.8975,宁波市,白沙活动中心,,18,16,30,10,14,57,,88,73,18,8,7,7,0.6,0.5
2025-04-12T1100,2339A,119.5001,26.6946,宁德市,金涵水库,,,,,,,,,,,,,,,,
2025-04-12T1100,2341A,119.5388,26.6612,宁德市,宁德市监测站,细颗粒物(PM2.5),58,54,39,41,36,32,,72,55,31,17,4,5,1.1,0.9
2025-04-12T1100,3209A,119.5231,26.6562,宁德市,宁德一中,细颗粒物(PM2.5),75,64,40,55,41,52,,73,61,22,12,6,7,1.0,0.7
2025-04-12T1100,2618A,98.8601,25.8567,怒江傈僳族自治州,州监测站,细颗粒物(PM2.5),53,47,47,37,37,38,,,,15,15,8,8,0.5,0.5
2025-04-12T1100,2619A,98.8546,25.8417,怒江傈僳族自治州,泸水一中,细颗粒物(PM2.5),62,48,48,44,41,31,,17,16,22,21,7,7,0.6,0.6
2025-04-12T1100,1888A,101.6891,26.571,攀枝花市,弄弄坪,,43,43,46,26,23,88,,79,66,21,21,8,14,0.7,1.2
2025-04-12T1100,1889A,101.5769,26.5928,攀枝花市,河门口,,44,44,38,26,22,91,,69,68,8,9,16,16,1.0,0.8
2025-04-12T1100,1890A,101.7169,26.585,攀枝花市,炳草岗,,48,48,42,33,25,80,,64,54,24,21,18,13,0.6,0.5
2025-04-12T1100,1891A,101.7369,26.5008,攀枝花市,仁和,,36,34,41,25,22,93,,71,64,15,13,8,8,0.5,0.5
2025-04-12T1100,2835A,101.7227,26.567,攀枝花市,四十中小,,46,46,39,28,25,87,,79,69,15,13,10,7,0.7,0.6
2025-04-12T1100,1604A,122.0303,41.1489,盘锦市,开发区,,,,50,,21,,,132,,,13,,9,,0.5
2025-04-12T1100,1605A,122.0485,41.0883,盘锦市,兴隆台,颗粒物(PM10),67,84,53,19,23,86,,94,89,10,17,7,9,0.4,0.5
2025-04-12T1100,1606A,121.8297,41.1028,盘锦市,新生街道,颗粒物(PM10),72,93,43,26,23,84,,91,86,20,19,14,15,0.4,0.4
2025-04-12T1100,1832A,113.3257,33.742,平顶山市,新华旅馆,颗粒物(PM10),243,380,587,39,69,128,,126,126,5,12,4,5,0.2,0.4
2025-04-12T1100,1833A,113.2919,33.737,平顶山市,规划设计院,颗粒物(PM10),200,349,517,80,108,92,,101,101,2,9,5,4,0.2,0.4
2025-04-12T1100,1834A,113.182,33.774,平顶山市,平顶山工学院,颗粒物(PM10),203,352,529,68,113,94,,102,102,1,8,6,6,0.4,0.5
2025-04-12T1100,3204A,113.3025,33.73,平顶山市,规划局,颗粒物(PM10),238,376,598,135,108,90,,101,101,1,10,4,5,0.3,0.4
2025-04-12T1100,3594A,112.8867,33.9116,平顶山市,石龙区,颗粒物(PM10),424,524,894,56,99,93,,100,100,5,9,5,5,0.3,0.3
2025-04-12T1100,2656A,106.6692,35.5461,平凉市,聚贤嘉苑,颗粒物(PM10),352,461,1508,64,222,93,,92,87,6,6,9,10,0.6,0.5
2025-04-12T1100,2657A,106.7021,35.5307,平凉市,博物馆,颗粒物(PM10),289,412,1429,59,223,92,,89,85,3,4,8,9,0.3,0.3
2025-04-12T1100,2347A,114.0997,27.5002,萍乡市,武功山,颗粒物(PM10),112,173,26,34,21,76,,66,66,6,6,13,16,0.6,0.7
2025-04-12T1100,2348A,113.8385,27.6434,萍乡市,中医院,颗粒物(PM10),500,696,69,113,28,79,,74,74,8,6,6,9,0.3,0.7
2025-04-12T1100,2349A,113.8493,27.6253,萍乡市,市政府车库,颗粒物(PM10),500,603,69,92,33,84,,78,78,6,8,4,6,0.3,0.6
2025-04-12T1100,2350A,113.8676,27.6435,萍乡市,市环保局,颗粒物(PM10),405,505,61,62,27,58,,76,76,83,8,3,6,0.4,0.7
2025-04-12T1100,2351A,113.866,27.6198,萍乡市,安源区政府,颗粒物(PM10),312,429,58,117,29,80,,64,64,9,10,8,14,0.2,0.6
2025-04-12T1100,2319A,119.0141,25.4325,莆田市,荔城区仓后路,,35,35,48,13,28,34,,26,26,14,20,2,3,0.6,0.8
2025-04-12T1100,2320A,119.0015,25.4553,莆田市,莆田市监测站,颗粒物(PM10),51,52,46,21,28,26,,24,22,14,16,4,5,0.5,0.6
2025-04-12T1100,2321A,119.1119,25.4561,莆田市,涵江区六中,,,,40,16,28,31,,32,31,,18,4,4,0.5,0.6
2025-04-12T1100,2322A,119.1013,25.3215,莆田市,秀屿区政府,,24,24,30,14,24,34,,38,37,11,13,4,7,0.5,0.6
2025-04-12T1100,2323A,118.981,25.4792,莆田市,东圳水库,,,,,,,,,,,,,,,,
2025-04-12T1100,2392A,115.0312,35.7636,濮阳市,环保局,颗粒物(PM10),212,358,370,38,72,84,,88,88,9,14,5,8,1.0,0.8
2025-04-12T1100,2394A,115.0574,35.7609,濮阳市,油田运输公司,颗粒物(PM10),154,257,380,45,72,91,,96,96,11,16,3,6,0.4,0.7
2025-04-12T1100,3021A,115,35.7668,濮阳市,濮水河管理处,颗粒物(PM10),169,288,418,38,79,89,,92,92,5,13,3,6,0.5,0.8
2025-04-12T1100,4216A,115.0924,35.7686,濮阳市,任丘路479号,颗粒物(PM10),164,277,413,35,78,95,,99,98,13,14,4,7,0.2,0.7
2025-04-12T1100,2601A,100.98,22.7633,普洱市,市环保局,颗粒物(PM10),83,115,70,40,29,31,,37,30,46,17,4,3,1.0,0.7
2025-04-12T1100,2602A,100.9817,22.8322,普洱市,普洱第二中学,细颗粒物(PM2.5),60,60,48,43,33,53,,18,18,32,27,8,7,0.6,0.6
2025-04-12T1100,2262A,131.0518,45.8751,七台河市,新一中,细颗粒物(PM2.5),75,88,105,55,74,125,,92,92,18,23,17,15,0.9,1.4
2025-04-12T1100,3345A,131.0577,45.7879,七台河市,中波台,颗粒物(PM10),60,69,131,25,92,96,,63,63,28,33,8,10,0.5,0.8
2025-04-12T1100,3637A,131.0176,45.7761,七台河市,人民广场,颗粒物(PM10),76,102,163,32,106,113,,71,71,16,34,9,13,0.8,1.2
2025-04-12T1100,3684A,130.8781,45.8222,七台河市,新建矿广场,颗粒物(PM10),69,88,210,29,117,116,,55,55,18,42,9,16,0.6,1.2
2025-04-12T1100,1779A,123.9305,47.3636,齐齐哈尔市,安居小区,,22,,53,3,17,69,,67,67,10,12,3,4,0.2,0.3
2025-04-12T1100,1780A,123.9488,47.3386,齐齐哈尔市,中心广场,,20,11,60,3,20,62,,62,62,12,11,6,6,0.4,0.4
2025-04-12T1100,1781A,123.9483,47.3227,齐齐哈尔市,农牧车辆厂,,21,14,54,3,20,65,,65,65,12,10,4,5,0.2,0.2
2025-04-12T1100,1783A,123.945,47.2988,齐齐哈尔市,市环境监测站,,21,13,59,10,22,66,,66,66,10,10,1,2,0.3,0.4
2025-04-12T1100,3662A,123.6333,47.2075,齐齐哈尔市,富区青少年活动中心,,23,,59,3,26,72,,67,67,5,8,1,2,0.3,0.4
2025-04-12T1100,2591A,107.9783,26.5747,黔东南苗族侗族自治州,市环境监测站,,30,26,36,17,29,95,,90,90,7,6,3,2,0.3,0.5
2025-04-12T1100,2881A,107.8908,26.5311,黔东南苗族侗族自治州,凯里学院,,,27,32,18,31,90,,88,86,,3,1,1,0.3,0.5
2025-04-12T1100,2593A,107.5228,26.2403,黔南布依族苗族自治州,小围寨,,,29,33,17,22,88,,72,72,5,5,,5,,0.5
2025-04-12T1100,3538A,107.5175,26.2978,黔南布依族苗族自治州,沙坝,,34,34,34,17,21,98,,80,80,7,7,4,4,0.2,0.6
2025-04-12T1100,2589A,104.9022,25.0925,黔西南布依族苗族自治州,场坝街,,28,26,35,8,22,88,,70,70,11,10,2,5,0.2,0.4
2025-04-12T1100,2590A,104.8811,25.0992,黔西南布依族苗族自治州,坪东大道,,29,18,28,9,18,91,,66,66,9,12,4,3,0.1,0.3
2025-04-12T1100,2502A,108.6236,21.9667,钦州市,市环保站,,31,31,38,9,22,58,,68,64,7,17,9,9,0.5,0.8
2025-04-12T1100,2503A,108.6549,21.9481,钦州市,沙埠小学,颗粒物(PM10),54,57,43,16,23,55,,67,64,7,13,6,6,0.8,1
2025-04-12T1100,2504A,108.5989,21.7431,钦州市,港区一小,颗粒物(PM10),52,54,56,14,23,39,,51,45,20,26,12,9,0.6,0.8
2025-04-12T1100,3404A,108.5959,21.9633,钦州市,北职校,,37,37,42,14,27,58,,68,63,8,17,6,7,0.6,0.8
2025-04-12T1100,1043A,119.7493,40.0116,秦皇岛市,第一关,颗粒物(PM10),134,217,132,32,39,72,,66,60,14,31,4,5,0.2,0.3
2025-04-12T1100,1044A,119.5897,39.9499,秦皇岛市,监测站,颗粒物(PM10),82,113,108,19,32,81,,80,71,3,18,2,4,0.3,0.4
2025-04-12T1100,1046A,119.5251,39.9041,秦皇岛市,建设大厦,颗粒物(PM10),104,157,120,18,34,79,,76,68,13,26,1,3,0.2,0.3
2025-04-12T1100,3132A,119.610547,39.943889,秦皇岛市,文明里,颗粒物(PM10),106,161,123,22,30,76,,76,67,4,18,2,4,0.2,0.3
2025-04-12T1100,4198A,119.5090,39.8253,秦皇岛市,北戴河轮滑馆,颗粒物(PM10),80,109,135,13,28,78,,72,64,4,16,5,6,0.2,0.3
2025-04-12T1100,1307A,120.6659,36.2403,青岛市,仰口,颗粒物(PM10),84,118,124,20,34,82,,108,92,6,9,4,5,0.5,0.6
2025-04-12T1100,1310A,120.4134,36.0658,青岛市,市南区东部子站,颗粒物(PM10),93,136,125,14,25,77,,85,78,9,14,7,7,0.5,0.4
2025-04-12T1100,1311A,120.3664,36.1032,青岛市,四方区子站,颗粒物(PM10),84,117,108,22,27,84,,90,80,7,14,5,6,0.4,0.5
2025-04-12T1100,1312A,120.2994,36.054,青岛市,市南区西部子站,颗粒物(PM10),80,110,118,10,23,78,,80,75,11,22,7,7,0.5,0.7
2025-04-12T1100,1313A,120.4581,36.0858,青岛市,崂山区子站,颗粒物(PM10),90,129,113,9,23,78,,92,85,8,13,7,8,0.4,0.4
2025-04-12T1100,1315A,120.3999,36.3083,青岛市,城阳区子站,颗粒物(PM10),76,102,113,12,26,77,,84,74,13,16,8,9,0.5,0.6
2025-04-12T1100,1966A,120.0405,35.8735,青岛市,黄岛区4号,颗粒物(PM10),76,102,138,14,23,75,,93,80,12,17,8,8,0.5,0.7
2025-04-12T1100,3362A,120.5014,36.4034,青岛市,即墨2号,颗粒物(PM10),82,113,123,14,22,70,,92,74,12,14,7,8,0.5,0.5
2025-04-12T1100,3642A,120.3503,36.0736,青岛市,市北区南部,颗粒物(PM10),151,251,87,12,26,,,68,67,20,12,6,6,0.3,0.6
2025-04-12T1100,3643A,120.3948,36.1805,青岛市,李沧区北部,颗粒物(PM10),85,119,115,19,31,71,,81,71,11,18,8,8,0.5,0.6
2025-04-12T1100,4290A,120.1969,35.9546,青岛市,珠江路669号,颗粒物(PM10),80,110,159,17,32,77,,96,84,14,15,6,6,0.5,0.6
2025-04-12T1100,1702A,113.0426,23.691,清远市,环保大楼,,33,33,43,19,23,22,,18,18,13,22,7,7,0.8,0.9
2025-04-12T1100,1703A,113.0208,23.7106,清远市,凤城街办,,39,39,43,21,21,16,,15,15,27,33,6,6,0.6,0.6
2025-04-12T1100,3025A,113.0477,23.6344,清远市,技师学院,,38,38,40,20,19,18,,16,16,25,28,6,6,0.3,0.4
2025-04-12T1100,3318A,112.9903,23.7403,清远市,清新太和,,43,43,41,26,22,10,,14,13,32,32,7,6,0.6,0.6
2025-04-12T1100,3455A,113.076,23.7198,清远市,清城东城,,38,38,49,21,23,21,,16,16,20,29,7,7,0.8,0.8
2025-04-12T1100,2661A,107.6325,35.7357,庆阳市,庆阳五中,颗粒物(PM10),123,196,963,31,205,92,,90,85,1,3,1,1,0.2,0.2
2025-04-12T1100,2662A,107.6364,35.7067,庆阳市,市环保局,颗粒物(PM10),122,193,925,36,200,94,,92,87,1,3,2,3,0.2,0.1
2025-04-12T1100,1916A,103.7897,25.5035,曲靖市,环境监测站,,33,33,53,3,21,72,,60,60,13,14,7,7,0.3,0.4
2025-04-12T1100,1917A,103.8,25.5364,曲靖市,烟厂办公区,,27,19,46,7,22,85,,74,74,9,11,4,7,0.4,0.5
2025-04-12T1100,3376A,103.7947,25.462,曲靖市,南苑二区,,24,10,41,3,23,76,,64,64,12,12,5,6,0.6,0.6
2025-04-12T1100,3377A,103.7444,25.5261,曲靖市,曲靖师范学院,,28,28,50,3,28,86,,69,69,8,13,6,18,0.3,0.5
2025-04-12T1100,1264A,118.8692,28.9398,衢州市,环保大楼,,22,6,41,3,21,70,,77,73,15,17,2,3,0.6,0.6
2025-04-12T1100,1265A,118.8709,28.9666,衢州市,实验学校,,18,6,36,3,19,55,,72,66,21,19,5,4,0.6,0.5
2025-04-12T1100,1266A,118.8621,28.9808,衢州市,衢州学院,,16,6,33,3,17,50,,72,66,25,22,4,5,0.6,0.5
2025-04-12T1100,1611A,118.5819,24.9117,泉州市,涂山街,,39,39,33,20,23,27,,38,35,27,21,4,4,0.6,0.7
2025-04-12T1100,1612A,118.5972,24.8978,泉州市,津头埔,,34,34,30,21,22,25,,39,34,27,21,3,3,0.5,0.6
