timepoint,stationcode,longitude,latitude,area,positionname,primarypollutant,aqi,pm10,pm10_24h,pm2_5,pm2_5_24h,o3,o3_24h,o3_8h,o3_8h_24h,no2,no2_24h,so2,so2_24h,co,co_24h
2025-12-01T2000,2566A,102.1879,31.914,阿坝藏族羌族自治州,州农科所,,,,,,,,,,,,,,,,
2025-12-01T2000,2568A,102.2502,31.8896,阿坝藏族羌族自治州,马师校,,47,47,22,23,15,15,15,46,40,43,24,6,5,0.8,0.6
2025-12-01T2000,3994A,102.2165,31.9024,阿坝藏族羌族自治州,马尔康中学西区,,39,,14,27,11,21,21,56,51,42,19,6,5,0.7,0.6
2025-12-01T2000,2695A,80.292,41.1694,阿克苏地区,电视台,颗粒物(PM10),113,176,172,58,83,50,50,78,78,62,54,9,10,1.0,1.6
2025-12-01T2000,2696A,80.2613,41.1551,阿克苏地区,艺术中心,细颗粒物(PM2.5),120,161,143,91,74,44,44,73,73,75,58,12,9,0.9,1.2
2025-12-01T2000,2204A,105.6467,38.8363,阿拉善盟,西城区西花园,,,,,,,,,,,,,,,,
2025-12-01T2000,2205A,105.6985,38.8411,阿拉善盟,蒙二幼,,42,42,71,10,22,72,72,82,79,8,10,9,10,0.8,0.8
2025-12-01T2000,2206A,105.724,38.8516,阿拉善盟,环保局新楼,,26,26,58,8,21,68,68,80,75,6,6,9,9,0.7,0.7
2025-12-01T2000,2708A,88.1264,47.8517,阿勒泰地区,市站,,20,16,21,14,11,39,39,48,43,27,23,3,4,0.4,0.5
2025-12-01T2000,2630A,80.1161,32.5,阿里地区,阿里监测站,,23,6,3,3,3,71,71,75,75,6,9,8,7,0.4,0.4
2025-12-01T2000,3192A,80.0903,32.5028,阿里地区,阿里藏医院,,,10,16,3,9,83,83,80,80,,12,9,9,0.3,0.5
2025-12-01T2000,2642A,109.0318,32.6537,安康市,香溪洞,,,,,,,,,,,,,,,,
2025-12-01T2000,2644A,109.0072,32.6975,安康市,汉滨区检察院,颗粒物(PM10),79,107,62,57,37,7,7,37,32,53,27,6,5,0.7,0.4
2025-12-01T2000,4054A,109.0325,32.6913,安康市,市邮政管理局,,,,68,,40,,,16,,,30,,4,,0.7
2025-12-01T2000,2291A,117.0809,30.5177,安庆市,环科院,细颗粒物(PM2.5),169,201,130,128,87,118,118,132,132,21,49,8,9,1.0,0.9
2025-12-01T2000,2292A,117.0331,30.5119,安庆市,马山宾馆,细颗粒物(PM2.5),158,195,131,120,88,122,122,131,131,27,54,8,8,1.0,0.9
2025-12-01T2000,2294A,116.9896,30.6145,安庆市,安庆大学,细颗粒物(PM2.5),147,198,126,112,80,122,122,125,125,16,38,9,10,1.0,1.1
2025-12-01T2000,3173A,117.0598,30.5351,安庆市,市人大,细颗粒物(PM2.5),156,204,136,119,89,119,119,129,129,28,54,10,9,0.9,0.7
2025-12-01T2000,3122A,105.9606,26.2611,安顺市,伍家关,细颗粒物(PM2.5),74,66,108,54,75,75,75,99,96,25,18,40,30,0.4,0.4
2025-12-01T2000,3123A,105.9408,26.2431,安顺市,凤凰山,细颗粒物(PM2.5),55,52,93,39,78,93,93,107,106,24,26,22,31,0.7,1
2025-12-01T2000,3124A,105.9439,26.2564,安顺市,金钟山,颗粒物(PM10),51,52,87,35,77,105,105,116,116,17,18,23,25,0.7,0.9
2025-12-01T2000,3125A,105.8983,26.2481,安顺市,娄家坡,细颗粒物(PM2.5),53,47,91,37,78,98,98,105,105,14,18,17,28,0.6,0.9
2025-12-01T2000,1818A,114.4839,36.0621,安阳市,棉研所,,,,,,,,,,,,,,,,
2025-12-01T2000,1819A,114.3551,36.1017,安阳市,红庙街,颗粒物(PM10),114,177,274,54,53,32,32,55,52,41,23,4,4,0.5,0.4
2025-12-01T2000,1820A,114.361,36.0681,安阳市,银杏小区,颗粒物(PM10),112,173,269,60,66,24,24,58,53,41,21,3,3,0.7,0.4
2025-12-01T2000,3141A,114.3922,36.0878,安阳市,信访局,细颗粒物(PM2.5),163,170,251,124,70,26,26,59,54,50,23,5,4,0.4,0.2
2025-12-01T2000,3669A,114.4705,36.0637,安阳市,左辅环卫站,颗粒物(PM10),142,233,276,77,62,34,34,62,55,41,22,6,4,0.8,0.6
2025-12-01T2000,3703A,114.2917,36.0949,安阳市,安钢职工学校,颗粒物(PM10),115,179,304,60,76,32,32,56,52,37,20,4,5,0.6,1.3
2025-12-01T2000,1748A,123.044,41.1196,鞍山市,深沟寺,,29,29,39,8,24,50,50,50,50,15,27,7,10,0.6,1.1
2025-12-01T2000,1749A,123.011,41.0931,鞍山市,太阳城,,35,35,41,12,25,48,48,54,54,16,19,20,13,1.2,1
2025-12-01T2000,1750A,123.0485,41.1442,鞍山市,太平,,33,33,46,8,24,51,51,57,54,15,26,11,14,0.5,1.2
2025-12-01T2000,1751A,122.9642,41.0971,鞍山市,铁西三道街,,29,29,56,3,29,54,54,49,49,9,31,9,17,0.5,1.1
2025-12-01T2000,1753A,123.022,41.0821,鞍山市,明达新区,,26,26,37,9,22,48,48,52,52,16,19,18,13,1.0,0.9
2025-12-01T2000,1754A,123.1289,41.0228,鞍山市,千山,,,,18,,10,,,44,,,15,,6,,0.4
2025-12-01T2000,4201A,122.9446,41.0826,鞍山市,兴盛南路290号,,38,38,62,10,30,51,51,48,48,18,34,8,11,0.5,1
2025-12-01T2000,2195A,107.4212,40.761,巴彦淖尔市,附二中,,46,46,48,20,22,50,50,57,57,8,14,3,6,0.4,0.4
2025-12-01T2000,2196A,107.37,40.7372,巴彦淖尔市,市环保大楼,,44,44,44,26,16,53,53,58,58,9,16,8,9,0.5,0.6
2025-12-01T2000,1956A,86.1472,41.7538,巴音郭楞蒙古自治州,孔雀公园,颗粒物(PM10),93,135,100,51,34,4,4,58,52,98,60,11,10,1.0,0.7
2025-12-01T2000,1957A,86.1972,41.7166,巴音郭楞蒙古自治州,棉纺厂,颗粒物(PM10),123,196,121,60,35,19,19,72,68,90,45,10,8,1.5,0.7
2025-12-01T2000,1958A,86.2357,41.7173,巴音郭楞蒙古自治州,经济开发区,颗粒物(PM10),101,152,80,23,21,16,16,72,66,67,30,7,7,0.8,0.5
2025-12-01T2000,2914A,106.7677,31.8794,巴中市,苏山坪,,,,,,,,,,,,,,,,
2025-12-01T2000,3181A,106.7768,31.8526,巴中市,市五中,细颗粒物(PM2.5),117,128,93,88,67,1,1,12,12,40,29,8,8,1.3,1.1
2025-12-01T2000,3183A,106.7418,31.8654,巴中市,圣泉水务公司,细颗粒物(PM2.5),104,114,79,78,57,1,1,18,15,42,30,5,5,1.1,1
2025-12-01T2000,3616A,106.7616,31.8344,巴中市,市中心医院,"颗粒物(PM10),细颗粒物(PM2.5)",84,117,86,62,64,1,1,17,17,33,25,5,5,1.3,1.3
2025-12-01T2000,2235A,122.7911,45.6077,白城市,洮北区环保局,颗粒物(PM10),80,109,56,22,37,58,58,43,43,9,21,4,5,0.3,0.5
2025-12-01T2000,2236A,122.8738,45.5725,白城市,市环保局,,39,39,28,12,18,55,55,44,44,4,16,5,5,0.4,0.4
2025-12-01T2000,2231A,126.4219,41.9171,白山市,喜丰,,46,46,46,27,30,45,45,57,55,20,15,12,9,0.8,0.7
2025-12-01T2000,2232A,126.4077,41.9419,白山市,环保局,,46,33,36,32,32,57,57,52,52,9,17,11,10,0.6,0.7
2025-12-01T2000,2647A,104.1724,36.5446,白银市,第三小学,颗粒物(PM10),76,101,126,25,43,80,80,77,77,12,33,5,26,0.2,0.8
2025-12-01T2000,2648A,104.1465,36.5482,白银市,动力公司,颗粒物(PM10),69,88,114,26,41,80,80,80,80,9,24,3,16,0.4,1
2025-12-01T2000,2512A,106.6103,23.9011,百色市,市监测站,细颗粒物(PM2.5),68,70,58,49,41,46,46,85,83,24,20,6,7,0.9,0.8
2025-12-01T2000,2513A,106.6538,23.8859,百色市,市中心血站,细颗粒物(PM2.5),123,130,80,93,60,47,47,94,92,53,38,12,8,1.1,0.9
2025-12-01T2000,3406A,106.6085,23.8798,百色市,祈福高中,细颗粒物(PM2.5),84,112,73,62,44,22,22,79,72,62,27,6,6,0.8,0.7
2025-12-01T2000,2270A,117.396,32.939,蚌埠市,工人疗养院,颗粒物(PM10),135,219,194,79,60,23,23,72,66,54,34,6,6,0.6,0.5
2025-12-01T2000,2271A,117.3605,32.9427,蚌埠市,百货大楼,颗粒物(PM10),117,184,174,75,60,33,33,69,66,50,35,5,6,0.6,0.5
2025-12-01T2000,2273A,117.4185,32.8911,蚌埠市,蚌埠学院,颗粒物(PM10),112,173,188,55,73,1,1,64,52,84,49,9,10,0.6,0.5
2025-12-01T2000,2274A,117.3533,32.9673,蚌埠市,淮上区政府,颗粒物(PM10),123,195,186,77,62,44,44,72,70,38,35,8,8,0.6,0.5
2025-12-01T2000,2275A,117.3145,32.8977,蚌埠市,高新区,颗粒物(PM10),100,149,179,52,66,56,56,68,68,33,35,8,10,0.7,0.6
2025-12-01T2000,3715A,117.3092,32.9314,蚌埠市,蚌埠田家炳中学,颗粒物(PM10),110,169,191,67,63,43,43,73,71,42,35,6,9,0.6,0.5
2025-12-01T2000,1585A,109.8756,40.6532,包头市,市环境监测站,,37,37,45,3,12,55,55,62,62,11,28,6,10,0.4,1
2025-12-01T2000,1587A,109.9991,40.5842,包头市,包头八中,,36,36,61,3,22,52,52,58,58,15,32,12,11,0.4,0.9
2025-12-01T2000,1588A,109.8538,40.6821,包头市,青山宾馆,,20,20,33,3,14,55,55,62,62,10,23,4,9,0.5,0.8
2025-12-01T2000,1589A,109.8642,40.6288,包头市,惠龙物流,,34,34,39,10,14,58,58,66,66,10,27,6,10,0.5,1
2025-12-01T2000,1590A,110.0377,40.5546,包头市,东河鸿龙湾,,27,27,42,11,9,55,55,58,58,9,32,6,8,0.3,0.6
2025-12-01T2000,3283A,109.9154,40.5685,包头市,滨河大厦,,20,14,37,12,12,61,61,65,65,5,27,6,8,0.4,0.7
2025-12-01T2000,3419A,109.9447,40.6261,包头市,包头市委党校,,30,30,49,3,13,54,54,62,62,10,29,10,12,0.6,1.1
2025-12-01T2000,3683A,109.8331,40.6576,包头市,昆区政府,,25,25,35,6,12,57,57,62,62,12,25,9,12,0.4,0.7
2025-12-01T2000,1930A,107.185,34.3063,宝鸡市,庙沟村,,,,,,,,,,,,,,,,
2025-12-01T2000,1931A,107.0708,34.3017,宝鸡市,竹园沟,细颗粒物(PM2.5),70,83,58,51,23,38,38,62,60,23,15,8,8,0.5,0.3
2025-12-01T2000,1932A,107.1906,34.3672,宝鸡市,三陆医院,细颗粒物(PM2.5),135,124,99,103,44,3,3,57,52,78,36,7,7,0.9,0.6
2025-12-01T2000,1933A,107.1431,34.3547,宝鸡市,监测站,细颗粒物(PM2.5),129,128,75,98,38,21,21,55,52,43,25,5,5,0.7,0.5
2025-12-01T2000,1934A,107.1186,34.3739,宝鸡市,技工学校,颗粒物(PM10),89,127,85,57,35,21,21,58,56,55,24,7,5,0.7,0.6
2025-12-01T2000,1936A,107.2058,34.3497,宝鸡市,文理学院,细颗粒物(PM2.5),129,146,78,98,51,3,3,59,52,65,30,5,6,0.8,0.5
2025-12-01T2000,1937A,107.2386,34.3622,宝鸡市,三迪小学,细颗粒物(PM2.5),107,152,88,80,41,2,2,59,52,87,39,5,5,1.3,0.6
2025-12-01T2000,4308A,107.3898,34.3601,宝鸡市,陈仓区北开路21号,细颗粒物(PM2.5),142,136,100,108,47,23,23,16,,58,39,8,19,0.7,0.4
2025-12-01T2000,1051A,115.493,38.8632,保定市,游泳馆,颗粒物(PM10),53,56,73,24,20,23,23,48,44,34,21,3,3,0.2,0.1
2025-12-01T2000,1052A,115.5213,38.8959,保定市,华电二区,颗粒物(PM10),64,78,62,37,32,1,1,49,38,52,21,2,2,1.2,0.9
2025-12-01T2000,1053A,115.4713,38.9108,保定市,接待中心,颗粒物(PM10),57,63,66,30,21,6,6,46,38,55,21,1,2,0.4,0.2
2025-12-01T2000,1054A,115.4612,38.8416,保定市,地表水厂,颗粒物(PM10),55,59,82,23,22,32,32,53,49,31,28,3,3,0.1,0
2025-12-01T2000,3581A,115.31981,38.95208,保定市,满城区生态环境分局,颗粒物(PM10),71,92,84,29,24,3,3,49,36,68,33,3,2,0.3,0.2
2025-12-01T2000,3582A,115.47694,38.76408,保定市,清苑区第二中学,颗粒物(PM10),66,81,97,35,22,19,19,47,40,48,32,3,2,0.4,0.3
2025-12-01T2000,3583A,115.62909,39.02311,保定市,徐水物探局,颗粒物(PM10),69,87,85,44,23,5,5,46,36,43,24,2,3,0.6,0.4
2025-12-01T2000,4004A,115.4202,38.8656,保定市,双鹰农机,颗粒物(PM10),52,54,88,23,26,34,34,56,51,32,23,4,4,0.3,0.3
2025-12-01T2000,4034A,115.5150,38.8590,保定市,植保所站,颗粒物(PM10),58,65,82,38,28,13,13,42,37,48,29,3,2,0.3,0.2
2025-12-01T2000,2594A,99.1678,25.1081,保山市,市环境监测站,,43,30,27,30,22,57,57,82,80,8,11,6,6,0.3,0.3
2025-12-01T2000,2595A,99.1711,25.1328,保山市,市环保局,,30,30,28,20,20,66,66,84,84,4,6,5,5,0.5,0.5
2025-12-01T2000,1866A,109.2262,21.588,北海市,牛尾岭水库,,37,37,45,20,44,38,38,73,64,12,9,5,11,0.6,0.9
2025-12-01T2000,1867A,109.1436,21.4086,北海市,海滩公园,,42,38,62,29,44,74,74,81,81,14,15,5,5,0.8,0.8
2025-12-01T2000,1868A,109.0981,21.4661,北海市,新市环保局,细颗粒物(PM2.5),64,,62,46,55,69,69,81,80,21,16,7,8,0.7,0.7
2025-12-01T2000,1869A,109.1778,21.5233,北海市,北海工业园,细颗粒物(PM2.5),55,45,63,39,49,62,62,78,78,16,16,6,6,0.8,0.8
2025-12-01T2000,3400A,109.1911,21.4415,北海市,龙潭自来水厂,细颗粒物(PM2.5),64,,55,46,53,63,63,79,79,16,13,10,11,0.2,0.4
2025-12-01T2000,1001A,116.3621,39.8784,北京市,万寿西宫,,28,28,30,12,7,49,49,52,49,10,10,1,2,0.3,0.2
2025-12-01T2000,1002A,116.2202,40.2915,北京市,定陵,,,,,,,,,,,,,,,,
2025-12-01T2000,1003A,116.4174,39.9289,北京市,东四,,35,35,41,9,7,49,49,49,,10,11,3,3,0.2,0.4
2025-12-01T2000,1004A,116.4072,39.8863,北京市,天坛,,27,27,33,8,7,48,48,51,48,12,12,1,2,0.4,0.3
2025-12-01T2000,1005A,116.462,39.9365,北京市,农展馆,,26,26,32,3,5,48,48,52,51,8,7,3,4,0.3,0.3
2025-12-01T2000,1006A,116.3392,39.9295,北京市,官园,,32,32,33,12,9,43,43,50,45,12,8,1,3,0.3,0.3
2025-12-01T2000,1007A,116.2878,39.9611,北京市,海淀万柳,,25,25,27,7,6,39,39,45,43,15,11,3,3,0.4,0.3
2025-12-01T2000,1008A,116.6636,40.135,北京市,顺义新城,,18,18,43,3,8,52,52,55,54,5,7,3,3,0.3,0.3
2025-12-01T2000,1009A,116.6275,40.3275,北京市,怀柔镇,,18,14,34,3,7,56,56,56,56,4,4,5,5,0.5,0.4
2025-12-01T2000,1010A,116.2296,40.217,北京市,昌平镇,,18,14,32,3,9,57,57,53,53,3,11,4,4,0.3,0.3
2025-12-01T2000,1011A,116.3966,39.9821,北京市,奥体中心,,24,24,30,7,10,49,49,52,52,12,13,3,3,0.4,0.4
2025-12-01T2000,3281A,115.9718,40.4529,北京市,延庆夏都,,17,16,26,3,7,54,54,53,53,7,4,3,1,0.4,0.4
2025-12-01T2000,3418A,116.8336,40.4095,北京市,密云新城,,20,11,32,3,6,61,61,57,57,1,2,2,2,0.2,0.4
2025-12-01T2000,3671A,116.088,39.9726,北京市,门头沟三家店,,28,28,28,9,8,41,41,51,44,13,6,1,2,0.3,0.4
2025-12-01T2000,3672A,116.1541,39.8204,北京市,丰台云岗,,29,29,34,11,8,39,39,44,42,14,10,1,1,0.1,0.1
2025-12-01T2000,3673A,116.6804,39.9081,北京市,通州东关,细颗粒物(PM2.5),53,,47,37,11,41,41,51,50,16,14,4,4,0.5,0.4
2025-12-01T2000,3674A,115.9577,39.7603,北京市,房山燕山,,36,36,48,17,14,24,24,50,33,28,13,3,2,0.5,0.4
2025-12-01T2000,3675A,116.4672,39.7733,北京市,大兴旧宫,,28,28,33,6,6,38,38,49,46,19,11,3,3,0.3,0.3
2025-12-01T2000,3694A,115.986,40.4563,北京市,延庆石河营,,18,14,27,3,7,56,56,51,51,3,4,2,3,0.4,0.4
2025-12-01T2000,3695A,116.6151,40.3053,北京市,怀柔新城,,19,14,34,3,7,59,59,58,58,1,2,2,2,0.2,0.2
2025-12-01T2000,3696A,116.2545,39.8768,北京市,丰台小屯,,28,28,32,7,8,41,41,47,42,14,11,2,3,0.4,0.3
2025-12-01T2000,3697A,116.84,40.3844,北京市,密云镇,,20,13,30,3,6,61,61,58,58,3,5,3,2,0.3,0.3
2025-12-01T2000,4182A,116.1942,39.9158,北京市,八角北路9号,,28,28,30,9,7,35,35,58,37,13,10,3,3,0.1,0
2025-12-01T2000,4194A,117.0790,40.1518,北京市,洳河巡河路,,18,16,48,3,8,56,56,57,57,2,5,2,2,0.5,0.4
2025-12-01T2000,1761A,123.8275,41.3064,本溪市,大峪,,30,30,43,8,27,51,51,51,51,13,22,10,10,0.5,0.9
2025-12-01T2000,1762A,123.7567,41.3325,本溪市,溪湖,,46,46,50,10,31,52,52,55,55,13,24,10,9,0.5,1.1
2025-12-01T2000,1763A,123.7169,41.3094,本溪市,彩屯,,37,37,42,11,44,54,54,53,53,10,21,7,7,0.4,1.1
2025-12-01T2000,1764A,123.7669,41.2864,本溪市,东明,颗粒物(PM10),56,61,46,6,31,54,54,52,52,9,23,8,9,0.6,1.1
2025-12-01T2000,1765A,123.7992,41.2664,本溪市,新立屯,颗粒物(PM10),56,62,41,8,25,57,57,56,56,10,23,8,8,0.4,0.9
2025-12-01T2000,1766A,123.8142,41.3472,本溪市,威宁,颗粒物(PM10),65,80,58,14,25,49,49,53,53,11,19,9,10,0.4,0.8
2025-12-01T2000,2587A,105.2864,27.3125,毕节市,八中,细颗粒物(PM2.5),137,132,126,104,101,102,102,90,90,15,18,11,11,0.8,0.9
2025-12-01T2000,2588A,105.31,27.2944,毕节市,师专,细颗粒物(PM2.5),139,129,139,106,106,102,102,90,90,,26,,8,0.8,1.1
2025-12-01T2000,4263A,105.3688,27.3598,毕节市,工业大道,细颗粒物(PM2.5),180,168,140,136,92,93,93,97,97,26,20,14,11,1.2,1.4
2025-12-01T2000,1629A,118.0018,37.3617,滨州市,第二水厂,颗粒物(PM10),51,51,91,13,24,37,37,50,49,24,30,10,11,0.7,0.6
2025-12-01T2000,1630A,117.9776,37.393,滨州市,北中新校,,46,46,83,9,23,37,37,49,48,23,38,6,8,0.4,0.4
2025-12-01T2000,3514A,117.9378,37.3956,滨州市,中海酒店,,48,48,91,9,23,44,44,56,55,14,27,10,10,0.4,0.6
2025-12-01T2000,3515A,117.9378,37.3553,滨州市,开发区一中,颗粒物(PM10),52,53,101,12,24,43,43,59,56,19,28,9,11,0.4,0.6
2025-12-01T2000,3516A,118.0917,37.694,滨州市,金海六路,,39,39,85,7,9,34,34,56,52,29,26,7,7,0.6,0.5
2025-12-01T2000,4028A,117.9956,37.3753,滨州市,滨州市西街道办事处,,44,44,90,12,24,35,35,51,49,19,26,8,10,0.7,0.6
2025-12-01T2000,2311A,115.8072,33.8399,亳州市,污水处理厂,颗粒物(PM10),108,165,179,58,64,23,23,68,61,51,30,17,11,0.7,0.7
2025-12-01T2000,2312A,115.7789,33.8518,亳州市,三国揽胜宫,颗粒物(PM10),109,167,183,66,67,27,27,65,59,58,36,14,11,0.6,0.5
2025-12-01T2000,3332A,115.7633,33.8034,亳州市,亳州学院,颗粒物(PM10),92,134,178,50,64,52,52,68,66,33,29,11,8,0.5,0.5
2025-12-01T2000,2693A,82.0485,44.8556,博尔塔拉蒙古自治州,市党校,,40,40,45,18,20,39,39,36,36,16,17,2,2,0.4,0.5
2025-12-01T2000,2694A,82.0806,44.8969,博尔塔拉蒙古自治州,市环保局,颗粒物(PM10),54,57,52,23,22,31,31,30,30,19,16,5,6,0.6,0.6
2025-12-01T2000,1071A,116.8842,38.2991,沧州市,沧县城建局,"颗粒物(PM10),细颗粒物(PM2.5)",52,54,83,36,25,23,23,47,42,39,26,6,4,0.5,0.4
2025-12-01T2000,1072A,116.8584,38.3254,沧州市,电视转播站,颗粒物(PM10),54,58,83,24,27,19,19,43,38,39,35,5,2,0.6,0.5
2025-12-01T2000,1073A,116.8709,38.3228,沧州市,市环保局,颗粒物(PM10),54,57,86,35,31,16,16,38,34,36,30,3,2,0.5,0.3
2025-12-01T2000,3324A,116.8136,38.3004,沧州市,河北水利电力学院,,39,39,81,17,17,31,31,44,42,25,18,4,3,0.4,0.2
2025-12-01T2000,2622A,97.1806,31.1273,昌都市,昌都监测站,,39,36,38,27,19,22,22,56,50,53,24,3,2,0.9,0.6
2025-12-01T2000,3719A,97.1714,31.1406,昌都市,昌都会议中心,,38,38,22,20,10,50,50,66,66,14,6,2,2,0.3,0.2
2025-12-01T2000,2690A,88.1236,43.8886,昌吉回族自治州,天山天池,,,,,,,,,,,,,,,,
2025-12-01T2000,2692A,87.2717,44.0297,昌吉回族自治州,新区政务中心,,26,26,38,12,28,41,41,47,47,23,27,5,9,0.6,0.8
2025-12-01T2000,3613A,87.3095,44.0142,昌吉回族自治州,亚心广场,,29,29,49,14,30,51,51,52,52,12,20,8,12,0.3,0.5
2025-12-01T2000,1120A,125.2863,43.9027,长春市,客车厂,,38,38,66,24,57,46,46,49,46,19,33,9,10,0.4,0.6
2025-12-01T2000,1121A,125.2841,43.8463,长春市,邮电学院,,31,31,71,14,56,51,51,51,51,14,30,13,11,0.4,0.7
2025-12-01T2000,1122A,125.3716,43.8772,长春市,劳动公园,,33,33,72,8,47,49,49,50,49,13,27,10,10,0.8,0.9
2025-12-01T2000,1123A,125.3297,43.8805,长春市,园林处,,34,34,60,14,49,48,48,49,48,12,27,5,8,0.3,0.5
2025-12-01T2000,1124A,125.4605,43.79,长春市,净月潭,,,32,68,3,50,,,59,58,9,18,6,6,0.2,0.6
2025-12-01T2000,1125A,125.7194,43.515,长春市,甩湾子,,22,22,59,11,55,55,55,62,60,8,15,5,5,0.0,0.2
2025-12-01T2000,1126A,125.3863,43.8447,长春市,经开区环卫处,,31,31,71,9,51,45,45,48,48,16,32,6,6,0.3,0.6
2025-12-01T2000,1127A,125.245,43.7783,长春市,高新区管委会,,26,26,69,10,57,52,52,56,55,10,28,6,6,0.2,0.6
2025-12-01T2000,1128A,125.1761,43.8325,长春市,岱山公园,,31,31,74,8,58,45,45,48,47,10,32,6,8,0.3,0.6
2025-12-01T2000,4281A,125.3346,43.9164,长春市,北亚泰大街1068号,,38,38,65,20,58,38,38,39,38,19,34,7,8,0.4,0.8
2025-12-01T2000,1335A,113.0833,28.2325,长沙市,经开区环保局,细颗粒物(PM2.5),97,135,114,72,95,73,73,103,103,40,33,8,8,0.8,0.7
2025-12-01T2000,1336A,112.8872,28.2189,长沙市,高开区环保局,细颗粒物(PM2.5),100,133,115,75,99,90,90,108,108,22,22,9,9,0.9,0.8
2025-12-01T2000,1337A,113.0792,28.2053,长沙市,马坡岭,颗粒物(PM10),90,129,121,65,81,85,85,113,113,40,44,8,8,0.9,0.8
2025-12-01T2000,1338A,112.9394,28.19,长沙市,湖南师范大学,颗粒物(PM10),85,120,118,62,79,93,93,112,112,26,26,7,7,0.7,0.7
2025-12-01T2000,1339A,113.0178,28.1322,长沙市,雨花区环保局,细颗粒物(PM2.5),98,127,113,73,82,98,98,115,115,24,37,11,11,0.8,0.8
2025-12-01T2000,1340A,112.9792,28.2597,长沙市,伍家岭,颗粒物(PM10),96,142,132,61,90,77,77,104,104,36,36,8,8,0.8,0.8
2025-12-01T2000,1341A,113.0014,28.1944,长沙市,火车新站,细颗粒物(PM2.5),100,138,127,75,82,88,88,110,110,32,34,10,10,0.8,0.8
2025-12-01T2000,1342A,112.9844,28.1178,长沙市,天心区环保局,细颗粒物(PM2.5),92,128,114,68,76,98,98,118,118,29,28,9,9,0.7,0.7
2025-12-01T2000,1343A,112.8908,28.1308,长沙市,湖南中医药大学,细颗粒物(PM2.5),102,140,127,76,89,89,89,112,112,24,26,10,9,0.9,0.9
2025-12-01T2000,1344A,112.9581,28.3611,长沙市,沙坪,,,,,,,,,,,,,,,,
2025-12-01T2000,1727A,113.1147,36.1547,长治市,清华站,颗粒物(PM10),98,146,107,46,32,76,76,80,80,12,28,12,15,0.4,0.7
2025-12-01T2000,1730A,113.0886,36.2125,长治市,审计局,颗粒物(PM10),101,151,103,46,32,43,43,68,66,44,33,14,15,0.6,0.6
2025-12-01T2000,1731A,113.0844,36.1856,长治市,长治八中,颗粒物(PM10),116,182,131,57,42,45,45,71,68,34,28,16,15,0.7,0.6
2025-12-01T2000,2845A,113.1569,36.1911,长治市,德盛苑,,,,96,,32,77,77,78,78,,13,,15,0.5,0.8
2025-12-01T2000,3568A,113.06,36.0464,长治市,向阳小学,颗粒物(PM10),122,193,146,58,42,68,68,77,77,22,26,19,22,0.5,0.6
2025-12-01T2000,3569A,112.8792,36.3144,长治市,屯留一中,颗粒物(PM10),118,185,118,56,34,53,53,66,64,25,33,18,15,0.5,0.5
2025-12-01T2000,4189A,113.1131,36.19948,长治市,英华南巷50号,颗粒物(PM10),106,162,121,51,38,68,68,77,77,17,25,7,12,0.6,1
2025-12-01T2000,4190A,113.2367,36.3344,长治市,学府街1号,颗粒物(PM10),130,210,122,48,34,13,13,70,58,61,39,10,10,0.5,0.9
2025-12-01T2000,1854A,111.6975,28.9703,常德市,市二中,细颗粒物(PM2.5),122,159,129,92,78,78,78,98,98,23,21,10,9,0.6,0.6
2025-12-01T2000,1857A,111.7158,29.1456,常德市,白鹤山,,,,,,,,,,,,,,,,
2025-12-01T2000,3138A,111.7153,29.0289,常德市,武陵区永安,细颗粒物(PM2.5),102,146,135,76,80,88,88,101,101,19,18,12,13,0.6,0.7
2025-12-01T2000,3139A,111.6892,28.9881,常德市,鼎城区玉霞,细颗粒物(PM2.5),104,144,124,78,84,92,92,105,105,21,25,10,9,0.6,0.7
2025-12-01T2000,3140A,111.6625,29.0531,常德市,武陵区长庚,,,139,140,69,81,,,111,111,23,23,9,9,0.5,0.5
2025-12-01T2000,1196A,119.9633,31.762,常州市,市监测站,颗粒物(PM10),66,82,132,28,64,71,71,89,88,24,50,6,6,0.9,0.9
2025-12-01T2000,1200A,119.9468,31.7069,常州市,武进监测站,颗粒物(PM10),69,88,139,34,71,69,69,93,91,27,47,6,9,0.5,0.7
2025-12-01T2000,1201A,119.9255,31.9087,常州市,安家,颗粒物(PM10),77,104,146,38,68,38,38,76,69,44,52,10,14,0.4,0.6
2025-12-01T2000,3002A,119.9805,31.8174,常州市,行政中心,,,,166,,70,62,62,79,76,29,50,,10,0.6,0.8
2025-12-01T2000,3003A,120.0522,31.7748,常州市,经开区,颗粒物(PM10),69,88,139,26,58,66,66,87,84,24,45,9,11,0.7,0.7
2025-12-01T2000,3010A,119.9025,31.7964,常州市,钟楼,颗粒物(PM10),70,89,127,26,62,63,63,79,76,30,48,9,11,0.7,0.9
2025-12-01T2000,3429A,119.8598,31.7066,常州市,武进经发区,颗粒物(PM10),76,102,144,30,70,69,69,91,90,23,45,10,12,0.8,0.9
2025-12-01T2000,3430A,119.5826,31.7245,常州市,金坛城区,颗粒物(PM10),84,117,144,31,65,62,62,87,81,29,35,7,10,1.0,1
2025-12-01T2000,2220A,120.4318,41.5881,朝阳市,西梁,,24,24,43,6,21,52,52,65,61,13,22,6,7,0.6,0.8
2025-12-01T2000,2221A,120.4521,41.5646,朝阳市,河畔小区,,19,17,27,6,13,60,60,68,66,8,17,5,7,0.4,0.6
2025-12-01T2000,2222A,120.4176,41.5648,朝阳市,八里堡,,34,34,41,11,19,57,57,66,63,10,24,7,10,0.3,0.7
2025-12-01T2000,2223A,120.3806,41.5969,朝阳市,农业园区,,26,26,19,7,10,61,61,74,69,9,15,6,7,0.4,0.5
2025-12-01T2000,1705A,116.6367,23.6719,潮州市,西园路,,,,,,,,,,,,,,,,
2025-12-01T2000,3026A,116.6183,23.6608,潮州市,市政府,,43,38,28,30,16,61,61,69,69,17,9,4,4,0.5,0.4
2025-12-01T2000,4036A,116.6461,23.6761,潮州市,金山,细颗粒物(PM2.5),59,,23,42,18,80,80,94,94,17,8,10,2,0.6,0.4
2025-12-01T2000,2472A,113.0073,25.9061,郴州市,马头岭,,,,,,,,,,,,,,,,
2025-12-01T2000,2473A,113.0116,25.8226,郴州市,市职中,细颗粒物(PM2.5),70,82,57,51,38,11,11,108,92,63,31,7,8,0.9,0.7
2025-12-01T2000,2475A,113.0383,25.8071,郴州市,市审计局,细颗粒物(PM2.5),75,72,62,55,40,57,57,111,105,32,31,5,8,0.7,0.7
2025-12-01T2000,2476A,113.0348,25.7759,郴州市,市环保局,细颗粒物(PM2.5),70,87,76,51,43,40,40,102,95,51,38,7,13,0.8,0.6
2025-12-01T2000,4252A,113.0138,25.8011,郴州市,好美居路49号,细颗粒物(PM2.5),72,66,55,52,40,59,59,118,110,52,36,8,11,0.8,0.6
2025-12-01T2000,1431A,103.9728,30.7236,成都市,金泉两河,细颗粒物(PM2.5),170,134,124,129,109,57,57,81,81,39,53,3,4,0.9,1.2
2025-12-01T2000,1432A,104.176,30.6872,成都市,十里店,细颗粒物(PM2.5),170,154,158,129,119,70,70,86,86,36,67,4,4,0.9,1.3
2025-12-01T2000,1433A,104.079,30.5706,成都市,三瓦窑,细颗粒物(PM2.5),153,160,160,117,116,62,62,88,88,46,66,4,5,1.0,1.3
2025-12-01T2000,1434A,104.1114,30.63,成都市,沙河铺,细颗粒物(PM2.5),193,162,161,145,147,48,48,70,70,54,65,5,4,0.9,1.2
2025-12-01T2000,1437A,104.0786,30.6531,成都市,君平街,细颗粒物(PM2.5),198,175,154,148,133,41,41,73,73,61,71,4,5,1.1,1.5
2025-12-01T2000,1438A,103.613,31.0283,成都市,灵岩寺,,,,,,,,,,,,,,,,
2025-12-01T2000,2880A,104.0239,30.65639,成都市,大石西路,细颗粒物(PM2.5),198,149,126,148,119,45,45,74,74,51,63,4,5,1.2,1.5
2025-12-01T2000,3136A,104.2725,30.5589,成都市,龙泉驿区区政府,细颗粒物(PM2.5),134,122,116,102,90,66,66,79,79,14,20,6,6,0.8,0.7
2025-12-01T2000,3357A,104.0106,30.6931,成都市,金博路,细颗粒物(PM2.5),158,156,139,120,105,48,48,78,78,52,66,4,5,1.1,1.3
2025-12-01T2000,3359A,104.0578,30.5225,成都市,华阳,细颗粒物(PM2.5),147,144,144,112,111,37,37,85,82,63,58,4,4,1.0,1.1
2025-12-01T2000,3488A,104.3880,30.7467,成都市,青石路225号,细颗粒物(PM2.5),188,149,114,141,97,11,11,83,78,67,40,6,4,1.2,0.9
2025-12-01T2000,3489A,104.0789,30.4072,成都市,科学城,细颗粒物(PM2.5),143,137,128,109,100,60,60,96,96,30,33,5,6,0.6,0.7
2025-12-01T2000,4011A,103.8506,30.6947,成都市,光华大道三段,细颗粒物(PM2.5),183,164,141,138,116,63,63,90,90,50,50,3,4,0.9,1.1
2025-12-01T2000,4224A,104.2433,30.5353,成都市,鲸龙路1057号,细颗粒物(PM2.5),150,124,126,115,112,58,58,89,89,33,42,5,6,1.0,1
2025-12-01T2000,1062A,117.9531,40.9081,承德市,铁路,,22,17,30,3,8,68,68,66,66,4,10,2,3,0.2,0.2
2025-12-01T2000,1063A,117.9392,40.9763,承德市,中国银行,,24,24,26,10,7,68,68,68,68,3,7,2,2,0.2,0.2
2025-12-01T2000,1064A,117.9503,40.928,承德市,开发区,,29,29,32,15,14,70,70,70,70,2,6,3,3,0.1,0.1
2025-12-01T2000,1066A,117.9268,41.0026,承德市,离宫,,,,,,,,,,,,,,,,
2025-12-01T2000,4274A,117.7994,40.9605,承德市,滨河大街98号,,35,35,24,14,9,58,58,63,63,8,5,2,2,0.2,0.2
2025-12-01T2000,2314A,117.47,30.6618,池州市,池州学院,细颗粒物(PM2.5),179,195,126,135,89,73,73,109,109,52,52,15,10,1.1,1.1
2025-12-01T2000,3237A,117.4918,30.6617,池州市,展览馆,细颗粒物(PM2.5),178,214,123,134,78,72,72,111,111,47,46,13,10,1.0,1
2025-12-01T2000,3333A,117.5627,30.695,池州市,第八中学,细颗粒物(PM2.5),135,193,135,103,79,65,65,111,110,52,60,11,12,1.3,1.2
2025-12-01T2000,3334A,117.5038,30.6243,池州市,第十二中学,细颗粒物(PM2.5),130,178,117,99,70,65,65,118,115,62,48,10,10,1.4,1.5
2025-12-01T2000,1744A,118.9233,42.2816,赤峰市,松山一中,,24,24,19,11,8,64,64,65,64,16,21,4,5,0.4,0.5
2025-12-01T2000,1745A,118.9576,42.2728,赤峰市,哈达街,,24,24,18,13,9,58,58,62,60,13,13,7,8,0.6,0.6
2025-12-01T2000,1746A,118.8788,42.2554,赤峰市,天义路,,22,,13,15,9,57,57,67,64,19,10,5,6,0.8,0.7
2025-12-01T2000,3058A,119.2658,42.0353,赤峰市,银河街,,32,32,29,9,18,64,64,70,66,9,15,10,11,0.4,0.6
2025-12-01T2000,3286A,118.9359,42.3147,赤峰市,桥北物流园区,,20,15,19,9,11,61,61,61,60,9,14,8,9,0.3,0.4
2025-12-01T2000,2521A,107.3476,22.4136,崇左市,市环保局江州分局,颗粒物(PM10),70,90,83,35,45,18,18,91,81,53,21,3,3,0.8,0.8
2025-12-01T2000,4256A,107.3750,22.3736,崇左市,石景林东路7号,细颗粒物(PM2.5),59,,64,42,50,47,47,97,92,22,22,7,7,0.7,0.8
2025-12-01T2000,2298A,118.3093,32.3153,滁州市,老年大学,颗粒物(PM10),87,123,145,42,50,60,60,82,80,23,21,13,13,0.5,0.6
2025-12-01T2000,2299A,118.3244,32.2786,滁州市,人大宾馆,颗粒物(PM10),89,127,148,46,53,50,50,82,77,38,28,6,7,0.5,0.5
2025-12-01T2000,3207A,118.3118,32.3038,滁州市,市政府原办公楼,颗粒物(PM10),82,114,142,45,53,62,62,83,80,31,33,5,6,0.5,0.6
2025-12-01T2000,3331A,118.3267,32.2634,滁州市,图书馆,,,,145,,47,,,70,,,24,,10,,0.5
2025-12-01T2000,2605A,101.5482,25.0441,楚雄彝族自治州,州环境监测站,,26,21,30,18,22,49,49,57,57,6,19,6,14,0.7,0.7
2025-12-01T2000,2606A,101.538,25.0492,楚雄彝族自治州,市经济开发区,,22,22,31,15,22,50,50,60,60,10,20,6,13,0.7,0.7
2025-12-01T2000,2548A,107.5277,31.2827,达州市,达州职业技术学院,,,,,,,,,,,,,,,,
2025-12-01T2000,2549A,107.5086,31.2186,达州市,市环境监测站,细颗粒物(PM2.5),134,131,100,102,74,2,2,31,29,55,37,7,7,1.1,0.9
2025-12-01T2000,2550A,107.4988,31.2132,达州市,凤凰小区,细颗粒物(PM2.5),138,144,107,105,78,4,4,35,32,61,39,7,6,1.1,0.7
2025-12-01T2000,2551A,107.5082,31.1986,达州市,达县机关宾馆,细颗粒物(PM2.5),149,151,105,114,79,3,3,38,34,51,36,5,4,1.2,0.9
2025-12-01T2000,2552A,107.4644,31.2124,达州市,市政中心,细颗粒物(PM2.5),138,169,121,105,76,3,3,26,25,69,41,8,7,1.4,0.9
2025-12-01T2000,2614A,100.1542,25.7054,大理白族自治州,大理市环境监测站,,33,23,22,23,23,70,70,64,64,9,9,6,6,0.8,0.8
2025-12-01T2000,2615A,100.2171,25.5811,大理白族自治州,大理古城,颗粒物(PM10),82,114,32,54,20,41,41,76,72,34,15,7,7,0.9,0.8
2025-12-01T2000,1109A,121.612,38.9741,大连市,甘井子,,25,25,36,7,9,61,61,60,60,19,21,9,8,0,0
2025-12-01T2000,1110A,121.565,38.9511,大连市,周水子,,22,22,36,6,10,60,60,59,59,16,20,5,7,0.3,0.4
2025-12-01T2000,1111A,121.5637,38.8845,大连市,星海三站,,20,20,32,7,11,55,55,58,58,20,18,8,8,0.2,0.2
2025-12-01T2000,1112A,121.6302,38.9117,大连市,青泥洼桥,,19,18,21,7,9,58,58,58,58,19,20,10,11,0.2,0.3
2025-12-01T2000,1113A,121.6251,38.8638,大连市,傅家庄,,20,20,30,3,8,58,58,58,58,14,15,7,10,0.4,0.4
2025-12-01T2000,1114A,121.5213,38.8661,大连市,七贤岭,,25,25,39,9,9,59,59,60,60,14,12,6,7,0.5,0.6
2025-12-01T2000,1115A,121.2529,38.8061,大连市,旅顺,,22,22,25,11,10,60,60,62,62,9,9,6,6,0.4,0.3
2025-12-01T2000,1116A,121.7485,39.1311,大连市,金州,,23,23,26,11,12,56,56,60,60,16,12,11,8,0.3,0.3
2025-12-01T2000,1117A,121.7811,39.0496,大连市,开发区,,22,22,39,7,10,58,58,55,55,11,13,9,9,0.1,0.1
2025-12-01T2000,1118A,121.9762,39.0631,大连市,双D港,,28,28,28,12,11,62,62,63,63,12,12,12,11,0.5,0.5
2025-12-01T2000,1789A,124.81117,46.03138,大庆市,大同区,,32,32,45,22,30,36,36,43,40,14,17,6,6,0.6,0.7
2025-12-01T2000,1790A,125.129,46.533,大庆市,龙凤区,,37,37,32,22,24,22,22,35,32,36,25,6,6,0.6,0.5
2025-12-01T2000,1791A,124.902,46.408,大庆市,红岗区,,25,25,33,16,24,38,38,35,35,13,21,4,6,0.4,0.5
2025-12-01T2000,1792A,125.153,46.586,大庆市,萨尔图区,,29,26,31,20,18,38,38,40,37,32,32,7,8,0.6,1.1
2025-12-01T2000,1793A,124.9042,46.6215,大庆市,让胡路区,,35,29,27,24,23,40,40,48,43,15,12,7,7,0.3,0.3
2025-12-01T2000,3481A,125.141,46.634,大庆市,萨区政府监测点,,39,39,30,22,8,32,32,42,38,14,18,8,8,0.4,0.4
2025-12-01T2000,1721A,113.3819,40.1097,大同市,果树场,,26,26,48,16,17,60,60,58,58,6,27,6,10,0.7,1
2025-12-01T2000,1723A,113.2994,40.0758,大同市,云冈宾馆,,,26,59,13,17,,,44,44,10,19,5,9,0.5,1
2025-12-01T2000,1724A,113.3444,40.0917,大同市,大同大学,,38,38,49,8,15,48,48,52,51,19,26,4,9,0.3,0.6
2025-12-01T2000,1725A,113.2661,40.1269,大同市,安家小村,,30,30,52,3,21,49,49,51,51,8,19,7,11,0.4,0.8
2025-12-01T2000,1726A,113.2711,40.0844,大同市,教育学院,,38,38,56,15,25,51,51,48,48,9,21,3,9,0.4,0.9
2025-12-01T2000,3282A,113.3397,40.0597,大同市,大同市卫生学校,,,39,48,,12,47,47,48,48,14,21,4,8,0.4,0.6
2025-12-01T2000,3565A,113.1367,40.1122,大同市,云冈站,,30,30,54,3,15,53,53,51,51,7,17,4,11,0.6,0.7
2025-12-01T2000,3566A,113.1186,40.2556,大同市,图书馆,,40,40,51,10,15,53,53,50,50,11,10,5,5,0.8,0.7
2025-12-01T2000,3567A,113.5931,40.0461,大同市,区一中,,36,36,57,8,23,46,46,55,52,10,16,8,11,0.5,0.6
2025-12-01T2000,4199A,113.2798,40.0997,大同市,魏都大道141号,,33,33,61,14,19,53,53,50,50,9,22,3,7,0.4,1
2025-12-01T2000,2269A,124.1069,50.4097,大兴安岭地区,科技局,,26,,14,18,14,48,48,52,52,4,3,4,4,0.2,0.2
2025-12-01T2000,3663A,124.1164,50.4278,大兴安岭地区,红旗社区,,17,7,5,3,3,52,52,52,52,3,5,5,5,0.3,0.3
2025-12-01T2000,1600A,124.3303,40.0625,丹东市,江湾东路,,26,26,42,17,26,49,49,51,45,17,18,11,9,0.7,0.7
2025-12-01T2000,1601A,124.4256,40.1503,丹东市,临江后街,,31,31,36,18,19,45,45,50,48,14,14,10,7,0.7,0.6
2025-12-01T2000,1602A,124.3933,40.1461,丹东市,元宝山,,25,24,31,17,21,44,44,52,51,14,9,12,8,0.8,0.7
2025-12-01T2000,1603A,124.3633,40.1092,丹东市,民主桥,,32,32,40,12,16,49,49,51,49,18,15,12,7,0.6,0.6
2025-12-01T2000,3541A,109.5726,19.5167,儋州市,第一中学子站,颗粒物(PM10),59,68,30,25,14,59,59,62,58,10,7,3,2,0.7,0.6
2025-12-01T2000,3542A,109.5567,19.5187,儋州市,东坡学校子站,颗粒物(PM10),55,59,21,30,16,66,66,67,67,9,7,3,4,0.5,0.4
2025-12-01T2000,2616A,98.5842,24.428,德宏傣族景颇族自治州,德宏州监测站,细颗粒物(PM2.5),79,96,49,58,40,25,25,81,74,46,22,9,8,1.1,0.7
2025-12-01T2000,3677A,98.5881,24.4368,德宏傣族景颇族自治州,芒市人民政府综合楼,颗粒物(PM10),57,63,49,31,33,44,44,69,69,25,16,8,7,0.9,0.8
2025-12-01T2000,1901A,104.4239,31.1208,德阳市,东山公园,细颗粒物(PM2.5),144,126,116,110,97,76,76,77,77,18,28,2,2,1.1,1.1
2025-12-01T2000,1902A,104.3826,31.1317,德阳市,西小区,细颗粒物(PM2.5),163,151,150,124,113,47,47,65,65,42,45,4,5,0.9,1
2025-12-01T2000,1904A,104.3553,31.1091,德阳市,耐火材料厂,细颗粒物(PM2.5),158,137,144,120,123,45,45,66,66,46,51,4,6,1.2,1.2
2025-12-01T2000,3639A,104.4019,31.1244,德阳市,市教育局,细颗粒物(PM2.5),155,125,113,118,102,29,29,50,50,46,42,1,1,1.1,1
2025-12-01T2000,1622A,116.3032,37.4674,德州市,儿童乐园,颗粒物(PM10),71,92,122,24,27,31,31,54,51,29,26,16,12,0.8,0.6
2025-12-01T2000,1624A,116.2991,37.4451,德州市,监理站,颗粒物(PM10),71,92,114,27,22,41,41,63,60,29,23,18,13,0.6,0.5
2025-12-01T2000,3066A,116.2721,37.4379,德州市,九衢泉纯净水厂,颗粒物(PM10),75,100,115,22,24,34,34,56,54,30,25,19,15,0.9,0.8
2025-12-01T2000,3371A,116.3728,37.4403,德州市,开发区人民医院,,,,114,27,26,,,57,57,33,32,17,16,0.7,0.5
2025-12-01T2000,3511A,116.5652,37.3319,德州市,陵城艺术中心,颗粒物(PM10),68,85,127,19,25,30,30,58,53,32,28,14,16,0.2,0.5
2025-12-01T2000,4292A,116.3525,37.4209,德州市,新河东路,颗粒物(PM10),71,92,114,24,32,35,35,56,53,43,34,13,14,0.8,0.6
2025-12-01T2000,2621A,99.7056,27.8317,迪庆藏族自治州,迪庆州站,,33,26,33,23,20,65,65,81,80,16,12,6,6,0.9,0.8
2025-12-01T2000,3180A,99.7136,27.8094,迪庆藏族自治州,质量技术监督局,,24,22,32,3,15,76,76,85,85,7,15,7,7,0.5,0.7
2025-12-01T2000,4257A,104.6092,35.5962,定西市,将台街,颗粒物(PM10),68,85,97,36,41,47,47,81,80,36,32,10,14,0.6,0.5
2025-12-01T2000,4309A,104.6159,35.5701,定西市,正龙路62号,细颗粒物(PM2.5),85,104,102,63,41,68,68,84,84,17,14,8,8,1.1,0.9
2025-12-01T2000,1389A,113.7547,23.0494,东莞市,莞城梨川,,,51,45,24,28,116,116,137,137,,27,,5,0.7,0.6
2025-12-01T2000,1390A,113.7944,23.0128,东莞市,东城石井,,32,27,39,17,27,102,102,139,139,19,30,6,7,0.5,0.5
2025-12-01T2000,1391A,113.7383,22.9658,东莞市,南城西平,,50,50,40,34,28,126,126,149,149,37,38,7,7,0.6,0.7
2025-12-01T2000,3319A,113.7338,23.0381,东莞市,万江金泰,颗粒物(PM10),57,64,52,37,32,92,92,132,132,50,31,6,6,1.1,1
2025-12-01T2000,3626A,113.7533,23.0202,东莞市,南城元岭,颗粒物(PM10),58,66,49,31,30,106,106,153,150,46,27,6,6,0.9,0.6
2025-12-01T2000,3627A,113.7875,23.0457,东莞市,东城主山,颗粒物(PM10),57,63,48,34,30,82,82,135,130,60,32,2,2,0.8,0.5
2025-12-01T2000,1666A,118.6614,37.4309,东营市,市环保局,,41,41,64,3,14,48,48,52,52,19,26,9,9,0.7,0.6
2025-12-01T2000,3036A,118.6904,37.4338,东营市,开发区管委会,,48,48,71,7,17,52,52,59,59,16,23,8,8,0.5,0.2
2025-12-01T2000,3365A,118.5719,37.565,东营市,垦利区民丰路,,,46,66,,11,48,48,50,50,17,24,5,4,0.6,0.5
2025-12-01T2000,3498A,118.5055,37.8612,东营市,河口城区,,31,31,64,3,10,46,46,62,60,17,20,7,4,0.5,0.5
2025-12-01T2000,3646A,118.4978,37.4623,东营市,胜利站,,50,50,73,9,18,44,44,48,48,26,28,14,11,0.9,0.8
2025-12-01T2000,3734A,118.35,37.26,东营市,理想之城,,44,44,74,17,20,38,38,46,45,25,27,7,7,0.7,0.5
2025-12-01T2000,1591A,110.0023,39.8129,鄂尔多斯市,综合楼,,36,36,50,3,10,57,57,64,62,16,21,8,9,0.3,0.4
2025-12-01T2000,1592A,109.9486,39.8261,鄂尔多斯市,巴音孟克林场办事处,,41,41,58,9,14,63,63,66,65,11,16,6,8,0.4,0.4
2025-12-01T2000,1593A,109.7736,39.5986,鄂尔多斯市,康泽苑,,31,31,53,9,13,72,72,78,78,4,13,2,3,0.3,0.4
2025-12-01T2000,1594A,109.8119,39.5989,鄂尔多斯市,华泰汽车城,,34,34,57,7,14,70,70,74,74,7,22,4,5,0.2,0.3
2025-12-01T2000,1595A,109.9734,39.7884,鄂尔多斯市,奥林花园,,,53,77,3,13,,,65,65,11,33,7,9,0.2,0.5
2025-12-01T2000,2436A,114.8938,30.3994,鄂州市,市政府,细颗粒物(PM2.5),133,126,90,101,61,78,78,105,105,34,43,12,12,0.8,0.8
2025-12-01T2000,2437A,114.8989,30.3714,鄂州市,赵家坝,细颗粒物(PM2.5),129,132,107,98,65,88,88,108,108,25,38,12,15,1.2,1.5
2025-12-01T2000,3654A,114.8094,30.4089,鄂州市,精准医疗中心,细颗粒物(PM2.5),139,148,98,106,67,84,84,116,116,39,46,4,4,1.2,1
2025-12-01T2000,2454A,109.4978,30.2981,恩施土家族苗族自治州,湖北民院,细颗粒物(PM2.5),133,103,106,101,102,27,27,74,74,36,19,7,7,1.3,1.1
2025-12-01T2000,2455A,109.4707,30.2798,恩施土家族苗族自治州,州电力总公司,细颗粒物(PM2.5),109,106,106,82,95,34,34,71,71,41,24,7,6,1.0,1
2025-12-01T2000,3549A,109.5061,30.3772,恩施土家族苗族自治州,龙凤新区,细颗粒物(PM2.5),77,84,109,56,83,24,24,77,75,35,19,7,7,0.6,0.5
2025-12-01T2000,2499A,108.3411,21.6158,防城港市,沙万,颗粒物(PM10),106,161,88,57,56,0,0,94,70,105,27,9,6,1.1,1
2025-12-01T2000,2500A,108.3514,21.7731,防城港市,防城档案局,细颗粒物(PM2.5),93,108,84,69,56,62,62,96,92,49,16,9,4,1.0,0.8
2025-12-01T2000,2501A,108.3506,21.6414,防城港市,大海花园,细颗粒物(PM2.5),83,98,83,61,58,40,40,102,91,72,21,12,8,1.0,1.1
2025-12-01T2000,1371A,113.1294,23.0067,佛山市,湾梁,颗粒物(PM10),63,75,65,32,35,65,65,106,106,50,40,7,8,0.9,0.9
2025-12-01T2000,1372A,113.1083,23.0478,佛山市,华材职中,颗粒物(PM10),64,78,66,37,36,43,43,111,107,58,43,6,7,0.6,0.6
2025-12-01T2000,1373A,113.144,23.0453,佛山市,南海气象局,颗粒物(PM10),60,70,58,34,35,66,66,106,106,44,39,7,9,0.8,0.7
2025-12-01T2000,1374A,113.2881,22.8094,佛山市,顺德苏岗,细颗粒物(PM2.5),73,79,50,53,32,55,55,98,96,67,43,8,7,0.8,0.6
2025-12-01T2000,1376A,112.8383,22.8678,佛山市,高明孔堂,颗粒物(PM10),51,52,53,25,37,46,46,85,83,25,29,4,5,0.5,0.5
2025-12-01T2000,1377A,112.8836,23.1588,佛山市,三水监测站,颗粒物(PM10),52,53,63,32,43,8,8,82,72,84,43,8,9,0.8,0.8
2025-12-01T2000,1378A,112.867,23.185,佛山市,三水云东海,颗粒物(PM10),52,53,61,13,41,7,7,80,68,55,43,5,6,0.8,0.7
2025-12-01T2000,3625A,113.2544,22.7642,佛山市,容桂街道办,颗粒物(PM10),80,110,56,56,36,40,40,103,99,94,48,7,6,1.1,0.9
2025-12-01T2000,1280A,119.3903,26.0543,福州市,鼓山,,,,32,,13,,,73,,,10,,2,,0.7
2025-12-01T2000,1282A,119.2681,26.0504,福州市,师大,,47,47,38,23,17,85,85,90,90,23,21,6,6,0.2,0.3
2025-12-01T2000,1283A,119.2984,26.1028,福州市,五四北路,,35,35,39,20,18,88,88,91,91,16,24,5,4,0.3,0.4
2025-12-01T2000,1284A,119.2648,26.0768,福州市,杨桥西路,,41,41,38,18,16,88,88,91,91,13,20,4,4,0.3,0.4
2025-12-01T2000,1285A,119.317,26.0746,福州市,紫阳,,42,42,50,16,18,76,76,71,71,26,32,7,6,0.4,0.5
2025-12-01T2000,3048A,119.5799,26.0936,福州市,九龙,,49,49,33,20,15,109,109,111,111,12,16,4,3,0.3,0.3
2025-12-01T2000,3526A,119.5189,25.9664,福州市,吴航,,38,30,39,12,17,119,119,105,105,6,23,6,6,0.4,0.5
2025-12-01T2000,1755A,123.7977,41.8491,抚顺市,望花区,颗粒物(PM10),66,82,64,8,35,58,58,55,55,9,24,5,10,0.6,0.8
2025-12-01T2000,1756A,123.9161,41.8822,抚顺市,顺城区,颗粒物(PM10),59,68,58,6,35,57,57,54,54,9,24,5,7,0.6,0.9
2025-12-01T2000,1757A,124.0436,41.8611,抚顺市,东洲区,颗粒物(PM10),68,86,76,9,45,58,58,53,53,6,19,5,10,0.5,0.8
2025-12-01T2000,1758A,123.9247,41.8642,抚顺市,新抚区,颗粒物(PM10),62,73,63,8,37,55,55,51,51,7,20,7,8,0.5,0.8
2025-12-01T2000,1759A,124.0972,41.8961,抚顺市,大伙房水库,颗粒物(PM10),59,68,56,7,36,61,61,57,57,5,21,9,11,0.5,0.8
2025-12-01T2000,1760A,123.7086,41.8391,抚顺市,沈抚新城,颗粒物(PM10),62,74,58,3,35,60,60,60,60,9,26,6,9,0.3,0.7
2025-12-01T2000,2376A,116.2127,28.0814,抚州市,桐源党溪,,,,,,,,,,,,,,,,
2025-12-01T2000,2377A,116.3544,27.9831,抚州市,市站,颗粒物(PM10),60,69,79,41,49,118,118,123,123,16,30,7,8,0.9,1
2025-12-01T2000,2378A,116.3565,27.963,抚州市,血防站,颗粒物(PM10),63,76,77,42,48,112,112,126,126,19,32,8,8,1.5,1.6
2025-12-01T2000,2379A,116.3564,28.0007,抚州市,采茶剧团,细颗粒物(PM2.5),63,73,79,45,52,105,105,121,121,14,26,7,10,0.8,0.8
2025-12-01T2000,2380A,116.385,27.9647,抚州市,医学分院,"颗粒物(PM10),细颗粒物(PM2.5)",69,87,84,50,45,109,109,123,123,19,34,26,10,1.6,1.5
2025-12-01T2000,2207A,121.6094,41.998,阜新市,工业园区,,36,36,69,3,21,68,68,66,66,7,21,5,10,0.2,0.5
2025-12-01T2000,2208A,121.6697,42.0279,阜新市,长青街,,26,26,42,3,16,65,65,63,63,6,16,6,12,0.3,0.5
2025-12-01T2000,2209A,121.6673,42.0705,阜新市,农业园区,,23,23,41,7,13,63,63,61,61,5,12,9,16,0.3,0.4
2025-12-01T2000,2210A,121.6717,42.0224,阜新市,东苑,,40,40,56,9,16,68,68,65,65,6,18,5,22,0.3,0.6
2025-12-01T2000,2211A,121.6506,42.0498,阜新市,玉龙新城,,25,25,61,3,16,67,67,65,65,5,20,5,8,0.4,0.6
2025-12-01T2000,2301A,115.8277,32.8929,阜阳市,市监测站,颗粒物(PM10),108,166,178,54,75,9,9,58,51,72,34,5,7,0.5,0.6
2025-12-01T2000,2303A,115.8554,32.8605,阜阳市,开发区,颗粒物(PM10),104,157,186,54,68,34,34,64,59,46,36,5,8,0.5,0.6
2025-12-01T2000,2875A,115.784,32.8892,阜阳市,阜阳职业技术学院,颗粒物(PM10),89,128,157,43,66,48,48,72,69,36,29,6,10,0.5,0.5
2025-12-01T2000,3468A,115.7901,32.8613,阜阳市,市规划展馆,颗粒物(PM10),102,154,191,50,74,62,62,72,72,25,30,6,10,0.4,0.5
2025-12-01T2000,3469A,115.836,32.9183,阜阳市,枣园社区,颗粒物(PM10),110,169,188,60,78,19,19,69,62,66,36,4,7,0.6,0.6
2025-12-01T2000,2669A,102.9099,34.9841,甘南藏族自治州,州政府,细颗粒物(PM2.5),98,102,61,73,34,9,9,62,59,72,38,33,14,1.3,0.8
2025-12-01T2000,3380A,102.8914,34.9617,甘南藏族自治州,甘肃民族师范学院,颗粒物(PM10),106,162,75,40,20,0,0,57,53,62,30,12,8,0.9,0.7
2025-12-01T2000,2570A,101.9603,30.0475,甘孜藏族自治州,水桥子,,33,33,20,20,7,23,23,68,64,46,26,9,8,0.7,0.5
2025-12-01T2000,3065A,101.9533,29.9972,甘孜藏族自治州,州环保局,,35,35,22,3,5,48,48,60,59,22,15,6,6,0.4,0.3
2025-12-01T2000,3414A,115.8347,28.932,赣江新区,桑海产业园,细颗粒物(PM2.5),87,114,74,64,40,111,111,127,126,31,44,17,15,1.0,0.6
2025-12-01T2000,2362A,114.9017,25.9149,赣州市,通天岩,,45,45,40,25,21,55,55,110,93,12,11,18,19,0.8,1.1
2025-12-01T2000,2363A,114.9367,25.8664,赣州市,地委,,,54,62,30,33,,,101,100,,35,8,10,0.9,0.8
2025-12-01T2000,2364A,114.9461,25.8481,赣州市,气象台,颗粒物(PM10),66,82,68,28,28,30,30,94,83,75,50,6,10,1.1,0.9
2025-12-01T2000,2365A,114.9322,25.8333,赣州市,市图书馆,颗粒物(PM10),70,90,69,34,34,21,21,81,70,67,52,4,7,1.0,0.7
2025-12-01T2000,2366A,114.8905,25.8471,赣州市,华坚鞋城,颗粒物(PM10),72,93,79,34,32,47,47,81,72,56,54,7,9,0.9,0.8
2025-12-01T2000,3109A,115.0093,25.8613,赣州市,赣县区卫计委,细颗粒物(PM2.5),80,85,54,59,36,18,18,91,77,61,33,8,13,0.9,0.7
2025-12-01T2000,2683A,106.2319,36.1417,固原市,马园,,,,,,,,,,,,,,,,
2025-12-01T2000,2684A,106.2792,36.0022,固原市,监测站,颗粒物(PM10),82,113,116,26,39,55,55,78,76,28,34,6,5,0.6,0.8
2025-12-01T2000,2685A,106.2375,36.0211,固原市,新区,颗粒物(PM10),81,111,114,26,36,66,66,78,75,20,30,6,4,0.4,0.6
2025-12-01T2000,3522A,106.2177,35.9959,固原市,原州区十五小,颗粒物(PM10),71,92,121,32,40,67,67,78,75,16,19,6,6,0.3,0.4
2025-12-01T2000,2543A,106.6308,30.5278,广安市,小平旧居,,,,,,,,,,,,,,,,
2025-12-01T2000,2544A,106.6303,30.4576,广安市,市委,细颗粒物(PM2.5),130,142,129,99,110,32,32,75,68,54,36,3,3,1.2,1
2025-12-01T2000,2545A,106.6271,30.4663,广安市,友谊中学,细颗粒物(PM2.5),129,129,123,98,95,37,37,71,71,41,28,7,6,1.2,1
2025-12-01T2000,2547A,106.6388,30.4551,广安市,广电花园,细颗粒物(PM2.5),139,110,97,106,105,37,37,65,65,36,24,2,2,1.1,1
2025-12-01T2000,2902A,106.6351,30.4865,广安市,北辰小学,细颗粒物(PM2.5),144,140,117,110,100,45,45,72,72,27,20,15,14,1.1,1
2025-12-01T2000,2523A,105.8945,32.4535,广元市,黑石坡,,,,,,,,,,,,,,,,
2025-12-01T2000,2524A,105.821,32.4444,广元市,老城,细颗粒物(PM2.5),108,133,71,81,44,5,5,24,22,67,49,8,14,1.3,1
2025-12-01T2000,2526A,105.8628,32.4287,广元市,监测站,细颗粒物(PM2.5),102,76,56,76,46,32,32,30,30,35,40,7,12,1.1,1.1
2025-12-01T2000,3617A,105.8047,32.4166,广元市,经开区,细颗粒物(PM2.5),134,150,98,102,56,0,0,20,20,64,44,14,21,1.8,1.2
2025-12-01T2000,1345A,113.2347,23.1423,广州市,广雅中学,颗粒物(PM10),58,65,71,30,35,37,37,77,76,81,62,6,7,1.3,1
2025-12-01T2000,1346A,113.2612,23.105,广州市,市五中,颗粒物(PM10),61,72,65,34,33,40,40,92,91,84,61,8,9,1.1,0.8
2025-12-01T2000,1348A,113.3478,23.0916,广州市,广东商学院,颗粒物(PM10),63,75,57,40,37,58,58,90,90,64,45,6,6,0.8,0.7
2025-12-01T2000,1349A,113.4332,23.1047,广州市,市八十六中,颗粒物(PM10),70,90,42,50,24,16,16,78,71,104,46,8,8,0.9,0.6
2025-12-01T2000,1350A,113.3505,22.9483,广州市,番禺中学,颗粒物(PM10),65,79,54,38,35,52,52,94,92,61,40,5,5,0.8,0.6
2025-12-01T2000,1351A,113.2146,23.3916,广州市,花都师范,颗粒物(PM10),51,52,60,29,36,76,76,112,111,41,38,5,5,0.6,0.5
2025-12-01T2000,1352A,113.2597,23.1331,广州市,市监测站,颗粒物(PM10),69,87,85,35,37,46,46,94,94,100,63,7,8,0.5,0.4
2025-12-01T2000,1353A,113.5618,23.312,广州市,九龙镇镇龙,颗粒物(PM10),62,73,60,36,40,3,3,74,63,72,37,5,7,0.6,0.5
2025-12-01T2000,1354A,113.2765,23.1544,广州市,麓湖,,41,34,55,19,34,23,23,84,80,82,57,6,7,0.7,0.7
2025-12-01T2000,1355A,113.443,23.3035,广州市,帽峰山森林公园,,,,,,,,,,,,,,,,
2025-12-01T2000,2846A,113.3221,23.1322,广州市,体育西,颗粒物(PM10),63,76,60,42,34,49,49,88,87,76,52,8,8,1.3,0.8
2025-12-01T2000,3298A,113.5717,23.5491,广州市,从化街口,细颗粒物(PM2.5),83,87,57,61,40,10,10,90,83,59,33,7,9,1.4,0.9
2025-12-01T2000,3299A,113.3472,23.3692,广州市,白云竹料,颗粒物(PM10),65,79,53,42,35,47,47,90,88,61,34,4,3,1.0,0.8
2025-12-01T2000,3300A,113.2981,23.237,广州市,白云嘉禾,颗粒物(PM10),56,62,67,29,40,39,39,82,77,71,53,6,7,0.8,0.6
2025-12-01T2000,3301A,113.4256,23.1716,广州市,黄埔科学城,颗粒物(PM10),56,62,43,31,25,15,15,87,80,71,30,6,7,0.7,0.6
2025-12-01T2000,3302A,113.3942,23.0483,广州市,番禺大学城,颗粒物(PM10),64,78,61,40,31,65,65,106,105,55,36,13,13,0.7,0.5
2025-12-01T2000,3303A,113.4922,22.8168,广州市,南沙黄阁,颗粒物(PM10),55,59,49,24,31,50,50,89,88,71,49,8,8,0.7,0.6
2025-12-01T2000,3304A,113.5342,22.7896,广州市,南沙街,,43,,57,30,31,81,81,124,124,54,44,6,7,0.7,0.6
2025-12-01T2000,3443A,113.2902,23.5544,广州市,花都梯面,,,37,44,26,29,32,32,97,87,,25,4,7,,0.6
2025-12-01T2000,3445A,113.7858,23.7478,广州市,从化良口,,24,24,26,16,19,49,49,82,79,19,17,6,7,0.8,0.7
2025-12-01T2000,3446A,113.8051,23.2614,广州市,增城荔城,,32,32,37,20,29,27,27,87,80,30,20,4,5,0.6,0.5
2025-12-01T2000,2505A,109.568,23.1478,贵港市,德智高中,,,,,,,,,,,,,,,,
2025-12-01T2000,2506A,109.6047,23.0666,贵港市,江南子站,颗粒物(PM10),91,132,87,60,59,42,42,119,114,57,27,8,11,1.1,0.9
2025-12-01T2000,2508A,109.5669,23.1065,贵港市,荷城子站,,46,46,70,24,48,81,81,108,107,15,20,6,9,0.9,0.8
2025-12-01T2000,3405A,109.5886,23.1172,贵港市,新世纪学校,颗粒物(PM10),57,63,77,32,51,74,74,117,114,22,19,6,9,0.6,0.5
2025-12-01T2000,4260A,109.5933,23.0951,贵港市,中山路155-3号,细颗粒物(PM2.5),58,47,74,41,52,73,73,122,119,31,25,5,11,0.5,0.6
2025-12-01T2000,1439A,106.6899,26.5998,贵阳市,马鞍山,,48,48,97,29,73,45,45,90,89,22,24,3,6,0.5,0.8
2025-12-01T2000,1441A,106.6243,26.6266,贵阳市,鉴湖路,颗粒物(PM10),68,85,95,39,59,85,85,114,108,29,28,13,6,0.6,0.7
2025-12-01T2000,1442A,106.7487,26.6343,贵阳市,燕子冲,细颗粒物(PM2.5),64,63,101,46,92,60,60,104,103,26,25,5,9,0.3,0.7
2025-12-01T2000,1443A,106.6555,26.4365,贵阳市,碧云窝,细颗粒物(PM2.5),73,83,99,53,68,88,88,106,106,21,19,11,8,0.9,0.7
2025-12-01T2000,1445A,106.7109,26.6027,贵阳市,红边门,细颗粒物(PM2.5),104,124,106,78,85,14,14,113,95,89,36,55,19,1.6,0.8
2025-12-01T2000,1446A,106.7164,26.5699,贵阳市,新华路,细颗粒物(PM2.5),83,114,115,61,85,25,25,102,97,71,30,21,14,1.3,1.1
2025-12-01T2000,1447A,106.674,26.5424,贵阳市,太慈桥,,,66,87,44,62,,,107,107,47,29,7,7,0.3,0.4
2025-12-01T2000,1552A,106.805,26.3003,贵阳市,桐木岭,细颗粒物(PM2.5),79,80,85,58,62,88,88,115,110,7,6,26,12,0.9,1
2025-12-01T2000,4230A,106.6882,26.5695,贵阳市,花果园大街66号,细颗粒物(PM2.5),69,56,95,50,81,76,76,109,101,39,38,10,10,0.6,1
2025-12-01T2000,4231A,106.6873,26.5169,贵阳市,漓江路57号,细颗粒物(PM2.5),92,80,90,68,78,68,68,103,101,35,34,20,19,0.6,0.8
2025-12-01T2000,1862A,110.4144,25.3167,桂林市,电子科大尧山校区,,,,,,,,,,,,,,,,
2025-12-01T2000,1864A,110.3089,25.2708,桂林市,龙隐路小学,细颗粒物(PM2.5),64,64,68,46,54,50,50,96,92,37,29,8,14,0.5,0.4
2025-12-01T2000,1865A,110.2869,25.2178,桂林市,八中,细颗粒物(PM2.5),84,83,83,62,64,33,33,92,87,43,37,9,14,0.9,0.8
2025-12-01T2000,3531A,110.296,25.1253,桂林市,旅游学院,细颗粒物(PM2.5),64,66,66,46,48,40,40,104,99,50,29,5,10,0.4,0.4
2025-12-01T2000,4222A,110.1835,25.2444,桂林市,环湖路276号,颗粒物(PM10),65,80,73,46,50,15,15,85,81,59,39,7,14,0.8,0.4
2025-12-01T2000,4301A,110.2803,25.2773,桂林市,信义路13号,细颗粒物(PM2.5),68,79,76,49,50,27,27,96,90,59,37,6,14,1.0,0.9
2025-12-01T2000,2674A,100.2561,34.4714,果洛藏族自治州,玛沁县大武镇,,33,33,47,13,13,82,82,84,84,2,8,14,19,0.2,0.4
2025-12-01T2000,1129A,126.5422,45.755,哈尔滨市,岭北,,,,,,,,,,,,,,,,
2025-12-01T2000,1130A,126.561,45.8167,哈尔滨市,松北商大,,45,44,60,31,46,34,34,34,34,24,30,12,13,0.7,0.8
2025-12-01T2000,1131A,126.979,45.5419,哈尔滨市,阿城会宁,细颗粒物(PM2.5),123,98,87,93,76,10,10,40,31,50,30,10,8,1.0,0.9
2025-12-01T2000,1132A,126.599,45.7222,哈尔滨市,南岗学府路,,,67,81,37,54,,,29,26,27,31,12,10,0.6,0.8
2025-12-01T2000,1133A,126.689,45.7733,哈尔滨市,太平宏伟公园,细颗粒物(PM2.5),64,55,65,46,46,32,32,30,29,29,29,9,16,0.7,0.7
2025-12-01T2000,1134A,126.635,45.7667,哈尔滨市,道外承德广场,细颗粒物(PM2.5),69,84,89,50,53,19,19,30,24,45,38,40,18,0.7,0.7
2025-12-01T2000,1135A,126.685,45.7319,哈尔滨市,香坊红旗大街,细颗粒物(PM2.5),62,58,83,44,58,34,34,27,24,24,33,10,11,0.8,0.8
2025-12-01T2000,1136A,126.6411,45.7258,哈尔滨市,动力和平路,颗粒物(PM10),64,78,77,45,59,29,29,26,24,30,33,8,9,0.7,0.8
2025-12-01T2000,1137A,126.593,45.7478,哈尔滨市,道里建国路,细颗粒物(PM2.5),67,68,71,48,58,32,32,24,22,25,36,9,9,0.6,0.8
2025-12-01T2000,1138A,126.615,45.61,哈尔滨市,平房东轻厂,细颗粒物(PM2.5),102,90,80,76,61,0,0,22,10,61,49,12,13,0.9,0.8
2025-12-01T2000,1139A,126.595,45.9855,哈尔滨市,呼兰师专,,,97,102,,41,23,23,,,37,33,13,13,1.1,1.1
2025-12-01T2000,1140A,126.6206,45.6842,哈尔滨市,省农科院,颗粒物(PM10),86,122,89,53,62,24,24,28,21,41,44,5,4,0.8,0.9
2025-12-01T2000,2688A,93.5128,42.8172,哈密市,地区监测站,颗粒物(PM10),66,81,65,23,24,9,9,47,42,67,30,17,12,0.9,0.4
2025-12-01T2000,2689A,93.4961,42.8328,哈密市,哈密师范学校,,,75,44,24,23,12,12,48,42,,27,4,9,,0.5
2025-12-01T2000,2671A,100.9048,36.9639,海北藏族自治州,海晏县西海镇,颗粒物(PM10),56,62,24,27,14,92,92,91,91,2,3,9,9,0.3,0.3
2025-12-01T2000,3867A,102.0738,36.5056,海东市,平安区公安北苑,颗粒物(PM10),62,73,71,30,42,82,82,70,70,14,21,20,23,0.7,1
2025-12-01T2000,1409A,110.576,19.9507,海口市,东寨港,,,,,,,,,,,,,,,,
2025-12-01T2000,1410A,110.3232,20.0574,海口市,海南大学,,44,44,67,30,31,96,96,107,107,8,10,5,6,0.4,0.5
2025-12-01T2000,1411A,110.283,20.0053,海口市,秀英海南医院,,40,40,51,28,28,88,88,95,95,12,11,7,7,0.3,0.4
2025-12-01T2000,1412A,110.338,19.9969,海口市,海南师范大学,细颗粒物(PM2.5),52,38,51,36,29,95,95,101,101,11,11,5,5,0.5,0.5
2025-12-01T2000,1413A,110.33,20.0356,海口市,龙华路环保局宿舍,,48,37,54,33,30,94,94,103,103,11,12,7,7,0.7,0.7
2025-12-01T2000,3539A,110.5111,19.9736,海口市,桂林洋子站,细颗粒物(PM2.5),54,54,57,38,28,90,90,98,91,11,9,6,6,0.3,0.3
2025-12-01T2000,2673A,100.6188,36.2866,海南藏族自治州,共和县恰卜恰镇,,30,30,24,10,10,91,91,96,96,5,14,14,12,0.4,0.6
2025-12-01T2000,2676A,97.3731,37.3753,海西蒙古族藏族自治州,德令哈市,颗粒物(PM10),53,56,27,23,10,51,51,90,86,37,9,19,17,0.8,0.5
2025-12-01T2000,1048A,114.5302,36.6116,邯郸市,东污水处理厂,细颗粒物(PM2.5),202,156,201,152,74,9,9,57,47,57,27,5,4,0.5,0.4
2025-12-01T2000,1049A,114.4918,36.5713,邯郸市,矿院,颗粒物(PM10),81,111,164,51,74,32,32,61,54,41,26,4,4,0.5,0.4
2025-12-01T2000,1050A,114.484,36.6133,邯郸市,丛台公园,颗粒物(PM10),91,132,183,44,55,34,34,65,61,39,21,4,7,0.4,0.3
2025-12-01T2000,3458A,114.7895,36.5593,邯郸市,香泉濮院小区,颗粒物(PM10),110,170,251,70,80,13,13,57,50,,30,10,8,0.6,0.4
2025-12-01T2000,3579A,114.50634,36.77178,邯郸市,永年区实验高中,颗粒物(PM10),104,158,193,58,50,13,13,54,45,62,38,8,4,0.7,0.4
2025-12-01T2000,3580A,114.20016,36.44293,邯郸市,峰峰矿区临水派出所,颗粒物(PM10),84,118,162,19,65,53,53,73,69,30,18,6,6,0.5,0.4
2025-12-01T2000,2634A,106.9893,33.1842,汉中市,汉川机床厂子校,,,,,,,,,,,,,,,,
2025-12-01T2000,2635A,107.0154,33.0706,汉中市,市监测站,细颗粒物(PM2.5),84,83,93,62,75,27,27,50,49,49,34,10,7,1.0,1.1
2025-12-01T2000,2636A,107.0089,33.1138,汉中市,鑫源开发区,细颗粒物(PM2.5),103,94,91,77,63,19,19,64,61,56,39,8,11,1.1,1.2
2025-12-01T2000,2637A,107.007,33.0323,汉中市,南郑大河坎水厂,细颗粒物(PM2.5),145,,84,111,68,,,39,39,61,30,11,10,1.7,1.1
2025-12-01T2000,1223A,120.2072,30.2111,杭州市,滨江,颗粒物(PM10),111,172,136,59,62,91,91,122,122,46,66,10,9,0.8,0.9
2025-12-01T2000,1224A,120.0633,30.2747,杭州市,西溪,颗粒物(PM10),102,154,104,63,61,15,15,118,98,51,38,8,9,0.7,0.5
2025-12-01T2000,1226A,120.3417,30.3150,杭州市,下沙,细颗粒物(PM2.5),133,198,159,101,92,95,95,122,122,36,73,6,9,0.8,0.9
2025-12-01T2000,1227A,120.1269,30.2456,杭州市,卧龙桥,细颗粒物(PM2.5),100,135,102,75,59,21,21,107,95,39,37,8,10,0.8,0.6
2025-12-01T2000,1228A,120.1903,30.2692,杭州市,浙江农大,颗粒物(PM10),92,133,145,63,82,89,89,119,119,57,71,9,10,1.0,1.1
2025-12-01T2000,1230A,120.1197,30.3119,杭州市,和睦小学,颗粒物(PM10),133,215,158,69,75,93,93,120,120,41,58,9,11,1.0,1
2025-12-01T2000,1231A,120.3019,30.4183,杭州市,临平镇,细颗粒物(PM2.5),124,168,148,94,94,82,82,115,115,39,62,7,9,1.0,1
2025-12-01T2000,1232A,120.2753,30.1839,杭州市,城厢镇,细颗粒物(PM2.5),122,155,129,92,82,82,82,128,126,55,68,9,9,0.7,0.7
2025-12-01T2000,1233A,120.0883,30.1808,杭州市,云栖,细颗粒物(PM2.5),127,163,109,96,65,45,45,117,109,44,43,4,5,0.9,0.8
2025-12-01T2000,3557A,119.9464,30.0494,杭州市,镇二中,细颗粒物(PM2.5),129,171,119,98,80,72,72,118,116,48,53,7,7,1.4,1.1
2025-12-01T2000,3558A,119.7183,30.2367,杭州市,市府大楼,颗粒物(PM10),233,373,148,178,78,42,42,107,101,65,38,11,12,0.6,0.6
2025-12-01T2000,3656A,120.1556,30.2864,杭州市,消防大队,细颗粒物(PM2.5),133,171,136,101,90,99,99,118,118,37,62,6,6,0.8,0.7
2025-12-01T2000,1270A,117.1959,31.7848,合肥市,明珠广场,颗粒物(PM10),114,178,158,58,64,,,82,,54,56,8,8,0.8,0.8
2025-12-01T2000,1271A,117.3072,31.8764,合肥市,三里街,颗粒物(PM10),112,173,157,58,61,54,54,74,72,52,59,7,7,0.9,1.1
2025-12-01T2000,1272A,117.2588,31.8707,合肥市,琥珀山庄,颗粒物(PM10),112,173,157,51,64,68,68,81,80,35,50,8,8,0.7,1
2025-12-01T2000,1273A,117.1604,31.9052,合肥市,董铺水库,,,,,,,,,,,,,,,,
2025-12-01T2000,1274A,117.25,31.8571,合肥市,长江中路,颗粒物(PM10),117,183,158,74,69,68,68,84,83,38,46,9,9,0.8,0.9
2025-12-01T2000,1275A,117.266,31.9436,合肥市,庐阳区,颗粒物(PM10),120,190,166,53,62,58,58,84,82,52,48,9,9,0.8,0.8
2025-12-01T2000,1276A,117.3453,31.8616,合肥市,瑶海区,颗粒物(PM10),120,190,163,59,63,56,56,82,78,59,67,8,8,0.9,0.9
2025-12-01T2000,1277A,117.3027,31.7964,合肥市,包河区,颗粒物(PM10),124,197,161,73,68,8,8,68,52,114,84,11,11,1.0,1
2025-12-01T2000,1278A,117.2776,31.7385,合肥市,滨湖新区,颗粒物(PM10),118,185,166,61,71,72,72,86,85,35,64,6,9,0.8,1
2025-12-01T2000,1279A,117.1318,31.8403,合肥市,高新区,颗粒物(PM10),108,166,154,53,66,62,62,80,78,48,52,7,8,1.0,0.9
2025-12-01T2000,3464A,117.3803,31.9147,合肥市,高教基地,颗粒物(PM10),114,178,164,54,67,66,66,85,84,35,44,9,8,0.6,0.7
2025-12-01T2000,3614A,79.924,37.0877,和田地区,地区环保局,颗粒物(PM10),108,166,198,40,52,72,72,82,82,21,25,1,4,0.6,1.2
2025-12-01T2000,3615A,79.9131,37.113,和田地区,市环保局,,,116,201,68,66,62,62,82,82,44,57,3,7,,2.3
2025-12-01T2000,2516A,108.2011,24.715,河池市,东仁乐园,,,,,,,,,,,,,,,,
2025-12-01T2000,2517A,108.0497,24.6947,河池市,市环保站,细颗粒物(PM2.5),69,55,70,50,51,62,62,99,97,24,27,8,5,0.8,0.8
2025-12-01T2000,2518A,108.0983,24.6989,河池市,市疾控中心,细颗粒物(PM2.5),78,88,75,57,57,6,6,94,85,75,38,10,7,0.9,0.8
2025-12-01T2000,1696A,114.6778,23.7569,河源市,源西,,,,,,,,,,,,,,,,
2025-12-01T2000,1697A,114.6944,23.7586,河源市,东埔,,47,47,33,28,27,17,17,80,69,53,28,5,5,1.2,0.7
2025-12-01T2000,1698A,114.6892,23.7233,河源市,老城,,36,36,34,16,25,38,38,80,72,20,22,5,5,0.5,0.7
2025-12-01T2000,1718A,115.4208,35.2464,菏泽市,气象局,颗粒物(PM10),134,218,251,81,76,32,32,70,66,61,35,7,8,0.7,0.5
2025-12-01T2000,3374A,115.5564,35.0891,菏泽市,定陶老年大学,颗粒物(PM10),141,232,237,83,63,48,48,64,63,50,46,10,10,0.7,0.6
2025-12-01T2000,4184A,115.4797,35.24401,菏泽市,永昌路1号,颗粒物(PM10),150,250,251,88,66,29,29,58,56,72,40,8,8,0.7,0.5
2025-12-01T2000,4193A,115.4715,35.2800,菏泽市,长城路999号,颗粒物(PM10),152,254,249,102,78,16,16,59,54,85,40,7,6,1.0,0.8
2025-12-01T2000,2514A,111.5264,24.4172,贺州市,环保小区,颗粒物(PM10),53,55,45,24,35,34,34,68,66,36,26,5,5,1.2,1
2025-12-01T2000,2515A,111.5608,24.4078,贺州市,政协大楼,颗粒物(PM10),54,58,46,30,32,6,6,58,51,55,25,8,6,1.2,0.9
2025-12-01T2000,3534A,111.4744,24.4553,贺州市,西湾,,38,29,33,26,30,14,14,61,57,47,21,6,5,0.8,0.8
2025-12-01T2000,2385A,114.17,35.9019,鹤壁市,市监测站,颗粒物(PM10),107,164,222,65,71,26,26,63,57,35,18,7,8,0.6,0.6
2025-12-01T2000,2386A,114.2956,35.7511,鹤壁市,市交警支队,颗粒物(PM10),112,173,261,51,69,7,7,53,44,66,24,6,5,0.7,0.5
2025-12-01T2000,2387A,114.2878,35.7306,鹤壁市,迎宾馆,颗粒物(PM10),117,183,296,61,68,12,12,60,51,60,22,8,8,0.7,0.6
2025-12-01T2000,3474A,114.2617,35.6822,鹤壁市,大新区,细颗粒物(PM2.5),124,178,279,94,55,23,23,62,52,51,25,5,6,0.7,0.6
2025-12-01T2000,3596A,114.1572,35.9603,鹤壁市,南山宾馆,颗粒物(PM10),123,195,289,53,56,44,44,66,62,24,15,4,6,0.5,0.6
2025-12-01T2000,2244A,130.2537,47.3416,鹤岗市,哈啤分公司,,32,26,24,22,18,67,67,63,62,5,7,13,13,0.6,0.6
2025-12-01T2000,2245A,130.2684,47.3086,鹤岗市,斯达机电,,26,25,35,18,16,66,66,63,62,8,11,12,13,0.6,0.7
2025-12-01T2000,2246A,130.3114,47.3388,鹤岗市,东山纸板厂,,40,40,27,26,16,62,62,62,59,14,23,14,14,0.7,0.7
2025-12-01T2000,2247A,130.1097,47.3382,鹤岗市,五号水库,,,,,,,,,,,,,,,,
2025-12-01T2000,2263A,127.4833,50.2524,黑河市,交通局,,28,20,13,19,13,52,52,55,53,7,11,4,4,0.3,0.3
2025-12-01T2000,2264A,127.5144,50.2341,黑河市,环保局,,36,29,16,25,15,28,28,55,49,11,7,7,3,0.6,0.4
2025-12-01T2000,2265A,127.5291,50.2472,黑河市,大黑河岛,,,,,,,,,,,,,,,,
2025-12-01T2000,1074A,115.6838,37.7541,衡水市,电机北厂,颗粒物(PM10),66,82,122,36,32,18,18,43,39,28,28,5,7,0.4,0.3
2025-12-01T2000,1075A,115.6303,37.7316,衡水市,市监测站,颗粒物(PM10),63,75,105,25,28,29,29,48,45,27,28,10,10,0.4,0.3
2025-12-01T2000,3188A,115.6683,37.7217,衡水市,市城管局,颗粒物(PM10),73,95,124,34,31,15,15,37,33,32,30,5,5,0.5,0.4
2025-12-01T2000,3459A,115.5989,37.5491,衡水市,地表水厂,"颗粒物(PM10),细颗粒物(PM2.5)",62,74,125,44,36,25,25,57,53,26,32,3,7,0.4,0.4
2025-12-01T2000,2456A,112.5003,26.9167,衡阳市,原169医院,,,,,,,,,,,,,,,,
2025-12-01T2000,2457A,112.6194,26.9258,衡阳市,衡阳化工总厂,细颗粒物(PM2.5),120,124,85,91,64,120,120,139,139,24,25,17,16,1.3,1
2025-12-01T2000,2458A,112.6211,26.8956,衡阳市,珠晖区环保局,细颗粒物(PM2.5),99,98,79,74,55,112,112,124,124,29,34,14,11,1.6,1.2
2025-12-01T2000,2459A,112.6197,26.8733,衡阳市,市委党校,细颗粒物(PM2.5),118,94,74,89,57,126,126,138,138,20,20,24,22,1.5,1.1
2025-12-01T2000,2460A,112.6006,26.8919,衡阳市,市监测站,细颗粒物(PM2.5),130,148,100,99,65,125,125,136,136,26,30,20,14,1.5,1.1
2025-12-01T2000,2461A,112.5664,26.9056,衡阳市,真空机电公司,细颗粒物(PM2.5),107,105,87,80,66,125,125,59,,20,38,15,18,1.3,1.2
2025-12-01T2000,3399A,112.6703,26.882,衡阳市,师范学院,细颗粒物(PM2.5),99,113,83,74,49,133,133,144,144,30,25,24,18,1.6,1.1
2025-12-01T2000,2608A,103.3772,23.3993,红河哈尼族彝族自治州,污水处理厂,,43,38,49,30,36,67,67,81,80,10,19,6,17,0.1,0.2
2025-12-01T2000,2609A,103.3861,23.35,红河哈尼族彝族自治州,监测站,,44,44,41,30,30,75,75,89,86,7,10,6,9,0.2,0.2
2025-12-01T2000,3038A,103.3758,23.368,红河哈尼族彝族自治州,州图书馆,,26,26,35,15,19,70,70,83,82,6,10,6,10,0.5,0.5
2025-12-01T2000,1090A,111.6507,40.7517,呼和浩特市,呼市一监,,19,19,29,3,7,58,58,51,51,4,17,4,4,0.0,0.2
2025-12-01T2000,1091A,111.6572,40.8033,呼和浩特市,小召,,20,14,22,3,9,62,62,57,57,8,18,4,5,0.3,0.4
2025-12-01T2000,1094A,111.7516,40.8369,呼和浩特市,如意水处理厂,,19,12,24,3,8,59,59,54,54,6,16,8,8,0.2,0.3
2025-12-01T2000,1095A,111.7276,40.8062,呼和浩特市,二十九中,,20,16,23,3,8,64,64,57,57,4,16,8,9,0.3,0.3
2025-12-01T2000,1096A,111.5512,40.7866,呼和浩特市,工大金川校区,,25,25,32,3,10,56,56,53,53,11,25,5,8,0.1,0.2
2025-12-01T2000,1097A,111.717,40.7612,呼和浩特市,化肥厂生活区,,20,12,26,3,10,62,62,57,57,7,15,4,5,0.4,0.6
2025-12-01T2000,3698A,111.5968,40.8178,呼和浩特市,红旗小学,,19,7,19,3,8,60,60,56,56,4,17,6,10,0.3,0.3
2025-12-01T2000,3699A,111.6518,40.8389,呼和浩特市,海东办,,20,6,17,3,9,64,64,60,60,4,13,3,4,0.3,0.2
2025-12-01T2000,3061A,119.7512,49.1577,呼伦贝尔市,国华电力东,,33,33,27,13,20,58,58,65,64,11,14,16,8,0.3,0.4
2025-12-01T2000,4279A,119.7569,49.2222,呼伦贝尔市,伊敏大街东7号,,31,31,32,20,23,54,54,59,58,6,16,8,7,0.8,0.8
2025-12-01T2000,1250A,120.0751,30.8669,湖州市,城西水厂,颗粒物(PM10),89,127,132,46,77,85,85,119,116,32,59,9,11,0.6,0.8
2025-12-01T2000,2873A,120.0830,30.8929,湖州市,仁皇山新区,颗粒物(PM10),82,113,126,40,74,77,77,111,108,40,56,8,11,0.7,0.8
2025-12-01T2000,2907A,120.1844,30.8596,湖州市,吴兴区站,颗粒物(PM10),89,128,137,41,70,65,65,109,104,40,56,7,11,1.1,1.2
2025-12-01T2000,3562A,120.4148,30.8538,湖州市,南浔区站,颗粒物(PM10),65,80,140,31,82,54,54,107,99,28,45,6,8,0.8,1
2025-12-01T2000,1607A,120.9049,40.7211,葫芦岛市,龙港区,颗粒物(PM10),58,66,38,10,19,49,49,57,53,12,26,11,14,0.5,0.7
2025-12-01T2000,1608A,120.8392,40.7514,葫芦岛市,化工街,颗粒物(PM10),62,73,36,3,15,55,55,56,55,9,30,10,16,0.3,0.5
2025-12-01T2000,1609A,120.8341,40.7073,葫芦岛市,新区,,42,42,23,10,11,54,54,59,59,11,26,8,11,0.5,0.6
2025-12-01T2000,1610A,120.8695,40.7677,葫芦岛市,东城区,,36,36,32,10,18,54,54,60,58,13,31,8,22,0.4,0.9
2025-12-01T2000,2482A,109.5981,27.5721,怀化市,林科所,,,,,,,,,,,,,,,,
2025-12-01T2000,2483A,109.9453,27.5444,怀化市,河西地税局,细颗粒物(PM2.5),78,90,62,57,41,45,45,101,97,34,21,6,6,0.8,0.5
2025-12-01T2000,2484A,109.9781,27.5342,怀化市,市四医院,细颗粒物(PM2.5),72,72,76,52,46,71,71,109,108,22,26,13,15,0.6,0.6
2025-12-01T2000,2485A,109.9972,27.5578,怀化市,监测楼,细颗粒物(PM2.5),79,91,76,58,46,54,54,102,97,32,26,8,5,0.4,0.3
2025-12-01T2000,2486A,110.0394,27.583,怀化市,市委党校,细颗粒物(PM2.5),84,99,74,62,47,40,40,107,100,43,28,23,17,0.7,0.5
2025-12-01T2000,1210A,119.036,33.5981,淮安市,钵池山,颗粒物(PM10),56,61,130,33,47,51,51,70,68,25,28,9,9,0.6,0.7
2025-12-01T2000,1211A,119.007,33.575,淮安市,北京南路,颗粒物(PM10),62,73,140,28,42,53,53,68,67,19,24,8,7,0.6,0.8
2025-12-01T2000,1212A,118.989,33.6067,淮安市,市监测站,颗粒物(PM10),57,63,142,17,39,52,52,75,73,24,26,8,9,0.5,0.9
2025-12-01T2000,1213A,119.135,33.5039,淮安市,楚州区监测站,颗粒物(PM10),58,66,146,27,38,47,47,71,66,27,26,8,9,0.2,0.3
2025-12-01T2000,3426A,118.8755,33.2894,淮安市,新华书店,颗粒物(PM10),62,74,151,24,43,48,48,72,67,29,28,8,11,0.5,0.6
2025-12-01T2000,4206A,119.0288,33.6319,淮安市,承德北路606号,,,85,155,,46,,,68,68,29,28,6,7,0.4,0.7
2025-12-01T2000,2282A,116.8004,33.975,淮北市,监测站,颗粒物(PM10),101,151,172,58,53,48,48,71,67,38,33,10,10,0.7,0.6
2025-12-01T2000,2283A,116.8091,33.9007,淮北市,烈山区政府,颗粒物(PM10),92,133,193,48,59,51,51,77,73,38,31,11,12,0.6,0.5
2025-12-01T2000,3330A,116.8873,33.9836,淮北市,杜集区检察院,颗粒物(PM10),90,130,170,48,59,55,55,77,73,27,25,8,8,0.5,0.5
2025-12-01T2000,4017A,116.7923,33.9535,淮北市,市博物馆,颗粒物(PM10),93,135,175,60,60,59,59,73,72,30,28,14,13,0.5,0.5
2025-12-01T2000,2277A,116.8305,32.7727,淮南市,潘集区政府,细颗粒物(PM2.5),183,268,206,138,83,27,27,58,54,42,33,7,7,1.1,0.8
2025-12-01T2000,2279A,116.8569,32.5951,淮南市,谢家集区政府,颗粒物(PM10),93,136,166,49,58,42,42,68,65,35,32,8,10,0.7,0.7
2025-12-01T2000,2280A,116.8281,32.633,淮南市,八公山区政府,颗粒物(PM10),102,153,169,43,60,41,41,62,59,28,25,5,8,0.6,0.6
2025-12-01T2000,2281A,116.6325,32.6201,淮南市,焦岗湖风景区管理处,,,,,,,,,,,,,,,,
2025-12-01T2000,2894A,117.0566,32.6531,淮南市,经济技术开发区消防队,颗粒物(PM10),112,174,196,51,74,40,40,65,60,42,41,2,4,0.5,0.6
2025-12-01T2000,3329A,117.0108,32.5893,淮南市,山南新区,颗粒物(PM10),125,199,219,58,76,57,57,73,70,34,33,6,6,0.6,0.5
2025-12-01T2000,4209A,117.0031,32.6445,淮南市,国庆中路369号,颗粒物(PM10),103,155,164,60,66,31,31,61,58,46,38,6,7,0.8,0.8
2025-12-01T2000,2446A,114.9028,30.4742,黄冈市,职工中心,细颗粒物(PM2.5),108,120,75,81,50,87,87,128,128,28,30,8,9,0.6,0.5
2025-12-01T2000,2929A,114.8858,30.4519,黄冈市,红卫路,细颗粒物(PM2.5),125,110,72,95,56,83,83,121,120,22,24,7,8,0.8,0.8
2025-12-01T2000,3398A,114.9136,30.4445,黄冈市,市林业局,细颗粒物(PM2.5),107,142,86,80,53,94,94,132,132,27,33,6,7,0.9,0.8
2025-12-01T2000,2672A,102.0199,35.5102,黄南藏族自治州,同仁县隆务镇,,32,32,27,20,10,60,60,70,69,5,5,11,10,0.2,0.2
2025-12-01T2000,2295A,118.2903,29.6963,黄山市,延安路89号,颗粒物(PM10),60,70,47,41,26,60,60,110,110,31,20,5,4,0.7,0.5
2025-12-01T2000,2297A,118.1371,30.2756,黄山市,黄山区政府5号楼,细颗粒物(PM2.5),105,96,71,79,53,49,49,112,107,22,16,6,7,1.0,0.9
2025-12-01T2000,4210A,118.3354,29.7203,黄山市,滨江东路7-2号,颗粒物(PM10),81,112,65,55,44,26,26,97,88,50,21,4,4,0.7,0.4
2025-12-01T2000,2423A,115.0601,30.2313,黄石市,沈家营,细颗粒物(PM2.5),118,117,97,89,58,54,54,106,104,56,33,7,15,1.2,1.4
2025-12-01T2000,2426A,114.8988,30.2019,黄石市,铁山,细颗粒物(PM2.5),112,110,93,84,64,51,51,110,106,55,47,9,14,0.4,0.6
2025-12-01T2000,2427A,115.0307,30.2092,黄石市,团城山,细颗粒物(PM2.5),105,115,97,79,59,94,94,108,108,47,42,7,16,0.6,1.1
2025-12-01T2000,3149A,115.0235,30.1578,黄石市,笔架山北路,"颗粒物(PM10),细颗粒物(PM2.5)",102,154,141,76,68,114,114,123,123,19,47,18,15,1.2,1.4
2025-12-01T2000,4185A,115.0780,30.21118,黄石市,磁湖东路29号,细颗粒物(PM2.5),132,155,105,100,67,39,39,83,80,74,44,14,18,1.2,1.2
2025-12-01T2000,1392A,114.4183,23.0528,惠州市,河南岸金山湖子站,颗粒物(PM10),58,66,39,37,28,23,23,68,63,51,27,2,4,1.0,0.7
2025-12-01T2000,1393A,114.4053,23.0822,惠州市,下埔横江三路子站,颗粒物(PM10),55,59,39,32,28,14,14,84,71,59,21,4,7,1.2,0.9
2025-12-01T2000,1394A,114.4103,23.1142,惠州市,江北云山西路子站,,33,33,38,18,28,52,52,93,90,44,25,6,9,0.6,0.5
2025-12-01T2000,1395A,114.4645,22.7833,惠州市,惠阳区承修路船湖子站,,23,15,34,7,22,73,73,86,86,16,18,5,5,0.4,0.5
2025-12-01T2000,1396A,114.5317,22.7422,惠州市,大亚湾管委会子站,,24,14,38,3,21,74,74,88,88,14,20,4,4,0.4,0.9
2025-12-01T2000,3314A,114.4338,22.8134,惠州市,惠阳秋长,,29,29,31,11,24,71,71,92,92,30,20,10,7,0.5,0.5
2025-12-01T2000,3452A,114.6517,22.775,惠州市,大亚湾霞涌,,29,29,27,11,20,89,89,100,100,16,21,5,5,0.5,0.6
2025-12-01T2000,2240A,130.9762,45.3001,鸡西市,环保局,,33,27,26,23,18,44,44,55,49,14,10,6,6,0.7,0.6
2025-12-01T2000,2243A,130.9429,45.3039,鸡西市,第一中学,,40,35,22,28,17,46,46,58,49,10,8,7,6,0.3,0.4
2025-12-01T2000,3707A,131.0207,45.3073,鸡西市,欧美日汽修厂,细颗粒物(PM2.5),57,58,29,40,22,23,23,52,42,30,14,10,9,0.5,0.4
2025-12-01T2000,3709A,130.9967,45.3106,鸡西市,市政设施管理处,,39,30,30,27,19,32,32,56,45,29,17,9,9,0.7,0.6
2025-12-01T2000,2367A,114.9754,27.0803,吉安市,红声器材厂,颗粒物(PM10),65,80,70,34,35,113,113,133,133,26,39,12,11,0.8,0.8
2025-12-01T2000,2368A,114.9658,27.0999,吉安市,市森林工业局,颗粒物(PM10),59,68,64,38,35,103,103,114,114,24,32,24,12,0.6,0.5
2025-12-01T2000,2369A,114.99,27.1312,吉安市,市环境监测站,颗粒物(PM10),57,64,62,37,38,115,115,128,128,19,28,19,18,0.6,0.5
2025-12-01T2000,2370A,115.0093,27.0968,吉安市,青原区法院,颗粒物(PM10),62,74,71,43,39,99,99,120,120,28,42,14,14,0.7,0.7
2025-12-01T2000,1772A,126.54,43.8622,吉林市,哈达湾,,29,29,53,19,39,59,59,62,62,6,14,10,10,0.6,0.8
2025-12-01T2000,1773A,126.5844,43.8358,吉林市,东局子,,28,28,51,6,38,51,51,52,52,9,16,8,8,0.5,0.8
2025-12-01T2000,1774A,126.5052,43.8245,吉林市,电力学院,,23,17,53,16,41,56,56,58,58,6,16,8,9,0.7,0.9
2025-12-01T2000,1775A,126.6133,43.8972,吉林市,江北,,20,20,52,11,40,50,50,52,52,8,14,5,5,0.7,0.9
2025-12-01T2000,1776A,126.555,43.8306,吉林市,江南公园,,23,18,50,16,41,53,53,56,56,8,17,6,8,0.3,0.6
2025-12-01T2000,1778A,126.7061,43.7133,吉林市,丰满,,15,14,38,10,39,47,47,48,48,4,8,9,9,0.4,0.6
2025-12-01T2000,2868A,126.4739,43.953,吉林市,九站,,38,36,57,26,47,51,51,61,59,15,21,3,4,1.0,1
2025-12-01T2000,1299A,116.9862,36.6114,济南市,科干所,颗粒物(PM10),78,105,119,56,38,38,38,48,41,39,29,18,15,0.8,0.6
2025-12-01T2000,1300A,116.9376,36.665,济南市,农科所,颗粒物(PM10),89,127,134,39,30,31,31,48,42,45,31,18,13,0.8,0.6
2025-12-01T2000,1301A,117.1265,36.6734,济南市,开发区,颗粒物(PM10),89,127,146,51,37,40,40,39,39,42,38,11,12,0.9,0.8
2025-12-01T2000,1303A,117.0624,36.6868,济南市,省种子仓库,颗粒物(PM10),96,141,158,53,39,35,35,42,42,44,37,16,15,0.8,0.7
2025-12-01T2000,1304A,116.9489,36.6447,济南市,机床二厂,颗粒物(PM10),96,142,153,59,41,35,35,47,44,43,32,19,16,0.7,0.5
2025-12-01T2000,1305A,117.0495,36.663,济南市,市监测站,颗粒物(PM10),90,129,146,61,44,32,32,38,38,43,32,11,10,0.6,0.5
2025-12-01T2000,1306A,116.7675,36.5484,济南市,长清党校,颗粒物(PM10),102,154,141,42,21,6,6,54,45,77,33,14,12,0.8,0.7
2025-12-01T2000,1616A,117.6795,36.229,济南市,技术学院,细颗粒物(PM2.5),104,149,132,78,46,9,9,60,51,77,43,18,16,1.5,0.8
2025-12-01T2000,1961A,117.532,36.6868,济南市,东山小学,颗粒物(PM10),92,134,142,51,36,21,21,65,57,63,46,15,15,0.8,0.8
2025-12-01T2000,3059A,117.7161,36.2049,济南市,泰兴公司,颗粒物(PM10),102,153,132,70,40,5,5,65,52,75,42,14,10,1.0,0.5
2025-12-01T2000,3064A,117.6867,36.2171,济南市,莱芜战役纪念馆,颗粒物(PM10),97,144,123,67,40,16,16,65,57,68,38,16,13,1.4,0.9
2025-12-01T2000,3494A,117.1673,36.9782,济南市,济阳区政府,颗粒物(PM10),77,103,128,27,31,33,33,58,56,33,30,15,15,0.6,0.6
2025-12-01T2000,3495A,117.1171,36.63,济南市,锦屏中学,颗粒物(PM10),85,120,127,46,24,40,40,45,42,40,30,12,9,0.9,0.7
2025-12-01T2000,3682A,116.9814,36.6819,济南市,济南四建,颗粒物(PM10),89,127,143,49,31,26,26,37,36,49,35,15,13,0.7,0.6
2025-12-01T2000,1653A,116.6251,35.4302,济宁市,火炬城,颗粒物(PM10),116,181,174,66,55,45,45,70,68,40,32,8,8,0.2,0.2
2025-12-01T2000,1655A,116.5491,35.4042,济宁市,电化厂,颗粒物(PM10),125,199,189,53,53,37,37,70,65,59,38,8,8,0.3,0.4
2025-12-01T2000,3500A,116.5814,35.3707,济宁市,北湖一中,颗粒物(PM10),102,154,147,66,52,45,45,75,72,41,28,7,8,0.6,0.5
2025-12-01T2000,3501A,116.8249,35.5593,济宁市,服务中心,颗粒物(PM10),124,198,181,61,52,30,30,62,56,50,34,12,10,0.4,0.2
2025-12-01T2000,3678A,116.5907,35.4054,济宁市,市第七中学,颗粒物(PM10),112,174,180,68,49,54,54,76,75,40,32,6,9,0.5,0.5
2025-12-01T2000,2255A,130.2751,46.8028,佳木斯市,佳纺,细颗粒物(PM2.5),73,63,32,53,28,14,14,48,31,47,23,11,5,1.0,0.7
2025-12-01T2000,2256A,130.3995,46.8307,佳木斯市,发电厂,,39,33,17,27,16,27,27,55,43,30,16,5,3,0.7,0.5
2025-12-01T2000,2257A,130.3258,46.7975,佳木斯市,环保局,,45,40,23,31,20,14,14,49,36,46,22,8,3,0.6,0.4
2025-12-01T2000,2258A,130.3648,46.8032,佳木斯市,十一中,,48,48,23,31,20,29,29,57,43,33,20,7,5,0.7,0.5
2025-12-01T2000,2259A,130.3794,46.7588,佳木斯市,四丰,,,,,,,,,,,,,,,,
2025-12-01T2000,1252A,120.7436,30.778,嘉兴市,清河小学,,,98,157,36,90,,,118,118,,92,4,6,0.7,1.1
2025-12-01T2000,1253A,120.726,30.7478,嘉兴市,嘉兴学院,颗粒物(PM10),73,95,163,33,88,75,75,114,112,23,57,6,8,0.9,1.2
2025-12-01T2000,2872A,120.7846,30.7525,嘉兴市,南湖区残联,颗粒物(PM10),67,83,145,35,84,73,73,120,116,24,54,8,7,0.7,0.9
2025-12-01T2000,3407A,120.6916,30.7739,嘉兴市,秀洲住建,颗粒物(PM10),74,98,145,39,91,78,78,116,113,29,63,6,8,0.8,1.2
2025-12-01T2000,1945A,98.2908,39.7711,嘉峪关市,气象局,颗粒物(PM10),63,75,37,36,14,60,60,84,77,24,14,11,18,0.9,0.9
2025-12-01T2000,2884A,98.2672,39.7978,嘉峪关市,酒钢宾馆,颗粒物(PM10),58,66,41,27,16,60,60,78,64,20,14,12,35,0.6,1.2
2025-12-01T2000,3248A,98.2643,39.7724,嘉峪关市,雄关区,,50,50,38,21,19,61,61,78,72,22,19,11,24,0.9,1.2
2025-12-01T2000,1383A,113.1064,22.6058,江门市,北街,"颗粒物(PM10),细颗粒物(PM2.5)",55,59,56,39,41,65,65,132,129,52,43,7,7,0.6,0.7
2025-12-01T2000,1384A,113.0731,22.5835,江门市,西区,颗粒物(PM10),57,63,50,36,37,59,59,122,119,52,42,7,7,0.9,0.6
2025-12-01T2000,1385A,113.0219,22.5311,江门市,圭峰西,颗粒物(PM10),65,80,43,34,32,72,72,114,112,42,35,4,5,0.7,0.6
2025-12-01T2000,1386A,113.0828,22.5947,江门市,东湖,颗粒物(PM10),52,53,60,30,30,65,65,124,122,44,40,9,10,0.6,0.5
2025-12-01T2000,3311A,113.1075,22.5647,江门市,江海富民,颗粒物(PM10),70,89,68,47,34,114,114,151,151,54,41,14,13,1.1,0.7
2025-12-01T2000,3449A,113.05,22.4667,江门市,新会银湖,细颗粒物(PM2.5),90,80,50,67,41,84,84,119,119,40,38,6,7,0.6,0.6
2025-12-01T2000,1830A,113.1992,35.2590,焦作市,影视城,,,,200,,43,,,71,,,14,,12,,0.7
2025-12-01T2000,3335A,113.3137,35.2641,焦作市,马村街道办,颗粒物(PM10),125,200,243,71,66,33,33,68,60,40,20,8,6,0.5,0.3
2025-12-01T2000,3336A,113.2465,35.2373,焦作市,焦作技师学院,颗粒物(PM10),122,193,238,56,56,31,31,69,62,39,19,9,6,0.9,0.6
2025-12-01T2000,3477A,113.1656,35.2539,焦作市,中站许衡医院,颗粒物(PM10),115,179,220,52,54,41,41,74,65,38,18,5,5,0.4,0.4
2025-12-01T2000,3981A,113.2449,35.1803,焦作市,原李万街道办,颗粒物(PM10),115,180,269,56,59,50,50,68,66,26,15,5,4,0.5,0.4
2025-12-01T2000,4264A,113.2340,35.2190,焦作市,新安路1731号,颗粒物(PM10),131,211,260,65,66,33,33,67,64,44,20,12,10,0.9,0.6
2025-12-01T2000,4295A,113.2722,35.2121,焦作市,人民路3066号,颗粒物(PM10),129,208,267,49,49,30,30,64,58,43,16,6,5,0.6,0.5
2025-12-01T2000,1708A,116.3701,23.5345,揭阳市,新兴,细颗粒物(PM2.5),64,64,62,46,55,61,61,102,99,37,29,13,11,1.1,0.7
2025-12-01T2000,1709A,116.3264,23.5443,揭阳市,西马,颗粒物(PM10),52,53,65,28,52,67,67,106,106,27,30,9,6,0.9,0.7
2025-12-01T2000,1710A,116.3611,23.5626,揭阳市,东兴,颗粒物(PM10),52,54,62,33,57,64,64,105,99,33,33,14,9,1.0,0.9
2025-12-01T2000,1711A,116.4151,23.5294,揭阳市,渔湖,颗粒物(PM10),62,73,60,30,32,69,69,98,97,24,27,8,7,1.2,0.9
2025-12-01T2000,3320A,116.403,23.5699,揭阳市,曲溪,颗粒物(PM10),58,66,59,27,41,77,77,101,101,25,33,4,6,0.6,0.7
2025-12-01T2000,1944A,102.1692,38.5167,金昌市,天庆家园,,46,46,131,13,44,66,66,69,69,7,21,2,26,0.5,0.9
2025-12-01T2000,4022A,102.1647,38.5371,金昌市,金川区人防中心,颗粒物(PM10),62,73,122,31,44,57,57,66,66,8,17,3,36,0.4,0.6
2025-12-01T2000,4239A,102.1930,38.5319,金昌市,长春路96号,,40,40,146,10,43,67,67,73,73,6,19,4,40,0.5,0.7
2025-12-01T2000,1262A,119.647,29.077,金华市,十五中,细颗粒物(PM2.5),185,197,114,139,67,118,118,140,140,49,60,6,6,0.9,0.8
2025-12-01T2000,1263A,119.686,29.1029,金华市,监测站,细颗粒物(PM2.5),166,199,124,126,68,102,102,127,127,77,78,5,5,1.0,0.7
2025-12-01T2000,3659A,119.656,29.1131,金华市,气象局,细颗粒物(PM2.5),180,202,130,136,80,87,87,115,115,66,68,6,6,0.9,0.8
2025-12-01T2000,1767A,121.1115,41.0879,锦州市,南山,,35,35,35,8,22,65,65,71,70,7,22,6,12,0.4,0.7
2025-12-01T2000,1768A,121.0604,40.8428,锦州市,开发区,颗粒物(PM10),51,52,52,14,23,52,52,55,54,11,34,8,21,0.4,0.7
2025-12-01T2000,1769A,121.1836,41.1119,锦州市,百股街道,,32,32,30,3,15,61,61,67,66,4,19,8,12,0.6,0.8
2025-12-01T2000,1770A,121.1178,41.1222,锦州市,天安街道,,31,31,31,7,20,63,63,72,70,3,15,8,16,0.4,0.8
2025-12-01T2000,1771A,121.1303,41.1386,锦州市,北湖公园,,27,27,30,3,16,62,62,71,69,4,15,6,12,0.4,0.7
2025-12-01T2000,2160A,112.85,35.5051,晋城市,自来水公司,颗粒物(PM10),129,207,145,53,35,45,45,78,75,40,21,5,7,0.7,0.7
2025-12-01T2000,2161A,112.8318,35.4936,晋城市,白云商贸,颗粒物(PM10),152,254,157,46,24,34,34,70,66,33,14,3,3,0.8,0.7
2025-12-01T2000,2162A,112.8508,35.4887,晋城市,市环保局,颗粒物(PM10),141,231,150,44,31,,,81,81,21,17,6,6,0.3,0.2
2025-12-01T2000,2163A,112.8676,35.4897,晋城市,技术学院,颗粒物(PM10),136,222,135,48,32,33,33,66,62,49,29,6,7,0.6,0.5
2025-12-01T2000,2165A,112.8453,35.546,晋城市,白马寺,颗粒物(PM10),121,192,131,59,40,69,69,79,79,18,12,9,11,0.7,0.8
2025-12-01T2000,3620A,112.8271,35.4828,晋城市,泽州一中,颗粒物(PM10),145,239,148,51,37,57,57,74,74,27,18,4,5,0.5,0.5
2025-12-01T2000,2173A,112.7249,37.7067,晋中市,南都小区,颗粒物(PM10),112,174,106,66,29,9,9,56,52,91,35,36,16,1.1,0.6
2025-12-01T2000,2174A,112.6991,37.6982,晋中市,榆次区政府,颗粒物(PM10),120,190,108,73,38,8,8,55,49,83,33,41,18,1.5,0.9
2025-12-01T2000,2865A,112.7195,37.6828,晋中市,榆次三中,颗粒物(PM10),117,183,107,63,25,6,6,55,51,77,30,23,14,1.3,0.8
2025-12-01T2000,4200A,112.7478,37.6954,晋中市,迎宾街26号,颗粒物(PM10),109,168,104,66,28,6,6,57,52,81,29,26,14,1.1,0.7
2025-12-01T2000,2439A,112.2014,31.0481,荆门市,竹园小学,颗粒物(PM10),153,256,126,80,45,62,62,73,73,40,28,3,4,0.1,0.1
2025-12-01T2000,2440A,112.1969,30.9891,荆门市,掇刀,颗粒物(PM10),151,251,119,79,45,70,70,78,78,24,16,5,5,0.4,0.4
2025-12-01T2000,2441A,112.2213,31.0386,荆门市,石化一小,颗粒物(PM10),163,276,140,78,46,60,60,69,69,35,27,8,9,0.6,0.5
2025-12-01T2000,3012A,112.1849,31.0362,荆门市,西山林语,颗粒物(PM10),148,245,122,81,41,71,71,77,77,25,19,7,7,0.6,0.5
2025-12-01T2000,3547A,112.1632,31.0138,荆门市,龙泉中学南校,颗粒物(PM10),155,260,133,91,46,80,80,81,81,26,19,10,10,0.8,0.7
2025-12-01T2000,1844A,112.2494,30.3197,荆州市,市图书馆,颗粒物(PM10),99,148,88,73,47,76,76,88,88,29,23,10,8,1.0,0.9
2025-12-01T2000,1845A,112.2008,30.3544,荆州市,市委党校,颗粒物(PM10),113,175,90,68,47,59,59,76,76,38,33,9,7,0.9,0.8
2025-12-01T2000,3194A,112.2747,30.3122,荆州市,管委会,颗粒物(PM10),95,140,84,69,47,61,61,80,80,31,27,10,9,0.9,0.7
2025-12-01T2000,4268A,112.1722,30.3366,荆州市,学苑路85号,细颗粒物(PM2.5),119,143,84,90,49,70,70,92,92,29,25,5,2,0.7,0.6
2025-12-01T2000,2342A,117.3102,29.3867,景德镇市,王港中学,,,,,,,,,,,,,,,,
2025-12-01T2000,2343A,117.2117,29.2933,景德镇市,老干部活动中心,细颗粒物(PM2.5),73,68,54,53,31,27,27,79,76,50,24,9,7,1.1,0.8
2025-12-01T2000,2344A,117.1894,29.2789,景德镇市,兽医站,颗粒物(PM10),67,84,58,37,27,45,45,91,88,46,33,12,8,0.9,0.6
2025-12-01T2000,2346A,117.2461,29.2956,景德镇市,陶研所,细颗粒物(PM2.5),74,58,43,54,33,40,40,79,77,33,27,4,4,0.9,0.7
2025-12-01T2000,4289A,117.1542,29.2566,景德镇市,青少年活动中心,颗粒物(PM10),88,125,66,58,32,4,4,70,63,91,43,32,14,1.6,0.8
2025-12-01T2000,1803A,115.9872,29.6815,九江市,十里,细颗粒物(PM2.5),129,142,101,98,63,86,86,127,116,60,59,10,8,0.9,0.6
2025-12-01T2000,1804A,115.9584,29.7046,九江市,茅山头,细颗粒物(PM2.5),132,153,90,100,58,105,105,126,126,48,56,10,7,1.2,0.9
2025-12-01T2000,1805A,115.9877,29.7295,九江市,西园,细颗粒物(PM2.5),119,143,98,90,62,103,103,129,126,62,73,9,7,0.9,0.8
2025-12-01T2000,1808A,115.9114,29.6038,九江市,综合工业园,细颗粒物(PM2.5),127,119,96,96,73,57,57,111,105,96,66,6,5,0.8,0.7
2025-12-01T2000,1809A,116.0721,29.7535,九江市,石化总厂,细颗粒物(PM2.5),149,163,122,114,74,92,92,114,114,49,57,8,7,1.1,1.1
2025-12-01T2000,1810A,115.9773,29.5698,九江市,庐山气象台,,,,,,,,,,,,,,,,
2025-12-01T2000,3190A,116.0254,29.6994,九江市,外国语学校,细颗粒物(PM2.5),112,140,96,84,60,92,92,110,109,55,66,11,9,1.1,1
2025-12-01T2000,4253A,116.0102,29.6594,九江市,莲花大道8号,细颗粒物(PM2.5),144,139,88,110,66,120,120,126,126,32,30,11,7,0.8,0.6
2025-12-01T2000,4240A,98.4958,39.7339,酒泉市,玉门东路5号,颗粒物(PM10),56,61,47,31,19,71,71,87,84,10,11,8,9,0.7,0.4
2025-12-01T2000,4241A,98.5099,39.7506,酒泉市,北大街108号,颗粒物(PM10),52,53,55,30,22,64,64,80,78,11,14,9,10,0.5,0.5
2025-12-01T2000,2698A,76.0072,39.4467,喀什地区,巡警大队,颗粒物(PM10),98,145,264,52,114,73,73,64,64,49,75,10,11,1.3,2.5
2025-12-01T2000,2699A,75.9755,39.4694,喀什地区,吾办,颗粒物(PM10),99,147,251,60,125,60,60,64,64,61,72,6,5,1.0,2.4
2025-12-01T2000,4027A,75.9483,39.4689,喀什地区,老干局,颗粒物(PM10),107,163,270,59,108,72,72,68,68,43,69,9,7,1.1,2.9
2025-12-01T2000,1824A,114.3389,34.7781,开封市,肿瘤医院,颗粒物(PM10),133,216,253,70,59,38,38,62,60,43,25,12,12,0.8,0.6
2025-12-01T2000,1826A,114.2885,34.7965,开封市,世纪星幼儿园,颗粒物(PM10),132,213,247,77,68,32,32,60,58,53,28,11,12,0.7,0.6
2025-12-01T2000,3147A,114.3438,34.8106,开封市,龙亭公园,颗粒物(PM10),143,235,250,98,65,26,26,63,59,61,31,12,11,1.1,0.8
2025-12-01T2000,3210A,114.3644,34.7964,开封市,汴京公园,颗粒物(PM10),154,258,272,98,68,34,34,64,62,58,35,11,11,0.6,0.5
2025-12-01T2000,3473A,114.2485,34.8306,开封市,技师学院,颗粒物(PM10),136,221,244,81,73,24,24,54,50,75,38,12,10,0.9,0.7
2025-12-01T2000,3592A,114.4644,34.7556,开封市,祥符区生态环境局,颗粒物(PM10),167,284,278,95,98,36,36,61,59,55,38,11,11,0.6,0.4
2025-12-01T2000,1951A,84.895,45.6094,克拉玛依市,长征新村,,25,20,25,17,15,45,45,44,44,17,21,7,7,0.5,0.4
2025-12-01T2000,1952A,84.8988,45.5893,克拉玛依市,南林小区,,26,26,25,10,14,50,50,46,46,11,17,1,1,0.2,0.2
2025-12-01T2000,1954A,84.905,44.3396,克拉玛依市,独山子区,细颗粒物(PM2.5),64,68,66,46,42,30,30,29,29,19,17,5,6,0.5,0.6
2025-12-01T2000,1955A,85.6979,46.098,克拉玛依市,乌尔禾区商贸楼,,27,27,18,14,9,37,37,40,39,16,13,6,7,0.1,0.1
2025-12-01T2000,3612A,85.1045,45.6899,克拉玛依市,白碱滩区新站,,23,16,20,16,14,58,58,51,51,10,13,6,6,0.4,0.3
2025-12-01T2000,2697A,76.1454,39.7142,克孜勒苏柯尔克孜自治州,市人民政府,颗粒物(PM10),102,154,118,71,56,64,64,94,94,57,22,9,11,0.9,0.4
2025-12-01T2000,3665A,76.1658,39.7157,克孜勒苏柯尔克孜自治州,克州文化中心,颗粒物(PM10),109,167,125,57,52,71,71,93,93,51,28,12,18,1.1,0.7
2025-12-01T2000,1450A,102.8204,24.8886,昆明市,呈贡新区,,,,19,12,55,68,68,88,88,19,37,6,6,0.8,1
2025-12-01T2000,1451A,102.6251,24.9608,昆明市,西山森林公园,,,,,,,,,,,,,,,,
2025-12-01T2000,1452A,102.7252,25.0902,昆明市,龙泉镇,,33,33,38,10,26,32,32,73,70,33,29,2,3,0.6,0.7
2025-12-01T2000,1453A,102.7266,25.0375,昆明市,东风东路,,32,29,52,22,33,59,59,83,82,25,33,4,4,0.3,0.6
2025-12-01T2000,1454A,102.6742,25.0669,昆明市,金鼎山,,26,26,55,14,32,46,46,76,74,31,35,4,4,0.6,0.8
2025-12-01T2000,1455A,102.6644,25.0401,昆明市,碧鸡广场,,,,54,,33,37,37,79,76,46,45,4,4,0.7,0.7
2025-12-01T2000,3179A,102.7494,25.0119,昆明市,官渡区博物馆,,32,23,62,22,34,61,61,85,84,24,42,3,4,0.2,0.7
2025-12-01T2000,3375A,102.8017,24.8336,昆明市,青年创业园,,30,27,39,21,25,74,74,92,92,10,23,4,4,0.7,0.7
2025-12-01T2000,3550A,102.7997,24.9786,昆明市,昆明学院,,25,25,61,14,36,72,72,89,88,14,35,2,4,0.3,0.6
2025-12-01T2000,3551A,102.5967,24.6736,昆明市,晋宁区生态环境分局,细颗粒物(PM2.5),62,52,48,44,34,63,63,86,84,20,26,2,2,0.8,0.6
2025-12-01T2000,3552A,102.6678,24.9856,昆明市,云天化总部,,23,16,42,9,26,71,71,88,88,13,37,5,7,0.4,0.6
2025-12-01T2000,1456A,91.1319,29.6514,拉萨市,八廓街,,41,41,26,24,18,34,34,87,83,50,27,12,15,0.9,0.7
2025-12-01T2000,1457A,91.1221,29.6747,拉萨市,市环保局,,,,50,,26,,,40,,,29,,12,,1.5
2025-12-01T2000,1458A,91.0874,29.6475,拉萨市,区监测站,,38,27,20,11,12,24,24,85,80,75,39,8,10,0.8,0.6
2025-12-01T2000,1459A,91.1774,29.6541,拉萨市,西藏大学,细颗粒物(PM2.5),60,53,22,43,12,28,28,82,78,70,23,12,12,1.3,0.4
2025-12-01T2000,1460A,90.9798,29.6588,拉萨市,区辐射站,细颗粒物(PM2.5),99,107,38,74,21,19,19,71,67,87,40,16,10,1.6,0.7
2025-12-01T2000,1461A,91.0834,29.6292,拉萨市,拉萨火车站,,32,27,28,22,16,55,55,78,78,32,37,8,9,0.9,1
2025-12-01T2000,2520A,109.2203,23.7256,来宾市,来宾技工学校,细颗粒物(PM2.5),70,88,93,51,68,43,43,114,106,22,20,6,10,0.9,0.9
2025-12-01T2000,3535A,109.1781,23.7297,来宾市,兴宾区政府,颗粒物(PM10),54,58,75,37,52,111,111,122,122,12,13,8,9,0.7,0.7
2025-12-01T2000,4002A,109.2416,23.7461,来宾市,中南小学,颗粒物(PM10),94,138,92,50,58,15,15,112,98,63,29,6,10,1.1,1.1
2025-12-01T2000,1477A,104.1373,35.9454,兰州市,榆中兰大校区,,,,,,,,,,,,,,,,
2025-12-01T2000,1479A,103.831,36.0464,兰州市,铁路设计院,,,,,,,,,,,,,,,,
2025-12-01T2000,3241A,103.7439,36.0842,兰州市,百合公园,颗粒物(PM10),69,87,122,37,48,48,48,56,56,33,53,13,21,0.3,0.8
2025-12-01T2000,3242A,103.9611,35.998,兰州市,和平,颗粒物(PM10),75,100,133,43,55,40,40,62,62,37,36,9,10,0.8,1.1
2025-12-01T2000,4236A,103.6293,36.0938,兰州市,庄浪东路808号,颗粒物(PM10),79,107,125,36,54,51,51,71,69,50,60,13,26,0.6,1
2025-12-01T2000,4237A,103.7251,36.1043,兰州市,安宁西路88号,颗粒物(PM10),79,108,144,38,55,79,79,77,77,16,49,5,20,0.4,0.8
2025-12-01T2000,4238A,103.8470,36.0676,兰州市,北滨河东路1号,,,86,138,30,50,,,65,65,38,57,9,17,0.6,1.2
2025-12-01T2000,3245A,103.6633,36.533,兰州新区,新区管委会,颗粒物(PM10),74,97,103,36,46,79,79,90,90,10,18,5,17,0.2,0.5
2025-12-01T2000,3246A,103.6975,36.4789,兰州新区,舟曲中学,颗粒物(PM10),78,105,119,24,44,87,87,102,102,9,28,1,23,0.3,0.6
2025-12-01T2000,1067A,116.6708,39.5111,廊坊市,药材公司,,,33,50,,9,43,43,48,44,16,17,2,2,0.3,0.3
2025-12-01T2000,1068A,116.7214,39.5589,廊坊市,开发区,,26,26,54,8,13,40,40,50,47,20,19,2,2,0.3,0.2
2025-12-01T2000,1070A,116.7244,39.5269,廊坊市,北华航天学院,,31,31,64,17,16,36,36,48,42,21,21,1,2,0.2,0.2
2025-12-01T2000,2919A,116.7022,39.5453,廊坊市,河北工业大学,,35,33,57,24,22,40,40,48,44,14,14,2,2,0.3,0.2
2025-12-01T2000,2535A,103.7723,29.5462,乐山市,花湖湾,,,,,,,,,,,,,,,,
2025-12-01T2000,2536A,103.7627,29.5844,乐山市,牛耳桥,细颗粒物(PM2.5),134,130,116,102,100,10,10,72,67,65,32,7,7,1.2,0.9
2025-12-01T2000,2537A,103.7508,29.6006,乐山市,市第三水厂,细颗粒物(PM2.5),137,124,114,104,92,12,12,74,70,65,35,6,6,1.3,1
2025-12-01T2000,2538A,103.7571,29.5664,乐山市,市监测站,细颗粒物(PM2.5),117,121,118,88,90,71,71,82,82,30,29,7,7,1.1,1.1
2025-12-01T2000,3361A,103.7311,29.5628,乐山市,理工大学,细颗粒物(PM2.5),118,108,107,89,88,65,65,83,83,32,29,8,8,0.9,0.9
2025-12-01T2000,2598A,100.2143,26.8576,丽江市,西南郊,,,,,,,,,,,,,,,,
2025-12-01T2000,2599A,100.2497,26.8802,丽江市,丽江古城,颗粒物(PM10),51,51,44,19,22,83,83,91,91,16,17,10,10,0.7,0.7
2025-12-01T2000,2600A,100.2203,26.8906,丽江市,市中心,,38,31,30,26,18,82,82,91,91,18,17,10,9,0.7,0.7
2025-12-01T2000,1267A,119.914,28.4514,丽水市,监测站大楼,颗粒物(PM10),73,95,54,50,31,39,39,100,98,57,36,5,6,1.2,0.7
2025-12-01T2000,1268A,119.93,28.4586,丽水市,莲都小学,颗粒物(PM10),71,92,69,48,33,122,122,125,125,29,35,7,6,0.9,0.8
2025-12-01T2000,1269A,119.879,28.4231,丽水市,余庄前,颗粒物(PM10),60,70,52,42,36,53,53,90,89,18,23,4,5,0.5,0.4
2025-12-01T2000,1173A,119.176,34.5885,连云港市,市环境监测站,,48,48,117,12,24,68,68,67,67,14,22,8,10,0.3,0.5
2025-12-01T2000,3000A,119.3581,34.6972,连云港市,德源药业,,46,46,112,12,21,50,50,54,53,23,20,5,6,0.6,0.7
2025-12-01T2000,3007A,119.178,34.844,连云港市,新城一中,颗粒物(PM10),64,78,117,14,32,69,69,66,66,15,33,7,15,0.6,1.1
2025-12-01T2000,3008A,119.3608,34.7519,连云港市,胡沟管理处,颗粒物(PM10),57,63,108,9,17,33,33,59,51,50,22,9,8,0.5,0.5
2025-12-01T2000,3009A,119.1478,34.5911,连云港市,矿山设计院,,48,48,121,9,23,71,71,71,71,17,26,6,9,0.7,0.9
2025-12-01T2000,3434A,119.2413,34.6539,连云港市,工贸学校,,45,45,97,10,20,77,77,72,72,2,11,10,10,0.1,0.1
2025-12-01T2000,3664A,119.4172,34.7341,连云港市,连云街道,,43,43,89,9,17,78,78,74,74,8,20,6,7,0.4,0.5
2025-12-01T2000,2571A,102.3431,27.8099,凉山彝族自治州,青龙寺,,,,,,,,,,,,,,,,
2025-12-01T2000,2572A,102.2721,27.8415,凉山彝族自治州,邛海宾馆,,48,48,54,29,41,74,74,88,88,13,18,8,10,0.5,1.1
2025-12-01T2000,2573A,102.2625,27.898,凉山彝族自治州,西昌市政府,,,62,64,47,49,51,51,74,74,30,20,9,10,,1
2025-12-01T2000,2574A,102.2685,27.8851,凉山彝族自治州,凉山州政府,颗粒物(PM10),59,68,66,40,41,41,41,58,58,22,22,8,9,0.7,1
2025-12-01T2000,4229A,102.2342,27.8859,凉山彝族自治州,凯乐南路30号,,32,32,80,19,52,80,80,75,75,12,43,10,11,0.7,1.4
2025-12-01T2000,2212A,123.2,41.1953,辽阳市,宏伟区,,35,35,42,12,25,51,51,54,54,7,21,4,6,0.3,0.7
2025-12-01T2000,2213A,123.1683,41.2495,辽阳市,新华园,,45,45,53,12,27,51,51,55,55,8,23,3,7,0.4,0.9
2025-12-01T2000,2214A,123.2354,41.2639,辽阳市,滨河路,颗粒物(PM10),60,69,57,12,29,50,50,53,53,4,20,7,12,0.2,0.6
2025-12-01T2000,2215A,123.149,41.2991,辽阳市,铁西工业园,颗粒物(PM10),53,55,55,16,34,47,47,50,50,9,25,7,9,0.5,1
2025-12-01T2000,2227A,125.1358,42.8845,辽源市,环保局,颗粒物(PM10),62,73,95,11,41,62,62,64,64,5,20,2,4,0.3,0.7
2025-12-01T2000,3239A,125.0764,42.9078,辽源市,银鹰制药,,36,36,56,9,40,61,61,66,66,9,20,7,5,0.4,0.7
2025-12-01T2000,1625A,115.9848,36.4372,聊城市,区政府,颗粒物(PM10),85,119,143,48,47,32,32,66,62,55,35,14,17,0.8,0.6
2025-12-01T2000,2878A,116.0072,36.4343,聊城市,聊大东校,颗粒物(PM10),101,151,154,42,37,12,12,64,58,74,33,12,16,0.9,0.7
2025-12-01T2000,3200A,115.9819,36.4978,聊城市,监控中心,颗粒物(PM10),98,146,154,46,40,21,21,64,57,60,32,14,13,0.9,0.7
2025-12-01T2000,3513A,116.0445,36.4361,聊城市,九州社区,颗粒物(PM10),106,161,153,50,35,20,20,72,63,61,30,9,11,0.7,0.7
2025-12-01T2000,4018A,116.0567,36.4608,聊城市,星美广场,颗粒物(PM10),108,165,160,47,33,12,12,63,51,68,35,9,11,0.5,0.4
2025-12-01T2000,2632A,94.3681,29.6376,林芝市,林芝监测站,,48,48,22,26,10,23,23,70,66,50,18,10,8,0.9,0.4
2025-12-01T2000,2633A,94.3616,29.6616,林芝市,林芝人民医院,,,63,23,33,10,23,23,62,56,,12,9,8,0.7,0.3
2025-12-01T2000,2603A,100.0781,23.8982,临沧市,市环保局,细颗粒物(PM2.5),94,,34,70,33,50,50,77,76,18,10,8,6,0.9,0.8
2025-12-01T2000,2604A,100.0894,23.8822,临沧市,市气象局,,46,46,38,27,20,51,51,77,77,17,12,6,5,0.7,0.5
2025-12-01T2000,1733A,111.5531,36.0783,临汾市,临钢医院,颗粒物(PM10),148,245,143,68,37,3,3,50,43,62,28,5,12,1.1,0.7
2025-12-01T2000,1734A,111.5028,36.0714,临汾市,技工学校,颗粒物(PM10),146,242,126,70,35,8,8,46,40,67,32,8,14,1.2,0.8
2025-12-01T2000,1736A,111.5018,36.0855,临汾市,市委,颗粒物(PM10),154,258,139,58,32,12,12,46,43,67,34,12,18,1.1,0.9
2025-12-01T2000,3018A,111.505,36.1014,临汾市,唐尧大酒店,颗粒物(PM10),135,220,130,53,29,13,13,45,42,64,34,8,13,1.3,1.1
2025-12-01T2000,4244A,111.4879,36.0530,临汾市,启星学校,颗粒物(PM10),138,225,125,58,30,5,5,52,45,77,33,11,13,1.0,0.6
2025-12-01T2000,4271A,103.2464,35.6123,临夏回族自治州,滨河东路1号,细颗粒物(PM2.5),127,160,132,96,72,10,10,70,66,74,31,9,9,1.6,1.1
2025-12-01T2000,4310A,103.2093,35.5995,临夏回族自治州,新华街21号,颗粒物(PM10),110,170,146,71,83,56,56,74,74,27,28,26,12,0.9,1.3
2025-12-01T2000,1618A,118.3429,35.0532,临沂市,沂河小区,颗粒物(PM10),70,90,139,39,38,47,47,63,62,27,30,11,11,0.5,0.5
2025-12-01T2000,1619A,118.295,35.0583,临沂市,鲁南制药厂,细颗粒物(PM2.5),84,78,141,62,40,52,52,49,,28,30,10,14,0.6,0.6
2025-12-01T2000,1620A,118.2794,34.9976,临沂市,新光毛纺厂,颗粒物(PM10),57,63,129,30,35,55,55,65,65,24,29,10,10,0.6,0.6
2025-12-01T2000,1621A,118.3956,35.0888,临沂市,河东保险公司,颗粒物(PM10),67,83,123,31,32,44,44,66,65,30,32,9,10,0.5,0.4
2025-12-01T2000,3370A,118.3564,35.0215,临沂市,十里堡居委,颗粒物(PM10),64,78,133,19,24,49,49,63,63,27,34,10,11,0.7,0.7
2025-12-01T2000,3496A,118.3604,35.1084,临沂市,南坊新区,颗粒物(PM10),68,85,134,29,31,46,46,67,65,34,33,12,11,0.7,0.6
2025-12-01T2000,3860A,118.3920,35.0300,临沂市,皇山花园小区,颗粒物(PM10),69,88,148,18,34,46,46,68,66,31,34,14,12,0.6,0.5
2025-12-01T2000,1870A,109.4856,24.3895,柳州市,柳东小学,细颗粒物(PM2.5),72,66,86,52,70,112,112,135,134,19,14,24,17,0.7,0.6
2025-12-01T2000,1871A,109.4157,24.3277,柳州市,环保监测站,细颗粒物(PM2.5),68,65,99,49,70,63,63,126,121,41,31,9,16,0.9,1
2025-12-01T2000,1872A,109.389,24.341,柳州市,河西水厂,颗粒物(PM10),63,76,107,42,59,75,75,136,133,40,33,8,16,1.0,1
2025-12-01T2000,1873A,109.4311,24.2921,柳州市,市四中,细颗粒物(PM2.5),85,102,104,63,83,30,30,126,116,69,38,11,19,0.9,1.2
2025-12-01T2000,1874A,109.4006,24.3631,柳州市,市九中,细颗粒物(PM2.5),84,89,113,62,82,63,63,127,122,45,35,11,23,0.9,1
2025-12-01T2000,1875A,109.4958,24.3134,柳州市,古亭山,细颗粒物(PM2.5),59,58,78,42,52,46,46,124,113,42,37,9,12,0.7,0.7
2025-12-01T2000,3402A,109.5422,24.3996,柳州市,市二中,颗粒物(PM10),58,65,80,39,57,60,60,126,119,36,21,10,12,1.5,1.4
2025-12-01T2000,2307A,116.5079,31.737,六安市,监测大楼,颗粒物(PM10),113,176,150,69,89,68,68,88,88,40,48,6,6,0.7,0.7
2025-12-01T2000,2308A,116.4738,31.7643,六安市,皖西学院,颗粒物(PM10),116,181,164,70,92,65,65,94,93,42,40,6,5,0.7,0.7
2025-12-01T2000,2309A,116.4996,31.7905,六安市,朝阳厂,颗粒物(PM10),109,168,138,75,82,57,57,86,85,50,45,6,6,0.7,0.7
2025-12-01T2000,2310A,116.5567,31.7886,六安市,开发区,颗粒物(PM10),123,196,171,75,82,52,52,84,81,44,48,4,4,0.7,0.7
2025-12-01T2000,2576A,104.8,26.5892,六盘水市,窑上,细颗粒物(PM2.5),104,98,103,78,88,49,49,102,98,10,14,2,3,0.8,0.9
2025-12-01T2000,2577A,104.83,26.5917,六盘水市,黄土坡,细颗粒物(PM2.5),115,125,119,87,89,79,79,99,99,34,26,11,9,0.9,0.9
2025-12-01T2000,2578A,104.89,26.5939,六盘水市,水钢,细颗粒物(PM2.5),108,103,122,81,100,96,96,106,106,25,25,10,10,0.8,1
2025-12-01T2000,2579A,104.8475,26.5894,六盘水市,民中,细颗粒物(PM2.5),138,114,103,105,94,75,75,99,99,37,27,13,8,1.2,1
2025-12-01T2000,2580A,104.9544,26.5506,六盘水市,双水,细颗粒物(PM2.5),93,95,130,69,99,98,98,104,104,29,28,7,10,0.5,0.8
2025-12-01T2000,2335A,117.0189,25.1181,龙岩市,龙岩师专,,,,,,,,,,,,,,,,
2025-12-01T2000,2336A,117.0217,25.1033,龙岩市,龙岩市监测站,,47,47,45,28,33,8,8,92,79,72,36,14,12,1.5,0.8
2025-12-01T2000,2337A,117.0258,25.0661,龙岩市,闽西职业技术学院,,48,48,45,22,29,48,48,94,87,26,29,12,9,0.5,0.6
2025-12-01T2000,2338A,117.0196,25.0306,龙岩市,龙岩学院,,45,39,37,31,30,59,59,104,101,18,17,7,6,0.5,0.5
2025-12-01T2000,2665A,105.0822,33.3261,陇南市,汉王镇固水子,,,,,,,,,,,,,,,,
2025-12-01T2000,2885A,104.9339,33.3826,陇南市,滨江中学,细颗粒物(PM2.5),162,229,93,123,44,7,7,49,44,88,49,39,17,5.6,2.4
2025-12-01T2000,3247A,104.955,33.371,陇南市,市总工会,颗粒物(PM10),130,209,81,74,37,2,2,51,44,78,38,10,6,2.1,1.1
2025-12-01T2000,2487A,111.9589,27.8901,娄底市,电视发射台,,,,,,,,,,,,,,,,
2025-12-01T2000,2488A,111.9975,27.725,娄底市,市监测站,细颗粒物(PM2.5),104,121,98,78,63,124,124,144,144,23,34,16,23,0.9,1.1
2025-12-01T2000,2489A,112.0194,27.7314,娄底市,市委党校,细颗粒物(PM2.5),98,128,98,73,65,109,109,130,130,28,32,12,16,0.9,1.2
2025-12-01T2000,2490A,111.9561,27.7569,娄底市,涟钢,细颗粒物(PM2.5),127,142,91,96,61,103,103,129,126,33,21,14,10,1.4,1.1
2025-12-01T2000,2491A,111.9892,27.7044,娄底市,市政府,细颗粒物(PM2.5),102,136,109,76,74,114,114,131,131,24,27,15,14,0.4,0.6
2025-12-01T2000,1893A,105.4324,28.9634,泸州市,九狮山,,,,,,,,,,,,,,,,
2025-12-01T2000,1894A,105.4427,28.9063,泸州市,小市上码头,细颗粒物(PM2.5),169,134,130,128,100,6,6,46,44,72,30,10,11,1.3,1
2025-12-01T2000,1895A,105.4241,28.8573,泸州市,兰田宪桥,细颗粒物(PM2.5),153,135,127,117,105,44,44,51,51,25,24,7,8,1.2,1.2
2025-12-01T2000,1896A,105.4379,28.8833,泸州市,市环监站,细颗粒物(PM2.5),138,129,132,105,98,30,30,42,42,51,36,8,8,1.0,1
2025-12-01T2000,4272A,105.3689,28.7783,泸州市,纳溪中医医院,细颗粒物(PM2.5),125,115,100,95,88,25,25,35,35,44,24,8,8,1.1,1
2025-12-01T2000,2183A,111.1406,37.5211,吕梁市,环保局,颗粒物(PM10),119,188,106,52,25,,,58,58,65,39,7,10,0.5,0.4
2025-12-01T2000,2185A,111.1297,37.5136,吕梁市,自来水公司,颗粒物(PM10),88,125,134,45,33,12,12,54,50,53,37,5,14,0.6,0.5
2025-12-01T2000,2867A,111.1283,37.51,吕梁市,马茂庄小学,颗粒物(PM10),113,175,131,52,28,3,3,48,42,64,41,10,13,0.8,0.6
2025-12-01T2000,1812A,112.3931,34.6516,洛阳市,市委党校,颗粒物(PM10),141,231,202,61,58,33,33,55,52,49,38,10,11,0.5,0.5
2025-12-01T2000,1815A,112.494,34.6886,洛阳市,河南林校,颗粒物(PM10),147,244,233,83,66,16,16,55,48,62,40,8,10,0.6,0.6
2025-12-01T2000,1816A,112.3844,34.623,洛阳市,开发区管委会,颗粒物(PM10),143,235,199,71,64,34,34,59,56,41,33,11,12,0.6,0.6
2025-12-01T2000,1817A,112.4267,34.6258,洛阳市,市委新办公区,颗粒物(PM10),149,247,199,75,63,29,29,54,50,46,34,10,11,0.6,0.5
2025-12-01T2000,3340A,112.6005,34.6326,洛阳市,伊滨,颗粒物(PM10),159,268,205,80,67,16,16,52,46,52,35,12,11,0.5,0.5
2025-12-01T2000,3341A,112.4951,34.6332,洛阳市,中移产业园,颗粒物(PM10),158,265,218,69,61,18,18,56,50,69,49,12,12,0.5,0.5
2025-12-01T2000,3593A,112.5736,34.8993,洛阳市,吉利监测站,颗粒物(PM10),151,252,258,79,65,7,7,62,53,68,29,8,10,0.7,0.5
2025-12-01T2000,3635A,112.3677,34.662,洛阳市,河科大西苑校区,颗粒物(PM10),153,255,226,57,50,34,34,58,56,47,39,11,11,0.8,0.8
2025-12-01T2000,3636A,112.4388,34.6781,洛阳市,英才小学,颗粒物(PM10),147,243,222,86,71,17,17,51,46,62,44,11,12,0.7,0.7
2025-12-01T2000,4214A,112.4600,34.6949,洛阳市,春都路1号院,颗粒物(PM10),161,271,255,62,53,15,15,52,46,54,38,12,12,0.6,0.6
2025-12-01T2000,2399A,114.051,33.5699,漯河市,三五一五工厂,颗粒物(PM10),138,226,249,69,74,48,48,64,63,31,27,7,8,0.6,0.7
2025-12-01T2000,2400A,114.0055,33.5698,漯河市,漯河大学,颗粒物(PM10),135,220,252,63,73,53,53,69,68,35,29,7,8,0.4,0.5
2025-12-01T2000,2401A,114.0138,33.5828,漯河市,市水利局,颗粒物(PM10),136,222,249,66,74,46,46,67,66,37,29,8,9,0.5,0.5
2025-12-01T2000,2402A,114.0261,33.5698,漯河市,市广电局,颗粒物(PM10),149,247,270,65,67,49,49,66,66,34,29,7,8,0.4,0.5
2025-12-01T2000,3478A,113.9749,33.5664,漯河市,市图书馆,颗粒物(PM10),141,231,260,62,71,50,50,61,61,30,29,6,7,0.6,0.7
2025-12-01T2000,4250A,114.0892,33.5882,漯河市,韶山路11号,颗粒物(PM10),134,217,236,76,72,33,33,55,52,46,36,8,10,0.6,0.7
2025-12-01T2000,1798A,118.5092,31.6837,马鞍山市,湖东路四小,颗粒物(PM10),106,161,175,46,69,70,70,100,98,39,51,6,7,0.8,1.1
2025-12-01T2000,1799A,118.5024,31.6449,马鞍山市,开发区,颗粒物(PM10),109,167,163,47,68,74,74,102,101,35,46,6,7,0.7,0.8
2025-12-01T2000,1802A,118.6245,31.7241,马鞍山市,濮塘,,,,,,,,,,,,,,,,
2025-12-01T2000,3633A,118.4918,31.6809,马鞍山市,雨山,颗粒物(PM10),112,173,169,50,71,79,79,105,102,34,54,7,9,0.7,1
2025-12-01T2000,4191A,118.5274,31.72227,马鞍山市,慈湖高新区,颗粒物(PM10),105,160,167,50,61,60,60,102,99,50,44,5,8,0.7,0.9
2025-12-01T2000,1686A,111.0286,21.4688,茂名市,电白南海,颗粒物(PM10),68,85,88,48,46,100,100,106,106,19,24,10,15,0.7,0.6
2025-12-01T2000,1687A,110.9294,21.6533,茂名市,茂石化七小,,,75,80,51,46,85,85,103,103,,19,10,16,0.6,0.6
2025-12-01T2000,1688A,110.9107,21.6687,茂名市,健康路,细颗粒物(PM2.5),62,68,68,44,41,87,87,115,113,22,23,10,23,0.8,0.8
2025-12-01T2000,1689A,110.8592,21.6828,茂名市,高岭,细颗粒物(PM2.5),89,92,86,66,48,48,48,92,88,32,30,13,21,1.0,0.9
2025-12-01T2000,3450A,111.01,21.5165,茂名市,电白水东,细颗粒物(PM2.5),55,53,76,39,44,92,92,97,97,15,21,6,14,0.9,0.9
2025-12-01T2000,2539A,104.0308,30.0478,眉山市,黑龙滩水库,,,,,,,,,,,,,,,,
2025-12-01T2000,2540A,103.8416,30.0874,眉山市,气象局,细颗粒物(PM2.5),140,144,130,107,110,86,86,100,100,28,40,13,14,0.9,1.1
2025-12-01T2000,3137A,103.8578,30.0744,眉山市,市委党校,细颗粒物(PM2.5),122,117,116,92,96,73,73,92,92,45,41,7,8,0.6,0.7
2025-12-01T2000,3148A,103.8291,30.0564,眉山市,区人社局,细颗粒物(PM2.5),134,135,128,102,104,52,52,86,86,60,44,7,8,1.1,1.3
2025-12-01T2000,1690A,116.1231,24.3284,梅州市,梅江月梅,,49,49,37,33,34,18,18,98,90,52,23,5,5,0.9,0.6
2025-12-01T2000,1691A,116.0797,24.2719,梅州市,梅县新城,颗粒物(PM10),81,111,45,38,34,2,2,81,70,70,33,7,8,1.0,0.6
2025-12-01T2000,1692A,116.1248,24.2654,梅州市,环境监控中心,细颗粒物(PM2.5),57,59,38,40,38,6,6,78,74,69,29,11,9,0.7,0.5
2025-12-01T2000,3315A,116.1233,24.2991,梅州市,梅龙,颗粒物(PM10),62,73,42,31,32,20,20,83,74,55,26,21,8,1.3,0.7
2025-12-01T2000,1878A,104.7778,31.4741,绵阳市,富乐山,细颗粒物(PM2.5),138,120,93,105,71,53,53,69,69,12,28,10,10,0.7,0.7
2025-12-01T2000,1880A,104.6697,31.4668,绵阳市,高新区自来水公司,细颗粒物(PM2.5),156,145,130,119,82,12,12,68,64,66,37,10,10,1.0,0.8
2025-12-01T2000,1881A,104.7287,31.5075,绵阳市,三水厂,细颗粒物(PM2.5),140,129,101,107,77,16,16,66,63,55,34,13,12,1.2,1
2025-12-01T2000,3491A,104.69,31.5322,绵阳市,西科大附属小学,细颗粒物(PM2.5),170,186,122,129,78,6,6,62,60,73,42,8,8,1.1,0.8
2025-12-01T2000,3492A,104.5648,31.5343,绵阳市,安州区旅游局,细颗粒物(PM2.5),147,122,99,112,79,,,73,73,69,32,8,7,1.3,1
2025-12-01T2000,4226A,104.7651,31.4531,绵阳市,绵阳市气象局,细颗粒物(PM2.5),119,128,101,90,69,62,62,69,69,19,34,6,8,0.9,1
2025-12-01T2000,1784A,129.61,44.561,牡丹江市,环保大楼,细颗粒物(PM2.5),69,83,36,50,28,22,22,47,39,36,17,8,8,0.8,0.6
2025-12-01T2000,1785A,129.6115,44.5782,牡丹江市,文化广场,细颗粒物(PM2.5),59,58,44,42,34,30,30,51,41,33,18,11,9,0.8,0.6
2025-12-01T2000,1786A,129.5904,44.5963,牡丹江市,第一医院,细颗粒物(PM2.5),124,,44,94,41,10,10,48,33,46,18,8,4,1.6,0.7
2025-12-01T2000,1787A,129.6364,44.6075,牡丹江市,机车工厂,细颗粒物(PM2.5),69,85,46,50,30,13,13,49,36,39,20,37,10,0.8,0.5
2025-12-01T2000,1788A,129.6386,44.5462,牡丹江市,第一中学,细颗粒物(PM2.5),73,57,34,53,31,14,14,52,38,42,16,4,4,0.6,0.3
2025-12-01T2000,2531A,105.0703,29.61,内江市,市监测站,细颗粒物(PM2.5),129,117,103,98,102,79,79,101,101,25,27,3,4,0.9,1
2025-12-01T2000,2532A,105.0717,29.5947,内江市,东兴区政府,细颗粒物(PM2.5),135,114,109,103,105,74,74,90,90,24,31,4,4,0.7,0.8
2025-12-01T2000,2533A,105.0653,29.5817,内江市,内江二中,细颗粒物(PM2.5),134,148,128,102,102,74,74,89,89,27,33,4,5,0.9,1
2025-12-01T2000,2534A,105.0406,29.5822,内江市,内江日报社,细颗粒物(PM2.5),124,112,118,94,102,78,78,95,95,34,39,4,4,0.7,0.9
2025-12-01T2000,2628A,92.0657,31.4846,那曲市,那曲监测站,,48,48,66,28,41,44,44,70,69,46,34,16,12,1.8,1.8
2025-12-01T2000,4243A,92.0515,31.4787,那曲市,那曲市委宣传部,,27,27,36,12,22,55,55,72,72,21,23,8,9,0.7,1.3
2025-12-01T2000,1290A,115.8931,28.6843,南昌市,省外办,细颗粒物(PM2.5),83,90,83,61,58,49,49,106,100,43,43,7,8,1.5,1.4
2025-12-01T2000,1291A,115.8886,28.7003,南昌市,省林业公司,颗粒物(PM10),78,105,87,51,52,43,43,109,102,63,49,10,8,1.2,1.2
2025-12-01T2000,1292A,115.8126,28.7442,南昌市,林科所,颗粒物(PM10),56,61,70,36,40,90,90,116,111,24,45,5,7,0.5,0.7
2025-12-01T2000,1294A,115.8518,28.687,南昌市,建工学校,细颗粒物(PM2.5),72,92,94,52,58,90,90,121,118,37,59,14,15,1.2,1.1
2025-12-01T2000,1295A,115.8921,28.6424,南昌市,象湖,细颗粒物(PM2.5),73,85,97,53,53,81,81,135,129,43,53,12,13,0.6,0.9
2025-12-01T2000,1296A,115.7423,28.7996,南昌市,武术学校,,,,,,,,,,,,,,,,
2025-12-01T2000,3046A,115.9084,28.6062,南昌市,机电学校,颗粒物(PM10),75,100,99,48,55,63,63,135,125,61,57,11,14,0.8,0.9
2025-12-01T2000,3690A,115.9721,28.7031,南昌市,外国语学校,细颗粒物(PM2.5),67,82,85,48,56,93,93,127,124,34,47,12,14,0.6,0.7
2025-12-01T2000,4192A,115.9316,28.68677,南昌市,南京东路235号,颗粒物(PM10),71,91,91,39,51,82,82,134,130,45,45,8,9,0.7,0.8
2025-12-01T2000,1905A,106.056,30.8064,南充市,西山风景区,,,,,,,,,,,,,,,,
2025-12-01T2000,1906A,106.0789,30.8023,南充市,南充市委,细颗粒物(PM2.5),145,132,128,111,106,16,16,30,30,36,37,4,4,0.9,1.1
2025-12-01T2000,1907A,106.1031,30.8217,南充市,南充炼油厂,细颗粒物(PM2.5),142,136,128,108,107,29,29,34,34,29,31,6,6,1.0,1
2025-12-01T2000,4227A,106.1083,30.7884,南充市,梨树横街98号,细颗粒物(PM2.5),139,124,128,106,105,32,32,40,40,33,31,5,6,0.8,0.8
2025-12-01T2000,4304A,106.1172,30.843,南充市,清泉寺北路188号,细颗粒物(PM2.5),130,119,102,99,84,31,31,39,39,,27,5,5,0.7,0.8
2025-12-01T2000,4305A,106.067,30.7616,南充市,同庆路1号,细颗粒物(PM2.5),140,125,127,107,99,31,31,36,36,26,33,6,6,0.9,1
2025-12-01T2000,1151A,118.8086,32.1065,南京市,迈皋桥,颗粒物(PM10),72,93,130,31,51,56,56,80,78,34,39,3,4,0.3,0.3
2025-12-01T2000,1152A,118.7538,32.0551,南京市,草场门,颗粒物(PM10),100,149,164,31,55,52,52,74,71,41,56,4,5,0.6,0.8
2025-12-01T2000,1153A,118.7794,32.0745,南京市,山西路,颗粒物(PM10),89,127,168,34,52,50,50,79,75,50,56,4,4,0.6,0.9
2025-12-01T2000,1154A,118.7752,32.0023,南京市,中华门,颗粒物(PM10),85,119,151,34,55,56,56,84,77,35,50,4,4,0.8,0.9
2025-12-01T2000,1155A,118.8109,32.0309,南京市,瑞金路,颗粒物(PM10),86,122,146,34,55,52,52,75,74,50,55,4,4,0.4,0.6
2025-12-01T2000,1156A,118.7997,32.0754,南京市,玄武湖,,,119,133,30,50,24,24,69,60,59,36,4,4,,0.8
2025-12-01T2000,1157A,118.6414,32.0931,南京市,浦口,颗粒物(PM10),100,150,167,39,55,47,47,74,72,49,35,9,10,0.5,0.6
2025-12-01T2000,1158A,118.7356,31.9996,南京市,奥体中心,颗粒物(PM10),92,133,162,39,59,75,75,97,95,40,52,6,7,0.5,0.8
2025-12-01T2000,1159A,118.9125,32.1028,南京市,仙林大学城,颗粒物(PM10),84,117,164,24,58,55,55,80,74,31,48,7,8,0.6,1
2025-12-01T2000,3422A,118.8436,31.9198,南京市,江宁彩虹桥,颗粒物(PM10),91,132,151,31,54,76,76,103,99,27,49,5,4,0.4,0.8
2025-12-01T2000,3427A,118.8554,32.3578,南京市,六合雄州,颗粒物(PM10),71,91,136,20,50,58,58,80,77,23,30,5,8,0.4,0.6
2025-12-01T2000,4249A,118.8708,31.3402,南京市,汶溪路181号,颗粒物(PM10),110,169,143,64,94,78,78,102,101,43,51,7,8,0.7,1
2025-12-01T2000,4312A,119.019,31.6512,南京市,中山西路1号,颗粒物(PM10),90,129,133,58,76,51,51,84,80,41,45,4,4,1.1,1.1
2025-12-01T2000,1401A,108.3103,22.7881,南宁市,二十一中,细颗粒物(PM2.5),67,51,83,48,60,80,80,115,113,29,26,4,6,0.6,0.6
2025-12-01T2000,1402A,108.3141,22.8528,南宁市,北湖,细颗粒物(PM2.5),69,77,87,50,61,38,38,112,104,71,32,10,15,1.1,0.9
2025-12-01T2000,1403A,108.3206,22.8225,南宁市,市监测站,细颗粒物(PM2.5),68,68,87,49,58,88,88,115,114,36,31,8,12,0.8,0.8
2025-12-01T2000,1404A,108.3829,22.8037,南宁市,大自然花园,细颗粒物(PM2.5),69,74,85,50,59,88,88,122,122,32,26,6,7,0.7,0.7
2025-12-01T2000,1405A,108.4394,22.7904,南宁市,仙葫,,,,,,,,,,,,,,,,
2025-12-01T2000,1406A,108.2397,22.8467,南宁市,区农职院,,,87,84,41,55,,,103,103,55,24,7,11,0.9,1
2025-12-01T2000,1407A,108.3275,22.735,南宁市,英华嘉园,细颗粒物(PM2.5),83,112,88,61,65,6,6,100,89,97,34,4,6,0.6,0.5
2025-12-01T2000,3401A,108.4834,22.7618,南宁市,红星社区,细颗粒物(PM2.5),69,82,81,50,56,62,62,130,123,49,24,5,8,0.9,0.8
2025-12-01T2000,4221A,108.2177,22.7774,南宁市,乐贤路16号,细颗粒物(PM2.5),70,88,93,51,58,23,23,110,100,74,34,4,11,0.7,0.6
2025-12-01T2000,2331A,118.0966,26.6761,南平市,茫荡山,,,,18,,13,,,130,,,,,2,,
2025-12-01T2000,2332A,118.1681,26.6369,南平市,南平市监测站,,45,40,35,31,24,44,44,83,80,27,25,4,4,0.8,0.6
2025-12-01T2000,2333A,118.1825,26.6489,南平市,南平铝业有限公司,细颗粒物(PM2.5),59,55,39,42,29,29,29,81,72,45,30,6,7,0.8,0.6
2025-12-01T2000,2334A,118.1756,26.6272,南平市,南平七中,,38,33,37,26,25,53,53,83,80,20,23,5,5,0.5,0.5
2025-12-01T2000,1168A,120.9098,31.9663,南通市,狼山街道,颗粒物(PM10),70,90,134,29,62,58,58,86,82,26,33,3,4,0.6,0.8
2025-12-01T2000,1169A,120.86,32.0005,南通市,虹桥,颗粒物(PM10),65,80,120,24,58,69,69,85,83,19,25,2,6,0.6,0.7
2025-12-01T2000,1170A,120.87,32.02,南通市,城中,颗粒物(PM10),71,91,144,28,59,63,63,85,82,28,39,4,7,0.7,0.8
2025-12-01T2000,1171A,120.94,31.93,南通市,星湖花园,颗粒物(PM10),72,94,140,32,60,66,66,89,85,26,40,3,6,0.5,0.7
2025-12-01T2000,1172A,120.81,32.0417,南通市,紫琅学院,颗粒物(PM10),76,101,165,28,63,55,55,87,83,38,42,3,6,0.6,0.8
2025-12-01T2000,3291A,121.067,32.062,南通市,通州监测站,颗粒物(PM10),57,63,118,24,61,75,75,92,90,19,29,2,5,0.7,0.8
2025-12-01T2000,3432A,120.9348,31.9883,南通市,环境教育馆,颗粒物(PM10),67,83,134,36,68,50,50,68,67,31,36,4,7,0.4,0.6
2025-12-01T2000,2404A,112.5224,33.0122,南阳市,瓦房庄,颗粒物(PM10),131,212,196,69,66,54,54,69,68,27,28,8,8,0.6,0.7
2025-12-01T2000,2405A,112.5003,32.9735,南阳市,汉画馆,颗粒物(PM10),132,214,218,65,63,56,56,68,68,29,24,7,7,0.6,0.6
2025-12-01T2000,2406A,112.5573,33.027,南阳市,气象站,颗粒物(PM10),159,268,239,78,63,48,48,70,68,31,25,7,7,0.7,0.7
2025-12-01T2000,2407A,112.5481,32.9689,南阳市,理工学院,颗粒物(PM10),137,224,218,66,60,49,49,67,66,32,31,7,7,0.8,0.8
2025-12-01T2000,4008A,112.5234,32.9922,南阳市,卧龙区政府,颗粒物(PM10),139,227,208,67,62,53,53,67,66,30,31,7,7,0.7,0.8
2025-12-01T2000,1234A,121.8358,29.911,宁波市,区环保大楼,颗粒物(PM10),109,168,120,62,60,72,72,110,109,54,64,6,7,1.1,1
2025-12-01T2000,1235A,121.56,29.82,宁波市,万里学院,细颗粒物(PM2.5),113,124,143,85,86,92,92,133,133,33,64,7,8,1.2,1
2025-12-01T2000,1236A,121.713,29.9572,宁波市,龙赛医院,,,148,141,61,77,76,76,117,115,,67,5,4,,0.8
2025-12-01T2000,1239A,121.633,29.7733,宁波市,钱湖水厂,颗粒物(PM10),111,172,113,76,68,70,70,126,126,36,43,6,7,0.9,0.8
2025-12-01T2000,1240A,121.5856,29.8635,宁波市,太古小学,颗粒物(PM10),105,159,144,57,76,93,93,134,132,26,65,4,5,1.0,1.1
2025-12-01T2000,1241A,121.524,29.8674,宁波市,市环境监测中心,颗粒物(PM10),87,123,121,60,77,78,78,127,125,29,53,8,9,1.2,1.2
2025-12-01T2000,2871A,121.6147,29.9017,宁波市,万里国际学校,颗粒物(PM10),76,102,130,50,62,87,87,132,128,36,70,4,6,1.0,1.1
2025-12-01T2000,3710A,121.5594,29.8975,宁波市,白沙活动中心,颗粒物(PM10),100,149,130,55,65,80,80,135,130,40,62,5,6,1.0,1
2025-12-01T2000,2339A,119.5001,26.6946,宁德市,金涵水库,,,,29,,13,,,41,,,9,,2,,0.4
2025-12-01T2000,2341A,119.5388,26.6612,宁德市,宁德市监测站,,42,28,27,21,15,133,133,108,108,15,19,12,10,0.5,0.6
2025-12-01T2000,3209A,119.5231,26.6562,宁德市,宁德一中,,44,44,32,23,21,127,127,107,107,14,13,8,7,0.3,0.5
2025-12-01T2000,2618A,98.8601,25.8567,怒江傈僳族自治州,州监测站,,47,47,36,30,25,33,33,61,60,26,12,7,8,0.7,0.4
2025-12-01T2000,2619A,98.8546,25.8417,怒江傈僳族自治州,泸水一中,,48,48,32,19,22,17,17,40,38,36,19,5,5,0.9,0.6
2025-12-01T2000,1888A,101.6891,26.571,攀枝花市,弄弄坪,颗粒物(PM10),58,66,56,38,39,58,58,82,82,33,26,21,17,1.5,1.1
2025-12-01T2000,1889A,101.5769,26.5928,攀枝花市,河门口,颗粒物(PM10),55,59,69,36,44,67,67,82,82,22,25,33,24,1.3,1.6
2025-12-01T2000,1890A,101.7169,26.585,攀枝花市,炳草岗,颗粒物(PM10),60,69,73,32,49,20,20,79,78,69,42,13,12,1.2,1.2
2025-12-01T2000,1891A,101.7369,26.5008,攀枝花市,仁和,细颗粒物(PM2.5),75,88,56,55,36,37,37,84,81,28,20,10,11,0.9,1
2025-12-01T2000,2835A,101.7227,26.567,攀枝花市,四十中小,细颗粒物(PM2.5),70,71,75,51,49,26,26,68,68,64,43,13,12,1.6,1.4
2025-12-01T2000,1604A,122.0303,41.1489,盘锦市,开发区,颗粒物(PM10),54,57,33,3,18,59,59,60,60,6,19,2,4,0.3,0.6
2025-12-01T2000,1605A,122.0485,41.0883,盘锦市,兴隆台,,48,48,28,7,14,59,59,59,59,9,26,7,8,0.3,0.6
2025-12-01T2000,1606A,121.8297,41.1028,盘锦市,新生街道,颗粒物(PM10),51,51,26,3,11,54,54,58,57,14,27,8,9,0.1,0.3
2025-12-01T2000,1832A,113.3257,33.742,平顶山市,新华旅馆,颗粒物(PM10),144,238,246,76,69,36,36,58,56,44,26,9,9,0.6,0.5
2025-12-01T2000,1833A,113.2919,33.737,平顶山市,规划设计院,颗粒物(PM10),150,250,237,75,63,45,45,60,59,46,29,8,8,0.6,0.5
2025-12-01T2000,1834A,113.182,33.774,平顶山市,平顶山工学院,颗粒物(PM10),136,221,225,73,62,45,45,65,62,34,23,8,11,0.5,0.5
2025-12-01T2000,3204A,113.3025,33.73,平顶山市,规划局,颗粒物(PM10),155,259,274,62,60,49,49,63,62,40,26,8,9,0.5,0.4
2025-12-01T2000,3594A,112.8867,33.9116,平顶山市,石龙区,颗粒物(PM10),192,333,269,96,70,10,10,66,58,78,30,9,10,0.7,0.7
2025-12-01T2000,2656A,106.6692,35.5461,平凉市,聚贤嘉苑,颗粒物(PM10),51,51,99,24,31,79,79,82,82,11,34,5,6,0.5,0.6
2025-12-01T2000,2657A,106.7021,35.5307,平凉市,博物馆,颗粒物(PM10),52,53,90,23,35,82,82,83,83,9,29,9,10,0.4,0.6
2025-12-01T2000,2347A,114.0997,27.5002,萍乡市,武功山,,,,,,,,,,,,,,,,
2025-12-01T2000,2348A,113.8385,27.6434,萍乡市,中医院,细颗粒物(PM2.5),103,132,80,77,43,36,36,122,115,64,41,12,10,1.4,1.1
2025-12-01T2000,2349A,113.8493,27.6253,萍乡市,市政府车库,细颗粒物(PM2.5),77,93,67,56,49,36,36,118,114,65,34,10,12,1.9,1.1
2025-12-01T2000,2350A,113.8676,27.6435,萍乡市,市环保局,细颗粒物(PM2.5),72,67,67,52,40,88,88,140,140,34,32,17,19,0.7,0.8
2025-12-01T2000,2351A,113.866,27.6198,萍乡市,安源区政府,细颗粒物(PM2.5),102,90,71,76,57,41,41,97,95,46,33,14,16,1.2,1.3
2025-12-01T2000,2319A,119.0141,25.4325,莆田市,荔城区仓后路,,37,37,45,17,24,70,70,84,82,20,19,4,4,0.5,0.6
2025-12-01T2000,2320A,119.0015,25.4553,莆田市,莆田市监测站,,38,38,32,12,18,62,62,92,85,14,13,3,4,0.4,0.5
2025-12-01T2000,2321A,119.1119,25.4561,莆田市,涵江区六中,,32,32,39,13,20,84,84,87,86,12,18,3,4,0.2,0.4
2025-12-01T2000,2322A,119.1013,25.3215,莆田市,秀屿区政府,,31,31,42,15,26,91,91,93,93,12,18,5,5,0.4,0.5
2025-12-01T2000,2323A,118.981,25.4792,莆田市,东圳水库,,,,24,,19,,,71,,,9,,4,,0.6
2025-12-01T2000,2392A,115.0312,35.7636,濮阳市,环保局,颗粒物(PM10),119,187,198,44,36,39,39,55,54,54,28,10,9,0.9,0.5
2025-12-01T2000,2394A,115.0574,35.7609,濮阳市,油田运输公司,颗粒物(PM10),119,187,186,48,41,27,27,66,61,81,31,13,11,1.3,0.8
2025-12-01T2000,3021A,115,35.7668,濮阳市,濮水河管理处,颗粒物(PM10),100,150,214,61,55,30,30,58,54,48,28,8,9,0.9,0.7
2025-12-01T2000,4216A,115.0924,35.7686,濮阳市,任丘路479号,颗粒物(PM10),124,198,198,74,40,27,27,65,62,64,27,11,10,1.0,0.7
2025-12-01T2000,2601A,100.98,22.7633,普洱市,市环保局,颗粒物(PM10),58,66,43,11,14,34,34,68,64,20,10,4,4,0.5,0.4
2025-12-01T2000,2602A,100.9817,22.8322,普洱市,普洱第二中学,细颗粒物(PM2.5),84,,39,62,23,33,33,71,67,25,15,5,5,0.6,0.4
2025-12-01T2000,2262A,131.0518,45.8751,七台河市,新一中,,,,,,,,,,,,,,,,
2025-12-01T2000,3345A,131.0577,45.7879,七台河市,中波台,,46,44,29,32,21,23,23,49,39,32,16,8,7,0.6,0.5
2025-12-01T2000,3637A,131.0176,45.7761,七台河市,人民广场,,,,34,37,28,26,26,45,34,27,20,7,7,0.6,0.5
2025-12-01T2000,3684A,130.8781,45.8222,七台河市,新建矿广场,"颗粒物(PM10),细颗粒物(PM2.5)",54,58,52,38,24,23,23,40,36,28,18,13,8,0.5,0.4
2025-12-01T2000,1779A,123.9305,47.3636,齐齐哈尔市,安居小区,,19,19,20,12,10,34,34,49,45,24,12,8,8,0.4,0.4
2025-12-01T2000,1780A,123.9488,47.3386,齐齐哈尔市,中心广场,,26,26,15,9,7,43,43,48,44,18,14,6,7,0.5,0.4
2025-12-01T2000,1781A,123.9483,47.3227,齐齐哈尔市,农牧车辆厂,,31,31,19,11,10,38,38,42,40,13,9,4,4,0.6,0.5
2025-12-01T2000,1783A,123.945,47.2988,齐齐哈尔市,市环境监测站,,44,44,25,22,9,24,24,46,39,32,13,7,7,0.9,0.6
2025-12-01T2000,3662A,123.6333,47.2075,齐齐哈尔市,富区青少年活动中心,颗粒物(PM10),65,79,25,39,11,18,18,43,35,40,17,11,5,1.0,0.8
2025-12-01T2000,2591A,107.9783,26.5747,黔东南苗族侗族自治州,市环境监测站,细颗粒物(PM2.5),85,78,109,63,89,42,42,94,91,48,31,8,7,1.0,0.8
2025-12-01T2000,2881A,107.8908,26.5311,黔东南苗族侗族自治州,凯里学院,细颗粒物(PM2.5),84,92,90,62,75,60,60,107,106,34,25,8,7,0.8,0.7
2025-12-01T2000,2593A,107.5228,26.2403,黔南布依族苗族自治州,小围寨,细颗粒物(PM2.5),70,61,71,51,63,76,76,103,103,9,10,6,7,0.5,0.6
2025-12-01T2000,3538A,107.5175,26.2978,黔南布依族苗族自治州,沙坝,细颗粒物(PM2.5),79,68,73,58,53,55,55,97,96,31,15,5,6,0.6,1
2025-12-01T2000,2589A,104.9022,25.0925,黔西南布依族苗族自治州,场坝街,细颗粒物(PM2.5),79,72,61,58,48,68,68,90,90,20,20,5,12,0.7,0.6
2025-12-01T2000,2590A,104.8811,25.0992,黔西南布依族苗族自治州,坪东大道,细颗粒物(PM2.5),78,77,65,57,53,17,17,82,74,48,25,4,5,1.3,0.8
2025-12-01T2000,2502A,108.6236,21.9667,钦州市,市环保站,颗粒物(PM10),91,132,87,66,60,35,35,103,94,50,22,4,3,1.1,1.1
2025-12-01T2000,2503A,108.6549,21.9481,钦州市,沙埠小学,细颗粒物(PM2.5),107,140,85,80,69,25,25,104,95,63,22,4,5,0.6,0.8
2025-12-01T2000,2504A,108.5989,21.7431,钦州市,港区一小,颗粒物(PM10),96,142,93,65,59,31,31,98,91,72,36,14,6,1.4,1
2025-12-01T2000,3404A,108.5959,21.9633,钦州市,北职校,细颗粒物(PM2.5),94,108,74,70,59,38,38,99,91,43,17,7,6,0.9,0.9
2025-12-01T2000,1043A,119.7493,40.0116,秦皇岛市,第一关,,26,,20,18,16,59,59,62,56,20,30,4,6,0.2,0.3
2025-12-01T2000,1044A,119.5897,39.9499,秦皇岛市,监测站,,40,40,34,10,13,66,66,60,60,14,29,5,7,0.1,0.1
2025-12-01T2000,1046A,119.5251,39.9041,秦皇岛市,建设大厦,,30,25,34,21,22,42,42,58,54,28,26,4,5,0.3,0.4
2025-12-01T2000,3132A,119.610547,39.943889,秦皇岛市,文明里,,,15,28,13,16,,,56,56,16,22,7,9,,0.2
2025-12-01T2000,4198A,119.5090,39.8253,秦皇岛市,北戴河轮滑馆,,18,11,25,11,12,56,56,61,58,4,14,2,3,0.2,0.5
