timepoint,stationcode,longitude,latitude,area,positionname,primarypollutant,aqi,pm10,pm10_24h,pm2_5,pm2_5_24h,o3,o3_24h,o3_8h,o3_8h_24h,no2,no2_24h,so2,so2_24h,co,co_24h
2026-02-26T0800,2568A,102.2503,31.8896,阿坝藏族羌族自治州,马师校,,20,12,16,6,8,64,,92,92,4,4,5,5,0.3,0.3
2026-02-26T0800,3994A,102.2174,31.9016,阿坝藏族羌族自治州,马尔康中学西区,,20,16,19,6,7,61,,80,80,5,4,6,6,0.3,0.3
2026-02-26T0800,2695A,80.2899,41.1684,阿克苏地区,电视台,颗粒物(PM10),236,375,1555,94,322,25,,57,57,38,9,3,3,1.1,0.7
2026-02-26T0800,2696A,80.2592,41.1541,阿克苏地区,艺术中心,颗粒物(PM10),266,396,1440,118,337,46,,55,55,17,10,3,4,0.7,0.5
2026-02-26T0800,2205A,105.699,38.8409,阿拉善盟,蒙二幼,颗粒物(PM10),68,85,69,21,14,76,,76,76,12,8,10,10,0.5,0.5
2026-02-26T0800,2206A,105.7198,38.8508,阿拉善盟,环保局新楼,颗粒物(PM10),66,81,58,20,14,82,,80,80,6,4,10,10,0.4,0.4
2026-02-26T0800,2708A,88.1266,47.8515,阿勒泰地区,市站,,31,6,20,3,12,97,,86,86,4,25,2,4,0.3,0.5
2026-02-26T0800,4166A,88.1198,47.7931,阿勒泰地区,阿勒泰路33号,,24,24,25,12,13,76,,77,77,9,19,4,5,0.5,0.5
2026-02-26T0800,2630A,80.1171,32.4999,阿里地区,阿里监测站,,22,11,12,3,5,69,,64,64,4,6,3,3,0.4,0.4
2026-02-26T0800,3192A,80.0906,32.5029,阿里地区,阿里藏医院,,22,9,9,3,4,70,,72,72,6,4,11,8,0.3,0.3
2026-02-26T0800,2644A,109.0088,32.6974,安康市,汉滨区检察院,,20,18,34,14,21,15,,20,20,13,10,2,2,0.6,0.6
2026-02-26T0800,4054A,109.0324,32.6913,安康市,市邮政管理局,,22,20,37,15,25,13,,25,25,12,12,4,4,0.6,0.6
2026-02-26T0800,2291A,117.0806,30.5181,安庆市,环科院,,13,10,48,9,32,25,,28,28,14,13,6,6,0.7,0.6
2026-02-26T0800,2292A,117.0331,30.5118,安庆市,马山宾馆,,16,15,44,11,32,20,,29,29,19,15,4,5,0.7,0.6
2026-02-26T0800,2294A,116.9897,30.6146,安庆市,安庆大学,,9,6,43,3,23,28,,29,29,12,7,4,3,0.6,0.5
2026-02-26T0800,3173A,117.0598,30.5351,安庆市,市人大,,10,,50,7,30,24,,29,29,14,14,5,5,0.6,0.5
2026-02-26T0800,3123A,105.9408,26.2431,安顺市,凤凰山,,45,45,30,26,28,57,,72,72,9,7,11,9,0.4,0.4
2026-02-26T0800,3124A,105.9443,26.2567,安顺市,金钟山,,48,34,30,33,30,56,,73,73,7,6,11,10,0.5,0.5
2026-02-26T0800,3125A,105.8983,26.248,安顺市,娄家坡,细颗粒物(PM2.5),52,42,30,36,28,54,,72,72,10,6,17,12,0.5,0.4
2026-02-26T0800,1819A,114.3552,36.1017,安阳市,红庙街,,40,32,39,28,30,32,,37,37,16,16,3,2,0.3,0.2
2026-02-26T0800,1820A,114.361,36.0681,安阳市,银杏小区,,50,,38,35,32,33,,37,37,10,10,4,4,0.4,0.3
2026-02-26T0800,3141A,114.3921,36.0879,安阳市,信访局,,49,,42,34,33,33,,37,37,10,10,3,3,0.5,0.4
2026-02-26T0800,3669A,114.4706,36.0634,安阳市,左辅环卫站,细颗粒物(PM2.5),54,47,55,38,32,31,,34,34,6,8,4,4,0.3,0.3
2026-02-26T0800,4117A,114.2918,36.0769,安阳市,钢三路198号,细颗粒物(PM2.5),52,,48,36,30,31,,36,36,14,12,2,2,0.4,0.3
2026-02-26T0800,1748A,123.0441,41.1201,鞍山市,深沟寺,,49,49,112,17,47,52,,64,64,22,17,6,8,0.5,0.7
2026-02-26T0800,1749A,123.011,41.0931,鞍山市,太阳城,,38,38,114,16,55,54,,62,62,15,19,9,11,0.5,0.8
2026-02-26T0800,1750A,123.0483,41.1445,鞍山市,太平,,48,48,118,18,50,54,,59,59,17,19,8,10,0.5,0.7
2026-02-26T0800,1751A,122.964,41.0968,鞍山市,铁西三道街,颗粒物(PM10),70,90,131,45,60,32,,46,46,42,32,12,17,3.5,1.5
2026-02-26T0800,1753A,123.0219,41.0822,鞍山市,明达新区,,42,42,115,16,54,50,,62,62,22,20,8,10,0.5,0.7
2026-02-26T0800,4201A,122.944647,41.082639,鞍山市,兴盛南路290号,颗粒物(PM10),69,87,142,45,60,22,,39,39,50,31,14,9,4.5,1.4
2026-02-26T0800,2195A,107.4206,40.7609,巴彦淖尔市,附二中,颗粒物(PM10),59,68,180,22,66,35,,45,45,15,8,10,9,0.5,0.5
2026-02-26T0800,2196A,107.37,40.7372,巴彦淖尔市,市环保大楼,颗粒物(PM10),53,56,173,22,49,38,,42,42,15,12,9,7,0.5,0.3
2026-02-26T0800,1956A,86.1476,41.7529,巴音郭楞蒙古自治州,孔雀公园,颗粒物(PM10),58,66,84,16,12,64,,64,64,6,9,8,9,0.4,0.4
2026-02-26T0800,1957A,86.1971,41.7166,巴音郭楞蒙古自治州,棉纺厂,颗粒物(PM10),58,66,71,19,15,62,,51,51,14,18,/,/,/,/
2026-02-26T0800,1958A,86.236,41.7172,巴音郭楞蒙古自治州,经济开发区,,49,49,94,13,8,63,,63,63,4,5,6,6,0.3,0.3
2026-02-26T0800,3181A,106.776805,31.852614,巴中市,市五中,,28,28,40,19,29,5,,8,8,11,20,7,8,0.9,1
2026-02-26T0800,3183A,106.7419,31.8654,巴中市,圣泉水务公司,,28,25,36,19,30,6,,4,4,18,20,8,8,1.1,1.1
2026-02-26T0800,3616A,106.7617,31.8343,巴中市,市中心医院,,35,32,47,24,32,0,,0,0,14,26,7,8,0.8,1.1
2026-02-26T0800,2235A,122.7909,45.608,白城市,洮北区环保局,,26,26,149,18,35,58,,66,66,17,8,8,5,0.3,0.3
2026-02-26T0800,2236A,122.8741,45.5725,白城市,市环保局,,26,24,146,18,35,64,,69,69,8,7,3,4,0.2,0.3
2026-02-26T0800,2231A,126.4219,41.9172,白山市,喜丰,颗粒物(PM10),90,130,81,50,31,10,,14,14,58,27,26,14,1.2,0.9
2026-02-26T0800,2232A,126.4082,41.9416,白山市,环保局,颗粒物(PM10),60,69,61,37,29,9,,18,18,43,22,15,12,0.9,0.8
2026-02-26T0800,2647A,104.1727,36.5448,白银市,第三小学,颗粒物(PM10),83,115,111,46,36,6,,40,40,49,9,45,16,0.9,0.3
2026-02-26T0800,2648A,104.1467,36.5482,白银市,动力公司,颗粒物(PM10),61,71,102,29,31,21,,39,39,30,9,20,9,0.8,0.5
2026-02-26T0800,2512A,106.6102,23.901,百色市,市监测站,,43,32,42,30,35,9,,12,12,16,14,10,15,0.4,0.5
2026-02-26T0800,2513A,106.6524,23.8842,百色市,市中心血站,细颗粒物(PM2.5),74,,46,54,38,9,,12,12,23,16,13,15,0.9,0.8
2026-02-26T0800,4133A,106.6273,23.8798,百色市,龙景西路,细颗粒物(PM2.5),74,59,54,54,42,9,,13,13,21,16,14,16,0.7,0.7
2026-02-26T0800,2270A,117.396,32.9389,蚌埠市,工人疗养院,细颗粒物(PM2.5),52,46,66,36,40,38,,33,33,18,21,3,3,0.7,0.6
2026-02-26T0800,2271A,117.3606,32.9428,蚌埠市,百货大楼,细颗粒物(PM2.5),58,48,65,41,38,32,,30,30,19,20,5,5,0.7,0.5
2026-02-26T0800,2273A,117.4183,32.8909,蚌埠市,蚌埠学院,,49,,57,34,42,26,,28,28,24,15,4,3,0.6,0.5
2026-02-26T0800,2274A,117.3534,32.9672,蚌埠市,淮上区政府,细颗粒物(PM2.5),57,44,62,40,38,33,,35,35,17,15,4,4,0.7,0.5
2026-02-26T0800,2275A,117.3143,32.8977,蚌埠市,高新区,细颗粒物(PM2.5),63,46,58,45,40,27,,31,31,22,16,6,5,0.9,0.6
2026-02-26T0800,3715A,117.3091,32.9314,蚌埠市,蚌埠田家炳中学,细颗粒物(PM2.5),65,52,64,47,42,31,,32,32,19,15,4,4,0.7,0.5
2026-02-26T0800,1585A,109.8761,40.6533,包头市,市环境监测站,,49,48,75,34,17,6,,50,50,50,13,11,5,0.6,0.3
2026-02-26T0800,1587A,109.9992,40.5843,包头市,包头八中,细颗粒物(PM2.5),65,70,73,47,25,11,,30,30,50,17,26,8,0.8,0.6
2026-02-26T0800,1589A,109.8641,40.6288,包头市,惠龙物流,,46,46,69,24,16,20,,52,52,38,12,13,9,1.1,0.5
2026-02-26T0800,1590A,110.0376,40.5546,包头市,东河鸿龙湾,颗粒物(PM10),60,69,67,27,16,8,,24,24,51,24,8,8,0.8,0.5
2026-02-26T0800,3283A,109.9154,40.5684,包头市,滨河大厦,颗粒物(PM10),55,60,61,32,17,16,,36,36,49,18,9,7,1.1,0.5
2026-02-26T0800,3419A,109.9449,40.6259,包头市,包头市委党校,,35,35,56,15,15,5,,32,32,54,16,11,9,0.7,0.3
2026-02-26T0800,3683A,109.8332,40.6577,包头市,昆区政府,,37,37,67,19,18,15,,54,54,53,13,10,7,0.9,0.5
2026-02-26T0800,1931A,107.0802,34.3129,宝鸡市,竹园沟,颗粒物(PM10),69,88,60,21,34,16,,16,16,12,12,6,6,0.4,0.6
2026-02-26T0800,1933A,107.1429,34.3549,宝鸡市,监测站,颗粒物(PM10),63,75,57,22,30,16,,14,14,14,17,5,5,0.5,0.5
2026-02-26T0800,1934A,107.1172,34.3759,宝鸡市,技工学校,颗粒物(PM10),62,74,58,24,32,19,,19,19,8,14,4,3,0.5,0.6
2026-02-26T0800,1936A,107.2025,34.3518,宝鸡市,文理学院,颗粒物(PM10),70,89,62,25,35,7,,12,12,19,15,4,4,0.7,0.7
2026-02-26T0800,1937A,107.2396,34.3626,宝鸡市,三迪小学,颗粒物(PM10),68,86,63,24,37,6,,9,9,25,19,4,4,0.6,0.6
2026-02-26T0800,4155A,107.1721,34.3558,宝鸡市,滨河北路,颗粒物(PM10),58,66,55,24,32,7,,12,12,24,16,5,4,0.7,0.7
2026-02-26T0800,4308A,107.3898,34.3601,宝鸡市,陈仓区北开路21号,颗粒物(PM10),73,96,70,36,46,16,,15,15,13,13,96,35,0.9,0.9
2026-02-26T0800,1051A,115.4803,38.8568,保定市,游泳馆,细颗粒物(PM2.5),127,138,100,96,66,2,,1,1,42,28,6,6,0.7,0.4
2026-02-26T0800,1052A,115.509,38.8895,保定市,华电二区,细颗粒物(PM2.5),123,123,98,93,66,1,,0,0,34,25,1,3,1.1,0.9
2026-02-26T0800,1053A,115.4588,38.9037,保定市,接待中心,细颗粒物(PM2.5),107,118,106,80,72,5,,1,1,33,26,3,4,1.0,0.8
2026-02-26T0800,1054A,115.4484,38.8344,保定市,地表水厂,细颗粒物(PM2.5),112,133,114,84,57,4,,3,3,42,26,5,5,0.7,0.5
2026-02-26T0800,3581A,115.3136,38.9511,保定市,满城区生态环境分局,细颗粒物(PM2.5),113,139,147,85,82,10,,6,6,31,36,5,7,0.4,0.5
2026-02-26T0800,3582A,115.4709,38.7628,保定市,清苑区第二中学,细颗粒物(PM2.5),110,139,120,83,61,2,,1,1,49,29,8,8,0.8,0.5
2026-02-26T0800,3583A,115.6231,39.0223,保定市,徐水物探局,细颗粒物(PM2.5),133,157,138,101,78,3,,0,0,35,32,6,7,0.8,0.6
2026-02-26T0800,4004A,115.4199,38.8665,保定市,双鹰农机,细颗粒物(PM2.5),117,152,127,88,71,11,,8,8,42,31,4,4,0.9,0.7
2026-02-26T0800,4034A,115.515,38.8589,保定市,植保所站,细颗粒物(PM2.5),120,147,113,91,63,0,,0,0,46,30,3,3,1.1,0.8
2026-02-26T0800,2594A,99.1589,25.1137,保山市,市环境监测站,细颗粒物(PM2.5),73,59,58,53,43,39,,65,65,22,12,7,7,0.6,0.5
2026-02-26T0800,2595A,99.1616,25.1381,保山市,市环保局,细颗粒物(PM2.5),74,63,59,54,41,63,,90,90,11,7,3,4,0.6,0.5
2026-02-26T0800,1867A,109.1435,21.4085,北海市,海滩公园,,25,25,58,10,15,52,,53,53,6,8,3,3,0.6,0.8
2026-02-26T0800,1868A,109.0983,21.466,北海市,新市环保局,,33,,48,23,17,57,,59,59,7,8,4,5,0.7,0.8
2026-02-26T0800,1869A,109.1775,21.5232,北海市,北海工业园,,33,33,61,11,22,50,,51,51,4,7,6,6,0.5,0.6
2026-02-26T0800,3400A,109.1844,21.4396,北海市,龙潭自来水厂,,30,30,50,10,19,49,,50,50,3,4,4,5,0.9,1
2026-02-26T0800,1001A,116.3611,39.8786,北京市,万寿西宫,细颗粒物(PM2.5),113,140,139,85,89,14,,13,13,36,38,2,2,0.8,1.1
2026-02-26T0800,1003A,116.4174,39.9289,北京市,东四,细颗粒物(PM2.5),104,136,141,78,82,17,,11,11,36,43,5,6,0.6,0.9
2026-02-26T0800,1004A,116.4073,39.8858,北京市,天坛,细颗粒物(PM2.5),104,135,142,78,88,22,,15,15,32,43,2,3,0.8,1.2
2026-02-26T0800,1005A,116.4622,39.9364,北京市,农展馆,细颗粒物(PM2.5),102,128,140,76,86,23,,12,12,24,33,5,6,1.1,1.4
2026-02-26T0800,1006A,116.3399,39.9293,北京市,官园,细颗粒物(PM2.5),107,133,145,80,86,8,,9,9,41,40,5,4,0.9,1.1
2026-02-26T0800,1007A,116.2879,39.9613,北京市,海淀万柳,细颗粒物(PM2.5),114,142,153,86,91,2,,4,4,53,46,3,3,0.9,1.1
2026-02-26T0800,1008A,116.6635,40.1349,北京市,顺义新城,细颗粒物(PM2.5),74,90,142,54,85,48,,24,24,12,28,5,5,0.5,0.9
2026-02-26T0800,1009A,116.6275,40.327,北京市,怀柔镇,细颗粒物(PM2.5),80,92,142,59,83,20,,14,14,34,29,5,5,0.8,1
2026-02-26T0800,1010A,116.2295,40.217,北京市,昌平镇,颗粒物(PM10),58,66,160,36,87,43,,14,14,18,36,3,3,0.6,1.2
2026-02-26T0800,1011A,116.3968,39.982,北京市,奥体中心,细颗粒物(PM2.5),114,154,153,86,88,7,,3,3,45,45,5,5,1.1,1.3
2026-02-26T0800,3418A,116.8336,40.4095,北京市,密云新城,,47,47,136,26,77,56,,36,36,10,22,3,3,0.3,0.7
2026-02-26T0800,3671A,116.0879,39.9725,北京市,门头沟三家店,细颗粒物(PM2.5),110,153,174,83,87,12,,11,11,33,34,4,4,0.8,1.1
2026-02-26T0800,3672A,116.1507,39.8246,北京市,丰台云岗,细颗粒物(PM2.5),103,134,147,77,85,24,,17,17,29,37,4,4,0.9,1.1
2026-02-26T0800,3674A,115.9578,39.7602,北京市,房山燕山,细颗粒物(PM2.5),65,74,132,47,82,60,,31,31,12,35,4,4,0.5,1
2026-02-26T0800,3675A,116.4669,39.7734,北京市,大兴旧宫,细颗粒物(PM2.5),99,123,139,74,88,24,,8,8,26,46,4,5,0.7,1.1
2026-02-26T0800,3694A,115.9859,40.4562,北京市,延庆石河营,细颗粒物(PM2.5),93,118,132,69,79,3,,10,10,31,24,2,2,0.9,0.8
2026-02-26T0800,3695A,116.6151,40.3052,北京市,怀柔新城,细颗粒物(PM2.5),100,114,144,75,88,19,,18,18,20,23,3,3,0.7,0.9
2026-02-26T0800,3696A,116.2542,39.8764,北京市,丰台小屯,细颗粒物(PM2.5),100,126,151,75,89,10,,12,12,49,46,4,4,0.8,1.1
2026-02-26T0800,3697A,116.8399,40.3843,北京市,密云镇,颗粒物(PM10),51,51,132,31,80,54,,29,29,9,25,5,4,0.5,0.9
2026-02-26T0800,4057A,115.9423,40.4431,北京市,延庆百泉,细颗粒物(PM2.5),104,139,146,78,77,0,,7,7,35,24,3,2,0.8,0.7
2026-02-26T0800,4058A,116.6598,39.9164,北京市,通州新华,细颗粒物(PM2.5),92,110,140,68,86,27,,8,8,27,43,2,3,0.7,1.1
2026-02-26T0800,4182A,116.1942,39.9158,北京市,石景山八角,细颗粒物(PM2.5),105,142,160,79,81,5,,10,10,46,36,4,5,0.8,0.9
2026-02-26T0800,4194A,117.078628,40.151726,北京市,平谷新城,细颗粒物(PM2.5),99,107,113,74,72,12,,22,22,22,15,4,6,1.1,1
2026-02-26T0800,1761A,123.8274146,41.31234549,本溪市,大峪,颗粒物(PM10),101,151,124,56,42,42,,43,43,28,19,10,9,1.2,0.9
2026-02-26T0800,1763A,123.7169,41.3094,本溪市,彩屯,颗粒物(PM10),83,115,111,46,49,40,,46,46,24,25,9,16,1.0,2.1
2026-02-26T0800,1764A,123.7672166,41.28649327,本溪市,东明,细颗粒物(PM2.5),93,131,125,69,44,38,,51,51,28,16,10,8,1.3,0.8
2026-02-26T0800,1765A,123.799345,41.266614,本溪市,新立屯,细颗粒物(PM2.5),97,122,116,72,43,47,,45,45,24,18,7,7,1.2,0.7
2026-02-26T0800,1766A,123.829144,41.336777,本溪市,威宁,颗粒物(PM10),94,137,124,46,44,31,,33,33,33,21,6,7,0.9,0.8
2026-02-26T0800,2587A,105.287,27.3133,毕节市,八中,颗粒物(PM10),54,58,52,33,40,72,,84,84,9,12,9,11,0.7,0.7
2026-02-26T0800,2588A,105.3079,27.2987,毕节市,师专,颗粒物(PM10),55,59,52,32,37,80,,86,86,9,11,9,11,0.6,0.6
2026-02-26T0800,4263A,105.3688,27.3598,毕节市,工业大道,"颗粒物(PM10),细颗粒物(PM2.5)",59,68,57,42,39,81,,88,88,9,10,10,12,/,/
2026-02-26T0800,1629A,117.9961,37.3604,滨州市,第二水厂,颗粒物(PM10),85,119,111,48,52,24,,35,35,25,21,9,12,1.1,1.1
2026-02-26T0800,1630A,117.9789,37.3931,滨州市,北中新校,颗粒物(PM10),81,112,110,47,52,21,,31,31,28,26,8,9,0.5,0.6
2026-02-26T0800,3514A,117.9379,37.3959,滨州市,中海酒店,颗粒物(PM10),82,114,115,49,55,27,,41,41,29,25,8,11,0.8,0.8
2026-02-26T0800,3515A,117.9381509,37.35547456,滨州市,开发区一中,颗粒物(PM10),87,124,122,49,52,26,,39,39,22,16,12,15,0.6,0.6
2026-02-26T0800,3516A,118.0914,37.6938,滨州市,金海六路,颗粒物(PM10),103,156,113,46,54,40,,43,43,17,19,5,10,0.6,0.7
2026-02-26T0800,4028A,117.9955,37.3752,滨州市,滨州市西街道办事处,颗粒物(PM10),87,124,115,56,55,28,,37,37,20,16,8,11,0.4,0.4
2026-02-26T0800,2311A,115.8071,33.8399,亳州市,污水处理厂,,43,39,52,30,25,51,,51,51,11,11,2,3,0.2,0.2
2026-02-26T0800,2312A,115.7789,33.8519,亳州市,三国揽胜宫,细颗粒物(PM2.5),54,,59,38,30,49,,50,50,8,7,4,4,0.3,0.2
2026-02-26T0800,3332A,115.7631,33.803,亳州市,亳州学院,,41,41,51,28,25,55,,55,55,10,10,3,3,0.2,0.2
2026-02-26T0800,2693A,82.0482,44.8553,博尔塔拉蒙古自治州,市党校,颗粒物(PM10),51,51,54,19,13,76,,74,74,10,12,2,3,0.3,0.2
2026-02-26T0800,2694A,82.0805,44.8966,博尔塔拉蒙古自治州,市环保局,,28,28,32,14,10,75,,74,74,7,8,3,3,0.4,0.5
2026-02-26T0800,1071A,116.8733,38.2922,沧州市,沧县城建局,细颗粒物(PM2.5),80,69,80,59,48,39,,23,23,17,24,5,6,0.5,0.4
2026-02-26T0800,1072A,116.8462,38.3189,沧州市,电视转播站,细颗粒物(PM2.5),88,83,79,65,52,29,,16,16,25,26,2,2,0.4,0.4
2026-02-26T0800,1073A,116.8588,38.3161,沧州市,市环保局,颗粒物(PM10),71,92,88,49,46,27,,16,16,23,24,2,3,0.5,0.4
2026-02-26T0800,3324A,116.8011,38.294,沧州市,河北水利电力学院,细颗粒物(PM2.5),73,73,81,53,49,39,,29,29,18,21,5,6,0.4,0.4
2026-02-26T0800,2622A,97.1813,31.1289,昌都市,昌都监测站,,22,12,16,3,6,70,,78,78,3,4,3,4,0.5,0.6
2026-02-26T0800,3719A,97.1707,31.1428,昌都市,昌都会议中心,,23,7,11,7,8,71,,80,80,1,2,7,6,0.4,0.4
2026-02-26T0800,2692A,87.2722,44.0298,昌吉回族自治州,新区政务中心,细颗粒物(PM2.5),74,74,74,54,37,61,,48,48,16,22,4,5,0.7,0.7
2026-02-26T0800,3613A,87.3069,44.0093,昌吉回族自治州,亚心广场,细颗粒物(PM2.5),102,105,86,76,45,35,,43,43,26,19,8,8,0.5,0.5
2026-02-26T0800,4164A,87.2057,43.9289,昌吉回族自治州,财政所,细颗粒物(PM2.5),75,75,75,55,36,50,,47,47,13,11,6,6,0.7,0.6
2026-02-26T0800,1120A,125.2874,43.9024,长春市,客车厂,,,37,138,12,38,,,66,66,12,11,,8,0.4,0.5
2026-02-26T0800,1121A,125.2943,43.8508,长春市,邮电学院,,30,30,136,13,40,53,,65,65,16,11,10,8,0.3,0.5
2026-02-26T0800,1122A,125.3648,43.8745,长春市,劳动公园,,32,32,129,9,38,59,,66,66,11,11,7,7,0.4,0.4
2026-02-26T0800,1123A,125.3233,43.8781,长春市,园林处,,27,27,127,10,41,57,,65,65,11,10,6,6,0.0,0.3
2026-02-26T0800,1124A,125.4604,43.7904,长春市,净月潭,,26,26,105,10,37,60,,67,67,10,9,7,7,0.3,0.4
2026-02-26T0800,1126A,125.38,43.8422,长春市,经开区环卫处,,28,28,119,9,36,58,,66,66,10,9,5,5,0.5,0.6
2026-02-26T0800,1127A,125.234,43.7761,长春市,高新区管委会,,30,30,125,13,36,49,,63,63,23,11,10,7,0.4,0.5
2026-02-26T0800,1128A,125.1695,43.83,长春市,岱山公园,,29,29,135,19,43,59,,69,69,11,9,5,5,0.5,0.6
2026-02-26T0800,4281A,125.334645,43.916281,长春市,北亚泰大街1068号,,17,14,140,9,41,54,,62,62,11,13,8,7,0.4,0.5
2026-02-26T0800,1335A,113.082,28.2421,长沙市,经开区环保局,,33,28,33,23,20,5,,5,5,17,17,2,3,0.6,0.6
2026-02-26T0800,1336A,112.8873,28.2202,长沙市,高开区环保局,,42,29,39,29,32,14,,5,5,12,18,4,4,1.0,1
2026-02-26T0800,1337A,113.0785,28.2012,长沙市,马坡岭,,40,30,34,28,24,2,,3,3,19,14,4,4,0.9,0.8
2026-02-26T0800,1338A,112.9448,28.1894,长沙市,湖南师范大学,,36,36,38,22,24,12,,7,7,11,14,4,4,0.9,0.9
2026-02-26T0800,1339A,113.0177,28.1322,长沙市,雨花区环保局,,35,28,32,24,21,6,,7,7,24,20,7,7,0.9,0.8
2026-02-26T0800,1340A,112.9795,28.2593,长沙市,伍家岭,,40,34,42,28,29,8,,3,3,10,11,4,5,0.8,0.8
2026-02-26T0800,1341A,113.002,28.1944,长沙市,火车新站,,38,28,37,26,25,12,,6,6,15,19,2,2,0.8,0.8
2026-02-26T0800,1342A,112.9846,28.1177,长沙市,天心区环保局,,35,33,35,24,24,9,,14,14,18,17,5,5,0.6,0.6
2026-02-26T0800,1343A,112.8906,28.1307,长沙市,湖南中医药大学,,43,33,40,30,26,12,,4,4,14,20,5,5,0.8,0.8
2026-02-26T0800,1727A,113.1146,36.1547,长治市,清华站,,49,,42,34,28,42,,44,44,11,10,6,6,0.9,0.7
2026-02-26T0800,1730A,113.0887,36.2126,长治市,审计局,细颗粒物(PM2.5),64,,41,46,33,44,,43,43,8,8,7,7,0.8,0.6
2026-02-26T0800,1731A,113.0845,36.1856,长治市,长治八中,细颗粒物(PM2.5),57,,51,40,37,45,,41,41,6,7,8,8,0.9,0.7
2026-02-26T0800,2845A,113.1561,36.1912,长治市,德盛苑,,46,36,42,32,30,38,,44,44,15,11,6,6,0.9,0.7
2026-02-26T0800,3568A,113.0603,36.0464,长治市,向阳小学,颗粒物(PM10),51,52,64,33,31,27,,38,38,20,12,9,9,1.1,0.6
2026-02-26T0800,3569A,112.8788,36.315,长治市,屯留一中,细颗粒物(PM2.5),104,86,58,78,39,16,,28,28,28,14,7,6,1.4,0.3
2026-02-26T0800,4189A,113.113092,36.199482,长治市,英华南巷50号,细颗粒物(PM2.5),57,,46,40,31,44,,44,44,10,12,5,5,1.0,0.7
2026-02-26T0800,4190A,113.23666,36.33435,长治市,学府街1号,细颗粒物(PM2.5),58,43,50,41,34,31,,41,41,20,15,3,4,0.9,0.7
2026-02-26T0800,1854A,111.696,28.9725,常德市,市二中,,12,10,43,6,30,38,,43,43,7,8,5,6,0.9,0.8
2026-02-26T0800,3138A,111.7152,29.0288,常德市,武陵区永安,,13,,39,7,29,40,,44,44,10,10,4,4,0.7,0.7
2026-02-26T0800,3139A,111.6891,28.9881,常德市,鼎城区玉霞,,13,,37,6,28,41,,46,46,12,11,5,6,0.9,0.8
2026-02-26T0800,3140A,111.6651,29.0526,常德市,武陵区长庚,,15,15,37,8,31,38,,39,39,8,8,5,5,0.8,0.8
2026-02-26T0800,1196A,119.9524,31.7586,常州市,市监测站,颗粒物(PM10),51,52,61,22,29,53,,61,61,22,20,11,10,0.6,0.6
2026-02-26T0800,1200A,119.9351,31.703,常州市,武进监测站,,41,41,52,19,26,58,,69,69,12,13,7,8,0.6,0.7
2026-02-26T0800,3002A,119.9701,31.813,常州市,行政中心,,35,34,57,24,29,44,,53,53,27,19,4,4,0.5,0.5
2026-02-26T0800,3003A,120.0434,31.7726,常州市,经开区,颗粒物(PM10),53,55,66,24,28,41,,54,54,32,20,8,9,0.7,0.7
2026-02-26T0800,3010A,119.8919,31.7892,常州市,钟楼,,48,48,57,24,31,54,,67,67,22,18,6,6,0.6,0.6
2026-02-26T0800,3429A,119.8595,31.706,常州市,武进经发区,,39,39,52,26,31,59,,67,67,11,13,5,5,0.7,0.8
2026-02-26T0800,3430A,119.5812,31.7256,常州市,金坛城区,,43,36,53,30,36,59,,67,67,11,12,6,6,0.5,0.6
2026-02-26T0800,4089A,119.9551,31.863,常州市,崇义南街5-H号,,33,29,48,23,31,43,,46,46,22,16,4,4,0.4,0.5
2026-02-26T0800,2220A,120.4318,41.588,朝阳市,西梁,颗粒物(PM10),51,52,95,3,47,71,,61,61,9,15,7,9,0.7,1.1
2026-02-26T0800,2221A,120.452,41.565,朝阳市,河畔小区,,49,49,89,3,39,85,,71,71,5,12,8,8,0.5,0.7
2026-02-26T0800,2222A,120.4176,41.5648,朝阳市,八里堡,,,69,94,3,44,,,,,10,19,7,8,0.3,0.8
2026-02-26T0800,3026A,116.6179,23.6608,潮州市,市政府,,30,28,32,21,21,43,,55,55,10,6,4,4,0.4,0.4
2026-02-26T0800,4036A,116.646,23.676,潮州市,金山,,32,,30,22,20,42,,58,58,13,8,3,3,0.6,0.6
2026-02-26T0800,2473A,113.0116,25.8228,郴州市,市职中,,27,27,39,16,33,0,,0,0,19,14,4,4,0.7,0.6
2026-02-26T0800,2475A,113.0381,25.8074,郴州市,市审计局,,27,27,39,16,29,0,,0,0,18,14,3,5,/,/
2026-02-26T0800,2476A,113.0348,25.7757,郴州市,市环保局,,36,36,48,13,30,5,,2,2,18,17,4,6,0.6,0.5
2026-02-26T0800,4252A,113.0138,25.8011,郴州市,好美居路49号,,45,,35,31,31,6,,5,5,19,16,4,5,/,/
2026-02-26T0800,1431A,103.9727,30.7242,成都市,金泉两河,"颗粒物(PM10),细颗粒物(PM2.5)",53,55,67,37,33,12,,32,32,30,16,2,4,0.6,0.4
2026-02-26T0800,1432A,104.1423,30.6765,成都市,十里店,,41,41,59,28,32,26,,48,48,33,15,4,5,0.6,0.5
2026-02-26T0800,1433A,104.0594,30.5765,成都市,三瓦窑,颗粒物(PM10),52,53,59,33,31,16,,51,51,38,15,2,3,0.5,0.3
2026-02-26T0800,1434A,104.1122,30.6306,成都市,沙河铺,,49,49,60,30,32,24,,42,42,33,26,4,4,0.6,0.5
2026-02-26T0800,2880A,104.0219,30.6561,成都市,大石西路,颗粒物(PM10),51,52,67,28,36,22,,40,40,29,19,6,6,0.6,0.4
2026-02-26T0800,3136A,104.2724,30.559,成都市,龙泉驿区区政府,,38,27,46,26,33,40,,53,53,14,11,7,7,0.5,0.4
2026-02-26T0800,3357A,104.0028,30.6891,成都市,金博路,,45,45,58,22,27,6,,33,33,52,24,6,7,0.7,0.5
2026-02-26T0800,3359A,104.056,30.5228,成都市,华阳,,46,44,59,32,31,21,,50,50,34,21,2,3,0.5,0.4
2026-02-26T0800,3488A,104.387954,30.746684,成都市,青石路225号,,42,42,54,26,34,26,,25,25,31,20,4,4,0.7,0.5
2026-02-26T0800,3489A,104.0788,30.4054,成都市,科学城,,,49,63,32,34,33,,50,50,,15,7,8,0.6,0.5
2026-02-26T0800,4011A,103.8505,30.6946,成都市,光华大道三段,颗粒物(PM10),66,81,70,37,34,16,,48,48,40,18,4,5,0.5,0.3
2026-02-26T0800,4144A,104.3257,30.6406,成都市,八角井街185号,,47,47,56,20,32,35,,45,45,15,11,5,5,0.5,0.4
2026-02-26T0800,4224A,104.2433276,30.53529463,成都市,鲸龙路1057号,,42,42,60,24,31,25,,40,40,28,17,5,6,0.7,0.6
2026-02-26T0800,1062A,117.9531,40.908,承德市,铁路,细颗粒物(PM2.5),85,105,111,63,62,6,,15,15,41,30,3,6,1.1,0.8
2026-02-26T0800,1063A,117.9397,40.9763,承德市,中国银行,"颗粒物(PM10),细颗粒物(PM2.5)",70,89,108,51,57,14,,21,21,33,24,3,3,0.8,0.7
2026-02-26T0800,4073A,117.9462,40.95,承德市,杏林街1号,,,82,107,47,59,,,33,33,21,20,3,6,0.6,0.8
2026-02-26T0800,4274A,117.7994,40.9605,承德市,滨河大街98号,细颗粒物(PM2.5),63,61,96,45,61,27,,18,18,28,27,4,7,0.4,0.7
2026-02-26T0800,2314A,117.4698,30.6617,池州市,池州学院,,19,16,37,13,23,21,,26,26,21,19,3,4,0.8,0.8
2026-02-26T0800,3237A,117.4918,30.6617,池州市,展览馆,,23,21,41,16,28,20,,29,29,19,16,2,2,0.7,0.7
2026-02-26T0800,3333A,117.5626,30.695,池州市,第八中学,,23,23,34,16,19,22,,31,31,22,18,3,3,0.5,0.5
2026-02-26T0800,3334A,117.5037,30.6242,池州市,第十二中学,,18,16,34,12,20,19,,28,28,15,11,4,4,0.9,0.9
2026-02-26T0800,1744A,118.9229,42.2816,赤峰市,松山一中,,48,48,86,3,42,46,,53,53,20,20,3,8,0.7,0.8
2026-02-26T0800,1745A,118.9588,42.2733,赤峰市,哈达街,颗粒物(PM10),53,55,83,10,42,52,,58,58,18,17,8,14,0.7,0.8
2026-02-26T0800,1746A,118.8792,42.2551,赤峰市,天义路,,37,37,69,18,44,60,,63,63,10,11,5,8,0.4,0.5
2026-02-26T0800,3058A,119.2656,42.0356,赤峰市,银河街,颗粒物(PM10),54,57,95,20,44,66,,71,71,4,6,9,8,0.4,0.6
2026-02-26T0800,3286A,118.9359,42.3146,赤峰市,桥北物流园区,,41,41,75,10,41,70,,70,70,3,13,4,4,0.5,0.8
2026-02-26T0800,2521A,107.3473,22.4137,崇左市,市环保局江州分局,,49,37,52,34,40,5,,4,4,15,17,7,4,0.7,0.7
2026-02-26T0800,4256A,107.375,22.3736,崇左市,石景林东路7号,,40,33,41,28,34,11,,8,8,13,15,2,3,0.7,0.7
2026-02-26T0800,3207A,118.31131,32.3033,滁州市,市政府原办公楼,细颗粒物(PM2.5),69,56,61,50,48,22,,31,31,22,19,4,4,0.4,0.5
2026-02-26T0800,3331A,118.3268,32.2633,滁州市,图书馆,细颗粒物(PM2.5),53,50,53,37,37,30,,39,39,21,15,8,7,0.4,0.4
2026-02-26T0800,4101A,118.3196,32.3335,滁州市,银山路666号,细颗粒物(PM2.5),65,,55,47,43,32,,37,37,15,14,5,5,0.5,0.6
2026-02-26T0800,4102A,118.3426,32.2979,滁州市,黄山路555号,细颗粒物(PM2.5),68,67,71,49,44,30,,37,37,15,12,6,6,0.5,0.6
2026-02-26T0800,2606A,101.5379,25.0492,楚雄彝族自治州,市经济开发区,颗粒物(PM10),51,52,57,33,37,37,,55,55,22,13,4,4,0.6,0.6
2026-02-26T0800,4153A,101.5536,25.0343,楚雄彝族自治州,团结路562号,,50,45,44,35,36,44,,69,69,20,10,5,5,0.6,0.6
2026-02-26T0800,2549A,107.5087,31.2186,达州市,市环境监测站,,14,8,40,3,20,13,,30,30,28,28,6,8,0.1,0.2
2026-02-26T0800,2550A,107.4988,31.2132,达州市,凤凰小区,,22,22,39,3,20,13,,32,32,33,31,7,8,0.3,0.4
2026-02-26T0800,2551A,107.5081,31.1987,达州市,达县机关宾馆,,34,34,38,3,17,3,,14,14,43,35,6,6,0.7,0.6
2026-02-26T0800,2552A,107.4644,31.2124,达州市,市政中心,,29,29,46,3,19,12,,26,26,33,36,6,7,0.4,0.7
2026-02-26T0800,2614A,100.2168,25.5818,大理白族自治州,大理市环境监测站,细颗粒物(PM2.5),69,54,50,50,42,100,,107,107,10,9,7,7,0.9,0.9
2026-02-26T0800,2615A,100.1542,25.7055,大理白族自治州,大理古城,细颗粒物(PM2.5),67,53,44,48,36,96,,104,104,9,8,10,9,0.9,0.8
2026-02-26T0800,1109A,121.6119,38.974,大连市,甘井子,颗粒物(PM10),71,92,69,40,25,68,,71,71,20,18,7,7,0.7,0.5
2026-02-26T0800,1110A,121.565,38.9509,大连市,周水子,颗粒物(PM10),69,88,70,40,26,60,,66,66,26,16,13,11,0.6,0.4
2026-02-26T0800,1111A,121.5637,38.8849,大连市,星海三站,颗粒物(PM10),62,74,58,35,22,70,,62,62,12,12,4,4,0.7,0.6
2026-02-26T0800,1112A,121.6301,38.9117,大连市,青泥洼桥,颗粒物(PM10),69,88,71,31,22,76,,67,67,18,16,8,8,0.7,0.6
2026-02-26T0800,1113A,121.6248,38.8643,大连市,傅家庄,颗粒物(PM10),72,93,72,33,22,77,,74,74,14,15,9,8,0.4,0.3
2026-02-26T0800,1114A,121.5117,38.8636,大连市,七贤岭,颗粒物(PM10),68,85,67,34,26,64,,65,65,21,17,6,6,0.7,0.5
2026-02-26T0800,1116A,121.7507,39.1339,大连市,金州,颗粒物(PM10),67,84,73,38,27,77,,66,66,10,12,11,11,0.6,0.4
2026-02-26T0800,1117A,121.7811,39.0495,大连市,开发区,颗粒物(PM10),66,81,62,40,24,58,,67,67,28,18,4,3,0.8,0.5
2026-02-26T0800,1118A,121.9762,39.0631,大连市,双D港,颗粒物(PM10),67,83,58,28,18,67,,68,68,14,14,8,9,1.0,0.8
2026-02-26T0800,4082A,121.2548,38.8188,大连市,旅顺,颗粒物(PM10),70,90,67,40,28,59,,56,56,13,14,10,10,0.6,0.4
2026-02-26T0800,1789A,124.8085,46.0381,大庆市,大同区,,25,25,167,14,30,69,,66,66,6,8,8,9,0.4,0.5
2026-02-26T0800,1790A,125.1166,46.5255,大庆市,龙凤区,,25,25,119,3,32,51,,67,67,30,17,3,5,0.2,0.2
2026-02-26T0800,1791A,124.8894,46.4007,大庆市,红岗区,,30,30,118,3,34,43,,51,51,19,12,6,6,0.8,0.8
2026-02-26T0800,1792A,125.1391,46.578,大庆市,萨尔图区,,26,26,140,7,33,51,,65,65,27,14,6,6,0.6,0.6
2026-02-26T0800,1793A,124.9026,46.6217,大庆市,让胡路区,,18,18,93,3,36,54,,62,62,14,11,7,6,0.4,0.5
2026-02-26T0800,3481A,125.127,46.6277,大庆市,萨区政府监测点,,25,25,124,3,33,51,,62,62,17,7,9,9,0.3,0.4
2026-02-26T0800,1723A,113.2926,40.0759,大同市,云冈宾馆,,34,34,77,9,31,42,,57,57,17,17,14,9,0.7,0.6
2026-02-26T0800,1724A,113.3437,40.0921,大同市,大同大学,,35,35,88,12,32,51,,60,60,15,18,3,5,0.5,0.7
2026-02-26T0800,1725A,113.2637,40.129,大同市,安家小村,颗粒物(PM10),55,59,85,9,28,30,,58,58,28,14,13,15,0.6,0.5
2026-02-26T0800,3282A,113.3399,40.0586,大同市,大同市卫生学校,,34,34,91,7,28,49,,65,65,18,16,7,7,0.9,0.7
2026-02-26T0800,3565A,113.1371,40.1122,大同市,云冈站,,29,29,68,9,23,22,,50,50,36,13,19,11,0.7,0.6
2026-02-26T0800,3566A,113.1186,40.2556,大同市,图书馆,,24,24,74,14,21,43,,58,58,8,9,6,8,0.7,0.5
2026-02-26T0800,3567A,113.5931,40.0459,大同市,区一中,,47,47,103,12,42,71,,73,73,7,11,7,12,0,0.1
2026-02-26T0800,4199A,113.2798248,40.09972476,大同市,魏都大道141号,,42,42,96,19,29,38,,58,58,25,17,13,11,0.8,0.6
2026-02-26T0800,2269A,124.1068,50.4091,大兴安岭地区,科技局,,19,19,21,12,9,60,,62,62,3,5,3,4,0.3,0.3
2026-02-26T0800,3663A,124.117,50.4279,大兴安岭地区,红旗社区,,20,12,12,3,8,64,,69,69,4,5,4,5,0.2,0.2
2026-02-26T0800,1600A,124.33,40.0625,丹东市,江湾东路,细颗粒物(PM2.5),127,155,122,96,67,27,,29,29,37,27,34,16,2.4,1.2
2026-02-26T0800,1601A,124.4242,40.1513,丹东市,临江后街,细颗粒物(PM2.5),125,143,117,95,64,27,,30,30,37,27,17,15,1.0,0.9
2026-02-26T0800,1602A,124.3935,40.1461,丹东市,元宝山,细颗粒物(PM2.5),127,160,109,96,60,27,,26,26,36,24,20,13,0.9,0.8
2026-02-26T0800,1603A,124.3634,40.1093,丹东市,民主桥,细颗粒物(PM2.5),114,150,134,86,75,26,,26,26,41,28,17,15,0.8,0.9
2026-02-26T0800,3541A,109.5726195,19.51688767,儋州市,第一中学子站,,35,35,30,17,16,42,,43,43,1,2,4,5,0.5,0.5
2026-02-26T0800,3542A,109.5567,19.5187,儋州市,东坡学校子站,,38,38,30,18,15,44,,47,47,2,3,4,5,0.4,0.4
2026-02-26T0800,2616A,98.5611,24.4273,德宏傣族景颇族自治州,德宏州监测站,细颗粒物(PM2.5),83,,87,61,80,22,,18,18,14,30,6,7,0.8,1
2026-02-26T0800,3677A,98.5887,24.4366,德宏傣族景颇族自治州,芒市人民政府综合楼,细颗粒物(PM2.5),82,78,102,60,75,17,,15,15,13,26,4,5,0.7,0.9
2026-02-26T0800,1901A,104.424,31.1209,德阳市,东山公园,,39,39,45,23,30,53,,47,47,8,9,3,3,0.6,0.5
2026-02-26T0800,1902A,104.3827,31.1318,德阳市,西小区,颗粒物(PM10),57,63,63,39,37,13,,30,30,34,17,4,4,0.9,0.7
2026-02-26T0800,1904A,104.3553,31.1091,德阳市,耐火材料厂,细颗粒物(PM2.5),64,69,56,46,36,5,,24,24,43,20,3,3,0.9,0.7
2026-02-26T0800,4145A,104.4144,31.1495,德阳市,市林业局,,48,48,51,30,32,17,,26,26,27,13,7,7,0.7,0.6
2026-02-26T0800,1622A,116.3034,37.4675,德州市,儿童乐园,,,83,85,67,44,22,,39,39,,17,10,11,0.8,0.6
2026-02-26T0800,1624A,116.2992,37.4449,德州市,监理站,细颗粒物(PM2.5),84,92,89,62,46,31,,50,50,27,19,16,14,1.0,0.8
2026-02-26T0800,3066A,116.2722,37.438,德州市,九衢泉纯净水厂,细颗粒物(PM2.5),85,80,78,63,43,28,,43,43,26,22,4,5,0.8,0.7
2026-02-26T0800,3371A,116.3693,37.44,德州市,开发区人民医院,细颗粒物(PM2.5),83,92,93,61,44,16,,31,31,32,22,11,11,0.7,0.6
2026-02-26T0800,3511A,116.5687,37.3331,德州市,陵城艺术中心,细颗粒物(PM2.5),88,78,93,65,53,29,,38,38,17,18,4,5,0.8,0.7
2026-02-26T0800,4292A,116.352738,37.420875,德州市,新河东路,细颗粒物(PM2.5),77,80,97,56,44,28,,35,35,22,23,10,12,1.0,0.8
2026-02-26T0800,2621A,99.7054,27.8319,迪庆藏族自治州,迪庆州站,,30,23,26,20,16,94,,107,107,7,6,5,5,0.5,0.5
2026-02-26T0800,3180A,99.7122,27.8129,迪庆藏族自治州,质量技术监督局,,33,17,22,15,17,104,,112,112,10,8,5,5,0.6,0.6
2026-02-26T0800,4257A,104.6092,35.5962,定西市,将台街,颗粒物(PM10),92,133,140,55,51,18,,25,25,22,15,10,12,1.1,0.6
2026-02-26T0800,4309A,104.6159,35.5701,定西市,正龙路62号,颗粒物(PM10),94,138,147,48,50,24,,35,35,10,7,8,9,0.8,0.6
2026-02-26T0800,1390A,113.7943,23.0132,东莞市,东城石井,,23,23,37,11,22,68,,68,68,15,14,5,6,0.5,0.6
2026-02-26T0800,1391A,113.7384,22.9659,东莞市,南城西平,,20,20,39,7,22,59,,58,58,15,18,6,7,0.5,0.5
2026-02-26T0800,3319A,113.7283,23.041,东莞市,万江金泰,,21,16,39,9,26,65,,63,63,11,13,5,6,0.6,0.7
2026-02-26T0800,4129A,113.8666,23.1062,东莞市,裕兴路,,23,23,36,11,19,72,,69,69,9,11,6,6,0.7,0.8
2026-02-26T0800,4130A,114.0076,22.9739,东莞市,教育路1号,,24,20,33,8,18,76,,75,75,10,9,4,5,0.5,0.5
2026-02-26T0800,4131A,113.7981,22.8124,东莞市,长怡路1号,,22,20,43,8,23,68,,68,68,13,18,8,9,0.6,0.7
2026-02-26T0800,1666A,118.6612,37.4313,东营市,市环保局,颗粒物(PM10),78,105,114,47,41,49,,48,48,20,17,10,11,0.8,0.7
2026-02-26T0800,3036A,118.6903,37.4337,东营市,开发区管委会,颗粒物(PM10),70,90,110,49,37,51,,53,53,30,23,6,10,0.8,0.8
2026-02-26T0800,3365A,118.5721,37.5654,东营市,垦利区民丰路,颗粒物(PM10),79,107,114,48,44,48,,52,52,30,23,10,10,0.8,0.7
2026-02-26T0800,3498A,118.5063,37.8606,东营市,河口城区,颗粒物(PM10),65,80,106,31,42,58,,53,53,15,20,6,8,0.9,0.9
2026-02-26T0800,3646A,118.4979,37.4623,东营市,胜利站,颗粒物(PM10),89,127,116,55,43,37,,43,43,27,22,8,9,1.1,1
2026-02-26T0800,3734A,118.5753,37.4405,东营市,理想之城,颗粒物(PM10),79,107,119,49,40,50,,50,50,20,18,6,8,0.8,0.8
2026-02-26T0800,1591A,110.0024,39.8127,鄂尔多斯市,综合楼,,,97,140,29,28,,,58,58,30,19,15,10,0.6,0.4
2026-02-26T0800,1592A,109.9485,39.8259,鄂尔多斯市,巴音孟克林场办事处,颗粒物(PM10),71,92,136,27,43,35,,49,49,31,19,9,8,0.6,0.4
2026-02-26T0800,1593A,109.7734,39.5987,鄂尔多斯市,康泽苑,颗粒物(PM10),86,122,130,31,35,34,,53,53,19,11,5,6,0.4,0.3
2026-02-26T0800,1594A,109.8121,39.5987,鄂尔多斯市,华泰汽车城,颗粒物(PM10),89,127,122,30,34,22,,43,43,29,14,5,5,0.4,0.3
2026-02-26T0800,1595A,109.9734,39.7884,鄂尔多斯市,奥林花园,颗粒物(PM10),82,114,140,39,31,31,,50,50,34,19,10,7,0.5,0.3
2026-02-26T0800,2436A,114.894,30.3989,鄂州市,市政府,,15,15,27,3,14,20,,26,26,21,16,6,10,1.0,1.1
2026-02-26T0800,2437A,114.8986,30.3714,鄂州市,赵家坝,,11,11,25,3,15,33,,31,31,6,7,10,11,0.8,0.9
2026-02-26T0800,3654A,114.8093,30.4091,鄂州市,精准医疗中心,,17,17,29,7,18,35,,29,29,4,18,7,20,0.7,1.2
2026-02-26T0800,2454A,109.4978,30.2979,恩施土家族苗族自治州,湖北民院,,24,24,28,12,16,12,,11,11,11,12,6,6,0.7,0.7
2026-02-26T0800,3549A,109.5061,30.3771,恩施土家族苗族自治州,龙凤新区,,25,21,24,17,14,10,,10,10,5,10,7,7,0.5,0.5
2026-02-26T0800,2499A,108.3411,21.6159,防城港市,沙万,颗粒物(PM10),52,54,74,24,24,8,,7,7,30,26,6,9,0.7,0.7
2026-02-26T0800,2500A,108.3515,21.7733,防城港市,防城档案局,,40,40,48,25,29,11,,7,7,12,11,4,6,0.9,0.9
2026-02-26T0800,2501A,108.3506,21.6414,防城港市,大海花园,,45,45,55,23,26,9,,6,6,23,23,6,8,0.6,0.6
2026-02-26T0800,1371A,113.1293,23.0065,佛山市,湾梁,,19,19,42,7,26,57,,50,50,11,14,/,/,/,/
2026-02-26T0800,1372A,113.1082,23.0477,佛山市,华材职中,,19,17,43,13,32,54,,50,50,12,17,6,7,0.4,0.5
2026-02-26T0800,1373A,113.1439,23.045,佛山市,南海气象局,,17,14,41,11,29,53,,45,45,13,15,/,/,/,/
2026-02-26T0800,1374A,113.2879,22.8094,佛山市,顺德苏岗,,24,24,49,10,28,61,,52,52,11,16,/,/,0.5,0.6
2026-02-26T0800,1376A,112.8384,22.8678,佛山市,高明孔堂,,18,9,40,8,27,55,,57,57,6,9,/,/,/,/
2026-02-26T0800,1377A,112.8835,23.1584,佛山市,三水监测站,,15,,34,10,25,47,,49,49,12,17,4,4,0.3,0.5
2026-02-26T0800,1378A,112.8668,23.185,佛山市,三水云东海,,22,22,37,11,24,46,,54,54,18,16,/,/,/,/
2026-02-26T0800,3625A,113.2568,22.7629,佛山市,容桂街道办,,17,17,38,10,24,50,,48,48,11,15,/,/,/,/
2026-02-26T0800,1282A,119.2681,26.0506,福州市,师大,,23,22,22,16,15,35,,51,51,16,13,3,3,0.6,0.5
2026-02-26T0800,1283A,119.2983,26.1028,福州市,五四北路,,21,21,14,14,11,31,,47,47,17,15,4,4,0.5,0.4
2026-02-26T0800,1284A,119.2648,26.0769,福州市,杨桥西路,,20,19,20,14,13,35,,50,50,15,14,3,3,/,/
2026-02-26T0800,3048A,119.5799,26.0937,福州市,九龙,,18,16,20,12,10,41,,52,52,10,9,4,4,0.8,0.5
2026-02-26T0800,3526A,119.5188,25.9666,福州市,吴航,,33,33,26,23,16,29,,49,49,23,12,5,4,0.7,0.5
2026-02-26T0800,4104A,119.3106,26.0648,福州市,路通桥巷6号,,26,23,22,18,17,30,,48,48,18,13,/,/,/,/
2026-02-26T0800,1755A,123.7974,41.8494,抚顺市,望花区,颗粒物(PM10),79,108,148,12,53,58,,56,56,12,23,10,13,0.4,0.7
2026-02-26T0800,1756A,123.9161,41.8827,抚顺市,顺城区,颗粒物(PM10),59,67,110,15,55,53,,50,50,18,26,9,11,0.4,1
2026-02-26T0800,1757A,124.0437,41.8615,抚顺市,东洲区,颗粒物(PM10),75,99,133,15,53,43,,44,44,20,20,7,11,0.6,0.9
2026-02-26T0800,1758A,123.9246,41.8638,抚顺市,新抚区,颗粒物(PM10),68,85,139,13,56,50,,48,48,17,20,7,9,0.4,0.8
2026-02-26T0800,1759A,124.0972,41.8961,抚顺市,大伙房水库,颗粒物(PM10),77,103,116,18,50,58,,52,52,10,15,10,11,0.5,0.7
2026-02-26T0800,1760A,123.708,41.8386,抚顺市,沈抚新城,颗粒物(PM10),65,80,146,8,53,61,,54,54,8,21,6,9,0.5,0.8
2026-02-26T0800,2377A,116.3544,27.9833,抚州市,市站,,30,30,27,19,20,15,,24,24,5,2,6,5,1.2,1.1
2026-02-26T0800,2378A,116.3562,27.9631,抚州市,血防站,,,38,37,18,20,8,,16,16,16,13,,17,1.1,0.9
2026-02-26T0800,2379A,116.3561,28.0007,抚州市,采茶剧团,,33,33,29,19,18,7,,16,16,13,5,18,18,1.4,1.2
2026-02-26T0800,2380A,116.3854,27.9648,抚州市,医学分院,,38,38,33,22,16,12,,17,17,13,8,5,5,1.1,1
2026-02-26T0800,2207A,121.6095,41.9978,阜新市,工业园区,,25,21,125,3,37,80,,74,74,5,11,8,9,0.2,0.5
2026-02-26T0800,2208A,121.6567,42.0188,阜新市,长青街,颗粒物(PM10),68,85,91,3,40,71,,70,70,7,14,8,8,0.6,0.6
2026-02-26T0800,2209A,121.6672,42.07,阜新市,农业园区,,22,14,109,3,41,69,,65,65,5,12,7,7,0.5,0.7
2026-02-26T0800,2211A,121.6343,42.0455,阜新市,玉龙新城,,25,13,112,3,40,78,,72,72,5,15,8,10,0.4,0.7
2026-02-26T0800,2301A,115.8276,32.8929,阜阳市,市监测站,颗粒物(PM10),51,51,54,35,30,32,,40,40,18,12,4,4,0.3,0.3
2026-02-26T0800,2303A,115.8551,32.8606,阜阳市,开发区,颗粒物(PM10),53,55,60,36,28,34,,38,38,15,13,5,5,0.3,0.3
2026-02-26T0800,2875A,115.783962,32.889217,阜阳市,阜阳职业技术学院,,43,40,49,30,29,43,,46,46,12,10,5,5,0.3,0.5
2026-02-26T0800,3468A,115.79,32.8614,阜阳市,市规划展馆,,46,46,54,32,28,38,,44,44,13,11,6,6,0.9,0.9
2026-02-26T0800,3469A,115.835101,32.918568,阜阳市,枣园社区,,,,,,,,,,,,,,,,
2026-02-26T0800,2669A,102.9097,34.9841,甘南藏族自治州,州政府,颗粒物(PM10),67,83,93,36,51,18,,23,23,26,21,2,7,0.7,0.7
2026-02-26T0800,3380A,102.8915,34.9618,甘南藏族自治州,甘肃民族师范学院,颗粒物(PM10),60,70,91,19,28,27,,27,27,20,22,7,11,0.4,0.4
2026-02-26T0800,2570A,101.96,30.048,甘孜藏族自治州,水桥子,,24,6,6,3,6,75,,82,82,14,10,7,7,0.7,0.6
2026-02-26T0800,3065A,101.9534,29.9976,甘孜藏族自治州,州环保局,,27,6,8,3,7,85,,84,84,8,8,6,6,0.3,0.3
2026-02-26T0800,2363A,114.9368,25.8663,赣州市,地委,,20,20,14,8,8,19,,23,23,13,13,3,4,0.8,0.8
2026-02-26T0800,2364A,114.946,25.8483,赣州市,气象台,,25,25,32,14,12,16,,19,19,17,14,6,6,0.5,0.5
2026-02-26T0800,2365A,114.932,25.8332,赣州市,市图书馆,,19,19,16,8,9,23,,21,21,12,13,3,4,1.1,1.1
2026-02-26T0800,2366A,114.8905,25.8472,赣州市,华坚鞋城,,19,19,18,8,10,13,,15,15,19,17,6,5,0.7,0.7
2026-02-26T0800,3109A,115.0094,25.8614,赣州市,赣县区卫计委,,15,11,17,10,8,26,,25,25,10,12,4,4,0.5,0.6
2026-02-26T0800,2684A,106.2753,36.0057,固原市,监测站,颗粒物(PM10),70,90,202,25,52,50,,48,48,22,17,8,10,0.6,0.7
2026-02-26T0800,2685A,106.2384,36.0189,固原市,新区,颗粒物(PM10),71,92,181,23,47,64,,45,45,10,19,6,7,0.6,0.6
2026-02-26T0800,2544A,106.6307,30.4577,广安市,市委,细颗粒物(PM2.5),59,50,44,42,36,20,,33,33,23,15,7,7,0.8,0.7
2026-02-26T0800,2545A,106.6266,30.4662,广安市,友谊中学,细颗粒物(PM2.5),53,45,37,37,28,20,,36,36,22,13,9,9,1.1,1
2026-02-26T0800,2547A,106.6386,30.4551,广安市,广电花园,细颗粒物(PM2.5),62,46,38,44,39,16,,29,29,22,14,7,8,0.7,0.7
2026-02-26T0800,2902A,106.6347,30.4868,广安市,北辰小学,细颗粒物(PM2.5),57,47,40,40,34,15,,34,34,21,11,12,12,0.9,0.8
2026-02-26T0800,2524A,105.8211,32.4444,广元市,老城,颗粒物(PM10),70,90,45,29,22,54,,58,58,16,16,5,6,0.6,0.6
2026-02-26T0800,2526A,105.8629,32.429,广元市,监测站,颗粒物(PM10),65,80,53,34,23,52,,60,60,14,12,5,6,0.6,0.6
2026-02-26T0800,3617A,105.8047,32.4167,广元市,经开区,颗粒物(PM10),67,83,49,31,26,44,,49,49,18,15,3,4,0.6,0.6
2026-02-26T0800,1345A,113.2346,23.1423,广州市,广雅中学,,18,18,39,9,24,52,,45,45,12,15,2,3,0.2,0.4
2026-02-26T0800,1346A,113.2611,23.105,广州市,市五中,,18,18,37,9,22,56,,51,51,14,15,6,6,/,/
2026-02-26T0800,1348A,113.3477,23.0916,广州市,广东商学院,,18,18,35,11,26,55,,41,41,14,17,5,5,0.6,0.7
2026-02-26T0800,1349A,113.4332,23.105,广州市,市八十六中,,19,15,31,7,20,60,,54,54,19,23,4,4,/,/
2026-02-26T0800,1350A,113.3506,22.9488,广州市,番禺中学,,31,31,50,9,23,52,,44,44,14,15,3,4,0.8,0.8
2026-02-26T0800,1351A,113.2147,23.3918,广州市,花都师范,,20,20,32,11,25,39,,42,42,19,16,5,6,0.7,0.8
2026-02-26T0800,1352A,113.2599,23.1329,广州市,市监测站,,19,19,41,10,26,44,,46,46,17,15,3,2,/,/
2026-02-26T0800,1353A,113.5618,23.3119,广州市,九龙镇镇龙,,16,16,36,8,23,48,,47,47,12,14,5,5,0.4,0.5
2026-02-26T0800,1354A,113.2764,23.1544,广州市,麓湖,,20,20,42,10,26,49,,47,47,14,14,3,3,0.4,0.5
2026-02-26T0800,2846A,113.3209,23.1323,广州市,体育西,,21,21,38,8,22,52,,44,44,15,17,5,6,0.6,0.7
2026-02-26T0800,3298A,113.5718,23.5493,广州市,从化街口,,16,16,37,9,26,50,,53,53,11,14,8,9,0.6,0.7
2026-02-26T0800,3299A,113.3463,23.369,广州市,白云竹料,,28,28,39,15,25,41,,45,45,18,15,3,4,0.5,0.6
2026-02-26T0800,3300A,113.2981,23.2365,广州市,白云嘉禾,,22,22,40,12,26,46,,42,42,20,19,6,7,/,/
2026-02-26T0800,3301A,113.4256,23.1716,广州市,黄埔科学城,,26,26,37,14,25,44,,48,48,21,15,4,4,0.6,0.7
2026-02-26T0800,3302A,113.3942,23.0485,广州市,番禺大学城,,33,33,74,7,22,63,,53,53,11,13,7,8,0.4,0.5
2026-02-26T0800,3303A,113.4923,22.8169,广州市,南沙黄阁,,23,23,41,11,23,58,,53,53,19,18,5,6,/,/
2026-02-26T0800,3304A,113.534,22.7893,广州市,南沙街,,24,24,41,10,23,55,,52,52,19,18,5,6,0.5,0.5
2026-02-26T0800,3443A,113.2905,23.5541,广州市,花都梯面,颗粒物(PM10),55,60,29,38,19,36,,42,42,12,10,4,5,/,/
2026-02-26T0800,3445A,113.786,23.7479,广州市,从化良口,,16,16,24,11,18,43,,29,29,9,9,4,4,/,/
2026-02-26T0800,3446A,113.805,23.2614,广州市,增城荔城,,23,23,31,12,20,61,,61,61,14,11,7,6,0.4,0.5
2026-02-26T0800,2506A,109.604387,23.066791,贵港市,江南子站,细颗粒物(PM2.5),73,83,74,53,49,4,,11,11,27,22,6,6,1.0,0.9
2026-02-26T0800,2508A,109.5669,23.1065,贵港市,荷城子站,细颗粒物(PM2.5),74,70,64,54,48,15,,23,23,28,21,7,7,1.0,0.9
2026-02-26T0800,3405A,109.5886,23.1172,贵港市,新世纪学校,细颗粒物(PM2.5),82,78,68,60,52,11,,20,20,31,23,/,/,1.0,0.8
2026-02-26T0800,4260A,109.5933,23.095,贵港市,中山路155-3号,细颗粒物(PM2.5),84,96,83,62,52,10,,16,16,26,20,/,/,1.0,0.9
2026-02-26T0800,1439A,106.6863,26.6035,贵阳市,马鞍山,细颗粒物(PM2.5),67,51,26,48,21,42,,41,41,9,9,4,5,/,/
2026-02-26T0800,1441A,106.6241,26.6266,贵阳市,鉴湖路,细颗粒物(PM2.5),55,58,36,39,21,54,,52,52,12,8,7,7,0.5,0.3
2026-02-26T0800,1442A,106.7468,26.6344,贵阳市,燕子冲,细颗粒物(PM2.5),72,70,35,52,23,58,,57,57,12,13,6,6,0.5,0.4
2026-02-26T0800,1443A,106.6556,26.4362,贵阳市,碧云窝,颗粒物(PM10),52,53,29,24,20,44,,59,59,11,6,15,8,/,/
2026-02-26T0800,1445A,106.6963,26.6063,贵阳市,红边门,细颗粒物(PM2.5),62,63,35,44,24,54,,49,49,14,14,6,8,/,/
2026-02-26T0800,1446A,106.7162383,26.56964667,贵阳市,新华路,颗粒物(PM10),58,66,39,24,21,57,,55,55,13,14,10,12,0.4,0.3
2026-02-26T0800,1447A,106.6742,26.542,贵阳市,太慈桥,细颗粒物(PM2.5),53,53,25,37,19,47,,57,57,16,11,4,4,/,/
2026-02-26T0800,4230A,106.688212,26.56952,贵阳市,花果园大街66号,细颗粒物(PM2.5),57,56,23,40,20,48,,55,55,12,10,2,2,/,/
2026-02-26T0800,4231A,106.687268,26.516892,贵阳市,漓江路57号,颗粒物(PM10),54,58,29,33,19,41,,53,53,15,9,6,7,0.6,0.5
2026-02-26T0800,1864A,110.3091,25.2705,桂林市,龙隐路小学,细颗粒物(PM2.5),70,60,59,51,39,1,,5,5,26,19,3,4,1.0,0.8
2026-02-26T0800,1865A,110.2849361,25.22909545,桂林市,八中,颗粒物(PM10),53,56,55,32,26,3,,6,6,28,24,3,3,0.9,0.8
2026-02-26T0800,3531A,110.296,25.1254,桂林市,旅游学院,细颗粒物(PM2.5),67,71,53,48,35,7,,8,8,14,14,4,4,0.8,0.8
2026-02-26T0800,4222A,110.1835,25.2444,桂林市,环湖路276号,细颗粒物(PM2.5),85,66,57,63,39,2,,2,2,26,21,50,6,1.0,0.9
2026-02-26T0800,4301A,110.2803,25.2773,桂林市,信义路13号,细颗粒物(PM2.5),67,52,58,48,34,0,,2,2,21,19,3,4,1.1,0.8
2026-02-26T0800,2674A,100.2262,34.4854,果洛藏族自治州,玛沁县大武镇,,34,34,38,10,13,43,,48,48,3,4,21,17,0.3,0.4
2026-02-26T0800,1130A,126.5557,45.8109,哈尔滨市,松北商大,,24,24,159,9,35,63,,66,66,7,6,7,8,0.5,0.6
2026-02-26T0800,1132A,126.6162,45.719,哈尔滨市,南岗学府路,,24,22,154,3,33,74,,75,75,7,10,6,9,0.1,0.2
2026-02-26T0800,1133A,126.6894,45.7733,哈尔滨市,太平宏伟公园,,23,14,168,3,38,71,,70,70,7,10,7,8,0.5,0.6
2026-02-26T0800,1134A,126.6361,45.7672,哈尔滨市,道外承德广场,颗粒物(PM10),57,63,231,12,35,67,,68,68,10,14,12,10,0.4,0.2
2026-02-26T0800,1136A,126.644,45.7261,哈尔滨市,动力和平路,,25,25,166,10,39,71,,71,71,9,10,17,10,0.7,0.8
2026-02-26T0800,1137A,126.5933,45.7479,哈尔滨市,道里建国路,,23,,146,8,37,72,,71,71,15,16,6,19,0,0.2
2026-02-26T0800,1138A,126.6127,45.6119,哈尔滨市,平房东轻厂,,42,42,120,10,41,61,,53,53,23,24,6,5,0.7,0.7
2026-02-26T0800,1139A,126.5875,45.9827,哈尔滨市,呼兰师专,,19,12,199,8,33,60,,62,62,6,11,9,8,0.3,0.5
2026-02-26T0800,1140A,126.6299,45.6799,哈尔滨市,省农科院,,22,20,170,3,38,70,,72,72,8,12,3,7,0.3,0.5
2026-02-26T0800,4282A,126.6769,45.7379,哈尔滨市,华山路1号,,24,19,182,3,31,75,,76,76,7,14,10,20,0.4,0.5
2026-02-26T0800,4283A,126.9717,45.5356,哈尔滨市,解放大街52号,,48,48,94,9,24,66,,71,71,11,8,4,11,0.6,0.6
2026-02-26T0800,2688A,93.5124,42.8176,哈密市,地区监测站,,29,27,53,20,16,56,,55,55,8,8,6,7,0.4,0.3
2026-02-26T0800,2689A,93.5014,42.8312,哈密市,哈密师范学校,,34,34,47,21,15,52,,52,52,11,11,8,8,0.4,0.6
2026-02-26T0800,2671A,100.9016,36.9464,海北藏族自治州,海晏县西海镇,,42,42,40,18,15,59,,72,72,3,2,6,7,0.4,0.3
2026-02-26T0800,3867A,102.074,36.5056,海东市,平安区公安局北苑,颗粒物(PM10),77,104,111,51,48,43,,55,55,17,9,11,18,0.8,0.8
2026-02-26T0800,4163A,102.0984,36.5119,海东市,滨河路,颗粒物(PM10),80,110,125,41,43,30,,41,41,29,22,10,21,0.8,0.7
2026-02-26T0800,1410A,110.3189,20.0596,海口市,海南大学,,34,34,40,14,17,48,,51,51,6,4,5,5,0.3,0.3
2026-02-26T0800,1411A,110.2827,20.0051,海口市,秀英海南医院,,29,29,42,16,19,34,,44,44,15,6,8,8,0.3,0.3
2026-02-26T0800,1412A,110.3391,19.9979,海口市,海南师范大学,,30,30,46,16,18,46,,52,52,6,4,5,5,0.3,0.4
2026-02-26T0800,1413A,110.3303,20.0359,海口市,龙华路环保局宿舍,,26,26,41,14,18,50,,52,52,7,6,/,/,0.2,0.3
2026-02-26T0800,3539A,110.5111,19.9737,海口市,桂林洋子站,,30,30,39,14,17,38,,43,43,6,4,/,/,/,/
2026-02-26T0800,4134A,110.1952,20.0451,海口市,长滨二路9号,,31,31,36,15,20,40,,47,47,5,6,/,/,/,/
2026-02-26T0800,2673A,100.6158,36.2985,海南藏族自治州,共和县恰卜恰镇,颗粒物(PM10),57,63,51,33,25,36,,59,59,22,8,13,11,0.4,0.3
2026-02-26T0800,2676A,97.373,37.376,海西蒙古族藏族自治州,德令哈市,颗粒物(PM10),57,64,59,28,22,71,,72,72,8,8,18,19,0.6,0.5
2026-02-26T0800,1049A,114.492,36.5712,邯郸市,矿院,,44,44,49,29,22,29,,33,33,9,8,3,3,0.4,0.3
2026-02-26T0800,1050A,114.4839,36.6136,邯郸市,丛台公园,,,51,46,32,29,,,37,37,8,6,5,4,,0.3
2026-02-26T0800,3458A,114.7893,36.5592,邯郸市,香泉濮院小区,颗粒物(PM10),55,59,56,32,31,30,,36,36,9,9,3,3,0.3,0.3
2026-02-26T0800,3580A,114.1998,36.4439,邯郸市,峰峰矿区临水派出所,颗粒物(PM10),54,58,37,31,18,29,,35,35,3,3,3,3,0.4,0.3
2026-02-26T0800,4068A,114.5209,36.7697,邯郸市,建安街268号,细颗粒物(PM2.5),63,50,50,45,30,27,,29,29,5,5,2,2,0.3,0.2
2026-02-26T0800,4069A,114.5488,36.6177,邯郸市,丛台东路558号,细颗粒物(PM2.5),69,61,47,50,33,34,,36,36,7,9,3,3,0.4,0.3
2026-02-26T0800,2635A,107.0155,33.0707,汉中市,市监测站,,22,,40,15,25,38,,38,38,11,13,4,5,0.8,0.8
2026-02-26T0800,2636A,107.0083,33.114,汉中市,鑫源开发区,,22,20,37,15,26,40,,39,39,8,11,4,4,0.5,0.6
2026-02-26T0800,2637A,107.0072,33.0323,汉中市,南郑大河坎水厂,,20,15,42,14,26,37,,36,36,10,12,5,4,0.6,0.6
2026-02-26T0800,1223A,120.2073,30.2111,杭州市,滨江,,45,45,40,26,22,38,,52,52,19,15,6,6,0.5,0.5
2026-02-26T0800,1224A,120.0625,30.2737,杭州市,西溪,,47,47,42,28,25,36,,50,50,7,10,8,8,0.6,0.5
2026-02-26T0800,1226A,120.3417,30.315,杭州市,下沙,,41,41,38,25,23,31,,48,48,30,18,8,7,0.4,0.3
2026-02-26T0800,1227A,120.1252,30.2465,杭州市,卧龙桥,,48,48,41,27,26,33,,49,49,10,11,7,7,0.4,0.4
2026-02-26T0800,1228A,120.1902,30.2691,杭州市,浙江农大,,37,37,36,22,19,38,,55,55,17,12,5,5,0.6,0.5
2026-02-26T0800,1230A,120.1195,30.3121,杭州市,和睦小学,颗粒物(PM10),53,56,46,35,26,32,,52,52,20,12,4,4,0.4,0.4
2026-02-26T0800,1231A,120.3076,30.4146,杭州市,临平镇,,40,40,35,25,21,34,,55,55,19,10,6,6,0.6,0.5
2026-02-26T0800,1232A,120.2753,30.1839,杭州市,城厢镇,,46,46,40,24,21,41,,52,52,16,14,7,8,0.6,0.6
2026-02-26T0800,1233A,120.0883,30.1808,杭州市,云栖,,50,50,43,22,22,29,,43,43,15,16,4,4,0.6,0.6
2026-02-26T0800,3557A,119.9463,30.0496,杭州市,镇二中,,48,42,28,33,24,45,,53,53,18,14,4,4,0.7,0.6
2026-02-26T0800,3558A,119.7184,30.2367,杭州市,市府大楼,,49,37,37,34,27,28,,43,43,12,11,6,6,0.5,0.5
2026-02-26T0800,3656A,120.1554,30.2863,杭州市,消防大队,,50,50,40,31,24,24,,47,47,29,14,6,6,0.7,0.6
2026-02-26T0800,1270A,117.1957,31.7845,合肥市,明珠广场,,28,22,41,19,26,28,,38,38,18,12,5,5,0.9,0.8
2026-02-26T0800,1271A,117.307,31.8765,合肥市,三里街,,43,,42,30,28,26,,37,37,22,17,5,5,0.8,0.7
2026-02-26T0800,1272A,117.2587,31.8703,合肥市,琥珀山庄,,42,31,45,29,31,32,,40,40,21,19,6,6,0.8,0.8
2026-02-26T0800,1275A,117.2593,31.9376,合肥市,庐阳区,,36,,46,25,29,32,,41,41,16,14,4,4,0.8,0.8
2026-02-26T0800,1276A,117.345251,31.861615,合肥市,瑶海区,,38,31,43,26,25,32,,42,42,25,23,5,5,0.7,0.7
2026-02-26T0800,1277A,117.3033,31.7967,合肥市,包河区,,38,27,45,26,29,16,,22,22,38,23,9,9,0.8,0.8
2026-02-26T0800,1278A,117.278,31.7392,合肥市,滨湖新区,,33,27,39,23,25,18,,37,37,27,10,4,3,0.9,0.8
2026-02-26T0800,1279A,117.1324,31.8395,合肥市,高新区,,36,29,44,25,28,34,,39,39,9,11,3,4,0.8,0.7
2026-02-26T0800,3464A,117.3802,31.9148,合肥市,高教基地,,35,27,40,24,25,37,,43,43,14,13,7,7,0.6,0.6
2026-02-26T0800,4098A,117.2518,31.8404,合肥市,中国科学技术大学,,33,27,43,23,27,33,,40,40,13,11,7,7,0.8,0.8
2026-02-26T0800,3614A,79.9241,37.0878,和田地区,地区环保局,颗粒物(PM10),500,2027,445,347,72,52,,43,43,2,14,3,2,0.2,0.4
2026-02-26T0800,3615A,79.9132,37.1137,和田地区,市环保局,颗粒物(PM10),500,1767,378,350,83,59,,38,38,9,36,2,4,0.9,1.2
2026-02-26T0800,2517A,108.0496,24.6957,河池市,市环保站,细颗粒物(PM2.5),67,48,55,48,39,9,,12,12,6,7,3,4,1.0,0.9
2026-02-26T0800,4302A,108.0901,24.6945,河池市,上任中路54号,细颗粒物(PM2.5),59,43,46,42,35,7,,9,9,17,15,5,6,0.8,0.7
2026-02-26T0800,1697A,114.6962,23.7538,河源市,东埔,,17,12,23,6,6,54,,61,61,13,10,6,5,0.7,0.7
2026-02-26T0800,1698A,114.6895,23.7232,河源市,老城,,26,26,28,14,20,57,,63,63,12,8,6,6,0.6,0.6
2026-02-26T0800,3374A,115.5562,35.089,菏泽市,定陶老年大学,细颗粒物(PM2.5),64,68,65,46,30,44,,47,47,14,13,4,4,0.4,0.3
2026-02-26T0800,4114A,115.4239,35.2593,菏泽市,黄河路600号,细颗粒物(PM2.5),77,79,76,56,34,21,,37,37,19,11,2,3,0.5,0.3
2026-02-26T0800,4115A,115.5025,35.2727,菏泽市,菏泽市人社局,细颗粒物(PM2.5),74,72,69,54,31,22,,36,36,22,15,4,4,0.6,0.4
2026-02-26T0800,4184A,115.479691,35.244011,菏泽市,永昌路1号,细颗粒物(PM2.5),69,72,73,50,32,38,,49,49,14,9,1,2,0.5,0.4
2026-02-26T0800,4193A,115.471542,35.280012,菏泽市,长城路999号,细颗粒物(PM2.5),78,70,70,57,33,26,,43,43,22,14,5,4,0.5,0.3
2026-02-26T0800,2514A,111.5264,24.4178,贺州市,环保小区,,,47,32,42,30,12,,17,17,10,9,3,3,,0.8
2026-02-26T0800,2515A,111.561,24.4074,贺州市,政协大楼,细颗粒物(PM2.5),64,,34,46,30,13,,13,13,25,21,4,5,0.7,0.6
2026-02-26T0800,3534A,111.4744,24.455,贺州市,西湾,颗粒物(PM10),53,55,41,36,26,5,,5,5,16,13,3,5,0.9,0.9
2026-02-26T0800,2385A,114.17,35.9019,鹤壁市,市监测站,,42,36,37,29,23,30,,34,34,7,8,2,3,0.5,0.5
2026-02-26T0800,2386A,114.2953,35.7512,鹤壁市,市交警支队,,41,41,43,26,27,25,,28,28,16,14,6,6,0.4,0.4
2026-02-26T0800,2387A,114.2877,35.7302,鹤壁市,迎宾馆,,,32,41,27,29,25,,30,30,14,10,1,2,,0.5
2026-02-26T0800,3474A,114.2616,35.6824,鹤壁市,大新区,,48,,40,33,39,32,,35,35,12,14,7,8,0.6,0.6
2026-02-26T0800,3596A,114.1573,35.9607,鹤壁市,南山宾馆,,49,37,30,34,26,31,,31,31,7,9,2,2,0.6,0.5
2026-02-26T0800,2244A,130.2537,47.3416,鹤岗市,哈啤分公司,,31,31,30,18,16,86,,81,81,5,9,8,10,0.5,0.4
2026-02-26T0800,2245A,130.2683,47.3087,鹤岗市,斯达机电,,29,29,37,8,15,89,,,,8,10,4,7,0.4,0.5
2026-02-26T0800,2246A,130.3114,47.3388,鹤岗市,东山纸板厂,,33,33,39,20,16,81,,73,73,6,11,6,9,0.4,0.5
2026-02-26T0800,2263A,127.4832,50.2524,黑河市,交通局,,23,20,31,16,15,69,,76,76,14,17,6,7,0.4,0.5
2026-02-26T0800,2264A,127.5146,50.2339,黑河市,环保局,,23,22,55,3,19,73,,78,78,7,11,6,9,0.3,0.4
2026-02-26T0800,1074A,115.6839,37.754,衡水市,电机北厂,颗粒物(PM10),73,95,71,49,36,32,,36,36,19,17,6,5,0.7,0.5
2026-02-26T0800,1075A,115.6303,37.7318,衡水市,市监测站,细颗粒物(PM2.5),84,85,71,62,35,30,,37,37,19,15,5,5,0.5,0.3
2026-02-26T0800,3188A,115.6684,37.7216,衡水市,市城管局,细颗粒物(PM2.5),73,80,69,53,34,33,,41,41,20,16,1,4,0.5,0.3
2026-02-26T0800,3459A,115.599,37.5491,衡水市,地表水厂,细颗粒物(PM2.5),75,73,64,55,31,27,,34,34,18,14,5,5,0.5,0.3
2026-02-26T0800,2457A,112.6209,26.9268,衡阳市,衡阳化工总厂,,39,32,46,27,34,12,,15,15,10,11,10,13,1.2,0.9
2026-02-26T0800,2458A,112.621,26.8957,衡阳市,珠晖区环保局,,46,39,44,32,30,9,,12,12,16,16,7,6,1.4,1.1
2026-02-26T0800,2459A,112.628,26.8654,衡阳市,市委党校,,45,41,41,31,30,12,,20,20,13,10,8,7,1.3,1
2026-02-26T0800,2460A,112.6007,26.8977,衡阳市,市监测站,,43,38,53,30,31,11,,15,15,16,15,8,11,1.3,1
2026-02-26T0800,2461A,112.5658,26.9013,衡阳市,真空机电公司,,38,37,47,26,37,15,,16,16,17,17,9,13,1.3,1.1
2026-02-26T0800,3399A,112.6703,26.8817,衡阳市,师范学院,,40,40,47,25,29,11,,19,19,12,10,4,5,1.3,1
2026-02-26T0800,3038A,103.3757,23.3679,红河哈尼族彝族自治州,州图书馆,,25,,18,13,19,77,,74,74,4,4,4,5,0.3,0.3
2026-02-26T0800,4154A,103.401,23.3561,红河哈尼族彝族自治州,蒙自市朝阳路,,25,14,16,9,17,78,,74,74,4,5,7,7,0.1,0.3
2026-02-26T0800,1090A,111.6506,40.7517,呼和浩特市,呼市一监,,27,27,45,16,14,60,,65,65,13,12,5,7,0.8,0.5
2026-02-26T0800,1094A,111.7516,40.8369,呼和浩特市,如意水处理厂,,27,27,33,8,9,51,,59,59,20,10,10,9,0.4,0.3
2026-02-26T0800,1095A,111.727798,40.806187,呼和浩特市,二十九中,,32,32,45,9,12,45,,57,57,20,9,11,10,0.9,0.4
2026-02-26T0800,1097A,111.717,40.7617,呼和浩特市,化肥厂生活区,,37,37,50,10,14,57,,63,63,9,11,5,5,0.4,0.4
2026-02-26T0800,3699A,111.6519,40.8389,呼和浩特市,海东办,,34,34,36,12,9,34,,59,59,30,9,3,3,0.4,0.2
2026-02-26T0800,4275A,111.591512,40.827312,呼和浩特市,成吉思汗西街8号,,24,24,37,10,8,24,,52,52,38,10,6,5,0.4,0.3
2026-02-26T0800,4276A,111.6597,40.8077,呼和浩特市,公园东路75号,,,,42,,10,,,64,64,18,12,7,6,0.9,0.5
2026-02-26T0800,4277A,111.5427,40.7846,呼和浩特市,金海路35号,,26,26,42,6,12,50,,62,62,19,9,6,6,0.6,0.5
2026-02-26T0800,3061A,119.7511,49.1576,呼伦贝尔市,国华电力东,,31,31,37,16,14,70,,62,62,12,15,5,6,0.4,0.4
2026-02-26T0800,4279A,119.7569,49.2222,呼伦贝尔市,伊敏大街东7号,,31,31,35,15,13,60,,53,53,16,13,7,6,0.5,0.3
2026-02-26T0800,1250A,120.075,30.867,湖州市,城西水厂,,40,38,37,28,24,59,,75,75,13,11,5,5,0.3,0.3
2026-02-26T0800,2873A,120.083,30.8929,湖州市,仁皇山新区,,41,41,38,23,22,52,,69,69,16,13,4,5,0.4,0.4
2026-02-26T0800,2907A,120.1846,30.8592,湖州市,吴兴区站,,41,41,38,23,22,39,,55,55,14,9,4,4,0.6,0.5
2026-02-26T0800,3562A,120.4146,30.8538,湖州市,南浔区站,,34,34,32,21,23,59,,70,70,12,11,7,7,0.5,0.5
2026-02-26T0800,1607A,120.904878,40.721091,葫芦岛市,龙港区,颗粒物(PM10),64,77,88,28,42,62,,55,55,19,14,61,11,1.5,0.7
2026-02-26T0800,1608A,120.8382,40.7521,葫芦岛市,化工街,颗粒物(PM10),59,68,109,17,53,64,,43,43,14,26,8,11,0.3,0.6
2026-02-26T0800,1609A,120.8339,40.7078,葫芦岛市,新区,,49,49,89,10,50,61,,58,58,15,18,7,9,0.5,0.7
2026-02-26T0800,1610A,120.8697,40.7679,葫芦岛市,东城区,颗粒物(PM10),51,52,92,16,54,62,,44,44,15,25,12,11,0.5,0.8
2026-02-26T0800,2483A,109.9297,27.5383,怀化市,河西地税局,,17,17,51,9,21,34,,38,38,12,10,2,2,/,/
2026-02-26T0800,2484A,109.9783,27.5342,怀化市,市四医院,,13,,57,9,24,32,,32,32,7,9,5,6,0.4,0.4
2026-02-26T0800,2485A,109.9971,27.5579,怀化市,监测楼,,16,15,53,11,29,38,,39,39,9,10,3,3,0.3,0.3
2026-02-26T0800,1210A,119.0566,33.5991,淮安市,钵池山,,36,31,74,25,30,58,,65,65,10,9,8,8,0.4,0.4
2026-02-26T0800,1211A,119.0083,33.578,淮安市,北京南路,,40,,88,28,33,51,,59,59,11,9,6,6,0.3,0.3
2026-02-26T0800,1212A,118.9938,33.6083,淮安市,市监测站,,40,,72,28,32,59,,65,65,8,7,9,9,0.3,0.3
2026-02-26T0800,1213A,119.135,33.5038,淮安市,楚州区监测站,,39,32,79,27,34,55,,63,63,11,9,5,5,0.2,0.3
2026-02-26T0800,3426A,118.8757,33.2897,淮安市,新华书店,,49,45,79,34,35,54,,55,55,9,8,5,5,0.7,0.6
2026-02-26T0800,4092A,119.119691,33.550006,淮安市,枚皋中路89号,细颗粒物(PM2.5),57,44,87,40,36,60,,67,67,11,9,9,9,0.4,0.4
2026-02-26T0800,4206A,119.028838,33.631911,淮安市,承德北路606号,,40,39,84,28,29,55,,64,64,12,6,6,6,0.3,0.3
2026-02-26T0800,2282A,116.8005,33.9749,淮北市,监测站,,42,42,76,23,34,39,,45,45,15,12,5,5,0.4,0.4
2026-02-26T0800,2283A,116.8094,33.9008,淮北市,烈山区政府,,28,,73,19,31,37,,49,49,16,12,4,4,0.3,0.3
2026-02-26T0800,4017A,116.7926,33.9534,淮北市,市博物馆,,32,32,70,21,32,36,,46,46,16,12,2,2,0.6,0.5
2026-02-26T0800,4100A,116.8322,33.9884,淮北市,杜集区第一实验学校,,38,38,71,17,32,34,,37,37,14,10,3,4,0.4,0.3
2026-02-26T0800,2277A,116.8304,32.7726,淮南市,潘集区政府,,,,62,,33,26,,31,31,,13,,5,0.6,0.3
2026-02-26T0800,2279A,116.8569,32.5949,淮南市,谢家集区政府,细颗粒物(PM2.5),59,43,46,42,32,24,,29,29,19,14,6,6,0.6,0.5
2026-02-26T0800,2280A,116.8279,32.6333,淮南市,八公山区政府,细颗粒物(PM2.5),64,49,53,46,36,26,,31,31,14,10,7,5,0.6,0.4
2026-02-26T0800,2894A,117.0561,32.6536,淮南市,经济技术开发区消防队,细颗粒物(PM2.5),65,60,63,47,36,20,,27,27,23,16,4,4,0.6,0.4
2026-02-26T0800,3329A,117.011,32.5891,淮南市,山南新区,细颗粒物(PM2.5),68,,56,49,39,25,,32,32,20,13,6,6,0.6,0.4
2026-02-26T0800,4209A,117.003137,32.644456,淮南市,国庆中路369号,细颗粒物(PM2.5),58,42,59,41,37,15,,23,23,19,11,8,8,0.6,0.4
2026-02-26T0800,2446A,114.9021,30.474,黄冈市,职工中心,,13,13,23,7,14,27,,32,32,4,8,3,4,0.6,0.6
2026-02-26T0800,2929A,114.8858,30.4519,黄冈市,红卫路,,14,14,23,3,14,37,,40,40,6,10,2,3,0.4,0.5
2026-02-26T0800,3398A,114.9134,30.4446,黄冈市,市林业局,,13,11,22,7,14,39,,40,40,8,10,3,3,0.4,0.4
2026-02-26T0800,2672A,102.02,35.5101,黄南藏族自治州,同仁县隆务镇,,48,48,60,21,23,50,,58,58,6,3,12,10,0.6,0.4
2026-02-26T0800,2295A,118.2905,29.6965,黄山市,延安路89号,,22,15,12,15,10,29,,20,20,8,6,4,4,0.6,0.6
2026-02-26T0800,2297A,118.1369,30.2755,黄山市,黄山区政府5号楼,,25,25,16,11,9,8,,9,9,7,5,2,2,0.5,0.4
2026-02-26T0800,4210A,118.335445,29.720283,黄山市,滨江东路7-2号,,27,27,24,8,6,24,,28,28,7,6,/,/,/,/
2026-02-26T0800,2423A,115.0547,30.2332,黄石市,沈家营,,30,23,33,6,14,43,,44,44,2,2,90,49,0.8,0.8
2026-02-26T0800,2426A,114.899,30.211,黄石市,铁山,,20,20,25,7,14,24,,24,24,10,9,6,5,0.5,0.6
2026-02-26T0800,2427A,115.0259,30.2108,黄石市,团城山,,21,21,24,3,15,14,,20,20,10,8,7,6,0.8,0.7
2026-02-26T0800,3149A,115.0174,30.1591,黄石市,笔架山北路,,22,22,31,12,15,5,,13,13,19,13,5,6,1.1,1
2026-02-26T0800,4185A,115.078022,30.21118,黄石市,磁湖东路29号,,24,24,27,16,16,21,,27,27,2,4,4,7,1.0,1.1
2026-02-26T0800,1392A,114.4181,23.0528,惠州市,河南岸金山湖子站,,22,22,30,11,19,65,,70,70,10,7,7,6,0.6,0.6
2026-02-26T0800,1393A,114.4055,23.0824,惠州市,下埔横江三路子站,,23,23,30,12,18,68,,70,70,11,9,7,7,0.6,0.6
2026-02-26T0800,1395A,114.4645,22.7832,惠州市,惠阳区承修路船湖子站,,24,24,30,10,16,72,,79,79,8,8,6,6,0.5,0.5
2026-02-26T0800,1396A,114.5316,22.7423,惠州市,大亚湾管委会子站,,25,25,29,10,15,70,,79,79,8,6,8,7,0.5,0.5
2026-02-26T0800,3314A,114.4334,22.8134,惠州市,惠阳秋长,,26,22,26,10,15,82,,90,90,9,8,/,/,/,/
2026-02-26T0800,3452A,114.6521,22.7755,惠州市,大亚湾霞涌,,24,24,27,10,13,71,,82,82,12,8,/,/,/,/
2026-02-26T0800,4300A,114.4089,23.1147,惠州市,文华一路1号,,21,20,28,12,17,67,,69,69,11,9,/,/,/,/
2026-02-26T0800,2240A,130.9618,45.2926,鸡西市,环保局,,50,50,68,21,36,54,,72,72,24,15,6,8,0.3,0.2
2026-02-26T0800,2243A,130.9294,45.2959,鸡西市,第一中学,,43,43,50,30,30,68,,77,77,11,13,5,6,0.4,0.4
2026-02-26T0800,3707A,131.0069,45.2988,鸡西市,欧美日汽修厂,颗粒物(PM10),85,120,91,55,51,19,,43,43,43,18,20,13,0.9,0.8
2026-02-26T0800,2367A,114.9753,27.0803,吉安市,红声器材厂,,41,41,34,19,17,15,,17,17,11,13,8,8,0.5,0.5
2026-02-26T0800,2369A,114.9903,27.1313,吉安市,市环境监测站,,25,25,29,15,19,20,,19,19,9,10,6,7,/,/
2026-02-26T0800,2370A,115.009527,27.096792,吉安市,青原区法院,,28,25,28,19,18,16,,18,18,10,11,4,5,0.8,0.7
2026-02-26T0800,1772A,126.54,43.8622,吉林市,哈达湾,颗粒物(PM10),63,76,75,16,32,59,,65,65,16,9,11,9,1.1,0.6
2026-02-26T0800,1773A,126.5843,43.8358,吉林市,东局子,,35,35,68,14,30,57,,63,63,16,9,7,5,0.5,0.6
2026-02-26T0800,1774A,126.5051,43.8243,吉林市,电力学院,,47,47,64,15,24,66,,69,69,13,9,8,7,0.7,0.6
2026-02-26T0800,1775A,126.6133,43.8971,吉林市,江北,颗粒物(PM10),51,52,77,9,24,69,,68,68,6,10,5,6,0.5,0.5
2026-02-26T0800,1776A,126.5549,43.8304,吉林市,江南公园,颗粒物(PM10),51,51,80,13,29,56,,58,58,13,8,9,9,0.8,0.6
2026-02-26T0800,2868A,126.4737,43.953,吉林市,九站,颗粒物(PM10),59,67,90,23,34,60,,61,61,15,10,13,11,0.5,0.6
2026-02-26T0800,1299A,116.9866,36.6118,济南市,科干所,颗粒物(PM10),65,80,81,44,37,57,,50,50,20,16,6,5,0.7,0.6
2026-02-26T0800,1300A,116.9379,36.6652,济南市,农科所,细颗粒物(PM2.5),83,81,79,61,45,40,,43,43,23,18,4,5,0.7,0.6
2026-02-26T0800,1301A,117.1265,36.6736,济南市,开发区,细颗粒物(PM2.5),70,85,81,51,43,65,,56,56,16,17,4,4,0.6,0.5
2026-02-26T0800,1303A,117.0616,36.6865,济南市,省种子仓库,细颗粒物(PM2.5),74,88,87,54,43,57,,53,53,18,17,5,5,0.5,0.5
2026-02-26T0800,1304A,116.9495185,36.644937,济南市,机床二厂,细颗粒物(PM2.5),74,85,78,54,41,50,,49,49,18,13,4,4,0.4,0.2
2026-02-26T0800,1305A,117.0496,36.6629,济南市,市监测站,细颗粒物(PM2.5),74,88,86,54,49,55,,48,48,22,18,4,4,0.5,0.4
2026-02-26T0800,1306A,116.7674,36.5458,济南市,长清党校,细颗粒物(PM2.5),78,85,89,57,40,32,,41,41,22,14,3,3,0.7,0.6
2026-02-26T0800,1961A,117.5323,36.6865,济南市,东山小学,颗粒物(PM10),78,105,101,48,55,62,,55,55,22,18,4,4,0.6,0.5
2026-02-26T0800,3059A,117.7181,36.205,济南市,泰兴公司,细颗粒物(PM2.5),90,92,102,67,50,23,,32,32,37,21,8,8,0.7,0.6
2026-02-26T0800,3064A,117.6861,36.2172,济南市,莱芜战役纪念馆,细颗粒物(PM2.5),82,97,105,60,51,35,,39,39,24,18,5,6,0.9,0.8
2026-02-26T0800,3494A,117.1673,36.9782,济南市,济阳区政府,细颗粒物(PM2.5),70,81,90,51,54,46,,45,45,17,17,8,8,0.4,0.3
2026-02-26T0800,3495A,117.1168,36.6299,济南市,锦屏中学,细颗粒物(PM2.5),69,78,80,50,43,61,,50,50,14,13,6,5,0.8,0.7
2026-02-26T0800,4108A,117.7107,36.2385,济南市,山财大街5号,细颗粒物(PM2.5),83,97,97,61,50,43,,39,39,33,21,9,10,0.7,0.5
2026-02-26T0800,4109A,116.9744,36.6889,济南市,无影山路12号,细颗粒物(PM2.5),84,78,76,62,40,40,,42,42,20,17,4,4,0.6,0.5
2026-02-26T0800,1653A,116.6229,35.4288,济宁市,火炬城,颗粒物(PM10),73,96,81,48,34,32,,42,42,21,13,3,3,0.6,0.5
2026-02-26T0800,3500A,116.5808,35.3703,济宁市,北湖一中,颗粒物(PM10),76,102,78,52,34,31,,43,43,18,11,5,5,0.4,0.4
2026-02-26T0800,3501A,116.8251,35.5592,济宁市,服务中心,颗粒物(PM10),71,91,90,50,41,41,,42,42,16,16,3,2,0.4,0.4
2026-02-26T0800,3678A,116.5907,35.4054,济宁市,市第七中学,颗粒物(PM10),73,95,77,43,33,36,,48,48,21,13,4,4,0.6,0.4
2026-02-26T0800,4111A,116.6075,35.4566,济宁市,任和路,颗粒物(PM10),71,91,82,46,34,33,,39,39,18,13,3,3,0.8,0.7
2026-02-26T0800,4112A,116.5648,35.3921,济宁市,文体南路1号,颗粒物(PM10),76,102,85,49,33,34,,44,44,19,10,1,1,0.5,0.2
2026-02-26T0800,2255A,130.2749,46.8028,佳木斯市,佳纺,,42,42,53,27,27,56,,47,47,20,23,9,6,0.5,0.5
2026-02-26T0800,2257A,130.3258,46.7975,佳木斯市,环保局,,32,31,55,22,27,65,,57,57,16,27,9,9,0.5,0.6
2026-02-26T0800,4285A,130.363,46.806,佳木斯市,顺和街,,38,33,44,26,26,58,,53,53,20,23,10,9,0.6,0.6
2026-02-26T0800,4286A,130.3952,46.8268,佳木斯市,长安路196号,,28,27,40,19,18,77,,59,59,5,14,3,5,0.3,0.4
2026-02-26T0800,1252A,120.7439,30.778,嘉兴市,清河小学,,30,30,34,14,15,57,,69,69,18,13,6,5,0.4,0.4
2026-02-26T0800,1253A,120.7261,30.7477,嘉兴市,嘉兴学院,,28,28,32,15,17,56,,68,68,17,13,5,4,0.9,0.8
2026-02-26T0800,2872A,120.7845,30.7524,嘉兴市,南湖区残联,,29,25,30,20,21,59,,72,72,16,12,4,3,0.5,0.4
2026-02-26T0800,3407A,120.6915,30.7741,嘉兴市,秀洲住建,,31,31,32,14,16,57,,73,73,18,12,7,6,0.5,0.5
2026-02-26T0800,1945A,98.291,39.7705,嘉峪关市,气象局,,27,27,48,12,15,59,,56,56,16,9,11,6,0.8,0.6
2026-02-26T0800,2884A,98.2672,39.7978,嘉峪关市,酒钢宾馆,,44,44,57,19,18,36,,42,42,30,16,52,18,1.2,0.6
2026-02-26T0800,3248A,98.2644,39.7723,嘉峪关市,雄关区,颗粒物(PM10),51,51,51,19,13,43,,41,41,26,14,21,7,1.0,0.5
2026-02-26T0800,1383A,113.1063,22.6058,江门市,北街,,20,20,43,11,30,57,,58,58,16,21,/,/,/,/
2026-02-26T0800,1384A,113.073,22.5835,江门市,西区,,20,17,44,10,30,64,,62,62,14,17,/,/,/,/
2026-02-26T0800,1385A,113.0218,22.531,江门市,圭峰西,,19,15,44,13,30,59,,61,61,10,13,/,/,/,/
2026-02-26T0800,1386A,113.0826,22.5947,江门市,东湖,,20,20,47,12,31,61,,61,61,9,13,7,8,0.4,0.4
2026-02-26T0800,3311A,113.1077,22.5647,江门市,江海富民,,22,22,65,12,31,62,,63,63,16,20,/,/,0.3,0.4
2026-02-26T0800,3449A,113.0496,22.4669,江门市,新会银湖,,18,18,43,12,29,56,,58,58,16,21,6,7,0.4,0.4
2026-02-26T0800,3335A,113.3137,35.2643,焦作市,马村街道办,,,44,52,,51,19,,35,35,18,12,7,6,0.5,0.4
2026-02-26T0800,3336A,113.2464,35.2374,焦作市,焦作技师学院,,33,28,36,23,23,18,,32,32,16,11,7,6,0.7,0.6
2026-02-26T0800,3477A,113.1656,35.2536,焦作市,中站许衡医院,,43,40,47,30,26,26,,37,37,14,10,7,7,0.7,0.6
2026-02-26T0800,3981A,113.2456,35.18,焦作市,原李万街道办,,50,,46,35,28,24,,32,32,12,10,7,7,0.6,0.5
2026-02-26T0800,4264A,113.234,35.219,焦作市,新安路1731号,,48,45,45,33,34,28,,42,42,16,12,8,7,0.4,0.3
2026-02-26T0800,4295A,113.2722,35.2121,焦作市,人民路3066号,,50,50,47,27,26,26,,40,40,18,14,6,5,0.6,0.5
2026-02-26T0800,1708A,116.3701,23.5345,揭阳市,新兴,,26,22,32,18,22,48,,61,61,15,13,7,7,0.6,0.6
2026-02-26T0800,1709A,116.3261,23.5442,揭阳市,西马,,30,30,35,19,22,51,,59,59,7,9,5,6,0.4,0.6
2026-02-26T0800,1710A,116.361,23.5627,揭阳市,东兴,,26,18,33,18,24,49,,58,58,12,12,8,6,/,/
2026-02-26T0800,1711A,116.4151,23.5295,揭阳市,渔湖,,30,21,28,21,22,48,,63,63,14,10,5,5,/,/
2026-02-26T0800,3320A,116.4028,23.5699,揭阳市,曲溪,,25,24,34,17,24,52,,63,63,14,13,7,10,0.6,0.7
2026-02-26T0800,1944A,102.1691,38.5166,金昌市,天庆家园,颗粒物(PM10),58,66,93,24,29,52,,50,50,8,7,5,17,0.5,0.5
2026-02-26T0800,4022A,102.1648,38.5369,金昌市,金川区人防中心,颗粒物(PM10),58,66,94,23,26,53,,51,51,5,6,6,22,0.6,0.4
2026-02-26T0800,4239A,102.193042,38.531887,金昌市,长春路96号,颗粒物(PM10),56,62,87,22,24,57,,53,53,8,8,6,24,0.5,0.5
2026-02-26T0800,1262A,119.6478,29.0773,金华市,十五中,,30,30,25,21,18,40,,49,49,20,15,4,3,0.4,0.4
2026-02-26T0800,1263A,119.6859,29.1032,金华市,监测站,,32,32,27,22,20,30,,36,36,17,13,2,2,0.5,0.5
2026-02-26T0800,3659A,119.656,29.1132,金华市,气象局,,32,30,27,22,19,28,,31,31,17,15,2,2,0.6,0.6
2026-02-26T0800,1767A,121.1114,41.0879,锦州市,南山,,40,40,92,8,54,72,,60,60,13,20,9,10,0.5,0.6
2026-02-26T0800,1768A,121.060361,40.842794,锦州市,开发区,颗粒物(PM10),51,52,104,10,44,71,,60,60,8,20,5,6,0.6,0.7
2026-02-26T0800,1769A,121.1836,41.1118,锦州市,百股街道,,41,41,88,13,53,69,,55,55,11,19,8,13,0.5,0.6
2026-02-26T0800,1770A,121.1176,41.1224,锦州市,天安街道,,42,42,99,8,53,71,,58,58,11,20,7,9,0.4,0.8
2026-02-26T0800,1771A,121.1303,41.1385,锦州市,北湖公园,,32,32,94,9,52,77,,61,61,8,18,7,8,0.4,0.6
2026-02-26T0800,2160A,112.8496,35.5051,晋城市,自来水公司,颗粒物(PM10),51,51,42,14,14,35,,49,49,12,7,4,4,0.5,0.4
2026-02-26T0800,2162A,112.8509,35.4886,晋城市,市环保局,,28,25,36,19,16,42,,53,53,14,9,3,4,0.4,0.3
2026-02-26T0800,3620A,112.8258,35.4804,晋城市,泽州一中,,33,33,39,21,18,42,,52,52,10,9,3,2,0.8,0.7
2026-02-26T0800,4078A,112.8246,35.5152,晋城市,前书院路,,48,48,40,28,18,20,,38,38,16,9,6,5,0.5,0.3
2026-02-26T0800,4079A,112.8864,35.4773,晋城市,祥云街666号,,40,40,35,22,22,30,,47,47,19,8,5,5,0.4,0.2
2026-02-26T0800,2174A,112.6992,37.6984,晋中市,榆次区政府,细颗粒物(PM2.5),108,119,126,81,80,53,,53,53,20,22,7,11,0.6,0.7
2026-02-26T0800,2865A,112.7195,37.683,晋中市,榆次三中,细颗粒物(PM2.5),79,97,126,58,70,66,,61,61,10,17,6,10,0.5,0.7
2026-02-26T0800,4080A,112.7375,37.7215,晋中市,广安街188号,细颗粒物(PM2.5),93,109,131,69,74,52,,48,48,19,23,8,14,0.5,0.6
2026-02-26T0800,4200A,112.7478,37.6954,晋中市,迎宾街26号,细颗粒物(PM2.5),99,102,122,74,80,64,,57,57,14,22,6,10,0.2,0.4
2026-02-26T0800,2439A,112.2012,31.048,荆门市,竹园小学,,32,26,48,22,30,45,,43,43,14,18,2,2,1.4,1.2
2026-02-26T0800,2440A,112.1968,30.9892,荆门市,掇刀,,35,27,48,24,32,48,,50,50,10,12,3,5,0.6,0.6
2026-02-26T0800,3012A,112.1849,31.0361,荆门市,西山林语,,30,23,45,21,29,47,,45,45,10,14,3,3,0.6,0.6
2026-02-26T0800,3547A,112.1631,31.0134,荆门市,龙泉中学南校,,,,,,,,,,,,,,,,
2026-02-26T0800,4124A,112.2213,31.0654,荆门市,新台西路6号,,36,36,42,24,32,46,,42,42,8,11,8,8,0.4,0.4
2026-02-26T0800,1844A,112.2493,30.3198,荆州市,市图书馆,,15,,33,10,26,37,,38,38,12,12,6,7,0.7,0.7
2026-02-26T0800,1845A,112.2009,30.3543,荆州市,市委党校,,23,23,41,16,32,31,,34,34,16,18,5,6,0.5,0.5
2026-02-26T0800,3194A,112.2749,30.3124,荆州市,管委会,,25,20,32,17,26,37,,35,35,12,15,7,9,0.6,0.6
2026-02-26T0800,4268A,112.1722,30.3366,荆州市,学苑路85号,,26,20,40,18,29,37,,41,41,8,9,1,2,0.6,0.6
2026-02-26T0800,2343A,117.2114,29.2931,景德镇市,老干部活动中心,,8,6,14,3,8,17,,15,15,8,8,5,4,0.8,0.9
2026-02-26T0800,2344A,117.1893,29.2789,景德镇市,兽医站,,6,6,22,3,9,12,,15,15,10,11,4,4,0.5,0.8
2026-02-26T0800,2346A,117.246,29.2958,景德镇市,陶研所,,11,11,10,3,4,24,,16,16,19,15,3,3,0.7,0.6
2026-02-26T0800,4289A,117.154766,29.256967,景德镇市,青少年活动中心,,8,7,18,3,10,10,,13,13,9,13,3,4,/,/
2026-02-26T0800,1803A,115.9873,29.6816,九江市,十里,,42,37,39,29,31,5,,12,12,31,23,6,6,0.8,0.7
2026-02-26T0800,1804A,115.9583,29.7047,九江市,茅山头,,45,34,38,31,35,8,,16,16,27,17,3,4,0.8,0.7
2026-02-26T0800,1805A,115.9877,29.7295,九江市,西园,,43,43,39,30,26,18,,20,20,26,22,4,3,0.7,0.6
2026-02-26T0800,1808A,115.9112,29.6038,九江市,综合工业园,,32,32,36,19,24,8,,10,10,30,27,6,6,0.7,0.7
2026-02-26T0800,3190A,116.0254,29.6995,九江市,外国语学校,,45,32,29,31,29,11,,12,12,22,18,7,7,0.3,0.5
2026-02-26T0800,4253A,116.010205,29.659402,九江市,莲花大道8号,,27,27,41,14,21,6,,10,10,31,21,4,4,0.7,0.6
2026-02-26T0800,4240A,98.495752,39.733935,酒泉市,玉门东路5号,,29,29,44,10,14,58,,63,63,8,4,7,5,0.3,0.3
2026-02-26T0800,4241A,98.5099,39.7506,酒泉市,北大街108号,,22,22,36,9,13,55,,64,64,9,4,12,10,0.3,0.2
2026-02-26T0800,2698A,76.0071,39.466,喀什地区,巡警大队,颗粒物(PM10),500,1708,910,464,271,58,,63,63,13,17,3,4,0.4,0.6
2026-02-26T0800,2699A,75.9756,39.4693,喀什地区,吾办,颗粒物(PM10),500,1494,921,432,276,60,,61,61,4,15,3,4,0.2,0.5
2026-02-26T0800,4027A,75.9485,39.4688,喀什地区,老干局,颗粒物(PM10),500,1606,885,394,236,66,,66,66,2,10,2,4,0.3,0.5
2026-02-26T0800,1824A,114.3389,34.778,开封市,肿瘤医院,,38,32,46,26,34,42,,44,44,12,15,6,6,0.5,0.5
2026-02-26T0800,1826A,114.2884,34.7966,开封市,世纪星幼儿园,,38,,46,26,33,39,,40,40,13,15,6,6,0.6,0.6
2026-02-26T0800,3147A,114.3434,34.8101,开封市,龙亭公园,,39,,46,27,31,37,,36,36,16,19,8,8,0.3,0.3
2026-02-26T0800,3210A,114.3645,34.7955,开封市,汴京公园,,38,27,49,26,30,38,,38,38,14,18,4,4,0.5,0.4
2026-02-26T0800,3473A,114.2485,34.8306,开封市,技师学院,,36,,42,25,29,38,,33,33,12,14,7,7,0.6,0.6
2026-02-26T0800,3592A,114.4518,34.7503,开封市,祥符区生态环境局,,50,50,58,28,37,38,,37,37,13,18,4,4,0.6,0.6
2026-02-26T0800,1951A,84.886,45.6029,克拉玛依市,长征新村,,24,20,27,11,10,74,,76,76,2,2,5,5,0.6,0.5
2026-02-26T0800,1952A,84.8894,45.5827,克拉玛依市,南林小区,,24,18,27,3,1,74,,74,74,1,3,1,2,0.4,0.5
2026-02-26T0800,1954A,84.896,44.3328,克拉玛依市,独山子区,颗粒物(PM10),57,64,78,36,44,78,,74,74,4,11,3,4,0.5,0.5
2026-02-26T0800,1955A,85.6888,46.0909,克拉玛依市,乌尔禾区商贸楼,,24,12,24,12,9,75,,72,72,5,6,9,9,0.3,0.4
2026-02-26T0800,3612A,85.1045,45.6895,克拉玛依市,白碱滩区新站,,31,31,42,9,5,80,,76,76,5,7,10,10,0.2,0.2
2026-02-26T0800,2697A,76.1457,39.7143,克孜勒苏柯尔克孜自治州,市人民政府,颗粒物(PM10),500,1581,887,337,230,77,,73,73,1,3,3,4,0.2,0.2
2026-02-26T0800,3665A,76.1654,39.7157,克孜勒苏柯尔克孜自治州,克州文化中心,颗粒物(PM10),500,1562,1047,350,251,73,,72,72,5,6,5,5,0.8,0.3
2026-02-26T0800,1450A,102.8203,24.889,昆明市,呈贡新区,,35,29,35,24,29,84,,88,88,10,8,3,4,0.6,0.7
2026-02-26T0800,1452A,102.7253,25.0904,昆明市,龙泉镇,,43,38,39,30,34,61,,82,82,19,9,3,4,0.5,0.4
2026-02-26T0800,1453A,102.7267,25.0378,昆明市,东风东路,,35,31,42,24,33,86,,94,94,14,11,4,4,0.6,0.6
2026-02-26T0800,1454A,102.6744,25.0671,昆明市,金鼎山,,42,39,44,29,34,82,,96,96,20,12,3,4,0.6,0.6
2026-02-26T0800,1455A,102.6643,25.0401,昆明市,碧鸡广场,,36,32,42,25,33,75,,87,87,16,13,5,6,0.6,0.6
2026-02-26T0800,3179A,102.7491,25.012,昆明市,官渡区博物馆,,35,30,39,24,32,91,,97,97,11,9,2,3,0.6,0.6
2026-02-26T0800,3375A,102.8016,24.8336,昆明市,青年创业园,,38,28,35,26,28,82,,83,83,5,6,5,5,0.8,0.8
2026-02-26T0800,3550A,102.8,24.9787,昆明市,昆明学院,,40,34,42,28,30,92,,86,86,6,7,4,4,0.7,0.7
2026-02-26T0800,3551A,102.5969,24.6738,昆明市,晋宁区生态环境分局,,39,33,37,27,30,68,,72,72,6,7,2,2,0.5,0.5
2026-02-26T0800,3552A,102.6673,24.9861,昆明市,云天化总部,,31,31,41,21,29,95,,98,98,7,8,6,7,0.6,0.5
2026-02-26T0800,1456A,91.132,29.6515,拉萨市,八廓街,,23,15,17,7,9,71,,86,86,12,10,7,8,0.5,0.6
2026-02-26T0800,1457A,91.1221,29.6748,拉萨市,市环保局,,17,16,19,7,10,54,,60,60,24,15,4,4,0.7,0.8
2026-02-26T0800,1458A,91.0874,29.6476,拉萨市,区监测站,,16,12,10,6,8,50,,65,65,29,17,4,4,0.7,0.7
2026-02-26T0800,1459A,91.1774,29.6541,拉萨市,西藏大学,,20,11,12,7,8,64,,82,82,12,10,3,4,0.5,0.6
2026-02-26T0800,1460A,90.9798,29.6586,拉萨市,区辐射站,,19,13,14,6,8,60,,75,75,13,9,3,4,0.3,0.4
2026-02-26T0800,1461A,91.0831,29.6292,拉萨市,拉萨火车站,,18,7,10,7,8,55,,67,67,19,13,4,4,0.6,0.5
2026-02-26T0800,2520A,109.2203,23.7252,来宾市,来宾技工学校,细颗粒物(PM2.5),100,79,80,75,75,4,,2,2,27,27,12,11,1.2,1
2026-02-26T0800,3535A,109.1781,23.7293,来宾市,兴宾区政府,细颗粒物(PM2.5),108,91,70,81,67,4,,10,10,22,16,11,8,1.2,1.1
2026-02-26T0800,4002A,109.2312,23.7428,来宾市,中南小学,细颗粒物(PM2.5),113,87,74,85,78,4,,5,5,,22,5,6,1.1,0.9
2026-02-26T0800,1479A,103.8309,36.0467,兰州市,铁路设计院,,,,,,,,,,,,,,,,
2026-02-26T0800,3241A,103.7439,36.0841,兰州市,百合公园,颗粒物(PM10),75,100,147,43,49,7,,25,25,45,21,18,8,0.9,0.6
2026-02-26T0800,3242A,103.9613,35.9985,兰州市,和平,颗粒物(PM10),83,115,193,38,52,37,,49,49,24,12,12,10,0.9,0.6
2026-02-26T0800,4236A,103.629272,36.093822,兰州市,庄浪东路808号,颗粒物(PM10),78,105,146,35,45,27,,50,50,36,16,20,4,0.7,0.4
2026-02-26T0800,4237A,103.7251,36.104344,兰州市,安宁西路88号,颗粒物(PM10),94,137,162,39,44,8,,34,34,45,12,22,12,0.5,0.3
2026-02-26T0800,4238A,103.846982,36.067567,兰州市,北滨河东路1号,颗粒物(PM10),87,124,155,35,47,4,,26,26,56,29,14,10,1.2,0.7
2026-02-26T0800,1067A,116.6712,39.5109,廊坊市,药材公司,细颗粒物(PM2.5),110,140,98,83,59,5,,2,2,43,28,1,1,0.8,0.6
2026-02-26T0800,1068A,116.7215,39.5592,廊坊市,开发区,细颗粒物(PM2.5),117,123,100,88,65,7,,4,4,48,32,3,2,0.8,0.5
2026-02-26T0800,1070A,116.7246,39.5273,廊坊市,北华航天学院,细颗粒物(PM2.5),115,132,98,87,64,8,,6,6,47,31,4,4,0.8,0.5
2026-02-26T0800,2919A,116.7022,39.5454,廊坊市,河北工业大学,细颗粒物(PM2.5),115,140,104,87,61,2,,0,0,40,26,1,1,0.8,0.5
2026-02-26T0800,2536A,103.7629,29.5844,乐山市,牛耳桥,,46,46,63,26,32,38,,73,73,30,20,6,6,0.7,0.6
2026-02-26T0800,2537A,103.7501,29.6002,乐山市,市第三水厂,,47,47,67,29,32,46,,72,72,26,19,6,5,1.0,0.6
2026-02-26T0800,2538A,103.7571,29.5664,乐山市,市监测站,,48,48,62,28,30,37,,67,67,23,15,6,7,0.9,0.7
2026-02-26T0800,3361A,103.7313,29.563,乐山市,理工大学,,46,46,61,28,30,40,,67,67,16,11,5,5,0.9,0.7
2026-02-26T0800,2599A,100.2497,26.8802,丽江市,丽江古城,,35,25,23,19,13,110,,110,110,10,10,9,9,0.4,0.4
2026-02-26T0800,2600A,100.2203,26.8906,丽江市,市中心,,34,21,17,17,16,107,,113,113,12,9,7,6,0.4,0.4
2026-02-26T0800,1267A,119.9141,28.4513,丽水市,监测站大楼,,16,6,13,3,8,51,,49,49,6,6,4,4,0.4,0.4
2026-02-26T0800,1268A,119.93,28.4589,丽水市,莲都小学,,17,8,12,3,7,52,,52,52,9,8,/,/,/,/
2026-02-26T0800,1269A,119.8794,28.4232,丽水市,余庄前,,16,9,13,3,8,51,,47,47,6,7,4,4,0.3,0.4
2026-02-26T0800,1173A,119.1759,34.5885,连云港市,市环境监测站,,24,24,81,14,25,74,,80,80,13,11,5,6,0.3,0.3
2026-02-26T0800,3000A,119.3577,34.6971,连云港市,德源药业,,,31,85,17,23,85,,78,78,,7,6,6,,0.8
2026-02-26T0800,3007A,119.178,34.8442,连云港市,新城一中,颗粒物(PM10),55,59,85,14,28,91,,75,75,13,16,7,7,0.3,0.4
2026-02-26T0800,3008A,119.3607,34.7519,连云港市,胡沟管理处,,27,27,82,12,22,72,,70,70,24,25,12,12,0.5,0.5
2026-02-26T0800,3009A,119.1478,34.5913,连云港市,矿山设计院,,29,29,84,17,20,71,,80,80,16,13,6,6,0.4,0.4
2026-02-26T0800,3434A,119.2414,34.6539,连云港市,工贸学校,,40,40,90,18,27,78,,83,83,6,7,8,9,0.5,0.5
2026-02-26T0800,3664A,119.4171,34.734,连云港市,连云街道,,50,50,83,14,26,94,,84,84,11,13,6,5,0.5,0.5
2026-02-26T0800,2573A,102.2629,27.8981,凉山彝族自治州,西昌市政府,细颗粒物(PM2.5),79,,34,58,38,79,,92,92,10,7,13,12,0.9,0.6
2026-02-26T0800,2574A,102.2686,27.885,凉山彝族自治州,凉山州政府,,50,42,37,35,27,66,,83,83,12,8,10,12,0.5,0.5
2026-02-26T0800,4229A,102.2342,27.8859,凉山彝族自治州,凯乐南路30号,,42,41,40,29,26,43,,88,88,33,14,9,15,0.5,0.6
2026-02-26T0800,2212A,123.1978,41.2036,辽阳市,宏伟区,颗粒物(PM10),63,76,109,14,36,53,,66,66,14,10,6,6,0.5,0.6
2026-02-26T0800,2213A,123.1684,41.2497,辽阳市,新华园,颗粒物(PM10),54,58,118,11,42,52,,61,61,15,18,7,8,0.6,0.8
2026-02-26T0800,2214A,123.2355,41.2663,辽阳市,滨河路,颗粒物(PM10),56,62,104,12,38,48,,60,60,15,15,6,8,0.5,0.7
2026-02-26T0800,4083A,123.153,41.2874,辽阳市,铁西路150号,颗粒物(PM10),52,53,124,20,48,52,,57,57,14,18,7,9,0.6,0.9
2026-02-26T0800,2227A,125.1359,42.8845,辽源市,环保局,颗粒物(PM10),55,60,77,10,29,58,,68,68,8,8,8,6,0.6,0.8
2026-02-26T0800,4085A,125.0998,42.9134,辽源市,安宁大街333号,颗粒物(PM10),61,72,105,13,34,56,,65,65,6,8,4,5,0.5,0.6
2026-02-26T0800,1625A,115.9789,36.4372,聊城市,区政府,细颗粒物(PM2.5),67,67,70,48,34,43,,46,46,14,12,12,12,0.8,0.7
2026-02-26T0800,3200A,115.9772,36.4986,聊城市,监控中心,细颗粒物(PM2.5),72,78,72,52,34,30,,39,39,17,16,9,9,0.7,0.5
2026-02-26T0800,3513A,116.0443,36.436,聊城市,九州社区,细颗粒物(PM2.5),73,74,70,53,34,48,,48,48,16,13,2,2,0.7,0.6
2026-02-26T0800,4018A,116.0564,36.4609,聊城市,星美广场,细颗粒物(PM2.5),73,80,79,53,37,40,,40,40,14,12,4,3,0.8,0.6
2026-02-26T0800,4113A,116.0091,36.4495,聊城市,利民路,细颗粒物(PM2.5),72,69,69,52,35,43,,48,48,15,14,6,7,0.8,0.7
2026-02-26T0800,2632A,94.3683,29.6373,林芝市,林芝监测站,,33,14,13,12,13,104,,111,111,1,1,4,4,0.4,0.4
2026-02-26T0800,2633A,94.3616,29.6634,林芝市,林芝人民医院,,33,,16,23,15,105,,109,109,1,2,7,6,0.3,0.3
2026-02-26T0800,2603A,100.0779,23.8981,临沧市,市环保局,细颗粒物(PM2.5),69,,62,50,52,44,,38,38,5,9,5,7,0.9,1
2026-02-26T0800,2604A,100.0894,23.882,临沧市,市气象局,细颗粒物(PM2.5),77,56,71,56,57,47,,44,44,6,12,7,9,0.8,0.9
2026-02-26T0800,1733A,111.5552,36.0791,临汾市,临钢医院,细颗粒物(PM2.5),92,99,67,68,43,25,,24,24,17,16,10,8,1.3,1.2
2026-02-26T0800,1734A,111.4984,36.0734,临汾市,技工学校,细颗粒物(PM2.5),98,90,62,73,52,15,,24,24,19,16,10,8,1.1,0.9
2026-02-26T0800,1736A,111.5017,36.0857,临汾市,市委,细颗粒物(PM2.5),87,98,71,64,42,19,,25,25,18,15,10,8,1.4,1.2
2026-02-26T0800,3018A,111.5048,36.1015,临汾市,唐尧大酒店,细颗粒物(PM2.5),92,104,74,68,42,25,,21,21,13,14,10,8,1.3,1.2
2026-02-26T0800,4244A,111.4879,36.053,临汾市,启星学校,细颗粒物(PM2.5),87,87,67,64,49,12,,20,20,27,20,10,9,1.2,1.1
2026-02-26T0800,4271A,103.2464,35.6123,临夏回族自治州,滨河东路1号,颗粒物(PM10),105,159,199,69,75,17,,26,26,23,14,8,11,1.2,0.9
2026-02-26T0800,4310A,103.207136,35.599807,临夏回族自治州,新华街21号,颗粒物(PM10),113,176,204,70,70,21,,31,31,18,13,8,11,1.1,1.1
2026-02-26T0800,1618A,118.3429,35.0532,临沂市,沂河小区,细颗粒物(PM2.5),63,63,95,45,34,51,,67,67,14,8,8,8,0.7,0.3
2026-02-26T0800,1619A,118.2962,35.0568,临沂市,鲁南制药厂,细颗粒物(PM2.5),62,58,94,44,34,52,,66,66,20,13,10,11,0.8,0.4
2026-02-26T0800,1620A,118.2793,34.9976,临沂市,新光毛纺厂,细颗粒物(PM2.5),65,53,91,47,40,53,,67,67,16,11,7,9,1.0,0.5
2026-02-26T0800,1621A,118.3955,35.0889,临沂市,河东保险公司,细颗粒物(PM2.5),59,63,90,42,32,45,,64,64,23,15,7,8,0.6,0.4
2026-02-26T0800,3370A,118.3563,35.0215,临沂市,十里堡居委,细颗粒物(PM2.5),62,56,91,44,34,53,,67,67,20,14,7,8,1.1,0.6
2026-02-26T0800,3496A,118.359,35.1067,临沂市,南坊新区,细颗粒物(PM2.5),60,56,94,43,33,48,,68,68,20,11,8,8,0.8,0.5
2026-02-26T0800,3860A,118.3915,35.0297,临沂市,皇山花园小区,细颗粒物(PM2.5),64,56,86,46,33,50,,65,65,22,15,11,11,1.0,0.6
2026-02-26T0800,1870A,109.4854,24.3898,柳州市,柳东小学,细颗粒物(PM2.5),69,50,49,50,41,3,,8,8,24,16,4,4,0.9,0.8
2026-02-26T0800,1871A,109.4109,24.3304,柳州市,环保监测站,细颗粒物(PM2.5),89,,57,66,49,3,,6,6,28,27,4,4,1.2,1.1
2026-02-26T0800,1872A,109.3886,24.3408,柳州市,河西水厂,细颗粒物(PM2.5),99,,62,74,49,4,,6,6,26,24,9,8,0.9,0.9
2026-02-26T0800,1873A,109.4263,24.2951,柳州市,市四中,细颗粒物(PM2.5),102,85,64,76,54,2,,4,4,27,26,6,6,1.1,1.1
2026-02-26T0800,1874A,109.396,24.3658,柳州市,市九中,细颗粒物(PM2.5),78,76,57,57,45,1,,5,5,21,18,6,7,0.9,0.8
2026-02-26T0800,1875A,109.4912,24.3164,柳州市,古亭山,细颗粒物(PM2.5),98,,60,73,59,1,,3,3,23,21,6,6,1.0,0.9
2026-02-26T0800,3402A,109.5422,24.3994,柳州市,市二中,细颗粒物(PM2.5),55,48,66,39,43,3,,6,6,25,19,5,5,0.5,0.6
2026-02-26T0800,2307A,116.5078,31.7369,六安市,监测大楼,,20,,37,14,26,26,,36,36,18,11,3,3,0.5,0.5
2026-02-26T0800,2308A,116.4738,31.7642,六安市,皖西学院,,23,,40,16,26,34,,40,40,13,12,4,4,0.5,0.4
2026-02-26T0800,2309A,116.4997,31.7904,六安市,朝阳厂,,29,,37,20,28,31,,37,37,16,13,6,4,0.6,0.5
2026-02-26T0800,2310A,116.5566,31.7885,六安市,开发区,,35,,34,24,26,33,,40,40,10,8,4,4,0.5,0.5
2026-02-26T0800,2577A,104.8293,26.592,六盘水市,黄土坡,颗粒物(PM10),51,51,37,24,25,65,,85,85,18,13,11,11,0.7,0.6
2026-02-26T0800,2579A,104.8481,26.5898,六盘水市,民中,,49,49,38,22,26,69,,84,84,10,10,4,6,0.5,0.5
2026-02-26T0800,2580A,104.9541,26.5506,六盘水市,双水,颗粒物(PM10),51,51,41,24,28,72,,86,86,10,9,4,5,0.7,0.4
2026-02-26T0800,4151A,104.8899,26.5685,六盘水市,钟山大道中段564号,颗粒物(PM10),60,70,46,27,26,62,,78,78,13,9,9,9,0.6,0.5
2026-02-26T0800,2336A,117.022,25.1031,龙岩市,龙岩市监测站,,15,11,17,10,15,38,,43,43,5,4,3,5,0.6,0.6
2026-02-26T0800,2337A,117.0257,25.0662,龙岩市,闽西职业技术学院,,15,,17,10,14,35,,39,39,5,4,4,4,0.7,0.7
2026-02-26T0800,2338A,117.0195,25.0306,龙岩市,龙岩学院,,23,17,19,16,15,26,,26,26,7,6,2,2,/,/
2026-02-26T0800,2885A,104.9344,33.3827,陇南市,滨江中学,颗粒物(PM10),86,122,91,41,34,41,,46,46,16,12,9,7,0.8,0.8
2026-02-26T0800,3247A,104.9551,33.3709,陇南市,市总工会,颗粒物(PM10),77,104,78,39,34,36,,48,48,17,12,5,5,0.8,0.8
2026-02-26T0800,2488A,111.9984,27.7346,娄底市,市监测站,细颗粒物(PM2.5),63,49,50,45,37,28,,34,34,19,16,9,5,0.7,0.5
2026-02-26T0800,2491A,111.9888,27.7035,娄底市,市政府,细颗粒物(PM2.5),57,,44,40,31,20,,33,33,17,10,3,3,0.7,0.4
2026-02-26T0800,4127A,111.9812,27.7591,娄底市,涟钢职大,"颗粒物(PM10),细颗粒物(PM2.5)",52,53,46,36,30,30,,39,39,10,12,1,3,0.7,0.5
2026-02-26T0800,4128A,112.0303,27.7457,娄底市,娄底体校,细颗粒物(PM2.5),60,59,52,43,34,23,,27,27,4,3,2,2,0.4,0.2
2026-02-26T0800,1894A,105.4427,28.9063,泸州市,小市上码头,,43,33,42,30,29,34,,39,39,15,16,6,8,0.7,0.7
2026-02-26T0800,1895A,105.4241,28.8573,泸州市,兰田宪桥,,43,43,70,26,38,41,,44,44,10,12,6,7,0.7,0.7
2026-02-26T0800,1896A,105.4378,28.8833,泸州市,市环监站,,35,35,52,23,38,35,,42,42,17,17,8,10,0.4,0.4
2026-02-26T0800,4272A,105.3689,28.7783,泸州市,纳溪中医医院,,48,43,68,33,39,28,,36,36,16,15,6,8,0.7,0.7
2026-02-26T0800,2183A,111.1447,37.5212,吕梁市,环保局,颗粒物(PM10),79,108,86,46,47,7,,29,29,42,25,5,8,0.5,0.4
2026-02-26T0800,2185A,111.1285,37.5338,吕梁市,自来水公司,颗粒物(PM10),72,94,88,34,40,11,,35,35,37,22,5,7,0.4,0.5
2026-02-26T0800,2867A,111.1225,37.5093,吕梁市,马茂庄小学,颗粒物(PM10),69,88,103,35,45,12,,34,34,34,21,8,8,0.6,0.6
2026-02-26T0800,1812A,112.3934,34.6517,洛阳市,市委党校,细颗粒物(PM2.5),59,,46,42,35,26,,28,28,18,16,6,6,0.7,0.7
2026-02-26T0800,1815A,112.494,34.6883,洛阳市,河南林校,细颗粒物(PM2.5),57,43,59,40,36,23,,31,31,21,17,9,9,0.4,0.4
2026-02-26T0800,1816A,112.3843,34.623,洛阳市,开发区管委会,,48,48,56,32,32,31,,28,28,15,15,9,8,0.5,0.5
2026-02-26T0800,1817A,112.4263,34.6249,洛阳市,市委新办公区,细颗粒物(PM2.5),74,,53,54,38,19,,29,29,26,18,7,7,0.6,0.5
2026-02-26T0800,3340A,112.6005,34.6323,洛阳市,伊滨,,49,44,58,34,35,20,,27,27,18,18,8,8,0.6,0.6
2026-02-26T0800,3341A,112.495,34.6338,洛阳市,中移产业园,细颗粒物(PM2.5),53,40,48,37,36,18,,28,28,19,17,9,7,0.7,0.7
2026-02-26T0800,3593A,112.5736,34.8993,洛阳市,吉利监测站,细颗粒物(PM2.5),57,,50,40,32,27,,28,28,16,16,8,8,0.6,0.5
2026-02-26T0800,3635A,112.3678,34.6623,洛阳市,河科大西苑校区,细颗粒物(PM2.5),58,,49,41,33,30,,35,35,22,20,7,7,0.7,0.7
2026-02-26T0800,3636A,112.4387,34.678,洛阳市,英才小学,细颗粒物(PM2.5),58,46,58,41,34,26,,34,34,20,18,8,8,0.8,0.8
2026-02-26T0800,4214A,112.460027,34.694929,洛阳市,春都路1号院,细颗粒物(PM2.5),52,,61,36,35,27,,30,30,18,18,6,7,0.6,0.5
2026-02-26T0800,2399A,114.051,33.5721,漯河市,三五一五工厂,,43,31,49,30,44,40,,39,39,15,17,4,4,0.6,0.6
2026-02-26T0800,2400A,114.0055,33.5698,漯河市,漯河大学,,38,28,37,26,33,40,,40,40,14,16,4,5,0.4,0.5
2026-02-26T0800,2401A,114.0134,33.5826,漯河市,市水利局,,42,,36,29,31,41,,40,40,14,14,4,4,0.5,0.5
2026-02-26T0800,2402A,114.0261,33.5697,漯河市,市广电局,,32,,34,22,31,37,,37,37,12,12,5,5,0.5,0.5
2026-02-26T0800,3478A,113.9691,33.568,漯河市,市图书馆,,33,30,42,23,29,38,,39,39,11,13,5,5,0.5,0.5
2026-02-26T0800,4250A,114.089259,33.588274,漯河市,韶山路11号,,38,28,47,26,30,37,,33,33,16,17,6,6,0.7,0.7
2026-02-26T0800,1798A,118.5084,31.6838,马鞍山市,湖东路四小,,29,,42,20,30,51,,50,50,14,13,5,5,0.4,0.4
2026-02-26T0800,1799A,118.5019,31.6449,马鞍山市,开发区,,30,,42,21,28,52,,55,55,16,14,4,4,0.4,0.4
2026-02-26T0800,3633A,118.4914,31.681,马鞍山市,雨山,,23,,44,16,28,52,,52,52,13,11,1,2,0.4,0.4
2026-02-26T0800,4191A,118.527362,31.722269,马鞍山市,慈湖高新区,,28,28,50,19,31,48,,54,54,18,11,4,4,0.3,0.4
2026-02-26T0800,1686A,111.0285,21.469,茂名市,电白南海,,39,39,50,14,22,54,,62,62,10,9,5,5,0.9,0.8
2026-02-26T0800,1687A,110.9294,21.6533,茂名市,茂石化七小,,39,39,57,18,27,48,,52,52,13,13,5,5,0.5,0.5
2026-02-26T0800,1688A,110.9108,21.6688,茂名市,健康路,,31,31,49,16,24,55,,60,60,12,12,3,4,0.6,0.6
2026-02-26T0800,1689A,110.8592,21.6826,茂名市,高岭,,41,41,66,15,25,53,,60,60,13,14,2,2,/,/
2026-02-26T0800,3450A,111.0101,21.5165,茂名市,电白水东,,29,29,42,14,20,59,,66,66,16,16,3,3,/,/
2026-02-26T0800,2540A,103.8414,30.0871,眉山市,气象局,颗粒物(PM10),56,61,69,31,28,24,,68,68,30,13,5,7,0.4,0.3
2026-02-26T0800,3148A,103.829,30.0563,眉山市,区人社局,颗粒物(PM10),55,60,68,32,29,44,,64,64,35,18,8,10,0.8,0.6
2026-02-26T0800,4148A,103.8836,30.0695,眉山市,眉职院,颗粒物(PM10),58,65,70,32,29,32,,61,61,30,14,6,6,0.6,0.5
2026-02-26T0800,1690A,116.1248,24.3307,梅州市,梅江月梅,颗粒物(PM10),55,60,31,27,25,40,,50,50,11,10,/,/,/,/
2026-02-26T0800,1691A,116.0798,24.2719,梅州市,梅县新城,,46,34,38,32,26,28,,31,31,18,13,8,8,0.7,0.6
2026-02-26T0800,3315A,116.1234,24.2994,梅州市,梅龙,,29,24,26,20,25,47,,54,54,8,8,5,5,0.7,0.7
2026-02-26T0800,1878A,104.7775,31.4741,绵阳市,富乐山,,29,29,41,16,22,47,,50,50,6,8,8,9,0.5,0.5
2026-02-26T0800,1880A,104.6698,31.4668,绵阳市,高新区自来水公司,,47,47,48,25,23,4,,44,44,45,16,8,9,0.6,0.5
2026-02-26T0800,3491A,104.6899,31.5324,绵阳市,西科大附属小学,,49,49,50,25,25,15,,41,41,36,17,7,8,0.5,0.5
2026-02-26T0800,3492A,104.5647,31.5343,绵阳市,安州区旅游局,颗粒物(PM10),55,60,49,26,26,18,,35,35,24,17,3,6,0.7,0.6
2026-02-26T0800,4146A,104.7092,31.4972,绵阳市,科技城新区公安局,,43,43,51,20,23,31,,52,52,26,15,6,7,0.9,0.8
2026-02-26T0800,4226A,104.765114,31.453094,绵阳市,绵阳市气象局,,32,32,42,17,22,44,,51,51,12,12,8,8,0.8,0.8
2026-02-26T0800,1784A,129.61,44.561,牡丹江市,环保大楼,颗粒物(PM10),75,99,51,48,28,43,,64,64,24,16,9,7,0.6,0.4
2026-02-26T0800,1787A,129.6364,44.6075,牡丹江市,机车工厂,颗粒物(PM10),79,108,50,50,26,43,,54,54,26,21,12,10,0.6,0.5
2026-02-26T0800,1788A,129.6386,44.5462,牡丹江市,第一中学,颗粒物(PM10),69,88,49,40,29,47,,62,62,20,16,50,10,0.6,0.5
2026-02-26T0800,4287A,129.5992,44.5964,牡丹江市,东晓云街98号,颗粒物(PM10),76,101,51,36,29,53,,62,62,17,21,9,9,0.6,0.6
2026-02-26T0800,2531A,105.0703,29.61,内江市,市监测站,,46,45,44,32,36,13,,41,41,28,11,7,7,0.7,0.3
2026-02-26T0800,2533A,105.0657,29.5807,内江市,内江二中,,43,40,51,30,34,39,,48,48,22,18,7,8,0.5,0.5
2026-02-26T0800,2534A,105.0407,29.5828,内江市,内江日报社,,47,47,41,29,35,17,,50,50,35,16,8,9,0.6,0.4
2026-02-26T0800,4147A,105.0433,29.6105,内江市,玉峰路西段888号,,,,46,30,37,25,,,,,19,10,10,0.5,0.3
2026-02-26T0800,2628A,92.0653,31.4846,那曲市,那曲监测站,,35,,19,24,18,44,,54,54,15,11,10,10,1.0,0.7
2026-02-26T0800,4243A,92.0515,31.4787,那曲市,那曲市委宣传部,,26,18,13,18,10,45,,64,64,9,4,5,4,0.7,0.4
2026-02-26T0800,1291A,115.8887,28.7006,南昌市,省林业公司,,32,,22,22,22,2,,10,10,33,16,3,3,0.8,0.8
2026-02-26T0800,1292A,115.813,28.7443,南昌市,林科所,,22,17,24,15,18,10,,7,7,23,18,7,7,1.2,1.1
2026-02-26T0800,1294A,115.8518,28.687,南昌市,建工学校,,38,32,39,26,24,9,,13,13,27,19,6,6,0.3,0.3
2026-02-26T0800,1295A,115.8926,28.6425,南昌市,象湖,,36,,27,25,24,6,,7,7,25,22,7,8,1.0,1.1
2026-02-26T0800,3046A,115.9084,28.6062,南昌市,机电学校,,32,30,37,22,24,8,,10,10,23,17,4,5,0.6,0.6
2026-02-26T0800,3690A,115.9718,28.7032,南昌市,外国语学校,,33,,27,23,23,16,,22,22,15,13,7,7,0.7,0.7
2026-02-26T0800,4106A,115.7923,28.6873,南昌市,工业二路,,40,38,40,28,27,13,,16,16,26,22,4,4,1.0,0.8
2026-02-26T0800,4192A,115.931587,28.686774,南昌市,南京东路235号,,36,36,32,24,25,15,,19,19,17,14,4,5,0.5,0.5
2026-02-26T0800,1906A,106.0791,30.8022,南充市,南充市委,,37,37,41,23,29,10,,27,27,35,19,6,6,0.8,0.7
2026-02-26T0800,1907A,106.1038,30.8215,南充市,南充炼油厂,,45,45,44,23,29,20,,33,33,24,16,5,9,0.7,0.6
2026-02-26T0800,4227A,106.108336,30.788436,南充市,梨树横街98号,,35,33,42,24,32,30,,33,33,16,15,6,6,0.4,0.4
2026-02-26T0800,4304A,106.1172,30.843,南充市,清泉寺北路188号,,31,31,33,21,28,37,,41,41,12,11,6,5,0.5,0.6
2026-02-26T0800,4305A,106.067,30.7616,南充市,同庆路1号,,35,35,38,24,29,14,,28,28,31,20,6,6,0.6,0.5
2026-02-26T0800,1151A,118.8033,32.1085,南京市,迈皋桥,,25,25,49,14,27,68,,63,63,22,20,3,4,0.3,0.5
2026-02-26T0800,1152A,118.7487,32.057,南京市,草场门,,24,24,48,12,26,59,,59,59,21,19,6,5,0.3,0.4
2026-02-26T0800,1154A,118.770105,32.004342,南京市,中华门,,18,17,44,12,31,56,,54,54,7,7,4,4,0.4,0.4
2026-02-26T0800,1155A,118.8059,32.0329,南京市,瑞金路,,20,17,47,14,34,61,,58,58,22,20,4,4,0.4,0.4
2026-02-26T0800,1156A,118.7946,32.0774,南京市,玄武湖,,21,21,51,14,25,60,,54,54,21,23,6,6,0.6,0.6
2026-02-26T0800,1157A,118.6415,32.0964,南京市,浦口,,30,28,57,21,33,44,,42,42,17,17,4,4,0.4,0.4
2026-02-26T0800,1158A,118.730129,32.000956,南京市,奥体中心,,21,21,50,14,26,50,,50,50,19,18,7,6,0.2,0.3
2026-02-26T0800,1159A,118.9072,32.1047,南京市,仙林大学城,,31,31,55,18,32,65,,58,58,11,14,6,6,0.5,0.6
2026-02-26T0800,3422A,118.8443,31.919,南京市,江宁彩虹桥,,22,19,50,13,28,68,,65,65,10,10,5,4,0.4,0.4
2026-02-26T0800,3427A,118.8497,32.3599,南京市,六合雄州,细颗粒物(PM2.5),55,58,69,39,36,25,,39,39,27,21,4,4,0.8,0.7
2026-02-26T0800,4086A,118.7641,32.0841,南京市,新模范马路66号,,25,22,53,15,32,77,,71,71,14,10,4,4,0.5,0.7
2026-02-26T0800,4249A,118.8707617,31.34017673,南京市,汶溪路181号,,16,15,35,3,34,50,,54,54,16,13,5,6,0.7,0.6
2026-02-26T0800,4312A,119.019,31.6512,南京市,中山西路1号,,18,,32,12,23,51,,58,58,13,9,4,4,0.7,0.7
2026-02-26T0800,1401A,108.3098,22.788,南宁市,二十一中,,45,45,73,27,68,24,,15,15,16,24,4,4,0.7,0.8
2026-02-26T0800,1402A,108.3135,22.8529,南宁市,北湖,细颗粒物(PM2.5),89,80,75,66,71,1,,5,5,29,25,2,2,1.0,0.9
2026-02-26T0800,1403A,108.3205,22.8222,南宁市,市监测站,,48,48,68,26,62,23,,15,15,17,24,5,5,0.7,0.9
2026-02-26T0800,1404A,108.3828,22.8038,南宁市,大自然花园,,45,42,83,31,68,27,,18,18,11,19,5,5,0.8,0.9
2026-02-26T0800,1406A,108.2397,22.8462,南宁市,区农职院,细颗粒物(PM2.5),69,83,74,50,53,0,,0,0,26,29,4,4,0.7,0.7
2026-02-26T0800,1407A,108.3285,22.7356,南宁市,英华嘉园,,46,46,82,23,71,21,,12,12,15,19,3,3,0.6,0.8
2026-02-26T0800,3401A,108.4829,22.762,南宁市,红星社区,,46,46,82,24,74,23,,11,11,12,20,3,5,0.6,0.9
2026-02-26T0800,4132A,108.2927,23.1477,南宁市,起凤路9号,细颗粒物(PM2.5),62,58,59,44,51,22,,30,30,19,12,3,3,0.8,0.8
2026-02-26T0800,4221A,108.2177,22.7774,南宁市,乐贤路16号,,48,48,64,22,53,19,,11,11,24,29,1,2,0.5,0.7
2026-02-26T0800,2332A,118.1682,26.6371,南平市,南平市监测站,,12,9,13,3,8,36,,37,37,8,8,4,4,0.3,0.4
2026-02-26T0800,2334A,118.1757,26.6276,南平市,南平七中,,12,,14,3,6,37,,39,39,5,5,2,2,0.4,0.5
2026-02-26T0800,1168A,120.9056,31.9669,南通市,狼山街道,,21,21,41,14,19,53,,70,70,15,11,3,3,0.6,0.5
2026-02-26T0800,1170A,120.8635,32.0231,南通市,城中,,30,30,44,13,19,53,,73,73,15,10,3,3,0.5,0.5
2026-02-26T0800,1171A,120.9376,31.9301,南通市,星湖花园,,23,23,36,14,19,55,,69,69,15,9,3,3,0.3,0.3
2026-02-26T0800,1172A,120.8053,32.046,南通市,紫琅学院,,29,29,43,12,15,56,,71,71,14,10,4,3,0.4,0.4
2026-02-26T0800,3291A,121.0631,32.0644,南通市,通州监测站,,41,41,40,21,20,66,,74,74,14,13,4,3,0.5,0.5
2026-02-26T0800,3432A,120.9348,31.9874,南通市,环境教育馆,,24,24,39,15,17,49,,67,67,16,9,3,3,0.3,0.3
2026-02-26T0800,4091A,120.8692,31.9885,南通市,洪江路,,23,23,36,16,20,52,,68,68,16,11,3,4,0.5,0.5
2026-02-26T0800,2404A,112.5338,33.0086,南阳市,瓦房庄,,36,36,35,18,16,40,,47,47,9,9,4,4,0.7,0.6
2026-02-26T0800,2405A,112.5002,32.9734,南阳市,汉画馆,,32,30,38,22,28,39,,43,43,10,11,4,4,0.7,0.6
2026-02-26T0800,2406A,112.5778,33.0144,南阳市,气象站,,29,29,36,17,21,40,,46,46,13,12,4,4,0.6,0.6
2026-02-26T0800,2407A,112.548,32.9687,南阳市,理工学院,,31,31,36,20,21,42,,47,47,9,9,5,4,0.6,0.6
2026-02-26T0800,4008A,112.5233,32.9921,南阳市,卧龙区政府,,22,22,37,15,22,39,,46,46,10,9,5,5,0.6,0.5
2026-02-26T0800,1234A,121.8352,29.9111,宁波市,区环保大楼,,35,35,40,17,16,35,,52,52,29,18,6,6,0.4,0.3
2026-02-26T0800,1235A,121.5595,29.8208,宁波市,万里学院,,26,26,34,12,15,52,,54,54,18,16,3,3,0.5,0.5
2026-02-26T0800,1236A,121.713,29.9564,宁波市,龙赛医院,,33,33,38,18,17,46,,56,56,17,15,4,4,0.4,0.3
2026-02-26T0800,1240A,121.5855,29.8635,宁波市,太古小学,,25,25,33,11,14,61,,59,59,12,13,2,2,0.6,0.5
2026-02-26T0800,1241A,121.5239,29.8673,宁波市,市环境监测中心,,30,30,34,11,15,51,,56,56,20,15,3,3,0.4,0.4
2026-02-26T0800,2871A,121.6156,29.9015,宁波市,万里国际学校,,26,26,31,11,14,66,,64,64,11,14,3,3,0.5,0.5
2026-02-26T0800,3710A,121.5593,29.8976,宁波市,白沙活动中心,,26,26,28,14,14,60,,59,59,14,12,4,4,0.5,0.5
2026-02-26T0800,4095A,121.8962,29.7529,宁波市,中科路88号,,40,40,33,25,19,62,,51,51,9,14,5,5,0.4,0.5
2026-02-26T0800,2341A,119.5387,26.6611,宁德市,宁德市监测站,,19,18,17,13,12,51,,68,68,16,12,3,3,0.4,0.4
2026-02-26T0800,3209A,119.5231,26.6562,宁德市,宁德一中,,25,,16,17,14,54,,72,72,12,11,4,3,0.2,0.2
2026-02-26T0800,2618A,98.859,25.8541,怒江傈僳族自治州,州监测站,,26,23,45,18,32,68,,86,86,7,8,6,6,0.3,0.4
2026-02-26T0800,2619A,98.8607,25.8168,怒江傈僳族自治州,泸水一中,,34,34,39,13,33,48,,76,76,11,10,4,5,0.4,0.5
2026-02-26T0800,1888A,101.6891,26.571,攀枝花市,弄弄坪,细颗粒物(PM2.5),63,69,55,45,38,57,,86,86,37,30,14,29,0.9,1.7
2026-02-26T0800,1889A,101.577,26.5914,攀枝花市,河门口,细颗粒物(PM2.5),85,72,55,63,42,44,,63,63,18,12,14,16,0.9,0.7
2026-02-26T0800,1891A,101.7365,26.4986,攀枝花市,仁和,细颗粒物(PM2.5),67,51,47,48,40,62,,74,74,13,13,7,9,0.8,1.1
2026-02-26T0800,2835A,101.7222,26.567,攀枝花市,四十中小,细颗粒物(PM2.5),92,,59,68,37,35,,76,76,50,26,14,19,1.1,1.5
2026-02-26T0800,1604A,122.0303,41.1489,盘锦市,开发区,颗粒物(PM10),57,63,85,8,33,69,,63,63,8,10,3,4,0.3,0.4
2026-02-26T0800,1605A,122.0486,41.0883,盘锦市,兴隆台,颗粒物(PM10),52,54,91,3,36,69,,63,63,11,15,4,7,0.4,0.5
2026-02-26T0800,1606A,121.8297,41.1026,盘锦市,新生街道,颗粒物(PM10),55,60,88,6,34,68,,56,56,10,15,6,6,0.3,0.4
2026-02-26T0800,1832A,113.3257,33.7423,平顶山市,新华旅馆,,39,39,48,23,29,20,,26,26,12,14,6,6,0.6,0.5
2026-02-26T0800,1833A,113.2917,33.737,平顶山市,规划设计院,,36,26,43,25,28,19,,25,25,15,13,5,5,0.9,0.7
2026-02-26T0800,1834A,113.182,33.7738,平顶山市,平顶山工学院,细颗粒物(PM2.5),54,,35,38,29,26,,34,34,14,13,2,3,0.4,0.4
2026-02-26T0800,3594A,112.8736,33.9068,平顶山市,石龙区,,50,44,38,35,28,40,,41,41,7,9,5,4,0.6,0.6
2026-02-26T0800,4116A,113.284,33.7139,平顶山市,姚电大道23号,,33,28,48,23,29,22,,29,29,15,14,5,4,0.6,0.5
2026-02-26T0800,2656A,106.6633,35.5338,平凉市,聚贤嘉苑,颗粒物(PM10),74,97,173,30,58,48,,53,53,16,12,6,6,0.8,0.7
2026-02-26T0800,2657A,106.7021,35.5307,平凉市,博物馆,颗粒物(PM10),69,88,164,36,58,44,,52,52,20,12,14,11,0.7,0.5
2026-02-26T0800,2348A,113.8384,27.6436,萍乡市,中医院,,20,20,36,8,22,23,,32,32,10,9,3,3,0.5,0.5
2026-02-26T0800,2350A,113.8677,27.6438,萍乡市,市环保局,,15,14,28,10,23,31,,37,37,10,10,8,6,0.5,0.8
2026-02-26T0800,2351A,113.8663,27.6202,萍乡市,安源区政府,,23,,34,16,24,8,,19,19,22,15,4,4,0.6,0.8
2026-02-26T0800,4107A,113.8686,27.6668,萍乡市,联洪村委会,,15,14,27,10,19,24,,32,32,6,6,3,2,0.4,0.5
2026-02-26T0800,2319A,119.0142,25.4324,莆田市,荔城区仓后路,,40,36,28,28,17,26,,42,42,20,12,/,/,/,/
2026-02-26T0800,2320A,119.0016,25.4553,莆田市,莆田市监测站,,19,19,25,8,14,41,,44,44,9,11,2,2,0.4,0.4
2026-02-26T0800,2321A,119.112,25.4561,莆田市,涵江区六中,,24,24,22,16,13,27,,48,48,27,11,/,/,0.5,0.4
2026-02-26T0800,2322A,119.1014,25.3215,莆田市,秀屿区政府,,20,14,25,11,14,63,,68,68,10,8,3,3,0.4,0.4
2026-02-26T0800,2392A,115.0312,35.7636,濮阳市,环保局,细颗粒物(PM2.5),73,75,59,53,27,29,,42,42,21,18,6,6,0.8,0.7
2026-02-26T0800,3021A,115,35.7667,濮阳市,濮水河管理处,细颗粒物(PM2.5),64,71,60,46,29,31,,39,39,12,9,6,6,0.7,0.5
2026-02-26T0800,4118A,115.0552,35.7816,濮阳市,中原东路68号,颗粒物(PM10),61,71,67,37,28,29,,41,41,20,17,5,4,0.8,0.6
2026-02-26T0800,4216A,115.0923632,35.76857718,濮阳市,任丘路479号,颗粒物(PM10),59,67,70,41,30,29,,39,39,17,13,5,4,0.8,0.7
2026-02-26T0800,2601A,100.9801,22.7634,普洱市,市环保局,,34,34,36,13,15,50,,55,55,4,6,5,5,0.7,0.7
2026-02-26T0800,2602A,100.9763,22.8237,普洱市,普洱第二中学,,27,27,33,10,19,45,,39,39,9,9,5,6,0.6,0.6
2026-02-26T0800,3345A,131.0413,45.7795,七台河市,中波台,颗粒物(PM10),70,89,51,30,16,68,,82,82,10,6,6,7,0.3,0.3
2026-02-26T0800,3637A,131.0136,45.7688,七台河市,人民广场,颗粒物(PM10),78,106,58,20,17,64,,81,81,17,12,13,8,0.5,0.4
2026-02-26T0800,3684A,130.8639,45.8144,七台河市,新建矿广场,颗粒物(PM10),71,92,82,22,20,61,,67,67,9,12,4,7,0.3,0.3
2026-02-26T0800,1779A,123.9307,47.3641,齐齐哈尔市,安居小区,,26,26,43,8,26,65,,70,70,6,12,1,5,0.3,0.4
2026-02-26T0800,1780A,123.9497,47.3389,齐齐哈尔市,中心广场,,20,15,43,3,24,61,,68,68,9,12,6,7,0.8,0.8
2026-02-26T0800,1781A,123.9483,47.3229,齐齐哈尔市,农牧车辆厂,,24,24,49,6,26,65,,70,70,8,10,6,6,0.3,0.3
2026-02-26T0800,1783A,123.9442,47.2994,齐齐哈尔市,市环境监测站,,33,33,49,3,25,63,,68,68,8,12,2,3,0.3,0.4
2026-02-26T0800,3662A,123.6341,47.2079,齐齐哈尔市,富区青少年活动中心,,49,49,56,8,28,56,,64,64,15,12,7,4,0.6,0.6
2026-02-26T0800,2591A,107.9765,26.5724,黔东南苗族侗族自治州,市环境监测站,,39,34,51,27,32,15,,14,14,7,14,4,5,0.6,0.7
2026-02-26T0800,2881A,107.8909,26.531,黔东南苗族侗族自治州,凯里学院,,36,,28,25,20,22,,32,32,8,10,3,3,0.6,0.6
2026-02-26T0800,2593A,107.5223,26.2371,黔南布依族苗族自治州,小围寨,,16,12,17,11,15,32,,43,43,5,5,6,5,0.5,0.5
2026-02-26T0800,3538A,107.5175,26.2977,黔南布依族苗族自治州,沙坝,,20,19,20,14,14,23,,38,38,7,6,4,4,0.7,0.7
2026-02-26T0800,2589A,104.9022,25.0943,黔西南布依族苗族自治州,场坝街,,25,24,30,15,23,80,,82,82,5,6,5,5,0.4,0.5
2026-02-26T0800,2590A,104.8812,25.0994,黔西南布依族苗族自治州,坪东大道,,28,28,25,17,23,69,,82,82,11,6,6,6,0.5,0.4
2026-02-26T0800,2502A,108.6238,21.9667,钦州市,市环保站,,24,24,55,6,28,44,,39,39,6,13,2,4,0.3,0.5
2026-02-26T0800,2503A,108.655,21.9481,钦州市,沙埠小学,,27,27,61,10,25,42,,32,32,8,14,3,4,0.4,0.6
2026-02-26T0800,2504A,108.5989,21.7435,钦州市,港区一小,细颗粒物(PM2.5),75,,75,55,23,41,,44,44,11,17,3,2,0.6,0.7
2026-02-26T0800,3404A,108.5959,21.9634,钦州市,北职校,,25,25,56,15,23,37,,31,31,10,16,2,4,0.5,0.6
2026-02-26T0800,1046A,119.5247,39.9346,秦皇岛市,建设大厦,细颗粒物(PM2.5),78,82,109,57,59,45,,37,37,13,21,4,6,0.6,0.6
2026-02-26T0800,3132A,119.5979,39.938,秦皇岛市,文明里,细颗粒物(PM2.5),72,76,108,52,53,48,,53,53,13,22,8,9,0.5,0.5
2026-02-26T0800,4066A,119.7458,39.9952,秦皇岛市,南园路157号,细颗粒物(PM2.5),74,73,104,54,56,43,,44,44,17,25,5,7,0.6,0.6
2026-02-26T0800,4067A,119.5131,39.8858,秦皇岛市,翠岛大街1号,细颗粒物(PM2.5),79,60,91,58,56,44,,51,51,17,21,7,8,0.6,0.6
2026-02-26T0800,4198A,119.509013,39.825305,秦皇岛市,北戴河轮滑馆,细颗粒物(PM2.5),75,95,103,55,48,48,,60,60,20,19,5,6,0.5,0.5
2026-02-26T0800,1310A,120.404,36.0625,青岛市,市南区东部子站,颗粒物(PM10),71,92,72,23,21,78,,81,81,14,8,8,8,0.5,0.4
2026-02-26T0800,1311A,120.362344,36.10282,青岛市,四方区子站,颗粒物(PM10),64,78,73,20,20,69,,75,75,23,14,4,4,0.6,0.5
2026-02-26T0800,1312A,120.294373,36.054183,青岛市,市南区西部子站,颗粒物(PM10),64,78,63,20,22,88,,86,86,11,12,3,2,0.6,0.5
2026-02-26T0800,1313A,120.4581,36.0858,青岛市,崂山区子站,颗粒物(PM10),65,80,71,23,20,87,,84,84,7,5,6,6,0.4,0.3
2026-02-26T0800,1315A,120.3945,36.3083,青岛市,城阳区子站,,,102,94,35,31,,,50,50,21,20,5,5,0.8,0.7
2026-02-26T0800,3642A,120.3454,36.0735,青岛市,市北区南部,颗粒物(PM10),64,77,77,22,21,84,,84,84,10,8,3,2,0.7,0.6
2026-02-26T0800,3643A,120.3897,36.18,青岛市,李沧区北部,颗粒物(PM10),60,70,86,26,23,46,,64,64,35,17,8,8,0.6,0.5
2026-02-26T0800,4110A,120.5222,36.4089,青岛市,盟旺路653号,颗粒物(PM10),78,106,68,32,20,56,,75,75,13,6,1,2,0.8,0.6
2026-02-26T0800,4290A,120.196923,35.954556,青岛市,珠江路669号,颗粒物(PM10),70,90,71,20,20,72,,73,73,21,15,7,7,0.4,0.4
2026-02-26T0800,4291A,120.0424,35.8656,青岛市,黄岛区人民政府广场,颗粒物(PM10),68,85,79,18,17,71,,77,77,17,12,7,6,0.5,0.4
2026-02-26T0800,1703A,113.0218,23.7086,清远市,凤城街办,,23,23,39,15,26,36,,32,32,15,21,/,/,/,/
2026-02-26T0800,3025A,113.0479,23.6343,清远市,技师学院,,21,21,37,11,21,38,,36,36,14,20,4,5,0.3,0.5
2026-02-26T0800,3318A,112.9898,23.7403,清远市,清新太和,,24,24,30,15,19,39,,38,38,18,16,8,9,0.5,0.6
2026-02-26T0800,3455A,113.076,23.72,清远市,清城东城,,23,23,31,12,18,35,,34,34,16,21,/,/,/,/
2026-02-26T0800,2661A,107.6325,35.7357,庆阳市,庆阳五中,颗粒物(PM10),79,108,126,28,41,67,,76,76,14,10,6,6,0.7,0.5
2026-02-26T0800,2662A,107.6361,35.7067,庆阳市,市环保局,,,,131,,44,,,82,,,10,,5,,0.5
2026-02-26T0800,1916A,103.7897,25.5036,曲靖市,环境监测站,,43,36,36,30,30,82,,85,85,9,7,5,5,0.4,0.4
2026-02-26T0800,1917A,103.8013,25.5357,曲靖市,烟厂办公区,,38,36,36,26,24,78,,79,79,8,7,4,5,0.6,0.5
2026-02-26T0800,3376A,103.7926,25.4651,曲靖市,南苑二区,,29,29,35,16,25,79,,79,79,8,9,4,4,0.5,0.4
2026-02-26T0800,3377A,103.7442,25.5259,曲靖市,曲靖师范学院,,40,35,37,28,28,80,,81,81,8,7,2,2,0.3,0.2
2026-02-26T0800,1264A,118.8694,28.94,衢州市,环保大楼,,39,36,27,27,21,29,,37,37,17,13,/,/,/,/
2026-02-26T0800,1266A,118.8622,28.9809,衢州市,衢州学院,,35,30,23,24,19,16,,34,34,22,10,3,4,0.6,0.5
2026-02-26T0800,4097A,118.9646,28.9832,衢州市,衢州三中,,40,35,28,28,22,26,,32,32,15,13,5,5,0.5,0.5
2026-02-26T0800,1611A,118.5818,24.9116,泉州市,涂山街,,26,20,20,18,16,36,,42,42,11,11,3,3,0.6,0.6
2026-02-26T0800,1612A,118.597,24.8976,泉州市,津头埔,,16,13,21,11,16,49,,49,49,9,11,2,3,0.5,0.5
2026-02-26T0800,1613A,118.6669,24.9422,泉州市,万安,,23,18,22,16,17,41,,47,47,11,11,3,4,0.5,0.5
2026-02-26T0800,4105A,118.6355,24.9148,泉州市,霞新路6号,,18,15,19,12,15,43,,47,47,13,11,/,/,0.4,0.4
2026-02-26T0800,2626A,88.8873,29.2723,日喀则市,日喀则监测站,,22,13,23,12,12,68,,78,78,7,13,8,10,0.5,0.6
2026-02-26T0800,3726A,88.8775,29.2425,日喀则市,林业技术推广中心,,24,16,23,3,7,76,,94,94,5,5,9,8,0.4,0.4
2026-02-26T0800,1659A,119.4711,35.421,日照市,监测站,,41,41,89,12,23,84,,82,82,17,18,6,6,0.5,0.5
2026-02-26T0800,1660A,119.523,35.4216,日照市,市政府广场,颗粒物(PM10),51,51,86,13,23,86,,86,86,11,11,5,5,0.4,0.4
2026-02-26T0800,1661A,119.5511,35.4113,日照市,港务局,颗粒物(PM10),57,63,92,13,21,84,,84,84,15,14,4,4,0.6,0.5
2026-02-26T0800,3507A,119.5326,35.4627,日照市,职业技术学院,颗粒物(PM10),52,53,85,16,22,79,,80,80,13,12,6,6,0.7,0.6
2026-02-26T0800,3604A,119.3267,35.1043,日照市,岚山环保分局,,36,36,85,10,20,87,,88,88,15,14,9,9,0.6,0.6
2026-02-26T0800,1835A,111.1922,34.7752,三门峡市,市政府,,43,,43,30,35,25,,28,28,15,13,8,6,0.3,0.2
2026-02-26T0800,1836A,111.1588,34.794,三门峡市,开发区,细颗粒物(PM2.5),53,44,65,37,45,26,,29,29,16,14,7,7,0.6,0.5
2026-02-26T0800,3039A,111.1911,34.7829,三门峡市,三门峡市第一小学,,49,39,59,34,38,24,,28,28,15,12,11,8,0.5,0.5
2026-02-26T0800,3598A,111.1031,34.719,三门峡市,富达温泉假日酒店,细颗粒物(PM2.5),64,60,54,46,46,14,,20,20,14,10,8,9,0.5,0.4
2026-02-26T0800,2324A,117.621,26.2626,三明市,三钢,,22,,24,15,19,14,,15,15,15,11,4,6,0.6,0.6
2026-02-26T0800,2325A,117.6352,26.2714,三明市,三明二中,,16,,23,11,15,15,,16,16,12,10,4,6,0.6,0.5
2026-02-26T0800,2326A,117.6028,26.2377,三明市,三元区政府,,19,16,22,13,17,12,,14,14,14,11,4,5,0.9,0.8
2026-02-26T0800,1877A,109.4962,18.2682,三亚市,河西子站,,34,34,34,14,15,58,,60,60,4,4,1,1,0.3,0.3
2026-02-26T0800,3540A,109.7348,18.3443,三亚市,君悦子站,,32,32,33,18,17,25,,45,45,11,5,2,2,0.3,0.3
2026-02-26T0800,4135A,109.1714,18.3739,三亚市,城东小学站,,28,28,36,16,16,15,,16,16,8,9,/,/,/,/
2026-02-26T0800,2624A,91.7592,29.234,山南市,山南监测站,,24,11,11,3,6,76,,92,92,5,3,12,11,0.4,0.4
2026-02-26T0800,2625A,91.7701,29.2436,山南市,山南人民医院,,25,11,12,3,5,80,,92,92,4,3,10,10,0.4,0.4
2026-02-26T0800,1674A,116.6795,23.3666,汕头市,金平子站,,21,10,20,10,11,67,,74,74,9,7,5,5,0.6,0.6
2026-02-26T0800,1675A,116.7248,23.3632,汕头市,龙湖子站,,21,14,19,10,11,66,,73,73,13,10,5,4,/,/
2026-02-26T0800,1676A,116.7257,23.2774,汕头市,濠江子站,,22,18,20,12,11,68,,74,74,13,10,7,7,/,/
2026-02-26T0800,1677A,116.7518,23.4712,汕头市,澄海子站,,20,17,21,11,11,63,,63,63,9,6,8,8,0.5,0.6
2026-02-26T0800,1678A,116.6088,23.2539,汕头市,潮阳子站,,23,13,20,10,14,71,,75,75,8,5,6,5,0.4,0.4
2026-02-26T0800,3444A,116.4539,23.2684,汕头市,潮南峡山,,20,16,25,10,17,62,,71,71,9,5,6,5,0.6,0.7
2026-02-26T0800,3624A,116.4069,23.2533,汕头市,潮南子站,,20,20,32,10,19,60,,66,66,10,7,6,6,/,/
2026-02-26T0800,1693A,115.3653,22.7751,汕尾市,市环保局,,22,18,29,15,18,66,,74,74,8,7,5,5,0.7,0.7
2026-02-26T0800,1695A,115.362,22.7926,汕尾市,新城中学,,23,22,27,16,16,65,,72,72,8,7,5,6,0.6,0.6
2026-02-26T0800,2645A,109.9155,33.8714,商洛市,监测站,,24,24,36,16,23,40,,33,33,5,12,5,6,0.8,0.8
2026-02-26T0800,3045A,109.9647,33.8486,商洛市,商州区中学,,22,19,34,15,24,40,,27,27,6,12,4,5,0.9,1
2026-02-26T0800,2408A,115.6701,34.4283,商丘市,环境监测站,细颗粒物(PM2.5),73,69,68,53,33,45,,49,49,9,7,2,2,0.7,0.5
2026-02-26T0800,2409A,115.6458,34.4047,商丘市,粮食局,细颗粒物(PM2.5),77,60,63,56,34,41,,48,48,9,7,3,2,0.6,0.3
2026-02-26T0800,3171A,115.6069,34.4465,商丘市,梁园区档案局,细颗粒物(PM2.5),74,58,65,54,31,46,,49,49,13,8,3,3,0.6,0.4
2026-02-26T0800,4119A,115.6701,34.3767,商丘市,北海东路185号,颗粒物(PM10),68,85,72,48,30,40,,47,47,11,8,2,2,0.6,0.4
2026-02-26T0800,4120A,115.6172,34.3704,商丘市,中山大街3号,细颗粒物(PM2.5),74,86,75,54,31,46,,50,50,12,10,3,3,0.6,0.3
2026-02-26T0800,1141A,121.401,31.2382,上海市,普陀,,32,32,38,22,21,54,,66,66,20,17,5,5,0.5,0.5
2026-02-26T0800,1142A,121.4774,31.2043,上海市,十五厂,,42,40,39,29,22,51,,65,65,25,20,8,8,0.6,0.6
2026-02-26T0800,1143A,121.4673,31.3011,上海市,虹口,,42,42,43,24,20,31,,50,50,33,18,6,5,0.4,0.3
2026-02-26T0800,1147A,121.4253,31.226,上海市,静安监测站,,33,33,36,23,19,55,,69,69,22,18,7,6,0.6,0.5
2026-02-26T0800,1148A,121.7029,31.1905,上海市,浦东川沙,,32,31,37,18,19,15,,36,36,63,27,5,3,0.2,0.2
2026-02-26T0800,1149A,121.5339,31.229,上海市,浦东新区监测站,,37,37,36,16,18,40,,60,60,26,16,6,5,0.4,0.5
2026-02-26T0800,1150A,121.5776,31.2038,上海市,浦东张江,,38,38,37,24,20,38,,60,60,31,17,6,6,0.5,0.5
2026-02-26T0800,3265A,121.4242,31.3303,上海市,宝山庙行,,46,46,43,24,20,35,,53,53,33,20,9,8,0.4,0.3
2026-02-26T0800,3266A,121.8789,31.4662,上海市,崇明上实东滩,,20,19,32,10,17,63,,74,74,9,5,5,5,0.2,0.2
2026-02-26T0800,3268A,121.316,31.2839,上海市,嘉定南翔,,28,28,37,19,22,56,,65,65,20,19,3,3,0.5,0.5
2026-02-26T0800,3269A,121.3357,30.7455,上海市,金山新城,,21,21,24,13,16,67,,74,74,16,11,3,3,0.5,0.5
2026-02-26T0800,3270A,121.4996,31.0741,上海市,闵行浦江,,28,28,35,19,21,55,,61,61,19,15,6,6,0.3,0.2
2026-02-26T0800,3271A,121.2886,31.1663,上海市,青浦徐泾,,28,28,38,17,23,44,,53,53,23,19,4,4,0.4,0.5
2026-02-26T0800,3272A,121.2193,31.0382,上海市,松江图书馆,,32,32,43,20,23,54,,59,59,23,19,6,6,0.3,0.5
2026-02-26T0800,3273A,121.3904,31.206,上海市,长宁仙霞,,31,31,38,18,19,57,,65,65,20,17,7,7,0.3,0.3
2026-02-26T0800,3274A,121.7964,31.0507,上海市,浦东惠南,,38,34,39,26,21,46,,59,59,20,17,4,5,0.6,0.6
2026-02-26T0800,3544A,121.4891,30.925,上海市,奉贤南桥新城,,26,26,37,13,23,63,,64,64,15,11,2,2,0.4,0.4
2026-02-26T0800,4183A,121.417401,31.16637,上海市,冠生园路458号,,34,34,35,23,22,56,,60,60,19,17,6,6,0.5,0.5
2026-02-26T0800,4205A,121.541914,31.268301,上海市,宁武路151号,,34,34,37,23,22,24,,45,45,44,23,6,6,0.4,0.3
2026-02-26T0800,2382A,117.9758,28.4439,上饶市,市监测站,,26,20,23,18,14,47,,53,53,12,12,5,4,/,/
2026-02-26T0800,2383A,117.9521,28.4637,上饶市,凤凰光学,,29,29,22,16,17,36,,44,44,14,13,6,7,0.6,0.6
2026-02-26T0800,3685A,117.897,28.4316,上饶市,双创科技城,,28,23,21,19,18,48,,56,56,13,11,4,4,0.7,0.8
2026-02-26T0800,4211A,118.190438,28.444845,上饶市,裕丰大道,,41,41,25,27,19,31,,42,42,19,14,9,8,0.9,0.7
2026-02-26T0800,1669A,113.5821,24.7733,韶关市,市八中,,27,27,48,14,12,23,,26,26,15,13,6,7,0.7,0.7
2026-02-26T0800,1671A,113.5916,24.7973,韶关市,园林处,,29,21,18,20,15,18,,27,27,19,12,4,5,/,/
2026-02-26T0800,1673A,113.5971,24.6864,韶关市,曲江监测站,,46,41,24,32,16,16,,37,37,20,16,10,13,1.2,0.9
2026-02-26T0800,2809A,113.6668,24.7756,韶关市,大学路288号,,30,24,16,21,12,12,,17,17,15,12,5,6,/,/
2026-02-26T0800,3622A,113.5556,24.8082,韶关市,碧湖山庄,,30,28,25,21,16,8,,17,17,10,8,6,6,0.9,0.9
2026-02-26T0800,2464A,111.5277,27.2442,邵阳市,市化工厂,细颗粒物(PM2.5),60,50,60,43,43,28,,42,42,8,8,6,6,0.7,0.7
2026-02-26T0800,2466A,111.4327,27.2276,邵阳市,市环保局,细颗粒物(PM2.5),63,47,54,45,44,33,,38,38,10,11,6,5,0.8,0.8
2026-02-26T0800,4218A,111.446,27.2472,邵阳市,北塔二期4-26地块,,50,46,53,35,34,27,,36,36,12,8,8,8,0.7,0.6
2026-02-26T0800,4219A,111.4739,27.2282,邵阳市,邵水西路287号,细颗粒物(PM2.5),59,49,55,42,41,31,,38,38,8,8,4,4,0.8,0.7
2026-02-26T0800,1247A,120.6053,29.9927,绍兴市,城东开发委,,30,28,33,21,21,32,,44,44,17,14,7,7,0.4,0.4
2026-02-26T0800,2921A,120.5482,30.0003,绍兴市,树下王站,,38,38,34,25,24,33,,48,48,18,13,6,6,0.3,0.2
2026-02-26T0800,3408A,120.5685,29.936,绍兴市,绍兴中专,,38,38,35,23,20,30,,41,41,14,12,5,6,0.7,0.6
2026-02-26T0800,3409A,120.4905,30.086,绍兴市,柯桥区政府,,35,35,38,23,22,38,,49,49,17,15,4,4,0.3,0.3
2026-02-26T0800,3410A,120.8751,30.0249,绍兴市,重华小学,,28,24,30,19,21,40,,49,49,14,13,6,6,0.4,0.3
2026-02-26T0800,3411A,120.837,30.0137,绍兴市,上虞中学,,26,26,33,18,21,42,,54,54,13,11,6,6,0.3,0.2
2026-02-26T0800,3560A,120.4715,30.0414,绍兴市,柯桥妇保,,38,38,36,26,23,30,,43,43,16,14,5,5,0.4,0.4
2026-02-26T0800,3658A,120.6156,30.0762,绍兴市,袍江中学,,33,32,41,23,26,37,,47,47,16,13,7,7,0.5,0.5
2026-02-26T0800,1356A,114.0948,22.5506,深圳市,通心岭子站,,25,17,27,8,16,77,,81,81,1,3,5,6,0.3,0.4
2026-02-26T0800,1357A,114.1153,22.5713,深圳市,洪湖,,24,19,32,9,16,75,,78,78,6,7,4,5,0.5,0.5
2026-02-26T0800,1358A,113.9823,22.5398,深圳市,华侨城,,23,15,33,7,17,72,,76,76,7,16,/,/,/,/
2026-02-26T0800,1359A,113.9181,22.517,深圳市,南海子站,,24,16,35,7,19,74,,76,76,5,18,6,7,0.3,0.3
2026-02-26T0800,1360A,114.2345,22.565,深圳市,盐田,,25,16,28,8,15,78,,62,62,6,20,7,7,0.4,0.4
2026-02-26T0800,1363A,114.4911,22.5381,深圳市,南澳,,23,18,29,6,13,72,,81,81,5,8,/,/,/,/
2026-02-26T0800,1364A,114.41,22.6346,深圳市,葵涌,,22,17,27,9,15,70,,77,77,6,7,7,13,0.5,0.5
2026-02-26T0800,1365A,114.2967,22.5978,深圳市,梅沙,,24,20,31,8,15,76,,85,85,9,8,/,/,/,/
2026-02-26T0800,1366A,114.0563,22.7353,深圳市,观澜,,22,22,32,11,17,70,,73,73,10,10,8,8,0.5,0.6
2026-02-26T0800,3305A,114.0614,22.556,深圳市,莲花,,24,17,26,10,16,74,,78,78,8,9,/,/,/,/
2026-02-26T0800,3306A,114.0144,22.6163,深圳市,民治,,21,16,32,7,18,65,,68,68,5,8,/,/,/,/
2026-02-26T0800,3307A,114.1756,22.6421,深圳市,横岗,,21,21,32,12,18,65,,77,77,16,10,/,/,/,/
2026-02-26T0800,3447A,114.344,22.7115,深圳市,坪山,,24,19,28,11,17,74,,83,83,7,7,8,8,0.5,0.5
2026-02-26T0800,3623A,113.8952,22.586,深圳市,西乡,,23,17,39,6,20,71,,72,72,8,20,5,7,0.5,0.5
2026-02-26T0800,4220A,114.214113,22.713717,深圳市,黄阁路,,23,17,28,8,15,72,,78,78,8,8,6,7,0.8,0.8
2026-02-26T0800,1099A,123.5058,41.7084,沈阳市,浑南东路,颗粒物(PM10),65,80,120,10,55,55,,53,53,20,25,10,12,0.5,0.8
2026-02-26T0800,1100A,123.4238,41.6992,沈阳市,新秀街,颗粒物(PM10),57,64,128,3,54,62,,64,64,18,22,9,11,0.6,0.9
2026-02-26T0800,1102A,123.5903,41.8412,沈阳市,东陵路,颗粒物(PM10),59,67,124,7,47,60,,49,49,10,15,6,19,0.4,0.9
2026-02-26T0800,1103A,123.4267,41.8466,沈阳市,陵东街,颗粒物(PM10),63,75,119,3,54,68,,61,61,10,21,7,13,0.5,0.8
2026-02-26T0800,1104A,123.4116,41.7654,沈阳市,文化路,,47,47,134,7,55,62,,57,57,14,20,10,11,0.5,0.9
2026-02-26T0800,1105A,123.4673,41.787,沈阳市,小河沿,,,70,113,7,54,,,68,68,15,18,9,9,0.7,1
2026-02-26T0800,1106A,123.4019,41.7978,沈阳市,太原街,,35,35,140,3,53,71,,68,68,12,20,7,11,0.4,0.8
2026-02-26T0800,1108A,123.3778,41.9233,沈阳市,京沈街,,41,41,134,3,48,77,,69,69,12,19,11,14,0.5,0.8
2026-02-26T0800,2897A,123.2429,41.7341,沈阳市,沈辽西路,颗粒物(PM10),52,54,140,6,60,60,,55,55,21,20,9,11,0.4,0.8
