timepoint,stationcode,longitude,latitude,area,positionname,primarypollutant,aqi,pm10,pm10_24h,pm2_5,pm2_5_24h,o3,o3_24h,o3_8h,o3_8h_24h,no2,no2_24h,so2,so2_24h,co,co_24h
2026-02-26T2200,2568A,102.2503,31.8896,阿坝藏族羌族自治州,马师校,,25,25,20,8,8,76,,104,98,4,4,5,5,0.3,0.3
2026-02-26T2200,3994A,102.2174,31.9016,阿坝藏族羌族自治州,马尔康中学西区,,32,32,28,7,6,69,,89,84,6,5,6,6,0.4,0.3
2026-02-26T2200,2695A,80.2899,41.1684,阿克苏地区,电视台,颗粒物(PM10),500,777,653,225,171,63,,78,77,15,14,3,3,0.8,0.8
2026-02-26T2200,2696A,80.2592,41.1541,阿克苏地区,艺术中心,颗粒物(PM10),500,733,631,224,197,50,,81,78,29,16,5,4,0.6,0.6
2026-02-26T2200,2205A,105.699,38.8409,阿拉善盟,蒙二幼,颗粒物(PM10),72,93,81,28,18,53,,90,81,25,10,11,11,0.7,0.5
2026-02-26T2200,2206A,105.7198,38.8508,阿拉善盟,环保局新楼,颗粒物(PM10),68,86,76,26,17,83,,84,80,5,6,10,10,0.5,0.5
2026-02-26T2200,2708A,88.1266,47.8515,阿勒泰地区,市站,,30,17,14,15,8,40,,93,77,60,19,8,5,0.5,0.3
2026-02-26T2200,4166A,88.1198,47.7931,阿勒泰地区,阿勒泰路33号,,29,29,20,16,9,64,,83,79,31,19,4,5,0.6,0.5
2026-02-26T2200,2630A,80.1171,32.4999,阿里地区,阿里监测站,,34,15,13,3,4,107,,107,107,1,5,7,5,0.2,0.3
2026-02-26T2200,3192A,80.0906,32.5029,阿里地区,阿里藏医院,,36,15,13,3,3,115,,114,114,1,5,6,9,0.2,0.3
2026-02-26T2200,2644A,109.0088,32.6974,安康市,汉滨区检察院,,42,42,23,20,19,21,,51,41,17,10,4,2,0.7,0.6
2026-02-26T2200,4054A,109.0324,32.6913,安康市,市邮政管理局,,32,32,23,22,16,10,,49,36,20,10,5,4,0.8,0.6
2026-02-26T2200,2291A,117.0806,30.5181,安庆市,环科院,,20,,21,14,17,32,,41,36,14,12,6,6,0.7,0.7
2026-02-26T2200,2292A,117.0331,30.5118,安庆市,马山宾馆,,19,14,22,13,17,37,,42,38,14,14,4,5,0.9,0.8
2026-02-26T2200,2294A,116.9897,30.6146,安庆市,安庆大学,,16,16,22,10,13,39,,42,39,10,9,3,4,0.5,0.5
2026-02-26T2200,3173A,117.0598,30.5351,安庆市,市人大,,18,16,23,12,15,37,,40,36,14,14,5,5,0.5,0.6
2026-02-26T2200,3123A,105.9408,26.2431,安顺市,凤凰山,,35,27,34,24,31,92,,112,109,8,8,13,11,0.3,0.4
2026-02-26T2200,3124A,105.9443,26.2567,安顺市,金钟山,,38,30,32,26,31,91,,112,109,7,7,11,11,0.4,0.4
2026-02-26T2200,3125A,105.8983,26.248,安顺市,娄家坡,,49,34,37,34,34,86,,111,106,9,8,12,16,0.4,0.5
2026-02-26T2200,1819A,114.3552,36.1017,安阳市,红庙街,细颗粒物(PM2.5),78,83,41,57,38,34,,43,40,22,18,3,2,0.4,0.3
2026-02-26T2200,1820A,114.361,36.0681,安阳市,银杏小区,细颗粒物(PM2.5),87,72,42,64,39,33,,45,42,14,12,3,4,0.5,0.4
2026-02-26T2200,3141A,114.3921,36.0879,安阳市,信访局,细颗粒物(PM2.5),87,76,44,64,40,33,,45,42,16,12,2,2,0.6,0.5
2026-02-26T2200,3669A,114.4706,36.0634,安阳市,左辅环卫站,细颗粒物(PM2.5),80,82,54,59,40,38,,45,43,9,8,3,3,0.4,0.3
2026-02-26T2200,4117A,114.2918,36.0769,安阳市,钢三路198号,细颗粒物(PM2.5),87,89,52,64,39,33,,41,40,17,14,2,2,0.4,0.4
2026-02-26T2200,1748A,123.0441,41.1201,鞍山市,深沟寺,细颗粒物(PM2.5),110,117,98,83,51,33,,64,50,39,24,8,8,0.9,0.7
2026-02-26T2200,1749A,123.011,41.0931,鞍山市,太阳城,细颗粒物(PM2.5),104,98,94,78,52,36,,62,48,34,23,13,12,0.8,0.7
2026-02-26T2200,1750A,123.0483,41.1445,鞍山市,太平,细颗粒物(PM2.5),124,146,99,94,51,31,,59,47,40,23,18,11,0.6,0.6
2026-02-26T2200,1751A,122.964,41.0968,鞍山市,铁西三道街,细颗粒物(PM2.5),102,108,105,76,57,40,,51,43,34,38,11,18,0.8,1.9
2026-02-26T2200,1753A,123.0219,41.0822,鞍山市,明达新区,细颗粒物(PM2.5),78,77,93,57,50,41,,62,49,32,24,12,11,0.7,0.7
2026-02-26T2200,4201A,122.944647,41.082639,鞍山市,兴盛南路290号,细颗粒物(PM2.5),97,101,105,72,56,37,,45,36,40,44,16,18,1.1,2
2026-02-26T2200,2195A,107.4206,40.7609,巴彦淖尔市,附二中,颗粒物(PM10),82,113,79,44,27,32,,60,57,35,12,10,10,0.7,0.4
2026-02-26T2200,2196A,107.37,40.7372,巴彦淖尔市,市环保大楼,颗粒物(PM10),86,121,74,47,26,27,,58,52,41,20,9,8,0.7,0.4
2026-02-26T2200,1956A,86.1476,41.7529,巴音郭楞蒙古自治州,孔雀公园,颗粒物(PM10),176,301,160,100,41,59,,78,75,22,10,10,9,0.6,0.4
2026-02-26T2200,1957A,86.1971,41.7166,巴音郭楞蒙古自治州,棉纺厂,颗粒物(PM10),168,286,145,81,36,46,,80,75,34,20,/,/,/,/
2026-02-26T2200,1958A,86.236,41.7172,巴音郭楞蒙古自治州,经济开发区,颗粒物(PM10),153,255,128,47,22,41,,74,69,23,7,6,6,0.4,0.3
2026-02-26T2200,3181A,106.776805,31.852614,巴中市,市五中,,40,36,32,28,21,28,,72,63,14,14,7,7,0.8,0.9
2026-02-26T2200,3183A,106.7419,31.8654,巴中市,圣泉水务公司,,38,38,33,26,23,15,,77,60,35,17,8,8,0.9,0.9
2026-02-26T2200,3616A,106.7617,31.8343,巴中市,市中心医院,,40,39,33,28,24,12,,71,57,34,17,8,8,0.9,0.8
2026-02-26T2200,2235A,122.7909,45.608,白城市,洮北区环保局,,30,27,23,21,12,69,,78,73,12,10,6,5,0.2,0.2
2026-02-26T2200,2236A,122.8741,45.5725,白城市,市环保局,,29,29,19,16,11,42,,77,56,17,9,4,4,0.3,0.2
2026-02-26T2200,2231A,126.4219,41.9172,白山市,喜丰,,38,38,87,9,32,61,,76,67,13,27,7,12,0.6,0.9
2026-02-26T2200,2232A,126.4082,41.9416,白山市,环保局,,29,29,61,12,28,65,,72,67,8,21,9,11,0.6,0.8
2026-02-26T2200,2647A,104.1727,36.5448,白银市,第三小学,颗粒物(PM10),77,104,113,37,37,78,,91,91,11,14,4,22,0.4,0.5
2026-02-26T2200,2648A,104.1467,36.5482,白银市,动力公司,颗粒物(PM10),77,103,98,36,31,76,,86,86,8,12,4,15,0.5,0.6
2026-02-26T2200,2512A,106.6102,23.901,百色市,市监测站,,28,26,34,19,28,54,,66,64,11,13,12,12,0.3,0.4
2026-02-26T2200,2513A,106.6524,23.8842,百色市,市中心血站,,27,27,40,14,31,58,,67,67,11,16,12,13,0.6,0.7
2026-02-26T2200,4133A,106.6273,23.8798,百色市,龙景西路,,25,25,45,16,35,58,,70,70,10,14,14,14,0.5,0.6
2026-02-26T2200,2270A,117.396,32.9389,蚌埠市,工人疗养院,,22,20,43,9,29,68,,59,59,13,19,3,3,0.6,0.6
2026-02-26T2200,2271A,117.3606,32.9428,蚌埠市,百货大楼,,21,18,40,9,27,67,,58,58,10,18,4,5,0.5,0.6
2026-02-26T2200,2273A,117.4183,32.8909,蚌埠市,蚌埠学院,,23,12,30,6,27,72,,60,60,8,17,3,3,0.5,0.5
2026-02-26T2200,2274A,117.3534,32.9672,蚌埠市,淮上区政府,,21,14,35,8,27,66,,60,60,12,15,4,4,0.5,0.6
2026-02-26T2200,2275A,117.3143,32.8977,蚌埠市,高新区,,20,7,31,7,27,64,,54,54,11,18,5,6,0.5,0.6
2026-02-26T2200,3715A,117.3091,32.9314,蚌埠市,蚌埠田家炳中学,,19,17,38,9,29,58,,53,53,16,17,4,4,0.4,0.5
2026-02-26T2200,1585A,109.8761,40.6533,包头市,市环境监测站,颗粒物(PM10),57,63,56,25,22,50,,58,56,31,26,6,10,0.5,0.4
2026-02-26T2200,1587A,109.9992,40.5843,包头市,包头八中,细颗粒物(PM2.5),88,106,80,65,37,18,,61,50,62,32,9,13,1.1,0.8
2026-02-26T2200,1589A,109.8641,40.6288,包头市,惠龙物流,颗粒物(PM10),58,66,54,24,22,38,,65,60,45,26,10,14,0.8,0.7
2026-02-26T2200,1590A,110.0376,40.5546,包头市,东河鸿龙湾,颗粒物(PM10),82,114,68,56,33,13,,65,45,78,42,10,12,0.9,0.7
2026-02-26T2200,3283A,109.9154,40.5684,包头市,滨河大厦,细颗粒物(PM2.5),75,96,57,55,27,22,,65,50,58,32,10,10,0.8,0.7
2026-02-26T2200,3419A,109.9449,40.6259,包头市,包头市委党校,颗粒物(PM10),77,103,54,46,24,19,,58,52,64,32,12,13,0.8,0.6
2026-02-26T2200,3683A,109.8332,40.6577,包头市,昆区政府,颗粒物(PM10),55,60,50,25,24,60,,62,62,26,27,8,12,0.7,0.7
2026-02-26T2200,1931A,107.0802,34.3129,宝鸡市,竹园沟,细颗粒物(PM2.5),87,115,105,64,35,40,,82,74,23,14,6,6,0.6,0.4
2026-02-26T2200,1933A,107.1429,34.3549,宝鸡市,监测站,细颗粒物(PM2.5),99,126,99,74,36,56,,70,69,24,17,7,6,0.7,0.6
2026-02-26T2200,1934A,107.1172,34.3759,宝鸡市,技工学校,细颗粒物(PM2.5),109,126,102,82,39,59,,78,76,26,16,4,5,0.8,0.6
2026-02-26T2200,1936A,107.2025,34.3518,宝鸡市,文理学院,细颗粒物(PM2.5),107,129,98,80,41,62,,80,78,18,15,4,5,0.8,0.7
2026-02-26T2200,1937A,107.2396,34.3626,宝鸡市,三迪小学,细颗粒物(PM2.5),112,123,103,84,44,56,,76,74,26,21,4,5,0.8,0.6
2026-02-26T2200,4155A,107.1721,34.3558,宝鸡市,滨河北路,细颗粒物(PM2.5),112,164,98,84,41,58,,75,72,20,16,6,6,0.7,0.6
2026-02-26T2200,4308A,107.3898,34.3601,宝鸡市,陈仓区北开路21号,细颗粒物(PM2.5),110,123,104,83,53,45,,73,69,25,15,8,45,0.9,0.8
2026-02-26T2200,1051A,115.4803,38.8568,保定市,游泳馆,颗粒物(PM10),60,69,109,39,87,45,,42,37,15,34,4,5,0.3,0.6
2026-02-26T2200,1052A,115.509,38.8895,保定市,华电二区,颗粒物(PM10),55,59,105,33,77,44,,36,34,12,28,4,3,0.7,1
2026-02-26T2200,1053A,115.4588,38.9037,保定市,接待中心,细颗粒物(PM2.5),53,53,105,37,78,45,,41,36,10,28,1,3,0.2,0.7
2026-02-26T2200,1054A,115.4484,38.8344,保定市,地表水厂,颗粒物(PM10),55,60,119,29,70,49,,42,39,12,31,4,5,0.3,0.6
2026-02-26T2200,3581A,115.3136,38.9511,保定市,满城区生态环境分局,颗粒物(PM10),56,61,118,29,66,46,,49,37,14,28,3,6,0.1,0.4
2026-02-26T2200,3582A,115.4709,38.7628,保定市,清苑区第二中学,颗粒物(PM10),55,60,117,33,72,41,,38,35,20,36,6,8,0.3,0.6
2026-02-26T2200,3583A,115.6231,39.0223,保定市,徐水物探局,颗粒物(PM10),62,73,129,40,81,38,,40,34,18,30,5,6,0.4,0.8
2026-02-26T2200,4004A,115.4199,38.8665,保定市,双鹰农机,颗粒物(PM10),58,65,131,28,76,51,,48,43,15,35,2,4,0.5,0.8
2026-02-26T2200,4034A,115.515,38.8589,保定市,植保所站,颗粒物(PM10),65,79,122,40,77,44,,39,36,19,38,3,2,0.3,0.9
2026-02-26T2200,2594A,99.1589,25.1137,保山市,市环境监测站,颗粒物(PM10),53,55,55,32,42,80,,89,89,9,12,8,7,0.4,0.5
2026-02-26T2200,2595A,99.1616,25.1381,保山市,市环保局,,50,50,60,30,44,105,,118,116,5,9,3,4,0.5,0.6
2026-02-26T2200,1867A,109.1435,21.4085,北海市,海滩公园,,25,24,37,17,12,75,,68,68,7,10,2,3,1.1,0.7
2026-02-26T2200,1868A,109.0983,21.466,北海市,新市环保局,,29,29,32,12,13,63,,71,70,11,8,4,5,0.8,0.7
2026-02-26T2200,1869A,109.1775,21.5232,北海市,北海工业园,颗粒物(PM10),55,60,41,13,16,62,,66,65,7,6,5,5,0.6,0.5
2026-02-26T2200,3400A,109.1844,21.4396,北海市,龙潭自来水厂,,29,27,34,20,15,68,,73,73,4,4,6,4,1.0,0.9
2026-02-26T2200,1001A,116.3611,39.8786,北京市,万寿西宫,,31,31,101,19,62,55,,68,51,13,23,2,2,0.6,0.7
2026-02-26T2200,1003A,116.4174,39.9289,北京市,东四,,31,31,103,18,58,49,,62,47,22,30,5,6,0.3,0.5
2026-02-26T2200,1004A,116.4073,39.8858,北京市,天坛,,30,30,101,18,60,55,,65,50,16,26,2,3,0.6,0.8
2026-02-26T2200,1005A,116.4622,39.9364,北京市,农展馆,,32,32,100,20,60,57,,68,52,11,20,4,5,0.6,0.9
2026-02-26T2200,1006A,116.3399,39.9293,北京市,官园,,29,28,103,20,63,49,,58,45,14,25,4,4,0.5,0.8
2026-02-26T2200,1007A,116.2879,39.9613,北京市,海淀万柳,,34,34,111,21,66,45,,57,45,21,34,3,3,0.6,0.7
2026-02-26T2200,1008A,116.6635,40.1349,北京市,顺义新城,,30,30,94,15,56,63,,79,62,12,18,5,5,0.4,0.6
2026-02-26T2200,1009A,116.6275,40.327,北京市,怀柔镇,,47,47,83,25,50,39,,72,54,27,22,5,4,0.7,0.8
2026-02-26T2200,1010A,116.2295,40.217,北京市,昌平镇,"颗粒物(PM10),细颗粒物(PM2.5)",55,60,103,39,58,42,,69,56,22,25,3,3,0.8,0.8
2026-02-26T2200,1011A,116.3968,39.982,北京市,奥体中心,,35,35,114,18,63,51,,62,47,17,31,5,5,0.8,1
2026-02-26T2200,3418A,116.8336,40.4095,北京市,密云新城,,44,44,81,21,46,50,,74,58,15,16,3,3,0.3,0.5
2026-02-26T2200,3671A,116.0879,39.9725,北京市,门头沟三家店,,31,31,122,19,66,57,,68,55,19,26,3,4,0.5,0.8
2026-02-26T2200,3672A,116.1507,39.8246,北京市,丰台云岗,,26,26,106,14,62,60,,65,56,17,27,4,5,0.6,0.8
2026-02-26T2200,3674A,115.9578,39.7602,北京市,房山燕山,,42,42,96,26,60,50,,64,49,15,21,3,4,0.5,0.7
2026-02-26T2200,3675A,116.4669,39.7734,北京市,大兴旧宫,,31,31,98,18,60,53,,58,49,17,29,4,5,0.5,0.7
2026-02-26T2200,3694A,115.9859,40.4562,北京市,延庆石河营,细颗粒物(PM2.5),87,97,90,64,52,49,,76,69,18,21,1,1,0.7,0.6
2026-02-26T2200,3695A,116.6151,40.3052,北京市,怀柔新城,,44,44,86,27,54,42,,74,58,24,18,4,3,0.6,0.6
2026-02-26T2200,3696A,116.2542,39.8764,北京市,丰台小屯,,36,36,108,20,63,40,,57,44,26,32,4,4,0.5,0.7
2026-02-26T2200,3697A,116.8399,40.3843,北京市,密云镇,,37,37,74,19,48,53,,76,59,11,16,3,3,0.5,0.6
2026-02-26T2200,4057A,115.9423,40.4431,北京市,延庆百泉,细颗粒物(PM2.5),80,96,102,59,54,39,,74,66,18,22,3,2,0.7,0.6
2026-02-26T2200,4058A,116.6598,39.9164,北京市,通州新华,,28,28,100,15,59,56,,62,51,15,30,2,2,0.5,0.8
2026-02-26T2200,4182A,116.1942,39.9158,北京市,石景山八角,,34,34,111,18,60,45,,56,46,12,24,3,4,0.5,0.6
2026-02-26T2200,4194A,117.078628,40.151726,北京市,平谷新城,,36,34,93,25,64,47,,59,48,23,20,3,5,0.4,0.8
2026-02-26T2200,1761A,123.8274146,41.31234549,本溪市,大峪,颗粒物(PM10),69,88,104,49,39,40,,55,48,22,22,9,9,1.2,1
2026-02-26T2200,1763A,123.7169,41.3094,本溪市,彩屯,细颗粒物(PM2.5),75,82,100,55,48,43,,52,46,23,23,8,9,1.2,1.2
2026-02-26T2200,1764A,123.7672166,41.28649327,本溪市,东明,细颗粒物(PM2.5),77,84,100,56,43,36,,51,43,24,21,10,9,1.1,1
2026-02-26T2200,1765A,123.799345,41.266614,本溪市,新立屯,细颗粒物(PM2.5),70,73,91,51,42,39,,52,48,16,22,6,7,1.1,0.9
2026-02-26T2200,1766A,123.829144,41.336777,本溪市,威宁,颗粒物(PM10),71,91,102,51,39,24,,51,44,35,26,5,6,0.7,0.8
2026-02-26T2200,2587A,105.287,27.3133,毕节市,八中,颗粒物(PM10),58,65,51,27,37,83,,103,97,7,8,10,10,0.7,0.6
2026-02-26T2200,2588A,105.3079,27.2987,毕节市,师专,颗粒物(PM10),56,61,54,36,34,84,,106,100,9,9,10,9,0.6,0.5
2026-02-26T2200,4263A,105.3688,27.3598,毕节市,工业大道,细颗粒物(PM2.5),64,68,65,46,39,86,,108,102,9,8,10,10,/,/
2026-02-26T2200,1629A,117.9961,37.3604,滨州市,第二水厂,颗粒物(PM10),58,66,110,27,50,54,,61,60,14,20,8,10,0.3,0.8
2026-02-26T2200,1630A,117.9789,37.3931,滨州市,北中新校,颗粒物(PM10),58,66,108,22,49,47,,59,56,20,24,7,8,0.4,0.5
2026-02-26T2200,3514A,117.9379,37.3959,滨州市,中海酒店,颗粒物(PM10),58,66,112,23,50,57,,68,65,18,23,6,8,0.6,0.7
2026-02-26T2200,3515A,117.9381509,37.35547456,滨州市,开发区一中,颗粒物(PM10),63,75,120,24,51,54,,62,61,11,15,10,13,0.5,0.6
2026-02-26T2200,3516A,118.0914,37.6938,滨州市,金海六路,颗粒物(PM10),56,61,98,24,44,63,,69,65,11,16,4,5,0.6,0.6
2026-02-26T2200,4028A,117.9955,37.3752,滨州市,滨州市西街道办事处,颗粒物(PM10),60,70,111,34,52,59,,67,66,11,16,7,9,0.2,0.3
2026-02-26T2200,2311A,115.8071,33.8399,亳州市,污水处理厂,细颗粒物(PM2.5),87,86,46,64,31,40,,53,51,16,12,3,3,0.4,0.2
2026-02-26T2200,2312A,115.7789,33.8519,亳州市,三国揽胜宫,细颗粒物(PM2.5),107,106,52,80,39,38,,50,49,14,9,4,4,0.6,0.3
2026-02-26T2200,3332A,115.7631,33.803,亳州市,亳州学院,细颗粒物(PM2.5),90,,47,67,31,44,,55,54,14,11,2,2,0.5,0.2
2026-02-26T2200,2693A,82.0482,44.8553,博尔塔拉蒙古自治州,市党校,颗粒物(PM10),53,55,50,25,15,73,,77,76,13,11,2,3,0.4,0.4
2026-02-26T2200,2694A,82.0805,44.8966,博尔塔拉蒙古自治州,市环保局,,,,28,,9,,,75,,,9,,3,,0.4
2026-02-26T2200,1071A,116.8733,38.2922,沧州市,沧县城建局,颗粒物(PM10),51,52,74,19,45,61,,60,60,11,23,5,5,0.3,0.4
2026-02-26T2200,1072A,116.8462,38.3189,沧州市,电视转播站,,48,48,73,18,48,64,,62,62,14,26,1,2,0.3,0.4
2026-02-26T2200,1073A,116.8588,38.3161,沧州市,市环保局,颗粒物(PM10),52,54,78,23,46,58,,56,56,9,24,2,2,0.3,0.4
2026-02-26T2200,3324A,116.8011,38.294,沧州市,河北水利电力学院,,46,46,70,23,43,60,,58,58,10,19,5,5,0.3,0.4
2026-02-26T2200,2622A,97.1813,31.1289,昌都市,昌都监测站,,35,32,16,24,6,58,,107,92,23,6,5,4,0.8,0.6
2026-02-26T2200,3719A,97.1707,31.1428,昌都市,昌都会议中心,,28,18,11,12,7,87,,108,104,2,2,5,6,0.5,0.4
2026-02-26T2200,2692A,87.2722,44.0298,昌吉回族自治州,新区政务中心,,42,42,72,19,47,66,,79,77,20,21,4,4,0.5,0.7
2026-02-26T2200,3613A,87.3069,44.0093,昌吉回族自治州,亚心广场,,48,48,81,25,56,67,,80,79,19,20,8,8,0.4,0.5
2026-02-26T2200,4164A,87.2057,43.9289,昌吉回族自治州,财政所,细颗粒物(PM2.5),83,93,84,61,49,66,,79,78,16,12,9,6,0.6,0.6
2026-02-26T2200,1120A,125.2874,43.9024,长春市,客车厂,,49,38,50,34,18,62,,73,70,14,10,7,7,0.4,0.4
2026-02-26T2200,1121A,125.2943,43.8508,长春市,邮电学院,,50,42,47,35,18,66,,75,74,11,9,8,8,0.4,0.4
2026-02-26T2200,1122A,125.3648,43.8745,长春市,劳动公园,细颗粒物(PM2.5),59,66,55,42,20,54,,74,67,26,13,8,7,0.7,0.4
2026-02-26T2200,1123A,125.3233,43.8781,长春市,园林处,细颗粒物(PM2.5),54,47,45,38,19,65,,74,73,13,10,7,7,0.4,0.1
2026-02-26T2200,1124A,125.4604,43.7904,长春市,净月潭,,47,47,44,31,17,66,,76,72,11,9,7,7,0.4,0.3
2026-02-26T2200,1126A,125.38,43.8422,长春市,经开区环卫处,,46,46,48,31,18,61,,73,70,16,11,5,5,0.6,0.5
2026-02-26T2200,1127A,125.234,43.7761,长春市,高新区管委会,,43,42,47,30,18,60,,69,66,18,14,9,8,0.4,0.4
2026-02-26T2200,1128A,125.1695,43.83,长春市,岱山公园,,42,36,47,29,22,51,,72,61,28,12,6,5,0.6,0.5
2026-02-26T2200,4281A,125.334645,43.916281,长春市,北亚泰大街1068号,,,,49,,20,62,,72,70,14,10,,7,0.4,0.4
2026-02-26T2200,1335A,113.082,28.2421,长沙市,经开区环保局,,16,16,23,9,14,31,,28,28,14,18,2,2,0.5,0.6
2026-02-26T2200,1336A,112.8873,28.2202,长沙市,高开区环保局,,22,,20,15,16,35,,36,36,9,14,4,4,0.6,0.9
2026-02-26T2200,1337A,113.0785,28.2012,长沙市,马坡岭,,19,19,22,12,16,30,,27,27,14,18,4,4,0.7,0.8
2026-02-26T2200,1338A,112.9448,28.1894,长沙市,湖南师范大学,,16,15,20,11,12,38,,39,39,12,12,3,4,0.8,0.9
2026-02-26T2200,1339A,113.0177,28.1322,长沙市,雨花区环保局,,17,17,19,10,13,29,,31,31,16,19,6,7,0.8,0.8
2026-02-26T2200,1340A,112.9795,28.2593,长沙市,伍家岭,,20,20,28,14,18,32,,32,32,10,12,4,4,0.7,0.8
2026-02-26T2200,1341A,113.002,28.1944,长沙市,火车新站,,18,16,20,12,15,32,,34,34,12,17,2,2,0.6,0.8
2026-02-26T2200,1342A,112.9846,28.1177,长沙市,天心区环保局,,13,12,19,9,13,35,,35,35,10,14,5,4,0.4,0.5
2026-02-26T2200,1343A,112.8906,28.1307,长沙市,湖南中医药大学,,17,17,21,11,14,35,,37,37,10,15,5,5,0.6,0.8
2026-02-26T2200,1727A,113.1146,36.1547,长治市,清华站,,22,22,33,12,28,42,,52,46,12,12,5,6,0.9,0.8
2026-02-26T2200,1730A,113.0887,36.2126,长治市,审计局,,22,,33,15,33,44,,54,47,8,9,6,7,0.7,0.7
2026-02-26T2200,1731A,113.0845,36.1856,长治市,长治八中,,,30,41,,37,44,,55,47,7,7,8,8,0.8,0.8
2026-02-26T2200,2845A,113.1561,36.1912,长治市,德盛苑,颗粒物(PM10),70,89,38,34,35,47,,57,51,6,10,7,6,0.7,0.8
2026-02-26T2200,3568A,113.0603,36.0464,长治市,向阳小学,颗粒物(PM10),55,59,60,21,36,34,,51,42,17,14,12,10,2.3,1.2
2026-02-26T2200,3569A,112.8788,36.315,长治市,屯留一中,,28,28,52,18,42,32,,49,41,23,20,4,6,0.8,0.7
2026-02-26T2200,4189A,113.113092,36.199482,长治市,英华南巷50号,,24,24,36,14,31,47,,54,48,12,12,5,5,0.8,0.9
2026-02-26T2200,4190A,113.23666,36.33435,长治市,学府街1号,,,14,38,,34,31,,51,43,21,16,2,3,0.7,0.8
2026-02-26T2200,1854A,111.696,28.9725,常德市,市二中,,30,30,30,18,19,52,,52,52,8,8,6,5,0.8,0.8
2026-02-26T2200,3138A,111.7152,29.0288,常德市,武陵区永安,,26,26,26,16,19,52,,52,52,12,11,4,4,0.7,0.7
2026-02-26T2200,3139A,111.6891,28.9881,常德市,鼎城区玉霞,,,30,27,16,18,54,,53,53,13,13,6,5,,0.9
2026-02-26T2200,3140A,111.6651,29.0526,常德市,武陵区长庚,,25,25,25,16,22,49,,50,50,11,9,5,5,0.8,0.8
2026-02-26T2200,1196A,119.9524,31.7586,常州市,市监测站,颗粒物(PM10),52,54,54,24,24,3,,61,24,44,29,12,11,0.6,0.6
2026-02-26T2200,1200A,119.9351,31.703,常州市,武进监测站,,36,36,42,21,20,0,,69,24,42,19,9,8,0.7,0.7
2026-02-26T2200,3002A,119.9701,31.813,常州市,行政中心,,,40,41,19,24,,,53,23,47,28,,5,0.7,0.6
2026-02-26T2200,3003A,120.0434,31.7726,常州市,经开区,,36,36,55,18,25,3,,54,21,48,31,10,9,0.9,0.8
2026-02-26T2200,3010A,119.8919,31.7892,常州市,钟楼,,38,38,46,20,23,7,,67,24,35,26,6,6,0.6,0.6
2026-02-26T2200,3429A,119.8595,31.706,常州市,武进经发区,,30,27,38,21,25,15,,67,23,30,22,6,5,0.6,0.7
2026-02-26T2200,3430A,119.5812,31.7256,常州市,金坛城区,,33,,31,23,28,29,,67,26,16,16,6,6,0.6,0.5
2026-02-26T2200,4089A,119.9551,31.863,常州市,崇义南街5-H号,,25,22,31,17,26,7,,46,14,37,27,4,4,0.4,0.4
2026-02-26T2200,2220A,120.4318,41.588,朝阳市,西梁,,29,29,54,10,19,69,,78,72,7,10,5,7,0.4,0.7
2026-02-26T2200,2221A,120.452,41.565,朝阳市,河畔小区,,24,22,46,8,16,76,,86,79,7,8,8,8,0.4,0.5
2026-02-26T2200,2222A,120.4176,41.5648,朝阳市,八里堡,,33,33,60,6,17,72,,82,76,10,13,9,8,0.4,0.4
2026-02-26T2200,3026A,116.6179,23.6608,潮州市,市政府,细颗粒物(PM2.5),60,52,37,43,25,54,,85,75,16,9,5,4,0.6,0.5
2026-02-26T2200,4036A,116.646,23.676,潮州市,金山,细颗粒物(PM2.5),108,149,38,81,26,42,,87,76,26,11,6,4,0.9,0.7
2026-02-26T2200,2473A,113.0116,25.8228,郴州市,市职中,,20,19,25,14,21,3,,3,3,15,15,4,4,0.8,0.8
2026-02-26T2200,2475A,113.0381,25.8074,郴州市,市审计局,,22,16,26,15,20,2,,4,2,14,15,3,3,/,/
2026-02-26T2200,2476A,113.0348,25.7757,郴州市,市环保局,,28,28,33,16,19,4,,6,4,18,19,4,5,0.6,0.6
2026-02-26T2200,4252A,113.0138,25.8011,郴州市,好美居路49号,,18,14,22,12,18,9,,10,10,17,16,2,3,/,/
2026-02-26T2200,1431A,103.9727,30.7242,成都市,金泉两河,"颗粒物(PM10),细颗粒物(PM2.5)",62,74,64,44,34,76,,110,105,19,17,4,3,0.4,0.5
2026-02-26T2200,1432A,104.1423,30.6765,成都市,十里店,颗粒物(PM10),72,94,58,40,30,64,,88,86,26,15,4,4,0.6,0.5
2026-02-26T2200,1433A,104.0594,30.5765,成都市,三瓦窑,颗粒物(PM10),62,73,53,37,28,84,,108,103,18,15,3,2,0.4,0.3
2026-02-26T2200,1434A,104.1122,30.6306,成都市,沙河铺,颗粒物(PM10),66,82,55,36,27,69,,94,91,34,23,5,4,0.5,0.5
2026-02-26T2200,2880A,104.0219,30.6561,成都市,大石西路,颗粒物(PM10),69,88,60,47,31,72,,103,100,25,19,6,6,0.4,0.4
2026-02-26T2200,3136A,104.2724,30.559,成都市,龙泉驿区区政府,,46,46,41,31,27,79,,96,94,12,8,6,6,0.4,0.4
2026-02-26T2200,3357A,104.0028,30.6891,成都市,金博路,颗粒物(PM10),63,76,54,37,21,68,,105,101,27,24,7,6,0.5,0.5
2026-02-26T2200,3359A,104.056,30.5228,成都市,华阳,颗粒物(PM10),59,68,47,31,27,64,,105,96,32,20,2,2,0.5,0.4
2026-02-26T2200,3488A,104.387954,30.746684,成都市,青石路225号,颗粒物(PM10),69,87,58,41,29,48,,97,86,38,21,5,4,0.5,0.5
2026-02-26T2200,3489A,104.0788,30.4054,成都市,科学城,颗粒物(PM10),51,51,50,18,27,88,,103,100,12,12,8,8,0.7,0.6
2026-02-26T2200,4011A,103.8505,30.6946,成都市,光华大道三段,,,86,69,39,34,83,,118,115,,21,4,4,,0.3
2026-02-26T2200,4144A,104.3257,30.6406,成都市,八角井街185号,颗粒物(PM10),64,77,60,31,25,73,,93,91,12,9,5,4,0.5,0.4
2026-02-26T2200,4224A,104.2433276,30.53529463,成都市,鲸龙路1057号,颗粒物(PM10),54,58,50,25,24,85,,103,101,16,15,6,6,0.6,0.6
2026-02-26T2200,1062A,117.9531,40.908,承德市,铁路,颗粒物(PM10),59,67,80,23,38,66,,77,76,14,23,2,4,0.4,0.6
2026-02-26T2200,1063A,117.9397,40.9763,承德市,中国银行,颗粒物(PM10),53,55,72,10,34,75,,82,81,6,18,2,2,0.3,0.5
2026-02-26T2200,4073A,117.9462,40.95,承德市,杏林街1号,颗粒物(PM10),56,62,76,16,39,74,,82,80,5,15,4,4,0.3,0.5
2026-02-26T2200,4274A,117.7994,40.9605,承德市,滨河大街98号,颗粒物(PM10),52,54,64,32,44,74,,83,82,8,21,4,4,0.3,0.4
2026-02-26T2200,2314A,117.4698,30.6617,池州市,池州学院,,17,17,21,10,14,23,,30,28,22,21,3,3,0.7,0.8
2026-02-26T2200,3237A,117.4918,30.6617,池州市,展览馆,,15,11,20,10,15,22,,32,28,22,18,2,2,0.8,0.7
2026-02-26T2200,3333A,117.5626,30.695,池州市,第八中学,,12,7,19,6,12,36,,32,29,19,20,3,3,0.5,0.5
2026-02-26T2200,3334A,117.5037,30.6242,池州市,第十二中学,,12,10,18,8,13,25,,34,30,23,17,4,4,0.9,0.9
2026-02-26T2200,1744A,118.9229,42.2816,赤峰市,松山一中,,25,25,39,9,14,55,,59,55,14,14,4,5,0.6,0.6
2026-02-26T2200,1745A,118.9588,42.2733,赤峰市,哈达街,,29,29,45,10,13,62,,62,61,9,14,7,13,0.7,0.7
2026-02-26T2200,1746A,118.8792,42.2551,赤峰市,天义路,,22,18,32,3,15,69,,69,68,6,9,5,8,0.5,0.6
2026-02-26T2200,3058A,119.2656,42.0356,赤峰市,银河街,,46,46,66,29,26,61,,80,72,8,4,8,8,0.6,0.5
2026-02-26T2200,3286A,118.9359,42.3146,赤峰市,桥北物流园区,,,19,28,14,10,,,80,78,1,3,5,4,0.5,0.5
2026-02-26T2200,2521A,107.3473,22.4137,崇左市,市环保局江州分局,,45,45,36,25,27,2,,44,36,32,16,7,6,0.7,0.7
2026-02-26T2200,4256A,107.375,22.3736,崇左市,石景林东路7号,,30,,32,21,25,20,,41,36,14,15,2,2,0.6,0.7
2026-02-26T2200,3207A,118.31131,32.3033,滁州市,市政府原办公楼,,20,17,41,13,34,61,,51,51,9,18,4,4,0.4,0.5
2026-02-26T2200,3331A,118.3268,32.2633,滁州市,图书馆,,20,10,35,8,25,64,,53,53,6,16,8,8,0.3,0.4
2026-02-26T2200,4101A,118.3196,32.3335,滁州市,银山路666号,,22,12,33,11,30,68,,58,58,5,13,5,5,0.4,0.6
2026-02-26T2200,4102A,118.3426,32.2979,滁州市,黄山路555号,,22,22,48,13,32,66,,55,55,6,13,6,6,0.4,0.5
2026-02-26T2200,2606A,101.5379,25.0492,楚雄彝族自治州,市经济开发区,,50,49,53,35,38,99,,106,103,11,12,3,4,0.7,0.6
2026-02-26T2200,4153A,101.5536,25.0343,楚雄彝族自治州,团结路562号,,45,,40,31,36,113,,113,113,4,8,4,4,0.6,0.6
2026-02-26T2200,2549A,107.5087,31.2186,达州市,市环境监测站,,48,48,33,28,15,6,,43,30,39,24,6,8,0.3,0.2
2026-02-26T2200,2550A,107.4988,31.2132,达州市,凤凰小区,,44,44,30,29,14,5,,43,32,45,26,6,8,0.6,0.3
2026-02-26T2200,2551A,107.5081,31.1987,达州市,达县机关宾馆,细颗粒物(PM2.5),62,51,34,44,14,1,,43,30,43,33,5,7,0.7,0.5
2026-02-26T2200,2552A,107.4644,31.2124,达州市,市政中心,颗粒物(PM10),58,66,36,28,13,2,,43,32,49,27,6,8,1.0,0.5
2026-02-26T2200,2614A,100.2168,25.5818,大理白族自治州,大理市环境监测站,,50,35,48,35,42,107,,108,107,7,9,7,7,0.8,0.9
2026-02-26T2200,2615A,100.1542,25.7055,大理白族自治州,大理古城,,38,32,46,26,36,106,,112,110,6,7,8,8,0.7,0.8
2026-02-26T2200,1109A,121.6119,38.974,大连市,甘井子,细颗粒物(PM2.5),92,108,100,68,47,33,,76,35,33,24,9,8,0.5,0.6
2026-02-26T2200,1110A,121.565,38.9509,大连市,周水子,细颗粒物(PM2.5),88,103,95,65,45,35,,68,39,31,22,7,9,0.9,0.6
2026-02-26T2200,1111A,121.5637,38.8849,大连市,星海三站,细颗粒物(PM2.5),83,92,84,61,44,38,,67,40,24,18,6,5,1.1,0.8
2026-02-26T2200,1112A,121.6301,38.9117,大连市,青泥洼桥,细颗粒物(PM2.5),90,111,110,67,45,29,,76,35,40,26,12,9,1.0,0.8
2026-02-26T2200,1113A,121.6248,38.8643,大连市,傅家庄,细颗粒物(PM2.5),87,121,112,64,42,30,,79,37,39,25,12,10,1.0,0.6
2026-02-26T2200,1114A,121.5117,38.8636,大连市,七贤岭,细颗粒物(PM2.5),79,101,93,58,43,44,,73,50,24,20,6,6,1.0,0.8
2026-02-26T2200,1116A,121.7507,39.1339,大连市,金州,细颗粒物(PM2.5),84,104,102,62,48,30,,78,37,32,18,14,12,0.8,0.6
2026-02-26T2200,1117A,121.7811,39.0495,大连市,开发区,细颗粒物(PM2.5),104,120,96,78,51,20,,77,42,43,25,6,4,1.1,0.7
2026-02-26T2200,1118A,121.9762,39.0631,大连市,双D港,细颗粒物(PM2.5),95,107,100,71,39,45,,94,62,30,16,10,8,0.9,0.8
2026-02-26T2200,4082A,121.2548,38.8188,大连市,旅顺,细颗粒物(PM2.5),82,95,92,60,42,40,,64,47,23,16,11,10,1.0,0.6
2026-02-26T2200,1789A,124.8085,46.0381,大庆市,大同区,,45,45,30,29,11,52,,76,65,17,7,8,8,0.6,0.4
2026-02-26T2200,1790A,125.1166,46.5255,大庆市,龙凤区,,40,40,32,24,14,53,,73,64,19,14,2,3,0.2,0.1
2026-02-26T2200,1791A,124.8894,46.4007,大庆市,红岗区,,,43,32,29,14,,,56,52,18,11,15,7,0,0.8
2026-02-26T2200,1792A,125.1391,46.578,大庆市,萨尔图区,,28,28,28,14,11,39,,66,58,36,14,6,5,0.5,0.5
2026-02-26T2200,1793A,124.9026,46.6217,大庆市,让胡路区,,36,34,29,25,14,17,,62,,59,13,8,7,0.7,0.4
2026-02-26T2200,3481A,125.127,46.6277,大庆市,萨区政府监测点,,29,29,32,14,14,66,,71,68,2,4,9,8,0.3,0.3
2026-02-26T2200,1723A,113.2926,40.0759,大同市,云冈宾馆,细颗粒物(PM2.5),97,140,66,72,30,50,,88,75,24,14,8,7,0.8,0.6
2026-02-26T2200,1724A,113.3437,40.0921,大同市,大同大学,细颗粒物(PM2.5),104,114,72,78,36,55,,100,86,28,15,9,5,0.7,0.6
2026-02-26T2200,1725A,113.2637,40.129,大同市,安家小村,细颗粒物(PM2.5),129,148,80,98,41,49,,99,83,31,14,7,11,0.9,0.6
2026-02-26T2200,3282A,113.3399,40.0586,大同市,大同市卫生学校,细颗粒物(PM2.5),104,130,73,78,35,52,,103,86,26,14,8,6,0.8,0.7
2026-02-26T2200,3565A,113.1371,40.1122,大同市,云冈站,细颗粒物(PM2.5),110,144,71,83,37,58,,87,79,25,18,11,11,0.8,0.6
2026-02-26T2200,3566A,113.1186,40.2556,大同市,图书馆,细颗粒物(PM2.5),128,138,59,97,32,65,,87,83,25,13,11,10,1.1,0.7
2026-02-26T2200,3567A,113.5931,40.0459,大同市,区一中,"颗粒物(PM10),细颗粒物(PM2.5)",98,146,83,73,40,55,,102,88,19,10,13,9,0.8,0.3
2026-02-26T2200,4199A,113.2798248,40.09972476,大同市,魏都大道141号,细颗粒物(PM2.5),115,139,76,87,35,48,,94,79,28,15,11,9,0.9,0.6
2026-02-26T2200,2269A,124.1068,50.4091,大兴安岭地区,科技局,,29,29,21,18,10,58,,66,60,7,5,5,4,0.3,0.3
2026-02-26T2200,3663A,124.117,50.4279,大兴安岭地区,红旗社区,细颗粒物(PM2.5),64,,15,46,12,21,,69,56,50,8,8,5,0.5,0.2
2026-02-26T2200,1600A,124.33,40.0625,丹东市,江湾东路,颗粒物(PM10),66,82,120,42,64,53,,85,68,16,25,7,12,0.7,1.2
2026-02-26T2200,1601A,124.4242,40.1513,丹东市,临江后街,细颗粒物(PM2.5),74,91,121,54,68,38,,82,52,21,25,13,13,0.8,0.8
2026-02-26T2200,1602A,124.3935,40.1461,丹东市,元宝山,颗粒物(PM10),63,76,117,43,64,39,,77,59,18,24,9,12,0.7,0.8
2026-02-26T2200,1603A,124.3634,40.1093,丹东市,民主桥,颗粒物(PM10),65,79,131,46,72,41,,74,54,11,27,8,12,0.6,0.8
2026-02-26T2200,3541A,109.5726195,19.51688767,儋州市,第一中学子站,,30,30,34,17,17,55,,65,64,3,2,6,5,0.3,0.4
2026-02-26T2200,3542A,109.5567,19.5187,儋州市,东坡学校子站,,29,29,31,19,16,57,,71,69,3,2,5,5,0.4,0.4
2026-02-26T2200,2616A,98.5611,24.4273,德宏傣族景颇族自治州,德宏州监测站,,,75,71,,67,39,,96,91,34,20,6,6,1.1,0.9
2026-02-26T2200,3677A,98.5887,24.4366,德宏傣族景颇族自治州,芒市人民政府综合楼,细颗粒物(PM2.5),70,67,80,51,63,65,,93,92,11,15,4,4,0.5,0.7
2026-02-26T2200,1901A,104.424,31.1209,德阳市,东山公园,细颗粒物(PM2.5),73,67,45,53,28,80,,96,93,14,10,23,3,0.6,0.6
2026-02-26T2200,1902A,104.3827,31.1318,德阳市,西小区,细颗粒物(PM2.5),83,84,65,61,35,62,,93,89,22,19,15,5,0.8,0.7
2026-02-26T2200,1904A,104.3553,31.1091,德阳市,耐火材料厂,细颗粒物(PM2.5),90,85,60,67,37,63,,98,93,21,20,4,2,0.6,0.6
2026-02-26T2200,4145A,104.4144,31.1495,德阳市,市林业局,细颗粒物(PM2.5),90,83,52,67,32,61,,93,87,23,16,20,8,0.8,0.7
2026-02-26T2200,1622A,116.3034,37.4675,德州市,儿童乐园,颗粒物(PM10),78,105,98,42,55,49,,55,50,17,19,9,10,0.5,0.7
2026-02-26T2200,1624A,116.2992,37.4449,德州市,监理站,颗粒物(PM10),80,110,103,39,53,57,,64,58,14,20,14,15,0.8,1
2026-02-26T2200,3066A,116.2722,37.438,德州市,九衢泉纯净水厂,颗粒物(PM10),74,97,88,42,53,50,,60,53,16,22,2,4,0.6,0.7
2026-02-26T2200,3371A,116.3693,37.44,德州市,开发区人民医院,颗粒物(PM10),80,110,105,46,55,45,,56,48,15,22,9,11,0.5,0.6
2026-02-26T2200,3511A,116.5687,37.3331,德州市,陵城艺术中心,,,75,100,33,58,54,,58,50,15,19,,5,0.4,0.6
2026-02-26T2200,4292A,116.352738,37.420875,德州市,新河东路,颗粒物(PM10),76,102,97,36,50,46,,56,49,15,21,10,11,0.6,0.8
2026-02-26T2200,2621A,99.7054,27.8319,迪庆藏族自治州,迪庆州站,,35,32,24,24,15,94,,114,112,7,6,6,5,0.6,0.6
2026-02-26T2200,3180A,99.7122,27.8129,迪庆藏族自治州,质量技术监督局,,35,23,20,20,16,109,,118,115,7,8,5,5,0.6,0.6
2026-02-26T2200,4257A,104.6092,35.5962,定西市,将台街,颗粒物(PM10),92,133,124,51,49,84,,90,90,10,15,12,12,0.4,0.7
2026-02-26T2200,4309A,104.6159,35.5701,定西市,正龙路62号,颗粒物(PM10),98,145,132,42,46,92,,87,87,7,8,10,10,0.4,0.6
2026-02-26T2200,1390A,113.7943,23.0132,东莞市,东城石井,,34,34,20,18,11,41,,86,72,32,14,6,5,0.6,0.5
2026-02-26T2200,1391A,113.7384,22.9659,东莞市,南城西平,,38,38,20,22,10,29,,82,68,46,18,7,7,0.5,0.5
2026-02-26T2200,3319A,113.7283,23.041,东莞市,万江金泰,颗粒物(PM10),52,54,21,20,11,39,,80,70,34,12,6,5,1.0,0.8
2026-02-26T2200,4129A,113.8666,23.1062,东莞市,裕兴路,,38,38,25,17,12,56,,89,75,22,12,6,6,0.8,0.7
2026-02-26T2200,4130A,114.0076,22.9739,东莞市,教育路1号,,24,24,23,11,10,71,,93,84,12,11,4,4,0.5,0.5
2026-02-26T2200,4131A,113.7981,22.8124,东莞市,长怡路1号,,37,37,23,18,10,38,,76,58,36,19,6,8,0.6,0.6
2026-02-26T2200,1666A,118.6612,37.4313,东营市,市环保局,颗粒物(PM10),58,66,100,22,36,64,,80,70,13,17,6,9,0.5,0.6
2026-02-26T2200,3036A,118.6903,37.4337,东营市,开发区管委会,颗粒物(PM10),54,58,95,17,31,66,,84,73,18,24,6,7,0.5,0.7
2026-02-26T2200,3365A,118.5721,37.5654,东营市,垦利区民丰路,颗粒物(PM10),58,66,97,19,35,71,,86,75,12,19,6,9,0.7,0.7
2026-02-26T2200,3498A,118.5063,37.8606,东营市,河口城区,颗粒物(PM10),54,58,84,22,29,66,,78,72,18,18,4,5,0.8,0.8
2026-02-26T2200,3646A,118.4979,37.4623,东营市,胜利站,颗粒物(PM10),56,62,105,20,38,64,,78,70,13,19,6,8,0.7,0.9
2026-02-26T2200,3734A,118.5753,37.4405,东营市,理想之城,颗粒物(PM10),59,68,105,21,36,66,,86,73,10,16,3,6,0.6,0.8
2026-02-26T2200,1591A,110.0024,39.8127,鄂尔多斯市,综合楼,颗粒物(PM10),71,92,103,29,21,44,,66,44,31,25,12,11,0.5,0.4
2026-02-26T2200,1592A,109.9485,39.8259,鄂尔多斯市,巴音孟克林场办事处,颗粒物(PM10),67,83,97,34,28,55,,68,55,20,22,9,8,0.4,0.4
2026-02-26T2200,1593A,109.7734,39.5987,鄂尔多斯市,康泽苑,颗粒物(PM10),59,68,103,31,27,56,,83,74,23,15,8,6,0.4,0.4
2026-02-26T2200,1594A,109.8121,39.5987,鄂尔多斯市,华泰汽车城,颗粒物(PM10),52,53,97,23,25,44,,84,69,34,18,7,5,0.4,0.3
2026-02-26T2200,1595A,109.9734,39.7884,鄂尔多斯市,奥林花园,颗粒物(PM10),64,78,102,27,22,56,,73,58,23,23,10,9,0.4,0.4
2026-02-26T2200,2436A,114.894,30.3989,鄂州市,市政府,,18,16,20,12,9,39,,30,30,16,20,6,9,0.7,0.9
2026-02-26T2200,2437A,114.8986,30.3714,鄂州市,赵家坝,,,,19,,9,44,,43,43,,4,11,10,0.9,0.8
2026-02-26T2200,3654A,114.8093,30.4091,鄂州市,精准医疗中心,,25,25,20,15,11,53,,50,50,8,11,4,15,1.0,0.9
2026-02-26T2200,2454A,109.4978,30.2979,恩施土家族苗族自治州,湖北民院,,25,25,25,6,12,22,,22,22,13,12,6,6,0.7,0.7
2026-02-26T2200,3549A,109.5061,30.3771,恩施土家族苗族自治州,龙凤新区,,10,10,18,3,11,16,,19,19,7,8,7,7,0.6,0.5
2026-02-26T2200,2499A,108.3411,21.6159,防城港市,沙万,,38,36,70,26,25,42,,54,47,18,27,6,7,0.6,0.6
2026-02-26T2200,2500A,108.3515,21.7733,防城港市,防城档案局,,43,36,39,30,25,40,,51,49,9,9,5,5,0.6,0.7
2026-02-26T2200,2501A,108.3506,21.6414,防城港市,大海花园,,39,,52,27,27,45,,60,54,18,24,6,7,0.5,0.6
2026-02-26T2200,1371A,113.1293,23.0065,佛山市,湾梁,,29,29,27,14,14,62,,77,75,12,12,/,/,/,/
2026-02-26T2200,1372A,113.1082,23.0477,佛山市,华材职中,,23,22,27,16,19,65,,79,76,14,14,6,6,0.3,0.3
2026-02-26T2200,1373A,113.1439,23.045,佛山市,南海气象局,颗粒物(PM10),56,62,29,19,18,54,,75,70,21,15,/,/,/,/
2026-02-26T2200,1374A,113.2879,22.8094,佛山市,顺德苏岗,,30,30,27,14,12,60,,75,73,13,13,/,/,0.6,0.5
2026-02-26T2200,1376A,112.8384,22.8678,佛山市,高明孔堂,,35,35,25,17,15,63,,77,73,6,5,/,/,/,/
2026-02-26T2200,1377A,112.8835,23.1584,佛山市,三水监测站,,29,29,23,18,18,57,,78,72,17,14,4,4,0.7,0.4
2026-02-26T2200,1378A,112.8668,23.185,佛山市,三水云东海,,45,45,39,19,18,62,,83,78,18,16,/,/,/,/
2026-02-26T2200,3625A,113.2568,22.7629,佛山市,容桂街道办,,20,19,20,14,11,52,,65,61,12,11,/,/,/,/
2026-02-26T2200,1282A,119.2681,26.0506,福州市,师大,,30,22,21,21,16,25,,51,37,26,17,3,3,0.7,0.6
2026-02-26T2200,1283A,119.2983,26.1028,福州市,五四北路,,25,18,15,17,14,20,,47,32,28,19,4,4,0.6,0.5
2026-02-26T2200,1284A,119.2648,26.0769,福州市,杨桥西路,,22,17,18,15,14,28,,50,38,25,17,3,3,/,/
2026-02-26T2200,3048A,119.5799,26.0937,福州市,九龙,,39,29,19,27,14,12,,52,21,33,17,4,4,0.7,0.7
2026-02-26T2200,3526A,119.5188,25.9666,福州市,吴航,,22,21,28,15,19,20,,49,24,29,23,4,4,0.7,0.6
2026-02-26T2200,4104A,119.3106,26.0648,福州市,路通桥巷6号,,32,25,24,22,19,22,,48,33,25,18,/,/,/,/
2026-02-26T2200,1755A,123.7974,41.8494,抚顺市,望花区,细颗粒物(PM2.5),64,72,103,46,39,65,,63,63,13,17,8,11,0.8,0.6
2026-02-26T2200,1756A,123.9161,41.8827,抚顺市,顺城区,细颗粒物(PM2.5),63,52,78,45,43,64,,62,59,16,22,9,10,0.6,0.6
2026-02-26T2200,1757A,124.0437,41.8615,抚顺市,东洲区,细颗粒物(PM2.5),88,77,106,65,48,62,,60,58,14,19,8,9,0.8,0.9
2026-02-26T2200,1758A,123.9246,41.8638,抚顺市,新抚区,细颗粒物(PM2.5),68,73,103,49,45,65,,62,62,15,19,8,8,0.6,0.7
2026-02-26T2200,1759A,124.0972,41.8961,抚顺市,大伙房水库,细颗粒物(PM2.5),98,94,107,73,49,72,,65,65,10,16,10,10,0.6,0.7
2026-02-26T2200,1760A,123.708,41.8386,抚顺市,沈抚新城,细颗粒物(PM2.5),64,75,96,46,37,62,,64,64,20,17,9,8,0.7,0.7
2026-02-26T2200,2377A,116.3544,27.9833,抚州市,市站,,16,12,27,3,20,42,,30,30,5,6,6,6,1.6,1.3
2026-02-26T2200,2378A,116.3562,27.9631,抚州市,血防站,,20,20,31,3,18,38,,25,25,12,15,60,53,0.9,0.9
2026-02-26T2200,2379A,116.3561,28.0007,抚州市,采茶剧团,,15,9,27,3,16,36,,27,27,2,7,19,18,1.5,1.4
2026-02-26T2200,2380A,116.3854,27.9648,抚州市,医学分院,,16,16,31,6,15,35,,26,26,8,11,4,5,1.2,1.1
2026-02-26T2200,2207A,121.6095,41.9978,阜新市,工业园区,,23,23,37,6,9,68,,80,75,8,7,8,9,0.3,0.3
2026-02-26T2200,2208A,121.6567,42.0188,阜新市,长青街,,19,16,32,11,11,58,,73,66,11,8,7,8,0.3,0.5
2026-02-26T2200,2209A,121.6672,42.07,阜新市,农业园区,,24,24,38,3,9,60,,69,64,6,7,6,6,0.5,0.6
2026-02-26T2200,2211A,121.6343,42.0455,阜新市,玉龙新城,,21,21,37,3,9,67,,77,71,7,9,5,8,0.5,0.5
2026-02-26T2200,2301A,115.8276,32.8929,阜阳市,市监测站,颗粒物(PM10),51,52,47,31,29,48,,40,40,16,15,4,4,0.6,0.4
2026-02-26T2200,2303A,115.8551,32.8606,阜阳市,开发区,颗粒物(PM10),58,65,51,36,29,37,,38,37,18,16,4,4,0.7,0.4
2026-02-26T2200,2875A,115.783962,32.889217,阜阳市,阜阳职业技术学院,,45,45,39,28,27,58,,50,50,11,12,5,5,0.6,0.4
2026-02-26T2200,3468A,115.79,32.8614,阜阳市,市规划展馆,,43,39,47,30,26,57,,48,48,10,13,6,6,0.6,0.7
2026-02-26T2200,3469A,115.835101,32.918568,阜阳市,枣园社区,,48,41,33,33,26,47,,41,41,14,15,6,6,0.6,0.5
2026-02-26T2200,2669A,102.9097,34.9841,甘南藏族自治州,州政府,细颗粒物(PM2.5),65,78,74,47,42,25,,88,70,43,20,6,5,0.7,0.7
2026-02-26T2200,3380A,102.8915,34.9618,甘南藏族自治州,甘肃民族师范学院,颗粒物(PM10),64,77,79,33,25,33,,93,71,35,21,10,9,0.5,0.4
2026-02-26T2200,2570A,101.96,30.048,甘孜藏族自治州,水桥子,,22,8,7,8,6,70,,89,86,9,8,6,7,0.1,0.5
2026-02-26T2200,3065A,101.9534,29.9976,甘孜藏族自治州,州环保局,,24,,7,8,6,75,,92,89,6,8,6,6,0.2,0.3
2026-02-26T2200,2363A,114.9368,25.8663,赣州市,地委,,29,29,19,18,10,10,,23,16,37,24,4,4,1.2,1
2026-02-26T2200,2364A,114.946,25.8483,赣州市,气象台,,40,40,28,23,14,4,,19,13,52,28,6,6,0.7,0.6
2026-02-26T2200,2365A,114.932,25.8332,赣州市,市图书馆,,31,31,18,10,10,26,,28,28,34,20,5,4,0.8,1
2026-02-26T2200,2366A,114.8905,25.8472,赣州市,华坚鞋城,,20,20,21,13,12,30,,18,18,21,23,6,6,0.7,0.7
2026-02-26T2200,3109A,115.0094,25.8614,赣州市,赣县区卫计委,,30,,22,21,14,17,,25,14,39,24,4,4,0.7,0.6
2026-02-26T2200,2684A,106.2753,36.0057,固原市,监测站,颗粒物(PM10),114,178,122,53,37,69,,82,80,20,17,15,10,0.5,0.6
2026-02-26T2200,2685A,106.2384,36.0189,固原市,新区,颗粒物(PM10),111,171,118,48,33,72,,82,81,17,20,13,7,0.5,0.6
2026-02-26T2200,2544A,106.6307,30.4577,广安市,市委,细颗粒物(PM2.5),88,66,53,65,45,48,,70,69,19,16,8,8,0.8,0.7
2026-02-26T2200,2545A,106.6266,30.4662,广安市,友谊中学,细颗粒物(PM2.5),73,59,49,53,35,47,,71,69,20,15,9,10,0.8,0.9
2026-02-26T2200,2547A,106.6386,30.4551,广安市,广电花园,细颗粒物(PM2.5),85,,43,63,45,45,,65,63,15,15,8,9,0.8,0.7
2026-02-26T2200,2902A,106.6347,30.4868,广安市,北辰小学,细颗粒物(PM2.5),73,65,49,53,41,53,,70,69,13,12,14,13,0.8,0.8
2026-02-26T2200,2524A,105.8211,32.4444,广元市,老城,颗粒物(PM10),59,67,63,27,25,58,,73,68,24,14,8,7,0.8,0.6
2026-02-26T2200,2526A,105.8629,32.429,广元市,监测站,颗粒物(PM10),51,51,68,27,27,60,,70,66,19,13,5,5,0.6,0.5
2026-02-26T2200,3617A,105.8047,32.4167,广元市,经开区,颗粒物(PM10),58,66,70,25,26,58,,68,62,20,15,3,3,0.6,0.5
2026-02-26T2200,1345A,113.2346,23.1423,广州市,广雅中学,,28,28,24,16,14,53,,70,66,16,14,3,2,0.3,0.3
2026-02-26T2200,1346A,113.2611,23.105,广州市,市五中,,27,27,24,14,13,61,,82,77,17,15,6,6,/,/
2026-02-26T2200,1348A,113.3477,23.0916,广州市,广东商学院,,22,22,21,15,15,60,,75,72,14,16,5,5,0.6,0.6
2026-02-26T2200,1349A,113.4332,23.105,广州市,市八十六中,,22,20,17,10,9,44,,74,68,43,24,4,4,/,/
2026-02-26T2200,1350A,113.3506,22.9488,广州市,番禺中学,,40,40,31,14,11,57,,74,70,15,14,3,3,0.6,0.7
2026-02-26T2200,1351A,113.2147,23.3918,广州市,花都师范,,31,31,31,14,18,56,,76,74,20,18,5,5,0.8,0.7
2026-02-26T2200,1352A,113.2599,23.1329,广州市,市监测站,,27,27,25,16,14,54,,72,69,18,15,1,2,/,/
2026-02-26T2200,1353A,113.5618,23.3119,广州市,九龙镇镇龙,,29,29,30,14,16,48,,64,58,22,18,6,6,0.5,0.5
2026-02-26T2200,1354A,113.2764,23.1544,广州市,麓湖,,24,24,25,14,14,61,,76,74,14,14,3,3,0.4,0.4
2026-02-26T2200,2846A,113.3209,23.1323,广州市,体育西,,26,26,27,10,12,58,,75,71,18,17,4,5,0.6,0.6
2026-02-26T2200,3298A,113.5718,23.5493,广州市,从化街口,细颗粒物(PM2.5),54,56,37,38,24,40,,74,70,27,16,8,8,0.6,0.6
2026-02-26T2200,3299A,113.3463,23.369,广州市,白云竹料,,32,32,32,18,18,55,,72,68,21,19,4,3,0.6,0.5
2026-02-26T2200,3300A,113.2981,23.2365,广州市,白云嘉禾,,27,27,27,14,16,57,,77,74,23,20,7,7,/,/
2026-02-26T2200,3301A,113.4256,23.1716,广州市,黄埔科学城,,28,28,25,15,14,50,,76,70,27,17,5,4,0.6,0.6
2026-02-26T2200,3302A,113.3942,23.0485,广州市,番禺大学城,,27,27,32,14,10,67,,79,76,11,13,7,7,0.5,0.5
2026-02-26T2200,3303A,113.4923,22.8169,广州市,南沙黄阁,,23,23,22,16,11,59,,76,75,22,17,6,6,/,/
2026-02-26T2200,3304A,113.534,22.7893,广州市,南沙街,,27,27,21,17,10,51,,73,70,23,18,6,6,0.5,0.4
2026-02-26T2200,3443A,113.2905,23.5541,广州市,花都梯面,,,30,28,16,17,,,65,65,25,14,5,5,/,/
2026-02-26T2200,3445A,113.786,23.7479,广州市,从化良口,,26,26,22,18,16,33,,71,59,12,10,4,4,/,/
2026-02-26T2200,3446A,113.805,23.2614,广州市,增城荔城,,50,50,28,27,15,41,,96,79,26,14,6,7,0.5,0.5
2026-02-26T2200,2506A,109.604387,23.066791,贵港市,江南子站,,32,24,60,22,44,23,,27,23,19,24,6,7,0.6,0.9
2026-02-26T2200,2508A,109.5669,23.1065,贵港市,荷城子站,,40,,51,28,40,26,,33,30,21,24,7,7,0.8,0.9
2026-02-26T2200,3405A,109.5886,23.1172,贵港市,新世纪学校,,30,29,55,21,47,26,,36,33,23,27,/,/,0.7,0.9
2026-02-26T2200,4260A,109.5933,23.095,贵港市,中山路155-3号,,32,32,74,19,49,25,,29,26,17,22,/,/,0.7,0.9
2026-02-26T2200,1439A,106.6863,26.6035,贵阳市,马鞍山,,48,36,38,33,30,62,,107,94,8,9,5,5,/,/
2026-02-26T2200,1441A,106.6241,26.6266,贵阳市,鉴湖路,,48,48,48,21,29,55,,111,100,9,10,6,7,0.4,0.4
2026-02-26T2200,1442A,106.7468,26.6344,贵阳市,燕子冲,细颗粒物(PM2.5),53,41,47,37,33,68,,115,101,10,12,4,5,0.4,0.3
2026-02-26T2200,1443A,106.6556,26.4362,贵阳市,碧云窝,颗粒物(PM10),51,51,43,28,29,60,,113,101,15,9,14,10,/,/
2026-02-26T2200,1445A,106.6963,26.6063,贵阳市,红边门,,50,48,47,35,31,58,,106,92,11,14,8,9,/,/
2026-02-26T2200,1446A,106.7162383,26.56964667,贵阳市,新华路,细颗粒物(PM2.5),62,56,53,44,32,44,,125,100,10,15,3,11,0.2,0.5
2026-02-26T2200,1447A,106.6742,26.542,贵阳市,太慈桥,细颗粒物(PM2.5),55,46,38,39,31,61,,106,96,14,14,4,4,/,/
2026-02-26T2200,4230A,106.688212,26.56952,贵阳市,花果园大街66号,细颗粒物(PM2.5),55,46,38,39,31,58,,102,93,11,13,3,3,/,/
2026-02-26T2200,4231A,106.687268,26.516892,贵阳市,漓江路57号,细颗粒物(PM2.5),65,61,43,47,28,52,,110,98,15,12,7,7,0.7,0.6
2026-02-26T2200,1864A,110.3091,25.2705,桂林市,龙隐路小学,细颗粒物(PM2.5),57,52,57,40,46,3,,7,5,27,24,3,4,0.9,0.9
2026-02-26T2200,1865A,110.2849361,25.22909545,桂林市,八中,颗粒物(PM10),55,60,57,33,31,2,,6,4,31,29,3,3,1.0,0.9
2026-02-26T2200,3531A,110.296,25.1254,桂林市,旅游学院,细颗粒物(PM2.5),67,58,53,48,45,2,,8,6,20,16,4,8,1.0,0.9
2026-02-26T2200,4222A,110.1835,25.2444,桂林市,环湖路276号,细颗粒物(PM2.5),62,53,55,44,46,1,,5,4,31,27,4,11,1.1,1
2026-02-26T2200,4301A,110.2803,25.2773,桂林市,信义路13号,细颗粒物(PM2.5),64,52,59,46,47,0,,2,1,26,22,3,3,1.1,1.1
2026-02-26T2200,2674A,100.2262,34.4854,果洛藏族自治州,玛沁县大武镇,颗粒物(PM10),60,70,44,27,12,83,,101,99,3,3,17,18,0.3,0.4
2026-02-26T2200,1130A,126.5557,45.8109,哈尔滨市,松北商大,,26,23,39,18,17,61,,74,66,6,4,6,7,0.5,0.5
2026-02-26T2200,1132A,126.6162,45.719,哈尔滨市,南岗学府路,,45,45,46,9,10,78,,80,71,7,8,6,9,0.1,0.1
2026-02-26T2200,1133A,126.6894,45.7733,哈尔滨市,太平宏伟公园,,28,26,46,19,17,58,,74,66,11,7,7,8,0.6,0.5
2026-02-26T2200,1134A,126.6361,45.7672,哈尔滨市,道外承德广场,,42,42,83,16,14,63,,73,66,9,9,7,10,0.4,0.2
2026-02-26T2200,1136A,126.644,45.7261,哈尔滨市,动力和平路,,32,32,51,10,15,67,,75,70,6,6,9,10,0.6,0.7
2026-02-26T2200,1137A,126.5933,45.7479,哈尔滨市,道里建国路,,,,35,21,14,65,,73,66,10,12,3,15,1.0,0.1
2026-02-26T2200,1138A,126.6127,45.6119,哈尔滨市,平房东轻厂,,48,47,66,33,20,38,,59,47,47,30,8,6,0.5,0.6
2026-02-26T2200,1139A,126.5875,45.9827,哈尔滨市,呼兰师专,,26,26,60,9,18,55,,66,58,8,9,9,12,0.4,0.4
2026-02-26T2200,1140A,126.6299,45.6799,哈尔滨市,省农科院,,,42,45,17,13,61,,74,68,9,7,,6,0.4,0.3
2026-02-26T2200,4282A,126.6769,45.7379,哈尔滨市,华山路1号,,24,24,51,14,15,62,,76,65,10,9,7,13,0.5,0.4
2026-02-26T2200,4283A,126.9717,45.5356,哈尔滨市,解放大街52号,,36,36,59,16,12,50,,72,61,13,10,3,8,0.6,0.6
2026-02-26T2200,2688A,93.5124,42.8176,哈密市,地区监测站,,,,47,22,20,65,,73,73,12,11,7,9,0.6,0.5
2026-02-26T2200,2689A,93.5014,42.8312,哈密市,哈密师范学校,,37,37,42,24,16,61,,71,70,16,14,12,12,0.6,0.5
2026-02-26T2200,2671A,100.9016,36.9464,海北藏族自治州,海晏县西海镇,颗粒物(PM10),54,58,47,24,19,84,,100,96,1,2,7,7,0.4,0.3
2026-02-26T2200,3867A,102.074,36.5056,海东市,平安区公安局北苑,颗粒物(PM10),160,270,102,65,46,78,,96,95,7,10,15,15,0.6,0.7
2026-02-26T2200,4163A,102.0984,36.5119,海东市,滨河路,颗粒物(PM10),189,327,114,101,44,47,,90,75,47,25,22,17,1.0,0.8
2026-02-26T2200,1410A,110.3189,20.0596,海口市,海南大学,,31,31,31,14,14,56,,68,62,3,4,6,6,0.2,0.3
2026-02-26T2200,1411A,110.2827,20.0051,海口市,秀英海南医院,,36,32,31,25,16,44,,70,65,20,8,8,8,0.3,0.2
2026-02-26T2200,1412A,110.3391,19.9979,海口市,海南师范大学,,36,36,32,17,16,59,,72,67,4,4,6,6,0.4,0.3
2026-02-26T2200,1413A,110.3303,20.0359,海口市,龙华路环保局宿舍,,38,38,29,15,14,52,,70,64,6,6,/,/,0.2,0.2
2026-02-26T2200,3539A,110.5111,19.9737,海口市,桂林洋子站,,31,31,31,16,14,38,,67,58,5,5,/,/,/,/
2026-02-26T2200,4134A,110.1952,20.0451,海口市,长滨二路9号,,46,46,30,30,16,26,,72,62,28,6,/,/,/,/
2026-02-26T2200,2673A,100.6158,36.2985,海南藏族自治州,共和县恰卜恰镇,颗粒物(PM10),57,63,49,28,29,69,,103,99,13,8,13,12,0.3,0.3
2026-02-26T2200,2676A,97.373,37.376,海西蒙古族藏族自治州,德令哈市,,43,41,60,30,23,83,,108,102,9,9,21,19,0.5,0.5
2026-02-26T2200,1049A,114.492,36.5712,邯郸市,矿院,细颗粒物(PM2.5),82,67,55,60,33,46,,44,42,8,9,3,3,0.5,0.4
2026-02-26T2200,1050A,114.4839,36.6136,邯郸市,丛台公园,颗粒物(PM10),61,71,61,42,42,46,,43,42,9,8,6,5,0.5,0.4
2026-02-26T2200,3458A,114.7893,36.5592,邯郸市,香泉濮院小区,细颗粒物(PM2.5),87,79,63,64,43,38,,45,44,12,10,3,3,0.5,0.4
2026-02-26T2200,3580A,114.1998,36.4439,邯郸市,峰峰矿区临水派出所,细颗粒物(PM2.5),64,74,43,46,27,42,,49,45,3,3,3,3,0.5,0.4
2026-02-26T2200,4068A,114.5209,36.7697,邯郸市,建安街268号,细颗粒物(PM2.5),67,64,63,48,44,32,,40,35,12,9,1,2,0.5,0.3
2026-02-26T2200,4069A,114.5488,36.6177,邯郸市,丛台东路558号,细颗粒物(PM2.5),69,65,54,50,45,44,,44,43,10,9,3,3,0.5,0.4
2026-02-26T2200,2635A,107.0155,33.0707,汉中市,市监测站,,47,47,29,22,18,54,,59,54,13,11,4,4,0.8,0.7
2026-02-26T2200,2636A,107.0083,33.114,汉中市,鑫源开发区,,46,46,27,26,20,57,,61,58,12,10,4,4,0.5,0.5
2026-02-26T2200,2637A,107.0072,33.0323,汉中市,南郑大河坎水厂,颗粒物(PM10),52,53,30,35,20,31,,56,46,17,12,4,4,0.8,0.6
2026-02-26T2200,1223A,120.2073,30.2111,杭州市,滨江,,12,7,36,3,21,22,,52,21,24,22,6,6,0.6,0.6
2026-02-26T2200,1224A,120.0625,30.2737,杭州市,西溪,,20,20,36,3,20,20,,50,19,18,13,8,8,0.8,0.7
2026-02-26T2200,1226A,120.3417,30.315,杭州市,下沙,,19,19,37,3,21,23,,48,20,25,28,7,7,0.4,0.4
2026-02-26T2200,1227A,120.1252,30.2465,杭州市,卧龙桥,,13,9,36,3,20,39,,49,26,9,13,7,7,0.4,0.4
2026-02-26T2200,1228A,120.1902,30.2691,杭州市,浙江农大,,11,7,29,3,16,23,,55,20,22,21,5,5,0.7,0.6
2026-02-26T2200,1230A,120.1195,30.3121,杭州市,和睦小学,,13,8,42,3,24,39,,52,23,11,18,4,4,0.5,0.5
2026-02-26T2200,1231A,120.3076,30.4146,杭州市,临平镇,,10,6,31,3,19,32,,55,30,12,16,6,6,0.7,0.6
2026-02-26T2200,1232A,120.2753,30.1839,杭州市,城厢镇,,26,26,42,3,21,29,,52,20,20,21,7,8,0.7,0.7
2026-02-26T2200,1233A,120.0883,30.1808,杭州市,云栖,,15,15,38,3,17,29,,43,19,17,18,4,4,0.8,0.7
2026-02-26T2200,3557A,119.9463,30.0496,杭州市,镇二中,,14,7,26,3,23,16,,53,21,28,19,4,4,0.8,0.7
2026-02-26T2200,3558A,119.7184,30.2367,杭州市,市府大楼,,10,10,29,3,23,23,,43,27,16,12,6,6,0.6,0.6
2026-02-26T2200,3656A,120.1554,30.2863,杭州市,消防大队,,18,18,41,3,24,28,,47,20,18,21,6,6,0.7,0.7
2026-02-26T2200,1270A,117.1957,31.7845,合肥市,明珠广场,,14,9,25,9,19,42,,38,35,12,16,5,5,0.8,0.9
2026-02-26T2200,1271A,117.307,31.8765,合肥市,三里街,,14,9,24,7,20,43,,38,38,15,18,5,5,0.6,0.7
2026-02-26T2200,1272A,117.2587,31.8703,合肥市,琥珀山庄,,15,12,28,10,23,41,,40,39,18,20,5,6,0.7,0.8
2026-02-26T2200,1275A,117.2593,31.9376,合肥市,庐阳区,,15,14,28,9,21,46,,42,42,13,16,4,4,0.6,0.8
2026-02-26T2200,1276A,117.345251,31.861615,合肥市,瑶海区,,14,7,22,6,17,43,,42,40,22,23,5,5,0.6,0.7
2026-02-26T2200,1277A,117.3033,31.7967,合肥市,包河区,,12,12,27,8,20,38,,32,32,23,30,9,9,0.7,0.8
2026-02-26T2200,1278A,117.278,31.7392,合肥市,滨湖新区,,12,9,24,8,18,36,,37,31,16,17,4,4,0.5,0.7
2026-02-26T2200,1279A,117.1324,31.8395,合肥市,高新区,,14,9,28,8,22,42,,39,38,9,10,4,4,0.6,0.7
2026-02-26T2200,3464A,117.3802,31.9148,合肥市,高教基地,,15,7,24,6,18,48,,45,45,14,15,8,8,0.4,0.6
2026-02-26T2200,4098A,117.2518,31.8404,合肥市,中国科学技术大学,,14,7,24,6,18,43,,40,39,10,12,7,7,0.7,0.8
2026-02-26T2200,3614A,79.9241,37.0878,和田地区,地区环保局,"颗粒物(PM10),细颗粒物(PM2.5)",500,2215,1652,520,342,45,,69,66,20,13,3,2,1.0,0.5
2026-02-26T2200,3615A,79.9132,37.1137,和田地区,市环保局,"颗粒物(PM10),细颗粒物(PM2.5)",500,2068,1540,510,355,54,,84,79,24,29,3,3,2.5,1.2
2026-02-26T2200,2517A,108.0496,24.6957,河池市,市环保站,,45,35,52,31,42,33,,45,45,6,7,3,4,0.8,0.9
2026-02-26T2200,4302A,108.0901,24.6945,河池市,上任中路54号,,35,27,46,24,37,45,,48,48,11,15,5,5,0.5,0.7
2026-02-26T2200,1697A,114.6962,23.7538,河源市,东埔,,,41,22,17,9,62,,78,75,14,12,,6,0.8,0.7
2026-02-26T2200,1698A,114.6895,23.7232,河源市,老城,,39,38,31,27,20,60,,80,76,13,10,7,6,0.7,0.6
2026-02-26T2200,3374A,115.5562,35.089,菏泽市,定陶老年大学,细颗粒物(PM2.5),104,141,71,78,46,52,,61,60,17,15,4,4,0.6,0.4
2026-02-26T2200,4114A,115.4239,35.2593,菏泽市,黄河路600号,细颗粒物(PM2.5),92,128,78,68,47,42,,53,52,16,13,2,2,0.5,0.4
2026-02-26T2200,4115A,115.5025,35.2727,菏泽市,菏泽市人社局,细颗粒物(PM2.5),94,134,74,70,47,46,,57,56,17,15,4,4,0.6,0.5
2026-02-26T2200,4184A,115.479691,35.244011,菏泽市,永昌路1号,细颗粒物(PM2.5),93,128,75,69,46,58,,71,71,17,11,2,2,0.4,0.5
2026-02-26T2200,4193A,115.471542,35.280012,菏泽市,长城路999号,颗粒物(PM10),87,123,72,63,46,52,,63,62,17,15,7,6,0.5,0.4
2026-02-26T2200,2514A,111.5264,24.4178,贺州市,环保小区,,,54,41,20,38,34,,29,29,19,15,3,3,,1
2026-02-26T2200,2515A,111.561,24.4074,贺州市,政协大楼,,18,18,36,12,36,56,,47,47,20,28,6,5,0.4,0.7
2026-02-26T2200,3534A,111.4744,24.455,贺州市,西湾,,31,31,55,15,31,21,,21,21,19,18,4,4,0.9,0.9
2026-02-26T2200,2385A,114.17,35.9019,鹤壁市,市监测站,颗粒物(PM10),57,63,41,39,29,30,,39,38,10,10,7,3,0.6,0.5
2026-02-26T2200,2386A,114.2953,35.7512,鹤壁市,市交警支队,颗粒物(PM10),60,70,42,42,31,31,,38,37,16,15,3,5,0.5,0.5
2026-02-26T2200,2387A,114.2877,35.7302,鹤壁市,迎宾馆,细颗粒物(PM2.5),68,71,42,49,34,32,,40,39,12,11,3,3,0.6,0.6
2026-02-26T2200,3474A,114.2616,35.6824,鹤壁市,大新区,细颗粒物(PM2.5),78,,38,57,43,39,,47,46,15,14,7,7,0.7,0.7
2026-02-26T2200,3596A,114.1573,35.9607,鹤壁市,南山宾馆,细颗粒物(PM2.5),68,71,38,49,33,31,,43,41,14,10,2,2,0.6,0.5
2026-02-26T2200,2244A,130.2537,47.3416,鹤岗市,哈啤分公司,,29,29,25,8,12,82,,89,86,3,4,7,8,0.4,0.4
2026-02-26T2200,2245A,130.2683,47.3087,鹤岗市,斯达机电,,28,28,28,11,10,83,,91,87,4,6,4,6,0.4,0.4
2026-02-26T2200,2246A,130.3114,47.3388,鹤岗市,东山纸板厂,,25,22,37,11,16,78,,85,81,2,6,5,7,0.5,0.5
2026-02-26T2200,2263A,127.4832,50.2524,黑河市,交通局,,24,18,20,12,12,75,,76,67,5,13,5,5,0.4,0.4
2026-02-26T2200,2264A,127.5146,50.2339,黑河市,环保局,,22,20,25,8,12,69,,78,67,6,7,7,7,0.3,0.3
2026-02-26T2200,1074A,115.6839,37.754,衡水市,电机北厂,颗粒物(PM10),67,83,84,46,50,46,,51,51,15,19,6,6,0.4,0.6
2026-02-26T2200,1075A,115.6303,37.7318,衡水市,市监测站,颗粒物(PM10),72,93,79,46,46,41,,49,49,17,18,4,5,0.3,0.4
2026-02-26T2200,3188A,115.6684,37.7216,衡水市,市城管局,颗粒物(PM10),81,111,83,46,46,37,,46,45,20,20,2,3,0.3,0.4
2026-02-26T2200,3459A,115.599,37.5491,衡水市,地表水厂,颗粒物(PM10),67,84,79,29,45,46,,51,51,8,15,4,5,0.4,0.5
2026-02-26T2200,2457A,112.6209,26.9268,衡阳市,衡阳化工总厂,,9,6,28,3,20,28,,26,26,6,10,9,13,0.9,1
2026-02-26T2200,2458A,112.621,26.8957,衡阳市,珠晖区环保局,,,79,33,3,20,22,,21,21,15,17,5,7,,1.2
2026-02-26T2200,2459A,112.628,26.8654,衡阳市,市委党校,,9,6,28,3,19,27,,27,27,8,11,5,7,0.9,1.1
2026-02-26T2200,2460A,112.6007,26.8977,衡阳市,市监测站,,20,20,39,8,23,26,,26,26,12,16,6,12,1.1,1.2
2026-02-26T2200,2461A,112.5658,26.9013,衡阳市,真空机电公司,,10,6,32,3,24,29,,22,22,10,17,7,15,1.0,1.2
2026-02-26T2200,3399A,112.6703,26.8817,衡阳市,师范学院,,13,13,32,6,20,33,,30,30,6,11,2,5,0.9,1.1
2026-02-26T2200,3038A,103.3757,23.3679,红河哈尼族彝族自治州,州图书馆,,,,19,22,17,,,102,100,4,4,4,5,0.3,0.3
2026-02-26T2200,4154A,103.401,23.3561,红河哈尼族彝族自治州,蒙自市朝阳路,,27,,14,18,14,86,,99,94,4,4,8,8,0.2,0.1
2026-02-26T2200,1090A,111.6506,40.7517,呼和浩特市,呼市一监,,44,44,32,14,12,71,,76,74,15,13,7,6,0.5,0.5
2026-02-26T2200,1094A,111.7516,40.8369,呼和浩特市,如意水处理厂,,42,42,33,18,10,58,,74,68,19,14,10,9,0.4,0.3
2026-02-26T2200,1095A,111.727798,40.806187,呼和浩特市,二十九中,,46,46,34,20,11,60,,71,66,11,10,11,11,0.5,0.5
2026-02-26T2200,1097A,111.717,40.7617,呼和浩特市,化肥厂生活区,,48,48,41,18,12,71,,74,72,10,9,5,5,0.3,0.3
2026-02-26T2200,3699A,111.6519,40.8389,呼和浩特市,海东办,,46,46,30,26,10,42,,70,61,29,14,4,4,0.6,0.3
2026-02-26T2200,4275A,111.591512,40.827312,呼和浩特市,成吉思汗西街8号,,46,46,31,25,11,7,,65,49,60,20,4,5,0.6,0.4
2026-02-26T2200,4276A,111.6597,40.8077,呼和浩特市,公园东路75号,,44,44,33,25,13,57,,68,64,19,15,6,6,0.6,0.5
2026-02-26T2200,4277A,111.5427,40.7846,呼和浩特市,金海路35号,颗粒物(PM10),51,52,34,25,11,38,,67,60,32,14,6,6,0.4,0.4
2026-02-26T2200,3061A,119.7511,49.1576,呼伦贝尔市,国华电力东,颗粒物(PM10),51,52,28,30,15,37,,84,73,44,17,7,6,0.6,0.5
2026-02-26T2200,4279A,119.7569,49.2222,呼伦贝尔市,伊敏大街东7号,,33,33,31,22,15,60,,75,72,23,16,7,7,0.5,0.4
2026-02-26T2200,1250A,120.075,30.867,湖州市,城西水厂,,18,14,27,12,20,37,,75,30,23,20,5,5,0.4,0.4
2026-02-26T2200,2873A,120.083,30.8929,湖州市,仁皇山新区,,12,10,28,8,18,36,,69,32,21,21,5,4,0.6,0.5
2026-02-26T2200,2907A,120.1846,30.8592,湖州市,吴兴区站,,19,19,33,10,17,21,,55,26,18,15,4,4,0.6,0.6
2026-02-26T2200,3562A,120.4146,30.8538,湖州市,南浔区站,,30,30,37,11,20,34,,70,42,16,14,7,7,0.5,0.5
2026-02-26T2200,1607A,120.904878,40.721091,葫芦岛市,龙港区,颗粒物(PM10),69,87,79,15,32,51,,72,60,21,19,14,23,0.4,0.7
2026-02-26T2200,1608A,120.8382,40.7521,葫芦岛市,化工街,,44,44,74,21,32,41,,68,55,30,25,16,11,0.4,0.4
2026-02-26T2200,1609A,120.8339,40.7078,葫芦岛市,新区,,49,49,60,19,28,42,,66,55,26,19,25,10,0.7,0.7
2026-02-26T2200,1610A,120.8697,40.7679,葫芦岛市,东城区,,39,39,67,22,34,44,,66,56,27,24,20,12,0.5,0.6
2026-02-26T2200,2483A,109.9297,27.5383,怀化市,河西地税局,,16,16,15,9,8,37,,38,33,8,9,2,2,/,/
2026-02-26T2200,2484A,109.9783,27.5342,怀化市,市四医院,,15,15,21,9,10,25,,33,26,10,8,6,6,0.5,0.5
2026-02-26T2200,2485A,109.9971,27.5579,怀化市,监测楼,,16,16,19,8,12,33,,39,34,11,9,3,3,0.3,0.3
2026-02-26T2200,1210A,119.0566,33.5991,淮安市,钵池山,,22,6,23,3,15,68,,65,63,8,10,9,9,0.4,0.4
2026-02-26T2200,1211A,119.0083,33.578,淮安市,北京南路,,20,6,25,3,16,64,,61,60,5,8,6,6,0.3,0.3
2026-02-26T2200,1212A,118.9938,33.6083,淮安市,市监测站,,21,,17,3,16,65,,66,65,8,8,9,9,0.3,0.3
2026-02-26T2200,1213A,119.135,33.5038,淮安市,楚州区监测站,,22,,19,3,15,68,,66,66,6,8,5,5,0.2,0.2
2026-02-26T2200,3426A,118.8757,33.2897,淮安市,新华书店,,16,11,31,11,21,49,,56,54,17,12,6,6,0.3,0.5
2026-02-26T2200,4092A,119.119691,33.550006,淮安市,枚皋中路89号,,23,9,27,3,17,72,,70,69,8,10,9,9,0.4,0.4
2026-02-26T2200,4206A,119.028838,33.631911,淮安市,承德北路606号,,20,7,25,3,15,64,,67,65,8,8,7,6,0.2,0.3
2026-02-26T2200,2282A,116.8005,33.9749,淮北市,监测站,细颗粒物(PM2.5),59,55,53,42,34,56,,62,62,17,15,5,5,0.6,0.5
2026-02-26T2200,2283A,116.8094,33.9008,淮北市,烈山区政府,颗粒物(PM10),61,72,50,40,31,57,,63,62,18,15,4,4,0.5,0.4
2026-02-26T2200,4017A,116.7926,33.9534,淮北市,市博物馆,细颗粒物(PM2.5),59,54,53,42,35,54,,60,60,18,15,1,2,0.7,0.6
2026-02-26T2200,4100A,116.8322,33.9884,淮北市,杜集区第一实验学校,细颗粒物(PM2.5),60,59,53,43,32,50,,60,59,17,15,7,6,0.6,0.5
2026-02-26T2200,2277A,116.8304,32.7726,淮南市,潘集区政府,,31,31,41,14,23,56,,55,55,12,14,5,5,0.4,0.4
2026-02-26T2200,2279A,116.8569,32.5949,淮南市,谢家集区政府,,20,,31,12,26,63,,54,54,11,17,7,7,0.4,0.5
2026-02-26T2200,2280A,116.8279,32.6333,淮南市,八公山区政府,,23,19,35,16,28,59,,55,55,9,11,7,6,0.4,0.5
2026-02-26T2200,2894A,117.0561,32.6536,淮南市,经济技术开发区消防队,,21,21,46,13,31,57,,50,50,10,18,4,4,0.3,0.4
2026-02-26T2200,3329A,117.011,32.5891,淮南市,山南新区,,22,,32,11,31,68,,58,58,9,16,6,6,0.4,0.4
2026-02-26T2200,4209A,117.003137,32.644456,淮南市,国庆中路369号,,21,21,43,14,30,46,,42,42,9,14,8,8,0.4,0.5
2026-02-26T2200,2446A,114.9021,30.474,黄冈市,职工中心,,20,20,18,14,10,41,,41,41,7,5,4,4,0.7,0.6
2026-02-26T2200,2929A,114.8858,30.4519,黄冈市,红卫路,,22,20,19,15,9,39,,40,38,7,8,2,2,0.5,0.5
2026-02-26T2200,3398A,114.9134,30.4446,黄冈市,市林业局,,28,,16,19,10,49,,49,49,10,8,4,4,0.4,0.4
2026-02-26T2200,2672A,102.02,35.5101,黄南藏族自治州,同仁县隆务镇,颗粒物(PM10),55,60,54,26,25,83,,88,88,1,3,9,10,0.2,0.3
2026-02-26T2200,2295A,118.2905,29.6965,黄山市,延安路89号,,11,6,11,3,9,33,,30,27,9,9,4,4,0.8,0.6
2026-02-26T2200,2297A,118.1369,30.2755,黄山市,黄山区政府5号楼,,16,16,12,3,6,31,,32,32,12,8,2,2,0.7,0.6
2026-02-26T2200,4210A,118.335445,29.720283,黄山市,滨江东路7-2号,,11,9,23,3,6,33,,29,23,9,9,/,/,/,/
2026-02-26T2200,2423A,115.0547,30.2332,黄石市,沈家营,,,24,22,14,9,50,,55,54,,2,7,66,0.7,0.8
2026-02-26T2200,2426A,114.899,30.211,黄石市,铁山,,40,40,25,21,13,42,,41,41,8,8,6,5,1.2,0.9
2026-02-26T2200,2427A,115.0259,30.2108,黄石市,团城山,,28,28,23,17,12,29,,28,28,8,9,7,6,0.7,0.8
2026-02-26T2200,3149A,115.0174,30.1591,黄石市,笔架山北路,,30,30,30,15,15,29,,27,27,11,15,6,6,1.1,1.2
2026-02-26T2200,4185A,115.078022,30.21118,黄石市,磁湖东路29号,,31,31,26,10,13,36,,35,35,2,4,6,8,0.9,1.1
2026-02-26T2200,1392A,114.4181,23.0528,惠州市,河南岸金山湖子站,,33,33,24,19,14,57,,80,74,13,9,6,6,0.6,0.6
2026-02-26T2200,1393A,114.4055,23.0824,惠州市,下埔横江三路子站,,36,36,25,21,14,57,,84,77,18,11,7,7,0.7,0.6
2026-02-26T2200,1395A,114.4645,22.7832,惠州市,惠阳区承修路船湖子站,,30,30,23,16,11,74,,79,76,12,8,6,6,0.6,0.5
2026-02-26T2200,1396A,114.5316,22.7423,惠州市,大亚湾管委会子站,,27,27,24,15,11,79,,79,78,11,8,8,7,0.5,0.5
2026-02-26T2200,3314A,114.4334,22.8134,惠州市,惠阳秋长,,29,29,20,14,11,78,,90,88,16,9,/,/,/,/
2026-02-26T2200,3452A,114.6521,22.7755,惠州市,大亚湾霞涌,,26,26,21,12,10,78,,89,89,20,11,/,/,/,/
2026-02-26T2200,4300A,114.4089,23.1147,惠州市,文华一路1号,,32,32,22,19,13,60,,85,77,16,11,/,/,/,/
2026-02-26T2200,2240A,130.9618,45.2926,鸡西市,环保局,颗粒物(PM10),56,61,72,21,29,70,,73,71,12,12,16,7,0.2,0.2
2026-02-26T2200,2243A,130.9294,45.2959,鸡西市,第一中学,,47,47,58,24,26,74,,77,71,11,10,5,5,0.3,0.4
2026-02-26T2200,3707A,131.0069,45.2988,鸡西市,欧美日汽修厂,细颗粒物(PM2.5),52,51,84,36,44,59,,68,67,15,17,11,13,0.8,0.8
2026-02-26T2200,2367A,114.9753,27.0803,吉安市,红声器材厂,,22,22,36,3,18,10,,17,9,21,17,10,9,0.7,0.6
2026-02-26T2200,2369A,114.9903,27.1313,吉安市,市环境监测站,,17,17,27,7,19,13,,19,13,21,16,8,7,/,/
2026-02-26T2200,2370A,115.009527,27.096792,吉安市,青原区法院,,17,17,26,8,19,13,,18,12,17,15,6,5,0.9,0.8
2026-02-26T2200,1772A,126.54,43.8622,吉林市,哈达湾,,46,46,75,25,25,69,,75,75,12,10,11,9,0.5,0.6
2026-02-26T2200,1773A,126.5843,43.8358,吉林市,东局子,,44,44,58,24,23,73,,74,74,8,11,6,7,0.4,0.7
2026-02-26T2200,1774A,126.5051,43.8243,吉林市,电力学院,,34,34,59,21,22,72,,76,76,12,11,9,9,0.5,0.5
2026-02-26T2200,1775A,126.6133,43.8971,吉林市,江北,,41,41,68,20,19,72,,77,77,6,7,8,7,0.7,0.6
2026-02-26T2200,1776A,126.5549,43.8304,吉林市,江南公园,,38,38,66,24,24,65,,66,66,10,12,8,10,0.5,0.7
2026-02-26T2200,2868A,126.4737,43.953,吉林市,九站,"颗粒物(PM10),细颗粒物(PM2.5)",57,64,72,40,29,52,,70,68,19,12,17,14,0.8,0.6
2026-02-26T2200,1299A,116.9866,36.6118,济南市,科干所,颗粒物(PM10),96,141,121,59,61,48,,54,35,30,26,10,6,0.8,0.7
2026-02-26T2200,1300A,116.9379,36.6652,济南市,农科所,颗粒物(PM10),96,142,117,42,69,34,,48,31,43,27,8,5,0.9,0.7
2026-02-26T2200,1301A,117.1265,36.6736,济南市,开发区,颗粒物(PM10),94,137,121,38,68,59,,59,40,26,25,6,4,0.6,0.7
2026-02-26T2200,1303A,117.0616,36.6865,济南市,省种子仓库,颗粒物(PM10),101,151,127,41,66,45,,58,42,32,24,9,5,0.7,0.6
2026-02-26T2200,1304A,116.9495185,36.644937,济南市,机床二厂,颗粒物(PM10),96,142,109,46,70,52,,54,36,28,22,8,5,0.7,0.4
2026-02-26T2200,1305A,117.0496,36.6629,济南市,市监测站,颗粒物(PM10),97,144,126,40,69,50,,53,37,31,28,6,4,0.7,0.6
2026-02-26T2200,1306A,116.7674,36.5458,济南市,长清党校,"颗粒物(PM10),细颗粒物(PM2.5)",109,168,125,82,68,36,,45,28,36,23,5,4,0.8,0.7
2026-02-26T2200,1961A,117.5323,36.6865,济南市,东山小学,颗粒物(PM10),95,139,133,44,60,47,,56,48,30,27,4,4,0.5,0.6
2026-02-26T2200,3059A,117.7181,36.205,济南市,泰兴公司,颗粒物(PM10),91,132,103,40,63,56,,53,53,25,26,9,8,0.6,0.7
2026-02-26T2200,3064A,117.6861,36.2172,济南市,莱芜战役纪念馆,颗粒物(PM10),91,132,108,41,63,50,,48,48,27,24,6,5,0.4,0.8
2026-02-26T2200,3494A,117.1673,36.9782,济南市,济阳区政府,颗粒物(PM10),80,110,118,47,63,49,,48,43,12,20,6,8,0.3,0.4
2026-02-26T2200,3495A,117.1168,36.6299,济南市,锦屏中学,,,,122,,72,,,69,34,,21,,6,,0.9
2026-02-26T2200,4108A,117.7107,36.2385,济南市,山财大街5号,颗粒物(PM10),87,124,99,39,60,47,,50,50,34,29,10,9,0.6,0.6
2026-02-26T2200,4109A,116.9744,36.6889,济南市,无影山路12号,颗粒物(PM10),92,134,110,40,66,40,,48,34,32,25,10,5,0.7,0.6
2026-02-26T2200,1653A,116.6229,35.4288,济宁市,火炬城,细颗粒物(PM2.5),98,135,92,73,54,24,,45,42,25,19,3,3,0.7,0.6
2026-02-26T2200,3500A,116.5808,35.3703,济宁市,北湖一中,细颗粒物(PM2.5),108,128,86,81,57,29,,46,44,23,16,6,5,0.7,0.5
2026-02-26T2200,3501A,116.8251,35.5592,济宁市,服务中心,细颗粒物(PM2.5),113,127,99,85,61,15,,49,43,38,22,3,2,0.6,0.6
2026-02-26T2200,3678A,116.5907,35.4054,济宁市,市第七中学,细颗粒物(PM2.5),110,139,89,83,53,31,,50,48,27,19,6,5,0.7,0.6
2026-02-26T2200,4111A,116.6075,35.4566,济宁市,任和路,颗粒物(PM10),107,163,98,75,53,23,,47,44,26,18,4,4,1.0,0.9
2026-02-26T2200,4112A,116.5648,35.3921,济宁市,文体南路1号,细颗粒物(PM2.5),112,148,101,84,55,29,,47,45,25,16,2,2,0.5,0.4
2026-02-26T2200,2255A,130.2749,46.8028,佳木斯市,佳纺,颗粒物(PM10),52,53,41,25,20,55,,74,62,12,13,9,6,0.4,0.4
2026-02-26T2200,2257A,130.3258,46.7975,佳木斯市,环保局,,29,29,33,20,17,58,,82,68,14,12,9,8,0.3,0.4
2026-02-26T2200,4285A,130.363,46.806,佳木斯市,顺和街,,36,29,30,25,21,58,,75,64,18,14,8,7,0.3,0.4
2026-02-26T2200,4286A,130.3952,46.8268,佳木斯市,长安路196号,,26,25,26,18,15,71,,81,72,6,8,4,4,0.3,0.3
2026-02-26T2200,1252A,120.7439,30.778,嘉兴市,清河小学,,14,10,25,3,11,42,,69,46,18,20,6,6,0.4,0.4
2026-02-26T2200,1253A,120.7261,30.7477,嘉兴市,嘉兴学院,,,10,26,8,15,,,68,47,19,19,5,5,0.7,0.8
2026-02-26T2200,2872A,120.7845,30.7524,嘉兴市,南湖区残联,,13,,20,9,18,39,,72,48,16,17,3,4,0.5,0.5
2026-02-26T2200,3407A,120.6915,30.7741,嘉兴市,秀洲住建,,11,11,25,3,13,34,,73,45,18,18,6,7,0.5,0.5
2026-02-26T2200,1945A,98.291,39.7705,嘉峪关市,气象局,颗粒物(PM10),92,134,70,37,23,63,,75,74,15,18,9,30,0.6,1.2
2026-02-26T2200,2884A,98.2672,39.7978,嘉峪关市,酒钢宾馆,颗粒物(PM10),92,134,83,31,23,59,,65,65,14,22,10,43,0.6,1.1
2026-02-26T2200,3248A,98.2644,39.7723,嘉峪关市,雄关区,颗粒物(PM10),80,109,67,33,23,62,,73,73,15,23,3,23,0.5,0.9
2026-02-26T2200,1383A,113.1063,22.6058,江门市,北街,,26,25,23,18,12,61,,74,73,15,15,/,/,/,/
2026-02-26T2200,1384A,113.073,22.5835,江门市,西区,,34,34,26,18,12,66,,79,77,14,12,/,/,/,/
2026-02-26T2200,1385A,113.0218,22.531,江门市,圭峰西,,32,28,25,22,15,64,,76,75,12,9,/,/,/,/
2026-02-26T2200,1386A,113.0826,22.5947,江门市,东湖,,40,40,28,19,14,67,,76,76,10,9,7,7,0.4,0.4
2026-02-26T2200,3311A,113.1077,22.5647,江门市,江海富民,,47,47,40,20,13,67,,78,77,15,14,/,/,0.4,0.3
2026-02-26T2200,3449A,113.0496,22.4669,江门市,新会银湖,,35,35,27,17,14,64,,75,74,17,16,6,6,0.4,0.4
2026-02-26T2200,3335A,113.3137,35.2643,焦作市,马村街道办,颗粒物(PM10),51,52,49,32,44,27,,36,36,21,14,6,7,0.5,0.5
2026-02-26T2200,3336A,113.2464,35.2374,焦作市,焦作技师学院,细颗粒物(PM2.5),55,46,37,39,29,25,,32,31,20,14,6,7,0.7,0.7
2026-02-26T2200,3477A,113.1656,35.2536,焦作市,中站许衡医院,颗粒物(PM10),58,65,50,40,32,29,,37,34,22,14,8,7,0.8,0.7
2026-02-26T2200,3981A,113.2456,35.18,焦作市,原李万街道办,,46,46,45,30,31,30,,36,36,18,13,5,6,0.7,0.6
2026-02-26T2200,4264A,113.234,35.219,焦作市,新安路1731号,"颗粒物(PM10),细颗粒物(PM2.5)",53,55,48,37,37,34,,42,40,20,15,7,8,0.4,0.4
2026-02-26T2200,4295A,113.2722,35.2121,焦作市,人民路3066号,,47,47,46,32,31,34,,41,41,21,16,5,5,0.6,0.6
2026-02-26T2200,1708A,116.3701,23.5345,揭阳市,新兴,,44,44,35,29,22,56,,79,73,25,16,9,7,1.0,0.7
2026-02-26T2200,1709A,116.3261,23.5442,揭阳市,西马,颗粒物(PM10),52,53,43,31,29,63,,80,75,11,9,6,9,0.7,0.6
2026-02-26T2200,1710A,116.361,23.5627,揭阳市,东兴,细颗粒物(PM2.5),57,55,39,40,27,57,,78,74,24,15,8,7,/,/
2026-02-26T2200,1711A,116.4151,23.5295,揭阳市,渔湖,细颗粒物(PM2.5),64,60,32,46,21,57,,91,85,20,12,4,5,/,/
2026-02-26T2200,3320A,116.4028,23.5699,揭阳市,曲溪,颗粒物(PM10),54,57,35,29,21,60,,89,85,25,15,11,11,1.1,0.7
2026-02-26T2200,1944A,102.1691,38.5166,金昌市,天庆家园,颗粒物(PM10),67,83,84,24,23,56,,80,75,12,6,6,6,0.5,0.5
2026-02-26T2200,4022A,102.1648,38.5369,金昌市,金川区人防中心,,33,,76,23,25,57,,82,77,11,5,6,8,0.6,0.5
2026-02-26T2200,4239A,102.193042,38.531887,金昌市,长春路96号,颗粒物(PM10),61,72,81,21,24,72,,84,80,8,7,6,19,0.5,0.4
2026-02-26T2200,1262A,119.6478,29.0773,金华市,十五中,,18,18,32,12,21,24,,49,25,23,22,4,4,0.6,0.5
2026-02-26T2200,1263A,119.6859,29.1032,金华市,监测站,,19,19,34,13,24,12,,36,11,19,21,2,2,0.6,0.5
2026-02-26T2200,3659A,119.656,29.1132,金华市,气象局,,19,18,34,13,24,15,,31,11,18,24,2,2,0.6,0.7
2026-02-26T2200,1767A,121.1114,41.0879,锦州市,南山,,37,37,58,21,28,59,,77,69,16,16,12,10,0.6,0.5
2026-02-26T2200,1768A,121.060361,40.842794,锦州市,开发区,,40,40,73,14,28,60,,71,66,13,16,4,5,0.4,0.6
2026-02-26T2200,1769A,121.1836,41.1118,锦州市,百股街道,,37,37,65,24,32,57,,74,66,11,15,9,15,0.6,0.6
2026-02-26T2200,1770A,121.1176,41.1224,锦州市,天安街道,,39,39,61,18,27,61,,75,66,13,16,9,8,0.6,0.6
2026-02-26T2200,1771A,121.1303,41.1385,锦州市,北湖公园,,38,38,60,18,29,67,,81,72,9,12,9,7,0.6,0.5
2026-02-26T2200,2160A,112.8496,35.5051,晋城市,自来水公司,,35,35,39,12,17,41,,49,34,10,10,3,4,0.5,0.5
2026-02-26T2200,2162A,112.8509,35.4886,晋城市,市环保局,,22,20,32,15,17,44,,53,36,11,12,4,4,0.4,0.4
2026-02-26T2200,3620A,112.8258,35.4804,晋城市,泽州一中,,49,,37,34,20,42,,52,34,9,11,2,3,0.4,0.8
2026-02-26T2200,4078A,112.8246,35.5152,晋城市,前书院路,,23,23,38,15,20,37,,38,31,12,12,5,5,0.6,0.5
2026-02-26T2200,4079A,112.8864,35.4773,晋城市,祥云街666号,,30,24,29,21,23,41,,47,35,8,10,5,5,0.4,0.4
2026-02-26T2200,2174A,112.6992,37.6984,晋中市,榆次区政府,,42,39,85,29,58,46,,59,45,16,19,6,7,0.4,0.5
2026-02-26T2200,2865A,112.7195,37.683,晋中市,榆次三中,,49,39,82,34,50,46,,64,46,14,13,6,7,0.4,0.5
2026-02-26T2200,4080A,112.7375,37.7215,晋中市,广安街188号,,49,49,93,27,54,45,,58,45,16,20,8,9,0.4,0.5
2026-02-26T2200,4200A,112.7478,37.6954,晋中市,迎宾街26号,,48,41,81,33,56,45,,61,45,18,18,6,7,0.2,0.3
2026-02-26T2200,2439A,112.2012,31.048,荆门市,竹园小学,,33,28,32,23,22,40,,52,43,16,14,2,3,1.4,1.4
2026-02-26T2200,2440A,112.1968,30.9892,荆门市,掇刀,,25,25,31,12,24,46,,60,50,12,11,8,4,0.5,0.6
2026-02-26T2200,3012A,112.1849,31.0361,荆门市,西山林语,,31,31,33,20,22,41,,55,45,12,11,3,3,0.6,0.6
2026-02-26T2200,3547A,112.1631,31.0134,荆门市,龙泉中学南校,,,,,,,,,,,,,,,,
2026-02-26T2200,4124A,112.2213,31.0654,荆门市,新台西路6号,,42,29,31,29,26,39,,53,43,11,8,9,8,0.4,0.4
2026-02-26T2200,1844A,112.2493,30.3198,荆州市,市图书馆,,28,22,21,19,19,35,,64,58,15,12,6,6,0.7,0.7
2026-02-26T2200,1845A,112.2009,30.3543,荆州市,市委党校,,28,23,29,19,22,30,,55,46,20,16,6,5,0.5,0.5
2026-02-26T2200,3194A,112.2749,30.3124,荆州市,管委会,,22,19,19,15,19,36,,59,51,16,13,8,8,0.6,0.6
2026-02-26T2200,4268A,112.1722,30.3366,荆州市,学苑路85号,,30,30,30,20,23,35,,64,54,13,9,3,1,0.6,0.6
2026-02-26T2200,2343A,117.2114,29.2931,景德镇市,老干部活动中心,,11,7,10,3,5,8,,20,17,17,8,4,4,1.1,0.8
2026-02-26T2200,2344A,117.1893,29.2789,景德镇市,兽医站,,15,15,17,3,5,14,,22,19,18,9,3,4,0.7,0.6
2026-02-26T2200,2346A,117.246,29.2958,景德镇市,陶研所,,14,11,10,9,5,9,,20,18,27,18,3,3,0.9,0.6
2026-02-26T2200,4289A,117.154766,29.256967,景德镇市,青少年活动中心,,8,6,10,3,6,12,,14,12,16,12,3,4,/,/
2026-02-26T2200,1803A,115.9873,29.6816,九江市,十里,,22,17,30,15,24,40,,27,27,19,26,6,6,0.7,0.8
2026-02-26T2200,1804A,115.9583,29.7047,九江市,茅山头,,,58,31,,24,34,,23,23,11,20,4,4,0.6,0.7
2026-02-26T2200,1805A,115.9877,29.7295,九江市,西园,,16,16,29,6,17,36,,26,26,23,26,3,3,0.6,0.7
2026-02-26T2200,1808A,115.9112,29.6038,九江市,综合工业园,,14,12,22,3,14,42,,26,26,22,28,5,6,0.6,0.7
2026-02-26T2200,3190A,116.0254,29.6995,九江市,外国语学校,,17,17,27,3,20,36,,23,23,11,21,3,6,0.7,0.4
2026-02-26T2200,4253A,116.010205,29.659402,九江市,莲花大道8号,,13,13,29,3,10,41,,27,27,14,26,4,4,0.5,0.6
2026-02-26T2200,4240A,98.495752,39.733935,酒泉市,玉门东路5号,颗粒物(PM10),82,114,58,50,22,47,,72,66,16,7,9,11,0.7,0.5
2026-02-26T2200,4241A,98.5099,39.7506,酒泉市,北大街108号,颗粒物(PM10),81,112,45,40,19,53,,76,69,12,6,13,15,0.6,0.4
2026-02-26T2200,2698A,76.0071,39.466,喀什地区,巡警大队,颗粒物(PM10),500,1266,1592,450,462,62,,78,76,18,10,4,3,0.6,0.5
2026-02-26T2200,2699A,75.9756,39.4693,喀什地区,吾办,颗粒物(PM10),500,1149,1451,438,438,58,,72,70,17,8,3,2,0.3,0.3
2026-02-26T2200,4027A,75.9485,39.4688,喀什地区,老干局,颗粒物(PM10),500,1161,1558,400,399,60,,77,75,15,6,4,3,0.5,0.4
2026-02-26T2200,1824A,114.3389,34.778,开封市,肿瘤医院,细颗粒物(PM2.5),65,,40,47,37,50,,55,55,14,14,7,6,0.6,0.6
2026-02-26T2200,1826A,114.2884,34.7966,开封市,世纪星幼儿园,细颗粒物(PM2.5),62,,38,44,37,48,,52,52,15,14,7,6,0.6,0.6
2026-02-26T2200,3147A,114.3434,34.8101,开封市,龙亭公园,细颗粒物(PM2.5),62,,40,44,35,45,,51,51,18,18,8,8,0.7,0.4
2026-02-26T2200,3210A,114.3645,34.7955,开封市,汴京公园,,47,47,44,31,32,46,,50,50,17,16,4,4,0.5,0.5
2026-02-26T2200,3473A,114.2485,34.8306,开封市,技师学院,,42,41,37,29,31,46,,52,51,14,14,7,7,0.7,0.7
2026-02-26T2200,3592A,114.4518,34.7503,开封市,祥符区生态环境局,细颗粒物(PM2.5),60,58,50,43,39,45,,50,50,15,18,5,6,0.7,0.7
2026-02-26T2200,1951A,84.886,45.6029,克拉玛依市,长征新村,,26,26,20,15,11,69,,81,77,4,2,6,6,0.5,0.5
2026-02-26T2200,1952A,84.8894,45.5827,克拉玛依市,南林小区,,26,26,21,7,2,76,,85,80,2,3,1,2,0.5,0.5
2026-02-26T2200,1954A,84.896,44.3328,克拉玛依市,独山子区,细颗粒物(PM2.5),53,54,71,37,39,69,,75,67,17,11,3,3,0.6,0.5
2026-02-26T2200,1955A,85.6888,46.0909,克拉玛依市,乌尔禾区商贸楼,,35,35,23,3,7,78,,84,84,8,6,10,9,0.4,0.4
2026-02-26T2200,3612A,85.1045,45.6895,克拉玛依市,白碱滩区新站,,31,31,30,9,6,68,,85,77,13,8,10,10,0.2,0.2
2026-02-26T2200,2697A,76.1457,39.7143,克孜勒苏柯尔克孜自治州,市人民政府,颗粒物(PM10),500,1182,1420,346,356,68,,85,83,12,5,5,4,0.4,0.3
2026-02-26T2200,3665A,76.1654,39.7157,克孜勒苏柯尔克孜自治州,克州文化中心,颗粒物(PM10),500,1253,1438,360,370,63,,78,77,19,8,6,5,0.6,0.4
2026-02-26T2200,1450A,102.8203,24.889,昆明市,呈贡新区,,38,29,30,26,26,98,,122,113,8,7,3,4,0.5,0.6
2026-02-26T2200,1452A,102.7253,25.0904,昆明市,龙泉镇,,47,47,33,30,29,88,,112,102,10,9,4,4,0.4,0.4
2026-02-26T2200,1453A,102.7267,25.0378,昆明市,东风东路,,35,32,34,24,28,96,,115,107,10,10,4,4,0.6,0.6
2026-02-26T2200,1454A,102.6744,25.0671,昆明市,金鼎山,,48,48,36,27,28,98,,119,108,12,12,4,4,0.6,0.6
2026-02-26T2200,1455A,102.6643,25.0401,昆明市,碧鸡广场,,42,31,32,29,29,89,,113,103,14,12,5,5,0.6,0.6
2026-02-26T2200,3179A,102.7491,25.012,昆明市,官渡区博物馆,,35,35,33,18,28,97,,116,109,10,9,3,3,0.5,0.5
2026-02-26T2200,3375A,102.8016,24.8336,昆明市,青年创业园,,33,31,29,23,27,94,,115,108,6,5,4,5,0.7,0.7
2026-02-26T2200,3550A,102.8,24.9787,昆明市,昆明学院,,46,35,35,32,26,92,,117,108,9,6,4,4,0.6,0.6
2026-02-26T2200,3551A,102.5969,24.6738,昆明市,晋宁区生态环境分局,,49,43,31,34,30,98,,110,107,7,6,1,2,0.4,0.5
2026-02-26T2200,3552A,102.6673,24.9861,昆明市,云天化总部,,32,28,33,21,24,100,,117,111,8,7,7,7,0.4,0.5
2026-02-26T2200,1456A,91.132,29.6515,拉萨市,八廓街,,28,19,14,12,8,87,,116,112,20,10,10,8,0.8,0.6
2026-02-26T2200,1457A,91.1221,29.6748,拉萨市,市环保局,颗粒物(PM10),52,53,19,26,10,50,,109,97,43,17,7,4,1.4,0.9
2026-02-26T2200,1458A,91.0874,29.6476,拉萨市,区监测站,,24,12,10,8,6,74,,109,105,30,18,5,4,0.8,0.7
2026-02-26T2200,1459A,91.1774,29.6541,拉萨市,西藏大学,,28,23,11,15,7,87,,113,108,24,10,6,4,1.1,0.6
2026-02-26T2200,1460A,90.9798,29.6586,拉萨市,区辐射站,,40,39,14,28,9,74,,108,102,29,10,6,4,0.8,0.4
2026-02-26T2200,1461A,91.0831,29.6292,拉萨市,拉萨火车站,,28,13,10,12,7,87,,109,106,17,15,4,4,0.6,0.5
2026-02-26T2200,2520A,109.2203,23.7252,来宾市,来宾技工学校,,23,23,67,14,59,23,,34,34,15,26,13,13,0.8,1
2026-02-26T2200,3535A,109.1781,23.7293,来宾市,兴宾区政府,,23,20,60,16,49,29,,45,44,14,13,13,8,0.8,0.9
2026-02-26T2200,4002A,109.2312,23.7428,来宾市,中南小学,,24,24,65,15,64,19,,28,27,16,23,5,5,0.7,0.9
2026-02-26T2200,1479A,103.8309,36.0467,兰州市,铁路设计院,,,,,,,,,,,,,,,,
2026-02-26T2200,3241A,103.7439,36.0841,兰州市,百合公园,颗粒物(PM10),88,125,116,44,44,77,,79,78,9,32,5,17,0.5,0.8
2026-02-26T2200,3242A,103.9613,35.9985,兰州市,和平,颗粒物(PM10),109,168,135,50,45,69,,96,93,16,17,16,18,0.7,0.9
2026-02-26T2200,4236A,103.629272,36.093822,兰州市,庄浪东路808号,颗粒物(PM10),93,135,125,42,42,80,,89,88,13,25,2,14,0.4,0.6
2026-02-26T2200,4237A,103.7251,36.104344,兰州市,安宁西路88号,颗粒物(PM10),98,146,144,46,42,85,,93,92,8,23,9,21,0.3,0.5
2026-02-26T2200,4238A,103.846982,36.067567,兰州市,北滨河东路1号,颗粒物(PM10),87,123,121,45,43,81,,93,93,18,36,8,16,0.4,0.9
2026-02-26T2200,1067A,116.6712,39.5109,廊坊市,药材公司,,46,46,97,19,60,46,,49,49,18,29,2,1,0.5,0.7
2026-02-26T2200,1068A,116.7215,39.5592,廊坊市,开发区,,41,41,96,22,63,52,,52,52,16,32,2,2,0.4,0.6
2026-02-26T2200,1070A,116.7246,39.5273,廊坊市,北华航天学院,,39,39,97,16,62,48,,53,52,19,31,5,4,0.4,0.6
2026-02-26T2200,2919A,116.7022,39.5454,廊坊市,河北工业大学,,39,39,105,23,62,43,,44,44,14,27,2,2,0.4,0.6
2026-02-26T2200,2536A,103.7629,29.5844,乐山市,牛耳桥,,50,50,49,25,26,76,,104,99,26,16,6,6,0.6,0.6
2026-02-26T2200,2537A,103.7501,29.6002,乐山市,市第三水厂,,48,48,50,24,27,84,,103,99,20,18,4,4,0.6,0.7
2026-02-26T2200,2538A,103.7571,29.5664,乐山市,市监测站,,47,47,50,24,25,80,,99,96,17,13,7,7,0.8,0.7
2026-02-26T2200,3361A,103.7313,29.563,乐山市,理工大学,,48,48,48,28,26,79,,101,98,14,9,6,5,0.8,0.7
2026-02-26T2200,2599A,100.2497,26.8802,丽江市,丽江古城,,35,29,25,20,14,111,,119,117,11,9,8,9,0.5,0.4
2026-02-26T2200,2600A,100.2203,26.8906,丽江市,市中心,,36,,18,21,16,114,,124,120,9,9,7,6,0.5,0.4
2026-02-26T2200,1267A,119.9141,28.4513,丽水市,监测站大楼,,13,11,10,9,7,32,,55,38,12,8,4,4,0.4,0.4
2026-02-26T2200,1268A,119.93,28.4589,丽水市,莲都小学,,15,13,11,10,7,31,,55,38,15,10,/,/,/,/
2026-02-26T2200,1269A,119.8794,28.4232,丽水市,余庄前,,17,17,14,10,8,8,,51,20,26,11,4,4,0.5,0.4
2026-02-26T2200,1173A,119.1759,34.5885,连云港市,市环境监测站,,25,7,22,7,9,78,,80,72,14,14,5,6,0.3,0.3
2026-02-26T2200,3000A,119.3577,34.6971,连云港市,德源药业,,27,17,26,3,10,84,,79,79,8,9,5,6,0.4,0.6
2026-02-26T2200,3007A,119.178,34.8442,连云港市,新城一中,,46,46,56,27,18,76,,93,85,16,15,7,7,0.5,0.4
2026-02-26T2200,3008A,119.3607,34.7519,连云港市,胡沟管理处,,27,27,28,12,12,86,,89,88,7,13,10,11,0.6,0.5
2026-02-26T2200,3009A,119.1478,34.5913,连云港市,矿山设计院,,26,7,23,3,7,82,,80,77,12,14,6,6,0.4,0.4
2026-02-26T2200,3434A,119.2414,34.6539,连云港市,工贸学校,,26,18,32,9,11,82,,83,77,8,8,9,9,0.5,0.5
2026-02-26T2200,3664A,119.4171,34.734,连云港市,连云街道,颗粒物(PM10),51,51,45,14,15,91,,91,87,11,14,6,6,0.5,0.5
2026-02-26T2200,2573A,102.2629,27.8981,凉山彝族自治州,西昌市政府,细颗粒物(PM2.5),100,,38,75,55,100,,115,111,7,7,13,12,0.7,0.7
2026-02-26T2200,2574A,102.2686,27.885,凉山彝族自治州,凉山州政府,,50,39,42,35,33,85,,106,102,10,9,11,11,0.5,0.5
2026-02-26T2200,4229A,102.2342,27.8859,凉山彝族自治州,凯乐南路30号,,45,44,45,31,31,101,,110,109,17,15,31,18,0.9,0.7
2026-02-26T2200,2212A,123.1978,41.2036,辽阳市,宏伟区,细颗粒物(PM2.5),60,62,89,43,42,50,,66,54,18,16,9,8,0.6,0.6
2026-02-26T2200,2213A,123.1684,41.2497,辽阳市,新华园,细颗粒物(PM2.5),79,89,94,58,47,33,,61,45,37,24,11,9,0.9,0.8
2026-02-26T2200,2214A,123.2355,41.2663,辽阳市,滨河路,细颗粒物(PM2.5),63,63,91,45,44,42,,60,46,25,21,8,9,0.7,0.7
2026-02-26T2200,4083A,123.153,41.2874,辽阳市,铁西路150号,细颗粒物(PM2.5),113,102,92,85,46,,,57,51,39,22,10,9,1.1,0.8
2026-02-26T2200,2227A,125.1359,42.8845,辽源市,环保局,颗粒物(PM10),51,52,72,32,32,73,,77,76,8,10,5,7,0.8,0.8
2026-02-26T2200,4085A,125.0998,42.9134,辽源市,安宁大街333号,细颗粒物(PM2.5),53,48,86,37,37,68,,75,74,7,8,3,3,0.6,0.6
2026-02-26T2200,1625A,115.9789,36.4372,聊城市,区政府,细颗粒物(PM2.5),107,162,94,80,53,34,,66,52,19,15,10,12,0.8,0.8
2026-02-26T2200,3200A,115.9772,36.4986,聊城市,监控中心,颗粒物(PM10),107,163,97,76,56,34,,66,50,17,17,8,9,0.6,0.6
2026-02-26T2200,3513A,116.0443,36.436,聊城市,九州社区,细颗粒物(PM2.5),110,154,99,83,57,34,,70,50,11,15,1,2,1.2,0.8
2026-02-26T2200,4018A,116.0564,36.4609,聊城市,星美广场,颗粒物(PM10),104,157,105,77,59,34,,64,47,16,16,2,4,0.7,0.8
2026-02-26T2200,4113A,116.0091,36.4495,聊城市,利民路,细颗粒物(PM2.5),102,148,93,76,56,37,,70,54,20,17,7,7,0.8,0.8
2026-02-26T2200,2632A,94.3683,29.6373,林芝市,林芝监测站,,34,19,15,11,12,108,,112,111,2,2,4,4,0.3,0.4
2026-02-26T2200,2633A,94.3616,29.6634,林芝市,林芝人民医院,,35,23,18,16,14,109,,116,114,1,2,7,7,0.2,0.3
2026-02-26T2200,2603A,100.0779,23.8981,临沧市,市环保局,细颗粒物(PM2.5),62,53,50,44,48,45,,72,70,14,8,6,6,1.2,1
2026-02-26T2200,2604A,100.0894,23.882,临沧市,市气象局,细颗粒物(PM2.5),72,64,55,52,48,56,,78,77,11,9,7,8,1.0,0.9
2026-02-26T2200,1733A,111.5552,36.0791,临汾市,临钢医院,细颗粒物(PM2.5),63,66,91,45,65,22,,43,34,25,20,15,10,1.2,1.5
2026-02-26T2200,1734A,111.4984,36.0734,临汾市,技工学校,细颗粒物(PM2.5),65,58,88,47,74,17,,41,32,24,19,17,10,1.1,1.2
2026-02-26T2200,1736A,111.5017,36.0857,临汾市,市委,细颗粒物(PM2.5),64,74,98,46,61,15,,43,34,29,19,16,9,1.5,1.5
2026-02-26T2200,3018A,111.5048,36.1015,临汾市,唐尧大酒店,细颗粒物(PM2.5),73,79,97,53,64,18,,44,36,33,21,18,10,1.2,1.4
2026-02-26T2200,4244A,111.4879,36.053,临汾市,启星学校,细颗粒物(PM2.5),52,50,85,36,66,14,,38,28,32,24,13,11,1.2,1.4
2026-02-26T2200,4271A,103.2464,35.6123,临夏回族自治州,滨河东路1号,颗粒物(PM10),164,278,184,77,81,72,,81,72,11,22,17,11,0.6,1
2026-02-26T2200,4310A,103.207136,35.599807,临夏回族自治州,新华街21号,颗粒物(PM10),193,335,184,68,76,78,,85,75,9,18,24,12,0.4,1
2026-02-26T2200,1618A,118.3429,35.0532,临沂市,沂河小区,颗粒物(PM10),63,75,54,36,27,53,,69,61,18,12,8,8,0.4,0.4
2026-02-26T2200,1619A,118.2962,35.0568,临沂市,鲁南制药厂,颗粒物(PM10),58,66,48,36,26,55,,67,60,21,17,10,10,0.5,0.5
2026-02-26T2200,1620A,118.2793,34.9976,临沂市,新光毛纺厂,细颗粒物(PM2.5),53,51,43,37,32,55,,70,61,16,14,8,8,0.6,0.6
2026-02-26T2200,1621A,118.3955,35.0889,临沂市,河东保险公司,颗粒物(PM10),60,70,54,38,28,50,,72,63,25,18,8,7,0.4,0.5
2026-02-26T2200,3370A,118.3563,35.0215,临沂市,十里堡居委,颗粒物(PM10),58,66,48,38,25,55,,74,65,21,17,7,7,0.7,0.7
2026-02-26T2200,3496A,118.359,35.1067,临沂市,南坊新区,颗粒物(PM10),62,73,50,33,26,55,,75,66,21,15,8,8,0.6,0.6
2026-02-26T2200,3860A,118.3915,35.0297,临沂市,皇山花园小区,颗粒物(PM10),58,66,46,38,28,50,,76,66,27,20,11,11,0.7,0.7
2026-02-26T2200,1870A,109.4854,24.3898,柳州市,柳东小学,,17,17,49,8,40,45,,36,36,11,19,3,4,0.6,0.8
2026-02-26T2200,1871A,109.4109,24.3304,柳州市,环保监测站,,36,36,57,14,53,28,,36,35,31,27,3,4,0.8,1.1
2026-02-26T2200,1872A,109.3886,24.3408,柳州市,河西水厂,,29,22,59,20,50,33,,42,41,23,22,8,8,0.7,0.8
2026-02-26T2200,1873A,109.4263,24.2951,柳州市,市四中,,25,22,69,17,58,33,,36,36,25,25,5,6,0.5,0.9
2026-02-26T2200,1874A,109.396,24.3658,柳州市,市九中,,20,18,56,14,46,34,,34,34,19,19,7,7,0.6,0.8
2026-02-26T2200,1875A,109.4912,24.3164,柳州市,古亭山,,22,22,55,15,56,14,,35,34,23,22,6,6,0.7,0.9
2026-02-26T2200,3402A,109.5422,24.3994,柳州市,市二中,,14,14,47,8,38,38,,35,35,16,21,5,5,0.4,0.5
2026-02-26T2200,2307A,116.5078,31.7369,六安市,监测大楼,,15,,25,8,20,48,,38,38,12,15,3,3,0.3,0.4
2026-02-26T2200,2308A,116.4738,31.7642,六安市,皖西学院,,16,9,25,7,23,50,,40,39,10,13,4,4,0.3,0.4
2026-02-26T2200,2309A,116.4997,31.7904,六安市,朝阳厂,,17,8,24,6,23,52,,41,41,12,15,4,4,0.4,0.5
2026-02-26T2200,2310A,116.5566,31.7885,六安市,开发区,,17,,21,6,22,52,,40,39,8,12,4,4,0.3,0.4
2026-02-26T2200,2577A,104.8293,26.592,六盘水市,黄土坡,细颗粒物(PM2.5),54,54,38,38,29,71,,116,108,23,13,11,9,0.8,0.6
2026-02-26T2200,2579A,104.8481,26.5898,六盘水市,民中,细颗粒物(PM2.5),53,50,40,37,29,78,,115,108,27,12,11,5,0.9,0.5
2026-02-26T2200,2580A,104.9541,26.5506,六盘水市,双水,,41,41,41,22,26,93,,117,114,15,11,5,5,0.5,0.5
2026-02-26T2200,4151A,104.8899,26.5685,六盘水市,钟山大道中段564号,颗粒物(PM10),57,64,50,29,28,85,,114,110,15,12,12,10,0.6,0.6
2026-02-26T2200,2336A,117.022,25.1031,龙岩市,龙岩市监测站,,19,16,14,13,11,12,,43,24,16,7,4,4,0.8,0.6
2026-02-26T2200,2337A,117.0257,25.0662,龙岩市,闽西职业技术学院,,10,8,13,7,11,14,,39,22,13,7,4,4,0.8,0.7
2026-02-26T2200,2338A,117.0195,25.0306,龙岩市,龙岩学院,,10,10,18,7,14,20,,38,25,9,8,2,2,/,/
2026-02-26T2200,2885A,104.9344,33.3827,陇南市,滨江中学,颗粒物(PM10),81,111,104,46,41,41,,71,66,26,14,7,7,1.0,0.8
2026-02-26T2200,3247A,104.9551,33.3709,陇南市,市总工会,颗粒物(PM10),77,104,92,41,37,48,,73,69,19,12,6,5,1.1,0.8
2026-02-26T2200,2488A,111.9984,27.7346,娄底市,市监测站,,11,10,31,6,22,28,,35,35,21,17,13,6,0.6,0.6
2026-02-26T2200,2491A,111.9888,27.7035,娄底市,市政府,,10,6,26,3,19,31,,33,33,10,11,4,3,0.4,0.5
2026-02-26T2200,4127A,111.9812,27.7591,娄底市,涟钢职大,,10,7,29,3,20,30,,39,34,10,11,3,2,0.5,0.6
2026-02-26T2200,4128A,112.0303,27.7457,娄底市,娄底体校,,,16,36,3,23,,,31,31,3,5,2,2,0.7,0.3
2026-02-26T2200,1894A,105.4427,28.9063,泸州市,小市上码头,细颗粒物(PM2.5),57,43,33,40,28,81,,97,96,14,12,6,6,0.7,0.6
2026-02-26T2200,1895A,105.4241,28.8573,泸州市,兰田宪桥,颗粒物(PM10),55,59,45,38,26,76,,100,97,15,9,5,6,0.7,0.7
2026-02-26T2200,1896A,105.4378,28.8833,泸州市,市环监站,,46,46,37,29,26,77,,97,94,14,13,8,8,0.4,0.4
2026-02-26T2200,4272A,105.3689,28.7783,泸州市,纳溪中医医院,颗粒物(PM10),55,59,49,32,29,46,,100,90,26,13,7,7,0.8,0.6
2026-02-26T2200,2183A,111.1447,37.5212,吕梁市,环保局,细颗粒物(PM2.5),113,130,106,85,62,25,,80,66,46,29,5,7,0.6,0.5
2026-02-26T2200,2185A,111.1285,37.5338,吕梁市,自来水公司,细颗粒物(PM2.5),95,112,106,71,55,39,,85,72,34,25,4,6,0.8,0.6
2026-02-26T2200,2867A,111.1225,37.5093,吕梁市,马茂庄小学,细颗粒物(PM2.5),97,113,119,72,58,29,,79,64,46,26,5,7,0.9,0.7
2026-02-26T2200,1812A,112.3934,34.6517,洛阳市,市委党校,,46,37,37,32,34,37,,39,39,24,19,6,6,0.7,0.7
2026-02-26T2200,1815A,112.494,34.6883,洛阳市,河南林校,,43,43,40,29,33,38,,36,36,22,19,9,13,0.6,0.5
2026-02-26T2200,1816A,112.3843,34.623,洛阳市,开发区管委会,,45,45,47,28,32,46,,45,45,18,17,8,8,0.6,0.5
2026-02-26T2200,1817A,112.4263,34.6249,洛阳市,市委新办公区,,45,45,44,26,37,35,,39,39,24,20,7,7,0.6,0.6
2026-02-26T2200,3340A,112.6005,34.6323,洛阳市,伊滨,,50,44,39,35,32,41,,45,45,20,18,8,8,0.6,0.6
2026-02-26T2200,3341A,112.495,34.6338,洛阳市,中移产业园,细颗粒物(PM2.5),58,,36,41,35,35,,40,40,23,18,8,7,0.7,0.7
2026-02-26T2200,3593A,112.5736,34.8993,洛阳市,吉利监测站,,48,46,38,33,33,39,,37,37,20,18,7,8,0.7,0.6
2026-02-26T2200,3635A,112.3678,34.6623,洛阳市,河科大西苑校区,,38,37,37,26,34,40,,43,43,29,23,6,7,0.7,0.7
2026-02-26T2200,3636A,112.4387,34.678,洛阳市,英才小学,细颗粒物(PM2.5),53,41,43,37,33,31,,37,36,28,21,8,8,0.6,0.7
2026-02-26T2200,4214A,112.460027,34.694929,洛阳市,春都路1号院,,43,37,38,30,31,39,,37,37,22,20,7,7,0.6,0.6
2026-02-26T2200,2399A,114.051,33.5721,漯河市,三五一五工厂,细颗粒物(PM2.5),70,55,34,51,28,48,,59,57,17,15,4,4,0.7,0.6
2026-02-26T2200,2400A,114.0055,33.5698,漯河市,漯河大学,细颗粒物(PM2.5),72,59,29,52,32,50,,58,57,14,14,4,5,0.5,0.5
2026-02-26T2200,2401A,114.0134,33.5826,漯河市,市水利局,细颗粒物(PM2.5),74,63,29,54,29,48,,57,56,16,14,4,4,0.6,0.5
2026-02-26T2200,2402A,114.0261,33.5697,漯河市,市广电局,细颗粒物(PM2.5),68,66,26,49,27,45,,54,53,13,11,5,5,0.6,0.5
2026-02-26T2200,3478A,113.9691,33.568,漯河市,市图书馆,细颗粒物(PM2.5),59,58,33,42,26,44,,54,53,14,12,5,5,0.6,0.6
2026-02-26T2200,4250A,114.089259,33.588274,漯河市,韶山路11号,细颗粒物(PM2.5),70,54,34,51,28,43,,56,54,18,16,6,6,0.8,0.7
2026-02-26T2200,1798A,118.5084,31.6838,马鞍山市,湖东路四小,,19,13,24,13,21,44,,50,31,16,20,5,5,0.4,0.5
2026-02-26T2200,1799A,118.5019,31.6449,马鞍山市,开发区,,28,23,26,19,21,36,,55,28,27,22,7,5,1.0,0.6
2026-02-26T2200,3633A,118.4914,31.681,马鞍山市,雨山,,19,16,27,13,18,36,,52,24,26,22,8,4,1.2,0.7
2026-02-26T2200,4191A,118.527362,31.722269,马鞍山市,慈湖高新区,,18,18,28,10,19,49,,54,36,15,18,5,4,0.4,0.3
2026-02-26T2200,1686A,111.0285,21.469,茂名市,电白南海,,,36,40,16,17,62,,68,66,,9,5,5,0.7,0.8
2026-02-26T2200,1687A,110.9294,21.6533,茂名市,茂石化七小,,48,48,44,18,19,48,,60,55,14,12,6,5,0.4,0.4
2026-02-26T2200,1688A,110.9108,21.6688,茂名市,健康路,,34,34,35,16,17,54,,68,62,12,11,4,4,0.6,0.5
2026-02-26T2200,1689A,110.8592,21.6826,茂名市,高岭,颗粒物(PM10),51,51,69,18,19,39,,60,49,22,16,2,2,/,/
2026-02-26T2200,3450A,111.0101,21.5165,茂名市,电白水东,,31,31,31,16,16,65,,66,65,18,17,3,3,/,/
2026-02-26T2200,2540A,103.8414,30.0871,眉山市,气象局,颗粒物(PM10),54,57,61,22,26,87,,113,109,8,13,5,6,0.3,0.3
2026-02-26T2200,3148A,103.829,30.0563,眉山市,区人社局,颗粒物(PM10),51,51,59,14,26,79,,103,99,12,18,7,8,1.2,1
2026-02-26T2200,4148A,103.8836,30.0695,眉山市,眉职院,,41,41,57,15,27,82,,109,103,9,13,5,6,0.5,0.6
2026-02-26T2200,1690A,116.1248,24.3307,梅州市,梅江月梅,,39,39,39,25,27,27,,55,48,18,12,/,/,/,/
2026-02-26T2200,1691A,116.0798,24.2719,梅州市,梅县新城,,45,45,38,28,27,33,,58,51,20,16,8,8,0.7,0.6
2026-02-26T2200,3315A,116.1234,24.2994,梅州市,梅龙,,38,29,27,26,26,40,,56,50,11,10,5,5,0.7,0.7
2026-02-26T2200,1878A,104.7775,31.4741,绵阳市,富乐山,颗粒物(PM10),53,55,40,28,22,72,,99,95,14,8,9,9,0.5,0.5
2026-02-26T2200,1880A,104.6698,31.4668,绵阳市,高新区自来水公司,颗粒物(PM10),65,79,48,44,24,40,,92,85,40,19,10,9,0.7,0.5
2026-02-26T2200,3491A,104.6899,31.5324,绵阳市,西科大附属小学,颗粒物(PM10),71,91,52,50,26,30,,99,88,49,23,9,8,0.6,0.5
2026-02-26T2200,3492A,104.5647,31.5343,绵阳市,安州区旅游局,细颗粒物(PM2.5),68,81,51,49,28,39,,90,80,41,20,3,4,0.8,0.6
2026-02-26T2200,4146A,104.7092,31.4972,绵阳市,科技城新区公安局,颗粒物(PM10),55,60,46,36,22,69,,100,96,23,17,7,6,0.8,0.8
2026-02-26T2200,4226A,104.765114,31.453094,绵阳市,绵阳市气象局,颗粒物(PM10),58,65,45,32,22,52,,88,82,32,16,9,8,1.0,0.9
2026-02-26T2200,1784A,129.61,44.561,牡丹江市,环保大楼,,46,46,64,18,28,71,,67,67,8,12,2,4,0.3,0.4
2026-02-26T2200,1787A,129.6364,44.6075,牡丹江市,机车工厂,,50,50,63,23,22,52,,68,67,19,15,7,8,0.4,0.4
2026-02-26T2200,1788A,129.6386,44.5462,牡丹江市,第一中学,,37,37,59,22,27,68,,69,67,12,13,5,6,0.4,0.5
2026-02-26T2200,4287A,129.5992,44.5964,牡丹江市,东晓云街98号,,44,44,57,24,23,72,,76,76,9,12,6,7,0.5,0.5
2026-02-26T2200,2531A,105.0703,29.61,内江市,市监测站,,46,,34,32,25,73,,86,84,10,12,7,7,0.4,0.5
2026-02-26T2200,2533A,105.0657,29.5807,内江市,内江二中,,48,48,41,31,23,74,,92,88,12,17,7,7,0.5,0.5
2026-02-26T2200,2534A,105.0407,29.5828,内江市,内江日报社,,46,,34,32,24,81,,96,93,13,16,9,8,0.4,0.4
2026-02-26T2200,4147A,105.0433,29.6105,内江市,玉峰路西段888号,,43,40,33,30,23,83,,96,93,14,13,9,9,0.4,0.4
2026-02-26T2200,2628A,92.0653,31.4846,那曲市,那曲监测站,细颗粒物(PM2.5),54,54,21,38,22,49,,87,82,36,13,13,9,1.0,0.8
2026-02-26T2200,4243A,92.0515,31.4787,那曲市,那曲市委宣传部,,41,41,15,20,12,59,,102,96,29,6,12,4,1.1,0.5
2026-02-26T2200,1291A,115.8887,28.7006,南昌市,省林业公司,,9,,15,3,13,28,,19,19,9,21,3,3,0.8,0.9
2026-02-26T2200,1292A,115.813,28.7443,南昌市,林科所,,,,16,2,11,17,,17,16,16,23,7,7,1.0,1
2026-02-26T2200,1294A,115.8518,28.687,南昌市,建工学校,,21,21,28,3,16,21,,16,16,17,23,6,6,0.3,0.3
2026-02-26T2200,1295A,115.8926,28.6425,南昌市,象湖,,,,21,4,15,25,,18,18,15,23,7,7,1.0,1
2026-02-26T2200,3046A,115.9084,28.6062,南昌市,机电学校,,10,10,26,3,16,25,,20,20,13,20,4,4,0.6,0.7
2026-02-26T2200,3690A,115.9718,28.7032,南昌市,外国语学校,,10,9,18,6,16,30,,22,19,14,16,7,7,0.8,0.7
2026-02-26T2200,4106A,115.7923,28.6873,南昌市,工业二路,,15,15,29,3,20,32,,25,25,24,26,4,4,0.9,0.8
2026-02-26T2200,4192A,115.931587,28.686774,南昌市,南京东路235号,,18,18,26,3,16,29,,20,20,15,17,5,4,0.6,0.5
2026-02-26T2200,1906A,106.0791,30.8022,南充市,南充市委,,49,49,34,34,24,42,,80,72,37,18,6,6,0.5,0.6
2026-02-26T2200,1907A,106.1038,30.8215,南充市,南充炼油厂,颗粒物(PM10),54,57,43,36,24,50,,77,71,24,16,6,5,0.6,0.6
2026-02-26T2200,4227A,106.108336,30.788436,南充市,梨树横街98号,细颗粒物(PM2.5),58,63,39,41,26,45,,84,76,32,16,6,6,0.6,0.4
2026-02-26T2200,4304A,106.1172,30.843,南充市,清泉寺北路188号,颗粒物(PM10),52,53,34,33,22,69,,89,86,12,10,6,5,0.5,0.5
2026-02-26T2200,4305A,106.067,30.7616,南充市,同庆路1号,细颗粒物(PM2.5),53,46,37,37,24,54,,85,79,28,17,7,6,0.5,0.4
2026-02-26T2200,1151A,118.8033,32.1085,南京市,迈皋桥,,32,28,27,22,17,62,,63,60,19,25,3,3,0.4,0.4
2026-02-26T2200,1152A,118.7487,32.057,南京市,草场门,,20,,23,12,16,62,,59,49,16,24,5,6,0.3,0.4
2026-02-26T2200,1154A,118.770105,32.004342,南京市,中华门,,16,7,20,3,15,51,,54,38,11,12,4,4,0.4,0.4
2026-02-26T2200,1155A,118.8059,32.0329,南京市,瑞金路,,16,14,22,11,17,49,,58,45,26,25,4,4,0.6,0.4
2026-02-26T2200,1156A,118.7946,32.0774,南京市,玄武湖,,,,28,,15,47,,54,41,,31,6,6,0.4,0.6
2026-02-26T2200,1157A,118.6415,32.0964,南京市,浦口,,17,14,30,3,18,52,,45,45,12,17,4,4,0.3,0.4
2026-02-26T2200,1158A,118.730129,32.000956,南京市,奥体中心,,18,11,25,3,15,56,,50,44,16,22,7,7,0.2,0.3
2026-02-26T2200,1159A,118.9072,32.1047,南京市,仙林大学城,,22,22,29,6,17,39,,59,43,26,20,6,6,0.5,0.6
2026-02-26T2200,3422A,118.8443,31.919,南京市,江宁彩虹桥,,19,17,24,13,13,46,,66,43,20,17,4,4,0.6,0.4
2026-02-26T2200,3427A,118.8497,32.3599,南京市,六合雄州,,14,11,39,3,23,44,,49,49,19,19,4,4,0.7,0.7
2026-02-26T2200,4086A,118.7641,32.0841,南京市,新模范马路66号,,22,9,27,3,17,69,,71,59,18,20,3,4,0.5,0.6
2026-02-26T2200,4249A,118.8707617,31.34017673,南京市,汶溪路181号,,,16,18,,0,28,,54,33,21,18,6,6,0.9,0.7
2026-02-26T2200,4312A,119.019,31.6512,南京市,中山西路1号,,12,9,17,3,12,36,,58,33,14,13,4,4,0.7,0.7
2026-02-26T2200,1401A,108.3098,22.788,南宁市,二十一中,,23,19,46,16,38,32,,32,29,15,20,4,4,0.6,0.7
2026-02-26T2200,1402A,108.3135,22.8529,南宁市,北湖,,40,40,58,27,49,2,,37,27,39,25,1,1,0.8,0.8
2026-02-26T2200,1403A,108.3205,22.8222,南宁市,市监测站,,23,22,48,16,35,30,,39,33,17,21,4,5,0.6,0.8
2026-02-26T2200,1404A,108.3828,22.8038,南宁市,大自然花园,,28,24,47,19,39,41,,44,39,7,12,5,5,0.8,0.8
2026-02-26T2200,1406A,108.2397,22.8462,南宁市,区农职院,,32,29,55,22,36,9,,30,22,32,27,3,4,0.5,0.6
2026-02-26T2200,1407A,108.3285,22.7356,南宁市,英华嘉园,,26,26,54,14,38,29,,32,26,16,18,2,3,0.5,0.6
2026-02-26T2200,3401A,108.4829,22.762,南宁市,红星社区,,36,27,57,25,43,36,,43,38,11,16,4,4,0.7,0.7
2026-02-26T2200,4132A,108.2927,23.1477,南宁市,起凤路9号,,30,25,40,21,33,33,,50,48,15,13,2,2,0.6,0.7
2026-02-26T2200,4221A,108.2177,22.7774,南宁市,乐贤路16号,,25,25,42,13,30,16,,29,20,29,23,1,1,0.5,0.6
2026-02-26T2200,2332A,118.1682,26.6371,南平市,南平市监测站,,10,10,10,7,6,26,,43,38,10,8,3,4,0.4,0.4
2026-02-26T2200,2334A,118.1757,26.6276,南平市,南平七中,,10,6,9,3,5,30,,41,36,7,6,2,2,0.5,0.5
2026-02-26T2200,1168A,120.9056,31.9669,南通市,狼山街道,,21,8,20,3,13,66,,70,56,12,15,3,3,0.5,0.5
2026-02-26T2200,1170A,120.8635,32.0231,南通市,城中,,20,18,27,7,12,63,,73,60,13,14,4,4,0.8,0.5
2026-02-26T2200,1171A,120.9376,31.9301,南通市,星湖花园,,20,7,19,3,12,63,,69,53,12,15,3,3,0.3,0.3
2026-02-26T2200,1172A,120.8053,32.046,南通市,紫琅学院,,21,8,21,7,12,65,,71,55,14,16,3,4,0.6,0.5
2026-02-26T2200,3291A,121.0631,32.0644,南通市,通州监测站,,23,17,21,11,12,71,,74,70,15,15,5,3,1.1,0.6
2026-02-26T2200,3432A,120.9348,31.9874,南通市,环境教育馆,,21,7,20,3,11,67,,67,56,8,15,3,3,0.3,0.3
2026-02-26T2200,4091A,120.8692,31.9885,南通市,洪江路,,19,8,20,6,14,60,,68,53,16,16,3,4,0.6,0.5
2026-02-26T2200,2404A,112.5338,33.0086,南阳市,瓦房庄,,39,37,30,27,14,47,,47,43,10,9,4,4,0.6,0.6
2026-02-26T2200,2405A,112.5002,32.9734,南阳市,汉画馆,,46,38,32,32,25,50,,45,45,10,10,4,4,0.6,0.6
2026-02-26T2200,2406A,112.5778,33.0144,南阳市,气象站,,34,34,30,16,17,50,,47,47,14,13,4,4,0.5,0.6
2026-02-26T2200,2407A,112.548,32.9687,南阳市,理工学院,,37,37,30,22,18,46,,47,45,12,10,4,4,0.6,0.6
2026-02-26T2200,4008A,112.5233,32.9921,南阳市,卧龙区政府,,34,34,26,22,18,48,,46,43,10,10,5,5,0.5,0.6
2026-02-26T2200,1234A,121.8352,29.9111,宁波市,区环保大楼,,20,12,24,3,9,62,,77,72,18,14,5,5,0.3,0.3
2026-02-26T2200,1235A,121.5595,29.8208,宁波市,万里学院,,19,14,25,3,11,60,,70,67,17,14,3,3,0.4,0.4
2026-02-26T2200,1236A,121.713,29.9564,宁波市,龙赛医院,,18,18,24,11,12,47,,71,64,22,13,4,4,0.4,0.3
2026-02-26T2200,1240A,121.5855,29.8635,宁波市,太古小学,,19,11,24,3,10,60,,71,67,18,12,2,2,0.5,0.5
2026-02-26T2200,1241A,121.5239,29.8673,宁波市,市环境监测中心,,22,22,29,12,12,44,,62,56,24,16,3,3,0.6,0.4
2026-02-26T2200,2871A,121.6156,29.9015,宁波市,万里国际学校,,20,14,23,6,10,62,,75,70,16,12,3,3,0.6,0.5
2026-02-26T2200,3710A,121.5593,29.8976,宁波市,白沙活动中心,,17,17,24,8,11,53,,71,65,16,11,4,4,0.6,0.5
2026-02-26T2200,4095A,121.8962,29.7529,宁波市,中科路88号,,24,9,23,3,11,75,,80,80,10,10,5,5,0.4,0.4
2026-02-26T2200,2341A,119.5387,26.6611,宁德市,宁德市监测站,,28,20,17,19,14,10,,68,31,43,22,4,3,0.7,0.4
2026-02-26T2200,3209A,119.5231,26.6562,宁德市,宁德一中,,30,23,17,21,16,21,,72,38,25,15,4,4,0.6,0.3
2026-02-26T2200,2618A,98.859,25.8541,怒江傈僳族自治州,州监测站,,,,36,,29,,,120,109,,8,,6,,0.4
2026-02-26T2200,2619A,98.8607,25.8168,怒江傈僳族自治州,泸水一中,细颗粒物(PM2.5),63,,33,45,32,53,,101,92,26,11,5,5,0.7,0.5
2026-02-26T2200,1888A,101.6891,26.571,攀枝花市,弄弄坪,颗粒物(PM10),51,52,54,29,39,93,,115,109,14,17,9,12,0.7,0.7
2026-02-26T2200,1889A,101.577,26.5914,攀枝花市,河门口,,48,45,61,33,51,89,,107,100,11,13,27,19,1.0,0.8
2026-02-26T2200,1891A,101.7365,26.4986,攀枝花市,仁和,,40,37,48,28,43,95,,109,104,6,8,6,8,0.7,0.8
2026-02-26T2200,2835A,101.7222,26.567,攀枝花市,四十中小,,45,45,55,28,42,85,,111,104,18,19,12,15,0.8,0.9
2026-02-26T2200,1604A,122.0303,41.1489,盘锦市,开发区,颗粒物(PM10),51,51,67,25,24,68,,72,71,8,10,3,4,0.4,0.4
2026-02-26T2200,1605A,122.0486,41.0883,盘锦市,兴隆台,,45,45,67,28,27,69,,72,72,12,15,5,5,0.5,0.5
2026-02-26T2200,1606A,121.8297,41.1026,盘锦市,新生街道,颗粒物(PM10),51,51,63,28,28,58,,68,62,12,14,7,7,0.4,0.4
2026-02-26T2200,1832A,113.3257,33.7423,平顶山市,新华旅馆,细颗粒物(PM2.5),59,61,40,42,25,46,,45,45,13,12,5,6,0.6,0.5
2026-02-26T2200,1833A,113.2917,33.737,平顶山市,规划设计院,,,60,33,49,26,47,,46,46,12,12,5,5,,0.9
2026-02-26T2200,1834A,113.182,33.7738,平顶山市,平顶山工学院,细颗粒物(PM2.5),57,50,31,40,27,49,,48,48,12,12,3,2,0.4,0.4
2026-02-26T2200,3594A,112.8736,33.9068,平顶山市,石龙区,细颗粒物(PM2.5),52,45,36,36,30,48,,42,42,8,9,5,5,0.6,0.6
2026-02-26T2200,4116A,113.284,33.7139,平顶山市,姚电大道23号,细颗粒物(PM2.5),65,77,38,47,27,50,,50,50,16,13,4,5,0.6,0.5
2026-02-26T2200,2656A,106.6633,35.5338,平凉市,聚贤嘉苑,颗粒物(PM10),97,143,137,59,44,69,,87,85,25,14,9,7,0.6,0.6
2026-02-26T2200,2657A,106.7021,35.5307,平凉市,博物馆,颗粒物(PM10),100,149,126,68,46,65,,91,87,26,14,11,10,0.6,0.6
2026-02-26T2200,2348A,113.8384,27.6436,萍乡市,中医院,,19,,25,13,16,12,,32,8,18,13,4,3,0.7,0.6
2026-02-26T2200,2350A,113.8677,27.6438,萍乡市,市环保局,,18,15,22,12,18,21,,37,16,15,12,7,8,0.6,0.6
2026-02-26T2200,2351A,113.8663,27.6202,萍乡市,安源区政府,,,13,24,7,17,15,,19,12,,14,,4,0.6,0.6
2026-02-26T2200,4107A,113.8686,27.6668,萍乡市,联洪村委会,,,,24,12,14,8,,32,,19,9,1,2,0.8,0.5
2026-02-26T2200,2319A,119.0142,25.4324,莆田市,荔城区仓后路,细颗粒物(PM2.5),77,,36,56,26,22,,58,42,26,16,/,/,/,/
2026-02-26T2200,2320A,119.0016,25.4553,莆田市,莆田市监测站,,46,,25,32,19,28,,58,43,11,10,2,2,0.6,0.5
2026-02-26T2200,2321A,119.112,25.4561,莆田市,涵江区六中,,,,26,,18,6,,55,41,46,16,/,/,1.1,0.5
2026-02-26T2200,2322A,119.1014,25.3215,莆田市,秀屿区政府,细颗粒物(PM2.5),118,,34,89,28,26,,72,49,23,12,3,4,0.8,0.5
2026-02-26T2200,2392A,115.0312,35.7636,濮阳市,环保局,细颗粒物(PM2.5),83,73,58,61,39,41,,51,47,21,18,6,6,0.9,0.8
2026-02-26T2200,3021A,115,35.7667,濮阳市,濮水河管理处,细颗粒物(PM2.5),72,83,61,52,39,38,,53,47,14,10,6,6,0.7,0.6
2026-02-26T2200,4118A,115.0552,35.7816,濮阳市,中原东路68号,颗粒物(PM10),71,91,67,49,37,42,,53,49,23,18,4,4,0.9,0.8
2026-02-26T2200,4216A,115.0923632,35.76857718,濮阳市,任丘路479号,颗粒物(PM10),76,102,71,55,39,45,,53,50,18,15,4,5,0.9,0.8
2026-02-26T2200,2601A,100.9801,22.7634,普洱市,市环保局,颗粒物(PM10),54,58,34,28,14,42,,84,77,8,6,5,5,0.8,0.7
2026-02-26T2200,2602A,100.9763,22.8237,普洱市,普洱第二中学,,44,44,31,24,16,46,,79,72,11,9,6,6,0.7,0.6
2026-02-26T2200,3345A,131.0413,45.7795,七台河市,中波台,,42,42,67,20,27,72,,86,79,6,6,5,6,0.2,0.3
2026-02-26T2200,3637A,131.0136,45.7688,七台河市,人民广场,颗粒物(PM10),66,81,75,46,34,58,,81,71,26,15,13,9,0.6,0.5
2026-02-26T2200,3684A,130.8639,45.8144,七台河市,新建矿广场,细颗粒物(PM2.5),152,124,150,116,86,29,,69,41,17,22,7,8,0.5,0.6
2026-02-26T2200,1779A,123.9307,47.3641,齐齐哈尔市,安居小区,,28,28,23,18,7,60,,74,66,13,7,2,2,0.4,0.2
2026-02-26T2200,1780A,123.9497,47.3389,齐齐哈尔市,中心广场,,32,29,21,22,8,58,,68,62,11,8,6,7,0.3,0.5
2026-02-26T2200,1781A,123.9483,47.3229,齐齐哈尔市,农牧车辆厂,,31,31,24,19,7,58,,75,67,12,6,6,6,0.3,0.3
2026-02-26T2200,1783A,123.9442,47.2994,齐齐哈尔市,市环境监测站,,19,15,25,7,6,58,,72,65,13,7,5,3,0.3,0.2
2026-02-26T2200,3662A,123.6341,47.2079,齐齐哈尔市,富区青少年活动中心,,21,21,32,14,10,63,,73,68,5,7,3,4,0.4,0.4
2026-02-26T2200,2591A,107.9765,26.5724,黔东南苗族侗族自治州,市环境监测站,,29,25,33,20,23,35,,33,33,4,9,2,4,0.6,0.7
2026-02-26T2200,2881A,107.8909,26.531,黔东南苗族侗族自治州,凯里学院,,30,,19,21,17,38,,37,37,9,9,3,3,0.4,0.6
2026-02-26T2200,2593A,107.5223,26.2371,黔南布依族苗族自治州,小围寨,,29,,19,20,19,42,,53,48,4,5,5,5,0.4,0.5
2026-02-26T2200,3538A,107.5175,26.2977,黔南布依族苗族自治州,沙坝,,19,19,19,11,15,46,,38,,4,5,3,4,1.1,0.8
2026-02-26T2200,2589A,104.9022,25.0943,黔西南布依族苗族自治州,场坝街,细颗粒物(PM2.5),57,55,25,40,19,95,,112,108,10,6,8,6,0.6,0.5
2026-02-26T2200,2590A,104.8812,25.0994,黔西南布依族苗族自治州,坪东大道,细颗粒物(PM2.5),62,55,24,44,20,85,,115,110,16,6,5,6,0.7,0.5
2026-02-26T2200,2502A,108.6238,21.9667,钦州市,市环保站,"颗粒物(PM10),细颗粒物(PM2.5)",53,56,45,37,22,32,,50,48,23,14,6,4,0.5,0.5
2026-02-26T2200,2503A,108.655,21.9481,钦州市,沙埠小学,,36,36,48,13,20,34,,52,49,21,15,5,5,0.5,0.5
2026-02-26T2200,2504A,108.5989,21.7435,钦州市,港区一小,,46,46,48,24,22,40,,55,53,23,15,3,3,0.7,0.7
2026-02-26T2200,3404A,108.5959,21.9634,钦州市,北职校,,46,46,44,18,17,44,,49,49,16,16,5,5,0.6,0.6
2026-02-26T2200,1046A,119.5247,39.9346,秦皇岛市,建设大厦,颗粒物(PM10),51,51,80,22,37,36,,67,63,29,18,8,5,0.4,0.5
2026-02-26T2200,3132A,119.5979,39.938,秦皇岛市,文明里,颗粒物(PM10),54,57,75,20,32,27,,70,61,43,17,12,8,0.4,0.4
2026-02-26T2200,4066A,119.7458,39.9952,秦皇岛市,南园路157号,颗粒物(PM10),56,62,71,25,31,22,,62,52,49,22,10,6,0.5,0.4
2026-02-26T2200,4067A,119.5131,39.8858,秦皇岛市,翠岛大街1号,颗粒物(PM10),51,52,64,25,32,38,,64,60,27,17,11,8,0.4,0.4
2026-02-26T2200,4198A,119.509013,39.825305,秦皇岛市,北戴河轮滑馆,颗粒物(PM10),62,73,74,28,27,58,,68,66,15,16,7,6,0.3,0.3
2026-02-26T2200,1310A,120.404,36.0625,青岛市,市南区东部子站,,43,41,63,30,22,74,,86,77,12,10,8,8,0.5,0.5
2026-02-26T2200,1311A,120.362344,36.10282,青岛市,四方区子站,颗粒物(PM10),57,63,66,35,24,48,,79,65,32,20,4,4,0.7,0.6
2026-02-26T2200,1312A,120.294373,36.054183,青岛市,市南区西部子站,,43,31,58,30,22,76,,86,76,14,15,2,2,0.5,0.6
2026-02-26T2200,1313A,120.4581,36.0858,青岛市,崂山区子站,,48,48,62,28,21,73,,89,81,11,8,6,6,0.4,0.4
2026-02-26T2200,1315A,120.3945,36.3083,青岛市,城阳区子站,"颗粒物(PM10),细颗粒物(PM2.5)",52,53,74,36,34,69,,81,74,20,21,6,6,0.6,0.7
2026-02-26T2200,3642A,120.3454,36.0735,青岛市,市北区南部,颗粒物(PM10),54,57,66,28,23,72,,86,73,10,12,2,2,0.7,0.7
2026-02-26T2200,3643A,120.3897,36.18,青岛市,李沧区北部,颗粒物(PM10),59,68,71,38,28,37,,74,66,41,22,7,8,0.6,0.5
2026-02-26T2200,4110A,120.5222,36.4089,青岛市,盟旺路653号,,45,45,67,31,24,75,,93,90,12,8,1,2,0.7,0.7
2026-02-26T2200,4290A,120.196923,35.954556,青岛市,珠江路669号,,32,31,59,22,22,83,,76,69,13,23,7,7,0.4,0.4
2026-02-26T2200,4291A,120.0424,35.8656,青岛市,黄岛区人民政府广场,,46,46,61,26,18,79,,81,79,13,16,7,7,0.5,0.5
2026-02-26T2200,1703A,113.0218,23.7086,清远市,凤城街办,"颗粒物(PM10),细颗粒物(PM2.5)",53,56,43,37,29,38,,59,51,27,22,/,/,/,/
2026-02-26T2200,3025A,113.0479,23.6343,清远市,技师学院,颗粒物(PM10),62,73,42,43,25,32,,76,66,25,20,6,4,0.6,0.5
2026-02-26T2200,3318A,112.9898,23.7403,清远市,清新太和,,41,41,38,27,23,38,,67,60,24,19,10,8,0.6,0.5
2026-02-26T2200,3455A,113.076,23.72,清远市,清城东城,颗粒物(PM10),55,59,42,34,24,31,,47,42,39,27,/,/,/,/
2026-02-26T2200,2661A,107.6325,35.7357,庆阳市,庆阳五中,细颗粒物(PM2.5),74,85,115,54,41,86,,97,95,13,11,4,6,0.7,0.5
2026-02-26T2200,2662A,107.6361,35.7067,庆阳市,市环保局,细颗粒物(PM2.5),74,91,111,54,38,81,,94,92,13,12,4,7,0.5,0.4
2026-02-26T2200,1916A,103.7897,25.5036,曲靖市,环境监测站,颗粒物(PM10),52,54,31,32,22,95,,126,120,15,7,6,5,0.5,0.3
2026-02-26T2200,1917A,103.8013,25.5357,曲靖市,烟厂办公区,细颗粒物(PM2.5),57,43,30,40,21,78,,116,108,27,8,6,4,0.5,0.5
2026-02-26T2200,3376A,103.7926,25.4651,曲靖市,南苑二区,,38,32,27,26,20,93,,111,109,12,10,4,4,0.5,0.4
2026-02-26T2200,3377A,103.7442,25.5259,曲靖市,曲靖师范学院,,46,45,30,32,23,80,,124,114,24,8,4,2,0.4,0.2
2026-02-26T2200,1264A,118.8694,28.94,衢州市,环保大楼,,21,21,27,12,21,6,,37,15,28,18,/,/,/,/
2026-02-26T2200,1266A,118.8622,28.9809,衢州市,衢州学院,,17,10,23,8,20,0,,34,17,34,16,3,3,0.6,0.6
2026-02-26T2200,4097A,118.9646,28.9832,衢州市,衢州三中,,18,14,28,12,23,5,,32,16,31,18,5,5,0.6,0.5
2026-02-26T2200,1611A,118.5818,24.9116,泉州市,涂山街,细颗粒物(PM2.5),59,,24,42,22,46,,68,58,21,15,3,3,0.8,0.6
2026-02-26T2200,1612A,118.597,24.8976,泉州市,津头埔,细颗粒物(PM2.5),64,,24,46,21,45,,71,56,21,15,2,2,0.7,0.6
2026-02-26T2200,1613A,118.6669,24.9422,泉州市,万安,细颗粒物(PM2.5),64,48,25,46,24,36,,68,56,24,13,3,3,0.7,0.5
2026-02-26T2200,4105A,118.6355,24.9148,泉州市,霞新路6号,细颗粒物(PM2.5),58,42,24,41,21,41,,69,52,18,16,/,/,0.6,0.5
2026-02-26T2200,2626A,88.8873,29.2723,日喀则市,日喀则监测站,,,122,26,,9,57,,118,106,82,15,38,12,1.8,0.6
2026-02-26T2200,3726A,88.8775,29.2425,日喀则市,林业技术推广中心,,28,23,19,19,8,85,,110,107,10,6,10,9,0.4,0.4
2026-02-26T2200,1659A,119.4711,35.421,日照市,监测站,颗粒物(PM10),64,78,47,44,19,46,,84,71,33,19,8,7,0.7,0.6
2026-02-26T2200,1660A,119.523,35.4216,日照市,市政府广场,颗粒物(PM10),58,66,49,35,19,54,,86,71,25,14,6,6,0.5,0.5
2026-02-26T2200,1661A,119.5511,35.4113,日照市,港务局,颗粒物(PM10),54,58,54,31,16,64,,88,81,28,19,5,5,0.6,0.6
2026-02-26T2200,3507A,119.5326,35.4627,日照市,职业技术学院,颗粒物(PM10),63,75,49,44,20,48,,86,75,32,16,7,6,0.9,0.7
2026-02-26T2200,3604A,119.3267,35.1043,日照市,岚山环保分局,颗粒物(PM10),54,58,40,28,14,74,,89,81,18,16,9,9,0.7,0.7
2026-02-26T2200,1835A,111.1922,34.7752,三门峡市,市政府,,32,,41,22,35,40,,41,41,15,15,6,7,0.3,0.3
2026-02-26T2200,1836A,111.1588,34.794,三门峡市,开发区,,48,41,53,33,43,40,,41,41,14,15,7,8,0.6,0.6
2026-02-26T2200,3039A,111.1911,34.7829,三门峡市,三门峡市第一小学,,39,33,49,27,41,41,,42,42,14,14,8,9,0.5,0.5
2026-02-26T2200,3598A,111.1031,34.719,三门峡市,富达温泉假日酒店,,,,49,,42,,,48,48,7,12,10,10,0.3,0.4
2026-02-26T2200,2324A,117.621,26.2626,三明市,三钢,,,16,20,8,13,16,,19,13,,13,22,5,2.5,0.9
2026-02-26T2200,2325A,117.6352,26.2714,三明市,三明二中,,11,6,15,3,10,15,,18,13,19,14,5,4,1.1,0.7
2026-02-26T2200,2326A,117.6028,26.2377,三明市,三元区政府,,10,10,14,3,10,17,,20,15,18,15,4,4,1.0,1
2026-02-26T2200,1877A,109.4962,18.2682,三亚市,河西子站,,22,22,31,14,14,38,,62,39,4,4,1,1,0.3,0.3
2026-02-26T2200,3540A,109.7348,18.3443,三亚市,君悦子站,,,,32,,14,,,49,,,5,,2,,0.3
2026-02-26T2200,4135A,109.1714,18.3739,三亚市,城东小学站,,27,27,32,10,13,41,,48,40,7,8,/,/,/,/
2026-02-26T2200,2624A,91.7592,29.234,山南市,山南监测站,,25,16,12,10,7,78,,108,103,19,4,12,11,0.6,0.4
2026-02-26T2200,2625A,91.7701,29.2436,山南市,山南人民医院,,29,18,13,8,7,92,,110,107,9,4,11,10,0.5,0.4
2026-02-26T2200,1674A,116.6795,23.3666,汕头市,金平子站,,23,22,17,16,11,63,,93,81,31,10,5,5,0.6,0.6
2026-02-26T2200,1675A,116.7248,23.3632,汕头市,龙湖子站,,25,19,18,17,11,80,,89,85,15,12,4,4,/,/
2026-02-26T2200,1676A,116.7257,23.2774,汕头市,濠江子站,,30,,19,21,12,79,,86,84,15,12,8,7,/,/
2026-02-26T2200,1677A,116.7518,23.4712,汕头市,澄海子站,,30,28,22,21,14,71,,86,80,12,8,7,8,0.6,0.5
2026-02-26T2200,1678A,116.6088,23.2539,汕头市,潮阳子站,,33,33,19,23,13,72,,91,85,11,7,6,6,0.5,0.4
2026-02-26T2200,3444A,116.4539,23.2684,汕头市,潮南峡山,颗粒物(PM10),51,52,26,35,16,72,,94,,11,7,6,6,0.6,0.6
2026-02-26T2200,3624A,116.4069,23.2533,汕头市,潮南子站,,42,42,28,25,15,66,,84,79,13,9,6,6,/,/
2026-02-26T2200,1693A,115.3653,22.7751,汕尾市,市环保局,,25,21,22,17,14,78,,80,80,11,9,6,5,0.7,0.7
2026-02-26T2200,1695A,115.362,22.7926,汕尾市,新城中学,,25,23,25,17,14,74,,78,76,11,9,6,6,0.7,0.6
2026-02-26T2200,2645A,109.9155,33.8714,商洛市,监测站,,35,28,30,24,23,40,,58,55,16,11,6,6,0.7,0.8
2026-02-26T2200,3045A,109.9647,33.8486,商洛市,商州区中学,,26,,37,18,21,41,,61,58,13,11,4,5,0.9,1
2026-02-26T2200,2408A,115.6701,34.4283,商丘市,环境监测站,细颗粒物(PM2.5),118,,66,89,47,,,52,49,18,11,2,2,0.5,0.6
2026-02-26T2200,2409A,115.6458,34.4047,商丘市,粮食局,细颗粒物(PM2.5),97,100,64,72,50,38,,48,44,13,10,1,2,0.6,0.5
2026-02-26T2200,3171A,115.6069,34.4465,商丘市,梁园区档案局,细颗粒物(PM2.5),100,92,60,75,45,35,,52,48,22,14,2,3,0.6,0.5
2026-02-26T2200,4119A,115.6701,34.3767,商丘市,北海东路185号,细颗粒物(PM2.5),99,110,74,74,44,38,,51,47,16,12,2,2,0.6,0.5
2026-02-26T2200,4120A,115.6172,34.3704,商丘市,中山大街3号,细颗粒物(PM2.5),103,118,78,77,45,45,,53,51,16,12,3,3,0.5,0.4
2026-02-26T2200,1141A,121.401,31.2382,上海市,普陀,,21,14,24,12,15,38,,66,58,42,21,5,5,0.6,0.5
2026-02-26T2200,1142A,121.4774,31.2043,上海市,十五厂,,23,16,30,12,19,38,,70,62,45,24,7,8,0.6,0.7
2026-02-26T2200,1143A,121.4673,31.3011,上海市,虹口,,35,11,28,8,15,9,,63,47,70,25,6,5,0.3,0.3
2026-02-26T2200,1147A,121.4253,31.226,上海市,静安监测站,,20,14,25,12,16,45,,70,63,39,21,6,6,0.7,0.6
2026-02-26T2200,1148A,121.7029,31.1905,上海市,浦东川沙,,25,12,24,8,13,30,,66,54,50,37,5,4,0.2,0.2
2026-02-26T2200,1149A,121.5339,31.229,上海市,浦东新区监测站,,31,12,25,8,13,21,,72,59,61,20,5,5,0.4,0.4
2026-02-26T2200,1150A,121.5776,31.2038,上海市,浦东张江,,29,11,25,7,14,26,,75,62,58,23,6,6,0.5,0.5
2026-02-26T2200,3265A,121.4242,31.3303,上海市,宝山庙行,,37,13,30,3,14,10,,64,47,73,27,9,9,0.3,0.3
2026-02-26T2200,3266A,121.8789,31.4662,上海市,崇明上实东滩,,26,13,19,7,10,82,,74,66,7,14,5,5,0.1,0.2
2026-02-26T2200,3268A,121.316,31.2839,上海市,嘉定南翔,,,18,25,13,16,,,65,52,56,24,3,3,0.4,0.5
2026-02-26T2200,3269A,121.3357,30.7455,上海市,金山新城,,18,8,22,8,14,57,,74,59,22,17,4,4,0.4,0.5
2026-02-26T2200,3270A,121.4996,31.0741,上海市,闵行浦江,,17,16,25,11,15,52,,64,60,25,20,6,6,0.3,0.3
2026-02-26T2200,3271A,121.2886,31.1663,上海市,青浦徐泾,,22,22,29,15,17,41,,55,48,37,22,4,4,0.4,0.4
2026-02-26T2200,3272A,121.2193,31.0382,上海市,松江图书馆,,26,25,33,18,18,41,,67,56,35,24,6,6,0.4,0.4
2026-02-26T2200,3273A,121.3904,31.206,上海市,长宁仙霞,,19,17,27,9,14,41,,65,57,37,21,7,7,0.2,0.3
2026-02-26T2200,3274A,121.7964,31.0507,上海市,浦东惠南,,16,12,23,9,14,47,,76,70,32,17,4,4,0.6,0.6
2026-02-26T2200,3544A,121.4891,30.925,上海市,奉贤南桥新城,,25,22,27,17,14,53,,66,63,20,17,2,2,0.4,0.4
2026-02-26T2200,4183A,121.417401,31.16637,上海市,冠生园路458号,,23,17,27,16,18,36,,60,51,46,22,6,6,0.5,0.5
2026-02-26T2200,4205A,121.541914,31.268301,上海市,宁武路151号,,29,13,25,8,15,23,,64,50,58,30,6,6,0.3,0.3
2026-02-26T2200,2382A,117.9758,28.4439,上饶市,市监测站,,14,14,20,3,13,22,,53,27,19,16,4,5,/,/
2026-02-26T2200,2383A,117.9521,28.4637,上饶市,凤凰光学,,19,19,23,3,14,9,,44,17,27,19,7,6,0.9,0.7
2026-02-26T2200,3685A,117.897,28.4316,上饶市,双创科技城,,18,18,23,3,16,11,,56,22,23,17,5,4,1.0,0.8
2026-02-26T2200,4211A,118.190438,28.444845,上饶市,裕丰大道,,14,14,28,3,16,10,,42,20,21,16,8,9,0.7,0.8
2026-02-26T2200,1669A,113.5821,24.7733,韶关市,市八中,,19,19,42,13,19,4,,26,10,29,19,6,7,0.8,0.8
2026-02-26T2200,1671A,113.5916,24.7973,韶关市,园林处,,18,15,25,12,22,7,,27,10,22,17,6,4,/,/
2026-02-26T2200,1673A,113.5971,24.6864,韶关市,曲江监测站,,41,41,44,24,28,12,,44,28,30,23,8,12,1.3,1.4
2026-02-26T2200,2809A,113.6668,24.7756,韶关市,大学路288号,,15,13,24,10,20,8,,17,12,24,17,5,6,/,/
2026-02-26T2200,3622A,113.5556,24.8082,韶关市,碧湖山庄,,13,13,28,9,20,14,,20,17,14,11,6,6,0.9,0.9
2026-02-26T2200,2464A,111.5277,27.2442,邵阳市,市化工厂,,13,,44,6,34,41,,42,31,4,9,4,5,0.7,0.9
2026-02-26T2200,2466A,111.4327,27.2276,邵阳市,市环保局,,,10,37,6,34,,,38,26,8,11,5,11,0.9,0.9
2026-02-26T2200,4218A,111.446,27.2472,邵阳市,北塔二期4-26地块,,12,8,35,3,26,36,,36,28,5,8,8,8,0.7,0.7
2026-02-26T2200,4219A,111.4739,27.2282,邵阳市,邵水西路287号,,12,,37,7,32,36,,38,28,5,9,3,4,0.7,0.8
2026-02-26T2200,1247A,120.6053,29.9927,绍兴市,城东开发委,,15,7,30,3,22,24,,44,30,29,21,7,8,0.5,0.4
2026-02-26T2200,2921A,120.5482,30.0003,绍兴市,树下王站,,14,12,31,3,22,21,,48,24,27,20,6,6,0.4,0.3
2026-02-26T2200,3408A,120.5685,29.936,绍兴市,绍兴中专,,16,8,33,3,21,22,,44,30,31,16,5,6,0.6,0.6
2026-02-26T2200,3409A,120.4905,30.086,绍兴市,柯桥区政府,,11,7,31,6,22,26,,49,24,22,20,5,5,0.4,0.4
2026-02-26T2200,3410A,120.8751,30.0249,绍兴市,重华小学,,23,,23,16,18,26,,50,38,29,16,6,6,0.4,0.3
2026-02-26T2200,3411A,120.837,30.0137,绍兴市,上虞中学,,26,21,26,18,19,22,,54,38,32,16,6,6,0.4,0.3
2026-02-26T2200,3560A,120.4715,30.0414,绍兴市,柯桥妇保,,15,9,34,3,22,19,,43,25,29,21,5,5,0.5,0.4
2026-02-26T2200,3658A,120.6156,30.0762,绍兴市,袍江中学,,12,10,35,8,25,24,,47,33,24,18,6,6,0.6,0.5
2026-02-26T2200,1356A,114.0948,22.5506,深圳市,通心岭子站,,25,24,20,13,10,79,,81,76,5,5,6,6,0.4,0.4
2026-02-26T2200,1357A,114.1153,22.5713,深圳市,洪湖,,31,31,22,15,10,75,,82,80,12,6,5,4,0.5,0.5
2026-02-26T2200,1358A,113.9823,22.5398,深圳市,华侨城,,31,31,21,20,10,55,,76,63,20,12,/,/,/,/
2026-02-26T2200,1359A,113.9181,22.517,深圳市,南海子站,,30,30,21,20,11,53,,76,62,22,11,6,6,0.4,0.3
2026-02-26T2200,1360A,114.2345,22.565,深圳市,盐田,,20,19,18,11,10,61,,75,72,22,20,7,7,0.4,0.4
2026-02-26T2200,1363A,114.4911,22.5381,深圳市,南澳,,22,22,20,10,8,68,,81,75,7,8,/,/,/,/
2026-02-26T2200,1364A,114.41,22.6346,深圳市,葵涌,,20,20,19,10,9,60,,77,74,22,8,8,8,0.5,0.5
2026-02-26T2200,1365A,114.2967,22.5978,深圳市,梅沙,,22,20,22,9,9,68,,85,72,13,12,/,/,/,/
2026-02-26T2200,1366A,114.0563,22.7353,深圳市,观澜,,35,35,23,16,11,48,,75,65,25,13,8,8,0.6,0.6
2026-02-26T2200,3305A,114.0614,22.556,深圳市,莲花,,29,29,22,18,12,69,,78,68,13,11,/,/,/,/
2026-02-26T2200,3306A,114.0144,22.6163,深圳市,民治,,35,35,23,18,11,60,,68,61,12,8,/,/,/,/
2026-02-26T2200,3307A,114.1756,22.6421,深圳市,横岗,,29,29,23,16,13,70,,77,67,13,13,/,/,/,/
2026-02-26T2200,3447A,114.344,22.7115,深圳市,坪山,,24,24,20,13,12,68,,83,78,16,8,9,8,0.5,0.5
2026-02-26T2200,3623A,113.8952,22.586,深圳市,西乡,,,,22,18,10,,,73,49,31,16,6,6,0.6,0.5
2026-02-26T2200,4220A,114.214113,22.713717,深圳市,黄阁路,,24,24,18,12,9,64,,78,72,14,8,6,6,0.9,0.8
2026-02-26T2200,1099A,123.5058,41.7084,沈阳市,浑南东路,细颗粒物(PM2.5),82,89,102,60,47,53,,60,57,27,26,10,12,0.7,0.7
2026-02-26T2200,1100A,123.4238,41.6992,沈阳市,新秀街,细颗粒物(PM2.5),77,81,99,56,48,67,,66,66,22,24,9,11,0.6,0.8
2026-02-26T2200,1102A,123.5903,41.8412,沈阳市,东陵路,细颗粒物(PM2.5),69,73,81,50,32,65,,64,64,13,14,6,10,0.6,0.6
2026-02-26T2200,1103A,123.4267,41.8466,沈阳市,陵东街,细颗粒物(PM2.5),95,93,93,71,41,57,,67,63,20,19,11,12,0.9,0.7
2026-02-26T2200,1104A,123.4116,41.7654,沈阳市,文化路,细颗粒物(PM2.5),89,105,100,66,45,64,,63,63,22,21,12,12,0.8,0.8
2026-02-26T2200,1105A,123.4673,41.787,沈阳市,小河沿,细颗粒物(PM2.5),83,99,105,61,50,63,,68,64,22,19,11,10,0.7,0.8
2026-02-26T2200,1106A,123.4019,41.7978,沈阳市,太原街,,,104,86,71,46,63,,72,66,,19,12,11,0.8,0.7
