timepoint,stationcode,longitude,latitude,area,positionname,primarypollutant,aqi,pm10,pm10_24h,pm2_5,pm2_5_24h,o3,o3_24h,o3_8h,o3_8h_24h,no2,no2_24h,so2,so2_24h,co,co_24h
2026-02-26T2100,2568A,102.2503,31.8896,阿坝藏族羌族自治州,马师校,,28,14,20,9,8,87,,104,101,6,4,5,5,0.3,0.3
2026-02-26T2100,3994A,102.2174,31.9016,阿坝藏族羌族自治州,马尔康中学西区,,34,34,28,6,6,77,,89,86,5,5,6,6,0.4,0.3
2026-02-26T2100,2695A,80.2899,41.1684,阿克苏地区,电视台,颗粒物(PM10),500,689,669,197,173,68,,78,78,14,14,3,3,0.8,0.8
2026-02-26T2100,2696A,80.2592,41.1541,阿克苏地区,艺术中心,颗粒物(PM10),500,691,647,211,200,68,,81,81,16,16,4,4,0.6,0.6
2026-02-26T2100,2205A,105.699,38.8409,阿拉善盟,蒙二幼,颗粒物(PM10),67,84,79,26,18,72,,90,86,13,9,11,11,0.5,0.5
2026-02-26T2100,2206A,105.7198,38.8508,阿拉善盟,环保局新楼,颗粒物(PM10),64,77,73,23,16,75,,84,80,6,6,10,10,0.5,0.5
2026-02-26T2100,2708A,88.1266,47.8515,阿勒泰地区,市站,,24,13,14,7,8,75,,93,83,25,18,4,5,0.3,0.3
2026-02-26T2100,4166A,88.1198,47.7931,阿勒泰地区,阿勒泰路33号,,23,15,20,15,9,72,,83,81,27,19,4,5,0.6,0.5
2026-02-26T2100,2630A,80.1171,32.4999,阿里地区,阿里监测站,,34,11,13,3,4,107,,105,105,1,5,6,5,0.2,0.4
2026-02-26T2100,3192A,80.0906,32.5029,阿里地区,阿里藏医院,,37,12,13,3,3,118,,112,112,1,5,6,9,0.2,0.3
2026-02-26T2100,2644A,109.0088,32.6974,安康市,汉滨区检察院,,46,46,22,22,19,21,,51,46,18,9,3,2,0.7,0.6
2026-02-26T2100,4054A,109.0324,32.6913,安康市,市邮政管理局,,36,35,23,25,17,11,,49,42,26,10,4,4,0.8,0.6
2026-02-26T2100,2291A,117.0806,30.5181,安庆市,环科院,,15,12,23,10,18,27,,41,38,15,12,6,6,0.8,0.7
2026-02-26T2100,2292A,117.0331,30.5118,安庆市,马山宾馆,,15,11,23,10,18,30,,42,39,17,14,4,5,1.0,0.8
2026-02-26T2100,2294A,116.9897,30.6146,安庆市,安庆大学,,13,12,24,9,14,35,,42,40,12,8,2,4,0.6,0.5
2026-02-26T2100,3173A,117.0598,30.5351,安庆市,市人大,,14,14,24,9,16,28,,40,36,18,14,5,5,0.7,0.6
2026-02-26T2100,3123A,105.9408,26.2431,安顺市,凤凰山,,43,34,34,30,31,98,,112,112,10,8,14,11,0.4,0.4
2026-02-26T2100,3124A,105.9443,26.2567,安顺市,金钟山,,45,32,32,31,32,98,,112,112,9,7,11,11,0.4,0.4
2026-02-26T2100,3125A,105.8983,26.248,安顺市,娄家坡,细颗粒物(PM2.5),53,38,36,37,33,90,,111,110,12,8,14,16,0.5,0.5
2026-02-26T2100,1819A,114.3552,36.1017,安阳市,红庙街,细颗粒物(PM2.5),80,,41,59,37,33,,43,41,22,18,3,2,0.4,0.3
2026-02-26T2100,1820A,114.361,36.0681,安阳市,银杏小区,细颗粒物(PM2.5),89,,41,66,38,34,,45,43,14,12,3,4,0.4,0.4
2026-02-26T2100,3141A,114.3921,36.0879,安阳市,信访局,细颗粒物(PM2.5),82,72,43,60,39,35,,45,43,15,12,2,3,0.5,0.5
2026-02-26T2100,3669A,114.4706,36.0634,安阳市,左辅环卫站,细颗粒物(PM2.5),82,78,54,60,40,36,,45,44,10,8,3,3,0.3,0.3
2026-02-26T2100,4117A,114.2918,36.0769,安阳市,钢三路198号,细颗粒物(PM2.5),80,71,51,59,38,33,,41,40,17,14,2,2,0.4,0.4
2026-02-26T2100,1748A,123.0441,41.1201,鞍山市,深沟寺,细颗粒物(PM2.5),130,143,98,99,50,38,,64,53,39,23,9,8,0.9,0.7
2026-02-26T2100,1749A,123.011,41.0931,鞍山市,太阳城,细颗粒物(PM2.5),130,132,97,99,52,36,,62,50,39,23,16,12,0.9,0.7
2026-02-26T2100,1750A,123.0483,41.1445,鞍山市,太平,细颗粒物(PM2.5),123,142,98,93,49,37,,59,50,38,23,14,11,0.5,0.6
2026-02-26T2100,1751A,122.964,41.0968,鞍山市,铁西三道街,细颗粒物(PM2.5),115,127,109,87,58,36,,51,44,44,39,21,18,1.2,1.9
2026-02-26T2100,1753A,123.0219,41.0822,鞍山市,明达新区,细颗粒物(PM2.5),115,122,96,87,51,38,,62,51,38,24,12,11,0.8,0.7
2026-02-26T2100,4201A,122.944647,41.082639,鞍山市,兴盛南路290号,细颗粒物(PM2.5),114,123,111,86,57,22,,45,37,58,44,31,17,2.0,2
2026-02-26T2100,2195A,107.4206,40.7609,巴彦淖尔市,附二中,颗粒物(PM10),72,93,78,36,26,46,,60,60,23,11,12,10,0.6,0.4
2026-02-26T2100,2196A,107.37,40.7372,巴彦淖尔市,市环保大楼,颗粒物(PM10),66,82,72,32,25,28,,58,55,43,18,6,7,0.6,0.4
2026-02-26T2100,1956A,86.1476,41.7529,巴音郭楞蒙古自治州,孔雀公园,颗粒物(PM10),222,365,150,109,37,59,,78,77,22,10,10,9,0.6,0.4
2026-02-26T2100,1957A,86.1971,41.7166,巴音郭楞蒙古自治州,棉纺厂,颗粒物(PM10),170,290,125,80,33,63,,80,79,18,19,/,/,/,/
2026-02-26T2100,1958A,86.236,41.7172,巴音郭楞蒙古自治州,经济开发区,颗粒物(PM10),146,242,120,43,21,55,,74,73,16,6,7,6,0.4,0.3
2026-02-26T2100,3181A,106.776805,31.852614,巴中市,市五中,,38,35,33,26,22,40,,72,69,13,14,7,7,0.8,0.9
2026-02-26T2100,3183A,106.7419,31.8654,巴中市,圣泉水务公司,,42,42,33,28,23,27,,77,68,30,17,8,8,0.9,1
2026-02-26T2100,3616A,106.7617,31.8343,巴中市,市中心医院,,38,37,34,26,24,21,,71,65,32,18,8,8,0.9,0.8
2026-02-26T2100,2235A,122.7909,45.608,白城市,洮北区环保局,,32,28,24,22,11,62,,78,74,16,9,6,5,0.3,0.2
2026-02-26T2100,2236A,122.8741,45.5725,白城市,市环保局,,31,31,20,20,11,39,,77,60,20,9,6,4,0.3,0.2
2026-02-26T2100,2231A,126.4219,41.9172,白山市,喜丰,,33,33,88,8,32,65,,76,68,13,27,8,13,0.6,0.9
2026-02-26T2100,2232A,126.4082,41.9416,白山市,环保局,,27,27,64,10,30,64,,72,68,8,22,9,11,0.6,0.8
2026-02-26T2100,2647A,104.1727,36.5448,白银市,第三小学,颗粒物(PM10),91,132,113,40,37,85,,91,91,6,14,4,22,0.4,0.5
2026-02-26T2100,2648A,104.1467,36.5482,白银市,动力公司,颗粒物(PM10),83,116,98,41,31,79,,86,86,8,12,4,15,0.5,0.6
2026-02-26T2100,2512A,106.6102,23.901,百色市,市监测站,,30,26,35,21,29,46,,66,65,15,13,9,12,0.3,0.4
2026-02-26T2100,2513A,106.6524,23.8842,百色市,市中心血站,,20,19,40,13,32,62,,67,67,11,16,10,13,0.6,0.7
2026-02-26T2100,4133A,106.6273,23.8798,百色市,龙景西路,,23,23,46,16,36,64,,70,70,10,15,12,14,0.5,0.6
2026-02-26T2100,2270A,117.396,32.9389,蚌埠市,工人疗养院,,21,18,46,6,31,66,,57,57,13,20,3,3,0.5,0.6
2026-02-26T2100,2271A,117.3606,32.9428,蚌埠市,百货大楼,,21,15,43,3,28,67,,56,56,10,18,5,5,0.5,0.6
2026-02-26T2100,2273A,117.4183,32.8909,蚌埠市,蚌埠学院,,22,9,32,3,29,68,,58,58,8,17,3,3,0.5,0.5
2026-02-26T2100,2274A,117.3534,32.9672,蚌埠市,淮上区政府,,21,9,37,3,28,67,,58,58,12,16,4,4,0.5,0.5
2026-02-26T2100,2275A,117.3143,32.8977,蚌埠市,高新区,,20,,34,3,28,63,,52,52,12,18,5,6,0.5,0.6
2026-02-26T2100,3715A,117.3091,32.9314,蚌埠市,蚌埠田家炳中学,,20,13,40,3,30,63,,52,52,14,17,3,4,0.5,0.5
2026-02-26T2100,1585A,109.8761,40.6533,包头市,市环境监测站,颗粒物(PM10),59,68,56,28,21,36,,58,57,45,25,6,10,0.5,0.4
2026-02-26T2100,1587A,109.9992,40.5843,包头市,包头八中,颗粒物(PM10),75,99,78,54,35,37,,61,56,45,30,11,13,1.0,0.8
2026-02-26T2100,1589A,109.8641,40.6288,包头市,惠龙物流,颗粒物(PM10),56,62,55,26,22,42,,65,63,44,24,10,14,0.8,0.7
2026-02-26T2100,1590A,110.0376,40.5546,包头市,东河鸿龙湾,细颗粒物(PM2.5),89,115,66,66,31,21,,65,52,69,39,10,12,0.8,0.7
2026-02-26T2100,3283A,109.9154,40.5684,包头市,滨河大厦,颗粒物(PM10),66,82,56,35,25,24,,65,56,59,30,10,10,0.8,0.6
2026-02-26T2100,3419A,109.9449,40.6259,包头市,包头市委党校,颗粒物(PM10),62,74,52,42,22,30,,58,56,50,30,10,13,0.7,0.5
2026-02-26T2100,3683A,109.8332,40.6577,包头市,昆区政府,颗粒物(PM10),55,60,51,27,24,63,,61,61,27,26,8,12,0.7,0.7
2026-02-26T2100,1931A,107.0802,34.3129,宝鸡市,竹园沟,细颗粒物(PM2.5),89,117,102,66,34,46,,82,78,22,14,6,6,0.5,0.4
2026-02-26T2100,1933A,107.1429,34.3549,宝鸡市,监测站,细颗粒物(PM2.5),97,133,96,72,34,60,,70,70,26,17,7,6,0.7,0.6
2026-02-26T2100,1934A,107.1172,34.3759,宝鸡市,技工学校,细颗粒物(PM2.5),108,130,99,81,38,61,,78,78,30,16,4,5,0.8,0.6
2026-02-26T2100,1936A,107.2025,34.3518,宝鸡市,文理学院,细颗粒物(PM2.5),100,126,95,75,39,68,,80,80,20,15,4,5,0.8,0.7
2026-02-26T2100,1937A,107.2396,34.3626,宝鸡市,三迪小学,细颗粒物(PM2.5),107,132,100,80,42,60,,76,76,30,21,4,5,0.8,0.6
2026-02-26T2100,4155A,107.1721,34.3558,宝鸡市,滨河北路,颗粒物(PM10),111,172,93,83,39,64,,75,74,22,17,6,6,0.7,0.6
2026-02-26T2100,4308A,107.3898,34.3601,宝鸡市,陈仓区北开路21号,细颗粒物(PM2.5),110,127,102,83,51,60,,73,72,16,14,8,45,0.8,0.8
2026-02-26T2100,1051A,115.4803,38.8568,保定市,游泳馆,颗粒物(PM10),59,68,110,40,87,46,,42,39,14,34,4,5,0.3,0.6
2026-02-26T2100,1052A,115.509,38.8895,保定市,华电二区,颗粒物(PM10),53,56,109,18,81,45,,36,35,11,29,3,3,0.7,1.1
2026-02-26T2100,1053A,115.4588,38.9037,保定市,接待中心,,49,49,109,32,81,43,,41,37,10,30,1,3,0.1,0.8
2026-02-26T2100,1054A,115.4484,38.8344,保定市,地表水厂,"颗粒物(PM10),细颗粒物(PM2.5)",53,56,121,37,71,46,,42,41,13,32,4,5,0.3,0.7
2026-02-26T2100,3581A,115.3136,38.9511,保定市,满城区生态环境分局,颗粒物(PM10),53,56,124,28,70,39,,49,40,16,30,3,6,0.2,0.4
2026-02-26T2100,3582A,115.4709,38.7628,保定市,清苑区第二中学,细颗粒物(PM2.5),63,73,119,45,73,37,,38,37,22,36,6,8,0.4,0.6
2026-02-26T2100,3583A,115.6231,39.0223,保定市,徐水物探局,细颗粒物(PM2.5),63,72,133,45,84,36,,40,36,17,31,5,6,0.5,0.8
2026-02-26T2100,4004A,115.4199,38.8665,保定市,双鹰农机,颗粒物(PM10),60,70,135,42,79,49,,48,45,18,36,2,4,0.5,0.8
2026-02-26T2100,4034A,115.515,38.8589,保定市,植保所站,颗粒物(PM10),60,69,124,32,78,47,,39,38,19,38,3,2,0.3,0.9
2026-02-26T2100,2594A,99.1589,25.1137,保山市,市环境监测站,细颗粒物(PM2.5),57,54,55,40,43,90,,89,89,8,12,7,7,0.4,0.5
2026-02-26T2100,2595A,99.1616,25.1381,保山市,市环保局,颗粒物(PM10),51,52,60,33,44,110,,118,118,5,9,4,4,0.5,0.6
2026-02-26T2100,1867A,109.1435,21.4085,北海市,海滩公园,,32,32,39,9,12,73,,67,67,9,10,3,3,1.1,0.7
2026-02-26T2100,1868A,109.0983,21.466,北海市,新市环保局,,31,31,33,14,13,67,,71,71,13,8,4,5,0.8,0.7
2026-02-26T2100,1869A,109.1775,21.5232,北海市,北海工业园,颗粒物(PM10),72,94,41,51,16,67,,66,66,6,6,5,5,0.5,0.5
2026-02-26T2100,3400A,109.1844,21.4396,北海市,龙潭自来水厂,,32,29,35,22,15,70,,73,73,3,4,5,4,1.0,0.9
2026-02-26T2100,1001A,116.3611,39.8786,北京市,万寿西宫,,39,39,106,23,65,50,,68,54,16,24,2,2,0.6,0.7
2026-02-26T2100,1003A,116.4174,39.9289,北京市,东四,,40,40,108,22,61,45,,62,50,23,30,6,6,0.3,0.6
2026-02-26T2100,1004A,116.4073,39.8858,北京市,天坛,,38,38,105,21,63,51,,65,52,18,27,3,3,0.6,0.8
2026-02-26T2100,1005A,116.4622,39.9364,北京市,农展馆,,42,42,105,25,63,45,,68,55,16,21,5,5,0.6,0.9
2026-02-26T2100,1006A,116.3399,39.9293,北京市,官园,,41,41,108,27,66,41,,58,47,18,27,5,4,0.6,0.8
2026-02-26T2100,1007A,116.2879,39.9613,北京市,海淀万柳,,47,47,117,29,69,43,,57,48,22,35,3,3,0.6,0.8
2026-02-26T2100,1008A,116.6635,40.1349,北京市,顺义新城,,36,36,100,18,59,60,,79,66,13,19,5,5,0.4,0.6
2026-02-26T2100,1009A,116.6275,40.327,北京市,怀柔镇,颗粒物(PM10),53,55,88,30,53,46,,72,59,20,23,5,4,0.8,0.8
2026-02-26T2100,1010A,116.2295,40.217,北京市,昌平镇,细颗粒物(PM2.5),79,83,108,58,60,38,,69,60,25,26,3,3,0.9,0.8
2026-02-26T2100,1011A,116.3968,39.982,北京市,奥体中心,颗粒物(PM10),54,57,119,29,66,39,,62,50,22,33,5,5,0.8,1
2026-02-26T2100,3418A,116.8336,40.4095,北京市,密云新城,颗粒物(PM10),51,52,85,26,48,49,,74,61,15,16,3,3,0.4,0.5
2026-02-26T2100,3671A,116.0879,39.9725,北京市,门头沟三家店,颗粒物(PM10),56,62,130,37,69,55,,68,57,17,27,4,4,0.6,0.8
2026-02-26T2100,3672A,116.1507,39.8246,北京市,丰台云岗,,27,27,112,15,65,63,,65,59,17,28,5,5,0.6,0.9
2026-02-26T2100,3674A,115.9578,39.7602,北京市,房山燕山,颗粒物(PM10),54,58,100,37,63,53,,64,52,15,22,3,4,0.6,0.8
2026-02-26T2100,3675A,116.4669,39.7734,北京市,大兴旧宫,,30,30,103,17,63,55,,58,50,17,31,4,5,0.5,0.8
2026-02-26T2100,3694A,115.9859,40.4562,北京市,延庆石河营,细颗粒物(PM2.5),87,100,91,64,53,59,,76,73,16,21,2,1,0.8,0.6
2026-02-26T2100,3695A,116.6151,40.3052,北京市,怀柔新城,颗粒物(PM10),51,52,91,32,56,50,,74,63,18,18,3,3,0.5,0.7
2026-02-26T2100,3696A,116.2542,39.8764,北京市,丰台小屯,,45,45,114,25,66,42,,57,48,23,33,4,4,0.5,0.7
2026-02-26T2100,3697A,116.8399,40.3843,北京市,密云镇,,44,44,78,24,51,51,,76,63,12,18,3,3,0.5,0.7
2026-02-26T2100,4057A,115.9423,40.4431,北京市,延庆百泉,细颗粒物(PM2.5),77,94,104,56,55,52,,74,70,17,22,3,2,0.7,0.6
2026-02-26T2100,4058A,116.6598,39.9164,北京市,通州新华,,27,27,105,15,62,57,,62,52,15,31,2,2,0.5,0.8
2026-02-26T2100,4182A,116.1942,39.9158,北京市,石景山八角,,42,42,117,23,63,46,,56,50,11,25,4,4,0.5,0.7
2026-02-26T2100,4194A,117.078628,40.151726,北京市,平谷新城,,40,39,96,28,66,46,,59,50,23,20,3,5,0.4,0.8
2026-02-26T2100,1761A,123.8274146,41.31234549,本溪市,大峪,颗粒物(PM10),69,88,105,48,39,41,,55,51,21,22,9,9,1.2,1
2026-02-26T2100,1763A,123.7169,41.3094,本溪市,彩屯,细颗粒物(PM2.5),74,81,102,54,48,43,,52,48,25,23,8,10,1.2,1.3
2026-02-26T2100,1764A,123.7672166,41.28649327,本溪市,东明,颗粒物(PM10),81,112,102,58,43,35,,51,46,27,20,11,8,1.1,1
2026-02-26T2100,1765A,123.799345,41.266614,本溪市,新立屯,细颗粒物(PM2.5),68,72,94,49,42,42,,52,50,16,22,6,7,1.1,0.9
2026-02-26T2100,1766A,123.829144,41.336777,本溪市,威宁,颗粒物(PM10),70,90,104,49,40,32,,51,47,29,26,6,6,0.7,0.8
2026-02-26T2100,2587A,105.287,27.3133,毕节市,八中,细颗粒物(PM2.5),58,64,52,41,38,85,,103,100,9,9,10,10,0.7,0.6
2026-02-26T2100,2588A,105.3079,27.2987,毕节市,师专,颗粒物(PM10),58,66,54,39,34,84,,106,103,11,9,10,10,0.6,0.5
2026-02-26T2100,4263A,105.3688,27.3598,毕节市,工业大道,细颗粒物(PM2.5),69,71,65,50,40,88,,108,105,10,8,11,10,/,/
2026-02-26T2100,1629A,117.9961,37.3604,滨州市,第二水厂,颗粒物(PM10),62,73,113,31,52,52,,61,61,16,20,7,10,0.3,0.9
2026-02-26T2100,1630A,117.9789,37.3931,滨州市,北中新校,颗粒物(PM10),60,70,111,24,51,52,,59,59,18,24,7,8,0.4,0.5
2026-02-26T2100,3514A,117.9379,37.3959,滨州市,中海酒店,颗粒物(PM10),60,70,114,25,53,60,,68,68,18,24,6,9,0.6,0.8
2026-02-26T2100,3515A,117.9381509,37.35547456,滨州市,开发区一中,颗粒物(PM10),63,75,123,26,53,54,,62,62,11,16,10,13,0.5,0.6
2026-02-26T2100,3516A,118.0914,37.6938,滨州市,金海六路,颗粒物(PM10),53,56,100,25,46,65,,69,67,10,16,4,6,0.6,0.6
2026-02-26T2100,4028A,117.9955,37.3752,滨州市,滨州市西街道办事处,颗粒物(PM10),60,70,114,34,53,57,,67,67,12,16,7,9,0.2,0.4
2026-02-26T2100,2311A,115.8071,33.8399,亳州市,污水处理厂,细颗粒物(PM2.5),87,87,45,64,29,44,,53,53,16,12,3,3,0.4,0.2
2026-02-26T2100,2312A,115.7789,33.8519,亳州市,三国揽胜宫,细颗粒物(PM2.5),104,100,51,78,36,41,,50,50,13,8,4,4,0.6,0.3
2026-02-26T2100,3332A,115.7631,33.803,亳州市,亳州学院,细颗粒物(PM2.5),92,100,48,68,29,46,,55,54,14,11,2,2,0.5,0.2
2026-02-26T2100,2693A,82.0482,44.8553,博尔塔拉蒙古自治州,市党校,颗粒物(PM10),52,54,49,26,14,73,,77,76,15,11,2,3,0.4,0.4
2026-02-26T2100,2694A,82.0805,44.8966,博尔塔拉蒙古自治州,市环保局,,,,29,,9,,,75,75,,9,,3,,0.4
2026-02-26T2100,1071A,116.8733,38.2922,沧州市,沧县城建局,颗粒物(PM10),55,60,76,20,47,61,,58,58,10,24,6,5,0.3,0.4
2026-02-26T2100,1072A,116.8462,38.3189,沧州市,电视转播站,,48,48,74,26,50,64,,60,60,13,26,3,2,0.3,0.4
2026-02-26T2100,1073A,116.8588,38.3161,沧州市,市环保局,颗粒物(PM10),57,63,80,33,47,56,,54,54,10,25,2,2,0.3,0.4
2026-02-26T2100,3324A,116.8011,38.294,沧州市,河北水利电力学院,颗粒物(PM10),51,51,71,28,44,58,,56,56,11,19,4,5,0.3,0.4
2026-02-26T2100,2622A,97.1813,31.1289,昌都市,昌都监测站,,27,27,16,11,6,72,,107,100,11,5,5,4,0.6,0.6
2026-02-26T2100,3719A,97.1707,31.1428,昌都市,昌都会议中心,,29,21,10,15,7,91,,108,106,3,2,6,6,0.5,0.4
2026-02-26T2100,2692A,87.2722,44.0298,昌吉回族自治州,新区政务中心,,45,35,73,31,48,70,,79,79,18,21,4,4,0.5,0.7
2026-02-26T2100,3613A,87.3069,44.0093,昌吉回族自治州,亚心广场,,49,46,82,34,56,69,,80,80,19,20,7,8,0.4,0.5
2026-02-26T2100,4164A,87.2057,43.9289,昌吉回族自治州,财政所,细颗粒物(PM2.5),72,83,84,52,48,73,,79,79,14,12,9,6,0.6,0.7
2026-02-26T2100,1120A,125.2874,43.9024,长春市,客车厂,,42,35,52,29,19,66,,73,72,14,10,8,7,0.4,0.4
2026-02-26T2100,1121A,125.2943,43.8508,长春市,邮电学院,,45,39,49,31,19,71,,75,75,9,9,8,8,0.4,0.4
2026-02-26T2100,1122A,125.3648,43.8745,长春市,劳动公园,细颗粒物(PM2.5),68,74,57,49,21,53,,74,70,29,12,9,7,0.8,0.4
2026-02-26T2100,1123A,125.3233,43.8781,长春市,园林处,细颗粒物(PM2.5),54,42,47,38,20,68,,74,74,14,10,7,7,0.4,0.1
2026-02-26T2100,1124A,125.4604,43.7904,长春市,净月潭,,43,41,47,30,19,59,,76,74,19,9,9,7,0.5,0.3
2026-02-26T2100,1126A,125.38,43.8422,长春市,经开区环卫处,,45,40,51,31,19,61,,73,72,17,10,6,5,0.6,0.5
2026-02-26T2100,1127A,125.234,43.7761,长春市,高新区管委会,,43,37,49,30,18,61,,69,68,19,14,8,8,0.4,0.4
2026-02-26T2100,1128A,125.1695,43.83,长春市,岱山公园,,40,40,49,28,23,47,,72,65,34,12,8,5,0.6,0.5
2026-02-26T2100,4281A,125.334645,43.916281,长春市,北亚泰大街1068号,,,36,51,36,22,64,,72,72,,10,7,7,,0.4
2026-02-26T2100,1335A,113.082,28.2421,长沙市,经开区环保局,,17,17,23,11,14,32,,26,26,13,18,2,2,0.5,0.6
2026-02-26T2100,1336A,112.8873,28.2202,长沙市,高开区环保局,,21,21,21,14,17,35,,35,35,9,14,4,4,0.6,0.9
2026-02-26T2100,1337A,113.0785,28.2012,长沙市,马坡岭,,18,15,22,12,16,31,,26,26,14,18,4,4,0.7,0.9
2026-02-26T2100,1338A,112.9448,28.1894,长沙市,湖南师范大学,,19,15,21,13,13,39,,38,38,11,12,3,4,0.9,0.9
2026-02-26T2100,1339A,113.0177,28.1322,长沙市,雨花区环保局,,18,17,19,12,13,32,,30,30,15,19,7,7,0.8,0.8
2026-02-26T2100,1340A,112.9795,28.2593,长沙市,伍家岭,,20,19,28,14,18,32,,32,32,11,12,4,4,0.7,0.8
2026-02-26T2100,1341A,113.002,28.1944,长沙市,火车新站,,19,19,20,13,15,35,,33,33,11,17,2,2,0.6,0.8
2026-02-26T2100,1342A,112.9846,28.1177,长沙市,天心区环保局,,21,21,19,11,13,38,,33,33,10,14,5,4,0.4,0.5
2026-02-26T2100,1343A,112.8906,28.1307,长沙市,湖南中医药大学,,19,15,22,13,15,36,,36,36,10,16,5,5,0.6,0.8
2026-02-26T2100,1727A,113.1146,36.1547,长治市,清华站,,28,24,34,19,29,45,,52,47,11,11,5,6,0.7,0.8
2026-02-26T2100,1730A,113.0887,36.2126,长治市,审计局,,22,22,34,6,34,47,,54,49,8,9,6,7,0.7,0.7
2026-02-26T2100,1731A,113.0845,36.1856,长治市,长治八中,,,,41,,36,45,,55,49,6,8,9,8,0.8,0.8
2026-02-26T2100,2845A,113.1561,36.1912,长治市,德盛苑,,,,36,,35,,,57,54,,11,,6,,0.8
2026-02-26T2100,3568A,113.0603,36.0464,长治市,向阳小学,颗粒物(PM10),52,53,60,28,37,34,,51,45,18,14,11,10,1.9,1.1
2026-02-26T2100,3569A,112.8788,36.315,长治市,屯留一中,,29,29,53,15,43,44,,49,45,15,20,4,6,0.9,0.6
2026-02-26T2100,4189A,113.113092,36.199482,长治市,英华南巷50号,,29,22,37,20,32,47,,54,49,12,12,5,5,0.8,0.9
2026-02-26T2100,4190A,113.23666,36.33435,长治市,学府街1号,,,12,39,,34,39,,51,45,17,16,2,3,0.6,0.8
2026-02-26T2100,1854A,111.696,28.9725,常德市,市二中,,30,30,31,21,20,51,,51,51,10,8,5,5,0.8,0.8
2026-02-26T2100,3138A,111.7152,29.0288,常德市,武陵区永安,,31,31,26,18,20,51,,51,51,14,11,4,4,0.7,0.7
2026-02-26T2100,3139A,111.6891,28.9881,常德市,鼎城区玉霞,,,,27,,19,47,,52,52,18,13,5,5,,0.9
2026-02-26T2100,3140A,111.6651,29.0526,常德市,武陵区长庚,,26,23,26,18,22,46,,50,50,12,9,5,5,0.8,0.8
2026-02-26T2100,1196A,119.9524,31.7586,常州市,市监测站,,40,40,56,16,25,7,,61,30,41,28,11,11,0.6,0.6
2026-02-26T2100,1200A,119.9351,31.703,常州市,武进监测站,,29,29,44,14,21,5,,69,31,38,18,10,8,0.8,0.7
2026-02-26T2100,3002A,119.9701,31.813,常州市,行政中心,,,26,42,12,25,5,,53,26,,27,5,4,0.7,0.6
2026-02-26T2100,3003A,120.0434,31.7726,常州市,经开区,,34,34,57,16,26,2,,54,26,47,30,9,9,0.9,0.8
2026-02-26T2100,3010A,119.8919,31.7892,常州市,钟楼,,,38,48,19,24,,,67,31,42,26,6,6,0.6,0.6
2026-02-26T2100,3429A,119.8595,31.706,常州市,武进经发区,,28,25,40,19,26,10,,67,28,38,21,7,5,0.7,0.7
2026-02-26T2100,3430A,119.5812,31.7256,常州市,金坛城区,,35,,33,24,29,26,,67,29,20,16,6,6,0.6,0.5
2026-02-26T2100,4089A,119.9551,31.863,常州市,崇义南街5-H号,,20,14,33,12,26,6,,46,18,39,26,5,4,0.5,0.4
2026-02-26T2100,2220A,120.4318,41.588,朝阳市,西梁,,31,31,56,13,21,67,,78,73,9,10,8,8,0.5,0.7
2026-02-26T2100,2221A,120.452,41.565,朝阳市,河畔小区,,33,33,49,9,18,74,,86,81,8,9,10,9,0.4,0.5
2026-02-26T2100,2222A,120.4176,41.5648,朝阳市,八里堡,,34,34,62,7,19,72,,82,78,11,13,10,8,0.4,0.4
2026-02-26T2100,3026A,116.6179,23.6608,潮州市,市政府,细颗粒物(PM2.5),68,73,36,49,24,54,,85,80,20,8,6,4,0.6,0.5
2026-02-26T2100,4036A,116.646,23.676,潮州市,金山,细颗粒物(PM2.5),63,62,34,45,24,56,,87,83,21,10,5,4,0.8,0.7
2026-02-26T2100,2473A,113.0116,25.8228,郴州市,市职中,,20,,26,14,22,2,,3,3,16,15,4,4,0.9,0.8
2026-02-26T2100,2475A,113.0381,25.8074,郴州市,市审计局,,16,,27,11,21,2,,4,2,13,15,3,3,/,/
2026-02-26T2100,2476A,113.0348,25.7757,郴州市,市环保局,,21,21,34,10,20,4,,6,4,16,19,4,5,0.6,0.6
2026-02-26T2100,4252A,113.0138,25.8011,郴州市,好美居路49号,,12,10,23,8,19,10,,10,10,16,17,3,3,/,/
2026-02-26T2100,1431A,103.9727,30.7242,成都市,金泉两河,细颗粒物(PM2.5),64,76,64,46,33,80,,110,109,19,16,4,3,0.4,0.5
2026-02-26T2100,1432A,104.1423,30.6765,成都市,十里店,颗粒物(PM10),72,94,57,37,30,76,,88,88,20,15,4,4,0.5,0.5
2026-02-26T2100,1433A,104.0594,30.5765,成都市,三瓦窑,颗粒物(PM10),62,74,53,35,27,83,,108,105,15,15,2,2,0.4,0.3
2026-02-26T2100,1434A,104.1122,30.6306,成都市,沙河铺,颗粒物(PM10),62,73,55,34,27,78,,94,93,29,23,4,4,0.5,0.5
2026-02-26T2100,2880A,104.0219,30.6561,成都市,大石西路,颗粒物(PM10),71,91,60,41,31,87,,103,103,22,19,6,6,0.4,0.4
2026-02-26T2100,3136A,104.2724,30.559,成都市,龙泉驿区区政府,,42,41,41,29,27,86,,96,96,8,8,6,6,0.4,0.4
2026-02-26T2100,3357A,104.0028,30.6891,成都市,金博路,颗粒物(PM10),65,79,54,32,21,83,,105,105,25,24,6,6,0.5,0.5
2026-02-26T2100,3359A,104.056,30.5228,成都市,华阳,颗粒物(PM10),53,56,47,28,27,63,,105,102,30,20,2,2,0.5,0.4
2026-02-26T2100,3488A,104.387954,30.746684,成都市,青石路225号,颗粒物(PM10),65,79,57,39,29,58,,97,92,38,20,7,4,0.6,0.5
2026-02-26T2100,3489A,104.0788,30.4054,成都市,科学城,,47,47,50,16,28,87,,103,102,10,12,8,8,0.6,0.6
2026-02-26T2100,4011A,103.8505,30.6946,成都市,光华大道三段,,,78,68,40,33,90,,118,118,,21,,4,0.3,0.3
2026-02-26T2100,4144A,104.3257,30.6406,成都市,八角井街185号,颗粒物(PM10),57,64,59,26,25,87,,93,93,6,9,4,4,0.4,0.4
2026-02-26T2100,4224A,104.2433276,30.53529463,成都市,鲸龙路1057号,颗粒物(PM10),55,59,49,25,24,92,,103,103,12,15,6,6,0.6,0.6
2026-02-26T2100,1062A,117.9531,40.908,承德市,铁路,颗粒物(PM10),56,61,82,26,40,74,,77,77,7,24,3,4,0.4,0.7
2026-02-26T2100,1063A,117.9397,40.9763,承德市,中国银行,颗粒物(PM10),62,74,74,19,36,77,,82,82,7,19,2,2,0.3,0.5
2026-02-26T2100,4073A,117.9462,40.95,承德市,杏林街1号,颗粒物(PM10),56,62,77,24,40,75,,82,81,6,15,4,5,0.3,0.5
2026-02-26T2100,4274A,117.7994,40.9605,承德市,滨河大街98号,颗粒物(PM10),60,69,65,37,45,76,,83,83,8,22,5,4,0.3,0.4
2026-02-26T2100,2314A,117.4698,30.6617,池州市,池州学院,,,17,22,10,14,21,,30,29,23,20,3,3,,0.8
2026-02-26T2100,3237A,117.4918,30.6617,池州市,展览馆,,15,11,21,10,15,19,,32,30,24,18,2,2,0.8,0.7
2026-02-26T2100,3333A,117.5626,30.695,池州市,第八中学,,11,6,20,3,12,25,,32,29,22,20,3,3,0.6,0.5
2026-02-26T2100,3334A,117.5037,30.6242,池州市,第十二中学,,13,10,19,8,13,21,,34,32,26,16,4,4,1.0,0.9
2026-02-26T2100,1744A,118.9229,42.2816,赤峰市,松山一中,,30,30,42,13,16,55,,59,56,14,16,4,7,0.6,0.6
2026-02-26T2100,1745A,118.9588,42.2733,赤峰市,哈达街,,32,32,48,10,14,60,,62,61,12,15,8,14,0.7,0.7
2026-02-26T2100,1746A,118.8792,42.2551,赤峰市,天义路,,22,19,35,10,18,68,,69,68,8,10,5,8,0.5,0.6
2026-02-26T2100,3058A,119.2656,42.0356,赤峰市,银河街,,43,43,68,28,28,65,,80,75,7,5,9,8,0.6,0.5
2026-02-26T2100,3286A,118.9359,42.3146,赤峰市,桥北物流园区,,,17,32,11,12,,,80,78,2,5,5,4,0.5,0.5
2026-02-26T2100,2521A,107.3473,22.4137,崇左市,市环保局江州分局,,38,38,37,25,28,12,,44,41,29,16,7,6,0.7,0.7
2026-02-26T2100,4256A,107.375,22.3736,崇左市,石景林东路7号,,33,23,33,23,26,23,,41,39,15,15,2,2,0.6,0.7
2026-02-26T2100,3207A,118.31131,32.3033,滁州市,市政府原办公楼,,22,18,43,15,36,57,,49,49,10,18,4,4,0.4,0.5
2026-02-26T2100,3331A,118.3268,32.2633,滁州市,图书馆,,19,,37,11,27,59,,51,51,9,16,8,8,0.3,0.4
2026-02-26T2100,4101A,118.3196,32.3335,滁州市,银山路666号,,20,,35,14,32,63,,55,55,7,13,5,5,0.5,0.6
2026-02-26T2100,4102A,118.3426,32.2979,滁州市,黄山路555号,,23,23,50,15,34,61,,52,52,8,13,6,6,0.4,0.6
2026-02-26T2100,2606A,101.5379,25.0492,楚雄彝族自治州,市经济开发区,,40,40,53,28,39,104,,106,104,8,12,3,4,0.6,0.6
2026-02-26T2100,4153A,101.5536,25.0343,楚雄彝族自治州,团结路562号,,45,,40,31,37,115,,113,113,4,8,5,4,0.6,0.6
2026-02-26T2100,2549A,107.5087,31.2186,达州市,市环境监测站,颗粒物(PM10),54,58,33,30,16,7,,43,34,42,24,6,8,0.5,0.2
2026-02-26T2100,2550A,107.4988,31.2132,达州市,凤凰小区,颗粒物(PM10),58,66,30,40,14,5,,43,36,52,25,7,8,0.8,0.3
2026-02-26T2100,2551A,107.5081,31.1987,达州市,达县机关宾馆,,,53,34,,14,2,,43,36,44,32,4,7,0.7,0.5
2026-02-26T2100,2552A,107.4644,31.2124,达州市,市政中心,颗粒物(PM10),63,76,36,30,13,2,,43,37,54,27,6,8,1.1,0.5
2026-02-26T2100,2614A,100.2168,25.5818,大理白族自治州,大理市环境监测站,,43,36,50,30,43,107,,108,107,8,9,7,7,0.8,0.9
2026-02-26T2100,2615A,100.1542,25.7055,大理白族自治州,大理古城,,39,33,47,27,37,112,,112,112,4,8,8,9,0.7,0.8
2026-02-26T2100,1109A,121.6119,38.974,大连市,甘井子,细颗粒物(PM2.5),97,114,98,72,45,34,,76,40,33,23,9,8,0.6,0.6
2026-02-26T2100,1110A,121.565,38.9509,大连市,周水子,细颗粒物(PM2.5),90,107,94,67,44,34,,68,42,31,21,8,9,1.0,0.6
2026-02-26T2100,1111A,121.5637,38.8849,大连市,星海三站,细颗粒物(PM2.5),87,97,83,64,43,36,,67,44,26,18,6,5,1.2,0.8
2026-02-26T2100,1112A,121.6301,38.9117,大连市,青泥洼桥,细颗粒物(PM2.5),94,121,108,70,43,26,,76,42,43,25,12,9,1.1,0.8
2026-02-26T2100,1113A,121.6248,38.8643,大连市,傅家庄,颗粒物(PM10),89,127,111,64,40,30,,79,45,42,23,11,9,1.0,0.6
2026-02-26T2100,1114A,121.5117,38.8636,大连市,七贤岭,细颗粒物(PM2.5),79,102,92,58,42,43,,73,54,26,19,6,6,1.2,0.8
2026-02-26T2100,1116A,121.7507,39.1339,大连市,金州,细颗粒物(PM2.5),87,108,101,64,47,30,,78,40,32,17,14,12,0.8,0.6
2026-02-26T2100,1117A,121.7811,39.0495,大连市,开发区,细颗粒物(PM2.5),102,121,94,76,48,21,,77,51,44,24,5,4,1.1,0.7
2026-02-26T2100,1118A,121.9762,39.0631,大连市,双D港,细颗粒物(PM2.5),98,110,98,73,37,46,,94,69,30,15,10,8,0.9,0.8
2026-02-26T2100,4082A,121.2548,38.8188,大连市,旅顺,细颗粒物(PM2.5),73,89,91,53,41,43,,64,49,22,15,10,10,1.0,0.6
2026-02-26T2100,1789A,124.8085,46.0381,大庆市,大同区,,44,44,32,25,11,52,,76,68,22,6,10,8,0.6,0.4
2026-02-26T2100,1790A,125.1166,46.5255,大庆市,龙凤区,,35,35,34,24,15,57,,73,67,19,14,4,3,0.2,0.1
2026-02-26T2100,1791A,124.8894,46.4007,大庆市,红岗区,,,38,34,31,15,,,56,53,24,10,9,6,0.6,0.8
2026-02-26T2100,1792A,125.1391,46.578,大庆市,萨尔图区,,28,28,31,18,13,42,,66,61,31,13,5,5,0.5,0.5
2026-02-26T2100,1793A,124.9026,46.6217,大庆市,让胡路区,,,32,31,20,16,,,62,,60,11,8,6,0.8,0.4
2026-02-26T2100,3481A,125.127,46.6277,大庆市,萨区政府监测点,,30,30,35,17,15,63,,71,69,6,5,8,8,0.3,0.3
2026-02-26T2100,1723A,113.2926,40.0759,大同市,云冈宾馆,细颗粒物(PM2.5),110,141,61,83,28,52,,88,80,25,14,8,7,0.8,0.6
2026-02-26T2100,1724A,113.3437,40.0921,大同市,大同大学,细颗粒物(PM2.5),120,165,69,91,33,64,,100,93,30,14,8,4,0.7,0.6
2026-02-26T2100,1725A,113.2637,40.129,大同市,安家小村,细颗粒物(PM2.5),125,166,76,95,37,62,,99,92,23,13,6,12,0.8,0.6
2026-02-26T2100,3282A,113.3399,40.0586,大同市,大同市卫生学校,细颗粒物(PM2.5),135,148,69,103,32,55,,103,93,28,13,8,6,0.7,0.6
2026-02-26T2100,3565A,113.1371,40.1122,大同市,云冈站,细颗粒物(PM2.5),139,160,66,106,34,61,,87,84,28,17,11,11,0.8,0.6
2026-02-26T2100,3566A,113.1186,40.2556,大同市,图书馆,细颗粒物(PM2.5),135,127,55,103,29,66,,87,86,33,13,19,10,1.0,0.6
2026-02-26T2100,3567A,113.5931,40.0459,大同市,区一中,细颗粒物(PM2.5),113,162,80,85,38,61,,102,94,22,10,14,9,0.8,0.3
2026-02-26T2100,4199A,113.2798248,40.09972476,大同市,魏都大道141号,细颗粒物(PM2.5),125,159,72,95,32,53,,94,86,26,14,12,9,0.8,0.6
2026-02-26T2100,2269A,124.1068,50.4091,大兴安岭地区,科技局,,27,27,21,16,10,52,,66,61,13,5,5,4,0.3,0.3
2026-02-26T2100,3663A,124.117,50.4279,大兴安岭地区,红旗社区,细颗粒物(PM2.5),62,48,14,44,10,37,,69,61,27,6,13,5,0.5,0.2
2026-02-26T2100,1600A,124.33,40.0625,丹东市,江湾东路,颗粒物(PM10),70,89,123,47,66,51,,85,74,18,25,8,12,0.8,1.2
2026-02-26T2100,1601A,124.4242,40.1513,丹东市,临江后街,细颗粒物(PM2.5),79,95,127,58,72,38,,82,60,23,27,11,13,0.9,0.9
2026-02-26T2100,1602A,124.3935,40.1461,丹东市,元宝山,颗粒物(PM10),65,80,121,46,66,41,,77,65,19,25,13,12,0.7,0.8
2026-02-26T2100,1603A,124.3634,40.1093,丹东市,民主桥,"颗粒物(PM10),细颗粒物(PM2.5)",68,86,136,49,75,41,,74,60,14,28,8,12,0.6,0.8
2026-02-26T2100,3541A,109.5726195,19.51688767,儋州市,第一中学子站,,33,33,34,18,17,55,,65,64,3,2,6,5,0.3,0.4
2026-02-26T2100,3542A,109.5567,19.5187,儋州市,东坡学校子站,,30,30,31,18,16,60,,71,70,3,2,5,5,0.4,0.4
2026-02-26T2100,2616A,98.5611,24.4273,德宏傣族景颇族自治州,德宏州监测站,,,,73,,69,56,,96,96,27,20,,6,,0.9
2026-02-26T2100,3677A,98.5887,24.4366,德宏傣族景颇族自治州,芒市人民政府综合楼,细颗粒物(PM2.5),73,71,82,53,65,64,,93,93,14,16,5,4,0.6,0.8
2026-02-26T2100,1901A,104.424,31.1209,德阳市,东山公园,细颗粒物(PM2.5),65,68,45,47,27,70,,96,94,24,10,3,3,0.6,0.6
2026-02-26T2100,1902A,104.3827,31.1318,德阳市,西小区,细颗粒物(PM2.5),70,79,64,51,34,67,,93,92,24,19,6,4,0.7,0.7
2026-02-26T2100,1904A,104.3553,31.1091,德阳市,耐火材料厂,细颗粒物(PM2.5),93,80,58,69,36,68,,98,97,22,21,3,2,0.6,0.6
2026-02-26T2100,4145A,104.4144,31.1495,德阳市,市林业局,细颗粒物(PM2.5),79,86,50,58,30,68,,93,91,21,16,8,7,0.7,0.7
2026-02-26T2100,1622A,116.3034,37.4675,德州市,儿童乐园,颗粒物(PM10),75,100,97,39,55,50,,55,52,16,20,9,10,0.5,0.7
2026-02-26T2100,1624A,116.2992,37.4449,德州市,监理站,颗粒物(PM10),80,110,103,40,53,56,,64,60,15,20,14,15,0.8,1
2026-02-26T2100,3066A,116.2722,37.438,德州市,九衢泉纯净水厂,颗粒物(PM10),73,95,87,42,53,50,,60,55,16,23,2,4,0.6,0.7
2026-02-26T2100,3371A,116.3693,37.44,德州市,开发区人民医院,颗粒物(PM10),84,117,105,47,55,46,,56,50,15,23,9,11,0.5,0.6
2026-02-26T2100,3511A,116.5687,37.3331,德州市,陵城艺术中心,颗粒物(PM10),65,80,103,37,60,51,,58,52,16,19,1,5,0.5,0.7
2026-02-26T2100,4292A,116.352738,37.420875,德州市,新河东路,颗粒物(PM10),85,119,97,38,51,46,,56,51,15,22,10,11,0.6,0.8
2026-02-26T2100,2621A,99.7054,27.8319,迪庆藏族自治州,迪庆州站,,37,36,24,23,14,116,,114,114,8,6,6,5,0.7,0.5
2026-02-26T2100,3180A,99.7122,27.8129,迪庆藏族自治州,质量技术监督局,,35,24,20,20,16,112,,118,116,6,8,5,5,0.6,0.6
2026-02-26T2100,4257A,104.6092,35.5962,定西市,将台街,颗粒物(PM10),94,138,124,50,50,92,,90,90,4,16,10,12,0.4,0.7
2026-02-26T2100,4309A,104.6159,35.5701,定西市,正龙路62号,颗粒物(PM10),99,148,132,43,47,85,,85,85,8,8,9,10,0.4,0.6
2026-02-26T2100,1390A,113.7943,23.0132,东莞市,东城石井,,29,29,20,16,10,51,,86,79,26,14,6,5,0.5,0.5
2026-02-26T2100,1391A,113.7384,22.9659,东莞市,南城西平,,34,34,20,18,10,44,,82,76,32,17,7,7,0.5,0.5
2026-02-26T2100,3319A,113.7283,23.041,东莞市,万江金泰,,48,48,21,17,12,54,,80,76,24,12,6,5,0.9,0.7
2026-02-26T2100,4129A,113.8666,23.1062,东莞市,裕兴路,,42,42,24,19,12,59,,89,80,25,12,6,6,0.8,0.7
2026-02-26T2100,4130A,114.0076,22.9739,东莞市,教育路1号,,28,28,22,13,10,68,,93,88,15,11,4,4,0.5,0.5
2026-02-26T2100,4131A,113.7981,22.8124,东莞市,长怡路1号,,44,44,23,22,10,35,,76,65,49,18,6,8,0.6,0.6
2026-02-26T2100,1666A,118.6612,37.4313,东营市,市环保局,颗粒物(PM10),56,61,102,23,37,66,,80,74,12,17,6,10,0.5,0.6
2026-02-26T2100,3036A,118.6903,37.4337,东营市,开发区管委会,颗粒物(PM10),54,57,98,16,32,69,,84,78,17,24,5,7,0.5,0.7
2026-02-26T2100,3365A,118.5721,37.5654,东营市,垦利区民丰路,颗粒物(PM10),57,63,99,21,35,72,,86,79,11,20,8,9,0.8,0.7
2026-02-26T2100,3498A,118.5063,37.8606,东营市,河口城区,颗粒物(PM10),53,56,86,20,30,67,,78,71,16,18,4,5,0.8,0.8
2026-02-26T2100,3646A,118.4979,37.4623,东营市,胜利站,颗粒物(PM10),56,62,107,21,38,64,,78,74,14,20,6,8,0.8,0.9
2026-02-26T2100,3734A,118.5753,37.4405,东营市,理想之城,颗粒物(PM10),56,61,107,22,36,64,,86,78,11,17,3,6,0.6,0.8
2026-02-26T2100,1591A,110.0024,39.8127,鄂尔多斯市,综合楼,颗粒物(PM10),73,95,106,27,21,47,,66,48,27,24,11,11,0.5,0.4
2026-02-26T2100,1592A,109.9485,39.8259,鄂尔多斯市,巴音孟克林场办事处,颗粒物(PM10),63,75,100,31,29,54,,68,59,21,22,8,8,0.4,0.4
2026-02-26T2100,1593A,109.7734,39.5987,鄂尔多斯市,康泽苑,颗粒物(PM10),56,61,105,30,27,57,,83,77,21,14,8,6,0.5,0.4
2026-02-26T2100,1594A,109.8121,39.5987,鄂尔多斯市,华泰汽车城,颗粒物(PM10),60,70,100,22,26,47,,84,74,25,18,7,5,0.4,0.3
2026-02-26T2100,1595A,109.9734,39.7884,鄂尔多斯市,奥林花园,颗粒物(PM10),60,70,105,22,22,57,,73,63,21,23,10,9,0.4,0.4
2026-02-26T2100,2436A,114.894,30.3989,鄂州市,市政府,,28,28,20,15,9,35,,27,27,21,20,6,9,0.6,0.9
2026-02-26T2100,2437A,114.8986,30.3714,鄂州市,赵家坝,,,21,20,11,9,,,43,43,7,4,,10,0.8,0.8
2026-02-26T2100,3654A,114.8093,30.4091,鄂州市,精准医疗中心,,27,27,21,17,11,53,,48,48,6,12,5,16,1.0,1
2026-02-26T2100,2454A,109.4978,30.2979,恩施土家族苗族自治州,湖北民院,,25,25,25,7,13,22,,21,21,14,12,6,6,0.8,0.7
2026-02-26T2100,3549A,109.5061,30.3771,恩施土家族苗族自治州,龙凤新区,,8,8,19,3,12,18,,18,18,8,8,7,7,0.6,0.5
2026-02-26T2100,2499A,108.3411,21.6159,防城港市,沙万,颗粒物(PM10),58,66,70,26,25,39,,54,50,29,27,8,7,0.6,0.6
2026-02-26T2100,2500A,108.3515,21.7733,防城港市,防城档案局,,43,41,39,30,25,34,,51,50,11,9,5,5,0.6,0.7
2026-02-26T2100,2501A,108.3506,21.6414,防城港市,大海花园,,47,47,52,28,26,48,,60,58,22,24,8,7,0.5,0.6
2026-02-26T2100,1371A,113.1293,23.0065,佛山市,湾梁,,27,27,29,13,15,64,,77,77,13,12,/,/,/,/
2026-02-26T2100,1372A,113.1082,23.0477,佛山市,华材职中,,27,27,29,17,20,65,,79,78,15,14,8,7,0.3,0.4
2026-02-26T2100,1373A,113.1439,23.045,佛山市,南海气象局,,,,30,,19,60,,75,74,19,15,/,/,/,/
2026-02-26T2100,1374A,113.2879,22.8094,佛山市,顺德苏岗,,31,31,28,14,13,63,,75,74,12,13,/,/,0.6,0.6
2026-02-26T2100,1376A,112.8384,22.8678,佛山市,高明孔堂,,34,34,27,17,16,64,,77,75,7,6,/,/,/,/
2026-02-26T2100,1377A,112.8835,23.1584,佛山市,三水监测站,,31,31,26,17,20,58,,78,75,20,17,4,4,0.5,0.4
2026-02-26T2100,1378A,112.8668,23.185,佛山市,三水云东海,,44,44,39,19,19,67,,83,81,18,17,/,/,/,/
2026-02-26T2100,3625A,113.2568,22.7629,佛山市,容桂街道办,,19,19,20,12,12,55,,65,62,11,11,/,/,/,/
2026-02-26T2100,1282A,119.2681,26.0506,福州市,师大,,26,21,21,18,16,29,,51,40,25,16,3,3,0.7,0.6
2026-02-26T2100,1283A,119.2983,26.1028,福州市,五四北路,,23,16,15,16,14,24,,47,34,27,18,4,4,0.5,0.5
2026-02-26T2100,1284A,119.2648,26.0769,福州市,杨桥西路,,22,18,18,15,14,26,,50,40,26,17,3,3,/,/
2026-02-26T2100,3048A,119.5799,26.0937,福州市,九龙,,30,,19,21,13,8,,52,25,42,16,4,4,0.7,0.6
2026-02-26T2100,3526A,119.5188,25.9666,福州市,吴航,,25,25,29,17,19,24,,49,25,31,23,4,4,0.7,0.6
2026-02-26T2100,4104A,119.3106,26.0648,福州市,路通桥巷6号,,35,29,24,24,19,17,,48,34,32,18,/,/,/,/
2026-02-26T2100,1755A,123.7974,41.8494,抚顺市,望花区,颗粒物(PM10),59,68,107,40,41,66,,63,63,13,17,9,11,0.7,0.6
2026-02-26T2100,1756A,123.9161,41.8827,抚顺市,顺城区,细颗粒物(PM2.5),60,61,82,43,45,57,,62,59,22,23,10,10,0.7,0.7
2026-02-26T2100,1757A,124.0437,41.8615,抚顺市,东洲区,细颗粒物(PM2.5),63,66,110,45,49,56,,60,58,16,20,7,9,0.8,0.9
2026-02-26T2100,1758A,123.9246,41.8638,抚顺市,新抚区,颗粒物(PM10),63,75,107,41,47,65,,61,61,13,19,9,8,0.6,0.7
2026-02-26T2100,1759A,124.0972,41.8961,抚顺市,大伙房水库,细颗粒物(PM2.5),78,78,108,57,50,64,,65,64,12,16,10,10,0.7,0.7
2026-02-26T2100,1760A,123.708,41.8386,抚顺市,沈抚新城,颗粒物(PM10),59,68,99,36,40,61,,64,64,18,18,8,8,0.7,0.7
2026-02-26T2100,2377A,116.3544,27.9833,抚州市,市站,,18,18,28,7,21,27,,26,26,10,6,4,6,1.8,1.3
2026-02-26T2100,2378A,116.3562,27.9631,抚州市,血防站,,22,22,32,8,19,22,,21,21,16,15,61,50,1.1,0.9
2026-02-26T2100,2379A,116.3561,28.0007,抚州市,采茶剧团,,17,13,28,7,17,24,,24,24,8,7,19,18,1.7,1.4
2026-02-26T2100,2380A,116.3854,27.9648,抚州市,医学分院,,15,14,32,10,16,25,,23,23,11,11,5,5,1.3,1.1
2026-02-26T2100,2207A,121.6095,41.9978,阜新市,工业园区,,26,26,37,7,9,71,,80,76,7,7,8,9,0.3,0.3
2026-02-26T2100,2208A,121.6567,42.0188,阜新市,长青街,,22,22,36,13,14,62,,73,68,8,9,7,8,0.3,0.5
2026-02-26T2100,2209A,121.6672,42.07,阜新市,农业园区,,20,20,41,7,11,59,,69,65,6,7,6,6,0.5,0.6
2026-02-26T2100,2211A,121.6343,42.0455,阜新市,玉龙新城,,21,20,40,3,11,67,,77,73,8,10,6,8,0.5,0.6
2026-02-26T2100,2301A,115.8276,32.8929,阜阳市,市监测站,,44,44,48,28,29,47,,40,38,16,15,4,4,0.5,0.4
2026-02-26T2100,2303A,115.8551,32.8606,阜阳市,开发区,颗粒物(PM10),55,60,52,35,29,34,,38,36,19,16,4,4,0.6,0.4
2026-02-26T2100,2875A,115.783962,32.889217,阜阳市,阜阳职业技术学院,,38,38,40,25,27,57,,48,48,12,12,5,5,0.5,0.4
2026-02-26T2100,3468A,115.79,32.8614,阜阳市,市规划展馆,,40,40,48,27,26,55,,45,45,11,13,5,6,0.5,0.7
2026-02-26T2100,3469A,115.835101,32.918568,阜阳市,枣园社区,,45,38,33,31,25,46,,39,39,17,15,6,6,0.5,0.4
2026-02-26T2100,2669A,102.9097,34.9841,甘南藏族自治州,州政府,细颗粒物(PM2.5),72,88,76,52,44,30,,88,78,44,20,8,5,0.7,0.7
2026-02-26T2100,3380A,102.8915,34.9618,甘南藏族自治州,甘肃民族师范学院,颗粒物(PM10),70,90,80,26,25,34,,93,80,36,21,8,9,0.4,0.4
2026-02-26T2100,2570A,101.96,30.048,甘孜藏族自治州,水桥子,,25,,7,12,6,80,,89,88,7,8,7,7,0.1,0.5
2026-02-26T2100,3065A,101.9534,29.9976,甘孜藏族自治州,州环保局,,29,,7,9,6,90,,92,92,6,8,6,6,0.2,0.3
2026-02-26T2100,2363A,114.9368,25.8663,赣州市,地委,,32,32,19,20,10,9,,23,17,42,23,3,4,1.4,1
2026-02-26T2100,2364A,114.946,25.8483,赣州市,气象台,,35,32,27,24,13,4,,19,14,56,27,4,6,0.8,0.6
2026-02-26T2100,2365A,114.932,25.8332,赣州市,市图书馆,,19,19,18,10,9,39,,27,27,24,19,4,4,0.7,1
2026-02-26T2100,2366A,114.8905,25.8472,赣州市,华坚鞋城,,28,24,21,19,12,19,,16,16,29,23,5,6,0.7,0.8
2026-02-26T2100,3109A,115.0094,25.8614,赣州市,赣县区卫计委,,39,,22,27,13,10,,25,15,48,23,4,4,0.7,0.6
2026-02-26T2100,2684A,106.2753,36.0057,固原市,监测站,颗粒物(PM10),139,227,125,51,39,77,,82,81,16,18,12,10,0.4,0.7
2026-02-26T2100,2685A,106.2384,36.0189,固原市,新区,颗粒物(PM10),135,219,116,50,32,79,,82,82,14,21,12,7,0.4,0.6
2026-02-26T2100,2544A,106.6307,30.4577,广安市,市委,细颗粒物(PM2.5),74,69,52,54,44,53,,70,70,19,16,8,8,0.7,0.7
2026-02-26T2100,2545A,106.6266,30.4662,广安市,友谊中学,细颗粒物(PM2.5),65,74,48,47,34,51,,71,71,20,15,11,10,0.8,0.9
2026-02-26T2100,2547A,106.6386,30.4551,广安市,广电花园,细颗粒物(PM2.5),70,,43,51,44,47,,65,64,19,15,8,9,0.7,0.7
2026-02-26T2100,2902A,106.6347,30.4868,广安市,北辰小学,细颗粒物(PM2.5),74,65,48,54,40,51,,70,70,17,12,14,13,0.9,0.8
2026-02-26T2100,2524A,105.8211,32.4444,广元市,老城,颗粒物(PM10),61,71,62,28,25,64,,73,71,19,14,8,6,0.7,0.6
2026-02-26T2100,2526A,105.8629,32.429,广元市,监测站,颗粒物(PM10),55,60,67,26,27,62,,70,69,17,12,4,5,0.5,0.5
2026-02-26T2100,3617A,105.8047,32.4167,广元市,经开区,颗粒物(PM10),58,66,69,25,26,59,,68,65,18,14,3,3,0.6,0.5
2026-02-26T2100,1345A,113.2346,23.1423,广州市,广雅中学,,31,31,25,17,14,54,,70,68,20,14,2,2,0.3,0.3
2026-02-26T2100,1346A,113.2611,23.105,广州市,市五中,,28,28,25,14,13,61,,82,80,21,15,6,6,/,/
2026-02-26T2100,1348A,113.3477,23.0916,广州市,广东商学院,,22,22,22,15,16,63,,75,74,14,16,5,5,0.6,0.6
2026-02-26T2100,1349A,113.4332,23.105,广州市,市八十六中,,19,19,18,9,10,60,,74,71,30,23,4,4,/,/
2026-02-26T2100,1350A,113.3506,22.9488,广州市,番禺中学,,34,34,32,13,12,60,,74,72,13,14,3,3,0.6,0.7
2026-02-26T2100,1351A,113.2147,23.3918,广州市,花都师范,,38,38,31,17,20,60,,76,76,20,18,5,6,0.9,0.7
2026-02-26T2100,1352A,113.2599,23.1329,广州市,市监测站,,28,28,26,16,15,62,,72,72,18,15,1,2,/,/
2026-02-26T2100,1353A,113.5618,23.3119,广州市,九龙镇镇龙,,32,32,33,15,18,48,,64,61,23,19,6,6,0.5,0.5
2026-02-26T2100,1354A,113.2764,23.1544,广州市,麓湖,,27,27,26,15,16,67,,76,76,14,14,3,3,0.4,0.4
2026-02-26T2100,2846A,113.3209,23.1323,广州市,体育西,,29,29,28,11,13,61,,75,73,20,18,4,5,0.7,0.6
2026-02-26T2100,3298A,113.5718,23.5493,广州市,从化街口,细颗粒物(PM2.5),59,61,38,42,25,57,,74,73,24,16,8,8,0.6,0.6
2026-02-26T2100,3299A,113.3463,23.369,广州市,白云竹料,,42,42,34,23,20,50,,72,70,26,19,4,3,0.6,0.5
2026-02-26T2100,3300A,113.2981,23.2365,广州市,白云嘉禾,,28,28,29,15,17,60,,77,76,23,20,7,7,/,/
2026-02-26T2100,3301A,113.4256,23.1716,广州市,黄埔科学城,,26,26,27,14,15,58,,76,73,24,17,5,5,0.6,0.6
2026-02-26T2100,3302A,113.3942,23.0485,广州市,番禺大学城,,26,26,34,11,11,66,,79,77,13,13,7,7,0.5,0.5
2026-02-26T2100,3303A,113.4923,22.8169,广州市,南沙黄阁,,23,23,22,16,11,64,,76,76,20,17,6,6,/,/
2026-02-26T2100,3304A,113.534,22.7893,广州市,南沙街,,26,26,21,14,10,54,,73,72,25,18,5,6,0.5,0.4
2026-02-26T2100,3443A,113.2905,23.5541,广州市,花都梯面,,30,30,28,16,17,49,,63,63,20,14,5,5,/,/
2026-02-26T2100,3445A,113.786,23.7479,广州市,从化良口,,29,28,22,20,16,44,,71,64,12,10,4,4,/,/
2026-02-26T2100,3446A,113.805,23.2614,广州市,增城荔城,,34,34,28,18,15,45,,96,86,20,14,6,7,0.5,0.4
2026-02-26T2100,2506A,109.604387,23.066791,贵港市,江南子站,,45,,63,31,46,24,,27,27,18,24,8,7,0.7,0.9
2026-02-26T2100,2508A,109.5669,23.1065,贵港市,荷城子站,,46,,53,32,41,24,,33,32,22,24,7,7,0.8,0.9
2026-02-26T2100,3405A,109.5886,23.1172,贵港市,新世纪学校,,43,,57,30,49,30,,36,36,20,27,/,/,0.7,0.9
2026-02-26T2100,4260A,109.5933,23.095,贵港市,中山路155-3号,颗粒物(PM10),55,60,76,33,51,24,,29,28,18,22,/,/,0.7,0.9
2026-02-26T2100,1439A,106.6863,26.6035,贵阳市,马鞍山,,46,46,38,32,30,62,,107,100,8,9,6,5,/,/
2026-02-26T2100,1441A,106.6241,26.6266,贵阳市,鉴湖路,颗粒物(PM10),54,58,47,34,29,60,,111,106,10,10,7,7,0.4,0.4
2026-02-26T2100,1442A,106.7468,26.6344,贵阳市,燕子冲,细颗粒物(PM2.5),55,41,47,39,32,68,,115,108,11,12,3,5,0.4,0.3
2026-02-26T2100,1443A,106.6556,26.4362,贵阳市,碧云窝,颗粒物(PM10),57,63,42,30,28,69,,113,108,22,8,17,10,/,/
2026-02-26T2100,1445A,106.6963,26.6063,贵阳市,红边门,细颗粒物(PM2.5),53,51,46,37,30,57,,106,98,13,14,9,9,/,/
2026-02-26T2100,1446A,106.7162383,26.56964667,贵阳市,新华路,细颗粒物(PM2.5),65,56,52,47,31,43,,125,114,13,15,1,11,1.6,0.5
2026-02-26T2100,1447A,106.6742,26.542,贵阳市,太慈桥,,50,46,37,35,30,66,,106,102,16,14,4,4,/,/
2026-02-26T2100,4230A,106.688212,26.56952,贵阳市,花果园大街66号,细颗粒物(PM2.5),62,51,37,44,30,59,,102,98,13,13,4,3,/,/
2026-02-26T2100,4231A,106.687268,26.516892,贵阳市,漓江路57号,颗粒物(PM10),54,58,42,35,27,59,,110,105,17,12,8,7,0.7,0.6
2026-02-26T2100,1864A,110.3091,25.2705,桂林市,龙隐路小学,细颗粒物(PM2.5),58,61,59,41,47,2,,7,6,26,24,3,4,1.1,0.9
2026-02-26T2100,1865A,110.2849361,25.22909545,桂林市,八中,颗粒物(PM10),57,64,58,38,31,2,,6,5,34,29,3,3,1.2,0.9
2026-02-26T2100,3531A,110.296,25.1254,桂林市,旅游学院,细颗粒物(PM2.5),57,42,53,40,45,3,,8,,16,16,4,8,0.9,0.9
2026-02-26T2100,4222A,110.1835,25.2444,桂林市,环湖路276号,细颗粒物(PM2.5),69,51,57,50,46,1,,5,4,34,27,4,11,1.2,1
2026-02-26T2100,4301A,110.2803,25.2773,桂林市,信义路13号,细颗粒物(PM2.5),67,51,60,48,47,0,,2,1,28,22,3,4,1.3,1.1
2026-02-26T2100,2674A,100.2262,34.4854,果洛藏族自治州,玛沁县大武镇,颗粒物(PM10),68,85,44,30,12,91,,101,101,4,3,16,18,0.4,0.4
2026-02-26T2100,1130A,126.5557,45.8109,哈尔滨市,松北商大,,35,26,50,24,18,61,,74,68,6,4,7,7,0.6,0.5
2026-02-26T2100,1132A,126.6162,45.719,哈尔滨市,南岗学府路,,49,49,57,15,11,65,,80,71,12,8,19,9,0.2,0.1
2026-02-26T2100,1133A,126.6894,45.7733,哈尔滨市,太平宏伟公园,,28,26,55,19,18,61,,74,68,9,7,6,8,0.6,0.5
2026-02-26T2100,1134A,126.6361,45.7672,哈尔滨市,道外承德广场,颗粒物(PM10),52,54,99,20,15,61,,73,68,10,9,7,10,0.4,0.2
2026-02-26T2100,1136A,126.644,45.7261,哈尔滨市,动力和平路,,38,38,64,17,17,65,,75,71,9,6,13,10,0.7,0.7
2026-02-26T2100,1137A,126.5933,45.7479,哈尔滨市,道里建国路,,,,44,29,15,63,,73,68,13,13,8,17,1.0,0
2026-02-26T2100,1138A,126.6127,45.6119,哈尔滨市,平房东轻厂,,45,45,70,28,21,40,,59,50,47,28,6,5,0.4,0.6
2026-02-26T2100,1139A,126.5875,45.9827,哈尔滨市,呼兰师专,,28,28,73,17,19,57,,66,60,6,9,8,12,0.4,0.4
2026-02-26T2100,1140A,126.6299,45.6799,哈尔滨市,省农科院,,,40,56,21,14,60,,74,70,13,6,,6,0.4,0.3
2026-02-26T2100,4282A,126.6769,45.7379,哈尔滨市,华山路1号,,31,31,62,11,16,60,,76,65,12,9,10,14,0.5,0.4
2026-02-26T2100,4283A,126.9717,45.5356,哈尔滨市,解放大街52号,,39,39,66,11,13,50,,72,64,16,10,4,9,1.2,0.6
2026-02-26T2100,2688A,93.5124,42.8176,哈密市,地区监测站,,41,41,49,22,20,64,,73,73,14,12,7,9,0.4,0.5
2026-02-26T2100,2689A,93.5014,42.8312,哈密市,哈密师范学校,,45,45,44,25,16,55,,71,70,23,14,11,12,0.7,0.5
2026-02-26T2100,2671A,100.9016,36.9464,海北藏族自治州,海晏县西海镇,,46,46,46,23,19,90,,100,98,2,2,7,7,0.4,0.3
2026-02-26T2100,3867A,102.074,36.5056,海东市,平安区公安局北苑,颗粒物(PM10),59,67,96,28,45,81,,96,96,4,10,8,15,0.6,0.7
2026-02-26T2100,4163A,102.0984,36.5119,海东市,滨河路,颗粒物(PM10),56,62,107,31,41,14,,90,80,85,25,10,17,0.8,0.7
2026-02-26T2100,1410A,110.3189,20.0596,海口市,海南大学,,31,31,32,14,14,52,,68,64,4,4,6,6,0.3,0.3
2026-02-26T2100,1411A,110.2827,20.0051,海口市,秀英海南医院,,34,34,31,22,16,58,,70,68,11,8,8,8,0.3,0.2
2026-02-26T2100,1412A,110.3391,19.9979,海口市,海南师范大学,,38,38,32,18,16,57,,72,69,6,4,6,6,0.4,0.3
2026-02-26T2100,1413A,110.3303,20.0359,海口市,龙华路环保局宿舍,,37,37,29,16,14,52,,70,66,7,6,/,/,0.2,0.2
2026-02-26T2100,3539A,110.5111,19.9737,海口市,桂林洋子站,,33,33,31,16,14,41,,67,62,4,5,/,/,/,/
2026-02-26T2100,4134A,110.1952,20.0451,海口市,长滨二路9号,,46,46,30,28,16,42,,72,69,19,5,/,/,/,/
2026-02-26T2100,2673A,100.6158,36.2985,海南藏族自治州,共和县恰卜恰镇,,46,46,48,30,28,82,,103,102,11,8,12,12,0.3,0.3
2026-02-26T2100,2676A,97.373,37.376,海西蒙古族藏族自治州,德令哈市,颗粒物(PM10),51,52,60,28,23,92,,108,105,8,9,20,19,0.4,0.5
2026-02-26T2100,1049A,114.492,36.5712,邯郸市,矿院,细颗粒物(PM2.5),73,68,55,53,32,38,,44,42,12,9,3,3,0.5,0.4
2026-02-26T2100,1050A,114.4839,36.6136,邯郸市,丛台公园,细颗粒物(PM2.5),79,78,61,58,42,37,,43,41,10,8,6,5,0.5,0.4
2026-02-26T2100,3458A,114.7893,36.5592,邯郸市,香泉濮院小区,颗粒物(PM10),66,82,63,44,43,41,,45,45,10,10,3,3,0.4,0.4
2026-02-26T2100,3580A,114.1998,36.4439,邯郸市,峰峰矿区临水派出所,"颗粒物(PM10),细颗粒物(PM2.5)",62,74,42,44,26,42,,49,46,5,3,3,3,0.6,0.4
2026-02-26T2100,4068A,114.5209,36.7697,邯郸市,建安街268号,细颗粒物(PM2.5),69,70,63,50,44,33,,40,36,11,8,1,2,0.5,0.3
2026-02-26T2100,4069A,114.5488,36.6177,邯郸市,丛台东路558号,细颗粒物(PM2.5),60,50,54,43,44,40,,44,43,11,10,3,3,0.4,0.4
2026-02-26T2100,2635A,107.0155,33.0707,汉中市,市监测站,,48,48,28,30,18,29,,59,55,24,11,5,4,1.0,0.7
2026-02-26T2100,2636A,107.0083,33.114,汉中市,鑫源开发区,,48,42,26,33,20,34,,61,59,22,10,4,4,0.6,0.5
2026-02-26T2100,2637A,107.0072,33.0323,汉中市,南郑大河坎水厂,颗粒物(PM10),55,60,30,35,20,24,,56,50,23,12,4,4,0.8,0.6
2026-02-26T2100,1223A,120.2073,30.2111,杭州市,滨江,,14,6,37,3,21,20,,52,21,27,22,6,6,0.6,0.6
2026-02-26T2100,1224A,120.0625,30.2737,杭州市,西溪,,20,20,36,3,20,20,,50,22,21,13,8,8,0.8,0.7
2026-02-26T2100,1226A,120.3417,30.315,杭州市,下沙,,20,20,38,3,21,25,,48,21,25,27,7,7,0.4,0.4
2026-02-26T2100,1227A,120.1252,30.2465,杭州市,卧龙桥,,13,13,37,3,21,26,,49,25,19,13,7,7,0.5,0.4
2026-02-26T2100,1228A,120.1902,30.2691,杭州市,浙江农大,,13,7,30,3,17,21,,55,21,26,20,5,5,0.7,0.6
2026-02-26T2100,1230A,120.1195,30.3121,杭州市,和睦小学,,12,12,43,3,25,29,,52,22,19,18,4,4,0.5,0.5
2026-02-26T2100,1231A,120.3076,30.4146,杭州市,临平镇,,10,10,32,6,20,29,,55,31,16,16,6,6,0.7,0.6
2026-02-26T2100,1232A,120.2753,30.1839,杭州市,城厢镇,,27,27,42,3,22,22,,52,20,28,20,8,8,0.8,0.7
2026-02-26T2100,1233A,120.0883,30.1808,杭州市,云栖,,16,16,39,3,18,20,,43,20,23,18,4,4,0.8,0.7
2026-02-26T2100,3557A,119.9463,30.0496,杭州市,镇二中,,18,9,27,7,23,8,,53,24,35,18,4,4,0.8,0.7
2026-02-26T2100,3558A,119.7184,30.2367,杭州市,市府大楼,,10,9,30,3,24,30,,43,28,14,12,6,6,0.6,0.6
2026-02-26T2100,3656A,120.1554,30.2863,杭州市,消防大队,,20,20,42,3,24,23,,47,20,22,21,6,6,0.7,0.7
2026-02-26T2100,1270A,117.1957,31.7845,合肥市,明珠广场,,14,9,27,7,20,42,,38,34,13,16,5,5,0.7,0.9
2026-02-26T2100,1271A,117.307,31.8765,合肥市,三里街,,13,9,26,6,22,41,,37,36,17,18,5,5,0.6,0.7
2026-02-26T2100,1272A,117.2587,31.8703,合肥市,琥珀山庄,,15,14,30,10,24,42,,40,38,18,21,6,6,0.7,0.8
2026-02-26T2100,1275A,117.2593,31.9376,合肥市,庐阳区,,14,12,30,6,22,44,,41,40,14,16,4,4,0.6,0.8
2026-02-26T2100,1276A,117.345251,31.861615,合肥市,瑶海区,,13,,24,6,18,41,,42,39,23,24,5,5,0.6,0.7
2026-02-26T2100,1277A,117.3033,31.7967,合肥市,包河区,,13,12,29,7,21,35,,30,30,25,30,9,9,0.7,0.8
2026-02-26T2100,1278A,117.278,31.7392,合肥市,滨湖新区,,12,12,26,7,19,36,,37,30,17,16,4,4,0.5,0.7
2026-02-26T2100,1279A,117.1324,31.8395,合肥市,高新区,,13,12,30,7,24,41,,39,37,10,10,4,4,0.6,0.7
2026-02-26T2100,3464A,117.3802,31.9148,合肥市,高教基地,,15,9,26,3,19,46,,43,43,15,15,8,8,0.4,0.6
2026-02-26T2100,4098A,117.2518,31.8404,合肥市,中国科学技术大学,,14,7,26,3,20,44,,40,38,10,13,6,7,0.7,0.8
2026-02-26T2100,3614A,79.9241,37.0878,和田地区,地区环保局,"颗粒物(PM10),细颗粒物(PM2.5)",500,2139,1566,507,322,58,,69,69,11,13,2,2,0.4,0.5
2026-02-26T2100,3615A,79.9132,37.1137,和田地区,市环保局,"颗粒物(PM10),细颗粒物(PM2.5)",500,2036,1461,501,336,67,,84,83,19,32,1,3,0.8,1.1
2026-02-26T2100,2517A,108.0496,24.6957,河池市,市环保站,,48,39,53,33,43,36,,45,45,7,7,3,4,0.8,0.9
2026-02-26T2100,4302A,108.0901,24.6945,河池市,上任中路54号,,38,,47,26,38,45,,46,46,12,16,5,5,0.6,0.7
2026-02-26T2100,1697A,114.6962,23.7538,河源市,东埔,,,36,23,14,9,68,,78,77,13,12,,6,0.7,0.7
2026-02-26T2100,1698A,114.6895,23.7232,河源市,老城,,42,42,31,27,20,67,,80,79,10,10,6,6,0.7,0.6
2026-02-26T2100,3374A,115.5562,35.089,菏泽市,定陶老年大学,细颗粒物(PM2.5),93,102,67,69,44,54,,61,61,17,15,4,4,0.6,0.4
2026-02-26T2100,4114A,115.4239,35.2593,菏泽市,黄河路600号,细颗粒物(PM2.5),85,112,77,63,46,44,,53,53,15,13,2,2,0.4,0.4
2026-02-26T2100,4115A,115.5025,35.2727,菏泽市,菏泽市人社局,细颗粒物(PM2.5),94,117,71,70,46,48,,57,57,17,15,4,4,0.6,0.5
2026-02-26T2100,4184A,115.479691,35.244011,菏泽市,永昌路1号,,,121,72,68,44,,,71,71,17,10,2,2,0.5,0.5
2026-02-26T2100,4193A,115.471542,35.280012,菏泽市,长城路999号,"颗粒物(PM10),细颗粒物(PM2.5)",84,118,70,62,45,54,,63,63,17,15,7,6,0.5,0.4
2026-02-26T2100,2514A,111.5264,24.4178,贺州市,环保小区,,22,22,40,15,39,47,,27,27,15,15,4,3,1.0,0.9
2026-02-26T2100,2515A,111.561,24.4074,贺州市,政协大楼,,23,14,38,11,38,73,,44,44,15,28,5,5,0.4,0.7
2026-02-26T2100,3534A,111.4744,24.455,贺州市,西湾,,35,35,56,14,32,34,,20,20,19,18,4,4,0.9,1
2026-02-26T2100,2385A,114.17,35.9019,鹤壁市,市监测站,,50,50,41,34,29,36,,39,39,9,10,4,3,0.7,0.5
2026-02-26T2100,2386A,114.2953,35.7512,鹤壁市,市交警支队,细颗粒物(PM2.5),59,58,42,42,31,35,,38,38,16,15,2,5,0.5,0.5
2026-02-26T2100,2387A,114.2877,35.7302,鹤壁市,迎宾馆,细颗粒物(PM2.5),65,60,42,47,33,36,,40,40,14,11,2,3,0.6,0.6
2026-02-26T2100,3474A,114.2616,35.6824,鹤壁市,大新区,细颗粒物(PM2.5),72,,39,52,43,42,,47,47,15,14,7,7,0.7,0.7
2026-02-26T2100,3596A,114.1573,35.9607,鹤壁市,南山宾馆,,46,40,36,32,32,36,,43,43,10,10,2,2,0.5,0.5
2026-02-26T2100,2244A,130.2537,47.3416,鹤岗市,哈啤分公司,,29,29,25,11,12,81,,89,87,4,4,7,8,0.4,0.4
2026-02-26T2100,2245A,130.2683,47.3087,鹤岗市,斯达机电,,35,35,27,17,10,84,,91,88,5,6,5,6,0.4,0.4
2026-02-26T2100,2246A,130.3114,47.3388,鹤岗市,东山纸板厂,,31,31,37,14,17,79,,85,82,2,6,4,7,0.5,0.5
2026-02-26T2100,2263A,127.4832,50.2524,黑河市,交通局,,25,22,21,17,12,72,,76,66,6,13,5,5,0.4,0.4
2026-02-26T2100,2264A,127.5146,50.2339,黑河市,环保局,,22,19,28,10,12,70,,78,67,7,7,7,7,0.3,0.3
2026-02-26T2100,1074A,115.6839,37.754,衡水市,电机北厂,颗粒物(PM10),73,96,84,36,50,44,,50,50,16,19,6,6,0.4,0.6
2026-02-26T2100,1075A,115.6303,37.7318,衡水市,市监测站,颗粒物(PM10),65,79,78,38,45,42,,49,49,17,18,4,5,0.3,0.4
2026-02-26T2100,3188A,115.6684,37.7216,衡水市,市城管局,颗粒物(PM10),67,84,81,38,46,40,,46,46,20,20,3,3,0.3,0.4
2026-02-26T2100,3459A,115.599,37.5491,衡水市,地表水厂,颗粒物(PM10),60,69,78,36,45,48,,50,50,9,16,5,5,0.4,0.5
2026-02-26T2100,2457A,112.6209,26.9268,衡阳市,衡阳化工总厂,,15,15,31,3,22,28,,25,25,7,11,12,14,1.0,1
2026-02-26T2100,2458A,112.621,26.8957,衡阳市,珠晖区环保局,,,11,31,3,21,,,20,20,,17,6,7,1.1,1.2
2026-02-26T2100,2459A,112.628,26.8654,衡阳市,市委党校,,10,9,30,3,20,28,,26,26,8,11,6,7,1.0,1.1
2026-02-26T2100,2460A,112.6007,26.8977,衡阳市,市监测站,,28,28,41,12,24,25,,25,25,15,16,7,12,1.3,1.2
2026-02-26T2100,2461A,112.5658,26.9013,衡阳市,真空机电公司,,11,11,34,3,26,26,,20,20,11,18,9,15,1.1,1.2
2026-02-26T2100,3399A,112.6703,26.8817,衡阳市,师范学院,,15,15,34,3,21,32,,28,28,7,11,3,5,1.0,1.1
2026-02-26T2100,3038A,103.3757,23.3679,红河哈尼族彝族自治州,州图书馆,,,,19,,16,,,102,101,5,4,4,5,0.3,0.3
2026-02-26T2100,4154A,103.401,23.3561,红河哈尼族彝族自治州,蒙自市朝阳路,,30,,15,21,15,80,,99,96,5,4,8,8,0.2,0.1
2026-02-26T2100,1090A,111.6506,40.7517,呼和浩特市,呼市一监,,36,36,32,17,12,69,,76,74,16,13,7,6,0.5,0.5
2026-02-26T2100,1094A,111.7516,40.8369,呼和浩特市,如意水处理厂,颗粒物(PM10),55,59,32,24,9,60,,74,70,17,13,9,9,0.4,0.3
2026-02-26T2100,1095A,111.727798,40.806187,呼和浩特市,二十九中,,50,50,34,26,10,58,,71,67,13,10,11,11,0.5,0.5
2026-02-26T2100,1097A,111.717,40.7617,呼和浩特市,化肥厂生活区,颗粒物(PM10),51,51,40,19,11,66,,74,72,12,9,5,5,0.3,0.3
2026-02-26T2100,3699A,111.6519,40.8389,呼和浩特市,海东办,,41,41,29,22,9,45,,70,65,29,13,4,3,0.5,0.3
2026-02-26T2100,4275A,111.591512,40.827312,呼和浩特市,成吉思汗西街8号,,44,44,30,22,10,19,,65,57,54,17,4,5,0.6,0.4
2026-02-26T2100,4276A,111.6597,40.8077,呼和浩特市,公园东路75号,,39,39,33,24,13,57,,68,65,20,15,6,6,0.6,0.5
2026-02-26T2100,4277A,111.5427,40.7846,呼和浩特市,金海路35号,,50,50,33,21,10,52,,67,64,21,13,6,6,0.3,0.4
2026-02-26T2100,3061A,119.7511,49.1576,呼伦贝尔市,国华电力东,,37,37,28,23,14,46,,84,79,34,16,6,6,0.7,0.5
2026-02-26T2100,4279A,119.7569,49.2222,呼伦贝尔市,伊敏大街东7号,,32,32,31,20,14,68,,75,74,16,15,8,7,0.5,0.4
2026-02-26T2100,1250A,120.075,30.867,湖州市,城西水厂,,13,10,28,9,21,40,,75,31,22,20,5,5,0.4,0.4
2026-02-26T2100,2873A,120.083,30.8929,湖州市,仁皇山新区,,16,9,30,7,19,26,,69,33,32,21,4,4,0.6,0.5
2026-02-26T2100,2907A,120.1846,30.8592,湖州市,吴兴区站,,18,18,34,9,18,22,,55,28,20,14,4,4,0.6,0.6
2026-02-26T2100,3562A,120.4146,30.8538,湖州市,南浔区站,,27,27,37,10,20,37,,70,45,16,14,6,7,0.5,0.5
2026-02-26T2100,1607A,120.904878,40.721091,葫芦岛市,龙港区,颗粒物(PM10),91,132,79,50,33,49,,72,63,35,18,54,23,0.9,0.8
2026-02-26T2100,1608A,120.8382,40.7521,葫芦岛市,化工街,颗粒物(PM10),54,58,76,25,34,45,,68,58,29,25,15,10,0.5,0.4
2026-02-26T2100,1609A,120.8339,40.7078,葫芦岛市,新区,颗粒物(PM10),52,53,62,24,30,45,,66,58,26,19,17,10,0.7,0.7
2026-02-26T2100,1610A,120.8697,40.7679,葫芦岛市,东城区,颗粒物(PM10),51,52,70,24,36,43,,66,59,30,24,20,12,0.5,0.6
2026-02-26T2100,2483A,109.9297,27.5383,怀化市,河西地税局,,12,11,17,8,9,38,,38,32,8,9,2,2,/,/
2026-02-26T2100,2484A,109.9783,27.5342,怀化市,市四医院,,14,14,23,6,11,29,,33,26,9,8,6,6,0.5,0.5
2026-02-26T2100,2485A,109.9971,27.5579,怀化市,监测楼,,12,8,21,8,13,35,,39,34,11,9,3,3,0.4,0.3
2026-02-26T2100,1210A,119.0566,33.5991,淮安市,钵池山,,21,7,24,6,16,66,,65,64,9,10,9,9,0.4,0.4
2026-02-26T2100,1211A,119.0083,33.578,淮安市,北京南路,,20,7,27,7,17,62,,61,60,7,9,6,6,0.3,0.3
2026-02-26T2100,1212A,118.9938,33.6083,淮安市,市监测站,,22,,19,6,17,69,,66,66,7,8,9,9,0.3,0.3
2026-02-26T2100,1213A,119.135,33.5038,淮安市,楚州区监测站,,21,,21,6,16,66,,66,66,7,8,5,5,0.2,0.2
2026-02-26T2100,3426A,118.8757,33.2897,淮安市,新华书店,,23,21,33,16,22,46,,56,55,14,12,6,6,0.4,0.5
2026-02-26T2100,4092A,119.119691,33.550006,淮安市,枚皋中路89号,,23,13,29,7,18,71,,70,70,8,10,9,9,0.4,0.4
2026-02-26T2100,4206A,119.028838,33.631911,淮安市,承德北路606号,,21,9,28,3,15,67,,67,66,8,8,6,6,0.3,0.3
2026-02-26T2100,2282A,116.8005,33.9749,淮北市,监测站,细颗粒物(PM2.5),59,54,54,42,34,60,,62,62,16,14,5,5,0.7,0.5
2026-02-26T2100,2283A,116.8094,33.9008,淮北市,烈山区政府,颗粒物(PM10),60,70,49,39,30,63,,63,63,16,14,4,4,0.6,0.4
2026-02-26T2100,4017A,116.7926,33.9534,淮北市,市博物馆,细颗粒物(PM2.5),60,55,54,43,34,58,,60,60,18,15,3,2,0.7,0.6
2026-02-26T2100,4100A,116.8322,33.9884,淮北市,杜集区第一实验学校,细颗粒物(PM2.5),60,56,53,43,32,57,,60,60,16,14,7,5,0.6,0.5
2026-02-26T2100,2277A,116.8304,32.7726,淮南市,潘集区政府,,31,31,43,10,24,58,,54,54,11,14,5,5,0.4,0.4
2026-02-26T2100,2279A,116.8569,32.5949,淮南市,谢家集区政府,,19,12,33,8,28,58,,52,52,11,17,7,7,0.5,0.5
2026-02-26T2100,2280A,116.8279,32.6333,淮南市,八公山区政府,,19,17,37,12,30,58,,53,53,8,11,7,6,0.4,0.5
2026-02-26T2100,2894A,117.0561,32.6536,淮南市,经济技术开发区消防队,,19,19,49,10,33,56,,48,48,10,18,4,4,0.3,0.4
2026-02-26T2100,3329A,117.011,32.5891,淮南市,山南新区,,20,10,34,9,32,64,,55,55,9,16,6,6,0.4,0.4
2026-02-26T2100,4209A,117.003137,32.644456,淮南市,国庆中路369号,,19,19,46,12,32,46,,41,41,8,15,9,8,0.4,0.5
2026-02-26T2100,2446A,114.9021,30.474,黄冈市,职工中心,,22,22,18,12,10,43,,40,40,7,6,4,4,0.6,0.6
2026-02-26T2100,2929A,114.8858,30.4519,黄冈市,红卫路,,21,21,19,8,9,40,,40,38,8,8,2,2,0.5,0.5
2026-02-26T2100,3398A,114.9134,30.4446,黄冈市,市林业局,,26,22,17,18,10,51,,48,48,8,8,4,4,0.4,0.4
2026-02-26T2100,2672A,102.02,35.5101,黄南藏族自治州,同仁县隆务镇,颗粒物(PM10),60,69,54,38,26,77,,87,87,1,3,9,10,0.2,0.3
2026-02-26T2100,2295A,118.2905,29.6965,黄山市,延安路89号,,9,6,12,3,9,26,,30,27,10,9,4,4,0.7,0.6
2026-02-26T2100,2297A,118.1369,30.2755,黄山市,黄山区政府5号楼,,12,6,12,3,6,36,,31,31,10,8,2,2,0.7,0.6
2026-02-26T2100,4210A,118.335445,29.720283,黄山市,滨江东路7-2号,,19,19,24,3,7,30,,29,23,8,9,/,/,/,/
2026-02-26T2100,2423A,115.0547,30.2332,黄石市,沈家营,,,21,22,12,10,46,,55,54,,2,,68,0.7,0.8
2026-02-26T2100,2426A,114.899,30.211,黄石市,铁山,,44,44,24,26,12,42,,40,40,5,7,5,5,1.1,0.8
2026-02-26T2100,2427A,115.0259,30.2108,黄石市,团城山,,29,26,24,20,12,28,,28,28,8,9,6,6,0.8,0.8
2026-02-26T2100,3149A,115.0174,30.1591,黄石市,笔架山北路,,27,27,30,15,15,29,,26,26,12,15,7,6,1.2,1.1
2026-02-26T2100,4185A,115.078022,30.21118,黄石市,磁湖东路29号,,24,24,26,8,13,39,,34,34,1,4,4,8,1.0,1.1
2026-02-26T2100,1392A,114.4181,23.0528,惠州市,河南岸金山湖子站,,35,35,23,21,13,60,,80,77,14,9,6,6,0.6,0.6
2026-02-26T2100,1393A,114.4055,23.0824,惠州市,下埔横江三路子站,,38,38,24,22,13,61,,84,81,17,11,7,7,0.7,0.6
2026-02-26T2100,1395A,114.4645,22.7832,惠州市,惠阳区承修路船湖子站,,32,32,23,17,11,71,,79,77,13,8,6,6,0.6,0.5
2026-02-26T2100,1396A,114.5316,22.7423,惠州市,大亚湾管委会子站,,28,28,23,15,10,75,,79,78,15,7,7,7,0.5,0.5
2026-02-26T2100,3314A,114.4334,22.8134,惠州市,惠阳秋长,,29,29,20,14,10,83,,90,90,14,8,/,/,/,/
2026-02-26T2100,3452A,114.6521,22.7755,惠州市,大亚湾霞涌,,29,29,21,12,10,87,,89,89,15,10,/,/,/,/
2026-02-26T2100,4300A,114.4089,23.1147,惠州市,文华一路1号,,35,35,22,20,13,62,,85,81,16,10,/,/,/,/
2026-02-26T2100,2240A,130.9618,45.2926,鸡西市,环保局,颗粒物(PM10),62,73,74,38,33,71,,73,71,10,13,6,7,0.3,0.3
2026-02-26T2100,2243A,130.9294,45.2959,鸡西市,第一中学,细颗粒物(PM2.5),59,56,61,42,28,66,,77,70,13,10,5,5,0.4,0.4
2026-02-26T2100,3707A,131.0069,45.2988,鸡西市,欧美日汽修厂,颗粒物(PM10),53,55,90,34,48,70,,68,68,9,18,7,13,0.6,0.8
2026-02-26T2100,2367A,114.9753,27.0803,吉安市,红声器材厂,,45,45,37,11,19,10,,17,10,21,17,9,9,0.9,0.6
2026-02-26T2100,2369A,114.9903,27.1313,吉安市,市环境监测站,,20,20,28,8,20,14,,19,13,15,16,7,7,/,/
2026-02-26T2100,2370A,115.009527,27.096792,吉安市,青原区法院,,20,20,27,11,19,12,,18,13,17,15,4,5,1.0,0.8
2026-02-26T2100,1772A,126.54,43.8622,吉林市,哈达湾,,49,49,77,26,26,72,,75,75,11,10,9,10,0.5,0.6
2026-02-26T2100,1773A,126.5843,43.8358,吉林市,东局子,,38,38,60,22,24,75,,73,73,9,11,4,6,0.4,0.7
2026-02-26T2100,1774A,126.5051,43.8243,吉林市,电力学院,,39,39,62,23,23,73,,75,75,12,10,8,9,0.6,0.5
2026-02-26T2100,1775A,126.6133,43.8971,吉林市,江北,,46,46,71,23,20,73,,77,77,7,7,8,7,0.8,0.6
2026-02-26T2100,1776A,126.5549,43.8304,吉林市,江南公园,,41,41,69,25,25,65,,66,66,13,12,8,10,0.6,0.7
2026-02-26T2100,2868A,126.4737,43.953,吉林市,九站,颗粒物(PM10),58,65,74,38,30,59,,70,70,16,12,13,14,0.7,0.6
2026-02-26T2100,1299A,116.9866,36.6118,济南市,科干所,颗粒物(PM10),96,141,119,56,60,48,,54,35,31,25,9,6,0.8,0.7
2026-02-26T2100,1300A,116.9379,36.6652,济南市,农科所,颗粒物(PM10),96,142,114,44,69,45,,48,31,35,27,6,5,0.8,0.7
2026-02-26T2100,1301A,117.1265,36.6736,济南市,开发区,颗粒物(PM10),96,142,118,37,69,57,,59,39,28,25,8,4,0.8,0.7
2026-02-26T2100,1303A,117.0616,36.6865,济南市,省种子仓库,颗粒物(PM10),100,149,125,37,67,60,,58,42,25,24,10,5,0.6,0.6
2026-02-26T2100,1304A,116.9495185,36.644937,济南市,机床二厂,颗粒物(PM10),92,134,106,50,71,54,,54,36,27,21,8,5,0.7,0.4
2026-02-26T2100,1305A,117.0496,36.6629,济南市,市监测站,颗粒物(PM10),99,147,123,39,70,55,,53,36,29,27,7,4,0.7,0.6
2026-02-26T2100,1306A,116.7674,36.5458,济南市,长清党校,细颗粒物(PM2.5),168,230,122,127,66,16,,45,29,50,23,4,4,1.0,0.7
2026-02-26T2100,1961A,117.5323,36.6865,济南市,东山小学,颗粒物(PM10),92,134,130,35,60,51,,56,46,30,26,5,4,0.5,0.6
2026-02-26T2100,3059A,117.7181,36.205,济南市,泰兴公司,颗粒物(PM10),92,134,102,58,64,50,,52,52,31,26,9,8,0.7,0.7
2026-02-26T2100,3064A,117.6861,36.2172,济南市,莱芜战役纪念馆,颗粒物(PM10),91,132,108,49,63,50,,47,47,31,24,6,5,0.4,0.8
2026-02-26T2100,3494A,117.1673,36.9782,济南市,济阳区政府,颗粒物(PM10),94,137,117,49,64,46,,48,41,16,21,7,8,0.3,0.4
2026-02-26T2100,3495A,117.1168,36.6299,济南市,锦屏中学,颗粒物(PM10),96,142,120,44,71,54,,56,35,26,21,9,6,0.9,0.9
2026-02-26T2100,4108A,117.7107,36.2385,济南市,山财大街5号,颗粒物(PM10),86,122,98,37,60,52,,50,50,36,29,10,9,0.6,0.6
2026-02-26T2100,4109A,116.9744,36.6889,济南市,无影山路12号,颗粒物(PM10),87,124,107,38,66,51,,48,34,28,24,9,5,0.7,0.6
2026-02-26T2100,1653A,116.6229,35.4288,济宁市,火炬城,细颗粒物(PM2.5),94,136,89,70,52,31,,45,45,23,18,3,3,0.7,0.6
2026-02-26T2100,3500A,116.5808,35.3703,济宁市,北湖一中,细颗粒物(PM2.5),104,121,84,78,54,36,,46,46,21,15,6,5,0.6,0.5
2026-02-26T2100,3501A,116.8251,35.5592,济宁市,服务中心,细颗粒物(PM2.5),114,106,97,86,59,21,,49,47,34,21,2,2,0.6,0.6
2026-02-26T2100,3678A,116.5907,35.4054,济宁市,市第七中学,细颗粒物(PM2.5),105,125,86,79,51,37,,50,50,25,18,5,5,0.7,0.6
2026-02-26T2100,4111A,116.6075,35.4566,济宁市,任和路,颗粒物(PM10),101,151,94,72,51,30,,47,46,24,18,4,4,1.1,0.9
2026-02-26T2100,4112A,116.5648,35.3921,济宁市,文体南路1号,细颗粒物(PM2.5),107,145,97,80,52,36,,47,47,22,15,2,2,0.5,0.4
2026-02-26T2100,2255A,130.2749,46.8028,佳木斯市,佳纺,颗粒物(PM10),56,62,42,25,21,62,,74,65,10,13,6,6,0.4,0.4
2026-02-26T2100,2257A,130.3258,46.7975,佳木斯市,环保局,,32,31,36,22,18,54,,82,72,18,13,9,8,0.3,0.4
2026-02-26T2100,4285A,130.363,46.806,佳木斯市,顺和街,,38,32,31,26,21,58,,75,67,16,14,8,7,0.3,0.4
2026-02-26T2100,4286A,130.3952,46.8268,佳木斯市,长安路196号,,32,32,26,22,15,67,,81,74,10,9,4,4,0.4,0.3
2026-02-26T2100,1252A,120.7439,30.778,嘉兴市,清河小学,,13,12,26,3,11,34,,69,48,25,20,6,6,0.4,0.4
2026-02-26T2100,1253A,120.7261,30.7477,嘉兴市,嘉兴学院,,,10,27,8,15,,,68,49,21,19,,5,0.7,0.8
2026-02-26T2100,2872A,120.7845,30.7524,嘉兴市,南湖区残联,,20,,21,14,18,35,,72,51,25,17,4,4,0.6,0.5
2026-02-26T2100,3407A,120.6915,30.7741,嘉兴市,秀洲住建,,12,12,26,7,13,37,,73,49,20,18,6,7,0.5,0.5
2026-02-26T2100,1945A,98.291,39.7705,嘉峪关市,气象局,颗粒物(PM10),96,141,65,42,23,60,,75,74,22,17,11,29,0.6,1.1
2026-02-26T2100,2884A,98.2672,39.7978,嘉峪关市,酒钢宾馆,颗粒物(PM10),96,141,79,37,23,54,,64,64,23,22,12,43,0.6,1.1
2026-02-26T2100,3248A,98.2644,39.7723,嘉峪关市,雄关区,颗粒物(PM10),80,110,64,33,22,60,,72,72,22,23,4,23,0.6,0.9
2026-02-26T2100,1383A,113.1063,22.6058,江门市,北街,,26,23,24,18,13,66,,74,74,15,15,/,/,/,/
2026-02-26T2100,1384A,113.073,22.5835,江门市,西区,,39,39,26,16,13,70,,79,78,14,12,/,/,/,/
2026-02-26T2100,1385A,113.0218,22.531,江门市,圭峰西,,29,23,26,20,16,69,,76,76,9,9,/,/,/,/
2026-02-26T2100,1386A,113.0826,22.5947,江门市,东湖,,42,42,28,17,14,69,,76,76,10,9,7,7,0.4,0.4
2026-02-26T2100,3311A,113.1077,22.5647,江门市,江海富民,,49,49,40,18,14,70,,78,78,16,14,/,/,0.4,0.3
2026-02-26T2100,3449A,113.0496,22.4669,江门市,新会银湖,,31,31,27,15,14,71,,75,75,15,16,6,6,0.4,0.4
2026-02-26T2100,3335A,113.3137,35.2643,焦作市,马村街道办,细颗粒物(PM2.5),58,54,50,41,45,34,,36,36,17,14,7,7,0.5,0.5
2026-02-26T2100,3336A,113.2464,35.2374,焦作市,焦作技师学院,,45,42,37,31,29,32,,32,31,16,14,7,7,0.7,0.7
2026-02-26T2100,3477A,113.1656,35.2536,焦作市,中站许衡医院,颗粒物(PM10),59,68,49,35,32,36,,37,35,17,13,7,7,0.7,0.7
2026-02-26T2100,3981A,113.2456,35.18,焦作市,原李万街道办,颗粒物(PM10),56,61,46,32,31,30,,36,36,20,12,6,6,0.6,0.6
2026-02-26T2100,4264A,113.234,35.219,焦作市,新安路1731号,颗粒物(PM10),56,61,48,28,37,38,,42,40,18,15,8,8,0.4,0.4
2026-02-26T2100,4295A,113.2722,35.2121,焦作市,人民路3066号,颗粒物(PM10),51,51,46,28,30,34,,41,41,21,16,5,5,0.6,0.6
2026-02-26T2100,1708A,116.3701,23.5345,揭阳市,新兴,颗粒物(PM10),57,63,34,36,21,58,,79,77,27,16,8,7,0.8,0.6
2026-02-26T2100,1709A,116.3261,23.5442,揭阳市,西马,细颗粒物(PM2.5),82,98,42,60,28,57,,80,78,12,9,6,9,0.8,0.6
2026-02-26T2100,1710A,116.361,23.5627,揭阳市,东兴,细颗粒物(PM2.5),68,72,38,49,26,63,,78,77,22,15,7,7,/,/
2026-02-26T2100,1711A,116.4151,23.5295,揭阳市,渔湖,细颗粒物(PM2.5),54,44,30,38,20,63,,91,89,23,12,4,5,/,/
2026-02-26T2100,3320A,116.4028,23.5699,揭阳市,曲溪,颗粒物(PM10),54,58,34,30,20,66,,89,88,23,15,10,11,1.3,0.7
2026-02-26T2100,1944A,102.1691,38.5166,金昌市,天庆家园,颗粒物(PM10),59,68,85,14,23,64,,80,77,7,6,4,6,0.4,0.5
2026-02-26T2100,4022A,102.1648,38.5369,金昌市,金川区人防中心,颗粒物(PM10),59,67,81,28,25,64,,82,80,6,4,5,8,0.5,0.5
2026-02-26T2100,4239A,102.193042,38.531887,金昌市,长春路96号,颗粒物(PM10),66,82,83,24,25,61,,84,81,10,7,6,20,0.5,0.4
2026-02-26T2100,1262A,119.6478,29.0773,金华市,十五中,,18,18,33,12,21,25,,49,26,22,22,3,4,0.6,0.5
2026-02-26T2100,1263A,119.6859,29.1032,金华市,监测站,,23,22,35,16,25,6,,36,12,25,21,2,2,0.6,0.5
2026-02-26T2100,3659A,119.656,29.1132,金华市,气象局,,23,23,34,16,24,11,,31,10,24,24,2,2,0.6,0.7
2026-02-26T2100,1767A,121.1114,41.0879,锦州市,南山,,35,35,61,19,30,62,,77,72,14,16,10,9,0.5,0.5
2026-02-26T2100,1768A,121.060361,40.842794,锦州市,开发区,,42,42,76,23,29,59,,71,68,13,16,5,5,0.5,0.6
2026-02-26T2100,1769A,121.1836,41.1118,锦州市,百股街道,细颗粒物(PM2.5),52,50,68,36,33,56,,74,68,14,16,9,15,0.6,0.6
2026-02-26T2100,1770A,121.1176,41.1224,锦州市,天安街道,,34,34,64,19,29,55,,75,68,18,16,8,8,0.5,0.6
2026-02-26T2100,1771A,121.1303,41.1385,锦州市,北湖公园,,34,34,62,22,31,61,,81,74,14,13,9,7,0.6,0.5
2026-02-26T2100,2160A,112.8496,35.5051,晋城市,自来水公司,,33,33,39,20,17,40,,49,33,10,10,3,4,0.5,0.5
2026-02-26T2100,2162A,112.8509,35.4886,晋城市,市环保局,,17,17,32,10,18,42,,53,35,12,12,4,4,0.5,0.4
2026-02-26T2100,3620A,112.8258,35.4804,晋城市,泽州一中,,,,38,32,20,,,52,32,10,11,3,3,0.4,0.8
2026-02-26T2100,4078A,112.8246,35.5152,晋城市,前书院路,,20,16,38,14,20,36,,38,30,12,12,5,5,0.5,0.5
2026-02-26T2100,4079A,112.8864,35.4773,晋城市,祥云街666号,,24,24,29,15,23,40,,47,34,9,10,5,5,0.4,0.4
2026-02-26T2100,2174A,112.6992,37.6984,晋中市,榆次区政府,,38,36,89,26,60,44,,59,46,19,19,7,8,0.4,0.5
2026-02-26T2100,2865A,112.7195,37.683,晋中市,榆次三中,,39,39,86,23,51,47,,64,47,14,13,6,7,0.4,0.5
2026-02-26T2100,4080A,112.7375,37.7215,晋中市,广安街188号,,42,31,97,29,57,43,,58,46,17,20,8,9,0.4,0.5
2026-02-26T2100,4200A,112.7478,37.6954,晋中市,迎宾街26号,,46,39,86,32,58,45,,61,46,18,18,6,7,0.2,0.3
2026-02-26T2100,2439A,112.2012,31.048,荆门市,竹园小学,,33,,34,23,22,36,,52,46,16,15,1,3,1.6,1.4
2026-02-26T2100,2440A,112.1968,30.9892,荆门市,掇刀,,33,33,32,15,25,45,,60,53,12,11,5,4,0.6,0.6
2026-02-26T2100,3012A,112.1849,31.0361,荆门市,西山林语,,35,35,34,13,23,39,,55,47,11,11,2,3,0.6,0.6
2026-02-26T2100,3547A,112.1631,31.0134,荆门市,龙泉中学南校,,,,,,,,,,,,,,,,
2026-02-26T2100,4124A,112.2213,31.0654,荆门市,新台西路6号,,39,32,32,27,27,39,,53,46,10,9,8,8,0.5,0.4
2026-02-26T2100,1844A,112.2493,30.3198,荆州市,市图书馆,,,27,21,23,19,,,64,64,18,12,6,6,0.8,0.7
2026-02-26T2100,1845A,112.2009,30.3543,荆州市,市委党校,,30,24,29,21,23,30,,55,50,22,16,5,5,0.5,0.5
2026-02-26T2100,3194A,112.2749,30.3124,荆州市,管委会,,29,,20,20,20,39,,59,55,16,13,7,8,0.6,0.6
2026-02-26T2100,4268A,112.1722,30.3366,荆州市,学苑路85号,,32,25,30,22,24,39,,64,58,12,9,1,1,0.7,0.6
2026-02-26T2100,2343A,117.2114,29.2931,景德镇市,老干部活动中心,,10,7,11,3,6,10,,20,18,14,8,4,4,1.0,0.8
2026-02-26T2100,2344A,117.1893,29.2789,景德镇市,兽医站,,14,14,17,3,6,14,,22,20,6,9,3,4,0.7,0.6
2026-02-26T2100,2346A,117.246,29.2958,景德镇市,陶研所,,,,10,11,5,9,,20,19,26,18,3,3,,0.6
2026-02-26T2100,4289A,117.154766,29.256967,景德镇市,青少年活动中心,,8,6,12,3,7,13,,14,13,16,12,3,4,/,/
2026-02-26T2100,1803A,115.9873,29.6816,九江市,十里,,20,20,31,14,25,44,,24,24,18,26,6,6,0.6,0.8
2026-02-26T2100,1804A,115.9583,29.7047,九江市,茅山头,,,32,30,,24,35,,20,20,9,20,4,4,0.6,0.7
2026-02-26T2100,1805A,115.9877,29.7295,九江市,西园,,21,21,30,6,18,37,,25,25,22,26,3,3,0.6,0.7
2026-02-26T2100,1808A,115.9112,29.6038,九江市,综合工业园,,14,,24,3,15,42,,23,23,19,29,5,6,0.6,0.7
2026-02-26T2100,3190A,116.0254,29.6995,九江市,外国语学校,,26,26,27,7,21,34,,20,20,12,22,3,6,0.7,0.4
2026-02-26T2100,4253A,116.010205,29.659402,九江市,莲花大道8号,,19,19,31,3,11,41,,24,24,13,26,2,4,0.5,0.6
2026-02-26T2100,4240A,98.495752,39.733935,酒泉市,玉门东路5号,颗粒物(PM10),101,151,54,60,21,49,,72,69,17,7,11,10,0.9,0.5
2026-02-26T2100,4241A,98.5099,39.7506,酒泉市,北大街108号,颗粒物(PM10),70,90,41,43,18,56,,76,72,11,6,14,15,0.6,0.4
2026-02-26T2100,2698A,76.0071,39.466,喀什地区,巡警大队,颗粒物(PM10),500,1152,1583,434,475,68,,78,77,15,10,4,3,0.5,0.5
2026-02-26T2100,2699A,75.9756,39.4693,喀什地区,吾办,颗粒物(PM10),500,1016,1445,361,449,59,,72,72,17,8,4,2,0.3,0.3
2026-02-26T2100,4027A,75.9485,39.4688,喀什地区,老干局,颗粒物(PM10),500,1053,1551,316,409,69,,77,77,9,6,3,3,0.4,0.4
2026-02-26T2100,1824A,114.3389,34.778,开封市,肿瘤医院,,49,46,41,34,36,50,,55,55,15,14,7,6,0.6,0.6
2026-02-26T2100,1826A,114.2884,34.7966,开封市,世纪星幼儿园,,50,37,38,35,37,49,,52,52,15,14,6,6,0.6,0.6
2026-02-26T2100,3147A,114.3434,34.8101,开封市,龙亭公园,,48,45,40,33,34,46,,50,50,18,18,7,8,0.7,0.4
2026-02-26T2100,3210A,114.3645,34.7955,开封市,汴京公园,,50,42,44,35,32,46,,50,50,17,16,4,4,0.5,0.5
2026-02-26T2100,3473A,114.2485,34.8306,开封市,技师学院,,38,36,38,26,32,48,,52,52,12,14,7,7,0.7,0.7
2026-02-26T2100,3592A,114.4518,34.7503,开封市,祥符区生态环境局,细颗粒物(PM2.5),60,53,51,43,39,31,,50,49,30,18,16,6,0.9,0.7
2026-02-26T2100,1951A,84.886,45.6029,克拉玛依市,长征新村,,24,24,21,15,11,68,,81,79,5,2,7,6,0.5,0.5
2026-02-26T2100,1952A,84.8894,45.5827,克拉玛依市,南林小区,,27,27,21,3,2,74,,85,82,2,3,2,2,0.5,0.5
2026-02-26T2100,1954A,84.896,44.3328,克拉玛依市,独山子区,细颗粒物(PM2.5),58,44,72,41,39,53,,75,67,27,11,3,3,0.5,0.5
2026-02-26T2100,1955A,85.6888,46.0909,克拉玛依市,乌尔禾区商贸楼,,34,34,22,14,7,79,,84,84,9,6,10,9,0.4,0.3
2026-02-26T2100,3612A,85.1045,45.6895,克拉玛依市,白碱滩区新站,,26,26,30,9,6,73,,85,80,11,8,10,10,0.2,0.2
2026-02-26T2100,2697A,76.1457,39.7143,克孜勒苏柯尔克孜自治州,市人民政府,颗粒物(PM10),500,1108,1453,340,365,78,,85,85,6,4,4,4,0.3,0.3
2026-02-26T2100,3665A,76.1654,39.7157,克孜勒苏柯尔克孜自治州,克州文化中心,颗粒物(PM10),500,1229,1491,356,380,71,,78,78,14,7,6,5,0.7,0.4
2026-02-26T2100,1450A,102.8203,24.889,昆明市,呈贡新区,,42,34,30,29,26,100,,122,117,9,8,3,4,0.5,0.6
2026-02-26T2100,1452A,102.7253,25.0904,昆明市,龙泉镇,,48,48,33,29,29,84,,112,105,13,9,6,4,0.5,0.4
2026-02-26T2100,1453A,102.7267,25.0378,昆明市,东风东路,,40,32,34,28,28,98,,115,110,10,10,4,4,0.6,0.6
2026-02-26T2100,1454A,102.6744,25.0671,昆明市,金鼎山,,47,47,36,28,29,94,,119,111,17,12,6,4,0.7,0.6
2026-02-26T2100,1455A,102.6643,25.0401,昆明市,碧鸡广场,,50,,33,35,29,86,,113,106,19,12,5,5,0.6,0.6
2026-02-26T2100,3179A,102.7491,25.012,昆明市,官渡区博物馆,,48,,33,33,28,97,,116,111,12,9,3,3,0.5,0.5
2026-02-26T2100,3375A,102.8016,24.8336,昆明市,青年创业园,,36,34,29,25,27,96,,115,111,6,5,4,5,0.7,0.7
2026-02-26T2100,3550A,102.8,24.9787,昆明市,昆明学院,,39,38,35,27,26,92,,117,112,9,6,3,4,0.6,0.6
2026-02-26T2100,3551A,102.5969,24.6738,昆明市,晋宁区生态环境分局,颗粒物(PM10),54,58,31,23,30,98,,110,108,8,6,1,2,0.5,0.5
2026-02-26T2100,3552A,102.6673,24.9861,昆明市,云天化总部,,32,27,33,21,24,102,,117,113,7,7,7,7,0.4,0.5
2026-02-26T2100,1456A,91.132,29.6515,拉萨市,八廓街,,31,17,14,8,8,99,,116,115,17,10,10,8,0.7,0.6
2026-02-26T2100,1457A,91.1221,29.6748,拉萨市,市环保局,,23,23,17,13,10,60,,109,104,42,16,7,4,1.2,0.9
2026-02-26T2100,1458A,91.0874,29.6476,拉萨市,区监测站,,30,9,10,7,6,94,,109,108,22,17,5,4,0.6,0.7
2026-02-26T2100,1459A,91.1774,29.6541,拉萨市,西藏大学,,29,25,11,11,7,90,,113,111,28,10,7,4,1.0,0.6
2026-02-26T2100,1460A,90.9798,29.6586,拉萨市,区辐射站,,39,39,14,19,9,85,,108,106,24,10,6,4,0.6,0.4
2026-02-26T2100,1461A,91.0831,29.6292,拉萨市,拉萨火车站,,31,11,10,7,7,97,,109,109,12,15,5,4,0.6,0.5
2026-02-26T2100,2520A,109.2203,23.7252,来宾市,来宾技工学校,,30,30,70,15,62,27,,34,34,15,26,19,13,0.8,1
2026-02-26T2100,3535A,109.1781,23.7293,来宾市,兴宾区政府,,,,63,,52,,,50,45,,14,,7,,0.9
2026-02-26T2100,4002A,109.2312,23.7428,来宾市,中南小学,,33,26,67,23,68,14,,28,27,25,23,5,5,0.9,1
2026-02-26T2100,1479A,103.8309,36.0467,兰州市,铁路设计院,,,,,,,,,,,,,,,,
2026-02-26T2100,3241A,103.7439,36.0841,兰州市,百合公园,颗粒物(PM10),99,147,116,50,45,81,,79,79,7,33,6,17,0.5,0.8
2026-02-26T2100,3242A,103.9613,35.9985,兰州市,和平,颗粒物(PM10),114,177,134,54,45,,,96,96,16,18,17,18,0.7,0.9
2026-02-26T2100,4236A,103.629272,36.093822,兰州市,庄浪东路808号,颗粒物(PM10),107,163,124,44,42,84,,89,89,12,26,3,14,0.5,0.6
2026-02-26T2100,4237A,103.7251,36.104344,兰州市,安宁西路88号,颗粒物(PM10),107,164,143,45,41,92,,93,93,3,24,7,21,0.3,0.5
2026-02-26T2100,4238A,103.846982,36.067567,兰州市,北滨河东路1号,颗粒物(PM10),106,161,121,48,42,83,,91,91,19,37,8,16,0.4,0.9
2026-02-26T2100,1067A,116.6712,39.5109,廊坊市,药材公司,,50,50,99,20,62,50,,49,49,17,29,2,1,0.5,0.7
2026-02-26T2100,1068A,116.7215,39.5592,廊坊市,开发区,,39,39,99,19,65,54,,52,52,17,32,2,2,0.4,0.6
2026-02-26T2100,1070A,116.7246,39.5273,廊坊市,北华航天学院,,36,36,100,15,64,54,,53,53,16,32,5,4,0.4,0.6
2026-02-26T2100,2919A,116.7022,39.5454,廊坊市,河北工业大学,,40,40,108,20,63,49,,44,44,12,28,2,2,0.4,0.6
2026-02-26T2100,2536A,103.7629,29.5844,乐山市,牛耳桥,,49,49,50,25,27,92,,104,103,18,16,6,6,0.6,0.6
2026-02-26T2100,2537A,103.7501,29.6002,乐山市,市第三水厂,,50,50,51,24,28,88,,103,102,19,18,4,4,0.6,0.7
2026-02-26T2100,2538A,103.7571,29.5664,乐山市,市监测站,,45,45,51,21,26,90,,99,98,12,13,7,7,0.8,0.7
2026-02-26T2100,3361A,103.7313,29.563,乐山市,理工大学,,45,45,48,24,26,92,,101,101,9,9,5,5,0.7,0.7
2026-02-26T2100,2599A,100.2497,26.8802,丽江市,丽江古城,,36,29,25,20,14,115,,119,118,10,9,9,9,0.5,0.4
2026-02-26T2100,2600A,100.2203,26.8906,丽江市,市中心,,36,,18,23,16,115,,124,121,11,9,7,6,0.5,0.4
2026-02-26T2100,1267A,119.9141,28.4513,丽水市,监测站大楼,,14,14,10,9,7,34,,55,40,13,8,4,4,0.4,0.4
2026-02-26T2100,1268A,119.93,28.4589,丽水市,莲都小学,,15,13,11,10,6,32,,55,41,16,10,/,/,/,/
2026-02-26T2100,1269A,119.8794,28.4232,丽水市,余庄前,,18,18,14,11,8,9,,51,24,22,11,4,4,0.5,0.4
2026-02-26T2100,1173A,119.1759,34.5885,连云港市,市环境监测站,,24,7,25,7,9,76,,80,72,15,14,5,6,0.3,0.3
2026-02-26T2100,3000A,119.3577,34.6971,连云港市,德源药业,,26,6,28,3,10,82,,79,78,8,9,5,6,0.4,0.6
2026-02-26T2100,3007A,119.178,34.8442,连云港市,新城一中,,42,42,57,20,18,80,,93,87,15,15,7,7,0.5,0.4
2026-02-26T2100,3008A,119.3607,34.7519,连云港市,胡沟管理处,,28,17,30,9,12,89,,89,89,6,15,10,11,0.6,0.5
2026-02-26T2100,3009A,119.1478,34.5913,连云港市,矿山设计院,,25,6,25,3,7,80,,80,76,13,15,6,6,0.4,0.4
2026-02-26T2100,3434A,119.2414,34.6539,连云港市,工贸学校,,25,12,34,6,12,79,,83,78,8,8,9,9,0.5,0.5
2026-02-26T2100,3664A,119.4171,34.734,连云港市,连云街道,,30,30,45,10,15,86,,91,87,14,13,6,6,0.5,0.5
2026-02-26T2100,2573A,102.2629,27.8981,凉山彝族自治州,西昌市政府,细颗粒物(PM2.5),104,,38,78,53,106,,115,113,7,7,14,12,0.6,0.7
2026-02-26T2100,2574A,102.2686,27.885,凉山彝族自治州,凉山州政府,,48,38,42,33,33,99,,106,105,10,9,14,12,0.5,0.5
2026-02-26T2100,4229A,102.2342,27.8859,凉山彝族自治州,凯乐南路30号,,42,42,45,29,30,108,,110,110,15,15,24,17,0.8,0.7
2026-02-26T2100,2212A,123.1978,41.2036,辽阳市,宏伟区,颗粒物(PM10),58,65,91,39,42,49,,66,55,19,16,9,8,0.6,0.6
2026-02-26T2100,2213A,123.1684,41.2497,辽阳市,新华园,细颗粒物(PM2.5),105,118,95,79,48,26,,61,48,46,24,11,9,1.0,0.8
2026-02-26T2100,2214A,123.2355,41.2663,辽阳市,滨河路,颗粒物(PM10),62,73,92,42,44,40,,60,48,26,21,15,9,0.7,0.7
2026-02-26T2100,4083A,123.153,41.2874,辽阳市,铁西路150号,细颗粒物(PM2.5),118,118,95,89,47,,,57,52,40,22,11,10,1.0,0.8
2026-02-26T2100,2227A,125.1359,42.8845,辽源市,环保局,颗粒物(PM10),58,65,73,34,32,74,,77,77,10,10,5,7,0.7,0.8
2026-02-26T2100,4085A,125.0998,42.9134,辽源市,安宁大街333号,细颗粒物(PM2.5),53,52,88,37,37,68,,75,74,8,8,4,3,0.6,0.6
2026-02-26T2100,1625A,115.9789,36.4372,聊城市,区政府,细颗粒物(PM2.5),125,151,90,95,51,31,,66,56,22,15,11,12,0.9,0.8
2026-02-26T2100,3200A,115.9772,36.4986,聊城市,监控中心,细颗粒物(PM2.5),127,145,93,96,54,29,,66,55,21,17,9,9,0.7,0.6
2026-02-26T2100,3513A,116.0443,36.436,聊城市,九州社区,细颗粒物(PM2.5),130,155,95,99,55,30,,70,55,16,16,2,2,1.2,0.7
2026-02-26T2100,4018A,116.0564,36.4609,聊城市,星美广场,细颗粒物(PM2.5),128,153,103,97,58,28,,64,52,20,17,3,4,0.8,0.8
2026-02-26T2100,4113A,116.0091,36.4495,聊城市,利民路,细颗粒物(PM2.5),123,148,90,93,55,31,,70,60,24,17,7,7,0.8,0.8
2026-02-26T2100,2632A,94.3683,29.6373,林芝市,林芝监测站,,35,19,14,19,12,109,,112,112,1,2,5,4,0.3,0.4
2026-02-26T2100,2633A,94.3616,29.6634,林芝市,林芝人民医院,,35,30,18,18,14,111,,116,115,1,2,7,7,0.2,0.3
2026-02-26T2100,2603A,100.0779,23.8981,临沧市,市环保局,细颗粒物(PM2.5),84,72,51,62,49,54,,72,72,14,8,6,6,1.2,1
2026-02-26T2100,2604A,100.0894,23.882,临沧市,市气象局,细颗粒物(PM2.5),68,62,56,49,49,62,,78,78,14,9,8,8,1.1,0.9
2026-02-26T2100,1733A,111.5552,36.0791,临汾市,临钢医院,细颗粒物(PM2.5),84,78,92,62,65,27,,43,39,23,20,10,9,1.3,1.5
2026-02-26T2100,1734A,111.4984,36.0734,临汾市,技工学校,细颗粒物(PM2.5),95,84,87,71,74,22,,41,36,23,19,16,10,1.1,1.2
2026-02-26T2100,1736A,111.5017,36.0857,临汾市,市委,细颗粒物(PM2.5),82,81,97,60,60,25,,43,39,24,18,11,9,1.4,1.5
2026-02-26T2100,3018A,111.5048,36.1015,临汾市,唐尧大酒店,细颗粒物(PM2.5),73,77,96,53,63,31,,44,41,24,20,9,9,1.0,1.4
2026-02-26T2100,4244A,111.4879,36.053,临汾市,启星学校,细颗粒物(PM2.5),104,93,85,78,67,14,,38,32,37,24,16,11,1.3,1.4
2026-02-26T2100,4271A,103.2464,35.6123,临夏回族自治州,滨河东路1号,细颗粒物(PM2.5),160,252,181,122,82,30,,81,74,56,23,18,11,1.5,1
2026-02-26T2100,4310A,103.207136,35.599807,临夏回族自治州,新华街21号,颗粒物(PM10),153,256,177,97,76,53,,85,76,31,18,21,11,1.2,1
2026-02-26T2100,1618A,118.3429,35.0532,临沂市,沂河小区,颗粒物(PM10),52,53,55,31,26,56,,69,64,15,12,8,8,0.4,0.4
2026-02-26T2100,1619A,118.2962,35.0568,临沂市,鲁南制药厂,,45,41,48,31,25,57,,67,62,20,16,10,10,0.5,0.5
2026-02-26T2100,1620A,118.2793,34.9976,临沂市,新光毛纺厂,,45,31,44,31,32,56,,70,64,16,13,7,8,0.6,0.6
2026-02-26T2100,1621A,118.3955,35.0889,临沂市,河东保险公司,颗粒物(PM10),57,63,54,36,28,55,,72,67,21,18,8,7,0.4,0.5
2026-02-26T2100,3370A,118.3563,35.0215,临沂市,十里堡居委,,48,39,48,33,25,60,,74,68,18,16,7,7,0.7,0.7
2026-02-26T2100,3496A,118.359,35.1067,临沂市,南坊新区,颗粒物(PM10),56,61,51,31,26,60,,75,70,19,14,8,8,0.6,0.6
2026-02-26T2100,3860A,118.3915,35.0297,临沂市,皇山花园小区,,48,46,46,33,27,58,,76,70,24,19,11,11,0.7,0.7
2026-02-26T2100,1870A,109.4854,24.3898,柳州市,柳东小学,,21,21,52,10,42,36,,33,33,12,19,3,4,0.6,0.8
2026-02-26T2100,1871A,109.4109,24.3304,柳州市,环保监测站,,,29,59,18,55,,,36,36,32,27,4,4,0.9,1.2
2026-02-26T2100,1872A,109.3886,24.3408,柳州市,河西水厂,,28,24,61,19,52,40,,42,42,19,22,8,8,0.7,0.8
2026-02-26T2100,1873A,109.4263,24.2951,柳州市,市四中,,32,29,72,22,60,33,,36,36,25,26,6,6,0.6,1
2026-02-26T2100,1874A,109.396,24.3658,柳州市,市九中,,25,25,59,17,49,30,,33,33,22,19,7,7,0.7,0.8
2026-02-26T2100,1875A,109.4912,24.3164,柳州市,古亭山,,20,16,57,14,58,21,,35,35,20,22,5,6,0.6,0.9
2026-02-26T2100,3402A,109.5422,24.3994,柳州市,市二中,,12,11,49,8,40,37,,33,33,14,21,5,5,0.4,0.5
2026-02-26T2100,2307A,116.5078,31.7369,六安市,监测大楼,,14,12,27,8,21,44,,36,36,13,15,3,3,0.3,0.4
2026-02-26T2100,2308A,116.4738,31.7642,六安市,皖西学院,,15,13,27,8,24,45,,40,37,12,13,4,4,0.3,0.4
2026-02-26T2100,2309A,116.4997,31.7904,六安市,朝阳厂,,15,8,25,7,24,47,,38,38,13,15,4,4,0.4,0.5
2026-02-26T2100,2310A,116.5566,31.7885,六安市,开发区,,15,,23,7,23,45,,40,36,11,12,4,4,0.3,0.4
2026-02-26T2100,2577A,104.8293,26.592,六盘水市,黄土坡,细颗粒物(PM2.5),62,54,37,44,28,92,,116,114,23,12,10,9,0.7,0.5
2026-02-26T2100,2579A,104.8481,26.5898,六盘水市,民中,细颗粒物(PM2.5),57,47,40,40,28,91,,115,113,26,11,5,5,0.6,0.5
2026-02-26T2100,2580A,104.9541,26.5506,六盘水市,双水,,41,41,41,27,27,110,,117,117,10,11,4,5,0.4,0.5
2026-02-26T2100,4151A,104.8899,26.5685,六盘水市,钟山大道中段564号,,49,45,49,34,28,104,,114,114,10,12,8,10,0.5,0.6
2026-02-26T2100,2336A,117.022,25.1031,龙岩市,龙岩市监测站,,18,14,14,12,11,15,,43,29,16,7,4,4,0.8,0.6
2026-02-26T2100,2337A,117.0257,25.0662,龙岩市,闽西职业技术学院,,10,10,13,6,11,14,,39,26,11,7,4,4,0.7,0.7
2026-02-26T2100,2338A,117.0195,25.0306,龙岩市,龙岩学院,,9,9,18,3,15,18,,38,28,10,8,2,2,/,/
2026-02-26T2100,2885A,104.9344,33.3827,陇南市,滨江中学,颗粒物(PM10),74,97,103,43,41,57,,71,70,16,14,7,7,1.0,0.8
2026-02-26T2100,3247A,104.9551,33.3709,陇南市,市总工会,颗粒物(PM10),76,102,91,42,36,55,,73,72,17,12,5,5,0.9,0.8
2026-02-26T2100,2488A,111.9984,27.7346,娄底市,市监测站,,10,9,33,6,23,31,,35,35,17,17,11,5,0.6,0.6
2026-02-26T2100,2491A,111.9888,27.7035,娄底市,市政府,,10,9,28,3,20,32,,33,33,9,11,3,3,0.4,0.5
2026-02-26T2100,4127A,111.9812,27.7591,娄底市,涟钢职大,,10,8,31,3,21,32,,39,34,10,12,3,3,0.5,0.6
2026-02-26T2100,4128A,112.0303,27.7457,娄底市,娄底体校,,,,37,,25,,,31,31,5,5,2,2,0.7,0.3
2026-02-26T2100,1894A,105.4427,28.9063,泸州市,小市上码头,,46,35,33,32,28,85,,97,97,13,12,6,6,0.6,0.7
2026-02-26T2100,1895A,105.4241,28.8573,泸州市,兰田宪桥,,50,50,46,29,26,83,,100,100,12,9,5,6,0.7,0.7
2026-02-26T2100,1896A,105.4378,28.8833,泸州市,市环监站,,41,41,37,26,26,79,,97,97,17,13,8,8,0.4,0.4
2026-02-26T2100,4272A,105.3689,28.7783,泸州市,纳溪中医医院,,50,50,50,26,29,77,,100,96,17,13,7,7,0.6,0.6
2026-02-26T2100,2183A,111.1447,37.5212,吕梁市,环保局,细颗粒物(PM2.5),109,122,106,82,61,34,,80,74,46,28,6,7,0.6,0.5
2026-02-26T2100,2185A,111.1285,37.5338,吕梁市,自来水公司,细颗粒物(PM2.5),107,109,106,80,55,49,,85,79,29,25,4,6,0.7,0.5
2026-02-26T2100,2867A,111.1225,37.5093,吕梁市,马茂庄小学,细颗粒物(PM2.5),102,124,120,76,60,40,,79,72,39,25,4,7,0.8,0.7
2026-02-26T2100,1812A,112.3934,34.6517,洛阳市,市委党校,,43,37,38,30,35,45,,38,38,18,19,6,6,0.7,0.7
2026-02-26T2100,1815A,112.494,34.6883,洛阳市,河南林校,,49,44,41,34,33,31,,35,35,27,18,9,13,0.6,0.4
2026-02-26T2100,1816A,112.3843,34.623,洛阳市,开发区管委会,,43,43,48,30,33,50,,44,44,15,17,8,8,0.6,0.5
2026-02-26T2100,1817A,112.4263,34.6249,洛阳市,市委新办公区,细颗粒物(PM2.5),54,45,45,38,38,44,,39,39,19,20,7,7,0.6,0.6
2026-02-26T2100,3340A,112.6005,34.6323,洛阳市,伊滨,,48,37,39,33,32,47,,44,44,17,18,8,8,0.6,0.6
2026-02-26T2100,3341A,112.495,34.6338,洛阳市,中移产业园,,42,39,37,29,35,39,,40,40,21,18,7,7,0.7,0.7
2026-02-26T2100,3593A,112.5736,34.8993,洛阳市,吉利监测站,,47,47,38,28,32,43,,37,37,19,18,7,8,0.6,0.6
2026-02-26T2100,3635A,112.3678,34.6623,洛阳市,河科大西苑校区,细颗粒物(PM2.5),54,,39,38,34,48,,42,42,23,23,7,7,0.7,0.7
2026-02-26T2100,3636A,112.4387,34.678,洛阳市,英才小学,细颗粒物(PM2.5),58,44,44,41,33,36,,37,37,25,20,9,8,0.6,0.7
2026-02-26T2100,4214A,112.460027,34.694929,洛阳市,春都路1号院,,46,42,39,32,31,34,,36,36,28,20,8,7,0.6,0.6
2026-02-26T2100,2399A,114.051,33.5721,漯河市,三五一五工厂,细颗粒物(PM2.5),52,44,34,36,31,47,,59,58,18,15,4,4,0.7,0.6
2026-02-26T2100,2400A,114.0055,33.5698,漯河市,漯河大学,细颗粒物(PM2.5),58,,29,41,31,50,,58,58,15,14,5,5,0.5,0.5
2026-02-26T2100,2401A,114.0134,33.5826,漯河市,市水利局,,44,44,28,29,27,49,,57,57,16,14,4,4,0.6,0.5
2026-02-26T2100,2402A,114.0261,33.5697,漯河市,市广电局,细颗粒物(PM2.5),52,37,25,36,26,47,,54,54,12,11,5,5,0.6,0.5
2026-02-26T2100,3478A,113.9691,33.568,漯河市,市图书馆,细颗粒物(PM2.5),53,42,32,37,25,49,,54,54,12,12,6,5,0.6,0.6
2026-02-26T2100,4250A,114.089259,33.588274,漯河市,韶山路11号,,49,,34,34,28,44,,56,56,17,16,6,6,0.8,0.7
2026-02-26T2100,1798A,118.5084,31.6838,马鞍山市,湖东路四小,,20,18,25,14,21,36,,50,30,21,19,6,5,0.5,0.5
2026-02-26T2100,1799A,118.5019,31.6449,马鞍山市,开发区,,28,23,27,19,21,32,,55,28,28,22,5,5,0.8,0.6
2026-02-26T2100,3633A,118.4914,31.681,马鞍山市,雨山,,23,23,29,12,19,28,,52,24,31,22,6,4,1.1,0.6
2026-02-26T2100,4191A,118.527362,31.722269,马鞍山市,慈湖高新区,,15,13,30,7,20,46,,54,35,14,18,4,4,0.3,0.3
2026-02-26T2100,1686A,111.0285,21.469,茂名市,电白南海,,,39,41,15,17,,,68,67,12,9,5,5,0.7,0.8
2026-02-26T2100,1687A,110.9294,21.6533,茂名市,茂石化七小,,44,44,44,18,19,48,,60,56,13,12,5,5,0.5,0.4
2026-02-26T2100,1688A,110.9108,21.6688,茂名市,健康路,,36,36,35,16,17,55,,68,64,12,11,3,3,0.6,0.5
2026-02-26T2100,1689A,110.8592,21.6826,茂名市,高岭,颗粒物(PM10),54,58,69,18,19,48,,60,53,19,15,2,2,/,/
2026-02-26T2100,3450A,111.0101,21.5165,茂名市,电白水东,,24,24,31,12,16,63,,66,65,17,16,3,3,/,/
2026-02-26T2100,2540A,103.8414,30.0871,眉山市,气象局,颗粒物(PM10),53,55,62,19,27,94,,113,112,10,13,5,6,0.3,0.4
2026-02-26T2100,3148A,103.829,30.0563,眉山市,区人社局,颗粒物(PM10),51,52,60,15,26,87,,103,102,14,18,7,8,1.2,1
2026-02-26T2100,4148A,103.8836,30.0695,眉山市,眉职院,,44,44,58,18,27,92,,109,106,10,13,5,6,0.6,0.6
2026-02-26T2100,1690A,116.1248,24.3307,梅州市,梅江月梅,,39,39,39,22,28,39,,55,52,12,12,/,/,/,/
2026-02-26T2100,1691A,116.0798,24.2719,梅州市,梅县新城,,40,31,38,28,27,43,,58,55,16,15,8,8,0.7,0.6
2026-02-26T2100,3315A,116.1234,24.2994,梅州市,梅龙,,48,36,27,33,26,40,,56,53,11,10,6,5,0.8,0.7
2026-02-26T2100,1878A,104.7775,31.4741,绵阳市,富乐山,颗粒物(PM10),52,54,40,31,22,69,,99,98,19,8,9,9,0.5,0.5
2026-02-26T2100,1880A,104.6698,31.4668,绵阳市,高新区自来水公司,颗粒物(PM10),61,72,47,39,23,65,,92,91,25,18,10,9,0.6,0.5
2026-02-26T2100,3491A,104.6899,31.5324,绵阳市,西科大附属小学,颗粒物(PM10),68,85,50,46,25,54,,99,96,34,21,9,8,0.6,0.5
2026-02-26T2100,3492A,104.5647,31.5343,绵阳市,安州区旅游局,颗粒物(PM10),62,73,50,43,27,57,,90,87,35,19,4,4,0.7,0.6
2026-02-26T2100,4146A,104.7092,31.4972,绵阳市,科技城新区公安局,颗粒物(PM10),53,55,45,36,22,72,,100,100,23,17,7,6,0.8,0.8
2026-02-26T2100,4226A,104.765114,31.453094,绵阳市,绵阳市气象局,颗粒物(PM10),60,70,44,32,21,63,,88,87,27,15,9,8,1.0,0.8
2026-02-26T2100,1784A,129.61,44.561,牡丹江市,环保大楼,,46,46,63,22,27,66,,66,66,10,12,4,4,0.3,0.4
2026-02-26T2100,1787A,129.6364,44.6075,牡丹江市,机车工厂,,50,50,63,19,22,68,,68,68,10,15,8,8,0.4,0.4
2026-02-26T2100,1788A,129.6386,44.5462,牡丹江市,第一中学,,40,39,59,28,26,65,,69,67,14,12,7,6,0.5,0.5
2026-02-26T2100,4287A,129.5992,44.5964,牡丹江市,东晓云街98号,,49,49,57,19,22,71,,76,76,10,12,5,7,0.5,0.5
2026-02-26T2100,2531A,105.0703,29.61,内江市,市监测站,,40,28,36,28,25,74,,86,86,9,12,7,7,0.4,0.5
2026-02-26T2100,2533A,105.0657,29.5807,内江市,内江二中,,45,45,42,25,24,71,,92,91,12,17,7,7,0.5,0.5
2026-02-26T2100,2534A,105.0407,29.5828,内江市,内江日报社,颗粒物(PM10),59,67,35,26,24,78,,96,95,17,16,9,8,0.4,0.4
2026-02-26T2100,4147A,105.0433,29.6105,内江市,玉峰路西段888号,,42,42,34,24,23,80,,96,95,14,12,8,9,0.4,0.4
2026-02-26T2100,2628A,92.0653,31.4846,那曲市,那曲监测站,,38,27,20,26,21,66,,87,86,29,12,13,9,1.0,0.7
2026-02-26T2100,4243A,92.0515,31.4787,那曲市,那曲市委宣传部,,,,13,,11,,,107,102,,5,,4,,0.5
2026-02-26T2100,1291A,115.8887,28.7006,南昌市,省林业公司,,10,,16,3,14,19,,18,18,18,21,3,3,1.0,0.9
2026-02-26T2100,1292A,115.813,28.7443,南昌市,林科所,,11,,18,3,11,15,,17,17,20,23,7,7,1.1,1
2026-02-26T2100,1294A,115.8518,28.687,南昌市,建工学校,,21,21,29,3,17,11,,15,15,25,23,6,6,0.5,0.3
2026-02-26T2100,1295A,115.8926,28.6425,南昌市,象湖,,,,21,4,16,15,,18,18,21,23,7,7,1.2,1
2026-02-26T2100,3046A,115.9084,28.6062,南昌市,机电学校,,17,17,26,6,17,16,,19,19,20,20,4,4,0.8,0.7
2026-02-26T2100,3690A,115.9718,28.7032,南昌市,外国语学校,,8,7,19,3,16,22,,22,17,16,16,7,7,0.8,0.7
2026-02-26T2100,4106A,115.7923,28.6873,南昌市,工业二路,,12,11,30,3,21,29,,23,23,24,26,4,4,1.0,0.8
2026-02-26T2100,4192A,115.931587,28.686774,南昌市,南京东路235号,,16,16,26,3,17,20,,19,19,19,17,5,4,0.7,0.5
2026-02-26T2100,1906A,106.0791,30.8022,南充市,南充市委,,46,45,34,32,24,51,,80,77,27,17,6,6,0.5,0.6
2026-02-26T2100,1907A,106.1038,30.8215,南充市,南充炼油厂,颗粒物(PM10),57,63,43,38,24,47,,77,74,28,15,6,5,0.6,0.6
2026-02-26T2100,4227A,106.108336,30.788436,南充市,梨树横街98号,颗粒物(PM10),57,64,39,37,25,54,,84,81,27,15,6,6,0.5,0.4
2026-02-26T2100,4304A,106.1172,30.843,南充市,清泉寺北路188号,细颗粒物(PM2.5),52,47,33,36,22,70,,89,88,12,10,6,5,0.5,0.5
2026-02-26T2100,4305A,106.067,30.7616,南充市,同庆路1号,,50,,36,35,24,62,,85,83,17,17,7,6,0.5,0.4
2026-02-26T2100,1151A,118.8033,32.1085,南京市,迈皋桥,,21,10,28,9,18,66,,63,59,17,25,3,3,0.2,0.4
2026-02-26T2100,1152A,118.7487,32.057,南京市,草场门,,17,14,25,9,17,54,,59,46,23,24,6,6,0.3,0.4
2026-02-26T2100,1154A,118.770105,32.004342,南京市,中华门,,19,19,22,12,16,37,,54,35,17,12,4,4,0.6,0.4
2026-02-26T2100,1155A,118.8059,32.0329,南京市,瑞金路,,15,,23,10,18,47,,58,43,27,25,4,4,0.4,0.4
2026-02-26T2100,1156A,118.7946,32.0774,南京市,玄武湖,,,13,30,10,16,40,,54,39,,30,6,6,0.5,0.6
2026-02-26T2100,1157A,118.6415,32.0964,南京市,浦口,,16,12,32,3,20,50,,43,43,12,18,4,4,0.3,0.4
2026-02-26T2100,1158A,118.730129,32.000956,南京市,奥体中心,,16,11,27,3,16,51,,50,41,19,22,7,7,0.3,0.3
2026-02-26T2100,1159A,118.9072,32.1047,南京市,仙林大学城,,15,12,31,3,18,45,,59,42,23,20,7,6,0.5,0.6
2026-02-26T2100,3422A,118.8443,31.919,南京市,江宁彩虹桥,,17,9,25,3,14,53,,66,43,14,17,5,4,0.4,0.4
2026-02-26T2100,3427A,118.8497,32.3599,南京市,六合雄州,,15,10,42,3,25,45,,49,49,19,20,4,4,0.7,0.7
2026-02-26T2100,4086A,118.7641,32.0841,南京市,新模范马路66号,,24,24,29,6,19,65,,71,56,23,20,4,4,0.6,0.6
2026-02-26T2100,4249A,118.8707617,31.34017673,南京市,汶溪路181号,,,9,18,,0,24,,54,36,27,17,6,6,1.0,0.7
2026-02-26T2100,4312A,119.019,31.6512,南京市,中山西路1号,,12,7,18,3,13,36,,58,33,13,12,4,4,0.8,0.7
2026-02-26T2100,1401A,108.3098,22.788,南宁市,二十一中,,24,24,50,16,40,26,,32,29,17,20,4,4,0.6,0.7
2026-02-26T2100,1402A,108.3135,22.8529,南宁市,北湖,,37,37,59,25,51,11,,37,32,33,25,1,1,0.8,0.9
2026-02-26T2100,1403A,108.3205,22.8222,南宁市,市监测站,,26,26,50,16,38,24,,39,34,20,22,5,5,0.7,0.8
2026-02-26T2100,1404A,108.3828,22.8038,南宁市,大自然花园,,25,22,51,17,42,30,,44,40,11,13,5,5,0.8,0.9
2026-02-26T2100,1406A,108.2397,22.8462,南宁市,区农职院,,30,29,57,21,38,7,,30,25,36,27,4,4,0.6,0.6
2026-02-26T2100,1407A,108.3285,22.7356,南宁市,英华嘉园,,32,31,57,22,42,19,,32,28,22,18,2,3,0.5,0.7
2026-02-26T2100,3401A,108.4829,22.762,南宁市,红星社区,,30,30,60,18,46,32,,43,40,13,17,4,4,0.7,0.7
2026-02-26T2100,4132A,108.2927,23.1477,南宁市,起凤路9号,,25,21,42,17,34,41,,50,50,11,13,2,2,0.6,0.7
2026-02-26T2100,4221A,108.2177,22.7774,南宁市,乐贤路16号,,33,33,42,19,31,1,,29,23,36,23,1,1,0.6,0.6
2026-02-26T2100,2332A,118.1682,26.6371,南平市,南平市监测站,,10,10,10,7,6,29,,43,40,9,8,4,4,0.4,0.4
2026-02-26T2100,2334A,118.1757,26.6276,南平市,南平七中,,9,8,9,6,5,28,,41,38,10,6,2,2,0.5,0.5
2026-02-26T2100,1168A,120.9056,31.9669,南通市,狼山街道,,19,17,22,10,14,60,,70,55,16,15,3,3,0.7,0.5
2026-02-26T2100,1170A,120.8635,32.0231,南通市,城中,,20,17,28,3,13,64,,73,61,14,14,4,4,0.7,0.5
2026-02-26T2100,1171A,120.9376,31.9301,南通市,星湖花园,,19,11,20,8,13,59,,69,53,15,15,3,3,0.4,0.3
2026-02-26T2100,1172A,120.8053,32.046,南通市,紫琅学院,,20,9,22,8,12,64,,71,55,15,16,3,4,0.5,0.5
2026-02-26T2100,3291A,121.0631,32.0644,南通市,通州监测站,,23,7,21,3,12,71,,74,71,15,15,4,3,0.7,0.5
2026-02-26T2100,3432A,120.9348,31.9874,南通市,环境教育馆,,,12,21,9,12,61,,67,56,13,15,,3,0.5,0.3
2026-02-26T2100,4091A,120.8692,31.9885,南通市,洪江路,,19,12,21,10,15,58,,68,54,17,16,3,4,0.7,0.5
2026-02-26T2100,2404A,112.5338,33.0086,南阳市,瓦房庄,,33,33,30,22,15,48,,47,41,10,9,4,4,0.6,0.6
2026-02-26T2100,2405A,112.5002,32.9734,南阳市,汉画馆,,42,39,32,29,25,50,,43,43,11,10,4,4,0.6,0.6
2026-02-26T2100,2406A,112.5778,33.0144,南阳市,气象站,,34,34,30,17,18,53,,46,46,13,13,4,4,0.5,0.6
2026-02-26T2100,2407A,112.548,32.9687,南阳市,理工学院,,40,37,30,28,19,50,,47,44,10,10,4,4,0.6,0.6
2026-02-26T2100,4008A,112.5233,32.9921,南阳市,卧龙区政府,,33,33,26,20,18,48,,46,42,11,10,5,5,0.5,0.6
2026-02-26T2100,1234A,121.8352,29.9111,宁波市,区环保大楼,,21,13,25,3,10,65,,77,74,17,15,5,6,0.3,0.3
2026-02-26T2100,1235A,121.5595,29.8208,宁波市,万里学院,,21,16,26,3,12,66,,70,68,13,14,3,3,0.4,0.4
2026-02-26T2100,1236A,121.713,29.9564,宁波市,龙赛医院,,19,16,26,7,12,59,,71,67,15,13,4,4,0.4,0.3
2026-02-26T2100,1240A,121.5855,29.8635,宁波市,太古小学,,21,9,26,3,11,66,,71,69,15,12,2,2,0.4,0.5
2026-02-26T2100,1241A,121.5239,29.8673,宁波市,市环境监测中心,,21,21,30,9,12,54,,62,59,17,16,3,3,0.5,0.4
2026-02-26T2100,2871A,121.6156,29.9015,宁波市,万里国际学校,,22,15,25,3,10,69,,75,72,12,12,3,3,0.6,0.5
2026-02-26T2100,3710A,121.5593,29.8976,宁波市,白沙活动中心,,19,18,25,7,12,58,,71,67,12,11,4,4,0.5,0.5
2026-02-26T2100,4095A,121.8962,29.7529,宁波市,中科路88号,,25,11,24,3,11,79,,80,80,8,10,5,5,0.4,0.4
2026-02-26T2100,2341A,119.5387,26.6611,宁德市,宁德市监测站,,26,26,17,18,14,13,,68,35,43,21,3,3,0.7,0.4
2026-02-26T2100,3209A,119.5231,26.6562,宁德市,宁德一中,,29,23,17,20,16,20,,72,41,29,15,4,4,0.6,0.3
2026-02-26T2100,2618A,98.859,25.8541,怒江傈僳族自治州,州监测站,细颗粒物(PM2.5),62,50,37,44,30,91,,110,109,12,8,6,6,0.5,0.4
2026-02-26T2100,2619A,98.8607,25.8168,怒江傈僳族自治州,泸水一中,细颗粒物(PM2.5),59,44,33,42,32,69,,101,98,21,10,5,5,0.7,0.5
2026-02-26T2100,1888A,101.6891,26.571,攀枝花市,弄弄坪,,45,45,54,30,40,100,,115,112,12,17,8,13,0.6,0.7
2026-02-26T2100,1889A,101.577,26.5914,攀枝花市,河门口,细颗粒物(PM2.5),53,52,61,37,51,91,,107,103,10,13,14,18,0.8,0.8
2026-02-26T2100,1891A,101.7365,26.4986,攀枝花市,仁和,,46,43,49,32,43,92,,109,106,8,8,6,8,0.8,0.8
2026-02-26T2100,2835A,101.7222,26.567,攀枝花市,四十中小,,46,46,55,28,42,94,,111,108,14,19,10,15,0.9,0.9
2026-02-26T2100,1604A,122.0303,41.1489,盘锦市,开发区,颗粒物(PM10),53,55,68,27,25,67,,72,71,9,10,4,4,0.4,0.4
2026-02-26T2100,1605A,122.0486,41.0883,盘锦市,兴隆台,颗粒物(PM10),54,58,69,34,27,70,,72,72,13,15,6,5,0.5,0.5
2026-02-26T2100,1606A,121.8297,41.1026,盘锦市,新生街道,颗粒物(PM10),51,52,64,29,28,60,,68,64,12,14,7,7,0.4,0.4
2026-02-26T2100,1832A,113.3257,33.7423,平顶山市,新华旅馆,细颗粒物(PM2.5),62,55,40,44,25,44,,45,45,14,12,5,6,0.6,0.5
2026-02-26T2100,1833A,113.2917,33.737,平顶山市,规划设计院,,,60,33,51,25,44,,46,46,14,12,5,5,,0.8
2026-02-26T2100,1834A,113.182,33.7738,平顶山市,平顶山工学院,,,45,31,36,26,51,,48,48,10,12,,2,0.4,0.4
2026-02-26T2100,3594A,112.8736,33.9068,平顶山市,石龙区,,45,44,36,31,30,44,,42,40,10,9,5,5,0.6,0.6
2026-02-26T2100,4116A,113.284,33.7139,平顶山市,姚电大道23号,"颗粒物(PM10),细颗粒物(PM2.5)",57,64,38,40,27,50,,50,50,14,14,4,5,0.5,0.5
2026-02-26T2100,2656A,106.6633,35.5338,平凉市,聚贤嘉苑,颗粒物(PM10),102,153,138,62,44,72,,87,87,20,13,9,7,0.6,0.6
2026-02-26T2100,2657A,106.7021,35.5307,平凉市,博物馆,颗粒物(PM10),101,151,127,61,46,76,,91,90,19,13,10,10,0.5,0.5
2026-02-26T2100,2348A,113.8384,27.6436,萍乡市,中医院,,26,26,26,8,16,8,,32,9,21,12,4,3,1.1,0.6
2026-02-26T2100,2350A,113.8677,27.6438,萍乡市,市环保局,,22,21,22,15,19,14,,37,16,19,12,8,8,1.0,0.6
2026-02-26T2100,2351A,113.8663,27.6202,萍乡市,安源区政府,,22,21,25,15,17,12,,19,12,15,14,4,4,0.6,0.7
2026-02-26T2100,4107A,113.8686,27.6668,萍乡市,联洪村委会,,,,25,10,15,10,,32,,18,8,2,2,1.3,0.5
2026-02-26T2100,2319A,119.0142,25.4324,莆田市,荔城区仓后路,细颗粒物(PM2.5),69,51,36,50,25,27,,58,49,25,16,/,/,/,/
2026-02-26T2100,2320A,119.0016,25.4553,莆田市,莆田市监测站,细颗粒物(PM2.5),63,52,25,45,18,32,,58,48,15,11,3,2,0.6,0.5
2026-02-26T2100,2321A,119.112,25.4561,莆田市,涵江区六中,细颗粒物(PM2.5),84,102,27,62,19,26,,55,49,28,15,/,/,0.8,0.5
2026-02-26T2100,2322A,119.1014,25.3215,莆田市,秀屿区政府,细颗粒物(PM2.5),100,95,31,75,25,30,,72,56,22,11,3,4,0.8,0.5
2026-02-26T2100,2392A,115.0312,35.7636,濮阳市,环保局,细颗粒物(PM2.5),70,61,58,51,37,36,,51,49,22,18,6,6,0.9,0.8
2026-02-26T2100,3021A,115,35.7667,濮阳市,濮水河管理处,细颗粒物(PM2.5),65,70,60,47,38,35,,53,50,14,10,6,6,0.7,0.6
2026-02-26T2100,4118A,115.0552,35.7816,濮阳市,中原东路68号,细颗粒物(PM2.5),72,76,66,52,36,37,,53,51,25,18,4,4,0.8,0.8
2026-02-26T2100,4216A,115.0923632,35.76857718,濮阳市,任丘路479号,"颗粒物(PM10),细颗粒物(PM2.5)",65,79,70,47,38,39,,53,52,21,15,4,5,0.8,0.8
2026-02-26T2100,2601A,100.9801,22.7634,普洱市,市环保局,颗粒物(PM10),52,53,33,14,13,47,,84,81,9,6,4,5,0.8,0.7
2026-02-26T2100,2602A,100.9763,22.8237,普洱市,普洱第二中学,,37,37,31,16,16,50,,79,75,9,9,5,6,0.7,0.6
2026-02-26T2100,3345A,131.0413,45.7795,七台河市,中波台,颗粒物(PM10),52,54,67,28,27,66,,86,81,15,6,7,6,0.3,0.3
2026-02-26T2100,3637A,131.0136,45.7688,七台河市,人民广场,细颗粒物(PM2.5),92,,74,68,33,63,,81,73,28,15,16,9,0.7,0.5
2026-02-26T2100,3684A,130.8639,45.8144,七台河市,新建矿广场,细颗粒物(PM2.5),300,356,147,250,82,20,,69,47,68,22,16,8,1.3,0.6
2026-02-26T2100,1779A,123.9307,47.3641,齐齐哈尔市,安居小区,,30,30,24,13,7,62,,74,68,12,6,6,2,0.3,0.2
2026-02-26T2100,1780A,123.9497,47.3389,齐齐哈尔市,中心广场,,31,31,22,14,7,59,,68,63,12,8,7,7,0.3,0.5
2026-02-26T2100,1781A,123.9483,47.3229,齐齐哈尔市,农牧车辆厂,,24,24,25,11,7,60,,75,69,11,5,6,6,0.3,0.2
2026-02-26T2100,1783A,123.9442,47.2994,齐齐哈尔市,市环境监测站,,20,15,28,3,6,63,,72,66,8,6,4,3,0.3,0.2
2026-02-26T2100,3662A,123.6341,47.2079,齐齐哈尔市,富区青少年活动中心,,39,39,34,21,10,62,,73,70,7,7,2,4,0.4,0.4
2026-02-26T2100,2591A,107.9765,26.5724,黔东南苗族侗族自治州,市环境监测站,,23,23,34,14,23,30,,31,31,5,10,2,4,0.6,0.7
2026-02-26T2100,2881A,107.8909,26.531,黔东南苗族侗族自治州,凯里学院,,26,19,19,18,17,29,,35,35,9,9,2,3,0.5,0.6
2026-02-26T2100,2593A,107.5223,26.2371,黔南布依族苗族自治州,小围寨,,29,,19,20,19,45,,53,49,5,5,5,5,0.5,0.5
2026-02-26T2100,3538A,107.5175,26.2977,黔南布依族苗族自治州,沙坝,,22,22,20,12,15,52,,38,,4,5,3,4,1.1,0.8
2026-02-26T2100,2589A,104.9022,25.0943,黔西南布依族苗族自治州,场坝街,细颗粒物(PM2.5),52,51,23,36,18,97,,112,110,10,6,7,5,0.6,0.5
2026-02-26T2100,2590A,104.8812,25.0994,黔西南布依族苗族自治州,坪东大道,,,44,23,35,19,,,115,115,15,6,6,6,0.7,0.4
2026-02-26T2100,2502A,108.6238,21.9667,钦州市,市环保站,颗粒物(PM10),56,61,46,35,22,36,,50,50,23,14,6,4,0.5,0.5
2026-02-26T2100,2503A,108.655,21.9481,钦州市,沙埠小学,,42,42,50,17,21,39,,52,50,19,15,5,5,0.5,0.5
2026-02-26T2100,2504A,108.5989,21.7435,钦州市,港区一小,,37,37,50,21,22,48,,55,55,20,15,3,3,0.7,0.7
2026-02-26T2100,3404A,108.5959,21.9634,钦州市,北职校,,46,46,45,24,18,33,,49,49,24,17,9,5,0.7,0.6
2026-02-26T2100,1046A,119.5247,39.9346,秦皇岛市,建设大厦,,48,48,82,18,38,54,,67,67,13,18,5,5,0.4,0.5
2026-02-26T2100,3132A,119.5979,39.938,秦皇岛市,文明里,颗粒物(PM10),57,63,77,24,33,44,,70,67,25,16,10,8,0.4,0.4
2026-02-26T2100,4066A,119.7458,39.9952,秦皇岛市,南园路157号,颗粒物(PM10),51,52,73,24,33,26,,62,57,44,21,9,6,0.4,0.4
2026-02-26T2100,4067A,119.5131,39.8858,秦皇岛市,翠岛大街1号,,41,41,66,10,34,45,,64,64,22,17,8,7,0.3,0.4
2026-02-26T2100,4198A,119.509013,39.825305,秦皇岛市,北戴河轮滑馆,,46,46,75,15,28,57,,68,68,18,16,7,6,0.3,0.3
2026-02-26T2100,1310A,120.404,36.0625,青岛市,市南区东部子站,颗粒物(PM10),57,63,63,34,21,69,,86,79,13,10,8,8,0.5,0.5
2026-02-26T2100,1311A,120.362344,36.10282,青岛市,四方区子站,颗粒物(PM10),52,53,66,34,23,50,,79,69,34,20,4,4,0.8,0.6
2026-02-26T2100,1312A,120.294373,36.054183,青岛市,市南区西部子站,,41,41,58,26,22,65,,86,76,24,15,2,2,0.6,0.6
2026-02-26T2100,1313A,120.4581,36.0858,青岛市,崂山区子站,颗粒物(PM10),52,53,63,27,20,62,,89,83,18,8,6,6,0.5,0.4
2026-02-26T2100,1315A,120.3945,36.3083,青岛市,城阳区子站,颗粒物(PM10),59,68,76,35,35,55,,81,76,32,22,6,6,0.8,0.7
2026-02-26T2100,3642A,120.3454,36.0735,青岛市,市北区南部,颗粒物(PM10),55,59,66,25,22,73,,86,74,10,12,2,3,0.7,0.7
2026-02-26T2100,3643A,120.3897,36.18,青岛市,李沧区北部,颗粒物(PM10),59,68,71,38,28,40,,74,70,45,21,8,8,0.7,0.5
2026-02-26T2100,4110A,120.5222,36.4089,青岛市,盟旺路653号,,40,40,66,26,24,84,,93,92,10,8,1,2,0.7,0.7
2026-02-26T2100,4290A,120.196923,35.954556,青岛市,珠江路669号,,46,46,59,27,21,70,,76,70,22,23,7,7,0.4,0.4
2026-02-26T2100,4291A,120.0424,35.8656,青岛市,黄岛区人民政府广场,颗粒物(PM10),51,51,61,24,17,70,,81,78,19,16,7,7,0.5,0.5
2026-02-26T2100,1703A,113.0218,23.7086,清远市,凤城街办,颗粒物(PM10),54,57,43,37,29,47,,59,55,24,23,/,/,/,/
2026-02-26T2100,3025A,113.0479,23.6343,清远市,技师学院,细颗粒物(PM2.5),68,83,42,49,25,32,,76,70,28,20,5,4,0.6,0.5
2026-02-26T2100,3318A,112.9898,23.7403,清远市,清新太和,,,45,38,27,22,,,67,66,26,19,9,8,0.6,0.6
2026-02-26T2100,3455A,113.076,23.72,清远市,清城东城,颗粒物(PM10),54,58,41,32,23,24,,47,44,52,27,/,/,/,/
2026-02-26T2100,2661A,107.6325,35.7357,庆阳市,庆阳五中,细颗粒物(PM2.5),75,98,119,55,41,85,,97,96,13,11,4,6,0.7,0.5
2026-02-26T2100,2662A,107.6361,35.7067,庆阳市,市环保局,细颗粒物(PM2.5),82,96,115,60,38,82,,94,94,13,12,4,7,0.5,0.4
2026-02-26T2100,1916A,103.7897,25.5036,曲靖市,环境监测站,,47,47,30,27,22,109,,126,124,11,7,6,5,0.4,0.3
2026-02-26T2100,1917A,103.8013,25.5357,曲靖市,烟厂办公区,,,50,30,,20,92,,116,113,21,7,,4,0.4,0.5
2026-02-26T2100,3376A,103.7926,25.4651,曲靖市,南苑二区,,33,30,27,22,20,105,,111,111,10,10,3,4,0.4,0.4
2026-02-26T2100,3377A,103.7442,25.5259,曲靖市,曲靖师范学院,,43,43,29,22,23,100,,124,120,17,7,4,2,0.3,0.2
2026-02-26T2100,1264A,118.8694,28.94,衢州市,环保大楼,,19,19,27,10,21,8,,37,19,29,18,/,/,/,/
2026-02-26T2100,1266A,118.8622,28.9809,衢州市,衢州学院,,19,14,24,13,20,5,,34,20,31,15,3,3,0.7,0.6
2026-02-26T2100,4097A,118.9646,28.9832,衢州市,衢州三中,,18,14,28,12,23,9,,32,19,28,18,5,5,0.6,0.5
2026-02-26T2100,1611A,118.5818,24.9116,泉州市,涂山街,细颗粒物(PM2.5),55,43,24,39,21,45,,68,62,26,15,3,3,0.8,0.6
2026-02-26T2100,1612A,118.597,24.8976,泉州市,津头埔,细颗粒物(PM2.5),60,46,23,43,20,41,,71,60,27,15,2,3,0.8,0.6
2026-02-26T2100,1613A,118.6669,24.9422,泉州市,万安,细颗粒物(PM2.5),67,54,26,48,23,32,,68,61,31,13,3,3,0.7,0.5
2026-02-26T2100,4105A,118.6355,24.9148,泉州市,霞新路6号,细颗粒物(PM2.5),54,41,24,38,20,28,,69,57,37,16,/,/,0.6,0.5
2026-02-26T2100,2626A,88.8873,29.2723,日喀则市,日喀则监测站,,,26,22,,11,74,,118,113,66,14,34,11,1.4,0.6
2026-02-26T2100,3726A,88.8775,29.2425,日喀则市,林业技术推广中心,,31,19,19,15,8,98,,110,110,9,6,9,9,0.4,0.4
2026-02-26T2100,1659A,119.4711,35.421,日照市,监测站,"颗粒物(PM10),细颗粒物(PM2.5)",64,78,46,46,17,51,,84,76,31,18,8,7,0.7,0.6
2026-02-26T2100,1660A,119.523,35.4216,日照市,市政府广场,颗粒物(PM10),62,73,48,38,17,49,,86,74,29,13,6,5,0.6,0.5
2026-02-26T2100,1661A,119.5511,35.4113,日照市,港务局,颗粒物(PM10),54,58,53,25,15,56,,88,84,38,18,6,4,0.6,0.6
2026-02-26T2100,3507A,119.5326,35.4627,日照市,职业技术学院,细颗粒物(PM2.5),63,73,48,45,19,60,,86,81,26,16,7,6,0.9,0.7
2026-02-26T2100,3604A,119.3267,35.1043,日照市,岚山环保分局,,48,48,40,20,13,78,,89,81,18,16,9,9,0.7,0.7
2026-02-26T2100,1835A,111.1922,34.7752,三门峡市,市政府,,39,33,42,27,36,41,,41,41,16,15,6,7,0.3,0.3
2026-02-26T2100,1836A,111.1588,34.794,三门峡市,开发区,细颗粒物(PM2.5),58,,54,41,44,40,,39,39,15,15,7,8,0.6,0.6
2026-02-26T2100,3039A,111.1911,34.7829,三门峡市,三门峡市第一小学,,42,42,50,25,42,41,,41,41,14,14,8,9,0.5,0.5
2026-02-26T2100,3598A,111.1031,34.719,三门峡市,富达温泉假日酒店,,,,50,,42,,,47,47,12,13,9,10,0.4,0.4
2026-02-26T2100,2324A,117.621,26.2626,三明市,三钢,,,16,19,6,14,15,,19,14,,13,8,5,1.3,0.8
2026-02-26T2100,2325A,117.6352,26.2714,三明市,三明二中,,12,12,15,3,10,14,,18,14,19,14,4,4,1.0,0.7
2026-02-26T2100,2326A,117.6028,26.2377,三明市,三元区政府,,11,8,15,3,11,14,,20,16,20,15,4,4,1.1,0.9
2026-02-26T2100,1877A,109.4962,18.2682,三亚市,河西子站,,21,21,32,14,14,36,,62,40,6,4,1,1,0.3,0.3
2026-02-26T2100,3540A,109.7348,18.3443,三亚市,君悦子站,,,,32,,15,,,49,44,3,5,2,2,0.2,0.3
2026-02-26T2100,4135A,109.1714,18.3739,三亚市,城东小学站,,28,28,33,10,13,40,,48,41,8,8,/,/,/,/
2026-02-26T2100,2624A,91.7592,29.234,山南市,山南监测站,,30,14,12,3,7,93,,108,107,8,3,11,11,0.4,0.4
2026-02-26T2100,2625A,91.7701,29.2436,山南市,山南人民医院,,30,20,12,14,6,93,,110,109,11,3,11,10,0.5,0.4
2026-02-26T2100,1674A,116.6795,23.3666,汕头市,金平子站,,25,25,17,15,11,55,,93,85,39,9,4,5,0.6,0.6
2026-02-26T2100,1675A,116.7248,23.3632,汕头市,龙湖子站,,26,21,18,16,11,81,,89,87,15,12,5,4,/,/
2026-02-26T2100,1676A,116.7257,23.2774,汕头市,濠江子站,,26,18,19,14,11,82,,86,86,14,12,7,7,/,/
2026-02-26T2100,1677A,116.7518,23.4712,汕头市,澄海子站,,40,40,21,23,13,68,,86,82,16,8,7,8,0.7,0.5
2026-02-26T2100,1678A,116.6088,23.2539,汕头市,潮阳子站,,39,,19,27,13,71,,91,88,11,7,6,6,0.5,0.4
2026-02-26T2100,3444A,116.4539,23.2684,汕头市,潮南峡山,细颗粒物(PM2.5),67,69,25,48,15,71,,94,,14,7,6,6,0.6,0.6
2026-02-26T2100,3624A,116.4069,23.2533,汕头市,潮南子站,,42,42,27,24,14,67,,84,80,14,9,6,6,/,/
2026-02-26T2100,1693A,115.3653,22.7751,汕尾市,市环保局,,28,27,22,19,13,80,,80,80,11,9,5,5,0.8,0.7
2026-02-26T2100,1695A,115.362,22.7926,汕尾市,新城中学,,27,27,24,18,14,78,,78,77,10,9,6,6,0.7,0.6
2026-02-26T2100,2645A,109.9155,33.8714,商洛市,监测站,,40,32,30,28,24,40,,58,56,17,11,6,6,0.7,0.8
2026-02-26T2100,3045A,109.9647,33.8486,商洛市,商州区中学,,29,23,37,20,22,43,,61,60,12,11,4,5,0.9,1
2026-02-26T2100,2408A,115.6701,34.4283,商丘市,环境监测站,,,,66,,44,39,,52,51,18,10,3,2,0.5,0.6
2026-02-26T2100,2409A,115.6458,34.4047,商丘市,粮食局,细颗粒物(PM2.5),103,89,62,77,49,39,,48,46,14,10,2,2,0.6,0.5
2026-02-26T2100,3171A,115.6069,34.4465,商丘市,梁园区档案局,细颗粒物(PM2.5),84,76,60,62,43,35,,52,51,22,13,3,3,0.6,0.5
2026-02-26T2100,4119A,115.6701,34.3767,商丘市,北海东路185号,细颗粒物(PM2.5),94,103,72,70,42,39,,51,50,16,11,2,2,0.6,0.5
2026-02-26T2100,4120A,115.6172,34.3704,商丘市,中山大街3号,细颗粒物(PM2.5),92,111,76,68,43,45,,53,53,16,12,4,3,0.5,0.4
2026-02-26T2100,1141A,121.401,31.2382,上海市,普陀,,25,25,25,17,16,41,,66,62,39,20,5,5,0.7,0.5
2026-02-26T2100,1142A,121.4774,31.2043,上海市,十五厂,,22,22,31,15,20,48,,70,66,41,23,7,8,0.7,0.7
2026-02-26T2100,1143A,121.4673,31.3011,上海市,虹口,,26,19,29,13,16,25,,63,54,52,23,6,5,0.4,0.3
2026-02-26T2100,1147A,121.4253,31.226,上海市,静安监测站,,26,24,26,18,16,50,,70,67,37,20,7,6,0.8,0.6
2026-02-26T2100,1148A,121.7029,31.1905,上海市,浦东川沙,,19,16,25,9,14,42,,66,58,37,36,5,4,0.2,0.2
2026-02-26T2100,1149A,121.5339,31.229,上海市,浦东新区监测站,,23,23,26,14,14,40,,72,65,41,18,5,5,0.5,0.4
2026-02-26T2100,1150A,121.5776,31.2038,上海市,浦东张江,,26,21,26,12,15,35,,75,68,51,22,6,6,0.5,0.5
2026-02-26T2100,3265A,121.4242,31.3303,上海市,宝山庙行,,29,22,32,10,15,24,,64,54,58,25,9,9,0.3,0.3
2026-02-26T2100,3266A,121.8789,31.4662,上海市,崇明上实东滩,,24,13,20,7,11,76,,74,65,10,14,5,5,0.1,0.2
2026-02-26T2100,3268A,121.316,31.2839,上海市,嘉定南翔,,,28,26,19,17,,,65,53,49,23,4,3,0.5,0.5
2026-02-26T2100,3269A,121.3357,30.7455,上海市,金山新城,,18,13,23,12,14,55,,74,60,22,16,4,4,0.4,0.5
2026-02-26T2100,3270A,121.4996,31.0741,上海市,闵行浦江,,21,21,26,12,16,58,,64,62,23,20,6,6,0.3,0.3
2026-02-26T2100,3271A,121.2886,31.1663,上海市,青浦徐泾,,,26,29,17,17,,,55,50,50,21,5,4,0.4,0.4
2026-02-26T2100,3272A,121.2193,31.0382,上海市,松江图书馆,,27,27,34,18,18,36,,67,59,41,23,6,6,0.4,0.4
2026-02-26T2100,3273A,121.3904,31.206,上海市,长宁仙霞,,24,24,28,11,14,48,,65,60,30,20,7,7,0.3,0.3
2026-02-26T2100,3274A,121.7964,31.0507,上海市,浦东惠南,,19,14,24,9,15,59,,76,74,20,17,4,4,0.6,0.6
2026-02-26T2100,3544A,121.4891,30.925,上海市,奉贤南桥新城,,25,24,28,17,15,49,,66,64,23,17,2,2,0.4,0.4
2026-02-26T2100,4183A,121.417401,31.16637,上海市,冠生园路458号,,26,23,28,18,18,45,,60,54,33,21,6,6,0.5,0.5
2026-02-26T2100,4205A,121.541914,31.268301,上海市,宁武路151号,,27,18,26,11,15,29,,64,55,54,29,6,6,0.3,0.3
2026-02-26T2100,2382A,117.9758,28.4439,上饶市,市监测站,,16,16,21,3,13,23,,53,30,16,16,5,5,/,/
2026-02-26T2100,2383A,117.9521,28.4637,上饶市,凤凰光学,,21,21,24,6,15,12,,44,20,27,19,5,6,0.8,0.6
2026-02-26T2100,3685A,117.897,28.4316,上饶市,双创科技城,,20,20,24,7,17,2,,56,26,22,17,4,4,1.0,0.8
2026-02-26T2100,4211A,118.190438,28.444845,上饶市,裕丰大道,,25,25,29,3,17,14,,42,22,19,16,9,9,0.7,0.8
2026-02-26T2100,1669A,113.5821,24.7733,韶关市,市八中,,21,21,44,14,19,5,,26,12,27,19,6,7,0.9,0.8
2026-02-26T2100,1671A,113.5916,24.7973,韶关市,园林处,,18,15,25,12,23,8,,27,12,20,16,4,4,/,/
2026-02-26T2100,1673A,113.5971,24.6864,韶关市,曲江监测站,,41,41,44,23,28,12,,44,28,27,23,7,13,1.2,1.3
2026-02-26T2100,2809A,113.6668,24.7756,韶关市,大学路288号,,25,21,25,17,21,10,,17,12,22,16,6,6,/,/
2026-02-26T2100,3622A,113.5556,24.8082,韶关市,碧湖山庄,,18,16,29,12,21,11,,20,19,17,10,6,6,1.0,0.9
2026-02-26T2100,2464A,111.5277,27.2442,邵阳市,市化工厂,,12,11,46,7,36,36,,42,30,6,10,4,5,0.8,0.9
2026-02-26T2100,2466A,111.4327,27.2276,邵阳市,市环保局,,,12,39,6,36,,,38,27,8,12,4,11,0.9,0.9
2026-02-26T2100,4218A,111.446,27.2472,邵阳市,北塔二期4-26地块,,12,,37,8,27,32,,36,28,7,8,7,8,0.7,0.8
2026-02-26T2100,4219A,111.4739,27.2282,邵阳市,邵水西路287号,,10,,39,7,34,32,,38,27,6,9,4,4,0.8,0.8
2026-02-26T2100,1247A,120.6053,29.9927,绍兴市,城东开发委,,25,19,31,17,23,13,,44,31,44,20,8,8,0.6,0.4
2026-02-26T2100,2921A,120.5482,30.0003,绍兴市,树下王站,,22,16,32,11,23,8,,48,26,43,20,6,6,0.5,0.3
2026-02-26T2100,3408A,120.5685,29.936,绍兴市,绍兴中专,,21,14,34,10,22,14,,44,33,41,15,5,6,0.6,0.6
2026-02-26T2100,3409A,120.4905,30.086,绍兴市,柯桥区政府,,17,9,33,8,22,16,,49,26,34,20,5,5,0.5,0.4
2026-02-26T2100,3410A,120.8751,30.0249,绍兴市,重华小学,,23,,24,16,19,37,,50,41,26,16,6,6,0.4,0.3
2026-02-26T2100,3411A,120.837,30.0137,绍兴市,上虞中学,,32,26,27,22,19,30,,54,42,30,15,6,6,0.4,0.3
2026-02-26T2100,3560A,120.4715,30.0414,绍兴市,柯桥妇保,,17,11,35,6,23,15,,43,29,34,20,5,5,0.5,0.4
2026-02-26T2100,3658A,120.6156,30.0762,绍兴市,袍江中学,,16,13,37,11,26,23,,47,36,27,18,6,6,0.6,0.5
2026-02-26T2100,1356A,114.0948,22.5506,深圳市,通心岭子站,,29,29,20,16,10,76,,81,77,8,5,6,6,0.4,0.4
2026-02-26T2100,1357A,114.1153,22.5713,深圳市,洪湖,,32,32,21,16,10,76,,82,81,10,6,5,4,0.5,0.5
2026-02-26T2100,1358A,113.9823,22.5398,深圳市,华侨城,,33,33,20,20,10,56,,76,67,20,11,/,/,/,/
2026-02-26T2100,1359A,113.9181,22.517,深圳市,南海子站,,33,33,20,23,10,53,,76,66,24,11,6,6,0.4,0.3
2026-02-26T2100,1360A,114.2345,22.565,深圳市,盐田,,21,21,18,12,9,66,,75,75,17,20,6,7,0.4,0.4
2026-02-26T2100,1363A,114.4911,22.5381,深圳市,南澳,,22,22,20,10,8,63,,81,76,10,8,/,/,/,/
2026-02-26T2100,1364A,114.41,22.6346,深圳市,葵涌,,20,20,19,10,9,64,,77,76,17,7,8,8,0.5,0.5
2026-02-26T2100,1365A,114.2967,22.5978,深圳市,梅沙,,23,22,21,11,9,71,,85,73,12,12,/,/,/,/
2026-02-26T2100,1366A,114.0563,22.7353,深圳市,观澜,,34,34,23,15,10,45,,75,69,29,13,8,8,0.7,0.6
2026-02-26T2100,3305A,114.0614,22.556,深圳市,莲花,,38,38,21,26,12,64,,78,70,20,10,/,/,/,/
2026-02-26T2100,3306A,114.0144,22.6163,深圳市,民治,,46,46,22,24,10,54,,68,63,21,7,/,/,/,/
2026-02-26T2100,3307A,114.1756,22.6421,深圳市,横岗,,30,30,22,16,12,66,,77,68,18,13,/,/,/,/
2026-02-26T2100,3447A,114.344,22.7115,深圳市,坪山,,25,25,19,13,11,72,,83,79,14,7,9,8,0.5,0.5
2026-02-26T2100,3623A,113.8952,22.586,深圳市,西乡,,,34,22,17,9,37,,73,53,,14,8,6,0.6,0.5
2026-02-26T2100,4220A,114.214113,22.713717,深圳市,黄阁路,,24,24,18,12,8,68,,78,74,12,8,6,6,0.8,0.8
2026-02-26T2100,1099A,123.5058,41.7084,沈阳市,浑南东路,颗粒物(PM10),66,82,104,46,47,57,,60,58,24,26,11,12,0.6,0.7
2026-02-26T2100,1100A,123.4238,41.6992,沈阳市,新秀街,颗粒物(PM10),63,76,102,41,49,70,,66,66,18,24,8,11,0.5,0.8
2026-02-26T2100,1102A,123.5903,41.8412,沈阳市,东陵路,细颗粒物(PM2.5),57,52,83,40,32,68,,64,64,10,14,6,17,0.5,0.7
2026-02-26T2100,1103A,123.4267,41.8466,沈阳市,陵东街,细颗粒物(PM2.5),75,86,94,55,41,58,,67,64,20,19,10,12,0.7,0.7
2026-02-26T2100,1104A,123.4116,41.7654,沈阳市,文化路,"颗粒物(PM10),细颗粒物(PM2.5)",67,83,102,48,45,62,,63,63,20,21,9,12,0.7,0.8
2026-02-26T2100,1105A,123.4673,41.787,沈阳市,小河沿,颗粒物(PM10),69,88,107,43,50,65,,68,64,18,19,10,10,0.6,0.8
2026-02-26T2100,1106A,123.4019,41.7978,沈阳市,太原街,细颗粒物(PM2.5),75,68,89,55,46,62,,72,66,22,19,10,10,0.6,0.7
2026-02-26T2100,1108A,123.3778,41.9233,沈阳市,京沈街,细颗粒物(PM2.5),87,89,77,64,33,63,,77,75,29,18,12,12,0.8,0.7
