timepoint,stationcode,longitude,latitude,area,positionname,primarypollutant,aqi,pm10,pm10_24h,pm2_5,pm2_5_24h,o3,o3_24h,o3_8h,o3_8h_24h,no2,no2_24h,so2,so2_24h,co,co_24h
2026-04-13T1000,2568A,102.2503,31.8896,阿坝藏族羌族自治州,马师校,,24,19,22,6,6,74,74,NA,NA,7,6,6,6,0.1,0.3
2026-04-13T1000,3994A,102.2174,31.9016,阿坝藏族羌族自治州,马尔康中学西区,,22,8,12,8,6,69,69,86,78,8,6,4,4,0.3,0.3
2026-04-13T1000,2695A,80.2899,41.1684,阿克苏地区,电视台,颗粒物(PM10),80,92,88,25,39,37,37,87,68,29,10,2,2,0.7,0.5
2026-04-13T1000,2696A,80.2592,41.1541,阿克苏地区,艺术中心,颗粒物(PM10),76,86,83,21,37,32,32,93,74,42,11,4,4,0.8,0.4
2026-04-13T1000,2205A,105.699,38.8409,阿拉善盟,蒙二幼,颗粒物(PM10),51,51,161,14,38,98,98,97,97,5,5,8,10,0.5,0.5
2026-04-13T1000,2206A,105.7198,38.8508,阿拉善盟,环保局新楼,NA,NA,36,149,3,39,NA,NA,96,96,NA,5,NA,9,NA,0.6
2026-04-13T1000,2708A,88.1266,47.8515,阿勒泰地区,市站,,30,30,21,3,3,47,47,49,42,18,6,10,6,0.3,0.2
2026-04-13T1000,4166A,88.1198,47.7931,阿勒泰地区,阿勒泰路33号,,29,29,26,3,3,41,41,64,55,21,6,11,6,0.3,0.2
2026-04-13T1000,2630A,80.1171,32.4999,阿里地区,阿里监测站,,28,26,14,3,6,88,88,100,92,15,5,6,6,0.5,0.4
2026-04-13T1000,3192A,80.0906,32.5029,阿里地区,阿里藏医院,,28,21,13,3,3,88,88,107,97,16,3,13,6,0.6,0.4
2026-04-13T1000,2644A,109.0088,32.6974,安康市,汉滨区检察院,,28,28,31,15,15,9,9,7,6,11,10,5,5,0.5,0.4
2026-04-13T1000,4054A,109.0324,32.6913,安康市,市邮政管理局,,45,45,37,19,18,21,21,15,15,11,12,4,5,0.7,0.6
2026-04-13T1000,2291A,117.0806,30.5181,安庆市,环科院,细颗粒物(PM2.5),64,54,26,42,23,33,33,48,43,19,11,5,5,0.9,0.6
2026-04-13T1000,2292A,117.0331,30.5118,安庆市,马山宾馆,细颗粒物(PM2.5),62,47,25,41,23,33,33,51,44,16,7,4,4,0.9,0.5
2026-04-13T1000,2294A,116.9897,30.6146,安庆市,安庆大学,,40,33,20,28,16,41,41,56,50,8,6,2,2,0.7,0.5
2026-04-13T1000,3173A,117.0598,30.5351,安庆市,市人大,细颗粒物(PM2.5),54,54,26,37,21,33,33,49,43,18,10,6,6,0.9,0.6
2026-04-13T1000,3123A,105.9408,26.2431,安顺市,凤凰山,细颗粒物(PM2.5),70,55,53,45,37,103,103,82,82,10,9,11,10,0.6,0.5
2026-04-13T1000,3124A,105.9443,26.2567,安顺市,金钟山,细颗粒物(PM2.5),72,53,46,46,38,86,86,76,76,9,7,9,9,0.6,0.6
2026-04-13T1000,3125A,105.8983,26.248,安顺市,娄家坡,细颗粒物(PM2.5),102,NA,45,62,38,92,92,76,76,12,8,37,21,0.8,0.7
2026-04-13T1000,1819A,114.3552,36.1017,安阳市,红庙街,,40,40,55,26,34,87,87,69,68,15,15,5,4,0.1,0.2
2026-04-13T1000,1820A,114.361,36.0681,安阳市,银杏小区,,42,42,58,28,36,78,78,62,61,17,15,6,5,0,0.1
2026-04-13T1000,3141A,114.3921,36.0879,安阳市,信访局,,32,32,56,18,37,82,82,68,67,17,12,4,3,0.3,0.4
2026-04-13T1000,3669A,114.4706,36.0634,安阳市,左辅环卫站,颗粒物(PM10),56,58,69,22,38,68,68,52,52,17,19,2,2,0.3,0.3
2026-04-13T1000,4117A,114.2918,36.0769,安阳市,钢三路198号,,48,48,59,23,41,63,63,59,55,18,16,4,4,0.4,0.5
2026-04-13T1000,1748A,123.0441,41.1201,鞍山市,深沟寺,颗粒物(PM10),55,56,86,17,38,82,82,69,69,20,19,16,12,0.7,0.8
2026-04-13T1000,1749A,123.011,41.0931,鞍山市,太阳城,,44,44,82,15,42,79,79,72,72,16,14,13,10,0.6,0.8
2026-04-13T1000,1750A,123.0483,41.1445,鞍山市,太平,NA,NA,60,96,19,41,80,80,71,71,17,23,NA,13,0.7,0.9
2026-04-13T1000,1751A,122.964,41.0968,鞍山市,铁西三道街,颗粒物(PM10),55,57,100,17,47,79,79,72,72,17,28,10,16,0.7,1.3
2026-04-13T1000,1753A,123.0219,41.0822,鞍山市,明达新区,,48,48,83,14,39,74,74,69,69,18,17,14,11,0.6,0.7
2026-04-13T1000,4201A,122.944647,41.082639,鞍山市,兴盛南路290号,颗粒物(PM10),53,54,106,16,49,80,80,75,75,20,27,11,17,0.8,1.3
2026-04-13T1000,2195A,107.4206,40.7609,巴彦淖尔市,附二中,颗粒物(PM10),500,965,197,177,46,68,68,45,45,10,22,10,13,0.4,0.5
2026-04-13T1000,2196A,107.37,40.7372,巴彦淖尔市,市环保大楼,颗粒物(PM10),500,888,170,180,38,68,68,46,46,12,22,6,7,0.3,0.4
2026-04-13T1000,1956A,86.1476,41.7529,巴音郭楞蒙古自治州,孔雀公园,,37,37,78,3,29,83,83,78,78,10,10,9,10,0.2,0.2
2026-04-13T1000,1957A,86.1971,41.7166,巴音郭楞蒙古自治州,棉纺厂,颗粒物(PM10),80,91,99,11,19,63,63,79,76,25,9,/,/,/,/
2026-04-13T1000,1958A,86.236,41.7172,巴音郭楞蒙古自治州,经济开发区,颗粒物(PM10),62,66,79,11,21,62,62,76,70,17,9,7,7,0.3,0.2
2026-04-13T1000,3181A,106.776805,31.852614,巴中市,市五中,,20,20,19,11,9,11,11,9,8,21,13,8,8,1.0,0.7
2026-04-13T1000,3183A,106.7419,31.8654,巴中市,圣泉水务公司,NA,NA,NA,17,NA,9,NA,NA,81,16,NA,14,NA,8,NA,0.6
2026-04-13T1000,3616A,106.7617,31.8343,巴中市,市中心医院,,25,25,18,12,9,9,9,7,6,18,12,8,8,0.7,0.6
2026-04-13T1000,2235A,122.7909,45.608,白城市,洮北区环保局,,26,22,48,10,17,82,82,56,56,43,24,6,5,0.1,0.1
2026-04-13T1000,2236A,122.8741,45.5725,白城市,市环保局,,22,22,44,15,14,70,70,35,35,13,17,5,4,0,0
2026-04-13T1000,2231A,126.4219,41.9172,白山市,喜丰,颗粒物(PM10),75,84,86,8,18,76,76,61,56,13,13,7,8,0.4,0.5
2026-04-13T1000,2232A,126.4082,41.9416,白山市,环保局,,48,48,62,3,14,86,86,69,66,11,10,10,8,0.3,0.5
2026-04-13T1000,2647A,104.1727,36.5448,白银市,第三小学,颗粒物(PM10),54,55,54,12,18,95,95,88,88,3,5,4,8,0.3,0.3
2026-04-13T1000,2648A,104.1467,36.5482,白银市,动力公司,,48,48,51,10,17,98,98,96,96,4,8,5,7,0.2,0.2
2026-04-13T1000,2512A,106.6102,23.901,百色市,市监测站,细颗粒物(PM2.5),98,81,75,59,53,68,68,47,47,17,18,15,13,1.0,0.7
2026-04-13T1000,2513A,106.6524,23.8842,百色市,市中心血站,细颗粒物(PM2.5),110,101,89,71,66,58,58,51,46,22,16,12,14,1.2,1.1
2026-04-13T1000,4133A,106.6273,23.8798,百色市,龙景西路,细颗粒物(PM2.5),116,91,93,77,71,57,57,36,36,22,25,16,17,0.7,0.7
2026-04-13T1000,2270A,117.396,32.9389,蚌埠市,工人疗养院,,31,17,29,3,13,97,97,88,88,9,11,3,4,0.3,0.3
2026-04-13T1000,2271A,117.3606,32.9428,蚌埠市,百货大楼,,30,12,21,3,12,94,94,84,84,6,10,4,5,0.4,0.4
2026-04-13T1000,2273A,117.4183,32.8909,蚌埠市,蚌埠学院,,24,19,16,9,12,76,76,69,68,26,24,5,5,0.4,0.4
2026-04-13T1000,2274A,117.3534,32.9672,蚌埠市,淮上区政府,,31,14,25,3,13,99,99,86,86,8,10,4,4,0.2,0.3
2026-04-13T1000,2275A,117.3143,32.8977,蚌埠市,高新区,,25,17,20,9,13,78,78,84,83,15,13,6,6,0.4,0.4
2026-04-13T1000,3715A,117.3091,32.9314,蚌埠市,蚌埠田家炳中学,,30,15,27,6,14,94,94,92,92,8,9,4,4,0.2,0.3
2026-04-13T1000,1585A,109.8761,40.6533,包头市,市环境监测站,颗粒物(PM10),55,57,55,26,15,67,67,71,60,37,18,17,9,0.6,0.4
2026-04-13T1000,1587A,109.9992,40.5843,包头市,包头八中,颗粒物(PM10),63,67,72,28,22,68,68,70,62,32,19,23,18,0.6,0.6
2026-04-13T1000,1589A,109.8641,40.6288,包头市,惠龙物流,颗粒物(PM10),56,58,53,22,15,70,70,69,59,25,16,11,10,0.5,0.5
2026-04-13T1000,1590A,110.0376,40.5546,包头市,东河鸿龙湾,颗粒物(PM10),65,70,70,36,21,65,65,62,58,37,23,16,21,0.6,0.4
2026-04-13T1000,3283A,109.9154,40.5684,包头市,滨河大厦,NA,NA,35,57,18,17,72,72,65,61,29,16,14,12,NA,0.5
2026-04-13T1000,3419A,109.9449,40.6259,包头市,包头市委党校,颗粒物(PM10),58,60,50,27,12,60,60,71,59,40,19,26,11,0.6,0.3
2026-04-13T1000,3683A,109.8332,40.6577,包头市,昆区政府,颗粒物(PM10),54,55,45,28,14,68,68,76,66,39,19,11,6,0.7,0.6
2026-04-13T1000,1931A,107.0802,34.3129,宝鸡市,竹园沟,,42,42,42,23,24,60,60,33,33,17,15,7,8,0.5,0.5
2026-04-13T1000,1933A,107.1429,34.3549,宝鸡市,监测站,,48,48,51,21,27,58,58,37,37,14,18,6,6,0.3,0.3
2026-04-13T1000,1934A,107.1172,34.3759,宝鸡市,技工学校,颗粒物(PM10),58,60,50,20,27,64,64,45,45,8,13,4,5,0.5,0.5
2026-04-13T1000,1936A,107.2025,34.3518,宝鸡市,文理学院,颗粒物(PM10),53,53,49,23,27,55,55,39,39,15,16,5,6,0.6,0.5
2026-04-13T1000,1937A,107.2396,34.3626,宝鸡市,三迪小学,颗粒物(PM10),53,54,53,28,28,52,52,37,37,17,18,6,6,0.6,0.6
2026-04-13T1000,4155A,107.1721,34.3558,宝鸡市,滨河北路,,43,43,51,25,28,50,50,38,38,15,15,7,8,0.6,0.6
2026-04-13T1000,4308A,107.3898,34.3601,宝鸡市,陈仓区北开路21号,颗粒物(PM10),58,60,63,33,38,60,60,38,38,9,16,36,16,0.6,0.6
2026-04-13T1000,1051A,115.4803,38.8568,保定市,游泳馆,NA,NA,111,128,33,78,NA,NA,60,57,15,27,3,2,0.3,0.4
2026-04-13T1000,1052A,115.509,38.8895,保定市,华电二区,颗粒物(PM10),85,99,116,20,70,76,76,52,52,12,26,4,4,0.2,0.4
2026-04-13T1000,1053A,115.4588,38.9037,保定市,接待中心,颗粒物(PM10),83,95,120,17,72,76,76,55,55,13,29,3,2,0.2,0.4
2026-04-13T1000,1054A,115.4484,38.8344,保定市,地表水厂,颗粒物(PM10),90,106,133,21,72,82,82,45,45,12,34,4,5,0.1,0.4
2026-04-13T1000,3581A,115.3136,38.9511,保定市,满城区生态环境分局,颗粒物(PM10),144,232,149,29,58,90,90,59,59,16,31,4,4,0.4,0.5
2026-04-13T1000,3582A,115.4709,38.7628,保定市,清苑区第二中学,颗粒物(PM10),115,157,165,18,74,77,77,38,38,14,46,3,7,0.3,0.6
2026-04-13T1000,3583A,115.6231,39.0223,保定市,徐水物探局,颗粒物(PM10),117,164,167,33,74,74,74,43,43,15,36,2,4,0.5,0.6
2026-04-13T1000,4004A,115.4199,38.8665,保定市,双鹰农机,颗粒物(PM10),112,150,130,18,76,82,82,54,54,15,30,4,5,0.2,0.4
2026-04-13T1000,4034A,115.515,38.8589,保定市,植保所站,颗粒物(PM10),82,94,134,15,68,76,76,48,48,13,33,3,5,0.3,0.5
2026-04-13T1000,2594A,99.1589,25.1137,保山市,市环境监测站,细颗粒物(PM2.5),86,69,48,53,32,66,66,99,87,28,9,7,6,0.6,0.3
2026-04-13T1000,2595A,99.1616,25.1381,保山市,市环保局,细颗粒物(PM2.5),78,61,49,49,35,79,79,106,97,20,6,6,6,0.6,0.3
2026-04-13T1000,1867A,109.1435,21.4085,北海市,海滩公园,颗粒物(PM10),55,57,52,28,33,53,53,33,33,10,10,8,8,0.6,0.6
2026-04-13T1000,1868A,109.0983,21.466,北海市,新市环保局,,46,46,46,23,27,47,47,34,34,14,12,13,12,0.7,0.6
2026-04-13T1000,1869A,109.1775,21.5232,北海市,北海工业园,颗粒物(PM10),61,65,55,34,30,35,35,25,25,20,12,12,10,0.9,0.8
2026-04-13T1000,3400A,109.1844,21.4396,北海市,龙潭自来水厂,,46,46,44,28,25,45,45,23,23,8,8,5,5,0.6,0.6
2026-04-13T1000,1001A,116.3611,39.8786,北京市,万寿西宫,颗粒物(PM10),81,93,124,25,49,71,71,75,75,12,38,4,5,0.4,0.6
2026-04-13T1000,1003A,116.4174,39.9289,北京市,东四,颗粒物(PM10),88,102,125,22,51,79,79,83,83,12,31,4,4,0.2,0.4
2026-04-13T1000,1004A,116.4073,39.8858,北京市,天坛,颗粒物(PM10),77,87,107,21,46,65,65,71,71,11,28,5,5,0.5,0.8
2026-04-13T1000,1005A,116.4622,39.9364,北京市,农展馆,颗粒物(PM10),84,97,115,31,47,76,76,75,75,12,33,5,5,0.5,0.7
2026-04-13T1000,1006A,116.3399,39.9293,北京市,官园,颗粒物(PM10),85,99,123,22,51,67,67,70,70,14,35,3,5,0.3,0.5
2026-04-13T1000,1007A,116.2879,39.9613,北京市,海淀万柳,颗粒物(PM10),93,109,110,19,41,65,65,59,59,15,45,5,5,0.3,0.5
2026-04-13T1000,1008A,116.6635,40.1349,北京市,顺义新城,颗粒物(PM10),103,127,124,19,42,65,65,72,72,16,23,7,6,0.5,0.7
2026-04-13T1000,1009A,116.6275,40.327,北京市,怀柔镇,颗粒物(PM10),87,101,92,25,37,62,62,66,66,17,16,7,6,0.7,0.7
2026-04-13T1000,1010A,116.2295,40.217,北京市,昌平镇,颗粒物(PM10),88,103,84,25,30,79,79,73,73,20,24,4,4,0.5,0.6
2026-04-13T1000,1011A,116.3968,39.982,北京市,奥体中心,颗粒物(PM10),82,94,113,25,41,76,76,78,78,15,47,5,6,0.5,0.8
2026-04-13T1000,3418A,116.8336,40.4095,北京市,密云新城,颗粒物(PM10),93,109,72,23,24,62,62,64,60,17,15,6,4,0.5,0.4
2026-04-13T1000,3671A,116.0879,39.9725,北京市,门头沟三家店,,33,NA,53,23,45,78,78,64,64,9,33,4,4,0.3,0.5
2026-04-13T1000,3672A,116.1507,39.8246,北京市,丰台云岗,颗粒物(PM10),78,88,125,17,49,77,77,69,69,14,36,3,4,0.4,0.6
2026-04-13T1000,3674A,115.9578,39.7602,北京市,房山燕山,颗粒物(PM10),61,65,112,21,44,77,77,80,80,13,24,4,4,0.4,0.6
2026-04-13T1000,3675A,116.4669,39.7734,北京市,大兴旧宫,颗粒物(PM10),73,81,122,18,47,70,70,74,74,10,28,5,5,0.4,0.7
2026-04-13T1000,3694A,115.9859,40.4562,北京市,延庆石河营,颗粒物(PM10),72,80,60,23,24,96,96,83,83,9,20,2,2,0.4,0.4
2026-04-13T1000,3695A,116.6151,40.3052,北京市,怀柔新城,颗粒物(PM10),93,110,91,21,33,66,66,70,68,19,16,6,6,0.5,0.7
2026-04-13T1000,3696A,116.2542,39.8764,北京市,丰台小屯,颗粒物(PM10),70,78,120,22,48,73,73,69,69,15,49,4,4,0.2,0.5
2026-04-13T1000,3697A,116.8399,40.3843,北京市,密云镇,颗粒物(PM10),80,92,81,23,31,59,59,53,53,16,29,8,6,0.5,0.5
2026-04-13T1000,4057A,115.9423,40.4431,北京市,延庆百泉,颗粒物(PM10),77,87,61,21,25,90,90,82,82,10,14,2,2,0.4,0.4
2026-04-13T1000,4058A,116.6598,39.9164,北京市,通州新华,颗粒物(PM10),88,103,129,16,52,61,61,66,66,16,30,5,5,0.4,0.6
2026-04-13T1000,4182A,116.1942,39.9158,北京市,石景山八角,颗粒物(PM10),88,103,133,20,42,68,68,61,61,15,49,2,2,0.3,0.6
2026-04-13T1000,4194A,117.078628,40.151726,北京市,平谷新城,颗粒物(PM10),88,103,118,24,52,48,48,81,68,32,24,7,6,0.6,0.7
2026-04-13T1000,1761A,123.8274146,41.31234549,本溪市,大峪,,42,42,73,6,21,86,86,71,71,5,10,6,8,0.5,0.7
2026-04-13T1000,1763A,123.7169,41.3094,本溪市,彩屯,颗粒物(PM10),62,66,76,24,29,90,90,72,72,12,17,9,13,0.5,0.7
2026-04-13T1000,1764A,123.7672166,41.28649327,本溪市,东明,颗粒物(PM10),55,56,96,8,24,77,77,68,67,14,17,9,11,0.4,0.6
2026-04-13T1000,1765A,123.799345,41.266614,本溪市,新立屯,颗粒物(PM10),53,54,80,8,24,75,75,64,63,13,22,9,9,0.5,0.6
2026-04-13T1000,1766A,123.829144,41.336777,本溪市,威宁,颗粒物(PM10),55,56,101,6,24,85,85,61,61,5,16,6,8,0.4,0.6
2026-04-13T1000,2587A,105.287,27.3133,毕节市,八中,,20,NA,33,13,19,62,62,50,50,7,8,10,11,0.6,0.5
2026-04-13T1000,2588A,105.3079,27.2987,毕节市,师专,,29,NA,30,20,19,66,66,57,57,6,5,8,9,0.5,0.5
2026-04-13T1000,4263A,105.3688,27.3598,毕节市,工业大道,,27,10,28,3,19,86,86,72,72,4,6,9,11,/,/
2026-04-13T1000,1629A,117.9961,37.3604,滨州市,第二水厂,颗粒物(PM10),75,85,59,46,26,58,58,39,39,39,32,22,14,0.7,0.5
2026-04-13T1000,1630A,117.9789,37.3931,滨州市,北中新校,颗粒物(PM10),74,83,56,44,26,40,40,50,50,39,33,29,18,0.7,0.6
2026-04-13T1000,3514A,117.9379,37.3959,滨州市,中海酒店,颗粒物(PM10),72,80,61,45,28,54,54,53,53,37,39,32,16,0.6,0.6
2026-04-13T1000,3515A,117.9381509,37.35547456,滨州市,开发区一中,细颗粒物(PM2.5),82,88,65,51,29,58,58,46,46,36,30,21,13,0.8,0.8
2026-04-13T1000,3516A,118.0914,37.6938,滨州市,金海六路,NA,NA,51,49,47,30,NA,NA,43,41,9,25,7,9,0.5,0.5
2026-04-13T1000,4028A,117.9955,37.3752,滨州市,滨州市西街道办事处,颗粒物(PM10),84,97,60,44,26,50,50,48,48,32,24,24,14,0.6,0.5
2026-04-13T1000,2311A,115.8071,33.8399,亳州市,污水处理厂,,44,44,37,27,19,72,72,61,61,10,12,5,6,0.0,0
2026-04-13T1000,2312A,115.7789,33.8519,亳州市,三国揽胜宫,,31,31,31,21,17,66,66,59,59,10,11,5,6,0.1,0.1
2026-04-13T1000,3332A,115.7631,33.803,亳州市,亳州学院,,35,35,40,19,18,74,74,67,67,6,7,5,6,0.2,0.1
2026-04-13T1000,2693A,82.0482,44.8553,博尔塔拉蒙古自治州,市党校,颗粒物(PM10),115,159,214,17,24,26,26,62,46,12,3,2,2,0.4,0.1
2026-04-13T1000,2694A,82.0805,44.8966,博尔塔拉蒙古自治州,市环保局,颗粒物(PM10),107,136,181,26,27,22,22,54,40,26,10,1,3,0.3,0.3
2026-04-13T1000,1071A,116.8733,38.2922,沧州市,沧县城建局,颗粒物(PM10),72,80,94,15,57,79,79,55,55,15,41,5,5,0.3,0.6
2026-04-13T1000,1072A,116.8462,38.3189,沧州市,电视转播站,颗粒物(PM10),63,68,97,30,60,78,78,52,52,14,32,7,7,0.3,0.5
2026-04-13T1000,1073A,116.8588,38.3161,沧州市,市环保局,NA,NA,86,105,18,52,77,77,54,54,12,31,NA,7,0.4,0.5
2026-04-13T1000,3324A,116.8011,38.294,沧州市,河北水利电力学院,颗粒物(PM10),78,88,93,27,61,80,80,66,66,15,28,5,7,0.3,0.4
2026-04-13T1000,2622A,97.1813,31.1289,昌都市,昌都监测站,,30,15,12,3,5,95,95,109,102,10,7,8,7,0.4,0.2
2026-04-13T1000,3719A,97.1707,31.1428,昌都市,昌都会议中心,,31,14,13,11,6,99,99,114,107,12,4,6,5,0.2,0.1
2026-04-13T1000,2692A,87.2722,44.0298,昌吉回族自治州,新区政务中心,颗粒物(PM10),88,102,47,13,11,57,57,70,68,17,11,5,5,0.2,0.2
2026-04-13T1000,3613A,87.3069,44.0093,昌吉回族自治州,亚心广场,颗粒物(PM10),100,119,63,16,12,66,66,75,75,17,11,6,6,0.3,0.3
2026-04-13T1000,4164A,87.2057,43.9289,昌吉回族自治州,财政所,颗粒物(PM10),105,132,59,3,8,53,53,63,63,16,6,7,7,0.2,0.1
2026-04-13T1000,1120A,125.2874,43.9024,长春市,客车厂,,25,23,80,10,18,77,77,46,46,10,16,7,7,0.3,0.3
2026-04-13T1000,1121A,125.2943,43.8508,长春市,邮电学院,,25,20,92,15,19,78,78,53,53,9,10,7,7,0.1,0.1
2026-04-13T1000,1122A,125.3648,43.8745,长春市,劳动公园,,25,22,70,10,19,78,78,53,53,8,12,7,7,0.3,0.4
2026-04-13T1000,1123A,125.3233,43.8781,长春市,园林处,,32,32,74,10,19,80,80,58,58,9,12,7,7,0,0.1
2026-04-13T1000,1124A,125.4604,43.7904,长春市,净月潭,NA,NA,28,75,13,18,74,74,53,50,NA,12,6,7,NA,0.3
2026-04-13T1000,1126A,125.38,43.8422,长春市,经开区环卫处,NA,NA,18,86,14,19,NA,NA,50,47,14,12,NA,6,0.3,0.3
2026-04-13T1000,1127A,125.234,43.7761,长春市,高新区管委会,,22,20,91,13,19,70,70,41,41,11,12,6,7,0.5,0.5
2026-04-13T1000,1128A,125.1695,43.83,长春市,岱山公园,,27,27,97,14,21,81,81,48,48,9,14,5,5,0.3,0.4
2026-04-13T1000,4281A,125.334645,43.916281,长春市,北亚泰大街1068号,,25,20,81,9,19,79,79,45,45,9,19,8,7,0.1,0.3
2026-04-13T1000,1335A,113.082,28.2421,长沙市,经开区环保局,,42,40,36,29,23,17,17,40,30,24,19,5,4,0.6,0.6
2026-04-13T1000,1336A,112.8873,28.2202,长沙市,高开区环保局,,46,38,38,32,28,38,38,48,45,15,11,6,6,0.6,0.6
2026-04-13T1000,1337A,113.0785,28.2012,长沙市,马坡岭,细颗粒物(PM2.5),52,39,40,36,26,17,17,39,32,24,14,5,5,0.9,0.8
2026-04-13T1000,1338A,112.9448,28.1894,长沙市,湖南师范大学,,49,37,39,34,26,38,38,47,46,14,14,6,6,0.8,0.7
2026-04-13T1000,1339A,113.0177,28.1322,长沙市,雨花区环保局,,41,41,36,28,24,32,32,47,42,16,13,4,4,1.1,0.9
2026-04-13T1000,1340A,112.9795,28.2593,长沙市,伍家岭,NA,NA,43,43,35,27,NA,NA,33,33,16,23,4,4,0.5,0.5
2026-04-13T1000,1341A,113.002,28.1944,长沙市,火车新站,细颗粒物(PM2.5),52,41,39,36,28,30,30,43,40,17,14,6,4,0.7,0.6
2026-04-13T1000,1342A,112.9846,28.1177,长沙市,天心区环保局,细颗粒物(PM2.5),58,50,39,39,28,26,26,53,44,24,18,6,5,0.8,0.7
2026-04-13T1000,1343A,112.8906,28.1307,长沙市,湖南中医药大学,,46,40,39,32,25,37,37,44,44,18,19,6,5,0.7,0.7
2026-04-13T1000,1727A,113.1146,36.1547,长治市,清华站,颗粒物(PM10),52,52,43,20,25,108,108,103,96,4,4,9,10,0.8,0.6
2026-04-13T1000,1730A,113.0887,36.2126,长治市,审计局,颗粒物(PM10),53,54,45,36,34,105,105,117,107,14,12,10,11,0.7,0.5
2026-04-13T1000,1731A,113.0845,36.1856,长治市,长治八中,细颗粒物(PM2.5),74,81,57,47,30,94,94,112,100,25,16,11,12,0.9,0.6
2026-04-13T1000,2845A,113.1561,36.1912,长治市,德盛苑,颗粒物(PM10),58,60,42,38,26,98,98,98,90,18,13,8,9,0.7,0.6
2026-04-13T1000,3568A,113.0603,36.0464,长治市,向阳小学,,48,48,74,26,26,119,119,93,90,15,22,6,10,0.5,0.6
2026-04-13T1000,3569A,112.8788,36.315,长治市,屯留一中,细颗粒物(PM2.5),68,68,52,44,30,100,100,106,101,18,16,12,12,0.8,0.4
2026-04-13T1000,4189A,113.113092,36.199482,长治市,英华南巷50号,颗粒物(PM10),58,60,50,24,29,114,114,107,98,8,10,8,10,1.2,0.8
2026-04-13T1000,4190A,113.23666,36.33435,长治市,学府街1号,颗粒物(PM10),55,57,52,32,27,108,108,75,75,10,16,5,7,0.6,0.6
2026-04-13T1000,1854A,111.696,28.9725,常德市,市二中,细颗粒物(PM2.5),70,NA,38,45,31,71,71,56,56,6,8,11,8,0.9,0.8
2026-04-13T1000,3138A,111.7152,29.0288,常德市,武陵区永安,细颗粒物(PM2.5),60,59,41,40,28,75,75,84,82,8,8,7,6,0.8,0.7
2026-04-13T1000,3139A,111.6891,28.9881,常德市,鼎城区玉霞,细颗粒物(PM2.5),66,46,40,43,30,75,75,53,53,6,10,10,9,0.8,0.8
2026-04-13T1000,3140A,111.6651,29.0526,常德市,武陵区长庚,细颗粒物(PM2.5),64,51,41,42,28,82,82,67,67,7,7,9,8,0.9,0.8
2026-04-13T1000,1196A,119.9524,31.7586,常州市,市监测站,,43,43,36,13,12,72,72,75,72,18,15,8,8,0.7,0.7
2026-04-13T1000,1200A,119.9351,31.703,常州市,武进监测站,,48,48,36,19,14,62,62,73,70,27,17,8,8,0.8,0.6
2026-04-13T1000,3002A,119.9701,31.813,常州市,行政中心,,30,30,29,10,13,65,65,67,64,25,21,5,5,0.4,0.4
2026-04-13T1000,3003A,120.0434,31.7726,常州市,经开区,,39,39,40,12,12,70,70,73,72,14,11,2,2,0.8,0.8
2026-04-13T1000,3010A,119.8919,31.7892,常州市,钟楼,,26,26,25,17,14,65,65,69,65,25,19,6,6,0.3,0.2
2026-04-13T1000,3429A,119.8595,31.706,常州市,武进经发区,,38,38,26,22,16,62,62,66,65,27,24,5,4,0.9,0.7
2026-04-13T1000,3430A,119.5812,31.7256,常州市,金坛城区,,23,NA,27,16,18,63,63,61,61,15,12,7,7,0.7,0.7
2026-04-13T1000,4089A,119.9551,31.863,常州市,崇义南街5-H号,,20,17,25,6,11,61,61,68,68,33,23,5,5,0.6,0.6
2026-04-13T1000,2220A,120.4318,41.588,朝阳市,西梁,,27,27,41,3,7,82,82,74,74,10,11,10,9,0.4,0.4
2026-04-13T1000,2221A,120.452,41.565,朝阳市,河畔小区,NA,NA,30,40,3,9,87,87,76,76,7,10,NA,11,NA,0.5
2026-04-13T1000,2222A,120.4176,41.5648,朝阳市,八里堡,,27,25,47,6,9,84,84,74,74,11,11,10,10,0.4,0.4
2026-04-13T1000,3026A,116.6179,23.6608,潮州市,市政府,颗粒物(PM10),56,58,30,23,17,36,36,20,19,13,10,6,4,0.5,0.4
2026-04-13T1000,4036A,116.646,23.676,潮州市,金山,颗粒物(PM10),55,56,29,29,19,32,32,7,7,13,11,4,2,0.4,0.4
2026-04-13T1000,2473A,113.0116,25.8228,郴州市,市职中,,22,22,16,14,16,16,16,16,16,12,12,7,6,0.7,0.7
2026-04-13T1000,2475A,113.0381,25.8074,郴州市,市审计局,,26,22,21,18,14,24,24,23,23,8,6,5,2,/,/
2026-04-13T1000,2476A,113.0348,25.7757,郴州市,市环保局,,36,36,24,23,17,17,17,19,18,15,14,19,7,0.7,0.5
2026-04-13T1000,4252A,113.0138,25.8011,郴州市,好美居路49号,,21,21,17,3,11,22,22,23,23,12,12,12,8,/,/
2026-04-13T1000,1431A,103.9727,30.7242,成都市,金泉两河,,24,24,25,13,20,15,15,37,33,24,17,2,2,0.4,0.3
2026-04-13T1000,1432A,104.1423,30.6765,成都市,十里店,颗粒物(PM10),58,61,42,24,27,37,37,54,51,23,21,4,4,0.7,0.7
2026-04-13T1000,1433A,104.0594,30.5765,成都市,三瓦窑,,28,28,34,18,28,31,31,50,48,22,19,2,2,0.7,0.6
2026-04-13T1000,1434A,104.1122,30.6306,成都市,沙河铺,,32,28,39,22,28,23,23,40,37,31,26,3,3,0.6,0.4
2026-04-13T1000,2880A,104.0219,30.6561,成都市,大石西路,,33,33,36,22,27,19,19,42,38,34,21,4,4,0.8,0.6
2026-04-13T1000,3136A,104.2724,30.559,成都市,龙泉驿区区政府,,28,22,32,19,28,50,50,51,51,18,19,6,6,0.5,0.5
2026-04-13T1000,3357A,104.0028,30.6891,成都市,金博路,,23,21,24,16,23,11,11,38,32,33,23,6,6,0.8,0.6
2026-04-13T1000,3359A,104.056,30.5228,成都市,华阳,,25,22,35,17,24,39,39,56,54,35,23,4,4,0.5,0.4
2026-04-13T1000,3488A,104.387954,30.746684,成都市,青石路225号,,36,35,44,25,29,31,31,35,34,18,26,7,7,0.6,0.6
2026-04-13T1000,3489A,104.0788,30.4054,成都市,科学城,,22,20,38,15,32,52,52,62,61,16,18,7,7,0.4,0.5
2026-04-13T1000,4011A,103.8505,30.6946,成都市,光华大道三段,,25,25,29,14,20,13,13,38,31,32,18,3,3,0.6,0.4
2026-04-13T1000,4144A,104.3257,30.6406,成都市,八角井街185号,,37,37,45,20,25,28,28,34,34,22,21,4,4,0.5,0.5
2026-04-13T1000,4224A,104.2433276,30.53529463,成都市,鲸龙路1057号,,39,27,43,27,33,40,40,51,51,33,23,6,6,0.8,0.7
2026-04-13T1000,1062A,117.9531,40.908,承德市,铁路,,41,41,46,3,9,67,67,71,68,13,14,3,5,0.2,0.3
2026-04-13T1000,1063A,117.9397,40.9763,承德市,中国银行,,24,17,42,3,10,76,76,78,77,2,7,2,3,0.3,0.3
2026-04-13T1000,4073A,117.9462,40.95,承德市,杏林街1号,,35,35,44,9,14,76,76,78,76,6,7,2,2,0.2,0.2
2026-04-13T1000,4274A,117.7994,40.9605,承德市,滨河大街98号,NA,NA,NA,35,56,10,NA,NA,80,77,NA,5,5,7,0.3,0.2
2026-04-13T1000,2314A,117.4698,30.6617,池州市,池州学院,,16,16,30,10,22,45,45,29,29,20,28,4,5,0.8,0.8
2026-04-13T1000,3237A,117.4918,30.6617,池州市,展览馆,,19,14,30,11,21,59,59,33,33,12,24,2,3,0.6,0.6
2026-04-13T1000,3333A,117.5626,30.695,池州市,第八中学,,16,15,29,9,19,49,49,31,31,13,25,3,3,0.7,0.7
2026-04-13T1000,3334A,117.5037,30.6242,池州市,第十二中学,,16,16,29,10,18,45,45,38,38,16,21,2,2,0.8,0.9
2026-04-13T1000,1744A,118.9229,42.2816,赤峰市,松山一中,,46,46,28,3,8,65,65,49,46,19,16,12,11,0.5,0.4
2026-04-13T1000,1745A,118.9588,42.2733,赤峰市,哈达街,,45,45,33,6,12,72,72,46,44,18,21,17,34,0.7,0.5
2026-04-13T1000,1746A,118.8792,42.2551,赤峰市,天义路,,26,26,36,3,9,75,75,44,44,9,15,8,20,0.3,0.3
2026-04-13T1000,3058A,119.2656,42.0356,赤峰市,银河街,颗粒物(PM10),53,54,43,13,15,66,66,50,49,15,9,20,8,0.6,0.2
2026-04-13T1000,3286A,118.9359,42.3146,赤峰市,桥北物流园区,,33,33,27,9,8,60,60,58,54,29,11,33,7,1.0,0.4
2026-04-13T1000,2521A,107.3473,22.4137,崇左市,市环保局江州分局,细颗粒物(PM2.5),100,79,112,60,85,63,63,76,62,22,15,6,4,1.0,1.1
2026-04-13T1000,4256A,107.375,22.3736,崇左市,石景林东路7号,细颗粒物(PM2.5),92,76,101,56,82,79,79,87,73,17,15,5,5,1.0,1.2
2026-04-13T1000,3207A,118.31131,32.3033,滁州市,市政府原办公楼,,27,14,15,14,20,84,84,80,80,11,9,4,4,0.4,0.4
2026-04-13T1000,3331A,118.3268,32.2633,滁州市,图书馆,,26,17,21,11,13,83,83,80,80,11,10,9,9,0.4,0.3
2026-04-13T1000,4101A,118.3196,32.3335,滁州市,银山路666号,,29,19,20,9,15,90,90,82,82,9,8,5,5,0.5,0.5
2026-04-13T1000,4102A,118.3426,32.2979,滁州市,黄山路555号,,28,23,27,12,16,87,87,80,80,10,12,5,5,0.6,0.5
2026-04-13T1000,2606A,101.5379,25.0492,楚雄彝族自治州,市经济开发区,颗粒物(PM10),53,53,37,28,20,106,106,97,88,17,9,3,3,0.5,0.4
2026-04-13T1000,4153A,101.5536,25.0343,楚雄彝族自治州,团结路562号,,50,50,32,32,20,109,109,114,105,17,8,3,2,0.4,0.3
2026-04-13T1000,2549A,107.5087,31.2186,达州市,市环境监测站,,30,30,33,6,11,4,4,4,3,29,22,7,6,0.5,0.3
2026-04-13T1000,2550A,107.4988,31.2132,达州市,凤凰小区,,29,29,30,3,12,6,6,7,6,30,23,7,5,0.5,0.3
2026-04-13T1000,2551A,107.5081,31.1987,达州市,达县机关宾馆,,19,19,31,3,16,6,6,4,4,38,28,6,5,0.6,0.4
2026-04-13T1000,2552A,107.4644,31.2124,达州市,市政中心,,32,32,37,6,10,5,5,5,5,30,27,6,5,0.6,0.4
2026-04-13T1000,2614A,100.2168,25.5818,大理白族自治州,大理市环境监测站,,43,43,37,24,26,99,99,92,92,14,13,4,4,0.3,0.3
2026-04-13T1000,2615A,100.1542,25.7055,大理白族自治州,大理古城,,49,49,34,33,23,111,111,111,109,8,5,3,2,0.3,0.4
2026-04-13T1000,1109A,121.6119,38.974,大连市,甘井子,,41,41,82,16,43,98,98,78,78,17,34,9,9,0.4,0.5
2026-04-13T1000,1110A,121.565,38.9509,大连市,周水子,颗粒物(PM10),55,57,75,28,95,86,86,61,61,22,39,2,6,0.5,0.6
2026-04-13T1000,1111A,121.5637,38.8849,大连市,星海三站,,48,48,74,15,47,96,96,81,81,12,34,4,5,0.4,0.5
2026-04-13T1000,1112A,121.6301,38.9117,大连市,青泥洼桥,,49,49,74,14,44,100,100,77,77,9,31,6,6,0.5,0.7
2026-04-13T1000,1113A,121.6248,38.8643,大连市,傅家庄,,41,41,79,12,44,96,96,90,90,8,23,7,8,0.5,0.6
2026-04-13T1000,1114A,121.5117,38.8636,大连市,七贤岭,,38,38,67,11,37,100,100,98,92,8,23,6,7,0.4,0.5
2026-04-13T1000,1116A,121.7507,39.1339,大连市,金州,,42,42,81,15,40,92,92,88,88,9,22,4,4,0.7,0.6
2026-04-13T1000,1117A,121.7811,39.0495,大连市,开发区,颗粒物(PM10),54,55,70,12,45,92,92,103,97,18,39,6,9,0.3,0.5
2026-04-13T1000,1118A,121.9762,39.0631,大连市,双D港,NA,NA,NA,69,14,46,92,92,88,88,13,24,7,6,0.6,0.9
2026-04-13T1000,4082A,121.2548,38.8188,大连市,旅顺,NA,NA,41,71,18,50,91,91,65,65,12,21,NA,7,0.4,0.5
2026-04-13T1000,1789A,124.8085,46.0381,大庆市,大同区,,25,20,42,3,13,80,80,66,66,5,8,2,3,0.3,0.3
2026-04-13T1000,1790A,125.1166,46.5255,大庆市,龙凤区,,23,21,45,3,14,71,71,62,61,9,13,4,4,0.1,0.1
2026-04-13T1000,1791A,124.8894,46.4007,大庆市,红岗区,,23,21,40,3,15,73,73,59,59,2,6,12,13,0.1,0.2
2026-04-13T1000,1792A,125.1391,46.578,大庆市,萨尔图区,,23,18,40,3,13,73,73,68,66,7,9,5,7,0.4,0.4
2026-04-13T1000,1793A,124.9026,46.6217,大庆市,让胡路区,,25,25,44,3,13,66,66,59,59,5,6,5,5,0.3,0.4
2026-04-13T1000,3481A,125.127,46.6277,大庆市,萨区政府监测点,,21,20,34,7,11,67,67,60,60,6,4,8,9,0.3,0.3
2026-04-13T1000,1723A,113.2926,40.0759,大同市,云冈宾馆,颗粒物(PM10),70,78,47,43,19,84,84,84,82,32,14,10,6,0.4,0.2
2026-04-13T1000,1724A,113.3437,40.0921,大同市,大同大学,细颗粒物(PM2.5),80,86,52,50,11,107,107,89,89,28,15,5,3,0.6,0.4
2026-04-13T1000,1725A,113.2637,40.129,大同市,安家小村,颗粒物(PM10),70,77,50,22,10,108,108,87,87,19,14,14,10,0.5,0.3
2026-04-13T1000,3282A,113.3399,40.0586,大同市,大同市卫生学校,颗粒物(PM10),68,75,52,29,12,108,108,90,90,28,13,8,5,0.6,0.3
2026-04-13T1000,3565A,113.1371,40.1122,大同市,云冈站,颗粒物(PM10),91,107,50,31,11,30,30,69,53,56,14,10,7,0.7,0.4
2026-04-13T1000,3566A,113.1186,40.2556,大同市,图书馆,颗粒物(PM10),70,78,54,24,13,57,57,64,60,35,13,9,7,0.6,0.3
2026-04-13T1000,3567A,113.5931,40.0459,大同市,区一中,颗粒物(PM10),82,94,53,37,13,123,123,92,92,21,9,24,8,0.6,0.4
2026-04-13T1000,4199A,113.2798248,40.09972476,大同市,魏都大道141号,颗粒物(PM10),79,90,55,27,12,92,92,82,82,25,13,11,7,0.7,0.5
2026-04-13T1000,2269A,124.1068,50.4091,大兴安岭地区,科技局,,24,11,17,3,8,75,75,70,70,2,3,7,8,0.0,0.1
2026-04-13T1000,3663A,124.117,50.4279,大兴安岭地区,红旗社区,,26,9,8,3,6,83,83,78,78,2,4,8,8,0.1,0.2
2026-04-13T1000,1600A,124.33,40.0625,丹东市,江湾东路,颗粒物(PM10),60,63,56,14,24,84,84,76,76,17,14,5,9,0.3,0.6
2026-04-13T1000,1601A,124.4242,40.1513,丹东市,临江后街,NA,NA,49,50,11,24,NA,NA,55,54,8,12,NA,7,0.3,0.6
2026-04-13T1000,1602A,124.3935,40.1461,丹东市,元宝山,颗粒物(PM10),63,67,56,16,24,77,77,63,63,11,14,6,9,0.3,0.7
2026-04-13T1000,1603A,124.3634,40.1093,丹东市,民主桥,颗粒物(PM10),61,65,55,14,25,81,81,68,68,13,16,6,8,0.2,0.5
2026-04-13T1000,3541A,109.5726195,19.51688767,儋州市,第一中学子站,"颗粒物(PM10),细颗粒物(PM2.5)",54,55,53,37,36,102,102,101,100,4,4,8,10,0.5,0.4
2026-04-13T1000,3542A,109.5567,19.5187,儋州市,东坡学校子站,颗粒物(PM10),63,67,54,36,38,98,98,98,97,5,4,8,8,0.6,0.6
2026-04-13T1000,2616A,98.5611,24.4273,德宏傣族景颇族自治州,德宏州监测站,细颗粒物(PM2.5),104,73,55,64,50,38,38,41,32,28,18,8,6,0.5,0.3
2026-04-13T1000,3677A,98.5887,24.4366,德宏傣族景颇族自治州,芒市人民政府综合楼,细颗粒物(PM2.5),110,98,83,70,47,40,40,55,47,26,14,8,8,0.8,0.5
2026-04-13T1000,1901A,104.424,31.1209,德阳市,东山公园,细颗粒物(PM2.5),60,NA,30,40,29,12,12,18,13,30,22,3,5,0.7,0.5
2026-04-13T1000,1902A,104.3827,31.1318,德阳市,西小区,细颗粒物(PM2.5),60,46,45,40,32,15,15,12,10,31,25,4,5,0.7,0.5
2026-04-13T1000,1904A,104.3553,31.1091,德阳市,耐火材料厂,细颗粒物(PM2.5),64,NA,44,42,35,15,15,9,9,29,26,2,3,0.6,0.4
2026-04-13T1000,4145A,104.4144,31.1495,德阳市,市林业局,细颗粒物(PM2.5),78,NA,37,49,33,23,23,12,12,27,25,4,6,0.8,0.6
2026-04-13T1000,1622A,116.3034,37.4675,德州市,儿童乐园,颗粒物(PM10),58,61,75,19,33,79,79,92,92,28,18,10,8,0.7,0.7
2026-04-13T1000,1624A,116.2992,37.4449,德州市,监理站,,35,24,73,3,31,111,111,94,94,15,26,8,9,0.3,0.6
2026-04-13T1000,3066A,116.2722,37.438,德州市,九衢泉纯净水厂,,30,27,81,9,37,94,94,71,71,7,29,7,6,0.5,0.7
2026-04-13T1000,3371A,116.3693,37.44,德州市,开发区人民医院,,46,46,75,11,34,81,81,87,86,21,24,11,11,0.4,0.6
2026-04-13T1000,3511A,116.5687,37.3331,德州市,陵城艺术中心,,44,44,77,27,45,68,68,66,62,13,21,8,11,0.8,0.9
2026-04-13T1000,4292A,116.352738,37.420875,德州市,新河东路,,31,22,74,6,36,99,99,73,73,8,31,9,9,0.6,0.8
2026-04-13T1000,2621A,99.7054,27.8319,迪庆藏族自治州,迪庆州站,,40,16,20,13,10,127,127,126,126,12,10,9,9,0.5,0.4
2026-04-13T1000,3180A,99.7122,27.8129,迪庆藏族自治州,质量技术监督局,,42,30,20,16,12,132,132,138,137,14,10,6,6,0.5,0.4
2026-04-13T1000,4257A,104.6092,35.5962,定西市,将台街,颗粒物(PM10),58,60,73,13,25,64,64,53,45,26,17,11,8,0.4,0.1
2026-04-13T1000,4309A,104.6159,35.5701,定西市,正龙路62号,NA,NA,NA,73,NA,23,NA,NA,64,54,24,11,6,4,0.5,0.2
2026-04-13T1000,4071A,114.9883,38.5232,定州市,交通局,颗粒物(PM10),117,162,173,55,87,96,96,54,54,22,35,8,8,0.7,0.7
2026-04-13T1000,4072A,115.0045,38.5136,定州市,第五中学,颗粒物(PM10),125,183,177,46,84,96,96,56,56,16,30,4,5,0.6,0.6
2026-04-13T1000,1390A,113.7943,23.0132,东莞市,东城石井,NA,NA,NA,28,NA,16,46,46,19,19,NA,18,NA,2,0.5,0.5
2026-04-13T1000,1391A,113.7384,22.9659,东莞市,南城西平,,22,22,25,12,12,51,51,21,21,10,14,3,3,0.5,0.5
2026-04-13T1000,3319A,113.7283,23.041,东莞市,万江金泰,,28,28,28,14,15,42,42,26,26,18,15,6,6,0.6,0.6
2026-04-13T1000,4129A,113.8666,23.1062,东莞市,裕兴路,,35,35,39,13,15,34,34,18,18,21,20,8,6,0.8,0.7
2026-04-13T1000,4130A,114.0076,22.9739,东莞市,教育路1号,,23,23,33,8,15,48,48,28,28,14,17,6,6,0.6,0.6
2026-04-13T1000,4131A,113.7981,22.8124,东莞市,长怡路1号,,30,30,31,13,12,47,47,32,32,13,14,6,5,0.7,0.7
2026-04-13T1000,1666A,118.6612,37.4313,东营市,市环保局,细颗粒物(PM2.5),60,58,35,40,16,95,95,62,62,28,23,16,11,0.7,0.4
2026-04-13T1000,3036A,118.6903,37.4337,东营市,开发区管委会,细颗粒物(PM2.5),80,54,39,50,16,87,87,70,70,31,25,14,10,0.8,0.6
2026-04-13T1000,3365A,118.5721,37.5654,东营市,垦利区民丰路,细颗粒物(PM2.5),80,NA,34,50,15,96,96,69,66,21,26,8,6,0.8,0.6
2026-04-13T1000,3498A,118.5063,37.8606,东营市,河口城区,细颗粒物(PM2.5),86,75,45,53,25,101,101,77,77,20,18,11,12,0.8,0.7
2026-04-13T1000,3646A,118.4979,37.4623,东营市,胜利站,NA,NA,NA,32,38,13,53,53,NA,NA,2,16,15,10,1.3,0.7
2026-04-13T1000,3734A,118.5753,37.4405,东营市,理想之城,颗粒物(PM10),60,63,36,36,12,96,96,53,53,41,33,13,7,0.8,0.5
2026-04-13T1000,1591A,110.0024,39.8127,鄂尔多斯市,综合楼,颗粒物(PM10),63,68,117,20,28,108,108,123,122,24,18,12,7,0.6,0.4
2026-04-13T1000,1592A,109.9485,39.8259,鄂尔多斯市,巴音孟克林场办事处,颗粒物(PM10),55,56,100,23,22,116,116,122,122,17,13,6,5,0.4,0.4
2026-04-13T1000,1593A,109.7734,39.5987,鄂尔多斯市,康泽苑,颗粒物(PM10),56,58,109,16,23,125,125,122,122,11,13,8,8,0.3,0.3
2026-04-13T1000,1594A,109.8121,39.5987,鄂尔多斯市,华泰汽车城,颗粒物(PM10),55,56,108,17,24,113,113,98,98,10,15,7,8,0.4,0.4
2026-04-13T1000,1595A,109.9734,39.7884,鄂尔多斯市,奥林花园,颗粒物(PM10),62,66,112,18,19,106,106,108,108,24,20,8,5,0.6,0.4
2026-04-13T1000,2436A,114.894,30.3989,鄂州市,市政府,,35,34,47,24,23,54,54,46,46,26,26,14,11,1.0,0.8
2026-04-13T1000,2437A,114.8986,30.3714,鄂州市,赵家坝,,43,43,45,24,24,51,51,37,37,19,15,13,10,0.7,0.6
2026-04-13T1000,3654A,114.8093,30.4091,鄂州市,精准医疗中心,,42,42,43,21,23,45,45,38,34,29,17,7,5,0.8,0.8
2026-04-13T1000,2454A,109.4978,30.2979,恩施土家族苗族自治州,湖北民院,,23,23,26,7,14,8,8,11,11,15,12,7,7,0.7,0.6
2026-04-13T1000,3549A,109.5061,30.3771,恩施土家族苗族自治州,龙凤新区,,19,15,21,13,12,8,8,11,9,11,5,7,7,0.5,0.4
2026-04-13T1000,2499A,108.3411,21.6159,防城港市,沙万,颗粒物(PM10),76,86,70,40,36,30,30,52,40,22,18,8,7,1.0,0.8
2026-04-13T1000,2500A,108.3515,21.7733,防城港市,防城档案局,颗粒物(PM10),65,70,58,39,37,40,40,38,33,16,8,12,8,0.9,0.8
2026-04-13T1000,2501A,108.3506,21.6414,防城港市,大海花园,NA,NA,NA,55,44,39,36,36,65,52,14,20,11,8,0.8,0.7
2026-04-13T1000,1371A,113.1293,23.0065,佛山市,湾梁,,27,27,29,16,18,44,44,23,23,12,15,/,/,/,/
2026-04-13T1000,1372A,113.1082,23.0477,佛山市,华材职中,NA,NA,31,29,18,19,NA,NA,28,28,17,15,4,5,0.4,0.4
2026-04-13T1000,1373A,113.1439,23.045,佛山市,南海气象局,,33,33,37,15,19,37,37,22,22,17,18,/,/,/,/
2026-04-13T1000,1374A,113.2879,22.8094,佛山市,顺德苏岗,NA,NA,34,35,14,16,NA,NA,21,21,9,12,/,/,0.6,0.6
2026-04-13T1000,1376A,112.8384,22.8678,佛山市,高明孔堂,,37,37,30,16,16,43,43,38,38,12,8,/,/,/,/
2026-04-13T1000,1377A,112.8835,23.1584,佛山市,三水监测站,,31,31,30,17,21,34,34,21,21,23,25,3,3,0.4,0.3
2026-04-13T1000,1378A,112.8668,23.185,佛山市,三水云东海,颗粒物(PM10),52,52,50,17,20,40,40,24,24,16,21,/,/,/,/
2026-04-13T1000,3625A,113.2568,22.7629,佛山市,容桂街道办,,22,22,24,14,16,47,47,33,33,12,14,/,/,/,/
2026-04-13T1000,1282A,119.2681,26.0506,福州市,师大,,37,37,38,15,16,51,51,65,59,18,15,3,4,0.5,0.4
2026-04-13T1000,1283A,119.2983,26.1028,福州市,五四北路,,38,38,39,17,18,29,29,61,49,28,15,4,4,0.5,0.3
2026-04-13T1000,1284A,119.2648,26.0769,福州市,杨桥西路,,42,42,36,15,18,52,52,62,55,18,15,4,4,/,/
2026-04-13T1000,3048A,119.5799,26.0937,福州市,九龙,,42,NA,34,29,24,38,38,41,36,24,15,5,5,0.5,0.4
2026-04-13T1000,3526A,119.5188,25.9666,福州市,吴航,,33,30,39,23,26,44,44,31,31,20,16,5,5,0.8,0.6
2026-04-13T1000,4104A,119.3106,26.0648,福州市,路通桥巷6号,NA,NA,43,31,31,22,36,36,61,55,NA,12,/,/,/,/
2026-04-13T1000,1755A,123.7974,41.8494,抚顺市,望花区,,40,40,93,8,22,91,91,77,77,9,13,6,10,0.6,0.6
2026-04-13T1000,1756A,123.9161,41.8827,抚顺市,顺城区,,37,37,85,3,20,84,84,65,65,9,15,9,10,0.4,0.5
2026-04-13T1000,1757A,124.0437,41.8615,抚顺市,东洲区,,41,41,86,3,19,85,85,71,71,7,14,8,9,0.4,0.5
2026-04-13T1000,1758A,123.9246,41.8638,抚顺市,新抚区,,40,40,93,6,20,91,91,75,75,8,13,7,9,0.4,0.6
2026-04-13T1000,1759A,124.0972,41.8961,抚顺市,大伙房水库,,30,30,81,3,15,90,90,80,80,4,9,8,9,0.3,0.3
2026-04-13T1000,1760A,123.708,41.8386,抚顺市,沈抚新城,,34,34,96,6,21,85,85,73,73,12,14,9,9,0.6,0.5
2026-04-13T1000,2377A,116.3544,27.9833,抚州市,市站,,43,35,32,30,25,43,43,52,49,12,10,17,9,1.0,1
2026-04-13T1000,2378A,116.3562,27.9631,抚州市,血防站,,40,40,32,24,23,37,37,49,45,12,10,13,10,0.8,0.8
2026-04-13T1000,2379A,116.3561,28.0007,抚州市,采茶剧团,,40,40,35,27,21,39,39,47,44,3,4,17,11,0.9,0.9
2026-04-13T1000,2380A,116.3854,27.9648,抚州市,医学分院,,41,41,37,24,18,41,41,44,43,8,9,7,10,1.4,1.3
2026-04-13T1000,2207A,121.6095,41.9978,阜新市,工业园区,NA,NA,NA,60,NA,12,85,85,70,70,10,11,10,14,0.3,0.3
2026-04-13T1000,2208A,121.6567,42.0188,阜新市,长青街,,28,19,48,6,11,87,87,72,72,9,13,10,11,0.3,0.4
2026-04-13T1000,2209A,121.6672,42.07,阜新市,农业园区,,27,23,55,9,10,86,86,78,78,10,10,5,6,0.4,0.4
2026-04-13T1000,2211A,121.6343,42.0455,阜新市,玉龙新城,,27,23,54,11,9,85,85,72,72,14,13,8,8,0.3,0.3
2026-04-13T1000,2301A,115.8276,32.8929,阜阳市,市监测站,,24,24,37,8,21,75,75,73,73,12,13,5,5,0.2,0.3
2026-04-13T1000,2303A,115.8551,32.8606,阜阳市,开发区,,25,14,42,12,22,79,79,71,71,12,13,5,6,0.4,0.5
2026-04-13T1000,2875A,115.783962,32.889217,阜阳市,阜阳职业技术学院,NA,NA,NA,35,7,20,77,77,76,76,7,7,6,7,0.4,0.5
2026-04-13T1000,3468A,115.79,32.8614,阜阳市,市规划展馆,,27,22,38,12,26,84,84,77,77,8,10,6,7,0.4,0.5
2026-04-13T1000,3469A,115.835101,32.918568,阜阳市,枣园社区,,24,20,35,10,25,76,76,69,69,6,9,7,6,0.3,0.4
2026-04-13T1000,2669A,102.9097,34.9841,甘南藏族自治州,州政府,颗粒物(PM10),53,53,34,23,19,53,53,52,47,18,10,1,1,0.4,0.3
2026-04-13T1000,3380A,102.8915,34.9618,甘南藏族自治州,甘肃民族师范学院,,48,48,37,30,16,57,57,59,53,28,7,1,2,0.2,0.3
2026-04-13T1000,2570A,101.96,30.048,甘孜藏族自治州,水桥子,,20,6,7,3,2,62,62,58,57,16,8,6,6,0.3,0.2
2026-04-13T1000,3065A,101.9534,29.9976,甘孜藏族自治州,州环保局,,24,11,9,3,3,76,76,65,65,15,12,5,4,0.3,0.3
2026-04-13T1000,2363A,114.9368,25.8663,赣州市,地委,,33,33,28,19,18,49,49,81,72,12,9,2,2,0.9,0.9
2026-04-13T1000,2364A,114.946,25.8483,赣州市,气象台,,30,24,32,21,20,50,50,84,71,13,12,5,5,0.8,0.8
2026-04-13T1000,2365A,114.932,25.8332,赣州市,市图书馆,,31,31,24,18,20,53,53,89,80,12,11,3,4,0.7,0.8
2026-04-13T1000,2366A,114.8905,25.8472,赣州市,华坚鞋城,,33,33,29,20,21,50,50,78,70,7,13,6,6,0.8,0.9
2026-04-13T1000,3109A,115.0094,25.8614,赣州市,赣县区卫计委,颗粒物(PM10),58,60,27,10,15,57,57,86,76,15,7,3,3,0.7,0.7
2026-04-13T1000,2684A,106.2753,36.0057,固原市,监测站,颗粒物(PM10),91,107,50,40,20,61,61,60,50,29,13,6,6,0.5,0.4
2026-04-13T1000,2685A,106.2384,36.0189,固原市,新区,颗粒物(PM10),82,94,47,33,16,80,80,40,30,17,14,5,5,0.5,0.4
2026-04-13T1000,2544A,106.6307,30.4577,广安市,市委,,36,NA,26,25,24,30,30,49,41,21,10,6,6,0.6,0.4
2026-04-13T1000,2545A,106.6266,30.4662,广安市,友谊中学,,28,24,26,19,20,48,48,47,43,9,10,7,8,0.7,0.5
2026-04-13T1000,2547A,106.6386,30.4551,广安市,广电花园,,39,37,33,27,24,28,28,39,33,21,14,5,6,0.6,0.4
2026-04-13T1000,2902A,106.6347,30.4868,广安市,北辰小学,,35,26,29,24,22,46,46,47,42,8,9,18,15,0.5,0.5
2026-04-13T1000,2524A,105.8211,32.4444,广元市,老城,,36,36,26,9,7,80,80,70,70,13,20,1,2,0.6,0.6
2026-04-13T1000,2526A,105.8629,32.429,广元市,监测站,,22,21,28,8,6,69,69,57,57,20,14,2,3,0.5,0.4
2026-04-13T1000,3617A,105.8047,32.4167,广元市,经开区,,26,26,24,13,13,79,79,65,65,14,18,3,5,0.4,0.4
2026-04-13T1000,1345A,113.2346,23.1423,广州市,广雅中学,,28,28,30,13,14,38,38,24,24,11,18,2,1,0.5,0.6
2026-04-13T1000,1346A,113.2611,23.105,广州市,市五中,,27,27,27,18,18,46,46,29,29,13,19,2,2,/,/
2026-04-13T1000,1348A,113.3477,23.0916,广州市,广东商学院,NA,NA,26,28,15,15,40,40,18,18,11,20,4,4,NA,0.1
2026-04-13T1000,1349A,113.4332,23.105,广州市,市八十六中,,21,21,22,13,11,32,32,19,19,20,28,6,6,/,/
2026-04-13T1000,1350A,113.3506,22.9488,广州市,番禺中学,,29,29,31,13,13,45,45,30,30,10,15,4,4,0.5,0.5
2026-04-13T1000,1351A,113.2147,23.3918,广州市,花都师范,,34,34,34,17,17,38,38,28,28,22,24,6,6,0.7,0.7
2026-04-13T1000,1352A,113.2599,23.1329,广州市,市监测站,,29,29,22,14,12,41,41,27,27,9,11,2,2,/,/
2026-04-13T1000,1353A,113.5618,23.3119,广州市,九龙镇镇龙,,43,43,35,20,17,20,20,12,10,27,24,6,6,0.5,0.4
2026-04-13T1000,1354A,113.2764,23.1544,广州市,麓湖,,28,28,27,14,13,40,40,32,32,12,14,4,4,0.5,0.5
2026-04-13T1000,2846A,113.3209,23.1323,广州市,体育西,,30,30,31,14,13,36,36,20,20,15,20,4,5,0.5,0.5
2026-04-13T1000,3298A,113.5718,23.5493,广州市,从化街口,,28,28,34,16,18,38,38,27,27,10,14,7,7,0.5,0.6
2026-04-13T1000,3299A,113.3463,23.369,广州市,白云竹料,,39,39,38,14,17,38,38,23,23,20,23,4,3,0.6,0.6
2026-04-13T1000,3300A,113.2981,23.2365,广州市,白云嘉禾,,27,27,29,14,14,37,37,19,19,20,27,10,10,/,/
2026-04-13T1000,3301A,113.4256,23.1716,广州市,黄埔科学城,,28,28,30,13,13,36,36,22,22,18,28,6,7,0.6,0.6
2026-04-13T1000,3302A,113.3942,23.0485,广州市,番禺大学城,,22,22,24,10,9,52,52,29,29,12,19,4,4,0.5,0.5
2026-04-13T1000,3303A,113.4923,22.8169,广州市,南沙黄阁,,39,39,28,10,11,43,43,37,37,9,8,5,5,/,/
2026-04-13T1000,3304A,113.534,22.7893,广州市,南沙街,,30,30,27,11,10,40,40,34,34,14,13,5,5,0.3,0.3
2026-04-13T1000,3443A,113.2905,23.5541,广州市,花都梯面,,28,28,29,16,16,32,32,25,25,17,17,9,8,/,/
2026-04-13T1000,3445A,113.786,23.7479,广州市,从化良口,,22,22,27,14,17,28,28,15,14,12,15,4,4,/,/
2026-04-13T1000,3446A,113.805,23.2614,广州市,增城荔城,,33,33,37,14,17,37,37,23,23,16,19,6,5,0.4,0.4
2026-04-13T1000,2506A,109.604387,23.066791,贵港市,江南子站,颗粒物(PM10),51,51,67,34,37,55,55,41,41,8,13,13,11,0.7,0.8
2026-04-13T1000,2508A,109.5669,23.1065,贵港市,荷城子站,颗粒物(PM10),58,61,56,28,39,50,50,43,43,18,15,23,12,0.8,0.9
2026-04-13T1000,3405A,109.5886,23.1172,贵港市,新世纪学校,颗粒物(PM10),53,53,59,28,38,52,52,42,42,19,18,/,/,0.8,0.7
2026-04-13T1000,4260A,109.5933,23.095,贵港市,中山路155-3号,颗粒物(PM10),58,60,67,34,39,48,48,42,42,15,14,/,/,0.8,0.8
2026-04-13T1000,1439A,106.6863,26.6035,贵阳市,马鞍山,,48,48,33,25,22,24,24,36,27,16,11,4,3,/,/
2026-04-13T1000,1441A,106.6241,26.6266,贵阳市,鉴湖路,颗粒物(PM10),62,66,46,28,24,34,34,48,40,16,10,6,6,0.9,0.8
2026-04-13T1000,1442A,106.7468,26.6344,贵阳市,燕子冲,,46,46,40,12,21,29,29,45,37,16,10,6,5,1.4,1.2
2026-04-13T1000,1443A,106.6556,26.4362,贵阳市,碧云窝,颗粒物(PM10),60,63,60,36,30,50,50,76,72,20,11,7,7,/,/
2026-04-13T1000,1445A,106.6963,26.6063,贵阳市,红边门,,46,46,44,20,26,26,26,45,37,19,10,9,5,/,/
2026-04-13T1000,1446A,106.7162383,26.56964667,贵阳市,新华路,NA,NA,NA,48,NA,26,42,42,53,48,14,10,4,16,0.8,0.4
2026-04-13T1000,1447A,106.6742,26.542,贵阳市,太慈桥,,46,46,37,30,25,22,22,39,28,24,12,4,3,/,/
2026-04-13T1000,4230A,106.688212,26.56952,贵阳市,花果园大街66号,,36,36,26,24,24,27,27,50,40,21,11,3,3,/,/
2026-04-13T1000,4231A,106.687268,26.516892,贵阳市,漓江路57号,,36,36,30,21,26,32,32,44,37,19,12,6,6,1.1,0.8
2026-04-13T1000,1864A,110.3091,25.2705,桂林市,龙隐路小学,,18,18,18,3,8,38,38,38,37,10,10,3,3,0.7,0.6
2026-04-13T1000,1865A,110.2849361,25.22909545,桂林市,八中,,15,12,18,10,8,31,31,34,31,16,13,3,3,0.8,0.7
2026-04-13T1000,3531A,110.296,25.1254,桂林市,旅游学院,,13,13,27,8,15,33,33,30,29,10,10,6,6,0.8,0.8
2026-04-13T1000,4222A,110.1835,25.2444,桂林市,环湖路276号,NA,NA,NA,12,2,8,42,42,43,42,14,8,3,3,0.6,0.5
2026-04-13T1000,4301A,110.2803,25.2773,桂林市,信义路13号,,22,22,16,13,9,39,39,43,41,13,11,4,4,0.8,0.8
2026-04-13T1000,2674A,100.2262,34.4854,果洛藏族自治州,玛沁县大武镇,,32,32,29,18,14,91,91,83,82,3,2,24,20,0.5,0.4
2026-04-13T1000,1130A,126.5557,45.8109,哈尔滨市,松北商大,,32,32,34,17,18,67,67,59,59,7,12,12,10,0.4,0.3
2026-04-13T1000,1132A,126.6162,45.719,哈尔滨市,南岗学府路,NA,NA,31,39,3,10,NA,NA,64,62,6,10,2,5,0.6,0.5
2026-04-13T1000,1133A,126.6894,45.7733,哈尔滨市,太平宏伟公园,,30,30,38,3,13,66,66,65,65,10,15,9,7,0.3,0.3
2026-04-13T1000,1134A,126.6361,45.7672,哈尔滨市,道外承德广场,,37,37,56,3,12,67,67,64,63,9,16,8,8,0.8,0.6
2026-04-13T1000,1136A,126.644,45.7261,哈尔滨市,动力和平路,,20,19,38,3,12,63,63,61,60,9,13,2,4,0.6,0.6
2026-04-13T1000,1137A,126.5933,45.7479,哈尔滨市,道里建国路,NA,NA,NA,34,NA,14,NA,NA,63,62,13,19,2,3,0.4,0.1
2026-04-13T1000,1138A,126.6127,45.6119,哈尔滨市,平房东轻厂,,33,33,31,3,13,55,55,46,46,32,67,3,3,0.5,0.5
2026-04-13T1000,1139A,126.5875,45.9827,哈尔滨市,呼兰师专,,19,19,31,3,10,59,59,52,52,11,15,9,9,0.0,0.1
2026-04-13T1000,1140A,126.6299,45.6799,哈尔滨市,省农科院,,22,22,66,3,17,69,69,56,56,6,18,6,7,0.4,0.4
2026-04-13T1000,4282A,126.6769,45.7379,哈尔滨市,华山路1号,NA,NA,NA,51,NA,12,NA,NA,88,NA,NA,13,NA,5,NA,0.3
2026-04-13T1000,4283A,126.9717,45.5356,哈尔滨市,解放大街52号,,29,29,41,3,11,70,70,60,59,11,15,8,8,0.5,0.5
2026-04-13T1000,2688A,93.5124,42.8176,哈密市,地区监测站,颗粒物(PM10),63,68,27,12,11,90,90,87,85,5,5,9,10,0.1,0.2
2026-04-13T1000,2689A,93.5014,42.8312,哈密市,哈密师范学校,,50,50,33,6,8,92,92,91,90,7,6,7,8,0.1,0.1
2026-04-13T1000,2671A,100.9016,36.9464,海北藏族自治州,海晏县西海镇,,40,32,30,28,23,83,83,90,87,9,3,7,8,0.6,0.5
2026-04-13T1000,3867A,102.074,36.5056,海东市,平安区公安局北苑,,49,44,51,34,27,60,60,47,45,27,11,11,9,0.6,0.5
2026-04-13T1000,4163A,102.0984,36.5119,海东市,滨河路,,36,33,50,25,28,46,46,19,19,30,31,9,8,0.7,0.6
2026-04-13T1000,1410A,110.3189,20.0596,海口市,海南大学,,41,41,41,28,24,86,86,76,76,8,6,5,5,0.5,0.4
2026-04-13T1000,1411A,110.2827,20.0051,海口市,秀英海南医院,,38,32,34,26,24,76,76,65,65,9,8,8,8,0.4,0.3
2026-04-13T1000,1412A,110.3391,19.9979,海口市,海南师范大学,,40,39,42,28,24,87,87,70,70,7,6,6,6,0.5,0.4
2026-04-13T1000,1413A,110.3303,20.0359,海口市,龙华路环保局宿舍,,43,40,41,30,25,85,85,74,74,10,8,/,/,0.6,0.5
2026-04-13T1000,3539A,110.5111,19.9737,海口市,桂林洋子站,,38,38,36,22,21,82,82,70,70,6,7,/,/,/,/
2026-04-13T1000,4134A,110.1952,20.0451,海口市,长滨二路9号,,44,44,46,28,29,82,82,73,73,7,6,/,/,/,/
2026-04-13T1000,2673A,100.6158,36.2985,海南藏族自治州,共和县恰卜恰镇,,38,38,40,20,21,92,92,99,95,3,5,10,8,0.3,0.3
2026-04-13T1000,2676A,97.373,37.376,海西蒙古族藏族自治州,德令哈市,,37,16,27,10,14,117,117,112,112,4,11,12,13,0.4,0.4
2026-04-13T1000,1049A,114.492,36.5712,邯郸市,矿院,,40,40,58,13,32,64,64,61,61,23,15,14,9,0.6,0.4
2026-04-13T1000,1050A,114.4839,36.6136,邯郸市,丛台公园,,41,41,51,23,34,84,84,78,78,16,12,15,12,0.4,0.4
2026-04-13T1000,3458A,114.7893,36.5592,邯郸市,香泉濮院小区,,30,28,60,17,35,96,96,80,79,9,12,1,2,0.2,0.4
2026-04-13T1000,3580A,114.1998,36.4439,邯郸市,峰峰矿区临水派出所,,46,46,55,24,34,98,98,84,79,11,11,11,10,0.5,0.5
2026-04-13T1000,4068A,114.5209,36.7697,邯郸市,建安街268号,,43,43,60,13,33,81,81,69,69,17,21,2,2,0.3,0.4
2026-04-13T1000,4069A,114.5488,36.6177,邯郸市,丛台东路558号,颗粒物(PM10),53,53,60,18,36,80,80,66,66,10,13,2,2,0.3,0.4
2026-04-13T1000,2635A,107.0155,33.0707,汉中市,市监测站,,31,31,30,20,15,45,45,33,26,9,7,9,5,0.5,0.4
2026-04-13T1000,2636A,107.0083,33.114,汉中市,鑫源开发区,NA,NA,44,29,24,16,NA,NA,38,29,NA,12,NA,5,NA,0.3
2026-04-13T1000,2637A,107.0072,33.0323,汉中市,南郑大河坎水厂,,39,39,28,20,15,30,30,14,14,18,13,5,4,0.5,0.5
2026-04-13T1000,1223A,120.2073,30.2111,杭州市,滨江,,40,40,52,26,31,51,51,48,45,16,23,7,7,0.9,0.8
2026-04-13T1000,1224A,120.0625,30.2737,杭州市,西溪,NA,NA,30,39,22,25,46,46,46,43,16,16,4,8,NA,0.8
2026-04-13T1000,1226A,120.3417,30.315,杭州市,下沙,颗粒物(PM10),56,58,71,24,33,49,49,42,42,18,18,7,7,0.7,0.7
2026-04-13T1000,1227A,120.1252,30.2465,杭州市,卧龙桥,,45,45,44,26,26,49,49,36,34,25,24,6,7,0.3,0.3
2026-04-13T1000,1228A,120.1902,30.2691,杭州市,浙江农大,,40,31,38,28,29,38,38,41,38,27,27,7,7,0.3,0.2
2026-04-13T1000,1230A,120.1195,30.3121,杭州市,和睦小学,颗粒物(PM10),78,89,63,28,29,46,46,49,46,20,21,6,6,0.6,0.6
2026-04-13T1000,1231A,120.3076,30.4146,杭州市,临平镇,,30,30,45,20,29,61,61,58,58,17,18,7,6,0.4,0.4
2026-04-13T1000,1232A,120.2753,30.1839,杭州市,城厢镇,,43,36,45,30,32,44,44,43,37,23,26,5,5,0.6,0.6
2026-04-13T1000,1233A,120.0883,30.1808,杭州市,云栖,,39,39,36,26,24,42,42,20,20,26,23,6,6,0.7,0.7
2026-04-13T1000,3557A,119.9463,30.0496,杭州市,镇二中,,40,29,37,28,30,39,39,48,46,21,18,4,4,0.7,0.6
2026-04-13T1000,3558A,119.7184,30.2367,杭州市,市府大楼,,39,NA,31,27,28,49,49,45,45,14,14,6,6,0.5,0.6
2026-04-13T1000,3656A,120.1554,30.2863,杭州市,消防大队,颗粒物(PM10),57,59,57,27,29,47,47,45,42,22,26,4,4,0.8,0.7
2026-04-13T1000,1270A,117.1957,31.7845,合肥市,明珠广场,,34,34,28,14,15,63,63,62,60,17,16,6,6,0.6,0.6
2026-04-13T1000,1271A,117.307,31.8765,合肥市,三里街,,36,36,26,15,13,52,52,58,56,20,19,6,6,0.6,0.6
2026-04-13T1000,1272A,117.2587,31.8703,合肥市,琥珀山庄,,24,24,24,15,13,61,61,63,62,18,18,6,6,0.6,0.6
2026-04-13T1000,1275A,117.2593,31.9376,合肥市,庐阳区,,39,39,26,14,12,59,59,67,64,16,15,5,5,0.8,0.7
2026-04-13T1000,1276A,117.345251,31.861615,合肥市,瑶海区,,36,36,27,13,12,60,60,63,62,15,15,6,6,0.7,0.7
2026-04-13T1000,1277A,117.3033,31.7967,合肥市,包河区,,36,36,30,15,12,46,46,46,46,30,33,7,8,0.8,0.8
2026-04-13T1000,1278A,117.278,31.7392,合肥市,滨湖新区,,41,41,33,15,14,62,62,60,58,10,12,5,5,0.6,0.6
2026-04-13T1000,1279A,117.1324,31.8395,合肥市,高新区,,29,29,30,12,13,69,69,63,62,9,10,4,5,0.6,0.6
2026-04-13T1000,3464A,117.3802,31.9148,合肥市,高教基地,,22,22,24,12,11,60,60,67,66,10,12,7,8,0.5,0.5
2026-04-13T1000,4098A,117.2518,31.8404,合肥市,中国科学技术大学,,36,36,24,14,12,63,63,65,64,12,11,5,5,0.6,0.6
2026-04-13T1000,3614A,79.9241,37.0878,和田地区,地区环保局,颗粒物(PM10),500,852,1260,388,557,79,79,95,90,8,2,1,2,0.4,0.3
2026-04-13T1000,3615A,79.9132,37.1137,和田地区,市环保局,颗粒物(PM10),500,888,1034,193,343,75,75,83,79,12,6,3,4,0.3,0.3
2026-04-13T1000,2517A,108.0496,24.6957,河池市,市环保站,细颗粒物(PM2.5),64,66,67,42,54,50,50,46,46,7,8,5,6,0.9,0.9
2026-04-13T1000,4302A,108.0901,24.6945,河池市,上任中路54号,NA,NA,NA,71,NA,49,NA,NA,NA,NA,NA,11,NA,8,NA,1
2026-04-13T1000,1697A,114.6962,23.7538,河源市,东埔,,23,23,28,15,17,44,44,36,36,6,10,7,7,0.5,0.5
2026-04-13T1000,1698A,114.6895,23.7232,河源市,老城,NA,NA,28,33,13,19,NA,NA,31,31,5,11,7,8,0.4,0.5
2026-04-13T1000,3374A,115.5562,35.089,菏泽市,定陶老年大学,,33,31,48,12,22,103,103,72,72,13,17,7,6,0.3,0.3
2026-04-13T1000,4114A,115.4239,35.2593,菏泽市,黄河路600号,,33,28,51,3,19,103,103,82,82,7,10,4,3,0.3,0.4
2026-04-13T1000,4115A,115.5025,35.2727,菏泽市,菏泽市人社局,,31,20,43,7,20,97,97,76,76,6,9,8,7,0.2,0.3
2026-04-13T1000,4184A,115.479691,35.244011,菏泽市,永昌路1号,,36,36,51,8,21,111,111,86,86,9,14,4,4,0.1,0.3
2026-04-13T1000,4193A,115.471542,35.280012,菏泽市,长城路999号,,34,18,45,6,18,106,106,87,87,9,11,6,6,0.2,0.2
2026-04-13T1000,2514A,111.5264,24.4178,贺州市,环保小区,,48,48,49,20,29,51,51,47,47,16,16,7,7,0.3,0.5
2026-04-13T1000,2515A,111.561,24.4074,贺州市,政协大楼,,47,47,39,19,27,60,60,55,53,11,12,8,9,0.6,0.7
2026-04-13T1000,3534A,111.4744,24.455,贺州市,西湾,,33,33,54,21,29,52,52,40,40,13,15,9,9,0.5,0.7
2026-04-13T1000,2385A,114.17,35.9019,鹤壁市,市监测站,细颗粒物(PM2.5),56,45,61,38,46,84,84,70,70,15,16,5,6,0.5,0.5
2026-04-13T1000,2386A,114.2953,35.7512,鹤壁市,市交警支队,NA,NA,49,68,NA,41,65,65,59,54,20,19,2,7,0.5,0.6
2026-04-13T1000,2387A,114.2877,35.7302,鹤壁市,迎宾馆,颗粒物(PM10),63,67,74,22,42,66,66,59,55,14,15,6,6,0.5,0.6
2026-04-13T1000,3474A,114.2616,35.6824,鹤壁市,大新区,颗粒物(PM10),62,66,64,39,48,66,66,59,58,15,19,9,8,0.6,0.7
2026-04-13T1000,3596A,114.1573,35.9607,鹤壁市,南山宾馆,颗粒物(PM10),60,64,92,33,46,88,88,66,65,18,17,8,9,0.5,0.5
2026-04-13T1000,2244A,130.2537,47.3416,鹤岗市,哈啤分公司,NA,NA,NA,21,NA,10,NA,NA,75,75,7,8,8,9,0.2,0.2
2026-04-13T1000,2245A,130.2683,47.3087,鹤岗市,斯达机电,,30,30,25,10,12,64,64,73,72,8,7,9,10,0.3,0.3
2026-04-13T1000,2246A,130.3114,47.3388,鹤岗市,东山纸板厂,,26,26,32,12,12,74,74,80,79,8,7,7,7,0.4,0.4
2026-04-13T1000,2263A,127.4832,50.2524,黑河市,交通局,NA,NA,17,17,11,11,70,70,69,69,NA,4,7,6,0.3,0.3
2026-04-13T1000,2264A,127.5146,50.2339,黑河市,环保局,,23,13,14,3,9,73,73,71,71,8,10,6,8,0.2,0.2
2026-04-13T1000,1074A,115.6839,37.754,衡水市,电机北厂,,46,46,81,3,38,104,104,93,93,15,23,4,5,0.1,0.4
2026-04-13T1000,1075A,115.6303,37.7318,衡水市,市监测站,,49,49,78,3,35,99,99,81,81,13,21,5,6,0.4,0.5
2026-04-13T1000,3188A,115.6684,37.7216,衡水市,市城管局,,44,44,73,11,39,111,111,91,91,12,20,6,5,0.3,0.4
2026-04-13T1000,3459A,115.599,37.5491,衡水市,地表水厂,,38,38,80,17,36,106,106,62,62,6,35,4,5,0.2,0.4
2026-04-13T1000,2457A,112.6209,26.9268,衡阳市,衡阳化工总厂,NA,NA,99,61,24,24,33,33,31,30,NA,10,NA,10,0.8,0.7
2026-04-13T1000,2458A,112.621,26.8957,衡阳市,珠晖区环保局,,32,30,31,22,22,30,30,32,31,17,15,8,11,1.2,0.9
2026-04-13T1000,2459A,112.628,26.8654,衡阳市,市委党校,,43,32,28,30,26,34,34,40,36,9,6,10,12,1.8,1.1
2026-04-13T1000,2460A,112.6007,26.8977,衡阳市,市监测站,,39,27,34,27,26,32,32,35,33,17,13,6,12,1.0,0.9
2026-04-13T1000,2461A,112.5658,26.9013,衡阳市,真空机电公司,,43,NA,34,30,28,37,37,37,37,16,14,7,13,1.1,1.1
2026-04-13T1000,3399A,112.6703,26.8817,衡阳市,师范学院,,32,28,33,22,23,35,35,42,37,14,12,6,12,1.4,0.9
2026-04-13T1000,3038A,103.3757,23.3679,红河哈尼族彝族自治州,州图书馆,颗粒物(PM10),66,72,53,38,32,138,138,100,100,12,10,6,7,0.4,0.3
2026-04-13T1000,4154A,103.401,23.3561,红河哈尼族彝族自治州,蒙自市朝阳路,颗粒物(PM10),68,74,39,37,30,138,138,96,96,14,12,5,6,0.5,0.4
2026-04-13T1000,1090A,111.6506,40.7517,呼和浩特市,呼市一监,NA,NA,NA,31,NA,14,NA,NA,84,83,20,13,9,6,0.5,0.4
2026-04-13T1000,1094A,111.7516,40.8369,呼和浩特市,如意水处理厂,颗粒物(PM10),64,69,40,27,15,96,96,86,86,29,17,10,7,0.4,0.3
2026-04-13T1000,1095A,111.727798,40.806187,呼和浩特市,二十九中,颗粒物(PM10),71,79,37,30,14,86,86,83,83,18,10,10,9,0.6,0.4
2026-04-13T1000,1097A,111.717,40.7617,呼和浩特市,化肥厂生活区,颗粒物(PM10),68,74,47,31,28,104,104,88,88,19,13,10,7,0.5,0.4
2026-04-13T1000,3699A,111.6519,40.8389,呼和浩特市,海东办,NA,NA,66,28,28,11,NA,NA,80,80,19,12,8,5,0.5,0.3
2026-04-13T1000,4275A,111.591512,40.827312,呼和浩特市,成吉思汗西街8号,颗粒物(PM10),63,68,33,25,11,90,90,63,63,25,21,8,6,0.6,0.4
2026-04-13T1000,4276A,111.6597,40.8077,呼和浩特市,公园东路75号,颗粒物(PM10),63,68,34,29,15,92,92,89,89,19,13,6,4,0.5,0.3
2026-04-13T1000,4277A,111.5427,40.7846,呼和浩特市,金海路35号,颗粒物(PM10),60,64,31,30,12,93,93,86,86,25,17,10,5,0.5,0.3
2026-04-13T1000,3061A,119.7511,49.1576,呼伦贝尔市,国华电力东,,26,26,20,8,10,71,71,50,50,7,7,5,5,0.2,0.2
2026-04-13T1000,4279A,119.7569,49.2222,呼伦贝尔市,伊敏大街东7号,,27,27,24,16,10,77,77,61,61,5,6,7,6,0.3,0.3
2026-04-13T1000,1250A,120.075,30.867,湖州市,城西水厂,,30,20,29,16,20,93,93,85,85,10,16,4,4,0.4,0.4
2026-04-13T1000,2873A,120.083,30.8929,湖州市,仁皇山新区,,28,20,29,18,20,87,87,80,80,8,13,4,4,0.6,0.5
2026-04-13T1000,2907A,120.1846,30.8592,湖州市,吴兴区站,,27,27,34,18,23,85,85,77,77,12,15,5,5,0.3,0.3
2026-04-13T1000,3562A,120.4146,30.8538,湖州市,南浔区站,,29,23,38,14,26,90,90,74,74,9,12,5,4,0.5,0.5
2026-04-13T1000,1607A,120.904878,40.721091,葫芦岛市,龙港区,颗粒物(PM10),68,74,117,10,64,82,82,75,75,21,34,16,49,0.3,0.7
2026-04-13T1000,1608A,120.8382,40.7521,葫芦岛市,化工街,,34,34,119,14,68,70,70,63,62,17,40,11,16,0.3,0.7
2026-04-13T1000,1609A,120.8339,40.7078,葫芦岛市,新区,,39,39,102,3,70,76,76,67,67,17,34,12,24,0.4,1
2026-04-13T1000,1610A,120.8697,40.7679,葫芦岛市,东城区,NA,NA,NA,98,7,68,72,72,60,59,17,46,NA,15,NA,1
2026-04-13T1000,2483A,109.9297,27.5383,怀化市,河西地税局,,27,27,29,12,14,50,50,46,46,10,8,4,5,/,/
2026-04-13T1000,2484A,109.9783,27.5342,怀化市,市四医院,,31,31,35,15,17,53,53,47,47,7,7,2,3,0.4,0.4
2026-04-13T1000,2485A,109.9971,27.5579,怀化市,监测楼,NA,NA,NA,NA,NA,NA,NA,NA,NA,NA,NA,NA,NA,NA,NA,NA
2026-04-13T1000,1210A,119.0566,33.5991,淮安市,钵池山,,26,17,19,3,11,83,83,96,94,11,9,6,7,0.5,0.5
2026-04-13T1000,1211A,119.0083,33.578,淮安市,北京南路,,25,9,19,3,13,80,80,91,89,8,7,6,7,0.4,0.4
2026-04-13T1000,1212A,118.9938,33.6083,淮安市,市监测站,,30,7,12,6,13,93,93,103,102,9,7,5,5,0.5,0.5
2026-04-13T1000,1213A,119.135,33.5038,淮安市,楚州区监测站,,27,6,15,3,12,85,85,94,92,8,8,5,5,0.1,0.2
2026-04-13T1000,3426A,118.8757,33.2897,淮安市,新华书店,,27,6,19,3,7,84,84,89,88,8,8,6,6,0.4,0.4
2026-04-13T1000,4092A,119.119691,33.550006,淮安市,枚皋中路89号,,28,11,19,3,12,87,87,97,95,8,8,10,10,0.6,0.6
2026-04-13T1000,4206A,119.028838,33.631911,淮安市,承德北路606号,,24,14,21,6,12,74,74,90,88,15,8,7,7,0.1,0.2
2026-04-13T1000,2282A,116.8005,33.9749,淮北市,监测站,NA,NA,NA,29,NA,17,NA,NA,116,NA,NA,9,NA,6,NA,0.3
2026-04-13T1000,2283A,116.8094,33.9008,淮北市,烈山区政府,,34,34,31,18,15,81,81,89,89,8,7,5,5,0.4,0.4
2026-04-13T1000,4017A,116.7926,33.9534,淮北市,市博物馆,NA,NA,NA,30,19,17,81,81,88,88,9,7,4,4,0.5,0.5
2026-04-13T1000,4100A,116.8322,33.9884,淮北市,杜集区第一实验学校,,47,47,37,23,15,69,69,79,78,14,10,5,6,0.3,0.3
2026-04-13T1000,2277A,116.8304,32.7726,淮南市,潘集区政府,,24,24,24,9,17,72,72,69,69,15,16,5,6,0.3,0.4
2026-04-13T1000,2279A,116.8569,32.5949,淮南市,谢家集区政府,,24,14,18,8,16,76,76,76,76,9,10,7,8,0.4,0.4
2026-04-13T1000,2280A,116.8279,32.6333,淮南市,八公山区政府,,23,18,28,10,18,73,73,75,75,8,9,5,8,0.4,0.5
2026-04-13T1000,2894A,117.0561,32.6536,淮南市,经济技术开发区消防队,,23,18,19,6,13,72,72,73,73,11,12,6,6,0.4,0.4
2026-04-13T1000,3329A,117.011,32.5891,淮南市,山南新区,,25,6,11,6,13,78,78,79,78,9,10,6,7,0.4,0.5
2026-04-13T1000,4209A,117.003137,32.644456,淮南市,国庆中路369号,NA,NA,8,29,7,13,66,66,71,70,11,11,4,4,NA,0.2
2026-04-13T1000,2446A,114.9021,30.474,黄冈市,职工中心,,38,38,42,25,24,55,55,47,47,14,13,8,7,0.5,0.5
2026-04-13T1000,2929A,114.8858,30.4519,黄冈市,红卫路,,38,33,39,26,23,61,61,51,51,14,13,7,6,0.4,0.4
2026-04-13T1000,3398A,114.9134,30.4446,黄冈市,市林业局,,39,39,48,26,28,59,59,49,49,14,13,4,4,0.4,0.4
2026-04-13T1000,2672A,102.02,35.5101,黄南藏族自治州,同仁县隆务镇,,39,39,34,16,17,103,103,79,79,3,2,9,10,0.3,0.3
2026-04-13T1000,2295A,118.2905,29.6965,黄山市,延安路89号,,19,19,23,12,15,41,41,44,42,7,8,4,4,0.7,0.7
2026-04-13T1000,2297A,118.1369,30.2755,黄山市,黄山区政府5号楼,,16,16,22,7,13,48,48,47,44,4,6,3,2,0.6,0.6
2026-04-13T1000,4210A,118.335445,29.720283,黄山市,滨江东路7-2号,,24,24,43,9,16,40,40,40,39,6,8,/,/,/,/
2026-04-13T1000,2423A,115.0547,30.2332,黄石市,沈家营,,40,40,56,18,24,44,44,26,26,17,17,8,8,0.6,0.8
2026-04-13T1000,2426A,114.899,30.211,黄石市,铁山,,28,27,50,19,25,71,71,60,60,1,9,6,8,0.8,0.6
2026-04-13T1000,2427A,115.0259,30.2108,黄石市,团城山,,32,32,48,11,27,51,51,51,48,7,8,13,11,0.6,0.7
2026-04-13T1000,3149A,115.0174,30.1591,黄石市,笔架山北路,,28,28,59,11,22,66,66,52,52,9,7,10,10,0.7,0.8
2026-04-13T1000,4185A,115.078022,30.21118,黄石市,磁湖东路29号,,25,25,53,13,27,61,61,65,62,14,13,4,4,1.0,0.9
2026-04-13T1000,1392A,114.4181,23.0528,惠州市,河南岸金山湖子站,,30,30,30,14,14,36,36,26,26,13,11,6,6,0.6,0.5
2026-04-13T1000,1393A,114.4055,23.0824,惠州市,下埔横江三路子站,,31,31,33,13,14,35,35,30,30,11,9,5,5,0.7,0.7
2026-04-13T1000,1395A,114.4645,22.7832,惠州市,惠阳区承修路船湖子站,,24,24,30,12,12,44,44,31,31,5,8,5,5,0.4,0.4
2026-04-13T1000,1396A,114.5316,22.7423,惠州市,大亚湾管委会子站,,26,26,27,12,11,38,38,28,28,5,9,4,4,0.5,0.5
2026-04-13T1000,3314A,114.4334,22.8134,惠州市,惠阳秋长,,27,27,25,12,12,53,53,33,33,6,9,/,/,/,/
2026-04-13T1000,3452A,114.6521,22.7755,惠州市,大亚湾霞涌,,14,11,18,8,9,42,42,40,39,4,6,/,/,/,/
2026-04-13T1000,4300A,114.4089,23.1147,惠州市,文华一路1号,,26,26,30,13,14,41,41,28,28,10,10,/,/,/,/
2026-04-13T1000,2240A,130.9618,45.2926,鸡西市,环保局,,26,16,36,3,19,81,81,75,75,3,14,6,7,0.1,0.3
2026-04-13T1000,2243A,130.9294,45.2959,鸡西市,第一中学,,25,13,32,3,18,79,79,74,74,2,13,4,5,0.1,0.2
2026-04-13T1000,3707A,131.0069,45.2988,鸡西市,欧美日汽修厂,,24,22,48,3,24,75,75,69,69,5,19,2,4,0.4,0.5
2026-04-13T1000,2367A,114.9753,27.0803,吉安市,红声器材厂,,21,21,33,8,17,44,44,44,44,12,13,5,6,1.2,1.2
2026-04-13T1000,2369A,114.9903,27.1313,吉安市,市环境监测站,,19,19,30,6,18,45,45,48,48,13,12,10,11,/,/
2026-04-13T1000,2370A,115.009527,27.096792,吉安市,青原区法院,,21,21,32,3,16,46,46,46,46,14,14,7,8,0.9,0.8
2026-04-13T1000,1772A,126.54,43.8622,吉林市,哈达湾,颗粒物(PM10),54,55,81,13,21,80,80,69,69,8,9,10,6,0.2,0.3
2026-04-13T1000,1773A,126.5843,43.8358,吉林市,东局子,,25,25,81,13,21,76,76,62,62,12,12,8,5,0.8,0.8
2026-04-13T1000,1774A,126.5051,43.8243,吉林市,电力学院,,32,32,79,9,20,89,89,69,69,6,10,5,6,0.6,0.7
2026-04-13T1000,1775A,126.6133,43.8971,吉林市,江北,NA,NA,NA,89,NA,22,NA,NA,110,46,NA,12,NA,12,NA,0.5
2026-04-13T1000,1776A,126.5549,43.8304,吉林市,江南公园,,41,41,70,14,19,73,73,65,65,11,11,8,7,0.4,0.5
2026-04-13T1000,2868A,126.4737,43.953,吉林市,九站,颗粒物(PM10),53,53,91,14,23,82,82,61,61,9,15,16,10,0.5,0.6
2026-04-13T1000,1299A,116.9866,36.6118,济南市,科干所,NA,NA,73,43,34,18,NA,NA,78,66,28,17,9,8,0.4,0.3
2026-04-13T1000,1300A,116.9379,36.6652,济南市,农科所,颗粒物(PM10),65,71,44,30,18,59,59,59,49,40,24,8,6,0.3,0.3
2026-04-13T1000,1301A,117.1265,36.6736,济南市,开发区,颗粒物(PM10),91,107,50,37,19,52,52,73,58,54,24,7,6,0.5,0.3
2026-04-13T1000,1303A,117.0616,36.6865,济南市,省种子仓库,颗粒物(PM10),91,107,60,35,21,45,45,62,48,53,28,10,9,0.7,0.6
2026-04-13T1000,1304A,116.9495185,36.644937,济南市,机床二厂,颗粒物(PM10),57,59,50,31,19,66,66,70,62,41,25,8,7,0.5,0.5
2026-04-13T1000,1305A,117.0496,36.6629,济南市,市监测站,颗粒物(PM10),86,100,50,35,18,53,53,72,60,49,23,7,5,0.9,0.7
2026-04-13T1000,1306A,116.7674,36.5458,济南市,长清党校,NA,NA,56,45,27,15,NA,NA,64,60,18,15,8,5,0.5,0.5
2026-04-13T1000,1961A,117.5323,36.6865,济南市,东山小学,颗粒物(PM10),60,63,40,22,10,72,72,86,79,44,22,9,7,0.7,0.5
2026-04-13T1000,3059A,117.7181,36.205,济南市,泰兴公司,,36,36,34,14,13,90,90,NA,NA,25,28,17,8,1.3,0.4
2026-04-13T1000,3064A,117.6861,36.2172,济南市,莱芜战役纪念馆,,46,46,34,15,13,88,88,70,70,28,20,14,6,1.3,0.6
2026-04-13T1000,3494A,117.1673,36.9782,济南市,济阳区政府,颗粒物(PM10),63,68,63,36,24,64,64,56,56,26,33,15,8,0.7,0.6
2026-04-13T1000,3495A,117.1168,36.6299,济南市,锦屏中学,颗粒物(PM10),73,81,39,27,15,69,69,74,66,41,18,7,6,0.3,0.2
2026-04-13T1000,4108A,117.7107,36.2385,济南市,山财大街5号,,34,34,29,13,11,94,94,74,74,28,24,15,6,1.6,0.7
2026-04-13T1000,4109A,116.9744,36.6889,济南市,无影山路12号,颗粒物(PM10),63,68,45,35,21,57,57,63,52,45,28,8,6,0.7,0.7
2026-04-13T1000,1653A,116.6229,35.4288,济宁市,火炬城,,29,18,32,11,15,92,92,63,63,9,10,9,8,0.5,0.5
2026-04-13T1000,3500A,116.5808,35.3703,济宁市,北湖一中,,32,23,35,13,14,100,100,73,73,14,13,7,7,0.2,0.2
2026-04-13T1000,3501A,116.8251,35.5592,济宁市,服务中心,,36,36,47,17,19,98,98,58,58,6,15,2,3,0.5,0.6
2026-04-13T1000,3678A,116.5907,35.4054,济宁市,市第七中学,,35,30,39,10,12,109,109,80,80,10,13,5,5,0.5,0.5
2026-04-13T1000,4111A,116.6075,35.4566,济宁市,任和路,,44,44,46,14,13,104,104,62,62,6,12,7,7,0.3,0.4
2026-04-13T1000,4112A,116.5648,35.3921,济宁市,文体南路1号,,33,30,39,6,12,104,104,74,74,7,10,5,5,0.5,0.4
2026-04-13T1000,4122A,112.6071,35.1015,济源市,市委党校,NA,NA,NA,85,NA,34,NA,NA,155,NA,NA,15,NA,10,NA,0.6
2026-04-13T1000,4123A,112.596,35.0702,济源市,沁园中路1号,,42,42,61,20,33,91,91,80,77,10,13,4,6,0.4,0.6
2026-04-13T1000,2255A,130.2749,46.8028,佳木斯市,佳纺,,28,28,26,9,16,74,74,69,69,6,11,4,5,0.3,0.4
2026-04-13T1000,2257A,130.3258,46.7975,佳木斯市,环保局,NA,NA,20,22,9,16,NA,NA,65,65,6,11,6,6,0.3,0.3
2026-04-13T1000,4285A,130.363,46.806,佳木斯市,顺和街,,22,18,22,8,17,69,69,67,67,8,14,2,2,0.3,0.4
2026-04-13T1000,4286A,130.3952,46.8268,佳木斯市,长安路196号,NA,NA,16,19,9,12,NA,NA,75,75,7,10,5,5,0.3,0.4
2026-04-13T1000,1252A,120.7439,30.778,嘉兴市,清河小学,,28,10,30,3,21,87,87,63,63,9,14,6,6,0.5,0.5
2026-04-13T1000,1253A,120.7261,30.7477,嘉兴市,嘉兴学院,,27,10,30,10,23,84,84,62,62,15,19,5,5,0.5,0.5
2026-04-13T1000,2872A,120.7845,30.7524,嘉兴市,南湖区残联,,25,12,29,12,22,80,80,64,64,15,17,3,3,0.7,0.6
2026-04-13T1000,3407A,120.6915,30.7741,嘉兴市,秀洲住建,,29,11,30,8,23,90,90,64,64,12,14,5,5,0.4,0.3
2026-04-13T1000,1945A,98.291,39.7705,嘉峪关市,气象局,,29,29,32,7,11,80,80,85,80,11,11,12,24,0.6,0.8
2026-04-13T1000,2884A,98.2672,39.7978,嘉峪关市,酒钢宾馆,,31,31,40,16,13,78,78,86,80,11,10,27,43,0.7,1.1
2026-04-13T1000,3248A,98.2644,39.7723,嘉峪关市,雄关区,,46,46,47,13,11,84,84,88,85,12,12,8,17,0.2,0.5
2026-04-13T1000,1383A,113.1063,22.6058,江门市,北街,,38,38,29,13,14,45,45,34,34,9,10,/,/,/,/
2026-04-13T1000,1384A,113.073,22.5835,江门市,西区,,20,17,30,14,14,50,50,39,39,11,11,/,/,/,/
2026-04-13T1000,1385A,113.0218,22.531,江门市,圭峰西,,32,32,28,13,13,51,51,40,40,10,10,/,/,/,/
2026-04-13T1000,1386A,113.0826,22.5947,江门市,东湖,NA,NA,25,28,14,14,49,49,35,35,NA,8,6,6,0.4,0.4
2026-04-13T1000,3311A,113.1077,22.5647,江门市,江海富民,,37,37,43,13,15,50,50,34,34,7,9,/,/,0.4,0.4
2026-04-13T1000,3449A,113.0496,22.4669,江门市,新会银湖,,35,35,28,11,12,51,51,33,33,9,12,8,7,0.3,0.3
2026-04-13T1000,3335A,113.3137,35.2643,焦作市,马村街道办,颗粒物(PM10),56,58,62,28,33,81,81,67,66,14,12,15,10,0.4,0.4
2026-04-13T1000,3336A,113.2464,35.2374,焦作市,焦作技师学院,,47,47,63,30,34,80,80,66,65,12,13,15,10,0.9,0.8
2026-04-13T1000,3477A,113.1656,35.2536,焦作市,中站许衡医院,,46,46,58,20,34,96,96,76,76,7,11,12,11,0.5,0.6
2026-04-13T1000,3981A,113.2456,35.18,焦作市,原李万街道办,,50,50,69,20,36,81,81,66,66,9,12,9,9,0.4,0.4
2026-04-13T1000,4264A,113.234,35.219,焦作市,新安路1731号,颗粒物(PM10),55,57,67,28,36,90,90,76,75,14,15,15,11,0.7,0.8
2026-04-13T1000,4295A,113.2722,35.2121,焦作市,人民路3066号,颗粒物(PM10),53,53,64,34,36,88,88,68,68,5,9,9,7,0.5,0.5
2026-04-13T1000,1708A,116.3701,23.5345,揭阳市,新兴,,40,40,36,16,19,34,34,17,16,9,11,7,7,0.5,0.5
2026-04-13T1000,1709A,116.3261,23.5442,揭阳市,西马,,47,47,39,20,20,36,36,14,14,13,16,7,6,0.5,0.5
2026-04-13T1000,1710A,116.361,23.5627,揭阳市,东兴,颗粒物(PM10),53,54,32,19,18,38,38,16,16,12,12,6,4,/,/
2026-04-13T1000,1711A,116.4151,23.5295,揭阳市,渔湖,,44,44,38,15,25,42,42,14,13,10,17,3,3,/,/
2026-04-13T1000,3320A,116.4028,23.5699,揭阳市,曲溪,颗粒物(PM10),52,52,35,18,19,34,34,14,14,10,9,13,11,0.5,0.5
2026-04-13T1000,1944A,102.1691,38.5166,金昌市,天庆家园,,32,31,42,11,16,102,102,101,101,4,5,12,19,0.7,0.6
2026-04-13T1000,4022A,102.1648,38.5369,金昌市,金川区人防中心,,43,43,49,7,16,104,104,104,104,5,6,5,7,0.3,0.3
2026-04-13T1000,4239A,102.193042,38.531887,金昌市,长春路96号,,31,31,41,9,18,93,93,98,97,4,4,7,10,0.2,0.3
2026-04-13T1000,1262A,119.6478,29.0773,金华市,十五中,细颗粒物(PM2.5),74,71,57,47,38,30,30,31,30,23,26,3,3,0.8,0.9
2026-04-13T1000,1263A,119.6859,29.1032,金华市,监测站,细颗粒物(PM2.5),62,59,48,41,35,28,28,26,24,24,29,3,4,0.6,0.7
2026-04-13T1000,3659A,119.656,29.1132,金华市,气象局,细颗粒物(PM2.5),78,55,55,49,41,26,26,24,22,29,33,3,3,0.7,0.8
2026-04-13T1000,1767A,121.1114,41.0879,锦州市,南山,,29,27,82,7,52,90,90,79,79,10,35,8,14,0.4,0.7
2026-04-13T1000,1768A,121.060361,40.842794,锦州市,开发区,,41,41,93,8,60,90,90,78,78,7,24,5,10,0.3,0.7
2026-04-13T1000,1769A,121.1836,41.1118,锦州市,百股街道,,29,26,91,7,63,90,90,79,79,10,32,6,17,0.5,0.8
2026-04-13T1000,1770A,121.1176,41.1224,锦州市,天安街道,NA,NA,22,86,8,52,83,83,66,65,NA,35,NA,9,0.4,0.8
2026-04-13T1000,1771A,121.1303,41.1385,锦州市,北湖公园,,28,25,80,10,54,89,89,70,70,8,28,6,11,0.3,0.6
2026-04-13T1000,2160A,112.8496,35.5051,晋城市,自来水公司,颗粒物(PM10),57,59,66,3,22,108,108,100,100,9,9,5,6,0.5,0.6
2026-04-13T1000,2162A,112.8509,35.4886,晋城市,市环保局,,44,44,61,23,28,98,98,88,88,11,8,6,8,0.3,0.4
2026-04-13T1000,3620A,112.8258,35.4804,晋城市,泽州一中,颗粒物(PM10),54,55,57,15,26,102,102,93,92,14,12,3,5,0.6,0.6
2026-04-13T1000,4078A,112.8246,35.5152,晋城市,前书院路,,31,28,51,3,23,98,98,82,82,9,10,6,8,0.3,0.5
2026-04-13T1000,4079A,112.8864,35.4773,晋城市,祥云街666号,,31,30,50,7,29,98,98,87,87,9,9,7,8,0.4,0.5
2026-04-13T1000,2174A,112.6992,37.6984,晋中市,榆次区政府,细颗粒物(PM2.5),90,80,86,55,50,116,116,101,99,14,17,4,7,0.7,0.6
2026-04-13T1000,2865A,112.7195,37.683,晋中市,榆次三中,颗粒物(PM10),75,85,88,37,45,111,111,101,98,13,13,5,7,0.6,0.6
2026-04-13T1000,4080A,112.7375,37.7215,晋中市,广安街188号,颗粒物(PM10),68,75,88,41,51,123,123,97,96,11,16,5,6,0.3,0.4
2026-04-13T1000,4200A,112.7478,37.6954,晋中市,迎宾街26号,细颗粒物(PM2.5),92,88,87,56,48,115,115,99,98,12,15,4,5,0.5,0.6
2026-04-13T1000,2439A,112.2012,31.048,荆门市,竹园小学,细颗粒物(PM2.5),60,59,67,40,39,65,65,34,34,13,19,2,3,0.3,0.3
2026-04-13T1000,2440A,112.1968,30.9892,荆门市,掇刀,细颗粒物(PM2.5),64,59,70,42,37,89,89,67,67,11,14,12,8,0.6,0.6
2026-04-13T1000,3012A,112.1849,31.0361,荆门市,西山林语,颗粒物(PM10),59,62,67,39,33,75,75,56,56,11,12,9,6,0.5,0.5
2026-04-13T1000,3547A,112.1631,31.0134,荆门市,龙泉中学南校,颗粒物(PM10),55,56,64,24,32,89,89,69,69,11,12,9,5,0.5,0.6
2026-04-13T1000,4124A,112.2213,31.0654,荆门市,新台西路6号,颗粒物(PM10),57,59,56,38,38,65,65,30,30,9,20,9,7,0.5,0.6
2026-04-13T1000,1844A,112.2493,30.3198,荆州市,市图书馆,,32,30,38,22,30,97,97,76,76,12,23,6,6,0.5,0.6
2026-04-13T1000,1845A,112.2009,30.3543,荆州市,市委党校,,32,32,46,20,32,91,91,72,72,11,16,8,7,0.7,0.8
2026-04-13T1000,3194A,112.2749,30.3124,荆州市,管委会,,40,NA,44,28,33,92,92,56,56,10,21,8,7,0.5,0.6
2026-04-13T1000,4268A,112.1722,30.3366,荆州市,学苑路85号,,36,NA,41,24,32,114,114,86,86,4,8,2,2,0.4,0.5
2026-04-13T1000,2343A,117.2114,29.2931,景德镇市,老干部活动中心,,12,11,16,8,17,26,26,30,27,5,7,3,6,0.6,0.6
2026-04-13T1000,2344A,117.1893,29.2789,景德镇市,兽医站,,26,26,29,8,11,29,29,34,31,7,10,4,4,0.7,0.6
2026-04-13T1000,2346A,117.246,29.2958,景德镇市,陶研所,,20,20,19,7,13,26,26,29,27,15,15,3,5,0.7,0.7
2026-04-13T1000,4289A,117.154766,29.256967,景德镇市,青少年活动中心,,30,30,22,10,13,25,25,28,27,8,11,4,13,/,/
2026-04-13T1000,1803A,115.9873,29.6816,九江市,十里,,42,42,40,25,22,44,44,65,59,24,18,9,8,1.0,0.9
2026-04-13T1000,1804A,115.9583,29.7047,九江市,茅山头,,40,35,38,28,22,50,50,70,63,15,12,4,4,0.7,0.6
2026-04-13T1000,1805A,115.9877,29.7295,九江市,西园,,39,33,33,27,20,49,49,67,62,30,26,4,4,0.8,0.6
2026-04-13T1000,1808A,115.9112,29.6038,九江市,综合工业园,,39,NA,36,27,24,41,41,62,54,31,26,8,8,0.7,0.6
2026-04-13T1000,3190A,116.0254,29.6995,九江市,外国语学校,,42,32,35,29,23,39,39,56,49,22,18,8,8,0.9,0.8
2026-04-13T1000,4253A,116.010205,29.659402,九江市,莲花大道8号,,39,35,39,27,24,42,42,58,52,21,16,6,5,0.8,0.7
2026-04-13T1000,4240A,98.495752,39.733935,酒泉市,玉门东路5号,,29,29,31,12,11,80,80,82,82,6,4,7,6,0.2,0.1
2026-04-13T1000,4241A,98.5099,39.7506,酒泉市,北大街108号,,25,24,29,10,14,78,78,76,76,4,4,7,7,0.2,0.1
2026-04-13T1000,2698A,76.0071,39.466,喀什地区,巡警大队,,34,34,239,18,71,89,89,97,94,15,10,3,3,0.4,0.3
2026-04-13T1000,2699A,75.9756,39.4693,喀什地区,吾办,,29,27,231,20,70,92,92,95,94,5,8,4,3,0.3,0.3
2026-04-13T1000,4027A,75.9485,39.4688,喀什地区,老干局,,35,35,227,14,57,89,89,92,88,7,7,2,2,0.2,0.2
2026-04-13T1000,1824A,114.3389,34.778,开封市,肿瘤医院,,40,32,43,28,33,85,85,76,75,15,16,9,8,0.6,0.6
2026-04-13T1000,1826A,114.2884,34.7966,开封市,世纪星幼儿园,,45,45,44,24,29,83,83,75,72,16,17,10,8,0.6,0.5
2026-04-13T1000,3147A,114.3434,34.8101,开封市,龙亭公园,颗粒物(PM10),55,57,45,28,30,89,89,73,69,13,16,15,8,0.7,0.7
2026-04-13T1000,3210A,114.3645,34.7955,开封市,汴京公园,,49,49,58,34,30,87,87,74,74,12,15,11,6,0.6,0.6
2026-04-13T1000,3473A,114.2485,34.8306,开封市,技师学院,,45,39,41,31,31,83,83,63,59,14,18,8,5,0.5,0.5
2026-04-13T1000,3592A,114.4518,34.7503,开封市,祥符区生态环境局,,44,44,39,29,34,75,75,51,51,18,25,8,7,0.6,0.6
2026-04-13T1000,1951A,84.886,45.6029,克拉玛依市,长征新村,,42,42,18,12,7,72,72,86,75,17,4,5,6,0.3,0.3
2026-04-13T1000,1952A,84.8894,45.5827,克拉玛依市,南林小区,,35,35,14,3,1,79,79,87,76,9,3,4,4,0.9,0.8
2026-04-13T1000,1954A,84.896,44.3328,克拉玛依市,独山子区,颗粒物(PM10),78,88,90,3,16,72,72,69,67,19,9,5,5,0.3,0.3
2026-04-13T1000,1955A,85.6888,46.0909,克拉玛依市,乌尔禾区商贸楼,,31,31,29,8,6,54,54,66,57,24,8,4,2,0.4,0.3
2026-04-13T1000,3612A,85.1045,45.6895,克拉玛依市,白碱滩区新站,,30,23,51,3,6,94,94,97,92,4,2,5,6,0.1,0.1
2026-04-13T1000,2697A,76.1457,39.7143,克孜勒苏柯尔克孜自治州,市人民政府,,38,38,172,22,52,79,79,105,101,22,8,15,8,0.2,0.2
2026-04-13T1000,3665A,76.1654,39.7157,克孜勒苏柯尔克孜自治州,克州文化中心,,35,35,180,24,59,104,104,108,107,6,4,6,7,0.2,0.2
2026-04-13T1000,1450A,102.8203,24.889,昆明市,呈贡新区,,45,44,33,31,19,126,126,117,117,13,10,5,5,0.5,0.4
2026-04-13T1000,1452A,102.7253,25.0904,昆明市,龙泉镇,颗粒物(PM10),56,58,36,22,17,114,114,76,76,7,15,4,5,0.5,0.5
2026-04-13T1000,1453A,102.7267,25.0378,昆明市,东风东路,颗粒物(PM10),52,52,36,28,18,118,118,115,115,16,12,6,4,0.6,0.5
2026-04-13T1000,1454A,102.6744,25.0671,昆明市,金鼎山,,47,47,38,18,18,118,118,113,111,12,10,2,3,0.5,0.5
2026-04-13T1000,1455A,102.6643,25.0401,昆明市,碧鸡广场,颗粒物(PM10),53,53,39,24,20,116,116,103,103,11,13,4,5,0.4,0.4
2026-04-13T1000,3179A,102.7491,25.012,昆明市,官渡区博物馆,颗粒物(PM10),53,53,36,26,18,117,117,109,109,14,10,10,5,0.8,0.5
2026-04-13T1000,3375A,102.8016,24.8336,昆明市,青年创业园,颗粒物(PM10),51,51,36,31,19,129,129,114,114,6,6,9,6,0.5,0.4
2026-04-13T1000,3550A,102.8,24.9787,昆明市,昆明学院,颗粒物(PM10),53,53,37,21,17,123,123,114,114,12,9,8,6,0.6,0.6
2026-04-13T1000,3551A,102.5969,24.6738,昆明市,晋宁区生态环境分局,,42,36,32,29,22,129,129,117,117,7,5,2,3,0.4,0.5
2026-04-13T1000,3552A,102.6673,24.9861,昆明市,云天化总部,颗粒物(PM10),53,54,35,24,16,124,124,116,116,14,9,11,6,0.7,0.5
2026-04-13T1000,1456A,91.132,29.6515,拉萨市,八廓街,,44,19,17,14,7,139,139,143,143,9,7,4,5,0.3,0.2
2026-04-13T1000,1457A,91.1221,29.6748,拉萨市,市环保局,,36,15,16,13,8,115,115,132,128,18,10,5,6,0.4,0.3
2026-04-13T1000,1458A,91.0874,29.6476,拉萨市,区监测站,,42,9,13,7,7,134,134,140,138,16,10,5,6,0.3,0.2
2026-04-13T1000,1459A,91.1774,29.6541,拉萨市,西藏大学,,42,25,15,21,9,134,134,139,139,11,8,6,5,0.2,0.2
2026-04-13T1000,1460A,90.9798,29.6586,拉萨市,区辐射站,,35,19,20,6,7,111,111,131,126,26,13,4,5,0.4,0.3
2026-04-13T1000,1461A,91.0831,29.6292,拉萨市,拉萨火车站,,44,8,15,6,8,140,140,143,140,6,5,3,4,0.2,0.2
2026-04-13T1000,2520A,109.2203,23.7252,来宾市,来宾技工学校,颗粒物(PM10),63,67,72,39,50,65,65,64,57,10,8,7,6,0.8,0.8
2026-04-13T1000,3535A,109.1781,23.7293,来宾市,兴宾区政府,颗粒物(PM10),58,61,73,28,53,71,71,71,63,5,9,9,10,0.6,0.8
2026-04-13T1000,4002A,109.2312,23.7428,来宾市,中南小学,细颗粒物(PM2.5),70,57,72,45,54,68,68,68,63,12,13,7,6,0.7,0.7
2026-04-13T1000,1479A,103.8309,36.0467,兰州市,铁路设计院,颗粒物(PM10),58,60,71,20,30,70,70,70,66,29,22,25,9,0.6,0.5
2026-04-13T1000,3241A,103.7439,36.0841,兰州市,百合公园,,49,49,71,23,32,66,66,42,42,20,30,44,10,0.7,0.6
2026-04-13T1000,3242A,103.9613,35.9985,兰州市,和平,颗粒物(PM10),70,77,66,24,27,62,62,83,76,29,11,20,10,0.5,0.3
2026-04-13T1000,4236A,103.629272,36.093822,兰州市,庄浪东路808号,颗粒物(PM10),61,65,74,23,29,82,82,72,70,13,15,45,18,0.5,0.3
2026-04-13T1000,4237A,103.7251,36.104344,兰州市,安宁西路88号,颗粒物(PM10),57,59,77,25,29,81,81,68,68,14,20,51,19,0.5,0.4
2026-04-13T1000,4238A,103.846982,36.067567,兰州市,北滨河东路1号,颗粒物(PM10),65,71,68,30,31,52,52,46,42,45,34,29,12,0.7,0.5
2026-04-13T1000,1067A,116.6712,39.5109,廊坊市,药材公司,颗粒物(PM10),95,113,141,20,64,71,71,70,70,10,31,2,4,0.3,0.7
2026-04-13T1000,1068A,116.7215,39.5592,廊坊市,开发区,颗粒物(PM10),102,123,144,20,64,70,70,68,68,4,24,1,3,0.3,0.6
2026-04-13T1000,1070A,116.7246,39.5273,廊坊市,北华航天学院,NA,NA,94,142,14,63,NA,NA,69,69,8,34,3,5,0.3,0.6
2026-04-13T1000,2919A,116.7022,39.5454,廊坊市,河北工业大学,颗粒物(PM10),77,87,140,21,64,68,68,69,69,10,32,3,5,0.3,0.6
2026-04-13T1000,2536A,103.7629,29.5844,乐山市,牛耳桥,,17,17,29,9,19,31,31,53,51,33,18,6,5,0.6,0.5
2026-04-13T1000,2537A,103.7501,29.6002,乐山市,市第三水厂,,19,19,25,8,19,45,45,52,52,27,20,4,3,0.5,0.5
2026-04-13T1000,2538A,103.7571,29.5664,乐山市,市监测站,,15,15,28,6,18,42,42,53,53,22,15,3,2,0.6,0.5
2026-04-13T1000,3361A,103.7313,29.563,乐山市,理工大学,,14,14,24,3,18,41,41,55,54,16,14,2,2,0.5,0.5
2026-04-13T1000,2599A,100.2497,26.8802,丽江市,丽江古城,,38,31,26,11,10,119,119,118,118,10,7,8,8,0.5,0.5
2026-04-13T1000,2600A,100.2203,26.8906,丽江市,市中心,,38,25,28,10,10,121,121,115,114,14,10,7,7,0.5,0.4
2026-04-13T1000,1267A,119.9141,28.4513,丽水市,监测站大楼,,33,27,24,23,14,16,16,4,4,17,19,4,4,0.8,0.7
2026-04-13T1000,1268A,119.93,28.4589,丽水市,莲都小学,,35,35,26,21,12,15,15,2,2,15,24,/,/,/,/
2026-04-13T1000,1269A,119.8794,28.4232,丽水市,余庄前,,44,44,26,28,13,9,9,2,2,19,16,5,5,0.8,0.8
2026-04-13T1000,1173A,119.1759,34.5885,连云港市,市环境监测站,,34,17,19,9,14,108,108,108,108,12,11,8,8,0.4,0.5
2026-04-13T1000,3000A,119.3577,34.6971,连云港市,德源药业,,34,22,28,12,15,108,108,101,101,18,22,6,6,0.2,0.3
2026-04-13T1000,3007A,119.178,34.8442,连云港市,新城一中,,34,34,47,15,24,108,108,103,103,13,21,4,5,0.4,0.5
2026-04-13T1000,3008A,119.3607,34.7519,连云港市,胡沟管理处,,35,22,19,19,16,111,111,109,109,6,20,11,13,0.4,0.4
2026-04-13T1000,3009A,119.1478,34.5913,连云港市,矿山设计院,,35,27,21,7,11,110,110,104,104,9,9,8,8,0.5,0.5
2026-04-13T1000,3434A,119.2414,34.6539,连云港市,工贸学校,,36,8,25,6,18,114,114,103,101,7,11,10,10,0.3,0.4
2026-04-13T1000,3664A,119.4171,34.734,连云港市,连云街道,,37,37,28,21,16,106,106,104,101,13,11,3,4,0.4,0.4
2026-04-13T1000,2573A,102.2629,27.8981,凉山彝族自治州,西昌市政府,,29,28,27,20,15,88,88,94,93,17,7,8,6,0.6,0.5
2026-04-13T1000,2574A,102.2686,27.885,凉山彝族自治州,凉山州政府,NA,NA,34,29,24,14,NA,NA,83,80,NA,7,9,6,0.7,0.6
2026-04-13T1000,4229A,102.2342,27.8859,凉山彝族自治州,凯乐南路30号,,38,38,30,13,10,66,66,70,62,26,15,3,5,0.5,0.5
2026-04-13T1000,2212A,123.1978,41.2036,辽阳市,宏伟区,颗粒物(PM10),82,94,101,18,36,80,80,65,65,17,15,16,10,0.8,0.8
2026-04-13T1000,2213A,123.1684,41.2497,辽阳市,新华园,颗粒物(PM10),59,62,105,20,40,87,87,70,70,15,17,10,12,0.6,0.7
2026-04-13T1000,2214A,123.2355,41.2663,辽阳市,滨河路,颗粒物(PM10),63,67,94,21,36,84,84,61,61,19,23,10,10,0.5,0.7
2026-04-13T1000,4083A,123.153,41.2874,辽阳市,铁西路150号,颗粒物(PM10),54,55,100,15,41,80,80,65,65,13,19,11,13,0.5,0.6
2026-04-13T1000,2227A,125.1359,42.8845,辽源市,环保局,,31,31,65,8,14,80,80,48,48,7,11,7,7,0.2,0.3
2026-04-13T1000,4085A,125.0998,42.9134,辽源市,安宁大街333号,,31,31,99,8,14,88,88,60,60,6,10,6,6,0.3,0.3
2026-04-13T1000,1625A,115.9789,36.4372,聊城市,区政府,NA,NA,36,52,13,18,NA,NA,82,78,16,13,9,8,0.6,0.7
2026-04-13T1000,3200A,115.9772,36.4986,聊城市,监控中心,,36,36,53,11,19,98,98,83,81,19,19,10,9,0.4,0.5
2026-04-13T1000,3513A,116.0443,36.436,聊城市,九州社区,,40,40,61,18,27,103,103,91,90,15,16,11,9,0.4,0.4
2026-04-13T1000,4018A,116.0564,36.4609,聊城市,星美广场,,40,40,56,16,22,92,92,83,81,18,17,10,9,0.5,0.6
2026-04-13T1000,4113A,116.0091,36.4495,聊城市,利民路,,33,18,42,14,24,104,104,88,86,13,14,8,8,0.3,0.4
2026-04-13T1000,2632A,94.3683,29.6373,林芝市,林芝监测站,,26,NA,9,7,5,83,83,93,89,7,5,5,5,0.5,0.4
2026-04-13T1000,2633A,94.3616,29.6634,林芝市,林芝人民医院,,27,9,10,3,6,84,84,90,85,8,4,4,5,0.5,0.4
2026-04-13T1000,2603A,100.0779,23.8981,临沧市,市环保局,细颗粒物(PM2.5),101,71,54,61,39,75,75,78,72,14,8,4,5,0.9,0.6
2026-04-13T1000,2604A,100.0894,23.882,临沧市,市气象局,细颗粒物(PM2.5),102,79,53,62,42,71,71,80,74,16,8,7,8,1.0,0.6
2026-04-13T1000,1733A,111.5552,36.0791,临汾市,临钢医院,颗粒物(PM10),65,70,72,30,30,71,71,93,86,20,17,6,9,0.8,0.9
2026-04-13T1000,1734A,111.4984,36.0734,临汾市,技工学校,颗粒物(PM10),69,76,68,43,38,68,68,92,84,20,18,6,10,0.6,0.7
2026-04-13T1000,1736A,111.5017,36.0857,临汾市,市委,NA,NA,112,74,37,31,74,74,98,94,19,17,8,11,NA,0.8
2026-04-13T1000,3018A,111.5048,36.1015,临汾市,唐尧大酒店,颗粒物(PM10),73,82,83,31,32,68,68,94,87,22,18,8,9,0.6,0.7
2026-04-13T1000,4244A,111.4879,36.053,临汾市,启星学校,颗粒物(PM10),62,66,68,38,33,68,68,91,84,22,22,7,10,0.7,0.7
2026-04-13T1000,4271A,103.2464,35.6123,临夏回族自治州,滨河东路1号,颗粒物(PM10),79,90,85,39,32,43,43,26,26,36,26,9,9,0.6,0.4
2026-04-13T1000,4310A,103.207136,35.599807,临夏回族自治州,新华街21号,颗粒物(PM10),78,88,68,41,31,42,42,42,39,22,13,7,7,0.7,0.3
2026-04-13T1000,1618A,118.3429,35.0532,临沂市,沂河小区,,48,48,41,24,20,93,93,76,74,16,14,12,11,0.6,0.5
2026-04-13T1000,1619A,118.2962,35.0568,临沂市,鲁南制药厂,颗粒物(PM10),51,51,36,24,21,100,100,85,84,18,13,13,11,0.5,0.3
2026-04-13T1000,1620A,118.2793,34.9976,临沂市,新光毛纺厂,,39,39,33,23,20,98,98,81,81,16,14,13,10,0.6,0.3
2026-04-13T1000,1621A,118.3955,35.0889,临沂市,河东保险公司,颗粒物(PM10),51,51,51,26,29,95,95,62,62,21,23,14,12,0.6,0.5
2026-04-13T1000,3370A,118.3563,35.0215,临沂市,十里堡居委,,36,34,35,25,22,99,99,73,72,20,19,12,11,0.9,0.6
2026-04-13T1000,3496A,118.359,35.1067,临沂市,南坊新区,"颗粒物(PM10),细颗粒物(PM2.5)",56,58,47,38,32,91,91,62,62,22,23,14,12,0.7,0.6
2026-04-13T1000,3860A,118.3915,35.0297,临沂市,皇山花园小区,,39,39,37,25,23,100,100,65,65,21,23,14,11,0.8,0.6
2026-04-13T1000,1870A,109.4854,24.3898,柳州市,柳东小学,,48,NA,51,33,41,37,37,34,31,15,12,24,6,0.9,0.9
2026-04-13T1000,1871A,109.4109,24.3304,柳州市,环保监测站,,40,NA,56,28,42,41,41,37,34,16,15,8,6,1.0,1
2026-04-13T1000,1872A,109.3886,24.3408,柳州市,河西水厂,,46,34,68,32,60,37,37,34,31,11,13,8,9,0.9,1
2026-04-13T1000,1873A,109.4263,24.2951,柳州市,市四中,颗粒物(PM10),52,52,58,32,41,46,46,39,36,17,13,12,8,0.9,1
2026-04-13T1000,1874A,109.396,24.3658,柳州市,市九中,,39,39,67,25,47,40,40,34,32,9,10,6,6,0.9,0.9
2026-04-13T1000,1875A,109.4912,24.3164,柳州市,古亭山,细颗粒物(PM2.5),64,43,54,42,44,45,45,22,22,20,17,9,7,0.9,0.9
2026-04-13T1000,3402A,109.5422,24.3994,柳州市,市二中,细颗粒物(PM2.5),76,NA,59,48,42,42,42,26,25,14,13,37,13,1.0,1
2026-04-13T1000,2307A,116.5078,31.7369,六安市,监测大楼,,21,18,18,13,18,66,66,62,62,12,11,3,4,0.4,0.4
2026-04-13T1000,2308A,116.4738,31.7642,六安市,皖西学院,,24,11,21,10,17,75,75,67,67,7,9,4,4,0.4,0.4
2026-04-13T1000,2309A,116.4997,31.7904,六安市,朝阳厂,,23,NA,13,10,17,73,73,63,63,12,13,5,5,0.3,0.3
2026-04-13T1000,2310A,116.5566,31.7885,六安市,开发区,,24,NA,7,12,15,75,75,66,66,13,14,4,4,0.4,0.5
2026-04-13T1000,2577A,104.8293,26.592,六盘水市,黄土坡,细颗粒物(PM2.5),72,49,44,46,29,80,80,74,69,10,11,8,6,0.7,0.5
2026-04-13T1000,2579A,104.8481,26.5898,六盘水市,民中,细颗粒物(PM2.5),70,47,42,45,28,74,74,70,65,8,12,7,6,0.4,0.5
2026-04-13T1000,2580A,104.9541,26.5506,六盘水市,双水,细颗粒物(PM2.5),82,63,43,51,29,63,63,87,74,17,9,5,5,0.5,0.4
2026-04-13T1000,4151A,104.8899,26.5685,六盘水市,钟山大道中段564号,细颗粒物(PM2.5),88,80,56,54,30,68,68,74,62,12,9,4,3,1.0,0.7
2026-04-13T1000,2336A,117.022,25.1031,龙岩市,龙岩市监测站,,36,36,36,13,27,54,54,29,28,6,15,7,8,0.4,0.5
2026-04-13T1000,2337A,117.0257,25.0662,龙岩市,闽西职业技术学院,,36,36,39,13,23,50,50,25,25,4,12,7,8,0.5,0.6
2026-04-13T1000,2338A,117.0195,25.0306,龙岩市,龙岩学院,,25,25,30,10,20,55,55,38,38,4,7,4,3,/,/
2026-04-13T1000,2885A,104.9344,33.3827,陇南市,滨江中学,颗粒物(PM10),55,57,63,25,21,38,38,40,37,21,16,9,8,0.7,0.7
2026-04-13T1000,3247A,104.9551,33.3709,陇南市,市总工会,颗粒物(PM10),55,57,59,18,21,49,49,51,46,15,12,9,8,0.5,0.5
2026-04-13T1000,2488A,111.9984,27.7346,娄底市,市监测站,,38,35,34,26,25,61,61,58,58,15,14,10,7,0.7,0.7
2026-04-13T1000,2491A,111.9888,27.7035,娄底市,市政府,,38,30,31,26,25,70,70,53,52,13,8,3,3,0.5,0.5
2026-04-13T1000,4127A,111.9812,27.7591,娄底市,涟钢职大,,23,23,31,6,19,58,58,50,47,10,9,2,2,0.4,0.6
2026-04-13T1000,4128A,112.0303,27.7457,娄底市,娄底体校,,38,35,37,26,23,55,55,44,44,9,3,3,3,0.5,0.5
2026-04-13T1000,1894A,105.4427,28.9063,泸州市,小市上码头,,28,22,23,19,22,44,44,66,56,16,10,8,8,0.7,0.7
2026-04-13T1000,1895A,105.4241,28.8573,泸州市,兰田宪桥,,27,27,33,18,22,33,33,51,50,23,12,5,5,1.0,1
2026-04-13T1000,1896A,105.4378,28.8833,泸州市,市环监站,,33,33,37,17,20,44,44,58,53,16,13,8,7,0.7,0.6
2026-04-13T1000,4272A,105.3689,28.7783,泸州市,纳溪中医医院,,39,39,37,21,28,56,56,60,60,13,11,8,7,0.8,0.7
2026-04-13T1000,2183A,111.1447,37.5212,吕梁市,环保局,颗粒物(PM10),73,81,74,26,22,111,111,54,54,22,40,13,10,0.5,0.4
2026-04-13T1000,2185A,111.1285,37.5338,吕梁市,自来水公司,颗粒物(PM10),79,90,66,36,23,107,107,48,48,24,33,11,8,0.7,0.5
2026-04-13T1000,2867A,111.1225,37.5093,吕梁市,马茂庄小学,颗粒物(PM10),80,92,74,28,20,103,103,38,38,25,43,8,6,0.6,0.5
2026-04-13T1000,1812A,112.3934,34.6517,洛阳市,市委党校,NA,NA,NA,60,NA,33,NA,NA,83,72,17,16,11,10,0.6,0.6
2026-04-13T1000,1815A,112.494,34.6883,洛阳市,河南林校,颗粒物(PM10),58,60,68,18,32,93,93,68,66,15,18,16,13,0.5,0.6
2026-04-13T1000,1816A,112.3843,34.623,洛阳市,开发区管委会,颗粒物(PM10),53,54,66,19,33,97,97,84,78,14,14,17,15,0.7,0.7
2026-04-13T1000,1817A,112.4263,34.6249,洛阳市,市委新办公区,,33,32,59,23,39,98,98,83,75,15,16,13,11,0.5,0.5
2026-04-13T1000,3340A,112.6005,34.6323,洛阳市,伊滨,,33,32,63,18,34,103,103,64,64,10,17,10,10,0.6,0.6
2026-04-13T1000,3341A,112.495,34.6338,洛阳市,中移产业园,颗粒物(PM10),58,61,64,17,35,94,94,68,60,15,19,12,12,0.7,0.8
2026-04-13T1000,3593A,112.5736,34.8993,洛阳市,吉利监测站,颗粒物(PM10),53,53,66,7,32,94,94,76,75,14,19,12,12,0.3,0.4
2026-04-13T1000,3635A,112.3678,34.6623,洛阳市,河科大西苑校区,颗粒物(PM10),55,56,63,21,34,102,102,90,83,13,14,11,11,0.5,0.5
2026-04-13T1000,3636A,112.4387,34.678,洛阳市,英才小学,颗粒物(PM10),60,63,73,21,35,90,90,76,67,20,22,14,13,0.6,0.6
2026-04-13T1000,4214A,112.460027,34.694929,洛阳市,春都路1号院,NA,NA,58,69,NA,43,94,94,71,70,17,20,12,11,0.7,0.8
2026-04-13T1000,2399A,114.051,33.5721,漯河市,三五一五工厂,,32,NA,44,22,32,93,93,65,65,13,16,4,5,0.2,0.3
2026-04-13T1000,2400A,114.0055,33.5698,漯河市,漯河大学,,32,25,41,22,39,88,88,68,68,14,16,4,6,0.4,0.4
2026-04-13T1000,2401A,114.0134,33.5826,漯河市,市水利局,,35,29,43,24,32,86,86,66,66,12,13,4,4,0.5,0.5
2026-04-13T1000,2402A,114.0261,33.5697,漯河市,市广电局,,32,27,44,22,33,94,94,70,70,10,12,4,5,0.5,0.5
2026-04-13T1000,3478A,113.9691,33.568,漯河市,市图书馆,,35,31,42,24,29,89,89,70,70,14,15,5,7,0.3,0.3
2026-04-13T1000,4250A,114.089259,33.588274,漯河市,韶山路11号,,38,38,50,22,32,75,75,47,47,14,17,6,6,0.6,0.6
2026-04-13T1000,1798A,118.5084,31.6838,马鞍山市,湖东路四小,,31,31,19,20,19,61,61,62,59,10,12,7,7,0.4,0.4
2026-04-13T1000,1799A,118.5019,31.6449,马鞍山市,开发区,,29,29,15,19,14,57,57,62,57,20,16,5,4,0.5,0.5
2026-04-13T1000,3633A,118.4914,31.681,马鞍山市,雨山,NA,NA,31,14,15,12,NA,NA,63,60,NA,13,4,5,0.5,0.5
2026-04-13T1000,4191A,118.527362,31.722269,马鞍山市,慈湖高新区,,36,29,22,25,16,61,61,62,60,9,9,8,8,0.3,0.3
2026-04-13T1000,1686A,111.0285,21.469,茂名市,电白南海,,36,36,36,16,12,53,53,57,57,7,4,4,4,0.7,0.7
2026-04-13T1000,1687A,110.9294,21.6533,茂名市,茂石化七小,,41,41,36,18,17,59,59,54,54,8,7,6,6,0.6,0.5
2026-04-13T1000,1688A,110.9108,21.6688,茂名市,健康路,,27,27,28,17,16,61,61,56,56,8,7,3,4,0.6,0.6
2026-04-13T1000,1689A,110.8592,21.6826,茂名市,高岭,颗粒物(PM10),55,56,46,20,19,62,62,61,61,12,6,2,3,/,/
2026-04-13T1000,3450A,111.0101,21.5165,茂名市,电白水东,,28,27,26,19,15,54,54,57,57,8,6,2,2,/,/
2026-04-13T1000,2540A,103.8414,30.0871,眉山市,气象局,,42,42,38,14,27,18,18,33,32,27,20,8,9,0.7,0.7
2026-04-13T1000,3148A,103.829,30.0563,眉山市,区人社局,,38,38,49,19,33,18,18,33,30,41,26,7,7,0.7,0.6
2026-04-13T1000,4148A,103.8836,30.0695,眉山市,眉职院,,41,41,62,16,29,19,19,38,36,25,17,8,7,0.7,0.7
2026-04-13T1000,1690A,116.1248,24.3307,梅州市,梅江月梅,,34,34,34,11,20,42,42,16,16,11,12,/,/,/,/
2026-04-13T1000,1691A,116.0798,24.2719,梅州市,梅县新城,,38,38,31,16,19,35,35,14,14,11,11,9,9,0.5,0.4
2026-04-13T1000,3315A,116.1234,24.2994,梅州市,梅龙,,31,31,31,17,21,41,41,20,20,14,13,7,7,0.6,0.5
2026-04-13T1000,1878A,104.7775,31.4741,绵阳市,富乐山,,49,45,36,34,28,13,13,36,27,29,17,7,8,0.9,0.7
2026-04-13T1000,1880A,104.6698,31.4668,绵阳市,高新区自来水公司,细颗粒物(PM2.5),62,62,47,41,28,6,6,13,11,32,22,7,8,1.0,0.7
2026-04-13T1000,3491A,104.6899,31.5324,绵阳市,西科大附属小学,颗粒物(PM10),64,69,46,39,32,11,11,16,15,32,24,6,10,0.8,0.6
2026-04-13T1000,3492A,104.5647,31.5343,绵阳市,安州区旅游局,颗粒物(PM10),53,53,47,31,29,22,22,31,28,23,14,6,12,0.6,0.5
2026-04-13T1000,4146A,104.7092,31.4972,绵阳市,科技城新区公安局,颗粒物(PM10),63,67,49,38,28,10,10,23,16,37,23,7,11,0.9,0.7
2026-04-13T1000,4226A,104.765114,31.453094,绵阳市,绵阳市气象局,细颗粒物(PM2.5),68,47,46,44,27,3,3,24,16,37,24,8,10,0.8,0.5
2026-04-13T1000,1784A,129.61,44.561,牡丹江市,环保大楼,,30,30,47,3,14,84,84,76,76,5,17,1,2,0.3,0.4
2026-04-13T1000,1787A,129.6364,44.6075,牡丹江市,机车工厂,,24,22,44,3,16,76,76,66,66,5,17,6,6,0.4,0.5
2026-04-13T1000,1788A,129.6386,44.5462,牡丹江市,第一中学,,27,10,37,3,14,86,86,74,74,3,16,3,4,0.3,0.4
2026-04-13T1000,4287A,129.5992,44.5964,牡丹江市,东晓云街98号,,27,26,46,3,14,84,84,76,76,3,11,2,3,0.4,0.5
2026-04-13T1000,2531A,105.0703,29.61,内江市,市监测站,细颗粒物(PM2.5),52,36,30,36,25,37,37,43,36,17,11,8,8,0.6,0.5
2026-04-13T1000,2533A,105.0657,29.5807,内江市,内江二中,细颗粒物(PM2.5),62,46,40,41,26,39,39,43,36,18,14,6,6,0.4,0.3
2026-04-13T1000,2534A,105.0407,29.5828,内江市,内江日报社,,49,NA,26,34,25,46,46,47,41,16,14,6,7,0.4,0.4
2026-04-13T1000,4147A,105.0433,29.6105,内江市,玉峰路西段888号,细颗粒物(PM2.5),78,NA,29,49,29,43,43,43,38,18,13,7,7,0.3,0.2
2026-04-13T1000,2628A,92.0653,31.4846,那曲市,那曲监测站,细颗粒物(PM2.5),64,61,45,42,30,66,66,80,72,36,18,5,5,0.9,0.8
2026-04-13T1000,4243A,92.0515,31.4787,那曲市,那曲市委宣传部,,33,33,30,22,19,78,78,89,82,16,8,10,10,0.5,0.5
2026-04-13T1000,1291A,115.8887,28.7006,南昌市,省林业公司,,38,31,30,26,18,48,48,58,54,14,13,5,4,0.6,0.4
2026-04-13T1000,1292A,115.813,28.7443,南昌市,林科所,,33,27,24,23,18,65,65,70,67,12,10,8,8,1.0,0.9
2026-04-13T1000,1294A,115.8518,28.687,南昌市,建工学校,,44,44,34,26,18,54,54,65,60,18,14,11,10,1.0,0.8
2026-04-13T1000,1295A,115.8926,28.6425,南昌市,象湖,,50,NA,27,35,26,54,54,67,63,15,12,8,8,1.1,0.9
2026-04-13T1000,3046A,115.9084,28.6062,南昌市,机电学校,,43,40,43,30,24,56,56,65,62,16,15,5,4,0.7,0.6
2026-04-13T1000,3690A,115.9718,28.7032,南昌市,外国语学校,,48,33,33,33,25,51,51,64,58,18,14,9,9,0.7,0.6
2026-04-13T1000,4106A,115.7923,28.6873,南昌市,工业二路,,44,44,41,22,19,59,59,68,61,17,13,6,5,0.8,0.7
2026-04-13T1000,4192A,115.931587,28.686774,南昌市,南京东路235号,,42,42,38,29,21,55,55,67,62,11,10,6,6,0.5,0.4
2026-04-13T1000,1906A,106.0791,30.8022,南充市,南充市委,,27,27,25,17,15,30,30,32,30,15,16,7,7,0.3,0.3
2026-04-13T1000,1907A,106.1038,30.8215,南充市,南充炼油厂,,26,22,24,18,14,26,26,42,37,17,12,6,5,0.4,0.2
2026-04-13T1000,4227A,106.108336,30.788436,南充市,梨树横街98号,,30,27,24,21,16,29,29,42,40,21,13,6,6,0.5,0.3
2026-04-13T1000,4304A,106.1172,30.843,南充市,清泉寺北路188号,,28,22,23,19,14,24,24,46,38,16,8,7,7,0.4,0.2
2026-04-13T1000,4305A,106.067,30.7616,南充市,同庆路1号,NA,NA,26,24,15,14,NA,NA,42,41,23,16,6,6,0.5,0.3
2026-04-13T1000,1151A,118.8033,32.1085,南京市,迈皋桥,,24,15,17,3,10,75,75,63,63,28,26,4,3,1.2,1.1
2026-04-13T1000,1152A,118.7487,32.057,南京市,草场门,NA,NA,19,19,6,12,NA,NA,61,61,22,23,8,8,0.5,0.4
2026-04-13T1000,1154A,118.770105,32.004342,南京市,中华门,NA,NA,27,19,7,11,NA,NA,54,53,20,18,6,6,0.3,0.4
2026-04-13T1000,1155A,118.8059,32.0329,南京市,瑞金路,,22,22,23,8,13,68,68,62,61,8,6,5,5,0.5,0.5
2026-04-13T1000,1156A,118.7946,32.0774,南京市,玄武湖,,20,14,20,3,10,61,61,52,52,22,15,4,4,0.4,0.4
2026-04-13T1000,1157A,118.6415,32.0964,南京市,浦口,,23,23,18,9,11,52,52,52,51,27,16,4,4,0.7,0.6
2026-04-13T1000,1158A,118.730129,32.000956,南京市,奥体中心,,20,20,22,3,9,48,48,49,48,24,21,6,6,0.4,0.4
2026-04-13T1000,1159A,118.9072,32.1047,南京市,仙林大学城,,24,22,25,6,11,76,76,67,67,19,18,8,8,0.6,0.6
2026-04-13T1000,3422A,118.8443,31.919,南京市,江宁彩虹桥,,34,34,16,8,8,73,73,75,71,20,21,4,4,0.8,0.7
2026-04-13T1000,3427A,118.8497,32.3599,南京市,六合雄州,,27,8,14,3,7,85,85,81,81,16,14,3,4,0.7,0.6
2026-04-13T1000,4086A,118.7641,32.0841,南京市,新模范马路66号,,23,14,22,3,10,73,73,63,62,18,18,4,3,0.4,0.4
2026-04-13T1000,4249A,118.8707617,31.34017673,南京市,汶溪路181号,NA,NA,27,22,22,18,NA,NA,52,50,14,16,5,6,0.7,0.5
2026-04-13T1000,4312A,119.019,31.6512,南京市,中山西路1号,,22,22,13,15,13,59,59,57,56,14,16,4,4,0.4,0.4
2026-04-13T1000,1401A,108.3098,22.788,南宁市,二十一中,NA,NA,49,61,42,46,61,61,75,69,NA,10,NA,2,0.9,0.8
2026-04-13T1000,1402A,108.3135,22.8529,南宁市,北湖,细颗粒物(PM2.5),66,46,62,43,50,64,64,79,72,9,8,2,3,0.7,0.8
2026-04-13T1000,1403A,108.3205,22.8222,南宁市,市监测站,细颗粒物(PM2.5),60,51,61,40,44,64,64,81,74,8,6,3,3,0.5,0.6
2026-04-13T1000,1404A,108.3828,22.8038,南宁市,大自然花园,细颗粒物(PM2.5),60,56,63,40,45,64,64,77,70,9,8,6,6,0.5,0.6
2026-04-13T1000,1406A,108.2397,22.8462,南宁市,区农职院,NA,NA,42,67,37,44,61,61,75,70,12,10,NA,5,0.5,0.6
2026-04-13T1000,1407A,108.3285,22.7356,南宁市,英华嘉园,颗粒物(PM10),61,65,69,40,44,58,58,78,70,16,10,6,5,0.6,0.6
2026-04-13T1000,3401A,108.4829,22.762,南宁市,红星社区,,46,46,62,31,39,71,71,70,62,7,10,6,6,0.7,0.8
2026-04-13T1000,4132A,108.2927,23.1477,南宁市,起凤路9号,细颗粒物(PM2.5),68,58,76,44,56,77,77,82,78,6,7,4,5,0.6,0.7
2026-04-13T1000,4221A,108.2177,22.7774,南宁市,乐贤路16号,细颗粒物(PM2.5),64,55,67,42,46,60,60,60,56,11,15,6,6,0.5,0.6
2026-04-13T1000,2332A,118.1682,26.6371,南平市,南平市监测站,,38,36,25,26,17,61,61,56,54,8,7,5,4,0.6,0.5
2026-04-13T1000,2334A,118.1757,26.6276,南平市,南平七中,,33,24,24,23,16,55,55,47,46,10,8,3,2,0.5,0.5
2026-04-13T1000,1168A,120.9056,31.9669,南通市,狼山街道,,29,11,5,3,1,92,92,104,99,11,7,3,3,0.4,0.4
2026-04-13T1000,1170A,120.8635,32.0231,南通市,城中,,26,11,10,3,2,82,82,98,93,17,10,3,3,0.4,0.3
2026-04-13T1000,1171A,120.9376,31.9301,南通市,星湖花园,,29,12,4,3,1,92,92,104,100,10,7,3,3,0.5,0.4
2026-04-13T1000,1172A,120.8053,32.046,南通市,紫琅学院,,30,6,3,3,1,95,95,109,104,17,13,4,4,0.6,0.6
2026-04-13T1000,3291A,121.0631,32.0644,南通市,通州监测站,,28,12,7,3,1,89,89,104,99,11,4,3,3,0.6,0.5
2026-04-13T1000,3432A,120.9348,31.9874,南通市,环境教育馆,,27,7,9,3,2,86,86,99,95,20,15,3,3,0.5,0.4
2026-04-13T1000,4091A,120.8692,31.9885,南通市,洪江路,,27,15,8,3,2,84,84,100,94,17,11,4,4,0.7,0.7
2026-04-13T1000,2404A,112.5338,33.0086,南阳市,瓦房庄,颗粒物(PM10),54,55,49,27,28,81,81,80,78,13,12,4,4,0.5,0.6
2026-04-13T1000,2405A,112.5002,32.9734,南阳市,汉画馆,颗粒物(PM10),57,59,52,26,23,80,80,80,78,11,11,5,6,0.6,0.6
2026-04-13T1000,2406A,112.5778,33.0144,南阳市,气象站,颗粒物(PM10),52,52,48,24,25,89,89,77,76,12,13,5,5,0.5,0.5
2026-04-13T1000,2407A,112.548,32.9687,南阳市,理工学院,NA,NA,NA,53,NA,29,NA,NA,74,71,9,10,5,5,NA,0.5
2026-04-13T1000,4008A,112.5233,32.9921,南阳市,卧龙区政府,颗粒物(PM10),55,56,49,22,27,82,82,81,79,12,11,6,7,0.5,0.6
2026-04-13T1000,1234A,121.8352,29.9111,宁波市,区环保大楼,,27,27,39,18,24,53,53,49,45,31,37,6,7,0.5,0.5
2026-04-13T1000,1235A,121.5595,29.8208,宁波市,万里学院,细颗粒物(PM2.5),54,NA,34,37,32,45,45,60,54,21,17,7,8,0.7,0.6
2026-04-13T1000,1236A,121.713,29.9564,宁波市,龙赛医院,NA,NA,21,36,13,21,NA,NA,52,47,27,22,6,6,0.4,0.4
2026-04-13T1000,1240A,121.5855,29.8635,宁波市,太古小学,细颗粒物(PM2.5),56,49,45,38,31,48,48,54,50,21,21,4,3,0.8,0.6
2026-04-13T1000,1241A,121.5239,29.8673,宁波市,市环境监测中心,细颗粒物(PM2.5),72,NA,37,46,37,37,37,49,43,21,18,7,7,0.5,0.5
2026-04-13T1000,2871A,121.6156,29.9015,宁波市,万里国际学校,,49,35,35,34,32,51,51,47,45,21,24,5,4,0.7,0.6
2026-04-13T1000,3710A,121.5593,29.8976,宁波市,白沙活动中心,,46,NA,27,32,26,47,47,54,48,21,18,5,5,0.5,0.5
2026-04-13T1000,4095A,121.8962,29.7529,宁波市,中科路88号,,48,36,34,33,25,56,56,61,56,16,17,7,6,0.5,0.5
2026-04-13T1000,2341A,119.5387,26.6611,宁德市,宁德市监测站,,48,42,38,33,27,21,21,20,20,14,13,7,6,0.9,1
2026-04-13T1000,3209A,119.5231,26.6562,宁德市,宁德一中,,49,NA,35,34,25,40,40,31,31,18,17,4,4,0.6,0.7
2026-04-13T1000,2618A,98.859,25.8541,怒江傈僳族自治州,州监测站,,39,39,32,17,20,48,48,77,70,17,15,10,9,0.3,0.2
2026-04-13T1000,2619A,98.8607,25.8168,怒江傈僳族自治州,泸水一中,,42,40,30,29,24,28,28,72,60,35,18,6,5,0.6,0.5
2026-04-13T1000,1888A,101.6891,26.571,攀枝花市,弄弄坪,颗粒物(PM10),51,51,37,28,19,104,104,97,97,16,15,7,20,0.8,1.1
2026-04-13T1000,1889A,101.577,26.5914,攀枝花市,河门口,颗粒物(PM10),70,78,40,36,19,79,79,85,76,30,13,24,14,1.3,0.7
2026-04-13T1000,1891A,101.7365,26.4986,攀枝花市,仁和,,48,43,32,33,22,105,105,81,79,12,8,6,6,0.6,0.6
2026-04-13T1000,2835A,101.7222,26.567,攀枝花市,四十中小,,38,38,28,25,13,95,95,95,88,30,13,13,10,0.9,0.7
2026-04-13T1000,1604A,122.0303,41.1489,盘锦市,开发区,,30,27,75,13,61,94,94,80,80,8,14,6,7,0.2,0.4
2026-04-13T1000,1605A,122.0486,41.0883,盘锦市,兴隆台,NA,NA,NA,78,NA,62,NA,NA,NA,NA,NA,20,NA,11,NA,0.7
2026-04-13T1000,1606A,121.8297,41.1026,盘锦市,新生街道,,50,50,67,20,44,81,81,65,65,17,23,9,7,0.3,0.5
2026-04-13T1000,1832A,113.3257,33.7423,平顶山市,新华旅馆,颗粒物(PM10),53,54,70,34,35,82,82,68,67,8,14,5,6,0.5,0.5
2026-04-13T1000,1833A,113.2917,33.737,平顶山市,规划设计院,,49,49,70,24,37,81,81,73,72,8,10,7,7,0.6,0.6
2026-04-13T1000,1834A,113.182,33.7738,平顶山市,平顶山工学院,,35,35,61,24,36,94,94,73,73,9,14,8,9,0.2,0.3
2026-04-13T1000,3594A,112.8736,33.9068,平顶山市,石龙区,,38,38,66,12,37,87,87,68,68,5,11,7,8,0.5,0.6
2026-04-13T1000,4116A,113.284,33.7139,平顶山市,姚电大道23号,颗粒物(PM10),52,52,70,29,37,87,87,76,76,12,15,7,8,0.5,0.5
2026-04-13T1000,2656A,106.6633,35.5338,平凉市,聚贤嘉苑,颗粒物(PM10),51,51,48,20,17,87,87,76,68,14,15,6,7,0.3,0.3
2026-04-13T1000,2657A,106.7021,35.5307,平凉市,博物馆,,49,49,46,13,14,78,78,70,61,19,14,8,9,0.3,0.3
2026-04-13T1000,2348A,113.8384,27.6436,萍乡市,中医院,,22,19,34,15,24,52,52,51,51,14,16,4,5,0.9,1
2026-04-13T1000,2350A,113.8677,27.6438,萍乡市,市环保局,,30,30,32,18,28,54,54,53,53,14,19,3,3,1.2,1.3
2026-04-13T1000,2351A,113.8663,27.6202,萍乡市,安源区政府,,23,NA,33,16,23,38,38,39,39,14,12,5,6,0.7,0.8
2026-04-13T1000,4107A,113.8686,27.6668,萍乡市,联洪村委会,,33,33,38,21,24,51,51,48,48,8,12,2,2,0.4,0.6
2026-04-13T1000,2319A,119.0142,25.4324,莆田市,荔城区仓后路,,42,42,39,25,28,41,41,18,18,11,16,/,/,/,/
2026-04-13T1000,2320A,119.0016,25.4553,莆田市,莆田市监测站,颗粒物(PM10),54,55,33,33,20,35,35,13,13,17,14,4,4,0.4,0.7
2026-04-13T1000,2321A,119.112,25.4561,莆田市,涵江区六中,,37,37,37,20,24,39,39,21,21,14,17,/,/,0.5,0.5
2026-04-13T1000,2322A,119.1014,25.3215,莆田市,秀屿区政府,,37,37,31,24,25,39,39,28,28,12,10,6,5,0.3,0.3
2026-04-13T1000,2392A,115.0312,35.7636,濮阳市,环保局,,28,26,42,9,21,88,88,73,73,9,11,5,5,0.5,0.6
2026-04-13T1000,3021A,115,35.7667,濮阳市,濮水河管理处,,34,23,47,3,22,106,106,80,79,6,9,5,4,0.7,0.7
2026-04-13T1000,4118A,115.0552,35.7816,濮阳市,中原东路68号,,32,30,53,3,20,102,102,82,81,8,12,6,4,0.3,0.4
2026-04-13T1000,4216A,115.0923632,35.76857718,濮阳市,任丘路479号,,34,34,51,7,22,106,106,82,82,3,18,7,4,0.6,0.6
2026-04-13T1000,2601A,100.9801,22.7634,普洱市,市环保局,颗粒物(PM10),104,128,78,47,35,109,109,92,92,29,10,6,4,1.1,0.7
2026-04-13T1000,2602A,100.9763,22.8237,普洱市,普洱第二中学,颗粒物(PM10),104,129,73,62,38,74,74,55,55,53,23,7,5,1.0,0.7
2026-04-13T1000,3345A,131.0413,45.7795,七台河市,中波台,,26,20,24,3,17,81,81,73,73,5,13,3,4,0.3,0.4
2026-04-13T1000,3637A,131.0136,45.7688,七台河市,人民广场,,26,24,29,10,14,82,82,79,79,8,14,9,10,0.5,0.5
2026-04-13T1000,3684A,130.8639,45.8144,七台河市,新建矿广场,,29,29,27,3,16,70,70,62,62,8,14,10,8,0.2,0.4
2026-04-13T1000,1779A,123.9307,47.3641,齐齐哈尔市,安居小区,,25,23,27,3,8,78,78,68,68,2,3,1,3,0.2,0.2
2026-04-13T1000,1780A,123.9497,47.3389,齐齐哈尔市,中心广场,,23,22,29,3,5,72,72,65,65,2,3,3,2,0.3,0.3
2026-04-13T1000,1781A,123.9483,47.3229,齐齐哈尔市,农牧车辆厂,,25,22,28,3,7,77,77,69,69,4,5,6,6,0.2,0.2
2026-04-13T1000,1783A,123.9442,47.2994,齐齐哈尔市,市环境监测站,,30,30,25,6,6,75,75,66,66,6,6,2,2,0.2,0.2
2026-04-13T1000,3662A,123.6341,47.2079,齐齐哈尔市,富区青少年活动中心,,29,29,31,3,6,69,69,60,60,9,7,2,3,0.3,0.2
2026-04-13T1000,2591A,107.9765,26.5724,黔东南苗族侗族自治州,市环境监测站,,22,22,25,15,17,42,42,50,48,8,4,4,2,0.5,0.5
2026-04-13T1000,2881A,107.8909,26.531,黔东南苗族侗族自治州,凯里学院,,34,34,29,13,15,44,44,55,53,8,5,4,2,0.6,0.6
2026-04-13T1000,2593A,107.5223,26.2371,黔南布依族苗族自治州,小围寨,,38,34,21,26,17,33,33,42,38,8,6,3,4,0.8,0.8
2026-04-13T1000,3538A,107.5175,26.2977,黔南布依族苗族自治州,沙坝,,29,29,25,16,16,22,22,41,35,12,5,3,4,1.1,1
2026-04-13T1000,2589A,104.9022,25.0943,黔西南布依族苗族自治州,场坝街,,40,24,33,19,23,127,127,96,96,6,8,6,6,0.3,0.3
2026-04-13T1000,2590A,104.8812,25.0994,黔西南布依族苗族自治州,坪东大道,,40,24,31,22,22,125,125,82,82,6,12,5,4,0.4,0.4
2026-04-13T1000,2502A,108.6238,21.9667,钦州市,市环保站,颗粒物(PM10),55,56,57,20,33,40,40,46,34,11,10,4,6,0.7,0.7
2026-04-13T1000,2503A,108.655,21.9481,钦州市,沙埠小学,颗粒物(PM10),53,54,61,29,36,39,39,33,27,10,13,5,6,0.6,0.7
2026-04-13T1000,2504A,108.5989,21.7435,钦州市,港区一小,颗粒物(PM10),55,57,74,34,39,32,32,38,25,18,15,3,3,0.6,0.7
2026-04-13T1000,3404A,108.5959,21.9634,钦州市,北职校,,46,46,59,27,36,38,38,43,32,10,10,5,6,0.6,0.6
2026-04-13T1000,1046A,119.5247,39.9346,秦皇岛市,建设大厦,,32,32,112,10,59,80,80,69,69,11,24,5,9,0.2,0.6
2026-04-13T1000,3132A,119.5979,39.938,秦皇岛市,文明里,,48,48,123,3,59,80,80,69,69,11,32,9,12,0.2,0.6
2026-04-13T1000,4066A,119.7458,39.9952,秦皇岛市,南园路157号,颗粒物(PM10),54,55,112,6,62,75,75,60,60,12,33,7,10,0.2,0.6
2026-04-13T1000,4067A,119.5131,39.8858,秦皇岛市,翠岛大街1号,NA,NA,45,106,3,58,NA,NA,62,62,8,26,NA,11,0.2,0.6
2026-04-13T1000,4198A,119.509013,39.825305,秦皇岛市,北戴河轮滑馆,,32,32,104,6,58,76,76,72,72,15,27,8,9,0.1,0.5
2026-04-13T1000,1310A,120.404,36.0625,青岛市,市南区东部子站,,34,24,49,8,37,106,106,97,94,20,24,6,7,0.3,0.4
2026-04-13T1000,1311A,120.362344,36.10282,青岛市,四方区子站,,34,31,43,11,31,106,106,79,78,22,22,7,6,0.6,0.7
2026-04-13T1000,1312A,120.294373,36.054183,青岛市,市南区西部子站,,41,41,51,16,40,101,101,94,93,28,31,6,5,0.6,0.6
2026-04-13T1000,1313A,120.4581,36.0858,青岛市,崂山区子站,,44,44,44,24,29,62,62,95,93,59,26,11,9,0.6,0.6
2026-04-13T1000,1315A,120.3945,36.3083,青岛市,城阳区子站,NA,NA,53,42,NA,23,102,102,88,85,NA,22,8,6,0.7,0.7
2026-04-13T1000,3642A,120.3454,36.0735,青岛市,市北区南部,,34,27,43,6,31,107,107,93,88,21,19,10,6,0.5,0.7
2026-04-13T1000,3643A,120.3897,36.18,青岛市,李沧区北部,,36,36,39,19,25,102,102,93,93,20,20,9,9,0.5,0.5
2026-04-13T1000,4110A,120.5222,36.4089,青岛市,盟旺路653号,颗粒物(PM10),56,58,35,24,21,107,107,99,98,25,12,6,4,1.9,0.7
2026-04-13T1000,4290A,120.196923,35.954556,青岛市,珠江路669号,颗粒物(PM10),56,58,76,23,46,76,76,56,41,51,32,10,6,0.7,0.7
2026-04-13T1000,4291A,120.0424,35.8656,青岛市,黄岛区人民政府广场,,44,44,56,20,33,72,72,55,52,38,25,9,8,0.7,0.7
2026-04-13T1000,1703A,113.0218,23.7086,清远市,凤城街办,,28,28,34,13,18,29,29,23,23,21,21,/,/,/,/
2026-04-13T1000,3025A,113.0479,23.6343,清远市,技师学院,,28,28,35,14,18,44,44,22,22,16,23,4,5,0.3,0.3
2026-04-13T1000,3318A,112.9898,23.7403,清远市,清新太和,,33,33,38,16,20,37,37,28,28,18,20,7,7,0.5,0.5
2026-04-13T1000,3455A,113.076,23.72,清远市,清城东城,,35,35,40,14,17,33,33,26,26,18,20,/,/,/,/
2026-04-13T1000,2661A,107.6325,35.7357,庆阳市,庆阳五中,,40,40,33,23,14,100,100,98,96,15,11,12,5,0.4,0.3
2026-04-13T1000,2662A,107.6361,35.7067,庆阳市,市环保局,,35,35,32,11,13,112,112,105,104,15,13,30,10,0.4,0.4
2026-04-13T1000,1916A,103.7897,25.5036,曲靖市,环境监测站,,41,40,38,23,17,131,131,116,116,7,10,6,7,0.7,0.6
2026-04-13T1000,1917A,103.8013,25.5357,曲靖市,烟厂办公区,,50,50,38,20,17,119,119,104,104,6,10,6,7,0.5,0.4
2026-04-13T1000,3376A,103.7926,25.4651,曲靖市,南苑二区,,48,48,36,21,18,122,122,109,109,8,8,4,4,0.4,0.4
2026-04-13T1000,3377A,103.7442,25.5259,曲靖市,曲靖师范学院,,49,49,39,21,18,128,128,114,114,6,10,4,5,0.4,0.3
2026-04-13T1000,1264A,118.8694,28.94,衢州市,环保大楼,细颗粒物(PM2.5),76,75,48,48,32,31,31,18,18,21,26,/,/,/,/
2026-04-13T1000,1266A,118.8622,28.9809,衢州市,衢州学院,细颗粒物(PM2.5),76,71,40,48,29,34,34,21,21,26,32,6,6,0.6,0.6
2026-04-13T1000,4097A,118.9646,28.9832,衢州市,衢州三中,细颗粒物(PM2.5),88,82,49,54,34,28,28,18,18,20,28,8,7,0.6,0.7
2026-04-13T1000,1611A,118.5818,24.9116,泉州市,涂山街,,37,37,33,18,23,34,34,23,23,16,14,4,3,0.6,0.5
2026-04-13T1000,1612A,118.597,24.8976,泉州市,津头埔,,29,29,30,14,23,37,37,22,22,12,13,3,2,0.5,0.4
2026-04-13T1000,1613A,118.6669,24.9422,泉州市,万安,,32,32,32,19,32,32,32,23,23,13,10,4,3,0.4,0.4
2026-04-13T1000,4105A,118.6355,24.9148,泉州市,霞新路6号,,29,29,30,13,22,34,34,19,19,11,13,/,/,0.4,0.4
2026-04-13T1000,2626A,88.8873,29.2723,日喀则市,日喀则监测站,,37,16,16,15,6,118,118,124,122,7,4,8,8,0.4,0.3
2026-04-13T1000,3726A,88.8775,29.2425,日喀则市,林业技术推广中心,,39,19,20,3,3,123,123,124,123,3,4,6,5,0.3,0.3
2026-04-13T1000,1659A,119.4711,35.421,日照市,监测站,,33,9,37,3,20,104,104,40,40,19,35,7,8,0.5,0.6
2026-04-13T1000,1660A,119.523,35.4216,日照市,市政府广场,,35,9,40,3,24,111,111,68,68,10,22,5,6,0.4,0.6
2026-04-13T1000,1661A,119.5511,35.4113,日照市,港务局,NA,NA,7,45,3,23,108,108,69,67,10,17,NA,4,0.5,0.7
2026-04-13T1000,3507A,119.5326,35.4627,日照市,职业技术学院,,37,12,29,3,19,117,117,74,74,13,20,7,7,0.4,0.6
2026-04-13T1000,3604A,119.3267,35.1043,日照市,岚山环保分局,,33,24,37,3,19,103,103,99,98,17,18,9,11,0.5,0.7
2026-04-13T1000,1835A,111.1922,34.7752,三门峡市,市政府,颗粒物(PM10),52,52,54,29,31,92,92,90,87,12,12,11,11,0.6,0.6
2026-04-13T1000,1836A,111.1588,34.794,三门峡市,开发区,颗粒物(PM10),58,61,67,38,35,96,96,92,90,13,13,12,13,0.6,0.6
2026-04-13T1000,3039A,111.1911,34.7829,三门峡市,三门峡市第一小学,颗粒物(PM10),54,55,59,27,32,110,110,92,92,13,13,15,16,0.5,0.6
2026-04-13T1000,3598A,111.1031,34.719,三门峡市,富达温泉假日酒店,细颗粒物(PM2.5),68,70,71,44,36,91,91,87,85,13,17,17,18,0.5,0.5
2026-04-13T1000,2324A,117.621,26.2626,三明市,三钢,NA,NA,32,25,28,20,70,70,66,66,5,9,7,8,NA,1
2026-04-13T1000,2325A,117.6352,26.2714,三明市,三明二中,,36,30,25,25,20,66,66,62,62,8,10,4,4,0.5,0.7
2026-04-13T1000,2326A,117.6028,26.2377,三明市,三元区政府,,36,36,27,23,20,61,61,51,51,10,13,7,6,0.8,0.8
2026-04-13T1000,1877A,109.4962,18.2682,三亚市,河西子站,,32,32,34,16,19,78,78,80,79,5,3,4,4,0.4,0.4
2026-04-13T1000,3540A,109.7348,18.3443,三亚市,君悦子站,,31,31,34,12,12,79,79,76,76,3,4,3,3,0.4,0.4
2026-04-13T1000,4135A,109.1714,18.3739,三亚市,城东小学站,,32,32,36,20,22,82,82,82,80,4,5,/,/,/,/
2026-04-13T1000,2624A,91.7592,29.234,山南市,山南监测站,NA,NA,16,29,3,5,NA,NA,123,117,11,4,11,10,0.3,0.2
2026-04-13T1000,2625A,91.7701,29.2436,山南市,山南人民医院,,32,19,40,3,9,100,100,124,116,8,3,8,8,0.3,0.2
2026-04-13T1000,1674A,116.6795,23.3666,汕头市,金平子站,,18,18,22,11,15,42,42,30,30,7,8,4,4,0.5,0.5
2026-04-13T1000,1675A,116.7248,23.3632,汕头市,龙湖子站,,18,NA,23,12,17,36,36,26,26,5,5,6,7,/,/
2026-04-13T1000,1676A,116.7257,23.2774,汕头市,濠江子站,,23,23,25,13,17,23,23,20,20,17,18,8,8,/,/
2026-04-13T1000,1677A,116.7518,23.4712,汕头市,澄海子站,,25,25,30,12,17,44,44,27,27,5,8,7,7,0.6,0.6
2026-04-13T1000,1678A,116.6088,23.2539,汕头市,潮阳子站,,16,14,22,11,18,33,33,28,26,8,6,6,6,0.4,0.5
2026-04-13T1000,3444A,116.4539,23.2684,汕头市,潮南峡山,,19,19,22,10,14,45,45,27,27,2,3,6,6,0.6,0.5
2026-04-13T1000,3624A,116.4069,23.2533,汕头市,潮南子站,,17,17,26,10,13,44,44,33,33,2,3,5,5,/,/
2026-04-13T1000,1693A,115.3653,22.7751,汕尾市,市环保局,,14,NA,21,9,11,42,42,33,33,3,4,5,5,0.3,0.3
2026-04-13T1000,1695A,115.362,22.7926,汕尾市,新城中学,,15,NA,19,8,10,45,45,36,36,4,6,6,6,0.1,0.1
2026-04-13T1000,2645A,109.9155,33.8714,商洛市,监测站,,44,44,42,27,21,43,43,26,26,16,22,17,8,0.6,0.5
2026-04-13T1000,3045A,109.9647,33.8486,商洛市,商州区中学,颗粒物(PM10),52,52,44,26,20,36,36,12,12,20,28,10,6,0.7,0.5
2026-04-13T1000,2408A,115.6701,34.4283,商丘市,环境监测站,,46,NA,43,32,29,69,69,55,55,9,11,2,4,0.4,0.4
2026-04-13T1000,2409A,115.6458,34.4047,商丘市,粮食局,NA,NA,30,37,29,28,NA,NA,61,61,6,8,4,5,0.3,0.4
2026-04-13T1000,3171A,115.6069,34.4465,商丘市,梁园区档案局,,45,NA,36,31,27,72,72,66,64,11,12,3,5,0.3,0.3
2026-04-13T1000,4119A,115.6701,34.3767,商丘市,北海东路185号,,49,49,45,26,25,75,75,64,64,10,12,4,6,0.3,0.4
2026-04-13T1000,4120A,115.6172,34.3704,商丘市,中山大街3号,,44,44,44,27,26,75,75,66,66,11,13,5,6,0.3,0.3
2026-04-13T1000,1141A,121.401,31.2382,上海市,普陀,,28,13,14,11,10,88,88,89,86,24,20,5,5,0.5,0.4
2026-04-13T1000,1142A,121.4774,31.2043,上海市,十五厂,,30,10,18,9,12,93,93,86,85,24,22,6,5,0.4,0.4
2026-04-13T1000,1143A,121.4673,31.3011,上海市,虹口,,27,10,12,10,11,84,84,86,84,23,18,4,4,0.5,0.5
2026-04-13T1000,1147A,121.4253,31.226,上海市,静安监测站,,27,11,14,11,11,85,85,88,86,32,23,8,7,0.5,0.5
2026-04-13T1000,1148A,121.7029,31.1905,上海市,浦东川沙,,34,6,8,3,6,107,107,101,101,16,19,7,7,0.4,0.4
2026-04-13T1000,1149A,121.5339,31.229,上海市,浦东新区监测站,,27,11,10,10,9,84,84,85,84,21,16,5,5,0.8,0.4
2026-04-13T1000,1150A,121.5776,31.2038,上海市,浦东张江,,32,9,8,9,8,100,100,98,98,18,15,5,6,0.1,0.1
2026-04-13T1000,3265A,121.4242,31.3303,上海市,宝山庙行,,26,10,12,10,9,81,81,88,87,29,24,6,6,0.3,0.3
2026-04-13T1000,3266A,121.8789,31.4662,上海市,崇明上实东滩,,36,NA,4,3,4,113,113,108,108,8,8,8,8,0.2,0.2
2026-04-13T1000,3268A,121.316,31.2839,上海市,嘉定南翔,,24,12,14,10,11,74,74,78,76,24,17,4,4,0.4,0.3
2026-04-13T1000,3269A,121.3357,30.7455,上海市,金山新城,NA,NA,NA,26,NA,21,65,65,58,58,NA,14,3,3,0.6,0.6
2026-04-13T1000,3270A,121.4996,31.0741,上海市,闵行浦江,,30,9,14,8,11,94,94,86,86,17,17,5,5,0.3,0.4
2026-04-13T1000,3271A,121.2886,31.1663,上海市,青浦徐泾,,25,14,17,14,15,80,80,81,79,31,20,5,4,0.5,0.4
2026-04-13T1000,3272A,121.2193,31.0382,上海市,松江图书馆,,25,23,25,17,19,74,74,77,76,21,17,6,6,0.5,0.5
2026-04-13T1000,3273A,121.3904,31.206,上海市,长宁仙霞,,25,14,15,13,12,79,79,80,78,27,19,5,4,0.4,0.3
2026-04-13T1000,3274A,121.7964,31.0507,上海市,浦东惠南,,32,NA,11,6,9,100,100,88,88,14,16,6,6,0.5,0.5
2026-04-13T1000,3544A,121.4891,30.925,上海市,奉贤南桥新城,,30,NA,16,8,15,93,93,82,82,17,17,2,2,0.4,0.4
2026-04-13T1000,4183A,121.417401,31.16637,上海市,冠生园路458号,,25,NA,14,14,13,77,77,74,72,28,19,8,8,0.5,0.5
2026-04-13T1000,4205A,121.541914,31.268301,上海市,宁武路151号,,29,11,15,10,10,92,92,89,88,24,24,6,6,0.2,0.3
2026-04-13T1000,2382A,117.9758,28.4439,上饶市,市监测站,颗粒物(PM10),64,69,51,41,27,34,34,17,17,21,17,5,7,/,/
2026-04-13T1000,2383A,117.9521,28.4637,上饶市,凤凰光学,细颗粒物(PM2.5),60,59,44,40,29,30,30,12,12,23,24,4,6,1.0,0.9
2026-04-13T1000,3685A,117.897,28.4316,上饶市,双创科技城,细颗粒物(PM2.5),66,57,41,43,30,37,37,20,20,20,19,7,9,0.8,0.7
2026-04-13T1000,4211A,118.190438,28.444845,上饶市,裕丰大道,细颗粒物(PM2.5),80,63,52,50,33,31,31,22,22,15,13,10,13,1.2,1
2026-04-13T1000,1669A,113.5821,24.7733,韶关市,市八中,,34,34,43,18,25,52,52,49,48,15,18,9,16,0.6,0.7
2026-04-13T1000,1671A,113.5916,24.7973,韶关市,园林处,,27,27,37,17,26,47,47,44,43,17,18,8,12,/,/
2026-04-13T1000,1673A,113.5971,24.6864,韶关市,曲江监测站,,31,31,38,18,23,51,51,44,44,11,16,8,9,0.6,0.7
2026-04-13T1000,2809A,113.6668,24.7756,韶关市,大学路288号,,31,31,41,19,28,62,62,54,54,11,12,8,8,/,/
2026-04-13T1000,3622A,113.5556,24.8082,韶关市,碧湖山庄,,30,30,40,16,23,53,53,56,54,13,14,6,12,0.5,0.5
2026-04-13T1000,2464A,111.5277,27.2442,邵阳市,市化工厂,细颗粒物(PM2.5),54,42,38,37,32,40,40,46,46,14,10,10,9,0.8,0.8
2026-04-13T1000,2466A,111.4327,27.2276,邵阳市,市环保局,,48,41,35,33,29,51,51,49,45,14,9,9,9,0.9,0.9
2026-04-13T1000,4218A,111.446,27.2472,邵阳市,北塔二期4-26地块,,42,40,35,29,24,51,51,36,36,12,9,7,6,0.8,0.7
2026-04-13T1000,4219A,111.4739,27.2282,邵阳市,邵水西路287号,细颗粒物(PM2.5),54,37,39,37,30,53,53,62,58,14,10,6,6,0.7,0.7
2026-04-13T1000,1247A,120.6053,29.9927,绍兴市,城东开发委,细颗粒物(PM2.5),68,69,56,44,35,40,40,42,40,26,24,8,7,0.4,0.3
2026-04-13T1000,2921A,120.5482,30.0003,绍兴市,树下王站,细颗粒物(PM2.5),64,NA,43,42,37,40,40,42,41,26,22,7,7,0.7,0.6
2026-04-13T1000,3408A,120.5685,29.936,绍兴市,绍兴中专,细颗粒物(PM2.5),62,63,51,41,33,45,45,41,39,24,21,8,8,0.3,0.4
2026-04-13T1000,3409A,120.4905,30.086,绍兴市,柯桥区政府,,40,35,48,28,36,45,45,47,46,27,24,9,8,0.4,0.4
2026-04-13T1000,3410A,120.8751,30.0249,绍兴市,重华小学,NA,NA,43,46,35,29,NA,NA,43,39,20,19,NA,8,0.5,0.4
2026-04-13T1000,3411A,120.837,30.0137,绍兴市,上虞中学,细颗粒物(PM2.5),52,46,47,36,32,43,43,39,34,18,17,7,7,0.5,0.5
2026-04-13T1000,3560A,120.4715,30.0414,绍兴市,柯桥妇保,,38,34,52,26,36,55,55,45,45,23,24,6,6,0.6,0.6
2026-04-13T1000,3658A,120.6156,30.0762,绍兴市,袍江中学,,42,41,47,29,30,37,37,44,43,31,25,7,6,0.5,0.4
2026-04-13T1000,1356A,114.0948,22.5506,深圳市,通心岭子站,,20,20,22,10,13,40,40,27,27,14,11,6,6,0.4,0.3
