timepoint,stationcode,longitude,latitude,area,positionname,primarypollutant,aqi,pm10,pm10_24h,pm2_5,pm2_5_24h,o3,o3_24h,o3_8h,o3_8h_24h,no2,no2_24h,so2,so2_24h,co,co_24h
2022-07-20T22:00:00,1001A,116.3621,39.8784,北京市,万寿西宫,,37,31,58,14,29,147,118,142,133,16,20,1,2,0.5,0.6
2022-07-20T22:00:00,1002A,116.2202,40.2915,北京市,定陵(对照点),,43,34,57,9,22,221,136,193,172,11,11,3,3,0.4,0.5
2022-07-20T22:00:00,1003A,116.4174,39.9289,北京市,东四,,46,31,59,12,28,181,147,171,162,14,19,2,3,0.3,0.5
2022-07-20T22:00:00,1004A,116.4072,39.8863,北京市,天坛,,38,28,56,13,29,148,120,141,137,15,20,1,2,0.5,0.6
2022-07-20T22:00:00,1005A,116.462,39.9365,北京市,农展馆,,46,33,62,11,30,168,147,159,158,16,23,2,2,0.4,0.5
2022-07-20T22:00:00,1006A,116.3392,39.9295,北京市,官园,,42,33,54,13,23,168,133,161,151,13,19,3,3,0.4,0.5
2022-07-20T22:00:00,1007A,116.2878,39.9611,北京市,海淀万柳,,40,32,55,12,24,161,125,154,146,23,34,3,3,0.5,0.5
2022-07-20T22:00:00,1008A,116.6636,40.135,北京市,顺义新城,,37,35,76,11,36,168,117,154,142,14,19,3,3,0.4,0.6
2022-07-20T22:00:00,1009A,116.6275,40.3275,北京市,怀柔镇,,42,27,58,10,32,223,132,193,175,19,18,1,2,0.4,0.5
2022-07-20T22:00:00,1010A,116.2296,40.217,北京市,昌平镇,,44,25,58,8,25,211,139,180,158,11,25,2,3,0.3,0.5
2022-07-20T22:00:00,1011A,116.3966,39.9821,北京市,奥体中心,,45,35,64,12,28,160,144,155,150,13,31,3,3,0.3,0.4
2022-07-20T22:00:00,1012A,116.184,39.9136,北京市,古城,颗粒物(PM10),51,52,52,14,19,167,119,159,145,18,20,3,3,0.3,0.4
2022-07-20T22:00:00,1015A,117.1444,39.1661,天津市,勤俭道,,39,36,36,17,19,191,122,164,153,16,14,12,9,0.5,0.5
2022-07-20T22:00:00,1017A,117.237,39.1082,天津市,大直沽八号路,,45,45,40,19,19,176,110,153,141,10,10,8,8,0.8,0.9
2022-07-20T22:00:00,1018A,117.202,39.0927,天津市,前进道,,35,32,35,21,21,178,112,161,145,16,16,9,7,0.6,0.8
2022-07-20T22:00:00,1019A,117.1837,39.2133,天津市,淮河道,,37,35,42,15,19,191,118,169,154,18,17,9,8,0.6,0.6
2022-07-20T22:00:00,1021A,117.307,39.0877,天津市,跃进路,,43,43,40,22,19,177,91,148,134,25,18,7,8,0.4,0.5
2022-07-20T22:00:00,1023A,117.707,39.0343,天津市,第四大街,颗粒物(PM10),54,57,52,32,29,136,94,121,110,15,18,6,7,0.7,0.8
2022-07-20T22:00:00,1024A,117.457,38.8394,天津市,永明路,细颗粒物(PM2.5),52,46,38,36,26,163,105,141,128,12,14,6,7,0.5,0.5
2022-07-20T22:00:00,1026A,117.764,39.1587,天津市,汉北路,颗粒物(PM10),53,55,46,36,28,153,91,137,122,16,15,7,7,0.7,0.7
2022-07-20T22:00:00,1027A,117.157,38.9194,天津市,团泊洼(对照点),,,,42,,21,175,,153,153,,15,,7,,0.7
2022-07-20T22:00:00,1029A,114.4422,38.0444,石家庄市,职工医院,,34,30,24,17,11,166,107,152,137,18,16,4,8,0.1,0.4
2022-07-20T22:00:00,1030A,114.6063,38.0266,石家庄市,高新区,,37,32,28,23,16,155,116,151,140,18,21,4,7,0.4,0.5
2022-07-20T22:00:00,1031A,114.4898,38.1328,石家庄市,西北水源,,35,23,29,21,13,185,111,157,138,18,14,5,9,0.4,0.5
2022-07-20T22:00:00,1032A,114.4586,38.0058,石家庄市,西南高教,,41,41,32,23,17,130,86,114,112,25,22,1,7,0.4,0.6
2022-07-20T22:00:00,1033A,114.5331,38.0178,石家庄市,世纪公园,,50,50,37,18,16,154,113,146,136,12,11,6,9,0.3,0.4
2022-07-20T22:00:00,1034A,114.509,38.0457,石家庄市,人民会堂,,36,29,24,23,15,162,114,152,140,9,8,5,8,0.4,0.5
2022-07-20T22:00:00,1035A,114.3524,37.8911,石家庄市,封龙山(对照点),颗粒物(PM10),51,51,24,28,14,146,146,138,138,6,7,5,6,0.4,0.4
2022-07-20T22:00:00,1037A,118.131,39.6363,唐山市,雷达站,,35,30,56,9,24,207,112,170,152,7,15,1,3,0.3,0.5
2022-07-20T22:00:00,1038A,118.1725,39.6334,唐山市,物资局,,33,20,52,15,29,179,104,154,134,10,19,3,6,0.3,0.5
2022-07-20T22:00:00,1040A,118.1705,39.6506,唐山市,十二中,,33,18,46,10,28,186,104,158,140,12,19,2,5,0.3,0.5
2022-07-20T22:00:00,1041A,118.1869,39.622,唐山市,小山,,32,18,49,11,32,177,101,156,136,8,18,2,5,0.2,0.5
2022-07-20T22:00:00,1042A,119.5134,39.8207,秦皇岛市,北戴河环保局,,,28,65,,18,138,96,130,123,16,14,3,4,0.3,0.3
2022-07-20T22:00:00,1043A,119.7493,40.0116,秦皇岛市,第一关,,33,23,54,5,23,144,51,133,113,65,45,12,14,0.3,0.5
2022-07-20T22:00:00,1044A,119.5897,39.9499,秦皇岛市,监测站,,30,21,52,6,25,142,96,132,122,13,27,7,10,0.2,0.3
2022-07-20T22:00:00,1046A,119.5251,39.9041,秦皇岛市,建设大厦,,35,35,55,5,22,136,85,128,118,22,31,4,4,0.4,0.6
2022-07-20T22:00:00,1047A,114.5129,36.61763,邯郸市,环保局,,,,,,,,,,,,,,,,
2022-07-20T22:00:00,1048A,114.5302,36.6116,邯郸市,东污水处理厂,,45,45,27,29,15,140,78,133,117,17,13,5,6,1.0,1
2022-07-20T22:00:00,1049A,114.4918,36.5713,邯郸市,矿院,,50,50,27,25,11,138,78,133,120,16,14,5,4,0.8,0.8
2022-07-20T22:00:00,1050A,114.484,36.6133,邯郸市,丛台公园,颗粒物(PM10),55,59,31,29,13,135,79,132,121,16,13,9,6,0.6,0.7
2022-07-20T22:00:00,1051A,115.493,38.8632,保定市,游泳馆,,35,34,29,12,13,150,110,145,136,18,20,5,7,0.1,0.4
2022-07-20T22:00:00,1052A,115.5213,38.8959,保定市,华电二区,,35,35,34,8,12,150,111,147,140,12,10,6,6,0.3,0.5
2022-07-20T22:00:00,1053A,115.4713,38.9108,保定市,接待中心,,38,26,30,11,11,153,120,149,142,19,18,5,7,0.4,0.6
2022-07-20T22:00:00,1054A,115.4612,38.8416,保定市,地表水厂,,38,38,36,19,15,150,95,145,133,19,12,5,6,0.3,0.5
2022-07-20T22:00:00,1055A,115.4323,38.8697,保定市,胶片厂,,35,31,26,7,15,152,109,150,141,22,17,10,11,0.4,0.6
2022-07-20T22:00:00,1056A,115.5086,38.8639,保定市,监测站,,44,44,42,19,19,152,111,149,142,17,14,9,9,0.3,0.5
2022-07-20T22:00:00,1057A,114.8883,40.8336,张家口市,人民公园,,49,49,29,17,5,195,155,175,165,17,11,5,7,0.4,0.2
2022-07-20T22:00:00,1059A,114.8687,40.8042,张家口市,五金库,颗粒物(PM10),54,58,39,24,12,185,152,162,153,16,16,8,9,0.6,0.4
2022-07-20T22:00:00,1060A,114.8902,40.762,张家口市,世纪豪园,细颗粒物(PM2.5),60,64,41,43,16,203,162,172,161,15,18,6,7,0.5,0.3
2022-07-20T22:00:00,1061A,114.8916,40.8661,张家口市,北泵房(对照点),颗粒物(PM10),56,62,32,34,12,197,126,178,164,15,10,6,8,0.7,0.6
2022-07-20T22:00:00,1062A,117.9531,40.9081,承德市,铁路,,30,19,48,21,25,167,77,149,134,37,23,3,4,0.3,0.4
2022-07-20T22:00:00,1063A,117.9392,40.9763,承德市,中国银行,,27,5,33,12,19,178,86,162,140,10,17,5,7,0.4,0.5
2022-07-20T22:00:00,1064A,117.9503,40.928,承德市,开发区,,50,50,48,27,24,181,104,163,147,10,22,3,6,0.3,0.5
2022-07-20T22:00:00,1065A,117.8051,40.9655,承德市,文化中心,,33,17,48,16,24,189,105,171,150,5,18,5,6,0.3,0.5
2022-07-20T22:00:00,1066A,117.9268,41.0026,承德市,离宫(对照点),,35,17,39,24,19,176,58,153,125,4,13,1,3,0.2,0.4
2022-07-20T22:00:00,1067A,116.6708,39.5111,廊坊市,药材公司,,37,19,45,11,24,164,118,157,149,16,17,7,8,0.4,0.5
2022-07-20T22:00:00,1068A,116.7214,39.5589,廊坊市,开发区,,38,30,46,16,27,168,121,156,153,23,21,9,10,0.3,0.5
2022-07-20T22:00:00,1070A,116.7244,39.5269,廊坊市,北华航天学院,,38,37,56,11,27,171,119,162,155,18,19,6,8,0.3,0.5
2022-07-20T22:00:00,1071A,116.8842,38.2991,沧州市,沧县城建局,,47,47,39,21,15,159,78,141,128,23,16,5,8,0.4,0.4
2022-07-20T22:00:00,1072A,116.8584,38.3254,沧州市,电视转播站,,33,28,36,23,15,170,103,153,147,16,14,9,11,0.3,0.4
2022-07-20T22:00:00,1073A,116.8709,38.3228,沧州市,市环保局,,40,40,57,25,20,171,102,163,144,14,13,5,6,0.3,0.3
2022-07-20T22:00:00,1074A,115.6838,37.7541,衡水市,电机北厂,,34,22,20,8,7,145,107,139,133,12,9,10,10,0.3,0.3
2022-07-20T22:00:00,1075A,115.6303,37.7316,衡水市,市监测站,,,34,30,11,8,142,,135,131,13,11,4,5,0.4,0.4
2022-07-20T22:00:00,1077A,114.4704,37.0886,邢台市,达活泉,,49,49,36,29,18,153,104,148,138,19,14,5,11,0.4,0.8
2022-07-20T22:00:00,1078A,114.5062,37.0349,邢台市,邢师高专,,44,44,30,21,14,143,88,139,128,25,14,7,9,0.3,0.7
2022-07-20T22:00:00,1079A,114.5237,37.0851,邢台市,路桥公司,,49,49,34,20,14,141,77,134,121,24,11,5,11,0.4,0.7
2022-07-20T22:00:00,1080A,114.4725,37.0719,邢台市,市环保局,颗粒物(PM10),53,55,39,27,20,150,99,145,134,20,15,5,10,0.4,0.8
2022-07-20T22:00:00,1081A,112.5139,37.8873,太原市,尖草坪,颗粒物(PM10),55,60,55,26,26,218,113,199,187,38,33,9,11,0.6,0.7
2022-07-20T22:00:00,1083A,112.434,38.0108,太原市,上兰(对照点),,,,,,,,,,,,,,,,
2022-07-20T22:00:00,1084A,112.469,37.7124,太原市,晋源,,49,49,51,24,24,175,116,161,152,36,37,9,12,0.7,0.6
2022-07-20T22:00:00,1085A,112.5583,37.7394,太原市,小店,颗粒物(PM10),54,58,49,21,23,206,51,187,159,93,31,8,16,0.6,0.6
2022-07-20T22:00:00,1086A,112.5369,37.8692,太原市,桃园,颗粒物(PM10),56,61,57,24,24,215,108,197,182,41,31,8,12,0.7,0.6
2022-07-20T22:00:00,1087A,112.57,37.8195,太原市,坞城,颗粒物(PM10),52,53,46,31,21,207,133,181,175,28,27,9,13,0.7,0.6
2022-07-20T22:00:00,1088A,112.549,37.9854,太原市,南寨,,,58,47,36,20,213,,167,156,35,33,4,8,0.9,0.7
2022-07-20T22:00:00,1089A,112.4701,37.782,太原市,金胜,,,,,,,,,,,,,,,,
2022-07-20T22:00:00,1090A,111.6507,40.7517,呼和浩特市,呼市一监,颗粒物(PM10),53,56,54,22,21,165,65,143,122,29,19,5,7,0.3,0.4
2022-07-20T22:00:00,1091A,111.6572,40.8033,呼和浩特市,小召,,31,31,49,11,19,164,70,140,122,39,23,9,8,0.4,0.4
2022-07-20T22:00:00,1094A,111.7516,40.8369,呼和浩特市,如意水处理厂,,27,27,44,9,15,169,80,147,121,25,22,6,8,0.4,0.4
2022-07-20T22:00:00,1095A,111.7276,40.8062,呼和浩特市,二十九中,,36,36,50,12,18,163,63,141,117,39,25,7,8,0.4,0.4
2022-07-20T22:00:00,1096A,111.5512,40.7866,呼和浩特市,工大金川校区,,39,39,56,8,18,161,96,142,120,16,22,5,8,0.3,0.4
2022-07-20T22:00:00,1097A,111.717,40.7612,呼和浩特市,化肥厂生活区,,,66,63,18,21,162,51,140,118,,22,5,7,0.4,0.4
2022-07-20T22:00:00,1098A,123.6836,41.9339,沈阳市,森林路(对照点),,,,,,,,,,,,,,,,
2022-07-20T22:00:00,1099A,123.505,41.7406,沈阳市,浑南东路,颗粒物(PM10),53,56,54,33,27,159,72,141,111,28,32,7,13,0.9,1.1
2022-07-20T22:00:00,1100A,123.4231,41.6989,沈阳市,新秀街,,48,48,49,21,25,148,82,123,106,24,36,13,30,0.9,1.2
2022-07-20T22:00:00,1102A,123.5903,41.8411,沈阳市,东陵路,,39,39,44,24,23,155,79,127,113,14,23,8,13,0.7,0.9
2022-07-20T22:00:00,1103A,123.4264,41.8467,沈阳市,陵东街,,40,38,39,28,23,150,82,119,107,20,29,4,9,0.8,1
2022-07-20T22:00:00,1104A,123.4114,41.7653,沈阳市,文化路,颗粒物(PM10),52,54,54,35,35,166,93,149,120,18,29,7,24,0.9,1.2
2022-07-20T22:00:00,1105A,123.4678,41.7867,沈阳市,小河沿,颗粒物(PM10),59,67,64,39,30,150,76,119,104,21,33,5,13,0.6,0.9
2022-07-20T22:00:00,1106A,123.4017,41.7972,沈阳市,太原街,颗粒物(PM10),54,57,50,36,31,152,89,128,112,22,32,4,16,0.8,0.9
2022-07-20T22:00:00,1108A,123.3783,41.9228,沈阳市,京沈街,,42,32,51,29,26,180,99,150,133,19,33,8,17,0.7,0.9
2022-07-20T22:00:00,1109A,121.612,38.9741,大连市,甘井子,,39,39,37,24,23,107,13,92,54,48,26,5,47,0.7,0.6
2022-07-20T22:00:00,1110A,121.565,38.9511,大连市,周水子,颗粒物(PM10),54,58,41,21,20,95,13,82,55,26,14,8,7,1.1,0.9
2022-07-20T22:00:00,1111A,121.5637,38.8845,大连市,星海三站,,46,46,40,28,32,122,37,109,89,58,33,6,7,0.4,0.3
2022-07-20T22:00:00,1112A,121.6302,38.9117,大连市,青泥洼桥,,,46,40,20,26,102,,97,69,88,44,7,7,0.8,0.7
2022-07-20T22:00:00,1113A,121.6251,38.8638,大连市,傅家庄,,36,36,27,15,18,114,84,104,88,19,16,7,7,1.0,1.1
2022-07-20T22:00:00,1114A,121.5213,38.8661,大连市,七贤岭,,32,32,36,16,18,128,52,125,85,18,16,6,7,0.8,0.8
2022-07-20T22:00:00,1115A,121.2529,38.8061,大连市,旅顺,,29,23,25,20,20,104,71,102,77,15,17,6,6,0.7,0.6
2022-07-20T22:00:00,1116A,121.7485,39.1311,大连市,金州,,23,23,32,10,18,130,20,97,48,31,17,6,7,0.5,0.5
2022-07-20T22:00:00,1117A,121.7811,39.0496,大连市,开发区,二氧化氮,53,47,45,28,31,147,8,99,44,106,51,13,11,1.2,1
2022-07-20T22:00:00,1118A,121.9762,39.0631,大连市,双D港,,25,10,24,9,17,123,80,96,63,12,27,8,9,0.5,0.6
2022-07-20T22:00:00,1119A,125.3325,43.9166,长春市,食品厂,,28,28,39,12,15,112,26,89,58,47,40,3,3,0.6,0.6
2022-07-20T22:00:00,1120A,125.2863,43.9027,长春市,客车厂,,20,20,28,9,12,118,42,94,61,38,38,4,4,0.9,0.9
2022-07-20T22:00:00,1121A,125.2841,43.8463,长春市,邮电学院,,16,12,31,10,12,103,24,78,56,32,25,4,4,0.5,0.7
2022-07-20T22:00:00,1122A,125.3716,43.8772,长春市,劳动公园,,22,13,33,10,14,108,69,88,70,22,34,2,2,0.5,0.6
2022-07-20T22:00:00,1123A,125.3297,43.8805,长春市,园林处,,20,20,31,14,11,116,51,94,74,31,36,4,4,0.5,0.6
2022-07-20T22:00:00,1124A,125.4605,43.79,长春市,净月潭,,14,14,16,5,4,96,42,72,40,6,5,6,6,0.3,0.3
2022-07-20T22:00:00,1125A,125.7194,43.515,长春市,甩湾子(对照点),,,,,,,,,,,,,,,,
2022-07-20T22:00:00,1126A,125.3863,43.8447,长春市,经开区环卫处,,19,7,24,7,10,99,58,77,57,19,30,4,4,0.5,0.6
2022-07-20T22:00:00,1127A,125.245,43.7783,长春市,高新区管委会,,19,19,22,11,10,109,44,85,54,26,26,3,4,0.5,0.5
2022-07-20T22:00:00,1128A,125.1761,43.8325,长春市,岱山公园,,29,21,25,16,10,112,15,83,34,57,36,4,4,0.4,0.4
2022-07-20T22:00:00,1129A,126.5422,45.755,哈尔滨市,岭北(对照点),,23,23,24,10,15,115,57,106,93,27,31,7,10,0.4,0.4
2022-07-20T22:00:00,1130A,126.561,45.8167,哈尔滨市,松北商大,,36,36,44,14,12,119,8,100,66,70,38,5,5,1.2,0.9
2022-07-20T22:00:00,1131A,126.979,45.5419,哈尔滨市,阿城会宁,颗粒物(PM10),60,70,28,17,12,9,9,9,9,31,19,11,20,0.5,2.5
2022-07-20T22:00:00,1132A,126.599,45.7222,哈尔滨市,南岗学府路,,31,31,33,17,14,115,35,104,83,41,32,15,24,0.8,0.7
2022-07-20T22:00:00,1133A,126.689,45.7733,哈尔滨市,太平宏伟公园,颗粒物(PM10),63,76,62,17,15,128,25,106,72,54,34,6,10,1.0,0.7
2022-07-20T22:00:00,1134A,126.635,45.7667,哈尔滨市,道外承德广场,,32,32,51,16,13,121,58,105,92,32,38,8,10,0.7,0.8
2022-07-20T22:00:00,1135A,126.685,45.7319,哈尔滨市,香坊红旗大街,颗粒物(PM10),60,70,50,17,14,115,8,101,66,94,54,16,18,1.0,0.6
2022-07-20T22:00:00,1136A,126.6411,45.7258,哈尔滨市,动力和平路,,,44,47,,,108,24,99,74,57,37,7,11,0.8,0.8
2022-07-20T22:00:00,1137A,126.593,45.7478,哈尔滨市,道里建国路,,35,35,48,14,16,115,54,104,90,42,41,13,19,0.8,1.4
2022-07-20T22:00:00,1138A,126.615,45.61,哈尔滨市,平房东轻厂,,36,33,26,13,10,89,4,85,59,71,26,4,3,0.8,0.7
2022-07-20T22:00:00,1139A,126.595,45.9855,哈尔滨市,呼兰师专,,30,30,39,12,12,144,22,128,93,39,30,8,9,0.6,0.6
2022-07-20T22:00:00,1140A,126.6206,45.6842,哈尔滨市,省农科院,,44,44,41,14,13,106,27,100,75,43,26,10,12,0.5,0.6
2022-07-20T22:00:00,1141A,121.4,31.238,上海市,普陀,,41,41,34,16,23,163,41,147,107,31,17,3,3,0.5,0.5
2022-07-20T22:00:00,1142A,121.478,31.2036,上海市,十五厂,,29,29,33,18,28,149,48,135,103,25,25,1,1,0.5,0.6
2022-07-20T22:00:00,1143A,121.467,31.3008,上海市,虹口,,36,36,33,13,23,145,33,137,92,37,20,3,3,0.3,0.4
2022-07-20T22:00:00,1144A,121.412,31.1654,上海市,徐汇上师大,,30,30,35,16,24,170,47,150,111,35,25,2,3,0.8,0.8
2022-07-20T22:00:00,1145A,121.536,31.2659,上海市,杨浦四漂,,27,27,32,17,29,157,55,146,110,20,17,3,4,0.6,0.7
2022-07-20T22:00:00,1146A,120.978,31.0935,上海市,青浦淀山湖(对照点),,,,,,,,,,,,,,,,
2022-07-20T22:00:00,1147A,121.425,31.2261,上海市,静安监测站,,34,34,37,14,23,142,37,131,98,44,23,1,1,0.2,0.3
2022-07-20T22:00:00,1148A,121.703,31.1907,上海市,浦东川沙,颗粒物(PM10),58,65,45,38,31,160,128,145,141,22,19,4,4,0.2,0.3
2022-07-20T22:00:00,1149A,121.533,31.2284,上海市,浦东新区监测站,,29,29,43,10,30,167,48,144,111,29,20,5,5,0.5,0.6
2022-07-20T22:00:00,1150A,121.577,31.2071,上海市,浦东张江,颗粒物(PM10),55,60,33,31,29,159,102,145,123,46,26,4,4,1.2,1.1
2022-07-20T22:00:00,1151A,118.8086,32.1065,南京市,迈皋桥,,20,12,24,0,4,103,63,82,59,10,10,3,4,0.3,0.3
2022-07-20T22:00:00,1152A,118.7538,32.0551,南京市,草场门,,18,7,14,7,5,96,56,82,57,16,12,2,2,0.5,0.6
2022-07-20T22:00:00,1153A,118.7794,32.0745,南京市,山西路,,23,12,23,9,14,119,71,96,67,10,9,3,4,0.2,0.3
2022-07-20T22:00:00,1154A,118.7752,32.0023,南京市,中华门,,21,14,21,0,2,102,67,82,61,8,7,3,3,0.7,0.7
2022-07-20T22:00:00,1155A,118.8109,32.0309,南京市,瑞金路,,17,12,22,5,8,81,52,67,48,5,5,4,4,0.4,0.4
2022-07-20T22:00:00,1156A,118.7997,32.0754,南京市,玄武湖,,21,14,21,8,8,107,67,84,58,5,7,4,4,0.6,0.6
2022-07-20T22:00:00,1157A,118.6414,32.0931,南京市,浦口,,24,17,20,5,5,98,76,79,67,4,11,6,6,0.3,0.5
2022-07-20T22:00:00,1158A,118.7356,31.9996,南京市,奥体中心,,21,12,21,9,8,102,65,82,62,13,11,3,3,0.3,0.3
2022-07-20T22:00:00,1159A,118.9125,32.1028,南京市,仙林大学城,,20,7,20,9,9,119,62,95,59,16,11,3,4,0.6,0.6
2022-07-20T22:00:00,1160A,120.561,31.2472,苏州市,上方山(对照点),,35,35,37,19,18,145,39,120,71,19,14,7,6,0.5,0.5
2022-07-20T22:00:00,1161A,120.628,31.2864,苏州市,南门,,,,,,,,,,,,,,,,
2022-07-20T22:00:00,1162A,120.591,31.3019,苏州市,彩香,,30,30,21,14,16,140,55,115,80,13,11,6,5,0.4,0.5
2022-07-20T22:00:00,1163A,120.596,31.3264,苏州市,轧钢厂,,27,27,18,10,10,128,49,102,74,14,11,5,5,0.4,0.4
2022-07-20T22:00:00,1164A,120.613,31.2703,苏州市,吴中区,,25,25,24,10,11,142,52,118,79,19,16,6,6,0.4,0.5
2022-07-20T22:00:00,1165A,120.543,31.2994,苏州市,苏州新区,,24,24,17,10,12,142,57,118,84,11,9,6,6,0.6,0.6
2022-07-20T22:00:00,1166A,120.669,31.3097,苏州市,苏州工业园区,,23,23,25,15,15,129,50,106,74,16,18,7,7,0.6,0.8
2022-07-20T22:00:00,1167A,120.641,31.3708,苏州市,相城区,,30,30,20,16,15,134,44,111,77,20,13,6,6,0.4,0.5
2022-07-20T22:00:00,1168A,120.9098,31.9663,南通市,狼山街道,,32,32,26,7,11,154,43,126,73,32,24,9,8,0.6,0.6
2022-07-20T22:00:00,1169A,120.86,32.0005,南通市,虹桥,,,31,28,24,24,129,35,117,71,28,26,2,3,,0.5
2022-07-20T22:00:00,1170A,120.87,32.02,南通市,城中,,29,29,28,13,21,142,42,124,81,25,21,8,7,0.5,0.5
2022-07-20T22:00:00,1171A,120.94,31.93,南通市,星湖花园,,37,37,30,14,16,160,9,129,57,64,27,8,7,0.6,0.6
2022-07-20T22:00:00,1172A,120.81,32.0417,南通市,紫琅学院,,38,38,33,7,14,144,39,118,73,17,19,8,8,0.7,0.7
2022-07-20T22:00:00,1173A,119.176,34.5885,连云港市,市环境监测站,,25,24,19,17,12,104,75,86,86,10,10,1,2,0.5,0.6
2022-07-20T22:00:00,1177A,117.179,34.2761,徐州市,黄河新村,,39,39,33,27,23,132,93,106,99,14,18,8,8,0.7,0.7
2022-07-20T22:00:00,1178A,117.1918,34.2384,徐州市,淮塔,,45,32,34,31,25,127,98,106,102,9,15,6,6,0.6,0.6
2022-07-20T22:00:00,1180A,117.256,34.2153,徐州市,新城区,,42,42,39,24,21,119,92,98,94,9,14,6,6,0.6,0.6
2022-07-20T22:00:00,1181A,117.244,34.2911,徐州市,桃园路,,41,41,40,19,17,118,93,100,95,13,17,10,11,0.8,0.8
2022-07-20T22:00:00,1182A,117.2933,34.2778,徐州市,农科院,,34,34,29,19,14,109,96,93,92,11,19,10,10,0.7,0.7
2022-07-20T22:00:00,1186A,119.389,32.3761,扬州市,邗江监测站,,22,22,30,11,15,127,63,90,62,6,7,7,7,0.6,0.7
2022-07-20T22:00:00,1188A,120.269,31.4867,无锡市,雪浪,,20,7,18,5,9,144,64,110,75,2,2,9,10,0.5,0.6
2022-07-20T22:00:00,1189A,120.275,31.6219,无锡市,黄巷,,39,39,23,14,12,145,62,119,79,17,11,6,7,0.3,0.5
2022-07-20T22:00:00,1190A,120.294,31.56,无锡市,曹张,,26,26,22,7,8,136,58,106,72,1,3,4,5,0.5,0.7
2022-07-20T22:00:00,1191A,120.242,31.5031,无锡市,漆塘,,22,17,17,15,12,148,64,113,68,1,6,5,5,0.5,0.6
2022-07-20T22:00:00,1192A,120.3489,31.5863,无锡市,东亭,,29,29,22,12,13,145,62,114,78,5,8,6,7,0.7,0.8
2022-07-20T22:00:00,1193A,120.354,31.5475,无锡市,旺庄,,22,22,20,7,10,147,57,113,73,14,14,10,10,0.6,0.7
2022-07-20T22:00:00,1194A,120.245,31.5631,无锡市,荣巷,,22,22,17,14,15,134,64,107,79,4,6,11,11,0.5,0.6
2022-07-20T22:00:00,1195A,120.299,31.6817,无锡市,堰桥,,44,44,26,17,11,144,60,115,74,3,12,6,6,0.6,0.6
2022-07-20T22:00:00,1196A,119.9633,31.762,常州市,市监测站,,15,12,20,2,8,114,45,114,62,11,10,6,6,0.5,0.4
2022-07-20T22:00:00,1200A,119.9468,31.7069,常州市,武进监测站,,22,14,18,4,10,111,68,111,75,7,9,5,5,0.7,0.7
2022-07-20T22:00:00,1201A,119.9255,31.9087,常州市,安家,,,35,21,,9,114,34,105,67,26,12,6,6,0.8,0.8
2022-07-20T22:00:00,1203A,119.6707,32.1875,镇江市,新区办事处,,20,17,23,9,14,116,64,114,60,19,18,9,7,0.9,0.8
2022-07-20T22:00:00,1204A,119.4974,32.1968,镇江市,职教中心,,19,14,22,4,11,120,59,110,62,17,13,7,5,0.5,0.6
2022-07-20T22:00:00,1205A,119.4303,32.1328,镇江市,丹徒区监测站,,18,16,23,12,13,138,54,110,66,14,11,5,4,0.8,0.7
2022-07-20T22:00:00,1206A,119.905,32.4878,泰州市,公园路,,19,7,30,7,22,106,60,88,55,7,13,6,7,0.7,0.9
2022-07-20T22:00:00,1207A,119.9189,32.4625,泰州市,莲花,,22,5,29,7,26,109,68,92,61,8,14,8,9,0.6,0.8
2022-07-20T22:00:00,1209A,119.888,32.4639,泰州市,留学生创业园,,22,14,26,6,21,119,69,100,69,9,15,6,8,0.6,0.9
2022-07-20T22:00:00,1210A,119.036,33.5981,淮安市,钵池山,,24,22,27,15,19,88,75,75,75,8,11,8,8,0.6,0.7
2022-07-20T22:00:00,1211A,119.007,33.575,淮安市,北京南路,,26,24,34,18,22,91,66,67,67,14,17,7,7,0.6,0.9
2022-07-20T22:00:00,1212A,118.989,33.6067,淮安市,市监测站,,31,31,35,15,19,102,59,75,73,21,15,6,6,0.6,0.7
2022-07-20T22:00:00,1213A,119.135,33.5039,淮安市,楚州区监测站,,34,34,34,19,19,97,65,81,75,14,11,7,8,0.5,0.6
2022-07-20T22:00:00,1214A,119.0186,33.6297,淮安市,淮阴区监测站,,23,16,29,16,20,91,69,73,73,10,11,7,7,0.5,0.7
2022-07-20T22:00:00,1215A,120.118,33.4022,盐城市,盐城电厂,,29,22,30,13,16,147,90,104,83,9,8,8,5,0.5,0.4
2022-07-20T22:00:00,1216A,120.156,33.3942,盐城市,市监测站,,28,16,23,7,10,147,89,99,80,7,9,7,7,0.4,0.3
2022-07-20T22:00:00,1218A,120.2144,33.38,盐城市,开发区管委会,,25,12,23,8,17,157,77,92,69,10,13,7,7,0.5,0.4
2022-07-20T22:00:00,1220A,118.293,33.9528,宿迁市,宿迁学院,,29,15,20,12,14,106,92,98,98,4,8,4,3,0.6,0.7
2022-07-20T22:00:00,1221A,118.2442,33.9592,宿迁市,宿迁中学,,27,16,22,8,13,104,84,94,94,6,8,1,1,0.5,0.6
2022-07-20T22:00:00,1223A,120.2072,30.2111,杭州市,滨江,,28,28,24,15,13,113,42,97,70,26,17,5,4,0.6,0.6
2022-07-20T22:00:00,1224A,120.0633,30.2747,杭州市,西溪,,27,27,25,13,13,86,28,74,52,19,12,11,11,0.4,0.4
2022-07-20T22:00:00,1225A,119.026,29.635,杭州市,千岛湖(对照点),,,,,,,,,,,,,,,,
2022-07-20T22:00:00,1226A,120.3461,30.3153,杭州市,下沙,,25,25,23,13,14,113,48,97,70,18,13,2,2,0.5,0.5
2022-07-20T22:00:00,1227A,120.1269,30.2456,杭州市,卧龙桥,,20,20,18,10,9,89,28,74,44,10,9,4,4,0.6,0.6
2022-07-20T22:00:00,1228A,120.1903,30.2692,杭州市,浙江农大,,19,14,16,13,13,93,60,87,72,9,12,5,4,0.6,0.7
2022-07-20T22:00:00,1229A,120.157,30.2897,杭州市,朝晖五区,,,,,,,,,,,,,,,,
2022-07-20T22:00:00,1230A,120.1197,30.3119,杭州市,和睦小学,,27,27,22,10,12,113,53,87,68,21,16,6,5,0.5,0.7
2022-07-20T22:00:00,1231A,120.3019,30.4183,杭州市,临平镇,,30,30,20,12,11,113,34,94,68,36,18,4,3,0.6,0.7
2022-07-20T22:00:00,1232A,120.2697,30.1819,杭州市,城厢镇,,,30,27,17,14,108,,93,77,22,14,6,6,0.5,0.6
2022-07-20T22:00:00,1233A,120.0883,30.1808,杭州市,云栖,,20,20,19,10,9,101,32,85,56,16,12,6,6,0.6,0.7
2022-07-20T22:00:00,1234A,121.8358,29.911,宁波市,区环保大楼,,,45,49,22,25,158,,123,102,87,58,14,8,0.9,0.9
2022-07-20T22:00:00,1235A,121.56,29.82,宁波市,万里学院,,49,49,46,27,22,160,110,136,135,19,17,10,9,0.6,0.6
2022-07-20T22:00:00,1236A,121.713,29.9572,宁波市,龙赛医院,,,57,40,25,21,207,,152,108,79,37,6,3,0.7,0.9
2022-07-20T22:00:00,1239A,121.633,29.7733,宁波市,钱湖水厂,,28,27,26,17,24,145,89,132,125,18,14,6,5,0.6,0.6
2022-07-20T22:00:00,1240A,121.5856,29.8635,宁波市,太古小学,,33,33,31,21,21,139,98,118,115,19,18,6,6,0.8,0.7
2022-07-20T22:00:00,1241A,121.524,29.8674,宁波市,市环境监测中心,,50,50,37,27,22,121,96,104,101,21,20,4,3,0.7,0.7
2022-07-20T22:00:00,1242A,120.634,28.0089,温州市,瓯海,,46,46,50,19,24,188,38,157,96,21,19,6,6,0.6,0.5
2022-07-20T22:00:00,1243A,120.6748,27.9939,温州市,南浦,,40,40,50,20,24,185,37,144,86,20,18,4,4,0.5,0.5
2022-07-20T22:00:00,1244A,120.76,27.9747,温州市,龙湾,,45,45,45,15,16,154,29,122,70,23,16,6,6,0.4,0.4
2022-07-20T22:00:00,1245A,120.6709,28.0167,温州市,市站,,47,47,53,17,19,189,36,154,94,26,21,5,6,0.6,0.6
2022-07-20T22:00:00,1246A,120.598,30.0911,绍兴市,袍江站,,,,,,,,,,,,,,,,
2022-07-20T22:00:00,1247A,120.6053,29.9928,绍兴市,城东开发委,,29,29,27,17,15,102,47,94,80,21,12,6,5,0.5,0.5
2022-07-20T22:00:00,1250A,120.0751,30.8669,湖州市,城西水厂,,21,21,22,14,10,120,27,92,50,32,21,4,4,0.5,0.5
2022-07-20T22:00:00,1252A,120.7436,30.778,嘉兴市,清河小学,,21,21,19,14,12,141,40,115,77,27,19,8,7,0.3,0.4
2022-07-20T22:00:00,1253A,120.726,30.7478,嘉兴市,嘉兴学院,,,32,24,14,16,138,,112,82,24,21,3,3,0.3,0.4
2022-07-20T22:00:00,1255A,121.273,28.6459,台州市,黄岩环保大楼,,,26,35,13,19,151,,121,106,12,12,4,4,,0.3
2022-07-20T22:00:00,1256A,121.419,28.6542,台州市,台州环保大楼,,28,28,39,10,18,111,49,104,80,17,13,4,4,0.4,0.4
2022-07-20T22:00:00,1257A,121.377,28.5773,台州市,路桥田洋王,,28,28,35,16,19,76,57,76,67,16,14,5,4,0.4,0.4
2022-07-20T22:00:00,1258A,122.122,30.0203,舟山市,定海檀枫,,28,28,30,14,15,120,59,108,87,10,20,1,2,0.3,0.3
2022-07-20T22:00:00,1259A,122.3094,29.9558,舟山市,普陀东港,,28,28,30,14,16,108,47,83,79,17,23,3,2,0.4,0.4
2022-07-20T22:00:00,1260A,122.19,29.9944,舟山市,临城新区,,24,24,31,13,14,138,65,116,102,17,23,7,4,0.3,0.4
2022-07-20T22:00:00,1261A,119.649,29.1131,金华市,四中(停运161031),,,,,,,,,,,,,,,,
2022-07-20T22:00:00,1262A,119.647,29.077,金华市,十五中,,30,30,42,17,22,153,54,114,79,14,19,7,6,0.4,0.5
2022-07-20T22:00:00,1263A,119.686,29.1029,金华市,监测站,,45,45,41,19,17,158,34,120,71,30,22,8,5,0.5,0.5
2022-07-20T22:00:00,1264A,118.8692,28.9398,衢州市,环保大楼,,35,35,34,11,14,105,22,76,44,19,14,12,6,0.3,0.4
2022-07-20T22:00:00,1265A,118.8709,28.9666,衢州市,实验学校,,23,23,24,7,12,117,28,84,49,19,19,5,4,0.3,0.3
2022-07-20T22:00:00,1266A,118.8621,28.9808,衢州市,衢州学院,,32,32,27,10,12,102,32,76,52,14,13,7,5,0.3,0.3
2022-07-20T22:00:00,1267A,119.914,28.4514,丽水市,监测站大楼,,23,22,23,16,15,71,5,59,37,24,11,6,6,0.3,0.3
2022-07-20T22:00:00,1268A,119.93,28.4586,丽水市,莲都小学,,26,26,28,6,12,84,5,65,38,27,13,6,6,0.3,0.4
2022-07-20T22:00:00,1269A,119.879,28.4231,丽水市,余庄前,,25,25,22,13,10,70,8,61,36,15,10,6,6,0.2,0.2
2022-07-20T22:00:00,1270A,117.1959,31.7848,合肥市,明珠广场,,24,24,26,9,12,72,57,60,60,20,16,5,5,0.5,0.5
2022-07-20T22:00:00,1271A,117.3072,31.8764,合肥市,三里街,,22,22,28,5,7,74,68,63,63,15,17,8,8,0.6,0.5
2022-07-20T22:00:00,1272A,117.2588,31.8707,合肥市,琥珀山庄,,28,28,25,12,10,78,69,68,68,13,12,10,10,0.6,0.5
2022-07-20T22:00:00,1273A,117.1604,31.9052,合肥市,董铺水库(对照点),,17,17,20,2,9,71,53,62,62,10,7,11,11,0.7,0.7
2022-07-20T22:00:00,1274A,117.25,31.8571,合肥市,长江中路,,25,22,28,17,17,81,73,71,71,5,7,4,5,0.5,0.5
2022-07-20T22:00:00,1275A,117.266,31.9436,合肥市,庐阳区,,25,22,30,17,16,77,68,66,66,7,8,5,5,0.6,0.6
2022-07-20T22:00:00,1276A,117.336,31.8586,合肥市,瑶海区,,27,27,30,10,11,69,63,62,62,14,14,8,8,0.5,0.5
2022-07-20T22:00:00,1277A,117.3027,31.7964,合肥市,包河区,,25,22,27,17,16,69,59,60,60,20,17,10,11,0.6,0.5
2022-07-20T22:00:00,1278A,117.2776,31.7385,合肥市,滨湖新区,,19,14,26,12,10,67,59,62,62,18,11,7,10,0.6,0.4
2022-07-20T22:00:00,1279A,117.1318,31.8403,合肥市,高新区,,25,19,25,17,16,78,66,66,66,11,9,3,3,0.7,0.7
2022-07-20T22:00:00,1280A,119.3903,26.0543,福州市,鼓山(对照点),,,,,,,,,,,,,,,,
2022-07-20T22:00:00,1282A,119.2681,26.0504,福州市,师大,,45,45,34,10,11,91,43,77,74,21,13,4,3,0.2,0.2
2022-07-20T22:00:00,1283A,119.2984,26.1028,福州市,五四北路,,46,46,33,13,11,83,41,72,69,23,16,4,3,0.3,0.3
2022-07-20T22:00:00,1284A,119.2648,26.0768,福州市,杨桥西路,,46,46,33,13,12,86,43,72,69,19,12,4,4,0.2,0.2
2022-07-20T22:00:00,1285A,119.317,26.0746,福州市,紫阳,,,41,33,20,12,73,,62,62,18,15,4,4,0.3,0.3
2022-07-20T22:00:00,1286A,118.1608,24.8169,厦门市,溪东(对照点),,,,,,,,,,,,,,,,
2022-07-20T22:00:00,1287A,118.1514,24.4767,厦门市,洪文,,12,12,11,6,6,45,37,42,40,8,8,1,3,0.3,0.3
2022-07-20T22:00:00,1288A,118.0661,24.4444,厦门市,鼓浪屿,,9,1,12,6,6,40,27,34,33,8,8,3,3,0.4,0.4
2022-07-20T22:00:00,1290A,115.8931,28.6843,南昌市,省外办,,32,32,35,11,11,137,64,124,100,17,13,10,9,0.6,0.7
2022-07-20T22:00:00,1291A,115.8886,28.7003,南昌市,省林业公司,,22,22,29,5,7,140,64,129,100,17,11,8,11,0.5,0.6
2022-07-20T22:00:00,1292A,115.8126,28.7442,南昌市,林科所,,29,29,32,12,14,127,62,116,98,13,15,8,6,0.4,0.4
2022-07-20T22:00:00,1294A,115.8518,28.687,南昌市,建工学校,,35,33,32,24,20,126,50,116,92,24,11,6,5,0.4,0.4
2022-07-20T22:00:00,1295A,115.8921,28.6424,南昌市,象湖,颗粒物(PM10),54,58,35,6,7,126,43,111,86,26,15,9,4,0.5,0.5
2022-07-20T22:00:00,1296A,115.7423,28.7996,南昌市,武术学校(对照点),,22,22,24,13,18,74,18,68,49,2,4,12,13,0.6,0.5
2022-07-20T22:00:00,1298A,115.9314,28.6842,南昌市,省站,,38,38,38,16,18,131,50,116,91,15,9,13,3,0.7,0.7
2022-07-20T22:00:00,1299A,116.9862,36.6114,济南市,科干所,,49,46,28,34,20,112,68,90,86,25,22,2,2,0.7,0.6
2022-07-20T22:00:00,1300A,116.9376,36.665,济南市,农科所,,39,39,31,24,19,99,25,75,66,33,25,4,4,0.5,0.5
2022-07-20T22:00:00,1301A,117.1265,36.6734,济南市,开发区,,49,39,28,34,21,109,76,96,90,27,26,2,2,0.8,0.7
2022-07-20T22:00:00,1303A,117.0624,36.6868,济南市,省种子仓库,细颗粒物(PM2.5),58,48,38,41,25,101,58,90,85,24,25,1,1,0.7,0.6
2022-07-20T22:00:00,1304A,116.9489,36.6447,济南市,机床二厂,细颗粒物(PM2.5),53,51,36,37,21,108,60,98,93,25,24,3,3,0.6,0.5
2022-07-20T22:00:00,1305A,117.0495,36.663,济南市,市监测站,,42,42,32,27,21,107,74,100,94,27,27,4,4,0.8,0.7
2022-07-20T22:00:00,1306A,116.7675,36.5484,济南市,长清党校,,49,39,27,34,21,117,67,111,96,16,19,6,5,0.7,0.6
2022-07-20T22:00:00,1307A,120.6659,36.2403,青岛市,仰口(对照点),,21,9,23,7,18,76,65,68,59,12,18,3,4,0.4,0.5
2022-07-20T22:00:00,1308A,120.3905,36.1851,青岛市,李沧区子站,,,,,,,,,,,,,,,,
2022-07-20T22:00:00,1309A,120.3471,36.0699,青岛市,市北区子站,,,,,,,,,,,,,,,,
2022-07-20T22:00:00,1310A,120.4134,36.0658,青岛市,市南区东部子站,,26,12,17,2,14,126,83,105,93,6,5,6,6,0.3,0.4
2022-07-20T22:00:00,1311A,120.3664,36.1032,青岛市,四方区子站,,24,14,16,2,10,108,76,88,79,8,12,5,5,0.4,0.5
2022-07-20T22:00:00,1312A,120.2994,36.054,青岛市,市南区西部子站,,29,9,25,2,14,130,92,122,92,6,13,6,7,0.3,0.5
2022-07-20T22:00:00,1313A,120.4581,36.0858,青岛市,崂山区子站,,29,0,18,2,11,151,91,113,104,16,13,5,5,0.1,0.2
2022-07-20T22:00:00,1314A,120.1983,35.9608,青岛市,黄岛区子站,,24,9,32,7,17,131,76,110,88,24,25,4,5,0.3,0.4
2022-07-20T22:00:00,1315A,120.3999,36.3083,青岛市,城阳区子站,,27,8,25,5,14,156,86,133,96,5,10,4,5,0.4,0.6
2022-07-20T22:00:00,1316A,113.69031,34.76122,郑州市,烟厂,,36,36,25,21,16,149,67,124,114,26,14,5,4,0.8,0.7
2022-07-20T22:00:00,1317A,113.65724,34.77134,郑州市,郑纺机,,,38,27,,,146,63,125,112,26,11,5,5,0.8,0.7
2022-07-20T22:00:00,1318A,113.67526,34.80246,郑州市,银行学校,,48,48,23,22,17,161,72,128,119,25,14,4,3,0.7,0.5
2022-07-20T22:00:00,1319A,113.56746,34.81334,郑州市,供水公司,,48,48,24,22,14,164,72,141,128,28,12,6,6,0.6,0.5
2022-07-20T22:00:00,1320A,113.7329,34.7178,郑州市,经开区管委,,38,38,22,19,14,147,69,117,108,22,12,2,2,0.7,0.6
2022-07-20T22:00:00,1321A,113.73961,34.77172,郑州市,四十七中,,37,37,24,16,12,156,75,122,115,15,9,5,5,0.8,0.7
2022-07-20T22:00:00,1322A,113.60532,34.74838,郑州市,市监测站,,42,42,30,20,17,154,74,132,118,24,15,4,4,0.6,0.5
2022-07-20T22:00:00,1323A,113.64164,34.7525,郑州市,河医大,,44,44,24,22,11,157,68,132,120,26,12,4,3,0.7,0.6
2022-07-20T22:00:00,1324A,113.51488,34.91089,郑州市,岗李水库(对照点),,45,45,25,22,14,159,27,138,113,19,11,6,6,1.0,0.8
2022-07-20T22:00:00,1325A,114.3677,30.5584,武汉市,东湖梨园,,32,32,20,10,7,77,54,63,63,24,18,6,6,0.9,0.9
2022-07-20T22:00:00,1326A,114.2529,30.558,武汉市,汉阳月湖,,20,20,30,7,6,70,33,60,55,39,25,6,6,0.7,0.6
2022-07-20T22:00:00,1327A,114.282,30.6189,武汉市,汉口花桥,,25,21,15,17,10,88,38,71,66,40,23,6,6,0.8,0.7
2022-07-20T22:00:00,1328A,114.3025,30.5332,武汉市,武昌紫阳,,22,22,16,6,6,75,52,61,61,23,20,4,4,0.7,0.8
2022-07-20T22:00:00,1329A,114.3646,30.6217,武汉市,青山钢花,,32,29,21,22,14,75,30,58,50,38,25,5,5,0.9,0.9
2022-07-20T22:00:00,1330A,114.1566,30.4825,武汉市,沌口新区,,22,22,19,6,9,89,40,72,67,39,24,6,6,0.9,0.8
2022-07-20T22:00:00,1331A,114.3014,30.5944,武汉市,汉口江滩,,27,27,16,17,8,63,31,52,48,39,21,6,6,0.9,0.8
2022-07-20T22:00:00,1333A,114.135,30.6319,武汉市,吴家山,,31,31,18,20,9,77,20,71,60,56,23,5,6,1.0,0.8
2022-07-20T22:00:00,1334A,113.8454,30.2917,武汉市,沉湖七壕(对照点),,23,19,14,16,6,78,38,68,64,17,14,6,6,0.8,0.7
2022-07-20T22:00:00,1335A,113.0833,28.2325,长沙市,经开区环保局,,20,20,15,11,17,120,46,107,80,8,8,3,5,0.5,0.6
2022-07-20T22:00:00,1336A,112.8872,28.2189,长沙市,高开区环保局,,14,9,13,5,16,95,44,90,74,16,10,6,9,0.2,0.3
2022-07-20T22:00:00,1337A,113.0792,28.2053,长沙市,马坡岭,,21,21,23,5,16,209,48,118,77,11,7,5,4,0.5,0.6
2022-07-20T22:00:00,1338A,112.9394,28.19,长沙市,湖南师范大学,,18,18,21,5,9,89,34,80,64,8,7,2,2,0.5,0.5
2022-07-20T22:00:00,1339A,113.0178,28.1322,长沙市,雨花区环保局,,20,14,14,14,14,109,31,95,73,17,7,5,7,0.3,0.5
2022-07-20T22:00:00,1340A,112.9792,28.2597,长沙市,伍家岭,,19,19,22,6,11,111,31,100,73,23,11,2,3,0.6,0.7
2022-07-20T22:00:00,1341A,113.0014,28.1944,长沙市,火车新站,,22,22,17,10,14,108,33,95,71,20,9,5,7,0.2,0.3
2022-07-20T22:00:00,1342A,112.9844,28.1178,长沙市,天心区环保局,,29,29,27,12,14,113,37,99,74,17,9,2,3,0.5,0.5
2022-07-20T22:00:00,1343A,112.8908,28.1308,长沙市,湖南中医药大学,,23,23,22,10,16,85,35,76,61,15,10,1,6,0.3,0.4
2022-07-20T22:00:00,1344A,112.9581,28.3611,长沙市,沙坪(对照点),,15,10,26,9,14,96,47,88,69,5,8,3,3,0.4,0.5
2022-07-20T22:00:00,1345A,113.2347,23.1423,广州市,广雅中学,,19,19,16,10,8,73,34,65,53,15,15,4,4,0.6,0.6
2022-07-20T22:00:00,1346A,113.2612,23.105,广州市,市五中,,20,20,15,12,8,71,33,66,55,12,12,5,5,0.6,0.5
2022-07-20T22:00:00,1348A,113.3478,23.0916,广州市,广东商学院,,20,20,16,11,8,65,32,59,49,14,16,3,4,0.5,0.5
2022-07-20T22:00:00,1349A,113.4332,23.1047,广州市,市八十六中,,23,23,25,7,7,74,23,65,46,24,24,5,6,0.5,0.5
2022-07-20T22:00:00,1350A,113.3505,22.9483,广州市,番禺中学,,18,18,14,8,6,68,33,56,47,12,12,7,8,0.3,0.3
2022-07-20T22:00:00,1351A,113.2146,23.3916,广州市,花都师范,,26,26,22,17,11,110,24,83,57,18,20,5,5,0.6,0.5
2022-07-20T22:00:00,1352A,113.2597,23.1331,广州市,市监测站,,20,20,16,9,6,71,33,63,51,13,12,6,6,0.5,0.6
2022-07-20T22:00:00,1353A,113.5618,23.312,广州市,九龙镇镇龙,,28,28,39,10,15,121,7,92,61,35,27,7,7,0.6,0.6
2022-07-20T22:00:00,1354A,113.2765,23.1544,广州市,麓湖,,20,20,16,9,8,70,33,62,51,12,13,4,4,0.6,0.6
2022-07-20T22:00:00,1355A,113.443,23.3035,广州市,帽峰山森林公园(对照点),,14,14,17,6,8,134,25,82,58,18,22,5,5,0.7,0.7
2022-07-20T22:00:00,1356A,114.1063,22.5545,深圳市,通心岭子站,,15,15,12,8,5,50,31,46,42,7,3,3,3,0.5,0.5
2022-07-20T22:00:00,1357A,114.117,22.5625,深圳市,洪湖,,20,20,14,9,7,50,36,46,44,7,6,8,7,0.4,0.4
2022-07-20T22:00:00,1358A,113.987,22.5417,深圳市,华侨城,,25,25,17,10,6,50,23,44,38,21,12,5,4,0.5,0.5
2022-07-20T22:00:00,1359A,113.9181,22.5171,深圳市,南海子站,,25,21,16,17,8,39,23,35,31,12,10,2,2,0.5,0.5
2022-07-20T22:00:00,1360A,114.2458,22.5689,深圳市,盐田,,19,19,16,8,7,41,35,37,37,6,11,3,4,0.5,0.5
2022-07-20T22:00:00,1361A,114.2283,22.7244,深圳市,龙岗,,17,17,12,10,4,47,30,44,40,11,9,4,4,0.3,0.3
2022-07-20T22:00:00,1362A,113.8953,22.5861,深圳市,西乡,,,,,,,,,,,,,,,,
2022-07-20T22:00:00,1363A,114.494,22.5422,深圳市,南澳,,21,21,13,12,6,52,27,46,42,7,6,7,8,0.5,0.5
2022-07-20T22:00:00,1364A,114.41,22.6342,深圳市,葵涌,,19,19,13,9,5,45,27,41,36,8,4,7,7,0.4,0.3
2022-07-20T22:00:00,1365A,114.297,22.5978,深圳市,梅沙,,18,18,14,8,5,54,39,47,45,2,6,5,5,0.3,0.4
2022-07-20T22:00:00,1366A,114.0678,22.738,深圳市,观澜,,26,26,22,7,6,47,21,38,31,16,14,6,6,0.4,0.4
2022-07-20T22:00:00,1367A,113.5814,22.2618,珠海市,吉大,,13,10,12,8,7,51,40,48,46,1,1,6,6,0.5,0.5
2022-07-20T22:00:00,1368A,113.4881,22.2335,珠海市,前山,,,,10,,5,32,,31,,,7,,8,,0.3
2022-07-20T22:00:00,1369A,113.628,22.4251,珠海市,唐家,,14,8,10,2,4,59,42,54,49,3,5,8,8,0.3,0.3
2022-07-20T22:00:00,1370A,113.299,22.2281,珠海市,斗门,,16,6,10,11,6,39,32,35,33,4,4,10,10,0.3,0.3
2022-07-20T22:00:00,1371A,113.1294,23.0067,佛山市,湾梁,,17,17,17,7,8,81,21,65,48,18,13,4,4,0.3,0.2
2022-07-20T22:00:00,1372A,113.1083,23.0478,佛山市,华材职中,,17,17,14,10,7,78,19,61,46,17,12,4,4,0.2,0.2
2022-07-20T22:00:00,1373A,113.144,23.0453,佛山市,南海气象局,,16,16,18,9,8,69,24,60,47,16,14,4,4,0.5,0.5
2022-07-20T22:00:00,1374A,113.2881,22.8094,佛山市,顺德苏岗,,10,10,5,7,3,59,30,53,43,9,10,4,4,0.4,0.4
2022-07-20T22:00:00,1375A,113.2544,22.7642,佛山市,容桂街道办,,,,,,,,,,,,,,,,
2022-07-20T22:00:00,1376A,112.8383,22.8678,佛山市,高明孔堂,,16,16,16,11,5,66,29,60,48,11,11,5,6,0.4,0.4
2022-07-20T22:00:00,1377A,112.8836,23.1588,佛山市,三水监测站,,18,12,19,12,12,129,20,84,56,18,22,5,6,0.4,0.4
2022-07-20T22:00:00,1378A,112.867,23.185,佛山市,三水云东海,,23,23,21,8,9,123,23,80,59,17,19,4,5,0.4,0.4
2022-07-20T22:00:00,1379A,113.3769,22.5211,中山市,华柏园,,10,8,11,6,4,44,29,40,35,7,5,2,2,0.4,0.4
2022-07-20T22:00:00,1380A,113.3881,22.5497,中山市,张溪,,13,9,19,3,5,53,40,48,43,4,5,4,4,0.5,0.4
2022-07-20T22:00:00,1381A,113.4075,22.5111,中山市,紫马岭,,11,5,13,5,6,50,34,46,41,6,5,5,5,0.6,0.6
2022-07-20T22:00:00,1382A,113.4411,22.4853,中山市,长江旅游区(对照点),,12,7,10,6,6,51,36,47,43,4,4,3,3,0.4,0.4
2022-07-20T22:00:00,1383A,113.1064,22.6058,江门市,北街,,13,13,15,4,5,59,28,51,40,9,7,4,4,0.5,0.5
2022-07-20T22:00:00,1384A,113.0731,22.5835,江门市,西区,,13,13,15,6,6,59,28,49,40,10,9,5,5,0.4,0.4
2022-07-20T22:00:00,1385A,113.0219,22.5311,江门市,圭峰西,,12,12,14,4,4,54,29,50,40,9,8,3,3,0.4,0.4
2022-07-20T22:00:00,1386A,113.0828,22.5947,江门市,东湖,,14,14,15,3,4,64,31,54,43,9,8,4,5,0.4,0.3
2022-07-20T22:00:00,1387A,113.7875,23.0457,东莞市,东城主山,,,,,,,,,,,,,,,,
2022-07-20T22:00:00,1388A,113.7533,23.0202,东莞市,南城元岭,,,,,,,,,,,,,,,,
2022-07-20T22:00:00,1389A,113.7547,23.0494,东莞市,莞城梨川,,,27,22,11,9,96,18,83,55,,16,8,7,,0.6
2022-07-20T22:00:00,1390A,113.7944,23.0128,东莞市,东城石井,,,25,19,10,8,101,11,84,60,,19,7,6,0.4,0.4
2022-07-20T22:00:00,1391A,113.7383,22.9658,东莞市,南城西平,,30,23,21,21,13,81,20,62,48,31,25,4,3,0.5,0.5
2022-07-20T22:00:00,1392A,114.4183,23.0528,惠州市,河南岸金山湖子站,,34,34,22,8,5,61,25,57,46,16,9,3,3,0.5,0.5
2022-07-20T22:00:00,1393A,114.4053,23.0822,惠州市,下埔横江三路子站,,,10,18,,6,65,26,60,48,19,11,5,3,0.5,0.5
2022-07-20T22:00:00,1394A,114.4103,23.1142,惠州市,江北云山西路子站,,18,18,19,11,10,74,33,66,55,8,6,5,5,0.2,0.2
2022-07-20T22:00:00,1395A,114.4645,22.7833,惠州市,惠阳区承修路船湖子站,,17,17,14,8,9,51,32,47,43,6,4,5,4,0.1,0
2022-07-20T22:00:00,1396A,114.5317,22.7422,惠州市,大亚湾管委会子站,,29,27,16,20,9,54,30,48,42,14,8,4,3,0.3,0.3
2022-07-20T22:00:00,1397A,112.4267,23.0706,肇庆市,睦岗子站,,17,17,21,6,8,86,32,67,51,15,13,11,11,0.4,0.4
2022-07-20T22:00:00,1398A,112.4645,23.0475,肇庆市,城中子站,,17,17,21,7,10,92,37,72,54,16,18,13,13,0.5,0.5
2022-07-20T22:00:00,1399A,112.5544,23.1522,肇庆市,坑口子站,,10,10,20,7,11,109,19,77,61,10,9,8,10,0.4,0.4
2022-07-20T22:00:00,1400A,112.4753,23.1,肇庆市,七星岩子站(对照点),,,,,,,,,,,,,,,,
2022-07-20T22:00:00,1401A,108.3103,22.7881,南宁市,二十一中,,42,31,26,29,16,70,35,60,48,14,8,6,6,0.6,0.6
2022-07-20T22:00:00,1402A,108.3141,22.8528,南宁市,北湖,,41,41,24,16,10,70,32,68,49,11,7,4,4,0.5,0.5
2022-07-20T22:00:00,1403A,108.3206,22.8225,南宁市,市监测站,,36,31,24,25,17,66,28,57,45,21,10,7,7,0.7,0.6
2022-07-20T22:00:00,1404A,108.3829,22.8037,南宁市,大自然花园,,32,32,23,18,13,62,32,56,46,19,10,6,6,0.6,0.6
2022-07-20T22:00:00,1405A,108.4394,22.7904,南宁市,仙葫(对照点),,38,38,26,18,16,58,23,53,41,20,8,7,7,0.6,0.6
2022-07-20T22:00:00,1406A,108.2397,22.8467,南宁市,区农职院,,,36,24,29,15,81,31,69,54,,14,6,6,0.5,0.5
2022-07-20T22:00:00,1407A,108.3275,22.735,南宁市,英华嘉园,,48,26,35,33,19,54,34,45,34,18,22,5,5,0.4,0.5
2022-07-20T22:00:00,1408A,108.2257,22.7757,南宁市,沙井镇街道办,,33,33,32,14,15,62,35,58,48,24,18,5,6,0.8,0.7
2022-07-20T22:00:00,1409A,110.576,19.9507,海口市,东寨港(对照点),,,,,3,4,5,4,5,5,,,5,4,0.1,0.1
2022-07-20T22:00:00,1410A,110.3232,20.0574,海口市,海南大学,,13,11,12,4,12,60,41,57,39,2,3,5,5,0.4,0.4
2022-07-20T22:00:00,1411A,110.283,20.0053,海口市,秀英海南医院,,12,10,13,8,12,44,36,42,39,8,5,1,2,0.4,0.4
2022-07-20T22:00:00,1412A,110.338,19.9969,海口市,海南师范大学,,16,16,17,3,6,38,31,36,35,8,5,2,2,0.4,0.4
2022-07-20T22:00:00,1413A,110.33,20.0356,海口市,龙华路环保局宿舍,,13,9,9,3,5,51,39,47,43,6,3,3,4,0.5,0.5
2022-07-20T22:00:00,1414A,106.3787,29.8279,重庆市,缙云山(对照点),,30,19,19,9,12,146,93,121,119,17,14,6,6,0.3,0.3
2022-07-20T22:00:00,1416A,106.4213,29.8253,重庆市,天生,,36,36,30,17,16,154,56,130,116,35,23,5,6,0.7,0.7
2022-07-20T22:00:00,1417A,106.6263,29.7228,重庆市,两路,,32,32,31,18,17,191,51,141,121,56,30,6,5,0.7,0.5
2022-07-20T22:00:00,1418A,106.2953,29.5983,重庆市,虎溪,,,28,32,12,14,151,30,123,108,,22,8,9,0.7,0.5
2022-07-20T22:00:00,1419A,106.5777,29.5102,重庆市,南坪,,42,42,33,17,15,161,64,135,110,21,19,8,14,0.7,0.6
2022-07-20T22:00:00,1420A,106.6556,29.6277,重庆市,唐家沱,,22,21,19,6,6,176,56,134,119,44,38,7,10,0.8,0.7
2022-07-20T22:00:00,1421A,106.6349,29.4906,重庆市,茶园,,28,28,25,9,14,166,57,143,108,35,15,6,9,0.6,0.4
2022-07-20T22:00:00,1422A,106.3754,29.4572,重庆市,白市驿,,27,27,39,11,12,127,48,90,61,26,24,7,9,0.9,0.8
2022-07-20T22:00:00,1425A,106.6205,29.7166,重庆市,空港,,32,32,32,21,18,191,65,178,131,38,35,5,5,0.5,0.8
2022-07-20T22:00:00,1426A,106.4782,29.4875,重庆市,新山村,,36,36,30,20,15,144,38,111,81,62,32,14,12,0.7,0.5
2022-07-20T22:00:00,1427A,106.5616,29.6453,重庆市,礼嘉,,39,23,24,8,8,187,28,143,116,77,34,5,5,0.6,0.4
2022-07-20T22:00:00,1428A,106.4522,29.7091,重庆市,蔡家,,30,23,25,21,15,181,36,134,114,46,24,5,5,0.7,0.6
2022-07-20T22:00:00,1429A,106.5093,29.3917,重庆市,鱼新街,,34,34,26,17,14,98,5,77,47,61,26,12,13,1.1,1
2022-07-20T22:00:00,1431A,103.9728,30.7236,成都市,金泉两河,,23,23,29,12,16,151,71,126,121,30,23,3,4,0.6,0.5
2022-07-20T22:00:00,1432A,104.1419,30.6764,成都市,十里店,,32,32,30,17,17,160,100,151,147,36,23,2,2,0.5,0.4
2022-07-20T22:00:00,1433A,104.0594,30.5767,成都市,三瓦窑,,35,28,29,14,14,157,109,145,143,27,30,4,5,0.5,0.4
2022-07-20T22:00:00,1434A,104.1122,30.6306,成都市,沙河铺,,35,34,28,16,16,157,110,147,142,35,22,2,2,0.6,0.5
2022-07-20T22:00:00,1437A,104.0431,30.6556,成都市,君平街,,34,29,34,17,21,163,108,148,144,31,27,5,8,0.6,0.6
2022-07-20T22:00:00,1438A,103.6202,31.0201,成都市,灵岩寺(对照点),,35,10,28,7,20,115,112,105,105,2,6,3,12,0.4,0.5
2022-07-20T22:00:00,1439A,106.6899,26.5998,贵阳市,马鞍山,,14,14,10,7,5,79,16,54,48,17,15,4,4,0.6,0.7
2022-07-20T22:00:00,1440A,106.6971,26.5694,贵阳市,市环保站,颗粒物(PM10),51,51,13,0,1,78,8,55,49,48,27,5,4,1.1,0.5
2022-07-20T22:00:00,1441A,106.6243,26.6266,贵阳市,鉴湖路,,27,27,16,14,7,74,20,64,47,23,18,4,4,0.1,0.5
2022-07-20T22:00:00,1442A,106.7487,26.6343,贵阳市,燕子冲,,25,22,15,17,12,78,4,51,41,17,16,6,6,0.6,0.6
2022-07-20T22:00:00,1443A,106.6555,26.4365,贵阳市,碧云窝,,24,24,14,12,5,79,28,65,54,12,12,5,4,0.7,0.4
2022-07-20T22:00:00,1444A,106.694,26.5161,贵阳市,中院村,,36,36,17,14,5,78,10,62,46,29,19,1,1,0.8,0.7
2022-07-20T22:00:00,1445A,106.7109,26.6027,贵阳市,红边门,,35,29,13,24,12,82,1,57,46,47,24,6,5,0.8,0.5
2022-07-20T22:00:00,1446A,106.7164,26.5699,贵阳市,新华路,,35,29,7,24,10,80,4,58,45,30,20,4,3,0.9,0.5
2022-07-20T22:00:00,1447A,106.674,26.5424,贵阳市,太慈桥,,17,17,17,7,4,78,5,63,48,18,15,5,4,0.5,0.5
2022-07-20T22:00:00,1450A,102.8204,24.8886,昆明市,呈贡新区,颗粒物(PM10),52,53,34,25,15,37,5,29,23,42,33,24,15,0.8,0.6
2022-07-20T22:00:00,1451A,102.6251,24.9608,昆明市,西山森林公园(对照点),,17,10,8,4,6,63,52,55,55,13,11,8,6,0.4,0.5
2022-07-20T22:00:00,1452A,102.7252,25.0902,昆明市,龙泉镇,,20,20,12,11,7,56,16,49,32,22,15,9,9,0.5,0.4
2022-07-20T22:00:00,1453A,102.7266,25.0375,昆明市,东风东路,,27,27,17,7,7,51,7,43,33,43,25,4,4,0.8,0.6
2022-07-20T22:00:00,1454A,102.6742,25.0669,昆明市,金鼎山,,19,19,18,13,12,54,29,48,41,16,15,1,7,0.6,0.5
2022-07-20T22:00:00,1455A,102.6644,25.0401,昆明市,碧鸡广场,,26,26,18,10,11,51,17,46,38,41,25,6,9,0.8,0.5
2022-07-20T22:00:00,1456A,91.1319,29.6514,拉萨市,八廓街,,35,19,22,7,9,152,109,141,129,11,13,7,7,0.2,0.2
2022-07-20T22:00:00,1457A,91.1221,29.6747,拉萨市,市环保局,,32,21,19,5,7,160,100,139,125,14,15,7,10,0.2,0.2
2022-07-20T22:00:00,1458A,91.0874,29.6475,拉萨市,区监测站,,,,17,,4,158,,141,134,11,13,8,10,,0.2
2022-07-20T22:00:00,1459A,91.1774,29.6541,拉萨市,西藏大学,,36,11,20,7,7,168,114,150,139,10,12,9,11,0.4,0.2
2022-07-20T22:00:00,1460A,90.9798,29.6588,拉萨市,区辐射站,,30,29,18,12,9,156,95,128,114,14,15,8,9,0.1,0.1
2022-07-20T22:00:00,1461A,91.0834,29.6292,拉萨市,拉萨火车站,,35,13,18,5,8,150,109,145,130,11,14,9,11,0.2,0.3
2022-07-20T22:00:00,1462A,108.882,34.2749,西安市,高压开关厂,,45,45,29,12,12,215,92,177,167,43,22,6,5,0.5,0.4
2022-07-20T22:00:00,1463A,108.993,34.2629,西安市,兴庆小区,,38,38,20,10,10,196,110,176,168,36,20,5,4,0.4,0.4
2022-07-20T22:00:00,1464A,109.06,34.2572,西安市,纺织城,,49,43,24,12,10,179,17,151,123,97,32,5,5,0.6,0.5
2022-07-20T22:00:00,1465A,108.9356,34.2173,西安市,小寨,,37,21,19,3,7,201,118,166,157,40,20,2,2,0.4,0.3
2022-07-20T22:00:00,1466A,108.954,34.2713,西安市,市人民体育场,,36,36,24,9,17,216,84,185,168,54,20,5,4,0.3,0.3
2022-07-20T22:00:00,1467A,108.8922,34.2322,西安市,高新西区,,33,24,24,10,10,213,104,171,161,53,20,7,7,0.6,0.5
2022-07-20T22:00:00,1468A,108.935,34.3474,西安市,经开区,,34,34,25,10,10,166,76,148,137,46,19,3,2,0.3,0.3
2022-07-20T22:00:00,1469A,108.906,34.1546,西安市,长安区,,24,24,19,12,10,196,64,161,144,26,11,8,8,0.5,0.4
2022-07-20T22:00:00,1470A,109.2,34.6575,西安市,阎良区,,,,,,,,,,,,,,,,
2022-07-20T22:00:00,1471A,109.2186,34.3731,西安市,临潼区,,28,21,20,10,8,182,89,158,147,17,11,3,2,0.4,0.4
2022-07-20T22:00:00,1472A,108.869,34.378,西安市,草滩(对照点),,28,28,27,10,13,158,40,140,125,44,29,6,5,0.9,0.6
2022-07-20T22:00:00,1473A,108.985,34.1978,西安市,曲江文化产业集团,,36,28,27,13,10,188,66,164,146,72,23,5,5,0.8,0.6
2022-07-20T22:00:00,1474A,109.051,34.3213,西安市,广运潭,颗粒物(PM10),53,55,27,11,9,185,70,162,145,45,22,5,5,0.6,0.6
2022-07-20T22:00:00,1476A,103.631,36.1031,兰州市,兰炼宾馆,颗粒物(PM10),58,66,52,17,20,204,80,187,154,40,28,5,13,0.3,0.4
2022-07-20T22:00:00,1477A,104.1373,35.9454,兰州市,榆中兰大校区(对照点),,,,,,,,,,,,,,,,
2022-07-20T22:00:00,1478A,103.8412,36.0726,兰州市,生物制品所,颗粒物(PM10),56,61,46,24,23,190,98,167,151,23,28,6,9,0.5,0.9
2022-07-20T22:00:00,1479A,103.831,36.0464,兰州市,铁路设计院,颗粒物(PM10),59,68,52,29,14,185,78,168,148,43,34,5,13,0.4,0.8
2022-07-20T22:00:00,1480A,101.748,36.6428,西宁市,市环境监测站,,,,,,,,,,,,,,,,
2022-07-20T22:00:00,1482A,101.834,36.5819,西宁市,四陆医院,,,,,,,,,,,,,,,,
2022-07-20T22:00:00,1483A,101.524,36.6867,西宁市,第五水厂(对照点),,,,,,,,,,,,,,,,
2022-07-20T22:00:00,1484A,105.9512,38.6016,银川市,贺兰山马莲口(对照点),,41,36,29,18,19,200,131,176,168,2,5,8,13,0.2,0.3
2022-07-20T22:00:00,1488A,106.2328,38.4975,银川市,贺兰山东路,,36,31,26,16,11,184,115,173,158,28,22,10,23,0.5,0.5
2022-07-20T22:00:00,1489A,106.1358,38.5036,银川市,学院路,颗粒物(PM10),52,53,41,24,17,186,101,172,152,23,25,8,15,0.5,0.5
2022-07-20T22:00:00,1490A,87.5801,43.8303,乌鲁木齐市,监测站,,29,19,17,6,6,96,91,92,90,14,14,5,4,0.3,0.3
2022-07-20T22:00:00,1491A,87.6046,43.768,乌鲁木齐市,收费所,,29,29,18,10,9,95,66,94,84,29,9,7,6,0.3,0.3
2022-07-20T22:00:00,1492A,87.4754,43.9469,乌鲁木齐市,新疆农科院农场(对照点),,49,49,24,9,5,98,83,94,93,6,10,11,11,0.5,0.5
2022-07-20T22:00:00,1493A,87.5525,43.8711,乌鲁木齐市,铁路局,,32,32,24,12,9,99,82,94,93,18,12,5,4,0.3,0.3
2022-07-20T22:00:00,1494A,87.6432,43.831,乌鲁木齐市,三十一中学,,28,28,19,10,8,100,88,95,94,10,7,5,4,0.2,0.2
2022-07-20T22:00:00,1496A,87.7216,44.1747,乌鲁木齐市,米东区环保局,,35,35,37,3,10,96,86,88,88,5,9,2,3,0.2,0.2
2022-07-20T22:00:00,1508A,112.9433,27.8614,湘潭市,板塘,,33,33,28,19,17,111,48,99,80,21,13,7,7,0.5,0.4
2022-07-20T22:00:00,1511A,112.9118,27.8403,湘潭市,市监测站,,24,24,23,11,16,104,46,94,73,24,11,8,13,0.5,0.5
2022-07-20T22:00:00,1512A,112.8937,27.8728,湘潭市,江麓,,28,28,35,7,15,108,52,95,79,15,13,12,19,0.5,0.7
2022-07-20T22:00:00,1513A,112.9227,27.8159,湘潭市,岳塘,,27,27,31,12,14,108,60,98,78,9,8,8,7,0.7,0.7
2022-07-20T22:00:00,1514A,112.9074,27.9119,湘潭市,科大,,40,40,33,16,15,94,28,88,70,29,14,5,9,0.5,0.5
2022-07-20T22:00:00,1515A,113.135,27.8244,株洲市,天台山庄,,18,17,15,12,13,100,44,93,74,17,10,5,6,0.5,0.4
2022-07-20T22:00:00,1518A,113.095,27.8867,株洲市,株冶医院,,22,19,21,14,13,109,22,101,77,44,15,6,6,0.6,0.5
2022-07-20T22:00:00,1519A,113.167,27.8667,株洲市,市四中,,24,24,19,10,13,117,53,105,78,14,11,3,4,0.8,0.6
2022-07-20T22:00:00,1520A,113.143,27.8381,株洲市,火车站,,31,31,24,8,19,103,46,99,76,19,14,5,6,0.4,0.4
2022-07-20T22:00:00,1524A,113.13,27.8528,株洲市,市监测站,,,,24,,15,67,,62,,,9,,6,,0.5
2022-07-20T22:00:00,1552A,106.805,26.3003,贵阳市,桐木岭(对照点),,,,,,,,,,,,,,,,
2022-07-20T22:00:00,1559A,113.251,27.8336,株洲市,大京风景区(对照点),,13,11,10,9,9,86,15,83,52,5,5,3,4,0.4,0.5
2022-07-20T22:00:00,1562A,113.0048,27.9153,湘潭市,昭山,,29,29,21,13,14,111,13,98,65,39,12,6,8,0.6,0.5
2022-07-20T22:00:00,1564A,112.4876,27.9164,湘潭市,韶山(对照点),,20,20,29,6,12,69,15,64,46,9,9,4,5,0.7,0.7
2022-07-20T22:00:00,1585A,109.8756,40.6532,包头市,市环境监测站,,34,34,37,18,17,155,80,146,129,44,37,13,13,1.3,0.8
2022-07-20T22:00:00,1587A,109.9991,40.5842,包头市,包头八中,,40,40,40,22,18,161,69,153,138,56,31,10,15,1.1,0.7
2022-07-20T22:00:00,1588A,109.8538,40.6821,包头市,青山宾馆,,39,39,38,18,16,148,76,137,122,45,34,10,14,0.9,0.9
2022-07-20T22:00:00,1589A,109.8642,40.6288,包头市,惠龙物流,,38,38,43,7,18,158,75,149,132,47,38,19,26,1.7,1
2022-07-20T22:00:00,1590A,110.0377,40.5546,包头市,东河鸿龙湾,,41,41,32,15,11,156,70,149,132,25,22,4,8,0.6,0.6
2022-07-20T22:00:00,1591A,110.0023,39.8129,鄂尔多斯市,综合楼,颗粒物(PM10),59,68,26,13,5,152,106,143,134,40,18,10,13,0.6,0.5
2022-07-20T22:00:00,1592A,109.9486,39.8261,鄂尔多斯市,巴音孟克林场办事处,,,56,28,14,9,151,,145,145,40,14,8,11,0.8,0.7
2022-07-20T22:00:00,1593A,109.7736,39.5986,鄂尔多斯市,康泽苑,,39,39,20,14,5,170,123,163,155,19,8,7,5,0.6,0.5
2022-07-20T22:00:00,1594A,109.8119,39.5989,鄂尔多斯市,华泰汽车城,颗粒物(PM10),52,53,21,19,9,171,68,158,133,51,10,7,8,0.8,0.5
2022-07-20T22:00:00,1595A,109.9734,39.7884,鄂尔多斯市,奥林花园,颗粒物(PM10),56,61,32,17,10,159,99,150,142,30,20,7,10,0.6,0.6
2022-07-20T22:00:00,1596A,122.2414,40.6592,营口市,学府南路,,,,,,,,,,,,,,,,
2022-07-20T22:00:00,1597A,122.2703,40.7094,营口市,大庆路,,33,27,31,3,23,129,103,126,119,7,15,5,5,0.4,0.7
2022-07-20T22:00:00,1598A,122.215,40.6511,营口市,镜湖西路,,33,22,31,3,23,157,105,137,125,12,18,3,4,0.3,0.6
2022-07-20T22:00:00,1599A,122.167,40.6655,营口市,西炮台,,39,10,28,5,14,135,124,131,130,10,8,1,3,0.5,0.8
2022-07-20T22:00:00,1600A,124.3303,40.0625,丹东市,江湾东路,,38,38,30,26,22,120,86,108,99,10,10,8,9,0.8,0.6
2022-07-20T22:00:00,1601A,124.4256,40.1503,丹东市,临江后街,,30,21,29,14,19,121,96,113,104,8,5,12,12,0.5,0.8
2022-07-20T22:00:00,1602A,124.3933,40.1461,丹东市,元宝山,,33,18,26,17,21,109,103,101,97,4,4,4,4,0.6,0.7
2022-07-20T22:00:00,1603A,124.3633,40.1092,丹东市,民主桥,,26,26,31,17,19,113,71,103,92,21,8,8,8,0.6,0.8
2022-07-20T22:00:00,1604A,122.0303,41.1489,盘锦市,开发区,,23,17,31,4,20,125,72,113,91,21,23,4,4,0.9,0.7
2022-07-20T22:00:00,1605A,122.0485,41.0883,盘锦市,兴隆台,,22,11,34,8,21,120,70,106,84,28,27,4,4,0.5,0.8
2022-07-20T22:00:00,1606A,121.8297,41.1028,盘锦市,新生街道,,33,24,30,23,19,132,32,122,86,27,15,5,5,0.7,0.7
2022-07-20T22:00:00,1607A,120.9092,40.7136,葫芦岛市,龙港区,,35,8,35,1,43,150,112,131,120,7,12,5,6,0.4,0.7
2022-07-20T22:00:00,1608A,120.8392,40.7514,葫芦岛市,化工街,,36,13,50,25,30,186,88,135,117,24,40,5,6,0.4,0.6
2022-07-20T22:00:00,1609A,120.8341,40.7073,葫芦岛市,新区,,34,8,39,4,31,164,107,133,122,12,34,4,6,0.5,0.7
2022-07-20T22:00:00,1610A,120.8695,40.7677,葫芦岛市,东城区,,28,20,52,6,31,167,87,124,114,25,35,7,9,0.2,0.4
2022-07-20T22:00:00,1611A,118.5819,24.9117,泉州市,涂山街,,22,22,28,7,10,60,16,50,43,20,17,8,13,0.3,0.3
2022-07-20T22:00:00,1612A,118.5972,24.8978,泉州市,津头埔,,19,19,25,7,8,53,15,44,35,21,21,6,9,0.3,0.3
2022-07-20T22:00:00,1613A,118.6663,24.9424,泉州市,万安,,11,11,23,4,8,59,16,47,37,15,16,6,7,0.3,0.4
2022-07-20T22:00:00,1614A,118.6117,24.9604,泉州市,清源山(对照点),,,,,,,,,,,,,,,,
2022-07-20T22:00:00,1616A,117.6795,36.229,济南市,技术学院,,25,19,18,16,19,117,79,104,90,20,16,28,5,0.8,0.8
2022-07-20T22:00:00,1618A,118.3429,35.0532,临沂市,沂河小区,,29,29,25,14,19,111,66,104,92,26,14,9,5,0.4,0.4
2022-07-20T22:00:00,1619A,118.295,35.0583,临沂市,鲁南制药厂,,,22,21,8,13,108,61,101,84,23,15,6,4,,0.4
2022-07-20T22:00:00,1620A,118.2794,34.9976,临沂市,新光毛纺厂,,34,34,21,12,17,103,37,95,79,42,18,7,3,0.5,0.5
2022-07-20T22:00:00,1621A,118.3956,35.0888,临沂市,河东保险公司,,25,17,21,10,16,107,78,102,93,15,12,4,4,0.3,0.5
2022-07-20T22:00:00,1622A,116.3032,37.4674,德州市,儿童乐园,,33,29,26,19,16,147,105,134,128,12,12,4,6,0.5,0.5
2022-07-20T22:00:00,1624A,116.2991,37.4451,德州市,监理站,,36,27,24,22,18,156,113,141,133,13,15,9,10,0.5,0.5
2022-07-20T22:00:00,1625A,115.9848,36.4372,聊城市,区政府,,36,36,26,23,17,110,47,98,81,18,14,5,6,0.7,0.7
2022-07-20T22:00:00,1628A,118.0062,37.3803,滨州市,市环保局,,48,38,41,33,30,128,82,114,106,12,12,6,7,0,0.2
2022-07-20T22:00:00,1629A,118.0018,37.3617,滨州市,第二水厂,,45,38,34,31,28,117,69,103,96,15,13,9,7,0.7,0.8
2022-07-20T22:00:00,1630A,117.9776,37.393,滨州市,北中新校,细颗粒物(PM2.5),57,35,33,40,30,114,68,98,91,16,14,9,8,0.4,0.5
2022-07-20T22:00:00,1631A,118.0414,36.8103,淄博市,人民公园,,46,31,25,32,24,115,62,104,89,21,17,7,7,0.3,0.5
2022-07-20T22:00:00,1632A,118.0253,36.8406,淄博市,东风化工厂,,,,,,,,,,,,,,,,
2022-07-20T22:00:00,1633A,117.8525,36.4847,淄博市,双山,,,25,23,20,22,100,,88,85,18,16,7,8,0.3,0.4
2022-07-20T22:00:00,1634A,117.9592,36.6331,淄博市,气象站,,39,39,25,14,18,109,45,105,83,30,16,10,9,0.1,0.1
2022-07-20T22:00:00,1635A,118.3092,36.8194,淄博市,莆田园,,32,17,20,22,20,112,80,102,91,18,21,6,7,0.5,0.7
2022-07-20T22:00:00,1636A,117.8661,36.805,淄博市,三金集团,,,,,,,,,,,,,,,,
2022-07-20T22:00:00,1637A,117.558,34.8438,枣庄市,市中区政府,,31,31,31,9,15,110,66,105,90,20,16,9,7,0.4,0.5
2022-07-20T22:00:00,1638A,117.2852,34.7837,枣庄市,薛城环保局,,32,27,39,22,27,106,82,99,91,13,19,10,12,0.3,0.4
2022-07-20T22:00:00,1639A,117.5852,34.7745,枣庄市,峄城区政府,,31,31,36,19,22,115,72,111,94,18,15,8,9,0.4,0.5
2022-07-20T22:00:00,1640A,117.7276,34.5578,枣庄市,台儿庄区环保局,,35,34,33,24,23,104,80,98,91,15,16,11,12,0.6,0.7
2022-07-20T22:00:00,1641A,117.4518,35.0992,枣庄市,山亭区环保局,,27,12,29,17,26,137,86,130,97,11,10,9,10,0.4,0.5
2022-07-20T22:00:00,1642A,121.2514,37.5639,烟台市,开发区,,29,9,32,5,15,130,92,115,103,5,18,10,11,0.5,0.6
2022-07-20T22:00:00,1643A,121.3719,37.5433,烟台市,轴承厂,,30,12,29,14,20,126,95,116,105,2,12,5,6,0.1,0.3
2022-07-20T22:00:00,1644A,121.3181,37.5436,烟台市,西郊化工站,,30,9,33,0,16,122,94,109,98,2,12,5,6,0.2,0.4
2022-07-20T22:00:00,1645A,121.4478,37.4822,烟台市,莱山环保局,,,,26,,16,123,,104,100,2,9,6,7,0.2,0.4
2022-07-20T22:00:00,1646A,121.2611,37.4967,烟台市,福山环保局,,23,12,37,2,17,107,72,90,82,8,20,2,5,0.3,0.3
2022-07-20T22:00:00,1648A,119.12,36.7019,潍坊市,仲裁委,,,,,,,,,,,,,,,,
2022-07-20T22:00:00,1650A,119.1437,36.7023,潍坊市,环保局,,23,19,23,16,20,139,68,134,88,20,12,6,6,0.5,0.6
2022-07-20T22:00:00,1652A,119.1936,36.7729,潍坊市,寒亭监测站,,,,,,,,,,,,,,,,
2022-07-20T22:00:00,1653A,116.6251,35.4302,济宁市,火炬城,颗粒物(PM10),60,69,34,27,24,112,66,106,90,18,13,7,7,0.7,0.7
2022-07-20T22:00:00,1655A,116.5491,35.4042,济宁市,电化厂,,33,33,31,17,24,122,65,118,99,17,14,6,6,0.7,0.8
2022-07-20T22:00:00,1656A,117.1437,36.1937,泰安市,监测站,,30,29,29,21,20,102,73,93,85,11,11,4,5,0.4,0.5
2022-07-20T22:00:00,1657A,117.0885,36.2017,泰安市,人口学校,,39,39,23,19,14,133,64,126,93,22,10,7,6,0.4,0.3
2022-07-20T22:00:00,1658A,117.1089,36.1758,泰安市,电力学校,,34,34,28,22,20,110,67,105,91,13,9,5,6,0.4,0.4
2022-07-20T22:00:00,1659A,119.471,35.4209,日照市,监测站,,25,9,18,11,16,106,80,84,80,8,14,6,6,0.4,0.4
2022-07-20T22:00:00,1660A,119.523,35.4216,日照市,市政府广场,,28,12,18,6,13,111,87,93,88,11,12,4,5,0.4,0.5
2022-07-20T22:00:00,1661A,119.5587,35.4044,日照市,港务局,,31,12,19,5,10,122,98,104,97,9,11,3,4,0.5,0.5
2022-07-20T22:00:00,1662A,122.1214,37.4236,威海市,华夏技校,,26,5,22,9,15,96,83,94,78,7,14,4,5,0.1,0.2
2022-07-20T22:00:00,1663A,122.0508,37.5236,威海市,山大分校,,31,5,19,2,12,126,99,108,100,5,14,3,4,0.2,0.4
2022-07-20T22:00:00,1664A,122.1067,37.5072,威海市,市监测站,,28,2,22,15,18,108,87,108,87,13,22,4,5,0.2,0.3
2022-07-20T22:00:00,1665A,118.5019,37.4658,东营市,西城阳光环保公司,,,,,,,,,,,,,,,,
2022-07-20T22:00:00,1666A,118.6614,37.4309,东营市,市环保局,,33,12,20,2,14,129,104,121,115,9,11,5,8,0.2,0.3
2022-07-20T22:00:00,1669A,113.5824,24.7733,韶关市,市八中,,34,34,29,4,11,100,55,92,84,23,18,12,12,0.6,0.5
2022-07-20T22:00:00,1670A,113.5556,24.8082,韶关市,碧湖山庄,,,,,,,,,,,,,,,,
2022-07-20T22:00:00,1671A,113.5917,24.7972,韶关市,园林处,,,,31,,17,94,46,84,74,17,12,10,11,0.6,0.5
2022-07-20T22:00:00,1672A,113.6735,24.7791,韶关市,韶关学院,,20,14,29,14,14,90,47,87,72,10,12,12,13,0.4,0.5
2022-07-20T22:00:00,1673A,113.5971,24.6863,韶关市,曲江监测站,,,38,29,15,12,93,,87,86,25,15,9,10,0.5,0.5
2022-07-20T22:00:00,1674A,116.6794,23.3667,汕头市,金平子站,,13,12,12,9,8,50,41,46,44,5,5,6,6,0.4,0.5
2022-07-20T22:00:00,1675A,116.7244,23.3633,汕头市,龙湖子站,,22,22,20,4,6,54,40,46,45,13,10,7,7,0.5,0.5
2022-07-20T22:00:00,1676A,116.7258,23.2775,汕头市,濠江子站,,13,9,15,5,5,61,41,49,47,7,8,8,9,0.5,0.5
2022-07-20T22:00:00,1677A,116.7519,23.4714,汕头市,澄海子站,,13,6,19,9,8,58,32,49,43,14,10,5,5,0.6,0.5
2022-07-20T22:00:00,1678A,116.6092,23.2539,汕头市,潮阳子站,,14,14,17,5,6,48,44,43,43,5,7,7,7,0.5,0.5
2022-07-20T22:00:00,1679A,116.4069,23.2533,汕头市,潮南子站,,,,,,,,,,,,,,,,
2022-07-20T22:00:00,1680A,110.3539,21.2706,湛江市,湛江影剧院,,20,20,15,2,4,52,39,49,42,4,3,5,5,0.4,0.4
2022-07-20T22:00:00,1681A,110.3928,21.2228,湛江市,市环境监测站,,16,16,14,1,4,52,39,48,42,5,4,5,5,0.3,0.3
2022-07-20T22:00:00,1682A,110.4019,21.1997,湛江市,环保局宿舍,,15,15,15,3,7,49,38,45,39,1,2,3,3,0.4,0.4
2022-07-20T22:00:00,1683A,110.4111,21.2028,湛江市,霞山游泳场,,13,10,13,4,6,51,39,49,40,5,4,4,4,0.3,0.3
2022-07-20T22:00:00,1684A,110.3316,21.2679,湛江市,麻章区环保局,,12,12,18,7,7,48,37,44,38,4,4,3,4,0.4,0.4
2022-07-20T22:00:00,1685A,110.4558,21.2567,湛江市,坡头区环保局,,12,7,12,2,5,49,38,46,39,4,4,5,5,0.4,0.4
2022-07-20T22:00:00,1686A,111.0286,21.4688,茂名市,电白南海,,22,22,22,5,8,48,38,46,36,6,5,3,3,0.4,0.4
2022-07-20T22:00:00,1687A,110.9294,21.6533,茂名市,茂石化七小,,10,7,13,7,9,42,23,38,28,9,7,3,3,0.5,0.5
2022-07-20T22:00:00,1688A,110.9107,21.6687,茂名市,健康路,,12,12,12,6,4,46,26,42,32,7,3,5,4,0.5,0.5
2022-07-20T22:00:00,1689A,110.8592,21.6828,茂名市,高岭,,18,12,13,12,10,51,26,42,32,10,9,15,10,0.6,0.5
2022-07-20T22:00:00,1690A,116.1231,24.3284,梅州市,梅江月梅,,25,25,18,12,10,70,32,62,56,14,7,4,4,0.5,0.5
2022-07-20T22:00:00,1691A,116.0797,24.2719,梅州市,梅县新城,,14,14,19,6,9,70,36,63,56,12,11,6,4,0.5,0.5
2022-07-20T22:00:00,1692A,116.1248,24.2654,梅州市,环境监控中心,,25,25,19,12,11,66,16,56,50,32,11,6,5,0.4,0.4
2022-07-20T22:00:00,1693A,115.3653,22.775,汕尾市,市环保局,,,14,15,6,7,52,,47,47,4,6,5,5,0.4,0.4
2022-07-20T22:00:00,1694A,115.3706,22.7898,汕尾市,市政府,,14,7,17,2,10,57,42,50,48,3,6,6,6,0.5,0.5
2022-07-20T22:00:00,1695A,115.3622,22.7925,汕尾市,新城中学,,14,13,17,7,8,55,44,51,49,1,4,5,5,0.5,0.5
2022-07-20T22:00:00,1696A,114.6778,23.7569,河源市,源西(对照点),,31,31,24,17,9,65,36,56,49,10,7,4,3,0.4,0.4
2022-07-20T22:00:00,1697A,114.6944,23.7586,河源市,东埔,,38,35,22,26,11,69,36,56,50,14,10,5,4,0.5,0.6
2022-07-20T22:00:00,1698A,114.6892,23.7233,河源市,老城,,31,31,21,14,8,76,33,60,52,15,9,4,3,0.5,0.5
2022-07-20T22:00:00,1699A,111.9797,21.8593,阳江市,鸳鸯湖(对照点),,,,,,,,,,,,,,,,
2022-07-20T22:00:00,1700A,111.9508,21.8536,阳江市,南恩路,,,,,,,,,,,,,,,,
2022-07-20T22:00:00,1701A,111.9491,21.8658,阳江市,马南垌,,12,7,12,4,7,47,37,46,38,3,5,5,5,0.4,0.4
2022-07-20T22:00:00,1702A,113.0426,23.691,清远市,环保大楼(对照点),,29,29,23,13,10,194,44,132,107,18,15,5,5,0.5,0.4
2022-07-20T22:00:00,1703A,113.0208,23.7106,清远市,凤城街办,,23,23,22,12,11,148,36,96,76,18,20,3,4,0.6,0.7
2022-07-20T22:00:00,1705A,116.6367,23.6719,潮州市,西园路(对照点),,36,36,23,7,9,88,28,66,46,18,10,5,4,0.9,0.7
2022-07-20T22:00:00,1706A,116.6447,23.6706,潮州市,档案局,,35,35,24,11,8,72,17,65,52,22,11,10,7,0.8,0.6
2022-07-20T22:00:00,1708A,116.3701,23.5345,揭阳市,新兴,,29,29,26,18,15,67,34,58,50,7,8,5,5,0.6,0.6
2022-07-20T22:00:00,1709A,116.3264,23.5443,揭阳市,西马,,39,39,28,12,12,66,32,58,47,12,7,7,6,0.5,0.5
2022-07-20T22:00:00,1710A,116.3611,23.5626,揭阳市,东兴,,50,50,32,15,13,66,38,57,51,7,13,4,8,0.7,0.6
2022-07-20T22:00:00,1711A,116.4151,23.5294,揭阳市,渔湖,,38,38,26,24,12,59,35,56,49,7,11,4,7,0.6,0.6
2022-07-20T22:00:00,1712A,112.0392,22.9169,云浮市,新市府(对照点),,,,,,,,,,,,,,,,
2022-07-20T22:00:00,1713A,112.0369,22.9394,云浮市,市监测站,,,,,,,,,,,,,,,,
2022-07-20T22:00:00,1714A,112.0539,22.9539,云浮市,牧羊,颗粒物(PM10),57,64,28,13,9,70,4,48,22,26,14,15,9,0.5,0.5
2022-07-20T22:00:00,1715A,102.575,24.3711,玉溪市,东风水库,,20,20,16,7,7,61,41,57,53,13,13,5,4,0.6,0.7
2022-07-20T22:00:00,1718A,115.4208,35.2464,菏泽市,气象局,,42,34,28,29,24,122,83,111,106,12,11,4,4,0.4,0.4
2022-07-20T22:00:00,1719A,115.4747,35.2375,菏泽市,市政协,,40,40,33,25,21,131,94,119,114,10,11,6,7,0.1,0.2
2022-07-20T22:00:00,1720A,115.455,35.27,菏泽市,菏泽学院,,,,,,,,,,,,,,,,
2022-07-20T22:00:00,1721A,113.3819,40.1097,大同市,果树场(对照点),,,,,,,,,,,,,,,,
2022-07-20T22:00:00,1723A,113.2994,40.0758,大同市,云冈宾馆,,45,45,67,16,21,168,89,151,128,24,28,16,37,0.6,0.8
2022-07-20T22:00:00,1724A,113.3444,40.0917,大同市,大同大学,,49,49,61,9,14,179,80,164,138,31,22,10,17,0.4,0.6
2022-07-20T22:00:00,1725A,113.2661,40.1269,大同市,安家小村,,35,34,66,5,16,180,109,165,146,11,19,15,23,0.4,0.6
2022-07-20T22:00:00,1726A,113.2711,40.0844,大同市,教育学院,颗粒物(PM10),52,54,65,12,16,168,90,152,126,19,22,12,24,0.3,0.5
2022-07-20T22:00:00,1727A,113.1147,36.1547,长治市,清华站,,32,31,30,22,12,169,101,148,131,12,14,9,15,0.7,1.1
2022-07-20T22:00:00,1728A,113.1031,36.1989,长治市,监测站,,33,32,22,12,12,166,104,150,140,14,15,9,9,0.8,0.6
2022-07-20T22:00:00,1730A,113.0886,36.2125,长治市,审计局,,36,24,17,22,14,204,114,178,166,15,7,9,9,0.6,0.4
2022-07-20T22:00:00,1731A,113.0844,36.1856,长治市,长治八中,,33,32,22,14,11,182,105,169,150,17,16,10,12,0.9,0.7
2022-07-20T22:00:00,1733A,111.5531,36.0783,临汾市,临钢医院,颗粒物(PM10),56,62,37,22,32,155,90,149,136,18,13,2,2,0.9,0.8
2022-07-20T22:00:00,1734A,111.5028,36.0714,临汾市,技工学校,,36,34,42,25,41,164,82,149,138,25,14,5,5,0.8,0.9
2022-07-20T22:00:00,1735A,111.5169,36.0822,临汾市,工商学校,,,,,,,,,,,,,,,,
2022-07-20T22:00:00,1736A,111.5018,36.0855,临汾市,市委,,41,41,48,26,42,164,81,150,139,27,15,5,4,0.5,0.6
2022-07-20T22:00:00,1738A,113.5758,37.8572,阳泉市,市中心,颗粒物(PM10),54,57,32,20,11,145,15,136,110,91,25,14,13,0.5,0.6
2022-07-20T22:00:00,1739A,113.4894,37.8731,阳泉市,赛鱼,,,35,24,19,10,149,,146,146,34,25,6,9,0.7,0.7
2022-07-20T22:00:00,1740A,113.5819,37.8486,阳泉市,南庄,颗粒物(PM10),60,69,37,32,17,146,48,136,114,48,22,13,19,0.9,0.7
2022-07-20T22:00:00,1741A,113.6292,37.8531,阳泉市,白羊墅,,,,,,,,,,,,,,,,
2022-07-20T22:00:00,1742A,113.5614,37.8703,阳泉市,平坦,颗粒物(PM10),57,63,29,19,11,148,10,140,116,110,30,18,13,0.9,0.7
2022-07-20T22:00:00,1743A,113.5158,37.8392,阳泉市,大阳泉,,34,10,15,15,12,143,106,135,128,21,16,24,8,0.4,0.5
2022-07-20T22:00:00,1744A,118.9233,42.2816,赤峰市,松山一中,,24,15,25,4,6,123,76,106,95,20,19,11,12,0.6,0.6
2022-07-20T22:00:00,1745A,118.9576,42.2728,赤峰市,哈达街,,27,17,21,6,7,127,84,107,92,19,22,9,11,0.4,0.4
2022-07-20T22:00:00,1746A,118.8788,42.2554,赤峰市,天义路,,26,7,22,2,6,113,83,96,88,14,18,9,11,0.3,0.4
2022-07-20T22:00:00,1748A,123.044,41.1196,鞍山市,深沟寺,,37,37,38,17,22,130,72,95,82,16,15,8,8,1.2,0.9
2022-07-20T22:00:00,1749A,123.011,41.0931,鞍山市,太阳城,,36,36,41,20,23,138,65,106,86,25,19,8,8,1.4,1.2
2022-07-20T22:00:00,1750A,123.0485,41.1442,鞍山市,太平,,41,41,51,20,26,148,81,138,92,24,23,12,9,1.5,1.3
2022-07-20T22:00:00,1751A,122.9642,41.0971,鞍山市,铁西三道街,颗粒物(PM10),54,57,68,24,32,149,67,125,89,40,35,14,11,1.5,1.3
2022-07-20T22:00:00,1752A,122.9341,41.0833,鞍山市,铁西工业园区,颗粒物(PM10),55,60,62,28,29,140,57,116,82,37,28,12,10,1.7,1.5
2022-07-20T22:00:00,1753A,123.022,41.0821,鞍山市,明达新区,,39,39,42,20,24,136,88,114,98,22,19,7,5,1.2,1
2022-07-20T22:00:00,1754A,123.1289,41.0228,鞍山市,千山(对照点),,,,,,,,,,,,,,,,
2022-07-20T22:00:00,1755A,123.7977,41.8491,抚顺市,望花区,细颗粒物(PM2.5),54,38,55,38,30,165,88,131,116,15,23,7,8,0.8,0.8
2022-07-20T22:00:00,1756A,123.9161,41.8822,抚顺市,顺城区,细颗粒物(PM2.5),54,44,37,38,21,145,80,131,108,21,25,10,10,0.8,0.5
2022-07-20T22:00:00,1757A,124.0436,41.8611,抚顺市,东洲区,,33,23,33,23,13,132,63,116,100,17,13,11,11,0.7,0.5
2022-07-20T22:00:00,1758A,123.9247,41.8642,抚顺市,新抚区,,46,40,41,32,19,141,64,129,105,18,22,3,5,1.0,0.6
2022-07-20T22:00:00,1759A,124.0972,41.8961,抚顺市,大伙房水库,,28,19,25,19,13,135,62,118,104,8,7,6,7,0.6,0.5
2022-07-20T22:00:00,1760A,123.7086,41.8391,抚顺市,沈抚新城,,46,27,41,32,22,170,96,139,126,11,20,4,9,0.8,0.8
2022-07-20T22:00:00,1761A,123.8275,41.3064,本溪市,大峪,,44,44,48,24,19,124,38,93,65,22,27,6,7,1.3,1.2
2022-07-20T22:00:00,1762A,123.7567,41.3325,本溪市,溪湖,,50,50,48,33,24,119,27,89,54,31,28,6,9,1.8,1.5
2022-07-20T22:00:00,1763A,123.7169,41.3094,本溪市,彩屯,,49,49,52,30,30,110,23,70,46,24,34,6,13,1.0,1.9
2022-07-20T22:00:00,1764A,123.7669,41.2864,本溪市,东明,,37,37,42,24,21,117,59,96,76,27,27,6,6,1.0,1
2022-07-20T22:00:00,1765A,123.7992,41.2664,本溪市,新立屯,,40,33,38,28,17,117,54,92,59,23,22,5,6,1.2,1.2
2022-07-20T22:00:00,1766A,123.8142,41.3472,本溪市,威宁,颗粒物(PM10),67,83,56,22,19,131,6,84,44,40,26,10,12,1.1,1
2022-07-20T22:00:00,1767A,121.1115,41.0879,锦州市,南山,,30,14,31,21,22,157,57,118,93,22,20,7,7,0.8,0.8
2022-07-20T22:00:00,1768A,121.0533,40.8434,锦州市,开发区,,31,31,83,6,34,197,90,145,121,28,41,8,14,0.7,0.8
2022-07-20T22:00:00,1769A,121.1836,41.1119,锦州市,百股街道,,46,32,34,32,26,172,59,126,97,22,23,7,6,0.8,0.8
2022-07-20T22:00:00,1770A,121.1178,41.1222,锦州市,天安街道,,42,27,46,29,33,148,64,122,95,25,28,16,20,0.8,0.9
2022-07-20T22:00:00,1771A,121.1303,41.1386,锦州市,北湖公园,,35,19,48,24,34,138,68,110,90,13,25,4,13,0.7,0.8
2022-07-20T22:00:00,1772A,126.54,43.8622,吉林市,哈达湾,,23,23,35,14,22,192,71,154,125,16,15,6,8,0.8,0.7
2022-07-20T22:00:00,1773A,126.5844,43.8358,吉林市,东局子,,33,33,24,21,12,156,46,134,108,39,17,5,6,0.9,0.6
2022-07-20T22:00:00,1774A,126.5052,43.8245,吉林市,电力学院,,21,16,23,10,15,162,66,135,114,11,13,7,7,0.5,0.6
2022-07-20T22:00:00,1775A,126.6133,43.8972,吉林市,江北,,30,30,27,19,16,141,42,127,98,35,11,6,7,0.8,0.7
2022-07-20T22:00:00,1776A,126.555,43.8306,吉林市,江南公园,,26,24,24,18,15,166,64,134,112,18,18,4,5,0.8,0.7
2022-07-20T22:00:00,1778A,126.7061,43.7133,吉林市,丰满(对照点),,,,,,,,,,,,,,,,
2022-07-20T22:00:00,1779A,123.9305,47.3636,齐齐哈尔市,安居小区,,35,29,34,9,9,112,10,104,77,70,23,5,5,1.0,0.6
2022-07-20T22:00:00,1780A,123.9488,47.3386,齐齐哈尔市,中心广场,,36,36,26,10,8,121,54,114,96,24,20,4,4,0.6,0.5
2022-07-20T22:00:00,1781A,123.9483,47.3227,齐齐哈尔市,农牧车辆厂,颗粒物(PM10),52,53,44,17,11,123,25,108,88,27,13,4,4,0.7,0.5
2022-07-20T22:00:00,1783A,123.945,47.2988,齐齐哈尔市,市环境监测站,,45,45,31,3,6,122,50,108,93,26,20,5,6,0.4,0.3
2022-07-20T22:00:00,1784A,129.61,44.561,牡丹江市,环保大楼,,14,14,14,7,10,106,22,88,63,17,12,4,5,0.6,0.5
2022-07-20T22:00:00,1785A,129.6115,44.5782,牡丹江市,文化广场,,41,41,27,14,11,100,11,80,53,26,15,4,2,0.7,0.4
2022-07-20T22:00:00,1786A,129.5904,44.5963,牡丹江市,第一医院,,10,10,10,7,6,91,15,71,43,10,10,4,3,0.8,0.7
2022-07-20T22:00:00,1787A,129.6364,44.6075,牡丹江市,机车工厂,,11,11,18,4,6,105,23,80,50,8,11,4,3,0.4,0.3
2022-07-20T22:00:00,1788A,129.6386,44.5462,牡丹江市,第一中学,,32,32,22,7,10,104,13,80,54,17,11,3,3,0.4,0.4
2022-07-20T22:00:00,1789A,124.81117,46.03138,大庆市,大同区,,28,28,20,8,8,120,68,103,88,10,11,4,4,0.3,0.3
2022-07-20T22:00:00,1790A,125.129,46.533,大庆市,龙凤区,,21,19,13,3,5,106,65,98,77,12,16,5,4,0.4,0.4
2022-07-20T22:00:00,1791A,124.902,46.408,大庆市,红岗区,,17,7,12,7,7,152,54,130,110,17,17,3,3,0.3,0.4
2022-07-20T22:00:00,1792A,125.153,46.586,大庆市,萨尔图区,,21,21,15,6,10,95,64,90,78,13,12,6,6,0.4,0.3
2022-07-20T22:00:00,1793A,124.9042,46.6215,大庆市,让胡路区,,21,15,14,9,7,106,55,98,78,22,18,2,3,2.1,1.2
2022-07-20T22:00:00,1794A,118.3606,31.3519,芜湖市,监测站,,23,18,23,16,13,105,28,88,68,39,19,11,9,1.0,0.5
2022-07-20T22:00:00,1795A,118.3714,31.4134,芜湖市,科创中心,,19,14,25,13,11,131,34,104,75,26,14,6,6,0.6,0.5
2022-07-20T22:00:00,1796A,118.3673,31.3131,芜湖市,四水厂,,18,18,24,10,12,100,42,90,73,27,17,8,7,0.9,0.7
2022-07-20T22:00:00,1797A,118.4022,31.3839,芜湖市,济民医院(对照点),,,,,,,,,,,,,,,,
2022-07-20T22:00:00,1798A,118.5092,31.6837,马鞍山市,湖东路四小,,22,16,22,10,11,130,70,96,67,14,11,15,4,1.3,0.9
2022-07-20T22:00:00,1799A,118.5024,31.6449,马鞍山市,开发区,,20,17,23,14,12,122,60,91,64,14,12,8,8,0.6,0.6
2022-07-20T22:00:00,1800A,118.5228,31.7231,马鞍山市,慈湖,,20,13,26,11,13,112,64,82,57,13,9,11,6,0.8,0.8
2022-07-20T22:00:00,1801A,118.48,31.6928,马鞍山市,马钢动力厂,,,,,,,,,,,,,,,,
2022-07-20T22:00:00,1802A,118.6245,31.7241,马鞍山市,濮塘(对照点),,20,12,19,4,12,122,61,89,61,18,17,4,4,0.5,0.6
2022-07-20T22:00:00,1803A,115.9872,29.6815,九江市,十里,,24,24,26,10,18,101,46,93,72,11,10,7,8,0.7,0.8
2022-07-20T22:00:00,1804A,115.9584,29.7046,九江市,茅山头,,15,15,27,8,16,102,46,99,72,10,10,8,7,0.5,0.6
2022-07-20T22:00:00,1805A,115.9877,29.7295,九江市,西园,,21,21,32,12,16,114,51,103,75,6,11,8,9,0.6,0.8
2022-07-20T22:00:00,1806A,116.0172,29.6547,九江市,五七二七厂,,,15,25,2,9,92,,86,86,3,5,3,3,0.4,0.6
2022-07-20T22:00:00,1808A,115.9114,29.6038,九江市,综合工业园,,14,14,28,7,14,114,33,101,74,28,10,5,6,0.7,0.7
2022-07-20T22:00:00,1809A,116.0721,29.7535,九江市,石化总厂,,29,26,36,20,18,117,49,106,80,16,16,4,9,0.5,0.6
2022-07-20T22:00:00,1810A,115.9773,29.5698,九江市,庐山气象台(对照点),,19,14,16,3,14,93,60,83,77,6,4,7,11,0.6,0.7
2022-07-20T22:00:00,1811A,112.3628,34.6692,洛阳市,中信二小,,,,,,,,,,,,,,,,
2022-07-20T22:00:00,1812A,112.3931,34.6516,洛阳市,市委党校,,38,38,19,20,13,140,63,136,120,32,6,4,4,0.6,0.4
2022-07-20T22:00:00,1814A,112.4657,34.6871,洛阳市,豫西宾馆,颗粒物(PM10),54,58,26,28,17,133,52,126,108,39,12,2,2,0.9,0.7
2022-07-20T22:00:00,1815A,112.494,34.6886,洛阳市,河南林校,,49,49,19,21,12,134,61,127,110,32,12,7,7,0.4,0.3
2022-07-20T22:00:00,1816A,112.3844,34.623,洛阳市,开发区管委会,,27,27,18,16,14,127,74,123,109,14,4,5,5,0.4,0.3
2022-07-20T22:00:00,1817A,112.4267,34.6258,洛阳市,市委新办公区,,40,40,17,23,13,125,65,122,109,32,5,4,4,0.7,0.3
2022-07-20T22:00:00,1818A,114.4839,36.0621,安阳市,棉研所(对照点),颗粒物(PM10),52,53,28,30,18,140,77,129,117,10,9,5,5,0.4,0.3
2022-07-20T22:00:00,1819A,114.3551,36.1017,安阳市,红庙街,,49,49,25,22,11,155,98,145,136,21,15,5,4,0.6,0.5
2022-07-20T22:00:00,1820A,114.361,36.0681,安阳市,银杏小区,颗粒物(PM10),51,52,31,26,15,149,89,141,132,18,12,3,4,0.5,0.3
2022-07-20T22:00:00,1824A,114.3389,34.7781,开封市,肿瘤医院,颗粒物(PM10),54,57,25,22,13,112,55,106,93,22,10,6,5,0.8,0.7
2022-07-20T22:00:00,1826A,114.2885,34.7965,开封市,世纪星幼儿园,,,51,26,28,16,112,56,105,93,21,10,4,4,,0.6
2022-07-20T22:00:00,1828A,113.227,35.2125,焦作市,市环保局,,39,35,28,27,15,150,102,137,128,12,8,5,3,0.7,0.6
2022-07-20T22:00:00,1829A,113.2464,35.1764,焦作市,高新区政府（停运20220628）,,,,,,,,,,,,,,,,
2022-07-20T22:00:00,1830A,113.1992,35.2590,焦作市,影视城(对照点),,,,,,,,,,,,,,,,
2022-07-20T22:00:00,1832A,113.3257,33.742,平顶山市,新华旅馆,,34,34,20,5,7,125,46,107,94,32,9,2,3,0.4,0.3
2022-07-20T22:00:00,1833A,113.2919,33.737,平顶山市,规划设计院,,31,31,20,14,7,121,53,103,91,18,6,3,3,0.7,0.5
2022-07-20T22:00:00,1834A,113.182,33.774,平顶山市,平顶山工学院,,28,19,20,13,15,118,89,101,96,11,12,4,6,0.7,0.6
2022-07-20T22:00:00,1835A,111.1922,34.7752,三门峡市,市政府,颗粒物(PM10),56,61,20,12,11,132,36,125,109,50,16,5,7,0.6,0.5
2022-07-20T22:00:00,1836A,111.1587,34.7942,三门峡市,开发区,,,,19,11,9,132,,126,126,,10,,3,,0.4
2022-07-20T22:00:00,1838A,111.143,34.7955,三门峡市,风景区(对照点),,,,,,,,,,,,,,,,
2022-07-20T22:00:00,1839A,111.3009,30.7157,宜昌市,四零三,,,,,,,,,,,,,,,,
2022-07-20T22:00:00,1840A,111.2992,30.6981,宜昌市,白龙岗,,24,24,17,14,10,62,44,60,48,18,19,7,7,0.7,0.7
2022-07-20T22:00:00,1841A,111.3549,30.6465,宜昌市,伍家岗,,19,19,22,5,12,64,43,62,52,18,16,6,5,0.5,0.5
2022-07-20T22:00:00,1842A,111.2628,30.6961,宜昌市,点军区,,27,27,21,14,9,66,48,60,58,22,15,4,3,0.4,0.5
2022-07-20T22:00:00,1843A,111.3275,30.7819,宜昌市,夷陵区,,16,11,20,9,4,78,49,55,54,16,14,3,3,0.6,0.6
2022-07-20T22:00:00,1844A,112.2494,30.3197,荆州市,市图书馆,,24,24,20,10,8,94,60,90,79,23,12,8,7,0.6,0.6
2022-07-20T22:00:00,1845A,112.2008,30.3544,荆州市,市委党校,,20,13,19,0,7,92,64,85,75,11,8,6,8,0.6,0.7
2022-07-20T22:00:00,1847A,113.1094,29.3578,岳阳市,南湖风景区,,22,20,25,15,19,105,38,84,60,16,10,9,10,0.5,0.6
2022-07-20T22:00:00,1848A,113.1493,29.4251,岳阳市,城陵矶,,21,21,20,13,15,100,41,73,46,11,10,7,9,0.6,0.7
2022-07-20T22:00:00,1849A,113.1497,29.3575,岳阳市,开发区,,14,14,24,8,13,99,36,78,49,11,10,5,8,0.5,0.6
2022-07-20T22:00:00,1850A,113.2621,29.4758,岳阳市,云溪区,,16,14,21,9,13,91,51,74,54,4,7,8,11,0.6,0.7
2022-07-20T22:00:00,1851A,112.9943,29.4402,岳阳市,君山区,,15,7,19,8,16,92,48,81,68,7,6,4,5,0.4,0.5
2022-07-20T22:00:00,1852A,113.2117,29.355,岳阳市,金凤水库(对照点),,16,10,26,11,15,90,38,72,43,6,8,2,4,0.5,0.7
2022-07-20T22:00:00,1854A,111.6975,28.9703,常德市,市二中,,13,13,20,9,10,65,30,55,43,14,9,4,5,0.5,0.5
2022-07-20T22:00:00,1857A,111.7158,29.1456,常德市,白鹤山(对照点),,20,20,20,9,11,70,32,57,37,2,4,3,6,0.4,0.4
2022-07-20T22:00:00,1858A,110.5319,29.1217,张家界市,永定新区,,15,9,9,10,8,40,12,32,29,15,13,1,1,0.3,0.2
2022-07-20T22:00:00,1859A,110.4697,29.1242,张家界市,电业局,,11,7,6,2,6,32,12,27,24,22,13,2,2,0.2,0.3
2022-07-20T22:00:00,1860A,110.5594,29.3547,张家界市,未央路,,11,11,11,6,5,39,5,30,23,14,10,1,2,0.6,0.5
2022-07-20T22:00:00,1861A,110.4417,29.315,张家界市,袁家界(对照点),臭氧1小时,151,6,9,3,5,453,302,289,289,3,5,8,8,0.6,0.6
2022-07-20T22:00:00,1862A,110.4144,25.3167,桂林市,电子科大尧山校区(对照点),,15,6,23,10,14,68,38,62,46,3,4,6,7,0.6,0.6
2022-07-20T22:00:00,1863A,110.2819,25.2697,桂林市,监测站,,12,4,24,4,10,71,38,58,43,6,8,6,5,0.4,0.5
2022-07-20T22:00:00,1864A,110.3089,25.2708,桂林市,龙隐路小学,,12,6,20,7,12,64,38,55,42,7,9,6,7,0.3,0.4
2022-07-20T22:00:00,1865A,110.2869,25.2178,桂林市,八中,,10,10,20,4,13,66,32,53,36,7,11,6,8,0.4,0.4
2022-07-20T22:00:00,1866A,109.2262,21.588,北海市,牛尾岭水库(对照点),,11,11,16,7,9,54,30,47,40,8,4,6,7,0.5,0.4
2022-07-20T22:00:00,1867A,109.1436,21.4086,北海市,海滩公园,,13,9,18,2,5,60,39,57,50,4,2,5,4,0.4,0.4
2022-07-20T22:00:00,1868A,109.0981,21.4661,北海市,新市环保局,,11,11,15,2,6,60,34,56,47,7,3,5,3,0.5,0.4
2022-07-20T22:00:00,1869A,109.1778,21.5233,北海市,北海工业园,,22,22,17,10,9,59,27,52,42,12,4,6,5,0.4,0.4
2022-07-20T22:00:00,1870A,109.4856,24.3895,柳州市,柳东小学,,12,9,22,3,14,86,37,77,62,6,5,5,5,0.7,0.7
2022-07-20T22:00:00,1871A,109.4157,24.3277,柳州市,环保监测站,,13,13,21,3,11,82,32,71,57,9,8,5,6,0.5,0.6
2022-07-20T22:00:00,1872A,109.389,24.341,柳州市,河西水厂,,16,16,22,4,12,80,33,68,57,8,8,6,6,0.5,0.5
2022-07-20T22:00:00,1873A,109.4311,24.2921,柳州市,市四中,,11,2,30,4,12,85,34,72,57,6,7,6,6,0.6,0.7
2022-07-20T22:00:00,1874A,109.4006,24.3631,柳州市,市九中,,16,13,25,11,12,83,33,72,60,7,7,6,6,0.4,0.5
2022-07-20T22:00:00,1875A,109.4958,24.3134,柳州市,古亭山,,12,4,21,8,12,75,26,69,54,12,8,5,5,0.5,0.6
2022-07-20T22:00:00,1876A,109.5078,18.2489,三亚市,河东子站,,14,14,14,8,8,48,43,48,44,4,5,2,2,0.5,0.5
2022-07-20T22:00:00,1877A,109.4964,18.2681,三亚市,河西子站,,,10,13,3,6,49,41,46,44,6,5,4,3,,0.2
2022-07-20T22:00:00,1878A,104.7778,31.4741,绵阳市,富乐山,,40,40,46,26,32,225,126,192,188,35,21,6,9,0.4,0.8
2022-07-20T22:00:00,1879A,104.7563,31.4535,绵阳市,市人大,,44,44,71,26,32,225,102,185,181,63,30,9,9,0.8,0.8
2022-07-20T22:00:00,1880A,104.6697,31.4668,绵阳市,高新区自来水公司,颗粒物(PM10),58,65,63,21,37,223,87,198,188,59,26,6,7,0.6,0.6
2022-07-20T22:00:00,1881A,104.7287,31.5075,绵阳市,三水厂,,46,46,70,26,43,215,78,185,176,70,36,5,5,0.7,0.6
2022-07-20T22:00:00,1882A,104.563,28.793,宜宾市,石马中学(对照点),,19,15,24,8,15,120,59,91,88,18,15,17,5,0.6,0.6
2022-07-20T22:00:00,1883A,104.6201,28.7728,宜宾市,市委,,22,19,27,10,16,123,68,95,94,17,20,15,7,0.4,0.4
2022-07-20T22:00:00,1884A,104.6055,28.793,宜宾市,宜宾四中,,21,20,29,9,18,118,67,98,95,19,19,10,9,0.4,0.4
2022-07-20T22:00:00,1885A,104.639,28.7562,宜宾市,市政府,,20,17,35,8,17,122,64,96,94,18,19,8,7,0.6,0.5
2022-07-20T22:00:00,1886A,104.5742,28.7199,宜宾市,黄金嘴,,19,17,25,8,14,121,58,92,89,25,14,7,7,0.4,0.5
2022-07-20T22:00:00,1888A,101.6891,26.571,攀枝花市,弄弄坪,,37,37,15,17,10,81,41,70,67,32,21,2,4,0.8,1.1
2022-07-20T22:00:00,1889A,101.5769,26.5928,攀枝花市,河门口,,32,32,15,17,8,65,44,57,49,25,21,5,5,1.1,1.3
2022-07-20T22:00:00,1890A,101.7169,26.585,攀枝花市,炳草岗,,26,26,17,16,9,72,32,65,62,37,18,8,6,0.7,0.8
2022-07-20T22:00:00,1891A,101.7369,26.5008,攀枝花市,仁和,,17,17,13,7,6,83,40,77,70,9,11,7,9,1.1,1.2
2022-07-20T22:00:00,1893A,105.4324,28.9634,泸州市,九狮山(对照点),,16,8,16,11,13,84,29,65,52,21,49,4,5,0.6,0.3
2022-07-20T22:00:00,1894A,105.4427,28.9063,泸州市,小市上码头,,22,22,27,5,10,94,49,79,67,18,16,6,8,0.7,0.7
2022-07-20T22:00:00,1895A,105.4241,28.8573,泸州市,兰田宪桥,,24,24,22,7,9,87,26,72,56,28,15,5,6,0.5,0.4
2022-07-20T22:00:00,1896A,105.4379,28.8833,泸州市,市环监站,,24,24,23,15,14,93,48,78,68,26,19,4,6,0.5,0.4
2022-07-20T22:00:00,1897A,104.7547,29.3628,自贡市,大塘山(对照点),,,,,,,,,,,,,,,,
2022-07-20T22:00:00,1900A,104.7692,29.3411,自贡市,春华路,,,,,,,,,,,,,,,,
2022-07-20T22:00:00,1901A,104.4239,31.1208,德阳市,东山公园,,46,29,40,9,18,192,145,184,173,16,19,7,10,0.5,0.6
2022-07-20T22:00:00,1902A,104.3826,31.1317,德阳市,西小区,,37,34,49,9,15,183,116,159,148,22,27,4,6,0.6,0.6
2022-07-20T22:00:00,1903A,104.4053,31.1167,德阳市,市检察院,,,,,,,,,,,,,,,,
2022-07-20T22:00:00,1904A,104.3553,31.1091,德阳市,耐火材料厂,,41,41,44,9,18,177,94,158,144,30,27,6,6,0.5,0.5
2022-07-20T22:00:00,1905A,106.056,30.8064,南充市,西山风景区(对照点),,42,42,28,27,18,117,102,108,108,20,17,2,3,0.7,0.7
2022-07-20T22:00:00,1906A,106.0789,30.8023,南充市,南充市委,,40,40,30,19,15,102,85,95,93,13,9,3,4,0.5,0.5
2022-07-20T22:00:00,1907A,106.1031,30.8217,南充市,南充炼油厂,,42,42,32,17,16,134,107,123,120,12,11,5,7,0.4,0.4
2022-07-20T22:00:00,1908A,106.1064,30.7856,南充市,高坪区监测站,,31,27,24,20,19,116,99,108,105,18,12,2,2,0.4,0.5
2022-07-20T22:00:00,1909A,106.0642,30.7636,南充市,嘉陵区环保局,,42,30,27,29,21,106,93,100,100,6,9,6,11,0.3,0.3
2022-07-20T22:00:00,1910A,106.1087,30.8388,南充市,市环境监测站,,36,30,30,25,20,114,92,105,102,20,15,3,2,0.5,0.5
2022-07-20T22:00:00,1911A,106.9222,27.6869,遵义市,丁字口,,34,34,16,23,14,108,39,88,82,22,9,8,6,0.7,0.6
2022-07-20T22:00:00,1912A,106.9242,27.7019,遵义市,凤凰山,,26,23,20,9,10,103,81,86,86,11,11,4,5,0.6,0.6
2022-07-20T22:00:00,1913A,106.8906,27.6486,遵义市,忠庄,,30,30,16,18,8,97,61,81,81,13,11,1,2,0.5,0.4
2022-07-20T22:00:00,1914A,106.9231,27.6506,遵义市,舟水桥,,30,28,22,21,11,103,59,80,80,12,16,3,2,0.6,0.5
2022-07-20T22:00:00,1915A,106.9178,27.72,遵义市,干田坝,,35,35,19,16,9,109,52,91,88,24,9,5,4,0.7,0.6
2022-07-20T22:00:00,1916A,103.7897,25.5035,曲靖市,环境监测站,,30,30,20,17,17,65,31,56,49,25,16,4,4,0.7,0.7
2022-07-20T22:00:00,1917A,103.8,25.5364,曲靖市,烟厂办公区,,22,22,15,15,10,68,27,59,54,18,10,3,4,0.6,0.6
2022-07-20T22:00:00,1918A,108.7197,34.3956,咸阳市,气象站(对照点),二氧化氮,56,48,31,10,11,195,28,167,146,111,25,5,5,0.7,0.6
2022-07-20T22:00:00,1919A,108.673,34.3155,咸阳市,实验中学,,44,44,25,14,10,188,85,155,148,47,22,4,2,0.6,0.4
2022-07-20T22:00:00,1920A,108.7233,34.3617,咸阳市,师范学院,,37,37,26,13,9,189,85,159,150,37,21,5,4,0.5,0.5
2022-07-20T22:00:00,1922A,109.0656,35.0994,铜川市,党校(对照点),,41,41,23,13,9,116,8,98,80,57,28,8,8,0.7,0.6
2022-07-20T22:00:00,1923A,109.0697,35.0697,铜川市,王益区政府,,43,43,26,15,10,142,30,121,101,34,20,3,2,0.7,0.5
2022-07-20T22:00:00,1924A,108.9344,34.9058,铜川市,新区管委会,颗粒物(PM10),51,51,17,16,7,127,62,121,114,45,14,5,6,0.4,0.4
2022-07-20T22:00:00,1925A,108.9589,34.8731,铜川市,新区兰芝公司,,,,,,,,,,,,,,,,
2022-07-20T22:00:00,1926A,109.4131,36.6275,延安市,枣园(对照点),,40,40,18,10,6,146,23,134,104,49,13,3,3,0.6,0.5
2022-07-20T22:00:00,1927A,109.4761,36.6028,延安市,延大医附院,,46,46,20,24,7,168,32,147,115,49,17,3,3,0.5,0.3
2022-07-20T22:00:00,1928A,109.4824,36.5767,延安市,市监测站,,,,,,,,,,,,,,,,
2022-07-20T22:00:00,1929A,109.5056,36.6106,延安市,百米大道,颗粒物(PM10),53,55,28,14,8,160,39,147,118,58,23,8,6,0.6,0.4
2022-07-20T22:00:00,1930A,107.185,34.3063,宝鸡市,庙沟村(对照点),,20,16,19,8,7,122,54,106,98,40,11,4,4,0.4,0.3
2022-07-20T22:00:00,1931A,107.0708,34.3017,宝鸡市,竹园沟,,23,23,20,16,10,156,61,122,115,13,11,5,4,0.4,0.4
2022-07-20T22:00:00,1932A,107.1906,34.3672,宝鸡市,三陆医院,,25,25,21,6,9,143,77,127,119,23,15,5,4,0.4,0.3
2022-07-20T22:00:00,1933A,107.1431,34.3547,宝鸡市,监测站,,34,34,22,15,12,147,48,127,114,28,17,5,5,0.5,0.4
2022-07-20T22:00:00,1934A,107.1186,34.3739,宝鸡市,技工学校,,35,35,23,13,13,151,62,125,119,28,18,5,4,0.4,0.4
2022-07-20T22:00:00,1935A,107.3906,34.3528,宝鸡市,陈仓区环保局家属楼,,36,36,24,11,10,132,37,123,106,50,17,5,5,0.5,0.4
2022-07-20T22:00:00,1936A,107.2058,34.3497,宝鸡市,文理学院,,28,28,22,9,7,148,55,133,121,33,17,7,7,0.3,0.3
2022-07-20T22:00:00,1937A,107.2386,34.3622,宝鸡市,三迪小学,,35,35,23,16,11,139,55,119,106,42,21,5,5,0.5,0.4
2022-07-20T22:00:00,1938A,109.5293,34.5101,渭南市,农科所(对照点),,,,7,,14,72,,90,,,21,,9,,0.2
2022-07-20T22:00:00,1939A,109.4974,34.4877,渭南市,日报社,,39,39,19,23,14,171,49,150,131,51,27,8,8,0.6,0.5
2022-07-20T22:00:00,1940A,109.4636,34.493,渭南市,体育馆,,,27,18,17,10,172,26,160,136,93,29,,10,0.5,0.5
2022-07-20T22:00:00,1941A,109.4259,34.5023,渭南市,高新一小,,29,28,28,8,14,156,91,145,134,18,23,4,5,0.5,0.5
2022-07-20T22:00:00,1943A,102.1725,38.5339,金昌市,新川苑,颗粒物(PM10),52,54,52,9,12,137,76,133,123,31,19,9,16,0.6,0.5
2022-07-20T22:00:00,1944A,102.1692,38.5167,金昌市,天庆家园,颗粒物(PM10),53,56,34,17,8,138,51,134,115,55,18,16,17,0.7,0.8
2022-07-20T22:00:00,1945A,98.2908,39.7711,嘉峪关市,气象局,颗粒物(PM10),131,212,81,44,22,141,109,131,128,8,28,2,8,0.3,0.5
2022-07-20T22:00:00,1947A,106.3394,38.817,石嘴山市,沙湖旅游区(对照点),颗粒物(PM10),51,51,29,11,9,169,117,159,147,19,19,15,17,0.3,0.3
2022-07-20T22:00:00,1948A,106.3668,39.0145,石嘴山市,大武口朝阳西街,,37,37,39,18,15,179,97,168,153,34,19,8,33,0.6,0.7
2022-07-20T22:00:00,1949A,106.7704,39.2282,石嘴山市,惠农南大街,,43,43,21,11,8,146,45,139,122,66,19,7,11,0.4,0.4
2022-07-20T22:00:00,1950A,106.7099,39.1325,石嘴山市,红果子镇惠新街,颗粒物(PM10),72,94,39,18,11,154,96,148,137,34,14,9,14,0.4,0.4
2022-07-20T22:00:00,1951A,84.895,45.6094,克拉玛依市,长征新村,,30,19,16,12,6,99,94,95,95,2,2,7,7,0.1,0.1
2022-07-20T22:00:00,1952A,84.8988,45.5893,克拉玛依市,南林小区,,30,22,19,13,14,102,95,98,98,10,9,8,8,0.4,0.3
2022-07-20T22:00:00,1953A,85.1186,45.6886,克拉玛依市,白碱滩区,,,,,,,,,,,,,,,,
2022-07-20T22:00:00,1954A,84.905,44.3396,克拉玛依市,独山子区,,31,8,12,10,9,104,97,96,96,8,6,7,7,0.3,0.3
2022-07-20T22:00:00,1955A,85.6979,46.098,克拉玛依市,乌尔禾区商贸楼,,28,16,17,1,8,91,89,88,88,1,3,10,10,0.3,0.3
2022-07-20T22:00:00,1956A,86.1472,41.7538,巴音郭楞州,孔雀公园,颗粒物(PM10),58,65,57,10,11,125,91,112,101,12,13,4,4,0.2,0.2
2022-07-20T22:00:00,1957A,86.1972,41.7166,巴音郭楞州,棉纺厂,,,,49,13,16,123,106,118,113,4,9,3,3,0.2,0.2
2022-07-20T22:00:00,1958A,86.2357,41.7173,巴音郭楞州,经济开发区,,40,40,55,8,14,118,99,114,109,4,4,4,3,0.2,0.3
2022-07-20T22:00:00,1959A,118.746,36.881,寿光市,监测站,,,,,,,,,,,,,,,,
2022-07-20T22:00:00,1960A,118.780,36.864,寿光市,世纪学校,,,,,,,,,,,,,,,,
2022-07-20T22:00:00,1961A,117.532,36.6868,济南市,东山小学,,34,34,45,15,25,107,29,88,73,46,29,2,3,0.5,0.7
2022-07-20T22:00:00,1962A,117.541,36.710,章丘市,明水开发区,,,,,,,,,,,,,,,,
2022-07-20T22:00:00,1963A,120.610,36.440,即墨市,环保局子站,,,,,,,,,,,,,,,,
2022-07-20T22:00:00,1964A,120.470,36.390,即墨市,开发区子站,,,,,,,,,,,,,,,,
2022-07-20T22:00:00,1965A,120.005,35.878,胶南市,JN子站,,,,,,,,,,,,,,,,
2022-07-20T22:00:00,1966A,120.0405,35.8735,青岛市,黄岛区4号,,28,12,22,2,13,112,87,100,96,12,20,6,6,0.4,0.5
2022-07-20T22:00:00,1967A,120.008,36.283,胶州市,胶州环保局,,,,,,,,,,,,,,,,
2022-07-20T22:00:00,1968A,120.014,36.253,胶州市,胶州一中,,,,,,,,,,,,,,,,
2022-07-20T22:00:00,1969A,120.537,36.865,莱西市,环保局子站,,,,,,,,,,,,,,,,
2022-07-20T22:00:00,1970A,120.515,36.885,莱西市,人民广场子站,,,,,,,,,,,,,,,,
2022-07-20T22:00:00,1971A,119.952,36.792,平度市,1号,,,,,,,,,,,,,,,,
2022-07-20T22:00:00,1972A,119.976,36.799,平度市,2号,,,,,,,,,,,,,,,,
2022-07-20T22:00:00,1973A,120.747,37.825,蓬莱市,蓬莱环保局,,,,,,,,,,,,,,,,
2022-07-20T22:00:00,1974A,120.773,37.809,蓬莱市,蓬莱博物馆,,,,,,,,,,,,,,,,
2022-07-20T22:00:00,1975A,120.399,37.374,招远市,招远环保局,,,,,,,,,,,,,,,,
2022-07-20T22:00:00,1976A,120.394,37.364,招远市,招远教育局,,,,,,,,,,,,,,,,
2022-07-20T22:00:00,1977A,119.941,37.177,莱州市,莱州环保局,,,,,,,,,,,,,,,,
2022-07-20T22:00:00,1978A,119.959,37.180,莱州市,莱州外经委,,,,,,,,,,,,,,,,
2022-07-20T22:00:00,1979A,122.471,37.154,荣成市,荣成市环保局办公楼,,,,,,,,,,,,,,,,
2022-07-20T22:00:00,1980A,122.410,37.161,荣成市,山东成山轮胎公司,,,,,,,,,,,,,,,,
2022-07-20T22:00:00,1981A,122.038,37.197,文登市,文登市环保局,,,,,,,,,,,,,,,,
2022-07-20T22:00:00,1982A,122.0693,37.2174,威海市,文登开发区,,30,2,27,2,16,118,95,108,89,4,14,3,4,0.3,0.5
2022-07-20T22:00:00,1983A,121.531,36.913,乳山市,乳山市环保局,,,,,,,,,,,,,,,,
2022-07-20T22:00:00,1984A,121.544,36.907,乳山市,乳山市气象局,,,,,,,,,,,,,,,,
2022-07-20T22:00:00,1985A,120.636,31.155,吴江市,吴江市环保局,,,,,,,,,,,,,,,,
2022-07-20T22:00:00,1986A,120.635,31.170,吴江市,教师进修学校,,,,,,,,,,,,,,,,
2022-07-20T22:00:00,1987A,120.658,31.172,吴江市,吴江开发区,,,,,,,,,,,,,,,,
2022-07-20T22:00:00,1988A,120.953,31.388,昆山市,昆山实验小学,,,,,,,,,,,,,,,,
2022-07-20T22:00:00,1989A,120.999,31.381,昆山市,震川中学,,,,,,,,,,,,,,,,
2022-07-20T22:00:00,1990A,120.758,31.670,常熟市,海虞子站,,,,,,,,,,,,,,,,
2022-07-20T22:00:00,1991A,120.721,31.671,常熟市,兴福子站,,,,,,,,,,,,,,,,
2022-07-20T22:00:00,1992A,120.734,31.656,常熟市,菱塘子站,,,,,,,,,,,,,,,,
2022-07-20T22:00:00,1993A,120.526,31.874,张家港市,张家港市监测站,,,,,,,,,,,,,,,,
2022-07-20T22:00:00,1994A,120.550,31.882,张家港市,城北小学,,,,,,,,,,,,,,,,
2022-07-20T22:00:00,1995A,121.115,31.453,太仓市,太仓市监测站,,,,,,,,,,,,,,,,
2022-07-20T22:00:00,1996A,121.140,31.422,太仓市,科教新城实小,,,,,,,,,,,,,,,,
2022-07-20T22:00:00,1997A,119.146,31.955,句容市,消防指挥中心,,,,,,,,,,,,,,,,
2022-07-20T22:00:00,1998A,119.180,31.955,句容市,房家坝,,,,,,,,,,,,,,,,
2022-07-20T22:00:00,1999A,120.268,31.920,江阴市,虹桥邮政,,,,,,,,,,,,,,,,
2022-07-20T22:00:00,2000A,120.237,31.909,江阴市,五星公园,,,,,,,,,,,,,,,,
2022-07-20T22:00:00,2001A,120.302,31.920,江阴市,第二实验小学,,,,,,,,,,,,,,,,
2022-07-20T22:00:00,2002A,119.818,31.354,宜兴市,宜兴市环保局,,,,,,,,,,,,,,,,
2022-07-20T22:00:00,2003A,119.794,31.371,宜兴市,宜园,,,,,,,,,,,,,,,,
2022-07-20T22:00:00,2004A,119.579,31.751,金坛市,金坛市环境监测站,,,,,,,,,,,,,,,,
2022-07-20T22:00:00,2005A,119.579,31.737,金坛市,金坛市自来水公司,,,,,,,,,,,,,,,,
2022-07-20T22:00:00,2006A,119.460,31.400,溧阳市,溧阳市东门子站,,,,,,,,,,,,,,,,
2022-07-20T22:00:00,2007A,119.438,31.317,溧阳市,燕山子站,,,,,,,,,,,,,,,,
2022-07-20T22:00:00,2008A,121.173,31.896,海门市,海门市监测站,,,,,,,,,,,,,,,,
2022-07-20T22:00:00,2009A,121.1518,31.89708,海门市,社会福利院,,,,,,,,,,,,,,,,
2022-07-20T22:00:00,2010A,119.7183,30.2366,临安市,市政府,,,,,,,,,,,,,,,,
2022-07-20T22:00:00,2011A,119.6942,30.2311,临安市,四中,,,,,,,,,,,,,,,,
2022-07-20T22:00:00,2012A,119.954,30.054,富阳市,监测站,,,,,,,,,,,,,,,,
2022-07-20T22:00:00,2013A,119.946,30.049,富阳市,富春二小,,,,,,,,,,,,,,,,
2022-07-20T22:00:00,2014A,120.091,29.305,义乌市,江东,,,,,,,,,,,,,,,,
2022-07-20T22:00:00,2015A,120.040,29.334,义乌市,北苑,,,,,,,,,,,,,,,,
2022-07-20T22:00:00,2016A,120.251,29.719,诸暨市,图书馆,,,,,,,,,,,,,,,,
2022-07-20T22:00:00,2017A,120.209,29.732,诸暨市,富林印务,,,,,,,,,,,,,,,,
2022-07-20T22:00:00,2018A,121.989,39.625,瓦房店市,抱龙山庄,,,,,,,,,,,,,,,,
2022-07-20T22:00:00,2019A,122.011,39.617,瓦房店市,东山公园,,,,,,,,,,,,,,,,
2022-07-20T22:00:00,2031A,113.1817,27.9958,株洲市,云田中学,,,34,23,,10,103,38,96,70,12,7,3,4,0.7,0.7
2022-07-20T22:00:00,2054A,114.1099,32.1059,信阳市,平桥分局,,21,21,12,9,12,94,58,93,74,6,8,8,8,0.7,0.7
2022-07-20T22:00:00,2064A,113.9956,32.1271,信阳市,南湾水厂,,23,17,22,11,14,94,71,87,81,5,5,5,5,0.6,0.6
2022-07-20T22:00:00,2065A,114.0775,32.1195,信阳市,市酿酒公司,,21,15,14,5,11,108,66,108,78,6,6,7,7,0.4,0.4
2022-07-20T22:00:00,2066A,114.0609,32.1399,信阳市,审计局,,28,28,24,10,15,109,65,102,81,11,8,6,6,0.8,0.9
2022-07-20T22:00:00,2067A,114.6613,33.6128,周口市,市环境监测站,,25,24,18,9,10,103,78,99,97,18,12,3,4,0.5,0.5
2022-07-20T22:00:00,2068A,114.6758,33.6347,周口市,周口师范,,27,22,18,7,6,107,86,103,102,13,10,2,4,0.5,0.5
2022-07-20T22:00:00,2069A,114.6546,33.5979,周口市,市运管处,,29,29,18,8,8,102,78,97,95,17,13,1,2,0.6,0.6
2022-07-20T22:00:00,2070A,114.6369,33.6406,周口市,川汇区环保局,,28,22,14,9,10,106,89,101,100,13,10,4,4,0.4,0.4
2022-07-20T22:00:00,2075A,117.6336,24.4674,漳州市,九湖(对照点),,,,,,,,,,,,,,,,
2022-07-20T22:00:00,2160A,112.85,35.5051,晋城市,自来水公司,,46,46,22,29,11,145,120,136,135,15,17,4,3,0.9,0.7
2022-07-20T22:00:00,2161A,112.8318,35.4936,晋城市,白云商贸,,39,39,16,27,8,148,120,139,137,13,12,3,2,0.8,0.6
2022-07-20T22:00:00,2162A,112.8508,35.4887,晋城市,市环保局,,43,43,18,24,13,147,128,141,140,12,15,3,2,0.7,0.5
2022-07-20T22:00:00,2163A,112.8676,35.4897,晋城市,技术学院,,37,34,16,19,7,141,118,135,133,15,14,2,3,0.6,0.5
2022-07-20T22:00:00,2164A,112.8271,35.4828,晋城市,泽州一中,,,,,,,,,,,,,,,,
2022-07-20T22:00:00,2165A,112.8453,35.546,晋城市,白马寺 (对照点),,,,,,,,,,,,,,,,
2022-07-20T22:00:00,2166A,112.4397,39.3522,朔州市,平朔,颗粒物(PM10),52,53,59,21,17,163,64,144,125,38,23,4,8,0.7,0.6
2022-07-20T22:00:00,2167A,112.4575,39.3617,朔州市,朔唯,颗粒物(PM10),56,61,62,19,17,166,45,143,122,51,28,6,10,0.4,0.6
2022-07-20T22:00:00,2168A,112.4258,39.3197,朔州市,区政府,,31,29,51,11,15,157,98,138,127,22,20,6,11,0.5,0.6
2022-07-20T22:00:00,2169A,112.4072,39.3278,朔州市,市环保局,,34,29,58,5,14,162,108,139,124,14,18,7,11,0.5,0.5
2022-07-20T22:00:00,2170A,112.4272,39.3681,朔州市,市二中,,44,44,60,17,20,164,55,144,118,32,27,7,11,0.6,0.6
2022-07-20T22:00:00,2171A,112.7532,37.6945,晋中市,锦纶小区,,42,42,39,15,16,200,51,174,140,54,25,8,12,0.3,0.3
2022-07-20T22:00:00,2173A,112.7249,37.7067,晋中市,南都小区,颗粒物(PM10),55,60,38,23,19,213,53,187,148,67,21,7,12,0.5,0.4
2022-07-20T22:00:00,2174A,112.6991,37.6982,晋中市,榆次区政府,颗粒物(PM10),55,60,44,35,25,212,78,186,149,39,20,9,13,0.5,0.5
2022-07-20T22:00:00,2175A,110.9956,35.0147,运城市,运城中学,,26,23,19,18,18,124,75,120,113,17,7,5,6,0.4,0.5
2022-07-20T22:00:00,2176A,111.0233,35.0611,运城市,禹都开发区,,,,,,,,,,,,,,,,
2022-07-20T22:00:00,2178A,110.9686,35.0303,运城市,地区技校,,24,22,16,9,10,127,74,122,114,17,5,5,6,0.6,0.5
2022-07-20T22:00:00,2179A,111.0414,35.1147,运城市,空港新区,颗粒物(PM10),56,61,25,19,18,126,52,119,107,34,11,8,8,0.6,0.5
2022-07-20T22:00:00,2181A,112.7383,38.4519,忻州市,开发区,,31,27,36,13,21,183,98,156,140,23,20,12,20,0.5,0.6
2022-07-20T22:00:00,2182A,112.7003,38.4928,忻州市,会展中心,,37,37,38,17,17,172,88,149,130,20,17,9,14,0.3,0.4
2022-07-20T22:00:00,2183A,111.1406,37.5211,吕梁市,环保局,颗粒物(PM10),52,53,43,12,10,147,44,133,116,57,37,9,12,0.4,0.5
2022-07-20T22:00:00,2185A,111.1297,37.5136,吕梁市,自来水公司,,47,47,43,11,15,139,95,125,121,13,31,6,10,0.4,0.6
2022-07-20T22:00:00,2186A,106.8288,39.6778,乌海市,聚英学校,,,,,,,,,,,,,,,,
2022-07-20T22:00:00,2187A,106.8174,39.6973,乌海市,市林业局,颗粒物(PM10),55,60,56,13,15,189,106,160,151,19,31,9,32,0.6,0.9
2022-07-20T22:00:00,2188A,106.7907,39.6667,乌海市,中海勃湾学校,,41,41,36,15,13,188,97,170,152,28,26,14,27,0.4,0.6
2022-07-20T22:00:00,2191A,122.2532,43.6801,通辽市,艺术职业学校,,42,42,39,7,12,90,56,85,70,18,22,3,5,0,0.2
2022-07-20T22:00:00,2192A,119.7594,49.2261,呼伦贝尔市,区环保局,颗粒物(PM10),79,107,47,36,21,125,18,112,86,58,25,5,6,0.6,0.4
2022-07-20T22:00:00,2194A,107.5936,40.916,巴彦淖尔市,秋林养殖基地(对照点),,,,,,,,,,,,,,,,
2022-07-20T22:00:00,2195A,107.4212,40.761,巴彦淖尔市,附二中,颗粒物(PM10),62,74,38,20,13,162,111,154,148,31,12,14,7,0.8,0.6
2022-07-20T22:00:00,2196A,107.37,40.7372,巴彦淖尔市,市环保大楼,颗粒物(PM10),58,66,38,27,17,152,127,145,139,21,11,25,5,0.7,0.5
2022-07-20T22:00:00,2197A,113.1306,40.9923,乌兰察布市,集宁新区,,36,33,31,17,16,127,114,124,119,7,12,6,10,0.3,0.3
2022-07-20T22:00:00,2200A,122.0392,46.0656,兴安盟,胜华新制药厂,颗粒物(PM10),53,56,34,22,11,104,5,85,56,39,17,4,3,1.0,0.5
2022-07-20T22:00:00,2201A,121.9504,46.0741,兴安盟,科右前旗环保局,,17,16,17,11,12,96,15,82,53,34,19,4,4,0.4,0.3
2022-07-20T22:00:00,2202A,116.1042,43.9317,锡林郭勒盟,市环保监测站,,24,15,17,4,6,113,74,108,96,5,9,12,11,0.6,0.5
2022-07-20T22:00:00,2203A,116.0781,43.9311,锡林郭勒盟,市政府,,26,16,10,2,4,129,81,122,109,8,6,14,9,0.5,0.4
2022-07-20T22:00:00,2204A,105.6467,38.8363,阿拉善盟,西城区西花园(对照点),,42,35,30,19,14,150,132,144,142,8,7,4,4,0.3,0.3
2022-07-20T22:00:00,2205A,105.6985,38.8411,阿拉善盟,蒙二幼,,,41,30,,18,149,129,143,141,6,6,7,10,0.2,0.3
2022-07-20T22:00:00,2206A,105.724,38.8516,阿拉善盟,环保局新楼,,44,34,24,23,19,147,139,139,139,7,7,8,8,0.4,0.4
2022-07-20T22:00:00,2207A,121.6094,41.998,阜新市,工业园区,,22,22,44,13,20,190,62,134,89,18,20,4,15,0.4,0.6
2022-07-20T22:00:00,2208A,121.6697,42.0279,阜新市,长青街,,39,38,48,27,27,164,46,115,72,16,19,8,15,0.5,0.5
2022-07-20T22:00:00,2209A,121.6673,42.0705,阜新市,农业园区,颗粒物(PM10),67,83,50,19,24,179,67,126,88,11,13,8,14,0.6,0.7
2022-07-20T22:00:00,2210A,121.6717,42.0224,阜新市,东苑,颗粒物(PM10),54,58,65,21,26,157,55,123,83,22,20,11,19,0.6,0.6
2022-07-20T22:00:00,2211A,121.6506,42.0498,阜新市,玉龙新城,,44,44,41,14,17,160,35,110,71,22,18,6,10,0.5,0.5
2022-07-20T22:00:00,2212A,123.2,41.1953,辽阳市,宏伟区,,22,17,35,15,18,118,69,97,82,30,20,9,7,0.7,0.5
2022-07-20T22:00:00,2213A,123.1683,41.2495,辽阳市,新华园,,47,47,53,27,27,124,62,104,81,40,30,11,9,0.9,0.8
2022-07-20T22:00:00,2214A,123.2354,41.2639,辽阳市,滨河路,,39,33,58,27,30,121,73,102,87,16,22,9,9,0.8,0.9
2022-07-20T22:00:00,2215A,123.149,41.2991,辽阳市,铁西工业园,细颗粒物(PM2.5),60,63,71,43,40,121,46,107,80,44,35,6,6,1.6,1.4
2022-07-20T22:00:00,2216A,123.8139,42.3022,铁岭市,汇工街西,,25,12,51,8,25,180,78,150,117,18,24,6,14,0.4,0.5
2022-07-20T22:00:00,2217A,123.8649,42.2923,铁岭市,水上乐园,,20,13,41,14,20,147,64,128,96,29,19,5,7,0.3,0.4
2022-07-20T22:00:00,2218A,123.8486,42.2867,铁岭市,银州路东段,,23,9,55,9,31,143,72,129,101,21,22,6,7,0.4,0.5
2022-07-20T22:00:00,2219A,123.7153,42.2217,铁岭市,金沙江路北,,24,12,36,10,16,158,74,130,99,17,28,7,7,0.5,0.7
2022-07-20T22:00:00,2220A,120.4318,41.5881,朝阳市,西梁,,22,14,50,13,16,136,70,105,84,11,19,6,8,0.7,0.9
2022-07-20T22:00:00,2221A,120.4521,41.5646,朝阳市,河畔小区,,25,15,39,14,17,133,77,109,90,7,12,8,8,0.5,0.7
2022-07-20T22:00:00,2222A,120.4176,41.5648,朝阳市,八里堡,,,,42,,16,73,,69,,,15,,7,,0.8
2022-07-20T22:00:00,2223A,120.3806,41.5969,朝阳市,农业园区,,18,7,34,12,17,150,55,104,75,11,14,6,7,0.5,0.6
2022-07-20T22:00:00,2225A,124.4002,43.1713,四平市,一商场,,40,40,23,23,14,82,48,68,53,23,19,1,3,0.5,0.4
2022-07-20T22:00:00,2226A,124.388,43.193,四平市,境园,,32,25,23,22,12,64,36,56,45,19,15,7,7,0.4,0.5
2022-07-20T22:00:00,2227A,125.1358,42.8845,辽源市,环保局,,17,17,21,11,12,106,39,75,46,8,19,7,8,0.5,0.5
2022-07-20T22:00:00,2229A,125.9358,41.7173,通化市,光明,,20,17,22,9,10,84,62,77,60,10,13,8,8,0.6,0.6
2022-07-20T22:00:00,2230A,125.9446,41.7325,通化市,铁路,,23,23,26,6,11,103,70,81,59,8,19,7,8,0.6,0.9
2022-07-20T22:00:00,2231A,126.4219,41.9171,白山市,喜丰,,26,26,28,13,13,96,25,82,67,15,15,8,7,0.7,0.7
2022-07-20T22:00:00,2232A,126.4077,41.9419,白山市,环保局,,35,35,32,13,17,92,16,71,57,16,17,6,6,0.5,0.4
2022-07-20T22:00:00,2233A,124.8006,45.1214,松原市,江南,,30,22,22,21,11,106,24,94,75,48,19,1,4,0.7,0.4
2022-07-20T22:00:00,2234A,124.7965,45.1722,松原市,江北,,29,20,16,20,7,111,34,100,78,19,14,1,1,0.4,0.4
2022-07-20T22:00:00,2235A,122.7911,45.6077,白城市,洮北区环保局,,,33,24,21,13,118,,109,97,31,20,5,4,0.3,0.2
2022-07-20T22:00:00,2236A,122.8738,45.5725,白城市,市环保局,,43,43,24,24,11,104,40,95,69,32,17,2,6,0.4,0.3
2022-07-20T22:00:00,2237A,129.47,42.8883,延边朝鲜族自治州,妇幼医院,,19,19,23,9,9,99,36,91,68,8,9,7,7,0.5,0.4
2022-07-20T22:00:00,2238A,129.5055,42.9108,延边朝鲜族自治州,延边医院,,,,,,,,,,,,,,,,
2022-07-20T22:00:00,2239A,129.3964,42.8881,延边朝鲜族自治州,朝阳川镇医院,,29,29,22,12,7,94,38,88,63,8,9,7,7,0.3,0.3
2022-07-20T22:00:00,2240A,130.9762,45.3001,鸡西市,环保局,颗粒物(PM10),57,63,24,20,12,88,6,76,54,38,18,2,2,0.6,0.4
2022-07-20T22:00:00,2243A,130.9429,45.3039,鸡西市,第一中学,颗粒物(PM10),86,121,31,25,10,91,2,76,45,36,14,3,3,0.6,0.3
2022-07-20T22:00:00,2244A,130.2537,47.3416,鹤岗市,哈啤分公司,,15,12,12,10,6,87,4,65,35,14,12,6,7,0.3,0.3
2022-07-20T22:00:00,2245A,130.2684,47.3086,鹤岗市,斯达机电,,30,30,17,12,6,100,32,66,48,23,11,6,8,0.3,0.3
2022-07-20T22:00:00,2246A,130.3114,47.3388,鹤岗市,东山纸板厂,,41,41,31,15,11,82,4,62,37,33,17,8,9,0.5,0.4
2022-07-20T22:00:00,2247A,130.1097,47.3382,鹤岗市,五号水库(对照点),,9,9,5,4,5,69,10,61,31,11,10,9,10,0.2,0.2
2022-07-20T22:00:00,2248A,131.1511,46.6937,双鸭山市,双合村,,23,23,30,5,14,85,3,74,38,28,16,4,8,0.3,0.9
2022-07-20T22:00:00,2249A,131.1652,46.6191,双鸭山市,南小市,,39,39,28,18,10,91,8,76,52,28,11,8,7,0.2,0.2
2022-07-20T22:00:00,2250A,131.1524,46.6554,双鸭山市,环保局,,31,31,16,8,5,76,8,65,47,28,12,2,3,0.6,0.5
2022-07-20T22:00:00,2251A,131.12,46.5656,双鸭山市,苗圃(对照点),,45,32,17,31,15,87,14,67,46,5,5,3,3,0.6,0.5
2022-07-20T22:00:00,2252A,128.5159,47.4311,伊春市,环保局,,17,17,15,9,8,71,0,49,17,15,10,6,4,0.4,0.3
2022-07-20T22:00:00,2253A,128.9102,47.7412,伊春市,电力嘉园,,11,11,9,6,5,78,2,58,22,16,6,6,6,0.4,0.4
2022-07-20T22:00:00,2254A,129.5029,48.471,伊春市,汤旺河国家公园(对照点),,13,6,7,9,6,48,0,41,21,2,2,6,6,0.3,0.3
2022-07-20T22:00:00,2255A,130.2751,46.8028,佳木斯市,佳纺,,34,34,24,17,11,78,6,66,48,34,20,5,5,0.5,0.4
2022-07-20T22:00:00,2256A,130.3995,46.8307,佳木斯市,发电厂,,19,17,31,13,14,74,12,55,45,18,21,2,3,0.5,0.4
2022-07-20T22:00:00,2257A,130.3258,46.7975,佳木斯市,环保局,,49,49,25,22,12,79,6,61,40,51,27,1,2,0.7,0.5
2022-07-20T22:00:00,2258A,130.3648,46.8032,佳木斯市,十一中,,40,40,30,26,18,77,6,54,42,52,31,5,5,0.7,0.4
2022-07-20T22:00:00,2259A,130.3794,46.7588,佳木斯市,四丰(对照点),,20,20,12,14,8,89,14,76,48,25,19,1,1,0.4,0.4
2022-07-20T22:00:00,2262A,131.0518,45.8751,七台河市,新一中(对照点),,17,11,10,9,8,121,21,113,74,34,16,6,7,0.6,0.6
2022-07-20T22:00:00,2263A,127.4833,50.2524,黑河市,交通局,,32,32,25,9,5,59,25,53,39,8,4,4,5,0.5,0.4
2022-07-20T22:00:00,2264A,127.5144,50.2341,黑河市,环保局,,23,23,21,13,10,59,27,54,41,9,8,5,8,0.4,0.3
2022-07-20T22:00:00,2265A,127.5291,50.2472,黑河市,大黑河岛(对照点),,23,22,11,16,7,61,13,58,36,12,5,10,7,0.8,0.6
2022-07-20T22:00:00,2266A,126.9785,46.6365,绥化市,人和东街,,46,46,24,26,12,116,16,104,76,58,21,8,11,0.6,0.4
2022-07-20T22:00:00,2267A,126.964,46.6528,绥化市,党政办公中心,,25,18,16,17,9,106,28,93,78,48,16,5,8,0.5,0.4
2022-07-20T22:00:00,2269A,124.1069,50.4097,大兴安岭地区,科技局,,35,17,10,24,9,59,16,54,43,13,5,2,2,0.4,0.3
2022-07-20T22:00:00,2270A,117.396,32.939,蚌埠市,工人疗养院,,27,10,22,12,13,112,85,84,84,11,4,8,8,0.3,0.3
2022-07-20T22:00:00,2271A,117.3605,32.9427,蚌埠市,百货大楼,,27,17,21,4,12,109,84,84,84,13,9,7,7,0.4,0.4
2022-07-20T22:00:00,2273A,117.4185,32.8911,蚌埠市,蚌埠学院,,22,14,19,12,11,108,70,80,80,7,5,4,4,0.4,0.4
2022-07-20T22:00:00,2274A,117.3533,32.9673,蚌埠市,淮上区政府,,27,27,27,7,11,107,85,84,84,8,6,8,8,0.4,0.4
2022-07-20T22:00:00,2275A,117.3145,32.8977,蚌埠市,高新区,,30,14,22,17,16,107,94,87,87,9,9,7,8,0.6,0.5
2022-07-20T22:00:00,2277A,116.8305,32.7727,淮南市,潘集区政府,,20,20,18,11,13,103,63,81,80,16,11,6,6,0.2,0.2
2022-07-20T22:00:00,2278A,117.0067,32.6524,淮南市,师范学院,,26,26,26,3,14,115,80,80,80,3,5,5,5,0.2,0.2
2022-07-20T22:00:00,2279A,116.8569,32.5951,淮南市,谢家集区政府,,21,21,11,6,7,104,63,77,76,10,9,5,5,0.2,0.2
2022-07-20T22:00:00,2280A,116.8281,32.633,淮南市,八公山区政府,,20,18,19,10,12,99,63,74,74,7,8,7,6,0.3,0.3
2022-07-20T22:00:00,2281A,116.6325,32.6201,淮南市,焦岗湖风景区管理处(对照点),细颗粒物(PM2.5),52,20,18,36,8,99,64,74,70,8,8,6,6,0.2,0.2
2022-07-20T22:00:00,2282A,116.8004,33.975,淮北市,监测站,,29,26,28,20,16,121,79,106,99,8,8,4,4,0.5,0.6
2022-07-20T22:00:00,2283A,116.8091,33.9007,淮北市,烈山区政府,,29,25,19,20,21,129,76,109,103,10,8,5,5,0.7,0.7
2022-07-20T22:00:00,2284A,116.7856,33.9477,淮北市,职业技术学院,,32,25,24,22,15,123,75,105,97,6,6,6,6,0.6,0.6
2022-07-20T22:00:00,2285A,117.8177,30.9412,铜陵市,市第四中学,,20,11,29,3,12,86,61,82,71,8,11,6,8,0.3,0.4
2022-07-20T22:00:00,2286A,117.8059,30.9273,铜陵市,市公路局,,17,17,28,9,11,81,48,77,66,7,11,6,6,0.3,0.5
2022-07-20T22:00:00,2287A,117.7807,30.9413,铜陵市,市新民污水厂,,19,17,24,10,13,65,38,62,51,37,20,25,8,0.2,0.3
2022-07-20T22:00:00,2288A,117.7439,30.8792,铜陵市,市第九中学,,22,21,31,15,15,74,51,70,64,12,13,5,6,0.3,0.6
2022-07-20T22:00:00,2289A,117.846,30.9413,铜陵市,车站新区,,19,9,15,1,11,81,58,74,66,9,11,9,8,0.4,0.5
2022-07-20T22:00:00,2290A,117.8483,30.97,铜陵市,市职教基地,,18,18,23,6,6,77,50,74,64,8,9,5,6,0.6,0.7
2022-07-20T22:00:00,2291A,117.0809,30.5177,安庆市,环科院,,17,13,23,7,12,102,53,93,77,8,11,4,5,0.5,0.5
2022-07-20T22:00:00,2292A,117.0331,30.5119,安庆市,马山宾馆,,15,8,22,7,13,99,48,93,76,11,14,4,5,0.5,0.5
2022-07-20T22:00:00,2294A,116.9896,30.6145,安庆市,安庆大学,,16,11,26,4,11,105,50,94,75,12,14,4,4,0.3,0.4
2022-07-20T22:00:00,2295A,118.2903,29.6963,黄山市,延安路89号,,26,26,35,7,5,82,47,76,71,6,3,5,5,0.2,0.2
2022-07-20T22:00:00,2296A,118.327,29.7178,黄山市,黄山东路89号,,17,17,16,2,4,80,45,74,69,6,3,4,4,0.4,0.4
2022-07-20T22:00:00,2297A,118.1371,30.2756,黄山市,黄山区政府5号楼,,21,14,19,8,6,87,66,80,78,2,3,5,7,0.3,0.3
2022-07-20T22:00:00,2298A,118.3093,32.3153,滁州市,老年大学,,43,43,21,13,10,94,76,71,70,9,13,3,4,0.2,0.2
2022-07-20T22:00:00,2299A,118.3244,32.2786,滁州市,人大宾馆,,23,8,13,10,8,94,72,72,69,11,14,5,9,0.3,0.4
2022-07-20T22:00:00,2301A,115.8277,32.8929,阜阳市,市监测站,,25,17,14,5,8,127,78,114,79,8,9,6,6,0.4,0.5
2022-07-20T22:00:00,2303A,115.8554,32.8605,阜阳市,开发区,,21,15,13,4,10,124,67,103,74,11,11,6,6,0.4,0.5
2022-07-20T22:00:00,2306A,116.989,33.6306,宿州市,火车站,,,,,,,,,,,,,,,,
2022-07-20T22:00:00,2307A,116.5079,31.737,六安市,监测大楼,,22,20,14,12,8,72,68,67,67,5,6,7,6,0.5,0.2
2022-07-20T22:00:00,2308A,116.4738,31.7643,六安市,皖西学院,,22,9,9,6,5,76,69,72,72,4,4,10,10,0.3,0.3
2022-07-20T22:00:00,2309A,116.4996,31.7905,六安市,朝阳厂,,22,11,9,15,9,61,57,58,58,2,5,8,8,0.4,0.4
2022-07-20T22:00:00,2310A,116.5567,31.7886,六安市,开发区,,21,12,12,11,10,73,65,68,68,9,10,5,5,0.4,0.4
2022-07-20T22:00:00,2311A,115.8072,33.8399,亳州市,污水处理厂,,23,20,23,16,17,114,73,109,83,11,7,5,6,0.4,0.6
2022-07-20T22:00:00,2312A,115.7789,33.8518,亳州市,三国揽胜宫,,23,22,24,9,13,118,72,114,85,7,7,6,6,0.4,0.5
2022-07-20T22:00:00,2314A,117.47,30.6618,池州市,池州学院,,19,9,20,5,11,88,58,81,75,3,5,5,5,0.2,0.2
2022-07-20T22:00:00,2315A,117.4974,30.6539,池州市,平天湖(对照点),,,,,,,,,,,,,,,,
2022-07-20T22:00:00,2316A,118.7581,30.9454,宣城市,鳌峰子站,,19,8,20,5,10,70,59,61,60,8,12,5,6,0.3,0.3
2022-07-20T22:00:00,2317A,118.7385,30.9743,宣城市,敬亭山子站,,17,5,19,6,9,60,52,58,57,18,15,5,5,0.3,0.3
2022-07-20T22:00:00,2318A,118.7173,30.9427,宣城市,开发区子站,,,,9,5,9,68,60,65,64,10,10,6,5,0.3,0.3
2022-07-20T22:00:00,2319A,119.0141,25.4325,莆田市,荔城区仓后路,,32,32,30,15,11,80,28,65,54,16,15,4,4,0.7,0.7
2022-07-20T22:00:00,2320A,119.0015,25.4553,莆田市,莆田市监测站,,28,28,24,12,12,91,40,77,68,10,10,5,6,0.7,0.7
2022-07-20T22:00:00,2321A,119.1119,25.4561,莆田市,涵江区六中,,40,40,32,26,19,86,10,69,53,29,18,7,8,0.6,0.5
2022-07-20T22:00:00,2322A,119.1013,25.3215,莆田市,秀屿区政府,,17,17,25,9,9,75,24,53,46,12,12,7,7,0.6,0.6
2022-07-20T22:00:00,2323A,118.981,25.4792,莆田市,东圳水库(对照点),,,,,,,,,,,,,,,,
2022-07-20T22:00:00,2324A,117.6211,26.2625,三明市,三钢,,37,37,30,11,14,82,22,73,50,20,18,4,8,0.4,0.8
2022-07-20T22:00:00,2325A,117.635,26.2714,三明市,三明二中,,17,17,23,10,9,86,5,75,48,27,16,5,9,1.1,1
2022-07-20T22:00:00,2326A,117.6028,26.2378,三明市,三元区政府,,41,41,29,12,14,89,7,73,51,28,16,7,8,0.5,0.4
2022-07-20T22:00:00,2327A,117.7275,26.3108,三明市,洋溪(对照点),,,,,,,,,,,,,,,,
2022-07-20T22:00:00,2331A,118.0966,26.6761,南平市,茫荡山(对照点),,,,,,,,,,,,,,,,
2022-07-20T22:00:00,2332A,118.1681,26.6369,南平市,南平市监测站,,21,21,19,4,10,95,23,80,69,19,10,5,5,0.6,0.5
2022-07-20T22:00:00,2333A,118.1825,26.6489,南平市,南平铝业有限公司,,24,24,24,11,20,85,16,74,57,21,9,3,3,0.8,0.6
2022-07-20T22:00:00,2334A,118.1756,26.6272,南平市,南平七中,,,25,28,9,14,88,29,77,63,15,9,,6,0.6,0.7
2022-07-20T22:00:00,2335A,117.0189,25.1181,龙岩市,龙岩师专(对照点),,,,,,,,,,,,,,,,
2022-07-20T22:00:00,2336A,117.0217,25.1033,龙岩市,龙岩市监测站,,26,26,21,8,7,54,20,50,44,21,14,6,7,0.6,0.4
2022-07-20T22:00:00,2337A,117.0258,25.0661,龙岩市,闽西职业技术学院,,33,33,24,11,9,50,7,48,38,28,12,14,10,0.5,0.5
2022-07-20T22:00:00,2338A,117.0196,25.0306,龙岩市,龙岩学院,,10,3,15,7,8,53,30,47,43,8,7,4,5,0.4,0.4
2022-07-20T22:00:00,2339A,119.5001,26.6946,宁德市,金涵水库(对照点),,8,8,24,4,9,86,17,54,42,6,9,4,4,0.2,0.3
2022-07-20T22:00:00,2341A,119.5388,26.6612,宁德市,宁德市监测站,,19,9,39,13,17,68,15,54,42,24,16,6,5,0.5,0.6
2022-07-20T22:00:00,2342A,117.3102,29.3867,景德镇市,王港中学(对照点),,40,40,27,26,17,127,53,114,90,6,16,5,5,0.4,0.4
2022-07-20T22:00:00,2343A,117.2117,29.2933,景德镇市,老干部活动中心,,35,35,37,10,15,95,56,83,71,12,11,7,10,0.4,0.5
2022-07-20T22:00:00,2344A,117.1894,29.2789,景德镇市,兽医站,,36,36,30,20,15,96,34,83,60,36,16,26,10,0.7,0.6
2022-07-20T22:00:00,2345A,117.1547,29.2617,景德镇市,台达陶瓷,,44,44,32,16,15,89,43,78,63,25,15,39,25,0.3,0.3
2022-07-20T22:00:00,2346A,117.2461,29.2956,景德镇市,陶研所,,34,34,25,8,12,94,58,87,74,8,6,4,6,0.3,0.3
2022-07-20T22:00:00,2347A,114.0997,27.5002,萍乡市,武功山(对照点),,14,2,6,1,3,64,31,60,49,10,6,41,45,0.3,0.3
2022-07-20T22:00:00,2348A,113.8385,27.6434,萍乡市,中医院,,19,12,24,10,18,91,60,82,80,14,14,6,13,0.4,0.6
2022-07-20T22:00:00,2349A,113.8493,27.6253,萍乡市,市政府车库,,25,25,35,16,22,106,41,96,88,23,22,9,21,0.5,1.4
2022-07-20T22:00:00,2350A,113.8676,27.6435,萍乡市,市环保局,,26,16,24,18,19,102,62,88,86,14,14,7,16,0.3,0.4
2022-07-20T22:00:00,2351A,113.866,27.6198,萍乡市,安源区政府,,19,11,31,12,19,102,58,89,87,10,13,4,7,0.3,0.7
2022-07-20T22:00:00,2352A,115.0861,27.9317,新余市,北岗(对照点),,22,18,21,15,14,85,32,80,61,9,7,7,7,0.4,0.5
2022-07-20T22:00:00,2353A,114.9886,27.8431,新余市,飞宇,颗粒物(PM10),51,51,72,19,29,83,29,79,60,16,14,8,8,0.8,0.7
2022-07-20T22:00:00,2354A,114.9231,27.8246,新余市,第二水厂,,31,31,48,15,17,89,28,86,65,27,17,7,17,0.7,1.2
2022-07-20T22:00:00,2355A,114.9308,27.8036,新余市,市气象局,,34,34,58,22,33,72,26,61,54,22,27,6,21,1.2,2.7
2022-07-20T22:00:00,2357A,116.9822,28.1136,鹰潭市,龙虎山(对照点),,16,16,19,7,6,50,45,49,49,6,5,1,2,0.4,0.4
2022-07-20T22:00:00,2358A,117.0564,28.2642,鹰潭市,新监测站,,24,24,21,2,9,114,38,53,43,3,3,1,9,0.3,0.4
2022-07-20T22:00:00,2359A,117.0311,28.2475,鹰潭市,财苑宾馆,,25,25,24,7,4,56,38,51,47,4,6,3,5,0.2,0.3
2022-07-20T22:00:00,2360A,117.0222,28.2264,鹰潭市,体育馆,,19,19,22,5,8,55,40,50,46,2,6,1,2,0.2,0.5
2022-07-20T22:00:00,2361A,117.0017,28.2131,鹰潭市,三川水表,,19,19,22,2,5,50,38,46,43,2,3,3,3,0.2,0.2
2022-07-20T22:00:00,2362A,114.9017,25.9149,赣州市,通天岩(对照点),,36,27,21,25,11,71,13,60,44,36,10,5,7,0.4,0.4
2022-07-20T22:00:00,2363A,114.9367,25.8664,赣州市,地委,,31,31,22,9,10,80,43,67,58,12,9,10,12,0.7,0.8
2022-07-20T22:00:00,2364A,114.9461,25.8481,赣州市,气象台,,22,22,19,8,12,77,48,69,62,8,7,6,8,0.7,0.6
2022-07-20T22:00:00,2365A,114.9322,25.8333,赣州市,市图书馆,,32,32,19,10,10,86,50,79,71,17,11,4,6,0.8,0.8
2022-07-20T22:00:00,2366A,114.8905,25.8471,赣州市,华坚鞋城,,38,38,28,17,13,72,43,65,59,14,9,5,6,0.7,0.7
2022-07-20T22:00:00,2367A,114.9754,27.0803,吉安市,红声器材厂,,35,35,28,10,11,87,44,79,65,12,6,5,6,0.5,0.5
2022-07-20T22:00:00,2368A,114.9658,27.0999,吉安市,市森林工业局,,,,28,,14,90,35,82,70,14,7,6,6,0.6,0.4
2022-07-20T22:00:00,2369A,114.99,27.1312,吉安市,市环境监测站,,23,23,25,12,10,89,50,80,67,12,6,6,7,0.7,0.5
2022-07-20T22:00:00,2370A,115.0093,27.0968,吉安市,青原区法院,,29,29,25,12,12,89,40,79,66,14,4,9,10,0.4,0.3
2022-07-20T22:00:00,2371A,114.3408,27.8064,宜春市,槟榔水业(对照点),,,,,,,,,,,,,,,,
2022-07-20T22:00:00,2373A,114.3956,27.7844,宜春市,市石油公司,,30,30,36,15,20,100,31,92,66,16,16,4,5,1.0,1
2022-07-20T22:00:00,2374A,114.3703,27.7914,宜春市,市气象局,,36,36,36,17,17,104,29,94,68,20,14,4,4,1.0,0.8
2022-07-20T22:00:00,2375A,114.4013,27.8074,宜春市,市广电局,,,,35,,21,104,,93,76,16,12,,3,0,0.8
2022-07-20T22:00:00,2376A,116.2127,28.0814,抚州市,桐源党溪(对照点),,26,26,26,14,13,60,21,52,34,7,6,3,2,0.8,0.8
2022-07-20T22:00:00,2377A,116.3544,27.9831,抚州市,市站,,22,22,23,12,11,59,36,56,45,6,7,3,2,0.3,0.4
2022-07-20T22:00:00,2378A,116.3565,27.963,抚州市,血防站,,26,26,21,15,12,78,41,71,50,12,9,4,3,0.4,0.6
2022-07-20T22:00:00,2379A,116.3564,28.0007,抚州市,采茶剧团,,26,26,24,14,12,62,39,58,48,4,6,4,4,0.4,0.4
2022-07-20T22:00:00,2380A,116.385,27.9647,抚州市,医学分院,,26,26,26,13,12,62,39,59,48,5,10,4,4,0.3,0.3
2022-07-20T22:00:00,2381A,118.005,28.4572,上饶市,百草园(对照点),,,,,,,,,,,,,,,,
2022-07-20T22:00:00,2382A,117.9756,28.4436,上饶市,市监测站,,34,34,40,15,22,96,18,68,49,22,16,6,14,0.7,0.7
2022-07-20T22:00:00,2383A,117.9519,28.4628,上饶市,凤凰光学,,,,41,,18,36,,24,,,14,,22,,0.7
2022-07-20T22:00:00,2385A,114.17,35.9019,鹤壁市,市监测站,颗粒物(PM10),60,69,31,28,12,150,74,135,119,16,9,3,4,1.0,0.5
