timepoint,stationcode,longitude,latitude,area,positionname,primarypollutant,aqi,pm10,pm10_24h,pm2_5,pm2_5_24h,o3,o3_24h,o3_8h,o3_8h_24h,no2,no2_24h,so2,so2_24h,co,co_24h
2022-04-08T09:00:00,1001A,116.3621,39.8784,北京市,万寿西宫,细颗粒物(PM2.5),112,139,112,84,54,116,70,60,54,42,41,9,3,1.3,0.8
2022-04-08T09:00:00,1002A,116.2202,40.2915,北京市,定陵(对照点),细颗粒物(PM2.5),93,124,97,69,39,87,63,48,40,29,31,5,2,1.1,0.6
2022-04-08T09:00:00,1003A,116.4174,39.9289,北京市,东四,细颗粒物(PM2.5),89,126,110,66,48,115,87,62,55,36,38,9,2,1.2,0.7
2022-04-08T09:00:00,1004A,116.4072,39.8863,北京市,天坛,细颗粒物(PM2.5),104,131,106,78,53,112,63,63,40,37,35,8,2,1.3,0.8
2022-04-08T09:00:00,1005A,116.462,39.9365,北京市,农展馆,细颗粒物(PM2.5),97,127,113,72,50,97,73,63,45,39,41,15,5,1.4,0.8
2022-04-08T09:00:00,1006A,116.3392,39.9295,北京市,官园,细颗粒物(PM2.5),107,137,113,80,53,105,68,47,37,35,37,13,6,1.3,0.8
2022-04-08T09:00:00,1007A,116.2878,39.9611,北京市,海淀万柳,"颗粒物(PM10),细颗粒物(PM2.5)",107,163,122,80,52,107,46,39,22,42,53,10,4,1.3,0.8
2022-04-08T09:00:00,1008A,116.6636,40.135,北京市,顺义新城,颗粒物(PM10),92,133,102,61,41,88,53,61,50,51,33,13,6,1.4,0.8
2022-04-08T09:00:00,1009A,116.6275,40.3275,北京市,怀柔镇,细颗粒物(PM2.5),88,120,93,65,40,92,85,69,56,15,27,10,3,1.3,0.8
2022-04-08T09:00:00,1010A,116.2296,40.217,北京市,昌平镇,颗粒物(PM10),152,253,143,113,56,75,57,70,40,31,39,7,2,1.3,0.7
2022-04-08T09:00:00,1011A,116.3966,39.9821,北京市,奥体中心,细颗粒物(PM2.5),104,139,113,78,50,89,73,51,34,36,47,15,4,1.3,0.8
2022-04-08T09:00:00,1012A,116.184,39.9136,北京市,古城,细颗粒物(PM2.5),113,172,141,85,59,102,58,26,23,34,57,8,2,1.3,0.8
2022-04-08T09:00:00,1015A,117.1444,39.1661,天津市,勤俭道,细颗粒物(PM2.5),192,228,125,144,60,145,88,57,37,30,43,12,10,0.9,0.9
2022-04-08T09:00:00,1017A,117.237,39.1082,天津市,大直沽八号路,细颗粒物(PM2.5),172,209,124,130,68,145,96,76,41,28,45,14,11,1.0,1
2022-04-08T09:00:00,1018A,117.202,39.0927,天津市,前进道,细颗粒物(PM2.5),142,175,123,108,62,143,87,64,50,30,38,11,8,1.1,0.9
2022-04-08T09:00:00,1019A,117.1837,39.2133,天津市,淮河道,细颗粒物(PM2.5),150,187,132,115,63,145,34,39,25,70,54,12,12,1.2,1.2
2022-04-08T09:00:00,1021A,117.307,39.0877,天津市,跃进路,细颗粒物(PM2.5),173,220,124,131,66,150,88,83,33,33,46,10,8,0.9,0.9
2022-04-08T09:00:00,1023A,117.707,39.0343,天津市,第四大街,细颗粒物(PM2.5),175,223,129,132,58,116,69,47,14,36,76,6,9,1.0,0.7
2022-04-08T09:00:00,1024A,117.457,38.8394,天津市,永明路,细颗粒物(PM2.5),185,198,114,139,62,140,84,94,46,24,36,13,11,1.2,0.8
2022-04-08T09:00:00,1026A,117.764,39.1587,天津市,汉北路,细颗粒物(PM2.5),143,162,91,109,43,115,40,108,77,62,34,11,8,1.1,0.8
2022-04-08T09:00:00,1027A,117.157,38.9194,天津市,团泊洼(对照点),细颗粒物(PM2.5),156,152,100,119,60,139,101,72,47,23,46,11,8,0.9,0.7
2022-04-08T09:00:00,1029A,114.4422,38.0444,石家庄市,职工医院,颗粒物(PM10),101,152,121,51,47,118,39,55,16,57,49,8,9,0.9,0.8
2022-04-08T09:00:00,1030A,114.6063,38.0266,石家庄市,高新区,颗粒物(PM10),120,190,129,66,45,123,38,72,29,57,33,14,12,1.2,1.1
2022-04-08T09:00:00,1031A,114.4898,38.1328,石家庄市,西北水源,颗粒物(PM10),100,149,121,54,42,122,52,28,16,30,40,5,5,0.8,0.8
2022-04-08T09:00:00,1032A,114.4586,38.0058,石家庄市,西南高教,颗粒物(PM10),109,167,121,66,48,122,43,49,12,43,32,6,7,1.1,1
2022-04-08T09:00:00,1033A,114.5331,38.0178,石家庄市,世纪公园,细颗粒物(PM2.5),97,135,113,72,51,119,50,63,18,40,31,10,9,1.1,1
2022-04-08T09:00:00,1034A,114.509,38.0457,石家庄市,人民会堂,颗粒物(PM10),107,164,124,77,58,130,64,73,43,41,41,11,11,1.0,0.9
2022-04-08T09:00:00,1035A,114.3524,37.8911,石家庄市,封龙山(对照点),颗粒物(PM10),59,67,76,35,29,155,126,155,124,15,14,30,26,0.8,0.8
2022-04-08T09:00:00,1037A,118.131,39.6363,唐山市,雷达站,细颗粒物(PM2.5),113,132,94,85,51,150,73,75,66,33,26,23,12,1.5,1.3
2022-04-08T09:00:00,1038A,118.1725,39.6334,唐山市,物资局,细颗粒物(PM2.5),100,131,103,75,41,141,68,66,61,50,37,28,14,1.7,1.2
2022-04-08T09:00:00,1040A,118.1705,39.6506,唐山市,十二中,细颗粒物(PM2.5),109,123,89,82,48,146,69,58,53,47,38,29,13,1.6,1.2
2022-04-08T09:00:00,1041A,118.1869,39.622,唐山市,小山,颗粒物(PM10),91,132,94,44,39,154,64,65,61,41,32,25,13,1.6,1.1
2022-04-08T09:00:00,1042A,119.5134,39.8207,秦皇岛市,北戴河环保局,,46,46,42,20,19,103,96,72,72,28,28,13,10,1.2,1.2
2022-04-08T09:00:00,1043A,119.7493,40.0116,秦皇岛市,第一关,颗粒物(PM10),68,86,64,41,25,127,96,38,38,27,41,15,11,0.6,0.5
2022-04-08T09:00:00,1044A,119.5897,39.9499,秦皇岛市,监测站,细颗粒物(PM2.5),67,77,56,48,19,125,114,68,51,31,28,11,7,1.2,0.8
2022-04-08T09:00:00,1046A,119.5251,39.9041,秦皇岛市,建设大厦,颗粒物(PM10),62,74,55,26,23,132,114,76,76,32,28,15,8,1.1,0.6
2022-04-08T09:00:00,1048A,114.5302,36.6116,邯郸市,东污水处理厂,细颗粒物(PM2.5),119,120,117,90,71,146,56,84,54,16,19,16,20,0.2,0.3
2022-04-08T09:00:00,1049A,114.4918,36.5713,邯郸市,矿院,细颗粒物(PM2.5),113,137,134,85,67,156,61,84,58,13,16,6,11,0.7,0.8
2022-04-08T09:00:00,1050A,114.484,36.6133,邯郸市,丛台公园,细颗粒物(PM2.5),105,125,128,79,60,157,65,90,63,18,20,7,11,0.8,0.9
2022-04-08T09:00:00,1051A,115.493,38.8632,保定市,游泳馆,颗粒物(PM10),91,132,110,67,42,139,38,78,50,45,27,12,11,0.6,0.5
2022-04-08T09:00:00,1053A,115.4713,38.9108,保定市,接待中心,颗粒物(PM10),90,130,109,62,43,143,30,90,45,52,32,13,11,0.9,0.7
2022-04-08T09:00:00,1054A,115.4612,38.8416,保定市,地表水厂,颗粒物(PM10),107,164,115,68,41,142,46,65,54,40,27,8,8,0.7,0.6
2022-04-08T09:00:00,1055A,115.4323,38.8697,保定市,胶片厂,细颗粒物(PM2.5),83,113,87,61,40,146,36,82,48,44,23,11,10,0.8,0.7
2022-04-08T09:00:00,1056A,115.5086,38.8639,保定市,监测站,细颗粒物(PM2.5),93,131,102,69,49,140,32,80,40,45,26,8,8,0.8,0.7
2022-04-08T09:00:00,1057A,114.8883,40.8336,张家口市,人民公园,颗粒物(PM10),54,58,41,18,9,110,56,61,54,12,10,5,4,0.3,0.3
2022-04-08T09:00:00,1059A,114.8687,40.8042,张家口市,五金库,颗粒物(PM10),57,63,46,27,19,111,56,61,56,19,18,7,6,0.6,0.5
2022-04-08T09:00:00,1060A,114.8902,40.762,张家口市,世纪豪园,颗粒物(PM10),51,51,50,20,19,116,58,54,54,22,20,4,4,0.6,0.5
2022-04-08T09:00:00,1061A,114.8916,40.8661,张家口市,北泵房(对照点),,44,44,41,18,18,106,64,55,52,7,9,8,8,0.3,0.4
2022-04-08T09:00:00,1062A,117.9531,40.9081,承德市,铁路,颗粒物(PM10),69,88,70,31,24,91,33,70,36,42,29,8,9,0.6,0.5
2022-04-08T09:00:00,1063A,117.9392,40.9763,承德市,中国银行,颗粒物(PM10),69,88,61,25,19,96,28,12,12,34,32,10,7,0.5,0.5
2022-04-08T09:00:00,1064A,117.9503,40.928,承德市,开发区,颗粒物(PM10),62,74,58,28,23,104,37,83,30,44,33,12,10,0.7,0.5
2022-04-08T09:00:00,1065A,117.8051,40.9655,承德市,文化中心,颗粒物(PM10),71,92,59,46,22,98,47,25,25,41,36,6,12,0.7,0.6
2022-04-08T09:00:00,1066A,117.9268,41.0026,承德市,离宫(对照点),颗粒物(PM10),69,88,48,40,22,100,48,46,28,27,21,12,5,0.5,0.4
2022-04-08T09:00:00,1067A,116.6708,39.5111,廊坊市,药材公司,细颗粒物(PM2.5),85,101,88,63,42,155,59,57,52,39,37,9,6,1.3,0.6
2022-04-08T09:00:00,1068A,116.7214,39.5589,廊坊市,开发区,细颗粒物(PM2.5),88,116,92,65,44,155,59,72,49,29,29,9,6,1.4,0.7
2022-04-08T09:00:00,1070A,116.7244,39.5269,廊坊市,北华航天学院,细颗粒物(PM2.5),103,124,103,77,58,145,57,66,47,35,37,12,8,1.5,0.7
2022-04-08T09:00:00,1071A,116.8842,38.2991,沧州市,沧县城建局,细颗粒物(PM2.5),160,148,114,122,74,138,71,84,81,24,22,6,5,1.0,0.7
2022-04-08T09:00:00,1072A,116.8584,38.3254,沧州市,电视转播站,细颗粒物(PM2.5),135,158,118,103,66,139,78,86,80,20,22,15,11,0.7,0.6
2022-04-08T09:00:00,1073A,116.8709,38.3228,沧州市,市环保局,细颗粒物(PM2.5),158,145,112,120,75,137,77,77,76,21,23,12,11,1.0,0.7
2022-04-08T09:00:00,1074A,115.6838,37.7541,衡水市,电机北厂,细颗粒物(PM2.5),133,109,91,101,58,137,94,116,101,16,16,12,10,0.6,0.5
2022-04-08T09:00:00,1075A,115.6303,37.7316,衡水市,市监测站,细颗粒物(PM2.5),124,174,126,94,53,137,89,102,91,14,14,20,16,0.8,0.5
2022-04-08T09:00:00,1077A,114.4704,37.0886,邢台市,达活泉,细颗粒物(PM2.5),137,205,173,104,70,160,51,86,50,28,22,25,24,1.9,1.6
2022-04-08T09:00:00,1078A,114.5062,37.0349,邢台市,邢师高专,细颗粒物(PM2.5),138,186,152,105,73,163,54,90,44,36,30,23,15,2.5,1.6
2022-04-08T09:00:00,1079A,114.5237,37.0851,邢台市,路桥公司,细颗粒物(PM2.5),134,169,139,102,70,161,,34,34,36,26,28,19,2.4,1.7
2022-04-08T09:00:00,1080A,114.4725,37.0719,邢台市,市环保局,细颗粒物(PM2.5),140,179,151,107,76,158,56,90,48,37,30,16,14,1.8,1.4
2022-04-08T09:00:00,1081A,112.5139,37.8873,太原市,尖草坪,颗粒物(PM10),74,97,78,36,30,138,34,17,17,46,46,26,12,0.7,0.5
2022-04-08T09:00:00,1083A,112.434,38.0108,太原市,上兰(对照点),,47,47,50,19,24,141,64,80,69,15,15,35,13,0.3,0.4
2022-04-08T09:00:00,1084A,112.469,37.7124,太原市,晋源,颗粒物(PM10),73,95,75,43,36,144,58,36,35,44,40,20,14,0.9,0.7
2022-04-08T09:00:00,1085A,112.5583,37.7394,太原市,小店,细颗粒物(PM2.5),89,122,86,66,38,139,52,18,15,43,44,68,24,1.0,0.6
2022-04-08T09:00:00,1086A,112.5369,37.8692,太原市,桃园,颗粒物(PM10),67,84,80,31,32,138,44,23,23,45,52,20,10,0.7,0.6
2022-04-08T09:00:00,1087A,112.57,37.8195,太原市,坞城,颗粒物(PM10),81,112,87,47,35,144,47,46,29,48,38,24,17,1.0,0.6
2022-04-08T09:00:00,1088A,112.549,37.9854,太原市,南寨,颗粒物(PM10),78,105,97,28,27,141,40,9,9,36,41,29,15,0.7,0.7
2022-04-08T09:00:00,1090A,111.6507,40.7517,呼和浩特市,呼市一监,颗粒物(PM10),68,85,106,36,45,141,48,16,16,38,38,12,14,0.6,0.7
2022-04-08T09:00:00,1091A,111.6572,40.8033,呼和浩特市,小召,颗粒物(PM10),62,73,80,38,42,123,51,32,32,38,42,12,12,0.6,0.6
2022-04-08T09:00:00,1094A,111.7516,40.8369,呼和浩特市,如意水处理厂,颗粒物(PM10),58,65,58,35,30,141,47,28,28,41,37,14,13,0.5,0.5
2022-04-08T09:00:00,1095A,111.7276,40.8062,呼和浩特市,二十九中,颗粒物(PM10),60,70,67,32,36,138,44,34,34,39,35,14,15,0.7,0.6
2022-04-08T09:00:00,1096A,111.5512,40.7866,呼和浩特市,工大金川校区,细颗粒物(PM2.5),65,78,69,47,32,124,47,27,27,29,28,15,14,0.6,0.5
2022-04-08T09:00:00,1097A,111.717,40.7612,呼和浩特市,化肥厂生活区,细颗粒物(PM2.5),65,77,106,47,61,118,40,17,17,38,35,18,19,0.6,0.7
2022-04-08T09:00:00,1098A,123.6836,41.9339,沈阳市,森林路(对照点),细颗粒物(PM2.5),67,80,51,48,32,112,101,70,70,28,18,16,12,1.1,0.7
2022-04-08T09:00:00,1099A,123.505,41.7406,沈阳市,浑南东路,颗粒物(PM10),60,70,72,33,54,117,108,42,42,13,32,17,17,0.7,0.9
2022-04-08T09:00:00,1100A,123.4231,41.6989,沈阳市,新秀街,颗粒物(PM10),57,64,69,30,47,115,103,55,55,17,31,24,20,0.8,1
2022-04-08T09:00:00,1102A,123.5903,41.8411,沈阳市,东陵路,颗粒物(PM10),71,91,55,42,36,110,90,51,51,19,17,18,15,1.2,0.8
2022-04-08T09:00:00,1103A,123.4264,41.8467,沈阳市,陵东街,,50,50,50,28,35,115,105,69,69,18,22,12,12,0.7,0.8
2022-04-08T09:00:00,1104A,123.4114,41.7653,沈阳市,文化路,颗粒物(PM10),66,81,58,35,44,119,107,71,71,15,18,18,15,0.9,1.1
2022-04-08T09:00:00,1105A,123.4678,41.7867,沈阳市,小河沿,颗粒物(PM10),55,60,59,27,39,105,97,57,55,14,23,15,12,0.7,0.9
2022-04-08T09:00:00,1106A,123.4017,41.7972,沈阳市,太原街,细颗粒物(PM2.5),55,55,55,39,43,114,105,71,71,13,17,12,14,0.6,0.8
2022-04-08T09:00:00,1108A,123.3783,41.9228,沈阳市,京沈街,细颗粒物(PM2.5),62,63,50,44,44,114,107,76,76,18,20,12,12,0.9,0.8
2022-04-08T09:00:00,1109A,121.612,38.9741,大连市,甘井子,细颗粒物(PM2.5),97,137,91,72,36,93,93,68,68,36,51,6,8,0.7,0.7
2022-04-08T09:00:00,1110A,121.565,38.9511,大连市,周水子,颗粒物(PM10),97,143,99,67,39,108,98,83,82,35,42,5,8,0.7,0.8
2022-04-08T09:00:00,1111A,121.5637,38.8845,大连市,星海三站,细颗粒物(PM2.5),73,78,57,53,31,110,80,63,63,39,48,7,7,0.5,0.6
2022-04-08T09:00:00,1112A,121.6302,38.9117,大连市,青泥洼桥,颗粒物(PM10),76,102,89,41,29,116,116,95,95,18,52,8,10,0.6,0.8
2022-04-08T09:00:00,1113A,121.6251,38.8638,大连市,傅家庄,细颗粒物(PM2.5),59,65,47,42,24,108,90,65,65,36,41,9,10,0,0.5
2022-04-08T09:00:00,1114A,121.5213,38.8661,大连市,七贤岭,颗粒物(PM10),75,99,74,44,35,115,103,61,61,29,36,16,14,0.7,0.9
2022-04-08T09:00:00,1115A,121.2529,38.8061,大连市,旅顺,细颗粒物(PM2.5),113,85,70,85,41,95,95,71,71,30,42,10,13,0.6,0.6
2022-04-08T09:00:00,1116A,121.7485,39.1311,大连市,金州,细颗粒物(PM2.5),85,111,76,63,37,118,97,98,98,30,36,10,10,0.7,0.9
2022-04-08T09:00:00,1117A,121.7811,39.0496,大连市,开发区,颗粒物(PM10),63,75,57,41,27,86,86,61,61,13,17,8,11,0.4,0.7
2022-04-08T09:00:00,1118A,121.9762,39.0631,大连市,双D港,颗粒物(PM10),60,70,56,33,25,91,66,55,55,51,44,4,10,0.3,0.6
2022-04-08T09:00:00,1119A,125.3325,43.9166,长春市,食品厂,颗粒物(PM10),58,66,41,24,33,99,98,73,73,11,13,8,10,0.5,0.4
2022-04-08T09:00:00,1120A,125.2863,43.9027,长春市,客车厂,颗粒物(PM10),73,96,44,26,30,99,95,71,71,12,14,8,12,0.8,0.7
2022-04-08T09:00:00,1121A,125.2841,43.8463,长春市,邮电学院,颗粒物(PM10),90,130,55,23,33,103,99,68,68,8,15,5,25,0.6,0.5
2022-04-08T09:00:00,1122A,125.3716,43.8772,长春市,劳动公园,颗粒物(PM10),57,63,41,26,30,106,105,77,77,12,14,6,8,0.7,0.6
2022-04-08T09:00:00,1123A,125.3297,43.8805,长春市,园林处,,,56,41,,,104,103,77,77,13,14,9,9,0.5,0.4
2022-04-08T09:00:00,1124A,125.4605,43.79,长春市,净月潭,,,53,34,,,107,101,82,82,14,8,9,8,0.7,0.5
2022-04-08T09:00:00,1125A,125.7194,43.515,长春市,甩湾子(对照点),,44,44,40,19,25,101,90,76,76,8,21,11,11,0.5,0.9
2022-04-08T09:00:00,1126A,125.3863,43.8447,长春市,经开区环卫处,颗粒物(PM10),58,66,41,30,31,99,93,68,68,7,8,10,12,0.8,0.7
2022-04-08T09:00:00,1127A,125.245,43.7783,长春市,高新区管委会,颗粒物(PM10),53,56,47,30,39,108,104,74,74,10,12,6,6,0.6,0.6
2022-04-08T09:00:00,1128A,125.1761,43.8325,长春市,岱山公园,颗粒物(PM10),83,116,50,25,33,97,96,70,70,10,15,8,8,0.6,0.5
2022-04-08T09:00:00,1129A,126.5422,45.755,哈尔滨市,岭北(对照点),颗粒物(PM10),55,60,43,21,20,125,87,85,78,14,8,12,9,0.2,0.3
2022-04-08T09:00:00,1130A,126.561,45.8167,哈尔滨市,松北商大,,42,37,36,29,27,104,86,83,79,10,9,5,5,0.7,0.6
2022-04-08T09:00:00,1131A,126.979,45.5419,哈尔滨市,阿城会宁,,48,48,36,21,35,93,83,74,74,10,11,7,7,0.6,0.7
2022-04-08T09:00:00,1132A,126.599,45.7222,哈尔滨市,南岗学府路,,41,41,32,27,25,93,71,69,66,16,10,8,6,0.8,0.7
2022-04-08T09:00:00,1133A,126.689,45.7733,哈尔滨市,太平宏伟公园,颗粒物(PM10),54,58,43,33,27,103,79,82,76,21,17,11,12,0.6,0.5
2022-04-08T09:00:00,1134A,126.635,45.7667,哈尔滨市,道外承德广场,颗粒物(PM10),53,55,50,33,35,96,71,80,69,20,14,17,16,0.6,0.5
2022-04-08T09:00:00,1135A,126.685,45.7319,哈尔滨市,香坊红旗大街,细颗粒物(PM2.5),65,65,49,47,32,94,69,73,66,22,15,18,15,0.6,0.5
2022-04-08T09:00:00,1136A,126.6411,45.7258,哈尔滨市,动力和平路,颗粒物(PM10),52,54,45,33,29,92,65,73,64,26,15,17,16,0.7,0.5
2022-04-08T09:00:00,1137A,126.593,45.7478,哈尔滨市,道里建国路,,49,47,40,34,34,95,82,84,78,18,15,13,12,0.9,0.6
2022-04-08T09:00:00,1138A,126.615,45.61,哈尔滨市,平房东轻厂,,46,46,41,28,30,99,80,69,69,12,13,34,29,0,0
2022-04-08T09:00:00,1139A,126.595,45.9855,哈尔滨市,呼兰师专,细颗粒物(PM2.5),59,65,39,42,31,106,82,84,80,16,12,13,11,0.7,0.6
2022-04-08T09:00:00,1140A,126.6206,45.6842,哈尔滨市,省农科院,颗粒物(PM10),53,56,44,26,31,95,70,64,62,17,16,16,15,1.3,0.7
2022-04-08T09:00:00,1141A,121.4,31.238,上海市,普陀,,36,34,56,25,29,209,91,109,82,34,30,16,8,1.1,1.1
2022-04-08T09:00:00,1142A,121.478,31.2036,上海市,十五厂,,40,34,54,28,39,215,82,78,64,25,27,7,8,0.7,0.7
2022-04-08T09:00:00,1143A,121.467,31.3008,上海市,虹口,,39,39,55,9,32,192,86,80,72,30,36,6,5,0.7,0.7
2022-04-08T09:00:00,1144A,121.412,31.1654,上海市,徐汇上师大,,45,45,60,30,35,208,84,74,66,30,30,10,12,1.0,1
2022-04-08T09:00:00,1145A,121.536,31.2659,上海市,杨浦四漂,,29,29,52,19,36,210,86,59,58,23,29,9,10,0.7,0.7
2022-04-08T09:00:00,1147A,121.425,31.2261,上海市,静安监测站,,42,42,59,25,35,200,80,90,70,39,31,47,9,0.2,0.2
2022-04-08T09:00:00,1148A,121.703,31.1907,上海市,浦东川沙,,35,28,48,24,35,210,91,58,56,28,35,6,7,0.7,0.7
2022-04-08T09:00:00,1149A,121.533,31.2284,上海市,浦东新区监测站,,43,43,59,24,35,212,90,78,69,26,24,6,6,0.6,0.7
2022-04-08T09:00:00,1150A,121.577,31.2071,上海市,浦东张江,,34,34,54,23,37,189,82,61,58,26,29,5,5,0.7,0.7
2022-04-08T09:00:00,1151A,118.8086,32.1065,南京市,迈皋桥,颗粒物(PM10),72,94,81,51,33,196,111,36,36,53,66,14,8,0.7,0.7
2022-04-08T09:00:00,1152A,118.7538,32.0551,南京市,草场门,颗粒物(PM10),81,112,89,46,36,176,93,51,51,59,78,17,17,0.8,0.8
2022-04-08T09:00:00,1153A,118.7794,32.0745,南京市,山西路,颗粒物(PM10),85,119,92,61,40,189,103,91,84,55,54,13,8,0.7,0.6
2022-04-08T09:00:00,1154A,118.7752,32.0023,南京市,中华门,颗粒物(PM10),87,124,91,56,35,180,115,47,47,41,50,9,6,0.6,0.6
2022-04-08T09:00:00,1155A,118.8109,32.0309,南京市,瑞金路,细颗粒物(PM2.5),85,111,82,63,42,176,99,35,35,38,56,12,8,0.6,0.7
2022-04-08T09:00:00,1156A,118.7997,32.0754,南京市,玄武湖,颗粒物(PM10),76,101,71,51,35,185,109,73,73,41,44,4,6,0.8,0.8
2022-04-08T09:00:00,1157A,118.6414,32.0931,南京市,浦口,颗粒物(PM10),74,98,79,34,25,180,81,120,79,61,32,13,10,0.7,0.8
2022-04-08T09:00:00,1158A,118.7356,31.9996,南京市,奥体中心,颗粒物(PM10),81,112,86,51,34,182,84,44,44,56,63,16,11,0.9,1
2022-04-08T09:00:00,1159A,118.9125,32.1028,南京市,仙林大学城,颗粒物(PM10),82,114,83,51,39,204,104,92,68,50,37,12,10,0.8,0.9
2022-04-08T09:00:00,1160A,120.561,31.2472,苏州市,上方山(对照点),细颗粒物(PM2.5),70,71,66,51,46,204,59,89,51,50,32,12,8,0.6,0.5
2022-04-08T09:00:00,1162A,120.591,31.3019,苏州市,彩香,细颗粒物(PM2.5),63,60,62,45,35,222,66,127,70,48,34,16,10,0.8,0.7
2022-04-08T09:00:00,1163A,120.596,31.3264,苏州市,轧钢厂,颗粒物(PM10),59,67,78,36,31,223,64,122,74,56,40,15,9,0.6,0.6
2022-04-08T09:00:00,1164A,120.613,31.2703,苏州市,吴中区,细颗粒物(PM2.5),68,70,68,49,37,211,56,119,66,57,39,18,8,0.6,0.5
2022-04-08T09:00:00,1165A,120.543,31.2994,苏州市,苏州新区,细颗粒物(PM2.5),65,70,61,47,34,220,67,137,62,51,37,16,11,0.7,0.7
2022-04-08T09:00:00,1166A,120.669,31.3097,苏州市,苏州工业园区,细颗粒物(PM2.5),52,45,60,36,34,207,74,110,79,43,38,13,10,0.6,0.6
2022-04-08T09:00:00,1167A,120.641,31.3708,苏州市,相城区,颗粒物(PM10),57,64,66,38,36,214,73,92,66,46,46,11,6,0.7,0.6
2022-04-08T09:00:00,1168A,120.9098,31.9663,南通市,狼山街道,,45,45,69,29,50,230,52,90,49,74,29,15,14,0.3,0.7
2022-04-08T09:00:00,1169A,120.86,32.0005,南通市,虹桥,,48,48,59,27,54,186,83,88,63,47,34,17,15,0.6,0.8
2022-04-08T09:00:00,1170A,120.87,32.02,南通市,城中,,48,48,60,26,54,191,86,95,64,47,30,11,10,0.7,0.9
2022-04-08T09:00:00,1171A,120.94,31.93,南通市,星湖花园,,44,44,66,29,48,228,50,72,49,58,35,12,13,0.4,0.8
2022-04-08T09:00:00,1172A,120.81,32.0417,南通市,紫琅学院,,49,49,61,34,47,200,63,106,66,58,27,16,12,0.5,0.7
2022-04-08T09:00:00,1173A,119.176,34.5885,连云港市,市环境监测站,细颗粒物(PM2.5),67,78,93,48,53,161,104,108,101,11,15,7,5,0.7,0.7
2022-04-08T09:00:00,1177A,117.179,34.2761,徐州市,黄河新村,,,,108,,76,151,58,62,54,,9,7,7,0.9,0.8
2022-04-08T09:00:00,1178A,117.1918,34.2384,徐州市,淮塔,,,,106,,60,148,50,54,39,14,15,8,8,0.9,0.8
2022-04-08T09:00:00,1180A,117.256,34.2153,徐州市,新城区,细颗粒物(PM2.5),82,90,101,60,61,147,50,39,39,14,16,5,6,0.9,0.8
2022-04-08T09:00:00,1181A,117.244,34.2911,徐州市,桃园路,细颗粒物(PM2.5),98,92,103,73,62,151,46,52,41,10,13,9,10,0.7,0.7
2022-04-08T09:00:00,1182A,117.2933,34.2778,徐州市,农科院,细颗粒物(PM2.5),100,75,81,75,63,129,41,45,29,8,14,8,9,0.9,0.8
2022-04-08T09:00:00,1186A,119.389,32.3761,扬州市,邗江监测站,颗粒物(PM10),96,141,105,58,49,212,75,58,52,58,31,14,12,1.0,0.9
2022-04-08T09:00:00,1188A,120.269,31.4867,无锡市,雪浪,颗粒物(PM10),73,95,79,38,37,190,93,49,49,32,20,16,10,0.4,0.3
2022-04-08T09:00:00,1189A,120.275,31.6219,无锡市,黄巷,颗粒物(PM10),84,118,91,41,42,226,109,54,49,52,41,16,11,0.6,0.6
2022-04-08T09:00:00,1190A,120.294,31.56,无锡市,曹张,颗粒物(PM10),64,78,69,44,40,212,80,60,54,54,33,15,10,0.9,0.8
2022-04-08T09:00:00,1191A,120.242,31.5031,无锡市,漆塘,"颗粒物(PM10),细颗粒物(PM2.5)",65,80,72,47,43,201,102,50,50,37,23,14,9,0.5,0.5
2022-04-08T09:00:00,1192A,120.3489,31.5863,无锡市,东亭,颗粒物(PM10),76,102,81,41,39,204,77,52,42,77,43,15,8,0.8,0.7
2022-04-08T09:00:00,1193A,120.354,31.5475,无锡市,旺庄,颗粒物(PM10),67,83,76,46,45,193,74,40,40,62,42,16,10,0.8,0.7
2022-04-08T09:00:00,1194A,120.245,31.5631,无锡市,荣巷,细颗粒物(PM2.5),73,78,64,53,40,200,104,66,60,39,27,16,10,0.7,0.6
2022-04-08T09:00:00,1195A,120.299,31.6817,无锡市,堰桥,,,97,87,48,51,229,82,76,61,63,34,15,11,,1
2022-04-08T09:00:00,1196A,119.9633,31.762,常州市,市监测站,细颗粒物(PM2.5),85,116,123,63,57,185,82,50,50,47,39,11,9,0.8,0.8
2022-04-08T09:00:00,1200A,119.9468,31.7069,常州市,武进监测站,细颗粒物(PM2.5),93,117,96,69,52,192,88,73,73,48,32,14,10,0.8,0.8
2022-04-08T09:00:00,1201A,119.9255,31.9087,常州市,安家,细颗粒物(PM2.5),79,84,124,58,84,198,102,79,52,60,40,13,9,0.8,0.8
2022-04-08T09:00:00,1203A,119.6707,32.1875,镇江市,新区办事处,细颗粒物(PM2.5),100,89,91,75,69,192,90,74,52,57,50,11,9,1.0,1
2022-04-08T09:00:00,1204A,119.4974,32.1968,镇江市,职教中心,细颗粒物(PM2.5),90,72,82,67,86,206,90,55,55,44,41,9,9,0.7,0.7
2022-04-08T09:00:00,1205A,119.4303,32.1328,镇江市,丹徒区监测站,细颗粒物(PM2.5),100,86,90,75,65,204,87,59,59,45,38,7,11,0.8,0.7
2022-04-08T09:00:00,1206A,119.905,32.4878,泰州市,公园路,细颗粒物(PM2.5),110,117,99,83,70,182,101,113,70,42,24,15,13,1.4,1.1
2022-04-08T09:00:00,1207A,119.9189,32.4625,泰州市,莲花,细颗粒物(PM2.5),122,112,92,92,74,191,83,103,60,38,19,13,10,1.4,1
2022-04-08T09:00:00,1209A,119.888,32.4639,泰州市,留学生创业园,细颗粒物(PM2.5),94,105,101,70,65,191,98,110,72,43,22,16,14,1.2,0.9
2022-04-08T09:00:00,1210A,119.036,33.5981,淮安市,钵池山,细颗粒物(PM2.5),90,117,91,67,62,116,71,64,63,32,21,12,8,1.1,0.7
2022-04-08T09:00:00,1211A,119.007,33.575,淮安市,北京南路,细颗粒物(PM2.5),127,134,107,96,83,128,80,82,81,34,26,16,9,1.0,0.8
2022-04-08T09:00:00,1212A,118.989,33.6067,淮安市,市监测站,细颗粒物(PM2.5),117,129,108,88,73,140,82,103,93,36,24,18,10,1.2,0.9
2022-04-08T09:00:00,1213A,119.135,33.5039,淮安市,楚州区监测站,细颗粒物(PM2.5),123,110,87,93,70,122,63,66,64,36,24,23,10,1.1,0.8
2022-04-08T09:00:00,1214A,119.0186,33.6297,淮安市,淮阴区监测站,细颗粒物(PM2.5),127,115,83,96,79,133,75,87,80,38,24,16,10,1.3,0.9
2022-04-08T09:00:00,1215A,120.118,33.4022,盐城市,盐城电厂,细颗粒物(PM2.5),80,95,71,59,61,146,100,124,110,25,14,15,8,1.0,0.6
2022-04-08T09:00:00,1216A,120.156,33.3942,盐城市,市监测站,细颗粒物(PM2.5),85,65,48,63,58,136,84,97,87,28,18,14,7,0.9,0.5
2022-04-08T09:00:00,1218A,120.2144,33.38,盐城市,开发区管委会,细颗粒物(PM2.5),63,67,46,45,38,129,71,90,85,27,16,8,6,0.8,0.6
2022-04-08T09:00:00,1220A,118.293,33.9528,宿迁市,宿迁学院,颗粒物(PM10),73,96,83,42,43,134,53,51,43,25,18,7,4,0.7,0.6
2022-04-08T09:00:00,1221A,118.2442,33.9592,宿迁市,宿迁中学,细颗粒物(PM2.5),74,84,83,54,45,131,59,60,50,18,13,7,4,0.9,0.8
2022-04-08T09:00:00,1223A,120.2072,30.2111,杭州市,滨江,颗粒物(PM10),67,84,116,33,49,213,71,32,32,52,74,9,9,1.0,0.8
2022-04-08T09:00:00,1224A,120.0633,30.2747,杭州市,西溪,颗粒物(PM10),74,98,78,53,42,204,53,13,13,57,43,5,5,0.6,0.5
2022-04-08T09:00:00,1226A,120.3461,30.3153,杭州市,下沙,颗粒物(PM10),73,96,116,43,52,231,100,26,26,54,76,11,11,0.8,0.7
2022-04-08T09:00:00,1227A,120.1269,30.2456,杭州市,卧龙桥,细颗粒物(PM2.5),70,72,73,51,43,201,52,27,24,48,31,6,6,0.7,0.6
2022-04-08T09:00:00,1228A,120.1903,30.2692,杭州市,浙江农大,细颗粒物(PM2.5),73,91,107,53,52,228,71,25,25,55,64,8,8,0.8,0.7
2022-04-08T09:00:00,1230A,120.1197,30.3119,杭州市,和睦小学,颗粒物(PM10),102,153,128,70,56,204,46,11,11,70,67,5,5,0.9,0.8
2022-04-08T09:00:00,1231A,120.3019,30.4183,杭州市,临平镇,颗粒物(PM10),90,129,115,61,53,216,57,78,27,78,45,7,6,1.0,0.7
2022-04-08T09:00:00,1232A,120.2697,30.1819,杭州市,城厢镇,颗粒物(PM10),80,110,107,41,44,208,72,38,38,56,68,8,8,0.9,0.8
2022-04-08T09:00:00,1233A,120.0883,30.1808,杭州市,云栖,颗粒物(PM10),83,116,98,50,42,200,34,52,27,76,42,8,7,0.8,0.6
2022-04-08T09:00:00,1234A,121.8358,29.911,宁波市,区环保大楼,颗粒物(PM10),67,84,77,26,29,172,12,8,8,84,84,16,13,0.7,0.7
2022-04-08T09:00:00,1235A,121.56,29.82,宁波市,万里学院,颗粒物(PM10),51,51,50,34,24,197,79,55,53,31,34,12,11,0.5,0.5
2022-04-08T09:00:00,1236A,121.713,29.9572,宁波市,龙赛医院,颗粒物(PM10),57,63,62,29,28,170,50,20,20,61,73,17,15,0.6,0.6
2022-04-08T09:00:00,1239A,121.633,29.7733,宁波市,钱湖水厂,颗粒物(PM10),51,51,35,24,19,211,60,109,72,45,19,6,6,0.6,0.4
2022-04-08T09:00:00,1240A,121.5856,29.8635,宁波市,太古小学,"颗粒物(PM10),细颗粒物(PM2.5)",52,53,44,36,20,157,60,70,61,42,35,12,12,0.7,0.6
2022-04-08T09:00:00,1241A,121.524,29.8674,宁波市,市环境监测中心,颗粒物(PM10),59,67,55,21,21,222,49,43,43,54,43,10,9,0.7,0.6
2022-04-08T09:00:00,1242A,120.634,28.0089,温州市,瓯海,颗粒物(PM10),69,88,73,40,28,156,50,13,13,45,48,8,6,0.5,0.4
2022-04-08T09:00:00,1243A,120.6748,27.9939,温州市,南浦,颗粒物(PM10),74,97,78,44,30,132,52,17,17,42,48,9,7,0.5,0.4
2022-04-08T09:00:00,1244A,120.76,27.9747,温州市,龙湾,颗粒物(PM10),74,97,89,29,22,124,39,12,12,40,49,5,5,0.5,0.4
2022-04-08T09:00:00,1245A,120.6709,28.0167,温州市,市站,颗粒物(PM10),76,101,75,43,28,136,45,15,15,46,47,10,7,0.5,0.4
2022-04-08T09:00:00,1247A,120.6053,29.9928,绍兴市,城东开发委,颗粒物(PM10),69,87,72,42,36,193,76,94,48,46,32,7,7,0.8,0.6
2022-04-08T09:00:00,1250A,120.0751,30.8669,湖州市,城西水厂,细颗粒物(PM2.5),90,117,83,67,43,213,47,26,26,74,63,31,10,0.9,0.6
2022-04-08T09:00:00,1252A,120.7436,30.778,嘉兴市,清河小学,颗粒物(PM10),53,56,55,29,29,205,99,77,44,42,43,14,11,0.6,0.6
2022-04-08T09:00:00,1253A,120.726,30.7478,嘉兴市,嘉兴学院,颗粒物(PM10),56,61,54,31,31,201,97,87,55,36,33,18,16,1.1,1.1
2022-04-08T09:00:00,1255A,121.273,28.6459,台州市,黄岩环保大楼,颗粒物(PM10),55,59,54,26,21,169,55,43,43,29,25,9,7,0.5,0.4
2022-04-08T09:00:00,1256A,121.419,28.6542,台州市,台州环保大楼,颗粒物(PM10),67,83,58,38,22,171,47,34,29,54,34,7,6,0.5,0.4
2022-04-08T09:00:00,1257A,121.377,28.5773,台州市,路桥田洋王,颗粒物(PM10),61,71,61,35,28,164,58,17,17,31,34,8,7,0.5,0.4
2022-04-08T09:00:00,1258A,122.122,30.0203,舟山市,定海檀枫,,26,22,29,8,16,125,83,39,39,18,40,2,4,0.3,0.3
2022-04-08T09:00:00,1259A,122.3094,29.9558,舟山市,普陀东港,,24,24,24,15,13,117,60,64,60,42,34,5,4,0.3,0.3
2022-04-08T09:00:00,1260A,122.19,29.9944,舟山市,临城新区,,29,14,26,10,14,137,90,36,36,22,38,4,5,0.3,0.3
2022-04-08T09:00:00,1262A,119.647,29.077,金华市,十五中,细颗粒物(PM2.5),74,96,88,54,45,202,79,80,56,37,45,10,9,0.7,0.7
2022-04-08T09:00:00,1263A,119.686,29.1029,金华市,监测站,"颗粒物(PM10),细颗粒物(PM2.5)",74,98,80,54,36,207,45,23,23,60,50,10,7,0.4,0.2
2022-04-08T09:00:00,1264A,118.8692,28.9398,衢州市,环保大楼,颗粒物(PM10),56,62,70,27,27,172,62,51,39,39,33,37,13,0.8,0.6
2022-04-08T09:00:00,1265A,118.8709,28.9666,衢州市,实验学校,颗粒物(PM10),64,77,63,29,27,184,59,50,30,49,33,12,8,0.6,0.5
2022-04-08T09:00:00,1266A,118.8621,28.9808,衢州市,衢州学院,,,81,74,32,29,174,,8,8,37,43,12,9,0.5,0.5
2022-04-08T09:00:00,1267A,119.914,28.4514,丽水市,监测站大楼,细颗粒物(PM2.5),62,56,58,44,29,148,45,71,36,26,21,8,8,0.4,0.3
2022-04-08T09:00:00,1268A,119.93,28.4586,丽水市,莲都小学,颗粒物(PM10),57,64,69,34,26,158,55,64,49,29,26,7,7,0.4,0.3
2022-04-08T09:00:00,1269A,119.879,28.4231,丽水市,余庄前,颗粒物(PM10),74,97,57,51,29,160,32,29,19,46,19,9,7,0.5,0.3
2022-04-08T09:00:00,1270A,117.1959,31.7848,合肥市,明珠广场,颗粒物(PM10),81,112,85,44,36,146,80,44,44,56,53,8,7,0.9,0.9
2022-04-08T09:00:00,1271A,117.3072,31.8764,合肥市,三里街,颗粒物(PM10),84,117,95,46,42,148,53,34,28,64,49,11,10,0.8,0.6
2022-04-08T09:00:00,1272A,117.2588,31.8707,合肥市,琥珀山庄,颗粒物(PM10),78,105,84,36,40,151,90,32,32,45,36,8,6,0.9,0.8
2022-04-08T09:00:00,1273A,117.1604,31.9052,合肥市,董铺水库(对照点),颗粒物(PM10),75,100,95,36,43,146,92,36,29,38,34,10,10,0.7,0.6
2022-04-08T09:00:00,1274A,117.25,31.8571,合肥市,长江中路,颗粒物(PM10),75,100,93,39,36,153,80,53,48,58,41,10,9,0.6,0.6
2022-04-08T09:00:00,1275A,117.266,31.9436,合肥市,庐阳区,颗粒物(PM10),84,117,115,41,48,129,74,29,29,40,52,11,10,0.7,0.7
2022-04-08T09:00:00,1276A,117.336,31.8586,合肥市,瑶海区,颗粒物(PM10),86,122,102,41,41,154,56,34,34,62,48,10,10,0.8,0.8
2022-04-08T09:00:00,1277A,117.3027,31.7964,合肥市,包河区,颗粒物(PM10),102,153,110,58,48,167,96,28,28,32,70,6,6,0.5,0.7
2022-04-08T09:00:00,1278A,117.2776,31.7385,合肥市,滨湖新区,颗粒物(PM10),79,107,94,44,38,192,98,87,76,24,37,4,3,0.3,0.4
2022-04-08T09:00:00,1279A,117.1318,31.8403,合肥市,高新区,颗粒物(PM10),69,88,86,36,43,150,112,68,68,37,44,12,11,0.8,0.8
2022-04-08T09:00:00,1280A,119.3903,26.0543,福州市,鼓山(对照点),,34,31,32,8,11,152,108,115,115,5,11,4,4,0.3,0.3
2022-04-08T09:00:00,1282A,119.2681,26.0504,福州市,师大,颗粒物(PM10),56,61,48,25,19,150,77,58,58,25,23,14,4,0.4,0.3
2022-04-08T09:00:00,1283A,119.2984,26.1028,福州市,五四北路,颗粒物(PM10),51,51,36,19,17,152,84,76,68,23,19,3,3,0.4,0.3
2022-04-08T09:00:00,1284A,119.2648,26.0768,福州市,杨桥西路,颗粒物(PM10),55,59,46,18,17,142,70,50,50,22,22,10,4,0.9,0.8
2022-04-08T09:00:00,1285A,119.317,26.0746,福州市,紫阳,,49,49,38,20,18,148,86,84,67,22,17,6,6,0.5,0.5
2022-04-08T09:00:00,1286A,118.1608,24.8169,厦门市,溪东(对照点),,39,28,32,18,22,161,123,102,100,4,4,2,2,0.2,0.3
2022-04-08T09:00:00,1287A,118.1514,24.4767,厦门市,洪文,,43,43,43,16,20,150,88,117,100,22,15,4,5,0.4,0.4
2022-04-08T09:00:00,1288A,118.0661,24.4444,厦门市,鼓浪屿,颗粒物(PM10),69,88,48,35,26,145,46,128,55,64,27,11,6,0.5,0.4
2022-04-08T09:00:00,1290A,115.8931,28.6843,南昌市,省外办,,,116,92,47,39,159,,12,3,70,60,7,7,0.7,0.9
2022-04-08T09:00:00,1291A,115.8886,28.7003,南昌市,省林业公司,颗粒物(PM10),81,111,101,41,33,159,32,7,5,65,62,10,12,1.0,1
2022-04-08T09:00:00,1292A,115.8126,28.7442,南昌市,林科所,,,,57,,18,173,,86,86,23,36,8,10,0.5,0.5
2022-04-08T09:00:00,1294A,115.8518,28.687,南昌市,建工学校,颗粒物(PM10),72,94,87,34,30,168,32,18,10,62,49,14,13,0.6,0.6
2022-04-08T09:00:00,1295A,115.8921,28.6424,南昌市,象湖,,,104,106,39,39,166,33,6,6,59,55,8,9,,1.2
2022-04-08T09:00:00,1296A,115.7423,28.7996,南昌市,武术学校(对照点),,34,34,36,20,19,167,46,52,34,12,8,8,13,0.7,0.6
2022-04-08T09:00:00,1298A,115.9314,28.6842,南昌市,省站,颗粒物(PM10),71,92,97,35,41,161,36,7,7,73,63,10,9,0.6,0.8
2022-04-08T09:00:00,1299A,116.9862,36.6114,济南市,科干所,细颗粒物(PM2.5),95,127,141,71,65,158,132,150,140,8,19,11,14,1.0,1
2022-04-08T09:00:00,1300A,116.9376,36.665,济南市,农科所,颗粒物(PM10),96,142,142,68,63,145,113,126,116,13,26,8,11,0.3,0.5
2022-04-08T09:00:00,1301A,117.1265,36.6734,济南市,开发区,细颗粒物(PM2.5),75,95,125,55,61,152,124,136,109,13,35,9,11,0.6,0.7
2022-04-08T09:00:00,1303A,117.0624,36.6868,济南市,省种子仓库,细颗粒物(PM2.5),108,146,153,81,78,164,97,137,72,41,52,14,14,1.1,1.2
2022-04-08T09:00:00,1304A,116.9489,36.6447,济南市,机床二厂,细颗粒物(PM2.5),102,149,154,76,78,157,121,136,124,12,27,8,11,0.8,0.9
2022-04-08T09:00:00,1305A,117.0495,36.663,济南市,市监测站,细颗粒物(PM2.5),97,122,139,72,75,157,128,150,135,13,30,11,13,0.5,0.7
2022-04-08T09:00:00,1306A,116.7675,36.5484,济南市,长清党校,颗粒物(PM10),94,137,151,68,72,153,122,131,116,10,18,9,14,0.9,1
2022-04-08T09:00:00,1307A,120.6659,36.2403,青岛市,仰口(对照点),细颗粒物(PM2.5),55,31,61,39,33,116,98,78,78,18,21,3,4,0.7,0.7
2022-04-08T09:00:00,1310A,120.4134,36.0658,青岛市,市南区东部子站,,38,19,34,14,18,130,120,126,126,12,16,3,5,0.4,0.4
2022-04-08T09:00:00,1311A,120.3664,36.1032,青岛市,四方区子站,,49,36,55,34,33,137,115,132,127,22,27,6,6,0.7,0.6
2022-04-08T09:00:00,1312A,120.2994,36.054,青岛市,市南区西部子站,,44,22,32,12,14,148,140,146,145,13,16,5,5,0.5,0.5
2022-04-08T09:00:00,1313A,120.4581,36.0858,青岛市,崂山区子站,,43,17,38,14,19,146,137,141,141,12,15,6,7,0.5,0.4
2022-04-08T09:00:00,1314A,120.1983,35.9608,青岛市,黄岛区子站,,39,19,36,17,23,134,124,132,131,16,16,3,4,0.7,0.7
2022-04-08T09:00:00,1315A,120.3999,36.3083,青岛市,城阳区子站,颗粒物(PM10),71,92,98,39,33,131,107,124,113,42,31,5,5,0.9,0.7
2022-04-08T09:00:00,1316A,113.69031,34.76122,郑州市,烟厂,颗粒物(PM10),112,174,136,67,56,183,50,65,50,46,33,15,10,1.0,0.7
2022-04-08T09:00:00,1317A,113.65724,34.77134,郑州市,郑纺机,颗粒物(PM10),103,156,128,70,55,178,37,73,52,60,31,14,11,1.2,1
2022-04-08T09:00:00,1318A,113.67526,34.80246,郑州市,银行学校,颗粒物(PM10),115,179,122,85,61,181,42,81,56,50,28,9,8,0.9,0.6
2022-04-08T09:00:00,1319A,113.56746,34.81334,郑州市,供水公司,颗粒物(PM10),114,177,136,84,60,190,51,82,21,32,35,12,8,0.8,0.7
2022-04-08T09:00:00,1320A,113.7329,34.7178,郑州市,经开区管委,颗粒物(PM10),103,156,128,75,75,183,35,50,26,59,42,9,10,1.0,0.8
2022-04-08T09:00:00,1321A,113.73961,34.77172,郑州市,四十七中,颗粒物(PM10),93,136,134,57,53,186,26,68,46,49,28,10,11,1.0,0.8
2022-04-08T09:00:00,1322A,113.60532,34.74838,郑州市,市监测站,颗粒物(PM10),138,225,140,85,62,166,43,68,44,51,36,24,12,1.1,0.8
2022-04-08T09:00:00,1324A,113.51488,34.91089,郑州市,岗李水库(对照点),颗粒物(PM10),111,172,137,56,52,191,41,43,16,33,24,10,10,0.8,0.7
2022-04-08T09:00:00,1325A,114.3677,30.5584,武汉市,东湖梨园,细颗粒物(PM2.5),89,106,73,66,45,177,37,25,14,70,59,20,9,1.5,0.9
2022-04-08T09:00:00,1326A,114.2529,30.558,武汉市,汉阳月湖,颗粒物(PM10),70,90,73,46,33,179,46,18,18,66,76,24,9,1.6,0.9
2022-04-08T09:00:00,1327A,114.282,30.6189,武汉市,汉口花桥,"颗粒物(PM10),细颗粒物(PM2.5)",68,86,76,49,39,170,41,11,11,64,72,26,10,1.3,0.8
2022-04-08T09:00:00,1328A,114.3025,30.5332,武汉市,武昌紫阳,颗粒物(PM10),74,97,74,48,37,173,42,12,12,60,66,27,13,2.0,1.3
2022-04-08T09:00:00,1329A,114.3646,30.6217,武汉市,青山钢花,颗粒物(PM10),96,142,106,61,48,190,53,54,21,68,84,25,15,1.5,1.1
2022-04-08T09:00:00,1330A,114.1566,30.4825,武汉市,沌口新区,"颗粒物(PM10),细颗粒物(PM2.5)",67,83,92,48,43,162,37,36,15,51,71,16,13,1.4,0.9
2022-04-08T09:00:00,1331A,114.3014,30.5944,武汉市,汉口江滩,细颗粒物(PM2.5),88,107,85,65,42,169,32,12,12,71,83,27,10,1.6,1
2022-04-08T09:00:00,1333A,114.135,30.6319,武汉市,吴家山,颗粒物(PM10),77,104,98,37,41,170,52,15,15,65,73,16,12,1.1,1
2022-04-08T09:00:00,1334A,113.8454,30.2917,武汉市,沉湖七壕(对照点),颗粒物(PM10),54,57,55,18,27,155,54,24,12,23,40,6,6,0.6,0.7
2022-04-08T09:00:00,1335A,113.0833,28.2325,长沙市,经开区环保局,细颗粒物(PM2.5),65,63,71,47,42,196,52,66,55,48,41,11,10,0.8,0.6
2022-04-08T09:00:00,1336A,112.8872,28.2189,长沙市,高开区环保局,颗粒物(PM10),70,89,98,38,44,198,57,21,21,57,66,12,11,0.6,0.7
2022-04-08T09:00:00,1337A,113.0792,28.2053,长沙市,马坡岭,颗粒物(PM10),62,73,90,42,40,194,44,42,42,35,43,13,11,0.5,0.5
2022-04-08T09:00:00,1338A,112.9394,28.19,长沙市,湖南师范大学,"颗粒物(PM10),细颗粒物(PM2.5)",63,75,54,45,44,208,33,59,52,58,29,5,6,0.6,0.5
2022-04-08T09:00:00,1339A,113.0178,28.1322,长沙市,雨花区环保局,颗粒物(PM10),62,74,78,33,38,210,55,99,70,47,36,10,10,0.4,0.4
2022-04-08T09:00:00,1340A,112.9792,28.2597,长沙市,伍家岭,颗粒物(PM10),73,96,111,40,51,211,32,8,8,48,59,8,7,0.8,0.9
2022-04-08T09:00:00,1341A,113.0014,28.1944,长沙市,火车新站,颗粒物(PM10),69,87,106,36,49,208,45,22,20,57,65,11,10,0.5,0.7
2022-04-08T09:00:00,1342A,112.9844,28.1178,长沙市,天心区环保局,颗粒物(PM10),54,57,74,29,35,196,73,56,53,42,49,11,10,0.5,0.5
2022-04-08T09:00:00,1343A,112.8908,28.1308,长沙市,湖南中医药大学,颗粒物(PM10),72,93,89,39,45,207,31,7,7,53,53,9,8,0.8,0.6
2022-04-08T09:00:00,1344A,112.9581,28.3611,长沙市,沙坪(对照点),颗粒物(PM10),63,75,72,41,36,189,66,88,65,27,23,10,10,0.8,0.7
2022-04-08T09:00:00,1345A,113.2347,23.1423,广州市,广雅中学,颗粒物(PM10),67,84,61,46,31,164,42,67,41,72,49,12,9,1.0,0.9
2022-04-08T09:00:00,1346A,113.2612,23.105,广州市,市五中,颗粒物(PM10),51,52,55,30,31,188,75,59,57,38,37,7,6,0.7,0.7
2022-04-08T09:00:00,1348A,113.3478,23.0916,广州市,广东商学院,颗粒物(PM10),55,60,56,28,30,174,43,32,23,63,51,8,7,0.7,0.6
2022-04-08T09:00:00,1349A,113.4332,23.1047,广州市,市八十六中,颗粒物(PM10),69,88,67,32,28,183,30,22,10,65,55,9,9,0.7,0.6
2022-04-08T09:00:00,1350A,113.3505,22.9483,广州市,番禺中学,,50,50,60,24,27,206,70,54,48,41,35,11,11,0.8,0.8
2022-04-08T09:00:00,1351A,113.2146,23.3916,广州市,花都师范,"颗粒物(PM10),细颗粒物(PM2.5)",77,104,64,56,36,154,28,101,38,79,37,7,7,0.9,0.6
2022-04-08T09:00:00,1352A,113.2597,23.1331,广州市,市监测站,颗粒物(PM10),65,79,56,37,28,184,46,65,49,72,42,10,8,0.9,0.8
2022-04-08T09:00:00,1353A,113.5618,23.312,广州市,九龙镇镇龙,颗粒物(PM10),72,93,83,41,37,134,11,6,4,49,50,6,6,0.7,0.7
2022-04-08T09:00:00,1354A,113.2765,23.1544,广州市,麓湖,颗粒物(PM10),65,79,53,42,29,167,40,57,23,63,41,10,9,0.9,0.7
2022-04-08T09:00:00,1355A,113.443,23.3035,广州市,帽峰山森林公园(对照点),颗粒物(PM10),54,58,51,36,28,143,60,23,23,19,23,6,4,0.7,0.8
2022-04-08T09:00:00,1356A,114.1063,22.5545,深圳市,通心岭子站,颗粒物(PM10),55,59,41,29,20,202,46,98,69,60,19,4,3,0.4,0.3
2022-04-08T09:00:00,1357A,114.117,22.5625,深圳市,洪湖,颗粒物(PM10),64,77,49,32,23,212,42,84,23,75,47,6,6,0.9,0.8
2022-04-08T09:00:00,1358A,113.987,22.5417,深圳市,华侨城,,42,42,43,24,22,192,63,88,64,42,35,5,6,0.6,0.5
2022-04-08T09:00:00,1359A,113.9181,22.5171,深圳市,南海子站,颗粒物(PM10),51,52,54,25,24,212,64,114,94,43,32,4,4,0.7,0.6
2022-04-08T09:00:00,1360A,114.2458,22.5689,深圳市,盐田,,42,42,31,23,17,153,78,107,88,32,25,3,4,0.7,0.6
2022-04-08T09:00:00,1361A,114.2283,22.7244,深圳市,龙岗,细颗粒物(PM2.5),78,91,54,57,28,194,38,77,24,71,40,3,4,0.7,0.5
2022-04-08T09:00:00,1363A,114.494,22.5422,深圳市,南澳,,34,33,24,18,14,138,106,134,106,12,8,5,5,0.5,0.4
2022-04-08T09:00:00,1364A,114.41,22.6342,深圳市,葵涌,,46,46,34,25,16,119,72,98,80,25,11,4,4,0.5,0.4
2022-04-08T09:00:00,1365A,114.297,22.5978,深圳市,梅沙,,47,47,32,17,14,127,94,124,113,31,11,6,5,0.5,0.5
2022-04-08T09:00:00,1366A,114.0678,22.738,深圳市,观澜,颗粒物(PM10),66,82,75,37,34,162,41,42,25,37,62,13,10,0.3,0.5
2022-04-08T09:00:00,1367A,113.5814,22.2618,珠海市,吉大,,36,36,34,11,16,139,79,83,79,34,21,10,10,0.6,0.5
2022-04-08T09:00:00,1368A,113.4881,22.2335,珠海市,前山,颗粒物(PM10),55,60,41,30,21,158,56,87,45,61,40,10,11,0.6,0.5
2022-04-08T09:00:00,1369A,113.628,22.4251,珠海市,唐家,,30,30,38,15,17,300,75,74,57,23,22,9,10,0.3,0.3
2022-04-08T09:00:00,1370A,113.299,22.2281,珠海市,斗门,颗粒物(PM10),57,63,42,37,20,226,68,102,55,36,24,14,9,0.4,0.4
2022-04-08T09:00:00,1371A,113.1294,23.0067,佛山市,湾梁,颗粒物(PM10),52,53,64,26,27,200,67,71,53,36,27,13,12,0.6,0.6
2022-04-08T09:00:00,1372A,113.1083,23.0478,佛山市,华材职中,颗粒物(PM10),67,84,66,37,30,190,62,73,43,51,39,12,8,0.6,0.6
2022-04-08T09:00:00,1373A,113.144,23.0453,佛山市,南海气象局,颗粒物(PM10),51,51,66,31,31,184,56,60,48,50,39,8,6,0.6,0.6
2022-04-08T09:00:00,1374A,113.2881,22.8094,佛山市,顺德苏岗,,48,48,58,31,32,232,56,72,45,44,33,5,4,0.8,0.8
2022-04-08T09:00:00,1376A,112.8383,22.8678,佛山市,高明孔堂,细颗粒物(PM2.5),59,43,60,42,34,215,79,94,75,20,23,11,9,0.7,0.7
2022-04-08T09:00:00,1377A,112.8836,23.1588,佛山市,三水监测站,颗粒物(PM10),85,119,74,57,39,159,44,60,35,87,56,23,8,0.8,0.7
2022-04-08T09:00:00,1378A,112.867,23.185,佛山市,三水云东海,颗粒物(PM10),74,97,67,39,30,174,48,57,38,60,36,19,9,0.8,0.7
2022-04-08T09:00:00,1379A,113.3769,22.5211,中山市,华柏园,颗粒物(PM10),53,56,51,19,29,277,57,88,69,44,28,5,6,0.9,0.7
2022-04-08T09:00:00,1380A,113.3881,22.5497,中山市,张溪,颗粒物(PM10),62,73,63,22,33,254,53,89,55,45,27,4,5,0.6,0.5
2022-04-08T09:00:00,1381A,113.4075,22.5111,中山市,紫马岭,,41,41,50,18,25,281,60,77,46,35,27,6,6,0.4,0.4
2022-04-08T09:00:00,1382A,113.4411,22.4853,中山市,长江旅游区(对照点),,23,20,40,15,26,262,71,66,53,18,21,4,4,0.4,0.4
2022-04-08T09:00:00,1383A,113.1064,22.6058,江门市,北街,颗粒物(PM10),57,64,54,22,20,267,70,85,57,38,28,14,9,0.5,0.5
2022-04-08T09:00:00,1384A,113.0731,22.5835,江门市,西区,颗粒物(PM10),56,61,64,26,31,266,58,88,44,46,33,11,10,1.0,0.6
2022-04-08T09:00:00,1385A,113.0219,22.5311,江门市,圭峰西,,49,49,54,23,30,282,73,86,78,33,23,10,9,0.9,0.5
2022-04-08T09:00:00,1386A,113.0828,22.5947,江门市,东湖,颗粒物(PM10),54,58,63,20,32,271,71,88,50,32,26,10,8,0.8,0.5
2022-04-08T09:00:00,1389A,113.7547,23.0494,东莞市,莞城梨川,颗粒物(PM10),61,72,62,38,32,197,64,91,62,40,33,12,11,0.0,0.1
2022-04-08T09:00:00,1390A,113.7944,23.0128,东莞市,东城石井,颗粒物(PM10),53,55,54,29,28,221,76,77,74,40,32,11,9,0.6,0.6
2022-04-08T09:00:00,1391A,113.7383,22.9658,东莞市,南城西平,颗粒物(PM10),70,90,68,46,40,232,43,63,28,68,49,11,9,0.7,0.6
2022-04-08T09:00:00,1392A,114.4183,23.0528,惠州市,河南岸金山湖子站,颗粒物(PM10),60,70,52,25,23,154,30,63,35,50,25,5,5,0.6,0.5
2022-04-08T09:00:00,1393A,114.4053,23.0822,惠州市,下埔横江三路子站,,,,52,40,24,157,38,75,40,48,30,8,6,0.6,0.5
2022-04-08T09:00:00,1394A,114.4103,23.1142,惠州市,江北云山西路子站,颗粒物(PM10),62,74,52,38,29,173,55,91,40,34,25,15,8,0.6,0.5
2022-04-08T09:00:00,1395A,114.4645,22.7833,惠州市,惠阳区承修路船湖子站,颗粒物(PM10),52,54,56,29,24,157,74,95,50,28,24,6,5,0.7,0.6
2022-04-08T09:00:00,1396A,114.5317,22.7422,惠州市,大亚湾管委会子站,颗粒物(PM10),65,80,54,25,23,151,61,62,27,38,37,6,5,0.8,0.6
2022-04-08T09:00:00,1397A,112.4267,23.0706,肇庆市,睦岗子站,,,62,69,38,42,196,48,44,37,,32,12,14,0.8,0.8
2022-04-08T09:00:00,1398A,112.4645,23.0475,肇庆市,城中子站,"颗粒物(PM10),细颗粒物(PM2.5)",64,77,68,46,41,185,43,68,50,48,49,28,21,0.9,0.8
2022-04-08T09:00:00,1399A,112.5544,23.1522,肇庆市,坑口子站,细颗粒物(PM2.5),54,55,54,38,35,205,70,88,76,33,19,10,11,0.6,0.5
2022-04-08T09:00:00,1400A,112.4753,23.1,肇庆市,七星岩子站(对照点),颗粒物(PM10),56,62,58,35,35,193,50,94,88,45,20,16,17,0.9,0.7
2022-04-08T09:00:00,1401A,108.3103,22.7881,南宁市,二十一中,细颗粒物(PM2.5),82,96,86,60,44,149,28,6,6,62,48,16,14,0.9,0.8
2022-04-08T09:00:00,1402A,108.3141,22.8528,南宁市,北湖,细颗粒物(PM2.5),73,87,85,53,42,139,39,12,12,45,42,19,15,0.8,0.7
2022-04-08T09:00:00,1403A,108.3206,22.8225,南宁市,市监测站,细颗粒物(PM2.5),75,96,80,55,43,137,46,17,17,56,65,24,16,0.8,0.7
2022-04-08T09:00:00,1404A,108.3829,22.8037,南宁市,大自然花园,细颗粒物(PM2.5),79,83,59,58,38,148,46,42,38,49,37,11,10,0.9,0.7
2022-04-08T09:00:00,1405A,108.4394,22.7904,南宁市,仙葫(对照点),颗粒物(PM10),76,101,90,55,43,147,23,15,12,56,51,10,12,1.0,0.6
2022-04-08T09:00:00,1406A,108.2397,22.8467,南宁市,区农职院,细颗粒物(PM2.5),70,76,52,51,28,151,32,69,48,54,25,37,15,0.8,0.6
2022-04-08T09:00:00,1407A,108.3275,22.735,南宁市,英华嘉园,细颗粒物(PM2.5),105,138,102,79,51,142,15,7,7,72,67,13,12,1.1,1
2022-04-08T09:00:00,1408A,108.2257,22.7757,南宁市,沙井镇街道办,细颗粒物(PM2.5),90,96,118,67,55,143,14,6,6,54,53,42,51,0.8,0.8
2022-04-08T09:00:00,1409A,110.576,19.9507,海口市,东寨港(对照点),,27,17,32,17,18,199,85,48,48,5,6,4,6,0.4,0.5
2022-04-08T09:00:00,1410A,110.3232,20.0574,海口市,海南大学,,27,26,34,16,18,167,84,96,78,4,5,4,6,0.4,0.4
2022-04-08T09:00:00,1411A,110.283,20.0053,海口市,秀英海南医院,,32,32,40,7,18,188,98,74,74,1,11,4,5,0.3,0.3
2022-04-08T09:00:00,1412A,110.338,19.9969,海口市,海南师范大学,,30,30,41,14,19,184,85,77,72,5,7,3,4,0.4,0.4
2022-04-08T09:00:00,1413A,110.33,20.0356,海口市,龙华路环保局宿舍,,32,28,36,16,18,190,101,93,82,2,6,5,6,0.4,0.4
2022-04-08T09:00:00,1414A,106.3787,29.8279,重庆市,缙云山(对照点),,37,34,35,16,19,175,117,149,132,11,19,10,11,0.8,0.8
2022-04-08T09:00:00,1416A,106.4213,29.8253,重庆市,天生,颗粒物(PM10),59,68,54,29,25,152,9,18,9,45,41,6,8,1.1,0.8
2022-04-08T09:00:00,1417A,106.6263,29.7228,重庆市,两路,,43,43,52,30,31,156,68,99,84,32,41,12,14,0.8,0.8
2022-04-08T09:00:00,1418A,106.2953,29.5983,重庆市,虎溪,,39,36,49,27,28,137,32,24,24,49,57,4,4,1.2,1.1
2022-04-08T09:00:00,1419A,106.5777,29.5102,重庆市,南坪,颗粒物(PM10),53,55,55,30,31,162,73,96,80,19,31,14,10,0.7,0.7
2022-04-08T09:00:00,1420A,106.6556,29.6277,重庆市,唐家沱,颗粒物(PM10),54,58,65,35,33,182,16,25,15,59,56,5,6,0.9,0.8
2022-04-08T09:00:00,1421A,106.6349,29.4906,重庆市,茶园,颗粒物(PM10),56,61,76,34,35,160,27,24,14,52,71,12,9,1.3,1.2
2022-04-08T09:00:00,1422A,106.3754,29.4572,重庆市,白市驿,,47,47,60,28,34,161,80,104,100,44,42,10,12,1.0,1
2022-04-08T09:00:00,1425A,106.6205,29.7166,重庆市,空港,颗粒物(PM10),53,55,59,24,33,169,66,110,91,35,29,9,10,0.7,0.6
2022-04-08T09:00:00,1426A,106.4782,29.4875,重庆市,新山村,颗粒物(PM10),58,66,71,40,36,148,10,12,8,98,89,12,11,1.6,1
2022-04-08T09:00:00,1427A,106.5616,29.6453,重庆市,礼嘉,颗粒物(PM10),53,56,67,29,30,147,24,80,26,77,69,10,10,0.8,0.7
2022-04-08T09:00:00,1428A,106.4522,29.7091,重庆市,蔡家,颗粒物(PM10),61,71,60,42,32,150,18,26,19,53,53,6,4,1.1,0.8
2022-04-08T09:00:00,1429A,106.5093,29.3917,重庆市,鱼新街,细颗粒物(PM2.5),59,62,63,42,30,159,33,15,15,49,63,12,7,1.2,1.2
2022-04-08T09:00:00,1431A,103.9728,30.7236,成都市,金泉两河,细颗粒物(PM2.5),87,85,91,64,67,179,41,61,30,42,40,10,4,0.8,0.7
2022-04-08T09:00:00,1432A,104.1419,30.6764,成都市,十里店,颗粒物(PM10),107,164,120,70,58,148,16,19,15,59,49,11,8,0.7,0.6
2022-04-08T09:00:00,1433A,104.0594,30.5767,成都市,三瓦窑,细颗粒物(PM2.5),124,138,87,94,57,146,9,1,1,68,56,9,5,0.9,0.7
2022-04-08T09:00:00,1434A,104.1122,30.6306,成都市,沙河铺,细颗粒物(PM2.5),170,167,112,129,82,155,23,15,15,47,45,6,4,0.7,0.6
2022-04-08T09:00:00,1437A,104.0431,30.6556,成都市,君平街,细颗粒物(PM2.5),153,159,115,117,85,175,32,41,41,52,45,13,8,0.8,0.6
2022-04-08T09:00:00,1438A,103.6202,31.0201,成都市,灵岩寺(对照点),细颗粒物(PM2.5),64,56,68,46,56,162,95,128,98,10,10,20,13,0.5,0.5
2022-04-08T09:00:00,1439A,106.6899,26.5998,贵阳市,马鞍山,,39,39,45,22,22,106,10,26,15,45,21,5,5,1.3,0.7
2022-04-08T09:00:00,1440A,106.6971,26.5694,贵阳市,市环保站,颗粒物(PM10),78,106,89,53,39,105,4,2,2,70,55,14,13,1.1,0.8
2022-04-08T09:00:00,1441A,106.6243,26.6266,贵阳市,鉴湖路,,,73,60,48,26,126,21,65,19,55,29,7,4,,0.1
2022-04-08T09:00:00,1442A,106.7487,26.6343,贵阳市,燕子冲,颗粒物(PM10),59,68,53,41,29,122,10,45,14,24,23,10,8,0.9,0.5
2022-04-08T09:00:00,1443A,106.6555,26.4365,贵阳市,碧云窝,颗粒物(PM10),68,85,77,39,35,135,17,3,3,25,25,14,7,0.5,0.5
2022-04-08T09:00:00,1444A,106.694,26.5161,贵阳市,中院村,细颗粒物(PM2.5),79,95,75,58,41,132,9,5,5,55,44,19,13,1.0,0.8
2022-04-08T09:00:00,1445A,106.7109,26.6027,贵阳市,红边门,颗粒物(PM10),68,85,68,41,32,124,6,3,2,58,50,22,12,0.9,0.5
2022-04-08T09:00:00,1446A,106.7164,26.5699,贵阳市,新华路,颗粒物(PM10),67,83,75,41,28,124,15,7,7,49,43,19,9,0.8,0.4
2022-04-08T09:00:00,1447A,106.674,26.5424,贵阳市,太慈桥,颗粒物(PM10),59,68,70,34,26,121,11,6,3,44,37,6,3,0.7,0.5
2022-04-08T09:00:00,1450A,102.8204,24.8886,昆明市,呈贡新区,颗粒物(PM10),60,70,54,38,27,139,19,9,9,57,44,10,9,0.9,0.5
2022-04-08T09:00:00,1451A,102.6251,24.9608,昆明市,西山森林公园(对照点),,33,25,29,23,18,156,103,136,115,11,8,10,9,0.5,0.4
2022-04-08T09:00:00,1452A,102.7252,25.0902,昆明市,龙泉镇,颗粒物(PM10),52,54,46,26,24,142,32,15,15,44,47,10,10,0.7,0.5
2022-04-08T09:00:00,1453A,102.7266,25.0375,昆明市,东风东路,颗粒物(PM10),54,58,49,28,24,140,25,5,5,44,45,10,6,0.7,0.6
2022-04-08T09:00:00,1454A,102.6742,25.0669,昆明市,金鼎山,颗粒物(PM10),72,94,61,50,31,147,19,17,17,55,43,33,16,0.9,0.5
2022-04-08T09:00:00,1455A,102.6644,25.0401,昆明市,碧鸡广场,颗粒物(PM10),64,77,60,36,30,142,24,9,9,54,51,14,12,0.8,0.5
2022-04-08T09:00:00,1456A,91.1319,29.6514,拉萨市,八廓街,,25,25,29,8,8,90,74,76,76,7,7,5,6,0.3,0.3
2022-04-08T09:00:00,1457A,91.1221,29.6747,拉萨市,市环保局,,28,19,24,9,8,101,88,85,85,6,9,3,4,0.2,0.3
2022-04-08T09:00:00,1458A,91.0874,29.6475,拉萨市,区监测站,,24,18,24,5,8,95,76,82,81,12,11,6,6,0.3,0.4
2022-04-08T09:00:00,1459A,91.1774,29.6541,拉萨市,西藏大学,,23,20,23,7,7,89,73,74,74,11,9,5,5,0.4,0.3
2022-04-08T09:00:00,1460A,90.9798,29.6588,拉萨市,区辐射站,,30,19,26,21,16,101,74,84,83,19,14,6,6,0.6,0.4
2022-04-08T09:00:00,1461A,91.0834,29.6292,拉萨市,拉萨火车站,,26,22,28,5,6,95,82,83,83,7,9,5,5,0.3,0.3
2022-04-08T09:00:00,1462A,108.882,34.2749,西安市,高压开关厂,颗粒物(PM10),102,153,146,55,50,168,26,8,8,81,76,15,10,0.8,0.7
2022-04-08T09:00:00,1463A,108.993,34.2629,西安市,兴庆小区,颗粒物(PM10),111,172,132,49,56,174,11,8,8,71,75,15,12,0.9,1.1
2022-04-08T09:00:00,1464A,109.06,34.2572,西安市,纺织城,颗粒物(PM10),106,161,140,52,49,153,11,4,4,57,71,11,9,0.7,0.6
2022-04-08T09:00:00,1465A,108.9356,34.2173,西安市,小寨,颗粒物(PM10),103,155,144,54,55,160,10,6,6,84,75,12,9,0.9,0.7
2022-04-08T09:00:00,1466A,108.954,34.2713,西安市,市人民体育场,颗粒物(PM10),85,120,134,59,53,159,42,15,15,60,76,18,10,0.8,0.8
2022-04-08T09:00:00,1467A,108.8922,34.2322,西安市,高新西区,颗粒物(PM10),129,207,128,85,53,164,10,32,25,107,78,15,14,0.9,0.7
2022-04-08T09:00:00,1468A,108.935,34.3474,西安市,经开区,颗粒物(PM10),81,112,127,54,56,162,44,14,14,48,61,14,8,0.7,0.5
2022-04-08T09:00:00,1469A,108.906,34.1546,西安市,长安区,颗粒物(PM10),123,195,151,69,56,129,14,5,5,68,63,10,8,0.9,0.7
2022-04-08T09:00:00,1471A,109.2186,34.3731,西安市,临潼区,颗粒物(PM10),97,143,135,57,61,168,40,44,26,48,41,18,11,0.8,0.7
2022-04-08T09:00:00,1472A,108.869,34.378,西安市,草滩(对照点),颗粒物(PM10),102,154,130,50,53,143,23,10,8,48,43,8,7,1.1,0.7
2022-04-08T09:00:00,1473A,108.985,34.1978,西安市,曲江文化产业集团,颗粒物(PM10),110,170,152,54,47,152,3,1,1,88,73,11,7,1.0,0.8
2022-04-08T09:00:00,1474A,109.051,34.3213,西安市,广运潭,颗粒物(PM10),96,142,152,55,57,172,36,8,8,43,57,17,9,0.6,0.6
2022-04-08T09:00:00,1476A,103.631,36.1031,兰州市,兰炼宾馆,颗粒物(PM10),74,98,84,40,35,161,35,60,26,47,40,52,23,0.8,0.5
2022-04-08T09:00:00,1477A,104.1373,35.9454,兰州市,榆中兰大校区(对照点),颗粒物(PM10),63,75,61,21,17,144,82,121,97,30,20,25,9,0.9,0.7
2022-04-08T09:00:00,1478A,103.8412,36.0726,兰州市,生物制品所,颗粒物(PM10),97,143,90,26,24,145,10,21,6,64,50,18,14,1.5,0.6
2022-04-08T09:00:00,1479A,103.831,36.0464,兰州市,铁路设计院,颗粒物(PM10),106,161,105,30,36,128,12,10,9,73,74,24,20,1.8,1.1
2022-04-08T09:00:00,1483A,101.524,36.6867,西宁市,第五水厂(对照点),颗粒物(PM10),65,79,52,28,16,120,49,57,50,20,20,13,11,0.9,0.6
2022-04-08T09:00:00,1484A,105.9512,38.6016,银川市,贺兰山马莲口(对照点),,35,35,42,10,11,109,96,98,97,4,5,9,9,0.4,0.4
2022-04-08T09:00:00,1488A,106.2328,38.4975,银川市,贺兰山东路,颗粒物(PM10),69,87,58,32,20,118,32,46,46,55,39,36,13,0.8,0.5
2022-04-08T09:00:00,1489A,106.1358,38.5036,银川市,学院路,颗粒物(PM10),79,107,74,29,19,117,38,28,28,44,39,31,14,0.8,0.6
2022-04-08T09:00:00,1490A,87.5801,43.8303,乌鲁木齐市,监测站,颗粒物(PM10),58,65,86,11,22,144,82,78,78,20,36,5,6,0.5,0.7
2022-04-08T09:00:00,1491A,87.6046,43.768,乌鲁木齐市,收费所,颗粒物(PM10),55,59,79,17,29,126,64,51,51,22,39,7,6,0.2,0.3
2022-04-08T09:00:00,1492A,87.4754,43.9469,乌鲁木齐市,新疆农科院农场(对照点),颗粒物(PM10),69,87,69,25,27,125,62,54,54,21,34,7,9,0.3,0.4
2022-04-08T09:00:00,1493A,87.5525,43.8711,乌鲁木齐市,铁路局,颗粒物(PM10),60,69,78,25,28,139,73,73,73,21,30,5,6,0.5,0.7
2022-04-08T09:00:00,1494A,87.6432,43.831,乌鲁木齐市,三十一中学,颗粒物(PM10),54,58,68,16,20,127,66,71,68,26,29,6,7,0.3,0.3
2022-04-08T09:00:00,1496A,87.7216,44.1747,乌鲁木齐市,米东区环保局,颗粒物(PM10),82,113,110,26,31,147,10,51,25,41,31,8,11,0.4,0.4
2022-04-08T09:00:00,1508A,112.9433,27.8614,湘潭市,板塘,颗粒物(PM10),74,98,91,52,47,193,48,59,39,54,42,27,21,1.3,0.9
2022-04-08T09:00:00,1511A,112.9118,27.8403,湘潭市,市监测站,细颗粒物(PM2.5),70,76,87,51,51,172,41,13,13,47,46,36,18,1.6,1.2
2022-04-08T09:00:00,1512A,112.8937,27.8728,湘潭市,江麓,颗粒物(PM10),79,107,106,46,49,163,17,22,6,58,47,14,16,1.2,0.9
2022-04-08T09:00:00,1513A,112.9227,27.8159,湘潭市,岳塘,颗粒物(PM10),73,95,94,42,44,189,51,31,19,45,38,33,15,1.3,0.8
2022-04-08T09:00:00,1514A,112.9074,27.9119,湘潭市,科大,颗粒物(PM10),79,107,107,51,52,180,31,11,11,65,56,13,14,0.9,0.9
2022-04-08T09:00:00,1515A,113.135,27.8244,株洲市,天台山庄,颗粒物(PM10),63,76,75,40,43,196,55,68,24,50,54,23,14,1.3,0.8
2022-04-08T09:00:00,1518A,113.095,27.8867,株洲市,株冶医院,颗粒物(PM10),60,70,82,35,42,212,67,26,26,49,55,24,14,0.8,0.7
2022-04-08T09:00:00,1519A,113.167,27.8667,株洲市,市四中,颗粒物(PM10),78,105,86,37,42,180,51,32,27,49,46,16,11,0.9,0.8
2022-04-08T09:00:00,1520A,113.143,27.8381,株洲市,火车站,颗粒物(PM10),84,117,95,42,46,208,63,45,35,43,42,22,14,1.2,0.8
2022-04-08T09:00:00,1524A,113.13,27.8528,株洲市,市监测站,细颗粒物(PM2.5),72,92,92,52,49,185,44,30,15,56,53,18,13,1.4,1
2022-04-08T09:00:00,1552A,106.805,26.3003,贵阳市,桐木岭(对照点),颗粒物(PM10),59,68,55,17,24,128,92,90,77,14,6,16,13,0.5,0.3
2022-04-08T09:00:00,1559A,113.251,27.8336,株洲市,大京风景区(对照点),,39,35,36,27,29,178,78,61,47,10,7,10,7,0.4,0.5
2022-04-08T09:00:00,1562A,113.0048,27.9153,湘潭市,昭山,颗粒物(PM10),65,80,80,37,40,172,38,10,10,51,52,18,12,1.0,0.7
2022-04-08T09:00:00,1564A,112.4876,27.9164,湘潭市,韶山(对照点),,42,42,62,20,25,182,70,86,65,13,9,10,8,0.5,0.4
2022-04-08T09:00:00,1585A,109.8756,40.6532,包头市,市环境监测站,颗粒物(PM10),60,70,58,38,27,100,35,18,18,52,46,21,20,1.1,1
2022-04-08T09:00:00,1587A,109.9991,40.5842,包头市,包头八中,颗粒物(PM10),80,109,71,46,27,106,41,15,15,46,45,36,28,0.8,1.1
2022-04-08T09:00:00,1588A,109.8538,40.6821,包头市,青山宾馆,细颗粒物(PM2.5),107,128,79,80,38,101,23,7,7,64,52,26,21,1.3,1.1
2022-04-08T09:00:00,1589A,109.8642,40.6288,包头市,惠龙物流,颗粒物(PM10),57,64,62,35,26,105,42,20,18,42,44,18,21,0.7,1
2022-04-08T09:00:00,1590A,110.0377,40.5546,包头市,东河鸿龙湾,细颗粒物(PM2.5),79,43,100,58,27,114,42,14,14,40,40,30,21,0.7,0.8
2022-04-08T09:00:00,1591A,110.0023,39.8129,鄂尔多斯市,综合楼,颗粒物(PM10),71,92,50,29,25,115,58,65,65,42,34,13,9,0.7,0.5
2022-04-08T09:00:00,1592A,109.9486,39.8261,鄂尔多斯市,巴音孟克林场办事处,颗粒物(PM10),51,51,39,17,13,116,78,87,76,26,22,13,12,0.4,0.5
2022-04-08T09:00:00,1593A,109.7736,39.5986,鄂尔多斯市,康泽苑,颗粒物(PM10),51,52,39,12,8,121,36,58,21,37,22,6,5,0.7,0.5
2022-04-08T09:00:00,1594A,109.8119,39.5989,鄂尔多斯市,华泰汽车城,颗粒物(PM10),52,53,46,14,15,120,40,12,12,38,37,10,7,0.6,0.6
2022-04-08T09:00:00,1595A,109.9734,39.7884,鄂尔多斯市,奥林花园,颗粒物(PM10),81,111,56,30,19,117,68,25,25,28,47,11,8,0.3,0.4
2022-04-08T09:00:00,1597A,122.2703,40.7094,营口市,大庆路,"颗粒物(PM10),细颗粒物(PM2.5)",79,108,92,58,56,122,122,70,70,25,28,15,12,1.2,1
2022-04-08T09:00:00,1598A,122.215,40.6511,营口市,镜湖西路,细颗粒物(PM2.5),87,93,63,64,41,127,127,75,74,20,27,11,9,1.0,0.9
2022-04-08T09:00:00,1599A,122.167,40.6655,营口市,西炮台,颗粒物(PM10),69,88,72,47,42,130,130,85,83,21,26,8,8,0.7,0.8
2022-04-08T09:00:00,1600A,124.3303,40.0625,丹东市,江湾东路,颗粒物(PM10),51,51,79,29,51,95,82,33,31,16,27,12,12,0.7,1
2022-04-08T09:00:00,1601A,124.4256,40.1503,丹东市,临江后街,颗粒物(PM10),63,75,69,41,39,105,80,42,42,20,21,19,11,1.6,1
2022-04-08T09:00:00,1602A,124.3933,40.1461,丹东市,元宝山,颗粒物(PM10),63,75,64,38,37,100,77,58,48,22,22,17,13,1.2,0.9
2022-04-08T09:00:00,1603A,124.3633,40.1092,丹东市,民主桥,颗粒物(PM10),55,60,67,31,36,97,78,36,36,14,29,13,12,0.8,0.7
2022-04-08T09:00:00,1604A,122.0303,41.1489,盘锦市,开发区,细颗粒物(PM2.5),64,61,63,46,47,110,95,63,63,25,28,18,34,0.9,0.9
2022-04-08T09:00:00,1605A,122.0485,41.0883,盘锦市,兴隆台,细颗粒物(PM2.5),67,81,73,48,46,108,99,66,66,26,32,12,18,1.0,0.9
2022-04-08T09:00:00,1606A,121.8297,41.1028,盘锦市,新生街道,颗粒物(PM10),60,69,54,36,32,107,76,57,57,31,27,10,18,1.0,0.8
2022-04-08T09:00:00,1607A,120.9092,40.7136,葫芦岛市,龙港区,颗粒物(PM10),72,93,71,38,30,118,74,104,92,30,22,14,20,0.8,0.9
2022-04-08T09:00:00,1608A,120.8392,40.7514,葫芦岛市,化工街,颗粒物(PM10),77,103,92,29,37,119,94,75,75,29,33,13,13,0.9,1
2022-04-08T09:00:00,1609A,120.8341,40.7073,葫芦岛市,新区,细颗粒物(PM2.5),64,72,68,46,38,122,85,94,86,34,26,14,17,0.8,1
2022-04-08T09:00:00,1610A,120.8695,40.7677,葫芦岛市,东城区,颗粒物(PM10),65,79,74,40,35,111,84,69,69,35,39,14,16,1.0,1.1
2022-04-08T09:00:00,1611A,118.5819,24.9117,泉州市,涂山街,,34,26,35,13,16,171,108,128,113,9,12,8,8,0.4,0.5
2022-04-08T09:00:00,1612A,118.5972,24.8978,泉州市,津头埔,,33,24,33,13,17,166,103,127,110,11,14,9,9,0.5,0.5
2022-04-08T09:00:00,1613A,118.6663,24.9424,泉州市,万安,,32,25,37,12,17,165,101,133,114,6,9,8,9,0.6,0.6
2022-04-08T09:00:00,1614A,118.6117,24.9604,泉州市,清源山(对照点),,35,31,37,9,14,169,110,147,128,5,8,9,9,0.5,0.6
2022-04-08T09:00:00,1616A,117.6795,36.229,济南市,技术学院,细颗粒物(PM2.5),134,158,172,102,97,173,102,45,40,23,37,14,21,1.0,1.5
2022-04-08T09:00:00,1618A,118.3429,35.0532,临沂市,沂河小区,细颗粒物(PM2.5),110,127,124,83,74,149,69,83,61,23,28,9,12,0.7,0.6
2022-04-08T09:00:00,1619A,118.295,35.0583,临沂市,鲁南制药厂,细颗粒物(PM2.5),87,119,112,64,60,157,65,76,60,30,30,8,9,1.0,0.9
2022-04-08T09:00:00,1620A,118.2794,34.9976,临沂市,新光毛纺厂,细颗粒物(PM2.5),100,127,118,75,63,138,53,56,46,25,24,4,8,0.7,0.8
2022-04-08T09:00:00,1621A,118.3956,35.0888,临沂市,河东保险公司,细颗粒物(PM2.5),87,114,117,64,69,150,50,72,40,37,26,5,8,0.9,0.9
2022-04-08T09:00:00,1622A,116.3032,37.4674,德州市,儿童乐园,细颗粒物(PM2.5),156,155,130,119,84,156,79,117,97,18,18,13,11,1.3,1
2022-04-08T09:00:00,1624A,116.2991,37.4451,德州市,监理站,颗粒物(PM10),113,175,146,71,67,147,76,112,93,14,14,17,14,0.8,0.5
2022-04-08T09:00:00,1625A,115.9848,36.4372,聊城市,区政府,细颗粒物(PM2.5),152,178,161,116,79,168,69,104,80,17,22,11,13,1.0,0.8
2022-04-08T09:00:00,1628A,118.0062,37.3803,滨州市,市环保局,细颗粒物(PM2.5),160,205,155,122,79,171,94,79,62,35,33,17,22,3.4,2.9
2022-04-08T09:00:00,1629A,118.0018,37.3617,滨州市,第二水厂,细颗粒物(PM2.5),153,197,147,117,79,140,78,60,48,32,33,16,18,1.4,1
2022-04-08T09:00:00,1630A,117.9776,37.393,滨州市,北中新校,细颗粒物(PM2.5),152,167,124,116,73,144,84,73,41,37,42,12,16,1.2,0.9
2022-04-08T09:00:00,1631A,118.0414,36.8103,淄博市,人民公园,细颗粒物(PM2.5),124,166,164,94,91,174,108,109,103,16,42,5,21,0.7,0.9
2022-04-08T09:00:00,1633A,117.8525,36.4847,淄博市,双山,细颗粒物(PM2.5),153,150,128,117,83,150,113,114,94,8,19,4,9,0.9,1
2022-04-08T09:00:00,1634A,117.9592,36.6331,淄博市,气象站,细颗粒物(PM2.5),125,178,164,95,78,184,115,126,107,20,36,10,21,1.4,1.3
2022-04-08T09:00:00,1635A,118.3092,36.8194,淄博市,莆田园,细颗粒物(PM2.5),104,144,160,78,78,181,131,116,116,10,36,6,20,0.8,1.3
2022-04-08T09:00:00,1637A,117.558,34.8438,枣庄市,市中区政府,,,144,131,,76,158,52,63,50,17,19,5,10,0.9,1.1
2022-04-08T09:00:00,1638A,117.2852,34.7837,枣庄市,薛城环保局,细颗粒物(PM2.5),170,144,118,129,86,146,53,93,58,14,17,7,9,0.4,0.4
2022-04-08T09:00:00,1639A,117.5852,34.7745,枣庄市,峄城区政府,细颗粒物(PM2.5),132,141,141,100,83,137,53,75,58,23,20,9,11,0.6,0.7
2022-04-08T09:00:00,1640A,117.7276,34.5578,枣庄市,台儿庄区环保局,细颗粒物(PM2.5),98,102,90,73,58,127,36,59,38,24,26,8,8,1.0,1
2022-04-08T09:00:00,1641A,117.4518,35.0992,枣庄市,山亭区环保局,细颗粒物(PM2.5),110,100,122,83,78,183,110,100,100,18,28,13,18,1.2,1.4
2022-04-08T09:00:00,1642A,121.2514,37.5639,烟台市,开发区,颗粒物(PM10),79,107,85,36,32,117,112,94,94,25,31,4,7,0.6,0.6
2022-04-08T09:00:00,1643A,121.3719,37.5433,烟台市,轴承厂,颗粒物(PM10),62,73,76,41,36,145,139,123,123,14,27,5,8,0.7,0.7
2022-04-08T09:00:00,1644A,121.3181,37.5436,烟台市,西郊化工站,颗粒物(PM10),65,80,85,39,33,142,138,124,124,14,34,6,10,0.4,0.5
2022-04-08T09:00:00,1645A,121.4478,37.4822,烟台市,莱山环保局,颗粒物(PM10),62,73,70,38,28,121,118,101,101,13,20,5,7,0.6,0.6
2022-04-08T09:00:00,1646A,121.2611,37.4967,烟台市,福山环保局,颗粒物(PM10),65,80,92,36,35,137,137,77,77,15,33,6,10,0.8,1
2022-04-08T09:00:00,1650A,119.1437,36.7023,潍坊市,环保局,细颗粒物(PM2.5),118,134,119,89,63,177,79,98,77,19,24,6,10,1.0,1
2022-04-08T09:00:00,1653A,116.6251,35.4302,济宁市,火炬城,细颗粒物(PM2.5),147,117,116,112,84,174,75,89,69,8,16,12,10,1.2,1
2022-04-08T09:00:00,1655A,116.5491,35.4042,济宁市,电化厂,细颗粒物(PM2.5),132,134,135,100,86,173,74,98,70,16,19,10,8,1.1,1
2022-04-08T09:00:00,1656A,117.1437,36.1937,泰安市,监测站,"颗粒物(PM10),细颗粒物(PM2.5)",93,136,146,69,82,176,126,134,116,10,14,10,16,0.4,0.5
2022-04-08T09:00:00,1657A,117.0885,36.2017,泰安市,人口学校,细颗粒物(PM2.5),99,134,145,74,80,151,114,132,108,12,16,4,8,0.7,0.8
2022-04-08T09:00:00,1658A,117.1089,36.1758,泰安市,电力学校,细颗粒物(PM2.5),112,129,143,84,95,164,114,120,98,14,21,8,12,0.7,0.8
2022-04-08T09:00:00,1659A,119.471,35.4209,日照市,监测站,细颗粒物(PM2.5),69,66,84,50,47,105,76,79,69,37,44,4,5,0.7,0.7
2022-04-08T09:00:00,1660A,119.523,35.4216,日照市,市政府广场,,49,44,70,34,35,121,121,106,106,15,33,3,5,0.7,0.7
2022-04-08T09:00:00,1661A,119.5587,35.4044,日照市,港务局,,44,29,59,19,26,139,139,131,131,8,24,2,4,0.7,0.8
2022-04-08T09:00:00,1662A,122.1214,37.4236,威海市,华夏技校,细颗粒物(PM2.5),67,66,68,48,35,144,144,110,109,12,17,2,5,0.5,0.4
2022-04-08T09:00:00,1663A,122.0508,37.5236,威海市,山大分校,,,59,53,,,153,142,138,138,11,16,3,6,0.4,0.3
2022-04-08T09:00:00,1664A,122.1067,37.5072,威海市,市监测站,颗粒物(PM10),56,61,65,21,24,137,135,111,111,6,19,4,7,0.3,0.4
2022-04-08T09:00:00,1666A,118.6614,37.4309,东营市,市环保局,细颗粒物(PM2.5),113,112,121,85,70,202,71,61,52,21,28,20,29,1.2,0.9
2022-04-08T09:00:00,1669A,113.5824,24.7733,韶关市,市八中,,50,50,52,27,25,150,35,51,42,33,27,38,19,0.6,0.5
2022-04-08T09:00:00,1671A,113.5917,24.7972,韶关市,园林处,颗粒物(PM10),59,67,64,35,34,146,32,26,13,27,26,40,24,0.8,0.7
2022-04-08T09:00:00,1672A,113.6735,24.7791,韶关市,韶关学院,,40,36,44,28,30,156,54,33,20,20,16,68,17,0.5,0.4
2022-04-08T09:00:00,1673A,113.5971,24.6863,韶关市,曲江监测站,颗粒物(PM10),57,64,52,28,25,143,33,46,24,35,28,28,13,1.1,0.7
2022-04-08T09:00:00,1674A,116.6794,23.3667,汕头市,金平子站,颗粒物(PM10),86,121,61,49,22,154,73,105,53,48,27,55,18,1.0,0.6
2022-04-08T09:00:00,1675A,116.7244,23.3633,汕头市,龙湖子站,颗粒物(PM10),62,73,51,38,19,137,78,105,64,43,25,26,12,1.0,0.5
2022-04-08T09:00:00,1676A,116.7258,23.2775,汕头市,濠江子站,颗粒物(PM10),61,71,38,35,17,150,80,132,77,34,14,26,12,1.0,0.5
2022-04-08T09:00:00,1677A,116.7519,23.4714,汕头市,澄海子站,颗粒物(PM10),67,83,54,37,24,118,60,82,43,30,24,13,10,0.8,0.6
2022-04-08T09:00:00,1678A,116.6092,23.2539,汕头市,潮阳子站,颗粒物(PM10),58,65,43,27,14,143,85,131,82,28,18,22,12,0.9,0.4
2022-04-08T09:00:00,1680A,110.3539,21.2706,湛江市,湛江影剧院,,39,39,49,24,27,176,70,91,75,14,12,8,10,0.6,0.7
2022-04-08T09:00:00,1681A,110.3928,21.2228,湛江市,市环境监测站,,45,45,44,27,27,186,77,99,83,15,10,8,8,0.5,0.6
2022-04-08T09:00:00,1682A,110.4019,21.1997,湛江市,环保局宿舍,,,46,42,21,23,182,,95,82,19,11,6,7,0.4,0.4
2022-04-08T09:00:00,1683A,110.4111,21.2028,湛江市,霞山游泳场,,42,37,38,29,25,177,72,93,78,15,13,10,8,0.4,0.5
2022-04-08T09:00:00,1684A,110.3316,21.2679,湛江市,麻章区环保局,,40,29,57,28,33,179,81,84,77,10,13,8,13,0.5,0.6
2022-04-08T09:00:00,1685A,110.4558,21.2567,湛江市,坡头区环保局,,40,40,46,27,26,189,68,98,78,15,12,8,4,0.5,0.5
2022-04-08T09:00:00,1686A,111.0286,21.4688,茂名市,电白南海,颗粒物(PM10),54,58,45,34,21,157,73,73,58,14,13,11,8,0.7,0.6
2022-04-08T09:00:00,1687A,110.9294,21.6533,茂名市,茂石化七小,细颗粒物(PM2.5),79,80,60,58,34,175,74,83,76,25,16,54,20,0.8,0.6
2022-04-08T09:00:00,1688A,110.9107,21.6687,茂名市,健康路,颗粒物(PM10),60,70,57,40,31,180,70,91,75,20,12,31,17,0.9,0.7
2022-04-08T09:00:00,1689A,110.8592,21.6828,茂名市,高岭,颗粒物(PM10),65,80,68,34,25,190,64,77,53,17,17,45,21,1.5,0.8
2022-04-08T09:00:00,1690A,116.1231,24.3284,梅州市,梅江月梅,细颗粒物(PM2.5),52,41,50,36,32,142,67,105,53,19,15,7,8,0.5,0.5
2022-04-08T09:00:00,1691A,116.0797,24.2719,梅州市,梅县新城,,45,42,51,31,35,142,79,82,49,24,23,9,7,0.7,0.6
2022-04-08T09:00:00,1692A,116.1248,24.2654,梅州市,环境监控中心,颗粒物(PM10),55,60,57,38,35,139,86,68,49,24,28,23,12,0.6,0.6
2022-04-08T09:00:00,1693A,115.3653,22.775,汕尾市,市环保局,,29,25,35,20,16,120,86,104,82,16,13,9,9,0.6,0.5
2022-04-08T09:00:00,1694A,115.3706,22.7898,汕尾市,市政府,颗粒物(PM10),62,73,36,22,19,133,83,104,88,29,13,10,7,0.5,0.4
2022-04-08T09:00:00,1695A,115.3622,22.7925,汕尾市,新城中学,,40,40,37,24,22,121,79,98,84,25,11,7,6,0.5,0.5
2022-04-08T09:00:00,1696A,114.6778,23.7569,河源市,源西(对照点),,36,36,52,24,26,147,61,46,25,17,33,6,5,0.6,0.7
2022-04-08T09:00:00,1697A,114.6944,23.7586,河源市,东埔,,42,35,51,29,28,145,56,74,44,26,27,6,6,0.8,0.7
2022-04-08T09:00:00,1698A,114.6892,23.7233,河源市,老城,,46,46,48,30,30,148,55,79,52,27,23,5,5,0.8,0.7
2022-04-08T09:00:00,1699A,111.9797,21.8593,阳江市,鸳鸯湖(对照点),颗粒物(PM10),51,51,34,22,20,158,66,114,63,26,11,7,7,1.0,0.6
2022-04-08T09:00:00,1701A,111.9491,21.8658,阳江市,马南垌,颗粒物(PM10),53,55,41,30,25,161,63,104,39,36,15,6,6,1.1,0.6
2022-04-08T09:00:00,1702A,113.0426,23.691,清远市,环保大楼(对照点),细颗粒物(PM2.5),67,71,51,48,35,162,43,78,38,38,23,10,11,0.7,0.7
2022-04-08T09:00:00,1703A,113.0208,23.7106,清远市,凤城街办,细颗粒物(PM2.5),63,72,54,45,32,151,52,84,58,38,23,9,9,1.0,0.8
2022-04-08T09:00:00,1705A,116.6367,23.6719,潮州市,西园路(对照点),,48,37,58,33,38,148,71,61,49,16,19,18,15,0.7,0.7
2022-04-08T09:00:00,1706A,116.6447,23.6706,潮州市,档案局,,50,50,54,26,31,141,67,54,45,16,19,20,14,0.8,0.6
2022-04-08T09:00:00,1708A,116.3701,23.5345,揭阳市,新兴,细颗粒物(PM2.5),63,47,65,45,39,164,73,65,48,27,27,21,13,1.1,0.8
2022-04-08T09:00:00,1709A,116.3264,23.5443,揭阳市,西马,细颗粒物(PM2.5),62,72,70,44,33,167,58,50,42,29,22,21,10,0.8,0.7
2022-04-08T09:00:00,1710A,116.3611,23.5626,揭阳市,东兴,颗粒物(PM10),65,79,71,42,30,161,58,42,34,36,28,18,15,1.0,0.8
2022-04-08T09:00:00,1711A,116.4151,23.5294,揭阳市,渔湖,细颗粒物(PM2.5),70,74,53,51,31,149,60,72,19,32,29,16,12,0.7,0.6
2022-04-08T09:00:00,1712A,112.0392,22.9169,云浮市,新市府(对照点),细颗粒物(PM2.5),67,50,56,48,44,183,58,112,65,23,13,8,10,0.8,0.6
2022-04-08T09:00:00,1714A,112.0539,22.9539,云浮市,牧羊,细颗粒物(PM2.5),114,101,78,86,37,176,28,47,38,52,25,52,15,0.8,0.6
2022-04-08T09:00:00,1715A,102.575,24.3711,玉溪市,东风水库,,32,22,30,22,21,131,38,50,35,12,11,6,6,0.7,0.5
2022-04-08T09:00:00,1718A,115.4208,35.2464,菏泽市,气象局,细颗粒物(PM2.5),142,143,141,108,73,156,76,101,79,16,21,7,14,0.7,0.6
2022-04-08T09:00:00,1719A,115.4747,35.2375,菏泽市,市政协,细颗粒物(PM2.5),132,143,138,100,66,145,78,103,76,18,20,9,13,0.7,0.5
2022-04-08T09:00:00,1721A,113.3819,40.1097,大同市,果树场(对照点),颗粒物(PM10),102,153,87,43,28,106,40,23,23,50,30,36,16,1.0,0.5
2022-04-08T09:00:00,1723A,113.2994,40.0758,大同市,云冈宾馆,颗粒物(PM10),122,194,109,43,32,105,15,4,4,63,37,23,19,1.2,0.6
2022-04-08T09:00:00,1724A,113.3444,40.0917,大同市,大同大学,颗粒物(PM10),106,162,84,36,23,100,28,13,13,57,39,29,20,1.0,0.4
2022-04-08T09:00:00,1725A,113.2661,40.1269,大同市,安家小村,颗粒物(PM10),112,173,112,41,18,108,64,23,23,28,30,48,24,1.4,0.7
2022-04-08T09:00:00,1726A,113.2711,40.0844,大同市,教育学院,颗粒物(PM10),97,144,87,32,18,90,20,22,10,68,42,34,25,2.0,0.7
2022-04-08T09:00:00,1727A,113.1147,36.1547,长治市,清华站,细颗粒物(PM2.5),128,159,90,97,44,145,40,110,72,68,33,17,17,1.2,0.8
2022-04-08T09:00:00,1728A,113.1031,36.1989,长治市,监测站,细颗粒物(PM2.5),144,152,81,110,46,150,62,108,68,44,20,53,14,1.6,0.9
2022-04-08T09:00:00,1730A,113.0886,36.2125,长治市,审计局,细颗粒物(PM2.5),125,140,79,95,43,148,69,114,72,42,22,62,17,1.8,1.1
2022-04-08T09:00:00,1731A,113.0844,36.1856,长治市,长治八中,颗粒物(PM10),130,209,105,91,43,146,59,120,74,48,26,90,23,1.5,0.9
2022-04-08T09:00:00,1733A,111.5531,36.0783,临汾市,临钢医院,细颗粒物(PM2.5),74,94,89,54,44,179,50,37,35,39,40,20,22,1.0,1.1
2022-04-08T09:00:00,1734A,111.5028,36.0714,临汾市,技工学校,颗粒物(PM10),80,110,98,50,45,185,63,40,40,35,42,32,25,0.8,0.9
2022-04-08T09:00:00,1736A,111.5018,36.0855,临汾市,市委,颗粒物(PM10),73,95,89,46,41,165,59,38,38,33,42,32,24,1.2,1.2
2022-04-08T09:00:00,1738A,113.5758,37.8572,阳泉市,市中心,颗粒物(PM10),102,154,97,60,32,111,37,16,16,69,55,108,26,1.4,0.8
2022-04-08T09:00:00,1739A,113.4894,37.8731,阳泉市,赛鱼,颗粒物(PM10),62,74,59,30,24,112,70,34,34,50,58,37,22,0.9,0.6
2022-04-08T09:00:00,1740A,113.5819,37.8486,阳泉市,南庄,颗粒物(PM10),110,170,92,42,32,113,34,24,24,73,47,128,33,1.3,0.8
2022-04-08T09:00:00,1742A,113.5614,37.8703,阳泉市,平坦,颗粒物(PM10),123,196,95,50,29,112,27,8,8,69,57,86,24,1.5,0.8
2022-04-08T09:00:00,1743A,113.5158,37.8392,阳泉市,大阳泉,颗粒物(PM10),60,70,49,22,19,118,112,104,104,26,19,21,12,0.6,0.4
2022-04-08T09:00:00,1744A,118.9233,42.2816,赤峰市,松山一中,颗粒物(PM10),63,76,50,27,26,104,103,62,62,23,32,14,22,0.7,0.8
2022-04-08T09:00:00,1745A,118.9576,42.2728,赤峰市,哈达街,颗粒物(PM10),67,84,53,25,24,105,98,64,64,24,27,5,18,0.7,0.8
2022-04-08T09:00:00,1746A,118.8788,42.2554,赤峰市,天义路,颗粒物(PM10),66,81,34,32,14,112,108,86,86,17,24,10,12,0.7,0.6
2022-04-08T09:00:00,1748A,123.044,41.1196,鞍山市,深沟寺,细颗粒物(PM2.5),58,60,58,41,34,135,135,93,93,12,13,9,9,0.7,0.8
2022-04-08T09:00:00,1749A,123.011,41.0931,鞍山市,太阳城,细颗粒物(PM2.5),55,58,52,39,32,130,130,88,88,15,18,10,10,0.6,0.7
2022-04-08T09:00:00,1750A,123.0485,41.1442,鞍山市,太平,颗粒物(PM10),68,85,61,43,38,126,126,84,84,17,22,11,12,0.6,0.6
2022-04-08T09:00:00,1751A,122.9642,41.0971,鞍山市,铁西三道街,颗粒物(PM10),74,97,72,37,39,116,116,56,56,21,35,11,16,1.0,1.3
2022-04-08T09:00:00,1752A,122.9341,41.0833,鞍山市,铁西工业园区,颗粒物(PM10),62,74,76,33,49,123,123,76,76,11,30,10,14,0.7,1
2022-04-08T09:00:00,1753A,123.022,41.0821,鞍山市,明达新区,颗粒物(PM10),65,80,58,38,33,119,119,80,80,16,17,9,10,0.7,0.8
2022-04-08T09:00:00,1754A,123.1289,41.0228,鞍山市,千山(对照点),,43,43,37,26,24,113,113,65,65,12,13,11,10,0.6,0.6
2022-04-08T09:00:00,1755A,123.7977,41.8491,抚顺市,望花区,颗粒物(PM10),83,115,75,30,44,106,87,44,44,22,23,21,14,1.0,0.8
2022-04-08T09:00:00,1756A,123.9161,41.8822,抚顺市,顺城区,细颗粒物(PM2.5),65,74,58,47,40,100,58,47,47,49,27,8,7,0.8,0.5
2022-04-08T09:00:00,1757A,124.0436,41.8611,抚顺市,东洲区,颗粒物(PM10),78,106,57,24,33,103,94,62,55,18,15,11,7,1.2,0.7
2022-04-08T09:00:00,1758A,123.9247,41.8642,抚顺市,新抚区,颗粒物(PM10),85,120,74,46,55,107,76,37,37,30,26,12,9,0.9,0.7
2022-04-08T09:00:00,1759A,124.0972,41.8961,抚顺市,大伙房水库,颗粒物(PM10),52,53,49,22,35,117,112,77,77,7,10,6,5,0.5,0.5
2022-04-08T09:00:00,1760A,123.7086,41.8391,抚顺市,沈抚新城,颗粒物(PM10),77,104,73,31,44,113,91,45,45,17,24,11,11,1.2,1.2
2022-04-08T09:00:00,1761A,123.8275,41.3064,本溪市,大峪,颗粒物(PM10),69,88,62,15,35,115,115,65,65,8,24,14,15,0.6,0.8
2022-04-08T09:00:00,1762A,123.7567,41.3325,本溪市,溪湖,颗粒物(PM10),52,54,70,18,39,113,95,50,50,21,32,17,18,0.8,0.9
2022-04-08T09:00:00,1763A,123.7169,41.3094,本溪市,彩屯,颗粒物(PM10),73,95,78,36,47,108,71,38,38,44,34,89,25,2.6,1.4
2022-04-08T09:00:00,1764A,123.7669,41.2864,本溪市,东明,颗粒物(PM10),69,87,68,22,37,109,105,67,67,12,29,7,10,0.6,0.7
2022-04-08T09:00:00,1765A,123.7992,41.2664,本溪市,新立屯,颗粒物(PM10),64,78,60,17,26,116,109,109,109,7,20,10,14,0.5,0.6
2022-04-08T09:00:00,1766A,123.8142,41.3472,本溪市,威宁,颗粒物(PM10),57,64,97,17,53,107,94,42,42,10,32,14,13,0.7,1
2022-04-08T09:00:00,1767A,121.1115,41.0879,锦州市,南山,颗粒物(PM10),70,90,65,50,43,98,85,65,65,27,28,24,17,0.7,0.6
2022-04-08T09:00:00,1768A,121.0533,40.8434,锦州市,开发区,颗粒物(PM10),95,139,108,46,41,109,64,55,55,34,52,11,17,0.7,0.9
2022-04-08T09:00:00,1769A,121.1836,41.1119,锦州市,百股街道,颗粒物(PM10),69,88,60,45,37,111,97,88,88,22,17,17,17,0.8,0.7
2022-04-08T09:00:00,1770A,121.1178,41.1222,锦州市,天安街道,颗粒物(PM10),76,102,76,49,40,111,99,81,81,27,27,25,19,1.0,0.9
2022-04-08T09:00:00,1771A,121.1303,41.1386,锦州市,北湖公园,细颗粒物(PM2.5),67,80,66,48,40,107,96,84,84,25,21,23,17,0.8,0.7
2022-04-08T09:00:00,1772A,126.54,43.8622,吉林市,哈达湾,,,25,28,12,18,105,,87,87,,7,,6,,0.1
2022-04-08T09:00:00,1773A,126.5844,43.8358,吉林市,东局子,,33,30,26,14,18,107,105,93,93,6,6,5,4,0.5,0.5
2022-04-08T09:00:00,1774A,126.5052,43.8245,吉林市,电力学院,,36,23,34,11,25,124,114,93,93,6,10,9,9,0.5,0.5
2022-04-08T09:00:00,1775A,126.6133,43.8972,吉林市,江北,,35,35,38,13,20,104,104,94,94,8,9,8,7,0.5,0.5
2022-04-08T09:00:00,1776A,126.555,43.8306,吉林市,江南公园,,32,29,26,16,20,103,101,86,86,6,7,6,6,0.5,0.5
2022-04-08T09:00:00,1778A,126.7061,43.7133,吉林市,丰满(对照点),,33,16,21,12,18,105,105,86,86,4,4,6,5,0.7,0.6
2022-04-08T09:00:00,1779A,123.9305,47.3636,齐齐哈尔市,安居小区,颗粒物(PM10),81,112,68,37,45,99,59,66,61,18,19,4,15,0.7,0.6
2022-04-08T09:00:00,1780A,123.9488,47.3386,齐齐哈尔市,中心广场,颗粒物(PM10),72,93,66,50,46,98,58,64,56,13,15,15,24,0.6,0.5
2022-04-08T09:00:00,1781A,123.9483,47.3227,齐齐哈尔市,农牧车辆厂,颗粒物(PM10),73,95,65,24,39,95,59,66,61,17,14,5,6,0.7,0.6
2022-04-08T09:00:00,1783A,123.945,47.2988,齐齐哈尔市,市环境监测站,颗粒物(PM10),77,104,65,47,40,96,62,63,60,15,13,5,4,0.6,0.5
2022-04-08T09:00:00,1784A,129.61,44.561,牡丹江市,环保大楼,,29,18,54,11,37,96,92,68,68,7,11,3,4,0.3,0.4
2022-04-08T09:00:00,1785A,129.6115,44.5782,牡丹江市,文化广场,,,,55,,41,99,,68,68,7,11,4,5,,0.4
2022-04-08T09:00:00,1786A,129.5904,44.5963,牡丹江市,第一医院,,42,34,59,29,56,94,88,60,60,10,14,5,5,0.5,0.6
2022-04-08T09:00:00,1787A,129.6364,44.6075,牡丹江市,机车工厂,,29,24,46,11,31,95,91,53,53,6,18,6,7,0.2,0.3
2022-04-08T09:00:00,1788A,129.6386,44.5462,牡丹江市,第一中学,,30,30,43,13,31,99,95,68,68,8,15,2,3,0.2,0.3
2022-04-08T09:00:00,1789A,124.81117,46.03138,大庆市,大同区,颗粒物(PM10),65,80,48,41,36,125,71,73,73,14,7,6,4,1.1,0.9
2022-04-08T09:00:00,1790A,125.129,46.533,大庆市,龙凤区,颗粒物(PM10),52,54,36,27,24,102,61,68,67,16,10,5,6,0.6,0.4
2022-04-08T09:00:00,1791A,124.902,46.408,大庆市,红岗区,,42,42,34,20,26,119,70,65,65,7,7,4,3,1.1,0.9
2022-04-08T09:00:00,1792A,125.153,46.586,大庆市,萨尔图区,细颗粒物(PM2.5),59,61,41,42,37,107,59,72,69,22,11,7,8,0.6,0.5
2022-04-08T09:00:00,1793A,124.9042,46.6215,大庆市,让胡路区,颗粒物(PM10),56,61,39,31,26,116,74,79,78,18,11,6,7,1.0,0.9
2022-04-08T09:00:00,1794A,118.3606,31.3519,芜湖市,监测站,颗粒物(PM10),63,75,89,16,20,177,97,122,65,26,51,12,15,0.6,0.8
2022-04-08T09:00:00,1795A,118.3714,31.4134,芜湖市,科创中心,颗粒物(PM10),64,77,82,30,40,169,78,30,30,36,67,8,13,0.7,1.1
2022-04-08T09:00:00,1796A,118.3673,31.3131,芜湖市,四水厂,颗粒物(PM10),69,88,85,15,19,173,84,80,72,23,37,7,12,0.7,0.9
2022-04-08T09:00:00,1798A,118.5092,31.6837,马鞍山市,湖东路四小,细颗粒物(PM2.5),62,52,72,44,38,178,112,87,87,23,30,17,12,0.9,0.9
2022-04-08T09:00:00,1799A,118.5024,31.6449,马鞍山市,开发区,颗粒物(PM10),63,76,90,32,37,174,109,62,62,24,61,19,14,0.9,1.1
2022-04-08T09:00:00,1800A,118.5228,31.7231,马鞍山市,慈湖,颗粒物(PM10),65,79,81,44,42,154,105,90,82,27,36,19,16,0.8,0.9
2022-04-08T09:00:00,1802A,118.6245,31.7241,马鞍山市,濮塘(对照点),细颗粒物(PM2.5),67,73,61,48,33,158,113,120,103,17,12,20,15,0.6,0.6
2022-04-08T09:00:00,1803A,115.9872,29.6815,九江市,十里,颗粒物(PM10),63,75,68,21,29,161,61,31,31,48,48,10,8,0.7,0.7
2022-04-08T09:00:00,1804A,115.9584,29.7046,九江市,茅山头,颗粒物(PM10),61,71,77,32,28,159,43,15,15,44,54,9,7,0.5,0.4
2022-04-08T09:00:00,1805A,115.9877,29.7295,九江市,西园,颗粒物(PM10),68,86,76,35,35,148,15,4,4,91,66,19,14,0.5,0.5
2022-04-08T09:00:00,1806A,116.0172,29.6547,九江市,五七二七厂,颗粒物(PM10),59,67,52,20,19,157,85,94,88,31,18,7,7,0.6,0.5
2022-04-08T09:00:00,1808A,115.9114,29.6038,九江市,综合工业园,颗粒物(PM10),62,73,67,27,29,161,66,44,42,32,41,9,8,0.2,0.5
2022-04-08T09:00:00,1809A,116.0721,29.7535,九江市,石化总厂,颗粒物(PM10),63,75,79,30,34,193,47,51,43,45,43,25,15,0.4,0.5
2022-04-08T09:00:00,1810A,115.9773,29.5698,九江市,庐山气象台(对照点),,45,40,46,25,15,151,142,139,139,4,4,6,4,0.2,0.2
2022-04-08T09:00:00,1812A,112.3931,34.6516,洛阳市,市委党校,"颗粒物(PM10),细颗粒物(PM2.5)",117,183,155,88,69,193,62,114,46,32,32,9,8,1.1,0.9
2022-04-08T09:00:00,1814A,112.4657,34.6871,洛阳市,豫西宾馆,细颗粒物(PM2.5),130,193,144,99,74,184,56,93,46,50,32,13,10,1.5,1.1
2022-04-08T09:00:00,1815A,112.494,34.6886,洛阳市,河南林校,细颗粒物(PM2.5),128,202,155,97,67,183,60,96,52,48,30,11,8,1.0,0.6
2022-04-08T09:00:00,1816A,112.3844,34.623,洛阳市,开发区管委会,细颗粒物(PM2.5),123,165,142,93,73,188,49,101,52,37,28,9,7,0.8,0.7
2022-04-08T09:00:00,1817A,112.4267,34.6258,洛阳市,市委新办公区,细颗粒物(PM2.5),124,179,154,94,72,182,67,101,60,28,28,8,7,0.9,0.7
2022-04-08T09:00:00,1818A,114.4839,36.0621,安阳市,棉研所(对照点),颗粒物(PM10),94,138,129,59,52,138,55,60,45,19,23,15,12,0.9,1
2022-04-08T09:00:00,1819A,114.3551,36.1017,安阳市,红庙街,细颗粒物(PM2.5),108,136,129,81,62,148,54,66,50,32,28,12,15,0.9,1.1
2022-04-08T09:00:00,1820A,114.361,36.0681,安阳市,银杏小区,细颗粒物(PM2.5),85,116,127,63,64,152,52,61,52,29,30,9,12,1.0,1.1
2022-04-08T09:00:00,1824A,114.3389,34.7781,开封市,肿瘤医院,细颗粒物(PM2.5),130,150,118,99,63,159,59,62,52,19,19,16,10,0.9,0.7
2022-04-08T09:00:00,1826A,114.2885,34.7965,开封市,世纪星幼儿园,细颗粒物(PM2.5),98,142,112,73,55,167,65,89,71,20,16,16,12,0.8,0.7
2022-04-08T09:00:00,1828A,113.2269,35.2127,焦作市,市环保局,细颗粒物(PM2.5),168,176,134,127,78,187,66,85,61,44,25,21,11,1.0,0.9
2022-04-08T09:00:00,1829A,113.2467,35.176,焦作市,高新区政府,,,,151,,81,174,36,88,34,52,32,,16,0.9,0.8
2022-04-08T09:00:00,1830A,113.1987,35.2703,焦作市,影视城(对照点),细颗粒物(PM2.5),113,162,124,85,60,173,90,137,121,22,9,19,15,1.8,1.2
2022-04-08T09:00:00,1832A,113.3257,33.742,平顶山市,新华旅馆,细颗粒物(PM2.5),94,129,146,70,73,151,70,69,22,27,30,15,14,0.6,0.5
2022-04-08T09:00:00,1833A,113.2919,33.737,平顶山市,规划设计院,颗粒物(PM10),96,141,142,67,62,147,67,82,37,25,26,6,8,0.6,0.5
2022-04-08T09:00:00,1834A,113.182,33.774,平顶山市,平顶山工学院,,,140,137,63,62,148,,76,53,25,21,8,9,0.7,0.6
2022-04-08T09:00:00,1835A,111.1922,34.7752,三门峡市,市政府,细颗粒物(PM2.5),124,124,108,94,64,157,105,138,116,21,21,20,14,1.0,0.8
2022-04-08T09:00:00,1836A,111.1587,34.7942,三门峡市,开发区,细颗粒物(PM2.5),129,142,116,98,69,152,105,134,116,22,18,22,16,0.8,0.6
2022-04-08T09:00:00,1838A,111.143,34.7955,三门峡市,风景区(对照点),细颗粒物(PM2.5),117,130,113,88,57,148,101,128,112,21,18,20,15,1.0,0.7
2022-04-08T09:00:00,1840A,111.2992,30.6981,宜昌市,白龙岗,颗粒物(PM10),53,56,58,29,26,148,20,41,34,49,33,6,6,0.6,0.3
2022-04-08T09:00:00,1841A,111.3549,30.6465,宜昌市,伍家岗,颗粒物(PM10),56,61,60,31,30,147,13,16,10,55,40,4,5,0.6,0.5
2022-04-08T09:00:00,1842A,111.2628,30.6961,宜昌市,点军区,颗粒物(PM10),51,52,70,29,30,161,26,40,27,29,28,8,8,0.5,0.5
2022-04-08T09:00:00,1843A,111.3275,30.7819,宜昌市,夷陵区,颗粒物(PM10),53,55,57,24,22,146,29,45,26,34,25,4,4,0.4,0.3
2022-04-08T09:00:00,1844A,112.2494,30.3197,荆州市,市图书馆,颗粒物(PM10),71,91,74,42,32,165,85,76,76,37,35,17,17,0.8,0.6
2022-04-08T09:00:00,1845A,112.2008,30.3544,荆州市,市委党校,颗粒物(PM10),68,86,70,43,38,161,83,74,73,29,32,20,14,0.8,0.6
2022-04-08T09:00:00,1847A,113.1094,29.3578,岳阳市,南湖风景区,颗粒物(PM10),53,55,63,20,33,162,96,94,94,29,34,14,9,0.6,0.7
2022-04-08T09:00:00,1848A,113.1493,29.4251,岳阳市,城陵矶,颗粒物(PM10),66,81,72,30,32,151,101,88,88,25,43,13,13,0.6,0.6
2022-04-08T09:00:00,1849A,113.1497,29.3575,岳阳市,开发区,颗粒物(PM10),61,72,81,25,31,185,84,105,102,25,24,11,10,0.5,0.5
2022-04-08T09:00:00,1850A,113.2621,29.4758,岳阳市,云溪区,,49,49,54,26,32,166,104,110,110,20,23,12,14,0.4,0.6
2022-04-08T09:00:00,1851A,112.9943,29.4402,岳阳市,君山区,颗粒物(PM10),64,78,59,35,37,167,99,85,85,20,30,16,11,0.5,0.7
2022-04-08T09:00:00,1852A,113.2117,29.355,岳阳市,金凤水库(对照点),颗粒物(PM10),51,51,52,31,34,165,57,62,56,26,21,5,6,0.4,0.4
2022-04-08T09:00:00,1854A,111.6975,28.9703,常德市,市二中,颗粒物(PM10),54,58,57,31,31,157,26,91,45,25,17,6,9,1.0,0.9
2022-04-08T09:00:00,1857A,111.7158,29.1456,常德市,白鹤山(对照点),细颗粒物(PM2.5),75,91,63,55,28,152,62,144,96,19,10,19,10,0.7,0.6
2022-04-08T09:00:00,1858A,110.5319,29.1217,张家界市,永定新区,颗粒物(PM10),60,70,55,31,24,143,43,66,46,24,13,3,2,0.3,0.2
2022-04-08T09:00:00,1859A,110.4697,29.1242,张家界市,电业局,,47,47,47,21,20,128,24,38,32,23,18,6,6,0.3,0.2
2022-04-08T09:00:00,1860A,110.5594,29.3547,张家界市,未央路,,33,33,49,14,12,116,54,48,46,11,6,2,2,0.4,0.3
2022-04-08T09:00:00,1861A,110.4417,29.315,张家界市,袁家界(对照点),,46,46,39,19,13,134,130,128,126,2,3,5,4,0.1,0.1
2022-04-08T09:00:00,1862A,110.4144,25.3167,桂林市,电子科大尧山校区(对照点),"颗粒物(PM10),细颗粒物(PM2.5)",53,56,48,37,23,147,54,50,37,5,5,31,10,0.4,0.4
2022-04-08T09:00:00,1863A,110.2819,25.2697,桂林市,监测站,细颗粒物(PM2.5),100,78,76,75,48,144,46,67,47,26,18,19,17,1.0,0.7
2022-04-08T09:00:00,1864A,110.3089,25.2708,桂林市,龙隐路小学,细颗粒物(PM2.5),83,86,57,61,32,150,52,67,54,29,16,24,23,0.8,0.6
2022-04-08T09:00:00,1865A,110.2869,25.2178,桂林市,八中,"颗粒物(PM10),细颗粒物(PM2.5)",57,64,59,40,37,149,52,53,40,20,21,21,14,0.8,0.7
2022-04-08T09:00:00,1866A,109.2262,21.588,北海市,牛尾岭水库(对照点),细颗粒物(PM2.5),55,44,62,39,52,159,71,98,68,11,13,22,8,0.9,0.8
2022-04-08T09:00:00,1867A,109.1436,21.4086,北海市,海滩公园,颗粒物(PM10),57,63,74,37,50,198,76,139,110,16,13,12,9,0.7,0.9
2022-04-08T09:00:00,1868A,109.0981,21.4661,北海市,新市环保局,细颗粒物(PM2.5),67,55,66,48,59,190,89,142,116,15,10,9,9,0.7,0.8
2022-04-08T09:00:00,1869A,109.1778,21.5233,北海市,北海工业园,颗粒物(PM10),65,80,86,46,59,188,67,108,81,26,20,22,13,0.8,0.8
2022-04-08T09:00:00,1870A,109.4856,24.3895,柳州市,柳东小学,细颗粒物(PM2.5),72,86,71,52,52,154,70,67,61,15,19,30,23,0.8,0.7
2022-04-08T09:00:00,1871A,109.4157,24.3277,柳州市,环保监测站,细颗粒物(PM2.5),89,116,89,66,50,147,34,18,17,47,49,42,20,0.8,0.7
2022-04-08T09:00:00,1872A,109.389,24.341,柳州市,河西水厂,细颗粒物(PM2.5),92,126,95,68,50,146,5,10,8,42,43,65,26,1.1,1
2022-04-08T09:00:00,1873A,109.4311,24.2921,柳州市,市四中,颗粒物(PM10),77,103,88,48,43,146,47,11,11,34,43,20,16,0.8,0.9
2022-04-08T09:00:00,1874A,109.4006,24.3631,柳州市,市九中,颗粒物(PM10),85,120,107,53,37,138,46,17,17,32,41,31,21,0.6,0.6
2022-04-08T09:00:00,1875A,109.4958,24.3134,柳州市,古亭山,细颗粒物(PM2.5),70,74,57,51,33,147,37,33,19,36,35,15,9,0.6,0.4
2022-04-08T09:00:00,1876A,109.5078,18.2489,三亚市,河东子站,,49,49,40,34,21,186,103,112,96,10,5,5,4,0.6,0.5
2022-04-08T09:00:00,1877A,109.4964,18.2681,三亚市,河西子站,细颗粒物(PM2.5),52,44,40,36,24,172,88,102,94,10,4,7,7,0.5,0.5
2022-04-08T09:00:00,1878A,104.7778,31.4741,绵阳市,富乐山,"颗粒物(PM10),细颗粒物(PM2.5)",59,67,64,42,43,138,19,16,13,32,26,5,6,1.0,0.8
2022-04-08T09:00:00,1879A,104.7563,31.4535,绵阳市,市人大,细颗粒物(PM2.5),100,108,89,75,66,122,14,5,5,48,53,8,8,1.3,1.2
2022-04-08T09:00:00,1880A,104.6697,31.4668,绵阳市,高新区自来水公司,细颗粒物(PM2.5),110,108,99,83,69,134,13,15,15,56,47,8,7,1.1,0.9
2022-04-08T09:00:00,1881A,104.7287,31.5075,绵阳市,三水厂,细颗粒物(PM2.5),110,115,105,83,72,135,16,4,4,40,47,4,4,1.0,1
2022-04-08T09:00:00,1883A,104.6201,28.7728,宜宾市,市委,"颗粒物(PM10),细颗粒物(PM2.5)",57,64,57,40,33,148,26,13,13,43,43,18,13,0.8,0.7
2022-04-08T09:00:00,1885A,104.639,28.7562,宜宾市,市政府,颗粒物(PM10),72,93,72,44,35,142,17,6,6,60,53,14,13,0.7,0.6
2022-04-08T09:00:00,1886A,104.5742,28.7199,宜宾市,黄金嘴,颗粒物(PM10),56,62,55,37,30,144,29,12,12,34,38,22,12,0.6,0.6
2022-04-08T09:00:00,1888A,101.6891,26.571,攀枝花市,弄弄坪,颗粒物(PM10),74,97,45,37,29,123,11,59,34,47,24,18,18,1.8,1.7
2022-04-08T09:00:00,1889A,101.5769,26.5928,攀枝花市,河门口,颗粒物(PM10),54,57,32,30,19,116,17,34,20,38,24,20,13,1.8,1.2
2022-04-08T09:00:00,1890A,101.7169,26.585,攀枝花市,炳草岗,颗粒物(PM10),73,95,49,52,37,116,9,9,6,53,46,39,24,1.8,1.5
2022-04-08T09:00:00,1891A,101.7369,26.5008,攀枝花市,仁和,,38,38,35,22,22,118,27,49,31,31,24,7,12,0.9,1.1
2022-04-08T09:00:00,1893A,105.4324,28.9634,泸州市,九狮山(对照点),颗粒物(PM10),75,100,56,54,26,143,9,26,19,35,24,11,8,0.7,0.5
2022-04-08T09:00:00,1894A,105.4427,28.9063,泸州市,小市上码头,"颗粒物(PM10),细颗粒物(PM2.5)",69,88,64,50,32,144,16,86,21,49,33,13,12,0.7,0.5
2022-04-08T09:00:00,1895A,105.4241,28.8573,泸州市,兰田宪桥,颗粒物(PM10),67,83,68,37,28,136,13,34,24,42,34,15,11,0.7,0.5
2022-04-08T09:00:00,1896A,105.4379,28.8833,泸州市,市环监站,颗粒物(PM10),69,87,63,43,29,134,5,95,38,60,35,13,17,0.9,0.5
2022-04-08T09:00:00,1901A,104.4239,31.1208,德阳市,东山公园,细颗粒物(PM2.5),105,107,92,79,65,142,59,73,66,25,25,5,7,0.7,0.6
2022-04-08T09:00:00,1902A,104.3826,31.1317,德阳市,西小区,细颗粒物(PM2.5),110,124,100,83,70,143,16,41,12,57,45,10,9,1.1,0.8
2022-04-08T09:00:00,1904A,104.3553,31.1091,德阳市,耐火材料厂,细颗粒物(PM2.5),119,133,114,90,85,138,16,37,27,63,44,15,15,1.0,0.6
2022-04-08T09:00:00,1905A,106.056,30.8064,南充市,西山风景区(对照点),细颗粒物(PM2.5),63,58,47,45,38,139,54,106,83,11,13,1,4,0.7,0.6
2022-04-08T09:00:00,1906A,106.0789,30.8023,南充市,南充市委,细颗粒物(PM2.5),55,55,64,39,39,128,47,51,42,24,26,1,2,0.6,0.6
2022-04-08T09:00:00,1907A,106.1031,30.8217,南充市,南充炼油厂,颗粒物(PM10),54,57,61,34,33,138,40,48,37,18,22,10,7,0.6,0.5
2022-04-08T09:00:00,1908A,106.1064,30.7856,南充市,高坪区监测站,细颗粒物(PM2.5),57,62,62,40,42,118,28,19,19,27,32,1,4,0.7,0.6
2022-04-08T09:00:00,1909A,106.0642,30.7636,南充市,嘉陵区环保局,细颗粒物(PM2.5),64,53,56,46,41,140,70,64,64,24,36,6,4,0.7,0.7
2022-04-08T09:00:00,1910A,106.1087,30.8388,南充市,市环境监测站,细颗粒物(PM2.5),59,62,64,42,40,116,28,59,41,20,17,9,10,0.5,0.4
2022-04-08T09:00:00,1911A,106.9222,27.6869,遵义市,丁字口,,50,50,51,23,24,155,22,33,30,38,30,16,12,0.6,0.4
2022-04-08T09:00:00,1912A,106.9242,27.7019,遵义市,凤凰山,,43,43,47,25,26,149,28,98,81,47,18,20,9,0.3,0.2
2022-04-08T09:00:00,1913A,106.8906,27.6486,遵义市,忠庄,颗粒物(PM10),60,69,59,27,28,145,17,19,19,35,37,5,5,0.5,0.3
2022-04-08T09:00:00,1914A,106.9231,27.6506,遵义市,舟水桥,颗粒物(PM10),51,52,55,27,25,143,20,10,6,28,29,5,4,0.6,0.4
2022-04-08T09:00:00,1915A,106.9178,27.72,遵义市,干田坝,,45,45,47,16,23,156,25,31,29,35,28,9,7,0.5,0.5
2022-04-08T09:00:00,1916A,103.7897,25.5035,曲靖市,环境监测站,,32,28,40,22,19,129,48,63,35,36,24,8,8,1.0,0.7
2022-04-08T09:00:00,1917A,103.8,25.5364,曲靖市,烟厂办公区,颗粒物(PM10),75,99,51,28,21,138,26,88,17,43,23,24,12,0.9,0.6
2022-04-08T09:00:00,1918A,108.7197,34.3956,咸阳市,气象站(对照点),细颗粒物(PM2.5),93,129,127,69,54,169,45,30,14,61,68,14,10,0.8,0.6
2022-04-08T09:00:00,1919A,108.673,34.3155,咸阳市,实验中学,细颗粒物(PM2.5),97,140,135,72,66,180,66,42,34,43,57,14,8,0.9,0.8
2022-04-08T09:00:00,1920A,108.7233,34.3617,咸阳市,师范学院,颗粒物(PM10),96,141,125,70,59,179,40,48,38,51,48,12,10,1.0,0.7
2022-04-08T09:00:00,1922A,109.0656,35.0994,铜川市,党校(对照点),颗粒物(PM10),60,69,75,30,25,120,41,24,24,41,44,6,6,0.3,0.3
2022-04-08T09:00:00,1923A,109.0697,35.0697,铜川市,王益区政府,颗粒物(PM10),60,69,87,33,27,140,48,25,25,42,36,15,9,0.5,0.3
2022-04-08T09:00:00,1924A,108.9344,34.9058,铜川市,新区管委会,颗粒物(PM10),61,71,77,28,33,150,63,80,77,32,24,8,13,0.4,0.3
2022-04-08T09:00:00,1926A,109.4131,36.6275,延安市,枣园(对照点),颗粒物(PM10),58,66,60,20,17,126,32,12,12,29,34,2,2,0.2,0.1
2022-04-08T09:00:00,1927A,109.4761,36.6028,延安市,延大医附院,颗粒物(PM10),61,72,72,28,28,130,28,9,9,30,39,4,4,0.6,0.6
2022-04-08T09:00:00,1929A,109.5056,36.6106,延安市,百米大道,颗粒物(PM10),66,81,94,37,28,117,25,6,6,40,48,4,3,0.2,0.2
2022-04-08T09:00:00,1930A,107.185,34.3063,宝鸡市,庙沟村(对照点),颗粒物(PM10),56,62,81,31,33,130,76,94,91,14,15,6,8,0.5,0.4
2022-04-08T09:00:00,1931A,107.0708,34.3017,宝鸡市,竹园沟,,49,49,80,26,32,136,54,60,49,24,18,7,5,0.5,0.4
2022-04-08T09:00:00,1932A,107.1906,34.3672,宝鸡市,三陆医院,颗粒物(PM10),85,119,111,60,71,135,16,15,7,62,50,30,17,0.9,0.6
2022-04-08T09:00:00,1933A,107.1431,34.3547,宝鸡市,监测站,颗粒物(PM10),72,93,91,50,40,135,24,60,39,48,28,12,5,0.9,0.5
2022-04-08T09:00:00,1934A,107.1186,34.3739,宝鸡市,技工学校,颗粒物(PM10),75,99,100,44,40,129,33,60,39,42,26,29,7,0.9,0.5
2022-04-08T09:00:00,1935A,107.3906,34.3528,宝鸡市,陈仓区环保局家属楼,细颗粒物(PM2.5),80,105,120,59,65,138,36,34,19,42,41,147,20,3.5,1.1
2022-04-08T09:00:00,1936A,107.2058,34.3497,宝鸡市,文理学院,细颗粒物(PM2.5),74,94,101,54,55,145,24,60,34,58,36,22,10,1.5,1.2
2022-04-08T09:00:00,1937A,107.2386,34.3622,宝鸡市,三迪小学,细颗粒物(PM2.5),85,112,114,63,55,132,18,35,17,60,45,18,12,1.0,0.6
2022-04-08T09:00:00,1938A,109.5293,34.5101,渭南市,农科所(对照点),颗粒物(PM10),86,122,124,39,40,153,47,12,12,38,43,14,11,0.5,0.5
2022-04-08T09:00:00,1939A,109.4974,34.4877,渭南市,日报社,颗粒物(PM10),91,132,126,46,40,164,32,10,8,41,46,25,17,0.6,0.5
2022-04-08T09:00:00,1940A,109.4636,34.493,渭南市,体育馆,颗粒物(PM10),102,153,138,51,41,165,18,6,6,62,48,16,18,0.8,0.5
2022-04-08T09:00:00,1941A,109.4259,34.5023,渭南市,高新一小,颗粒物(PM10),105,159,146,53,50,159,54,14,14,33,42,14,9,0.6,0.6
2022-04-08T09:00:00,1943A,102.1725,38.5339,金昌市,新川苑,颗粒物(PM10),97,143,90,24,25,129,89,89,89,15,16,8,32,0.4,0.5
2022-04-08T09:00:00,1944A,102.1692,38.5167,金昌市,天庆家园,颗粒物(PM10),86,121,85,22,26,129,88,88,88,16,18,10,35,0.5,0.5
2022-04-08T09:00:00,1945A,98.2908,39.7711,嘉峪关市,气象局,颗粒物(PM10),81,112,91,34,26,116,90,90,90,14,11,3,7,0.4,0.4
2022-04-08T09:00:00,1947A,106.3394,38.817,石嘴山市,沙湖旅游区(对照点),颗粒物(PM10),90,129,99,35,22,124,29,41,26,39,30,10,12,0.3,0.3
2022-04-08T09:00:00,1948A,106.3668,39.0145,石嘴山市,大武口朝阳西街,颗粒物(PM10),81,111,82,36,28,122,19,80,16,60,38,14,12,1.0,0.8
2022-04-08T09:00:00,1949A,106.7704,39.2282,石嘴山市,惠农南大街,颗粒物(PM10),67,83,70,22,24,115,37,44,33,29,29,18,17,0.7,0.7
2022-04-08T09:00:00,1950A,106.7099,39.1325,石嘴山市,红果子镇惠新街,,,,104,,30,115,,55,26,29,32,,27,0.7,0.8
2022-04-08T09:00:00,1951A,84.895,45.6094,克拉玛依市,长征新村,,46,46,83,0,11,147,104,107,107,4,29,8,10,0.2,0.6
2022-04-08T09:00:00,1952A,84.8988,45.5893,克拉玛依市,南林小区,颗粒物(PM10),89,128,103,14,22,155,108,104,104,7,39,6,8,0.3,0.5
2022-04-08T09:00:00,1954A,84.905,44.3396,克拉玛依市,独山子区,颗粒物(PM10),69,88,66,32,19,178,108,109,99,12,12,5,5,0.4,0.4
2022-04-08T09:00:00,1955A,85.6979,46.098,克拉玛依市,乌尔禾区商贸楼,颗粒物(PM10),87,123,73,22,18,143,87,86,70,3,16,10,11,0.5,0.6
2022-04-08T09:00:00,1956A,86.1472,41.7538,巴音郭楞州,孔雀公园,颗粒物(PM10),135,219,168,46,44,128,7,22,6,73,38,5,3,0.5,0.4
2022-04-08T09:00:00,1957A,86.1972,41.7166,巴音郭楞州,棉纺厂,颗粒物(PM10),122,193,173,52,58,120,2,31,20,61,28,3,2,0.8,0.4
2022-04-08T09:00:00,1958A,86.2357,41.7173,巴音郭楞州,经济开发区,颗粒物(PM10),131,211,207,52,53,125,25,49,34,46,22,2,2,0.3,0.4
2022-04-08T09:00:00,1961A,117.532,36.6868,济南市,东山小学,细颗粒物(PM2.5),119,154,149,90,74,137,104,121,104,14,25,9,13,0.8,1
2022-04-08T09:00:00,1966A,120.0405,35.8735,青岛市,黄岛区4号,,43,22,38,22,22,140,136,132,132,16,19,4,5,0.8,0.8
2022-04-08T09:00:00,1982A,122.0693,37.2174,威海市,文登开发区,细颗粒物(PM2.5),58,56,61,41,28,131,131,103,103,11,13,3,4,0.0,0
2022-04-08T09:00:00,2031A,113.1817,27.9958,株洲市,云田中学,颗粒物(PM10),54,58,70,30,34,188,80,107,71,13,16,9,8,0.3,0.3
2022-04-08T09:00:00,2054A,114.1099,32.1059,信阳市,平桥分局,颗粒物(PM10),66,81,94,35,54,148,99,84,84,32,20,15,11,0.9,0.7
2022-04-08T09:00:00,2064A,113.9956,32.1271,信阳市,南湾水厂,颗粒物(PM10),73,95,110,36,38,164,130,113,113,28,19,16,10,0.8,0.6
2022-04-08T09:00:00,2065A,114.0775,32.1195,信阳市,市酿酒公司,颗粒物(PM10),55,59,106,26,48,149,110,70,70,24,21,12,10,0.8,0.7
2022-04-08T09:00:00,2066A,114.0609,32.1399,信阳市,审计局,颗粒物(PM10),60,69,104,20,66,150,109,76,76,28,25,13,10,0.6,0.6
2022-04-08T09:00:00,2067A,114.6613,33.6128,周口市,市环境监测站,颗粒物(PM10),90,129,131,46,44,151,85,87,68,12,14,11,12,0.9,0.8
2022-04-08T09:00:00,2068A,114.6758,33.6347,周口市,周口师范,颗粒物(PM10),85,119,134,50,49,142,84,83,66,14,16,16,17,0.9,0.7
2022-04-08T09:00:00,2069A,114.6546,33.5979,周口市,市运管处,颗粒物(PM10),95,140,132,56,56,146,76,87,63,14,19,11,10,0.8,0.7
2022-04-08T09:00:00,2070A,114.6369,33.6406,周口市,川汇区环保局,细颗粒物(PM2.5),93,101,122,69,63,140,93,97,76,14,16,6,8,0.7,0.6
2022-04-08T09:00:00,2075A,117.6336,24.4674,漳州市,九湖(对照点),颗粒物(PM10),64,78,64,45,32,174,76,84,41,26,26,16,10,0.6,0.5
2022-04-08T09:00:00,2160A,112.85,35.5051,晋城市,自来水公司,颗粒物(PM10),111,172,147,75,57,184,57,77,41,51,37,18,11,2.9,1.2
2022-04-08T09:00:00,2161A,112.8318,35.4936,晋城市,白云商贸,颗粒物(PM10),114,178,134,83,58,185,45,82,63,56,29,10,7,2.1,1.2
2022-04-08T09:00:00,2162A,112.8508,35.4887,晋城市,市环保局,颗粒物(PM10),116,181,142,70,57,185,40,79,26,60,38,13,11,1.9,1.1
2022-04-08T09:00:00,2163A,112.8676,35.4897,晋城市,技术学院,颗粒物(PM10),115,180,133,75,59,174,41,75,38,60,34,10,8,2.3,1.1
2022-04-08T09:00:00,2165A,112.8453,35.546,晋城市,白马寺 (对照点),颗粒物(PM10),116,181,140,78,56,170,47,159,118,49,21,9,8,1.4,1.3
2022-04-08T09:00:00,2166A,112.4397,39.3522,朔州市,平朔,颗粒物(PM10),96,141,76,49,26,106,59,56,24,56,33,14,12,1.0,0.6
2022-04-08T09:00:00,2167A,112.4575,39.3617,朔州市,朔唯,颗粒物(PM10),101,151,92,51,25,110,61,59,19,52,35,10,8,0.6,0.4
2022-04-08T09:00:00,2168A,112.4258,39.3197,朔州市,区政府,颗粒物(PM10),82,113,58,39,19,108,86,94,68,33,19,12,10,0.8,0.6
2022-04-08T09:00:00,2169A,112.4072,39.3278,朔州市,市环保局,颗粒物(PM10),80,110,80,36,20,99,99,75,69,26,23,9,8,0.4,0.3
2022-04-08T09:00:00,2170A,112.4272,39.3681,朔州市,市二中,颗粒物(PM10),81,111,68,38,23,111,72,72,42,46,27,10,8,0.7,0.4
2022-04-08T09:00:00,2171A,112.7532,37.6945,晋中市,锦纶小区,颗粒物(PM10),88,125,80,57,30,127,48,39,38,28,27,7,5,0.7,0.4
2022-04-08T09:00:00,2173A,112.7249,37.7067,晋中市,南都小区,颗粒物(PM10),107,164,99,47,34,128,41,28,18,42,42,15,10,0.9,0.5
2022-04-08T09:00:00,2174A,112.6991,37.6982,晋中市,榆次区政府,颗粒物(PM10),86,121,87,45,36,130,45,40,28,38,37,16,11,3.2,2.9
2022-04-08T09:00:00,2175A,110.9956,35.0147,运城市,运城中学,颗粒物(PM10),84,117,111,53,51,189,92,143,96,17,15,30,25,0.7,0.6
2022-04-08T09:00:00,2178A,110.9686,35.0303,运城市,地区技校,颗粒物(PM10),85,119,106,46,38,176,91,129,84,17,20,26,15,0.7,0.8
2022-04-08T09:00:00,2179A,111.0414,35.1147,运城市,空港新区,颗粒物(PM10),103,155,126,76,61,179,80,91,72,25,25,16,14,1.7,0.9
2022-04-08T09:00:00,2181A,112.7383,38.4519,忻州市,开发区,颗粒物(PM10),70,90,67,20,19,123,44,64,25,33,27,36,20,0.7,0.6
2022-04-08T09:00:00,2182A,112.7003,38.4928,忻州市,会展中心,颗粒物(PM10),72,93,62,38,21,114,39,24,16,37,35,20,13,0.6,0.5
2022-04-08T09:00:00,2183A,111.1406,37.5211,吕梁市,环保局,颗粒物(PM10),86,122,73,20,14,99,23,6,6,44,45,13,7,0.4,0.4
2022-04-08T09:00:00,2185A,111.1297,37.5136,吕梁市,自来水公司,颗粒物(PM10),95,140,89,21,14,97,20,8,5,40,38,10,5,0.4,0.3
2022-04-08T09:00:00,2187A,106.8174,39.6973,乌海市,市林业局,颗粒物(PM10),105,159,101,64,34,124,34,43,18,56,43,80,52,1.6,1
2022-04-08T09:00:00,2188A,106.7907,39.6667,乌海市,中海勃湾学校,颗粒物(PM10),89,128,82,57,33,129,36,30,30,53,45,66,41,1.5,0.9
2022-04-08T09:00:00,2191A,122.2532,43.6801,通辽市,艺术职业学校,颗粒物(PM10),81,111,72,26,33,112,110,103,98,23,19,17,14,0.7,0.6
2022-04-08T09:00:00,2192A,119.7594,49.2261,呼伦贝尔市,区环保局,,37,37,24,22,16,99,77,81,64,9,8,6,5,0.8,0.6
2022-04-08T09:00:00,2195A,107.4212,40.761,巴彦淖尔市,附二中,颗粒物(PM10),66,82,71,21,19,111,79,71,71,10,16,4,5,0.5,0.5
2022-04-08T09:00:00,2196A,107.37,40.7372,巴彦淖尔市,市环保大楼,颗粒物(PM10),58,66,55,25,21,77,77,65,65,9,22,3,3,0,0.2
2022-04-08T09:00:00,2197A,113.1306,40.9923,乌兰察布市,集宁新区,,,52,38,16,19,122,,93,47,36,16,14,10,0.4,0.2
2022-04-08T09:00:00,2200A,122.0392,46.0656,兴安盟,胜华新制药厂,颗粒物(PM10),77,103,48,51,26,90,45,70,49,27,10,4,4,0.5,0.3
2022-04-08T09:00:00,2201A,121.9504,46.0741,兴安盟,科右前旗环保局,细颗粒物(PM2.5),92,85,37,68,29,97,49,73,55,33,12,5,4,0.7,0.3
2022-04-08T09:00:00,2202A,116.1042,43.9317,锡林郭勒盟,市环保监测站,,44,44,29,6,9,100,76,70,68,4,7,9,9,0.1,0.3
2022-04-08T09:00:00,2203A,116.0781,43.9311,锡林郭勒盟,市政府,,28,28,20,8,11,92,69,62,62,6,9,6,6,0.6,0.5
2022-04-08T09:00:00,2204A,105.6467,38.8363,阿拉善盟,西城区西花园(对照点),,,52,47,24,17,122,,102,102,8,7,6,6,0.3,0.3
2022-04-08T09:00:00,2205A,105.6985,38.8411,阿拉善盟,蒙二幼,颗粒物(PM10),57,64,48,21,19,122,101,102,101,11,6,7,6,0.4,0.3
2022-04-08T09:00:00,2206A,105.724,38.8516,阿拉善盟,环保局新楼,,44,44,40,23,22,114,107,110,110,11,6,7,6,0.4,0.3
2022-04-08T09:00:00,2207A,121.6094,41.998,阜新市,工业园区,颗粒物(PM10),96,141,79,45,45,124,124,86,86,24,23,17,20,0.8,0.7
2022-04-08T09:00:00,2208A,121.6697,42.0279,阜新市,长青街,颗粒物(PM10),74,97,77,48,48,121,121,86,86,20,19,19,25,1.3,0.9
2022-04-08T09:00:00,2209A,121.6673,42.0705,阜新市,农业园区,颗粒物(PM10),77,104,60,49,42,118,118,89,89,20,18,17,16,0.7,0.6
2022-04-08T09:00:00,2210A,121.6717,42.0224,阜新市,东苑,颗粒物(PM10),104,157,73,51,49,104,,83,83,24,20,20,33,1.1,0.9
2022-04-08T09:00:00,2211A,121.6506,42.0498,阜新市,玉龙新城,颗粒物(PM10),68,86,58,38,38,116,116,84,84,17,15,19,19,0.5,0.4
2022-04-08T09:00:00,2212A,123.2,41.1953,辽阳市,宏伟区,,49,49,49,28,32,116,106,92,92,15,15,10,10,0.6,0.6
2022-04-08T09:00:00,2213A,123.1683,41.2495,辽阳市,新华园,颗粒物(PM10),52,54,62,29,54,113,101,79,79,20,24,7,9,0.6,0.7
2022-04-08T09:00:00,2214A,123.2354,41.2639,辽阳市,滨河路,颗粒物(PM10),56,62,62,31,55,110,85,79,76,26,19,30,13,0.5,0.5
2022-04-08T09:00:00,2215A,123.149,41.2991,辽阳市,铁西工业园,颗粒物(PM10),61,71,75,37,54,117,109,74,74,22,22,15,16,0.6,0.6
2022-04-08T09:00:00,2216A,123.8139,42.3022,铁岭市,汇工街西,颗粒物(PM10),123,195,57,26,27,105,98,84,84,18,17,15,11,0.8,0.6
2022-04-08T09:00:00,2217A,123.8649,42.2923,铁岭市,水上乐园,颗粒物(PM10),72,93,45,23,24,109,109,84,84,18,17,12,8,0.6,0.4
2022-04-08T09:00:00,2218A,123.8486,42.2867,铁岭市,银州路东段,颗粒物(PM10),90,130,52,27,30,107,103,84,84,78,25,12,8,0.7,0.5
2022-04-08T09:00:00,2219A,123.7153,42.2217,铁岭市,金沙江路北,颗粒物(PM10),90,129,58,34,33,106,81,80,74,27,24,14,11,1.0,0.7
2022-04-08T09:00:00,2220A,120.4318,41.5881,朝阳市,西梁,细颗粒物(PM2.5),75,89,51,55,28,113,83,105,84,40,13,26,11,1.5,0.7
2022-04-08T09:00:00,2221A,120.4521,41.5646,朝阳市,河畔小区,细颗粒物(PM2.5),68,69,49,49,26,115,100,112,93,18,10,9,10,0.8,0.6
2022-04-08T09:00:00,2222A,120.4176,41.5648,朝阳市,八里堡,颗粒物(PM10),66,82,56,45,28,111,92,100,79,33,16,21,11,1.3,0.7
2022-04-08T09:00:00,2223A,120.3806,41.5969,朝阳市,农业园区,"颗粒物(PM10),细颗粒物(PM2.5)",67,84,51,48,30,115,115,87,79,13,16,12,11,0.7,0.6
2022-04-08T09:00:00,2225A,124.4002,43.1713,四平市,一商场,,50,50,35,20,27,95,94,82,82,10,9,11,9,0.4,0.3
2022-04-08T09:00:00,2226A,124.388,43.193,四平市,境园,颗粒物(PM10),52,53,38,17,24,100,99,82,82,9,10,12,8,0.4,0.3
2022-04-08T09:00:00,2227A,125.1358,42.8845,辽源市,环保局,细颗粒物(PM2.5),118,112,117,89,99,115,115,54,54,8,28,6,12,0.5,0.8
2022-04-08T09:00:00,2229A,125.9358,41.7173,通化市,光明,颗粒物(PM10),69,87,44,42,25,111,69,45,39,24,15,52,17,1.9,0.7
2022-04-08T09:00:00,2230A,125.9446,41.7325,通化市,铁路,颗粒物(PM10),69,88,46,44,25,101,62,44,34,24,19,42,19,1.6,0.8
2022-04-08T09:00:00,2231A,126.4219,41.9171,白山市,喜丰,颗粒物(PM10),69,87,66,26,22,119,66,53,43,26,18,103,15,0.9,0.8
2022-04-08T09:00:00,2232A,126.4077,41.9419,白山市,环保局,二氧化硫,63,64,49,29,21,4,4,4,4,27,14,241,25,2.3,2.2
2022-04-08T09:00:00,2233A,124.8006,45.1214,松原市,江南,颗粒物(PM10),82,114,39,36,23,101,85,78,78,16,10,5,3,0.5,0.3
2022-04-08T09:00:00,2234A,124.7965,45.1722,松原市,江北,颗粒物(PM10),81,111,39,38,23,98,89,80,80,16,10,4,2,0.5,0.4
2022-04-08T09:00:00,2236A,122.8738,45.5725,白城市,市环保局,颗粒物(PM10),78,106,43,29,22,85,60,67,61,16,10,7,5,0.4,0.4
2022-04-08T09:00:00,2237A,129.47,42.8883,延边朝鲜族自治州,妇幼医院,,35,34,25,24,20,101,47,60,42,27,16,16,12,0.8,0.5
2022-04-08T09:00:00,2238A,129.5055,42.9108,延边朝鲜族自治州,延边医院,,39,39,28,21,20,104,45,48,42,34,14,17,10,0.9,0.5
2022-04-08T09:00:00,2239A,129.3964,42.8881,延边朝鲜族自治州,朝阳川镇医院,,20,9,22,9,14,102,64,44,36,15,10,9,6,0.5,0.5
2022-04-08T09:00:00,2240A,130.9762,45.3001,鸡西市,环保局,,50,50,31,29,17,85,63,60,58,34,24,4,4,0.3,0.2
2022-04-08T09:00:00,2243A,130.9429,45.3039,鸡西市,第一中学,,39,35,32,27,15,84,77,72,70,18,16,5,6,0.2,0.2
2022-04-08T09:00:00,2244A,130.2537,47.3416,鹤岗市,哈啤分公司,颗粒物(PM10),62,74,30,24,18,120,53,92,69,31,12,19,14,0.4,0.3
2022-04-08T09:00:00,2245A,130.2684,47.3086,鹤岗市,斯达机电,,48,48,37,22,20,114,72,67,67,14,13,7,9,0.4,0.4
2022-04-08T09:00:00,2246A,130.3114,47.3388,鹤岗市,东山纸板厂,颗粒物(PM10),69,88,44,21,14,98,63,83,62,22,11,12,12,0.4,0.4
2022-04-08T09:00:00,2248A,131.1511,46.6937,双鸭山市,双合村,,46,40,22,32,14,89,80,83,72,59,11,9,10,0.2,0.3
2022-04-08T09:00:00,2249A,131.1652,46.6191,双鸭山市,南小市,颗粒物(PM10),58,66,25,22,12,94,92,83,83,10,7,3,3,0.4,0.3
2022-04-08T09:00:00,2250A,131.1524,46.6554,双鸭山市,环保局,,39,39,24,17,15,103,87,88,88,14,11,5,7,0.4,0.5
2022-04-08T09:00:00,2251A,131.12,46.5656,双鸭山市,苗圃(对照点),,34,24,19,21,18,106,106,93,93,6,5,2,2,0.4,0.4
2022-04-08T09:00:00,2252A,128.5159,47.4311,伊春市,环保局,,30,27,20,21,13,95,90,90,90,11,8,8,5,0.4,0.4
2022-04-08T09:00:00,2253A,128.9102,47.7412,伊春市,电力嘉园,,29,29,19,16,11,94,91,89,76,8,7,5,5,0.6,0.5
2022-04-08T09:00:00,2254A,129.5029,48.471,伊春市,汤旺河国家公园(对照点),,29,27,10,18,7,100,90,97,93,18,12,7,6,0.4,0.3
2022-04-08T09:00:00,2255A,130.2751,46.8028,佳木斯市,佳纺,,44,44,25,29,10,90,76,78,78,7,6,3,2,0.4,0.3
2022-04-08T09:00:00,2256A,130.3995,46.8307,佳木斯市,发电厂,,43,29,14,30,9,90,69,78,76,12,5,1,2,0.4,0.3
2022-04-08T09:00:00,2257A,130.3258,46.7975,佳木斯市,环保局,,45,40,18,31,14,91,80,83,83,9,6,4,4,0.4,0.4
2022-04-08T09:00:00,2258A,130.3648,46.8032,佳木斯市,十一中,,46,34,19,32,11,94,74,84,82,16,8,6,7,0.5,0.4
2022-04-08T09:00:00,2259A,130.3794,46.7588,佳木斯市,四丰(对照点),,40,35,15,28,10,84,78,77,77,7,4,3,2,0.4,0.3
2022-04-08T09:00:00,2262A,131.0518,45.8751,七台河市,新一中(对照点),,35,35,37,22,28,96,76,74,74,17,12,17,8,0.5,0.6
2022-04-08T09:00:00,2263A,127.4833,50.2524,黑河市,交通局,,43,29,11,30,8,80,59,66,63,11,8,4,5,0.4,0.3
2022-04-08T09:00:00,2264A,127.5144,50.2341,黑河市,环保局,,45,39,15,31,12,94,74,77,71,7,7,4,4,0.3,0.2
2022-04-08T09:00:00,2265A,127.5291,50.2472,黑河市,大黑河岛(对照点),,48,48,16,29,9,94,72,74,66,8,8,3,4,0.5,0.4
2022-04-08T09:00:00,2266A,126.9785,46.6365,绥化市,人和东街,颗粒物(PM10),60,70,40,38,25,80,61,64,56,15,9,8,6,0.7,0.6
2022-04-08T09:00:00,2267A,126.964,46.6528,绥化市,党政办公中心,细颗粒物(PM2.5),58,60,34,41,25,79,62,67,58,16,10,6,5,0.5,0.4
2022-04-08T09:00:00,2269A,124.1069,50.4097,大兴安岭地区,科技局,,22,16,12,12,8,82,70,82,72,6,5,3,2,0.3,0.3
2022-04-08T09:00:00,2270A,117.396,32.939,蚌埠市,工人疗养院,,,119,135,70,80,108,,67,62,39,31,6,7,0.7,0.6
2022-04-08T09:00:00,2271A,117.3605,32.9427,蚌埠市,百货大楼,颗粒物(PM10),117,184,149,75,75,110,,30,29,,46,9,8,1.0,0.7
2022-04-08T09:00:00,2273A,117.4185,32.8911,蚌埠市,蚌埠学院,细颗粒物(PM2.5),85,97,112,63,79,124,70,55,55,33,30,13,10,0.8,0.7
2022-04-08T09:00:00,2274A,117.3533,32.9673,蚌埠市,淮上区政府,颗粒物(PM10),54,58,112,34,77,110,20,47,32,38,27,10,10,0.8,0.6
2022-04-08T09:00:00,2275A,117.3145,32.8977,蚌埠市,高新区,细颗粒物(PM2.5),85,95,107,63,83,122,99,77,77,30,32,15,10,0.6,0.7
2022-04-08T09:00:00,2277A,116.8305,32.7727,淮南市,潘集区政府,细颗粒物(PM2.5),105,86,95,79,73,99,73,48,48,12,11,9,4,0.5,0.5
2022-04-08T09:00:00,2278A,117.0067,32.6524,淮南市,师范学院,颗粒物(PM10),65,80,106,45,84,124,124,99,99,8,11,11,9,0.4,0.5
2022-04-08T09:00:00,2279A,116.8569,32.5951,淮南市,谢家集区政府,细颗粒物(PM2.5),87,119,104,64,65,110,78,66,66,15,13,9,9,0.3,0.3
2022-04-08T09:00:00,2280A,116.8281,32.633,淮南市,八公山区政府,细颗粒物(PM2.5),75,90,91,55,65,104,86,69,69,17,11,6,4,0.3,0.4
2022-04-08T09:00:00,2281A,116.6325,32.6201,淮南市,焦岗湖风景区管理处(对照点),细颗粒物(PM2.5),68,77,81,49,61,113,75,54,54,3,4,9,6,0.4,0.4
2022-04-08T09:00:00,2282A,116.8004,33.975,淮北市,监测站,颗粒物(PM10),75,99,115,48,60,114,84,51,50,18,19,5,3,0.7,0.8
2022-04-08T09:00:00,2283A,116.8091,33.9007,淮北市,烈山区政府,细颗粒物(PM2.5),110,131,174,83,95,127,81,55,55,25,25,8,5,0.8,0.9
2022-04-08T09:00:00,2284A,116.7856,33.9477,淮北市,职业技术学院,"颗粒物(PM10),细颗粒物(PM2.5)",63,76,113,45,60,122,77,50,50,21,21,6,5,0.9,1
2022-04-08T09:00:00,2285A,117.8177,30.9412,铜陵市,市第四中学,"颗粒物(PM10),细颗粒物(PM2.5)",80,109,71,59,32,176,40,40,28,64,40,37,19,3.2,0.9
2022-04-08T09:00:00,2286A,117.8059,30.9273,铜陵市,市公路局,颗粒物(PM10),100,149,97,49,26,161,62,39,39,50,37,53,23,2.8,0.9
2022-04-08T09:00:00,2287A,117.7807,30.9413,铜陵市,市新民污水厂,颗粒物(PM10),73,96,72,41,33,168,56,10,10,61,53,28,15,1.0,0.8
2022-04-08T09:00:00,2288A,117.7439,30.8792,铜陵市,市第九中学,颗粒物(PM10),71,92,87,41,38,141,28,20,20,76,57,8,10,1.1,1
2022-04-08T09:00:00,2289A,117.846,30.9413,铜陵市,车站新区,颗粒物(PM10),84,118,71,34,23,166,43,110,60,61,24,28,13,2.0,0.8
2022-04-08T09:00:00,2290A,117.8483,30.97,铜陵市,市职教基地,颗粒物(PM10),63,76,68,34,36,176,33,64,24,56,30,30,15,2.2,0.9
2022-04-08T09:00:00,2291A,117.0809,30.5177,安庆市,环科院,颗粒物(PM10),69,87,71,24,20,154,13,3,3,72,58,9,8,0.7,0.6
2022-04-08T09:00:00,2292A,117.0331,30.5119,安庆市,马山宾馆,颗粒物(PM10),57,63,64,16,18,160,60,23,11,23,55,10,9,0.7,0.8
2022-04-08T09:00:00,2294A,116.9896,30.6145,安庆市,安庆大学,颗粒物(PM10),63,75,66,43,34,165,53,49,35,37,29,8,6,1.0,0.6
2022-04-08T09:00:00,2295A,118.2903,29.6963,黄山市,延安路89号,,46,42,49,32,34,149,35,36,24,10,10,12,11,0.6,0.5
2022-04-08T09:00:00,2296A,118.327,29.7178,黄山市,黄山东路89号,,44,44,47,27,28,142,32,32,20,13,13,10,10,0.5,0.4
2022-04-08T09:00:00,2297A,118.1371,30.2756,黄山市,黄山区政府5号楼,,50,50,52,28,23,154,49,42,27,9,8,9,9,0.4,0.4
2022-04-08T09:00:00,2298A,118.3093,32.3153,滁州市,老年大学,颗粒物(PM10),100,150,89,66,49,179,89,70,39,49,25,41,14,1.1,0.5
2022-04-08T09:00:00,2299A,118.3244,32.2786,滁州市,人大宾馆,细颗粒物(PM2.5),113,131,99,85,61,175,85,77,40,59,37,25,11,1.2,0.7
2022-04-08T09:00:00,2301A,115.8277,32.8929,阜阳市,市监测站,细颗粒物(PM2.5),80,76,102,59,64,134,44,70,61,14,11,8,9,0.8,0.7
2022-04-08T09:00:00,2303A,115.8554,32.8605,阜阳市,开发区,细颗粒物(PM2.5),112,97,104,84,86,131,68,79,64,13,10,8,6,0.6,0.5
2022-04-08T09:00:00,2307A,116.5079,31.737,六安市,监测大楼,"颗粒物(PM10),细颗粒物(PM2.5)",55,59,76,39,43,151,120,97,90,10,11,7,6,0.3,0.5
2022-04-08T09:00:00,2308A,116.4738,31.7643,六安市,皖西学院,颗粒物(PM10),56,61,80,34,43,148,131,72,72,7,11,9,8,0.3,0.5
2022-04-08T09:00:00,2309A,116.4996,31.7905,六安市,朝阳厂,,43,41,90,30,52,147,125,68,68,12,18,9,8,0.4,0.6
2022-04-08T09:00:00,2310A,116.5567,31.7886,六安市,开发区,细颗粒物(PM2.5),73,74,93,53,47,157,102,70,70,12,17,8,8,0.5,0.6
2022-04-08T09:00:00,2311A,115.8072,33.8399,亳州市,污水处理厂,细颗粒物(PM2.5),95,105,121,71,60,154,54,59,51,14,13,5,7,0.7,0.6
2022-04-08T09:00:00,2312A,115.7789,33.8518,亳州市,三国揽胜宫,细颗粒物(PM2.5),125,,94,95,64,152,,64,53,16,15,5,6,0.8,0.7
2022-04-08T09:00:00,2314A,117.47,30.6618,池州市,池州学院,颗粒物(PM10),65,80,63,43,34,167,46,68,55,34,29,5,6,0.9,0.8
2022-04-08T09:00:00,2316A,118.7581,30.9454,宣城市,鳌峰子站,颗粒物(PM10),71,92,73,46,34,145,78,91,74,26,23,21,10,0.6,0.6
2022-04-08T09:00:00,2317A,118.7385,30.9743,宣城市,敬亭山子站,颗粒物(PM10),75,100,60,45,28,159,60,104,82,44,18,18,7,0.6,0.5
2022-04-08T09:00:00,2318A,118.7173,30.9427,宣城市,开发区子站,颗粒物(PM10),69,87,67,41,30,153,80,74,73,30,29,13,6,0.7,0.6
2022-04-08T09:00:00,2319A,119.0141,25.4325,莆田市,荔城区仓后路,,33,26,44,10,16,137,103,124,111,9,12,4,5,0.5,0.5
2022-04-08T09:00:00,2320A,119.0015,25.4553,莆田市,莆田市监测站,,34,23,37,12,17,141,107,119,107,3,9,5,6,0.3,0.5
2022-04-08T09:00:00,2321A,119.1119,25.4561,莆田市,涵江区六中,,38,38,45,11,18,138,100,122,107,4,9,6,8,0.3,0.4
2022-04-08T09:00:00,2322A,119.1013,25.3215,莆田市,秀屿区政府,,49,49,45,13,23,143,91,97,82,17,16,6,8,0.4,0.6
2022-04-08T09:00:00,2323A,118.981,25.4792,莆田市,东圳水库(对照点),,35,11,30,10,15,148,109,86,85,3,7,6,7,0.2,0.3
2022-04-08T09:00:00,2324A,117.6211,26.2625,三明市,三钢,,45,45,43,29,27,131,48,44,44,33,24,5,4,0.7,0.7
2022-04-08T09:00:00,2325A,117.635,26.2714,三明市,三明二中,,44,44,43,30,25,131,52,53,47,30,21,8,7,0.7,0.6
2022-04-08T09:00:00,2326A,117.6028,26.2378,三明市,三元区政府,,50,46,59,35,31,133,46,39,34,32,28,13,6,1.2,0.9
2022-04-08T09:00:00,2327A,117.7275,26.3108,三明市,洋溪(对照点),,46,46,43,24,24,142,82,132,62,11,9,7,6,0.7,0.6
2022-04-08T09:00:00,2331A,118.0966,26.6761,南平市,茫荡山(对照点),,39,39,35,16,17,128,124,126,120,3,4,5,5,0.4,0.5
2022-04-08T09:00:00,2332A,118.1681,26.6369,南平市,南平市监测站,,49,49,41,22,24,142,80,74,69,13,15,8,8,0.7,0.8
2022-04-08T09:00:00,2333A,118.1825,26.6489,南平市,南平铝业有限公司,颗粒物(PM10),51,51,44,33,26,141,68,76,67,15,14,13,8,0.8,0.7
2022-04-08T09:00:00,2334A,118.1756,26.6272,南平市,南平七中,,45,32,44,31,26,143,63,81,57,16,15,5,6,0.7,0.6
2022-04-08T09:00:00,2335A,117.0189,25.1181,龙岩市,龙岩师专(对照点),颗粒物(PM10),52,53,47,27,31,134,63,47,47,24,18,17,9,0.5,0.4
2022-04-08T09:00:00,2336A,117.0217,25.1033,龙岩市,龙岩市监测站,,47,47,52,29,30,134,62,51,51,26,21,15,9,0.6,0.4
2022-04-08T09:00:00,2337A,117.0258,25.0661,龙岩市,闽西职业技术学院,颗粒物(PM10),59,67,55,31,27,142,43,61,29,39,30,13,12,0.7,0.5
2022-04-08T09:00:00,2338A,117.0196,25.0306,龙岩市,龙岩学院,,,54,46,37,25,138,45,88,51,38,18,,6,0.6,0.4
2022-04-08T09:00:00,2339A,119.5001,26.6946,宁德市,金涵水库(对照点),颗粒物(PM10),62,73,35,18,18,137,73,66,62,18,14,8,7,0.5,0.4
2022-04-08T09:00:00,2341A,119.5388,26.6612,宁德市,宁德市监测站,,39,39,33,19,16,127,60,71,63,20,12,9,8,0.6,0.5
2022-04-08T09:00:00,2342A,117.3102,29.3867,景德镇市,王港中学(对照点),,42,40,45,29,24,153,58,35,26,7,7,4,4,0.4,0.5
2022-04-08T09:00:00,2343A,117.2117,29.2933,景德镇市,老干部活动中心,颗粒物(PM10),55,59,71,24,34,158,49,33,33,23,26,6,9,0.6,0.7
2022-04-08T09:00:00,2344A,117.1894,29.2789,景德镇市,兽医站,颗粒物(PM10),59,68,66,37,35,155,53,28,28,26,37,3,15,0.4,0.4
2022-04-08T09:00:00,2345A,117.1547,29.2617,景德镇市,台达陶瓷,颗粒物(PM10),56,61,86,32,36,147,66,29,29,20,43,9,33,0.4,0.5
2022-04-08T09:00:00,2346A,117.2461,29.2956,景德镇市,陶研所,颗粒物(PM10),62,73,63,32,28,149,45,18,18,24,24,18,8,0.4,0.4
2022-04-08T09:00:00,2347A,114.0997,27.5002,萍乡市,武功山(对照点),,31,31,29,18,14,151,72,64,64,10,7,8,7,0.6,0.6
2022-04-08T09:00:00,2348A,113.8385,27.6434,萍乡市,中医院,细颗粒物(PM2.5),62,5,62,44,32,155,50,50,40,54,39,29,11,3.9,1.1
2022-04-08T09:00:00,2349A,113.8493,27.6253,萍乡市,市政府车库,颗粒物(PM10),70,89,61,36,27,154,50,50,42,46,32,44,14,5.4,1.5
2022-04-08T09:00:00,2350A,113.8676,27.6435,萍乡市,市环保局,细颗粒物(PM2.5),67,82,61,48,36,158,39,31,30,48,33,54,22,4.2,1.4
2022-04-08T09:00:00,2351A,113.866,27.6198,萍乡市,安源区政府,颗粒物(PM10),63,75,70,31,31,153,53,35,32,42,31,38,18,5.7,1.8
2022-04-08T09:00:00,2352A,115.0861,27.9317,新余市,北岗(对照点),,50,50,55,22,28,155,28,42,15,32,18,32,12,0.6,0.3
2022-04-08T09:00:00,2353A,114.9886,27.8431,新余市,飞宇,颗粒物(PM10),60,70,70,29,30,145,28,49,26,62,36,64,26,1.5,0.5
2022-04-08T09:00:00,2354A,114.9231,27.8246,新余市,第二水厂,细颗粒物(PM2.5),78,90,91,57,38,160,27,30,19,48,34,61,19,3.0,0.8
2022-04-08T09:00:00,2355A,114.9308,27.8036,新余市,市气象局,颗粒物(PM10),72,93,70,48,35,157,27,34,26,61,38,52,25,2.8,0.9
2022-04-08T09:00:00,2357A,116.9822,28.1136,鹰潭市,龙虎山(对照点),颗粒物(PM10),51,52,50,19,20,172,75,82,55,4,4,4,6,0.3,0.3
2022-04-08T09:00:00,2358A,117.0564,28.2642,鹰潭市,新监测站,颗粒物(PM10),74,97,69,41,33,166,67,94,58,30,19,48,44,0.7,0.4
2022-04-08T09:00:00,2359A,117.0311,28.2475,鹰潭市,财苑宾馆,"颗粒物(PM10),细颗粒物(PM2.5)",58,65,69,41,29,167,73,70,57,17,19,19,28,0.4,0.4
2022-04-08T09:00:00,2360A,117.0222,28.2264,鹰潭市,体育馆,颗粒物(PM10),57,63,62,24,29,168,73,79,72,13,14,7,19,0.3,0.5
2022-04-08T09:00:00,2361A,117.0017,28.2131,鹰潭市,三川水表,颗粒物(PM10),65,80,62,27,27,162,66,70,50,20,14,13,14,0.4,0.6
2022-04-08T09:00:00,2362A,114.9017,25.9149,赣州市,通天岩(对照点),,40,40,43,21,24,157,61,99,69,15,7,14,7,0.6,0.5
2022-04-08T09:00:00,2363A,114.9367,25.8664,赣州市,地委,颗粒物(PM10),57,64,69,31,34,144,35,43,38,54,38,10,11,0.8,0.8
2022-04-08T09:00:00,2364A,114.9461,25.8481,赣州市,气象台,颗粒物(PM10),53,56,54,28,32,174,24,22,20,33,28,9,11,0.9,0.7
2022-04-08T09:00:00,2365A,114.9322,25.8333,赣州市,市图书馆,细颗粒物(PM2.5),54,56,58,38,35,172,24,38,13,41,36,8,11,1.1,1
2022-04-08T09:00:00,2366A,114.8905,25.8471,赣州市,华坚鞋城,细颗粒物(PM2.5),62,72,66,44,32,149,49,35,35,40,38,34,14,0.7,0.6
