timepoint,stationcode,longitude,latitude,area,positionname,primarypollutant,aqi,pm10,pm10_24h,pm2_5,pm2_5_24h,o3,o3_24h,o3_8h,o3_8h_24h,no2,no2_24h,so2,so2_24h,co,co_24h
2022-04-08T22:00:00,1001A,116.3621,39.8784,北京市,万寿西宫,细颗粒物(PM2.5),147,197,153,112,89,200,77,179,163,64,40,2,6,1.3,1.1
2022-04-08T22:00:00,1002A,116.2202,40.2915,北京市,定陵(对照点),细颗粒物(PM2.5),128,160,139,97,75,214,159,180,180,24,29,3,5,0.9,0.9
2022-04-08T22:00:00,1003A,116.4174,39.9289,北京市,东四,细颗粒物(PM2.5),152,202,150,116,82,203,130,188,183,55,36,3,5,1.1,1
2022-04-08T22:00:00,1004A,116.4072,39.8863,北京市,天坛,细颗粒物(PM2.5),124,172,144,94,84,198,65,173,154,36,30,3,5,1.2,1.1
2022-04-08T22:00:00,1005A,116.462,39.9365,北京市,农展馆,细颗粒物(PM2.5),155,194,152,118,89,195,81,176,165,59,36,3,8,1.3,1.1
2022-04-08T22:00:00,1006A,116.3392,39.9295,北京市,官园,细颗粒物(PM2.5),159,194,151,121,88,190,109,169,163,44,36,6,8,1.1,1.1
2022-04-08T22:00:00,1007A,116.2878,39.9611,北京市,海淀万柳,细颗粒物(PM2.5),135,199,161,103,84,183,73,160,145,72,49,4,6,1.1,1.1
2022-04-08T22:00:00,1008A,116.6636,40.135,北京市,顺义新城,细颗粒物(PM2.5),176,231,155,133,80,192,120,172,159,39,33,4,9,1.0,1.1
2022-04-08T22:00:00,1009A,116.6275,40.3275,北京市,怀柔镇,细颗粒物(PM2.5),143,162,137,109,80,203,142,184,181,23,21,3,6,1.1,1.1
2022-04-08T22:00:00,1010A,116.2296,40.217,北京市,昌平镇,颗粒物(PM10),229,370,247,114,107,207,157,180,180,26,32,2,4,1.0,1
2022-04-08T22:00:00,1011A,116.3966,39.9821,北京市,奥体中心,细颗粒物(PM2.5),165,208,154,125,86,196,59,174,159,98,44,7,9,1.7,1.1
2022-04-08T22:00:00,1012A,116.184,39.9136,北京市,古城,细颗粒物(PM2.5),143,209,175,109,88,186,77,166,156,73,49,3,4,1.2,1.1
2022-04-08T22:00:00,1015A,117.1444,39.1661,天津市,勤俭道,细颗粒物(PM2.5),114,153,150,86,84,186,111,170,154,26,35,12,11,0.8,1
2022-04-08T22:00:00,1017A,117.237,39.1082,天津市,大直沽八号路,颗粒物(PM10),96,141,152,57,81,187,122,171,156,22,35,14,13,0.9,1
2022-04-08T22:00:00,1018A,117.202,39.0927,天津市,前进道,颗粒物(PM10),78,106,133,52,71,182,104,164,148,27,32,8,9,1.0,1.1
2022-04-08T22:00:00,1019A,117.1837,39.2133,天津市,淮河道,细颗粒物(PM2.5),123,152,156,93,88,186,106,169,151,28,43,11,13,1.1,1.2
2022-04-08T22:00:00,1021A,117.307,39.0877,天津市,跃进路,颗粒物(PM10),87,123,148,47,77,185,119,169,155,21,36,8,9,0.7,0.9
2022-04-08T22:00:00,1023A,117.707,39.0343,天津市,第四大街,细颗粒物(PM2.5),98,134,164,73,95,145,125,125,100,16,69,7,7,0.7,0.8
2022-04-08T22:00:00,1024A,117.457,38.8394,天津市,永明路,颗粒物(PM10),85,120,135,62,81,184,119,165,154,19,25,9,10,0.9,1
2022-04-08T22:00:00,1026A,117.764,39.1587,天津市,汉北路,细颗粒物(PM2.5),94,93,141,70,94,201,129,166,141,16,33,9,9,0.9,1
2022-04-08T22:00:00,1027A,117.157,38.9194,天津市,团泊洼(对照点),细颗粒物(PM2.5),98,118,121,73,83,180,115,164,151,29,36,10,8,0.7,0.7
2022-04-08T22:00:00,1029A,114.4422,38.0444,石家庄市,职工医院,颗粒物(PM10),97,144,142,69,61,199,79,168,134,28,46,18,13,0.8,0.9
2022-04-08T22:00:00,1030A,114.6063,38.0266,石家庄市,高新区,颗粒物(PM10),85,119,149,51,68,180,100,150,135,18,33,16,16,1.0,1.3
2022-04-08T22:00:00,1031A,114.4898,38.1328,石家庄市,西北水源,细颗粒物(PM2.5),94,114,149,70,71,192,86,160,140,21,39,26,12,0.8,0.9
2022-04-08T22:00:00,1032A,114.4586,38.0058,石家庄市,西南高教,细颗粒物(PM2.5),88,122,155,65,67,188,91,150,135,16,33,12,10,1.0,1.2
2022-04-08T22:00:00,1033A,114.5331,38.0178,石家庄市,世纪公园,细颗粒物(PM2.5),104,93,133,78,73,180,99,152,137,13,30,16,12,0.8,1.1
2022-04-08T22:00:00,1034A,114.509,38.0457,石家庄市,人民会堂,细颗粒物(PM2.5),114,149,147,86,80,201,106,167,151,26,37,16,14,0.8,1
2022-04-08T22:00:00,1035A,114.3524,37.8911,石家庄市,封龙山(对照点),颗粒物(PM10),75,99,107,29,47,208,166,177,176,11,18,26,28,0.8,1
2022-04-08T22:00:00,1037A,118.131,39.6363,唐山市,雷达站,细颗粒物(PM2.5),208,203,143,158,100,207,117,190,176,30,26,9,14,1.4,1.4
2022-04-08T22:00:00,1038A,118.1725,39.6334,唐山市,物资局,细颗粒物(PM2.5),203,205,141,153,86,200,105,182,167,46,39,12,17,1.4,1.3
2022-04-08T22:00:00,1040A,118.1705,39.6506,唐山市,十二中,细颗粒物(PM2.5),214,204,138,164,92,198,115,187,168,28,35,10,17,1.4,1.3
2022-04-08T22:00:00,1041A,118.1869,39.622,唐山市,小山,细颗粒物(PM2.5),152,216,146,116,75,211,96,199,174,53,33,10,16,1.3,1.3
2022-04-08T22:00:00,1042A,119.5134,39.8207,秦皇岛市,北戴河环保局,,,103,66,66,39,138,138,130,130,,30,,9,1.0,1.3
2022-04-08T22:00:00,1043A,119.7493,40.0116,秦皇岛市,第一关,细颗粒物(PM2.5),147,127,108,112,72,160,153,146,146,21,43,14,14,0.7,0.7
2022-04-08T22:00:00,1044A,119.5897,39.9499,秦皇岛市,监测站,细颗粒物(PM2.5),125,123,101,95,66,181,141,166,165,37,36,6,10,1.1,1.1
2022-04-08T22:00:00,1046A,119.5251,39.9041,秦皇岛市,建设大厦,细颗粒物(PM2.5),133,158,113,101,68,192,122,175,170,38,34,6,11,1.2,1
2022-04-08T22:00:00,1048A,114.5302,36.6116,邯郸市,东污水处理厂,细颗粒物(PM2.5),92,117,121,68,81,159,108,149,144,12,13,25,23,0.1,0.1
2022-04-08T22:00:00,1049A,114.4918,36.5713,邯郸市,矿院,颗粒物(PM10),81,111,133,57,73,163,117,155,151,10,12,6,7,0.4,0.6
2022-04-08T22:00:00,1050A,114.484,36.6133,邯郸市,丛台公园,细颗粒物(PM2.5),77,94,122,56,70,165,128,158,156,15,17,8,8,0.6,0.7
2022-04-08T22:00:00,1051A,115.493,38.8632,保定市,游泳馆,细颗粒物(PM2.5),148,240,141,113,73,213,37,186,158,107,37,16,15,1.4,0.7
2022-04-08T22:00:00,1053A,115.4713,38.9108,保定市,接待中心,细颗粒物(PM2.5),172,223,149,130,73,218,58,185,161,102,43,15,14,1.7,1
2022-04-08T22:00:00,1054A,115.4612,38.8416,保定市,地表水厂,颗粒物(PM10),142,234,152,90,66,220,80,187,170,63,33,12,11,1.3,0.9
2022-04-08T22:00:00,1055A,115.4323,38.8697,保定市,胶片厂,细颗粒物(PM2.5),133,184,119,101,68,216,54,191,168,68,30,16,13,1.7,1
2022-04-08T22:00:00,1056A,115.5086,38.8639,保定市,监测站,颗粒物(PM10),157,263,147,111,85,214,33,176,142,113,42,12,10,1.5,1
2022-04-08T22:00:00,1057A,114.8883,40.8336,张家口市,人民公园,颗粒物(PM10),62,74,61,23,18,180,86,143,116,12,14,5,5,0.3,0.3
2022-04-08T22:00:00,1059A,114.8687,40.8042,张家口市,五金库,颗粒物(PM10),85,120,68,41,25,181,33,146,110,71,21,8,7,0.9,0.5
2022-04-08T22:00:00,1060A,114.8902,40.762,张家口市,世纪豪园,颗粒物(PM10),96,142,71,71,26,180,69,148,111,45,24,8,6,0.8,0.5
2022-04-08T22:00:00,1061A,114.8916,40.8661,张家口市,北泵房(对照点),颗粒物(PM10),60,70,55,29,22,184,56,151,114,19,11,10,9,0.7,0.4
2022-04-08T22:00:00,1062A,117.9531,40.9081,承德市,铁路,细颗粒物(PM2.5),103,141,100,77,40,171,160,163,163,37,31,13,10,0.8,0.7
2022-04-08T22:00:00,1063A,117.9392,40.9763,承德市,中国银行,颗粒物(PM10),93,136,97,63,35,167,79,162,152,60,34,7,8,0.9,0.6
2022-04-08T22:00:00,1064A,117.9503,40.928,承德市,开发区,细颗粒物(PM2.5),90,127,84,67,35,186,177,178,178,19,33,14,12,0.8,0.7
2022-04-08T22:00:00,1065A,117.8051,40.9655,承德市,文化中心,颗粒物(PM10),79,107,83,57,36,182,98,157,143,40,37,7,11,0.9,0.7
2022-04-08T22:00:00,1066A,117.9268,41.0026,承德市,离宫(对照点),"颗粒物(PM10),细颗粒物(PM2.5)",75,100,78,55,36,176,106,163,155,36,26,5,6,0.8,0.6
2022-04-08T22:00:00,1067A,116.6708,39.5111,廊坊市,药材公司,细颗粒物(PM2.5),127,164,132,96,74,214,138,192,182,36,41,8,10,1.0,0.9
2022-04-08T22:00:00,1068A,116.7214,39.5589,廊坊市,开发区,细颗粒物(PM2.5),135,173,132,103,75,222,136,200,192,34,33,8,9,0.9,1
2022-04-08T22:00:00,1070A,116.7244,39.5269,廊坊市,北华航天学院,细颗粒物(PM2.5),147,190,146,112,88,213,96,188,171,46,38,9,12,1.0,1.1
2022-04-08T22:00:00,1071A,116.8842,38.2991,沧州市,沧县城建局,细颗粒物(PM2.5),98,89,124,73,96,156,96,142,130,22,21,6,6,0.8,0.9
2022-04-08T22:00:00,1072A,116.8584,38.3254,沧州市,电视转播站,细颗粒物(PM2.5),94,105,137,70,85,152,103,140,133,21,20,14,13,0.5,0.6
2022-04-08T22:00:00,1073A,116.8709,38.3228,沧州市,市环保局,细颗粒物(PM2.5),89,104,128,66,96,161,107,148,138,20,20,16,13,0.8,0.9
2022-04-08T22:00:00,1074A,115.6838,37.7541,衡水市,电机北厂,"颗粒物(PM10),细颗粒物(PM2.5)",82,114,115,60,81,159,129,150,147,15,15,15,13,0.5,0.5
2022-04-08T22:00:00,1075A,115.6303,37.7316,衡水市,市监测站,颗粒物(PM10),84,117,154,48,75,159,128,150,143,11,12,27,21,0.6,0.7
2022-04-08T22:00:00,1077A,114.4704,37.0886,邢台市,达活泉,颗粒物(PM10),111,171,184,74,82,155,120,145,139,21,20,21,22,1.0,1.4
2022-04-08T22:00:00,1078A,114.5062,37.0349,邢台市,邢师高专,,,137,155,66,78,155,,152,151,26,26,10,14,0.8,1.4
2022-04-08T22:00:00,1079A,114.5237,37.0851,邢台市,路桥公司,颗粒物(PM10),101,151,148,75,79,156,105,151,137,20,24,11,17,0.9,1.5
2022-04-08T22:00:00,1080A,114.4725,37.0719,邢台市,市环保局,颗粒物(PM10),108,166,164,80,87,149,116,136,129,25,26,10,11,0.8,1.1
2022-04-08T22:00:00,1081A,112.5139,37.8873,太原市,尖草坪,颗粒物(PM10),69,87,95,35,40,184,56,162,133,47,44,6,13,0.4,0.5
2022-04-08T22:00:00,1083A,112.434,38.0108,太原市,上兰(对照点),颗粒物(PM10),52,53,69,24,29,197,112,164,153,6,15,5,16,0.2,0.4
2022-04-08T22:00:00,1084A,112.469,37.7124,太原市,晋源,颗粒物(PM10),53,56,87,27,44,204,77,172,137,41,41,6,16,0.3,0.7
2022-04-08T22:00:00,1085A,112.5583,37.7394,太原市,小店,颗粒物(PM10),65,80,99,31,46,196,85,173,150,30,42,15,27,0.5,0.7
2022-04-08T22:00:00,1086A,112.5369,37.8692,太原市,桃园,颗粒物(PM10),78,105,98,48,41,185,38,165,132,63,48,3,11,0.9,0.6
2022-04-08T22:00:00,1087A,112.57,37.8195,太原市,坞城,颗粒物(PM10),80,110,103,41,46,194,34,174,144,59,37,7,19,0.6,0.7
2022-04-08T22:00:00,1088A,112.549,37.9854,太原市,南寨,颗粒物(PM10),106,162,135,50,44,175,3,159,116,95,50,9,17,0.6,0.8
2022-04-08T22:00:00,1090A,111.6507,40.7517,呼和浩特市,呼市一监,颗粒物(PM10),103,156,128,32,44,160,102,140,136,25,37,5,11,0.4,0.7
2022-04-08T22:00:00,1091A,111.6572,40.8033,呼和浩特市,小召,颗粒物(PM10),87,124,96,28,39,142,87,117,114,33,39,7,11,0.4,0.5
2022-04-08T22:00:00,1094A,111.7516,40.8369,呼和浩特市,如意水处理厂,颗粒物(PM10),75,99,69,25,30,147,102,128,125,19,34,9,12,0.4,0.5
2022-04-08T22:00:00,1095A,111.7276,40.8062,呼和浩特市,二十九中,颗粒物(PM10),93,135,91,24,37,149,107,128,126,17,32,9,13,0.5,0.6
2022-04-08T22:00:00,1096A,111.5512,40.7866,呼和浩特市,工大金川校区,颗粒物(PM10),86,122,81,28,37,144,87,118,115,17,26,9,12,0.3,0.4
2022-04-08T22:00:00,1097A,111.717,40.7612,呼和浩特市,化肥厂生活区,颗粒物(PM10),88,125,119,31,57,133,80,116,110,30,33,14,15,0.4,0.6
2022-04-08T22:00:00,1098A,123.6836,41.9339,沈阳市,森林路(对照点),颗粒物(PM10),79,108,99,51,50,186,124,167,146,20,22,16,15,1.0,0.9
2022-04-08T22:00:00,1099A,123.505,41.7406,沈阳市,浑南东路,颗粒物(PM10),78,105,110,52,66,188,126,161,143,12,29,16,20,0.9,1
2022-04-08T22:00:00,1100A,123.4231,41.6989,沈阳市,新秀街,颗粒物(PM10),84,118,131,54,67,178,112,159,139,25,31,32,24,0.8,1.2
2022-04-08T22:00:00,1102A,123.5903,41.8411,沈阳市,东陵路,细颗粒物(PM2.5),74,72,108,54,55,179,115,158,140,12,20,14,18,0.8,1
2022-04-08T22:00:00,1103A,123.4264,41.8467,沈阳市,陵东街,颗粒物(PM10),79,108,151,44,60,185,131,168,148,15,24,9,15,0.7,1
2022-04-08T22:00:00,1104A,123.4114,41.7653,沈阳市,文化路,颗粒物(PM10),85,120,138,57,68,192,131,174,153,12,20,12,18,0.9,1.3
2022-04-08T22:00:00,1105A,123.4678,41.7867,沈阳市,小河沿,颗粒物(PM10),79,108,122,49,61,170,120,154,139,13,24,9,15,0.8,1.1
2022-04-08T22:00:00,1106A,123.4017,41.7972,沈阳市,太原街,颗粒物(PM10),88,126,152,57,71,192,139,174,156,9,19,8,18,0.6,1
2022-04-08T22:00:00,1108A,123.3783,41.9228,沈阳市,京沈街,颗粒物(PM10),95,139,249,59,83,183,137,172,152,11,20,14,17,0.9,1.1
2022-04-08T22:00:00,1109A,121.612,38.9741,大连市,甘井子,"颗粒物(PM10),细颗粒物(PM2.5)",72,94,115,52,58,149,114,129,121,30,46,5,6,0.6,0.6
2022-04-08T22:00:00,1110A,121.565,38.9511,大连市,周水子,颗粒物(PM10),74,98,114,50,54,210,151,194,190,21,31,6,6,0.6,0.7
2022-04-08T22:00:00,1111A,121.5637,38.8845,大连市,星海三站,细颗粒物(PM2.5),69,69,72,50,50,158,122,139,139,27,38,5,6,0.5,0.5
2022-04-08T22:00:00,1112A,121.6302,38.9117,大连市,青泥洼桥,颗粒物(PM10),68,86,90,37,39,179,132,166,160,15,27,8,9,0.6,0.7
2022-04-08T22:00:00,1113A,121.6251,38.8638,大连市,傅家庄,颗粒物(PM10),61,72,66,38,39,171,132,152,151,26,39,6,8,0.3,0.2
2022-04-08T22:00:00,1114A,121.5213,38.8661,大连市,七贤岭,颗粒物(PM10),66,82,85,42,44,164,124,144,143,29,35,13,14,0.8,0.8
2022-04-08T22:00:00,1115A,121.2529,38.8061,大连市,旅顺,细颗粒物(PM2.5),67,56,76,48,65,169,130,139,138,23,36,8,10,0.4,0.5
2022-04-08T22:00:00,1116A,121.7485,39.1311,大连市,金州,细颗粒物(PM2.5),65,74,90,47,52,175,132,164,158,18,27,7,9,0.7,0.8
2022-04-08T22:00:00,1117A,121.7811,39.0496,大连市,开发区,颗粒物(PM10),60,69,73,42,42,155,104,135,125,37,23,7,9,0.4,0.5
2022-04-08T22:00:00,1118A,121.9762,39.0631,大连市,双D港,颗粒物(PM10),54,57,69,35,35,135,90,118,112,30,43,2,3,0.4,0.4
2022-04-08T22:00:00,1119A,125.3325,43.9166,长春市,食品厂,颗粒物(PM10),114,177,280,82,63,162,134,155,151,10,15,18,12,0.7,0.7
2022-04-08T22:00:00,1120A,125.2863,43.9027,长春市,客车厂,颗粒物(PM10),111,172,291,72,55,163,138,154,153,10,17,11,13,1.1,1
2022-04-08T22:00:00,1121A,125.2841,43.8463,长春市,邮电学院,颗粒物(PM10),128,205,336,86,59,163,134,158,154,11,16,14,18,0.9,0.8
2022-04-08T22:00:00,1122A,125.3716,43.8772,长春市,劳动公园,颗粒物(PM10),113,175,254,84,57,172,142,167,162,12,16,11,9,0.8,0.8
2022-04-08T22:00:00,1123A,125.3297,43.8805,长春市,园林处,颗粒物(PM10),107,164,228,,,167,137,160,156,13,17,10,10,0.7,0.6
2022-04-08T22:00:00,1124A,125.4605,43.79,长春市,净月潭,颗粒物(PM10),110,170,225,,,172,133,165,159,13,12,11,10,0.8,0.7
2022-04-08T22:00:00,1125A,125.7194,43.515,长春市,甩湾子(对照点),颗粒物(PM10),126,201,133,49,44,159,115,148,143,9,17,12,12,0.7,0.9
2022-04-08T22:00:00,1126A,125.3863,43.8447,长春市,经开区环卫处,颗粒物(PM10),114,177,258,79,57,158,130,153,149,,11,16,15,1.1,0.9
2022-04-08T22:00:00,1127A,125.245,43.7783,长春市,高新区管委会,细颗粒物(PM2.5),109,160,279,82,59,169,136,162,158,11,14,13,9,0.8,0.7
2022-04-08T22:00:00,1128A,125.1761,43.8325,长春市,岱山公园,颗粒物(PM10),101,151,267,71,54,156,126,150,145,11,15,10,10,0.7,0.7
2022-04-08T22:00:00,1129A,126.5422,45.755,哈尔滨市,岭北(对照点),颗粒物(PM10),109,168,106,49,28,114,21,103,73,77,21,15,11,0.8,0.4
2022-04-08T22:00:00,1130A,126.561,45.8167,哈尔滨市,松北商大,细颗粒物(PM2.5),103,114,122,77,41,125,34,108,62,63,19,9,5,1.1,0.8
2022-04-08T22:00:00,1131A,126.979,45.5419,哈尔滨市,阿城会宁,颗粒物(PM10),374,479,189,141,44,128,8,118,74,79,21,17,11,1.5,0.8
2022-04-08T22:00:00,1132A,126.599,45.7222,哈尔滨市,南岗学府路,颗粒物(PM10),103,155,191,59,42,113,12,100,63,88,23,17,8,1.5,0.9
2022-04-08T22:00:00,1133A,126.689,45.7733,哈尔滨市,太平宏伟公园,颗粒物(PM10),172,294,235,99,51,122,19,108,65,89,32,13,11,1.2,0.7
2022-04-08T22:00:00,1134A,126.635,45.7667,哈尔滨市,道外承德广场,细颗粒物(PM2.5),166,229,209,126,55,109,5,94,57,95,31,29,18,1.2,0.7
2022-04-08T22:00:00,1135A,126.685,45.7319,哈尔滨市,香坊红旗大街,细颗粒物(PM2.5),165,259,164,125,51,114,12,100,60,98,32,32,18,1.8,0.8
2022-04-08T22:00:00,1136A,126.6411,45.7258,哈尔滨市,动力和平路,颗粒物(PM10),108,165,228,74,47,114,26,100,66,68,25,27,18,1.2,0.7
2022-04-08T22:00:00,1137A,126.593,45.7478,哈尔滨市,道里建国路,细颗粒物(PM2.5),127,181,199,96,50,108,7,96,54,98,31,29,15,1.5,0.9
2022-04-08T22:00:00,1138A,126.615,45.61,哈尔滨市,平房东轻厂,细颗粒物(PM2.5),145,232,226,111,48,112,37,103,68,57,21,24,29,0.6,0.1
2022-04-08T22:00:00,1139A,126.595,45.9855,哈尔滨市,呼兰师专,细颗粒物(PM2.5),98,94,98,73,53,114,78,100,80,24,21,12,13,0.8,0.8
2022-04-08T22:00:00,1140A,126.6206,45.6842,哈尔滨市,省农科院,颗粒物(PM10),130,209,208,97,51,113,9,100,59,86,26,25,17,1.4,1.1
2022-04-08T22:00:00,1141A,121.4,31.238,上海市,普陀,,41,41,56,13,25,200,121,189,166,22,27,4,9,1.0,1.1
2022-04-08T22:00:00,1142A,121.478,31.2036,上海市,十五厂,,44,44,52,20,33,183,106,169,145,20,24,6,7,0.6,0.7
2022-04-08T22:00:00,1143A,121.467,31.3008,上海市,虹口,,44,44,56,22,28,182,117,173,155,20,30,4,5,0.5,0.6
2022-04-08T22:00:00,1144A,121.412,31.1654,上海市,徐汇上师大,,47,47,57,24,32,181,102,168,144,26,28,29,14,1.0,1
2022-04-08T22:00:00,1145A,121.536,31.2659,上海市,杨浦四漂,颗粒物(PM10),52,53,52,15,30,188,111,176,153,16,24,8,9,0.6,0.7
2022-04-08T22:00:00,1147A,121.425,31.2261,上海市,静安监测站,,47,47,57,18,31,182,110,172,149,23,30,5,11,0.1,0.1
2022-04-08T22:00:00,1148A,121.703,31.1907,上海市,浦东川沙,,42,42,44,17,27,193,100,168,143,31,33,5,6,0.7,0.7
2022-04-08T22:00:00,1149A,121.533,31.2284,上海市,浦东新区监测站,,43,43,55,16,29,187,117,174,154,19,23,6,6,0.6,0.6
2022-04-08T22:00:00,1150A,121.577,31.2071,上海市,浦东张江,,37,37,52,23,30,170,104,157,137,22,27,5,5,0.6,0.6
2022-04-08T22:00:00,1151A,118.8086,32.1065,南京市,迈皋桥,颗粒物(PM10),66,82,86,27,31,185,109,168,118,65,61,4,6,0.5,0.7
2022-04-08T22:00:00,1152A,118.7538,32.0551,南京市,草场门,颗粒物(PM10),73,95,89,31,32,184,125,168,136,67,61,10,11,0.3,0.5
2022-04-08T22:00:00,1153A,118.7794,32.0745,南京市,山西路,颗粒物(PM10),85,119,98,29,39,190,153,173,146,27,41,3,6,0.4,0.5
2022-04-08T22:00:00,1154A,118.7752,32.0023,南京市,中华门,颗粒物(PM10),74,97,97,22,34,184,99,170,132,61,47,4,5,0.4,0.4
2022-04-08T22:00:00,1155A,118.8109,32.0309,南京市,瑞金路,颗粒物(PM10),67,84,80,41,38,188,83,170,117,70,47,5,6,0.6,0.6
2022-04-08T22:00:00,1156A,118.7997,32.0754,南京市,玄武湖,颗粒物(PM10),66,81,71,27,32,194,161,174,143,25,36,5,4,0.5,0.7
2022-04-08T22:00:00,1157A,118.6414,32.0931,南京市,浦口,颗粒物(PM10),67,83,82,14,24,183,106,168,147,39,26,5,9,0.6,0.7
2022-04-08T22:00:00,1158A,118.7356,31.9996,南京市,奥体中心,颗粒物(PM10),80,110,91,31,35,185,154,169,145,41,55,7,9,0.6,0.8
2022-04-08T22:00:00,1159A,118.9125,32.1028,南京市,仙林大学城,臭氧1小时,98,90,84,31,37,215,198,192,171,18,28,7,8,0.6,0.7
2022-04-08T22:00:00,1160A,120.561,31.2472,苏州市,上方山(对照点),颗粒物(PM10),52,53,67,31,43,220,76,199,161,26,33,6,9,0.5,0.5
2022-04-08T22:00:00,1162A,120.591,31.3019,苏州市,彩香,,50,50,62,19,32,235,92,211,175,23,27,7,11,0.5,0.7
2022-04-08T22:00:00,1163A,120.596,31.3264,苏州市,轧钢厂,颗粒物(PM10),54,58,79,17,30,236,90,210,175,27,32,7,9,0.5,0.6
2022-04-08T22:00:00,1164A,120.613,31.2703,苏州市,吴中区,颗粒物(PM10),52,53,67,16,33,231,86,204,166,27,33,5,8,0.4,0.5
2022-04-08T22:00:00,1165A,120.543,31.2994,苏州市,苏州新区,,50,50,66,19,34,237,91,218,180,20,29,9,13,0.6,0.7
2022-04-08T22:00:00,1166A,120.669,31.3097,苏州市,苏州工业园区,,48,48,59,17,32,229,92,204,169,26,32,8,10,0.4,0.5
2022-04-08T22:00:00,1167A,120.641,31.3708,苏州市,相城区,颗粒物(PM10),53,55,70,18,34,213,82,194,158,33,40,5,7,0.5,0.6
2022-04-08T22:00:00,1168A,120.9098,31.9663,南通市,狼山街道,颗粒物(PM10),59,67,67,34,41,221,127,204,168,37,33,11,10,0.2,0.3
2022-04-08T22:00:00,1169A,120.86,32.0005,南通市,虹桥,颗粒物(PM10),60,70,63,24,40,201,113,179,162,40,35,12,13,0.6,0.6
2022-04-08T22:00:00,1170A,120.87,32.02,南通市,城中,颗粒物(PM10),62,74,63,24,40,210,109,190,164,48,31,6,7,0.6,0.7
2022-04-08T22:00:00,1171A,120.94,31.93,南通市,星湖花园,颗粒物(PM10),58,66,60,29,37,216,109,194,162,48,39,12,9,0.4,0.4
2022-04-08T22:00:00,1172A,120.81,32.0417,南通市,紫琅学院,颗粒物(PM10),62,73,64,29,41,222,121,196,178,36,32,11,11,0.5,0.5
2022-04-08T22:00:00,1173A,119.176,34.5885,连云港市,市环境监测站,颗粒物(PM10),73,95,92,36,50,196,133,170,162,17,12,8,7,0.6,0.7
2022-04-08T22:00:00,1177A,117.179,34.2761,徐州市,黄河新村,"颗粒物(PM10),细颗粒物(PM2.5)",67,83,99,48,60,167,117,156,147,12,9,13,8,0.6,0.8
2022-04-08T22:00:00,1178A,117.1918,34.2384,徐州市,淮塔,颗粒物(PM10),61,72,100,34,49,162,106,151,142,18,14,17,10,0.7,0.8
2022-04-08T22:00:00,1180A,117.256,34.2153,徐州市,新城区,颗粒物(PM10),66,81,94,26,50,163,106,147,137,16,16,8,6,0.7,0.8
2022-04-08T22:00:00,1181A,117.244,34.2911,徐州市,桃园路,颗粒物(PM10),67,83,95,28,54,164,110,148,140,11,11,13,11,0.5,0.7
2022-04-08T22:00:00,1182A,117.2933,34.2778,徐州市,农科院,颗粒物(PM10),62,73,78,19,49,160,111,146,140,7,12,11,10,0.6,0.8
2022-04-08T22:00:00,1186A,119.389,32.3761,扬州市,邗江监测站,颗粒物(PM10),89,127,111,38,43,204,151,182,170,36,31,11,11,0.7,0.8
2022-04-08T22:00:00,1188A,120.269,31.4867,无锡市,雪浪,,,95,94,17,41,244,102,230,196,,26,8,10,0.2,0.3
2022-04-08T22:00:00,1189A,120.275,31.6219,无锡市,黄巷,颗粒物(PM10),71,92,101,29,42,238,116,224,192,37,39,10,11,0.4,0.6
2022-04-08T22:00:00,1190A,120.294,31.56,无锡市,曹张,颗粒物(PM10),59,68,76,24,40,236,96,221,183,32,28,11,10,0.7,0.8
2022-04-08T22:00:00,1191A,120.242,31.5031,无锡市,漆塘,颗粒物(PM10),65,80,84,28,43,241,108,225,195,24,24,9,9,0.3,0.4
2022-04-08T22:00:00,1192A,120.3489,31.5863,无锡市,东亭,颗粒物(PM10),57,63,86,17,38,241,97,223,185,48,43,8,9,0.5,0.7
2022-04-08T22:00:00,1193A,120.354,31.5475,无锡市,旺庄,颗粒物(PM10),60,70,83,29,46,230,105,215,182,26,40,8,11,0.6,0.7
2022-04-08T22:00:00,1194A,120.245,31.5631,无锡市,荣巷,颗粒物(PM10),68,85,76,34,42,230,102,216,186,37,28,12,11,0.5,0.6
2022-04-08T22:00:00,1195A,120.299,31.6817,无锡市,堰桥,颗粒物(PM10),67,83,94,31,49,226,110,213,184,35,31,9,9,0.6,0.7
2022-04-08T22:00:00,1196A,119.9633,31.762,常州市,市监测站,颗粒物(PM10),65,80,115,36,53,228,125,203,189,37,31,9,8,0.5,0.7
2022-04-08T22:00:00,1200A,119.9468,31.7069,常州市,武进监测站,颗粒物(PM10),56,62,95,29,52,246,152,222,208,25,30,8,10,0.6,0.7
2022-04-08T22:00:00,1201A,119.9255,31.9087,常州市,安家,,47,47,116,28,78,236,124,215,181,42,39,13,8,1.1,0.8
2022-04-08T22:00:00,1204A,119.4974,32.1968,镇江市,职教中心,颗粒物(PM10),75,100,79,41,69,227,155,216,202,38,32,9,7,0.3,0.5
2022-04-08T22:00:00,1205A,119.4303,32.1328,镇江市,丹徒区监测站,臭氧1小时,82,93,83,44,63,246,185,220,210,29,32,6,7,0.4,0.7
2022-04-08T22:00:00,1206A,119.905,32.4878,泰州市,公园路,颗粒物(PM10),76,102,97,48,57,244,161,227,202,29,26,6,7,0.9,1
2022-04-08T22:00:00,1207A,119.9189,32.4625,泰州市,莲花,颗粒物(PM10),78,105,97,51,64,246,150,230,201,24,20,8,7,0.9,1
2022-04-08T22:00:00,1209A,119.888,32.4639,泰州市,留学生创业园,颗粒物(PM10),74,97,91,32,52,251,164,226,202,28,27,10,11,0.7,0.9
2022-04-08T22:00:00,1212A,118.989,33.6067,淮安市,市监测站,颗粒物(PM10),68,85,98,31,54,205,112,178,152,32,24,19,15,0.8,1
2022-04-08T22:00:00,1213A,119.135,33.5039,淮安市,楚州区监测站,,,103,91,,51,213,,174,156,38,32,12,12,0.9,0.8
2022-04-08T22:00:00,1214A,119.0186,33.6297,淮安市,淮阴区监测站,颗粒物(PM10),62,74,81,15,51,189,111,166,140,27,23,13,13,0.6,0.9
2022-04-08T22:00:00,1215A,120.118,33.4022,盐城市,盐城电厂,臭氧1小时,100,114,88,45,51,249,200,231,228,16,15,13,11,0.7,0.6
2022-04-08T22:00:00,1216A,120.156,33.3942,盐城市,市监测站,颗粒物(PM10),77,104,65,46,48,240,179,220,216,21,20,11,11,0.6,0.6
2022-04-08T22:00:00,1218A,120.2144,33.38,盐城市,开发区管委会,臭氧1小时,64,73,57,28,29,262,171,221,205,23,19,8,7,0.8,0.7
2022-04-08T22:00:00,1220A,118.293,33.9528,宿迁市,宿迁学院,颗粒物(PM10),59,68,76,30,37,168,105,159,142,24,17,6,6,0.3,0.5
2022-04-08T22:00:00,1221A,118.2442,33.9592,宿迁市,宿迁中学,,38,34,57,16,36,164,120,156,144,9,11,4,5,0.4,0.7
2022-04-08T22:00:00,1223A,120.2072,30.2111,杭州市,滨江,颗粒物(PM10),100,150,109,66,45,201,78,185,154,77,71,12,9,0.7,0.8
2022-04-08T22:00:00,1224A,120.0633,30.2747,杭州市,西溪,颗粒物(PM10),70,90,75,46,42,198,114,174,158,40,42,6,5,0.4,0.5
2022-04-08T22:00:00,1226A,120.3461,30.3153,杭州市,下沙,颗粒物(PM10),79,108,114,40,48,231,64,205,166,76,72,15,12,0.5,0.7
2022-04-08T22:00:00,1227A,120.1269,30.2456,杭州市,卧龙桥,细颗粒物(PM2.5),60,68,63,43,39,186,62,168,121,34,28,5,5,0.7,0.6
2022-04-08T22:00:00,1228A,120.1903,30.2692,杭州市,浙江农大,颗粒物(PM10),94,137,99,59,50,226,57,199,160,79,60,12,8,0.7,0.7
2022-04-08T22:00:00,1230A,120.1197,30.3119,杭州市,和睦小学,颗粒物(PM10),99,148,121,61,51,196,25,181,144,112,64,8,5,0.9,0.8
2022-04-08T22:00:00,1231A,120.3019,30.4183,杭州市,临平镇,颗粒物(PM10),85,119,118,45,53,248,70,209,175,53,44,8,6,0.6,0.7
2022-04-08T22:00:00,1232A,120.2697,30.1819,杭州市,城厢镇,颗粒物(PM10),82,114,106,46,42,200,97,182,154,53,63,9,8,0.6,0.8
2022-04-08T22:00:00,1233A,120.0883,30.1808,杭州市,云栖,颗粒物(PM10),73,96,86,36,36,200,57,161,116,52,41,7,7,0.6,0.6
2022-04-08T22:00:00,1234A,121.8358,29.911,宁波市,区环保大楼,颗粒物(PM10),53,56,61,23,22,124,62,111,97,50,54,8,8,0.6,0.6
2022-04-08T22:00:00,1235A,121.56,29.82,宁波市,万里学院,,48,48,50,12,22,164,84,147,131,36,29,10,10,0.4,0.5
2022-04-08T22:00:00,1236A,121.713,29.9572,宁波市,龙赛医院,,35,35,55,16,25,157,103,136,112,33,58,5,11,0.4,0.5
2022-04-08T22:00:00,1239A,121.633,29.7733,宁波市,钱湖水厂,,35,32,32,9,15,146,111,137,126,11,14,5,5,0.4,0.4
2022-04-08T22:00:00,1240A,121.5856,29.8635,宁波市,太古小学,,42,42,44,12,18,136,93,118,104,20,28,8,10,0.4,0.6
2022-04-08T22:00:00,1241A,121.524,29.8674,宁波市,市环境监测中心,颗粒物(PM10),52,53,53,17,18,161,98,143,125,28,38,7,8,0.5,0.6
2022-04-08T22:00:00,1242A,120.634,28.0089,温州市,瓯海,颗粒物(PM10),66,81,70,22,27,120,5,110,76,80,46,6,6,0.6,0.4
2022-04-08T22:00:00,1243A,120.6748,27.9939,温州市,南浦,颗粒物(PM10),67,84,75,34,28,115,15,104,71,77,48,7,7,0.4,0.4
2022-04-08T22:00:00,1244A,120.76,27.9747,温州市,龙湾,颗粒物(PM10),88,125,84,23,21,123,4,111,65,90,48,6,5,0.3,0.4
2022-04-08T22:00:00,1245A,120.6709,28.0167,温州市,市站,颗粒物(PM10),61,72,65,23,24,115,12,107,83,78,43,7,7,0.3,0.3
2022-04-08T22:00:00,1247A,120.6053,29.9928,绍兴市,城东开发委,颗粒物(PM10),56,61,75,29,34,191,110,176,155,29,32,6,7,0.5,0.6
2022-04-08T22:00:00,1250A,120.0751,30.8669,湖州市,城西水厂,颗粒物(PM10),62,74,93,23,44,211,91,190,169,40,59,9,11,0.5,0.6
2022-04-08T22:00:00,1252A,120.7436,30.778,嘉兴市,清河小学,颗粒物(PM10),56,61,59,20,27,215,62,174,128,49,45,11,11,0.6,0.6
2022-04-08T22:00:00,1253A,120.726,30.7478,嘉兴市,嘉兴学院,颗粒物(PM10),52,54,56,22,29,207,71,168,128,35,34,15,16,1.1,1
2022-04-08T22:00:00,1255A,121.273,28.6459,台州市,黄岩环保大楼,,50,50,54,12,19,167,59,136,107,21,22,6,7,0.3,0.3
2022-04-08T22:00:00,1256A,121.419,28.6542,台州市,台州环保大楼,颗粒物(PM10),60,70,62,19,22,159,54,129,91,31,31,5,5,0.3,0.3
2022-04-08T22:00:00,1257A,121.377,28.5773,台州市,路桥田洋王,颗粒物(PM10),67,84,60,32,27,153,25,130,85,46,33,8,7,0.6,0.4
2022-04-08T22:00:00,1258A,122.122,30.0203,舟山市,定海檀枫,,27,25,27,11,12,105,85,94,89,25,30,2,3,0.2,0.2
2022-04-08T22:00:00,1259A,122.3094,29.9558,舟山市,普陀东港,,31,19,22,10,12,99,99,93,88,17,27,4,4,0.3,0.3
2022-04-08T22:00:00,1260A,122.19,29.9944,舟山市,临城新区,,27,27,26,12,13,106,47,93,79,42,33,4,4,0.3,0.3
2022-04-08T22:00:00,1262A,119.647,29.077,金华市,十五中,颗粒物(PM10),72,93,82,29,38,172,90,165,122,38,38,7,8,0.5,0.6
2022-04-08T22:00:00,1263A,119.686,29.1029,金华市,监测站,颗粒物(PM10),64,78,80,18,29,180,89,160,122,38,47,7,6,0.4,0.2
2022-04-08T22:00:00,1264A,118.8692,28.9398,衢州市,环保大楼,颗粒物(PM10),74,98,65,29,25,170,61,152,106,51,32,12,12,0.7,0.6
2022-04-08T22:00:00,1265A,118.8709,28.9666,衢州市,实验学校,颗粒物(PM10),65,79,62,28,25,174,46,155,120,42,32,11,7,0.5,0.5
2022-04-08T22:00:00,1266A,118.8621,28.9808,衢州市,衢州学院,颗粒物(PM10),67,83,70,31,29,159,33,141,101,62,42,8,7,0.6,0.5
2022-04-08T22:00:00,1267A,119.914,28.4514,丽水市,监测站大楼,,50,50,56,18,28,151,94,140,129,18,20,6,8,0.3,0.3
2022-04-08T22:00:00,1268A,119.93,28.4586,丽水市,莲都小学,颗粒物(PM10),52,54,65,14,24,161,112,148,140,14,23,6,7,0.2,0.3
2022-04-08T22:00:00,1269A,119.879,28.4231,丽水市,余庄前,,40,38,52,28,26,143,83,133,119,22,18,6,7,0.2,0.3
2022-04-08T22:00:00,1270A,117.1959,31.7848,合肥市,明珠广场,颗粒物(PM10),60,70,87,27,33,137,68,132,108,55,55,5,6,0.5,0.8
2022-04-08T22:00:00,1271A,117.3072,31.8764,合肥市,三里街,颗粒物(PM10),65,80,99,31,40,128,31,120,96,92,57,8,10,0.5,0.6
2022-04-08T22:00:00,1272A,117.2588,31.8707,合肥市,琥珀山庄,颗粒物(PM10),57,63,86,19,34,161,83,150,129,38,34,6,6,0.6,0.7
2022-04-08T22:00:00,1273A,117.1604,31.9052,合肥市,董铺水库(对照点),颗粒物(PM10),64,78,98,17,36,136,106,132,123,24,34,9,9,0.4,0.6
2022-04-08T22:00:00,1274A,117.25,31.8571,合肥市,长江中路,颗粒物(PM10),60,70,102,17,31,148,82,138,118,57,46,8,9,0.1,0.4
2022-04-08T22:00:00,1275A,117.266,31.9436,合肥市,庐阳区,颗粒物(PM10),60,70,119,24,45,136,94,129,118,38,55,8,9,0.2,0.6
2022-04-08T22:00:00,1276A,117.336,31.8586,合肥市,瑶海区,颗粒物(PM10),92,134,103,24,35,145,40,135,99,81,46,8,9,0.6,0.7
2022-04-08T22:00:00,1277A,117.3027,31.7964,合肥市,包河区,颗粒物(PM10),69,88,107,19,43,154,49,137,107,70,54,5,6,0.2,0.5
2022-04-08T22:00:00,1278A,117.2776,31.7385,合肥市,滨湖新区,颗粒物(PM10),54,58,84,22,32,152,113,140,128,16,26,3,3,0.2,0.3
2022-04-08T22:00:00,1279A,117.1318,31.8403,合肥市,高新区,颗粒物(PM10),54,58,86,22,35,138,97,133,123,33,40,10,10,0.5,0.7
2022-04-08T22:00:00,1280A,119.3903,26.0543,福州市,鼓山(对照点),颗粒物(PM10),52,54,34,8,10,149,110,127,116,3,8,3,4,0.3,0.3
2022-04-08T22:00:00,1282A,119.2681,26.0504,福州市,师大,,50,50,46,14,17,148,52,129,98,38,23,3,3,0.4,0.3
2022-04-08T22:00:00,1283A,119.2984,26.1028,福州市,五四北路,,36,36,36,12,15,145,76,130,109,20,16,4,3,0.2,0.3
2022-04-08T22:00:00,1284A,119.2648,26.0768,福州市,杨桥西路,颗粒物(PM10),52,54,43,16,16,140,48,124,102,38,19,5,4,0.8,0.8
2022-04-08T22:00:00,1285A,119.317,26.0746,福州市,紫阳,,36,36,36,14,16,142,78,125,108,16,14,6,5,0.4,0.5
2022-04-08T22:00:00,1286A,118.1608,24.8169,厦门市,溪东(对照点),,41,41,32,20,20,146,94,132,122,3,4,2,2,0.2,0.2
2022-04-08T22:00:00,1287A,118.1514,24.4767,厦门市,洪文,颗粒物(PM10),51,52,48,16,18,127,71,117,96,19,15,4,4,0.4,0.4
2022-04-08T22:00:00,1288A,118.0661,24.4444,厦门市,鼓浪屿,,50,50,59,15,23,141,67,128,104,22,25,1,5,0.3,0.3
2022-04-08T22:00:00,1290A,115.8931,28.6843,南昌市,省外办,颗粒物(PM10),81,111,90,44,35,171,9,158,113,83,57,7,6,1.2,0.8
2022-04-08T22:00:00,1291A,115.8886,28.7003,南昌市,省林业公司,颗粒物(PM10),75,99,106,32,34,185,15,164,126,102,58,2,13,1.0,1
2022-04-08T22:00:00,1292A,115.8126,28.7442,南昌市,林科所,颗粒物(PM10),51,51,61,21,19,187,80,170,145,44,34,10,12,0.4,0.5
2022-04-08T22:00:00,1294A,115.8518,28.687,南昌市,建工学校,颗粒物(PM10),68,86,91,33,31,190,41,162,131,59,48,12,14,0.6,0.6
2022-04-08T22:00:00,1295A,115.8921,28.6424,南昌市,象湖,颗粒物(PM10),85,120,98,44,34,182,6,162,112,104,47,6,7,1.3,0.9
2022-04-08T22:00:00,1296A,115.7423,28.7996,南昌市,武术学校(对照点),,44,44,44,21,19,184,82,163,134,10,8,16,14,0.6,0.6
2022-04-08T22:00:00,1298A,115.9314,28.6842,南昌市,省站,细颗粒物(PM2.5),70,86,98,51,40,177,58,159,136,60,53,8,12,0.9,0.8
2022-04-08T22:00:00,1299A,116.9862,36.6114,济南市,科干所,颗粒物(PM10),70,90,117,34,60,173,167,170,170,9,9,14,12,0.9,1
2022-04-08T22:00:00,1300A,116.9376,36.665,济南市,农科所,颗粒物(PM10),79,107,135,29,57,155,145,151,150,13,16,12,10,0.3,0.4
2022-04-08T22:00:00,1301A,117.1265,36.6734,济南市,开发区,颗粒物(PM10),69,88,95,29,52,168,165,165,165,4,13,10,10,0.5,0.6
2022-04-08T22:00:00,1303A,117.0624,36.6868,济南市,省种子仓库,颗粒物(PM10),76,102,122,37,68,172,168,168,168,4,30,13,12,0.8,1
2022-04-08T22:00:00,1304A,116.9489,36.6447,济南市,机床二厂,颗粒物(PM10),79,107,132,32,66,165,157,160,160,10,14,11,9,0.7,0.8
2022-04-08T22:00:00,1305A,117.0495,36.663,济南市,市监测站,颗粒物(PM10),72,93,115,28,62,171,164,165,165,4,12,13,12,0.5,0.6
2022-04-08T22:00:00,1306A,116.7675,36.5484,济南市,长清党校,颗粒物(PM10),75,100,130,27,64,166,153,160,160,11,11,13,11,0.9,0.9
2022-04-08T22:00:00,1307A,120.6659,36.2403,青岛市,仰口(对照点),臭氧1小时,88,97,52,46,37,190,190,141,141,16,17,9,4,0.9,0.7
2022-04-08T22:00:00,1310A,120.4134,36.0658,青岛市,市南区东部子站,,48,48,25,17,19,130,73,126,88,33,16,5,4,0.4,0.4
2022-04-08T22:00:00,1311A,120.3664,36.1032,青岛市,四方区子站,颗粒物(PM10),59,68,43,39,33,137,80,132,102,34,16,8,5,0.7,0.6
2022-04-08T22:00:00,1312A,120.2994,36.054,青岛市,市南区西部子站,,39,39,20,15,12,148,60,146,93,48,14,8,5,0.5,0.5
2022-04-08T22:00:00,1313A,120.4581,36.0858,青岛市,崂山区子站,颗粒物(PM10),56,61,28,27,20,146,77,141,100,29,14,7,6,0.5,0.4
2022-04-08T22:00:00,1314A,120.1983,35.9608,青岛市,黄岛区子站,,39,39,20,24,18,134,75,132,89,31,16,4,4,0.6,0.7
2022-04-08T22:00:00,1315A,120.3999,36.3083,青岛市,城阳区子站,颗粒物(PM10),75,100,92,44,37,161,118,148,144,34,27,6,6,0.7,0.8
2022-04-08T22:00:00,1316A,113.69031,34.76122,郑州市,烟厂,颗粒物(PM10),68,85,139,31,50,180,109,157,141,15,30,9,11,0.4,0.7
2022-04-08T22:00:00,1317A,113.65724,34.77134,郑州市,郑纺机,颗粒物(PM10),68,86,129,19,44,180,97,161,135,28,33,10,12,0.6,0.9
2022-04-08T22:00:00,1318A,113.67526,34.80246,郑州市,银行学校,颗粒物(PM10),72,93,121,25,52,187,108,166,147,21,27,6,8,0.3,0.6
2022-04-08T22:00:00,1319A,113.56746,34.81334,郑州市,供水公司,颗粒物(PM10),73,96,138,22,50,195,110,172,148,21,34,7,10,0.4,0.7
2022-04-08T22:00:00,1320A,113.7329,34.7178,郑州市,经开区管委,颗粒物(PM10),70,90,125,16,53,175,58,165,130,21,41,8,11,0.4,0.8
2022-04-08T22:00:00,1321A,113.73961,34.77172,郑州市,四十七中,颗粒物(PM10),75,100,128,35,49,179,111,160,144,17,26,8,10,0.5,0.8
2022-04-08T22:00:00,1322A,113.60532,34.74838,郑州市,市监测站,颗粒物(PM10),72,93,138,17,51,168,105,151,133,20,34,10,14,0.5,0.8
2022-04-08T22:00:00,1324A,113.51488,34.91089,郑州市,岗李水库(对照点),颗粒物(PM10),72,94,120,30,44,219,72,185,153,26,23,9,10,0.7,0.6
2022-04-08T22:00:00,1325A,114.3677,30.5584,武汉市,东湖梨园,颗粒物(PM10),59,67,71,39,44,152,70,143,123,60,53,8,9,0.7,0.8
2022-04-08T22:00:00,1326A,114.2529,30.558,武汉市,汉阳月湖,二氧化氮,65,76,75,25,31,154,8,136,92,130,73,7,9,0.9,0.9
2022-04-08T22:00:00,1327A,114.282,30.6189,武汉市,汉口花桥,颗粒物(PM10),60,70,73,39,36,148,6,136,94,112,65,10,11,0.8,0.7
2022-04-08T22:00:00,1328A,114.3025,30.5332,武汉市,武昌紫阳,颗粒物(PM10),72,94,80,26,34,148,65,132,98,67,65,11,13,1.1,1.2
2022-04-08T22:00:00,1329A,114.3646,30.6217,武汉市,青山钢花,颗粒物(PM10),84,118,106,48,45,155,56,144,110,83,68,12,16,0.8,1
2022-04-08T22:00:00,1330A,114.1566,30.4825,武汉市,沌口新区,颗粒物(PM10),97,144,97,38,40,151,25,139,97,117,74,13,13,0.9,0.9
2022-04-08T22:00:00,1331A,114.3014,30.5944,武汉市,汉口江滩,二氧化氮,66,71,81,31,39,154,8,130,88,132,86,8,11,0.8,0.9
2022-04-08T22:00:00,1333A,114.135,30.6319,武汉市,吴家山,颗粒物(PM10),82,113,101,56,41,158,8,144,104,128,72,11,13,1.3,1
2022-04-08T22:00:00,1334A,113.8454,30.2917,武汉市,沉湖七壕(对照点),颗粒物(PM10),58,66,61,20,22,163,42,150,129,59,42,5,6,0.6,0.6
2022-04-08T22:00:00,1335A,113.0833,28.2325,长沙市,经开区环保局,"颗粒物(PM10),细颗粒物(PM2.5)",55,60,68,39,39,182,89,166,147,50,39,7,10,0.5,0.6
2022-04-08T22:00:00,1336A,112.8872,28.2189,长沙市,高开区环保局,颗粒物(PM10),70,89,98,32,40,180,82,172,148,48,60,8,11,0.6,0.6
2022-04-08T22:00:00,1337A,113.0792,28.2053,长沙市,马坡岭,细颗粒物(PM2.5),90,105,87,67,38,184,6,168,124,106,40,10,11,0.6,0.4
2022-04-08T22:00:00,1338A,112.9394,28.19,长沙市,湖南师范大学,,50,50,60,30,41,174,97,160,139,14,26,3,4,0.2,0.4
2022-04-08T22:00:00,1339A,113.0178,28.1322,长沙市,雨花区环保局,颗粒物(PM10),63,75,74,28,32,176,108,166,150,35,33,8,9,0.4,0.3
2022-04-08T22:00:00,1340A,112.9792,28.2597,长沙市,伍家岭,颗粒物(PM10),83,116,97,36,42,174,6,160,116,107,51,6,7,1.4,0.8
2022-04-08T22:00:00,1341A,113.0014,28.1944,长沙市,火车新站,细颗粒物(PM2.5),78,85,97,57,40,164,35,151,123,89,59,7,9,1.0,0.5
2022-04-08T22:00:00,1342A,112.9844,28.1178,长沙市,天心区环保局,颗粒物(PM10),54,57,70,30,32,170,102,159,142,33,43,8,9,0.3,0.4
2022-04-08T22:00:00,1343A,112.8908,28.1308,长沙市,湖南中医药大学,细颗粒物(PM2.5),73,89,85,53,40,176,16,158,108,80,50,6,8,0.5,0.5
2022-04-08T22:00:00,1344A,112.9581,28.3611,长沙市,沙坪(对照点),颗粒物(PM10),61,72,76,15,33,170,85,150,127,24,22,6,8,0.5,0.6
2022-04-08T22:00:00,1345A,113.2347,23.1423,广州市,广雅中学,颗粒物(PM10),77,104,75,44,39,250,89,218,190,85,53,8,9,1.2,0.9
2022-04-08T22:00:00,1346A,113.2612,23.105,广州市,市五中,"颗粒物(PM10),细颗粒物(PM2.5)",68,85,62,49,35,273,96,232,208,68,39,7,6,0.9,0.7
2022-04-08T22:00:00,1348A,113.3478,23.0916,广州市,广东商学院,颗粒物(PM10),58,65,61,29,31,238,107,197,178,53,59,6,6,0.6,0.6
2022-04-08T22:00:00,1349A,113.4332,23.1047,广州市,市八十六中,颗粒物(PM10),57,64,74,22,29,234,114,192,169,52,64,8,9,0.6,0.7
2022-04-08T22:00:00,1350A,113.3505,22.9483,广州市,番禺中学,颗粒物(PM10),55,59,60,22,27,235,124,201,188,34,36,10,10,0.7,0.8
2022-04-08T22:00:00,1351A,113.2146,23.3916,广州市,花都师范,颗粒物(PM10),85,120,79,62,43,219,79,205,174,84,48,6,6,0.9,0.7
2022-04-08T22:00:00,1352A,113.2597,23.1331,广州市,市监测站,颗粒物(PM10),67,84,71,44,35,270,102,244,216,77,48,8,8,1.0,0.8
2022-04-08T22:00:00,1353A,113.5618,23.312,广州市,九龙镇镇龙,颗粒物(PM10),106,161,102,59,42,185,22,155,86,101,64,6,6,0.8,0.7
2022-04-08T22:00:00,1354A,113.2765,23.1544,广州市,麓湖,颗粒物(PM10),67,83,61,42,32,231,55,194,154,105,51,8,8,1.0,0.8
2022-04-08T22:00:00,1355A,113.443,23.3035,广州市,帽峰山森林公园(对照点),颗粒物(PM10),58,65,56,33,31,202,152,188,184,30,26,6,5,0.8,0.8
2022-04-08T22:00:00,1356A,114.1063,22.5545,深圳市,通心岭子站,,36,36,45,14,22,236,108,184,170,6,22,3,3,0.2,0.3
2022-04-08T22:00:00,1357A,114.117,22.5625,深圳市,洪湖,,42,42,55,9,30,243,116,194,177,16,49,6,6,0.7,0.8
2022-04-08T22:00:00,1358A,113.987,22.5417,深圳市,华侨城,,39,39,43,14,22,261,112,185,171,14,32,5,6,0.5,0.5
2022-04-08T22:00:00,1359A,113.9181,22.5171,深圳市,南海子站,,39,39,55,15,26,307,112,224,189,14,29,3,4,0.6,0.6
2022-04-08T22:00:00,1360A,114.2458,22.5689,深圳市,盐田,,35,35,36,17,18,168,86,159,141,31,24,4,4,0.5,0.6
2022-04-08T22:00:00,1361A,114.2283,22.7244,深圳市,龙岗,,44,44,59,16,29,198,107,178,152,22,41,2,3,0.4,0.5
2022-04-08T22:00:00,1363A,114.494,22.5422,深圳市,南澳,,32,32,34,12,17,176,98,150,137,8,13,5,5,0.4,0.4
2022-04-08T22:00:00,1364A,114.41,22.6342,深圳市,葵涌,,39,39,39,12,18,169,109,151,143,6,11,4,4,0.3,0.4
2022-04-08T22:00:00,1365A,114.297,22.5978,深圳市,梅沙,,39,39,41,14,17,178,93,167,147,15,17,5,5,0.5,0.5
2022-04-08T22:00:00,1366A,114.0678,22.738,深圳市,观澜,,49,49,76,20,35,184,59,146,122,41,42,16,14,0.7,0.5
2022-04-08T22:00:00,1367A,113.5814,22.2618,珠海市,吉大,,44,44,40,14,18,212,108,169,158,7,23,8,10,0.3,0.5
2022-04-08T22:00:00,1368A,113.4881,22.2335,珠海市,前山,,38,38,42,17,21,198,106,171,155,24,37,10,10,0.4,0.4
2022-04-08T22:00:00,1369A,113.628,22.4251,珠海市,唐家,,43,43,38,20,23,266,112,203,180,22,24,9,10,0.3,0.3
2022-04-08T22:00:00,1370A,113.299,22.2281,珠海市,斗门,,40,35,40,16,22,220,126,198,178,16,22,7,9,0.3,0.4
2022-04-08T22:00:00,1371A,113.1294,23.0067,佛山市,湾梁,颗粒物(PM10),73,95,72,33,28,266,132,238,228,47,31,13,12,0.7,0.6
2022-04-08T22:00:00,1372A,113.1083,23.0478,佛山市,华材职中,颗粒物(PM10),70,90,73,44,34,264,143,239,228,50,39,7,8,0.7,0.6
2022-04-08T22:00:00,1373A,113.144,23.0453,佛山市,南海气象局,颗粒物(PM10),66,81,65,41,34,256,128,233,221,55,41,7,6,0.7,0.6
2022-04-08T22:00:00,1374A,113.2881,22.8094,佛山市,顺德苏岗,颗粒物(PM10),69,87,51,36,28,238,121,212,195,35,33,5,4,0.8,0.8
2022-04-08T22:00:00,1376A,112.8383,22.8678,佛山市,高明孔堂,臭氧1小时,58,51,51,21,28,200,166,177,171,23,19,7,8,0.7,0.7
2022-04-08T22:00:00,1377A,112.8836,23.1588,佛山市,三水监测站,颗粒物(PM10),73,95,80,40,42,200,62,165,129,112,69,12,8,0.7,0.7
2022-04-08T22:00:00,1378A,112.867,23.185,佛山市,三水云东海,,,74,72,,32,222,76,178,145,63,43,6,9,0.8,0.7
2022-04-08T22:00:00,1379A,113.3769,22.5211,中山市,华柏园,,42,42,46,23,24,252,134,203,194,24,28,5,5,0.5,0.6
2022-04-08T22:00:00,1380A,113.3881,22.5497,中山市,张溪,,42,38,60,20,27,232,134,199,191,20,27,4,4,0.4,0.4
2022-04-08T22:00:00,1381A,113.4075,22.5111,中山市,紫马岭,颗粒物(PM10),52,54,51,25,23,252,127,204,192,24,27,5,6,0.3,0.3
2022-04-08T22:00:00,1382A,113.4411,22.4853,中山市,长江旅游区(对照点),,40,29,37,16,21,260,127,200,190,17,20,3,4,0.4,0.4
2022-04-08T22:00:00,1383A,113.1064,22.6058,江门市,北街,,43,43,51,13,19,288,122,250,227,30,29,8,10,0.5,0.5
2022-04-08T22:00:00,1384A,113.0731,22.5835,江门市,西区,颗粒物(PM10),63,75,61,23,27,272,136,236,215,26,33,9,10,0.4,0.5
2022-04-08T22:00:00,1385A,113.0219,22.5311,江门市,圭峰西,颗粒物(PM10),52,54,53,22,26,276,143,232,217,25,24,9,9,0.3,0.4
2022-04-08T22:00:00,1386A,113.0828,22.5947,江门市,东湖,颗粒物(PM10),51,52,57,18,23,277,146,241,222,20,26,7,8,0.4,0.5
2022-04-08T22:00:00,1389A,113.7547,23.0494,东莞市,莞城梨川,颗粒物(PM10),62,73,54,34,27,187,119,180,166,50,31,11,11,0.7,0.3
2022-04-08T22:00:00,1390A,113.7944,23.0128,东莞市,东城石井,颗粒物(PM10),58,65,46,28,23,203,120,186,166,51,30,8,8,0.6,0.5
2022-04-08T22:00:00,1391A,113.7383,22.9658,东莞市,南城西平,颗粒物(PM10),60,69,61,33,31,217,114,196,175,48,46,10,9,0.6,0.6
2022-04-08T22:00:00,1392A,114.4183,23.0528,惠州市,河南岸金山湖子站,,41,41,55,17,21,160,99,150,138,19,27,4,5,0.4,0.5
2022-04-08T22:00:00,1393A,114.4053,23.0822,惠州市,下埔横江三路子站,,46,46,54,14,22,160,102,152,139,21,29,4,6,0.3,0.4
2022-04-08T22:00:00,1394A,114.4103,23.1142,惠州市,江北云山西路子站,,31,18,56,19,28,179,99,161,140,20,27,6,8,0.4,0.4
2022-04-08T22:00:00,1395A,114.4645,22.7833,惠州市,惠阳区承修路船湖子站,,42,42,58,18,23,173,105,157,142,11,24,5,5,0.5,0.6
2022-04-08T22:00:00,1396A,114.5317,22.7422,惠州市,大亚湾管委会子站,颗粒物(PM10),53,56,58,23,23,176,90,159,131,22,34,4,5,0.6,0.6
2022-04-08T22:00:00,1397A,112.4267,23.0706,肇庆市,睦岗子站,颗粒物(PM10),67,83,67,39,38,198,84,182,151,67,35,20,15,0.8,0.8
2022-04-08T22:00:00,1398A,112.4645,23.0475,肇庆市,城中子站,"二氧化氮,颗粒物(PM10)",52,54,60,27,35,198,63,190,158,103,45,12,19,0.6,0.7
2022-04-08T22:00:00,1399A,112.5544,23.1522,肇庆市,坑口子站,,47,45,45,27,29,193,148,184,170,13,18,8,10,0.4,0.5
2022-04-08T22:00:00,1400A,112.4753,23.1,肇庆市,七星岩子站(对照点),,49,48,53,32,32,201,155,189,184,21,21,15,16,0.7,0.7
2022-04-08T22:00:00,1401A,108.3103,22.7881,南宁市,二十一中,细颗粒物(PM2.5),64,76,104,46,59,205,143,175,166,20,52,13,15,0.9,0.9
2022-04-08T22:00:00,1402A,108.3141,22.8528,南宁市,北湖,颗粒物(PM10),70,90,99,47,53,204,122,183,165,27,41,15,15,0.9,0.8
2022-04-08T22:00:00,1403A,108.3206,22.8225,南宁市,市监测站,"颗粒物(PM10),细颗粒物(PM2.5)",60,70,93,43,52,208,134,179,166,33,58,16,17,0.9,0.8
2022-04-08T22:00:00,1404A,108.3829,22.8037,南宁市,大自然花园,细颗粒物(PM2.5),64,70,72,46,48,186,129,168,156,31,35,11,11,0.9,0.8
2022-04-08T22:00:00,1405A,108.4394,22.7904,南宁市,仙葫(对照点),细颗粒物(PM2.5),88,114,94,65,53,185,127,167,156,32,45,10,12,0.7,0.8
2022-04-08T22:00:00,1406A,108.2397,22.8467,南宁市,区农职院,颗粒物(PM10),71,91,73,50,45,233,106,190,168,45,35,12,16,1.0,0.8
2022-04-08T22:00:00,1407A,108.3275,22.735,南宁市,英华嘉园,"颗粒物(PM10),细颗粒物(PM2.5)",69,88,123,50,67,169,119,136,126,41,72,14,12,1.1,1.1
2022-04-08T22:00:00,1408A,108.2257,22.7757,南宁市,沙井镇街道办,颗粒物(PM10),78,105,133,52,66,194,117,164,147,44,57,16,50,1.0,0.9
2022-04-08T22:00:00,1409A,110.576,19.9507,海口市,东寨港(对照点),,35,22,31,13,16,116,112,113,113,4,5,14,5,0.4,0.4
2022-04-08T22:00:00,1410A,110.3232,20.0574,海口市,海南大学,,34,34,33,16,17,105,104,96,94,4,5,4,5,0.4,0.4
2022-04-08T22:00:00,1411A,110.283,20.0053,海口市,秀英海南医院,,30,27,36,16,12,113,94,110,106,8,10,4,4,0.3,0.3
2022-04-08T22:00:00,1412A,110.338,19.9969,海口市,海南师范大学,,37,37,35,16,17,107,97,99,99,10,6,2,4,0.4,0.4
2022-04-08T22:00:00,1413A,110.33,20.0356,海口市,龙华路环保局宿舍,,36,31,33,17,18,124,115,115,115,5,6,5,5,0.4,0.4
2022-04-08T22:00:00,1414A,106.3787,29.8279,重庆市,缙云山(对照点),臭氧1小时,80,45,34,25,19,198,184,178,178,15,16,20,12,0.8,0.8
2022-04-08T22:00:00,1416A,106.4213,29.8253,重庆市,天生,颗粒物(PM10),70,89,57,38,26,143,64,127,121,54,39,14,8,0.8,0.7
2022-04-08T22:00:00,1417A,106.6263,29.7228,重庆市,两路,颗粒物(PM10),51,51,45,22,24,157,84,137,123,51,35,12,13,0.7,0.7
2022-04-08T22:00:00,1418A,106.2953,29.5983,重庆市,虎溪,颗粒物(PM10),61,72,50,37,27,162,58,122,114,87,55,7,4,1.4,1.1
2022-04-08T22:00:00,1419A,106.5777,29.5102,重庆市,南坪,颗粒物(PM10),53,55,56,27,28,176,99,152,148,39,29,11,11,0.7,0.7
2022-04-08T22:00:00,1420A,106.6556,29.6277,重庆市,唐家沱,颗粒物(PM10),64,78,64,37,30,182,56,154,136,79,56,8,7,0.8,0.8
2022-04-08T22:00:00,1421A,106.6349,29.4906,重庆市,茶园,颗粒物(PM10),73,96,80,35,35,190,25,143,118,120,72,12,12,1.5,1.3
2022-04-08T22:00:00,1422A,106.3754,29.4572,重庆市,白市驿,颗粒物(PM10),64,78,57,34,28,170,116,154,152,46,38,11,12,0.9,0.9
2022-04-08T22:00:00,1425A,106.6205,29.7166,重庆市,空港,颗粒物(PM10),59,67,53,31,26,176,97,152,137,38,26,10,10,0.6,0.6
2022-04-08T22:00:00,1426A,106.4782,29.4875,重庆市,新山村,二氧化氮,82,78,67,41,34,169,6,125,91,163,97,11,11,1.7,1.1
2022-04-08T22:00:00,1427A,106.5616,29.6453,重庆市,礼嘉,颗粒物(PM10),63,75,64,27,26,180,69,149,137,68,58,10,11,0.6,0.5
2022-04-08T22:00:00,1428A,106.4522,29.7091,重庆市,蔡家,颗粒物(PM10),73,95,64,46,31,164,24,130,110,96,52,5,5,0.8,0.7
2022-04-08T22:00:00,1429A,106.5093,29.3917,重庆市,鱼新街,颗粒物(PM10),83,115,70,49,33,172,7,137,93,118,74,14,9,2.4,1.4
2022-04-08T22:00:00,1431A,103.9728,30.7236,成都市,金泉两河,"颗粒物(PM10),细颗粒物(PM2.5)",58,66,83,41,58,195,121,163,158,18,36,5,5,0.6,0.7
2022-04-08T22:00:00,1432A,104.1419,30.6764,成都市,十里店,颗粒物(PM10),76,101,120,43,54,171,94,146,138,27,48,8,8,0.6,0.7
2022-04-08T22:00:00,1433A,104.0594,30.5767,成都市,三瓦窑,细颗粒物(PM2.5),68,76,91,49,56,186,104,155,150,23,56,5,5,0.5,0.7
2022-04-08T22:00:00,1434A,104.1122,30.6306,成都市,沙河铺,细颗粒物(PM2.5),85,92,109,63,81,181,97,158,148,28,42,4,3,0.5,0.6
2022-04-08T22:00:00,1437A,104.0431,30.6556,成都市,君平街,细颗粒物(PM2.5),75,87,113,55,81,196,110,170,163,26,44,7,8,0.5,0.6
2022-04-08T22:00:00,1438A,103.6202,31.0201,成都市,灵岩寺(对照点),细颗粒物(PM2.5),83,58,62,61,50,167,151,159,159,7,10,4,13,0.4,0.4
2022-04-08T22:00:00,1439A,106.6899,26.5998,贵阳市,马鞍山,细颗粒物(PM2.5),52,51,51,36,26,117,32,103,85,22,26,5,6,0.7,0.7
2022-04-08T22:00:00,1440A,106.6971,26.5694,贵阳市,市环保站,颗粒物(PM10),62,73,91,36,42,108,25,96,77,77,51,1,8,0.6,0.8
2022-04-08T22:00:00,1441A,106.6243,26.6266,贵阳市,鉴湖路,颗粒物(PM10),58,66,64,31,30,131,43,108,74,19,32,4,5,0.3,0.3
2022-04-08T22:00:00,1442A,106.7487,26.6343,贵阳市,燕子冲,颗粒物(PM10),54,58,54,34,31,135,78,124,113,15,19,8,8,0.5,0.6
2022-04-08T22:00:00,1443A,106.6555,26.4365,贵阳市,碧云窝,颗粒物(PM10),68,85,76,41,37,128,57,124,111,49,25,6,6,0.6,0.5
2022-04-08T22:00:00,1444A,106.694,26.5161,贵阳市,中院村,颗粒物(PM10),58,66,77,39,42,118,57,108,92,49,44,15,12,0.6,0.7
2022-04-08T22:00:00,1445A,106.7109,26.6027,贵阳市,红边门,颗粒物(PM10),57,63,74,34,34,127,35,114,95,82,53,7,10,0.5,0.5
2022-04-08T22:00:00,1446A,106.7164,26.5699,贵阳市,新华路,颗粒物(PM10),54,58,77,31,31,125,49,116,102,57,40,9,10,0.4,0.4
2022-04-08T22:00:00,1447A,106.674,26.5424,贵阳市,太慈桥,颗粒物(PM10),103,156,84,34,32,113,47,109,98,56,35,3,4,0.4,0.5
2022-04-08T22:00:00,1450A,102.8204,24.8886,昆明市,呈贡新区,细颗粒物(PM2.5),79,94,67,58,39,143,10,116,80,77,50,8,9,0.9,0.6
2022-04-08T22:00:00,1451A,102.6251,24.9608,昆明市,西山森林公园(对照点),,45,45,36,30,26,144,102,136,112,13,10,10,11,0.5,0.5
2022-04-08T22:00:00,1452A,102.7252,25.0902,昆明市,龙泉镇,颗粒物(PM10),67,84,60,45,35,137,3,110,64,67,51,9,11,1.1,0.7
2022-04-08T22:00:00,1453A,102.7266,25.0375,昆明市,东风东路,细颗粒物(PM2.5),70,82,63,51,35,142,19,115,77,71,50,8,8,1.1,0.7
2022-04-08T22:00:00,1454A,102.6742,25.0669,昆明市,金鼎山,细颗粒物(PM2.5),72,80,74,52,40,141,18,111,77,68,47,7,14,0.9,0.7
2022-04-08T22:00:00,1455A,102.6644,25.0401,昆明市,碧鸡广场,细颗粒物(PM2.5),74,83,76,54,38,137,7,107,69,81,57,12,13,1.0,0.7
2022-04-08T22:00:00,1456A,91.1319,29.6514,拉萨市,八廓街,,46,46,32,20,8,102,61,95,89,22,8,6,5,0.6,0.3
2022-04-08T22:00:00,1457A,91.1221,29.6747,拉萨市,市环保局,,45,45,32,17,9,108,48,102,92,35,9,5,4,0.5,0.2
2022-04-08T22:00:00,1458A,91.0874,29.6475,拉萨市,区监测站,,34,34,29,10,9,106,64,94,87,28,11,6,6,0.4,0.3
2022-04-08T22:00:00,1459A,91.1774,29.6541,拉萨市,西藏大学,,28,28,30,12,9,96,65,93,86,25,10,5,11,0.4,0.6
2022-04-08T22:00:00,1460A,90.9798,29.6588,拉萨市,区辐射站,,43,43,30,15,15,105,49,97,89,48,15,7,6,0.6,0.5
2022-04-08T22:00:00,1461A,91.0834,29.6292,拉萨市,拉萨火车站,,34,34,33,7,5,100,56,97,91,36,8,5,5,0.4,0.3
2022-04-08T22:00:00,1462A,108.882,34.2749,西安市,高压开关厂,颗粒物(PM10),99,148,152,59,55,174,22,141,117,127,83,10,12,1.2,0.7
2022-04-08T22:00:00,1463A,108.993,34.2629,西安市,兴庆小区,颗粒物(PM10),96,142,130,43,52,153,69,127,112,69,79,11,13,0.6,1
2022-04-08T22:00:00,1464A,109.06,34.2572,西安市,纺织城,颗粒物(PM10),109,167,137,55,51,154,17,124,99,109,71,11,11,0.8,0.6
2022-04-08T22:00:00,1465A,108.9356,34.2173,西安市,小寨,颗粒物(PM10),99,148,155,48,61,162,5,122,101,141,90,6,9,1.0,0.8
2022-04-08T22:00:00,1466A,108.954,34.2713,西安市,市人民体育场,颗粒物(PM10),93,136,128,62,55,156,15,133,109,131,74,8,12,1.2,0.9
2022-04-08T22:00:00,1467A,108.8922,34.2322,西安市,高新西区,颗粒物(PM10),96,142,147,50,56,174,35,133,121,123,85,10,14,1.0,0.7
2022-04-08T22:00:00,1468A,108.935,34.3474,西安市,经开区,颗粒物(PM10),104,157,123,64,55,154,10,128,106,123,64,4,10,1.4,0.6
2022-04-08T22:00:00,1469A,108.906,34.1546,西安市,长安区,颗粒物(PM10),97,144,159,46,61,158,56,127,121,60,64,7,8,0.7,0.7
2022-04-08T22:00:00,1471A,109.2186,34.3731,西安市,临潼区,颗粒物(PM10),81,112,123,50,54,180,14,149,112,89,45,5,11,1.1,0.7
2022-04-08T22:00:00,1472A,108.869,34.378,西安市,草滩(对照点),细颗粒物(PM2.5),55,52,125,39,49,100,7,69,20,94,62,4,8,0.8,0.8
2022-04-08T22:00:00,1473A,108.985,34.1978,西安市,曲江文化产业集团,颗粒物(PM10),113,176,162,50,54,150,2,117,96,137,86,5,8,1.1,0.8
2022-04-08T22:00:00,1474A,109.051,34.3213,西安市,广运潭,颗粒物(PM10),100,150,144,49,53,150,45,128,112,75,58,11,10,0.7,0.7
2022-04-08T22:00:00,1476A,103.631,36.1031,兰州市,兰炼宾馆,颗粒物(PM10),79,108,88,46,33,133,48,122,110,57,33,6,21,0.4,0.5
2022-04-08T22:00:00,1477A,104.1373,35.9454,兰州市,榆中兰大校区(对照点),颗粒物(PM10),70,90,70,25,20,134,127,128,128,10,14,4,13,0.5,0.6
2022-04-08T22:00:00,1478A,103.8412,36.0726,兰州市,生物制品所,颗粒物(PM10),87,124,96,30,25,131,32,120,107,67,51,6,11,0.8,0.7
2022-04-08T22:00:00,1479A,103.831,36.0464,兰州市,铁路设计院,颗粒物(PM10),81,112,105,43,31,121,10,109,93,122,62,10,14,1.1,0.9
2022-04-08T22:00:00,1483A,101.524,36.6867,西宁市,第五水厂(对照点),颗粒物(PM10),75,99,60,18,16,115,59,108,97,19,13,9,11,0.6,0.7
2022-04-08T22:00:00,1484A,105.9512,38.6016,银川市,贺兰山马莲口(对照点),颗粒物(PM10),114,178,78,35,17,106,94,103,101,2,4,7,8,0.3,0.3
2022-04-08T22:00:00,1488A,106.2328,38.4975,银川市,贺兰山东路,颗粒物(PM10),112,174,95,47,30,107,67,99,92,39,37,4,12,0.5,0.5
2022-04-08T22:00:00,1489A,106.1358,38.5036,银川市,学院路,颗粒物(PM10),118,185,107,41,28,110,74,104,97,29,36,6,12,0.5,0.5
2022-04-08T22:00:00,1490A,87.5801,43.8303,乌鲁木齐市,监测站,颗粒物(PM10),67,84,119,24,25,140,88,128,122,42,29,6,6,0.6,0.6
2022-04-08T22:00:00,1491A,87.6046,43.768,乌鲁木齐市,收费所,,,,103,,29,127,75,116,108,42,34,7,6,0.4,0.3
2022-04-08T22:00:00,1492A,87.4754,43.9469,乌鲁木齐市,新疆农科院农场(对照点),细颗粒物(PM2.5),59,64,93,42,31,115,74,108,105,25,27,10,9,0.4,0.4
2022-04-08T22:00:00,1493A,87.5525,43.8711,乌鲁木齐市,铁路局,颗粒物(PM10),70,89,119,31,31,130,85,119,115,39,25,6,5,0.7,0.6
2022-04-08T22:00:00,1494A,87.6432,43.831,乌鲁木齐市,三十一中学,颗粒物(PM10),62,74,103,27,22,130,96,119,117,25,24,8,7,0.3,0.3
2022-04-08T22:00:00,1496A,87.7216,44.1747,乌鲁木齐市,米东区环保局,颗粒物(PM10),90,129,200,28,32,126,99,117,117,5,25,9,9,0.3,0.3
2022-04-08T22:00:00,1508A,112.9433,27.8614,湘潭市,板塘,颗粒物(PM10),65,79,88,39,41,156,70,151,120,50,42,10,18,0.4,0.7
2022-04-08T22:00:00,1511A,112.9118,27.8403,湘潭市,市监测站,颗粒物(PM10),68,85,82,47,46,144,30,134,94,87,45,18,13,1.4,1
2022-04-08T22:00:00,1512A,112.8937,27.8728,湘潭市,江麓,颗粒物(PM10),68,86,97,36,41,139,90,131,124,34,42,16,17,0.7,0.8
2022-04-08T22:00:00,1513A,112.9227,27.8159,湘潭市,岳塘,颗粒物(PM10),81,111,87,57,39,161,24,154,125,71,35,12,14,0.8,0.7
2022-04-08T22:00:00,1514A,112.9074,27.9119,湘潭市,科大,颗粒物(PM10),67,83,100,33,46,158,97,151,137,35,48,10,11,0.7,0.8
2022-04-08T22:00:00,1515A,113.135,27.8244,株洲市,天台山庄,,,91,70,79,38,166,6,153,101,97,48,10,11,3.4,0.8
2022-04-08T22:00:00,1518A,113.095,27.8867,株洲市,株冶医院,细颗粒物(PM2.5),139,185,82,106,42,186,22,173,116,79,54,11,13,0.9,0.5
2022-04-08T22:00:00,1519A,113.167,27.8667,株洲市,市四中,颗粒物(PM10),125,200,83,83,44,157,11,149,99,96,45,13,10,1.2,0.8
2022-04-08T22:00:00,1520A,113.143,27.8381,株洲市,火车站,细颗粒物(PM2.5),123,136,88,93,41,179,7,167,115,91,39,14,12,2.0,0.8
2022-04-08T22:00:00,1524A,113.13,27.8528,株洲市,市监测站,细颗粒物(PM2.5),98,119,89,73,47,162,7,154,110,104,49,4,9,1.6,1
2022-04-08T22:00:00,1552A,106.805,26.3003,贵阳市,桐木岭(对照点),颗粒物(PM10),52,53,52,24,25,138,121,132,128,4,5,7,10,0.3,0.3
2022-04-08T22:00:00,1559A,113.251,27.8336,株洲市,大京风景区(对照点),,,34,34,28,26,174,93,163,138,,7,6,7,0.6,0.4
2022-04-08T22:00:00,1562A,113.0048,27.9153,湘潭市,昭山,细颗粒物(PM2.5),63,70,71,45,35,147,23,139,105,84,47,10,11,0.5,0.6
2022-04-08T22:00:00,1564A,112.4876,27.9164,湘潭市,韶山(对照点),细颗粒物(PM2.5),89,86,66,66,27,159,70,147,120,8,8,5,7,0.4,0.3
2022-04-08T22:00:00,1585A,109.8756,40.6532,包头市,市环境监测站,颗粒物(PM10),73,96,89,27,30,127,30,112,94,71,40,7,16,0.7,0.8
2022-04-08T22:00:00,1587A,109.9991,40.5842,包头市,包头八中,颗粒物(PM10),92,134,110,42,36,134,5,120,88,91,44,16,24,1.3,1.1
2022-04-08T22:00:00,1588A,109.8538,40.6821,包头市,青山宾馆,颗粒物(PM10),85,120,116,42,52,119,29,110,90,69,48,10,18,0.8,1
2022-04-08T22:00:00,1589A,109.8642,40.6288,包头市,惠龙物流,颗粒物(PM10),81,112,89,32,28,133,48,115,95,53,39,35,19,1.8,1
2022-04-08T22:00:00,1590A,110.0377,40.5546,包头市,东河鸿龙湾,颗粒物(PM10),88,125,130,31,38,135,34,122,100,60,37,21,20,0.7,0.8
2022-04-08T22:00:00,1591A,110.0023,39.8129,鄂尔多斯市,综合楼,颗粒物(PM10),91,132,88,48,33,115,91,113,105,29,30,5,9,0.4,0.5
2022-04-08T22:00:00,1592A,109.9486,39.8261,鄂尔多斯市,巴音孟克林场办事处,颗粒物(PM10),94,138,78,52,22,117,85,115,106,28,19,12,12,0.6,0.5
2022-04-08T22:00:00,1593A,109.7736,39.5986,鄂尔多斯市,康泽苑,颗粒物(PM10),76,102,73,29,15,127,91,121,116,10,20,4,5,0.4,0.5
2022-04-08T22:00:00,1594A,109.8119,39.5989,鄂尔多斯市,华泰汽车城,颗粒物(PM10),76,102,74,34,21,127,85,122,115,20,31,6,7,0.4,0.5
2022-04-08T22:00:00,1595A,109.9734,39.7884,鄂尔多斯市,奥林花园,颗粒物(PM10),87,124,95,34,26,116,76,110,98,36,42,6,9,0.4,0.3
2022-04-08T22:00:00,1597A,122.2703,40.7094,营口市,大庆路,细颗粒物(PM2.5),65,71,112,47,67,174,135,158,148,15,24,9,13,0.8,1.1
2022-04-08T22:00:00,1598A,122.215,40.6511,营口市,镜湖西路,颗粒物(PM10),67,83,99,24,46,177,160,164,162,15,24,6,9,0.7,0.9
2022-04-08T22:00:00,1599A,122.167,40.6655,营口市,西炮台,细颗粒物(PM2.5),58,62,92,41,58,172,165,162,159,17,23,8,9,0.7,0.8
2022-04-08T22:00:00,1600A,124.3303,40.0625,丹东市,江湾东路,,40,37,80,21,48,127,127,109,100,7,22,9,11,0.5,0.9
2022-04-08T22:00:00,1601A,124.4256,40.1503,丹东市,临江后街,,46,46,67,21,35,129,108,115,106,8,14,12,9,1.0,0.8
2022-04-08T22:00:00,1602A,124.3933,40.1461,丹东市,元宝山,,40,40,70,19,37,122,121,110,103,9,18,9,11,0.6,0.9
2022-04-08T22:00:00,1603A,124.3633,40.1092,丹东市,民主桥,,39,36,68,16,36,123,123,109,102,5,23,9,10,0.4,0.7
2022-04-08T22:00:00,1604A,122.0303,41.1489,盘锦市,开发区,细颗粒物(PM2.5),89,81,117,66,83,159,132,150,145,19,29,6,37,0.9,1
2022-04-08T22:00:00,1605A,122.0485,41.0883,盘锦市,兴隆台,细颗粒物(PM2.5),80,84,119,59,78,158,136,148,144,18,30,8,19,0.9,1.1
2022-04-08T22:00:00,1606A,121.8297,41.1028,盘锦市,新生街道,细颗粒物(PM2.5),85,67,90,63,65,170,130,160,154,19,26,7,18,0.8,1
2022-04-08T22:00:00,1607A,120.9092,40.7136,葫芦岛市,龙港区,细颗粒物(PM2.5),142,117,104,108,70,162,156,153,153,15,19,12,13,0.9,1
2022-04-08T22:00:00,1608A,120.8392,40.7514,葫芦岛市,化工街,细颗粒物(PM2.5),100,122,122,75,51,185,156,164,164,17,32,14,12,1.0,1.1
2022-04-08T22:00:00,1609A,120.8341,40.7073,葫芦岛市,新区,细颗粒物(PM2.5),135,126,105,103,76,185,162,164,164,16,23,10,12,0.9,1
2022-04-08T22:00:00,1610A,120.8695,40.7677,葫芦岛市,东城区,细颗粒物(PM2.5),148,131,111,113,78,165,146,155,155,17,33,8,11,1.1,1.1
2022-04-08T22:00:00,1611A,118.5819,24.9117,泉州市,涂山街,,36,36,39,10,14,144,97,129,114,8,11,7,8,0.4,0.4
2022-04-08T22:00:00,1612A,118.5972,24.8978,泉州市,津头埔,,33,33,38,12,15,139,87,127,109,14,13,8,9,0.5,0.5
2022-04-08T22:00:00,1613A,118.6663,24.9424,泉州市,万安,,31,31,42,15,15,135,83,133,105,8,7,8,9,0.6,0.6
2022-04-08T22:00:00,1614A,118.6117,24.9604,泉州市,清源山(对照点),,39,39,40,10,12,147,102,147,116,6,7,9,8,0.5,0.5
2022-04-08T22:00:00,1616A,117.6795,36.229,济南市,技术学院,颗粒物(PM10),70,90,147,35,82,178,143,171,167,17,29,11,13,0.7,0.9
2022-04-08T22:00:00,1618A,118.3429,35.0532,临沂市,沂河小区,颗粒物(PM10),69,88,112,28,61,182,106,154,138,26,23,14,11,0.4,0.5
2022-04-08T22:00:00,1619A,118.295,35.0583,临沂市,鲁南制药厂,颗粒物(PM10),71,92,102,19,45,192,104,164,152,43,27,18,9,0.7,0.8
2022-04-08T22:00:00,1620A,118.2794,34.9976,临沂市,新光毛纺厂,颗粒物(PM10),78,105,108,22,50,176,92,149,135,38,22,17,8,0.6,0.7
2022-04-08T22:00:00,1621A,118.3956,35.0888,临沂市,河东保险公司,颗粒物(PM10),76,102,106,24,57,186,82,155,143,47,25,8,6,0.7,0.8
2022-04-08T22:00:00,1622A,116.3032,37.4674,德州市,儿童乐园,颗粒物(PM10),75,99,137,48,98,167,126,154,150,18,15,14,13,1.0,1.1
2022-04-08T22:00:00,1624A,116.2991,37.4451,德州市,监理站,颗粒物(PM10),76,102,156,39,68,162,124,149,146,16,12,19,16,0.5,0.6
2022-04-08T22:00:00,1625A,115.9848,36.4372,聊城市,区政府,颗粒物(PM10),75,99,151,39,79,157,115,141,137,19,16,35,13,0.8,0.9
2022-04-08T22:00:00,1628A,118.0062,37.3803,滨州市,市环保局,颗粒物(PM10),76,102,170,50,89,224,106,206,175,36,34,16,18,2.7,3
2022-04-08T22:00:00,1629A,118.0018,37.3617,滨州市,第二水厂,颗粒物(PM10),74,98,161,46,89,187,72,172,140,42,34,15,17,0.7,1.1
2022-04-08T22:00:00,1630A,117.9776,37.393,滨州市,北中新校,颗粒物(PM10),61,71,129,38,83,189,127,176,158,22,39,10,12,0.5,0.9
2022-04-08T22:00:00,1631A,118.0414,36.8103,淄博市,人民公园,颗粒物(PM10),69,88,141,32,68,178,150,165,159,13,24,9,10,0.5,0.7
2022-04-08T22:00:00,1633A,117.8525,36.4847,淄博市,双山,细颗粒物(PM2.5),73,94,133,53,91,167,146,162,158,10,13,10,9,0.9,1.1
2022-04-08T22:00:00,1634A,117.9592,36.6331,淄博市,气象站,颗粒物(PM10),76,101,136,41,69,175,115,168,159,17,20,14,15,1.0,1.1
2022-04-08T22:00:00,1635A,118.3092,36.8194,淄博市,莆田园,颗粒物(PM10),86,122,140,41,68,176,149,168,158,15,17,11,12,1.5,1.2
2022-04-08T22:00:00,1637A,117.558,34.8438,枣庄市,市中区政府,颗粒物(PM10),63,75,116,24,56,182,131,162,156,17,18,6,7,0.7,0.9
2022-04-08T22:00:00,1638A,117.2852,34.7837,枣庄市,薛城环保局,颗粒物(PM10),68,85,110,36,74,192,115,158,148,21,15,11,9,0.7,0.3
2022-04-08T22:00:00,1639A,117.5852,34.7745,枣庄市,峄城区政府,颗粒物(PM10),68,85,125,36,68,170,108,149,141,25,19,36,12,0.4,0.6
2022-04-08T22:00:00,1640A,117.7276,34.5578,枣庄市,台儿庄区环保局,颗粒物(PM10),59,68,83,22,49,157,90,141,128,30,27,8,9,0.8,1
2022-04-08T22:00:00,1641A,117.4518,35.0992,枣庄市,山亭区环保局,颗粒物(PM10),58,66,98,27,61,199,143,182,168,32,31,15,14,1.2,1.2
2022-04-08T22:00:00,1642A,121.2514,37.5639,烟台市,开发区,颗粒物(PM10),73,95,95,51,40,181,145,160,158,10,21,4,5,0.7,0.6
2022-04-08T22:00:00,1643A,121.3719,37.5433,烟台市,轴承厂,细颗粒物(PM2.5),70,83,76,51,45,203,159,177,167,12,13,8,7,0.8,0.7
2022-04-08T22:00:00,1644A,121.3181,37.5436,烟台市,西郊化工站,细颗粒物(PM2.5),79,88,83,58,42,198,164,176,169,13,20,8,8,0.6,0.4
2022-04-08T22:00:00,1645A,121.4478,37.4822,烟台市,莱山环保局,细颗粒物(PM2.5),67,70,75,48,38,189,123,159,139,15,15,6,6,0.7,0.6
2022-04-08T22:00:00,1646A,121.2611,37.4967,烟台市,福山环保局,细颗粒物(PM2.5),83,110,93,61,44,191,122,171,160,23,25,8,7,0.9,0.9
2022-04-08T22:00:00,1650A,119.1437,36.7023,潍坊市,环保局,颗粒物(PM10),84,117,124,57,71,188,125,174,168,22,18,9,6,1.2,1.1
2022-04-08T22:00:00,1653A,116.6251,35.4302,济宁市,火炬城,颗粒物(PM10),67,84,102,31,74,178,123,162,159,10,6,10,10,0.9,1
2022-04-08T22:00:00,1655A,116.5491,35.4042,济宁市,电化厂,颗粒物(PM10),68,85,119,27,70,173,132,152,149,12,14,8,8,0.7,1
2022-04-08T22:00:00,1656A,117.1437,36.1937,泰安市,监测站,颗粒物(PM10),70,90,124,26,59,190,145,177,172,15,9,15,12,0.4,0.4
2022-04-08T22:00:00,1657A,117.0885,36.2017,泰安市,人口学校,颗粒物(PM10),67,83,123,23,59,168,147,157,156,8,10,5,5,0.6,0.7
2022-04-08T22:00:00,1658A,117.1089,36.1758,泰安市,电力学校,颗粒物(PM10),67,83,119,31,70,177,139,162,160,17,15,14,10,0.7,0.7
2022-04-08T22:00:00,1659A,119.471,35.4209,日照市,监测站,细颗粒物(PM2.5),117,139,90,88,56,114,29,93,78,65,44,5,5,1.0,0.8
2022-04-08T22:00:00,1660A,119.523,35.4216,日照市,市政府广场,颗粒物(PM10),68,85,62,48,37,129,42,115,78,61,30,5,5,0.7,0.7
2022-04-08T22:00:00,1661A,119.5587,35.4044,日照市,港务局,颗粒物(PM10),52,53,36,31,23,140,88,135,107,15,13,4,3,0.7,0.7
2022-04-08T22:00:00,1662A,122.1214,37.4236,威海市,华夏技校,,46,46,57,31,38,196,116,177,142,16,15,4,5,0.4,0.4
2022-04-08T22:00:00,1663A,122.0508,37.5236,威海市,山大分校,,,66,57,,,185,163,180,174,13,13,7,6,0.5,0.4
2022-04-08T22:00:00,1664A,122.1067,37.5072,威海市,市监测站,臭氧1小时,112,83,63,50,31,223,223,190,190,13,14,10,7,0.7,0.5
2022-04-08T22:00:00,1666A,118.6614,37.4309,东营市,市环保局,颗粒物(PM10),70,90,118,36,67,220,119,190,170,25,24,23,17,0.6,0.9
2022-04-08T22:00:00,1669A,113.5824,24.7733,韶关市,市八中,颗粒物(PM10),59,68,55,34,28,174,68,156,130,48,29,16,18,0.7,0.5
2022-04-08T22:00:00,1671A,113.5917,24.7972,韶关市,园林处,颗粒物(PM10),76,101,69,40,33,160,29,147,112,57,29,13,22,0.9,0.7
2022-04-08T22:00:00,1672A,113.6735,24.7791,韶关市,韶关学院,细颗粒物(PM2.5),84,70,47,62,32,166,58,149,127,17,17,12,20,0.7,0.5
2022-04-08T22:00:00,1673A,113.5971,24.6863,韶关市,曲江监测站,颗粒物(PM10),61,71,57,43,29,172,67,147,126,40,31,11,17,0.7,0.7
2022-04-08T22:00:00,1674A,116.6794,23.3667,汕头市,金平子站,,48,48,73,13,23,163,93,147,114,15,26,8,18,0.4,0.6
2022-04-08T22:00:00,1675A,116.7244,23.3633,汕头市,龙湖子站,,28,28,56,13,20,148,85,131,104,18,24,6,12,0.4,0.5
2022-04-08T22:00:00,1676A,116.7258,23.2775,汕头市,濠江子站,,35,29,46,24,22,145,92,133,107,6,13,8,12,0.4,0.5
2022-04-08T22:00:00,1677A,116.7519,23.4714,汕头市,澄海子站,,38,38,58,20,27,159,91,143,116,18,26,8,10,0.5,0.5
2022-04-08T22:00:00,1678A,116.6092,23.2539,汕头市,潮阳子站,,36,36,50,13,16,164,96,140,112,8,17,10,13,0.3,0.5
2022-04-08T22:00:00,1680A,110.3539,21.2706,湛江市,湛江影剧院,,39,34,40,14,19,146,123,138,133,12,11,5,6,0.5,0.6
2022-04-08T22:00:00,1681A,110.3928,21.2228,湛江市,市环境监测站,,42,34,35,15,19,145,134,140,140,11,10,6,6,0.5,0.5
2022-04-08T22:00:00,1682A,110.4019,21.1997,湛江市,环保局宿舍,,42,37,35,20,20,141,134,135,134,11,10,4,5,0.5,0.4
2022-04-08T22:00:00,1683A,110.4111,21.2028,湛江市,霞山游泳场,,45,31,34,17,20,142,142,136,136,7,11,6,6,0.4,0.4
2022-04-08T22:00:00,1684A,110.3316,21.2679,湛江市,麻章区环保局,颗粒物(PM10),51,51,48,21,24,154,121,140,130,13,11,6,7,0.4,0.4
2022-04-08T22:00:00,1685A,110.4558,21.2567,湛江市,坡头区环保局,,43,32,37,19,20,149,137,144,143,8,9,2,3,0.5,0.5
2022-04-08T22:00:00,1686A,111.0286,21.4688,茂名市,电白南海,,48,44,44,22,19,152,152,146,146,16,14,6,7,0.5,0.5
2022-04-08T22:00:00,1687A,110.9294,21.6533,茂名市,茂石化七小,,46,46,53,17,29,162,140,151,144,17,16,7,18,0.4,0.6
2022-04-08T22:00:00,1688A,110.9107,21.6687,茂名市,健康路,,48,48,51,18,26,170,148,158,150,11,11,9,14,0.5,0.6
2022-04-08T22:00:00,1689A,110.8592,21.6828,茂名市,高岭,颗粒物(PM10),54,58,61,14,20,168,117,152,138,24,17,10,17,0.6,0.7
2022-04-08T22:00:00,1690A,116.1231,24.3284,梅州市,梅江月梅,颗粒物(PM10),56,61,53,24,28,150,143,144,138,12,15,11,8,0.4,0.4
2022-04-08T22:00:00,1691A,116.0797,24.2719,梅州市,梅县新城,颗粒物(PM10),52,54,57,32,33,152,46,145,108,59,28,7,7,0.7,0.5
2022-04-08T22:00:00,1692A,116.1248,24.2654,梅州市,环境监控中心,颗粒物(PM10),51,52,59,27,32,151,68,142,111,44,33,7,12,0.5,0.5
2022-04-08T22:00:00,1693A,115.3653,22.775,汕尾市,市环保局,,30,30,40,13,18,136,89,121,110,8,13,8,9,0.5,0.5
2022-04-08T22:00:00,1694A,115.3706,22.7898,汕尾市,市政府,,,42,42,18,22,172,90,147,127,,14,6,7,0.4,0.4
2022-04-08T22:00:00,1695A,115.3622,22.7925,汕尾市,新城中学,,35,35,43,18,23,160,94,139,124,6,10,5,6,0.4,0.4
2022-04-08T22:00:00,1696A,114.6778,23.7569,河源市,源西(对照点),颗粒物(PM10),71,91,58,30,27,156,91,142,106,36,33,5,5,0.7,0.7
2022-04-08T22:00:00,1697A,114.6944,23.7586,河源市,东埔,颗粒物(PM10),69,87,57,30,28,155,94,147,122,36,27,5,5,0.8,0.7
2022-04-08T22:00:00,1698A,114.6892,23.7233,河源市,老城,颗粒物(PM10),81,112,61,24,32,169,122,156,122,28,28,5,5,0.7,0.7
2022-04-08T22:00:00,1699A,111.9797,21.8593,阳江市,鸳鸯湖(对照点),臭氧1小时,53,37,37,22,20,179,162,172,172,8,11,7,7,0.3,0.5
2022-04-08T22:00:00,1701A,111.9491,21.8658,阳江市,马南垌,,48,46,41,21,22,170,153,161,161,12,16,5,5,0.5,0.6
2022-04-08T22:00:00,1702A,113.0426,23.691,清远市,环保大楼(对照点),颗粒物(PM10),60,70,54,42,38,191,65,174,131,43,27,8,10,0.8,0.7
2022-04-08T22:00:00,1703A,113.0208,23.7106,清远市,凤城街办,颗粒物(PM10),57,64,57,37,33,187,81,173,136,39,27,8,9,1.0,0.8
2022-04-08T22:00:00,1705A,116.6367,23.6719,潮州市,西园路(对照点),颗粒物(PM10),59,68,62,31,34,163,82,146,122,20,18,16,15,0.6,0.6
2022-04-08T22:00:00,1706A,116.6447,23.6706,潮州市,档案局,颗粒物(PM10),55,60,58,32,31,156,66,138,113,25,18,19,14,0.8,0.6
2022-04-08T22:00:00,1708A,116.3701,23.5345,揭阳市,新兴,颗粒物(PM10),53,56,65,19,36,180,67,157,122,23,26,10,14,0.8,0.8
2022-04-08T22:00:00,1709A,116.3264,23.5443,揭阳市,西马,颗粒物(PM10),56,61,75,23,32,178,74,160,129,15,22,8,11,0.7,0.7
2022-04-08T22:00:00,1710A,116.3611,23.5626,揭阳市,东兴,颗粒物(PM10),53,56,77,15,29,173,79,151,125,13,28,7,15,0.6,0.8
2022-04-08T22:00:00,1711A,116.4151,23.5294,揭阳市,渔湖,,30,30,56,15,32,164,68,144,114,14,29,8,11,0.4,0.5
2022-04-08T22:00:00,1712A,112.0392,22.9169,云浮市,新市府(对照点),,39,39,50,26,37,165,96,157,137,10,12,6,7,0.4,0.5
2022-04-08T22:00:00,1714A,112.0539,22.9539,云浮市,牧羊,颗粒物(PM10),65,79,80,27,48,179,93,159,142,36,29,14,18,0.5,0.6
2022-04-08T22:00:00,1715A,102.575,24.3711,玉溪市,东风水库,,47,47,40,28,27,132,102,121,114,16,15,7,7,0.9,0.7
2022-04-08T22:00:00,1718A,115.4208,35.2464,菏泽市,气象局,颗粒物(PM10),86,121,133,36,71,155,122,143,138,19,17,14,12,0.4,0.5
2022-04-08T22:00:00,1719A,115.4747,35.2375,菏泽市,市政协,颗粒物(PM10),82,113,128,33,64,152,133,145,142,14,16,13,12,0.4,0.5
2022-04-08T22:00:00,1721A,113.3819,40.1097,大同市,果树场(对照点),颗粒物(PM10),107,163,101,51,32,138,10,113,75,65,31,14,15,0.8,0.5
2022-04-08T22:00:00,1723A,113.2994,40.0758,大同市,云冈宾馆,颗粒物(PM10),85,119,136,44,41,128,57,114,86,38,40,37,20,0.5,0.6
2022-04-08T22:00:00,1724A,113.3444,40.0917,大同市,大同大学,颗粒物(PM10),106,161,108,40,30,140,41,114,82,59,42,31,21,0.3,0.4
2022-04-08T22:00:00,1725A,113.2661,40.1269,大同市,安家小村,颗粒物(PM10),71,92,117,14,23,130,108,116,108,8,30,14,24,0.2,0.8
2022-04-08T22:00:00,1726A,113.2711,40.0844,大同市,教育学院,颗粒物(PM10),93,136,118,40,25,117,47,98,65,36,46,41,27,0.4,0.8
2022-04-08T22:00:00,1727A,113.1147,36.1547,长治市,清华站,颗粒物(PM10),62,73,92,29,44,156,130,137,130,19,30,11,13,0.7,0.6
2022-04-08T22:00:00,1728A,113.1031,36.1989,长治市,监测站,颗粒物(PM10),60,70,86,34,46,159,126,137,126,16,23,9,15,0.9,0.9
2022-04-08T22:00:00,1730A,113.0886,36.2125,长治市,审计局,颗粒物(PM10),57,64,84,31,42,158,116,137,124,25,24,9,16,0.9,1
2022-04-08T22:00:00,1731A,113.0844,36.1856,长治市,长治八中,颗粒物(PM10),69,88,109,25,48,157,126,135,125,20,26,11,22,0.8,0.8
2022-04-08T22:00:00,1733A,111.5531,36.0783,临汾市,临钢医院,颗粒物(PM10),62,74,97,36,46,192,94,168,149,36,36,21,17,1.0,1
2022-04-08T22:00:00,1734A,111.5028,36.0714,临汾市,技工学校,颗粒物(PM10),77,103,108,54,45,185,69,174,145,52,40,24,21,0.7,0.8
2022-04-08T22:00:00,1736A,111.5018,36.0855,临汾市,市委,颗粒物(PM10),71,92,95,32,39,176,65,155,137,53,37,21,19,1.2,1.2
2022-04-08T22:00:00,1738A,113.5758,37.8572,阳泉市,市中心,颗粒物(PM10),99,148,108,45,35,142,7,136,108,145,58,14,24,1.0,0.7
2022-04-08T22:00:00,1739A,113.4894,37.8731,阳泉市,赛鱼,颗粒物(PM10),90,130,72,39,26,143,6,135,90,125,56,21,23,0.7,0.7
2022-04-08T22:00:00,1740A,113.5819,37.8486,阳泉市,南庄,颗粒物(PM10),119,188,107,48,31,143,73,134,126,78,47,23,31,1.1,0.8
2022-04-08T22:00:00,1742A,113.5614,37.8703,阳泉市,平坦,颗粒物(PM10),87,124,105,51,35,144,63,138,115,85,59,13,23,0.8,0.8
2022-04-08T22:00:00,1743A,113.5158,37.8392,阳泉市,大阳泉,颗粒物(PM10),68,85,62,33,24,150,133,143,143,19,19,7,12,0.5,0.5
2022-04-08T22:00:00,1744A,118.9233,42.2816,赤峰市,松山一中,颗粒物(PM10),60,69,68,22,29,147,101,135,131,18,28,12,20,0.6,0.8
2022-04-08T22:00:00,1745A,118.9576,42.2728,赤峰市,哈达街,颗粒物(PM10),58,66,72,23,28,145,108,129,127,15,26,14,18,0.5,0.8
2022-04-08T22:00:00,1746A,118.8788,42.2554,赤峰市,天义路,颗粒物(PM10),54,57,50,20,19,146,95,136,132,19,19,9,11,0.6,0.6
2022-04-08T22:00:00,1748A,123.044,41.1196,鞍山市,深沟寺,细颗粒物(PM2.5),74,90,79,54,45,182,122,164,146,9,11,6,8,0.7,0.8
2022-04-08T22:00:00,1749A,123.011,41.0931,鞍山市,太阳城,颗粒物(PM10),66,81,77,41,43,173,146,156,145,10,16,6,8,0.7,0.7
2022-04-08T22:00:00,1750A,123.0485,41.1442,鞍山市,太平,细颗粒物(PM2.5),75,94,92,55,46,169,116,153,136,14,17,8,10,0.5,0.6
2022-04-08T22:00:00,1751A,122.9642,41.0971,鞍山市,铁西三道街,颗粒物(PM10),75,99,113,43,52,173,125,154,124,21,33,13,14,0.9,1.3
2022-04-08T22:00:00,1752A,122.9341,41.0833,鞍山市,铁西工业园区,颗粒物(PM10),74,97,107,45,58,175,127,162,145,22,23,14,12,1.4,1
2022-04-08T22:00:00,1753A,123.022,41.0821,鞍山市,明达新区,颗粒物(PM10),65,80,90,39,44,163,141,147,138,6,14,6,8,0.7,0.8
2022-04-08T22:00:00,1754A,123.1289,41.0228,鞍山市,千山(对照点),细颗粒物(PM2.5),67,72,52,48,34,154,107,141,122,11,11,8,9,0.7,0.6
2022-04-08T22:00:00,1755A,123.7977,41.8491,抚顺市,望花区,细颗粒物(PM2.5),75,81,142,55,61,157,122,144,132,10,22,18,18,0.6,0.9
2022-04-08T22:00:00,1756A,123.9161,41.8822,抚顺市,顺城区,细颗粒物(PM2.5),64,60,107,46,54,150,117,136,126,13,25,5,8,0.5,0.7
2022-04-08T22:00:00,1757A,124.0436,41.8611,抚顺市,东洲区,细颗粒物(PM2.5),64,74,109,46,45,157,125,144,136,11,16,7,8,1.3,0.8
2022-04-08T22:00:00,1758A,123.9247,41.8642,抚顺市,新抚区,细颗粒物(PM2.5),75,77,128,55,66,160,124,146,136,8,22,11,12,0.7,0.9
2022-04-08T22:00:00,1759A,124.0972,41.8961,抚顺市,大伙房水库,,,70,90,50,45,177,148,165,159,,12,5,7,0.4,0.6
2022-04-08T22:00:00,1760A,123.7086,41.8391,抚顺市,沈抚新城,细颗粒物(PM2.5),80,90,142,59,61,158,115,150,134,14,24,13,14,1.4,1.4
2022-04-08T22:00:00,1761A,123.8275,41.3064,本溪市,大峪,细颗粒物(PM2.5),72,82,85,52,40,151,133,143,141,12,20,13,14,0.7,0.8
2022-04-08T22:00:00,1762A,123.7567,41.3325,本溪市,溪湖,细颗粒物(PM2.5),94,126,101,70,51,137,118,126,122,24,35,18,21,1.0,1.2
2022-04-08T22:00:00,1763A,123.7169,41.3094,本溪市,彩屯,细颗粒物(PM2.5),119,148,122,90,65,124,107,121,119,24,40,26,50,1.6,2.1
2022-04-08T22:00:00,1764A,123.7669,41.2864,本溪市,东明,细颗粒物(PM2.5),72,63,92,52,46,146,135,139,138,10,23,6,8,0.7,0.7
2022-04-08T22:00:00,1765A,123.7992,41.2664,本溪市,新立屯,细颗粒物(PM2.5),69,77,85,50,34,147,144,144,144,5,11,9,11,0.6,0.6
2022-04-08T22:00:00,1766A,123.8142,41.3472,本溪市,威宁,颗粒物(PM10),67,84,99,46,48,135,116,130,124,11,23,13,14,0.8,0.9
2022-04-08T22:00:00,1767A,121.1115,41.0879,锦州市,南山,细颗粒物(PM2.5),176,142,131,133,92,151,134,143,143,13,28,9,19,1.0,0.9
2022-04-08T22:00:00,1768A,121.0533,40.8434,锦州市,开发区,细颗粒物(PM2.5),148,141,163,113,90,154,145,145,145,18,41,8,12,0.8,0.9
2022-04-08T22:00:00,1769A,121.1836,41.1119,锦州市,百股街道,细颗粒物(PM2.5),178,168,123,134,80,172,149,163,163,18,21,16,17,1.1,1
2022-04-08T22:00:00,1770A,121.1178,41.1222,锦州市,天安街道,细颗粒物(PM2.5),165,162,144,125,88,182,160,173,173,15,28,12,21,1.3,1.2
2022-04-08T22:00:00,1771A,121.1303,41.1386,锦州市,北湖公园,细颗粒物(PM2.5),175,144,122,132,92,172,150,162,162,15,23,13,20,1.0,0.9
2022-04-08T22:00:00,1772A,126.54,43.8622,吉林市,哈达湾,颗粒物(PM10),91,131,80,53,34,176,145,167,166,12,10,7,7,0.7,0.3
2022-04-08T22:00:00,1773A,126.5844,43.8358,吉林市,东局子,颗粒物(PM10),87,123,86,48,32,178,147,167,166,9,8,6,6,0.7,0.6
2022-04-08T22:00:00,1774A,126.5052,43.8245,吉林市,电力学院,颗粒物(PM10),86,122,85,41,30,188,153,176,176,11,10,12,11,0.7,0.6
2022-04-08T22:00:00,1775A,126.6133,43.8972,吉林市,江北,颗粒物(PM10),93,135,94,53,34,172,141,161,160,13,10,15,9,0.7,0.6
2022-04-08T22:00:00,1776A,126.555,43.8306,吉林市,江南公园,颗粒物(PM10),90,130,88,53,35,168,140,158,158,8,8,8,7,0.7,0.6
2022-04-08T22:00:00,1778A,126.7061,43.7133,吉林市,丰满(对照点),颗粒物(PM10),74,97,63,50,33,176,150,166,166,7,6,6,6,0.8,0.7
2022-04-08T22:00:00,1779A,123.9305,47.3636,齐齐哈尔市,安居小区,颗粒物(PM10),85,120,98,60,66,182,26,122,100,62,25,5,8,1.0,0.7
2022-04-08T22:00:00,1780A,123.9488,47.3386,齐齐哈尔市,中心广场,细颗粒物(PM2.5),114,121,114,86,66,172,53,115,97,36,20,12,26,0.8,0.6
2022-04-08T22:00:00,1781A,123.9483,47.3227,齐齐哈尔市,农牧车辆厂,细颗粒物(PM2.5),84,112,96,62,58,189,55,129,108,34,19,18,9,0.6,0.6
2022-04-08T22:00:00,1783A,123.945,47.2988,齐齐哈尔市,市环境监测站,细颗粒物(PM2.5),107,106,96,80,70,164,66,136,124,21,18,12,8,0.7,0.6
2022-04-08T22:00:00,1784A,129.61,44.561,牡丹江市,环保大楼,颗粒物(PM10),94,137,79,38,41,139,111,119,116,15,14,16,6,0.5,0.5
2022-04-08T22:00:00,1785A,129.6115,44.5782,牡丹江市,文化广场,颗粒物(PM10),83,116,81,38,48,138,114,120,112,11,15,9,7,0.4,0.4
2022-04-08T22:00:00,1786A,129.5904,44.5963,牡丹江市,第一医院,颗粒物(PM10),76,102,79,41,59,130,98,118,113,16,19,10,7,0.8,0.8
2022-04-08T22:00:00,1787A,129.6364,44.6075,牡丹江市,机车工厂,颗粒物(PM10),89,128,70,24,35,134,80,118,110,29,21,12,10,0.5,0.4
2022-04-08T22:00:00,1788A,129.6386,44.5462,牡丹江市,第一中学,颗粒物(PM10),92,134,71,39,34,139,112,122,114,16,17,7,3,0.6,0.4
2022-04-08T22:00:00,1789A,124.81117,46.03138,大庆市,大同区,细颗粒物(PM2.5),84,116,82,62,42,102,56,90,70,14,12,5,5,1.2,1
2022-04-08T22:00:00,1790A,125.129,46.533,大庆市,龙凤区,颗粒物(PM10),67,83,62,39,30,107,88,94,93,16,15,4,6,0.6,0.5
2022-04-08T22:00:00,1791A,124.902,46.408,大庆市,红岗区,颗粒物(PM10),66,81,54,38,32,138,75,106,97,23,10,6,4,1.4,1.1
2022-04-08T22:00:00,1792A,125.153,46.586,大庆市,萨尔图区,细颗粒物(PM2.5),83,70,61,61,49,109,91,103,102,13,15,8,10,0.6,0.5
2022-04-08T22:00:00,1793A,124.9042,46.6215,大庆市,让胡路区,颗粒物(PM10),67,84,61,41,29,126,78,114,108,21,15,6,7,1.2,1
2022-04-08T22:00:00,1794A,118.3606,31.3519,芜湖市,监测站,颗粒物(PM10),69,87,81,17,16,173,54,158,133,87,39,14,13,0.8,0.6
2022-04-08T22:00:00,1795A,118.3714,31.4134,芜湖市,科创中心,颗粒物(PM10),80,110,77,57,36,167,3,149,113,142,60,10,9,1.1,0.7
2022-04-08T22:00:00,1796A,118.3673,31.3131,芜湖市,四水厂,颗粒物(PM10),73,95,77,19,15,151,21,140,115,117,38,11,9,1.0,0.6
2022-04-08T22:00:00,1798A,118.5092,31.6837,马鞍山市,湖东路四小,颗粒物(PM10),79,108,72,38,37,177,28,165,110,96,33,9,10,0.9,0.9
2022-04-08T22:00:00,1799A,118.5024,31.6449,马鞍山市,开发区,,,186,93,47,36,171,13,159,103,124,60,10,12,0.9,1
2022-04-08T22:00:00,1800A,118.5228,31.7231,马鞍山市,慈湖,颗粒物(PM10),107,164,88,40,37,170,78,155,115,66,37,10,12,0.7,0.8
2022-04-08T22:00:00,1802A,118.6245,31.7241,马鞍山市,濮塘(对照点),,46,46,61,27,33,154,134,144,139,8,12,12,14,0.4,0.5
2022-04-08T22:00:00,1803A,115.9872,29.6815,九江市,十里,颗粒物(PM10),82,114,66,46,28,165,7,146,110,84,43,7,7,1.4,0.7
2022-04-08T22:00:00,1805A,115.9877,29.7295,九江市,西园,颗粒物(PM10),51,51,68,27,31,146,77,130,118,43,58,7,12,0.5,0.5
2022-04-08T22:00:00,1806A,116.0172,29.6547,九江市,五七二七厂,,42,36,48,14,17,153,134,149,148,7,13,6,6,0.5,0.4
2022-04-08T22:00:00,1808A,115.9114,29.6038,九江市,综合工业园,颗粒物(PM10),76,102,64,48,29,155,47,149,126,80,39,12,10,0.9,0.5
2022-04-08T22:00:00,1809A,116.0721,29.7535,九江市,石化总厂,颗粒物(PM10),65,80,74,32,28,156,90,148,130,44,37,11,13,0.3,0.4
2022-04-08T22:00:00,1810A,115.9773,29.5698,九江市,庐山气象台(对照点),,48,41,39,12,14,152,152,145,145,3,3,5,5,0.3,0.2
2022-04-08T22:00:00,1812A,112.3931,34.6516,洛阳市,市委党校,颗粒物(PM10),107,163,154,74,74,202,114,178,164,39,33,9,11,1.1,1
2022-04-08T22:00:00,1814A,112.4657,34.6871,洛阳市,豫西宾馆,细颗粒物(PM2.5),105,148,147,79,79,206,102,181,166,40,33,10,12,1.1,1.1
2022-04-08T22:00:00,1815A,112.494,34.6886,洛阳市,河南林校,颗粒物(PM10),110,169,156,73,72,217,104,187,169,41,31,8,10,0.7,0.7
2022-04-08T22:00:00,1816A,112.3844,34.623,洛阳市,开发区管委会,细颗粒物(PM2.5),102,152,138,76,75,199,109,175,161,39,29,8,10,0.7,0.7
2022-04-08T22:00:00,1817A,112.4267,34.6258,洛阳市,市委新办公区,颗粒物(PM10),115,179,154,81,76,188,118,171,161,44,28,8,10,0.9,0.8
2022-04-08T22:00:00,1818A,114.4839,36.0621,安阳市,棉研所(对照点),颗粒物(PM10),77,104,128,38,51,159,81,140,130,18,19,10,11,0.9,0.9
2022-04-08T22:00:00,1819A,114.3551,36.1017,安阳市,红庙街,细颗粒物(PM2.5),90,125,134,67,71,180,104,168,161,31,26,12,13,0.8,0.9
2022-04-08T22:00:00,1820A,114.361,36.0681,安阳市,银杏小区,,,128,122,,59,186,101,166,156,31,26,7,9,0.8,0.9
2022-04-08T22:00:00,1824A,114.3389,34.7781,开封市,肿瘤医院,,,,114,37,63,162,77,149,124,16,17,8,11,0.4,0.7
2022-04-08T22:00:00,1826A,114.2885,34.7965,开封市,世纪星幼儿园,颗粒物(PM10),68,85,110,22,50,173,88,157,137,21,15,9,12,0.7,0.7
2022-04-08T22:00:00,1828A,113.2269,35.2127,焦作市,市环保局,,,129,133,68,82,211,120,197,175,,27,12,12,1.1,0.9
2022-04-08T22:00:00,1829A,113.2467,35.176,焦作市,高新区政府,颗粒物(PM10),112,174,153,83,90,189,116,173,162,33,33,16,16,0.4,0.6
2022-04-08T22:00:00,1830A,113.1987,35.2703,焦作市,影视城(对照点),颗粒物(PM10),69,88,119,49,63,184,165,179,177,4,11,13,17,0.9,1.3
2022-04-08T22:00:00,1832A,113.3257,33.742,平顶山市,新华旅馆,颗粒物(PM10),58,66,123,40,61,155,153,151,147,10,29,5,10,0.4,0.5
2022-04-08T22:00:00,1833A,113.2919,33.737,平顶山市,规划设计院,颗粒物(PM10),62,73,119,29,56,151,138,147,142,12,20,5,5,0.4,0.4
2022-04-08T22:00:00,1834A,113.182,33.774,平顶山市,平顶山工学院,颗粒物(PM10),59,68,108,25,53,147,144,146,142,7,18,9,8,0.5,0.6
2022-04-08T22:00:00,1835A,111.1922,34.7752,三门峡市,市政府,颗粒物(PM10),85,120,108,31,64,176,61,157,118,56,24,10,13,0.8,0.8
2022-04-08T22:00:00,1836A,111.1587,34.7942,三门峡市,开发区,颗粒物(PM10),78,106,120,25,66,168,70,154,127,34,18,12,14,0.4,0.6
2022-04-08T22:00:00,1838A,111.143,34.7955,三门峡市,风景区(对照点),颗粒物(PM10),63,75,109,18,58,168,86,153,132,15,17,10,14,0.5,0.8
2022-04-08T22:00:00,1840A,111.2992,30.6981,宜昌市,白龙岗,颗粒物(PM10),64,78,61,24,28,164,81,137,126,53,35,9,7,0.3,0.3
2022-04-08T22:00:00,1841A,111.3549,30.6465,宜昌市,伍家岗,颗粒物(PM10),64,77,63,29,30,169,50,144,127,62,40,6,6,0.7,0.5
2022-04-08T22:00:00,1842A,111.2628,30.6961,宜昌市,点军区,颗粒物(PM10),72,93,73,29,31,195,82,153,143,39,29,9,9,0.6,0.5
2022-04-08T22:00:00,1843A,111.3275,30.7819,宜昌市,夷陵区,,,86,62,29,24,175,,148,148,38,28,5,4,0.4,0.3
2022-04-08T22:00:00,1844A,112.2494,30.3197,荆州市,市图书馆,颗粒物(PM10),69,88,82,28,31,162,135,157,150,27,34,11,16,0.6,0.6
2022-04-08T22:00:00,1845A,112.2008,30.3544,荆州市,市委党校,颗粒物(PM10),64,77,75,41,38,165,138,160,156,29,31,11,14,0.6,0.6
2022-04-08T22:00:00,1847A,113.1094,29.3578,岳阳市,南湖风景区,颗粒物(PM10),69,88,66,37,34,171,62,161,138,101,29,9,10,0.7,0.6
2022-04-08T22:00:00,1848A,113.1493,29.4251,岳阳市,城陵矶,颗粒物(PM10),63,75,76,31,30,173,101,158,150,50,31,32,15,0.6,0.6
2022-04-08T22:00:00,1849A,113.1497,29.3575,岳阳市,开发区,颗粒物(PM10),83,115,91,42,31,198,78,184,165,53,20,9,10,0.6,0.5
2022-04-08T22:00:00,1850A,113.2621,29.4758,岳阳市,云溪区,颗粒物(PM10),68,85,58,47,30,171,110,156,133,22,19,10,12,0.5,0.5
2022-04-08T22:00:00,1851A,112.9943,29.4402,岳阳市,君山区,细颗粒物(PM2.5),54,45,57,38,38,169,138,160,151,21,28,10,12,0.6,0.6
2022-04-08T22:00:00,1852A,113.2117,29.355,岳阳市,金凤水库(对照点),颗粒物(PM10),66,82,60,30,29,174,99,156,146,28,21,6,6,0.4,0.4
2022-04-08T22:00:00,1854A,111.6975,28.9703,常德市,市二中,颗粒物(PM10),63,76,65,32,33,159,132,142,134,12,20,12,10,0.9,0.9
2022-04-08T22:00:00,1857A,111.7158,29.1456,常德市,白鹤山(对照点),颗粒物(PM10),59,67,71,29,31,181,122,156,141,12,11,7,9,0.5,0.6
2022-04-08T22:00:00,1858A,110.5319,29.1217,张家界市,永定新区,颗粒物(PM10),59,68,57,31,24,149,48,142,115,37,13,2,2,0.3,0.2
2022-04-08T22:00:00,1859A,110.4697,29.1242,张家界市,电业局,,41,41,47,19,20,133,30,122,103,31,17,6,6,0.5,0.2
2022-04-08T22:00:00,1860A,110.5594,29.3547,张家界市,未央路,,46,46,53,19,11,118,64,111,94,7,6,4,2,0.2,0.3
2022-04-08T22:00:00,1861A,110.4417,29.315,张家界市,袁家界(对照点),颗粒物(PM10),51,52,44,22,14,137,123,136,129,2,3,5,4,0.1,0.1
2022-04-08T22:00:00,1862A,110.4144,25.3167,桂林市,电子科大尧山校区(对照点),颗粒物(PM10),58,65,58,35,30,168,90,152,135,7,6,8,15,0.5,0.4
2022-04-08T22:00:00,1863A,110.2819,25.2697,桂林市,监测站,细颗粒物(PM2.5),98,93,78,73,53,159,17,152,117,65,22,9,17,1.4,0.7
2022-04-08T22:00:00,1864A,110.3089,25.2708,桂林市,龙隐路小学,,,,69,,40,161,55,154,136,34,21,9,23,0.9,0.6
2022-04-08T22:00:00,1865A,110.2869,25.2178,桂林市,八中,细颗粒物(PM2.5),117,106,70,88,48,161,47,149,113,48,26,10,14,1.0,0.8
2022-04-08T22:00:00,1866A,109.2262,21.588,北海市,牛尾岭水库(对照点),细颗粒物(PM2.5),55,56,57,39,45,167,85,154,138,22,15,4,10,0.8,0.9
2022-04-08T22:00:00,1867A,109.1436,21.4086,北海市,海滩公园,颗粒物(PM10),51,51,56,29,33,176,152,164,164,14,11,6,8,0.5,0.7
2022-04-08T22:00:00,1868A,109.0981,21.4661,北海市,新市环保局,细颗粒物(PM2.5),55,41,53,39,44,168,147,164,161,15,10,6,7,0.6,0.7
2022-04-08T22:00:00,1869A,109.1778,21.5233,北海市,北海工业园,颗粒物(PM10),78,106,79,54,50,178,56,166,140,61,20,8,19,1.0,0.8
2022-04-08T22:00:00,1870A,109.4856,24.3895,柳州市,柳东小学,,50,49,70,33,50,186,157,168,168,10,21,9,21,0.6,0.8
2022-04-08T22:00:00,1871A,109.4157,24.3277,柳州市,环保监测站,颗粒物(PM10),76,101,93,49,50,193,36,177,146,90,46,9,19,1.1,0.7
2022-04-08T22:00:00,1872A,109.389,24.341,柳州市,河西水厂,颗粒物(PM10),74,98,98,52,50,199,34,176,150,88,41,15,25,1.5,1
2022-04-08T22:00:00,1873A,109.4311,24.2921,柳州市,市四中,颗粒物(PM10),90,129,90,66,46,200,14,181,136,97,44,11,13,1.5,0.9
2022-04-08T22:00:00,1874A,109.4006,24.3631,柳州市,市九中,颗粒物(PM10),103,156,117,56,39,182,6,156,119,101,45,8,22,1.3,0.7
2022-04-08T22:00:00,1875A,109.4958,24.3134,柳州市,古亭山,"颗粒物(PM10),细颗粒物(PM2.5)",52,53,63,36,35,167,52,151,123,63,38,6,9,0.5,0.5
2022-04-08T22:00:00,1876A,109.5078,18.2489,三亚市,河东子站,,41,36,42,18,24,151,131,137,128,2,5,4,4,0.5,0.5
2022-04-08T22:00:00,1877A,109.4964,18.2681,三亚市,河西子站,,39,25,40,20,27,157,122,139,126,1,4,6,7,0.4,0.5
2022-04-08T22:00:00,1878A,104.7778,31.4741,绵阳市,富乐山,颗粒物(PM10),56,62,62,38,40,138,58,128,112,48,28,5,6,0.9,0.8
2022-04-08T22:00:00,1879A,104.7563,31.4535,绵阳市,市人大,细颗粒物(PM2.5),68,75,85,49,56,132,5,117,98,116,55,6,7,1.0,1
2022-04-08T22:00:00,1880A,104.6697,31.4668,绵阳市,高新区自来水公司,颗粒物(PM10),71,92,91,38,62,150,32,130,108,84,44,7,7,0.8,0.8
2022-04-08T22:00:00,1881A,104.7287,31.5075,绵阳市,三水厂,颗粒物(PM10),69,88,98,47,63,135,10,116,89,92,43,4,4,1.2,0.9
2022-04-08T22:00:00,1882A,104.563,28.793,宜宾市,石马中学(对照点),"颗粒物(PM10),细颗粒物(PM2.5)",69,88,69,50,41,155,30,146,122,65,28,7,10,0.8,0.7
2022-04-08T22:00:00,1883A,104.6201,28.7728,宜宾市,市委,颗粒物(PM10),71,92,70,49,42,160,3,147,116,101,41,7,13,1.2,0.7
2022-04-08T22:00:00,1884A,104.6055,28.793,宜宾市,宜宾四中,颗粒物(PM10),80,110,75,53,45,156,9,156,103,113,42,8,14,0.9,0.6
2022-04-08T22:00:00,1885A,104.639,28.7562,宜宾市,市政府,颗粒物(PM10),90,129,92,64,44,166,0,146,106,116,55,10,12,1.1,0.7
2022-04-08T22:00:00,1886A,104.5742,28.7199,宜宾市,黄金嘴,细颗粒物(PM2.5),68,84,68,49,40,163,34,142,112,66,38,10,13,0.8,0.6
2022-04-08T22:00:00,1888A,101.6891,26.571,攀枝花市,弄弄坪,颗粒物(PM10),55,59,55,28,31,111,76,96,95,22,30,10,17,1.1,1.3
2022-04-08T22:00:00,1889A,101.5769,26.5928,攀枝花市,河门口,颗粒物(PM10),60,70,55,35,29,114,62,95,95,40,38,29,36,1.9,2.1
2022-04-08T22:00:00,1890A,101.7169,26.585,攀枝花市,炳草岗,,48,48,57,29,34,113,41,91,87,61,51,15,27,1.4,1.3
2022-04-08T22:00:00,1891A,101.7369,26.5008,攀枝花市,仁和,,48,48,44,30,26,117,90,99,99,13,25,6,15,0.6,0.9
2022-04-08T22:00:00,1893A,105.4324,28.9634,泸州市,九狮山(对照点),,,109,74,50,39,177,53,161,137,18,24,,16,,0.5
2022-04-08T22:00:00,1894A,105.4427,28.9063,泸州市,小市上码头,颗粒物(PM10),92,133,93,46,42,154,88,139,121,61,46,20,19,0.9,0.7
2022-04-08T22:00:00,1895A,105.4241,28.8573,泸州市,兰田宪桥,细颗粒物(PM2.5),94,132,91,70,39,184,82,159,140,38,33,72,27,0.8,0.6
2022-04-08T22:00:00,1896A,105.4379,28.8833,泸州市,市环监站,颗粒物(PM10),91,131,89,47,40,184,115,154,140,46,41,16,26,0.7,0.6
2022-04-08T22:00:00,1901A,104.4239,31.1208,德阳市,东山公园,颗粒物(PM10),65,79,85,42,55,139,71,132,122,50,24,18,7,0.6,0.5
2022-04-08T22:00:00,1902A,104.3826,31.1317,德阳市,西小区,颗粒物(PM10),68,86,93,45,58,141,76,129,119,32,36,22,10,0.6,0.7
2022-04-08T22:00:00,1904A,104.3553,31.1091,德阳市,耐火材料厂,颗粒物(PM10),75,100,103,54,69,143,80,132,122,31,37,14,14,0.5,0.6
2022-04-08T22:00:00,1905A,106.056,30.8064,南充市,西山风景区(对照点),颗粒物(PM10),61,71,51,35,37,149,118,141,139,11,11,1,4,0.6,0.6
2022-04-08T22:00:00,1906A,106.0789,30.8023,南充市,南充市委,颗粒物(PM10),70,89,68,44,37,141,83,123,111,31,25,2,2,0.6,0.5
2022-04-08T22:00:00,1907A,106.1031,30.8217,南充市,南充炼油厂,,,71,66,32,33,171,,146,144,19,18,10,7,0.4,0.5
2022-04-08T22:00:00,1908A,106.1064,30.7856,南充市,高坪区监测站,颗粒物(PM10),64,77,66,32,39,144,76,125,118,29,28,2,3,0.5,0.6
2022-04-08T22:00:00,1909A,106.0642,30.7636,南充市,嘉陵区环保局,颗粒物(PM10),56,61,56,24,34,145,110,126,113,24,32,5,4,0.6,0.7
2022-04-08T22:00:00,1910A,106.1087,30.8388,南充市,市环境监测站,细颗粒物(PM2.5),62,69,65,44,39,138,86,119,115,17,17,3,9,0.4,0.4
2022-04-08T22:00:00,1911A,106.9222,27.6869,遵义市,丁字口,"颗粒物(PM10),细颗粒物(PM2.5)",53,55,50,37,24,156,30,132,91,56,32,20,13,0.9,0.5
2022-04-08T22:00:00,1912A,106.9242,27.7019,遵义市,凤凰山,,47,47,45,20,23,160,132,146,144,13,19,6,10,0.3,0.3
2022-04-08T22:00:00,1913A,106.8906,27.6486,遵义市,忠庄,颗粒物(PM10),56,62,62,37,30,149,103,131,126,14,33,5,5,0.3,0.4
2022-04-08T22:00:00,1914A,106.9231,27.6506,遵义市,舟水桥,颗粒物(PM10),52,53,52,32,25,155,60,136,116,35,26,6,5,0.4,0.4
2022-04-08T22:00:00,1915A,106.9178,27.72,遵义市,干田坝,颗粒物(PM10),55,59,48,20,22,158,107,133,117,21,28,7,8,0.6,0.5
2022-04-08T22:00:00,1916A,103.7897,25.5035,曲靖市,环境监测站,,46,46,45,10,22,158,87,131,120,32,25,8,7,0.9,0.7
2022-04-08T22:00:00,1917A,103.8,25.5364,曲靖市,烟厂办公区,颗粒物(PM10),54,58,58,26,26,139,103,134,127,20,26,7,12,0.9,0.7
2022-04-08T22:00:00,1918A,108.7197,34.3956,咸阳市,气象站(对照点),颗粒物(PM10),92,134,120,47,48,156,13,138,109,109,65,7,11,0.7,0.7
2022-04-08T22:00:00,1919A,108.673,34.3155,咸阳市,实验中学,颗粒物(PM10),111,171,134,54,63,170,4,144,109,124,62,5,9,1.1,0.8
2022-04-08T22:00:00,1920A,108.7233,34.3617,咸阳市,师范学院,颗粒物(PM10),99,148,120,54,54,162,55,141,123,66,47,5,10,1.2,0.9
2022-04-08T22:00:00,1922A,109.0656,35.0994,铜川市,党校(对照点),颗粒物(PM10),89,128,82,30,30,136,57,117,96,60,59,10,8,0.4,0.4
2022-04-08T22:00:00,1923A,109.0697,35.0697,铜川市,王益区政府,颗粒物(PM10),109,167,86,42,34,154,42,140,115,60,40,14,11,0.6,0.3
2022-04-08T22:00:00,1924A,108.9344,34.9058,铜川市,新区管委会,颗粒物(PM10),78,106,79,47,34,156,72,149,134,54,21,11,12,0.6,0.4
2022-04-08T22:00:00,1926A,109.4131,36.6275,延安市,枣园(对照点),颗粒物(PM10),82,113,71,28,21,149,4,135,84,75,36,3,2,0.2,0.1
2022-04-08T22:00:00,1927A,109.4761,36.6028,延安市,延大医附院,颗粒物(PM10),82,114,84,33,27,160,4,136,85,81,41,5,4,0.8,0.6
2022-04-08T22:00:00,1929A,109.5056,36.6106,延安市,百米大道,细颗粒物(PM2.5),107,133,106,80,36,143,10,124,82,89,51,4,4,0.5,0.3
2022-04-08T22:00:00,1930A,107.185,34.3063,宝鸡市,庙沟村(对照点),颗粒物(PM10),54,58,73,24,34,156,110,140,132,14,17,5,9,0.5,0.5
2022-04-08T22:00:00,1931A,107.0708,34.3017,宝鸡市,竹园沟,颗粒物(PM10),51,51,70,35,35,172,66,148,128,21,19,6,8,0.4,0.5
2022-04-08T22:00:00,1932A,107.1906,34.3672,宝鸡市,三陆医院,颗粒物(PM10),64,78,103,40,62,163,19,139,114,80,52,5,18,0.9,0.8
2022-04-08T22:00:00,1933A,107.1431,34.3547,宝鸡市,监测站,颗粒物(PM10),60,70,86,28,42,163,64,138,114,35,34,4,7,0.6,0.6
2022-04-08T22:00:00,1934A,107.1186,34.3739,宝鸡市,技工学校,颗粒物(PM10),60,69,91,29,41,168,89,144,131,20,28,4,9,0.5,0.6
2022-04-08T22:00:00,1935A,107.3906,34.3528,宝鸡市,陈仓区环保局家属楼,颗粒物(PM10),78,106,105,41,51,155,13,138,105,82,42,9,25,1.0,1.2
2022-04-08T22:00:00,1936A,107.2058,34.3497,宝鸡市,文理学院,颗粒物(PM10),62,74,90,33,50,170,53,147,124,56,40,8,13,1.3,1.2
2022-04-08T22:00:00,1937A,107.2386,34.3622,宝鸡市,三迪小学,颗粒物(PM10),80,110,101,46,53,158,21,144,106,85,48,8,14,0.9,0.7
2022-04-08T22:00:00,1938A,109.5293,34.5101,渭南市,农科所(对照点),颗粒物(PM10),139,227,116,41,42,161,98,131,120,42,42,14,13,0.5,0.5
2022-04-08T22:00:00,1939A,109.4974,34.4877,渭南市,日报社,颗粒物(PM10),81,112,111,34,39,164,89,141,120,48,44,16,20,0.5,0.5
2022-04-08T22:00:00,1940A,109.4636,34.493,渭南市,体育馆,颗粒物(PM10),78,105,123,24,41,163,112,150,139,30,45,11,22,0.4,0.6
2022-04-08T22:00:00,1941A,109.4259,34.5023,渭南市,高新一小,颗粒物(PM10),84,117,136,34,48,161,69,149,128,47,41,8,13,0.6,0.6
2022-04-08T22:00:00,1943A,102.1725,38.5339,金昌市,新川苑,颗粒物(PM10),150,249,143,58,26,109,87,105,100,11,11,7,8,0.5,0.4
2022-04-08T22:00:00,1944A,102.1692,38.5167,金昌市,天庆家园,颗粒物(PM10),134,218,135,56,27,110,92,107,102,13,13,9,10,0.4,0.5
2022-04-08T22:00:00,1945A,98.2908,39.7711,嘉峪关市,气象局,颗粒物(PM10),98,146,158,44,41,117,27,112,98,79,13,3,4,0.5,0.4
2022-04-08T22:00:00,1947A,106.3394,38.817,石嘴山市,沙湖旅游区(对照点),颗粒物(PM10),101,152,135,25,27,114,89,103,102,22,30,6,10,,0.3
2022-04-08T22:00:00,1948A,106.3668,39.0145,石嘴山市,大武口朝阳西街,颗粒物(PM10),62,74,103,26,30,126,96,119,116,25,35,2,7,0.4,0.6
2022-04-08T22:00:00,1949A,106.7704,39.2282,石嘴山市,惠农南大街,颗粒物(PM10),66,82,94,25,26,118,55,108,102,46,28,92,21,0.5,0.5
2022-04-08T22:00:00,1950A,106.7099,39.1325,石嘴山市,红果子镇惠新街,颗粒物(PM10),87,123,154,30,36,112,74,103,102,25,26,24,17,1.1,0.7
2022-04-08T22:00:00,1951A,84.895,45.6094,克拉玛依市,长征新村,颗粒物(PM10),53,55,89,6,12,116,84,107,90,3,17,8,9,0.2,0.3
2022-04-08T22:00:00,1952A,84.8988,45.5893,克拉玛依市,南林小区,颗粒物(PM10),79,107,110,16,21,116,90,105,95,6,24,6,7,0.3,0.4
2022-04-08T22:00:00,1954A,84.905,44.3396,克拉玛依市,独山子区,颗粒物(PM10),110,170,80,29,19,134,81,117,107,7,9,5,4,0.3,0.4
2022-04-08T22:00:00,1955A,85.6979,46.098,克拉玛依市,乌尔禾区商贸楼,颗粒物(PM10),64,78,111,16,22,99,77,94,85,1,12,10,11,0.4,0.5
2022-04-08T22:00:00,1956A,86.1472,41.7538,巴音郭楞州,孔雀公园,颗粒物(PM10),92,134,196,39,52,128,19,108,99,84,41,4,4,0.9,0.4
2022-04-08T22:00:00,1957A,86.1972,41.7166,巴音郭楞州,棉纺厂,颗粒物(PM10),87,124,202,37,68,113,30,100,93,81,32,3,3,0.9,0.4
2022-04-08T22:00:00,1958A,86.2357,41.7173,巴音郭楞州,经济开发区,颗粒物(PM10),96,141,228,44,59,117,24,103,95,64,27,2,3,0.5,0.4
2022-04-08T22:00:00,1961A,117.532,36.6868,济南市,东山小学,颗粒物(PM10),86,122,128,34,68,136,130,133,132,10,12,12,11,0.4,0.6
2022-04-08T22:00:00,1966A,120.0405,35.8735,青岛市,黄岛区4号,,41,41,26,27,22,140,104,135,106,24,16,6,5,0.4,0.6
2022-04-08T22:00:00,1982A,122.0693,37.2174,威海市,文登开发区,,,51,50,27,29,174,100,155,127,17,13,4,4,,0
2022-04-08T22:00:00,2031A,113.1817,27.9958,株洲市,云田中学,颗粒物(PM10),80,110,70,49,31,174,32,166,128,50,19,6,8,0.7,0.3
2022-04-08T22:00:00,2054A,114.1099,32.1059,信阳市,平桥分局,颗粒物(PM10),56,61,72,29,37,181,153,172,166,13,17,11,10,0.5,0.6
2022-04-08T22:00:00,2064A,113.9956,32.1271,信阳市,南湾水厂,颗粒物(PM10),61,72,86,27,30,186,161,180,174,10,15,10,11,0.4,0.5
2022-04-08T22:00:00,2065A,114.0775,32.1195,信阳市,市酿酒公司,颗粒物(PM10),53,56,78,25,30,174,144,169,163,15,18,9,10,0.5,0.6
2022-04-08T22:00:00,2066A,114.0609,32.1399,信阳市,审计局,颗粒物(PM10),51,51,90,26,44,170,142,164,157,11,20,9,10,0.3,0.5
2022-04-08T22:00:00,2067A,114.6613,33.6128,周口市,市环境监测站,细颗粒物(PM2.5),82,76,118,60,48,181,133,164,153,10,13,9,12,0.6,0.8
2022-04-08T22:00:00,2068A,114.6758,33.6347,周口市,周口师范,颗粒物(PM10),67,83,120,17,39,171,125,158,147,12,13,10,16,0.5,0.7
2022-04-08T22:00:00,2069A,114.6546,33.5979,周口市,市运管处,颗粒物(PM10),61,72,116,14,42,172,124,156,145,15,16,6,10,0.4,0.7
2022-04-08T22:00:00,2070A,114.6369,33.6406,周口市,川汇区环保局,颗粒物(PM10),65,80,106,18,52,171,138,160,154,10,11,5,8,0.4,0.6
2022-04-08T22:00:00,2075A,117.6336,24.4674,漳州市,九湖(对照点),颗粒物(PM10),56,62,68,23,30,180,86,159,127,18,24,9,10,0.4,0.5
2022-04-08T22:00:00,2160A,112.85,35.5051,晋城市,自来水公司,颗粒物(PM10),88,125,137,39,56,192,100,185,173,54,38,10,11,1.1,1.2
2022-04-08T22:00:00,2161A,112.8318,35.4936,晋城市,白云商贸,颗粒物(PM10),87,123,128,44,57,184,89,174,161,52,30,6,7,1.1,1.2
2022-04-08T22:00:00,2162A,112.8508,35.4887,晋城市,市环保局,颗粒物(PM10),83,116,131,44,56,192,81,185,171,68,40,11,11,1.2,1.1
2022-04-08T22:00:00,2163A,112.8676,35.4897,晋城市,技术学院,颗粒物(PM10),75,99,122,36,58,177,116,169,158,36,35,7,8,0.7,1
2022-04-08T22:00:00,2165A,112.8453,35.546,晋城市,白马寺 (对照点),颗粒物(PM10),74,98,130,36,56,175,165,165,165,14,20,8,8,0.7,1.1
2022-04-08T22:00:00,2166A,112.4397,39.3522,朔州市,平朔,颗粒物(PM10),81,112,98,28,30,128,93,122,112,12,30,7,10,0.4,0.6
2022-04-08T22:00:00,2167A,112.4575,39.3617,朔州市,朔唯,颗粒物(PM10),93,136,118,29,29,134,83,126,114,24,33,5,8,0.3,0.4
2022-04-08T22:00:00,2168A,112.4258,39.3197,朔州市,区政府,颗粒物(PM10),79,108,78,19,18,131,98,124,116,11,16,8,9,0.7,0.6
2022-04-08T22:00:00,2169A,112.4072,39.3278,朔州市,市环保局,颗粒物(PM10),78,105,107,24,22,117,88,111,101,11,19,6,8,0.3,0.3
2022-04-08T22:00:00,2170A,112.4272,39.3681,朔州市,市二中,颗粒物(PM10),81,111,89,32,27,136,96,129,119,14,25,8,8,0.3,0.4
2022-04-08T22:00:00,2171A,112.7532,37.6945,晋中市,锦纶小区,颗粒物(PM10),92,134,100,45,40,178,94,164,146,30,25,12,8,0.7,0.5
2022-04-08T22:00:00,2173A,112.7249,37.7067,晋中市,南都小区,颗粒物(PM10),88,126,116,48,43,180,92,167,148,31,37,19,14,0.6,0.6
2022-04-08T22:00:00,2174A,112.6991,37.6982,晋中市,榆次区政府,颗粒物(PM10),87,123,102,52,44,180,100,168,152,28,32,28,15,2.9,2.9
2022-04-08T22:00:00,2175A,110.9956,35.0147,运城市,运城中学,颗粒物(PM10),76,102,111,48,48,183,77,169,147,46,19,8,24,0.8,0.6
2022-04-08T22:00:00,2178A,110.9686,35.0303,运城市,地区技校,颗粒物(PM10),76,102,106,43,37,173,48,162,137,68,22,9,12,1.0,0.7
2022-04-08T22:00:00,2179A,111.0414,35.1147,运城市,空港新区,颗粒物(PM10),83,115,120,49,52,163,84,155,134,36,27,10,11,0.7,0.9
2022-04-08T22:00:00,2181A,112.7383,38.4519,忻州市,开发区,颗粒物(PM10),63,76,80,32,23,142,84,120,111,14,25,22,20,0.4,0.5
2022-04-08T22:00:00,2182A,112.7003,38.4928,忻州市,会展中心,颗粒物(PM10),59,67,74,2,24,141,82,118,109,22,34,5,14,0.2,0.5
2022-04-08T22:00:00,2183A,111.1406,37.5211,吕梁市,环保局,颗粒物(PM10),102,153,85,28,19,136,2,120,80,84,45,7,8,0.3,0.4
2022-04-08T22:00:00,2185A,111.1297,37.5136,吕梁市,自来水公司,颗粒物(PM10),100,150,108,29,18,133,13,118,83,75,42,3,5,0.5,0.3
2022-04-08T22:00:00,2187A,106.8174,39.6973,乌海市,市林业局,颗粒物(PM10),58,65,126,27,38,118,65,112,105,34,42,7,50,0.5,0.9
2022-04-08T22:00:00,2188A,106.7907,39.6667,乌海市,中海勃湾学校,颗粒物(PM10),52,53,109,25,38,128,83,123,118,32,42,11,37,0.6,0.8
2022-04-08T22:00:00,2191A,122.2532,43.6801,通辽市,艺术职业学校,细颗粒物(PM2.5),85,59,130,63,48,166,91,144,136,11,22,5,14,0.4,0.7
2022-04-08T22:00:00,2192A,119.7594,49.2261,呼伦贝尔市,区环保局,,36,28,30,25,17,107,70,104,96,18,8,5,5,0.5,0.6
2022-04-08T22:00:00,2195A,107.4212,40.761,巴彦淖尔市,附二中,颗粒物(PM10),92,134,96,38,23,121,46,111,93,40,13,6,4,0.6,0.4
2022-04-08T22:00:00,2196A,107.37,40.7372,巴彦淖尔市,市环保大楼,颗粒物(PM10),98,145,80,68,25,126,70,115,100,17,12,4,3,0.2,0.2
2022-04-08T22:00:00,2197A,113.1306,40.9923,乌兰察布市,集宁新区,颗粒物(PM10),62,74,51,31,21,127,98,121,117,8,17,8,11,0.2,0.2
2022-04-08T22:00:00,2200A,122.0392,46.0656,兴安盟,胜华新制药厂,,32,32,53,17,30,98,88,92,92,5,10,3,4,0.1,0.3
2022-04-08T22:00:00,2201A,121.9504,46.0741,兴安盟,科右前旗环保局,,29,21,46,19,30,92,92,88,88,6,11,3,4,0.2,0.3
2022-04-08T22:00:00,2202A,116.1042,43.9317,锡林郭勒盟,市环保监测站,,29,29,36,14,8,86,72,81,76,4,5,8,9,0.6,0.3
2022-04-08T22:00:00,2203A,116.0781,43.9311,锡林郭勒盟,市政府,,32,32,33,14,10,80,62,76,72,9,6,6,7,0.4,0.4
2022-04-08T22:00:00,2204A,105.6467,38.8363,阿拉善盟,西城区西花园(对照点),颗粒物(PM10),104,157,96,51,32,120,72,112,104,30,8,5,6,0.5,0.3
2022-04-08T22:00:00,2205A,105.6985,38.8411,阿拉善盟,蒙二幼,颗粒物(PM10),89,128,91,41,28,121,81,113,107,16,7,6,6,0.4,0.3
2022-04-08T22:00:00,2206A,105.724,38.8516,阿拉善盟,环保局新楼,颗粒物(PM10),78,106,72,44,31,118,107,111,110,10,7,7,7,0.3,0.3
2022-04-08T22:00:00,2207A,121.6094,41.998,阜新市,工业园区,细颗粒物(PM2.5),140,179,153,107,72,190,171,183,183,22,25,20,21,1.2,0.9
2022-04-08T22:00:00,2208A,121.6697,42.0279,阜新市,长青街,细颗粒物(PM2.5),178,204,140,134,80,178,168,174,174,18,21,23,26,1.1,1.3
2022-04-08T22:00:00,2209A,121.6673,42.0705,阜新市,农业园区,细颗粒物(PM2.5),193,176,130,145,79,179,160,172,172,19,20,19,19,1.1,0.8
2022-04-08T22:00:00,2210A,121.6717,42.0224,阜新市,东苑,细颗粒物(PM2.5),130,184,149,99,67,182,174,176,176,20,24,24,33,1.2,1
2022-04-08T22:00:00,2211A,121.6506,42.0498,阜新市,玉龙新城,细颗粒物(PM2.5),143,145,117,109,67,180,159,174,174,15,18,20,21,,0.6
2022-04-08T22:00:00,2212A,123.2,41.1953,辽阳市,宏伟区,细颗粒物(PM2.5),62,54,69,44,40,165,111,143,130,12,14,8,9,0.6,0.6
2022-04-08T22:00:00,2213A,123.1683,41.2495,辽阳市,新华园,细颗粒物(PM2.5),79,60,97,58,58,166,120,150,130,12,20,5,7,0.4,0.6
2022-04-08T22:00:00,2214A,123.2354,41.2639,辽阳市,滨河路,细颗粒物(PM2.5),89,70,90,66,54,168,120,142,124,11,19,6,15,0.5,0.5
2022-04-08T22:00:00,2215A,123.149,41.2991,辽阳市,铁西工业园,细颗粒物(PM2.5),77,65,116,56,60,168,125,155,135,10,21,11,14,0.4,0.6
2022-04-08T22:00:00,2216A,123.8139,42.3022,铁岭市,汇工街西,颗粒物(PM10),69,88,229,47,55,170,128,154,145,18,21,16,16,0.8,0.8
2022-04-08T22:00:00,2217A,123.8649,42.2923,铁岭市,水上乐园,细颗粒物(PM2.5),60,60,132,43,50,188,136,178,156,16,18,11,11,0.5,0.5
2022-04-08T22:00:00,2218A,123.8486,42.2867,铁岭市,银州路东段,颗粒物(PM10),74,97,233,50,49,182,130,168,150,89,51,10,11,0.7,0.7
2022-04-08T22:00:00,2219A,123.7153,42.2217,铁岭市,金沙江路北,颗粒物(PM10),78,105,206,48,52,152,100,136,126,36,27,12,14,1.2,1
2022-04-08T22:00:00,2220A,120.4318,41.5881,朝阳市,西梁,细颗粒物(PM2.5),147,152,103,112,46,161,161,154,154,26,22,19,15,1.6,1
2022-04-08T22:00:00,2221A,120.4521,41.5646,朝阳市,河畔小区,细颗粒物(PM2.5),130,143,90,99,42,167,167,158,158,14,12,12,10,1.2,0.8
2022-04-08T22:00:00,2222A,120.4176,41.5648,朝阳市,八里堡,细颗粒物(PM2.5),113,160,102,85,40,157,146,150,150,46,27,27,18,1.9,1.2
2022-04-08T22:00:00,2223A,120.3806,41.5969,朝阳市,农业园区,细颗粒物(PM2.5),144,137,85,110,47,187,173,174,174,16,16,16,12,1.2,0.8
2022-04-08T22:00:00,2225A,124.4002,43.1713,四平市,一商场,颗粒物(PM10),94,137,232,48,47,171,113,163,149,9,11,13,12,0.4,0.5
2022-04-08T22:00:00,2226A,124.388,43.193,四平市,境园,颗粒物(PM10),124,197,235,39,45,182,118,173,159,6,10,10,11,0.4,0.5
2022-04-08T22:00:00,2227A,125.1358,42.8845,辽源市,环保局,颗粒物(PM10),53,56,159,34,104,185,140,174,164,6,25,6,12,0.6,0.9
2022-04-08T22:00:00,2229A,125.9358,41.7173,通化市,光明,,48,42,59,18,24,165,151,156,156,5,12,11,17,0.5,0.7
2022-04-08T22:00:00,2230A,125.9446,41.7325,通化市,铁路,,43,43,54,25,25,139,131,134,134,7,16,10,18,0.5,0.8
2022-04-08T22:00:00,2231A,126.4219,41.9171,白山市,喜丰,颗粒物(PM10),58,66,84,14,19,157,131,146,145,10,17,10,17,1.1,1
2022-04-08T22:00:00,2232A,126.4077,41.9419,白山市,环保局,颗粒物(PM10),51,51,55,22,20,4,4,4,4,15,15,12,29,2.3,2.3
2022-04-08T22:00:00,2233A,124.8006,45.1214,松原市,江南,颗粒物(PM10),161,271,128,42,31,129,124,120,120,15,13,4,4,0.5,0.4
2022-04-08T22:00:00,2234A,124.7965,45.1722,松原市,江北,颗粒物(PM10),124,198,115,48,32,134,120,120,120,14,13,2,3,0.7,0.5
2022-04-08T22:00:00,2236A,122.8738,45.5725,白城市,市环保局,颗粒物(PM10),55,59,97,37,54,94,68,76,70,19,20,5,7,0.7,0.4
2022-04-08T22:00:00,2237A,129.47,42.8883,延边朝鲜族自治州,妇幼医院,细颗粒物(PM2.5),62,58,35,44,20,118,79,109,106,40,15,10,9,0.8,0.5
2022-04-08T22:00:00,2238A,129.5055,42.9108,延边朝鲜族自治州,延边医院,颗粒物(PM10),66,82,39,45,23,118,60,110,97,36,20,14,11,0.8,0.6
2022-04-08T22:00:00,2239A,129.3964,42.8881,延边朝鲜族自治州,朝阳川镇医院,颗粒物(PM10),55,60,35,36,19,123,118,113,113,11,11,9,7,0.6,0.5
2022-04-08T22:00:00,2240A,130.9762,45.3001,鸡西市,环保局,颗粒物(PM10),88,126,47,39,19,142,59,94,76,54,30,6,5,0.7,0.3
2022-04-08T22:00:00,2243A,130.9429,45.3039,鸡西市,第一中学,颗粒物(PM10),134,218,64,42,20,113,109,106,106,20,18,9,6,0.4,0.2
2022-04-08T22:00:00,2244A,130.2537,47.3416,鹤岗市,哈啤分公司,颗粒物(PM10),55,59,56,34,27,120,43,92,62,22,21,11,16,0.6,0.4
2022-04-08T22:00:00,2245A,130.2684,47.3086,鹤岗市,斯达机电,颗粒物(PM10),52,54,59,35,27,80,59,70,58,16,22,8,10,0.4,0.5
2022-04-08T22:00:00,2246A,130.3114,47.3388,鹤岗市,东山纸板厂,颗粒物(PM10),77,104,74,40,25,83,25,83,50,38,22,11,13,0.5,0.4
2022-04-08T22:00:00,2248A,131.1511,46.6937,双鸭山市,双合村,,,,47,44,26,85,18,83,40,34,19,8,11,0.4,0.4
2022-04-08T22:00:00,2249A,131.1652,46.6191,双鸭山市,南小市,细颗粒物(PM2.5),80,105,53,59,28,92,23,89,49,33,16,3,4,0.8,0.5
2022-04-08T22:00:00,2250A,131.1524,46.6554,双鸭山市,环保局,颗粒物(PM10),76,102,44,51,23,96,10,89,45,54,20,8,8,0.8,0.6
2022-04-08T22:00:00,2251A,131.12,46.5656,双鸭山市,苗圃(对照点),,,71,33,59,27,106,,103,68,27,11,3,2,0.7,0.5
2022-04-08T22:00:00,2252A,128.5159,47.4311,伊春市,环保局,颗粒物(PM10),55,60,44,35,26,96,62,91,82,17,12,5,6,0.6,0.5
2022-04-08T22:00:00,2253A,128.9102,47.7412,伊春市,电力嘉园,颗粒物(PM10),59,68,41,34,20,98,49,92,80,17,10,5,6,0.7,0.6
2022-04-08T22:00:00,2254A,129.5029,48.471,伊春市,汤旺河国家公园(对照点),,43,32,24,30,21,100,16,97,43,9,18,5,6,0.4,0.4
2022-04-08T22:00:00,2255A,130.2751,46.8028,佳木斯市,佳纺,颗粒物(PM10),62,73,59,43,36,95,38,85,48,11,12,2,3,0.4,0.4
2022-04-08T22:00:00,2256A,130.3995,46.8307,佳木斯市,发电厂,,42,38,37,29,31,94,42,80,54,3,8,3,3,0.4,0.4
2022-04-08T22:00:00,2257A,130.3258,46.7975,佳木斯市,环保局,颗粒物(PM10),55,59,50,30,34,98,39,90,49,12,13,4,5,0.5,0.5
2022-04-08T22:00:00,2258A,130.3648,46.8032,佳木斯市,十一中,,43,43,39,27,33,93,46,84,56,12,15,7,7,0.5,0.5
2022-04-08T22:00:00,2259A,130.3794,46.7588,佳木斯市,四丰(对照点),细颗粒物(PM2.5),63,63,45,45,32,95,22,85,38,23,14,4,4,0.5,0.4
2022-04-08T22:00:00,2262A,131.0518,45.8751,七台河市,新一中(对照点),颗粒物(PM10),76,102,62,48,35,117,73,107,98,15,15,10,10,0.8,0.7
2022-04-08T22:00:00,2263A,127.4833,50.2524,黑河市,交通局,,43,37,24,30,21,79,37,71,60,20,10,7,5,0.5,0.3
2022-04-08T22:00:00,2264A,127.5144,50.2341,黑河市,环保局,,38,35,27,26,24,86,54,80,74,18,9,6,5,0.4,0.2
2022-04-08T22:00:00,2265A,127.5291,50.2472,黑河市,大黑河岛(对照点),颗粒物(PM10),51,51,28,30,20,84,42,78,68,26,11,5,4,0.7,0.5
2022-04-08T22:00:00,2266A,126.9785,46.6365,绥化市,人和东街,细颗粒物(PM2.5),110,142,87,83,50,99,76,93,84,20,15,9,8,0.6,0.7
2022-04-08T22:00:00,2267A,126.964,46.6528,绥化市,党政办公中心,颗粒物(PM10),84,118,89,58,46,95,75,89,85,17,15,6,6,0.6,0.5
2022-04-08T22:00:00,2269A,124.1069,50.4097,大兴安岭地区,科技局,,25,17,13,17,10,88,57,82,73,6,6,4,4,0.4,0.3
2022-04-08T22:00:00,2270A,117.396,32.939,蚌埠市,工人疗养院,颗粒物(PM10),58,65,108,27,52,158,118,152,142,16,25,9,7,0.4,0.5
2022-04-08T22:00:00,2271A,117.3605,32.9427,蚌埠市,百货大楼,颗粒物(PM10),76,102,134,12,49,160,114,153,141,23,38,14,8,0.6,0.6
2022-04-08T22:00:00,2273A,117.4185,32.8911,蚌埠市,蚌埠学院,颗粒物(PM10),68,85,97,29,49,170,127,158,143,16,23,7,9,0.4,0.6
2022-04-08T22:00:00,2274A,117.3533,32.9673,蚌埠市,淮上区政府,颗粒物(PM10),67,83,100,24,50,158,110,149,136,20,24,15,10,0.4,0.5
2022-04-08T22:00:00,2275A,117.3145,32.8977,蚌埠市,高新区,颗粒物(PM10),70,90,100,22,53,148,110,144,132,20,23,13,9,0.4,0.5
2022-04-08T22:00:00,2277A,116.8305,32.7727,淮南市,潘集区政府,颗粒物(PM10),62,74,91,33,56,145,113,138,128,12,11,4,5,0.3,0.4
2022-04-08T22:00:00,2278A,117.0067,32.6524,淮南市,师范学院,颗粒物(PM10),62,73,84,34,52,152,127,146,139,8,8,8,9,0.3,0.4
2022-04-08T22:00:00,2279A,116.8569,32.5951,淮南市,谢家集区政府,颗粒物(PM10),55,59,94,19,46,148,100,139,128,16,15,6,9,0.1,0.3
2022-04-08T22:00:00,2280A,116.8281,32.633,淮南市,八公山区政府,颗粒物(PM10),60,70,86,23,48,136,102,132,122,12,11,2,4,0.2,0.3
2022-04-08T22:00:00,2281A,116.6325,32.6201,淮南市,焦岗湖风景区管理处(对照点),颗粒物(PM10),58,66,73,30,44,138,101,132,122,2,3,6,6,0.2,0.3
2022-04-08T22:00:00,2282A,116.8004,33.975,淮北市,监测站,颗粒物(PM10),62,74,98,17,40,137,102,132,123,12,14,4,4,0.4,0.7
2022-04-08T22:00:00,2283A,116.8091,33.9007,淮北市,烈山区政府,颗粒物(PM10),64,78,141,29,70,144,103,136,127,21,21,5,6,0.4,0.7
2022-04-08T22:00:00,2284A,116.7856,33.9477,淮北市,职业技术学院,颗粒物(PM10),67,83,96,17,40,125,97,120,115,11,17,5,5,0.5,0.8
2022-04-08T22:00:00,2285A,117.8177,30.9412,铜陵市,市第四中学,颗粒物(PM10),56,61,76,29,33,181,84,156,136,51,40,23,18,0.9,0.9
2022-04-08T22:00:00,2286A,117.8059,30.9273,铜陵市,市公路局,颗粒物(PM10),60,69,99,14,25,171,111,145,132,26,35,13,20,0.4,0.8
2022-04-08T22:00:00,2287A,117.7807,30.9413,铜陵市,市新民污水厂,二氧化氮,63,64,71,30,34,168,7,146,111,126,59,13,18,0.4,0.8
2022-04-08T22:00:00,2288A,117.7439,30.8792,铜陵市,市第九中学,颗粒物(PM10),74,97,94,36,37,135,35,114,88,97,67,11,9,0.6,0.9
2022-04-08T22:00:00,2289A,117.846,30.9413,铜陵市,车站新区,颗粒物(PM10),51,52,77,28,25,157,105,141,132,21,24,4,9,0.4,0.8
2022-04-08T22:00:00,2290A,117.8483,30.97,铜陵市,市职教基地,颗粒物(PM10),64,77,71,22,36,161,92,148,132,32,32,18,15,1.1,1
2022-04-08T22:00:00,2291A,117.0809,30.5177,安庆市,环科院,颗粒物(PM10),61,71,70,19,19,141,69,132,112,50,52,7,8,0.5,0.6
2022-04-08T22:00:00,2292A,117.0331,30.5119,安庆市,马山宾馆,颗粒物(PM10),64,78,68,15,16,141,55,128,114,62,51,7,8,0.6,0.6
2022-04-08T22:00:00,2294A,116.9896,30.6145,安庆市,安庆大学,颗粒物(PM10),63,75,65,30,31,151,80,140,108,24,28,9,6,0.7,0.6
2022-04-08T22:00:00,2295A,118.2903,29.6963,黄山市,延安路89号,细颗粒物(PM2.5),62,56,48,44,29,155,73,146,127,17,10,12,11,0.6,0.5
2022-04-08T22:00:00,2296A,118.327,29.7178,黄山市,黄山东路89号,,,,45,,26,144,55,137,108,24,11,4,9,,0.4
2022-04-08T22:00:00,2297A,118.1371,30.2756,黄山市,黄山区政府5号楼,颗粒物(PM10),66,82,54,41,25,152,37,140,106,16,9,9,9,0.6,0.3
2022-04-08T22:00:00,2298A,118.3093,32.3153,滁州市,老年大学,颗粒物(PM10),65,79,93,23,41,174,119,162,141,23,23,13,13,0.4,0.5
2022-04-08T22:00:00,2299A,118.3244,32.2786,滁州市,人大宾馆,颗粒物(PM10),72,93,100,29,52,177,88,158,130,46,37,9,10,0.5,0.6
2022-04-08T22:00:00,2301A,115.8277,32.8929,阜阳市,市监测站,颗粒物(PM10),59,67,82,27,46,160,158,155,155,14,11,8,8,0.4,0.5
2022-04-08T22:00:00,2303A,115.8554,32.8605,阜阳市,开发区,颗粒物(PM10),64,77,87,24,56,155,122,146,143,13,10,6,6,0.3,0.4
2022-04-08T22:00:00,2307A,116.5079,31.737,六安市,监测大楼,颗粒物(PM10),55,60,64,20,32,146,133,140,138,8,10,10,6,0.2,0.3
2022-04-08T22:00:00,2308A,116.4738,31.7643,六安市,皖西学院,颗粒物(PM10),53,55,69,16,29,148,137,144,141,7,10,8,7,0.2,0.3
2022-04-08T22:00:00,2309A,116.4996,31.7905,六安市,朝阳厂,颗粒物(PM10),52,53,70,16,33,140,132,137,134,10,16,8,7,0.3,0.4
2022-04-08T22:00:00,2310A,116.5567,31.7886,六安市,开发区,颗粒物(PM10),59,68,82,29,41,147,119,143,135,17,18,7,9,0.3,0.4
2022-04-08T22:00:00,2311A,115.8072,33.8399,亳州市,污水处理厂,颗粒物(PM10),63,76,116,25,54,170,135,158,155,10,11,6,6,0.4,0.5
2022-04-08T22:00:00,2312A,115.7789,33.8518,亳州市,三国揽胜宫,颗粒物(PM10),60,70,82,30,59,176,148,164,162,14,12,7,6,0.5,0.6
2022-04-08T22:00:00,2314A,117.47,30.6618,池州市,池州学院,颗粒物(PM10),59,68,65,32,31,153,98,143,132,30,25,6,6,0.5,0.7
2022-04-08T22:00:00,2316A,118.7581,30.9454,宣城市,鳌峰子站,颗粒物(PM10),73,95,74,39,32,134,79,128,119,40,21,8,10,0.5,0.5
2022-04-08T22:00:00,2317A,118.7385,30.9743,宣城市,敬亭山子站,颗粒物(PM10),59,68,64,34,29,138,121,128,124,19,18,5,7,0.4,0.5
2022-04-08T22:00:00,2318A,118.7173,30.9427,宣城市,开发区子站,颗粒物(PM10),70,89,73,36,30,134,85,126,117,57,28,9,7,0.6,0.6
2022-04-08T22:00:00,2319A,119.0141,25.4325,莆田市,荔城区仓后路,,29,24,36,12,14,131,90,124,105,10,8,3,4,0.5,0.4
2022-04-08T22:00:00,2320A,119.0015,25.4553,莆田市,莆田市监测站,,31,28,34,15,16,133,98,121,108,4,4,4,5,0.4,0.4
2022-04-08T22:00:00,2321A,119.1119,25.4561,莆田市,涵江区六中,,30,28,39,15,15,130,93,122,104,5,5,6,6,0.4,0.3
2022-04-08T22:00:00,2322A,119.1013,25.3215,莆田市,秀屿区政府,,29,25,43,13,16,117,92,109,96,9,14,5,6,0.4,0.5
2022-04-08T22:00:00,2323A,118.981,25.4792,莆田市,东圳水库(对照点),,27,16,27,12,14,138,84,128,113,5,4,7,6,0.2,0.2
2022-04-08T22:00:00,2324A,117.6211,26.2625,三明市,三钢,颗粒物(PM10),55,60,48,28,27,144,34,133,95,58,26,3,4,0.8,0.6
2022-04-08T22:00:00,2325A,117.635,26.2714,三明市,三明二中,,38,33,43,26,24,145,67,134,107,27,19,6,7,0.7,0.6
2022-04-08T22:00:00,2326A,117.6028,26.2378,三明市,三元区政府,颗粒物(PM10),63,76,59,33,28,145,34,132,94,58,28,5,6,0.7,0.9
2022-04-08T22:00:00,2327A,117.7275,26.3108,三明市,洋溪(对照点),,43,42,44,16,20,155,137,143,134,5,8,5,6,0.4,0.5
2022-04-08T22:00:00,2331A,118.0966,26.6761,南平市,茫荡山(对照点),,40,36,36,18,17,129,125,126,122,4,4,6,5,0.5,0.5
2022-04-08T22:00:00,2332A,118.1681,26.6369,南平市,南平市监测站,颗粒物(PM10),53,56,43,24,24,154,58,147,122,36,14,10,8,1.1,0.6
2022-04-08T22:00:00,2333A,118.1825,26.6489,南平市,南平铝业有限公司,,42,42,44,26,22,153,78,146,123,24,12,14,9,0.6,0.6
2022-04-08T22:00:00,2334A,118.1756,26.6272,南平市,南平七中,,50,50,43,28,24,153,85,148,128,18,12,9,5,0.6,0.5
2022-04-08T22:00:00,2335A,117.0189,25.1181,龙岩市,龙岩师专(对照点),颗粒物(PM10),58,65,52,32,29,146,59,141,106,36,20,11,9,0.4,0.3
2022-04-08T22:00:00,2336A,117.0217,25.1033,龙岩市,龙岩市监测站,颗粒物(PM10),59,67,56,27,27,147,67,142,114,38,24,8,9,0.3,0.3
2022-04-08T22:00:00,2337A,117.0258,25.0661,龙岩市,闽西职业技术学院,颗粒物(PM10),66,82,59,25,24,146,62,142,117,63,33,13,11,0.4,0.4
2022-04-08T22:00:00,2338A,117.0196,25.0306,龙岩市,龙岩学院,,42,42,49,27,24,142,104,138,127,21,17,8,6,0.3,0.3
2022-04-08T22:00:00,2339A,119.5001,26.6946,宁德市,金涵水库(对照点),,43,43,38,15,18,124,59,107,83,15,13,7,8,0.3,0.4
2022-04-08T22:00:00,2341A,119.5388,26.6612,宁德市,宁德市监测站,,27,27,34,14,15,113,67,95,80,9,11,7,9,0.5,0.5
2022-04-08T22:00:00,2342A,117.3102,29.3867,景德镇市,王港中学(对照点),,,77,43,31,23,149,,148,148,17,7,4,4,0.5,0.5
2022-04-08T22:00:00,2343A,117.2117,29.2933,景德镇市,老干部活动中心,颗粒物(PM10),68,85,73,38,29,143,64,139,109,30,26,6,8,0.7,0.7
2022-04-08T22:00:00,2344A,117.1894,29.2789,景德镇市,兽医站,细颗粒物(PM2.5),90,109,65,67,33,148,67,137,103,47,34,26,12,0.6,0.5
2022-04-08T22:00:00,2345A,117.1547,29.2617,景德镇市,台达陶瓷,颗粒物(PM10),88,125,84,51,32,136,6,128,94,116,41,110,22,0.5,0.5
2022-04-08T22:00:00,2346A,117.2461,29.2956,景德镇市,陶研所,颗粒物(PM10),54,58,62,31,24,146,36,137,104,36,21,7,7,0.4,0.4
2022-04-08T22:00:00,2347A,114.0997,27.5002,萍乡市,武功山(对照点),,32,23,27,16,13,161,101,140,131,4,7,8,8,0.6,0.6
2022-04-08T22:00:00,2348A,113.8385,27.6434,萍乡市,中医院,颗粒物(PM10),70,90,58,37,30,144,21,138,100,78,40,7,11,1.2,1
2022-04-08T22:00:00,2349A,113.8493,27.6253,萍乡市,市政府车库,,,87,71,34,25,148,,142,132,59,34,6,15,1.1,1.7
2022-04-08T22:00:00,2350A,113.8676,27.6435,萍乡市,市环保局,"颗粒物(PM10),细颗粒物(PM2.5)",60,70,59,43,35,154,67,147,126,40,32,11,21,0.9,1.3
2022-04-08T22:00:00,2351A,113.866,27.6198,萍乡市,安源区政府,细颗粒物(PM2.5),60,63,63,43,28,152,60,143,121,36,29,16,21,0.8,1.8
