timepoint,stationcode,longitude,latitude,area,positionname,primarypollutant,aqi,pm10,pm10_24h,pm2_5,pm2_5_24h,o3,o3_24h,o3_8h,o3_8h_24h,no2,no2_24h,so2,so2_24h,co,co_24h
2025-11-05T1000,2566A,102.1879,31.914,阿坝藏族羌族自治州,州农科所,,,,,,,,,,,,,,,,
2025-11-05T1000,2568A,102.2502,31.8896,阿坝藏族羌族自治州,马师校,,12,11,14,8,13,11,,7,7,6,11,8,7,0.6,0.6
2025-11-05T1000,3994A,102.2165,31.9024,阿坝藏族羌族自治州,马尔康中学西区,,8,6,12,3,10,13,,9,9,6,10,4,5,0.5,0.5
2025-11-05T1000,2695A,80.292,41.1694,阿克苏地区,电视台,颗粒物(PM10),63,76,206,30,64,36,,9,9,32,50,7,8,0.5,1.3
2025-11-05T1000,2696A,80.2613,41.1551,阿克苏地区,艺术中心,颗粒物(PM10),77,103,166,38,64,27,,13,13,39,54,5,4,0.8,1
2025-11-05T1000,2204A,105.6467,38.8363,阿拉善盟,西城区西花园,,,,,,,,,,,,,,,,
2025-11-05T1000,2205A,105.6985,38.8411,阿拉善盟,蒙二幼,,,74,41,26,23,,,71,65,15,12,11,10,0.8,0.7
2025-11-05T1000,2206A,105.724,38.8516,阿拉善盟,环保局新楼,,38,38,33,22,21,86,,86,85,11,9,12,10,0.8,0.6
2025-11-05T1000,2708A,88.1264,47.8517,阿勒泰地区,市站,,39,39,62,6,14,31,,72,58,24,29,3,11,0.4,0.4
2025-11-05T1000,2630A,80.1161,32.5,阿里地区,阿里监测站,,38,6,3,3,3,121,,104,104,2,3,7,7,0.3,0.3
2025-11-05T1000,3192A,80.0903,32.5028,阿里地区,阿里藏医院,,40,18,35,6,7,125,,109,109,1,3,7,8,0.4,0.3
2025-11-05T1000,2642A,109.0318,32.6537,安康市,香溪洞,,,,,,,,,,,,,,,,
2025-11-05T1000,2644A,109.0072,32.6975,安康市,汉滨区检察院,,42,42,52,28,30,5,,4,3,17,23,2,2,0.6,0.6
2025-11-05T1000,4054A,109.0325,32.6913,安康市,市邮政管理局,,50,50,52,28,28,5,,5,5,19,23,4,4,0.8,0.7
2025-11-05T1000,2291A,117.0809,30.5177,安庆市,环科院,细颗粒物(PM2.5),99,88,77,74,60,39,,16,16,28,29,7,6,0.6,0.6
2025-11-05T1000,2292A,117.0331,30.5119,安庆市,马山宾馆,细颗粒物(PM2.5),94,92,78,70,63,42,,14,14,30,36,7,7,0.5,0.6
2025-11-05T1000,2294A,116.9896,30.6145,安庆市,安庆大学,细颗粒物(PM2.5),98,85,80,73,60,38,,14,14,20,30,6,6,0.6,0.6
2025-11-05T1000,3173A,117.0598,30.5351,安庆市,市人大,细颗粒物(PM2.5),99,93,79,74,64,44,,14,14,27,34,8,7,0.6,0.7
2025-11-05T1000,3122A,105.9606,26.2611,安顺市,伍家关,,,,24,10,14,44,,49,49,7,7,6,12,0.6,0.6
2025-11-05T1000,3123A,105.9408,26.2431,安顺市,凤凰山,,17,17,19,10,16,38,,47,45,11,9,12,15,0.4,0.4
2025-11-05T1000,3124A,105.9439,26.2564,安顺市,金钟山,,17,17,18,10,16,42,,52,50,9,6,12,15,0.4,0.4
2025-11-05T1000,3125A,105.8983,26.2481,安顺市,娄家坡,,15,13,19,10,16,40,,47,46,9,9,4,10,0.5,0.5
2025-11-05T1000,1818A,114.4839,36.0621,安阳市,棉研所,,,,,,,,,,,,,,,,
2025-11-05T1000,1819A,114.3551,36.1017,安阳市,红庙街,细颗粒物(PM2.5),105,100,131,79,91,39,,26,26,45,52,2,2,0.6,0.7
2025-11-05T1000,1820A,114.361,36.0681,安阳市,银杏小区,细颗粒物(PM2.5),112,102,134,84,96,30,,23,23,48,53,3,3,0.5,0.6
2025-11-05T1000,3141A,114.3922,36.0878,安阳市,信访局,细颗粒物(PM2.5),112,112,135,84,88,41,,35,35,41,48,4,3,0.4,0.4
2025-11-05T1000,3669A,114.4705,36.0637,安阳市,左辅环卫站,细颗粒物(PM2.5),123,158,206,93,89,32,,11,11,44,66,3,3,0.7,0.8
2025-11-05T1000,3703A,114.2917,36.0949,安阳市,安钢职工学校,细颗粒物(PM2.5),98,115,157,73,103,42,,8,8,33,46,3,4,0.6,0.8
2025-11-05T1000,1748A,123.044,41.1196,鞍山市,深沟寺,细颗粒物(PM2.5),74,83,92,54,64,84,,58,58,23,27,7,8,0.7,0.9
2025-11-05T1000,1749A,123.011,41.0931,鞍山市,太阳城,,,76,90,52,67,84,,72,72,,24,,11,0.6,0.7
2025-11-05T1000,1750A,123.0485,41.1442,鞍山市,太平,细颗粒物(PM2.5),72,88,103,52,61,72,,56,56,20,24,8,9,0.8,0.9
2025-11-05T1000,1751A,122.9642,41.0971,鞍山市,铁西三道街,细颗粒物(PM2.5),72,92,121,52,74,75,,59,59,27,35,14,11,0.7,0.9
2025-11-05T1000,1753A,123.022,41.0821,鞍山市,明达新区,细颗粒物(PM2.5),70,73,94,51,67,90,,79,79,11,16,12,11,0.6,0.8
2025-11-05T1000,1754A,123.1289,41.0228,鞍山市,千山,,,,48,,64,,,54,,,13,,4,,0.5
2025-11-05T1000,4201A,122.9446,41.0826,鞍山市,兴盛南路290号,颗粒物(PM10),70,89,119,49,71,83,,60,60,32,37,16,14,0.8,0.9
2025-11-05T1000,2195A,107.4212,40.761,巴彦淖尔市,附二中,,,,138,,72,,,16,15,,40,12,14,0.9,1
2025-11-05T1000,2196A,107.37,40.7372,巴彦淖尔市,市环保大楼,细颗粒物(PM2.5),63,64,111,45,60,37,,30,28,21,41,12,13,0.4,0.7
2025-11-05T1000,1956A,86.1472,41.7538,巴音郭楞蒙古自治州,孔雀公园,颗粒物(PM10),82,113,126,28,33,83,,95,94,17,11,9,9,0.5,0.4
2025-11-05T1000,1957A,86.1972,41.7166,巴音郭楞蒙古自治州,棉纺厂,颗粒物(PM10),79,108,143,32,36,83,,83,83,19,16,12,9,0.5,0.5
2025-11-05T1000,1958A,86.2357,41.7173,巴音郭楞蒙古自治州,经济开发区,颗粒物(PM10),67,84,121,22,31,82,,81,81,10,9,8,9,0.6,0.6
2025-11-05T1000,2914A,106.7677,31.8794,巴中市,苏山坪,,,,,,,,,,,,,,,,
2025-11-05T1000,3181A,106.7768,31.8526,巴中市,市五中,,45,45,47,21,28,7,,10,10,22,13,8,8,0.9,0.7
2025-11-05T1000,3183A,106.7418,31.8654,巴中市,圣泉水务公司,,26,23,25,18,22,3,,12,7,16,13,10,9,0.8,0.6
2025-11-05T1000,3616A,106.7616,31.8344,巴中市,市中心医院,,30,29,33,21,27,11,,8,8,21,18,11,10,0.6,0.6
2025-11-05T1000,2235A,122.7911,45.6077,白城市,洮北区环保局,细颗粒物(PM2.5),102,91,37,76,22,42,,32,32,22,19,6,7,0.6,0.3
2025-11-05T1000,2236A,122.8738,45.5725,白城市,市环保局,细颗粒物(PM2.5),115,112,37,87,25,38,,20,20,20,24,7,4,0.5,0.3
2025-11-05T1000,2231A,126.4219,41.9171,白山市,喜丰,,,,124,,42,13,,6,6,39,44,,20,1.4,1.3
2025-11-05T1000,2232A,126.4077,41.9419,白山市,环保局,细颗粒物(PM2.5),69,79,71,50,37,10,,4,4,33,35,22,10,1.1,1
2025-11-05T1000,2647A,104.1724,36.5446,白银市,第三小学,,33,33,37,11,23,10,,48,43,27,21,10,39,0.5,0.6
2025-11-05T1000,2648A,104.1465,36.5482,白银市,动力公司,,24,24,31,12,19,34,,58,56,21,20,12,37,0.5,0.6
2025-11-05T1000,2512A,106.6103,23.9011,百色市,市监测站,,31,31,9,12,2,25,,7,7,17,10,16,8,0.6,0.4
2025-11-05T1000,2513A,106.6538,23.8859,百色市,市中心血站,,32,32,17,13,7,35,,7,7,15,19,9,6,0.6,0.6
2025-11-05T1000,3406A,106.6085,23.8798,百色市,祈福高中,,16,16,18,8,5,18,,4,4,19,12,11,5,0.6,0.4
2025-11-05T1000,2270A,117.396,32.939,蚌埠市,工人疗养院,细颗粒物(PM2.5),79,98,88,58,48,35,,14,12,49,40,9,7,0.6,0.4
2025-11-05T1000,2271A,117.3605,32.9427,蚌埠市,百货大楼,细颗粒物(PM2.5),79,91,79,58,49,35,,14,10,48,42,12,9,0.7,0.6
2025-11-05T1000,2273A,117.4185,32.8911,蚌埠市,蚌埠学院,细颗粒物(PM2.5),80,78,74,59,46,50,,23,21,32,32,8,6,0.8,0.5
2025-11-05T1000,2274A,117.3533,32.9673,蚌埠市,淮上区政府,细颗粒物(PM2.5),97,100,87,72,56,31,,18,16,52,42,12,9,0.6,0.5
2025-11-05T1000,2275A,117.3145,32.8977,蚌埠市,高新区,细颗粒物(PM2.5),87,80,73,64,46,40,,18,18,38,34,10,7,0.8,0.5
2025-11-05T1000,3715A,117.3092,32.9314,蚌埠市,蚌埠田家炳中学,细颗粒物(PM2.5),82,88,78,60,49,51,,25,21,33,30,8,5,0.7,0.5
2025-11-05T1000,1585A,109.8756,40.6532,包头市,市环境监测站,颗粒物(PM10),71,91,89,42,41,8,,3,3,48,60,12,18,1.3,1.1
2025-11-05T1000,1587A,109.9991,40.5842,包头市,包头八中,细颗粒物(PM2.5),92,104,101,68,71,11,,5,5,49,62,36,27,1.4,1.2
2025-11-05T1000,1588A,109.8538,40.6821,包头市,青山宾馆,细颗粒物(PM2.5),80,68,84,59,63,8,,2,2,43,63,11,17,1.1,1.2
2025-11-05T1000,1589A,109.8642,40.6288,包头市,惠龙物流,细颗粒物(PM2.5),77,101,88,56,48,5,,4,4,58,61,15,20,1.9,1.1
2025-11-05T1000,1590A,110.0377,40.5546,包头市,东河鸿龙湾,细颗粒物(PM2.5),64,63,91,46,54,15,,5,5,48,70,14,24,0.8,1
2025-11-05T1000,3283A,109.9154,40.5685,包头市,滨河大厦,细颗粒物(PM2.5),60,65,77,43,47,14,,6,6,46,55,13,17,0.7,0.9
2025-11-05T1000,3419A,109.9447,40.6261,包头市,包头市委党校,,,82,80,39,42,7,,8,8,56,62,14,20,,1.2
2025-11-05T1000,3683A,109.8331,40.6576,包头市,昆区政府,,,76,90,59,66,,,3,3,44,62,,22,1.4,1.3
2025-11-05T1000,1930A,107.185,34.3063,宝鸡市,庙沟村,,,,,,,,,,,,,,,,
2025-11-05T1000,1931A,107.0708,34.3017,宝鸡市,竹园沟,细颗粒物(PM2.5),129,109,112,98,93,21,,20,18,38,31,8,8,0.7,0.7
2025-11-05T1000,1932A,107.1906,34.3672,宝鸡市,三陆医院,细颗粒物(PM2.5),175,161,160,132,133,4,,1,1,56,64,6,7,1.0,0.9
2025-11-05T1000,1933A,107.1431,34.3547,宝鸡市,监测站,细颗粒物(PM2.5),117,144,135,88,88,14,,18,15,37,35,6,6,0.7,0.7
2025-11-05T1000,1934A,107.1186,34.3739,宝鸡市,技工学校,细颗粒物(PM2.5),166,156,147,126,122,14,,20,17,34,36,6,7,1.1,0.9
2025-11-05T1000,1936A,107.2058,34.3497,宝鸡市,文理学院,细颗粒物(PM2.5),114,125,121,86,88,15,,17,14,38,41,6,6,1.0,0.9
2025-11-05T1000,1937A,107.2386,34.3622,宝鸡市,三迪小学,细颗粒物(PM2.5),168,159,144,127,121,,,8,7,63,60,6,7,1.1,1
2025-11-05T1000,4308A,107.3898,34.3601,宝鸡市,陈仓区北开路21号,细颗粒物(PM2.5),158,180,169,120,120,12,,10,8,53,48,7,7,0.9,0.8
2025-11-05T1000,1051A,115.493,38.8632,保定市,游泳馆,细颗粒物(PM2.5),115,127,128,87,95,18,,18,18,53,63,3,4,0.1,0.3
2025-11-05T1000,1052A,115.5213,38.8959,保定市,华电二区,细颗粒物(PM2.5),120,117,113,91,94,9,,3,3,48,55,2,4,0.6,0.7
2025-11-05T1000,1053A,115.4713,38.9108,保定市,接待中心,细颗粒物(PM2.5),127,111,120,96,94,14,,6,6,47,56,5,6,0.4,0.5
2025-11-05T1000,1054A,115.4612,38.8416,保定市,地表水厂,细颗粒物(PM2.5),109,126,139,82,93,25,,15,15,44,58,5,6,0.4,0.5
2025-11-05T1000,3581A,115.31981,38.95208,保定市,满城区生态环境分局,细颗粒物(PM2.5),119,134,131,90,87,,,2,2,46,51,,3,0.6,0.5
2025-11-05T1000,3582A,115.47694,38.76408,保定市,清苑区第二中学,颗粒物(PM10),113,176,165,81,92,,,9,9,38,65,5,6,0.6,0.7
2025-11-05T1000,3583A,115.62909,39.02311,保定市,徐水物探局,细颗粒物(PM2.5),139,166,148,106,94,9,,5,5,51,58,8,8,0.7,0.7
2025-11-05T1000,4004A,115.4202,38.8656,保定市,双鹰农机,细颗粒物(PM2.5),127,149,152,96,92,26,,13,13,45,57,,3,,0.8
2025-11-05T1000,4034A,115.5150,38.8590,保定市,植保所站,细颗粒物(PM2.5),118,133,133,89,92,14,,12,12,46,60,3,6,0.7,0.9
2025-11-05T1000,2594A,99.1678,25.1081,保山市,市环境监测站,,20,,11,14,9,25,,27,26,8,9,10,9,0.6,0.5
2025-11-05T1000,2595A,99.1711,25.1328,保山市,市环保局,,13,11,14,9,12,29,,29,28,5,8,6,6,0.8,0.7
2025-11-05T1000,1866A,109.2262,21.588,北海市,牛尾岭水库,,7,7,2,3,1,19,,23,23,9,10,2,2,0.0,0
2025-11-05T1000,1867A,109.1436,21.4086,北海市,海滩公园,,11,6,4,3,2,33,,38,37,8,8,6,6,0.7,0.6
2025-11-05T1000,1868A,109.0981,21.4661,北海市,新市环保局,,11,7,5,3,4,34,,40,38,8,8,3,4,0.8,0.7
2025-11-05T1000,1869A,109.1778,21.5233,北海市,北海工业园,,,7,4,7,5,,,35,33,12,10,6,4,0.5,0.5
2025-11-05T1000,3400A,109.1911,21.4415,北海市,龙潭自来水厂,,9,6,5,3,4,28,,36,34,9,7,3,3,0.5,0.5
2025-11-05T1000,1001A,116.3621,39.8784,北京市,万寿西宫,细颗粒物(PM2.5),183,200,131,138,88,9,,2,2,66,69,4,4,1.2,1.1
2025-11-05T1000,1002A,116.2202,40.2915,北京市,定陵,,,,,,,,,,,,,,,,
2025-11-05T1000,1003A,116.4174,39.9289,北京市,东四,细颗粒物(PM2.5),165,152,134,125,86,11,,4,4,66,62,5,5,1.1,1
2025-11-05T1000,1004A,116.4072,39.8863,北京市,天坛,细颗粒物(PM2.5),156,162,108,119,81,7,,3,3,76,46,2,2,1.1,0.8
2025-11-05T1000,1005A,116.462,39.9365,北京市,农展馆,细颗粒物(PM2.5),165,167,121,125,85,8,,3,3,64,61,5,5,1.2,1
2025-11-05T1000,1006A,116.3392,39.9295,北京市,官园,细颗粒物(PM2.5),158,180,124,120,79,15,,4,4,56,55,3,5,0.9,0.7
2025-11-05T1000,1007A,116.2878,39.9611,北京市,海淀万柳,细颗粒物(PM2.5),133,149,109,101,69,5,,2,2,63,60,5,5,0.9,0.9
2025-11-05T1000,1008A,116.6636,40.135,北京市,顺义新城,细颗粒物(PM2.5),179,207,120,135,73,8,,3,3,61,53,7,5,1.2,0.8
2025-11-05T1000,1009A,116.6275,40.3275,北京市,怀柔镇,细颗粒物(PM2.5),144,149,81,110,57,28,,36,32,32,24,5,5,0.9,0.6
2025-11-05T1000,1010A,116.2296,40.217,北京市,昌平镇,细颗粒物(PM2.5),138,152,86,105,58,8,,7,3,50,43,5,6,1.0,0.6
2025-11-05T1000,1011A,116.3966,39.9821,北京市,奥体中心,细颗粒物(PM2.5),142,151,108,108,75,7,,1,1,66,69,5,5,0.9,0.8
2025-11-05T1000,3281A,115.9718,40.4529,北京市,延庆夏都,细颗粒物(PM2.5),138,147,79,105,51,50,,35,34,24,30,3,3,0.7,0.5
2025-11-05T1000,3418A,116.8336,40.4095,北京市,密云新城,细颗粒物(PM2.5),152,183,98,116,58,21,,4,4,51,45,3,3,0.9,0.6
2025-11-05T1000,3671A,116.088,39.9726,北京市,门头沟三家店,细颗粒物(PM2.5),99,103,100,74,56,17,,8,8,31,44,1,2,0.6,0.7
2025-11-05T1000,3672A,116.1541,39.8204,北京市,丰台云岗,细颗粒物(PM2.5),113,143,112,85,67,12,,4,4,41,54,4,4,0.7,0.7
2025-11-05T1000,3673A,116.6804,39.9081,北京市,通州东关,细颗粒物(PM2.5),179,196,153,135,101,5,,2,2,71,66,8,6,1.2,0.8
2025-11-05T1000,3674A,115.9577,39.7603,北京市,房山燕山,细颗粒物(PM2.5),97,100,94,72,62,15,,10,10,31,37,3,4,0.6,0.5
2025-11-05T1000,3675A,116.4672,39.7733,北京市,大兴旧宫,细颗粒物(PM2.5),170,186,121,129,71,6,,2,2,64,37,4,3,1.3,0.9
2025-11-05T1000,3694A,115.986,40.4563,北京市,延庆石河营,细颗粒物(PM2.5),125,139,76,95,47,44,,25,25,25,31,3,3,0.6,0.5
2025-11-05T1000,3695A,116.6151,40.3053,北京市,怀柔新城,细颗粒物(PM2.5),142,146,80,108,54,31,,36,32,25,22,5,4,0.5,0.3
2025-11-05T1000,3696A,116.2545,39.8768,北京市,丰台小屯,细颗粒物(PM2.5),152,173,116,116,72,6,,2,2,55,52,4,4,1.0,0.9
2025-11-05T1000,3697A,116.84,40.3844,北京市,密云镇,细颗粒物(PM2.5),186,187,113,140,104,14,,3,3,52,48,8,7,0.9,0.7
2025-11-05T1000,4182A,116.1942,39.9158,北京市,八角北路9号,细颗粒物(PM2.5),133,152,123,101,66,10,,4,4,55,64,1,2,0.7,0.7
2025-11-05T1000,4194A,117.0790,40.1518,北京市,洳河巡河路,细颗粒物(PM2.5),155,162,118,118,78,8,,10,7,39,33,4,5,1.0,0.8
2025-11-05T1000,1761A,123.8275,41.3064,本溪市,大峪,"颗粒物(PM10),细颗粒物(PM2.5)",65,79,83,47,52,85,,20,20,19,29,10,9,0.5,0.6
2025-11-05T1000,1762A,123.7567,41.3325,本溪市,溪湖,"颗粒物(PM10),细颗粒物(PM2.5)",64,77,83,46,55,88,,49,49,20,32,9,9,0.7,0.9
2025-11-05T1000,1763A,123.7169,41.3094,本溪市,彩屯,细颗粒物(PM2.5),77,87,97,56,67,56,,28,28,35,36,17,12,2.2,2.6
2025-11-05T1000,1764A,123.7669,41.2864,本溪市,东明,颗粒物(PM10),64,77,65,31,42,84,,48,48,14,29,6,7,0.5,0.7
2025-11-05T1000,1765A,123.7992,41.2664,本溪市,新立屯,细颗粒物(PM2.5),63,58,58,45,51,93,,80,80,13,18,7,6,0.5,0.5
2025-11-05T1000,1766A,123.8142,41.3472,本溪市,威宁,,,141,91,46,46,,,8,8,31,33,10,6,0.7,0.8
2025-11-05T1000,2587A,105.2864,27.3125,毕节市,八中,,18,18,25,11,24,19,,26,24,15,13,11,10,0.6,0.6
2025-11-05T1000,2588A,105.31,27.2944,毕节市,师专,,10,10,27,6,19,21,,30,27,16,12,12,12,0.6,0.6
2025-11-05T1000,4263A,105.3688,27.3598,毕节市,工业大道,,,8,22,6,18,33,,39,37,7,8,9,10,,0.6
2025-11-05T1000,1629A,118.0018,37.3617,滨州市,第二水厂,细颗粒物(PM2.5),107,124,132,80,85,35,,17,17,75,66,18,17,0.9,0.6
2025-11-05T1000,1630A,117.9776,37.393,滨州市,北中新校,,,100,117,68,78,59,,20,20,,70,15,12,0.9,0.8
2025-11-05T1000,3514A,117.9378,37.3956,滨州市,中海酒店,细颗粒物(PM2.5),107,105,116,80,62,,,10,10,46,53,15,9,1.1,1
2025-11-05T1000,3515A,117.9378,37.3553,滨州市,开发区一中,细颗粒物(PM2.5),98,122,141,73,87,50,,17,17,52,66,16,16,1.0,0.9
2025-11-05T1000,3516A,118.0917,37.694,滨州市,金海六路,细颗粒物(PM2.5),125,171,124,95,73,26,,8,8,88,66,26,11,1.0,0.5
2025-11-05T1000,4028A,117.9956,37.3753,滨州市,滨州市西街道办事处,细颗粒物(PM2.5),113,122,131,85,91,54,,20,20,53,57,19,13,0.9,0.7
2025-11-05T1000,2311A,115.8072,33.8399,亳州市,污水处理厂,细颗粒物(PM2.5),139,133,107,106,76,57,,23,23,29,40,16,13,0.9,0.7
2025-11-05T1000,2312A,115.7789,33.8518,亳州市,三国揽胜宫,细颗粒物(PM2.5),118,156,115,89,70,53,,22,22,34,42,8,7,0.8,0.6
2025-11-05T1000,3332A,115.7633,33.8034,亳州市,亳州学院,细颗粒物(PM2.5),100,127,116,75,67,55,,25,25,28,34,9,8,0.8,0.7
2025-11-05T1000,2693A,82.0485,44.8556,博尔塔拉蒙古自治州,市党校,,36,,47,25,27,37,,38,38,17,13,2,3,1.2,0.5
2025-11-05T1000,2694A,82.0806,44.8969,博尔塔拉蒙古自治州,市环保局,,26,26,66,11,18,29,,47,47,32,22,4,4,0.5,0.4
2025-11-05T1000,1071A,116.8842,38.2991,沧州市,沧县城建局,细颗粒物(PM2.5),120,101,139,91,98,40,,17,17,43,65,10,7,1.0,0.9
2025-11-05T1000,1072A,116.8584,38.3254,沧州市,电视转播站,细颗粒物(PM2.5),119,117,130,90,97,45,,13,13,43,58,14,9,0.9,0.8
2025-11-05T1000,1073A,116.8709,38.3228,沧州市,市环保局,细颗粒物(PM2.5),113,116,138,85,101,39,,16,16,48,61,13,9,0.7,0.6
2025-11-05T1000,3324A,116.8136,38.3004,沧州市,河北水利电力学院,细颗粒物(PM2.5),97,134,140,72,78,33,,18,18,44,59,16,11,0.8,0.7
2025-11-05T1000,2622A,97.1806,31.1273,昌都市,昌都监测站,,36,36,17,24,10,32,,42,37,22,11,4,3,0.7,0.2
2025-11-05T1000,3719A,97.1714,31.1406,昌都市,昌都会议中心,,34,34,11,16,7,35,,55,48,22,5,5,4,0.5,0.2
2025-11-05T1000,2690A,88.1236,43.8886,昌吉回族自治州,天山天池,,,,,,,,,,,,,,,,
2025-11-05T1000,2692A,87.2717,44.0297,昌吉回族自治州,新区政务中心,,20,20,79,9,31,37,,43,43,30,31,4,10,0.4,0.7
2025-11-05T1000,3613A,87.3095,44.0142,昌吉回族自治州,亚心广场,,19,19,94,3,36,40,,46,46,19,27,7,12,0.3,0.6
2025-11-05T1000,1120A,125.2863,43.9027,长春市,客车厂,,,84,122,65,119,50,,27,27,20,50,8,7,,1.2
2025-11-05T1000,1121A,125.2841,43.8463,长春市,邮电学院,细颗粒物(PM2.5),112,,138,84,130,51,,21,21,20,43,8,7,0.7,0.9
2025-11-05T1000,1122A,125.3716,43.8772,长春市,劳动公园,细颗粒物(PM2.5),100,101,157,75,134,41,,13,13,27,48,11,10,0.9,1.2
2025-11-05T1000,1123A,125.3297,43.8805,长春市,园林处,细颗粒物(PM2.5),107,82,118,80,123,46,,22,22,24,44,6,6,0.7,0.9
2025-11-05T1000,1124A,125.4605,43.79,长春市,净月潭,细颗粒物(PM2.5),98,,126,73,117,44,,32,28,17,20,6,6,0.7,0.7
2025-11-05T1000,1125A,125.7194,43.515,长春市,甩湾子,细颗粒物(PM2.5),85,,105,63,115,63,,23,23,8,26,5,5,0.5,0.8
2025-11-05T1000,1126A,125.3863,43.8447,长春市,经开区环卫处,细颗粒物(PM2.5),103,,129,77,111,,,14,14,25,48,8,7,0.8,1
2025-11-05T1000,1127A,125.245,43.7783,长春市,高新区管委会,细颗粒物(PM2.5),103,,167,77,169,39,,16,16,17,39,8,6,0.7,1
2025-11-05T1000,1128A,125.1761,43.8325,长春市,岱山公园,细颗粒物(PM2.5),108,,160,81,160,35,,16,16,26,54,8,8,0.7,0.9
2025-11-05T1000,4281A,125.3346,43.9164,长春市,北亚泰大街1068号,细颗粒物(PM2.5),83,83,128,61,116,38,,16,16,32,56,9,8,0.8,1.1
2025-11-05T1000,1335A,113.0833,28.2325,长沙市,经开区环保局,细颗粒物(PM2.5),69,53,48,50,41,46,,29,26,23,20,7,6,0.5,0.5
2025-11-05T1000,1336A,112.8872,28.2189,长沙市,高开区环保局,细颗粒物(PM2.5),69,53,56,50,46,58,,46,46,21,26,9,6,0.4,0.5
2025-11-05T1000,1337A,113.0792,28.2053,长沙市,马坡岭,细颗粒物(PM2.5),58,58,49,41,34,42,,26,21,19,23,8,5,0.6,0.6
2025-11-05T1000,1338A,112.9394,28.19,长沙市,湖南师范大学,细颗粒物(PM2.5),59,58,54,42,35,64,,41,41,17,19,9,5,0.4,0.4
2025-11-05T1000,1339A,113.0178,28.1322,长沙市,雨花区环保局,细颗粒物(PM2.5),64,61,51,46,42,51,,40,36,14,20,11,8,0.5,0.6
2025-11-05T1000,1340A,112.9792,28.2597,长沙市,伍家岭,细颗粒物(PM2.5),68,60,56,49,36,53,,17,13,21,26,7,5,0.4,0.4
2025-11-05T1000,1341A,113.0014,28.1944,长沙市,火车新站,细颗粒物(PM2.5),67,63,56,48,45,54,,45,42,24,27,13,10,0.6,0.6
2025-11-05T1000,1342A,112.9844,28.1178,长沙市,天心区环保局,细颗粒物(PM2.5),57,57,52,40,38,66,,46,46,19,25,9,6,0.5,0.6
2025-11-05T1000,1343A,112.8908,28.1308,长沙市,湖南中医药大学,细颗粒物(PM2.5),60,62,54,43,34,54,,12,12,21,34,8,5,0.6,0.6
2025-11-05T1000,1344A,112.9581,28.3611,长沙市,沙坪,,,,,,,,,,,,,,,,
2025-11-05T1000,1727A,113.1147,36.1547,长治市,清华站,细颗粒物(PM2.5),117,,61,88,54,52,,76,65,41,24,11,11,1.4,0.7
2025-11-05T1000,1730A,113.0886,36.2125,长治市,审计局,细颗粒物(PM2.5),110,,55,83,62,59,,72,62,31,22,7,8,1.5,0.8
2025-11-05T1000,1731A,113.0844,36.1856,长治市,长治八中,,,,81,,68,,,70,60,30,19,8,9,1.3,0.7
2025-11-05T1000,2845A,113.1569,36.1911,长治市,德盛苑,细颗粒物(PM2.5),132,104,72,100,64,40,,76,65,32,21,5,5,1.6,1
2025-11-05T1000,3568A,113.06,36.0464,长治市,向阳小学,细颗粒物(PM2.5),72,87,90,52,57,103,,100,99,28,29,8,8,0.7,0.7
2025-11-05T1000,3569A,112.8792,36.3144,长治市,屯留一中,细颗粒物(PM2.5),130,116,86,99,65,41,,73,56,42,26,11,11,1.3,0.9
2025-11-05T1000,4189A,113.1131,36.19948,长治市,英华南巷50号,细颗粒物(PM2.5),122,106,81,92,70,58,,62,56,27,24,7,7,1.6,1
2025-11-05T1000,4190A,113.2367,36.3344,长治市,学府街1号,细颗粒物(PM2.5),210,172,126,160,112,30,,25,25,50,47,11,12,2.0,1.6
2025-11-05T1000,1854A,111.6975,28.9703,常德市,市二中,,38,,40,26,27,22,,25,20,12,14,5,6,0.5,0.5
2025-11-05T1000,1857A,111.7158,29.1456,常德市,白鹤山,,,,,,,,,,,,,,,,
2025-11-05T1000,3138A,111.7153,29.0289,常德市,武陵区永安,颗粒物(PM10),53,56,49,31,33,34,,22,17,15,24,5,6,0.6,0.5
2025-11-05T1000,3139A,111.6892,28.9881,常德市,鼎城区玉霞,细颗粒物(PM2.5),52,50,43,36,29,16,,5,5,13,18,5,6,0.5,0.4
2025-11-05T1000,3140A,111.6625,29.0531,常德市,武陵区长庚,细颗粒物(PM2.5),57,61,45,40,31,26,,9,9,15,21,3,3,0.4,0.4
2025-11-05T1000,1196A,119.9633,31.762,常州市,市监测站,,40,40,57,22,29,54,,21,21,35,46,16,11,1.0,0.7
2025-11-05T1000,1200A,119.9468,31.7069,常州市,武进监测站,,38,38,54,13,22,54,,24,24,37,50,16,10,1.2,0.6
2025-11-05T1000,1201A,119.9255,31.9087,常州市,安家,,48,48,68,19,29,55,,17,17,22,41,16,11,1.1,0.8
2025-11-05T1000,3002A,119.9805,31.8174,常州市,行政中心,颗粒物(PM10),51,51,57,28,28,36,,20,20,47,49,14,9,0.9,0.5
2025-11-05T1000,3003A,120.0522,31.7748,常州市,经开区,,41,41,74,23,28,52,,12,12,33,54,18,12,1.0,0.7
2025-11-05T1000,3010A,119.9025,31.7964,常州市,钟楼,,50,50,61,26,29,55,,25,25,37,49,16,11,1.1,0.8
2025-11-05T1000,3429A,119.8598,31.7066,常州市,武进经发区,,36,36,56,18,30,56,,16,16,35,57,14,10,1.3,0.9
2025-11-05T1000,3430A,119.5826,31.7245,常州市,金坛城区,,38,28,51,26,32,48,,19,19,32,42,11,7,0.8,0.6
2025-11-05T1000,2220A,120.4318,41.5881,朝阳市,西梁,细颗粒物(PM2.5),144,147,88,110,55,61,,14,14,29,44,13,11,1.1,0.9
2025-11-05T1000,2221A,120.4521,41.5646,朝阳市,河畔小区,细颗粒物(PM2.5),128,,51,97,37,73,,39,39,25,32,10,9,1.0,0.7
2025-11-05T1000,2222A,120.4176,41.5648,朝阳市,八里堡,细颗粒物(PM2.5),119,,65,90,44,62,,19,19,32,44,,10,1.0,1
2025-11-05T1000,2223A,120.3806,41.5969,朝阳市,农业园区,细颗粒物(PM2.5),152,118,56,116,45,42,,12,12,44,40,18,11,1.5,0.7
2025-11-05T1000,1705A,116.6367,23.6719,潮州市,西园路,,,,,,,,,,,,,,,,
2025-11-05T1000,3026A,116.6183,23.6608,潮州市,市政府,,24,24,13,3,7,41,,32,32,2,5,3,3,0.4,0.4
2025-11-05T1000,4036A,116.6461,23.6761,潮州市,金山,,23,21,13,16,16,38,,28,28,4,6,2,2,0.5,0.5
2025-11-05T1000,2472A,113.0073,25.9061,郴州市,马头岭,,,,,,,,,,,,,,,,
2025-11-05T1000,2473A,113.0116,25.8226,郴州市,市职中,,33,28,17,23,15,34,,29,29,12,11,15,5,0.8,0.6
2025-11-05T1000,2475A,113.0383,25.8071,郴州市,市审计局,,35,27,17,24,14,40,,40,40,13,11,18,5,0.4,0.3
2025-11-05T1000,2476A,113.0348,25.7759,郴州市,市环保局,,34,34,21,20,16,36,,34,34,13,11,15,5,0.5,0.4
2025-11-05T1000,4252A,113.0138,25.8011,郴州市,好美居路49号,,20,20,16,14,13,46,,42,42,15,15,28,9,0.7,0.6
2025-11-05T1000,1431A,103.9728,30.7236,成都市,金泉两河,细颗粒物(PM2.5),52,50,31,36,24,22,,17,17,20,25,3,3,0.5,0.5
2025-11-05T1000,1432A,104.176,30.6872,成都市,十里店,细颗粒物(PM2.5),103,85,52,77,40,14,,9,9,27,31,3,3,0.6,0.5
2025-11-05T1000,1433A,104.079,30.5706,成都市,三瓦窑,颗粒物(PM10),56,61,47,35,27,15,,12,12,30,26,4,4,0.7,0.6
2025-11-05T1000,1434A,104.1114,30.63,成都市,沙河铺,细颗粒物(PM2.5),83,79,56,61,46,13,,9,9,38,40,4,4,0.5,0.5
2025-11-05T1000,1437A,104.0786,30.6531,成都市,君平街,细颗粒物(PM2.5),72,60,45,52,32,12,,12,12,28,28,4,4,0.6,0.5
2025-11-05T1000,1438A,103.613,31.0283,成都市,灵岩寺,,,,,,,,,,,,,,,,
2025-11-05T1000,2880A,104.0239,30.65639,成都市,大石西路,细颗粒物(PM2.5),67,48,36,48,30,14,,12,11,28,30,3,4,0.8,0.7
2025-11-05T1000,3136A,104.2725,30.5589,成都市,龙泉驿区区政府,,39,39,30,24,20,8,,2,2,31,27,5,5,0.6,0.5
2025-11-05T1000,3357A,104.0106,30.6931,成都市,金博路,细颗粒物(PM2.5),57,44,34,40,25,14,,10,10,25,29,6,6,0.7,0.6
2025-11-05T1000,3359A,104.0578,30.5225,成都市,华阳,细颗粒物(PM2.5),70,53,37,51,33,4,,7,7,35,34,4,4,0.6,0.4
2025-11-05T1000,3488A,104.3880,30.7467,成都市,青石路225号,颗粒物(PM10),52,54,39,24,26,6,,2,2,26,24,5,6,0.7,0.7
2025-11-05T1000,3489A,104.0789,30.4072,成都市,科学城,,46,46,37,31,28,12,,6,6,28,28,5,5,0.6,0.6
2025-11-05T1000,4011A,103.8506,30.6947,成都市,光华大道三段,,,,37,,26,26,,25,25,,21,1,1,,0.7
2025-11-05T1000,4224A,104.2433,30.5353,成都市,鲸龙路1057号,细颗粒物(PM2.5),57,43,39,40,32,9,,3,3,34,33,5,5,0.7,0.6
2025-11-05T1000,1062A,117.9531,40.9081,承德市,铁路,颗粒物(PM10),133,216,74,45,34,8,,3,3,,46,3,4,0.6,0.7
2025-11-05T1000,1063A,117.9392,40.9763,承德市,中国银行,颗粒物(PM10),55,60,64,19,27,11,,3,3,29,34,2,2,0.5,0.5
2025-11-05T1000,1064A,117.9503,40.928,承德市,开发区,颗粒物(PM10),64,77,72,33,33,10,,4,4,39,42,6,5,0.4,0.4
2025-11-05T1000,1066A,117.9268,41.0026,承德市,离宫,,,,,,,,,,,,,,,,
2025-11-05T1000,4274A,117.7994,40.9605,承德市,滨河大街98号,颗粒物(PM10),68,85,60,47,32,5,,3,3,42,39,5,4,0.9,0.6
2025-11-05T1000,2314A,117.47,30.6618,池州市,池州学院,细颗粒物(PM2.5),67,61,66,48,44,22,,12,12,24,29,6,6,0.8,0.8
2025-11-05T1000,3237A,117.4918,30.6617,池州市,展览馆,细颗粒物(PM2.5),64,62,63,46,40,19,,9,9,25,28,5,6,0.9,0.9
2025-11-05T1000,3333A,117.5627,30.695,池州市,第八中学,细颗粒物(PM2.5),62,56,65,44,43,25,,10,10,20,25,6,7,0.8,0.9
2025-11-05T1000,3334A,117.5038,30.6243,池州市,第十二中学,,,54,56,44,39,,,4,4,,33,,6,0.9,1
2025-11-05T1000,1744A,118.9233,42.2816,赤峰市,松山一中,细颗粒物(PM2.5),83,97,72,61,41,74,,64,64,31,45,8,19,0.7,1
2025-11-05T1000,1745A,118.9576,42.2728,赤峰市,哈达街,细颗粒物(PM2.5),89,104,76,66,38,70,,52,52,34,48,12,22,1.5,1.6
2025-11-05T1000,1746A,118.8788,42.2554,赤峰市,天义路,细颗粒物(PM2.5),124,,37,94,41,76,,70,70,32,36,7,13,0.6,0.6
2025-11-05T1000,3058A,119.2658,42.0353,赤峰市,银河街,细颗粒物(PM2.5),129,163,78,98,43,53,,36,36,45,33,38,29,1.4,0.8
2025-11-05T1000,3286A,118.9359,42.3147,赤峰市,桥北物流园区,细颗粒物(PM2.5),105,90,69,79,48,64,,40,40,31,45,13,22,0.9,0.9
2025-11-05T1000,2521A,107.3476,22.4136,崇左市,市环保局江州分局,,13,13,10,6,4,32,,29,29,7,6,2,4,0.7,0.6
2025-11-05T1000,4256A,107.3750,22.3736,崇左市,石景林东路7号,,12,6,8,3,4,38,,30,30,5,6,6,6,0.6,0.6
2025-11-05T1000,2298A,118.3093,32.3153,滁州市,老年大学,,,71,70,48,42,,,,,34,42,17,12,0.7,0.4
2025-11-05T1000,2299A,118.3244,32.2786,滁州市,人大宾馆,细颗粒物(PM2.5),59,59,65,42,38,42,,10,10,34,39,10,7,0.7,0.5
2025-11-05T1000,3207A,118.3118,32.3038,滁州市,市政府原办公楼,细颗粒物(PM2.5),59,61,72,42,41,52,,14,14,34,44,12,8,0.9,0.7
2025-11-05T1000,3331A,118.3267,32.2634,滁州市,图书馆,颗粒物(PM10),62,74,65,32,34,44,,9,9,35,46,11,9,0.7,0.5
2025-11-05T1000,2605A,101.5482,25.0441,楚雄彝族自治州,州环境监测站,,9,6,7,3,4,26,,28,28,3,5,7,7,0.6,0.6
2025-11-05T1000,2606A,101.538,25.0492,楚雄彝族自治州,市经济开发区,,8,6,11,3,9,24,,26,26,7,7,6,7,0.7,0.8
2025-11-05T1000,2548A,107.5277,31.2827,达州市,达州职业技术学院,,,,,,,,,,,,,,,,
2025-11-05T1000,2549A,107.5086,31.2186,达州市,市环境监测站,,46,46,43,24,26,3,,2,2,21,29,7,6,0.6,0.6
2025-11-05T1000,2550A,107.4988,31.2132,达州市,凤凰小区,颗粒物(PM10),51,51,47,27,29,4,,3,3,19,28,6,5,0.5,0.5
2025-11-05T1000,2551A,107.5082,31.1986,达州市,达县机关宾馆,,46,44,45,32,24,5,,3,3,20,29,6,5,0.5,0.6
2025-11-05T1000,2552A,107.4644,31.2124,达州市,市政中心,,48,48,56,24,30,5,,3,3,19,31,6,6,0.7,0.6
2025-11-05T1000,2614A,100.1542,25.7054,大理白族自治州,大理市环境监测站,,10,,6,7,10,24,,25,24,7,11,5,5,0.6,0.6
2025-11-05T1000,2615A,100.2171,25.5811,大理白族自治州,大理古城,,10,,13,7,10,17,,20,18,10,8,6,7,0.7,0.6
2025-11-05T1000,1109A,121.612,38.9741,大连市,甘井子,颗粒物(PM10),57,64,97,32,55,87,,68,66,27,36,10,9,0.6,0.7
2025-11-05T1000,1110A,121.565,38.9511,大连市,周水子,颗粒物(PM10),58,66,93,32,59,86,,48,48,28,55,8,4,0.4,0.7
2025-11-05T1000,1111A,121.5637,38.8845,大连市,星海三站,颗粒物(PM10),51,52,72,22,46,87,,65,65,16,22,7,6,0.4,0.5
2025-11-05T1000,1112A,121.6302,38.9117,大连市,青泥洼桥,,43,43,80,18,38,91,,63,63,16,22,12,10,0.4,0.5
2025-11-05T1000,1113A,121.6251,38.8638,大连市,傅家庄,,40,40,70,14,35,90,,78,78,16,16,11,10,0.6,0.6
2025-11-05T1000,1114A,121.5213,38.8661,大连市,七贤岭,颗粒物(PM10),52,53,75,24,43,89,,20,20,20,31,8,7,0.6,0.7
2025-11-05T1000,1115A,121.2529,38.8061,大连市,旅顺,,39,39,70,15,43,80,,74,73,17,18,8,9,0.3,0.4
2025-11-05T1000,1116A,121.7485,39.1311,大连市,金州,,49,49,95,30,55,86,,55,55,25,34,13,11,0.4,0.6
2025-11-05T1000,1117A,121.7811,39.0496,大连市,开发区,颗粒物(PM10),64,77,94,41,63,43,,14,14,51,56,6,6,0.9,0.9
2025-11-05T1000,1118A,121.9762,39.0631,大连市,双D港,,48,47,57,33,40,49,,39,39,24,21,10,9,0.6,0.6
2025-11-05T1000,1789A,124.81117,46.03138,大庆市,大同区,细颗粒物(PM2.5),306,287,147,256,124,37,,21,21,40,41,13,14,1.4,1.1
2025-11-05T1000,1790A,125.129,46.533,大庆市,龙凤区,细颗粒物(PM2.5),129,147,146,98,108,43,,29,27,33,43,12,14,0.8,1
2025-11-05T1000,1791A,124.902,46.408,大庆市,红岗区,细颗粒物(PM2.5),203,173,133,153,111,42,,16,16,24,38,8,9,1.0,1
2025-11-05T1000,1792A,125.153,46.586,大庆市,萨尔图区,细颗粒物(PM2.5),186,184,128,140,99,26,,30,28,44,40,18,16,0.7,0.7
2025-11-05T1000,1793A,124.9042,46.6215,大庆市,让胡路区,细颗粒物(PM2.5),147,149,131,112,108,35,,17,17,35,44,13,8,0.7,0.9
2025-11-05T1000,3481A,125.141,46.634,大庆市,萨区政府监测点,细颗粒物(PM2.5),178,192,106,134,75,35,,32,30,26,21,17,16,1.0,0.8
2025-11-05T1000,1721A,113.3819,40.1097,大同市,果树场,细颗粒物(PM2.5),125,141,81,95,52,20,,17,12,62,46,22,13,1.8,1
2025-11-05T1000,1723A,113.2994,40.0758,大同市,云冈宾馆,细颗粒物(PM2.5),107,158,114,80,57,26,,12,12,55,50,14,10,1.5,1
2025-11-05T1000,1724A,113.3444,40.0917,大同市,大同大学,颗粒物(PM10),93,136,89,68,51,22,,29,21,62,46,24,13,1.5,0.9
2025-11-05T1000,1725A,113.2661,40.1269,大同市,安家小村,颗粒物(PM10),157,264,107,76,57,37,,51,38,47,40,20,14,1.9,0.8
2025-11-05T1000,1726A,113.2711,40.0844,大同市,教育学院,颗粒物(PM10),113,175,108,74,60,21,,5,5,52,57,20,12,1.4,1
2025-11-05T1000,3282A,113.3397,40.0597,大同市,大同市卫生学校,细颗粒物(PM2.5),92,122,94,68,55,21,,20,13,52,45,21,11,1.3,0.8
2025-11-05T1000,3565A,113.1367,40.1122,大同市,云冈站,颗粒物(PM10),99,147,112,70,58,13,,5,5,41,41,25,14,0.9,0.7
2025-11-05T1000,3566A,113.1186,40.2556,大同市,图书馆,细颗粒物(PM2.5),133,149,100,101,64,16,,14,11,41,33,30,14,1.5,0.9
2025-11-05T1000,3567A,113.5931,40.0461,大同市,区一中,,,99,82,52,48,,,62,59,22,24,18,14,0.9,0.7
2025-11-05T1000,4199A,113.2798,40.0997,大同市,魏都大道141号,"颗粒物(PM10),细颗粒物(PM2.5)",117,184,109,88,59,21,,15,15,59,52,18,11,1.9,1.1
2025-11-05T1000,2269A,124.1069,50.4097,大兴安岭地区,科技局,,27,27,20,16,14,23,,24,23,13,6,6,5,0.4,0.3
2025-11-05T1000,3663A,124.1164,50.4278,大兴安岭地区,红旗社区,,,6,18,3,11,,,15,14,7,13,4,5,0.3,0.4
2025-11-05T1000,1600A,124.3303,40.0625,丹东市,江湾东路,颗粒物(PM10),56,62,49,39,30,28,,32,30,31,27,13,11,1.1,1
2025-11-05T1000,1601A,124.4256,40.1503,丹东市,临江后街,,49,49,57,26,30,29,,12,12,23,39,10,18,0.8,0.9
2025-11-05T1000,1602A,124.3933,40.1461,丹东市,元宝山,颗粒物(PM10),53,55,60,33,34,22,,12,12,31,36,13,12,0.7,0.8
2025-11-05T1000,1603A,124.3633,40.1092,丹东市,民主桥,颗粒物(PM10),54,57,49,32,27,23,,17,17,41,41,10,9,0.6,0.7
2025-11-05T1000,3541A,109.5726,19.5167,儋州市,第一中学子站,,9,9,8,3,5,20,,28,24,12,9,6,6,0.4,0.4
2025-11-05T1000,3542A,109.5567,19.5187,儋州市,东坡学校子站,,9,,9,6,5,27,,32,29,11,9,4,3,0.4,0.3
2025-11-05T1000,2616A,98.5842,24.428,德宏傣族景颇族自治州,德宏州监测站,,23,17,17,16,13,13,,15,14,15,16,8,8,0.8,0.8
2025-11-05T1000,3677A,98.5881,24.4368,德宏傣族景颇族自治州,芒市人民政府综合楼,,29,21,24,20,12,2,,12,9,14,13,6,8,0.8,0.8
2025-11-05T1000,1901A,104.4239,31.1208,德阳市,东山公园,,,,23,,22,,,28,,,21,,1,,0.7
2025-11-05T1000,1902A,104.3826,31.1317,德阳市,西小区,,50,50,44,26,27,17,,16,16,25,27,1,2,0.7,0.7
2025-11-05T1000,1904A,104.3553,31.1091,德阳市,耐火材料厂,颗粒物(PM10),52,53,37,30,19,12,,19,19,26,28,5,2,0.9,0.7
2025-11-05T1000,3639A,104.4019,31.1244,德阳市,市教育局,,38,35,34,26,25,19,,12,12,19,26,3,3,0.6,0.6
2025-11-05T1000,1622A,116.3032,37.4674,德州市,儿童乐园,细颗粒物(PM2.5),113,139,136,85,78,63,,42,42,42,43,22,18,1.0,0.9
2025-11-05T1000,1624A,116.2991,37.4451,德州市,监理站,细颗粒物(PM2.5),107,132,125,80,75,,,45,42,49,49,25,21,0.9,0.8
2025-11-05T1000,3066A,116.2721,37.4379,德州市,九衢泉纯净水厂,颗粒物(PM10),95,139,139,68,69,51,,24,24,52,63,24,19,0.9,0.9
2025-11-05T1000,3371A,116.3728,37.4403,德州市,开发区人民医院,细颗粒物(PM2.5),92,124,122,68,63,60,,32,32,44,58,22,18,1.0,0.9
2025-11-05T1000,3511A,116.5652,37.3319,德州市,陵城艺术中心,细颗粒物(PM2.5),100,110,105,75,64,48,,38,38,47,48,24,18,1.1,0.9
2025-11-05T1000,4292A,116.3525,37.4209,德州市,新河东路,细颗粒物(PM2.5),92,129,126,68,68,50,,24,24,57,68,17,14,1.0,0.9
2025-11-05T1000,2621A,99.7056,27.8317,迪庆藏族自治州,迪庆州站,,,,22,,12,,,55,,,9,,6,,0.5
2025-11-05T1000,3180A,99.7136,27.8094,迪庆藏族自治州,质量技术监督局,,45,32,22,31,14,16,,31,25,31,14,8,7,0.9,0.5
2025-11-05T1000,4257A,104.6092,35.5962,定西市,将台街,,,28,30,17,16,40,,52,49,25,11,,9,0.5,0.4
2025-11-05T1000,4309A,104.6159,35.5701,定西市,正龙路62号,,34,34,34,18,18,52,,54,53,10,7,5,6,0.3,0.2
2025-11-05T1000,1389A,113.7547,23.0494,东莞市,莞城梨川,,13,10,9,7,5,39,,32,32,15,16,4,4,0.5,0.6
2025-11-05T1000,1390A,113.7944,23.0128,东莞市,东城石井,,16,16,11,10,6,36,,28,28,18,20,8,5,0.6,0.6
2025-11-05T1000,1391A,113.7383,22.9658,东莞市,南城西平,,,,10,,7,37,,22,22,,27,8,5,0.7,0.7
2025-11-05T1000,3319A,113.7338,23.0381,东莞市,万江金泰,,13,13,11,7,6,36,,29,29,14,15,4,4,0.6,0.7
2025-11-05T1000,3626A,113.7533,23.0202,东莞市,南城元岭,,16,16,9,11,7,36,,34,34,15,13,6,5,0.6,0.6
2025-11-05T1000,3627A,113.7875,23.0457,东莞市,东城主山,,39,39,15,11,6,43,,32,32,16,18,4,3,0.6,0.6
2025-11-05T1000,1666A,118.6614,37.4309,东营市,市环保局,细颗粒物(PM2.5),92,127,99,68,54,53,,13,13,47,47,50,26,0.9,0.7
2025-11-05T1000,3036A,118.6904,37.4338,东营市,开发区管委会,细颗粒物(PM2.5),100,101,100,75,63,55,,23,23,46,48,34,30,0.7,0.7
2025-11-05T1000,3365A,118.5719,37.565,东营市,垦利区民丰路,细颗粒物(PM2.5),113,141,102,85,54,43,,9,9,60,54,18,15,0.9,0.6
2025-11-05T1000,3498A,118.5055,37.8612,东营市,河口城区,细颗粒物(PM2.5),98,136,110,73,60,54,,18,17,60,43,28,12,1.1,0.7
2025-11-05T1000,3646A,118.4978,37.4623,东营市,胜利站,细颗粒物(PM2.5),89,112,93,66,55,23,,6,6,74,61,14,16,1.1,0.9
2025-11-05T1000,3734A,118.35,37.26,东营市,理想之城,细颗粒物(PM2.5),107,134,105,80,61,32,,7,7,58,57,24,16,0.8,0.7
2025-11-05T1000,1591A,110.0023,39.8129,鄂尔多斯市,综合楼,颗粒物(PM10),62,73,49,39,23,40,,47,44,33,25,11,11,0.8,0.5
2025-11-05T1000,1592A,109.9486,39.8261,鄂尔多斯市,巴音孟克林场办事处,"颗粒物(PM10),细颗粒物(PM2.5)",64,78,46,46,25,48,,50,46,34,26,12,11,0.9,0.5
2025-11-05T1000,1593A,109.7736,39.5986,鄂尔多斯市,康泽苑,细颗粒物(PM2.5),64,68,41,46,24,24,,19,15,44,24,13,8,0.8,0.4
2025-11-05T1000,1594A,109.8119,39.5989,鄂尔多斯市,华泰汽车城,,,,42,,22,,,4,4,42,31,10,6,0.8,0.5
2025-11-05T1000,1595A,109.9734,39.7884,鄂尔多斯市,奥林花园,颗粒物(PM10),73,95,57,39,24,33,,27,27,47,35,14,9,1.2,0.7
2025-11-05T1000,2436A,114.8938,30.3994,鄂州市,市政府,细颗粒物(PM2.5),58,55,88,41,72,71,,43,43,22,30,12,17,0.5,0.7
2025-11-05T1000,2437A,114.8989,30.3714,鄂州市,赵家坝,颗粒物(PM10),68,85,91,48,73,64,,30,30,16,25,11,12,1.0,1.2
2025-11-05T1000,3654A,114.8094,30.4089,鄂州市,精准医疗中心,,,,81,,65,,,37,35,36,37,26,14,1.1,1.2
2025-11-05T1000,2454A,109.4978,30.2981,恩施土家族苗族自治州,湖北民院,,35,35,31,21,20,32,,36,28,12,8,7,7,0.7,0.7
2025-11-05T1000,2455A,109.4707,30.2798,恩施土家族苗族自治州,州电力总公司,,40,,29,28,22,23,,28,22,11,11,6,6,0.4,0.3
2025-11-05T1000,3549A,109.5061,30.3772,恩施土家族苗族自治州,龙凤新区,,28,28,41,17,30,18,,9,6,16,10,7,6,0.4,0.4
2025-11-05T1000,2499A,108.3411,21.6158,防城港市,沙万,,,10,5,9,10,35,,46,42,7,6,5,5,,0.8
2025-11-05T1000,2500A,108.3514,21.7731,防城港市,防城档案局,,18,18,8,3,2,34,,43,40,8,6,7,6,0.5,0.5
2025-11-05T1000,2501A,108.3506,21.6414,防城港市,大海花园,,13,13,6,3,3,39,,51,47,7,6,4,4,0.4,0.4
2025-11-05T1000,1371A,113.1294,23.0067,佛山市,湾梁,,19,19,12,6,8,40,,24,24,22,34,8,6,0.9,0.8
2025-11-05T1000,1372A,113.1083,23.0478,佛山市,华材职中,,16,14,13,11,15,43,,25,25,15,28,7,6,0.7,0.7
2025-11-05T1000,1373A,113.144,23.0453,佛山市,南海气象局,,29,29,14,7,7,44,,27,27,16,27,8,7,0.8,0.8
2025-11-05T1000,1374A,113.2881,22.8094,佛山市,顺德苏岗,,13,6,10,3,6,40,,21,21,17,28,7,6,0.5,0.5
2025-11-05T1000,1376A,112.8383,22.8678,佛山市,高明孔堂,,21,21,14,10,9,45,,33,33,15,23,6,4,0.5,0.6
2025-11-05T1000,1377A,112.8836,23.1588,佛山市,三水监测站,,14,9,8,6,13,44,,25,25,15,27,6,5,0.7,0.7
2025-11-05T1000,1378A,112.867,23.185,佛山市,三水云东海,,14,14,14,6,11,42,,19,19,10,20,6,4,0.8,0.7
2025-11-05T1000,3625A,113.2544,22.7642,佛山市,容桂街道办,,13,7,7,3,8,32,,15,15,25,34,6,5,0.6,0.6
2025-11-05T1000,1280A,119.3903,26.0543,福州市,鼓山,,,,27,,4,,,65,,,7,,1,,0.2
2025-11-05T1000,1282A,119.2681,26.0504,福州市,师大,,12,12,9,3,1,32,,41,37,13,14,5,5,0.4,0.4
2025-11-05T1000,1283A,119.2984,26.1028,福州市,五四北路,,18,18,11,3,1,46,,38,37,13,14,4,3,0.3,0.3
2025-11-05T1000,1284A,119.2648,26.0768,福州市,杨桥西路,,14,14,8,3,1,36,,41,38,13,14,3,3,0.3,0.3
2025-11-05T1000,1285A,119.317,26.0746,福州市,紫阳,,22,22,11,3,1,31,,41,36,22,17,6,6,0.4,0.3
2025-11-05T1000,3048A,119.5799,26.0936,福州市,九龙,,18,8,7,3,0,57,,55,55,6,8,4,4,0.3,0.3
2025-11-05T1000,3526A,119.5189,25.9664,福州市,吴航,,21,7,9,3,5,66,,44,44,6,12,5,5,0.5,0.5
2025-11-05T1000,1755A,123.7977,41.8491,抚顺市,望花区,细颗粒物(PM2.5),87,94,94,64,70,66,,21,21,26,39,21,17,0.8,1
2025-11-05T1000,1756A,123.9161,41.8822,抚顺市,顺城区,细颗粒物(PM2.5),78,92,112,57,79,57,,24,24,33,42,8,10,0.9,1.1
2025-11-05T1000,1757A,124.0436,41.8611,抚顺市,东洲区,细颗粒物(PM2.5),83,76,84,61,60,78,,50,50,16,19,10,9,0.7,0.8
2025-11-05T1000,1758A,123.9247,41.8642,抚顺市,新抚区,颗粒物(PM10),72,93,88,45,62,59,,15,15,31,37,10,10,1.0,1
2025-11-05T1000,1759A,124.0972,41.8961,抚顺市,大伙房水库,细颗粒物(PM2.5),99,,74,74,62,85,,54,54,18,22,10,11,1.0,1
2025-11-05T1000,1760A,123.7086,41.8391,抚顺市,沈抚新城,细颗粒物(PM2.5),83,96,103,61,74,74,,38,38,24,41,8,10,0.8,1.1
2025-11-05T1000,2376A,116.2127,28.0814,抚州市,桐源党溪,,,,,,,,,,,,,,,,
2025-11-05T1000,2377A,116.3544,27.9831,抚州市,市站,,25,25,28,12,17,38,,28,28,13,16,8,11,0.8,0.8
2025-11-05T1000,2378A,116.3565,27.963,抚州市,血防站,,26,26,33,15,18,37,,26,26,16,17,4,6,1.0,1.1
2025-11-05T1000,2379A,116.3564,28.0007,抚州市,采茶剧团,,26,26,30,12,19,36,,27,27,11,12,19,11,0.8,0.8
2025-11-05T1000,2380A,116.385,27.9647,抚州市,医学分院,,27,27,37,14,16,38,,28,28,11,15,6,7,0.9,0.9
2025-11-05T1000,2207A,121.6094,41.998,阜新市,工业园区,细颗粒物(PM2.5),132,104,99,100,61,40,,10,10,32,36,17,14,0.9,0.8
2025-11-05T1000,2208A,121.6697,42.0279,阜新市,长青街,细颗粒物(PM2.5),138,120,64,105,45,42,,11,11,34,35,19,13,1.0,0.8
2025-11-05T1000,2209A,121.6673,42.0705,阜新市,农业园区,细颗粒物(PM2.5),107,121,62,80,41,55,,42,42,28,23,13,15,1.1,0.8
2025-11-05T1000,2210A,121.6717,42.0224,阜新市,东苑,细颗粒物(PM2.5),130,,73,99,40,42,,15,15,39,39,24,22,1.1,0.8
2025-11-05T1000,2211A,121.6506,42.0498,阜新市,玉龙新城,细颗粒物(PM2.5),129,111,78,98,39,43,,11,11,,38,19,12,,0.8
2025-11-05T1000,2301A,115.8277,32.8929,阜阳市,市监测站,细颗粒物(PM2.5),122,127,95,92,60,36,,16,16,38,42,7,6,0.6,0.4
2025-11-05T1000,2303A,115.8554,32.8605,阜阳市,开发区,细颗粒物(PM2.5),127,135,103,96,54,39,,14,12,33,34,12,10,0.5,0.3
2025-11-05T1000,2875A,115.784,32.8892,阜阳市,阜阳职业技术学院,,,,67,,42,,,34,26,31,26,9,7,0.4,0.2
2025-11-05T1000,3468A,115.7901,32.8613,阜阳市,市规划展馆,颗粒物(PM10),86,121,72,58,42,42,,25,21,28,27,9,7,0.8,0.6
2025-11-05T1000,3469A,115.836,32.9183,阜阳市,枣园社区,细颗粒物(PM2.5),114,137,85,86,55,37,,20,16,35,34,11,9,0.8,0.6
2025-11-05T1000,2669A,102.9099,34.9841,甘南藏族自治州,州政府,,40,40,33,27,26,28,,30,30,17,16,9,8,0.4,0.4
2025-11-05T1000,3380A,102.8914,34.9617,甘南藏族自治州,甘肃民族师范学院,,45,36,39,31,23,19,,26,26,34,22,8,6,0.5,0.5
2025-11-05T1000,2570A,101.9603,30.0475,甘孜藏族自治州,水桥子,颗粒物(PM10),61,71,19,11,6,10,,9,9,29,22,9,8,0.7,0.5
2025-11-05T1000,3065A,101.9533,29.9972,甘孜藏族自治州,州环保局,,27,27,11,3,5,39,,34,34,23,16,6,6,0.5,0.4
2025-11-05T1000,3414A,115.8347,28.932,赣江新区,桑海产业园,细颗粒物(PM2.5),79,80,53,58,32,31,,15,14,24,21,11,9,0.7,0.5
2025-11-05T1000,2362A,114.9017,25.9149,赣州市,通天岩,,25,18,15,17,12,52,,50,50,5,6,8,8,0.6,0.7
2025-11-05T1000,2363A,114.9367,25.8664,赣州市,地委,,26,26,25,11,10,49,,48,48,11,10,5,4,0.7,0.7
2025-11-05T1000,2364A,114.9461,25.8481,赣州市,气象台,,28,28,29,11,7,48,,48,48,14,11,6,5,0.7,0.7
2025-11-05T1000,2365A,114.9322,25.8333,赣州市,市图书馆,,16,10,14,10,9,51,,49,49,10,11,5,5,0.5,0.6
2025-11-05T1000,2366A,114.8905,25.8471,赣州市,华坚鞋城,,24,24,19,10,11,45,,44,43,11,12,4,4,0.4,0.4
2025-11-05T1000,3109A,115.0093,25.8613,赣州市,赣县区卫计委,,16,12,12,11,14,49,,50,49,4,4,7,7,0.5,0.6
2025-11-05T1000,2683A,106.2319,36.1417,固原市,马园,,,,,,,,,,,,,,,,
2025-11-05T1000,2684A,106.2792,36.0022,固原市,监测站,,49,36,24,34,19,69,,56,56,12,15,4,4,0.5,0.4
2025-11-05T1000,2685A,106.2375,36.0211,固原市,新区,细颗粒物(PM2.5),64,,21,46,17,64,,56,56,14,12,2,3,0.6,0.4
2025-11-05T1000,3522A,106.2177,35.9959,固原市,原州区十五小,细颗粒物(PM2.5),57,56,22,40,15,60,,51,51,15,12,6,6,0.7,0.5
2025-11-05T1000,2543A,106.6308,30.5278,广安市,小平旧居,,,,,,,,,,,,,,,,
2025-11-05T1000,2544A,106.6303,30.4576,广安市,市委,,50,50,45,28,34,31,,36,33,22,15,4,3,0.7,0.6
2025-11-05T1000,2545A,106.6271,30.4663,广安市,友谊中学,,45,40,42,31,32,35,,40,37,20,13,5,6,1.0,0.9
2025-11-05T1000,2547A,106.6388,30.4551,广安市,广电花园,,38,38,34,25,33,19,,30,25,27,15,2,1,0.6,0.6
2025-11-05T1000,2902A,106.6351,30.4865,广安市,北辰小学,,45,45,45,28,31,33,,36,33,16,11,13,12,0.7,0.7
2025-11-05T1000,2523A,105.8945,32.4535,广元市,黑石坡,,,,,,,,,,,,,,,,
2025-11-05T1000,2524A,105.821,32.4444,广元市,老城,,31,31,20,21,18,6,,6,5,25,30,7,7,0.8,0.7
2025-11-05T1000,2526A,105.8628,32.4287,广元市,监测站,,26,22,16,18,9,6,,4,4,22,22,6,4,1.0,0.9
2025-11-05T1000,3617A,105.8047,32.4166,广元市,经开区,,32,32,26,22,21,4,,5,3,24,27,5,4,0.8,0.6
2025-11-05T1000,1345A,113.2347,23.1423,广州市,广雅中学,,17,17,14,7,8,41,,25,25,21,32,7,5,1.0,0.9
2025-11-05T1000,1346A,113.2612,23.105,广州市,市五中,,17,9,13,3,7,54,,33,33,19,33,7,6,0.7,0.8
2025-11-05T1000,1348A,113.3478,23.0916,广州市,广东商学院,,16,6,10,3,9,49,,34,34,14,22,5,4,0.3,0.3
2025-11-05T1000,1349A,113.4332,23.1047,广州市,市八十六中,,15,8,10,3,4,47,,24,24,14,25,6,5,0.5,0.6
2025-11-05T1000,1350A,113.3505,22.9483,广州市,番禺中学,,16,6,11,3,8,49,,29,29,12,23,6,5,0.5,0.5
2025-11-05T1000,1351A,113.2146,23.3916,广州市,花都师范,,16,16,12,10,7,48,,42,42,14,16,5,4,0.6,0.7
2025-11-05T1000,1352A,113.2597,23.1331,广州市,市监测站,,15,10,11,3,7,48,,27,27,16,30,8,6,0.6,0.6
2025-11-05T1000,1353A,113.5618,23.312,广州市,九龙镇镇龙,,12,6,12,3,8,38,,28,28,9,15,5,5,0.6,0.6
2025-11-05T1000,1354A,113.2765,23.1544,广州市,麓湖,,15,,8,8,9,46,,22,22,13,25,8,7,0.4,0.4
2025-11-05T1000,1355A,113.443,23.3035,广州市,帽峰山森林公园,,,,,,,,,,,,,,,,
2025-11-05T1000,2846A,113.3221,23.1322,广州市,体育西,,15,11,12,3,8,48,,32,32,12,21,8,6,0.8,0.9
2025-11-05T1000,3298A,113.5717,23.5491,广州市,从化街口,,16,6,11,3,7,50,,27,27,6,17,8,8,0.5,0.6
2025-11-05T1000,3299A,113.3472,23.3692,广州市,白云竹料,,18,8,8,3,6,57,,44,44,9,13,8,6,0.6,0.7
2025-11-05T1000,3300A,113.2981,23.237,广州市,白云嘉禾,,17,8,12,3,9,54,,38,38,12,21,7,5,0.6,0.6
2025-11-05T1000,3301A,113.4256,23.1716,广州市,黄埔科学城,,17,6,8,3,5,54,,40,40,9,12,3,4,0.7,0.7
2025-11-05T1000,3302A,113.3942,23.0483,广州市,番禺大学城,,16,9,17,3,6,51,,32,32,11,22,6,6,0.6,0.6
2025-11-05T1000,3303A,113.4922,22.8168,广州市,南沙黄阁,,18,18,17,3,6,31,,16,16,26,35,9,6,0.7,0.6
2025-11-05T1000,3304A,113.5342,22.7896,广州市,南沙街,,16,16,14,9,10,29,,16,16,21,30,7,6,0.6,0.6
2025-11-05T1000,3443A,113.2902,23.5544,广州市,花都梯面,,17,7,7,6,6,52,,40,40,6,9,5,4,0.5,0.5
2025-11-05T1000,3445A,113.7858,23.7478,广州市,从化良口,,15,6,3,3,2,48,,41,41,7,9,6,6,0.5,0.5
2025-11-05T1000,3446A,113.8051,23.2614,广州市,增城荔城,,14,6,5,3,4,43,,36,36,7,8,7,7,0.5,0.5
2025-11-05T1000,2505A,109.568,23.1478,贵港市,德智高中,,,,,,,,,,,,,,,,
2025-11-05T1000,2506A,109.6047,23.0666,贵港市,江南子站,,10,6,3,3,5,32,,35,32,8,9,4,4,0.6,0.6
2025-11-05T1000,2508A,109.5669,23.1065,贵港市,荷城子站,,10,7,3,3,0,32,,30,30,10,11,3,2,0.6,0.6
2025-11-05T1000,3405A,109.5886,23.1172,贵港市,新世纪学校,,12,7,3,3,3,38,,37,36,7,7,3,2,0.4,0.5
2025-11-05T1000,4260A,109.5933,23.0951,贵港市,中山路155-3号,,12,8,6,3,5,38,,38,35,8,8,3,2,0.4,0.4
2025-11-05T1000,1439A,106.6899,26.5998,贵阳市,马鞍山,,19,19,14,9,7,20,,32,30,22,10,3,3,0.4,0.3
2025-11-05T1000,1441A,106.6243,26.6266,贵阳市,鉴湖路,,31,31,26,9,7,23,,40,36,22,14,3,4,0.4,0.4
2025-11-05T1000,1442A,106.7487,26.6343,贵阳市,燕子冲,,32,22,16,22,15,28,,44,40,21,10,5,5,0.5,0.3
2025-11-05T1000,1443A,106.6555,26.4365,贵阳市,碧云窝,,31,31,30,7,7,34,,43,43,11,10,9,7,0.2,0.4
2025-11-05T1000,1445A,106.7109,26.6027,贵阳市,红边门,,20,19,19,14,11,22,,39,37,25,16,4,6,0.7,0.5
2025-11-05T1000,1446A,106.7164,26.5699,贵阳市,新华路,,32,22,20,22,20,22,,37,36,24,18,6,8,0.4,0.4
2025-11-05T1000,1447A,106.674,26.5424,贵阳市,太慈桥,,24,24,18,12,8,18,,37,31,21,13,3,3,0.2,0.2
2025-11-05T1000,1552A,106.805,26.3003,贵阳市,桐木岭,,24,24,26,14,16,46,,57,54,5,5,7,12,0.6,0.6
2025-11-05T1000,4230A,106.6882,26.5695,贵阳市,花果园大街66号,,22,22,16,15,14,17,,36,30,28,17,1,2,0.5,0.4
2025-11-05T1000,4231A,106.6873,26.5169,贵阳市,漓江路57号,,27,27,18,14,12,18,,33,29,23,15,9,9,0.4,0.4
2025-11-05T1000,1862A,110.4144,25.3167,桂林市,电子科大尧山校区,,,,,,,,,,,,,,,,
2025-11-05T1000,1864A,110.3089,25.2708,桂林市,龙隐路小学,,23,23,13,14,12,64,,53,53,7,11,5,5,0.3,0.3
2025-11-05T1000,1865A,110.2869,25.2178,桂林市,八中,,28,28,16,13,12,64,,52,52,11,18,6,6,0.4,0.4
2025-11-05T1000,3531A,110.296,25.1253,桂林市,旅游学院,,20,19,9,14,7,59,,40,40,13,18,5,4,0.3,0.3
2025-11-05T1000,4222A,110.1835,25.2444,桂林市,环湖路276号,,22,19,18,14,14,69,,51,51,10,16,6,15,0.4,0.4
2025-11-05T1000,4301A,110.2803,25.2773,桂林市,信义路13号,,28,,14,19,8,68,,64,64,9,13,6,6,0.7,0.7
2025-11-05T1000,2674A,100.2561,34.4714,果洛藏族自治州,玛沁县大武镇,,,61,32,,10,33,,40,34,32,7,15,14,0.9,0.4
2025-11-05T1000,1129A,126.5422,45.755,哈尔滨市,岭北,,,,,,,,,,,,,,,,
2025-11-05T1000,1130A,126.561,45.8167,哈尔滨市,松北商大,细颗粒物(PM2.5),115,158,146,87,161,33,,16,16,37,46,11,8,1.0,1
2025-11-05T1000,1131A,126.979,45.5419,哈尔滨市,阿城会宁,细颗粒物(PM2.5),206,166,150,156,147,51,,29,29,24,35,11,8,0.9,0.9
2025-11-05T1000,1132A,126.599,45.7222,哈尔滨市,南岗学府路,,,,186,113,147,28,,15,15,30,41,14,14,1.0,1.2
2025-11-05T1000,1133A,126.689,45.7733,哈尔滨市,太平宏伟公园,细颗粒物(PM2.5),145,164,166,111,141,40,,26,26,29,39,14,13,0.9,1
2025-11-05T1000,1134A,126.635,45.7667,哈尔滨市,道外承德广场,细颗粒物(PM2.5),166,190,190,126,151,37,,22,22,47,50,27,13,1.0,1.2
2025-11-05T1000,1135A,126.685,45.7319,哈尔滨市,香坊红旗大街,细颗粒物(PM2.5),159,146,174,121,136,,,31,31,28,41,20,12,0.9,1.1
2025-11-05T1000,1136A,126.6411,45.7258,哈尔滨市,动力和平路,细颗粒物(PM2.5),166,175,180,126,195,36,,25,25,39,55,18,13,1.1,1
2025-11-05T1000,1137A,126.593,45.7478,哈尔滨市,道里建国路,细颗粒物(PM2.5),156,152,163,119,157,23,,16,16,45,52,31,17,1.6,1.6
2025-11-05T1000,1138A,126.615,45.61,哈尔滨市,平房东轻厂,细颗粒物(PM2.5),143,157,148,109,153,44,,24,24,24,48,14,16,0.8,0.8
2025-11-05T1000,1139A,126.595,45.9855,哈尔滨市,呼兰师专,细颗粒物(PM2.5),210,182,139,160,131,31,,20,20,44,43,16,14,1.1,0.8
2025-11-05T1000,1140A,126.6206,45.6842,哈尔滨市,省农科院,细颗粒物(PM2.5),144,217,234,110,223,17,,17,17,53,60,16,14,0.9,1.1
2025-11-05T1000,2688A,93.5128,42.8172,哈密市,地区监测站,颗粒物(PM10),69,88,91,35,34,31,,42,42,57,38,8,9,0.2,0.2
2025-11-05T1000,2689A,93.4961,42.8328,哈密市,哈密师范学校,颗粒物(PM10),84,118,67,18,27,19,,24,24,59,36,4,5,1.0,0.6
2025-11-05T1000,2671A,100.9048,36.9639,海北藏族自治州,海晏县西海镇,,49,34,36,34,29,66,,61,61,11,11,16,14,0.6,0.5
2025-11-05T1000,3867A,102.0738,36.5056,海东市,平安区公安北苑,细颗粒物(PM2.5),78,89,61,57,49,14,,25,20,44,26,13,19,1.3,0.9
2025-11-05T1000,1409A,110.576,19.9507,海口市,东寨港,,,,,,,,,,,,,,,,
2025-11-05T1000,1410A,110.3232,20.0574,海口市,海南大学,,17,17,16,10,8,50,,52,49,9,7,6,5,0.4,0.4
2025-11-05T1000,1411A,110.283,20.0053,海口市,秀英海南医院,,18,18,13,11,8,42,,50,46,14,10,7,6,0.4,0.4
2025-11-05T1000,1412A,110.338,19.9969,海口市,海南师范大学,,19,19,14,10,9,45,,52,48,12,9,6,5,0.5,0.5
2025-11-05T1000,1413A,110.33,20.0356,海口市,龙华路环保局宿舍,,,20,17,10,10,50,,52,50,11,10,,6,0.3,0.3
2025-11-05T1000,3539A,110.5111,19.9736,海口市,桂林洋子站,,20,20,17,11,10,48,,49,48,7,8,6,6,0.4,0.4
2025-11-05T1000,2673A,100.6188,36.2866,海南藏族自治州,共和县恰卜恰镇,细颗粒物(PM2.5),54,54,38,38,24,43,,40,38,19,19,11,12,0.8,0.6
2025-11-05T1000,2676A,97.3731,37.3753,海西蒙古族藏族自治州,德令哈市,,29,29,21,10,11,87,,86,86,1,5,14,15,0.3,0.5
2025-11-05T1000,1048A,114.5302,36.6116,邯郸市,东污水处理厂,细颗粒物(PM2.5),192,157,166,144,161,20,,7,7,56,66,6,7,0.8,1
2025-11-05T1000,1049A,114.4918,36.5713,邯郸市,矿院,细颗粒物(PM2.5),163,139,156,124,147,17,,4,4,63,68,7,7,0.7,1
2025-11-05T1000,1050A,114.484,36.6133,邯郸市,丛台公园,细颗粒物(PM2.5),175,148,174,132,148,22,,7,7,58,65,7,8,0.8,1.1
2025-11-05T1000,3458A,114.7895,36.5593,邯郸市,香泉濮院小区,细颗粒物(PM2.5),158,151,152,120,107,40,,21,21,40,50,9,8,0.7,0.7
2025-11-05T1000,3579A,114.50634,36.77178,邯郸市,永年区实验高中,细颗粒物(PM2.5),163,195,172,124,103,19,,8,8,63,64,6,8,1.1,1.1
2025-11-05T1000,3580A,114.20016,36.44293,邯郸市,峰峰矿区临水派出所,细颗粒物(PM2.5),230,,129,180,140,30,,25,22,50,47,13,13,1.1,0.9
2025-11-05T1000,2634A,106.9893,33.1842,汉中市,汉川机床厂子校,,,,,,,,,,,,,,,,
2025-11-05T1000,2635A,107.0154,33.0706,汉中市,市监测站,,44,44,47,30,32,8,,12,10,21,18,4,4,0.8,0.7
2025-11-05T1000,2636A,107.0089,33.1138,汉中市,鑫源开发区,,34,34,52,19,34,3,,10,4,19,23,5,6,0.5,0.6
2025-11-05T1000,2637A,107.007,33.0323,汉中市,南郑大河坎水厂,,,,49,,29,,,6,4,18,18,4,4,0.8,0.7
2025-11-05T1000,1223A,120.2072,30.2111,杭州市,滨江,,41,41,45,17,16,38,,24,24,40,47,8,7,0.7,0.6
2025-11-05T1000,1224A,120.0633,30.2747,杭州市,西溪,颗粒物(PM10),53,56,68,26,41,18,,3,3,47,50,8,8,0.5,0.6
2025-11-05T1000,1226A,120.3417,30.3150,杭州市,下沙,,36,34,36,25,21,41,,12,12,36,54,7,6,0.4,0.3
2025-11-05T1000,1227A,120.1269,30.2456,杭州市,卧龙桥,,48,48,53,30,31,22,,5,5,42,45,10,10,0.5,0.5
2025-11-05T1000,1228A,120.1903,30.2692,杭州市,浙江农大,,34,34,39,21,18,34,,16,16,25,35,10,9,0.3,0.3
2025-11-05T1000,1230A,120.1197,30.3119,杭州市,和睦小学,,,50,46,28,24,,,8,7,51,50,9,8,0.7,0.7
2025-11-05T1000,1231A,120.3019,30.4183,杭州市,临平镇,颗粒物(PM10),52,54,48,30,20,34,,18,18,40,47,9,8,0.4,0.3
2025-11-05T1000,1232A,120.2753,30.1839,杭州市,城厢镇,,37,37,47,20,22,44,,21,21,40,55,8,8,0.4,0.4
2025-11-05T1000,1233A,120.0883,30.1808,杭州市,云栖,,41,41,44,27,25,32,,8,8,36,44,7,6,0.6,0.6
2025-11-05T1000,3557A,119.9464,30.0494,杭州市,镇二中,,35,35,65,23,37,30,,6,6,31,54,5,6,0.6,0.7
2025-11-05T1000,3558A,119.7183,30.2367,杭州市,市府大楼,颗粒物(PM10),54,58,77,34,42,29,,8,8,34,41,10,9,0.4,0.5
2025-11-05T1000,3656A,120.1556,30.2864,杭州市,消防大队,颗粒物(PM10),52,54,50,35,26,23,,12,12,53,56,10,9,0.4,0.3
2025-11-05T1000,1270A,117.1959,31.7848,合肥市,明珠广场,颗粒物(PM10),63,75,68,41,35,35,,10,10,37,43,12,9,0.7,0.6
2025-11-05T1000,1271A,117.3072,31.8764,合肥市,三里街,颗粒物(PM10),63,75,65,41,34,23,,7,7,47,44,8,7,0.8,0.7
2025-11-05T1000,1272A,117.2588,31.8707,合肥市,琥珀山庄,颗粒物(PM10),60,70,65,35,35,51,,17,17,32,38,8,7,0.7,0.6
2025-11-05T1000,1273A,117.1604,31.9052,合肥市,董铺水库,,,,,,,,,,,,,,,,
2025-11-05T1000,1274A,117.25,31.8571,合肥市,长江中路,颗粒物(PM10),63,75,73,43,42,45,,15,15,33,39,8,8,0.6,0.6
2025-11-05T1000,1275A,117.266,31.9436,合肥市,庐阳区,颗粒物(PM10),67,83,74,44,39,36,,10,10,43,47,10,8,0.8,0.7
2025-11-05T1000,1276A,117.3453,31.8616,合肥市,瑶海区,颗粒物(PM10),69,88,71,39,34,27,,7,7,49,52,11,9,0.7,0.6
2025-11-05T1000,1277A,117.3027,31.7964,合肥市,包河区,颗粒物(PM10),58,66,70,36,40,46,,10,10,32,56,10,10,0.7,0.7
2025-11-05T1000,1278A,117.2776,31.7385,合肥市,滨湖新区,细颗粒物(PM2.5),64,61,65,46,42,51,,24,24,25,29,8,7,0.8,0.7
2025-11-05T1000,1279A,117.1318,31.8403,合肥市,高新区,颗粒物(PM10),60,70,67,40,39,40,,20,20,36,38,8,7,0.7,0.6
2025-11-05T1000,3464A,117.3803,31.9147,合肥市,高教基地,颗粒物(PM10),62,73,62,35,35,26,,8,8,43,35,11,8,0.7,0.6
2025-11-05T1000,3614A,79.924,37.0877,和田地区,地区环保局,颗粒物(PM10),101,151,160,32,47,70,,70,70,13,19,3,8,0.7,0.7
2025-11-05T1000,3615A,79.9131,37.113,和田地区,市环保局,颗粒物(PM10),134,217,156,35,40,59,,68,68,26,26,4,7,1.2,0.7
2025-11-05T1000,2516A,108.2011,24.715,河池市,东仁乐园,,,,,,,,,,,,,,,,
2025-11-05T1000,2517A,108.0497,24.6947,河池市,市环保站,,17,17,10,6,5,32,,26,26,8,9,7,7,0.5,0.5
2025-11-05T1000,2518A,108.0983,24.6989,河池市,市疾控中心,,18,18,11,8,7,23,,26,24,15,12,4,4,0.6,0.6
2025-11-05T1000,1696A,114.6778,23.7569,河源市,源西,,,,,,,,,,,,,,,,
2025-11-05T1000,1697A,114.6944,23.7586,河源市,东埔,,14,10,6,3,6,43,,40,40,10,11,5,4,0.5,0.5
2025-11-05T1000,1698A,114.6892,23.7233,河源市,老城,,14,9,7,7,4,43,,40,40,6,8,5,5,0.6,0.6
2025-11-05T1000,1718A,115.4208,35.2464,菏泽市,气象局,,,,131,,84,,,56,53,37,35,7,6,0.7,0.6
2025-11-05T1000,3374A,115.5564,35.0891,菏泽市,定陶老年大学,细颗粒物(PM2.5),100,122,118,75,78,53,,40,40,36,41,10,9,0.7,0.5
2025-11-05T1000,4184A,115.4797,35.24401,菏泽市,永昌路1号,细颗粒物(PM2.5),119,140,129,90,81,52,,40,40,39,41,8,5,0.6,0.5
2025-11-05T1000,4193A,115.4715,35.2800,菏泽市,长城路999号,细颗粒物(PM2.5),122,140,124,92,77,49,,50,47,37,40,1,2,0.7,0.5
2025-11-05T1000,2514A,111.5264,24.4172,贺州市,环保小区,,19,,8,13,6,52,,43,43,9,9,5,4,0.5,0.5
2025-11-05T1000,2515A,111.5608,24.4078,贺州市,政协大楼,,20,,8,14,6,47,,37,37,10,8,5,4,0.6,0.5
2025-11-05T1000,3534A,111.4744,24.4553,贺州市,西湾,,16,11,7,8,7,50,,39,39,7,7,4,4,0.7,0.7
2025-11-05T1000,2385A,114.17,35.9019,鹤壁市,市监测站,细颗粒物(PM2.5),103,112,138,77,96,46,,23,23,43,43,8,4,0.6,0.8
2025-11-05T1000,2386A,114.2956,35.7511,鹤壁市,市交警支队,细颗粒物(PM2.5),110,110,159,83,92,32,,16,16,47,58,6,7,0.6,0.8
2025-11-05T1000,2387A,114.2878,35.7306,鹤壁市,迎宾馆,颗粒物(PM10),93,136,181,68,93,31,,14,14,50,62,4,6,0.6,0.8
2025-11-05T1000,3474A,114.2617,35.6822,鹤壁市,大新区,细颗粒物(PM2.5),103,115,128,77,96,29,,8,8,45,60,4,5,0.7,0.8
2025-11-05T1000,3596A,114.1572,35.9603,鹤壁市,南山宾馆,细颗粒物(PM2.5),98,126,153,73,97,45,,31,30,40,39,6,6,0.8,0.9
2025-11-05T1000,2244A,130.2537,47.3416,鹤岗市,哈啤分公司,细颗粒物(PM2.5),92,71,39,68,30,36,,37,36,34,14,17,12,0.8,0.6
2025-11-05T1000,2245A,130.2684,47.3086,鹤岗市,斯达机电,颗粒物(PM10),84,117,55,48,29,41,,50,44,29,18,17,14,0.8,0.6
2025-11-05T1000,2246A,130.3114,47.3388,鹤岗市,东山纸板厂,,,90,64,37,33,,,21,18,30,23,17,13,1.0,1.1
2025-11-05T1000,2247A,130.1097,47.3382,鹤岗市,五号水库,,,,,,,,,,,,,,,,
2025-11-05T1000,2263A,127.4833,50.2524,黑河市,交通局,,19,18,24,13,22,26,,33,30,16,19,4,4,0.5,0.6
2025-11-05T1000,2264A,127.5144,50.2341,黑河市,环保局,,35,35,33,17,27,11,,16,16,38,23,11,9,0.7,0.5
2025-11-05T1000,2265A,127.5291,50.2472,黑河市,大黑河岛,,,,,,,,,,,,,,,,
2025-11-05T1000,1074A,115.6838,37.7541,衡水市,电机北厂,细颗粒物(PM2.5),107,117,139,80,96,46,,31,31,29,47,6,8,0.5,0.6
2025-11-05T1000,1075A,115.6303,37.7316,衡水市,市监测站,细颗粒物(PM2.5),97,101,121,72,91,35,,19,19,37,54,10,9,0.6,0.7
2025-11-05T1000,3188A,115.6683,37.7217,衡水市,市城管局,细颗粒物(PM2.5),103,105,131,77,87,51,,27,27,34,52,11,11,0.6,0.6
2025-11-05T1000,3459A,115.5989,37.5491,衡水市,地表水厂,细颗粒物(PM2.5),119,101,129,90,96,46,,11,11,37,62,8,7,0.6,0.5
2025-11-05T1000,2456A,112.5003,26.9167,衡阳市,原169医院,,,,,,,,,,,,,,,,
2025-11-05T1000,2457A,112.6194,26.9258,衡阳市,衡阳化工总厂,,42,42,34,28,25,31,,15,15,15,22,8,7,0.8,0.9
2025-11-05T1000,2458A,112.6211,26.8956,衡阳市,珠晖区环保局,,35,33,35,24,22,31,,11,11,16,26,9,9,1.2,1.3
2025-11-05T1000,2459A,112.6197,26.8733,衡阳市,市委党校,,36,36,30,19,19,41,,22,22,9,17,3,4,0.7,0.8
2025-11-05T1000,2460A,112.6006,26.8919,衡阳市,市监测站,,32,32,41,21,25,38,,24,24,14,19,4,6,0.9,1
2025-11-05T1000,2461A,112.5664,26.9056,衡阳市,真空机电公司,,39,34,29,27,23,36,,29,29,14,17,6,6,0.9,1
2025-11-05T1000,3399A,112.6703,26.882,衡阳市,师范学院,,36,36,30,25,19,38,,16,16,15,19,8,8,0.8,0.8
2025-11-05T1000,2608A,103.3772,23.3993,红河哈尼族彝族自治州,污水处理厂,,16,16,20,7,16,28,,30,29,9,9,4,7,0.4,0.4
2025-11-05T1000,2609A,103.3861,23.35,红河哈尼族彝族自治州,监测站,,18,18,22,8,15,29,,30,29,6,6,4,6,0.4,0.4
2025-11-05T1000,3038A,103.3758,23.368,红河哈尼族彝族自治州,州图书馆,,15,,17,10,24,28,,34,33,8,7,4,5,0.5,0.5
2025-11-05T1000,1090A,111.6507,40.7517,呼和浩特市,呼市一监,细颗粒物(PM2.5),54,46,65,38,46,30,,17,17,31,50,7,8,1.0,0.9
2025-11-05T1000,1091A,111.6572,40.8033,呼和浩特市,小召,细颗粒物(PM2.5),65,51,65,47,50,21,,14,12,43,54,8,8,1.0,1
2025-11-05T1000,1094A,111.7516,40.8369,呼和浩特市,如意水处理厂,细颗粒物(PM2.5),57,61,77,40,43,9,,2,2,46,61,11,11,0.9,0.8
2025-11-05T1000,1095A,111.7276,40.8062,呼和浩特市,二十九中,,,,70,,47,,,52,,,47,,11,,0.8
2025-11-05T1000,1096A,111.5512,40.7866,呼和浩特市,工大金川校区,,,78,83,51,49,7,,9,9,,60,6,9,0.7,0.5
2025-11-05T1000,1097A,111.717,40.7612,呼和浩特市,化肥厂生活区,,,46,74,39,46,,,18,15,35,52,5,7,1.2,0.8
2025-11-05T1000,3698A,111.5968,40.8178,呼和浩特市,红旗小学,细颗粒物(PM2.5),74,85,72,54,51,8,,7,7,61,65,10,10,1.2,0.8
2025-11-05T1000,3699A,111.6518,40.8389,呼和浩特市,海东办,细颗粒物(PM2.5),65,56,65,47,45,9,,2,2,46,56,7,7,1.0,0.7
2025-11-05T1000,3061A,119.7512,49.1577,呼伦贝尔市,国华电力东,,19,19,18,12,11,30,,23,19,20,14,14,8,0.5,0.3
2025-11-05T1000,4279A,119.7569,49.2222,呼伦贝尔市,伊敏大街东7号,,35,35,27,19,18,24,,19,18,18,14,9,9,0.4,0.6
2025-11-05T1000,1250A,120.0751,30.8669,湖州市,城西水厂,,28,28,44,15,22,70,,24,24,21,49,8,8,0.3,0.4
2025-11-05T1000,2873A,120.0830,30.8929,湖州市,仁皇山新区,,26,26,40,16,22,62,,20,20,22,46,8,8,0.4,0.4
2025-11-05T1000,2907A,120.1844,30.8596,湖州市,吴兴区站,,36,36,45,20,23,57,,21,21,22,51,7,7,0.6,0.6
2025-11-05T1000,3562A,120.4148,30.8538,湖州市,南浔区站,,37,37,40,25,21,43,,25,25,43,54,11,10,0.5,0.5
2025-11-05T1000,1607A,120.9049,40.7211,葫芦岛市,龙港区,细颗粒物(PM2.5),99,88,75,74,48,46,,34,34,33,37,11,14,0.7,0.7
2025-11-05T1000,1608A,120.8392,40.7514,葫芦岛市,化工街,细颗粒物(PM2.5),98,114,100,73,57,36,,14,14,49,55,18,26,0.6,0.9
2025-11-05T1000,1609A,120.8341,40.7073,葫芦岛市,新区,,,82,65,75,51,,,17,17,36,53,8,10,,1.1
2025-11-05T1000,1610A,120.8695,40.7677,葫芦岛市,东城区,细颗粒物(PM2.5),104,86,83,78,64,39,,11,11,48,54,15,30,1.2,1.2
2025-11-05T1000,2482A,109.5981,27.5721,怀化市,林科所,,,,,,,,,,,,,,,,
2025-11-05T1000,2483A,109.9453,27.5444,怀化市,河西地税局,,25,24,24,17,16,34,,11,11,13,16,5,2,0.4,0.4
2025-11-05T1000,2484A,109.9781,27.5342,怀化市,市四医院,,36,36,26,23,17,32,,9,9,13,13,15,9,0.6,0.4
2025-11-05T1000,2485A,109.9972,27.5578,怀化市,监测楼,,32,32,26,17,16,27,,5,5,16,15,9,4,0.3,0.2
2025-11-05T1000,2486A,110.0394,27.583,怀化市,市委党校,,31,31,25,17,19,24,,6,6,8,14,11,12,0.3,0.3
2025-11-05T1000,1210A,119.036,33.5981,淮安市,钵池山,,32,24,38,22,22,61,,30,30,23,36,8,8,0.3,0.4
2025-11-05T1000,1211A,119.007,33.575,淮安市,北京南路,,30,29,41,21,23,57,,29,29,18,25,8,8,0.4,0.4
2025-11-05T1000,1212A,118.989,33.6067,淮安市,市监测站,,24,24,40,14,23,69,,40,40,19,29,6,7,0.3,0.4
2025-11-05T1000,1213A,119.135,33.5039,淮安市,楚州区监测站,,30,,40,21,24,64,,31,31,21,35,10,9,0.2,0.3
2025-11-05T1000,3426A,118.8755,33.2894,淮安市,新华书店,,31,31,51,15,24,55,,25,25,21,36,8,9,0.5,0.5
2025-11-05T1000,4206A,119.0288,33.6319,淮安市,承德北路606号,,40,31,54,28,27,58,,21,21,21,36,7,7,0.4,0.4
2025-11-05T1000,2282A,116.8004,33.975,淮北市,监测站,颗粒物(PM10),82,113,96,34,39,58,,46,39,31,36,11,10,0.9,0.8
2025-11-05T1000,2283A,116.8091,33.9007,淮北市,烈山区政府,细颗粒物(PM2.5),90,87,90,67,65,55,,46,41,31,36,12,11,0.6,0.5
2025-11-05T1000,3330A,116.8873,33.9836,淮北市,杜集区检察院,细颗粒物(PM2.5),92,85,85,68,56,63,,55,49,24,29,8,6,0.6,0.4
2025-11-05T1000,4017A,116.7923,33.9535,淮北市,市博物馆,细颗粒物(PM2.5),88,93,88,65,60,63,,50,45,28,31,13,9,0.5,0.4
2025-11-05T1000,2277A,116.8305,32.7727,淮南市,潘集区政府,细颗粒物(PM2.5),85,104,100,63,64,44,,19,19,36,32,12,7,0.9,0.6
2025-11-05T1000,2279A,116.8569,32.5951,淮南市,谢家集区政府,颗粒物(PM10),61,71,65,39,38,41,,30,30,36,33,12,10,0.8,0.5
2025-11-05T1000,2280A,116.8281,32.633,淮南市,八公山区政府,颗粒物(PM10),62,74,74,39,44,49,,26,26,31,24,12,9,0.7,0.5
2025-11-05T1000,2281A,116.6325,32.6201,淮南市,焦岗湖风景区管理处,,,,,,,,,,,,,,,,
2025-11-05T1000,2894A,117.0566,32.6531,淮南市,经济技术开发区消防队,细颗粒物(PM2.5),68,83,75,49,43,44,,24,24,39,38,14,11,0.6,0.3
2025-11-05T1000,3329A,117.0108,32.5893,淮南市,山南新区,颗粒物(PM10),66,81,80,40,41,46,,33,33,37,32,8,5,0.6,0.4
2025-11-05T1000,4209A,117.0031,32.6445,淮南市,国庆中路369号,细颗粒物(PM2.5),73,80,73,53,45,37,,19,19,38,31,21,17,0.9,0.6
2025-11-05T1000,2446A,114.9028,30.4742,黄冈市,职工中心,细颗粒物(PM2.5),62,60,79,44,58,77,,52,52,26,23,6,4,0.7,0.8
2025-11-05T1000,2929A,114.8858,30.4519,黄冈市,红卫路,细颗粒物(PM2.5),62,52,68,44,60,75,,54,54,21,23,9,8,0.5,0.6
2025-11-05T1000,3398A,114.9136,30.4445,黄冈市,市林业局,,,,80,,62,70,,49,49,26,26,8,7,0.8,1
2025-11-05T1000,2672A,102.0199,35.5102,黄南藏族自治州,同仁县隆务镇,,30,30,40,17,19,36,,44,41,3,4,12,12,0.2,0.2
2025-11-05T1000,2295A,118.2903,29.6963,黄山市,延安路89号,,26,26,16,10,26,37,,22,22,12,15,3,4,0.4,0.4
2025-11-05T1000,2297A,118.1371,30.2756,黄山市,黄山区政府5号楼,,39,30,41,27,30,30,,10,10,6,8,5,5,0.4,0.5
2025-11-05T1000,4210A,118.3354,29.7203,黄山市,滨江东路7-2号,,34,34,43,23,31,42,,37,36,11,12,4,4,0.3,0.4
2025-11-05T1000,2423A,115.0601,30.2313,黄石市,沈家营,细颗粒物(PM2.5),80,98,84,59,55,39,,32,24,35,19,14,13,0.9,0.8
2025-11-05T1000,2426A,114.8988,30.2019,黄石市,铁山,细颗粒物(PM2.5),98,91,71,73,57,57,,42,41,32,19,10,9,0.4,0.4
2025-11-05T1000,2427A,115.0307,30.2092,黄石市,团城山,,,101,76,59,58,,,39,31,,21,,9,,0.8
2025-11-05T1000,3149A,115.0235,30.1578,黄石市,笔架山北路,细颗粒物(PM2.5),104,147,121,78,74,57,,40,39,18,15,5,6,0.9,1
2025-11-05T1000,4185A,115.0780,30.21118,黄石市,磁湖东路29号,,,,85,,63,,,71,,,26,,16,,0.8
2025-11-05T1000,1392A,114.4183,23.0528,惠州市,河南岸金山湖子站,,15,10,9,3,5,47,,40,40,12,18,10,11,0.6,0.7
2025-11-05T1000,1393A,114.4053,23.0822,惠州市,下埔横江三路子站,,20,10,8,3,4,64,,54,54,6,9,5,5,0.6,0.6
2025-11-05T1000,1394A,114.4103,23.1142,惠州市,江北云山西路子站,,17,7,7,3,4,54,,46,46,8,12,5,5,0.4,0.5
2025-11-05T1000,1395A,114.4645,22.7833,惠州市,惠阳区承修路船湖子站,,12,12,12,7,7,38,,35,35,14,16,9,9,0.6,0.6
2025-11-05T1000,1396A,114.5317,22.7422,惠州市,大亚湾管委会子站,,13,13,12,6,7,37,,33,33,9,12,10,10,0.5,0.6
2025-11-05T1000,3314A,114.4338,22.8134,惠州市,惠阳秋长,,15,14,11,6,7,46,,42,42,8,12,10,9,0.3,0.4
2025-11-05T1000,3452A,114.6517,22.775,惠州市,大亚湾霞涌,,11,9,13,3,5,34,,32,32,11,11,6,6,0.5,0.5
2025-11-05T1000,2240A,130.9762,45.3001,鸡西市,环保局,细颗粒物(PM2.5),122,121,87,92,52,48,,38,38,25,23,9,7,0.9,0.8
2025-11-05T1000,2243A,130.9429,45.3039,鸡西市,第一中学,细颗粒物(PM2.5),120,101,80,91,58,49,,44,43,21,16,9,7,0.7,0.6
2025-11-05T1000,3707A,131.0207,45.3073,鸡西市,欧美日汽修厂,细颗粒物(PM2.5),138,165,96,105,66,42,,30,30,38,26,13,13,0.9,0.8
2025-11-05T1000,3709A,130.9967,45.3106,鸡西市,市政设施管理处,细颗粒物(PM2.5),128,158,94,97,57,38,,21,21,41,27,12,10,1.1,0.9
2025-11-05T1000,2367A,114.9754,27.0803,吉安市,红声器材厂,,43,43,33,23,19,34,,41,38,20,18,10,8,0.6,0.6
2025-11-05T1000,2368A,114.9658,27.0999,吉安市,市森林工业局,,42,42,34,28,24,27,,35,32,20,17,9,9,0.5,0.5
2025-11-05T1000,2369A,114.99,27.1312,吉安市,市环境监测站,,41,41,40,22,25,28,,33,31,22,16,16,12,0.4,0.4
2025-11-05T1000,2370A,115.0093,27.0968,吉安市,青原区法院,,35,35,29,23,20,31,,44,38,17,15,16,10,0.7,0.7
2025-11-05T1000,1772A,126.54,43.8622,吉林市,哈达湾,细颗粒物(PM2.5),95,96,85,71,58,36,,26,26,37,30,11,10,0.7,0.7
2025-11-05T1000,1773A,126.5844,43.8358,吉林市,东局子,细颗粒物(PM2.5),79,82,103,58,71,44,,20,20,17,31,8,8,0.8,1
2025-11-05T1000,1774A,126.5052,43.8245,吉林市,电力学院,细颗粒物(PM2.5),102,96,125,76,90,22,,7,7,38,35,10,9,1.1,1.2
2025-11-05T1000,1775A,126.6133,43.8972,吉林市,江北,细颗粒物(PM2.5),83,83,97,61,73,51,,16,16,18,33,6,6,0.6,0.8
2025-11-05T1000,1776A,126.555,43.8306,吉林市,江南公园,细颗粒物(PM2.5),108,94,95,81,77,34,,15,15,37,35,8,7,0.8,0.9
2025-11-05T1000,1778A,126.7061,43.7133,吉林市,丰满,细颗粒物(PM2.5),77,,58,56,59,73,,48,48,10,12,9,8,1.1,1
2025-11-05T1000,2868A,126.4739,43.953,吉林市,九站,细颗粒物(PM2.5),98,91,117,73,82,52,,14,14,19,47,9,14,0.6,0.9
2025-11-05T1000,1299A,116.9862,36.6114,济南市,科干所,,,66,59,34,32,,,95,90,35,21,10,10,0.5,0.4
2025-11-05T1000,1300A,116.9376,36.665,济南市,农科所,颗粒物(PM10),67,83,73,39,32,68,,46,46,35,39,10,8,0.8,0.7
2025-11-05T1000,1301A,117.1265,36.6734,济南市,开发区,细颗粒物(PM2.5),80,105,64,59,39,25,,22,19,64,44,8,4,0.8,0.7
2025-11-05T1000,1303A,117.0624,36.6868,济南市,省种子仓库,颗粒物(PM10),91,132,89,63,42,20,,8,8,94,66,16,8,1.1,0.9
2025-11-05T1000,1304A,116.9489,36.6447,济南市,机床二厂,细颗粒物(PM2.5),77,88,86,56,49,71,,52,52,35,41,12,10,0.3,0.4
2025-11-05T1000,1305A,117.0495,36.663,济南市,市监测站,"颗粒物(PM10),细颗粒物(PM2.5)",92,134,72,68,39,29,,18,18,94,64,8,4,1.3,1
2025-11-05T1000,1306A,116.7675,36.5484,济南市,长清党校,,,59,76,42,38,95,,92,90,15,24,9,10,,0.6
2025-11-05T1000,1616A,117.6795,36.229,济南市,技术学院,细颗粒物(PM2.5),94,112,98,70,61,49,,13,13,48,59,20,14,0.9,0.7
2025-11-05T1000,1961A,117.532,36.6868,济南市,东山小学,,,78,80,,47,72,,46,38,37,36,14,11,0.8,0.6
2025-11-05T1000,3059A,117.7161,36.2049,济南市,泰兴公司,细颗粒物(PM2.5),100,119,99,75,60,47,,13,13,48,52,21,11,0.9,0.8
2025-11-05T1000,3064A,117.6867,36.2171,济南市,莱芜战役纪念馆,细颗粒物(PM2.5),110,119,99,83,68,,,8,8,56,57,19,13,0.7,0.5
2025-11-05T1000,3494A,117.1673,36.9782,济南市,济阳区政府,颗粒物(PM10),81,112,94,54,48,55,,50,50,61,52,14,9,0.6,0.6
2025-11-05T1000,3495A,117.1171,36.63,济南市,锦屏中学,颗粒物(PM10),59,68,54,32,31,72,,80,76,38,23,4,3,1.0,0.8
2025-11-05T1000,3682A,116.9814,36.6819,济南市,济南四建,颗粒物(PM10),70,90,79,49,44,66,,26,24,41,46,10,7,0.9,1
2025-11-05T1000,1653A,116.6251,35.4302,济宁市,火炬城,细颗粒物(PM2.5),92,82,95,68,69,61,,50,49,36,38,8,7,0.5,0.4
2025-11-05T1000,1655A,116.5491,35.4042,济宁市,电化厂,细颗粒物(PM2.5),89,110,115,66,63,59,,53,51,34,34,9,7,0.4,0.4
2025-11-05T1000,3500A,116.5814,35.3707,济宁市,北湖一中,,,72,77,67,69,,,42,37,30,29,8,7,0.5,0.4
2025-11-05T1000,3501A,116.8249,35.5593,济宁市,服务中心,颗粒物(PM10),88,126,100,60,59,46,,18,18,27,34,8,8,0.5,0.5
2025-11-05T1000,3678A,116.5907,35.4054,济宁市,市第七中学,细颗粒物(PM2.5),89,73,74,66,61,61,,50,49,32,31,13,11,0.6,0.5
2025-11-05T1000,2255A,130.2751,46.8028,佳木斯市,佳纺,细颗粒物(PM2.5),172,190,88,130,54,49,,19,19,23,28,7,7,0.8,0.7
2025-11-05T1000,2256A,130.3995,46.8307,佳木斯市,发电厂,细颗粒物(PM2.5),125,106,67,95,50,43,,14,14,33,26,9,7,0.8,0.6
2025-11-05T1000,2257A,130.3258,46.7975,佳木斯市,环保局,细颗粒物(PM2.5),148,121,69,113,54,56,,26,26,16,26,6,5,0.6,0.6
2025-11-05T1000,2258A,130.3648,46.8032,佳木斯市,十一中,细颗粒物(PM2.5),148,119,71,113,54,36,,22,22,31,29,11,10,0.7,0.7
2025-11-05T1000,2259A,130.3794,46.7588,佳木斯市,四丰,,,,,,,,,,,,,,,,
2025-11-05T1000,1252A,120.7436,30.778,嘉兴市,清河小学,,30,30,41,14,18,53,,32,32,30,41,9,8,0.6,0.5
2025-11-05T1000,1253A,120.726,30.7478,嘉兴市,嘉兴学院,,32,32,40,21,19,44,,26,26,34,44,7,6,0.7,0.7
2025-11-05T1000,2872A,120.7846,30.7525,嘉兴市,南湖区残联,,28,28,41,18,20,52,,23,23,25,39,7,7,0.6,0.6
2025-11-05T1000,3407A,120.6916,30.7739,嘉兴市,秀洲住建,,29,29,37,17,19,50,,21,21,32,47,9,9,0.6,0.5
2025-11-05T1000,1945A,98.2908,39.7711,嘉峪关市,气象局,颗粒物(PM10),69,88,85,31,33,75,,34,34,30,31,10,12,1.3,1
2025-11-05T1000,2884A,98.2672,39.7978,嘉峪关市,酒钢宾馆,颗粒物(PM10),89,127,106,41,34,46,,35,35,51,26,140,36,4.4,1.4
2025-11-05T1000,3248A,98.2643,39.7724,嘉峪关市,雄关区,颗粒物(PM10),65,80,75,34,33,52,,21,21,46,46,13,21,0.3,1.1
2025-11-05T1000,1383A,113.1064,22.6058,江门市,北街,,23,23,16,10,12,41,,25,25,23,34,6,5,0.7,0.7
2025-11-05T1000,1384A,113.0731,22.5835,江门市,西区,,,14,14,10,10,,,21,21,21,32,6,4,0.5,0.4
2025-11-05T1000,1385A,113.0219,22.5311,江门市,圭峰西,,29,29,12,8,8,42,,32,32,20,27,6,4,0.6,0.5
2025-11-05T1000,1386A,113.0828,22.5947,江门市,东湖,,19,,14,13,8,38,,22,22,22,29,7,6,0.5,0.5
2025-11-05T1000,3311A,113.1075,22.5647,江门市,江海富民,,23,18,19,16,10,41,,24,24,27,34,9,8,0.8,0.7
2025-11-05T1000,3449A,113.05,22.4667,江门市,新会银湖,,,34,17,10,12,34,,20,20,,33,,4,0.7,0.7
2025-11-05T1000,1830A,113.1992,35.2590,焦作市,影视城,,,,114,,66,,,92,,,27,,12,,0.6
2025-11-05T1000,3335A,113.3137,35.2641,焦作市,马村街道办,细颗粒物(PM2.5),84,96,140,62,92,50,,38,36,34,38,8,8,0.5,0.6
2025-11-05T1000,3336A,113.2465,35.2373,焦作市,焦作技师学院,细颗粒物(PM2.5),79,92,138,58,90,50,,38,37,34,41,8,8,0.5,0.6
2025-11-05T1000,3477A,113.1656,35.2539,焦作市,中站许衡医院,细颗粒物(PM2.5),82,97,122,60,79,65,,72,67,30,26,8,8,0.6,0.6
2025-11-05T1000,3981A,113.2449,35.1803,焦作市,原李万街道办,细颗粒物(PM2.5),89,102,162,66,100,44,,38,35,29,30,10,15,0.4,0.8
2025-11-05T1000,4264A,113.2340,35.2190,焦作市,新安路1731号,细颗粒物(PM2.5),92,112,152,68,100,52,,42,40,31,33,9,9,0.6,0.7
2025-11-05T1000,4295A,113.2722,35.2121,焦作市,人民路3066号,,,106,160,60,89,39,,36,34,,46,14,11,0.9,0.9
2025-11-05T1000,1708A,116.3701,23.5345,揭阳市,新兴,,37,37,29,10,19,45,,24,24,12,19,6,7,0.6,0.6
2025-11-05T1000,1709A,116.3264,23.5443,揭阳市,西马,,16,16,26,6,14,35,,22,22,13,17,4,4,0.6,0.7
2025-11-05T1000,1710A,116.3611,23.5626,揭阳市,东兴,,50,50,36,10,17,37,,16,16,13,23,5,6,0.5,0.5
2025-11-05T1000,1711A,116.4151,23.5294,揭阳市,渔湖,,38,38,25,9,13,46,,23,23,11,18,6,7,0.6,0.6
2025-11-05T1000,3320A,116.403,23.5699,揭阳市,曲溪,,26,24,24,18,16,50,,23,23,9,16,3,2,0.5,0.5
2025-11-05T1000,1944A,102.1692,38.5167,金昌市,天庆家园,颗粒物(PM10),60,70,96,39,48,51,,46,46,15,23,4,8,0.6,0.8
2025-11-05T1000,4022A,102.1647,38.5371,金昌市,金川区人防中心,细颗粒物(PM2.5),62,68,88,44,49,45,,46,46,12,17,3,8,0.8,0.9
2025-11-05T1000,4239A,102.1930,38.5319,金昌市,长春路96号,颗粒物(PM10),60,69,93,39,45,46,,41,41,11,23,5,9,0.6,0.8
2025-11-05T1000,1262A,119.647,29.077,金华市,十五中,细颗粒物(PM2.5),58,50,31,41,24,20,,31,24,32,25,5,5,0.7,0.5
2025-11-05T1000,1263A,119.686,29.1029,金华市,监测站,,,41,30,26,19,19,,22,18,,17,,3,0.5,0.2
2025-11-05T1000,3659A,119.656,29.1131,金华市,气象局,细颗粒物(PM2.5),57,43,32,40,26,15,,21,16,36,28,4,4,0.8,0.5
2025-11-05T1000,1767A,121.1115,41.0879,锦州市,南山,细颗粒物(PM2.5),139,,79,106,81,6,,3,3,75,54,,18,,1.2
2025-11-05T1000,1768A,121.0604,40.8428,锦州市,开发区,细颗粒物(PM2.5),107,87,94,80,60,33,,6,6,45,71,14,20,0.8,0.9
2025-11-05T1000,1769A,121.1836,41.1119,锦州市,百股街道,细颗粒物(PM2.5),98,93,77,73,63,34,,12,12,41,51,13,19,1.0,1.2
2025-11-05T1000,1770A,121.1178,41.1222,锦州市,天安街道,细颗粒物(PM2.5),160,135,96,122,82,8,,3,3,68,54,50,21,1.9,1.5
2025-11-05T1000,1771A,121.1303,41.1386,锦州市,北湖公园,细颗粒物(PM2.5),143,128,80,109,72,14,,7,6,66,51,53,20,1.4,1.1
2025-11-05T1000,2160A,112.85,35.5051,晋城市,自来水公司,细颗粒物(PM2.5),94,97,108,70,69,56,,41,34,29,26,6,7,0.8,0.9
2025-11-05T1000,2161A,112.8318,35.4936,晋城市,白云商贸,颗粒物(PM10),78,105,121,51,58,55,,42,39,36,28,2,3,0.6,0.7
2025-11-05T1000,2162A,112.8508,35.4887,晋城市,市环保局,颗粒物(PM10),87,124,114,61,61,54,,31,28,28,23,4,5,0.9,0.9
2025-11-05T1000,2163A,112.8676,35.4897,晋城市,技术学院,颗粒物(PM10),79,108,102,56,60,46,,37,25,37,28,5,6,0.9,0.8
2025-11-05T1000,2165A,112.8453,35.546,晋城市,白马寺,细颗粒物(PM2.5),88,80,90,65,63,97,,100,94,9,13,6,8,0.4,0.6
2025-11-05T1000,3620A,112.8271,35.4828,晋城市,泽州一中,颗粒物(PM10),94,137,135,66,76,74,,64,57,30,25,3,3,0.8,0.8
2025-11-05T1000,2173A,112.7249,37.7067,晋中市,南都小区,细颗粒物(PM2.5),113,150,113,85,65,11,,26,19,58,44,5,10,1.1,0.9
2025-11-05T1000,2174A,112.6991,37.6982,晋中市,榆次区政府,细颗粒物(PM2.5),139,153,115,106,82,10,,26,18,57,46,7,10,1.4,1
2025-11-05T1000,2865A,112.7195,37.6828,晋中市,榆次三中,细颗粒物(PM2.5),125,168,127,95,74,10,,21,15,55,45,9,12,,0.6
2025-11-05T1000,4200A,112.7478,37.6954,晋中市,迎宾街26号,细颗粒物(PM2.5),125,134,114,95,75,16,,23,16,46,42,7,9,1.0,0.9
2025-11-05T1000,2439A,112.2014,31.0481,荆门市,竹园小学,细颗粒物(PM2.5),123,135,143,93,109,53,,32,32,41,37,2,2,0.5,0.6
2025-11-05T1000,2440A,112.1969,30.9891,荆门市,掇刀,细颗粒物(PM2.5),129,141,135,98,113,51,,36,36,31,29,1,1,0.8,0.7
2025-11-05T1000,2441A,112.2213,31.0386,荆门市,石化一小,颗粒物(PM10),121,191,197,90,117,38,,18,18,43,44,10,6,1.1,1.3
2025-11-05T1000,3012A,112.1849,31.0362,荆门市,西山林语,细颗粒物(PM2.5),112,128,129,84,93,58,,33,33,30,24,9,5,0.8,0.7
2025-11-05T1000,3547A,112.1632,31.0138,荆门市,龙泉中学南校,细颗粒物(PM2.5),114,126,105,86,74,63,,42,42,31,27,10,7,0.6,0.5
2025-11-05T1000,1844A,112.2494,30.3197,荆州市,市图书馆,细颗粒物(PM2.5),145,126,91,111,71,72,,30,30,31,32,11,9,1.1,0.8
2025-11-05T1000,1845A,112.2008,30.3544,荆州市,市委党校,细颗粒物(PM2.5),148,148,110,113,82,65,,17,17,27,36,12,10,1.1,0.9
2025-11-05T1000,3194A,112.2747,30.3122,荆州市,管委会,细颗粒物(PM2.5),127,126,87,96,59,65,,19,19,24,32,10,9,0.8,0.7
2025-11-05T1000,4268A,112.1722,30.3366,荆州市,学苑路85号,细颗粒物(PM2.5),212,,112,162,117,71,,33,33,25,30,2,3,0.8,0.6
2025-11-05T1000,2342A,117.3102,29.3867,景德镇市,王港中学,,,,,,,,,,,,,,,,
2025-11-05T1000,2343A,117.2117,29.2933,景德镇市,老干部活动中心,,25,,17,17,15,38,,32,29,4,4,4,4,0.6,0.6
2025-11-05T1000,2344A,117.1894,29.2789,景德镇市,兽医站,,30,30,25,14,12,43,,37,34,10,10,6,6,0.4,0.4
2025-11-05T1000,2346A,117.2461,29.2956,景德镇市,陶研所,,23,23,16,14,17,39,,31,27,2,3,7,7,0.7,0.5
2025-11-05T1000,4289A,117.1542,29.2566,景德镇市,青少年活动中心,,38,,19,26,14,42,,38,34,9,11,3,5,0.3,0.4
2025-11-05T1000,1803A,115.9872,29.6815,九江市,十里,细颗粒物(PM2.5),94,95,97,70,71,35,,14,14,35,47,9,9,1.3,1.2
2025-11-05T1000,1804A,115.9584,29.7046,九江市,茅山头,,,96,91,72,66,26,,14,14,33,42,8,8,,0.9
2025-11-05T1000,1805A,115.9877,29.7295,九江市,西园,细颗粒物(PM2.5),82,85,86,60,65,45,,34,34,47,50,12,7,1.4,0.9
2025-11-05T1000,1808A,115.9114,29.6038,九江市,综合工业园,细颗粒物(PM2.5),133,115,84,101,68,37,,14,14,37,49,6,6,0.9,0.8
2025-11-05T1000,1809A,116.0721,29.7535,九江市,石化总厂,细颗粒物(PM2.5),97,107,106,72,76,35,,29,29,40,39,12,7,1.1,0.8
2025-11-05T1000,1810A,115.9773,29.5698,九江市,庐山气象台,,,,,,,,,,,,,,,,
2025-11-05T1000,3190A,116.0254,29.6994,九江市,外国语学校,细颗粒物(PM2.5),100,96,93,75,67,37,,24,24,37,49,16,11,1.5,1.1
2025-11-05T1000,4253A,116.0102,29.6594,九江市,莲花大道8号,细颗粒物(PM2.5),120,110,98,91,87,27,,14,14,31,36,11,10,0.9,1
2025-11-05T1000,4240A,98.4958,39.7339,酒泉市,玉门东路5号,颗粒物(PM10),90,129,102,30,31,34,,32,32,46,30,15,13,0.6,0.6
2025-11-05T1000,4241A,98.5099,39.7506,酒泉市,北大街108号,颗粒物(PM10),68,85,91,29,29,52,,33,33,25,29,11,12,0.5,0.6
2025-11-05T1000,2698A,76.0072,39.4467,喀什地区,巡警大队,颗粒物(PM10),114,178,152,42,37,6,,28,20,68,43,8,6,1.3,0.7
2025-11-05T1000,2699A,75.9755,39.4694,喀什地区,吾办,颗粒物(PM10),106,162,121,44,39,3,,43,30,62,28,9,7,1.5,0.6
2025-11-05T1000,4027A,75.9483,39.4689,喀什地区,老干局,颗粒物(PM10),112,174,137,50,32,2,,44,32,59,28,4,3,1.2,0.6
2025-11-05T1000,1824A,114.3389,34.7781,开封市,肿瘤医院,细颗粒物(PM2.5),87,105,103,64,60,46,,17,17,44,52,12,11,0.8,0.8
2025-11-05T1000,1826A,114.2885,34.7965,开封市,世纪星幼儿园,细颗粒物(PM2.5),112,172,97,84,70,53,,46,46,34,38,12,9,0.7,0.7
2025-11-05T1000,3147A,114.3438,34.8106,开封市,龙亭公园,细颗粒物(PM2.5),89,102,87,66,67,55,,30,30,33,40,10,9,0.6,0.6
2025-11-05T1000,3210A,114.3644,34.7964,开封市,汴京公园,细颗粒物(PM2.5),97,122,100,72,60,42,,24,24,42,46,10,9,0.7,0.7
2025-11-05T1000,3473A,114.2485,34.8306,开封市,技师学院,细颗粒物(PM2.5),87,90,83,64,58,62,,54,53,30,32,13,11,0.8,0.7
2025-11-05T1000,3592A,114.4644,34.7556,开封市,祥符区生态环境局,细颗粒物(PM2.5),109,117,121,82,64,45,,18,18,44,55,8,7,0.8,0.7
2025-11-05T1000,1951A,84.895,45.6094,克拉玛依市,长征新村,,17,6,38,6,12,54,,64,61,12,15,2,3,0.2,0.3
2025-11-05T1000,1952A,84.8988,45.5893,克拉玛依市,南林小区,,15,8,41,3,10,47,,62,58,15,15,2,3,0.3,0.2
2025-11-05T1000,1954A,84.905,44.3396,克拉玛依市,独山子区,,18,8,60,3,13,56,,58,58,7,10,4,5,0.2,0.3
2025-11-05T1000,1955A,85.6979,46.098,克拉玛依市,乌尔禾区商贸楼,,22,22,37,9,7,58,,68,66,8,10,5,6,0.2,0.2
2025-11-05T1000,3612A,85.1045,45.6899,克拉玛依市,白碱滩区新站,,23,17,58,6,13,73,,76,74,3,15,6,6,0.2,0.3
2025-11-05T1000,2697A,76.1454,39.7142,克孜勒苏柯尔克孜自治州,市人民政府,颗粒物(PM10),98,145,87,15,33,65,,73,72,12,12,5,12,0.1,0.1
2025-11-05T1000,3665A,76.1658,39.7157,克孜勒苏柯尔克孜自治州,克州文化中心,颗粒物(PM10),95,139,88,11,26,72,,74,73,1,7,7,8,0.2,0.3
2025-11-05T1000,1450A,102.8204,24.8886,昆明市,呈贡新区,,,22,22,3,10,,,30,30,16,20,4,4,,0.7
2025-11-05T1000,1451A,102.6251,24.9608,昆明市,西山森林公园,,,,,,,,,,,,,,,,
2025-11-05T1000,1452A,102.7252,25.0902,昆明市,龙泉镇,,25,25,36,6,24,24,,21,21,20,19,3,2,0.6,0.8
2025-11-05T1000,1453A,102.7266,25.0375,昆明市,东风东路,,16,11,37,11,28,22,,25,24,21,23,1,1,0.6,0.8
2025-11-05T1000,1454A,102.6742,25.0669,昆明市,金鼎山,,12,12,46,7,22,24,,20,20,15,21,2,1,0.5,0.7
2025-11-05T1000,1455A,102.6644,25.0401,昆明市,碧鸡广场,,,9,40,7,26,,,16,16,15,24,2,2,0.6,0.8
2025-11-05T1000,3179A,102.7494,25.0119,昆明市,官渡区博物馆,,22,16,32,15,20,14,,21,21,28,24,2,2,0.7,0.8
2025-11-05T1000,3375A,102.8017,24.8336,昆明市,青年创业园,,11,6,19,3,14,34,,28,28,6,12,5,3,0.6,0.7
2025-11-05T1000,3550A,102.7997,24.9786,昆明市,昆明学院,,10,9,33,6,24,19,,24,24,20,20,8,8,0.6,0.6
2025-11-05T1000,3551A,102.5967,24.6736,昆明市,晋宁区生态环境分局,,13,12,20,9,13,35,,30,30,8,16,3,2,0.5,0.6
2025-11-05T1000,3552A,102.6678,24.9856,昆明市,云天化总部,,9,7,34,3,27,28,,29,29,14,19,4,4,0.7,0.8
2025-11-05T1000,1456A,91.1319,29.6514,拉萨市,八廓街,细颗粒物(PM2.5),83,71,27,61,19,48,,42,42,22,25,11,8,0.5,0.3
2025-11-05T1000,1457A,91.1221,29.6747,拉萨市,市环保局,细颗粒物(PM2.5),88,87,34,65,23,32,,19,19,23,22,6,9,0.7,0.5
2025-11-05T1000,1458A,91.0874,29.6475,拉萨市,区监测站,细颗粒物(PM2.5),55,47,21,39,14,28,,35,35,45,37,9,6,0.6,0.4
2025-11-05T1000,1459A,91.1774,29.6541,拉萨市,西藏大学,,32,29,20,22,13,42,,37,37,22,27,10,7,0.2,0.2
2025-11-05T1000,1460A,90.9798,29.6588,拉萨市,区辐射站,颗粒物(PM10),60,70,46,39,23,23,,13,13,38,44,15,10,0.7,0.6
2025-11-05T1000,1461A,91.0834,29.6292,拉萨市,拉萨火车站,颗粒物(PM10),57,63,19,32,12,12,,26,20,50,27,9,6,0.8,0.5
2025-11-05T1000,2520A,109.2203,23.7256,来宾市,来宾技工学校,,27,27,13,14,8,39,,40,39,6,7,9,9,0.5,0.5
2025-11-05T1000,3535A,109.1781,23.7297,来宾市,兴宾区政府,,13,13,8,9,5,40,,37,36,6,6,8,8,0.4,0.4
2025-11-05T1000,4002A,109.2416,23.7461,来宾市,中南小学,,28,24,12,19,8,38,,37,36,8,8,7,7,0.7,0.7
2025-11-05T1000,1477A,104.1373,35.9454,兰州市,榆中兰大校区,,,,,,,,,,,,,,,,
2025-11-05T1000,1479A,103.831,36.0464,兰州市,铁路设计院,,,,,,,,,,,,,,,,
2025-11-05T1000,3241A,103.7439,36.0842,兰州市,百合公园,,27,27,62,15,40,17,,37,34,27,38,6,9,0.9,1.1
2025-11-05T1000,3242A,103.9611,35.998,兰州市,和平,,41,41,39,16,23,21,,42,37,23,19,3,6,0.6,0.6
2025-11-05T1000,4236A,103.6293,36.0938,兰州市,庄浪东路808号,,34,34,68,20,47,20,,16,16,38,55,9,20,0.5,0.8
2025-11-05T1000,4237A,103.7251,36.1043,兰州市,安宁西路88号,,46,41,75,32,52,22,,39,37,30,43,2,10,0.6,0.7
2025-11-05T1000,4238A,103.8470,36.0676,兰州市,北滨河东路1号,,32,32,53,19,36,20,,41,35,36,44,7,9,0.8,0.9
2025-11-05T1000,3245A,103.6633,36.533,兰州新区,新区管委会,,41,41,53,28,36,34,,33,27,18,18,32,26,0.5,0.5
2025-11-05T1000,3246A,103.6975,36.4789,兰州新区,舟曲中学,,22,22,39,14,28,50,,46,42,12,18,14,22,0.3,0.4
2025-11-05T1000,1067A,116.6708,39.5111,廊坊市,药材公司,细颗粒物(PM2.5),204,166,152,154,118,4,,1,1,60,69,3,4,1.1,1
2025-11-05T1000,1068A,116.7214,39.5589,廊坊市,开发区,细颗粒物(PM2.5),183,181,140,138,108,4,,1,1,62,56,3,3,1.0,0.8
2025-11-05T1000,1070A,116.7244,39.5269,廊坊市,北华航天学院,细颗粒物(PM2.5),186,190,170,140,117,4,,2,2,60,64,6,6,1.0,0.9
2025-11-05T1000,2919A,116.7022,39.5453,廊坊市,河北工业大学,细颗粒物(PM2.5),189,180,157,142,113,2,,0,0,56,61,6,6,1.0,0.9
2025-11-05T1000,2535A,103.7723,29.5462,乐山市,花湖湾,,,,,,,,,,,,,,,,
2025-11-05T1000,2536A,103.7627,29.5844,乐山市,牛耳桥,,,43,27,35,23,,,11,9,30,28,8,7,1.0,0.8
2025-11-05T1000,2537A,103.7508,29.6006,乐山市,市第三水厂,,43,43,29,30,21,12,,11,10,26,24,8,6,0.9,0.7
2025-11-05T1000,2538A,103.7571,29.5664,乐山市,市监测站,,45,42,28,31,20,3,,11,8,26,20,7,6,0.9,0.7
2025-11-05T1000,3361A,103.7311,29.5628,乐山市,理工大学,,40,40,24,26,20,3,,13,10,27,21,8,7,0.9,0.7
2025-11-05T1000,2598A,100.2143,26.8576,丽江市,西南郊,,16,15,17,11,9,51,,24,24,13,9,2,6,1.5,1.1
2025-11-05T1000,2599A,100.2497,26.8802,丽江市,丽江古城,,,,19,,10,28,,32,31,,11,,9,0.7,0.6
2025-11-05T1000,2600A,100.2203,26.8906,丽江市,市中心,,,,15,18,12,30,,30,29,14,12,11,11,,0.5
2025-11-05T1000,1267A,119.914,28.4514,丽水市,监测站大楼,,11,11,13,6,7,31,,31,29,14,14,6,5,0.3,0.3
2025-11-05T1000,1268A,119.93,28.4586,丽水市,莲都小学,,13,13,12,8,6,32,,34,30,13,15,4,4,0.4,0.3
2025-11-05T1000,1269A,119.879,28.4231,丽水市,余庄前,,,24,11,20,8,,,20,17,26,19,3,3,0.4,0.4
2025-11-05T1000,1173A,119.176,34.5885,连云港市,市环境监测站,,,17,35,12,16,,,36,34,10,22,,8,0.4,0.5
2025-11-05T1000,3000A,119.3581,34.6972,连云港市,德源药业,,23,19,36,12,13,71,,38,38,18,27,6,6,0.3,0.3
2025-11-05T1000,3007A,119.178,34.844,连云港市,新城一中,,39,39,37,22,21,50,,22,21,37,42,8,7,0.8,0.8
2025-11-05T1000,3008A,119.3608,34.7519,连云港市,胡沟管理处,,34,34,26,14,10,57,,73,66,34,28,15,13,0.4,0.5
2025-11-05T1000,3009A,119.1478,34.5911,连云港市,矿山设计院,,25,19,39,7,18,79,,38,38,10,20,4,6,0.4,0.5
2025-11-05T1000,3434A,119.2413,34.6539,连云港市,工贸学校,,27,20,34,10,15,84,,64,64,8,14,10,9,0.6,0.6
2025-11-05T1000,3664A,119.4172,34.7341,连云港市,连云街道,,26,22,31,11,13,81,,72,66,14,21,7,7,0.2,0.3
2025-11-05T1000,2571A,102.3431,27.8099,凉山彝族自治州,青龙寺,,,,,,,,,,,,,,,,
2025-11-05T1000,2572A,102.2721,27.8415,凉山彝族自治州,邛海宾馆,,23,23,29,16,19,11,,17,15,16,12,6,7,0.7,0.6
2025-11-05T1000,2573A,102.2625,27.898,凉山彝族自治州,西昌市政府,,39,33,32,27,26,6,,7,5,23,18,8,8,1.1,0.9
2025-11-05T1000,2574A,102.2685,27.8851,凉山彝族自治州,凉山州政府,,38,38,38,22,28,6,,8,5,19,16,9,9,1.4,1.2
2025-11-05T1000,4229A,102.2342,27.8859,凉山彝族自治州,凯乐南路30号,颗粒物(PM10),52,54,36,28,23,4,,3,2,29,22,8,8,1.4,1.2
2025-11-05T1000,2212A,123.2,41.1953,辽阳市,宏伟区,细颗粒物(PM2.5),68,66,75,49,57,79,,66,66,11,15,6,7,0.5,0.7
2025-11-05T1000,2213A,123.1683,41.2495,辽阳市,新华园,细颗粒物(PM2.5),62,63,89,44,56,75,,62,62,17,23,4,5,0.5,0.7
2025-11-05T1000,2214A,123.2354,41.2639,辽阳市,滨河路,细颗粒物(PM2.5),72,82,89,52,60,67,,55,55,21,23,6,7,0.7,0.9
2025-11-05T1000,2215A,123.149,41.2991,辽阳市,铁西工业园,颗粒物(PM10),64,78,102,43,59,70,,56,56,14,26,7,8,0.7,0.9
2025-11-05T1000,2227A,125.1358,42.8845,辽源市,环保局,"颗粒物(PM10),细颗粒物(PM2.5)",64,78,98,46,49,43,,13,13,28,42,7,6,0.8,1.1
2025-11-05T1000,3239A,125.0764,42.9078,辽源市,银鹰制药,,,,81,,55,37,,16,16,40,39,,6,0.9,0.9
2025-11-05T1000,1625A,115.9848,36.4372,聊城市,区政府,颗粒物(PM10),81,111,110,59,59,73,,60,59,35,37,14,11,0.8,0.7
2025-11-05T1000,2878A,116.0072,36.4343,聊城市,聊大东校,细颗粒物(PM2.5),94,122,117,70,66,68,,54,53,33,36,14,10,0.8,0.7
2025-11-05T1000,3200A,115.9819,36.4978,聊城市,监控中心,,,100,102,63,62,,,72,72,28,29,13,12,0.9,0.8
2025-11-05T1000,3513A,116.0445,36.4361,聊城市,九州社区,颗粒物(PM10),80,110,107,51,57,77,,58,58,22,28,3,3,0.6,0.6
2025-11-05T1000,4018A,116.0567,36.4608,聊城市,星美广场,颗粒物(PM10),81,112,107,47,53,83,,66,66,22,27,7,5,0.6,0.6
2025-11-05T1000,2632A,94.3681,29.6376,林芝市,林芝监测站,,12,10,7,8,4,32,,66,54,16,4,5,4,0.4,0.3
2025-11-05T1000,2633A,94.3616,29.6616,林芝市,林芝人民医院,,29,29,9,15,4,31,,53,43,15,3,4,5,0.7,0.4
2025-11-05T1000,2603A,100.0781,23.8982,临沧市,市环保局,,18,18,12,10,24,14,,12,11,9,6,2,2,1.2,1
2025-11-05T1000,2604A,100.0894,23.8822,临沧市,市气象局,,12,12,13,6,8,23,,20,19,7,7,4,4,0.8,0.8
2025-11-05T1000,1733A,111.5531,36.0783,临汾市,临钢医院,颗粒物(PM10),91,132,120,67,65,21,,33,28,46,39,7,8,1.0,1.1
2025-11-05T1000,1734A,111.5028,36.0714,临汾市,技工学校,,,,115,,71,29,,53,50,,41,,8,0.5,0.6
2025-11-05T1000,1736A,111.5018,36.0855,临汾市,市委,细颗粒物(PM2.5),93,132,130,69,70,31,,52,50,42,39,6,7,0.8,0.9
2025-11-05T1000,3018A,111.505,36.1014,临汾市,唐尧大酒店,细颗粒物(PM2.5),93,124,115,69,66,32,,56,51,35,32,5,5,1.0,1
2025-11-05T1000,4244A,111.4879,36.0530,临汾市,启星学校,颗粒物(PM10),81,111,109,56,64,43,,20,20,39,52,6,7,0.8,0.9
2025-11-05T1000,4271A,103.2464,35.6123,临夏回族自治州,滨河东路1号,细颗粒物(PM2.5),99,102,111,74,71,7,,4,4,31,27,10,10,0.9,0.8
2025-11-05T1000,4310A,103.2093,35.5995,临夏回族自治州,新华街21号,细颗粒物(PM2.5),98,98,90,73,64,16,,20,18,30,26,10,9,0.7,0.7
2025-11-05T1000,1618A,118.3429,35.0532,临沂市,沂河小区,细颗粒物(PM2.5),62,63,81,44,61,47,,14,14,36,43,9,10,0.5,0.5
2025-11-05T1000,1619A,118.295,35.0583,临沂市,鲁南制药厂,颗粒物(PM10),57,63,83,39,54,56,,21,21,36,46,17,14,0.7,0.8
2025-11-05T1000,1620A,118.2794,34.9976,临沂市,新光毛纺厂,细颗粒物(PM2.5),52,48,86,36,65,61,,23,23,24,55,17,15,0.5,0.6
2025-11-05T1000,1621A,118.3956,35.0888,临沂市,河东保险公司,颗粒物(PM10),56,61,96,34,61,45,,10,10,39,52,8,9,0.6,0.7
2025-11-05T1000,3370A,118.3564,35.0215,临沂市,十里堡居委,,,,76,19,42,57,,18,18,,50,11,12,0.6,0.6
2025-11-05T1000,3496A,118.3604,35.1084,临沂市,南坊新区,,,63,85,34,54,,,10,10,38,50,,11,0.7,0.8
2025-11-05T1000,3860A,118.3920,35.0300,临沂市,皇山花园小区,,48,48,92,25,48,61,,15,15,31,47,12,13,0.5,0.7
2025-11-05T1000,1870A,109.4856,24.3895,柳州市,柳东小学,,18,18,11,12,7,40,,26,26,4,6,6,5,0.4,0.4
2025-11-05T1000,1871A,109.4157,24.3277,柳州市,环保监测站,,21,21,13,3,6,38,,31,31,8,10,8,8,0.6,0.6
2025-11-05T1000,1872A,109.389,24.341,柳州市,河西水厂,,33,33,21,18,12,38,,29,29,10,13,5,5,0.5,0.6
2025-11-05T1000,1873A,109.4311,24.2921,柳州市,市四中,,32,32,15,8,5,37,,32,32,10,11,9,9,0.6,0.5
2025-11-05T1000,1874A,109.4006,24.3631,柳州市,市九中,,26,25,17,18,9,36,,28,28,10,14,6,4,0.5,0.6
2025-11-05T1000,1875A,109.4958,24.3134,柳州市,古亭山,,18,18,10,6,4,48,,32,32,4,4,7,7,0.6,0.6
2025-11-05T1000,3402A,109.5422,24.3996,柳州市,市二中,,,,7,13,6,49,,28,28,8,10,7,6,0.6,0.5
2025-11-05T1000,2307A,116.5079,31.737,六安市,监测大楼,,,,87,,67,43,,22,21,,30,,5,0.6,0.4
2025-11-05T1000,2308A,116.4738,31.7643,六安市,皖西学院,细颗粒物(PM2.5),84,98,91,62,62,52,,26,26,26,25,5,4,0.6,0.4
2025-11-05T1000,2309A,116.4996,31.7905,六安市,朝阳厂,细颗粒物(PM2.5),79,74,84,58,59,46,,22,20,32,32,6,5,0.5,0.4
2025-11-05T1000,2310A,116.5567,31.7886,六安市,开发区,细颗粒物(PM2.5),74,58,77,54,62,40,,13,13,29,31,4,3,0.5,0.5
2025-11-05T1000,2576A,104.8,26.5892,六盘水市,窑上,,21,21,23,10,14,24,,34,31,10,8,2,2,0.5,0.4
2025-11-05T1000,2577A,104.83,26.5917,六盘水市,黄土坡,,17,17,15,7,9,21,,37,31,19,12,8,4,0.9,0.6
2025-11-05T1000,2578A,104.89,26.5939,六盘水市,水钢,,20,20,19,7,9,30,,40,35,7,7,5,6,0.6,0.6
2025-11-05T1000,2579A,104.8475,26.5894,六盘水市,民中,,,9,17,7,9,,,35,32,12,10,2,3,0.7,0.6
2025-11-05T1000,2580A,104.9544,26.5506,六盘水市,双水,,11,,16,6,9,33,,44,40,9,8,3,3,0.4,0.4
2025-11-05T1000,2335A,117.0189,25.1181,龙岩市,龙岩师专,,,,,,,,,,,,,,,,
2025-11-05T1000,2336A,117.0217,25.1033,龙岩市,龙岩市监测站,,15,15,11,3,12,48,,33,33,8,13,8,9,0.5,0.5
2025-11-05T1000,2337A,117.0258,25.0661,龙岩市,闽西职业技术学院,,29,29,12,3,9,51,,35,35,5,11,6,7,0.5,0.5
2025-11-05T1000,2338A,117.0196,25.0306,龙岩市,龙岩学院,,16,13,12,3,13,51,,28,28,8,12,9,7,0.5,0.5
2025-11-05T1000,2665A,105.0822,33.3261,陇南市,汉王镇固水子,,,,,,,,,,,,,,,,
2025-11-05T1000,2885A,104.9339,33.3826,陇南市,滨江中学,,31,31,32,17,15,51,,59,57,7,4,6,6,0.5,0.4
2025-11-05T1000,3247A,104.955,33.371,陇南市,市总工会,,22,22,25,10,10,57,,63,62,7,5,8,7,0.5,0.4
2025-11-05T1000,2487A,111.9589,27.8901,娄底市,电视发射台,,,,,,,,,,,,,,,,
2025-11-05T1000,2488A,111.9975,27.725,娄底市,市监测站,颗粒物(PM10),54,58,41,33,28,52,,10,10,8,24,14,10,0.6,0.5
2025-11-05T1000,2489A,112.0194,27.7314,娄底市,市委党校,细颗粒物(PM2.5),53,39,35,37,26,39,,12,12,11,14,8,5,0.7,0.6
2025-11-05T1000,2490A,111.9561,27.7569,娄底市,涟钢,,38,27,39,26,27,18,,15,14,19,13,9,8,0.5,0.2
2025-11-05T1000,2491A,111.9892,27.7044,娄底市,市政府,,49,,31,34,27,32,,14,14,14,12,9,8,0.9,0.8
2025-11-05T1000,1893A,105.4324,28.9634,泸州市,九狮山,,,,,,,,,,,,,,,,
2025-11-05T1000,1894A,105.4427,28.9063,泸州市,小市上码头,,49,48,31,34,23,3,,17,11,28,14,9,9,0.8,0.5
2025-11-05T1000,1895A,105.4241,28.8573,泸州市,兰田宪桥,"颗粒物(PM10),细颗粒物(PM2.5)",53,56,30,37,21,6,,16,11,21,15,7,7,0.6,0.4
2025-11-05T1000,1896A,105.4379,28.8833,泸州市,市环监站,细颗粒物(PM2.5),54,51,30,38,23,9,,18,14,27,18,6,6,0.6,0.4
2025-11-05T1000,4272A,105.3689,28.7783,泸州市,纳溪中医医院,细颗粒物(PM2.5),52,43,33,36,24,15,,14,9,21,20,7,7,0.6,0.5
2025-11-05T1000,2183A,111.1406,37.5211,吕梁市,环保局,"颗粒物(PM10),细颗粒物(PM2.5)",69,88,90,50,42,14,,7,7,54,57,7,8,0.5,0.5
2025-11-05T1000,2185A,111.1297,37.5136,吕梁市,自来水公司,颗粒物(PM10),70,89,125,45,44,5,,1,1,51,48,12,10,0.9,0.7
2025-11-05T1000,2867A,111.1283,37.51,吕梁市,马茂庄小学,颗粒物(PM10),78,105,115,43,38,10,,4,4,52,54,10,11,0.8,0.7
2025-11-05T1000,1812A,112.3931,34.6516,洛阳市,市委党校,细颗粒物(PM2.5),114,142,176,86,114,38,,14,14,42,48,8,10,0.7,0.9
2025-11-05T1000,1815A,112.494,34.6886,洛阳市,河南林校,细颗粒物(PM2.5),122,144,188,92,122,35,,20,20,41,45,9,11,0.6,0.7
2025-11-05T1000,1816A,112.3844,34.623,洛阳市,开发区管委会,细颗粒物(PM2.5),145,152,184,111,126,39,,20,20,40,39,9,9,0.8,0.8
2025-11-05T1000,1817A,112.4267,34.6258,洛阳市,市委新办公区,颗粒物(PM10),112,173,209,79,100,34,,12,12,42,44,9,10,0.6,0.8
2025-11-05T1000,3340A,112.6005,34.6326,洛阳市,伊滨,细颗粒物(PM2.5),183,190,209,138,128,21,,6,6,56,50,9,9,0.7,0.6
2025-11-05T1000,3341A,112.4951,34.6332,洛阳市,中移产业园,细颗粒物(PM2.5),123,162,208,93,121,38,,17,16,41,47,9,10,0.6,0.7
2025-11-05T1000,3593A,112.5736,34.8993,洛阳市,吉利监测站,细颗粒物(PM2.5),95,118,152,71,109,44,,21,21,41,47,10,8,0.6,0.8
2025-11-05T1000,3635A,112.3677,34.662,洛阳市,河科大西苑校区,细颗粒物(PM2.5),100,125,176,75,114,45,,16,16,37,48,10,11,0.8,1
2025-11-05T1000,3636A,112.4388,34.6781,洛阳市,英才小学,细颗粒物(PM2.5),115,154,210,87,127,30,,11,11,46,48,9,10,0.8,1
2025-11-05T1000,4214A,112.4600,34.6949,洛阳市,春都路1号院,细颗粒物(PM2.5),90,125,163,67,100,26,,16,16,42,40,9,10,0.8,0.9
2025-11-05T1000,2399A,114.051,33.5699,漯河市,三五一五工厂,细颗粒物(PM2.5),137,178,179,104,78,50,,39,37,25,28,9,8,0.8,0.6
2025-11-05T1000,2400A,114.0055,33.5698,漯河市,漯河大学,细颗粒物(PM2.5),119,125,160,90,70,56,,43,40,26,31,8,7,0.7,0.6
2025-11-05T1000,2401A,114.0138,33.5828,漯河市,市水利局,细颗粒物(PM2.5),125,132,151,95,69,53,,47,44,27,27,10,9,1.1,0.9
2025-11-05T1000,2402A,114.0261,33.5698,漯河市,市广电局,细颗粒物(PM2.5),107,125,174,80,69,55,,38,37,22,28,8,7,0.8,0.7
2025-11-05T1000,3478A,113.9749,33.5664,漯河市,市图书馆,细颗粒物(PM2.5),123,144,163,93,64,52,,44,44,24,27,6,5,0.9,0.7
2025-11-05T1000,4250A,114.0892,33.5882,漯河市,韶山路11号,细颗粒物(PM2.5),122,145,198,92,84,44,,27,26,29,35,9,8,0.8,0.7
2025-11-05T1000,1798A,118.5092,31.6837,马鞍山市,湖东路四小,,50,50,46,21,25,55,,16,16,24,37,7,5,0.5,0.5
2025-11-05T1000,1799A,118.5024,31.6449,马鞍山市,开发区,,39,38,59,27,32,48,,14,14,26,42,9,7,0.5,0.5
2025-11-05T1000,1802A,118.6245,31.7241,马鞍山市,濮塘,,,,,,,,,,,,,,,,
2025-11-05T1000,3633A,118.4918,31.6809,马鞍山市,雨山,,40,40,46,22,26,56,,18,18,26,38,7,6,0.5,0.5
2025-11-05T1000,4191A,118.5274,31.72227,马鞍山市,慈湖高新区,,,37,53,20,33,,,15,14,24,35,6,4,0.5,0.6
2025-11-05T1000,1686A,111.0286,21.4688,茂名市,电白南海,,29,29,21,7,8,44,,38,36,12,12,10,10,0.4,0.4
2025-11-05T1000,1687A,110.9294,21.6533,茂名市,茂石化七小,,24,24,17,7,10,26,,30,25,16,14,13,14,0.8,0.8
2025-11-05T1000,1688A,110.9107,21.6687,茂名市,健康路,,17,17,13,7,10,32,,31,28,14,15,15,21,0.7,0.7
2025-11-05T1000,1689A,110.8592,21.6828,茂名市,高岭,,19,19,26,3,5,31,,24,24,10,18,6,12,0.6,0.6
2025-11-05T1000,3450A,111.01,21.5165,茂名市,电白水东,,,19,8,7,5,36,,36,33,,11,12,11,0.8,0.8
2025-11-05T1000,2539A,104.0308,30.0478,眉山市,黑龙滩水库,,,,,,,,,,,,,,,,
2025-11-05T1000,2540A,103.8416,30.0874,眉山市,气象局,,,55,41,39,24,,,15,14,24,22,10,9,0.5,0.4
2025-11-05T1000,3137A,103.8578,30.0744,眉山市,市委党校,颗粒物(PM10),51,51,32,31,20,5,,14,12,31,24,8,7,0.8,0.6
2025-11-05T1000,3148A,103.8291,30.0564,眉山市,区人社局,颗粒物(PM10),54,57,39,34,20,11,,16,14,22,20,10,8,0.9,0.8
2025-11-05T1000,1690A,116.1231,24.3284,梅州市,梅江月梅,,16,16,9,3,7,29,,14,14,11,18,6,6,0.6,0.6
2025-11-05T1000,1691A,116.0797,24.2719,梅州市,梅县新城,,11,11,10,3,6,33,,24,24,11,15,7,7,0.6,0.6
2025-11-05T1000,1692A,116.1248,24.2654,梅州市,环境监控中心,,,,10,,9,,,18,17,13,19,6,6,0.5,0.5
2025-11-05T1000,3315A,116.1233,24.2991,梅州市,梅龙,,14,14,9,3,4,25,,17,17,9,14,7,7,0.7,0.7
2025-11-05T1000,1878A,104.7778,31.4741,绵阳市,富乐山,,25,22,26,17,19,11,,9,8,24,21,8,8,0.6,0.5
2025-11-05T1000,1880A,104.6697,31.4668,绵阳市,高新区自来水公司,,35,28,25,24,24,7,,11,10,36,29,8,8,0.7,0.6
2025-11-05T1000,1881A,104.7287,31.5075,绵阳市,三水厂,,40,40,35,25,27,3,,3,3,34,32,7,7,0.7,0.6
2025-11-05T1000,3491A,104.69,31.5322,绵阳市,西科大附属小学,,30,30,26,18,17,8,,8,8,31,32,10,10,0.7,0.7
2025-11-05T1000,3492A,104.5648,31.5343,绵阳市,安州区旅游局,,35,,12,24,21,30,,27,26,17,17,6,7,0.7,0.6
2025-11-05T1000,4226A,104.7651,31.4531,绵阳市,绵阳市气象局,,31,31,29,20,22,4,,8,6,30,24,6,7,0.8,0.7
2025-11-05T1000,1784A,129.61,44.561,牡丹江市,环保大楼,颗粒物(PM10),75,99,59,52,42,10,,6,6,39,28,10,7,1.0,0.6
2025-11-05T1000,1785A,129.6115,44.5782,牡丹江市,文化广场,细颗粒物(PM2.5),97,110,65,72,43,7,,5,5,53,33,13,8,1.3,0.7
2025-11-05T1000,1786A,129.5904,44.5963,牡丹江市,第一医院,细颗粒物(PM2.5),102,99,64,76,49,15,,11,9,45,28,6,4,1.0,0.6
2025-11-05T1000,1787A,129.6364,44.6075,牡丹江市,机车工厂,细颗粒物(PM2.5),108,161,67,81,41,8,,5,5,39,29,11,37,0.9,0.6
2025-11-05T1000,1788A,129.6386,44.5462,牡丹江市,第一中学,细颗粒物(PM2.5),73,91,51,53,35,7,,3,3,39,28,7,4,0.9,0.5
2025-11-05T1000,2531A,105.0703,29.61,内江市,市监测站,,42,41,30,29,26,19,,29,24,12,16,6,5,0.7,0.6
2025-11-05T1000,2532A,105.0717,29.5947,内江市,东兴区政府,,50,38,29,35,19,12,,28,19,17,19,6,5,0.4,0.3
2025-11-05T1000,2533A,105.0653,29.5817,内江市,内江二中,细颗粒物(PM2.5),52,48,31,36,21,13,,26,19,21,21,5,4,0.7,0.6
2025-11-05T1000,2534A,105.0406,29.5822,内江市,内江日报社,,50,35,34,35,23,15,,25,18,20,24,4,4,0.5,0.4
2025-11-05T1000,2628A,92.0657,31.4846,那曲市,那曲监测站,,37,37,50,17,25,94,,86,86,26,28,10,10,0.6,0.9
2025-11-05T1000,4243A,92.0515,31.4787,那曲市,那曲市委宣传部,,33,18,20,11,10,104,,95,95,12,18,7,8,0.1,0.4
2025-11-05T1000,1290A,115.8931,28.6843,南昌市,省外办,,39,39,37,22,25,36,,43,40,21,14,4,5,0.7,0.8
2025-11-05T1000,1291A,115.8886,28.7003,南昌市,省林业公司,,32,29,29,22,21,38,,42,39,16,12,4,4,0.6,0.7
2025-11-05T1000,1292A,115.8126,28.7442,南昌市,林科所,,32,31,38,22,22,43,,39,39,12,23,4,4,0.6,0.6
2025-11-05T1000,1294A,115.8518,28.687,南昌市,建工学校,,37,37,43,21,23,38,,45,42,18,17,8,9,0.5,0.5
2025-11-05T1000,1295A,115.8921,28.6424,南昌市,象湖,,26,26,33,12,20,45,,47,44,13,16,7,8,0.5,0.6
2025-11-05T1000,1296A,115.7423,28.7996,南昌市,武术学校,,,,,,,,,,,,,,,,
2025-11-05T1000,3046A,115.9084,28.6062,南昌市,机电学校,,38,38,44,19,25,41,,38,37,18,17,8,7,0.7,0.5
2025-11-05T1000,3690A,115.9721,28.7031,南昌市,外国语学校,,,19,36,14,29,54,,44,44,16,17,,10,0.3,0.3
2025-11-05T1000,4192A,115.9316,28.68677,南昌市,南京东路235号,,40,40,40,23,25,44,,44,42,19,21,5,5,0.4,0.4
2025-11-05T1000,1905A,106.056,30.8064,南充市,西山风景区,,,,,,,,,,,,,,,,
2025-11-05T1000,1906A,106.0789,30.8023,南充市,南充市委,,47,47,33,32,25,6,,9,8,21,22,4,4,0.5,0.4
2025-11-05T1000,1907A,106.1031,30.8217,南充市,南充炼油厂,细颗粒物(PM2.5),54,51,44,38,31,10,,17,14,16,14,6,6,0.7,0.6
2025-11-05T1000,4227A,106.1083,30.7884,南充市,梨树横街98号,,41,41,33,23,25,14,,20,17,15,15,5,4,0.4,0.3
2025-11-05T1000,4304A,106.1172,30.843,南充市,清泉寺北路188号,,43,40,32,30,22,12,,18,14,14,13,6,6,0.5,0.4
2025-11-05T1000,4305A,106.067,30.7616,南充市,同庆路1号,,48,48,34,31,26,5,,14,11,24,22,6,6,0.7,0.5
2025-11-05T1000,1151A,118.8086,32.1065,南京市,迈皋桥,,24,24,41,14,25,60,,19,19,7,25,4,4,0.4,0.5
2025-11-05T1000,1152A,118.7538,32.0551,南京市,草场门,,36,36,56,24,28,58,,25,25,23,43,12,12,0.6,0.6
2025-11-05T1000,1153A,118.7794,32.0745,南京市,山西路,,27,27,53,12,22,70,,35,35,17,32,4,4,0.4,0.5
2025-11-05T1000,1154A,118.7752,32.0023,南京市,中华门,,28,27,53,19,28,65,,15,15,26,44,3,3,0.5,0.5
2025-11-05T1000,1155A,118.8109,32.0309,南京市,瑞金路,,,29,56,17,31,,,18,18,10,34,4,4,0.9,1
2025-11-05T1000,1156A,118.7997,32.0754,南京市,玄武湖,,,,45,,23,,,55,,,20,,4,,0.7
2025-11-05T1000,1157A,118.6414,32.0931,南京市,浦口,颗粒物(PM10),54,57,61,27,29,56,,19,19,26,46,9,8,0.7,0.7
2025-11-05T1000,1158A,118.7356,31.9996,南京市,奥体中心,,34,34,56,22,29,70,,20,20,22,49,10,7,0.6,0.7
2025-11-05T1000,1159A,118.9125,32.1028,南京市,仙林大学城,,27,27,52,3,23,63,,24,24,13,31,8,6,0.6,0.7
2025-11-05T1000,3422A,118.8436,31.9198,南京市,江宁彩虹桥,,43,43,54,22,29,59,,15,15,31,53,10,7,0.8,0.6
2025-11-05T1000,3427A,118.8554,32.3578,南京市,六合雄州,,39,39,64,14,35,58,,18,18,25,36,1,8,0.8,0.7
2025-11-05T1000,4249A,118.8708,31.3402,南京市,汶溪路181号,,25,,38,17,24,50,,16,16,32,38,6,5,0.5,0.6
2025-11-05T1000,4312A,119.019,31.6512,南京市,中山西路1号,,22,22,40,14,23,59,,18,18,16,28,4,4,1.2,0.8
2025-11-05T1000,1401A,108.3103,22.7881,南宁市,二十一中,,18,18,13,10,11,20,,29,25,20,15,2,3,0.6,0.6
2025-11-05T1000,1402A,108.3141,22.8528,南宁市,北湖,,14,14,13,9,8,33,,30,30,15,15,8,8,0.5,0.5
2025-11-05T1000,1403A,108.3206,22.8225,南宁市,市监测站,,,17,11,8,7,,,30,28,22,21,,6,0.6,0.6
2025-11-05T1000,1404A,108.3829,22.8037,南宁市,大自然花园,,13,13,11,7,7,35,,36,36,13,12,6,5,0.6,0.6
2025-11-05T1000,1405A,108.4394,22.7904,南宁市,仙葫,,,,,,,,,,,,,,,,
2025-11-05T1000,1406A,108.2397,22.8467,南宁市,区农职院,,13,,10,9,5,39,,34,34,9,12,4,4,0.7,0.6
2025-11-05T1000,1407A,108.3275,22.735,南宁市,英华嘉园,,12,9,11,7,7,36,,33,33,10,13,2,2,0.5,0.5
2025-11-05T1000,3401A,108.4834,22.7618,南宁市,红星社区,,15,,6,3,4,47,,45,43,6,8,6,4,0.4,0.4
2025-11-05T1000,4221A,108.2177,22.7774,南宁市,乐贤路16号,,18,18,13,10,7,27,,28,28,12,15,11,9,0.4,0.4
2025-11-05T1000,2331A,118.0966,26.6761,南平市,茫荡山,,,,9,,,,,78,,,,,1,,0.3
2025-11-05T1000,2332A,118.1681,26.6369,南平市,南平市监测站,,11,8,7,3,6,33,,29,29,9,10,4,4,0.6,0.6
2025-11-05T1000,2333A,118.1825,26.6489,南平市,南平铝业有限公司,,11,7,8,6,5,34,,32,31,9,10,3,2,0.5,0.5
2025-11-05T1000,2334A,118.1756,26.6272,南平市,南平七中,,11,8,10,3,7,34,,25,25,9,9,4,5,0.5,0.5
2025-11-05T1000,1168A,120.9098,31.9663,南通市,狼山街道,,22,18,26,12,17,68,,47,47,20,25,4,3,0.6,0.5
2025-11-05T1000,1169A,120.86,32.0005,南通市,虹桥,,24,24,29,10,21,64,,48,48,21,20,4,3,0.4,0.4
2025-11-05T1000,1170A,120.87,32.02,南通市,城中,,32,32,41,12,18,61,,37,37,20,28,5,4,0.8,0.7
2025-11-05T1000,1171A,120.94,31.93,南通市,星湖花园,,26,26,31,10,17,70,,49,49,15,22,5,4,0.6,0.5
2025-11-05T1000,1172A,120.81,32.0417,南通市,紫琅学院,,35,35,42,13,19,61,,32,32,23,33,4,4,0.2,0.2
2025-11-05T1000,3291A,121.067,32.062,南通市,通州监测站,,25,12,17,7,13,80,,64,64,11,15,3,2,0.4,0.4
2025-11-05T1000,3432A,120.9348,31.9883,南通市,环境教育馆,,27,27,32,8,20,76,,37,37,17,30,6,4,0.4,0.4
2025-11-05T1000,2404A,112.5224,33.0122,南阳市,瓦房庄,,,107,148,65,102,,,46,46,,41,7,7,0.8,1
2025-11-05T1000,2405A,112.5003,32.9735,南阳市,汉画馆,,,,133,,94,,,36,36,27,43,6,6,0.8,1
2025-11-05T1000,2406A,112.5573,33.027,南阳市,气象站,颗粒物(PM10),85,120,154,53,84,63,,50,50,30,41,6,6,0.7,0.8
2025-11-05T1000,2407A,112.5481,32.9689,南阳市,理工学院,颗粒物(PM10),73,95,135,46,73,74,,51,51,21,34,6,6,0.6,0.8
2025-11-05T1000,4008A,112.5234,32.9922,南阳市,卧龙区政府,细颗粒物(PM2.5),93,92,153,69,97,69,,47,47,26,46,6,6,0.7,1
2025-11-05T1000,1234A,121.8358,29.911,宁波市,区环保大楼,,46,46,36,21,15,11,,8,8,50,47,5,5,0.7,0.5
2025-11-05T1000,1235A,121.56,29.82,宁波市,万里学院,,40,30,41,28,26,35,,32,32,32,41,8,8,0.6,0.6
2025-11-05T1000,1236A,121.713,29.9572,宁波市,龙赛医院,,48,48,39,27,20,10,,25,25,47,41,4,4,0.7,0.6
2025-11-05T1000,1239A,121.633,29.7733,宁波市,钱湖水厂,,46,44,52,32,31,17,,12,12,36,41,7,7,0.5,0.5
2025-11-05T1000,1240A,121.5856,29.8635,宁波市,太古小学,,,46,40,23,22,,,29,27,25,36,,3,0.9,0.6
2025-11-05T1000,1241A,121.524,29.8674,宁波市,市环境监测中心,,,27,39,16,18,,,32,30,35,37,8,9,0.7,0.7
2025-11-05T1000,2871A,121.6147,29.9017,宁波市,万里国际学校,,38,34,36,26,23,16,,20,18,40,40,4,4,0.7,0.5
2025-11-05T1000,3710A,121.5594,29.8975,宁波市,白沙活动中心,,43,43,36,14,13,16,,23,20,41,34,5,5,0.6,0.6
2025-11-05T1000,2339A,119.5001,26.6946,宁德市,金涵水库,,,,7,,6,,,27,,,13,,2,,0.4
2025-11-05T1000,2341A,119.5388,26.6612,宁德市,宁德市监测站,,12,,8,8,10,24,,21,20,23,23,7,6,0.3,0.3
2025-11-05T1000,3209A,119.5231,26.6562,宁德市,宁德一中,,16,16,11,9,11,22,,29,27,23,16,5,5,0.5,0.3
2025-11-05T1000,2618A,98.8601,25.8567,怒江傈僳族自治州,州监测站,,,,19,,12,,,28,,,7,,8,,0.4
2025-11-05T1000,2619A,98.8546,25.8417,怒江傈僳族自治州,泸水一中,,15,,15,10,9,22,,22,22,11,12,6,6,0.7,0.6
2025-11-05T1000,1888A,101.6891,26.571,攀枝花市,弄弄坪,颗粒物(PM10),70,89,55,46,32,4,,2,2,26,25,8,5,1.4,1.2
2025-11-05T1000,1889A,101.5769,26.5928,攀枝花市,河门口,,38,35,32,26,23,8,,6,5,19,15,17,14,1.3,1.1
2025-11-05T1000,1890A,101.7169,26.585,攀枝花市,炳草岗,细颗粒物(PM2.5),74,94,57,54,35,5,,3,3,27,27,50,17,1.3,1.2
2025-11-05T1000,1891A,101.7369,26.5008,攀枝花市,仁和,,21,21,26,14,19,7,,4,3,15,12,6,9,0.8,0.7
2025-11-05T1000,2835A,101.7227,26.567,攀枝花市,四十中小,细颗粒物(PM2.5),57,62,43,40,29,8,,5,5,26,20,32,21,1.4,1.2
2025-11-05T1000,1604A,122.0303,41.1489,盘锦市,开发区,细颗粒物(PM2.5),72,56,62,52,61,56,,38,38,31,40,11,7,0.6,0.7
2025-11-05T1000,1605A,122.0485,41.0883,盘锦市,兴隆台,细颗粒物(PM2.5),65,51,66,47,60,64,,34,34,31,48,17,11,0.4,0.6
2025-11-05T1000,1606A,121.8297,41.1028,盘锦市,新生街道,,,,47,38,50,75,,49,49,17,41,9,10,0.6,0.6
2025-11-05T1000,1832A,113.3257,33.742,平顶山市,新华旅馆,细颗粒物(PM2.5),125,158,142,95,67,55,,34,34,32,38,9,8,0.5,0.5
2025-11-05T1000,1833A,113.2919,33.737,平顶山市,规划设计院,细颗粒物(PM2.5),129,135,125,98,67,59,,36,36,31,31,56,8,0.6,0.7
2025-11-05T1000,1834A,113.182,33.774,平顶山市,平顶山工学院,细颗粒物(PM2.5),89,117,121,66,60,52,,47,43,34,29,19,9,0.5,0.5
2025-11-05T1000,3204A,113.3025,33.73,平顶山市,规划局,细颗粒物(PM2.5),118,149,147,89,63,61,,39,39,27,30,70,11,0.7,0.7
2025-11-05T1000,3594A,112.8867,33.9116,平顶山市,石龙区,颗粒物(PM10),102,153,162,74,82,46,,25,25,35,39,13,8,0.9,0.7
2025-11-05T1000,2656A,106.6692,35.5461,平凉市,聚贤嘉苑,细颗粒物(PM2.5),105,106,64,79,44,,,67,67,17,15,15,12,1.4,1.2
2025-11-05T1000,2657A,106.7021,35.5307,平凉市,博物馆,细颗粒物(PM2.5),110,93,69,83,49,71,,77,77,22,15,11,11,0.8,0.7
2025-11-05T1000,2347A,114.0997,27.5002,萍乡市,武功山,,,,,,,,,,,,,,,,
2025-11-05T1000,2348A,113.8385,27.6434,萍乡市,中医院,颗粒物(PM10),53,55,52,33,38,38,,36,33,24,19,10,9,0.8,0.8
2025-11-05T1000,2349A,113.8493,27.6253,萍乡市,市政府车库,细颗粒物(PM2.5),64,61,46,46,36,35,,26,26,27,25,14,9,1.8,0.9
2025-11-05T1000,2350A,113.8676,27.6435,萍乡市,市环保局,细颗粒物(PM2.5),52,52,38,36,32,42,,33,33,20,17,14,11,0.6,0.6
2025-11-05T1000,2351A,113.866,27.6198,萍乡市,安源区政府,,49,49,43,34,39,41,,27,27,21,23,13,11,0.7,0.7
2025-11-05T1000,2319A,119.0141,25.4325,莆田市,荔城区仓后路,,20,18,8,3,0,64,,61,61,8,9,4,4,0.5,0.5
2025-11-05T1000,2320A,119.0015,25.4553,莆田市,莆田市监测站,,23,23,6,3,0,71,,67,67,5,6,4,4,0.4,0.4
2025-11-05T1000,2321A,119.1119,25.4561,莆田市,涵江区六中,,23,18,8,3,1,73,,57,57,6,10,3,3,0.4,0.4
2025-11-05T1000,2322A,119.1013,25.3215,莆田市,秀屿区政府,,25,25,10,3,1,64,,51,51,8,12,4,4,0.5,0.4
2025-11-05T1000,2323A,118.981,25.4792,莆田市,东圳水库,,,,4,,2,,,74,,,5,,3,,0.7
2025-11-05T1000,2392A,115.0312,35.7636,濮阳市,环保局,细颗粒物(PM2.5),128,,92,97,79,46,,38,36,52,51,11,10,1.1,1
2025-11-05T1000,2394A,115.0574,35.7609,濮阳市,油田运输公司,细颗粒物(PM2.5),125,140,124,95,80,46,,37,33,43,44,12,11,1.0,0.9
2025-11-05T1000,3021A,115,35.7668,濮阳市,濮水河管理处,细颗粒物(PM2.5),142,141,114,108,80,48,,31,27,39,33,10,9,0,0.6
2025-11-05T1000,4216A,115.0924,35.7686,濮阳市,任丘路479号,细颗粒物(PM2.5),128,135,121,97,82,40,,33,30,46,42,12,11,1.0,1
2025-11-05T1000,2601A,100.98,22.7633,普洱市,市环保局,,22,17,20,15,12,33,,17,17,5,8,4,4,0.6,0.6
2025-11-05T1000,2602A,100.9817,22.8322,普洱市,普洱第二中学,,27,27,18,12,11,15,,6,6,12,10,4,4,0.6,0.5
2025-11-05T1000,2262A,131.0518,45.8751,七台河市,新一中,,,,,,,,,,,,,,,,
2025-11-05T1000,3345A,131.0577,45.7879,七台河市,中波台,细颗粒物(PM2.5),80,90,61,59,36,19,,21,14,22,22,8,7,0.7,0.6
2025-11-05T1000,3637A,131.0176,45.7761,七台河市,人民广场,颗粒物(PM10),110,169,76,80,47,19,,24,16,33,29,11,8,1.3,0.7
2025-11-05T1000,3684A,130.8781,45.8222,七台河市,新建矿广场,颗粒物(PM10),153,256,86,73,44,9,,20,16,52,23,26,11,0.8,0.5
2025-11-05T1000,1779A,123.9305,47.3636,齐齐哈尔市,安居小区,颗粒物(PM10),63,75,55,32,41,37,,25,24,31,22,9,8,0.8,0.8
2025-11-05T1000,1780A,123.9488,47.3386,齐齐哈尔市,中心广场,细颗粒物(PM2.5),73,92,62,53,41,45,,25,25,24,25,8,7,0.5,0.5
2025-11-05T1000,1781A,123.9483,47.3227,齐齐哈尔市,农牧车辆厂,细颗粒物(PM2.5),79,85,72,58,40,43,,20,20,22,25,6,6,0.6,0.7
2025-11-05T1000,1783A,123.945,47.2988,齐齐哈尔市,市环境监测站,细颗粒物(PM2.5),77,72,77,56,55,42,,27,27,21,25,8,8,0.7,0.7
2025-11-05T1000,3662A,123.6333,47.2075,齐齐哈尔市,富区青少年活动中心,颗粒物(PM10),63,75,72,36,43,29,,24,24,20,26,7,10,0.6,0.9
2025-11-05T1000,2591A,107.9783,26.5747,黔东南苗族侗族自治州,市环境监测站,,38,27,22,26,19,25,,35,32,15,10,4,4,0.6,0.5
2025-11-05T1000,2881A,107.8908,26.5311,黔东南苗族侗族自治州,凯里学院,,26,22,13,18,16,36,,45,43,12,12,4,3,0.4,0.3
2025-11-05T1000,2593A,107.5228,26.2403,黔南布依族苗族自治州,小围寨,,14,14,8,7,5,31,,36,32,8,4,5,4,0.4,0.4
2025-11-05T1000,3538A,107.5175,26.2978,黔南布依族苗族自治州,沙坝,,,19,15,14,12,,,41,41,14,6,4,4,0.5,0.4
2025-11-05T1000,2589A,104.9022,25.0925,黔西南布依族苗族自治州,场坝街,,,,15,,8,,,38,36,6,7,3,3,0.4,0.4
2025-11-05T1000,2590A,104.8811,25.0992,黔西南布依族苗族自治州,坪东大道,,20,20,17,7,8,25,,39,36,7,7,2,2,0.4,0.4
2025-11-05T1000,2502A,108.6236,21.9667,钦州市,市环保站,,13,6,3,3,4,39,,43,42,8,9,2,2,0.5,0.6
2025-11-05T1000,2503A,108.6549,21.9481,钦州市,沙埠小学,,22,22,8,10,9,31,,35,33,13,10,4,3,1.6,1
2025-11-05T1000,2504A,108.5989,21.7431,钦州市,港区一小,,14,14,10,8,9,25,,34,30,23,22,6,5,0.6,0.6
2025-11-05T1000,3404A,108.5959,21.9633,钦州市,北职校,,,12,5,3,4,,,42,41,5,5,4,4,0.5,0.5
2025-11-05T1000,1043A,119.7493,40.0116,秦皇岛市,第一关,,,101,79,71,59,,,11,11,66,67,13,8,1.1,0.6
2025-11-05T1000,1044A,119.5897,39.9499,秦皇岛市,监测站,颗粒物(PM10),81,112,100,53,49,40,,9,9,61,64,15,10,1.3,0.8
2025-11-05T1000,1046A,119.5251,39.9041,秦皇岛市,建设大厦,细颗粒物(PM2.5),75,92,101,55,53,66,,18,18,37,58,15,8,1.3,0.8
2025-11-05T1000,3132A,119.610547,39.943889,秦皇岛市,文明里,颗粒物(PM10),82,114,96,47,40,32,,5,5,65,63,15,11,1.0,0.7
2025-11-05T1000,4198A,119.5090,39.8253,秦皇岛市,北戴河轮滑馆,细颗粒物(PM2.5),79,72,96,58,68,75,,23,23,28,52,7,6,0.6,0.9
2025-11-05T1000,1307A,120.6659,36.2403,青岛市,仰口,,,,,,,,,,,,,,,,
2025-11-05T1000,1310A,120.4134,36.0658,青岛市,市南区东部子站,,29,12,21,3,8,92,,93,92,2,4,6,8,0.3,0.3
2025-11-05T1000,1311A,120.3664,36.1032,青岛市,四方区子站,,28,12,22,7,13,87,,66,63,8,15,3,4,0.2,0.3
2025-11-05T1000,1312A,120.2994,36.054,青岛市,市南区西部子站,,22,14,24,12,9,70,,74,62,22,19,8,8,0.4,0.5
2025-11-05T1000,1313A,120.4581,36.0858,青岛市,崂山区子站,,29,9,18,3,6,92,,72,72,9,13,8,9,0.3,0.4
2025-11-05T1000,1315A,120.3999,36.3083,青岛市,城阳区子站,,,41,42,12,17,,,39,28,36,33,5,5,0.6,0.6
2025-11-05T1000,3362A,120.5014,36.4034,青岛市,即墨2号,,26,24,38,10,18,82,,80,76,24,31,4,5,0.3,0.4
2025-11-05T1000,3642A,120.3503,36.0736,青岛市,市北区南部,,28,16,25,3,6,88,,85,85,8,12,3,4,0.1,0.2
2025-11-05T1000,3643A,120.3948,36.1805,青岛市,李沧区北部,,24,22,32,12,16,76,,69,65,19,26,6,7,0.3,0.4
2025-11-05T1000,4290A,120.1969,35.9546,青岛市,珠江路669号,,30,7,18,7,13,94,,68,62,11,15,9,10,0.3,0.4
2025-11-05T1000,4291A,120.0424,35.8656,青岛市,黄岛区人民政府广场,,,31,42,7,20,,,2,2,39,35,,8,0.8,1
2025-11-05T1000,1702A,113.0426,23.691,清远市,环保大楼,,,,,,,,,,,,,,,,
2025-11-05T1000,1703A,113.0208,23.7106,清远市,凤城街办,,15,6,6,3,5,48,,48,47,10,15,6,6,0.6,0.7
2025-11-05T1000,3025A,113.0477,23.6344,清远市,技师学院,,16,6,7,3,4,49,,41,41,13,17,4,4,0.5,0.6
2025-11-05T1000,3318A,112.9903,23.7403,清远市,清新太和,,17,6,8,3,5,52,,45,45,6,18,6,6,0.6,0.7
2025-11-05T1000,3455A,113.076,23.7198,清远市,清城东城,,16,6,5,3,3,49,,50,49,10,13,6,5,0.7,0.7
2025-11-05T1000,2661A,107.6325,35.7357,庆阳市,庆阳五中,细颗粒物(PM2.5),92,95,56,68,36,57,,82,76,22,15,1,2,0.8,0.5
2025-11-05T1000,2662A,107.6364,35.7067,庆阳市,市环保局,细颗粒物(PM2.5),95,88,57,71,40,64,,88,83,20,16,4,6,0.8,0.6
2025-11-05T1000,1916A,103.7897,25.5035,曲靖市,环境监测站,,15,15,20,3,10,26,,17,17,7,13,3,3,0.6,0.7
2025-11-05T1000,1917A,103.8,25.5364,曲靖市,烟厂办公区,,15,14,21,10,13,27,,20,20,8,14,3,4,0.3,0.4
2025-11-05T1000,3376A,103.7947,25.462,曲靖市,南苑二区,,10,,17,7,10,29,,20,20,6,10,4,4,0.4,0.5
2025-11-05T1000,3377A,103.7444,25.5261,曲靖市,曲靖师范学院,,15,15,16,3,12,30,,26,25,8,12,2,2,0.3,0.4
2025-11-05T1000,1264A,118.8692,28.9398,衢州市,环保大楼,,38,38,31,25,21,37,,21,21,19,22,5,4,0.5,0.4
2025-11-05T1000,1265A,118.8709,28.9666,衢州市,实验学校,,40,37,27,28,20,39,,23,23,18,21,6,4,0.4,0.4
2025-11-05T1000,1266A,118.8621,28.9808,衢州市,衢州学院,,,42,29,32,21,39,,24,24,9,13,,5,0.5,0.5
2025-11-05T1000,1611A,118.5819,24.9117,泉州市,涂山街,,22,16,12,3,5,69,,43,43,7,11,4,3,0.4,0.4
2025-11-05T1000,1612A,118.5972,24.8978,泉州市,津头埔,,23,14,12,3,7,71,,42,42,11,15,3,2,0.4,0.4
2025-11-05T1000,1613A,118.6663,24.9424,泉州市,万安,,24,14,11,3,5,74,,46,46,3,11,2,2,0.4,0.4
2025-11-05T1000,1614A,118.6117,24.9604,泉州市,清源山,,,,4,,5,,,41,,,4,,1,,0.4
2025-11-05T1000,3529A,118.6333,24.9264,泉州市,城华南路,,24,8,7,3,4,74,,44,44,7,11,3,3,0.3,0.3
2025-11-05T1000,2626A,88.8876,29.2718,日喀则市,日喀则监测站,,38,38,31,16,16,47,,39,39,32,26,16,17,0.7,0.8
2025-11-05T1000,3726A,88.8781,29.2426,日喀则市,林业技术推广中心,颗粒物(PM10),53,55,14,21,5,43,,80,73,38,9,8,7,0.9,0.4
2025-11-05T1000,1659A,119.471,35.4209,日照市,监测站,颗粒物(PM10),75,100,58,40,30,8,,1,1,54,42,11,10,1.1,0.8
2025-11-05T1000,1660A,119.523,35.4216,日照市,市政府广场,颗粒物(PM10),53,56,51,23,22,24,,3,3,50,42,13,12,1.3,1.1
2025-11-05T1000,1661A,119.5587,35.4044,日照市,港务局,颗粒物(PM10),52,53,55,32,29,31,,4,4,46,42,12,11,0.9,1
2025-11-05T1000,3507A,119.5328,35.4625,日照市,职业技术学院,,48,48,44,24,17,38,,16,14,46,28,10,7,1.1,0.8
2025-11-05T1000,3604A,119.3266,35.1044,日照市,岚山环保分局,颗粒物(PM10),52,53,47,28,17,54,,33,33,37,27,25,12,1.3,0.8
2025-11-05T1000,1835A,111.1922,34.7752,三门峡市,市政府,细颗粒物(PM2.5),123,118,114,93,99,73,,75,70,24,23,13,11,0.7,0.7
2025-11-05T1000,1836A,111.1587,34.7942,三门峡市,开发区,细颗粒物(PM2.5),112,143,158,84,108,76,,79,75,25,26,11,10,0.6,0.6
2025-11-05T1000,1838A,111.143,34.7955,三门峡市,风景区,细颗粒物(PM2.5),84,113,112,62,73,77,,81,76,18,18,14,12,0.7,0.7
2025-11-05T1000,3039A,111.1911,34.7829,三门峡市,三门峡市第一小学,细颗粒物(PM2.5),94,119,118,70,94,75,,82,76,23,21,14,14,0.7,0.7
2025-11-05T1000,3598A,111.1,34.7167,三门峡市,富达温泉假日酒店,细颗粒物(PM2.5),145,144,138,111,107,70,,69,65,23,26,9,11,0.7,0.7
2025-11-05T1000,2324A,117.6211,26.2625,三明市,三钢,,26,,10,18,9,33,,38,35,11,10,4,2,0.6,0.6
2025-11-05T1000,2325A,117.635,26.2714,三明市,三明二中,,18,13,9,12,6,32,,39,36,8,6,5,3,0.5,0.5
2025-11-05T1000,2326A,117.6028,26.2378,三明市,三元区政府,,,12,8,8,8,30,,40,37,10,10,8,5,,1.1
2025-11-05T1000,2327A,117.7275,26.3108,三明市,洋溪,,,,8,,8,,,51,,,9,,12,,1.1
2025-11-05T1000,1876A,109.5078,18.2489,三亚市,河东子站,,20,13,12,3,4,61,,62,62,7,7,4,4,0.4,0.4
2025-11-05T1000,1877A,109.4964,18.2681,三亚市,河西子站,,20,11,11,3,4,62,,61,61,7,5,6,6,0.5,0.5
2025-11-05T1000,3540A,109.7348,18.3443,三亚市,君悦子站,,,26,9,6,3,52,,41,41,,8,5,4,,0.7
2025-11-05T1000,2624A,91.7608,29.2313,山南市,山南监测站,细颗粒物(PM2.5),89,92,13,66,7,42,,62,51,22,10,6,5,0.5,0.3
2025-11-05T1000,2625A,91.7706,29.2436,山南市,山南人民医院,,49,44,13,34,7,52,,66,62,16,8,5,4,0.4,0.2
2025-11-05T1000,1674A,116.6794,23.3667,汕头市,金平子站,,17,15,20,11,11,54,,31,31,15,19,5,6,0.6,0.7
