timepoint,stationcode,longitude,latitude,area,positionname,primarypollutant,aqi,pm10,pm10_24h,pm2_5,pm2_5_24h,o3,o3_24h,o3_8h,o3_8h_24h,no2,no2_24h,so2,so2_24h,co,co_24h
2024-02-04T1100,2566A,102.1879,31.914,阿坝藏族羌族自治州,州农科所,,45,45,31,20,14,22,,21,19,13,10,8,6,0.9,0.8
2024-02-04T1100,2568A,102.2502,31.8896,阿坝藏族羌族自治州,马师校,,27,16,20,8,12,84,,75,74,7,7,4,4,0.5,0.5
2024-02-04T1100,3994A,102.2165,31.9024,阿坝藏族羌族自治州,马尔康中学西区,,27,8,18,6,10,84,,82,80,5,5,5,5,0.4,0.5
2024-02-04T1100,2695A,80.292,41.1694,阿克苏地区,电视台,颗粒物(PM10),65,79,57,39,34,51,,62,60,35,19,5,6,1.0,0.8
2024-02-04T1100,2696A,80.2613,41.1551,阿克苏地区,艺术中心,颗粒物(PM10),62,74,53,35,30,53,,60,59,26,21,5,5,0.7,0.6
2024-02-04T1100,2204A,105.6467,38.8363,阿拉善盟,西城区西花园,细颗粒物(PM2.5),77,,77,56,68,73,,77,74,12,13,9,10,0.8,0.8
2024-02-04T1100,2205A,105.6985,38.8411,阿拉善盟,蒙二幼,,,,66,50,56,70,,84,79,16,18,10,11,1.1,1.1
2024-02-04T1100,2206A,105.724,38.8516,阿拉善盟,环保局新楼,细颗粒物(PM2.5),77,,56,56,57,74,,86,81,16,17,6,7,1.1,1
2024-02-04T1100,2708A,88.1264,47.8517,阿勒泰地区,市站,,24,12,19,3,11,75,,83,82,19,25,4,5,0.3,0.3
2024-02-04T1100,2630A,80.1161,32.5,阿里地区,阿里监测站,,24,11,7,4,3,75,,85,83,9,2,9,7,0.5,0.4
2024-02-04T1100,3192A,80.0903,32.5028,阿里地区,阿里藏医院,,27,11,14,4,4,85,,90,88,4,3,6,6,0.5,0.5
2024-02-04T1100,2642A,109.0318,32.6537,安康市,香溪洞,,36,30,26,25,25,59,,65,64,9,5,10,5,0.9,0.8
2024-02-04T1100,2643A,109.0281,32.6939,安康市,安康市监测站,,48,35,34,33,33,64,,68,67,12,13,9,28,0.6,0.6
2024-02-04T1100,2644A,109.0072,32.6975,安康市,汉滨区检察院,,40,35,32,28,26,66,,76,73,10,8,8,17,0.7,0.6
2024-02-04T1100,2291A,117.0809,30.5177,安庆市,环科院,,16,16,26,10,22,40,,44,43,16,16,10,7,0.6,0.6
2024-02-04T1100,2292A,117.0331,30.5119,安庆市,马山宾馆,,15,11,28,10,24,43,,44,44,14,15,5,5,0.7,0.8
2024-02-04T1100,2294A,116.9896,30.6145,安庆市,安庆大学,,18,12,28,12,27,47,,47,47,14,16,7,7,0.8,0.8
2024-02-04T1100,3173A,117.0598,30.5351,安庆市,市人大,,16,13,27,11,26,41,,43,42,21,22,2,2,0.7,0.7
2024-02-04T1100,3123A,105.9408,26.2431,安顺市,凤凰山,,10,8,19,5,16,26,,16,16,9,15,16,17,1.0,1
2024-02-04T1100,3124A,105.9439,26.2564,安顺市,金钟山,,10,10,19,6,15,25,,16,15,8,12,16,16,0.8,0.9
2024-02-04T1100,3125A,105.8983,26.2481,安顺市,娄家坡,,12,9,21,8,18,26,,16,16,8,11,15,15,0.9,1
2024-02-04T1100,1819A,114.3551,36.1017,安阳市,红庙街,细颗粒物(PM2.5),74,74,80,54,68,57,,44,44,24,21,11,7,1.1,0.9
2024-02-04T1100,1820A,114.361,36.0681,安阳市,银杏小区,细颗粒物(PM2.5),65,58,68,47,68,59,,47,47,18,15,11,6,1.1,0.9
2024-02-04T1100,3141A,114.3922,36.0878,安阳市,信访局,细颗粒物(PM2.5),60,58,78,43,69,66,,50,50,20,19,11,7,1.0,0.9
2024-02-04T1100,3669A,114.4705,36.0637,安阳市,左辅环卫站,细颗粒物(PM2.5),70,84,88,51,65,60,,46,46,20,22,11,8,1.0,0.9
2024-02-04T1100,3703A,114.2917,36.0949,安阳市,安钢职工学校,细颗粒物(PM2.5),77,81,92,56,73,59,,44,44,25,24,15,10,1.8,1.5
2024-02-04T1100,1748A,123.044,41.1196,鞍山市,深沟寺,细颗粒物(PM2.5),149,157,124,114,95,50,,24,24,58,57,23,12,1.4,1.1
2024-02-04T1100,1749A,123.011,41.0931,鞍山市,太阳城,细颗粒物(PM2.5),68,72,104,49,80,71,,39,39,32,48,17,18,0.9,1.1
2024-02-04T1100,1750A,123.0485,41.1442,鞍山市,太平,细颗粒物(PM2.5),175,187,144,132,109,45,,19,19,62,61,19,20,1.9,1.6
2024-02-04T1100,1751A,122.9642,41.0971,鞍山市,铁西三道街,细颗粒物(PM2.5),178,178,132,134,102,33,,21,21,90,76,,32,3.1,2.1
2024-02-04T1100,1752A,122.9341,41.0833,鞍山市,铁西工业园区,细颗粒物(PM2.5),173,169,154,131,125,29,,12,12,76,72,57,29,4.1,2.6
2024-02-04T1100,1753A,123.022,41.0821,鞍山市,明达新区,细颗粒物(PM2.5),78,76,101,57,81,65,,41,41,34,48,16,19,1.0,1.2
2024-02-04T1100,2195A,107.4212,40.761,巴彦淖尔市,附二中,细颗粒物(PM2.5),105,121,95,79,59,46,,51,50,25,24,78,30,1.0,0.8
2024-02-04T1100,2196A,107.37,40.7372,巴彦淖尔市,市环保大楼,细颗粒物(PM2.5),105,119,92,79,63,44,,50,46,19,18,10,19,0.9,0.7
2024-02-04T1100,1956A,86.1472,41.7538,巴音郭楞蒙古自治州,孔雀公园,细颗粒物(PM2.5),68,71,75,49,38,64,,73,70,18,13,5,5,0.6,0.6
2024-02-04T1100,1957A,86.1972,41.7166,巴音郭楞蒙古自治州,棉纺厂,颗粒物(PM10),68,86,89,30,37,53,,54,54,31,26,2,2,0.7,0.6
2024-02-04T1100,1958A,86.2357,41.7173,巴音郭楞蒙古自治州,经济开发区,"颗粒物(PM10),细颗粒物(PM2.5)",53,56,70,37,39,72,,72,70,20,17,3,4,0.5,0.5
2024-02-04T1100,2914A,106.7677,31.8794,巴中市,苏山坪,,18,,21,12,13,36,,49,45,11,6,3,4,0.5,0.5
2024-02-04T1100,3182A,106.7656,31.8545,巴中市,丽阳花园,,18,17,27,12,20,39,,45,42,18,16,4,4,0.7,0.7
2024-02-04T1100,3183A,106.7418,31.8654,巴中市,圣泉水务公司,,18,14,19,12,18,35,,45,41,18,14,3,3,0.6,0.6
2024-02-04T1100,3616A,106.7616,31.8344,巴中市,市中心医院,,23,17,22,16,17,37,,45,42,16,11,4,4,0.7,0.6
2024-02-04T1100,2235A,122.7911,45.6077,白城市,洮北区环保局,,31,31,37,18,24,69,,58,57,12,13,9,7,0.8,0.5
2024-02-04T1100,2236A,122.8738,45.5725,白城市,市环保局,细颗粒物(PM2.5),74,,45,54,30,55,,31,31,19,22,9,6,1.2,0.8
2024-02-04T1100,2231A,126.4219,41.9171,白山市,喜丰,颗粒物(PM10),63,75,61,35,28,53,,49,48,34,28,26,22,1.0,1
2024-02-04T1100,2232A,126.4077,41.9419,白山市,环保局,颗粒物(PM10),66,81,83,34,37,63,,40,40,25,38,15,21,1.1,1.2
2024-02-04T1100,2647A,104.1724,36.5446,白银市,第三小学,细颗粒物(PM2.5),77,,43,56,43,62,,66,62,21,17,28,20,1.5,1.2
2024-02-04T1100,2648A,104.1465,36.5482,白银市,动力公司,细颗粒物(PM2.5),89,,42,66,48,77,,57,47,22,22,20,11,1.4,1
2024-02-04T1100,2512A,106.6103,23.9011,百色市,市监测站,细颗粒物(PM2.5),82,97,76,60,45,29,,14,13,22,21,19,16,1.0,0.8
2024-02-04T1100,2513A,106.6538,23.8859,百色市,市中心血站,细颗粒物(PM2.5),123,100,68,93,52,27,,10,10,29,24,24,16,1.1,0.9
2024-02-04T1100,3406A,106.6085,23.8798,百色市,祈福高中,细颗粒物(PM2.5),105,83,69,79,53,23,,12,10,23,22,17,18,1.1,1
2024-02-04T1100,2270A,117.396,32.939,蚌埠市,工人疗养院,细颗粒物(PM2.5),69,55,58,50,51,49,,49,46,16,15,5,5,0.6,0.5
2024-02-04T1100,2271A,117.3605,32.9427,蚌埠市,百货大楼,细颗粒物(PM2.5),75,56,58,55,53,49,,48,45,18,19,2,2,0.8,0.7
2024-02-04T1100,2273A,117.4185,32.8911,蚌埠市,蚌埠学院,细颗粒物(PM2.5),78,,55,57,54,47,,48,46,12,13,4,4,0.7,0.6
2024-02-04T1100,2274A,117.3533,32.9673,蚌埠市,淮上区政府,细颗粒物(PM2.5),70,56,56,51,53,54,,50,49,11,15,4,4,0.7,0.7
2024-02-04T1100,2275A,117.3145,32.8977,蚌埠市,高新区,细颗粒物(PM2.5),75,,55,55,54,51,,50,48,10,14,3,3,0.6,0.6
2024-02-04T1100,3715A,117.3092,32.9314,蚌埠市,蚌埠田家炳中学,细颗粒物(PM2.5),74,58,62,54,56,52,,48,46,15,20,5,5,0.5,0.5
2024-02-04T1100,1585A,109.8756,40.6532,包头市,市环境监测站,颗粒物(PM10),51,52,77,32,57,55,,20,20,29,55,24,21,0.9,1.2
2024-02-04T1100,1587A,109.9991,40.5842,包头市,包头八中,颗粒物(PM10),64,78,91,38,65,49,,22,22,34,51,61,26,1.7,1.3
2024-02-04T1100,1588A,109.8538,40.6821,包头市,青山宾馆,细颗粒物(PM2.5),77,58,73,56,60,25,,13,13,56,62,16,17,1.1,1.2
2024-02-04T1100,1589A,109.8642,40.6288,包头市,惠龙物流,细颗粒物(PM2.5),54,54,80,38,56,48,,17,17,34,55,45,20,1.9,1.7
2024-02-04T1100,1590A,110.0377,40.5546,包头市,东河鸿龙湾,颗粒物(PM10),60,69,95,26,69,54,,23,23,28,55,29,14,0.7,1.3
2024-02-04T1100,3283A,109.9154,40.5685,包头市,滨河大厦,,34,34,76,22,58,61,,26,26,26,48,11,9,0.7,1.1
2024-02-04T1100,3419A,109.9447,40.6261,包头市,包头市委党校,颗粒物(PM10),56,61,78,16,52,57,,32,32,27,53,22,24,0.5,0.9
2024-02-04T1100,3683A,109.8331,40.6576,包头市,昆区政府,细颗粒物(PM2.5),69,58,74,50,65,44,,13,13,37,59,42,21,1.6,1.6
2024-02-04T1100,1930A,107.185,34.3063,宝鸡市,庙沟村,细颗粒物(PM2.5),137,,83,104,94,34,,37,36,7,8,4,4,0.9,1
2024-02-04T1100,1931A,107.0708,34.3017,宝鸡市,竹园沟,细颗粒物(PM2.5),132,,89,100,94,46,,49,48,21,20,4,4,1.0,1.1
2024-02-04T1100,1932A,107.1906,34.3672,宝鸡市,三陆医院,细颗粒物(PM2.5),138,,89,105,95,47,,51,51,21,22,6,6,1.0,1
2024-02-04T1100,1933A,107.1431,34.3547,宝鸡市,监测站,细颗粒物(PM2.5),123,,88,93,91,44,,50,46,23,24,3,3,1.0,1.1
2024-02-04T1100,1934A,107.1186,34.3739,宝鸡市,技工学校,细颗粒物(PM2.5),124,,79,94,93,46,,48,47,24,27,5,5,0.9,1
2024-02-04T1100,1935A,107.3906,34.3528,宝鸡市,陈仓区环保局家属楼,细颗粒物(PM2.5),113,,84,85,90,58,,57,57,22,26,6,6,1.0,1.1
2024-02-04T1100,1936A,107.2058,34.3497,宝鸡市,文理学院,细颗粒物(PM2.5),125,,84,95,91,46,,52,49,25,27,5,5,1.0,1
2024-02-04T1100,1937A,107.2386,34.3622,宝鸡市,三迪小学,细颗粒物(PM2.5),127,,80,96,92,45,,50,49,25,25,6,6,0.9,1
2024-02-04T1100,1051A,115.493,38.8632,保定市,游泳馆,细颗粒物(PM2.5),160,177,155,122,110,17,,11,9,50,44,4,2,1.5,1.1
2024-02-04T1100,1052A,115.5213,38.8959,保定市,华电二区,细颗粒物(PM2.5),172,,117,130,106,20,,18,9,49,39,4,3,1.0,0.8
2024-02-04T1100,1053A,115.4713,38.9108,保定市,接待中心,细颗粒物(PM2.5),188,160,134,141,116,15,,13,8,45,35,6,5,1.3,0.9
2024-02-04T1100,1054A,115.4612,38.8416,保定市,地表水厂,细颗粒物(PM2.5),132,155,155,100,108,16,,8,8,53,50,5,3,1.4,1.2
2024-02-04T1100,3581A,115.31981,38.95208,保定市,满城区生态环境分局,细颗粒物(PM2.5),179,173,156,135,123,20,,5,5,38,45,4,4,1.4,1.1
2024-02-04T1100,3582A,115.47694,38.76408,保定市,清苑区第二中学,细颗粒物(PM2.5),87,108,138,64,92,37,,17,16,32,40,10,6,1.1,0.9
2024-02-04T1100,3583A,115.62909,39.02311,保定市,徐水物探局,细颗粒物(PM2.5),125,156,150,95,98,21,,8,8,40,47,6,3,1.3,1
2024-02-04T1100,4004A,115.4202,38.8656,保定市,双鹰农机,细颗粒物(PM2.5),110,123,135,83,102,24,,9,9,52,49,6,3,1.2,0.9
2024-02-04T1100,4034A,115.5150,38.8590,保定市,植保所站（启用20240130）,细颗粒物(PM2.5),129,126,131,98,109,15,,14,6,50,45,8,5,0.9,0.7
2024-02-04T1100,2594A,99.1678,25.1081,保山市,市环境监测站,细颗粒物(PM2.5),62,46,37,44,25,37,,58,49,27,7,6,5,0.9,0.6
2024-02-04T1100,2595A,99.1711,25.1328,保山市,市环保局,,47,47,39,28,27,44,,66,57,22,4,6,5,0.7,0.6
2024-02-04T1100,1867A,109.1436,21.4086,北海市,海滩公园,,23,23,36,15,23,49,,47,46,7,10,6,7,0.6,0.7
2024-02-04T1100,1868A,109.0981,21.4661,北海市,新市环保局,,35,,33,24,25,50,,50,46,10,11,6,6,0.3,0.4
2024-02-04T1100,1869A,109.1778,21.5233,北海市,北海工业园,,27,27,43,15,33,53,,49,47,6,10,6,7,0.4,0.5
2024-02-04T1100,3400A,109.1911,21.4415,北海市,龙潭自来水厂,,25,23,35,17,28,48,,48,45,6,8,7,7,0.5,0.7
2024-02-04T1100,1001A,116.3621,39.8784,北京市,万寿西宫,细颗粒物(PM2.5),108,121,111,81,79,19,,4,4,58,68,5,2,1.4,0.9
2024-02-04T1100,1002A,116.2202,40.2915,北京市,定陵,细颗粒物(PM2.5),104,100,61,78,46,21,,19,16,33,27,3,2,1.0,0.6
2024-02-04T1100,1003A,116.4174,39.9289,北京市,东四,细颗粒物(PM2.5),120,130,115,91,81,18,,6,6,46,50,7,4,1.7,1.2
2024-02-04T1100,1004A,116.4072,39.8863,北京市,天坛,细颗粒物(PM2.5),100,102,99,75,75,22,,8,8,55,56,4,3,1.4,0.8
2024-02-04T1100,1005A,116.462,39.9365,北京市,农展馆,细颗粒物(PM2.5),102,109,107,76,76,25,,10,10,46,55,5,3,1.3,0.9
2024-02-04T1100,1006A,116.3392,39.9295,北京市,官园,细颗粒物(PM2.5),127,137,114,96,78,25,,9,9,54,58,6,3,1.7,1.1
2024-02-04T1100,1007A,116.2878,39.9611,北京市,海淀万柳,细颗粒物(PM2.5),110,128,102,83,66,20,,10,10,60,60,3,2,1.5,0.9
2024-02-04T1100,1008A,116.6636,40.135,北京市,顺义新城,细颗粒物(PM2.5),83,90,85,61,59,36,,13,13,32,45,6,4,1.0,0.8
2024-02-04T1100,1009A,116.6275,40.3275,北京市,怀柔镇,,34,34,47,21,34,47,,24,24,18,23,13,7,0.5,0.5
2024-02-04T1100,1010A,116.2296,40.217,北京市,昌平镇,细颗粒物(PM2.5),119,136,76,90,47,24,,15,15,44,37,3,3,1.3,0.6
2024-02-04T1100,1011A,116.3966,39.9821,北京市,奥体中心,细颗粒物(PM2.5),104,105,99,78,72,23,,9,9,47,52,8,5,1.3,0.9
2024-02-04T1100,1012A,116.184,39.9136,北京市,古城,细颗粒物(PM2.5),125,139,102,95,66,18,,7,7,55,56,3,2,1.6,0.9
2024-02-04T1100,3281A,115.9718,40.4529,北京市,延庆夏都,细颗粒物(PM2.5),60,60,71,43,54,29,,7,7,23,33,1,4,0.6,0.7
2024-02-04T1100,3417A,117.0709,40.1465,北京市,平谷新城,细颗粒物(PM2.5),97,95,86,72,62,0,,0,0,31,34,4,3,1.0,1.2
2024-02-04T1100,3418A,116.8336,40.4095,北京市,密云新城,,21,21,44,13,27,65,,43,43,9,21,15,7,0.3,0.4
2024-02-04T1100,3672A,116.1541,39.8204,北京市,丰台云岗,细颗粒物(PM2.5),130,157,111,99,71,15,,8,8,68,57,2,2,1.4,0.7
2024-02-04T1100,3673A,116.6804,39.9081,北京市,通州东关,细颗粒物(PM2.5),75,80,94,55,63,39,,11,11,24,48,7,2,1.2,0.9
2024-02-04T1100,3674A,115.9577,39.7603,北京市,房山燕山,细颗粒物(PM2.5),102,94,95,76,75,28,,17,17,45,45,3,3,0.9,0.7
2024-02-04T1100,3675A,116.4672,39.7733,北京市,大兴旧宫,细颗粒物(PM2.5),98,92,102,73,77,21,,6,6,47,55,2,2,1.4,0.9
2024-02-04T1100,3694A,115.986,40.4563,北京市,延庆石河营,细颗粒物(PM2.5),58,59,72,41,53,34,,8,8,23,34,1,4,0.7,0.8
2024-02-04T1100,3695A,116.6151,40.3053,北京市,怀柔新城,,45,42,47,31,34,40,,25,25,20,19,6,5,0.5,0.4
2024-02-04T1100,3696A,116.2545,39.8768,北京市,丰台小屯,细颗粒物(PM2.5),129,158,122,98,77,12,,4,4,70,67,2,2,1.7,0.9
2024-02-04T1100,3697A,116.84,40.3844,北京市,密云镇,,37,37,53,24,37,43,,14,14,20,34,12,7,0.4,0.5
2024-02-04T1100,1761A,123.8275,41.3064,本溪市,大峪,细颗粒物(PM2.5),140,177,124,107,84,44,,24,20,54,50,14,11,2.2,2.1
2024-02-04T1100,1762A,123.7567,41.3325,本溪市,溪湖,细颗粒物(PM2.5),153,161,139,117,99,35,,24,23,62,42,16,13,1.7,1.4
2024-02-04T1100,1763A,123.7169,41.3094,本溪市,彩屯,细颗粒物(PM2.5),155,150,126,118,99,38,,39,32,58,47,21,13,1.9,1.5
2024-02-04T1100,1764A,123.7669,41.2864,本溪市,东明,细颗粒物(PM2.5),143,144,106,109,100,48,,21,21,47,52,16,14,1.6,1.3
2024-02-04T1100,1765A,123.7992,41.2664,本溪市,新立屯,细颗粒物(PM2.5),102,124,98,76,82,60,,33,33,44,59,14,11,1.1,1
2024-02-04T1100,1766A,123.8142,41.3472,本溪市,威宁,细颗粒物(PM2.5),148,174,120,113,94,41,,19,19,43,56,8,7,1.9,1.6
2024-02-04T1100,2587A,105.2864,27.3125,毕节市,八中,,13,,14,9,14,18,,18,18,14,14,8,6,1.0,0.9
2024-02-04T1100,2588A,105.31,27.2944,毕节市,师专,,10,8,14,7,13,18,,18,18,15,15,8,8,0.9,0.9
2024-02-04T1100,3537A,105.3631,27.3533,毕节市,长征村,,,,11,,10,24,,17,17,8,12,,6,0.8,0.8
2024-02-04T1100,1629A,118.0018,37.3617,滨州市,第二水厂,,39,39,34,20,18,63,,58,58,26,25,7,7,0.6,0.6
2024-02-04T1100,1630A,117.9776,37.393,滨州市,北中新校,,46,46,42,18,22,67,,46,46,18,30,13,12,0.2,0.3
2024-02-04T1100,3514A,117.9378,37.3956,滨州市,中海酒店,,48,35,32,33,25,68,,40,40,13,25,18,13,0.6,0.7
2024-02-04T1100,3515A,117.9378,37.3553,滨州市,开发区一中,,36,36,35,18,20,70,,59,59,23,26,17,13,0.6,0.6
2024-02-04T1100,3516A,118.0917,37.694,滨州市,金海六路,,28,28,34,9,19,81,,46,46,10,44,7,8,0.3,0.5
2024-02-04T1100,4028A,117.9956,37.3753,滨州市,滨州市西街道办事处,,35,35,32,22,18,62,,54,54,19,21,12,12,0.7,0.6
2024-02-04T1100,2311A,115.8072,33.8399,亳州市,污水处理厂,细颗粒物(PM2.5),85,66,97,63,92,45,,43,39,16,21,6,5,0.7,0.9
2024-02-04T1100,2312A,115.7789,33.8518,亳州市,三国揽胜宫,细颗粒物(PM2.5),78,86,120,57,82,41,,42,37,19,23,7,6,0.8,1
2024-02-04T1100,3332A,115.7633,33.8034,亳州市,亳州学院,,,76,102,66,88,42,,45,39,18,21,,4,0.8,0.9
2024-02-04T1100,2693A,82.0485,44.8556,博尔塔拉蒙古自治州,市党校,,31,31,141,21,91,72,,86,80,17,27,8,16,0.5,1
2024-02-04T1100,2694A,82.0806,44.8969,博尔塔拉蒙古自治州,市环保局,颗粒物(PM10),53,56,134,22,75,51,,72,63,46,33,7,10,0.7,0.9
2024-02-04T1100,1071A,116.8842,38.2991,沧州市,沧县城建局,,,,73,,52,42,,27,22,,45,,12,0.5,0.9
2024-02-04T1100,1072A,116.8584,38.3254,沧州市,电视转播站,,,51,71,34,46,,,10,8,29,47,7,11,,1
2024-02-04T1100,1073A,116.8709,38.3228,沧州市,市环保局,颗粒物(PM10),54,57,68,37,50,47,,27,26,31,41,6,10,0.6,1
2024-02-04T1100,3324A,116.8136,38.3004,沧州市,河北水利电力学院,细颗粒物(PM2.5),57,51,64,40,48,50,,24,24,25,38,11,15,0.5,1
2024-02-04T1100,2622A,97.1806,31.1273,昌都市,昌都监测站,,46,46,48,19,13,39,,46,44,17,15,7,7,0.9,0.8
2024-02-04T1100,3719A,97.1714,31.1406,昌都市,昌都会议中心,,25,22,26,14,12,80,,86,80,8,6,4,5,0.4,0.3
2024-02-04T1100,2690A,88.1236,43.8886,昌吉回族自治州,天山天池,,25,10,10,9,6,78,,80,79,4,5,7,7,0.5,0.5
2024-02-04T1100,2692A,87.2717,44.0297,昌吉回族自治州,新区政务中心,细颗粒物(PM2.5),228,240,224,178,159,50,,86,77,62,34,5,4,2.3,1.9
2024-02-04T1100,3613A,87.3095,44.0142,昌吉回族自治州,亚心广场,细颗粒物(PM2.5),225,219,242,175,190,69,,79,76,55,43,8,6,1.9,1.8
2024-02-04T1100,1119A,125.3325,43.9166,长春市,食品厂,细颗粒物(PM2.5),107,99,110,80,107,39,,16,16,55,69,28,14,1.3,1.3
2024-02-04T1100,1120A,125.2863,43.9027,长春市,客车厂,,,61,111,,119,44,,25,25,57,75,19,20,0.9,1.1
2024-02-04T1100,1121A,125.2841,43.8463,长春市,邮电学院,细颗粒物(PM2.5),65,71,121,47,114,60,,24,24,34,71,16,17,0.7,0.9
2024-02-04T1100,1122A,125.3716,43.8772,长春市,劳动公园,细颗粒物(PM2.5),89,73,106,66,100,53,,24,24,47,65,12,4,0.8,0.9
2024-02-04T1100,1123A,125.3297,43.8805,长春市,园林处,颗粒物(PM10),71,92,105,46,97,53,,23,23,45,69,22,16,1.0,1.2
2024-02-04T1100,1124A,125.4605,43.79,长春市,净月潭,细颗粒物(PM2.5),69,62,84,50,75,79,,66,65,12,16,13,9,0.7,0.7
2024-02-04T1100,1126A,125.3863,43.8447,长春市,经开区环卫处,细颗粒物(PM2.5),99,130,126,74,107,44,,13,13,50,70,12,8,1.1,1.2
2024-02-04T1100,1127A,125.245,43.7783,长春市,高新区管委会,细颗粒物(PM2.5),103,90,138,77,136,54,,17,17,35,65,11,12,1.2,1.4
2024-02-04T1100,1128A,125.1761,43.8325,长春市,岱山公园,细颗粒物(PM2.5),102,98,117,76,111,57,,24,24,51,66,13,10,1.0,1.2
2024-02-04T1100,1335A,113.0833,28.2325,长沙市,经开区环保局,,49,35,32,34,24,55,,46,46,15,14,4,4,0.8,0.7
2024-02-04T1100,1336A,112.8872,28.2189,长沙市,高开区环保局,,50,,31,35,25,55,,50,50,12,10,2,2,0.8,0.6
2024-02-04T1100,1337A,113.0792,28.2053,长沙市,马坡岭,细颗粒物(PM2.5),54,38,30,38,27,53,,43,43,5,7,4,4,0.8,0.7
2024-02-04T1100,1338A,112.9394,28.19,长沙市,湖南师范大学,,50,,28,35,24,55,,48,48,14,15,6,6,0.7,0.6
2024-02-04T1100,1339A,113.0178,28.1322,长沙市,雨花区环保局,,38,,27,26,22,51,,42,42,12,14,1,1,0.8,0.7
2024-02-04T1100,1340A,112.9792,28.2597,长沙市,伍家岭,细颗粒物(PM2.5),60,,32,43,27,51,,45,45,15,14,3,3,0.9,0.7
2024-02-04T1100,1341A,113.0014,28.1944,长沙市,火车新站,细颗粒物(PM2.5),55,,30,39,26,56,,49,49,12,12,2,2,0.9,0.7
2024-02-04T1100,1342A,112.9844,28.1178,长沙市,天心区环保局,,48,,26,33,23,52,,44,44,11,12,3,3,0.6,0.4
2024-02-04T1100,1343A,112.8908,28.1308,长沙市,湖南中医药大学,,46,36,30,32,33,56,,48,48,12,14,4,4,0.7,0.5
2024-02-04T1100,1344A,112.9581,28.3611,长沙市,沙坪,细颗粒物(PM2.5),55,,20,39,22,37,,33,33,3,3,3,2,0.9,0.7
2024-02-04T1100,1727A,113.1147,36.1547,长治市,清华站,,38,38,47,24,43,76,,85,81,17,18,12,10,0.7,0.7
2024-02-04T1100,1728A,113.1031,36.1989,长治市,监测站,颗粒物(PM10),61,72,52,39,47,75,,87,82,20,21,15,11,0.7,0.5
2024-02-04T1100,1730A,113.0886,36.2125,长治市,审计局,颗粒物(PM10),67,83,51,34,48,78,,89,84,14,14,17,13,0.9,0.7
2024-02-04T1100,1731A,113.0844,36.1856,长治市,长治八中,颗粒物(PM10),55,60,54,24,35,78,,89,84,6,6,10,6,1.0,0.8
2024-02-04T1100,2845A,113.1569,36.1911,长治市,德盛苑,,42,33,47,29,45,75,,89,83,22,16,15,11,0.9,0.7
2024-02-04T1100,3568A,113.06,36.0464,长治市,向阳小学,,45,45,73,29,56,93,,91,91,16,21,11,11,0.6,0.9
2024-02-04T1100,3569A,112.8792,36.3144,长治市,屯留一中,细颗粒物(PM2.5),59,56,76,42,69,80,,72,72,13,22,12,15,1.0,1.4
2024-02-04T1100,3570A,113.235,36.3489,长治市,潞城四中,颗粒物(PM10),52,54,75,30,71,85,,77,74,10,14,9,10,0.7,1.1
2024-02-04T1100,1854A,111.6975,28.9703,常德市,市二中,细颗粒物(PM2.5),73,53,49,53,50,70,,71,69,13,14,5,4,0.8,0.7
2024-02-04T1100,1857A,111.7158,29.1456,常德市,白鹤山,细颗粒物(PM2.5),67,56,49,48,42,40,,35,35,1,2,1,1,0.5,0.5
2024-02-04T1100,3138A,111.7153,29.0289,常德市,武陵区永安,细颗粒物(PM2.5),69,53,49,50,46,70,,70,68,10,9,6,6,0.7,0.6
2024-02-04T1100,3139A,111.6892,28.9881,常德市,鼎城区玉霞,细颗粒物(PM2.5),83,,49,61,51,68,,69,66,14,11,6,6,0.8,0.7
2024-02-04T1100,3140A,111.6625,29.0531,常德市,武陵区长庚,细颗粒物(PM2.5),77,64,51,56,46,70,,70,69,12,13,3,3,0.7,0.6
2024-02-04T1100,1196A,119.9633,31.762,常州市,市监测站,细颗粒物(PM2.5),53,44,38,37,30,38,,55,47,28,17,6,5,0.9,0.8
2024-02-04T1100,1200A,119.9468,31.7069,常州市,武进监测站,,48,41,33,33,26,33,,51,43,32,20,3,3,0.8,0.6
2024-02-04T1100,1201A,119.9255,31.9087,常州市,安家,,49,39,39,34,27,40,,50,43,26,19,6,6,0.6,0.5
2024-02-04T1100,3002A,119.9805,31.8174,常州市,行政中心,,49,44,36,34,27,33,,50,42,29,19,7,6,0.8,0.7
2024-02-04T1100,3003A,120.0522,31.7748,常州市,经开区,,49,48,38,34,27,36,,50,43,29,17,6,6,0.5,0.4
2024-02-04T1100,3010A,119.9025,31.7964,常州市,钟楼,细颗粒物(PM2.5),52,38,33,36,27,31,,50,42,33,20,6,6,0.9,0.7
2024-02-04T1100,3429A,119.8598,31.7066,常州市,武进经发区,,48,36,32,33,29,31,,49,41,33,26,6,6,0.7,0.7
2024-02-04T1100,3430A,119.5826,31.7245,常州市,金坛城区,细颗粒物(PM2.5),53,44,38,37,34,38,,47,43,21,18,6,6,0.8,0.7
2024-02-04T1100,2220A,120.4318,41.5881,朝阳市,西梁,颗粒物(PM10),73,96,78,50,41,29,,16,16,39,31,20,18,1.6,1.2
2024-02-04T1100,2221A,120.4521,41.5646,朝阳市,河畔小区,细颗粒物(PM2.5),70,82,51,51,37,41,,19,19,27,28,16,9,1.4,1
2024-02-04T1100,2222A,120.4176,41.5648,朝阳市,八里堡,颗粒物(PM10),78,105,64,56,41,32,,15,15,35,33,23,14,1.8,1.2
2024-02-04T1100,2223A,120.3806,41.5969,朝阳市,农业园区,细颗粒物(PM2.5),175,204,71,132,48,31,,21,19,51,32,32,15,2.1,1.1
2024-02-04T1100,1705A,116.6367,23.6719,潮州市,西园路,,29,26,56,20,40,48,,51,48,16,19,3,4,0.6,0.5
2024-02-04T1100,3026A,116.6183,23.6608,潮州市,市政府,,28,20,38,19,37,50,,55,50,13,16,4,5,0.7,0.8
2024-02-04T1100,2472A,113.0073,25.9061,郴州市,马头岭,,13,13,15,8,7,29,,32,31,10,8,4,3,1.2,1.1
2024-02-04T1100,2473A,113.0116,25.8226,郴州市,市职中,,16,,14,11,10,26,,26,26,12,11,3,3,0.9,0.8
2024-02-04T1100,2474A,113.0161,25.8001,郴州市,兴隆步行街,,8,,12,4,11,25,,26,26,14,12,3,2,0.8,0.7
2024-02-04T1100,2475A,113.0383,25.8071,郴州市,市审计局,,8,7,10,5,9,23,,26,26,15,12,3,3,0.8,0.8
2024-02-04T1100,2476A,113.0348,25.7759,郴州市,市环保局,,10,8,12,5,10,22,,25,24,19,16,2,2,0.8,0.7
2024-02-04T1100,1431A,103.9728,30.7236,成都市,金泉两河,,14,2,25,2,16,42,,39,35,9,13,3,3,0.7,0.7
2024-02-04T1100,1432A,104.176,30.6872,成都市,十里店,,14,7,21,2,14,44,,52,49,20,18,3,3,0.8,0.8
2024-02-04T1100,1433A,104.079,30.5706,成都市,三瓦窑,,13,7,25,2,10,38,,48,46,25,18,3,3,0.9,0.8
2024-02-04T1100,1434A,104.1114,30.63,成都市,沙河铺,,14,,27,3,17,42,,46,44,18,17,3,2,0.6,0.6
2024-02-04T1100,1437A,104.0786,30.6531,成都市,君平街,,13,,28,6,22,37,,49,46,26,23,3,3,0.8,0.8
2024-02-04T1100,1438A,103.613,31.0283,成都市,灵岩寺,,25,,8,17,17,55,,54,53,9,15,6,5,0.9,0.9
2024-02-04T1100,2880A,104.0239,30.65639,成都市,大石西路,,29,29,30,8,19,34,,46,42,29,25,2,3,0.8,0.8
2024-02-04T1100,3136A,104.2725,30.5589,成都市,龙泉驿区区政府,,16,14,18,9,14,50,,51,50,16,15,2,1,0.6,0.7
2024-02-04T1100,3357A,104.0106,30.6931,成都市,金博路,,12,11,29,2,18,36,,38,34,16,21,3,3,0.9,0.9
2024-02-04T1100,3359A,104.0578,30.5225,成都市,华阳,,25,19,22,17,19,41,,46,46,15,13,3,2,0.7,0.7
2024-02-04T1100,3487A,104.2394,30.5319,成都市,车城东七路,,35,31,24,24,18,46,,51,50,21,17,3,2,0.8,0.8
2024-02-04T1100,3489A,104.0789,30.4072,成都市,科学城,,23,20,22,16,17,54,,53,53,9,13,3,3,0.8,0.8
2024-02-04T1100,4011A,103.8506,30.6947,成都市,光华大道三段,,14,14,26,5,12,38,,35,30,13,15,3,2,0.9,0.9
2024-02-04T1100,1062A,117.9531,40.9081,承德市,铁路,,43,43,70,22,44,37,,14,14,34,47,11,15,0.8,1
2024-02-04T1100,1063A,117.9392,40.9763,承德市,中国银行,,40,40,75,22,35,50,,21,21,24,44,10,12,0.7,1
2024-02-04T1100,1064A,117.9503,40.928,承德市,开发区,颗粒物(PM10),51,51,68,31,42,49,,18,18,24,46,5,9,0.6,0.9
2024-02-04T1100,1065A,117.8051,40.9655,承德市,文化中心,颗粒物(PM10),52,54,82,3,25,42,,17,17,31,46,9,20,0.7,0.8
2024-02-04T1100,1066A,117.9268,41.0026,承德市,离宫,,26,26,55,15,35,46,,28,28,18,32,3,6,0.5,0.7
2024-02-04T1100,2314A,117.47,30.6618,池州市,池州学院,,18,12,31,12,29,31,,32,29,17,15,4,4,0.7,0.6
2024-02-04T1100,3237A,117.4918,30.6617,池州市,展览馆,,22,16,30,15,29,32,,33,30,18,15,10,6,0.7,0.6
2024-02-04T1100,3333A,117.5627,30.695,池州市,第八中学,,23,18,29,16,25,31,,32,29,19,18,2,2,0.8,0.7
2024-02-04T1100,3334A,117.5038,30.6243,池州市,第十二中学,,23,16,26,16,26,30,,34,30,22,19,2,2,0.8,0.7
2024-02-04T1100,1744A,118.9233,42.2816,赤峰市,松山一中,颗粒物(PM10),59,68,65,35,35,32,,14,14,40,49,14,28,1.2,1.2
2024-02-04T1100,1745A,118.9576,42.2728,赤峰市,哈达街,颗粒物(PM10),56,62,61,34,38,33,,20,20,35,42,17,47,1.3,1.1
2024-02-04T1100,1746A,118.8788,42.2554,赤峰市,天义路,细颗粒物(PM2.5),54,51,49,38,34,42,,20,20,25,36,15,16,0.9,0.9
2024-02-04T1100,3058A,119.2658,42.0353,赤峰市,银河街,细颗粒物(PM2.5),160,160,68,122,46,38,,20,20,26,30,46,24,1.4,1.2
2024-02-04T1100,3286A,118.9359,42.3147,赤峰市,桥北物流园区,细颗粒物(PM2.5),57,,48,40,37,43,,22,22,26,36,16,15,0.6,0.7
2024-02-04T1100,2521A,107.3476,22.4136,崇左市,市环保局江州分局,细颗粒物(PM2.5),58,55,53,41,32,47,,16,16,14,17,8,8,0.6,0.4
2024-02-04T1100,2522A,107.3702,22.3707,崇左市,城南新区,细颗粒物(PM2.5),59,52,45,42,32,40,,17,17,16,18,6,7,0.4,0.4
2024-02-04T1100,2298A,118.3093,32.3153,滁州市,老年大学,细颗粒物(PM2.5),67,56,47,48,47,43,,52,48,20,18,4,4,0.8,0.8
2024-02-04T1100,2299A,118.3244,32.2786,滁州市,人大宾馆,细颗粒物(PM2.5),64,51,47,46,42,37,,47,43,22,17,5,6,0.7,0.7
2024-02-04T1100,3207A,118.3118,32.3038,滁州市,市政府原办公楼,细颗粒物(PM2.5),62,,43,44,40,40,,52,47,25,20,3,3,0.5,0.5
2024-02-04T1100,3331A,118.3267,32.2634,滁州市,图书馆,细颗粒物(PM2.5),67,53,49,48,41,41,,51,47,24,21,6,6,0.8,0.7
2024-02-04T1100,2605A,101.5482,25.0441,楚雄彝族自治州,州环境监测站,,40,40,28,22,21,67,,74,54,19,12,7,6,0.7,0.6
2024-02-04T1100,2606A,101.538,25.0492,楚雄彝族自治州,市经济开发区,,48,48,30,23,22,57,,67,50,25,13,8,6,0.8,0.6
2024-02-04T1100,2548A,107.5277,31.2827,达州市,达州职业技术学院,,31,31,25,14,14,37,,44,38,22,22,11,12,0.5,0.5
2024-02-04T1100,2549A,107.5086,31.2186,达州市,市环境监测站,,25,23,24,17,15,18,,40,30,33,22,8,10,0.6,0.6
2024-02-04T1100,2550A,107.4988,31.2132,达州市,凤凰小区,,25,22,19,17,14,22,,42,33,30,19,6,9,0.6,0.5
2024-02-04T1100,2551A,107.5082,31.1986,达州市,达县机关宾馆,,33,,23,23,18,17,,31,23,32,28,6,8,0.7,0.7
2024-02-04T1100,2552A,107.4644,31.2124,达州市,市政中心,,35,30,27,24,15,20,,39,32,33,25,7,10,1.0,0.8
2024-02-04T1100,2614A,100.1542,25.7054,大理白族自治州,大理市环境监测站,,32,,26,22,19,71,,74,71,5,6,6,6,0.6,0.6
2024-02-04T1100,2615A,100.2171,25.5811,大理白族自治州,大理古城,,25,23,18,17,18,71,,69,60,8,9,7,7,1.2,1.1
2024-02-04T1100,1109A,121.612,38.9741,大连市,甘井子,细颗粒物(PM2.5),59,45,47,42,37,59,,65,62,24,21,13,10,0.8,0.7
2024-02-04T1100,1110A,121.565,38.9511,大连市,周水子,细颗粒物(PM2.5),62,47,47,44,38,59,,59,57,27,23,17,12,1.3,1.2
2024-02-04T1100,1111A,121.5637,38.8845,大连市,星海三站,细颗粒物(PM2.5),55,44,47,39,38,58,,61,57,26,24,22,16,1.0,0.9
2024-02-04T1100,1112A,121.6302,38.9117,大连市,青泥洼桥,细颗粒物(PM2.5),54,50,49,38,38,47,,56,51,37,30,19,17,1.2,1.1
2024-02-04T1100,1113A,121.6251,38.8638,大连市,傅家庄,细颗粒物(PM2.5),53,46,50,37,38,52,,58,54,29,25,23,19,1.4,1.3
2024-02-04T1100,1114A,121.5213,38.8661,大连市,七贤岭,,45,36,40,31,30,65,,65,64,24,21,20,15,1.2,1.1
2024-02-04T1100,1115A,121.2529,38.8061,大连市,旅顺,,40,31,32,28,26,59,,62,61,24,17,14,11,1.6,1.2
2024-02-04T1100,1116A,121.7485,39.1311,大连市,金州,细颗粒物(PM2.5),60,48,50,43,44,62,,66,66,24,21,15,12,0.9,1
2024-02-04T1100,1117A,121.7811,39.0496,大连市,开发区,细颗粒物(PM2.5),57,48,55,40,41,44,,51,49,40,32,36,25,1.0,1.1
2024-02-04T1100,1118A,121.9762,39.0631,大连市,双D港,,32,25,50,22,36,77,,67,67,14,20,9,13,0.8,1
2024-02-04T1100,1789A,124.81117,46.03138,大庆市,大同区,细颗粒物(PM2.5),93,83,73,69,57,44,,40,37,23,22,10,13,0.8,0.8
2024-02-04T1100,1790A,125.129,46.533,大庆市,龙凤区,细颗粒物(PM2.5),59,,63,42,44,43,,21,19,38,37,11,9,0.8,0.9
2024-02-04T1100,1791A,124.902,46.408,大庆市,红岗区,,36,36,36,24,27,59,,34,31,17,26,14,9,0.6,0.5
2024-02-04T1100,1792A,125.153,46.586,大庆市,萨尔图区,颗粒物(PM10),53,55,47,36,31,46,,42,38,43,33,14,10,0.8,0.8
2024-02-04T1100,1793A,124.9042,46.6215,大庆市,让胡路区,,46,46,44,23,30,57,,44,40,17,26,12,8,0.4,0.5
2024-02-04T1100,3481A,125.141,46.634,大庆市,萨区政府监测点,细颗粒物(PM2.5),64,49,30,46,26,54,,45,43,40,27,14,12,0.6,0.6
2024-02-04T1100,1723A,113.2994,40.0758,大同市,云冈宾馆,颗粒物(PM10),60,69,46,36,26,43,,46,43,32,29,31,19,1.6,1
2024-02-04T1100,1724A,113.3444,40.0917,大同市,大同大学,,,6,36,2,24,38,,53,48,,30,,13,1.3,0.8
2024-02-04T1100,1725A,113.2661,40.1269,大同市,安家小村,颗粒物(PM10),83,115,56,57,32,31,,26,25,35,29,53,19,3.2,1.3
2024-02-04T1100,1726A,113.2711,40.0844,大同市,教育学院,颗粒物(PM10),74,98,60,53,34,25,,27,24,53,42,35,16,2.0,1.3
2024-02-04T1100,3282A,113.3397,40.0597,大同市,大同市卫生学校,细颗粒物(PM2.5),53,48,31,37,25,38,,46,43,34,21,18,11,1.3,0.8
2024-02-04T1100,3565A,113.1367,40.1122,大同市,云冈站,细颗粒物(PM2.5),92,104,54,68,32,30,,14,14,33,33,44,29,1.4,0.8
2024-02-04T1100,3566A,113.1186,40.2556,大同市,图书馆,细颗粒物(PM2.5),112,106,52,84,38,34,,21,21,24,19,32,19,1.9,1.2
2024-02-04T1100,3567A,113.5931,40.0461,大同市,区一中,,,38,43,22,26,,,56,56,10,15,12,12,0.7,0.8
2024-02-04T1100,3676A,113.2802,40.0995,大同市,第二人民医院,颗粒物(PM10),76,102,58,54,31,30,,34,31,51,38,35,15,2.0,1.2
2024-02-04T1100,2269A,124.1069,50.4097,大兴安岭地区,科技局,,26,,20,18,17,66,,65,64,4,5,9,8,0.3,0.3
2024-02-04T1100,3663A,124.1164,50.4278,大兴安岭地区,红旗社区,,23,12,12,11,8,72,,71,71,5,5,5,4,0.2,0.3
2024-02-04T1100,1600A,124.3303,40.0625,丹东市,江湾东路,,28,21,39,13,32,89,,79,79,4,15,10,15,0.5,0.9
2024-02-04T1100,1601A,124.4256,40.1503,丹东市,临江后街,,27,23,37,11,26,86,,81,81,10,16,7,9,0.6,0.9
2024-02-04T1100,1602A,124.3933,40.1461,丹东市,元宝山,,26,22,37,13,30,83,,78,78,8,21,7,11,0.7,1
2024-02-04T1100,1603A,124.3633,40.1092,丹东市,民主桥,,29,29,46,11,30,75,,69,69,15,25,11,14,0.5,0.9
2024-02-04T1100,3541A,109.5726,19.5167,儋州市,第一中学子站,,32,32,28,18,17,49,,28,26,5,5,4,4,0.8,0.7
2024-02-04T1100,3542A,109.5567,19.5187,儋州市,东坡学校子站,,31,31,31,15,17,50,,25,24,8,7,6,6,0.5,0.5
2024-02-04T1100,2616A,98.5842,24.428,德宏傣族景颇族自治州,德宏州监测站,细颗粒物(PM2.5),84,69,63,62,56,19,,10,8,25,24,18,7,0.8,0.8
2024-02-04T1100,3677A,98.5881,24.4368,德宏傣族景颇族自治州,芒市人民政府综合楼,细颗粒物(PM2.5),72,62,66,52,44,23,,19,14,26,17,20,11,0.8,0.7
2024-02-04T1100,1901A,104.4239,31.1208,德阳市,东山公园,,20,20,23,13,16,36,,52,41,11,13,1,2,0.7,0.7
2024-02-04T1100,1902A,104.3826,31.1317,德阳市,西小区,,38,36,32,26,23,43,,51,41,24,22,3,2,0.8,0.8
2024-02-04T1100,1904A,104.3553,31.1091,德阳市,耐火材料厂,,35,29,28,24,22,25,,51,36,33,19,3,2,0.9,0.9
2024-02-04T1100,3639A,104.4019,31.1244,德阳市,市教育局,,30,30,27,19,18,33,,52,40,30,21,2,2,0.7,0.8
2024-02-04T1100,1622A,116.3032,37.4674,德州市,儿童乐园,颗粒物(PM10),57,63,63,31,37,57,,50,47,20,27,12,13,0.7,0.9
2024-02-04T1100,1624A,116.2991,37.4451,德州市,监理站,颗粒物(PM10),51,52,52,31,33,58,,59,54,28,28,12,13,0.7,0.9
2024-02-04T1100,3066A,116.2721,37.4379,德州市,九衢泉纯净水厂,颗粒物(PM10),57,63,57,34,35,56,,56,52,30,31,10,13,0.6,0.8
2024-02-04T1100,3371A,116.3728,37.4403,德州市,开发区人民医院,颗粒物(PM10),58,66,66,31,36,54,,50,46,17,25,10,13,0.7,0.8
2024-02-04T1100,3372A,116.3572,37.4094,德州市,太阳城中学,颗粒物(PM10),55,59,53,33,35,54,,52,50,18,22,10,12,0.8,0.9
2024-02-04T1100,3511A,116.5652,37.3319,德州市,陵城艺术中心,颗粒物(PM10),56,61,66,36,39,58,,46,45,15,22,14,16,0.6,0.8
2024-02-04T1100,2621A,99.7056,27.8317,迪庆藏族自治州,迪庆州站,细颗粒物(PM2.5),53,47,23,37,16,84,,72,70,16,9,9,9,0.9,0.5
2024-02-04T1100,3180A,99.7136,27.8094,迪庆藏族自治州,质量技术监督局,,29,26,18,20,15,80,,72,68,10,7,8,8,0.7,0.6
2024-02-04T1100,2663A,104.6241,35.5734,定西市,东关小学,细颗粒物(PM2.5),59,59,52,42,37,39,,40,33,17,16,14,9,1.4,1.2
2024-02-04T1100,2664A,104.6194,35.5934,定西市,供电公司,细颗粒物(PM2.5),75,73,70,55,44,40,,47,34,15,12,10,3,1.2,1
2024-02-04T1100,1389A,113.7547,23.0494,东莞市,莞城梨川,,23,23,26,14,14,52,,57,57,20,26,6,6,0.7,0.7
2024-02-04T1100,1390A,113.7944,23.0128,东莞市,东城石井,,22,22,24,13,12,51,,55,55,16,22,6,6,0.6,0.6
2024-02-04T1100,1391A,113.7383,22.9658,东莞市,南城西平,,20,20,26,13,14,45,,46,46,18,33,6,7,0.6,0.6
2024-02-04T1100,3319A,113.7338,23.0381,东莞市,万江金泰,,27,27,29,16,15,43,,49,49,18,25,7,7,0.7,0.7
2024-02-04T1100,3626A,113.7533,23.0202,东莞市,南城元岭,,22,22,25,13,12,44,,45,45,20,27,7,7,0.8,0.7
2024-02-04T1100,3627A,113.7875,23.0457,东莞市,东城主山,,20,20,23,14,13,52,,54,54,15,22,7,7,0.6,0.5
2024-02-04T1100,1666A,118.6614,37.4309,东营市,市环保局,,27,19,24,9,14,85,,74,74,11,14,6,6,0.4,0.4
2024-02-04T1100,3036A,118.6904,37.4338,东营市,开发区管委会,,26,24,28,14,15,83,,74,74,9,13,3,2,0.2,0.3
2024-02-04T1100,3365A,118.5719,37.565,东营市,垦利区民丰路,,29,29,30,9,14,83,,67,67,10,18,7,8,0.4,0.5
2024-02-04T1100,3498A,118.5055,37.8612,东营市,河口城区,,,,27,,16,,,77,77,13,17,,3,0.7,0.7
2024-02-04T1100,3646A,118.4978,37.4623,东营市,胜利站,,29,29,36,9,17,80,,69,69,14,21,8,8,0.3,0.3
2024-02-04T1100,3734A,118.35,37.26,东营市,理想之城,,24,24,28,14,14,76,,65,65,9,15,2,2,0.5,0.5
2024-02-04T1100,1591A,110.0023,39.8129,鄂尔多斯市,综合楼,细颗粒物(PM2.5),144,122,122,110,87,45,,35,28,49,52,9,13,1.3,1.1
2024-02-04T1100,1592A,109.9486,39.8261,鄂尔多斯市,巴音孟克林场办事处,细颗粒物(PM2.5),149,124,112,114,83,41,,34,28,49,50,11,15,1.5,1.2
2024-02-04T1100,1593A,109.7736,39.5986,鄂尔多斯市,康泽苑,细颗粒物(PM2.5),192,156,99,144,77,30,,14,12,54,52,11,10,1.9,1.2
2024-02-04T1100,1594A,109.8119,39.5989,鄂尔多斯市,华泰汽车城,细颗粒物(PM2.5),170,149,99,129,72,28,,11,11,59,60,14,10,1.7,1.2
2024-02-04T1100,1595A,109.9734,39.7884,鄂尔多斯市,奥林花园,细颗粒物(PM2.5),163,153,124,124,83,36,,25,23,53,57,11,11,1.6,1.3
2024-02-04T1100,2436A,114.8938,30.3994,鄂州市,市政府,细颗粒物(PM2.5),77,,42,56,48,37,,42,42,25,23,5,5,1.3,1.2
2024-02-04T1100,2437A,114.8989,30.3714,鄂州市,赵家坝,,,35,34,,57,37,,46,45,23,18,4,3,1.2,1
2024-02-04T1100,3654A,114.8094,30.4089,鄂州市,精准医疗中心,细颗粒物(PM2.5),85,67,52,63,53,47,,50,49,15,14,7,7,1.3,0.9
2024-02-04T1100,2454A,109.4978,30.2981,恩施土家族苗族自治州,湖北民院,颗粒物(PM10),53,56,36,8,16,59,,55,55,6,10,11,12,1.0,1.2
2024-02-04T1100,2455A,109.4707,30.2798,恩施土家族苗族自治州,州电力总公司,,,12,16,8,14,,,39,38,22,20,4,5,1.0,1.1
2024-02-04T1100,3549A,109.5061,30.3772,恩施土家族苗族自治州,龙凤新区,,18,12,12,12,12,57,,48,48,13,17,7,7,0.9,1.1
2024-02-04T1100,2499A,108.3411,21.6158,防城港市,沙万,,40,34,55,28,27,13,,13,6,26,29,13,7,0.4,0.6
2024-02-04T1100,2500A,108.3514,21.7731,防城港市,防城档案局,细颗粒物(PM2.5),62,52,57,44,35,18,,23,20,34,24,5,5,0.5,0.6
2024-02-04T1100,2501A,108.3506,21.6414,防城港市,大海花园,,34,34,50,22,24,18,,19,12,33,30,5,6,0.7,0.7
2024-02-04T1100,1371A,113.1294,23.0067,佛山市,湾梁,,27,27,30,11,10,52,,41,41,14,19,9,9,0.5,0.5
2024-02-04T1100,1372A,113.1083,23.0478,佛山市,华材职中,,22,22,23,11,12,54,,44,44,18,24,10,9,0.4,0.4
2024-02-04T1100,1373A,113.144,23.0453,佛山市,南海气象局,,20,20,23,9,14,45,,38,38,20,24,6,6,0.4,0.4
2024-02-04T1100,1374A,113.2881,22.8094,佛山市,顺德苏岗,,20,18,20,14,11,45,,39,36,19,21,8,7,0.6,0.5
2024-02-04T1100,1376A,112.8383,22.8678,佛山市,高明孔堂,,20,18,19,11,7,62,,62,61,5,9,3,3,0.3,0.3
2024-02-04T1100,1377A,112.8836,23.1588,佛山市,三水监测站,,16,14,27,11,14,41,,15,15,12,27,6,6,0.5,0.6
2024-02-04T1100,1378A,112.867,23.185,佛山市,三水云东海,,24,24,29,16,18,48,,11,11,20,28,6,6,0.5,0.6
2024-02-04T1100,3625A,113.2544,22.7642,佛山市,容桂街道办,,22,22,19,14,8,45,,43,40,13,17,5,5,0.6,0.5
2024-02-04T1100,1282A,119.2681,26.0504,福州市,师大,,12,9,15,0,10,38,,54,43,18,15,5,6,0.6,0.5
2024-02-04T1100,1283A,119.2984,26.1028,福州市,五四北路,,11,2,15,0,10,34,,54,42,19,19,2,3,0.6,0.6
2024-02-04T1100,1284A,119.2648,26.0768,福州市,杨桥西路,,13,6,16,0,9,39,,57,46,16,14,3,3,0.6,0.6
2024-02-04T1100,1285A,119.317,26.0746,福州市,紫阳,,11,6,15,0,8,35,,51,39,18,17,5,6,0.6,0.6
2024-02-04T1100,3048A,119.5799,26.0936,福州市,九龙,,20,7,10,0,6,62,,52,47,12,13,2,2,0.4,0.4
2024-02-04T1100,3526A,119.5189,25.9664,福州市,吴航,,18,5,13,3,8,57,,51,45,10,13,2,3,0.5,0.5
2024-02-04T1100,1755A,123.7977,41.8491,抚顺市,望花区,细颗粒物(PM2.5),78,64,93,57,76,51,,20,20,43,44,16,13,1.1,1.2
2024-02-04T1100,1756A,123.9161,41.8822,抚顺市,顺城区,细颗粒物(PM2.5),83,78,103,61,88,71,,24,24,29,52,15,9,1.0,1.3
2024-02-04T1100,1757A,124.0436,41.8611,抚顺市,东洲区,细颗粒物(PM2.5),80,77,97,59,80,74,,53,53,20,33,18,11,0.9,1
2024-02-04T1100,1758A,123.9247,41.8642,抚顺市,新抚区,细颗粒物(PM2.5),90,81,109,67,90,57,,28,28,47,60,14,9,1.0,1.3
2024-02-04T1100,1759A,124.0972,41.8961,抚顺市,大伙房水库,颗粒物(PM10),65,80,81,42,67,74,,49,49,13,22,24,14,0.9,1
2024-02-04T1100,1760A,123.7086,41.8391,抚顺市,沈抚新城,细颗粒物(PM2.5),64,65,112,46,77,68,,27,27,32,43,14,9,1.4,1.4
2024-02-04T1100,2376A,116.2127,28.0814,抚州市,桐源党溪,,26,26,24,18,14,27,,28,26,11,11,2,3,0.9,0.7
2024-02-04T1100,2377A,116.3544,27.9831,抚州市,市站,,18,18,20,10,11,31,,33,30,16,14,8,8,1.4,1.1
2024-02-04T1100,2378A,116.3565,27.963,抚州市,血防站,,25,25,29,10,11,29,,32,29,13,10,3,3,1.4,1.2
2024-02-04T1100,2379A,116.3564,28.0007,抚州市,采茶剧团,,19,16,18,13,13,30,,32,29,14,11,4,4,1.0,0.7
2024-02-04T1100,2380A,116.385,27.9647,抚州市,医学分院,,15,15,17,8,8,27,,32,28,15,12,4,4,1.0,0.8
2024-02-04T1100,2207A,121.6094,41.998,阜新市,工业园区,颗粒物(PM10),59,68,68,34,38,65,,24,24,20,36,61,15,1.1,1.1
2024-02-04T1100,2208A,121.6697,42.0279,阜新市,长青街,颗粒物(PM10),51,51,63,21,51,53,,13,13,30,40,104,26,1.1,2
2024-02-04T1100,2209A,121.6673,42.0705,阜新市,农业园区,二氧化硫,58,46,28,27,21,71,,69,68,18,12,205,45,1.4,1
2024-02-04T1100,2210A,121.6717,42.0224,阜新市,东苑,颗粒物(PM10),78,105,69,34,54,54,,13,13,37,46,69,35,1.6,2.6
2024-02-04T1100,2211A,121.6506,42.0498,阜新市,玉龙新城,二氧化硫,73,83,48,32,37,61,,20,20,33,44,307,22,1.2,1
2024-02-04T1100,2301A,115.8277,32.8929,阜阳市,市监测站,细颗粒物(PM2.5),138,,114,105,112,49,,43,43,20,25,5,5,0.8,0.9
2024-02-04T1100,2303A,115.8554,32.8605,阜阳市,开发区,细颗粒物(PM2.5),117,121,133,88,102,46,,42,42,26,30,4,4,1.1,1.1
2024-02-04T1100,2875A,115.784,32.8892,阜阳市,阜阳职业技术学院,细颗粒物(PM2.5),129,101,111,98,105,51,,46,46,19,23,4,4,0.9,0.9
2024-02-04T1100,3468A,115.7901,32.8613,阜阳市,市规划展馆,细颗粒物(PM2.5),114,102,123,86,105,50,,45,45,,26,4,4,0.8,0.9
2024-02-04T1100,3469A,115.836,32.9183,阜阳市,枣园社区,细颗粒物(PM2.5),120,108,129,91,109,50,,44,44,18,24,4,4,0.9,0.9
2024-02-04T1100,2669A,102.9099,34.9841,甘南藏族自治州,州政府,颗粒物(PM10),51,52,43,30,29,39,,44,35,24,15,35,11,0.8,0.8
2024-02-04T1100,3380A,102.8914,34.9617,甘南藏族自治州,甘肃民族师范学院,细颗粒物(PM2.5),59,62,45,42,30,42,,42,39,23,11,74,12,0.8,0.8
2024-02-04T1100,2570A,101.9603,30.0475,甘孜藏族自治州,水桥子,,17,13,9,10,7,52,,48,47,9,8,10,10,0.6,0.6
2024-02-04T1100,3065A,101.9533,29.9972,甘孜藏族自治州,州环保局,,17,17,11,4,7,54,,57,54,10,8,8,8,0.5,0.5
2024-02-04T1100,3414A,115.8347,28.932,赣江新区,桑海产业园,,12,,13,8,10,30,,36,33,18,16,3,3,0.8,0.6
2024-02-04T1100,2363A,114.9367,25.8664,赣州市,地委,,,,10,9,11,,,10,10,9,8,12,12,1.1,1.1
2024-02-04T1100,2364A,114.9461,25.8481,赣州市,气象台,,18,,10,12,12,25,,20,20,14,11,3,3,0.9,0.9
2024-02-04T1100,2365A,114.9322,25.8333,赣州市,市图书馆,,11,6,12,5,6,19,,15,15,12,13,4,5,1.1,1.1
2024-02-04T1100,2366A,114.8905,25.8471,赣州市,华坚鞋城,,18,14,18,12,12,20,,15,15,13,13,1,3,0.9,1.1
2024-02-04T1100,3109A,115.0093,25.8613,赣州市,赣县区卫计委,,10,6,10,0,6,18,,17,17,10,10,6,6,1.0,1
2024-02-04T1100,2683A,106.2319,36.1417,固原市,马园,,,43,41,31,32,72,,70,64,,18,6,5,1.4,1.3
2024-02-04T1100,2684A,106.2792,36.0022,固原市,监测站,细颗粒物(PM2.5),63,,34,45,39,65,,69,63,18,16,4,4,1.1,1.1
2024-02-04T1100,2685A,106.2375,36.0211,固原市,新区,细颗粒物(PM2.5),57,,34,40,35,64,,63,59,17,15,6,5,1.0,0.9
2024-02-04T1100,3522A,106.2177,35.9959,固原市,原州区十五小,细颗粒物(PM2.5),64,52,41,46,36,58,,64,60,26,19,9,7,1.4,1.2
2024-02-04T1100,2544A,106.6303,30.4576,广安市,市委,,26,21,31,18,23,26,,31,30,14,12,4,5,0.7,0.7
2024-02-04T1100,2545A,106.6271,30.4663,广安市,友谊中学,,28,,27,19,24,31,,34,34,14,14,4,4,0.7,0.7
2024-02-04T1100,2547A,106.6388,30.4551,广安市,广电花园,,25,,25,17,23,28,,31,31,12,12,3,3,0.9,0.9
2024-02-04T1100,2902A,106.6351,30.4865,广安市,北辰小学,,25,,27,17,23,29,,32,32,13,12,4,5,0.7,0.7
2024-02-04T1100,2523A,105.8945,32.4535,广元市,黑石坡,,38,38,28,18,21,61,,63,59,12,9,4,4,0.6,0.6
2024-02-04T1100,2524A,105.821,32.4444,广元市,老城,,39,39,29,17,17,56,,58,53,10,10,1,1,0.7,0.7
2024-02-04T1100,2526A,105.8628,32.4287,广元市,监测站,,26,26,26,17,21,57,,60,56,10,7,2,2,0.7,0.7
2024-02-04T1100,3617A,105.8047,32.4166,广元市,经开区,,32,26,25,22,18,58,,58,55,11,12,3,2,0.7,0.7
2024-02-04T1100,1345A,113.2347,23.1423,广州市,广雅中学,,23,23,25,12,13,42,,34,34,26,27,4,4,0.7,0.7
2024-02-04T1100,1346A,113.2612,23.105,广州市,市五中,,26,26,28,18,17,41,,33,33,26,29,5,5,0.7,0.6
2024-02-04T1100,1348A,113.3478,23.0916,广州市,广东商学院,,32,30,27,22,16,40,,24,24,26,31,4,4,0.7,0.6
2024-02-04T1100,1349A,113.4332,23.1047,广州市,市八十六中,,32,32,37,22,19,33,,16,16,30,43,5,5,0.6,0.6
2024-02-04T1100,1350A,113.3505,22.9483,广州市,番禺中学,,32,30,26,22,16,46,,32,32,24,29,5,4,0.7,0.7
2024-02-04T1100,1351A,113.2146,23.3916,广州市,花都师范,,,21,31,10,14,51,,27,27,18,30,5,5,,0.5
2024-02-04T1100,1352A,113.2597,23.1331,广州市,市监测站,,25,23,26,17,17,40,,30,30,28,29,4,4,0.7,0.6
2024-02-04T1100,1353A,113.5618,23.312,广州市,九龙镇镇龙,,23,23,31,14,21,34,,31,31,24,34,5,5,0.6,0.6
2024-02-04T1100,1354A,113.2765,23.1544,广州市,麓湖,,22,22,27,13,15,47,,35,35,22,28,4,4,0.6,0.6
2024-02-04T1100,1355A,113.443,23.3035,广州市,帽峰山森林公园,,14,9,15,9,13,44,,23,23,19,31,5,6,0.5,0.5
2024-02-04T1100,2846A,113.3221,23.1322,广州市,体育西,,31,31,30,18,16,40,,29,29,23,26,6,7,0.6,0.6
2024-02-04T1100,3298A,113.5717,23.5491,广州市,从化街口,颗粒物(PM10),54,57,41,37,24,10,,6,5,21,21,10,9,1.1,0.7
2024-02-04T1100,3299A,113.3472,23.3692,广州市,白云竹料,,26,26,39,17,21,47,,23,23,17,29,5,6,0.6,0.6
2024-02-04T1100,3300A,113.2981,23.237,广州市,白云嘉禾,,25,25,32,17,18,50,,28,28,25,37,6,6,0.6,0.6
2024-02-04T1100,3301A,113.4256,23.1716,广州市,黄埔科学城,,38,38,35,22,18,36,,21,21,26,36,4,4,0.6,0.6
2024-02-04T1100,3302A,113.3942,23.0483,广州市,番禺大学城,,26,26,28,18,14,40,,31,31,23,29,6,7,0.6,0.7
2024-02-04T1100,3303A,113.4922,22.8168,广州市,南沙黄阁,,26,19,29,18,14,43,,44,40,23,29,4,4,0.8,0.8
2024-02-04T1100,3304A,113.5342,22.7896,广州市,南沙街,,23,,23,16,13,39,,34,32,28,31,4,4,0.7,0.7
2024-02-04T1100,3443A,113.2902,23.5544,广州市,花都梯面,,28,28,31,18,21,41,,13,13,21,18,5,5,0.5,0.6
2024-02-04T1100,3445A,113.7858,23.7478,广州市,从化良口,,22,19,20,15,14,44,,22,22,11,11,6,6,0.6,0.5
2024-02-04T1100,3446A,113.8051,23.2614,广州市,增城荔城,,40,40,34,26,20,42,,36,36,16,21,5,5,0.5,0.5
2024-02-04T1100,2505A,109.568,23.1478,贵港市,德智高中,,9,,40,6,25,17,,10,10,10,22,4,4,0.9,1
2024-02-04T1100,2506A,109.6047,23.0666,贵港市,江南子站,,28,27,60,19,35,10,,5,5,17,23,6,7,0.8,1
2024-02-04T1100,2507A,109.6014,23.0948,贵港市,贵城子站,,19,14,46,13,35,9,,3,3,14,25,7,8,0.9,0.9
2024-02-04T1100,2508A,109.5669,23.1065,贵港市,荷城子站,,12,12,45,5,28,13,,7,7,8,19,8,9,1.0,1.2
2024-02-04T1100,3405A,109.5886,23.1172,贵港市,新世纪学校,,22,,47,15,31,13,,7,7,11,24,4,4,1.0,1.2
2024-02-04T1100,1439A,106.6899,26.5998,贵阳市,马鞍山,,39,34,13,27,10,19,,19,17,14,13,9,7,0.7,0.7
2024-02-04T1100,1440A,106.6971,26.5694,贵阳市,市环保站,细颗粒物(PM2.5),57,,9,40,13,24,,25,22,15,14,10,7,0.7,0.6
2024-02-04T1100,1441A,106.6243,26.6266,贵阳市,鉴湖路,,12,12,21,2,10,26,,18,18,8,13,7,6,0.8,0.8
2024-02-04T1100,1442A,106.7487,26.6343,贵阳市,燕子冲,,42,39,11,29,11,23,,24,22,11,11,7,6,0.8,0.7
2024-02-04T1100,1443A,106.6555,26.4365,贵阳市,碧云窝,颗粒物(PM10),51,51,22,31,7,20,,20,18,14,15,23,14,0.8,0.7
2024-02-04T1100,1444A,106.694,26.5161,贵阳市,中院村,,45,44,14,31,11,27,,28,25,13,14,14,11,0.7,0.7
2024-02-04T1100,1445A,106.7109,26.6027,贵阳市,红边门,,39,36,16,27,10,21,,21,18,11,12,10,7,1.0,0.7
2024-02-04T1100,1446A,106.7164,26.5699,贵阳市,新华路,,41,41,18,24,10,27,,26,24,9,13,7,7,0.8,0.7
2024-02-04T1100,1447A,106.674,26.5424,贵阳市,太慈桥,,,39,17,27,10,,,21,19,16,15,9,6,0.8,0.7
2024-02-04T1100,1862A,110.4144,25.3167,桂林市,电子科大尧山校区,,13,8,8,7,7,40,,40,40,5,7,4,4,0.8,0.7
2024-02-04T1100,1863A,110.2819,25.2697,桂林市,监测站,,20,,13,14,12,32,,31,31,14,12,6,6,0.7,0.7
2024-02-04T1100,1864A,110.3089,25.2708,桂林市,龙隐路小学,,16,,12,11,11,36,,34,34,11,10,4,4,0.7,0.6
2024-02-04T1100,1865A,110.2869,25.2178,桂林市,八中,,15,,11,10,12,32,,30,30,13,13,3,3,0.7,0.7
2024-02-04T1100,3403A,110.1764,25.2381,桂林市,创业大厦,,13,,9,9,9,30,,31,31,10,7,6,6,0.7,0.6
2024-02-04T1100,3531A,110.296,25.1253,桂林市,旅游学院,,10,,5,7,7,27,,29,29,12,9,4,4,0.9,0.8
2024-02-04T1100,2674A,100.2561,34.4714,果洛藏族自治州,玛沁县大武镇,颗粒物(PM10),56,62,51,23,22,61,,64,60,23,14,36,13,0.9,0.5
2024-02-04T1100,1129A,126.5422,45.755,哈尔滨市,岭北,细颗粒物(PM2.5),179,149,195,135,179,66,,39,39,37,71,14,21,0,0.8
2024-02-04T1100,1130A,126.561,45.8167,哈尔滨市,松北商大,细颗粒物(PM2.5),138,142,160,105,130,64,,50,48,34,44,16,11,1.2,1.2
2024-02-04T1100,1131A,126.979,45.5419,哈尔滨市,阿城会宁,细颗粒物(PM2.5),190,149,163,143,152,84,,74,73,26,27,15,12,1.2,1.1
2024-02-04T1100,1132A,126.599,45.7222,哈尔滨市,南岗学府路,细颗粒物(PM2.5),156,164,228,119,170,57,,37,37,48,71,16,9,1.3,1.6
2024-02-04T1100,1133A,126.689,45.7733,哈尔滨市,太平宏伟公园,细颗粒物(PM2.5),107,125,225,80,164,51,,25,25,36,68,18,18,1.0,1.6
2024-02-04T1100,1134A,126.635,45.7667,哈尔滨市,道外承德广场,细颗粒物(PM2.5),118,133,174,89,134,48,,26,26,46,78,14,15,0.8,1
2024-02-04T1100,1135A,126.685,45.7319,哈尔滨市,香坊红旗大街,细颗粒物(PM2.5),188,,194,141,192,39,,,,58,81,26,36,1.4,1.5
2024-02-04T1100,1136A,126.6411,45.7258,哈尔滨市,动力和平路,细颗粒物(PM2.5),152,149,190,116,170,44,,24,24,44,68,30,20,1.4,1.6
2024-02-04T1100,1137A,126.593,45.7478,哈尔滨市,道里建国路,细颗粒物(PM2.5),160,152,166,122,153,43,,26,26,46,61,17,13,0.9,1.3
2024-02-04T1100,1138A,126.615,45.61,哈尔滨市,平房东轻厂,细颗粒物(PM2.5),189,161,203,142,187,75,,63,63,29,42,12,11,1.0,1.3
2024-02-04T1100,1140A,126.6206,45.6842,哈尔滨市,省农科院,细颗粒物(PM2.5),196,173,213,147,182,66,,34,34,41,71,16,14,1.4,1.4
2024-02-04T1100,2688A,93.5128,42.8172,哈密市,地区监测站,颗粒物(PM10),88,125,97,32,32,44,,40,40,39,28,6,4,0.8,0.6
2024-02-04T1100,2689A,93.4961,42.8328,哈密市,哈密师范学校,颗粒物(PM10),87,124,100,40,31,26,,27,22,57,38,6,6,1.3,0.9
2024-02-04T1100,2671A,100.9048,36.9639,海北藏族自治州,海晏县西海镇,,28,28,38,15,20,78,,72,72,6,8,12,12,0.6,0.6
2024-02-04T1100,3867A,102.0738,36.5056,海东市,平安区公安北苑,细颗粒物(PM2.5),114,114,61,86,49,38,,44,36,44,27,42,16,2.8,1.2
2024-02-04T1100,1410A,110.3232,20.0574,海口市,海南大学,,17,17,20,8,10,50,,48,48,6,6,8,8,0.4,0.3
2024-02-04T1100,1411A,110.283,20.0053,海口市,秀英海南医院,,18,18,22,8,11,46,,37,37,8,7,7,8,0.3,0.3
2024-02-04T1100,1412A,110.338,19.9969,海口市,海南师范大学,,18,18,21,6,12,52,,41,41,3,6,7,7,0.4,0.4
2024-02-04T1100,1413A,110.33,20.0356,海口市,龙华路环保局宿舍,,21,21,23,11,12,45,,42,42,8,7,7,7,0.1,0.2
2024-02-04T1100,3539A,110.5111,19.9736,海口市,桂林洋子站,,16,10,16,6,10,49,,35,35,2,4,6,6,0.2,0.3
2024-02-04T1100,2673A,100.6188,36.2866,海南藏族自治州,共和县恰卜恰镇,,41,41,38,22,22,67,,43,43,17,19,10,11,0.7,0.5
2024-02-04T1100,2676A,97.3731,37.3753,海西蒙古族藏族自治州,德令哈市,,31,23,47,10,19,99,,100,100,4,7,11,11,0.4,0.5
2024-02-04T1100,1048A,114.5302,36.6116,邯郸市,东污水处理厂,细颗粒物(PM2.5),67,62,84,48,77,60,,34,34,20,26,9,6,0.8,0.8
2024-02-04T1100,1049A,114.4918,36.5713,邯郸市,矿院,细颗粒物(PM2.5),58,61,83,41,64,56,,42,42,21,20,6,4,0.8,0.8
2024-02-04T1100,1050A,114.484,36.6133,邯郸市,丛台公园,,50,36,89,35,67,66,,45,45,26,33,8,5,0.7,0.8
2024-02-04T1100,3458A,114.7895,36.5593,邯郸市,香泉濮院小区,细颗粒物(PM2.5),67,61,85,48,75,64,,38,38,16,25,11,9,0.6,0.8
2024-02-04T1100,3579A,114.50634,36.77178,邯郸市,永年区实验高中,细颗粒物(PM2.5),59,54,107,42,88,63,,28,28,20,40,11,6,0.5,0.9
2024-02-04T1100,3580A,114.20016,36.44293,邯郸市,峰峰矿区临水派出所,细颗粒物(PM2.5),113,89,96,85,83,52,,55,49,26,22,13,6,1.2,0.8
2024-02-04T1100,2634A,106.9893,33.1842,汉中市,汉川机床厂子校,,40,30,24,28,24,59,,55,55,5,5,3,3,0.6,0.6
2024-02-04T1100,2635A,107.0154,33.0706,汉中市,市监测站,,50,,30,35,30,52,,50,49,15,14,7,7,0.8,0.7
2024-02-04T1100,2636A,107.0089,33.1138,汉中市,鑫源开发区,细颗粒物(PM2.5),52,,26,36,31,54,,54,52,14,13,7,7,0.7,0.7
2024-02-04T1100,2637A,107.007,33.0323,汉中市,南郑大河坎水厂,细颗粒物(PM2.5),65,51,32,47,33,36,,55,48,26,13,9,8,0.8,0.7
2024-02-04T1100,1223A,120.2072,30.2111,杭州市,滨江,,49,38,25,34,25,36,,47,43,29,24,6,6,0.9,0.7
2024-02-04T1100,1224A,120.0633,30.2747,杭州市,西溪,,39,39,26,24,15,43,,45,44,22,20,6,6,0.9,0.8
2024-02-04T1100,1226A,120.3461,30.3153,杭州市,下沙,细颗粒物(PM2.5),64,51,32,46,33,34,,48,41,26,21,6,6,1.0,0.9
2024-02-04T1100,1227A,120.1269,30.2456,杭州市,卧龙桥,,43,35,21,30,19,35,,41,40,18,15,6,6,1.0,0.8
2024-02-04T1100,1228A,120.1903,30.2692,杭州市,浙江农大,细颗粒物(PM2.5),54,45,28,38,27,35,,47,43,25,21,8,8,0.9,0.8
2024-02-04T1100,1230A,120.1197,30.3119,杭州市,和睦小学,,43,,11,30,19,38,,42,41,24,22,5,5,0.8,0.6
2024-02-04T1100,1231A,120.3019,30.4183,杭州市,临平镇,细颗粒物(PM2.5),63,64,40,45,31,38,,48,44,16,13,5,4,1.0,0.9
2024-02-04T1100,1232A,120.2697,30.1819,杭州市,城厢镇,,,43,25,,24,30,,48,43,33,22,6,6,0.9,0.7
2024-02-04T1100,1233A,120.0883,30.1808,杭州市,云栖,,35,32,21,24,16,40,,45,44,23,20,7,7,0.8,0.7
2024-02-04T1100,3557A,119.9464,30.0494,杭州市,镇二中,,33,,12,23,13,39,,40,39,24,21,6,5,0.9,0.8
2024-02-04T1100,3558A,119.7183,30.2367,杭州市,市府大楼,,29,,16,20,15,45,,44,44,15,14,4,4,0.9,0.8
2024-02-04T1100,3656A,120.1556,30.2864,杭州市,消防大队,细颗粒物(PM2.5),57,46,31,40,25,39,,47,45,28,25,7,7,0.8,0.7
2024-02-04T1100,1270A,117.1959,31.7848,合肥市,明珠广场,细颗粒物(PM2.5),62,48,48,44,40,42,,46,43,26,26,5,6,0.7,0.7
2024-02-04T1100,1271A,117.3072,31.8764,合肥市,三里街,细颗粒物(PM2.5),58,48,48,41,46,40,,46,41,26,26,5,4,0.5,0.5
2024-02-04T1100,1272A,117.2588,31.8707,合肥市,琥珀山庄,细颗粒物(PM2.5),52,44,46,36,38,46,,52,49,20,18,5,4,0.8,0.8
2024-02-04T1100,1273A,117.1604,31.9052,合肥市,董铺水库,细颗粒物(PM2.5),52,51,60,36,49,60,,58,56,7,9,3,3,0.5,0.6
2024-02-04T1100,1274A,117.25,31.8571,合肥市,长江中路,细颗粒物(PM2.5),67,,46,48,47,46,,50,47,19,18,6,5,0.7,0.8
2024-02-04T1100,1275A,117.266,31.9436,合肥市,庐阳区,细颗粒物(PM2.5),62,53,53,44,42,53,,54,51,18,20,5,4,0.8,0.8
2024-02-04T1100,1276A,117.336,31.8586,合肥市,瑶海区,细颗粒物(PM2.5),60,46,45,43,46,49,,51,48,18,20,2,1,0.6,0.6
2024-02-04T1100,1277A,117.3027,31.7964,合肥市,包河区,细颗粒物(PM2.5),64,,44,46,42,35,,40,37,32,32,3,3,0.8,0.9
2024-02-04T1100,1278A,117.2776,31.7385,合肥市,滨湖新区,细颗粒物(PM2.5),55,44,46,39,41,45,,46,43,19,22,5,4,0.7,0.7
2024-02-04T1100,1279A,117.1318,31.8403,合肥市,高新区,细颗粒物(PM2.5),60,48,54,43,49,45,,47,45,24,24,3,3,0.8,0.7
2024-02-04T1100,3464A,117.3803,31.9147,合肥市,高教基地,细颗粒物(PM2.5),58,44,52,41,43,50,,52,49,13,13,3,3,0.5,0.5
2024-02-04T1100,3614A,79.924,37.0877,和田地区,地区环保局,细颗粒物(PM2.5),90,126,80,67,39,50,,56,55,33,19,7,5,1.1,0.6
2024-02-04T1100,3615A,79.9131,37.113,和田地区,市环保局,颗粒物(PM10),70,89,60,46,32,48,,58,57,31,17,5,5,3.4,2.2
2024-02-04T1100,2516A,108.2011,24.715,河池市,东仁乐园,,10,,10,7,11,21,,17,17,5,7,4,4,0.7,0.8
2024-02-04T1100,2517A,108.0497,24.6947,河池市,市环保站,,,,9,,8,23,,18,18,10,12,5,5,0.6,0.7
2024-02-04T1100,2518A,108.0983,24.6989,河池市,市疾控中心,,7,5,10,3,6,22,,17,17,8,13,6,6,0.6,0.8
2024-02-04T1100,1696A,114.6778,23.7569,河源市,源西,,27,27,27,11,16,17,,13,13,10,15,4,4,0.8,0.8
2024-02-04T1100,1697A,114.6944,23.7586,河源市,东埔,,40,40,29,15,18,14,,18,13,10,11,6,6,0.7,0.6
2024-02-04T1100,1698A,114.6892,23.7233,河源市,老城,,31,31,25,14,14,17,,16,14,11,11,5,5,0.8,0.7
2024-02-04T1100,1718A,115.4208,35.2464,菏泽市,气象局,细颗粒物(PM2.5),67,68,68,48,53,51,,49,46,16,18,6,6,0.6,0.8
2024-02-04T1100,1719A,115.4747,35.2375,菏泽市,市政协,细颗粒物(PM2.5),67,63,68,48,52,47,,47,44,15,18,9,8,0.5,0.6
2024-02-04T1100,3374A,115.5564,35.0891,菏泽市,定陶老年大学,细颗粒物(PM2.5),67,61,66,48,52,46,,45,42,20,21,7,6,0.4,0.5
2024-02-04T1100,3647A,115.4702,35.2706,菏泽市,菏泽医专,细颗粒物(PM2.5),63,63,67,45,48,50,,47,46,20,23,9,9,0.6,0.7
2024-02-04T1100,2514A,111.5264,24.4172,贺州市,环保小区,,13,13,21,8,12,25,,22,22,9,13,8,8,0.6,0.7
2024-02-04T1100,2515A,111.5608,24.4078,贺州市,政协大楼,,17,17,22,7,16,25,,22,22,10,13,8,7,0.8,0.8
2024-02-04T1100,3534A,111.4744,24.4553,贺州市,西湾,,15,11,18,10,16,27,,24,24,8,11,7,6,0.7,0.7
2024-02-04T1100,2385A,114.17,35.9019,鹤壁市,市监测站,细颗粒物(PM2.5),74,68,101,54,83,61,,48,48,24,26,8,7,0.8,1
2024-02-04T1100,2386A,114.2956,35.7511,鹤壁市,市交警支队,细颗粒物(PM2.5),82,91,87,60,62,57,,46,46,31,28,10,6,0.9,0.7
2024-02-04T1100,2387A,114.2878,35.7306,鹤壁市,迎宾馆,细颗粒物(PM2.5),84,76,74,62,66,57,,46,46,30,28,13,10,1.0,0.8
2024-02-04T1100,3474A,114.2617,35.6822,鹤壁市,大新区,细颗粒物(PM2.5),70,65,71,51,64,61,,48,48,28,24,14,9,1.1,0.8
2024-02-04T1100,3596A,114.1572,35.9603,鹤壁市,南山宾馆,细颗粒物(PM2.5),92,87,100,68,86,56,,46,46,22,21,13,11,1.2,1.1
2024-02-04T1100,2244A,130.2537,47.3416,鹤岗市,哈啤分公司,,38,38,26,24,20,56,,66,62,23,8,17,14,0.7,0.5
2024-02-04T1100,2245A,130.2684,47.3086,鹤岗市,斯达机电,,49,49,32,26,21,65,,72,69,38,13,22,11,0.5,0.3
2024-02-04T1100,2246A,130.3114,47.3388,鹤岗市,东山纸板厂,,46,43,29,32,20,69,,68,59,21,13,15,13,0.7,0.7
2024-02-04T1100,2247A,130.1097,47.3382,鹤岗市,五号水库,,42,42,26,26,19,68,,78,72,18,8,11,10,0.6,0.4
2024-02-04T1100,2263A,127.4833,50.2524,黑河市,交通局,,20,,27,13,20,64,,62,61,8,12,4,8,0.4,0.5
2024-02-04T1100,2264A,127.5144,50.2341,黑河市,环保局,,20,20,18,13,18,64,,63,61,9,13,6,6,0.3,0.3
2024-02-04T1100,2265A,127.5291,50.2472,黑河市,大黑河岛,,,,15,12,15,49,,27,27,6,9,6,7,,
2024-02-04T1100,1074A,115.6838,37.7541,衡水市,电机北厂,细颗粒物(PM2.5),58,52,70,41,60,37,,40,40,26,29,9,11,0.7,0.8
2024-02-04T1100,1075A,115.6303,37.7316,衡水市,市监测站,颗粒物(PM10),56,62,65,27,47,47,,57,57,28,27,8,7,0.6,0.7
2024-02-04T1100,3188A,115.6683,37.7217,衡水市,市城管局,细颗粒物(PM2.5),59,57,76,42,57,44,,51,51,25,27,9,9,0.6,0.8
2024-02-04T1100,3459A,115.5989,37.5491,衡水市,地表水厂,,42,41,74,29,62,58,,32,32,12,36,4,5,0.4,0.9
2024-02-04T1100,2456A,112.5003,26.9167,衡阳市,原169医院,,12,9,15,8,10,35,,40,39,17,14,4,2,0.8,0.7
2024-02-04T1100,2457A,112.6194,26.9258,衡阳市,衡阳化工总厂,,21,21,17,12,16,22,,38,34,23,13,6,5,1.1,0.8
2024-02-04T1100,2458A,112.6211,26.8956,衡阳市,珠晖区环保局,,20,14,17,14,16,28,,34,31,14,12,5,5,1.1,0.9
2024-02-04T1100,2459A,112.6197,26.8733,衡阳市,市委党校,,15,,17,10,15,33,,38,36,16,13,7,6,0.8,0.7
2024-02-04T1100,2460A,112.6006,26.8919,衡阳市,市监测站,,26,20,25,18,22,27,,39,34,22,16,6,6,1.1,0.8
2024-02-04T1100,2461A,112.5664,26.9056,衡阳市,真空机电公司,,18,,18,12,15,29,,38,34,18,13,4,4,0.9,0.7
2024-02-04T1100,3399A,112.6703,26.882,衡阳市,师范学院,,15,14,20,10,18,33,,36,34,12,11,7,7,0.8,0.7
2024-02-04T1100,2608A,103.3772,23.3993,红河哈尼族彝族自治州,污水处理厂,,46,38,43,32,38,97,,71,69,4,8,12,7,0.3,0.5
2024-02-04T1100,2609A,103.3861,23.35,红河哈尼族彝族自治州,监测站,,49,43,46,34,40,93,,77,77,8,8,12,10,0.3,0.4
2024-02-04T1100,3038A,103.3758,23.368,红河哈尼族彝族自治州,州图书馆,,30,27,38,21,34,90,,74,74,6,7,13,8,0.4,0.5
2024-02-04T1100,1090A,111.6507,40.7517,呼和浩特市,呼市一监,,48,44,42,33,30,60,,54,54,26,32,14,17,0.7,0.6
2024-02-04T1100,1091A,111.6572,40.8033,呼和浩特市,小召,颗粒物(PM10),52,53,42,30,19,48,,32,30,45,42,9,10,0.8,0.6
2024-02-04T1100,1094A,111.7516,40.8369,呼和浩特市,如意水处理厂,颗粒物(PM10),57,63,35,31,20,25,,18,18,63,52,13,11,1.2,0.7
2024-02-04T1100,1095A,111.7276,40.8062,呼和浩特市,二十九中,颗粒物(PM10),52,54,42,30,22,42,,39,39,32,32,12,12,0.8,0.6
2024-02-04T1100,1096A,111.5512,40.7866,呼和浩特市,工大金川校区,颗粒物(PM10),53,55,46,35,25,25,,26,24,56,44,17,10,0.9,0.6
2024-02-04T1100,1097A,111.717,40.7612,呼和浩特市,化肥厂生活区,,50,50,42,32,29,55,,55,54,29,31,12,13,0.9,0.8
2024-02-04T1100,3698A,111.5968,40.8178,呼和浩特市,红旗小学,颗粒物(PM10),56,61,39,38,23,28,,18,16,63,52,26,12,0.9,0.6
2024-02-04T1100,3699A,111.6518,40.8389,呼和浩特市,海东办,,45,44,34,31,21,41,,25,25,50,49,21,11,0.6,0.5
2024-02-04T1100,2192A,119.7594,49.2261,呼伦贝尔市,区环保局,,42,42,45,29,34,40,,16,16,38,48,7,7,0.7,0.7
2024-02-04T1100,3061A,119.7512,49.1577,呼伦贝尔市,国华电力东,,26,24,26,18,23,74,,68,68,10,12,5,5,0.3,0.3
2024-02-04T1100,1250A,120.0751,30.8669,湖州市,城西水厂,,35,31,28,24,23,48,,56,54,27,26,2,2,0.8,0.7
2024-02-04T1100,2873A,120.0875,30.8955,湖州市,仁皇山新区,,42,32,32,29,27,44,,52,50,24,19,5,5,0.9,0.6
2024-02-04T1100,2907A,120.1844,30.8596,湖州市,吴兴区站,,38,34,32,26,26,46,,50,50,21,25,4,4,0.7,0.6
2024-02-04T1100,3562A,120.4148,30.8538,湖州市,南浔区站,,48,39,34,33,28,43,,52,48,29,25,6,5,0.6,0.7
2024-02-04T1100,1607A,120.9092,40.7136,葫芦岛市,龙港区,颗粒物(PM10),54,57,73,23,44,63,,26,26,17,33,110,53,2.0,1.1
2024-02-04T1100,1608A,120.8392,40.7514,葫芦岛市,化工街,颗粒物(PM10),51,51,64,29,37,64,,25,25,14,34,24,22,0.8,1
2024-02-04T1100,1609A,120.8341,40.7073,葫芦岛市,新区,,47,47,52,31,36,65,,32,32,21,35,29,24,0.6,0.8
2024-02-04T1100,1610A,120.8695,40.7677,葫芦岛市,东城区,颗粒物(PM10),58,65,54,32,41,66,,29,29,16,42,32,33,1.1,1.2
2024-02-04T1100,2482A,109.5981,27.5721,怀化市,林科所,,29,24,9,20,8,73,,69,69,4,4,9,8,0.6,0.5
2024-02-04T1100,2483A,109.9453,27.5444,怀化市,河西地税局,,48,34,16,33,16,66,,65,65,6,3,3,3,0.8,0.7
2024-02-04T1100,2484A,109.9781,27.5342,怀化市,市四医院,,49,36,16,34,16,65,,62,62,5,4,2,2,0.6,0.6
2024-02-04T1100,2485A,109.9972,27.5578,怀化市,监测楼,,48,34,17,33,17,59,,54,54,7,7,4,4,0.6,0.6
2024-02-04T1100,2486A,110.0394,27.583,怀化市,市委党校,,49,37,20,34,16,62,,60,60,3,4,4,4,0.7,0.7
2024-02-04T1100,1210A,119.036,33.5981,淮安市,钵池山,细颗粒物(PM2.5),57,,43,40,36,41,,42,42,24,23,5,5,0.6,0.7
2024-02-04T1100,1211A,119.007,33.575,淮安市,北京南路,细颗粒物(PM2.5),53,39,41,37,35,42,,44,44,22,21,5,6,0.8,0.7
2024-02-04T1100,1212A,118.989,33.6067,淮安市,市监测站,细颗粒物(PM2.5),58,,41,41,38,39,,45,45,23,21,6,6,0.9,0.8
2024-02-04T1100,1213A,119.135,33.5039,淮安市,楚州区监测站,细颗粒物(PM2.5),58,,42,41,36,42,,44,44,24,24,5,5,0.8,0.8
2024-02-04T1100,1214A,119.0186,33.6297,淮安市,淮阴区监测站,细颗粒物(PM2.5),53,48,51,37,37,39,,42,42,24,24,3,3,0.7,0.6
2024-02-04T1100,3426A,118.8755,33.2894,淮安市,新华书店,细颗粒物(PM2.5),60,44,53,43,45,41,,41,38,26,27,5,6,0.7,0.8
2024-02-04T1100,2282A,116.8004,33.975,淮北市,监测站,颗粒物(PM10),54,57,77,32,57,54,,40,40,21,27,6,6,0.5,0.7
2024-02-04T1100,2283A,116.8091,33.9007,淮北市,烈山区政府,,46,40,66,32,59,64,,46,46,16,24,5,4,0.4,0.6
2024-02-04T1100,3330A,116.8873,33.9836,淮北市,杜集区检察院,,,58,76,36,59,,,43,42,18,23,7,7,0.8,0.9
2024-02-04T1100,4017A,116.7923,33.9535,淮北市,市博物馆,细颗粒物(PM2.5),54,47,78,38,64,56,,40,40,20,28,5,6,0.6,0.8
2024-02-04T1100,2277A,116.8305,32.7727,淮南市,潘集区政府,细颗粒物(PM2.5),93,,64,69,59,45,,36,35,25,25,5,4,0.5,0.5
2024-02-04T1100,2278A,117.0067,32.6524,淮南市,师范学院,细颗粒物(PM2.5),84,67,68,62,54,50,,46,45,18,20,4,4,0.6,0.6
2024-02-04T1100,2279A,116.8569,32.5951,淮南市,谢家集区政府,细颗粒物(PM2.5),68,61,59,49,56,61,,57,55,16,19,4,4,0.5,0.5
2024-02-04T1100,2280A,116.8281,32.633,淮南市,八公山区政府,细颗粒物(PM2.5),75,64,63,55,54,58,,56,55,14,17,3,2,0.5,0.5
2024-02-04T1100,2281A,116.6325,32.6201,淮南市,焦岗湖风景区管理处,细颗粒物(PM2.5),59,49,54,42,47,47,,47,46,14,15,3,3,0.2,0.2
2024-02-04T1100,2894A,117.0566,32.6531,淮南市,经济技术开发区消防队,细颗粒物(PM2.5),74,70,65,54,55,52,,48,46,14,15,4,3,0.5,0.5
2024-02-04T1100,3329A,117.0108,32.5893,淮南市,山南新区,细颗粒物(PM2.5),105,,69,79,66,51,,51,48,10,16,3,3,0.4,0.4
2024-02-04T1100,2446A,114.9028,30.4742,黄冈市,职工中心,细颗粒物(PM2.5),59,50,51,42,48,48,,51,51,10,10,7,7,0.7,0.8
2024-02-04T1100,2929A,114.8858,30.4519,黄冈市,红卫路,细颗粒物(PM2.5),72,54,53,52,50,42,,48,47,15,10,5,5,0.9,0.8
2024-02-04T1100,3398A,114.9136,30.4445,黄冈市,市林业局,细颗粒物(PM2.5),57,44,47,40,44,45,,49,49,14,13,7,7,0.6,0.7
2024-02-04T1100,2672A,102.0199,35.5102,黄南藏族自治州,同仁县隆务镇,,,,63,,42,,,,,,12,,10,,1.3
2024-02-04T1100,2295A,118.2903,29.6963,黄山市,延安路89号,,10,10,10,6,6,30,,38,34,14,12,4,4,0.4,0.3
2024-02-04T1100,2296A,118.327,29.7178,黄山市,黄山东路89号,,,14,19,2,6,26,,35,31,,13,4,4,,0.6
2024-02-04T1100,2297A,118.1371,30.2756,黄山市,黄山区政府5号楼,,11,1,10,1,7,35,,33,33,12,12,3,3,0.7,0.6
2024-02-04T1100,2423A,115.0601,30.2313,黄石市,沈家营,细颗粒物(PM2.5),63,,39,45,36,41,,43,43,21,21,4,5,1.2,1
2024-02-04T1100,2424A,115.0817,30.2006,黄石市,陈家湾,细颗粒物(PM2.5),73,,36,53,44,39,,41,41,32,27,6,6,1.1,0.9
2024-02-04T1100,2426A,114.8988,30.2019,黄石市,铁山,细颗粒物(PM2.5),75,56,40,55,42,41,,44,44,28,25,4,5,0.9,0.8
2024-02-04T1100,2427A,115.0307,30.2092,黄石市,团城山,细颗粒物(PM2.5),75,,38,55,35,41,,43,43,21,18,4,4,1.4,0.8
2024-02-04T1100,3149A,115.0235,30.1578,黄石市,笔架山北路,细颗粒物(PM2.5),69,,29,50,31,32,,39,38,31,22,5,4,1.4,1.2
2024-02-04T1100,1392A,114.4183,23.0528,惠州市,河南岸金山湖子站,,35,34,22,24,15,48,,63,57,12,9,4,4,0.5,0.4
2024-02-04T1100,1393A,114.4053,23.0822,惠州市,下埔横江三路子站,,34,34,28,23,16,51,,65,60,14,12,4,4,0.6,0.6
2024-02-04T1100,1394A,114.4103,23.1142,惠州市,江北云山西路子站,,,34,26,14,12,50,,67,63,,8,7,7,0.6,0.5
2024-02-04T1100,1395A,114.4645,22.7833,惠州市,惠阳区承修路船湖子站,,24,24,22,14,14,68,,76,69,13,13,7,7,0.5,0.5
2024-02-04T1100,1396A,114.5317,22.7422,惠州市,大亚湾管委会子站,,23,23,34,11,13,71,,74,70,17,21,5,6,0.5,0.5
2024-02-04T1100,3314A,114.4338,22.8134,惠州市,惠阳秋长,,24,24,25,12,9,74,,81,73,8,8,6,7,0.6,0.6
2024-02-04T1100,3452A,114.6517,22.775,惠州市,大亚湾霞涌,,19,19,22,10,12,60,,71,64,16,13,5,7,0.6,0.5
2024-02-04T1100,2240A,130.9762,45.3001,鸡西市,环保局,,50,40,29,35,23,69,,70,68,10,11,8,6,0.3,0.1
2024-02-04T1100,2243A,130.9429,45.3039,鸡西市,第一中学,,,42,32,36,24,77,,70,70,8,10,,8,0.3,0.4
2024-02-04T1100,3707A,131.0207,45.3073,鸡西市,欧美日汽修厂,颗粒物(PM10),51,51,39,33,32,70,,56,56,14,23,19,42,1.2,1.2
2024-02-04T1100,3709A,130.9967,45.3106,鸡西市,市政设施管理处,,50,45,35,35,27,80,,64,64,17,21,2,2,0.6,0.6
2024-02-04T1100,2367A,114.9754,27.0803,吉安市,红声器材厂,,14,14,25,7,9,23,,24,24,21,22,10,10,0.7,0.7
2024-02-04T1100,2368A,114.9658,27.0999,吉安市,市森林工业局,,15,15,20,10,11,22,,26,25,15,15,6,6,0.7,0.5
2024-02-04T1100,2370A,115.0093,27.0968,吉安市,青原区法院,,15,15,17,9,13,22,,27,27,19,18,8,8,0.7,0.6
2024-02-04T1100,1772A,126.54,43.8622,吉林市,哈达湾,细颗粒物(PM2.5),84,76,127,62,100,56,,44,44,41,54,20,30,1.2,1.3
2024-02-04T1100,1773A,126.5844,43.8358,吉林市,东局子,细颗粒物(PM2.5),98,82,123,73,105,47,,28,28,40,59,16,18,1.3,1.8
2024-02-04T1100,1774A,126.5052,43.8245,吉林市,电力学院,细颗粒物(PM2.5),103,91,138,77,116,53,,32,32,35,53,33,25,1.4,1.7
2024-02-04T1100,1775A,126.6133,43.8972,吉林市,江北,细颗粒物(PM2.5),77,95,149,56,182,49,,33,33,50,59,34,19,1.1,2.2
2024-02-04T1100,1776A,126.555,43.8306,吉林市,江南公园,细颗粒物(PM2.5),159,132,139,121,120,32,,18,18,58,63,26,18,2.0,2
2024-02-04T1100,2868A,126.4739,43.953,吉林市,九站,细颗粒物(PM2.5),231,205,221,181,194,43,,15,15,73,80,14,18,1.8,1.9
2024-02-04T1100,1299A,116.9862,36.6114,济南市,科干所,,36,36,43,17,27,60,,63,62,28,24,10,10,0.8,0.8
2024-02-04T1100,1300A,116.9376,36.665,济南市,农科所,颗粒物(PM10),58,66,54,37,30,38,,34,34,34,25,26,19,0.8,0.7
2024-02-04T1100,1301A,117.1265,36.6734,济南市,开发区,颗粒物(PM10),57,63,50,39,30,41,,38,38,35,27,22,12,0.8,0.7
2024-02-04T1100,1303A,117.0624,36.6868,济南市,省种子仓库,颗粒物(PM10),69,88,64,41,35,39,,32,32,34,26,30,18,0.6,0.5
2024-02-04T1100,1304A,116.9489,36.6447,济南市,机床二厂,"颗粒物(PM10),细颗粒物(PM2.5)",55,59,54,39,33,42,,38,38,38,29,28,17,1.0,0.8
2024-02-04T1100,1305A,117.0495,36.663,济南市,市监测站,颗粒物(PM10),55,59,51,37,32,46,,43,42,42,34,26,18,0.7,0.6
2024-02-04T1100,1306A,116.7675,36.5484,济南市,长清党校,"颗粒物(PM10),细颗粒物(PM2.5)",55,59,56,39,34,50,,48,48,35,30,20,14,0.7,0.6
2024-02-04T1100,1616A,117.6795,36.229,济南市,技术学院,,48,48,41,31,25,62,,65,65,30,29,10,10,0.9,0.8
2024-02-04T1100,1961A,117.532,36.6868,济南市,东山小学,,44,44,51,20,27,64,,50,50,24,29,10,12,0.3,0.4
2024-02-04T1100,3059A,117.7161,36.2049,济南市,泰兴公司,,44,44,41,29,24,65,,69,69,20,21,9,10,1.1,0.9
2024-02-04T1100,3064A,117.6867,36.2171,济南市,莱芜战役纪念馆,颗粒物(PM10),51,51,43,27,24,61,,66,66,22,21,11,10,0.6,0.5
2024-02-04T1100,3494A,117.1673,36.9782,济南市,济阳区政府,颗粒物(PM10),52,54,49,32,30,60,,47,47,24,25,11,9,0.3,0.4
2024-02-04T1100,3495A,117.1171,36.63,济南市,锦屏中学,,37,37,41,22,26,65,,69,68,20,19,9,11,0.5,0.5
2024-02-04T1100,3682A,116.9814,36.6819,济南市,济南四建,颗粒物(PM10),54,58,48,37,35,37,,33,33,39,31,23,20,0.8,0.7
2024-02-04T1100,1653A,116.6251,35.4302,济宁市,火炬城,,24,24,43,12,26,65,,54,54,17,23,6,6,0.6,0.7
2024-02-04T1100,1655A,116.5491,35.4042,济宁市,电化厂,,40,40,55,17,32,67,,57,57,15,22,7,8,0.7,0.7
2024-02-04T1100,3500A,116.5814,35.3707,济宁市,北湖一中,,28,28,45,9,29,67,,57,57,17,23,6,7,0.5,0.6
2024-02-04T1100,3501A,116.8249,35.5593,济宁市,服务中心,,40,40,50,12,25,68,,60,60,13,18,5,6,0.6,0.6
2024-02-04T1100,3678A,116.5907,35.4054,济宁市,市第七中学,,34,34,47,17,29,59,,51,51,19,23,5,7,0.6,0.6
2024-02-04T1100,2255A,130.2751,46.8028,佳木斯市,佳纺,细颗粒物(PM2.5),73,54,43,53,37,85,,73,73,15,18,6,7,0.7,0.6
2024-02-04T1100,2256A,130.3995,46.8307,佳木斯市,发电厂,,48,33,32,33,28,79,,71,71,16,18,14,11,0.6,0.5
2024-02-04T1100,2257A,130.3258,46.7975,佳木斯市,环保局,细颗粒物(PM2.5),69,54,44,50,37,78,,69,69,15,17,8,7,0.7,0.5
2024-02-04T1100,2258A,130.3648,46.8032,佳木斯市,十一中,细颗粒物(PM2.5),64,47,39,46,34,74,,69,68,17,16,6,6,0.6,0.6
2024-02-04T1100,2259A,130.3794,46.7588,佳木斯市,四丰,细颗粒物(PM2.5),70,78,41,51,27,103,,90,90,6,3,1,1,0.5,0.4
2024-02-04T1100,1252A,120.7436,30.778,嘉兴市,清河小学,,38,33,26,26,21,49,,50,50,12,15,5,5,0.9,1
2024-02-04T1100,1253A,120.726,30.7478,嘉兴市,嘉兴学院,,38,38,27,26,20,49,,50,50,26,27,4,4,0.5,0.5
2024-02-04T1100,2872A,120.7846,30.7525,嘉兴市,南湖区残联,,46,46,30,29,23,55,,56,56,17,18,4,5,0.6,0.6
2024-02-04T1100,3407A,120.6916,30.7739,嘉兴市,秀洲住建,,39,32,26,27,24,46,,46,46,19,21,8,8,0.6,0.7
2024-02-04T1100,1945A,98.2908,39.7711,嘉峪关市,气象局,,41,41,66,22,37,68,,63,59,28,26,5,3,0.3,0.4
2024-02-04T1100,2884A,98.2672,39.7978,嘉峪关市,酒钢宾馆,,46,46,74,24,37,53,,65,57,30,23,3,5,0.4,0.5
2024-02-04T1100,3248A,98.2643,39.7724,嘉峪关市,雄关区,,43,43,67,30,34,57,,60,55,25,24,5,5,0.4,0.5
2024-02-04T1100,1383A,113.1064,22.6058,江门市,北街,,22,21,21,15,13,56,,48,48,14,20,6,6,0.6,0.6
2024-02-04T1100,1384A,113.0731,22.5835,江门市,西区,,32,32,24,10,11,53,,51,50,18,24,6,6,0.4,0.4
2024-02-04T1100,1385A,113.0219,22.5311,江门市,圭峰西,,22,22,21,12,12,59,,51,51,9,15,5,5,0.7,0.7
2024-02-04T1100,1386A,113.0828,22.5947,江门市,东湖,,22,22,26,9,9,56,,50,50,11,19,5,6,0.5,0.5
2024-02-04T1100,3311A,113.1075,22.5647,江门市,江海富民,,37,37,35,23,20,53,,50,49,16,21,6,6,0.4,0.5
2024-02-04T1100,3449A,113.05,22.4667,江门市,新会银湖,,28,19,21,19,20,60,,49,49,5,14,5,5,0.4,0.4
2024-02-04T1100,1828A,113.227,35.2125,焦作市,市环保局,细颗粒物(PM2.5),150,137,139,115,116,42,,27,27,22,26,14,16,1.3,1.3
2024-02-04T1100,3169A,113.2725,35.2067,焦作市,太极体育中心,细颗粒物(PM2.5),150,125,137,115,121,51,,33,33,20,25,12,11,1.3,1.4
2024-02-04T1100,3335A,113.3137,35.2641,焦作市,马村街道办,细颗粒物(PM2.5),156,132,140,119,125,49,,34,34,21,27,13,12,1.2,1.3
2024-02-04T1100,3336A,113.2465,35.2373,焦作市,焦作技师学院,细颗粒物(PM2.5),147,129,138,112,126,44,,32,32,22,32,17,14,1.2,1.3
2024-02-04T1100,3477A,113.1656,35.2539,焦作市,中站许衡医院,细颗粒物(PM2.5),145,137,129,111,108,44,,41,40,26,26,51,14,1.4,1.3
2024-02-04T1100,3981A,113.2449,35.1803,焦作市,原李万街道办,细颗粒物(PM2.5),153,119,126,117,110,46,,36,33,27,28,10,5,1.3,1.2
2024-02-04T1100,1708A,116.3701,23.5345,揭阳市,新兴,,32,26,44,22,37,44,,58,54,22,22,8,8,0.8,1
2024-02-04T1100,1709A,116.3264,23.5443,揭阳市,西马,,30,25,46,21,35,54,,63,59,14,17,8,8,0.6,0.8
2024-02-04T1100,1710A,116.3611,23.5626,揭阳市,东兴,,26,26,53,16,41,54,,59,57,10,17,8,9,0.7,1.1
2024-02-04T1100,1711A,116.4151,23.5294,揭阳市,渔湖,,22,19,39,15,22,53,,61,57,13,17,7,8,0.6,1
2024-02-04T1100,3320A,116.403,23.5699,揭阳市,曲溪,,25,25,41,13,23,55,,61,58,12,18,2,4,0.6,1
2024-02-04T1100,1944A,102.1692,38.5167,金昌市,天庆家园,细颗粒物(PM2.5),53,49,86,37,70,74,,66,66,17,24,6,6,1.3,1.2
2024-02-04T1100,3170A,102.1864,38.5253,金昌市,市委党校,细颗粒物(PM2.5),68,54,100,49,83,68,,64,64,15,19,8,8,0.8,1
2024-02-04T1100,4022A,102.1647,38.5371,金昌市,金川区人防中心,细颗粒物(PM2.5),59,43,91,42,72,78,,71,71,16,22,6,34,0.9,1.1
2024-02-04T1100,1262A,119.647,29.077,金华市,十五中,,25,19,14,17,12,32,,30,30,24,28,2,2,0.8,0.6
2024-02-04T1100,1263A,119.686,29.1029,金华市,监测站,,26,21,17,18,14,36,,32,32,16,23,2,2,0.8,0.6
2024-02-04T1100,3659A,119.656,29.1131,金华市,气象局,,20,20,16,14,13,35,,29,29,18,24,2,2,0.9,0.7
2024-02-04T1100,1767A,121.1115,41.0879,锦州市,南山,细颗粒物(PM2.5),70,52,52,51,46,63,,38,38,26,28,24,32,1.0,1
2024-02-04T1100,1768A,121.0533,40.8434,锦州市,开发区,颗粒物(PM10),51,52,53,31,39,56,,24,24,24,35,29,24,0.6,0.7
2024-02-04T1100,1769A,121.1836,41.1119,锦州市,百股街道,细颗粒物(PM2.5),83,68,60,61,47,65,,40,40,18,27,23,34,1.1,1.1
2024-02-04T1100,1770A,121.1178,41.1222,锦州市,天安街道,细颗粒物(PM2.5),97,89,58,72,44,51,,27,27,29,30,24,19,1.1,0.9
2024-02-04T1100,1771A,121.1303,41.1386,锦州市,北湖公园,细颗粒物(PM2.5),115,108,51,87,46,56,,38,34,30,24,27,23,1.3,1
2024-02-04T1100,2160A,112.85,35.5051,晋城市,自来水公司,,30,30,96,12,86,92,,72,72,14,22,10,6,0.7,1.3
2024-02-04T1100,2161A,112.8318,35.4936,晋城市,白云商贸,,34,34,97,12,78,90,,70,70,14,22,9,6,0.6,1.2
2024-02-04T1100,2162A,112.8508,35.4887,晋城市,市环保局,,42,42,102,14,82,87,,68,68,15,22,9,7,0.7,1.3
2024-02-04T1100,2163A,112.8676,35.4897,晋城市,技术学院,,43,43,96,9,81,88,,69,69,17,25,9,6,0.7,1.3
2024-02-04T1100,3620A,112.8271,35.4828,晋城市,泽州一中,,28,23,86,7,70,88,,68,68,17,26,8,6,0.6,1.1
2024-02-04T1100,2171A,112.7532,37.6945,晋中市,锦纶小区,细颗粒物(PM2.5),73,68,87,53,70,85,,81,81,18,24,8,9,0.6,0.7
2024-02-04T1100,2173A,112.7249,37.7067,晋中市,南都小区,细颗粒物(PM2.5),69,79,87,50,65,82,,78,78,20,24,10,10,0.6,0.7
2024-02-04T1100,2174A,112.6991,37.6982,晋中市,榆次区政府,细颗粒物(PM2.5),67,52,75,48,60,84,,80,80,17,21,9,11,0.7,0.7
2024-02-04T1100,2865A,112.7195,37.6828,晋中市,榆次三中,细颗粒物(PM2.5),70,70,91,51,66,82,,79,79,18,23,10,11,0.8,0.8
2024-02-04T1100,2439A,112.2014,31.0481,荆门市,竹园小学,细颗粒物(PM2.5),88,69,79,65,57,63,,70,68,15,15,6,7,0.7,0.6
2024-02-04T1100,2440A,112.1969,30.9891,荆门市,掇刀,细颗粒物(PM2.5),79,65,62,58,50,66,,72,70,11,10,12,18,0.7,0.6
2024-02-04T1100,2441A,112.2213,31.0386,荆门市,石化一小,细颗粒物(PM2.5),78,73,67,57,50,67,,73,72,17,14,14,14,0.7,0.6
2024-02-04T1100,3012A,112.1849,31.0362,荆门市,西山林语,细颗粒物(PM2.5),82,72,62,60,51,67,,73,72,10,10,12,12,0.8,0.7
2024-02-04T1100,3547A,112.1632,31.0138,荆门市,龙泉中学南校,细颗粒物(PM2.5),85,74,71,63,55,66,,72,71,7,7,9,9,0.9,0.8
2024-02-04T1100,1844A,112.2494,30.3197,荆州市,市图书馆,细颗粒物(PM2.5),97,,57,72,65,65,,62,62,15,15,24,6,0.9,0.8
2024-02-04T1100,1845A,112.2008,30.3544,荆州市,市委党校,细颗粒物(PM2.5),100,,60,75,63,68,,64,64,17,16,6,7,1.0,0.9
2024-02-04T1100,3194A,112.2747,30.3122,荆州市,管委会,细颗粒物(PM2.5),102,,55,76,67,65,,66,65,16,14,10,6,0.8,0.7
2024-02-04T1100,3548A,112.1655,30.3364,荆州市,学苑路,细颗粒物(PM2.5),87,,46,64,55,64,,61,61,19,18,7,7,0.8,0.7
2024-02-04T1100,2342A,117.3102,29.3867,景德镇市,王港中学,,20,,5,14,6,37,,41,39,7,4,2,2,0.4,0.3
2024-02-04T1100,2343A,117.2117,29.2933,景德镇市,老干部活动中心,,9,9,9,1,5,28,,35,32,11,11,4,4,0.4,0.4
2024-02-04T1100,2344A,117.1894,29.2789,景德镇市,兽医站,,26,26,14,12,9,30,,37,34,8,8,4,4,0.5,0.4
2024-02-04T1100,2345A,117.1547,29.2617,景德镇市,台达陶瓷,,9,,6,3,5,28,,37,32,18,13,5,5,0.4,0.4
2024-02-04T1100,2346A,117.2461,29.2956,景德镇市,陶研所,,9,,4,3,3,28,,36,34,12,11,4,4,0.3,0.3
2024-02-04T1100,1803A,115.9872,29.6815,九江市,十里,,25,,15,17,14,41,,43,40,21,19,8,8,0.8,0.7
2024-02-04T1100,1804A,115.9584,29.7046,九江市,茅山头,,20,20,18,6,16,33,,35,32,26,26,6,7,0.9,0.8
2024-02-04T1100,1805A,115.9877,29.7295,九江市,西园,,23,,16,16,16,40,,41,39,23,23,6,6,0.8,0.7
2024-02-04T1100,1806A,116.0172,29.6547,九江市,五七二七厂,,18,,15,12,13,35,,36,34,17,16,7,7,0.7,0.7
2024-02-04T1100,1808A,115.9114,29.6038,九江市,综合工业园,,22,,13,15,20,31,,36,30,27,24,9,9,0.9,0.7
2024-02-04T1100,1809A,116.0721,29.7535,九江市,石化总厂,,23,16,17,16,15,44,,44,42,19,20,7,6,0.8,0.7
2024-02-04T1100,1810A,115.9773,29.5698,九江市,庐山气象台,,15,,3,4,5,38,,40,36,7,5,6,8,1.5,1
2024-02-04T1100,3190A,116.0254,29.6994,九江市,外国语学校,,14,10,17,8,16,33,,35,32,27,25,7,6,0.6,0.6
2024-02-04T1100,2658A,98.5061,39.7443,酒泉市,仓门街子站,细颗粒物(PM2.5),63,73,64,45,41,38,,46,41,30,20,4,4,1.2,0.7
2024-02-04T1100,2659A,98.4989,39.7256,酒泉市,油田生活基地,细颗粒物(PM2.5),77,75,75,56,44,35,,41,35,29,22,5,5,1.0,0.7
2024-02-04T1100,2698A,76.0072,39.4467,喀什地区,巡警大队,细颗粒物(PM2.5),98,116,103,73,49,18,,44,35,49,32,2,2,1.7,1.3
2024-02-04T1100,2699A,75.9755,39.4694,喀什地区,吾办,细颗粒物(PM2.5),105,105,109,79,67,24,,45,36,46,34,4,4,1.6,1.3
2024-02-04T1100,4027A,75.9483,39.4689,喀什地区,老干局,细颗粒物(PM2.5),93,127,122,69,58,16,,36,29,43,30,5,5,1.8,1.5
2024-02-04T1100,1824A,114.3389,34.7781,开封市,肿瘤医院,细颗粒物(PM2.5),65,51,59,47,55,54,,47,47,16,18,7,5,0.6,0.6
2024-02-04T1100,1826A,114.2885,34.7965,开封市,世纪星幼儿园,细颗粒物(PM2.5),64,54,60,46,55,60,,52,52,18,20,8,7,0.3,0.5
2024-02-04T1100,3147A,114.3438,34.8106,开封市,龙亭公园,,,51,56,41,52,54,,46,46,13,16,,5,0.4,0.4
2024-02-04T1100,3210A,114.3644,34.7964,开封市,汴京公园,细颗粒物(PM2.5),64,54,60,46,54,57,,50,50,16,17,6,4,0.7,0.7
2024-02-04T1100,3473A,114.2485,34.8306,开封市,技师学院,细颗粒物(PM2.5),54,49,60,38,56,59,,46,46,11,16,5,4,0.7,0.8
2024-02-04T1100,3592A,114.4644,34.7556,开封市,祥符区生态环境局,细颗粒物(PM2.5),74,69,70,54,58,54,,48,48,21,22,6,5,0.7,0.7
2024-02-04T1100,1951A,84.895,45.6094,克拉玛依市,长征新村,细颗粒物(PM2.5),84,116,118,62,73,39,,89,72,69,41,11,11,1.2,1
2024-02-04T1100,1952A,84.8988,45.5893,克拉玛依市,南林小区,细颗粒物(PM2.5),115,126,125,87,81,44,,78,68,63,41,3,3,1.2,1
2024-02-04T1100,1954A,84.905,44.3396,克拉玛依市,独山子区,细颗粒物(PM2.5),87,98,158,64,114,34,,74,56,72,44,6,5,1.5,1.3
2024-02-04T1100,1955A,85.6979,46.098,克拉玛依市,乌尔禾区商贸楼,细颗粒物(PM2.5),153,142,111,117,82,23,,72,49,77,43,7,7,2.4,1.2
2024-02-04T1100,3612A,85.1045,45.6899,克拉玛依市,白碱滩区新站,细颗粒物(PM2.5),117,140,125,88,70,22,,100,76,70,33,10,11,1.2,1
2024-02-04T1100,2697A,76.1454,39.7142,克孜勒苏柯尔克孜自治州,市人民政府,细颗粒物(PM2.5),95,102,80,71,49,30,,36,30,20,20,4,4,0.9,0.9
2024-02-04T1100,3665A,76.1658,39.7157,克孜勒苏柯尔克孜自治州,克州文化中心,细颗粒物(PM2.5),102,109,82,76,49,24,,40,30,32,21,8,8,1.2,0.9
2024-02-04T1100,1450A,102.8204,24.8886,昆明市,呈贡新区,,27,26,33,16,26,85,,80,80,9,10,6,5,0.6,0.7
2024-02-04T1100,1451A,102.6251,24.9608,昆明市,西山森林公园,,35,,31,24,18,97,,90,90,7,8,7,8,0.7,0.8
2024-02-04T1100,1452A,102.7252,25.0902,昆明市,龙泉镇,,26,26,32,15,24,77,,53,42,14,19,12,8,0.8,0.6
2024-02-04T1100,1453A,102.7266,25.0375,昆明市,东风东路,,29,29,32,20,27,78,,75,70,16,15,12,11,0.5,0.6
2024-02-04T1100,1454A,102.6742,25.0669,昆明市,金鼎山,,34,34,35,18,23,81,,78,65,16,15,15,12,0.7,0.5
2024-02-04T1100,1455A,102.6644,25.0401,昆明市,碧鸡广场,,29,28,30,20,27,82,,79,66,14,14,10,8,0.6,0.6
2024-02-04T1100,3179A,102.7494,25.0119,昆明市,官渡区博物馆,,28,,32,19,25,86,,76,72,9,12,9,9,0.5,0.5
2024-02-04T1100,3375A,102.8017,24.8336,昆明市,青年创业园,,30,28,32,21,27,91,,83,80,6,6,9,9,0.4,0.5
2024-02-04T1100,3550A,102.7997,24.9786,昆明市,昆明学院,,27,23,31,15,22,85,,82,82,4,5,10,10,0.4,0.5
2024-02-04T1100,3551A,102.5967,24.6736,昆明市,晋宁区生态环境分局,,29,29,33,9,26,89,,83,77,15,10,4,5,0.5,0.5
2024-02-04T1100,3552A,102.6678,24.9856,昆明市,云天化总部,,30,26,29,19,24,93,,80,75,7,9,6,7,0.6,0.7
2024-02-04T1100,1456A,91.1319,29.6514,拉萨市,八廓街,,30,30,22,13,11,68,,68,66,16,15,6,7,0.4,0.4
2024-02-04T1100,1457A,91.1221,29.6747,拉萨市,市环保局,,29,29,25,14,13,62,,63,60,18,17,7,8,0.7,0.7
2024-02-04T1100,1458A,91.0874,29.6475,拉萨市,区监测站,,22,18,15,10,8,68,,67,62,12,14,4,4,0.6,0.5
2024-02-04T1100,1459A,91.1774,29.6541,拉萨市,西藏大学,,23,13,16,7,8,72,,72,69,6,7,4,4,0.2,0.2
2024-02-04T1100,1460A,90.9798,29.6588,拉萨市,区辐射站,,45,37,26,31,15,51,,43,38,28,22,7,6,0.8,0.7
2024-02-04T1100,1461A,91.0834,29.6292,拉萨市,拉萨火车站,,28,28,18,13,9,53,,60,52,23,12,5,5,0.6,0.5
2024-02-04T1100,2520A,109.2203,23.7256,来宾市,来宾技工学校,,10,8,26,7,15,16,,8,8,10,16,5,5,0.8,1.2
2024-02-04T1100,3535A,109.1781,23.7297,来宾市,兴宾区政府,,9,,25,6,16,16,,9,9,9,16,6,6,0.8,1.2
2024-02-04T1100,4002A,109.2416,23.7461,来宾市,中南小学,,11,7,26,5,14,17,,9,9,11,17,5,6,1.1,1.4
2024-02-04T1100,1476A,103.631,36.1031,兰州市,兰炼宾馆,细颗粒物(PM2.5),93,83,73,69,65,43,,43,36,53,37,21,16,1.5,1.2
2024-02-04T1100,1478A,103.8412,36.0726,兰州市,生物制品所,细颗粒物(PM2.5),129,105,74,98,73,34,,37,22,55,51,16,11,1.9,1.4
2024-02-04T1100,1479A,103.831,36.0464,兰州市,铁路设计院,细颗粒物(PM2.5),99,79,71,74,70,43,,38,31,55,55,18,14,1.7,1.4
2024-02-04T1100,3186A,103.7158,36.1058,兰州市,教育港,细颗粒物(PM2.5),84,64,60,62,56,53,,60,50,44,38,27,15,1.5,1.2
2024-02-04T1100,3241A,103.7439,36.0842,兰州市,百合公园,细颗粒物(PM2.5),107,89,63,80,62,40,,48,39,50,38,18,12,1.8,1.4
2024-02-04T1100,3242A,103.9611,35.998,兰州市,和平,细颗粒物(PM2.5),94,72,72,70,70,68,,55,55,24,35,12,8,1.2,1.2
2024-02-04T1100,3245A,103.6633,36.533,兰州新区,新区管委会,细颗粒物(PM2.5),78,70,61,57,50,70,,68,61,24,20,27,11,1.3,1.2
2024-02-04T1100,3246A,103.6975,36.4789,兰州新区,舟曲中学,细颗粒物(PM2.5),97,76,59,72,56,64,,70,58,34,25,13,12,1.2,1
2024-02-04T1100,1067A,116.6708,39.5111,廊坊市,药材公司,颗粒物(PM10),75,100,113,44,67,29,,15,15,48,54,11,7,1.4,1.1
2024-02-04T1100,1068A,116.7214,39.5589,廊坊市,开发区,细颗粒物(PM2.5),77,86,94,56,58,31,,14,14,39,51,9,5,1.4,1
2024-02-04T1100,1070A,116.7244,39.5269,廊坊市,北华航天学院,细颗粒物(PM2.5),85,86,101,63,62,29,,16,14,43,51,9,6,1.3,1
2024-02-04T1100,2919A,116.7022,39.5453,廊坊市,河北工业大学,细颗粒物(PM2.5),75,86,98,55,66,31,,18,17,42,51,9,5,1.3,1
2024-02-04T1100,2535A,103.7723,29.5462,乐山市,花湖湾,细颗粒物(PM2.5),52,50,43,36,30,28,,23,22,14,14,5,4,0.7,0.8
2024-02-04T1100,2536A,103.7627,29.5844,乐山市,牛耳桥,,49,45,38,34,30,28,,25,24,25,25,7,4,0.9,0.9
2024-02-04T1100,2537A,103.7508,29.6006,乐山市,市第三水厂,,44,44,38,29,24,33,,30,28,22,23,4,3,1.0,1.1
2024-02-04T1100,2538A,103.7571,29.5664,乐山市,市监测站,,42,39,31,29,24,27,,27,24,19,17,5,4,1.1,1.1
2024-02-04T1100,3361A,103.7311,29.5628,乐山市,理工大学,,45,36,34,31,28,31,,25,22,21,20,4,3,0.8,0.9
2024-02-04T1100,2599A,100.2497,26.8802,丽江市,丽江古城,,29,29,26,17,14,88,,88,85,17,17,6,7,0.6,0.5
2024-02-04T1100,2600A,100.2203,26.8906,丽江市,市中心,,27,,15,13,7,85,,87,83,8,8,8,8,0.7,0.6
2024-02-04T1100,1267A,119.914,28.4514,丽水市,监测站大楼,,13,13,7,9,7,28,,33,32,14,15,3,3,0.6,0.4
2024-02-04T1100,1268A,119.93,28.4586,丽水市,莲都小学,,25,,7,17,6,27,,34,33,13,12,3,3,0.6,0.5
2024-02-04T1100,1173A,119.176,34.5885,连云港市,市环境监测站,,39,39,43,22,31,57,,57,57,21,30,7,10,0.6,0.7
2024-02-04T1100,3000A,119.3581,34.6972,连云港市,德源药业,,32,31,35,22,23,54,,58,56,25,30,6,6,0.8,0.8
2024-02-04T1100,3007A,119.178,34.844,连云港市,新城一中,,43,36,37,30,28,50,,55,53,33,26,15,13,1.2,0.7
2024-02-04T1100,3008A,119.3608,34.7519,连云港市,胡沟管理处,,31,31,32,7,20,61,,62,62,16,18,6,8,0.8,0.9
2024-02-04T1100,3009A,119.1478,34.5911,连云港市,矿山设计院,,41,41,43,22,26,56,,52,52,13,21,8,9,0.5,0.6
2024-02-04T1100,3434A,119.2413,34.6539,连云港市,工贸学校,,44,44,67,28,30,64,,64,64,17,21,9,11,0.5,0.7
2024-02-04T1100,3664A,119.4172,34.7341,连云港市,连云街道,,43,43,41,24,25,47,,55,52,31,29,6,9,0.7,0.7
2024-02-04T1100,2571A,102.3431,27.8099,凉山彝族自治州,青龙寺,,26,15,17,3,5,81,,77,72,5,5,6,5,1.1,1.1
2024-02-04T1100,2572A,102.2721,27.8415,凉山彝族自治州,邛海宾馆,,26,15,22,9,13,81,,80,77,6,7,8,9,0.7,0.8
2024-02-04T1100,2573A,102.2625,27.898,凉山彝族自治州,西昌市政府,,26,18,16,13,12,82,,83,79,8,7,13,10,0.8,0.7
2024-02-04T1100,2574A,102.2685,27.8851,凉山彝族自治州,凉山州政府,,25,16,19,12,14,79,,79,76,7,7,10,8,0.6,0.6
2024-02-04T1100,2575A,102.237,27.8914,凉山彝族自治州,长安,,28,23,18,12,12,88,,88,84,9,8,14,11,0.9,0.8
2024-02-04T1100,2212A,123.2,41.1953,辽阳市,宏伟区,细颗粒物(PM2.5),159,190,124,121,109,48,,19,19,53,53,26,30,1.9,1.7
2024-02-04T1100,2213A,123.1683,41.2495,辽阳市,新华园,细颗粒物(PM2.5),205,226,129,155,120,39,,13,13,68,66,24,24,2.1,1.8
2024-02-04T1100,2214A,123.2354,41.2639,辽阳市,滨河路,细颗粒物(PM2.5),242,,110,192,123,41,,19,19,47,53,12,13,2.1,1.5
2024-02-04T1100,2215A,123.149,41.2991,辽阳市,铁西工业园,细颗粒物(PM2.5),219,203,134,169,135,42,,14,14,49,54,14,17,2.0,1.8
2024-02-04T1100,2227A,125.1358,42.8845,辽源市,环保局,细颗粒物(PM2.5),152,129,101,116,87,53,,28,28,47,41,14,14,1.5,1.4
2024-02-04T1100,3239A,125.0764,42.9078,辽源市,银鹰制药,细颗粒物(PM2.5),148,128,101,113,90,61,,41,41,38,34,24,8,1.5,1.3
2024-02-04T1100,1625A,115.9848,36.4372,聊城市,区政府,,39,39,43,20,27,65,,55,55,19,22,8,11,0.5,0.7
2024-02-04T1100,2878A,116.0072,36.4343,聊城市,聊大东校,,46,46,48,27,34,69,,60,60,16,19,9,13,0.5,0.7
2024-02-04T1100,3200A,115.9819,36.4978,聊城市,监控中心,颗粒物(PM10),52,53,51,24,30,60,,55,55,20,20,10,10,0.6,0.8
2024-02-04T1100,3513A,116.0445,36.4361,聊城市,九州社区,,40,40,51,17,29,70,,56,56,17,24,8,12,0.5,0.7
2024-02-04T1100,4018A,116.0567,36.4608,聊城市,星美广场,,46,46,52,22,29,62,,51,51,17,22,5,10,0.6,0.8
2024-02-04T1100,2632A,94.3681,29.6376,林芝市,林芝监测站,,24,7,6,2,2,75,,82,76,4,3,4,4,0.5,0.5
2024-02-04T1100,2633A,94.3616,29.6616,林芝市,林芝人民医院,,22,12,11,5,4,70,,78,73,8,5,9,9,0.5,0.5
2024-02-04T1100,2603A,100.0781,23.8982,临沧市,市环保局,,31,31,34,21,35,59,,64,54,13,10,8,7,0.4,0.4
2024-02-04T1100,2604A,100.0894,23.8822,临沧市,市气象局,细颗粒物(PM2.5),52,45,37,36,31,58,,58,50,14,10,8,7,0.5,0.4
2024-02-04T1100,1733A,111.5531,36.0783,临汾市,临钢医院,细颗粒物(PM2.5),52,42,107,36,90,83,,54,54,8,17,7,6,0.6,1
2024-02-04T1100,1734A,111.5028,36.0714,临汾市,技工学校,细颗粒物(PM2.5),60,49,107,43,100,85,,60,60,9,16,10,8,0.6,0.9
2024-02-04T1100,1736A,111.5018,36.0855,临汾市,市委,细颗粒物(PM2.5),53,,112,37,97,84,,58,58,9,19,6,6,0.9,1.1
2024-02-04T1100,3018A,111.505,36.1014,临汾市,唐尧大酒店,,50,46,111,35,100,83,,54,54,12,24,10,9,0.6,1
2024-02-04T1100,3668A,111.5036,36.0414,临汾市,城南,细颗粒物(PM2.5),67,,94,48,90,90,,57,57,10,18,8,7,0.7,0.9
2024-02-04T1100,2667A,103.2069,35.5993,临夏回族自治州,环保局,颗粒物(PM10),65,80,72,37,37,47,,38,37,23,24,12,14,1.4,1.5
2024-02-04T1100,2668A,103.2417,35.6057,临夏回族自治州,建设大厦,颗粒物(PM10),60,70,66,37,36,58,,45,45,10,14,11,13,1.3,1.4
2024-02-04T1100,1618A,118.3429,35.0532,临沂市,沂河小区,,31,31,33,21,24,59,,61,60,16,17,5,5,0.5,0.5
2024-02-04T1100,1619A,118.295,35.0583,临沂市,鲁南制药厂,,34,34,31,18,22,68,,69,69,14,15,5,5,0.8,0.7
2024-02-04T1100,1620A,118.2794,34.9976,临沂市,新光毛纺厂,,34,34,32,18,23,61,,61,60,17,18,6,6,0.5,0.5
2024-02-04T1100,1621A,118.3956,35.0888,临沂市,河东保险公司,,34,34,29,21,19,64,,65,64,16,16,6,5,0.7,0.6
2024-02-04T1100,3370A,118.3564,35.0215,临沂市,十里堡居委,,34,34,27,14,17,66,,68,67,21,21,3,3,0.6,0.6
2024-02-04T1100,3496A,118.3604,35.1084,临沂市,南坊新区,,31,31,30,19,18,66,,66,66,15,17,7,8,0.6,0.5
2024-02-04T1100,3860A,118.3920,35.0300,临沂市,皇山花园小区,,31,31,31,19,19,64,,65,65,11,13,8,7,0.5,0.5
2024-02-04T1100,1870A,109.4856,24.3895,柳州市,柳东小学,,18,,14,12,9,22,,20,20,11,12,6,6,0.5,0.5
2024-02-04T1100,1871A,109.4157,24.3277,柳州市,环保监测站,,18,18,14,10,7,12,,14,14,15,14,8,6,0.7,0.6
2024-02-04T1100,1872A,109.389,24.341,柳州市,河西水厂,,17,17,18,8,12,11,,8,8,13,16,7,8,1.2,1.5
2024-02-04T1100,1873A,109.4311,24.2921,柳州市,市四中,,15,11,12,10,13,15,,16,16,12,11,5,5,0.8,0.8
2024-02-04T1100,1874A,109.4006,24.3631,柳州市,市九中,,19,19,14,13,9,14,,13,13,12,12,6,4,1.0,0.7
2024-02-04T1100,1875A,109.4958,24.3134,柳州市,古亭山,,7,7,12,2,5,16,,14,14,9,9,5,5,0.7,0.7
2024-02-04T1100,3402A,109.5422,24.3996,柳州市,市二中,,8,7,10,5,7,22,,22,21,6,7,6,5,0.8,0.8
2024-02-04T1100,2307A,116.5079,31.737,六安市,监测大楼,细颗粒物(PM2.5),77,,57,56,59,50,,50,47,23,21,4,3,0.7,0.8
2024-02-04T1100,2308A,116.4738,31.7643,六安市,皖西学院,细颗粒物(PM2.5),68,66,71,49,57,57,,53,51,15,17,3,2,0.6,0.6
2024-02-04T1100,2309A,116.4996,31.7905,六安市,朝阳厂,细颗粒物(PM2.5),82,,60,60,60,52,,50,48,15,16,3,4,0.5,0.6
2024-02-04T1100,2310A,116.5567,31.7886,六安市,开发区,细颗粒物(PM2.5),88,76,73,65,64,53,,49,47,16,18,3,3,0.5,0.6
2024-02-04T1100,2577A,104.83,26.5917,六盘水市,黄土坡,,30,30,27,19,22,41,,66,51,13,11,14,10,1.2,0.8
2024-02-04T1100,2578A,104.89,26.5939,六盘水市,水钢,,49,49,35,26,28,28,,57,43,16,12,10,7,1.8,0.9
2024-02-04T1100,2579A,104.8475,26.5894,六盘水市,民中,,35,32,29,24,23,36,,61,49,14,12,10,8,1.4,0.9
2024-02-04T1100,2580A,104.9544,26.5506,六盘水市,双水,,36,36,36,22,27,35,,55,44,14,12,10,7,1.2,0.9
2024-02-04T1100,2336A,117.0217,25.1033,龙岩市,龙岩市监测站,,18,9,17,3,15,55,,28,28,10,16,2,3,0.5,0.5
2024-02-04T1100,2337A,117.0258,25.0661,龙岩市,闽西职业技术学院,,16,8,17,5,12,50,,30,30,9,9,2,2,0.5,0.4
2024-02-04T1100,2338A,117.0196,25.0306,龙岩市,龙岩学院,,18,16,15,4,10,55,,27,27,6,7,4,4,0.5,0.5
2024-02-04T1100,2885A,104.9339,33.3826,陇南市,滨江中学,细颗粒物(PM2.5),58,54,40,41,26,28,,42,36,28,19,4,5,1.5,1.3
2024-02-04T1100,3247A,104.955,33.371,陇南市,市总工会,,50,50,39,33,23,34,,46,38,24,16,4,4,1.0,0.9
2024-02-04T1100,2487A,111.9589,27.8901,娄底市,电视发射台,,50,45,27,35,16,58,,50,50,6,6,4,4,0.8,0.6
2024-02-04T1100,2488A,111.9975,27.725,娄底市,市监测站,细颗粒物(PM2.5),53,45,28,37,20,54,,44,44,15,12,7,6,0.8,0.7
2024-02-04T1100,2489A,112.0194,27.7314,娄底市,市委党校,细颗粒物(PM2.5),62,,24,44,25,51,,43,43,12,11,6,6,0.7,0.5
2024-02-04T1100,2490A,111.9561,27.7569,娄底市,涟钢,,43,35,33,30,24,47,,40,40,10,15,10,9,0.7,0.9
2024-02-04T1100,2491A,111.9892,27.7044,娄底市,市政府,细颗粒物(PM2.5),58,42,26,41,22,48,,43,43,19,10,6,6,0.7,0.6
2024-02-04T1100,1893A,105.4324,28.9634,泸州市,九狮山,,36,36,50,22,34,25,,29,29,16,19,5,5,0.6,0.5
2024-02-04T1100,1894A,105.4427,28.9063,泸州市,小市上码头,,38,31,45,26,38,25,,25,24,17,20,3,3,0.7,0.8
2024-02-04T1100,1895A,105.4241,28.8573,泸州市,兰田宪桥,,40,32,43,28,39,28,,30,30,17,20,3,3,0.8,0.9
2024-02-04T1100,1896A,105.4379,28.8833,泸州市,市环监站,,39,27,41,27,36,21,,27,26,17,16,6,6,0.8,0.9
2024-02-04T1100,3490A,105.3617,28.7703,泸州市,纳溪区环保局,细颗粒物(PM2.5),55,,42,39,39,31,,32,29,15,18,3,3,0.9,0.9
2024-02-04T1100,2183A,111.1406,37.5211,吕梁市,环保局,细颗粒物(PM2.5),122,109,108,92,95,24,,33,30,68,54,12,10,0.8,0.9
2024-02-04T1100,2185A,111.1297,37.5136,吕梁市,自来水公司,细颗粒物(PM2.5),119,113,106,90,91,43,,39,35,55,48,10,9,1.0,1.2
2024-02-04T1100,2867A,111.1283,37.51,吕梁市,马茂庄小学,细颗粒物(PM2.5),124,110,115,94,98,45,,39,37,45,45,9,7,0.5,0.8
2024-02-04T1100,1812A,112.3931,34.6516,洛阳市,市委党校,细颗粒物(PM2.5),139,106,93,106,90,36,,33,33,27,29,6,6,1.2,1.1
2024-02-04T1100,1814A,112.4657,34.6871,洛阳市,豫西宾馆,细颗粒物(PM2.5),122,119,98,92,79,43,,36,36,24,31,7,7,1.1,0.9
2024-02-04T1100,1815A,112.494,34.6886,洛阳市,河南林校,细颗粒物(PM2.5),125,99,83,95,82,46,,31,31,18,27,6,4,1.1,1
2024-02-04T1100,1816A,112.3844,34.623,洛阳市,开发区管委会,细颗粒物(PM2.5),119,101,86,90,81,38,,26,26,32,36,10,8,1.1,1
2024-02-04T1100,1817A,112.4267,34.6258,洛阳市,市委新办公区,细颗粒物(PM2.5),145,,94,111,100,41,,31,30,24,29,5,4,1.0,0.9
2024-02-04T1100,3340A,112.6005,34.6326,洛阳市,伊滨,细颗粒物(PM2.5),150,131,103,115,92,49,,33,33,22,25,4,3,1.3,1.1
2024-02-04T1100,3341A,112.4951,34.6332,洛阳市,中移产业园,细颗粒物(PM2.5),145,,85,111,91,48,,38,38,21,26,4,4,1.0,0.9
2024-02-04T1100,3593A,112.5736,34.8993,洛阳市,吉利监测站,细颗粒物(PM2.5),134,107,88,102,92,58,,48,46,20,19,7,5,1.2,1.1
2024-02-04T1100,3635A,112.3677,34.662,洛阳市,河科大西苑校区,细颗粒物(PM2.5),125,103,92,95,86,41,,26,26,21,28,,6,1.1,1
2024-02-04T1100,3636A,112.4388,34.6781,洛阳市,英才小学,细颗粒物(PM2.5),125,105,90,95,85,42,,43,42,28,31,4,4,1.0,0.9
2024-02-04T1100,2399A,114.051,33.5699,漯河市,三五一五工厂,细颗粒物(PM2.5),92,68,80,68,78,55,,53,48,13,16,4,4,0.6,0.6
2024-02-04T1100,2400A,114.0055,33.5698,漯河市,漯河大学,细颗粒物(PM2.5),94,71,80,70,77,55,,54,48,16,18,6,6,0.8,0.8
2024-02-04T1100,2402A,114.0261,33.5698,漯河市,市广电局,细颗粒物(PM2.5),102,85,88,76,83,55,,53,48,21,25,4,4,0.7,0.7
2024-02-04T1100,3478A,113.9749,33.5664,漯河市,市图书馆,细颗粒物(PM2.5),103,86,90,77,80,52,,53,48,17,18,6,6,1.0,0.9
2024-02-04T1100,3479A,114.0967,33.5906,漯河市,召陵区卫健委,细颗粒物(PM2.5),93,89,94,69,81,57,,52,46,12,16,8,7,0.8,0.7
2024-02-04T1100,1798A,118.5092,31.6837,马鞍山市,湖东路四小,,42,32,39,29,31,32,,37,35,32,28,6,6,0.8,0.8
2024-02-04T1100,1799A,118.5024,31.6449,马鞍山市,开发区,细颗粒物(PM2.5),52,39,34,36,36,34,,40,38,29,25,3,3,0.8,0.7
2024-02-04T1100,1800A,118.5228,31.7231,马鞍山市,慈湖,细颗粒物(PM2.5),59,,28,42,42,22,,32,31,42,32,5,5,0.7,0.7
2024-02-04T1100,1802A,118.6245,31.7241,马鞍山市,濮塘,,43,36,33,30,26,37,,40,40,22,17,4,4,0.9,0.8
2024-02-04T1100,3633A,118.4918,31.6809,马鞍山市,雨山,,,,38,35,36,,,35,34,32,27,7,7,1.1,1.2
2024-02-04T1100,1686A,111.0286,21.4688,茂名市,电白南海,,41,41,28,14,13,46,,64,55,22,14,8,8,0.5,0.4
2024-02-04T1100,1687A,110.9294,21.6533,茂名市,茂石化七小,,41,41,26,24,18,47,,62,55,16,12,8,8,0.5,0.4
2024-02-04T1100,1688A,110.9107,21.6687,茂名市,健康路,,39,39,26,22,14,48,,62,56,12,6,5,5,0.6,0.5
2024-02-04T1100,1689A,110.8592,21.6828,茂名市,高岭,,,48,33,19,17,,,59,50,19,13,6,6,0.6,0.5
2024-02-04T1100,3450A,111.01,21.5165,茂名市,电白水东,,39,39,22,12,11,51,,70,62,18,9,4,4,0.6,0.6
2024-02-04T1100,2539A,104.0308,30.0478,眉山市,黑龙滩水库,,30,28,33,21,24,58,,49,49,2,5,2,2,0.7,0.8
2024-02-04T1100,2540A,103.8416,30.0874,眉山市,气象局,,22,22,30,7,18,59,,41,41,14,26,8,7,0.7,0.8
2024-02-04T1100,3137A,103.8578,30.0744,眉山市,市委党校,,18,14,30,12,19,54,,41,41,12,23,3,3,0.7,0.8
2024-02-04T1100,3148A,103.8291,30.0564,眉山市,区人社局,,26,26,28,12,20,50,,41,41,21,28,12,7,0.8,0.8
2024-02-04T1100,1690A,116.1231,24.3284,梅州市,梅江月梅,,45,41,19,31,14,21,,10,10,18,14,6,6,0.7,0.6
2024-02-04T1100,1691A,116.0797,24.2719,梅州市,梅县新城,,32,29,19,22,15,22,,13,13,16,14,5,4,0.7,0.5
2024-02-04T1100,1692A,116.1248,24.2654,梅州市,环境监控中心,,35,33,23,24,16,24,,8,8,16,20,4,5,0.6,0.5
2024-02-04T1100,3315A,116.1233,24.2991,梅州市,梅龙,,38,,19,26,16,24,,10,10,15,16,5,5,0.8,0.7
2024-02-04T1100,1878A,104.7778,31.4741,绵阳市,富乐山,,23,20,18,16,17,46,,46,33,20,12,6,6,0.8,0.7
2024-02-04T1100,1879A,104.7563,31.4535,绵阳市,市人大,,35,35,26,19,17,38,,48,35,29,25,7,7,0.9,0.9
2024-02-04T1100,1880A,104.6697,31.4668,绵阳市,高新区自来水公司,,42,42,33,28,22,43,,43,28,25,29,7,6,0.6,0.7
2024-02-04T1100,1881A,104.7287,31.5075,绵阳市,三水厂,,36,36,26,23,21,36,,40,23,24,18,7,7,0.8,0.8
2024-02-04T1100,3491A,104.69,31.5322,绵阳市,西科大附属小学,,45,39,30,31,24,34,,38,25,28,22,6,6,0.7,0.7
2024-02-04T1100,3492A,104.5648,31.5343,绵阳市,安州区旅游局,,50,40,31,35,22,38,,42,31,22,21,12,8,0.8,0.8
2024-02-04T1100,1784A,129.61,44.561,牡丹江市,环保大楼,细颗粒物(PM2.5),63,64,70,45,50,67,,50,50,25,38,15,18,0.6,0.8
2024-02-04T1100,1785A,129.6115,44.5782,牡丹江市,文化广场,细颗粒物(PM2.5),64,52,71,46,62,64,,42,42,25,43,15,17,0.7,0.9
2024-02-04T1100,1786A,129.5904,44.5963,牡丹江市,第一医院,细颗粒物(PM2.5),55,57,81,39,75,60,,29,29,24,44,20,16,0.6,0.9
2024-02-04T1100,1787A,129.6364,44.6075,牡丹江市,机车工厂,细颗粒物(PM2.5),55,44,81,39,59,55,,26,26,33,47,20,14,0.6,0.8
2024-02-04T1100,1788A,129.6386,44.5462,牡丹江市,第一中学,,45,43,60,31,49,63,,45,45,20,31,13,16,0.7,0.7
2024-02-04T1100,2531A,105.0703,29.61,内江市,市监测站,,42,35,34,29,33,36,,36,32,19,21,8,8,0.8,0.8
2024-02-04T1100,2532A,105.0717,29.5947,内江市,东兴区政府,,26,23,33,18,26,32,,34,32,14,13,7,8,0.7,0.7
2024-02-04T1100,2533A,105.0653,29.5817,内江市,内江二中,,26,18,30,18,23,39,,37,35,23,25,4,4,0.9,0.9
2024-02-04T1100,2534A,105.0406,29.5822,内江市,内江日报社,,35,,31,24,24,34,,35,31,23,15,4,4,0.8,0.8
2024-02-04T1100,2628A,92.0657,31.4846,那曲市,那曲监测站,,,190,69,,25,64,,50,46,17,8,12,6,1.4,1.2
2024-02-04T1100,3128A,92.0506,31.4797,那曲市,那曲会议中心,颗粒物(PM10),73,96,70,47,19,68,,58,52,16,7,11,6,1.0,0.6
2024-02-04T1100,1290A,115.8931,28.6843,南昌市,省外办,,20,,18,14,17,27,,32,30,16,14,3,4,0.8,0.6
2024-02-04T1100,1291A,115.8886,28.7003,南昌市,省林业公司,,13,,8,9,13,29,,32,30,15,16,4,4,0.9,0.7
2024-02-04T1100,1292A,115.8126,28.7442,南昌市,林科所,,10,,4,5,7,30,,38,35,13,12,3,4,0.6,0.6
2024-02-04T1100,1294A,115.8518,28.687,南昌市,建工学校,,26,,16,18,11,22,,35,31,28,19,9,8,0.7,0.5
2024-02-04T1100,1295A,115.8921,28.6424,南昌市,象湖,,15,,11,10,16,26,,35,32,23,18,6,6,0.9,0.7
2024-02-04T1100,1296A,115.7423,28.7996,南昌市,武术学校,,12,11,12,8,14,32,,38,36,6,7,2,2,0.9,0.7
2024-02-04T1100,1298A,115.9314,28.6842,南昌市,省站,,20,20,16,10,14,26,,36,33,21,16,5,5,0.7,0.5
2024-02-04T1100,3046A,115.9084,28.6062,南昌市,机电学校,,,9,17,7,14,25,,35,31,23,17,5,5,,0.3
2024-02-04T1100,3690A,115.9721,28.7031,南昌市,外国语学校,,23,,12,16,13,25,,32,29,19,15,7,6,0.8,0.7
2024-02-04T1100,1905A,106.056,30.8064,南充市,西山风景区,,29,,22,20,24,35,,40,39,10,10,2,2,0.7,0.7
2024-02-04T1100,1906A,106.0789,30.8023,南充市,南充市委,,28,28,30,9,17,36,,42,41,19,17,4,4,0.5,0.5
2024-02-04T1100,1907A,106.1031,30.8217,南充市,南充炼油厂,,35,27,46,24,27,36,,44,43,13,12,4,4,0.4,0.4
2024-02-04T1100,1908A,106.1064,30.7856,南充市,高坪区监测站,,20,20,27,14,21,43,,47,47,13,13,5,5,0.5,0.5
2024-02-04T1100,1909A,106.0642,30.7636,南充市,嘉陵区环保局,,30,30,31,14,21,30,,40,38,16,13,2,2,0.6,0.6
2024-02-04T1100,1910A,106.1087,30.8388,南充市,市环境监测站,,35,31,34,24,24,41,,46,45,11,12,5,6,0.5,0.6
2024-02-04T1100,1151A,118.8086,32.1065,南京市,迈皋桥,,49,38,38,34,31,26,,30,28,24,20,3,4,0.6,0.4
2024-02-04T1100,1152A,118.7538,32.0551,南京市,草场门,,39,27,31,27,30,40,,41,38,24,23,3,3,0.6,0.4
2024-02-04T1100,1153A,118.7794,32.0745,南京市,山西路,细颗粒物(PM2.5),52,,29,36,33,38,,40,38,30,23,3,3,0.7,0.5
2024-02-04T1100,1154A,118.7752,32.0023,南京市,中华门,,32,22,30,22,29,32,,,,25,19,7,6,0.6,0.5
2024-02-04T1100,1155A,118.8109,32.0309,南京市,瑞金路,,49,,34,34,29,30,,38,34,27,21,3,4,0.8,0.6
2024-02-04T1100,1156A,118.7997,32.0754,南京市,玄武湖,,42,42,41,27,29,32,,36,34,22,19,6,6,0.8,0.6
2024-02-04T1100,1157A,118.6414,32.0931,南京市,浦口,,45,42,49,31,37,37,,36,36,21,22,3,3,0.6,0.5
2024-02-04T1100,1158A,118.7356,31.9996,南京市,奥体中心,,45,34,34,31,28,38,,42,39,26,22,4,4,0.8,0.6
2024-02-04T1100,1159A,118.9125,32.1028,南京市,仙林大学城,,39,31,30,27,26,31,,39,36,23,16,4,3,0.8,0.6
2024-02-04T1100,3422A,118.8436,31.9198,南京市,江宁彩虹桥,,49,38,36,34,27,31,,44,40,35,22,3,3,0.5,0.2
2024-02-04T1100,3423A,119.0138,31.6494,南京市,溧水永阳,细颗粒物(PM2.5),58,,27,41,33,39,,43,42,21,18,3,4,0.7,0.6
2024-02-04T1100,3424A,118.879,31.3302,南京市,高淳老职中,细颗粒物(PM2.5),53,40,30,37,28,44,,41,41,19,19,3,3,0.4,0.3
2024-02-04T1100,3427A,118.8554,32.3578,南京市,六合雄州,,46,46,40,22,26,44,,42,42,16,16,1,1,0.6,0.6
2024-02-04T1100,1401A,108.3103,22.7881,南宁市,二十一中,,34,34,39,23,26,11,,15,11,21,20,5,6,1.2,0.9
2024-02-04T1100,1402A,108.3141,22.8528,南宁市,北湖,,,33,43,20,28,11,,7,7,,22,3,4,1.1,1
2024-02-04T1100,1403A,108.3206,22.8225,南宁市,市监测站,,36,32,40,25,26,11,,17,12,20,20,5,5,1.1,0.8
2024-02-04T1100,1404A,108.3829,22.8037,南宁市,大自然花园,,29,29,36,20,24,10,,11,7,22,21,6,6,1.0,0.8
2024-02-04T1100,1405A,108.4394,22.7904,南宁市,仙葫,,30,23,37,21,31,9,,6,5,20,22,5,5,1.1,1
2024-02-04T1100,1406A,108.2397,22.8467,南宁市,区农职院,,46,46,45,19,25,8,,6,6,27,31,7,7,1.2,0.9
2024-02-04T1100,1407A,108.3275,22.735,南宁市,英华嘉园,,32,30,37,22,26,12,,11,9,18,21,5,5,0.8,0.6
2024-02-04T1100,1408A,108.2257,22.7757,南宁市,沙井镇街道办,,46,43,43,32,26,14,,10,9,21,26,7,7,0.9,0.7
2024-02-04T1100,3401A,108.4834,22.7618,南宁市,红星社区,,26,26,41,17,25,10,,4,4,16,20,7,8,1.2,1
2024-02-04T1100,2332A,118.1681,26.6369,南平市,南平市监测站,,16,,15,8,10,49,,20,20,9,9,4,4,0.6,0.7
2024-02-04T1100,2333A,118.1825,26.6489,南平市,南平铝业有限公司,,15,12,15,6,12,48,,21,21,8,8,5,5,0.7,0.8
2024-02-04T1100,2334A,118.1756,26.6272,南平市,南平七中,,17,8,15,3,12,54,,22,22,8,8,5,7,0.7,0.8
2024-02-04T1100,1168A,120.9098,31.9663,南通市,狼山街道,,39,29,23,27,20,48,,60,56,22,14,7,7,0.7,0.6
2024-02-04T1100,1169A,120.86,32.0005,南通市,虹桥,,48,42,31,33,22,36,,54,48,24,14,3,3,0.7,0.6
2024-02-04T1100,1170A,120.87,32.02,南通市,城中,,46,39,27,32,19,39,,54,48,23,13,3,2,0.6,0.6
2024-02-04T1100,1171A,120.94,31.93,南通市,星湖花园,,36,36,26,21,16,43,,54,50,24,14,4,4,0.6,0.6
2024-02-04T1100,1172A,120.81,32.0417,南通市,紫琅学院,细颗粒物(PM2.5),54,40,23,38,18,38,,54,47,22,14,6,5,0.7,0.6
2024-02-04T1100,3291A,121.067,32.062,南通市,通州监测站,,42,31,24,29,19,54,,68,62,20,14,7,6,0.7,0.7
2024-02-04T1100,3432A,120.9348,31.9883,南通市,环境教育馆,,42,34,27,29,22,46,,57,52,25,14,6,6,0.7,0.6
2024-02-04T1100,2404A,112.5224,33.0122,南阳市,瓦房庄,细颗粒物(PM2.5),104,,59,78,66,56,,67,60,19,15,11,8,0.8,0.6
2024-02-04T1100,2405A,112.5003,32.9735,南阳市,汉画馆,细颗粒物(PM2.5),103,83,65,77,65,53,,66,58,22,18,8,7,1.0,0.8
2024-02-04T1100,2406A,112.5573,33.027,南阳市,气象站,细颗粒物(PM2.5),104,81,64,78,66,53,,65,57,23,18,10,8,0.9,0.7
2024-02-04T1100,2407A,112.5481,32.9689,南阳市,理工学院,细颗粒物(PM2.5),90,76,61,67,58,56,,67,59,19,17,8,6,0.7,0.6
2024-02-04T1100,4008A,112.5234,32.9922,南阳市,卧龙区政府,细颗粒物(PM2.5),98,82,63,73,60,49,,64,55,27,20,9,7,0.8,0.6
2024-02-04T1100,1234A,121.8358,29.911,宁波市,区环保大楼,,,20,22,15,20,48,,50,50,28,26,5,5,,0.7
2024-02-04T1100,1235A,121.56,29.82,宁波市,万里学院,颗粒物(PM10),56,62,25,32,14,31,,46,38,30,25,5,6,0.9,0.9
2024-02-04T1100,1236A,121.713,29.9572,宁波市,龙赛医院,,,,16,,10,61,,48,48,21,31,4,5,0.4,0.6
2024-02-04T1100,1239A,121.633,29.7733,宁波市,钱湖水厂,,47,47,23,28,16,28,,44,36,20,16,7,7,0.9,0.8
2024-02-04T1100,1240A,121.5856,29.8635,宁波市,太古小学,,42,40,20,29,16,37,,45,40,26,24,6,6,0.8,0.8
2024-02-04T1100,1241A,121.524,29.8674,宁波市,市环境监测中心,,39,39,20,19,9,33,,47,40,20,15,5,4,0.8,0.7
2024-02-04T1100,2871A,121.6147,29.9017,宁波市,万里国际学校,细颗粒物(PM2.5),58,43,19,41,22,32,,44,36,26,22,6,6,0.8,0.7
2024-02-04T1100,3710A,121.5594,29.8975,宁波市,白沙活动中心,颗粒物(PM10),51,52,26,23,12,32,,44,37,26,24,6,6,0.8,0.8
2024-02-04T1100,2341A,119.5388,26.6612,宁德市,宁德市监测站,,10,,16,7,14,30,,48,36,16,14,4,5,0.5,0.5
2024-02-04T1100,3209A,119.5231,26.6562,宁德市,宁德一中,,13,10,18,4,15,27,,54,37,26,19,4,4,0.5,0.5
2024-02-04T1100,2618A,98.8601,25.8567,怒江傈僳族自治州,州监测站,,16,16,16,11,9,48,,49,45,3,4,9,9,0.4,0.4
2024-02-04T1100,2619A,98.8546,25.8417,怒江傈僳族自治州,泸水一中,,23,,10,16,11,32,,41,32,11,9,8,8,0.5,0.4
2024-02-04T1100,1888A,101.6891,26.571,攀枝花市,弄弄坪,,38,33,42,26,19,61,,48,41,25,27,12,35,0.6,1.6
2024-02-04T1100,1889A,101.5769,26.5928,攀枝花市,河门口,,42,42,22,28,13,40,,38,32,29,16,22,7,1.4,0.7
2024-02-04T1100,1890A,101.7169,26.585,攀枝花市,炳草岗,颗粒物(PM10),54,58,31,25,14,28,,26,17,50,28,27,18,1.6,1.1
2024-02-04T1100,1891A,101.7369,26.5008,攀枝花市,仁和,,30,27,21,21,16,64,,50,49,18,14,6,8,0.7,0.8
2024-02-04T1100,2835A,101.7227,26.567,攀枝花市,四十中小,,49,49,24,17,15,33,,48,32,48,24,14,10,1.4,1.2
2024-02-04T1100,1604A,122.0303,41.1489,盘锦市,开发区,,50,50,42,31,36,69,,69,67,17,19,9,7,0.7,0.7
2024-02-04T1100,1605A,122.0485,41.0883,盘锦市,兴隆台,颗粒物(PM10),54,58,37,35,31,69,,71,66,27,22,13,13,0.7,0.6
2024-02-04T1100,1606A,121.8297,41.1028,盘锦市,新生街道,,44,44,53,24,39,65,,25,25,19,41,12,10,0.6,0.8
2024-02-04T1100,1832A,113.3257,33.742,平顶山市,新华旅馆,细颗粒物(PM2.5),90,105,85,67,67,59,,56,53,14,12,9,8,0.8,0.8
2024-02-04T1100,1833A,113.2919,33.737,平顶山市,规划设计院,细颗粒物(PM2.5),79,68,71,58,67,62,,58,54,11,8,10,9,0.9,0.8
2024-02-04T1100,1834A,113.182,33.774,平顶山市,平顶山工学院,细颗粒物(PM2.5),98,90,79,73,73,66,,58,56,16,17,9,7,0.8,0.7
2024-02-04T1100,3204A,113.3025,33.73,平顶山市,规划局,细颗粒物(PM2.5),83,80,88,61,76,61,,54,52,16,16,8,8,0.5,0.5
2024-02-04T1100,3594A,112.8867,33.9116,平顶山市,石龙区,细颗粒物(PM2.5),132,,84,100,83,67,,64,64,,13,10,8,0.8,0.7
2024-02-04T1100,2656A,106.6692,35.5461,平凉市,聚贤嘉苑,细颗粒物(PM2.5),79,77,73,58,52,63,,57,57,22,24,6,8,1.0,1.1
2024-02-04T1100,2657A,106.7021,35.5307,平凉市,博物馆,细颗粒物(PM2.5),94,96,72,70,56,63,,62,60,15,17,8,9,1.0,1
2024-02-04T1100,2347A,114.0997,27.5002,萍乡市,武功山,,22,17,9,15,11,19,,19,19,13,13,9,8,1.0,0.8
2024-02-04T1100,2348A,113.8385,27.6434,萍乡市,中医院,,26,26,26,12,19,17,,16,16,20,19,7,6,0.9,0.9
2024-02-04T1100,2349A,113.8493,27.6253,萍乡市,市政府车库,,22,,22,15,20,22,,22,22,16,16,8,7,0.8,0.7
2024-02-04T1100,2350A,113.8676,27.6435,萍乡市,市环保局,,20,14,20,14,19,17,,18,17,21,20,8,7,0.9,0.9
2024-02-04T1100,2351A,113.866,27.6198,萍乡市,安源区政府,,18,17,20,12,16,22,,20,20,8,10,9,8,0.7,0.6
2024-02-04T1100,2319A,119.0141,25.4325,莆田市,荔城区仓后路,,14,14,23,1,14,38,,50,46,15,16,7,7,0.7,0.8
2024-02-04T1100,2320A,119.0015,25.4553,莆田市,莆田市监测站,,16,16,25,0,16,32,,43,40,22,21,8,9,0.5,0.7
2024-02-04T1100,2321A,119.1119,25.4561,莆田市,涵江区六中,,14,10,23,0,13,44,,55,48,11,16,7,8,0.7,0.9
2024-02-04T1100,2322A,119.1013,25.3215,莆田市,秀屿区政府,,15,15,17,3,10,42,,58,49,11,8,5,7,0.9,0.9
2024-02-04T1100,2392A,115.0312,35.7636,濮阳市,环保局,,39,37,47,27,43,57,,52,52,19,20,10,9,0.5,0.7
2024-02-04T1100,2394A,115.0574,35.7609,濮阳市,油田运输公司,,39,39,52,26,41,60,,55,55,17,21,11,11,0.5,0.7
2024-02-04T1100,2395A,115.0866,35.7754,濮阳市,油田物探公司,,42,41,55,29,41,58,,53,53,15,18,9,9,0.4,0.6
2024-02-04T1100,3021A,115,35.7668,濮阳市,濮水河管理处,,39,33,49,27,41,63,,55,55,16,20,10,10,0.4,0.6
2024-02-04T1100,2601A,100.98,22.7633,普洱市,市环保局,细颗粒物(PM2.5),58,53,53,41,43,63,,46,45,21,11,5,4,0.7,0.5
2024-02-04T1100,2602A,100.9817,22.8322,普洱市,普洱第二中学,颗粒物(PM10),54,57,47,33,37,57,,30,26,24,19,4,4,0.7,0.5
2024-02-04T1100,2262A,131.0518,45.8751,七台河市,新一中,细颗粒物(PM2.5),79,,48,58,43,96,,87,87,15,13,14,14,0.7,0.7
2024-02-04T1100,3345A,131.0577,45.7879,七台河市,中波台,细颗粒物(PM2.5),97,85,68,72,58,68,,58,58,37,39,25,17,0.9,0.9
2024-02-04T1100,3637A,131.0176,45.7761,七台河市,人民广场,细颗粒物(PM2.5),75,74,68,55,56,73,,67,64,32,36,15,17,1.0,1
2024-02-04T1100,3684A,130.8781,45.8222,七台河市,新建矿广场,细颗粒物(PM2.5),90,92,59,67,53,84,,58,57,23,30,14,13,0.9,0.8
2024-02-04T1100,1779A,123.9305,47.3636,齐齐哈尔市,安居小区,,36,36,34,22,16,70,,58,58,10,16,7,10,0.4,0.5
2024-02-04T1100,1780A,123.9488,47.3386,齐齐哈尔市,中心广场,,38,32,32,26,18,63,,62,61,14,16,6,9,0.4,0.5
2024-02-04T1100,1781A,123.9483,47.3227,齐齐哈尔市,农牧车辆厂,,36,36,32,12,11,66,,61,60,11,14,9,10,0.4,0.4
2024-02-04T1100,1783A,123.945,47.2988,齐齐哈尔市,市环境监测站,,42,42,36,19,20,68,,60,60,12,15,6,7,0.6,0.6
2024-02-04T1100,3662A,123.6333,47.2075,齐齐哈尔市,富区青少年活动中心,,48,45,57,33,23,56,,43,43,12,21,11,16,0.7,0.9
2024-02-04T1100,2591A,107.9783,26.5747,黔东南苗族侗族自治州,市环境监测站,,13,13,11,8,8,36,,42,42,22,9,6,5,0.7,0.7
2024-02-04T1100,2881A,107.8908,26.5311,黔东南苗族侗族自治州,凯里学院,,14,6,8,6,6,44,,46,46,11,8,4,4,0.7,0.7
2024-02-04T1100,2593A,107.5228,26.2403,黔南布依族苗族自治州,小围寨,,28,,5,19,5,32,,40,40,7,8,6,5,0.8,0.8
2024-02-04T1100,3538A,107.5175,26.2978,黔南布依族苗族自治州,沙坝,,35,27,8,24,7,33,,42,42,5,7,6,4,0.8,0.7
2024-02-04T1100,2589A,104.9022,25.0925,黔西南布依族苗族自治州,场坝街,,26,23,36,7,24,82,,63,59,7,11,2,2,0.1,0.2
2024-02-04T1100,2590A,104.8811,25.0992,黔西南布依族苗族自治州,坪东大道,,27,17,30,10,24,85,,59,58,5,10,1,2,0.2,0.2
2024-02-04T1100,2502A,108.6236,21.9667,钦州市,市环保站,颗粒物(PM10),52,53,57,27,28,17,,15,15,28,29,7,7,0.7,0.7
2024-02-04T1100,2503A,108.6549,21.9481,钦州市,沙埠小学,,34,34,44,16,26,35,,18,18,12,19,6,6,0.7,0.8
2024-02-04T1100,2504A,108.5989,21.7431,钦州市,港区一小,,50,50,64,24,26,34,,26,21,28,24,7,8,0.9,1
2024-02-04T1100,1042A,119.5134,39.8207,秦皇岛市,北戴河环保局,,28,26,49,19,34,70,,34,34,20,32,11,14,0.2,0.5
2024-02-04T1100,1043A,119.7493,40.0116,秦皇岛市,第一关,,41,41,53,20,37,76,,26,26,13,43,9,13,0.3,0.6
2024-02-04T1100,1044A,119.5897,39.9499,秦皇岛市,监测站,,48,48,62,31,41,64,,20,20,31,43,10,14,0.5,0.7
2024-02-04T1100,1046A,119.5251,39.9041,秦皇岛市,建设大厦,,46,46,59,24,42,54,,16,16,31,36,4,7,0.4,0.6
2024-02-04T1100,3132A,119.610547,39.943889,秦皇岛市,文明里,颗粒物(PM10),51,52,66,25,41,69,,22,22,21,40,6,11,0.5,0.6
2024-02-04T1100,1307A,120.6659,36.2403,青岛市,仰口,,39,29,39,27,31,70,,68,66,16,16,4,3,0.5,0.6
2024-02-04T1100,1310A,120.4134,36.0658,青岛市,市南区东部子站,颗粒物(PM10),53,56,53,31,34,42,,45,42,32,24,11,10,0.8,0.7
2024-02-04T1100,1311A,120.3664,36.1032,青岛市,四方区子站,,49,48,51,34,38,42,,43,39,42,33,8,7,1.1,1
2024-02-04T1100,1312A,120.2994,36.054,青岛市,市南区西部子站,,,,46,0,26,,,51,49,,21,,8,,0.8
2024-02-04T1100,1313A,120.4581,36.0858,青岛市,崂山区子站,,48,48,51,24,32,49,,53,52,28,22,8,8,0.8,0.7
2024-02-04T1100,1314A,120.1983,35.9608,青岛市,黄岛区子站,颗粒物(PM10),52,53,46,24,27,34,,40,33,47,36,9,8,0.8,0.7
2024-02-04T1100,1315A,120.3999,36.3083,青岛市,城阳区子站,颗粒物(PM10),52,53,50,24,27,51,,46,45,33,28,10,8,0.8,0.8
2024-02-04T1100,1966A,120.0405,35.8735,青岛市,黄岛区4号,,44,44,37,22,22,51,,57,53,27,15,8,7,0.9,0.7
2024-02-04T1100,3362A,120.5014,36.4034,青岛市,即墨2号,,41,41,54,26,37,56,,45,45,23,25,10,10,0.8,0.9
2024-02-04T1100,3642A,120.3503,36.0736,青岛市,市北区南部,颗粒物(PM10),52,53,56,27,31,34,,41,37,47,35,9,7,1.0,0.9
2024-02-04T1100,3643A,120.3948,36.1805,青岛市,李沧区北部,颗粒物(PM10),53,56,56,34,41,53,,51,51,35,32,12,10,0.9,0.8
2024-02-04T1100,1703A,113.0208,23.7106,清远市,凤城街办,,39,39,37,18,22,3,,6,5,18,19,6,5,0.9,0.8
2024-02-04T1100,3025A,113.0477,23.6344,清远市,技师学院,,36,36,34,19,19,10,,8,8,15,18,4,4,0.8,0.6
2024-02-04T1100,3318A,112.9903,23.7403,清远市,清新太和,,30,30,30,17,18,4,,4,4,23,24,5,6,0.9,0.8
2024-02-04T1100,3455A,113.076,23.7198,清远市,清城东城,,22,22,33,14,22,8,,11,8,17,17,6,6,0.9,0.8
2024-02-04T1100,2661A,107.6325,35.7357,庆阳市,庆阳五中,细颗粒物(PM2.5),127,99,69,96,70,67,,71,64,29,20,31,15,1.1,1
2024-02-04T1100,2662A,107.6364,35.7067,庆阳市,市环保局,细颗粒物(PM2.5),112,88,63,84,62,84,,79,78,16,16,7,5,1.2,1.1
2024-02-04T1100,1916A,103.7897,25.5035,曲靖市,环境监测站,,29,20,30,12,19,92,,82,82,5,8,3,4,0.5,0.5
2024-02-04T1100,1917A,103.8,25.5364,曲靖市,烟厂办公区,,29,29,29,16,20,88,,81,81,6,9,4,6,0.5,0.6
2024-02-04T1100,3376A,103.7947,25.462,曲靖市,南苑二区,,27,23,28,15,22,85,,80,80,6,8,4,5,0.5,0.6
2024-02-04T1100,3377A,103.7444,25.5261,曲靖市,曲靖师范学院,,30,30,31,18,24,86,,79,79,6,9,4,12,0.4,0.5
2024-02-04T1100,1264A,118.8692,28.9398,衢州市,环保大楼,,25,19,13,17,11,30,,35,32,18,19,4,3,0.6,0.4
2024-02-04T1100,1265A,118.8709,28.9666,衢州市,实验学校,,,22,15,20,13,33,,38,35,12,11,,6,0.6,0.4
2024-02-04T1100,1266A,118.8621,28.9808,衢州市,衢州学院,,26,,12,18,10,31,,36,34,13,14,5,5,0.6,0.5
2024-02-04T1100,1611A,118.5819,24.9117,泉州市,涂山街,,24,24,19,16,17,46,,57,50,17,18,2,2,0.8,0.7
2024-02-04T1100,1612A,118.5972,24.8978,泉州市,津头埔,,20,17,17,14,16,41,,48,42,20,20,3,4,0.7,0.7
2024-02-04T1100,1613A,118.6663,24.9424,泉州市,万安,,21,21,21,12,15,46,,54,49,16,15,2,2,0.4,0.4
2024-02-04T1100,3529A,118.6333,24.9264,泉州市,城华南路,,28,,21,19,18,44,,52,45,15,15,3,3,0.6,0.6
2024-02-04T1100,2626A,88.8876,29.2718,日喀则市,日喀则监测站,,30,30,34,16,18,54,,36,36,7,22,3,5,0.6,0.8
2024-02-04T1100,3726A,88.8781,29.2426,日喀则市,林业技术推广中心,颗粒物(PM10),52,54,21,19,8,49,,36,36,21,11,11,7,0.8,0.5
2024-02-04T1100,1659A,119.471,35.4209,日照市,监测站,,31,31,30,17,19,67,,69,66,22,19,10,9,0.6,0.5
2024-02-04T1100,1660A,119.523,35.4216,日照市,市政府广场,,32,31,32,22,20,63,,66,65,19,16,8,7,0.7,0.7
2024-02-04T1100,1661A,119.5587,35.4044,日照市,港务局,,36,36,34,19,19,73,,73,72,17,17,6,5,0.5,0.4
2024-02-04T1100,3507A,119.5328,35.4625,日照市,职业技术学院,,39,39,31,17,16,68,,70,69,21,19,8,7,0.7,0.6
2024-02-04T1100,3604A,119.3266,35.1044,日照市,岚山环保分局,细颗粒物(PM2.5),68,83,46,49,29,47,,54,50,38,27,36,21,5.5,2
2024-02-04T1100,1835A,111.1922,34.7752,三门峡市,市政府,细颗粒物(PM2.5),70,,48,51,64,74,,64,64,14,13,9,8,1.0,1
2024-02-04T1100,1836A,111.1587,34.7942,三门峡市,开发区,细颗粒物(PM2.5),70,60,71,51,67,73,,62,62,18,18,7,6,0.8,0.9
2024-02-04T1100,3598A,111.1,34.7167,三门峡市,富达温泉假日酒店,,38,31,60,26,57,87,,70,70,12,22,5,6,0.5,0.8
2024-02-04T1100,2324A,117.6211,26.2625,三明市,三钢,,45,41,24,31,16,19,,14,13,11,12,10,11,1.2,1.4
2024-02-04T1100,2325A,117.635,26.2714,三明市,三明二中,,40,32,28,28,19,23,,16,15,12,13,9,10,0.8,0.7
2024-02-04T1100,2326A,117.6028,26.2378,三明市,三元区政府,颗粒物(PM10),51,52,23,26,11,13,,15,12,16,13,16,10,1.8,1
2024-02-04T1100,1876A,109.5078,18.2489,三亚市,河东子站,,18,18,19,6,11,56,,48,48,5,5,4,4,0.3,0.4
2024-02-04T1100,1877A,109.4964,18.2681,三亚市,河西子站,,18,12,18,7,11,56,,48,47,1,3,3,3,0.4,0.4
2024-02-04T1100,3540A,109.7348,18.3443,三亚市,君悦子站,,22,22,16,5,8,59,,50,44,3,4,4,4,0.4,0.4
2024-02-04T1100,2624A,91.7608,29.2313,山南市,山南监测站,,40,40,34,20,10,54,,57,48,11,8,6,5,0.4,0.3
2024-02-04T1100,2625A,91.7706,29.2436,山南市,山南人民医院,,42,42,50,21,13,51,,64,52,16,11,5,4,0.6,0.4
2024-02-04T1100,1674A,116.6794,23.3667,汕头市,金平子站,,25,25,19,11,16,57,,74,66,13,11,5,6,0.7,0.6
2024-02-04T1100,1675A,116.7244,23.3633,汕头市,龙湖子站,,17,13,18,9,15,54,,67,61,17,17,8,8,0.8,0.7
2024-02-04T1100,1676A,116.7258,23.2775,汕头市,濠江子站,,,,16,,16,58,,69,65,8,15,,9,,0.6
2024-02-04T1100,1677A,116.7519,23.4714,汕头市,澄海子站,,,,21,9,23,63,,73,68,13,16,8,9,0.5,0.5
2024-02-04T1100,1678A,116.6092,23.2539,汕头市,潮阳子站,,19,12,21,5,15,60,,68,63,11,15,8,8,0.5,0.5
2024-02-04T1100,3444A,116.454,23.2684,汕头市,潮南峡山,,19,12,34,7,20,59,,70,63,13,15,8,9,0.7,0.7
2024-02-04T1100,3624A,116.4069,23.2533,汕头市,潮南子站,,17,13,38,7,20,53,,64,57,7,9,6,7,0.7,0.7
2024-02-04T1100,1693A,115.3653,22.775,汕尾市,市环保局,,21,17,21,9,17,67,,77,74,7,11,6,7,0.6,0.6
2024-02-04T1100,1694A,115.3706,22.7898,汕尾市,市政府,,22,,22,11,21,68,,76,73,8,11,5,5,0.6,0.6
2024-02-04T1100,1695A,115.3622,22.7925,汕尾市,新城中学,,21,17,28,11,21,67,,74,71,6,10,5,6,0.4,0.5
2024-02-04T1100,2645A,109.9154,33.8715,商洛市,监测站,细颗粒物(PM2.5),60,48,59,43,54,73,,72,72,12,19,5,7,0.5,0.7
2024-02-04T1100,3045A,109.9643,33.8471,商洛市,商州区中学,细颗粒物(PM2.5),67,50,64,48,63,76,,72,72,11,19,5,6,0.6,0.8
2024-02-04T1100,2408A,115.6702,34.4285,商丘市,环境监测站,细颗粒物(PM2.5),67,63,87,48,81,46,,39,39,14,20,12,10,0.9,1.1
2024-02-04T1100,2409A,115.6458,34.4045,商丘市,粮食局,细颗粒物(PM2.5),65,58,81,47,79,41,,39,38,16,21,9,9,0.7,0.9
2024-02-04T1100,2410A,115.6293,34.3948,商丘市,睢阳区环保局,细颗粒物(PM2.5),75,,81,55,84,44,,42,42,14,18,10,9,0.6,0.8
2024-02-04T1100,3171A,115.6071,34.4465,商丘市,梁园区档案局,细颗粒物(PM2.5),68,84,62,49,74,43,,39,39,17,23,10,8,0.7,0.9
2024-02-04T1100,1141A,121.4,31.238,上海市,普陀,细颗粒物(PM2.5),55,50,25,39,22,37,,54,49,36,23,4,4,0.7,0.7
2024-02-04T1100,1142A,121.478,31.2036,上海市,十五厂,,46,46,25,32,20,42,,58,54,36,25,6,5,0.8,0.8
2024-02-04T1100,1143A,121.467,31.3008,上海市,虹口,,48,48,25,29,20,36,,58,52,45,28,5,5,0.6,0.7
2024-02-04T1100,1144A,121.412,31.1654,上海市,徐汇上师大,,40,40,25,26,19,48,,59,56,32,23,6,6,0.8,0.9
2024-02-04T1100,1145A,121.536,31.2659,上海市,杨浦四漂,,42,42,22,20,11,44,,66,60,40,24,5,5,0.8,0.8
