timepoint,stationcode,longitude,latitude,area,positionname,primarypollutant,aqi,pm10,pm10_24h,pm2_5,pm2_5_24h,o3,o3_24h,o3_8h,o3_8h_24h,no2,no2_24h,so2,so2_24h,co,co_24h
2025-02-22T0500,2566A,102.1879,31.914,阿坝藏族羌族自治州,州农科所,,19,12,22,7,12,59,,,,4,10,9,9,0,0
2025-02-22T0500,2568A,102.2502,31.8896,阿坝藏族羌族自治州,马师校,,25,18,13,17,13,68,,,,5,17,5,5,0.4,0.4
2025-02-22T0500,3994A,102.2165,31.9024,阿坝藏族羌族自治州,马尔康中学西区,,23,13,14,11,10,73,,,,5,10,6,6,0.4,0.5
2025-02-22T0500,2695A,80.292,41.1694,阿克苏地区,电视台,颗粒物(PM10),104,158,187,38,60,79,,,,9,32,2,3,0.5,0.9
2025-02-22T0500,2696A,80.2613,41.1551,阿克苏地区,艺术中心,颗粒物(PM10),111,172,196,41,57,81,,,,10,32,5,7,0.6,0.9
2025-02-22T0500,2204A,105.6467,38.8363,阿拉善盟,西城区西花园,,37,37,121,17,39,79,,,,7,9,11,14,0.5,0.6
2025-02-22T0500,2205A,105.6985,38.8411,阿拉善盟,蒙二幼,,25,12,102,3,25,79,,,,8,12,5,6,0.6,0.7
2025-02-22T0500,2206A,105.724,38.8516,阿拉善盟,环保局新楼,,27,16,67,3,21,84,,,,4,7,7,8,0.6,0.7
2025-02-22T0500,2708A,88.1264,47.8517,阿勒泰地区,市站,,29,10,33,3,22,91,,,,2,34,2,14,0.3,0.8
2025-02-22T0500,2630A,80.1161,32.5,阿里地区,阿里监测站,,25,10,8,3,5,77,,,,5,4,10,9,0.4,0.5
2025-02-22T0500,3192A,80.0903,32.5028,阿里地区,阿里藏医院,,25,9,9,3,3,79,,,,6,1,7,5,0.6,0.5
2025-02-22T0500,2642A,109.0318,32.6537,安康市,香溪洞,细颗粒物(PM2.5),84,,68,62,77,83,,,,13,15,10,10,0.6,0.7
2025-02-22T0500,2644A,109.0072,32.6975,安康市,汉滨区检察院,细颗粒物(PM2.5),92,73,93,68,75,90,,,,14,17,6,18,0.5,0.6
2025-02-22T0500,4054A,109.0325,32.6913,安康市,市邮政管理局,细颗粒物(PM2.5),92,74,95,68,76,82,,,,18,20,11,9,0.7,0.8
2025-02-22T0500,2291A,117.0809,30.5177,安庆市,环科院,细颗粒物(PM2.5),58,51,35,41,29,46,,,,22,18,10,7,0.6,0.5
2025-02-22T0500,2292A,117.0331,30.5119,安庆市,马山宾馆,细颗粒物(PM2.5),62,49,36,44,31,50,,,,22,21,11,8,0.9,0.7
2025-02-22T0500,2294A,116.9896,30.6145,安庆市,安庆大学,,50,48,34,35,26,61,,,,16,16,6,6,0.7,0.5
2025-02-22T0500,3173A,117.0598,30.5351,安庆市,市人大,细颗粒物(PM2.5),60,47,38,43,32,49,,,,20,19,9,6,0.6,0.5
2025-02-22T0500,3122A,105.9606,26.2611,安顺市,伍家关,,12,8,14,3,9,36,,,,14,11,18,10,0.7,0.7
2025-02-22T0500,3123A,105.9408,26.2431,安顺市,凤凰山,,12,,11,8,7,29,,,,16,10,22,18,0.8,0.7
2025-02-22T0500,3124A,105.9439,26.2564,安顺市,金钟山,,18,,11,12,9,33,,,,12,8,20,16,0.8,0.7
2025-02-22T0500,3125A,105.8983,26.2481,安顺市,娄家坡,,12,11,11,8,9,31,,,,14,11,16,15,0.8,0.8
2025-02-22T0500,1818A,114.4839,36.0621,安阳市,棉研所,,46,,75,32,72,48,,,,13,19,7,6,0.6,0.7
2025-02-22T0500,1819A,114.3551,36.1017,安阳市,红庙街,,48,,79,33,69,54,,,,6,17,3,2,0.2,0.2
2025-02-22T0500,1820A,114.361,36.0681,安阳市,银杏小区,,48,,71,33,71,57,,,,10,18,4,4,0.4,0.5
2025-02-22T0500,3141A,114.3922,36.0878,安阳市,信访局,,49,36,74,34,69,57,,,,16,23,2,2,0.3,0.4
2025-02-22T0500,3669A,114.4705,36.0637,安阳市,左辅环卫站,,48,48,87,33,68,56,,,,9,18,2,2,0.4,0.5
2025-02-22T0500,3703A,114.2917,36.0949,安阳市,安钢职工学校,,49,38,79,34,75,54,,,,13,20,3,3,0.5,0.6
2025-02-22T0500,1748A,123.044,41.1196,鞍山市,深沟寺,细颗粒物(PM2.5),60,59,45,43,29,29,,,,35,19,13,13,0.9,0.7
2025-02-22T0500,1749A,123.011,41.0931,鞍山市,太阳城,细颗粒物(PM2.5),79,86,56,58,33,10,,,,48,20,8,12,1.1,0.8
2025-02-22T0500,1750A,123.0485,41.1442,鞍山市,太平,颗粒物(PM10),67,83,61,46,31,16,,,,40,24,8,13,1.3,0.9
2025-02-22T0500,1751A,122.9642,41.0971,鞍山市,铁西三道街,细颗粒物(PM2.5),69,80,64,50,40,14,,,,48,33,12,20,1.3,1.1
2025-02-22T0500,1753A,123.022,41.0821,鞍山市,明达新区,颗粒物(PM10),57,63,44,39,25,26,,,,39,21,10,13,0.9,0.8
2025-02-22T0500,1754A,123.1289,41.0228,鞍山市,千山,,,,42,,16,,,55,,,17,,8,,0.5
2025-02-22T0500,4201A,122.9446,41.0826,鞍山市,兴盛南路290号,细颗粒物(PM2.5),83,102,71,61,41,9,,,,58,37,9,21,1.4,0.9
2025-02-22T0500,2195A,107.4212,40.761,巴彦淖尔市,附二中,,32,32,40,12,16,60,,,,10,7,21,12,0.3,0.3
2025-02-22T0500,2196A,107.37,40.7372,巴彦淖尔市,市环保大楼,,21,21,33,12,14,51,,,,24,7,13,5,0.2,0.2
2025-02-22T0500,1956A,86.1472,41.7538,巴音郭楞蒙古自治州,孔雀公园,颗粒物(PM10),77,104,156,27,38,92,,,,4,16,6,6,0.3,0.4
2025-02-22T0500,1957A,86.1972,41.7166,巴音郭楞蒙古自治州,棉纺厂,颗粒物(PM10),85,120,179,24,30,83,,,,13,28,6,4,0.4,0.4
2025-02-22T0500,1958A,86.2357,41.7173,巴音郭楞蒙古自治州,经济开发区,颗粒物(PM10),65,80,147,22,28,90,,,,5,5,5,4,0.4,0.3
2025-02-22T0500,2914A,106.7677,31.8794,巴中市,苏山坪,,30,25,25,21,23,46,,,,9,9,4,4,0.4,0.4
2025-02-22T0500,3181A,106.7768,31.8526,巴中市,市五中,细颗粒物(PM2.5),54,46,44,38,34,5,,,,22,24,4,5,0.9,0.8
2025-02-22T0500,3183A,106.7418,31.8654,巴中市,圣泉水务公司,,39,29,34,27,28,7,,,,24,26,5,6,0.7,0.7
2025-02-22T0500,3616A,106.7616,31.8344,巴中市,市中心医院,细颗粒物(PM2.5),55,42,39,39,36,3,,,,26,30,5,6,0.8,0.9
2025-02-22T0500,2235A,122.7911,45.6077,白城市,洮北区环保局,,38,38,31,26,22,39,,,,20,22,2,6,0.4,0.4
2025-02-22T0500,2236A,122.8738,45.5725,白城市,市环保局,,26,24,27,18,18,48,,,,19,27,6,4,0.1,0.1
2025-02-22T0500,2231A,126.4219,41.9171,白山市,喜丰,颗粒物(PM10),57,63,52,27,23,39,,,,26,22,23,15,0.7,0.6
2025-02-22T0500,2232A,126.4077,41.9419,白山市,环保局,颗粒物(PM10),61,71,56,27,24,39,,,,28,21,7,10,0.6,0.6
2025-02-22T0500,2647A,104.1724,36.5446,白银市,第三小学,颗粒物(PM10),84,117,87,31,52,81,,,,10,22,8,45,0.6,1
2025-02-22T0500,2648A,104.1465,36.5482,白银市,动力公司,颗粒物(PM10),78,105,80,37,49,81,,,,11,19,4,30,0.7,0.8
2025-02-22T0500,2512A,106.6103,23.9011,百色市,市监测站,,18,12,15,12,9,20,,,,11,13,8,9,0.8,0.9
2025-02-22T0500,2513A,106.6538,23.8859,百色市,市中心血站,,18,13,14,12,8,18,,,,11,11,9,9,0.9,0.9
2025-02-22T0500,3406A,106.6085,23.8798,百色市,祈福高中,,28,25,18,19,9,12,,,,24,14,11,7,0.9,0.9
2025-02-22T0500,2270A,117.396,32.939,蚌埠市,工人疗养院,细颗粒物(PM2.5),68,70,58,49,35,37,,,,32,22,4,5,0.5,0.5
2025-02-22T0500,2271A,117.3605,32.9427,蚌埠市,百货大楼,细颗粒物(PM2.5),63,69,55,45,35,40,,,,27,19,4,5,0.4,0.4
2025-02-22T0500,2273A,117.4185,32.8911,蚌埠市,蚌埠学院,细颗粒物(PM2.5),77,68,51,56,40,7,,,,69,28,18,8,0.5,0.4
2025-02-22T0500,2274A,117.3533,32.9673,蚌埠市,淮上区政府,细颗粒物(PM2.5),70,75,58,51,41,43,,,,27,24,6,8,0.7,0.7
2025-02-22T0500,2275A,117.3145,32.8977,蚌埠市,高新区,细颗粒物(PM2.5),68,61,50,49,37,38,,,,34,21,8,8,0.6,0.5
2025-02-22T0500,3715A,117.3092,32.9314,蚌埠市,蚌埠田家炳中学,细颗粒物(PM2.5),72,70,57,52,37,41,,,,31,24,4,6,0.5,0.5
2025-02-22T0500,1585A,109.8756,40.6532,包头市,市环境监测站,,23,9,23,8,8,71,,,,7,10,11,10,0.6,0.5
2025-02-22T0500,1587A,109.9991,40.5842,包头市,包头八中,,22,16,35,6,12,68,,,,11,18,12,12,0.5,0.6
2025-02-22T0500,1588A,109.8538,40.6821,包头市,青山宾馆,,21,8,16,3,5,66,,,,6,7,8,8,0.5,0.4
2025-02-22T0500,1589A,109.8642,40.6288,包头市,惠龙物流,,23,11,22,3,5,72,,,,8,10,7,7,0.6,0.5
2025-02-22T0500,1590A,110.0377,40.5546,包头市,东河鸿龙湾,,20,16,32,3,12,61,,,,16,20,18,13,0.4,0.9
2025-02-22T0500,3283A,109.9154,40.5685,包头市,滨河大厦,,16,6,21,3,7,47,,,,32,14,9,8,0.6,0.6
2025-02-22T0500,3419A,109.9447,40.6261,包头市,包头市委党校,,22,6,34,3,13,69,,,,9,12,8,7,0.3,0.3
2025-02-22T0500,3683A,109.8331,40.6576,包头市,昆区政府,,21,11,19,3,6,66,,,,8,9,10,10,0.5,0.4
2025-02-22T0500,1930A,107.185,34.3063,宝鸡市,庙沟村,细颗粒物(PM2.5),119,,83,90,91,20,,,,22,26,5,5,0.9,0.9
2025-02-22T0500,1931A,107.0708,34.3017,宝鸡市,竹园沟,细颗粒物(PM2.5),90,,81,67,87,12,,,,18,20,6,6,0.9,0.9
2025-02-22T0500,1932A,107.1906,34.3672,宝鸡市,三陆医院,细颗粒物(PM2.5),120,,94,91,100,21,,,,19,24,4,4,1.1,1.1
2025-02-22T0500,1933A,107.1431,34.3547,宝鸡市,监测站,细颗粒物(PM2.5),112,,102,84,98,24,,,,16,24,8,6,0.9,1
2025-02-22T0500,1934A,107.1186,34.3739,宝鸡市,技工学校,细颗粒物(PM2.5),109,,86,82,96,19,,,,9,18,3,3,1.0,1.1
2025-02-22T0500,1935A,107.3906,34.3528,宝鸡市,陈仓区环保局家属楼,细颗粒物(PM2.5),142,,90,108,104,17,,,,28,33,7,6,1.1,1
2025-02-22T0500,1936A,107.2058,34.3497,宝鸡市,文理学院,细颗粒物(PM2.5),112,84,93,84,92,19,,,,21,26,5,5,0.9,1
2025-02-22T0500,1937A,107.2386,34.3622,宝鸡市,三迪小学,细颗粒物(PM2.5),130,,90,99,96,18,,,,24,29,5,5,0.9,0.9
2025-02-22T0500,1051A,115.493,38.8632,保定市,游泳馆,颗粒物(PM10),52,53,59,14,34,41,,,,34,42,8,11,0.3,0.5
2025-02-22T0500,1052A,115.5213,38.8959,保定市,华电二区,细颗粒物(PM2.5),73,68,51,53,37,7,,,,70,40,7,9,0.4,0.5
2025-02-22T0500,1053A,115.4713,38.9108,保定市,接待中心,细颗粒物(PM2.5),62,70,59,44,39,8,,,,77,49,7,9,0.5,0.6
2025-02-22T0500,1054A,115.4612,38.8416,保定市,地表水厂,颗粒物(PM10),51,52,75,19,37,36,,,,45,49,3,5,0.3,0.5
2025-02-22T0500,3581A,115.31981,38.95208,保定市,满城区生态环境分局,颗粒物(PM10),58,66,65,27,28,28,,,,55,45,9,9,0.6,0.6
2025-02-22T0500,3582A,115.47694,38.76408,保定市,清苑区第二中学,颗粒物(PM10),53,55,79,26,44,20,,,,59,52,4,7,0.4,0.6
2025-02-22T0500,3583A,115.62909,39.02311,保定市,徐水物探局,,31,31,53,9,31,27,,,,42,47,9,11,0.2,0.4
2025-02-22T0500,4004A,115.4202,38.8656,保定市,双鹰农机,颗粒物(PM10),51,51,61,34,36,39,,,,37,38,4,6,0.4,0.6
2025-02-22T0500,4034A,115.5150,38.8590,保定市,植保所站,,46,37,64,32,40,31,,,,37,46,5,6,0.4,0.6
2025-02-22T0500,2594A,99.1678,25.1081,保山市,市环境监测站,,44,44,46,26,32,58,,,,12,10,5,6,0.4,0.4
2025-02-22T0500,2595A,99.1711,25.1328,保山市,市环保局,,50,43,50,35,29,78,,,,5,8,8,8,0.5,0.5
2025-02-22T0500,1866A,109.2262,21.588,北海市,牛尾岭水库,,,,60,66,63,8,,,,,17,5,6,0.9,0.9
2025-02-22T0500,1867A,109.1436,21.4086,北海市,海滩公园,细颗粒物(PM2.5),74,69,93,54,60,42,,,,20,21,9,8,1.2,1.1
2025-02-22T0500,1868A,109.0981,21.4661,北海市,新市环保局,细颗粒物(PM2.5),83,72,71,61,60,12,,,,26,22,7,7,1.0,0.9
2025-02-22T0500,1869A,109.1778,21.5233,北海市,北海工业园,细颗粒物(PM2.5),98,84,86,73,67,21,,,,26,23,10,9,1.0,1
2025-02-22T0500,3400A,109.1911,21.4415,北海市,龙潭自来水厂,细颗粒物(PM2.5),112,84,86,84,81,35,,,,21,23,9,8,1.1,0.9
2025-02-22T0500,1001A,116.3621,39.8784,北京市,万寿西宫,,19,12,20,3,7,59,,,,13,14,1,2,0.4,0.4
2025-02-22T0500,1002A,116.2202,40.2915,北京市,定陵,,,,,,,,,,,,,,,,
2025-02-22T0500,1003A,116.4174,39.9289,北京市,东四,,20,10,18,3,9,61,,,,8,10,2,3,0.2,0.3
2025-02-22T0500,1004A,116.4072,39.8863,北京市,天坛,,18,11,20,3,9,57,,,,14,14,3,3,0.3,0.4
2025-02-22T0500,1005A,116.462,39.9365,北京市,农展馆,,19,10,17,3,8,60,,,,17,14,4,4,0.4,0.4
2025-02-22T0500,1006A,116.3392,39.9295,北京市,官园,,17,14,20,3,10,54,,,,11,12,5,6,0.3,0.3
2025-02-22T0500,1007A,116.2878,39.9611,北京市,海淀万柳,,15,11,20,3,9,46,,,,21,19,2,3,0.4,0.5
2025-02-22T0500,1008A,116.6636,40.135,北京市,顺义新城,,21,10,13,3,4,65,,,,10,6,4,4,0.1,0.2
2025-02-22T0500,1009A,116.6275,40.3275,北京市,怀柔镇,,17,9,11,3,6,53,,,,6,6,1,2,0.4,0.5
2025-02-22T0500,1010A,116.2296,40.217,北京市,昌平镇,,18,12,17,8,10,56,,,,3,12,3,2,0.3,0.4
2025-02-22T0500,1011A,116.3966,39.9821,北京市,奥体中心,,16,11,19,3,8,50,,,,21,16,3,4,0.3,0.4
2025-02-22T0500,3281A,115.9718,40.4529,北京市,延庆夏都,,,,19,,11,,,55,,,13,,5,,0.4
2025-02-22T0500,3418A,116.8336,40.4095,北京市,密云新城,,20,9,10,3,4,64,,,,2,2,4,4,0.3,0.3
2025-02-22T0500,3671A,116.088,39.9726,北京市,门头沟三家店,,27,27,27,11,9,24,,,,37,27,3,4,0.2,0.3
2025-02-22T0500,3672A,116.1541,39.8204,北京市,丰台云岗,,19,19,25,9,7,47,,,,21,18,3,3,0.3,0.3
2025-02-22T0500,3673A,116.6804,39.9081,北京市,通州东关,,18,10,17,3,7,57,,,,9,14,5,5,0.3,0.3
2025-02-22T0500,3674A,115.9577,39.7603,北京市,房山燕山,,18,18,23,10,8,50,,,,13,14,2,3,0.3,0.2
2025-02-22T0500,3675A,116.4672,39.7733,北京市,大兴旧宫,,15,11,18,3,8,45,,,,19,18,2,2,0.1,0.2
2025-02-22T0500,3694A,115.986,40.4563,北京市,延庆石河营,,22,18,18,12,10,8,,,,43,13,4,4,0.5,0.5
2025-02-22T0500,3695A,116.6151,40.3053,北京市,怀柔新城,,19,6,10,6,8,60,,,,2,4,3,4,0.2,0.2
2025-02-22T0500,3696A,116.2545,39.8768,北京市,丰台小屯,,18,13,20,3,8,55,,,,11,13,1,1,0.2,0.2
2025-02-22T0500,3697A,116.84,40.3844,北京市,密云镇,,21,12,11,3,5,65,,,,10,6,1,1,0.4,0.3
2025-02-22T0500,4182A,116.1942,39.9158,北京市,八角北路9号,,22,22,26,9,10,34,,,,27,18,2,2,0.2,0.2
2025-02-22T0500,4194A,117.0790,40.1518,北京市,洳河巡河路,,22,6,9,3,7,69,,,,2,6,3,3,0.3,0.3
2025-02-22T0500,1761A,123.8275,41.3064,本溪市,大峪,颗粒物(PM10),56,61,55,31,32,12,,,,54,31,7,9,1.5,1.2
2025-02-22T0500,1762A,123.7567,41.3325,本溪市,溪湖,细颗粒物(PM2.5),67,78,61,48,33,12,,,,49,39,3,7,1.5,0.9
2025-02-22T0500,1763A,123.7169,41.3094,本溪市,彩屯,细颗粒物(PM2.5),68,70,61,49,42,27,,,,42,31,5,8,1.0,1
2025-02-22T0500,1764A,123.7669,41.2864,本溪市,东明,"颗粒物(PM10),细颗粒物(PM2.5)",60,69,65,43,36,2,,,,53,38,6,15,1.3,1.4
2025-02-22T0500,1765A,123.7992,41.2664,本溪市,新立屯,细颗粒物(PM2.5),152,128,64,116,49,13,,,,67,45,14,13,4.3,1.9
2025-02-22T0500,1766A,123.8142,41.3472,本溪市,威宁,颗粒物(PM10),62,74,74,38,36,14,,,,36,34,2,4,1.1,0.9
2025-02-22T0500,2587A,105.2864,27.3125,毕节市,八中,,9,,15,3,12,27,,,,10,15,7,10,0.8,0.8
2025-02-22T0500,2588A,105.31,27.2944,毕节市,师专,,10,7,12,3,12,30,,,,12,16,6,10,0.8,0.8
2025-02-22T0500,4263A,105.3688,27.3598,毕节市,工业大道,,13,11,15,7,11,41,,,,11,15,6,11,0.7,0.8
2025-02-22T0500,1629A,118.0018,37.3617,滨州市,第二水厂,,35,34,48,24,27,37,,,,38,24,8,11,0.5,0.6
2025-02-22T0500,1630A,117.9776,37.393,滨州市,北中新校,,41,41,50,27,28,27,,,,53,28,11,13,0.6,0.7
2025-02-22T0500,3514A,117.9378,37.3956,滨州市,中海酒店,,41,41,44,27,31,22,,,,47,21,7,11,0.5,0.5
2025-02-22T0500,3515A,117.9378,37.3553,滨州市,开发区一中,,41,41,50,17,25,39,,,,41,26,7,11,0.3,0.4
2025-02-22T0500,3516A,118.0917,37.694,滨州市,金海六路,,46,46,51,27,26,4,,,,63,34,8,10,0.8,0.8
2025-02-22T0500,4028A,117.9956,37.3753,滨州市,滨州市西街道办事处,,36,36,47,24,32,46,,,,26,23,7,10,0.7,0.8
2025-02-22T0500,2311A,115.8072,33.8399,亳州市,污水处理厂,细颗粒物(PM2.5),60,59,56,43,38,45,,,,16,15,6,6,0.5,0.5
2025-02-22T0500,2312A,115.7789,33.8518,亳州市,三国揽胜宫,颗粒物(PM10),62,74,65,35,33,55,,,,18,17,4,4,0.4,0.4
2025-02-22T0500,3332A,115.7633,33.8034,亳州市,亳州学院,细颗粒物(PM2.5),58,56,59,41,36,55,,,,16,17,4,3,0.4,0.3
2025-02-22T0500,2693A,82.0485,44.8556,博尔塔拉蒙古自治州,市党校,细颗粒物(PM2.5),72,60,60,52,49,87,,,,16,19,7,10,1.5,1.7
2025-02-22T0500,2694A,82.0806,44.8969,博尔塔拉蒙古自治州,市环保局,颗粒物(PM10),63,76,71,40,39,63,,,,21,26,6,6,1.0,1.2
2025-02-22T0500,1071A,116.8842,38.2991,沧州市,沧县城建局,细颗粒物(PM2.5),64,68,58,46,34,6,,,,69,45,9,8,0.8,0.6
2025-02-22T0500,1072A,116.8584,38.3254,沧州市,电视转播站,细颗粒物(PM2.5),67,80,52,48,30,1,,,,68,40,15,10,0.8,0.6
2025-02-22T0500,1073A,116.8709,38.3228,沧州市,市环保局,细颗粒物(PM2.5),63,67,51,45,35,1,,,,65,40,10,9,0.8,0.6
2025-02-22T0500,3324A,116.8136,38.3004,沧州市,河北水利电力学院,"颗粒物(PM10),细颗粒物(PM2.5)",62,73,52,44,35,4,,,,66,40,10,8,0.8,0.6
2025-02-22T0500,2622A,97.1806,31.1273,昌都市,昌都监测站,,19,17,18,3,10,59,,,,2,9,5,5,0.4,0.6
2025-02-22T0500,3719A,97.1714,31.1406,昌都市,昌都会议中心,,24,10,13,3,8,75,,,,1,3,8,9,0.3,0.4
2025-02-22T0500,2690A,88.1236,43.8886,昌吉回族自治州,天山天池,,31,18,23,3,11,98,,,,3,4,4,5,0.5,0.5
2025-02-22T0500,2692A,87.2717,44.0297,昌吉回族自治州,新区政务中心,细颗粒物(PM2.5),87,96,100,64,64,80,,,,10,20,2,2,0.7,0.9
2025-02-22T0500,3613A,87.3095,44.0142,昌吉回族自治州,亚心广场,细颗粒物(PM2.5),110,105,103,83,85,87,,,,2,4,4,4,0.6,0.6
2025-02-22T0500,1119A,125.3325,43.9166,长春市,食品厂,细颗粒物(PM2.5),77,74,44,56,31,8,,,,66,35,8,8,0.9,0.4
2025-02-22T0500,1120A,125.2863,43.9027,长春市,客车厂,细颗粒物(PM2.5),68,65,39,49,33,9,,,,69,36,6,6,0.8,0.5
2025-02-22T0500,1121A,125.2841,43.8463,长春市,邮电学院,细颗粒物(PM2.5),79,,36,58,32,7,,,,71,28,7,7,0.9,0.6
2025-02-22T0500,1122A,125.3716,43.8772,长春市,劳动公园,细颗粒物(PM2.5),57,52,39,40,28,15,,,,53,28,7,8,0.8,0.5
2025-02-22T0500,1123A,125.3297,43.8805,长春市,园林处,细颗粒物(PM2.5),54,41,31,38,25,21,,,,50,23,11,10,0.5,0.3
2025-02-22T0500,1124A,125.4605,43.79,长春市,净月潭,细颗粒物(PM2.5),52,48,34,36,23,30,,,,32,16,6,7,0.7,0.5
2025-02-22T0500,1125A,125.7194,43.515,长春市,甩湾子,,,,,,,,,,,,,,,,
2025-02-22T0500,1126A,125.3863,43.8447,长春市,经开区环卫处,细颗粒物(PM2.5),55,56,40,39,25,6,,,,60,34,6,7,0.6,0.4
2025-02-22T0500,1127A,125.245,43.7783,长春市,高新区管委会,细颗粒物(PM2.5),82,66,44,60,35,8,,,,53,34,7,9,1.3,0.9
2025-02-22T0500,1128A,125.1761,43.8325,长春市,岱山公园,细颗粒物(PM2.5),85,66,52,63,39,8,,,,66,43,6,8,0.8,0.7
2025-02-22T0500,1335A,113.0833,28.2325,长沙市,经开区环保局,,32,32,101,22,83,45,,,,21,36,3,4,0.5,0.6
2025-02-22T0500,1336A,112.8872,28.2189,长沙市,高开区环保局,细颗粒物(PM2.5),58,51,98,41,85,26,,,,20,19,3,4,0.7,0.7
2025-02-22T0500,1337A,113.0792,28.2053,长沙市,马坡岭,,38,38,104,23,80,47,,,,16,31,2,3,0.4,0.6
2025-02-22T0500,1338A,112.9394,28.19,长沙市,湖南师范大学,,35,30,105,24,78,47,,,,8,18,4,4,0.6,0.7
2025-02-22T0500,1339A,113.0178,28.1322,长沙市,雨花区环保局,,40,40,97,26,76,47,,,,13,27,4,4,0.4,0.6
2025-02-22T0500,1340A,112.9792,28.2597,长沙市,伍家岭,,42,38,104,29,84,37,,,,12,23,3,4,0.6,0.7
2025-02-22T0500,1341A,113.0014,28.1944,长沙市,火车新站,,40,40,102,27,82,48,,,,14,26,4,4,0.6,0.8
2025-02-22T0500,1342A,112.9844,28.1178,长沙市,天心区环保局,,46,34,100,32,81,48,,,,18,31,3,3,0.5,0.7
2025-02-22T0500,1343A,112.8908,28.1308,长沙市,湖南中医药大学,颗粒物(PM10),52,53,111,29,81,25,,,,20,23,3,3,0.8,0.9
2025-02-22T0500,1344A,112.9581,28.3611,长沙市,沙坪,细颗粒物(PM2.5),59,56,107,42,83,37,,,,13,19,7,7,0.7,0.8
2025-02-22T0500,1727A,113.1147,36.1547,长治市,清华站,细颗粒物(PM2.5),149,128,99,114,95,20,,,,35,21,8,10,1.2,1
2025-02-22T0500,1730A,113.0886,36.2125,长治市,审计局,细颗粒物(PM2.5),170,,96,129,103,23,,,,34,21,4,6,1.2,1.1
2025-02-22T0500,1731A,113.0844,36.1856,长治市,长治八中,细颗粒物(PM2.5),156,126,111,119,106,26,,,,30,19,7,8,1.3,1
2025-02-22T0500,2845A,113.1569,36.1911,长治市,德盛苑,细颗粒物(PM2.5),170,135,108,129,100,34,,,,28,23,3,4,1.3,1.3
2025-02-22T0500,3568A,113.06,36.0464,长治市,向阳小学,细颗粒物(PM2.5),152,129,122,116,108,55,,,,21,25,7,9,0.9,1
2025-02-22T0500,3569A,112.8792,36.3144,长治市,屯留一中,细颗粒物(PM2.5),180,,96,136,99,19,,,,46,33,5,6,1.8,1
2025-02-22T0500,4189A,113.1131,36.19948,长治市,英华南巷50号,细颗粒物(PM2.5),178,140,102,134,99,17,,,,47,27,8,9,1.5,1.3
2025-02-22T0500,4190A,113.2367,36.3344,长治市,学府街1号,细颗粒物(PM2.5),166,,113,126,103,22,,,,30,27,1,3,1.4,1.3
2025-02-22T0500,1854A,111.6975,28.9703,常德市,市二中,颗粒物(PM10),74,98,129,44,86,62,,,,14,16,3,4,0.5,0.6
2025-02-22T0500,1857A,111.7158,29.1456,常德市,白鹤山,,,,,,,,,,,,,,,,
2025-02-22T0500,3138A,111.7153,29.0289,常德市,武陵区永安,细颗粒物(PM2.5),88,80,115,65,93,63,,,,17,19,2,3,0.5,0.6
2025-02-22T0500,3139A,111.6892,28.9881,常德市,鼎城区玉霞,细颗粒物(PM2.5),79,83,110,58,89,64,,,,12,18,3,4,0.5,0.6
2025-02-22T0500,3140A,111.6625,29.0531,常德市,武陵区长庚,细颗粒物(PM2.5),73,81,117,53,90,65,,,,18,23,3,3,0.5,0.5
2025-02-22T0500,1196A,119.9633,31.762,常州市,市监测站,细颗粒物(PM2.5),77,100,59,56,33,49,,,,41,34,9,8,0.6,0.5
2025-02-22T0500,1200A,119.9468,31.7069,常州市,武进监测站,细颗粒物(PM2.5),60,63,43,43,28,56,,,,29,27,6,7,0.3,0.4
2025-02-22T0500,1201A,119.9255,31.9087,常州市,安家,细颗粒物(PM2.5),67,70,46,48,28,55,,,,30,29,7,7,0.4,0.5
2025-02-22T0500,3002A,119.9805,31.8174,常州市,行政中心,细颗粒物(PM2.5),65,75,48,47,30,50,,,,32,25,10,10,0.5,0.5
2025-02-22T0500,3003A,120.0522,31.7748,常州市,经开区,细颗粒物(PM2.5),69,71,48,50,26,53,,,,37,29,6,6,0.4,0.4
2025-02-22T0500,3010A,119.9025,31.7964,常州市,钟楼,细颗粒物(PM2.5),68,78,50,49,30,49,,,,35,29,8,7,0.8,0.7
2025-02-22T0500,3429A,119.8598,31.7066,常州市,武进经发区,细颗粒物(PM2.5),69,75,51,50,32,58,,,,34,31,7,7,0.5,0.6
2025-02-22T0500,3430A,119.5826,31.7245,常州市,金坛城区,细颗粒物(PM2.5),58,57,45,41,31,79,,,,18,24,7,7,0.4,0.5
2025-02-22T0500,2220A,120.4318,41.5881,朝阳市,西梁,,45,45,37,21,13,14,,,,41,20,7,6,1.1,0.5
2025-02-22T0500,2221A,120.4521,41.5646,朝阳市,河畔小区,,26,25,29,18,16,2,,,,47,20,5,6,1.1,0.8
2025-02-22T0500,2222A,120.4176,41.5648,朝阳市,八里堡,,30,29,36,21,17,14,,,,42,24,7,7,0.5,0.2
2025-02-22T0500,2223A,120.3806,41.5969,朝阳市,农业园区,,21,21,26,9,15,50,,,,16,17,5,6,0.6,0.6
2025-02-22T0500,1705A,116.6367,23.6719,潮州市,西园路,,26,,34,18,34,60,,,,14,18,5,7,0.2,0.3
2025-02-22T0500,3026A,116.6183,23.6608,潮州市,市政府,,19,12,35,9,25,58,,,,15,21,5,8,0.6,0.7
2025-02-22T0500,4036A,116.6461,23.6761,潮州市,金山,,19,,33,12,27,58,,,,12,15,6,8,0.4,0.6
2025-02-22T0500,2472A,113.0073,25.9061,郴州市,马头岭,,38,38,45,16,19,39,,,,22,22,8,7,0.6,0.7
2025-02-22T0500,2473A,113.0116,25.8226,郴州市,市职中,,43,31,33,30,31,26,,,,16,16,4,4,0.7,0.8
2025-02-22T0500,2475A,113.0383,25.8071,郴州市,市审计局,,38,35,34,26,30,34,,,,14,19,5,3,0.6,0.8
2025-02-22T0500,2476A,113.0348,25.7759,郴州市,市环保局,细颗粒物(PM2.5),53,,35,37,39,26,,,,13,18,3,3,0.8,0.9
2025-02-22T0500,4252A,113.0138,25.8011,郴州市,好美居路49号,细颗粒物(PM2.5),52,40,41,36,42,31,,,,18,21,10,5,0.7,0.8
2025-02-22T0500,1431A,103.9728,30.7236,成都市,金泉两河,,19,18,32,13,19,34,,,,10,21,2,2,0.5,0.5
2025-02-22T0500,1432A,104.176,30.6872,成都市,十里店,,16,12,31,11,21,39,,,,10,22,2,2,0.6,0.6
2025-02-22T0500,1433A,104.079,30.5706,成都市,三瓦窑,,15,6,32,3,22,48,,,,9,26,3,3,0.7,0.8
2025-02-22T0500,1434A,104.1114,30.63,成都市,沙河铺,,25,,36,17,27,41,,,,12,26,4,4,0.5,0.6
2025-02-22T0500,1437A,104.0786,30.6531,成都市,君平街,,23,16,33,16,28,43,,,,10,28,5,5,0.5,0.5
2025-02-22T0500,1438A,103.613,31.0283,成都市,灵岩寺,,,,,,,,,,,,,,,,
2025-02-22T0500,2880A,104.0239,30.65639,成都市,大石西路,,14,14,36,8,24,39,,,,15,29,4,4,0.6,0.6
2025-02-22T0500,3136A,104.2725,30.5589,成都市,龙泉驿区区政府,,14,,21,9,16,43,,,,12,20,3,3,0.6,0.7
2025-02-22T0500,3357A,104.0106,30.6931,成都市,金博路,,16,,22,11,17,33,,,,12,26,2,2,0.5,0.5
2025-02-22T0500,3359A,104.0578,30.5225,成都市,华阳,,28,,29,19,27,40,,,,18,32,6,6,0.6,0.6
2025-02-22T0500,3488A,104.3853,30.7453,成都市,青白江技师分院,,20,20,23,3,18,38,,,,9,15,5,5,0.5,0.4
2025-02-22T0500,3489A,104.0789,30.4072,成都市,科学城,,22,16,34,15,28,45,,,,13,29,4,4,0.7,0.7
2025-02-22T0500,4011A,103.8506,30.6947,成都市,光华大道三段,,12,8,28,3,17,37,,,,11,21,4,4,0.5,0.5
2025-02-22T0500,4224A,104.2433,30.5353,成都市,鲸龙路1057号,,16,15,31,11,21,37,,,,16,25,1,1,0.6,0.7
2025-02-22T0500,1062A,117.9531,40.9081,承德市,铁路,,23,23,22,13,8,42,,,,15,10,4,4,0.4,0.3
2025-02-22T0500,1063A,117.9392,40.9763,承德市,中国银行,,27,27,21,15,9,35,,,,15,10,1,2,0.4,0.3
2025-02-22T0500,1064A,117.9503,40.928,承德市,开发区,,33,32,29,23,17,31,,,,27,14,2,3,0.4,0.3
2025-02-22T0500,1065A,117.8051,40.9655,承德市,文化中心,颗粒物(PM10),53,55,34,20,9,18,,,,34,16,3,2,0.4,0.3
2025-02-22T0500,1066A,117.9268,41.0026,承德市,离宫,,29,,19,20,15,48,,,,11,6,3,4,0.3,0.2
2025-02-22T0500,2314A,117.47,30.6618,池州市,池州学院,细颗粒物(PM2.5),63,,29,45,28,42,,,,17,15,4,5,0.6,0.5
2025-02-22T0500,3237A,117.4918,30.6617,池州市,展览馆,细颗粒物(PM2.5),65,54,36,47,29,44,,,,14,13,5,5,0.6,0.5
2025-02-22T0500,3333A,117.5627,30.695,池州市,第八中学,细颗粒物(PM2.5),62,53,33,44,29,36,,,,20,15,4,4,0.6,0.4
2025-02-22T0500,3334A,117.5038,30.6243,池州市,第十二中学,细颗粒物(PM2.5),60,52,32,43,28,39,,,,16,13,5,4,0.6,0.5
2025-02-22T0500,1744A,118.9233,42.2816,赤峰市,松山一中,,32,27,22,22,8,28,,,,30,20,15,11,1.0,0.7
2025-02-22T0500,1745A,118.9576,42.2728,赤峰市,哈达街,,19,17,17,13,7,36,,,,14,17,8,7,0.6,0.4
2025-02-22T0500,1746A,118.8788,42.2554,赤峰市,天义路,,17,17,18,11,7,30,,,,19,15,14,10,0.8,0.6
2025-02-22T0500,3058A,119.2658,42.0353,赤峰市,银河街,,34,34,31,23,13,26,,,,29,17,18,17,1.2,0.8
2025-02-22T0500,3286A,118.9359,42.3147,赤峰市,桥北物流园区,,14,14,18,7,10,36,,,,17,19,11,6,0.7,0.6
2025-02-22T0500,2521A,107.3476,22.4136,崇左市,市环保局江州分局,,42,42,22,23,11,20,,,,13,10,5,4,0.9,0.8
2025-02-22T0500,4256A,107.3750,22.3736,崇左市,石景林东路7号,,48,48,23,22,14,24,,,,14,14,4,4,0.7,0.6
2025-02-22T0500,2298A,118.3093,32.3153,滁州市,老年大学,细颗粒物(PM2.5),80,82,64,59,47,10,,,,42,31,2,2,0.7,0.6
2025-02-22T0500,2299A,118.3244,32.2786,滁州市,人大宾馆,细颗粒物(PM2.5),85,80,58,63,48,6,,,,68,38,8,8,0.8,0.8
2025-02-22T0500,3207A,118.3118,32.3038,滁州市,市政府原办公楼,细颗粒物(PM2.5),74,67,54,54,44,13,,,,57,41,4,6,0.6,0.6
2025-02-22T0500,3331A,118.3267,32.2634,滁州市,图书馆,细颗粒物(PM2.5),80,83,61,59,44,5,,,,57,33,6,6,0.9,0.8
2025-02-22T0500,2605A,101.5482,25.0441,楚雄彝族自治州,州环境监测站,,48,40,40,33,32,55,,,,18,15,6,7,0.6,0.5
2025-02-22T0500,2606A,101.538,25.0492,楚雄彝族自治州,市经济开发区,细颗粒物(PM2.5),52,,44,36,33,52,,,,16,17,6,7,0.5,0.6
2025-02-22T0500,2548A,107.5277,31.2827,达州市,达州职业技术学院,,45,45,46,30,27,5,,,,21,25,5,5,0.5,0.6
2025-02-22T0500,2549A,107.5086,31.2186,达州市,市环境监测站,,39,37,49,27,26,12,,,,34,43,4,5,0.5,0.7
2025-02-22T0500,2550A,107.4988,31.2132,达州市,凤凰小区,,42,31,44,29,29,23,,,,27,40,6,6,0.6,0.8
2025-02-22T0500,2551A,107.5082,31.1986,达州市,达县机关宾馆,,43,,45,30,28,17,,,,33,40,4,5,0.6,0.7
2025-02-22T0500,2552A,107.4644,31.2124,达州市,市政中心,,40,40,49,24,25,6,,,,40,42,2,2,0.8,0.9
2025-02-22T0500,2614A,100.1542,25.7054,大理白族自治州,大理市环境监测站,,36,34,32,25,23,81,,,,4,6,7,6,0.4,0.4
2025-02-22T0500,2615A,100.2171,25.5811,大理白族自治州,大理古城,,34,31,29,22,22,106,,,,2,8,6,6,0.5,0.5
2025-02-22T0500,1109A,121.612,38.9741,大连市,甘井子,,33,33,38,20,20,58,,,,20,20,8,9,0.6,0.6
2025-02-22T0500,1110A,121.565,38.9511,大连市,周水子,,28,27,33,19,21,56,,,,17,24,7,8,0.6,0.6
2025-02-22T0500,1111A,121.5637,38.8845,大连市,星海三站,,28,28,34,16,20,61,,,,12,18,9,13,0.7,0.6
2025-02-22T0500,1112A,121.6302,38.9117,大连市,青泥洼桥,,37,37,37,21,20,62,,,,8,14,11,13,0.3,0.4
2025-02-22T0500,1113A,121.6251,38.8638,大连市,傅家庄,,28,28,30,19,14,58,,,,14,16,5,7,0.5,0.6
2025-02-22T0500,1114A,121.5213,38.8661,大连市,七贤岭,,27,27,29,16,17,68,,,,8,12,9,10,0.6,0.7
2025-02-22T0500,1115A,121.2529,38.8061,大连市,旅顺,,28,24,27,19,21,59,,,,12,14,7,9,0.7,0.7
2025-02-22T0500,1116A,121.7485,39.1311,大连市,金州,细颗粒物(PM2.5),63,64,42,45,22,63,,,,16,16,7,8,1.0,0.9
2025-02-22T0500,1117A,121.7811,39.0496,大连市,开发区,,36,33,33,25,22,58,,,,12,15,12,13,0.8,0.8
2025-02-22T0500,1118A,121.9762,39.0631,大连市,双D港,,41,41,38,25,21,61,,,,16,14,12,12,0.7,0.7
2025-02-22T0500,1789A,124.81117,46.03138,大庆市,大同区,,49,43,37,34,32,48,,,,17,15,3,4,0.7,0.6
2025-02-22T0500,1790A,125.129,46.533,大庆市,龙凤区,,38,38,33,21,23,48,,,,31,32,8,9,0.5,0.5
2025-02-22T0500,1791A,124.902,46.408,大庆市,红岗区,,40,33,34,28,22,63,,,,12,15,3,4,0.4,0.5
2025-02-22T0500,1792A,125.153,46.586,大庆市,萨尔图区,,35,,36,24,22,58,,,,24,34,4,5,0.4,0.5
2025-02-22T0500,1793A,124.9042,46.6215,大庆市,让胡路区,细颗粒物(PM2.5),53,,36,37,33,56,,,,14,17,7,7,0.4,0.4
2025-02-22T0500,3481A,125.141,46.634,大庆市,萨区政府监测点,,47,47,37,22,24,35,,,,41,29,4,5,0.9,0.7
2025-02-22T0500,1721A,113.3819,40.1097,大同市,果树场,,18,18,23,7,11,50,,,,6,12,9,9,0.4,0.5
2025-02-22T0500,1723A,113.2994,40.0758,大同市,云冈宾馆,,18,18,27,7,9,51,,,,14,18,11,13,0.8,0.7
2025-02-22T0500,1724A,113.3444,40.0917,大同市,大同大学,,19,19,21,7,10,50,,,,12,15,21,16,0.5,0.5
2025-02-22T0500,1725A,113.2661,40.1269,大同市,安家小村,,34,34,31,7,9,40,,,,18,13,10,10,1.0,0.4
2025-02-22T0500,1726A,113.2711,40.0844,大同市,教育学院,,24,24,30,8,12,44,,,,22,19,11,10,0.6,0.7
2025-02-22T0500,3282A,113.3397,40.0597,大同市,大同市卫生学校,,14,13,22,8,10,42,,,,25,16,11,11,0.5,0.4
2025-02-22T0500,3565A,113.1367,40.1122,大同市,云冈站,,43,43,28,18,11,26,,,,27,17,26,20,0.9,0.6
2025-02-22T0500,3566A,113.1186,40.2556,大同市,图书馆,,26,26,28,15,14,34,,,,12,12,9,11,0.6,0.5
2025-02-22T0500,3567A,113.5931,40.0461,大同市,区一中,,18,,39,12,15,52,,,,10,9,14,16,0.4,0.4
2025-02-22T0500,4199A,113.2798,40.0997,大同市,魏都大道141号,,20,20,31,12,13,43,,,,21,18,12,14,0.8,0.6
2025-02-22T0500,2269A,124.1069,50.4097,大兴安岭地区,科技局,,25,,18,17,16,66,,,,3,4,4,4,0.3,0.3
2025-02-22T0500,3663A,124.1164,50.4278,大兴安岭地区,红旗社区,,15,9,13,3,8,47,,,,26,14,16,8,0.3,0.4
2025-02-22T0500,1600A,124.3303,40.0625,丹东市,江湾东路,,43,43,39,28,24,65,,,,13,14,14,11,0.5,0.5
2025-02-22T0500,1601A,124.4256,40.1503,丹东市,临江后街,,36,36,32,24,20,55,,,,19,15,12,12,0.6,0.6
2025-02-22T0500,1602A,124.3933,40.1461,丹东市,元宝山,,32,32,28,21,18,57,,,,13,12,9,9,0.8,0.8
2025-02-22T0500,1603A,124.3633,40.1092,丹东市,民主桥,,38,38,34,23,17,52,,,,20,16,5,5,0.9,0.9
2025-02-22T0500,3541A,109.5726,19.5167,儋州市,第一中学子站,,26,26,31,14,15,71,,,,4,4,3,3,0.6,0.6
2025-02-22T0500,3542A,109.5567,19.5187,儋州市,东坡学校子站,,26,20,31,14,16,81,,,,3,4,2,2,0.5,0.6
2025-02-22T0500,2616A,98.5842,24.428,德宏傣族景颇族自治州,德宏州监测站,细颗粒物(PM2.5),88,81,96,65,61,29,,,,35,33,14,16,0.9,1
2025-02-22T0500,3677A,98.5881,24.4368,德宏傣族景颇族自治州,芒市人民政府综合楼,细颗粒物(PM2.5),73,81,86,53,50,52,,,,12,17,7,12,0.7,0.7
2025-02-22T0500,1901A,104.4239,31.1208,德阳市,东山公园,,30,,24,21,26,40,,,,12,11,2,2,0.6,0.6
2025-02-22T0500,1902A,104.3826,31.1317,德阳市,西小区,,35,,35,24,28,35,,,,15,20,3,3,0.5,0.5
2025-02-22T0500,1904A,104.3553,31.1091,德阳市,耐火材料厂,,28,23,35,19,29,30,,,,12,20,3,3,0.5,0.5
2025-02-22T0500,3639A,104.4019,31.1244,德阳市,市教育局,,32,23,30,22,25,38,,,,17,20,3,3,0.5,0.5
2025-02-22T0500,1622A,116.3032,37.4674,德州市,儿童乐园,,45,41,65,31,36,32,,,,33,28,4,10,0.8,0.9
2025-02-22T0500,1624A,116.2991,37.4451,德州市,监理站,,45,36,57,31,36,36,,,,34,31,9,14,0.6,0.7
2025-02-22T0500,3066A,116.2721,37.4379,德州市,九衢泉纯净水厂,,42,39,60,29,34,45,,,,25,31,8,15,0.5,0.6
2025-02-22T0500,3371A,116.3728,37.4403,德州市,开发区人民医院,细颗粒物(PM2.5),55,53,62,39,35,41,,,,34,31,10,15,0.9,0.9
2025-02-22T0500,3372A,116.3572,37.4094,德州市,太阳城中学,,39,39,61,27,36,55,,,,16,27,9,13,1.0,1.1
2025-02-22T0500,3511A,116.5652,37.3319,德州市,陵城艺术中心,,42,29,58,29,34,54,,,,14,24,7,15,0.6,0.7
2025-02-22T0500,2621A,99.7056,27.8317,迪庆藏族自治州,迪庆州站,,29,17,28,15,17,92,,,,6,9,7,7,0.3,0.3
2025-02-22T0500,3180A,99.7136,27.8094,迪庆藏族自治州,质量技术监督局,,28,,22,12,14,88,,,,5,9,8,8,0.1,0.2
2025-02-22T0500,2663A,104.6241,35.5734,定西市,东关小学,颗粒物(PM10),56,61,53,26,30,89,,,,6,8,8,10,0.5,0.7
2025-02-22T0500,4257A,104.6092,35.5962,定西市,将台街,颗粒物(PM10),60,69,50,36,31,80,,,,14,15,13,15,0.3,0.5
2025-02-22T0500,1389A,113.7547,23.0494,东莞市,莞城梨川,,24,24,31,14,17,36,,,,16,18,6,5,0.5,0.6
2025-02-22T0500,1390A,113.7944,23.0128,东莞市,东城石井,,30,30,28,17,14,32,,,,22,21,11,9,0.5,0.6
2025-02-22T0500,1391A,113.7383,22.9658,东莞市,南城西平,,29,29,30,18,16,19,,,,43,36,1,2,0.4,0.5
2025-02-22T0500,3319A,113.7338,23.0381,东莞市,万江金泰,,24,24,26,12,13,38,,,,18,18,4,3,0.5,0.6
2025-02-22T0500,3626A,113.7533,23.0202,东莞市,南城元岭,,25,25,27,16,14,31,,,,18,17,6,5,0.6,0.7
2025-02-22T0500,3627A,113.7875,23.0457,东莞市,东城主山,,23,23,27,13,12,35,,,,17,18,7,6,0.4,0.4
2025-02-22T0500,1666A,118.6614,37.4309,东营市,市环保局,,29,29,37,14,20,56,,,,16,20,2,10,0.3,0.4
2025-02-22T0500,3036A,118.6904,37.4338,东营市,开发区管委会,,32,27,40,22,25,61,,,,19,22,1,7,0.5,0.5
2025-02-22T0500,3365A,118.5719,37.565,东营市,垦利区民丰路,,31,31,35,12,16,38,,,,28,26,15,17,0.5,0.5
2025-02-22T0500,3498A,118.5055,37.8612,东营市,河口城区,,31,31,38,15,15,57,,,,18,18,3,5,0.6,0.6
2025-02-22T0500,3646A,118.4978,37.4623,东营市,胜利站,,28,25,48,19,21,57,,,,18,22,7,12,0.5,0.7
2025-02-22T0500,3734A,118.35,37.26,东营市,理想之城,,36,36,42,19,23,46,,,,23,27,5,11,0.5,0.6
2025-02-22T0500,1591A,110.0023,39.8129,鄂尔多斯市,综合楼,,31,31,47,9,15,53,,,,20,22,13,13,0.5,0.5
2025-02-22T0500,1592A,109.9486,39.8261,鄂尔多斯市,巴音孟克林场办事处,,46,46,44,9,14,40,,,,34,26,14,14,0.4,0.4
2025-02-22T0500,1593A,109.7736,39.5986,鄂尔多斯市,康泽苑,,27,27,32,17,12,51,,,,21,13,14,8,0.6,0.4
2025-02-22T0500,1594A,109.8119,39.5989,鄂尔多斯市,华泰汽车城,,29,29,36,14,15,46,,,,22,18,18,7,0.6,0.4
2025-02-22T0500,1595A,109.9734,39.7884,鄂尔多斯市,奥林花园,,27,27,45,9,14,62,,,,13,21,9,11,0.4,0.5
2025-02-22T0500,2436A,114.8938,30.3994,鄂州市,市政府,细颗粒物(PM2.5),63,58,54,45,46,51,,,,22,26,5,5,0.6,0.7
2025-02-22T0500,2437A,114.8989,30.3714,鄂州市,赵家坝,细颗粒物(PM2.5),58,,54,41,46,49,,,,12,16,4,4,0.6,0.8
2025-02-22T0500,3654A,114.8094,30.4089,鄂州市,精准医疗中心,细颗粒物(PM2.5),60,,64,43,53,33,,,,33,26,6,5,0.4,0.9
2025-02-22T0500,2454A,109.4978,30.2981,恩施土家族苗族自治州,湖北民院,细颗粒物(PM2.5),69,,39,50,45,37,,,,6,16,5,6,0.7,0.7
2025-02-22T0500,2455A,109.4707,30.2798,恩施土家族苗族自治州,州电力总公司,细颗粒物(PM2.5),68,52,51,49,48,36,,,,10,18,6,6,0.4,0.4
2025-02-22T0500,3549A,109.5061,30.3772,恩施土家族苗族自治州,龙凤新区,,40,39,41,28,29,26,,,,11,16,7,7,0.6,0.7
2025-02-22T0500,2499A,108.3411,21.6158,防城港市,沙万,细颗粒物(PM2.5),58,41,36,41,26,25,,,,16,14,9,8,0.9,0.8
2025-02-22T0500,2500A,108.3514,21.7731,防城港市,防城档案局,颗粒物(PM10),58,66,44,23,19,14,,,,20,15,4,4,0.9,0.8
2025-02-22T0500,2501A,108.3506,21.6414,防城港市,大海花园,细颗粒物(PM2.5),64,48,38,46,31,30,,,,13,11,5,5,1.0,0.9
2025-02-22T0500,1371A,113.1294,23.0067,佛山市,湾梁,,27,27,39,13,15,14,,,,44,36,8,8,0.8,0.8
2025-02-22T0500,1372A,113.1083,23.0478,佛山市,华材职中,,29,29,37,15,16,12,,,,48,40,10,9,0.6,0.6
2025-02-22T0500,1373A,113.144,23.0453,佛山市,南海气象局,,22,22,29,12,16,10,,,,37,29,9,9,0.5,0.6
2025-02-22T0500,1374A,113.2881,22.8094,佛山市,顺德苏岗,,30,30,47,14,21,2,,,,51,41,6,5,0.7,0.7
2025-02-22T0500,1376A,112.8383,22.8678,佛山市,高明孔堂,,24,24,37,15,20,21,,,,27,27,8,8,0.9,1
2025-02-22T0500,1377A,112.8836,23.1588,佛山市,三水监测站,,23,22,28,16,14,27,,,,30,28,3,3,0.6,0.7
2025-02-22T0500,1378A,112.867,23.185,佛山市,三水云东海,,29,23,21,20,15,26,,,,30,28,4,3,0.6,0.7
2025-02-22T0500,3625A,113.2544,22.7642,佛山市,容桂街道办,,39,39,50,22,26,14,,,,47,45,7,7,0.7,0.8
2025-02-22T0500,1280A,119.3903,26.0543,福州市,鼓山,,,,9,,6,,,72,,,5,,3,,0.3
2025-02-22T0500,1282A,119.2681,26.0504,福州市,师大,,26,26,17,18,11,70,,,,11,16,3,3,0.5,0.4
2025-02-22T0500,1283A,119.2984,26.1028,福州市,五四北路,,32,30,16,22,11,71,,,,10,14,4,3,0.6,0.5
2025-02-22T0500,1284A,119.2648,26.0768,福州市,杨桥西路,,30,30,16,18,11,70,,,,11,14,4,3,0.5,0.4
2025-02-22T0500,1285A,119.317,26.0746,福州市,紫阳,,35,35,17,23,11,72,,,,11,16,4,3,0.6,0.5
2025-02-22T0500,3048A,119.5799,26.0936,福州市,九龙,,30,30,16,21,9,62,,,,11,12,4,4,0.6,0.4
2025-02-22T0500,3526A,119.5189,25.9664,福州市,吴航,,32,32,17,22,13,70,,,,11,11,4,3,0.5,0.4
2025-02-22T0500,1755A,123.7977,41.8491,抚顺市,望花区,细颗粒物(PM2.5),87,120,68,64,42,6,,,,48,35,3,4,1.4,1.2
2025-02-22T0500,1756A,123.9161,41.8822,抚顺市,顺城区,细颗粒物(PM2.5),77,93,67,56,40,7,,,,52,42,7,7,1.1,1
2025-02-22T0500,1757A,124.0436,41.8611,抚顺市,东洲区,细颗粒物(PM2.5),62,56,66,44,40,40,,,,13,23,3,6,0.7,0.8
2025-02-22T0500,1758A,123.9247,41.8642,抚顺市,新抚区,细颗粒物(PM2.5),68,73,62,49,38,9,,,,50,37,2,4,0.9,0.8
2025-02-22T0500,1759A,124.0972,41.8961,抚顺市,大伙房水库,细颗粒物(PM2.5),55,47,50,39,35,18,,,,44,24,5,6,0.7,0.7
2025-02-22T0500,1760A,123.7086,41.8391,抚顺市,沈抚新城,细颗粒物(PM2.5),69,63,56,50,51,8,,,,49,41,2,4,0.9,0.9
2025-02-22T0500,2376A,116.2127,28.0814,抚州市,桐源党溪,,27,27,29,11,13,39,,,,3,2,6,2,0.5,0.6
2025-02-22T0500,2377A,116.3544,27.9831,抚州市,市站,,24,24,23,15,12,47,,,,14,12,9,13,0.7,0.7
2025-02-22T0500,2378A,116.3565,27.963,抚州市,血防站,,35,35,29,14,13,48,,,,14,14,11,12,0.8,0.8
2025-02-22T0500,2379A,116.3564,28.0007,抚州市,采茶剧团,,24,24,21,12,14,37,,,,7,7,9,14,0.5,0.5
2025-02-22T0500,2380A,116.385,27.9647,抚州市,医学分院,,28,28,25,13,11,40,,,,12,9,6,6,0.9,0.8
2025-02-22T0500,2207A,121.6094,41.998,阜新市,工业园区,,35,35,42,22,24,30,,,,24,20,8,10,0.5,0.4
2025-02-22T0500,2208A,121.6697,42.0279,阜新市,长青街,,17,16,35,10,14,54,,,,11,13,6,6,0.4,0.4
2025-02-22T0500,2209A,121.6673,42.0705,阜新市,农业园区,,18,11,18,3,4,57,,,,7,7,8,9,0.2,0.2
2025-02-22T0500,2210A,121.6717,42.0224,阜新市,东苑,,23,23,39,7,12,50,,,,12,15,5,5,0.8,0.7
2025-02-22T0500,2211A,121.6506,42.0498,阜新市,玉龙新城,颗粒物(PM10),51,52,54,9,23,22,,,,33,28,4,6,0.7,0.7
2025-02-22T0500,2301A,115.8277,32.8929,阜阳市,市监测站,细颗粒物(PM2.5),63,64,64,45,51,35,,,,22,21,6,6,0.4,0.4
2025-02-22T0500,2303A,115.8554,32.8605,阜阳市,开发区,细颗粒物(PM2.5),65,75,77,47,49,41,,,,20,24,6,6,0.4,0.5
2025-02-22T0500,2875A,115.784,32.8892,阜阳市,阜阳职业技术学院,细颗粒物(PM2.5),63,66,64,45,46,36,,,,19,19,6,6,0.4,0.4
2025-02-22T0500,3468A,115.7901,32.8613,阜阳市,市规划展馆,细颗粒物(PM2.5),68,66,64,49,47,48,,,,20,20,7,7,0.3,0.3
2025-02-22T0500,3469A,115.836,32.9183,阜阳市,枣园社区,细颗粒物(PM2.5),68,68,69,49,48,35,,,,20,20,4,5,0.5,0.5
2025-02-22T0500,2669A,102.9099,34.9841,甘南藏族自治州,州政府,,33,33,47,21,20,67,,,,5,13,10,12,0.3,0.5
2025-02-22T0500,3380A,102.8914,34.9617,甘南藏族自治州,甘肃民族师范学院,,22,22,48,7,16,65,,,,16,19,4,7,0.5,0.4
2025-02-22T0500,2570A,101.9603,30.0475,甘孜藏族自治州,水桥子,,19,19,13,6,5,50,,,,11,13,3,3,0.5,0.4
2025-02-22T0500,3065A,101.9533,29.9972,甘孜藏族自治州,州环保局,,17,,14,6,6,52,,,,8,10,4,4,0.5,0.5
2025-02-22T0500,3414A,115.8347,28.932,赣江新区,桑海产业园,,40,29,36,28,31,21,,,,19,22,5,4,0.6,0.6
2025-02-22T0500,2362A,114.9017,25.9149,赣州市,通天岩,,20,20,19,3,4,37,,,,6,6,8,8,0.6,0.6
2025-02-22T0500,2363A,114.9367,25.8664,赣州市,地委,,29,29,25,16,13,41,,,,5,6,8,7,0.8,0.7
2025-02-22T0500,2364A,114.9461,25.8481,赣州市,气象台,,32,32,30,14,11,48,,,,9,13,7,7,0.5,0.5
2025-02-22T0500,2365A,114.9322,25.8333,赣州市,市图书馆,,26,21,21,18,15,49,,,,10,13,4,4,0.6,0.6
2025-02-22T0500,2366A,114.8905,25.8471,赣州市,华坚鞋城,,25,22,22,17,12,41,,,,7,8,4,5,0.5,0.4
2025-02-22T0500,3109A,115.0093,25.8613,赣州市,赣县区卫计委,,30,,16,21,14,40,,,,7,10,2,2,0.3,0.4
2025-02-22T0500,2683A,106.2319,36.1417,固原市,马园,颗粒物(PM10),59,68,60,23,45,53,,,,16,26,6,7,0.5,0.7
2025-02-22T0500,2684A,106.2792,36.0022,固原市,监测站,颗粒物(PM10),59,68,46,34,44,58,,,,17,17,6,6,0.6,0.7
2025-02-22T0500,2685A,106.2375,36.0211,固原市,新区,颗粒物(PM10),55,59,46,28,40,58,,,,14,17,6,6,0.6,0.8
2025-02-22T0500,3522A,106.2177,35.9959,固原市,原州区十五小,,46,43,53,32,44,65,,,,18,18,10,10,0.7,0.8
2025-02-22T0500,2543A,106.6308,30.5278,广安市,小平旧居,,,,,,,,,,,,,,,,
2025-02-22T0500,2544A,106.6303,30.4576,广安市,市委,细颗粒物(PM2.5),53,42,41,37,30,41,,,,14,18,4,4,0.6,0.6
2025-02-22T0500,2545A,106.6271,30.4663,广安市,友谊中学,细颗粒物(PM2.5),55,44,43,39,34,42,,,,15,22,2,2,0.6,0.7
2025-02-22T0500,2547A,106.6388,30.4551,广安市,广电花园,细颗粒物(PM2.5),58,42,41,41,32,40,,,,14,22,4,4,0.7,0.7
2025-02-22T0500,2902A,106.6351,30.4865,广安市,北辰小学,细颗粒物(PM2.5),54,44,43,38,32,43,,,,13,18,5,5,0.7,0.7
2025-02-22T0500,2523A,105.8945,32.4535,广元市,黑石坡,,49,34,55,34,43,4,,,,19,26,10,9,0.7,0.7
2025-02-22T0500,2524A,105.821,32.4444,广元市,老城,细颗粒物(PM2.5),78,75,67,57,48,52,,,,13,34,1,1,0.3,0.4
2025-02-22T0500,2526A,105.8628,32.4287,广元市,监测站,细颗粒物(PM2.5),74,,53,54,42,50,,,,16,26,3,3,0.6,0.6
2025-02-22T0500,3617A,105.8047,32.4166,广元市,经开区,细颗粒物(PM2.5),92,,55,68,54,39,,,,19,35,1,2,0.7,0.7
2025-02-22T0500,1345A,113.2347,23.1423,广州市,广雅中学,,24,24,37,12,17,19,,,,32,33,4,5,0.5,0.6
2025-02-22T0500,1346A,113.2612,23.105,广州市,市五中,,21,21,30,12,16,19,,,,31,26,3,3,0.7,0.8
2025-02-22T0500,1348A,113.3478,23.0916,广州市,广东商学院,,21,21,28,10,15,16,,,,34,25,4,5,0.7,0.8
2025-02-22T0500,1349A,113.4332,23.1047,广州市,市八十六中,,21,21,31,12,18,16,,,,38,26,4,3,0.5,0.5
2025-02-22T0500,1350A,113.3505,22.9483,广州市,番禺中学,,24,24,38,9,17,13,,,,45,34,7,5,0.8,0.9
2025-02-22T0500,1351A,113.2146,23.3916,广州市,花都师范,,18,18,19,11,9,35,,,,15,17,8,8,0.6,0.7
2025-02-22T0500,1352A,113.2597,23.1331,广州市,市监测站,,19,19,32,11,15,20,,,,27,26,5,6,0.6,0.7
2025-02-22T0500,1353A,113.5618,23.312,广州市,九龙镇镇龙,,16,16,24,10,13,42,,,,13,18,6,5,0.5,0.6
2025-02-22T0500,1354A,113.2765,23.1544,广州市,麓湖,,21,21,33,11,15,16,,,,33,28,3,3,0.6,0.6
2025-02-22T0500,1355A,113.443,23.3035,广州市,帽峰山森林公园,,12,10,18,3,6,36,,,,6,7,8,7,0.6,0.7
2025-02-22T0500,2846A,113.3221,23.1322,广州市,体育西,,19,19,32,10,16,28,,,,20,18,4,4,0.6,0.7
2025-02-22T0500,3298A,113.5717,23.5491,广州市,从化街口,,14,13,14,9,8,44,,,,13,11,8,8,0.6,0.6
2025-02-22T0500,3299A,113.3472,23.3692,广州市,白云竹料,,19,19,19,12,11,42,,,,13,13,7,7,0.5,0.7
2025-02-22T0500,3300A,113.2981,23.237,广州市,白云嘉禾,,22,22,28,12,13,25,,,,31,27,6,6,0.6,0.6
2025-02-22T0500,3301A,113.4256,23.1716,广州市,黄埔科学城,,18,18,25,9,14,28,,,,21,19,8,7,0.6,0.6
2025-02-22T0500,3302A,113.3942,23.0483,广州市,番禺大学城,,33,33,41,11,16,14,,,,44,32,7,7,1.0,1.1
2025-02-22T0500,3303A,113.4922,22.8168,广州市,南沙黄阁,,42,42,47,22,23,35,,,,28,40,5,6,0.5,0.6
2025-02-22T0500,3304A,113.5342,22.7896,广州市,南沙街,,38,38,43,21,20,41,,,,25,38,5,7,0.6,0.7
2025-02-22T0500,3443A,113.2902,23.5544,广州市,花都梯面,,18,16,14,12,9,35,,,,14,14,14,8,0.5,0.6
2025-02-22T0500,3445A,113.7858,23.7478,广州市,从化良口,,13,13,10,9,6,34,,,,12,9,6,6,0.5,0.6
2025-02-22T0500,3446A,113.8051,23.2614,广州市,增城荔城,,16,16,20,8,10,46,,,,9,12,6,6,0.5,0.6
2025-02-22T0500,2505A,109.568,23.1478,贵港市,德智高中,,,,,,,,,,,,,,,,
2025-02-22T0500,2506A,109.6047,23.0666,贵港市,江南子站,,49,41,31,34,24,26,,,,16,20,9,8,0.6,0.6
2025-02-22T0500,2507A,109.6014,23.0948,贵港市,贵城子站,,38,29,28,26,19,24,,,,15,18,7,6,0.4,0.4
2025-02-22T0500,2508A,109.5669,23.1065,贵港市,荷城子站,,39,31,24,27,16,17,,,,7,7,9,9,0.7,0.7
2025-02-22T0500,3405A,109.5886,23.1172,贵港市,新世纪学校,,42,39,26,29,18,17,,,,13,12,8,5,0.6,0.6
2025-02-22T0500,1439A,106.6899,26.5998,贵阳市,马鞍山,,16,6,10,3,5,49,,,,6,10,3,4,0.3,0.3
2025-02-22T0500,1441A,106.6243,26.6266,贵阳市,鉴湖路,,17,7,19,3,7,54,,,,6,12,9,10,0.5,0.5
2025-02-22T0500,1442A,106.7487,26.6343,贵阳市,燕子冲,,18,,8,3,9,56,,,,4,7,5,6,0.6,0.5
2025-02-22T0500,1443A,106.6555,26.4365,贵阳市,碧云窝,,16,9,19,3,8,49,,,,9,21,6,11,0.6,0.6
2025-02-22T0500,1445A,106.7109,26.6027,贵阳市,红边门,,18,7,16,7,11,55,,,,7,14,3,7,0.7,0.7
2025-02-22T0500,1446A,106.7164,26.5699,贵阳市,新华路,,17,6,16,3,9,54,,,,4,10,4,5,0.6,0.7
2025-02-22T0500,1447A,106.674,26.5424,贵阳市,太慈桥,,17,7,16,3,9,54,,,,8,16,5,6,0.4,0.5
2025-02-22T0500,1552A,106.805,26.3003,贵阳市,桐木岭,,16,16,21,3,12,41,,,,5,6,8,11,1.0,1
2025-02-22T0500,4230A,106.6882,26.5695,贵阳市,花果园大街66号,,15,,8,3,13,47,,,,6,10,4,5,0.6,0.8
2025-02-22T0500,4231A,106.6873,26.5169,贵阳市,漓江路57号,,15,7,15,3,10,48,,,,8,16,8,10,0.5,0.6
2025-02-22T0500,1862A,110.4144,25.3167,桂林市,电子科大尧山校区,,13,,11,9,12,38,,,,9,7,4,4,0.9,0.8
2025-02-22T0500,1864A,110.3089,25.2708,桂林市,龙隐路小学,,15,12,17,9,17,48,,,,9,10,7,7,1.1,1
2025-02-22T0500,1865A,110.2869,25.2178,桂林市,八中,,20,20,20,14,15,43,,,,13,16,6,6,0.6,0.6
2025-02-22T0500,3531A,110.296,25.1253,桂林市,旅游学院,,18,,13,12,16,37,,,,13,55,5,9,0.8,0.9
2025-02-22T0500,4222A,110.1835,25.2444,桂林市,环湖路276号,,16,9,18,7,16,49,,,,9,10,6,6,0.7,0.7
2025-02-22T0500,4301A,110.2803,25.2773,桂林市,信义路13号,,18,,18,12,21,43,,,,10,13,12,12,0.6,0.5
2025-02-22T0500,2674A,100.2561,34.4714,果洛藏族自治州,玛沁县大武镇,,33,33,33,17,16,84,,,,1,4,19,21,0.5,0.5
2025-02-22T0500,1129A,126.5422,45.755,哈尔滨市,岭北,,42,34,33,29,27,65,,,,23,24,9,10,0.9,0.7
2025-02-22T0500,1130A,126.561,45.8167,哈尔滨市,松北商大,,39,39,32,27,26,34,,,,24,18,5,8,0.6,0.5
2025-02-22T0500,1131A,126.979,45.5419,哈尔滨市,阿城会宁,细颗粒物(PM2.5),92,90,82,68,62,14,,,,41,39,11,10,1.1,1
2025-02-22T0500,1132A,126.599,45.7222,哈尔滨市,南岗学府路,,35,35,36,23,18,47,,,,29,22,4,13,0.5,0.4
2025-02-22T0500,1133A,126.689,45.7733,哈尔滨市,太平宏伟公园,,28,28,34,16,22,62,,,,7,16,18,17,0.4,0.7
2025-02-22T0500,1134A,126.635,45.7667,哈尔滨市,道外承德广场,,44,44,44,24,26,56,,,,20,21,9,26,0.5,0.5
2025-02-22T0500,1135A,126.685,45.7319,哈尔滨市,香坊红旗大街,,22,22,34,12,19,63,,,,12,19,24,16,0.7,0.7
2025-02-22T0500,1136A,126.6411,45.7258,哈尔滨市,动力和平路,,26,20,32,18,22,57,,,,18,19,4,24,0.5,0.5
2025-02-22T0500,1137A,126.593,45.7478,哈尔滨市,道里建国路,,30,26,31,21,24,52,,,,17,18,1,8,0.7,0.6
2025-02-22T0500,1138A,126.615,45.61,哈尔滨市,平房东轻厂,细颗粒物(PM2.5),52,38,58,36,44,30,,,,40,43,4,11,0.9,1
2025-02-22T0500,1139A,126.595,45.9855,哈尔滨市,呼兰师专,,38,30,45,26,40,48,,,,19,27,3,4,0.6,0.6
2025-02-22T0500,1140A,126.6206,45.6842,哈尔滨市,省农科院,"颗粒物(PM10),细颗粒物(PM2.5)",52,54,46,36,32,11,,,,65,31,7,17,0.9,0.7
2025-02-22T0500,2688A,93.5128,42.8172,哈密市,地区监测站,颗粒物(PM10),58,65,80,18,23,70,,,,11,22,6,9,0.2,0.3
2025-02-22T0500,2689A,93.4961,42.8328,哈密市,哈密师范学校,,28,28,64,16,23,57,,,,25,28,17,8,0.8,0.9
2025-02-22T0500,2671A,100.9048,36.9639,海北藏族自治州,海晏县西海镇,细颗粒物(PM2.5),52,50,58,36,36,91,,,,12,13,12,15,0.8,0.7
2025-02-22T0500,3867A,102.0738,36.5056,海东市,平安区公安北苑,细颗粒物(PM2.5),73,88,76,53,50,85,,,,14,20,14,13,0.5,0.7
2025-02-22T0500,1409A,110.576,19.9507,海口市,东寨港,,26,26,26,9,10,81,,,,3,4,2,2,0.5,0.5
2025-02-22T0500,1410A,110.3232,20.0574,海口市,海南大学,,39,39,40,17,17,90,,,,8,8,3,3,0.4,0.4
2025-02-22T0500,1411A,110.283,20.0053,海口市,秀英海南医院,,29,28,38,12,15,90,,,,6,7,4,4,0.3,0.3
2025-02-22T0500,1412A,110.338,19.9969,海口市,海南师范大学,,32,32,38,14,16,94,,,,4,6,3,3,0.4,0.4
2025-02-22T0500,1413A,110.33,20.0356,海口市,龙华路环保局宿舍,,29,29,36,15,17,90,,,,5,6,4,4,0.4,0.4
2025-02-22T0500,3539A,110.5111,19.9736,海口市,桂林洋子站,,29,27,30,12,14,91,,,,3,5,3,3,0.3,0.3
2025-02-22T0500,2673A,100.6188,36.2866,海南藏族自治州,共和县恰卜恰镇,细颗粒物(PM2.5),63,62,47,45,26,95,,,,9,15,12,11,0.6,0.6
2025-02-22T0500,2676A,97.3731,37.3753,海西蒙古族藏族自治州,德令哈市,,29,29,33,18,12,71,,,,3,7,18,16,0.7,0.5
2025-02-22T0500,1048A,114.5302,36.6116,邯郸市,东污水处理厂,,45,39,70,31,54,41,,,,14,23,3,3,0.5,0.5
2025-02-22T0500,1049A,114.4918,36.5713,邯郸市,矿院,,42,42,81,29,55,48,,,,15,27,3,3,0.4,0.5
2025-02-22T0500,1050A,114.484,36.6133,邯郸市,丛台公园,,45,45,76,31,59,43,,,,13,22,7,8,0.4,0.5
2025-02-22T0500,3458A,114.7895,36.5593,邯郸市,香泉濮院小区,,43,39,61,30,45,45,,,,13,17,1,2,0.5,0.4
2025-02-22T0500,3579A,114.50634,36.77178,邯郸市,永年区实验高中,颗粒物(PM10),56,62,101,35,63,42,,,,16,33,1,4,0.8,0.9
2025-02-22T0500,3580A,114.20016,36.44293,邯郸市,峰峰矿区临水派出所,细颗粒物(PM2.5),67,52,91,48,78,48,,,,8,21,3,4,0.8,1.1
2025-02-22T0500,2634A,106.9893,33.1842,汉中市,汉川机床厂子校,细颗粒物(PM2.5),99,,87,74,90,62,,,,6,9,6,6,0.6,0.7
2025-02-22T0500,2635A,107.0154,33.0706,汉中市,市监测站,细颗粒物(PM2.5),115,,107,87,103,50,,,,18,25,6,6,1.0,1.1
2025-02-22T0500,2636A,107.0089,33.1138,汉中市,鑫源开发区,细颗粒物(PM2.5),98,,97,73,98,72,,,,12,23,4,5,0.7,0.9
2025-02-22T0500,2637A,107.007,33.0323,汉中市,南郑大河坎水厂,细颗粒物(PM2.5),127,108,115,96,98,6,,,,24,28,3,4,1.3,1.1
2025-02-22T0500,1223A,120.2072,30.2111,杭州市,滨江,细颗粒物(PM2.5),69,73,39,50,27,51,,,,31,31,8,7,0.4,0.4
2025-02-22T0500,1224A,120.0633,30.2747,杭州市,西溪,"颗粒物(PM10),细颗粒物(PM2.5)",60,70,41,43,25,54,,,,25,23,6,6,0.6,0.5
2025-02-22T0500,1226A,120.3461,30.3153,杭州市,下沙,颗粒物(PM10),54,58,38,36,24,63,,,,23,28,8,8,0.9,0.8
2025-02-22T0500,1227A,120.1269,30.2456,杭州市,卧龙桥,颗粒物(PM10),56,61,36,38,23,42,,,,27,26,6,6,0.5,0.5
2025-02-22T0500,1228A,120.1903,30.2692,杭州市,浙江农大,细颗粒物(PM2.5),59,66,47,42,27,55,,,,24,28,7,6,0.4,0.4
2025-02-22T0500,1230A,120.1197,30.3119,杭州市,和睦小学,,49,49,35,32,24,66,,,,24,28,6,6,0.6,0.5
2025-02-22T0500,1231A,120.3019,30.4183,杭州市,临平镇,细颗粒物(PM2.5),57,58,39,40,24,64,,,,20,20,5,5,0.5,0.5
2025-02-22T0500,1232A,120.2697,30.1819,杭州市,城厢镇,颗粒物(PM10),68,85,48,43,30,40,,,,44,34,8,7,0.4,0.4
2025-02-22T0500,1233A,120.0883,30.1808,杭州市,云栖,,49,49,36,33,24,22,,,,26,28,6,6,0.5,0.5
2025-02-22T0500,3557A,119.9464,30.0494,杭州市,镇二中,,49,47,33,34,21,54,,,,26,26,6,5,0.5,0.5
2025-02-22T0500,3558A,119.7183,30.2367,杭州市,市府大楼,细颗粒物(PM2.5),57,48,45,40,36,46,,,,28,32,7,6,0.5,0.6
2025-02-22T0500,3656A,120.1556,30.2864,杭州市,消防大队,细颗粒物(PM2.5),54,54,38,38,25,69,,,,26,31,6,6,0.5,0.5
2025-02-22T0500,1270A,117.1959,31.7848,合肥市,明珠广场,细颗粒物(PM2.5),55,51,49,39,34,58,,,,29,24,7,6,0.6,0.6
2025-02-22T0500,1271A,117.3072,31.8764,合肥市,三里街,细颗粒物(PM2.5),73,68,52,53,36,45,,,,30,25,5,5,0.5,0.4
2025-02-22T0500,1272A,117.2588,31.8707,合肥市,琥珀山庄,细颗粒物(PM2.5),59,44,48,42,40,61,,,,20,21,7,7,0.6,0.7
2025-02-22T0500,1273A,117.1604,31.9052,合肥市,董铺水库,颗粒物(PM10),56,61,52,34,29,47,,,,21,14,3,3,0.4,0.4
2025-02-22T0500,1274A,117.25,31.8571,合肥市,长江中路,细颗粒物(PM2.5),55,46,52,39,39,70,,,,21,24,7,7,0.6,0.6
2025-02-22T0500,1275A,117.266,31.9436,合肥市,庐阳区,细颗粒物(PM2.5),70,68,54,51,38,38,,,,31,24,3,2,0.6,0.5
2025-02-22T0500,1276A,117.336,31.8586,合肥市,瑶海区,细颗粒物(PM2.5),62,58,52,44,34,48,,,,27,25,6,6,0.5,0.5
2025-02-22T0500,1277A,117.3027,31.7964,合肥市,包河区,细颗粒物(PM2.5),58,56,50,41,37,34,,,,43,25,3,3,0.6,0.6
2025-02-22T0500,1278A,117.2776,31.7385,合肥市,滨湖新区,细颗粒物(PM2.5),58,56,48,41,41,66,,,,18,17,3,3,0.4,0.4
2025-02-22T0500,1279A,117.1318,31.8403,合肥市,高新区,细颗粒物(PM2.5),57,53,50,40,35,65,,,,24,25,2,2,0.4,0.4
2025-02-22T0500,3464A,117.3803,31.9147,合肥市,高教基地,细颗粒物(PM2.5),68,57,48,49,38,36,,,,26,17,6,6,0.5,0.4
2025-02-22T0500,3614A,79.924,37.0877,和田地区,地区环保局,颗粒物(PM10),133,216,240,57,65,46,,,,2,8,11,14,0.3,0.5
2025-02-22T0500,3615A,79.9131,37.113,和田地区,市环保局,颗粒物(PM10),115,179,196,39,55,35,,,,27,16,3,2,0.6,1.2
2025-02-22T0500,2516A,108.2011,24.715,河池市,东仁乐园,,11,8,12,7,5,35,,,,5,6,5,5,0.7,0.6
2025-02-22T0500,2517A,108.0497,24.6947,河池市,市环保站,,11,9,9,6,5,35,,,,5,7,8,8,0.7,0.7
2025-02-22T0500,2518A,108.0983,24.6989,河池市,市疾控中心,,10,8,10,6,7,32,,,,5,8,5,5,0.7,0.7
2025-02-22T0500,1696A,114.6778,23.7569,河源市,源西,,19,,10,13,10,36,,,,10,10,5,5,0.5,0.6
2025-02-22T0500,1697A,114.6944,23.7586,河源市,东埔,,19,13,12,13,12,35,,,,13,13,3,4,0.6,0.6
2025-02-22T0500,1698A,114.6892,23.7233,河源市,老城,,20,16,14,14,9,34,,,,13,12,4,4,0.7,0.8
2025-02-22T0500,1718A,115.4208,35.2464,菏泽市,气象局,细颗粒物(PM2.5),133,123,83,101,69,22,,,,33,25,4,2,0.7,0.5
2025-02-22T0500,3374A,115.5564,35.0891,菏泽市,定陶老年大学,细颗粒物(PM2.5),132,105,72,100,59,31,,,,29,27,6,4,0.6,0.6
2025-02-22T0500,4184A,115.4797,35.24401,菏泽市,永昌路1号,细颗粒物(PM2.5),133,143,90,101,70,28,,,,37,28,9,6,0.8,0.6
2025-02-22T0500,4193A,115.4715,35.2800,菏泽市,长城路999号,细颗粒物(PM2.5),124,122,83,94,64,16,,,,36,26,11,10,0.7,0.5
2025-02-22T0500,2514A,111.5264,24.4172,贺州市,环保小区,,22,,22,15,14,31,,,,9,12,5,5,0.9,0.9
2025-02-22T0500,2515A,111.5608,24.4078,贺州市,政协大楼,,24,24,27,16,15,30,,,,10,13,7,7,0.7,0.8
2025-02-22T0500,3534A,111.4744,24.4553,贺州市,西湾,,18,16,22,12,16,30,,,,9,11,6,6,0.7,0.8
2025-02-22T0500,2385A,114.17,35.9019,鹤壁市,市监测站,细颗粒物(PM2.5),57,59,91,40,68,49,,,,24,31,3,3,0,0.4
2025-02-22T0500,2386A,114.2956,35.7511,鹤壁市,市交警支队,颗粒物(PM10),55,59,94,34,68,54,,,,16,25,4,4,0.2,0.4
2025-02-22T0500,2387A,114.2878,35.7306,鹤壁市,迎宾馆,颗粒物(PM10),58,66,95,35,65,52,,,,22,29,2,3,0.5,0.6
2025-02-22T0500,3474A,114.2617,35.6822,鹤壁市,大新区,,48,40,56,33,72,48,,,,18,27,5,3,0.6,0.6
2025-02-22T0500,3596A,114.1572,35.9603,鹤壁市,南山宾馆,细颗粒物(PM2.5),67,55,100,48,85,53,,,,14,20,3,3,0.4,0.5
2025-02-22T0500,2244A,130.2537,47.3416,鹤岗市,哈啤分公司,,23,,23,16,18,65,,,,1,6,10,11,0.4,0.5
2025-02-22T0500,2245A,130.2684,47.3086,鹤岗市,斯达机电,,22,18,24,15,19,65,,,,2,6,11,12,0.2,0.3
2025-02-22T0500,2246A,130.3114,47.3388,鹤岗市,东山纸板厂,,30,30,38,16,18,59,,,,7,11,10,10,0.9,0.4
2025-02-22T0500,2247A,130.1097,47.3382,鹤岗市,五号水库,,26,17,20,7,13,82,,,,5,7,7,7,0.1,0.1
2025-02-22T0500,2263A,127.4833,50.2524,黑河市,交通局,,22,11,14,10,12,68,,,,3,6,6,6,0.3,0.3
2025-02-22T0500,2264A,127.5144,50.2341,黑河市,环保局,,23,14,18,14,14,71,,,,3,6,4,4,0.3,0.3
2025-02-22T0500,2265A,127.5291,50.2472,黑河市,大黑河岛,,,,,,,,,,,,,,,,
2025-02-22T0500,1074A,115.6838,37.7541,衡水市,电机北厂,细颗粒物(PM2.5),54,53,65,38,44,47,,,,17,24,8,10,0.4,0.5
2025-02-22T0500,1075A,115.6303,37.7316,衡水市,市监测站,细颗粒物(PM2.5),58,52,58,41,41,52,,,,20,27,9,9,0.5,0.5
2025-02-22T0500,3188A,115.6683,37.7217,衡水市,市城管局,细颗粒物(PM2.5),58,46,58,41,44,49,,,,18,30,5,10,0.5,0.5
2025-02-22T0500,3459A,115.5989,37.5491,衡水市,地表水厂,,49,,50,34,41,60,,,,13,27,5,9,0.4,0.6
2025-02-22T0500,2456A,112.5003,26.9167,衡阳市,原169医院,细颗粒物(PM2.5),54,46,69,38,42,24,,,,19,25,9,7,0.6,0.7
2025-02-22T0500,2457A,112.6194,26.9258,衡阳市,衡阳化工总厂,细颗粒物(PM2.5),63,,64,45,73,46,,,,16,18,3,3,0.7,0.8
2025-02-22T0500,2458A,112.6211,26.8956,衡阳市,珠晖区环保局,细颗粒物(PM2.5),68,,58,49,72,44,,,,15,21,3,3,0.7,0.8
2025-02-22T0500,2459A,112.6197,26.8733,衡阳市,市委党校,细颗粒物(PM2.5),57,,65,40,66,45,,,,17,22,7,8,0.7,0.8
2025-02-22T0500,2460A,112.6006,26.8919,衡阳市,市监测站,细颗粒物(PM2.5),60,51,84,43,70,46,,,,12,18,7,7,0.7,0.9
2025-02-22T0500,2461A,112.5664,26.9056,衡阳市,真空机电公司,细颗粒物(PM2.5),69,,83,50,73,44,,,,13,24,4,4,0.6,0.7
2025-02-22T0500,3399A,112.6703,26.882,衡阳市,师范学院,细颗粒物(PM2.5),54,45,82,38,65,43,,,,16,20,6,6,0.7,0.9
2025-02-22T0500,2608A,103.3772,23.3993,红河哈尼族彝族自治州,污水处理厂,,26,,28,18,26,41,,,,7,7,7,6,0.7,0.7
2025-02-22T0500,2609A,103.3861,23.35,红河哈尼族彝族自治州,监测站,,15,15,26,7,17,45,,,,7,8,7,8,0.7,0.7
2025-02-22T0500,3038A,103.3758,23.368,红河哈尼族彝族自治州,州图书馆,,18,,16,12,17,44,,,,7,8,5,6,0.6,0.7
2025-02-22T0500,1090A,111.6507,40.7517,呼和浩特市,呼市一监,,20,6,13,3,8,63,,,,7,8,4,6,0.1,0.1
2025-02-22T0500,1091A,111.6572,40.8033,呼和浩特市,小召,,21,6,15,3,7,65,,,,16,15,9,8,0.4,0.4
2025-02-22T0500,1094A,111.7516,40.8369,呼和浩特市,如意水处理厂,,17,8,12,3,6,52,,,,19,10,7,8,0.4,0.3
2025-02-22T0500,1095A,111.7276,40.8062,呼和浩特市,二十九中,,19,9,14,7,8,58,,,,10,10,3,3,0.3,0.3
2025-02-22T0500,1096A,111.5512,40.7866,呼和浩特市,工大金川校区,,22,8,18,3,6,68,,,,6,6,6,7,0.3,0.3
2025-02-22T0500,1097A,111.717,40.7612,呼和浩特市,化肥厂生活区,,19,11,14,7,7,60,,,,10,11,6,5,0.3,0.3
2025-02-22T0500,3698A,111.5968,40.8178,呼和浩特市,红旗小学,,26,6,13,3,6,83,,,,3,7,4,5,0.4,0.4
2025-02-22T0500,3699A,111.6518,40.8389,呼和浩特市,海东办,,19,7,9,3,6,58,,,,15,10,5,6,0.4,0.4
2025-02-22T0500,2192A,119.7594,49.2261,呼伦贝尔市,区环保局,,48,42,36,33,26,29,,,,41,27,6,7,0.6,0.5
2025-02-22T0500,3061A,119.7512,49.1577,呼伦贝尔市,国华电力东,,32,30,28,22,21,54,,,,18,10,4,4,0.3,0.3
2025-02-22T0500,1250A,120.0751,30.8669,湖州市,城西水厂,细颗粒物(PM2.5),68,69,40,49,26,75,,,,24,23,8,6,0.5,0.4
2025-02-22T0500,2873A,120.0875,30.8955,湖州市,仁皇山新区,细颗粒物(PM2.5),70,69,19,51,20,42,,,,26,23,5,5,0.5,0.5
2025-02-22T0500,2907A,120.1844,30.8596,湖州市,吴兴区站,细颗粒物(PM2.5),68,73,39,49,27,64,,,,23,20,6,8,0.4,0.4
2025-02-22T0500,3562A,120.4148,30.8538,湖州市,南浔区站,细颗粒物(PM2.5),74,79,43,54,28,66,,,,27,23,9,8,0.4,0.3
2025-02-22T0500,1607A,120.9092,40.7136,葫芦岛市,龙港区,,28,28,42,11,19,22,,,,42,32,15,13,0.7,0.7
2025-02-22T0500,1608A,120.8392,40.7514,葫芦岛市,化工街,,29,29,35,12,13,19,,,,53,37,16,13,0.2,0.2
2025-02-22T0500,1609A,120.8341,40.7073,葫芦岛市,新区,颗粒物(PM10),53,55,37,22,20,50,,,,25,31,28,16,0.8,0.7
2025-02-22T0500,1610A,120.8695,40.7677,葫芦岛市,东城区,,,,57,,26,,,27,,,38,,20,,0.7
2025-02-22T0500,2482A,109.5981,27.5721,怀化市,林科所,,26,,50,18,47,55,,,,13,14,4,5,1.3,1.4
2025-02-22T0500,2483A,109.9453,27.5444,怀化市,河西地税局,,30,21,104,21,88,49,,,,11,16,6,7,0.7,0.8
2025-02-22T0500,2484A,109.9781,27.5342,怀化市,市四医院,,25,25,99,12,76,51,,,,6,12,2,3,0.7,0.9
2025-02-22T0500,2485A,109.9972,27.5578,怀化市,监测楼,,30,24,91,21,69,47,,,,8,13,4,5,0.7,0.8
2025-02-22T0500,2486A,110.0394,27.583,怀化市,市委党校,,20,15,79,14,60,49,,,,13,18,4,5,0.9,0.9
2025-02-22T0500,1210A,119.036,33.5981,淮安市,钵池山,细颗粒物(PM2.5),54,48,40,38,29,68,,,,16,18,8,6,0.8,0.6
2025-02-22T0500,1211A,119.007,33.575,淮安市,北京南路,颗粒物(PM10),52,53,40,35,27,61,,,,22,21,10,7,0.8,0.6
2025-02-22T0500,1212A,118.989,33.6067,淮安市,市监测站,细颗粒物(PM2.5),62,48,37,44,32,73,,,,18,24,9,7,0.9,0.7
2025-02-22T0500,1213A,119.135,33.5039,淮安市,楚州区监测站,颗粒物(PM10),53,56,48,36,27,50,,,,25,21,8,6,0.7,0.7
2025-02-22T0500,3426A,118.8755,33.2894,淮安市,新华书店,细颗粒物(PM2.5),64,59,46,46,33,52,,,,22,26,8,8,0.6,0.5
2025-02-22T0500,4206A,119.0288,33.6319,淮安市,承德北路606号,颗粒物(PM10),56,61,49,38,29,64,,,,21,25,8,6,0.8,0.7
2025-02-22T0500,2282A,116.8004,33.975,淮北市,监测站,细颗粒物(PM2.5),72,74,50,52,34,29,,,,39,16,7,5,0.5,0.5
2025-02-22T0500,2283A,116.8091,33.9007,淮北市,烈山区政府,细颗粒物(PM2.5),74,72,47,54,32,46,,,,38,19,7,4,0.7,0.6
2025-02-22T0500,3330A,116.8873,33.9836,淮北市,杜集区检察院,细颗粒物(PM2.5),84,87,64,62,36,25,,,,45,20,12,3,0.7,0.6
2025-02-22T0500,4017A,116.7923,33.9535,淮北市,市博物馆,细颗粒物(PM2.5),73,71,50,53,34,42,,,,33,17,10,7,0.7,0.6
2025-02-22T0500,2277A,116.8305,32.7727,淮南市,潘集区政府,细颗粒物(PM2.5),74,72,69,54,53,38,,,,21,20,2,4,0.5,0.5
2025-02-22T0500,2279A,116.8569,32.5951,淮南市,谢家集区政府,细颗粒物(PM2.5),75,78,65,55,46,41,,,,24,22,6,6,0.5,0.6
2025-02-22T0500,2280A,116.8281,32.633,淮南市,八公山区政府,细颗粒物(PM2.5),74,75,63,54,45,38,,,,16,14,5,6,0.6,0.5
2025-02-22T0500,2281A,116.6325,32.6201,淮南市,焦岗湖风景区管理处,颗粒物(PM10),53,55,51,36,33,22,,,,16,11,10,9,0.1,0
2025-02-22T0500,2894A,117.0566,32.6531,淮南市,经济技术开发区消防队,细颗粒物(PM2.5),67,65,63,48,43,37,,,,22,20,5,6,0.5,0.5
2025-02-22T0500,3329A,117.0108,32.5893,淮南市,山南新区,细颗粒物(PM2.5),70,69,58,51,36,54,,,,17,14,6,7,0.6,0.5
2025-02-22T0500,4209A,117.0031,32.6445,淮南市,国庆中路369号,细颗粒物(PM2.5),80,87,65,59,43,33,,,,27,20,4,5,0.4,0.4
2025-02-22T0500,2446A,114.9028,30.4742,黄冈市,职工中心,,,,44,,36,,,58,,,22,,9,,0.7
2025-02-22T0500,2929A,114.8858,30.4519,黄冈市,红卫路,细颗粒物(PM2.5),57,48,58,40,45,59,,,,17,24,7,8,0.6,0.7
2025-02-22T0500,3398A,114.9136,30.4445,黄冈市,市林业局,,50,48,53,35,43,52,,,,8,19,11,11,0.5,0.6
2025-02-22T0500,2672A,102.0199,35.5102,黄南藏族自治州,同仁县隆务镇,细颗粒物(PM2.5),67,75,70,48,43,78,,,,5,6,19,15,0.4,0.4
2025-02-22T0500,2295A,118.2903,29.6963,黄山市,延安路89号,,29,24,16,20,11,63,,,,4,5,4,4,0.1,0.1
2025-02-22T0500,2297A,118.1371,30.2756,黄山市,黄山区政府5号楼,,14,13,18,8,13,42,,,,2,4,7,7,0.3,0.3
2025-02-22T0500,4210A,118.3354,29.7203,黄山市,滨江东路7-2号,,26,26,20,17,10,65,,,,4,4,4,4,0.3,0.3
2025-02-22T0500,2423A,115.0601,30.2313,黄石市,沈家营,细颗粒物(PM2.5),54,46,52,38,32,44,,,,31,30,17,16,0.8,0.7
2025-02-22T0500,2426A,114.8988,30.2019,黄石市,铁山,细颗粒物(PM2.5),60,,42,43,38,54,,,,8,8,9,8,0.8,0.9
2025-02-22T0500,2427A,115.0307,30.2092,黄石市,团城山,细颗粒物(PM2.5),54,46,47,38,32,58,,,,17,17,7,8,0.6,0.7
2025-02-22T0500,3149A,115.0235,30.1578,黄石市,笔架山北路,,43,43,41,30,31,48,,,,16,16,6,6,0.6,0.6
2025-02-22T0500,4185A,115.0780,30.21118,黄石市,磁湖东路29号,细颗粒物(PM2.5),53,43,50,37,37,60,,,,20,13,13,9,0.9,0.8
2025-02-22T0500,1392A,114.4183,23.0528,惠州市,河南岸金山湖子站,,18,18,22,9,12,35,,,,15,18,8,9,0.5,0.5
2025-02-22T0500,1393A,114.4053,23.0822,惠州市,下埔横江三路子站,,17,17,20,11,11,36,,,,14,15,8,8,0.6,0.7
2025-02-22T0500,1394A,114.4103,23.1142,惠州市,江北云山西路子站,,18,18,18,10,10,34,,,,17,18,10,9,0.6,0.7
2025-02-22T0500,1395A,114.4645,22.7833,惠州市,惠阳区承修路船湖子站,,42,42,39,18,19,68,,,,11,14,9,9,0.6,0.7
2025-02-22T0500,1396A,114.5317,22.7422,惠州市,大亚湾管委会子站,,35,35,37,12,16,75,,,,10,14,7,6,0.5,0.6
2025-02-22T0500,3314A,114.4338,22.8134,惠州市,惠阳秋长,,41,41,42,18,18,64,,,,14,15,6,7,0.6,0.7
2025-02-22T0500,3452A,114.6517,22.775,惠州市,大亚湾霞涌,,37,37,36,14,15,75,,,,11,12,7,7,0.5,0.5
2025-02-22T0500,2240A,130.9762,45.3001,鸡西市,环保局,,23,12,21,10,14,73,,,,3,8,5,6,0.4,0.5
2025-02-22T0500,2243A,130.9429,45.3039,鸡西市,第一中学,,23,10,20,10,13,72,,,,3,5,6,6,0.2,0.2
2025-02-22T0500,3707A,131.0207,45.3073,鸡西市,欧美日汽修厂,,29,22,30,20,22,78,,,,10,12,18,11,1.0,0.9
2025-02-22T0500,3709A,130.9967,45.3106,鸡西市,市政设施管理处,,22,16,28,11,17,70,,,,5,12,3,4,0.3,0.4
2025-02-22T0500,2367A,114.9754,27.0803,吉安市,红声器材厂,,31,31,36,15,21,36,,,,18,19,13,12,0.6,0.7
2025-02-22T0500,2368A,114.9658,27.0999,吉安市,市森林工业局,,22,18,31,15,22,37,,,,18,22,14,14,0.1,0.3
2025-02-22T0500,2369A,114.99,27.1312,吉安市,市环境监测站,,38,,32,26,26,33,,,,21,21,14,13,0.4,0.5
2025-02-22T0500,2370A,115.0093,27.0968,吉安市,青原区法院,,30,30,36,17,26,39,,,,23,23,6,5,0.4,0.5
2025-02-22T0500,1772A,126.54,43.8622,吉林市,哈达湾,,32,32,37,20,26,56,,,,15,20,8,14,0.6,0.6
2025-02-22T0500,1773A,126.5844,43.8358,吉林市,东局子,,42,42,45,23,26,48,,,,16,22,6,12,0.6,0.6
2025-02-22T0500,1774A,126.5052,43.8245,吉林市,电力学院,,33,27,36,23,29,37,,,,21,17,3,6,0.6,0.6
2025-02-22T0500,1775A,126.6133,43.8972,吉林市,江北,,43,43,50,28,31,41,,,,22,30,6,8,0.9,0.9
2025-02-22T0500,1776A,126.555,43.8306,吉林市,江南公园,,46,43,37,32,29,29,,,,32,26,3,7,0.6,0.7
2025-02-22T0500,1778A,126.7061,43.7133,吉林市,丰满,,32,26,27,22,24,54,,,,9,10,6,9,0.4,0.6
2025-02-22T0500,2868A,126.4739,43.953,吉林市,九站,,43,35,40,30,31,9,,,,59,31,5,9,0.7,0.6
2025-02-22T0500,1299A,116.9862,36.6114,济南市,科干所,,48,48,90,32,54,74,,,,20,35,7,9,0.4,0.6
2025-02-22T0500,1300A,116.9376,36.665,济南市,农科所,,44,44,96,22,50,69,,,,18,35,9,11,0.7,0.9
2025-02-22T0500,1301A,117.1265,36.6734,济南市,开发区,,49,44,90,34,59,69,,,,16,34,7,10,0.4,0.6
2025-02-22T0500,1303A,117.0624,36.6868,济南市,省种子仓库,颗粒物(PM10),52,53,102,31,58,71,,,,14,30,5,9,0.5,0.7
2025-02-22T0500,1304A,116.9489,36.6447,济南市,机床二厂,细颗粒物(PM2.5),55,46,105,39,65,73,,,,19,36,9,14,0.7,0.9
2025-02-22T0500,1305A,117.0495,36.663,济南市,市监测站,,46,39,90,32,56,65,,,,20,38,9,12,0.4,0.6
2025-02-22T0500,1306A,116.7675,36.5484,济南市,长清党校,颗粒物(PM10),52,54,93,34,59,71,,,,23,34,6,7,0.5,0.7
2025-02-22T0500,1616A,117.6795,36.229,济南市,技术学院,,42,41,100,29,68,69,,,,20,40,8,15,0.8,1.1
2025-02-22T0500,1961A,117.532,36.6868,济南市,东山小学,颗粒物(PM10),55,59,95,32,49,56,,,,29,39,6,10,0.6,0.8
2025-02-22T0500,3059A,117.7161,36.2049,济南市,泰兴公司,,42,39,100,29,66,69,,,,20,38,7,13,0.4,0.8
2025-02-22T0500,3064A,117.6867,36.2171,济南市,莱芜战役纪念馆,,44,44,103,27,67,73,,,,18,41,5,12,0.6,1
2025-02-22T0500,3494A,117.1673,36.9782,济南市,济阳区政府,,46,46,78,32,44,54,,,,17,28,12,17,0.4,0.6
2025-02-22T0500,3495A,117.1171,36.63,济南市,锦屏中学,,49,49,82,32,55,66,,,,26,30,7,8,0.8,0.9
2025-02-22T0500,3682A,116.9814,36.6819,济南市,济南四建,,41,41,91,27,54,57,,,,26,39,6,11,0.3,0.6
2025-02-22T0500,1653A,116.6251,35.4302,济宁市,火炬城,细颗粒物(PM2.5),94,99,95,70,67,19,,,,38,27,10,9,0.9,0.8
2025-02-22T0500,1655A,116.5491,35.4042,济宁市,电化厂,细颗粒物(PM2.5),119,132,122,90,86,26,,,,34,32,12,10,1.1,0.9
2025-02-22T0500,3500A,116.5814,35.3707,济宁市,北湖一中,细颗粒物(PM2.5),117,102,88,88,77,28,,,,33,28,5,4,0.8,0.9
2025-02-22T0500,3501A,116.8249,35.5593,济宁市,服务中心,颗粒物(PM10),84,117,128,54,83,34,,,,35,33,18,8,1.1,0.9
2025-02-22T0500,3678A,116.5907,35.4054,济宁市,市第七中学,细颗粒物(PM2.5),119,,86,90,78,31,,,,36,26,6,3,0.8,0.7
2025-02-22T0500,2255A,130.2751,46.8028,佳木斯市,佳纺,,19,19,42,13,30,57,,,,14,23,9,7,0.3,0.5
2025-02-22T0500,2256A,130.3995,46.8307,佳木斯市,发电厂,,25,20,33,17,26,62,,,,12,20,4,6,0.2,0.3
2025-02-22T0500,2257A,130.3258,46.7975,佳木斯市,环保局,,26,26,34,16,25,57,,,,10,21,9,9,0.3,0.5
2025-02-22T0500,2258A,130.3648,46.8032,佳木斯市,十一中,,33,33,35,14,23,47,,,,21,25,16,7,0.3,0.3
2025-02-22T0500,2259A,130.3794,46.7588,佳木斯市,四丰,,21,14,19,3,14,65,,,,5,8,1,1,0.4,0.5
2025-02-22T0500,1252A,120.7436,30.778,嘉兴市,清河小学,细颗粒物(PM2.5),62,58,35,44,23,73,,,,21,20,4,4,0.6,0.6
2025-02-22T0500,1253A,120.726,30.7478,嘉兴市,嘉兴学院,细颗粒物(PM2.5),68,64,37,49,25,60,,,,25,19,6,6,0.6,0.5
2025-02-22T0500,2872A,120.7846,30.7525,嘉兴市,南湖区残联,细颗粒物(PM2.5),73,58,37,53,26,55,,,,31,19,8,8,0.4,0.3
2025-02-22T0500,3407A,120.6916,30.7739,嘉兴市,秀洲住建,细颗粒物(PM2.5),64,62,36,46,25,73,,,,22,19,5,5,0.4,0.3
2025-02-22T0500,1945A,98.2908,39.7711,嘉峪关市,气象局,颗粒物(PM10),74,97,127,31,32,57,,,,14,16,3,3,0.3,0.4
2025-02-22T0500,2884A,98.2672,39.7978,嘉峪关市,酒钢宾馆,颗粒物(PM10),85,119,126,31,31,45,,,,21,16,20,8,0.7,0.7
2025-02-22T0500,3248A,98.2643,39.7724,嘉峪关市,雄关区,颗粒物(PM10),70,89,97,34,31,51,,,,20,21,10,11,0.5,0.5
2025-02-22T0500,1383A,113.1064,22.6058,江门市,北街,,39,39,47,18,22,6,,,,54,44,6,5,0.9,0.8
2025-02-22T0500,1384A,113.0731,22.5835,江门市,西区,,47,47,47,12,17,9,,,,50,43,8,7,0.6,0.7
2025-02-22T0500,1385A,113.0219,22.5311,江门市,圭峰西,,37,37,44,18,24,9,,,,48,39,8,7,1.0,1
2025-02-22T0500,1386A,113.0828,22.5947,江门市,东湖,,40,40,40,21,25,8,,,,50,41,10,14,0.6,0.6
2025-02-22T0500,3311A,113.1075,22.5647,江门市,江海富民,,44,44,57,18,29,10,,,,43,39,8,8,0.6,0.6
2025-02-22T0500,3449A,113.05,22.4667,江门市,新会银湖,,36,36,47,23,32,7,,,,53,46,8,8,0.9,0.9
2025-02-22T0500,1830A,113.1992,35.2590,焦作市,影视城,细颗粒物(PM2.5),103,144,125,77,87,30,,,,33,25,7,8,0.8,0.7
2025-02-22T0500,3169A,113.2725,35.2067,焦作市,太极体育中心,细颗粒物(PM2.5),128,130,105,97,82,21,,,,39,25,7,5,1.0,0.9
2025-02-22T0500,3335A,113.3137,35.2641,焦作市,马村街道办,细颗粒物(PM2.5),123,131,105,93,90,27,,,,33,25,5,5,1.1,0.8
2025-02-22T0500,3336A,113.2465,35.2373,焦作市,焦作技师学院,细颗粒物(PM2.5),128,141,107,97,84,23,,,,30,23,2,3,1.0,0.9
2025-02-22T0500,3477A,113.1656,35.2539,焦作市,中站许衡医院,细颗粒物(PM2.5),122,105,118,92,94,32,,,,28,27,5,6,1.0,1
2025-02-22T0500,3981A,113.2449,35.1803,焦作市,原李万街道办,细颗粒物(PM2.5),122,139,110,92,81,26,,,,29,23,7,6,0.7,0.6
2025-02-22T0500,4264A,113.2340,35.2190,焦作市,新安路1731号,细颗粒物(PM2.5),137,162,111,104,90,24,,,,34,20,4,3,1.1,0.9
2025-02-22T0500,1708A,116.3701,23.5345,揭阳市,新兴,,28,,37,19,33,66,,,,16,25,7,8,0.4,0.6
2025-02-22T0500,1709A,116.3264,23.5443,揭阳市,西马,,22,16,43,12,30,69,,,,11,19,8,10,0.4,0.6
2025-02-22T0500,1710A,116.3611,23.5626,揭阳市,东兴,,21,16,45,13,31,67,,,,14,20,6,8,0.7,0.9
2025-02-22T0500,1711A,116.4151,23.5294,揭阳市,渔湖,,22,16,34,9,18,69,,,,8,17,6,7,0.5,0.6
2025-02-22T0500,3320A,116.403,23.5699,揭阳市,曲溪,,21,18,39,10,23,67,,,,22,26,10,10,0.3,0.4
2025-02-22T0500,1944A,102.1692,38.5167,金昌市,天庆家园,颗粒物(PM10),65,80,87,33,35,62,,,,5,10,15,13,1.0,0.8
2025-02-22T0500,4022A,102.1647,38.5371,金昌市,金川区人防中心,颗粒物(PM10),65,80,108,20,34,65,,,,3,8,6,7,0.6,0.6
2025-02-22T0500,4239A,102.1930,38.5319,金昌市,长春路96号,颗粒物(PM10),58,66,82,21,30,64,,,,5,10,8,19,1.1,0.8
2025-02-22T0500,1262A,119.647,29.077,金华市,十五中,,46,46,29,28,18,41,,,,26,26,4,4,0.3,0.3
2025-02-22T0500,1263A,119.686,29.1029,金华市,监测站,,48,48,28,31,21,32,,,,29,24,4,4,0.3,0.3
2025-02-22T0500,3659A,119.656,29.1131,金华市,气象局,,46,45,31,32,22,39,,,,30,28,4,4,0.3,0.3
2025-02-22T0500,1767A,121.1115,41.0879,锦州市,南山,,26,26,25,14,14,46,,,,20,13,26,17,0.4,0.4
2025-02-22T0500,1768A,121.0533,40.8434,锦州市,开发区,,44,44,55,18,22,51,,,,20,31,41,30,0.7,0.7
2025-02-22T0500,1769A,121.1836,41.1119,锦州市,百股街道,,23,23,34,12,20,52,,,,13,27,11,12,0.7,0.7
2025-02-22T0500,1770A,121.1178,41.1222,锦州市,天安街道,,23,23,25,15,11,57,,,,18,12,25,14,0.5,0.4
2025-02-22T0500,1771A,121.1303,41.1386,锦州市,北湖公园,,29,29,24,14,12,58,,,,9,7,12,13,0.3,0.3
2025-02-22T0500,2160A,112.85,35.5051,晋城市,自来水公司,细颗粒物(PM2.5),104,83,110,78,92,65,,,,17,23,5,6,0.6,0.8
2025-02-22T0500,2161A,112.8318,35.4936,晋城市,白云商贸,细颗粒物(PM2.5),104,105,125,78,92,61,,,,20,24,4,4,1.0,1.2
2025-02-22T0500,2162A,112.8508,35.4887,晋城市,市环保局,细颗粒物(PM2.5),100,104,118,75,89,57,,,,18,23,6,6,0.6,0.8
2025-02-22T0500,2163A,112.8676,35.4897,晋城市,技术学院,细颗粒物(PM2.5),98,98,117,73,84,63,,,,20,24,5,5,0.8,1
2025-02-22T0500,2165A,112.8453,35.546,晋城市,白马寺,,,,,,,,,,,,,,,,
2025-02-22T0500,3620A,112.8271,35.4828,晋城市,泽州一中,细颗粒物(PM2.5),113,117,121,85,101,59,,,,24,24,4,5,0.7,1
2025-02-22T0500,2173A,112.7249,37.7067,晋中市,南都小区,细颗粒物(PM2.5),87,95,130,64,88,36,,,,44,39,3,8,0.3,0.6
2025-02-22T0500,2174A,112.6991,37.6982,晋中市,榆次区政府,细颗粒物(PM2.5),82,83,120,60,79,38,,,,38,37,2,7,0.2,0.5
2025-02-22T0500,2865A,112.7195,37.6828,晋中市,榆次三中,细颗粒物(PM2.5),92,85,124,68,85,53,,,,26,34,2,7,0.3,0.6
2025-02-22T0500,4200A,112.7478,37.6954,晋中市,迎宾街26号,细颗粒物(PM2.5),85,85,123,63,88,49,,,,24,32,8,8,0.5,0.8
2025-02-22T0500,2439A,112.2014,31.0481,荆门市,竹园小学,细颗粒物(PM2.5),112,98,111,84,92,36,,,,23,21,3,4,0.7,0.7
2025-02-22T0500,2440A,112.1969,30.9891,荆门市,掇刀,细颗粒物(PM2.5),105,98,107,79,87,46,,,,19,21,8,9,0.6,0.6
2025-02-22T0500,2441A,112.2213,31.0386,荆门市,石化一小,细颗粒物(PM2.5),108,87,107,81,87,34,,,,29,24,7,8,0.4,0.6
2025-02-22T0500,3012A,112.1849,31.0362,荆门市,西山林语,细颗粒物(PM2.5),108,90,102,81,85,53,,,,15,18,2,3,0.3,0.4
2025-02-22T0500,3547A,112.1632,31.0138,荆门市,龙泉中学南校,细颗粒物(PM2.5),99,93,106,74,86,50,,,,8,12,7,7,0.7,0.7
2025-02-22T0500,1844A,112.2494,30.3197,荆州市,市图书馆,细颗粒物(PM2.5),132,,81,100,97,37,,,,17,20,4,4,0.7,0.7
2025-02-22T0500,1845A,112.2008,30.3544,荆州市,市委党校,细颗粒物(PM2.5),127,,96,96,98,37,,,,18,24,5,5,0.7,0.7
2025-02-22T0500,3194A,112.2747,30.3122,荆州市,管委会,细颗粒物(PM2.5),123,94,91,93,92,38,,,,16,20,6,7,0.6,0.6
2025-02-22T0500,4268A,112.1722,30.3366,荆州市,学苑路85号,细颗粒物(PM2.5),112,84,91,84,92,42,,,,16,21,6,7,0.7,0.7
2025-02-22T0500,2342A,117.3102,29.3867,景德镇市,王港中学,,,,,,,,,,,,,,,,
2025-02-22T0500,2343A,117.2117,29.2933,景德镇市,老干部活动中心,,10,8,10,6,6,29,,,,9,12,4,4,0.3,0.3
2025-02-22T0500,2344A,117.1894,29.2789,景德镇市,兽医站,,20,20,18,3,5,33,,,,10,10,3,3,0.3,0.5
2025-02-22T0500,2345A,117.1547,29.2617,景德镇市,台达陶瓷,,13,,10,8,8,40,,,,8,16,9,9,0.4,0.4
2025-02-22T0500,2346A,117.2461,29.2956,景德镇市,陶研所,,19,,8,13,10,26,,,,15,13,3,5,0.3,0.3
2025-02-22T0500,1803A,115.9872,29.6815,九江市,十里,,47,47,34,24,24,44,,,,18,18,14,14,0.6,0.6
2025-02-22T0500,1804A,115.9584,29.7046,九江市,茅山头,,,,,,,,,,,,,,,,
2025-02-22T0500,1805A,115.9877,29.7295,九江市,西园,,48,38,30,33,23,47,,,,22,22,11,10,1.2,1.2
2025-02-22T0500,1808A,115.9114,29.6038,九江市,综合工业园,细颗粒物(PM2.5),62,,28,44,34,40,,,,30,33,6,5,0.7,0.7
2025-02-22T0500,1809A,116.0721,29.7535,九江市,石化总厂,,50,44,36,35,34,48,,,,24,24,13,11,0.8,0.7
2025-02-22T0500,1810A,115.9773,29.5698,九江市,庐山气象台,,25,11,11,11,13,80,,,,2,4,18,16,0.5,0.8
2025-02-22T0500,3190A,116.0254,29.6994,九江市,外国语学校,,36,34,34,25,26,50,,,,25,24,6,5,0.8,0.8
2025-02-22T0500,4253A,116.0102,29.6594,九江市,莲花大道8号,细颗粒物(PM2.5),60,45,37,43,40,37,,,,14,12,6,6,0.4,0.5
2025-02-22T0500,2658A,98.5061,39.7443,酒泉市,仓门街子站,颗粒物(PM10),86,122,125,39,36,65,,,,6,8,8,9,0.8,0.5
2025-02-22T0500,4240A,98.4958,39.7339,酒泉市,玉门东路5号,颗粒物(PM10),92,134,116,45,40,51,,,,10,8,6,8,0.6,0.4
2025-02-22T0500,2698A,76.0072,39.4467,喀什地区,巡警大队,颗粒物(PM10),169,287,281,88,83,7,,,,73,58,8,10,2.8,2.1
2025-02-22T0500,2699A,75.9755,39.4694,喀什地区,吾办,颗粒物(PM10),142,233,272,81,91,13,,,,71,51,8,10,1.7,1.5
2025-02-22T0500,4027A,75.9483,39.4689,喀什地区,老干局,颗粒物(PM10),138,226,281,60,71,45,,,,31,42,7,9,1.5,1.9
2025-02-22T0500,1824A,114.3389,34.7781,开封市,肿瘤医院,细颗粒物(PM2.5),107,91,65,80,71,30,,,,21,16,6,5,1.0,0.9
2025-02-22T0500,1826A,114.2885,34.7965,开封市,世纪星幼儿园,细颗粒物(PM2.5),119,91,64,90,82,35,,,,25,22,5,4,0.9,0.7
2025-02-22T0500,3147A,114.3438,34.8106,开封市,龙亭公园,细颗粒物(PM2.5),102,82,67,76,76,30,,,,26,23,2,2,0.7,0.5
2025-02-22T0500,3210A,114.3644,34.7964,开封市,汴京公园,细颗粒物(PM2.5),94,101,77,70,71,31,,,,25,21,4,4,1.2,1
2025-02-22T0500,3473A,114.2485,34.8306,开封市,技师学院,细颗粒物(PM2.5),94,81,64,70,69,32,,,,28,29,4,4,0.8,0.7
2025-02-22T0500,3592A,114.4644,34.7556,开封市,祥符区生态环境局,细颗粒物(PM2.5),95,114,80,71,71,31,,,,22,29,3,2,1.1,1
2025-02-22T0500,1951A,84.895,45.6094,克拉玛依市,长征新村,细颗粒物(PM2.5),78,88,80,57,55,70,,,,19,23,6,6,0.6,0.7
2025-02-22T0500,1952A,84.8988,45.5893,克拉玛依市,南林小区,细颗粒物(PM2.5),84,75,72,62,60,75,,,,10,14,2,2,0.7,0.7
2025-02-22T0500,1954A,84.905,44.3396,克拉玛依市,独山子区,细颗粒物(PM2.5),114,105,79,86,64,81,,,,13,27,5,5,0.6,0.7
2025-02-22T0500,1955A,85.6979,46.098,克拉玛依市,乌尔禾区商贸楼,细颗粒物(PM2.5),108,103,74,81,64,39,,,,61,39,6,5,1.7,1
2025-02-22T0500,3612A,85.1045,45.6899,克拉玛依市,白碱滩区新站,细颗粒物(PM2.5),85,90,84,63,58,62,,,,19,22,5,6,0.3,0.8
2025-02-22T0500,2697A,76.1454,39.7142,克孜勒苏柯尔克孜自治州,市人民政府,颗粒物(PM10),125,200,237,50,64,78,,,,3,13,4,5,0.3,0.9
2025-02-22T0500,3665A,76.1658,39.7157,克孜勒苏柯尔克孜自治州,克州文化中心,颗粒物(PM10),114,178,224,42,56,83,,,,1,14,7,8,0.5,0.6
2025-02-22T0500,1450A,102.8204,24.8886,昆明市,呈贡新区,细颗粒物(PM2.5),72,53,58,52,47,66,,,,19,24,11,8,0.7,0.6
2025-02-22T0500,1451A,102.6251,24.9608,昆明市,西山森林公园,,,,,,,,,,,,,,,,
2025-02-22T0500,1452A,102.7252,25.0902,昆明市,龙泉镇,细颗粒物(PM2.5),58,45,43,41,30,21,,,,57,29,7,7,0.6,0.5
2025-02-22T0500,1453A,102.7266,25.0375,昆明市,东风东路,细颗粒物(PM2.5),72,65,56,52,41,69,,,,20,24,11,8,0.8,0.7
2025-02-22T0500,1454A,102.6742,25.0669,昆明市,金鼎山,细颗粒物(PM2.5),74,58,47,54,33,69,,,,19,23,12,8,0.6,0.5
2025-02-22T0500,1455A,102.6644,25.0401,昆明市,碧鸡广场,细颗粒物(PM2.5),69,67,52,50,36,63,,,,26,23,11,10,0.7,0.6
2025-02-22T0500,3179A,102.7494,25.0119,昆明市,官渡区博物馆,细颗粒物(PM2.5),67,72,60,48,37,63,,,,20,24,10,9,0.7,0.6
2025-02-22T0500,3375A,102.8017,24.8336,昆明市,青年创业园,细颗粒物(PM2.5),62,58,59,44,40,69,,,,16,20,11,12,0.7,0.6
2025-02-22T0500,3550A,102.7997,24.9786,昆明市,昆明学院,细颗粒物(PM2.5),77,73,66,56,42,63,,,,19,22,7,6,0.8,0.6
2025-02-22T0500,3551A,102.5967,24.6736,昆明市,晋宁区生态环境分局,"颗粒物(PM10),细颗粒物(PM2.5)",58,66,63,41,39,63,,,,16,13,4,5,1.0,0.9
2025-02-22T0500,3552A,102.6678,24.9856,昆明市,云天化总部,细颗粒物(PM2.5),67,66,52,48,34,54,,,,38,23,11,10,0.6,0.5
2025-02-22T0500,1456A,91.1319,29.6514,拉萨市,八廓街,,31,11,17,6,10,98,,,,5,10,5,6,0.4,0.5
2025-02-22T0500,1457A,91.1221,29.6747,拉萨市,市环保局,,29,12,18,6,10,90,,,,12,17,6,6,0.5,0.6
2025-02-22T0500,1458A,91.0874,29.6475,拉萨市,区监测站,,30,12,14,8,7,96,,,,8,15,6,6,0.4,0.4
2025-02-22T0500,1459A,91.1774,29.6541,拉萨市,西藏大学,,29,13,15,7,8,92,,,,7,10,5,5,0.3,0.4
2025-02-22T0500,1460A,90.9798,29.6588,拉萨市,区辐射站,,27,17,18,10,9,84,,,,13,14,7,7,0.3,0.3
2025-02-22T0500,1461A,91.0834,29.6292,拉萨市,拉萨火车站,,26,15,14,8,8,83,,,,10,11,3,4,0.4,0.4
2025-02-22T0500,2520A,109.2203,23.7256,来宾市,来宾技工学校,,35,29,24,24,15,32,,,,10,12,6,7,1.0,0.9
2025-02-22T0500,3535A,109.1781,23.7297,来宾市,兴宾区政府,,31,31,21,21,13,32,,,,9,13,5,5,1.0,1
2025-02-22T0500,4002A,109.2416,23.7461,来宾市,中南小学,,38,38,27,16,13,31,,,,9,12,6,6,1.1,1
2025-02-22T0500,1477A,104.1373,35.9454,兰州市,榆中兰大校区,,,,,,,,,,,,,,,,
2025-02-22T0500,1479A,103.831,36.0464,兰州市,铁路设计院,细颗粒物(PM2.5),102,118,77,76,57,87,,,,20,38,12,10,0.6,0.9
2025-02-22T0500,3241A,103.7439,36.0842,兰州市,百合公园,颗粒物(PM10),89,128,72,65,44,79,,,,10,21,10,7,0.6,0.7
2025-02-22T0500,3242A,103.9611,35.998,兰州市,和平,细颗粒物(PM2.5),95,94,69,71,45,89,,,,21,23,10,9,0.7,0.6
2025-02-22T0500,4236A,103.6293,36.0938,兰州市,庄浪东路808号,"颗粒物(PM10),细颗粒物(PM2.5)",85,119,80,63,51,88,,,,16,28,8,9,0.6,0.8
2025-02-22T0500,4237A,103.7251,36.1043,兰州市,安宁西路88号,颗粒物(PM10),88,125,88,58,51,86,,,,16,23,15,16,0.5,0.7
2025-02-22T0500,4238A,103.8470,36.0676,兰州市,北滨河东路1号,细颗粒物(PM2.5),93,113,69,69,49,86,,,,17,29,13,10,0.8,0.9
2025-02-22T0500,3245A,103.6633,36.533,兰州新区,新区管委会,颗粒物(PM10),73,96,84,48,56,87,,,,10,15,18,26,0.4,0.5
2025-02-22T0500,3246A,103.6975,36.4789,兰州新区,舟曲中学,颗粒物(PM10),82,113,94,43,50,81,,,,9,19,4,11,0.6,0.6
2025-02-22T0500,1067A,116.6708,39.5111,廊坊市,药材公司,,20,9,23,3,11,62,,,,12,21,3,5,0.3,0.4
2025-02-22T0500,1068A,116.7214,39.5589,廊坊市,开发区,,19,,16,8,11,59,,,,13,21,3,6,0.2,0.3
2025-02-22T0500,1070A,116.7244,39.5269,廊坊市,北华航天学院,,22,10,20,3,10,69,,,,14,28,3,6,0.2,0.3
2025-02-22T0500,2919A,116.7022,39.5453,廊坊市,河北工业大学,,18,9,18,8,11,57,,,,10,17,5,6,0.2,0.3
2025-02-22T0500,2535A,103.7723,29.5462,乐山市,花湖湾,,11,8,29,7,23,34,,,,14,22,5,6,0.5,0.6
2025-02-22T0500,2536A,103.7627,29.5844,乐山市,牛耳桥,,10,9,36,7,30,28,,,,15,25,5,5,0.4,0.5
2025-02-22T0500,2537A,103.7508,29.6006,乐山市,市第三水厂,,10,,29,7,24,27,,,,11,18,3,3,0.5,0.5
2025-02-22T0500,2538A,103.7571,29.5664,乐山市,市监测站,,10,6,27,6,22,29,,,,10,18,5,6,0.6,0.6
2025-02-22T0500,3361A,103.7311,29.5628,乐山市,理工大学,,13,10,28,9,24,22,,,,19,20,4,4,0.5,0.5
2025-02-22T0500,2598A,100.2143,26.8576,丽江市,西南郊,,30,26,21,20,13,96,,,,2,4,4,5,0.5,0.5
2025-02-22T0500,2599A,100.2497,26.8802,丽江市,丽江古城,,25,16,21,11,13,79,,,,6,11,8,8,0.5,0.6
2025-02-22T0500,2600A,100.2203,26.8906,丽江市,市中心,,26,15,14,7,12,82,,,,7,12,7,7,0.5,0.6
2025-02-22T0500,1267A,119.914,28.4514,丽水市,监测站大楼,,32,23,16,22,14,51,,,,10,13,3,3,0.2,0.1
2025-02-22T0500,1268A,119.93,28.4586,丽水市,莲都小学,,25,22,16,17,9,45,,,,13,13,5,5,0.3,0.3
2025-02-22T0500,1269A,119.879,28.4231,丽水市,余庄前,,22,22,15,15,10,23,,,,8,13,4,4,0.2,0.3
2025-02-22T0500,1173A,119.176,34.5885,连云港市,市环境监测站,细颗粒物(PM2.5),52,48,43,36,26,62,,,,13,17,6,8,0.5,0.5
2025-02-22T0500,3000A,119.3581,34.6972,连云港市,德源药业,,36,36,53,22,27,71,,,,13,31,5,6,0.5,0.5
2025-02-22T0500,3007A,119.178,34.844,连云港市,新城一中,细颗粒物(PM2.5),64,65,46,46,34,63,,,,17,34,8,9,0.7,0.5
2025-02-22T0500,3008A,119.3608,34.7519,连云港市,胡沟管理处,,29,29,34,17,22,82,,,,11,32,4,7,0.9,1
2025-02-22T0500,3009A,119.1478,34.5911,连云港市,矿山设计院,细颗粒物(PM2.5),62,56,45,44,28,65,,,,13,19,3,4,0.5,0.3
2025-02-22T0500,3434A,119.2413,34.6539,连云港市,工贸学校,细颗粒物(PM2.5),60,55,46,43,31,69,,,,14,16,7,9,0.7,0.6
2025-02-22T0500,3664A,119.4172,34.7341,连云港市,连云街道,,36,36,42,23,26,72,,,,20,25,5,10,0.5,0.6
2025-02-22T0500,2571A,102.3431,27.8099,凉山彝族自治州,青龙寺,,24,19,30,7,8,75,,,,3,5,4,5,0.8,0.9
2025-02-22T0500,2572A,102.2721,27.8415,凉山彝族自治州,邛海宾馆,,25,22,33,17,22,62,,,,8,13,9,11,0.7,0.7
2025-02-22T0500,2573A,102.2625,27.898,凉山彝族自治州,西昌市政府,,19,19,31,12,21,47,,,,12,13,6,9,0.7,0.8
2025-02-22T0500,2574A,102.2685,27.8851,凉山彝族自治州,凉山州政府,,19,19,30,11,18,53,,,,11,13,10,14,0.4,0.4
2025-02-22T0500,2575A,102.237,27.8914,凉山彝族自治州,长安,,19,18,34,13,21,54,,,,10,16,7,10,0.7,0.8
2025-02-22T0500,2212A,123.2,41.1953,辽阳市,宏伟区,颗粒物(PM10),79,108,53,56,32,12,,,,51,21,18,14,1.2,0.8
2025-02-22T0500,2213A,123.1683,41.2495,辽阳市,新华园,细颗粒物(PM2.5),77,89,52,56,33,7,,,,63,31,13,11,1.6,1.1
2025-02-22T0500,2214A,123.2354,41.2639,辽阳市,滨河路,细颗粒物(PM2.5),75,81,47,55,32,12,,,,48,27,15,10,1.1,0.6
2025-02-22T0500,2215A,123.149,41.2991,辽阳市,铁西工业园,细颗粒物(PM2.5),97,108,56,72,41,0,,,,55,33,12,10,1.5,0.9
2025-02-22T0500,2227A,125.1358,42.8845,辽源市,环保局,颗粒物(PM10),85,119,93,44,37,15,,,,48,37,4,7,1.2,1.2
2025-02-22T0500,3239A,125.0764,42.9078,辽源市,银鹰制药,细颗粒物(PM2.5),94,81,69,70,42,19,,,,34,33,4,5,0.9,0.8
2025-02-22T0500,1625A,115.9848,36.4372,聊城市,区政府,,45,45,80,30,56,65,,,,16,23,14,13,0.7,0.8
2025-02-22T0500,2878A,116.0072,36.4343,聊城市,聊大东校,,,,,,,,,,,,,,,,
2025-02-22T0500,3200A,115.9819,36.4978,聊城市,监控中心,,48,48,94,31,62,57,,,,17,28,15,13,0.8,0.9
2025-02-22T0500,3513A,116.0445,36.4361,聊城市,九州社区,,45,45,78,28,54,62,,,,18,24,10,8,0.5,0.6
2025-02-22T0500,4018A,116.0567,36.4608,聊城市,星美广场,颗粒物(PM10),51,52,86,30,55,62,,,,19,24,13,12,0.8,0.8
2025-02-22T0500,2632A,94.3681,29.6376,林芝市,林芝监测站,,31,,10,3,6,97,,,,2,2,6,6,0.6,0.6
2025-02-22T0500,2633A,94.3616,29.6616,林芝市,林芝人民医院,,31,7,13,3,6,98,,,,1,2,6,6,0.7,0.7
2025-02-22T0500,2603A,100.0781,23.8982,临沧市,市环保局,细颗粒物(PM2.5),57,42,54,40,38,61,,,,9,12,8,11,0.4,0.4
2025-02-22T0500,2604A,100.0894,23.8822,临沧市,市气象局,细颗粒物(PM2.5),53,42,51,37,38,63,,,,8,14,9,11,0.4,0.4
2025-02-22T0500,1733A,111.5531,36.0783,临汾市,临钢医院,细颗粒物(PM2.5),107,113,108,80,74,17,,,,30,24,5,6,1.2,1.1
2025-02-22T0500,1734A,111.5028,36.0714,临汾市,技工学校,细颗粒物(PM2.5),130,116,113,99,93,16,,,,36,28,8,9,1.0,0.9
2025-02-22T0500,1736A,111.5018,36.0855,临汾市,市委,细颗粒物(PM2.5),122,134,123,92,88,12,,,,41,27,6,7,0.8,0.9
2025-02-22T0500,3018A,111.505,36.1014,临汾市,唐尧大酒店,细颗粒物(PM2.5),127,128,116,96,86,11,,,,41,28,6,7,1.2,1.1
2025-02-22T0500,4244A,111.4879,36.0530,临汾市,启星学校,细颗粒物(PM2.5),138,110,101,105,92,17,,,,32,28,3,4,1.0,0.8
2025-02-22T0500,2667A,103.2069,35.5993,临夏回族自治州,环保局,,,,,,,,,,,,,,,,
2025-02-22T0500,4271A,103.2464,35.6123,临夏回族自治州,滨河东路1号,颗粒物(PM10),60,70,66,28,26,82,,,,9,14,3,4,0.8,0.8
2025-02-22T0500,1618A,118.3429,35.0532,临沂市,沂河小区,,50,46,75,35,52,59,,,,13,24,11,13,0.6,0.6
2025-02-22T0500,1619A,118.295,35.0583,临沂市,鲁南制药厂,颗粒物(PM10),52,53,73,28,49,57,,,,20,29,9,13,0.5,0.6
2025-02-22T0500,1620A,118.2794,34.9976,临沂市,新光毛纺厂,,42,41,66,29,48,58,,,,18,30,8,11,0.6,0.7
2025-02-22T0500,1621A,118.3956,35.0888,临沂市,河东保险公司,,48,48,78,31,52,58,,,,22,34,5,8,0.6,0.7
2025-02-22T0500,3370A,118.3564,35.0215,临沂市,十里堡居委,,46,46,69,22,45,60,,,,17,24,9,12,0.5,0.5
2025-02-22T0500,3496A,118.3604,35.1084,临沂市,南坊新区,,44,44,72,27,50,61,,,,20,34,7,8,0.6,0.6
2025-02-22T0500,3860A,118.3920,35.0300,临沂市,皇山花园小区,,46,46,72,25,47,56,,,,22,36,6,8,0.8,0.7
2025-02-22T0500,1870A,109.4856,24.3895,柳州市,柳东小学,,18,18,16,11,10,27,,,,11,12,10,10,0.7,0.9
2025-02-22T0500,1871A,109.4157,24.3277,柳州市,环保监测站,,23,20,20,16,12,31,,,,11,16,9,9,0.8,0.9
2025-02-22T0500,1872A,109.389,24.341,柳州市,河西水厂,,26,26,28,17,16,25,,,,13,17,19,10,1.0,1.2
2025-02-22T0500,1873A,109.4311,24.2921,柳州市,市四中,,24,24,20,11,10,35,,,,8,12,7,7,0.7,0.7
2025-02-22T0500,1874A,109.4006,24.3631,柳州市,市九中,,18,18,20,12,12,27,,,,15,15,6,6,1.2,1
2025-02-22T0500,1875A,109.4958,24.3134,柳州市,古亭山,,12,,15,8,9,36,,,,7,9,7,7,0.6,0.6
2025-02-22T0500,3402A,109.5422,24.3996,柳州市,市二中,,19,,13,13,14,39,,,,10,13,8,9,0.4,0.4
2025-02-22T0500,2307A,116.5079,31.737,六安市,监测大楼,细颗粒物(PM2.5),57,55,47,40,39,60,,,,16,16,4,4,0.6,0.5
2025-02-22T0500,2308A,116.4738,31.7643,六安市,皖西学院,颗粒物(PM10),59,67,57,41,38,56,,,,19,18,3,3,0.5,0.5
2025-02-22T0500,2309A,116.4996,31.7905,六安市,朝阳厂,细颗粒物(PM2.5),54,50,46,38,36,53,,,,24,22,3,2,0.6,0.6
2025-02-22T0500,2310A,116.5567,31.7886,六安市,开发区,细颗粒物(PM2.5),79,64,55,58,41,51,,,,19,18,3,3,0.5,0.4
2025-02-22T0500,2576A,104.8,26.5892,六盘水市,窑上,,21,21,21,8,12,20,,,,8,11,4,4,0.8,0.8
2025-02-22T0500,2577A,104.83,26.5917,六盘水市,黄土坡,,10,10,10,3,10,21,,,,12,16,8,8,0.8,0.8
2025-02-22T0500,2578A,104.89,26.5939,六盘水市,水钢,,7,6,32,3,29,18,,,,13,12,6,6,0.6,0.5
2025-02-22T0500,2579A,104.8475,26.5894,六盘水市,民中,,8,6,11,3,8,16,,,,13,15,8,9,0.8,0.7
2025-02-22T0500,2580A,104.9544,26.5506,六盘水市,双水,,13,,6,9,5,21,,,,11,11,7,8,0.7,0.6
2025-02-22T0500,2335A,117.0189,25.1181,龙岩市,龙岩师专,,,,,,,,,,,,,,,,
2025-02-22T0500,2336A,117.0217,25.1033,龙岩市,龙岩市监测站,,33,24,18,23,12,28,,,,15,12,9,7,0.6,0.6
2025-02-22T0500,2337A,117.0258,25.0661,龙岩市,闽西职业技术学院,,25,22,16,17,11,26,,,,19,15,7,3,0.6,0.7
2025-02-22T0500,2338A,117.0196,25.0306,龙岩市,龙岩学院,,19,16,14,13,11,19,,,,18,14,4,3,0.4,0.6
2025-02-22T0500,2665A,105.0822,33.3261,陇南市,汉王镇固水子,,,,,,,,,,,,,,,,
2025-02-22T0500,2885A,104.9339,33.3826,陇南市,滨江中学,,28,25,37,19,24,20,,,,28,20,55,15,1.1,0.9
2025-02-22T0500,3247A,104.955,33.371,陇南市,市总工会,,24,24,34,7,18,36,,,,8,17,7,10,1.0,1.1
2025-02-22T0500,2487A,111.9589,27.8901,娄底市,电视发射台,,40,,86,28,78,45,,,,17,19,6,6,0.7,0.6
2025-02-22T0500,2488A,111.9975,27.725,娄底市,市监测站,,45,45,109,22,76,35,,,,21,24,8,8,0.6,0.7
2025-02-22T0500,2489A,112.0194,27.7314,娄底市,市委党校,细颗粒物(PM2.5),67,60,111,48,90,38,,,,27,27,3,4,0.6,0.6
2025-02-22T0500,2490A,111.9561,27.7569,娄底市,涟钢,细颗粒物(PM2.5),68,56,106,49,85,41,,,,13,20,6,7,0.7,1
2025-02-22T0500,2491A,111.9892,27.7044,娄底市,市政府,,46,36,109,32,89,44,,,,19,26,4,5,0.8,0.7
2025-02-22T0500,1893A,105.4324,28.9634,泸州市,九狮山,,,,,,,,,,,,,,,,
2025-02-22T0500,1894A,105.4427,28.9063,泸州市,小市上码头,,33,33,70,22,43,42,,,,18,23,6,7,0.2,0.4
2025-02-22T0500,1895A,105.4241,28.8573,泸州市,兰田宪桥,,34,34,66,23,46,25,,,,10,25,5,6,0.5,0.7
2025-02-22T0500,1896A,105.4379,28.8833,泸州市,市环监站,,27,27,80,17,47,48,,,,12,27,4,6,0.2,0.4
2025-02-22T0500,3490A,105.3617,28.7703,泸州市,纳溪区环保局,,,,,,,,,,,,,,,,
2025-02-22T0500,2183A,111.1406,37.5211,吕梁市,环保局,细颗粒物(PM2.5),72,76,81,52,48,15,,,,45,42,4,5,0.5,0.6
2025-02-22T0500,2185A,111.1297,37.5136,吕梁市,自来水公司,颗粒物(PM10),81,112,94,56,55,3,,,,53,37,18,8,0.6,0.7
2025-02-22T0500,2867A,111.1283,37.51,吕梁市,马茂庄小学,"颗粒物(PM10),细颗粒物(PM2.5)",74,98,95,54,50,10,,,,50,42,7,10,0.4,0.5
2025-02-22T0500,1812A,112.3931,34.6516,洛阳市,市委党校,细颗粒物(PM2.5),108,110,104,81,80,14,,,,38,27,4,4,0.6,0.7
2025-02-22T0500,1815A,112.494,34.6886,洛阳市,河南林校,细颗粒物(PM2.5),130,,97,99,99,18,,,,35,29,3,3,0.7,0.8
2025-02-22T0500,1816A,112.3844,34.623,洛阳市,开发区管委会,,,,96,,87,,,48,,,18,,3,,0.7
2025-02-22T0500,1817A,112.4267,34.6258,洛阳市,市委新办公区,细颗粒物(PM2.5),133,138,121,101,99,11,,,,45,32,3,3,0.5,0.8
2025-02-22T0500,3340A,112.6005,34.6326,洛阳市,伊滨,细颗粒物(PM2.5),159,154,131,121,116,6,,,,42,26,6,5,0.9,0.9
2025-02-22T0500,3341A,112.4951,34.6332,洛阳市,中移产业园,细颗粒物(PM2.5),149,,95,114,109,8,,,,48,37,4,4,1.2,1.1
2025-02-22T0500,3593A,112.5736,34.8993,洛阳市,吉利监测站,细颗粒物(PM2.5),142,,109,108,113,33,,,,31,30,5,6,0.8,0.7
2025-02-22T0500,3635A,112.3677,34.662,洛阳市,河科大西苑校区,细颗粒物(PM2.5),122,106,105,92,93,21,,,,33,28,6,5,0.9,0.9
2025-02-22T0500,3636A,112.4388,34.6781,洛阳市,英才小学,细颗粒物(PM2.5),107,109,101,80,82,17,,,,33,27,3,2,0.6,0.7
2025-02-22T0500,4214A,112.4600,34.6949,洛阳市,春都路1号院,细颗粒物(PM2.5),103,112,111,77,84,24,,,,33,32,6,6,0.8,0.9
2025-02-22T0500,2399A,114.051,33.5699,漯河市,三五一五工厂,细颗粒物(PM2.5),108,85,77,81,72,33,,,,17,16,3,3,0.7,0.7
2025-02-22T0500,2400A,114.0055,33.5698,漯河市,漯河大学,细颗粒物(PM2.5),104,92,76,78,69,40,,,,16,17,4,4,0.4,0.4
2025-02-22T0500,2401A,114.0138,33.5828,漯河市,市水利局,细颗粒物(PM2.5),107,88,76,80,70,36,,,,15,17,2,2,0.4,0.4
2025-02-22T0500,2402A,114.0261,33.5698,漯河市,市广电局,细颗粒物(PM2.5),103,,73,77,67,33,,,,19,20,3,3,0.6,0.5
2025-02-22T0500,3478A,113.9749,33.5664,漯河市,市图书馆,细颗粒物(PM2.5),113,93,83,85,72,38,,,,17,17,2,2,0.6,0.6
2025-02-22T0500,4250A,114.0892,33.5882,漯河市,韶山路11号,细颗粒物(PM2.5),112,102,88,84,75,17,,,,28,26,3,3,0.6,0.5
2025-02-22T0500,1798A,118.5092,31.6837,马鞍山市,湖东路四小,细颗粒物(PM2.5),59,55,43,42,28,47,,,,23,23,8,7,0.5,0.5
2025-02-22T0500,1799A,118.5024,31.6449,马鞍山市,开发区,细颗粒物(PM2.5),63,63,48,45,33,38,,,,35,27,8,7,0.5,0.4
2025-02-22T0500,1802A,118.6245,31.7241,马鞍山市,濮塘,细颗粒物(PM2.5),68,56,40,49,32,36,,,,25,12,4,4,0.6,0.5
2025-02-22T0500,3633A,118.4918,31.6809,马鞍山市,雨山,细颗粒物(PM2.5),62,60,49,44,32,48,,,,22,21,6,6,0.6,0.6
2025-02-22T0500,4191A,118.5274,31.72227,马鞍山市,慈湖高新区,细颗粒物(PM2.5),64,60,44,46,36,46,,,,26,23,7,7,0.4,0.4
2025-02-22T0500,1686A,111.0286,21.4688,茂名市,电白南海,颗粒物(PM10),64,78,65,44,35,27,,,,21,15,7,3,1.0,0.9
2025-02-22T0500,1687A,110.9294,21.6533,茂名市,茂石化七小,"颗粒物(PM10),细颗粒物(PM2.5)",58,66,57,41,33,30,,,,15,13,3,4,1.1,1
2025-02-22T0500,1688A,110.9107,21.6687,茂名市,健康路,细颗粒物(PM2.5),64,63,53,46,34,32,,,,17,15,5,6,1.1,1
2025-02-22T0500,1689A,110.8592,21.6828,茂名市,高岭,颗粒物(PM10),75,100,73,48,37,26,,,,18,19,5,9,0.9,0.8
2025-02-22T0500,3450A,111.01,21.5165,茂名市,电白水东,颗粒物(PM10),67,83,65,46,34,29,,,,18,12,5,5,0.9,0.8
2025-02-22T0500,2539A,104.0308,30.0478,眉山市,黑龙滩水库,,26,22,33,18,29,42,,,,4,4,3,3,0.5,0.5
2025-02-22T0500,2540A,103.8416,30.0874,眉山市,气象局,,20,,43,14,35,36,,,,11,28,4,4,0.5,0.6
2025-02-22T0500,3137A,103.8578,30.0744,眉山市,市委党校,,13,7,37,7,30,39,,,,12,29,6,6,0.6,0.7
2025-02-22T0500,3148A,103.8291,30.0564,眉山市,区人社局,,14,8,35,7,32,42,,,,14,33,6,7,0.7,0.8
2025-02-22T0500,1690A,116.1231,24.3284,梅州市,梅江月梅,,19,19,14,12,8,22,,,,13,10,9,9,0.6,0.6
2025-02-22T0500,1691A,116.0797,24.2719,梅州市,梅县新城,,27,27,17,16,8,20,,,,19,13,6,5,0.5,0.6
2025-02-22T0500,1692A,116.1248,24.2654,梅州市,环境监控中心,,18,18,15,11,10,23,,,,15,15,7,6,0.6,0.7
2025-02-22T0500,3315A,116.1233,24.2991,梅州市,梅龙,,22,22,15,12,8,29,,,,17,18,6,6,0.6,0.6
2025-02-22T0500,1878A,104.7778,31.4741,绵阳市,富乐山,,32,22,30,22,26,38,,,,11,12,2,2,0.5,0.5
2025-02-22T0500,1880A,104.6697,31.4668,绵阳市,高新区自来水公司,,32,28,42,22,24,34,,,,15,18,3,3,0.6,0.6
2025-02-22T0500,1881A,104.7287,31.5075,绵阳市,三水厂,,38,29,39,26,30,43,,,,11,13,5,5,0.6,0.7
2025-02-22T0500,3491A,104.69,31.5322,绵阳市,西科大附属小学,,25,21,33,17,23,35,,,,14,16,5,6,0.5,0.5
2025-02-22T0500,3492A,104.5648,31.5343,绵阳市,安州区旅游局,,20,,24,14,23,40,,,,12,15,7,10,0.7,0.7
2025-02-22T0500,4226A,104.7651,31.4531,绵阳市,绵阳市气象局,,32,29,35,22,27,40,,,,6,11,1,3,0.5,0.5
2025-02-22T0500,1784A,129.61,44.561,牡丹江市,环保大楼,,43,35,30,30,27,57,,,,15,13,11,7,0.4,0.5
2025-02-22T0500,1785A,129.6115,44.5782,牡丹江市,文化广场,,47,47,35,29,31,65,,,,17,18,8,8,0.4,0.4
2025-02-22T0500,1786A,129.5904,44.5963,牡丹江市,第一医院,细颗粒物(PM2.5),55,,36,39,32,48,,,,19,14,6,7,0.7,0.6
2025-02-22T0500,1787A,129.6364,44.6075,牡丹江市,机车工厂,,42,36,50,29,32,51,,,,10,15,7,8,0.3,0.4
2025-02-22T0500,1788A,129.6386,44.5462,牡丹江市,第一中学,,48,,31,33,24,53,,,,14,13,9,8,0.3,0.3
2025-02-22T0500,2531A,105.0703,29.61,内江市,市监测站,,49,,41,34,45,20,,,,14,18,6,5,0.9,0.9
2025-02-22T0500,2532A,105.0717,29.5947,内江市,东兴区政府,,45,33,44,31,40,16,,,,15,22,5,5,0.7,0.7
2025-02-22T0500,2533A,105.0653,29.5817,内江市,内江二中,"颗粒物(PM10),细颗粒物(PM2.5)",52,54,54,36,45,22,,,,16,22,7,7,0.7,0.8
2025-02-22T0500,2534A,105.0406,29.5822,内江市,内江日报社,,49,,48,34,43,21,,,,18,25,7,7,0.5,0.6
2025-02-22T0500,2628A,92.0657,31.4846,那曲市,那曲监测站,,22,16,28,10,18,70,,,,4,11,9,10,0.4,0.6
2025-02-22T0500,3128A,92.0506,31.4797,那曲市,那曲会议中心,,29,29,24,10,11,86,,,,1,5,7,7,0.9,0.9
2025-02-22T0500,1290A,115.8931,28.6843,南昌市,省外办,,32,,39,22,38,43,,,,15,21,4,4,0.4,0.4
2025-02-22T0500,1291A,115.8886,28.7003,南昌市,省林业公司,,20,,30,14,31,31,,,,11,20,6,6,0.3,0.3
2025-02-22T0500,1292A,115.8126,28.7442,南昌市,林科所,,19,19,28,12,25,35,,,,14,20,4,5,0.6,0.6
2025-02-22T0500,1294A,115.8518,28.687,南昌市,建工学校,,22,21,33,15,29,36,,,,12,24,7,7,0.7,0.7
2025-02-22T0500,1295A,115.8921,28.6424,南昌市,象湖,,20,,27,14,32,48,,,,9,20,5,5,0.7,0.8
2025-02-22T0500,1296A,115.7423,28.7996,南昌市,武术学校,,17,17,22,3,19,35,,,,12,14,3,3,0.4,0.5
2025-02-22T0500,3046A,115.9084,28.6062,南昌市,机电学校,,18,18,37,9,31,48,,,,16,21,5,5,1.0,0.8
2025-02-22T0500,3690A,115.9721,28.7031,南昌市,外国语学校,,16,11,31,11,23,41,,,,14,18,2,3,0.4,0.4
2025-02-22T0500,4192A,115.9316,28.68677,南昌市,南京东路235号,,20,,28,14,34,44,,,,13,20,3,3,0.7,0.8
2025-02-22T0500,1905A,106.056,30.8064,南充市,西山风景区,,50,,27,35,25,29,,,,8,9,3,3,0.7,0.7
2025-02-22T0500,1906A,106.0789,30.8023,南充市,南充市委,,48,38,38,33,32,20,,,,14,24,4,3,0.7,0.7
2025-02-22T0500,1907A,106.1031,30.8217,南充市,南充炼油厂,,45,35,36,31,31,24,,,,13,20,5,4,0.7,0.7
2025-02-22T0500,1909A,106.0642,30.7636,南充市,嘉陵区环保局,颗粒物(PM10),52,53,46,34,29,25,,,,16,28,4,4,0.6,0.6
2025-02-22T0500,1910A,106.1087,30.8388,南充市,市环境监测站,细颗粒物(PM2.5),53,38,41,37,31,25,,,,10,15,6,6,0.6,0.6
2025-02-22T0500,4227A,106.1083,30.7884,南充市,梨树横街98号,细颗粒物(PM2.5),53,38,38,37,30,26,,,,16,22,6,5,0.8,0.8
2025-02-22T0500,1151A,118.8086,32.1065,南京市,迈皋桥,颗粒物(PM10),56,61,48,39,35,15,,,,47,31,4,4,0.7,0.6
2025-02-22T0500,1152A,118.7538,32.0551,南京市,草场门,细颗粒物(PM2.5),58,53,44,41,29,31,,,,34,27,6,5,0.8,0.8
2025-02-22T0500,1153A,118.7794,32.0745,南京市,山西路,细颗粒物(PM2.5),62,68,57,44,34,35,,,,22,16,5,4,0.5,0.5
2025-02-22T0500,1154A,118.7752,32.0023,南京市,中华门,颗粒物(PM10),56,61,44,39,29,15,,,,42,26,3,4,0.5,0.5
2025-02-22T0500,1155A,118.8109,32.0309,南京市,瑞金路,颗粒物(PM10),56,61,49,39,34,22,,,,34,23,7,6,0.8,0.8
2025-02-22T0500,1156A,118.7997,32.0754,南京市,玄武湖,细颗粒物(PM2.5),62,69,52,44,30,28,,,,31,24,8,8,0.6,0.6
2025-02-22T0500,1157A,118.6414,32.0931,南京市,浦口,颗粒物(PM10),61,72,54,40,30,0,,,,65,31,6,6,0.9,0.6
2025-02-22T0500,1158A,118.7356,31.9996,南京市,奥体中心,颗粒物(PM10),60,69,49,39,30,19,,,,53,30,5,5,0.5,0.4
2025-02-22T0500,1159A,118.9125,32.1028,南京市,仙林大学城,细颗粒物(PM2.5),64,61,52,46,36,23,,,,35,26,6,6,0.7,0.7
2025-02-22T0500,3422A,118.8436,31.9198,南京市,江宁彩虹桥,颗粒物(PM10),58,66,49,36,30,17,,,,39,23,4,4,0.6,0.5
2025-02-22T0500,3423A,119.0138,31.6494,南京市,溧水永阳,细颗粒物(PM2.5),59,,32,42,34,44,,,,27,28,4,4,0.5,0.5
2025-02-22T0500,3427A,118.8554,32.3578,南京市,六合雄州,颗粒物(PM10),58,65,52,33,28,29,,,,40,43,5,5,0.8,0.7
2025-02-22T0500,4249A,118.8708,31.3402,南京市,汶溪路181号,细颗粒物(PM2.5),58,52,41,41,31,57,,,,17,17,3,3,0.3,0.4
2025-02-22T0500,1401A,108.3103,22.7881,南宁市,二十一中,,34,34,18,17,11,22,,,,19,24,4,5,1.0,0.9
2025-02-22T0500,1402A,108.3141,22.8528,南宁市,北湖,,33,29,22,23,17,16,,,,21,23,7,6,0.8,0.9
2025-02-22T0500,1403A,108.3206,22.8225,南宁市,市监测站,,29,25,21,20,17,23,,,,15,24,9,9,0.9,0.9
2025-02-22T0500,1404A,108.3829,22.8037,南宁市,大自然花园,,25,23,22,17,15,20,,,,17,18,5,5,0.8,1
2025-02-22T0500,1405A,108.4394,22.7904,南宁市,仙葫,,33,27,17,23,11,22,,,,17,14,1,2,0.8,0.8
2025-02-22T0500,1406A,108.2397,22.8467,南宁市,区农职院,,29,29,21,20,14,11,,,,22,21,7,6,0.8,0.8
2025-02-22T0500,1407A,108.3275,22.735,南宁市,英华嘉园,,30,25,21,21,15,21,,,,14,18,6,6,0.8,0.8
2025-02-22T0500,3401A,108.4834,22.7618,南宁市,红星社区,,35,26,17,24,12,21,,,,15,12,6,8,0.9,0.9
2025-02-22T0500,4221A,108.2177,22.7774,南宁市,乐贤路16号,,33,,21,23,16,17,,,,22,25,6,5,0.8,0.9
2025-02-22T0500,2331A,118.0966,26.6761,南平市,茫荡山,,,,,,,,,,,,,,,,
2025-02-22T0500,2332A,118.1681,26.6369,南平市,南平市监测站,,17,16,12,8,8,52,,,,7,9,4,4,0.4,0.5
2025-02-22T0500,2333A,118.1825,26.6489,南平市,南平铝业有限公司,,,,8,15,8,59,,,,10,10,4,4,0.5,0.5
2025-02-22T0500,2334A,118.1756,26.6272,南平市,南平七中,,19,10,9,8,6,58,,,,8,9,4,4,0.4,0.5
2025-02-22T0500,1168A,120.9098,31.9663,南通市,狼山街道,细颗粒物(PM2.5),60,60,44,43,28,76,,,,19,19,7,6,0.6,0.6
2025-02-22T0500,1169A,120.86,32.0005,南通市,虹桥,颗粒物(PM10),53,56,41,35,26,83,,,,18,21,6,5,0.1,0.2
2025-02-22T0500,1170A,120.87,32.02,南通市,城中,"颗粒物(PM10),细颗粒物(PM2.5)",52,53,44,36,24,84,,,,17,18,6,6,0.5,0.6
2025-02-22T0500,1171A,120.94,31.93,南通市,星湖花园,颗粒物(PM10),51,52,38,34,25,73,,,,21,21,6,6,0.4,0.4
2025-02-22T0500,1172A,120.81,32.0417,南通市,紫琅学院,,49,49,40,31,21,83,,,,16,20,3,3,0.5,0.5
2025-02-22T0500,3291A,121.067,32.062,南通市,通州监测站,细颗粒物(PM2.5),52,51,39,36,24,90,,,,12,14,3,3,0.5,0.5
2025-02-22T0500,3432A,120.9348,31.9883,南通市,环境教育馆,细颗粒物(PM2.5),67,53,42,48,30,76,,,,14,16,5,5,0.2,0.4
2025-02-22T0500,2404A,112.5224,33.0122,南阳市,瓦房庄,细颗粒物(PM2.5),120,92,86,91,81,52,,,,12,18,4,5,0.6,0.6
2025-02-22T0500,2405A,112.5003,32.9735,南阳市,汉画馆,细颗粒物(PM2.5),97,87,80,72,61,57,,,,14,21,6,6,0.6,0.6
2025-02-22T0500,2406A,112.5573,33.027,南阳市,气象站,细颗粒物(PM2.5),119,100,93,90,76,51,,,,12,18,4,4,0.7,0.6
2025-02-22T0500,2407A,112.5481,32.9689,南阳市,理工学院,细颗粒物(PM2.5),120,92,79,91,74,50,,,,15,19,4,5,0.7,0.6
2025-02-22T0500,4008A,112.5234,32.9922,南阳市,卧龙区政府,细颗粒物(PM2.5),114,90,81,86,71,55,,,,16,22,4,5,0.7,0.6
2025-02-22T0500,1234A,121.8358,29.911,宁波市,区环保大楼,颗粒物(PM10),52,54,42,28,18,87,,,,15,34,6,6,0.5,0.6
2025-02-22T0500,1235A,121.56,29.82,宁波市,万里学院,"颗粒物(PM10),细颗粒物(PM2.5)",57,64,39,40,23,3,,,,55,29,6,6,0.6,0.5
2025-02-22T0500,1236A,121.713,29.9572,宁波市,龙赛医院,颗粒物(PM10),57,64,40,28,16,60,,,,40,18,5,5,0.5,0.5
2025-02-22T0500,1239A,121.633,29.7733,宁波市,钱湖水厂,,45,44,27,31,18,36,,,,27,22,5,6,0.5,0.4
2025-02-22T0500,1240A,121.5856,29.8635,宁波市,太古小学,颗粒物(PM10),56,61,37,37,22,64,,,,30,27,8,7,0.4,0.3
2025-02-22T0500,1241A,121.524,29.8674,宁波市,市环境监测中心,颗粒物(PM10),59,68,37,33,20,22,,,,48,28,6,6,0.6,0.5
2025-02-22T0500,2871A,121.6147,29.9017,宁波市,万里国际学校,颗粒物(PM10),55,59,30,32,18,52,,,,38,26,7,6,0.4,0.3
2025-02-22T0500,3710A,121.5594,29.8975,宁波市,白沙活动中心,,50,50,31,30,18,56,,,,28,27,5,5,0.4,0.3
2025-02-22T0500,2339A,119.5001,26.6946,宁德市,金涵水库,,,,,,,,,,,,,,,,
2025-02-22T0500,2341A,119.5388,26.6612,宁德市,宁德市监测站,,33,,20,23,16,42,,,,10,11,4,5,0.6,0.6
2025-02-22T0500,3209A,119.5231,26.6562,宁德市,宁德一中,,32,28,19,22,15,41,,,,5,9,4,5,0.2,0.3
2025-02-22T0500,2618A,98.8601,25.8567,怒江傈僳族自治州,州监测站,,33,33,36,19,23,80,,,,5,11,5,6,0.2,0.3
2025-02-22T0500,2619A,98.8546,25.8417,怒江傈僳族自治州,泸水一中,,23,16,36,16,26,62,,,,7,16,6,6,0.3,0.4
2025-02-22T0500,1888A,101.6891,26.571,攀枝花市,弄弄坪,,37,37,55,25,30,53,,,,28,34,14,36,0.7,2
2025-02-22T0500,1889A,101.5769,26.5928,攀枝花市,河门口,,48,48,38,27,22,30,,,,39,19,19,12,0.8,0.6
2025-02-22T0500,1890A,101.7169,26.585,攀枝花市,炳草岗,颗粒物(PM10),51,52,46,27,23,29,,,,43,32,6,14,0.7,1.2
2025-02-22T0500,1891A,101.7369,26.5008,攀枝花市,仁和,,36,36,38,24,25,58,,,,15,19,11,9,0.6,0.7
2025-02-22T0500,2835A,101.7227,26.567,攀枝花市,四十中小,,43,43,46,21,23,54,,,,30,27,13,15,0.7,0.9
2025-02-22T0500,1604A,122.0303,41.1489,盘锦市,开发区,,25,25,37,14,24,43,,,,24,23,8,7,0.5,0.6
2025-02-22T0500,1605A,122.0485,41.0883,盘锦市,兴隆台,,22,22,38,14,23,46,,,,21,26,12,8,0.6,0.7
2025-02-22T0500,1606A,121.8297,41.1028,盘锦市,新生街道,,42,42,39,22,19,16,,,,57,42,28,13,0.8,0.6
2025-02-22T0500,1832A,113.3257,33.742,平顶山市,新华旅馆,细颗粒物(PM2.5),122,109,113,92,92,29,,,,26,26,5,4,0.7,0.8
2025-02-22T0500,1833A,113.2919,33.737,平顶山市,规划设计院,细颗粒物(PM2.5),109,95,104,82,88,35,,,,26,26,4,4,0.5,0.6
2025-02-22T0500,1834A,113.182,33.774,平顶山市,平顶山工学院,细颗粒物(PM2.5),100,87,89,75,79,42,,,,18,19,2,2,0.5,0.6
2025-02-22T0500,3204A,113.3025,33.73,平顶山市,规划局,细颗粒物(PM2.5),115,92,97,87,95,37,,,,28,27,3,2,0.6,0.7
2025-02-22T0500,3594A,112.8867,33.9116,平顶山市,石龙区,细颗粒物(PM2.5),119,105,102,90,91,30,,,,26,27,4,4,0.5,0.6
2025-02-22T0500,2656A,106.6692,35.5461,平凉市,聚贤嘉苑,颗粒物(PM10),59,67,78,35,55,22,,,,48,36,10,10,0.6,0.8
2025-02-22T0500,2657A,106.7021,35.5307,平凉市,博物馆,细颗粒物(PM2.5),77,70,79,56,62,22,,,,35,27,12,12,1.1,0.9
2025-02-22T0500,2347A,114.0997,27.5002,萍乡市,武功山,,39,,10,27,23,41,,,,6,7,6,5,0.4,0.4
2025-02-22T0500,2348A,113.8385,27.6434,萍乡市,中医院,,35,35,41,21,31,48,,,,13,15,5,6,0.7,0.8
2025-02-22T0500,2349A,113.8493,27.6253,萍乡市,市政府车库,,35,26,35,24,29,46,,,,12,13,6,5,0.6,0.5
2025-02-22T0500,2350A,113.8676,27.6435,萍乡市,市环保局,,38,29,35,26,27,43,,,,13,14,5,4,0.5,0.5
2025-02-22T0500,2351A,113.866,27.6198,萍乡市,安源区政府,,32,28,35,22,32,41,,,,14,15,10,7,0.9,1.1
2025-02-22T0500,2319A,119.0141,25.4325,莆田市,荔城区仓后路,,25,18,12,8,5,79,,,,7,10,2,2,0.4,0.5
2025-02-22T0500,2320A,119.0015,25.4553,莆田市,莆田市监测站,,26,20,9,10,5,83,,,,3,5,3,3,0.4,0.4
2025-02-22T0500,2321A,119.1119,25.4561,莆田市,涵江区六中,,24,22,13,9,6,76,,,,10,13,2,2,0.4,0.4
2025-02-22T0500,2322A,119.1013,25.3215,莆田市,秀屿区政府,,26,16,17,12,7,82,,,,9,12,3,3,0.5,0.4
2025-02-22T0500,2323A,118.981,25.4792,莆田市,东圳水库,,,,,,,,,,,,,,,,
2025-02-22T0500,2392A,115.0312,35.7636,濮阳市,环保局,,40,39,57,28,58,53,,,,11,16,5,3,0.7,0.8
2025-02-22T0500,2394A,115.0574,35.7609,濮阳市,油田运输公司,颗粒物(PM10),54,57,77,30,57,51,,,,13,19,5,3,0.6,0.9
2025-02-22T0500,3021A,115,35.7668,濮阳市,濮水河管理处,颗粒物(PM10),52,53,78,27,55,55,,,,15,21,6,4,0.3,0.5
2025-02-22T0500,4216A,115.0924,35.7686,濮阳市,任丘路479号,颗粒物(PM10),53,56,89,30,60,55,,,,11,17,7,4,0.5,0.8
2025-02-22T0500,2601A,100.98,22.7633,普洱市,市环保局,颗粒物(PM10),57,64,79,20,34,53,,,,8,15,7,7,0.6,0.7
2025-02-22T0500,2602A,100.9817,22.8322,普洱市,普洱第二中学,颗粒物(PM10),55,59,75,26,35,23,,,,29,32,4,4,0.2,0.2
2025-02-22T0500,2262A,131.0518,45.8751,七台河市,新一中,,30,26,28,21,21,82,,,,10,10,12,12,0.7,0.7
2025-02-22T0500,3345A,131.0577,45.7879,七台河市,中波台,,39,35,38,27,27,63,,,,20,23,7,8,0.4,0.3
2025-02-22T0500,3637A,131.0176,45.7761,七台河市,人民广场,细颗粒物(PM2.5),59,44,58,42,39,65,,,,20,26,8,10,0.5,0.4
2025-02-22T0500,3684A,130.8781,45.8222,七台河市,新建矿广场,细颗粒物(PM2.5),53,,56,37,37,55,,,,22,24,9,9,0.3,0.4
2025-02-22T0500,1779A,123.9305,47.3636,齐齐哈尔市,安居小区,,32,32,37,22,24,47,,,,25,24,3,4,0.3,0.4
2025-02-22T0500,1780A,123.9488,47.3386,齐齐哈尔市,中心广场,,29,29,29,19,20,55,,,,16,22,3,5,0.4,0.5
2025-02-22T0500,1781A,123.9483,47.3227,齐齐哈尔市,农牧车辆厂,,25,,28,17,20,56,,,,16,23,5,7,0.4,0.5
2025-02-22T0500,1783A,123.945,47.2988,齐齐哈尔市,市环境监测站,,28,28,36,11,21,58,,,,14,27,5,6,0.3,0.4
2025-02-22T0500,3662A,123.6333,47.2075,齐齐哈尔市,富区青少年活动中心,,19,15,33,10,15,59,,,,14,14,7,8,0.5,0.5
2025-02-22T0500,2591A,107.9783,26.5747,黔东南苗族侗族自治州,市环境监测站,,19,16,24,13,21,47,,,,7,12,2,2,0.6,0.6
2025-02-22T0500,2881A,107.8908,26.5311,黔东南苗族侗族自治州,凯里学院,,19,,16,13,18,46,,,,8,12,2,1,0.7,0.7
2025-02-22T0500,2593A,107.5228,26.2403,黔南布依族苗族自治州,小围寨,,11,6,8,3,6,34,,,,7,7,3,4,1.0,0.9
2025-02-22T0500,3538A,107.5175,26.2978,黔南布依族苗族自治州,沙坝,,13,6,12,3,9,40,,,,5,5,4,4,0.9,0.9
2025-02-22T0500,2589A,104.9022,25.0925,黔西南布依族苗族自治州,场坝街,,11,11,18,3,9,22,,,,4,8,2,3,0.3,0.3
2025-02-22T0500,2590A,104.8811,25.0992,黔西南布依族苗族自治州,坪东大道,,12,12,14,6,12,22,,,,5,9,5,5,0.2,0.2
2025-02-22T0500,2502A,108.6236,21.9667,钦州市,市环保站,细颗粒物(PM2.5),52,41,43,36,26,14,,,,27,22,16,12,1.2,1.1
2025-02-22T0500,2503A,108.6549,21.9481,钦州市,沙埠小学,,39,37,44,27,25,14,,,,23,22,6,6,1.1,1.1
2025-02-22T0500,2504A,108.5989,21.7431,钦州市,港区一小,,48,45,53,33,29,8,,,,20,25,9,9,1.1,1
2025-02-22T0500,3404A,108.5959,21.9633,钦州市,北职校,细颗粒物(PM2.5),52,38,37,36,32,15,,,,21,18,7,6,0.9,0.9
2025-02-22T0500,1043A,119.7493,40.0116,秦皇岛市,第一关,,26,20,32,18,25,29,,,,47,39,3,5,0.3,0.3
2025-02-22T0500,1044A,119.5897,39.9499,秦皇岛市,监测站,,24,24,37,16,17,62,,,,11,23,3,4,0.3,0.4
2025-02-22T0500,1046A,119.5251,39.9041,秦皇岛市,建设大厦,,44,44,38,29,25,14,,,,46,24,4,4,0.6,0.5
2025-02-22T0500,3132A,119.610547,39.943889,秦皇岛市,文明里,,20,17,32,14,16,64,,,,10,21,4,4,0.2,0.3
2025-02-22T0500,4198A,119.5090,39.8253,秦皇岛市,北戴河轮滑馆,,37,37,29,19,13,13,,,,45,18,7,8,0.8,0.4
2025-02-22T0500,1307A,120.6659,36.2403,青岛市,仰口,,23,20,33,16,26,58,,,,3,10,3,3,0.9,1.1
2025-02-22T0500,1310A,120.4134,36.0658,青岛市,市南区东部子站,,29,29,37,19,21,80,,,,6,10,7,8,0.4,0.5
2025-02-22T0500,1311A,120.3664,36.1032,青岛市,四方区子站,,25,17,35,17,26,80,,,,9,15,3,4,0.6,0.7
2025-02-22T0500,1312A,120.2994,36.054,青岛市,市南区西部子站,,29,29,34,10,16,74,,,,10,16,8,7,0.5,0.6
2025-02-22T0500,1313A,120.4581,36.0858,青岛市,崂山区子站,,25,19,30,14,18,80,,,,9,10,9,9,0.5,0.6
2025-02-22T0500,1315A,120.3999,36.3083,青岛市,城阳区子站,,23,17,44,15,24,72,,,,11,27,7,8,0.6,0.7
2025-02-22T0500,1966A,120.0405,35.8735,青岛市,黄岛区4号,,29,29,41,19,25,76,,,,16,25,7,9,0.8,1
2025-02-22T0500,3362A,120.5014,36.4034,青岛市,即墨2号,,26,26,39,17,24,65,,,,7,12,6,7,0.6,0.7
2025-02-22T0500,3642A,120.3503,36.0736,青岛市,市北区南部,,32,32,40,14,19,66,,,,8,12,7,6,0.6,0.7
2025-02-22T0500,3643A,120.3948,36.1805,青岛市,李沧区北部,,24,22,41,14,28,74,,,,12,26,10,11,0.5,0.7
2025-02-22T0500,4290A,120.1969,35.9546,青岛市,珠江路669号,,29,29,43,17,30,40,,,,45,31,8,8,0.5,0.7
2025-02-22T0500,1702A,113.0426,23.691,清远市,环保大楼,,17,17,12,10,6,38,,,,12,10,9,6,0.9,1
2025-02-22T0500,1703A,113.0208,23.7106,清远市,凤城街办,,15,15,11,8,6,39,,,,19,16,10,7,0.7,0.8
2025-02-22T0500,3025A,113.0477,23.6344,清远市,技师学院,,21,21,14,12,7,42,,,,18,18,14,9,0.6,0.6
2025-02-22T0500,3318A,112.9903,23.7403,清远市,清新太和,,16,16,12,9,7,37,,,,13,9,8,7,0.6,0.7
2025-02-22T0500,3455A,113.076,23.7198,清远市,清城东城,,19,19,11,12,6,42,,,,12,11,10,7,0.7,0.7
2025-02-22T0500,2661A,107.6325,35.7357,庆阳市,庆阳五中,细颗粒物(PM2.5),80,63,59,59,57,42,,,,14,16,1,2,0.9,0.8
2025-02-22T0500,2662A,107.6364,35.7067,庆阳市,市环保局,细颗粒物(PM2.5),68,64,61,49,48,44,,,,18,17,10,5,0.8,0.8
2025-02-22T0500,1916A,103.7897,25.5035,曲靖市,环境监测站,,46,36,43,32,26,70,,,,10,12,5,6,0.6,0.6
2025-02-22T0500,1917A,103.8,25.5364,曲靖市,烟厂办公区,,42,42,44,27,26,65,,,,10,9,4,5,0.5,0.5
2025-02-22T0500,3376A,103.7947,25.462,曲靖市,南苑二区,,44,44,40,28,27,61,,,,8,9,3,5,0.5,0.5
2025-02-22T0500,3377A,103.7444,25.5261,曲靖市,曲靖师范学院,细颗粒物(PM2.5),65,48,46,47,35,63,,,,19,13,19,9,0.6,0.5
2025-02-22T0500,1264A,118.8692,28.9398,衢州市,环保大楼,,46,44,27,32,20,46,,,,12,14,3,3,0.4,0.5
2025-02-22T0500,1265A,118.8709,28.9666,衢州市,实验学校,,45,37,25,31,19,60,,,,9,12,7,3,0.3,0.3
2025-02-22T0500,1266A,118.8621,28.9808,衢州市,衢州学院,,39,37,24,27,18,51,,,,13,16,4,4,0.4,0.4
2025-02-22T0500,1611A,118.5819,24.9117,泉州市,涂山街,,26,9,12,8,9,83,,,,6,11,2,2,0.4,0.5
2025-02-22T0500,1612A,118.5972,24.8978,泉州市,津头埔,,25,8,12,8,8,78,,,,8,14,2,2,0.4,0.5
2025-02-22T0500,1613A,118.6663,24.9424,泉州市,万安,,27,12,15,7,8,86,,,,6,12,3,3,0.3,0.4
2025-02-22T0500,1614A,118.6117,24.9604,泉州市,清源山,,,,,,,,,,,,,,,,
2025-02-22T0500,3529A,118.6333,24.9264,泉州市,城华南路,,25,11,14,7,8,80,,,,5,14,2,3,0.4,0.4
2025-02-22T0500,2626A,88.8876,29.2718,日喀则市,日喀则监测站,,42,42,19,12,9,92,,,,10,10,6,5,0.4,0.5
2025-02-22T0500,3726A,88.8781,29.2426,日喀则市,林业技术推广中心,,36,36,20,9,5,101,,,,2,2,7,7,0.2,0.3
2025-02-22T0500,1659A,119.471,35.4209,日照市,监测站,,39,,60,27,38,69,,,,17,44,6,9,0.5,0.9
2025-02-22T0500,1660A,119.523,35.4216,日照市,市政府广场,,36,36,57,22,33,65,,,,15,35,4,7,0.6,0.9
2025-02-22T0500,1661A,119.5587,35.4044,日照市,港务局,,45,41,57,31,38,66,,,,18,33,8,10,0.7,0.9
2025-02-22T0500,3507A,119.5328,35.4625,日照市,职业技术学院,,41,41,55,24,31,68,,,,19,35,4,7,0.5,0.8
2025-02-22T0500,3604A,119.3266,35.1044,日照市,岚山环保分局,颗粒物(PM10),57,63,63,38,43,62,,,,26,37,8,15,0.8,1.7
2025-02-22T0500,1835A,111.1922,34.7752,三门峡市,市政府,细颗粒物(PM2.5),145,,82,111,101,26,,,,20,23,6,5,0.9,0.9
2025-02-22T0500,1836A,111.1587,34.7942,三门峡市,开发区,细颗粒物(PM2.5),159,125,112,121,104,30,,,,17,19,3,2,0.7,0.7
2025-02-22T0500,1838A,111.143,34.7955,三门峡市,风景区,,,,,,,,,,,,,,,,
2025-02-22T0500,3039A,111.1911,34.7829,三门峡市,三门峡市第一小学,细颗粒物(PM2.5),137,,83,104,95,32,,,,21,23,4,3,1.0,0.9
2025-02-22T0500,3598A,111.1,34.7167,三门峡市,富达温泉假日酒店,细颗粒物(PM2.5),125,97,92,95,92,1,,,,51,38,8,7,1.0,0.9
2025-02-22T0500,2324A,117.6211,26.2625,三明市,三钢,,19,19,18,11,15,44,,,,10,14,4,4,0.5,0.6
2025-02-22T0500,2325A,117.635,26.2714,三明市,三明二中,,13,10,10,9,8,41,,,,10,13,4,4,0.5,0.6
2025-02-22T0500,2326A,117.6028,26.2378,三明市,三元区政府,,13,9,11,7,8,41,,,,12,14,6,5,0.5,0.6
2025-02-22T0500,2327A,117.7275,26.3108,三明市,洋溪,,,,,,,,,,,,,,,,
2025-02-22T0500,1876A,109.5078,18.2489,三亚市,河东子站,,28,21,31,11,15,87,,,,3,4,4,4,0.4,0.4
2025-02-22T0500,1877A,109.4964,18.2681,三亚市,河西子站,,27,18,29,10,15,86,,,,2,4,3,3,0.3,0.3
2025-02-22T0500,3540A,109.7348,18.3443,三亚市,君悦子站,,28,28,39,11,15,84,,,,4,6,4,4,0.3,0.3
2025-02-22T0500,2624A,91.7608,29.2313,山南市,山南监测站,,25,11,10,8,5,80,,,,7,4,4,3,0.4,0.4
2025-02-22T0500,2625A,91.7706,29.2436,山南市,山南人民医院,,26,14,17,8,8,81,,,,5,4,5,5,0.4,0.4
2025-02-22T0500,1674A,116.6794,23.3667,汕头市,金平子站,,23,13,20,10,14,72,,,,11,16,5,6,0.3,0.3
2025-02-22T0500,1675A,116.7244,23.3633,汕头市,龙湖子站,,25,10,20,6,9,80,,,,9,14,3,4,0.5,0.6
2025-02-22T0500,1676A,116.7258,23.2775,汕头市,濠江子站,,25,,18,11,13,77,,,,16,14,3,3,0.2,0.2
2025-02-22T0500,1677A,116.7519,23.4714,汕头市,澄海子站,,22,,23,8,13,68,,,,12,16,4,4,0.4,0.5
2025-02-22T0500,1678A,116.6092,23.2539,汕头市,潮阳子站,,25,11,20,3,6,79,,,,7,10,6,6,0.4,0.4
2025-02-22T0500,3444A,116.454,23.2684,汕头市,潮南峡山,,25,13,22,3,12,77,,,,10,12,8,8,0.3,0.4
2025-02-22T0500,3624A,116.4069,23.2533,汕头市,潮南子站,,22,20,33,6,13,70,,,,9,13,7,7,0.5,0.5
2025-02-22T0500,1693A,115.3653,22.775,汕尾市,市环保局,,25,18,26,11,19,77,,,,7,8,7,7,0.5,0.5
2025-02-22T0500,1694A,115.3706,22.7898,汕尾市,市政府,,24,24,26,11,20,74,,,,9,11,10,10,0.7,0.7
2025-02-22T0500,1695A,115.3622,22.7925,汕尾市,新城中学,,,28,29,11,20,78,,,,7,9,9,9,,0.6
2025-02-22T0500,2645A,109.9154,33.8715,商洛市,监测站,细颗粒物(PM2.5),102,84,112,76,81,53,,,,27,29,8,7,0.7,0.8
2025-02-22T0500,3045A,109.9643,33.8471,商洛市,商州区中学,细颗粒物(PM2.5),107,,90,80,86,55,,,,24,26,7,2,0.7,0.9
2025-02-22T0500,2408A,115.6702,34.4285,商丘市,环境监测站,细颗粒物(PM2.5),98,89,62,73,56,35,,,,29,27,2,1,0.4,0.4
2025-02-22T0500,2409A,115.6458,34.4045,商丘市,粮食局,细颗粒物(PM2.5),97,81,57,72,56,36,,,,21,18,2,2,0.6,0.4
2025-02-22T0500,2410A,115.6293,34.3948,商丘市,睢阳区环保局,,,88,61,65,51,39,,,,21,19,3,4,,0.2
2025-02-22T0500,3171A,115.6071,34.4465,商丘市,梁园区档案局,细颗粒物(PM2.5),95,,49,71,56,39,,,,16,22,1,1,0.5,0.5
2025-02-22T0500,1141A,121.4,31.238,上海市,普陀,,46,46,44,32,24,83,,,,31,31,7,8,0.6,0.6
2025-02-22T0500,1142A,121.478,31.2036,上海市,十五厂,,49,45,43,34,25,77,,,,26,29,7,7,0.5,0.5
2025-02-22T0500,1143A,121.467,31.3008,上海市,虹口,,48,41,40,33,26,90,,,,27,35,7,9,0.6,0.6
2025-02-22T0500,1147A,121.425,31.2261,上海市,静安监测站,,50,50,46,32,26,73,,,,44,35,8,10,0.5,0.6
2025-02-22T0500,1148A,121.703,31.1907,上海市,浦东川沙,,48,48,39,30,22,65,,,,36,24,6,7,0.6,0.5
2025-02-22T0500,1149A,121.533,31.2284,上海市,浦东新区监测站,,45,45,40,30,23,82,,,,38,40,7,7,0.6,0.7
2025-02-22T0500,1150A,121.577,31.2071,上海市,浦东张江,,46,44,40,32,23,84,,,,28,30,6,6,0.6,0.6
2025-02-22T0500,3265A,121.4316,31.3322,上海市,宝山庙行,,49,49,41,34,24,58,,,,40,28,8,8,0.6,0.6
2025-02-22T0500,3266A,121.8791,31.4662,上海市,崇明上实东滩,,42,36,33,29,23,70,,,,14,11,5,6,0.6,0.6
2025-02-22T0500,3268A,121.3162,31.2838,上海市,嘉定南翔,细颗粒物(PM2.5),57,49,42,40,26,55,,,,48,41,8,7,0.6,0.6
2025-02-22T0500,3269A,121.3359,30.7456,上海市,金山新城,细颗粒物(PM2.5),59,55,36,42,23,70,,,,22,16,4,3,0.8,0.7
2025-02-22T0500,3270A,121.4996,31.0739,上海市,闵行浦江,,47,47,42,31,21,81,,,,25,28,5,5,0.4,0.4
2025-02-22T0500,3271A,121.2886,31.1663,上海市,青浦徐泾,细颗粒物(PM2.5),52,45,39,36,26,70,,,,32,34,5,6,0.7,0.7
2025-02-22T0500,3272A,121.2186,31.0378,上海市,松江图书馆,"颗粒物(PM10),细颗粒物(PM2.5)",53,55,42,37,25,73,,,,31,33,9,9,0.7,0.7
2025-02-22T0500,3273A,121.3902,31.2059,上海市,长宁仙霞,,43,43,42,30,25,90,,,,26,31,6,6,0.7,0.7
2025-02-22T0500,3274A,121.7965,31.0507,上海市,浦东惠南,,50,50,41,30,23,81,,,,23,25,6,6,0.7,0.6
2025-02-22T0500,3544A,121.4891,30.925,上海市,奉贤南桥新城,细颗粒物(PM2.5),64,65,42,46,26,48,,,,38,25,7,6,0.6,0.6
2025-02-22T0500,4183A,121.4174,31.16637,上海市,冠生园路458号,细颗粒物(PM2.5),52,45,40,36,25,82,,,,20,24,6,7,0.6,0.6
2025-02-22T0500,4205A,121.5419,31.2683,上海市,宁武路151号,颗粒物(PM10),51,51,47,33,25,44,,,,60,39,6,6,0.4,0.4
2025-02-22T0500,2381A,118.005,28.4572,上饶市,百草园,,35,24,17,24,13,48,,,,3,2,1,2,0.7,0.7
2025-02-22T0500,2382A,117.9756,28.4436,上饶市,市监测站,,31,31,20,19,10,52,,,,8,10,5,6,0.4,0.4
2025-02-22T0500,2383A,117.9519,28.4628,上饶市,凤凰光学,,39,39,22,16,12,52,,,,7,10,10,7,0.5,0.5
2025-02-22T0500,3685A,117.897,28.4315,上饶市,双创科技城,,27,27,21,16,13,53,,,,10,14,10,7,0.5,0.6
2025-02-22T0500,4211A,118.1904,28.4448,上饶市,裕丰大道,,41,41,24,22,18,47,,,,14,16,2,2,0.4,0.4
2025-02-22T0500,1669A,113.5824,24.7733,韶关市,市八中,,36,27,12,25,9,49,,,,9,11,6,5,0.5,0.5
2025-02-22T0500,1671A,113.5917,24.7972,韶关市,园林处,,33,28,12,23,8,47,,,,8,10,5,5,0.6,0.6
