timepoint,stationcode,longitude,latitude,area,positionname,primarypollutant,aqi,pm10,pm10_24h,pm2_5,pm2_5_24h,o3,o3_24h,o3_8h,o3_8h_24h,no2,no2_24h,so2,so2_24h,co,co_24h
2025-06-21T1900,2566A,102.1879,31.914,阿坝藏族羌族自治州,州农科所,,23,23,23,8,8,67,,68,68,13,9,12,12,0.6,0.6
2025-06-21T1900,2568A,102.2502,31.8896,阿坝藏族羌族自治州,马师校,,32,,16,22,14,70,,71,71,12,8,6,6,0.5,0.5
2025-06-21T1900,3994A,102.2165,31.9024,阿坝藏族羌族自治州,马尔康中学西区,,39,,15,27,16,85,,75,75,6,8,6,6,0.6,0.6
2025-06-21T1900,2695A,80.292,41.1694,阿克苏地区,电视台,颗粒物(PM10),116,181,111,44,34,126,,107,107,5,12,6,5,0.5,0.6
2025-06-21T1900,2696A,80.2613,41.1551,阿克苏地区,艺术中心,颗粒物(PM10),110,170,147,44,40,140,,127,127,2,13,3,3,0.2,0.3
2025-06-21T1900,2204A,105.6467,38.8363,阿拉善盟,西城区西花园,臭氧1小时,88,18,18,14,16,190,,164,164,10,11,7,6,0.8,0.9
2025-06-21T1900,2205A,105.6985,38.8411,阿拉善盟,蒙二幼,臭氧1小时,74,25,22,11,10,179,,157,157,12,10,10,10,0.6,0.6
2025-06-21T1900,2206A,105.724,38.8516,阿拉善盟,环保局新楼,臭氧1小时,67,21,17,10,9,173,,150,150,7,5,9,9,0.5,0.5
2025-06-21T1900,2708A,88.1264,47.8517,阿勒泰地区,市站,,36,9,31,3,6,115,,101,101,6,10,1,1,0.3,0.2
2025-06-21T1900,2630A,80.1161,32.5,阿里地区,阿里监测站,,41,6,5,6,5,131,,133,133,3,7,5,8,0.3,0.3
2025-06-21T1900,3192A,80.0903,32.5028,阿里地区,阿里藏医院,,44,16,13,8,6,138,,139,139,1,6,8,8,0.4,0.4
2025-06-21T1900,2642A,109.0318,32.6537,安康市,香溪洞,,35,16,17,10,7,111,,103,103,3,3,5,5,0.6,0.7
2025-06-21T1900,2644A,109.0072,32.6975,安康市,汉滨区检察院,,33,,29,15,12,105,,100,100,4,7,5,8,0.4,0.6
2025-06-21T1900,4054A,109.0325,32.6913,安康市,市邮政管理局,,33,17,25,16,13,105,,104,104,6,8,4,10,0.4,0.5
2025-06-21T1900,2291A,117.0809,30.5177,安庆市,环科院,,31,,11,6,7,98,,96,96,8,16,2,3,0.4,0.4
2025-06-21T1900,2292A,117.0331,30.5119,安庆市,马山宾馆,,,,14,11,8,94,,90,90,6,18,4,4,0.3,0.4
2025-06-21T1900,2294A,116.9896,30.6145,安庆市,安庆大学,,35,6,13,3,8,110,,103,103,5,13,2,3,0.4,0.5
2025-06-21T1900,3173A,117.0598,30.5351,安庆市,市人大,,32,,10,7,8,100,,99,99,6,13,2,3,0.3,0.4
2025-06-21T1900,3124A,105.9439,26.2564,安顺市,金钟山,,30,29,31,21,25,88,,107,103,7,7,4,6,0.4,0.5
2025-06-21T1900,3125A,105.8983,26.2481,安顺市,娄家坡,,29,26,24,20,19,82,,96,96,10,8,3,4,0.5,0.6
2025-06-21T1900,1819A,114.3551,36.1017,安阳市,红庙街,臭氧1小时,65,57,47,11,21,172,,174,174,2,6,2,6,0.3,0.7
2025-06-21T1900,1820A,114.361,36.0681,安阳市,银杏小区,臭氧1小时,72,29,45,12,21,177,,178,177,7,11,2,4,0.2,0.6
2025-06-21T1900,3141A,114.3922,36.0878,安阳市,信访局,臭氧1小时,68,35,38,13,18,174,,178,176,5,11,1,5,0.4,0.7
2025-06-21T1900,3669A,114.4705,36.0637,安阳市,左辅环卫站,臭氧1小时,62,27,37,7,18,169,,174,172,6,10,3,3,0.3,0.4
2025-06-21T1900,3703A,114.2917,36.0949,安阳市,安钢职工学校,臭氧1小时,64,22,50,11,22,171,,164,164,3,15,3,4,0.2,0.5
2025-06-21T1900,1748A,123.044,41.1196,鞍山市,深沟寺,,36,18,25,8,13,113,,118,118,15,26,12,13,0.7,1.1
2025-06-21T1900,1749A,123.011,41.0931,鞍山市,太阳城,,38,9,25,3,14,120,,126,126,10,21,8,11,0.5,0.9
2025-06-21T1900,1750A,123.0485,41.1442,鞍山市,太平,,35,29,35,16,15,110,,117,117,17,24,13,11,1.0,1
2025-06-21T1900,1751A,122.9642,41.0971,鞍山市,铁西三道街,,32,23,31,12,15,102,,112,112,20,29,8,10,0.8,1.1
2025-06-21T1900,1753A,123.022,41.0821,鞍山市,明达新区,,35,14,25,7,10,111,,116,116,13,19,9,11,0.5,0.9
2025-06-21T1900,4201A,122.9446,41.0826,鞍山市,兴盛南路290号,,34,17,31,7,13,108,,119,119,25,31,11,10,0.4,0.9
2025-06-21T1900,2195A,107.4212,40.761,巴彦淖尔市,附二中,,45,17,27,14,14,142,,140,140,8,14,10,12,0.4,0.5
2025-06-21T1900,2196A,107.37,40.7372,巴彦淖尔市,市环保大楼,,46,27,34,14,15,145,,147,147,10,16,9,10,0.5,0.5
2025-06-21T1900,1956A,86.1472,41.7538,巴音郭楞蒙古自治州,孔雀公园,,37,31,36,14,15,117,,108,108,8,16,9,10,0.1,0.2
2025-06-21T1900,1957A,86.1972,41.7166,巴音郭楞蒙古自治州,棉纺厂,,37,37,47,3,7,116,,108,108,6,15,3,5,0.2,0.3
2025-06-21T1900,1958A,86.2357,41.7173,巴音郭楞蒙古自治州,经济开发区,,37,17,37,3,8,118,,110,110,3,7,9,11,0.1,0.2
2025-06-21T1900,2914A,106.7677,31.8794,巴中市,苏山坪,,30,14,16,9,12,93,,106,106,4,5,4,5,0.4,0.4
2025-06-21T1900,3181A,106.7768,31.8526,巴中市,市五中,,34,16,21,11,13,106,,119,119,6,9,7,7,0.5,0.5
2025-06-21T1900,3183A,106.7418,31.8654,巴中市,圣泉水务公司,,33,14,16,10,10,105,,119,119,5,10,5,6,0.5,0.5
2025-06-21T1900,3616A,106.7616,31.8344,巴中市,市中心医院,,32,16,17,10,13,100,,110,110,5,8,6,6,0.4,0.4
2025-06-21T1900,2235A,122.7911,45.6077,白城市,洮北区环保局,,26,14,16,10,7,82,,89,89,12,10,3,3,0.4,0.3
2025-06-21T1900,2236A,122.8738,45.5725,白城市,市环保局,,28,19,9,3,5,88,,85,85,5,6,6,5,0.4,0.4
2025-06-21T1900,2231A,126.4219,41.9171,白山市,喜丰,,30,20,25,3,10,96,,105,105,15,13,7,7,0.6,0.7
2025-06-21T1900,2232A,126.4077,41.9419,白山市,环保局,,32,16,22,3,8,102,,104,104,7,10,9,8,0.7,0.7
2025-06-21T1900,2647A,104.1724,36.5446,白银市,第三小学,,45,28,48,14,20,144,,138,138,5,18,35,126,0.4,0.8
2025-06-21T1900,2648A,104.1465,36.5482,白银市,动力公司,,45,40,38,13,16,143,,137,137,8,16,36,42,0.3,0.5
2025-06-21T1900,2512A,106.6103,23.9011,百色市,市监测站,,18,18,13,11,10,30,,45,40,9,10,3,6,0.4,0.4
2025-06-21T1900,2513A,106.6538,23.8859,百色市,市中心血站,,24,24,14,12,10,37,,44,44,15,13,2,4,0.7,0.6
2025-06-21T1900,3406A,106.6085,23.8798,百色市,祈福高中,,26,26,14,10,11,36,,56,42,12,10,4,5,0.7,0.6
2025-06-21T1900,2270A,117.396,32.939,蚌埠市,工人疗养院,,27,,7,14,4,86,,105,96,10,3,6,3,0.6,0.4
2025-06-21T1900,2273A,117.4185,32.8911,蚌埠市,蚌埠学院,,31,6,3,3,3,97,,100,97,2,6,3,3,0.3,0.3
2025-06-21T1900,2274A,117.3533,32.9673,蚌埠市,淮上区政府,,27,14,7,12,5,86,,106,99,11,5,4,4,0.4,0.3
2025-06-21T1900,2275A,117.3145,32.8977,蚌埠市,高新区,,28,17,5,6,5,88,,101,92,12,8,5,5,0.3,0.4
2025-06-21T1900,3715A,117.3092,32.9314,蚌埠市,蚌埠田家炳中学,,27,17,9,3,6,86,,94,91,9,5,6,5,0.2,0.2
2025-06-21T1900,1585A,109.8756,40.6532,包头市,市环境监测站,臭氧1小时,52,21,26,8,12,161,,165,165,11,23,8,12,0.3,0.5
2025-06-21T1900,1587A,109.9991,40.5842,包头市,包头八中,,48,24,36,11,18,152,,156,156,9,20,6,16,0.4,0.8
2025-06-21T1900,1588A,109.8538,40.6821,包头市,青山宾馆,臭氧1小时,68,17,25,11,14,174,,172,172,10,22,9,11,0.3,0.5
2025-06-21T1900,1589A,109.8642,40.6288,包头市,惠龙物流,臭氧1小时,58,25,29,9,14,166,,167,167,10,21,6,14,0.3,0.6
2025-06-21T1900,1590A,110.0377,40.5546,包头市,东河鸿龙湾,,49,32,34,3,10,154,,159,159,10,27,6,13,0.4,0.4
2025-06-21T1900,3283A,109.9154,40.5685,包头市,滨河大厦,臭氧1小时,53,16,23,6,14,162,,165,165,9,19,7,12,0.4,0.5
2025-06-21T1900,3419A,109.9447,40.6261,包头市,包头市委党校,,50,23,32,7,13,158,,164,164,11,22,10,17,0.3,0.6
2025-06-21T1900,3683A,109.8331,40.6576,包头市,昆区政府,臭氧1小时,59,22,28,10,16,167,,166,166,12,23,7,10,0.4,0.6
2025-06-21T1900,1930A,107.185,34.3063,宝鸡市,庙沟村,颗粒物(PM10),78,105,36,17,13,177,,166,166,7,9,5,5,0.4,0.3
2025-06-21T1900,1931A,107.0708,34.3017,宝鸡市,竹园沟,臭氧1小时,73,34,24,19,15,178,,170,170,7,10,7,6,0.3,0.4
2025-06-21T1900,1933A,107.1431,34.3547,宝鸡市,监测站,臭氧1小时,64,38,32,18,16,171,,164,164,11,13,7,7,0.4,0.3
2025-06-21T1900,1934A,107.1186,34.3739,宝鸡市,技工学校,臭氧1小时,72,27,32,11,19,177,,173,173,9,9,7,8,0.5,0.5
2025-06-21T1900,1935A,107.3906,34.3528,宝鸡市,陈仓区环保局家属楼,臭氧1小时,73,28,32,14,17,178,,171,171,8,16,6,7,0.4,0.5
2025-06-21T1900,1936A,107.2058,34.3497,宝鸡市,文理学院,臭氧1小时,78,26,30,17,16,182,,176,176,8,13,6,6,0.5,0.5
2025-06-21T1900,1937A,107.2386,34.3622,宝鸡市,三迪小学,臭氧1小时,65,19,32,16,18,172,,173,173,14,18,6,7,0.5,0.5
2025-06-21T1900,1051A,115.493,38.8632,保定市,游泳馆,,49,39,47,7,18,155,,146,146,11,25,1,3,0.1,0.1
2025-06-21T1900,1052A,115.5213,38.8959,保定市,华电二区,,49,32,37,15,13,156,,145,145,10,16,2,2,0.2,0.3
2025-06-21T1900,1053A,115.4713,38.9108,保定市,接待中心,,50,34,37,7,12,158,,146,146,6,16,1,2,0.2,0.3
2025-06-21T1900,1054A,115.4612,38.8416,保定市,地表水厂,,50,47,60,6,16,158,,149,149,16,30,3,3,0.1,0.2
2025-06-21T1900,3581A,115.31981,38.95208,保定市,满城区生态环境分局,臭氧1小时,62,39,42,7,10,169,,163,163,7,12,2,3,0.2,0.2
2025-06-21T1900,3582A,115.47694,38.76408,保定市,清苑区第二中学,,50,45,62,12,22,160,,154,154,2,18,3,2,0.2,0.3
2025-06-21T1900,3583A,115.62909,39.02311,保定市,徐水物探局,,46,34,53,3,10,147,,140,140,7,20,3,2,0.1,0.2
2025-06-21T1900,4004A,115.4202,38.8656,保定市,双鹰农机,臭氧1小时,57,24,35,14,15,165,,156,156,12,28,2,4,0.3,0.2
2025-06-21T1900,4034A,115.5150,38.8590,保定市,植保所站,,49,48,56,25,19,155,,146,146,14,24,1,4,0.3,0.3
2025-06-21T1900,2594A,99.1678,25.1081,保山市,市环境监测站,,19,13,16,13,15,37,,49,48,5,6,9,7,0.4,0.4
2025-06-21T1900,2595A,99.1711,25.1328,保山市,市环保局,,20,20,17,7,12,47,,54,53,3,5,6,6,0.5,0.5
2025-06-21T1900,1867A,109.1436,21.4086,北海市,海滩公园,,33,33,39,3,7,64,,66,66,3,4,2,2,0.3,0.4
2025-06-21T1900,1868A,109.0981,21.4661,北海市,新市环保局,,26,26,22,12,13,68,,77,77,10,7,2,2,0.4,0.4
2025-06-21T1900,1869A,109.1778,21.5233,北海市,北海工业园,,34,34,27,15,13,64,,73,73,11,8,3,4,0.5,0.5
2025-06-21T1900,3400A,109.1911,21.4415,北海市,龙潭自来水厂,,23,20,21,9,12,71,,76,76,5,6,2,4,0.4,0.4
2025-06-21T1900,1001A,116.3621,39.8784,北京市,万寿西宫,,46,13,18,8,7,145,,123,123,16,24,3,3,0.3,0.3
2025-06-21T1900,1003A,116.4174,39.9289,北京市,东四,,49,17,17,3,6,154,,130,130,24,25,3,2,0.2,0.2
2025-06-21T1900,1004A,116.4072,39.8863,北京市,天坛,,47,16,16,9,7,149,,125,125,14,18,3,3,0.4,0.4
2025-06-21T1900,1005A,116.462,39.9365,北京市,农展馆,,40,15,16,6,7,127,,112,112,14,19,4,4,0.3,0.3
2025-06-21T1900,1006A,116.3392,39.9295,北京市,官园,,44,20,19,7,7,140,,119,119,18,25,3,3,0.2,0.3
2025-06-21T1900,1007A,116.2878,39.9611,北京市,海淀万柳,,36,17,19,6,7,114,,108,108,11,28,3,3,0.3,0.3
2025-06-21T1900,1008A,116.6636,40.135,北京市,顺义新城,,45,17,14,7,6,144,,124,124,18,18,2,2,0.2,0.2
2025-06-21T1900,1009A,116.6275,40.3275,北京市,怀柔镇,,43,15,10,7,6,136,,110,110,19,12,1,1,0.3,0.3
2025-06-21T1900,1010A,116.2296,40.217,北京市,昌平镇,,40,17,13,3,6,127,,111,111,10,13,4,4,0.2,0.2
2025-06-21T1900,1011A,116.3966,39.9821,北京市,奥体中心,,37,13,16,6,6,116,,97,97,16,23,3,3,0.6,0.6
2025-06-21T1900,3281A,115.9718,40.4529,北京市,延庆夏都,,31,14,17,6,7,99,,108,108,5,17,4,5,0.4,0.4
2025-06-21T1900,3418A,116.8336,40.4095,北京市,密云新城,,38,23,11,10,6,121,,99,99,13,6,2,2,0.2,0.2
2025-06-21T1900,3671A,116.088,39.9726,北京市,门头沟三家店,,26,20,13,6,6,81,,105,103,12,11,3,3,0.6,0.5
2025-06-21T1900,3672A,116.1541,39.8204,北京市,丰台云岗,,35,21,24,3,5,112,,110,110,14,23,3,2,0.3,0.3
2025-06-21T1900,3673A,116.6804,39.9081,北京市,通州东关,,45,17,18,6,7,144,,128,128,17,27,1,2,0.2,0.3
2025-06-21T1900,3674A,115.9577,39.7603,北京市,房山燕山,,33,33,13,7,6,84,,91,91,23,10,2,1,0.3,0.3
2025-06-21T1900,3675A,116.4672,39.7733,北京市,大兴旧宫,,46,17,22,6,7,146,,122,122,9,24,2,2,0.2,0.3
2025-06-21T1900,3694A,115.986,40.4563,北京市,延庆石河营,,30,11,13,3,7,93,,100,100,4,12,2,2,0.3,0.3
2025-06-21T1900,3695A,116.6151,40.3053,北京市,怀柔新城,,38,16,10,7,6,121,,103,103,18,8,2,2,0.3,0.3
2025-06-21T1900,3696A,116.2545,39.8768,北京市,丰台小屯,,32,16,24,3,7,101,,102,102,10,29,2,2,0.3,0.4
2025-06-21T1900,3697A,116.84,40.3844,北京市,密云镇,,38,13,12,8,6,119,,100,100,8,14,2,7,0.4,0.3
2025-06-21T1900,4182A,116.1942,39.9158,北京市,八角北路9号,,35,20,20,3,6,112,,110,110,10,23,1,1,0.2,0.3
2025-06-21T1900,4194A,117.0790,40.1518,北京市,洳河巡河路,,35,12,11,3,5,112,,101,101,11,11,3,3,0.3,0.3
2025-06-21T1900,1761A,123.8275,41.3064,本溪市,大峪,,31,17,18,3,5,98,,107,107,12,14,8,8,0.3,0.5
2025-06-21T1900,1762A,123.7567,41.3325,本溪市,溪湖,,35,23,30,8,10,110,,112,112,8,19,9,8,0.6,1
2025-06-21T1900,1763A,123.7169,41.3094,本溪市,彩屯,,27,27,27,10,11,82,,103,103,28,24,10,11,0.5,0.9
2025-06-21T1900,1764A,123.7669,41.2864,本溪市,东明,,40,22,29,10,10,126,,118,118,10,22,7,9,0.5,0.8
2025-06-21T1900,1765A,123.7992,41.2664,本溪市,新立屯,,30,30,17,13,7,81,,111,110,27,26,7,9,0.6,0.8
2025-06-21T1900,1766A,123.8142,41.3472,本溪市,威宁,,,,33,7,7,108,,110,110,9,17,7,7,0.3,0.5
2025-06-21T1900,2587A,105.2864,27.3125,毕节市,八中,,26,10,26,9,18,82,,104,87,6,7,5,5,0.5,0.5
2025-06-21T1900,2588A,105.31,27.2944,毕节市,师专,,28,11,32,8,17,88,,108,91,8,8,4,4,0.5,0.5
2025-06-21T1900,4263A,105.3688,27.3598,毕节市,工业大道,,27,12,30,7,19,85,,134,100,9,10,5,6,0.5,0.6
2025-06-21T1900,1629A,118.0018,37.3617,滨州市,第二水厂,臭氧1小时,110,61,34,27,19,219,,194,194,12,17,8,8,0.5,0.4
2025-06-21T1900,1630A,117.9776,37.393,滨州市,北中新校,臭氧1小时,117,48,33,24,18,234,,201,201,11,19,16,12,0.8,0.5
2025-06-21T1900,3514A,117.9378,37.3956,滨州市,中海酒店,臭氧1小时,115,53,32,31,22,230,,195,195,16,20,12,11,0.9,0.7
2025-06-21T1900,3515A,117.9378,37.3553,滨州市,开发区一中,臭氧1小时,112,53,35,27,18,224,,194,194,14,22,13,13,0.6,0.5
2025-06-21T1900,3516A,118.0917,37.694,滨州市,金海六路,臭氧1小时,119,63,36,31,15,238,,220,220,15,29,16,11,0.6,0.3
2025-06-21T1900,4028A,117.9956,37.3753,滨州市,滨州市西街道办事处,臭氧1小时,116,51,29,31,20,231,,203,203,11,14,9,8,0.5,0.4
2025-06-21T1900,2311A,115.8072,33.8399,亳州市,污水处理厂,,35,31,22,24,18,110,,113,113,8,7,2,3,0.6,0.5
2025-06-21T1900,2312A,115.7789,33.8518,亳州市,三国揽胜宫,,32,21,20,18,11,101,,106,106,4,3,2,3,0.4,0.3
2025-06-21T1900,3332A,115.7633,33.8034,亳州市,亳州学院,,37,,13,21,16,117,,116,116,5,5,2,2,0.5,0.6
2025-06-21T1900,2693A,82.0485,44.8556,博尔塔拉蒙古自治州,市党校,,39,23,39,13,20,123,,122,122,7,9,2,2,0,0
2025-06-21T1900,2694A,82.0806,44.8969,博尔塔拉蒙古自治州,市环保局,,39,21,46,13,14,123,,120,120,2,5,3,2,0.2,0.3
2025-06-21T1900,1071A,116.8842,38.2991,沧州市,沧县城建局,,49,29,35,11,24,155,,168,167,11,19,3,5,0.1,0.4
2025-06-21T1900,1072A,116.8584,38.3254,沧州市,电视转播站,,48,32,36,12,20,152,,166,166,9,11,3,3,0.2,0.3
2025-06-21T1900,1073A,116.8709,38.3228,沧州市,市环保局,,47,39,48,18,25,150,,171,170,13,15,2,4,0.2,0.4
2025-06-21T1900,3324A,116.8136,38.3004,沧州市,河北水利电力学院,臭氧1小时,58,,40,24,19,166,,185,183,12,22,3,4,0.2,0.4
2025-06-21T1900,2622A,97.1806,31.1273,昌都市,昌都监测站,,50,14,12,8,6,158,,134,134,4,7,5,5,0.2,0.3
2025-06-21T1900,3719A,97.1714,31.1406,昌都市,昌都会议中心,,47,15,13,9,7,150,,128,128,5,6,5,6,0.2,0.2
2025-06-21T1900,2690A,88.1236,43.8886,昌吉回族自治州,天山天池,,35,,24,16,9,110,,105,92,5,6,5,5,0.6,0.6
2025-06-21T1900,2692A,87.2717,44.0297,昌吉回族自治州,新区政务中心,,38,16,29,7,13,121,,112,92,3,8,3,4,0.1,0.2
2025-06-21T1900,3613A,87.3095,44.0142,昌吉回族自治州,亚心广场,,37,22,39,3,13,116,,102,99,5,14,5,6,0.2,0.3
2025-06-21T1900,1120A,125.2863,43.9027,长春市,客车厂,,26,22,16,9,7,81,,93,92,21,22,5,5,0.3,0.2
2025-06-21T1900,1121A,125.2841,43.8463,长春市,邮电学院,,27,18,14,6,5,86,,93,93,11,19,6,6,0.4,0.3
2025-06-21T1900,1122A,125.3716,43.8772,长春市,劳动公园,,28,21,18,8,5,88,,93,93,12,20,3,3,0.2,0.2
2025-06-21T1900,1123A,125.3297,43.8805,长春市,园林处,,26,17,22,6,5,83,,93,93,12,18,5,5,0.4,0.4
2025-06-21T1900,1124A,125.4605,43.79,长春市,净月潭,,26,12,13,3,1,81,,94,94,8,13,5,6,0.2,0.2
2025-06-21T1900,1126A,125.3863,43.8447,长春市,经开区环卫处,,28,20,17,6,4,88,,94,94,9,15,5,5,0.3,0.2
2025-06-21T1900,1127A,125.245,43.7783,长春市,高新区管委会,,28,,14,19,8,88,,96,96,10,19,2,3,0.2,0.2
2025-06-21T1900,1128A,125.1761,43.8325,长春市,岱山公园,,26,15,14,3,5,83,,93,93,16,25,3,3,0.2,0.2
2025-06-21T1900,4281A,125.3346,43.9164,长春市,北亚泰大街1068号,,24,17,17,10,7,74,,81,81,19,17,4,5,0.3,0.3
2025-06-21T1900,1335A,113.0833,28.2325,长沙市,经开区环保局,,20,17,24,3,14,61,,69,68,16,13,4,6,0.4,0.4
2025-06-21T1900,1336A,112.8872,28.2189,长沙市,高开区环保局,,26,6,23,3,11,83,,67,67,7,8,3,3,0.5,0.6
2025-06-21T1900,1337A,113.0792,28.2053,长沙市,马坡岭,,18,16,26,3,13,57,,70,68,14,13,3,5,0.8,0.7
2025-06-21T1900,1338A,112.9394,28.19,长沙市,湖南师范大学,,27,6,22,3,12,85,,71,71,11,12,2,3,0.3,0.3
2025-06-21T1900,1339A,113.0178,28.1322,长沙市,雨花区环保局,,,,22,9,10,59,,70,70,10,10,4,6,0.6,0.5
2025-06-21T1900,1340A,112.9792,28.2597,长沙市,伍家岭,,25,16,28,12,17,77,,67,67,9,14,2,3,0.4,0.5
2025-06-21T1900,1341A,113.0014,28.1944,长沙市,火车新站,,22,8,24,3,10,68,,68,68,9,14,6,8,0.5,0.5
2025-06-21T1900,1342A,112.9844,28.1178,长沙市,天心区环保局,,24,8,21,3,10,74,,75,75,9,11,1,3,0.8,0.8
2025-06-21T1900,1343A,112.8908,28.1308,长沙市,湖南中医药大学,,29,,22,16,12,92,,68,68,5,12,2,4,0.4,0.6
2025-06-21T1900,1344A,112.9581,28.3611,长沙市,沙坪,,23,22,20,3,12,73,,58,58,12,15,3,5,0.5,0.6
2025-06-21T1900,1727A,113.1147,36.1547,长治市,清华站,臭氧1小时,63,35,42,19,29,170,,194,194,11,14,8,10,0.6,0.9
2025-06-21T1900,1730A,113.0886,36.2125,长治市,审计局,臭氧1小时,74,35,41,19,31,179,,198,197,10,15,10,12,0.7,1
2025-06-21T1900,1731A,113.0844,36.1856,长治市,长治八中,臭氧1小时,88,38,43,27,36,190,,205,204,13,14,12,15,0.7,1
2025-06-21T1900,2845A,113.1569,36.1911,长治市,德盛苑,臭氧1小时,54,31,41,19,29,163,,193,193,7,11,8,9,0.6,1
2025-06-21T1900,3568A,113.06,36.0464,长治市,向阳小学,臭氧1小时,74,68,68,27,34,179,,205,205,10,13,6,6,0.7,1
2025-06-21T1900,3569A,112.8792,36.3144,长治市,屯留一中,臭氧1小时,101,32,50,28,35,202,,191,191,14,16,10,13,0.7,0.6
2025-06-21T1900,4189A,113.1131,36.19948,长治市,英华南巷50号,臭氧1小时,59,38,46,22,32,167,,196,195,12,16,8,10,0.6,1
2025-06-21T1900,4190A,113.2367,36.3344,长治市,学府街1号,臭氧1小时,67,34,49,9,27,173,,180,180,19,25,5,6,0.6,0.8
2025-06-21T1900,1854A,111.6975,28.9703,常德市,市二中,,32,,9,12,8,100,,105,105,6,6,4,3,0.6,0.7
2025-06-21T1900,3138A,111.7153,29.0289,常德市,武陵区永安,,32,17,8,12,6,100,,108,108,6,4,2,2,0.3,0.3
2025-06-21T1900,3139A,111.6892,28.9881,常德市,鼎城区玉霞,,34,16,8,12,7,106,,111,111,5,4,4,3,0.5,0.5
2025-06-21T1900,3140A,111.6625,29.0531,常德市,武陵区长庚,,33,17,7,13,6,104,,107,107,5,4,1,1,0.4,0.4
2025-06-21T1900,1196A,119.9633,31.762,常州市,市监测站,,29,6,14,3,9,91,,92,92,3,11,9,11,0.4,0.4
2025-06-21T1900,1200A,119.9468,31.7069,常州市,武进监测站,,27,16,20,7,8,85,,87,87,16,20,6,4,0.7,0.7
2025-06-21T1900,1201A,119.9255,31.9087,常州市,安家,,29,13,21,3,7,92,,92,92,12,24,6,6,0.5,0.6
2025-06-21T1900,3002A,119.9805,31.8174,常州市,行政中心,,27,20,20,8,6,86,,88,88,14,15,8,11,0.2,0.2
2025-06-21T1900,3003A,120.0522,31.7748,常州市,经开区,,29,14,28,6,8,90,,86,86,12,24,5,11,0.2,0.2
2025-06-21T1900,3010A,119.9025,31.7964,常州市,钟楼,,27,9,15,3,5,86,,90,90,14,19,5,7,0.5,0.5
2025-06-21T1900,3429A,119.8598,31.7066,常州市,武进经发区,,27,12,21,6,9,85,,88,88,12,17,4,7,0.6,0.7
2025-06-21T1900,3430A,119.5826,31.7245,常州市,金坛城区,,30,17,14,10,10,94,,103,103,15,16,6,6,0.4,0.3
2025-06-21T1900,2220A,120.4318,41.5881,朝阳市,西梁,,26,21,29,9,11,83,,89,89,11,22,5,7,0.4,0.4
2025-06-21T1900,2221A,120.4521,41.5646,朝阳市,河畔小区,,29,18,22,6,6,91,,93,93,11,14,6,7,0.3,0.3
2025-06-21T1900,2222A,120.4176,41.5648,朝阳市,八里堡,,42,42,40,12,15,89,,93,93,15,22,5,6,0.4,0.4
2025-06-21T1900,2223A,120.3806,41.5969,朝阳市,农业园区,,25,15,24,7,9,80,,84,83,11,20,3,4,0.3,0.3
2025-06-21T1900,1705A,116.6367,23.6719,潮州市,西园路,,33,33,20,8,10,28,,54,51,21,11,10,4,0.8,0.5
2025-06-21T1900,3026A,116.6183,23.6608,潮州市,市政府,,44,44,22,8,7,24,,46,43,24,14,17,5,0.8,0.7
2025-06-21T1900,4036A,116.6461,23.6761,潮州市,金山,,24,24,20,9,11,30,,55,52,17,8,10,6,0.7,0.6
2025-06-21T1900,2472A,113.0073,25.9061,郴州市,马头岭,,20,20,13,3,8,27,,49,46,34,10,7,7,0.3,0.3
2025-06-21T1900,2473A,113.0116,25.8226,郴州市,市职中,,17,11,13,8,8,52,,50,50,6,4,4,4,0.2,0.2
2025-06-21T1900,2475A,113.0383,25.8071,郴州市,市审计局,,17,14,11,3,7,54,,54,54,9,6,3,3,0.3,0.3
2025-06-21T1900,2476A,113.0348,25.7759,郴州市,市环保局,,21,14,14,12,7,67,,64,64,7,6,2,3,0.0,0
2025-06-21T1900,4252A,113.0138,25.8011,郴州市,好美居路49号,,21,17,15,3,7,65,,60,60,7,5,6,5,0.4,0.1
2025-06-21T1900,1431A,103.9728,30.7236,成都市,金泉两河,臭氧1小时,84,27,29,16,15,187,,177,177,12,17,2,3,0.4,0.4
2025-06-21T1900,1432A,104.176,30.6872,成都市,十里店,,49,35,26,20,13,154,,152,152,8,16,4,4,0.4,0.5
2025-06-21T1900,1433A,104.079,30.5706,成都市,三瓦窑,,47,,27,28,18,150,,161,161,16,27,3,4,0.5,0.6
2025-06-21T1900,1434A,104.1114,30.63,成都市,沙河铺,,42,33,26,15,12,132,,148,148,11,19,4,4,0.5,0.5
2025-06-21T1900,1437A,104.0786,30.6531,成都市,君平街,臭氧1小时,62,,32,31,18,169,,187,187,12,17,4,6,0.7,0.7
2025-06-21T1900,2880A,104.0239,30.65639,成都市,大石西路,,50,46,32,22,18,159,,171,171,12,20,4,5,0.6,0.6
2025-06-21T1900,3136A,104.2725,30.5589,成都市,龙泉驿区区政府,,46,17,15,9,9,145,,140,140,7,12,4,4,0.6,0.6
2025-06-21T1900,3357A,104.0106,30.6931,成都市,金博路,臭氧1小时,59,24,21,12,10,167,,168,168,13,22,4,4,0.6,0.7
2025-06-21T1900,3359A,104.0578,30.5225,成都市,华阳,,45,27,24,17,17,142,,143,143,10,17,6,7,0.6,0.6
2025-06-21T1900,3488A,104.3853,30.7453,成都市,青白江技师分院,臭氧1小时,53,35,31,31,17,162,,157,157,15,30,6,6,0.6,0.6
2025-06-21T1900,3489A,104.0789,30.4072,成都市,科学城,,50,19,28,14,18,157,,148,148,5,17,3,4,0.5,0.5
2025-06-21T1900,4011A,103.8506,30.6947,成都市,光华大道三段,臭氧1小时,105,42,35,22,20,209,,195,195,11,15,5,5,,0.6
2025-06-21T1900,4224A,104.2433,30.5353,成都市,鲸龙路1057号,,46,20,26,12,14,146,,147,147,9,19,7,7,0.6,0.6
2025-06-21T1900,1062A,117.9531,40.9081,承德市,铁路,,31,22,19,8,7,97,,100,100,14,12,4,3,0.3,0.3
2025-06-21T1900,1063A,117.9392,40.9763,承德市,中国银行,,48,48,22,18,10,81,,99,98,14,12,3,3,0.3,0.2
2025-06-21T1900,1064A,117.9503,40.928,承德市,开发区,,30,24,28,10,14,94,,103,103,6,13,4,4,0.2,0.3
2025-06-21T1900,1065A,117.8051,40.9655,承德市,文化中心,,30,24,27,3,7,95,,98,98,11,18,1,3,0.3,0.3
2025-06-21T1900,1066A,117.9268,41.0026,承德市,离宫,,39,39,19,18,14,51,,94,90,6,10,1,3,0.2,0.2
2025-06-21T1900,2314A,117.47,30.6618,池州市,池州学院,,30,13,12,8,6,96,,93,93,13,9,4,4,0.4,0.3
2025-06-21T1900,3237A,117.4918,30.6617,池州市,展览馆,,17,13,13,8,4,53,,102,92,10,8,4,4,0.6,0.5
2025-06-21T1900,3333A,117.5627,30.695,池州市,第八中学,,32,8,11,6,6,100,,97,97,9,9,6,5,0.5,0.3
2025-06-21T1900,3334A,117.5038,30.6243,池州市,第十二中学,,33,13,14,6,6,105,,98,98,6,9,2,3,0.8,0.8
2025-06-21T1900,1744A,118.9233,42.2816,赤峰市,松山一中,,29,9,20,3,6,91,,106,105,20,15,6,7,0.4,0.4
2025-06-21T1900,1745A,118.9576,42.2728,赤峰市,哈达街,,27,18,19,7,6,85,,94,94,20,14,9,9,0.4,0.4
2025-06-21T1900,1746A,118.8788,42.2554,赤峰市,天义路,,30,,17,11,8,94,,99,99,11,13,7,8,0.4,0.3
2025-06-21T1900,3058A,119.2658,42.0353,赤峰市,银河街,,26,13,21,6,9,83,,90,90,10,7,6,9,0.4,0.5
2025-06-21T1900,3286A,118.9359,42.3147,赤峰市,桥北物流园区,,29,,19,20,9,84,,94,94,17,9,8,8,0.4,0.5
2025-06-21T1900,2521A,107.3476,22.4136,崇左市,市环保局江州分局,,22,22,25,8,8,39,,55,54,9,9,5,6,0.6,0.6
2025-06-21T1900,4256A,107.3750,22.3736,崇左市,石景林东路7号,,,,24,4,8,39,,57,55,10,13,3,3,1.2,0.7
2025-06-21T1900,2298A,118.3093,32.3153,滁州市,老年大学,,28,14,14,3,7,88,,93,93,5,6,10,15,0.2,0.2
2025-06-21T1900,2299A,118.3244,32.2786,滁州市,人大宾馆,,29,,6,11,9,92,,96,96,3,4,3,4,0.2,0.2
2025-06-21T1900,3207A,118.3118,32.3038,滁州市,市政府原办公楼,,29,,8,13,13,92,,96,96,4,3,3,4,0.3,0.3
2025-06-21T1900,3331A,118.3267,32.2634,滁州市,图书馆,,28,,8,8,7,87,,89,89,5,3,8,8,0.3,0.3
2025-06-21T1900,2605A,101.5482,25.0441,楚雄彝族自治州,州环境监测站,,26,18,17,18,15,48,,44,44,19,12,8,7,0.7,0.5
2025-06-21T1900,2606A,101.538,25.0492,楚雄彝族自治州,市经济开发区,,30,,20,21,15,45,,42,42,20,12,16,7,0.8,0.6
2025-06-21T1900,2548A,107.5277,31.2827,达州市,达州职业技术学院,,26,14,21,3,3,82,,73,73,5,13,6,6,0.3,0.3
2025-06-21T1900,2549A,107.5086,31.2186,达州市,市环境监测站,,29,9,18,3,3,90,,75,75,12,19,5,5,0.3,0.3
2025-06-21T1900,2550A,107.4988,31.2132,达州市,凤凰小区,,29,6,15,3,6,90,,81,81,10,15,4,4,0.2,0.3
2025-06-21T1900,2551A,107.5082,31.1986,达州市,达县机关宾馆,,,,15,,5,92,,77,77,11,20,,5,,0.5
2025-06-21T1900,2552A,107.4644,31.2124,达州市,市政中心,,,17,23,,3,83,,75,75,11,15,2,3,0.4,0.4
2025-06-21T1900,2614A,100.1542,25.7054,大理白族自治州,大理市环境监测站,,16,12,12,11,13,48,,46,46,8,5,5,5,0.4,0.3
2025-06-21T1900,2615A,100.2171,25.5811,大理白族自治州,大理古城,,,,16,26,10,43,,60,60,8,7,,8,0.7,0.6
2025-06-21T1900,1109A,121.612,38.9741,大连市,甘井子,,35,25,24,10,12,112,,139,139,18,19,7,11,0.5,0.5
2025-06-21T1900,1110A,121.565,38.9511,大连市,周水子,,36,23,22,10,14,114,,149,148,12,24,12,10,0.4,0.4
2025-06-21T1900,1111A,121.5637,38.8845,大连市,星海三站,,37,21,23,7,12,116,,136,136,7,12,5,5,0.2,0.3
2025-06-21T1900,1112A,121.6302,38.9117,大连市,青泥洼桥,,35,16,20,12,14,112,,147,145,20,19,10,9,0.2,0.3
2025-06-21T1900,1113A,121.6251,38.8638,大连市,傅家庄,,36,20,21,6,13,114,,127,127,16,15,11,10,0.2,0.3
2025-06-21T1900,1114A,121.5213,38.8661,大连市,七贤岭,,41,22,20,13,13,131,,153,153,11,13,9,7,0.3,0.6
2025-06-21T1900,1115A,121.2529,38.8061,大连市,旅顺,,32,23,21,12,16,100,,129,129,22,21,5,6,0.3,0.3
2025-06-21T1900,1116A,121.7485,39.1311,大连市,金州,,38,38,34,13,13,110,,135,135,20,19,8,9,0.3,0.3
2025-06-21T1900,1117A,121.7811,39.0496,大连市,开发区,,35,35,26,14,15,107,,139,138,28,20,6,5,0.3,0.5
2025-06-21T1900,1118A,121.9762,39.0631,大连市,双D港,,36,13,24,6,12,115,,135,132,13,20,8,9,0.2,0.3
2025-06-21T1900,1789A,124.81117,46.03138,大庆市,大同区,,,21,14,,4,69,,69,69,6,6,5,6,0.6,0.6
2025-06-21T1900,1790A,125.129,46.533,大庆市,龙凤区,,22,16,19,15,11,63,,68,68,9,10,4,5,0.3,0.4
2025-06-21T1900,1791A,124.902,46.408,大庆市,红岗区,,25,21,16,17,14,77,,76,76,1,5,7,8,0.4,0.4
2025-06-21T1900,1792A,125.153,46.586,大庆市,萨尔图区,,18,,22,6,7,57,,58,58,8,11,8,9,0.4,0.5
2025-06-21T1900,1793A,124.9042,46.6215,大庆市,让胡路区,,24,24,17,12,17,68,,69,69,3,6,5,4,0.2,0.2
2025-06-21T1900,3481A,125.141,46.634,大庆市,萨区政府监测点,,21,18,18,3,3,66,,68,68,2,8,6,6,0.3,0.3
2025-06-21T1900,1723A,113.2994,40.0758,大同市,云冈宾馆,,36,12,29,3,11,114,,111,111,7,19,4,7,0.2,0.9
2025-06-21T1900,1724A,113.3444,40.0917,大同市,大同大学,,37,9,30,7,9,117,,114,114,8,18,11,13,0.2,0.5
2025-06-21T1900,1725A,113.2661,40.1269,大同市,安家小村,,36,15,23,3,8,114,,112,112,8,15,3,4,0.3,0.8
2025-06-21T1900,1726A,113.2711,40.0844,大同市,教育学院,,37,8,35,3,13,118,,113,113,6,23,6,10,0.3,0.9
2025-06-21T1900,3282A,113.3397,40.0597,大同市,大同市卫生学校,,37,12,25,7,11,118,,113,113,7,18,6,9,0.3,0.8
2025-06-21T1900,3565A,113.1367,40.1122,大同市,云冈站,,37,8,37,3,12,118,,115,115,5,18,3,6,0.3,0.4
2025-06-21T1900,3566A,113.1186,40.2556,大同市,图书馆,,36,13,24,6,11,115,,116,116,4,8,6,8,0.4,0.6
2025-06-21T1900,3567A,113.5931,40.0461,大同市,区一中,,39,9,19,3,8,124,,119,119,9,9,13,12,0.3,0.3
2025-06-21T1900,4199A,113.2798,40.0997,大同市,魏都大道141号,,38,,40,9,18,121,,117,117,5,20,6,9,0.3,1.1
2025-06-21T1900,2269A,124.1069,50.4097,大兴安岭地区,科技局,,37,37,23,18,11,78,,71,71,3,3,6,5,0.4,0.4
2025-06-21T1900,3663A,124.1164,50.4278,大兴安岭地区,红旗社区,,25,22,8,11,4,77,,71,71,4,3,5,5,0.3,0.3
2025-06-21T1900,1600A,124.3303,40.0625,丹东市,江湾东路,,41,33,16,19,10,130,,120,120,19,18,6,7,0.5,0.5
2025-06-21T1900,1601A,124.4256,40.1503,丹东市,临江后街,,44,22,18,3,5,140,,125,125,10,14,9,9,0.6,0.6
2025-06-21T1900,1602A,124.3933,40.1461,丹东市,元宝山,,35,19,18,6,9,110,,101,101,10,13,7,7,0.6,0.5
2025-06-21T1900,1603A,124.3633,40.1092,丹东市,民主桥,,40,19,20,11,5,125,,118,118,15,15,9,9,0.4,0.6
2025-06-21T1900,3541A,109.5726,19.5167,儋州市,第一中学子站,,24,24,15,11,8,42,,43,43,6,4,6,7,0.4,0.4
2025-06-21T1900,2616A,98.5842,24.428,德宏傣族景颇族自治州,德宏州监测站,,22,22,24,8,13,57,,64,64,6,9,6,8,0.6,0.6
2025-06-21T1900,3677A,98.5881,24.4368,德宏傣族景颇族自治州,芒市人民政府综合楼,,35,35,34,12,13,58,,67,67,6,7,8,9,0.4,0.5
2025-06-21T1900,1901A,104.4239,31.1208,德阳市,东山公园,臭氧1小时,84,28,27,17,15,187,,186,186,13,17,5,6,0.6,0.7
2025-06-21T1900,1902A,104.3826,31.1317,德阳市,西小区,臭氧1小时,77,34,44,20,21,181,,179,179,14,31,5,6,0.8,0.9
2025-06-21T1900,1904A,104.3553,31.1091,德阳市,耐火材料厂,臭氧1小时,73,32,43,21,23,178,,177,177,15,36,8,9,0.4,0.5
2025-06-21T1900,3639A,104.4019,31.1244,德阳市,市教育局,臭氧1小时,92,32,32,19,18,193,,194,194,12,23,5,5,0.6,0.6
2025-06-21T1900,1622A,116.3032,37.4674,德州市,儿童乐园,臭氧1小时,101,48,43,12,23,201,,197,197,13,11,,10,,0.6
2025-06-21T1900,1624A,116.2991,37.4451,德州市,监理站,臭氧1小时,103,39,39,9,22,205,,199,199,13,13,9,11,0.2,0.4
2025-06-21T1900,3066A,116.2721,37.4379,德州市,九衢泉纯净水厂,臭氧1小时,98,39,42,7,23,198,,187,187,10,26,7,8,0.5,0.7
2025-06-21T1900,3371A,116.3728,37.4403,德州市,开发区人民医院,臭氧1小时,90,48,41,12,19,192,,191,191,22,17,9,10,0.3,0.6
2025-06-21T1900,3511A,116.5652,37.3319,德州市,陵城艺术中心,臭氧1小时,99,48,41,7,17,199,,189,189,8,11,5,8,0.6,0.7
2025-06-21T1900,2621A,99.7056,27.8317,迪庆藏族自治州,迪庆州站,,18,18,14,8,10,52,,60,60,6,6,6,7,0.4,0.4
2025-06-21T1900,3180A,99.7136,27.8094,迪庆藏族自治州,质量技术监督局,,17,13,13,3,7,54,,56,56,10,8,7,6,0.5,0.5
2025-06-21T1900,4257A,104.6092,35.5962,定西市,将台街,,46,31,39,10,14,146,,144,144,7,21,4,5,0.4,0.4
2025-06-21T1900,4309A,104.6159,35.5701,定西市,正龙路62号,,46,28,26,22,18,146,,,,2,2,4,3,0.3,0.3
2025-06-21T1900,1389A,113.7547,23.0494,东莞市,莞城梨川,,14,14,18,9,10,44,,35,35,12,19,6,6,0.3,0.3
2025-06-21T1900,1390A,113.7944,23.0128,东莞市,东城石井,,11,11,18,3,7,28,,31,31,15,20,3,2,0.4,0.5
2025-06-21T1900,1391A,113.7383,22.9658,东莞市,南城西平,,13,12,16,9,7,33,,38,38,16,16,2,2,0.5,0.5
2025-06-21T1900,3319A,113.7338,23.0381,东莞市,万江金泰,,14,14,16,8,8,31,,24,24,13,17,1,2,0.7,0.7
2025-06-21T1900,3626A,113.7533,23.0202,东莞市,南城元岭,,,14,16,,15,40,,32,32,15,20,4,5,0.5,0.5
2025-06-21T1900,3627A,113.7875,23.0457,东莞市,东城主山,,14,14,20,7,10,39,,33,33,12,19,6,6,0.6,0.6
2025-06-21T1900,1666A,118.6614,37.4309,东营市,市环保局,臭氧1小时,102,41,28,29,14,204,,200,200,17,25,8,8,0.5,0.4
2025-06-21T1900,3036A,118.6904,37.4338,东营市,开发区管委会,臭氧1小时,115,65,37,36,15,229,,206,206,17,28,8,8,0.4,0.4
2025-06-21T1900,3365A,118.5719,37.565,东营市,垦利区民丰路,臭氧1小时,122,68,39,39,18,244,,214,214,17,29,8,9,0.9,0.7
2025-06-21T1900,3498A,118.5055,37.8612,东营市,河口城区,臭氧1小时,133,78,38,51,18,266,,228,228,17,24,13,12,1.1,0.7
2025-06-21T1900,3646A,118.4978,37.4623,东营市,胜利站,臭氧1小时,111,55,36,29,14,221,,200,200,18,30,10,10,0.9,0.8
2025-06-21T1900,3734A,118.35,37.26,东营市,理想之城,臭氧1小时,110,51,32,31,16,219,,210,210,16,29,7,7,0.7,0.6
2025-06-21T1900,1591A,110.0023,39.8129,鄂尔多斯市,综合楼,,43,22,26,3,8,136,,139,139,11,18,4,4,0.4,0.4
2025-06-21T1900,1592A,109.9486,39.8261,鄂尔多斯市,巴音孟克林场办事处,,48,27,38,9,12,151,,152,152,11,22,6,8,0.5,0.6
2025-06-21T1900,1593A,109.7736,39.5986,鄂尔多斯市,康泽苑,臭氧1小时,57,44,37,7,11,165,,167,167,9,16,8,9,0.3,0.4
2025-06-21T1900,1594A,109.8119,39.5989,鄂尔多斯市,华泰汽车城,,47,27,37,7,12,149,,153,153,8,29,6,6,0.3,0.5
2025-06-21T1900,1595A,109.9734,39.7884,鄂尔多斯市,奥林花园,,47,19,35,7,12,150,,154,154,14,41,7,7,0.5,0.5
2025-06-21T1900,2436A,114.8938,30.3994,鄂州市,市政府,,30,6,23,3,8,93,,92,92,7,17,4,6,0.4,0.7
2025-06-21T1900,2437A,114.8989,30.3714,鄂州市,赵家坝,,31,8,21,3,4,98,,95,95,3,11,8,9,0.3,0.6
2025-06-21T1900,3654A,114.8094,30.4089,鄂州市,精准医疗中心,,,7,16,,4,73,,76,76,2,8,4,4,0.5,0.7
2025-06-21T1900,2454A,109.4978,30.2981,恩施土家族苗族自治州,湖北民院,,23,12,15,3,7,72,,91,91,2,2,4,4,0.3,0.3
2025-06-21T1900,2455A,109.4707,30.2798,恩施土家族苗族自治州,州电力总公司,,19,8,12,6,7,60,,72,72,5,3,6,6,0.3,0.3
2025-06-21T1900,3549A,109.5061,30.3772,恩施土家族苗族自治州,龙凤新区,,18,,12,12,9,44,,68,66,2,2,3,2,0.4,0.4
2025-06-21T1900,2499A,108.3411,21.6158,防城港市,沙万,,,17,29,14,11,57,,56,56,,12,,3,0.4,0.4
2025-06-21T1900,2500A,108.3514,21.7731,防城港市,防城档案局,,22,,27,15,17,65,,62,62,6,7,1,2,0.4,0.4
2025-06-21T1900,2501A,108.3506,21.6414,防城港市,大海花园,,32,32,32,13,12,68,,65,65,10,10,3,3,0.4,0.4
2025-06-21T1900,1371A,113.1294,23.0067,佛山市,湾梁,,17,17,12,3,7,17,,32,29,32,21,8,8,0.4,0.4
2025-06-21T1900,1372A,113.1083,23.0478,佛山市,华材职中,,17,17,10,8,6,22,,36,33,19,11,6,6,0.5,0.5
2025-06-21T1900,1373A,113.144,23.0453,佛山市,南海气象局,,17,13,15,7,7,11,,29,26,34,19,4,5,0.7,0.6
2025-06-21T1900,1374A,113.2881,22.8094,佛山市,顺德苏岗,,13,13,13,3,4,22,,23,23,14,13,6,6,0.4,0.4
2025-06-21T1900,1376A,112.8383,22.8678,佛山市,高明孔堂,,10,8,15,3,6,30,,36,34,4,6,5,6,0.5,0.5
2025-06-21T1900,1377A,112.8836,23.1588,佛山市,三水监测站,,22,,16,15,9,14,,34,32,25,27,2,2,0.5,0.5
2025-06-21T1900,1378A,112.867,23.185,佛山市,三水云东海,,42,42,34,8,12,21,,47,43,21,24,1,1,0.5,0.6
2025-06-21T1900,3625A,113.2544,22.7642,佛山市,容桂街道办,,11,9,10,7,4,19,,20,20,22,18,5,5,0.7,0.6
2025-06-21T1900,1282A,119.2681,26.0504,福州市,师大,,34,34,22,6,6,83,,68,68,5,7,4,4,0.2,0.2
2025-06-21T1900,1283A,119.2984,26.1028,福州市,五四北路,,45,45,21,9,7,74,,69,69,13,10,4,4,0.3,0.2
2025-06-21T1900,1284A,119.2648,26.0768,福州市,杨桥西路,,31,31,24,11,8,79,,68,68,9,8,4,4,0.2,0.2
2025-06-21T1900,1285A,119.317,26.0746,福州市,紫阳,,33,33,22,6,6,71,,70,70,11,9,4,4,0.2,0.2
2025-06-21T1900,3048A,119.5799,26.0936,福州市,九龙,,24,24,18,10,11,75,,86,86,6,7,4,4,0.2,0.2
2025-06-21T1900,3526A,119.5189,25.9664,福州市,吴航,,21,17,19,8,10,65,,85,85,5,6,5,4,0.2,0.3
2025-06-21T1900,1755A,123.7977,41.8491,抚顺市,望花区,,37,19,27,10,11,117,,119,119,14,28,6,11,0.4,0.6
2025-06-21T1900,1756A,123.9161,41.8822,抚顺市,顺城区,,35,15,24,8,11,112,,115,115,15,27,6,7,0.4,0.5
2025-06-21T1900,1757A,124.0436,41.8611,抚顺市,东洲区,,,10,21,6,8,114,,114,114,13,19,7,9,,0.3
2025-06-21T1900,1758A,123.9247,41.8642,抚顺市,新抚区,,37,14,27,7,10,117,,116,116,5,15,6,7,0.3,0.5
2025-06-21T1900,1759A,124.0972,41.8961,抚顺市,大伙房水库,,34,10,20,3,8,107,,108,108,14,21,8,9,0.1,0.3
2025-06-21T1900,1760A,123.7086,41.8391,抚顺市,沈抚新城,,36,14,25,3,9,113,,116,116,12,28,5,10,0.4,0.6
2025-06-21T1900,2376A,116.2127,28.0814,抚州市,桐源党溪,,,22,19,3,6,53,,57,57,3,3,4,4,,0.3
2025-06-21T1900,2377A,116.3544,27.9831,抚州市,市站,,18,18,15,7,5,49,,54,54,1,2,1,2,0.4,0.6
2025-06-21T1900,2378A,116.3565,27.963,抚州市,血防站,,20,20,17,12,6,49,,56,55,4,4,3,3,0.5,0.4
2025-06-21T1900,2379A,116.3564,28.0007,抚州市,采茶剧团,,17,17,15,7,4,51,,55,55,2,2,4,4,0.3,0.3
2025-06-21T1900,2380A,116.385,27.9647,抚州市,医学分院,,17,14,14,3,4,53,,58,58,2,2,4,4,0.6,0.7
2025-06-21T1900,2207A,121.6094,41.998,阜新市,工业园区,,25,23,24,3,9,78,,98,97,19,25,6,9,0.3,0.3
2025-06-21T1900,2208A,121.6697,42.0279,阜新市,长青街,,26,15,22,8,8,82,,94,94,9,19,6,9,0.4,0.4
2025-06-21T1900,2209A,121.6673,42.0705,阜新市,农业园区,,26,17,15,3,4,81,,93,92,9,11,4,5,0.4,0.4
2025-06-21T1900,2210A,121.6717,42.0224,阜新市,东苑,,27,19,30,7,9,85,,98,98,13,22,6,13,0.4,0.5
2025-06-21T1900,2211A,121.6506,42.0498,阜新市,玉龙新城,,46,,30,32,10,68,,92,90,16,24,6,7,0.5,0.4
2025-06-21T1900,2301A,115.8277,32.8929,阜阳市,市监测站,,33,16,16,15,9,103,,98,98,6,8,2,2,0.3,0.4
2025-06-21T1900,2303A,115.8554,32.8605,阜阳市,开发区,,36,7,7,3,8,113,,100,100,5,8,5,5,0.1,0.1
2025-06-21T1900,2875A,115.784,32.8892,阜阳市,阜阳职业技术学院,,35,,8,6,8,112,,105,105,2,5,3,3,0.1,0.2
2025-06-21T1900,3468A,115.7901,32.8613,阜阳市,市规划展馆,,35,,15,3,12,109,,101,101,4,5,2,2,0.2,0.4
2025-06-21T1900,3469A,115.836,32.9183,阜阳市,枣园社区,,34,18,20,3,12,108,,99,99,9,10,3,3,0.3,0.4
2025-06-21T1900,2669A,102.9099,34.9841,甘南藏族自治州,州政府,,35,25,41,18,20,110,,119,119,8,26,4,4,0.3,0.3
2025-06-21T1900,3380A,102.8914,34.9617,甘南藏族自治州,甘肃民族师范学院,,37,27,63,14,19,117,,123,123,2,21,8,8,0.3,0.4
2025-06-21T1900,2570A,101.9603,30.0475,甘孜藏族自治州,水桥子,,19,18,17,3,9,58,,82,82,31,34,5,5,0.4,0.3
2025-06-21T1900,3065A,101.9533,29.9972,甘孜藏族自治州,州环保局,,30,14,15,3,6,96,,101,101,16,24,2,2,0.3,0.2
2025-06-21T1900,3414A,115.8347,28.932,赣江新区,桑海产业园,,22,22,15,13,6,69,,89,88,12,14,9,8,0.4,0.1
2025-06-21T1900,2363A,114.9367,25.8664,赣州市,地委,,13,12,11,8,7,39,,51,50,8,6,2,6,0.6,0.6
2025-06-21T1900,2364A,114.9461,25.8481,赣州市,气象台,,14,14,14,3,4,41,,53,52,4,4,7,7,0.3,0.3
2025-06-21T1900,2365A,114.9322,25.8333,赣州市,市图书馆,,15,15,8,3,5,36,,49,47,5,4,4,4,0.4,0.4
2025-06-21T1900,2366A,114.8905,25.8471,赣州市,华坚鞋城,,14,10,15,8,7,44,,57,55,7,6,1,3,0.3,0.3
2025-06-21T1900,3109A,115.0093,25.8613,赣州市,赣县区卫计委,,12,12,12,8,6,36,,50,46,7,8,2,2,0.2,0.2
2025-06-21T1900,2683A,106.2319,36.1417,固原市,马园,,46,36,29,12,11,147,,137,137,19,26,6,11,0.6,0.7
2025-06-21T1900,2684A,106.2792,36.0022,固原市,监测站,臭氧1小时,52,27,24,13,9,161,,148,148,6,13,5,6,0.2,0.2
2025-06-21T1900,2685A,106.2375,36.0211,固原市,新区,,50,23,23,10,12,159,,147,147,7,13,3,4,0.3,0.4
2025-06-21T1900,3522A,106.2177,35.9959,固原市,原州区十五小,,50,22,26,13,14,158,,146,146,5,9,9,9,0.2,0.2
2025-06-21T1900,2544A,106.6303,30.4576,广安市,市委,,28,,15,15,16,87,,89,89,13,10,3,3,0.5,0.5
2025-06-21T1900,2545A,106.6271,30.4663,广安市,友谊中学,,33,19,23,10,12,104,,109,109,11,9,6,6,0.7,0.6
2025-06-21T1900,2547A,106.6388,30.4551,广安市,广电花园,,28,12,34,6,16,89,,92,92,8,7,8,8,0.5,0.5
2025-06-21T1900,2902A,106.6351,30.4865,广安市,北辰小学,,30,15,17,13,12,94,,97,97,8,6,8,7,0.7,0.6
2025-06-21T1900,2523A,105.8945,32.4535,广元市,黑石坡,,39,38,33,7,12,122,,121,121,13,12,8,7,0.3,0.3
2025-06-21T1900,2524A,105.821,32.4444,广元市,老城,,40,23,21,11,8,128,,132,132,10,19,11,6,0.6,0.7
2025-06-21T1900,2526A,105.8628,32.4287,广元市,监测站,,43,15,17,11,13,137,,132,132,8,17,7,7,0.4,0.5
2025-06-21T1900,3617A,105.8047,32.4166,广元市,经开区,,41,26,36,14,20,129,,138,138,6,25,4,7,0.5,0.6
2025-06-21T1900,1345A,113.2347,23.1423,广州市,广雅中学,,19,19,19,10,9,21,,39,37,24,20,3,2,0.5,0.5
2025-06-21T1900,1346A,113.2612,23.105,广州市,市五中,,20,20,16,10,7,26,,31,31,14,14,4,3,0.5,0.4
2025-06-21T1900,1348A,113.3478,23.0916,广州市,广东商学院,,23,23,17,14,7,37,,33,33,23,22,3,2,0.6,0.6
2025-06-21T1900,1349A,113.4332,23.1047,广州市,市八十六中,,20,12,13,8,5,15,,18,18,39,29,2,3,0.7,0.5
2025-06-21T1900,1350A,113.3505,22.9483,广州市,番禺中学,,18,18,15,10,8,45,,35,35,16,20,7,6,0.5,0.5
2025-06-21T1900,1351A,113.2146,23.3916,广州市,花都师范,,18,18,21,8,9,19,,44,41,25,24,4,4,0.6,0.7
2025-06-21T1900,1352A,113.2597,23.1331,广州市,市监测站,,21,21,18,10,8,22,,32,32,17,14,6,5,0.3,0.3
2025-06-21T1900,1353A,113.5618,23.312,广州市,九龙镇镇龙,,23,23,21,14,11,15,,23,22,28,25,6,6,0.5,0.4
2025-06-21T1900,1354A,113.2765,23.1544,广州市,麓湖,,17,17,16,8,7,20,,23,,17,15,2,2,0.6,0.6
2025-06-21T1900,1355A,113.443,23.3035,广州市,帽峰山森林公园,,11,8,11,3,4,33,,42,42,18,18,6,6,0.4,0.4
2025-06-21T1900,2846A,113.3221,23.1322,广州市,体育西,,20,20,18,12,8,30,,29,29,26,26,6,5,0.5,0.4
2025-06-21T1900,3298A,113.5717,23.5491,广州市,从化街口,,18,18,17,10,9,29,,34,34,19,18,8,8,0.7,0.6
2025-06-21T1900,3299A,113.3472,23.3692,广州市,白云竹料,,15,15,23,7,10,22,,32,32,18,21,3,3,0.6,0.7
2025-06-21T1900,3300A,113.2981,23.237,广州市,白云嘉禾,,17,17,18,9,8,23,,33,33,21,24,4,4,0.9,0.8
2025-06-21T1900,3301A,113.4256,23.1716,广州市,黄埔科学城,,19,19,21,8,7,20,,23,23,19,22,4,4,0.5,0.5
2025-06-21T1900,3302A,113.3942,23.0483,广州市,番禺大学城,,18,16,19,12,10,44,,33,33,21,18,5,5,0.6,0.5
2025-06-21T1900,3303A,113.4922,22.8168,广州市,南沙黄阁,,17,17,13,6,6,28,,28,28,8,7,4,4,0.5,0.5
2025-06-21T1900,3304A,113.5342,22.7896,广州市,南沙街,,15,15,12,6,5,28,,29,29,10,10,2,2,0.5,0.5
2025-06-21T1900,3443A,113.2902,23.5544,广州市,花都梯面,,13,13,17,6,9,22,,42,41,18,17,4,4,0.5,0.5
2025-06-21T1900,3445A,113.7858,23.7478,广州市,从化良口,,9,8,16,6,8,26,,32,32,10,10,6,6,0.6,0.6
2025-06-21T1900,3446A,113.8051,23.2614,广州市,增城荔城,,16,16,19,7,9,35,,30,30,15,16,6,6,0.4,0.4
2025-06-21T1900,2506A,109.6047,23.0666,贵港市,江南子站,,24,24,23,11,13,40,,59,58,21,10,4,5,0.8,0.5
2025-06-21T1900,2508A,109.5669,23.1065,贵港市,荷城子站,,28,28,29,9,8,51,,55,55,14,14,4,6,0.3,0.3
2025-06-21T1900,3405A,109.5886,23.1172,贵港市,新世纪学校,,31,31,25,10,12,42,,59,59,22,14,6,5,0.7,0.4
2025-06-21T1900,4260A,109.5933,23.0951,贵港市,中山路155-3号,,34,34,39,11,15,48,,62,62,18,14,3,5,0.5,0.4
2025-06-21T1900,1439A,106.6899,26.5998,贵阳市,马鞍山,,25,22,24,3,5,78,,61,61,13,8,3,3,0.4,0.4
2025-06-21T1900,1441A,106.6243,26.6266,贵阳市,鉴湖路,,31,31,32,12,13,73,,83,81,12,14,6,7,0.4,0.5
2025-06-21T1900,1442A,106.7487,26.6343,贵阳市,燕子冲,,32,29,31,22,25,82,,80,80,12,14,4,4,0.2,0.2
2025-06-21T1900,1443A,106.6555,26.4365,贵阳市,碧云窝,,31,31,32,17,14,85,,93,92,14,12,3,3,0.4,0.5
2025-06-21T1900,1445A,106.7109,26.6027,贵阳市,红边门,,29,24,28,12,14,90,,94,94,6,8,3,3,0.2,0.3
2025-06-21T1900,1446A,106.7164,26.5699,贵阳市,新华路,,28,,20,19,21,82,,86,86,16,17,4,3,0.4,0.5
2025-06-21T1900,1447A,106.674,26.5424,贵阳市,太慈桥,,26,24,23,12,11,81,,81,79,16,16,2,3,0.4,0.4
2025-06-21T1900,4230A,106.6882,26.5695,贵阳市,花果园大街66号,,28,22,26,17,21,89,,92,92,11,15,3,3,0.4,0.5
2025-06-21T1900,4231A,106.6873,26.5169,贵阳市,漓江路57号,,29,24,28,9,12,91,,92,92,12,21,6,6,0.4,0.4
2025-06-21T1900,1864A,110.3089,25.2708,桂林市,龙隐路小学,,14,14,26,7,14,31,,49,48,10,10,8,13,0.4,0.6
2025-06-21T1900,1865A,110.2869,25.2178,桂林市,八中,,,21,21,6,8,,,57,54,14,12,6,7,0.4,0.4
2025-06-21T1900,3531A,110.296,25.1253,桂林市,旅游学院,,14,12,12,3,7,44,,50,49,6,6,1,3,0.2,0.2
2025-06-21T1900,4222A,110.1835,25.2444,桂林市,环湖路276号,,15,12,19,9,12,47,,51,51,6,13,5,5,0.4,0.4
2025-06-21T1900,4301A,110.2803,25.2773,桂林市,信义路13号,,23,21,24,16,9,32,,48,46,14,12,1,6,0.5,0.5
2025-06-21T1900,2674A,100.2561,34.4714,果洛藏族自治州,玛沁县大武镇,,41,11,12,3,10,130,,124,124,2,2,18,19,0.4,0.4
2025-06-21T1900,1129A,126.5422,45.755,哈尔滨市,岭北,,26,6,8,3,6,82,,83,83,8,11,8,11,0.8,0.8
2025-06-21T1900,1130A,126.561,45.8167,哈尔滨市,松北商大,,18,8,12,6,4,56,,57,52,7,10,4,4,0.4,0.4
2025-06-21T1900,1131A,126.979,45.5419,哈尔滨市,阿城会宁,,21,18,15,9,9,66,,79,78,15,15,9,9,0.4,0.4
2025-06-21T1900,1132A,126.599,45.7222,哈尔滨市,南岗学府路,,26,26,20,3,6,71,,73,73,8,14,6,6,0.4,0.4
2025-06-21T1900,1133A,126.689,45.7733,哈尔滨市,太平宏伟公园,,23,18,15,11,8,71,,71,71,6,12,5,5,0.4,0.4
2025-06-21T1900,1134A,126.635,45.7667,哈尔滨市,道外承德广场,,38,38,32,8,9,68,,67,67,7,16,6,6,0.6,0.7
2025-06-21T1900,1135A,126.685,45.7319,哈尔滨市,香坊红旗大街,,23,14,14,11,9,72,,75,75,8,17,1,2,0.6,0.6
2025-06-21T1900,1136A,126.6411,45.7258,哈尔滨市,动力和平路,,28,28,17,13,5,73,,75,75,10,16,7,8,0.3,0.3
2025-06-21T1900,1137A,126.593,45.7478,哈尔滨市,道里建国路,,29,29,16,7,5,71,,74,74,5,11,3,2,0.6,0.7
2025-06-21T1900,1138A,126.615,45.61,哈尔滨市,平房东轻厂,,22,20,14,7,6,70,,74,74,11,19,9,9,0.3,0.3
2025-06-21T1900,1139A,126.595,45.9855,哈尔滨市,呼兰师专,,20,10,12,3,5,62,,66,66,6,12,7,6,0.3,0.3
2025-06-21T1900,1140A,126.6206,45.6842,哈尔滨市,省农科院,,41,41,36,10,9,64,,53,53,12,30,8,9,0.5,0.5
2025-06-21T1900,2688A,93.5128,42.8172,哈密市,地区监测站,,37,,27,16,15,118,,127,127,10,13,14,10,0.2,0.2
2025-06-21T1900,2689A,93.4961,42.8328,哈密市,哈密师范学校,,31,20,32,9,14,98,,121,120,13,20,5,5,0.2,0.2
2025-06-21T1900,2671A,100.9048,36.9639,海北藏族自治州,海晏县西海镇,,49,,17,11,14,154,,148,148,3,6,5,8,0.3,0.4
2025-06-21T1900,3867A,102.0738,36.5056,海东市,平安区公安北苑,,33,20,31,6,15,105,,121,121,10,11,8,13,1.4,0.7
2025-06-21T1900,1409A,110.576,19.9507,海口市,东寨港,,17,17,12,6,6,39,,46,45,3,3,14,10,0.4,0.3
2025-06-21T1900,1410A,110.3232,20.0574,海口市,海南大学,,18,17,17,12,9,54,,57,56,3,3,3,3,0.3,0.3
2025-06-21T1900,1411A,110.283,20.0053,海口市,秀英海南医院,,21,21,18,9,8,51,,56,56,9,7,5,4,0.3,0.2
2025-06-21T1900,1412A,110.338,19.9969,海口市,海南师范大学,,17,17,18,8,8,53,,58,57,4,4,4,4,0.2,0.2
2025-06-21T1900,1413A,110.33,20.0356,海口市,龙华路环保局宿舍,,17,16,17,11,7,54,,58,57,6,5,5,5,0.3,0.3
2025-06-21T1900,3539A,110.5111,19.9736,海口市,桂林洋子站,,19,19,17,11,7,40,,51,49,6,4,4,4,0.2,0.2
2025-06-21T1900,2673A,100.6188,36.2866,海南藏族自治州,共和县恰卜恰镇,,46,15,22,6,8,146,,150,150,4,8,8,13,0.5,0.5
2025-06-21T1900,2676A,97.3731,37.3753,海西蒙古族藏族自治州,德令哈市,臭氧1小时,65,25,34,20,19,172,,157,157,1,2,12,11,0.6,0.6
2025-06-21T1900,1048A,114.5302,36.6116,邯郸市,东污水处理厂,臭氧1小时,83,41,42,3,6,186,,185,184,14,27,4,6,0.3,0.5
2025-06-21T1900,1049A,114.4918,36.5713,邯郸市,矿院,臭氧1小时,101,33,30,3,10,202,,201,201,10,21,5,7,0.3,0.5
2025-06-21T1900,1050A,114.484,36.6133,邯郸市,丛台公园,臭氧1小时,99,35,33,3,14,199,,188,188,12,17,6,12,0.4,0.7
2025-06-21T1900,3458A,114.7895,36.5593,邯郸市,香泉濮院小区,臭氧1小时,65,37,51,3,9,172,,169,168,8,14,5,5,0.0,0.3
2025-06-21T1900,3579A,114.50634,36.77178,邯郸市,永年区实验高中,臭氧1小时,78,38,48,19,23,182,,181,181,13,14,4,7,0.4,0.7
2025-06-21T1900,3580A,114.20016,36.44293,邯郸市,峰峰矿区临水派出所,臭氧1小时,104,26,32,3,9,208,,193,193,10,10,6,8,0.4,0.4
2025-06-21T1900,2634A,106.9893,33.1842,汉中市,汉川机床厂子校,,43,24,29,14,17,136,,134,134,5,13,3,3,0.5,0.5
2025-06-21T1900,2635A,107.0154,33.0706,汉中市,市监测站,,38,23,24,15,16,119,,123,123,6,9,5,6,0.5,0.6
2025-06-21T1900,2636A,107.0089,33.1138,汉中市,鑫源开发区,,40,21,24,12,14,127,,129,129,5,11,5,5,0.5,0.5
2025-06-21T1900,2637A,107.007,33.0323,汉中市,南郑大河坎水厂,,35,18,26,17,14,111,,117,117,5,10,4,4,0.4,0.6
2025-06-21T1900,1223A,120.2072,30.2111,杭州市,滨江,,25,25,23,12,10,74,,90,88,20,24,7,7,0.6,0.6
2025-06-21T1900,1224A,120.0633,30.2747,杭州市,西溪,,24,20,17,13,10,76,,73,72,15,12,4,4,0.4,0.4
2025-06-21T1900,1226A,120.3417,30.3150,杭州市,下沙,,28,22,22,11,12,88,,90,89,13,24,5,5,0.4,0.4
2025-06-21T1900,1227A,120.1269,30.2456,杭州市,卧龙桥,,26,26,18,18,11,75,,90,88,14,12,7,7,0.7,0.7
2025-06-21T1900,1228A,120.1903,30.2692,杭州市,浙江农大,,22,21,21,14,12,69,,76,76,15,21,10,10,0.5,0.5
2025-06-21T1900,1230A,120.1197,30.3119,杭州市,和睦小学,,25,20,19,11,12,80,,73,73,14,14,8,8,0.4,0.4
2025-06-21T1900,1231A,120.3019,30.4183,杭州市,临平镇,,32,32,30,9,9,96,,87,87,10,23,5,6,0.4,0.4
2025-06-21T1900,1232A,120.2753,30.1839,杭州市,城厢镇,,25,24,28,14,15,79,,89,88,12,18,7,7,0.6,0.6
2025-06-21T1900,1233A,120.0883,30.1808,杭州市,云栖,,23,23,20,9,9,54,,80,76,11,12,7,7,0.5,0.5
2025-06-21T1900,3557A,119.9464,30.0494,杭州市,镇二中,,30,30,24,14,20,68,,92,90,16,23,3,4,0.5,0.5
2025-06-21T1900,3558A,119.7183,30.2367,杭州市,市府大楼,,21,17,19,8,10,67,,62,62,11,14,6,7,0.4,0.4
2025-06-21T1900,3656A,120.1556,30.2864,杭州市,消防大队,,25,23,20,12,12,80,,82,81,14,18,4,5,0.7,0.7
2025-06-21T1900,1270A,117.1959,31.7848,合肥市,明珠广场,,33,6,6,3,5,104,,102,102,15,11,4,4,0.4,0.4
2025-06-21T1900,1271A,117.3072,31.8764,合肥市,三里街,,30,6,6,3,5,96,,96,96,10,10,5,5,0.4,0.4
2025-06-21T1900,1272A,117.2588,31.8707,合肥市,琥珀山庄,,33,,6,10,9,103,,100,100,10,9,6,6,0.4,0.4
2025-06-21T1900,1273A,117.1604,31.9052,合肥市,董铺水库,,34,9,8,3,4,107,,102,102,4,4,4,3,0.2,0.2
2025-06-21T1900,1274A,117.25,31.8571,合肥市,长江中路,,34,14,9,10,6,108,,106,106,11,8,6,5,0.5,0.5
2025-06-21T1900,1275A,117.266,31.9436,合肥市,庐阳区,,33,7,8,3,4,104,,105,105,10,5,8,9,0.5,0.5
2025-06-21T1900,1276A,117.3453,31.8616,合肥市,瑶海区,,33,7,8,3,4,105,,104,104,10,8,6,7,0.5,0.5
2025-06-21T1900,1277A,117.3027,31.7964,合肥市,包河区,,26,7,6,3,5,82,,84,81,35,18,4,4,0.5,0.5
2025-06-21T1900,1278A,117.2776,31.7385,合肥市,滨湖新区,,34,9,7,7,9,106,,101,101,8,10,8,9,0.4,0.4
2025-06-21T1900,1279A,117.1318,31.8403,合肥市,高新区,,34,7,8,6,6,107,,104,104,13,9,6,7,0.4,0.4
2025-06-21T1900,3464A,117.3803,31.9147,合肥市,高教基地,,30,9,8,3,7,94,,91,91,8,6,6,6,0.3,0.4
2025-06-21T1900,3614A,79.924,37.0877,和田地区,地区环保局,颗粒物(PM10),233,373,445,99,104,134,,128,128,5,19,3,2,0.4,0.5
2025-06-21T1900,3615A,79.9131,37.113,和田地区,市环保局,颗粒物(PM10),187,323,407,105,100,129,,126,126,9,21,1,2,0.2,0.6
2025-06-21T1900,2517A,108.0497,24.6947,河池市,市环保站,,16,16,15,11,8,29,,56,45,9,7,2,2,0.7,0.6
2025-06-21T1900,2518A,108.0983,24.6989,河池市,市疾控中心,,29,29,18,6,8,27,,53,46,15,12,3,2,0.6,0.6
2025-06-21T1900,1696A,114.6778,23.7569,河源市,源西,,19,,12,13,12,49,,52,52,13,10,3,3,0.6,0.5
2025-06-21T1900,1697A,114.6944,23.7586,河源市,东埔,,15,10,11,6,4,45,,49,49,15,10,4,4,0.4,0.3
2025-06-21T1900,1698A,114.6892,23.7233,河源市,老城,,15,10,14,7,6,45,,48,48,10,7,3,4,0.2,0.2
2025-06-21T1900,1718A,115.4208,35.2464,菏泽市,气象局,臭氧1小时,57,38,43,18,24,165,,183,183,9,11,3,4,0.4,0.4
2025-06-21T1900,3374A,115.5564,35.0891,菏泽市,定陶老年大学,,50,29,42,9,21,160,,167,167,14,17,3,3,0.3,0.4
2025-06-21T1900,4184A,115.4797,35.24401,菏泽市,永昌路1号,臭氧1小时,58,31,42,17,19,166,,183,183,9,10,5,5,0.2,0.3
2025-06-21T1900,4193A,115.4715,35.2800,菏泽市,长城路999号,臭氧1小时,65,39,44,9,23,172,,190,190,12,14,4,4,0.3,0.4
2025-06-21T1900,2514A,111.5264,24.4172,贺州市,环保小区,,23,23,17,10,8,48,,55,55,9,8,9,10,0.5,0.5
2025-06-21T1900,2515A,111.5608,24.4078,贺州市,政协大楼,,17,14,14,3,10,53,,60,60,8,9,10,10,0.5,0.5
2025-06-21T1900,3534A,111.4744,24.4553,贺州市,西湾,,17,17,18,3,7,53,,56,56,10,10,10,10,0.4,0.4
2025-06-21T1900,2385A,114.17,35.9019,鹤壁市,市监测站,臭氧1小时,80,33,47,28,25,184,,176,176,12,15,6,6,0.7,0.7
2025-06-21T1900,2386A,114.2956,35.7511,鹤壁市,市交警支队,臭氧1小时,70,34,45,10,25,176,,178,178,16,18,5,4,0.5,0.7
2025-06-21T1900,2387A,114.2878,35.7306,鹤壁市,迎宾馆,臭氧1小时,72,,41,32,23,177,,176,176,11,18,7,6,0.5,0.7
2025-06-21T1900,3474A,114.2617,35.6822,鹤壁市,大新区,臭氧1小时,68,33,38,13,15,174,,177,177,10,9,6,7,0.5,0.7
2025-06-21T1900,3596A,114.1572,35.9603,鹤壁市,南山宾馆,臭氧1小时,98,44,48,26,32,198,,189,189,9,7,5,5,0.4,0.5
2025-06-21T1900,2244A,130.2537,47.3416,鹤岗市,哈啤分公司,,21,12,17,3,7,65,,82,73,5,5,15,16,0.3,0.3
2025-06-21T1900,2245A,130.2684,47.3086,鹤岗市,斯达机电,,23,23,18,15,15,61,,76,64,8,8,16,17,0.3,0.3
2025-06-21T1900,2246A,130.3114,47.3388,鹤岗市,东山纸板厂,,27,27,20,9,10,59,,77,69,19,10,29,16,0.7,0.6
2025-06-21T1900,2247A,130.1097,47.3382,鹤岗市,五号水库,,,8,10,6,6,40,,65,49,,8,13,13,0.5,0.5
2025-06-21T1900,2263A,127.4833,50.2524,黑河市,交通局,,35,17,18,10,6,109,,86,86,10,7,7,7,0.4,0.4
2025-06-21T1900,2264A,127.5144,50.2341,黑河市,环保局,,39,15,18,11,10,122,,90,90,8,7,6,6,0.3,0.3
2025-06-21T1900,2265A,127.5291,50.2472,黑河市,大黑河岛,,33,,6,14,10,103,,39,39,5,10,16,16,0.5,0.4
2025-06-21T1900,1074A,115.6838,37.7541,衡水市,电机北厂,臭氧1小时,67,28,48,15,22,173,,187,183,8,10,7,3,0.2,0.4
2025-06-21T1900,1075A,115.6303,37.7316,衡水市,市监测站,臭氧1小时,65,37,53,10,19,172,,186,182,5,12,5,6,0.2,0.4
2025-06-21T1900,3188A,115.6683,37.7217,衡水市,市城管局,臭氧1小时,75,29,50,18,25,180,,194,190,5,12,1,3,0.3,0.5
2025-06-21T1900,3459A,115.5989,37.5491,衡水市,地表水厂,臭氧1小时,57,48,60,3,22,165,,190,186,12,25,6,7,0.2,0.4
2025-06-21T1900,2456A,112.5003,26.9167,衡阳市,原169医院,,23,23,31,10,12,56,,75,73,10,10,9,7,0.4,0.5
2025-06-21T1900,2457A,112.6194,26.9258,衡阳市,衡阳化工总厂,,35,35,21,14,12,46,,64,62,9,8,4,4,0.5,0.4
2025-06-21T1900,2458A,112.6211,26.8956,衡阳市,珠晖区环保局,,,32,20,,,49,,71,69,4,7,6,6,0.5,0.5
2025-06-21T1900,2459A,112.6197,26.8733,衡阳市,市委党校,,31,31,21,10,8,47,,64,62,8,8,6,6,0.6,0.4
2025-06-21T1900,2460A,112.6006,26.8919,衡阳市,市监测站,,25,25,19,16,11,46,,63,61,8,8,5,6,0.4,0.3
2025-06-21T1900,2461A,112.5664,26.9056,衡阳市,真空机电公司,,25,,28,17,12,44,,64,62,7,8,6,6,0.6,0.7
2025-06-21T1900,3399A,112.6703,26.882,衡阳市,师范学院,,26,26,33,13,16,48,,64,63,5,7,5,6,0.6,0.6
2025-06-21T1900,2608A,103.3772,23.3993,红河哈尼族彝族自治州,污水处理厂,,18,15,22,12,13,27,,33,33,6,8,7,8,0.4,0.4
2025-06-21T1900,2609A,103.3861,23.35,红河哈尼族彝族自治州,监测站,,27,27,23,11,13,29,,32,32,7,7,5,5,0.3,0.3
2025-06-21T1900,3038A,103.3758,23.368,红河哈尼族彝族自治州,州图书馆,,32,,16,22,13,31,,35,35,9,8,2,4,0.3,0.3
2025-06-21T1900,1090A,111.6507,40.7517,呼和浩特市,呼市一监,,36,9,17,3,9,115,,117,117,3,14,7,7,0.3,0.3
2025-06-21T1900,1091A,111.6572,40.8033,呼和浩特市,小召,,38,9,16,3,9,121,,111,111,7,20,4,4,0.2,0.3
2025-06-21T1900,1094A,111.7516,40.8369,呼和浩特市,如意水处理厂,,37,12,20,11,12,117,,116,116,6,18,5,4,0.3,0.3
2025-06-21T1900,1095A,111.7276,40.8062,呼和浩特市,二十九中,,37,6,21,6,13,118,,118,118,7,17,4,4,0.4,0.4
2025-06-21T1900,1096A,111.5512,40.7866,呼和浩特市,工大金川校区,,35,11,21,6,9,111,,110,110,7,17,5,6,0.3,0.4
2025-06-21T1900,1097A,111.717,40.7612,呼和浩特市,化肥厂生活区,,39,12,22,3,9,122,,120,120,8,17,6,6,0.2,0.2
2025-06-21T1900,3698A,111.5968,40.8178,呼和浩特市,红旗小学,,37,12,13,3,8,116,,112,112,12,16,2,2,0.2,0.2
2025-06-21T1900,3699A,111.6518,40.8389,呼和浩特市,海东办,,37,9,12,3,7,117,,108,108,8,20,4,4,0.3,0.3
2025-06-21T1900,2192A,119.7594,49.2261,呼伦贝尔市,区环保局,,32,31,27,22,20,71,,77,77,14,11,5,5,0.5,0.4
2025-06-21T1900,3061A,119.7512,49.1577,呼伦贝尔市,国华电力东,,39,36,23,27,14,89,,92,92,8,7,10,5,0.4,0.4
2025-06-21T1900,1250A,120.0751,30.8669,湖州市,城西水厂,,29,19,20,12,10,92,,81,81,12,19,5,6,0.4,0.4
2025-06-21T1900,2873A,120.0830,30.8929,湖州市,仁皇山新区,,29,16,18,11,10,92,,85,85,12,15,4,4,0.5,0.5
2025-06-21T1900,2907A,120.1844,30.8596,湖州市,吴兴区站,,29,15,19,9,11,91,,86,86,13,18,6,7,0.4,0.4
2025-06-21T1900,3562A,120.4148,30.8538,湖州市,南浔区站,,25,21,28,8,15,80,,92,90,13,23,4,5,0.6,0.6
2025-06-21T1900,1607A,120.9049,40.7211,葫芦岛市,龙港区,,33,26,31,11,11,104,,121,121,8,25,5,7,0.3,0.4
2025-06-21T1900,1608A,120.8392,40.7514,葫芦岛市,化工街,,32,17,20,7,8,102,,108,108,16,36,7,10,0.4,0.4
2025-06-21T1900,1609A,120.8341,40.7073,葫芦岛市,新区,,33,13,24,6,8,104,,118,118,12,36,4,7,0.5,0.7
2025-06-21T1900,1610A,120.8695,40.7677,葫芦岛市,东城区,,31,23,27,11,7,99,,106,106,21,32,5,14,0.6,0.5
2025-06-21T1900,2482A,109.5981,27.5721,怀化市,林科所,,27,6,13,3,3,86,,46,46,1,3,3,4,0.3,0.3
2025-06-21T1900,2483A,109.9453,27.5444,怀化市,河西地税局,,24,6,10,6,6,75,,43,43,5,5,4,3,0.2,0.2
2025-06-21T1900,2484A,109.9781,27.5342,怀化市,市四医院,,19,7,22,6,10,59,,34,34,4,6,1,1,0.7,0.6
2025-06-21T1900,2485A,109.9972,27.5578,怀化市,监测楼,,20,10,15,10,9,64,,41,41,7,15,3,2,0.1,0.2
2025-06-21T1900,2486A,110.0394,27.583,怀化市,市委党校,,21,15,10,7,8,66,,44,44,4,6,7,3,0.2,0.2
2025-06-21T1900,1210A,119.036,33.5981,淮安市,钵池山,,32,14,9,14,9,101,,108,108,13,12,6,7,0.5,0.6
2025-06-21T1900,1211A,119.007,33.575,淮安市,北京南路,,31,19,8,15,6,98,,108,107,5,3,6,6,0.5,0.4
2025-06-21T1900,1212A,118.989,33.6067,淮安市,市监测站,,38,17,8,12,8,119,,126,126,14,8,8,8,0.5,0.4
2025-06-21T1900,1213A,119.135,33.5039,淮安市,楚州区监测站,,28,24,12,16,9,88,,102,100,9,3,7,7,0.7,0.6
2025-06-21T1900,3426A,118.8755,33.2894,淮安市,新华书店,,32,19,8,15,9,100,,109,109,11,8,7,8,0.4,0.3
2025-06-21T1900,4206A,119.0288,33.6319,淮安市,承德北路606号,,32,19,6,12,7,101,,107,107,7,3,5,4,0.5,0.4
2025-06-21T1900,2282A,116.8004,33.975,淮北市,监测站,,41,28,26,27,23,129,,124,124,6,7,6,6,0.7,0.7
2025-06-21T1900,2283A,116.8091,33.9007,淮北市,烈山区政府,颗粒物(PM10),53,56,40,31,18,116,,116,116,17,17,7,6,0.7,0.7
2025-06-21T1900,3330A,116.8873,33.9836,淮北市,杜集区检察院,颗粒物(PM10),54,57,36,33,28,126,,125,125,5,5,8,8,0.9,0.8
2025-06-21T1900,4017A,116.7923,33.9535,淮北市,市博物馆,,43,35,26,30,22,127,,126,126,4,5,7,7,0.8,0.8
2025-06-21T1900,2277A,116.8305,32.7727,淮南市,潘集区政府,,33,15,10,12,11,105,,97,97,5,4,3,3,0.3,0.3
2025-06-21T1900,2279A,116.8569,32.5951,淮南市,谢家集区政府,,32,6,12,3,4,100,,98,98,11,6,5,5,0.1,0.1
2025-06-21T1900,2280A,116.8281,32.633,淮南市,八公山区政府,,31,15,8,7,6,99,,98,97,9,6,4,4,0.1,0.2
2025-06-21T1900,2894A,117.0566,32.6531,淮南市,经济技术开发区消防队,,33,,9,12,6,104,,103,103,7,6,6,6,0.2,0.2
2025-06-21T1900,3329A,117.0108,32.5893,淮南市,山南新区,,35,8,7,3,6,112,,106,106,2,2,6,6,0.1,0.3
2025-06-21T1900,4209A,117.0031,32.6445,淮南市,国庆中路369号,,33,17,9,9,11,104,,98,98,7,4,6,7,0.2,0.1
2025-06-21T1900,2446A,114.9028,30.4742,黄冈市,职工中心,,33,6,15,3,12,103,,104,104,2,5,7,8,0.4,0.5
2025-06-21T1900,2929A,114.8858,30.4519,黄冈市,红卫路,,50,,20,35,12,100,,102,102,2,6,4,5,0.3,0.5
2025-06-21T1900,3398A,114.9136,30.4445,黄冈市,市林业局,,34,34,22,10,16,93,,93,93,2,6,6,6,0.3,0.5
2025-06-21T1900,2672A,102.0199,35.5102,黄南藏族自治州,同仁县隆务镇,,34,21,26,10,8,108,,110,110,4,2,5,6,0.2,0.2
2025-06-21T1900,2295A,118.2903,29.6963,黄山市,延安路89号,,22,22,15,10,9,53,,62,61,2,6,6,6,0.4,0.5
2025-06-21T1900,2297A,118.1371,30.2756,黄山市,黄山区政府5号楼,,30,,12,8,11,95,,63,63,4,2,3,4,0.5,0.4
2025-06-21T1900,4210A,118.3354,29.7203,黄山市,滨江东路7-2号,,21,21,23,7,8,51,,63,62,5,5,4,4,0.3,0.4
2025-06-21T1900,2423A,115.0601,30.2313,黄石市,沈家营,,29,8,35,3,8,92,,79,79,4,9,6,6,0.6,0.7
2025-06-21T1900,2426A,114.8988,30.2019,黄石市,铁山,,29,6,24,3,9,90,,80,80,5,17,3,4,0.5,0.5
2025-06-21T1900,2427A,115.0307,30.2092,黄石市,团城山,,,9,33,,5,92,,83,83,2,6,7,7,0.3,0.5
2025-06-21T1900,3149A,115.0235,30.1578,黄石市,笔架山北路,,27,11,27,3,6,85,,71,71,6,10,4,4,0.3,0.5
2025-06-21T1900,4185A,115.0780,30.21118,黄石市,磁湖东路29号,,28,10,37,3,9,89,,67,67,7,10,7,7,0.0,0.3
2025-06-21T1900,1392A,114.4183,23.0528,惠州市,河南岸金山湖子站,,11,11,14,6,8,22,,44,40,10,10,6,7,0.5,0.4
2025-06-21T1900,1393A,114.4053,23.0822,惠州市,下埔横江三路子站,,18,18,16,9,7,28,,48,46,13,11,4,5,0.3,0.2
2025-06-21T1900,1394A,114.4103,23.1142,惠州市,江北云山西路子站,,9,9,14,3,6,28,,54,51,17,9,5,7,0.5,0.4
2025-06-21T1900,1395A,114.4645,22.7833,惠州市,惠阳区承修路船湖子站,,16,16,13,8,6,28,,37,36,14,9,7,6,0.5,0.4
2025-06-21T1900,1396A,114.5317,22.7422,惠州市,大亚湾管委会子站,,12,11,12,7,6,37,,38,38,8,10,9,8,0.5,0.5
2025-06-21T1900,3314A,114.4338,22.8134,惠州市,惠阳秋长,,29,29,13,20,7,18,,48,44,26,13,9,9,0.5,0.4
2025-06-21T1900,3452A,114.6517,22.775,惠州市,大亚湾霞涌,,18,,11,12,5,42,,45,45,10,8,5,6,0.2,0.2
2025-06-21T1900,2240A,130.9762,45.3001,鸡西市,环保局,,24,17,12,6,6,74,,76,74,7,8,4,4,0.4,0.4
2025-06-21T1900,2243A,130.9429,45.3039,鸡西市,第一中学,,29,12,15,8,4,90,,86,86,4,4,6,7,0.2,0.3
2025-06-21T1900,3707A,131.0207,45.3073,鸡西市,欧美日汽修厂,,30,20,11,7,8,96,,92,92,7,8,5,6,0.5,0.5
2025-06-21T1900,3709A,130.9967,45.3106,鸡西市,市政设施管理处,,29,18,11,14,5,92,,89,89,10,9,4,5,0.4,0.5
2025-06-21T1900,2367A,114.9754,27.0803,吉安市,红声器材厂,,20,19,18,11,6,62,,71,70,5,5,8,9,0.6,0.5
2025-06-21T1900,2368A,114.9658,27.0999,吉安市,市森林工业局,,21,16,16,8,6,67,,76,76,4,3,7,8,0.5,0.4
2025-06-21T1900,2369A,114.99,27.1312,吉安市,市环境监测站,,22,22,14,8,6,68,,79,79,2,1,14,14,0.3,0.3
2025-06-21T1900,2370A,115.0093,27.0968,吉安市,青原区法院,,20,17,19,8,6,63,,70,70,6,7,8,8,0.4,0.4
2025-06-21T1900,1772A,126.54,43.8622,吉林市,哈达湾,,30,19,6,8,9,94,,99,99,11,9,6,6,0.2,0.2
2025-06-21T1900,1773A,126.5844,43.8358,吉林市,东局子,,26,16,16,10,4,83,,89,89,18,14,5,5,0.6,0.5
2025-06-21T1900,1774A,126.5052,43.8245,吉林市,电力学院,,27,14,8,3,3,85,,96,95,16,11,5,4,0.3,0.3
2025-06-21T1900,1775A,126.6133,43.8972,吉林市,江北,,28,28,18,11,8,83,,96,96,21,15,7,7,0.3,0.3
2025-06-21T1900,1776A,126.555,43.8306,吉林市,江南公园,,28,,8,15,6,88,,94,94,14,11,4,4,0.3,0.2
2025-06-21T1900,2868A,126.4739,43.953,吉林市,九站,,31,10,9,3,2,98,,107,107,18,13,4,5,0.2,0.2
2025-06-21T1900,1299A,116.9862,36.6114,济南市,科干所,,47,14,30,7,21,150,,158,158,12,16,5,5,0.5,0.7
2025-06-21T1900,1300A,116.9376,36.665,济南市,农科所,,45,20,38,7,19,141,,155,155,18,31,7,8,0.2,0.4
2025-06-21T1900,1301A,117.1265,36.6734,济南市,开发区,臭氧1小时,75,29,31,12,19,180,,154,154,17,19,7,8,0.6,0.8
2025-06-21T1900,1303A,117.0624,36.6868,济南市,省种子仓库,臭氧1小时,73,29,46,7,22,178,,167,167,15,25,5,6,0.3,0.6
2025-06-21T1900,1304A,116.9489,36.6447,济南市,机床二厂,,47,27,44,7,22,149,,164,164,29,27,4,6,0.4,0.7
2025-06-21T1900,1305A,117.0495,36.663,济南市,市监测站,臭氧1小时,55,24,34,12,21,164,,158,158,14,19,8,9,0.4,0.6
2025-06-21T1900,1306A,116.7675,36.5484,济南市,长清党校,,46,,36,24,29,147,,158,158,20,27,5,6,0.4,0.6
2025-06-21T1900,1616A,117.6795,36.229,济南市,技术学院,,46,19,23,17,18,145,,133,133,11,15,8,7,0.6,0.7
2025-06-21T1900,1961A,117.532,36.6868,济南市,东山小学,,45,20,29,3,13,142,,147,147,8,15,6,6,0.1,0.2
2025-06-21T1900,3059A,117.7161,36.2049,济南市,泰兴公司,,47,22,27,9,20,150,,137,137,13,14,9,7,0.5,0.6
2025-06-21T1900,3064A,117.6867,36.2171,济南市,莱芜战役纪念馆,,45,19,35,13,26,143,,131,131,8,9,6,6,0.8,1.1
2025-06-21T1900,3494A,117.1673,36.9782,济南市,济阳区政府,臭氧1小时,88,51,40,17,17,190,,178,178,18,17,8,7,0.4,0.5
2025-06-21T1900,3495A,117.1171,36.63,济南市,锦屏中学,臭氧1小时,64,24,24,10,13,171,,156,156,16,14,9,10,0.5,0.6
2025-06-21T1900,3682A,116.9814,36.6819,济南市,济南四建,,50,14,39,7,25,160,,163,163,18,34,4,6,0.3,0.6
2025-06-21T1900,1653A,116.6251,35.4302,济宁市,火炬城,,50,49,38,24,21,160,,133,133,8,11,7,6,0.6,0.6
2025-06-21T1900,1655A,116.5491,35.4042,济宁市,电化厂,臭氧1小时,64,39,41,24,27,171,,144,144,10,7,6,5,0.6,0.6
2025-06-21T1900,3501A,116.8249,35.5593,济宁市,服务中心,,38,15,34,3,17,119,,118,118,13,14,2,2,0.1,0.4
2025-06-21T1900,3678A,116.5907,35.4054,济宁市,市第七中学,臭氧1小时,69,41,42,14,20,175,,147,147,6,8,11,10,0.5,0.5
2025-06-21T1900,2255A,130.2751,46.8028,佳木斯市,佳纺,,21,13,12,8,9,66,,73,73,7,4,2,3,0.3,0.3
2025-06-21T1900,2256A,130.3995,46.8307,佳木斯市,发电厂,,23,19,14,10,10,72,,78,76,12,8,4,4,0.4,0.3
2025-06-21T1900,2257A,130.3258,46.7975,佳木斯市,环保局,,22,17,16,12,9,68,,73,72,9,6,2,3,0.4,0.4
2025-06-21T1900,2258A,130.3648,46.8032,佳木斯市,十一中,,20,16,14,13,9,64,,73,69,13,7,5,5,0.4,0.3
2025-06-21T1900,2259A,130.3794,46.7588,佳木斯市,四丰,,,16,7,,,,,,,5,4,1,1,0.4,0.4
2025-06-21T1900,1252A,120.7436,30.778,嘉兴市,清河小学,,,26,30,11,12,80,,100,97,,21,8,8,0.5,0.5
2025-06-21T1900,1253A,120.726,30.7478,嘉兴市,嘉兴学院,,26,26,28,14,14,78,,102,98,21,20,5,5,0.6,0.5
2025-06-21T1900,2872A,120.7846,30.7525,嘉兴市,南湖区残联,,25,25,30,15,14,79,,102,99,18,16,5,5,0.7,0.6
2025-06-21T1900,3407A,120.6916,30.7739,嘉兴市,秀洲住建,,25,20,25,13,12,79,,101,98,21,23,6,6,0.6,0.6
2025-06-21T1900,1945A,98.2908,39.7711,嘉峪关市,气象局,,42,31,24,19,14,132,,127,127,8,10,5,6,0.7,0.7
2025-06-21T1900,2884A,98.2672,39.7978,嘉峪关市,酒钢宾馆,,40,31,29,22,18,126,,117,117,9,11,31,26,0.2,0.6
2025-06-21T1900,3248A,98.2643,39.7724,嘉峪关市,雄关区,,41,33,35,27,18,130,,127,127,12,15,10,10,0.3,0.3
2025-06-21T1900,1383A,113.1064,22.6058,江门市,北街,,20,20,11,8,5,20,,22,21,10,10,2,2,0.4,0.4
2025-06-21T1900,1384A,113.0731,22.5835,江门市,西区,,24,24,12,3,5,27,,26,26,11,10,7,8,0.5,0.4
2025-06-21T1900,1385A,113.0219,22.5311,江门市,圭峰西,,19,19,14,9,8,20,,27,26,11,7,3,3,0.5,0.4
2025-06-21T1900,1386A,113.0828,22.5947,江门市,东湖,,12,12,12,8,7,25,,25,25,10,10,6,6,0.5,0.5
2025-06-21T1900,3311A,113.1075,22.5647,江门市,江海富民,,22,16,27,15,13,29,,29,29,10,10,9,9,0.4,0.3
2025-06-21T1900,3449A,113.05,22.4667,江门市,新会银湖,,18,18,15,9,8,22,,22,22,6,8,2,2,0.3,0.3
2025-06-21T1900,3169A,113.2725,35.2067,焦作市,太极体育中心,臭氧1小时,103,45,41,20,31,205,,205,205,14,28,3,4,0.2,0.3
2025-06-21T1900,3335A,113.3137,35.2641,焦作市,马村街道办,臭氧1小时,92,44,47,22,26,193,,189,189,13,15,11,11,0.4,0.5
2025-06-21T1900,3336A,113.2465,35.2373,焦作市,焦作技师学院,臭氧1小时,78,39,47,14,17,182,,181,181,9,12,5,5,0.5,0.7
2025-06-21T1900,3477A,113.1656,35.2539,焦作市,中站许衡医院,,,40,45,34,28,189,,184,184,,17,,8,0.4,0.5
2025-06-21T1900,3981A,113.2449,35.1803,焦作市,原李万街道办,臭氧1小时,83,80,49,17,19,186,,185,185,14,18,9,10,0.7,0.6
2025-06-21T1900,4264A,113.2340,35.2190,焦作市,新安路1731号,臭氧1小时,84,42,50,20,23,187,,186,186,6,11,5,5,0.3,0.3
2025-06-21T1900,1708A,116.3701,23.5345,揭阳市,新兴,,15,15,19,10,8,36,,45,44,8,11,4,5,0.5,0.5
2025-06-21T1900,1709A,116.3264,23.5443,揭阳市,西马,,27,27,24,8,8,26,,41,38,11,11,1,2,0.6,0.5
2025-06-21T1900,1710A,116.3611,23.5626,揭阳市,东兴,,12,9,23,8,8,38,,48,46,7,12,2,3,0.5,0.5
2025-06-21T1900,1711A,116.4151,23.5294,揭阳市,渔湖,,11,9,25,3,8,34,,42,42,8,13,6,6,0.3,0.3
2025-06-21T1900,3320A,116.403,23.5699,揭阳市,曲溪,,23,23,20,13,7,34,,53,51,12,10,3,4,0.6,0.5
2025-06-21T1900,1944A,102.1692,38.5167,金昌市,天庆家园,,27,22,36,12,12,84,,110,103,12,7,13,16,0.8,0.7
2025-06-21T1900,4022A,102.1647,38.5371,金昌市,金川区人防中心,,33,27,45,12,12,103,,113,108,9,7,13,12,0.4,0.5
2025-06-21T1900,4239A,102.1930,38.5319,金昌市,长春路96号,,32,31,39,12,10,102,,118,113,8,4,8,10,0.8,0.7
2025-06-21T1900,1262A,119.647,29.077,金华市,十五中,,28,28,29,10,15,43,,99,91,16,16,2,2,0.5,0.4
2025-06-21T1900,1263A,119.686,29.1029,金华市,监测站,,21,21,28,8,13,46,,96,87,8,13,1,2,0.1,0.1
2025-06-21T1900,3659A,119.656,29.1131,金华市,气象局,,20,20,25,7,14,51,,94,90,19,25,2,3,0.3,0.4
2025-06-21T1900,1767A,121.1115,41.0879,锦州市,南山,,36,36,26,13,16,92,,100,100,11,20,19,11,0.5,0.6
2025-06-21T1900,1768A,121.0604,40.8428,锦州市,开发区,,31,24,41,12,13,97,,114,114,26,39,14,35,0.5,0.6
2025-06-21T1900,1769A,121.1836,41.1119,锦州市,百股街道,,29,18,25,3,10,92,,102,102,10,15,3,10,0.4,0.5
2025-06-21T1900,1770A,121.1178,41.1222,锦州市,天安街道,,31,25,28,9,16,99,,105,105,13,21,5,9,0.5,0.6
2025-06-21T1900,1771A,121.1303,41.1386,锦州市,北湖公园,,30,21,24,10,11,94,,97,97,8,19,4,10,0.4,0.6
2025-06-21T1900,2160A,112.85,35.5051,晋城市,自来水公司,臭氧1小时,101,40,60,22,32,202,,195,195,11,12,1,3,0,0.3
2025-06-21T1900,2161A,112.8318,35.4936,晋城市,白云商贸,臭氧1小时,88,42,53,7,20,190,,185,185,12,16,1,2,0.4,0.7
2025-06-21T1900,2162A,112.8508,35.4887,晋城市,市环保局,臭氧1小时,99,54,63,19,29,199,,190,190,10,14,8,8,0,0.3
2025-06-21T1900,2163A,112.8676,35.4897,晋城市,技术学院,臭氧1小时,92,63,51,19,27,193,,188,188,12,15,7,6,0.3,0.6
2025-06-21T1900,3620A,112.8271,35.4828,晋城市,泽州一中,臭氧1小时,98,29,48,17,28,198,,194,194,16,17,4,7,0.4,0.8
2025-06-21T1900,2173A,112.7249,37.7067,晋中市,南都小区,,47,17,37,7,21,148,,160,160,3,15,3,2,0.3,0.5
2025-06-21T1900,2174A,112.6991,37.6982,晋中市,榆次区政府,,46,17,38,8,17,147,,158,158,5,17,4,6,0.2,0.5
2025-06-21T1900,2865A,112.7195,37.6828,晋中市,榆次三中,,48,14,38,3,15,153,,168,168,4,18,5,7,0.2,0.5
2025-06-21T1900,4200A,112.7478,37.6954,晋中市,迎宾街26号,,50,17,36,7,16,160,,167,167,4,17,6,7,0.2,0.4
2025-06-21T1900,2439A,112.2014,31.0481,荆门市,竹园小学,,35,24,25,14,17,110,,114,113,6,7,6,6,0.3,0.5
2025-06-21T1900,2440A,112.1969,30.9891,荆门市,掇刀,,37,24,22,17,18,118,,118,117,4,6,9,7,0.6,0.6
2025-06-21T1900,2441A,112.2213,31.0386,荆门市,石化一小,,35,20,26,8,15,112,,114,114,6,8,12,12,0.2,0.4
2025-06-21T1900,3012A,112.1849,31.0362,荆门市,西山林语,,33,14,23,14,17,104,,117,114,1,3,10,9,0.4,0.4
2025-06-21T1900,3547A,112.1632,31.0138,荆门市,龙泉中学南校,,35,18,17,14,15,110,,118,115,6,5,6,6,0.4,0.4
2025-06-21T1900,1844A,112.2494,30.3197,荆州市,市图书馆,,28,23,14,7,11,87,,110,106,15,7,2,2,0.6,0.5
2025-06-21T1900,1845A,112.2008,30.3544,荆州市,市委党校,,29,21,16,14,12,91,,104,101,18,12,5,5,0.4,0.4
2025-06-21T1900,3194A,112.2747,30.3122,荆州市,管委会,,22,22,13,14,12,66,,101,95,28,7,7,4,0.7,0.6
2025-06-21T1900,4268A,112.1722,30.3366,荆州市,学苑路85号,,25,21,16,17,15,72,,97,93,24,3,4,3,0.5,0.5
2025-06-21T1900,2343A,117.2117,29.2933,景德镇市,老干部活动中心,,21,19,19,12,6,66,,69,69,9,15,5,8,0.5,0.6
2025-06-21T1900,2344A,117.1894,29.2789,景德镇市,兽医站,,33,33,29,12,11,65,,61,61,7,19,9,17,0.3,0.4
2025-06-21T1900,2345A,117.1547,29.2617,景德镇市,台达陶瓷,,26,22,28,18,15,62,,66,66,10,15,3,28,0.4,0.8
2025-06-21T1900,2346A,117.2461,29.2956,景德镇市,陶研所,,23,23,17,9,7,53,,67,66,7,5,3,3,0.4,0.4
2025-06-21T1900,1803A,115.9872,29.6815,九江市,十里,,35,28,18,18,13,111,,79,79,5,16,2,4,0.4,0.5
2025-06-21T1900,1804A,115.9584,29.7046,九江市,茅山头,,35,,15,20,10,109,,76,76,9,14,4,4,0.3,0.3
2025-06-21T1900,1805A,115.9877,29.7295,九江市,西园,,37,19,15,11,8,118,,81,81,8,20,4,6,0.5,0.7
2025-06-21T1900,1808A,115.9114,29.6038,九江市,综合工业园,,36,20,14,3,6,114,,83,83,5,8,3,2,0.5,0.7
2025-06-21T1900,1809A,116.0721,29.7535,九江市,石化总厂,,40,,18,28,24,106,,82,82,4,9,5,9,0.6,0.7
2025-06-21T1900,1810A,115.9773,29.5698,九江市,庐山气象台,,23,12,7,3,2,71,,63,63,4,3,6,7,0.9,0.8
2025-06-21T1900,3190A,116.0254,29.6994,九江市,外国语学校,,33,24,14,12,9,104,,74,74,7,13,4,9,0.4,0.5
2025-06-21T1900,4253A,116.0102,29.6594,九江市,莲花大道8号,,30,18,8,14,8,95,,64,64,2,6,4,4,0.5,0.5
2025-06-21T1900,4240A,98.4958,39.7339,酒泉市,玉门东路5号,,44,44,39,29,28,115,,115,115,8,8,10,16,0.1,0.2
2025-06-21T1900,4241A,98.5099,39.7506,酒泉市,北大街108号,,38,24,24,18,15,121,,121,121,8,6,12,17,0.2,0.2
2025-06-21T1900,2698A,76.0072,39.4467,喀什地区,巡警大队,颗粒物(PM10),77,104,86,31,18,146,,138,138,7,12,3,2,0.2,0.3
2025-06-21T1900,2699A,75.9755,39.4694,喀什地区,吾办,颗粒物(PM10),82,114,86,45,29,132,,132,132,15,12,2,4,0.4,0.3
2025-06-21T1900,4027A,75.9483,39.4689,喀什地区,老干局,颗粒物(PM10),77,103,84,23,17,130,,130,126,5,6,4,3,0.3,0.4
2025-06-21T1900,1824A,114.3389,34.7781,开封市,肿瘤医院,臭氧1小时,75,46,47,24,21,180,,188,188,14,14,4,3,0.4,0.4
2025-06-21T1900,1826A,114.2885,34.7965,开封市,世纪星幼儿园,臭氧1小时,85,52,43,28,28,188,,193,193,12,15,4,4,0.7,0.7
2025-06-21T1900,3147A,114.3438,34.8106,开封市,龙亭公园,臭氧1小时,93,48,46,25,21,194,,191,191,9,11,6,4,0.4,0.3
2025-06-21T1900,3210A,114.3644,34.7964,开封市,汴京公园,臭氧1小时,98,53,49,29,23,198,,195,195,15,15,5,5,0.4,0.4
2025-06-21T1900,3473A,114.2485,34.8306,开封市,技师学院,臭氧1小时,98,37,46,27,27,198,,198,198,11,19,4,8,0.5,0.5
2025-06-21T1900,3592A,114.4644,34.7556,开封市,祥符区生态环境局,臭氧1小时,62,57,52,21,22,169,,179,179,21,18,6,7,0.6,0.6
2025-06-21T1900,1951A,84.895,45.6094,克拉玛依市,长征新村,,35,18,24,3,5,109,,110,109,3,2,4,4,0.2,0.2
2025-06-21T1900,1952A,84.8988,45.5893,克拉玛依市,南林小区,,35,23,22,3,10,112,,118,114,3,3,4,3,0.1,0.1
2025-06-21T1900,1954A,84.905,44.3396,克拉玛依市,独山子区,,39,32,32,8,12,122,,116,116,4,4,7,7,0.2,0.2
2025-06-21T1900,1955A,85.6979,46.098,克拉玛依市,乌尔禾区商贸楼,,37,34,27,3,5,116,,113,108,3,2,4,4,0.2,0.2
2025-06-21T1900,3612A,85.1045,45.6899,克拉玛依市,白碱滩区新站,,38,19,35,6,17,121,,129,125,2,2,3,4,0.3,0.3
2025-06-21T1900,2697A,76.1454,39.7142,克孜勒苏柯尔克孜自治州,市人民政府,颗粒物(PM10),80,109,73,41,25,146,,139,139,1,5,4,5,0.3,0.3
2025-06-21T1900,3665A,76.1658,39.7157,克孜勒苏柯尔克孜自治州,克州文化中心,,,118,75,40,29,144,,140,140,,3,,6,0.3,0.3
2025-06-21T1900,1450A,102.8204,24.8886,昆明市,呈贡新区,,38,,11,26,15,73,,88,86,12,11,4,5,0.5,0.4
2025-06-21T1900,1452A,102.7252,25.0902,昆明市,龙泉镇,,19,12,19,9,9,58,,68,66,12,13,3,3,0.5,0.4
2025-06-21T1900,1453A,102.7266,25.0375,昆明市,东风东路,,19,15,28,10,17,60,,72,67,16,19,4,4,0.4,0.4
2025-06-21T1900,1454A,102.6742,25.0669,昆明市,金鼎山,,18,16,18,3,8,56,,60,59,15,18,3,3,0.5,0.4
2025-06-21T1900,1455A,102.6644,25.0401,昆明市,碧鸡广场,,16,16,25,11,16,51,,64,61,24,20,4,4,0.6,0.5
2025-06-21T1900,3179A,102.7494,25.0119,昆明市,官渡区博物馆,,18,11,18,6,12,56,,66,62,16,24,6,6,0.5,0.5
2025-06-21T1900,3375A,102.8017,24.8336,昆明市,青年创业园,,26,24,17,17,11,82,,88,88,12,16,7,6,0.5,0.4
2025-06-21T1900,3550A,102.7997,24.9786,昆明市,昆明学院,,19,14,27,11,19,58,,78,77,22,22,4,4,0.3,0.3
2025-06-21T1900,3551A,102.5967,24.6736,昆明市,晋宁区生态环境分局,,25,15,23,14,9,78,,85,85,4,9,3,2,0.5,0.5
2025-06-21T1900,3552A,102.6678,24.9856,昆明市,云天化总部,,22,20,23,15,17,54,,67,64,24,21,3,3,0.6,0.6
2025-06-21T1900,1456A,91.1319,29.6514,拉萨市,八廓街,臭氧1小时,55,18,16,9,8,164,,162,162,6,14,7,7,0.2,0.3
2025-06-21T1900,1457A,91.1221,29.6747,拉萨市,市环保局,臭氧1小时,53,25,28,8,11,162,,160,160,13,18,5,6,0.3,0.4
2025-06-21T1900,1458A,91.0874,29.6475,拉萨市,区监测站,臭氧1小时,54,16,15,14,8,163,,167,167,12,23,6,6,0.1,0.2
2025-06-21T1900,1459A,91.1774,29.6541,拉萨市,西藏大学,臭氧1小时,59,16,12,8,7,167,,166,166,7,13,3,4,0.2,0.3
2025-06-21T1900,1460A,90.9798,29.6588,拉萨市,区辐射站,,45,21,20,9,10,143,,148,148,27,23,6,7,0.3,0.3
2025-06-21T1900,1461A,91.0834,29.6292,拉萨市,拉萨火车站,臭氧1小时,59,14,13,3,6,167,,169,169,4,15,3,4,0.1,0.2
2025-06-21T1900,2520A,109.2203,23.7256,来宾市,来宾技工学校,,31,31,24,16,13,37,,59,57,15,10,6,6,0.5,0.4
2025-06-21T1900,3535A,109.1781,23.7297,来宾市,兴宾区政府,,15,12,22,3,13,48,,59,58,11,8,5,5,0.6,0.6
2025-06-21T1900,4002A,109.2416,23.7461,来宾市,中南小学,,36,36,30,3,12,41,,62,60,9,10,7,12,0.9,0.7
2025-06-21T1900,1479A,103.831,36.0464,兰州市,铁路设计院,,36,31,51,25,28,94,,131,129,53,50,10,17,0.4,0.8
2025-06-21T1900,3241A,103.7439,36.0842,兰州市,百合公园,,38,26,37,15,19,119,,141,141,19,36,3,6,0.2,0.5
2025-06-21T1900,3242A,103.9611,35.998,兰州市,和平,,46,26,33,13,17,147,,150,150,7,12,7,10,0.5,0.6
2025-06-21T1900,4236A,103.6293,36.0938,兰州市,庄浪东路808号,,39,28,36,27,26,93,,148,141,53,37,10,12,0.3,0.3
2025-06-21T1900,4237A,103.7251,36.1043,兰州市,安宁西路88号,,45,35,39,22,23,142,,154,154,10,24,6,9,0.3,0.4
2025-06-21T1900,4238A,103.8470,36.0676,兰州市,北滨河东路1号,,42,28,40,21,24,65,,147,140,83,47,10,15,0.8,0.9
2025-06-21T1900,3245A,103.6633,36.533,兰州新区,新区管委会,,47,39,36,28,26,149,,151,151,6,9,8,22,0.3,0.4
2025-06-21T1900,3246A,103.6975,36.4789,兰州新区,舟曲中学,,45,22,34,8,14,143,,146,146,6,13,5,32,0.3,0.5
2025-06-21T1900,1067A,116.6708,39.5111,廊坊市,药材公司,,44,27,34,6,15,140,,128,128,9,22,3,5,0.3,0.3
2025-06-21T1900,1068A,116.7214,39.5589,廊坊市,开发区,,43,17,39,7,13,137,,126,126,8,18,2,3,0.3,0.3
2025-06-21T1900,1070A,116.7244,39.5269,廊坊市,北华航天学院,,47,45,50,8,13,148,,126,126,5,14,2,3,0.2,0.3
2025-06-21T1900,2919A,116.7022,39.5453,廊坊市,河北工业大学,,49,23,50,7,14,154,,130,130,6,19,4,5,0.2,0.3
2025-06-21T1900,2535A,103.7723,29.5462,乐山市,花湖湾,,34,13,23,9,16,108,,111,111,6,12,3,3,0.5,0.6
2025-06-21T1900,2536A,103.7627,29.5844,乐山市,牛耳桥,,35,17,24,12,19,111,,121,121,9,12,6,8,0.7,0.8
2025-06-21T1900,2537A,103.7508,29.6006,乐山市,市第三水厂,,33,20,26,17,15,103,,119,119,18,17,4,5,0.6,0.8
2025-06-21T1900,3361A,103.7311,29.5628,乐山市,理工大学,,38,15,25,12,17,120,,130,130,8,11,6,8,0.5,0.7
2025-06-21T1900,2599A,100.2497,26.8802,丽江市,丽江古城,,14,14,17,3,8,41,,44,42,12,12,9,9,0.5,0.5
2025-06-21T1900,2600A,100.2203,26.8906,丽江市,市中心,,11,9,11,6,10,34,,41,40,9,8,7,7,0.6,0.6
2025-06-21T1900,1267A,119.914,28.4514,丽水市,监测站大楼,,19,19,21,8,8,17,,52,36,22,16,3,3,0.4,0.4
2025-06-21T1900,1268A,119.93,28.4586,丽水市,莲都小学,,24,24,21,7,7,46,,58,54,12,17,4,4,0.4,0.4
2025-06-21T1900,1269A,119.879,28.4231,丽水市,余庄前,,14,14,17,7,9,25,,58,49,8,8,3,6,0.4,0.5
2025-06-21T1900,1173A,119.176,34.5885,连云港市,市环境监测站,,39,14,14,12,10,122,,129,129,16,11,4,4,0.6,0.5
2025-06-21T1900,3000A,119.3581,34.6972,连云港市,德源药业,,34,34,15,14,7,106,,114,114,5,3,7,7,0.9,0.8
2025-06-21T1900,3007A,119.178,34.844,连云港市,新城一中,,47,32,17,32,13,150,,134,134,11,11,6,6,0.8,0.7
2025-06-21T1900,3008A,119.3608,34.7519,连云港市,胡沟管理处,,36,22,10,14,8,114,,120,120,22,16,6,6,0.5,0.4
2025-06-21T1900,3009A,119.1478,34.5911,连云港市,矿山设计院,,40,27,16,19,8,127,,125,125,12,7,6,5,0.5,0.4
2025-06-21T1900,3434A,119.2413,34.6539,连云港市,工贸学校,,37,32,21,16,10,116,,128,128,4,3,7,6,0.6,0.5
2025-06-21T1900,3664A,119.4172,34.7341,连云港市,连云街道,,48,48,23,28,13,136,,111,111,13,12,8,7,0.7,0.4
2025-06-21T1900,2571A,102.3431,27.8099,凉山彝族自治州,青龙寺,,18,6,10,3,3,56,,72,70,4,4,3,3,0.6,0.5
2025-06-21T1900,2572A,102.2721,27.8415,凉山彝族自治州,邛海宾馆,,27,27,18,10,8,75,,89,89,12,6,7,7,0.4,0.4
2025-06-21T1900,2573A,102.2625,27.898,凉山彝族自治州,西昌市政府,,25,10,10,8,6,79,,88,88,13,10,9,9,0.4,0.5
2025-06-21T1900,2574A,102.2685,27.8851,凉山彝族自治州,凉山州政府,,28,12,11,12,13,87,,90,90,13,12,8,8,0.7,0.6
2025-06-21T1900,4229A,102.2342,27.8859,凉山彝族自治州,凯乐南路30号,,27,12,9,10,6,85,,88,88,12,12,8,8,0.5,0.5
2025-06-21T1900,2212A,123.2,41.1953,辽阳市,宏伟区,,36,13,27,3,5,115,,123,123,9,17,4,7,0.5,0.8
2025-06-21T1900,2213A,123.1683,41.2495,辽阳市,新华园,,35,21,36,3,10,112,,120,120,9,22,4,7,0.3,0.7
2025-06-21T1900,2214A,123.2354,41.2639,辽阳市,滨河路,,36,16,28,7,12,114,,114,114,6,24,8,10,0.3,0.5
2025-06-21T1900,2215A,123.149,41.2991,辽阳市,铁西工业园,,31,22,47,6,25,97,,105,105,14,31,4,7,0.4,0.9
2025-06-21T1900,2227A,125.1358,42.8845,辽源市,环保局,,31,10,16,3,2,98,,106,106,12,14,4,4,0.2,0.1
2025-06-21T1900,3239A,125.0764,42.9078,辽源市,银鹰制药,,34,14,11,6,5,106,,111,111,14,20,4,4,0.2,0.2
2025-06-21T1900,1625A,115.9848,36.4372,聊城市,区政府,臭氧1小时,58,24,39,9,24,166,,184,184,10,12,9,10,0.5,0.8
2025-06-21T1900,2878A,116.0072,36.4343,聊城市,聊大东校,臭氧1小时,55,31,41,13,28,164,,187,186,13,12,7,9,0.5,0.6
2025-06-21T1900,3200A,115.9819,36.4978,聊城市,监控中心,臭氧1小时,60,34,43,7,21,168,,179,179,16,20,9,8,0.5,0.6
2025-06-21T1900,3513A,116.0445,36.4361,聊城市,九州社区,臭氧1小时,57,26,48,9,22,165,,185,183,8,10,4,6,0.5,0.6
2025-06-21T1900,4018A,116.0567,36.4608,聊城市,星美广场,臭氧1小时,54,27,53,3,22,163,,180,178,10,16,9,9,0.5,0.7
2025-06-21T1900,2632A,94.3681,29.6376,林芝市,林芝监测站,,,,10,8,5,102,,84,84,11,5,4,4,0.2,0.3
2025-06-21T1900,2633A,94.3616,29.6616,林芝市,林芝人民医院,,32,16,9,6,4,102,,90,90,7,3,4,4,0.1,0.2
2025-06-21T1900,2603A,100.0781,23.8982,临沧市,市环保局,,21,21,23,3,15,47,,44,44,6,9,4,2,0.3,0.3
2025-06-21T1900,2604A,100.0894,23.8822,临沧市,市气象局,,18,18,23,9,14,46,,38,38,9,11,8,8,0.4,0.4
2025-06-21T1900,1733A,111.5531,36.0783,临汾市,临钢医院,臭氧1小时,92,52,38,14,13,193,,178,178,10,16,8,12,0.6,0.8
2025-06-21T1900,1734A,111.5028,36.0714,临汾市,技工学校,臭氧1小时,82,38,38,22,24,185,,174,174,7,12,7,6,0.5,0.7
2025-06-21T1900,1736A,111.5018,36.0855,临汾市,市委,臭氧1小时,80,52,49,14,13,184,,176,176,12,16,8,7,0.6,1
2025-06-21T1900,3018A,111.505,36.1014,临汾市,唐尧大酒店,臭氧1小时,70,64,54,12,14,176,,170,170,9,13,6,6,0.5,0.7
2025-06-21T1900,4244A,111.4879,36.0530,临汾市,启星学校,臭氧1小时,79,32,32,28,27,183,,174,174,7,12,5,4,0.6,0.8
2025-06-21T1900,4271A,103.2464,35.6123,临夏回族自治州,滨河东路1号,,32,32,42,10,20,90,,102,102,6,12,9,9,0.3,0.3
2025-06-21T1900,4310A,103.2093,35.5995,临夏回族自治州,新华街21号,,35,31,40,14,21,109,,104,104,6,14,5,5,0.3,0.4
2025-06-21T1900,1618A,118.3429,35.0532,临沂市,沂河小区,颗粒物(PM10),54,58,36,34,25,149,,134,134,21,18,8,7,0.5,0.5
2025-06-21T1900,1619A,118.295,35.0583,临沂市,鲁南制药厂,臭氧1小时,73,75,35,37,20,178,,147,147,20,16,10,8,0.6,0.6
2025-06-21T1900,1620A,118.2794,34.9976,临沂市,新光毛纺厂,臭氧1小时,68,58,34,34,20,174,,157,157,19,16,10,8,0.6,0.5
2025-06-21T1900,1621A,118.3956,35.0888,临沂市,河东保险公司,,50,29,30,19,15,157,,140,140,13,17,5,5,0.5,0.6
2025-06-21T1900,3370A,118.3564,35.0215,临沂市,十里堡居委,臭氧1小时,58,39,30,27,22,166,,156,156,18,18,8,8,0.6,0.6
2025-06-21T1900,3496A,118.3604,35.1084,临沂市,南坊新区,,49,44,36,24,18,154,,145,145,16,20,7,8,0.8,0.6
2025-06-21T1900,3860A,118.3920,35.0300,临沂市,皇山花园小区,,49,39,34,31,26,155,,147,147,14,18,8,9,0.7,0.6
2025-06-21T1900,1870A,109.4856,24.3895,柳州市,柳东小学,,13,12,18,3,10,39,,49,48,5,6,9,10,0.4,0.4
2025-06-21T1900,1871A,109.4157,24.3277,柳州市,环保监测站,,12,6,19,3,12,36,,48,47,11,8,6,6,0.9,0.8
2025-06-21T1900,1872A,109.389,24.341,柳州市,河西水厂,,16,,21,11,13,29,,48,47,22,12,4,4,0.6,0.5
2025-06-21T1900,1873A,109.4311,24.2921,柳州市,市四中,,20,20,21,10,12,36,,49,49,20,13,6,7,0.5,0.4
2025-06-21T1900,1874A,109.4006,24.3631,柳州市,市九中,,21,21,27,3,14,33,,49,48,17,11,9,9,0.6,0.5
2025-06-21T1900,1875A,109.4958,24.3134,柳州市,古亭山,,8,7,20,3,13,24,,53,50,13,7,4,5,0.5,0.5
2025-06-21T1900,3402A,109.5422,24.3996,柳州市,市二中,,10,7,19,3,9,29,,54,52,20,10,13,15,0.4,0.4
2025-06-21T1900,2308A,116.4738,31.7643,六安市,皖西学院,,34,,6,9,8,106,,107,107,4,2,4,4,0.2,0.2
2025-06-21T1900,2309A,116.4996,31.7905,六安市,朝阳厂,,30,,6,9,8,93,,91,91,8,6,6,7,0.2,0.3
2025-06-21T1900,2310A,116.5567,31.7886,六安市,开发区,,31,12,5,8,7,98,,98,98,1,3,2,2,0.2,0.3
2025-06-21T1900,2577A,104.83,26.5917,六盘水市,黄土坡,,29,9,20,7,12,90,,100,88,8,10,8,10,0.5,0.5
2025-06-21T1900,2578A,104.89,26.5939,六盘水市,水钢,,25,12,26,3,12,78,,104,79,16,15,9,12,0.6,0.8
2025-06-21T1900,2579A,104.8475,26.5894,六盘水市,民中,,26,11,19,3,8,82,,100,80,12,11,8,10,0.4,0.4
2025-06-21T1900,2580A,104.9544,26.5506,六盘水市,双水,,20,,18,9,10,64,,91,76,17,16,9,9,0.4,0.4
2025-06-21T1900,2336A,117.0217,25.1033,龙岩市,龙岩市监测站,,14,9,9,8,5,42,,52,51,7,6,3,4,0.4,0.3
2025-06-21T1900,2337A,117.0258,25.0661,龙岩市,闽西职业技术学院,,22,22,11,3,5,42,,50,50,5,4,3,5,0.5,0.4
2025-06-21T1900,2338A,117.0196,25.0306,龙岩市,龙岩学院,,,,12,6,7,41,,51,51,5,5,4,4,0.3,0.3
2025-06-21T1900,2885A,104.9339,33.3826,陇南市,滨江中学,,49,49,38,29,17,97,,104,104,5,8,4,4,0.7,0.7
2025-06-21T1900,3247A,104.955,33.371,陇南市,市总工会,,48,48,47,22,17,101,,108,108,7,9,6,6,0.7,0.6
2025-06-21T1900,2487A,111.9589,27.8901,娄底市,电视发射台,,,,33,0,8,88,,41,41,4,5,5,5,0.4,0.5
2025-06-21T1900,2488A,111.9975,27.725,娄底市,市监测站,,,8,22,,11,74,,47,47,8,13,7,8,0.5,0.6
2025-06-21T1900,2489A,112.0194,27.7314,娄底市,市委党校,,25,8,19,3,12,78,,56,56,6,9,2,4,0.5,0.5
2025-06-21T1900,2490A,111.9561,27.7569,娄底市,涟钢,,48,,25,33,16,49,,39,39,20,15,5,5,1.2,0.6
2025-06-21T1900,1893A,105.4324,28.9634,泸州市,九狮山,,48,,33,33,29,85,,93,93,27,17,5,5,0.3,0.3
2025-06-21T1900,1894A,105.4427,28.9063,泸州市,小市上码头,,25,18,27,8,13,78,,88,87,9,7,12,13,0.6,0.6
2025-06-21T1900,1895A,105.4241,28.8573,泸州市,兰田宪桥,,24,,20,12,15,76,,86,84,11,10,7,8,0.5,0.6
2025-06-21T1900,1896A,105.4379,28.8833,泸州市,市环监站,,31,16,28,10,16,97,,91,82,14,13,8,8,0.2,0.2
2025-06-21T1900,4272A,105.3689,28.7783,泸州市,纳溪中医医院,,27,,24,17,25,84,,90,89,14,12,4,4,0.9,0.9
2025-06-21T1900,2183A,111.1406,37.5211,吕梁市,环保局,,47,19,34,12,14,150,,151,151,7,16,4,4,0.3,0.5
2025-06-21T1900,2185A,111.1297,37.5136,吕梁市,自来水公司,,44,,35,21,12,138,,142,142,8,14,5,6,0.4,0.5
2025-06-21T1900,2867A,111.1283,37.51,吕梁市,马茂庄小学,,47,26,43,19,15,150,,146,146,9,21,5,5,0.3,0.5
2025-06-21T1900,1812A,112.3931,34.6516,洛阳市,市委党校,臭氧1小时,64,28,33,22,25,171,,168,168,12,11,8,7,0.5,0.6
2025-06-21T1900,1815A,112.494,34.6886,洛阳市,河南林校,臭氧1小时,68,35,37,33,22,174,,161,161,9,12,5,4,0.4,0.4
2025-06-21T1900,1816A,112.3844,34.623,洛阳市,开发区管委会,臭氧1小时,63,37,29,21,22,170,,163,163,10,10,12,10,0.5,0.6
2025-06-21T1900,1817A,112.4267,34.6258,洛阳市,市委新办公区,,,,32,,27,,,138,,,9,10,10,0.2,0.4
2025-06-21T1900,3340A,112.6005,34.6326,洛阳市,伊滨,,50,48,41,18,22,160,,156,156,10,12,5,4,0.4,0.5
2025-06-21T1900,3341A,112.4951,34.6332,洛阳市,中移产业园,臭氧1小时,57,34,32,19,25,165,,160,160,10,10,8,7,0.6,0.8
2025-06-21T1900,3593A,112.5736,34.8993,洛阳市,吉利监测站,臭氧1小时,53,44,37,18,22,162,,176,176,10,8,8,5,0.4,0.4
2025-06-21T1900,3635A,112.3677,34.662,洛阳市,河科大西苑校区,臭氧1小时,62,28,29,13,13,169,,166,166,10,11,8,8,0.4,0.5
2025-06-21T1900,3636A,112.4388,34.6781,洛阳市,英才小学,臭氧1小时,58,30,40,21,22,166,,158,158,10,10,8,8,0.7,0.8
2025-06-21T1900,4214A,112.4600,34.6949,洛阳市,春都路1号院,臭氧1小时,65,34,31,19,20,172,,163,163,4,5,4,3,0.6,0.6
2025-06-21T1900,2399A,114.051,33.5699,漯河市,三五一五工厂,细颗粒物(PM2.5),74,57,38,54,32,151,,156,156,13,13,4,5,0.7,0.6
2025-06-21T1900,2400A,114.0055,33.5698,漯河市,漯河大学,颗粒物(PM10),52,54,43,34,25,154,,157,157,14,13,4,4,0.5,0.5
2025-06-21T1900,2401A,114.0138,33.5828,漯河市,市水利局,颗粒物(PM10),51,51,47,31,26,157,,157,157,10,11,4,5,0.5,0.8
2025-06-21T1900,2402A,114.0261,33.5698,漯河市,市广电局,细颗粒物(PM2.5),55,39,41,39,26,152,,159,159,9,10,2,2,0.6,0.6
2025-06-21T1900,3478A,113.9749,33.5664,漯河市,市图书馆,颗粒物(PM10),59,67,42,41,29,153,,157,157,13,13,3,4,0.4,0.4
2025-06-21T1900,4250A,114.0892,33.5882,漯河市,韶山路11号,颗粒物(PM10),67,84,50,47,29,156,,156,156,13,17,2,5,0.6,0.6
2025-06-21T1900,1798A,118.5092,31.6837,马鞍山市,湖东路四小,,35,,15,10,11,110,,98,98,4,15,6,7,0.4,0.7
2025-06-21T1900,1799A,118.5024,31.6449,马鞍山市,开发区,,34,13,16,6,8,106,,98,98,8,18,5,6,0.6,0.9
2025-06-21T1900,1802A,118.6245,31.7241,马鞍山市,濮塘,,34,,14,10,8,108,,101,101,6,13,7,7,0.6,0.8
2025-06-21T1900,3633A,118.4918,31.6809,马鞍山市,雨山,,35,,16,10,11,110,,93,93,6,19,6,9,0.4,0.8
2025-06-21T1900,4191A,118.5274,31.72227,马鞍山市,慈湖高新区,,36,8,17,3,10,113,,96,96,6,19,5,5,0.4,0.7
2025-06-21T1900,1686A,111.0286,21.4688,茂名市,电白南海,,22,22,18,9,10,39,,44,44,6,4,2,2,0.3,0.3
2025-06-21T1900,1687A,110.9294,21.6533,茂名市,茂石化七小,,22,22,19,7,6,32,,43,42,6,5,3,3,0.3,0.2
2025-06-21T1900,1688A,110.9107,21.6687,茂名市,健康路,,22,22,16,7,5,36,,47,46,8,7,4,3,0.4,0.4
2025-06-21T1900,1689A,110.8592,21.6828,茂名市,高岭,,24,24,23,3,2,37,,46,45,7,8,4,4,0.3,0.3
2025-06-21T1900,3450A,111.01,21.5165,茂名市,电白水东,,14,14,16,3,5,39,,42,42,5,5,4,4,0.3,0.3
2025-06-21T1900,2539A,104.0308,30.0478,眉山市,黑龙滩水库,,45,11,15,8,14,142,,140,140,2,11,2,2,0.7,0.5
2025-06-21T1900,2540A,103.8416,30.0874,眉山市,气象局,,44,21,30,7,15,139,,146,146,11,23,3,3,0.4,0.4
2025-06-21T1900,3137A,103.8578,30.0744,眉山市,市委党校,,41,14,27,7,11,130,,135,135,13,22,4,7,0.5,0.6
2025-06-21T1900,3148A,103.8291,30.0564,眉山市,区人社局,,42,40,42,3,9,133,,139,139,12,24,6,12,0.6,0.7
2025-06-21T1900,1690A,116.1231,24.3284,梅州市,梅江月梅,,,11,20,10,10,29,,50,49,4,9,,6,0.5,0.5
2025-06-21T1900,1691A,116.0797,24.2719,梅州市,梅县新城,,9,9,18,6,6,26,,36,36,2,7,5,6,0.4,0.4
2025-06-21T1900,1692A,116.1248,24.2654,梅州市,环境监控中心,,,,16,,7,25,,41,40,,12,3,7,,0.6
2025-06-21T1900,3315A,116.1233,24.2991,梅州市,梅龙,,12,12,13,3,7,28,,48,46,2,6,6,10,0.4,0.4
2025-06-21T1900,1878A,104.7778,31.4741,绵阳市,富乐山,,50,37,34,23,19,160,,154,154,11,19,9,8,0.5,0.5
2025-06-21T1900,1880A,104.6697,31.4668,绵阳市,高新区自来水公司,臭氧1小时,63,31,43,14,12,170,,151,151,11,33,8,8,0.6,0.6
2025-06-21T1900,1881A,104.7287,31.5075,绵阳市,三水厂,臭氧1小时,70,28,39,22,21,176,,161,161,16,33,9,10,0.6,0.7
2025-06-21T1900,3491A,104.69,31.5322,绵阳市,西科大附属小学,臭氧1小时,68,39,46,23,21,174,,158,158,12,33,9,9,0.2,0.3
2025-06-21T1900,3492A,104.5648,31.5343,绵阳市,安州区旅游局,,46,35,30,19,12,145,,140,140,10,20,5,6,0.2,0.3
2025-06-21T1900,4226A,104.7651,31.4531,绵阳市,绵阳市气象局,,49,28,31,18,17,154,,138,138,10,24,12,9,0.4,0.5
2025-06-21T1900,1784A,129.61,44.561,牡丹江市,环保大楼,,29,20,20,13,12,92,,92,92,10,9,8,8,0.3,0.3
2025-06-21T1900,1785A,129.6115,44.5782,牡丹江市,文化广场,,26,25,16,18,14,81,,87,87,19,13,7,6,0.3,0.3
2025-06-21T1900,1786A,129.5904,44.5963,牡丹江市,第一医院,,26,22,14,15,9,82,,89,89,16,10,6,6,0.4,0.4
2025-06-21T1900,1787A,129.6364,44.6075,牡丹江市,机车工厂,,26,25,16,10,6,82,,87,87,15,13,7,6,0.3,0.4
2025-06-21T1900,1788A,129.6386,44.5462,牡丹江市,第一中学,,31,31,14,14,10,90,,89,89,10,10,5,6,0.3,0.4
2025-06-21T1900,2531A,105.0703,29.61,内江市,市监测站,,38,35,24,15,15,120,,116,116,11,12,7,4,0.6,0.5
2025-06-21T1900,2532A,105.0717,29.5947,内江市,东兴区政府,,38,22,20,14,10,121,,119,119,10,14,3,2,0.5,0.4
2025-06-21T1900,2533A,105.0653,29.5817,内江市,内江二中,,37,23,19,17,18,117,,112,112,9,13,5,6,0.5,0.5
2025-06-21T1900,2534A,105.0406,29.5822,内江市,内江日报社,,39,22,23,17,16,123,,114,114,5,12,11,9,0.3,0.3
2025-06-21T1900,2628A,92.0657,31.4846,那曲市,那曲监测站,,49,31,35,12,14,156,,156,156,14,11,6,12,0.2,0.2
2025-06-21T1900,4243A,92.0515,31.4787,那曲市,那曲市委宣传部,臭氧1小时,62,21,23,10,11,169,,164,164,6,6,9,9,0.2,0.2
2025-06-21T1900,1290A,115.8931,28.6843,南昌市,省外办,,24,20,15,14,10,74,,90,88,13,16,1,4,0.5,0.5
2025-06-21T1900,1291A,115.8886,28.7003,南昌市,省林业公司,,23,19,14,12,8,71,,78,78,13,14,9,13,0.5,0.5
2025-06-21T1900,1292A,115.8126,28.7442,南昌市,林科所,,14,14,13,7,4,40,,73,70,19,15,5,7,0.3,0.3
2025-06-21T1900,1294A,115.8518,28.687,南昌市,建工学校,,26,25,15,18,10,66,,77,76,12,11,7,9,0.4,0.3
2025-06-21T1900,1295A,115.8921,28.6424,南昌市,象湖,,25,25,14,12,5,70,,76,76,12,11,7,9,0.6,0.5
2025-06-21T1900,1296A,115.7423,28.7996,南昌市,武术学校,,22,22,16,13,10,36,,65,62,3,5,8,10,0.3,0.2
2025-06-21T1900,3046A,115.9084,28.6062,南昌市,机电学校,,25,25,18,12,6,67,,75,75,11,11,5,6,0.4,0.4
2025-06-21T1900,3690A,115.9721,28.7031,南昌市,外国语学校,,28,28,18,13,5,72,,82,82,13,11,10,12,0.5,0.4
2025-06-21T1900,4192A,115.9316,28.68677,南昌市,南京东路235号,,35,35,27,17,4,68,,76,76,16,14,9,11,0.6,0.4
2025-06-21T1900,1906A,106.0789,30.8023,南充市,南充市委,,36,8,20,6,12,114,,118,118,8,13,4,4,0.3,0.4
2025-06-21T1900,1907A,106.1031,30.8217,南充市,南充炼油厂,,33,17,20,8,14,104,,108,108,7,11,4,5,0.2,0.3
2025-06-21T1900,4227A,106.1083,30.7884,南充市,梨树横街98号,,33,10,23,8,14,105,,110,110,6,10,4,3,0.3,0.3
2025-06-21T1900,4304A,106.1172,30.843,南充市,清泉寺北路188号,,33,17,25,7,12,104,,102,102,5,10,3,3,0.3,0.3
2025-06-21T1900,4305A,106.067,30.7616,南充市,同庆路1号,,32,19,21,7,13,100,,109,109,6,10,3,3,0.2,0.2
2025-06-21T1900,1151A,118.8086,32.1065,南京市,迈皋桥,,,,7,,5,72,,74,74,4,11,,5,0.4,0.6
2025-06-21T1900,1152A,118.7538,32.0551,南京市,草场门,,28,9,10,9,7,89,,96,96,16,14,1,2,0.4,0.5
2025-06-21T1900,1153A,118.7794,32.0745,南京市,山西路,,30,6,10,3,3,94,,99,99,19,18,3,4,0.2,0.3
2025-06-21T1900,1154A,118.7752,32.0023,南京市,中华门,,28,7,7,3,3,88,,90,90,14,16,7,7,0,0.9
2025-06-21T1900,1155A,118.8109,32.0309,南京市,瑞金路,,27,,6,3,5,86,,92,91,9,10,6,6,0.4,0.4
2025-06-21T1900,1157A,118.6414,32.0931,南京市,浦口,,28,14,13,3,4,88,,88,88,7,17,3,3,0.2,0.3
2025-06-21T1900,1158A,118.7356,31.9996,南京市,奥体中心,,30,9,10,3,6,93,,98,98,14,25,3,4,0.3,0.3
2025-06-21T1900,1159A,118.9125,32.1028,南京市,仙林大学城,,,,14,2,3,89,,94,93,10,16,5,6,0.4,0.6
2025-06-21T1900,3422A,118.8436,31.9198,南京市,江宁彩虹桥,,30,10,13,3,6,94,,97,97,11,17,4,4,0.5,0.6
2025-06-21T1900,3427A,118.8554,32.3578,南京市,六合雄州,,26,19,15,12,6,81,,99,97,24,18,2,6,0.6,0.8
2025-06-21T1900,4249A,118.8708,31.3402,南京市,汶溪路181号,,32,9,14,3,8,102,,100,100,14,15,5,4,0.4,0.4
2025-06-21T1900,4312A,119.019,31.6512,南京市,中山西路1号,,28,,8,6,8,87,,94,94,8,7,4,4,0.6,0.5
2025-06-21T1900,1401A,108.3103,22.7881,南宁市,二十一中,,16,,23,11,11,50,,57,57,8,8,3,2,0.5,0.5
2025-06-21T1900,1402A,108.3141,22.8528,南宁市,北湖,,35,35,28,10,13,50,,60,60,8,8,3,4,0.4,0.5
2025-06-21T1900,1403A,108.3206,22.8225,南宁市,市监测站,,20,16,24,14,14,49,,58,57,6,7,5,5,0.5,0.6
2025-06-21T1900,1404A,108.3829,22.8037,南宁市,大自然花园,,23,23,24,14,14,64,,68,68,5,5,4,4,0.4,0.5
2025-06-21T1900,1406A,108.2397,22.8467,南宁市,区农职院,,24,24,25,12,15,52,,62,60,9,10,4,4,0.4,0.4
2025-06-21T1900,1407A,108.3275,22.735,南宁市,英华嘉园,,31,31,24,8,11,53,,62,61,10,9,7,7,0.5,0.5
2025-06-21T1900,3401A,108.4834,22.7618,南宁市,红星社区,,30,30,22,16,15,66,,66,66,4,5,2,2,0.5,0.5
2025-06-21T1900,4221A,108.2177,22.7774,南宁市,乐贤路16号,,22,22,28,13,11,52,,58,57,7,12,6,6,0.6,0.6
2025-06-21T1900,2332A,118.1681,26.6369,南平市,南平市监测站,,21,19,14,3,6,66,,69,69,7,8,6,5,0.6,0.5
2025-06-21T1900,2333A,118.1825,26.6489,南平市,南平铝业有限公司,,20,20,14,3,2,62,,68,68,10,10,5,5,0.8,0.6
2025-06-21T1900,2334A,118.1756,26.6272,南平市,南平七中,,20,16,15,3,6,63,,74,74,6,6,6,5,0.6,0.5
2025-06-21T1900,1168A,120.9098,31.9663,南通市,狼山街道,,,,18,4,10,106,,80,80,4,25,3,4,0.6,0.8
2025-06-21T1900,1169A,120.86,32.0005,南通市,虹桥,,,,22,3,16,105,,80,80,8,38,,4,0.5,0.7
2025-06-21T1900,1170A,120.87,32.02,南通市,城中,,33,7,24,3,11,103,,83,83,5,31,3,5,0.6,0.7
2025-06-21T1900,1171A,120.94,31.93,南通市,星湖花园,,33,6,20,3,14,104,,67,67,8,40,2,4,0.3,0.4
2025-06-21T1900,1172A,120.81,32.0417,南通市,紫琅学院,,32,6,22,3,9,100,,84,84,8,35,4,6,0.4,0.5
2025-06-21T1900,3291A,121.067,32.062,南通市,通州监测站,,35,6,18,3,10,112,,87,87,3,25,6,7,0.6,0.7
2025-06-21T1900,3432A,120.9348,31.9883,南通市,环境教育馆,,35,14,24,3,10,109,,81,81,6,29,2,4,0.1,0.2
2025-06-21T1900,2404A,112.5224,33.0122,南阳市,瓦房庄,,48,39,41,25,22,153,,153,153,10,12,6,6,0.5,0.5
2025-06-21T1900,2405A,112.5003,32.9735,南阳市,汉画馆,,45,37,37,25,21,143,,146,146,12,12,6,6,0.6,0.6
2025-06-21T1900,2406A,112.5573,33.027,南阳市,气象站,,50,42,38,27,21,157,,155,155,9,6,6,6,0.5,0.5
2025-06-21T1900,2407A,112.5481,32.9689,南阳市,理工学院,,48,41,37,33,23,152,,154,154,9,10,5,5,0.4,0.4
2025-06-21T1900,4008A,112.5234,32.9922,南阳市,卧龙区政府,颗粒物(PM10),52,54,54,28,22,152,,154,154,9,11,5,5,0.5,0.5
2025-06-21T1900,1234A,121.8358,29.911,宁波市,区环保大楼,颗粒物(PM10),57,64,28,17,10,25,,88,82,69,11,7,3,0.7,0.5
2025-06-21T1900,1235A,121.56,29.82,宁波市,万里学院,,27,25,20,16,12,84,,93,92,13,9,2,2,0.6,0.6
2025-06-21T1900,1236A,121.713,29.9572,宁波市,龙赛医院,,35,31,24,19,10,109,,96,96,16,11,6,6,0.4,0.4
2025-06-21T1900,1239A,121.633,29.7733,宁波市,钱湖水厂,,39,39,20,21,11,106,,87,87,5,3,4,4,0.4,0.3
2025-06-21T1900,1240A,121.5856,29.8635,宁波市,太古小学,,32,32,24,14,10,95,,92,92,10,6,3,4,0.6,0.6
2025-06-21T1900,1241A,121.524,29.8674,宁波市,市环境监测中心,,27,22,23,14,10,85,,86,86,13,12,4,4,0.6,0.6
2025-06-21T1900,2871A,121.6147,29.9017,宁波市,万里国际学校,,34,34,15,16,11,106,,98,98,16,7,4,4,0.6,0.5
2025-06-21T1900,3710A,121.5594,29.8975,宁波市,白沙活动中心,,33,24,17,15,9,104,,95,95,10,7,3,4,0.4,0.4
2025-06-21T1900,2341A,119.5388,26.6612,宁德市,宁德市监测站,,30,30,25,14,12,83,,81,81,17,12,6,5,0.9,0.6
2025-06-21T1900,3209A,119.5231,26.6562,宁德市,宁德一中,,34,34,22,3,6,90,,76,76,13,8,6,4,0.7,0.4
2025-06-21T1900,2618A,98.8601,25.8567,怒江傈僳族自治州,州监测站,,23,21,23,16,14,65,,55,55,6,8,7,7,0.4,0.4
2025-06-21T1900,2619A,98.8546,25.8417,怒江傈僳族自治州,泸水一中,,21,21,18,7,11,53,,42,42,10,11,6,5,0.4,0.4
2025-06-21T1900,1888A,101.6891,26.571,攀枝花市,弄弄坪,,34,34,25,8,8,47,,61,59,23,15,4,5,0.9,0.8
2025-06-21T1900,1889A,101.5769,26.5928,攀枝花市,河门口,,18,16,15,12,10,47,,54,54,27,15,5,6,1.7,1
2025-06-21T1900,1890A,101.7169,26.585,攀枝花市,炳草岗,,18,11,20,3,7,37,,50,50,35,20,6,8,0.9,0.8
2025-06-21T1900,1891A,101.7369,26.5008,攀枝花市,仁和,,20,6,11,3,6,64,,67,67,11,10,7,7,0.6,0.6
2025-06-21T1900,2835A,101.7227,26.567,攀枝花市,四十中小,,20,12,13,7,7,62,,75,69,20,9,6,7,0.9,0.8
2025-06-21T1900,1604A,122.0303,41.1489,盘锦市,开发区,,40,36,20,10,16,127,,123,123,18,32,5,8,0.4,0.4
2025-06-21T1900,1605A,122.0485,41.0883,盘锦市,兴隆台,,39,21,26,9,8,124,,123,123,17,36,5,8,0.3,0.3
2025-06-21T1900,1606A,121.8297,41.1028,盘锦市,新生街道,,43,20,18,8,8,137,,125,125,11,25,10,13,0.4,0.5
2025-06-21T1900,1832A,113.3257,33.742,平顶山市,新华旅馆,臭氧1小时,73,35,36,26,20,178,,169,169,11,12,6,5,0.5,0.5
2025-06-21T1900,1833A,113.2919,33.737,平顶山市,规划设计院,臭氧1小时,70,36,39,18,24,176,,163,163,11,12,8,6,0.4,0.5
2025-06-21T1900,1834A,113.182,33.774,平顶山市,平顶山工学院,臭氧1小时,85,36,47,14,26,188,,173,173,7,12,3,5,0.5,0.5
2025-06-21T1900,3204A,113.3025,33.73,平顶山市,规划局,臭氧1小时,85,34,37,17,22,188,,175,175,8,10,6,5,0.5,0.5
2025-06-21T1900,3594A,112.8867,33.9116,平顶山市,石龙区,臭氧1小时,65,44,49,24,27,172,,174,174,15,20,8,11,0.5,0.6
2025-06-21T1900,2656A,106.6692,35.5461,平凉市,聚贤嘉苑,,50,34,40,18,14,158,,159,159,8,20,12,10,0.6,0.7
2025-06-21T1900,2657A,106.7021,35.5307,平凉市,博物馆,臭氧1小时,55,30,43,16,16,164,,165,165,8,19,7,8,0.6,0.7
2025-06-21T1900,2347A,114.0997,27.5002,萍乡市,武功山,,12,6,3,3,3,38,,53,52,4,3,14,14,0.2,0.2
2025-06-21T1900,2348A,113.8385,27.6434,萍乡市,中医院,,30,30,29,14,15,46,,58,57,10,10,11,12,0.7,0.8
2025-06-21T1900,2349A,113.8493,27.6253,萍乡市,市政府车库,,20,20,23,14,15,43,,48,48,7,11,7,7,0.3,0.5
2025-06-21T1900,2350A,113.8676,27.6435,萍乡市,市环保局,,26,25,32,18,19,47,,53,52,7,12,7,9,0.6,0.7
2025-06-21T1900,2351A,113.866,27.6198,萍乡市,安源区政府,,30,30,31,10,11,45,,51,51,6,12,8,10,0.4,0.7
2025-06-21T1900,2319A,119.0141,25.4325,莆田市,荔城区仓后路,,29,29,23,9,7,54,,76,76,10,9,4,4,0.4,0.4
2025-06-21T1900,2320A,119.0015,25.4553,莆田市,莆田市监测站,,23,23,22,14,6,61,,81,81,12,8,4,4,0.3,0.3
2025-06-21T1900,2321A,119.1119,25.4561,莆田市,涵江区六中,,31,31,22,7,7,47,,82,77,13,12,2,3,0.4,0.4
2025-06-21T1900,2322A,119.1013,25.3215,莆田市,秀屿区政府,,36,36,19,7,5,51,,70,68,9,9,5,5,0.4,0.4
2025-06-21T1900,2392A,115.0312,35.7636,濮阳市,环保局,臭氧1小时,97,42,35,17,23,197,,188,188,14,11,6,5,0.3,0.4
2025-06-21T1900,2394A,115.0574,35.7609,濮阳市,油田运输公司,臭氧1小时,84,35,43,14,22,187,,184,184,14,13,6,6,0.5,0.6
2025-06-21T1900,3021A,115,35.7668,濮阳市,濮水河管理处,臭氧1小时,80,32,34,17,24,184,,167,167,19,17,4,3,0.4,0.4
2025-06-21T1900,4216A,115.0924,35.7686,濮阳市,任丘路479号,,,,49,,28,180,,178,178,8,12,7,7,0.6,0.6
2025-06-21T1900,2601A,100.98,22.7633,普洱市,市环保局,,30,22,39,21,12,39,,47,47,4,8,4,4,0.5,0.6
2025-06-21T1900,2602A,100.9817,22.8322,普洱市,普洱第二中学,,30,21,39,21,17,35,,51,51,10,11,6,6,0.6,0.6
2025-06-21T1900,2262A,131.0518,45.8751,七台河市,新一中,,28,12,15,8,7,87,,89,85,10,7,10,10,0.7,0.9
2025-06-21T1900,3345A,131.0577,45.7879,七台河市,中波台,,22,,7,8,7,69,,65,63,13,10,6,6,0.3,0.3
2025-06-21T1900,3637A,131.0176,45.7761,七台河市,人民广场,,24,24,13,11,11,69,,67,63,16,10,11,11,0.5,0.5
2025-06-21T1900,3684A,130.8781,45.8222,七台河市,新建矿广场,,26,,10,18,12,60,,67,63,10,10,10,10,0.6,0.5
2025-06-21T1900,1779A,123.9305,47.3636,齐齐哈尔市,安居小区,,28,,14,19,6,61,,68,68,10,9,6,7,0.4,0.4
2025-06-21T1900,1780A,123.9488,47.3386,齐齐哈尔市,中心广场,,49,49,16,9,4,64,,71,71,13,10,7,6,0.5,0.5
2025-06-21T1900,1781A,123.9483,47.3227,齐齐哈尔市,农牧车辆厂,,22,22,19,10,7,65,,70,70,8,8,6,6,0.1,0.1
2025-06-21T1900,1783A,123.945,47.2988,齐齐哈尔市,市环境监测站,,22,12,12,8,4,70,,74,74,7,6,4,4,0.2,0.2
2025-06-21T1900,3662A,123.6333,47.2075,齐齐哈尔市,富区青少年活动中心,,21,10,11,3,7,66,,76,76,10,7,3,4,0.4,0.4
2025-06-21T1900,2591A,107.9783,26.5747,黔东南苗族侗族自治州,市环境监测站,,15,13,7,10,6,45,,55,55,21,8,2,2,0.7,0.5
2025-06-21T1900,2881A,107.8908,26.5311,黔东南苗族侗族自治州,凯里学院,,12,12,5,8,6,36,,52,47,22,9,2,2,0.5,0.4
2025-06-21T1900,2593A,107.5228,26.2403,黔南布依族苗族自治州,小围寨,,14,7,3,3,0,43,,45,45,5,4,2,2,0.5,0.4
2025-06-21T1900,3538A,107.5175,26.2978,黔南布依族苗族自治州,沙坝,,14,12,8,3,2,43,,34,33,8,7,4,4,0.7,0.6
2025-06-21T1900,2589A,104.9022,25.0925,黔西南布依族苗族自治州,场坝街,,27,14,20,11,9,85,,88,88,9,8,2,3,0.4,0.4
2025-06-21T1900,2590A,104.8811,25.0992,黔西南布依族苗族自治州,坪东大道,,26,26,23,16,15,80,,79,79,10,10,1,2,0.3,0.3
2025-06-21T1900,2502A,108.6236,21.9667,钦州市,市环保站,,23,22,24,7,10,71,,73,73,8,12,2,3,0.4,0.4
2025-06-21T1900,2503A,108.6549,21.9481,钦州市,沙埠小学,,26,26,31,14,14,70,,74,74,10,15,1,3,0.3,0.4
2025-06-21T1900,2504A,108.5989,21.7431,钦州市,港区一小,,41,41,37,15,14,72,,69,69,9,12,2,2,0.4,0.4
2025-06-21T1900,3404A,108.5959,21.9633,钦州市,北职校,,21,21,28,11,14,67,,66,66,5,10,2,2,0.3,0.3
2025-06-21T1900,1043A,119.7493,40.0116,秦皇岛市,第一关,,39,37,32,8,11,122,,128,128,10,31,4,5,0.2,0.2
2025-06-21T1900,1044A,119.5897,39.9499,秦皇岛市,监测站,,39,27,34,6,10,124,,128,128,9,29,4,5,0.4,0.4
2025-06-21T1900,1046A,119.5251,39.9041,秦皇岛市,建设大厦,,39,20,36,12,10,122,,126,126,12,24,3,5,0.3,0.4
2025-06-21T1900,3132A,119.610547,39.943889,秦皇岛市,文明里,,38,33,38,3,12,120,,122,122,10,24,4,5,0.2,0.3
2025-06-21T1900,4198A,119.5090,39.8253,秦皇岛市,北戴河轮滑馆,,34,29,38,3,15,107,,124,122,5,16,2,4,0.3,0.4
2025-06-21T1900,1307A,120.6659,36.2403,青岛市,仰口,,39,37,31,21,18,123,,124,124,10,10,7,7,0.8,0.9
2025-06-21T1900,1310A,120.4134,36.0658,青岛市,市南区东部子站,,50,44,37,29,22,158,,140,140,16,28,9,10,0.4,0.4
2025-06-21T1900,1311A,120.3664,36.1032,青岛市,四方区子站,臭氧1小时,62,44,42,31,27,169,,172,172,22,22,8,8,0.6,0.5
2025-06-21T1900,1312A,120.2994,36.054,青岛市,市南区西部子站,,46,44,42,32,27,139,,155,155,28,30,8,8,0.7,0.6
2025-06-21T1900,1313A,120.4581,36.0858,青岛市,崂山区子站,,49,48,36,34,21,144,,127,127,27,25,8,8,0.4,0.3
2025-06-21T1900,1315A,120.3999,36.3083,青岛市,城阳区子站,,48,44,38,20,20,152,,161,161,31,18,7,6,0.4,0.4
2025-06-21T1900,1966A,120.0405,35.8735,青岛市,黄岛区4号,,41,41,36,17,21,130,,150,150,24,21,9,10,0.8,0.7
2025-06-21T1900,3362A,120.5014,36.4034,青岛市,即墨2号,,,51,35,12,38,169,,141,141,24,13,,128,,0.3
2025-06-21T1900,3642A,120.3503,36.0736,青岛市,市北区南部,,48,48,40,29,28,137,,148,148,19,28,7,9,0.5,0.5
2025-06-21T1900,3643A,120.3948,36.1805,青岛市,李沧区北部,,46,46,40,27,27,126,,140,140,26,19,9,9,0.7,0.6
2025-06-21T1900,4290A,120.1969,35.9546,青岛市,珠江路669号,,44,29,41,22,26,138,,164,164,21,35,7,8,0.4,0.4
2025-06-21T1900,1702A,113.0426,23.691,清远市,环保大楼,,22,,11,15,13,58,,64,64,16,19,5,6,0.3,0.3
2025-06-21T1900,1703A,113.0208,23.7106,清远市,凤城街办,,,16,20,12,10,56,,56,56,17,20,6,7,,0.5
2025-06-21T1900,3025A,113.0477,23.6344,清远市,技师学院,,15,15,23,8,10,41,,53,52,15,21,7,7,0.4,0.5
2025-06-21T1900,3318A,112.9903,23.7403,清远市,清新太和,,20,16,18,6,10,64,,60,60,19,19,7,7,0.4,0.4
2025-06-21T1900,3455A,113.076,23.7198,清远市,清城东城,,22,22,23,10,10,54,,60,60,16,16,8,8,0.4,0.5
2025-06-21T1900,2661A,107.6325,35.7357,庆阳市,庆阳五中,,49,24,33,13,16,154,,155,155,7,12,6,6,0.4,0.4
2025-06-21T1900,2662A,107.6364,35.7067,庆阳市,市环保局,,49,27,41,10,15,156,,158,158,4,10,7,9,0.4,0.4
2025-06-21T1900,1916A,103.7897,25.5035,曲靖市,环境监测站,,24,24,28,3,13,53,,70,68,13,12,2,3,0.6,0.6
2025-06-21T1900,1917A,103.8,25.5364,曲靖市,烟厂办公区,,19,17,25,6,12,59,,74,73,8,10,3,4,0.7,0.7
2025-06-21T1900,3376A,103.7947,25.462,曲靖市,南苑二区,,23,23,26,11,12,60,,75,72,14,11,5,4,0.7,0.6
2025-06-21T1900,3377A,103.7444,25.5261,曲靖市,曲靖师范学院,,19,11,22,9,16,59,,67,64,9,13,6,6,0.4,0.5
2025-06-21T1900,1264A,118.8692,28.9398,衢州市,环保大楼,,30,30,33,12,15,62,,61,61,9,20,4,4,0.2,0.3
2025-06-21T1900,1265A,118.8709,28.9666,衢州市,实验学校,,32,32,28,14,13,60,,64,62,12,21,2,3,0.3,0.3
2025-06-21T1900,1266A,118.8621,28.9808,衢州市,衢州学院,,23,23,24,11,11,71,,71,70,9,21,4,4,0.4,0.4
2025-06-21T1900,1611A,118.5819,24.9117,泉州市,涂山街,,32,32,19,10,8,39,,67,64,10,9,2,2,0.6,0.6
2025-06-21T1900,1612A,118.5972,24.8978,泉州市,津头埔,,27,27,17,6,7,39,,64,62,12,10,2,2,0.5,0.4
2025-06-21T1900,1613A,118.6663,24.9424,泉州市,万安,,21,21,17,6,6,42,,64,62,7,7,2,2,0.4,0.4
2025-06-21T1900,3529A,118.6333,24.9264,泉州市,城华南路,,15,15,13,7,6,37,,63,60,11,8,4,3,0.4,0.4
2025-06-21T1900,2626A,88.8876,29.2718,日喀则市,日喀则监测站,,50,7,9,3,5,159,,152,152,3,7,13,12,0.2,0.4
2025-06-21T1900,3726A,88.8781,29.2426,日喀则市,林业技术推广中心,,47,11,11,3,3,150,,143,143,3,5,8,8,0.3,0.4
2025-06-21T1900,1659A,119.471,35.4209,日照市,监测站,臭氧1小时,58,58,31,37,24,166,,153,153,27,15,4,5,1.2,0.6
2025-06-21T1900,1660A,119.523,35.4216,日照市,市政府广场,颗粒物(PM10),53,56,33,33,20,160,,135,135,25,15,11,9,1.2,0.7
2025-06-21T1900,1661A,119.5587,35.4044,日照市,港务局,"颗粒物(PM10),细颗粒物(PM2.5)",67,83,39,48,26,99,,121,120,87,18,26,8,1.9,0.7
2025-06-21T1900,3507A,119.5328,35.4625,日照市,职业技术学院,颗粒物(PM10),51,51,40,24,21,148,,142,142,34,14,7,6,0.9,0.6
2025-06-21T1900,3604A,119.3266,35.1044,日照市,岚山环保分局,,44,27,38,14,18,140,,159,159,8,18,7,9,0.7,0.8
2025-06-21T1900,1835A,111.1922,34.7752,三门峡市,市政府,臭氧1小时,58,28,30,21,19,166,,170,170,6,6,4,5,0.5,0.6
2025-06-21T1900,1836A,111.1587,34.7942,三门峡市,开发区,臭氧1小时,74,26,28,16,17,179,,176,176,14,11,5,5,0.5,0.6
2025-06-21T1900,3039A,111.1911,34.7829,三门峡市,三门峡市第一小学,臭氧1小时,59,,32,39,39,167,,169,169,7,6,7,6,0.7,0.8
2025-06-21T1900,3598A,111.1,34.7167,三门峡市,富达温泉假日酒店,臭氧1小时,75,25,24,14,24,180,,173,173,10,12,9,9,0.2,0.3
2025-06-21T1900,2324A,117.6211,26.2625,三明市,三钢,,19,9,21,3,12,29,,57,52,15,14,16,9,1.9,1.7
2025-06-21T1900,2325A,117.635,26.2714,三明市,三明二中,,16,,18,11,17,28,,60,54,16,13,9,4,1.5,0.9
2025-06-21T1900,2326A,117.6028,26.2378,三明市,三元区政府,,12,12,24,3,10,33,,64,60,13,13,7,7,0.2,0.3
2025-06-21T1900,1876A,109.5078,18.2489,三亚市,河东子站,,15,13,16,10,8,46,,52,50,4,3,3,2,0.3,0.4
2025-06-21T1900,1877A,109.4964,18.2681,三亚市,河西子站,,18,18,15,12,6,41,,52,49,13,8,2,2,0.3,0.3
2025-06-21T1900,3540A,109.7348,18.3443,三亚市,君悦子站,,,15,13,8,7,55,,60,54,,2,2,2,0.2,0.2
2025-06-21T1900,2624A,91.7608,29.2313,山南市,山南监测站,臭氧1小时,52,13,12,8,8,161,,150,150,4,5,7,7,0.2,0.3
2025-06-21T1900,2625A,91.7706,29.2436,山南市,山南人民医院,臭氧1小时,55,19,14,10,8,164,,152,152,7,5,6,6,0.1,0.2
2025-06-21T1900,1674A,116.6794,23.3667,汕头市,金平子站,,14,7,10,3,4,43,,46,46,3,4,3,3,0.4,0.4
2025-06-21T1900,1675A,116.7244,23.3633,汕头市,龙湖子站,,19,19,10,3,2,43,,45,45,6,7,5,5,0.4,0.4
2025-06-21T1900,1676A,116.7258,23.2775,汕头市,濠江子站,,15,15,16,3,4,44,,42,42,6,6,4,4,0.5,0.4
2025-06-21T1900,1677A,116.7519,23.4714,汕头市,澄海子站,,17,17,15,3,5,38,,47,46,5,7,2,2,0.4,0.5
2025-06-21T1900,1678A,116.6092,23.2539,汕头市,潮阳子站,,17,17,11,6,4,39,,46,46,2,3,4,4,0.5,0.6
2025-06-21T1900,3444A,116.454,23.2684,汕头市,潮南峡山,,12,9,11,8,4,35,,40,40,3,3,4,4,0.4,0.4
2025-06-21T1900,3624A,116.4069,23.2533,汕头市,潮南子站,,19,19,12,7,5,39,,41,41,3,3,4,4,0.5,0.5
2025-06-21T1900,1693A,115.3653,22.775,汕尾市,市环保局,,14,13,10,3,3,43,,47,47,5,5,2,2,0.4,0.3
2025-06-21T1900,1694A,115.3706,22.7898,汕尾市,市政府,,15,10,15,3,5,46,,48,48,4,6,3,4,0.4,0.4
2025-06-21T1900,1695A,115.3622,22.7925,汕尾市,新城中学,,15,15,11,3,4,46,,49,49,4,5,2,3,0.5,0.5
2025-06-21T1900,2645A,109.9154,33.8715,商洛市,监测站,,41,,33,23,21,129,,140,140,9,12,7,7,0.4,0.5
2025-06-21T1900,3045A,109.9643,33.8471,商洛市,商州区中学,,39,22,41,13,22,123,,134,134,10,20,6,6,0.5,0.6
2025-06-21T1900,2408A,115.6702,34.4285,商丘市,环境监测站,,44,44,50,23,34,127,,147,147,16,15,3,3,0.6,0.6
2025-06-21T1900,2409A,115.6458,34.4045,商丘市,粮食局,,44,39,44,22,32,138,,154,154,9,13,3,5,0.4,0.4
2025-06-21T1900,2410A,115.6293,34.3948,商丘市,睢阳区环保局,,44,42,46,25,30,138,,153,153,11,13,3,4,0.4,0.4
2025-06-21T1900,3171A,115.6071,34.4465,商丘市,梁园区档案局,,46,39,44,30,30,145,,154,154,11,18,3,3,0.5,0.6
2025-06-21T1900,1141A,121.4,31.238,上海市,普陀,,,,29,,16,72,,130,110,18,20,5,6,0.3,0.3
2025-06-21T1900,1142A,121.478,31.2036,上海市,十五厂,,,,29,,14,72,,109,106,20,24,7,8,,0.4
2025-06-21T1900,1143A,121.467,31.3008,上海市,虹口,,24,17,29,7,13,75,,101,98,10,15,8,9,0.5,0.5
2025-06-21T1900,1147A,121.425,31.2261,上海市,静安监测站,,23,20,28,16,17,72,,103,99,16,23,4,9,0.6,0.7
2025-06-21T1900,1148A,121.703,31.1907,上海市,浦东川沙,,25,25,31,13,12,63,,103,95,22,19,8,8,0.8,0.5
2025-06-21T1900,1149A,121.533,31.2284,上海市,浦东新区监测站,,46,46,29,10,10,63,,105,102,21,15,8,8,1.2,0.7
2025-06-21T1900,1150A,121.577,31.2071,上海市,浦东张江,,36,36,38,15,15,78,,110,108,14,15,6,6,1.1,1
2025-06-21T1900,3265A,121.4316,31.3322,上海市,宝山庙行,,27,10,30,7,13,84,,103,101,12,19,8,9,0.3,0.4
2025-06-21T1900,3266A,121.8791,31.4662,上海市,崇明上实东滩,,30,14,24,7,12,96,,118,118,6,21,2,3,0.5,0.6
2025-06-21T1900,3268A,121.3162,31.2838,上海市,嘉定南翔,,,,35,,16,72,,91,88,,24,6,6,0.3,0.3
2025-06-21T1900,3269A,121.3359,30.7456,上海市,金山新城,,25,25,32,12,13,78,,106,104,23,16,3,5,0.5,0.6
2025-06-21T1900,3270A,121.4996,31.0739,上海市,闵行浦江,,35,35,29,12,13,67,,108,105,22,16,4,4,0.8,0.7
2025-06-21T1900,3271A,121.2886,31.1663,上海市,青浦徐泾,,23,22,31,15,14,72,,105,101,17,19,6,6,0.5,0.5
2025-06-21T1900,3272A,121.2186,31.0378,上海市,松江图书馆,,28,28,27,10,15,76,,109,104,16,17,7,7,0.7,0.7
2025-06-21T1900,3273A,121.3902,31.2059,上海市,长宁仙霞,,25,25,31,11,14,66,,100,97,21,21,9,9,0.4,0.4
2025-06-21T1900,3274A,121.7965,31.0507,上海市,浦东惠南,,30,30,28,20,17,52,,108,93,35,25,10,10,0.8,0.5
2025-06-21T1900,3544A,121.4891,30.925,上海市,奉贤南桥新城,,22,22,29,14,16,66,,105,102,19,14,6,7,0.8,0.7
2025-06-21T1900,4183A,121.4174,31.16637,上海市,冠生园路458号,,30,30,29,16,16,67,,102,98,23,19,4,4,0.7,0.7
2025-06-21T1900,4205A,121.5419,31.2683,上海市,宁武路151号,,,,35,,14,72,,100,98,15,21,,6,0.4,0.4
2025-06-21T1900,2382A,117.9756,28.4436,上饶市,市监测站,,18,18,18,11,10,47,,60,57,7,9,4,6,0.3,0.3
2025-06-21T1900,2383A,117.9519,28.4628,上饶市,凤凰光学,,12,9,10,8,9,32,,57,52,17,11,6,10,0.7,0.7
2025-06-21T1900,3685A,117.897,28.4315,上饶市,双创科技城,,20,20,20,3,9,42,,58,55,14,13,8,10,0.5,0.5
2025-06-21T1900,4211A,118.1904,28.4448,上饶市,裕丰大道,,23,23,16,9,6,54,,62,60,4,5,6,6,0.5,0.5
2025-06-21T1900,1669A,113.5824,24.7733,韶关市,市八中,,28,28,23,12,8,63,,69,69,12,15,8,10,0.4,0.5
2025-06-21T1900,1671A,113.5917,24.7972,韶关市,园林处,,19,13,17,7,9,58,,65,65,9,12,8,9,0.6,0.6
2025-06-21T1900,1673A,113.5971,24.6863,韶关市,曲江监测站,,21,18,10,10,4,65,,70,70,11,13,6,6,0.8,0.7
2025-06-21T1900,2809A,113.6668,24.7756,韶关市,大学路288号,,16,14,17,3,8,50,,61,61,6,8,6,7,0.4,0.4
2025-06-21T1900,3622A,113.5556,24.8082,韶关市,碧湖山庄,,22,14,21,8,10,68,,71,71,11,13,9,11,0.5,0.5
2025-06-21T1900,2464A,111.5283,27.2442,邵阳市,市化工厂,,,,25,7,13,32,,45,42,9,13,5,4,0.4,0.4
2025-06-21T1900,2466A,111.4328,27.2272,邵阳市,市环保局,,18,16,25,12,16,36,,37,37,7,11,7,7,0.3,0.3
2025-06-21T1900,4218A,111.4460,27.2472,邵阳市,北塔二期4-26地块,,10,9,29,3,15,30,,31,31,8,10,4,4,0.3,0.4
2025-06-21T1900,4219A,111.4739,27.2282,邵阳市,邵水西路287号,,,16,26,,15,34,,40,39,12,13,3,3,0.5,0.4
2025-06-21T1900,1247A,120.6053,29.9928,绍兴市,城东开发委,,36,36,20,21,12,83,,90,90,11,8,4,3,0.5,0.4
2025-06-21T1900,2921A,120.5483,30.0003,绍兴市,树下王站,,30,30,21,13,11,89,,95,95,14,10,6,7,0.5,0.4
2025-06-21T1900,3408A,120.5683,29.9361,绍兴市,绍兴中专,颗粒物(PM10),51,51,22,13,11,91,,96,96,15,12,4,4,0.4,0.1
2025-06-21T1900,3409A,120.4906,30.0861,绍兴市,柯桥区政府,,30,30,27,13,13,78,,90,89,14,13,9,9,0.6,0.6
2025-06-21T1900,3410A,120.8752,30.0249,绍兴市,重华小学,,26,26,22,15,12,83,,87,87,12,8,7,6,0.5,0.4
2025-06-21T1900,3411A,120.8369,30.0137,绍兴市,上虞中学,,29,27,23,15,13,91,,95,95,13,15,7,9,0.4,0.3
2025-06-21T1900,3560A,120.4722,30.0415,绍兴市,柯桥妇保,,34,34,29,18,14,85,,95,95,15,14,6,6,0.6,0.5
2025-06-21T1900,3658A,120.6153,30.0764,绍兴市,袍江中学,,27,23,21,11,11,86,,93,93,14,11,4,4,0.5,0.4
2025-06-21T1900,1356A,114.1063,22.5545,深圳市,通心岭子站,,11,11,11,3,5,20,,37,35,9,8,7,8,0.5,0.5
2025-06-21T1900,1357A,114.117,22.5625,深圳市,洪湖,,15,15,12,10,5,23,,37,36,8,9,6,6,0.5,0.5
2025-06-21T1900,1358A,113.987,22.5417,深圳市,华侨城,,12,12,12,6,4,18,,33,33,14,9,6,6,0.5,0.5
2025-06-21T1900,1359A,113.9181,22.5171,深圳市,南海子站,,28,28,12,14,5,28,,38,38,13,12,8,8,0.6,0.6
2025-06-21T1900,1360A,114.2458,22.5689,深圳市,盐田,,17,17,16,3,5,9,,29,26,5,11,6,7,0.5,0.4
2025-06-21T1900,1361A,114.2283,22.7244,深圳市,龙岗,,11,11,14,3,5,21,,39,38,10,14,6,6,0.8,0.8
2025-06-21T1900,1363A,114.494,22.5422,深圳市,南澳,,9,9,12,3,0,28,,43,42,3,3,6,6,0.5,0.5
2025-06-21T1900,1364A,114.41,22.6342,深圳市,葵涌,,13,13,13,3,4,24,,44,42,11,9,7,7,0.6,0.5
2025-06-21T1900,1365A,114.297,22.5978,深圳市,梅沙,,16,16,16,3,3,9,,38,33,14,7,7,7,0.4,0.5
2025-06-21T1900,1366A,114.0678,22.738,深圳市,观澜,,17,17,27,3,10,18,,35,34,17,17,6,6,0.6,0.6
2025-06-21T1900,3305A,114.0731,22.559,深圳市,莲花,,16,16,16,6,7,10,,26,25,10,11,2,2,0.7,0.7
2025-06-21T1900,3306A,114.0261,22.6198,深圳市,民治,,11,11,11,3,5,19,,36,35,17,11,7,7,0.5,0.5
2025-06-21T1900,3307A,114.1871,22.6451,深圳市,横岗,,12,12,15,6,8,12,,44,38,16,17,7,8,0.2,0.5
2025-06-21T1900,3447A,114.3551,22.7151,深圳市,坪山,,13,13,13,6,5,20,,37,35,14,12,7,7,0.5,0.5
2025-06-21T1900,3623A,113.8953,22.5861,深圳市,西乡,,26,24,15,18,6,28,,39,39,10,11,7,6,0.5,0.5
2025-06-21T1900,1099A,123.505,41.7406,沈阳市,浑南东路,,35,18,24,8,8,110,,112,112,11,31,5,9,0.4,0.5
2025-06-21T1900,1100A,123.4231,41.6989,沈阳市,新秀街,,30,13,19,6,20,93,,104,104,26,38,6,10,0.5,0.5
2025-06-21T1900,1102A,123.5903,41.8411,沈阳市,东陵路,,35,14,18,9,8,109,,113,113,11,23,5,5,0.5,0.5
2025-06-21T1900,1103A,123.4264,41.8467,沈阳市,陵东街,,31,10,16,3,8,99,,105,105,10,21,4,4,0.4,0.4
