timepoint,stationcode,longitude,latitude,area,positionname,primarypollutant,aqi,pm10,pm10_24h,pm2_5,pm2_5_24h,o3,o3_24h,o3_8h,o3_8h_24h,no2,no2_24h,so2,so2_24h,co,co_24h
2023-01-29T19:00:00,1001A,116.3621,39.8784,北京市,万寿西宫,颗粒物(PM10),63,75,79,24,24,78,53,72,71,25,21,1,2,0.3,0.4
2023-01-29T19:00:00,1002A,116.2202,40.2915,北京市,定陵,,,,,,,,,,,,,,,,
2023-01-29T19:00:00,1003A,116.4174,39.9289,北京市,东四,颗粒物(PM10),68,85,88,26,20,80,56,75,74,17,13,1,1,0.4,0.3
2023-01-29T19:00:00,1004A,116.4072,39.8863,北京市,天坛,颗粒物(PM10),57,63,75,19,20,74,51,68,67,14,17,3,2,0.3,0.3
2023-01-29T19:00:00,1005A,116.462,39.9365,北京市,农展馆,颗粒物(PM10),65,79,83,23,20,76,58,72,71,21,16,3,2,0.2,0.1
2023-01-29T19:00:00,1006A,116.3392,39.9295,北京市,官园,颗粒物(PM10),66,81,83,24,22,92,65,86,85,25,16,2,2,0.3,0.2
2023-01-29T19:00:00,1007A,116.2878,39.9611,北京市,海淀万柳,颗粒物(PM10),66,82,82,26,21,64,28,60,56,49,23,2,2,0.4,0.3
2023-01-29T19:00:00,1008A,116.6636,40.135,北京市,顺义新城,,46,46,68,16,20,80,61,78,75,17,17,1,2,0.2,0.2
2023-01-29T19:00:00,1009A,116.6275,40.3275,北京市,怀柔镇,颗粒物(PM10),75,99,69,28,21,71,23,63,60,51,23,2,2,0.6,0.3
2023-01-29T19:00:00,1010A,116.2296,40.217,北京市,昌平镇,颗粒物(PM10),53,56,81,18,20,72,42,70,66,30,16,3,3,0.4,0.3
2023-01-29T19:00:00,1011A,116.3966,39.9821,北京市,奥体中心,颗粒物(PM10),60,69,82,21,20,76,46,73,70,32,16,3,2,0.4,0.3
2023-01-29T19:00:00,1012A,116.184,39.9136,北京市,古城,颗粒物(PM10),71,91,81,28,19,80,60,79,76,19,11,3,3,0.4,0.3
2023-01-29T19:00:00,1015A,117.1444,39.1661,天津市,勤俭道,颗粒物(PM10),68,86,82,29,29,75,42,69,67,38,21,4,6,0.6,0.6
2023-01-29T19:00:00,1017A,117.237,39.1082,天津市,大直沽八号路,颗粒物(PM10),71,92,85,27,28,75,45,70,68,37,21,4,5,0.6,0.6
2023-01-29T19:00:00,1018A,117.202,39.0927,天津市,前进道,颗粒物(PM10),60,70,77,21,28,80,44,75,73,41,23,3,4,0.3,0.3
2023-01-29T19:00:00,1019A,117.1837,39.2133,天津市,淮河道,颗粒物(PM10),75,100,97,31,31,83,23,75,70,57,24,4,6,0.5,0.6
2023-01-29T19:00:00,1021A,117.307,39.0877,天津市,跃进路,颗粒物(PM10),61,72,80,24,32,77,53,72,70,29,21,6,8,0.7,0.7
2023-01-29T19:00:00,1023A,117.707,39.0343,天津市,第四大街,颗粒物(PM10),61,72,90,18,27,69,24,61,57,53,26,5,7,0.6,0.7
2023-01-29T19:00:00,1024A,117.457,38.8394,天津市,永明路,颗粒物(PM10),73,96,79,38,31,73,30,64,61,49,28,5,10,0.6,0.6
2023-01-29T19:00:00,1026A,117.764,39.1587,天津市,汉北路,颗粒物(PM10),55,60,80,23,27,79,57,73,72,15,20,6,8,0.2,0.5
2023-01-29T19:00:00,1027A,117.157,38.9194,天津市,团泊洼,颗粒物(PM10),56,61,71,16,26,69,61,65,65,15,21,4,6,0.3,0.5
2023-01-29T19:00:00,1029A,114.4422,38.0444,石家庄市,职工医院,颗粒物(PM10),67,83,52,20,20,78,56,73,72,35,21,6,10,0.5,0.5
2023-01-29T19:00:00,1030A,114.6063,38.0266,石家庄市,高新区,颗粒物(PM10),52,53,52,14,21,83,60,75,75,25,23,6,9,0.5,0.5
2023-01-29T19:00:00,1031A,114.4898,38.1328,石家庄市,西北水源,颗粒物(PM10),61,72,59,22,22,79,53,72,71,26,17,8,11,0.5,0.5
2023-01-29T19:00:00,1032A,114.4586,38.0058,石家庄市,西南高教,颗粒物(PM10),61,72,55,35,22,76,53,70,68,26,20,8,10,0.4,0.4
2023-01-29T19:00:00,1033A,114.5331,38.0178,石家庄市,世纪公园,颗粒物(PM10),57,63,46,34,16,75,53,68,68,23,19,4,6,0.5,0.5
2023-01-29T19:00:00,1034A,114.509,38.0457,石家庄市,人民会堂,颗粒物(PM10),54,57,51,7,12,81,65,75,75,27,22,4,9,0.3,0.5
2023-01-29T19:00:00,1035A,114.3524,37.8911,石家庄市,封龙山,颗粒物(PM10),54,57,49,22,26,83,71,78,75,14,10,8,8,0.6,0.5
2023-01-29T19:00:00,1037A,118.131,39.6363,唐山市,雷达站,颗粒物(PM10),59,68,81,22,28,79,24,70,66,54,26,3,5,0.5,0.6
2023-01-29T19:00:00,1038A,118.1725,39.6334,唐山市,物资局,颗粒物(PM10),55,60,78,27,31,81,36,73,71,48,33,6,8,0.5,0.6
2023-01-29T19:00:00,1040A,118.1705,39.6506,唐山市,十二中,,,60,78,,46,75,42,67,66,33,27,2,4,0.4,0.5
2023-01-29T19:00:00,1041A,118.1869,39.622,唐山市,小山,颗粒物(PM10),56,61,84,14,25,76,28,68,65,51,32,4,8,0.5,0.5
2023-01-29T19:00:00,1042A,119.5134,39.8207,秦皇岛市,北戴河环保局,,47,47,91,19,21,75,59,70,69,16,24,3,10,0.6,0.9
2023-01-29T19:00:00,1043A,119.7493,40.0116,秦皇岛市,第一关,颗粒物(PM10),57,64,102,32,34,76,34,72,64,40,26,5,7,0.4,0.7
2023-01-29T19:00:00,1044A,119.5897,39.9499,秦皇岛市,监测站,颗粒物(PM10),59,68,94,31,32,74,20,64,61,53,31,6,11,0.6,0.7
2023-01-29T19:00:00,1046A,119.5251,39.9041,秦皇岛市,建设大厦,,49,49,90,18,28,75,39,69,66,36,30,5,11,0.4,0.8
2023-01-29T19:00:00,1048A,114.5302,36.6116,邯郸市,东污水处理厂,颗粒物(PM10),57,64,55,22,17,87,36,79,74,53,24,11,18,0.7,0.8
2023-01-29T19:00:00,1049A,114.4918,36.5713,邯郸市,矿院,颗粒物(PM10),51,52,52,31,22,86,60,77,77,21,28,10,15,0.7,0.4
2023-01-29T19:00:00,1050A,114.484,36.6133,邯郸市,丛台公园,颗粒物(PM10),53,55,41,17,17,88,51,78,76,32,18,7,13,0.8,1
2023-01-29T19:00:00,1051A,115.493,38.8632,保定市,游泳馆,颗粒物(PM10),68,85,59,31,22,80,35,69,66,47,22,8,10,0.6,0.5
2023-01-29T19:00:00,1052A,115.5213,38.8959,保定市,华电二区,颗粒物(PM10),79,107,62,35,27,69,33,58,57,38,22,8,8,0.8,0.7
2023-01-29T19:00:00,1053A,115.4713,38.9108,保定市,接待中心,颗粒物(PM10),67,83,59,32,26,65,34,55,54,36,20,5,8,0.5,0.7
2023-01-29T19:00:00,1054A,115.4612,38.8416,保定市,地表水厂,颗粒物(PM10),75,99,76,21,24,76,35,66,64,53,31,6,7,0.5,0.5
2023-01-29T19:00:00,1056A,115.5086,38.8639,保定市,监测站,颗粒物(PM10),106,162,72,77,29,76,16,61,57,68,33,9,9,1.2,0.6
2023-01-29T19:00:00,1057A,114.8883,40.8336,张家口市,人民公园,,50,50,68,8,13,85,73,82,82,8,6,8,5,0.7,0.6
2023-01-29T19:00:00,1059A,114.8687,40.8042,张家口市,五金库,,34,34,55,19,20,78,56,74,73,26,10,11,9,0.5,0.4
2023-01-29T19:00:00,1060A,114.8902,40.762,张家口市,世纪豪园,颗粒物(PM10),56,62,82,15,23,79,64,75,74,13,5,5,4,0.5,0.4
2023-01-29T19:00:00,1061A,114.8916,40.8661,张家口市,北泵房,颗粒物(PM10),54,57,78,26,29,87,59,83,81,19,13,17,12,1.0,1.1
2023-01-29T19:00:00,1062A,117.9531,40.9081,承德市,铁路,,29,29,66,13,31,76,69,72,72,8,29,8,11,0.2,0.8
2023-01-29T19:00:00,1063A,117.9392,40.9763,承德市,中国银行,,50,50,66,13,29,73,37,64,64,37,32,7,8,0.5,0.8
2023-01-29T19:00:00,1064A,117.9503,40.928,承德市,开发区,,31,31,62,17,34,83,78,78,78,6,33,8,11,0.3,0.8
2023-01-29T19:00:00,1065A,117.8051,40.9655,承德市,文化中心,,42,42,82,18,29,87,78,84,84,6,26,10,14,0.2,0.7
2023-01-29T19:00:00,1066A,117.9268,41.0026,承德市,离宫,,22,22,49,11,25,74,64,70,70,3,18,8,12,0.2,0.5
2023-01-29T19:00:00,1067A,116.6708,39.5111,廊坊市,药材公司,,,66,77,23,24,82,60,76,75,,23,4,5,0.4,0.5
2023-01-29T19:00:00,1068A,116.7214,39.5589,廊坊市,开发区,颗粒物(PM10),57,64,74,25,21,85,47,78,75,49,32,7,8,0.6,0.6
2023-01-29T19:00:00,1070A,116.7244,39.5269,廊坊市,北华航天学院,颗粒物(PM10),61,71,82,19,20,83,34,76,72,52,24,9,10,0.6,0.5
2023-01-29T19:00:00,1071A,116.8842,38.2991,沧州市,沧县城建局,颗粒物(PM10),92,134,88,36,28,82,27,71,68,70,28,10,10,1.5,0.9
2023-01-29T19:00:00,1072A,116.8584,38.3254,沧州市,电视转播站,颗粒物(PM10),78,105,67,41,26,88,43,78,77,47,20,27,14,1.0,0.6
2023-01-29T19:00:00,1073A,116.8709,38.3228,沧州市,市环保局,颗粒物(PM10),87,124,71,34,23,78,15,68,64,79,27,7,11,1.0,0.4
2023-01-29T19:00:00,1074A,115.6838,37.7541,衡水市,电机北厂,颗粒物(PM10),79,107,73,25,22,80,52,72,72,36,23,6,10,0.5,0.5
2023-01-29T19:00:00,1075A,115.6303,37.7316,衡水市,市监测站,,,,75,,29,82,,75,75,25,17,12,18,0.4,0.5
2023-01-29T19:00:00,1077A,114.4704,37.0886,邢台市,达活泉,,41,41,40,22,22,78,60,67,67,22,28,6,13,0.6,1
2023-01-29T19:00:00,1078A,114.5062,37.0349,邢台市,邢师高专,颗粒物(PM10),52,53,45,18,21,80,40,66,66,41,32,6,8,0.6,0.8
2023-01-29T19:00:00,1079A,114.5237,37.0851,邢台市,路桥公司,颗粒物(PM10),52,54,45,16,18,89,57,77,77,26,28,6,8,0.4,0.8
2023-01-29T19:00:00,1080A,114.4725,37.0719,邢台市,市环保局,颗粒物(PM10),51,51,40,29,22,81,63,69,69,25,30,6,8,0.4,0.7
2023-01-29T19:00:00,1081A,112.522,37.8873,太原市,尖草坪,颗粒物(PM10),67,83,84,17,24,90,46,70,70,46,29,11,14,0.7,0.7
2023-01-29T19:00:00,1083A,112.434,38.0108,太原市,上兰,,,,,,,,,,,,,,,,
2023-01-29T19:00:00,1084A,112.469,37.7124,太原市,晋源,颗粒物(PM10),54,57,72,28,37,92,36,74,73,52,46,10,16,0.6,0.9
2023-01-29T19:00:00,1085A,112.5583,37.7394,太原市,小店,颗粒物(PM10),51,51,69,24,35,86,53,74,74,35,41,9,21,0.5,0.8
2023-01-29T19:00:00,1086A,112.5369,37.8692,太原市,桃园,,43,43,56,25,28,89,54,71,71,38,34,8,13,0.6,0.7
2023-01-29T19:00:00,1087A,112.57,37.8195,太原市,坞城,,48,48,68,23,36,84,56,71,71,36,41,8,15,0.6,0.8
2023-01-29T19:00:00,1088A,112.549,37.9854,太原市,南寨,,49,49,54,27,23,82,38,69,65,53,34,8,12,0.4,0.6
2023-01-29T19:00:00,1089A,112.4783,37.7778,太原市,金胜,,,,,,,,,,,,,,,,
2023-01-29T19:00:00,1090A,111.6507,40.7517,呼和浩特市,呼市一监,细颗粒物(PM2.5),114,,122,86,49,58,38,52,50,40,37,19,22,0.9,0.7
2023-01-29T19:00:00,1091A,111.6572,40.8033,呼和浩特市,小召,颗粒物(PM10),93,136,129,50,47,55,37,48,48,45,47,43,26,0.8,0.9
2023-01-29T19:00:00,1094A,111.7516,40.8369,呼和浩特市,如意水处理厂,颗粒物(PM10),91,132,129,49,46,66,15,59,55,67,42,46,15,0.8,0.7
2023-01-29T19:00:00,1095A,111.7276,40.8062,呼和浩特市,二十九中,,,138,136,61,56,65,,56,56,55,40,23,19,0.7,0.9
2023-01-29T19:00:00,1096A,111.5512,40.7866,呼和浩特市,工大金川校区,颗粒物(PM10),116,182,147,51,47,62,18,50,49,53,37,17,32,0.8,0.9
2023-01-29T19:00:00,1097A,111.717,40.7612,呼和浩特市,化肥厂生活区,颗粒物(PM10),115,179,140,81,55,70,33,57,56,55,37,20,14,0.9,0.8
2023-01-29T19:00:00,1098A,123.6836,41.9339,沈阳市,森林路,,,,,,,,,,,,,,,,
2023-01-29T19:00:00,1099A,123.505,41.7406,沈阳市,浑南东路,,33,33,45,17,22,62,39,56,56,30,28,11,13,0.5,0.8
2023-01-29T19:00:00,1100A,123.4231,41.6989,沈阳市,新秀街,,46,46,57,21,22,68,22,62,59,51,22,13,13,0.7,0.7
2023-01-29T19:00:00,1102A,123.5903,41.8411,沈阳市,东陵路,细颗粒物(PM2.5),54,52,63,38,32,71,33,65,62,39,30,12,14,0.8,1
2023-01-29T19:00:00,1103A,123.4264,41.8467,沈阳市,陵东街,,35,35,45,20,20,74,42,68,66,33,30,10,19,0.4,0.7
2023-01-29T19:00:00,1104A,123.4114,41.7653,沈阳市,文化路,,44,44,56,23,24,67,38,61,60,41,27,12,16,0.4,0.7
2023-01-29T19:00:00,1105A,123.4678,41.7867,沈阳市,小河沿,,42,42,50,20,22,68,43,62,61,33,29,10,18,0.6,0.8
2023-01-29T19:00:00,1106A,123.4017,41.7972,沈阳市,太原街,颗粒物(PM10),54,58,66,26,29,60,13,52,48,58,31,8,20,0.7,0.8
2023-01-29T19:00:00,1108A,123.3783,41.9228,沈阳市,京沈街,,36,34,60,25,25,69,52,64,63,20,26,11,21,0.5,0.7
2023-01-29T19:00:00,1109A,121.612,38.9741,大连市,甘井子,颗粒物(PM10),53,56,72,30,45,81,58,70,69,22,19,14,18,0.5,0.5
2023-01-29T19:00:00,1110A,121.565,38.9511,大连市,周水子,颗粒物(PM10),65,80,82,30,28,73,33,62,57,44,22,14,12,0.7,0.7
2023-01-29T19:00:00,1111A,121.5637,38.8845,大连市,星海三站,颗粒物(PM10),62,74,74,30,28,65,38,58,56,49,31,17,11,0.6,0.6
2023-01-29T19:00:00,1112A,121.6302,38.9117,大连市,青泥洼桥,颗粒物(PM10),71,92,92,36,28,80,31,65,62,49,23,18,15,1.1,1
2023-01-29T19:00:00,1113A,121.6251,38.8638,大连市,傅家庄,颗粒物(PM10),67,84,74,33,25,78,44,70,68,47,23,14,10,1.0,0.9
2023-01-29T19:00:00,1114A,121.5213,38.8661,大连市,七贤岭,颗粒物(PM10),62,74,65,25,23,84,62,78,76,22,14,25,12,0.6,0.7
2023-01-29T19:00:00,1115A,121.2529,38.8061,大连市,旅顺,颗粒物(PM10),88,126,80,46,28,78,51,69,66,22,17,13,12,0.8,0.8
2023-01-29T19:00:00,1116A,121.7485,39.1311,大连市,金州,颗粒物(PM10),56,62,66,25,22,78,64,72,72,17,22,24,19,0.8,0.9
2023-01-29T19:00:00,1117A,121.7811,39.0496,大连市,开发区,颗粒物(PM10),54,57,62,30,27,73,55,67,67,26,25,46,17,0.6,0.6
2023-01-29T19:00:00,1118A,121.9762,39.0631,大连市,双D港,颗粒物(PM10),52,53,56,19,20,82,71,76,76,13,19,10,13,0.5,0.7
2023-01-29T19:00:00,1119A,125.3325,43.9166,长春市,食品厂,细颗粒物(PM2.5),94,91,60,70,40,56,25,47,45,47,34,7,19,0.9,0.6
2023-01-29T19:00:00,1120A,125.2863,43.9027,长春市,客车厂,细颗粒物(PM2.5),78,79,54,57,37,52,22,46,43,46,30,7,18,0.8,0.5
2023-01-29T19:00:00,1121A,125.2841,43.8463,长春市,邮电学院,细颗粒物(PM2.5),97,83,54,72,39,58,26,49,47,38,22,20,16,0.7,0.5
2023-01-29T19:00:00,1122A,125.3716,43.8772,长春市,劳动公园,细颗粒物(PM2.5),79,64,51,58,36,55,35,50,48,37,31,14,23,0.5,0.6
2023-01-29T19:00:00,1123A,125.3297,43.8805,长春市,园林处,细颗粒物(PM2.5),79,58,48,58,34,57,36,48,47,33,31,9,22,0.7,0.6
2023-01-29T19:00:00,1124A,125.4605,43.79,长春市,净月潭,细颗粒物(PM2.5),60,64,45,43,27,61,28,52,50,34,14,14,9,0.7,0.6
2023-01-29T19:00:00,1125A,125.7194,43.515,长春市,甩湾子,,,,,,,,,,,,,,,,
2023-01-29T19:00:00,1126A,125.3863,43.8447,长春市,经开区环卫处,细颗粒物(PM2.5),69,61,51,50,35,53,32,43,42,36,31,28,32,0.6,0.6
2023-01-29T19:00:00,1127A,125.245,43.7783,长春市,高新区管委会,细颗粒物(PM2.5),92,69,53,68,46,59,27,53,50,38,18,7,9,0.8,0.7
2023-01-29T19:00:00,1128A,125.1761,43.8325,长春市,岱山公园,细颗粒物(PM2.5),107,74,57,80,42,64,29,58,54,43,22,8,8,0.8,0.7
2023-01-29T19:00:00,1129A,126.5422,45.755,哈尔滨市,岭北,细颗粒物(PM2.5),83,102,93,61,76,85,56,75,75,45,37,4,21,1.1,1.1
2023-01-29T19:00:00,1130A,126.561,45.8167,哈尔滨市,松北商大,细颗粒物(PM2.5),112,100,102,84,84,75,38,64,62,59,46,17,33,1.0,1.1
2023-01-29T19:00:00,1131A,126.979,45.5419,哈尔滨市,阿城会宁,细颗粒物(PM2.5),78,75,98,57,74,68,57,61,61,29,27,18,20,0.7,0.9
2023-01-29T19:00:00,1132A,126.599,45.7222,哈尔滨市,南岗学府路,细颗粒物(PM2.5),79,68,103,58,74,64,56,54,54,35,45,17,40,0.6,0.8
2023-01-29T19:00:00,1133A,126.689,45.7733,哈尔滨市,太平宏伟公园,细颗粒物(PM2.5),109,105,123,82,83,82,54,69,69,55,43,18,22,0.7,1
2023-01-29T19:00:00,1134A,126.635,45.7667,哈尔滨市,道外承德广场,细颗粒物(PM2.5),104,50,95,78,72,64,62,51,51,32,48,14,24,0.5,0.8
2023-01-29T19:00:00,1135A,126.685,45.7319,哈尔滨市,香坊红旗大街,细颗粒物(PM2.5),103,80,107,77,97,66,49,59,59,51,45,27,30,1.0,1.1
2023-01-29T19:00:00,1136A,126.6411,45.7258,哈尔滨市,动力和平路,细颗粒物(PM2.5),80,68,91,59,73,71,26,50,49,70,44,44,40,0.7,0.8
2023-01-29T19:00:00,1137A,126.593,45.7478,哈尔滨市,道里建国路,细颗粒物(PM2.5),85,66,84,63,71,72,62,58,58,31,44,17,31,0.8,1.2
2023-01-29T19:00:00,1138A,126.615,45.61,哈尔滨市,平房东轻厂,细颗粒物(PM2.5),160,140,98,122,77,58,10,52,36,86,40,34,23,1.6,1.1
2023-01-29T19:00:00,1139A,126.595,45.9855,哈尔滨市,呼兰师专,细颗粒物(PM2.5),186,171,114,140,137,72,32,61,59,61,39,39,21,1.7,1.4
2023-01-29T19:00:00,1140A,126.6206,45.6842,哈尔滨市,省农科院,细颗粒物(PM2.5),125,92,113,95,78,66,14,50,45,91,51,41,29,1.2,0.9
2023-01-29T19:00:00,1141A,121.4,31.238,上海市,普陀,颗粒物(PM10),61,71,67,32,38,114,82,104,104,38,46,6,7,0.8,0.8
2023-01-29T19:00:00,1142A,121.478,31.2036,上海市,十五厂,颗粒物(PM10),55,59,61,31,35,98,72,90,90,46,46,6,7,1.0,1
2023-01-29T19:00:00,1143A,121.467,31.3008,上海市,虹口,颗粒物(PM10),59,68,72,34,40,100,68,88,88,40,43,11,12,0.6,0.7
2023-01-29T19:00:00,1144A,121.412,31.1654,上海市,徐汇上师大,颗粒物(PM10),53,55,59,25,31,93,74,85,85,36,44,6,7,0.7,0.9
2023-01-29T19:00:00,1145A,121.536,31.2659,上海市,杨浦四漂,颗粒物(PM10),56,61,77,36,42,102,79,92,92,34,40,6,7,0.5,0.5
2023-01-29T19:00:00,1147A,121.425,31.2261,上海市,静安监测站,颗粒物(PM10),56,62,70,30,34,103,80,96,96,41,44,8,9,0.6,0.7
2023-01-29T19:00:00,1148A,121.703,31.1907,上海市,浦东川沙,颗粒物(PM10),59,67,64,36,46,92,50,84,82,47,37,6,7,0.7,0.9
2023-01-29T19:00:00,1149A,121.533,31.2284,上海市,浦东新区监测站,颗粒物(PM10),56,62,68,35,38,83,70,76,76,34,38,6,7,0.7,0.9
2023-01-29T19:00:00,1150A,121.577,31.2071,上海市,浦东张江,颗粒物(PM10),60,69,65,26,32,90,64,83,82,38,43,6,6,0.8,0.9
2023-01-29T19:00:00,1151A,118.8086,32.1065,南京市,迈皋桥,颗粒物(PM10),55,59,66,29,27,110,82,101,101,22,38,4,5,0.3,0.3
2023-01-29T19:00:00,1152A,118.7538,32.0551,南京市,草场门,颗粒物(PM10),58,65,66,29,26,104,74,95,95,33,25,3,4,0.4,0.3
2023-01-29T19:00:00,1153A,118.7794,32.0745,南京市,山西路,颗粒物(PM10),58,66,68,31,30,111,78,102,102,31,23,5,5,0.4,0.4
2023-01-29T19:00:00,1154A,118.7752,32.0023,南京市,中华门,颗粒物(PM10),56,61,70,27,30,102,78,94,94,29,31,8,12,0.3,0.5
2023-01-29T19:00:00,1155A,118.8109,32.0309,南京市,瑞金路,颗粒物(PM10),65,79,71,44,33,100,17,88,82,89,52,6,6,1.1,0.8
2023-01-29T19:00:00,1156A,118.7997,32.0754,南京市,玄武湖,颗粒物(PM10),54,58,68,24,29,99,81,92,92,21,35,4,4,0.4,0.5
2023-01-29T19:00:00,1157A,118.6414,32.0931,南京市,浦口,颗粒物(PM10),56,61,68,29,29,110,105,106,106,12,15,4,3,0.4,0.4
2023-01-29T19:00:00,1158A,118.7356,31.9996,南京市,奥体中心,颗粒物(PM10),55,60,76,24,32,99,70,92,92,44,39,5,8,0.6,0.6
2023-01-29T19:00:00,1159A,118.9125,32.1028,南京市,仙林大学城,颗粒物(PM10),53,56,65,29,32,109,68,101,99,38,39,6,8,0.7,0.7
2023-01-29T19:00:00,1160A,120.561,31.2472,苏州市,上方山,颗粒物(PM10),53,55,60,35,35,102,80,92,92,13,11,8,8,0.6,0.6
2023-01-29T19:00:00,1162A,120.591,31.3019,苏州市,彩香,"颗粒物(PM10),细颗粒物(PM2.5)",69,87,69,50,37,104,75,97,96,32,24,7,6,0.7,0.7
2023-01-29T19:00:00,1163A,120.596,31.3264,苏州市,轧钢厂,颗粒物(PM10),69,87,76,40,36,108,67,100,98,35,29,8,6,0.8,0.7
2023-01-29T19:00:00,1164A,120.613,31.2703,苏州市,吴中区,颗粒物(PM10),68,85,69,47,35,112,81,103,102,31,21,7,7,0.7,0.5
2023-01-29T19:00:00,1165A,120.543,31.2994,苏州市,苏州新区,颗粒物(PM10),60,70,64,36,35,109,81,102,101,26,17,8,8,0.7,0.6
2023-01-29T19:00:00,1166A,120.669,31.3097,苏州市,苏州工业园区,颗粒物(PM10),63,75,71,36,36,115,77,107,105,32,22,8,8,0.7,0.6
2023-01-29T19:00:00,1167A,120.641,31.3708,苏州市,相城区,颗粒物(PM10),66,82,74,38,35,114,79,106,104,32,22,10,9,0.6,0.5
2023-01-29T19:00:00,1168A,120.9098,31.9663,南通市,狼山街道,颗粒物(PM10),66,81,77,46,42,98,46,85,82,50,29,11,10,0.8,0.7
2023-01-29T19:00:00,1169A,120.86,32.0005,南通市,虹桥,细颗粒物(PM2.5),74,82,88,54,47,99,76,79,79,41,42,8,10,0.7,0.9
2023-01-29T19:00:00,1170A,120.87,32.02,南通市,城中,颗粒物(PM10),68,86,88,47,47,101,76,87,87,34,34,8,10,0.4,0.7
2023-01-29T19:00:00,1171A,120.94,31.93,南通市,星湖花园,,,87,84,46,42,88,,73,73,86,39,13,13,0.8,1.1
2023-01-29T19:00:00,1172A,120.81,32.0417,南通市,紫琅学院,颗粒物(PM10),68,86,92,48,41,91,75,83,83,25,32,8,11,0.5,0.8
2023-01-29T19:00:00,1173A,119.176,34.5885,连云港市,市环境监测站,细颗粒物(PM2.5),94,119,97,70,60,86,22,72,68,87,36,25,22,1.3,0.8
2023-01-29T19:00:00,1177A,117.179,34.2761,徐州市,黄河新村,细颗粒物(PM2.5),84,95,94,62,51,98,28,84,80,80,36,14,13,1.6,1.2
2023-01-29T19:00:00,1178A,117.1918,34.2384,徐州市,淮塔,颗粒物(PM10),61,71,88,31,47,107,76,94,94,28,35,11,10,0.5,0.7
2023-01-29T19:00:00,1180A,117.256,34.2153,徐州市,新城区,,,,92,,50,103,,91,91,29,38,12,13,0.7,1
2023-01-29T19:00:00,1181A,117.244,34.2911,徐州市,桃园路,,,70,87,,41,96,55,82,81,43,38,10,11,,0.9
2023-01-29T19:00:00,1182A,117.2933,34.2778,徐州市,农科院,颗粒物(PM10),59,68,84,39,40,99,49,88,86,58,35,11,11,0.7,0.7
2023-01-29T19:00:00,1186A,119.389,32.3761,扬州市,邗江监测站,细颗粒物(PM2.5),64,75,73,46,39,112,78,104,103,39,34,6,6,0.6,0.5
2023-01-29T19:00:00,1188A,120.269,31.4867,无锡市,雪浪,颗粒物(PM10),57,63,62,36,27,96,86,90,90,10,9,10,9,0.7,0.6
2023-01-29T19:00:00,1189A,120.275,31.6219,无锡市,黄巷,颗粒物(PM10),65,80,78,46,36,106,70,97,94,39,22,11,11,0.5,0.4
2023-01-29T19:00:00,1190A,120.294,31.56,无锡市,曹张,细颗粒物(PM2.5),55,42,67,39,32,101,54,93,87,58,41,9,10,0.7,1.2
2023-01-29T19:00:00,1191A,120.242,31.5031,无锡市,漆塘,颗粒物(PM10),54,58,52,34,27,107,76,98,97,24,20,8,8,0.9,0.8
2023-01-29T19:00:00,1192A,120.3489,31.5863,无锡市,东亭,"颗粒物(PM10),细颗粒物(PM2.5)",64,78,70,46,35,106,74,97,95,32,31,12,11,1.2,1.3
2023-01-29T19:00:00,1193A,120.354,31.5475,无锡市,旺庄,颗粒物(PM10),65,80,71,39,35,101,70,93,92,36,27,6,5,0.6,0.4
2023-01-29T19:00:00,1194A,120.245,31.5631,无锡市,荣巷,颗粒物(PM10),59,68,58,34,28,105,73,97,95,23,20,12,10,0.8,0.7
2023-01-29T19:00:00,1195A,120.299,31.6817,无锡市,堰桥,,,,73,,35,102,63,92,89,29,21,6,6,0.9,0.8
2023-01-29T19:00:00,1196A,119.9633,31.762,常州市,市监测站,颗粒物(PM10),68,86,70,46,36,103,45,95,91,57,20,7,6,0.6,0.4
2023-01-29T19:00:00,1200A,119.9468,31.7069,常州市,武进监测站,颗粒物(PM10),68,86,68,48,35,100,72,92,90,28,16,8,7,0.6,0.6
2023-01-29T19:00:00,1201A,119.9255,31.9087,常州市,安家,细颗粒物(PM2.5),70,82,74,51,43,111,71,100,98,34,28,9,8,0.6,0.5
2023-01-29T19:00:00,1203A,119.6707,32.1875,镇江市,新区办事处,颗粒物(PM10),70,89,81,46,42,110,18,88,82,92,31,2,3,0.9,0.8
2023-01-29T19:00:00,1204A,119.4974,32.1968,镇江市,职教中心,颗粒物(PM10),64,78,79,34,35,114,66,101,99,49,32,8,8,0.8,0.8
2023-01-29T19:00:00,1205A,119.4303,32.1328,镇江市,丹徒区监测站,颗粒物(PM10),60,70,76,32,36,114,91,102,102,24,26,12,5,0.5,0.5
2023-01-29T19:00:00,1206A,119.905,32.4878,泰州市,公园路,细颗粒物(PM2.5),67,70,80,48,48,114,82,102,102,23,27,43,8,0.5,0.6
2023-01-29T19:00:00,1207A,119.9189,32.4625,泰州市,莲花,细颗粒物(PM2.5),73,85,83,53,46,112,64,97,96,46,31,10,10,0.6,0.6
2023-01-29T19:00:00,1209A,119.888,32.4639,泰州市,留学生创业园,细颗粒物(PM2.5),89,119,90,66,43,108,53,93,92,52,33,11,10,0.6,0.5
2023-01-29T19:00:00,1210A,119.036,33.5981,淮安市,钵池山,细颗粒物(PM2.5),100,75,85,75,53,103,50,90,88,55,27,12,10,1.1,0.8
2023-01-29T19:00:00,1211A,119.007,33.575,淮安市,北京南路,颗粒物(PM10),91,132,103,57,50,96,17,81,75,80,37,12,11,1.1,0.8
2023-01-29T19:00:00,1212A,118.989,33.6067,淮安市,市监测站,细颗粒物(PM2.5),104,119,86,78,49,109,58,96,94,49,23,11,9,1.1,0.8
2023-01-29T19:00:00,1213A,119.135,33.5039,淮安市,楚州区监测站,颗粒物(PM10),78,105,84,53,48,102,49,88,86,54,33,10,8,0.7,0.7
2023-01-29T19:00:00,1214A,119.0186,33.6297,淮安市,淮阴区监测站,细颗粒物(PM2.5),102,94,92,76,54,100,60,90,89,42,25,12,11,0.7,0.6
2023-01-29T19:00:00,1215A,120.118,33.4022,盐城市,盐城电厂,颗粒物(PM10),70,90,74,49,39,108,89,100,99,19,15,8,8,0.6,0.5
2023-01-29T19:00:00,1216A,120.156,33.3942,盐城市,市监测站,,,,57,48,37,102,74,94,93,28,16,9,8,0.8,0.7
2023-01-29T19:00:00,1218A,120.2144,33.38,盐城市,开发区管委会,颗粒物(PM10),70,90,72,44,35,106,83,98,98,25,17,8,7,0.6,0.5
2023-01-29T19:00:00,1220A,118.293,33.9528,宿迁市,宿迁学院,,,82,110,,79,83,52,77,74,47,26,11,10,0.7,0.9
2023-01-29T19:00:00,1221A,118.2442,33.9592,宿迁市,宿迁中学,颗粒物(PM10),66,81,97,37,61,93,56,83,82,43,29,11,9,0.9,0.8
2023-01-29T19:00:00,1223A,120.2072,30.2111,杭州市,滨江,颗粒物(PM10),61,71,62,36,33,104,84,92,92,19,15,8,8,0.6,0.5
2023-01-29T19:00:00,1224A,120.0633,30.2747,杭州市,西溪,,50,50,50,27,29,106,59,95,94,20,18,4,5,0.7,0.7
2023-01-29T19:00:00,1226A,120.3461,30.3153,杭州市,下沙,颗粒物(PM10),51,51,61,29,32,105,64,94,93,43,19,7,7,0.5,0.6
2023-01-29T19:00:00,1227A,120.1269,30.2456,杭州市,卧龙桥,,44,44,43,22,26,105,30,90,85,40,17,6,7,0.6,0.5
2023-01-29T19:00:00,1228A,120.1903,30.2692,杭州市,浙江农大,颗粒物(PM10),54,58,54,35,34,103,51,89,87,42,22,6,7,0.6,0.5
2023-01-29T19:00:00,1230A,120.1197,30.3119,杭州市,和睦小学,颗粒物(PM10),63,76,63,44,39,104,56,92,90,23,25,6,6,0.7,0.7
2023-01-29T19:00:00,1231A,120.3019,30.4183,杭州市,临平镇,颗粒物(PM10),63,76,65,38,30,111,77,99,99,24,21,9,8,0.7,0.6
2023-01-29T19:00:00,1232A,120.2697,30.1819,杭州市,城厢镇,细颗粒物(PM2.5),67,67,60,48,37,99,71,89,88,34,20,8,7,0.6,0.5
2023-01-29T19:00:00,1233A,120.0883,30.1808,杭州市,云栖,,41,41,44,24,24,101,53,92,89,22,10,5,6,0.5,0.5
2023-01-29T19:00:00,1234A,121.8358,29.911,宁波市,区环保大楼,细颗粒物(PM2.5),59,63,51,42,33,104,46,96,90,61,20,10,9,0.7,0.6
2023-01-29T19:00:00,1235A,121.56,29.82,宁波市,万里学院,细颗粒物(PM2.5),58,60,57,41,32,110,93,104,104,24,17,7,7,0.4,0.5
2023-01-29T19:00:00,1236A,121.713,29.9572,宁波市,龙赛医院,颗粒物(PM10),60,70,64,32,32,105,71,97,96,36,17,9,8,0.5,0.4
2023-01-29T19:00:00,1239A,121.633,29.7733,宁波市,钱湖水厂,颗粒物(PM10),52,54,49,26,35,104,92,99,99,15,9,8,7,0.6,0.7
2023-01-29T19:00:00,1240A,121.5856,29.8635,宁波市,太古小学,细颗粒物(PM2.5),73,68,60,53,33,111,81,102,102,29,20,9,8,0.7,0.8
2023-01-29T19:00:00,1241A,121.524,29.8674,宁波市,市环境监测中心,细颗粒物(PM2.5),55,57,58,39,29,101,72,91,91,31,19,6,6,0.4,0.4
2023-01-29T19:00:00,1242A,120.634,28.0089,温州市,瓯海,颗粒物(PM10),56,62,56,39,34,100,88,92,92,22,17,7,7,0.5,0.4
2023-01-29T19:00:00,1243A,120.6748,27.9939,温州市,南浦,"颗粒物(PM10),细颗粒物(PM2.5)",54,57,55,38,36,102,90,95,95,21,16,8,8,0.4,0.4
2023-01-29T19:00:00,1244A,120.76,27.9747,温州市,龙湾,颗粒物(PM10),55,60,62,30,32,109,98,100,100,15,20,8,7,0.5,0.6
2023-01-29T19:00:00,1245A,120.6709,28.0167,温州市,市站,颗粒物(PM10),51,52,56,30,33,103,95,96,96,21,18,7,7,0.4,0.4
2023-01-29T19:00:00,1247A,120.6053,29.9928,绍兴市,城东开发委,颗粒物(PM10),58,66,56,32,31,108,32,100,91,71,20,5,5,0.8,0.6
2023-01-29T19:00:00,1250A,120.0751,30.8669,湖州市,城西水厂,,47,47,50,24,23,100,79,90,90,26,28,6,6,0.3,0.4
2023-01-29T19:00:00,1252A,120.7436,30.778,嘉兴市,清河小学,,48,48,60,27,31,97,74,89,89,34,30,9,10,0.1,0.6
2023-01-29T19:00:00,1253A,120.726,30.7478,嘉兴市,嘉兴学院,颗粒物(PM10),53,55,64,33,36,106,73,97,97,38,19,8,9,0.6,0.6
2023-01-29T19:00:00,1255A,121.273,28.6459,台州市,黄岩环保大楼,细颗粒物(PM2.5),65,76,65,47,34,106,95,102,102,20,14,9,9,0.5,0.4
2023-01-29T19:00:00,1256A,121.419,28.6542,台州市,台州环保大楼,细颗粒物(PM2.5),75,91,72,55,43,115,93,104,104,25,17,13,10,0.6,0.5
2023-01-29T19:00:00,1257A,121.377,28.5773,台州市,路桥田洋王,细颗粒物(PM2.5),99,106,73,74,46,111,91,104,104,21,18,20,9,0.5,0.5
2023-01-29T19:00:00,1258A,122.122,30.0203,舟山市,定海檀枫,颗粒物(PM10),55,60,50,30,26,105,62,97,94,46,26,4,5,0.6,0.5
2023-01-29T19:00:00,1259A,122.3094,29.9558,舟山市,普陀东港,颗粒物(PM10),51,51,53,28,28,104,93,97,97,15,19,6,7,0.4,0.5
2023-01-29T19:00:00,1260A,122.19,29.9944,舟山市,临城新区,颗粒物(PM10),51,52,51,26,27,113,105,107,107,16,20,6,6,0.1,0.3
2023-01-29T19:00:00,1262A,119.647,29.077,金华市,十五中,细颗粒物(PM2.5),52,48,53,36,34,102,75,91,91,30,15,8,7,0.6,0.5
2023-01-29T19:00:00,1263A,119.686,29.1029,金华市,监测站,,46,46,50,30,34,104,82,93,93,22,15,8,7,0.5,0.5
2023-01-29T19:00:00,1264A,118.8692,28.9398,衢州市,环保大楼,颗粒物(PM10),57,64,50,35,31,91,67,86,84,16,13,5,5,0.4,0.4
2023-01-29T19:00:00,1265A,118.8709,28.9666,衢州市,实验学校,,46,46,51,25,31,95,74,87,87,18,19,9,6,0.3,0.4
2023-01-29T19:00:00,1266A,118.8621,28.9808,衢州市,衢州学院,颗粒物(PM10),52,54,52,25,28,92,73,86,86,16,25,6,5,0.4,0.4
2023-01-29T19:00:00,1267A,119.914,28.4514,丽水市,监测站大楼,,49,49,39,33,24,96,75,85,85,15,9,9,8,0.4,0.3
2023-01-29T19:00:00,1268A,119.93,28.4586,丽水市,莲都小学,,45,43,41,31,22,102,91,93,93,8,8,9,8,0.4,0.4
2023-01-29T19:00:00,1269A,119.879,28.4231,丽水市,余庄前,颗粒物(PM10),54,58,46,27,25,94,51,83,82,9,7,8,8,0.4,0.4
2023-01-29T19:00:00,1270A,117.1959,31.7848,合肥市,明珠广场,颗粒物(PM10),56,61,65,24,32,102,42,86,84,68,33,6,5,0.9,0.6
2023-01-29T19:00:00,1271A,117.3072,31.8764,合肥市,三里街,颗粒物(PM10),54,58,79,30,44,95,23,80,78,84,58,6,6,1.0,0.8
2023-01-29T19:00:00,1272A,117.2588,31.8707,合肥市,琥珀山庄,颗粒物(PM10),57,63,74,27,38,101,24,88,82,89,56,5,5,1.0,0.7
2023-01-29T19:00:00,1273A,117.1604,31.9052,合肥市,董铺水库,颗粒物(PM10),57,63,64,24,23,95,92,90,90,8,21,5,4,0.3,0.3
2023-01-29T19:00:00,1274A,117.25,31.8571,合肥市,长江中路,颗粒物(PM10),52,53,64,27,31,101,72,89,89,32,29,10,10,0.9,0.7
2023-01-29T19:00:00,1275A,117.266,31.9436,合肥市,庐阳区,颗粒物(PM10),57,63,66,29,23,96,92,92,92,13,15,8,7,0.4,0.4
2023-01-29T19:00:00,1276A,117.336,31.8586,合肥市,瑶海区,颗粒物(PM10),56,61,96,22,34,94,59,81,81,46,47,7,6,0.5,0.5
2023-01-29T19:00:00,1277A,117.3027,31.7964,合肥市,包河区,颗粒物(PM10),51,51,66,24,33,97,18,82,77,86,37,7,6,0.6,0.5
2023-01-29T19:00:00,1278A,117.2776,31.7385,合肥市,滨湖新区,颗粒物(PM10),56,61,68,19,30,97,56,82,82,50,43,12,12,0.6,0.5
2023-01-29T19:00:00,1279A,117.1318,31.8403,合肥市,高新区,颗粒物(PM10),52,53,61,29,28,100,70,91,90,32,22,8,7,0.6,0.5
2023-01-29T19:00:00,1280A,119.3903,26.0543,福州市,鼓山,,,,,,,,,,,,,,,,
2023-01-29T19:00:00,1282A,119.2681,26.0504,福州市,师大,颗粒物(PM10),56,62,43,32,26,105,96,101,101,20,10,6,5,0.5,0.4
2023-01-29T19:00:00,1283A,119.2984,26.1028,福州市,五四北路,颗粒物(PM10),57,64,41,32,26,103,87,98,98,25,11,4,4,0.6,0.5
2023-01-29T19:00:00,1284A,119.2648,26.0768,福州市,杨桥西路,颗粒物(PM10),57,63,44,31,24,107,98,103,103,16,8,5,4,0.6,0.6
2023-01-29T19:00:00,1285A,119.317,26.0746,福州市,紫阳,颗粒物(PM10),54,57,45,28,26,103,92,98,98,18,10,5,4,0.6,0.5
2023-01-29T19:00:00,1286A,118.1608,24.8169,厦门市,溪东,,,,,,,,,,,,,,,,
2023-01-29T19:00:00,1287A,118.1514,24.4767,厦门市,洪文,,44,44,46,27,20,115,100,105,105,14,11,2,3,0.6,0.6
2023-01-29T19:00:00,1288A,118.0661,24.4444,厦门市,鼓浪屿,,46,46,46,26,23,123,112,112,112,15,15,4,4,0.5,0.5
2023-01-29T19:00:00,1290A,115.8931,28.6843,南昌市,省外办,颗粒物(PM10),68,85,77,44,41,120,90,111,111,29,28,8,8,0.9,0.8
2023-01-29T19:00:00,1291A,115.8886,28.7003,南昌市,省林业公司,细颗粒物(PM2.5),58,63,74,41,42,110,91,101,101,32,31,6,6,0.8,0.8
2023-01-29T19:00:00,1292A,115.8126,28.7442,南昌市,林科所,颗粒物(PM10),63,75,66,41,33,116,39,106,101,72,28,9,7,0.6,0.5
2023-01-29T19:00:00,1294A,115.8518,28.687,南昌市,建工学校,颗粒物(PM10),67,83,74,30,30,117,77,104,104,43,26,10,10,1.0,0.7
2023-01-29T19:00:00,1295A,115.8921,28.6424,南昌市,象湖,细颗粒物(PM2.5),57,55,68,40,43,113,60,102,100,51,30,7,7,0.7,0.6
2023-01-29T19:00:00,1296A,115.7423,28.7996,南昌市,武术学校,,46,39,40,32,26,106,82,96,96,9,5,6,5,0.4,0.5
2023-01-29T19:00:00,1298A,115.9314,28.6842,南昌市,省站,细颗粒物(PM2.5),79,87,91,58,49,115,86,108,107,22,29,11,10,0.6,0.7
2023-01-29T19:00:00,1299A,116.9862,36.6114,济南市,科干所,颗粒物(PM10),75,100,73,37,26,85,43,85,72,47,19,28,16,0.7,0.5
2023-01-29T19:00:00,1300A,116.9376,36.665,济南市,农科所,颗粒物(PM10),94,137,81,46,24,81,11,69,62,94,27,130,23,1.4,0.7
2023-01-29T19:00:00,1301A,117.1265,36.6734,济南市,开发区,颗粒物(PM10),89,127,67,44,25,84,8,84,62,85,19,15,17,1.2,0.8
2023-01-29T19:00:00,1303A,117.0624,36.6868,济南市,省种子仓库,颗粒物(PM10),89,127,68,41,25,86,19,81,70,71,16,16,17,0.9,0.5
2023-01-29T19:00:00,1304A,116.9489,36.6447,济南市,机床二厂,颗粒物(PM10),85,120,82,42,28,86,17,81,70,78,22,21,23,1.0,0.6
2023-01-29T19:00:00,1305A,117.0495,36.663,济南市,市监测站,颗粒物(PM10),86,122,70,39,26,89,8,89,69,89,24,13,14,1.1,0.7
2023-01-29T19:00:00,1306A,116.7675,36.5484,济南市,长清党校,颗粒物(PM10),74,98,76,37,30,89,60,83,81,36,18,12,14,0.8,0.6
2023-01-29T19:00:00,1307A,120.6659,36.2403,青岛市,仰口,颗粒物(PM10),102,153,72,34,23,82,72,79,78,11,10,10,11,0.6,0.7
2023-01-29T19:00:00,1310A,120.4134,36.0658,青岛市,市南区东部子站,颗粒物(PM10),115,180,94,27,27,80,60,71,71,26,32,10,14,0.5,0.6
2023-01-29T19:00:00,1311A,120.3664,36.1032,青岛市,四方区子站,颗粒物(PM10),112,173,101,29,34,73,45,65,64,30,39,10,12,0.6,0.7
2023-01-29T19:00:00,1312A,120.2994,36.054,青岛市,市南区西部子站,颗粒物(PM10),114,178,96,24,26,85,68,76,76,18,37,9,15,0.6,0.7
2023-01-29T19:00:00,1313A,120.4581,36.0858,青岛市,崂山区子站,颗粒物(PM10),108,166,97,27,24,85,66,78,78,22,31,12,13,0.5,0.6
2023-01-29T19:00:00,1314A,120.1983,35.9608,青岛市,黄岛区子站,颗粒物(PM10),106,161,87,29,30,84,22,79,71,64,31,8,11,0.4,0.5
2023-01-29T19:00:00,1315A,120.3999,36.3083,青岛市,城阳区子站,颗粒物(PM10),103,156,99,34,28,80,46,70,69,30,33,11,13,0.6,0.7
2023-01-29T19:00:00,1316A,113.69031,34.76122,郑州市,烟厂,细颗粒物(PM2.5),73,57,65,53,29,90,23,84,77,72,14,10,9,0.7,0.5
2023-01-29T19:00:00,1317A,113.65724,34.77134,郑州市,郑纺机,颗粒物(PM10),61,71,70,42,27,89,42,82,78,67,21,7,7,0.8,0.5
2023-01-29T19:00:00,1318A,113.67526,34.80246,郑州市,银行学校,细颗粒物(PM2.5),59,62,67,42,35,94,44,86,82,62,17,9,9,0.1,0.3
2023-01-29T19:00:00,1319A,113.56746,34.81334,郑州市,供水公司,颗粒物(PM10),54,58,68,26,29,93,80,87,87,23,16,8,10,0.5,0.5
2023-01-29T19:00:00,1320A,113.7329,34.7178,郑州市,经开区管委,颗粒物(PM10),59,68,62,40,31,92,47,85,82,49,16,10,10,0.6,0.4
2023-01-29T19:00:00,1321A,113.73961,34.77172,郑州市,四十七中,细颗粒物(PM2.5),63,66,59,45,27,91,41,83,78,59,18,11,10,0.6,0.3
2023-01-29T19:00:00,1322A,113.60532,34.74838,郑州市,市监测站,颗粒物(PM10),58,65,62,31,28,88,42,80,76,58,15,7,8,0.6,0.4
2023-01-29T19:00:00,1323A,113.64164,34.7525,郑州市,河医大,颗粒物(PM10),64,77,68,39,29,90,27,82,76,73,12,6,7,0.8,0.5
2023-01-29T19:00:00,1324A,113.51488,34.91089,郑州市,岗李水库,,,,,,,,,,,,,,,,
2023-01-29T19:00:00,1325A,114.3677,30.5584,武汉市,东湖梨园,细颗粒物(PM2.5),80,70,73,59,51,132,118,118,118,29,35,9,9,0.6,0.7
2023-01-29T19:00:00,1326A,114.2529,30.558,武汉市,汉阳月湖,细颗粒物(PM2.5),83,95,97,61,54,115,63,100,95,60,67,7,7,0.9,0.9
2023-01-29T19:00:00,1327A,114.282,30.6189,武汉市,汉口花桥,"颗粒物(PM10),细颗粒物(PM2.5)",74,98,96,54,60,127,64,106,106,65,65,8,10,0.9,0.9
2023-01-29T19:00:00,1328A,114.3025,30.5332,武汉市,武昌紫阳,细颗粒物(PM2.5),92,80,87,68,57,114,92,102,102,40,65,9,7,0.6,1.1
2023-01-29T19:00:00,1329A,114.3646,30.6217,武汉市,青山钢花,细颗粒物(PM2.5),73,94,106,53,70,135,43,110,109,93,61,10,10,1.2,0.9
2023-01-29T19:00:00,1330A,114.1566,30.4825,武汉市,沌口新区,细颗粒物(PM2.5),104,88,85,78,62,114,70,99,99,66,45,10,10,0.9,0.8
2023-01-29T19:00:00,1331A,114.3014,30.5944,武汉市,汉口江滩,细颗粒物(PM2.5),85,89,89,63,54,126,67,106,106,61,50,10,9,0.9,0.8
2023-01-29T19:00:00,1333A,114.135,30.6319,武汉市,吴家山,细颗粒物(PM2.5),89,99,100,66,64,137,89,120,120,49,51,10,9,0.8,0.8
2023-01-29T19:00:00,1334A,113.8454,30.2917,武汉市,沉湖七壕,细颗粒物(PM2.5),72,83,90,52,54,126,106,114,114,16,25,12,10,0.7,0.7
2023-01-29T19:00:00,1335A,113.0833,28.2325,长沙市,经开区环保局,细颗粒物(PM2.5),79,96,102,58,62,112,94,99,99,28,24,4,4,0.9,0.6
2023-01-29T19:00:00,1336A,112.8872,28.2189,长沙市,高开区环保局,,,86,111,,73,112,99,101,101,24,37,8,14,0.7,1
2023-01-29T19:00:00,1337A,113.0792,28.2053,长沙市,马坡岭,细颗粒物(PM2.5),79,70,110,58,67,123,65,102,102,45,37,8,9,0.9,0.7
2023-01-29T19:00:00,1338A,112.9394,28.19,长沙市,湖南师范大学,细颗粒物(PM2.5),72,90,111,52,66,106,70,90,90,23,24,6,10,0.0,0.3
2023-01-29T19:00:00,1339A,113.0178,28.1322,长沙市,雨花区环保局,颗粒物(PM10),66,82,113,45,72,104,99,96,96,23,35,5,5,0.4,0.7
2023-01-29T19:00:00,1340A,112.9792,28.2597,长沙市,伍家岭,细颗粒物(PM2.5),89,111,128,66,80,111,37,83,83,87,46,7,8,1.1,0.8
2023-01-29T19:00:00,1341A,113.0014,28.1944,长沙市,火车新站,颗粒物(PM10),71,91,123,46,75,98,58,79,79,61,52,7,9,0.9,0.9
2023-01-29T19:00:00,1342A,112.9844,28.1178,长沙市,天心区环保局,颗粒物(PM10),72,94,113,48,68,116,83,100,100,46,46,9,10,0.7,0.7
2023-01-29T19:00:00,1343A,112.8908,28.1308,长沙市,湖南中医药大学,,,,107,58,69,118,57,99,99,52,37,6,8,1.0,0.9
2023-01-29T19:00:00,1344A,112.9581,28.3611,长沙市,沙坪,颗粒物(PM10),63,75,87,44,46,111,76,94,94,29,21,6,6,0.7,0.6
2023-01-29T19:00:00,1345A,113.2347,23.1423,广州市,广雅中学,颗粒物(PM10),59,68,62,38,31,108,80,102,101,34,23,5,5,0.6,0.4
2023-01-29T19:00:00,1346A,113.2612,23.105,广州市,市五中,"颗粒物(PM10),细颗粒物(PM2.5)",60,69,56,43,31,111,89,105,104,24,12,7,6,0.7,0.5
2023-01-29T19:00:00,1348A,113.3478,23.0916,广州市,广东商学院,,40,40,50,23,25,115,92,105,105,18,12,6,6,0.5,0.5
2023-01-29T19:00:00,1349A,113.4332,23.1047,广州市,市八十六中,,47,47,59,28,28,108,93,100,100,8,11,4,4,0.3,0.4
2023-01-29T19:00:00,1350A,113.3505,22.9483,广州市,番禺中学,,50,50,57,26,28,118,87,106,105,28,15,4,4,0.5,0.4
2023-01-29T19:00:00,1351A,113.2146,23.3916,广州市,花都师范,颗粒物(PM10),51,52,56,26,28,119,106,111,111,13,9,6,6,0.7,0.7
2023-01-29T19:00:00,1352A,113.2597,23.1331,广州市,市监测站,颗粒物(PM10),54,58,58,33,28,109,87,104,103,30,15,7,6,0.8,0.6
2023-01-29T19:00:00,1353A,113.5618,23.312,广州市,九龙镇镇龙,,49,49,52,27,28,95,87,92,92,12,11,5,4,0.7,0.7
2023-01-29T19:00:00,1354A,113.2765,23.1544,广州市,麓湖,,47,47,50,25,26,112,84,106,105,20,12,5,5,0.4,0.4
2023-01-29T19:00:00,1355A,113.443,23.3035,广州市,帽峰山森林公园,,46,46,55,24,26,100,89,95,95,8,3,6,5,0.6,0.5
2023-01-29T19:00:00,1356A,114.1063,22.5545,深圳市,通心岭子站,,49,49,53,25,27,107,87,98,98,13,9,4,4,0.8,0.6
2023-01-29T19:00:00,1357A,114.117,22.5625,深圳市,洪湖,颗粒物(PM10),53,56,58,24,27,118,93,107,107,20,12,8,8,0.3,0.3
2023-01-29T19:00:00,1358A,113.987,22.5417,深圳市,华侨城,,46,46,54,26,28,115,98,105,105,16,12,4,4,0.4,0.3
2023-01-29T19:00:00,1359A,113.9181,22.5171,深圳市,南海子站,颗粒物(PM10),53,56,56,31,27,104,92,97,97,15,14,6,6,0.5,0.6
2023-01-29T19:00:00,1360A,114.2458,22.5689,深圳市,盐田,,43,43,49,23,25,102,93,94,94,9,7,6,6,0.4,0.4
2023-01-29T19:00:00,1361A,114.2283,22.7244,深圳市,龙岗,,48,48,56,24,27,113,101,105,105,8,4,4,5,0.6,0.5
2023-01-29T19:00:00,1363A,114.494,22.5422,深圳市,南澳,,44,44,47,23,21,113,75,105,102,11,9,2,2,0.6,0.6
2023-01-29T19:00:00,1364A,114.41,22.6342,深圳市,葵涌,,44,44,55,24,26,97,81,91,91,11,8,7,7,0.6,0.6
2023-01-29T19:00:00,1365A,114.297,22.5978,深圳市,梅沙,,48,48,55,28,26,113,104,107,107,9,6,5,5,0.5,0.7
2023-01-29T19:00:00,1366A,114.0678,22.738,深圳市,观澜,颗粒物(PM10),53,56,63,25,28,116,102,110,110,11,11,5,5,0.5,0.5
2023-01-29T19:00:00,1367A,113.5814,22.2618,珠海市,吉大,颗粒物(PM10),54,58,59,28,25,123,105,111,111,14,9,9,8,0.4,0.4
2023-01-29T19:00:00,1368A,113.4881,22.2335,珠海市,前山,颗粒物(PM10),54,58,53,25,28,112,95,102,102,23,16,6,5,0.3,0.4
2023-01-29T19:00:00,1369A,113.628,22.4251,珠海市,唐家,,47,47,53,26,26,124,101,111,111,10,9,9,9,0.4,0.4
2023-01-29T19:00:00,1370A,113.299,22.2281,珠海市,斗门,颗粒物(PM10),55,59,51,34,28,110,100,102,102,19,14,4,4,0.4,0.5
2023-01-29T19:00:00,1371A,113.1294,23.0067,佛山市,湾梁,,46,46,51,28,26,118,108,112,112,12,12,5,5,0.6,0.5
2023-01-29T19:00:00,1372A,113.1083,23.0478,佛山市,华材职中,,44,44,49,30,30,115,92,109,108,26,20,8,8,0.5,0.5
2023-01-29T19:00:00,1373A,113.144,23.0453,佛山市,南海气象局,颗粒物(PM10),53,56,50,33,29,106,96,100,100,13,13,5,5,0.5,0.4
2023-01-29T19:00:00,1374A,113.2881,22.8094,佛山市,顺德苏岗,颗粒物(PM10),51,52,43,29,24,106,85,95,95,19,15,7,8,0.8,0.7
2023-01-29T19:00:00,1376A,112.8383,22.8678,佛山市,高明孔堂,细颗粒物(PM2.5),53,37,60,37,31,112,94,104,104,8,8,4,5,0.4,0.5
2023-01-29T19:00:00,1377A,112.8836,23.1588,佛山市,三水监测站,颗粒物(PM10),54,58,55,35,29,110,91,102,102,21,15,5,6,0.6,0.5
2023-01-29T19:00:00,1378A,112.867,23.185,佛山市,三水云东海,,45,45,45,24,26,107,78,98,97,18,13,5,6,0.5,0.4
2023-01-29T19:00:00,1379A,113.3769,22.5211,中山市,华柏园,颗粒物(PM10),59,67,51,30,28,110,102,102,102,21,20,6,6,0.7,0.7
2023-01-29T19:00:00,1380A,113.3881,22.5497,中山市,张溪,,49,39,55,34,31,115,102,105,105,21,14,5,5,0.4,0.3
2023-01-29T19:00:00,1381A,113.4075,22.5111,中山市,紫马岭,,45,45,49,31,28,111,95,102,102,15,12,4,4,0.6,0.6
2023-01-29T19:00:00,1382A,113.4411,22.4853,中山市,长江旅游区,,,,,,,,,,,,,,,,
2023-01-29T19:00:00,1383A,113.1064,22.6058,江门市,北街,,40,40,54,24,25,120,109,111,111,14,15,8,9,0.6,0.6
2023-01-29T19:00:00,1384A,113.0731,22.5835,江门市,西区,,45,43,62,31,28,120,99,108,108,24,20,8,8,0.5,0.4
2023-01-29T19:00:00,1385A,113.0219,22.5311,江门市,圭峰西,颗粒物(PM10),51,51,53,27,26,115,105,107,107,14,14,4,4,0.6,0.5
2023-01-29T19:00:00,1386A,113.0828,22.5947,江门市,东湖,,48,48,57,28,27,121,104,111,111,14,15,7,8,0.5,0.5
2023-01-29T19:00:00,1389A,113.7547,23.0494,东莞市,莞城梨川,,48,48,50,26,27,103,84,100,99,21,10,9,10,0.5,0.4
2023-01-29T19:00:00,1390A,113.7944,23.0128,东莞市,东城石井,,36,36,46,19,23,105,81,98,97,5,6,5,6,0.3,0.3
2023-01-29T19:00:00,1391A,113.7383,22.9658,东莞市,南城西平,,42,42,53,23,28,103,91,98,98,13,11,8,9,0.3,0.4
2023-01-29T19:00:00,1392A,114.4183,23.0528,惠州市,河南岸金山湖子站,颗粒物(PM10),58,66,52,33,27,102,89,95,95,13,9,4,7,0.7,0.6
2023-01-29T19:00:00,1393A,114.4053,23.0822,惠州市,下埔横江三路子站,,43,38,51,30,24,108,91,100,100,17,9,4,5,0.8,0.7
2023-01-29T19:00:00,1394A,114.4103,23.1142,惠州市,江北云山西路子站,,40,40,54,28,30,112,98,105,105,9,4,5,5,0.5,0.6
2023-01-29T19:00:00,1395A,114.4645,22.7833,惠州市,惠阳区承修路船湖子站,颗粒物(PM10),56,61,58,32,30,107,97,100,100,15,9,5,5,0.8,0.7
2023-01-29T19:00:00,1396A,114.5317,22.7422,惠州市,大亚湾管委会子站,,49,49,52,29,26,96,91,93,93,17,12,5,5,0.7,0.7
2023-01-29T19:00:00,1397A,112.4267,23.0706,肇庆市,睦岗子站,颗粒物(PM10),56,62,60,30,31,115,88,105,105,30,33,9,8,0.4,0.4
2023-01-29T19:00:00,1398A,112.4645,23.0475,肇庆市,城中子站,颗粒物(PM10),54,57,60,32,29,117,106,111,111,16,18,9,9,0.5,0.4
2023-01-29T19:00:00,1399A,112.5544,23.1522,肇庆市,坑口子站,,50,50,48,31,28,114,88,105,105,14,14,8,9,0.4,0.4
2023-01-29T19:00:00,1400A,112.4753,23.1,肇庆市,七星岩子站,颗粒物(PM10),53,56,59,25,25,114,110,108,108,4,7,5,4,0.6,0.6
2023-01-29T19:00:00,1401A,108.3103,22.7881,南宁市,二十一中,颗粒物(PM10),62,74,81,43,53,116,98,99,99,23,20,8,9,0.8,0.9
2023-01-29T19:00:00,1402A,108.3141,22.8528,南宁市,北湖,细颗粒物(PM2.5),72,69,85,52,52,116,83,102,102,30,23,8,10,0.8,0.7
2023-01-29T19:00:00,1403A,108.3206,22.8225,南宁市,市监测站,细颗粒物(PM2.5),63,70,84,45,50,118,94,100,100,38,28,8,10,0.8,0.8
2023-01-29T19:00:00,1404A,108.3829,22.8037,南宁市,大自然花园,颗粒物(PM10),60,69,77,42,49,111,84,96,96,30,20,6,7,0.9,0.8
2023-01-29T19:00:00,1405A,108.4394,22.7904,南宁市,仙葫,细颗粒物(PM2.5),64,71,78,46,46,102,71,89,89,36,19,7,8,0.5,0.6
2023-01-29T19:00:00,1406A,108.2397,22.8467,南宁市,区农职院,细颗粒物(PM2.5),69,75,67,50,44,119,83,100,100,34,19,8,8,0.9,0.9
2023-01-29T19:00:00,1407A,108.3275,22.735,南宁市,英华嘉园,,,87,79,55,49,105,48,82,81,66,24,7,8,,0.8
2023-01-29T19:00:00,1408A,108.2257,22.7757,南宁市,沙井镇街道办,细颗粒物(PM2.5),72,83,83,52,48,111,83,100,100,34,32,7,9,0.8,0.9
2023-01-29T19:00:00,1409A,110.576,19.9507,海口市,东寨港,,,49,53,22,23,74,66,71,71,,,6,6,0.6,0.6
2023-01-29T19:00:00,1410A,110.3232,20.0574,海口市,海南大学,颗粒物(PM10),60,69,62,27,29,109,109,106,106,10,11,5,5,0.5,0.5
2023-01-29T19:00:00,1411A,110.283,20.0053,海口市,秀英海南医院,颗粒物(PM10),58,65,68,24,31,116,112,111,111,11,16,7,7,0.5,0.6
2023-01-29T19:00:00,1412A,110.338,19.9969,海口市,海南师范大学,颗粒物(PM10),59,67,65,25,28,118,116,114,114,7,10,4,4,0.6,0.6
2023-01-29T19:00:00,1413A,110.33,20.0356,海口市,龙华路环保局宿舍,"颗粒物(PM10),细颗粒物(PM2.5)",60,69,65,43,31,107,106,102,102,11,11,6,6,0.6,0.6
2023-01-29T19:00:00,1414A,106.3787,29.8279,重庆市,缙云山,颗粒物(PM10),68,85,88,47,51,106,101,106,84,28,27,3,4,0.5,0.5
2023-01-29T19:00:00,1416A,106.4213,29.8253,重庆市,天生,细颗粒物(PM2.5),73,86,104,53,74,111,105,86,86,25,39,7,6,0.6,0.9
2023-01-29T19:00:00,1417A,106.6263,29.7228,重庆市,两路,,,,114,,75,97,,72,72,59,55,17,11,1.5,1.3
2023-01-29T19:00:00,1418A,106.2953,29.5983,重庆市,虎溪,细颗粒物(PM2.5),73,85,95,53,85,88,76,60,60,38,31,5,5,0.4,0.6
2023-01-29T19:00:00,1419A,106.5777,29.5102,重庆市,南坪,颗粒物(PM10),68,86,101,44,69,108,100,84,84,17,25,6,10,0.8,1.1
2023-01-29T19:00:00,1420A,106.6556,29.6277,重庆市,唐家沱,细颗粒物(PM2.5),94,120,98,70,68,116,96,85,85,39,42,11,5,0.7,0.6
2023-01-29T19:00:00,1421A,106.6349,29.4906,重庆市,茶园,细颗粒物(PM2.5),94,118,101,70,67,85,62,63,63,46,38,5,5,0.8,0.8
2023-01-29T19:00:00,1422A,106.3754,29.4572,重庆市,白市驿,颗粒物(PM10),71,92,104,46,65,115,96,96,96,29,17,7,8,0.5,0.7
2023-01-29T19:00:00,1425A,106.6205,29.7166,重庆市,空港,颗粒物(PM10),83,116,108,50,77,83,53,56,56,51,44,17,8,1.4,1.1
2023-01-29T19:00:00,1426A,106.4782,29.4875,重庆市,新山村,颗粒物(PM10),78,105,114,54,75,100,65,75,75,67,54,9,12,0.7,0.9
2023-01-29T19:00:00,1427A,106.5616,29.6453,重庆市,礼嘉,颗粒物(PM10),81,112,132,48,66,109,80,74,74,57,71,7,6,0.7,1.1
2023-01-29T19:00:00,1428A,106.4522,29.7091,重庆市,蔡家,颗粒物(PM10),77,104,99,54,67,113,75,75,75,34,34,6,6,0.8,1
2023-01-29T19:00:00,1429A,106.5093,29.3917,重庆市,鱼新街,细颗粒物(PM2.5),69,74,99,50,66,105,75,74,74,44,36,8,10,1.1,1.3
2023-01-29T19:00:00,1431A,103.9728,30.7236,成都市,金泉两河,细颗粒物(PM2.5),109,93,89,82,62,116,55,90,90,44,42,1,2,0.8,1.1
2023-01-29T19:00:00,1432A,104.176,30.6872,成都市,十里店,细颗粒物(PM2.5),84,103,95,62,60,110,104,89,89,16,45,3,2,0.7,0.9
2023-01-29T19:00:00,1433A,104.079,30.5706,成都市,三瓦窑,细颗粒物(PM2.5),84,110,98,62,64,109,99,90,90,20,42,5,4,0.7,0.9
2023-01-29T19:00:00,1434A,104.1114,30.63,成都市,沙河铺,细颗粒物(PM2.5),94,114,105,70,71,116,58,88,88,24,37,3,3,0.8,1
2023-01-29T19:00:00,1437A,104.0786,30.6531,成都市,君平街,细颗粒物(PM2.5),110,110,100,83,75,119,93,96,96,35,53,3,4,0.7,1
2023-01-29T19:00:00,1438A,103.613,31.0283,成都市,灵岩寺,颗粒物(PM10),69,87,67,48,34,113,113,102,102,14,11,8,10,0.6,0.6
2023-01-29T19:00:00,1439A,106.6899,26.5998,贵阳市,马鞍山,细颗粒物(PM2.5),58,51,61,41,44,105,71,91,91,29,17,12,12,0.6,0.6
2023-01-29T19:00:00,1440A,106.6971,26.5694,贵阳市,市环保站,,,56,68,51,56,103,17,84,80,105,29,32,20,1.1,0.6
2023-01-29T19:00:00,1441A,106.6243,26.6266,贵阳市,鉴湖路,颗粒物(PM10),57,63,69,29,38,116,96,98,98,26,18,14,14,0.6,0.5
2023-01-29T19:00:00,1442A,106.7487,26.6343,贵阳市,燕子冲,细颗粒物(PM2.5),67,61,67,48,50,111,73,90,90,24,14,12,11,0.6,0.5
2023-01-29T19:00:00,1443A,106.6555,26.4365,贵阳市,碧云窝,颗粒物(PM10),56,61,74,34,41,116,97,100,100,13,14,21,26,0.6,0.7
2023-01-29T19:00:00,1444A,106.694,26.5161,贵阳市,中院村,颗粒物(PM10),59,68,81,34,47,106,74,87,87,40,29,35,37,1.0,0.8
2023-01-29T19:00:00,1445A,106.7109,26.6027,贵阳市,红边门,细颗粒物(PM2.5),70,78,73,51,53,105,58,89,89,65,26,55,32,1.2,0.8
2023-01-29T19:00:00,1446A,106.7164,26.5699,贵阳市,新华路,细颗粒物(PM2.5),58,63,78,41,46,112,40,86,86,80,26,29,22,1.2,0.6
2023-01-29T19:00:00,1447A,106.674,26.5424,贵阳市,太慈桥,颗粒物(PM10),58,66,71,29,37,112,80,94,94,31,19,9,13,0.6,0.6
2023-01-29T19:00:00,1450A,102.8204,24.8886,昆明市,呈贡新区,细颗粒物(PM2.5),58,48,40,41,39,119,109,96,96,18,14,9,8,0.9,0.8
2023-01-29T19:00:00,1451A,102.6251,24.9608,昆明市,西山森林公园,细颗粒物(PM2.5),59,16,40,42,25,117,96,95,95,17,16,12,7,1.0,1.1
2023-01-29T19:00:00,1452A,102.7252,25.0902,昆明市,龙泉镇,,46,41,38,32,29,115,81,91,91,31,16,7,6,1.0,1
2023-01-29T19:00:00,1453A,102.7266,25.0375,昆明市,东风东路,细颗粒物(PM2.5),65,46,40,47,34,109,89,88,88,36,18,11,9,1.0,0.9
2023-01-29T19:00:00,1454A,102.6742,25.0669,昆明市,金鼎山,细颗粒物(PM2.5),54,48,42,38,35,120,100,96,96,30,13,9,7,0.9,0.8
2023-01-29T19:00:00,1455A,102.6644,25.0401,昆明市,碧鸡广场,细颗粒物(PM2.5),62,55,42,44,33,120,100,96,96,31,17,6,5,1.1,0.9
2023-01-29T19:00:00,1456A,91.1319,29.6514,拉萨市,八廓街,,30,10,23,2,6,100,96,93,93,7,6,7,6,0.2,0.2
2023-01-29T19:00:00,1457A,91.1221,29.6747,拉萨市,市环保局,,30,15,16,3,3,108,94,96,96,22,14,6,5,0.5,0.5
2023-01-29T19:00:00,1458A,91.0874,29.6475,拉萨市,区监测站,,,,13,,5,89,,92,,,10,,5,,0.2
2023-01-29T19:00:00,1459A,91.1774,29.6541,拉萨市,西藏大学,,33,12,12,4,4,109,105,98,98,11,8,6,5,0.3,0.2
2023-01-29T19:00:00,1460A,90.9798,29.6588,拉萨市,区辐射站,,33,16,17,5,9,116,103,108,108,20,19,6,7,0.5,0.5
2023-01-29T19:00:00,1461A,91.0834,29.6292,拉萨市,拉萨火车站,,32,12,14,4,8,106,101,102,98,12,10,8,8,0.3,0.3
2023-01-29T19:00:00,1462A,108.882,34.2749,西安市,高压开关厂,细颗粒物(PM2.5),53,52,88,37,61,100,66,86,86,38,49,12,15,0.7,0.9
2023-01-29T19:00:00,1463A,108.993,34.2629,西安市,兴庆小区,,49,49,75,31,44,91,54,78,78,58,40,8,11,1.0,0.7
2023-01-29T19:00:00,1464A,109.06,34.2572,西安市,纺织城,颗粒物(PM10),60,69,84,41,41,91,31,77,75,73,43,11,12,0.7,0.7
2023-01-29T19:00:00,1465A,108.9356,34.2173,西安市,小寨,颗粒物(PM10),55,59,91,23,45,92,38,77,76,60,44,8,11,0.6,0.7
2023-01-29T19:00:00,1466A,108.954,34.2713,西安市,市人民体育场,颗粒物(PM10),56,61,91,36,55,93,36,79,77,78,57,8,12,0.8,0.9
2023-01-29T19:00:00,1467A,108.8922,34.2322,西安市,高新西区,颗粒物(PM10),54,57,89,33,60,100,31,84,81,72,45,8,13,1.0,0.9
2023-01-29T19:00:00,1468A,108.935,34.3474,西安市,经开区,细颗粒物(PM2.5),63,72,95,45,67,96,49,81,81,52,45,10,12,0.8,0.9
2023-01-29T19:00:00,1469A,108.906,34.1546,西安市,长安区,颗粒物(PM10),56,61,91,31,52,101,76,90,90,31,32,7,11,0.5,0.8
2023-01-29T19:00:00,1471A,109.2186,34.3731,西安市,临潼区,细颗粒物(PM2.5),69,68,80,50,48,88,34,77,76,57,50,12,13,0.9,1
2023-01-29T19:00:00,1472A,108.869,34.378,西安市,草滩,颗粒物(PM10),59,68,107,34,46,83,67,71,71,31,43,40,18,0.0,0.5
2023-01-29T19:00:00,1473A,108.985,34.1978,西安市,曲江文化产业集团,,49,49,82,22,44,93,60,81,81,50,41,7,9,0.5,0.6
2023-01-29T19:00:00,1474A,109.051,34.3213,西安市,广运潭,颗粒物(PM10),59,67,71,38,38,86,51,74,74,45,30,10,10,0.8,0.8
2023-01-29T19:00:00,1476A,103.631,36.1031,兰州市,兰炼宾馆,细颗粒物(PM2.5),112,141,133,84,69,127,31,88,88,96,65,20,39,1.6,1.5
2023-01-29T19:00:00,1477A,104.1373,35.9454,兰州市,榆中兰大校区,,,,,,,,,,,,,,,,
2023-01-29T19:00:00,1478A,103.8412,36.0726,兰州市,生物制品所,细颗粒物(PM2.5),117,162,122,88,48,64,6,41,40,128,70,23,17,3.0,1.8
2023-01-29T19:00:00,1479A,103.831,36.0464,兰州市,铁路设计院,细颗粒物(PM2.5),113,152,151,85,76,46,9,32,31,127,74,32,33,2.9,3.3
2023-01-29T19:00:00,1483A,101.524,36.6867,西宁市,第五水厂,,,,,,,,,,,,,,,,
2023-01-29T19:00:00,1484A,105.9512,38.6016,银川市,贺兰山马莲口,,26,23,22,8,12,89,83,84,84,12,12,16,16,0.6,0.5
2023-01-29T19:00:00,1488A,106.2328,38.4975,银川市,贺兰山东路,颗粒物(PM10),57,63,67,39,34,92,62,72,72,47,54,20,18,0.7,1.3
2023-01-29T19:00:00,1489A,106.1358,38.5036,银川市,学院路,颗粒物(PM10),52,53,61,24,27,88,54,70,70,53,55,18,19,0.9,1.2
2023-01-29T19:00:00,1490A,87.5801,43.8303,乌鲁木齐市,监测站,细颗粒物(PM2.5),215,225,186,165,130,64,30,35,35,100,103,4,3,1.7,1.9
2023-01-29T19:00:00,1491A,87.6046,43.768,乌鲁木齐市,收费所,细颗粒物(PM2.5),269,304,197,219,121,50,13,27,27,135,101,5,6,2.0,1.9
2023-01-29T19:00:00,1492A,87.4754,43.9469,乌鲁木齐市,新疆农科院农场,细颗粒物(PM2.5),238,158,152,188,100,98,98,68,68,34,78,10,7,1.7,2.1
2023-01-29T19:00:00,1493A,87.5525,43.8711,乌鲁木齐市,铁路局,细颗粒物(PM2.5),223,198,198,173,168,62,54,40,40,84,111,5,3,1.7,2
2023-01-29T19:00:00,1494A,87.6432,43.831,乌鲁木齐市,三十一中学,细颗粒物(PM2.5),226,239,180,176,128,74,55,55,55,74,78,6,7,1.6,1.5
2023-01-29T19:00:00,1496A,87.7216,44.1747,乌鲁木齐市,米东区环保局,细颗粒物(PM2.5),371,396,327,321,274,92,38,54,54,92,87,43,12,2.8,2.5
2023-01-29T19:00:00,1508A,112.9433,27.8614,湘潭市,板塘,细颗粒物(PM2.5),84,97,117,62,71,104,67,89,89,37,31,6,5,0.8,0.9
2023-01-29T19:00:00,1511A,112.9118,27.8403,湘潭市,市监测站,颗粒物(PM10),88,125,133,58,73,112,59,88,88,64,31,10,14,1.1,1.2
2023-01-29T19:00:00,1512A,112.8937,27.8728,湘潭市,江麓,细颗粒物(PM2.5),83,107,129,61,73,124,103,101,101,29,31,9,18,0.8,1.4
2023-01-29T19:00:00,1513A,112.9227,27.8159,湘潭市,岳塘,细颗粒物(PM2.5),92,110,120,68,67,106,60,86,85,55,36,14,16,1.0,0.9
2023-01-29T19:00:00,1514A,112.9074,27.9119,湘潭市,科大,细颗粒物(PM2.5),80,107,124,59,69,124,101,104,104,28,25,16,17,1.1,1.2
2023-01-29T19:00:00,1515A,113.135,27.8244,株洲市,天台山庄,细颗粒物(PM2.5),107,73,102,80,68,117,49,104,101,72,43,6,9,1.0,1
2023-01-29T19:00:00,1518A,113.095,27.8867,株洲市,株冶医院,细颗粒物(PM2.5),85,97,112,63,69,115,68,99,99,38,35,5,7,0.7,0.8
2023-01-29T19:00:00,1519A,113.167,27.8667,株洲市,市四中,细颗粒物(PM2.5),77,95,100,56,60,112,79,100,100,33,26,6,8,0.7,0.8
2023-01-29T19:00:00,1520A,113.143,27.8381,株洲市,火车站,颗粒物(PM10),75,100,117,54,74,113,78,100,100,36,35,7,9,0.7,0.8
2023-01-29T19:00:00,1524A,113.13,27.8528,株洲市,市监测站,细颗粒物(PM2.5),72,88,117,52,77,117,80,105,105,41,43,7,10,0.7,1
2023-01-29T19:00:00,1552A,106.805,26.3003,贵阳市,桐木岭,,,,,,,,,,,,,,,,
2023-01-29T19:00:00,1559A,113.251,27.8336,株洲市,大京风景区,颗粒物(PM10),70,90,78,48,44,113,70,101,101,10,6,5,5,0.5,0.5
2023-01-29T19:00:00,1562A,113.0048,27.9153,湘潭市,昭山,细颗粒物(PM2.5),88,107,117,65,60,113,71,99,99,49,40,4,4,0.8,0.9
2023-01-29T19:00:00,1564A,112.4876,27.9164,湘潭市,韶山,颗粒物(PM10),79,108,103,48,42,121,82,109,108,27,19,8,9,0.9,1
2023-01-29T19:00:00,1585A,109.8756,40.6532,包头市,市环境监测站,颗粒物(PM10),63,76,104,31,43,89,25,67,62,77,47,26,24,1.7,1.3
2023-01-29T19:00:00,1587A,109.9991,40.5842,包头市,包头八中,颗粒物(PM10),83,116,138,46,50,79,6,62,58,92,56,20,20,1.3,1.1
2023-01-29T19:00:00,1588A,109.8538,40.6821,包头市,青山宾馆,细颗粒物(PM2.5),72,80,118,52,44,82,14,63,56,79,48,12,24,1.0,1.7
2023-01-29T19:00:00,1589A,109.8642,40.6288,包头市,惠龙物流,颗粒物(PM10),69,87,132,39,48,92,33,71,69,64,57,14,23,0.9,1.4
2023-01-29T19:00:00,1590A,110.0377,40.5546,包头市,东河鸿龙湾,颗粒物(PM10),69,88,115,29,35,84,50,74,73,31,39,11,16,0.3,0.6
2023-01-29T19:00:00,1591A,110.0023,39.8129,鄂尔多斯市,综合楼,,29,29,64,7,16,75,55,73,69,32,13,7,8,1.0,0.6
2023-01-29T19:00:00,1592A,109.9486,39.8261,鄂尔多斯市,巴音孟克林场办事处,,44,44,55,17,19,83,58,80,77,30,9,7,8,0.6,0.5
2023-01-29T19:00:00,1593A,109.7736,39.5986,鄂尔多斯市,康泽苑,,31,31,45,7,12,78,46,76,72,41,16,7,5,0.7,0.7
2023-01-29T19:00:00,1594A,109.8119,39.5989,鄂尔多斯市,华泰汽车城,,39,39,50,17,23,83,52,79,76,35,10,7,7,0.6,0.5
2023-01-29T19:00:00,1595A,109.9734,39.7884,鄂尔多斯市,奥林花园,,46,46,48,12,13,85,20,81,66,65,16,7,12,0.6,0.5
2023-01-29T19:00:00,1596A,122.2414,40.6592,营口市,学府南路,,,,,,,,,,,,,,,,
2023-01-29T19:00:00,1597A,122.2703,40.7094,营口市,大庆路,,,247,71,,20,77,25,70,64,79,24,25,14,1.3,0.7
2023-01-29T19:00:00,1598A,122.2150,40.6511,营口市,镜湖西路,颗粒物(PM10),60,70,65,33,18,79,52,72,70,22,18,9,9,0.5,0.6
2023-01-29T19:00:00,1599A,122.1658,40.6789,营口市,西炮台,细颗粒物(PM2.5),74,90,56,54,19,84,48,77,74,32,15,13,10,0.5,0.5
2023-01-29T19:00:00,1600A,124.3303,40.0625,丹东市,江湾东路,,44,44,90,23,56,72,57,66,66,23,30,22,26,0.5,1.7
2023-01-29T19:00:00,1601A,124.4256,40.1503,丹东市,临江后街,,41,41,74,19,40,67,55,61,61,25,28,13,22,0.7,1.3
2023-01-29T19:00:00,1602A,124.3933,40.1461,丹东市,元宝山,,35,35,76,16,39,68,59,61,61,15,23,16,19,0.4,1
2023-01-29T19:00:00,1603A,124.3633,40.1092,丹东市,民主桥,颗粒物(PM10),65,80,98,33,52,63,37,55,54,42,36,12,16,0.8,1.4
2023-01-29T19:00:00,1604A,122.0303,41.1489,盘锦市,开发区,,45,44,51,31,16,75,58,71,70,20,17,9,11,0.7,0.7
2023-01-29T19:00:00,1605A,122.0485,41.0883,盘锦市,兴隆台,,31,31,50,14,16,74,46,70,68,32,22,16,11,0.6,0.8
2023-01-29T19:00:00,1606A,121.8297,41.1028,盘锦市,新生街道,,36,36,51,12,13,76,43,64,63,37,28,11,15,0.5,0.6
2023-01-29T19:00:00,1607A,120.9092,40.7136,葫芦岛市,龙港区,细颗粒物(PM2.5),98,104,55,73,19,75,27,68,62,49,16,23,11,1.3,0.6
2023-01-29T19:00:00,1608A,120.8392,40.7514,葫芦岛市,化工街,颗粒物(PM10),60,70,68,41,20,71,19,65,56,69,36,22,14,1.0,0.6
2023-01-29T19:00:00,1609A,120.8341,40.7073,葫芦岛市,新区,细颗粒物(PM2.5),60,63,53,43,21,75,24,72,64,60,25,20,15,1.1,0.7
2023-01-29T19:00:00,1610A,120.8695,40.7677,葫芦岛市,东城区,细颗粒物(PM2.5),92,66,60,68,26,72,10,66,58,69,34,17,21,1.1,0.9
2023-01-29T19:00:00,1611A,118.5819,24.9117,泉州市,涂山街,颗粒物(PM10),53,56,43,34,22,120,105,110,110,15,8,9,9,0.6,0.6
2023-01-29T19:00:00,1612A,118.5972,24.8978,泉州市,津头埔,"颗粒物(PM10),细颗粒物(PM2.5)",53,56,43,37,23,122,102,111,111,19,11,9,9,0.6,0.5
2023-01-29T19:00:00,1613A,118.6663,24.9424,泉州市,万安,细颗粒物(PM2.5),63,60,44,45,24,124,105,114,114,14,8,8,7,0.6,0.6
2023-01-29T19:00:00,1614A,118.6117,24.9604,泉州市,清源山,,,,,,,,,,,,,,,,
2023-01-29T19:00:00,1616A,117.6795,36.229,济南市,技术学院,颗粒物(PM10),76,102,91,43,45,88,54,77,76,45,46,17,21,0.9,1.3
2023-01-29T19:00:00,1618A,118.3429,35.0532,临沂市,沂河小区,颗粒物(PM10),73,95,106,36,57,85,32,74,71,56,33,20,32,1.1,1
2023-01-29T19:00:00,1619A,118.295,35.0583,临沂市,鲁南制药厂,颗粒物(PM10),75,100,111,40,58,90,60,78,78,45,42,40,44,0.5,0.6
2023-01-29T19:00:00,1620A,118.2794,34.9976,临沂市,新光毛纺厂,颗粒物(PM10),73,95,100,34,50,83,21,74,70,70,33,13,23,0.8,0.9
2023-01-29T19:00:00,1621A,118.3956,35.0888,临沂市,河东保险公司,颗粒物(PM10),68,85,93,38,49,93,43,79,77,59,38,20,26,1.1,1
2023-01-29T19:00:00,1622A,116.3032,37.4674,德州市,儿童乐园,颗粒物(PM10),79,107,89,27,37,80,35,67,64,47,20,5,12,0.5,0.5
2023-01-29T19:00:00,1624A,116.2991,37.4451,德州市,监理站,颗粒物(PM10),85,119,101,29,40,80,28,71,68,64,25,8,16,1.1,0.9
2023-01-29T19:00:00,1625A,115.9848,36.4372,聊城市,区政府,颗粒物(PM10),71,91,87,29,41,82,21,70,66,56,21,14,16,1.2,0.9
2023-01-29T19:00:00,1628A,118.0062,37.3803,滨州市,市环保局,颗粒物(PM10),64,77,85,19,34,80,38,66,65,44,26,6,14,0.6,0.7
2023-01-29T19:00:00,1629A,118.0018,37.3617,滨州市,第二水厂,颗粒物(PM10),67,83,82,23,32,90,37,70,67,46,25,7,14,0.6,0.7
2023-01-29T19:00:00,1630A,117.9776,37.393,滨州市,北中新校,颗粒物(PM10),70,89,85,35,35,84,22,70,66,59,27,9,21,0.6,0.6
2023-01-29T19:00:00,1631A,118.0414,36.8103,淄博市,人民公园,颗粒物(PM10),87,124,87,43,40,76,24,69,64,75,34,9,16,0.9,0.7
2023-01-29T19:00:00,1633A,117.8525,36.4847,淄博市,双山,颗粒物(PM10),85,119,77,54,32,79,29,72,66,52,19,30,20,1.3,1
2023-01-29T19:00:00,1634A,117.9592,36.6331,淄博市,气象站,颗粒物(PM10),90,130,82,63,34,72,41,68,65,40,16,30,23,1.0,0.8
2023-01-29T19:00:00,1635A,118.3092,36.8194,淄博市,莆田园,颗粒物(PM10),60,70,75,34,38,81,45,66,64,35,23,13,17,0.9,1
2023-01-29T19:00:00,1637A,117.558,34.8438,枣庄市,市中区政府,细颗粒物(PM2.5),100,144,115,75,63,100,32,85,81,75,43,46,39,0.9,0.7
2023-01-29T19:00:00,1638A,117.2852,34.7837,枣庄市,薛城环保局,颗粒物(PM10),81,112,99,53,54,94,32,79,75,74,37,20,17,1.1,0.9
2023-01-29T19:00:00,1639A,117.5852,34.7745,枣庄市,峄城区政府,颗粒物(PM10),71,92,97,46,50,95,64,84,82,48,31,26,25,0.8,0.7
2023-01-29T19:00:00,1640A,117.7276,34.5578,枣庄市,台儿庄区环保局,颗粒物(PM10),78,105,111,53,57,88,50,75,73,49,45,20,14,0.9,0.9
2023-01-29T19:00:00,1641A,117.4518,35.0992,枣庄市,山亭区环保局,细颗粒物(PM2.5),77,92,90,56,56,96,60,82,82,43,31,18,26,1.2,1.1
2023-01-29T19:00:00,1642A,121.2514,37.5639,烟台市,开发区,颗粒物(PM10),98,146,98,36,26,58,28,55,50,50,21,15,13,1.6,0.8
2023-01-29T19:00:00,1643A,121.3719,37.5433,烟台市,轴承厂,颗粒物(PM10),106,161,100,61,34,66,30,61,56,43,17,14,11,1.5,0.8
2023-01-29T19:00:00,1644A,121.3181,37.5436,烟台市,西郊化工站,颗粒物(PM10),106,161,100,38,25,68,25,62,56,56,16,13,11,1.7,0.9
2023-01-29T19:00:00,1645A,121.4478,37.4822,烟台市,莱山环保局,颗粒物(PM10),111,171,111,45,34,73,53,67,66,24,17,15,15,1.4,1
2023-01-29T19:00:00,1646A,121.2611,37.4967,烟台市,福山环保局,颗粒物(PM10),103,156,98,41,32,44,26,44,34,44,30,16,13,1.3,1
2023-01-29T19:00:00,1650A,119.1437,36.7023,潍坊市,环保局,颗粒物(PM10),82,114,90,31,35,74,37,66,63,37,29,8,12,1.0,1
2023-01-29T19:00:00,1653A,116.6251,35.4302,济宁市,火炬城,细颗粒物(PM2.5),70,76,85,51,54,93,56,77,77,55,34,14,13,1.0,0.8
2023-01-29T19:00:00,1655A,116.5491,35.4042,济宁市,电化厂,细颗粒物(PM2.5),117,85,96,88,67,88,57,76,75,45,28,23,17,0.7,0.6
2023-01-29T19:00:00,1656A,117.1437,36.1937,泰安市,监测站,颗粒物(PM10),64,78,89,40,53,88,33,74,70,62,42,16,16,1.0,0.9
2023-01-29T19:00:00,1657A,117.0885,36.2017,泰安市,人口学校,颗粒物(PM10),60,70,80,28,37,85,51,72,72,37,28,13,17,0.8,0.8
2023-01-29T19:00:00,1658A,117.1089,36.1758,泰安市,电力学校,颗粒物(PM10),69,88,86,47,50,88,38,76,74,57,43,25,22,1.1,1.1
2023-01-29T19:00:00,1659A,119.471,35.4209,日照市,监测站,颗粒物(PM10),71,92,88,34,43,80,42,75,71,47,47,15,20,0.7,1
2023-01-29T19:00:00,1660A,119.523,35.4216,日照市,市政府广场,颗粒物(PM10),65,80,70,35,34,82,54,73,70,32,32,12,13,0.9,0.9
2023-01-29T19:00:00,1661A,119.5587,35.4044,日照市,港务局,颗粒物(PM10),71,92,79,33,35,86,41,77,73,53,43,11,13,1.0,1
2023-01-29T19:00:00,1662A,122.1214,37.4236,威海市,华夏技校,颗粒物(PM10),86,122,86,34,25,74,54,71,66,26,16,3,5,0.9,0.5
2023-01-29T19:00:00,1663A,122.0508,37.5236,威海市,山大分校,颗粒物(PM10),97,144,88,29,19,73,47,69,62,26,11,2,5,0.9,0.5
2023-01-29T19:00:00,1664A,122.1067,37.5072,威海市,市监测站,颗粒物(PM10),92,134,81,37,21,69,22,66,49,48,17,4,7,1.1,0.6
2023-01-29T19:00:00,1666A,118.6614,37.4309,东营市,市环保局,颗粒物(PM10),65,80,94,14,38,80,36,72,69,45,29,11,25,0.6,0.7
2023-01-29T19:00:00,1669A,113.5824,24.7733,韶关市,市八中,细颗粒物(PM2.5),62,58,52,44,27,105,58,97,95,36,15,9,9,0.7,0.5
2023-01-29T19:00:00,1671A,113.5917,24.7972,韶关市,园林处,,47,47,51,25,29,103,72,95,95,21,8,9,9,0.4,0.2
2023-01-29T19:00:00,1672A,113.6735,24.7791,韶关市,韶关学院,细颗粒物(PM2.5),75,61,58,55,34,112,64,102,101,33,12,10,11,0.5,0.3
2023-01-29T19:00:00,1673A,113.5971,24.6863,韶关市,曲江监测站,细颗粒物(PM2.5),52,52,50,36,28,108,64,100,98,26,13,9,11,0.7,0.6
2023-01-29T19:00:00,1674A,116.6794,23.3667,汕头市,金平子站,颗粒物(PM10),55,60,50,33,26,116,107,104,104,18,12,11,13,0.7,0.7
2023-01-29T19:00:00,1675A,116.7244,23.3633,汕头市,龙湖子站,,42,42,49,29,22,118,112,106,106,17,12,11,12,0.7,0.6
2023-01-29T19:00:00,1676A,116.7258,23.2775,汕头市,濠江子站,,48,45,48,33,24,112,108,102,102,12,10,9,10,0.5,0.8
2023-01-29T19:00:00,1677A,116.7519,23.4714,汕头市,澄海子站,颗粒物(PM10),52,53,50,29,28,115,115,106,106,16,13,5,5,0.6,0.6
2023-01-29T19:00:00,1678A,116.6092,23.2539,汕头市,潮阳子站,颗粒物(PM10),52,54,51,24,19,112,111,104,104,10,8,7,7,0.6,0.7
2023-01-29T19:00:00,1680A,110.3539,21.2706,湛江市,湛江影剧院,颗粒物(PM10),59,68,77,36,45,117,98,109,109,15,15,16,14,0.4,0.5
2023-01-29T19:00:00,1681A,110.3928,21.2228,湛江市,市环境监测站,细颗粒物(PM2.5),72,63,76,52,48,114,103,104,104,19,17,9,10,0.6,0.6
2023-01-29T19:00:00,1682A,110.4019,21.1997,湛江市,环保局宿舍,颗粒物(PM10),70,89,80,32,49,116,102,105,105,27,22,7,8,0.6,0.6
2023-01-29T19:00:00,1683A,110.4111,21.2028,湛江市,霞山游泳场,颗粒物(PM10),66,81,78,26,43,120,118,109,109,17,19,8,10,0.7,0.7
2023-01-29T19:00:00,1684A,110.3316,21.2679,湛江市,麻章区环保局,颗粒物(PM10),61,72,87,40,51,112,87,102,102,21,17,12,18,0.6,0.6
2023-01-29T19:00:00,1685A,110.4558,21.2567,湛江市,坡头区环保局,细颗粒物(PM2.5),69,76,72,50,48,108,106,96,96,17,14,8,9,0.7,0.6
2023-01-29T19:00:00,1686A,111.0286,21.4688,茂名市,电白南海,颗粒物(PM10),71,92,86,36,40,122,98,107,107,25,18,6,7,0.5,0.5
2023-01-29T19:00:00,1687A,110.9294,21.6533,茂名市,茂石化七小,颗粒物(PM10),52,53,76,24,45,112,94,102,102,18,14,5,6,0.6,0.6
2023-01-29T19:00:00,1688A,110.9107,21.6687,茂名市,健康路,颗粒物(PM10),52,53,77,25,40,118,97,109,109,19,15,10,12,0.6,0.8
2023-01-29T19:00:00,1689A,110.8592,21.6828,茂名市,高岭,,46,46,75,19,45,110,86,100,100,17,20,12,15,0.4,0.6
2023-01-29T19:00:00,1690A,116.1231,24.3284,梅州市,梅江月梅,细颗粒物(PM2.5),53,53,39,37,21,95,82,89,89,10,8,7,6,0.7,0.6
2023-01-29T19:00:00,1691A,116.0797,24.2719,梅州市,梅县新城,细颗粒物(PM2.5),88,67,46,65,27,96,42,87,84,44,16,8,8,1.0,0.5
2023-01-29T19:00:00,1692A,116.1248,24.2654,梅州市,环境监控中心,颗粒物(PM10),55,59,40,33,25,97,69,86,86,22,16,8,7,0.6,0.5
2023-01-29T19:00:00,1693A,115.3653,22.775,汕尾市,市环保局,,48,48,49,27,26,100,93,92,92,9,6,9,9,0.5,0.5
2023-01-29T19:00:00,1694A,115.3706,22.7898,汕尾市,市政府,,45,38,46,31,29,106,100,97,97,9,7,9,9,0.7,0.7
2023-01-29T19:00:00,1695A,115.3622,22.7925,汕尾市,新城中学,颗粒物(PM10),52,53,50,28,26,102,93,93,93,10,6,6,6,0.5,0.5
2023-01-29T19:00:00,1696A,114.6778,23.7569,河源市,源西,,40,40,45,28,25,95,56,92,88,41,11,5,5,0.6,0.5
2023-01-29T19:00:00,1697A,114.6944,23.7586,河源市,东埔,,37,37,54,23,26,101,83,98,97,17,8,5,5,0.6,0.5
2023-01-29T19:00:00,1698A,114.6892,23.7233,河源市,老城,,41,41,59,27,27,102,77,98,96,21,10,4,5,0.8,0.6
2023-01-29T19:00:00,1699A,111.9797,21.8593,阳江市,鸳鸯湖,细颗粒物(PM2.5),52,36,54,36,28,104,98,97,97,10,12,10,10,0.6,0.6
2023-01-29T19:00:00,1701A,111.9491,21.8658,阳江市,马南垌,颗粒物(PM10),56,61,60,37,28,104,98,97,97,13,16,6,6,0.4,0.4
2023-01-29T19:00:00,1702A,113.0426,23.691,清远市,环保大楼,,44,44,53,27,29,122,114,118,118,11,9,5,6,0.7,0.7
2023-01-29T19:00:00,1703A,113.0208,23.7106,清远市,凤城街办,颗粒物(PM10),59,67,60,33,28,101,77,94,93,21,8,6,6,0.7,0.5
2023-01-29T19:00:00,1705A,116.6367,23.6719,潮州市,西园路,颗粒物(PM10),62,74,50,37,30,122,119,104,104,14,7,8,7,0.8,0.6
2023-01-29T19:00:00,1706A,116.6447,23.6706,潮州市,档案局,细颗粒物(PM2.5),82,55,49,60,28,104,98,90,90,18,7,8,7,0.8,0.5
2023-01-29T19:00:00,1708A,116.3701,23.5345,揭阳市,新兴,细颗粒物(PM2.5),62,46,57,44,33,102,86,96,96,15,6,10,8,0.9,0.6
2023-01-29T19:00:00,1709A,116.3264,23.5443,揭阳市,西马,细颗粒物(PM2.5),60,67,58,43,31,98,87,92,92,9,5,10,10,0.6,0.4
2023-01-29T19:00:00,1710A,116.3611,23.5626,揭阳市,东兴,细颗粒物(PM2.5),69,62,59,50,32,106,86,100,100,23,13,10,7,0.9,0.6
2023-01-29T19:00:00,1711A,116.4151,23.5294,揭阳市,渔湖,颗粒物(PM10),58,65,58,32,37,114,93,106,106,18,9,15,9,1.0,0.5
2023-01-29T19:00:00,1712A,112.0392,22.9169,云浮市,新市府,,50,50,41,29,29,102,75,96,95,8,7,5,5,0.4,0.5
2023-01-29T19:00:00,1714A,112.0539,22.9539,云浮市,牧羊,,32,23,49,22,26,104,89,96,96,8,16,7,20,0.5,0.6
2023-01-29T19:00:00,1715A,102.575,24.3711,玉溪市,东风水库,细颗粒物(PM2.5),75,78,56,55,49,105,94,86,86,16,12,5,4,1.1,1.1
2023-01-29T19:00:00,1718A,115.4208,35.2464,菏泽市,气象局,颗粒物(PM10),54,57,83,25,37,100,87,94,94,26,22,10,10,0.6,0.6
2023-01-29T19:00:00,1719A,115.4747,35.2375,菏泽市,市政协,颗粒物(PM10),70,89,80,36,34,101,37,87,84,67,20,13,11,1.2,0.6
2023-01-29T19:00:00,1721A,113.3819,40.1097,大同市,果树场,,,,,,,,,,,,,,,,
2023-01-29T19:00:00,1723A,113.2994,40.0758,大同市,云冈宾馆,颗粒物(PM10),67,83,99,44,29,81,41,69,69,41,22,20,16,0.6,0.7
2023-01-29T19:00:00,1724A,113.3444,40.0917,大同市,大同大学,颗粒物(PM10),54,58,88,18,23,74,49,64,64,24,19,12,14,0.5,0.5
2023-01-29T19:00:00,1725A,113.2661,40.1269,大同市,安家小村,颗粒物(PM10),73,96,105,14,24,84,57,72,72,20,17,10,14,0.4,0.8
2023-01-29T19:00:00,1726A,113.2711,40.0844,大同市,教育学院,颗粒物(PM10),58,65,95,20,30,70,35,60,60,39,24,14,13,0.4,0.5
2023-01-29T19:00:00,1727A,113.1147,36.1547,长治市,清华站,,39,39,38,17,16,87,67,80,80,22,19,12,15,0.6,0.6
2023-01-29T19:00:00,1728A,113.1031,36.1989,长治市,监测站,,33,33,38,22,18,80,35,73,70,52,21,7,13,1.1,0.9
2023-01-29T19:00:00,1730A,113.0886,36.2125,长治市,审计局,,30,30,35,17,19,82,68,74,74,21,16,12,14,0.5,0.5
2023-01-29T19:00:00,1731A,113.0844,36.1856,长治市,长治八中,,41,41,40,18,18,82,59,75,74,24,13,13,15,0.7,0.6
2023-01-29T19:00:00,1733A,111.5531,36.0783,临汾市,临钢医院,颗粒物(PM10),70,90,75,39,39,95,62,77,77,40,31,12,12,1.5,1.1
2023-01-29T19:00:00,1734A,111.5028,36.0714,临汾市,技工学校,颗粒物(PM10),68,86,97,43,52,95,69,79,79,31,33,17,21,1.5,1.5
2023-01-29T19:00:00,1736A,111.5018,36.0855,临汾市,市委,颗粒物(PM10),67,83,89,44,43,92,65,78,78,36,36,11,14,1.1,1.1
2023-01-29T19:00:00,1738A,113.5758,37.8572,阳泉市,市中心,,47,47,54,23,23,81,56,75,74,32,21,17,21,0.7,0.6
2023-01-29T19:00:00,1739A,113.4894,37.8731,阳泉市,赛鱼,颗粒物(PM10),54,57,55,22,21,78,47,71,70,32,23,14,21,0.7,0.6
2023-01-29T19:00:00,1740A,113.5819,37.8486,阳泉市,南庄,颗粒物(PM10),51,51,54,28,24,79,65,75,74,28,17,17,18,0.7,0.6
2023-01-29T19:00:00,1742A,113.5614,37.8703,阳泉市,平坦,颗粒物(PM10),53,56,60,26,22,80,49,74,72,44,25,18,21,0.7,0.6
2023-01-29T19:00:00,1743A,113.5158,37.8392,阳泉市,大阳泉,,41,41,47,19,21,82,69,78,78,23,15,18,19,0.6,0.6
2023-01-29T19:00:00,1744A,118.9233,42.2816,赤峰市,松山一中,,31,31,82,3,9,74,52,71,68,22,16,11,10,0.4,0.4
2023-01-29T19:00:00,1745A,118.9576,42.2728,赤峰市,哈达街,,25,25,80,7,16,73,49,71,66,24,13,12,11,0.6,0.4
2023-01-29T19:00:00,1746A,118.8788,42.2554,赤峰市,天义路,,22,22,77,9,9,70,44,68,62,26,14,15,13,0.7,0.6
2023-01-29T19:00:00,1748A,123.044,41.1196,鞍山市,深沟寺,颗粒物(PM10),51,52,61,19,22,73,53,66,65,18,19,12,15,0.6,0.9
2023-01-29T19:00:00,1749A,123.011,41.0931,鞍山市,太阳城,颗粒物(PM10),52,54,69,17,22,70,56,65,65,20,21,12,20,0.7,1.2
2023-01-29T19:00:00,1750A,123.0485,41.1442,鞍山市,太平,颗粒物(PM10),56,61,66,27,22,67,43,62,60,32,23,16,20,1.0,1
2023-01-29T19:00:00,1751A,122.9642,41.0971,鞍山市,铁西三道街,颗粒物(PM10),66,82,76,36,29,72,33,65,62,42,26,24,18,1.4,1.2
2023-01-29T19:00:00,1752A,122.9341,41.0833,鞍山市,铁西工业园区,,,185,67,,24,69,22,62,57,64,24,28,16,1.6,1
2023-01-29T19:00:00,1753A,123.022,41.0821,鞍山市,明达新区,颗粒物(PM10),54,58,66,25,23,73,54,67,67,27,24,17,20,0.6,1
2023-01-29T19:00:00,1754A,123.1289,41.0228,鞍山市,千山,,,,,,,,,,,,,,,,
2023-01-29T19:00:00,1755A,123.7977,41.8491,抚顺市,望花区,细颗粒物(PM2.5),64,47,69,46,37,75,29,67,64,46,33,15,14,0.9,1.1
2023-01-29T19:00:00,1756A,123.9161,41.8822,抚顺市,顺城区,细颗粒物(PM2.5),78,63,66,57,38,81,10,73,67,60,29,10,9,0.9,0.9
2023-01-29T19:00:00,1757A,124.0436,41.8611,抚顺市,东洲区,,35,35,59,13,28,77,65,71,71,8,16,6,9,0.3,0.7
2023-01-29T19:00:00,1758A,123.9247,41.8642,抚顺市,新抚区,颗粒物(PM10),55,59,78,26,41,72,19,64,60,52,33,8,8,0.6,0.8
2023-01-29T19:00:00,1759A,124.0972,41.8961,抚顺市,大伙房水库,,30,30,50,14,31,83,74,80,80,7,13,5,6,0.5,0.8
2023-01-29T19:00:00,1760A,123.7086,41.8391,抚顺市,沈抚新城,,39,39,72,23,32,77,52,72,70,29,34,13,15,0.6,1.2
2023-01-29T19:00:00,1761A,123.8275,41.3064,本溪市,大峪,,42,42,60,13,22,60,47,54,54,18,31,18,17,0.5,1
2023-01-29T19:00:00,1762A,123.7567,41.3325,本溪市,溪湖,颗粒物(PM10),54,58,68,20,24,73,49,66,65,24,40,13,37,1.1,1.5
2023-01-29T19:00:00,1763A,123.7169,41.3094,本溪市,彩屯,细颗粒物(PM2.5),92,90,75,68,35,71,43,64,63,34,34,14,18,0.9,1.3
2023-01-29T19:00:00,1764A,123.7669,41.2864,本溪市,东明,,44,44,70,17,23,68,50,60,60,29,35,13,24,0.4,0.8
2023-01-29T19:00:00,1765A,123.7992,41.2664,本溪市,新立屯,颗粒物(PM10),55,60,55,28,19,70,24,61,58,48,22,9,12,0.6,0.6
2023-01-29T19:00:00,1766A,123.8142,41.3472,本溪市,威宁,,38,38,62,12,28,60,33,51,51,29,35,8,12,0.6,0.9
2023-01-29T19:00:00,1767A,121.1115,41.0879,锦州市,南山,,34,34,47,18,20,83,49,78,74,36,20,6,17,0.5,0.6
2023-01-29T19:00:00,1768A,121.0533,40.8434,锦州市,开发区,细颗粒物(PM2.5),80,63,75,59,22,91,21,79,72,62,28,12,22,0.6,0.6
2023-01-29T19:00:00,1769A,121.1836,41.1119,锦州市,百股街道,颗粒物(PM10),52,53,58,22,19,83,28,77,70,58,24,19,18,1.4,0.9
2023-01-29T19:00:00,1770A,121.1178,41.1222,锦州市,天安街道,,44,44,57,19,21,80,42,76,71,42,23,6,15,0.5,0.6
2023-01-29T19:00:00,1771A,121.1303,41.1386,锦州市,北湖公园,,46,38,51,32,21,83,60,80,76,27,21,15,17,0.8,0.7
2023-01-29T19:00:00,1772A,126.54,43.8622,吉林市,哈达湾,细颗粒物(PM2.5),94,93,53,70,38,71,71,59,59,17,20,9,11,0.9,0.8
2023-01-29T19:00:00,1773A,126.5844,43.8358,吉林市,东局子,细颗粒物(PM2.5),98,102,51,73,33,62,62,59,52,19,14,10,11,0.7,0.6
2023-01-29T19:00:00,1774A,126.5052,43.8245,吉林市,电力学院,细颗粒物(PM2.5),112,123,61,84,44,59,52,54,54,27,25,13,18,1.1,1
2023-01-29T19:00:00,1775A,126.6133,43.8972,吉林市,江北,细颗粒物(PM2.5),103,118,55,77,35,64,61,54,54,26,21,13,15,1.0,0.8
2023-01-29T19:00:00,1776A,126.555,43.8306,吉林市,江南公园,细颗粒物(PM2.5),104,92,45,78,37,59,58,54,50,23,19,11,14,0.8,0.7
2023-01-29T19:00:00,1778A,126.7061,43.7133,吉林市,丰满,,,,,,,,,,,,,,,,
2023-01-29T19:00:00,1779A,123.9305,47.3636,齐齐哈尔市,安居小区,细颗粒物(PM2.5),110,114,60,83,50,79,35,62,58,48,21,13,17,1.3,0.7
2023-01-29T19:00:00,1780A,123.9488,47.3386,齐齐哈尔市,中心广场,细颗粒物(PM2.5),128,132,79,97,48,73,16,52,48,73,27,13,18,1.7,0.6
2023-01-29T19:00:00,1781A,123.9483,47.3227,齐齐哈尔市,农牧车辆厂,细颗粒物(PM2.5),97,107,70,72,47,66,6,48,43,74,28,20,16,1.4,0.7
2023-01-29T19:00:00,1783A,123.945,47.2988,齐齐哈尔市,市环境监测站,细颗粒物(PM2.5),147,135,71,112,57,73,16,56,49,71,28,12,14,1.5,0.6
2023-01-29T19:00:00,1784A,129.61,44.561,牡丹江市,环保大楼,细颗粒物(PM2.5),80,70,70,59,50,53,32,47,36,38,31,16,18,1.0,0.9
2023-01-29T19:00:00,1785A,129.6115,44.5782,牡丹江市,文化广场,细颗粒物(PM2.5),88,77,85,65,57,47,27,41,31,42,36,24,20,1.2,1.1
2023-01-29T19:00:00,1786A,129.5904,44.5963,牡丹江市,第一医院,细颗粒物(PM2.5),130,102,89,99,70,60,28,39,35,42,32,19,15,1.4,1.2
2023-01-29T19:00:00,1787A,129.6364,44.6075,牡丹江市,机车工厂,细颗粒物(PM2.5),104,102,89,78,59,51,33,46,43,31,32,2,5,0.8,1
2023-01-29T19:00:00,1788A,129.6386,44.5462,牡丹江市,第一中学,细颗粒物(PM2.5),64,50,60,46,47,54,33,54,42,39,25,10,16,0.8,0.9
2023-01-29T19:00:00,1789A,124.81117,46.03138,大庆市,大同区,细颗粒物(PM2.5),216,187,75,166,62,71,46,61,61,52,21,14,12,1.6,0.9
2023-01-29T19:00:00,1790A,125.129,46.533,大庆市,龙凤区,细颗粒物(PM2.5),109,105,96,82,77,60,48,52,52,37,26,10,10,1.0,0.9
2023-01-29T19:00:00,1791A,124.902,46.408,大庆市,红岗区,细颗粒物(PM2.5),98,90,74,73,64,66,27,56,53,54,24,8,9,0.7,0.5
2023-01-29T19:00:00,1792A,125.153,46.586,大庆市,萨尔图区,细颗粒物(PM2.5),122,100,104,92,89,50,13,40,34,72,37,12,19,1.4,1
2023-01-29T19:00:00,1793A,124.9042,46.6215,大庆市,让胡路区,细颗粒物(PM2.5),102,101,84,76,61,61,21,51,49,66,37,6,14,1.0,0.8
2023-01-29T19:00:00,1794A,118.3606,31.3519,芜湖市,监测站,颗粒物(PM10),72,93,83,49,42,107,61,93,91,64,57,20,12,1.1,0.8
2023-01-29T19:00:00,1795A,118.3714,31.4134,芜湖市,科创中心,细颗粒物(PM2.5),75,92,90,55,47,100,63,88,87,51,49,14,11,0.7,0.7
2023-01-29T19:00:00,1796A,118.3673,31.3131,芜湖市,四水厂,颗粒物(PM10),72,94,85,48,40,98,67,81,81,45,33,13,14,0.5,0.7
2023-01-29T19:00:00,1798A,118.5092,31.6837,马鞍山市,湖东路四小,颗粒物(PM10),58,66,66,39,42,104,76,96,96,31,26,8,11,0.8,0.8
2023-01-29T19:00:00,1799A,118.5024,31.6449,马鞍山市,开发区,颗粒物(PM10),62,73,76,38,40,102,60,95,92,50,45,8,10,0.7,0.7
2023-01-29T19:00:00,1800A,118.5228,31.7231,马鞍山市,慈湖,颗粒物(PM10),66,81,76,39,41,101,67,89,89,43,30,20,15,1.1,0.9
2023-01-29T19:00:00,1802A,118.6245,31.7241,马鞍山市,濮塘,颗粒物(PM10),56,61,75,31,35,100,85,94,94,18,21,8,10,0.8,0.7
2023-01-29T19:00:00,1803A,115.9872,29.6815,九江市,十里,颗粒物(PM10),80,109,86,52,39,119,59,102,101,50,37,10,9,1.0,0.8
2023-01-29T19:00:00,1804A,115.9584,29.7046,九江市,茅山头,颗粒物(PM10),79,108,72,52,35,105,66,94,94,46,28,11,10,1.2,0.9
2023-01-29T19:00:00,1805A,115.9877,29.7295,九江市,西园,细颗粒物(PM2.5),89,97,71,66,44,110,70,96,96,48,32,9,7,1.5,0.9
2023-01-29T19:00:00,1806A,116.0172,29.6547,九江市,五七二七厂,颗粒物(PM10),72,94,63,45,30,118,100,109,109,20,15,10,9,0.8,0.8
2023-01-29T19:00:00,1808A,115.9114,29.6038,九江市,综合工业园,细颗粒物(PM2.5),73,89,66,53,39,109,73,97,97,31,29,11,9,0.9,0.8
2023-01-29T19:00:00,1809A,116.0721,29.7535,九江市,石化总厂,颗粒物(PM10),79,108,95,47,41,117,89,103,103,34,35,12,13,0.8,0.8
2023-01-29T19:00:00,1810A,115.9773,29.5698,九江市,庐山气象台,,27,27,43,12,17,92,61,90,52,6,5,7,7,0.0,0.2
2023-01-29T19:00:00,1812A,112.3931,34.6516,洛阳市,市委党校,,45,45,66,17,27,93,74,86,86,19,10,10,10,0.4,0.4
2023-01-29T19:00:00,1814A,112.4657,34.6871,洛阳市,豫西宾馆,,39,31,72,27,34,97,76,88,88,20,14,9,12,0.6,0.5
2023-01-29T19:00:00,1815A,112.494,34.6886,洛阳市,河南林校,,47,47,70,23,34,91,71,83,83,26,16,2,5,0.5,0.5
2023-01-29T19:00:00,1816A,112.3844,34.623,洛阳市,开发区管委会,,37,37,57,21,29,100,91,95,95,8,7,6,7,0.3,0.3
2023-01-29T19:00:00,1817A,112.4267,34.6258,洛阳市,市委新办公区,,35,35,58,22,30,102,87,96,96,16,12,7,7,0.3,0.3
2023-01-29T19:00:00,1818A,114.4839,36.0621,安阳市,棉研所,,,,,,,,,,,,,,,,
2023-01-29T19:00:00,1819A,114.3551,36.1017,安阳市,红庙街,,45,45,51,24,28,96,69,87,86,33,30,6,11,0.6,0.7
2023-01-29T19:00:00,1820A,114.361,36.0681,安阳市,银杏小区,,42,42,46,28,26,98,72,87,87,27,23,7,9,0.5,0.6
2023-01-29T19:00:00,1824A,114.3389,34.7781,开封市,肿瘤医院,颗粒物(PM10),71,92,90,38,33,97,54,86,84,45,20,7,7,0.6,0.4
2023-01-29T19:00:00,1826A,114.2885,34.7965,开封市,世纪星幼儿园,颗粒物(PM10),57,64,92,38,35,90,56,83,81,39,22,9,10,0.6,0.4
2023-01-29T19:00:00,1828A,113.227,35.2125,焦作市,市环保局,颗粒物(PM10),64,78,61,17,21,89,71,83,82,25,16,6,10,0.3,0.5
2023-01-29T19:00:00,1830A,113.1992,35.2590,焦作市,影视城,,,,,,,,,,,,,,,,
2023-01-29T19:00:00,1832A,113.3257,33.742,平顶山市,新华旅馆,颗粒物(PM10),67,83,64,34,24,98,64,88,87,39,33,7,8,0.5,0.4
2023-01-29T19:00:00,1833A,113.2919,33.737,平顶山市,规划设计院,,46,46,58,22,24,99,67,88,88,32,27,3,6,0.5,0.4
2023-01-29T19:00:00,1834A,113.182,33.774,平顶山市,平顶山工学院,,36,36,62,12,22,97,83,90,90,7,11,4,8,0.3,0.4
2023-01-29T19:00:00,1835A,111.1922,34.7752,三门峡市,市政府,细颗粒物(PM2.5),55,58,87,39,48,98,19,82,78,87,42,12,16,1.2,0.8
2023-01-29T19:00:00,1836A,111.1587,34.7942,三门峡市,开发区,颗粒物(PM10),55,60,89,35,42,103,67,87,87,36,27,10,10,0.5,0.7
2023-01-29T19:00:00,1838A,111.143,34.7955,三门峡市,风景区,,,,,,,,,,,,,,,,
2023-01-29T19:00:00,1840A,111.2992,30.6981,宜昌市,白龙岗,细颗粒物(PM2.5),92,107,98,68,62,117,104,96,96,27,29,8,6,0.9,0.9
2023-01-29T19:00:00,1841A,111.3549,30.6465,宜昌市,伍家岗,细颗粒物(PM2.5),92,105,103,68,66,109,98,95,95,27,35,12,9,0.6,0.7
2023-01-29T19:00:00,1842A,111.2628,30.6961,宜昌市,点军区,细颗粒物(PM2.5),83,97,106,61,68,111,99,87,87,37,26,9,6,0.9,0.9
2023-01-29T19:00:00,1843A,111.3275,30.7819,宜昌市,夷陵区,细颗粒物(PM2.5),89,87,86,66,62,116,108,100,100,25,25,9,7,0.6,0.7
2023-01-29T19:00:00,1844A,112.2494,30.3197,荆州市,市图书馆,细颗粒物(PM2.5),117,114,132,88,95,132,94,116,116,42,39,7,7,1.0,1
2023-01-29T19:00:00,1845A,112.2008,30.3544,荆州市,市委党校,细颗粒物(PM2.5),123,120,137,93,98,130,102,115,115,34,39,9,8,0.8,0.9
2023-01-29T19:00:00,1847A,113.1094,29.3578,岳阳市,南湖风景区,颗粒物(PM10),63,75,98,36,59,132,31,116,108,87,36,8,11,1.3,0.7
2023-01-29T19:00:00,1848A,113.1493,29.4251,岳阳市,城陵矶,颗粒物(PM10),68,86,100,39,48,121,102,111,111,19,35,8,10,0.6,0.7
2023-01-29T19:00:00,1849A,113.1497,29.3575,岳阳市,开发区,细颗粒物(PM2.5),72,71,93,52,60,126,100,116,116,26,28,6,7,0.5,0.5
2023-01-29T19:00:00,1850A,113.2621,29.4758,岳阳市,云溪区,颗粒物(PM10),73,96,92,46,48,122,55,113,107,54,22,10,8,0.9,0.6
2023-01-29T19:00:00,1851A,112.9943,29.4402,岳阳市,君山区,细颗粒物(PM2.5),75,93,108,55,69,119,102,110,110,22,31,8,8,0.5,0.7
2023-01-29T19:00:00,1852A,113.2117,29.355,岳阳市,金凤水库,颗粒物(PM10),65,80,89,36,44,118,110,109,109,15,15,5,7,0.5,0.5
2023-01-29T19:00:00,1854A,111.6975,28.9703,常德市,市二中,细颗粒物(PM2.5),98,120,136,73,94,112,86,95,95,21,18,8,7,0.7,0.8
2023-01-29T19:00:00,1857A,111.7158,29.1456,常德市,白鹤山,细颗粒物(PM2.5),85,93,107,63,61,119,99,103,103,12,10,4,4,0.4,0.7
2023-01-29T19:00:00,1858A,110.5319,29.1217,张家界市,永定新区,颗粒物(PM10),64,78,78,41,47,101,63,87,87,21,17,5,5,0.7,0.6
2023-01-29T19:00:00,1859A,110.4697,29.1242,张家界市,电业局,颗粒物(PM10),61,72,73,39,46,102,54,81,81,36,23,5,5,0.6,0.6
2023-01-29T19:00:00,1860A,110.5594,29.3547,张家界市,未央路,颗粒物(PM10),66,82,79,47,46,106,62,93,93,21,14,8,8,0.6,0.6
2023-01-29T19:00:00,1861A,110.4417,29.315,张家界市,袁家界,细颗粒物(PM2.5),57,54,74,40,38,107,95,100,97,17,10,11,11,0.5,0.6
2023-01-29T19:00:00,1862A,110.4144,25.3167,桂林市,电子科大尧山校区,,,,,,,,,,,,,,,,
2023-01-29T19:00:00,1863A,110.2819,25.2697,桂林市,监测站,细颗粒物(PM2.5),92,92,94,68,59,125,67,112,111,45,18,5,6,0.7,0.5
2023-01-29T19:00:00,1864A,110.3089,25.2708,桂林市,龙隐路小学,细颗粒物(PM2.5),69,81,87,50,54,126,98,115,115,20,16,9,9,0.7,0.7
2023-01-29T19:00:00,1865A,110.2869,25.2178,桂林市,八中,细颗粒物(PM2.5),78,66,84,57,56,121,66,108,106,48,20,5,6,0.8,0.6
2023-01-29T19:00:00,1866A,109.2262,21.588,北海市,牛尾岭水库,颗粒物(PM10),63,76,68,41,42,103,84,94,94,13,9,7,7,0.5,0.5
2023-01-29T19:00:00,1867A,109.1436,21.4086,北海市,海滩公园,颗粒物(PM10),67,83,77,42,41,117,115,110,110,9,7,7,7,0.5,0.4
2023-01-29T19:00:00,1868A,109.0981,21.4661,北海市,新市环保局,颗粒物(PM10),63,76,75,44,48,119,114,108,108,14,14,4,4,0.4,0.5
2023-01-29T19:00:00,1869A,109.1778,21.5233,北海市,北海工业园,细颗粒物(PM2.5),70,80,79,51,49,117,109,108,108,14,11,7,6,0.5,0.5
2023-01-29T19:00:00,1870A,109.4856,24.3895,柳州市,柳东小学,细颗粒物(PM2.5),72,80,87,52,54,112,106,103,103,9,7,8,10,0.6,0.7
2023-01-29T19:00:00,1871A,109.4157,24.3277,柳州市,环保监测站,,,80,99,,51,102,81,87,87,31,26,11,11,0.8,0.7
2023-01-29T19:00:00,1872A,109.389,24.341,柳州市,河西水厂,,,74,107,46,59,103,72,87,87,32,22,,11,0.9,1
2023-01-29T19:00:00,1873A,109.4311,24.2921,柳州市,市四中,细颗粒物(PM2.5),72,73,97,52,63,106,57,87,87,50,28,12,13,1.3,1
2023-01-29T19:00:00,1874A,109.4006,24.3631,柳州市,市九中,,,101,112,46,69,96,,84,84,32,28,8,11,1.0,1.2
2023-01-29T19:00:00,1875A,109.4958,24.3134,柳州市,古亭山,颗粒物(PM10),73,95,71,50,43,112,88,98,98,14,25,11,10,0.5,0.7
2023-01-29T19:00:00,1876A,109.5078,18.2489,三亚市,河东子站,颗粒物(PM10),55,59,54,22,23,116,108,108,108,11,6,3,3,0.5,0.4
2023-01-29T19:00:00,1877A,109.4964,18.2681,三亚市,河西子站,颗粒物(PM10),56,62,47,23,24,119,112,111,111,13,7,3,3,0.4,0.4
2023-01-29T19:00:00,1878A,104.7778,31.4741,绵阳市,富乐山,细颗粒物(PM2.5),93,103,88,69,58,131,118,110,110,11,33,4,3,0.7,0.8
2023-01-29T19:00:00,1879A,104.7563,31.4535,绵阳市,市人大,细颗粒物(PM2.5),99,109,101,74,64,126,44,86,86,87,58,9,8,1.0,0.8
2023-01-29T19:00:00,1880A,104.6697,31.4668,绵阳市,高新区自来水公司,细颗粒物(PM2.5),97,81,97,72,65,131,51,97,97,79,40,6,5,1.2,1
2023-01-29T19:00:00,1881A,104.7287,31.5075,绵阳市,三水厂,细颗粒物(PM2.5),100,110,108,75,67,122,65,89,89,71,42,5,4,0.7,0.7
2023-01-29T19:00:00,1882A,104.563,28.793,宜宾市,石马中学,颗粒物(PM10),60,70,82,40,60,85,80,73,73,25,21,7,6,0.6,0.7
2023-01-29T19:00:00,1883A,104.6201,28.7728,宜宾市,市委,细颗粒物(PM2.5),70,76,93,51,66,97,92,77,77,27,28,10,9,0.5,0.6
2023-01-29T19:00:00,1884A,104.6055,28.793,宜宾市,宜宾四中,细颗粒物(PM2.5),65,77,92,47,66,97,93,80,80,25,28,9,8,0.4,0.5
2023-01-29T19:00:00,1885A,104.639,28.7562,宜宾市,市政府,细颗粒物(PM2.5),74,83,91,54,63,96,82,78,78,37,34,14,10,0.6,0.6
2023-01-29T19:00:00,1886A,104.5742,28.7199,宜宾市,黄金嘴,细颗粒物(PM2.5),74,81,88,54,63,93,93,81,81,25,24,14,10,0.6,0.6
2023-01-29T19:00:00,1888A,101.6891,26.571,攀枝花市,弄弄坪,细颗粒物(PM2.5),99,89,91,74,68,118,109,94,94,32,19,16,12,2.0,1.3
2023-01-29T19:00:00,1889A,101.5769,26.5928,攀枝花市,河门口,细颗粒物(PM2.5),112,107,103,84,74,130,113,102,102,27,28,11,19,1.2,1.6
2023-01-29T19:00:00,1890A,101.7169,26.585,攀枝花市,炳草岗,细颗粒物(PM2.5),87,97,84,64,62,111,68,78,78,63,37,18,13,2.1,1.6
2023-01-29T19:00:00,1891A,101.7369,26.5008,攀枝花市,仁和,,,80,86,,62,135,,104,104,29,18,17,12,1.7,1.1
2023-01-29T19:00:00,1893A,105.4324,28.9634,泸州市,九狮山,颗粒物(PM10),63,76,84,43,58,99,89,79,79,15,16,8,7,0.4,0.5
2023-01-29T19:00:00,1894A,105.4427,28.9063,泸州市,小市上码头,颗粒物(PM10),71,91,114,45,77,102,96,84,84,17,23,7,6,0.6,0.8
2023-01-29T19:00:00,1895A,105.4241,28.8573,泸州市,兰田宪桥,细颗粒物(PM2.5),83,86,117,61,84,94,76,75,75,31,25,6,7,0.7,0.9
2023-01-29T19:00:00,1896A,105.4379,28.8833,泸州市,市环监站,颗粒物(PM10),68,85,111,41,71,97,74,76,76,32,27,4,4,0.7,0.7
2023-01-29T19:00:00,1901A,104.4239,31.1208,德阳市,东山公园,细颗粒物(PM2.5),105,121,107,79,63,120,100,100,100,35,24,4,4,1.0,0.9
2023-01-29T19:00:00,1902A,104.3826,31.1317,德阳市,西小区,细颗粒物(PM2.5),103,117,120,77,76,109,76,83,83,47,54,4,5,0.9,1
2023-01-29T19:00:00,1904A,104.3553,31.1091,德阳市,耐火材料厂,细颗粒物(PM2.5),104,155,151,78,79,116,88,98,98,42,37,7,7,0.8,0.7
2023-01-29T19:00:00,1905A,106.056,30.8064,南充市,西山风景区,,,,,,,,,,,,,,,,
2023-01-29T19:00:00,1906A,106.0789,30.8023,南充市,南充市委,细颗粒物(PM2.5),108,126,101,81,69,105,39,81,81,82,39,10,9,1.2,0.8
2023-01-29T19:00:00,1907A,106.1031,30.8217,南充市,南充炼油厂,细颗粒物(PM2.5),102,127,115,76,70,115,60,84,84,62,43,10,8,1.1,1.1
2023-01-29T19:00:00,1908A,106.1064,30.7856,南充市,高坪区监测站,细颗粒物(PM2.5),112,114,114,84,74,103,78,80,80,44,44,11,10,0.9,1.1
2023-01-29T19:00:00,1909A,106.0642,30.7636,南充市,嘉陵区环保局,细颗粒物(PM2.5),110,150,120,83,81,111,26,84,84,88,43,9,11,2.1,1
2023-01-29T19:00:00,1910A,106.1087,30.8388,南充市,市环境监测站,细颗粒物(PM2.5),100,113,111,75,69,110,88,84,84,39,44,12,10,0.8,0.9
2023-01-29T19:00:00,1911A,106.9222,27.6869,遵义市,丁字口,颗粒物(PM10),59,67,59,41,43,105,38,83,82,62,29,91,35,1.6,1.1
2023-01-29T19:00:00,1912A,106.9242,27.7019,遵义市,凤凰山,颗粒物(PM10),58,65,62,25,28,114,114,101,101,16,18,13,13,0.6,0.8
2023-01-29T19:00:00,1913A,106.8906,27.6486,遵义市,忠庄,颗粒物(PM10),59,68,62,41,39,113,107,94,94,16,22,7,12,0.6,0.8
2023-01-29T19:00:00,1914A,106.9231,27.6506,遵义市,舟水桥,"颗粒物(PM10),细颗粒物(PM2.5)",60,70,71,43,41,113,101,96,96,17,22,47,26,0.6,0.7
2023-01-29T19:00:00,1915A,106.9178,27.72,遵义市,干田坝,颗粒物(PM10),59,67,56,39,36,101,73,86,86,36,21,27,14,0.9,0.9
2023-01-29T19:00:00,1916A,103.7897,25.5035,曲靖市,环境监测站,,44,44,48,17,32,98,72,84,84,18,14,6,5,0.9,0.7
2023-01-29T19:00:00,1917A,103.8,25.5364,曲靖市,烟厂办公区,,28,28,51,13,32,87,83,78,78,10,11,4,4,0.7,0.9
2023-01-29T19:00:00,1918A,108.7197,34.3956,咸阳市,气象站,细颗粒物(PM2.5),72,80,95,52,73,97,44,78,78,68,43,13,12,0.8,0.9
2023-01-29T19:00:00,1919A,108.673,34.3155,咸阳市,实验中学,细颗粒物(PM2.5),72,78,122,52,86,103,82,88,88,44,44,7,7,0.6,0.8
2023-01-29T19:00:00,1920A,108.7233,34.3617,咸阳市,师范学院,细颗粒物(PM2.5),67,81,114,48,82,108,76,88,88,35,36,6,7,0.6,0.8
2023-01-29T19:00:00,1922A,109.0656,35.0994,铜川市,党校,"颗粒物(PM10),细颗粒物(PM2.5)",60,69,63,43,34,95,80,90,90,26,27,16,15,0.8,0.9
2023-01-29T19:00:00,1923A,109.0697,35.0697,铜川市,王益区政府,细颗粒物(PM2.5),72,76,65,52,43,93,51,81,81,46,32,12,10,0.8,0.7
2023-01-29T19:00:00,1924A,108.9344,34.9058,铜川市,新区管委会,细颗粒物(PM2.5),62,57,56,44,35,105,81,93,93,30,18,13,12,0.8,0.5
2023-01-29T19:00:00,1926A,109.4131,36.6275,延安市,枣园,,45,45,39,28,20,91,25,72,71,52,29,6,5,0.8,0.8
2023-01-29T19:00:00,1927A,109.4761,36.6028,延安市,延大医附院,细颗粒物(PM2.5),155,61,45,118,30,82,12,63,61,86,38,15,8,1.6,1.2
2023-01-29T19:00:00,1929A,109.5056,36.6106,延安市,百米大道,颗粒物(PM10),55,59,56,33,35,90,14,66,63,88,51,8,10,1.1,1.1
2023-01-29T19:00:00,1930A,107.185,34.3063,宝鸡市,庙沟村,颗粒物(PM10),56,62,58,31,30,87,72,80,80,15,11,5,4,0.7,0.7
2023-01-29T19:00:00,1931A,107.0708,34.3017,宝鸡市,竹园沟,细颗粒物(PM2.5),94,80,62,70,37,103,64,87,87,32,19,4,4,0.7,0.6
2023-01-29T19:00:00,1932A,107.1906,34.3672,宝鸡市,三陆医院,细颗粒物(PM2.5),82,62,87,60,57,95,58,78,78,55,36,13,10,0.5,0.8
2023-01-29T19:00:00,1933A,107.1431,34.3547,宝鸡市,监测站,细颗粒物(PM2.5),100,76,79,75,46,93,49,76,76,50,33,5,4,0.8,0.7
2023-01-29T19:00:00,1934A,107.1186,34.3739,宝鸡市,技工学校,细颗粒物(PM2.5),54,44,80,38,47,92,65,77,77,41,28,10,9,0.8,0.7
2023-01-29T19:00:00,1935A,107.3906,34.3528,宝鸡市,陈仓区环保局家属楼,细颗粒物(PM2.5),123,108,116,93,83,98,68,84,84,48,45,11,50,0.9,1.1
2023-01-29T19:00:00,1936A,107.2058,34.3497,宝鸡市,文理学院,颗粒物(PM10),60,70,87,42,50,102,49,80,80,61,35,10,10,0.8,0.7
2023-01-29T19:00:00,1937A,107.2386,34.3622,宝鸡市,三迪小学,细颗粒物(PM2.5),84,83,94,62,58,90,62,74,74,49,38,11,9,0.6,0.7
2023-01-29T19:00:00,1938A,109.5293,34.5101,渭南市,农科所,细颗粒物(PM2.5),79,100,81,58,46,91,60,75,75,38,32,12,12,0.9,0.9
2023-01-29T19:00:00,1939A,109.4974,34.4877,渭南市,日报社,颗粒物(PM10),87,124,82,60,49,85,48,68,68,70,43,10,12,1.2,1.1
2023-01-29T19:00:00,1940A,109.4636,34.493,渭南市,体育馆,细颗粒物(PM2.5),80,92,81,59,51,96,65,82,82,57,41,12,15,0.9,0.7
2023-01-29T19:00:00,1941A,109.4259,34.5023,渭南市,高新一小,细颗粒物(PM2.5),77,91,88,56,50,94,67,81,81,36,40,12,10,0.6,0.5
2023-01-29T19:00:00,1943A,102.1725,38.5339,金昌市,新川苑,颗粒物(PM10),54,57,57,12,21,86,60,74,74,28,24,11,36,0.7,1
2023-01-29T19:00:00,1944A,102.1692,38.5167,金昌市,天庆家园,,49,47,56,34,33,89,57,79,79,34,35,19,48,1.3,1.2
2023-01-29T19:00:00,1945A,98.2908,39.7711,嘉峪关市,气象局,细颗粒物(PM2.5),70,80,41,51,21,108,108,83,83,27,24,6,30,0.4,0.6
2023-01-29T19:00:00,1947A,106.3394,38.817,石嘴山市,沙湖旅游区,颗粒物(PM10),56,62,64,24,30,88,56,77,77,43,32,22,22,0.8,1.1
2023-01-29T19:00:00,1948A,106.3668,39.0145,石嘴山市,大武口朝阳西街,,49,49,85,23,52,87,51,71,71,47,44,22,33,0.7,1.3
2023-01-29T19:00:00,1949A,106.7704,39.2282,石嘴山市,惠农南大街,细颗粒物(PM2.5),67,75,88,48,54,77,27,62,60,62,44,23,49,1.0,1.5
2023-01-29T19:00:00,1950A,106.7099,39.1325,石嘴山市,红果子镇惠新街,颗粒物(PM10),77,103,89,49,51,75,35,62,61,60,40,30,31,1.2,1.2
2023-01-29T19:00:00,1951A,84.895,45.6094,克拉玛依市,长征新村,,,,78,,48,62,48,47,47,37,37,8,7,0.8,0.8
2023-01-29T19:00:00,1952A,84.8988,45.5893,克拉玛依市,南林小区,,,106,94,64,58,73,,51,51,,35,,2,0.8,0.7
2023-01-29T19:00:00,1954A,84.905,44.3396,克拉玛依市,独山子区,细颗粒物(PM2.5),204,205,157,154,111,98,81,79,79,60,54,7,7,1.4,1.5
2023-01-29T19:00:00,1955A,85.6979,46.098,克拉玛依市,乌尔禾区商贸楼,细颗粒物(PM2.5),120,88,91,91,77,81,80,67,67,16,29,9,12,0.9,1.3
2023-01-29T19:00:00,1956A,86.1472,41.7538,巴音郭楞州,孔雀公园,颗粒物(PM10),188,325,266,86,77,100,98,82,82,,49,4,6,0.6,0.9
2023-01-29T19:00:00,1957A,86.1972,41.7166,巴音郭楞州,棉纺厂,颗粒物(PM10),182,313,317,83,76,91,82,76,76,17,50,5,3,0.5,0.7
2023-01-29T19:00:00,1958A,86.2357,41.7173,巴音郭楞州,经济开发区,颗粒物(PM10),163,275,254,55,64,95,89,87,87,16,21,5,5,0.7,0.7
2023-01-29T19:00:00,1961A,117.532,36.6868,济南市,东山小学,颗粒物(PM10),77,103,70,29,23,84,38,75,72,40,13,6,10,0.5,0.4
2023-01-29T19:00:00,1966A,120.0405,35.8735,青岛市,黄岛区4号,颗粒物(PM10),85,119,90,27,32,81,60,75,75,25,28,7,13,0.7,0.9
2023-01-29T19:00:00,1982A,122.0693,37.2174,威海市,文登开发区,颗粒物(PM10),112,173,106,46,28,72,47,66,64,31,21,5,6,0.9,0.6
2023-01-29T19:00:00,2031A,113.1817,27.9958,株洲市,云田中学,细颗粒物(PM2.5),74,92,102,54,64,115,108,108,108,18,19,7,7,0.7,0.8
2023-01-29T19:00:00,2054A,114.1099,32.1059,信阳市,平桥分局,颗粒物(PM10),73,95,92,47,43,107,98,104,104,16,15,10,10,0.9,0.8
2023-01-29T19:00:00,2064A,113.9956,32.1271,信阳市,南湾水厂,颗粒物(PM10),66,82,77,36,35,118,118,111,111,10,9,8,8,0.7,0.7
2023-01-29T19:00:00,2065A,114.0775,32.1195,信阳市,市酿酒公司,细颗粒物(PM2.5),92,88,75,68,55,110,52,105,100,71,28,8,9,1.1,0.8
2023-01-29T19:00:00,2066A,114.0609,32.1399,信阳市,审计局,细颗粒物(PM2.5),75,90,90,55,58,109,67,103,100,33,25,10,11,0.9,0.9
2023-01-29T19:00:00,2067A,114.6613,33.6128,周口市,市环境监测站,,37,37,85,25,38,99,66,87,87,36,25,6,7,0.5,0.4
2023-01-29T19:00:00,2068A,114.6758,33.6347,周口市,周口师范,"颗粒物(PM10),细颗粒物(PM2.5)",63,76,78,45,38,104,73,92,92,40,27,7,8,0.4,0.4
2023-01-29T19:00:00,2069A,114.6546,33.5979,周口市,市运管处,颗粒物(PM10),53,55,82,24,39,106,78,94,94,34,24,7,8,0.3,0.4
2023-01-29T19:00:00,2070A,114.6369,33.6406,周口市,川汇区环保局,颗粒物(PM10),68,85,84,39,42,96,65,83,83,39,31,6,6,0.3,0.2
2023-01-29T19:00:00,2075A,117.6336,24.4674,漳州市,九湖,,,,,,,,,,,,,,,,
2023-01-29T19:00:00,2160A,112.85,35.5051,晋城市,自来水公司,颗粒物(PM10),53,56,45,22,16,87,77,82,82,22,13,8,10,0.5,0.5
2023-01-29T19:00:00,2161A,112.8318,35.4936,晋城市,白云商贸,,45,45,38,12,14,86,80,83,83,24,11,7,8,0.6,0.6
2023-01-29T19:00:00,2162A,112.8508,35.4887,晋城市,市环保局,颗粒物(PM10),58,65,48,27,20,92,83,87,87,24,13,7,8,0.6,0.5
2023-01-29T19:00:00,2163A,112.8676,35.4897,晋城市,技术学院,颗粒物(PM10),53,55,44,19,16,90,78,84,84,32,17,7,8,0.7,0.6
2023-01-29T19:00:00,2165A,112.8453,35.546,晋城市,白马寺 ,,,,,,,,,,,,,,,,
2023-01-29T19:00:00,2166A,112.4397,39.3522,朔州市,平朔,,48,48,69,25,20,78,55,69,69,22,19,7,11,0.4,0.5
2023-01-29T19:00:00,2167A,112.4575,39.3617,朔州市,朔唯,颗粒物(PM10),56,61,85,20,21,82,57,72,72,21,25,10,16,0.3,0.5
2023-01-29T19:00:00,2168A,112.4258,39.3197,朔州市,区政府,,35,35,66,21,21,82,60,73,73,20,12,6,9,0.5,0.5
2023-01-29T19:00:00,2169A,112.4072,39.3278,朔州市,市环保局,,38,38,64,12,24,79,57,71,71,20,15,9,12,0.5,0.5
2023-01-29T19:00:00,2170A,112.4272,39.3681,朔州市,市二中,细颗粒物(PM2.5),62,43,71,44,20,83,46,71,71,27,19,10,10,0.7,0.6
2023-01-29T19:00:00,2171A,112.7532,37.6945,晋中市,锦纶小区,,,68,68,26,29,82,52,73,73,33,28,,25,0.8,0.7
2023-01-29T19:00:00,2173A,112.7249,37.7067,晋中市,南都小区,颗粒物(PM10),59,68,64,16,25,78,59,72,72,24,22,10,22,0.5,0.6
2023-01-29T19:00:00,2174A,112.6991,37.6982,晋中市,榆次区政府,颗粒物(PM10),52,54,67,22,26,82,65,76,75,17,23,7,21,0.4,0.5
2023-01-29T19:00:00,2175A,110.9956,35.0147,运城市,运城中学,颗粒物(PM10),54,57,92,19,57,95,80,86,86,20,26,10,16,0.6,1
2023-01-29T19:00:00,2178A,110.9686,35.0303,运城市,地区技校,颗粒物(PM10),59,68,104,27,63,94,79,85,85,23,32,9,12,0.5,0.6
2023-01-29T19:00:00,2179A,111.0414,35.1147,运城市,空港新区,颗粒物(PM10),58,66,95,33,63,106,85,95,95,26,31,12,13,0.6,0.9
2023-01-29T19:00:00,2181A,112.7383,38.4519,忻州市,开发区,,39,39,45,14,17,80,68,76,76,18,28,7,13,0.9,0.8
2023-01-29T19:00:00,2182A,112.7003,38.4928,忻州市,会展中心,,35,35,44,12,18,76,42,70,68,41,29,8,8,0.6,0.7
2023-01-29T19:00:00,2183A,111.1406,37.5211,吕梁市,环保局,颗粒物(PM10),72,93,75,24,23,61,3,44,41,73,46,13,12,0.6,0.5
2023-01-29T19:00:00,2185A,111.1297,37.5136,吕梁市,自来水公司,颗粒物(PM10),65,80,76,17,27,59,16,42,42,54,40,11,17,0.8,0.6
2023-01-29T19:00:00,2187A,106.8174,39.6973,乌海市,市林业局,,44,44,48,22,22,96,82,90,90,10,8,11,10,0.5,0.5
2023-01-29T19:00:00,2188A,106.7907,39.6667,乌海市,中海勃湾学校,颗粒物(PM10),59,68,55,37,23,94,73,90,89,23,24,10,11,0.5,0.5
2023-01-29T19:00:00,2191A,122.2532,43.6801,通辽市,艺术职业学校,,38,38,36,13,11,77,70,73,73,9,14,6,12,0.4,0.4
2023-01-29T19:00:00,2192A,119.7594,49.2261,呼伦贝尔市,区环保局,,50,43,40,35,33,54,25,40,38,46,27,5,6,1.0,0.7
2023-01-29T19:00:00,2195A,107.4212,40.761,巴彦淖尔市,附二中,颗粒物(PM10),57,64,75,14,18,87,75,83,83,14,6,4,4,0.5,0.4
2023-01-29T19:00:00,2196A,107.37,40.7372,巴彦淖尔市,市环保大楼,颗粒物(PM10),55,59,70,15,26,91,69,87,86,20,7,5,4,0.5,0.4
2023-01-29T19:00:00,2197A,113.1306,40.9923,乌兰察布市,集宁新区,颗粒物(PM10),51,51,71,21,21,75,53,69,68,19,10,11,11,0.4,0.4
2023-01-29T19:00:00,2200A,122.0392,46.0656,兴安盟,胜华新制药厂,细颗粒物(PM2.5),225,172,50,175,47,64,8,50,44,58,18,26,8,3.5,0.8
2023-01-29T19:00:00,2201A,121.9504,46.0741,兴安盟,科右前旗环保局,细颗粒物(PM2.5),60,56,45,43,33,69,69,58,58,12,15,3,4,0.6,0.6
2023-01-29T19:00:00,2202A,116.1042,43.9317,锡林郭勒盟,市环保监测站,,20,18,37,4,8,76,61,69,68,11,4,7,6,0.3,0.3
2023-01-29T19:00:00,2203A,116.0781,43.9311,锡林郭勒盟,市政府,,26,26,48,10,10,71,58,67,66,16,7,7,8,0.3,0.2
2023-01-29T19:00:00,2204A,105.6467,38.8363,阿拉善盟,西城区西花园,,25,25,40,14,14,92,75,88,88,20,14,6,7,0.5,0.6
2023-01-29T19:00:00,2205A,105.6985,38.8411,阿拉善盟,蒙二幼,,25,25,36,12,24,89,74,88,86,20,13,7,9,0.6,0.5
2023-01-29T19:00:00,2206A,105.724,38.8516,阿拉善盟,环保局新楼,,32,29,29,22,18,92,76,90,85,16,5,1,7,0.5,0.4
2023-01-29T19:00:00,2207A,121.6094,41.998,阜新市,工业园区,细颗粒物(PM2.5),95,94,97,71,35,66,17,60,54,39,21,24,16,1.4,1.2
2023-01-29T19:00:00,2208A,121.6697,42.0279,阜新市,长青街,颗粒物(PM10),57,64,62,24,27,74,40,68,65,23,21,10,13,0.8,0.9
2023-01-29T19:00:00,2209A,121.6673,42.0705,阜新市,农业园区,,27,27,68,14,26,71,61,68,68,6,12,9,18,0.7,0.7
2023-01-29T19:00:00,2210A,121.6717,42.0224,阜新市,东苑,颗粒物(PM10),55,60,83,32,38,74,49,68,66,17,19,8,19,0.7,0.8
2023-01-29T19:00:00,2211A,121.6506,42.0498,阜新市,玉龙新城,,33,33,75,16,32,77,46,72,69,21,21,10,13,0.6,0.9
2023-01-29T19:00:00,2212A,123.2,41.1953,辽阳市,宏伟区,,40,40,71,20,22,66,41,61,60,26,17,8,15,0.8,1
2023-01-29T19:00:00,2213A,123.1683,41.2495,辽阳市,新华园,,34,34,68,23,26,76,50,70,68,25,26,8,19,0.6,0.9
2023-01-29T19:00:00,2214A,123.2354,41.2639,辽阳市,滨河路,,36,36,64,25,23,68,51,63,63,18,19,5,12,0.5,0.8
2023-01-29T19:00:00,2215A,123.149,41.2991,辽阳市,铁西工业园,颗粒物(PM10),53,55,68,27,24,68,10,60,54,54,25,7,15,0.8,1.1
2023-01-29T19:00:00,2216A,123.8139,42.3022,铁岭市,汇工街西,,,53,58,,24,72,49,70,67,33,23,21,25,1.1,0.8
2023-01-29T19:00:00,2217A,123.8649,42.2923,铁岭市,水上乐园,细颗粒物(PM2.5),60,16,78,43,27,69,23,64,60,55,20,19,15,0.4,0.6
2023-01-29T19:00:00,2218A,123.8486,42.2867,铁岭市,银州路东段,,45,34,71,31,28,69,32,65,62,39,23,11,14,0.5,0.7
2023-01-29T19:00:00,2219A,123.7153,42.2217,铁岭市,金沙江路北,,29,26,54,20,23,68,44,63,62,30,21,10,13,0.4,0.6
2023-01-29T19:00:00,2220A,120.4318,41.5881,朝阳市,西梁,细颗粒物(PM2.5),72,64,50,52,15,77,11,72,60,67,17,22,14,1.2,0.7
2023-01-29T19:00:00,2221A,120.4521,41.5646,朝阳市,河畔小区,细颗粒物(PM2.5),63,54,46,45,14,69,30,63,58,36,16,11,10,1.1,0.8
2023-01-29T19:00:00,2222A,120.4176,41.5648,朝阳市,八里堡,细颗粒物(PM2.5),99,82,62,74,20,79,10,72,63,67,18,19,14,1.4,0.7
2023-01-29T19:00:00,2223A,120.3806,41.5969,朝阳市,农业园区,细颗粒物(PM2.5),59,34,43,42,13,79,20,76,66,52,11,12,8,0.8,0.6
2023-01-29T19:00:00,2225A,124.4002,43.1713,四平市,一商场,,50,50,56,29,27,63,32,55,51,34,16,9,11,1.4,0.6
2023-01-29T19:00:00,2226A,124.388,43.193,四平市,境园,,48,48,55,16,22,70,40,66,59,33,24,12,14,0.8,0.6
2023-01-29T19:00:00,2227A,125.1358,42.8845,辽源市,环保局,,38,34,46,26,32,70,49,66,65,21,17,9,12,0.8,1
2023-01-29T19:00:00,2229A,125.9358,41.7173,通化市,光明,,27,27,61,13,34,70,61,65,65,16,37,15,39,0.6,1
2023-01-29T19:00:00,2230A,125.9446,41.7325,通化市,铁路,,29,29,57,9,31,75,68,69,69,10,34,9,31,0.5,1.4
2023-01-29T19:00:00,2231A,126.4219,41.9171,白山市,喜丰,,37,37,63,18,32,69,64,63,63,15,25,8,22,0.8,1.2
2023-01-29T19:00:00,2232A,126.4077,41.9419,白山市,环保局,,47,47,82,15,47,65,62,56,56,8,25,12,22,0.8,1.3
2023-01-29T19:00:00,2233A,124.8006,45.1214,松原市,江南,细颗粒物(PM2.5),94,76,56,70,41,58,32,50,48,44,26,16,16,1.2,0.7
2023-01-29T19:00:00,2234A,124.7965,45.1722,松原市,江北,颗粒物(PM10),55,59,65,38,36,66,42,60,59,28,18,5,11,0.9,0.7
2023-01-29T19:00:00,2235A,122.7911,45.6077,白城市,洮北区环保局,细颗粒物(PM2.5),60,54,35,43,24,65,41,58,57,28,15,4,3,0.6,0.4
2023-01-29T19:00:00,2236A,122.8738,45.5725,白城市,市环保局,颗粒物(PM10),64,78,44,37,18,61,30,54,50,33,16,7,6,0.5,0.4
2023-01-29T19:00:00,2237A,129.47,42.8883,延边朝鲜族自治州,妇幼医院,细颗粒物(PM2.5),92,51,37,68,29,58,17,56,37,54,23,31,22,1.1,0.8
2023-01-29T19:00:00,2238A,129.5055,42.9108,延边朝鲜族自治州,延边医院,细颗粒物(PM2.5),73,44,36,53,35,66,49,50,48,22,23,11,15,0.9,0.9
2023-01-29T19:00:00,2239A,129.3964,42.8881,延边朝鲜族自治州,朝阳川镇医院,,,51,31,47,23,66,,60,60,20,12,12,12,0.8,0.6
2023-01-29T19:00:00,2240A,130.9762,45.3001,鸡西市,环保局,细颗粒物(PM2.5),83,92,81,61,56,63,37,60,49,46,36,12,16,1.2,1.1
2023-01-29T19:00:00,2243A,130.9429,45.3039,鸡西市,第一中学,细颗粒物(PM2.5),79,87,57,58,41,65,35,62,44,37,16,10,12,0.6,0.5
2023-01-29T19:00:00,2244A,130.2537,47.3416,鹤岗市,哈啤分公司,细颗粒物(PM2.5),62,44,39,44,31,68,58,68,54,17,15,19,17,0.5,0.5
2023-01-29T19:00:00,2245A,130.2684,47.3086,鹤岗市,斯达机电,颗粒物(PM10),54,58,38,33,25,70,49,70,57,32,17,18,14,0.4,0.3
2023-01-29T19:00:00,2246A,130.3114,47.3388,鹤岗市,东山纸板厂,颗粒物(PM10),63,76,75,44,43,62,31,58,48,48,18,17,19,0.9,1
2023-01-29T19:00:00,2247A,130.1097,47.3382,鹤岗市,五号水库,,39,37,24,27,20,76,63,72,70,7,5,8,7,0.5,0.5
2023-01-29T19:00:00,2248A,131.1511,46.6937,双鸭山市,双合村,颗粒物(PM10),83,116,130,47,81,63,22,55,48,44,30,12,18,0.7,1.5
2023-01-29T19:00:00,2249A,131.1652,46.6191,双鸭山市,南小市,细颗粒物(PM2.5),68,73,58,49,38,74,30,61,51,40,22,12,17,0.9,0.8
2023-01-29T19:00:00,2250A,131.1524,46.6554,双鸭山市,环保局,细颗粒物(PM2.5),108,102,67,81,52,78,41,68,65,49,42,9,15,0.9,0.9
2023-01-29T19:00:00,2251A,131.12,46.5656,双鸭山市,苗圃,,38,38,34,8,29,80,42,72,61,33,33,16,9,0.6,0.2
2023-01-29T19:00:00,2252A,128.5159,47.4311,伊春市,环保局,颗粒物(PM10),51,52,38,27,30,60,22,56,46,47,19,6,6,0.9,0.8
2023-01-29T19:00:00,2253A,128.9102,47.7412,伊春市,电力嘉园,,43,43,48,29,30,70,36,53,52,30,15,9,8,0.5,0.5
2023-01-29T19:00:00,2254A,129.5029,48.471,伊春市,汤旺河国家公园,,20,15,15,14,10,74,58,64,64,2,2,5,6,0,0.2
2023-01-29T19:00:00,2255A,130.2751,46.8028,佳木斯市,佳纺,"颗粒物(PM10),细颗粒物(PM2.5)",98,145,81,73,70,70,15,54,43,56,32,12,12,1.4,1
2023-01-29T19:00:00,2256A,130.3995,46.8307,佳木斯市,发电厂,细颗粒物(PM2.5),64,48,53,46,50,62,50,56,56,22,26,8,10,0.7,0.8
2023-01-29T19:00:00,2257A,130.3258,46.7975,佳木斯市,环保局,细颗粒物(PM2.5),64,65,57,46,48,68,4,50,40,73,38,13,13,1.4,0.7
2023-01-29T19:00:00,2258A,130.3648,46.8032,佳木斯市,十一中,细颗粒物(PM2.5),84,72,60,62,51,50,24,42,36,56,44,13,12,0.8,0.8
2023-01-29T19:00:00,2259A,130.3794,46.7588,佳木斯市,四丰,细颗粒物(PM2.5),72,69,31,52,25,146,92,140,115,39,10,1,1,0.4,0.1
2023-01-29T19:00:00,2262A,131.0518,45.8751,七台河市,新一中,细颗粒物(PM2.5),75,77,34,55,28,85,54,76,74,34,12,15,9,0.7,0.5
2023-01-29T19:00:00,2263A,127.4833,50.2524,黑河市,交通局,细颗粒物(PM2.5),54,54,42,38,31,53,42,49,41,32,28,27,22,0.9,0.8
2023-01-29T19:00:00,2264A,127.5144,50.2341,黑河市,环保局,颗粒物(PM10),70,89,66,43,42,63,26,53,52,46,22,33,24,0.7,0.7
2023-01-29T19:00:00,2265A,127.5291,50.2472,黑河市,大黑河岛,细颗粒物(PM2.5),57,37,35,40,31,81,59,73,72,13,6,16,8,0.6,0.5
2023-01-29T19:00:00,2266A,126.9785,46.6365,绥化市,人和东街,细颗粒物(PM2.5),115,115,103,87,81,70,57,67,58,34,29,8,11,0.7,0.7
2023-01-29T19:00:00,2267A,126.964,46.6528,绥化市,党政办公中心,细颗粒物(PM2.5),113,124,112,85,86,69,43,59,57,50,35,20,12,0.7,0.7
2023-01-29T19:00:00,2269A,124.1069,50.4097,大兴安岭地区,科技局,,34,34,30,23,21,57,42,46,46,13,8,6,6,0.2,0.2
2023-01-29T19:00:00,2270A,117.396,32.939,蚌埠市,工人疗养院,颗粒物(PM10),64,78,84,34,46,108,84,99,99,32,28,6,6,0.6,0.6
2023-01-29T19:00:00,2271A,117.3605,32.9427,蚌埠市,百货大楼,细颗粒物(PM2.5),67,80,87,48,47,109,42,98,94,70,30,12,13,0.9,0.6
2023-01-29T19:00:00,2273A,117.4185,32.8911,蚌埠市,蚌埠学院,细颗粒物(PM2.5),85,112,98,63,42,113,92,104,104,24,21,11,8,0.7,0.5
2023-01-29T19:00:00,2274A,117.3533,32.9673,蚌埠市,淮上区政府,颗粒物(PM10),74,97,97,44,44,109,74,100,98,38,27,12,13,0.6,0.5
2023-01-29T19:00:00,2275A,117.3145,32.8977,蚌埠市,高新区,细颗粒物(PM2.5),77,95,95,56,50,107,62,97,95,36,24,8,8,0.4,0.3
2023-01-29T19:00:00,2277A,116.8305,32.7727,淮南市,潘集区政府,细颗粒物(PM2.5),78,92,101,57,58,109,90,99,99,20,16,8,8,0.4,0.7
2023-01-29T19:00:00,2278A,117.0067,32.6524,淮南市,师范学院,颗粒物(PM10),88,126,100,44,51,105,15,94,86,93,32,11,11,1.1,0.8
2023-01-29T19:00:00,2279A,116.8569,32.5951,淮南市,谢家集区政府,颗粒物(PM10),63,75,86,42,42,107,102,101,101,13,13,12,11,0.6,0.5
2023-01-29T19:00:00,2280A,116.8281,32.633,淮南市,八公山区政府,颗粒物(PM10),62,74,75,43,39,109,106,103,103,8,7,11,11,0.4,0.4
2023-01-29T19:00:00,2281A,116.6325,32.6201,淮南市,焦岗湖风景区管理处,颗粒物(PM10),64,78,87,7,4,93,81,87,87,2,4,6,5,0.4,0.6
2023-01-29T19:00:00,2282A,116.8004,33.975,淮北市,监测站,细颗粒物(PM2.5),70,80,97,51,58,102,56,86,85,50,35,14,12,0.8,0.7
2023-01-29T19:00:00,2283A,116.8091,33.9007,淮北市,烈山区政府,细颗粒物(PM2.5),105,136,104,79,63,107,58,95,93,58,38,11,10,0.8,0.6
2023-01-29T19:00:00,2284A,116.7856,33.9477,淮北市,职业技术学院,细颗粒物(PM2.5),73,90,85,53,58,101,14,88,82,81,34,11,12,1.0,0.6
2023-01-29T19:00:00,2285A,117.8177,30.9412,铜陵市,市第四中学,颗粒物(PM10),74,98,88,46,39,104,78,93,93,36,36,14,13,1.0,0.9
2023-01-29T19:00:00,2286A,117.8059,30.9273,铜陵市,市公路局,颗粒物(PM10),90,129,84,66,41,94,73,84,84,31,30,12,12,0.8,0.8
2023-01-29T19:00:00,2287A,117.7807,30.9413,铜陵市,市新民污水厂,"颗粒物(PM10),细颗粒物(PM2.5)",72,94,91,52,42,107,84,95,95,40,36,36,18,0.6,0.6
2023-01-29T19:00:00,2288A,117.7439,30.8792,铜陵市,市第九中学,颗粒物(PM10),80,109,93,58,40,95,69,87,87,43,27,11,9,0.7,0.6
2023-01-29T19:00:00,2289A,117.846,30.9413,铜陵市,车站新区,细颗粒物(PM2.5),73,90,66,53,35,102,88,93,93,27,20,8,21,0.7,0.6
2023-01-29T19:00:00,2290A,117.8483,30.97,铜陵市,市职教基地,颗粒物(PM10),70,89,80,50,40,106,90,96,96,24,23,17,13,0.6,0.6
2023-01-29T19:00:00,2291A,117.0809,30.5177,安庆市,环科院,细颗粒物(PM2.5),90,97,94,67,59,122,101,110,110,23,36,10,9,0.8,0.8
2023-01-29T19:00:00,2292A,117.0331,30.5119,安庆市,马山宾馆,细颗粒物(PM2.5),97,103,96,72,56,116,84,103,103,44,36,11,10,0.8,0.8
2023-01-29T19:00:00,2294A,116.9896,30.6145,安庆市,安庆大学,细颗粒物(PM2.5),78,92,84,57,51,122,110,111,111,23,24,12,10,0.8,0.8
2023-01-29T19:00:00,2295A,118.2903,29.6963,黄山市,延安路89号,细颗粒物(PM2.5),52,43,35,36,26,95,86,86,86,7,8,6,6,0.2,0.2
2023-01-29T19:00:00,2296A,118.327,29.7178,黄山市,黄山东路89号,细颗粒物(PM2.5),65,56,41,47,26,89,60,78,78,29,16,8,7,0.7,0.5
2023-01-29T19:00:00,2297A,118.1371,30.2756,黄山市,黄山区政府5号楼,细颗粒物(PM2.5),73,89,42,53,22,98,62,87,86,13,9,8,6,0.6,0.5
2023-01-29T19:00:00,2298A,118.3093,32.3153,滁州市,老年大学,颗粒物(PM10),62,73,70,40,39,115,98,106,106,21,26,7,6,0.6,0.6
2023-01-29T19:00:00,2299A,118.3244,32.2786,滁州市,人大宾馆,颗粒物(PM10),65,80,72,43,36,110,67,102,98,50,21,7,7,0.7,0.5
2023-01-29T19:00:00,2301A,115.8277,32.8929,阜阳市,市监测站,颗粒物(PM10),64,77,91,45,58,103,52,95,90,56,29,10,11,0.7,0.6
2023-01-29T19:00:00,2303A,115.8554,32.8605,阜阳市,开发区,颗粒物(PM10),76,102,131,32,62,111,77,102,100,32,28,8,8,0.8,0.9
2023-01-29T19:00:00,2307A,116.5079,31.737,六安市,监测大楼,颗粒物(PM10),55,60,56,34,29,104,92,96,96,16,12,7,7,0.4,0.3
2023-01-29T19:00:00,2308A,116.4738,31.7643,六安市,皖西学院,颗粒物(PM10),60,70,61,30,27,106,100,102,102,10,9,6,4,0.3,0.2
2023-01-29T19:00:00,2309A,116.4996,31.7905,六安市,朝阳厂,细颗粒物(PM2.5),60,68,52,43,25,106,100,102,102,24,12,8,5,0.4,0.4
2023-01-29T19:00:00,2310A,116.5567,31.7886,六安市,开发区,颗粒物(PM10),65,79,72,33,31,106,65,98,96,30,13,7,6,0.4,0.3
2023-01-29T19:00:00,2311A,115.8072,33.8399,亳州市,污水处理厂,颗粒物(PM10),82,114,79,38,42,93,32,81,78,50,19,6,6,0.6,0.4
2023-01-29T19:00:00,2312A,115.7789,33.8518,亳州市,三国揽胜宫,颗粒物(PM10),69,87,95,31,46,99,21,86,81,67,23,6,8,1.4,0.6
2023-01-29T19:00:00,2314A,117.47,30.6618,池州市,池州学院,细颗粒物(PM2.5),85,118,74,63,39,115,104,108,108,18,13,13,7,0.7,0.5
2023-01-29T19:00:00,2316A,118.7581,30.9454,宣城市,鳌峰子站,颗粒物(PM10),54,58,54,28,26,102,92,97,97,17,19,9,8,0.6,0.5
2023-01-29T19:00:00,2317A,118.7385,30.9743,宣城市,敬亭山子站,,47,47,52,23,22,109,90,108,105,16,11,6,5,0.4,0.4
2023-01-29T19:00:00,2318A,118.7173,30.9427,宣城市,开发区子站,,50,50,50,34,26,112,82,105,104,32,16,8,6,0.6,0.6
2023-01-29T19:00:00,2319A,119.0141,25.4325,莆田市,荔城区仓后路,颗粒物(PM10),52,54,45,34,22,120,93,106,106,17,9,8,8,0.8,0.6
2023-01-29T19:00:00,2320A,119.0015,25.4553,莆田市,莆田市监测站,,48,48,43,32,24,120,93,108,107,15,7,8,7,0.6,0.4
2023-01-29T19:00:00,2321A,119.1119,25.4561,莆田市,涵江区六中,细颗粒物(PM2.5),64,50,47,46,30,115,93,105,105,18,8,8,7,0.8,0.6
2023-01-29T19:00:00,2322A,119.1013,25.3215,莆田市,秀屿区政府,颗粒物(PM10),53,55,48,36,28,118,103,110,110,14,9,6,7,0.5,0.5
2023-01-29T19:00:00,2323A,118.981,25.4792,莆田市,东圳水库,,,,,,,,,,,,,,,,
2023-01-29T19:00:00,2324A,117.6211,26.2625,三明市,三钢,细颗粒物(PM2.5),55,48,49,39,29,99,62,88,88,25,12,7,8,0.7,0.6
2023-01-29T19:00:00,2325A,117.635,26.2714,三明市,三明二中,细颗粒物(PM2.5),52,43,45,36,29,92,62,84,84,25,14,4,7,0.6,0.6
2023-01-29T19:00:00,2326A,117.6028,26.2378,三明市,三元区政府,细颗粒物(PM2.5),94,70,48,70,31,119,37,87,85,52,17,8,12,1.5,1.1
2023-01-29T19:00:00,2327A,117.7275,26.3108,三明市,洋溪,,,,,,,,,,,,,,,,
2023-01-29T19:00:00,2331A,118.0966,26.6761,南平市,茫荡山,,,,,,,,,,,,,,,,
2023-01-29T19:00:00,2332A,118.1681,26.6369,南平市,南平市监测站,细颗粒物(PM2.5),70,66,47,51,27,95,48,85,82,29,12,5,5,0.8,0.5
2023-01-29T19:00:00,2333A,118.1825,26.6489,南平市,南平铝业有限公司,细颗粒物(PM2.5),68,61,46,49,29,93,58,85,84,16,8,9,8,0.5,0.4
2023-01-29T19:00:00,2334A,118.1756,26.6272,南平市,南平七中,细颗粒物(PM2.5),58,45,42,41,25,102,72,90,90,15,10,5,6,0.5,0.6
2023-01-29T19:00:00,2335A,117.0189,25.1181,龙岩市,龙岩师专,,,,,,,,,,,,,,,,
2023-01-29T19:00:00,2336A,117.0217,25.1033,龙岩市,龙岩市监测站,,42,42,40,28,23,103,79,98,96,20,10,6,8,0.5,0.4
2023-01-29T19:00:00,2337A,117.0258,25.0661,龙岩市,闽西职业技术学院,,46,44,44,32,22,101,64,95,92,23,13,8,8,0.7,0.5
2023-01-29T19:00:00,2338A,117.0196,25.0306,龙岩市,龙岩学院,颗粒物(PM10),53,56,41,27,22,103,70,94,94,11,9,5,6,0.3,0.4
2023-01-29T19:00:00,2339A,119.5001,26.6946,宁德市,金涵水库,,,,,,,,,,,,,,,,
2023-01-29T19:00:00,2341A,119.5388,26.6612,宁德市,宁德市监测站,细颗粒物(PM2.5),60,47,42,43,27,106,80,96,96,23,9,6,6,0.9,0.6
2023-01-29T19:00:00,2342A,117.3102,29.3867,景德镇市,王港中学,细颗粒物(PM2.5),60,66,51,43,33,132,81,114,114,18,8,8,9,0.4,0.3
2023-01-29T19:00:00,2343A,117.2117,29.2933,景德镇市,老干部活动中心,颗粒物(PM10),71,91,87,48,45,106,62,90,90,31,21,10,9,0.9,0.6
2023-01-29T19:00:00,2344A,117.1894,29.2789,景德镇市,兽医站,,,,57,,36,40,,39,,,19,,10,,0.7
2023-01-29T19:00:00,2345A,117.1547,29.2617,景德镇市,台达陶瓷,颗粒物(PM10),58,66,58,31,34,115,75,98,98,28,25,11,20,0.9,0.8
2023-01-29T19:00:00,2346A,117.2461,29.2956,景德镇市,陶研所,颗粒物(PM10),68,86,73,32,33,108,60,91,91,30,12,15,7,0.9,0.7
2023-01-29T19:00:00,2347A,114.0997,27.5002,萍乡市,武功山,,46,46,40,26,23,100,75,90,85,13,14,3,5,0.6,0.4
2023-01-29T19:00:00,2348A,113.8385,27.6434,萍乡市,中医院,颗粒物(PM10),79,108,93,48,49,106,56,89,89,30,18,11,13,1.0,1
2023-01-29T19:00:00,2349A,113.8493,27.6253,萍乡市,市政府车库,颗粒物(PM10),71,92,92,51,57,116,36,100,98,53,18,6,5,1.5,0.8
2023-01-29T19:00:00,2350A,113.8676,27.6435,萍乡市,市环保局,细颗粒物(PM2.5),67,80,89,48,54,110,68,97,97,36,23,13,15,1.0,0.9
2023-01-29T19:00:00,2351A,113.866,27.6198,萍乡市,安源区政府,颗粒物(PM10),70,90,81,20,56,112,83,101,101,22,21,6,8,0.8,1
2023-01-29T19:00:00,2352A,115.0861,27.9317,新余市,北岗,,43,43,52,24,35,95,82,85,85,17,11,11,9,0.4,0.7
2023-01-29T19:00:00,2353A,114.9886,27.8431,新余市,飞宇,颗粒物(PM10),51,51,78,31,40,84,70,77,77,20,20,9,16,0.5,0.8
2023-01-29T19:00:00,2354A,114.9231,27.8246,新余市,第二水厂,颗粒物(PM10),60,69,84,36,42,86,69,76,76,26,24,10,17,0.4,0.7
2023-01-29T19:00:00,2355A,114.9308,27.8036,新余市,市气象局,"颗粒物(PM10),细颗粒物(PM2.5)",54,58,97,38,52,73,72,58,58,19,25,10,15,0.2,1.4
2023-01-29T19:00:00,2357A,116.9822,28.1136,鹰潭市,龙虎山,颗粒物(PM10),56,61,53,36,24,135,114,124,124,2,2,4,4,1.0,0.7
2023-01-29T19:00:00,2358A,117.0564,28.2642,鹰潭市,新监测站,细颗粒物(PM2.5),68,78,62,49,34,121,109,112,112,11,16,4,4,0.5,0.4
2023-01-29T19:00:00,2359A,117.0311,28.2475,鹰潭市,财苑宾馆,颗粒物(PM10),80,109,64,54,34,120,76,103,103,34,16,8,8,0.8,0.6
2023-01-29T19:00:00,2360A,117.0222,28.2264,鹰潭市,体育馆,细颗粒物(PM2.5),65,72,59,47,35,120,91,111,111,20,13,4,4,0.4,0.3
2023-01-29T19:00:00,2361A,117.0017,28.2131,鹰潭市,三川水表,"颗粒物(PM10),细颗粒物(PM2.5)",67,84,59,48,31,120,92,109,109,16,8,6,4,0.6,0.4
2023-01-29T19:00:00,2362A,114.9017,25.9149,赣州市,通天岩,颗粒物(PM10),51,51,48,28,18,104,102,102,102,3,3,5,6,0.8,0.8
2023-01-29T19:00:00,2363A,114.9367,25.8664,赣州市,地委,,,56,56,22,25,110,,104,104,11,11,7,9,,1
2023-01-29T19:00:00,2364A,114.9461,25.8481,赣州市,气象台,,43,40,46,30,29,94,78,86,86,13,12,8,8,0.9,0.9
2023-01-29T19:00:00,2365A,114.9322,25.8333,赣州市,市图书馆,颗粒物(PM10),53,55,54,20,25,89,82,84,84,11,14,7,7,1.0,1
2023-01-29T19:00:00,2366A,114.8905,25.8471,赣州市,华坚鞋城,颗粒物(PM10),52,53,63,22,26,84,75,72,72,16,14,5,6,0.7,0.7
2023-01-29T19:00:00,2367A,114.9754,27.0803,吉安市,红声器材厂,颗粒物(PM10),54,58,66,28,31,108,93,98,98,15,14,12,11,0.6,0.6
2023-01-29T19:00:00,2368A,114.9658,27.0999,吉安市,市森林工业局,颗粒物(PM10),52,54,59,29,33,108,89,98,98,22,19,11,10,0.4,0.2
2023-01-29T19:00:00,2369A,114.99,27.1312,吉安市,市环境监测站,颗粒物(PM10),53,56,62,27,30,111,89,100,100,21,13,8,8,0.4,0.4
2023-01-29T19:00:00,2370A,115.0093,27.0968,吉安市,青原区法院,颗粒物(PM10),51,52,56,25,28,112,64,97,97,31,14,10,10,0.6,0.5
2023-01-29T19:00:00,2371A,114.3408,27.8064,宜春市,槟榔水业,颗粒物(PM10),52,53,64,24,33,74,50,65,65,19,10,7,12,0.3,0.3
2023-01-29T19:00:00,2373A,114.3956,27.7844,宜春市,市石油公司,颗粒物(PM10),53,56,68,27,38,115,55,99,98,47,16,6,5,0.7,0.8
2023-01-29T19:00:00,2374A,114.3703,27.7914,宜春市,市气象局,颗粒物(PM10),54,58,69,32,36,108,69,95,95,32,17,7,6,1.3,1.3
2023-01-29T19:00:00,2375A,114.4013,27.8074,宜春市,市广电局,颗粒物(PM10),57,64,82,35,40,122,74,104,104,38,18,6,6,1.0,1
2023-01-29T19:00:00,2376A,116.2127,28.0814,抚州市,桐源党溪,颗粒物(PM10),58,66,61,37,35,114,72,102,100,18,12,7,3,0.9,0.5
2023-01-29T19:00:00,2377A,116.3544,27.9831,抚州市,市站,颗粒物(PM10),62,74,75,41,38,118,48,101,98,59,20,7,6,1.0,0.7
2023-01-29T19:00:00,2378A,116.3565,27.963,抚州市,血防站,颗粒物(PM10),62,73,73,35,34,105,72,94,94,30,16,12,9,1.0,0.7
2023-01-29T19:00:00,2379A,116.3564,28.0007,抚州市,采茶剧团,颗粒物(PM10),58,65,67,39,38,113,92,103,103,14,10,9,6,0.8,0.6
2023-01-29T19:00:00,2380A,116.385,27.9647,抚州市,医学分院,颗粒物(PM10),58,65,68,32,32,112,104,105,105,12,14,13,8,0.6,0.8
2023-01-29T19:00:00,2381A,118.005,28.4572,上饶市,百草园,,,,57,,25,59,,54,,,8,,5,,1.0
2023-01-29T19:00:00,2382A,117.9756,28.4436,上饶市,市监测站,颗粒物(PM10),57,64,59,24,30,105,89,95,95,20,12,12,8,0.5,0.5
2023-01-29T19:00:00,2383A,117.9519,28.4628,上饶市,凤凰光学,颗粒物(PM10),56,62,59,22,28,86,86,86,86,28,17,12,8,0.7,0.8
