timepoint,stationcode,longitude,latitude,area,positionname,primarypollutant,aqi,pm10,pm10_24h,pm2_5,pm2_5_24h,o3,o3_24h,o3_8h,o3_8h_24h,no2,no2_24h,so2,so2_24h,co,co_24h
2024-04-14T1200,2566A,102.1879,31.914,阿坝藏族羌族自治州,州农科所,,13,9,27,9,11,32,,20,20,6,8,3,3,0.5,0.5
2024-04-14T1200,2568A,102.2502,31.8896,阿坝藏族羌族自治州,马师校,,32,9,19,7,15,100,,62,62,5,10,5,4,0.3,0.3
2024-04-14T1200,3994A,102.2165,31.9024,阿坝藏族羌族自治州,马尔康中学西区,,32,14,24,6,17,101,,69,69,7,8,5,4,0.2,0.2
2024-04-14T1200,2695A,80.292,41.1694,阿克苏地区,电视台,颗粒物(PM10),500,1542,716,368,175,59,,83,64,23,15,7,6,0.8,0.7
2024-04-14T1200,2696A,80.2613,41.1551,阿克苏地区,艺术中心,颗粒物(PM10),500,1423,627,410,177,52,,87,52,29,20,6,6,0.9,0.9
2024-04-14T1200,2204A,105.6467,38.8363,阿拉善盟,西城区西花园,颗粒物(PM10),276,403,605,91,132,112,,88,88,5,9,7,8,1.0,0.8
2024-04-14T1200,2205A,105.6985,38.8411,阿拉善盟,蒙二幼,颗粒物(PM10),500,643,726,127,159,107,,88,84,6,9,8,8,0.4,0.4
2024-04-14T1200,2206A,105.724,38.8516,阿拉善盟,环保局新楼,颗粒物(PM10),457,557,576,131,160,108,,103,95,4,6,6,7,0.4,0.2
2024-04-14T1200,2708A,88.1264,47.8517,阿勒泰地区,市站,,35,35,38,2,8,79,,53,53,11,10,10,6,0.1,0.2
2024-04-14T1200,2630A,80.1161,32.5,阿里地区,阿里监测站,颗粒物(PM10),71,92,32,14,10,110,,97,84,12,12,8,12,0.5,0.5
2024-04-14T1200,3192A,80.0903,32.5028,阿里地区,阿里藏医院,,41,13,11,5,5,129,,116,106,3,4,9,10,0.5,0.5
2024-04-14T1200,2642A,109.0318,32.6537,安康市,香溪洞,,33,33,30,16,21,67,,46,46,8,9,6,5,0.6,0.6
2024-04-14T1200,2643A,109.0281,32.6939,安康市,安康市监测站,,35,35,43,23,27,69,,38,38,8,11,9,10,0.4,0.5
2024-04-14T1200,2644A,109.0072,32.6975,安康市,汉滨区检察院,,41,41,49,22,29,58,,32,32,8,10,10,10,0.5,0.6
2024-04-14T1200,2291A,117.0809,30.5177,安庆市,环科院,,28,28,40,17,32,54,,56,47,25,22,6,6,0.9,0.9
2024-04-14T1200,2292A,117.0331,30.5119,安庆市,马山宾馆,,33,33,45,21,34,59,,60,48,18,22,7,7,1.0,1
2024-04-14T1200,2294A,116.9896,30.6145,安庆市,安庆大学,,40,40,52,18,38,69,,56,49,21,23,8,7,0.5,0.7
2024-04-14T1200,3173A,117.0598,30.5351,安庆市,市人大,,29,25,44,20,35,58,,60,51,19,21,10,7,0.9,0.9
2024-04-14T1200,3122A,105.9606,26.2611,安顺市,伍家关,,,,,,,,,,,,,,,,
2024-04-14T1200,3123A,105.9408,26.2431,安顺市,凤凰山,细颗粒物(PM2.5),55,52,55,39,40,138,,82,82,7,11,9,10,0.9,0.9
2024-04-14T1200,3124A,105.9439,26.2564,安顺市,金钟山,细颗粒物(PM2.5),53,49,50,37,44,133,,84,84,7,8,6,7,0.7,0.7
2024-04-14T1200,3125A,105.8983,26.2481,安顺市,娄家坡,细颗粒物(PM2.5),65,67,66,47,41,135,,81,81,6,9,7,9,0.6,0.6
2024-04-14T1200,1818A,114.4839,36.0621,安阳市,棉研所,,,,,,,,,,,,,,,,
2024-04-14T1200,1819A,114.3551,36.1017,安阳市,红庙街,,32,25,50,22,33,50,,60,50,11,7,3,4,0.5,0.5
2024-04-14T1200,1820A,114.361,36.0681,安阳市,银杏小区,,25,20,46,17,28,46,,58,48,7,3,5,6,0.5,0.5
2024-04-14T1200,3141A,114.3922,36.0878,安阳市,信访局,,28,19,48,19,28,52,,56,48,6,5,1,1,0.4,0.5
2024-04-14T1200,3669A,114.4705,36.0637,安阳市,左辅环卫站,,45,39,62,31,35,44,,39,36,10,11,5,5,0.0,0.1
2024-04-14T1200,3703A,114.2917,36.0949,安阳市,安钢职工学校,,42,29,55,29,37,44,,58,49,16,9,4,4,0.0,0.1
2024-04-14T1200,1748A,123.044,41.1196,鞍山市,深沟寺,,31,29,25,21,14,98,,85,85,14,10,8,6,0.5,0.4
2024-04-14T1200,1749A,123.011,41.0931,鞍山市,太阳城,,31,31,28,17,13,99,,88,88,14,10,9,8,0.6,0.5
2024-04-14T1200,1750A,123.0485,41.1442,鞍山市,太平,,40,40,28,24,17,95,,84,84,18,12,7,5,0.6,0.4
2024-04-14T1200,1751A,122.9642,41.0971,鞍山市,铁西三道街,,43,43,37,30,18,102,,87,87,18,16,7,4,0.6,0.5
2024-04-14T1200,1752A,122.9341,41.0833,鞍山市,铁西工业园区,,45,45,41,28,22,102,,81,81,12,15,9,8,0.6,0.6
2024-04-14T1200,1753A,123.022,41.0821,鞍山市,明达新区,,30,27,26,16,14,95,,87,87,14,10,10,8,0.6,0.5
2024-04-14T1200,1754A,123.1289,41.0228,鞍山市,千山,,,,,,,,,,,,,,,,
2024-04-14T1200,2195A,107.4212,40.761,巴彦淖尔市,附二中,颗粒物(PM10),414,514,763,93,158,86,,103,99,4,11,2,3,0.3,0.3
2024-04-14T1200,2196A,107.37,40.7372,巴彦淖尔市,市环保大楼,颗粒物(PM10),500,616,812,101,153,88,,96,96,5,10,3,4,0.3,0.3
2024-04-14T1200,1956A,86.1472,41.7538,巴音郭楞蒙古自治州,孔雀公园,颗粒物(PM10),500,843,916,160,203,79,,72,72,10,25,6,7,0.3,0.4
2024-04-14T1200,1957A,86.1972,41.7166,巴音郭楞蒙古自治州,棉纺厂,颗粒物(PM10),500,940,1052,167,228,83,,69,69,7,20,2,4,0.2,0.3
2024-04-14T1200,1958A,86.2357,41.7173,巴音郭楞蒙古自治州,经济开发区,颗粒物(PM10),500,824,947,144,205,91,,80,80,4,12,6,6,0.2,0.2
2024-04-14T1200,2914A,106.7677,31.8794,巴中市,苏山坪,,27,24,27,15,21,84,,51,51,8,8,4,4,0.3,0.4
2024-04-14T1200,3182A,106.7656,31.8545,巴中市,丽阳花园,,25,22,33,14,23,78,,37,37,15,21,4,4,0.5,0.6
2024-04-14T1200,3183A,106.7418,31.8654,巴中市,圣泉水务公司,,23,20,26,13,20,72,,39,39,14,16,4,4,0.5,0.5
2024-04-14T1200,3616A,106.7616,31.8344,巴中市,市中心医院,,24,24,38,13,24,76,,35,35,14,20,6,6,0.4,0.5
2024-04-14T1200,2235A,122.7911,45.6077,白城市,洮北区环保局,颗粒物(PM10),119,187,117,22,36,101,,93,93,5,8,5,7,0.2,0.3
2024-04-14T1200,2236A,122.8738,45.5725,白城市,市环保局,颗粒物(PM10),116,181,111,34,44,84,,79,78,13,15,4,7,0.4,0.4
2024-04-14T1200,2231A,126.4219,41.9171,白山市,喜丰,,45,22,57,10,20,144,,62,62,8,24,11,12,0.8,0.9
2024-04-14T1200,2232A,126.4077,41.9419,白山市,环保局,,43,26,58,13,21,137,,57,57,5,18,11,11,0.6,0.7
2024-04-14T1200,2647A,104.1724,36.5446,白银市,第三小学,颗粒物(PM10),500,1040,658,245,150,91,,72,72,24,21,186,79,0.9,0.6
2024-04-14T1200,2648A,104.1465,36.5482,白银市,动力公司,颗粒物(PM10),500,1032,607,250,139,100,,71,71,28,16,234,58,1.3,0.5
2024-04-14T1200,2512A,106.6103,23.9011,百色市,市监测站,细颗粒物(PM2.5),73,93,65,53,41,112,,54,54,18,15,23,13,0.9,0.7
2024-04-14T1200,2513A,106.6538,23.8859,百色市,市中心血站,细颗粒物(PM2.5),87,106,78,64,52,106,,45,45,17,19,23,16,0.9,0.9
2024-04-14T1200,3406A,106.6085,23.8798,百色市,祈福高中,细颗粒物(PM2.5),92,119,74,68,49,105,,37,37,22,20,34,16,1.0,0.9
2024-04-14T1200,2270A,117.396,32.939,蚌埠市,工人疗养院,颗粒物(PM10),65,80,60,46,33,61,,50,50,14,20,5,7,0.6,0.6
2024-04-14T1200,2271A,117.3605,32.9427,蚌埠市,百货大楼,颗粒物(PM10),67,83,58,44,35,60,,50,50,16,21,3,4,0.6,0.6
2024-04-14T1200,2273A,117.4185,32.8911,蚌埠市,蚌埠学院,细颗粒物(PM2.5),57,46,38,40,33,61,,54,53,9,14,3,3,0.6,0.6
2024-04-14T1200,2274A,117.3533,32.9673,蚌埠市,淮上区政府,细颗粒物(PM2.5),72,66,47,52,37,59,,53,49,8,12,5,5,0.5,0.5
2024-04-14T1200,2275A,117.3145,32.8977,蚌埠市,高新区,细颗粒物(PM2.5),63,51,40,45,36,63,,59,56,13,15,4,4,0.4,0.5
2024-04-14T1200,3715A,117.3092,32.9314,蚌埠市,蚌埠田家炳中学,细颗粒物(PM2.5),64,73,59,46,39,61,,52,52,12,18,4,6,0.5,0.5
2024-04-14T1200,1585A,109.8756,40.6532,包头市,市环境监测站,颗粒物(PM10),500,628,444,151,105,156,,65,65,44,34,37,17,2.1,0.8
2024-04-14T1200,1587A,109.9991,40.5842,包头市,包头八中,颗粒物(PM10),469,569,373,115,109,102,,66,66,18,27,18,18,0.6,0.8
2024-04-14T1200,1588A,109.8538,40.6821,包头市,青山宾馆,颗粒物(PM10),428,528,396,141,111,115,,51,51,47,31,32,21,3.1,1
2024-04-14T1200,1589A,109.8642,40.6288,包头市,惠龙物流,颗粒物(PM10),477,577,477,135,113,133,,87,87,35,30,36,21,1.6,0.9
2024-04-14T1200,1590A,110.0377,40.5546,包头市,东河鸿龙湾,颗粒物(PM10),444,544,338,94,82,103,,60,60,9,22,9,15,0.4,0.7
2024-04-14T1200,3283A,109.9154,40.5685,包头市,滨河大厦,颗粒物(PM10),295,416,374,103,86,104,,57,57,8,27,10,19,0.5,0.7
2024-04-14T1200,3419A,109.9447,40.6261,包头市,包头市委党校,颗粒物(PM10),500,628,412,119,96,101,,68,68,33,32,38,22,0.9,0.6
2024-04-14T1200,3683A,109.8331,40.6576,包头市,昆区政府,颗粒物(PM10),484,584,452,160,135,131,,57,57,47,37,39,28,2.0,1.2
2024-04-14T1200,1930A,107.185,34.3063,宝鸡市,庙沟村,,38,38,45,15,15,53,,40,40,9,15,8,8,0.5,0.5
2024-04-14T1200,1931A,107.0708,34.3017,宝鸡市,竹园沟,,40,40,32,17,16,72,,35,35,7,12,4,4,0.7,0.7
2024-04-14T1200,1932A,107.1906,34.3672,宝鸡市,三陆医院,颗粒物(PM10),55,59,51,22,24,60,,22,22,16,24,5,6,0.6,0.6
2024-04-14T1200,1933A,107.1431,34.3547,宝鸡市,监测站,,50,50,48,22,25,77,,31,31,11,17,7,7,0.6,0.7
2024-04-14T1200,1934A,107.1186,34.3739,宝鸡市,技工学校,颗粒物(PM10),54,57,41,20,22,67,,33,33,17,16,6,6,0.5,0.5
2024-04-14T1200,1935A,107.3906,34.3528,宝鸡市,陈仓区环保局家属楼,,49,49,48,19,30,69,,36,36,15,19,8,13,0.5,0.6
2024-04-14T1200,1936A,107.2058,34.3497,宝鸡市,文理学院,,47,47,60,20,25,69,,31,31,17,20,5,6,0.4,0.5
2024-04-14T1200,1937A,107.2386,34.3622,宝鸡市,三迪小学,颗粒物(PM10),51,52,56,26,27,62,,26,26,19,23,7,7,0.6,0.6
2024-04-14T1200,1051A,115.493,38.8632,保定市,游泳馆,颗粒物(PM10),62,74,78,39,41,62,,52,40,14,12,2,2,0,0
2024-04-14T1200,1052A,115.5213,38.8959,保定市,华电二区,,44,44,51,26,35,57,,54,42,8,8,2,3,0.5,0.5
2024-04-14T1200,1053A,115.4713,38.9108,保定市,接待中心,,50,50,61,27,25,56,,54,41,7,6,1,2,0.3,0.3
2024-04-14T1200,1054A,115.4612,38.8416,保定市,地表水厂,颗粒物(PM10),63,75,76,29,42,59,,50,40,11,13,2,2,0.4,0.5
2024-04-14T1200,3581A,115.31981,38.95208,保定市,满城区生态环境分局,细颗粒物(PM2.5),58,56,69,41,42,46,,57,43,8,7,3,3,0.3,0.3
2024-04-14T1200,3582A,115.47694,38.76408,保定市,清苑区第二中学,细颗粒物(PM2.5),62,66,74,44,36,65,,48,41,12,16,7,6,0.3,0.3
2024-04-14T1200,3583A,115.62909,39.02311,保定市,徐水物探局,细颗粒物(PM2.5),58,61,71,41,41,58,,55,45,4,9,5,4,0.1,0.1
2024-04-14T1200,4004A,115.4202,38.8656,保定市,双鹰农机,颗粒物(PM10),53,56,61,29,37,59,,57,45,12,10,3,3,0.3,0.3
2024-04-14T1200,4034A,115.5150,38.8590,保定市,植保所站,颗粒物(PM10),51,52,65,31,39,59,,55,42,16,17,4,2,0.2,0.3
2024-04-14T1200,2594A,99.1678,25.1081,保山市,市环境监测站,,49,45,40,34,24,142,,92,89,12,11,8,8,0.5,0.4
2024-04-14T1200,2595A,99.1711,25.1328,保山市,市环保局,颗粒物(PM10),53,55,41,33,26,140,,108,105,11,6,6,6,0.6,0.5
2024-04-14T1200,1866A,109.2262,21.588,北海市,牛尾岭水库,,,,,,,,,,,,,,,,
2024-04-14T1200,1867A,109.1436,21.4086,北海市,海滩公园,,43,43,38,22,17,71,,50,50,5,9,7,6,0.7,0.7
2024-04-14T1200,1868A,109.0981,21.4661,北海市,新市环保局,,43,43,35,27,18,70,,65,62,9,8,6,6,0.7,0.7
2024-04-14T1200,1869A,109.1778,21.5233,北海市,北海工业园,,47,47,46,22,25,70,,49,47,8,9,6,7,0.5,0.4
2024-04-14T1200,3400A,109.1911,21.4415,北海市,龙潭自来水厂,,42,42,36,20,26,70,,42,42,5,9,5,4,0.6,0.6
2024-04-14T1200,1001A,116.3621,39.8784,北京市,万寿西宫,"颗粒物(PM10),细颗粒物(PM2.5)",55,60,76,39,46,57,,37,37,2,26,1,2,0.5,0.6
2024-04-14T1200,1002A,116.2202,40.2915,北京市,定陵,,,,,,,,,,,,,,,,
2024-04-14T1200,1003A,116.4174,39.9289,北京市,东四,细颗粒物(PM2.5),64,76,86,46,44,30,,34,23,32,26,3,3,0.8,0.7
2024-04-14T1200,1004A,116.4072,39.8863,北京市,天坛,细颗粒物(PM2.5),70,60,83,51,47,32,,28,28,33,27,2,2,0.7,0.6
2024-04-14T1200,1005A,116.462,39.9365,北京市,农展馆,细颗粒物(PM2.5),65,76,73,47,42,28,,27,21,35,30,4,3,0.7,0.6
2024-04-14T1200,1006A,116.3392,39.9295,北京市,官园,颗粒物(PM10),57,64,76,38,44,49,,47,47,22,22,1,2,0.5,0.6
2024-04-14T1200,1007A,116.2878,39.9611,北京市,海淀万柳,颗粒物(PM10),57,64,85,39,47,69,,60,60,15,21,3,4,0.5,0.6
2024-04-14T1200,1008A,116.6636,40.135,北京市,顺义新城,细颗粒物(PM2.5),69,83,70,50,40,36,,42,34,23,18,2,2,0.7,0.6
2024-04-14T1200,1009A,116.6275,40.3275,北京市,怀柔镇,细颗粒物(PM2.5),74,76,67,54,47,38,,49,35,24,18,2,2,0.5,0.4
2024-04-14T1200,1010A,116.2296,40.217,北京市,昌平镇,颗粒物(PM10),65,79,79,42,42,32,,45,27,30,25,3,2,0.6,0.6
2024-04-14T1200,1011A,116.3966,39.9821,北京市,奥体中心,"颗粒物(PM10),细颗粒物(PM2.5)",59,68,68,42,40,24,,31,20,36,31,2,2,0.6,0.5
2024-04-14T1200,1012A,116.184,39.9136,北京市,古城,细颗粒物(PM2.5),63,70,85,45,50,68,,58,53,14,23,3,2,0.7,0.8
2024-04-14T1200,3281A,115.9718,40.4529,北京市,延庆夏都,细颗粒物(PM2.5),64,63,72,46,49,51,,74,51,17,13,3,3,0.5,0.5
2024-04-14T1200,3417A,117.0709,40.1465,北京市,平谷新城,细颗粒物(PM2.5),94,113,80,70,49,34,,51,35,23,19,3,2,1.0,0.6
2024-04-14T1200,3418A,116.8336,40.4095,北京市,密云新城,细颗粒物(PM2.5),65,75,67,47,40,53,,61,51,14,12,1,2,0.6,0.6
2024-04-14T1200,3671A,116.088,39.9726,北京市,门头沟三家店,,,,,,,,,,,,,,,,
2024-04-14T1200,3672A,116.1541,39.8204,北京市,丰台云岗,细颗粒物(PM2.5),53,47,76,37,53,61,,53,50,11,21,3,4,0.7,0.8
2024-04-14T1200,3673A,116.6804,39.9081,北京市,通州东关,细颗粒物(PM2.5),67,78,68,48,38,33,,32,26,21,16,3,3,0.7,0.6
2024-04-14T1200,3674A,115.9577,39.7603,北京市,房山燕山,细颗粒物(PM2.5),55,57,64,39,43,68,,71,58,13,14,3,3,0.5,0.5
2024-04-14T1200,3675A,116.4672,39.7733,北京市,大兴旧宫,,50,50,65,34,39,66,,40,40,11,22,3,3,0.4,0.6
2024-04-14T1200,3694A,115.986,40.4563,北京市,延庆石河营,细颗粒物(PM2.5),64,54,65,46,51,48,,78,54,19,12,3,3,0.5,0.5
2024-04-14T1200,3695A,116.6151,40.3053,北京市,怀柔新城,细颗粒物(PM2.5),68,77,66,49,44,38,,45,34,26,20,3,2,0.7,0.7
2024-04-14T1200,3696A,116.2545,39.8768,北京市,丰台小屯,颗粒物(PM10),56,61,78,39,48,58,,52,48,12,19,3,3,0.4,0.5
2024-04-14T1200,3697A,116.84,40.3844,北京市,密云镇,细颗粒物(PM2.5),72,77,65,52,39,49,,58,48,10,8,3,3,0.6,0.6
2024-04-14T1200,1761A,123.8275,41.3064,本溪市,大峪,,35,20,23,12,11,111,,98,98,2,6,9,8,0.4,0.4
2024-04-14T1200,1762A,123.7567,41.3325,本溪市,溪湖,,32,23,30,11,14,101,,89,89,8,13,14,13,0.8,0.7
2024-04-14T1200,1763A,123.7169,41.3094,本溪市,彩屯,,29,27,46,13,22,90,,64,64,16,37,20,31,1.5,2.6
2024-04-14T1200,1764A,123.7669,41.2864,本溪市,东明,,32,32,27,9,12,99,,88,88,6,9,6,6,0.5,0.5
2024-04-14T1200,1765A,123.7992,41.2664,本溪市,新立屯,,33,30,23,10,11,105,,94,94,7,9,11,11,0.3,0.3
2024-04-14T1200,1766A,123.8142,41.3472,本溪市,威宁,,31,28,32,8,12,99,,71,71,8,16,9,9,0.6,0.6
2024-04-14T1200,2587A,105.2864,27.3125,毕节市,八中,,49,46,50,34,40,149,,126,126,11,10,7,7,0.6,0.6
2024-04-14T1200,2588A,105.31,27.2944,毕节市,师专,,48,41,50,33,38,146,,131,131,8,10,7,7,0.5,0.5
2024-04-14T1200,3537A,105.3631,27.3533,毕节市,长征村,细颗粒物(PM2.5),78,73,75,57,58,162,,142,142,10,9,8,8,0.5,0.5
2024-04-14T1200,1629A,118.0018,37.3617,滨州市,第二水厂,,39,39,47,24,21,72,,68,68,18,21,6,7,0.7,0.8
2024-04-14T1200,1630A,117.9776,37.393,滨州市,北中新校,,48,48,54,27,19,69,,63,63,20,21,10,11,0.7,0.8
2024-04-14T1200,3514A,117.9378,37.3956,滨州市,中海酒店,,45,39,50,31,23,77,,71,71,14,15,11,11,0.7,0.7
2024-04-14T1200,3515A,117.9378,37.3553,滨州市,开发区一中,,46,46,49,27,24,71,,66,66,24,24,11,11,0.7,0.8
2024-04-14T1200,3516A,118.0917,37.694,滨州市,金海六路,,39,39,42,27,16,83,,72,72,8,11,10,10,0.4,0.5
2024-04-14T1200,4028A,117.9956,37.3753,滨州市,滨州市西街道办事处,,42,39,46,29,26,73,,67,67,17,20,9,10,0.6,0.7
2024-04-14T1200,2311A,115.8072,33.8399,亳州市,污水处理厂,颗粒物(PM10),51,51,38,33,27,58,,56,53,8,9,8,9,0.6,0.5
2024-04-14T1200,2312A,115.7789,33.8518,亳州市,三国揽胜宫,,43,37,32,30,22,54,,54,49,9,10,6,6,0.6,0.5
2024-04-14T1200,3332A,115.7633,33.8034,亳州市,亳州学院,颗粒物(PM10),53,56,48,25,25,56,,56,51,8,8,8,8,0.5,0.5
2024-04-14T1200,2693A,82.0485,44.8556,博尔塔拉蒙古自治州,市党校,颗粒物(PM10),305,424,363,55,81,80,,42,42,5,8,8,8,0.2,0.3
2024-04-14T1200,2694A,82.0806,44.8969,博尔塔拉蒙古自治州,市环保局,颗粒物(PM10),212,358,439,50,64,72,,38,31,10,14,8,7,0.5,0.4
2024-04-14T1200,1071A,116.8842,38.2991,沧州市,沧县城建局,,39,39,62,12,30,68,,40,40,18,21,2,3,0.6,0.6
2024-04-14T1200,1072A,116.8584,38.3254,沧州市,电视转播站,,39,39,63,19,37,80,,45,44,9,15,6,6,0.2,0.3
2024-04-14T1200,1073A,116.8709,38.3228,沧州市,市环保局,,30,27,47,21,39,79,,46,44,15,19,3,3,0.4,0.4
2024-04-14T1200,3324A,116.8136,38.3004,沧州市,河北水利电力学院,,34,34,62,13,34,76,,48,48,10,19,8,7,0.3,0.3
2024-04-14T1200,2622A,97.1806,31.1273,昌都市,昌都监测站,,39,14,15,6,10,122,,78,78,5,12,8,7,0.2,0.4
2024-04-14T1200,3719A,97.1714,31.1406,昌都市,昌都会议中心,,36,12,13,8,8,115,,81,78,9,7,7,9,0.4,0.3
2024-04-14T1200,2690A,88.1236,43.8886,昌吉回族自治州,天山天池,,,6,46,,17,78,,62,62,5,6,5,3,0.5,0.5
2024-04-14T1200,2692A,87.2717,44.0297,昌吉回族自治州,新区政务中心,颗粒物(PM10),99,148,233,52,42,86,,23,23,11,24,9,7,0.5,0.6
2024-04-14T1200,3613A,87.3095,44.0142,昌吉回族自治州,亚心广场,颗粒物(PM10),104,158,279,22,36,88,,31,31,14,28,9,6,0.6,0.2
2024-04-14T1200,1119A,125.3325,43.9166,长春市,食品厂,,44,44,70,19,34,117,,97,97,11,19,7,9,0.5,0.6
2024-04-14T1200,1120A,125.2863,43.9027,长春市,客车厂,颗粒物(PM10),110,170,79,,45,109,,92,92,11,16,5,7,,0.5
2024-04-14T1200,1121A,125.2841,43.8463,长春市,邮电学院,,49,49,70,18,31,115,,97,97,8,16,8,9,0.4,0.5
2024-04-14T1200,1122A,125.3716,43.8772,长春市,劳动公园,颗粒物(PM10),57,63,71,17,28,120,,100,100,8,15,5,6,0.4,0.5
2024-04-14T1200,1123A,125.3297,43.8805,长春市,园林处,,43,43,62,14,26,117,,97,97,9,16,9,10,0.3,0.3
2024-04-14T1200,1124A,125.4605,43.79,长春市,净月潭,,48,48,60,31,34,120,,101,101,8,10,8,9,0.4,0.4
2024-04-14T1200,1125A,125.7194,43.515,长春市,甩湾子,,,,,,,,,,,,,,,,
2024-04-14T1200,1126A,125.3863,43.8447,长春市,经开区环卫处,,47,47,64,17,30,116,,95,95,8,16,5,7,0.3,0.4
2024-04-14T1200,1127A,125.245,43.7783,长春市,高新区管委会,,38,36,60,15,30,120,,94,94,6,17,8,10,0.4,0.5
2024-04-14T1200,1128A,125.1761,43.8325,长春市,岱山公园,颗粒物(PM10),56,61,77,23,37,114,,90,90,9,21,6,7,0.4,0.5
2024-04-14T1200,1335A,113.0833,28.2325,长沙市,经开区环保局,,33,31,28,23,19,36,,28,28,32,20,5,5,0.7,0.7
2024-04-14T1200,1336A,112.8872,28.2189,长沙市,高开区环保局,,34,34,31,18,20,43,,40,40,20,19,4,4,1.0,0.9
2024-04-14T1200,1337A,113.0792,28.2053,长沙市,马坡岭,,36,32,33,25,19,54,,40,40,18,13,6,6,0.6,0.6
2024-04-14T1200,1338A,112.9394,28.19,长沙市,湖南师范大学,,35,35,36,20,19,42,,42,42,15,18,4,4,0.9,0.9
2024-04-14T1200,1339A,113.0178,28.1322,长沙市,雨花区环保局,,34,34,34,18,22,34,,43,43,39,22,4,4,1.2,1.1
2024-04-14T1200,1340A,112.9792,28.2597,长沙市,伍家岭,颗粒物(PM10),89,128,35,22,17,35,,22,22,22,22,4,5,1.0,0.9
2024-04-14T1200,1341A,113.0014,28.1944,长沙市,火车新站,,37,37,36,22,20,41,,36,36,41,27,2,3,0.9,0.9
2024-04-14T1200,1342A,112.9844,28.1178,长沙市,天心区环保局,,31,31,37,21,24,25,,33,33,41,26,1,2,0.5,0.5
2024-04-14T1200,1343A,112.8908,28.1308,长沙市,湖南中医药大学,,39,39,39,20,28,34,,38,38,39,22,4,4,1.0,1.1
2024-04-14T1200,1344A,112.9581,28.3611,长沙市,沙坪,,,,21,,11,,,28,,,9,,6,,0.6
2024-04-14T1200,1727A,113.1147,36.1547,长治市,清华站,,,15,39,7,20,,,82,,12,15,,8,0.7,0.6
2024-04-14T1200,1728A,113.1031,36.1989,长治市,监测站,,29,24,42,9,24,92,,85,77,18,16,13,12,0.6,0.6
2024-04-14T1200,1730A,113.0886,36.2125,长治市,审计局,,30,15,37,14,24,94,,92,82,13,13,14,12,0.4,0.4
2024-04-14T1200,1731A,113.0844,36.1856,长治市,长治八中,,30,21,50,20,24,94,,87,79,18,22,8,7,0.6,0.6
2024-04-14T1200,2845A,113.1569,36.1911,长治市,德盛苑,,32,,34,9,20,101,,84,84,18,19,10,9,0.7,0.7
2024-04-14T1200,3568A,113.06,36.0464,长治市,向阳小学,,35,35,53,17,30,105,,86,85,12,15,13,13,0.7,0.7
2024-04-14T1200,3569A,112.8792,36.3144,长治市,屯留一中,,36,21,46,1,27,114,,88,88,12,14,9,8,0.5,0.4
2024-04-14T1200,3570A,113.235,36.3489,长治市,潞城四中,,33,,44,15,30,105,,90,82,14,17,7,7,0.3,0.5
2024-04-14T1200,1854A,111.6975,28.9703,常德市,市二中,,38,29,32,26,25,58,,48,48,13,13,8,7,0.8,0.8
2024-04-14T1200,1857A,111.7158,29.1456,常德市,白鹤山,颗粒物(PM10),54,57,50,31,30,67,,42,42,6,5,4,4,0.9,0.9
2024-04-14T1200,3138A,111.7153,29.0289,常德市,武陵区永安,,38,38,30,23,23,61,,49,49,14,11,8,6,0.7,0.7
2024-04-14T1200,3139A,111.6892,28.9881,常德市,鼎城区玉霞,,33,33,33,23,22,47,,43,42,27,15,8,8,0.8,0.8
2024-04-14T1200,3140A,111.6625,29.0531,常德市,武陵区长庚,,49,41,32,34,24,65,,46,46,12,10,12,8,0.9,0.8
2024-04-14T1200,1196A,119.9633,31.762,常州市,市监测站,颗粒物(PM10),51,52,48,19,19,53,,57,47,27,24,6,6,0.5,0.5
2024-04-14T1200,1200A,119.9468,31.7069,常州市,武进监测站,,38,38,46,22,21,56,,55,52,18,22,18,19,0.7,0.6
2024-04-14T1200,1201A,119.9255,31.9087,常州市,安家,,43,43,39,25,18,45,,61,52,32,22,6,6,0.8,0.6
2024-04-14T1200,3002A,119.9805,31.8174,常州市,行政中心,,46,46,37,24,22,49,,60,50,22,19,13,11,0.7,0.4
2024-04-14T1200,3003A,120.0522,31.7748,常州市,经开区,,36,36,45,18,19,51,,58,49,28,24,4,4,0.5,0.3
2024-04-14T1200,3010A,119.9025,31.7964,常州市,钟楼,,30,30,34,20,20,55,,55,46,22,22,6,6,0.7,0.7
2024-04-14T1200,3429A,119.8598,31.7066,常州市,武进经发区,,33,33,29,18,16,57,,57,52,20,23,6,6,0.8,0.7
2024-04-14T1200,3430A,119.5826,31.7245,常州市,金坛城区,,23,22,20,16,14,63,,61,58,14,19,6,5,0.7,0.6
2024-04-14T1200,2220A,120.4318,41.5881,朝阳市,西梁,,30,27,53,18,34,96,,85,82,14,17,15,16,0.6,0.7
2024-04-14T1200,2221A,120.4521,41.5646,朝阳市,河畔小区,,38,38,53,20,39,99,,89,85,10,11,7,10,0.5,0.6
2024-04-14T1200,2222A,120.4176,41.5648,朝阳市,八里堡,,30,27,53,19,40,94,,78,78,8,12,9,11,0.6,0.7
2024-04-14T1200,2223A,120.3806,41.5969,朝阳市,农业园区,,38,35,52,26,42,105,,85,83,10,14,13,14,0.7,0.8
2024-04-14T1200,1705A,116.6367,23.6719,潮州市,西园路,,39,35,57,27,39,83,,53,53,14,14,5,7,0.3,0.3
2024-04-14T1200,3026A,116.6183,23.6608,潮州市,市政府,,48,48,61,26,38,93,,59,59,12,14,6,7,0.8,0.8
2024-04-14T1200,4036A,116.6461,23.6761,潮州市,金山,,43,43,49,28,44,83,,54,54,13,14,6,8,0.6,0.6
2024-04-14T1200,2472A,113.0073,25.9061,郴州市,马头岭,,46,46,48,9,19,64,,85,69,12,11,4,4,0.5,0.5
2024-04-14T1200,2473A,113.0116,25.8226,郴州市,市职中,,46,42,43,32,34,80,,100,83,6,5,7,7,0.8,0.8
2024-04-14T1200,2474A,113.0161,25.8001,郴州市,兴隆步行街,颗粒物(PM10),52,54,51,31,33,78,,101,82,10,8,4,5,0.8,0.8
2024-04-14T1200,2475A,113.0383,25.8071,郴州市,市审计局,,42,36,41,29,32,82,,98,83,7,7,4,4,0.6,0.6
2024-04-14T1200,2476A,113.0348,25.7759,郴州市,市环保局,,49,46,49,34,34,83,,103,87,6,7,3,4,0.6,0.6
2024-04-14T1200,1431A,103.9728,30.7236,成都市,金泉两河,颗粒物(PM10),56,61,70,33,43,132,,30,30,17,23,3,3,0.8,0.9
2024-04-14T1200,1432A,104.176,30.6872,成都市,十里店,颗粒物(PM10),59,68,77,30,49,134,,35,35,31,39,2,3,0.7,0.7
2024-04-14T1200,1433A,104.079,30.5706,成都市,三瓦窑,颗粒物(PM10),56,61,72,37,49,145,,44,44,18,41,2,2,0.5,0.5
2024-04-14T1200,1434A,104.1114,30.63,成都市,沙河铺,细颗粒物(PM2.5),59,60,71,42,52,130,,33,33,22,31,4,4,0.5,0.6
2024-04-14T1200,1437A,104.0786,30.6531,成都市,君平街,细颗粒物(PM2.5),67,71,72,48,50,160,,54,54,21,32,6,6,0.5,0.6
2024-04-14T1200,1438A,103.613,31.0283,成都市,灵岩寺,,38,30,40,26,25,112,,85,82,16,13,7,10,0.6,0.7
2024-04-14T1200,2880A,104.0239,30.65639,成都市,大石西路,颗粒物(PM10),61,71,74,36,53,158,,50,50,22,32,6,4,0.7,0.8
2024-04-14T1200,3136A,104.2725,30.5589,成都市,龙泉驿区区政府,颗粒物(PM10),52,53,45,29,28,150,,86,86,10,13,4,3,0.6,0.5
2024-04-14T1200,3357A,104.0106,30.6931,成都市,金博路,颗粒物(PM10),55,60,78,35,49,159,,41,41,13,27,3,3,0.8,0.9
2024-04-14T1200,3359A,104.0578,30.5225,成都市,华阳,颗粒物(PM10),57,63,65,39,47,151,,53,53,16,28,4,4,0.5,0.5
2024-04-14T1200,3487A,104.2394,30.5319,成都市,车城东七路,,48,48,67,33,44,150,,76,76,9,23,5,4,0.5,0.6
2024-04-14T1200,3488A,104.3853,30.7453,成都市,青白江技师分院,细颗粒物(PM2.5),60,57,54,43,34,159,,54,54,18,31,6,5,0.8,0.7
2024-04-14T1200,3489A,104.0789,30.4072,成都市,科学城,颗粒物(PM10),71,92,72,24,44,154,,60,60,10,21,6,5,0.7,0.7
2024-04-14T1200,4011A,103.8506,30.6947,成都市,光华大道三段,颗粒物(PM10),59,67,69,36,53,139,,38,38,16,26,2,2,0.7,0.8
2024-04-14T1200,1062A,117.9531,40.9081,承德市,铁路,,25,25,58,13,34,51,,85,55,16,18,7,7,0.8,0.6
2024-04-14T1200,1063A,117.9392,40.9763,承德市,中国银行,,20,16,58,14,30,62,,96,68,20,21,8,8,0.8,0.6
2024-04-14T1200,1064A,117.9503,40.928,承德市,开发区,颗粒物(PM10),56,61,72,21,37,52,,86,60,22,21,6,7,0.9,0.7
2024-04-14T1200,1065A,117.8051,40.9655,承德市,文化中心,,36,36,65,24,34,74,,104,76,14,13,6,6,0.7,0.5
2024-04-14T1200,1066A,117.9268,41.0026,承德市,离宫,细颗粒物(PM2.5),53,,65,37,38,55,,84,59,16,14,3,3,0.7,0.5
2024-04-14T1200,2314A,117.47,30.6618,池州市,池州学院,,32,25,36,22,27,59,,51,48,17,13,8,4,1.6,0.7
2024-04-14T1200,3237A,117.4918,30.6617,池州市,展览馆,,42,31,35,29,24,55,,48,45,18,12,7,3,1.6,0.6
2024-04-14T1200,3333A,117.5627,30.695,池州市,第八中学,,38,31,37,26,26,62,,52,50,15,11,6,3,1.3,0.8
2024-04-14T1200,3334A,117.5038,30.6243,池州市,第十二中学,,42,34,37,29,31,54,,,,15,13,5,3,1.5,0.9
2024-04-14T1200,1744A,118.9233,42.2816,赤峰市,松山一中,颗粒物(PM10),56,61,59,27,33,124,,123,106,19,20,9,10,0.6,0.7
2024-04-14T1200,1745A,118.9576,42.2728,赤峰市,哈达街,颗粒物(PM10),60,70,67,29,33,117,,113,101,21,22,12,13,0.7,0.8
2024-04-14T1200,1746A,118.8788,42.2554,赤峰市,天义路,,43,39,52,30,29,128,,134,115,15,17,6,7,0.5,0.6
2024-04-14T1200,3058A,119.2658,42.0353,赤峰市,银河街,颗粒物(PM10),107,163,100,57,43,122,,91,91,15,18,13,18,0.7,0.9
2024-04-14T1200,3286A,118.9359,42.3147,赤峰市,桥北物流园区,颗粒物(PM10),57,63,64,29,35,119,,121,107,13,15,8,8,0.6,0.5
2024-04-14T1200,2521A,107.3476,22.4136,崇左市,市环保局江州分局,,50,40,49,35,33,80,,45,45,4,7,8,8,0.6,0.6
2024-04-14T1200,2522A,107.3702,22.3707,崇左市,城南新区,细颗粒物(PM2.5),53,49,42,37,30,81,,57,57,4,6,6,7,0.7,0.6
2024-04-14T1200,2298A,118.3093,32.3153,滁州市,老年大学,,40,30,51,28,35,55,,49,47,17,26,8,10,0.5,0.7
2024-04-14T1200,2299A,118.3244,32.2786,滁州市,人大宾馆,,33,23,35,23,31,52,,55,49,17,23,6,7,0.6,0.8
2024-04-14T1200,3207A,118.3118,32.3038,滁州市,市政府原办公楼,,43,,41,30,40,56,,55,51,17,25,5,7,0.5,0.7
2024-04-14T1200,3331A,118.3267,32.2634,滁州市,图书馆,,32,32,38,22,31,54,,55,49,12,20,7,9,0.7,0.8
2024-04-14T1200,2605A,101.5482,25.0441,楚雄彝族自治州,州环境监测站,,48,32,36,23,26,152,,92,92,5,11,6,6,0.5,0.6
2024-04-14T1200,2606A,101.538,25.0492,楚雄彝族自治州,市经济开发区,,47,39,40,25,27,150,,90,90,6,13,4,5,0.5,0.5
2024-04-14T1200,2548A,107.5277,31.2827,达州市,达州职业技术学院,,29,29,45,11,11,79,,34,34,13,25,8,6,0.7,0.7
2024-04-14T1200,2549A,107.5086,31.2186,达州市,市环境监测站,,42,42,40,17,20,91,,34,34,17,34,10,8,0.8,0.7
2024-04-14T1200,2550A,107.4988,31.2132,达州市,凤凰小区,,36,36,42,17,21,88,,36,36,17,35,12,9,1.0,0.9
2024-04-14T1200,2551A,107.5082,31.1986,达州市,达县机关宾馆,,27,27,50,12,24,86,,31,31,17,38,7,7,0.6,0.8
2024-04-14T1200,2552A,107.4644,31.2124,达州市,市政中心,,39,39,46,24,22,74,,30,30,24,38,19,10,1.2,0.9
2024-04-14T1200,2614A,100.1542,25.7054,大理白族自治州,大理市环境监测站,颗粒物(PM10),79,108,55,27,21,130,,114,113,11,9,7,7,0.5,0.5
2024-04-14T1200,2615A,100.2171,25.5811,大理白族自治州,大理古城,,45,32,39,14,27,144,,106,106,7,12,6,6,0.5,0.6
2024-04-14T1200,1109A,121.612,38.9741,大连市,甘井子,,28,14,28,6,10,89,,65,65,11,22,4,4,0.5,0.5
2024-04-14T1200,1110A,121.565,38.9511,大连市,周水子,,23,14,23,6,13,73,,50,50,13,24,3,3,0.5,0.6
2024-04-14T1200,1111A,121.5637,38.8845,大连市,星海三站,,26,17,23,9,14,81,,64,64,9,18,3,3,0.4,0.4
2024-04-14T1200,1112A,121.6302,38.9117,大连市,青泥洼桥,,25,12,23,8,14,80,,68,68,13,15,8,8,0.7,0.7
2024-04-14T1200,1113A,121.6251,38.8638,大连市,傅家庄,,29,9,20,6,10,92,,76,76,7,12,8,6,0.4,0.4
2024-04-14T1200,1114A,121.5213,38.8661,大连市,七贤岭,,25,14,27,5,12,80,,62,62,10,19,9,8,0.3,0.3
2024-04-14T1200,1115A,121.2529,38.8061,大连市,旅顺,,25,8,13,6,10,80,,66,66,11,19,8,8,0.5,0.5
2024-04-14T1200,1116A,121.7485,39.1311,大连市,金州,,32,12,20,7,13,100,,78,78,6,11,8,8,0.6,0.7
2024-04-14T1200,1117A,121.7811,39.0496,大连市,开发区,,26,13,20,8,12,81,,59,59,10,19,4,4,0.4,0.4
2024-04-14T1200,1118A,121.9762,39.0631,大连市,双D港,,25,13,8,8,5,78,,68,68,12,15,7,7,0.4,0.4
2024-04-14T1200,1789A,124.81117,46.03138,大庆市,大同区,颗粒物(PM10),118,185,117,25,49,108,,90,90,11,14,8,11,0.4,0.5
2024-04-14T1200,1790A,125.129,46.533,大庆市,龙凤区,颗粒物(PM10),111,172,106,28,58,108,,89,89,12,18,8,13,0.4,0.5
2024-04-14T1200,1791A,124.902,46.408,大庆市,红岗区,颗粒物(PM10),76,102,101,26,45,91,,84,80,10,14,7,10,0.5,0.7
2024-04-14T1200,1792A,125.153,46.586,大庆市,萨尔图区,颗粒物(PM10),106,162,117,28,53,99,,83,83,11,15,9,11,0.3,0.4
2024-04-14T1200,1793A,124.9042,46.6215,大庆市,让胡路区,颗粒物(PM10),91,132,102,34,42,107,,96,96,11,17,9,12,0.4,0.5
2024-04-14T1200,3481A,125.141,46.634,大庆市,萨区政府监测点,颗粒物(PM10),91,132,108,26,45,110,,96,95,10,13,9,11,0.4,0.6
2024-04-14T1200,1721A,113.3819,40.1097,大同市,果树场,,,,,,,,,,,,,,,,
2024-04-14T1200,1723A,113.2994,40.0758,大同市,云冈宾馆,颗粒物(PM10),152,253,95,65,29,95,,86,80,21,16,10,7,0.4,0.5
2024-04-14T1200,1724A,113.3444,40.0917,大同市,大同大学,颗粒物(PM10),193,335,104,87,33,95,,72,69,16,15,,14,0.6,0.6
2024-04-14T1200,1725A,113.2661,40.1269,大同市,安家小村,颗粒物(PM10),188,326,136,70,34,122,,73,73,7,15,14,14,0.3,0.5
2024-04-14T1200,1726A,113.2711,40.0844,大同市,教育学院,颗粒物(PM10),190,330,127,84,32,101,,82,78,22,19,14,11,0.5,0.5
2024-04-14T1200,3282A,113.3397,40.0597,大同市,大同市卫生学校,颗粒物(PM10),132,214,110,68,30,99,,82,76,18,17,11,8,0.4,0.5
2024-04-14T1200,3565A,113.1367,40.1122,大同市,云冈站,颗粒物(PM10),193,335,132,77,36,131,,92,92,5,11,6,8,0.3,0.4
2024-04-14T1200,3566A,113.1186,40.2556,大同市,图书馆,颗粒物(PM10),180,309,114,101,39,129,,87,87,8,13,10,13,0.4,0.5
2024-04-14T1200,3567A,113.5931,40.0461,大同市,区一中,颗粒物(PM10),304,423,102,65,24,115,,85,80,13,16,7,5,0.6,0.6
2024-04-14T1200,3676A,113.2802,40.0995,大同市,第二人民医院,颗粒物(PM10),192,333,122,71,30,101,,81,76,18,17,13,10,0.5,0.6
2024-04-14T1200,2269A,124.1069,50.4097,大兴安岭地区,科技局,,49,49,21,23,16,45,,49,45,11,9,6,12,0.5,0.4
2024-04-14T1200,3663A,124.1164,50.4278,大兴安岭地区,红旗社区,,26,,8,18,7,50,,65,59,6,5,8,9,0.6,0.5
2024-04-14T1200,1600A,124.3303,40.0625,丹东市,江湾东路,,30,27,35,17,28,94,,45,45,9,17,9,10,0.6,0.7
2024-04-14T1200,1601A,124.4256,40.1503,丹东市,临江后街,,32,28,30,14,19,101,,44,44,11,15,16,12,1.0,0.8
2024-04-14T1200,1602A,124.3933,40.1461,丹东市,元宝山,,29,23,26,18,18,90,,40,40,15,20,10,8,0.5,0.5
2024-04-14T1200,1603A,124.3633,40.1092,丹东市,民主桥,,29,26,28,11,20,91,,37,37,6,15,11,10,0.6,0.7
2024-04-14T1200,3541A,109.5726,19.5167,儋州市,第一中学子站,,31,31,43,19,24,94,,52,52,4,6,5,6,0.6,0.6
2024-04-14T1200,3542A,109.5567,19.5187,儋州市,东坡学校子站,,45,,41,31,26,96,,46,46,4,7,5,4,0.7,0.7
2024-04-14T1200,2616A,98.5842,24.428,德宏傣族景颇族自治州,德宏州监测站,颗粒物(PM10),62,73,86,22,56,122,,52,52,18,29,12,12,0.6,0.7
2024-04-14T1200,3677A,98.5881,24.4368,德宏傣族景颇族自治州,芒市人民政府综合楼,细颗粒物(PM2.5),77,72,74,56,54,120,,70,64,18,21,11,10,0.7,0.8
2024-04-14T1200,1901A,104.4239,31.1208,德阳市,东山公园,颗粒物(PM10),67,84,60,43,36,132,,51,51,24,22,12,7,0.6,0.6
2024-04-14T1200,1902A,104.3826,31.1317,德阳市,西小区,细颗粒物(PM2.5),75,94,70,55,43,134,,32,32,23,35,8,7,0.6,0.7
2024-04-14T1200,1904A,104.3553,31.1091,德阳市,耐火材料厂,,,76,73,49,43,146,,42,42,14,28,10,9,,0.7
2024-04-14T1200,3639A,104.4019,31.1244,德阳市,市教育局,细颗粒物(PM2.5),78,86,60,57,37,131,,36,36,21,30,10,6,0.6,0.6
2024-04-14T1200,1622A,116.3032,37.4674,德州市,儿童乐园,,33,14,63,7,35,103,,66,66,12,19,6,8,0.5,0.7
2024-04-14T1200,1624A,116.2991,37.4451,德州市,监理站,,32,12,56,5,40,100,,64,64,10,18,10,12,0.4,0.6
2024-04-14T1200,3066A,116.2721,37.4379,德州市,九衢泉纯净水厂,,29,17,65,9,32,91,,58,58,10,20,4,6,0.5,0.7
2024-04-14T1200,3371A,116.3728,37.4403,德州市,开发区人民医院,,31,14,58,5,30,97,,58,58,2,15,7,9,0.4,0.5
2024-04-14T1200,3372A,116.3572,37.4094,德州市,太阳城中学,,30,17,58,7,37,94,,47,47,3,16,6,7,0.4,0.6
2024-04-14T1200,3511A,116.5652,37.3319,德州市,陵城艺术中心,,29,29,54,9,27,75,,44,44,15,19,5,6,0.6,0.7
2024-04-14T1200,2621A,99.7056,27.8317,迪庆藏族自治州,迪庆州站,,39,39,43,26,23,118,,76,76,10,14,5,6,0.2,0.3
2024-04-14T1200,3180A,99.7136,27.8094,迪庆藏族自治州,质量技术监督局,,42,42,38,21,21,118,,73,73,15,15,7,7,0.4,0.5
2024-04-14T1200,2663A,104.6241,35.5734,定西市,东关小学,颗粒物(PM10),78,105,92,40,36,88,,42,42,13,21,6,4,0.3,0.3
2024-04-14T1200,2664A,104.6194,35.5934,定西市,供电公司,颗粒物(PM10),63,76,78,35,35,84,,35,35,10,26,7,5,0.1,0.2
2024-04-14T1200,1389A,113.7547,23.0494,东莞市,莞城梨川,,35,35,36,20,19,66,,44,44,19,21,8,8,0.8,0.8
2024-04-14T1200,1390A,113.7944,23.0128,东莞市,东城石井,,30,30,32,19,19,61,,27,27,19,22,7,7,0.6,0.7
2024-04-14T1200,1391A,113.7383,22.9658,东莞市,南城西平,,24,23,33,15,18,74,,28,28,9,24,4,7,0.7,0.7
2024-04-14T1200,3319A,113.7338,23.0381,东莞市,万江金泰,,32,32,36,18,21,68,,39,39,12,21,8,8,0.6,0.7
2024-04-14T1200,3626A,113.7533,23.0202,东莞市,南城元岭,,36,36,37,18,20,72,,36,36,11,22,7,7,0.8,0.8
2024-04-14T1200,3627A,113.7875,23.0457,东莞市,东城主山,,31,31,32,18,19,59,,37,37,20,21,8,9,0.7,0.7
2024-04-14T1200,1666A,118.6614,37.4309,东营市,市环保局,,45,36,29,31,14,77,,83,82,14,11,9,10,0.2,0.3
2024-04-14T1200,3036A,118.6904,37.4338,东营市,开发区管委会,,,78,30,24,13,,,78,,14,14,8,5,,0.5
2024-04-14T1200,3365A,118.5719,37.565,东营市,垦利区民丰路,,44,44,32,27,12,77,,81,80,16,11,11,14,0.5,0.5
2024-04-14T1200,3498A,118.5055,37.8612,东营市,河口城区,,,41,35,40,24,83,,79,79,10,8,5,7,,0.7
2024-04-14T1200,3646A,118.4978,37.4623,东营市,胜利站,,49,46,38,34,13,77,,78,78,19,13,11,12,0.4,0.4
2024-04-14T1200,3734A,118.35,37.26,东营市,理想之城,"颗粒物(PM10),细颗粒物(PM2.5)",52,53,38,36,16,75,,77,76,15,13,11,21,0.6,0.6
2024-04-14T1200,1591A,110.0023,39.8129,鄂尔多斯市,综合楼,颗粒物(PM10),500,1179,310,249,66,94,,80,80,13,16,6,9,0.6,0.6
2024-04-14T1200,1592A,109.9486,39.8261,鄂尔多斯市,巴音孟克林场办事处,颗粒物(PM10),500,1084,313,222,69,94,,83,83,11,14,10,11,0.6,0.6
2024-04-14T1200,1593A,109.7736,39.5986,鄂尔多斯市,康泽苑,颗粒物(PM10),500,998,147,217,44,107,,69,69,7,11,5,6,0.5,0.5
2024-04-14T1200,1594A,109.8119,39.5989,鄂尔多斯市,华泰汽车城,颗粒物(PM10),500,991,142,217,45,100,,58,58,8,15,8,8,0.5,0.5
2024-04-14T1200,1595A,109.9734,39.7884,鄂尔多斯市,奥林花园,颗粒物(PM10),500,1111,269,217,60,90,,60,60,16,20,16,12,0.7,0.6
2024-04-14T1200,2436A,114.8938,30.3994,鄂州市,市政府,,44,44,40,13,19,43,,41,30,11,18,10,10,1.0,1.1
2024-04-14T1200,2437A,114.8989,30.3714,鄂州市,赵家坝,,32,32,33,17,24,49,,44,34,3,11,7,7,0.8,1
2024-04-14T1200,3654A,114.8094,30.4089,鄂州市,精准医疗中心,,37,37,48,12,22,46,,30,29,6,21,4,11,0.6,1.2
2024-04-14T1200,2454A,109.4978,30.2981,恩施土家族苗族自治州,湖北民院,,33,31,27,23,18,73,,28,28,16,21,6,6,0.7,0.7
2024-04-14T1200,2455A,109.4707,30.2798,恩施土家族苗族自治州,州电力总公司,,34,34,27,18,19,72,,25,25,26,30,7,6,0.8,0.8
2024-04-14T1200,3549A,109.5061,30.3772,恩施土家族苗族自治州,龙凤新区,,30,28,24,21,16,84,,31,31,18,19,7,7,0.9,0.8
2024-04-14T1200,2499A,108.3411,21.6158,防城港市,沙万,,43,43,36,19,19,55,,47,47,6,14,2,3,0.6,0.7
2024-04-14T1200,2500A,108.3514,21.7731,防城港市,防城档案局,,40,40,36,20,20,65,,54,54,5,8,4,4,0.5,0.5
2024-04-14T1200,2501A,108.3506,21.6414,防城港市,大海花园,,38,38,33,19,16,63,,52,52,6,12,4,4,0.5,0.6
2024-04-14T1200,1371A,113.1294,23.0067,佛山市,湾梁,,48,48,39,19,20,71,,43,42,20,17,7,7,0.5,0.5
2024-04-14T1200,1372A,113.1083,23.0478,佛山市,华材职中,,48,48,41,22,24,69,,45,44,23,20,6,7,0.5,0.5
2024-04-14T1200,1373A,113.144,23.0453,佛山市,南海气象局,,40,40,41,21,25,62,,39,38,21,20,7,7,0.6,0.6
2024-04-14T1200,1374A,113.2881,22.8094,佛山市,顺德苏岗,,31,31,37,19,21,83,,36,35,9,16,4,5,0.7,0.7
2024-04-14T1200,1376A,112.8383,22.8678,佛山市,高明孔堂,,32,30,31,22,20,73,,57,57,8,8,7,7,0.6,0.6
2024-04-14T1200,1377A,112.8836,23.1588,佛山市,三水监测站,,44,44,41,26,23,62,,30,30,25,27,6,6,0.6,0.7
2024-04-14T1200,1378A,112.867,23.185,佛山市,三水云东海,,50,50,42,26,28,68,,40,39,24,26,4,4,0.5,0.5
2024-04-14T1200,3625A,113.2544,22.7642,佛山市,容桂街道办,,39,39,36,17,20,73,,44,40,13,16,6,6,0.6,0.6
2024-04-14T1200,1280A,119.3903,26.0543,福州市,鼓山,,,,,,,,,,,,,,,,
2024-04-14T1200,1282A,119.2681,26.0504,福州市,师大,,50,50,33,22,21,56,,47,42,27,18,4,4,0.6,0.6
2024-04-14T1200,1283A,119.2984,26.1028,福州市,五四北路,,33,31,31,23,25,59,,41,40,26,24,3,3,0.4,0.3
2024-04-14T1200,1284A,119.2648,26.0768,福州市,杨桥西路,,46,46,33,26,21,56,,47,42,26,20,3,4,0.5,0.5
2024-04-14T1200,1285A,119.317,26.0746,福州市,紫阳,,40,40,32,20,20,58,,44,44,24,23,3,3,0.6,0.5
2024-04-14T1200,3048A,119.5799,26.0936,福州市,九龙,细颗粒物(PM2.5),53,48,15,37,13,66,,46,46,19,15,6,3,0.8,0.4
2024-04-14T1200,3526A,119.5189,25.9664,福州市,吴航,,40,36,25,28,16,55,,45,45,19,14,4,3,0.6,0.4
2024-04-14T1200,1755A,123.7977,41.8491,抚顺市,望花区,,47,47,51,18,24,114,,88,88,11,14,6,16,0.5,0.5
2024-04-14T1200,1756A,123.9161,41.8822,抚顺市,顺城区,颗粒物(PM10),51,52,40,13,20,135,,106,106,12,14,8,8,0.6,0.6
2024-04-14T1200,1757A,124.0436,41.8611,抚顺市,东洲区,,36,34,29,11,16,115,,94,94,4,7,3,6,0.4,0.4
2024-04-14T1200,1758A,123.9247,41.8642,抚顺市,新抚区,颗粒物(PM10),53,56,42,13,17,116,,86,86,7,11,10,9,0.6,0.7
2024-04-14T1200,1759A,124.0972,41.8961,抚顺市,大伙房水库,,44,27,30,12,15,138,,110,110,6,6,6,6,0.4,0.4
2024-04-14T1200,1760A,123.7086,41.8391,抚顺市,沈抚新城,,48,48,38,16,14,119,,91,91,6,10,6,7,0.4,0.5
2024-04-14T1200,2376A,116.2127,28.0814,抚州市,桐源党溪,细颗粒物(PM2.5),53,54,42,37,19,55,,25,25,13,13,5,8,0.3,0.4
2024-04-14T1200,2377A,116.3544,27.9831,抚州市,市站,,36,32,34,25,21,50,,27,27,22,20,5,8,1.0,0.8
2024-04-14T1200,2378A,116.3565,27.963,抚州市,血防站,,40,36,37,28,22,68,,30,30,18,21,2,6,1.1,1.2
2024-04-14T1200,2379A,116.3564,28.0007,抚州市,采茶剧团,,39,38,35,27,21,58,,29,29,14,20,2,5,1.1,1
2024-04-14T1200,2380A,116.385,27.9647,抚州市,医学分院,,36,36,36,25,17,61,,28,28,27,28,8,11,0.7,0.6
2024-04-14T1200,2207A,121.6094,41.998,阜新市,工业园区,,25,23,48,8,25,79,,76,72,13,14,7,8,0.7,0.7
2024-04-14T1200,2208A,121.6697,42.0279,阜新市,长青街,颗粒物(PM10),51,51,73,7,31,83,,80,75,15,16,8,8,0.4,0.5
2024-04-14T1200,2209A,121.6673,42.0705,阜新市,农业园区,,24,19,60,9,31,76,,75,70,14,15,6,6,0.4,0.5
2024-04-14T1200,2210A,121.6717,42.0224,阜新市,东苑,,27,27,46,9,30,79,,77,73,15,17,8,10,0.7,0.8
2024-04-14T1200,2211A,121.6506,42.0498,阜新市,玉龙新城,,24,18,43,9,22,75,,73,69,13,13,8,8,0.6,0.8
2024-04-14T1200,2301A,115.8277,32.8929,阜阳市,市监测站,颗粒物(PM10),68,85,70,38,34,48,,45,38,16,18,8,8,0.6,0.7
2024-04-14T1200,2303A,115.8554,32.8605,阜阳市,开发区,颗粒物(PM10),71,92,56,44,43,50,,48,39,15,19,4,5,0.5,0.5
2024-04-14T1200,2875A,115.784,32.8892,阜阳市,阜阳职业技术学院,颗粒物(PM10),69,88,71,37,32,50,,50,41,16,18,5,6,0.5,0.6
2024-04-14T1200,3468A,115.7901,32.8613,阜阳市,市规划展馆,细颗粒物(PM2.5),74,70,54,54,46,51,,51,43,14,19,5,6,0.6,0.7
2024-04-14T1200,3469A,115.836,32.9183,阜阳市,枣园社区,细颗粒物(PM2.5),88,99,71,65,52,46,,43,36,18,19,5,6,0.5,0.6
2024-04-14T1200,2669A,102.9099,34.9841,甘南藏族自治州,州政府,,45,45,68,23,28,90,,35,35,8,23,8,8,0.5,0.7
2024-04-14T1200,3380A,102.8914,34.9617,甘南藏族自治州,甘肃民族师范学院,颗粒物(PM10),51,51,77,11,22,87,,28,28,15,30,21,14,0.3,0.3
2024-04-14T1200,2570A,101.9603,30.0475,甘孜藏族自治州,水桥子,,37,37,36,8,13,77,,46,46,28,40,3,3,0.3,0.3
2024-04-14T1200,3065A,101.9533,29.9972,甘孜藏族自治州,州环保局,,38,19,26,3,6,120,,84,84,8,17,2,2,0.2,0.2
2024-04-14T1200,3414A,115.8347,28.932,赣江新区,桑海产业园,,22,22,16,15,10,52,,37,36,20,31,6,6,0.6,0.5
2024-04-14T1200,2362A,114.9017,25.9149,赣州市,通天岩,,,,,,,,,,,,,,,,
2024-04-14T1200,2363A,114.9367,25.8664,赣州市,地委,,34,34,62,23,42,80,,92,77,3,32,7,7,0.9,1.2
2024-04-14T1200,2364A,114.9461,25.8481,赣州市,气象台,,31,31,55,20,37,79,,96,76,3,18,9,8,0.5,0.7
2024-04-14T1200,2365A,114.9322,25.8333,赣州市,市图书馆,,35,35,59,20,38,69,,82,68,7,20,16,16,0.8,1.1
2024-04-14T1200,2366A,114.8905,25.8471,赣州市,华坚鞋城,,,43,60,20,40,,,88,71,,15,,19,,0.8
2024-04-14T1200,3109A,115.0093,25.8613,赣州市,赣县区卫计委,,47,47,70,24,41,66,,76,62,15,22,9,10,0.5,0.8
2024-04-14T1200,2683A,106.2319,36.1417,固原市,马园,颗粒物(PM10),72,94,91,18,23,106,,46,46,11,28,6,6,0.6,0.8
2024-04-14T1200,2684A,106.2792,36.0022,固原市,监测站,颗粒物(PM10),72,93,89,24,26,101,,54,54,19,23,5,5,0.3,0.4
2024-04-14T1200,2685A,106.2375,36.0211,固原市,新区,,,,84,,21,,,95,,,25,,5,,0.4
2024-04-14T1200,3522A,106.2177,35.9959,固原市,原州区十五小,颗粒物(PM10),75,99,87,26,25,112,,77,77,9,21,8,8,0.2,0.3
2024-04-14T1200,2543A,106.6308,30.5278,广安市,小平旧居,,,,,,,,,,,,,,,,
2024-04-14T1200,2544A,106.6303,30.4576,广安市,市委,,,,39,,25,,,52,,,15,,18,,0.8
2024-04-14T1200,2545A,106.6271,30.4663,广安市,友谊中学,,35,34,35,24,23,107,,68,68,13,14,8,7,0.7,0.7
2024-04-14T1200,2547A,106.6388,30.4551,广安市,广电花园,,50,50,36,22,24,87,,61,61,19,14,10,8,0.8,0.7
2024-04-14T1200,2902A,106.6351,30.4865,广安市,北辰小学,,50,50,42,24,24,101,,61,61,14,12,7,7,0.7,0.7
2024-04-14T1200,2523A,105.8945,32.4535,广元市,黑石坡,,29,14,20,8,13,92,,68,68,15,10,7,8,0.3,0.4
2024-04-14T1200,2524A,105.821,32.4444,广元市,老城,,24,17,26,7,10,74,,43,43,14,27,1,3,0.6,0.7
2024-04-14T1200,2526A,105.8628,32.4287,广元市,监测站,,25,14,30,7,15,77,,50,50,20,18,3,5,0.4,0.4
2024-04-14T1200,3617A,105.8047,32.4166,广元市,经开区,,32,32,40,16,23,74,,32,32,20,30,5,8,0.6,0.7
2024-04-14T1200,1345A,113.2347,23.1423,广州市,广雅中学,,37,37,41,22,24,61,,40,40,22,29,4,5,0.7,0.8
2024-04-14T1200,1346A,113.2612,23.105,广州市,市五中,,37,37,43,25,26,65,,42,42,17,23,7,7,0.6,0.7
2024-04-14T1200,1348A,113.3478,23.0916,广州市,广东商学院,,39,39,37,20,20,58,,29,26,19,29,4,4,0.6,0.6
2024-04-14T1200,1349A,113.4332,23.1047,广州市,市八十六中,,26,26,38,17,20,38,,16,15,26,35,6,6,0.6,0.6
2024-04-14T1200,1350A,113.3505,22.9483,广州市,番禺中学,,28,28,36,11,18,65,,38,37,15,24,4,4,0.6,0.6
2024-04-14T1200,1351A,113.2146,23.3916,广州市,花都师范,,38,38,42,23,23,55,,41,36,26,26,6,6,0.7,0.7
2024-04-14T1200,1352A,113.2597,23.1331,广州市,市监测站,,36,36,42,20,22,56,,38,38,20,26,5,5,0.5,0.6
2024-04-14T1200,1353A,113.5618,23.312,广州市,九龙镇镇龙,颗粒物(PM10),52,53,50,27,27,50,,23,23,30,32,7,7,0.6,0.6
2024-04-14T1200,1354A,113.2765,23.1544,广州市,麓湖,,36,36,41,20,23,58,,46,42,15,19,5,5,0.6,0.6
2024-04-14T1200,1355A,113.443,23.3035,广州市,帽峰山森林公园,,,,26,21,21,64,,36,36,18,20,6,6,0.6,0.6
2024-04-14T1200,2846A,113.3221,23.1322,广州市,体育西,,38,38,50,21,24,56,,37,34,17,23,7,7,0.7,0.7
2024-04-14T1200,3298A,113.5717,23.5491,广州市,从化街口,,33,33,45,22,29,71,,43,43,15,22,4,5,0.6,0.7
2024-04-14T1200,3299A,113.3472,23.3692,广州市,白云竹料,,30,30,44,16,24,54,,41,32,24,30,7,7,0.5,0.6
2024-04-14T1200,3300A,113.2981,23.237,广州市,白云嘉禾,,34,34,42,18,22,58,,40,36,25,33,4,4,0.7,0.7
2024-04-14T1200,3301A,113.4256,23.1716,广州市,黄埔科学城,,31,31,42,18,24,50,,26,26,13,20,7,7,0.7,0.8
2024-04-14T1200,3302A,113.3942,23.0483,广州市,番禺大学城,,,28,38,14,17,,,34,22,14,22,,5,0.7,0.8
2024-04-14T1200,3303A,113.4922,22.8168,广州市,南沙黄阁,,30,30,36,13,16,60,,30,30,17,25,6,6,0.6,0.7
2024-04-14T1200,3304A,113.5342,22.7896,广州市,南沙街,,24,24,34,11,14,59,,23,23,11,24,8,8,0.6,0.6
2024-04-14T1200,3443A,113.2902,23.5544,广州市,花都梯面,,42,42,50,27,26,50,,43,34,26,23,7,7,0.8,0.8
2024-04-14T1200,3445A,113.7858,23.7478,广州市,从化良口,,32,28,36,22,26,63,,28,28,9,14,4,4,0.6,0.6
2024-04-14T1200,3446A,113.8051,23.2614,广州市,增城荔城,,48,48,43,26,25,80,,45,45,20,23,7,7,0.5,0.6
2024-04-14T1200,2505A,109.568,23.1478,贵港市,德智高中,颗粒物(PM10),52,54,59,35,32,64,,36,34,19,30,6,6,0.6,0.7
2024-04-14T1200,2506A,109.6047,23.0666,贵港市,江南子站,,46,39,49,32,34,78,,38,38,6,14,6,6,0.4,0.5
2024-04-14T1200,2507A,109.6014,23.0948,贵港市,贵城子站,细颗粒物(PM2.5),53,50,55,37,35,70,,40,40,7,15,7,7,0.5,0.6
2024-04-14T1200,2508A,109.5669,23.1065,贵港市,荷城子站,,49,48,55,34,29,71,,42,42,6,16,8,8,0.6,0.7
2024-04-14T1200,3405A,109.5886,23.1172,贵港市,新世纪学校,,48,48,53,31,32,76,,46,46,11,22,8,8,0.7,0.8
2024-04-14T1200,1439A,106.6899,26.5998,贵阳市,马鞍山,颗粒物(PM10),53,56,48,34,29,104,,75,61,8,9,8,9,0.5,0.5
2024-04-14T1200,1440A,106.6971,26.5694,贵阳市,市环保站,细颗粒物(PM2.5),63,61,59,45,44,112,,92,87,15,15,5,5,0.7,0.7
2024-04-14T1200,1441A,106.6243,26.6266,贵阳市,鉴湖路,细颗粒物(PM2.5),62,61,57,44,33,108,,84,75,10,9,5,4,0.4,0.5
2024-04-14T1200,1442A,106.7487,26.6343,贵阳市,燕子冲,颗粒物(PM10),52,53,50,34,34,108,,,,10,9,10,9,0.5,0.5
2024-04-14T1200,1443A,106.6555,26.4365,贵阳市,碧云窝,,,48,55,29,34,,,91,82,12,9,6,6,0.7,0.5
2024-04-14T1200,1444A,106.694,26.5161,贵阳市,中院村,细颗粒物(PM2.5),58,58,54,41,37,109,,72,72,10,12,8,8,0.6,0.6
2024-04-14T1200,1445A,106.7109,26.6027,贵阳市,红边门,细颗粒物(PM2.5),64,53,57,46,45,113,,92,89,8,10,5,5,0.5,0.5
2024-04-14T1200,1446A,106.7164,26.5699,贵阳市,新华路,细颗粒物(PM2.5),58,58,53,41,38,110,,94,88,14,12,7,6,0.8,0.7
2024-04-14T1200,1447A,106.674,26.5424,贵阳市,太慈桥,,49,44,49,34,33,118,,84,78,10,11,8,8,0.5,0.5
2024-04-14T1200,1552A,106.805,26.3003,贵阳市,桐木岭,,,,,,,,,,,,,,,,
2024-04-14T1200,1862A,110.4144,25.3167,桂林市,电子科大尧山校区,,49,49,41,32,27,95,,71,71,5,5,5,5,0.8,0.8
2024-04-14T1200,1863A,110.2819,25.2697,桂林市,监测站,细颗粒物(PM2.5),60,57,50,43,37,58,,46,34,13,15,9,9,0.8,0.8
2024-04-14T1200,1864A,110.3089,25.2708,桂林市,龙隐路小学,颗粒物(PM10),63,75,45,40,32,47,,40,33,19,14,5,4,0.8,0.7
2024-04-14T1200,1865A,110.2869,25.2178,桂林市,八中,颗粒物(PM10),57,63,47,38,31,45,,34,26,15,14,6,5,0.8,0.7
2024-04-14T1200,3403A,110.1764,25.2381,桂林市,创业大厦,,42,41,36,29,28,77,,67,67,3,6,6,6,0.6,0.6
2024-04-14T1200,3531A,110.296,25.1253,桂林市,旅游学院,细颗粒物(PM2.5),55,46,36,39,28,55,,40,40,7,11,7,7,0.6,0.5
2024-04-14T1200,2674A,100.2561,34.4714,果洛藏族自治州,玛沁县大武镇,,33,30,47,17,22,103,,55,55,6,9,15,17,0.4,0.5
2024-04-14T1200,1129A,126.5422,45.755,哈尔滨市,岭北,,,118,97,58,56,172,,110,110,,23,26,25,0.4,0.5
2024-04-14T1200,1130A,126.561,45.8167,哈尔滨市,松北商大,颗粒物(PM10),92,134,89,51,50,159,,104,104,14,13,8,7,0.7,0.7
2024-04-14T1200,1131A,126.979,45.5419,哈尔滨市,阿城会宁,细颗粒物(PM2.5),122,192,91,92,51,187,,116,116,24,15,13,13,0.9,0.7
2024-04-14T1200,1132A,126.599,45.7222,哈尔滨市,南岗学府路,细颗粒物(PM2.5),132,168,116,100,59,167,,105,105,24,22,13,11,0.9,0.8
2024-04-14T1200,1133A,126.689,45.7733,哈尔滨市,太平宏伟公园,颗粒物(PM10),130,210,119,76,56,188,,118,118,22,17,15,11,0.5,0.4
2024-04-14T1200,1134A,126.635,45.7667,哈尔滨市,道外承德广场,颗粒物(PM10),128,206,115,73,60,187,,118,118,25,23,17,16,0.6,0.5
2024-04-14T1200,1135A,126.685,45.7319,哈尔滨市,香坊红旗大街,细颗粒物(PM2.5),125,175,117,95,66,181,,111,111,29,27,15,14,0.9,0.8
2024-04-14T1200,1136A,126.6411,45.7258,哈尔滨市,动力和平路,颗粒物(PM10),109,168,105,77,51,197,,122,122,24,23,13,11,0.9,0.8
2024-04-14T1200,1137A,126.593,45.7478,哈尔滨市,道里建国路,颗粒物(PM10),114,177,106,62,55,175,,113,113,19,17,,11,0.9,1.1
2024-04-14T1200,1138A,126.615,45.61,哈尔滨市,平房东轻厂,颗粒物(PM10),120,189,114,80,53,183,,114,114,26,15,12,9,0.6,0.5
2024-04-14T1200,1139A,126.595,45.9855,哈尔滨市,呼兰师专,颗粒物(PM10),94,137,105,51,58,143,,96,96,22,24,13,14,0.6,0.7
2024-04-14T1200,1140A,126.6206,45.6842,哈尔滨市,省农科院,颗粒物(PM10),136,221,125,83,65,188,,115,115,25,31,11,10,0.8,0.7
2024-04-14T1200,2688A,93.5128,42.8172,哈密市,地区监测站,颗粒物(PM10),253,387,1009,49,176,79,,75,75,21,15,3,4,0.2,0.2
2024-04-14T1200,2689A,93.4961,42.8328,哈密市,哈密师范学校,颗粒物(PM10),320,436,974,58,188,73,,73,73,24,15,5,4,0.4,0.4
2024-04-14T1200,2671A,100.9048,36.9639,海北藏族自治州,海晏县西海镇,颗粒物(PM10),78,106,75,23,22,82,,50,50,11,8,12,10,0.4,0.3
2024-04-14T1200,3867A,102.0738,36.5056,海东市,平安区公安北苑,颗粒物(PM10),129,208,81,61,28,87,,50,44,14,14,21,10,0.6,0.4
2024-04-14T1200,1409A,110.576,19.9507,海口市,东寨港,,,,,,,,,,,,,,,,
2024-04-14T1200,1410A,110.3232,20.0574,海口市,海南大学,,32,32,33,20,20,84,,60,60,10,6,6,5,0.5,0.4
2024-04-14T1200,1411A,110.283,20.0053,海口市,秀英海南医院,,36,36,36,19,22,92,,58,58,7,12,5,5,0.4,0.5
2024-04-14T1200,1412A,110.338,19.9969,海口市,海南师范大学,,30,29,33,18,20,93,,57,57,4,4,6,6,0.5,0.5
2024-04-14T1200,1413A,110.33,20.0356,海口市,龙华路环保局宿舍,,33,33,34,19,21,87,,57,57,8,6,6,6,0.4,0.5
2024-04-14T1200,3539A,110.5111,19.9736,海口市,桂林洋子站,,47,47,36,20,20,82,,60,60,3,4,6,5,0.3,0.3
2024-04-14T1200,2673A,100.6188,36.2866,海南藏族自治州,共和县恰卜恰镇,细颗粒物(PM2.5),52,40,68,36,26,88,,58,58,6,12,14,12,0.5,0.5
2024-04-14T1200,2676A,97.3731,37.3753,海西蒙古族藏族自治州,德令哈市,颗粒物(PM10),97,143,121,21,27,94,,73,73,17,8,21,12,0.7,0.6
2024-04-14T1200,1048A,114.5302,36.6116,邯郸市,东污水处理厂,细颗粒物(PM2.5),67,,51,48,45,40,,45,38,21,18,5,6,0.4,0.4
2024-04-14T1200,1049A,114.4918,36.5713,邯郸市,矿院,细颗粒物(PM2.5),52,45,53,36,36,39,,46,36,15,12,6,6,0.6,0.6
2024-04-14T1200,1050A,114.484,36.6133,邯郸市,丛台公园,,,46,53,36,36,44,,54,45,,13,5,6,0.4,0.4
2024-04-14T1200,3458A,114.7895,36.5593,邯郸市,香泉濮院小区,颗粒物(PM10),53,56,64,31,38,57,,49,49,15,16,6,9,0.2,0.3
2024-04-14T1200,3579A,114.50634,36.77178,邯郸市,永年区实验高中,,48,48,64,32,42,43,,66,49,21,14,3,4,0.4,0.3
2024-04-14T1200,3580A,114.20016,36.44293,邯郸市,峰峰矿区临水派出所,细颗粒物(PM2.5),60,,58,43,37,41,,64,52,7,3,4,6,0.8,0.9
2024-04-14T1200,2634A,106.9893,33.1842,汉中市,汉川机床厂子校,,33,33,29,17,15,81,,54,54,7,14,8,9,0.4,0.4
2024-04-14T1200,2635A,107.0154,33.0706,汉中市,市监测站,,32,32,34,21,23,87,,49,49,7,20,11,14,0.7,0.8
2024-04-14T1200,2636A,107.0089,33.1138,汉中市,鑫源开发区,,38,38,34,19,16,87,,50,50,8,20,20,17,0.7,0.8
2024-04-14T1200,2637A,107.007,33.0323,汉中市,南郑大河坎水厂,,30,30,34,19,21,89,,50,50,7,16,10,8,0.6,0.6
2024-04-14T1200,1223A,120.2072,30.2111,杭州市,滨江,,29,5,36,3,18,91,,43,43,12,25,4,4,0.6,0.6
2024-04-14T1200,1224A,120.0633,30.2747,杭州市,西溪,,16,7,24,3,16,50,,21,21,20,26,6,6,0.7,0.7
2024-04-14T1200,1226A,120.3461,30.3153,杭州市,下沙,,29,8,26,3,14,91,,34,34,10,28,5,5,0.6,0.6
2024-04-14T1200,1227A,120.1269,30.2456,杭州市,卧龙桥,,27,10,27,2,23,86,,34,34,12,24,4,4,0.5,0.5
2024-04-14T1200,1228A,120.1903,30.2692,杭州市,浙江农大,,22,5,26,2,17,68,,35,35,19,28,4,4,0.6,0.6
2024-04-14T1200,1230A,120.1197,30.3119,杭州市,和睦小学,,19,6,23,4,16,58,,30,30,21,28,7,6,0.7,0.6
2024-04-14T1200,1231A,120.3019,30.4183,杭州市,临平镇,,27,10,33,4,21,85,,35,35,15,18,4,4,0.6,0.6
2024-04-14T1200,1232A,120.2697,30.1819,杭州市,城厢镇,,30,9,32,4,23,93,,42,42,13,30,4,4,0.7,0.6
2024-04-14T1200,1233A,120.0883,30.1808,杭州市,云栖,,26,,29,2,17,81,,28,28,16,32,6,6,0.6,0.6
2024-04-14T1200,3557A,119.9464,30.0494,杭州市,镇二中,,23,11,34,5,21,72,,29,29,26,30,6,6,0.9,0.8
2024-04-14T1200,3558A,119.7183,30.2367,杭州市,市府大楼,,25,5,23,3,18,80,,38,38,17,26,6,5,0.6,0.6
2024-04-14T1200,3656A,120.1556,30.2864,杭州市,消防大队,,18,,23,5,16,56,,32,32,26,31,8,7,0.8,0.7
2024-04-14T1200,1270A,117.1959,31.7848,合肥市,明珠广场,"颗粒物(PM10),细颗粒物(PM2.5)",52,53,68,36,52,82,,45,45,17,26,11,10,0.8,0.9
2024-04-14T1200,1271A,117.3072,31.8764,合肥市,三里街,颗粒物(PM10),51,51,56,34,37,75,,38,38,23,26,5,6,0.7,0.7
2024-04-14T1200,1272A,117.2588,31.8707,合肥市,琥珀山庄,颗粒物(PM10),52,53,64,24,34,84,,48,48,16,20,3,4,0.7,0.7
2024-04-14T1200,1273A,117.1604,31.9052,合肥市,董铺水库,细颗粒物(PM2.5),55,56,61,39,39,88,,54,53,10,12,1,2,0.5,0.5
2024-04-14T1200,1274A,117.25,31.8571,合肥市,长江中路,"颗粒物(PM10),细颗粒物(PM2.5)",54,58,71,38,42,77,,41,41,18,23,4,5,1.0,1
2024-04-14T1200,1275A,117.266,31.9436,合肥市,庐阳区,细颗粒物(PM2.5),58,58,64,41,38,78,,44,43,25,32,5,5,0.6,0.6
2024-04-14T1200,1276A,117.336,31.8586,合肥市,瑶海区,,48,46,59,33,38,87,,42,42,14,21,7,7,0.6,0.7
2024-04-14T1200,1277A,117.3027,31.7964,合肥市,包河区,,42,34,62,29,42,98,,48,48,10,28,8,8,0.4,0.5
2024-04-14T1200,1278A,117.2776,31.7385,合肥市,滨湖新区,,34,34,50,22,37,83,,55,55,11,16,7,7,0.5,0.5
2024-04-14T1200,1279A,117.1318,31.8403,合肥市,高新区,细颗粒物(PM2.5),57,53,68,40,52,78,,44,44,18,24,7,7,0.8,0.8
2024-04-14T1200,3464A,117.3803,31.9147,合肥市,高教基地,,,55,49,,24,76,,43,43,23,25,5,5,0.5,0.5
2024-04-14T1200,3614A,79.924,37.0877,和田地区,地区环保局,"颗粒物(PM10),细颗粒物(PM2.5)",500,4702,1258,1513,455,44,,59,50,16,13,5,6,0.4,0.4
2024-04-14T1200,3615A,79.9131,37.113,和田地区,市环保局,"颗粒物(PM10),细颗粒物(PM2.5)",500,4891,1157,1204,280,48,,51,49,17,19,5,6,0.4,0.5
2024-04-14T1200,2516A,108.2011,24.715,河池市,东仁乐园,,,,69,,32,,,13,,,11,,5,,0.8
2024-04-14T1200,2517A,108.0497,24.6947,河池市,市环保站,细颗粒物(PM2.5),54,56,47,38,33,60,,50,48,10,10,8,8,0.6,0.6
2024-04-14T1200,2518A,108.0983,24.6989,河池市,市疾控中心,"颗粒物(PM10),细颗粒物(PM2.5)",53,55,49,37,33,60,,51,48,12,15,7,7,0.7,0.7
2024-04-14T1200,1696A,114.6778,23.7569,河源市,源西,,25,25,46,13,32,63,,53,49,8,15,4,4,0.7,0.8
2024-04-14T1200,1697A,114.6944,23.7586,河源市,东埔,,40,40,54,20,34,66,,58,55,10,13,7,7,0.6,0.7
2024-04-14T1200,1698A,114.6892,23.7233,河源市,老城,,,,49,17,24,64,,51,48,7,10,6,6,0.6,0.7
2024-04-14T1200,1718A,115.4208,35.2464,菏泽市,气象局,,30,30,45,18,25,57,,61,59,17,15,2,3,0.5,0.4
2024-04-14T1200,1719A,115.4747,35.2375,菏泽市,市政协,,33,23,38,23,28,52,,54,54,14,12,2,3,0.5,0.5
2024-04-14T1200,3374A,115.5564,35.0891,菏泽市,定陶老年大学,,25,24,39,17,22,49,,54,54,14,16,3,4,0.4,0.4
2024-04-14T1200,3647A,115.4702,35.2706,菏泽市,菏泽医专,,33,,43,23,23,42,,44,42,17,16,3,3,0.4,0.4
2024-04-14T1200,2514A,111.5264,24.4172,贺州市,环保小区,细颗粒物(PM2.5),57,52,58,40,38,51,,48,48,16,20,8,9,0.7,0.9
2024-04-14T1200,2515A,111.5608,24.4078,贺州市,政协大楼,,46,46,58,32,35,56,,50,50,12,18,9,10,0.8,0.8
2024-04-14T1200,3534A,111.4744,24.4553,贺州市,西湾,,,57,63,36,40,,,31,31,18,30,6,7,0.8,0.9
2024-04-14T1200,2385A,114.17,35.9019,鹤壁市,市监测站,,40,,58,28,48,38,,55,44,21,19,7,7,0.4,0.4
2024-04-14T1200,2386A,114.2956,35.7511,鹤壁市,市交警支队,,45,,52,31,40,42,,54,46,13,12,10,10,0.3,0.4
2024-04-14T1200,2387A,114.2878,35.7306,鹤壁市,迎宾馆,,45,,43,31,47,38,,53,44,15,13,9,11,0.6,0.4
2024-04-14T1200,3474A,114.2617,35.6822,鹤壁市,大新区,,28,23,51,19,29,37,,50,41,7,8,7,8,0.7,0.8
2024-04-14T1200,3596A,114.1572,35.9603,鹤壁市,南山宾馆,,39,36,59,27,43,36,,48,40,8,10,7,9,0.4,0.5
2024-04-14T1200,2244A,130.2537,47.3416,鹤岗市,哈啤分公司,颗粒物(PM10),58,66,70,39,35,109,,66,66,21,16,27,16,0.7,0.7
2024-04-14T1200,2245A,130.2684,47.3086,鹤岗市,斯达机电,颗粒物(PM10),61,71,76,39,44,120,,77,77,13,16,12,13,0.9,0.8
2024-04-14T1200,2246A,130.3114,47.3388,鹤岗市,东山纸板厂,细颗粒物(PM2.5),62,53,137,44,44,109,,49,49,15,23,15,14,0.7,1
2024-04-14T1200,2247A,130.1097,47.3382,鹤岗市,五号水库,颗粒物(PM10),60,69,50,31,18,135,,69,69,14,13,11,10,0.7,0.6
2024-04-14T1200,2263A,127.4833,50.2524,黑河市,交通局,,31,31,28,17,20,29,,29,29,21,15,10,9,0.4,0.3
2024-04-14T1200,2264A,127.5144,50.2341,黑河市,环保局,,33,31,21,23,21,28,,37,34,20,15,7,6,0.4,0.4
2024-04-14T1200,2265A,127.5291,50.2472,黑河市,大黑河岛,,,20,25,14,18,39,,39,38,59,44,9,8,,
2024-04-14T1200,1074A,115.6838,37.7541,衡水市,电机北厂,,34,34,45,17,32,68,,45,45,8,8,2,2,0.3,0.3
2024-04-14T1200,1075A,115.6303,37.7316,衡水市,市监测站,,25,25,48,14,32,74,,47,47,13,14,5,5,0.5,0.5
2024-04-14T1200,3188A,115.6683,37.7217,衡水市,市城管局,,38,32,49,26,32,68,,40,40,12,14,1,3,0.4,0.4
2024-04-14T1200,3459A,115.5989,37.5491,衡水市,地表水厂,,38,38,50,20,28,68,,40,40,14,19,4,3,0.3,0.3
2024-04-14T1200,2456A,112.5003,26.9167,衡阳市,原169医院,颗粒物(PM10),61,71,52,32,29,37,,25,18,14,20,9,10,0.9,0.8
2024-04-14T1200,2457A,112.6194,26.9258,衡阳市,衡阳化工总厂,颗粒物(PM10),66,81,62,44,36,48,,24,24,13,13,13,10,1.0,0.9
2024-04-14T1200,2458A,112.6211,26.8956,衡阳市,珠晖区环保局,颗粒物(PM10),66,81,56,39,33,43,,22,21,14,15,9,9,1.2,1
2024-04-14T1200,2459A,112.6197,26.8733,衡阳市,市委党校,颗粒物(PM10),62,74,59,38,30,48,,33,30,13,14,9,8,1.1,1
2024-04-14T1200,2460A,112.6006,26.8919,衡阳市,市监测站,细颗粒物(PM2.5),62,57,53,44,39,49,,24,24,13,15,11,10,1.1,1
2024-04-14T1200,2461A,112.5664,26.9056,衡阳市,真空机电公司,颗粒物(PM10),64,78,56,42,34,48,,22,22,12,16,13,12,1.1,1.1
2024-04-14T1200,3399A,112.6703,26.882,衡阳市,师范学院,细颗粒物(PM2.5),64,58,51,46,39,47,,30,28,16,10,10,9,1.0,0.8
2024-04-14T1200,2608A,103.3772,23.3993,红河哈尼族彝族自治州,污水处理厂,,45,45,74,28,55,138,,93,93,6,12,8,9,0.3,0.6
2024-04-14T1200,2609A,103.3861,23.35,红河哈尼族彝族自治州,监测站,,43,32,68,25,53,136,,103,103,8,15,8,9,0.2,0.6
2024-04-14T1200,3038A,103.3758,23.368,红河哈尼族彝族自治州,州图书馆,,45,23,66,23,51,141,,104,104,5,9,9,6,0.1,0.4
2024-04-14T1200,1090A,111.6507,40.7517,呼和浩特市,呼市一监,颗粒物(PM10),471,571,121,118,40,111,,74,74,7,12,14,13,0.5,0.5
2024-04-14T1200,1091A,111.6572,40.8033,呼和浩特市,小召,颗粒物(PM10),474,574,114,111,37,93,,70,70,19,18,10,8,0.6,0.5
2024-04-14T1200,1094A,111.7516,40.8369,呼和浩特市,如意水处理厂,颗粒物(PM10),242,379,92,95,34,98,,65,65,13,18,11,12,0.4,0.4
2024-04-14T1200,1095A,111.7276,40.8062,呼和浩特市,二十九中,颗粒物(PM10),408,508,102,104,36,99,,68,68,12,15,12,11,0.5,0.5
2024-04-14T1200,1096A,111.5512,40.7866,呼和浩特市,工大金川校区,颗粒物(PM10),268,397,91,116,38,92,,57,57,11,19,10,7,0.4,0.4
2024-04-14T1200,1097A,111.717,40.7612,呼和浩特市,化肥厂生活区,颗粒物(PM10),383,486,114,124,40,98,,68,68,11,18,13,13,0.4,0.5
2024-04-14T1200,3698A,111.5968,40.8178,呼和浩特市,红旗小学,颗粒物(PM10),474,574,103,111,39,93,,63,63,17,22,9,6,0.4,0.4
2024-04-14T1200,3699A,111.6518,40.8389,呼和浩特市,海东办,颗粒物(PM10),447,547,97,101,36,98,,67,66,14,17,10,7,0.3,0.2
2024-04-14T1200,2192A,119.7594,49.2261,呼伦贝尔市,区环保局,颗粒物(PM10),500,1198,203,393,65,74,,80,78,16,14,5,6,0.5,0.4
2024-04-14T1200,3061A,119.7512,49.1577,呼伦贝尔市,国华电力东,颗粒物(PM10),500,1120,192,361,60,82,,80,80,7,7,3,6,0.4,0.3
2024-04-14T1200,1250A,120.0751,30.8669,湖州市,城西水厂,,25,5,28,2,18,77,,44,44,19,25,3,3,0.6,0.6
2024-04-14T1200,2873A,120.0875,30.8955,湖州市,仁皇山新区,,25,5,24,4,20,79,,42,38,19,25,6,6,0.7,0.6
2024-04-14T1200,2907A,120.1844,30.8596,湖州市,吴兴区站,,17,11,22,10,16,54,,41,32,33,24,5,4,0.6,0.5
2024-04-14T1200,3562A,120.4148,30.8538,湖州市,南浔区站,,23,,19,13,18,73,,46,46,19,17,4,4,0.7,0.6
2024-04-14T1200,1607A,120.9092,40.7136,葫芦岛市,龙港区,,36,26,31,25,25,58,,55,51,9,10,7,6,0.5,0.4
2024-04-14T1200,1608A,120.8392,40.7514,葫芦岛市,化工街,,35,29,30,24,22,58,,54,48,14,17,10,9,0.3,0.3
2024-04-14T1200,1609A,120.8341,40.7073,葫芦岛市,新区,,39,,24,27,26,59,,58,51,14,12,6,6,0.6,0.5
2024-04-14T1200,1610A,120.8695,40.7677,葫芦岛市,东城区,,38,,24,26,28,62,,54,49,20,23,5,5,0.3,0.3
2024-04-14T1200,2482A,109.5981,27.5721,怀化市,林科所,,29,19,18,9,7,92,,51,51,4,4,6,16,0.8,0.9
2024-04-14T1200,2483A,109.9453,27.5444,怀化市,河西地税局,,30,25,22,16,13,93,,42,42,12,9,8,11,0.7,0.7
2024-04-14T1200,2484A,109.9781,27.5342,怀化市,市四医院,,29,22,24,16,16,90,,43,43,10,8,10,12,0.7,0.7
2024-04-14T1200,2485A,109.9972,27.5578,怀化市,监测楼,,33,33,24,12,14,74,,40,40,11,7,12,14,0.6,0.6
2024-04-14T1200,2486A,110.0394,27.583,怀化市,市委党校,,26,26,24,14,12,79,,,,7,8,16,6,0.7,0.6
2024-04-14T1200,1210A,119.036,33.5981,淮安市,钵池山,,39,,14,27,16,53,,75,66,14,10,6,5,0.5,0.4
2024-04-14T1200,1211A,119.007,33.575,淮安市,北京南路,,43,,16,30,17,53,,78,67,14,10,6,6,0.6,0.5
2024-04-14T1200,1212A,118.989,33.6067,淮安市,市监测站,,,31,14,,9,54,,80,69,15,10,6,6,0.7,0.5
2024-04-14T1200,1213A,119.135,33.5039,淮安市,楚州区监测站,,40,32,16,28,16,50,,74,64,16,13,6,6,0.5,0.4
2024-04-14T1200,1214A,119.0186,33.6297,淮安市,淮阴区监测站,,29,27,14,20,15,51,,78,66,21,14,4,4,0.3,0.2
2024-04-14T1200,3426A,118.8755,33.2894,淮安市,新华书店,,43,43,18,27,11,46,,70,59,19,14,4,4,0.5,0.3
2024-04-14T1200,2282A,116.8004,33.975,淮北市,监测站,,,28,25,19,16,64,,71,69,,10,4,4,0.5,0.4
2024-04-14T1200,2283A,116.8091,33.9007,淮北市,烈山区政府,颗粒物(PM10),53,55,28,36,28,65,,70,69,8,8,4,4,0.4,0.4
2024-04-14T1200,3330A,116.8873,33.9836,淮北市,杜集区检察院,,43,42,34,30,28,66,,79,76,9,8,2,2,0.5,0.5
2024-04-14T1200,4017A,116.7923,33.9535,淮北市,市博物馆,,25,24,22,17,15,66,,72,71,3,3,3,3,0.6,0.6
2024-04-14T1200,2277A,116.8305,32.7727,淮南市,潘集区政府,颗粒物(PM10),65,79,66,34,35,70,,48,48,13,16,8,6,0.5,0.5
2024-04-14T1200,2278A,117.0067,32.6524,淮南市,师范学院,细颗粒物(PM2.5),90,,56,67,45,62,,48,48,12,16,9,10,0.2,0.3
2024-04-14T1200,2279A,116.8569,32.5951,淮南市,谢家集区政府,颗粒物(PM10),53,56,59,21,29,66,,46,46,14,20,4,11,0.4,0.5
2024-04-14T1200,2280A,116.8281,32.633,淮南市,八公山区政府,细颗粒物(PM2.5),87,78,70,64,55,67,,50,50,10,15,3,4,0.4,0.5
2024-04-14T1200,2281A,116.6325,32.6201,淮南市,焦岗湖风景区管理处,颗粒物(PM10),63,75,61,18,19,47,,38,38,15,22,3,3,0.3,0.3
2024-04-14T1200,2894A,117.0566,32.6531,淮南市,经济技术开发区消防队,细颗粒物(PM2.5),60,51,48,43,39,64,,50,50,20,23,4,4,0.5,0.5
2024-04-14T1200,3329A,117.0108,32.5893,淮南市,山南新区,颗粒物(PM10),55,59,54,33,27,65,,52,52,20,22,4,4,0.4,0.5
2024-04-14T1200,2446A,114.9028,30.4742,黄冈市,职工中心,,30,29,46,21,32,56,,54,40,7,12,4,8,0.7,0.8
2024-04-14T1200,2929A,114.8858,30.4519,黄冈市,红卫路,,27,27,38,18,29,48,,44,34,7,17,8,11,0.9,1
2024-04-14T1200,3398A,114.9136,30.4445,黄冈市,市林业局,,45,,45,31,33,56,,49,38,2,11,3,6,0.5,0.6
2024-04-14T1200,2672A,102.0199,35.5102,黄南藏族自治州,同仁县隆务镇,,49,49,62,28,27,90,,74,70,8,5,4,4,0.7,0.7
2024-04-14T1200,2295A,118.2903,29.6963,黄山市,延安路89号,,33,33,36,7,8,83,,67,67,7,12,6,6,0.8,0.8
2024-04-14T1200,2296A,118.327,29.7178,黄山市,黄山东路89号,,,12,25,4,10,78,,68,68,7,12,4,4,,0.9
2024-04-14T1200,2297A,118.1371,30.2756,黄山市,黄山区政府5号楼,,27,,25,10,16,85,,48,48,5,10,4,4,0.7,0.8
2024-04-14T1200,2423A,115.0601,30.2313,黄石市,沈家营,颗粒物(PM10),59,68,60,27,22,26,,27,20,39,24,17,20,1.1,1.3
2024-04-14T1200,2424A,115.0817,30.2006,黄石市,陈家湾,颗粒物(PM10),60,70,45,31,23,38,,41,22,51,24,20,15,1.2,1
2024-04-14T1200,2426A,114.8988,30.2019,黄石市,铁山,,50,50,37,21,20,38,,51,38,22,13,18,10,1.0,0.9
2024-04-14T1200,2427A,115.0307,30.2092,黄石市,团城山,颗粒物(PM10),55,59,39,21,13,45,,64,39,28,13,17,8,1.0,0.8
2024-04-14T1200,3149A,115.0235,30.1578,黄石市,笔架山北路,颗粒物(PM10),53,56,46,20,15,59,,60,50,18,13,8,5,0.8,0.8
2024-04-14T1200,1392A,114.4183,23.0528,惠州市,河南岸金山湖子站,,26,24,37,15,23,82,,48,48,5,12,4,5,0.6,0.6
2024-04-14T1200,1393A,114.4053,23.0822,惠州市,下埔横江三路子站,,27,27,38,14,22,84,,56,56,8,13,5,6,0.6,0.7
2024-04-14T1200,1394A,114.4103,23.1142,惠州市,江北云山西路子站,,27,25,37,12,22,84,,55,55,5,11,5,6,0.6,0.6
2024-04-14T1200,1395A,114.4645,22.7833,惠州市,惠阳区承修路船湖子站,,20,20,29,11,16,61,,54,50,9,13,3,3,0.6,0.6
2024-04-14T1200,1396A,114.5317,22.7422,惠州市,大亚湾管委会子站,,25,25,32,14,18,70,,61,56,10,15,2,3,0.6,0.7
2024-04-14T1200,3314A,114.4338,22.8134,惠州市,惠阳秋长,,24,19,34,10,13,76,,62,59,8,14,8,8,0.4,0.4
2024-04-14T1200,3452A,114.6517,22.775,惠州市,大亚湾霞涌,,27,27,23,16,20,66,,60,54,5,7,5,5,0.4,0.4
2024-04-14T1200,2240A,130.9762,45.3001,鸡西市,环保局,颗粒物(PM10),57,64,72,27,33,89,,61,61,6,16,10,7,0.5,0.6
2024-04-14T1200,2243A,130.9429,45.3039,鸡西市,第一中学,,47,47,68,22,30,123,,90,90,6,13,8,9,0.3,0.4
2024-04-14T1200,3707A,131.0207,45.3073,鸡西市,欧美日汽修厂,颗粒物(PM10),57,63,104,22,47,105,,49,49,11,27,6,7,0.5,0.7
2024-04-14T1200,3709A,130.9967,45.3106,鸡西市,市政设施管理处,颗粒物(PM10),70,90,84,22,35,116,,52,52,18,29,8,6,0.4,0.5
2024-04-14T1200,2367A,114.9754,27.0803,吉安市,红声器材厂,细颗粒物(PM2.5),67,67,60,48,42,30,,15,15,28,24,14,14,0.8,0.7
2024-04-14T1200,2368A,114.9658,27.0999,吉安市,市森林工业局,细颗粒物(PM2.5),72,66,62,52,45,30,,16,16,31,24,14,14,0.8,0.8
2024-04-14T1200,2369A,114.99,27.1312,吉安市,市环境监测站,细颗粒物(PM2.5),62,68,61,44,38,36,,20,20,22,22,16,17,0.7,1
2024-04-14T1200,2370A,115.0093,27.0968,吉安市,青原区法院,细颗粒物(PM2.5),63,73,64,45,44,23,,17,17,39,26,15,16,0.8,0.8
2024-04-14T1200,1772A,126.54,43.8622,吉林市,哈达湾,,50,44,47,27,26,158,,114,114,11,15,8,7,0.6,0.6
2024-04-14T1200,1773A,126.5844,43.8358,吉林市,东局子,,49,46,54,27,31,156,,108,108,13,21,6,6,0.6,0.6
2024-04-14T1200,1774A,126.5052,43.8245,吉林市,电力学院,臭氧1小时,72,54,62,30,37,177,,121,121,12,23,11,11,0.6,0.6
2024-04-14T1200,1775A,126.6133,43.8972,吉林市,江北,,47,46,60,21,30,148,,106,106,14,21,10,9,0.5,0.6
2024-04-14T1200,1776A,126.555,43.8306,吉林市,江南公园,,50,49,55,33,35,159,,112,112,12,19,6,6,0.6,0.6
2024-04-14T1200,1778A,126.7061,43.7133,吉林市,丰满,,,,,,,,,,,,,,,,
2024-04-14T1200,2868A,126.4739,43.953,吉林市,九站,颗粒物(PM10),56,62,58,28,27,164,,120,120,15,20,10,10,0.6,0.6
2024-04-14T1200,1299A,116.9862,36.6114,济南市,科干所,,34,34,32,10,18,62,,77,75,26,10,6,6,0.6,0.6
2024-04-14T1200,1300A,116.9376,36.665,济南市,农科所,,29,29,39,10,17,68,,65,65,18,13,4,5,0.5,0.5
2024-04-14T1200,1301A,117.1265,36.6734,济南市,开发区,,29,29,30,9,17,70,,82,79,28,15,6,6,0.5,0.5
2024-04-14T1200,1303A,117.0624,36.6868,济南市,省种子仓库,颗粒物(PM10),52,53,38,5,13,62,,62,61,22,15,3,3,0.3,0.3
2024-04-14T1200,1304A,116.9489,36.6447,济南市,机床二厂,,32,32,38,7,14,75,,77,77,16,12,4,4,0.5,0.6
2024-04-14T1200,1305A,117.0495,36.663,济南市,市监测站,,37,37,30,10,14,65,,66,63,33,22,10,9,0.6,0.6
2024-04-14T1200,1306A,116.7675,36.5484,济南市,长清党校,,27,27,33,17,21,72,,82,76,15,9,4,5,0.5,0.5
2024-04-14T1200,1616A,117.6795,36.229,济南市,技术学院,,20,12,17,12,9,63,,79,72,21,12,8,7,0.9,0.7
2024-04-14T1200,1961A,117.532,36.6868,济南市,东山小学,,25,12,27,5,10,78,,86,82,13,11,4,5,0.4,0.3
2024-04-14T1200,3059A,117.7161,36.2049,济南市,泰兴公司,,19,19,20,9,12,55,,74,67,23,15,9,9,0.9,0.8
2024-04-14T1200,3064A,117.6867,36.2171,济南市,莱芜战役纪念馆,,19,19,26,9,10,52,,75,67,20,15,8,6,1.0,0.8
2024-04-14T1200,3494A,117.1673,36.9782,济南市,济阳区政府,,29,29,52,10,20,77,,77,77,17,24,7,7,0.6,0.6
2024-04-14T1200,3495A,117.1171,36.63,济南市,锦屏中学,,37,37,25,5,14,72,,75,75,18,6,6,6,0.4,0.4
2024-04-14T1200,3682A,116.9814,36.6819,济南市,济南四建,,31,31,32,0,18,63,,67,65,22,14,6,6,0.5,0.5
2024-04-14T1200,1653A,116.6251,35.4302,济宁市,火炬城,,25,25,39,5,10,57,,62,62,10,9,6,6,0.5,0.5
2024-04-14T1200,1655A,116.5491,35.4042,济宁市,电化厂,,33,33,40,7,9,61,,67,66,7,6,4,4,0.7,0.7
2024-04-14T1200,3500A,116.5814,35.3707,济宁市,北湖一中,,25,25,38,9,12,57,,63,61,8,8,4,5,0.7,0.7
2024-04-14T1200,3501A,116.8249,35.5593,济宁市,服务中心,,26,26,36,8,10,55,,64,62,12,9,1,2,0.7,0.7
2024-04-14T1200,3678A,116.5907,35.4054,济宁市,市第七中学,,34,34,38,9,10,54,,58,57,9,8,3,4,0.4,0.4
2024-04-14T1200,2255A,130.2751,46.8028,佳木斯市,佳纺,细颗粒物(PM2.5),107,119,80,80,46,152,,62,62,8,20,7,8,0.6,0.7
2024-04-14T1200,2256A,130.3995,46.8307,佳木斯市,发电厂,细颗粒物(PM2.5),83,81,67,61,42,147,,71,71,13,18,4,5,0.4,0.4
2024-04-14T1200,2257A,130.3258,46.7975,佳木斯市,环保局,细颗粒物(PM2.5),84,85,74,62,43,154,,56,56,10,27,5,5,0.4,0.5
2024-04-14T1200,2258A,130.3648,46.8032,佳木斯市,十一中,细颗粒物(PM2.5),75,85,64,55,45,139,,65,65,11,18,8,8,0.5,0.6
2024-04-14T1200,2259A,130.3794,46.7588,佳木斯市,四丰,"细颗粒物(PM2.5),臭氧1小时",55,56,57,39,34,164,,82,82,6,14,1,1,0.8,0.8
2024-04-14T1200,1252A,120.7436,30.778,嘉兴市,清河小学,,25,11,17,6,9,78,,54,54,12,16,8,7,0.7,0.7
2024-04-14T1200,1253A,120.726,30.7478,嘉兴市,嘉兴学院,,25,12,18,7,12,78,,52,52,15,19,6,5,0.5,0.4
2024-04-14T1200,2872A,120.7846,30.7525,嘉兴市,南湖区残联,,36,11,18,7,13,115,,65,65,8,15,6,6,0.6,0.4
2024-04-14T1200,3407A,120.6916,30.7739,嘉兴市,秀洲住建,,25,10,17,5,11,78,,54,54,11,13,5,5,0.7,0.6
2024-04-14T1200,1945A,98.2908,39.7711,嘉峪关市,气象局,颗粒物(PM10),318,434,478,80,90,114,,101,101,8,10,4,12,0.4,0.4
2024-04-14T1200,2884A,98.2672,39.7978,嘉峪关市,酒钢宾馆,颗粒物(PM10),349,459,493,83,95,115,,102,102,6,10,8,12,0.4,0.4
2024-04-14T1200,3248A,98.2643,39.7724,嘉峪关市,雄关区,颗粒物(PM10),192,334,356,71,70,108,,98,98,9,10,6,7,0.4,0.4
2024-04-14T1200,1383A,113.1064,22.6058,江门市,北街,,43,43,33,17,20,68,,51,51,10,12,7,7,0.5,0.5
2024-04-14T1200,1384A,113.0731,22.5835,江门市,西区,,35,35,36,15,20,74,,52,50,12,13,6,6,0.5,0.5
2024-04-14T1200,1385A,113.0219,22.5311,江门市,圭峰西,,36,36,32,18,19,79,,50,50,6,11,4,4,0.6,0.7
2024-04-14T1200,1386A,113.0828,22.5947,江门市,东湖,,31,31,33,19,16,71,,51,49,11,13,5,5,0.5,0.5
2024-04-14T1200,3311A,113.1075,22.5647,江门市,江海富民,,37,37,45,17,24,72,,47,47,11,15,7,7,0.5,0.5
2024-04-14T1200,3449A,113.05,22.4667,江门市,新会银湖,,30,30,30,15,18,78,,35,35,8,16,5,4,0.6,0.6
2024-04-14T1200,1828A,113.227,35.2125,焦作市,市环保局,,32,,53,22,34,70,,55,47,10,13,2,2,0.7,0.6
2024-04-14T1200,1830A,113.1992,35.2590,焦作市,影视城,,,,,,,,,,,,,,,,
2024-04-14T1200,3169A,113.2725,35.2067,焦作市,太极体育中心,,46,43,58,32,42,67,,53,44,10,14,4,3,0.6,0.5
2024-04-14T1200,3335A,113.3137,35.2641,焦作市,马村街道办,,43,33,58,30,47,57,,57,46,10,11,9,7,0.6,0.6
2024-04-14T1200,3336A,113.2465,35.2373,焦作市,焦作技师学院,,39,27,57,27,41,68,,54,46,8,11,2,3,0.8,0.7
2024-04-14T1200,3477A,113.1656,35.2539,焦作市,中站许衡医院,,36,,43,25,32,72,,58,45,7,15,5,6,0.7,0.7
2024-04-14T1200,3981A,113.2449,35.1803,焦作市,原李万街道办,,20,14,56,12,33,61,,51,42,8,11,4,4,0.7,0.6
2024-04-14T1200,1708A,116.3701,23.5345,揭阳市,新兴,颗粒物(PM10),100,149,77,23,36,78,,55,55,8,14,9,10,0.6,0.8
2024-04-14T1200,1709A,116.3264,23.5443,揭阳市,西马,,43,43,63,22,30,75,,61,61,8,8,9,9,0.7,0.8
2024-04-14T1200,1710A,116.3611,23.5626,揭阳市,东兴,颗粒物(PM10),59,67,87,21,40,77,,55,55,7,12,9,11,0.7,0.7
2024-04-14T1200,1711A,116.4151,23.5294,揭阳市,渔湖,,,,72,,32,71,,54,,,14,13,8,1.1,0.8
2024-04-14T1200,3320A,116.403,23.5699,揭阳市,曲溪,,45,45,51,20,32,81,,54,54,5,12,5,7,0.6,0.6
2024-04-14T1200,1944A,102.1692,38.5167,金昌市,天庆家园,颗粒物(PM10),124,198,305,27,140,108,,99,99,5,9,7,10,1.5,0.2
2024-04-14T1200,3170A,102.1864,38.5253,金昌市,市委党校,颗粒物(PM10),164,277,946,52,212,114,,105,105,2,7,8,10,0.3,0.4
2024-04-14T1200,4022A,102.1647,38.5371,金昌市,金川区人防中心,颗粒物(PM10),141,232,918,40,153,116,,109,109,4,6,5,6,0.1,0.1
2024-04-14T1200,1262A,119.647,29.077,金华市,十五中,,34,8,42,7,34,106,,68,68,14,25,4,5,0.5,0.6
2024-04-14T1200,1263A,119.686,29.1029,金华市,监测站,,33,11,51,6,31,105,,65,65,9,26,2,3,0.4,0.6
2024-04-14T1200,3659A,119.656,29.1131,金华市,气象局,,35,8,45,2,22,110,,67,67,12,32,3,4,0.3,0.4
2024-04-14T1200,1767A,121.1115,41.0879,锦州市,南山,,49,,38,34,49,58,,57,49,19,18,8,11,0.4,0.4
2024-04-14T1200,1768A,121.0533,40.8434,锦州市,开发区,,46,,27,32,32,55,,52,45,24,26,8,8,0.5,0.5
2024-04-14T1200,1769A,121.1836,41.1119,锦州市,百股街道,,19,12,27,12,23,60,,63,54,20,16,8,8,0.5,0.6
2024-04-14T1200,1770A,121.1178,41.1222,锦州市,天安街道,,33,,42,23,45,60,,60,52,20,18,8,13,0.5,0.5
2024-04-14T1200,1771A,121.1303,41.1386,锦州市,北湖公园,,38,,38,26,44,53,,52,45,16,15,9,13,0.6,0.6
2024-04-14T1200,2160A,112.85,35.5051,晋城市,自来水公司,,39,,44,27,26,102,,76,76,12,63,4,5,1.1,0.7
2024-04-14T1200,2161A,112.8318,35.4936,晋城市,白云商贸,,33,30,49,7,27,103,,84,82,14,14,6,5,0.9,0.7
2024-04-14T1200,2162A,112.8508,35.4887,晋城市,市环保局,,33,28,49,19,23,103,,82,81,13,14,5,5,1.1,0.7
2024-04-14T1200,2163A,112.8676,35.4897,晋城市,技术学院,,32,16,47,12,21,102,,83,80,10,9,5,4,1.2,0.8
2024-04-14T1200,2165A,112.8453,35.546,晋城市,白马寺,,,,,,,,,,,,,,,,
2024-04-14T1200,3620A,112.8271,35.4828,晋城市,泽州一中,,32,32,44,5,23,102,,85,84,11,12,5,7,0.8,0.8
2024-04-14T1200,2171A,112.7532,37.6945,晋中市,锦纶小区,,34,34,55,17,23,96,,98,82,20,16,12,11,0.8,0.4
2024-04-14T1200,2173A,112.7249,37.7067,晋中市,南都小区,,34,34,58,20,30,96,,97,83,19,15,8,7,0.5,0.4
2024-04-14T1200,2174A,112.6991,37.6982,晋中市,榆次区政府,,35,31,55,24,29,100,,96,84,18,16,13,11,0.5,0.5
2024-04-14T1200,2865A,112.7195,37.6828,晋中市,榆次三中,,31,31,55,14,20,95,,98,85,18,16,12,10,0.9,0.6
2024-04-14T1200,2439A,112.2014,31.0481,荆门市,竹园小学,细颗粒物(PM2.5),63,67,78,45,60,97,,53,53,14,23,10,11,0.8,1
2024-04-14T1200,2440A,112.1969,30.9891,荆门市,掇刀,细颗粒物(PM2.5),88,92,73,65,62,104,,61,61,14,20,13,12,0.9,0.8
2024-04-14T1200,2441A,112.2213,31.0386,荆门市,石化一小,细颗粒物(PM2.5),74,73,82,54,60,102,,56,56,17,24,7,16,0.9,1
2024-04-14T1200,3012A,112.1849,31.0362,荆门市,西山林语,颗粒物(PM10),57,63,74,38,53,101,,55,55,15,19,8,9,0.8,0.9
2024-04-14T1200,3547A,112.1632,31.0138,荆门市,龙泉中学南校,,48,48,51,25,31,106,,52,52,4,18,12,11,1.0,1.1
2024-04-14T1200,1844A,112.2494,30.3197,荆州市,市图书馆,,42,39,43,29,28,102,,41,41,12,24,7,6,1.0,1.1
2024-04-14T1200,1845A,112.2008,30.3544,荆州市,市委党校,颗粒物(PM10),56,61,53,36,32,94,,38,38,15,24,7,6,0.8,0.9
2024-04-14T1200,3194A,112.2747,30.3122,荆州市,管委会,细颗粒物(PM2.5),52,50,55,36,33,104,,45,45,11,21,9,9,1.0,1
2024-04-14T1200,3548A,112.1655,30.3364,荆州市,学苑路,细颗粒物(PM2.5),82,60,46,60,52,110,,43,43,8,25,6,6,0.7,0.8
2024-04-14T1200,2342A,117.3102,29.3867,景德镇市,王港中学,,,,,,,,,,,,,,,,
2024-04-14T1200,2343A,117.2117,29.2933,景德镇市,老干部活动中心,,22,15,15,8,12,68,,52,52,11,11,5,3,0.4,0.4
2024-04-14T1200,2344A,117.1894,29.2789,景德镇市,兽医站,,26,26,21,10,11,65,,55,55,11,9,7,6,0.8,0.6
2024-04-14T1200,2345A,117.1547,29.2617,景德镇市,台达陶瓷,,20,11,14,7,13,62,,49,49,20,17,15,20,0.6,0.6
2024-04-14T1200,2346A,117.2461,29.2956,景德镇市,陶研所,,24,,15,8,8,75,,57,57,4,10,8,6,0.4,0.4
2024-04-14T1200,1803A,115.9872,29.6815,九江市,十里,,20,20,28,13,20,38,,72,53,29,22,10,13,1.0,0.9
2024-04-14T1200,1804A,115.9584,29.7046,九江市,茅山头,,39,,24,27,22,50,,71,59,24,27,7,9,1.0,0.9
2024-04-14T1200,1805A,115.9877,29.7295,九江市,西园,,40,30,28,28,24,26,,62,49,44,22,16,15,0.9,0.9
2024-04-14T1200,1806A,116.0172,29.6547,九江市,五七二七厂,,37,37,20,17,15,36,,64,49,30,14,11,9,1.0,0.8
2024-04-14T1200,1808A,115.9114,29.6038,九江市,综合工业园,,30,30,26,19,18,49,,50,40,27,38,9,9,1.0,0.9
2024-04-14T1200,1809A,116.0721,29.7535,九江市,石化总厂,,39,39,37,25,22,71,,71,64,19,26,14,13,1.1,1.1
2024-04-14T1200,1810A,115.9773,29.5698,九江市,庐山气象台,细颗粒物(PM2.5),58,49,15,41,16,82,,92,92,4,4,7,7,0.9,0.8
2024-04-14T1200,3190A,116.0254,29.6994,九江市,外国语学校,,38,37,27,26,19,47,,74,59,30,26,25,8,1.1,1
2024-04-14T1200,2658A,98.5061,39.7443,酒泉市,仓门街子站,颗粒物(PM10),352,461,594,53,85,107,,86,86,5,9,6,9,0.2,0.2
2024-04-14T1200,2659A,98.4989,39.7256,酒泉市,油田生活基地,颗粒物(PM10),307,425,598,61,86,112,,85,85,4,9,8,11,0.2,0.2
2024-04-14T1200,2698A,76.0072,39.4467,喀什地区,巡警大队,颗粒物(PM10),365,472,258,117,62,42,,67,66,58,36,5,3,0.7,0.5
2024-04-14T1200,2699A,75.9755,39.4694,喀什地区,吾办,颗粒物(PM10),289,412,250,144,104,62,,62,62,35,36,5,4,0.5,0.4
2024-04-14T1200,4027A,75.9483,39.4689,喀什地区,老干局,颗粒物(PM10),449,549,291,115,70,61,,67,67,32,28,6,4,0.7,0.6
2024-04-14T1200,1824A,114.3389,34.7781,开封市,肿瘤医院,,18,,50,12,26,42,,52,46,13,10,2,2,0.5,0.5
2024-04-14T1200,1826A,114.2885,34.7965,开封市,世纪星幼儿园,,13,7,44,5,24,40,,52,45,14,10,3,3,0.4,0.5
2024-04-14T1200,3147A,114.3438,34.8106,开封市,龙亭公园,,14,11,50,5,24,42,,48,42,12,11,3,3,0.4,0.5
2024-04-14T1200,3210A,114.3644,34.7964,开封市,汴京公园,,26,,55,18,37,34,,48,41,19,12,5,5,0.7,0.7
2024-04-14T1200,3473A,114.2485,34.8306,开封市,技师学院,颗粒物(PM10),55,60,50,14,41,45,,57,48,14,11,4,5,0.6,0.7
2024-04-14T1200,3592A,114.4644,34.7556,开封市,祥符区生态环境局,,13,9,49,7,28,39,,43,39,15,17,4,4,0.4,0.5
2024-04-14T1200,1951A,84.895,45.6094,克拉玛依市,长征新村,颗粒物(PM10),200,349,452,40,57,68,,56,56,18,14,7,7,0.2,0.2
2024-04-14T1200,1952A,84.8988,45.5893,克拉玛依市,南林小区,颗粒物(PM10),209,356,458,55,60,65,,53,53,25,17,7,6,0.4,0.5
2024-04-14T1200,1954A,84.905,44.3396,克拉玛依市,独山子区,颗粒物(PM10),265,395,415,65,67,80,,56,56,8,13,10,9,0.4,0.4
2024-04-14T1200,1955A,85.6979,46.098,克拉玛依市,乌尔禾区商贸楼,颗粒物(PM10),61,71,172,15,20,86,,44,44,3,12,7,8,0.4,0.4
2024-04-14T1200,3612A,85.1045,45.6899,克拉玛依市,白碱滩区新站,颗粒物(PM10),136,221,412,45,75,67,,64,58,17,8,10,9,0.2,0.1
2024-04-14T1200,2697A,76.1454,39.7142,克孜勒苏柯尔克孜自治州,市人民政府,颗粒物(PM10),146,241,184,88,72,73,,72,66,16,12,6,7,0.4,0.3
2024-04-14T1200,3665A,76.1658,39.7157,克孜勒苏柯尔克孜自治州,克州文化中心,颗粒物(PM10),161,272,203,108,76,76,,81,78,18,11,7,8,0.4,0.3
2024-04-14T1200,1450A,102.8204,24.8886,昆明市,呈贡新区,,48,45,48,21,31,152,,110,110,9,14,6,6,0.6,0.7
2024-04-14T1200,1451A,102.6251,24.9608,昆明市,西山森林公园,,,,,,,,,,,,,,,,
2024-04-14T1200,1452A,102.7252,25.0902,昆明市,龙泉镇,,,,36,19,20,141,,106,106,,14,8,6,,0.6
2024-04-14T1200,1453A,102.7266,25.0375,昆明市,东风东路,,45,40,39,26,27,142,,116,116,11,13,7,8,0.6,0.6
2024-04-14T1200,1454A,102.6742,25.0669,昆明市,金鼎山,,46,37,35,19,23,146,,126,126,10,10,13,13,0.6,0.6
2024-04-14T1200,1455A,102.6644,25.0401,昆明市,碧鸡广场,,,31,36,20,25,,,102,101,,13,,9,,0.6
2024-04-14T1200,3179A,102.7494,25.0119,昆明市,官渡区博物馆,,49,36,39,22,23,154,,120,120,9,12,9,10,0.6,0.7
2024-04-14T1200,3375A,102.8017,24.8336,昆明市,青年创业园,,49,31,41,22,26,156,,109,109,7,11,8,9,0.4,0.5
2024-04-14T1200,3550A,102.7997,24.9786,昆明市,昆明学院,,49,39,42,25,25,154,,122,122,9,10,10,10,0.7,0.6
2024-04-14T1200,3551A,102.5967,24.6736,昆明市,晋宁区生态环境分局,细颗粒物(PM2.5),132,117,73,100,52,154,,107,107,14,13,7,4,1.0,0.9
2024-04-14T1200,3552A,102.6678,24.9856,昆明市,云天化总部,,50,35,38,24,24,159,,125,125,7,11,6,7,0.5,0.5
2024-04-14T1200,1456A,91.1319,29.6514,拉萨市,八廓街,,40,18,20,10,12,125,,106,96,11,11,7,8,0.2,0.3
2024-04-14T1200,1457A,91.1221,29.6747,拉萨市,市环保局,,40,13,23,9,11,126,,98,89,12,17,7,7,0.2,0.3
2024-04-14T1200,1458A,91.0874,29.6475,拉萨市,区监测站,,40,,17,13,12,128,,105,92,8,16,5,6,0.2,0.2
2024-04-14T1200,1459A,91.1774,29.6541,拉萨市,西藏大学,,42,11,18,6,9,133,,109,102,5,6,4,4,0.1,0.1
2024-04-14T1200,1460A,90.9798,29.6588,拉萨市,区辐射站,,38,22,26,12,12,119,,104,87,17,17,6,6,0.3,0.3
2024-04-14T1200,1461A,91.0834,29.6292,拉萨市,拉萨火车站,,36,22,19,9,10,115,,113,90,15,13,4,4,0.4,0.4
2024-04-14T1200,2520A,109.2203,23.7256,来宾市,来宾技工学校,颗粒物(PM10),51,52,47,32,28,65,,44,44,6,8,11,9,0.7,0.7
2024-04-14T1200,3535A,109.1781,23.7297,来宾市,兴宾区政府,,45,44,41,31,27,66,,52,52,9,9,6,5,0.6,0.6
2024-04-14T1200,4002A,109.2416,23.7461,来宾市,中南小学,,,59,51,30,30,60,,44,44,7,10,,10,0.6,0.7
2024-04-14T1200,1476A,103.631,36.1031,兰州市,兰炼宾馆,颗粒物(PM10),500,743,310,260,116,75,,44,44,20,35,38,20,0.6,0.5
2024-04-14T1200,1477A,104.1373,35.9454,兰州市,榆中兰大校区,,,,,,,,,,,,,,,,
2024-04-14T1200,1478A,103.8412,36.0726,兰州市,生物制品所,颗粒物(PM10),500,965,448,229,119,58,,21,21,33,46,38,15,0.6,0.5
2024-04-14T1200,1479A,103.831,36.0464,兰州市,铁路设计院,颗粒物(PM10),500,918,329,244,97,72,,32,32,33,56,30,15,0.5,0.5
2024-04-14T1200,3186A,103.7158,36.1058,兰州市,教育港,颗粒物(PM10),500,1015,498,214,122,66,,31,31,23,33,40,17,0.6,0.5
2024-04-14T1200,3241A,103.7439,36.0842,兰州市,百合公园,颗粒物(PM10),500,864,304,206,80,67,,24,24,30,50,38,12,0.8,0.7
2024-04-14T1200,3242A,103.9611,35.998,兰州市,和平,颗粒物(PM10),500,1057,211,314,66,83,,67,56,18,22,21,14,0.5,0.4
2024-04-14T1200,3245A,103.6633,36.533,兰州新区,新区管委会,颗粒物(PM10),500,744,626,228,180,91,,46,46,10,18,15,11,0.4,0.4
2024-04-14T1200,3246A,103.6975,36.4789,兰州新区,舟曲中学,颗粒物(PM10),500,933,690,261,180,86,,50,49,12,17,20,16,0.4,0.4
2024-04-14T1200,1067A,116.6708,39.5111,廊坊市,药材公司,"颗粒物(PM10),细颗粒物(PM2.5)",58,65,70,41,43,72,,47,47,17,23,2,2,0.4,0.5
2024-04-14T1200,1068A,116.7214,39.5589,廊坊市,开发区,颗粒物(PM10),64,78,80,44,40,76,,36,36,16,27,2,2,0.4,0.5
2024-04-14T1200,1070A,116.7244,39.5269,廊坊市,北华航天学院,细颗粒物(PM2.5),74,68,83,54,48,77,,40,40,11,21,2,2,0.4,0.5
2024-04-14T1200,2919A,116.7022,39.5453,廊坊市,河北工业大学,细颗粒物(PM2.5),69,74,83,50,44,77,,42,42,20,28,3,3,0.4,0.5
2024-04-14T1200,2535A,103.7723,29.5462,乐山市,花湖湾,细颗粒物(PM2.5),72,,54,52,44,130,,69,69,14,22,6,5,0.9,0.8
2024-04-14T1200,2536A,103.7627,29.5844,乐山市,牛耳桥,细颗粒物(PM2.5),63,62,62,45,46,137,,51,51,18,32,8,6,0.7,0.7
2024-04-14T1200,2537A,103.7508,29.6006,乐山市,市第三水厂,细颗粒物(PM2.5),68,68,61,49,45,147,,58,58,21,37,7,6,0.8,0.9
2024-04-14T1200,2538A,103.7571,29.5664,乐山市,市监测站,细颗粒物(PM2.5),63,64,59,45,42,144,,64,64,15,23,10,8,0.7,0.7
2024-04-14T1200,3361A,103.7311,29.5628,乐山市,理工大学,,,74,61,53,43,151,,69,69,12,24,11,10,,0.8
2024-04-14T1200,2598A,100.2143,26.8576,丽江市,西南郊,,,,,,,,,,,,,,,,
2024-04-14T1200,2599A,100.2497,26.8802,丽江市,丽江古城,,48,48,47,27,30,122,,117,108,11,12,9,8,0.6,0.6
2024-04-14T1200,2600A,100.2203,26.8906,丽江市,市中心,,44,44,37,19,20,117,,107,96,7,11,8,8,0.6,0.6
2024-04-14T1200,1267A,119.914,28.4514,丽水市,监测站大楼,,21,5,18,5,11,65,,60,50,12,12,2,2,0.6,0.5
2024-04-14T1200,1268A,119.93,28.4586,丽水市,莲都小学,,20,15,22,7,12,62,,49,40,13,16,2,2,0.5,0.4
2024-04-14T1200,1269A,119.879,28.4231,丽水市,余庄前,,20,20,21,11,12,64,,31,31,15,11,5,4,0.6,0.5
2024-04-14T1200,1173A,119.176,34.5885,连云港市,市环境监测站,,19,17,18,9,15,60,,75,70,10,9,7,7,0.3,0.2
2024-04-14T1200,3000A,119.3581,34.6972,连云港市,德源药业,,24,12,19,9,13,76,,77,77,7,6,4,5,0.4,0.4
2024-04-14T1200,3007A,119.178,34.844,连云港市,新城一中,,26,23,26,9,9,82,,81,81,16,16,5,6,0.4,0.4
2024-04-14T1200,3008A,119.3608,34.7519,连云港市,胡沟管理处,,24,17,21,14,12,76,,74,73,10,16,6,8,0.5,0.5
2024-04-14T1200,3009A,119.1478,34.5911,连云港市,矿山设计院,,19,17,18,7,10,58,,74,68,9,7,6,6,0.6,0.5
2024-04-14T1200,3434A,119.2413,34.6539,连云港市,工贸学校,,22,8,14,6,9,70,,88,83,4,4,7,7,0.4,0.4
2024-04-14T1200,3664A,119.4172,34.7341,连云港市,连云街道,,26,13,17,9,9,82,,87,85,10,11,2,2,0.4,0.4
2024-04-14T1200,2571A,102.3431,27.8099,凉山彝族自治州,青龙寺,,48,40,32,7,6,151,,101,101,7,5,15,6,0.8,0.6
2024-04-14T1200,2572A,102.2721,27.8415,凉山彝族自治州,邛海宾馆,,47,39,35,26,23,149,,90,90,7,17,18,12,0.6,0.5
2024-04-14T1200,2573A,102.2625,27.898,凉山彝族自治州,西昌市政府,颗粒物(PM10),51,51,38,32,24,131,,98,92,17,12,15,10,0.8,0.7
2024-04-14T1200,2574A,102.2685,27.8851,凉山彝族自治州,凉山州政府,,50,50,44,30,28,132,,86,86,13,14,20,12,0.8,0.6
2024-04-14T1200,2575A,102.237,27.8914,凉山彝族自治州,长安,颗粒物(PM10),55,60,42,32,25,125,,78,66,26,20,22,15,1.2,0.9
2024-04-14T1200,2212A,123.2,41.1953,辽阳市,宏伟区,,30,19,18,13,12,94,,84,84,7,8,10,10,0.5,0.5
2024-04-14T1200,2213A,123.1683,41.2495,辽阳市,新华园,,31,29,21,12,13,98,,86,86,12,9,8,7,0.5,0.4
2024-04-14T1200,2214A,123.2354,41.2639,辽阳市,滨河路,,31,26,21,17,14,97,,81,81,8,8,8,8,0.5,0.5
2024-04-14T1200,2215A,123.149,41.2991,辽阳市,铁西工业园,,41,41,27,17,14,101,,89,89,17,10,15,10,1.0,0.6
2024-04-14T1200,2227A,125.1358,42.8845,辽源市,环保局,,35,22,27,16,21,112,,94,94,5,14,6,7,0.5,0.6
2024-04-14T1200,3239A,125.0764,42.9078,辽源市,银鹰制药,,35,23,34,14,21,112,,87,87,8,21,8,9,0.6,0.7
2024-04-14T1200,1625A,115.9848,36.4372,聊城市,区政府,,29,29,44,16,21,81,,62,62,10,15,6,6,0.6,0.7
2024-04-14T1200,2878A,116.0072,36.4343,聊城市,聊大东校,,,,41,,25,,,122,,,16,,7,,0.6
2024-04-14T1200,3200A,115.9819,36.4978,聊城市,监控中心,,27,13,42,7,17,84,,66,66,7,11,5,7,0.6,0.6
2024-04-14T1200,3513A,116.0445,36.4361,聊城市,九州社区,,27,26,55,11,21,85,,64,64,5,13,4,9,0.6,0.6
2024-04-14T1200,4018A,116.0567,36.4608,聊城市,星美广场,,27,20,54,12,26,85,,62,62,9,16,3,5,0.5,0.6
2024-04-14T1200,2632A,94.3681,29.6376,林芝市,林芝监测站,,32,12,17,11,11,102,,80,76,2,3,6,6,0.3,0.3
2024-04-14T1200,2633A,94.3616,29.6616,林芝市,林芝人民医院,,32,12,20,12,14,102,,80,75,6,6,6,6,0.3,0.3
2024-04-14T1200,2603A,100.0781,23.8982,临沧市,市环保局,,49,49,51,34,47,126,,72,72,15,14,9,11,0.7,0.6
2024-04-14T1200,2604A,100.0894,23.8822,临沧市,市气象局,,,,107,,66,,,99,,,14,,7,,0.8
2024-04-14T1200,1733A,111.5531,36.0783,临汾市,临钢医院,颗粒物(PM10),51,51,57,19,20,102,,87,80,6,11,6,6,0.6,0.7
2024-04-14T1200,1734A,111.5028,36.0714,临汾市,技工学校,,43,43,56,29,30,105,,91,80,8,14,9,8,0.6,0.7
2024-04-14T1200,1736A,111.5018,36.0855,临汾市,市委,颗粒物(PM10),57,64,59,21,22,104,,90,79,4,10,7,7,0.7,0.8
2024-04-14T1200,3018A,111.505,36.1014,临汾市,唐尧大酒店,颗粒物(PM10),54,57,66,13,22,101,,92,81,5,12,8,8,0.6,0.7
2024-04-14T1200,3668A,111.5036,36.0414,临汾市,城南,,42,33,48,29,32,104,,80,76,4,11,8,7,0.6,0.7
2024-04-14T1200,2667A,103.2069,35.5993,临夏回族自治州,环保局,颗粒物(PM10),493,593,128,128,42,80,,33,33,11,21,11,5,0.4,0.5
2024-04-14T1200,2668A,103.2417,35.6057,临夏回族自治州,建设大厦,颗粒物(PM10),444,544,123,118,41,86,,47,47,10,17,13,7,0.3,0.4
2024-04-14T1200,1618A,118.3429,35.0532,临沂市,沂河小区,,29,29,26,19,13,58,,62,59,13,10,5,4,0.2,0.2
2024-04-14T1200,1619A,118.295,35.0583,临沂市,鲁南制药厂,,31,31,22,13,12,61,,71,67,15,11,4,4,0.3,0.3
2024-04-14T1200,1620A,118.2794,34.9976,临沂市,新光毛纺厂,,20,17,18,14,13,63,,67,65,18,16,3,3,0.5,0.5
2024-04-14T1200,1621A,118.3956,35.0888,临沂市,河东保险公司,,39,31,21,27,13,57,,58,58,9,7,3,3,0.0,0
2024-04-14T1200,3370A,118.3564,35.0215,临沂市,十里堡居委,,32,,15,22,13,57,,64,62,14,11,3,3,0.5,0.4
2024-04-14T1200,3496A,118.3604,35.1084,临沂市,南坊新区,,31,31,24,19,11,60,,62,62,15,11,5,5,0.3,0.3
2024-04-14T1200,3860A,118.3920,35.0300,临沂市,皇山花园小区,,33,24,21,23,20,63,,65,62,16,15,5,6,0.3,0.3
2024-04-14T1200,1870A,109.4856,24.3895,柳州市,柳东小学,,50,50,43,34,30,46,,50,43,13,13,7,7,0.6,0.6
2024-04-14T1200,1871A,109.4157,24.3277,柳州市,环保监测站,细颗粒物(PM2.5),62,58,46,44,31,59,,48,46,11,10,6,6,0.8,0.8
2024-04-14T1200,1872A,109.389,24.341,柳州市,河西水厂,颗粒物(PM10),56,62,46,29,28,60,,51,51,9,9,2,2,0.6,0.6
2024-04-14T1200,1873A,109.4311,24.2921,柳州市,市四中,颗粒物(PM10),52,54,47,29,29,63,,49,48,10,12,6,5,0.6,0.6
2024-04-14T1200,1874A,109.4006,24.3631,柳州市,市九中,"颗粒物(PM10),细颗粒物(PM2.5)",52,54,51,36,28,57,,45,43,15,15,6,6,0.6,0.6
2024-04-14T1200,1875A,109.4958,24.3134,柳州市,古亭山,颗粒物(PM10),54,57,45,30,28,58,,57,50,12,11,5,5,0.5,0.5
2024-04-14T1200,3402A,109.5422,24.3996,柳州市,市二中,,43,43,44,30,29,51,,44,41,15,15,8,8,0.7,0.7
2024-04-14T1200,2307A,116.5079,31.737,六安市,监测大楼,,38,38,44,16,60,87,,63,57,17,16,6,5,0.6,0.6
2024-04-14T1200,2308A,116.4738,31.7643,六安市,皖西学院,,45,45,52,31,51,89,,66,59,15,15,5,4,0.7,0.7
2024-04-14T1200,2309A,116.4996,31.7905,六安市,朝阳厂,,50,50,45,18,54,78,,59,53,14,14,6,6,0.5,0.5
2024-04-14T1200,2310A,116.5567,31.7886,六安市,开发区,,50,50,50,28,36,85,,56,55,18,19,5,6,0.7,0.8
2024-04-14T1200,2576A,104.8,26.5892,六盘水市,窑上,,,,,,,,,,,,,,,,
2024-04-14T1200,2577A,104.83,26.5917,六盘水市,黄土坡,细颗粒物(PM2.5),82,70,42,60,26,139,,84,84,22,18,16,9,1.1,0.6
2024-04-14T1200,2578A,104.89,26.5939,六盘水市,水钢,颗粒物(PM10),54,57,58,36,32,148,,101,101,10,23,13,15,0.5,1
2024-04-14T1200,2579A,104.8475,26.5894,六盘水市,民中,颗粒物(PM10),58,65,43,36,28,136,,87,87,20,22,14,10,0.9,0.6
2024-04-14T1200,2580A,104.9544,26.5506,六盘水市,双水,颗粒物(PM10),52,53,56,27,28,146,,89,89,10,18,8,6,0.6,0.7
2024-04-14T1200,2335A,117.0189,25.1181,龙岩市,龙岩师专,,,,,,,,,,,,,,,,
2024-04-14T1200,2336A,117.0217,25.1033,龙岩市,龙岩市监测站,,33,,48,23,40,68,,65,57,8,13,6,6,0.5,0.6
2024-04-14T1200,2337A,117.0258,25.0661,龙岩市,闽西职业技术学院,,30,30,50,19,40,64,,54,49,6,13,4,6,0.4,0.6
2024-04-14T1200,2338A,117.0196,25.0306,龙岩市,龙岩学院,,30,30,47,18,34,72,,54,54,3,7,1,3,0.5,0.6
2024-04-14T1200,2665A,105.0822,33.3261,陇南市,汉王镇固水子,,,,,,,,,,,,,,,,
2024-04-14T1200,2885A,104.9339,33.3826,陇南市,滨江中学,颗粒物(PM10),55,60,63,20,23,83,,45,45,9,17,11,15,0.6,0.7
2024-04-14T1200,3247A,104.955,33.371,陇南市,市总工会,,47,47,46,11,13,77,,48,48,8,13,8,8,0.3,0.4
2024-04-14T1200,2487A,111.9589,27.8901,娄底市,电视发射台,,46,46,46,22,29,28,,35,35,6,6,4,6,1.1,1.2
2024-04-14T1200,2488A,111.9975,27.725,娄底市,市监测站,细颗粒物(PM2.5),74,82,61,54,34,16,,17,15,26,16,12,8,2.0,1
2024-04-14T1200,2489A,112.0194,27.7314,娄底市,市委党校,颗粒物(PM10),53,56,46,34,32,10,,17,15,29,14,9,5,1.8,1
2024-04-14T1200,2490A,111.9561,27.7569,娄底市,涟钢,颗粒物(PM10),60,70,60,41,36,11,,12,10,21,23,13,14,1.3,1.2
2024-04-14T1200,2491A,111.9892,27.7044,娄底市,市政府,细颗粒物(PM2.5),63,58,44,45,36,24,,21,18,39,19,9,8,2.2,0.8
2024-04-14T1200,1893A,105.4324,28.9634,泸州市,九狮山,,50,50,68,19,44,136,,44,44,10,15,7,6,0.5,0.5
2024-04-14T1200,1894A,105.4427,28.9063,泸州市,小市上码头,细颗粒物(PM2.5),89,89,80,66,54,129,,51,51,22,22,8,7,0.7,0.6
2024-04-14T1200,1895A,105.4241,28.8573,泸州市,兰田宪桥,细颗粒物(PM2.5),90,84,79,67,54,128,,43,43,13,20,10,6,0.7,0.7
2024-04-14T1200,1896A,105.4379,28.8833,泸州市,市环监站,细颗粒物(PM2.5),77,58,74,56,58,125,,59,59,16,19,12,10,0.7,0.7
2024-04-14T1200,3490A,105.3617,28.7703,泸州市,纳溪区环保局,细颗粒物(PM2.5),62,63,75,44,55,138,,41,41,8,30,8,6,0.5,0.6
2024-04-14T1200,2183A,111.1406,37.5211,吕梁市,环保局,,50,50,47,20,17,89,,84,80,19,12,10,11,0.4,0.4
2024-04-14T1200,2185A,111.1297,37.5136,吕梁市,自来水公司,,42,42,42,22,16,86,,74,70,20,14,8,9,0.4,0.4
2024-04-14T1200,2867A,111.1283,37.51,吕梁市,马茂庄小学,,49,49,46,19,16,93,,80,75,17,17,7,7,0.3,0.4
2024-04-14T1200,1812A,112.3931,34.6516,洛阳市,市委党校,,28,,44,19,35,78,,54,51,11,10,2,2,0.8,0.7
2024-04-14T1200,1814A,112.4657,34.6871,洛阳市,豫西宾馆,,26,26,52,10,32,81,,55,53,13,16,3,4,0.8,0.6
2024-04-14T1200,1815A,112.494,34.6886,洛阳市,河南林校,,23,14,40,4,34,73,,51,48,15,17,3,3,0.7,0.6
2024-04-14T1200,1816A,112.3844,34.623,洛阳市,开发区管委会,,27,12,52,10,37,85,,64,56,10,9,3,2,0.6,0.5
2024-04-14T1200,1817A,112.4267,34.6258,洛阳市,市委新办公区,,25,,47,12,31,78,,60,53,9,8,5,4,0.6,0.5
2024-04-14T1200,3340A,112.6005,34.6326,洛阳市,伊滨,,25,,41,17,36,74,,53,47,11,12,4,5,0.6,0.6
2024-04-14T1200,3341A,112.4951,34.6332,洛阳市,中移产业园,,24,17,42,12,29,75,,48,48,5,7,4,4,0.8,0.7
2024-04-14T1200,3593A,112.5736,34.8993,洛阳市,吉利监测站,,24,14,56,10,28,74,,56,46,12,14,3,2,1.0,0.8
2024-04-14T1200,3635A,112.3677,34.662,洛阳市,河科大西苑校区,,26,17,42,8,23,83,,53,53,9,9,2,2,0.6,0.5
2024-04-14T1200,3636A,112.4388,34.6781,洛阳市,英才小学,,23,20,50,10,28,71,,49,48,11,11,4,4,0.7,0.6
2024-04-14T1200,2399A,114.051,33.5699,漯河市,三五一五工厂,颗粒物(PM10),61,71,71,33,38,39,,48,37,8,9,2,4,0.6,0.6
2024-04-14T1200,2400A,114.0055,33.5698,漯河市,漯河大学,细颗粒物(PM2.5),70,54,72,51,53,34,,44,33,12,15,7,8,0.5,0.6
2024-04-14T1200,2401A,114.0138,33.5828,漯河市,市水利局,细颗粒物(PM2.5),70,58,68,51,51,41,,51,40,10,10,4,6,0.5,0.5
2024-04-14T1200,2402A,114.0261,33.5698,漯河市,市广电局,颗粒物(PM10),59,68,74,39,41,47,,57,45,11,12,3,5,0.8,0.8
2024-04-14T1200,3478A,113.9749,33.5664,漯河市,市图书馆,细颗粒物(PM2.5),88,70,65,65,42,43,,56,42,12,12,11,13,0.7,0.8
2024-04-14T1200,3479A,114.0967,33.5906,漯河市,召陵区卫健委,细颗粒物(PM2.5),94,88,66,70,45,38,,41,35,10,14,3,5,0.7,0.7
2024-04-14T1200,1798A,118.5092,31.6837,马鞍山市,湖东路四小,,34,34,31,14,20,80,,55,55,15,19,8,8,0.8,0.7
2024-04-14T1200,1799A,118.5024,31.6449,马鞍山市,开发区,,27,27,35,17,22,83,,53,53,16,24,6,6,0.9,0.8
2024-04-14T1200,1800A,118.5228,31.7231,马鞍山市,慈湖,,34,34,44,15,22,72,,52,50,19,21,10,10,1.0,0.8
2024-04-14T1200,1802A,118.6245,31.7241,马鞍山市,濮塘,,24,23,29,12,20,74,,56,54,10,13,5,4,0.8,0.8
2024-04-14T1200,3633A,118.4918,31.6809,马鞍山市,雨山,,26,25,28,13,18,81,,55,55,15,19,5,5,0.9,0.7
2024-04-14T1200,1686A,111.0286,21.4688,茂名市,电白南海,,44,44,34,24,22,64,,61,61,10,8,7,7,0.5,0.5
2024-04-14T1200,1687A,110.9294,21.6533,茂名市,茂石化七小,,36,36,36,24,25,71,,64,64,8,9,7,7,0.8,0.8
2024-04-14T1200,1688A,110.9107,21.6687,茂名市,健康路,,31,31,31,17,17,66,,60,60,8,8,7,6,0.6,0.6
2024-04-14T1200,1689A,110.8592,21.6828,茂名市,高岭,颗粒物(PM10),51,51,43,17,21,69,,62,62,6,9,5,6,0.7,0.7
2024-04-14T1200,3450A,111.01,21.5165,茂名市,电白水东,,32,29,28,22,18,54,,54,52,14,13,4,4,0.6,0.6
2024-04-14T1200,2539A,104.0308,30.0478,眉山市,黑龙滩水库,,48,46,39,29,25,151,,70,70,5,8,8,7,0.7,0.5
2024-04-14T1200,2540A,103.8416,30.0874,眉山市,气象局,,,59,65,41,42,127,,39,39,,40,11,10,0.5,0.5
2024-04-14T1200,3137A,103.8578,30.0744,眉山市,市委党校,颗粒物(PM10),63,75,73,44,42,131,,36,36,26,42,12,11,0.6,0.6
2024-04-14T1200,3148A,103.8291,30.0564,眉山市,区人社局,细颗粒物(PM2.5),64,67,64,46,51,141,,38,38,27,45,14,12,0.6,0.6
2024-04-14T1200,1690A,116.1231,24.3284,梅州市,梅江月梅,,43,41,53,30,39,82,,44,44,8,12,4,6,0.6,0.7
2024-04-14T1200,1691A,116.0797,24.2719,梅州市,梅县新城,,32,32,52,21,36,81,,40,40,4,15,4,4,0.4,0.6
2024-04-14T1200,1692A,116.1248,24.2654,梅州市,环境监控中心,,50,50,54,25,36,66,,33,33,19,22,3,3,0.6,0.7
2024-04-14T1200,3315A,116.1233,24.2991,梅州市,梅龙,,40,36,51,28,39,76,,44,44,9,11,8,13,0.7,0.7
2024-04-14T1200,1878A,104.7778,31.4741,绵阳市,富乐山,,41,36,46,26,32,131,,52,52,14,20,9,8,0.6,0.6
2024-04-14T1200,1879A,104.7563,31.4535,绵阳市,市人大,颗粒物(PM10),59,67,65,27,32,117,,43,43,23,43,7,8,0.6,0.6
2024-04-14T1200,1880A,104.6697,31.4668,绵阳市,高新区自来水公司,细颗粒物(PM2.5),55,47,70,39,36,111,,46,46,26,46,10,9,0.5,0.5
2024-04-14T1200,1881A,104.7287,31.5075,绵阳市,三水厂,"颗粒物(PM10),细颗粒物(PM2.5)",58,66,66,41,44,113,,30,30,20,43,6,7,0.7,0.7
2024-04-14T1200,3491A,104.69,31.5322,绵阳市,西科大附属小学,颗粒物(PM10),57,63,56,37,32,94,,34,34,24,35,9,10,0.7,0.6
2024-04-14T1200,3492A,104.5648,31.5343,绵阳市,安州区旅游局,颗粒物(PM10),52,54,62,13,37,100,,40,40,14,23,8,7,0.6,0.7
2024-04-14T1200,1784A,129.61,44.561,牡丹江市,环保大楼,,41,41,64,23,45,129,,59,59,13,28,7,8,0.4,0.7
2024-04-14T1200,1785A,129.6115,44.5782,牡丹江市,文化广场,细颗粒物(PM2.5),58,48,77,41,54,126,,53,53,13,34,11,11,0.6,0.9
2024-04-14T1200,1786A,129.5904,44.5963,牡丹江市,第一医院,颗粒物(PM10),53,56,78,26,55,127,,54,54,17,29,11,11,0.4,0.7
2024-04-14T1200,1787A,129.6364,44.6075,牡丹江市,机车工厂,颗粒物(PM10),55,60,82,22,45,126,,54,54,12,30,8,11,0.4,0.7
2024-04-14T1200,1788A,129.6386,44.5462,牡丹江市,第一中学,,40,33,51,8,24,126,,58,58,13,26,10,10,0.6,0.7
2024-04-14T1200,2531A,105.0703,29.61,内江市,市监测站,细颗粒物(PM2.5),53,,42,37,40,111,,44,44,19,22,10,8,0.3,0.4
2024-04-14T1200,2532A,105.0717,29.5947,内江市,东兴区政府,,48,48,52,28,31,119,,52,52,10,16,9,9,0.4,0.5
2024-04-14T1200,2533A,105.0653,29.5817,内江市,内江二中,,36,36,38,21,30,109,,46,46,13,18,8,8,0.8,0.8
2024-04-14T1200,2534A,105.0406,29.5822,内江市,内江日报社,,45,,36,31,37,118,,49,49,17,29,11,10,0.8,0.8
2024-04-14T1200,2628A,92.0657,31.4846,那曲市,那曲监测站,,44,44,29,22,18,126,,69,69,5,7,9,8,0.5,0.7
2024-04-14T1200,3128A,92.0506,31.4797,那曲市,那曲会议中心,,40,23,34,7,16,128,,67,67,3,10,8,8,0.4,0.6
2024-04-14T1200,1290A,115.8931,28.6843,南昌市,省外办,,23,23,25,9,15,57,,27,27,19,26,5,5,0.6,0.6
2024-04-14T1200,1291A,115.8886,28.7003,南昌市,省林业公司,,20,17,17,12,14,61,,31,31,23,32,4,4,0.6,0.6
2024-04-14T1200,1292A,115.8126,28.7442,南昌市,林科所,,26,9,9,5,7,81,,32,32,19,32,7,6,0.8,0.9
2024-04-14T1200,1294A,115.8518,28.687,南昌市,建工学校,,23,,28,16,21,58,,31,31,24,29,4,4,0.7,0.7
2024-04-14T1200,1295A,115.8921,28.6424,南昌市,象湖,,23,23,24,12,16,37,,22,22,31,31,3,3,1.2,1.1
2024-04-14T1200,1296A,115.7423,28.7996,南昌市,武术学校,,32,,13,22,16,48,,56,56,10,6,8,6,0.5,0.5
2024-04-14T1200,1298A,115.9314,28.6842,南昌市,省站,,25,24,26,17,18,58,,35,35,21,21,8,7,1.0,0.9
2024-04-14T1200,3046A,115.9084,28.6062,南昌市,机电学校,,25,20,25,17,17,35,,17,17,23,34,6,6,0.8,0.6
2024-04-14T1200,3690A,115.9721,28.7031,南昌市,外国语学校,,22,22,19,12,17,60,,46,46,22,24,3,3,0.7,0.6
2024-04-14T1200,1905A,106.056,30.8064,南充市,西山风景区,,,,,,,,,,,,,,,,
2024-04-14T1200,1906A,106.0789,30.8023,南充市,南充市委,颗粒物(PM10),55,60,51,33,33,78,,48,48,15,15,7,7,0.5,0.6
2024-04-14T1200,1907A,106.1031,30.8217,南充市,南充炼油厂,,48,48,51,24,30,104,,52,52,11,17,6,7,0.3,0.3
2024-04-14T1200,1908A,106.1064,30.7856,南充市,高坪区监测站,,42,42,52,28,28,93,,53,53,16,20,6,8,0.2,0.2
2024-04-14T1200,1909A,106.0642,30.7636,南充市,嘉陵区环保局,,35,34,46,24,28,101,,53,53,10,20,5,7,0.4,0.5
2024-04-14T1200,1910A,106.1087,30.8388,南充市,市环境监测站,颗粒物(PM10),53,56,51,27,31,108,,56,56,15,15,5,7,0.3,0.4
2024-04-14T1200,1151A,118.8086,32.1065,南京市,迈皋桥,,42,32,29,29,26,46,,53,48,17,17,4,4,0.6,0.6
2024-04-14T1200,1152A,118.7538,32.0551,南京市,草场门,,42,,30,29,29,47,,47,44,19,20,1,1,0.6,0.5
2024-04-14T1200,1153A,118.7794,32.0745,南京市,山西路,,39,27,31,27,32,53,,54,51,19,20,3,4,0.3,0.3
2024-04-14T1200,1154A,118.7752,32.0023,南京市,中华门,,39,29,30,27,28,50,,51,49,12,15,7,6,0.5,0.6
2024-04-14T1200,1155A,118.8109,32.0309,南京市,瑞金路,,45,36,35,31,26,51,,49,47,5,8,4,3,0.3,0.3
2024-04-14T1200,1156A,118.7997,32.0754,南京市,玄武湖,,33,33,29,22,26,48,,53,48,17,18,5,6,0.4,0.5
2024-04-14T1200,1157A,118.6414,32.0931,南京市,浦口,,26,26,31,15,17,41,,44,39,19,23,3,4,0.6,0.6
2024-04-14T1200,1158A,118.7356,31.9996,南京市,奥体中心,,38,38,42,22,29,56,,53,51,14,19,6,7,0.4,0.4
2024-04-14T1200,1159A,118.9125,32.1028,南京市,仙林大学城,,36,36,32,22,22,48,,54,50,15,19,8,8,0.5,0.5
2024-04-14T1200,3422A,118.8436,31.9198,南京市,江宁彩虹桥,,45,,29,31,30,56,,55,55,12,16,3,3,0.5,0.5
2024-04-14T1200,3423A,119.0138,31.6494,南京市,溧水永阳,,27,27,27,12,16,64,,55,50,19,17,4,4,0.5,0.4
2024-04-14T1200,3424A,118.879,31.3302,南京市,高淳老职中,,27,16,25,12,17,84,,49,48,13,18,5,7,0.7,0.6
2024-04-14T1200,3427A,118.8554,32.3578,南京市,六合雄州,,38,,34,26,25,53,,52,49,18,24,2,3,0.6,0.7
2024-04-14T1200,1401A,108.3103,22.7881,南宁市,二十一中,,,,37,,24,,,56,,,13,,4,,0.8
2024-04-14T1200,1402A,108.3141,22.8528,南宁市,北湖,颗粒物(PM10),60,69,45,32,27,70,,30,30,16,19,6,5,0.9,0.9
2024-04-14T1200,1403A,108.3206,22.8225,南宁市,市监测站,颗粒物(PM10),58,65,40,31,23,71,,36,36,15,17,7,6,0.8,0.7
2024-04-14T1200,1404A,108.3829,22.8037,南宁市,大自然花园,,45,43,35,31,21,64,,42,42,12,11,6,5,0.6,0.6
2024-04-14T1200,1405A,108.4394,22.7904,南宁市,仙葫,,45,45,49,27,20,74,,32,32,9,15,7,5,0.9,0.9
2024-04-14T1200,1406A,108.2397,22.8467,南宁市,区农职院,颗粒物(PM10),67,84,55,33,25,81,,29,29,15,25,8,6,0.7,0.7
2024-04-14T1200,1407A,108.3275,22.735,南宁市,英华嘉园,,50,50,41,32,23,63,,28,28,18,24,8,6,0.6,0.6
2024-04-14T1200,1408A,108.2257,22.7757,南宁市,沙井镇街道办,颗粒物(PM10),54,57,55,34,26,71,,24,24,14,25,9,5,0.8,0.8
2024-04-14T1200,3401A,108.4834,22.7618,南宁市,红星社区,,36,35,35,25,22,80,,31,31,8,16,9,7,0.7,0.7
2024-04-14T1200,2331A,118.0966,26.6761,南平市,茫荡山,,,,,,,,,,,,,,,,
2024-04-14T1200,2332A,118.1681,26.6369,南平市,南平市监测站,,38,32,30,26,21,76,,57,57,10,11,4,4,0.6,0.6
2024-04-14T1200,2333A,118.1825,26.6489,南平市,南平铝业有限公司,,35,34,30,24,22,78,,63,63,8,9,6,6,0.7,0.8
2024-04-14T1200,2334A,118.1756,26.6272,南平市,南平七中,,44,44,32,25,36,81,,54,54,6,8,3,3,0.8,0.8
2024-04-14T1200,1168A,120.9098,31.9663,南通市,狼山街道,,20,18,9,3,1,62,,74,65,27,12,10,8,0.5,0.4
2024-04-14T1200,1169A,120.86,32.0005,南通市,虹桥,,22,19,15,6,4,70,,71,63,19,9,5,4,0.5,0.3
2024-04-14T1200,1170A,120.87,32.02,南通市,城中,,22,21,18,10,6,68,,70,63,18,8,5,4,0.6,0.5
2024-04-14T1200,1171A,120.94,31.93,南通市,星湖花园,,18,18,7,7,6,54,,65,56,25,14,8,6,0.7,0.5
2024-04-14T1200,1172A,120.81,32.0417,南通市,紫琅学院,,23,14,11,4,4,71,,74,64,23,13,9,7,0.6,0.4
2024-04-14T1200,3291A,121.067,32.062,南通市,通州监测站,,24,17,16,5,4,75,,70,66,8,4,8,8,0.7,0.5
2024-04-14T1200,3432A,120.9348,31.9883,南通市,环境教育馆,,23,19,13,6,4,71,,73,65,20,13,7,6,0.3,0.2
2024-04-14T1200,2404A,112.5224,33.0122,南阳市,瓦房庄,,31,25,42,18,30,98,,80,76,7,12,5,4,0.7,0.7
2024-04-14T1200,2405A,112.5003,32.9735,南阳市,汉画馆,,43,31,53,30,42,100,,77,76,9,16,3,3,0.8,0.8
2024-04-14T1200,2406A,112.5573,33.027,南阳市,气象站,,30,,37,19,34,94,,79,73,9,14,6,6,0.6,0.6
2024-04-14T1200,2407A,112.5481,32.9689,南阳市,理工学院,,35,28,45,24,37,100,,77,76,11,14,4,4,0.8,0.8
2024-04-14T1200,4008A,112.5234,32.9922,南阳市,卧龙区政府,,33,,41,23,33,92,,75,69,10,17,5,5,1.0,1
2024-04-14T1200,1234A,121.8358,29.911,宁波市,区环保大楼,,25,6,16,3,8,77,,44,32,8,27,7,7,0.8,0.7
2024-04-14T1200,1235A,121.56,29.82,宁波市,万里学院,,26,8,16,3,9,82,,71,71,7,15,7,7,0.7,0.6
2024-04-14T1200,1236A,121.713,29.9572,宁波市,龙赛医院,,27,11,19,6,7,84,,40,40,14,29,8,8,0.7,0.7
2024-04-14T1200,1239A,121.633,29.7733,宁波市,钱湖水厂,,28,,13,3,10,87,,65,65,4,17,8,8,0.7,0.7
2024-04-14T1200,1240A,121.5856,29.8635,宁波市,太古小学,,25,5,13,3,8,80,,53,53,11,22,8,8,0.8,0.8
2024-04-14T1200,1241A,121.524,29.8674,宁波市,市环境监测中心,,26,8,15,2,7,81,,72,72,17,23,7,7,0.7,0.6
2024-04-14T1200,2871A,121.6147,29.9017,宁波市,万里国际学校,,28,13,25,4,9,88,,58,58,10,22,8,9,0.5,0.5
2024-04-14T1200,3710A,121.5594,29.8975,宁波市,白沙活动中心,,24,,17,5,9,74,,54,54,16,23,8,8,0.5,0.5
2024-04-14T1200,2339A,119.5001,26.6946,宁德市,金涵水库,,,,,,,,,,,,,,,,
2024-04-14T1200,2341A,119.5388,26.6612,宁德市,宁德市监测站,,34,34,17,23,16,64,,53,49,16,11,8,6,1.1,0.6
2024-04-14T1200,3209A,119.5231,26.6562,宁德市,宁德一中,,37,37,19,19,19,66,,58,51,21,15,8,7,1.0,0.5
2024-04-14T1200,2618A,98.8601,25.8567,怒江傈僳族自治州,州监测站,细颗粒物(PM2.5),53,45,46,37,35,106,,86,86,4,9,5,6,0.5,0.5
2024-04-14T1200,2619A,98.8546,25.8417,怒江傈僳族自治州,泸水一中,细颗粒物(PM2.5),67,58,55,48,39,91,,62,62,16,22,7,7,0.5,0.5
2024-04-14T1200,1888A,101.6891,26.571,攀枝花市,弄弄坪,"颗粒物(PM10),细颗粒物(PM2.5)",54,57,48,38,30,123,,96,92,38,24,41,27,2.4,1.1
2024-04-14T1200,1889A,101.5769,26.5928,攀枝花市,河门口,颗粒物(PM10),51,51,53,33,32,146,,73,73,15,24,13,10,0.8,0.6
2024-04-14T1200,1890A,101.7169,26.585,攀枝花市,炳草岗,颗粒物(PM10),53,56,55,28,29,137,,55,55,26,35,35,21,1.4,0.7
2024-04-14T1200,1891A,101.7369,26.5008,攀枝花市,仁和,,46,42,39,29,29,147,,96,96,10,14,11,8,0.6,0.6
2024-04-14T1200,2835A,101.7227,26.567,攀枝花市,四十中小,,48,48,43,27,26,148,,76,72,20,25,21,14,1.3,0.9
2024-04-14T1200,1604A,122.0303,41.1489,盘锦市,开发区,,30,28,25,21,24,85,,71,71,13,17,4,5,0.3,0.4
2024-04-14T1200,1605A,122.0485,41.0883,盘锦市,兴隆台,,27,25,27,18,23,84,,69,69,9,14,7,8,0.5,0.5
2024-04-14T1200,1606A,121.8297,41.1028,盘锦市,新生街道,,29,,21,15,21,91,,73,73,12,16,7,7,0.4,0.5
2024-04-14T1200,1832A,113.3257,33.742,平顶山市,新华旅馆,细颗粒物(PM2.5),59,51,71,42,58,77,,54,53,18,21,7,10,0.4,0.5
2024-04-14T1200,1833A,113.2919,33.737,平顶山市,规划设计院,,40,37,78,28,52,70,,46,46,12,15,7,9,0.7,0.8
2024-04-14T1200,1834A,113.182,33.774,平顶山市,平顶山工学院,,25,24,78,17,42,78,,58,50,8,11,5,6,0.7,0.7
2024-04-14T1200,3204A,113.3025,33.73,平顶山市,规划局,细颗粒物(PM2.5),55,44,66,39,48,75,,54,53,12,14,8,11,0.9,1
2024-04-14T1200,3594A,112.8867,33.9116,平顶山市,石龙区,,30,25,53,16,43,96,,55,54,6,11,8,8,0.5,0.6
2024-04-14T1200,2656A,106.6692,35.5461,平凉市,聚贤嘉苑,颗粒物(PM10),65,79,72,30,28,68,,30,30,31,40,17,10,0.5,0.4
2024-04-14T1200,2657A,106.7021,35.5307,平凉市,博物馆,颗粒物(PM10),72,93,78,31,31,70,,33,33,28,33,19,16,0.5,0.5
2024-04-14T1200,2347A,114.0997,27.5002,萍乡市,武功山,,28,28,37,15,15,39,,18,18,8,11,14,14,0.5,0.5
2024-04-14T1200,2348A,113.8385,27.6434,萍乡市,中医院,,44,44,62,30,45,45,,25,21,28,19,9,15,1.0,1.1
2024-04-14T1200,2349A,113.8493,27.6253,萍乡市,市政府车库,细颗粒物(PM2.5),53,,50,37,36,48,,23,22,27,21,13,16,1.2,1.8
2024-04-14T1200,2350A,113.8676,27.6435,萍乡市,市环保局,,42,42,50,26,35,50,,22,22,18,16,9,15,0.8,1
2024-04-14T1200,2351A,113.866,27.6198,萍乡市,安源区政府,,44,44,51,19,31,45,,20,19,22,16,12,12,1.0,1
2024-04-14T1200,2319A,119.0141,25.4325,莆田市,荔城区仓后路,细颗粒物(PM2.5),85,84,52,63,34,82,,44,44,22,25,5,6,0.9,0.9
2024-04-14T1200,2320A,119.0015,25.4553,莆田市,莆田市监测站,细颗粒物(PM2.5),70,75,61,51,35,83,,44,44,23,24,7,7,0.9,1
2024-04-14T1200,2321A,119.1119,25.4561,莆田市,涵江区六中,细颗粒物(PM2.5),79,,43,58,30,93,,50,50,18,25,6,7,1.0,1
2024-04-14T1200,2322A,119.1013,25.3215,莆田市,秀屿区政府,细颗粒物(PM2.5),68,54,35,49,30,123,,58,58,17,15,14,11,0.9,0.9
2024-04-14T1200,2323A,118.981,25.4792,莆田市,东圳水库,,,,,,,,,,,,,,,,
2024-04-14T1200,2392A,115.0312,35.7636,濮阳市,环保局,,39,,41,27,35,50,,51,51,12,11,7,8,0.4,0.4
2024-04-14T1200,2394A,115.0574,35.7609,濮阳市,油田运输公司,,33,33,58,23,36,52,,54,54,13,12,9,10,0.7,0.7
2024-04-14T1200,2395A,115.0866,35.7754,濮阳市,油田物探公司,细颗粒物(PM2.5),52,,60,36,41,50,,54,53,12,9,6,7,0.5,0.5
2024-04-14T1200,3021A,115,35.7668,濮阳市,濮水河管理处,,40,,40,28,34,47,,51,48,7,6,6,7,0.2,0.5
2024-04-14T1200,2601A,100.98,22.7633,普洱市,市环保局,细颗粒物(PM2.5),74,82,97,54,65,149,,96,96,10,13,9,10,0.5,0.6
2024-04-14T1200,2602A,100.9817,22.8322,普洱市,普洱第二中学,颗粒物(PM10),56,61,78,39,49,154,,78,78,10,26,12,12,0.5,0.7
2024-04-14T1200,2262A,131.0518,45.8751,七台河市,新一中,,47,43,75,22,46,148,,97,97,8,15,10,12,0.7,0.8
2024-04-14T1200,3345A,131.0577,45.7879,七台河市,中波台,,49,49,57,24,34,144,,83,83,12,18,6,7,0.5,0.6
2024-04-14T1200,3637A,131.0176,45.7761,七台河市,人民广场,颗粒物(PM10),54,58,78,25,42,130,,78,78,13,24,10,10,0.5,0.6
2024-04-14T1200,3684A,130.8781,45.8222,七台河市,新建矿广场,颗粒物(PM10),53,56,88,15,44,133,,77,77,13,27,16,26,0.6,0.9
2024-04-14T1200,1779A,123.9305,47.3636,齐齐哈尔市,安居小区,颗粒物(PM10),132,213,107,42,54,97,,90,90,20,16,1,6,0.8,0.7
2024-04-14T1200,1780A,123.9488,47.3386,齐齐哈尔市,中心广场,颗粒物(PM10),141,231,117,30,31,100,,88,88,22,18,8,8,0.5,0.5
2024-04-14T1200,1781A,123.9483,47.3227,齐齐哈尔市,农牧车辆厂,颗粒物(PM10),144,237,110,32,37,108,,94,94,16,15,8,10,0.5,0.5
2024-04-14T1200,1783A,123.945,47.2988,齐齐哈尔市,市环境监测站,颗粒物(PM10),149,247,105,34,43,110,,95,95,16,15,5,6,0.4,0.4
2024-04-14T1200,3662A,123.6333,47.2075,齐齐哈尔市,富区青少年活动中心,颗粒物(PM10),170,289,123,26,33,111,,89,89,12,14,8,8,0.6,0.6
2024-04-14T1200,2591A,107.9783,26.5747,黔东南苗族侗族自治州,市环境监测站,细颗粒物(PM2.5),58,55,50,41,41,90,,52,47,10,10,3,3,0.6,0.6
2024-04-14T1200,2881A,107.8908,26.5311,黔东南苗族侗族自治州,凯里学院,细颗粒物(PM2.5),53,46,57,37,35,99,,76,63,4,5,2,2,0.4,0.4
2024-04-14T1200,2593A,107.5228,26.2403,黔南布依族苗族自治州,小围寨,,42,41,41,29,34,104,,80,80,5,5,6,5,0.6,0.4
2024-04-14T1200,3538A,107.5175,26.2978,黔南布依族苗族自治州,沙坝,细颗粒物(PM2.5),52,46,47,36,34,103,,73,73,5,5,4,4,0.5,0.6
2024-04-14T1200,2589A,104.9022,25.0925,黔西南布依族苗族自治州,场坝街,,,,55,,33,,,122,,,6,,2,,0.5
2024-04-14T1200,2590A,104.8811,25.0992,黔西南布依族苗族自治州,坪东大道,,45,31,48,28,34,141,,110,110,6,9,5,3,0.4,0.5
2024-04-14T1200,2502A,108.6236,21.9667,钦州市,市环保站,颗粒物(PM10),51,51,42,17,20,71,,48,48,11,20,7,8,0.8,0.8
2024-04-14T1200,2503A,108.6549,21.9481,钦州市,沙埠小学,,50,50,42,24,23,78,,50,50,6,19,5,7,0.8,1
2024-04-14T1200,2504A,108.5989,21.7431,钦州市,港区一小,颗粒物(PM10),54,58,55,22,22,68,,49,49,12,18,9,7,0.8,0.8
2024-04-14T1200,3404A,108.5959,21.9633,钦州市,北职校,,33,24,43,23,24,68,,45,45,6,18,4,6,0.7,0.8
2024-04-14T1200,1042A,119.5134,39.8207,秦皇岛市,北戴河环保局,,41,41,37,19,19,43,,43,39,39,27,7,6,0.3,0.3
2024-04-14T1200,1043A,119.7493,40.0116,秦皇岛市,第一关,,50,41,44,35,43,61,,54,54,22,22,8,6,0.2,0.3
2024-04-14T1200,1044A,119.5897,39.9499,秦皇岛市,监测站,,49,46,54,34,40,59,,47,47,31,31,6,6,0.3,0.3
2024-04-14T1200,1046A,119.5251,39.9041,秦皇岛市,建设大厦,,27,27,34,18,26,52,,53,52,33,23,4,3,0.1,0.1
2024-04-14T1200,3132A,119.610547,39.943889,秦皇岛市,文明里,,45,,44,31,36,50,,44,44,35,36,4,4,0.3,0.4
2024-04-14T1200,1307A,120.6659,36.2403,青岛市,仰口,,25,24,18,17,16,74,,60,60,14,13,4,3,0.2,0.2
2024-04-14T1200,1310A,120.4134,36.0658,青岛市,市南区东部子站,,31,31,20,14,12,71,,53,53,15,18,7,6,0.5,0.5
2024-04-14T1200,1311A,120.3664,36.1032,青岛市,四方区子站,,32,31,23,22,16,84,,77,77,18,19,4,4,0.4,0.4
2024-04-14T1200,1312A,120.2994,36.054,青岛市,市南区西部子站,,31,31,14,17,10,79,,58,58,17,22,8,6,0.7,0.6
2024-04-14T1200,1313A,120.4581,36.0858,青岛市,崂山区子站,,25,22,15,9,10,80,,68,68,14,16,8,7,0.4,0.4
2024-04-14T1200,1314A,120.1983,35.9608,青岛市,黄岛区子站,,34,34,18,20,15,71,,55,52,23,24,6,6,0.6,0.6
2024-04-14T1200,1315A,120.3999,36.3083,青岛市,城阳区子站,,29,12,20,10,11,91,,93,93,15,15,7,7,0.4,0.4
2024-04-14T1200,1966A,120.0405,35.8735,青岛市,黄岛区4号,,21,17,15,12,8,65,,65,58,35,23,8,8,0.5,0.5
2024-04-14T1200,3362A,120.5014,36.4034,青岛市,即墨2号,,25,22,21,11,10,80,,68,68,10,11,5,4,0.4,0.4
2024-04-14T1200,3642A,120.3503,36.0736,青岛市,市北区南部,,32,32,19,14,11,86,,71,71,21,22,8,8,0.6,0.5
2024-04-14T1200,3643A,120.3948,36.1805,青岛市,李沧区北部,,28,19,20,14,16,89,,86,85,17,19,8,8,0.4,0.4
2024-04-14T1200,1702A,113.0426,23.691,清远市,环保大楼,,44,44,41,24,25,27,,31,27,24,18,5,5,0.9,0.9
2024-04-14T1200,1703A,113.0208,23.7106,清远市,凤城街办,颗粒物(PM10),51,52,51,31,30,26,,34,32,38,30,5,4,0.6,0.6
2024-04-14T1200,3025A,113.0477,23.6344,清远市,技师学院,,48,48,56,23,27,56,,36,35,21,27,5,5,0.5,0.5
2024-04-14T1200,3318A,112.9903,23.7403,清远市,清新太和,,48,48,61,26,30,45,,40,40,31,29,8,9,0.6,0.6
2024-04-14T1200,3455A,113.076,23.7198,清远市,清城东城,颗粒物(PM10),55,59,48,34,27,39,,41,36,32,25,6,5,0.4,0.5
2024-04-14T1200,2661A,107.6325,35.7357,庆阳市,庆阳五中,颗粒物(PM10),60,69,48,33,29,74,,84,80,13,12,6,4,0.4,0.4
2024-04-14T1200,2662A,107.6364,35.7067,庆阳市,市环保局,颗粒物(PM10),56,61,45,26,22,87,,84,84,10,13,7,7,0.4,0.4
2024-04-14T1200,1916A,103.7897,25.5035,曲靖市,环境监测站,,49,38,48,21,24,154,,118,118,7,10,9,6,0.8,0.6
2024-04-14T1200,1917A,103.8,25.5364,曲靖市,烟厂办公区,,47,45,48,23,26,149,,114,114,6,11,4,8,0.3,0.4
2024-04-14T1200,3376A,103.7947,25.462,曲靖市,南苑二区,,44,39,41,25,20,140,,110,110,9,9,7,7,0.6,0.6
2024-04-14T1200,3377A,103.7444,25.5261,曲靖市,曲靖师范学院,,48,36,49,28,27,152,,120,120,7,11,11,23,0.5,0.6
2024-04-14T1200,1264A,118.8692,28.9398,衢州市,环保大楼,,26,6,42,3,29,81,,65,65,11,19,5,5,0.4,0.5
2024-04-14T1200,1265A,118.8709,28.9666,衢州市,实验学校,,27,6,37,4,29,86,,66,66,10,15,6,5,0.3,0.4
2024-04-14T1200,1266A,118.8621,28.9808,衢州市,衢州学院,,27,5,37,4,30,85,,64,64,9,17,7,7,0.5,0.7
2024-04-14T1200,1611A,118.5819,24.9117,泉州市,涂山街,颗粒物(PM10),61,71,51,42,43,95,,52,52,29,23,7,4,0.8,0.9
2024-04-14T1200,1612A,118.5972,24.8978,泉州市,津头埔,颗粒物(PM10),58,65,49,39,37,97,,51,51,34,26,6,4,0.7,0.7
2024-04-14T1200,1613A,118.6663,24.9424,泉州市,万安,颗粒物(PM10),60,70,52,34,37,107,,59,59,26,18,4,4,0.8,0.8
2024-04-14T1200,1614A,118.6117,24.9604,泉州市,清源山,,,,,,,,,,,,,,,,
2024-04-14T1200,3529A,118.6333,24.9264,泉州市,城华南路,细颗粒物(PM2.5),55,50,45,39,40,102,,48,48,30,26,5,3,0.4,0.5
2024-04-14T1200,2626A,88.8876,29.2718,日喀则市,日喀则监测站,,42,19,44,11,14,132,,102,99,3,6,4,4,0.5,0.4
2024-04-14T1200,3726A,88.8781,29.2426,日喀则市,林业技术推广中心,,42,26,43,12,12,132,,109,109,8,8,6,6,0.6,0.5
2024-04-14T1200,1659A,119.471,35.4209,日照市,监测站,,26,17,19,15,14,81,,76,76,23,22,8,8,0.4,0.5
2024-04-14T1200,1660A,119.523,35.4216,日照市,市政府广场,,27,27,21,16,12,78,,74,73,18,16,6,7,0.5,0.5
2024-04-14T1200,1661A,119.5587,35.4044,日照市,港务局,,27,22,20,14,10,84,,74,74,19,20,4,5,0.5,0.5
2024-04-14T1200,3507A,119.5328,35.4625,日照市,职业技术学院,,24,22,20,14,13,75,,65,65,14,15,7,7,0.6,0.6
2024-04-14T1200,3604A,119.3266,35.1044,日照市,岚山环保分局,,28,17,19,15,16,88,,84,84,9,11,5,8,0.6,0.6
2024-04-14T1200,1835A,111.1922,34.7752,三门峡市,市政府,,42,42,43,15,19,106,,89,88,9,13,8,8,0.5,0.7
2024-04-14T1200,1836A,111.1587,34.7942,三门峡市,开发区,,35,24,43,12,20,109,,98,97,8,9,11,9,0.5,0.6
2024-04-14T1200,1838A,111.143,34.7955,三门峡市,风景区,,,,,,,,,,,,,,,,
2024-04-14T1200,3039A,111.1911,34.7829,三门峡市,三门峡市第一小学,,39,39,56,14,22,114,,98,98,8,10,8,8,0.5,0.6
2024-04-14T1200,3598A,111.1,34.7167,三门峡市,富达温泉假日酒店,,34,26,47,13,22,107,,88,88,13,15,10,8,0.5,0.5
2024-04-14T1200,2324A,117.6211,26.2625,三明市,三钢,颗粒物(PM10),56,61,58,32,38,77,,48,48,22,26,18,9,1.3,1.3
2024-04-14T1200,2325A,117.635,26.2714,三明市,三明二中,,43,37,55,30,37,86,,44,44,13,22,9,6,1.0,0.9
2024-04-14T1200,2326A,117.6028,26.2378,三明市,三元区政府,颗粒物(PM10),55,59,64,32,46,83,,52,52,11,27,15,12,0.9,1.6
2024-04-14T1200,2327A,117.7275,26.3108,三明市,洋溪,,,,,,,,,,,,,,,,
2024-04-14T1200,1876A,109.5078,18.2489,三亚市,河东子站,,22,22,29,12,17,61,,45,45,2,6,3,3,0.1,0.2
2024-04-14T1200,1877A,109.4964,18.2681,三亚市,河西子站,,21,21,28,13,18,63,,46,46,3,7,2,2,0.2,0.3
2024-04-14T1200,3540A,109.7348,18.3443,三亚市,君悦子站,,31,31,30,14,16,63,,42,42,8,9,2,2,0.4,0.3
2024-04-14T1200,2624A,91.7608,29.2313,山南市,山南监测站,,37,22,20,12,9,116,,94,86,6,7,6,6,0.3,0.3
2024-04-14T1200,2625A,91.7706,29.2436,山南市,山南人民医院,,35,26,23,18,11,109,,101,91,12,10,8,7,0.3,0.3
2024-04-14T1200,1674A,116.6794,23.3667,汕头市,金平子站,,31,22,29,12,22,98,,84,84,11,12,3,3,0.8,0.7
2024-04-14T1200,1675A,116.7244,23.3633,汕头市,龙湖子站,,31,19,29,13,22,98,,87,87,2,4,5,5,0.8,0.7
2024-04-14T1200,1676A,116.7258,23.2775,汕头市,濠江子站,,33,33,27,15,25,90,,82,82,9,8,4,4,0.6,0.6
