timepoint,stationcode,longitude,latitude,area,positionname,primarypollutant,aqi,pm10,pm10_24h,pm2_5,pm2_5_24h,o3,o3_24h,o3_8h,o3_8h_24h,no2,no2_24h,so2,so2_24h,co,co_24h
2024-04-14T1500,2566A,102.1879,31.914,阿坝藏族羌族自治州,州农科所,,14,12,26,5,11,43,,29,29,4,8,3,3,0.4,0.5
2024-04-14T1500,2568A,102.2502,31.8896,阿坝藏族羌族自治州,马师校,,37,12,17,6,14,116,,86,86,3,10,4,4,0.3,0.3
2024-04-14T1500,3994A,102.2165,31.9024,阿坝藏族羌族自治州,马尔康中学西区,,36,9,22,6,16,114,,90,90,6,8,4,4,0.2,0.2
2024-04-14T1500,2695A,80.292,41.1694,阿克苏地区,电视台,颗粒物(PM10),500,1187,881,277,214,84,,83,65,7,15,4,6,0.7,0.7
2024-04-14T1500,2696A,80.2613,41.1551,阿克苏地区,艺术中心,颗粒物(PM10),500,1106,772,293,217,83,,87,52,7,20,5,5,0.8,0.9
2024-04-14T1500,2204A,105.6467,38.8363,阿拉善盟,西城区西花园,颗粒物(PM10),156,261,643,43,137,114,,101,101,4,8,7,7,1.1,0.9
2024-04-14T1500,2205A,105.6985,38.8411,阿拉善盟,蒙二幼,颗粒物(PM10),293,415,777,75,163,112,,93,93,6,9,8,8,0.3,0.4
2024-04-14T1500,2206A,105.724,38.8516,阿拉善盟,环保局新楼,颗粒物(PM10),235,374,631,80,171,112,,103,97,4,6,7,7,0.3,0.2
2024-04-14T1500,2708A,88.1264,47.8517,阿勒泰地区,市站,,36,36,37,18,9,85,,68,68,5,10,5,6,0.1,0.2
2024-04-14T1500,2630A,80.1161,32.5,阿里地区,阿里监测站,,39,34,37,9,11,123,,98,98,7,12,7,10,0.5,0.5
2024-04-14T1500,3192A,80.0903,32.5028,阿里地区,阿里藏医院,,,,12,,5,139,,117,117,,4,9,10,0.7,0.5
2024-04-14T1500,2642A,109.0318,32.6537,安康市,香溪洞,,47,47,30,20,20,105,,66,66,9,9,6,5,0.5,0.6
2024-04-14T1500,2643A,109.0281,32.6939,安康市,安康市监测站,,33,27,41,20,26,104,,64,64,6,11,9,10,0.4,0.5
2024-04-14T1500,2644A,109.0072,32.6975,安康市,汉滨区检察院,,33,27,47,17,27,103,,57,57,5,9,10,10,0.5,0.6
2024-04-14T1500,2291A,117.0809,30.5177,安庆市,环科院,,31,31,38,16,28,50,,56,49,28,21,6,6,0.8,0.9
2024-04-14T1500,2292A,117.0331,30.5119,安庆市,马山宾馆,,28,24,42,19,31,58,,60,51,24,21,6,7,0.9,1
2024-04-14T1500,2294A,116.9896,30.6145,安庆市,安庆大学,,28,28,49,15,33,71,,56,55,22,23,9,7,0.5,0.6
2024-04-14T1500,3173A,117.0598,30.5351,安庆市,市人大,,25,25,39,17,31,64,,60,55,14,20,9,7,0.8,0.9
2024-04-14T1500,3122A,105.9606,26.2611,安顺市,伍家关,,,,,,,,,,,,,,,,
2024-04-14T1500,3123A,105.9408,26.2431,安顺市,凤凰山,细颗粒物(PM2.5),57,50,56,40,41,143,,112,112,7,11,10,10,0.9,1
2024-04-14T1500,3124A,105.9439,26.2564,安顺市,金钟山,,50,50,51,32,45,142,,111,111,5,8,8,7,0.6,0.7
2024-04-14T1500,3125A,105.8983,26.2481,安顺市,娄家坡,细颗粒物(PM2.5),60,61,68,43,42,141,,114,114,5,8,8,8,0.5,0.6
2024-04-14T1500,1818A,114.4839,36.0621,安阳市,棉研所,,,,,,,,,,,,,,,,
2024-04-14T1500,1819A,114.3551,36.1017,安阳市,红庙街,,24,16,47,16,32,76,,60,53,6,7,3,4,0.7,0.5
2024-04-14T1500,1820A,114.361,36.0681,安阳市,银杏小区,,24,16,42,15,27,76,,58,51,2,3,6,6,0.5,0.5
2024-04-14T1500,3141A,114.3922,36.0878,安阳市,信访局,,26,,44,15,27,83,,56,55,1,5,3,2,0.4,0.4
2024-04-14T1500,3669A,114.4705,36.0637,安阳市,左辅环卫站,,30,25,57,21,34,69,,44,44,5,11,4,5,0.1,0.1
2024-04-14T1500,3703A,114.2917,36.0949,安阳市,安钢职工学校,,43,31,51,30,37,70,,58,51,12,10,4,4,0.6,0.1
2024-04-14T1500,1748A,123.044,41.1196,鞍山市,深沟寺,,32,26,25,15,14,101,,96,96,15,10,9,7,0.5,0.4
2024-04-14T1500,1749A,123.011,41.0931,鞍山市,太阳城,,34,32,28,16,13,107,,98,98,12,10,9,8,0.5,0.5
2024-04-14T1500,1750A,123.0485,41.1442,鞍山市,太平,,46,46,29,30,17,92,,93,93,30,13,15,5,1.1,0.5
2024-04-14T1500,1751A,122.9642,41.0971,鞍山市,铁西三道街,,46,46,35,30,18,105,,100,100,23,16,6,4,0.6,0.5
2024-04-14T1500,1752A,122.9341,41.0833,鞍山市,铁西工业园区,颗粒物(PM10),51,51,40,32,22,108,,99,99,15,15,10,8,0.6,0.6
2024-04-14T1500,1753A,123.022,41.0821,鞍山市,明达新区,,,,26,,14,,,92,92,11,10,,9,,0.5
2024-04-14T1500,1754A,123.1289,41.0228,鞍山市,千山,,,,,,,,,,,,,,,,
2024-04-14T1500,2195A,107.4212,40.761,巴彦淖尔市,附二中,颗粒物(PM10),159,267,756,45,154,95,,103,93,3,9,2,2,0.3,0.3
2024-04-14T1500,2196A,107.37,40.7372,巴彦淖尔市,市环保大楼,颗粒物(PM10),179,308,770,55,144,96,,96,95,4,9,4,3,0.3,0.3
2024-04-14T1500,1956A,86.1472,41.7538,巴音郭楞蒙古自治州,孔雀公园,颗粒物(PM10),475,575,852,117,186,91,,78,78,9,26,7,7,0.2,0.4
2024-04-14T1500,1957A,86.1972,41.7166,巴音郭楞蒙古自治州,棉纺厂,颗粒物(PM10),500,614,997,106,203,94,,80,80,3,20,2,4,0.2,0.3
2024-04-14T1500,1958A,86.2357,41.7173,巴音郭楞蒙古自治州,经济开发区,颗粒物(PM10),349,459,870,106,186,99,,87,87,3,12,6,6,0.2,0.2
2024-04-14T1500,2914A,106.7677,31.8794,巴中市,苏山坪,,38,21,27,12,20,121,,76,76,6,8,4,4,0.3,0.4
2024-04-14T1500,3182A,106.7656,31.8545,巴中市,丽阳花园,,38,20,31,13,21,120,,72,72,9,18,4,4,0.4,0.6
2024-04-14T1500,3183A,106.7418,31.8654,巴中市,圣泉水务公司,,39,24,26,15,19,123,,71,71,8,15,4,4,0.3,0.5
2024-04-14T1500,3616A,106.7616,31.8344,巴中市,市中心医院,,39,24,35,13,22,122,,70,70,6,17,6,5,0.3,0.5
2024-04-14T1500,2235A,122.7911,45.6077,白城市,洮北区环保局,颗粒物(PM10),178,305,136,24,34,118,,103,103,6,7,6,6,0.1,0.2
2024-04-14T1500,2236A,122.8738,45.5725,白城市,市环保局,颗粒物(PM10),176,302,132,40,43,96,,84,84,13,14,4,6,0.4,0.4
2024-04-14T1500,2231A,126.4219,41.9171,白山市,喜丰,,42,24,56,7,20,132,,105,105,4,24,11,12,0.8,0.9
2024-04-14T1500,2232A,126.4077,41.9419,白山市,环保局,,42,28,57,13,22,134,,101,101,5,18,8,10,0.6,0.7
2024-04-14T1500,2647A,104.1724,36.5446,白银市,第三小学,颗粒物(PM10),500,654,744,176,171,105,,85,85,6,21,27,80,0.4,0.6
2024-04-14T1500,2648A,104.1465,36.5482,白银市,动力公司,颗粒物(PM10),500,662,696,180,162,102,,87,87,6,16,17,59,0.4,0.6
2024-04-14T1500,2512A,106.6103,23.9011,百色市,市监测站,细颗粒物(PM2.5),67,79,68,48,42,156,,95,95,12,15,16,14,0.8,0.7
2024-04-14T1500,2513A,106.6538,23.8859,百色市,市中心血站,细颗粒物(PM2.5),69,81,82,50,53,140,,86,86,10,19,14,16,0.8,0.9
2024-04-14T1500,3406A,106.6085,23.8798,百色市,祈福高中,"颗粒物(PM10),细颗粒物(PM2.5)",77,104,77,56,51,158,,87,87,16,20,18,17,0.6,0.9
2024-04-14T1500,2270A,117.396,32.939,蚌埠市,工人疗养院,颗粒物(PM10),76,102,65,48,36,55,,56,56,23,19,6,6,0.6,0.6
2024-04-14T1500,2271A,117.3605,32.9427,蚌埠市,百货大楼,细颗粒物(PM2.5),77,93,63,56,38,63,,56,56,21,21,3,4,0.6,0.6
2024-04-14T1500,2273A,117.4185,32.8911,蚌埠市,蚌埠学院,细颗粒物(PM2.5),74,68,41,54,36,65,,58,58,16,14,3,3,0.6,0.6
2024-04-14T1500,2274A,117.3533,32.9673,蚌埠市,淮上区政府,细颗粒物(PM2.5),70,78,51,51,40,61,,55,55,11,11,5,5,0.5,0.5
2024-04-14T1500,2275A,117.3145,32.8977,蚌埠市,高新区,细颗粒物(PM2.5),78,63,42,57,38,76,,63,63,17,14,4,4,0.5,0.4
2024-04-14T1500,3715A,117.3092,32.9314,蚌埠市,蚌埠田家炳中学,细颗粒物(PM2.5),85,95,64,63,42,67,,59,59,18,19,4,6,0.5,0.5
2024-04-14T1500,1585A,109.8756,40.6532,包头市,市环境监测站,颗粒物(PM10),295,416,493,70,114,104,,92,92,6,32,8,17,0.4,0.8
2024-04-14T1500,1587A,109.9991,40.5842,包头市,包头八中,颗粒物(PM10),280,406,416,80,117,110,,89,89,7,26,8,17,0.5,0.7
2024-04-14T1500,1588A,109.8538,40.6821,包头市,青山宾馆,颗粒物(PM10),218,362,437,67,118,104,,80,80,4,30,9,19,0.5,0.9
2024-04-14T1500,1589A,109.8642,40.6288,包头市,惠龙物流,颗粒物(PM10),256,389,522,85,121,109,,107,107,7,29,8,20,0.4,0.9
2024-04-14T1500,1590A,110.0377,40.5546,包头市,东河鸿龙湾,颗粒物(PM10),260,392,378,68,87,100,,81,81,9,21,7,13,0.4,0.6
2024-04-14T1500,3283A,109.9154,40.5685,包头市,滨河大厦,颗粒物(PM10),178,306,410,73,94,104,,86,86,6,26,9,16,0.5,0.7
2024-04-14T1500,3419A,109.9447,40.6261,包头市,包头市委党校,颗粒物(PM10),245,381,455,74,104,100,,90,90,11,31,10,22,0.3,0.6
2024-04-14T1500,3683A,109.8331,40.6576,包头市,昆区政府,颗粒物(PM10),239,377,494,77,146,106,,83,83,7,36,9,26,0.4,1.2
2024-04-14T1500,1930A,107.185,34.3063,宝鸡市,庙沟村,颗粒物(PM10),51,51,46,22,15,100,,57,57,8,15,9,8,0.6,0.5
2024-04-14T1500,1931A,107.0708,34.3017,宝鸡市,竹园沟,颗粒物(PM10),56,61,31,19,14,118,,66,66,9,12,4,4,0.7,0.7
2024-04-14T1500,1932A,107.1906,34.3672,宝鸡市,三陆医院,颗粒物(PM10),57,64,52,24,24,113,,57,57,13,24,6,6,0.6,0.6
2024-04-14T1500,1933A,107.1431,34.3547,宝鸡市,监测站,,,,48,25,24,113,,62,62,13,17,7,7,0.7,0.7
2024-04-14T1500,1934A,107.1186,34.3739,宝鸡市,技工学校,颗粒物(PM10),58,65,42,24,21,115,,63,63,14,16,6,6,0.5,0.5
2024-04-14T1500,1935A,107.3906,34.3528,宝鸡市,陈仓区环保局家属楼,颗粒物(PM10),51,52,47,18,28,115,,64,64,12,19,7,13,0.5,0.6
2024-04-14T1500,1936A,107.2058,34.3497,宝鸡市,文理学院,颗粒物(PM10),55,60,60,25,25,119,,64,64,12,20,6,5,0.4,0.4
2024-04-14T1500,1937A,107.2386,34.3622,宝鸡市,三迪小学,颗粒物(PM10),54,58,56,24,26,112,,59,59,15,23,7,7,0.6,0.6
2024-04-14T1500,1051A,115.493,38.8632,保定市,游泳馆,颗粒物(PM10),59,68,76,38,41,78,,55,55,18,14,1,2,0,0
2024-04-14T1500,1052A,115.5213,38.8959,保定市,华电二区,,46,37,50,32,34,74,,54,54,8,9,2,3,0.5,0.5
2024-04-14T1500,1053A,115.4713,38.9108,保定市,接待中心,颗粒物(PM10),54,58,60,29,25,65,,54,50,9,7,3,2,0.3,0.3
2024-04-14T1500,1054A,115.4612,38.8416,保定市,地表水厂,颗粒物(PM10),60,69,75,40,41,69,,52,52,13,14,1,2,0.4,0.4
2024-04-14T1500,3581A,115.31981,38.95208,保定市,满城区生态环境分局,颗粒物(PM10),51,51,67,34,40,73,,57,48,2,7,3,3,0.3,0.3
2024-04-14T1500,3582A,115.47694,38.76408,保定市,清苑区第二中学,细颗粒物(PM2.5),60,66,73,43,36,87,,57,57,13,17,6,6,0.3,0.3
2024-04-14T1500,3583A,115.62909,39.02311,保定市,徐水物探局,细颗粒物(PM2.5),58,56,69,41,40,81,,56,56,7,9,4,4,0.1,0.1
2024-04-14T1500,4004A,115.4202,38.8656,保定市,双鹰农机,颗粒物(PM10),52,54,60,35,37,73,,57,54,13,11,2,2,0.3,0.3
2024-04-14T1500,4034A,115.5150,38.8590,保定市,植保所站,细颗粒物(PM2.5),67,59,65,48,40,80,,57,57,13,18,3,2,0.3,0.3
2024-04-14T1500,2594A,99.1678,25.1081,保山市,市环境监测站,,46,37,40,19,24,146,,114,114,6,11,7,7,0.3,0.4
2024-04-14T1500,2595A,99.1711,25.1328,保山市,市环保局,,47,47,41,17,25,145,,121,121,4,6,6,6,0.4,0.5
2024-04-14T1500,1866A,109.2262,21.588,北海市,牛尾岭水库,,,,,,,,,,,,,,,,
2024-04-14T1500,1867A,109.1436,21.4086,北海市,海滩公园,,35,35,38,22,17,97,,66,66,6,9,7,7,0.7,0.7
2024-04-14T1500,1868A,109.0981,21.4661,北海市,新市环保局,,42,42,36,24,19,93,,72,72,8,9,7,6,0.7,0.7
2024-04-14T1500,1869A,109.1778,21.5233,北海市,北海工业园,,41,41,45,24,25,92,,64,64,5,9,7,7,0.5,0.4
2024-04-14T1500,3400A,109.1911,21.4415,北海市,龙潭自来水厂,,38,36,36,26,26,94,,63,63,5,8,4,4,0.6,0.6
2024-04-14T1500,1001A,116.3621,39.8784,北京市,万寿西宫,,,67,75,44,45,55,,55,55,22,26,1,2,,0.6
2024-04-14T1500,1002A,116.2202,40.2915,北京市,定陵,,,,,,,,,,,,,,,,
2024-04-14T1500,1003A,116.4174,39.9289,北京市,东四,细颗粒物(PM2.5),74,85,87,54,44,38,,34,31,33,29,3,3,0.9,0.8
2024-04-14T1500,1004A,116.4072,39.8863,北京市,天坛,细颗粒物(PM2.5),78,66,83,57,48,44,,44,44,32,29,2,2,0.7,0.6
2024-04-14T1500,1005A,116.462,39.9365,北京市,农展馆,细颗粒物(PM2.5),70,84,75,51,43,37,,29,29,35,32,2,3,0.7,0.6
2024-04-14T1500,1006A,116.3392,39.9295,北京市,官园,颗粒物(PM10),61,71,75,42,43,58,,58,58,25,24,2,2,0.6,0.6
2024-04-14T1500,1007A,116.2878,39.9611,北京市,海淀万柳,颗粒物(PM10),58,65,83,37,46,75,,67,67,21,22,4,4,0.6,0.6
2024-04-14T1500,1008A,116.6636,40.135,北京市,顺义新城,细颗粒物(PM2.5),75,78,71,55,41,46,,42,37,24,19,2,2,0.7,0.6
2024-04-14T1500,1009A,116.6275,40.3275,北京市,怀柔镇,细颗粒物(PM2.5),84,84,65,62,44,44,,49,36,22,19,1,2,0.5,0.4
2024-04-14T1500,1010A,116.2296,40.217,北京市,昌平镇,颗粒物(PM10),69,87,79,46,40,33,,45,28,31,26,3,2,0.6,0.6
2024-04-14T1500,1011A,116.3966,39.9821,北京市,奥体中心,细颗粒物(PM2.5),65,77,69,47,40,37,,31,27,34,33,2,2,0.5,0.6
2024-04-14T1500,1012A,116.184,39.9136,北京市,古城,细颗粒物(PM2.5),57,61,86,40,50,87,,64,64,15,24,3,2,0.7,0.8
2024-04-14T1500,3281A,115.9718,40.4529,北京市,延庆夏都,,50,46,68,35,46,67,,74,52,14,13,3,3,0.5,0.5
2024-04-14T1500,3417A,117.0709,40.1465,北京市,平谷新城,细颗粒物(PM2.5),60,68,80,43,50,56,,51,38,21,20,3,2,0.7,0.7
2024-04-14T1500,3418A,116.8336,40.4095,北京市,密云新城,细颗粒物(PM2.5),65,74,66,47,39,66,,61,56,14,12,1,2,0.6,0.6
2024-04-14T1500,3671A,116.088,39.9726,北京市,门头沟三家店,,,,,,,,,,,,,,,,
2024-04-14T1500,3672A,116.1541,39.8204,北京市,丰台云岗,细颗粒物(PM2.5),53,44,71,37,51,85,,61,61,12,20,3,4,0.6,0.8
2024-04-14T1500,3673A,116.6804,39.9081,北京市,通州东关,细颗粒物(PM2.5),67,75,70,48,40,40,,32,32,22,18,2,3,0.7,0.6
2024-04-14T1500,3674A,115.9577,39.7603,北京市,房山燕山,细颗粒物(PM2.5),57,58,64,40,43,73,,71,61,17,15,3,3,0.5,0.5
2024-04-14T1500,3675A,116.4672,39.7733,北京市,大兴旧宫,细颗粒物(PM2.5),59,63,65,42,39,40,,52,52,31,23,3,3,0.7,0.6
2024-04-14T1500,3694A,115.986,40.4563,北京市,延庆石河营,细颗粒物(PM2.5),53,41,62,37,48,66,,78,54,16,13,3,3,0.5,0.5
2024-04-14T1500,3695A,116.6151,40.3053,北京市,怀柔新城,细颗粒物(PM2.5),80,85,64,59,42,47,,45,36,23,21,3,2,0.8,0.7
2024-04-14T1500,3696A,116.2545,39.8768,北京市,丰台小屯,,48,48,76,32,46,86,,60,60,8,20,3,3,0.4,0.5
2024-04-14T1500,3697A,116.84,40.3844,北京市,密云镇,细颗粒物(PM2.5),67,69,64,48,39,62,,58,51,11,9,3,3,0.6,0.6
2024-04-14T1500,1761A,123.8275,41.3064,本溪市,大峪,,36,20,23,11,11,115,,111,111,3,5,9,8,0.4,0.4
2024-04-14T1500,1762A,123.7567,41.3325,本溪市,溪湖,,34,21,29,6,14,107,,99,99,9,13,14,13,0.7,0.7
2024-04-14T1500,1763A,123.7169,41.3094,本溪市,彩屯,,31,14,43,9,21,99,,82,82,15,34,12,29,0.9,2.4
2024-04-14T1500,1764A,123.7669,41.2864,本溪市,东明,,33,26,26,9,12,104,,96,96,7,8,6,6,0.5,0.5
2024-04-14T1500,1765A,123.7992,41.2664,本溪市,新立屯,,35,28,22,10,11,109,,102,102,7,8,11,11,0.3,0.3
2024-04-14T1500,1766A,123.8142,41.3472,本溪市,威宁,,32,28,32,8,12,102,,93,93,8,16,8,9,0.6,0.6
2024-04-14T1500,2587A,105.2864,27.3125,毕节市,八中,,49,36,52,26,42,154,,138,138,10,10,9,7,0.5,0.6
2024-04-14T1500,2588A,105.31,27.2944,毕节市,师专,,47,33,52,26,39,148,,138,138,8,10,11,7,0.5,0.5
2024-04-14T1500,3537A,105.3631,27.3533,毕节市,长征村,细颗粒物(PM2.5),69,66,79,50,60,172,,155,155,9,9,9,8,0.5,0.6
2024-04-14T1500,1629A,118.0018,37.3617,滨州市,第二水厂,,39,39,41,27,19,61,,68,66,23,21,6,7,0.8,0.8
2024-04-14T1500,1630A,117.9776,37.393,滨州市,北中新校,,46,46,49,27,17,54,,63,62,27,23,10,11,0.7,0.8
2024-04-14T1500,3514A,117.9378,37.3956,滨州市,中海酒店,,45,36,45,31,22,59,,71,69,20,16,10,11,0.6,0.6
2024-04-14T1500,3515A,117.9378,37.3553,滨州市,开发区一中,,39,36,44,27,20,58,,66,65,29,25,11,10,0.8,0.8
2024-04-14T1500,3516A,118.0917,37.694,滨州市,金海六路,,45,44,38,31,15,74,,77,77,11,11,9,10,0.4,0.5
2024-04-14T1500,4028A,117.9956,37.3753,滨州市,滨州市西街道办事处,,45,34,40,31,23,60,,67,67,21,20,9,10,0.6,0.7
2024-04-14T1500,2311A,115.8072,33.8399,亳州市,污水处理厂,细颗粒物(PM2.5),60,51,38,43,27,56,,56,56,10,9,8,9,0.6,0.5
2024-04-14T1500,2312A,115.7789,33.8518,亳州市,三国揽胜宫,,45,40,31,31,22,53,,54,51,11,10,6,6,0.6,0.5
2024-04-14T1500,3332A,115.7633,33.8034,亳州市,亳州学院,颗粒物(PM10),61,71,49,41,25,58,,56,54,10,9,8,8,0.6,0.5
2024-04-14T1500,2693A,82.0485,44.8556,博尔塔拉蒙古自治州,市党校,颗粒物(PM10),333,446,375,80,76,93,,62,62,5,8,8,8,0.3,0.3
2024-04-14T1500,2694A,82.0806,44.8969,博尔塔拉蒙古自治州,市环保局,颗粒物(PM10),236,375,394,56,59,84,,52,52,7,15,7,8,0.5,0.4
2024-04-14T1500,1071A,116.8842,38.2991,沧州市,沧县城建局,,46,46,60,27,29,66,,61,61,22,22,3,2,0.5,0.6
2024-04-14T1500,1072A,116.8584,38.3254,沧州市,电视转播站,颗粒物(PM10),51,52,62,29,35,70,,63,63,20,16,8,7,0.3,0.3
2024-04-14T1500,1073A,116.8709,38.3228,沧州市,市环保局,,40,38,46,28,37,76,,68,68,21,20,4,3,0.3,0.4
2024-04-14T1500,3324A,116.8136,38.3004,沧州市,河北水利电力学院,,44,44,59,21,33,77,,65,65,16,20,8,8,0.3,0.3
2024-04-14T1500,2622A,97.1806,31.1273,昌都市,昌都监测站,,41,13,14,6,9,131,,100,100,3,11,8,7,0.3,0.3
2024-04-14T1500,3719A,97.1714,31.1406,昌都市,昌都会议中心,,40,9,13,2,8,127,,98,98,3,7,7,8,0.3,0.3
2024-04-14T1500,2690A,88.1236,43.8886,昌吉回族自治州,天山天池,,39,31,45,27,19,93,,76,76,5,6,3,3,0.5,0.5
2024-04-14T1500,2692A,87.2717,44.0297,昌吉回族自治州,新区政务中心,颗粒物(PM10),93,135,190,40,38,112,,64,64,12,24,14,8,0.7,0.6
2024-04-14T1500,3613A,87.3095,44.0142,昌吉回族自治州,亚心广场,颗粒物(PM10),97,144,233,34,32,125,,71,71,13,30,15,7,0.5,0.2
2024-04-14T1500,1119A,125.3325,43.9166,长春市,食品厂,,44,44,64,20,32,131,,111,111,14,19,7,8,0.5,0.6
2024-04-14T1500,1120A,125.2863,43.9027,长春市,客车厂,细颗粒物(PM2.5),55,56,73,39,44,132,,107,107,12,15,5,6,0.4,0.5
2024-04-14T1500,1121A,125.2841,43.8463,长春市,邮电学院,颗粒物(PM10),51,52,63,31,30,131,,111,111,10,15,7,9,0.5,0.5
2024-04-14T1500,1122A,125.3716,43.8772,长春市,劳动公园,,45,45,67,15,27,132,,116,116,8,14,5,6,0.4,0.5
2024-04-14T1500,1123A,125.3297,43.8805,长春市,园林处,,41,34,56,10,24,129,,112,112,11,15,9,10,0.3,0.3
2024-04-14T1500,1124A,125.4605,43.79,长春市,净月潭,,42,42,59,19,34,123,,114,114,7,10,8,9,0.3,0.4
2024-04-14T1500,1125A,125.7194,43.515,长春市,甩湾子,,,,,,,,,,,,,,,,
2024-04-14T1500,1126A,125.3863,43.8447,长春市,经开区环卫处,,46,46,61,13,28,125,,110,110,8,15,5,6,0.2,0.4
2024-04-14T1500,1127A,125.245,43.7783,长春市,高新区管委会,,44,37,56,19,29,140,,117,117,8,16,8,9,0.5,0.5
2024-04-14T1500,1128A,125.1761,43.8325,长春市,岱山公园,颗粒物(PM10),58,65,69,30,35,145,,114,114,10,20,7,7,0.5,0.5
2024-04-14T1500,1335A,113.0833,28.2325,长沙市,经开区环保局,,46,46,30,22,20,101,,56,56,10,20,6,5,0.6,0.7
2024-04-14T1500,1336A,112.8872,28.2189,长沙市,高开区环保局,,35,35,31,21,20,101,,67,67,7,18,6,5,0.9,0.9
2024-04-14T1500,1337A,113.0792,28.2053,长沙市,马坡岭,,43,,33,30,21,94,,66,66,1,14,6,6,0.6,0.6
2024-04-14T1500,1338A,112.9394,28.19,长沙市,湖南师范大学,,42,42,38,29,20,106,,70,70,7,17,4,4,0.8,0.9
2024-04-14T1500,1339A,113.0178,28.1322,长沙市,雨花区环保局,,35,35,34,18,21,84,,64,64,15,22,4,4,1.0,1.1
2024-04-14T1500,1340A,112.9792,28.2597,长沙市,伍家岭,颗粒物(PM10),61,71,41,38,19,104,,48,48,22,22,5,5,1.0,0.9
2024-04-14T1500,1341A,113.0014,28.1944,长沙市,火车新站,,45,45,37,31,22,86,,63,63,24,28,3,3,0.9,0.9
2024-04-14T1500,1342A,112.9844,28.1178,长沙市,天心区环保局,颗粒物(PM10),51,52,37,25,24,83,,55,55,16,26,2,2,0.4,0.5
2024-04-14T1500,1343A,112.8908,28.1308,长沙市,湖南中医药大学,,35,27,37,24,26,98,,66,66,10,21,4,4,0.8,1.1
2024-04-14T1500,1344A,112.9581,28.3611,长沙市,沙坪,,,79,28,,12,102,,55,55,8,10,6,6,1.1,0.6
2024-04-14T1500,1727A,113.1147,36.1547,长治市,清华站,,42,25,37,19,21,132,,82,,12,15,11,9,0.8,0.7
2024-04-14T1500,1728A,113.1031,36.1989,长治市,监测站,,43,30,39,12,25,136,,97,97,13,16,12,12,0.5,0.6
2024-04-14T1500,1730A,113.0886,36.2125,长治市,审计局,,43,36,35,17,26,137,,99,99,8,13,13,12,0.3,0.4
2024-04-14T1500,1731A,113.0844,36.1856,长治市,长治八中,,43,24,48,15,23,136,,98,98,14,22,8,8,0.5,0.6
2024-04-14T1500,2845A,113.1569,36.1911,长治市,德盛苑,,43,27,32,24,22,135,,101,101,20,20,10,9,0.8,0.7
2024-04-14T1500,3568A,113.06,36.0464,长治市,向阳小学,,44,33,52,14,30,139,,103,103,10,15,12,13,0.6,0.7
2024-04-14T1500,3569A,112.8792,36.3144,长治市,屯留一中,,41,26,44,16,28,130,,106,106,8,14,7,8,0.3,0.4
2024-04-14T1500,3570A,113.235,36.3489,长治市,潞城四中,,44,23,40,21,29,139,,101,101,12,17,7,7,0.3,0.5
2024-04-14T1500,1854A,111.6975,28.9703,常德市,市二中,,45,34,34,31,28,103,,65,65,7,13,7,7,0.8,0.8
2024-04-14T1500,1857A,111.7158,29.1456,常德市,白鹤山,颗粒物(PM10),52,53,55,34,32,84,,63,63,4,5,3,4,0.9,0.8
2024-04-14T1500,3138A,111.7153,29.0289,常德市,武陵区永安,,33,27,32,19,25,105,,66,66,7,11,6,6,0.6,0.6
2024-04-14T1500,3139A,111.6892,28.9881,常德市,鼎城区玉霞,,34,30,34,20,24,107,,62,62,11,15,8,8,0.8,0.8
2024-04-14T1500,3140A,111.6625,29.0531,常德市,武陵区长庚,,34,32,35,21,26,106,,63,63,6,10,8,8,0.9,0.8
2024-04-14T1500,1196A,119.9633,31.762,常州市,市监测站,,,52,49,26,19,133,,70,70,19,23,,6,0.6,0.5
2024-04-14T1500,1200A,119.9468,31.7069,常州市,武进监测站,,43,42,45,30,22,129,,72,72,14,21,18,19,0.6,0.6
2024-04-14T1500,1201A,119.9255,31.9087,常州市,安家,,41,41,38,27,19,122,,67,67,24,21,7,6,0.7,0.6
2024-04-14T1500,3002A,119.9805,31.8174,常州市,行政中心,,46,46,38,27,22,136,,70,70,13,19,14,12,0.5,0.4
2024-04-14T1500,3003A,120.0522,31.7748,常州市,经开区,,41,35,44,21,19,130,,70,70,18,23,8,5,0.8,0.4
2024-04-14T1500,3010A,119.9025,31.7964,常州市,钟楼,,49,39,34,34,21,116,,64,64,25,22,6,6,0.8,0.7
2024-04-14T1500,3429A,119.8598,31.7066,常州市,武进经发区,,42,26,31,13,17,133,,74,74,14,22,9,7,0.8,0.7
2024-04-14T1500,3430A,119.5826,31.7245,常州市,金坛城区,,,44,23,31,15,114,,66,66,20,19,,5,0.8,0.6
2024-04-14T1500,2220A,120.4318,41.5881,朝阳市,西梁,,31,26,50,10,32,97,,89,89,14,17,14,16,0.5,0.6
2024-04-14T1500,2221A,120.4521,41.5646,朝阳市,河畔小区,,31,17,49,12,36,99,,91,91,9,11,7,9,0.4,0.6
2024-04-14T1500,2222A,120.4176,41.5648,朝阳市,八里堡,,37,37,52,12,37,95,,87,87,7,12,8,11,0.6,0.7
2024-04-14T1500,2223A,120.3806,41.5969,朝阳市,农业园区,,32,26,50,16,41,102,,95,95,10,14,12,14,0.6,0.8
2024-04-14T1500,1705A,116.6367,23.6719,潮州市,西园路,,36,,54,25,38,115,,78,78,12,14,5,6,0.2,0.3
2024-04-14T1500,3026A,116.6183,23.6608,潮州市,市政府,,45,45,59,19,35,127,,86,86,10,14,6,7,0.8,0.8
2024-04-14T1500,4036A,116.6461,23.6761,潮州市,金山,,38,36,47,16,41,121,,81,81,11,14,7,8,0.7,0.6
2024-04-14T1500,2472A,113.0073,25.9061,郴州市,马头岭,,43,43,48,17,19,70,,85,65,12,12,4,4,0.5,0.5
2024-04-14T1500,2473A,113.0116,25.8226,郴州市,市职中,,49,49,46,30,34,77,,100,78,6,5,7,7,0.7,0.8
2024-04-14T1500,2474A,113.0161,25.8001,郴州市,兴隆步行街,颗粒物(PM10),52,54,51,33,34,75,,101,76,9,8,5,5,0.8,0.8
2024-04-14T1500,2475A,113.0383,25.8071,郴州市,市审计局,,42,40,42,29,32,77,,98,80,6,8,5,4,0.5,0.6
2024-04-14T1500,2476A,113.0348,25.7759,郴州市,市环保局,,45,33,49,31,35,78,,103,81,6,7,4,4,0.6,0.6
2024-04-14T1500,1431A,103.9728,30.7236,成都市,金泉两河,臭氧1小时,101,52,72,20,44,202,,103,103,4,22,2,3,0.7,0.9
2024-04-14T1500,1432A,104.176,30.6872,成都市,十里店,臭氧1小时,82,46,79,31,50,185,,102,102,10,39,1,3,0.5,0.7
2024-04-14T1500,1433A,104.079,30.5706,成都市,三瓦窑,臭氧1小时,80,38,73,29,51,184,,107,107,11,41,1,2,0.4,0.5
2024-04-14T1500,1434A,104.1114,30.63,成都市,沙河铺,臭氧1小时,55,51,73,29,53,164,,94,94,7,31,3,4,0.4,0.6
2024-04-14T1500,1437A,104.0786,30.6531,成都市,君平街,臭氧1小时,102,41,73,18,51,204,,124,124,9,31,5,6,0.3,0.6
2024-04-14T1500,1438A,103.613,31.0283,成都市,灵岩寺,,47,28,36,21,24,148,,106,106,8,13,5,10,0.6,0.6
2024-04-14T1500,2880A,104.0239,30.65639,成都市,大石西路,臭氧1小时,97,35,75,20,51,197,,122,122,11,32,3,4,0.5,0.8
2024-04-14T1500,3136A,104.2725,30.5589,成都市,龙泉驿区区政府,臭氧1小时,64,39,46,24,29,171,,123,123,4,13,2,3,0.4,0.5
2024-04-14T1500,3357A,104.0106,30.6931,成都市,金博路,臭氧1小时,94,34,78,20,49,195,,114,114,4,27,2,3,0.7,0.9
2024-04-14T1500,3359A,104.0578,30.5225,成都市,华阳,臭氧1小时,69,51,67,34,48,175,,114,114,6,28,3,4,0.3,0.6
2024-04-14T1500,3487A,104.2394,30.5319,成都市,车城东七路,臭氧1小时,65,37,68,24,45,172,,120,120,6,23,4,4,0.5,0.6
2024-04-14T1500,3488A,104.3853,30.7453,成都市,青白江技师分院,臭氧1小时,74,36,57,2,36,179,,117,117,8,32,2,5,0.6,0.7
2024-04-14T1500,3489A,104.0789,30.4072,成都市,科学城,臭氧1小时,60,49,75,6,43,168,,114,114,3,21,5,5,0.6,0.7
2024-04-14T1500,4011A,103.8506,30.6947,成都市,光华大道三段,臭氧1小时,88,47,68,28,51,190,,106,106,9,25,1,2,0.6,0.8
2024-04-14T1500,1062A,117.9531,40.9081,承德市,铁路,,47,47,58,25,35,62,,85,52,20,19,7,7,0.8,0.6
2024-04-14T1500,1063A,117.9392,40.9763,承德市,中国银行,,43,43,57,21,31,77,,96,67,20,22,7,8,0.8,0.6
2024-04-14T1500,1064A,117.9503,40.928,承德市,开发区,颗粒物(PM10),54,58,71,33,37,62,,86,57,25,21,6,7,1.0,0.7
2024-04-14T1500,1065A,117.8051,40.9655,承德市,文化中心,细颗粒物(PM2.5),52,47,65,36,35,97,,104,79,14,13,5,6,0.6,0.5
2024-04-14T1500,1066A,117.9268,41.0026,承德市,离宫,,48,48,65,31,40,70,,84,61,16,14,3,3,0.8,0.6
2024-04-14T1500,2314A,117.47,30.6618,池州市,池州学院,,26,22,33,18,26,65,,57,57,16,13,10,5,1.3,0.8
2024-04-14T1500,3237A,117.4918,30.6617,池州市,展览馆,,29,29,34,19,22,62,,53,53,17,13,9,3,1.3,0.7
2024-04-14T1500,3333A,117.5627,30.695,池州市,第八中学,,30,29,35,21,25,66,,59,59,14,11,8,3,1.3,0.8
2024-04-14T1500,3334A,117.5038,30.6243,池州市,第十二中学,,35,27,35,24,30,61,,58,58,12,14,3,4,1.0,1
2024-04-14T1500,1744A,118.9233,42.2816,赤峰市,松山一中,,45,45,58,26,33,118,,123,113,20,20,9,10,0.6,0.7
2024-04-14T1500,1745A,118.9576,42.2728,赤峰市,哈达街,颗粒物(PM10),52,53,65,25,32,111,,113,108,23,22,11,13,0.8,0.8
2024-04-14T1500,1746A,118.8788,42.2554,赤峰市,天义路,,42,42,51,26,29,120,,134,118,19,17,5,7,0.5,0.6
2024-04-14T1500,3058A,119.2658,42.0353,赤峰市,银河街,细颗粒物(PM2.5),117,168,111,88,47,128,,111,111,15,18,10,18,0.6,0.9
2024-04-14T1500,3286A,118.9359,42.3147,赤峰市,桥北物流园区,颗粒物(PM10),52,53,63,25,36,113,,121,111,15,16,7,8,0.6,0.6
2024-04-14T1500,2521A,107.3476,22.4136,崇左市,市环保局江州分局,细颗粒物(PM2.5),54,54,49,38,33,104,,69,69,3,7,8,8,0.7,0.6
2024-04-14T1500,2522A,107.3702,22.3707,崇左市,城南新区,细颗粒物(PM2.5),57,52,43,40,31,102,,73,73,4,6,6,7,0.7,0.6
2024-04-14T1500,2298A,118.3093,32.3153,滁州市,老年大学,,45,41,49,31,34,62,,52,52,19,25,8,10,0.7,0.7
2024-04-14T1500,2299A,118.3244,32.2786,滁州市,人大宾馆,细颗粒物(PM2.5),52,39,35,36,31,72,,55,54,20,23,5,7,0.9,0.8
2024-04-14T1500,3207A,118.3118,32.3038,滁州市,市政府原办公楼,细颗粒物(PM2.5),60,,40,43,40,69,,55,55,23,24,5,7,0.8,0.7
2024-04-14T1500,3331A,118.3267,32.2634,滁州市,图书馆,,46,38,37,32,30,71,,55,53,17,20,8,9,0.9,0.8
2024-04-14T1500,2605A,101.5482,25.0441,楚雄彝族自治州,州环境监测站,,49,34,36,16,26,155,,124,124,4,11,6,7,0.5,0.6
2024-04-14T1500,2606A,101.538,25.0492,楚雄彝族自治州,市经济开发区,,48,,40,18,27,151,,122,122,5,13,4,5,0.4,0.5
2024-04-14T1500,2548A,107.5277,31.2827,达州市,达州职业技术学院,颗粒物(PM10),52,54,45,9,11,118,,68,68,20,24,10,7,1.0,0.8
2024-04-14T1500,2549A,107.5086,31.2186,达州市,市环境监测站,,42,40,40,24,20,132,,72,72,16,32,8,8,0.7,0.7
2024-04-14T1500,2550A,107.4988,31.2132,达州市,凤凰小区,,44,44,41,27,21,130,,74,74,13,32,8,10,0.8,0.9
2024-04-14T1500,2551A,107.5082,31.1986,达州市,达县机关宾馆,,48,48,50,19,25,130,,69,69,17,35,6,7,0.5,0.7
2024-04-14T1500,2552A,107.4644,31.2124,达州市,市政中心,,,46,47,24,23,118,,63,63,18,38,,12,1.0,1
2024-04-14T1500,2614A,100.1542,25.7054,大理白族自治州,大理市环境监测站,颗粒物(PM10),63,75,57,24,21,144,,122,122,8,9,7,7,0.5,0.5
2024-04-14T1500,2615A,100.2171,25.5811,大理白族自治州,大理古城,,45,27,37,12,25,144,,124,124,7,12,6,6,0.6,0.6
2024-04-14T1500,1109A,121.612,38.9741,大连市,甘井子,,29,17,26,10,9,90,,80,80,15,21,5,4,0.6,0.5
2024-04-14T1500,1110A,121.565,38.9511,大连市,周水子,,27,16,21,7,12,85,,69,69,12,22,4,3,0.6,0.5
2024-04-14T1500,1111A,121.5637,38.8845,大连市,星海三站,,30,17,23,7,13,93,,75,75,8,17,3,3,0.4,0.4
2024-04-14T1500,1112A,121.6302,38.9117,大连市,青泥洼桥,,29,13,22,8,13,91,,80,80,11,15,8,8,0.6,0.7
2024-04-14T1500,1113A,121.6251,38.8638,大连市,傅家庄,,31,12,19,7,9,97,,88,88,5,11,7,6,0.4,0.4
2024-04-14T1500,1114A,121.5213,38.8661,大连市,七贤岭,,29,18,26,6,11,90,,76,76,8,17,8,8,0.3,0.3
2024-04-14T1500,1115A,121.2529,38.8061,大连市,旅顺,,,,12,8,9,94,,78,78,9,18,,8,0.5,0.5
2024-04-14T1500,1116A,121.7485,39.1311,大连市,金州,,32,15,19,8,12,102,,90,90,8,11,9,8,0.6,0.6
2024-04-14T1500,1117A,121.7811,39.0496,大连市,开发区,,26,14,19,8,11,81,,72,72,10,17,5,4,0.4,0.4
2024-04-14T1500,1118A,121.9762,39.0631,大连市,双D港,,25,24,9,12,5,79,,75,75,17,14,14,8,0.4,0.4
2024-04-14T1500,1789A,124.81117,46.03138,大庆市,大同区,颗粒物(PM10),185,319,139,32,45,118,,103,103,10,13,7,10,0.4,0.5
2024-04-14T1500,1790A,125.129,46.533,大庆市,龙凤区,颗粒物(PM10),96,141,111,35,55,114,,101,101,17,17,7,12,0.3,0.5
2024-04-14T1500,1791A,124.902,46.408,大庆市,红岗区,颗粒物(PM10),113,175,110,23,42,101,,86,86,10,13,6,9,0.5,0.7
2024-04-14T1500,1792A,125.153,46.586,大庆市,萨尔图区,颗粒物(PM10),106,162,121,28,49,108,,94,94,11,14,8,11,0.3,0.4
2024-04-14T1500,1793A,124.9042,46.6215,大庆市,让胡路区,颗粒物(PM10),114,177,114,28,42,118,,104,104,11,16,9,11,0.4,0.5
2024-04-14T1500,3481A,125.141,46.634,大庆市,萨区政府监测点,颗粒物(PM10),107,163,114,32,43,124,,106,106,10,13,8,11,0.4,0.5
2024-04-14T1500,1721A,113.3819,40.1097,大同市,果树场,,,,,,,,,,,,,,,,
2024-04-14T1500,1723A,113.2994,40.0758,大同市,云冈宾馆,颗粒物(PM10),238,376,126,78,36,122,,94,94,8,16,4,7,0.2,0.5
2024-04-14T1500,1724A,113.3444,40.0917,大同市,大同大学,颗粒物(PM10),169,288,138,90,41,116,,92,92,,15,5,13,0.2,0.6
2024-04-14T1500,1725A,113.2661,40.1269,大同市,安家小村,颗粒物(PM10),202,351,159,85,37,116,,96,96,4,13,12,14,0.3,0.4
2024-04-14T1500,1726A,113.2711,40.0844,大同市,教育学院,颗粒物(PM10),198,345,152,89,38,117,,93,93,12,19,7,11,0.3,0.5
2024-04-14T1500,3282A,113.3397,40.0597,大同市,大同市卫生学校,颗粒物(PM10),200,349,141,68,36,122,,88,88,10,17,6,8,0.3,0.5
2024-04-14T1500,3565A,113.1367,40.1122,大同市,云冈站,颗粒物(PM10),212,358,160,86,44,121,,112,112,4,10,5,8,0.3,0.4
2024-04-14T1500,3566A,113.1186,40.2556,大同市,图书馆,颗粒物(PM10),235,374,143,109,49,120,,109,109,7,12,10,12,0.4,0.5
2024-04-14T1500,3567A,113.5931,40.0461,大同市,区一中,颗粒物(PM10),308,426,146,71,30,116,,95,95,14,16,10,5,0.6,0.6
2024-04-14T1500,3676A,113.2802,40.0995,大同市,第二人民医院,颗粒物(PM10),191,331,153,86,36,120,,95,95,7,15,7,10,0.4,0.6
2024-04-14T1500,2269A,124.1069,50.4097,大兴安岭地区,科技局,,32,26,24,22,17,42,,49,46,12,10,8,12,0.5,0.4
2024-04-14T1500,3663A,124.1164,50.4278,大兴安岭地区,红旗社区,,14,9,9,9,8,43,,65,52,9,5,9,9,0.6,0.5
2024-04-14T1500,1600A,124.3303,40.0625,丹东市,江湾东路,,44,26,35,15,27,138,,82,82,9,17,12,10,0.4,0.7
2024-04-14T1500,1601A,124.4256,40.1503,丹东市,临江后街,,48,25,30,9,19,152,,84,84,6,15,12,12,0.6,0.8
2024-04-14T1500,1602A,124.3933,40.1461,丹东市,元宝山,,43,24,26,13,19,137,,76,76,10,19,10,9,0.2,0.5
2024-04-14T1500,1603A,124.3633,40.1092,丹东市,民主桥,,43,28,29,12,19,137,,76,76,6,15,11,10,0.4,0.6
2024-04-14T1500,3541A,109.5726,19.5167,儋州市,第一中学子站,,31,31,41,17,22,95,,74,74,2,6,5,6,0.5,0.6
2024-04-14T1500,3542A,109.5567,19.5187,儋州市,东坡学校子站,,45,38,41,31,26,100,,72,72,2,7,4,4,0.6,0.7
2024-04-14T1500,2616A,98.5842,24.428,德宏傣族景颇族自治州,德宏州监测站,臭氧1小时,73,60,81,26,52,178,,98,98,14,27,11,10,0.5,0.7
2024-04-14T1500,3677A,98.5881,24.4368,德宏傣族景颇族自治州,芒市人民政府综合楼,臭氧1小时,67,62,70,43,50,173,,101,101,14,19,11,10,0.6,0.8
2024-04-14T1500,1901A,104.4239,31.1208,德阳市,东山公园,臭氧1小时,78,61,63,27,37,182,,108,108,10,22,3,7,0.4,0.6
2024-04-14T1500,1902A,104.3826,31.1317,德阳市,西小区,臭氧1小时,72,60,74,35,46,177,,96,96,14,36,3,7,0.5,0.7
2024-04-14T1500,1904A,104.3553,31.1091,德阳市,耐火材料厂,臭氧1小时,101,53,75,29,44,201,,137,137,7,28,,9,0.5,0.7
2024-04-14T1500,3639A,104.4019,31.1244,德阳市,市教育局,臭氧1小时,65,59,64,34,39,172,,100,100,6,30,3,6,0.4,0.6
2024-04-14T1500,1622A,116.3032,37.4674,德州市,儿童乐园,,30,27,56,9,30,93,,82,82,19,20,6,7,0.5,0.6
2024-04-14T1500,1624A,116.2991,37.4451,德州市,监理站,,31,17,48,9,33,98,,82,82,11,18,10,11,0.4,0.5
2024-04-14T1500,3066A,116.2721,37.4379,德州市,九衢泉纯净水厂,,29,29,56,12,28,92,,77,77,11,20,4,6,0.5,0.6
2024-04-14T1500,3371A,116.3728,37.4403,德州市,开发区人民医院,,30,29,50,7,25,95,,77,77,6,15,7,9,0.4,0.5
2024-04-14T1500,3372A,116.3572,37.4094,德州市,太阳城中学,,31,31,51,9,32,88,,71,71,7,16,6,7,0.6,0.6
2024-04-14T1500,3511A,116.5652,37.3319,德州市,陵城艺术中心,,28,27,48,7,23,87,,69,69,12,19,4,6,0.6,0.7
2024-04-14T1500,2621A,99.7056,27.8317,迪庆藏族自治州,迪庆州站,,38,16,42,11,23,120,,98,98,8,14,4,6,0.1,0.3
2024-04-14T1500,3180A,99.7136,27.8094,迪庆藏族自治州,质量技术监督局,,38,24,38,10,21,120,,96,96,9,15,6,7,0.4,0.5
2024-04-14T1500,2663A,104.6241,35.5734,定西市,东关小学,颗粒物(PM10),109,167,100,46,38,125,,76,76,6,21,4,4,0.2,0.3
2024-04-14T1500,2664A,104.6194,35.5934,定西市,供电公司,颗粒物(PM10),101,152,85,38,36,121,,72,72,2,27,5,5,0.1,0.2
2024-04-14T1500,1389A,113.7547,23.0494,东莞市,莞城梨川,,32,32,36,19,19,101,,65,65,7,21,7,8,0.7,0.8
2024-04-14T1500,1390A,113.7944,23.0128,东莞市,东城石井,,32,27,32,18,18,100,,59,59,6,22,7,7,0.6,0.7
2024-04-14T1500,1391A,113.7383,22.9658,东莞市,南城西平,,28,26,33,15,18,87,,57,57,6,24,4,7,0.7,0.7
2024-04-14T1500,3319A,113.7338,23.0381,东莞市,万江金泰,,29,26,36,16,21,92,,59,59,5,20,8,8,0.6,0.7
2024-04-14T1500,3626A,113.7533,23.0202,东莞市,南城元岭,,31,31,37,16,19,97,,59,59,4,21,7,7,0.7,0.8
2024-04-14T1500,3627A,113.7875,23.0457,东莞市,东城主山,,32,29,32,16,19,101,,60,60,5,20,8,9,0.7,0.7
2024-04-14T1500,1666A,118.6614,37.4309,东营市,市环保局,,35,31,26,24,14,70,,83,78,17,11,8,10,0.2,0.3
2024-04-14T1500,3036A,118.6904,37.4338,东营市,开发区管委会,,,35,28,31,13,,,78,,21,15,4,4,,0.5
2024-04-14T1500,3365A,118.5719,37.565,东营市,垦利区民丰路,,39,39,29,24,12,64,,81,75,17,12,9,13,0.5,0.5
2024-04-14T1500,3498A,118.5055,37.8612,东营市,河口城区,细颗粒物(PM2.5),59,,29,42,22,78,,79,77,8,8,5,6,0.5,0.7
2024-04-14T1500,3646A,118.4978,37.4623,东营市,胜利站,,42,37,34,29,14,66,,78,75,16,14,10,12,0.4,0.4
2024-04-14T1500,3734A,118.35,37.26,东营市,理想之城,,44,44,34,29,17,60,,77,73,18,13,10,20,0.6,0.6
2024-04-14T1500,1591A,110.0023,39.8129,鄂尔多斯市,综合楼,颗粒物(PM10),500,610,391,112,81,111,,92,92,9,16,4,8,0.5,0.6
2024-04-14T1500,1592A,109.9486,39.8261,鄂尔多斯市,巴音孟克林场办事处,颗粒物(PM10),434,534,387,97,81,109,,92,92,7,14,7,11,0.4,0.6
2024-04-14T1500,1593A,109.7736,39.5986,鄂尔多斯市,康泽苑,颗粒物(PM10),461,561,225,110,59,120,,93,93,5,11,5,5,0.5,0.5
2024-04-14T1500,1594A,109.8119,39.5989,鄂尔多斯市,华泰汽车城,颗粒物(PM10),444,544,221,114,61,112,,84,84,8,15,8,8,0.4,0.5
2024-04-14T1500,1595A,109.9734,39.7884,鄂尔多斯市,奥林花园,颗粒物(PM10),461,561,346,97,73,106,,80,80,12,21,7,12,0.5,0.6
2024-04-14T1500,2436A,114.8938,30.3994,鄂州市,市政府,,34,34,39,23,19,89,,48,48,14,17,11,10,1.3,1.1
2024-04-14T1500,2437A,114.8989,30.3714,鄂州市,赵家坝,,34,24,32,18,24,106,,51,51,2,10,8,7,1.0,1
2024-04-14T1500,3654A,114.8094,30.4089,鄂州市,精准医疗中心,,38,38,47,24,22,90,,49,49,6,19,4,10,0.6,1.1
2024-04-14T1500,2454A,109.4978,30.2981,恩施土家族苗族自治州,湖北民院,,46,34,28,32,20,120,,60,60,11,20,6,6,0.6,0.7
2024-04-14T1500,2455A,109.4707,30.2798,恩施土家族苗族自治州,州电力总公司,,38,33,27,22,19,119,,59,59,21,29,7,6,0.7,0.8
2024-04-14T1500,3549A,109.5061,30.3772,恩施土家族苗族自治州,龙凤新区,,45,29,25,17,16,141,,72,72,12,19,7,7,0.8,0.8
2024-04-14T1500,2499A,108.3411,21.6158,防城港市,沙万,,40,40,37,23,19,55,,52,52,4,13,2,2,0.6,0.7
2024-04-14T1500,2500A,108.3514,21.7731,防城港市,防城档案局,,,,36,23,20,62,,60,60,6,8,4,4,0.5,0.5
2024-04-14T1500,2501A,108.3506,21.6414,防城港市,大海花园,,34,34,33,21,16,60,,58,58,6,12,4,4,0.5,0.6
2024-04-14T1500,1371A,113.1294,23.0067,佛山市,湾梁,,39,39,38,20,19,110,,69,69,6,16,6,7,0.5,0.5
2024-04-14T1500,1372A,113.1083,23.0478,佛山市,华材职中,,39,39,40,23,23,110,,70,70,11,19,6,7,0.4,0.5
2024-04-14T1500,1373A,113.144,23.0453,佛山市,南海气象局,,,46,40,22,25,107,,66,66,9,20,,7,0.5,0.6
2024-04-14T1500,1374A,113.2881,22.8094,佛山市,顺德苏岗,,39,36,36,27,20,96,,64,64,5,15,4,4,0.7,0.7
2024-04-14T1500,1376A,112.8383,22.8678,佛山市,高明孔堂,,32,28,31,22,20,89,,72,72,4,8,7,7,0.5,0.6
2024-04-14T1500,1377A,112.8836,23.1588,佛山市,三水监测站,,48,48,41,32,23,96,,52,52,22,27,7,6,0.7,0.6
2024-04-14T1500,1378A,112.867,23.185,佛山市,三水云东海,颗粒物(PM10),53,56,43,28,27,111,,62,62,18,27,5,4,0.5,0.5
2024-04-14T1500,3625A,113.2544,22.7642,佛山市,容桂街道办,,36,36,34,14,18,79,,57,57,10,15,6,6,0.6,0.6
2024-04-14T1500,1280A,119.3903,26.0543,福州市,鼓山,,,,,,,,,,,,,,,,
2024-04-14T1500,1282A,119.2681,26.0504,福州市,师大,颗粒物(PM10),54,57,34,21,19,114,,67,67,17,18,4,4,0.7,0.5
2024-04-14T1500,1283A,119.2984,26.1028,福州市,五四北路,,40,40,29,23,22,113,,62,62,13,22,4,3,0.3,0.3
2024-04-14T1500,1284A,119.2648,26.0768,福州市,杨桥西路,颗粒物(PM10),53,56,32,28,20,115,,66,66,16,19,4,4,0.6,0.4
2024-04-14T1500,1285A,119.317,26.0746,福州市,紫阳,颗粒物(PM10),52,53,31,22,18,110,,69,69,17,22,4,3,0.6,0.5
2024-04-14T1500,3048A,119.5799,26.0936,福州市,九龙,,44,44,19,24,15,99,,63,63,14,15,6,4,0.7,0.5
2024-04-14T1500,3526A,119.5189,25.9664,福州市,吴航,,33,32,25,23,17,105,,62,62,10,14,3,3,0.5,0.4
2024-04-14T1500,1755A,123.7977,41.8491,抚顺市,望花区,,43,43,48,23,25,129,,108,108,10,13,8,15,0.4,0.5
2024-04-14T1500,1756A,123.9161,41.8822,抚顺市,顺城区,颗粒物(PM10),53,56,41,18,21,138,,126,126,13,13,8,8,0.5,0.6
2024-04-14T1500,1757A,124.0436,41.8611,抚顺市,东洲区,,38,32,30,11,15,120,,108,108,5,7,4,6,0.4,0.4
2024-04-14T1500,1758A,123.9247,41.8642,抚顺市,新抚区,,46,46,42,13,18,119,,109,109,7,11,9,9,0.6,0.7
2024-04-14T1500,1759A,124.0972,41.8961,抚顺市,大伙房水库,,44,25,27,10,14,138,,127,127,7,6,8,6,0.5,0.4
2024-04-14T1500,1760A,123.7086,41.8391,抚顺市,沈抚新城,,45,45,38,31,15,137,,110,110,9,9,8,7,0.5,0.5
2024-04-14T1500,2376A,116.2127,28.0814,抚州市,桐源党溪,颗粒物(PM10),51,52,40,10,18,78,,49,49,8,12,7,7,0.2,0.3
2024-04-14T1500,2377A,116.3544,27.9831,抚州市,市站,,26,26,33,16,20,77,,50,50,12,20,4,8,0.7,0.8
2024-04-14T1500,2378A,116.3565,27.963,抚州市,血防站,,26,26,36,13,21,74,,56,56,13,21,2,6,1.0,1.2
2024-04-14T1500,2379A,116.3564,28.0007,抚州市,采茶剧团,,27,24,32,11,20,84,,53,53,11,20,2,6,1.0,1
2024-04-14T1500,2380A,116.385,27.9647,抚州市,医学分院,,25,25,33,7,17,80,,55,55,19,28,8,11,0.6,0.6
2024-04-14T1500,2207A,121.6094,41.998,阜新市,工业园区,颗粒物(PM10),62,73,45,9,22,101,,83,83,10,13,8,8,0.6,0.7
2024-04-14T1500,2208A,121.6697,42.0279,阜新市,长青街,颗粒物(PM10),68,85,72,7,27,102,,85,85,13,15,7,8,0.5,0.5
2024-04-14T1500,2209A,121.6673,42.0705,阜新市,农业园区,,36,36,53,12,27,96,,80,80,11,14,6,6,0.4,0.5
2024-04-14T1500,2210A,121.6717,42.0224,阜新市,东苑,颗粒物(PM10),55,59,43,14,27,97,,82,82,11,16,6,9,0.7,0.8
2024-04-14T1500,2211A,121.6506,42.0498,阜新市,玉龙新城,,39,39,39,9,20,97,,79,79,9,12,8,8,0.6,0.7
2024-04-14T1500,2301A,115.8277,32.8929,阜阳市,市监测站,颗粒物(PM10),61,71,69,35,34,76,,48,48,15,18,8,8,0.6,0.6
2024-04-14T1500,2303A,115.8554,32.8605,阜阳市,开发区,颗粒物(PM10),72,93,60,42,42,72,,48,48,16,19,4,5,0.5,0.5
2024-04-14T1500,2875A,115.784,32.8892,阜阳市,阜阳职业技术学院,颗粒物(PM10),64,77,72,34,32,83,,50,50,13,18,4,6,0.5,0.6
2024-04-14T1500,3468A,115.7901,32.8613,阜阳市,市规划展馆,细颗粒物(PM2.5),73,60,55,53,46,76,,51,50,12,19,4,6,0.7,0.7
2024-04-14T1500,3469A,115.836,32.9183,阜阳市,枣园社区,细颗粒物(PM2.5),89,81,70,66,53,65,,44,44,18,19,4,6,0.5,0.5
2024-04-14T1500,2669A,102.9099,34.9841,甘南藏族自治州,州政府,,35,30,66,17,27,110,,71,71,2,23,5,8,0.5,0.7
2024-04-14T1500,3380A,102.8914,34.9617,甘南藏族自治州,甘肃民族师范学院,颗粒物(PM10),52,54,78,12,22,110,,68,68,3,30,7,14,0.2,0.3
2024-04-14T1500,2570A,101.9603,30.0475,甘孜藏族自治州,水桥子,,38,23,37,11,13,120,,70,70,10,41,3,3,0.3,0.3
2024-04-14T1500,3065A,101.9533,29.9972,甘孜藏族自治州,州环保局,,37,36,26,16,6,117,,97,97,11,17,2,2,0.3,0.2
2024-04-14T1500,3414A,115.8347,28.932,赣江新区,桑海产业园,,24,24,16,10,9,66,,47,47,25,30,6,6,0.6,0.5
2024-04-14T1500,2362A,114.9017,25.9149,赣州市,通天岩,,,,,,,,,,,,,,,,
2024-04-14T1500,2363A,114.9367,25.8664,赣州市,地委,,40,40,60,22,40,100,,92,80,4,30,9,7,1.0,1.2
2024-04-14T1500,2364A,114.9461,25.8481,赣州市,气象台,,44,44,53,22,36,96,,96,78,6,17,6,8,0.5,0.7
2024-04-14T1500,2365A,114.9322,25.8333,赣州市,市图书馆,,39,39,57,23,36,88,,82,69,6,20,6,15,0.8,1.1
2024-04-14T1500,2366A,114.8905,25.8471,赣州市,华坚鞋城,,43,43,58,29,38,97,,88,74,5,15,12,18,0.6,0.8
2024-04-14T1500,3109A,115.0093,25.8613,赣州市,赣县区卫计委,,48,48,68,27,38,74,,76,63,14,22,9,10,0.5,0.8
2024-04-14T1500,2683A,106.2319,36.1417,固原市,马园,颗粒物(PM10),65,79,98,17,24,121,,84,84,6,28,5,6,0.6,0.8
2024-04-14T1500,2684A,106.2792,36.0022,固原市,监测站,颗粒物(PM10),61,72,94,22,26,114,,82,82,12,23,5,5,0.3,0.4
2024-04-14T1500,2685A,106.2375,36.0211,固原市,新区,颗粒物(PM10),62,74,92,20,22,117,,26,,6,26,4,5,0.3,0.4
2024-04-14T1500,3522A,106.2177,35.9959,固原市,原州区十五小,颗粒物(PM10),66,81,92,23,25,124,,95,95,5,20,7,8,0.1,0.3
2024-04-14T1500,2543A,106.6308,30.5278,广安市,小平旧居,,,,,,,,,,,,,,,,
2024-04-14T1500,2544A,106.6303,30.4576,广安市,市委,,,,41,,27,,,59,,,15,,21,,0.7
2024-04-14T1500,2545A,106.6271,30.4663,广安市,友谊中学,,42,26,36,22,24,133,,95,95,8,14,6,6,0.7,0.7
2024-04-14T1500,2547A,106.6388,30.4551,广安市,广电花园,,40,25,37,21,25,128,,88,88,5,13,8,8,0.7,0.7
2024-04-14T1500,2902A,106.6351,30.4865,广安市,北辰小学,,41,39,43,26,25,130,,89,89,10,12,7,7,0.7,0.7
2024-04-14T1500,2523A,105.8945,32.4535,广元市,黑石坡,,41,15,20,8,13,129,,91,91,6,10,10,8,0.3,0.3
2024-04-14T1500,2524A,105.821,32.4444,广元市,老城,,40,27,26,5,10,127,,73,73,4,27,3,3,0.5,0.7
2024-04-14T1500,2526A,105.8628,32.4287,广元市,监测站,,40,27,31,8,16,127,,76,76,5,18,4,5,0.2,0.4
2024-04-14T1500,3617A,105.8047,32.4166,广元市,经开区,,46,46,41,20,23,133,,73,73,8,31,6,8,0.5,0.6
2024-04-14T1500,1345A,113.2347,23.1423,广州市,广雅中学,,44,44,40,27,23,123,,68,68,18,28,5,5,0.7,0.8
2024-04-14T1500,1346A,113.2612,23.105,广州市,市五中,,45,45,42,31,26,127,,73,73,13,22,7,7,0.6,0.6
2024-04-14T1500,1348A,113.3478,23.0916,广州市,广东商学院,,44,44,36,26,20,86,,53,53,19,29,4,4,0.5,0.6
2024-04-14T1500,1349A,113.4332,23.1047,广州市,市八十六中,,31,31,34,19,18,80,,37,37,16,34,5,6,0.6,0.6
2024-04-14T1500,1350A,113.3505,22.9483,广州市,番禺中学,,34,34,34,16,16,103,,61,61,12,23,4,4,0.6,0.6
2024-04-14T1500,1351A,113.2146,23.3916,广州市,花都师范,,49,49,42,32,23,127,,60,60,20,27,6,6,0.7,0.7
2024-04-14T1500,1352A,113.2597,23.1331,广州市,市监测站,,43,43,41,25,22,112,,65,65,22,26,5,5,0.6,0.5
2024-04-14T1500,1353A,113.5618,23.312,广州市,九龙镇镇龙,,48,48,48,25,26,97,,53,53,19,31,7,7,0.4,0.6
2024-04-14T1500,1354A,113.2765,23.1544,广州市,麓湖,,46,46,40,27,22,119,,66,66,13,19,5,5,0.6,0.6
2024-04-14T1500,1355A,113.443,23.3035,广州市,帽峰山森林公园,,,,23,21,20,108,,59,59,7,20,5,6,0.5,0.6
2024-04-14T1500,2846A,113.3221,23.1322,广州市,体育西,,49,49,45,27,22,81,,56,56,18,23,6,7,0.7,0.7
2024-04-14T1500,3298A,113.5717,23.5491,广州市,从化街口,,41,41,43,26,28,114,,70,70,16,22,5,5,0.6,0.7
2024-04-14T1500,3299A,113.3472,23.3692,广州市,白云竹料,,40,40,43,18,24,93,,49,49,20,29,6,7,0.5,0.6
2024-04-14T1500,3300A,113.2981,23.237,广州市,白云嘉禾,,38,38,40,22,20,81,,56,56,25,32,4,4,0.7,0.7
2024-04-14T1500,3301A,113.4256,23.1716,广州市,黄埔科学城,,37,37,40,19,21,91,,48,48,6,20,11,8,0.9,0.8
2024-04-14T1500,3302A,113.3942,23.0483,广州市,番禺大学城,,33,33,36,14,16,74,,45,45,12,23,4,4,0.5,0.8
2024-04-14T1500,3303A,113.4922,22.8168,广州市,南沙黄阁,,38,38,33,15,15,75,,53,53,14,24,6,6,0.6,0.6
2024-04-14T1500,3304A,113.5342,22.7896,广州市,南沙街,,37,37,32,11,13,68,,48,48,10,23,8,8,0.6,0.6
2024-04-14T1500,3443A,113.2902,23.5544,广州市,花都梯面,,38,38,49,21,25,92,,49,49,20,23,6,7,0.8,0.8
2024-04-14T1500,3445A,113.7858,23.7478,广州市,从化良口,,40,35,36,28,26,113,,60,60,7,14,4,4,0.6,0.6
2024-04-14T1500,3446A,113.8051,23.2614,广州市,增城荔城,,33,32,43,20,24,103,,69,69,9,22,6,7,0.4,0.5
2024-04-14T1500,2505A,109.568,23.1478,贵港市,德智高中,颗粒物(PM10),53,55,60,36,32,94,,55,55,18,29,6,6,0.6,0.6
2024-04-14T1500,2506A,109.6047,23.0666,贵港市,江南子站,,49,48,49,34,34,106,,64,64,4,14,6,6,0.4,0.5
2024-04-14T1500,2507A,109.6014,23.0948,贵港市,贵城子站,细颗粒物(PM2.5),55,54,55,39,35,100,,62,62,8,15,7,7,0.6,0.6
2024-04-14T1500,2508A,109.5669,23.1065,贵港市,荷城子站,"颗粒物(PM10),细颗粒物(PM2.5)",52,53,54,36,30,102,,64,64,5,15,8,8,0.6,0.7
2024-04-14T1500,3405A,109.5886,23.1172,贵港市,新世纪学校,颗粒物(PM10),56,61,53,34,32,109,,69,69,10,20,8,8,0.7,0.8
2024-04-14T1500,1439A,106.6899,26.5998,贵阳市,马鞍山,臭氧1小时,57,56,48,34,30,165,,97,97,10,10,12,9,0.4,0.5
2024-04-14T1500,1440A,106.6971,26.5694,贵阳市,市环保站,臭氧1小时,63,58,60,39,45,170,,114,114,11,15,6,5,0.7,0.7
2024-04-14T1500,1441A,106.6243,26.6266,贵阳市,鉴湖路,颗粒物(PM10),56,61,58,31,34,155,,100,100,8,9,6,4,0.5,0.5
2024-04-14T1500,1442A,106.7487,26.6343,贵阳市,燕子冲,臭氧1小时,73,63,51,34,34,178,,106,106,10,10,16,10,0.5,0.5
2024-04-14T1500,1443A,106.6555,26.4365,贵阳市,碧云窝,臭氧1小时,57,58,56,34,34,165,,116,116,9,9,5,6,0.5,0.5
2024-04-14T1500,1444A,106.694,26.5161,贵阳市,中院村,颗粒物(PM10),53,56,54,36,37,149,,103,103,15,12,8,8,0.6,0.6
2024-04-14T1500,1445A,106.7109,26.6027,贵阳市,红边门,臭氧1小时,67,58,57,46,45,173,,117,117,8,10,6,5,0.4,0.5
2024-04-14T1500,1446A,106.7164,26.5699,贵阳市,新华路,臭氧1小时,60,51,53,41,39,168,,113,113,11,12,11,6,0.7,0.7
2024-04-14T1500,1447A,106.674,26.5424,贵阳市,太慈桥,臭氧1小时,52,51,49,31,33,161,,105,105,11,11,10,8,0.5,0.5
2024-04-14T1500,1552A,106.805,26.3003,贵阳市,桐木岭,,,,,,,,,,,,,,,,
2024-04-14T1500,1862A,110.4144,25.3167,桂林市,电子科大尧山校区,,45,45,43,31,28,105,,86,86,4,5,5,5,0.8,0.8
2024-04-14T1500,1863A,110.2819,25.2697,桂林市,监测站,细颗粒物(PM2.5),63,60,50,45,37,78,,46,43,9,15,10,9,0.7,0.8
2024-04-14T1500,1864A,110.3089,25.2708,桂林市,龙隐路小学,细颗粒物(PM2.5),55,53,47,39,33,72,,40,40,9,15,4,4,0.7,0.7
2024-04-14T1500,1865A,110.2869,25.2178,桂林市,八中,,49,48,50,34,32,66,,38,38,10,14,6,5,0.7,0.8
2024-04-14T1500,3403A,110.1764,25.2381,桂林市,创业大厦,,45,41,37,31,30,83,,73,73,8,6,6,6,0.8,0.6
2024-04-14T1500,3531A,110.296,25.1253,桂林市,旅游学院,,45,41,37,31,29,71,,52,52,5,11,6,7,0.6,0.5
2024-04-14T1500,2674A,100.2561,34.4714,果洛藏族自治州,玛沁县大武镇,,36,26,46,9,22,113,,81,81,2,8,12,17,0.4,0.5
2024-04-14T1500,1129A,126.5422,45.755,哈尔滨市,岭北,,,84,97,35,57,166,,143,143,,23,39,24,0.1,0.5
2024-04-14T1500,1130A,126.561,45.8167,哈尔滨市,松北商大,颗粒物(PM10),73,95,93,34,50,157,,134,134,11,13,6,7,0.6,0.7
2024-04-14T1500,1131A,126.979,45.5419,哈尔滨市,阿城会宁,细颗粒物(PM2.5),124,157,102,94,57,206,,160,160,21,16,10,14,0.8,0.7
2024-04-14T1500,1132A,126.599,45.7222,哈尔滨市,南岗学府路,颗粒物(PM10),86,121,122,38,60,154,,136,136,18,22,10,11,0.6,0.8
2024-04-14T1500,1133A,126.689,45.7733,哈尔滨市,太平宏伟公园,颗粒物(PM10),114,178,132,52,58,183,,156,156,15,18,11,11,0.3,0.4
2024-04-14T1500,1134A,126.635,45.7667,哈尔滨市,道外承德广场,"颗粒物(PM10),细颗粒物(PM2.5)",87,124,122,64,64,171,,152,152,21,23,14,16,0.4,0.5
2024-04-14T1500,1135A,126.685,45.7319,哈尔滨市,香坊红旗大街,颗粒物(PM10),109,168,128,72,71,177,,151,151,23,27,12,14,0.7,0.8
2024-04-14T1500,1136A,126.6411,45.7258,哈尔滨市,动力和平路,颗粒物(PM10),94,137,115,41,53,184,,161,161,16,23,9,11,0.6,0.8
2024-04-14T1500,1137A,126.593,45.7478,哈尔滨市,道里建国路,颗粒物(PM10),80,110,112,54,57,164,,143,143,14,17,8,10,0.7,1.1
2024-04-14T1500,1138A,126.615,45.61,哈尔滨市,平房东轻厂,颗粒物(PM10),93,136,122,50,56,169,,150,150,15,16,8,9,0.3,0.5
2024-04-14T1500,1139A,126.595,45.9855,哈尔滨市,呼兰师专,,,131,109,40,58,,,116,116,,25,,14,,0.7
2024-04-14T1500,1140A,126.6206,45.6842,哈尔滨市,省农科院,颗粒物(PM10),106,162,137,51,66,174,,154,154,20,31,8,10,0.5,0.7
2024-04-14T1500,2688A,93.5128,42.8172,哈密市,地区监测站,颗粒物(PM10),184,317,869,71,153,105,,84,84,6,15,3,4,0.2,0.2
2024-04-14T1500,2689A,93.4961,42.8328,哈密市,哈密师范学校,颗粒物(PM10),258,390,833,91,166,100,,80,80,6,16,5,4,0.3,0.4
2024-04-14T1500,2671A,100.9048,36.9639,海北藏族自治州,海晏县西海镇,颗粒物(PM10),79,108,82,22,23,100,,71,71,3,8,8,10,0.3,0.3
2024-04-14T1500,3867A,102.0738,36.5056,海东市,平安区公安北苑,颗粒物(PM10),83,115,92,45,32,110,,67,67,8,14,10,11,0.4,0.4
2024-04-14T1500,1409A,110.576,19.9507,海口市,东寨港,,,,,,,,,,,,,,,,
2024-04-14T1500,1410A,110.3232,20.0574,海口市,海南大学,,32,31,32,20,19,100,,78,78,8,6,6,5,0.4,0.4
2024-04-14T1500,1411A,110.283,20.0053,海口市,秀英海南医院,,48,48,37,21,22,95,,78,78,20,13,6,5,0.4,0.5
2024-04-14T1500,1412A,110.338,19.9969,海口市,海南师范大学,,49,49,34,19,20,113,,80,80,7,4,6,6,0.5,0.5
2024-04-14T1500,1413A,110.33,20.0356,海口市,龙华路环保局宿舍,,38,38,34,19,20,102,,78,78,9,6,6,6,0.4,0.5
2024-04-14T1500,3539A,110.5111,19.9736,海口市,桂林洋子站,,32,32,37,19,20,90,,76,76,3,4,6,5,0.3,0.3
2024-04-14T1500,2673A,100.6188,36.2866,海南藏族自治州,共和县恰卜恰镇,,46,44,65,32,28,112,,79,79,5,12,11,12,0.5,0.5
2024-04-14T1500,2676A,97.3731,37.3753,海西蒙古族藏族自治州,德令哈市,颗粒物(PM10),89,127,125,20,28,105,,91,91,13,9,13,12,0.5,0.6
2024-04-14T1500,1048A,114.5302,36.6116,邯郸市,东污水处理厂,细颗粒物(PM2.5),52,,50,36,46,74,,45,44,12,19,5,6,0.4,0.4
2024-04-14T1500,1049A,114.4918,36.5713,邯郸市,矿院,,39,39,53,24,35,64,,46,42,6,13,6,6,0.6,0.6
2024-04-14T1500,1050A,114.484,36.6133,邯郸市,丛台公园,,,27,51,26,37,74,,54,50,10,13,,6,0.5,0.4
2024-04-14T1500,3458A,114.7895,36.5593,邯郸市,香泉濮院小区,细颗粒物(PM2.5),57,58,62,40,38,68,,56,56,15,17,7,9,0.3,0.3
2024-04-14T1500,3579A,114.50634,36.77178,邯郸市,永年区实验高中,细颗粒物(PM2.5),59,43,64,42,43,83,,66,53,13,15,3,4,0.5,0.3
2024-04-14T1500,3580A,114.20016,36.44293,邯郸市,峰峰矿区临水派出所,,46,,55,32,39,79,,64,52,2,3,4,6,0.8,0.9
2024-04-14T1500,2634A,106.9893,33.1842,汉中市,汉川机床厂子校,,36,36,28,20,14,111,,75,75,5,13,5,9,0.3,0.4
2024-04-14T1500,2635A,107.0154,33.0706,汉中市,市监测站,,40,40,31,19,21,123,,80,80,6,18,7,14,0.6,0.8
2024-04-14T1500,2636A,107.0089,33.1138,汉中市,鑫源开发区,,40,38,32,17,15,127,,80,80,4,18,8,17,0.5,0.8
2024-04-14T1500,2637A,107.007,33.0323,汉中市,南郑大河坎水厂,,42,42,33,14,19,125,,80,80,4,14,7,8,0.5,0.6
2024-04-14T1500,1223A,120.2072,30.2111,杭州市,滨江,,40,4,29,2,15,127,,83,83,6,23,5,4,0.6,0.6
2024-04-14T1500,1224A,120.0633,30.2747,杭州市,西溪,,34,7,21,3,13,107,,57,57,11,25,6,6,0.7,0.6
2024-04-14T1500,1226A,120.3461,30.3153,杭州市,下沙,,40,10,23,4,12,125,,75,75,8,27,5,5,0.6,0.6
2024-04-14T1500,1227A,120.1269,30.2456,杭州市,卧龙桥,,37,11,24,2,19,116,,72,72,9,23,4,4,0.5,0.5
2024-04-14T1500,1228A,120.1903,30.2692,杭州市,浙江农大,,36,5,22,2,14,114,,74,74,13,27,4,4,0.6,0.6
2024-04-14T1500,1230A,120.1197,30.3119,杭州市,和睦小学,,35,6,20,4,13,110,,64,64,9,26,7,6,0.7,0.6
2024-04-14T1500,1231A,120.3019,30.4183,杭州市,临平镇,,39,10,28,4,16,123,,69,69,10,18,4,4,0.6,0.6
2024-04-14T1500,1232A,120.2697,30.1819,杭州市,城厢镇,,38,12,27,4,19,121,,83,83,12,29,4,4,0.7,0.6
2024-04-14T1500,1233A,120.0883,30.1808,杭州市,云栖,,34,,23,3,13,106,,68,68,11,29,6,6,0.6,0.6
2024-04-14T1500,3557A,119.9464,30.0494,杭州市,镇二中,,32,10,30,3,16,102,,63,63,19,28,6,6,0.8,0.8
2024-04-14T1500,3558A,119.7183,30.2367,杭州市,市府大楼,,31,5,18,2,14,98,,64,64,13,25,5,5,0.6,0.6
2024-04-14T1500,3656A,120.1556,30.2864,杭州市,消防大队,,35,,19,3,13,112,,70,70,13,29,7,7,0.8,0.7
2024-04-14T1500,1270A,117.1959,31.7848,合肥市,明珠广场,,46,46,64,31,48,111,,70,70,14,25,10,10,0.8,0.9
2024-04-14T1500,1271A,117.3072,31.8764,合肥市,三里街,细颗粒物(PM2.5),55,56,54,39,36,103,,64,64,21,26,5,6,0.7,0.7
2024-04-14T1500,1272A,117.2588,31.8707,合肥市,琥珀山庄,,44,44,60,22,30,110,,74,74,10,20,3,4,0.6,0.7
2024-04-14T1500,1273A,117.1604,31.9052,合肥市,董铺水库,,44,44,56,29,36,117,,78,78,3,10,1,2,0.5,0.5
2024-04-14T1500,1274A,117.25,31.8571,合肥市,长江中路,颗粒物(PM10),54,58,66,34,39,105,,68,68,12,21,4,4,1.0,1
2024-04-14T1500,1275A,117.266,31.9436,合肥市,庐阳区,颗粒物(PM10),56,61,62,36,37,109,,70,70,22,31,5,5,0.5,0.6
2024-04-14T1500,1276A,117.336,31.8586,合肥市,瑶海区,颗粒物(PM10),52,53,57,26,36,106,,70,70,13,21,7,7,0.7,0.7
2024-04-14T1500,1277A,117.3027,31.7964,合肥市,包河区,颗粒物(PM10),51,51,58,34,39,115,,79,79,17,28,8,8,0.5,0.5
2024-04-14T1500,1278A,117.2776,31.7385,合肥市,滨湖新区,,48,48,47,31,35,111,,77,77,16,16,7,7,0.5,0.5
2024-04-14T1500,1279A,117.1318,31.8403,合肥市,高新区,,48,48,65,29,48,106,,68,68,12,23,6,7,0.8,0.8
2024-04-14T1500,3464A,117.3803,31.9147,合肥市,高教基地,,,53,49,,24,102,,67,67,25,25,6,5,0.5,0.5
2024-04-14T1500,3614A,79.924,37.0877,和田地区,地区环保局,"颗粒物(PM10),细颗粒物(PM2.5)",500,1142,1418,566,526,87,,61,61,5,12,7,6,0.4,0.4
2024-04-14T1500,3615A,79.9131,37.113,和田地区,市环保局,"颗粒物(PM10),细颗粒物(PM2.5)",500,1525,1439,603,383,78,,59,59,9,18,,5,0.4,0.5
2024-04-14T1500,2516A,108.2011,24.715,河池市,东仁乐园,,,,73,,33,,,15,,,12,,5,,0.8
2024-04-14T1500,2517A,108.0497,24.6947,河池市,市环保站,"颗粒物(PM10),细颗粒物(PM2.5)",55,60,49,39,34,89,,62,62,8,10,8,8,0.7,0.6
2024-04-14T1500,2518A,108.0983,24.6989,河池市,市疾控中心,细颗粒物(PM2.5),57,61,51,40,35,89,,61,61,10,15,6,7,0.7,0.7
2024-04-14T1500,1696A,114.6778,23.7569,河源市,源西,,36,36,42,19,30,90,,61,61,10,14,4,4,0.7,0.7
2024-04-14T1500,1697A,114.6944,23.7586,河源市,东埔,,37,37,52,23,33,100,,67,67,8,13,6,7,0.6,0.7
2024-04-14T1500,1698A,114.6892,23.7233,河源市,老城,颗粒物(PM10),54,58,49,20,23,100,,64,64,5,10,6,6,0.6,0.7
2024-04-14T1500,1718A,115.4208,35.2464,菏泽市,气象局,,30,30,38,20,22,59,,61,58,18,16,2,3,0.4,0.4
2024-04-14T1500,1719A,115.4747,35.2375,菏泽市,市政协,,39,27,32,27,25,58,,54,54,15,13,2,3,0.5,0.5
2024-04-14T1500,3374A,115.5564,35.0891,菏泽市,定陶老年大学,,20,19,33,12,19,64,,55,55,11,16,3,4,0.4,0.4
2024-04-14T1500,3647A,115.4702,35.2706,菏泽市,菏泽医专,,32,27,36,22,20,44,,44,42,15,16,3,3,0.3,0.4
2024-04-14T1500,2514A,111.5264,24.4172,贺州市,环保小区,,48,46,56,33,37,68,,52,52,11,19,9,9,0.7,0.8
2024-04-14T1500,2515A,111.5608,24.4078,贺州市,政协大楼,颗粒物(PM10),52,54,56,28,34,68,,55,55,10,17,9,10,0.7,0.8
2024-04-14T1500,3534A,111.4744,24.4553,贺州市,西湾,,48,48,59,33,40,67,,42,42,12,28,6,7,0.8,0.9
2024-04-14T1500,2385A,114.17,35.9019,鹤壁市,市监测站,,38,26,54,26,46,74,,55,45,16,19,7,7,0.3,0.4
2024-04-14T1500,2386A,114.2956,35.7511,鹤壁市,市交警支队,,30,,49,21,39,87,,54,51,8,12,10,10,0.3,0.4
2024-04-14T1500,2387A,114.2878,35.7306,鹤壁市,迎宾馆,,36,,39,25,45,78,,53,48,11,14,10,11,0.6,0.4
2024-04-14T1500,3474A,114.2617,35.6822,鹤壁市,大新区,,36,36,47,14,28,75,,50,45,4,9,6,8,0.7,0.8
2024-04-14T1500,3596A,114.1572,35.9603,鹤壁市,南山宾馆,,25,18,56,17,41,71,,48,42,7,11,8,9,0.5,0.5
2024-04-14T1500,2244A,130.2537,47.3416,鹤岗市,哈啤分公司,颗粒物(PM10),62,74,68,26,36,135,,100,100,13,16,14,16,0.6,0.7
2024-04-14T1500,2245A,130.2684,47.3086,鹤岗市,斯达机电,颗粒物(PM10),63,76,74,31,45,134,,104,104,11,15,12,13,0.7,0.8
2024-04-14T1500,2246A,130.3114,47.3388,鹤岗市,东山纸板厂,颗粒物(PM10),83,115,138,30,45,130,,97,97,10,23,13,14,0.5,1
2024-04-14T1500,2247A,130.1097,47.3382,鹤岗市,五号水库,,47,42,47,20,18,148,,114,114,9,13,11,10,0.6,0.6
2024-04-14T1500,2263A,127.4833,50.2524,黑河市,交通局,,44,44,30,17,20,49,,36,36,15,16,9,9,0.6,0.4
2024-04-14T1500,2264A,127.5144,50.2341,黑河市,环保局,,32,30,23,22,22,52,,37,37,14,15,5,6,0.5,0.4
2024-04-14T1500,2265A,127.5291,50.2472,黑河市,大黑河岛,,,,26,27,19,62,,44,44,31,44,9,9,,
2024-04-14T1500,1074A,115.6838,37.7541,衡水市,电机北厂,,38,38,42,21,30,90,,63,63,4,8,2,2,0.3,0.3
2024-04-14T1500,1075A,115.6303,37.7316,衡水市,市监测站,,36,36,44,21,30,89,,66,66,12,15,5,5,0.5,0.5
2024-04-14T1500,3188A,115.6683,37.7217,衡水市,市城管局,,33,33,46,22,30,86,,59,59,10,15,1,2,0.4,0.4
2024-04-14T1500,3459A,115.5989,37.5491,衡水市,地表水厂,,36,36,47,11,25,91,,63,63,10,20,4,3,0.3,0.3
2024-04-14T1500,2456A,112.5003,26.9167,衡阳市,原169医院,,48,40,52,33,30,64,,36,36,14,20,11,10,0.8,0.8
2024-04-14T1500,2457A,112.6194,26.9258,衡阳市,衡阳化工总厂,细颗粒物(PM2.5),64,58,63,46,38,80,,48,48,13,13,11,10,0.9,0.9
2024-04-14T1500,2458A,112.6211,26.8956,衡阳市,珠晖区环保局,颗粒物(PM10),62,73,58,43,35,80,,45,45,16,16,11,9,1.2,1
2024-04-14T1500,2459A,112.6197,26.8733,衡阳市,市委党校,细颗粒物(PM2.5),64,76,62,46,33,85,,48,48,18,15,12,8,1.3,1
2024-04-14T1500,2460A,112.6006,26.8919,衡阳市,市监测站,细颗粒物(PM2.5),60,64,55,43,40,78,,48,48,18,16,12,10,1.2,1
2024-04-14T1500,2461A,112.5664,26.9056,衡阳市,真空机电公司,颗粒物(PM10),61,71,57,42,36,64,,42,42,20,16,13,12,1.3,1
2024-04-14T1500,3399A,112.6703,26.882,衡阳市,师范学院,细颗粒物(PM2.5),72,73,53,52,41,79,,49,49,14,11,10,9,1.0,0.8
2024-04-14T1500,2608A,103.3772,23.3993,红河哈尼族彝族自治州,污水处理厂,,50,50,69,22,51,141,,117,117,6,12,8,9,0.3,0.6
2024-04-14T1500,2609A,103.3861,23.35,红河哈尼族彝族自治州,监测站,,44,27,62,12,47,140,,119,119,7,15,7,8,0.3,0.5
2024-04-14T1500,3038A,103.3758,23.368,红河哈尼族彝族自治州,州图书馆,,45,24,62,21,48,144,,124,124,5,9,10,6,0.2,0.4
2024-04-14T1500,1090A,111.6507,40.7517,呼和浩特市,呼市一监,颗粒物(PM10),362,469,165,106,47,134,,96,96,12,11,17,13,0.7,0.5
2024-04-14T1500,1091A,111.6572,40.8033,呼和浩特市,小召,颗粒物(PM10),398,498,164,108,46,125,,89,89,19,16,12,8,0.7,0.5
2024-04-14T1500,1094A,111.7516,40.8369,呼和浩特市,如意水处理厂,颗粒物(PM10),323,438,133,103,42,114,,85,85,15,17,15,12,0.6,0.4
2024-04-14T1500,1095A,111.7276,40.8062,呼和浩特市,二十九中,颗粒物(PM10),332,445,150,102,44,119,,89,89,16,14,16,11,0.6,0.5
2024-04-14T1500,1096A,111.5512,40.7866,呼和浩特市,工大金川校区,颗粒物(PM10),389,491,140,125,50,120,,79,79,14,18,13,7,0.6,0.4
2024-04-14T1500,1097A,111.717,40.7612,呼和浩特市,化肥厂生活区,颗粒物(PM10),362,469,158,104,48,122,,88,88,16,16,16,13,0.6,0.4
2024-04-14T1500,3698A,111.5968,40.8178,呼和浩特市,红旗小学,颗粒物(PM10),447,547,162,122,49,122,,83,83,20,21,12,6,0.6,0.4
2024-04-14T1500,3699A,111.6518,40.8389,呼和浩特市,海东办,颗粒物(PM10),434,534,154,113,46,118,,81,81,16,16,16,8,0.5,0.2
2024-04-14T1500,2192A,119.7594,49.2261,呼伦贝尔市,区环保局,颗粒物(PM10),500,809,328,263,107,73,,80,76,14,15,5,6,0.5,0.4
2024-04-14T1500,3061A,119.7512,49.1577,呼伦贝尔市,国华电力东,颗粒物(PM10),500,696,307,232,98,78,,82,82,6,7,4,6,0.4,0.4
2024-04-14T1500,1250A,120.0751,30.8669,湖州市,城西水厂,,32,7,25,3,16,102,,66,66,16,24,3,3,0.6,0.6
2024-04-14T1500,2873A,120.0875,30.8955,湖州市,仁皇山新区,,33,8,21,6,17,105,,60,60,17,25,6,6,0.7,0.7
2024-04-14T1500,2907A,120.1844,30.8596,湖州市,吴兴区站,,35,7,20,5,15,111,,55,55,13,24,4,4,0.5,0.5
2024-04-14T1500,3562A,120.4148,30.8538,湖州市,南浔区站,,35,13,18,8,17,110,,67,67,17,17,4,4,0.7,0.6
2024-04-14T1500,1607A,120.9092,40.7136,葫芦岛市,龙港区,,40,40,32,20,24,95,,61,61,7,10,7,6,0.5,0.4
2024-04-14T1500,1608A,120.8392,40.7514,葫芦岛市,化工街,,36,36,31,19,22,93,,60,60,9,17,14,10,0.3,0.3
2024-04-14T1500,1609A,120.8341,40.7073,葫芦岛市,新区,,36,28,25,25,26,88,,61,61,13,13,7,6,0.6,0.5
2024-04-14T1500,1610A,120.8695,40.7677,葫芦岛市,东城区,,37,37,25,22,27,91,,59,59,19,23,7,5,0.3,0.3
2024-04-14T1500,2482A,109.5981,27.5721,怀化市,林科所,,41,19,18,7,7,130,,84,84,4,4,5,14,0.7,0.8
2024-04-14T1500,2483A,109.9453,27.5444,怀化市,河西地税局,,38,20,22,16,13,119,,73,73,3,9,5,11,0.5,0.7
2024-04-14T1500,2484A,109.9781,27.5342,怀化市,市四医院,,41,14,24,12,16,129,,78,78,4,8,7,11,0.5,0.7
2024-04-14T1500,2485A,109.9972,27.5578,怀化市,监测楼,,40,23,24,4,13,128,,75,75,4,8,10,13,0.4,0.6
2024-04-14T1500,2486A,110.0394,27.583,怀化市,市委党校,,43,18,22,7,12,136,,92,92,6,8,3,6,0.5,0.6
2024-04-14T1500,1210A,119.036,33.5981,淮安市,钵池山,细颗粒物(PM2.5),60,,16,43,19,50,,75,57,17,11,5,5,0.6,0.4
2024-04-14T1500,1211A,119.007,33.575,淮安市,北京南路,细颗粒物(PM2.5),60,,18,43,19,48,,78,57,18,11,6,6,0.6,0.5
2024-04-14T1500,1212A,118.989,33.6067,淮安市,市监测站,,49,44,17,34,11,48,,80,58,19,11,6,6,0.7,0.5
2024-04-14T1500,1213A,119.135,33.5039,淮安市,楚州区监测站,细颗粒物(PM2.5),58,49,19,41,19,44,,74,54,20,14,6,6,0.5,0.4
2024-04-14T1500,1214A,119.0186,33.6297,淮安市,淮阴区监测站,细颗粒物(PM2.5),54,51,17,38,17,47,,78,55,23,15,4,4,0.4,0.2
2024-04-14T1500,3426A,118.8755,33.2894,淮安市,新华书店,颗粒物(PM10),58,66,23,38,15,47,,70,51,23,15,4,4,0.6,0.4
2024-04-14T1500,2282A,116.8004,33.975,淮北市,监测站,,25,25,25,11,15,54,,71,62,13,11,4,4,0.4,0.4
2024-04-14T1500,2283A,116.8091,33.9007,淮北市,烈山区政府,,35,,28,24,28,59,,70,66,6,8,3,4,0.5,0.4
2024-04-14T1500,3330A,116.8873,33.9836,淮北市,杜集区检察院,细颗粒物(PM2.5),52,48,34,36,27,48,,79,66,19,9,2,2,0.6,0.5
2024-04-14T1500,4017A,116.7923,33.9535,淮北市,市博物馆,,20,20,22,10,14,55,,72,65,7,3,2,3,0.6,0.6
2024-04-14T1500,2277A,116.8305,32.7727,淮南市,潘集区政府,颗粒物(PM10),68,86,69,44,36,68,,59,59,16,16,6,6,0.5,0.5
2024-04-14T1500,2278A,117.0067,32.6524,淮南市,师范学院,,,,58,75,48,78,,61,61,15,16,11,10,,0.3
2024-04-14T1500,2279A,116.8569,32.5951,淮南市,谢家集区政府,,48,48,60,19,29,93,,62,62,11,20,4,10,0.4,0.5
2024-04-14T1500,2280A,116.8281,32.633,淮南市,八公山区政府,细颗粒物(PM2.5),78,74,72,57,57,86,,64,64,9,15,1,4,0.5,0.5
2024-04-14T1500,2281A,116.6325,32.6201,淮南市,焦岗湖风景区管理处,颗粒物(PM10),54,57,63,19,19,64,,48,48,15,22,3,3,0.3,0.3
2024-04-14T1500,2894A,117.0566,32.6531,淮南市,经济技术开发区消防队,细颗粒物(PM2.5),67,65,50,48,40,83,,63,63,22,23,7,4,0.5,0.5
2024-04-14T1500,3329A,117.0108,32.5893,淮南市,山南新区,颗粒物(PM10),63,75,56,42,29,93,,67,67,20,22,5,4,0.5,0.5
2024-04-14T1500,2446A,114.9028,30.4742,黄冈市,职工中心,,50,50,45,32,32,79,,54,50,10,12,5,7,0.7,0.8
2024-04-14T1500,2929A,114.8858,30.4519,黄冈市,红卫路,,45,42,39,31,29,86,,47,47,8,16,8,11,0.9,1
2024-04-14T1500,3398A,114.9136,30.4445,黄冈市,市林业局,,45,43,45,31,33,98,,51,51,2,11,2,6,0.5,0.6
2024-04-14T1500,2672A,102.0199,35.5102,黄南藏族自治州,同仁县隆务镇,颗粒物(PM10),59,68,61,20,26,106,,83,83,7,6,4,4,0.7,0.7
2024-04-14T1500,2295A,118.2903,29.6963,黄山市,延安路89号,,24,16,35,5,7,76,,72,72,5,11,6,6,0.7,0.8
2024-04-14T1500,2296A,118.327,29.7178,黄山市,黄山东路89号,,,10,24,3,9,76,,70,70,7,11,5,4,,0.9
2024-04-14T1500,2297A,118.1371,30.2756,黄山市,黄山区政府5号楼,,28,18,23,10,16,87,,72,72,5,9,4,4,0.7,0.8
2024-04-14T1500,2423A,115.0601,30.2313,黄石市,沈家营,颗粒物(PM10),60,70,63,18,23,92,,38,38,7,24,16,20,0.5,1.3
2024-04-14T1500,2424A,115.0817,30.2006,黄石市,陈家湾,,38,38,48,17,23,79,,41,36,9,25,13,15,0.7,1
2024-04-14T1500,2426A,114.8988,30.2019,黄石市,铁山,,34,34,38,19,20,78,,51,49,9,13,10,10,0.8,0.9
2024-04-14T1500,2427A,115.0307,30.2092,黄石市,团城山,颗粒物(PM10),56,62,43,11,12,88,,64,45,8,14,8,9,0.6,0.8
2024-04-14T1500,3149A,115.0235,30.1578,黄石市,笔架山北路,,40,40,47,11,15,66,,60,50,13,13,10,6,0.7,0.8
2024-04-14T1500,1392A,114.4183,23.0528,惠州市,河南岸金山湖子站,,30,24,35,15,21,94,,67,67,3,11,4,5,0.6,0.6
2024-04-14T1500,1393A,114.4053,23.0822,惠州市,下埔横江三路子站,,32,30,36,15,20,101,,73,73,7,12,5,6,0.6,0.7
2024-04-14T1500,1394A,114.4103,23.1142,惠州市,江北云山西路子站,,34,28,35,16,20,107,,74,74,4,10,5,6,0.5,0.6
2024-04-14T1500,1395A,114.4645,22.7833,惠州市,惠阳区承修路船湖子站,,22,19,27,9,15,69,,58,58,9,12,3,3,0.5,0.6
2024-04-14T1500,1396A,114.5317,22.7422,惠州市,大亚湾管委会子站,,21,20,31,10,17,66,,62,62,12,15,3,3,0.5,0.6
2024-04-14T1500,3314A,114.4338,22.8134,惠州市,惠阳秋长,,33,27,31,11,13,105,,74,74,8,13,7,8,0.3,0.4
2024-04-14T1500,3452A,114.6517,22.775,惠州市,大亚湾霞涌,,23,23,22,12,17,71,,61,61,5,6,4,5,0.3,0.4
2024-04-14T1500,2240A,130.9762,45.3001,鸡西市,环保局,,47,47,70,17,33,90,,79,79,3,16,6,7,0.4,0.6
2024-04-14T1500,2243A,130.9429,45.3039,鸡西市,第一中学,,43,35,64,13,29,136,,111,111,4,12,8,9,0.2,0.4
2024-04-14T1500,3707A,131.0207,45.3073,鸡西市,欧美日汽修厂,,50,50,103,16,47,100,,82,82,6,26,4,7,0.3,0.7
2024-04-14T1500,3709A,130.9967,45.3106,鸡西市,市政设施管理处,颗粒物(PM10),57,64,84,16,35,118,,94,94,10,29,6,6,0.2,0.5
2024-04-14T1500,2367A,114.9754,27.0803,吉安市,红声器材厂,颗粒物(PM10),67,83,64,41,44,83,,34,34,19,25,14,14,0.7,0.7
2024-04-14T1500,2368A,114.9658,27.0999,吉安市,市森林工业局,细颗粒物(PM2.5),62,64,64,44,46,85,,35,35,18,25,14,14,0.8,0.8
2024-04-14T1500,2369A,114.99,27.1312,吉安市,市环境监测站,细颗粒物(PM2.5),57,57,63,40,40,89,,40,40,14,22,19,16,0.8,1
2024-04-14T1500,2370A,115.0093,27.0968,吉安市,青原区法院,颗粒物(PM10),57,64,66,38,45,81,,30,30,21,27,16,15,0.6,0.7
2024-04-14T1500,1772A,126.54,43.8622,吉林市,哈达湾,臭氧1小时,103,89,52,50,29,206,,155,155,15,16,9,7,0.7,0.6
2024-04-14T1500,1773A,126.5844,43.8358,吉林市,东局子,臭氧1小时,103,74,56,54,33,206,,152,152,21,21,8,6,0.7,0.7
2024-04-14T1500,1774A,126.5052,43.8245,吉林市,电力学院,臭氧1小时,108,77,64,48,39,216,,168,168,15,23,12,11,0.6,0.6
2024-04-14T1500,1775A,126.6133,43.8972,吉林市,江北,臭氧1小时,105,96,64,60,33,210,,148,148,21,21,12,9,0.7,0.6
2024-04-14T1500,1776A,126.555,43.8306,吉林市,江南公园,臭氧1小时,103,79,58,57,38,205,,156,156,18,20,8,7,0.7,0.6
2024-04-14T1500,1778A,126.7061,43.7133,吉林市,丰满,,,,,,,,,,,,,,,,
2024-04-14T1500,2868A,126.4739,43.953,吉林市,九站,臭氧1小时,98,107,62,63,31,198,,155,155,26,21,14,10,0.7,0.6
2024-04-14T1500,1299A,116.9862,36.6114,济南市,科干所,,22,22,28,15,15,63,,77,71,20,11,6,6,0.6,0.6
2024-04-14T1500,1300A,116.9376,36.665,济南市,农科所,,25,20,34,17,13,60,,69,69,19,14,5,4,0.5,0.5
2024-04-14T1500,1301A,117.1265,36.6734,济南市,开发区,,27,27,28,17,14,70,,82,78,27,17,6,6,0.5,0.5
2024-04-14T1500,1303A,117.0624,36.6868,济南市,省种子仓库,,27,27,35,7,10,68,,65,65,16,16,3,3,0.4,0.3
2024-04-14T1500,1304A,116.9489,36.6447,济南市,机床二厂,,23,17,32,12,11,72,,79,79,17,12,4,4,0.6,0.5
2024-04-14T1500,1305A,117.0495,36.663,济南市,市监测站,,23,22,28,12,12,71,,73,73,26,24,10,9,0.7,0.6
2024-04-14T1500,1306A,116.7675,36.5484,济南市,长清党校,,25,15,27,15,18,77,,82,75,8,9,4,4,0.5,0.5
2024-04-14T1500,1616A,117.6795,36.229,济南市,技术学院,,18,7,14,7,8,56,,79,66,20,13,8,7,0.7,0.7
2024-04-14T1500,1961A,117.532,36.6868,济南市,东山小学,,25,24,23,17,9,47,,86,73,27,12,5,5,0.4,0.3
2024-04-14T1500,3059A,117.7161,36.2049,济南市,泰兴公司,,15,14,18,9,11,47,,74,57,16,16,9,9,0.9,0.8
2024-04-14T1500,3064A,117.6867,36.2171,济南市,莱芜战役纪念馆,,19,19,23,12,10,48,,75,59,18,15,6,6,0.8,0.8
2024-04-14T1500,3494A,117.1673,36.9782,济南市,济阳区政府,,24,24,45,10,16,72,,78,76,19,24,7,7,0.6,0.6
2024-04-14T1500,3495A,117.1171,36.63,济南市,锦屏中学,,32,32,24,12,11,61,,77,77,23,8,6,6,0.4,0.4
2024-04-14T1500,3682A,116.9814,36.6819,济南市,济南四建,,22,22,29,12,14,62,,67,67,24,16,7,6,0.5,0.5
2024-04-14T1500,1653A,116.6251,35.4302,济宁市,火炬城,,30,30,38,12,9,42,,62,56,18,10,6,6,0.6,0.5
2024-04-14T1500,1655A,116.5491,35.4042,济宁市,电化厂,,31,31,36,9,7,50,,67,60,14,7,3,4,0.7,0.7
2024-04-14T1500,3500A,116.5814,35.3707,济宁市,北湖一中,,25,25,34,9,11,48,,63,56,14,9,5,5,0.8,0.7
2024-04-14T1500,3501A,116.8249,35.5593,济宁市,服务中心,,30,30,32,9,9,58,,64,57,11,10,1,2,0.7,0.7
2024-04-14T1500,3678A,116.5907,35.4054,济宁市,市第七中学,,32,32,33,9,8,37,,58,50,19,10,4,4,0.5,0.4
2024-04-14T1500,2255A,130.2751,46.8028,佳木斯市,佳纺,颗粒物(PM10),51,51,78,31,47,152,,112,112,8,20,8,8,0.6,0.7
2024-04-14T1500,2256A,130.3995,46.8307,佳木斯市,发电厂,颗粒物(PM10),55,59,63,33,43,153,,115,115,12,18,6,5,0.3,0.4
2024-04-14T1500,2257A,130.3258,46.7975,佳木斯市,环保局,颗粒物(PM10),51,52,71,32,44,158,,112,112,11,27,5,5,0.4,0.5
2024-04-14T1500,2258A,130.3648,46.8032,佳木斯市,十一中,颗粒物(PM10),52,53,66,33,47,146,,106,106,11,18,7,8,0.5,0.6
2024-04-14T1500,2259A,130.3794,46.7588,佳木斯市,四丰,臭氧1小时,70,44,55,28,34,176,,133,133,6,14,1,1,0.7,0.8
2024-04-14T1500,1252A,120.7436,30.778,嘉兴市,清河小学,,36,8,16,3,9,115,,77,77,12,16,7,7,0.6,0.7
2024-04-14T1500,1253A,120.726,30.7478,嘉兴市,嘉兴学院,,35,15,18,5,11,112,,76,76,15,18,6,5,0.4,0.4
2024-04-14T1500,2872A,120.7846,30.7525,嘉兴市,南湖区残联,,39,12,18,8,13,124,,88,88,9,14,6,6,0.5,0.5
2024-04-14T1500,3407A,120.6916,30.7739,嘉兴市,秀洲住建,,35,10,16,5,10,112,,78,78,8,12,4,5,0.7,0.6
2024-04-14T1500,1945A,98.2908,39.7711,嘉峪关市,气象局,颗粒物(PM10),187,324,347,66,67,118,,108,108,7,10,5,12,0.4,0.5
2024-04-14T1500,2884A,98.2672,39.7978,嘉峪关市,酒钢宾馆,颗粒物(PM10),194,337,361,66,74,120,,111,111,6,10,4,11,0.4,0.4
2024-04-14T1500,3248A,98.2643,39.7724,嘉峪关市,雄关区,颗粒物(PM10),148,245,261,61,54,116,,106,106,7,11,6,7,0.4,0.4
2024-04-14T1500,1383A,113.1064,22.6058,江门市,北街,,50,50,32,17,20,82,,65,65,5,11,6,7,0.4,0.5
2024-04-14T1500,1384A,113.0731,22.5835,江门市,西区,,27,21,33,17,19,85,,65,65,8,13,6,6,0.4,0.5
2024-04-14T1500,1385A,113.0219,22.5311,江门市,圭峰西,,34,34,31,15,18,80,,65,65,5,10,4,4,0.5,0.7
2024-04-14T1500,1386A,113.0828,22.5947,江门市,东湖,,29,29,32,19,15,84,,66,66,8,12,5,5,0.5,0.5
2024-04-14T1500,3311A,113.1075,22.5647,江门市,江海富民,,43,43,43,24,23,86,,65,65,8,15,6,7,0.4,0.5
2024-04-14T1500,3449A,113.05,22.4667,江门市,新会银湖,,35,35,29,18,18,79,,59,59,8,16,5,4,0.6,0.6
2024-04-14T1500,1828A,113.227,35.2125,焦作市,市环保局,,42,29,48,29,33,73,,58,58,13,13,2,2,0.7,0.6
2024-04-14T1500,1830A,113.1992,35.2590,焦作市,影视城,,,,,,,,,,,,,,,,
2024-04-14T1500,3169A,113.2725,35.2067,焦作市,太极体育中心,细颗粒物(PM2.5),52,44,57,36,42,73,,56,56,12,14,3,3,0.5,0.5
2024-04-14T1500,3335A,113.3137,35.2641,焦作市,马村街道办,细颗粒物(PM2.5),58,,56,41,47,68,,57,54,9,11,7,8,0.6,0.6
2024-04-14T1500,3336A,113.2465,35.2373,焦作市,焦作技师学院,,45,,53,31,40,68,,55,55,12,11,2,2,0.8,0.8
2024-04-14T1500,3477A,113.1656,35.2539,焦作市,中站许衡医院,细颗粒物(PM2.5),54,,41,38,32,68,,58,53,6,16,6,6,0.7,0.7
2024-04-14T1500,3981A,113.2449,35.1803,焦作市,原李万街道办,,39,27,50,27,32,76,,55,55,9,11,4,4,0.6,0.6
2024-04-14T1500,1708A,116.3701,23.5345,揭阳市,新兴,,38,38,74,19,33,101,,72,72,9,13,10,10,0.7,0.7
2024-04-14T1500,1709A,116.3264,23.5443,揭阳市,西马,,38,38,57,18,27,107,,76,76,4,7,8,9,0.7,0.8
2024-04-14T1500,1710A,116.3611,23.5626,揭阳市,东兴,,34,24,81,16,36,106,,72,72,4,11,9,11,0.7,0.7
2024-04-14T1500,1711A,116.4151,23.5294,揭阳市,渔湖,,,3,64,,31,101,,54,,5,12,8,8,0.8,0.8
2024-04-14T1500,3320A,116.403,23.5699,揭阳市,曲溪,,35,35,47,19,30,105,,71,71,5,11,5,7,0.6,0.6
2024-04-14T1500,1944A,102.1692,38.5167,金昌市,天庆家园,颗粒物(PM10),121,192,313,35,105,102,,107,107,4,9,7,10,0.3,0.3
2024-04-14T1500,3170A,102.1864,38.5253,金昌市,市委党校,颗粒物(PM10),163,276,801,61,171,110,,113,113,2,7,8,11,0.3,0.4
2024-04-14T1500,4022A,102.1647,38.5371,金昌市,金川区人防中心,颗粒物(PM10),144,238,734,39,117,114,,118,118,2,6,6,6,0.1,0.1
2024-04-14T1500,1262A,119.647,29.077,金华市,十五中,,30,13,38,11,30,93,,86,86,22,25,4,5,0.6,0.6
2024-04-14T1500,1263A,119.686,29.1029,金华市,监测站,,30,15,45,9,28,94,,83,83,15,26,2,2,0.5,0.5
2024-04-14T1500,3659A,119.656,29.1131,金华市,气象局,,28,14,40,4,20,88,,87,87,25,33,3,4,0.4,0.4
2024-04-14T1500,1767A,121.1115,41.0879,锦州市,南山,,43,,37,30,48,93,,60,60,13,18,12,11,0.4,0.4
2024-04-14T1500,1768A,121.0533,40.8434,锦州市,开发区,,41,41,27,25,30,88,,55,55,21,26,11,9,0.5,0.5
2024-04-14T1500,1769A,121.1836,41.1119,锦州市,百股街道,,30,30,25,19,22,90,,63,63,16,17,12,8,0.6,0.5
2024-04-14T1500,1770A,121.1178,41.1222,锦州市,天安街道,,,37,40,26,43,89,,61,61,14,18,,13,0.5,0.5
2024-04-14T1500,1771A,121.1303,41.1386,锦州市,北湖公园,,38,35,37,26,43,80,,53,53,10,15,12,13,0.6,0.6
2024-04-14T1500,2160A,112.85,35.5051,晋城市,自来水公司,,41,,40,12,24,129,,102,102,10,59,4,5,0.7,0.7
2024-04-14T1500,2161A,112.8318,35.4936,晋城市,白云商贸,,40,14,44,2,26,126,,98,98,13,14,5,5,0.6,0.7
2024-04-14T1500,2162A,112.8508,35.4887,晋城市,市环保局,,41,28,46,12,22,129,,98,98,13,14,6,5,0.8,0.7
2024-04-14T1500,2163A,112.8676,35.4897,晋城市,技术学院,,,28,44,9,19,133,,98,98,,9,,5,1.0,0.8
2024-04-14T1500,2165A,112.8453,35.546,晋城市,白马寺,,,,,,,,,,,,,,,,
2024-04-14T1500,3620A,112.8271,35.4828,晋城市,泽州一中,,40,25,40,2,20,128,,100,100,11,12,7,7,0.8,0.8
2024-04-14T1500,2171A,112.7532,37.6945,晋中市,锦纶小区,颗粒物(PM10),57,63,54,27,24,130,,98,94,14,17,12,11,0.4,0.5
2024-04-14T1500,2173A,112.7249,37.7067,晋中市,南都小区,,41,38,56,27,31,131,,97,94,13,16,8,7,0.6,0.5
2024-04-14T1500,2174A,112.6991,37.6982,晋中市,榆次区政府,颗粒物(PM10),53,56,52,26,29,137,,98,98,12,16,13,11,0.4,0.5
2024-04-14T1500,2865A,112.7195,37.6828,晋中市,榆次三中,颗粒物(PM10),56,61,52,24,20,134,,98,98,12,16,13,10,0.6,0.6
2024-04-14T1500,2439A,112.2014,31.0481,荆门市,竹园小学,颗粒物(PM10),53,56,76,32,58,127,,84,84,9,21,8,10,0.7,0.9
2024-04-14T1500,2440A,112.1969,30.9891,荆门市,掇刀,细颗粒物(PM2.5),69,50,71,50,61,133,,96,96,8,18,11,11,0.8,0.8
2024-04-14T1500,2441A,112.2213,31.0386,荆门市,石化一小,颗粒物(PM10),58,66,81,37,58,134,,91,91,9,23,18,16,0.8,0.9
2024-04-14T1500,3012A,112.1849,31.0362,荆门市,西山林语,颗粒物(PM10),53,56,71,32,51,134,,89,89,10,17,9,9,0.7,0.9
2024-04-14T1500,3547A,112.1632,31.0138,荆门市,龙泉中学南校,,48,48,52,31,30,135,,92,92,2,16,9,10,0.9,1
2024-04-14T1500,1844A,112.2494,30.3197,荆州市,市图书馆,,49,35,42,27,27,154,,85,85,15,24,9,6,0.8,1.1
2024-04-14T1500,1845A,112.2008,30.3544,荆州市,市委党校,,41,27,52,25,32,130,,78,78,9,23,6,6,0.6,0.9
2024-04-14T1500,3194A,112.2747,30.3122,荆州市,管委会,细颗粒物(PM2.5),64,,55,46,34,160,,90,90,16,21,11,9,0.8,1
2024-04-14T1500,3548A,112.1655,30.3364,荆州市,学苑路,细颗粒物(PM2.5),67,,48,48,52,170,,93,93,12,25,6,6,0.7,0.8
2024-04-14T1500,2342A,117.3102,29.3867,景德镇市,王港中学,,,,,,,,,,,,,,,,
2024-04-14T1500,2343A,117.2117,29.2933,景德镇市,老干部活动中心,,25,18,15,14,12,77,,64,64,12,11,6,3,0.4,0.4
2024-04-14T1500,2344A,117.1894,29.2789,景德镇市,兽医站,,26,,19,14,10,82,,68,68,11,10,12,7,0.7,0.7
2024-04-14T1500,2345A,117.1547,29.2617,景德镇市,台达陶瓷,,23,21,14,16,13,72,,59,59,27,17,28,20,0.7,0.6
2024-04-14T1500,2346A,117.2461,29.2956,景德镇市,陶研所,,25,14,14,10,9,78,,68,68,4,9,7,6,0.3,0.4
2024-04-14T1500,1803A,115.9872,29.6815,九江市,十里,,23,22,28,16,20,62,,72,50,23,21,10,13,1.0,0.9
2024-04-14T1500,1804A,115.9584,29.7046,九江市,茅山头,,28,28,25,13,22,71,,71,57,22,25,9,9,1.0,1
2024-04-14T1500,1805A,115.9877,29.7295,九江市,西园,,29,26,28,20,24,42,,62,45,31,23,15,15,0.9,0.9
2024-04-14T1500,1806A,116.0172,29.6547,九江市,五七二七厂,,26,,21,18,15,55,,64,45,15,15,9,9,0.9,0.8
2024-04-14T1500,1808A,115.9114,29.6038,九江市,综合工业园,,22,,25,15,18,57,,50,45,26,36,9,9,1.0,0.9
2024-04-14T1500,1809A,116.0721,29.7535,九江市,石化总厂,,33,33,37,17,22,69,,71,66,21,25,15,13,1.0,1.1
2024-04-14T1500,1810A,115.9773,29.5698,九江市,庐山气象台,,34,34,18,14,17,81,,92,86,5,4,11,7,0.6,0.8
2024-04-14T1500,3190A,116.0254,29.6994,九江市,外国语学校,,31,31,28,14,18,64,,74,56,22,26,13,8,1.0,1
2024-04-14T1500,2658A,98.5061,39.7443,酒泉市,仓门街子站,颗粒物(PM10),191,332,445,54,67,105,,94,94,4,9,7,9,0.2,0.2
2024-04-14T1500,2659A,98.4989,39.7256,酒泉市,油田生活基地,颗粒物(PM10),196,342,451,54,68,110,,91,91,3,9,9,11,0.2,0.2
2024-04-14T1500,2698A,76.0072,39.4467,喀什地区,巡警大队,颗粒物(PM10),419,519,311,141,77,101,,70,70,7,38,2,3,0.3,0.5
2024-04-14T1500,2699A,75.9755,39.4694,喀什地区,吾办,颗粒物(PM10),461,561,304,222,125,97,,71,71,11,37,3,4,0.3,0.5
2024-04-14T1500,4027A,75.9483,39.4689,喀什地区,老干局,颗粒物(PM10),468,568,349,141,85,103,,76,76,8,29,4,4,0.4,0.6
2024-04-14T1500,1824A,114.3389,34.7781,开封市,肿瘤医院,,29,23,43,12,24,92,,52,52,5,10,2,2,0.4,0.5
2024-04-14T1500,1826A,114.2885,34.7965,开封市,世纪星幼儿园,,27,27,39,6,22,86,,52,50,7,11,3,3,0.4,0.5
2024-04-14T1500,3147A,114.3438,34.8106,开封市,龙亭公园,,30,20,44,6,22,95,,53,53,4,12,3,3,0.4,0.5
2024-04-14T1500,3210A,114.3644,34.7964,开封市,汴京公园,,29,27,48,14,35,90,,49,49,7,13,7,5,0.5,0.7
2024-04-14T1500,3473A,114.2485,34.8306,开封市,技师学院,,29,28,45,17,39,91,,57,53,8,13,4,4,0.5,0.6
2024-04-14T1500,3592A,114.4644,34.7556,开封市,祥符区生态环境局,,25,10,40,9,25,77,,44,44,13,17,4,4,0.5,0.5
2024-04-14T1500,1951A,84.895,45.6094,克拉玛依市,长征新村,颗粒物(PM10),193,336,444,34,55,89,,65,65,9,14,8,7,0.3,0.2
2024-04-14T1500,1952A,84.8988,45.5893,克拉玛依市,南林小区,颗粒物(PM10),195,340,451,36,60,94,,66,66,7,18,7,6,0.4,0.5
2024-04-14T1500,1954A,84.905,44.3396,克拉玛依市,独山子区,颗粒物(PM10),197,344,413,64,69,99,,71,71,8,13,11,9,0.4,0.4
2024-04-14T1500,1955A,85.6979,46.098,克拉玛依市,乌尔禾区商贸楼,颗粒物(PM10),102,154,172,42,21,100,,70,70,2,12,8,8,0.4,0.4
2024-04-14T1500,3612A,85.1045,45.6899,克拉玛依市,白碱滩区新站,颗粒物(PM10),186,322,396,60,73,97,,69,69,3,8,9,9,0.2,0.1
2024-04-14T1500,2697A,76.1454,39.7142,克孜勒苏柯尔克孜自治州,市人民政府,颗粒物(PM10),169,288,214,117,84,106,,78,78,1,12,6,7,0.3,0.3
2024-04-14T1500,3665A,76.1658,39.7157,克孜勒苏柯尔克孜自治州,克州文化中心,颗粒物(PM10),298,418,240,118,87,107,,88,88,3,11,7,8,0.3,0.3
2024-04-14T1500,1450A,102.8204,24.8886,昆明市,呈贡新区,臭氧1小时,59,19,46,13,31,167,,136,136,7,14,5,6,0.5,0.7
2024-04-14T1500,1451A,102.6251,24.9608,昆明市,西山森林公园,,,,,,,,,,,,,,,,
2024-04-14T1500,1452A,102.7252,25.0902,昆明市,龙泉镇,,48,,36,19,20,152,,131,131,9,14,6,6,0.6,0.6
2024-04-14T1500,1453A,102.7266,25.0375,昆明市,东风东路,,48,32,39,25,27,151,,132,132,11,13,6,8,0.5,0.6
2024-04-14T1500,1454A,102.6742,25.0669,昆明市,金鼎山,,50,34,35,14,23,158,,138,138,10,10,12,13,0.6,0.6
2024-04-14T1500,1455A,102.6644,25.0401,昆明市,碧鸡广场,,,22,36,17,25,152,,127,127,,14,8,9,0.5,0.6
2024-04-14T1500,3179A,102.7494,25.0119,昆明市,官渡区博物馆,臭氧1小时,52,27,39,17,23,161,,140,140,8,12,9,10,0.5,0.7
2024-04-14T1500,3375A,102.8017,24.8336,昆明市,青年创业园,臭氧1小时,60,25,41,18,26,168,,138,138,6,11,9,9,0.3,0.5
2024-04-14T1500,3550A,102.7997,24.9786,昆明市,昆明学院,臭氧1小时,57,29,42,18,25,165,,142,142,8,10,10,10,0.5,0.6
2024-04-14T1500,3551A,102.5967,24.6736,昆明市,晋宁区生态环境分局,细颗粒物(PM2.5),79,82,72,58,49,154,,132,132,12,12,4,4,0.8,0.7
2024-04-14T1500,3552A,102.6678,24.9856,昆明市,云天化总部,臭氧1小时,55,23,38,14,24,164,,145,145,6,10,6,7,0.4,0.5
2024-04-14T1500,1456A,91.1319,29.6514,拉萨市,八廓街,,48,19,19,14,12,152,,114,114,6,11,7,7,0.2,0.2
2024-04-14T1500,1457A,91.1221,29.6747,拉萨市,市环保局,,48,12,21,8,11,151,,113,113,9,16,4,6,0.2,0.2
2024-04-14T1500,1458A,91.0874,29.6475,拉萨市,区监测站,,48,11,16,9,11,151,,112,112,6,15,5,5,0.1,0.2
2024-04-14T1500,1459A,91.1774,29.6541,拉萨市,西藏大学,,48,11,17,7,9,152,,121,121,5,6,2,4,0.1,0.1
2024-04-14T1500,1460A,90.9798,29.6588,拉萨市,区辐射站,,45,12,24,8,11,144,,106,106,10,16,6,6,0.3,0.3
2024-04-14T1500,1461A,91.0834,29.6292,拉萨市,拉萨火车站,,46,13,18,8,9,147,,113,105,8,12,3,4,0.3,0.4
2024-04-14T1500,2520A,109.2203,23.7256,来宾市,来宾技工学校,,47,47,47,32,28,92,,62,62,5,8,8,10,0.7,0.7
2024-04-14T1500,3535A,109.1781,23.7297,来宾市,兴宾区政府,,48,42,42,33,27,93,,66,66,9,9,5,5,0.6,0.6
2024-04-14T1500,4002A,109.2416,23.7461,来宾市,中南小学,,,64,52,32,30,95,,61,61,,10,10,10,0.6,0.7
2024-04-14T1500,1476A,103.631,36.1031,兰州市,兰炼宾馆,颗粒物(PM10),168,285,353,123,133,126,,75,75,9,32,13,18,0.5,0.5
2024-04-14T1500,1477A,104.1373,35.9454,兰州市,榆中兰大校区,,,,,,,,,,,,,,,,
2024-04-14T1500,1478A,103.8412,36.0726,兰州市,生物制品所,颗粒物(PM10),493,593,519,150,135,104,,56,56,18,45,16,16,0.4,0.5
2024-04-14T1500,1479A,103.831,36.0464,兰州市,铁路设计院,颗粒物(PM10),312,429,392,124,112,102,,61,61,22,55,16,15,0.3,0.5
2024-04-14T1500,3186A,103.7158,36.1058,兰州市,教育港,颗粒物(PM10),453,553,571,123,135,116,,66,66,16,32,17,17,0.5,0.5
2024-04-14T1500,3241A,103.7439,36.0842,兰州市,百合公园,颗粒物(PM10),334,447,359,130,93,104,,60,60,25,49,16,11,0.4,0.6
2024-04-14T1500,3242A,103.9611,35.998,兰州市,和平,颗粒物(PM10),412,512,297,163,92,114,,72,72,14,22,16,14,0.3,0.4
2024-04-14T1500,3245A,103.6633,36.533,兰州新区,新区管委会,颗粒物(PM10),500,629,696,186,200,105,,72,72,4,17,13,11,0.4,0.4
2024-04-14T1500,3246A,103.6975,36.4789,兰州新区,舟曲中学,颗粒物(PM10),500,796,784,216,205,104,,68,68,7,17,29,16,0.6,0.4
2024-04-14T1500,1067A,116.6708,39.5111,廊坊市,药材公司,颗粒物(PM10),54,58,71,34,43,84,,68,68,21,24,1,2,0.5,0.5
2024-04-14T1500,1068A,116.7214,39.5589,廊坊市,开发区,颗粒物(PM10),60,70,80,31,39,66,,65,65,28,28,2,2,0.5,0.5
2024-04-14T1500,1070A,116.7244,39.5269,廊坊市,北华航天学院,"颗粒物(PM10),细颗粒物(PM2.5)",59,67,82,42,49,69,,68,68,22,22,2,2,0.5,0.5
2024-04-14T1500,2919A,116.7022,39.5453,廊坊市,河北工业大学,颗粒物(PM10),56,62,82,37,44,72,,68,68,29,29,3,3,0.5,0.5
2024-04-14T1500,2535A,103.7723,29.5462,乐山市,花湖湾,臭氧1小时,52,26,53,25,43,161,,102,102,6,22,3,5,0.6,0.8
2024-04-14T1500,2536A,103.7627,29.5844,乐山市,牛耳桥,臭氧1小时,55,39,61,23,45,164,,101,101,11,32,5,6,0.5,0.7
2024-04-14T1500,2537A,103.7508,29.6006,乐山市,市第三水厂,臭氧1小时,73,40,61,24,45,178,,107,107,11,37,4,6,0.6,0.9
2024-04-14T1500,2538A,103.7571,29.5664,乐山市,市监测站,臭氧1小时,59,37,58,37,40,167,,107,107,7,23,6,8,0.5,0.7
2024-04-14T1500,3361A,103.7311,29.5628,乐山市,理工大学,,,,60,,43,,,105,,,24,,10,,0.8
2024-04-14T1500,2598A,100.2143,26.8576,丽江市,西南郊,,,,,,,,,,,,,,,,
2024-04-14T1500,2599A,100.2497,26.8802,丽江市,丽江古城,,40,35,45,20,29,125,,117,113,11,12,8,8,0.6,0.6
2024-04-14T1500,2600A,100.2203,26.8906,丽江市,市中心,,39,28,36,16,21,123,,107,104,9,11,8,8,0.5,0.6
2024-04-14T1500,1267A,119.914,28.4514,丽水市,监测站大楼,,28,18,17,10,10,87,,65,65,14,13,3,2,0.6,0.5
2024-04-14T1500,1268A,119.93,28.4586,丽水市,莲都小学,,30,10,20,8,11,93,,64,64,11,16,2,2,0.4,0.4
2024-04-14T1500,1269A,119.879,28.4231,丽水市,余庄前,,25,16,20,7,11,77,,56,56,14,12,4,4,0.6,0.5
2024-04-14T1500,1173A,119.176,34.5885,连云港市,市环境监测站,,18,14,18,12,16,37,,75,59,23,10,6,7,0.3,0.2
2024-04-14T1500,3000A,119.3581,34.6972,连云港市,德源药业,,18,9,19,7,13,55,,77,72,18,6,5,5,0.4,0.4
2024-04-14T1500,3007A,119.178,34.844,连云港市,新城一中,,26,19,26,5,10,83,,82,82,16,15,6,6,0.4,0.4
2024-04-14T1500,3008A,119.3608,34.7519,连云港市,胡沟管理处,,24,14,20,12,13,32,,74,68,47,17,7,8,0.5,0.5
2024-04-14T1500,3009A,119.1478,34.5911,连云港市,矿山设计院,,18,14,18,12,11,32,,74,57,25,8,6,6,0.6,0.5
2024-04-14T1500,3434A,119.2413,34.6539,连云港市,工贸学校,,15,8,14,7,9,48,,88,70,13,5,6,6,0.4,0.4
2024-04-14T1500,3664A,119.4172,34.7341,连云港市,连云街道,,20,13,17,9,10,47,,87,76,39,14,2,2,0.4,0.4
2024-04-14T1500,2571A,102.3431,27.8099,凉山彝族自治州,青龙寺,,49,30,33,7,6,154,,126,126,4,6,7,6,0.6,0.6
2024-04-14T1500,2572A,102.2721,27.8415,凉山彝族自治州,邛海宾馆,,50,36,36,22,24,158,,120,120,7,17,14,13,0.5,0.5
2024-04-14T1500,2573A,102.2625,27.898,凉山彝族自治州,西昌市政府,,49,44,40,28,26,155,,115,115,9,13,15,12,0.7,0.7
2024-04-14T1500,2574A,102.2685,27.8851,凉山彝族自治州,凉山州政府,,48,41,46,25,29,152,,114,114,7,14,16,13,0.6,0.6
2024-04-14T1500,2575A,102.237,27.8914,凉山彝族自治州,长安,臭氧1小时,57,44,45,25,26,165,,103,103,9,21,17,16,0.7,0.9
2024-04-14T1500,2212A,123.2,41.1953,辽阳市,宏伟区,,33,33,19,12,12,100,,92,92,8,8,10,10,0.5,0.5
2024-04-14T1500,2213A,123.1683,41.2495,辽阳市,新华园,,33,33,23,16,13,103,,95,95,13,10,8,8,0.4,0.4
2024-04-14T1500,2214A,123.2354,41.2639,辽阳市,滨河路,,31,28,22,11,14,98,,91,91,9,8,8,8,0.5,0.5
2024-04-14T1500,2215A,123.149,41.2991,辽阳市,铁西工业园,颗粒物(PM10),51,51,28,24,15,113,,100,100,18,11,15,11,0.8,0.6
2024-04-14T1500,2227A,125.1358,42.8845,辽源市,环保局,,38,16,26,6,19,119,,108,108,5,14,6,7,0.5,0.6
2024-04-14T1500,3239A,125.0764,42.9078,辽源市,银鹰制药,,38,27,33,15,20,119,,108,108,11,21,8,9,0.6,0.7
2024-04-14T1500,1625A,115.9848,36.4372,聊城市,区政府,,20,19,37,14,17,56,,70,70,16,16,4,6,0.7,0.6
2024-04-14T1500,2878A,116.0072,36.4343,聊城市,聊大东校,,,,34,,22,,,124,,,18,,7,,0.6
2024-04-14T1500,3200A,115.9819,36.4978,聊城市,监控中心,,25,25,35,7,13,60,,77,77,16,11,5,6,0.7,0.6
2024-04-14T1500,3513A,116.0445,36.4361,聊城市,九州社区,,34,34,48,14,17,57,,72,72,15,13,2,8,0.7,0.6
2024-04-14T1500,4018A,116.0567,36.4608,聊城市,星美广场,,39,37,46,27,22,58,,74,74,16,17,4,5,0.6,0.6
2024-04-14T1500,2632A,94.3681,29.6376,林芝市,林芝监测站,,42,10,17,8,12,133,,96,96,2,3,5,5,0.2,0.3
2024-04-14T1500,2633A,94.3616,29.6616,林芝市,林芝人民医院,,42,14,20,8,14,133,,95,95,6,6,6,6,0.3,0.3
2024-04-14T1500,2603A,100.0781,23.8982,临沧市,市环保局,细颗粒物(PM2.5),53,42,47,37,43,141,,103,103,7,14,5,10,0.5,0.6
2024-04-14T1500,2604A,100.0894,23.8822,临沧市,市气象局,,,,,,,,,,,,,,,,
2024-04-14T1500,1733A,111.5531,36.0783,临汾市,临钢医院,颗粒物(PM10),55,60,57,23,20,127,,93,93,7,10,7,6,0.9,0.7
2024-04-14T1500,1734A,111.5028,36.0714,临汾市,技工学校,颗粒物(PM10),56,61,57,25,31,130,,95,95,9,14,9,8,0.7,0.7
2024-04-14T1500,1736A,111.5018,36.0855,临汾市,市委,颗粒物(PM10),60,69,60,26,23,128,,92,92,4,10,7,7,0.8,0.8
2024-04-14T1500,3018A,111.505,36.1014,临汾市,唐尧大酒店,颗粒物(PM10),57,64,66,24,22,123,,92,92,5,11,8,8,0.6,0.7
2024-04-14T1500,3668A,111.5036,36.0414,临汾市,城南,,49,48,48,34,33,129,,93,93,6,11,7,7,0.8,0.7
2024-04-14T1500,2667A,103.2069,35.5993,临夏回族自治州,环保局,颗粒物(PM10),179,308,169,69,49,105,,66,66,4,20,7,6,0.2,0.5
2024-04-14T1500,2668A,103.2417,35.6057,临夏回族自治州,建设大厦,颗粒物(PM10),177,303,165,64,48,109,,73,73,8,16,9,8,0.2,0.4
2024-04-14T1500,1618A,118.3429,35.0532,临沂市,沂河小区,,19,19,26,13,14,53,,62,57,18,11,5,4,0.4,0.2
2024-04-14T1500,1619A,118.295,35.0583,临沂市,鲁南制药厂,,19,12,21,9,12,58,,71,62,22,12,4,4,0.5,0.3
2024-04-14T1500,1620A,118.2794,34.9976,临沂市,新光毛纺厂,,19,,16,9,14,58,,67,62,24,17,3,3,0.6,0.5
2024-04-14T1500,1621A,118.3956,35.0888,临沂市,河东保险公司,,19,17,21,13,14,41,,58,55,19,8,3,3,0.6,0.1
2024-04-14T1500,3370A,118.3564,35.0215,临沂市,十里堡居委,,17,12,15,9,13,54,,64,59,19,12,3,3,0.6,0.4
2024-04-14T1500,3496A,118.3604,35.1084,临沂市,南坊新区,,19,19,24,12,12,44,,62,59,25,13,5,5,1.0,0.3
2024-04-14T1500,3860A,118.3920,35.0300,临沂市,皇山花园小区,,23,17,21,16,21,50,,65,60,26,16,6,6,0.5,0.3
2024-04-14T1500,1870A,109.4856,24.3895,柳州市,柳东小学,细颗粒物(PM2.5),53,50,44,37,30,88,,56,56,8,12,6,7,0.5,0.6
2024-04-14T1500,1871A,109.4157,24.3277,柳州市,环保监测站,,,52,46,37,31,94,,60,60,,10,6,6,0.8,0.8
2024-04-14T1500,1872A,109.389,24.341,柳州市,河西水厂,颗粒物(PM10),52,54,46,34,28,95,,66,66,6,9,2,2,0.5,0.6
2024-04-14T1500,1873A,109.4311,24.2921,柳州市,市四中,颗粒物(PM10),52,54,47,29,29,96,,63,63,6,12,5,5,0.5,0.6
2024-04-14T1500,1874A,109.4006,24.3631,柳州市,市九中,颗粒物(PM10),52,54,51,28,28,93,,60,60,10,15,6,6,0.5,0.6
2024-04-14T1500,1875A,109.4958,24.3134,柳州市,古亭山,颗粒物(PM10),53,56,46,30,28,91,,58,58,6,11,5,5,0.5,0.5
2024-04-14T1500,3402A,109.5422,24.3996,柳州市,市二中,,45,44,44,31,29,90,,57,57,9,15,9,8,0.7,0.7
2024-04-14T1500,2307A,116.5079,31.737,六安市,监测大楼,,42,,41,29,55,110,,78,78,9,16,5,5,0.7,0.6
2024-04-14T1500,2308A,116.4738,31.7643,六安市,皖西学院,,36,31,48,25,46,108,,79,79,8,15,4,5,0.7,0.7
2024-04-14T1500,2309A,116.4996,31.7905,六安市,朝阳厂,,32,31,42,21,48,101,,73,73,5,13,5,6,0.5,0.5
2024-04-14T1500,2310A,116.5567,31.7886,六安市,开发区,,34,34,47,21,33,103,,76,76,14,19,5,7,0.7,0.7
2024-04-14T1500,2576A,104.8,26.5892,六盘水市,窑上,,,,,,,,,,,,,,,,
2024-04-14T1500,2577A,104.83,26.5917,六盘水市,黄土坡,臭氧1小时,54,46,43,23,27,163,,118,118,10,19,10,10,0.5,0.7
2024-04-14T1500,2578A,104.89,26.5939,六盘水市,水钢,臭氧1小时,62,34,56,26,32,169,,134,134,5,23,13,15,0.4,1
2024-04-14T1500,2579A,104.8475,26.5894,六盘水市,民中,臭氧1小时,55,41,45,24,29,164,,119,119,8,23,9,11,0.4,0.6
2024-04-14T1500,2580A,104.9544,26.5506,六盘水市,双水,臭氧1小时,58,56,57,24,30,166,,127,127,8,19,9,7,0.6,0.7
2024-04-14T1500,2335A,117.0189,25.1181,龙岩市,龙岩师专,,,,,,,,,,,,,,,,
2024-04-14T1500,2336A,117.0217,25.1033,龙岩市,龙岩市监测站,,32,32,45,22,38,76,,65,65,6,12,4,5,0.5,0.6
2024-04-14T1500,2337A,117.0258,25.0661,龙岩市,闽西职业技术学院,,33,33,49,19,39,70,,59,59,5,12,3,6,0.4,0.6
2024-04-14T1500,2338A,117.0196,25.0306,龙岩市,龙岩学院,,38,38,44,20,33,75,,65,65,3,7,5,3,0.5,0.6
2024-04-14T1500,2665A,105.0822,33.3261,陇南市,汉王镇固水子,,,,,,,,,,,,,,,,
2024-04-14T1500,2885A,104.9339,33.3826,陇南市,滨江中学,颗粒物(PM10),61,71,64,18,22,123,,75,75,6,17,9,16,0.5,0.7
2024-04-14T1500,3247A,104.955,33.371,陇南市,市总工会,颗粒物(PM10),55,60,48,17,13,111,,70,70,8,13,6,8,0.3,0.4
2024-04-14T1500,2487A,111.9589,27.8901,娄底市,电视发射台,,48,48,44,31,27,88,,50,50,8,5,7,5,1.4,1.2
2024-04-14T1500,2488A,111.9975,27.725,娄底市,市监测站,颗粒物(PM10),59,68,65,41,36,91,,29,29,12,18,9,8,1.3,1.1
2024-04-14T1500,2489A,112.0194,27.7314,娄底市,市委党校,细颗粒物(PM2.5),64,56,47,46,34,81,,26,26,15,16,8,6,1.2,1.1
2024-04-14T1500,2490A,111.9561,27.7569,娄底市,涟钢,细颗粒物(PM2.5),73,83,64,53,38,58,,19,19,49,25,35,15,2.3,1.4
2024-04-14T1500,2491A,111.9892,27.7044,娄底市,市政府,颗粒物(PM10),61,72,49,37,37,93,,32,32,16,20,8,7,0.9,1
2024-04-14T1500,1893A,105.4324,28.9634,泸州市,九狮山,臭氧1小时,94,57,70,30,43,195,,105,105,12,15,6,6,0.4,0.5
2024-04-14T1500,1894A,105.4427,28.9063,泸州市,小市上码头,臭氧1小时,72,40,80,33,54,177,,101,101,10,21,7,7,0.4,0.6
2024-04-14T1500,1895A,105.4241,28.8573,泸州市,兰田宪桥,臭氧1小时,60,32,78,32,54,168,,95,95,5,20,5,6,0.4,0.7
2024-04-14T1500,1896A,105.4379,28.8833,泸州市,市环监站,,49,28,74,22,58,156,,100,100,6,18,9,10,0.5,0.7
2024-04-14T1500,3490A,105.3617,28.7703,泸州市,纳溪区环保局,臭氧1小时,64,36,76,29,54,171,,99,99,6,29,5,6,0.3,0.6
2024-04-14T1500,2183A,111.1406,37.5211,吕梁市,环保局,颗粒物(PM10),94,137,48,41,17,106,,90,90,16,12,10,10,0.4,0.4
2024-04-14T1500,2185A,111.1297,37.5136,吕梁市,自来水公司,颗粒物(PM10),87,123,44,44,17,100,,84,84,16,14,8,8,0.4,0.4
2024-04-14T1500,2867A,111.1283,37.51,吕梁市,马茂庄小学,颗粒物(PM10),97,144,51,48,18,104,,84,84,16,17,8,7,0.3,0.3
2024-04-14T1500,1812A,112.3931,34.6516,洛阳市,市委党校,,40,34,42,22,35,128,,76,76,9,10,1,2,0.7,0.7
2024-04-14T1500,1814A,112.4657,34.6871,洛阳市,豫西宾馆,,41,39,49,18,30,130,,77,77,12,16,4,3,0.6,0.7
2024-04-14T1500,1815A,112.494,34.6886,洛阳市,河南林校,,39,29,36,17,32,123,,70,70,12,18,4,3,0.6,0.6
2024-04-14T1500,1816A,112.3844,34.623,洛阳市,开发区管委会,,42,35,50,18,37,133,,81,81,11,10,4,2,0.5,0.5
2024-04-14T1500,1817A,112.4267,34.6258,洛阳市,市委新办公区,,40,23,46,20,31,126,,77,77,8,8,5,4,0.5,0.6
2024-04-14T1500,3340A,112.6005,34.6326,洛阳市,伊滨,,40,26,40,22,36,126,,72,72,8,12,5,5,0.5,0.6
2024-04-14T1500,3341A,112.4951,34.6332,洛阳市,中移产业园,,39,27,40,18,29,123,,72,72,3,8,4,4,0.7,0.7
2024-04-14T1500,3593A,112.5736,34.8993,洛阳市,吉利监测站,,40,31,52,11,28,125,,72,72,9,14,3,3,0.9,0.9
2024-04-14T1500,3635A,112.3677,34.662,洛阳市,河科大西苑校区,,40,36,39,17,21,125,,77,77,7,9,2,2,0.5,0.5
2024-04-14T1500,3636A,112.4388,34.6781,洛阳市,英才小学,,38,36,46,21,27,121,,71,71,8,11,4,4,0.6,0.6
2024-04-14T1500,2399A,114.051,33.5699,漯河市,三五一五工厂,,32,27,70,22,37,69,,48,44,4,9,2,3,0.6,0.6
2024-04-14T1500,2400A,114.0055,33.5698,漯河市,漯河大学,,49,40,70,34,53,63,,44,38,11,15,7,8,0.6,0.6
2024-04-14T1500,2401A,114.0138,33.5828,漯河市,市水利局,,45,,66,31,51,70,,51,46,9,11,5,6,0.5,0.5
2024-04-14T1500,2402A,114.0261,33.5698,漯河市,市广电局,,40,32,72,28,41,77,,57,52,9,13,3,4,0.8,0.8
2024-04-14T1500,3478A,113.9749,33.5664,漯河市,市图书馆,,27,27,64,9,42,81,,56,50,9,13,11,13,0.8,0.8
2024-04-14T1500,3479A,114.0967,33.5906,漯河市,召陵区卫健委,,26,,65,18,48,63,,43,43,8,14,3,5,0.7,0.7
2024-04-14T1500,1798A,118.5092,31.6837,马鞍山市,湖东路四小,,38,38,31,18,20,102,,70,70,18,19,9,8,0.8,0.7
2024-04-14T1500,1799A,118.5024,31.6449,马鞍山市,开发区,,34,34,35,20,21,106,,70,70,18,24,6,6,0.9,0.8
2024-04-14T1500,1800A,118.5228,31.7231,马鞍山市,慈湖,,48,48,43,21,20,84,,62,62,34,22,20,10,1.9,0.8
2024-04-14T1500,1802A,118.6245,31.7241,马鞍山市,濮塘,,33,28,28,17,20,104,,69,69,13,13,5,4,0.9,0.8
2024-04-14T1500,3633A,118.4918,31.6809,马鞍山市,雨山,,36,36,27,16,17,102,,69,69,15,19,8,5,0.9,0.8
2024-04-14T1500,1686A,111.0286,21.4688,茂名市,电白南海,,36,36,35,19,22,68,,64,64,10,8,7,7,0.5,0.5
2024-04-14T1500,1687A,110.9294,21.6533,茂名市,茂石化七小,,35,31,35,24,25,73,,67,67,7,9,8,7,0.7,0.8
2024-04-14T1500,1688A,110.9107,21.6687,茂名市,健康路,,29,29,30,14,17,71,,63,63,6,8,7,6,0.5,0.6
2024-04-14T1500,1689A,110.8592,21.6828,茂名市,高岭,,46,46,43,19,21,72,,66,66,6,9,4,6,0.7,0.7
2024-04-14T1500,3450A,111.01,21.5165,茂名市,电白水东,,31,31,28,17,18,54,,54,54,13,13,4,4,0.6,0.6
2024-04-14T1500,2539A,104.0308,30.0478,眉山市,黑龙滩水库,臭氧1小时,70,31,41,26,27,176,,122,122,3,8,7,7,0.5,0.5
2024-04-14T1500,2540A,103.8416,30.0874,眉山市,气象局,,,43,68,19,44,168,,89,89,10,42,,10,,0.5
2024-04-14T1500,3137A,103.8578,30.0744,眉山市,市委党校,臭氧1小时,54,44,76,27,44,163,,96,96,11,42,10,11,0.4,0.6
2024-04-14T1500,3148A,103.8291,30.0564,眉山市,区人社局,臭氧1小时,63,32,65,29,53,170,,98,98,13,45,12,12,0.4,0.6
2024-04-14T1500,1690A,116.1231,24.3284,梅州市,梅江月梅,,39,39,49,26,38,78,,67,67,7,13,4,6,0.6,0.6
2024-04-14T1500,1691A,116.0797,24.2719,梅州市,梅县新城,,30,30,49,21,34,81,,62,62,9,15,4,4,0.5,0.6
2024-04-14T1500,1692A,116.1248,24.2654,梅州市,环境监控中心,,33,33,51,20,34,75,,55,55,11,23,3,3,0.6,0.7
2024-04-14T1500,3315A,116.1233,24.2991,梅州市,梅龙,,36,36,50,24,39,72,,63,63,7,12,9,13,0.6,0.7
2024-04-14T1500,1878A,104.7778,31.4741,绵阳市,富乐山,臭氧1小时,74,47,47,30,33,179,,107,107,8,20,10,8,0.5,0.6
2024-04-14T1500,1879A,104.7563,31.4535,绵阳市,市人大,颗粒物(PM10),63,76,68,28,33,167,,96,96,16,43,12,8,0.5,0.6
2024-04-14T1500,1880A,104.6697,31.4668,绵阳市,高新区自来水公司,臭氧1小时,69,51,70,27,36,175,,97,97,10,45,10,9,0.3,0.5
2024-04-14T1500,1881A,104.7287,31.5075,绵阳市,三水厂,,,,67,38,44,176,,79,79,9,45,,7,0.6,0.8
2024-04-14T1500,3491A,104.69,31.5322,绵阳市,西科大附属小学,臭氧1小时,64,49,58,29,33,171,,89,89,11,35,9,11,0.6,0.7
2024-04-14T1500,3492A,104.5648,31.5343,绵阳市,安州区旅游局,臭氧1小时,54,38,62,33,38,163,,89,89,8,23,7,7,0.6,0.7
2024-04-14T1500,1784A,129.61,44.561,牡丹江市,环保大楼,,46,32,62,17,44,147,,108,108,17,28,9,8,0.5,0.7
2024-04-14T1500,1785A,129.6115,44.5782,牡丹江市,文化广场,细颗粒物(PM2.5),58,,74,41,54,141,,100,100,18,34,11,11,0.6,0.9
2024-04-14T1500,1786A,129.5904,44.5963,牡丹江市,第一医院,颗粒物(PM10),53,55,78,31,54,141,,100,100,17,29,10,11,0.4,0.7
2024-04-14T1500,1787A,129.6364,44.6075,牡丹江市,机车工厂,颗粒物(PM10),55,59,82,13,44,145,,101,101,13,30,9,11,0.4,0.7
2024-04-14T1500,1788A,129.6386,44.5462,牡丹江市,第一中学,,45,42,50,9,24,141,,105,105,19,26,11,10,0.7,0.7
2024-04-14T1500,2531A,105.0703,29.61,内江市,市监测站,,45,39,44,22,41,143,,86,86,14,22,8,8,0.2,0.4
2024-04-14T1500,2532A,105.0717,29.5947,内江市,东兴区政府,,45,35,52,19,31,143,,92,92,8,16,8,9,0.3,0.5
2024-04-14T1500,2533A,105.0653,29.5817,内江市,内江二中,,42,23,40,13,30,134,,84,84,10,18,8,8,0.7,0.8
2024-04-14T1500,2534A,105.0406,29.5822,内江市,内江日报社,,46,,35,20,38,145,,94,94,14,29,9,10,0.7,0.8
2024-04-14T1500,2628A,92.0657,31.4846,那曲市,那曲监测站,,39,16,28,2,17,122,,99,99,5,7,7,8,0.4,0.7
2024-04-14T1500,3128A,92.0506,31.4797,那曲市,那曲会议中心,,39,11,33,2,16,122,,96,96,1,10,7,8,0.4,0.6
2024-04-14T1500,1290A,115.8931,28.6843,南昌市,省外办,,25,25,24,14,15,53,,38,38,21,26,6,5,0.6,0.6
2024-04-14T1500,1291A,115.8886,28.7003,南昌市,省林业公司,,25,19,17,17,14,48,,41,41,25,33,5,4,0.7,0.6
2024-04-14T1500,1292A,115.8126,28.7442,南昌市,林科所,,20,14,9,14,7,57,,42,42,24,33,8,7,1.0,0.9
2024-04-14T1500,1294A,115.8518,28.687,南昌市,建工学校,,34,34,27,9,19,53,,40,40,22,30,5,4,0.8,0.7
2024-04-14T1500,1295A,115.8921,28.6424,南昌市,象湖,,28,28,23,16,18,52,,34,34,23,31,4,3,1.3,1.1
2024-04-14T1500,1296A,115.7423,28.7996,南昌市,武术学校,,35,,13,24,16,71,,57,57,11,6,8,7,0.7,0.5
2024-04-14T1500,1298A,115.9314,28.6842,南昌市,省站,,32,,25,22,18,67,,45,45,16,21,8,8,1.0,0.9
2024-04-14T1500,3046A,115.9084,28.6062,南昌市,机电学校,,21,21,25,9,16,65,,33,33,17,34,8,6,0.9,0.6
2024-04-14T1500,3690A,115.9721,28.7031,南昌市,外国语学校,,28,28,20,17,16,70,,51,51,20,24,3,3,0.7,0.6
2024-04-14T1500,1905A,106.056,30.8064,南充市,西山风景区,,,,,,,,,,,,,,,,
2024-04-14T1500,1906A,106.0789,30.8023,南充市,南充市委,,44,42,50,26,31,140,,81,81,7,15,8,7,0.4,0.6
2024-04-14T1500,1907A,106.1031,30.8217,南充市,南充炼油厂,,45,39,49,23,29,142,,86,86,10,16,6,6,0.2,0.3
2024-04-14T1500,1908A,106.1064,30.7856,南充市,高坪区监测站,,43,26,49,13,27,137,,85,85,9,19,8,8,0.1,0.2
2024-04-14T1500,1909A,106.0642,30.7636,南充市,嘉陵区环保局,,42,40,45,17,27,132,,83,83,10,20,7,6,0.4,0.5
2024-04-14T1500,1910A,106.1087,30.8388,南充市,市环境监测站,,47,43,49,24,30,149,,90,90,10,14,6,6,0.2,0.3
2024-04-14T1500,1151A,118.8086,32.1065,南京市,迈皋桥,,49,38,30,34,26,69,,53,52,18,17,4,4,0.6,0.6
2024-04-14T1500,1152A,118.7538,32.0551,南京市,草场门,,49,39,30,34,29,59,,48,48,27,21,1,1,0.6,0.5
2024-04-14T1500,1153A,118.7794,32.0745,南京市,山西路,细颗粒物(PM2.5),52,46,32,36,33,71,,56,56,24,21,5,4,0.4,0.3
2024-04-14T1500,1154A,118.7752,32.0023,南京市,中华门,,42,29,29,29,29,64,,52,52,15,15,6,6,0.6,0.5
2024-04-14T1500,1155A,118.8109,32.0309,南京市,瑞金路,,45,39,35,31,27,69,,52,52,7,8,4,3,0.4,0.3
2024-04-14T1500,1156A,118.7997,32.0754,南京市,玄武湖,细颗粒物(PM2.5),52,38,30,36,27,64,,54,54,25,19,6,6,0.6,0.4
2024-04-14T1500,1157A,118.6414,32.0931,南京市,浦口,,37,37,32,19,17,57,,44,42,20,23,4,4,0.7,0.6
2024-04-14T1500,1158A,118.7356,31.9996,南京市,奥体中心,,46,46,44,31,29,64,,55,55,20,19,7,7,0.5,0.4
2024-04-14T1500,1159A,118.9125,32.1028,南京市,仙林大学城,,36,36,32,22,22,79,,56,56,16,19,8,8,0.6,0.5
2024-04-14T1500,3422A,118.8436,31.9198,南京市,江宁彩虹桥,,45,,29,31,31,91,,63,63,12,16,3,3,0.5,0.4
2024-04-14T1500,3423A,119.0138,31.6494,南京市,溧水永阳,,35,14,25,8,15,110,,68,68,8,17,4,4,0.5,0.4
2024-04-14T1500,3424A,118.879,31.3302,南京市,高淳老职中,,34,22,23,18,15,108,,71,71,11,17,6,6,0.7,0.6
2024-04-14T1500,3427A,118.8554,32.3578,南京市,六合雄州,,46,,31,32,24,62,,52,52,20,23,2,3,0.6,0.6
2024-04-14T1500,1401A,108.3103,22.7881,南宁市,二十一中,,49,47,38,34,25,110,,66,66,8,14,4,4,0.9,0.8
2024-04-14T1500,1402A,108.3141,22.8528,南宁市,北湖,,49,46,46,34,27,110,,61,61,8,19,5,5,0.9,0.9
2024-04-14T1500,1403A,108.3206,22.8225,南宁市,市监测站,颗粒物(PM10),52,53,41,34,24,109,,63,63,9,17,5,5,0.7,0.7
2024-04-14T1500,1404A,108.3829,22.8037,南宁市,大自然花园,,50,50,36,35,22,108,,68,68,7,11,6,5,0.6,0.6
2024-04-14T1500,1405A,108.4394,22.7904,南宁市,仙葫,,47,47,46,28,20,96,,65,65,9,15,7,6,0.9,0.9
2024-04-14T1500,1406A,108.2397,22.8467,南宁市,区农职院,颗粒物(PM10),64,78,55,37,26,117,,65,65,14,25,7,7,0.7,0.7
2024-04-14T1500,1407A,108.3275,22.735,南宁市,英华嘉园,,48,48,42,31,24,92,,54,54,14,23,6,6,0.6,0.6
2024-04-14T1500,1408A,108.2257,22.7757,南宁市,沙井镇街道办,细颗粒物(PM2.5),57,54,56,40,27,115,,64,64,8,25,6,5,0.8,0.8
2024-04-14T1500,3401A,108.4834,22.7618,南宁市,红星社区,颗粒物(PM10),52,53,36,32,23,92,,64,64,8,16,7,7,0.6,0.7
2024-04-14T1500,2331A,118.0966,26.6761,南平市,茫荡山,,,,,,,,,,,,,,,,
2024-04-14T1500,2332A,118.1681,26.6369,南平市,南平市监测站,,40,35,30,28,22,89,,70,70,9,11,6,4,0.6,0.6
2024-04-14T1500,2333A,118.1825,26.6489,南平市,南平铝业有限公司,,46,36,31,32,23,94,,72,72,8,9,8,6,0.8,0.8
2024-04-14T1500,2334A,118.1756,26.6272,南平市,南平七中,,46,37,31,32,33,101,,74,74,6,8,5,3,0.8,0.7
2024-04-14T1500,1168A,120.9098,31.9663,南通市,狼山街道,,31,19,11,3,1,98,,74,70,23,13,10,8,0.6,0.4
2024-04-14T1500,1169A,120.86,32.0005,南通市,虹桥,,31,21,16,6,4,98,,71,71,20,10,6,4,0.5,0.4
2024-04-14T1500,1170A,120.87,32.02,南通市,城中,,31,21,20,7,6,98,,70,70,19,10,6,4,0.6,0.5
2024-04-14T1500,1171A,120.94,31.93,南通市,星湖花园,,27,17,8,9,6,86,,65,62,24,15,8,6,0.7,0.6
2024-04-14T1500,1172A,120.81,32.0417,南通市,紫琅学院,,38,15,12,2,4,121,,75,75,20,15,8,7,0.6,0.5
2024-04-14T1500,3291A,121.067,32.062,南通市,通州监测站,,31,24,18,7,4,97,,77,77,14,5,9,8,0.9,0.6
2024-04-14T1500,3432A,120.9348,31.9883,南通市,环境教育馆,,34,14,14,3,4,107,,74,74,22,14,8,6,0.4,0.2
2024-04-14T1500,2404A,112.5224,33.0122,南阳市,瓦房庄,,38,21,40,11,28,119,,92,92,7,12,4,4,0.6,0.7
2024-04-14T1500,2405A,112.5003,32.9735,南阳市,汉画馆,,40,28,50,24,41,126,,92,92,9,15,3,3,0.7,0.8
2024-04-14T1500,2406A,112.5573,33.027,南阳市,气象站,,38,15,35,9,32,119,,87,87,8,14,6,6,0.6,0.6
2024-04-14T1500,2407A,112.5481,32.9689,南阳市,理工学院,,38,22,43,20,36,120,,91,91,10,14,4,3,0.7,0.8
2024-04-14T1500,4008A,112.5234,32.9922,南阳市,卧龙区政府,,38,19,38,16,32,119,,86,86,8,16,6,5,0.8,1
2024-04-14T1500,1234A,121.8358,29.911,宁波市,区环保大楼,,25,7,13,4,6,80,,44,44,9,23,6,6,0.7,0.7
2024-04-14T1500,1235A,121.56,29.82,宁波市,万里学院,,39,8,13,6,6,122,,87,87,2,12,7,7,0.7,0.6
2024-04-14T1500,1236A,121.713,29.9572,宁波市,龙赛医院,,29,18,18,8,7,91,,63,63,30,29,16,9,1.0,0.7
2024-04-14T1500,1239A,121.633,29.7733,宁波市,钱湖水厂,,34,,9,6,7,108,,81,81,4,14,8,8,0.8,0.7
2024-04-14T1500,1240A,121.5856,29.8635,宁波市,太古小学,,37,,10,4,6,116,,74,74,6,19,8,8,0.7,0.7
2024-04-14T1500,1241A,121.524,29.8674,宁波市,市环境监测中心,,40,6,12,2,5,128,,90,90,9,21,7,7,0.6,0.6
2024-04-14T1500,2871A,121.6147,29.9017,宁波市,万里国际学校,,37,8,21,4,7,118,,83,83,5,20,8,9,0.5,0.5
2024-04-14T1500,3710A,121.5594,29.8975,宁波市,白沙活动中心,,39,,13,4,8,123,,76,76,7,21,8,8,0.5,0.5
2024-04-14T1500,2339A,119.5001,26.6946,宁德市,金涵水库,,,,,,,,,,,,,,,,
2024-04-14T1500,2341A,119.5388,26.6612,宁德市,宁德市监测站,,36,36,18,22,16,93,,62,62,12,12,9,6,1.0,0.6
2024-04-14T1500,3209A,119.5231,26.6562,宁德市,宁德一中,,43,43,21,24,18,86,,61,61,23,15,9,7,1.0,0.5
2024-04-14T1500,2618A,98.8601,25.8567,怒江傈僳族自治州,州监测站,,49,48,47,34,36,150,,105,105,4,9,6,6,0.4,0.5
2024-04-14T1500,2619A,98.8546,25.8417,怒江傈僳族自治州,泸水一中,细颗粒物(PM2.5),59,61,56,42,40,121,,82,82,26,23,7,7,0.5,0.5
2024-04-14T1500,1888A,101.6891,26.571,攀枝花市,弄弄坪,臭氧1小时,69,53,49,39,30,175,,118,118,17,23,28,26,1.4,1.1
2024-04-14T1500,1889A,101.5769,26.5928,攀枝花市,河门口,,47,38,54,23,33,148,,110,110,10,24,6,10,0.4,0.6
2024-04-14T1500,1890A,101.7169,26.585,攀枝花市,炳草岗,臭氧1小时,85,35,55,20,30,188,,112,112,14,36,16,22,0.9,0.8
2024-04-14T1500,1891A,101.7369,26.5008,攀枝花市,仁和,臭氧1小时,53,36,40,25,29,162,,125,125,8,14,9,8,0.5,0.6
2024-04-14T1500,2835A,101.7227,26.567,攀枝花市,四十中小,臭氧1小时,98,40,44,27,26,198,,121,121,10,26,18,15,1.2,1
2024-04-14T1500,1604A,122.0303,41.1489,盘锦市,开发区,,32,18,23,11,22,100,,83,83,13,16,5,4,0.3,0.4
2024-04-14T1500,1605A,122.0485,41.0883,盘锦市,兴隆台,,33,32,26,12,21,104,,83,83,7,14,8,8,0.5,0.5
2024-04-14T1500,1606A,121.8297,41.1028,盘锦市,新生街道,,33,19,20,8,19,105,,86,86,12,15,7,7,0.4,0.4
2024-04-14T1500,1832A,113.3257,33.742,平顶山市,新华旅馆,,45,35,69,31,56,120,,76,76,19,22,7,9,0.4,0.5
2024-04-14T1500,1833A,113.2919,33.737,平顶山市,规划设计院,,35,,73,22,49,111,,68,68,10,15,7,9,0.8,0.8
2024-04-14T1500,1834A,113.182,33.774,平顶山市,平顶山工学院,,35,24,73,19,40,109,,71,71,9,11,5,6,0.7,0.7
2024-04-14T1500,3204A,113.3025,33.73,平顶山市,规划局,,38,31,62,25,48,121,,74,74,9,14,8,10,1.0,1
2024-04-14T1500,3594A,112.8867,33.9116,平顶山市,石龙区,,40,34,50,20,42,128,,82,82,5,11,10,8,0.5,0.6
2024-04-14T1500,2656A,106.6692,35.5461,平凉市,聚贤嘉苑,颗粒物(PM10),82,113,78,32,29,115,,65,65,16,40,12,10,0.2,0.4
2024-04-14T1500,2657A,106.7021,35.5307,平凉市,博物馆,颗粒物(PM10),89,127,84,28,32,117,,70,70,13,33,6,15,0.3,0.5
2024-04-14T1500,2347A,114.0997,27.5002,萍乡市,武功山,,,,40,,16,,,33,,,12,,14,,0.5
2024-04-14T1500,2348A,113.8385,27.6434,萍乡市,中医院,,38,38,60,23,44,44,,30,30,33,21,6,14,1.1,1.1
2024-04-14T1500,2349A,113.8493,27.6253,萍乡市,市政府车库,,42,32,48,29,34,52,,32,32,25,22,9,16,1.0,1.8
2024-04-14T1500,2350A,113.8676,27.6435,萍乡市,市环保局,,45,42,47,31,32,48,,32,32,20,17,6,14,0.8,1
2024-04-14T1500,2351A,113.866,27.6198,萍乡市,安源区政府,,43,43,49,20,28,40,,27,27,20,17,9,11,1.0,1
2024-04-14T1500,2319A,119.0141,25.4325,莆田市,荔城区仓后路,,48,44,53,33,35,130,,75,75,17,24,6,6,0.7,0.9
2024-04-14T1500,2320A,119.0015,25.4553,莆田市,莆田市监测站,颗粒物(PM10),56,62,62,25,34,124,,76,76,13,23,6,7,0.6,0.9
2024-04-14T1500,2321A,119.1119,25.4561,莆田市,涵江区六中,颗粒物(PM10),52,54,45,34,32,147,,89,89,16,24,8,7,0.8,1
2024-04-14T1500,2322A,119.1013,25.3215,莆田市,秀屿区政府,,42,38,36,28,32,132,,92,92,10,16,8,10,0.7,0.9
2024-04-14T1500,2323A,118.981,25.4792,莆田市,东圳水库,,,,,,,,,,,,,,,,
2024-04-14T1500,2392A,115.0312,35.7636,濮阳市,环保局,,32,,34,22,31,79,,57,57,7,11,7,7,0.3,0.3
2024-04-14T1500,2394A,115.0574,35.7609,濮阳市,油田运输公司,,,33,49,25,31,89,,61,61,9,12,,10,0.6,0.7
2024-04-14T1500,2395A,115.0866,35.7754,濮阳市,油田物探公司,,43,35,51,30,37,85,,60,60,6,9,6,7,0.5,0.5
2024-04-14T1500,3021A,115,35.7668,濮阳市,濮水河管理处,,38,,34,26,31,76,,54,54,3,6,6,7,0.2,0.4
2024-04-14T1500,2601A,100.98,22.7633,普洱市,市环保局,细颗粒物(PM2.5),67,68,93,48,63,149,,122,122,11,13,8,10,0.5,0.6
2024-04-14T1500,2602A,100.9817,22.8322,普洱市,普洱第二中学,颗粒物(PM10),55,60,75,34,47,155,,122,122,10,26,10,12,0.5,0.7
2024-04-14T1500,2262A,131.0518,45.8751,七台河市,新一中,,45,38,74,15,46,144,,133,133,9,15,8,12,0.6,0.8
2024-04-14T1500,3345A,131.0577,45.7879,七台河市,中波台,,44,38,56,8,32,138,,118,118,11,18,5,7,0.5,0.6
2024-04-14T1500,3637A,131.0176,45.7761,七台河市,人民广场,,46,46,78,21,42,120,,107,107,12,24,7,10,0.4,0.6
2024-04-14T1500,3684A,130.8781,45.8222,七台河市,新建矿广场,颗粒物(PM10),62,73,90,24,44,164,,119,119,22,28,18,27,0.7,0.9
2024-04-14T1500,1779A,123.9305,47.3636,齐齐哈尔市,安居小区,颗粒物(PM10),198,346,135,29,54,116,,101,101,13,15,3,4,0.7,0.8
2024-04-14T1500,1780A,123.9488,47.3386,齐齐哈尔市,中心广场,颗粒物(PM10),188,326,142,24,32,111,,98,98,18,19,7,8,0.5,0.5
2024-04-14T1500,1781A,123.9483,47.3227,齐齐哈尔市,农牧车辆厂,颗粒物(PM10),189,327,133,29,37,118,,105,105,14,15,8,10,0.4,0.5
2024-04-14T1500,1783A,123.945,47.2988,齐齐哈尔市,市环境监测站,颗粒物(PM10),216,361,132,51,41,120,,107,107,13,15,4,6,0.4,0.4
2024-04-14T1500,3662A,123.6333,47.2075,齐齐哈尔市,富区青少年活动中心,颗粒物(PM10),169,287,148,25,33,122,,107,107,11,13,6,8,0.5,0.6
2024-04-14T1500,2591A,107.9783,26.5747,黔东南苗族侗族自治州,市环境监测站,细颗粒物(PM2.5),59,53,51,42,41,118,,76,76,6,10,3,3,0.5,0.6
2024-04-14T1500,2881A,107.8908,26.5311,黔东南苗族侗族自治州,凯里学院,细颗粒物(PM2.5),54,45,59,38,35,126,,88,88,4,5,2,2,0.4,0.4
2024-04-14T1500,2593A,107.5228,26.2403,黔南布依族苗族自治州,小围寨,细颗粒物(PM2.5),52,44,41,36,34,125,,98,98,4,5,4,5,0.6,0.4
2024-04-14T1500,3538A,107.5175,26.2978,黔南布依族苗族自治州,沙坝,,46,46,47,29,34,126,,92,92,4,5,3,4,0.6,0.6
2024-04-14T1500,2589A,104.9022,25.0925,黔西南布依族苗族自治州,场坝街,,,,57,,37,,,127,,,6,,2,,0.4
2024-04-14T1500,2590A,104.8811,25.0992,黔西南布依族苗族自治州,坪东大道,,49,,45,14,34,155,,131,131,4,9,2,3,0.4,0.5
2024-04-14T1500,2502A,108.6236,21.9667,钦州市,市环保站,,39,39,41,22,20,68,,59,59,7,19,5,7,0.6,0.8
2024-04-14T1500,2503A,108.6549,21.9481,钦州市,沙埠小学,,49,49,43,28,23,80,,66,66,9,18,6,7,1.0,1
2024-04-14T1500,2504A,108.5989,21.7431,钦州市,港区一小,颗粒物(PM10),59,67,54,23,22,73,,63,63,9,18,8,7,0.8,0.8
2024-04-14T1500,3404A,108.5959,21.9633,钦州市,北职校,,34,34,41,20,23,66,,59,59,6,18,4,6,0.6,0.8
2024-04-14T1500,1042A,119.5134,39.8207,秦皇岛市,北戴河环保局,,27,27,37,12,18,71,,51,51,22,28,6,6,0.2,0.3
2024-04-14T1500,1043A,119.7493,40.0116,秦皇岛市,第一关,,45,45,45,28,43,90,,66,66,14,22,6,6,0.2,0.3
2024-04-14T1500,1044A,119.5897,39.9499,秦皇岛市,监测站,细颗粒物(PM2.5),53,49,54,37,40,72,,58,58,30,32,7,6,0.3,0.3
2024-04-14T1500,1046A,119.5251,39.9041,秦皇岛市,建设大厦,,35,34,34,24,25,73,,59,59,26,24,3,3,0.1,0.1
2024-04-14T1500,3132A,119.610547,39.943889,秦皇岛市,文明里,颗粒物(PM10),57,64,46,25,36,68,,54,54,32,36,4,4,0.3,0.3
2024-04-14T1500,1307A,120.6659,36.2403,青岛市,仰口,,28,,19,14,18,89,,73,73,14,13,4,3,0.2,0.2
2024-04-14T1500,1310A,120.4134,36.0658,青岛市,市南区东部子站,,25,14,21,14,13,80,,65,65,15,18,6,6,0.5,0.5
2024-04-14T1500,1311A,120.3664,36.1032,青岛市,四方区子站,,30,12,23,12,16,95,,86,86,13,19,4,4,0.4,0.4
2024-04-14T1500,1312A,120.2994,36.054,青岛市,市南区西部子站,,30,14,16,5,11,94,,75,75,12,23,5,6,0.6,0.6
2024-04-14T1500,1313A,120.4581,36.0858,青岛市,崂山区子站,,29,14,17,7,11,92,,79,79,12,16,7,7,0.4,0.4
2024-04-14T1500,1314A,120.1983,35.9608,青岛市,黄岛区子站,,26,,19,10,16,82,,62,62,18,24,5,6,0.6,0.6
2024-04-14T1500,1315A,120.3999,36.3083,青岛市,城阳区子站,,24,24,21,15,12,64,,93,86,28,16,7,7,0.5,0.4
2024-04-14T1500,1966A,120.0405,35.8735,青岛市,黄岛区4号,,28,12,16,2,9,89,,65,64,19,24,7,8,0.5,0.5
2024-04-14T1500,3362A,120.5014,36.4034,青岛市,即墨2号,,28,16,22,11,11,87,,78,78,10,11,4,4,0.4,0.4
2024-04-14T1500,3642A,120.3503,36.0736,青岛市,市北区南部,,32,32,21,7,12,96,,84,84,18,22,6,8,0.6,0.6
2024-04-14T1500,3643A,120.3948,36.1805,青岛市,李沧区北部,,30,,20,17,17,95,,87,87,16,19,8,8,0.4,0.4
2024-04-14T1500,1702A,113.0426,23.691,清远市,环保大楼,,44,44,43,29,25,61,,33,33,22,19,4,4,0.9,0.9
2024-04-14T1500,1703A,113.0208,23.7106,清远市,凤城街办,颗粒物(PM10),54,57,51,35,30,72,,36,36,36,32,5,4,0.6,0.6
2024-04-14T1500,3025A,113.0477,23.6344,清远市,技师学院,,50,50,56,25,28,132,,58,58,14,27,5,5,0.4,0.5
2024-04-14T1500,3318A,112.9903,23.7403,清远市,清新太和,颗粒物(PM10),57,63,60,35,29,104,,50,50,30,30,9,9,0.6,0.6
2024-04-14T1500,3455A,113.076,23.7198,清远市,清城东城,颗粒物(PM10),57,63,50,34,27,76,,43,43,29,27,5,5,0.5,0.5
2024-04-14T1500,2661A,107.6325,35.7357,庆阳市,庆阳五中,颗粒物(PM10),101,152,59,40,30,114,,90,90,10,12,4,4,0.3,0.4
2024-04-14T1500,2662A,107.6364,35.7067,庆阳市,市环保局,颗粒物(PM10),112,173,55,39,23,112,,95,95,10,13,7,7,0.2,0.3
2024-04-14T1500,1916A,103.7897,25.5035,曲靖市,环境监测站,臭氧1小时,54,37,46,11,24,163,,141,141,6,10,3,6,0.6,0.7
2024-04-14T1500,1917A,103.8,25.5364,曲靖市,烟厂办公区,,50,39,48,17,25,160,,136,136,5,11,4,8,0.3,0.4
2024-04-14T1500,3376A,103.7947,25.462,曲靖市,南苑二区,,46,27,41,18,21,146,,130,130,7,9,7,7,0.6,0.6
2024-04-14T1500,3377A,103.7444,25.5261,曲靖市,曲靖师范学院,臭氧1小时,57,,47,20,28,165,,143,143,6,11,10,23,0.5,0.6
2024-04-14T1500,1264A,118.8692,28.9398,衢州市,环保大楼,,23,21,37,16,26,53,,68,66,26,19,5,5,0.8,0.5
2024-04-14T1500,1265A,118.8709,28.9666,衢州市,实验学校,,20,20,33,14,26,55,,69,67,28,17,4,5,0.6,0.4
2024-04-14T1500,1266A,118.8621,28.9808,衢州市,衢州学院,,19,17,33,13,27,51,,67,66,29,19,7,7,0.8,0.7
2024-04-14T1500,1611A,118.5819,24.9117,泉州市,涂山街,,40,38,50,18,42,126,,78,78,15,22,4,4,0.7,0.9
2024-04-14T1500,1612A,118.5972,24.8978,泉州市,津头埔,,38,37,50,16,36,121,,80,80,18,26,5,5,0.6,0.7
2024-04-14T1500,1613A,118.6663,24.9424,泉州市,万安,颗粒物(PM10),52,53,55,18,37,129,,94,94,18,18,6,4,0.7,0.8
2024-04-14T1500,1614A,118.6117,24.9604,泉州市,清源山,,,,,,,,,,,,,,,,
2024-04-14T1500,3529A,118.6333,24.9264,泉州市,城华南路,,39,30,45,20,39,123,,80,80,21,26,4,4,0.3,0.4
2024-04-14T1500,2626A,88.8876,29.2718,日喀则市,日喀则监测站,,46,17,43,12,13,147,,123,123,4,6,4,4,0.5,0.4
2024-04-14T1500,3726A,88.8781,29.2426,日喀则市,林业技术推广中心,,45,17,41,5,11,141,,126,126,6,8,6,6,0.6,0.5
2024-04-14T1500,1659A,119.471,35.4209,日照市,监测站,,25,12,19,10,14,80,,80,80,24,22,8,8,0.4,0.5
2024-04-14T1500,1660A,119.523,35.4216,日照市,市政府广场,,25,14,22,10,13,80,,78,78,19,16,7,7,0.5,0.5
2024-04-14T1500,1661A,119.5587,35.4044,日照市,港务局,,27,17,20,6,10,84,,81,81,18,20,5,5,0.5,0.5
2024-04-14T1500,3507A,119.5328,35.4625,日照市,职业技术学院,,24,14,21,14,13,75,,72,72,16,15,7,7,0.6,0.6
2024-04-14T1500,3604A,119.3266,35.1044,日照市,岚山环保分局,,29,14,18,12,16,91,,87,87,9,10,6,7,0.6,0.6
2024-04-14T1500,1835A,111.1922,34.7752,三门峡市,市政府,,39,33,38,19,17,123,,99,99,8,11,5,7,0.5,0.7
2024-04-14T1500,1836A,111.1587,34.7942,三门峡市,开发区,,40,24,39,13,18,126,,107,107,6,8,9,9,0.5,0.6
2024-04-14T1500,1838A,111.143,34.7955,三门峡市,风景区,,,,,,,,,,,,,,,,
2024-04-14T1500,3039A,111.1911,34.7829,三门峡市,三门峡市第一小学,,41,41,48,15,20,131,,108,108,7,9,4,8,0.4,0.6
2024-04-14T1500,3598A,111.1,34.7167,三门峡市,富达温泉假日酒店,,40,40,43,16,21,119,,98,98,13,15,14,9,0.5,0.5
2024-04-14T1500,2324A,117.6211,26.2625,三明市,三钢,,48,48,59,29,36,85,,70,70,16,26,31,11,3.9,1.6
2024-04-14T1500,2325A,117.635,26.2714,三明市,三明二中,,38,28,53,26,36,90,,74,74,11,22,10,6,1.1,1
2024-04-14T1500,2326A,117.6028,26.2378,三明市,三元区政府,,39,39,63,24,43,88,,75,75,6,26,9,12,0.7,1.5
2024-04-14T1500,2327A,117.7275,26.3108,三明市,洋溪,,,,,,,,,,,,,,,,
2024-04-14T1500,1876A,109.5078,18.2489,三亚市,河东子站,,23,23,29,12,16,58,,56,56,2,5,3,3,0.0,0.2
2024-04-14T1500,1877A,109.4964,18.2681,三亚市,河西子站,,20,19,27,14,17,58,,56,56,3,7,2,2,0.2,0.3
2024-04-14T1500,3540A,109.7348,18.3443,三亚市,君悦子站,,40,40,31,12,16,56,,54,54,5,10,2,2,0.2,0.3
2024-04-14T1500,2624A,91.7608,29.2313,山南市,山南监测站,,48,13,19,8,8,151,,109,109,2,6,6,6,0.3,0.3
2024-04-14T1500,2625A,91.7706,29.2436,山南市,山南人民医院,,47,17,21,14,11,149,,110,110,10,10,7,7,0.3,0.3
2024-04-14T1500,1674A,116.6794,23.3667,汕头市,金平子站,,29,24,26,11,20,92,,90,90,10,12,4,3,0.7,0.6
2024-04-14T1500,1675A,116.7244,23.3633,汕头市,龙湖子站,,29,24,27,14,21,92,,92,92,2,3,6,5,0.7,0.7
2024-04-14T1500,1676A,116.7258,23.2775,汕头市,濠江子站,,,37,26,12,24,89,,83,83,,7,,4,0.6,0.6
