timepoint,stationcode,longitude,latitude,area,positionname,primarypollutant,aqi,pm10,pm10_24h,pm2_5,pm2_5_24h,o3,o3_24h,o3_8h,o3_8h_24h,no2,no2_24h,so2,so2_24h,co,co_24h
2025-09-02T1800,2566A,102.1879,31.914,阿坝藏族羌族自治州,州农科所,,18,18,21,8,10,52,,50,50,6,7,3,3,0,0
2025-09-02T1800,2568A,102.2502,31.8896,阿坝藏族羌族自治州,马师校,,23,,14,16,13,37,,42,42,6,9,8,8,0.5,0.5
2025-09-02T1800,3994A,102.2165,31.9024,阿坝藏族羌族自治州,马尔康中学西区,,18,18,18,8,12,51,,51,51,4,6,9,9,0.5,0.5
2025-09-02T1800,2695A,80.292,41.1694,阿克苏地区,电视台,颗粒物(PM10),500,1205,663,356,198,76,,61,61,2,6,5,5,0.4,0.5
2025-09-02T1800,2696A,80.2613,41.1551,阿克苏地区,艺术中心,颗粒物(PM10),500,1039,611,340,177,80,,60,60,2,7,3,4,0.3,0.4
2025-09-02T1800,2204A,105.6467,38.8363,阿拉善盟,西城区西花园,颗粒物(PM10),100,150,125,36,42,110,,111,111,11,8,9,9,0.7,0.7
2025-09-02T1800,2205A,105.6985,38.8411,阿拉善盟,蒙二幼,颗粒物(PM10),110,169,117,45,44,102,,101,101,5,4,9,9,0.4,0.5
2025-09-02T1800,2206A,105.724,38.8516,阿拉善盟,环保局新楼,颗粒物(PM10),100,149,107,48,43,95,,102,98,6,5,7,9,0.4,0.4
2025-09-02T1800,2708A,88.1264,47.8517,阿勒泰地区,市站,,16,6,20,3,5,49,,46,46,18,20,3,2,0.5,0.5
2025-09-02T1800,2630A,80.1161,32.5,阿里地区,阿里监测站,,28,6,2,3,2,87,,115,111,4,5,5,5,0.4,0.3
2025-09-02T1800,3192A,80.0903,32.5028,阿里地区,阿里藏医院,,31,6,5,3,1,97,,130,122,2,2,6,6,0.3,0.3
2025-09-02T1800,2642A,109.0318,32.6537,安康市,香溪洞,,28,28,22,12,8,72,,57,57,9,7,8,8,0.5,0.4
2025-09-02T1800,2644A,109.0072,32.6975,安康市,汉滨区检察院,,22,22,26,11,8,56,,50,50,13,9,6,6,0.5,0.5
2025-09-02T1800,4054A,109.0325,32.6913,安康市,市邮政管理局,,25,23,28,17,13,65,,55,55,7,10,5,8,0.6,0.6
2025-09-02T1800,2291A,117.0809,30.5177,安庆市,环科院,,28,12,21,11,14,89,,116,116,13,8,5,5,0.6,0.6
2025-09-02T1800,2292A,117.0331,30.5119,安庆市,马山宾馆,,29,16,20,12,16,92,,106,106,11,9,6,5,0.6,0.7
2025-09-02T1800,2294A,116.9896,30.6145,安庆市,安庆大学,,,8,20,6,15,85,,117,117,,9,4,4,0.5,0.5
2025-09-02T1800,3173A,117.0598,30.5351,安庆市,市人大,,29,16,20,11,16,91,,118,118,14,10,5,5,0.4,0.5
2025-09-02T1800,3122A,105.9606,26.2611,安顺市,伍家关,,25,13,12,10,10,80,,79,79,3,3,6,6,0.4,0.4
2025-09-02T1800,3123A,105.9408,26.2431,安顺市,凤凰山,,24,13,14,7,11,75,,77,77,4,5,6,6,0.5,0.5
2025-09-02T1800,3124A,105.9439,26.2564,安顺市,金钟山,,26,14,13,10,11,82,,82,82,3,4,6,6,0.5,0.5
2025-09-02T1800,3125A,105.8983,26.2481,安顺市,娄家坡,,24,16,12,9,9,74,,75,75,2,3,8,8,0.5,0.4
2025-09-02T1800,1818A,114.4839,36.0621,安阳市,棉研所,,,,,,,,,,,,,,,,
2025-09-02T1800,1819A,114.3551,36.1017,安阳市,红庙街,,43,14,40,9,19,136,,134,134,6,13,5,6,0.3,0.5
2025-09-02T1800,1820A,114.361,36.0681,安阳市,银杏小区,,45,20,40,9,26,142,,143,143,11,21,6,6,0.2,0.3
2025-09-02T1800,3141A,114.3922,36.0878,安阳市,信访局,,47,22,37,9,20,148,,149,149,2,12,5,5,0.5,0.6
2025-09-02T1800,3669A,114.4705,36.0637,安阳市,左辅环卫站,,42,28,43,10,26,134,,143,143,12,15,6,6,0.6,0.7
2025-09-02T1800,3703A,114.2917,36.0949,安阳市,安钢职工学校,,42,22,45,9,27,134,,135,135,6,10,4,6,0.4,0.6
2025-09-02T1800,1748A,123.044,41.1196,鞍山市,深沟寺,,41,40,54,22,39,129,,176,176,8,13,8,8,1.4,1.9
2025-09-02T1800,1749A,123.011,41.0931,鞍山市,太阳城,,40,26,57,17,40,127,,166,166,14,14,7,8,1.0,1.6
2025-09-02T1800,1750A,123.0485,41.1442,鞍山市,太平,,48,48,73,28,42,134,,168,168,28,20,10,8,1.5,1.6
2025-09-02T1800,1751A,122.9642,41.0971,鞍山市,铁西三道街,,43,37,73,21,47,136,,168,168,21,27,7,9,1.1,1.8
2025-09-02T1800,1753A,123.022,41.0821,鞍山市,明达新区,,38,29,54,17,38,119,,167,167,16,15,9,10,1.2,1.7
2025-09-02T1800,1754A,123.1289,41.0228,鞍山市,千山,,,,53,,27,,,53,,,4,,4,,1.0
2025-09-02T1800,4201A,122.9446,41.0826,鞍山市,兴盛南路290号,,46,46,67,25,40,125,,165,165,36,34,7,8,1.1,1.6
2025-09-02T1800,2195A,107.4212,40.761,巴彦淖尔市,附二中,颗粒物(PM10),73,95,85,32,26,111,,106,106,6,8,8,8,0.4,0.5
2025-09-02T1800,2196A,107.37,40.7372,巴彦淖尔市,市环保大楼,颗粒物(PM10),64,77,76,26,26,100,,96,96,6,7,8,8,0.4,0.5
2025-09-02T1800,1956A,86.1472,41.7538,巴音郭楞蒙古自治州,孔雀公园,颗粒物(PM10),500,730,913,172,239,74,,71,71,2,7,,5,0.2,0.3
2025-09-02T1800,1957A,86.1972,41.7166,巴音郭楞蒙古自治州,棉纺厂,颗粒物(PM10),498,598,1139,166,284,82,,83,83,2,3,4,5,0.2,0.2
2025-09-02T1800,1958A,86.2357,41.7173,巴音郭楞蒙古自治州,经济开发区,颗粒物(PM10),500,748,956,156,248,76,,81,81,3,3,8,5,0.2,0.2
2025-09-02T1800,2914A,106.7677,31.8794,巴中市,苏山坪,,26,26,20,15,15,69,,69,61,7,6,4,5,0.5,0.4
2025-09-02T1800,3181A,106.7768,31.8526,巴中市,市五中,,32,26,29,22,18,61,,60,60,17,12,6,6,0.6,0.5
2025-09-02T1800,3183A,106.7418,31.8654,巴中市,圣泉水务公司,,29,26,24,20,15,70,,59,59,7,10,6,6,0.6,0.5
2025-09-02T1800,3616A,106.7616,31.8344,巴中市,市中心医院,,30,29,28,21,16,70,,63,63,10,15,7,7,0.6,0.5
2025-09-02T1800,2235A,122.7911,45.6077,白城市,洮北区环保局,,28,,16,13,10,88,,90,90,5,6,6,5,0.4,0.3
2025-09-02T1800,2236A,122.8738,45.5725,白城市,市环保局,颗粒物(PM10),65,80,25,15,11,48,,72,72,21,8,3,5,0.5,0.5
2025-09-02T1800,2231A,126.4219,41.9171,白山市,喜丰,,24,19,29,11,11,75,,82,82,6,13,6,5,0.6,0.6
2025-09-02T1800,2232A,126.4077,41.9419,白山市,环保局,,24,24,22,12,15,54,,79,79,17,10,6,5,0.9,0.6
2025-09-02T1800,2647A,104.1724,36.5446,白银市,第三小学,颗粒物(PM10),69,88,82,42,31,93,,86,86,6,7,5,10,0.4,0.4
2025-09-02T1800,2648A,104.1465,36.5482,白银市,动力公司,颗粒物(PM10),68,86,77,39,33,95,,90,90,8,8,7,9,0.5,0.4
2025-09-02T1800,2512A,106.6103,23.9011,百色市,市监测站,,25,21,35,11,17,80,,92,92,7,15,7,9,0.4,0.5
2025-09-02T1800,2513A,106.6538,23.8859,百色市,市中心血站,,36,36,46,12,25,76,,86,86,11,18,5,8,0.6,0.8
2025-09-02T1800,3406A,106.6085,23.8798,百色市,祈福高中,,29,29,55,9,23,73,,83,83,12,23,8,9,0.4,0.6
2025-09-02T1800,2270A,117.396,32.939,蚌埠市,工人疗养院,,27,16,24,3,9,86,,93,93,5,8,4,4,0.3,0.4
2025-09-02T1800,2271A,117.3605,32.9427,蚌埠市,百货大楼,,28,13,17,8,10,87,,90,90,6,11,7,6,0.5,0.5
2025-09-02T1800,2273A,117.4185,32.8911,蚌埠市,蚌埠学院,,28,12,19,11,13,88,,84,84,9,16,6,7,0.4,0.4
2025-09-02T1800,2274A,117.3533,32.9673,蚌埠市,淮上区政府,,30,7,19,6,11,96,,96,96,2,8,5,5,0.5,0.5
2025-09-02T1800,2275A,117.3145,32.8977,蚌埠市,高新区,,28,14,20,7,12,88,,94,94,8,11,6,6,0.5,0.6
2025-09-02T1800,3715A,117.3092,32.9314,蚌埠市,蚌埠田家炳中学,,,13,19,8,11,95,,99,99,,8,6,5,0.3,0.4
2025-09-02T1800,1585A,109.8756,40.6532,包头市,市环境监测站,颗粒物(PM10),91,132,63,44,21,96,,94,94,12,26,20,12,0.6,0.8
2025-09-02T1800,1587A,109.9991,40.5842,包头市,包头八中,颗粒物(PM10),108,166,73,60,30,81,,89,89,15,22,4,15,0.5,0.8
2025-09-02T1800,1588A,109.8538,40.6821,包头市,青山宾馆,颗粒物(PM10),82,114,50,45,30,86,,90,90,21,31,13,8,1.4,0.8
2025-09-02T1800,1589A,109.8642,40.6288,包头市,惠龙物流,颗粒物(PM10),88,125,57,48,23,89,,92,91,13,18,20,12,0.8,0.7
2025-09-02T1800,1590A,110.0377,40.5546,包头市,东河鸿龙湾,颗粒物(PM10),99,148,62,52,26,94,,102,102,7,22,4,16,0.6,0.8
2025-09-02T1800,3283A,109.9154,40.5685,包头市,滨河大厦,颗粒物(PM10),91,132,60,59,27,92,,94,94,7,20,3,8,0.4,0.5
2025-09-02T1800,3419A,109.9447,40.6261,包头市,包头市委党校,颗粒物(PM10),86,121,53,44,24,98,,100,100,9,20,10,13,0.5,0.7
2025-09-02T1800,3683A,109.8331,40.6576,包头市,昆区政府,颗粒物(PM10),91,132,58,39,28,99,,96,96,12,18,12,12,0.6,0.7
2025-09-02T1800,1930A,107.185,34.3063,宝鸡市,庙沟村,颗粒物(PM10),55,59,29,17,13,63,,94,77,9,10,5,5,0.4,0.5
2025-09-02T1800,1931A,107.0708,34.3017,宝鸡市,竹园沟,,30,30,28,14,16,66,,68,68,6,12,8,8,0.3,0.3
2025-09-02T1800,1932A,107.1906,34.3672,宝鸡市,三陆医院,,41,41,38,20,22,60,,55,55,21,27,8,9,0.5,0.6
2025-09-02T1800,1933A,107.1431,34.3547,宝鸡市,监测站,,,,36,25,21,62,,65,64,10,15,9,9,,0.8
2025-09-02T1800,1934A,107.1186,34.3739,宝鸡市,技工学校,,45,45,34,22,25,60,,63,63,12,13,5,7,0.7,0.6
2025-09-02T1800,1936A,107.2058,34.3497,宝鸡市,文理学院,,43,43,38,18,19,63,,62,62,18,20,7,8,0.5,0.5
2025-09-02T1800,1937A,107.2386,34.3622,宝鸡市,三迪小学,,49,49,37,21,25,56,,58,58,24,22,5,5,0.6,0.6
2025-09-02T1800,4308A,107.3898,34.3601,宝鸡市,陈仓区北开路21号,颗粒物(PM10),56,61,40,20,20,58,,59,59,16,21,5,7,0.4,0.5
2025-09-02T1800,1051A,115.493,38.8632,保定市,游泳馆,,48,38,50,21,29,151,,147,147,6,14,3,2,0.3,0.5
2025-09-02T1800,1052A,115.5213,38.8959,保定市,华电二区,,47,44,51,17,28,150,,148,148,8,14,1,2,0.5,0.6
2025-09-02T1800,1053A,115.4713,38.9108,保定市,接待中心,,44,37,52,22,33,139,,134,134,4,11,2,2,0.4,0.6
2025-09-02T1800,1054A,115.4612,38.8416,保定市,地表水厂,颗粒物(PM10),52,54,63,19,27,148,,142,142,12,20,5,6,0.5,0.6
2025-09-02T1800,3581A,115.31981,38.95208,保定市,满城区生态环境分局,,46,46,52,24,30,145,,144,144,9,14,3,2,0.4,0.4
2025-09-02T1800,3582A,115.47694,38.76408,保定市,清苑区第二中学,颗粒物(PM10),55,59,68,22,30,142,,142,142,2,12,1,1,0.4,0.5
2025-09-02T1800,3583A,115.62909,39.02311,保定市,徐水物探局,颗粒物(PM10),55,60,54,23,21,143,,147,147,14,22,3,4,0.4,0.5
2025-09-02T1800,4004A,115.4202,38.8656,保定市,双鹰农机,,47,37,57,29,35,149,,147,147,7,16,6,7,0.3,0.4
2025-09-02T1800,4034A,115.5150,38.8590,保定市,植保所站,臭氧1小时,60,46,60,25,32,168,,163,163,13,23,4,4,0.3,0.4
2025-09-02T1800,2594A,99.1678,25.1081,保山市,市环境监测站,,21,13,17,13,16,66,,69,69,5,8,8,8,0.3,0.4
2025-09-02T1800,2595A,99.1711,25.1328,保山市,市环保局,,21,17,16,8,10,67,,71,71,2,5,7,7,0.3,0.4
2025-09-02T1800,1866A,109.2262,21.588,北海市,牛尾岭水库,,15,9,14,3,7,48,,48,48,3,7,2,8,0.4,0.7
2025-09-02T1800,1867A,109.1436,21.4086,北海市,海滩公园,,24,24,15,3,4,55,,61,61,4,4,4,4,0.7,0.7
2025-09-02T1800,1868A,109.0981,21.4661,北海市,新市环保局,,15,13,13,7,12,46,,51,51,6,6,4,4,0.5,0.5
2025-09-02T1800,1869A,109.1778,21.5233,北海市,北海工业园,,33,33,20,7,10,54,,57,57,4,7,3,5,0.4,0.5
2025-09-02T1800,3400A,109.1911,21.4415,北海市,龙潭自来水厂,,17,13,13,8,7,53,,55,54,5,5,3,4,0.4,0.4
2025-09-02T1800,1001A,116.3621,39.8784,北京市,万寿西宫,,48,48,40,32,27,146,,141,141,4,11,3,3,0.7,0.6
2025-09-02T1800,1002A,116.2202,40.2915,北京市,定陵,颗粒物(PM10),54,58,33,32,20,146,,144,144,3,2,4,4,0.6,0.4
2025-09-02T1800,1003A,116.4174,39.9289,北京市,东四,,50,48,42,28,24,158,,155,155,10,17,3,3,0.5,0.5
2025-09-02T1800,1004A,116.4072,39.8863,北京市,天坛,,43,43,38,29,25,137,,136,136,6,12,4,3,0.6,0.6
2025-09-02T1800,1005A,116.462,39.9365,北京市,农展馆,,49,48,39,31,24,154,,144,144,6,15,1,2,0.6,0.5
2025-09-02T1800,1006A,116.3392,39.9295,北京市,官园,,50,48,39,35,23,154,,149,149,8,15,2,2,0.6,0.5
2025-09-02T1800,1007A,116.2878,39.9611,北京市,海淀万柳,,48,48,38,30,22,142,,129,129,8,18,3,3,0.6,0.5
2025-09-02T1800,1008A,116.6636,40.135,北京市,顺义新城,,,,,,,,,,,,,,,,
2025-09-02T1800,1009A,116.6275,40.3275,北京市,怀柔镇,细颗粒物(PM2.5),54,55,29,38,18,146,,124,124,11,9,1,2,0.8,0.6
2025-09-02T1800,1010A,116.2296,40.217,北京市,昌平镇,细颗粒物(PM2.5),55,55,33,39,20,145,,134,134,11,10,5,4,0.8,0.7
2025-09-02T1800,1011A,116.3966,39.9821,北京市,奥体中心,,45,42,34,31,22,139,,129,129,5,12,4,4,0.5,0.4
2025-09-02T1800,3281A,115.9718,40.4529,北京市,延庆夏都,细颗粒物(PM2.5),54,53,28,38,16,138,,116,116,8,7,2,2,0.6,0.5
2025-09-02T1800,3418A,116.8336,40.4095,北京市,密云新城,颗粒物(PM10),54,58,28,37,13,141,,114,114,5,3,2,2,0.7,0.4
2025-09-02T1800,3671A,116.088,39.9726,北京市,门头沟三家店,"颗粒物(PM10),细颗粒物(PM2.5)",54,57,29,38,19,142,,130,130,5,6,3,3,0.7,0.4
2025-09-02T1800,3672A,116.1541,39.8204,北京市,丰台云岗,细颗粒物(PM2.5),60,58,35,43,23,138,,130,130,7,10,4,3,0.6,0.5
2025-09-02T1800,3673A,116.6804,39.9081,北京市,通州东关,,48,41,49,25,28,153,,144,144,7,17,2,2,0.6,0.7
2025-09-02T1800,3674A,115.9577,39.7603,北京市,房山燕山,颗粒物(PM10),55,60,32,36,19,123,,116,116,6,6,1,1,0.5,0.3
2025-09-02T1800,3675A,116.4672,39.7733,北京市,大兴旧宫,,44,33,42,20,28,139,,134,134,4,12,2,3,0.4,0.5
2025-09-02T1800,3694A,115.986,40.4563,北京市,延庆石河营,颗粒物(PM10),56,61,27,38,16,131,,107,107,5,4,1,1,0.6,0.4
2025-09-02T1800,3695A,116.6151,40.3053,北京市,怀柔新城,细颗粒物(PM2.5),58,52,29,41,24,142,,125,125,8,5,4,3,0.7,0.5
2025-09-02T1800,3696A,116.2545,39.8768,北京市,丰台小屯,颗粒物(PM10),51,52,38,35,24,138,,130,130,4,12,1,1,0.5,0.6
2025-09-02T1800,3697A,116.84,40.3844,北京市,密云镇,细颗粒物(PM2.5),59,66,29,42,18,147,,118,118,7,9,5,5,0.7,0.5
2025-09-02T1800,4182A,116.1942,39.9158,北京市,八角北路9号,颗粒物(PM10),52,54,38,34,21,152,,144,144,4,8,4,3,0.7,0.3
2025-09-02T1800,4194A,117.0790,40.1518,北京市,洳河巡河路,细颗粒物(PM2.5),59,64,36,42,22,142,,138,138,3,5,3,3,0.7,0.5
2025-09-02T1800,1761A,123.8275,41.3064,本溪市,大峪,,30,30,56,17,19,89,,130,130,8,14,7,7,1.0,1
2025-09-02T1800,1762A,123.7567,41.3325,本溪市,溪湖,,44,44,48,24,23,126,,142,140,16,14,8,8,1.7,1.5
2025-09-02T1800,1763A,123.7169,41.3094,本溪市,彩屯,,46,46,48,28,30,101,,150,150,25,22,12,11,1.9,1.6
2025-09-02T1800,1764A,123.7669,41.2864,本溪市,东明,臭氧1小时,72,68,51,50,24,177,,145,145,24,25,11,6,2.3,1.3
2025-09-02T1800,1765A,123.7992,41.2664,本溪市,新立屯,颗粒物(PM10),59,67,40,24,18,65,,114,114,62,28,6,6,1.8,1.1
2025-09-02T1800,1766A,123.8142,41.3472,本溪市,威宁,,,,,,,,,,,,,,,,
2025-09-02T1800,2587A,105.2864,27.3125,毕节市,八中,,35,35,22,15,16,88,,79,79,5,6,7,6,0.5,0.5
2025-09-02T1800,2588A,105.31,27.2944,毕节市,师专,,29,29,24,16,12,86,,78,78,7,9,6,6,0.4,0.4
2025-09-02T1800,4263A,105.3688,27.3598,毕节市,工业大道,,28,28,20,14,12,88,,80,80,6,9,7,7,0.7,0.7
2025-09-02T1800,1629A,118.0018,37.3617,滨州市,第二水厂,臭氧1小时,53,29,45,14,26,162,,186,183,7,25,6,6,0.4,0.5
2025-09-02T1800,1630A,117.9776,37.393,滨州市,北中新校,臭氧1小时,83,34,37,22,21,186,,194,194,11,17,6,5,0.0,0.3
2025-09-02T1800,3514A,117.9378,37.3956,滨州市,中海酒店,臭氧1小时,97,36,34,22,22,197,,204,204,5,13,6,5,0.6,0.6
2025-09-02T1800,3515A,117.9378,37.3553,滨州市,开发区一中,臭氧1小时,79,39,43,22,23,183,,196,196,9,21,6,6,0.6,0.7
2025-09-02T1800,3516A,118.0917,37.694,滨州市,金海六路,臭氧1小时,101,37,36,19,23,202,,198,198,9,26,7,5,0.4,0.3
2025-09-02T1800,4028A,117.9956,37.3753,滨州市,滨州市西街道办事处,臭氧1小时,62,22,31,17,25,169,,182,182,10,22,4,4,0.4,0.7
2025-09-02T1800,2311A,115.8072,33.8399,亳州市,污水处理厂,,40,19,23,17,19,128,,132,132,8,12,3,6,0.4,0.4
2025-09-02T1800,2312A,115.7789,33.8518,亳州市,三国揽胜宫,,48,22,28,9,12,152,,145,145,5,9,3,6,0.6,0.6
2025-09-02T1800,3332A,115.7633,33.8034,亳州市,亳州学院,,48,21,24,16,13,151,,147,147,4,7,5,5,0.7,0.7
2025-09-02T1800,2693A,82.0485,44.8556,博尔塔拉蒙古自治州,市党校,,47,47,47,22,23,98,,76,76,4,9,5,5,0.3,0.3
2025-09-02T1800,2694A,82.0806,44.8969,博尔塔拉蒙古自治州,市环保局,,46,46,50,15,16,97,,79,79,4,10,9,6,0.3,0.3
2025-09-02T1800,1071A,116.8842,38.2991,沧州市,沧县城建局,,50,26,25,12,17,159,,159,159,10,11,3,6,0.4,0.2
2025-09-02T1800,1072A,116.8584,38.3254,沧州市,电视转播站,,47,45,44,14,17,148,,147,147,8,11,4,3,0.4,0.4
2025-09-02T1800,1073A,116.8709,38.3228,沧州市,市环保局,,50,28,35,16,25,157,,156,156,6,10,4,4,0.3,0.4
2025-09-02T1800,3324A,116.8136,38.3004,沧州市,河北水利电力学院,臭氧1小时,53,22,28,20,26,162,,167,167,6,13,6,5,0.4,0.4
2025-09-02T1800,2622A,97.1806,31.1273,昌都市,昌都监测站,,19,,7,3,4,60,,52,52,3,4,4,3,0.2,0.2
2025-09-02T1800,3719A,97.1714,31.1406,昌都市,昌都会议中心,,19,7,7,3,4,59,,56,56,4,3,3,4,0.2,0.2
2025-09-02T1800,2690A,88.1236,43.8886,昌吉回族自治州,天山天池,颗粒物(PM10),57,63,11,8,3,63,,71,,14,10,2,2,0.6,0.5
2025-09-02T1800,2692A,87.2717,44.0297,昌吉回族自治州,新区政务中心,,36,22,37,3,12,115,,89,89,6,22,7,7,0.2,0.3
2025-09-02T1800,3613A,87.3095,44.0142,昌吉回族自治州,亚心广场,,38,34,50,3,11,119,,90,90,7,23,9,9,0.3,0.4
2025-09-02T1800,1120A,125.2863,43.9027,长春市,客车厂,,35,35,38,21,24,100,,104,104,21,23,4,4,0.5,0.7
2025-09-02T1800,1121A,125.2841,43.8463,长春市,邮电学院,,31,27,44,20,21,97,,107,107,13,19,5,5,0.6,0.8
2025-09-02T1800,1122A,125.3716,43.8772,长春市,劳动公园,,,31,47,14,27,88,,108,108,12,19,,8,0.2,0.5
2025-09-02T1800,1123A,125.3297,43.8805,长春市,园林处,,31,24,37,11,22,98,,105,105,10,16,4,4,0.5,0.8
2025-09-02T1800,1124A,125.4605,43.79,长春市,净月潭,,23,15,28,8,20,71,,88,88,5,8,5,5,0.3,0.5
2025-09-02T1800,1125A,125.7194,43.515,长春市,甩湾子,,25,10,22,6,15,78,,82,82,7,8,3,3,0.4,0.6
2025-09-02T1800,1126A,125.3863,43.8447,长春市,经开区环卫处,,27,27,39,9,19,74,,96,96,15,18,4,4,0.6,0.8
2025-09-02T1800,1127A,125.245,43.7783,长春市,高新区管委会,,25,25,34,14,23,73,,107,106,13,16,3,3,0.5,0.7
2025-09-02T1800,1128A,125.1761,43.8325,长春市,岱山公园,,40,40,33,16,23,100,,105,105,14,26,3,3,0.6,0.7
2025-09-02T1800,4281A,125.3346,43.9164,长春市,北亚泰大街1068号,,40,40,46,17,26,94,,101,101,20,23,7,7,0.5,0.7
2025-09-02T1800,1335A,113.0833,28.2325,长沙市,经开区环保局,,24,24,25,3,11,71,,84,84,11,12,4,4,0.3,0.4
2025-09-02T1800,1336A,112.8872,28.2189,长沙市,高开区环保局,,36,36,30,15,12,106,,104,104,8,7,4,4,0.4,0.4
2025-09-02T1800,1337A,113.0792,28.2053,长沙市,马坡岭,,28,28,22,15,13,87,,101,101,9,10,4,5,0.5,0.5
2025-09-02T1800,1338A,112.9394,28.19,长沙市,湖南师范大学,,33,30,26,18,12,104,,104,104,11,9,2,3,0.6,0.6
2025-09-02T1800,1339A,113.0178,28.1322,长沙市,雨花区环保局,,34,34,25,16,13,92,,110,110,17,9,6,6,0.5,0.6
2025-09-02T1800,1340A,112.9792,28.2597,长沙市,伍家岭,,32,32,27,14,12,73,,90,90,16,13,2,2,0.3,0.3
2025-09-02T1800,1341A,113.0014,28.1944,长沙市,火车新站,,36,36,26,12,11,97,,102,102,11,9,6,7,0.5,0.5
2025-09-02T1800,1342A,112.9844,28.1178,长沙市,天心区环保局,,35,34,22,18,14,109,,116,116,16,11,3,4,0.2,0.2
2025-09-02T1800,1343A,112.8908,28.1308,长沙市,湖南中医药大学,,,,27,40,19,128,,115,115,,9,,4,0.6,0.6
2025-09-02T1800,1344A,112.9581,28.3611,长沙市,沙坪,,30,18,24,9,13,96,,94,94,5,9,4,2,0.4,0.4
2025-09-02T1800,1727A,113.1147,36.1547,长治市,清华站,,,18,31,,15,110,,115,115,9,14,,8,,0.8
2025-09-02T1800,1730A,113.0886,36.2125,长治市,审计局,,36,18,26,9,14,114,,119,119,12,14,6,7,0.5,0.9
2025-09-02T1800,1731A,113.0844,36.1856,长治市,长治八中,,37,30,32,14,22,118,,122,122,5,10,8,9,0.6,0.8
2025-09-02T1800,2845A,113.1569,36.1911,长治市,德盛苑,,33,13,28,3,14,103,,114,114,4,7,7,8,0.4,1
2025-09-02T1800,3568A,113.06,36.0464,长治市,向阳小学,,46,46,52,20,22,114,,125,125,11,9,4,4,0.4,0.6
2025-09-02T1800,3569A,112.8792,36.3144,长治市,屯留一中,,,25,38,14,22,118,,118,118,,28,8,9,,0.9
2025-09-02T1800,4189A,113.1131,36.19948,长治市,英华南巷50号,,34,24,33,9,18,106,,114,114,16,13,8,10,0.5,1
2025-09-02T1800,4190A,113.2367,36.3344,长治市,学府街1号,,35,23,44,9,25,109,,120,120,6,16,3,3,0.3,0.7
2025-09-02T1800,1854A,111.6975,28.9703,常德市,市二中,,26,,20,15,16,81,,68,68,13,11,4,4,0.6,0.6
2025-09-02T1800,1857A,111.7158,29.1456,常德市,白鹤山,,,,,,,,,,,,,,,,
2025-09-02T1800,3138A,111.7153,29.0289,常德市,武陵区永安,,27,8,18,8,12,85,,69,69,4,6,4,4,0.4,0.4
2025-09-02T1800,3139A,111.6892,28.9881,常德市,鼎城区玉霞,,25,15,21,12,15,79,,68,68,3,7,6,5,0.5,0.5
2025-09-02T1800,3140A,111.6625,29.0531,常德市,武陵区长庚,,25,,19,12,13,80,,69,69,2,3,5,5,0.5,0.5
2025-09-02T1800,1196A,119.9633,31.762,常州市,市监测站,,35,22,21,18,15,109,,101,101,15,15,11,11,0.6,0.8
2025-09-02T1800,1200A,119.9468,31.7069,常州市,武进监测站,,25,20,24,12,15,78,,76,76,12,16,6,7,0.5,0.8
2025-09-02T1800,1201A,119.9255,31.9087,常州市,安家,,34,20,22,14,13,106,,92,92,18,19,10,10,0.9,0.9
2025-09-02T1800,3002A,119.9805,31.8174,常州市,行政中心,,35,28,20,16,15,110,,97,97,22,18,1,2,0.7,0.7
2025-09-02T1800,3003A,120.0522,31.7748,常州市,经开区,,35,21,24,10,11,109,,93,93,23,23,3,3,0.7,0.8
2025-09-02T1800,3010A,119.9025,31.7964,常州市,钟楼,,,25,24,11,11,116,,104,104,18,16,,7,0.6,0.8
2025-09-02T1800,3429A,119.8598,31.7066,常州市,武进经发区,,33,13,29,7,15,105,,97,97,11,16,8,9,0.5,0.8
2025-09-02T1800,3430A,119.5826,31.7245,常州市,金坛城区,,33,20,22,9,15,105,,100,100,12,15,8,7,0.7,0.7
2025-09-02T1800,2220A,120.4318,41.5881,朝阳市,西梁,,31,25,36,11,13,98,,98,98,13,24,4,6,0.7,0.7
2025-09-02T1800,2221A,120.4521,41.5646,朝阳市,河畔小区,,36,15,27,11,7,114,,110,110,6,13,5,6,0.4,0.4
2025-09-02T1800,2222A,120.4176,41.5648,朝阳市,八里堡,颗粒物(PM10),58,66,45,16,14,92,,99,99,26,26,6,9,0.6,0.6
2025-09-02T1800,2223A,120.3806,41.5969,朝阳市,农业园区,,35,35,26,18,8,81,,98,98,27,18,5,7,0.7,0.7
2025-09-02T1800,1705A,116.6367,23.6719,潮州市,西园路,,46,46,30,18,19,81,,121,121,14,9,4,4,0.6,0.4
2025-09-02T1800,3026A,116.6183,23.6608,潮州市,市政府,,47,47,34,16,18,69,,121,121,13,9,6,7,0.6,0.5
2025-09-02T1800,4036A,116.6461,23.6761,潮州市,金山,,26,26,32,13,19,83,,126,121,11,8,5,5,0.7,0.5
2025-09-02T1800,2472A,113.0073,25.9061,郴州市,马头岭,,41,41,28,14,11,128,,110,110,12,13,6,5,0.5,0.5
2025-09-02T1800,2473A,113.0116,25.8226,郴州市,市职中,,38,22,25,20,17,119,,112,112,8,10,4,4,0.4,0.5
2025-09-02T1800,2475A,113.0383,25.8071,郴州市,市审计局,,37,21,25,14,16,116,,112,112,7,9,5,5,0.4,0.5
2025-09-02T1800,2476A,113.0348,25.7759,郴州市,市环保局,,37,30,30,14,20,117,,119,119,7,12,4,15,0.4,0.4
2025-09-02T1800,4252A,113.0138,25.8011,郴州市,好美居路49号,,36,28,22,15,15,115,,113,113,9,9,4,5,0.4,0.4
2025-09-02T1800,1431A,103.9728,30.7236,成都市,金泉两河,,50,50,39,9,19,102,,99,99,10,22,3,3,0.6,0.7
2025-09-02T1800,1432A,104.176,30.6872,成都市,十里店,,44,44,50,13,24,120,,111,111,16,33,3,3,0.2,0.5
2025-09-02T1800,1433A,104.079,30.5706,成都市,三瓦窑,,44,42,43,28,26,140,,130,130,17,30,2,2,0.5,0.6
2025-09-02T1800,1434A,104.1114,30.63,成都市,沙河铺,,48,48,45,23,26,122,,110,110,12,18,4,3,0.8,0.9
2025-09-02T1800,1437A,104.0786,30.6531,成都市,君平街,,,45,50,,25,,,41,,,19,,3,,0.7
2025-09-02T1800,1438A,103.613,31.0283,成都市,灵岩寺,,,,,,,,,,,,,,,,
2025-09-02T1800,2880A,104.0239,30.65639,成都市,大石西路,,37,37,46,24,28,102,,99,99,15,27,2,2,0.7,0.8
2025-09-02T1800,3136A,104.2725,30.5589,成都市,龙泉驿区区政府,,37,19,28,9,16,118,,103,103,10,17,5,5,0.6,0.6
2025-09-02T1800,3357A,104.0106,30.6931,成都市,金博路,,33,31,35,8,21,105,,100,100,12,24,5,5,0.5,0.7
2025-09-02T1800,3359A,104.0578,30.5225,成都市,华阳,,41,39,41,24,29,129,,117,117,17,22,1,2,0.6,0.7
2025-09-02T1800,3488A,104.3853,30.7453,成都市,青白江技师分院,,32,32,42,22,27,101,,95,95,8,29,2,1,0.4,0.5
2025-09-02T1800,3489A,104.0789,30.4072,成都市,科学城,,42,35,44,21,29,134,,121,121,11,18,4,4,0.6,0.6
2025-09-02T1800,4011A,103.8506,30.6947,成都市,光华大道三段,,48,48,39,29,22,108,,110,110,14,19,2,2,0.5,0.6
2025-09-02T1800,4224A,104.2433,30.5353,成都市,鲸龙路1057号,,35,25,40,17,27,112,,107,107,15,18,3,4,0.5,0.6
2025-09-02T1800,1062A,117.9531,40.9081,承德市,铁路,,38,38,27,20,11,74,,92,92,21,14,4,4,0.4,0.4
2025-09-02T1800,1063A,117.9392,40.9763,承德市,中国银行,,30,27,18,16,14,95,,116,116,9,11,2,2,0.4,0.4
2025-09-02T1800,1064A,117.9503,40.928,承德市,开发区,,30,30,34,15,14,85,,106,106,15,15,5,4,0.5,0.5
2025-09-02T1800,1066A,117.9268,41.0026,承德市,离宫,,28,28,19,6,10,40,,96,95,4,9,4,5,0.4,0.3
2025-09-02T1800,4274A,117.7994,40.9605,承德市,滨河大街98号,,43,43,22,30,10,45,,77,77,2,10,3,2,0.4,0.4
2025-09-02T1800,2314A,117.47,30.6618,池州市,池州学院,,41,35,25,25,16,130,,118,118,15,14,6,7,0.7,0.6
2025-09-02T1800,3237A,117.4918,30.6617,池州市,展览馆,,42,37,24,23,14,134,,118,118,13,14,6,6,0.8,0.7
2025-09-02T1800,3333A,117.5627,30.695,池州市,第八中学,,44,28,24,19,14,140,,113,113,9,10,7,6,0.8,0.6
2025-09-02T1800,3334A,117.5038,30.6243,池州市,第十二中学,,37,24,24,21,15,117,,115,115,6,17,3,4,0.7,0.9
2025-09-02T1800,1744A,118.9233,42.2816,赤峰市,松山一中,,36,11,24,3,7,113,,104,104,9,27,6,7,0.5,0.6
2025-09-02T1800,1745A,118.9576,42.2728,赤峰市,哈达街,,33,19,17,6,7,104,,100,100,16,18,18,19,0.4,0.5
2025-09-02T1800,1746A,118.8788,42.2554,赤峰市,天义路,,34,12,12,6,10,106,,103,103,15,20,11,14,0.4,0.4
2025-09-02T1800,3058A,119.2658,42.0353,赤峰市,银河街,,26,26,45,7,19,73,,85,85,14,17,7,14,0.3,0.5
2025-09-02T1800,3286A,118.9359,42.3147,赤峰市,桥北物流园区,,30,27,26,11,13,94,,93,93,15,25,9,9,0.7,0.7
2025-09-02T1800,2521A,107.3476,22.4136,崇左市,市环保局江州分局,,22,16,21,9,10,68,,65,65,4,8,7,7,0.6,0.6
2025-09-02T1800,4256A,107.3750,22.3736,崇左市,石景林东路7号,,22,12,16,9,8,68,,64,64,4,8,5,4,0.5,0.5
2025-09-02T1800,2298A,118.3093,32.3153,滁州市,老年大学,,42,28,26,28,20,133,,135,135,20,11,11,8,0.4,0.4
2025-09-02T1800,2299A,118.3244,32.2786,滁州市,人大宾馆,,44,19,17,19,21,138,,141,141,3,9,5,4,0.6,0.5
2025-09-02T1800,3207A,118.3118,32.3038,滁州市,市政府原办公楼,,,,20,26,23,128,,132,132,7,8,,5,0.5,0.5
2025-09-02T1800,3331A,118.3267,32.2634,滁州市,图书馆,,45,24,19,17,18,141,,145,145,9,8,11,10,0.7,0.5
2025-09-02T1800,2605A,101.5482,25.0441,楚雄彝族自治州,州环境监测站,,13,8,18,3,12,40,,38,38,3,13,5,6,0.3,0.5
2025-09-02T1800,2606A,101.538,25.0492,楚雄彝族自治州,市经济开发区,,,6,20,3,12,40,,38,38,,15,6,7,0.4,0.8
2025-09-02T1800,2548A,107.5277,31.2827,达州市,达州职业技术学院,,40,40,48,10,22,83,,86,86,12,22,8,9,0.3,0.5
2025-09-02T1800,2549A,107.5086,31.2186,达州市,市环境监测站,,35,35,40,7,16,76,,24,,22,28,6,7,0.4,0.5
2025-09-02T1800,2550A,107.4988,31.2132,达州市,凤凰小区,,31,31,34,14,19,82,,84,84,16,22,2,3,0.3,0.4
2025-09-02T1800,2551A,107.5082,31.1986,达州市,达县机关宾馆,,29,29,35,13,17,84,,84,84,16,27,5,6,0.4,0.5
2025-09-02T1800,2552A,107.4644,31.2124,达州市,市政中心,,,25,43,12,18,81,,85,85,13,23,4,5,,0.4
2025-09-02T1800,2614A,100.1542,25.7054,大理白族自治州,大理市环境监测站,,17,17,14,10,14,51,,50,50,14,8,4,4,0.5,0.5
2025-09-02T1800,2615A,100.2171,25.5811,大理白族自治州,大理古城,,35,,14,24,8,61,,66,66,5,7,6,6,0.6,0.6
2025-09-02T1800,1109A,121.612,38.9741,大连市,甘井子,,43,32,41,19,30,135,,168,167,23,18,7,7,0.4,0.5
2025-09-02T1800,1110A,121.565,38.9511,大连市,周水子,,50,39,37,35,30,132,,158,158,20,16,13,10,0.6,0.5
2025-09-02T1800,1111A,121.5637,38.8845,大连市,星海三站,,46,43,46,32,38,115,,151,146,39,16,11,4,0.6,0.5
2025-09-02T1800,1112A,121.6302,38.9117,大连市,青泥洼桥,,48,48,44,28,35,129,,148,148,23,13,10,8,0.6,0.7
2025-09-02T1800,1113A,121.6251,38.8638,大连市,傅家庄,细颗粒物(PM2.5),52,36,35,36,40,94,,153,149,61,11,20,11,0.5,0.5
2025-09-02T1800,1114A,121.5213,38.8661,大连市,七贤岭,细颗粒物(PM2.5),55,43,39,39,36,76,,152,146,71,12,22,7,0.6,0.7
2025-09-02T1800,1115A,121.2529,38.8061,大连市,旅顺,臭氧1小时,79,28,37,22,26,183,,153,153,4,9,8,8,0.4,0.5
2025-09-02T1800,1116A,121.7485,39.1311,大连市,金州,颗粒物(PM10),52,53,34,35,29,134,,156,156,27,14,6,6,0.5,0.5
2025-09-02T1800,1117A,121.7811,39.0496,大连市,开发区,,45,40,44,31,43,109,,145,145,42,21,6,6,0.6,0.6
2025-09-02T1800,1118A,121.9762,39.0631,大连市,双D港,,35,28,40,20,37,109,,155,153,6,6,9,9,0.7,0.7
2025-09-02T1800,1789A,124.81117,46.03138,大庆市,大同区,,27,27,20,6,11,58,,66,65,16,10,8,9,0.7,0.7
2025-09-02T1800,1790A,125.129,46.533,大庆市,龙凤区,,22,22,29,15,15,66,,80,78,15,22,6,6,0.5,0.3
2025-09-02T1800,1791A,124.902,46.408,大庆市,红岗区,,33,27,30,23,18,64,,79,77,13,14,6,6,0.4,0.6
2025-09-02T1800,1792A,125.153,46.586,大庆市,萨尔图区,,25,25,36,3,16,51,,66,64,22,22,8,8,0.6,0.7
2025-09-02T1800,1793A,124.9042,46.6215,大庆市,让胡路区,,22,20,31,15,18,59,,73,71,15,13,6,5,0.3,0.4
2025-09-02T1800,3481A,125.141,46.634,大庆市,萨区政府监测点,,23,21,25,3,8,72,,80,79,7,13,7,8,0.3,0.4
2025-09-02T1800,1721A,113.3819,40.1097,大同市,果树场,,,,28,,15,,,68,,,17,,10,,0.3
2025-09-02T1800,1723A,113.2994,40.0758,大同市,云冈宾馆,颗粒物(PM10),52,53,55,25,19,112,,106,106,16,24,6,5,0.7,0.8
2025-09-02T1800,1724A,113.3444,40.0917,大同市,大同大学,,37,30,38,20,19,118,,113,113,13,23,8,8,0.6,0.6
2025-09-02T1800,1725A,113.2661,40.1269,大同市,安家小村,,47,47,45,20,17,121,,118,118,16,20,7,7,0.4,0.7
2025-09-02T1800,1726A,113.2711,40.0844,大同市,教育学院,,38,34,46,22,21,121,,113,113,15,27,8,7,0.6,0.8
2025-09-02T1800,3282A,113.3397,40.0597,大同市,大同市卫生学校,颗粒物(PM10),51,52,42,24,19,104,,102,102,15,24,8,8,0.6,0.7
2025-09-02T1800,3565A,113.1367,40.1122,大同市,云冈站,,41,41,50,19,20,92,,109,109,11,12,4,5,0.9,0.9
2025-09-02T1800,3566A,113.1186,40.2556,大同市,图书馆,颗粒物(PM10),51,51,46,25,23,99,,110,110,17,11,7,5,0.7,0.7
2025-09-02T1800,3567A,113.5931,40.0461,大同市,区一中,,35,32,27,20,17,111,,118,118,14,9,8,9,0.5,0.5
2025-09-02T1800,4199A,113.2798,40.0997,大同市,魏都大道141号,,38,35,51,19,23,120,,110,110,13,28,5,3,0.5,0.8
2025-09-02T1800,2269A,124.1069,50.4097,大兴安岭地区,科技局,,26,26,24,9,8,47,,51,51,6,3,4,4,0.4,0.3
2025-09-02T1800,3663A,124.1164,50.4278,大兴安岭地区,红旗社区,,12,6,7,3,3,37,,49,49,1,4,4,5,0.3,0.3
2025-09-02T1800,1600A,124.3303,40.0625,丹东市,江湾东路,,25,21,22,16,13,78,,95,95,24,17,6,5,0.8,0.9
2025-09-02T1800,1601A,124.4256,40.1503,丹东市,临江后街,,28,19,22,10,10,89,,87,87,15,15,7,6,0.7,0.8
2025-09-02T1800,1602A,124.3933,40.1461,丹东市,元宝山,,21,20,18,12,10,67,,75,74,14,15,5,5,0.8,0.9
2025-09-02T1800,1603A,124.3633,40.1092,丹东市,民主桥,,28,26,24,13,12,88,,93,93,19,19,6,6,0.8,0.8
2025-09-02T1800,3541A,109.5726,19.5167,儋州市,第一中学子站,,20,20,12,10,7,64,,43,43,4,3,5,6,0.4,0.5
2025-09-02T1800,3542A,109.5567,19.5187,儋州市,东坡学校子站,,22,,12,9,6,69,,48,48,5,5,8,7,0.5,0.5
2025-09-02T1800,2616A,98.5842,24.428,德宏傣族景颇族自治州,德宏州监测站,,24,17,26,9,16,76,,70,70,6,10,11,9,0.2,0.4
2025-09-02T1800,3677A,98.5881,24.4368,德宏傣族景颇族自治州,芒市人民政府综合楼,,32,32,32,15,14,74,,69,69,7,8,11,7,0.3,0.4
2025-09-02T1800,1901A,104.4239,31.1208,德阳市,东山公园,,35,22,28,17,22,110,,93,93,5,14,4,4,0.6,0.7
2025-09-02T1800,1902A,104.3826,31.1317,德阳市,西小区,,37,33,45,21,26,117,,102,102,9,22,3,3,0.8,0.9
2025-09-02T1800,1904A,104.3553,31.1091,德阳市,耐火材料厂,,36,32,41,17,25,114,,100,100,8,24,3,4,0.6,0.7
2025-09-02T1800,3639A,104.4019,31.1244,德阳市,市教育局,,35,30,39,19,27,112,,97,97,5,16,1,2,1.0,1.1
2025-09-02T1800,1622A,116.3032,37.4674,德州市,儿童乐园,臭氧1小时,84,34,33,17,22,187,,179,179,10,14,10,11,0.7,0.7
2025-09-02T1800,1624A,116.2991,37.4451,德州市,监理站,臭氧1小时,88,31,34,14,18,190,,180,180,8,14,13,14,0.6,0.7
2025-09-02T1800,3066A,116.2721,37.4379,德州市,九衢泉纯净水厂,臭氧1小时,75,27,38,12,25,180,,164,164,6,23,6,7,0.6,0.8
2025-09-02T1800,3371A,116.3728,37.4403,德州市,开发区人民医院,臭氧1小时,85,39,33,17,19,188,,173,173,9,17,10,10,1.1,1.1
2025-09-02T1800,3511A,116.5652,37.3319,德州市,陵城艺术中心,臭氧1小时,95,31,37,9,16,196,,196,196,10,19,13,13,0.8,0.8
2025-09-02T1800,4292A,116.3525,37.4209,德州市,新河东路,臭氧1小时,98,36,36,22,22,198,,176,176,11,24,9,9,0.9,1
2025-09-02T1800,2621A,99.7056,27.8317,迪庆藏族自治州,迪庆州站,,16,12,18,8,11,50,,50,50,5,6,6,6,0.4,0.4
2025-09-02T1800,3180A,99.7136,27.8094,迪庆藏族自治州,质量技术监督局,,21,21,18,6,7,51,,51,51,8,7,9,8,0.5,0.4
2025-09-02T1800,4257A,104.6092,35.5962,定西市,将台街,颗粒物(PM10),65,79,50,36,25,102,,104,104,7,7,7,7,0.2,0.3
2025-09-02T1800,4309A,104.6159,35.5701,定西市,正龙路62号,颗粒物(PM10),75,99,59,40,27,113,,114,114,5,7,5,5,0.2,0.3
2025-09-02T1800,1389A,113.7547,23.0494,东莞市,莞城梨川,,,23,24,13,15,61,,122,121,,20,4,6,0.4,0.3
2025-09-02T1800,1390A,113.7944,23.0128,东莞市,东城石井,,26,26,30,3,13,42,,110,108,10,21,4,5,0.4,0.4
2025-09-02T1800,1391A,113.7383,22.9658,东莞市,南城西平,,22,22,20,3,9,48,,101,100,13,24,6,6,0.5,0.6
2025-09-02T1800,3319A,113.7338,23.0381,东莞市,万江金泰,,18,17,23,9,12,56,,108,108,23,21,6,7,0.7,0.6
2025-09-02T1800,3626A,113.7533,23.0202,东莞市,南城元岭,,20,19,21,7,11,64,,123,116,20,23,4,5,0.4,0.3
2025-09-02T1800,3627A,113.7875,23.0457,东莞市,东城主山,,28,28,27,12,12,64,,121,121,17,22,6,7,0.4,0.4
2025-09-02T1800,1666A,118.6614,37.4309,东营市,市环保局,臭氧1小时,57,29,31,14,19,165,,178,178,15,24,9,9,0.4,0.4
2025-09-02T1800,3036A,118.6904,37.4338,东营市,开发区管委会,臭氧1小时,62,39,40,17,20,169,,182,182,18,25,11,10,0.4,0.5
2025-09-02T1800,3365A,118.5719,37.565,东营市,垦利区民丰路,,50,27,39,14,26,160,,182,182,15,19,8,7,0.8,0.9
2025-09-02T1800,3498A,118.5055,37.8612,东营市,河口城区,,50,31,37,10,18,158,,159,159,21,23,7,6,0.8,0.8
2025-09-02T1800,3646A,118.4978,37.4623,东营市,胜利站,臭氧1小时,80,34,41,12,22,184,,181,181,20,25,6,6,0.5,0.6
2025-09-02T1800,3734A,118.35,37.26,东营市,理想之城,臭氧1小时,62,61,39,19,23,169,,185,185,22,29,8,6,0.5,0.5
2025-09-02T1800,1591A,110.0023,39.8129,鄂尔多斯市,综合楼,颗粒物(PM10),54,58,54,27,22,88,,102,102,16,21,7,11,0.6,0.7
2025-09-02T1800,1592A,109.9486,39.8261,鄂尔多斯市,巴音孟克林场办事处,,,,67,,23,96,,108,108,,19,6,9,0.3,0.5
2025-09-02T1800,1593A,109.7736,39.5986,鄂尔多斯市,康泽苑,颗粒物(PM10),71,92,50,41,16,65,,88,88,13,16,6,8,0.4,0.5
2025-09-02T1800,1594A,109.8119,39.5989,鄂尔多斯市,华泰汽车城,颗粒物(PM10),73,95,53,48,22,64,,92,91,16,21,6,7,0.6,0.6
2025-09-02T1800,1595A,109.9734,39.7884,鄂尔多斯市,奥林花园,细颗粒物(PM2.5),70,85,68,51,28,72,,96,96,20,26,6,7,0.5,0.7
2025-09-02T1800,2436A,114.8938,30.3994,鄂州市,市政府,臭氧1小时,55,34,43,25,17,164,,150,150,10,17,6,10,0.6,0.6
2025-09-02T1800,2437A,114.8989,30.3714,鄂州市,赵家坝,臭氧1小时,82,46,47,17,14,185,,159,159,9,12,10,11,0.8,0.8
2025-09-02T1800,3654A,114.8094,30.4089,鄂州市,精准医疗中心,臭氧1小时,70,39,52,15,20,176,,169,169,7,16,4,7,0.9,1
2025-09-02T1800,2454A,109.4978,30.2981,恩施土家族苗族自治州,湖北民院,,26,16,24,10,16,83,,90,90,7,11,6,6,0.2,0.3
2025-09-02T1800,2455A,109.4707,30.2798,恩施土家族苗族自治州,州电力总公司,,24,23,27,3,20,75,,82,82,2,6,5,5,0.3,0.5
2025-09-02T1800,3549A,109.5061,30.3772,恩施土家族苗族自治州,龙凤新区,,31,13,21,6,11,98,,96,96,3,3,5,4,0.4,0.4
2025-09-02T1800,2499A,108.3411,21.6158,防城港市,沙万,,44,44,31,11,14,51,,46,46,15,15,3,4,0.4,0.5
2025-09-02T1800,2500A,108.3514,21.7731,防城港市,防城档案局,,22,22,30,13,14,54,,49,49,15,12,6,4,1.0,0.8
2025-09-02T1800,2501A,108.3506,21.6414,防城港市,大海花园,,41,41,22,3,11,63,,61,61,15,9,14,7,1.2,0.6
2025-09-02T1800,1371A,113.1294,23.0067,佛山市,湾梁,,24,24,19,14,13,75,,91,91,18,19,6,6,0.5,0.4
2025-09-02T1800,1372A,113.1083,23.0478,佛山市,华材职中,,28,27,19,8,9,89,,96,96,13,15,4,4,0.5,0.5
2025-09-02T1800,1373A,113.144,23.0453,佛山市,南海气象局,,31,31,19,10,9,90,,99,99,12,13,5,5,0.5,0.5
2025-09-02T1800,1374A,113.2881,22.8094,佛山市,顺德苏岗,,33,33,20,3,5,44,,68,68,24,15,7,6,0.5,0.5
2025-09-02T1800,1376A,112.8383,22.8678,佛山市,高明孔堂,,25,16,20,10,9,79,,123,118,9,12,2,3,0.5,0.9
2025-09-02T1800,1377A,112.8836,23.1588,佛山市,三水监测站,,46,46,24,12,14,106,,110,110,15,18,6,6,0.4,0.4
2025-09-02T1800,1378A,112.867,23.185,佛山市,三水云东海,,45,26,28,18,16,144,,125,125,19,23,1,4,0.4,0.4
2025-09-02T1800,3625A,113.2544,22.7642,佛山市,容桂街道办,,18,12,11,9,9,55,,76,76,24,16,10,6,0.6,0.6
2025-09-02T1800,1280A,119.3903,26.0543,福州市,鼓山,,,,19,,10,,,59,,,9,,1,,0.3
2025-09-02T1800,1282A,119.2681,26.0504,福州市,师大,颗粒物(PM10),56,61,21,25,11,114,,101,101,12,8,6,5,0.5,0.3
2025-09-02T1800,1283A,119.2984,26.1028,福州市,五四北路,,30,30,22,13,11,79,,105,105,9,13,4,4,0.3,0.3
2025-09-02T1800,1284A,119.2648,26.0768,福州市,杨桥西路,,43,43,21,28,12,97,,103,103,11,10,4,4,0.4,0.3
2025-09-02T1800,1285A,119.317,26.0746,福州市,紫阳,,47,47,26,17,13,95,,106,105,9,15,5,5,0.4,0.3
2025-09-02T1800,3048A,119.5799,26.0936,福州市,九龙,,23,15,22,7,12,73,,103,103,3,11,5,5,0.2,0.3
2025-09-02T1800,3526A,119.5189,25.9664,福州市,吴航,,28,26,26,14,15,88,,114,114,7,15,5,4,0.5,0.4
2025-09-02T1800,1755A,123.7977,41.8491,抚顺市,望花区,,39,33,65,17,34,124,,127,127,22,29,8,9,0.7,1.2
2025-09-02T1800,1756A,123.9161,41.8822,抚顺市,顺城区,,38,34,50,23,28,121,,137,137,18,27,7,6,1.2,1.2
2025-09-02T1800,1757A,124.0436,41.8611,抚顺市,东洲区,,,39,36,17,22,100,,118,118,,14,,9,0.9,1.1
2025-09-02T1800,1758A,123.9247,41.8642,抚顺市,新抚区,,35,27,50,16,29,110,,126,126,15,25,6,6,1.0,1.2
2025-09-02T1800,1759A,124.0972,41.8961,抚顺市,大伙房水库,,27,19,31,9,20,85,,100,100,6,13,7,7,0.7,1
2025-09-02T1800,1760A,123.7086,41.8391,抚顺市,沈抚新城,,45,43,53,22,31,144,,135,135,22,28,7,6,0.9,1.2
2025-09-02T1800,2376A,116.2127,28.0814,抚州市,桐源党溪,,29,29,27,12,14,70,,76,76,4,4,5,5,0.5,0.6
2025-09-02T1800,2377A,116.3544,27.9831,抚州市,市站,,29,19,18,12,8,90,,89,89,1,3,1,2,0.4,0.4
2025-09-02T1800,2378A,116.3565,27.963,抚州市,血防站,,30,30,22,17,11,79,,85,85,3,4,3,3,0.6,0.6
2025-09-02T1800,2379A,116.3564,28.0007,抚州市,采茶剧团,,27,26,21,8,9,86,,82,82,2,2,4,4,0.6,0.6
2025-09-02T1800,2380A,116.385,27.9647,抚州市,医学分院,,27,22,21,16,10,84,,88,88,2,5,4,4,0.8,0.7
2025-09-02T1800,2207A,121.6094,41.998,阜新市,工业园区,,42,42,43,11,15,115,,127,127,14,25,8,10,0.6,1
2025-09-02T1800,2208A,121.6697,42.0279,阜新市,长青街,,36,33,47,14,23,114,,122,122,13,21,10,12,0.6,0.8
2025-09-02T1800,2209A,121.6673,42.0705,阜新市,农业园区,,42,42,40,14,17,115,,120,120,7,9,5,8,0.7,1.1
2025-09-02T1800,2210A,121.6717,42.0224,阜新市,东苑,,44,44,61,17,24,109,,119,119,20,23,16,16,0.6,1
2025-09-02T1800,2211A,121.6506,42.0498,阜新市,玉龙新城,,35,35,41,17,15,107,,118,118,13,24,11,12,0.6,0.7
2025-09-02T1800,2301A,115.8277,32.8929,阜阳市,市监测站,,45,31,35,11,22,143,,132,132,11,20,4,4,0.3,0.4
2025-09-02T1800,2303A,115.8554,32.8605,阜阳市,开发区,,42,35,33,20,16,132,,120,120,8,15,6,6,0.3,0.3
2025-09-02T1800,2875A,115.784,32.8892,阜阳市,阜阳职业技术学院,,47,36,33,14,16,148,,139,139,8,12,5,6,0.4,0.4
2025-09-02T1800,3468A,115.7901,32.8613,阜阳市,市规划展馆,,48,20,33,13,22,153,,140,140,11,14,3,3,0.3,0.4
2025-09-02T1800,3469A,115.836,32.9183,阜阳市,枣园社区,,45,32,31,13,20,142,,133,133,10,17,4,9,0.4,1
2025-09-02T1800,2669A,102.9099,34.9841,甘南藏族自治州,州政府,,26,,24,14,15,82,,85,85,4,8,4,6,0.3,0.2
2025-09-02T1800,3380A,102.8914,34.9617,甘南藏族自治州,甘肃民族师范学院,,31,18,30,8,13,97,,100,100,5,14,4,4,0.4,0.4
2025-09-02T1800,2570A,101.9603,30.0475,甘孜藏族自治州,水桥子,,19,8,14,8,7,58,,52,52,4,14,7,7,0.3,0.4
2025-09-02T1800,3065A,101.9533,29.9972,甘孜藏族自治州,州环保局,,20,10,15,8,4,62,,59,59,5,11,5,4,0.4,0.3
2025-09-02T1800,3414A,115.8347,28.932,赣江新区,桑海产业园,,46,27,20,25,12,146,,132,132,7,15,7,6,0.4,0.3
2025-09-02T1800,2362A,114.9017,25.9149,赣州市,通天岩,,,33,22,13,6,,,104,104,4,4,14,17,0.5,1.3
2025-09-02T1800,2363A,114.9367,25.8664,赣州市,地委,,31,31,28,16,13,84,,110,110,9,12,5,6,0.6,0.6
2025-09-02T1800,2364A,114.9461,25.8481,赣州市,气象台,,,31,27,10,9,76,,98,98,10,13,,8,0.6,0.7
2025-09-02T1800,2365A,114.9322,25.8333,赣州市,市图书馆,,23,18,22,16,14,69,,93,93,20,14,5,5,0.6,0.6
2025-09-02T1800,2366A,114.8905,25.8471,赣州市,华坚鞋城,,42,,27,29,14,74,,98,98,17,15,5,6,0.6,0.7
2025-09-02T1800,3109A,115.0093,25.8613,赣州市,赣县区卫计委,,27,9,20,6,11,84,,97,97,5,8,6,6,0.5,0.3
2025-09-02T1800,2683A,106.2319,36.1417,固原市,马园,,,,,,,,,,,,,,,,
2025-09-02T1800,2684A,106.2792,36.0022,固原市,监测站,颗粒物(PM10),63,75,57,33,20,102,,113,97,8,9,7,7,0.2,0.2
2025-09-02T1800,2685A,106.2375,36.0211,固原市,新区,颗粒物(PM10),62,73,54,30,22,91,,97,88,5,8,8,8,0.2,0.2
2025-09-02T1800,3522A,106.2177,35.9959,固原市,原州区十五小,颗粒物(PM10),67,83,55,37,26,95,,100,90,5,7,9,9,0.1,0.2
2025-09-02T1800,2543A,106.6308,30.5278,广安市,小平旧居,,,,,,,,,,,,,,,,
2025-09-02T1800,2544A,106.6303,30.4576,广安市,市委,细颗粒物(PM2.5),52,43,56,36,44,147,,141,141,12,18,6,9,0.4,0.5
2025-09-02T1800,2545A,106.6271,30.4663,广安市,友谊中学,,50,45,50,35,37,153,,148,148,15,18,11,10,1.0,1
2025-09-02T1800,2547A,106.6388,30.4551,广安市,广电花园,,44,34,31,29,35,140,,134,134,13,18,7,6,0.6,0.6
2025-09-02T1800,2902A,106.6351,30.4865,广安市,北辰小学,,47,46,59,28,39,148,,141,141,8,14,12,11,0.6,0.7
2025-09-02T1800,2523A,105.8945,32.4535,广元市,黑石坡,,18,18,22,11,17,56,,27,20,3,10,10,8,0.3,0.4
2025-09-02T1800,2524A,105.821,32.4444,广元市,老城,,19,13,17,3,6,60,,40,40,16,30,4,5,0.6,0.8
2025-09-02T1800,2526A,105.8628,32.4287,广元市,监测站,,17,11,14,7,6,53,,38,38,17,19,8,8,0.7,0.8
2025-09-02T1800,3617A,105.8047,32.4166,广元市,经开区,,19,19,29,9,19,48,,41,41,20,27,5,5,0.6,0.8
2025-09-02T1800,1345A,113.2347,23.1423,广州市,广雅中学,,34,31,25,10,12,107,,114,114,21,20,2,4,0.9,0.6
2025-09-02T1800,1346A,113.2612,23.105,广州市,市五中,,34,33,22,15,12,107,,120,120,27,23,6,6,0.3,0.3
2025-09-02T1800,1348A,113.3478,23.0916,广州市,广东商学院,,36,29,21,25,14,105,,130,130,34,24,5,4,0.4,0.3
2025-09-02T1800,1349A,113.4332,23.1047,广州市,市八十六中,,28,28,23,11,11,73,,125,125,40,33,6,5,0.3,0.4
2025-09-02T1800,1350A,113.3505,22.9483,广州市,番禺中学,,25,16,17,6,9,80,,110,110,7,12,6,6,0.5,0.5
2025-09-02T1800,1351A,113.2146,23.3916,广州市,花都师范,臭氧1小时,64,31,36,13,16,171,,147,147,26,28,5,6,0.4,0.5
2025-09-02T1800,1352A,113.2597,23.1331,广州市,市监测站,,33,33,25,10,9,105,,116,116,21,19,6,6,0.4,0.4
2025-09-02T1800,1353A,113.5618,23.312,广州市,九龙镇镇龙,,39,27,37,17,20,124,,137,137,21,28,7,8,0.4,0.5
2025-09-02T1800,1354A,113.2765,23.1544,广州市,麓湖,,,33,23,10,11,108,,120,120,22,22,,3,0.3,0.3
2025-09-02T1800,1355A,113.443,23.3035,广州市,帽峰山森林公园,,49,19,20,18,11,155,,149,149,16,25,6,8,0.4,0.5
2025-09-02T1800,2846A,113.3221,23.1322,广州市,体育西,,34,34,20,12,12,102,,133,133,26,21,5,5,0.6,0.5
2025-09-02T1800,3298A,113.5717,23.5491,广州市,从化街口,,49,47,31,34,17,138,,115,115,12,20,8,8,0.5,0.6
2025-09-02T1800,3299A,113.3472,23.3692,广州市,白云竹料,颗粒物(PM10),51,52,35,27,17,144,,136,136,24,30,5,5,0.4,0.4
2025-09-02T1800,3300A,113.2981,23.237,广州市,白云嘉禾,,40,39,29,14,14,128,,142,142,24,28,6,7,0.4,0.4
2025-09-02T1800,3301A,113.4256,23.1716,广州市,黄埔科学城,,33,26,27,11,12,104,,132,132,20,27,5,5,0.5,0.6
2025-09-02T1800,3302A,113.3942,23.0483,广州市,番禺大学城,,29,22,21,10,10,91,,134,134,29,21,10,10,0.5,0.4
2025-09-02T1800,3303A,113.4922,22.8168,广州市,南沙黄阁,颗粒物(PM10),54,57,27,24,11,61,,98,98,11,19,4,5,0.3,0.3
2025-09-02T1800,3304A,113.5342,22.7896,广州市,南沙街,,23,23,19,6,7,56,,103,103,12,18,5,5,0.4,0.4
2025-09-02T1800,3443A,113.2902,23.5544,广州市,花都梯面,臭氧1小时,88,39,29,19,14,190,,142,142,17,22,8,7,0.4,0.5
2025-09-02T1800,3445A,113.7858,23.7478,广州市,从化良口,,25,21,18,15,11,80,,95,95,9,10,5,4,0.4,0.4
2025-09-02T1800,3446A,113.8051,23.2614,广州市,增城荔城,,32,32,29,12,14,93,,112,112,14,17,8,9,0.4,0.5
2025-09-02T1800,2505A,109.568,23.1478,贵港市,德智高中,,,,,,,,,,,,,,,,
2025-09-02T1800,2506A,109.6047,23.0666,贵港市,江南子站,,28,22,24,14,17,88,,75,75,6,9,5,4,0.5,0.5
2025-09-02T1800,2508A,109.5669,23.1065,贵港市,荷城子站,,27,14,17,7,10,84,,74,74,3,8,3,3,0.5,0.5
2025-09-02T1800,3405A,109.5886,23.1172,贵港市,新世纪学校,,30,27,22,13,16,95,,86,86,7,10,10,4,0.4,0.4
2025-09-02T1800,4260A,109.5933,23.0951,贵港市,中山路155-3号,,34,34,25,12,15,86,,79,79,8,8,5,4,0.3,0.4
2025-09-02T1800,1439A,106.6899,26.5998,贵阳市,马鞍山,,,,15,,14,,,56,,,8,,3,,0.2
2025-09-02T1800,1441A,106.6243,26.6266,贵阳市,鉴湖路,,31,31,27,3,7,77,,72,72,7,7,6,8,0.2,0.2
2025-09-02T1800,1442A,106.7487,26.6343,贵阳市,燕子冲,,27,14,14,14,15,84,,84,84,7,9,3,4,0.2,0.3
2025-09-02T1800,1443A,106.6555,26.4365,贵阳市,碧云窝,,29,29,29,7,10,81,,80,80,5,7,6,7,0.2,0.1
2025-09-02T1800,1445A,106.7109,26.6027,贵阳市,红边门,,25,24,22,12,14,79,,79,79,14,14,3,3,0.2,0.2
2025-09-02T1800,1446A,106.7164,26.5699,贵阳市,新华路,,22,19,19,3,7,69,,74,74,12,12,30,16,0.3,0.3
2025-09-02T1800,1447A,106.674,26.5424,贵阳市,太慈桥,,25,24,20,9,9,80,,79,79,10,14,4,4,0.1,0.1
2025-09-02T1800,1552A,106.805,26.3003,贵阳市,桐木岭,,29,29,28,17,15,81,,82,82,6,5,4,3,0.8,0.8
2025-09-02T1800,4230A,106.6882,26.5695,贵阳市,花果园大街66号,,24,,7,8,11,74,,72,72,7,8,3,4,0.4,0.4
2025-09-02T1800,4231A,106.6873,26.5169,贵阳市,漓江路57号,,26,17,20,9,9,83,,82,82,6,8,5,6,0.5,0.4
2025-09-02T1800,1862A,110.4144,25.3167,桂林市,电子科大尧山校区,,,,,,,,,,,,,,,,
2025-09-02T1800,1864A,110.3089,25.2708,桂林市,龙隐路小学,,27,27,29,11,16,82,,83,83,5,11,4,8,0.3,0.3
2025-09-02T1800,1865A,110.2869,25.2178,桂林市,八中,,26,23,32,10,15,82,,85,85,3,10,6,8,0.4,0.4
2025-09-02T1800,3531A,110.296,25.1253,桂林市,旅游学院,,24,17,20,9,11,75,,85,85,6,10,2,3,0.4,0.4
2025-09-02T1800,4222A,110.1835,25.2444,桂林市,环湖路276号,,26,24,32,14,15,82,,80,80,7,22,5,6,0.2,0.2
2025-09-02T1800,4301A,110.2803,25.2773,桂林市,信义路13号,,,35,32,14,12,76,,82,82,12,12,5,10,,0.7
2025-09-02T1800,2674A,100.2561,34.4714,果洛藏族自治州,玛沁县大武镇,,49,49,25,25,15,104,,106,106,4,2,18,16,0.5,0.4
2025-09-02T1800,1129A,126.5422,45.755,哈尔滨市,岭北,,27,6,21,3,15,84,,97,96,10,14,12,12,0.5,0.7
2025-09-02T1800,1130A,126.561,45.8167,哈尔滨市,松北商大,,20,19,24,3,10,61,,71,70,12,13,6,6,0.5,0.5
2025-09-02T1800,1131A,126.979,45.5419,哈尔滨市,阿城会宁,,20,12,30,3,20,64,,74,74,14,10,8,7,0.5,0.5
2025-09-02T1800,1132A,126.599,45.7222,哈尔滨市,南岗学府路,,25,19,36,3,13,77,,81,81,9,16,7,8,0.3,0.4
2025-09-02T1800,1133A,126.689,45.7733,哈尔滨市,太平宏伟公园,,22,10,31,7,13,70,,74,74,9,13,7,7,0.5,0.6
2025-09-02T1800,1134A,126.635,45.7667,哈尔滨市,道外承德广场,,44,44,47,8,12,64,,67,67,10,16,6,7,0.4,0.4
2025-09-02T1800,1135A,126.685,45.7319,哈尔滨市,香坊红旗大街,,23,14,33,14,21,71,,77,77,12,20,7,8,0.4,0.5
2025-09-02T1800,1136A,126.6411,45.7258,哈尔滨市,动力和平路,,38,38,34,3,10,70,,74,74,12,20,5,6,0.4,0.6
2025-09-02T1800,1137A,126.593,45.7478,哈尔滨市,道里建国路,,18,,33,12,15,57,,68,68,15,16,8,9,0.4,0.6
2025-09-02T1800,1138A,126.615,45.61,哈尔滨市,平房东轻厂,,31,31,29,8,11,45,,66,66,27,22,8,10,0.4,0.5
2025-09-02T1800,1139A,126.595,45.9855,哈尔滨市,呼兰师专,,26,19,24,6,12,83,,81,81,11,16,8,10,0.4,0.5
2025-09-02T1800,1140A,126.6206,45.6842,哈尔滨市,省农科院,颗粒物(PM10),58,65,58,11,20,58,,76,66,13,25,5,6,0.4,0.7
2025-09-02T1800,2688A,93.5128,42.8172,哈密市,地区监测站,颗粒物(PM10),58,65,70,20,23,106,,93,93,7,7,6,5,0.1,0.1
2025-09-02T1800,2689A,93.4961,42.8328,哈密市,哈密师范学校,,,41,54,15,15,108,,94,94,6,9,,4,0.1,0.2
2025-09-02T1800,2671A,100.9048,36.9639,海北藏族自治州,海晏县西海镇,,36,29,19,19,16,113,,114,114,3,3,6,7,0.3,0.4
2025-09-02T1800,3867A,102.0738,36.5056,海东市,平安区公安北苑,,32,25,19,17,9,102,,108,108,4,6,13,9,0.6,0.6
2025-09-02T1800,1409A,110.576,19.9507,海口市,东寨港,,20,,13,14,7,31,,33,33,2,3,4,6,0.3,0.3
2025-09-02T1800,1410A,110.3232,20.0574,海口市,海南大学,,15,7,14,3,7,45,,48,48,5,5,2,2,0.3,0.3
2025-09-02T1800,1411A,110.283,20.0053,海口市,秀英海南医院,,14,12,16,3,9,42,,45,45,4,11,6,6,0.2,0.3
2025-09-02T1800,1412A,110.338,19.9969,海口市,海南师范大学,,15,12,14,3,8,45,,48,48,4,6,4,4,0.3,0.4
2025-09-02T1800,1413A,110.33,20.0356,海口市,龙华路环保局宿舍,,15,8,14,3,8,46,,46,46,5,7,6,6,0.3,0.3
2025-09-02T1800,3539A,110.5111,19.9736,海口市,桂林洋子站,,11,8,17,3,8,35,,36,36,3,6,4,4,0.2,0.2
2025-09-02T1800,2673A,100.6188,36.2866,海南藏族自治州,共和县恰卜恰镇,,39,33,22,6,5,123,,118,118,4,4,11,13,0.3,0.4
2025-09-02T1800,2676A,97.3731,37.3753,海西蒙古族藏族自治州,德令哈市,,36,36,22,6,10,110,,105,105,2,5,8,9,0.4,0.5
2025-09-02T1800,1048A,114.5302,36.6116,邯郸市,东污水处理厂,,47,38,41,19,30,150,,145,145,5,11,6,6,0.4,0.5
2025-09-02T1800,1049A,114.4918,36.5713,邯郸市,矿院,,48,24,32,22,37,153,,147,147,2,9,4,5,0.3,0.5
2025-09-02T1800,1050A,114.484,36.6133,邯郸市,丛台公园,,46,22,32,14,25,147,,143,143,6,9,7,8,0.4,0.5
2025-09-02T1800,3458A,114.7895,36.5593,邯郸市,香泉濮院小区,,49,33,46,10,19,156,,149,149,5,9,3,3,0.4,0.4
2025-09-02T1800,3579A,114.50634,36.77178,邯郸市,永年区实验高中,,45,43,48,22,26,144,,148,148,6,15,4,4,0.2,0.4
2025-09-02T1800,3580A,114.20016,36.44293,邯郸市,峰峰矿区临水派出所,,47,26,45,14,30,149,,158,158,8,10,3,7,0.2,0.5
2025-09-02T1800,2634A,106.9893,33.1842,汉中市,汉川机床厂子校,,21,6,18,3,8,65,,74,72,5,12,3,3,0.5,0.5
2025-09-02T1800,2635A,107.0154,33.0706,汉中市,市监测站,,20,,24,7,11,64,,62,62,7,8,5,6,0.7,0.7
2025-09-02T1800,2636A,107.0089,33.1138,汉中市,鑫源开发区,,20,,24,6,15,61,,60,60,6,13,6,6,0.5,0.5
2025-09-02T1800,2637A,107.007,33.0323,汉中市,南郑大河坎水厂,,18,,20,6,11,57,,57,57,8,8,6,5,0.5,0.5
2025-09-02T1800,1223A,120.2072,30.2111,杭州市,滨江,,25,,27,9,15,79,,110,110,16,23,7,7,0.5,0.5
2025-09-02T1800,1224A,120.0633,30.2747,杭州市,西溪,,18,18,20,6,15,53,,97,97,13,15,6,6,0.5,0.5
2025-09-02T1800,1226A,120.3417,30.3150,杭州市,下沙,,25,21,25,8,15,78,,115,115,22,23,5,6,0.3,0.4
2025-09-02T1800,1227A,120.1269,30.2456,杭州市,卧龙桥,,15,15,24,3,16,46,,96,90,13,11,7,7,0.6,0.6
2025-09-02T1800,1228A,120.1903,30.2692,杭州市,浙江农大,,20,16,30,10,20,64,,96,93,18,20,5,5,0.5,0.6
2025-09-02T1800,1230A,120.1197,30.3119,杭州市,和睦小学,,19,17,22,12,15,58,,106,106,24,13,5,5,0.5,0.5
2025-09-02T1800,1231A,120.3019,30.4183,杭州市,临平镇,,29,29,31,10,17,70,,120,120,19,19,5,6,0.8,0.7
2025-09-02T1800,1232A,120.2753,30.1839,杭州市,城厢镇,,23,23,28,8,18,70,,116,116,16,15,7,8,0.6,0.6
2025-09-02T1800,1233A,120.0883,30.1808,杭州市,云栖,,17,16,23,3,11,53,,112,112,26,21,10,10,0.7,0.7
2025-09-02T1800,3557A,119.9464,30.0494,杭州市,镇二中,,19,11,20,8,16,59,,92,92,15,14,4,4,0.7,0.7
2025-09-02T1800,3558A,119.7183,30.2367,杭州市,市府大楼,,20,10,12,7,10,62,,90,86,13,10,8,8,0.4,0.3
2025-09-02T1800,3656A,120.1556,30.2864,杭州市,消防大队,,21,19,25,9,16,65,,100,100,19,14,6,6,0.6,0.6
2025-09-02T1800,1270A,117.1959,31.7848,合肥市,明珠广场,,42,29,18,19,12,134,,115,115,16,19,6,6,0.6,0.6
2025-09-02T1800,1271A,117.3072,31.8764,合肥市,三里街,,33,17,18,17,14,104,,111,111,8,14,4,4,0.6,0.7
2025-09-02T1800,1272A,117.2588,31.8707,合肥市,琥珀山庄,,34,34,23,14,14,104,,115,115,9,12,7,7,0.7,0.7
2025-09-02T1800,1273A,117.1604,31.9052,合肥市,董铺水库,,30,17,16,17,11,94,,87,87,3,4,4,4,0.4,0.3
2025-09-02T1800,1274A,117.25,31.8571,合肥市,长江中路,,39,27,19,15,11,123,,120,120,8,11,7,7,0.6,0.6
2025-09-02T1800,1275A,117.266,31.9436,合肥市,庐阳区,,32,22,22,9,10,101,,114,114,14,12,6,6,0.6,0.6
2025-09-02T1800,1276A,117.3453,31.8616,合肥市,瑶海区,,37,22,20,15,12,116,,125,124,12,14,6,7,0.6,0.6
2025-09-02T1800,1277A,117.3027,31.7964,合肥市,包河区,,40,31,20,22,12,127,,123,123,22,32,10,10,0.7,0.7
2025-09-02T1800,1278A,117.2776,31.7385,合肥市,滨湖新区,,31,19,17,19,17,99,,106,106,19,21,5,5,0.7,0.7
2025-09-02T1800,1279A,117.1318,31.8403,合肥市,高新区,,35,27,18,16,11,110,,102,102,10,13,5,5,0.8,0.7
2025-09-02T1800,3464A,117.3803,31.9147,合肥市,高教基地,,28,17,17,14,10,89,,103,103,6,6,5,6,0.5,0.5
2025-09-02T1800,3614A,79.924,37.0877,和田地区,地区环保局,颗粒物(PM10),500,1135,1075,322,301,88,,68,68,,20,2,2,0.2,0.4
2025-09-02T1800,3615A,79.9131,37.113,和田地区,市环保局,颗粒物(PM10),500,1191,1075,309,274,89,,68,68,14,32,1,2,0.1,0.3
2025-09-02T1800,2516A,108.2011,24.715,河池市,东仁乐园,,,,,,,,,,,,,,,,
2025-09-02T1800,2517A,108.0497,24.6947,河池市,市环保站,,21,21,20,11,11,62,,72,72,8,11,5,6,0.5,0.6
2025-09-02T1800,2518A,108.0983,24.6989,河池市,市疾控中心,,22,14,26,10,15,70,,76,76,8,16,7,8,0.7,0.7
2025-09-02T1800,1696A,114.6778,23.7569,河源市,源西,,24,22,24,14,13,74,,77,77,8,14,5,5,0.8,0.8
2025-09-02T1800,1697A,114.6944,23.7586,河源市,东埔,,22,22,21,11,11,68,,71,71,8,11,4,5,0.7,0.7
2025-09-02T1800,1698A,114.6892,23.7233,河源市,老城,,28,28,28,18,10,74,,82,82,6,10,5,6,0.6,0.7
2025-09-02T1800,1718A,115.4208,35.2464,菏泽市,气象局,臭氧1小时,67,40,33,20,19,173,,167,167,8,10,3,3,0.4,0.4
2025-09-02T1800,3374A,115.5564,35.0891,菏泽市,定陶老年大学,,46,36,29,14,13,145,,153,153,8,10,6,5,0.5,0.5
2025-09-02T1800,4184A,115.4797,35.24401,菏泽市,永昌路1号,臭氧1小时,67,41,35,27,21,173,,168,168,8,11,7,7,0.4,0.4
2025-09-02T1800,4193A,115.4715,35.2800,菏泽市,长城路999号,臭氧1小时,73,46,38,22,17,178,,174,174,13,17,10,9,0.4,0.4
2025-09-02T1800,2514A,111.5264,24.4172,贺州市,环保小区,,29,22,24,17,15,92,,99,99,6,10,15,16,0.4,0.5
2025-09-02T1800,2515A,111.5608,24.4078,贺州市,政协大楼,,33,,21,13,16,105,,113,113,8,10,10,13,0.7,0.8
2025-09-02T1800,3534A,111.4744,24.4553,贺州市,西湾,,30,25,24,6,15,96,,109,109,6,12,12,12,0.2,0.4
2025-09-02T1800,2385A,114.17,35.9019,鹤壁市,市监测站,,46,31,36,14,25,145,,142,142,6,5,7,7,0.4,0.5
2025-09-02T1800,2386A,114.2956,35.7511,鹤壁市,市交警支队,,44,,36,25,32,139,,138,138,4,12,3,4,0.7,0.6
2025-09-02T1800,2387A,114.2878,35.7306,鹤壁市,迎宾馆,,44,,41,23,27,139,,139,139,8,12,3,3,0.5,0.7
2025-09-02T1800,3474A,114.2617,35.6822,鹤壁市,大新区,,30,20,38,3,20,93,,121,120,8,18,7,7,0.5,0.6
2025-09-02T1800,3596A,114.1572,35.9603,鹤壁市,南山宾馆,,46,40,52,27,30,145,,143,143,5,5,4,5,0.2,0.3
2025-09-02T1800,2244A,130.2537,47.3416,鹤岗市,哈啤分公司,,24,18,22,9,8,74,,77,76,3,5,11,12,0.3,0.4
2025-09-02T1800,2245A,130.2684,47.3086,鹤岗市,斯达机电,,26,26,22,10,10,71,,74,74,8,9,12,12,0.4,0.3
2025-09-02T1800,2246A,130.3114,47.3388,鹤岗市,东山纸板厂,,33,29,24,23,18,70,,82,80,9,12,12,13,0.1,0.4
2025-09-02T1800,2247A,130.1097,47.3382,鹤岗市,五号水库,,18,7,9,3,6,57,,75,72,7,25,5,6,0.2,0.3
2025-09-02T1800,2263A,127.4833,50.2524,黑河市,交通局,,40,40,24,16,15,47,,54,54,14,10,6,7,0.3,0.3
2025-09-02T1800,2264A,127.5144,50.2341,黑河市,环保局,,38,38,23,10,10,53,,57,57,12,6,4,5,0.3,0.2
2025-09-02T1800,2265A,127.5291,50.2472,黑河市,大黑河岛,,,,,6,7,45,,47,47,2,2,22,26,0.4,0.3
2025-09-02T1800,1074A,115.6838,37.7541,衡水市,电机北厂,,48,37,38,20,18,152,,152,152,6,9,5,5,0.4,0.4
2025-09-02T1800,1075A,115.6303,37.7316,衡水市,市监测站,,47,37,41,3,16,148,,152,152,5,9,6,6,0.5,0.5
2025-09-02T1800,3188A,115.6683,37.7217,衡水市,市城管局,,45,39,35,12,17,144,,147,147,4,10,7,7,0.4,0.4
2025-09-02T1800,3459A,115.5989,37.5491,衡水市,地表水厂,,46,38,44,14,18,145,,151,151,7,16,3,3,0.2,0.2
2025-09-02T1800,2456A,112.5003,26.9167,衡阳市,原169医院,,38,38,24,15,10,111,,124,124,7,6,3,3,0.6,0.7
2025-09-02T1800,2457A,112.6194,26.9258,衡阳市,衡阳化工总厂,,44,44,23,24,14,105,,132,132,10,9,4,6,0.9,0.9
2025-09-02T1800,2458A,112.6211,26.8956,衡阳市,珠晖区环保局,颗粒物(PM10),66,82,23,18,12,109,,129,129,9,11,7,7,0.9,1
2025-09-02T1800,2459A,112.6197,26.8733,衡阳市,市委党校,,33,24,14,20,10,103,,115,115,7,7,12,11,0.5,0.5
2025-09-02T1800,2460A,112.6006,26.8919,衡阳市,市监测站,,33,29,18,18,12,104,,124,124,7,9,2,2,0.7,0.7
2025-09-02T1800,2461A,112.5664,26.9056,衡阳市,真空机电公司,,,36,22,18,14,93,,111,111,,9,4,3,0.9,1
2025-09-02T1800,3399A,112.6703,26.882,衡阳市,师范学院,,33,,23,23,9,97,,113,113,14,8,8,8,0.5,0.4
2025-09-02T1800,2608A,103.3772,23.3993,红河哈尼族彝族自治州,污水处理厂,,22,22,17,3,19,48,,51,51,5,6,8,8,0.2,0.2
2025-09-02T1800,2609A,103.3861,23.35,红河哈尼族彝族自治州,监测站,,32,32,24,9,9,51,,53,53,4,4,12,10,0.2,0.1
2025-09-02T1800,3038A,103.3758,23.368,红河哈尼族彝族自治州,州图书馆,,17,17,13,11,16,49,,50,50,5,5,2,2,0.3,0.2
2025-09-02T1800,1090A,111.6507,40.7517,呼和浩特市,呼市一监,,35,17,40,10,23,111,,112,112,9,21,2,3,0.2,0.4
2025-09-02T1800,1091A,111.6572,40.8033,呼和浩特市,小召,,33,24,44,11,21,103,,108,108,18,29,5,6,0.5,0.5
2025-09-02T1800,1094A,111.7516,40.8369,呼和浩特市,如意水处理厂,,37,29,50,11,20,118,,116,116,10,38,6,7,0.4,0.4
2025-09-02T1800,1095A,111.7276,40.8062,呼和浩特市,二十九中,颗粒物(PM10),55,60,47,11,21,118,,115,115,9,26,6,7,0.6,0.7
2025-09-02T1800,1096A,111.5512,40.7866,呼和浩特市,工大金川校区,颗粒物(PM10),56,62,54,9,20,104,,106,106,15,33,5,7,0.5,0.6
2025-09-02T1800,1097A,111.717,40.7612,呼和浩特市,化肥厂生活区,,37,26,46,11,20,117,,116,116,14,25,5,7,0.3,0.5
2025-09-02T1800,3698A,111.5968,40.8178,呼和浩特市,红旗小学,,36,12,49,7,21,114,,119,118,13,33,3,5,0.3,0.3
2025-09-02T1800,3699A,111.6518,40.8389,呼和浩特市,海东办,,37,14,53,7,23,118,,125,125,12,37,5,7,0.3,0.5
2025-09-02T1800,2192A,119.7594,49.2261,呼伦贝尔市,区环保局,,28,21,29,19,15,58,,64,64,12,16,5,5,0.6,0.6
2025-09-02T1800,3061A,119.7512,49.1577,呼伦贝尔市,国华电力东,,21,20,18,3,9,67,,72,72,2,7,6,6,0.2,0.2
2025-09-02T1800,1250A,120.0751,30.8669,湖州市,城西水厂,,20,6,29,3,21,61,,103,101,23,25,6,7,0.4,0.4
2025-09-02T1800,2873A,120.0830,30.8929,湖州市,仁皇山新区,,18,6,30,3,20,55,,93,91,21,18,4,4,0.4,0.4
2025-09-02T1800,2907A,120.1844,30.8596,湖州市,吴兴区站,,17,16,24,6,20,52,,101,96,18,14,7,7,0.5,0.6
2025-09-02T1800,3562A,120.4148,30.8538,湖州市,南浔区站,,23,20,27,15,25,73,,109,106,15,10,6,6,0.7,0.7
2025-09-02T1800,1607A,120.9049,40.7211,葫芦岛市,龙港区,"颗粒物(PM10),臭氧1小时",58,65,70,35,36,166,,157,157,7,16,6,22,0.8,0.9
2025-09-02T1800,1608A,120.8392,40.7514,葫芦岛市,化工街,,47,44,56,29,34,150,,147,147,14,34,8,19,1.0,1
2025-09-02T1800,1609A,120.8341,40.7073,葫芦岛市,新区,细颗粒物(PM2.5),54,46,48,38,45,148,,150,150,9,30,4,6,1.1,1
2025-09-02T1800,1610A,120.8695,40.7677,葫芦岛市,东城区,细颗粒物(PM2.5),62,,54,44,48,147,,147,147,15,30,5,16,1.1,1.2
2025-09-02T1800,2482A,109.5981,27.5721,怀化市,林科所,,31,23,26,8,9,99,,107,107,5,6,3,6,0.3,0.4
2025-09-02T1800,2483A,109.9453,27.5444,怀化市,河西地税局,,27,19,24,16,16,84,,96,96,12,8,3,5,0.2,0.2
2025-09-02T1800,2484A,109.9781,27.5342,怀化市,市四医院,,33,,28,23,19,90,,104,104,2,6,4,6,0.3,0.3
2025-09-02T1800,2485A,109.9972,27.5578,怀化市,监测楼,,28,18,22,13,12,88,,103,103,3,8,4,6,0.2,0.3
2025-09-02T1800,2486A,110.0394,27.583,怀化市,市委党校,,26,18,25,12,14,83,,94,93,4,10,2,5,0.2,0.3
2025-09-02T1800,1210A,119.036,33.5981,淮安市,钵池山,,27,,14,12,15,84,,90,90,10,9,5,6,0.6,0.6
2025-09-02T1800,1211A,119.007,33.575,淮安市,北京南路,,,14,17,12,13,80,,95,94,,10,6,7,0.5,0.5
2025-09-02T1800,1212A,118.989,33.6067,淮安市,市监测站,,28,14,19,12,14,89,,92,92,9,15,9,9,0.5,0.5
2025-09-02T1800,1213A,119.135,33.5039,淮安市,楚州区监测站,,30,22,25,8,12,93,,94,94,5,7,7,7,0.6,0.6
2025-09-02T1800,3426A,118.8755,33.2894,淮安市,新华书店,,32,17,14,15,13,101,,98,98,11,13,6,7,0.7,1
2025-09-02T1800,4206A,119.0288,33.6319,淮安市,承德北路606号,,26,,24,11,11,82,,93,93,8,10,6,6,0.4,0.5
2025-09-02T1800,2282A,116.8004,33.975,淮北市,监测站,,37,20,28,9,15,116,,126,126,7,12,6,7,0.9,1
2025-09-02T1800,2283A,116.8091,33.9007,淮北市,烈山区政府,,38,22,26,3,9,120,,131,130,5,7,8,8,0.4,0.5
2025-09-02T1800,3330A,116.8873,33.9836,淮北市,杜集区检察院,,36,20,30,9,16,115,,124,123,2,8,8,8,0.5,0.6
2025-09-02T1800,4017A,116.7923,33.9535,淮北市,市博物馆,,39,34,28,10,14,122,,130,130,6,9,6,7,0.4,0.5
2025-09-02T1800,2277A,116.8305,32.7727,淮南市,潘集区政府,,28,10,20,7,14,89,,106,106,22,9,4,5,0.3,0.3
2025-09-02T1800,2279A,116.8569,32.5951,淮南市,谢家集区政府,,38,13,21,12,15,119,,116,116,6,7,6,8,0.3,0.4
2025-09-02T1800,2280A,116.8281,32.633,淮南市,八公山区政府,,35,17,24,9,15,112,,114,114,6,8,5,7,0.3,0.4
2025-09-02T1800,2281A,116.6325,32.6201,淮南市,焦岗湖风景区管理处,,,,,,,,,,,,,,,,
2025-09-02T1800,2894A,117.0566,32.6531,淮南市,经济技术开发区消防队,,34,20,18,3,6,106,,105,105,10,12,9,9,0.3,0.3
2025-09-02T1800,3329A,117.0108,32.5893,淮南市,山南新区,,38,10,15,3,8,119,,112,112,7,7,4,5,0.5,0.5
2025-09-02T1800,4209A,117.0031,32.6445,淮南市,国庆中路369号,,41,21,28,17,19,130,,120,120,7,8,5,6,0.5,0.5
2025-09-02T1800,2446A,114.9028,30.4742,黄冈市,职工中心,臭氧1小时,53,30,26,28,19,162,,141,141,8,11,4,11,0.6,0.7
2025-09-02T1800,2929A,114.8858,30.4519,黄冈市,红卫路,臭氧1小时,64,30,31,26,21,171,,156,156,14,16,8,9,0.6,0.6
2025-09-02T1800,3398A,114.9136,30.4445,黄冈市,市林业局,臭氧1小时,57,32,35,27,24,165,,152,152,12,15,5,8,0.5,0.6
2025-09-02T1800,2672A,102.0199,35.5102,黄南藏族自治州,同仁县隆务镇,,33,26,25,8,9,105,,100,100,8,7,9,10,0.4,0.4
2025-09-02T1800,2295A,118.2903,29.6963,黄山市,延安路89号,,35,35,20,19,7,77,,75,75,3,5,4,4,0.2,0.3
2025-09-02T1800,2297A,118.1371,30.2756,黄山市,黄山区政府5号楼,,18,15,19,3,9,56,,64,64,2,4,4,4,0.5,0.4
2025-09-02T1800,4210A,118.3354,29.7203,黄山市,滨江东路7-2号,,23,20,21,8,6,73,,72,72,5,5,2,2,0.3,0.3
2025-09-02T1800,2423A,115.0601,30.2313,黄石市,沈家营,臭氧1小时,53,40,56,18,18,162,,146,146,3,10,7,8,0.5,0.5
2025-09-02T1800,2426A,114.8988,30.2019,黄石市,铁山,,49,27,39,16,16,154,,142,142,2,12,4,10,0.2,0.4
2025-09-02T1800,2427A,115.0307,30.2092,黄石市,团城山,,,38,46,16,11,162,,141,141,6,9,7,7,,0.9
2025-09-02T1800,3149A,115.0235,30.1578,黄石市,笔架山北路,,49,28,27,20,9,155,,133,133,4,5,6,6,0.5,0.5
2025-09-02T1800,4185A,115.0780,30.21118,黄石市,磁湖东路29号,,49,45,65,25,20,154,,140,140,13,17,7,8,0.7,0.8
2025-09-02T1800,1392A,114.4183,23.0528,惠州市,河南岸金山湖子站,,13,12,16,7,7,39,,66,66,7,12,8,8,0.3,0.4
2025-09-02T1800,1393A,114.4053,23.0822,惠州市,下埔横江三路子站,,14,10,15,3,7,44,,73,72,4,8,5,6,0.3,0.4
2025-09-02T1800,1394A,114.4103,23.1142,惠州市,江北云山西路子站,,19,14,16,3,8,60,,83,83,10,11,8,9,0.3,0.5
2025-09-02T1800,1395A,114.4645,22.7833,惠州市,惠阳区承修路船湖子站,,14,13,12,8,5,43,,49,47,6,9,7,8,0.4,0.4
2025-09-02T1800,1396A,114.5317,22.7422,惠州市,大亚湾管委会子站,,18,11,14,6,8,57,,49,49,7,8,7,8,0.5,0.5
2025-09-02T1800,3314A,114.4338,22.8134,惠州市,惠阳秋长,,14,9,15,3,5,43,,55,52,6,9,11,9,0.5,0.5
2025-09-02T1800,3452A,114.6517,22.775,惠州市,大亚湾霞涌,,,,13,6,5,74,,60,60,5,6,6,6,0.6,0.6
2025-09-02T1800,2240A,130.9762,45.3001,鸡西市,环保局,,18,12,31,3,14,56,,76,74,16,19,6,6,0.7,0.6
2025-09-02T1800,2243A,130.9429,45.3039,鸡西市,第一中学,,20,9,28,3,10,61,,74,72,8,16,8,9,0.6,0.7
2025-09-02T1800,3707A,131.0207,45.3073,鸡西市,欧美日汽修厂,,19,16,33,10,17,58,,78,75,16,17,8,8,0.7,0.7
2025-09-02T1800,3709A,130.9967,45.3106,鸡西市,市政设施管理处,,19,18,37,6,11,59,,83,80,19,23,7,8,0.6,0.6
2025-09-02T1800,2367A,114.9754,27.0803,吉安市,红声器材厂,,26,26,29,9,13,73,,93,93,4,8,7,8,0.5,0.4
2025-09-02T1800,2368A,114.9658,27.0999,吉安市,市森林工业局,,23,22,25,12,12,73,,92,92,4,7,9,8,0.6,0.6
2025-09-02T1800,2369A,114.99,27.1312,吉安市,市环境监测站,,24,21,23,8,11,76,,98,98,4,7,11,12,0.6,0.6
2025-09-02T1800,2370A,115.0093,27.0968,吉安市,青原区法院,,29,29,28,12,14,72,,94,94,4,9,6,8,0.5,0.4
2025-09-02T1800,1772A,126.54,43.8622,吉林市,哈达湾,,26,17,25,12,15,82,,89,88,7,11,7,7,0.2,0.3
2025-09-02T1800,1773A,126.5844,43.8358,吉林市,东局子,,28,28,31,8,18,68,,88,85,23,14,6,6,0.4,0.6
2025-09-02T1800,1774A,126.5052,43.8245,吉林市,电力学院,,,16,29,13,16,67,,83,81,14,11,,6,0.5,0.6
2025-09-02T1800,1775A,126.6133,43.8972,吉林市,江北,,22,22,26,10,17,67,,88,86,12,13,5,5,0.6,0.6
2025-09-02T1800,1776A,126.555,43.8306,吉林市,江南公园,,26,18,26,16,13,81,,86,85,6,10,2,2,0.4,0.4
2025-09-02T1800,1778A,126.7061,43.7133,吉林市,丰满,,24,10,15,10,12,76,,109,105,5,4,5,5,0.5,0.6
2025-09-02T1800,2868A,126.4739,43.953,吉林市,九站,,20,20,29,12,16,60,,90,87,27,19,4,8,0.5,0.5
2025-09-02T1800,1299A,116.9862,36.6114,济南市,科干所,臭氧1小时,99,46,28,29,16,199,,180,180,17,17,10,7,0.8,0.6
2025-09-02T1800,1300A,116.9376,36.665,济南市,农科所,臭氧1小时,84,51,31,27,14,187,,179,179,20,23,12,9,0.6,0.5
2025-09-02T1800,1301A,117.1265,36.6734,济南市,开发区,臭氧1小时,98,49,31,29,19,198,,191,191,20,20,12,9,0.8,0.7
2025-09-02T1800,1303A,117.0624,36.6868,济南市,省种子仓库,臭氧1小时,102,61,38,27,15,204,,195,195,18,25,8,6,0.8,0.7
2025-09-02T1800,1304A,116.9489,36.6447,济南市,机床二厂,臭氧1小时,101,59,40,29,16,202,,184,184,21,24,14,10,0.8,0.6
2025-09-02T1800,1305A,117.0495,36.663,济南市,市监测站,臭氧1小时,95,68,32,32,16,196,,182,182,20,23,13,10,0.9,0.8
2025-09-02T1800,1306A,116.7675,36.5484,济南市,长清党校,臭氧1小时,84,29,24,20,13,187,,176,176,13,19,7,7,0.7,0.6
2025-09-02T1800,1616A,117.6795,36.229,济南市,技术学院,,42,22,22,12,14,132,,152,152,12,22,10,12,0.7,0.9
2025-09-02T1800,1961A,117.532,36.6868,济南市,东山小学,臭氧1小时,101,42,31,17,15,202,,183,183,15,20,8,7,0.5,0.5
2025-09-02T1800,3059A,117.7161,36.2049,济南市,泰兴公司,,43,24,29,17,15,135,,150,148,12,30,12,13,0.5,0.7
2025-09-02T1800,3064A,117.6867,36.2171,济南市,莱芜战役纪念馆,,42,19,29,14,19,134,,148,148,11,24,5,7,0.7,0.9
2025-09-02T1800,3494A,117.1673,36.9782,济南市,济阳区政府,臭氧1小时,70,37,42,17,18,176,,181,181,10,19,10,8,0.5,0.5
2025-09-02T1800,3495A,117.1171,36.63,济南市,锦屏中学,臭氧1小时,102,51,24,22,10,203,,182,182,17,15,14,10,0.9,0.8
2025-09-02T1800,3682A,116.9814,36.6819,济南市,济南四建,臭氧1小时,103,53,34,32,19,206,,192,192,18,25,10,6,0.9,0.8
2025-09-02T1800,1653A,116.6251,35.4302,济宁市,火炬城,,47,30,36,12,17,150,,157,157,5,17,5,5,0.2,0.3
2025-09-02T1800,1655A,116.5491,35.4042,济宁市,电化厂,臭氧1小时,53,45,40,22,18,162,,163,163,14,20,3,3,0.8,0.8
2025-09-02T1800,3500A,116.5814,35.3707,济宁市,北湖一中,,48,33,33,19,19,153,,154,154,5,11,6,7,0.4,0.4
2025-09-02T1800,3501A,116.8249,35.5593,济宁市,服务中心,,43,29,33,8,9,135,,142,141,10,26,4,4,0.2,0.3
2025-09-02T1800,3678A,116.5907,35.4054,济宁市,市第七中学,,48,33,36,7,13,152,,156,156,9,16,5,6,0.4,0.5
2025-09-02T1800,2255A,130.2751,46.8028,佳木斯市,佳纺,,23,23,26,7,11,31,,63,58,16,12,11,11,0.6,0.5
2025-09-02T1800,2256A,130.3995,46.8307,佳木斯市,发电厂,,32,32,26,10,12,47,,67,65,13,11,7,7,0.7,0.6
2025-09-02T1800,2257A,130.3258,46.7975,佳木斯市,环保局,,17,17,20,10,11,31,,69,61,24,15,8,8,0.6,0.5
2025-09-02T1800,2258A,130.3648,46.8032,佳木斯市,十一中,,26,26,24,12,10,38,,68,62,24,16,8,8,0.8,0.6
2025-09-02T1800,2259A,130.3794,46.7588,佳木斯市,四丰,,,6,9,3,3,0,,0,0,11,10,,29,0.4,0.4
2025-09-02T1800,1252A,120.7436,30.778,嘉兴市,清河小学,,18,13,38,10,20,57,,110,106,27,24,6,6,0.9,0.8
2025-09-02T1800,1253A,120.726,30.7478,嘉兴市,嘉兴学院,,24,24,36,12,25,60,,135,118,33,28,4,4,0.5,0.8
2025-09-02T1800,2872A,120.7846,30.7525,嘉兴市,南湖区残联,,24,10,35,8,26,76,,122,119,16,24,5,6,0.7,0.7
2025-09-02T1800,3407A,120.6916,30.7739,嘉兴市,秀洲住建,,20,20,34,12,24,64,,126,122,30,29,6,6,0.7,0.7
2025-09-02T1800,1945A,98.2908,39.7711,嘉峪关市,气象局,颗粒物(PM10),167,283,250,56,47,118,,113,113,7,9,9,9,0.3,0.1
2025-09-02T1800,2884A,98.2672,39.7978,嘉峪关市,酒钢宾馆,颗粒物(PM10),172,293,265,85,63,127,,121,121,6,9,22,21,0.3,0.6
2025-09-02T1800,3248A,98.2643,39.7724,嘉峪关市,雄关区,颗粒物(PM10),129,208,195,45,45,111,,106,106,9,12,14,13,0.6,0.5
2025-09-02T1800,1383A,113.1064,22.6058,江门市,北街,,22,22,18,10,10,58,,87,87,5,10,3,4,0.3,0.3
2025-09-02T1800,1384A,113.0731,22.5835,江门市,西区,,20,8,21,3,9,64,,90,90,10,14,7,8,0.5,0.4
2025-09-02T1800,1385A,113.0219,22.5311,江门市,圭峰西,,19,17,17,6,9,59,,82,82,6,12,4,3,0.4,0.4
2025-09-02T1800,1386A,113.0828,22.5947,江门市,东湖,,18,18,20,6,9,57,,77,77,10,12,5,5,0.4,0.4
2025-09-02T1800,3311A,113.1075,22.5647,江门市,江海富民,,21,14,30,3,10,67,,88,88,7,11,4,4,0.2,0.2
2025-09-02T1800,3449A,113.05,22.4667,江门市,新会银湖,,22,22,17,6,9,55,,71,71,6,12,2,2,0.3,0.3
2025-09-02T1800,1830A,113.1992,35.2590,焦作市,影视城,,,,26,,17,,,126,,,5,,9,,0.5
2025-09-02T1800,3335A,113.3137,35.2641,焦作市,马村街道办,,44,41,42,17,21,138,,136,136,11,11,3,2,0.4,0.5
2025-09-02T1800,3336A,113.2465,35.2373,焦作市,焦作技师学院,,42,42,42,12,18,134,,134,134,10,12,5,6,0.5,0.6
2025-09-02T1800,3477A,113.1656,35.2539,焦作市,中站许衡医院,,44,43,33,29,26,140,,138,138,10,9,5,6,0.5,0.5
2025-09-02T1800,3981A,113.2449,35.1803,焦作市,原李万街道办,颗粒物(PM10),65,80,53,12,19,138,,137,137,12,12,9,13,0.3,0.5
2025-09-02T1800,4264A,113.2340,35.2190,焦作市,新安路1731号,,44,30,43,15,26,140,,136,136,6,9,4,5,0.6,0.7
2025-09-02T1800,4295A,113.2722,35.2121,焦作市,人民路3066号,,43,40,51,16,26,135,,134,134,8,11,2,4,0.2,0.4
2025-09-02T1800,1708A,116.3701,23.5345,揭阳市,新兴,,,,38,28,21,68,,87,87,13,13,5,7,0.6,0.5
2025-09-02T1800,1709A,116.3264,23.5443,揭阳市,西马,,32,25,38,22,23,68,,93,90,12,13,2,5,0.6,0.5
2025-09-02T1800,1710A,116.3611,23.5626,揭阳市,东兴,,23,,38,16,17,62,,86,86,17,14,6,9,0.8,0.7
2025-09-02T1800,1711A,116.4151,23.5294,揭阳市,渔湖,,27,27,42,12,18,68,,97,95,16,13,12,13,0.8,0.8
2025-09-02T1800,3320A,116.403,23.5699,揭阳市,曲溪,,47,47,37,25,22,73,,104,103,12,12,1,5,0.6,0.6
2025-09-02T1800,1944A,102.1692,38.5167,金昌市,天庆家园,颗粒物(PM10),168,285,211,64,44,93,,84,84,7,6,5,10,0.7,0.4
2025-09-02T1800,4022A,102.1647,38.5371,金昌市,金川区人防中心,颗粒物(PM10),178,305,226,68,46,93,,88,88,8,6,18,12,0.5,0.4
2025-09-02T1800,4239A,102.1930,38.5319,金昌市,长春路96号,颗粒物(PM10),189,327,234,58,42,104,,99,99,6,5,6,12,0.6,0.5
2025-09-02T1800,1262A,119.647,29.077,金华市,十五中,,26,26,30,12,15,82,,116,116,12,18,3,4,0.5,0.5
2025-09-02T1800,1263A,119.686,29.1029,金华市,监测站,,,23,34,11,15,79,,110,110,,21,4,5,0.4,0.5
2025-09-02T1800,3659A,119.656,29.1131,金华市,气象局,,25,21,28,7,13,80,,117,117,12,21,2,2,0.4,0.5
2025-09-02T1800,1767A,121.1115,41.0879,锦州市,南山,,48,41,48,33,36,128,,132,132,13,15,4,4,0.6,1
2025-09-02T1800,1768A,121.0604,40.8428,锦州市,开发区,颗粒物(PM10),61,72,63,34,36,160,,145,145,21,36,4,6,1.0,1.2
2025-09-02T1800,1769A,121.1836,41.1119,锦州市,百股街道,,45,36,47,22,33,143,,144,144,8,12,4,6,0.7,1
2025-09-02T1800,1770A,121.1178,41.1222,锦州市,天安街道,,47,45,60,25,45,150,,157,157,17,20,8,8,0.9,1.3
2025-09-02T1800,1771A,121.1303,41.1386,锦州市,北湖公园,,,49,56,19,35,129,,133,133,,15,,6,0.9,1.2
2025-09-02T1800,2160A,112.85,35.5051,晋城市,自来水公司,,48,31,37,14,19,153,,143,143,11,15,3,3,0.3,0.3
2025-09-02T1800,2161A,112.8318,35.4936,晋城市,白云商贸,,44,34,38,14,14,138,,131,131,9,14,3,3,0.3,0.4
2025-09-02T1800,2162A,112.8508,35.4887,晋城市,市环保局,,39,24,30,12,17,124,,117,117,6,12,3,3,1.0,0.8
2025-09-02T1800,2163A,112.8676,35.4897,晋城市,技术学院,,39,22,32,12,14,122,,114,114,8,15,4,4,0.7,0.8
2025-09-02T1800,2165A,112.8453,35.546,晋城市,白马寺,,,,23,,22,,,128,,,5,,7,,0.6
2025-09-02T1800,3620A,112.8271,35.4828,晋城市,泽州一中,,46,21,34,12,14,145,,136,136,7,13,2,2,0.8,0.8
2025-09-02T1800,2173A,112.7249,37.7067,晋中市,南都小区,,46,32,45,14,28,145,,136,136,7,14,5,6,0.5,0.7
2025-09-02T1800,2174A,112.6991,37.6982,晋中市,榆次区政府,,42,34,44,22,24,133,,128,128,8,14,6,6,1.2,0.5
2025-09-02T1800,2865A,112.7195,37.6828,晋中市,榆次三中,,46,29,42,19,20,145,,135,135,6,13,7,7,0.4,0.5
2025-09-02T1800,4200A,112.7478,37.6954,晋中市,迎宾街26号,,47,24,34,12,18,148,,138,138,5,11,9,9,0.6,0.7
2025-09-02T1800,2439A,112.2014,31.0481,荆门市,竹园小学,,37,31,33,16,17,117,,121,121,7,16,2,2,0.4,0.5
2025-09-02T1800,2440A,112.1969,30.9891,荆门市,掇刀,,39,19,33,17,17,122,,124,124,5,12,1,1,0.4,0.6
2025-09-02T1800,2441A,112.2213,31.0386,荆门市,石化一小,,37,26,35,18,18,118,,122,122,7,21,4,7,0.4,0.5
2025-09-02T1800,3012A,112.1849,31.0362,荆门市,西山林语,,37,22,26,16,16,116,,122,122,7,9,3,2,0.4,0.6
2025-09-02T1800,3547A,112.1632,31.0138,荆门市,龙泉中学南校,,40,27,30,16,17,126,,129,129,10,15,2,2,0.7,0.8
2025-09-02T1800,1844A,112.2494,30.3197,荆州市,市图书馆,,28,27,26,8,16,87,,114,112,13,15,3,4,0.5,0.5
2025-09-02T1800,1845A,112.2008,30.3544,荆州市,市委党校,,31,26,27,16,16,97,,116,116,6,11,5,6,0.7,0.7
2025-09-02T1800,3194A,112.2747,30.3122,荆州市,管委会,,,38,26,21,18,88,,106,105,8,13,,2,0.6,0.6
2025-09-02T1800,4268A,112.1722,30.3366,荆州市,学苑路85号,,32,,26,22,24,93,,118,118,11,14,6,6,0.4,0.4
2025-09-02T1800,2342A,117.3102,29.3867,景德镇市,王港中学,,,,,,,,,,,,,,,,
2025-09-02T1800,2343A,117.2117,29.2933,景德镇市,老干部活动中心,,30,19,26,17,17,96,,97,97,1,14,6,11,0.6,0.7
2025-09-02T1800,2344A,117.1894,29.2789,景德镇市,兽医站,,30,22,34,9,16,96,,97,97,3,12,5,9,0.7,0.8
2025-09-02T1800,2346A,117.2461,29.2956,景德镇市,陶研所,,29,23,26,19,18,91,,96,96,7,9,6,8,0.5,0.8
2025-09-02T1800,4289A,117.1542,29.2566,景德镇市,青少年活动中心,,29,21,27,18,17,90,,92,92,7,14,7,10,0.5,0.6
2025-09-02T1800,1803A,115.9872,29.6815,九江市,十里,,40,17,22,17,18,125,,114,114,5,22,4,5,0.2,0.4
2025-09-02T1800,1804A,115.9584,29.7046,九江市,茅山头,,40,32,21,13,14,127,,108,108,7,13,4,4,0.5,0.5
2025-09-02T1800,1805A,115.9877,29.7295,九江市,西园,,,,21,5,11,140,,118,118,15,25,6,6,0.7,0.8
2025-09-02T1800,1808A,115.9114,29.6038,九江市,综合工业园,,36,19,24,10,10,115,,110,110,8,22,6,6,0.6,0.7
2025-09-02T1800,1809A,116.0721,29.7535,九江市,石化总厂,,44,,30,30,21,139,,123,123,13,30,7,7,0.5,0.6
2025-09-02T1800,1810A,115.9773,29.5698,九江市,庐山气象台,,,,,,,,,,,,,,,,
2025-09-02T1800,3190A,116.0254,29.6994,九江市,外国语学校,,40,10,18,7,16,125,,110,110,11,24,4,4,0.5,0.6
2025-09-02T1800,4253A,116.0102,29.6594,九江市,莲花大道8号,,32,18,19,15,12,102,,100,100,2,9,5,5,0.4,0.5
2025-09-02T1800,4240A,98.4958,39.7339,酒泉市,玉门东路5号,颗粒物(PM10),153,256,215,58,48,107,,100,100,5,9,30,17,0.3,0.3
2025-09-02T1800,4241A,98.5099,39.7506,酒泉市,北大街108号,颗粒物(PM10),155,259,214,54,42,103,,98,98,3,8,28,17,0.2,0.2
2025-09-02T1800,2698A,76.0072,39.4467,喀什地区,巡警大队,"颗粒物(PM10),细颗粒物(PM2.5)",500,1383,597,535,226,86,,81,81,8,22,2,3,0.2,0.2
2025-09-02T1800,2699A,75.9755,39.4694,喀什地区,吾办,颗粒物(PM10),500,1389,607,439,188,76,,71,71,19,25,2,4,0.2,0.3
2025-09-02T1800,4027A,75.9483,39.4689,喀什地区,老干局,颗粒物(PM10),500,1188,541,381,176,81,,68,68,7,20,5,5,0.3,0.3
2025-09-02T1800,1824A,114.3389,34.7781,开封市,肿瘤医院,,44,27,40,14,21,140,,146,146,10,21,4,4,0.6,0.7
2025-09-02T1800,1826A,114.2885,34.7965,开封市,世纪星幼儿园,,42,27,36,14,25,134,,143,143,11,16,5,6,0.8,0.8
2025-09-02T1800,3147A,114.3438,34.8106,开封市,龙亭公园,,39,32,40,12,17,124,,138,138,12,14,6,6,0.6,0.6
2025-09-02T1800,3210A,114.3644,34.7964,开封市,汴京公园,,43,37,42,15,22,136,,148,146,10,13,5,5,0.4,0.5
2025-09-02T1800,3473A,114.2485,34.8306,开封市,技师学院,,38,23,35,20,24,121,,137,137,12,14,7,7,0.8,0.9
2025-09-02T1800,3592A,114.4644,34.7556,开封市,祥符区生态环境局,,37,26,34,13,23,116,,128,128,15,19,3,3,0.7,0.7
2025-09-02T1800,1951A,84.895,45.6094,克拉玛依市,长征新村,,32,29,28,13,14,100,,85,85,2,9,5,4,0.2,0.2
2025-09-02T1800,1952A,84.8988,45.5893,克拉玛依市,南林小区,,31,28,28,6,10,99,,85,85,2,14,7,7,0.1,0.1
2025-09-02T1800,1954A,84.905,44.3396,克拉玛依市,独山子区,,42,42,53,13,15,99,,82,82,13,17,25,10,0.5,0.4
2025-09-02T1800,1955A,85.6979,46.098,克拉玛依市,乌尔禾区商贸楼,,40,40,24,8,8,87,,79,79,6,7,3,3,0.2,0.2
2025-09-02T1800,3612A,85.1045,45.6899,克拉玛依市,白碱滩区新站,颗粒物(PM10),51,52,46,15,12,102,,85,85,5,6,11,10,0.3,0.3
2025-09-02T1800,2697A,76.1454,39.7142,克孜勒苏柯尔克孜自治州,市人民政府,颗粒物(PM10),500,1421,547,469,195,80,,70,70,4,15,4,16,0.2,0.2
2025-09-02T1800,3665A,76.1658,39.7157,克孜勒苏柯尔克孜自治州,克州文化中心,颗粒物(PM10),500,1377,633,476,197,82,,79,75,,10,7,13,0.2,0.2
2025-09-02T1800,1450A,102.8204,24.8886,昆明市,呈贡新区,,21,12,24,6,18,65,,65,65,7,21,3,6,0.4,0.5
2025-09-02T1800,1451A,102.6251,24.9608,昆明市,西山森林公园,,,,,,,,,,,,,,,,
2025-09-02T1800,1452A,102.7252,25.0902,昆明市,龙泉镇,,20,,30,9,13,63,,65,65,6,23,2,3,0.3,0.4
2025-09-02T1800,1453A,102.7266,25.0375,昆明市,东风东路,,20,11,30,9,18,64,,69,69,11,20,5,6,0.3,0.4
2025-09-02T1800,1454A,102.6742,25.0669,昆明市,金鼎山,,19,17,38,6,16,58,,60,60,6,21,2,3,0.4,0.4
2025-09-02T1800,1455A,102.6644,25.0401,昆明市,碧鸡广场,,18,9,32,3,15,55,,59,58,10,24,10,11,0.5,0.5
2025-09-02T1800,3179A,102.7494,25.0119,昆明市,官渡区博物馆,,,,,,,,,,,,,,,,
2025-09-02T1800,3375A,102.8017,24.8336,昆明市,青年创业园,,21,9,22,8,14,66,,62,62,2,16,2,2,0.4,0.5
2025-09-02T1800,3550A,102.7997,24.9786,昆明市,昆明学院,,21,12,32,7,19,67,,67,67,7,24,7,9,0.3,0.4
2025-09-02T1800,3551A,102.5967,24.6736,昆明市,晋宁区生态环境分局,,18,12,27,3,16,56,,55,55,3,14,5,4,0.4,0.5
2025-09-02T1800,3552A,102.6678,24.9856,昆明市,云天化总部,,17,7,24,3,14,54,,62,62,12,26,7,8,0.3,0.5
2025-09-02T1800,1456A,91.1319,29.6514,拉萨市,八廓街,,25,14,9,7,7,77,,69,69,11,13,11,9,0.6,0.5
2025-09-02T1800,1457A,91.1221,29.6747,拉萨市,市环保局,,25,7,9,7,7,77,,68,68,6,9,8,7,0.1,0.2
2025-09-02T1800,1458A,91.0874,29.6475,拉萨市,区监测站,,23,8,7,3,5,72,,65,65,7,10,4,4,0.2,0.2
2025-09-02T1800,1459A,91.1774,29.6541,拉萨市,西藏大学,,24,,8,7,5,74,,66,66,7,11,7,7,0.3,0.3
2025-09-02T1800,1460A,90.9798,29.6588,拉萨市,区辐射站,,,8,10,3,6,65,,56,56,,12,5,5,0.3,0.3
2025-09-02T1800,1461A,91.0834,29.6292,拉萨市,拉萨火车站,,22,6,9,3,6,68,,61,61,4,6,5,5,0.4,0.4
2025-09-02T1800,2520A,109.2203,23.7256,来宾市,来宾技工学校,,24,24,26,11,13,74,,66,66,3,11,8,11,0.5,0.6
2025-09-02T1800,3535A,109.1781,23.7297,来宾市,兴宾区政府,,25,12,19,9,13,77,,70,70,2,6,7,8,0.4,0.4
2025-09-02T1800,4002A,109.2416,23.7461,来宾市,中南小学,,25,23,26,14,17,79,,72,72,3,9,6,10,0.4,0.4
2025-09-02T1800,1477A,104.1373,35.9454,兰州市,榆中兰大校区,,,,,,,,,,,,,,,,
2025-09-02T1800,1479A,103.831,36.0464,兰州市,铁路设计院,颗粒物(PM10),77,104,63,39,31,100,,94,94,17,20,9,8,0.5,0.5
2025-09-02T1800,3241A,103.7439,36.0842,兰州市,百合公园,颗粒物(PM10),68,85,56,25,24,104,,97,97,6,8,3,3,0.5,0.3
2025-09-02T1800,3242A,103.9611,35.998,兰州市,和平,颗粒物(PM10),89,127,63,54,30,112,,102,102,8,5,14,8,0.5,0.4
2025-09-02T1800,4236A,103.6293,36.0938,兰州市,庄浪东路808号,颗粒物(PM10),67,83,64,30,27,104,,92,92,17,19,12,12,0.2,0.3
2025-09-02T1800,4237A,103.7251,36.1043,兰州市,安宁西路88号,颗粒物(PM10),70,90,62,41,32,114,,108,108,13,6,3,3,0.2,0.3
2025-09-02T1800,4238A,103.8470,36.0676,兰州市,北滨河东路1号,颗粒物(PM10),69,88,53,37,27,109,,106,106,11,14,8,8,0.3,0.3
2025-09-02T1800,3245A,103.6633,36.533,兰州新区,新区管委会,,40,31,53,19,27,126,,110,110,5,6,9,8,0.1,0.1
2025-09-02T1800,3246A,103.6975,36.4789,兰州新区,舟曲中学,颗粒物(PM10),52,54,61,24,22,120,,108,108,8,8,8,10,0.3,0.3
2025-09-02T1800,1067A,116.6708,39.5111,廊坊市,药材公司,,46,42,56,24,33,145,,145,145,7,13,4,4,0.4,0.5
2025-09-02T1800,1068A,116.7214,39.5589,廊坊市,开发区,,48,43,50,27,31,151,,148,148,8,12,2,2,0.4,0.5
2025-09-02T1800,1070A,116.7244,39.5269,廊坊市,北华航天学院,,50,46,49,22,35,159,,154,154,4,11,4,4,0.5,0.6
2025-09-02T1800,2919A,116.7022,39.5453,廊坊市,河北工业大学,臭氧1小时,53,36,49,27,30,162,,156,156,7,12,3,3,0.4,0.5
2025-09-02T1800,2535A,103.7723,29.5462,乐山市,花湖湾,,40,29,38,21,27,125,,88,88,7,14,8,8,0.4,0.5
2025-09-02T1800,2536A,103.7627,29.5844,乐山市,牛耳桥,,42,36,41,29,28,118,,91,91,12,19,5,6,0.7,0.8
2025-09-02T1800,2537A,103.7508,29.6006,乐山市,市第三水厂,,42,42,44,28,33,115,,88,88,14,21,4,4,0.7,0.8
2025-09-02T1800,2538A,103.7571,29.5664,乐山市,市监测站,,36,35,43,25,26,110,,81,81,8,15,6,7,0.8,0.9
2025-09-02T1800,3361A,103.7311,29.5628,乐山市,理工大学,,38,34,44,26,28,110,,89,89,8,17,7,9,0.7,0.9
2025-09-02T1800,2598A,100.2143,26.8576,丽江市,西南郊,,18,6,12,3,6,57,,59,59,4,7,6,6,0.4,0.5
2025-09-02T1800,2599A,100.2497,26.8802,丽江市,丽江古城,,18,18,18,6,8,56,,58,58,8,11,10,10,0.4,0.5
2025-09-02T1800,2600A,100.2203,26.8906,丽江市,市中心,,,9,13,7,9,53,,55,55,10,11,,10,0.5,0.5
2025-09-02T1800,1267A,119.914,28.4514,丽水市,监测站大楼,,22,16,25,8,8,70,,99,99,8,12,4,4,0.4,0.5
2025-09-02T1800,1268A,119.93,28.4586,丽水市,莲都小学,,,23,20,12,10,80,,104,99,7,14,3,4,,0.4
2025-09-02T1800,1269A,119.879,28.4231,丽水市,余庄前,,26,26,19,10,10,58,,90,90,9,10,4,4,0.5,0.5
2025-09-02T1800,1173A,119.176,34.5885,连云港市,市环境监测站,,35,9,17,3,7,110,,118,118,4,10,3,4,0.2,0.3
2025-09-02T1800,3000A,119.3581,34.6972,连云港市,德源药业,,32,17,16,3,5,102,,112,112,11,18,4,5,0.5,0.6
2025-09-02T1800,3007A,119.178,34.844,连云港市,新城一中,,39,16,23,6,10,123,,131,131,10,21,3,4,0.6,0.6
2025-09-02T1800,3008A,119.3608,34.7519,连云港市,胡沟管理处,,,9,12,3,2,98,,127,125,14,16,,13,0.7,0.8
2025-09-02T1800,3009A,119.1478,34.5911,连云港市,矿山设计院,,31,7,17,3,9,97,,105,105,5,12,6,7,0.6,0.7
2025-09-02T1800,3434A,119.2413,34.6539,连云港市,工贸学校,,35,8,13,3,6,110,,120,120,3,6,6,6,0.8,0.9
2025-09-02T1800,3664A,119.4172,34.7341,连云港市,连云街道,,,10,9,3,4,110,,118,118,6,9,,4,0.7,0.8
2025-09-02T1800,2571A,102.3431,27.8099,凉山彝族自治州,青龙寺,,19,6,15,3,9,60,,67,67,2,4,2,3,0.3,0.4
2025-09-02T1800,2572A,102.2721,27.8415,凉山彝族自治州,邛海宾馆,,24,19,23,10,14,75,,70,70,6,9,11,10,0.5,0.4
2025-09-02T1800,2573A,102.2625,27.898,凉山彝族自治州,西昌市政府,,37,26,22,3,12,116,,79,79,10,9,15,10,0.7,0.5
2025-09-02T1800,2574A,102.2685,27.8851,凉山彝族自治州,凉山州政府,,,29,29,12,18,72,,67,67,,10,14,11,0.1,0.7
2025-09-02T1800,4229A,102.2342,27.8859,凉山彝族自治州,凯乐南路30号,,23,23,25,10,14,70,,62,62,7,12,17,13,1.1,0.8
2025-09-02T1800,2212A,123.2,41.1953,辽阳市,宏伟区,,46,46,47,13,30,108,,121,121,11,13,3,3,0.9,1.2
2025-09-02T1800,2213A,123.1683,41.2495,辽阳市,新华园,颗粒物(PM10),69,87,66,34,37,168,,154,154,18,19,10,11,1.5,1.1
2025-09-02T1800,2214A,123.2354,41.2639,辽阳市,滨河路,颗粒物(PM10),62,73,73,21,31,100,,127,126,27,21,5,5,0.8,1
2025-09-02T1800,2215A,123.149,41.2991,辽阳市,铁西工业园,颗粒物(PM10),76,102,82,28,43,118,,139,139,28,24,5,3,1.6,1.4
2025-09-02T1800,2227A,125.1358,42.8845,辽源市,环保局,,25,22,46,10,16,79,,99,96,4,12,9,8,0.5,0.7
2025-09-02T1800,3239A,125.0764,42.9078,辽源市,银鹰制药,,28,28,29,6,17,81,,97,96,10,19,10,11,0.5,0.6
2025-09-02T1800,1625A,115.9848,36.4372,聊城市,区政府,臭氧1小时,79,30,23,18,15,183,,178,178,12,16,14,11,0.7,0.6
2025-09-02T1800,2878A,116.0072,36.4343,聊城市,聊大东校,臭氧1小时,82,31,25,17,15,185,,182,182,12,17,13,10,0.6,0.4
2025-09-02T1800,3200A,115.9819,36.4978,聊城市,监控中心,臭氧1小时,58,40,31,14,12,166,,170,170,14,26,12,10,0.9,0.7
2025-09-02T1800,3513A,116.0445,36.4361,聊城市,九州社区,臭氧1小时,64,33,31,18,14,171,,170,170,11,16,8,6,0.6,0.4
2025-09-02T1800,4018A,116.0567,36.4608,聊城市,星美广场,臭氧1小时,63,35,35,18,19,170,,172,172,6,13,9,8,0.8,0.6
2025-09-02T1800,2632A,94.3681,29.6376,林芝市,林芝监测站,,13,7,6,6,4,40,,44,44,4,2,11,9,0.4,0.4
2025-09-02T1800,2633A,94.3616,29.6616,林芝市,林芝人民医院,,12,12,7,3,4,35,,41,41,8,4,5,5,0.4,0.3
2025-09-02T1800,2603A,100.0781,23.8982,临沧市,市环保局,,,,16,,11,39,,41,41,,9,10,8,0.3,0.4
2025-09-02T1800,2604A,100.0894,23.8822,临沧市,市气象局,,11,9,16,6,14,35,,34,34,5,8,6,7,0.4,0.5
2025-09-02T1800,1733A,111.5531,36.0783,临汾市,临钢医院,,43,42,53,9,15,137,,127,127,6,20,4,4,0.8,0.8
2025-09-02T1800,1734A,111.5028,36.0714,临汾市,技工学校,,45,,44,31,27,135,,127,127,6,13,5,5,0.7,0.8
2025-09-02T1800,1736A,111.5018,36.0855,临汾市,市委,,50,50,57,10,16,142,,136,136,10,18,4,5,0.6,0.7
2025-09-02T1800,3018A,111.505,36.1014,临汾市,唐尧大酒店,颗粒物(PM10),51,52,57,9,15,137,,131,131,9,18,6,6,0.7,0.7
2025-09-02T1800,4244A,111.4879,36.0530,临汾市,启星学校,,44,39,41,24,27,140,,134,134,10,18,4,4,0.6,0.7
2025-09-02T1800,4271A,103.2464,35.6123,临夏回族自治州,滨河东路1号,,40,40,46,18,19,74,,74,74,7,8,8,8,0.2,0.3
2025-09-02T1800,4310A,103.2093,35.5995,临夏回族自治州,新华街21号,,31,31,49,17,24,85,,82,82,4,7,6,6,0.1,0.2
2025-09-02T1800,1618A,118.3429,35.0532,临沂市,沂河小区,,44,24,38,14,24,138,,145,145,10,19,9,10,0.6,0.7
2025-09-02T1800,1619A,118.295,35.0583,临沂市,鲁南制药厂,,47,22,35,16,18,150,,156,156,11,15,10,10,0.7,0.8
2025-09-02T1800,1620A,118.2794,34.9976,临沂市,新光毛纺厂,,45,19,29,18,21,141,,146,145,11,26,8,9,0.6,0.7
2025-09-02T1800,1621A,118.3956,35.0888,临沂市,河东保险公司,,46,27,38,7,18,146,,150,150,12,22,8,7,0.5,0.6
2025-09-02T1800,3370A,118.3564,35.0215,临沂市,十里堡居委,,46,24,35,12,26,146,,151,151,11,20,11,11,0.5,0.7
2025-09-02T1800,3496A,118.3604,35.1084,临沂市,南坊新区,,47,29,37,12,18,149,,154,154,12,19,10,10,0.7,0.7
2025-09-02T1800,3860A,118.3920,35.0300,临沂市,皇山花园小区,,45,19,44,10,26,141,,149,149,10,23,10,11,0.4,0.6
2025-09-02T1800,1870A,109.4856,24.3895,柳州市,柳东小学,,29,18,25,7,15,91,,80,80,4,11,4,5,0.3,0.3
2025-09-02T1800,1871A,109.4157,24.3277,柳州市,环保监测站,,24,23,25,3,15,76,,75,75,6,10,6,7,0.2,0.3
2025-09-02T1800,1872A,109.389,24.341,柳州市,河西水厂,,25,19,31,13,14,78,,74,74,5,10,4,5,0.5,0.5
2025-09-02T1800,1873A,109.4311,24.2921,柳州市,市四中,,26,20,28,12,14,81,,76,76,6,13,7,7,0.8,0.9
2025-09-02T1800,1874A,109.4006,24.3631,柳州市,市九中,颗粒物(PM10),52,53,37,7,17,76,,75,75,6,9,4,4,0.3,0.4
2025-09-02T1800,1875A,109.4958,24.3134,柳州市,古亭山,,27,22,26,13,13,85,,74,74,4,15,5,6,0.4,0.4
2025-09-02T1800,3402A,109.5422,24.3996,柳州市,市二中,,,19,26,9,14,89,,79,79,6,13,7,8,,0.7
2025-09-02T1800,2307A,116.5079,31.737,六安市,监测大楼,,28,17,16,12,13,88,,95,95,6,8,4,4,0.5,0.6
2025-09-02T1800,2308A,116.4738,31.7643,六安市,皖西学院,,30,16,17,9,11,95,,94,94,1,4,2,3,0.3,0.4
2025-09-02T1800,2309A,116.4996,31.7905,六安市,朝阳厂,,27,13,10,13,12,85,,88,88,6,11,6,6,0.3,0.4
2025-09-02T1800,2310A,116.5567,31.7886,六安市,开发区,,,,9,8,12,80,,88,88,1,17,2,2,,0.3
2025-09-02T1800,2576A,104.8,26.5892,六盘水市,窑上,,35,35,23,3,6,80,,78,78,4,4,6,5,0.4,0.3
2025-09-02T1800,2577A,104.83,26.5917,六盘水市,黄土坡,,26,20,17,17,9,81,,77,77,8,8,6,5,0.3,0.3
2025-09-02T1800,2578A,104.89,26.5939,六盘水市,水钢,,26,26,22,18,11,80,,76,76,4,4,9,6,0.2,0.2
2025-09-02T1800,2579A,104.8475,26.5894,六盘水市,民中,,25,16,15,9,7,80,,76,76,6,5,2,2,0.4,0.3
2025-09-02T1800,2580A,104.9544,26.5506,六盘水市,双水,,25,17,15,3,6,78,,69,69,6,6,3,3,0.1,0.1
2025-09-02T1800,2335A,117.0189,25.1181,龙岩市,龙岩师专,,,,,,,,,,,,,,,,
2025-09-02T1800,2336A,117.0217,25.1033,龙岩市,龙岩市监测站,,29,29,21,18,15,52,,76,76,17,11,5,6,0.6,0.6
2025-09-02T1800,2337A,117.0258,25.0661,龙岩市,闽西职业技术学院,,22,15,24,13,14,68,,77,77,9,10,3,6,0.5,0.6
2025-09-02T1800,2338A,117.0196,25.0306,龙岩市,龙岩学院,,29,29,24,14,17,69,,74,74,10,10,4,7,0.5,0.5
2025-09-02T1800,2665A,105.0822,33.3261,陇南市,汉王镇固水子,,,,,,,,,,,,,,,,
2025-09-02T1800,2885A,104.9339,33.3826,陇南市,滨江中学,,38,38,34,9,17,65,,81,56,12,8,8,8,0.8,0.7
2025-09-02T1800,3247A,104.955,33.371,陇南市,市总工会,,42,42,36,9,10,64,,85,54,9,9,6,6,0.4,0.3
2025-09-02T1800,2487A,111.9589,27.8901,娄底市,电视发射台,,48,48,50,20,21,94,,108,108,5,7,4,5,0.4,0.6
2025-09-02T1800,2488A,111.9975,27.725,娄底市,市监测站,,37,37,38,19,20,91,,100,100,10,21,6,8,0.5,0.9
2025-09-02T1800,2489A,112.0194,27.7314,娄底市,市委党校,,42,33,32,29,22,101,,104,104,7,14,8,8,0.9,0.9
2025-09-02T1800,2490A,111.9561,27.7569,娄底市,涟钢,,35,35,41,13,19,68,,92,92,13,16,2,6,1.1,1.3
2025-09-02T1800,2491A,111.9892,27.7044,娄底市,市政府,,38,,32,26,23,104,,108,108,5,10,6,7,0.7,0.9
2025-09-02T1800,1893A,105.4324,28.9634,泸州市,九狮山,细颗粒物(PM2.5),53,50,67,37,41,137,,137,137,4,8,6,6,0.4,0.4
2025-09-02T1800,1894A,105.4427,28.9063,泸州市,小市上码头,,36,36,47,25,30,85,,90,90,6,8,5,5,0.6,0.6
2025-09-02T1800,1895A,105.4241,28.8573,泸州市,兰田宪桥,,42,42,51,22,34,115,,133,133,2,2,7,8,0.5,0.5
2025-09-02T1800,1896A,105.4379,28.8833,泸州市,市环监站,,39,31,45,27,36,124,,126,126,9,11,6,6,0.3,0.4
2025-09-02T1800,4272A,105.3689,28.7783,泸州市,纳溪中医医院,,,28,47,25,34,140,,129,129,7,18,2,4,,0.7
2025-09-02T1800,2183A,111.1406,37.5211,吕梁市,环保局,,47,47,66,32,28,88,,125,125,33,29,7,4,0.7,0.8
2025-09-02T1800,2185A,111.1297,37.5136,吕梁市,自来水公司,,38,38,80,26,25,92,,121,121,20,25,4,6,0.7,0.6
2025-09-02T1800,2867A,111.1283,37.51,吕梁市,马茂庄小学,颗粒物(PM10),65,80,77,26,26,80,,123,123,38,33,4,6,0.7,0.7
2025-09-02T1800,1812A,112.3931,34.6516,洛阳市,市委党校,,,59,40,17,22,127,,133,133,18,17,7,8,,0.5
2025-09-02T1800,1815A,112.494,34.6886,洛阳市,河南林校,,44,38,51,19,26,140,,141,141,15,22,6,8,0.4,0.5
2025-09-02T1800,1816A,112.3844,34.623,洛阳市,开发区管委会,,45,27,33,14,20,143,,147,147,9,10,4,5,0.5,0.5
2025-09-02T1800,1817A,112.4267,34.6258,洛阳市,市委新办公区,,40,28,34,21,23,125,,132,132,12,13,8,8,0.4,0.5
2025-09-02T1800,3340A,112.6005,34.6326,洛阳市,伊滨,,40,38,50,25,28,125,,129,129,18,23,9,9,0.5,0.6
2025-09-02T1800,3341A,112.4951,34.6332,洛阳市,中移产业园,,,,45,,29,124,,131,131,,22,8,9,0.7,0.8
2025-09-02T1800,3593A,112.5736,34.8993,洛阳市,吉利监测站,,46,42,51,16,27,147,,144,144,11,14,5,6,0.6,0.7
2025-09-02T1800,3635A,112.3677,34.662,洛阳市,河科大西苑校区,,42,31,42,14,20,134,,139,139,20,25,7,8,0.5,0.5
2025-09-02T1800,3636A,112.4388,34.6781,洛阳市,英才小学,,43,34,46,20,31,136,,134,134,14,19,7,8,0.6,0.7
2025-09-02T1800,4214A,112.4600,34.6949,洛阳市,春都路1号院,,44,44,46,12,20,134,,132,132,10,12,9,9,0.7,0.8
2025-09-02T1800,2399A,114.051,33.5699,漯河市,三五一五工厂,,46,18,36,18,20,146,,147,147,7,15,6,6,0.6,0.5
2025-09-02T1800,2400A,114.0055,33.5698,漯河市,漯河大学,,49,26,29,17,19,155,,156,156,6,13,5,5,0.6,0.6
2025-09-02T1800,2401A,114.0138,33.5828,漯河市,市水利局,,46,31,34,9,19,146,,149,149,8,13,5,6,0.5,0.5
2025-09-02T1800,2402A,114.0261,33.5698,漯河市,市广电局,,50,22,31,14,20,157,,157,157,8,12,3,3,0.6,0.6
2025-09-02T1800,3478A,113.9749,33.5664,漯河市,市图书馆,,46,26,33,17,21,147,,150,150,9,15,5,5,0.4,0.5
2025-09-02T1800,4250A,114.0892,33.5882,漯河市,韶山路11号,,46,29,37,16,20,147,,148,148,9,18,3,4,0.6,0.6
2025-09-02T1800,1798A,118.5092,31.6837,马鞍山市,湖东路四小,,38,20,31,10,24,120,,120,120,7,13,6,6,0.6,0.8
2025-09-02T1800,1799A,118.5024,31.6449,马鞍山市,开发区,,40,28,29,11,18,126,,122,122,6,13,7,8,0.6,0.9
2025-09-02T1800,1802A,118.6245,31.7241,马鞍山市,濮塘,,37,19,24,14,18,118,,105,105,4,9,8,8,0.8,0.9
2025-09-02T1800,3633A,118.4918,31.6809,马鞍山市,雨山,,36,20,25,11,21,114,,119,119,10,15,6,7,0.5,0.7
2025-09-02T1800,4191A,118.5274,31.72227,马鞍山市,慈湖高新区,,35,15,31,12,20,111,,114,114,13,16,6,7,0.3,0.5
2025-09-02T1800,1686A,111.0286,21.4688,茂名市,电白南海,,14,14,17,7,10,27,,37,36,8,8,3,4,0.5,0.4
2025-09-02T1800,1687A,110.9294,21.6533,茂名市,茂石化七小,,,22,19,9,10,28,,41,40,8,9,,12,0.5,0.4
2025-09-02T1800,1688A,110.9107,21.6687,茂名市,健康路,,10,7,10,7,10,30,,46,42,8,8,4,7,0.7,0.6
2025-09-02T1800,1689A,110.8592,21.6828,茂名市,高岭,,22,22,21,3,3,25,,41,40,15,12,9,13,0.5,0.6
2025-09-02T1800,3450A,111.01,21.5165,茂名市,电白水东,,14,14,11,7,5,28,,38,38,10,10,5,6,0.4,0.5
2025-09-02T1800,2539A,104.0308,30.0478,眉山市,黑龙滩水库,,,6,22,3,18,105,,103,103,2,9,,3,0.3,0.6
2025-09-02T1800,2540A,103.8416,30.0874,眉山市,气象局,,40,38,50,24,24,126,,114,114,17,20,7,8,0.3,0.3
2025-09-02T1800,3137A,103.8578,30.0744,眉山市,市委党校,,,46,38,17,20,113,,102,102,16,20,,8,0.5,0.6
2025-09-02T1800,3148A,103.8291,30.0564,眉山市,区人社局,颗粒物(PM10),54,57,54,17,18,115,,109,109,20,22,14,14,0.7,0.7
2025-09-02T1800,1690A,116.1231,24.3284,梅州市,梅江月梅,,28,24,20,12,13,88,,88,88,10,11,8,8,0.6,0.5
2025-09-02T1800,1691A,116.0797,24.2719,梅州市,梅县新城,,28,28,23,11,13,73,,86,86,10,10,6,7,0.5,0.5
2025-09-02T1800,1692A,116.1248,24.2654,梅州市,环境监控中心,,27,27,19,13,15,66,,80,80,6,9,3,6,0.4,0.3
2025-09-02T1800,3315A,116.1233,24.2991,梅州市,梅龙,,40,,20,28,18,74,,81,81,7,8,7,8,1.0,0.6
2025-09-02T1800,1878A,104.7778,31.4741,绵阳市,富乐山,,33,,30,23,20,82,,74,74,5,14,8,8,0.6,0.6
2025-09-02T1800,1880A,104.6697,31.4668,绵阳市,高新区自来水公司,,26,26,37,9,17,79,,80,80,10,21,8,8,0.6,0.7
2025-09-02T1800,1881A,104.7287,31.5075,绵阳市,三水厂,,25,23,31,14,22,79,,78,78,12,24,10,9,0.5,0.5
2025-09-02T1800,3491A,104.69,31.5322,绵阳市,西科大附属小学,,32,32,40,18,20,85,,84,84,10,24,8,8,1.1,1.1
2025-09-02T1800,3492A,104.5648,31.5343,绵阳市,安州区旅游局,,32,,24,22,19,84,,78,78,13,14,9,10,0.6,0.6
2025-09-02T1800,4226A,104.7651,31.4531,绵阳市,绵阳市气象局,,26,23,34,18,21,82,,70,70,6,20,7,7,0.4,0.5
2025-09-02T1800,1784A,129.61,44.561,牡丹江市,环保大楼,,26,26,24,13,13,55,,69,69,18,13,4,3,0.3,0.3
2025-09-02T1800,1785A,129.6115,44.5782,牡丹江市,文化广场,,39,,22,27,20,56,,69,69,19,16,6,6,0.4,0.5
2025-09-02T1800,1786A,129.5904,44.5963,牡丹江市,第一医院,,33,24,25,23,17,56,,71,71,18,17,7,8,0.3,0.3
2025-09-02T1800,1787A,129.6364,44.6075,牡丹江市,机车工厂,,37,37,29,15,11,54,,67,67,13,12,8,7,0.7,0.4
2025-09-02T1800,1788A,129.6386,44.5462,牡丹江市,第一中学,,40,33,26,28,13,46,,70,69,26,14,6,6,0.3,0.2
2025-09-02T1800,2531A,105.0703,29.61,内江市,市监测站,,42,31,25,29,22,120,,117,117,10,10,6,7,0.6,0.9
2025-09-02T1800,2532A,105.0717,29.5947,内江市,东兴区政府,,38,21,22,19,16,119,,113,113,9,12,5,5,0.6,0.6
2025-09-02T1800,2533A,105.0653,29.5817,内江市,内江二中,,39,,27,27,23,114,,111,111,12,15,3,3,0.6,0.6
2025-09-02T1800,2534A,105.0406,29.5822,内江市,内江日报社,,40,,28,26,23,127,,120,120,7,14,5,5,0.5,0.5
2025-09-02T1800,2628A,92.0657,31.4846,那曲市,那曲监测站,,22,12,17,9,10,69,,63,63,9,13,16,14,0.3,0.4
2025-09-02T1800,4243A,92.0515,31.4787,那曲市,那曲市委宣传部,,25,9,8,3,5,78,,72,72,4,7,4,4,0.3,0.4
2025-09-02T1800,1290A,115.8931,28.6843,南昌市,省外办,,49,46,34,34,26,133,,121,121,4,7,8,7,1.1,0.9
2025-09-02T1800,1291A,115.8886,28.7003,南昌市,省林业公司,,46,44,27,27,19,146,,124,124,6,10,7,5,1.1,0.7
2025-09-02T1800,1292A,115.8126,28.7442,南昌市,林科所,,48,39,24,24,13,152,,132,132,2,15,6,5,0.7,0.5
2025-09-02T1800,1294A,115.8518,28.687,南昌市,建工学校,,45,36,33,31,26,130,,120,120,15,19,8,8,0.8,0.8
2025-09-02T1800,1295A,115.8921,28.6424,南昌市,象湖,,43,35,24,17,14,136,,133,133,10,14,8,9,0.7,0.7
2025-09-02T1800,1296A,115.7423,28.7996,南昌市,武术学校,,32,32,16,8,11,55,,88,88,8,9,8,9,0.6,0.6
2025-09-02T1800,3046A,115.9084,28.6062,南昌市,机电学校,,42,42,32,27,17,124,,126,126,10,15,6,6,0.5,0.5
2025-09-02T1800,3690A,115.9721,28.7031,南昌市,外国语学校,,50,45,29,21,14,157,,142,142,8,14,9,7,0.8,0.6
2025-09-02T1800,4192A,115.9316,28.68677,南昌市,南京东路235号,,45,44,33,30,17,141,,130,130,14,14,15,11,1.3,0.9
2025-09-02T1800,1905A,106.056,30.8064,南充市,西山风景区,,,,,,,,,,,,,,,,
2025-09-02T1800,1906A,106.0789,30.8023,南充市,南充市委,细颗粒物(PM2.5),62,51,48,44,35,111,,101,101,11,13,5,4,0.5,0.5
2025-09-02T1800,1907A,106.1031,30.8217,南充市,南充炼油厂,,40,40,46,28,31,108,,100,100,6,10,5,6,0.2,0.2
2025-09-02T1800,4227A,106.1083,30.7884,南充市,梨树横街98号,,47,47,37,26,28,127,,119,119,6,10,5,4,0.3,0.3
2025-09-02T1800,4304A,106.1172,30.843,南充市,清泉寺北路188号,,42,42,44,28,30,120,,107,107,6,10,4,5,0.3,0.3
2025-09-02T1800,4305A,106.067,30.7616,南充市,同庆路1号,,39,35,37,27,25,124,,109,109,10,12,6,5,0.5,0.5
2025-09-02T1800,1151A,118.8086,32.1065,南京市,迈皋桥,,39,,16,27,12,88,,75,75,24,33,3,4,0.7,0.6
2025-09-02T1800,1152A,118.7538,32.0551,南京市,草场门,,39,39,21,19,16,115,,110,110,14,16,3,4,0.8,0.8
2025-09-02T1800,1153A,118.7794,32.0745,南京市,山西路,,,34,23,12,10,132,,121,121,,26,4,4,0.7,0.6
2025-09-02T1800,1154A,118.7752,32.0023,南京市,中华门,,38,22,20,17,12,121,,111,111,8,14,4,4,0.8,0.8
2025-09-02T1800,1155A,118.8109,32.0309,南京市,瑞金路,,40,27,17,19,13,125,,110,110,1,15,7,6,0.4,0.5
2025-09-02T1800,1156A,118.7997,32.0754,南京市,玄武湖,,39,17,22,9,7,124,,109,109,12,11,3,4,0.4,0.4
2025-09-02T1800,1157A,118.6414,32.0931,南京市,浦口,,30,28,23,11,9,96,,113,113,12,15,5,5,0.6,0.6
2025-09-02T1800,1158A,118.7356,31.9996,南京市,奥体中心,,39,30,22,22,15,123,,119,119,12,17,5,5,0.5,0.5
2025-09-02T1800,1159A,118.9125,32.1028,南京市,仙林大学城,,41,31,22,14,7,129,,117,117,6,12,6,6,0.8,0.8
2025-09-02T1800,3422A,118.8436,31.9198,南京市,江宁彩虹桥,,44,17,20,17,14,138,,114,114,12,18,3,4,0.6,0.6
2025-09-02T1800,3427A,118.8554,32.3578,南京市,六合雄州,,40,28,22,10,10,128,,120,120,16,13,4,5,1.2,1.2
2025-09-02T1800,4249A,118.8708,31.3402,南京市,汶溪路181号,,,17,14,11,15,121,,112,112,,9,4,4,0.6,0.7
2025-09-02T1800,4312A,119.019,31.6512,南京市,中山西路1号,,36,17,15,17,14,115,,105,105,13,13,3,4,0.8,0.8
2025-09-02T1800,1401A,108.3103,22.7881,南宁市,二十一中,,17,11,19,9,12,52,,59,59,6,9,4,6,0.4,0.5
2025-09-02T1800,1402A,108.3141,22.8528,南宁市,北湖,,20,10,19,6,12,63,,75,75,6,8,2,4,0.4,0.4
2025-09-02T1800,1403A,108.3206,22.8225,南宁市,市监测站,,18,17,19,12,9,57,,67,67,4,7,3,5,0.4,0.4
2025-09-02T1800,1404A,108.3829,22.8037,南宁市,大自然花园,,20,15,21,14,13,57,,62,62,3,8,4,6,0.4,0.5
2025-09-02T1800,1405A,108.4394,22.7904,南宁市,仙葫,,17,12,19,7,10,52,,56,56,3,7,6,6,0.4,0.5
2025-09-02T1800,1406A,108.2397,22.8467,南宁市,区农职院,,23,,22,12,12,72,,78,78,12,13,5,6,0.2,0.3
2025-09-02T1800,1407A,108.3275,22.735,南宁市,英华嘉园,,18,,22,12,14,53,,58,58,8,12,2,3,0.4,0.4
2025-09-02T1800,3401A,108.4834,22.7618,南宁市,红星社区,,25,25,22,14,11,57,,60,60,6,10,2,3,0.4,0.4
2025-09-02T1800,4221A,108.2177,22.7774,南宁市,乐贤路16号,,19,15,30,10,14,60,,66,66,8,18,3,7,0.4,0.5
2025-09-02T1800,2331A,118.0966,26.6761,南平市,茫荡山,,,,11,,7,,,75,,,,,1,,0.3
2025-09-02T1800,2332A,118.1681,26.6369,南平市,南平市监测站,,29,28,19,14,10,90,,83,83,4,8,6,4,0.4,0.4
2025-09-02T1800,2333A,118.1825,26.6489,南平市,南平铝业有限公司,,28,23,17,15,9,88,,84,84,4,7,5,4,0.6,0.6
2025-09-02T1800,2334A,118.1756,26.6272,南平市,南平七中,,28,28,19,18,11,86,,82,82,4,5,4,3,0.7,0.4
2025-09-02T1800,1168A,120.9098,31.9663,南通市,狼山街道,,24,8,14,6,11,76,,71,71,12,14,2,2,0.5,0.7
2025-09-02T1800,1169A,120.86,32.0005,南通市,虹桥,,27,,14,9,11,85,,81,81,18,17,2,2,0.7,0.9
2025-09-02T1800,1170A,120.87,32.02,南通市,城中,,22,10,18,3,9,70,,65,65,11,15,4,4,0.5,0.7
2025-09-02T1800,1171A,120.94,31.93,南通市,星湖花园,,24,6,11,6,11,74,,70,69,16,13,2,2,0.4,0.5
2025-09-02T1800,1172A,120.81,32.0417,南通市,紫琅学院,,21,6,11,3,7,66,,74,73,30,14,3,3,0.7,0.8
2025-09-02T1800,3291A,121.067,32.062,南通市,通州监测站,,28,,9,7,7,87,,88,88,7,9,1,1,0.5,0.7
2025-09-02T1800,3432A,120.9348,31.9883,南通市,环境教育馆,,26,9,20,3,9,83,,76,76,9,14,2,3,0.2,0.4
2025-09-02T1800,2404A,112.5224,33.0122,南阳市,瓦房庄,,47,36,34,9,9,148,,142,142,8,8,7,7,0.5,0.5
2025-09-02T1800,2405A,112.5003,32.9735,南阳市,汉画馆,,,,33,16,11,141,,136,136,8,10,8,8,0.6,0.6
2025-09-02T1800,2406A,112.5573,33.027,南阳市,气象站,,48,26,27,12,11,153,,149,149,10,12,8,8,0.4,0.5
2025-09-02T1800,2407A,112.5481,32.9689,南阳市,理工学院,,48,34,31,3,6,152,,144,144,7,9,8,8,0.5,0.5
2025-09-02T1800,4008A,112.5234,32.9922,南阳市,卧龙区政府,,,30,27,,11,143,,138,138,10,11,7,6,0.5,0.5
2025-09-02T1800,1234A,121.8358,29.911,宁波市,区环保大楼,,22,22,24,7,9,49,,96,90,10,10,5,5,0.3,0.3
2025-09-02T1800,1235A,121.56,29.82,宁波市,万里学院,,29,19,24,9,15,90,,110,110,3,16,5,7,0.5,0.5
2025-09-02T1800,1236A,121.713,29.9572,宁波市,龙赛医院,,26,26,31,9,10,67,,115,113,10,14,4,5,0.3,0.3
2025-09-02T1800,1239A,121.633,29.7733,宁波市,钱湖水厂,,26,23,19,13,10,82,,108,105,10,13,5,6,0.4,0.5
2025-09-02T1800,1240A,121.5856,29.8635,宁波市,太古小学,,29,29,28,14,13,70,,114,113,17,14,2,3,0.5,0.5
2025-09-02T1800,1241A,121.524,29.8674,宁波市,市环境监测中心,,29,26,26,20,12,74,,112,112,11,20,7,9,0.6,0.6
2025-09-02T1800,2871A,121.6147,29.9017,宁波市,万里国际学校,,26,26,22,15,14,76,,127,120,13,12,4,5,0.3,0.5
2025-09-02T1800,3710A,121.5594,29.8975,宁波市,白沙活动中心,,24,20,20,13,11,76,,127,127,14,19,6,7,0.4,0.4
2025-09-02T1800,2339A,119.5001,26.6946,宁德市,金涵水库,,,,21,,10,,,32,,,4,,1,,0.9
2025-09-02T1800,2341A,119.5388,26.6612,宁德市,宁德市监测站,,28,,19,19,13,81,,97,97,9,13,4,4,0.9,0.7
2025-09-02T1800,3209A,119.5231,26.6562,宁德市,宁德一中,,25,23,23,6,13,78,,100,100,8,8,5,4,0.7,0.6
2025-09-02T1800,2618A,98.8601,25.8567,怒江傈僳族自治州,州监测站,,29,27,24,20,15,63,,67,67,7,7,6,5,0.5,0.4
2025-09-02T1800,2619A,98.8546,25.8417,怒江傈僳族自治州,泸水一中,,30,30,18,3,12,48,,55,55,14,11,4,4,0.6,0.5
2025-09-02T1800,1888A,101.6891,26.571,攀枝花市,弄弄坪,,25,20,40,8,15,78,,78,78,8,22,8,13,0.8,1.1
2025-09-02T1800,1889A,101.5769,26.5928,攀枝花市,河门口,,25,16,26,8,14,77,,78,78,6,11,9,14,0.6,0.8
2025-09-02T1800,1890A,101.7169,26.585,攀枝花市,炳草岗,,25,22,48,7,22,78,,78,78,8,22,6,9,0.6,0.8
2025-09-02T1800,1891A,101.7369,26.5008,攀枝花市,仁和,,21,13,20,6,12,65,,62,62,6,10,8,9,0.4,0.6
2025-09-02T1800,2835A,101.7227,26.567,攀枝花市,四十中小,,,32,37,17,21,75,,76,76,,21,11,13,0.6,1.1
2025-09-02T1800,1604A,122.0303,41.1489,盘锦市,开发区,颗粒物(PM10),53,55,36,24,34,117,,124,124,15,18,8,8,0.5,0.7
2025-09-02T1800,1605A,122.0485,41.0883,盘锦市,兴隆台,,40,40,37,23,28,117,,130,130,16,23,6,6,0.7,0.9
2025-09-02T1800,1606A,121.8297,41.1028,盘锦市,新生街道,,40,40,28,26,17,103,,135,133,13,21,4,5,0.9,0.8
2025-09-02T1800,1832A,113.3257,33.742,平顶山市,新华旅馆,,45,39,43,16,16,142,,148,148,8,17,6,5,0.4,0.6
2025-09-02T1800,1833A,113.2919,33.737,平顶山市,规划设计院,,44,33,38,15,23,138,,146,146,9,16,6,6,0.6,0.7
2025-09-02T1800,1834A,113.182,33.774,平顶山市,平顶山工学院,,45,34,34,12,19,144,,154,154,10,16,6,7,0.4,0.5
2025-09-02T1800,3204A,113.3025,33.73,平顶山市,规划局,,47,29,40,12,19,149,,152,152,7,16,6,7,0.4,0.5
2025-09-02T1800,3594A,112.8867,33.9116,平顶山市,石龙区,,45,34,48,18,24,143,,160,158,10,25,5,6,0.5,0.7
2025-09-02T1800,2656A,106.6692,35.5461,平凉市,聚贤嘉苑,颗粒物(PM10),60,69,61,31,30,101,,95,95,3,14,6,7,0.4,0.6
2025-09-02T1800,2657A,106.7021,35.5307,平凉市,博物馆,颗粒物(PM10),61,72,69,31,23,99,,90,90,4,17,10,10,0.4,0.7
2025-09-02T1800,2347A,114.0997,27.5002,萍乡市,武功山,,10,,8,3,5,32,,51,50,3,3,12,10,0.2,0.2
2025-09-02T1800,2348A,113.8385,27.6434,萍乡市,中医院,,33,22,29,20,15,103,,120,120,10,16,11,15,0.8,1
2025-09-02T1800,2349A,113.8493,27.6253,萍乡市,市政府车库,,,24,31,20,20,89,,102,102,4,14,,13,0.7,1.1
2025-09-02T1800,2350A,113.8676,27.6435,萍乡市,市环保局,,33,11,31,11,20,103,,116,116,11,13,4,10,1.1,1
2025-09-02T1800,2351A,113.866,27.6198,萍乡市,安源区政府,,33,,27,23,19,88,,100,100,7,12,16,19,0.8,1.1
2025-09-02T1800,2319A,119.0141,25.4325,莆田市,荔城区仓后路,颗粒物(PM10),55,60,28,37,15,130,,103,103,17,10,8,7,0.8,0.7
2025-09-02T1800,2320A,119.0015,25.4553,莆田市,莆田市监测站,,45,45,23,31,11,135,,100,100,14,7,7,6,0.5,0.5
2025-09-02T1800,2321A,119.1119,25.4561,莆田市,涵江区六中,颗粒物(PM10),58,65,26,35,14,141,,122,122,12,11,7,5,0.6,0.4
2025-09-02T1800,2322A,119.1013,25.3215,莆田市,秀屿区政府,,44,40,31,30,19,138,,132,132,8,12,7,7,0.5,0.5
2025-09-02T1800,2323A,118.981,25.4792,莆田市,东圳水库,,,,16,,21,,,59,,,4,,3,,0.8
2025-09-02T1800,2392A,115.0312,35.7636,濮阳市,环保局,臭氧1小时,53,29,30,22,21,162,,152,152,9,10,5,5,0.6,0.6
2025-09-02T1800,2394A,115.0574,35.7609,濮阳市,油田运输公司,臭氧1小时,58,41,36,23,22,166,,159,159,8,12,3,3,0.7,0.7
2025-09-02T1800,3021A,115,35.7668,濮阳市,濮水河管理处,,,33,28,18,18,143,,140,140,12,12,,3,0.3,0.4
2025-09-02T1800,4216A,115.0924,35.7686,濮阳市,任丘路479号,臭氧1小时,55,41,40,24,22,164,,155,155,8,11,5,6,0.6,0.7
2025-09-02T1800,2601A,100.98,22.7633,普洱市,市环保局,,29,29,24,3,18,50,,46,46,4,5,6,6,0.5,0.5
2025-09-02T1800,2602A,100.9817,22.8322,普洱市,普洱第二中学,,21,21,22,9,12,50,,48,48,4,7,6,6,0.3,0.4
2025-09-02T1800,2262A,131.0518,45.8751,七台河市,新一中,,27,27,15,12,9,74,,90,89,8,11,10,9,0.5,0.8
2025-09-02T1800,3345A,131.0577,45.7879,七台河市,中波台,,49,49,21,3,7,64,,82,80,19,20,7,8,0.6,0.7
2025-09-02T1800,3637A,131.0176,45.7761,七台河市,人民广场,,21,21,30,14,12,50,,74,71,23,17,11,12,0.6,0.7
2025-09-02T1800,3684A,130.8781,45.8222,七台河市,新建矿广场,颗粒物(PM10),54,58,27,14,8,38,,70,66,20,12,9,10,0.5,0.3
2025-09-02T1800,1779A,123.9305,47.3636,齐齐哈尔市,安居小区,,22,22,29,14,9,63,,64,64,12,13,6,7,0.5,0.5
2025-09-02T1800,1780A,123.9488,47.3386,齐齐哈尔市,中心广场,,24,16,17,3,5,74,,71,71,13,12,6,6,0.4,0.5
2025-09-02T1800,1781A,123.9483,47.3227,齐齐哈尔市,农牧车辆厂,,23,22,22,3,8,73,,70,70,10,10,7,7,0.4,0.4
2025-09-02T1800,1783A,123.945,47.2988,齐齐哈尔市,市环境监测站,,24,13,17,6,8,74,,70,70,11,10,6,6,0.4,0.4
2025-09-02T1800,3662A,123.6333,47.2075,齐齐哈尔市,富区青少年活动中心,,22,22,41,7,16,64,,65,65,6,16,4,12,0.3,0.7
2025-09-02T1800,2591A,107.9783,26.5747,黔东南苗族侗族自治州,市环境监测站,,23,15,16,13,14,71,,78,78,4,6,2,3,0.1,0.1
2025-09-02T1800,2881A,107.8908,26.5311,黔东南苗族侗族自治州,凯里学院,,25,,14,14,11,78,,83,83,6,9,2,3,0.4,0.4
2025-09-02T1800,2593A,107.5228,26.2403,黔南布依族苗族自治州,小围寨,,22,6,8,3,4,68,,68,68,2,5,1,2,0.3,0.3
2025-09-02T1800,3538A,107.5175,26.2978,黔南布依族苗族自治州,沙坝,,23,7,14,3,1,71,,72,72,4,8,3,3,0.3,0.3
2025-09-02T1800,2589A,104.9022,25.0925,黔西南布依族苗族自治州,场坝街,,19,11,17,3,6,58,,56,56,5,7,6,5,0.3,0.3
2025-09-02T1800,2590A,104.8811,25.0992,黔西南布依族苗族自治州,坪东大道,,27,27,30,12,10,54,,54,54,5,7,2,2,0.5,0.5
2025-09-02T1800,2502A,108.6236,21.9667,钦州市,市环保站,,,,23,,9,58,,74,74,,13,7,4,0.4,0.5
2025-09-02T1800,2503A,108.6549,21.9481,钦州市,沙埠小学,,26,26,28,12,13,58,,71,71,7,14,1,2,0.5,0.5
2025-09-02T1800,2504A,108.5989,21.7431,钦州市,港区一小,,30,30,30,9,12,58,,57,57,8,17,2,5,0.4,0.6
2025-09-02T1800,3404A,108.5959,21.9633,钦州市,北职校,,20,16,24,7,11,64,,72,72,5,12,4,3,0.5,0.5
2025-09-02T1800,1043A,119.7493,40.0116,秦皇岛市,第一关,臭氧1小时,95,90,61,47,30,196,,184,184,8,38,7,6,0.9,0.5
2025-09-02T1800,1044A,119.5897,39.9499,秦皇岛市,监测站,臭氧1小时,101,72,53,22,18,202,,183,183,18,28,8,7,0.9,0.7
2025-09-02T1800,1046A,119.5251,39.9041,秦皇岛市,建设大厦,臭氧1小时,83,74,52,31,16,186,,172,172,11,27,7,8,1.1,0.7
2025-09-02T1800,3132A,119.610547,39.943889,秦皇岛市,文明里,臭氧1小时,101,78,60,40,21,202,,179,179,12,23,9,8,0.9,0.6
2025-09-02T1800,4198A,119.5090,39.8253,秦皇岛市,北戴河轮滑馆,臭氧1小时,101,91,70,37,25,201,,182,182,6,19,4,3,0.7,0.7
2025-09-02T1800,1307A,120.6659,36.2403,青岛市,仰口,,40,27,24,14,13,128,,136,136,11,9,10,10,0.6,0.6
2025-09-02T1800,1310A,120.4134,36.0658,青岛市,市南区东部子站,,37,,15,12,13,118,,93,,4,10,6,7,0.2,0.2
2025-09-02T1800,1311A,120.3664,36.1032,青岛市,四方区子站,,46,12,21,9,16,146,,152,152,3,17,4,4,0.2,0.3
2025-09-02T1800,1312A,120.2994,36.054,青岛市,市南区西部子站,,,9,24,7,10,135,,142,142,,29,6,6,0.6,0.6
2025-09-02T1800,1313A,120.4581,36.0858,青岛市,崂山区子站,,45,9,13,3,7,144,,149,149,7,11,8,8,0.2,0.3
2025-09-02T1800,1315A,120.3999,36.3083,青岛市,城阳区子站,,43,27,29,17,14,135,,163,162,14,17,4,4,0.4,0.5
2025-09-02T1800,1966A,120.0405,35.8735,青岛市,黄岛区4号,,50,12,17,3,6,157,,160,160,4,13,4,5,0.5,0.5
2025-09-02T1800,3362A,120.5014,36.4034,青岛市,即墨2号,,47,17,32,13,19,149,,151,151,5,18,4,5,0.3,0.3
2025-09-02T1800,3642A,120.3503,36.0736,青岛市,市北区南部,,,13,24,7,10,142,,150,149,7,17,,6,0.5,0.6
2025-09-02T1800,3643A,120.3948,36.1805,青岛市,李沧区北部,,40,19,24,19,17,128,,141,141,10,19,5,6,0.3,0.4
2025-09-02T1800,4290A,120.1969,35.9546,青岛市,珠江路669号,,46,14,21,10,13,147,,155,155,5,23,6,7,0.4,0.5
2025-09-02T1800,1702A,113.0426,23.691,清远市,环保大楼,臭氧1小时,101,32,33,27,23,202,,163,163,16,18,8,12,0.5,0.5
2025-09-02T1800,1703A,113.0208,23.7106,清远市,凤城街办,臭氧1小时,69,47,38,27,19,175,,145,145,23,22,11,14,0.5,0.5
2025-09-02T1800,3025A,113.0477,23.6344,清远市,技师学院,臭氧1小时,90,45,37,21,19,192,,157,157,13,22,11,12,0.6,0.6
2025-09-02T1800,3318A,112.9903,23.7403,清远市,清新太和,臭氧1小时,68,50,34,31,19,174,,149,149,21,18,11,14,0.5,0.5
2025-09-02T1800,3455A,113.076,23.7198,清远市,清城东城,,48,35,33,23,16,152,,132,132,21,18,7,9,0.6,0.6
2025-09-02T1800,2661A,107.6325,35.7357,庆阳市,庆阳五中,颗粒物(PM10),55,60,39,33,17,58,,103,66,9,9,7,8,0.4,0.4
2025-09-02T1800,2662A,107.6364,35.7067,庆阳市,市环保局,颗粒物(PM10),55,60,38,27,13,70,,107,73,6,6,3,6,0.6,0.6
2025-09-02T1800,1916A,103.7897,25.5035,曲靖市,环境监测站,,28,25,22,6,9,88,,70,70,7,10,4,4,0.4,0.4
2025-09-02T1800,1917A,103.8,25.5364,曲靖市,烟厂办公区,,29,17,20,13,12,92,,73,73,4,8,4,4,0.5,0.6
2025-09-02T1800,3376A,103.7947,25.462,曲靖市,南苑二区,,29,12,22,7,8,92,,72,72,6,8,4,4,0.3,0.4
2025-09-02T1800,3377A,103.7444,25.5261,曲靖市,曲靖师范学院,,30,24,18,8,10,96,,76,76,6,9,7,6,0.4,0.3
2025-09-02T1800,1264A,118.8692,28.9398,衢州市,环保大楼,,30,30,32,13,18,65,,83,81,18,16,3,4,0.4,0.4
2025-09-02T1800,1265A,118.8709,28.9666,衢州市,实验学校,,27,27,30,12,17,70,,90,90,14,16,4,4,0.5,0.6
2025-09-02T1800,1266A,118.8621,28.9808,衢州市,衢州学院,,24,18,29,10,17,74,,94,94,12,17,4,4,0.4,0.4
2025-09-02T1800,1611A,118.5819,24.9117,泉州市,涂山街,颗粒物(PM10),58,66,34,40,21,150,,142,142,22,15,4,3,0.6,0.5
2025-09-02T1800,1612A,118.5972,24.8978,泉州市,津头埔,细颗粒物(PM2.5),60,60,35,43,23,142,,142,142,18,13,4,4,0.6,0.6
2025-09-02T1800,1613A,118.6663,24.9424,泉州市,万安,颗粒物(PM10),53,56,36,33,22,136,,135,135,16,15,3,2,0.5,0.5
2025-09-02T1800,1614A,118.6117,24.9604,泉州市,清源山,,,,21,,14,,,82,,,7,,2,,0.5
2025-09-02T1800,3529A,118.6333,24.9264,泉州市,城华南路,细颗粒物(PM2.5),59,52,31,42,24,123,,130,130,35,14,4,3,0.5,0.4
2025-09-02T1800,2626A,88.8876,29.2718,日喀则市,日喀则监测站,,21,6,8,3,1,67,,61,61,2,10,11,10,0.1,0.2
2025-09-02T1800,3726A,88.8781,29.2426,日喀则市,林业技术推广中心,,21,6,5,3,0,67,,57,57,2,3,6,6,0.3,0.3
2025-09-02T1800,1659A,119.471,35.4209,日照市,监测站,,46,12,18,11,14,145,,149,149,7,32,6,7,0.6,0.6
2025-09-02T1800,1660A,119.523,35.4216,日照市,市政府广场,,48,14,16,7,8,152,,154,154,3,15,5,6,0.6,0.7
2025-09-02T1800,1661A,119.5587,35.4044,日照市,港务局,,48,,15,19,18,153,,154,154,7,17,4,6,0.7,0.7
2025-09-02T1800,3507A,119.5328,35.4625,日照市,职业技术学院,,48,14,14,9,7,151,,152,152,5,8,4,5,0.6,0.6
2025-09-02T1800,3604A,119.3266,35.1044,日照市,岚山环保分局,,47,22,20,6,4,149,,150,150,7,14,8,13,0.6,1.1
2025-09-02T1800,1835A,111.1922,34.7752,三门峡市,市政府,,,49,37,21,19,121,,123,123,,12,7,8,0.6,0.5
2025-09-02T1800,1836A,111.1587,34.7942,三门峡市,开发区,颗粒物(PM10),52,54,42,28,24,118,,117,117,13,12,5,7,0.4,0.4
2025-09-02T1800,1838A,111.143,34.7955,三门峡市,风景区,,44,44,39,14,28,130,,127,127,11,10,4,5,0.7,0.6
2025-09-02T1800,3039A,111.1911,34.7829,三门峡市,三门峡市第一小学,,48,40,39,33,19,120,,122,122,13,10,4,5,0.6,0.6
2025-09-02T1800,3598A,111.1,34.7167,三门峡市,富达温泉假日酒店,,40,35,30,28,20,98,,105,105,13,10,5,5,0.5,0.4
2025-09-02T1800,2324A,117.6211,26.2625,三明市,三钢,,32,29,19,22,11,74,,77,77,13,11,6,7,0.9,1.4
2025-09-02T1800,2325A,117.635,26.2714,三明市,三明二中,,27,27,22,11,12,69,,74,74,8,9,4,5,0.6,0.8
2025-09-02T1800,2326A,117.6028,26.2378,三明市,三元区政府,,39,39,17,8,9,59,,77,77,18,8,1,2,0.5,0.4
2025-09-02T1800,2327A,117.7275,26.3108,三明市,洋溪,,,,16,,12,,,58,,,8,,4,,1.1
2025-09-02T1800,1876A,109.5078,18.2489,三亚市,河东子站,,15,15,12,3,6,41,,43,43,2,2,4,3,0.4,0.5
2025-09-02T1800,1877A,109.4964,18.2681,三亚市,河西子站,,17,17,15,3,2,25,,34,31,8,5,3,3,0.4,0.3
2025-09-02T1800,3540A,109.7348,18.3443,三亚市,君悦子站,,15,14,19,3,5,46,,47,47,3,4,2,3,0.4,0.4
2025-09-02T1800,2624A,91.7608,29.2313,山南市,山南监测站,,23,6,9,3,4,71,,63,63,2,11,3,4,0.2,0.3
2025-09-02T1800,2625A,91.7706,29.2436,山南市,山南人民医院,,23,6,8,3,5,72,,66,66,2,15,3,4,0.2,0.2
2025-09-02T1800,1674A,116.6794,23.3667,汕头市,金平子站,,30,24,30,12,19,94,,111,111,16,13,6,5,1.0,0.7
2025-09-02T1800,1675A,116.7244,23.3633,汕头市,龙湖子站,,36,36,28,18,14,94,,102,102,6,11,7,8,0.6,0.6
2025-09-02T1800,1676A,116.7258,23.2775,汕头市,濠江子站,,35,35,30,11,17,92,,99,99,7,8,6,7,0.6,0.7
2025-09-02T1800,1677A,116.7519,23.4714,汕头市,澄海子站,,34,34,32,19,18,87,,108,108,12,12,4,7,0.7,0.7
2025-09-02T1800,1678A,116.6092,23.2539,汕头市,潮阳子站,,26,26,26,18,19,83,,102,102,3,6,5,6,0.5,0.6
2025-09-02T1800,3444A,116.454,23.2684,汕头市,潮南峡山,,21,16,19,11,13,65,,92,91,5,7,6,7,0.3,0.3
2025-09-02T1800,3624A,116.4069,23.2533,汕头市,潮南子站,,20,20,26,8,13,45,,78,76,4,6,5,5,0.5,0.5
2025-09-02T1800,1693A,115.3653,22.775,汕尾市,市环保局,,21,15,16,8,7,65,,55,55,7,8,3,3,0.4,0.4
2025-09-02T1800,1694A,115.3706,22.7898,汕尾市,市政府,,19,7,13,3,6,58,,56,56,7,7,4,4,0.3,0.2
2025-09-02T1800,1695A,115.3622,22.7925,汕尾市,新城中学,,23,23,16,7,7,58,,56,56,8,7,5,5,0.4,0.4
2025-09-02T1800,2645A,109.9154,33.8715,商洛市,监测站,,27,27,32,14,11,67,,77,77,12,20,2,5,0.6,0.5
2025-09-02T1800,3045A,109.9643,33.8471,商洛市,商州区中学,,25,25,35,17,13,61,,75,75,17,23,4,8,0.6,0.5
2025-09-02T1800,2408A,115.6702,34.4285,商丘市,环境监测站,,33,28,34,15,23,105,,131,129,12,12,3,4,0.5,0.5
2025-09-02T1800,2409A,115.6458,34.4045,商丘市,粮食局,,35,27,33,6,12,112,,129,128,8,10,3,4,0.5,0.5
2025-09-02T1800,2410A,115.6293,34.3948,商丘市,睢阳区环保局,,,,32,,16,113,,134,129,5,11,4,4,,0.4
2025-09-02T1800,3171A,115.6071,34.4465,商丘市,梁园区档案局,,35,27,31,16,18,110,,133,131,11,16,3,4,0.5,0.6
2025-09-02T1800,1141A,121.4,31.238,上海市,普陀,,30,30,27,14,17,82,,91,91,31,25,5,6,0.5,0.4
2025-09-02T1800,1142A,121.478,31.2036,上海市,十五厂,,33,33,28,16,16,53,,79,75,47,30,8,8,0.9,0.8
2025-09-02T1800,1143A,121.467,31.3008,上海市,虹口,,24,24,26,13,16,57,,72,70,27,25,5,6,0.4,0.4
2025-09-02T1800,1147A,121.425,31.2261,上海市,静安监测站,,32,32,27,14,18,82,,90,90,32,27,4,4,0.7,0.7
2025-09-02T1800,1148A,121.703,31.1907,上海市,浦东川沙,,25,25,29,9,13,38,,76,71,48,38,7,7,0.8,0.7
2025-09-02T1800,1149A,121.533,31.2284,上海市,浦东新区监测站,,22,22,25,11,17,70,,84,82,25,26,4,4,0.4,0.4
2025-09-02T1800,1150A,121.577,31.2071,上海市,浦东张江,,22,22,28,10,15,58,,87,81,41,29,6,6,0.8,0.7
2025-09-02T1800,3265A,121.4316,31.3322,上海市,宝山庙行,,24,24,24,11,14,55,,77,74,35,25,7,7,0.5,0.5
2025-09-02T1800,3266A,121.8791,31.4662,上海市,崇明上实东滩,,19,18,21,7,13,60,,79,77,4,11,4,5,0.3,0.3
