timepoint,stationcode,longitude,latitude,area,positionname,primarypollutant,aqi,pm10,pm10_24h,pm2_5,pm2_5_24h,o3,o3_24h,o3_8h,o3_8h_24h,no2,no2_24h,so2,so2_24h,co,co_24h
2025-09-02T2200,2566A,102.1879,31.914,阿坝藏族羌族自治州,州农科所,,18,18,22,7,10,29,,52,45,4,6,3,3,0,0
2025-09-02T2200,2568A,102.2502,31.8896,阿坝藏族羌族自治州,马师校,,32,,16,22,13,13,,44,35,12,8,8,8,0.5,0.5
2025-09-02T2200,3994A,102.2165,31.9024,阿坝藏族羌族自治州,马尔康中学西区,,29,25,19,20,12,18,,55,48,14,5,8,9,0.5,0.5
2025-09-02T2200,2695A,80.292,41.1694,阿克苏地区,电视台,颗粒物(PM10),500,959,777,303,227,47,,71,69,12,7,5,5,0.7,0.5
2025-09-02T2200,2696A,80.2613,41.1551,阿克苏地区,艺术中心,颗粒物(PM10),500,770,682,275,207,47,,74,72,14,7,3,4,0.5,0.4
2025-09-02T2200,2204A,105.6467,38.8363,阿拉善盟,西城区西花园,颗粒物(PM10),102,153,133,37,45,74,,112,99,17,9,9,9,0.8,0.7
2025-09-02T2200,2205A,105.6985,38.8411,阿拉善盟,蒙二幼,颗粒物(PM10),100,149,134,33,48,72,,102,93,4,4,9,9,0.5,0.5
2025-09-02T2200,2206A,105.724,38.8516,阿拉善盟,环保局新楼,颗粒物(PM10),80,109,124,30,49,77,,102,92,3,5,7,8,0.4,0.4
2025-09-02T2200,2708A,88.1264,47.8517,阿勒泰地区,市站,,16,8,19,3,4,51,,50,50,9,18,3,3,0.5,0.5
2025-09-02T2200,2630A,80.1161,32.5,阿里地区,阿里监测站,,18,6,3,3,2,55,,115,86,9,5,5,5,0.4,0.3
2025-09-02T2200,3192A,80.0903,32.5028,阿里地区,阿里藏医院,,23,,3,3,1,73,,130,99,1,2,6,6,0.3,0.3
2025-09-02T2200,2642A,109.0318,32.6537,安康市,香溪洞,,26,26,23,10,8,44,,66,65,11,8,8,8,0.4,0.4
2025-09-02T2200,2644A,109.0072,32.6975,安康市,汉滨区检察院,,27,27,25,10,8,31,,56,53,10,9,6,6,0.5,0.5
2025-09-02T2200,4054A,109.0325,32.6913,安康市,市邮政管理局,,25,25,25,16,13,32,,61,58,10,10,5,7,0.5,0.6
2025-09-02T2200,2291A,117.0809,30.5177,安庆市,环科院,,24,22,21,14,15,74,,118,97,14,9,5,5,0.6,0.7
2025-09-02T2200,2292A,117.0331,30.5119,安庆市,马山宾馆,,24,21,21,12,16,75,,108,93,10,10,4,5,0.6,0.7
2025-09-02T2200,2294A,116.9896,30.6145,安庆市,安庆大学,,28,28,20,13,14,50,,117,98,11,8,4,4,0.5,0.5
2025-09-02T2200,3173A,117.0598,30.5351,安庆市,市人大,,24,21,21,14,16,74,,118,98,13,11,4,5,0.5,0.5
2025-09-02T2200,3122A,105.9606,26.2611,安顺市,伍家关,,20,16,15,8,10,62,,79,73,5,3,9,6,0.5,0.4
2025-09-02T2200,3123A,105.9408,26.2431,安顺市,凤凰山,,23,18,15,16,12,57,,77,70,8,5,9,6,0.5,0.5
2025-09-02T2200,3124A,105.9439,26.2564,安顺市,金钟山,,20,17,14,13,12,64,,82,76,5,4,8,7,0.5,0.5
2025-09-02T2200,3125A,105.8983,26.2481,安顺市,娄家坡,,20,13,14,8,10,61,,75,69,3,2,8,8,0.4,0.4
2025-09-02T2200,1818A,114.4839,36.0621,安阳市,棉研所,,,,,,,,,,,,,,,,
2025-09-02T2200,1819A,114.3551,36.1017,安阳市,红庙街,,34,34,37,13,18,102,,136,129,16,13,5,5,0.5,0.5
2025-09-02T2200,1820A,114.361,36.0681,安阳市,银杏小区,,35,35,38,19,24,97,,144,134,25,21,6,6,0.3,0.3
2025-09-02T2200,3141A,114.3922,36.0878,安阳市,信访局,,38,31,35,12,18,121,,150,143,14,12,5,5,0.5,0.6
2025-09-02T2200,3669A,114.4705,36.0637,安阳市,左辅环卫站,,40,40,41,21,24,91,,143,127,22,16,6,6,0.6,0.6
2025-09-02T2200,3703A,114.2917,36.0949,安阳市,安钢职工学校,,33,30,41,15,24,103,,135,128,10,10,4,6,0.4,0.5
2025-09-02T2200,1748A,123.044,41.1196,鞍山市,深沟寺,,46,46,53,28,36,57,,176,124,10,12,6,8,1.3,1.8
2025-09-02T2200,1749A,123.011,41.0931,鞍山市,太阳城,细颗粒物(PM2.5),63,64,55,45,39,57,,166,130,16,15,6,8,1.2,1.6
2025-09-02T2200,1750A,123.0485,41.1442,鞍山市,太平,细颗粒物(PM2.5),82,88,76,60,46,37,,168,116,29,23,8,8,1.5,1.7
2025-09-02T2200,1751A,122.9642,41.0971,鞍山市,铁西三道街,细颗粒物(PM2.5),130,154,80,99,51,34,,168,123,61,30,9,9,1.9,1.9
2025-09-02T2200,1753A,123.022,41.0821,鞍山市,明达新区,细颗粒物(PM2.5),60,65,53,43,36,48,,167,116,18,15,8,10,1.5,1.7
2025-09-02T2200,1754A,123.1289,41.0228,鞍山市,千山,,,,52,,26,,,59,,,4,,4,,0.9
2025-09-02T2200,4201A,122.9446,41.0826,鞍山市,兴盛南路290号,颗粒物(PM10),103,156,75,70,43,9,,165,110,76,37,7,8,1.6,1.7
2025-09-02T2200,2195A,107.4212,40.761,巴彦淖尔市,附二中,颗粒物(PM10),75,100,88,28,27,40,,108,88,49,12,8,8,0.6,0.5
2025-09-02T2200,2196A,107.37,40.7372,巴彦淖尔市,市环保大楼,颗粒物(PM10),69,88,80,25,26,54,,96,84,24,9,8,8,0.5,0.5
2025-09-02T2200,1956A,86.1472,41.7538,巴音郭楞蒙古自治州,孔雀公园,颗粒物(PM10),500,1391,1106,406,289,,,72,69,14,7,5,5,0.3,0.2
2025-09-02T2200,1957A,86.1972,41.7166,巴音郭楞蒙古自治州,棉纺厂,颗粒物(PM10),500,1781,1356,409,324,42,,84,73,19,4,4,5,0.3,0.2
2025-09-02T2200,1958A,86.2357,41.7173,巴音郭楞蒙古自治州,经济开发区,颗粒物(PM10),500,1454,1105,439,307,49,,81,68,13,5,4,5,0.3,0.2
2025-09-02T2200,2914A,106.7677,31.8794,巴中市,苏山坪,,24,24,22,14,15,47,,69,64,9,7,4,4,0.5,0.5
2025-09-02T2200,3181A,106.7768,31.8526,巴中市,市五中,,25,24,28,17,18,37,,66,62,12,12,6,6,0.6,0.6
2025-09-02T2200,3183A,106.7418,31.8654,巴中市,圣泉水务公司,,23,21,23,16,15,43,,67,66,6,8,6,6,0.6,0.6
2025-09-02T2200,3616A,106.7616,31.8344,巴中市,市中心医院,,25,25,27,16,16,41,,69,65,8,13,7,7,0.5,0.6
2025-09-02T2200,2235A,122.7911,45.6077,白城市,洮北区环保局,,20,10,14,3,11,63,,92,86,4,6,6,4,0.4,0.3
2025-09-02T2200,2236A,122.8738,45.5725,白城市,市环保局,,17,17,24,8,10,48,,72,62,6,7,3,4,0.5,0.5
2025-09-02T2200,2231A,126.4219,41.9171,白山市,喜丰,颗粒物(PM10),53,56,32,16,13,10,,82,53,24,14,8,6,0.6,0.6
2025-09-02T2200,2232A,126.4077,41.9419,白山市,环保局,,28,26,22,19,16,23,,79,57,11,11,6,6,0.7,0.6
2025-09-02T2200,2647A,104.1724,36.5446,白银市,第三小学,颗粒物(PM10),67,83,91,38,36,73,,90,87,11,6,7,9,0.4,0.4
2025-09-02T2200,2648A,104.1465,36.5482,白银市,动力公司,颗粒物(PM10),69,87,86,39,38,31,,93,83,48,9,6,8,0.5,0.4
2025-09-02T2200,2512A,106.6103,23.9011,百色市,市监测站,,27,27,33,17,17,54,,92,79,14,15,22,10,0.6,0.5
2025-09-02T2200,2513A,106.6538,23.8859,百色市,市中心血站,,23,19,43,16,23,50,,86,72,18,17,24,9,0.8,0.8
2025-09-02T2200,3406A,106.6085,23.8798,百色市,祈福高中,,41,41,50,27,22,32,,84,68,30,22,22,10,0.6,0.6
2025-09-02T2200,2270A,117.396,32.939,蚌埠市,工人疗养院,,34,34,24,15,9,58,,93,84,10,7,4,4,0.4,0.4
2025-09-02T2200,2271A,117.3605,32.9427,蚌埠市,百货大楼,,22,18,16,15,10,66,,94,88,10,10,6,6,0.5,0.5
2025-09-02T2200,2273A,117.4185,32.8911,蚌埠市,蚌埠学院,,31,31,17,16,12,18,,88,76,56,15,9,7,0.5,0.4
2025-09-02T2200,2274A,117.3533,32.9673,蚌埠市,淮上区政府,,23,17,19,13,11,72,,99,92,7,7,5,5,0.5,0.5
2025-09-02T2200,2275A,117.3145,32.8977,蚌埠市,高新区,,23,22,18,11,11,73,,95,90,9,10,6,6,0.6,0.6
2025-09-02T2200,3715A,117.3092,32.9314,蚌埠市,蚌埠田家炳中学,,25,25,18,15,10,76,,101,96,8,7,5,5,0.4,0.4
2025-09-02T2200,1585A,109.8756,40.6532,包头市,市环境监测站,颗粒物(PM10),86,122,71,43,23,34,,94,71,39,25,6,11,0.6,0.7
2025-09-02T2200,1587A,109.9991,40.5842,包头市,包头八中,细颗粒物(PM2.5),103,154,88,77,38,51,,89,68,23,22,7,13,0.6,0.7
2025-09-02T2200,1588A,109.8538,40.6821,包头市,青山宾馆,细颗粒物(PM2.5),74,94,58,54,34,19,,90,66,55,30,4,8,0.6,0.8
2025-09-02T2200,1589A,109.8642,40.6288,包头市,惠龙物流,颗粒物(PM10),87,124,68,38,27,45,,92,73,23,18,4,11,0.5,0.6
2025-09-02T2200,1590A,110.0377,40.5546,包头市,东河鸿龙湾,颗粒物(PM10),97,144,79,45,32,38,,102,74,25,20,4,12,0.7,0.8
2025-09-02T2200,3283A,109.9154,40.5685,包头市,滨河大厦,颗粒物(PM10),89,127,72,57,33,37,,94,70,24,20,4,6,0.6,0.5
2025-09-02T2200,3419A,109.9447,40.6261,包头市,包头市委党校,颗粒物(PM10),88,126,64,52,28,45,,100,77,36,21,13,12,0.6,0.7
2025-09-02T2200,3683A,109.8331,40.6576,包头市,昆区政府,,,106,67,54,32,,,96,85,18,18,7,11,0.5,0.7
2025-09-02T2200,1930A,107.185,34.3063,宝鸡市,庙沟村,颗粒物(PM10),55,59,35,22,14,64,,94,71,11,10,4,5,0.4,0.5
2025-09-02T2200,1931A,107.0708,34.3017,宝鸡市,竹园沟,颗粒物(PM10),53,56,30,19,16,28,,68,58,7,11,8,8,0.2,0.3
2025-09-02T2200,1932A,107.1906,34.3672,宝鸡市,三陆医院,颗粒物(PM10),54,58,41,20,23,5,,57,45,38,29,8,9,0.6,0.6
2025-09-02T2200,1933A,107.1431,34.3547,宝鸡市,监测站,颗粒物(PM10),57,64,38,33,22,26,,65,52,13,14,8,9,0.4,0.7
2025-09-02T2200,1934A,107.1186,34.3739,宝鸡市,技工学校,颗粒物(PM10),51,51,36,17,24,18,,64,54,13,12,6,6,0.6,0.6
2025-09-02T2200,1936A,107.2058,34.3497,宝鸡市,文理学院,颗粒物(PM10),58,66,40,22,20,25,,64,53,21,19,7,7,0.5,0.5
2025-09-02T2200,1937A,107.2386,34.3622,宝鸡市,三迪小学,颗粒物(PM10),63,75,43,27,26,19,,60,47,30,24,5,5,0.6,0.6
2025-09-02T2200,4308A,107.3898,34.3601,宝鸡市,陈仓区北开路21号,颗粒物(PM10),57,63,44,23,20,28,,62,48,21,23,5,7,0.4,0.5
2025-09-02T2200,1051A,115.493,38.8632,保定市,游泳馆,,47,47,48,25,28,89,,147,132,24,14,3,2,0.3,0.4
2025-09-02T2200,1052A,115.5213,38.8959,保定市,华电二区,颗粒物(PM10),53,56,51,26,26,98,,154,139,18,14,2,2,0.5,0.6
2025-09-02T2200,1053A,115.4713,38.9108,保定市,接待中心,,48,48,48,27,31,110,,137,131,9,10,2,2,0.4,0.5
2025-09-02T2200,1054A,115.4612,38.8416,保定市,地表水厂,颗粒物(PM10),60,70,59,22,25,90,,144,132,27,18,5,6,0.5,0.6
2025-09-02T2200,3581A,115.31981,38.95208,保定市,满城区生态环境分局,颗粒物(PM10),53,56,51,34,30,79,,146,127,19,14,3,2,0.4,0.4
2025-09-02T2200,3582A,115.47694,38.76408,保定市,清苑区第二中学,颗粒物(PM10),79,107,68,37,29,81,,142,125,19,12,1,1,0.4,0.4
2025-09-02T2200,3583A,115.62909,39.02311,保定市,徐水物探局,颗粒物(PM10),53,56,53,31,22,114,,150,137,17,22,4,4,0.4,0.5
2025-09-02T2200,4004A,115.4202,38.8656,保定市,双鹰农机,颗粒物(PM10),53,56,55,36,33,102,,147,134,19,15,7,7,0.4,0.4
2025-09-02T2200,4034A,115.5150,38.8590,保定市,植保所站,颗粒物(PM10),59,67,58,37,31,94,,165,146,31,23,7,4,0.3,0.4
2025-09-02T2200,2594A,99.1678,25.1081,保山市,市环境监测站,,26,19,17,18,15,37,,71,58,6,8,7,8,0.4,0.4
2025-09-02T2200,2595A,99.1711,25.1328,保山市,市环保局,,19,19,17,7,9,46,,73,63,3,5,7,7,0.3,0.4
2025-09-02T2200,1866A,109.2262,21.588,北海市,牛尾岭水库,,8,7,13,3,7,23,,48,39,7,6,1,8,0.4,0.7
2025-09-02T2200,1867A,109.1436,21.4086,北海市,海滩公园,,13,13,14,3,4,36,,61,53,6,4,4,4,0.7,0.7
2025-09-02T2200,1868A,109.0981,21.4661,北海市,新市环保局,,18,,12,12,11,34,,52,46,9,6,5,4,0.5,0.5
2025-09-02T2200,1869A,109.1778,21.5233,北海市,北海工业园,,22,19,19,15,9,22,,58,45,13,7,18,6,0.5,0.5
2025-09-02T2200,3400A,109.1911,21.4415,北海市,龙潭自来水厂,,14,14,12,3,7,32,,55,48,7,5,4,4,0.4,0.4
2025-09-02T2200,1001A,116.3621,39.8784,北京市,万寿西宫,颗粒物(PM10),54,57,41,33,27,129,,147,142,7,10,3,3,0.7,0.6
2025-09-02T2200,1002A,116.2202,40.2915,北京市,定陵,,48,48,37,32,23,42,,144,115,1,2,3,4,0.6,0.5
2025-09-02T2200,1003A,116.4174,39.9289,北京市,东四,颗粒物(PM10),52,54,43,33,25,124,,160,149,16,17,3,3,0.6,0.5
2025-09-02T2200,1004A,116.4072,39.8863,北京市,天坛,,46,45,39,32,26,52,,136,110,10,12,4,4,0.8,0.6
2025-09-02T2200,1005A,116.462,39.9365,北京市,农展馆,颗粒物(PM10),52,53,40,33,25,121,,153,144,10,14,2,2,0.6,0.6
2025-09-02T2200,1006A,116.3392,39.9295,北京市,官园,细颗粒物(PM2.5),52,48,40,36,23,137,,154,149,11,14,3,2,0.6,0.5
2025-09-02T2200,1007A,116.2878,39.9611,北京市,海淀万柳,颗粒物(PM10),51,52,39,35,24,119,,139,135,11,17,4,3,0.6,0.5
2025-09-02T2200,1008A,116.6636,40.135,北京市,顺义新城,,,,,,,,,,,,,,,,
2025-09-02T2200,1009A,116.6275,40.3275,北京市,怀柔镇,细颗粒物(PM2.5),57,58,35,40,23,72,,136,127,11,9,3,2,0.8,0.6
2025-09-02T2200,1010A,116.2296,40.217,北京市,昌平镇,细颗粒物(PM2.5),59,58,39,42,24,110,,142,140,14,11,4,4,0.9,0.7
2025-09-02T2200,1011A,116.3966,39.9821,北京市,奥体中心,,50,50,36,34,23,125,,138,136,7,11,4,4,0.5,0.4
2025-09-02T2200,3281A,115.9718,40.4529,北京市,延庆夏都,颗粒物(PM10),54,57,34,37,21,118,,126,126,7,6,2,2,0.7,0.5
2025-09-02T2200,3418A,116.8336,40.4095,北京市,密云新城,细颗粒物(PM2.5),55,56,34,39,19,90,,129,128,8,3,2,2,0.6,0.4
2025-09-02T2200,3671A,116.088,39.9726,北京市,门头沟三家店,"颗粒物(PM10),细颗粒物(PM2.5)",55,59,34,39,22,49,,135,115,10,6,2,3,0.7,0.5
2025-09-02T2200,3672A,116.1541,39.8204,北京市,丰台云岗,细颗粒物(PM2.5),57,60,39,40,25,89,,136,124,11,10,4,3,0.7,0.5
2025-09-02T2200,3673A,116.6804,39.9081,北京市,通州东关,颗粒物(PM10),51,51,48,32,28,127,,150,145,12,16,3,2,0.7,0.7
2025-09-02T2200,3674A,115.9577,39.7603,北京市,房山燕山,细颗粒物(PM2.5),55,55,37,39,24,83,,119,111,5,6,2,1,0.5,0.4
2025-09-02T2200,3675A,116.4672,39.7733,北京市,大兴旧宫,,43,43,41,26,27,65,,136,115,9,12,2,3,0.5,0.5
2025-09-02T2200,3694A,115.986,40.4563,北京市,延庆石河营,细颗粒物(PM2.5),55,58,34,39,21,104,,116,116,3,3,1,1,0.6,0.4
2025-09-02T2200,3695A,116.6151,40.3053,北京市,怀柔新城,细颗粒物(PM2.5),62,57,35,44,28,71,,131,121,5,5,3,3,0.7,0.5
2025-09-02T2200,3696A,116.2545,39.8768,北京市,丰台小屯,细颗粒物(PM2.5),58,58,40,41,26,95,,133,125,12,11,1,1,0.5,0.6
2025-09-02T2200,3697A,116.84,40.3844,北京市,密云镇,颗粒物(PM10),56,62,36,39,23,116,,138,138,9,8,5,5,0.7,0.5
2025-09-02T2200,4182A,116.1942,39.9158,北京市,八角北路9号,细颗粒物(PM2.5),59,65,41,42,24,113,,151,141,9,7,4,3,0.8,0.4
2025-09-02T2200,4194A,117.0790,40.1518,北京市,洳河巡河路,细颗粒物(PM2.5),68,70,44,49,27,88,,142,130,5,4,3,3,0.7,0.6
2025-09-02T2200,1761A,123.8275,41.3064,本溪市,大峪,颗粒物(PM10),55,60,50,26,20,33,,130,97,16,15,6,7,1.3,1.1
2025-09-02T2200,1762A,123.7567,41.3325,本溪市,溪湖,颗粒物(PM10),51,51,49,25,23,26,,142,110,34,15,6,8,1.8,1.6
2025-09-02T2200,1763A,123.7169,41.3094,本溪市,彩屯,颗粒物(PM10),52,54,50,33,31,24,,150,102,29,23,10,12,1.5,1.7
2025-09-02T2200,1764A,123.7669,41.2864,本溪市,东明,颗粒物(PM10),56,61,52,28,26,52,,145,122,39,26,4,6,1.4,1.4
2025-09-02T2200,1765A,123.7992,41.2664,本溪市,新立屯,,35,35,40,11,18,28,,114,81,39,29,5,6,0.7,1.2
2025-09-02T2200,1766A,123.8142,41.3472,本溪市,威宁,,,,,,,,,,,,,,,,
2025-09-02T2200,2587A,105.2864,27.3125,毕节市,八中,,29,28,24,20,17,65,,83,80,8,6,6,6,0.5,0.5
2025-09-02T2200,2588A,105.31,27.2944,毕节市,师专,,32,32,26,16,13,56,,82,78,16,9,6,6,0.4,0.4
2025-09-02T2200,4263A,105.3688,27.3598,毕节市,工业大道,,29,29,22,20,14,50,,82,76,17,9,7,7,0.7,0.7
2025-09-02T2200,1629A,118.0018,37.3617,滨州市,第二水厂,,48,48,49,31,29,132,,186,163,14,25,4,6,0.6,0.6
2025-09-02T2200,1630A,117.9776,37.393,滨州市,北中新校,,48,44,38,31,24,152,,194,175,12,14,6,6,0.2,0.2
2025-09-02T2200,3514A,117.9378,37.3956,滨州市,中海酒店,臭氧1小时,54,48,36,31,23,163,,204,181,6,11,6,5,0.7,0.7
2025-09-02T2200,3515A,117.9378,37.3553,滨州市,开发区一中,细颗粒物(PM2.5),58,56,46,41,26,131,,196,168,16,20,8,6,0.7,0.7
2025-09-02T2200,3516A,118.0917,37.694,滨州市,金海六路,,49,49,39,34,25,117,,199,172,12,24,7,7,0.4,0.3
2025-09-02T2200,4028A,117.9956,37.3753,滨州市,滨州市西街道办事处,,49,41,35,34,27,143,,182,166,11,21,3,4,0.5,0.7
2025-09-02T2200,2311A,115.8072,33.8399,亳州市,污水处理厂,,48,41,26,33,22,66,,132,106,22,13,8,6,0.5,0.4
2025-09-02T2200,2312A,115.7789,33.8518,亳州市,三国揽胜宫,,36,36,29,21,13,98,,146,135,14,9,6,6,0.7,0.6
2025-09-02T2200,3332A,115.7633,33.8034,亳州市,亳州学院,,33,29,25,15,14,103,,149,140,11,7,6,5,0.7,0.7
2025-09-02T2200,2693A,82.0485,44.8556,博尔塔拉蒙古自治州,市党校,颗粒物(PM10),144,238,55,37,23,73,,87,87,3,9,2,5,0.3,0.3
2025-09-02T2200,2694A,82.0806,44.8969,博尔塔拉蒙古自治州,市环保局,颗粒物(PM10),112,174,56,27,17,73,,89,89,6,10,5,6,0.3,0.3
2025-09-02T2200,1071A,116.8842,38.2991,沧州市,沧县城建局,,39,39,27,22,16,75,,159,138,38,13,3,6,0.4,0.3
2025-09-02T2200,1072A,116.8584,38.3254,沧州市,电视转播站,,46,46,43,19,16,91,,147,136,24,12,4,3,0.4,0.4
2025-09-02T2200,1073A,116.8709,38.3228,沧州市,市环保局,,44,44,35,24,25,80,,156,137,21,11,4,4,0.3,0.4
2025-09-02T2200,3324A,116.8136,38.3004,沧州市,河北水利电力学院,,40,34,27,17,23,126,,167,152,17,12,6,6,0.5,0.4
2025-09-02T2200,2622A,97.1806,31.1273,昌都市,昌都监测站,,,19,8,16,5,,,58,58,36,6,4,3,0.6,0.3
2025-09-02T2200,3719A,97.1714,31.1406,昌都市,昌都会议中心,,22,22,8,10,5,38,,60,55,9,4,4,4,0.2,0.2
2025-09-02T2200,2690A,88.1236,43.8886,昌吉回族自治州,天山天池,,14,13,14,6,4,42,,71,,8,8,2,2,0.6,0.5
2025-09-02T2200,2692A,87.2717,44.0297,昌吉回族自治州,新区政务中心,,33,33,36,9,12,72,,104,102,23,22,4,7,0.2,0.3
2025-09-02T2200,3613A,87.3095,44.0142,昌吉回族自治州,亚心广场,,41,41,49,7,11,70,,107,105,29,24,7,9,0.4,0.4
2025-09-02T2200,1120A,125.2863,43.9027,长春市,客车厂,颗粒物(PM10),55,60,38,32,24,62,,104,87,27,23,5,4,0.6,0.6
2025-09-02T2200,1121A,125.2841,43.8463,长春市,邮电学院,颗粒物(PM10),51,51,42,20,21,41,,107,83,31,20,5,5,0.7,0.8
2025-09-02T2200,1122A,125.3716,43.8772,长春市,劳动公园,,,,46,59,26,,,108,93,36,21,8,8,0.6,0.5
2025-09-02T2200,1123A,125.3297,43.8805,长春市,园林处,,45,45,36,16,15,51,,105,90,27,16,5,4,0.6,0.7
2025-09-02T2200,1124A,125.4605,43.79,长春市,净月潭,,23,23,26,8,17,38,,88,65,6,7,4,5,0.3,0.5
2025-09-02T2200,1125A,125.7194,43.515,长春市,甩湾子,,15,11,21,10,15,46,,82,68,9,7,3,3,0.4,0.5
2025-09-02T2200,1126A,125.3863,43.8447,长春市,经开区环卫处,颗粒物(PM10),52,53,39,19,18,24,,96,65,38,21,4,4,0.7,0.8
2025-09-02T2200,1127A,125.245,43.7783,长春市,高新区管委会,,26,26,31,13,20,40,,107,78,23,17,3,3,0.5,0.7
2025-09-02T2200,1128A,125.1761,43.8325,长春市,岱山公园,颗粒物(PM10),56,62,36,19,21,29,,105,66,51,31,3,3,0.4,0.6
2025-09-02T2200,4281A,125.3346,43.9164,长春市,北亚泰大街1068号,颗粒物(PM10),55,59,44,32,24,45,,101,83,35,23,8,7,0.6,0.7
2025-09-02T2200,1335A,113.0833,28.2325,长沙市,经开区环保局,,28,28,24,13,11,57,,84,66,10,12,4,4,0.3,0.4
2025-09-02T2200,1336A,112.8872,28.2189,长沙市,高开区环保局,,32,32,30,15,12,66,,104,93,9,8,4,4,0.4,0.4
2025-09-02T2200,1337A,113.0792,28.2053,长沙市,马坡岭,,28,28,23,16,14,51,,101,75,16,11,6,5,0.5,0.5
2025-09-02T2200,1338A,112.9394,28.19,长沙市,湖南师范大学,,29,29,26,16,12,60,,104,88,15,9,2,3,0.6,0.6
2025-09-02T2200,1339A,113.0178,28.1322,长沙市,雨花区环保局,,23,23,25,14,13,52,,110,84,18,10,6,6,0.4,0.6
2025-09-02T2200,1340A,112.9792,28.2597,长沙市,伍家岭,,34,34,28,16,12,26,,90,65,24,14,2,2,0.3,0.3
2025-09-02T2200,1341A,113.0014,28.1944,长沙市,火车新站,,38,38,27,19,12,59,,102,82,14,10,6,7,0.5,0.5
2025-09-02T2200,1342A,112.9844,28.1178,长沙市,天心区环保局,,22,22,22,15,13,63,,116,94,17,12,4,4,0.1,0.2
2025-09-02T2200,1343A,112.8908,28.1308,长沙市,湖南中医药大学,,,,27,28,20,,,116,110,12,9,3,4,0.5,0.6
2025-09-02T2200,1344A,112.9581,28.3611,长沙市,沙坪,,25,25,23,13,12,55,,94,82,9,9,3,3,0.4,0.4
2025-09-02T2200,1727A,113.1147,36.1547,长治市,清华站,,,21,31,9,14,75,,115,100,,15,8,8,0.4,0.7
2025-09-02T2200,1730A,113.0886,36.2125,长治市,审计局,,27,15,25,3,14,84,,119,106,15,14,6,7,0.5,0.8
2025-09-02T2200,1731A,113.0844,36.1856,长治市,长治八中,,27,20,32,12,22,84,,122,108,10,10,8,9,0.5,0.8
2025-09-02T2200,2845A,113.1569,36.1911,长治市,德盛苑,,24,13,27,3,12,74,,114,97,8,7,7,8,0.7,0.8
2025-09-02T2200,3568A,113.06,36.0464,长治市,向阳小学,颗粒物(PM10),58,66,54,9,23,68,,125,100,18,11,5,4,0.4,0.6
2025-09-02T2200,3569A,112.8792,36.3144,长治市,屯留一中,,45,45,39,20,21,92,,121,109,15,27,8,9,0.6,0.8
2025-09-02T2200,4189A,113.1131,36.19948,长治市,英华南巷50号,,23,23,32,12,16,68,,114,98,18,13,15,10,0.6,0.9
2025-09-02T2200,4190A,113.2367,36.3344,长治市,学府街1号,,31,23,41,12,23,99,,120,110,7,14,1,2,0.4,0.7
2025-09-02T2200,1854A,111.6975,28.9703,常德市,市二中,,26,19,19,18,15,48,,69,64,18,12,4,4,0.6,0.6
2025-09-02T2200,1857A,111.7158,29.1456,常德市,白鹤山,,,,,,,,,,,,,,,,
2025-09-02T2200,3138A,111.7153,29.0289,常德市,武陵区永安,,23,20,18,16,11,65,,70,69,7,6,4,4,0.5,0.4
2025-09-02T2200,3139A,111.6892,28.9881,常德市,鼎城区玉霞,,28,23,20,19,14,55,,69,66,7,8,5,5,0.5,0.5
2025-09-02T2200,3140A,111.6625,29.0531,常德市,武陵区长庚,,25,24,18,17,14,73,,74,74,1,4,5,5,0.6,0.5
2025-09-02T2200,1196A,119.9633,31.762,常州市,市监测站,,25,16,18,14,13,79,,103,101,14,14,10,11,0.6,0.7
2025-09-02T2200,1200A,119.9468,31.7069,常州市,武进监测站,,,,21,,13,,,61,,,15,,6,,0.8
2025-09-02T2200,1201A,119.9255,31.9087,常州市,安家,,25,25,20,15,12,54,,96,89,28,19,10,10,0.8,0.9
2025-09-02T2200,3002A,119.9805,31.8174,常州市,行政中心,,30,30,19,18,14,54,,99,93,31,18,1,2,0.6,0.7
2025-09-02T2200,3003A,120.0522,31.7748,常州市,经开区,颗粒物(PM10),51,52,24,21,11,48,,96,92,36,24,2,3,0.7,0.8
2025-09-02T2200,3010A,119.9025,31.7964,常州市,钟楼,,,,21,8,9,,,112,112,13,15,6,7,0.6,0.7
2025-09-02T2200,3429A,119.8598,31.7066,常州市,武进经发区,,24,19,22,11,12,76,,100,97,11,14,8,8,0.5,0.7
2025-09-02T2200,3430A,119.5826,31.7245,常州市,金坛城区,,26,18,18,10,12,81,,105,102,10,14,7,7,0.6,0.7
2025-09-02T2200,2220A,120.4318,41.5881,朝阳市,西梁,颗粒物(PM10),51,51,36,23,14,68,,103,95,20,20,4,6,0.9,0.8
2025-09-02T2200,2221A,120.4521,41.5646,朝阳市,河畔小区,,37,37,29,20,9,96,,117,114,10,11,4,6,0.7,0.5
2025-09-02T2200,2222A,120.4176,41.5648,朝阳市,八里堡,,45,45,43,28,16,55,,101,87,30,24,6,8,0.9,0.7
2025-09-02T2200,2223A,120.3806,41.5969,朝阳市,农业园区,,22,17,28,15,11,61,,99,82,12,17,5,7,0.5,0.7
2025-09-02T2200,1705A,116.6367,23.6719,潮州市,西园路,,23,23,27,16,19,56,,121,92,12,10,4,4,0.4,0.4
2025-09-02T2200,3026A,116.6183,23.6608,潮州市,市政府,,28,27,33,19,18,43,,121,87,17,10,10,7,0.9,0.5
2025-09-02T2200,4036A,116.6461,23.6761,潮州市,金山,,28,21,30,19,19,48,,126,91,9,9,5,6,0.6,0.5
2025-09-02T2200,2472A,113.0073,25.9061,郴州市,马头岭,,29,29,28,12,11,20,,110,86,33,15,5,5,0.4,0.5
2025-09-02T2200,2473A,113.0116,25.8226,郴州市,市职中,,22,22,24,8,17,38,,112,86,19,11,3,4,0.5,0.5
2025-09-02T2200,2475A,113.0383,25.8071,郴州市,市审计局,,30,28,26,21,17,39,,112,82,15,10,5,5,0.5,0.5
2025-09-02T2200,2476A,113.0348,25.7759,郴州市,市环保局,,38,31,31,26,21,67,,119,97,14,13,8,16,0.4,0.4
2025-09-02T2200,4252A,113.0138,25.8011,郴州市,好美居路49号,,17,12,23,7,15,53,,113,90,15,11,4,5,0.4,0.4
2025-09-02T2200,1431A,103.9728,30.7236,成都市,金泉两河,,42,41,39,29,20,75,,108,100,17,22,4,3,0.7,0.7
2025-09-02T2200,1432A,104.176,30.6872,成都市,十里店,,38,38,48,21,25,70,,118,110,21,31,3,3,0.2,0.4
2025-09-02T2200,1433A,104.079,30.5706,成都市,三瓦窑,,,42,41,41,26,,,142,140,18,28,2,2,0.5,0.5
2025-09-02T2200,1434A,104.1114,30.63,成都市,沙河铺,,39,39,46,23,26,73,,118,108,17,17,4,3,0.8,0.9
2025-09-02T2200,1437A,104.0786,30.6531,成都市,君平街,,,49,49,33,23,,,41,,12,19,3,3,6.1,1.5
2025-09-02T2200,1438A,103.613,31.0283,成都市,灵岩寺,,,,,,,,,,,,,,,,
2025-09-02T2200,2880A,104.0239,30.65639,成都市,大石西路,,50,50,46,34,29,73,,107,101,21,26,3,2,0.7,0.8
2025-09-02T2200,3136A,104.2725,30.5589,成都市,龙泉驿区区政府,,27,27,28,17,17,77,,113,109,19,17,5,5,0.6,0.6
2025-09-02T2200,3357A,104.0106,30.6931,成都市,金博路,,38,28,36,26,21,72,,106,101,20,23,6,5,0.6,0.7
2025-09-02T2200,3359A,104.0578,30.5225,成都市,华阳,,34,34,40,22,28,87,,129,122,18,21,3,2,0.6,0.7
2025-09-02T2200,3488A,104.3853,30.7453,成都市,青白江技师分院,,40,38,42,28,27,57,,102,94,20,24,2,1,0.5,0.5
2025-09-02T2200,3489A,104.0789,30.4072,成都市,科学城,,39,39,44,24,29,92,,130,126,16,18,4,4,0.6,0.6
2025-09-02T2200,4011A,103.8506,30.6947,成都市,光华大道三段,细颗粒物(PM2.5),52,46,40,36,23,73,,118,103,19,19,4,2,0.7,0.6
2025-09-02T2200,4224A,104.2433,30.5353,成都市,鲸龙路1057号,,36,36,40,25,27,76,,112,108,20,19,4,4,0.5,0.6
2025-09-02T2200,1062A,117.9531,40.9081,承德市,铁路,,48,48,28,21,10,24,,95,72,17,14,3,4,0.6,0.4
2025-09-02T2200,1063A,117.9392,40.9763,承德市,中国银行,细颗粒物(PM2.5),59,52,22,42,15,14,,116,77,16,11,3,2,0.6,0.4
2025-09-02T2200,1064A,117.9503,40.928,承德市,开发区,,36,34,33,25,15,29,,106,78,19,14,4,4,0.6,0.5
2025-09-02T2200,1066A,117.9268,41.0026,承德市,离宫,,36,36,22,13,10,12,,96,56,12,7,4,5,0.5,0.3
2025-09-02T2200,4274A,117.7994,40.9605,承德市,滨河大街98号,,35,35,24,18,12,26,,78,62,6,9,3,2,0.5,0.4
2025-09-02T2200,2314A,117.47,30.6618,池州市,池州学院,,27,18,25,10,16,85,,121,112,8,12,5,6,0.6,0.6
2025-09-02T2200,3237A,117.4918,30.6617,池州市,展览馆,,29,14,23,10,14,92,,120,112,7,11,5,6,0.7,0.7
2025-09-02T2200,3333A,117.5627,30.695,池州市,第八中学,,28,14,23,9,14,87,,118,113,5,9,5,6,0.5,0.6
2025-09-02T2200,3334A,117.5038,30.6243,池州市,第十二中学,,29,14,24,7,15,92,,119,109,10,15,4,4,0.8,0.9
2025-09-02T2200,1744A,118.9233,42.2816,赤峰市,松山一中,,26,26,23,12,7,83,,108,101,26,24,7,7,0.8,0.6
2025-09-02T2200,1745A,118.9576,42.2728,赤峰市,哈达街,,35,31,18,24,8,73,,100,90,24,18,21,19,0.6,0.5
2025-09-02T2200,1746A,118.8788,42.2554,赤峰市,天义路,,32,25,13,22,11,74,,104,92,30,20,10,13,0.6,0.4
2025-09-02T2200,3058A,119.2658,42.0353,赤峰市,银河街,,24,24,39,13,18,66,,86,74,9,14,9,14,0.4,0.5
2025-09-02T2200,3286A,118.9359,42.3147,赤峰市,桥北物流园区,,,36,24,3,11,,,96,88,33,23,9,8,0.9,0.7
2025-09-02T2200,2521A,107.3476,22.4136,崇左市,市环保局江州分局,,24,24,21,11,10,35,,66,58,14,8,7,7,0.7,0.6
2025-09-02T2200,4256A,107.3750,22.3736,崇左市,石景林东路7号,,17,17,16,6,8,39,,65,58,10,8,4,4,0.5,0.5
2025-09-02T2200,2298A,118.3093,32.3153,滁州市,老年大学,,,,26,18,20,,,141,134,18,12,7,8,0.4,0.4
2025-09-02T2200,2299A,118.3244,32.2786,滁州市,人大宾馆,,31,,17,13,21,98,,146,131,10,7,4,4,0.5,0.5
2025-09-02T2200,3207A,118.3118,32.3038,滁州市,市政府原办公楼,,29,,20,20,24,83,,138,128,12,8,5,5,0.5,0.5
2025-09-02T2200,3331A,118.3267,32.2634,滁州市,图书馆,,32,,18,13,17,101,,150,136,11,7,10,10,0.5,0.5
2025-09-02T2200,2605A,101.5482,25.0441,楚雄彝族自治州,州环境监测站,,12,8,17,8,11,32,,39,37,4,10,6,6,0.4,0.5
2025-09-02T2200,2606A,101.538,25.0492,楚雄彝族自治州,市经济开发区,,,17,19,12,11,,,38,38,8,13,6,7,0.5,0.7
2025-09-02T2200,2548A,107.5277,31.2827,达州市,达州职业技术学院,,,115,56,75,28,,,86,72,35,23,10,9,0.5,0.5
2025-09-02T2200,2549A,107.5086,31.2186,达州市,市环境监测站,细颗粒物(PM2.5),58,58,43,41,19,23,,77,65,40,27,7,7,0.7,0.5
2025-09-02T2200,2550A,107.4988,31.2132,达州市,凤凰小区,颗粒物(PM10),56,61,36,39,22,24,,84,67,38,23,2,3,0.6,0.4
2025-09-02T2200,2551A,107.5082,31.1986,达州市,达县机关宾馆,颗粒物(PM10),59,68,37,38,18,6,,84,65,57,26,5,6,0.7,0.4
2025-09-02T2200,2552A,107.4644,31.2124,达州市,市政中心,,,66,45,34,19,,,85,79,29,23,4,5,0.6,0.4
2025-09-02T2200,2614A,100.1542,25.7054,大理白族自治州,大理市环境监测站,,28,,14,19,14,47,,52,52,12,8,5,4,0.5,0.5
2025-09-02T2200,2615A,100.2171,25.5811,大理白族自治州,大理古城,,26,,13,18,9,49,,66,54,9,7,6,6,0.6,0.6
2025-09-02T2200,1109A,121.612,38.9741,大连市,甘井子,细颗粒物(PM2.5),64,57,42,46,31,104,,168,131,26,21,10,8,0.4,0.4
2025-09-02T2200,1110A,121.565,38.9511,大连市,周水子,细颗粒物(PM2.5),72,,38,52,32,98,,158,124,20,20,14,11,0.6,0.5
2025-09-02T2200,1111A,121.5637,38.8845,大连市,星海三站,细颗粒物(PM2.5),79,59,47,58,38,99,,151,115,21,19,7,5,0.5,0.5
2025-09-02T2200,1112A,121.6302,38.9117,大连市,青泥洼桥,细颗粒物(PM2.5),65,49,45,47,35,91,,148,119,17,16,11,8,0.7,0.7
2025-09-02T2200,1113A,121.6251,38.8638,大连市,傅家庄,细颗粒物(PM2.5),62,,37,44,40,91,,153,121,24,15,17,12,0.5,0.5
2025-09-02T2200,1114A,121.5213,38.8661,大连市,七贤岭,细颗粒物(PM2.5),82,,41,60,37,70,,152,102,25,19,12,9,0.7,0.7
2025-09-02T2200,1115A,121.2529,38.8061,大连市,旅顺,臭氧1小时,59,45,35,34,27,167,,160,155,6,9,9,8,0.5,0.5
2025-09-02T2200,1116A,121.7485,39.1311,大连市,金州,细颗粒物(PM2.5),67,70,35,48,27,119,,156,133,16,15,6,6,0.5,0.5
2025-09-02T2200,1117A,121.7811,39.0496,大连市,开发区,细颗粒物(PM2.5),77,,44,56,40,96,,145,130,21,21,6,6,0.6,0.6
2025-09-02T2200,1118A,121.9762,39.0631,大连市,双D港,细颗粒物(PM2.5),57,41,38,40,34,89,,155,114,9,6,9,9,0.7,0.7
2025-09-02T2200,1789A,124.81117,46.03138,大庆市,大同区,,38,38,25,15,12,35,,66,47,18,13,6,9,0.7,0.7
2025-09-02T2200,1790A,125.129,46.533,大庆市,龙凤区,,27,27,28,11,14,38,,80,56,16,22,5,6,0.5,0.3
2025-09-02T2200,1791A,124.902,46.408,大庆市,红岗区,,40,40,29,14,16,31,,79,57,20,14,8,6,0.6,0.5
2025-09-02T2200,1792A,125.153,46.586,大庆市,萨尔图区,,28,28,30,12,13,39,,66,50,17,20,8,8,0.6,0.6
2025-09-02T2200,1793A,124.9042,46.6215,大庆市,让胡路区,,35,35,29,21,16,35,,73,51,25,14,6,5,0.4,0.4
2025-09-02T2200,3481A,125.141,46.634,大庆市,萨区政府监测点,,40,40,24,12,7,45,,80,64,18,12,8,8,0.5,0.4
2025-09-02T2200,1721A,113.3819,40.1097,大同市,果树场,,43,43,32,18,16,48,,89,68,24,20,10,10,0.2,0.3
2025-09-02T2200,1723A,113.2994,40.0758,大同市,云冈宾馆,颗粒物(PM10),53,55,56,19,19,86,,108,100,22,23,7,5,1.9,0.8
2025-09-02T2200,1724A,113.3444,40.0917,大同市,大同大学,,45,45,39,21,20,52,,115,102,48,24,9,8,0.7,0.7
2025-09-02T2200,1725A,113.2661,40.1269,大同市,安家小村,,34,34,43,11,16,94,,118,108,14,19,6,7,0.4,0.8
2025-09-02T2200,1726A,113.2711,40.0844,大同市,教育学院,,45,45,45,21,21,91,,114,108,23,26,8,7,0.8,0.8
2025-09-02T2200,3282A,113.3397,40.0597,大同市,大同市卫生学校,,41,41,41,26,20,85,,104,100,23,22,9,8,0.6,0.7
2025-09-02T2200,3565A,113.1367,40.1122,大同市,云冈站,,49,49,51,22,21,62,,109,96,10,12,6,5,0.8,0.9
2025-09-02T2200,3566A,113.1186,40.2556,大同市,图书馆,,31,31,44,13,21,57,,115,99,7,9,3,4,0.6,0.7
2025-09-02T2200,3567A,113.5931,40.0461,大同市,区一中,,43,43,31,29,19,71,,119,106,15,10,8,8,0.6,0.5
2025-09-02T2200,4199A,113.2798,40.0997,大同市,魏都大道141号,,39,39,52,23,23,90,,113,107,22,26,6,4,0.9,0.9
2025-09-02T2200,2269A,124.1069,50.4097,大兴安岭地区,科技局,颗粒物(PM10),64,77,29,26,11,5,,51,30,15,5,8,4,0.5,0.4
2025-09-02T2200,3663A,124.1164,50.4278,大兴安岭地区,红旗社区,,31,31,9,12,4,2,,49,33,13,5,5,5,0.4,0.3
2025-09-02T2200,1600A,124.3303,40.0625,丹东市,江湾东路,,48,48,25,31,15,50,,95,76,19,17,7,6,1.0,0.9
2025-09-02T2200,1601A,124.4256,40.1503,丹东市,临江后街,,47,47,24,24,12,52,,87,71,16,14,7,6,1.1,0.8
2025-09-02T2200,1602A,124.3933,40.1461,丹东市,元宝山,,46,46,19,25,11,44,,76,68,19,13,6,5,1.4,0.9
2025-09-02T2200,1603A,124.3633,40.1092,丹东市,民主桥,细颗粒物(PM2.5),52,46,26,36,14,45,,94,78,19,16,12,6,1.0,0.8
2025-09-02T2200,3541A,109.5726,19.5167,儋州市,第一中学子站,,18,18,14,9,8,33,,47,46,4,4,6,6,0.4,0.5
2025-09-02T2200,3542A,109.5567,19.5187,儋州市,东坡学校子站,,26,26,13,8,7,35,,52,50,5,5,8,8,0.5,0.5
2025-09-02T2200,2616A,98.5842,24.428,德宏傣族景颇族自治州,德宏州监测站,"颗粒物(PM10),细颗粒物(PM2.5)",52,54,30,36,18,36,,79,69,11,10,9,8,0.4,0.4
2025-09-02T2200,3677A,98.5881,24.4368,德宏傣族景颇族自治州,芒市人民政府综合楼,,41,41,34,28,15,39,,78,69,9,8,7,7,0.4,0.4
2025-09-02T2200,1901A,104.4239,31.1208,德阳市,东山公园,,23,,25,16,21,62,,100,94,6,12,4,4,0.7,0.7
2025-09-02T2200,1902A,104.3826,31.1317,德阳市,西小区,,23,23,42,10,25,57,,111,104,13,19,1,3,0.8,0.9
2025-09-02T2200,1904A,104.3553,31.1091,德阳市,耐火材料厂,,21,21,37,11,23,54,,107,98,13,20,3,4,0.6,0.7
2025-09-02T2200,3639A,104.4019,31.1244,德阳市,市教育局,,21,21,38,11,25,57,,103,96,10,14,1,2,1.0,1
2025-09-02T2200,1622A,116.3032,37.4674,德州市,儿童乐园,,39,39,35,27,23,118,,181,166,22,15,9,11,0.8,0.7
2025-09-02T2200,1624A,116.2991,37.4451,德州市,监理站,,44,34,36,14,20,138,,183,175,14,14,12,14,0.7,0.7
2025-09-02T2200,3066A,116.2721,37.4379,德州市,九衢泉纯净水厂,,40,36,38,22,25,127,,168,163,21,22,6,7,0.7,0.8
2025-09-02T2200,3371A,116.3728,37.4403,德州市,开发区人民医院,,41,41,36,22,19,118,,173,156,22,18,8,10,1.1,1.1
2025-09-02T2200,3511A,116.5652,37.3319,德州市,陵城艺术中心,,44,44,37,22,15,110,,197,176,21,18,10,13,0.9,0.8
2025-09-02T2200,4292A,116.3525,37.4209,德州市,新河东路,,41,41,37,27,23,78,,178,156,44,24,7,9,1.0,1
2025-09-02T2200,2621A,99.7056,27.8317,迪庆藏族自治州,迪庆州站,,41,41,20,15,11,33,,51,47,13,6,7,6,0.6,0.4
2025-09-02T2200,3180A,99.7136,27.8094,迪庆藏族自治州,质量技术监督局,,22,16,18,15,8,46,,53,50,6,7,8,8,0.4,0.4
2025-09-02T2200,4257A,104.6092,35.5962,定西市,将台街,颗粒物(PM10),79,108,62,37,29,30,,104,85,44,10,7,7,0.5,0.3
2025-09-02T2200,4309A,104.6159,35.5701,定西市,正龙路62号,颗粒物(PM10),73,96,69,36,30,57,,114,101,17,7,4,5,0.2,0.2
2025-09-02T2200,1389A,113.7547,23.0494,东莞市,莞城梨川,,25,25,23,14,14,13,,122,62,33,21,6,6,0.4,0.3
2025-09-02T2200,1390A,113.7944,23.0128,东莞市,东城石井,,19,19,25,3,9,2,,110,43,30,21,4,5,0.5,0.4
2025-09-02T2200,1391A,113.7383,22.9658,东莞市,南城西平,,30,30,21,13,9,10,,101,52,36,25,8,6,0.7,0.6
2025-09-02T2200,3319A,113.7338,23.0381,东莞市,万江金泰,,,22,22,9,11,,,108,63,30,21,6,7,0.6,0.6
2025-09-02T2200,3626A,113.7533,23.0202,东莞市,南城元岭,,18,17,21,6,10,9,,123,58,36,24,6,5,0.4,0.3
2025-09-02T2200,3627A,113.7875,23.0457,东莞市,东城主山,,24,24,25,9,11,6,,121,59,47,23,7,7,0.5,0.4
2025-09-02T2200,1666A,118.6614,37.4309,东营市,市环保局,,43,24,33,17,20,137,,178,161,14,23,7,10,0.4,0.4
2025-09-02T2200,3036A,118.6904,37.4338,东营市,开发区管委会,,,,41,,21,142,,182,167,,23,7,11,,0.5
2025-09-02T2200,3365A,118.5719,37.565,东营市,垦利区民丰路,,46,46,40,27,28,108,,182,149,22,20,7,7,0.9,0.9
2025-09-02T2200,3498A,118.5055,37.8612,东营市,河口城区,,42,31,37,20,18,134,,159,152,20,24,6,6,0.9,0.8
2025-09-02T2200,3646A,118.4978,37.4623,东营市,胜利站,,43,40,44,19,23,135,,181,165,19,24,5,6,0.5,0.6
2025-09-02T2200,3734A,118.35,37.26,东营市,理想之城,,40,34,41,19,24,125,,185,163,22,28,5,7,0.4,0.5
2025-09-02T2200,1591A,110.0023,39.8129,鄂尔多斯市,综合楼,颗粒物(PM10),56,61,56,27,24,62,,102,80,28,22,7,10,0.6,0.7
2025-09-02T2200,1592A,109.9486,39.8261,鄂尔多斯市,巴音孟克林场办事处,颗粒物(PM10),58,66,67,29,25,65,,108,90,29,21,5,9,0.4,0.5
2025-09-02T2200,1593A,109.7736,39.5986,鄂尔多斯市,康泽苑,颗粒物(PM10),59,68,54,29,19,13,,88,55,30,18,6,7,0.5,0.5
2025-09-02T2200,1594A,109.8119,39.5989,鄂尔多斯市,华泰汽车城,颗粒物(PM10),63,75,57,39,25,15,,92,56,37,23,6,7,0.6,0.6
2025-09-02T2200,1595A,109.9734,39.7884,鄂尔多斯市,奥林花园,颗粒物(PM10),59,68,70,27,29,20,,96,60,44,28,5,7,0.6,0.7
2025-09-02T2200,2436A,114.8938,30.3994,鄂州市,市政府,,,,43,,18,91,,162,153,,17,8,9,0.7,0.6
2025-09-02T2200,2437A,114.8989,30.3714,鄂州市,赵家坝,颗粒物(PM10),51,52,49,21,16,103,,166,159,20,12,10,11,0.5,0.7
2025-09-02T2200,3654A,114.8094,30.4089,鄂州市,精准医疗中心,,50,50,50,20,23,100,,176,156,29,19,6,8,0.9,1
2025-09-02T2200,2454A,109.4978,30.2981,恩施土家族苗族自治州,湖北民院,,36,27,23,25,14,30,,94,75,18,10,6,6,0.3,0.3
2025-09-02T2200,2455A,109.4707,30.2798,恩施土家族苗族自治州,州电力总公司,,32,,22,22,17,32,,87,69,5,5,5,5,0.4,0.5
2025-09-02T2200,3549A,109.5061,30.3772,恩施土家族苗族自治州,龙凤新区,,,25,20,18,8,,,98,92,23,6,6,4,0.5,0.4
2025-09-02T2200,2499A,108.3411,21.6158,防城港市,沙万,,31,31,31,14,14,41,,48,46,21,16,3,4,0.4,0.5
2025-09-02T2200,2500A,108.3514,21.7731,防城港市,防城档案局,,35,32,30,24,14,36,,51,48,10,12,2,4,0.7,0.8
2025-09-02T2200,2501A,108.3506,21.6414,防城港市,大海花园,,18,12,23,11,11,55,,62,58,11,10,4,7,0.4,0.7
2025-09-02T2200,1371A,113.1294,23.0067,佛山市,湾梁,,,22,18,,12,30,,92,74,28,19,6,6,0.5,0.4
2025-09-02T2200,1372A,113.1083,23.0478,佛山市,华材职中,,,27,18,12,9,,,98,92,21,15,4,4,0.5,0.5
2025-09-02T2200,1373A,113.144,23.0453,佛山市,南海气象局,,13,,18,9,9,23,,100,79,24,13,5,5,0.6,0.5
2025-09-02T2200,1374A,113.2881,22.8094,佛山市,顺德苏岗,,21,21,19,3,5,8,,68,46,26,16,6,6,0.4,0.4
2025-09-02T2200,1376A,112.8383,22.8678,佛山市,高明孔堂,,28,28,20,10,9,38,,123,88,14,13,2,3,0.6,0.8
2025-09-02T2200,1377A,112.8836,23.1588,佛山市,三水监测站,,19,19,22,6,13,32,,111,87,37,18,5,6,0.4,0.4
2025-09-02T2200,1378A,112.867,23.185,佛山市,三水云东海,,20,20,27,12,15,40,,127,100,22,22,1,4,0.4,0.4
2025-09-02T2200,3625A,113.2544,22.7642,佛山市,容桂街道办,,13,12,11,9,8,17,,76,51,21,16,6,6,0.6,0.6
2025-09-02T2200,1280A,119.3903,26.0543,福州市,鼓山,,,,21,,11,,,66,,,8,,1,,0.3
2025-09-02T2200,1282A,119.2681,26.0504,福州市,师大,,25,23,24,17,13,55,,101,81,15,10,4,5,0.4,0.3
2025-09-02T2200,1283A,119.2984,26.1028,福州市,五四北路,,32,32,25,18,12,43,,105,80,20,13,4,4,0.5,0.3
2025-09-02T2200,1284A,119.2648,26.0768,福州市,杨桥西路,,30,30,22,14,13,48,,103,80,16,11,3,4,0.4,0.3
2025-09-02T2200,1285A,119.317,26.0746,福州市,紫阳,,35,33,29,24,14,45,,106,83,16,13,4,5,0.4,0.3
2025-09-02T2200,3048A,119.5799,26.0936,福州市,九龙,,19,16,21,13,12,30,,103,72,9,11,4,5,0.2,0.3
2025-09-02T2200,3526A,119.5189,25.9664,福州市,吴航,,36,36,27,16,15,44,,114,90,9,13,4,4,0.5,0.4
2025-09-02T2200,1755A,123.7977,41.8491,抚顺市,望花区,颗粒物(PM10),51,52,61,30,31,39,,127,99,35,28,12,10,1.0,1.1
2025-09-02T2200,1756A,123.9161,41.8822,抚顺市,顺城区,颗粒物(PM10),58,66,53,24,28,10,,137,77,46,28,6,6,1.0,1.2
2025-09-02T2200,1757A,124.0436,41.8611,抚顺市,东洲区,,,36,36,14,21,,,118,96,8,13,5,9,0.4,1
2025-09-02T2200,1758A,123.9247,41.8642,抚顺市,新抚区,颗粒物(PM10),57,63,49,30,27,7,,126,66,39,26,6,6,1.0,1.2
2025-09-02T2200,1759A,124.0972,41.8961,抚顺市,大伙房水库,,23,23,27,10,17,28,,100,72,15,12,8,7,0.7,0.9
2025-09-02T2200,1760A,123.7086,41.8391,抚顺市,沈抚新城,,50,50,52,22,29,46,,135,103,32,27,5,6,1.3,1.2
2025-09-02T2200,2376A,116.2127,28.0814,抚州市,桐源党溪,,30,30,26,19,13,52,,76,62,3,4,4,5,0.5,0.6
2025-09-02T2200,2377A,116.3544,27.9831,抚州市,市站,,24,24,18,13,8,52,,89,79,3,3,1,2,0.4,0.4
2025-09-02T2200,2378A,116.3565,27.963,抚州市,血防站,,31,31,23,18,12,47,,85,74,6,5,4,3,0.5,0.6
2025-09-02T2200,2379A,116.3564,28.0007,抚州市,采茶剧团,,29,26,21,20,9,46,,83,73,2,2,4,4,0.6,0.6
2025-09-02T2200,2380A,116.385,27.9647,抚州市,医学分院,,,31,23,16,11,,,88,85,5,6,4,4,0.6,0.7
2025-09-02T2200,2207A,121.6094,41.998,阜新市,工业园区,,38,38,41,17,16,79,,127,112,20,20,12,11,0.7,1
2025-09-02T2200,2208A,121.6697,42.0279,阜新市,长青街,,35,34,46,20,23,110,,122,116,13,19,16,13,0.7,0.8
2025-09-02T2200,2209A,121.6673,42.0705,阜新市,农业园区,,43,43,41,22,18,106,,120,115,11,9,8,8,0.8,0.9
2025-09-02T2200,2210A,121.6717,42.0224,阜新市,东苑,,38,38,59,19,23,108,,119,112,17,21,18,16,0.8,1
2025-09-02T2200,2211A,121.6506,42.0498,阜新市,玉龙新城,,38,38,39,22,16,88,,118,105,16,20,11,12,0.7,0.7
2025-09-02T2200,2301A,115.8277,32.8929,阜阳市,市监测站,,36,36,35,19,22,91,,135,126,14,20,4,4,0.3,0.4
2025-09-02T2200,2303A,115.8554,32.8605,阜阳市,开发区,,26,17,34,7,16,83,,123,114,14,16,6,6,0.3,0.3
2025-09-02T2200,2875A,115.784,32.8892,阜阳市,阜阳职业技术学院,,33,23,33,16,16,105,,144,138,10,12,5,6,0.4,0.4
2025-09-02T2200,3468A,115.7901,32.8613,阜阳市,市规划展馆,,40,40,33,17,21,105,,144,138,12,14,3,3,0.4,0.4
2025-09-02T2200,3469A,115.836,32.9183,阜阳市,枣园社区,,,,34,,20,87,,139,132,16,17,4,4,0.5,0.9
2025-09-02T2200,2669A,102.9099,34.9841,甘南藏族自治州,州政府,,39,39,25,19,15,19,,85,66,33,10,5,5,0.3,0.2
2025-09-02T2200,3380A,102.8914,34.9617,甘南藏族自治州,甘肃民族师范学院,颗粒物(PM10),61,71,29,21,12,4,,100,73,50,15,5,4,0.5,0.4
2025-09-02T2200,2570A,101.9603,30.0475,甘孜藏族自治州,水桥子,,12,9,13,6,6,37,,60,56,14,12,6,7,0.4,0.4
2025-09-02T2200,3065A,101.9533,29.9972,甘孜藏族自治州,州环保局,,12,12,16,3,4,37,,64,60,17,10,4,4,0.4,0.3
2025-09-02T2200,3414A,115.8347,28.932,赣江新区,桑海产业园,,36,36,23,18,14,68,,132,122,26,14,5,6,0.4,0.3
2025-09-02T2200,2362A,114.9017,25.9149,赣州市,通天岩,,16,16,20,6,6,33,,104,77,3,4,13,16,0.4,1.2
2025-09-02T2200,2363A,114.9367,25.8664,赣州市,地委,,27,27,28,15,14,52,,110,81,10,11,5,6,0.5,0.6
2025-09-02T2200,2364A,114.9461,25.8481,赣州市,气象台,,,24,26,8,9,,,98,80,12,13,6,7,0.6,0.7
2025-09-02T2200,2365A,114.9322,25.8333,赣州市,市图书馆,,18,16,21,12,14,52,,93,73,12,13,5,5,0.6,0.6
2025-09-02T2200,2366A,114.8905,25.8471,赣州市,华坚鞋城,,18,12,27,3,14,55,,98,77,11,14,5,6,0.6,0.6
2025-09-02T2200,3109A,115.0093,25.8613,赣州市,赣县区卫计委,,19,,19,13,11,51,,97,79,6,7,6,6,0.5,0.4
2025-09-02T2200,2683A,106.2319,36.1417,固原市,马园,,,,,,,,,,,,,,,,
2025-09-02T2200,2684A,106.2792,36.0022,固原市,监测站,颗粒物(PM10),67,84,64,37,24,28,,113,88,31,10,7,7,0.4,0.2
2025-09-02T2200,2685A,106.2375,36.0211,固原市,新区,颗粒物(PM10),65,80,63,33,25,20,,97,73,43,10,8,8,0.3,0.2
2025-09-02T2200,3522A,106.2177,35.9959,固原市,原州区十五小,颗粒物(PM10),65,80,63,38,30,35,,100,81,19,7,9,9,0.2,0.2
2025-09-02T2200,2543A,106.6308,30.5278,广安市,小平旧居,,,,,,,,,,,,,,,,
2025-09-02T2200,2544A,106.6303,30.4576,广安市,市委,细颗粒物(PM2.5),79,70,60,58,48,95,,142,129,14,17,5,8,0.5,0.5
2025-09-02T2200,2545A,106.6271,30.4663,广安市,友谊中学,细颗粒物(PM2.5),69,60,54,50,41,105,,149,136,13,17,8,10,1.1,1.1
2025-09-02T2200,2547A,106.6388,30.4551,广安市,广电花园,细颗粒物(PM2.5),67,69,39,48,39,93,,136,123,12,16,6,6,0.8,0.7
2025-09-02T2200,2902A,106.6351,30.4865,广安市,北辰小学,细颗粒物(PM2.5),69,73,64,50,43,97,,143,130,12,13,11,12,0.8,0.7
2025-09-02T2200,2523A,105.8945,32.4535,广元市,黑石坡,,35,35,24,18,16,50,,38,38,4,10,10,9,0.2,0.4
2025-09-02T2200,2524A,105.821,32.4444,广元市,老城,,,27,18,3,6,,,48,48,28,29,4,5,0.7,0.8
2025-09-02T2200,2526A,105.8628,32.4287,广元市,监测站,,15,15,15,3,5,39,,42,42,20,20,8,8,0.7,0.8
2025-09-02T2200,3617A,105.8047,32.4166,广元市,经开区,,36,36,29,16,18,36,,41,37,24,28,4,5,0.6,0.7
2025-09-02T2200,1345A,113.2347,23.1423,广州市,广雅中学,,22,22,25,10,11,28,,118,92,24,22,3,4,0.6,0.6
2025-09-02T2200,1346A,113.2612,23.105,广州市,市五中,,18,18,22,9,11,29,,124,97,28,23,5,6,0.3,0.3
2025-09-02T2200,1348A,113.3478,23.0916,广州市,广东商学院,,17,17,20,8,14,16,,130,92,31,24,4,4,0.3,0.3
2025-09-02T2200,1349A,113.4332,23.1047,广州市,市八十六中,,15,10,21,3,9,8,,125,78,30,32,3,5,0.2,0.3
2025-09-02T2200,1350A,113.3505,22.9483,广州市,番禺中学,,12,12,16,6,8,22,,112,76,12,11,6,6,0.5,0.5
2025-09-02T2200,1351A,113.2146,23.3916,广州市,花都师范,,38,38,35,14,15,26,,153,127,55,29,6,6,0.6,0.5
2025-09-02T2200,1352A,113.2597,23.1331,广州市,市监测站,,18,18,24,8,9,30,,121,96,20,20,5,6,0.4,0.4
2025-09-02T2200,1353A,113.5618,23.312,广州市,九龙镇镇龙,颗粒物(PM10),53,56,36,33,20,49,,140,111,28,29,7,8,0.5,0.5
2025-09-02T2200,1354A,113.2765,23.1544,广州市,麓湖,,20,20,26,9,10,27,,125,105,26,22,2,3,0.3,0.3
2025-09-02T2200,1355A,113.443,23.3035,广州市,帽峰山森林公园,,21,18,18,6,9,25,,156,117,41,28,7,8,0.5,0.5
2025-09-02T2200,2846A,113.3221,23.1322,广州市,体育西,,20,20,20,9,12,23,,135,97,26,22,4,5,0.5,0.5
2025-09-02T2200,3298A,113.5717,23.5491,广州市,从化街口,,24,24,27,13,14,60,,119,112,31,20,8,8,0.6,0.6
2025-09-02T2200,3299A,113.3472,23.3692,广州市,白云竹料,颗粒物(PM10),51,51,30,34,15,26,,140,114,48,30,5,5,0.5,0.4
2025-09-02T2200,3300A,113.2981,23.237,广州市,白云嘉禾,,,34,28,15,13,,,146,123,53,29,7,7,,0.4
2025-09-02T2200,3301A,113.4256,23.1716,广州市,黄埔科学城,,35,35,26,14,11,1,,134,90,53,29,7,5,0.7,0.6
2025-09-02T2200,3302A,113.3942,23.0483,广州市,番禺大学城,,20,20,22,6,9,10,,134,88,30,22,11,10,0.4,0.4
2025-09-02T2200,3303A,113.4922,22.8168,广州市,南沙黄阁,,8,6,26,3,10,25,,98,60,10,18,4,5,0.4,0.3
2025-09-02T2200,3304A,113.5342,22.7896,广州市,南沙街,,10,10,17,3,6,22,,103,57,14,18,4,5,0.4,0.4
2025-09-02T2200,3443A,113.2902,23.5544,广州市,花都梯面,,29,29,25,14,11,33,,154,133,43,23,6,7,0.6,0.5
2025-09-02T2200,3445A,113.7858,23.7478,广州市,从化良口,,20,16,18,11,11,64,,95,76,13,10,5,4,0.4,0.4
2025-09-02T2200,3446A,113.8051,23.2614,广州市,增城荔城,,35,35,28,16,13,32,,112,84,24,18,8,9,0.6,0.5
2025-09-02T2200,2505A,109.568,23.1478,贵港市,德智高中,,,,,,,,,,,,,,,,
2025-09-02T2200,2506A,109.6047,23.0666,贵港市,江南子站,,44,44,26,24,16,17,,78,61,21,10,10,5,0.6,0.5
2025-09-02T2200,2508A,109.5669,23.1065,贵港市,荷城子站,,31,31,18,14,10,26,,77,63,14,8,9,4,0.7,0.5
2025-09-02T2200,3405A,109.5886,23.1172,贵港市,新世纪学校,,34,34,23,12,15,32,,89,72,14,10,3,5,1.0,0.5
2025-09-02T2200,4260A,109.5933,23.0951,贵港市,中山路155-3号,,28,28,25,13,14,23,,81,64,18,9,8,4,0.5,0.4
2025-09-02T2200,1439A,106.6899,26.5998,贵阳市,马鞍山,,,,14,,15,,,48,,,8,,3,,0.2
2025-09-02T2200,1441A,106.6243,26.6266,贵阳市,鉴湖路,,36,36,28,9,7,57,,73,69,10,7,7,8,0.2,0.2
2025-09-02T2200,1442A,106.7487,26.6343,贵阳市,燕子冲,,20,17,15,12,15,63,,84,77,10,9,3,4,0.2,0.3
2025-09-02T2200,1443A,106.6555,26.4365,贵阳市,碧云窝,,22,22,29,9,9,60,,80,74,9,7,6,8,0.2,0.1
2025-09-02T2200,1445A,106.7109,26.6027,贵阳市,红边门,,27,27,22,17,14,53,,79,72,20,14,1,3,0.2,0.2
2025-09-02T2200,1446A,106.7164,26.5699,贵阳市,新华路,,19,19,19,9,7,50,,74,67,19,12,11,16,0.1,0.3
2025-09-02T2200,1447A,106.674,26.5424,贵阳市,太慈桥,,27,27,20,14,9,51,,80,72,22,14,5,4,0.1,0.1
2025-09-02T2200,1552A,106.805,26.3003,贵阳市,桐木岭,,29,29,28,14,15,63,,82,76,5,5,3,3,0.9,0.8
2025-09-02T2200,4230A,106.6882,26.5695,贵阳市,花果园大街66号,,18,14,7,12,11,55,,73,68,9,8,4,4,0.5,0.4
2025-09-02T2200,4231A,106.6873,26.5169,贵阳市,漓江路57号,,29,29,20,12,9,56,,82,74,11,8,6,6,0.4,0.4
2025-09-02T2200,1862A,110.4144,25.3167,桂林市,电子科大尧山校区,,,,,,,,,,,,,,,,
2025-09-02T2200,1864A,110.3089,25.2708,桂林市,龙隐路小学,,29,29,30,16,16,61,,83,76,9,10,4,7,0.3,0.3
2025-09-02T2200,1865A,110.2869,25.2178,桂林市,八中,,35,35,31,13,15,56,,85,77,8,9,6,8,0.4,0.4
2025-09-02T2200,3531A,110.296,25.1253,桂林市,旅游学院,,19,19,20,12,12,49,,85,74,8,10,2,3,0.4,0.4
2025-09-02T2200,4222A,110.1835,25.2444,桂林市,环湖路276号,,31,31,31,17,15,52,,80,75,13,22,6,6,0.2,0.2
2025-09-02T2200,4301A,110.2803,25.2773,桂林市,信义路13号,,,38,33,18,15,,,82,80,9,12,5,9,0.4,0.6
2025-09-02T2200,2674A,100.2561,34.4714,果洛藏族自治州,玛沁县大武镇,颗粒物(PM10),68,86,29,30,17,110,,107,107,1,2,18,16,0.5,0.4
2025-09-02T2200,1129A,126.5422,45.755,哈尔滨市,岭北,,22,22,20,8,15,50,,97,80,20,15,11,12,0.7,0.7
2025-09-02T2200,1130A,126.561,45.8167,哈尔滨市,松北商大,颗粒物(PM10),54,57,27,12,9,5,,71,42,43,15,7,6,0.8,0.6
2025-09-02T2200,1131A,126.979,45.5419,哈尔滨市,阿城会宁,,35,35,31,14,20,4,,74,47,35,13,8,8,0.6,0.6
2025-09-02T2200,1132A,126.599,45.7222,哈尔滨市,南岗学府路,颗粒物(PM10),84,117,40,46,16,12,,81,56,67,20,9,8,1.1,0.5
2025-09-02T2200,1133A,126.689,45.7733,哈尔滨市,太平宏伟公园,颗粒物(PM10),113,176,41,30,14,4,,74,52,73,18,10,8,1.0,0.7
2025-09-02T2200,1134A,126.635,45.7667,哈尔滨市,道外承德广场,颗粒物(PM10),66,81,48,25,13,0,,67,43,69,21,8,7,1.1,0.5
2025-09-02T2200,1135A,126.685,45.7319,哈尔滨市,香坊红旗大街,颗粒物(PM10),129,207,43,70,23,10,,77,54,69,24,15,9,1.6,0.6
2025-09-02T2200,1136A,126.6411,45.7258,哈尔滨市,动力和平路,颗粒物(PM10),59,68,40,8,7,5,,74,53,74,25,7,5,1.1,0.6
2025-09-02T2200,1137A,126.593,45.7478,哈尔滨市,道里建国路,颗粒物(PM10),65,79,35,17,15,11,,68,46,81,22,13,10,4.0,0.7
2025-09-02T2200,1138A,126.615,45.61,哈尔滨市,平房东轻厂,颗粒物(PM10),68,86,34,20,12,14,,66,37,47,26,10,10,0.8,0.5
2025-09-02T2200,1139A,126.595,45.9855,哈尔滨市,呼兰师专,颗粒物(PM10),56,62,26,12,10,12,,81,60,51,19,10,10,0.7,0.5
2025-09-02T2200,1140A,126.6206,45.6842,哈尔滨市,省农科院,,,177,66,,19,6,,76,38,75,30,7,6,1.7,0.7
2025-09-02T2200,2688A,93.5128,42.8172,哈密市,地区监测站,颗粒物(PM10),88,125,62,44,18,24,,99,85,81,13,5,5,0.8,0.2
2025-09-02T2200,2689A,93.4961,42.8328,哈密市,哈密师范学校,颗粒物(PM10),96,141,50,41,14,28,,98,85,62,13,4,4,1.0,0.2
2025-09-02T2200,2671A,100.9048,36.9639,海北藏族自治州,海晏县西海镇,,35,35,18,23,14,90,,115,106,16,4,9,7,0.7,0.4
2025-09-02T2200,3867A,102.0738,36.5056,海东市,平安区公安北苑,,46,46,20,24,10,76,,108,97,10,6,14,9,1.2,0.6
2025-09-02T2200,1409A,110.576,19.9507,海口市,东寨港,,9,,13,6,7,26,,33,30,3,3,5,6,0.3,0.3
2025-09-02T2200,1410A,110.3232,20.0574,海口市,海南大学,,9,8,13,3,6,28,,48,40,5,6,2,3,0.3,0.3
2025-09-02T2200,1411A,110.283,20.0053,海口市,秀英海南医院,,10,10,16,3,8,28,,46,38,5,11,6,6,0.2,0.3
2025-09-02T2200,1412A,110.338,19.9969,海口市,海南师范大学,,14,14,14,3,7,29,,48,38,4,6,4,4,0.3,0.4
2025-09-02T2200,1413A,110.33,20.0356,海口市,龙华路环保局宿舍,,11,11,13,3,7,29,,46,40,5,7,5,6,0.3,0.3
2025-09-02T2200,3539A,110.5111,19.9736,海口市,桂林洋子站,,9,9,16,3,8,23,,36,31,5,6,4,4,0.2,0.2
2025-09-02T2200,2673A,100.6188,36.2866,海南藏族自治州,共和县恰卜恰镇,,37,37,23,16,6,33,,118,97,32,6,14,12,0.5,0.4
2025-09-02T2200,2676A,97.3731,37.3753,海西蒙古族藏族自治州,德令哈市,颗粒物(PM10),56,61,29,14,10,100,,106,104,1,5,8,9,0.4,0.5
2025-09-02T2200,1048A,114.5302,36.6116,邯郸市,东污水处理厂,,39,31,38,24,29,124,,146,139,14,12,6,6,0.4,0.5
2025-09-02T2200,1049A,114.4918,36.5713,邯郸市,矿院,,39,,32,27,34,121,,148,144,11,9,4,5,0.4,0.5
2025-09-02T2200,1050A,114.484,36.6133,邯郸市,丛台公园,,44,19,29,17,23,138,,145,145,9,9,8,8,0.4,0.5
2025-09-02T2200,3458A,114.7895,36.5593,邯郸市,香泉濮院小区,颗粒物(PM10),53,55,44,19,18,111,,150,142,14,9,3,3,0.5,0.4
2025-09-02T2200,3579A,114.50634,36.77178,邯郸市,永年区实验高中,,42,41,47,23,25,134,,149,142,13,14,4,4,0.3,0.4
2025-09-02T2200,3580A,114.20016,36.44293,邯郸市,峰峰矿区临水派出所,,39,33,44,24,29,123,,158,149,11,10,5,7,0.2,0.4
2025-09-02T2200,2634A,106.9893,33.1842,汉中市,汉川机床厂子校,,18,15,16,3,7,57,,74,63,11,12,3,3,0.6,0.5
2025-09-02T2200,2635A,107.0154,33.0706,汉中市,市监测站,,18,18,21,9,10,36,,62,56,15,7,6,6,0.7,0.7
2025-09-02T2200,2636A,107.0089,33.1138,汉中市,鑫源开发区,,12,8,22,8,13,38,,60,54,13,12,6,6,0.5,0.5
2025-09-02T2200,2637A,107.007,33.0323,汉中市,南郑大河坎水厂,,13,13,19,7,10,36,,57,51,16,9,6,5,0.5,0.5
2025-09-02T2200,1223A,120.2072,30.2111,杭州市,滨江,,18,13,24,9,14,55,,110,79,17,22,7,7,0.4,0.5
2025-09-02T2200,1224A,120.0633,30.2747,杭州市,西溪,,14,14,18,6,12,17,,97,50,28,16,6,6,0.5,0.5
2025-09-02T2200,1226A,120.3417,30.3150,杭州市,下沙,,21,16,24,6,13,65,,115,77,20,25,5,6,0.3,0.4
2025-09-02T2200,1227A,120.1269,30.2456,杭州市,卧龙桥,,15,15,21,6,13,17,,96,49,12,11,7,7,0.6,0.6
2025-09-02T2200,1228A,120.1903,30.2692,杭州市,浙江农大,,15,15,26,10,18,46,,96,61,18,19,5,5,0.5,0.6
2025-09-02T2200,1230A,120.1197,30.3119,杭州市,和睦小学,,17,13,19,10,13,52,,106,67,14,13,5,5,0.5,0.5
2025-09-02T2200,1231A,120.3019,30.4183,杭州市,临平镇,,18,11,30,11,17,57,,120,78,18,20,5,5,0.7,0.7
2025-09-02T2200,1232A,120.2753,30.1839,杭州市,城厢镇,,16,16,25,8,16,49,,116,82,15,15,7,8,0.6,0.6
2025-09-02T2200,1233A,120.0883,30.1808,杭州市,云栖,,14,14,21,6,10,22,,112,60,22,20,10,10,0.7,0.7
2025-09-02T2200,3557A,119.9464,30.0494,杭州市,镇二中,,16,12,18,11,15,31,,92,58,21,15,4,4,0.8,0.7
2025-09-02T2200,3558A,119.7183,30.2367,杭州市,市府大楼,,12,,10,8,9,33,,90,54,15,11,8,8,0.4,0.3
2025-09-02T2200,3656A,120.1556,30.2864,杭州市,消防大队,,18,16,22,12,14,48,,100,68,17,14,6,6,0.5,0.6
2025-09-02T2200,1270A,117.1959,31.7848,合肥市,明珠广场,颗粒物(PM10),56,61,25,22,14,21,,124,106,69,23,6,6,0.8,0.6
2025-09-02T2200,1271A,117.3072,31.8764,合肥市,三里街,,32,27,22,22,16,57,,113,94,24,17,4,4,0.7,0.7
2025-09-02T2200,1272A,117.2588,31.8707,合肥市,琥珀山庄,,39,39,32,16,19,56,,115,91,25,15,8,8,0.8,0.8
2025-09-02T2200,1273A,117.1604,31.9052,合肥市,董铺水库,,39,29,19,27,13,50,,88,77,13,5,4,4,0.4,0.4
2025-09-02T2200,1274A,117.25,31.8571,合肥市,长江中路,,41,41,24,21,14,63,,123,111,24,13,7,7,0.7,0.6
2025-09-02T2200,1275A,117.266,31.9436,合肥市,庐阳区,,34,34,26,17,13,78,,114,95,14,14,6,6,0.6,0.6
2025-09-02T2200,1276A,117.3453,31.8616,合肥市,瑶海区,,31,31,25,12,14,65,,125,104,27,16,6,7,0.7,0.6
2025-09-02T2200,1277A,117.3027,31.7964,合肥市,包河区,二氧化氮,61,51,26,29,16,4,,127,91,122,40,12,10,1.0,0.7
2025-09-02T2200,1278A,117.2776,31.7385,合肥市,滨湖新区,,47,36,20,27,18,12,,107,78,94,28,5,5,0.8,0.7
2025-09-02T2200,1279A,117.1318,31.8403,合肥市,高新区,,36,36,22,18,13,54,,106,96,34,15,5,5,0.9,0.7
2025-09-02T2200,3464A,117.3803,31.9147,合肥市,高教基地,,22,22,20,15,12,65,,103,82,9,6,5,6,0.6,0.5
2025-09-02T2200,3614A,79.924,37.0877,和田地区,地区环保局,颗粒物(PM10),500,1221,1100,342,306,59,,80,78,21,19,3,2,0.5,0.4
2025-09-02T2200,3615A,79.9131,37.113,和田地区,市环保局,颗粒物(PM10),500,981,1080,230,267,44,,82,79,,29,1,2,0.5,0.3
2025-09-02T2200,2516A,108.2011,24.715,河池市,东仁乐园,,,,,,,,,,,,,,,,
2025-09-02T2200,2517A,108.0497,24.6947,河池市,市环保站,,16,,20,10,11,51,,72,62,7,11,5,5,0.5,0.6
2025-09-02T2200,2518A,108.0983,24.6989,河池市,市疾控中心,,18,15,24,12,14,43,,76,65,18,16,7,8,0.6,0.7
2025-09-02T2200,1696A,114.6778,23.7569,河源市,源西,,29,,22,20,13,29,,77,62,16,13,5,5,0.8,0.8
2025-09-02T2200,1697A,114.6944,23.7586,河源市,东埔,,,15,21,9,11,45,,71,60,,10,4,5,0.6,0.7
2025-09-02T2200,1698A,114.6892,23.7233,河源市,老城,,29,29,26,3,9,41,,82,68,10,9,8,6,0.7,0.7
2025-09-02T2200,1718A,115.4208,35.2464,菏泽市,气象局,颗粒物(PM10),55,60,37,29,21,128,,168,156,24,11,3,3,0.5,0.4
2025-09-02T2200,3374A,115.5564,35.0891,菏泽市,定陶老年大学,,48,48,30,22,14,107,,153,135,13,9,6,5,0.6,0.5
2025-09-02T2200,4184A,115.4797,35.24401,菏泽市,永昌路1号,颗粒物(PM10),57,64,38,39,24,130,,168,159,16,11,7,7,0.5,0.4
2025-09-02T2200,4193A,115.4715,35.2800,菏泽市,长城路999号,颗粒物(PM10),61,72,43,34,20,120,,174,157,24,18,12,9,0.5,0.4
2025-09-02T2200,2514A,111.5264,24.4172,贺州市,环保小区,,32,32,23,3,14,47,,99,81,14,10,14,16,0.6,0.5
2025-09-02T2200,2515A,111.5608,24.4078,贺州市,政协大楼,,29,29,20,16,14,40,,113,91,24,10,12,13,0.9,0.8
2025-09-02T2200,3534A,111.4744,24.4553,贺州市,西湾,,35,26,24,24,14,29,,109,75,28,13,12,12,0.5,0.4
2025-09-02T2200,2385A,114.17,35.9019,鹤壁市,市监测站,,40,40,33,25,22,110,,144,138,5,5,7,6,0.5,0.5
2025-09-02T2200,2386A,114.2956,35.7511,鹤壁市,市交警支队,,38,29,32,26,29,90,,140,128,16,12,4,4,0.6,0.6
2025-09-02T2200,2387A,114.2878,35.7306,鹤壁市,迎宾馆,,44,44,38,19,24,87,,141,128,24,13,4,3,0.6,0.6
2025-09-02T2200,3474A,114.2617,35.6822,鹤壁市,大新区,,25,17,34,8,17,77,,122,102,16,18,6,7,0.6,0.6
2025-09-02T2200,3596A,114.1572,35.9603,鹤壁市,南山宾馆,,39,38,48,20,27,124,,145,141,6,5,5,5,0.2,0.3
2025-09-02T2200,2244A,130.2537,47.3416,鹤岗市,哈啤分公司,,35,35,21,14,8,30,,77,60,11,5,11,12,0.5,0.3
2025-09-02T2200,2245A,130.2684,47.3086,鹤岗市,斯达机电,,38,38,22,11,9,23,,74,60,27,10,14,12,0.6,0.4
2025-09-02T2200,2246A,130.3114,47.3388,鹤岗市,东山纸板厂,颗粒物(PM10),64,78,29,13,17,14,,82,56,19,11,14,14,0.5,0.4
2025-09-02T2200,2247A,130.1097,47.3382,鹤岗市,五号水库,,9,9,9,3,6,25,,75,51,11,20,4,6,0.2,0.3
2025-09-02T2200,2263A,127.4833,50.2524,黑河市,交通局,细颗粒物(PM2.5),65,65,27,47,16,13,,54,37,22,12,9,6,0.7,0.3
2025-09-02T2200,2264A,127.5144,50.2341,黑河市,环保局,颗粒物(PM10),54,58,23,27,11,11,,57,42,33,8,7,5,0.8,0.2
2025-09-02T2200,2265A,127.5291,50.2472,黑河市,大黑河岛,,,,,8,7,17,,47,38,2,2,22,26,0.4,0.3
2025-09-02T2200,1074A,115.6838,37.7541,衡水市,电机北厂,颗粒物(PM10),51,51,37,29,19,143,,152,146,10,9,5,4,0.5,0.4
2025-09-02T2200,1075A,115.6303,37.7316,衡水市,市监测站,,43,43,39,22,16,135,,152,141,12,9,8,7,0.6,0.5
2025-09-02T2200,3188A,115.6683,37.7217,衡水市,市城管局,,41,37,36,19,17,130,,147,136,12,10,8,7,0.4,0.4
2025-09-02T2200,3459A,115.5989,37.5491,衡水市,地表水厂,颗粒物(PM10),52,54,44,22,18,87,,151,132,31,16,3,3,0.3,0.2
2025-09-02T2200,2456A,112.5003,26.9167,衡阳市,原169医院,,32,32,28,15,12,80,,124,108,4,5,12,4,1.5,0.8
2025-09-02T2200,2457A,112.6194,26.9258,衡阳市,衡阳化工总厂,,40,37,29,28,17,59,,133,106,11,10,6,6,1.0,0.9
2025-09-02T2200,2458A,112.6211,26.8956,衡阳市,珠晖区环保局,,45,45,30,21,13,66,,129,105,9,11,8,7,1.0,1
2025-09-02T2200,2459A,112.6197,26.8733,衡阳市,市委党校,,29,29,18,20,13,71,,116,100,9,8,14,11,0.5,0.5
2025-09-02T2200,2460A,112.6006,26.8919,衡阳市,市监测站,,39,38,21,27,15,71,,124,105,8,9,2,2,0.7,0.7
2025-09-02T2200,2461A,112.5664,26.9056,衡阳市,真空机电公司,,,26,25,21,15,,,111,106,7,10,9,3,0.9,1
2025-09-02T2200,3399A,112.6703,26.882,衡阳市,师范学院,,41,41,29,20,13,56,,114,94,10,9,10,8,0.5,0.5
2025-09-02T2200,2608A,103.3772,23.3993,红河哈尼族彝族自治州,污水处理厂,,30,30,18,18,17,37,,51,45,7,6,8,8,0.3,0.2
2025-09-02T2200,2609A,103.3861,23.35,红河哈尼族彝族自治州,监测站,,30,30,25,13,9,37,,53,48,4,3,9,10,0.2,0.1
2025-09-02T2200,3038A,103.3758,23.368,红河哈尼族彝族自治州,州图书馆,,28,27,14,19,15,40,,50,47,6,5,2,2,0.3,0.2
2025-09-02T2200,1090A,111.6507,40.7517,呼和浩特市,呼市一监,,44,44,44,27,25,68,,115,99,13,20,2,3,0.3,0.4
2025-09-02T2200,1091A,111.6572,40.8033,呼和浩特市,小召,,48,48,46,24,23,71,,108,92,19,28,5,6,0.5,0.5
2025-09-02T2200,1094A,111.7516,40.8369,呼和浩特市,如意水处理厂,,41,41,50,18,20,64,,121,100,24,35,5,7,0.4,0.4
2025-09-02T2200,1095A,111.7276,40.8062,呼和浩特市,二十九中,,50,50,49,23,22,76,,119,102,14,25,6,7,0.7,0.7
2025-09-02T2200,1096A,111.5512,40.7866,呼和浩特市,工大金川校区,颗粒物(PM10),60,69,54,28,21,47,,107,88,25,30,5,7,0.5,0.6
2025-09-02T2200,1097A,111.717,40.7612,呼和浩特市,化肥厂生活区,,49,49,50,23,22,72,,118,101,24,24,5,7,0.4,0.5
2025-09-02T2200,3698A,111.5968,40.8178,呼和浩特市,红旗小学,颗粒物(PM10),53,56,48,27,22,47,,120,98,37,32,3,5,0.3,0.3
2025-09-02T2200,3699A,111.6518,40.8389,呼和浩特市,海东办,,44,44,49,18,22,67,,126,105,28,34,5,7,0.4,0.4
2025-09-02T2200,2192A,119.7594,49.2261,呼伦贝尔市,区环保局,,27,27,28,13,14,33,,64,53,12,14,5,5,0.6,0.6
2025-09-02T2200,3061A,119.7512,49.1577,呼伦贝尔市,国华电力东,,,18,17,6,8,,,72,66,1,5,6,6,0.2,0.2
2025-09-02T2200,1250A,120.0751,30.8669,湖州市,城西水厂,,19,14,25,11,19,60,,103,65,19,25,7,7,0.4,0.4
2025-09-02T2200,2873A,120.0830,30.8929,湖州市,仁皇山新区,,16,14,26,10,17,49,,93,56,18,18,4,4,0.4,0.4
2025-09-02T2200,2907A,120.1844,30.8596,湖州市,吴兴区站,,16,16,23,10,19,34,,101,52,23,15,8,7,0.5,0.6
2025-09-02T2200,3562A,120.4148,30.8538,湖州市,南浔区站,,45,,27,31,26,48,,109,66,16,11,6,6,0.7,0.7
2025-09-02T2200,1607A,120.9049,40.7211,葫芦岛市,龙港区,细颗粒物(PM2.5),84,,69,62,39,149,,160,160,6,15,6,22,1.0,0.9
2025-09-02T2200,1608A,120.8392,40.7514,葫芦岛市,化工街,细颗粒物(PM2.5),58,58,57,41,35,98,,147,138,21,33,6,19,1.0,1
2025-09-02T2200,1609A,120.8341,40.7073,葫芦岛市,新区,细颗粒物(PM2.5),89,,49,66,48,119,,150,145,10,28,4,6,1.1,1
2025-09-02T2200,1610A,120.8695,40.7677,葫芦岛市,东城区,细颗粒物(PM2.5),107,,53,80,50,117,,150,144,19,28,5,16,1.3,1.3
2025-09-02T2200,2482A,109.5981,27.5721,怀化市,林科所,,31,31,26,15,9,46,,107,84,13,6,5,6,0.5,0.4
2025-09-02T2200,2483A,109.9453,27.5444,怀化市,河西地税局,,35,27,23,24,15,23,,96,70,18,9,3,4,0.3,0.2
2025-09-02T2200,2484A,109.9781,27.5342,怀化市,市四医院,,34,34,30,13,19,44,,104,78,11,7,4,6,0.2,0.3
2025-09-02T2200,2485A,109.9972,27.5578,怀化市,监测楼,,26,25,21,18,13,48,,103,81,11,8,4,6,0.2,0.3
2025-09-02T2200,2486A,110.0394,27.583,怀化市,市委党校,,45,45,26,19,15,13,,94,70,36,12,3,4,0.3,0.3
2025-09-02T2200,1210A,119.036,33.5981,淮安市,钵池山,,17,,11,11,14,54,,90,78,15,9,5,6,0.5,0.6
2025-09-02T2200,1211A,119.007,33.575,淮安市,北京南路,,,,15,14,13,,,95,89,10,10,6,7,0.5,0.5
2025-09-02T2200,1212A,118.989,33.6067,淮安市,市监测站,,20,,16,9,13,62,,93,80,17,16,9,9,0.4,0.5
2025-09-02T2200,1213A,119.135,33.5039,淮安市,楚州区监测站,,19,17,22,8,11,59,,94,84,9,7,7,7,0.6,0.6
2025-09-02T2200,3426A,118.8755,33.2894,淮安市,新华书店,,20,,13,7,13,63,,101,91,12,13,6,7,0.6,0.9
2025-09-02T2200,4206A,119.0288,33.6319,淮安市,承德北路606号,,20,14,22,10,11,62,,93,82,10,10,6,6,0.3,0.4
2025-09-02T2200,2282A,116.8004,33.975,淮北市,监测站,,31,24,28,3,15,98,,126,113,7,11,7,7,0.9,0.9
2025-09-02T2200,2283A,116.8091,33.9007,淮北市,烈山区政府,,32,23,25,3,8,100,,131,116,5,7,8,8,0.4,0.5
2025-09-02T2200,3330A,116.8873,33.9836,淮北市,杜集区检察院,,31,14,29,6,16,97,,124,112,2,7,8,8,0.5,0.6
2025-09-02T2200,4017A,116.7923,33.9535,淮北市,市博物馆,,33,13,26,3,14,104,,130,118,6,9,6,7,0.4,0.5
2025-09-02T2200,2277A,116.8305,32.7727,淮南市,潘集区政府,,23,23,19,7,13,69,,106,91,12,10,6,5,0.3,0.3
2025-09-02T2200,2279A,116.8569,32.5951,淮南市,谢家集区政府,,20,15,18,11,13,62,,117,105,9,6,7,7,0.3,0.3
2025-09-02T2200,2280A,116.8281,32.633,淮南市,八公山区政府,,34,34,24,13,14,50,,114,93,12,8,6,7,0.3,0.3
2025-09-02T2200,2281A,116.6325,32.6201,淮南市,焦岗湖风景区管理处,,,,,,,,,,,,,,,,
2025-09-02T2200,2894A,117.0566,32.6531,淮南市,经济技术开发区消防队,,23,23,18,3,5,51,,106,91,28,12,10,9,0.3,0.3
2025-09-02T2200,3329A,117.0108,32.5893,淮南市,山南新区,,23,9,13,3,5,71,,114,107,16,7,6,5,0.5,0.5
2025-09-02T2200,4209A,117.0031,32.6445,淮南市,国庆中路369号,,38,28,26,26,19,64,,123,108,22,9,7,6,0.5,0.5
2025-09-02T2200,2446A,114.9028,30.4742,黄冈市,职工中心,,33,30,28,23,21,100,,149,144,17,11,5,10,0.5,0.7
2025-09-02T2200,2929A,114.8858,30.4519,黄冈市,红卫路,,30,28,33,21,23,94,,164,153,22,16,8,9,0.6,0.6
2025-09-02T2200,3398A,114.9136,30.4445,黄冈市,市林业局,,39,29,35,27,24,98,,160,150,17,15,5,8,0.5,0.5
2025-09-02T2200,2672A,102.0199,35.5102,黄南藏族自治州,同仁县隆务镇,,27,27,22,14,8,70,,102,95,1,6,9,9,0.3,0.4
2025-09-02T2200,2295A,118.2903,29.6963,黄山市,延安路89号,,22,22,20,11,7,68,,76,73,2,5,4,4,0.2,0.2
2025-09-02T2200,2297A,118.1371,30.2756,黄山市,黄山区政府5号楼,,18,,18,12,8,16,,64,45,3,4,4,4,0.5,0.4
2025-09-02T2200,4210A,118.3354,29.7203,黄山市,滨江东路7-2号,,18,15,21,3,6,56,,72,69,4,5,2,2,0.3,0.3
2025-09-02T2200,2423A,115.0601,30.2313,黄石市,沈家营,颗粒物(PM10),52,54,57,22,20,51,,152,136,62,13,7,8,0.5,0.5
2025-09-02T2200,2426A,114.8988,30.2019,黄石市,铁山,颗粒物(PM10),52,54,41,12,17,123,,153,148,19,12,4,10,0.3,0.4
2025-09-02T2200,2427A,115.0307,30.2092,黄石市,团城山,,42,42,47,18,13,121,,148,145,10,10,7,7,0.3,0.6
2025-09-02T2200,3149A,115.0235,30.1578,黄石市,笔架山北路,,37,32,29,16,11,116,,146,144,11,6,5,6,0.5,0.5
2025-09-02T2200,4185A,115.0780,30.21118,黄石市,磁湖东路29号,颗粒物(PM10),58,65,66,23,21,100,,147,139,26,19,7,8,0.7,0.7
2025-09-02T2200,1392A,114.4183,23.0528,惠州市,河南岸金山湖子站,,20,20,15,3,6,22,,66,42,17,11,8,8,0.4,0.4
2025-09-02T2200,1393A,114.4053,23.0822,惠州市,下埔横江三路子站,,23,23,14,12,7,24,,73,46,16,8,6,6,0.4,0.4
2025-09-02T2200,1394A,114.4103,23.1142,惠州市,江北云山西路子站,,29,29,17,12,8,24,,83,53,20,10,8,9,0.5,0.5
2025-09-02T2200,1395A,114.4645,22.7833,惠州市,惠阳区承修路船湖子站,,13,13,12,3,6,39,,49,40,11,9,7,8,0.4,0.4
2025-09-02T2200,1396A,114.5317,22.7422,惠州市,大亚湾管委会子站,,15,10,13,3,7,46,,49,48,8,7,8,8,0.5,0.5
2025-09-02T2200,3314A,114.4338,22.8134,惠州市,惠阳秋长,,,,15,,4,,,55,35,,10,,9,,0.5
2025-09-02T2200,3452A,114.6517,22.775,惠州市,大亚湾霞涌,,13,12,13,8,5,41,,61,59,11,6,6,6,0.5,0.6
2025-09-02T2200,2240A,130.9762,45.3001,鸡西市,环保局,,48,48,31,26,14,21,,76,47,32,21,8,6,0.8,0.7
2025-09-02T2200,2243A,130.9429,45.3039,鸡西市,第一中学,,23,23,23,12,10,36,,74,56,16,14,9,9,0.6,0.7
2025-09-02T2200,3707A,131.0207,45.3073,鸡西市,欧美日汽修厂,颗粒物(PM10),54,58,34,19,16,8,,78,44,25,18,8,8,0.8,0.7
2025-09-02T2200,3709A,130.9967,45.3106,鸡西市,市政设施管理处,颗粒物(PM10),58,66,36,23,12,4,,83,45,38,24,8,8,0.7,0.6
2025-09-02T2200,2367A,114.9754,27.0803,吉安市,红声器材厂,,21,21,28,8,13,57,,93,75,8,8,7,8,0.5,0.4
2025-09-02T2200,2368A,114.9658,27.0999,吉安市,市森林工业局,,18,18,25,12,12,54,,92,76,6,7,8,8,0.6,0.6
2025-09-02T2200,2369A,114.99,27.1312,吉安市,市环境监测站,,21,17,22,6,10,66,,98,80,3,6,12,12,0.5,0.6
2025-09-02T2200,2370A,115.0093,27.0968,吉安市,青原区法院,,21,15,26,6,13,67,,94,80,5,9,8,8,0.5,0.4
2025-09-02T2200,1772A,126.54,43.8622,吉林市,哈达湾,,37,37,26,19,16,36,,89,65,28,14,8,7,0.4,0.3
2025-09-02T2200,1773A,126.5844,43.8358,吉林市,东局子,,42,42,34,16,19,39,,88,62,22,16,6,6,0.7,0.6
2025-09-02T2200,1774A,126.5052,43.8245,吉林市,电力学院,颗粒物(PM10),70,89,32,48,18,9,,83,52,32,13,7,6,0.8,0.6
2025-09-02T2200,1775A,126.6133,43.8972,吉林市,江北,,32,32,27,21,16,42,,88,62,14,13,6,5,0.7,0.6
2025-09-02T2200,1776A,126.555,43.8306,吉林市,江南公园,,36,36,27,18,14,39,,86,65,13,10,2,2,0.5,0.4
2025-09-02T2200,1778A,126.7061,43.7133,吉林市,丰满,,17,14,15,7,12,53,,109,78,4,4,6,5,0.5,0.5
2025-09-02T2200,2868A,126.4739,43.953,吉林市,九站,,25,24,28,17,16,46,,90,65,17,19,5,7,0.5,0.5
2025-09-02T2200,1299A,116.9862,36.6114,济南市,科干所,,49,44,32,34,19,137,,186,172,14,17,8,7,0.7,0.6
2025-09-02T2200,1300A,116.9376,36.665,济南市,农科所,颗粒物(PM10),52,54,35,34,18,95,,182,157,34,23,9,9,0.6,0.5
2025-09-02T2200,1301A,117.1265,36.6734,济南市,开发区,颗粒物(PM10),52,54,34,32,21,112,,192,173,28,20,9,9,0.8,0.7
2025-09-02T2200,1303A,117.0624,36.6868,济南市,省种子仓库,,,53,41,27,17,,,196,192,23,24,7,6,0.7,0.7
2025-09-02T2200,1304A,116.9489,36.6447,济南市,机床二厂,颗粒物(PM10),53,56,43,27,18,122,,189,173,30,24,11,11,0.7,0.6
2025-09-02T2200,1305A,117.0495,36.663,济南市,市监测站,颗粒物(PM10),51,51,36,32,19,120,,183,166,27,23,11,11,0.9,0.8
2025-09-02T2200,1306A,116.7675,36.5484,济南市,长清党校,,46,46,28,27,15,88,,178,162,37,20,7,7,0.8,0.7
2025-09-02T2200,1616A,117.6795,36.229,济南市,技术学院,,28,24,22,19,15,76,,152,119,30,21,10,11,0.8,0.8
2025-09-02T2200,1961A,117.532,36.6868,济南市,东山小学,,30,29,33,15,16,94,,184,159,23,21,7,7,0.4,0.5
2025-09-02T2200,3059A,117.7161,36.2049,济南市,泰兴公司,,29,29,29,19,16,61,,150,119,30,27,11,12,0.6,0.6
2025-09-02T2200,3064A,117.6867,36.2171,济南市,莱芜战役纪念馆,,32,24,29,22,19,82,,148,119,23,22,7,7,0.8,0.8
2025-09-02T2200,3494A,117.1673,36.9782,济南市,济阳区政府,臭氧1小时,54,49,45,24,20,163,,181,173,12,18,10,9,0.5,0.5
2025-09-02T2200,3495A,117.1171,36.63,济南市,锦屏中学,,44,44,29,22,13,79,,184,152,25,16,10,10,0.9,0.8
2025-09-02T2200,3682A,116.9814,36.6819,济南市,济南四建,颗粒物(PM10),54,58,39,29,21,109,,193,173,35,26,7,7,0.8,0.8
2025-09-02T2200,1653A,116.6251,35.4302,济宁市,火炬城,,41,41,39,19,18,91,,157,134,22,18,5,5,0.4,0.3
2025-09-02T2200,1655A,116.5491,35.4042,济宁市,电化厂,,40,40,42,22,20,127,,163,151,15,20,2,3,0.9,0.8
2025-09-02T2200,3500A,116.5814,35.3707,济宁市,北湖一中,,39,39,34,19,20,102,,154,139,14,12,5,7,0.5,0.5
2025-09-02T2200,3501A,116.8249,35.5593,济宁市,服务中心,,34,34,36,20,10,98,,142,124,17,25,4,4,0.3,0.3
2025-09-02T2200,3678A,116.5907,35.4054,济宁市,市第七中学,,47,47,39,14,14,111,,156,141,15,16,5,6,0.5,0.5
2025-09-02T2200,2255A,130.2751,46.8028,佳木斯市,佳纺,,24,24,25,11,11,35,,63,36,12,14,10,11,0.5,0.5
2025-09-02T2200,2256A,130.3995,46.8307,佳木斯市,发电厂,,29,29,26,14,12,29,,67,46,14,12,7,7,0.6,0.6
2025-09-02T2200,2257A,130.3258,46.7975,佳木斯市,环保局,,26,26,19,12,11,27,,69,37,27,17,9,8,0.6,0.5
2025-09-02T2200,2258A,130.3648,46.8032,佳木斯市,十一中,,32,32,24,20,11,33,,68,41,24,18,10,8,0.8,0.6
2025-09-02T2200,2259A,130.3794,46.7588,佳木斯市,四丰,,15,,8,10,3,3,,2,2,16,10,1,1,0.4,0.4
2025-09-02T2200,1252A,120.7436,30.778,嘉兴市,清河小学,,24,24,37,14,20,37,,110,62,28,26,5,6,1.0,0.9
2025-09-02T2200,1253A,120.726,30.7478,嘉兴市,嘉兴学院,,30,29,35,21,24,28,,135,64,42,30,4,4,0.5,0.7
2025-09-02T2200,2872A,120.7846,30.7525,嘉兴市,南湖区残联,,26,18,33,18,25,51,,122,76,22,25,6,6,0.7,0.7
2025-09-02T2200,3407A,120.6916,30.7739,嘉兴市,秀洲住建,,24,24,33,16,23,36,,126,63,31,30,6,6,0.8,0.8
2025-09-02T2200,1945A,98.2908,39.7711,嘉峪关市,气象局,颗粒物(PM10),137,224,232,51,43,75,,115,105,24,11,20,8,0.4,0.2
2025-09-02T2200,2884A,98.2672,39.7978,嘉峪关市,酒钢宾馆,颗粒物(PM10),151,251,245,61,63,82,,123,114,28,11,39,22,0.4,0.5
2025-09-02T2200,3248A,98.2643,39.7724,嘉峪关市,雄关区,颗粒物(PM10),112,174,178,38,41,69,,108,99,26,13,16,14,0.6,0.5
2025-09-02T2200,1383A,113.1064,22.6058,江门市,北街,,16,16,18,6,9,30,,87,58,12,9,4,3,0.3,0.3
2025-09-02T2200,1384A,113.0731,22.5835,江门市,西区,,47,47,20,3,9,32,,90,62,11,13,8,8,0.4,0.4
2025-09-02T2200,1385A,113.0219,22.5311,江门市,圭峰西,,13,13,17,8,9,33,,82,60,11,11,4,3,0.5,0.4
2025-09-02T2200,1386A,113.0828,22.5947,江门市,东湖,,21,21,21,8,8,26,,77,54,13,11,5,5,0.5,0.4
2025-09-02T2200,3311A,113.1075,22.5647,江门市,江海富民,,33,33,32,8,10,27,,88,61,13,11,4,4,0.3,0.2
2025-09-02T2200,3449A,113.05,22.4667,江门市,新会银湖,,10,9,17,7,9,18,,71,47,14,12,2,2,0.3,0.3
2025-09-02T2200,1830A,113.1992,35.2590,焦作市,影视城,,,,27,,16,,,124,,,5,,9,,0.5
2025-09-02T2200,3335A,113.3137,35.2641,焦作市,马村街道办,,34,34,40,15,20,97,,137,126,23,12,1,2,0.7,0.5
2025-09-02T2200,3336A,113.2465,35.2373,焦作市,焦作技师学院,,39,39,40,9,16,111,,135,128,14,12,7,6,0.5,0.6
2025-09-02T2200,3477A,113.1656,35.2539,焦作市,中站许衡医院,,43,43,35,22,26,126,,140,135,12,9,6,6,0.4,0.5
2025-09-02T2200,3981A,113.2449,35.1803,焦作市,原李万街道办,,,77,50,,18,111,,139,131,14,12,10,12,0.4,0.5
2025-09-02T2200,4264A,113.2340,35.2190,焦作市,新安路1731号,,41,41,42,20,24,108,,138,131,12,9,5,5,0.7,0.7
2025-09-02T2200,4295A,113.2722,35.2121,焦作市,人民路3066号,颗粒物(PM10),61,72,51,18,24,98,,136,127,12,10,3,4,0.3,0.4
2025-09-02T2200,1708A,116.3701,23.5345,揭阳市,新兴,,,55,39,28,21,,,87,76,32,14,7,7,0.8,0.5
2025-09-02T2200,1709A,116.3264,23.5443,揭阳市,西马,,37,37,39,18,23,38,,93,63,23,15,5,5,0.7,0.5
2025-09-02T2200,1710A,116.3611,23.5626,揭阳市,东兴,,30,30,37,17,17,38,,86,61,21,15,6,8,0.8,0.7
2025-09-02T2200,1711A,116.4151,23.5294,揭阳市,渔湖,细颗粒物(PM2.5),59,54,46,42,20,13,,97,61,39,16,15,13,1.1,0.8
2025-09-02T2200,3320A,116.403,23.5699,揭阳市,曲溪,,30,26,35,21,22,35,,104,74,23,12,2,4,0.7,0.6
2025-09-02T2200,1944A,102.1692,38.5167,金昌市,天庆家园,颗粒物(PM10),153,256,215,66,48,,,89,88,28,8,6,11,0.7,0.5
2025-09-02T2200,4022A,102.1647,38.5371,金昌市,金川区人防中心,颗粒物(PM10),153,255,232,57,49,72,,91,89,13,7,20,14,0.5,0.5
2025-09-02T2200,4239A,102.1930,38.5319,金昌市,长春路96号,颗粒物(PM10),149,247,237,47,43,84,,102,100,13,6,27,14,0.7,0.6
2025-09-02T2200,1262A,119.647,29.077,金华市,十五中,,,25,29,11,15,58,,116,83,,18,,4,0.6,0.5
2025-09-02T2200,1263A,119.686,29.1029,金华市,监测站,,41,41,34,17,16,42,,110,78,28,22,4,5,0.6,0.5
2025-09-02T2200,3659A,119.656,29.1131,金华市,气象局,,23,23,27,12,13,55,,117,81,24,21,2,2,0.5,0.5
2025-09-02T2200,1767A,121.1115,41.0879,锦州市,南山,细颗粒物(PM2.5),65,56,49,47,35,82,,134,120,25,15,7,5,1.1,1
2025-09-02T2200,1768A,121.0604,40.8428,锦州市,开发区,颗粒物(PM10),59,68,62,32,36,101,,148,136,38,34,19,6,1.5,1.3
2025-09-02T2200,1769A,121.1836,41.1119,锦州市,百股街道,细颗粒物(PM2.5),58,44,47,41,33,106,,148,134,13,12,8,6,1.2,1.1
2025-09-02T2200,1770A,121.1178,41.1222,锦州市,天安街道,细颗粒物(PM2.5),70,72,60,51,44,111,,160,143,22,20,16,9,1.7,1.3
2025-09-02T2200,1771A,121.1303,41.1386,锦州市,北湖公园,,,74,57,51,35,,,136,131,16,15,12,7,1.5,1.3
2025-09-02T2200,2160A,112.85,35.5051,晋城市,自来水公司,,45,33,36,14,20,142,,147,147,11,15,3,3,0.3,0.3
2025-09-02T2200,2161A,112.8318,35.4936,晋城市,白云商贸,,40,35,37,19,15,128,,134,133,10,14,4,3,0.4,0.4
2025-09-02T2200,2162A,112.8508,35.4887,晋城市,市环保局,,,27,31,14,18,76,,121,114,8,12,4,3,,0.9
2025-09-02T2200,2163A,112.8676,35.4897,晋城市,技术学院,,36,27,32,14,15,113,,117,117,9,14,5,4,0.7,0.8
2025-09-02T2200,2165A,112.8453,35.546,晋城市,白马寺,,43,,23,25,23,136,,138,138,6,5,8,7,0.5,0.6
2025-09-02T2200,3620A,112.8271,35.4828,晋城市,泽州一中,,,38,37,22,16,,,141,141,11,12,2,2,0.8,0.8
2025-09-02T2200,2173A,112.7249,37.7067,晋中市,南都小区,,38,36,44,21,27,119,,141,136,14,14,6,6,0.6,0.7
2025-09-02T2200,2174A,112.6991,37.6982,晋中市,榆次区政府,,,39,43,20,23,112,,134,125,17,14,7,6,,0.7
2025-09-02T2200,2865A,112.7195,37.6828,晋中市,榆次三中,,37,34,38,17,18,116,,143,134,15,12,8,7,0.5,0.5
2025-09-02T2200,4200A,112.7478,37.6954,晋中市,迎宾街26号,,40,34,33,19,18,128,,145,140,9,11,9,9,0.6,0.7
2025-09-02T2200,2439A,112.2014,31.0481,荆门市,竹园小学,,41,41,34,22,18,114,,121,113,9,15,2,2,0.5,0.5
2025-09-02T2200,2440A,112.1969,30.9891,荆门市,掇刀,,50,50,33,22,18,126,,124,122,8,10,1,1,0.5,0.6
2025-09-02T2200,2441A,112.2213,31.0386,荆门市,石化一小,,48,48,36,18,20,105,,122,115,14,20,7,7,0.5,0.5
2025-09-02T2200,3012A,112.1849,31.0362,荆门市,西山林语,,41,41,27,24,17,98,,122,107,9,9,3,2,0.4,0.7
2025-09-02T2200,3547A,112.1632,31.0138,荆门市,龙泉中学南校,,46,36,31,32,18,76,,129,106,18,16,2,2,0.8,0.8
2025-09-02T2200,1844A,112.2494,30.3197,荆州市,市图书馆,,35,,26,24,17,68,,114,89,14,14,3,4,0.5,0.5
2025-09-02T2200,1845A,112.2008,30.3544,荆州市,市委党校,,32,32,28,12,16,56,,116,90,21,11,5,6,0.6,0.7
2025-09-02T2200,3194A,112.2747,30.3122,荆州市,管委会,,28,28,26,12,19,56,,106,85,19,13,1,2,0.6,0.6
2025-09-02T2200,4268A,112.1722,30.3366,荆州市,学苑路85号,,40,40,27,24,24,42,,118,86,19,13,6,6,0.4,0.4
2025-09-02T2200,2342A,117.3102,29.3867,景德镇市,王港中学,,,,,,,,,,,,,,,,
2025-09-02T2200,2343A,117.2117,29.2933,景德镇市,老干部活动中心,,29,29,24,20,17,60,,98,83,14,14,8,11,0.7,0.7
2025-09-02T2200,2344A,117.1894,29.2789,景德镇市,兽医站,,37,37,33,20,16,41,,97,73,22,16,8,10,0.8,0.8
2025-09-02T2200,2346A,117.2461,29.2956,景德镇市,陶研所,,25,25,26,16,17,43,,96,76,6,9,6,8,0.6,0.8
2025-09-02T2200,4289A,117.1542,29.2566,景德镇市,青少年活动中心,颗粒物(PM10),61,72,31,23,17,20,,92,68,56,16,59,14,0.7,0.6
2025-09-02T2200,1803A,115.9872,29.6815,九江市,十里,,46,33,23,32,20,54,,121,104,27,20,4,5,0.4,0.4
2025-09-02T2200,1804A,115.9584,29.7046,九江市,茅山头,细颗粒物(PM2.5),60,57,26,43,17,40,,116,105,32,14,4,4,0.7,0.5
2025-09-02T2200,1805A,115.9877,29.7295,九江市,西园,细颗粒物(PM2.5),68,63,24,49,14,75,,120,110,38,28,6,6,1.0,0.8
2025-09-02T2200,1808A,115.9114,29.6038,九江市,综合工业园,,29,29,26,14,11,60,,112,95,20,21,7,6,1.2,0.7
2025-09-02T2200,1809A,116.0721,29.7535,九江市,石化总厂,,46,46,31,16,22,76,,125,108,29,31,6,6,0.6,0.6
2025-09-02T2200,1810A,115.9773,29.5698,九江市,庐山气象台,,,,,,,,,,,,,,,,
2025-09-02T2200,3190A,116.0254,29.6994,九江市,外国语学校,,49,42,19,34,15,63,,117,98,26,23,4,4,0.6,0.6
2025-09-02T2200,4253A,116.0102,29.6594,九江市,莲花大道8号,,37,37,22,15,14,44,,101,81,24,11,5,5,0.6,0.5
2025-09-02T2200,4240A,98.4958,39.7339,酒泉市,玉门东路5号,颗粒物(PM10),163,276,213,72,51,70,,104,97,24,11,12,19,0.6,0.3
2025-09-02T2200,4241A,98.5099,39.7506,酒泉市,北大街108号,颗粒物(PM10),164,278,209,58,42,63,,102,93,24,9,278,30,0.5,0.3
2025-09-02T2200,2698A,76.0072,39.4467,喀什地区,巡警大队,颗粒物(PM10),500,1091,784,461,303,52,,87,82,28,22,3,3,0.4,0.2
2025-09-02T2200,2699A,75.9755,39.4694,喀什地区,吾办,颗粒物(PM10),500,1158,798,385,251,45,,79,74,37,23,3,4,0.5,0.3
2025-09-02T2200,4027A,75.9483,39.4689,喀什地区,老干局,颗粒物(PM10),500,968,686,324,223,43,,80,74,28,20,4,5,0.3,0.3
2025-09-02T2200,1824A,114.3389,34.7781,开封市,肿瘤医院,,50,50,40,25,20,114,,146,133,17,21,5,4,0.7,0.7
2025-09-02T2200,1826A,114.2885,34.7965,开封市,世纪星幼儿园,细颗粒物(PM2.5),55,56,37,39,27,112,,143,131,17,16,7,6,0.9,0.9
2025-09-02T2200,3147A,114.3438,34.8106,开封市,龙亭公园,,45,45,38,17,17,104,,138,124,18,14,5,6,0.6,0.6
2025-09-02T2200,3210A,114.3644,34.7964,开封市,汴京公园,颗粒物(PM10),58,65,44,32,24,99,,148,127,19,14,4,5,0.4,0.5
2025-09-02T2200,3473A,114.2485,34.8306,开封市,技师学院,细颗粒物(PM2.5),52,,35,36,24,99,,137,120,17,16,6,7,0.9,0.9
2025-09-02T2200,3592A,114.4644,34.7556,开封市,祥符区生态环境局,颗粒物(PM10),53,55,35,30,24,84,,128,109,29,20,3,3,0.8,0.7
2025-09-02T2200,1951A,84.895,45.6094,克拉玛依市,长征新村,,34,34,27,15,14,82,,88,84,1,7,3,4,0.2,0.2
2025-09-02T2200,1952A,84.8988,45.5893,克拉玛依市,南林小区,,27,20,26,3,10,86,,89,87,2,10,6,7,0.1,0.1
2025-09-02T2200,1954A,84.905,44.3396,克拉玛依市,独山子区,,44,44,50,16,15,58,,93,90,30,18,7,12,0.5,0.4
2025-09-02T2200,1955A,85.6979,46.098,克拉玛依市,乌尔禾区商贸楼,,27,25,17,3,7,84,,86,86,5,6,2,2,0.2,0.2
2025-09-02T2200,3612A,85.1045,45.6899,克拉玛依市,白碱滩区新站,,47,47,40,9,11,95,,91,91,2,5,9,10,0.3,0.3
2025-09-02T2200,2697A,76.1454,39.7142,克孜勒苏柯尔克孜自治州,市人民政府,颗粒物(PM10),500,1101,730,386,259,40,,78,73,38,16,5,16,0.3,0.2
2025-09-02T2200,3665A,76.1658,39.7157,克孜勒苏柯尔克孜自治州,克州文化中心,颗粒物(PM10),500,1109,782,395,257,59,,84,80,22,11,7,13,0.2,0.2
2025-09-02T2200,1450A,102.8204,24.8886,昆明市,呈贡新区,,26,19,23,18,16,16,,65,53,31,19,6,6,0.5,0.5
2025-09-02T2200,1451A,102.6251,24.9608,昆明市,西山森林公园,,,,,,,,,,,,,,,,
2025-09-02T2200,1452A,102.7252,25.0902,昆明市,龙泉镇,,28,28,29,11,13,17,,67,54,28,21,2,2,0.4,0.4
2025-09-02T2200,1453A,102.7266,25.0375,昆明市,东风东路,,16,15,27,11,17,35,,71,59,16,19,5,6,0.3,0.4
2025-09-02T2200,1454A,102.6742,25.0669,昆明市,金鼎山,,30,30,38,10,15,32,,61,52,16,20,2,3,0.3,0.4
2025-09-02T2200,1455A,102.6644,25.0401,昆明市,碧鸡广场,,34,34,30,13,14,16,,59,46,30,23,9,11,0.4,0.5
2025-09-02T2200,3179A,102.7494,25.0119,昆明市,官渡区博物馆,,,,,,,,,,,,,,,,
2025-09-02T2200,3375A,102.8017,24.8336,昆明市,青年创业园,,20,20,21,12,13,8,,62,51,32,14,2,2,0.5,0.5
2025-09-02T2200,3550A,102.7997,24.9786,昆明市,昆明学院,,31,31,30,14,17,27,,67,56,21,20,8,9,0.3,0.4
2025-09-02T2200,3551A,102.5967,24.6736,昆明市,晋宁区生态环境分局,,20,20,23,9,13,34,,55,49,11,12,3,4,0.5,0.5
2025-09-02T2200,3552A,102.6678,24.9856,昆明市,云天化总部,,13,13,21,7,12,30,,63,52,13,21,4,8,0.4,0.5
2025-09-02T2200,1456A,91.1319,29.6514,拉萨市,八廓街,,17,17,10,9,7,51,,71,66,25,14,13,9,0.8,0.5
2025-09-02T2200,1457A,91.1221,29.6747,拉萨市,市环保局,,15,14,11,10,8,42,,72,66,13,9,8,7,0.3,0.2
2025-09-02T2200,1458A,91.0874,29.6475,拉萨市,区监测站,,19,10,8,7,5,59,,68,65,15,11,4,4,0.2,0.2
2025-09-02T2200,1459A,91.1774,29.6541,拉萨市,西藏大学,,15,15,9,7,6,40,,69,64,26,11,8,7,0.4,0.3
2025-09-02T2200,1460A,90.9798,29.6588,拉萨市,区辐射站,,16,12,11,11,7,47,,59,58,19,13,5,5,0.4,0.3
2025-09-02T2200,1461A,91.0834,29.6292,拉萨市,拉萨火车站,,20,8,6,6,6,62,,65,65,5,6,6,5,0.4,0.4
2025-09-02T2200,2520A,109.2203,23.7256,来宾市,来宾技工学校,,29,29,26,18,14,39,,68,64,21,11,9,12,0.6,0.6
2025-09-02T2200,3535A,109.1781,23.7297,来宾市,兴宾区政府,,,,19,15,13,36,,72,66,11,6,6,7,0.5,0.4
2025-09-02T2200,4002A,109.2416,23.7461,来宾市,中南小学,,42,,24,29,18,24,,74,67,31,10,24,11,0.5,0.4
2025-09-02T2200,1477A,104.1373,35.9454,兰州市,榆中兰大校区,,,,,,,,,,,,,,,,
2025-09-02T2200,1479A,103.831,36.0464,兰州市,铁路设计院,,,123,79,47,35,,,96,84,77,27,10,9,0.9,0.6
2025-09-02T2200,3241A,103.7439,36.0842,兰州市,百合公园,颗粒物(PM10),83,115,67,36,26,31,,102,89,44,11,4,3,0.5,0.3
2025-09-02T2200,3242A,103.9611,35.998,兰州市,和平,颗粒物(PM10),86,121,80,40,34,47,,104,88,14,7,7,8,0.3,0.4
2025-09-02T2200,4236A,103.6293,36.0938,兰州市,庄浪东路808号,颗粒物(PM10),81,112,76,38,30,26,,96,76,58,25,12,12,0.4,0.3
2025-09-02T2200,4237A,103.7251,36.1043,兰州市,安宁西路88号,颗粒物(PM10),82,114,73,48,36,60,,114,106,26,8,4,3,0.4,0.2
2025-09-02T2200,4238A,103.8470,36.0676,兰州市,北滨河东路1号,颗粒物(PM10),83,115,65,40,31,39,,107,92,44,18,10,8,0.6,0.4
2025-09-02T2200,3245A,103.6633,36.533,兰州新区,新区管委会,颗粒物(PM10),66,82,57,34,29,68,,121,115,25,7,8,8,0.4,0.1
2025-09-02T2200,3246A,103.6975,36.4789,兰州新区,舟曲中学,颗粒物(PM10),61,72,69,28,26,99,,116,115,13,9,6,10,0.3,0.3
2025-09-02T2200,1067A,116.6708,39.5111,廊坊市,药材公司,颗粒物(PM10),52,54,55,30,33,82,,145,125,15,13,4,4,0.5,0.5
2025-09-02T2200,1068A,116.7214,39.5589,廊坊市,开发区,,47,47,51,30,31,55,,149,125,16,12,1,2,0.5,0.5
2025-09-02T2200,1070A,116.7244,39.5269,廊坊市,北华航天学院,颗粒物(PM10),51,52,50,25,35,115,,156,146,9,11,4,4,0.5,0.6
2025-09-02T2200,2919A,116.7022,39.5453,廊坊市,河北工业大学,,45,45,48,28,30,110,,158,148,16,12,2,3,0.5,0.5
2025-09-02T2200,2535A,103.7723,29.5462,乐山市,花湖湾,细颗粒物(PM2.5),68,59,41,49,29,96,,110,110,14,14,8,8,0.5,0.5
2025-09-02T2200,2536A,103.7627,29.5844,乐山市,牛耳桥,细颗粒物(PM2.5),59,56,44,42,31,90,,109,108,21,19,5,6,0.8,0.8
2025-09-02T2200,2537A,103.7508,29.6006,乐山市,市第三水厂,细颗粒物(PM2.5),65,58,47,47,34,86,,105,104,19,21,4,4,0.7,0.8
2025-09-02T2200,2538A,103.7571,29.5664,乐山市,市监测站,细颗粒物(PM2.5),69,68,46,50,30,87,,100,100,12,15,6,7,0.9,0.9
2025-09-02T2200,3361A,103.7311,29.5628,乐山市,理工大学,细颗粒物(PM2.5),84,85,48,62,31,81,,104,101,14,15,8,9,0.9,0.9
2025-09-02T2200,2598A,100.2143,26.8576,丽江市,西南郊,,14,6,10,3,5,43,,60,55,12,7,6,6,0.6,0.5
2025-09-02T2200,2599A,100.2497,26.8802,丽江市,丽江古城,,23,23,18,10,8,46,,59,55,12,11,9,10,0.6,0.5
2025-09-02T2200,2600A,100.2203,26.8906,丽江市,市中心,,15,11,11,8,8,47,,56,53,10,11,10,10,0.3,0.5
2025-09-02T2200,1267A,119.914,28.4514,丽水市,监测站大楼,,20,,25,8,8,63,,99,79,8,11,4,4,0.5,0.5
2025-09-02T2200,1268A,119.93,28.4586,丽水市,莲都小学,,21,12,20,8,10,65,,104,83,8,13,3,4,0.4,0.4
2025-09-02T2200,1269A,119.879,28.4231,丽水市,余庄前,,15,15,19,9,10,48,,90,62,9,9,4,4,0.5,0.6
2025-09-02T2200,1173A,119.176,34.5885,连云港市,市环境监测站,,32,7,13,3,4,101,,118,109,6,9,4,4,0.2,0.3
2025-09-02T2200,3000A,119.3581,34.6972,连云港市,德源药业,,,29,15,3,3,,,112,102,16,16,4,4,0.6,0.6
2025-09-02T2200,3007A,119.178,34.844,连云港市,新城一中,,32,20,21,3,9,102,,131,119,12,19,3,4,0.5,0.6
2025-09-02T2200,3008A,119.3608,34.7519,连云港市,胡沟管理处,,29,14,11,3,1,92,,127,102,18,15,4,11,0.7,0.8
2025-09-02T2200,3009A,119.1478,34.5911,连云港市,矿山设计院,,32,7,14,3,7,101,,105,100,6,10,5,6,0.6,0.7
2025-09-02T2200,3434A,119.2413,34.6539,连云港市,工贸学校,,30,10,10,6,5,96,,120,111,5,5,6,6,0.8,0.8
2025-09-02T2200,3664A,119.4172,34.7341,连云港市,连云街道,,35,7,8,3,4,109,,118,112,2,8,4,4,0.7,0.8
2025-09-02T2200,2571A,102.3431,27.8099,凉山彝族自治州,青龙寺,,22,22,15,9,7,37,,67,54,8,4,2,3,0.3,0.4
2025-09-02T2200,2572A,102.2721,27.8415,凉山彝族自治州,邛海宾馆,,30,30,23,18,14,31,,71,66,23,9,8,10,0.5,0.4
2025-09-02T2200,2573A,102.2625,27.898,凉山彝族自治州,西昌市政府,,29,29,22,3,8,78,,86,,8,9,9,10,0.6,0.5
2025-09-02T2200,2574A,102.2685,27.8851,凉山彝族自治州,凉山州政府,,,41,27,21,16,46,,68,65,,10,,11,0,0.6
2025-09-02T2200,4229A,102.2342,27.8859,凉山彝族自治州,凯乐南路30号,,35,30,25,24,14,44,,65,63,13,12,14,14,1.0,0.9
2025-09-02T2200,2212A,123.2,41.1953,辽阳市,宏伟区,,41,41,46,25,27,65,,121,103,15,13,3,3,1.0,1.2
2025-09-02T2200,2213A,123.1683,41.2495,辽阳市,新华园,颗粒物(PM10),68,85,68,40,36,39,,154,117,35,21,14,11,1.0,1.1
2025-09-02T2200,2214A,123.2354,41.2639,辽阳市,滨河路,,50,50,68,21,30,56,,127,82,19,21,4,5,0.7,1
2025-09-02T2200,2215A,123.149,41.2991,辽阳市,铁西工业园,细颗粒物(PM2.5),103,139,82,77,43,25,,139,98,30,23,3,3,1.5,1.4
2025-09-02T2200,2227A,125.1358,42.8845,辽源市,环保局,颗粒物(PM10),62,74,49,30,17,14,,99,57,27,14,8,8,0.7,0.6
2025-09-02T2200,3239A,125.0764,42.9078,辽源市,银鹰制药,,46,46,32,20,17,21,,97,56,39,21,10,10,0.6,0.6
2025-09-02T2200,1625A,115.9848,36.4372,聊城市,区政府,,47,47,26,29,17,104,,179,161,23,16,12,11,0.9,0.6
2025-09-02T2200,2878A,116.0072,36.4343,聊城市,聊大东校,,44,44,28,25,16,112,,182,162,23,17,10,11,0.6,0.4
2025-09-02T2200,3200A,115.9819,36.4978,聊城市,监控中心,颗粒物(PM10),60,69,36,22,14,43,,170,130,73,30,10,10,1.0,0.7
2025-09-02T2200,3513A,116.0445,36.4361,聊城市,九州社区,颗粒物(PM10),51,51,35,28,16,117,,170,153,19,16,6,6,0.5,0.4
2025-09-02T2200,4018A,116.0567,36.4608,聊城市,星美广场,颗粒物(PM10),52,54,37,28,19,96,,172,148,28,14,7,9,0.7,0.7
2025-09-02T2200,2632A,94.3681,29.6376,林芝市,林芝监测站,,12,10,6,8,4,19,,44,37,8,3,11,9,0.5,0.4
2025-09-02T2200,2633A,94.3616,29.6616,林芝市,林芝人民医院,,15,14,8,10,5,17,,41,33,7,5,4,4,0.4,0.3
2025-09-02T2200,2603A,100.0781,23.8982,临沧市,市环保局,,46,,16,32,14,25,,42,35,9,9,6,8,0.4,0.4
2025-09-02T2200,2604A,100.0894,23.8822,临沧市,市气象局,,29,,16,20,14,22,,36,32,10,8,9,8,0.4,0.5
2025-09-02T2200,1733A,111.5531,36.0783,临汾市,临钢医院,颗粒物(PM10),53,55,52,20,15,84,,132,122,16,18,3,4,0.8,0.8
2025-09-02T2200,1734A,111.5028,36.0714,临汾市,技工学校,,46,44,45,32,28,92,,131,119,12,12,5,5,0.8,0.8
2025-09-02T2200,1736A,111.5018,36.0855,临汾市,市委,颗粒物(PM10),51,51,55,16,17,98,,140,126,15,16,4,5,0.7,0.7
2025-09-02T2200,3018A,111.505,36.1014,临汾市,唐尧大酒店,颗粒物(PM10),56,62,57,19,16,92,,135,121,18,15,6,6,0.7,0.7
2025-09-02T2200,4244A,111.4879,36.0530,临汾市,启星学校,细颗粒物(PM2.5),52,46,42,36,28,89,,138,122,18,18,4,4,0.7,0.7
2025-09-02T2200,4271A,103.2464,35.6123,临夏回族自治州,滨河东路1号,颗粒物(PM10),51,52,46,29,21,23,,74,60,27,8,7,8,0.4,0.3
2025-09-02T2200,4310A,103.2093,35.5995,临夏回族自治州,新华街21号,,45,45,48,25,24,65,,84,81,9,6,5,6,0.2,0.2
2025-09-02T2200,1618A,118.3429,35.0532,临沂市,沂河小区,,32,31,36,18,24,102,,145,131,16,17,9,10,0.5,0.7
2025-09-02T2200,1619A,118.295,35.0583,临沂市,鲁南制药厂,,37,19,32,14,19,117,,156,142,13,13,9,10,0.6,0.8
2025-09-02T2200,1620A,118.2794,34.9976,临沂市,新光毛纺厂,,36,,26,15,22,115,,146,134,11,22,7,9,0.4,0.7
2025-09-02T2200,1621A,118.3956,35.0888,临沂市,河东保险公司,,30,27,36,11,17,96,,150,132,20,21,8,7,0.5,0.6
2025-09-02T2200,3370A,118.3564,35.0215,临沂市,十里堡居委,,35,27,32,14,25,109,,152,142,14,17,10,11,0.4,0.7
2025-09-02T2200,3496A,118.3604,35.1084,临沂市,南坊新区,,36,36,37,12,17,104,,154,138,22,18,9,10,0.7,0.7
2025-09-02T2200,3860A,118.3920,35.0300,临沂市,皇山花园小区,,30,27,41,11,25,94,,149,128,20,21,10,11,0.4,0.6
2025-09-02T2200,1870A,109.4856,24.3895,柳州市,柳东小学,,25,24,25,17,15,55,,84,80,14,11,6,5,0.3,0.3
2025-09-02T2200,1871A,109.4157,24.3277,柳州市,环保监测站,,20,20,24,14,14,50,,78,75,24,10,6,7,0.3,0.3
2025-09-02T2200,1872A,109.389,24.341,柳州市,河西水厂,颗粒物(PM10),62,73,32,19,14,74,,78,77,9,10,4,5,0.5,0.5
2025-09-02T2200,1873A,109.4311,24.2921,柳州市,市四中,,26,26,26,14,14,57,,79,76,17,13,7,7,0.9,0.9
2025-09-02T2200,1874A,109.4006,24.3631,柳州市,市九中,,37,37,34,6,15,65,,78,76,10,9,3,4,0.4,0.4
2025-09-02T2200,1875A,109.4958,24.3134,柳州市,古亭山,,27,27,25,13,13,32,,76,66,29,15,5,6,0.4,0.4
2025-09-02T2200,3402A,109.5422,24.3996,柳州市,市二中,,33,33,27,14,14,50,,83,79,16,14,6,8,0.5,0.6
2025-09-02T2200,2307A,116.5079,31.737,六安市,监测大楼,,22,16,17,15,14,46,,96,78,16,9,4,4,0.6,0.6
2025-09-02T2200,2308A,116.4738,31.7643,六安市,皖西学院,,32,32,18,15,11,52,,96,83,12,5,3,3,0.4,0.3
2025-09-02T2200,2309A,116.4996,31.7905,六安市,朝阳厂,,21,21,11,12,12,39,,90,76,26,12,7,6,0.4,0.4
2025-09-02T2200,2310A,116.5567,31.7886,六安市,开发区,,,,10,53,12,,,88,74,27,18,2,2,0.5,0.3
2025-09-02T2200,2576A,104.8,26.5892,六盘水市,窑上,,27,27,24,3,6,42,,82,74,3,4,5,6,0.3,0.3
2025-09-02T2200,2577A,104.83,26.5917,六盘水市,黄土坡,,22,16,17,6,9,70,,81,79,8,8,6,5,0.3,0.3
2025-09-02T2200,2578A,104.89,26.5939,六盘水市,水钢,,43,38,22,30,14,64,,80,79,7,5,6,6,0.2,0.2
2025-09-02T2200,2579A,104.8475,26.5894,六盘水市,民中,,,19,16,12,8,,,82,82,8,6,2,2,0.4,0.3
2025-09-02T2200,2580A,104.9544,26.5506,六盘水市,双水,,20,12,15,6,6,63,,75,74,7,6,3,3,0.1,0.1
2025-09-02T2200,2335A,117.0189,25.1181,龙岩市,龙岩师专,,,,,,,,,,,,,,,,
2025-09-02T2200,2336A,117.0217,25.1033,龙岩市,龙岩市监测站,,14,,21,3,14,44,,79,63,18,11,8,6,0.5,0.6
2025-09-02T2200,2337A,117.0258,25.0661,龙岩市,闽西职业技术学院,,13,10,22,6,14,41,,79,66,11,10,12,6,0.4,0.5
2025-09-02T2200,2338A,117.0196,25.0306,龙岩市,龙岩学院,,12,9,24,6,16,38,,77,64,5,9,4,6,0.5,0.5
2025-09-02T2200,2665A,105.0822,33.3261,陇南市,汉王镇固水子,,,,,,,,,,,,,,,,
2025-09-02T2200,2885A,104.9339,33.3826,陇南市,滨江中学,颗粒物(PM10),58,65,38,23,17,36,,81,53,14,11,8,8,0.8,0.7
2025-09-02T2200,3247A,104.955,33.371,陇南市,市总工会,颗粒物(PM10),51,52,39,14,10,50,,85,55,7,10,6,6,0.3,0.4
2025-09-02T2200,2487A,111.9589,27.8901,娄底市,电视发射台,颗粒物(PM10),68,86,56,22,23,86,,111,91,6,7,4,6,0.5,0.6
2025-09-02T2200,2488A,111.9975,27.725,娄底市,市监测站,,37,37,40,21,21,86,,100,92,6,18,6,7,0.4,0.9
2025-09-02T2200,2489A,112.0194,27.7314,娄底市,市委党校,,38,35,35,26,24,95,,105,100,6,13,5,8,0.7,0.9
2025-09-02T2200,2490A,111.9561,27.7569,娄底市,涟钢,,39,39,41,27,20,57,,92,73,20,15,4,6,1.2,1.3
2025-09-02T2200,2491A,111.9892,27.7044,娄底市,市政府,,33,33,31,19,24,95,,108,105,2,8,6,7,0.6,0.9
2025-09-02T2200,1893A,105.4324,28.9634,泸州市,九狮山,细颗粒物(PM2.5),93,86,67,69,42,97,,139,128,8,8,6,6,0.4,0.4
2025-09-02T2200,1894A,105.4427,28.9063,泸州市,小市上码头,细颗粒物(PM2.5),75,76,49,55,31,63,,90,81,10,8,6,5,0.7,0.7
2025-09-02T2200,1895A,105.4241,28.8573,泸州市,兰田宪桥,细颗粒物(PM2.5),72,89,51,52,33,108,,133,125,10,2,8,8,0.7,0.5
2025-09-02T2200,1896A,105.4379,28.8833,泸州市,市环监站,,,67,45,54,36,,,128,123,11,10,7,6,0.4,0.4
2025-09-02T2200,4272A,105.3689,28.7783,泸州市,纳溪中医医院,细颗粒物(PM2.5),85,72,48,63,35,98,,133,128,14,17,4,4,0.7,0.7
2025-09-02T2200,2183A,111.1406,37.5211,吕梁市,环保局,,46,45,62,32,26,36,,125,81,41,30,5,5,0.8,0.8
2025-09-02T2200,2185A,111.1297,37.5136,吕梁市,自来水公司,,48,48,77,18,23,39,,121,86,27,26,2,5,0.8,0.6
2025-09-02T2200,2867A,111.1283,37.51,吕梁市,马茂庄小学,颗粒物(PM10),52,54,75,29,24,34,,123,76,41,34,2,6,0.7,0.7
2025-09-02T2200,1812A,112.3931,34.6516,洛阳市,市委党校,,,37,41,19,22,,,133,127,18,19,9,8,0.5,0.5
2025-09-02T2200,1815A,112.494,34.6886,洛阳市,河南林校,,45,45,50,25,25,106,,142,131,24,22,9,8,0.5,0.5
2025-09-02T2200,1816A,112.3844,34.623,洛阳市,开发区管委会,,39,39,33,24,20,117,,148,139,12,11,6,5,0.6,0.5
2025-09-02T2200,1817A,112.4267,34.6258,洛阳市,市委新办公区,,43,43,35,27,24,100,,132,120,16,13,8,8,0.5,0.5
2025-09-02T2200,3340A,112.6005,34.6326,洛阳市,伊滨,,48,48,51,16,28,95,,129,117,23,23,8,9,0.6,0.6
2025-09-02T2200,3341A,112.4951,34.6332,洛阳市,中移产业园,,,45,46,32,31,,,131,125,23,23,9,9,0.7,0.8
2025-09-02T2200,3593A,112.5736,34.8993,洛阳市,吉利监测站,,41,41,50,19,26,108,,144,134,13,13,6,6,0.6,0.7
2025-09-02T2200,3635A,112.3677,34.662,洛阳市,河科大西苑校区,,40,40,42,16,19,112,,139,132,21,26,9,8,0.5,0.5
2025-09-02T2200,3636A,112.4388,34.6781,洛阳市,英才小学,,35,34,44,24,30,100,,136,126,24,19,9,8,0.7,0.7
2025-09-02T2200,4214A,112.4600,34.6949,洛阳市,春都路1号院,颗粒物(PM10),94,138,48,17,20,96,,132,123,12,11,9,9,0.7,0.8
2025-09-02T2200,2399A,114.051,33.5699,漯河市,三五一五工厂,,36,36,36,20,20,103,,147,129,12,14,6,6,0.7,0.5
2025-09-02T2200,2400A,114.0055,33.5698,漯河市,漯河大学,,36,25,29,17,19,115,,156,139,10,12,5,5,0.7,0.6
2025-09-02T2200,2401A,114.0138,33.5828,漯河市,市水利局,,35,34,35,19,20,110,,149,131,10,13,5,6,0.5,0.5
2025-09-02T2200,2402A,114.0261,33.5698,漯河市,市广电局,,37,34,31,20,20,117,,157,141,9,12,3,3,0.7,0.6
2025-09-02T2200,3478A,113.9749,33.5664,漯河市,市图书馆,,35,31,33,19,21,112,,150,135,11,15,5,5,0.5,0.5
2025-09-02T2200,4250A,114.0892,33.5882,漯河市,韶山路11号,,42,41,38,29,22,84,,148,119,21,18,4,4,0.7,0.6
2025-09-02T2200,1798A,118.5092,31.6837,马鞍山市,湖东路四小,,28,28,29,18,21,82,,127,115,13,11,7,6,0.6,0.7
2025-09-02T2200,1799A,118.5024,31.6449,马鞍山市,开发区,,37,37,27,18,16,51,,127,107,38,14,8,8,0.7,0.8
2025-09-02T2200,1802A,118.6245,31.7241,马鞍山市,濮塘,,25,25,22,14,16,74,,108,99,8,6,9,7,0.9,0.9
2025-09-02T2200,3633A,118.4918,31.6809,马鞍山市,雨山,,42,42,25,18,19,82,,124,112,14,14,9,7,0.5,0.7
2025-09-02T2200,4191A,118.5274,31.72227,马鞍山市,慈湖高新区,,34,34,28,19,18,66,,118,99,24,17,10,7,0.4,0.5
2025-09-02T2200,1686A,111.0286,21.4688,茂名市,电白南海,,19,19,18,7,10,9,,37,23,19,8,7,4,0.5,0.5
2025-09-02T2200,1687A,110.9294,21.6533,茂名市,茂石化七小,,,12,18,9,10,18,,41,28,10,9,,12,0.6,0.4
2025-09-02T2200,1688A,110.9107,21.6687,茂名市,健康路,,12,12,9,7,9,23,,46,29,9,9,6,7,0.6,0.6
2025-09-02T2200,1689A,110.8592,21.6828,茂名市,高岭,,27,27,22,3,3,22,,41,28,18,12,10,13,0.6,0.6
2025-09-02T2200,3450A,111.01,21.5165,茂名市,电白水东,,14,14,12,3,5,20,,38,28,14,11,10,7,0.6,0.5
2025-09-02T2200,2539A,104.0308,30.0478,眉山市,黑龙滩水库,细颗粒物(PM2.5),55,45,24,39,20,66,,115,108,24,10,3,3,0.5,0.5
2025-09-02T2200,2540A,103.8416,30.0874,眉山市,气象局,颗粒物(PM10),67,84,55,44,27,72,,121,109,24,21,7,8,0.4,0.3
2025-09-02T2200,3137A,103.8578,30.0744,眉山市,市委党校,颗粒物(PM10),56,61,40,39,22,63,,113,106,21,20,8,8,0.7,0.6
2025-09-02T2200,3148A,103.8291,30.0564,眉山市,区人社局,颗粒物(PM10),68,85,59,36,21,74,,115,105,24,23,13,14,0.8,0.8
2025-09-02T2200,1690A,116.1231,24.3284,梅州市,梅江月梅,,35,34,23,24,14,36,,91,76,18,11,8,8,0.6,0.5
2025-09-02T2200,1691A,116.0797,24.2719,梅州市,梅县新城,,22,22,24,3,14,36,,88,62,14,10,8,7,0.6,0.5
2025-09-02T2200,1692A,116.1248,24.2654,梅州市,环境监控中心,,23,23,22,11,16,32,,81,62,13,10,6,6,0.4,0.4
2025-09-02T2200,3315A,116.1233,24.2991,梅州市,梅龙,细颗粒物(PM2.5),70,,22,51,25,34,,83,71,9,8,8,8,0.7,0.7
2025-09-02T2200,1878A,104.7778,31.4741,绵阳市,富乐山,,19,15,28,13,19,48,,75,69,8,12,8,8,0.5,0.6
2025-09-02T2200,1880A,104.6697,31.4668,绵阳市,高新区自来水公司,,,16,34,7,16,35,,80,68,21,19,8,8,,0.7
2025-09-02T2200,1881A,104.7287,31.5075,绵阳市,三水厂,,23,23,30,14,21,45,,79,71,12,18,9,9,0.5,0.5
2025-09-02T2200,3491A,104.69,31.5322,绵阳市,西科大附属小学,,23,23,38,13,19,32,,85,72,25,21,8,8,1.1,1.1
2025-09-02T2200,3492A,104.5648,31.5343,绵阳市,安州区旅游局,,18,18,24,12,18,40,,81,72,14,13,8,9,0.5,0.6
2025-09-02T2200,4226A,104.7651,31.4531,绵阳市,绵阳市气象局,,17,17,31,10,19,42,,72,66,13,16,7,7,0.4,0.4
2025-09-02T2200,1784A,129.61,44.561,牡丹江市,环保大楼,,43,,25,30,15,10,,69,46,33,14,5,4,0.5,0.3
2025-09-02T2200,1785A,129.6115,44.5782,牡丹江市,文化广场,,43,43,23,28,22,11,,69,44,36,18,5,6,0.6,0.5
2025-09-02T2200,1786A,129.5904,44.5963,牡丹江市,第一医院,细颗粒物(PM2.5),57,49,26,40,20,18,,71,48,32,19,8,8,0.5,0.3
2025-09-02T2200,1787A,129.6364,44.6075,牡丹江市,机车工厂,,32,32,30,22,13,28,,67,46,16,13,8,7,0.5,0.4
2025-09-02T2200,1788A,129.6386,44.5462,牡丹江市,第一中学,,39,39,27,3,12,13,,70,37,21,14,6,6,0.3,0.2
2025-09-02T2200,2531A,105.0703,29.61,内江市,市监测站,,49,35,27,34,24,85,,119,110,11,10,7,7,0.7,0.8
2025-09-02T2200,2532A,105.0717,29.5947,内江市,东兴区政府,,42,34,24,29,17,86,,116,107,11,11,5,5,0.7,0.6
2025-09-02T2200,2533A,105.0653,29.5817,内江市,内江二中,细颗粒物(PM2.5),57,,27,40,26,80,,114,104,14,14,3,3,0.7,0.6
2025-09-02T2200,2534A,105.0406,29.5822,内江市,内江日报社,,48,39,30,33,25,89,,123,114,13,13,4,5,0.5,0.5
2025-09-02T2200,2628A,92.0657,31.4846,那曲市,那曲监测站,,26,23,16,18,9,58,,65,64,15,12,17,15,0.5,0.4
2025-09-02T2200,4243A,92.0515,31.4787,那曲市,那曲市委宣传部,,22,12,9,10,5,69,,75,74,9,7,5,3,0.5,0.4
2025-09-02T2200,1290A,115.8931,28.6843,南昌市,省外办,,45,38,37,31,28,90,,128,120,7,7,8,7,0.8,0.9
2025-09-02T2200,1291A,115.8886,28.7003,南昌市,省林业公司,,35,34,31,24,22,92,,133,125,6,9,5,6,0.7,0.7
2025-09-02T2200,1292A,115.8126,28.7442,南昌市,林科所,,39,39,28,27,16,60,,139,119,26,16,5,5,0.6,0.5
2025-09-02T2200,1294A,115.8518,28.687,南昌市,建工学校,,33,33,36,15,25,94,,126,119,16,19,7,9,0.8,0.8
2025-09-02T2200,1295A,115.8921,28.6424,南昌市,象湖,,35,35,27,19,16,87,,138,124,19,14,8,9,0.7,0.7
2025-09-02T2200,1296A,115.7423,28.7996,南昌市,武术学校,,36,36,19,13,10,12,,88,61,10,10,8,9,0.8,0.6
2025-09-02T2200,3046A,115.9084,28.6062,南昌市,机电学校,细颗粒物(PM2.5),52,50,35,36,20,64,,129,110,23,14,6,6,0.6,0.6
2025-09-02T2200,3690A,115.9721,28.7031,南昌市,外国语学校,,45,45,33,24,17,98,,151,140,12,11,7,8,0.7,0.7
2025-09-02T2200,4192A,115.9316,28.68677,南昌市,南京东路235号,,49,49,37,28,20,88,,137,126,16,14,11,11,0.9,1
2025-09-02T2200,1905A,106.056,30.8064,南充市,西山风景区,,,,,,,,,,,,,,,,
2025-09-02T2200,1906A,106.0789,30.8023,南充市,南充市委,,39,32,49,27,37,51,,108,92,9,12,4,4,0.5,0.5
2025-09-02T2200,1907A,106.1031,30.8217,南充市,南充炼油厂,,37,37,46,24,32,51,,107,93,6,8,6,6,0.2,0.2
2025-09-02T2200,4227A,106.1083,30.7884,南充市,梨树横街98号,,39,39,40,16,30,59,,126,109,7,9,4,4,0.3,0.3
2025-09-02T2200,4304A,106.1172,30.843,南充市,清泉寺北路188号,,38,38,45,26,30,55,,117,102,8,9,5,5,0.4,0.4
2025-09-02T2200,4305A,106.067,30.7616,南充市,同庆路1号,,31,31,38,19,26,53,,116,100,8,10,6,5,0.5,0.5
2025-09-02T2200,1151A,118.8086,32.1065,南京市,迈皋桥,,35,28,18,24,14,72,,77,76,32,32,4,4,0.6,0.6
2025-09-02T2200,1152A,118.7538,32.0551,南京市,草场门,,39,36,24,27,17,95,,116,111,14,15,4,4,0.8,0.8
2025-09-02T2200,1153A,118.7794,32.0745,南京市,山西路,,,34,24,19,12,,,127,125,19,23,4,4,0.7,0.6
2025-09-02T2200,1154A,118.7752,32.0023,南京市,中华门,,28,22,17,19,12,81,,117,110,13,12,4,4,0.8,0.7
2025-09-02T2200,1155A,118.8109,32.0309,南京市,瑞金路,,32,,17,22,15,87,,116,111,2,11,6,6,0.5,0.5
2025-09-02T2200,1156A,118.7997,32.0754,南京市,玄武湖,,31,31,23,15,8,96,,114,110,11,11,4,4,0.4,0.4
2025-09-02T2200,1157A,118.6414,32.0931,南京市,浦口,,29,29,26,14,11,89,,113,97,12,15,5,5,0.6,0.6
2025-09-02T2200,1158A,118.7356,31.9996,南京市,奥体中心,,39,35,23,27,16,96,,124,118,18,16,5,5,0.6,0.5
2025-09-02T2200,1159A,118.9125,32.1028,南京市,仙林大学城,,31,31,23,14,9,96,,123,120,12,11,6,6,0.8,0.8
2025-09-02T2200,3422A,118.8436,31.9198,南京市,江宁彩虹桥,,37,37,21,17,14,89,,123,118,16,18,4,4,0.5,0.6
2025-09-02T2200,3427A,118.8554,32.3578,南京市,六合雄州,,30,30,24,13,12,66,,124,113,22,14,4,5,1.2,1.2
2025-09-02T2200,4249A,118.8708,31.3402,南京市,汶溪路181号,,,16,13,7,13,,,112,110,8,9,4,4,0.5,0.6
2025-09-02T2200,4312A,119.019,31.6512,南京市,中山西路1号,,21,17,14,12,12,66,,108,97,16,13,4,4,0.7,0.7
2025-09-02T2200,1401A,108.3103,22.7881,南宁市,二十一中,,13,12,22,9,12,38,,60,53,10,9,5,6,0.4,0.5
2025-09-02T2200,1402A,108.3141,22.8528,南宁市,北湖,,17,15,19,7,12,54,,75,66,9,7,4,4,0.4,0.4
2025-09-02T2200,1403A,108.3206,22.8225,南宁市,市监测站,,20,,20,14,10,46,,67,60,9,7,6,5,0.4,0.4
2025-09-02T2200,1404A,108.3829,22.8037,南宁市,大自然花园,,22,22,21,15,13,52,,62,59,6,7,5,6,0.4,0.4
2025-09-02T2200,1405A,108.4394,22.7904,南宁市,仙葫,,20,20,20,7,10,52,,57,56,6,6,6,6,0.5,0.5
2025-09-02T2200,1406A,108.2397,22.8467,南宁市,区农职院,,22,22,21,15,13,50,,79,69,15,12,5,6,0.3,0.3
2025-09-02T2200,1407A,108.3275,22.735,南宁市,英华嘉园,,14,14,22,9,14,33,,58,51,16,12,2,3,0.4,0.4
2025-09-02T2200,3401A,108.4834,22.7618,南宁市,红星社区,,32,32,22,22,11,45,,60,58,11,9,3,3,0.5,0.4
2025-09-02T2200,4221A,108.2177,22.7774,南宁市,乐贤路16号,,,26,30,13,13,,,66,61,27,16,5,6,0.4,0.5
2025-09-02T2200,2331A,118.0966,26.6761,南平市,茫荡山,,,,11,,9,,,76,,,,,1,,0.3
2025-09-02T2200,2332A,118.1681,26.6369,南平市,南平市监测站,,22,22,21,15,11,39,,83,70,14,8,6,4,0.5,0.4
2025-09-02T2200,2333A,118.1825,26.6489,南平市,南平铝业有限公司,,24,24,19,6,10,47,,84,70,16,8,5,4,0.7,0.6
2025-09-02T2200,2334A,118.1756,26.6272,南平市,南平七中,,15,14,21,10,11,41,,82,68,13,6,5,3,0.9,0.5
2025-09-02T2200,1168A,120.9098,31.9663,南通市,狼山街道,,12,12,12,3,9,19,,71,58,22,13,2,2,0.7,0.6
2025-09-02T2200,1169A,120.86,32.0005,南通市,虹桥,,18,17,13,12,10,44,,83,75,34,17,7,3,0.9,0.8
2025-09-02T2200,1170A,120.87,32.02,南通市,城中,,24,24,16,9,8,36,,67,60,28,14,7,4,0.8,0.7
2025-09-02T2200,1171A,120.94,31.93,南通市,星湖花园,,15,10,10,9,10,46,,70,65,24,13,2,2,0.4,0.5
2025-09-02T2200,1172A,120.81,32.0417,南通市,紫琅学院,,15,11,10,3,6,43,,74,66,30,15,9,3,1.0,0.8
2025-09-02T2200,3291A,121.067,32.062,南通市,通州监测站,,19,14,9,12,7,59,,88,80,14,8,1,1,0.6,0.7
2025-09-02T2200,3432A,120.9348,31.9883,南通市,环境教育馆,,29,29,18,10,7,19,,76,62,43,16,3,3,0.3,0.4
2025-09-02T2200,2404A,112.5224,33.0122,南阳市,瓦房庄,,45,45,36,18,11,124,,144,139,9,8,8,7,0.5,0.5
2025-09-02T2200,2405A,112.5003,32.9735,南阳市,汉画馆,,39,37,35,13,12,122,,139,136,11,10,8,8,0.6,0.6
2025-09-02T2200,2406A,112.5573,33.027,南阳市,气象站,,39,39,29,19,13,119,,150,143,15,11,8,8,0.5,0.5
2025-09-02T2200,2407A,112.5481,32.9689,南阳市,理工学院,,46,46,33,8,6,114,,146,140,14,8,9,9,0.5,0.5
2025-09-02T2200,4008A,112.5234,32.9922,南阳市,卧龙区政府,,41,41,31,18,13,120,,140,135,12,10,6,6,0.6,0.5
2025-09-02T2200,1234A,121.8358,29.911,宁波市,区环保大楼,,25,25,24,12,9,36,,96,65,34,11,4,5,0.4,0.3
2025-09-02T2200,1235A,121.56,29.82,宁波市,万里学院,,18,15,23,11,15,56,,110,84,13,14,8,7,0.6,0.5
2025-09-02T2200,1236A,121.713,29.9572,宁波市,龙赛医院,,18,18,25,9,9,53,,115,75,18,12,4,5,0.3,0.3
2025-09-02T2200,1239A,121.633,29.7733,宁波市,钱湖水厂,,18,18,17,6,8,51,,108,77,10,11,5,6,0.5,0.5
2025-09-02T2200,1240A,121.5856,29.8635,宁波市,太古小学,,18,18,27,7,11,56,,114,82,13,13,3,3,0.6,0.5
2025-09-02T2200,1241A,121.524,29.8674,宁波市,市环境监测中心,,15,15,25,6,11,48,,112,82,18,19,7,9,0.6,0.6
2025-09-02T2200,2871A,121.6147,29.9017,宁波市,万里国际学校,,26,26,22,14,13,58,,127,85,13,11,4,5,0.4,0.5
2025-09-02T2200,3710A,121.5594,29.8975,宁波市,白沙活动中心,,19,14,19,7,11,58,,127,89,15,18,6,7,0.3,0.4
2025-09-02T2200,2339A,119.5001,26.6946,宁德市,金涵水库,,,,22,,11,,,34,,,4,,1,,1.0
2025-09-02T2200,2341A,119.5388,26.6612,宁德市,宁德市监测站,,18,16,20,12,13,52,,97,73,11,11,3,4,0.6,0.7
2025-09-02T2200,3209A,119.5231,26.6562,宁德市,宁德一中,,39,,24,27,14,37,,100,71,8,8,4,4,0.6,0.6
2025-09-02T2200,2618A,98.8601,25.8567,怒江傈僳族自治州,州监测站,,24,24,24,15,16,36,,68,57,6,7,6,5,0.4,0.4
2025-09-02T2200,2619A,98.8546,25.8417,怒江傈僳族自治州,泸水一中,,8,6,17,3,12,24,,57,45,9,9,4,4,0.5,0.5
2025-09-02T2200,1888A,101.6891,26.571,攀枝花市,弄弄坪,,33,33,38,9,13,38,,80,63,13,21,8,13,0.8,1.1
2025-09-02T2200,1889A,101.5769,26.5928,攀枝花市,河门口,,31,31,24,14,12,40,,82,68,14,11,10,14,0.8,0.8
2025-09-02T2200,1890A,101.7169,26.585,攀枝花市,炳草岗,,30,30,46,10,20,22,,80,64,28,21,5,8,0.6,0.8
2025-09-02T2200,1891A,101.7369,26.5008,攀枝花市,仁和,,38,38,19,22,11,22,,63,52,16,10,8,8,0.7,0.6
2025-09-02T2200,2835A,101.7227,26.567,攀枝花市,四十中小,,31,31,37,13,21,23,,78,64,29,20,12,13,0.8,1
2025-09-02T2200,1604A,122.0303,41.1489,盘锦市,开发区,细颗粒物(PM2.5),67,49,37,48,35,89,,124,112,19,17,8,8,0.8,0.7
2025-09-02T2200,1605A,122.0485,41.0883,盘锦市,兴隆台,,45,40,38,31,28,92,,130,112,23,21,6,6,1.0,0.9
2025-09-02T2200,1606A,121.8297,41.1028,盘锦市,新生街道,,45,45,29,29,18,55,,135,100,21,21,4,4,0.8,0.8
2025-09-02T2200,1832A,113.3257,33.742,平顶山市,新华旅馆,颗粒物(PM10),52,53,44,23,16,93,,148,130,17,16,5,5,0.6,0.6
2025-09-02T2200,1833A,113.2919,33.737,平顶山市,规划设计院,,38,38,38,22,22,94,,146,129,19,17,5,6,0.8,0.7
2025-09-02T2200,1834A,113.182,33.774,平顶山市,平顶山工学院,,40,40,35,22,20,87,,154,129,24,16,7,7,0.5,0.5
2025-09-02T2200,3204A,113.3025,33.73,平顶山市,规划局,,41,41,41,18,20,109,,152,139,14,16,4,6,0.5,0.5
2025-09-02T2200,3594A,112.8867,33.9116,平顶山市,石龙区,,,44,44,19,24,,,160,150,15,25,6,6,0.6,0.7
2025-09-02T2200,2656A,106.6692,35.5461,平凉市,聚贤嘉苑,颗粒物(PM10),70,90,69,33,32,30,,97,82,35,16,6,7,0.5,0.6
2025-09-02T2200,2657A,106.7021,35.5307,平凉市,博物馆,颗粒物(PM10),78,106,77,33,26,13,,92,73,44,20,10,10,0.8,0.6
2025-09-02T2200,2347A,114.0997,27.5002,萍乡市,武功山,,10,10,9,3,5,15,,51,33,3,3,10,10,0.2,0.2
2025-09-02T2200,2348A,113.8385,27.6434,萍乡市,中医院,,23,22,28,12,14,56,,121,96,19,15,13,15,2.3,1
2025-09-02T2200,2349A,113.8493,27.6253,萍乡市,市政府车库,,,,30,20,20,,,103,91,9,13,9,13,2.3,1.2
2025-09-02T2200,2350A,113.8676,27.6435,萍乡市,市环保局,,23,19,30,16,18,55,,118,95,14,12,6,10,1.2,1.1
2025-09-02T2200,2351A,113.866,27.6198,萍乡市,安源区政府,,40,17,26,9,19,45,,103,81,15,11,17,19,4.0,1.3
2025-09-02T2200,2319A,119.0141,25.4325,莆田市,荔城区仓后路,细颗粒物(PM2.5),65,51,35,47,21,86,,115,115,19,12,7,8,0.8,0.7
2025-09-02T2200,2320A,119.0015,25.4553,莆田市,莆田市监测站,细颗粒物(PM2.5),57,,27,40,16,71,,111,108,11,8,5,6,0.6,0.5
2025-09-02T2200,2321A,119.1119,25.4561,莆田市,涵江区六中,细颗粒物(PM2.5),64,,31,46,20,110,,135,135,13,12,6,6,0.5,0.5
2025-09-02T2200,2322A,119.1013,25.3215,莆田市,秀屿区政府,,35,28,32,24,21,107,,143,139,7,11,6,7,0.5,0.5
2025-09-02T2200,2323A,118.981,25.4792,莆田市,东圳水库,,,,21,,28,,,60,,,5,,3,,0.9
2025-09-02T2200,2392A,115.0312,35.7636,濮阳市,环保局,,47,47,32,29,22,130,,156,153,14,10,23,5,0.5,0.6
2025-09-02T2200,2394A,115.0574,35.7609,濮阳市,油田运输公司,颗粒物(PM10),53,56,38,30,23,121,,160,154,16,12,12,4,0.8,0.7
2025-09-02T2200,3021A,115,35.7668,濮阳市,濮水河管理处,,,,29,,19,,,140,139,22,13,5,3,0.4,0.4
2025-09-02T2200,4216A,115.0924,35.7686,濮阳市,任丘路479号,颗粒物(PM10),55,60,43,29,24,114,,157,149,16,11,8,6,0.7,0.7
2025-09-02T2200,2601A,100.98,22.7633,普洱市,市环保局,,45,32,25,31,18,27,,47,42,6,5,6,6,0.5,0.5
2025-09-02T2200,2602A,100.9817,22.8322,普洱市,普洱第二中学,,39,39,24,21,14,24,,48,40,8,8,6,6,0.4,0.4
2025-09-02T2200,2262A,131.0518,45.8751,七台河市,新一中,,21,14,14,8,9,65,,90,74,9,10,9,9,0.8,0.8
2025-09-02T2200,3345A,131.0577,45.7879,七台河市,中波台,,,,19,,7,,,61,,,19,,8,,0.7
2025-09-02T2200,3637A,131.0176,45.7761,七台河市,人民广场,,18,12,27,9,12,56,,74,55,12,17,10,11,0.6,0.6
2025-09-02T2200,3684A,130.8781,45.8222,七台河市,新建矿广场,,22,,16,15,8,48,,70,52,14,9,10,9,0.6,0.3
2025-09-02T2200,1779A,123.9305,47.3636,齐齐哈尔市,安居小区,,38,38,27,18,8,38,,64,53,26,13,8,7,0.6,0.5
2025-09-02T2200,1780A,123.9488,47.3386,齐齐哈尔市,中心广场,,32,32,18,9,5,51,,71,63,16,12,7,6,0.5,0.4
2025-09-02T2200,1781A,123.9483,47.3227,齐齐哈尔市,农牧车辆厂,,19,19,21,7,8,51,,70,62,10,10,6,7,0.4,0.4
2025-09-02T2200,1783A,123.945,47.2988,齐齐哈尔市,市环境监测站,,20,18,19,14,8,42,,70,60,14,11,7,6,0.5,0.4
2025-09-02T2200,3662A,123.6333,47.2075,齐齐哈尔市,富区青少年活动中心,,35,35,38,9,12,42,,65,58,9,13,6,10,0.3,0.6
2025-09-02T2200,2591A,107.9783,26.5747,黔东南苗族侗族自治州,市环境监测站,,20,13,15,13,13,62,,78,70,4,5,2,3,0.1,0.1
2025-09-02T2200,2881A,107.8908,26.5311,黔东南苗族侗族自治州,凯里学院,,22,,13,10,11,68,,83,76,5,9,2,3,0.5,0.4
2025-09-02T2200,2593A,107.5228,26.2403,黔南布依族苗族自治州,小围寨,,17,9,9,3,4,54,,68,64,3,4,2,2,0.3,0.3
2025-09-02T2200,3538A,107.5175,26.2978,黔南布依族苗族自治州,沙坝,,17,12,14,3,1,53,,72,65,4,7,4,3,0.2,0.3
2025-09-02T2200,2589A,104.9022,25.0925,黔西南布依族苗族自治州,场坝街,,27,27,17,8,6,53,,59,59,6,7,4,5,0.4,0.3
2025-09-02T2200,2590A,104.8811,25.0992,黔西南布依族苗族自治州,坪东大道,,25,25,30,12,10,50,,56,55,5,6,3,2,0.5,0.5
2025-09-02T2200,2502A,108.6236,21.9667,钦州市,市环保站,,22,22,22,7,9,35,,74,63,16,12,4,4,0.4,0.4
2025-09-02T2200,2503A,108.6549,21.9481,钦州市,沙埠小学,,16,16,24,11,12,23,,71,56,22,12,4,2,0.5,0.5
2025-09-02T2200,2504A,108.5989,21.7431,钦州市,港区一小,,38,38,30,9,12,41,,57,49,16,16,2,5,0.4,0.6
2025-09-02T2200,3404A,108.5959,21.9633,钦州市,北职校,,37,37,24,7,11,32,,72,56,17,12,4,4,0.5,0.5
2025-09-02T2200,1043A,119.7493,40.0116,秦皇岛市,第一关,颗粒物(PM10),74,98,66,51,33,56,,189,162,53,30,5,6,0.9,0.5
2025-09-02T2200,1044A,119.5897,39.9499,秦皇岛市,监测站,颗粒物(PM10),89,127,59,47,20,8,,192,164,116,30,6,7,1.1,0.7
2025-09-02T2200,1046A,119.5251,39.9041,秦皇岛市,建设大厦,颗粒物(PM10),75,100,56,36,19,26,,179,148,76,24,5,7,1.1,0.8
2025-09-02T2200,3132A,119.610547,39.943889,秦皇岛市,文明里,细颗粒物(PM2.5),113,125,63,85,26,78,,188,169,39,21,8,8,1.2,0.7
2025-09-02T2200,4198A,119.5090,39.8253,秦皇岛市,北戴河轮滑馆,颗粒物(PM10),68,86,75,42,28,120,,190,178,7,17,2,3,0.8,0.7
2025-09-02T2200,1307A,120.6659,36.2403,青岛市,仰口,,34,15,22,12,13,108,,136,124,7,9,10,10,0.6,0.6
2025-09-02T2200,1310A,120.4134,36.0658,青岛市,市南区东部子站,,34,19,15,17,14,106,,121,117,4,8,6,7,0.2,0.2
2025-09-02T2200,1311A,120.3664,36.1032,青岛市,四方区子站,,38,19,21,19,16,119,,152,142,6,17,4,4,0.3,0.3
2025-09-02T2200,1312A,120.2994,36.054,青岛市,市南区西部子站,,40,17,24,7,10,128,,142,137,14,29,5,6,0.6,0.6
2025-09-02T2200,1313A,120.4581,36.0858,青岛市,崂山区子站,,41,,13,17,7,129,,149,145,3,9,8,8,0.2,0.2
2025-09-02T2200,1315A,120.3999,36.3083,青岛市,城阳区子站,,33,22,28,15,14,105,,163,140,20,16,3,4,0.4,0.5
2025-09-02T2200,1966A,120.0405,35.8735,青岛市,黄岛区4号,,45,17,18,9,7,144,,161,153,3,12,5,5,0.5,0.5
2025-09-02T2200,3362A,120.5014,36.4034,青岛市,即墨2号,,37,25,30,10,18,118,,151,137,11,16,4,5,0.3,0.3
2025-09-02T2200,3642A,120.3503,36.0736,青岛市,市北区南部,,41,26,25,12,11,129,,150,143,8,17,6,6,0.5,0.5
2025-09-02T2200,3643A,120.3948,36.1805,青岛市,李沧区北部,,31,22,22,17,16,99,,141,121,14,17,4,5,0.4,0.4
2025-09-02T2200,4290A,120.1969,35.9546,青岛市,珠江路669号,,38,24,22,20,14,119,,155,142,12,23,6,7,0.5,0.5
2025-09-02T2200,1702A,113.0426,23.691,清远市,环保大楼,,24,20,32,13,22,75,,180,162,16,18,7,12,0.4,0.5
2025-09-02T2200,1703A,113.0208,23.7106,清远市,凤城街办,,21,20,36,10,19,66,,162,144,20,22,8,14,0.5,0.5
2025-09-02T2200,3025A,113.0477,23.6344,清远市,技师学院,,20,20,34,9,17,58,,170,149,19,21,9,12,0.6,0.6
2025-09-02T2200,3318A,112.9903,23.7403,清远市,清新太和,,35,35,34,15,19,74,,158,143,25,20,10,14,0.5,0.5
2025-09-02T2200,3455A,113.076,23.7198,清远市,清城东城,,33,33,33,15,16,91,,141,133,22,20,8,9,0.7,0.6
2025-09-02T2200,2661A,107.6325,35.7357,庆阳市,庆阳五中,细颗粒物(PM2.5),70,83,44,51,21,61,,103,62,10,9,7,8,0.4,0.4
2025-09-02T2200,2662A,107.6364,35.7067,庆阳市,市环保局,颗粒物(PM10),65,79,43,41,17,68,,107,74,9,7,3,6,0.7,0.6
2025-09-02T2200,1916A,103.7897,25.5035,曲靖市,环境监测站,,26,26,21,15,9,54,,78,76,10,9,5,4,0.4,0.4
2025-09-02T2200,1917A,103.8,25.5364,曲靖市,烟厂办公区,,24,24,20,12,12,55,,82,80,10,7,4,4,0.6,0.6
2025-09-02T2200,3376A,103.7947,25.462,曲靖市,南苑二区,,26,26,20,15,10,58,,78,77,10,8,4,4,0.4,0.4
2025-09-02T2200,3377A,103.7444,25.5261,曲靖市,曲靖师范学院,,,,18,14,11,61,,85,83,,8,2,6,,0.3
2025-09-02T2200,1264A,118.8692,28.9398,衢州市,环保大楼,,,27,31,13,17,,,83,63,18,16,3,4,0.4,0.4
2025-09-02T2200,1265A,118.8709,28.9666,衢州市,实验学校,,24,24,29,14,16,41,,90,66,17,16,4,4,0.5,0.5
2025-09-02T2200,1266A,118.8621,28.9808,衢州市,衢州学院,,22,22,27,14,16,36,,94,66,21,16,4,4,0.4,0.4
2025-09-02T2200,1611A,118.5819,24.9117,泉州市,涂山街,细颗粒物(PM2.5),73,70,40,53,24,98,,160,151,37,18,8,4,0.7,0.5
2025-09-02T2200,1612A,118.5972,24.8978,泉州市,津头埔,细颗粒物(PM2.5),77,68,40,56,25,104,,159,153,29,15,7,4,0.7,0.6
2025-09-02T2200,1613A,118.6663,24.9424,泉州市,万安,细颗粒物(PM2.5),60,57,38,43,23,92,,154,149,23,15,3,3,0.5,0.5
2025-09-02T2200,1614A,118.6117,24.9604,泉州市,清源山,,,,25,,15,,,91,,,9,,2,,0.5
2025-09-02T2200,3529A,118.6333,24.9264,泉州市,城华南路,细颗粒物(PM2.5),65,60,33,47,26,66,,138,124,26,17,3,3,0.5,0.4
2025-09-02T2200,2626A,88.8876,29.2718,日喀则市,日喀则监测站,,20,17,8,3,1,62,,66,65,6,10,11,10,0.2,0.2
2025-09-02T2200,3726A,88.8781,29.2426,日喀则市,林业技术推广中心,,20,16,7,3,0,62,,63,63,3,3,6,6,0.4,0.3
2025-09-02T2200,1659A,119.471,35.4209,日照市,监测站,,42,,17,21,14,133,,150,144,7,30,6,7,0.6,0.6
2025-09-02T2200,1660A,119.523,35.4216,日照市,市政府广场,,45,17,17,12,9,142,,157,150,3,13,5,6,0.6,0.7
2025-09-02T2200,1661A,119.5587,35.4044,日照市,港务局,,45,,17,20,19,141,,156,150,5,15,4,5,0.6,0.7
2025-09-02T2200,3507A,119.5328,35.4625,日照市,职业技术学院,,40,22,14,9,8,128,,154,144,6,8,5,5,0.6,0.6
2025-09-02T2200,3604A,119.3266,35.1044,日照市,岚山环保分局,,38,17,19,3,4,120,,152,143,8,13,7,13,0.6,1.1
2025-09-02T2200,1835A,111.1922,34.7752,三门峡市,市政府,,32,30,39,21,21,100,,125,117,12,12,6,8,0.6,0.5
2025-09-02T2200,1836A,111.1587,34.7942,三门峡市,开发区,颗粒物(PM10),52,54,47,28,27,79,,118,108,12,12,6,7,0.4,0.4
2025-09-02T2200,1838A,111.143,34.7955,三门峡市,风景区,,42,35,40,29,28,80,,127,112,9,10,5,5,0.7,0.7
2025-09-02T2200,3039A,111.1911,34.7829,三门峡市,三门峡市第一小学,,32,31,40,21,20,100,,124,116,11,10,3,4,0.6,0.6
2025-09-02T2200,3598A,111.1,34.7167,三门峡市,富达温泉假日酒店,,30,30,30,17,23,57,,106,93,20,11,6,5,0.5,0.4
2025-09-02T2200,2324A,117.6211,26.2625,三明市,三钢,,16,12,19,9,12,50,,78,71,17,11,13,6,1.3,1.1
2025-09-02T2200,2325A,117.635,26.2714,三明市,三明二中,,18,,22,12,12,54,,76,70,10,9,4,5,0.5,0.7
2025-09-02T2200,2326A,117.6028,26.2378,三明市,三元区政府,,16,8,17,7,9,50,,77,69,6,8,3,2,0.3,0.4
2025-09-02T2200,2327A,117.7275,26.3108,三明市,洋溪,,,,17,,14,,,58,,,9,,4,,1.2
2025-09-02T2200,1876A,109.5078,18.2489,三亚市,河东子站,,13,13,12,6,6,33,,43,39,3,3,4,3,0.5,0.5
2025-09-02T2200,1877A,109.4964,18.2681,三亚市,河西子站,,14,14,15,3,2,33,,34,32,4,4,3,3,0.4,0.3
2025-09-02T2200,3540A,109.7348,18.3443,三亚市,君悦子站,,14,14,18,3,5,40,,47,44,3,4,3,3,0.4,0.4
2025-09-02T2200,2624A,91.7608,29.2313,山南市,山南监测站,,16,12,9,3,5,49,,67,64,13,11,3,3,0.3,0.2
2025-09-02T2200,2625A,91.7706,29.2436,山南市,山南人民医院,,18,18,8,9,5,48,,68,66,9,14,4,4,0.2,0.2
2025-09-02T2200,1674A,116.6794,23.3667,汕头市,金平子站,,26,13,29,13,20,81,,111,91,14,14,5,5,0.8,0.8
2025-09-02T2200,1675A,116.7244,23.3633,汕头市,龙湖子站,,26,26,29,12,16,78,,102,86,11,11,7,9,0.6,0.7
2025-09-02T2200,1676A,116.7258,23.2775,汕头市,濠江子站,,27,15,29,9,16,85,,99,90,4,7,5,7,0.6,0.7
2025-09-02T2200,1677A,116.7519,23.4714,汕头市,澄海子站,颗粒物(PM10),60,69,36,31,20,40,,108,70,21,13,6,7,1.0,0.8
2025-09-02T2200,1678A,116.6092,23.2539,汕头市,潮阳子站,,24,24,25,12,18,74,,102,86,6,6,5,6,0.5,0.6
2025-09-02T2200,3444A,116.454,23.2684,汕头市,潮南峡山,,32,32,22,22,16,53,,92,73,9,8,6,7,0.4,0.3
2025-09-02T2200,3624A,116.4069,23.2533,汕头市,潮南子站,,35,35,27,19,14,54,,78,58,7,6,5,5,0.6,0.5
2025-09-02T2200,1693A,115.3653,22.775,汕尾市,市环保局,,20,,15,3,7,62,,61,61,7,8,3,3,0.4,0.4
2025-09-02T2200,1694A,115.3706,22.7898,汕尾市,市政府,,20,16,13,8,7,62,,58,58,6,7,4,4,0.3,0.2
2025-09-02T2200,1695A,115.3622,22.7925,汕尾市,新城中学,,20,14,17,6,7,63,,59,59,5,7,5,5,0.4,0.4
2025-09-02T2200,2645A,109.9154,33.8715,商洛市,监测站,,23,15,31,12,11,71,,77,67,5,19,2,5,0.5,0.5
2025-09-02T2200,3045A,109.9643,33.8471,商洛市,商州区中学,,20,17,30,14,13,51,,75,53,24,24,4,6,0.5,0.5
2025-09-02T2200,2408A,115.6702,34.4285,商丘市,环境监测站,颗粒物(PM10),51,52,36,24,23,90,,131,102,20,13,4,4,0.6,0.5
2025-09-02T2200,2409A,115.6458,34.4045,商丘市,粮食局,,42,42,32,17,12,107,,129,110,12,10,4,4,0.6,0.5
2025-09-02T2200,2410A,115.6293,34.3948,商丘市,睢阳区环保局,,43,43,33,19,17,107,,134,112,9,10,4,4,0.4,0.4
