timepoint,stationcode,longitude,latitude,area,positionname,primarypollutant,aqi,pm10,pm10_24h,pm2_5,pm2_5_24h,o3,o3_24h,o3_8h,o3_8h_24h,no2,no2_24h,so2,so2_24h,co,co_24h
2026-01-23T2000,2568A,102.2503,31.8896,阿坝藏族羌族自治州,马师校,颗粒物(PM10),53,55,19,33,16,28,,63,60,34,14,4,4,0.7,0.5
2026-01-23T2000,3994A,102.2174,31.9016,阿坝藏族羌族自治州,马尔康中学西区,颗粒物(PM10),53,55,20,22,13,38,,63,61,26,13,6,5,0.5,0.4
2026-01-23T2000,2695A,80.2899,41.1684,阿克苏地区,电视台,颗粒物(PM10),433,533,530,85,105,40,,15,,10,36,10,7,0.3,2.2
2026-01-23T2000,2696A,80.2592,41.1541,阿克苏地区,艺术中心,颗粒物(PM10),390,492,496,114,113,47,,38,38,18,37,4,5,0.6,1
2026-01-23T2000,2205A,105.699,38.8409,阿拉善盟,蒙二幼,颗粒物(PM10),56,62,41,20,13,61,,80,77,20,17,9,10,0.6,0.7
2026-01-23T2000,2206A,105.7198,38.8508,阿拉善盟,环保局新楼,,26,11,26,8,9,81,,82,72,4,7,8,9,0.4,0.5
2026-01-23T2000,2708A,88.1266,47.8515,阿勒泰地区,市站,,40,28,15,16,9,14,,78,45,79,32,11,6,0.5,0.4
2026-01-23T2000,4166A,88.1198,47.7931,阿勒泰地区,阿勒泰路33号,,17,9,17,8,6,52,,68,62,29,28,5,8,0.5,0.4
2026-01-23T2000,2630A,80.1171,32.4999,阿里地区,阿里监测站,,28,,1,3,2,88,,95,94,3,2,5,6,0.5,0.5
2026-01-23T2000,3192A,80.0906,32.5029,阿里地区,阿里藏医院,,,105,40,22,10,92,,100,100,,1,,12,0.7,0.5
2026-01-23T2000,2644A,109.0088,32.6974,安康市,汉滨区检察院,,50,50,41,33,32,31,,57,56,32,18,5,6,0.7,0.6
2026-01-23T2000,4054A,109.0324,32.6913,安康市,市邮政管理局,细颗粒物(PM2.5),53,52,50,37,38,32,,60,60,33,19,5,8,0.9,0.6
2026-01-23T2000,2291A,117.0806,30.5181,安庆市,环科院,细颗粒物(PM2.5),75,80,69,55,55,51,,78,77,40,38,12,8,0.7,0.6
2026-01-23T2000,2292A,117.0331,30.5118,安庆市,马山宾馆,细颗粒物(PM2.5),75,71,67,55,53,59,,89,87,42,42,11,8,0.6,0.6
2026-01-23T2000,2294A,116.9897,30.6146,安庆市,安庆大学,细颗粒物(PM2.5),64,59,59,46,49,79,,86,86,27,39,9,6,1.4,0.7
2026-01-23T2000,3173A,117.0598,30.5351,安庆市,市人大,细颗粒物(PM2.5),83,81,72,61,57,49,,86,85,41,39,15,10,0.8,0.8
2026-01-23T2000,3123A,105.9408,26.2431,安顺市,凤凰山,细颗粒物(PM2.5),97,80,44,72,42,31,,46,44,34,22,32,18,0.6,0.5
2026-01-23T2000,3124A,105.9443,26.2567,安顺市,金钟山,细颗粒物(PM2.5),92,,39,68,42,29,,44,42,23,14,35,21,0.8,0.7
2026-01-23T2000,3125A,105.8983,26.248,安顺市,娄家坡,细颗粒物(PM2.5),94,77,42,70,43,31,,47,44,23,14,34,19,0.6,0.5
2026-01-23T2000,1819A,114.3552,36.1017,安阳市,红庙街,细颗粒物(PM2.5),180,168,117,136,112,44,,72,70,56,35,6,6,1.3,1.1
2026-01-23T2000,1820A,114.361,36.0681,安阳市,银杏小区,细颗粒物(PM2.5),200,169,116,150,117,33,,75,71,63,35,6,6,1.4,1
2026-01-23T2000,3141A,114.3921,36.0879,安阳市,信访局,细颗粒物(PM2.5),185,150,118,139,113,45,,78,76,52,28,8,8,1.1,0.9
2026-01-23T2000,3669A,114.4706,36.0634,安阳市,左辅环卫站,细颗粒物(PM2.5),201,171,127,151,111,62,,80,80,48,29,7,5,1.1,0.8
2026-01-23T2000,4117A,114.2918,36.0769,安阳市,钢三路198号,细颗粒物(PM2.5),207,201,165,157,132,27,,64,61,66,34,7,7,1.6,1.2
2026-01-23T2000,1748A,123.0441,41.1201,鞍山市,深沟寺,,45,44,45,31,31,48,,66,63,29,28,11,14,0.9,1.3
2026-01-23T2000,1749A,123.011,41.0931,鞍山市,太阳城,细颗粒物(PM2.5),68,55,42,49,33,38,,61,58,35,28,18,22,0.9,1.3
2026-01-23T2000,1750A,123.0483,41.1445,鞍山市,太平,细颗粒物(PM2.5),138,199,67,105,39,14,,61,53,68,36,19,14,2.2,1.3
2026-01-23T2000,1751A,122.964,41.0968,鞍山市,铁西三道街,细颗粒物(PM2.5),97,135,86,72,44,13,,59,48,81,50,13,25,1.2,1.5
2026-01-23T2000,1753A,123.0219,41.0822,鞍山市,明达新区,细颗粒物(PM2.5),70,74,45,51,30,43,,62,56,26,24,16,21,0.9,1.2
2026-01-23T2000,4201A,122.944647,41.082639,鞍山市,兴盛南路290号,细颗粒物(PM2.5),117,136,86,88,54,22,,66,49,68,49,15,21,1.4,1.7
2026-01-23T2000,2195A,107.4206,40.7609,巴彦淖尔市,附二中,颗粒物(PM10),75,100,82,44,47,32,,44,44,36,36,13,14,0.7,0.8
2026-01-23T2000,2196A,107.37,40.7372,巴彦淖尔市,市环保大楼,颗粒物(PM10),77,104,87,38,48,27,,45,44,45,40,9,7,0.7,0.9
2026-01-23T2000,1956A,86.1476,41.7529,巴音郭楞蒙古自治州,孔雀公园,颗粒物(PM10),181,312,330,56,53,46,,57,56,20,20,10,8,0.5,0.6
2026-01-23T2000,1957A,86.1971,41.7166,巴音郭楞蒙古自治州,棉纺厂,颗粒物(PM10),262,393,378,50,53,41,,52,52,28,28,/,/,/,/
2026-01-23T2000,1958A,86.236,41.7172,巴音郭楞蒙古自治州,经济开发区,颗粒物(PM10),165,280,326,34,41,55,,53,53,13,19,6,5,0.5,0.6
2026-01-23T2000,3181A,106.776805,31.852614,巴中市,市五中,细颗粒物(PM2.5),67,65,60,48,46,14,,36,35,38,23,5,5,1.1,1
2026-01-23T2000,3183A,106.7419,31.8654,巴中市,圣泉水务公司,细颗粒物(PM2.5),73,68,58,53,48,23,,35,35,37,32,5,5,0.8,0.6
2026-01-23T2000,3616A,106.7617,31.8343,巴中市,市中心医院,细颗粒物(PM2.5),78,72,59,57,47,14,,44,39,42,26,7,7,0.9,0.9
2026-01-23T2000,2235A,122.7909,45.608,白城市,洮北区环保局,颗粒物(PM10),52,53,29,18,14,59,,70,66,10,9,1,4,0.2,0.1
2026-01-23T2000,2236A,122.8741,45.5725,白城市,市环保局,颗粒物(PM10),52,53,32,17,13,59,,68,64,10,13,6,6,0.3,0.3
2026-01-23T2000,2231A,126.4219,41.9172,白山市,喜丰,,46,46,68,21,41,67,,70,70,17,35,10,19,0.8,1.1
2026-01-23T2000,2232A,126.4082,41.9416,白山市,环保局,,30,28,52,21,35,68,,70,70,13,28,11,13,0.7,1.1
2026-01-23T2000,2647A,104.1727,36.5448,白银市,第三小学,细颗粒物(PM2.5),132,146,85,100,62,30,,74,71,95,42,68,30,1.4,1
2026-01-23T2000,2648A,104.1467,36.5482,白银市,动力公司,细颗粒物(PM2.5),97,90,78,72,56,36,,84,80,85,26,10,14,1.1,1
2026-01-23T2000,2512A,106.6102,23.901,百色市,市监测站,细颗粒物(PM2.5),54,51,38,38,25,41,,56,55,16,19,16,19,0.8,0.8
2026-01-23T2000,2513A,106.6524,23.8842,百色市,市中心血站,细颗粒物(PM2.5),64,50,39,46,35,39,,57,56,13,13,17,18,0.8,0.8
2026-01-23T2000,4133A,106.6273,23.8798,百色市,龙景西路,细颗粒物(PM2.5),69,74,48,50,30,37,,56,55,19,17,13,17,0.6,0.6
2026-01-23T2000,2270A,117.396,32.9389,蚌埠市,工人疗养院,细颗粒物(PM2.5),104,98,79,78,59,,,95,95,31,29,5,7,0.7,0.5
2026-01-23T2000,2271A,117.3606,32.9428,蚌埠市,百货大楼,细颗粒物(PM2.5),97,101,81,72,55,82,,94,94,32,38,5,6,0.7,0.7
2026-01-23T2000,2273A,117.4183,32.8909,蚌埠市,蚌埠学院,细颗粒物(PM2.5),94,97,66,70,51,73,,97,97,38,27,4,5,0.8,0.5
2026-01-23T2000,2274A,117.3534,32.9672,蚌埠市,淮上区政府,细颗粒物(PM2.5),110,92,79,83,62,76,,95,95,44,43,2,3,0.6,0.6
2026-01-23T2000,2275A,117.3143,32.8977,蚌埠市,高新区,细颗粒物(PM2.5),125,110,71,95,59,44,,85,82,58,32,7,7,0.8,0.6
2026-01-23T2000,3715A,117.3091,32.9314,蚌埠市,蚌埠田家炳中学,细颗粒物(PM2.5),119,122,91,90,68,31,,85,79,86,41,6,10,0.8,0.8
2026-01-23T2000,1585A,109.8761,40.6533,包头市,市环境监测站,颗粒物(PM10),72,93,75,39,32,8,,47,40,76,40,14,17,1.3,1.4
2026-01-23T2000,1587A,109.9992,40.5843,包头市,包头八中,细颗粒物(PM2.5),85,94,81,63,44,10,,54,50,78,48,9,10,1.5,1.2
2026-01-23T2000,1589A,109.8641,40.6288,包头市,惠龙物流,颗粒物(PM10),69,88,72,46,36,23,,51,48,63,42,13,19,1.3,1.4
2026-01-23T2000,1590A,110.0376,40.5546,包头市,东河鸿龙湾,颗粒物(PM10),67,84,70,44,40,15,,61,57,107,60,18,13,2.0,1.2
2026-01-23T2000,3283A,109.9154,40.5684,包头市,滨河大厦,颗粒物(PM10),59,68,82,33,47,25,,52,51,61,57,10,14,0.9,1.3
2026-01-23T2000,3419A,109.9449,40.6259,包头市,包头市委党校,颗粒物(PM10),68,85,76,33,37,3,,50,45,91,55,15,15,1.6,1.3
2026-01-23T2000,3683A,109.8332,40.6577,包头市,昆区政府,细颗粒物(PM2.5),79,100,81,58,45,8,,44,38,91,44,18,22,1.6,1.8
2026-01-23T2000,1931A,107.0802,34.3129,宝鸡市,竹园沟,细颗粒物(PM2.5),112,,74,84,73,25,,54,52,35,25,6,6,0.6,0.5
2026-01-23T2000,1933A,107.1429,34.3549,宝鸡市,监测站,细颗粒物(PM2.5),132,102,91,100,84,38,,58,58,43,35,6,5,0.8,0.8
2026-01-23T2000,1934A,107.1172,34.3759,宝鸡市,技工学校,细颗粒物(PM2.5),108,97,91,81,81,31,,58,57,64,32,5,6,0.9,0.7
2026-01-23T2000,1936A,107.2025,34.3518,宝鸡市,文理学院,细颗粒物(PM2.5),122,95,88,92,84,64,,69,69,30,32,5,5,0.6,0.8
2026-01-23T2000,1937A,107.2396,34.3626,宝鸡市,三迪小学,细颗粒物(PM2.5),124,,95,94,92,39,,62,62,60,41,4,5,0.9,0.8
2026-01-23T2000,4155A,107.1721,34.3558,宝鸡市,滨河北路,细颗粒物(PM2.5),93,102,102,69,76,44,,59,59,39,26,6,6,0.7,0.7
2026-01-23T2000,4308A,107.3898,34.3601,宝鸡市,陈仓区北开路21号,细颗粒物(PM2.5),175,146,115,132,101,46,,64,64,54,40,9,26,0.7,0.9
2026-01-23T2000,1051A,115.4803,38.8568,保定市,游泳馆,细颗粒物(PM2.5),178,156,98,134,84,8,,48,42,94,65,9,8,1.2,1
2026-01-23T2000,1052A,115.509,38.8895,保定市,华电二区,细颗粒物(PM2.5),150,133,89,115,76,7,,38,35,,57,6,6,1.4,1.2
2026-01-23T2000,1053A,115.4588,38.9037,保定市,接待中心,细颗粒物(PM2.5),153,159,98,117,77,4,,39,32,87,58,5,4,1.5,0.8
2026-01-23T2000,1054A,115.4484,38.8344,保定市,地表水厂,细颗粒物(PM2.5),149,179,130,114,80,9,,46,41,88,68,8,7,1.1,1
2026-01-23T2000,3581A,115.3136,38.9511,保定市,满城区生态环境分局,细颗粒物(PM2.5),152,175,121,116,75,3,,38,31,96,61,10,5,1.5,1.3
2026-01-23T2000,3582A,115.4709,38.7628,保定市,清苑区第二中学,细颗粒物(PM2.5),165,208,148,125,87,12,,48,44,81,67,10,10,1.1,1.1
2026-01-23T2000,3583A,115.6231,39.0223,保定市,徐水物探局,细颗粒物(PM2.5),178,184,122,134,75,7,,44,37,85,60,10,9,1.3,1
2026-01-23T2000,4004A,115.4199,38.8665,保定市,双鹰农机,细颗粒物(PM2.5),159,184,122,121,77,22,,53,49,77,55,12,10,1.4,1
2026-01-23T2000,4034A,115.515,38.8589,保定市,植保所站,细颗粒物(PM2.5),142,141,103,108,75,7,,54,38,79,71,5,5,1.0,1.1
2026-01-23T2000,2594A,99.1589,25.1137,保山市,市环境监测站,,35,34,25,24,16,65,,88,88,10,9,5,5,0.4,0.3
2026-01-23T2000,2595A,99.1616,25.1381,保山市,市环保局,,42,34,29,29,23,76,,90,90,4,7,3,3,0.5,0.5
2026-01-23T2000,1867A,109.1435,21.4085,北海市,海滩公园,细颗粒物(PM2.5),77,75,42,56,32,26,,33,33,21,15,7,6,1.0,0.9
2026-01-23T2000,1868A,109.0983,21.466,北海市,新市环保局,细颗粒物(PM2.5),77,,35,56,37,26,,32,32,19,16,3,4,1.3,1.2
2026-01-23T2000,1869A,109.1775,21.5232,北海市,北海工业园,细颗粒物(PM2.5),83,62,50,61,36,20,,29,28,20,16,6,6,0.8,0.7
2026-01-23T2000,3400A,109.1844,21.4396,北海市,龙潭自来水厂,细颗粒物(PM2.5),89,70,42,66,41,24,,33,33,19,17,6,7,1.1,0.9
2026-01-23T2000,1001A,116.3611,39.8786,北京市,万寿西宫,细颗粒物(PM2.5),93,101,56,69,32,26,,54,49,59,51,5,3,0.8,0.6
2026-01-23T2000,1003A,116.4174,39.9289,北京市,东四,细颗粒物(PM2.5),65,77,47,47,26,35,,51,50,38,41,7,5,0.6,0.6
2026-01-23T2000,1004A,116.4073,39.8858,北京市,天坛,细颗粒物(PM2.5),73,82,49,53,28,29,,53,49,42,43,2,2,1.0,1
2026-01-23T2000,1005A,116.4622,39.9364,北京市,农展馆,,45,45,43,27,23,41,,62,59,28,36,4,4,0.6,0.7
2026-01-23T2000,1006A,116.3399,39.9293,北京市,官园,细颗粒物(PM2.5),75,80,50,55,29,34,,52,49,43,45,8,6,0.7,0.6
2026-01-23T2000,1007A,116.2879,39.9613,北京市,海淀万柳,细颗粒物(PM2.5),72,77,48,52,27,23,,50,45,54,50,4,3,0.8,0.6
2026-01-23T2000,1008A,116.6635,40.1349,北京市,顺义新城,,19,19,32,10,16,59,,67,67,14,25,3,4,0.3,0.4
2026-01-23T2000,1009A,116.6275,40.327,北京市,怀柔镇,,26,26,25,17,16,52,,60,59,12,17,3,4,0.5,0.5
2026-01-23T2000,1010A,116.2295,40.217,北京市,昌平镇,,37,37,43,16,21,38,,62,59,32,29,1,2,0.4,0.5
2026-01-23T2000,1011A,116.3968,39.982,北京市,奥体中心,颗粒物(PM10),62,74,47,36,24,34,,60,56,52,56,6,5,0.8,0.8
2026-01-23T2000,3418A,116.8336,40.4095,北京市,密云新城,,26,26,28,13,12,50,,65,64,13,15,1,1,0.4,0.4
2026-01-23T2000,3671A,116.0879,39.9725,北京市,门头沟三家店,颗粒物(PM10),57,63,45,38,24,7,,60,43,59,33,3,3,0.7,0.5
2026-01-23T2000,3672A,116.1507,39.8246,北京市,丰台云岗,细颗粒物(PM2.5),90,94,61,67,34,22,,47,43,53,47,4,3,0.8,0.6
2026-01-23T2000,3674A,115.9578,39.7602,北京市,房山燕山,,45,44,53,31,32,35,,44,44,31,33,6,6,0.3,0.5
2026-01-23T2000,3675A,116.4669,39.7734,北京市,大兴旧宫,细颗粒物(PM2.5),82,110,63,60,30,9,,55,46,68,47,4,3,0.8,0.7
2026-01-23T2000,3694A,115.9859,40.4562,北京市,延庆石河营,,29,29,45,14,28,33,,64,62,33,29,3,3,0.5,0.9
2026-01-23T2000,3695A,116.6151,40.3052,北京市,怀柔新城,,24,24,29,15,18,55,,60,60,8,14,4,4,0.2,0.4
2026-01-23T2000,3696A,116.2542,39.8764,北京市,丰台小屯,细颗粒物(PM2.5),77,93,61,56,32,11,,43,37,64,52,4,4,0.8,0.8
2026-01-23T2000,3697A,116.8399,40.3843,北京市,密云镇,,47,47,28,16,12,17,,65,57,47,26,1,1,0.5,0.3
2026-01-23T2000,4057A,115.9423,40.4431,北京市,延庆百泉,,18,18,41,10,23,50,,58,58,13,27,2,2,0.4,0.7
2026-01-23T2000,4058A,116.6598,39.9164,北京市,通州新华,颗粒物(PM10),64,77,54,19,26,7,,49,43,61,48,2,3,0.6,0.7
2026-01-23T2000,4182A,116.1942,39.9158,北京市,石景山八角,细颗粒物(PM2.5),74,96,54,54,27,17,,50,43,60,47,3,3,0.7,0.6
2026-01-23T2000,4194A,117.078628,40.151726,北京市,平谷新城,,40,39,29,28,20,50,,66,65,18,21,3,2,0.5,0.5
2026-01-23T2000,1761A,123.8274146,41.31234549,本溪市,大峪,颗粒物(PM10),60,70,90,42,53,34,,57,57,37,43,7,8,1.6,1.6
2026-01-23T2000,1763A,123.7169,41.3094,本溪市,彩屯,细颗粒物(PM2.5),117,114,107,88,71,24,,53,50,53,47,8,9,1.1,2
2026-01-23T2000,1764A,123.7672166,41.28649327,本溪市,东明,细颗粒物(PM2.5),107,91,91,80,73,13,,59,55,74,52,8,8,2.0,1.8
2026-01-23T2000,1765A,123.799345,41.266614,本溪市,新立屯,颗粒物(PM10),62,74,63,32,41,13,,48,42,65,47,10,11,1.8,1.6
2026-01-23T2000,1766A,123.829144,41.336777,本溪市,威宁,细颗粒物(PM2.5),89,77,88,66,52,7,,50,46,62,42,5,7,1.4,1.5
2026-01-23T2000,2587A,105.287,27.3133,毕节市,八中,细颗粒物(PM2.5),64,50,55,46,47,45,,31,31,14,18,8,9,0.9,0.9
2026-01-23T2000,2588A,105.3079,27.2987,毕节市,师专,细颗粒物(PM2.5),62,55,54,44,44,42,,32,30,15,19,8,8,1.0,1
2026-01-23T2000,4263A,105.3688,27.3598,毕节市,工业大道,细颗粒物(PM2.5),65,59,50,47,40,34,,36,36,14,13,10,11,/,/
2026-01-23T2000,1629A,117.9961,37.3604,滨州市,第二水厂,细颗粒物(PM2.5),90,112,89,67,64,40,,76,70,42,47,18,16,1.0,0.9
2026-01-23T2000,1630A,117.9789,37.3931,滨州市,北中新校,细颗粒物(PM2.5),98,107,85,73,62,27,,80,72,50,40,12,10,1.0,0.7
2026-01-23T2000,3514A,117.9379,37.3959,滨州市,中海酒店,细颗粒物(PM2.5),94,100,87,70,69,45,,88,80,32,42,13,16,1.0,0.9
2026-01-23T2000,3515A,117.9381509,37.35547456,滨州市,开发区一中,细颗粒物(PM2.5),89,92,95,66,70,48,,79,74,32,46,16,19,0.9,0.8
2026-01-23T2000,3516A,118.0914,37.6938,滨州市,金海六路,颗粒物(PM10),65,80,89,44,61,22,,80,68,67,53,2,10,0.7,0.8
2026-01-23T2000,4028A,117.9955,37.3752,滨州市,滨州市西街道办事处,细颗粒物(PM2.5),117,136,93,88,70,26,,82,72,50,41,13,13,1.3,0.9
2026-01-23T2000,2311A,115.8071,33.8399,亳州市,污水处理厂,细颗粒物(PM2.5),109,109,72,82,55,59,,98,94,44,24,3,4,0.5,0.3
2026-01-23T2000,2312A,115.7789,33.8519,亳州市,三国揽胜宫,细颗粒物(PM2.5),104,109,74,78,57,86,,101,101,28,21,4,3,0.6,0.5
2026-01-23T2000,3332A,115.7631,33.803,亳州市,亳州学院,细颗粒物(PM2.5),109,99,74,82,57,88,,104,104,27,17,3,4,0.6,0.4
2026-01-23T2000,2693A,82.0482,44.8553,博尔塔拉蒙古自治州,市党校,颗粒物(PM10),76,101,103,48,53,51,,45,44,40,33,5,8,1.0,1.1
2026-01-23T2000,2694A,82.0805,44.8966,博尔塔拉蒙古自治州,市环保局,颗粒物(PM10),89,128,109,53,50,18,,56,40,69,32,10,9,0.7,0.6
2026-01-23T2000,1071A,116.8733,38.2922,沧州市,沧县城建局,细颗粒物(PM2.5),113,128,118,85,89,8,,59,44,92,60,11,7,1.5,1.1
2026-01-23T2000,1072A,116.8462,38.3189,沧州市,电视转播站,细颗粒物(PM2.5),140,122,112,107,103,10,,57,46,76,50,6,6,1.3,1
2026-01-23T2000,1073A,116.8588,38.3161,沧州市,市环保局,细颗粒物(PM2.5),128,122,119,97,93,4,,52,40,79,47,8,8,1.3,1
2026-01-23T2000,3324A,116.8011,38.294,沧州市,河北水利电力学院,细颗粒物(PM2.5),125,127,125,95,92,8,,54,43,85,60,5,7,1.0,0.9
2026-01-23T2000,2622A,97.1813,31.1289,昌都市,昌都监测站,细颗粒物(PM2.5),95,119,32,71,17,6,,64,55,75,20,12,3,2.5,0.7
2026-01-23T2000,3719A,97.1707,31.1428,昌都市,昌都会议中心,,22,21,14,15,11,63,,68,68,4,5,4,4,0.4,0.3
2026-01-23T2000,2692A,87.2722,44.0298,昌吉回族自治州,新区政务中心,细颗粒物(PM2.5),124,143,166,94,128,71,,61,61,27,44,8,8,0.9,1.3
2026-01-23T2000,3613A,87.3069,44.0093,昌吉回族自治州,亚心广场,细颗粒物(PM2.5),104,149,177,78,130,72,,66,66,25,43,7,8,1.0,1.4
2026-01-23T2000,4164A,87.2057,43.9289,昌吉回族自治州,财政所,细颗粒物(PM2.5),122,160,133,92,91,58,,67,67,30,27,5,5,1.0,1
2026-01-23T2000,1120A,125.2874,43.9024,长春市,客车厂,细颗粒物(PM2.5),52,44,36,36,28,43,,56,54,34,31,12,11,0.5,0.5
2026-01-23T2000,1121A,125.2943,43.8508,长春市,邮电学院,,46,46,33,31,23,35,,57,52,43,28,11,12,0.4,0.3
2026-01-23T2000,1122A,125.3648,43.8745,长春市,劳动公园,,,47,40,31,25,34,,62,57,,33,8,6,0.2,0.5
2026-01-23T2000,1123A,125.3233,43.8781,长春市,园林处,,48,43,35,33,26,34,,57,52,39,25,13,11,0.6,0.5
2026-01-23T2000,1124A,125.4604,43.7904,长春市,净月潭,,50,,35,35,23,50,,62,61,18,16,6,6,0.5,0.5
2026-01-23T2000,1126A,125.38,43.8422,长春市,经开区环卫处,,45,45,37,28,22,32,,62,58,49,31,7,6,0.6,0.4
2026-01-23T2000,1127A,125.234,43.7761,长春市,高新区管委会,细颗粒物(PM2.5),54,56,43,38,31,27,,71,59,55,36,7,7,0.6,0.5
2026-01-23T2000,1128A,125.1695,43.83,长春市,岱山公园,,46,45,37,32,28,46,,67,58,30,27,6,7,0.4,0.4
2026-01-23T2000,4281A,125.334645,43.916281,长春市,北亚泰大街1068号,,40,34,38,28,26,39,,54,50,35,30,10,10,0.4,0.5
2026-01-23T2000,1335A,113.082,28.2421,长沙市,经开区环保局,细颗粒物(PM2.5),73,65,75,53,66,43,,65,64,29,26,3,3,0.6,0.6
2026-01-23T2000,1336A,112.8873,28.2202,长沙市,高开区环保局,细颗粒物(PM2.5),72,63,72,52,66,49,,65,65,29,28,6,7,0.8,0.7
2026-01-23T2000,1337A,113.0785,28.2012,长沙市,马坡岭,细颗粒物(PM2.5),67,63,75,48,63,52,,76,76,23,25,4,4,0.8,0.8
2026-01-23T2000,1338A,112.9448,28.1894,长沙市,湖南师范大学,颗粒物(PM10),60,69,70,40,54,41,,75,73,31,27,4,6,0.7,0.7
2026-01-23T2000,1339A,113.0177,28.1322,长沙市,雨花区环保局,细颗粒物(PM2.5),63,62,77,45,61,50,,66,66,26,30,7,8,0.9,0.9
2026-01-23T2000,1340A,112.9795,28.2593,长沙市,伍家岭,细颗粒物(PM2.5),65,72,83,47,55,41,,65,63,41,32,5,6,0.9,0.9
2026-01-23T2000,1341A,113.002,28.1944,长沙市,火车新站,细颗粒物(PM2.5),73,67,79,53,63,51,,66,66,33,35,1,2,0.9,0.9
2026-01-23T2000,1342A,112.9846,28.1177,长沙市,天心区环保局,细颗粒物(PM2.5),63,49,68,45,59,55,,72,72,27,30,5,7,0.6,0.6
2026-01-23T2000,1343A,112.8906,28.1307,长沙市,湖南中医药大学,细颗粒物(PM2.5),57,58,71,40,59,32,,70,68,48,35,6,7,0.7,0.8
2026-01-23T2000,1727A,113.1146,36.1547,长治市,清华站,颗粒物(PM10),55,60,58,31,38,64,,75,74,32,32,16,14,0.8,0.9
2026-01-23T2000,1730A,113.0887,36.2126,长治市,审计局,细颗粒物(PM2.5),60,65,67,43,54,60,,79,79,43,38,15,17,0.8,1.3
2026-01-23T2000,1731A,113.0845,36.1856,长治市,长治八中,颗粒物(PM10),77,103,80,47,51,44,,70,68,42,29,19,15,0.9,1.1
2026-01-23T2000,2845A,113.1561,36.1912,长治市,德盛苑,,45,44,42,31,36,80,,87,87,22,16,12,13,0.7,0.8
2026-01-23T2000,3568A,113.0603,36.0464,长治市,向阳小学,颗粒物(PM10),69,87,72,39,38,62,,81,81,48,31,16,16,1.0,0.9
2026-01-23T2000,3569A,112.8788,36.315,长治市,屯留一中,颗粒物(PM10),78,105,80,56,58,40,,72,71,49,40,25,27,1.6,2
2026-01-23T2000,4189A,113.113092,36.199482,长治市,英华南巷50号,细颗粒物(PM2.5),77,87,63,56,42,23,,83,70,60,31,10,14,1.1,1.1
2026-01-23T2000,4190A,113.23666,36.33435,长治市,学府街1号,细颗粒物(PM2.5),74,80,76,54,54,4,,75,67,92,48,17,18,1.5,1.7
2026-01-23T2000,1854A,111.696,28.9725,常德市,市二中,细颗粒物(PM2.5),78,71,65,57,56,60,,79,79,38,22,6,5,0.9,0.8
2026-01-23T2000,3138A,111.7152,29.0288,常德市,武陵区永安,细颗粒物(PM2.5),83,84,74,61,59,75,,85,85,24,23,6,6,0.9,0.9
2026-01-23T2000,3139A,111.6891,28.9881,常德市,鼎城区玉霞,细颗粒物(PM2.5),82,67,66,60,58,82,,88,88,21,30,7,9,0.7,0.6
2026-01-23T2000,3140A,111.6651,29.0526,常德市,武陵区长庚,细颗粒物(PM2.5),75,70,87,55,56,80,,85,85,20,23,5,5,0.6,0.5
2026-01-23T2000,1196A,119.9524,31.7586,常州市,市监测站,细颗粒物(PM2.5),87,104,102,64,60,20,,78,70,78,62,6,5,1.2,1.2
2026-01-23T2000,1200A,119.9351,31.703,常州市,武进监测站,细颗粒物(PM2.5),80,87,80,59,55,36,,76,71,58,53,9,10,1.0,1.1
2026-01-23T2000,3002A,119.9701,31.813,常州市,行政中心,细颗粒物(PM2.5),87,92,84,64,59,42,,72,69,58,63,8,7,1.0,0.9
2026-01-23T2000,3003A,120.0434,31.7726,常州市,经开区,细颗粒物(PM2.5),79,97,114,58,60,51,,78,77,48,56,6,6,0.9,0.8
2026-01-23T2000,3010A,119.8919,31.7892,常州市,钟楼,细颗粒物(PM2.5),92,98,85,68,54,22,,68,64,75,58,9,8,1.0,0.9
2026-01-23T2000,3429A,119.8595,31.706,常州市,武进经发区,细颗粒物(PM2.5),98,87,88,73,67,48,,76,76,47,58,8,8,0.9,0.8
2026-01-23T2000,3430A,119.5812,31.7256,常州市,金坛城区,细颗粒物(PM2.5),94,89,82,70,58,43,,80,79,47,42,8,9,1.1,1
2026-01-23T2000,4089A,119.9551,31.863,常州市,崇义南街5-H号,细颗粒物(PM2.5),80,97,83,59,61,27,,71,67,62,59,6,6,1.0,0.9
2026-01-23T2000,2220A,120.4318,41.588,朝阳市,西梁,颗粒物(PM10),52,53,93,32,48,31,,64,60,47,42,6,11,0.6,1.2
2026-01-23T2000,2221A,120.452,41.565,朝阳市,河畔小区,,36,36,58,12,34,50,,64,64,27,34,6,9,0.6,1.1
2026-01-23T2000,2222A,120.4176,41.5648,朝阳市,八里堡,,50,50,70,29,47,38,,63,60,37,36,10,12,0.6,1.1
2026-01-23T2000,3026A,116.6179,23.6608,潮州市,市政府,,48,,28,33,22,54,,52,52,18,12,3,2,0.5,0.5
2026-01-23T2000,4036A,116.646,23.676,潮州市,金山,细颗粒物(PM2.5),70,,29,51,26,74,,50,50,18,13,4,2,0.6,0.6
2026-01-23T2000,2473A,113.0116,25.8228,郴州市,市职中,细颗粒物(PM2.5),80,66,47,59,43,13,,22,21,19,16,4,3,0.5,0.4
2026-01-23T2000,2475A,113.0381,25.8074,郴州市,市审计局,细颗粒物(PM2.5),84,70,52,62,45,14,,21,21,22,19,3,2,/,/
2026-01-23T2000,2476A,113.0348,25.7757,郴州市,市环保局,细颗粒物(PM2.5),69,77,59,50,48,13,,16,15,24,19,3,2,0.8,0.6
2026-01-23T2000,4252A,113.0138,25.8011,郴州市,好美居路49号,细颗粒物(PM2.5),84,67,57,62,54,21,,28,28,25,19,5,3,/,/
2026-01-23T2000,1431A,103.9727,30.7242,成都市,金泉两河,细颗粒物(PM2.5),103,109,76,77,52,6,,19,17,60,45,2,2,0.8,0.7
2026-01-23T2000,1432A,104.1423,30.6765,成都市,十里店,细颗粒物(PM2.5),85,93,55,63,38,14,,33,23,51,35,3,3,0.7,0.6
2026-01-23T2000,1433A,104.0594,30.5765,成都市,三瓦窑,细颗粒物(PM2.5),87,71,51,64,43,16,,35,13,52,40,2,3,0.7,0.7
2026-01-23T2000,1434A,104.1122,30.6306,成都市,沙河铺,细颗粒物(PM2.5),97,80,54,72,40,13,,27,18,56,42,4,3,0.8,0.7
2026-01-23T2000,2880A,104.0219,30.6561,成都市,大石西路,细颗粒物(PM2.5),92,100,68,68,44,6,,26,14,53,33,4,4,1.0,0.7
2026-01-23T2000,3136A,104.2724,30.559,成都市,龙泉驿区区政府,,,63,34,46,26,,,42,33,22,20,6,6,0.8,0.9
2026-01-23T2000,3357A,104.0028,30.6891,成都市,金博路,细颗粒物(PM2.5),94,90,62,70,48,2,,23,12,61,42,4,4,0.9,0.8
2026-01-23T2000,3359A,104.056,30.5228,成都市,华阳,"颗粒物(PM10),细颗粒物(PM2.5)",58,66,39,41,28,8,,43,15,58,33,2,2,0.8,0.7
2026-01-23T2000,3488A,104.387954,30.746684,成都市,青石路225号,细颗粒物(PM2.5),87,81,44,64,32,16,,37,30,39,26,4,4,1.0,0.9
2026-01-23T2000,3489A,104.0788,30.4054,成都市,科学城,细颗粒物(PM2.5),64,57,37,46,33,29,,38,35,24,20,6,6,0.7,0.6
2026-01-23T2000,4011A,103.8505,30.6946,成都市,光华大道三段,细颗粒物(PM2.5),110,111,94,83,68,4,,18,17,65,45,3,3,0.9,0.7
2026-01-23T2000,4144A,104.3257,30.6406,成都市,八角井街185号,细颗粒物(PM2.5),72,87,54,52,34,14,,44,24,36,25,3,2,0.8,0.8
2026-01-23T2000,4224A,104.2433276,30.53529463,成都市,鲸龙路1057号,,,69,39,48,29,,,44,31,31,24,4,4,0.9,0.8
2026-01-23T2000,1062A,117.9531,40.908,承德市,铁路,细颗粒物(PM2.5),62,62,53,44,27,17,,57,54,42,28,13,9,0.8,0.9
2026-01-23T2000,1063A,117.9397,40.9763,承德市,中国银行,,50,50,49,29,25,26,,62,58,36,32,3,3,0.7,0.7
2026-01-23T2000,4073A,117.9462,40.95,承德市,杏林街1号,细颗粒物(PM2.5),59,,44,42,28,33,,65,62,23,26,5,5,0.6,0.7
2026-01-23T2000,4274A,117.7994,40.9605,承德市,滨河大街98号,细颗粒物(PM2.5),52,38,49,36,23,33,,65,60,28,28,5,4,0.5,0.7
2026-01-23T2000,2314A,117.4698,30.6617,池州市,池州学院,细颗粒物(PM2.5),77,69,69,56,56,66,,85,84,33,32,6,5,0.6,0.8
2026-01-23T2000,3237A,117.4918,30.6617,池州市,展览馆,细颗粒物(PM2.5),82,67,65,60,48,29,,83,76,50,38,2,3,0.9,1.1
2026-01-23T2000,3333A,117.5626,30.695,池州市,第八中学,细颗粒物(PM2.5),73,67,68,53,51,74,,86,85,30,35,8,6,0.5,0.8
2026-01-23T2000,3334A,117.5037,30.6242,池州市,第十二中学,细颗粒物(PM2.5),70,71,75,51,53,20,,85,77,75,42,3,4,0.9,1.4
2026-01-23T2000,1744A,118.9229,42.2816,赤峰市,松山一中,,23,23,48,3,23,35,,66,62,37,38,4,8,0.8,1.2
2026-01-23T2000,1745A,118.9588,42.2733,赤峰市,哈达街,,22,22,46,13,22,47,,62,60,20,31,6,15,0.6,0.9
2026-01-23T2000,1746A,118.8792,42.2551,赤峰市,天义路,,22,20,30,15,27,38,,67,62,33,32,7,6,0.7,1.1
2026-01-23T2000,3058A,119.2656,42.0356,赤峰市,银河街,,26,26,81,14,48,59,,71,70,14,28,15,20,0.8,1.6
2026-01-23T2000,3286A,118.9359,42.3146,赤峰市,桥北物流园区,,30,30,44,12,22,38,,72,68,31,31,6,7,0.6,0.7
2026-01-23T2000,2521A,107.3473,22.4137,崇左市,市环保局江州分局,颗粒物(PM10),55,59,38,34,27,40,,46,46,18,14,5,5,0.8,0.8
2026-01-23T2000,4256A,107.375,22.3736,崇左市,石景林东路7号,细颗粒物(PM2.5),65,,36,47,29,45,,49,49,18,15,1,2,0.5,0.6
2026-01-23T2000,3207A,118.31131,32.3033,滁州市,市政府原办公楼,细颗粒物(PM2.5),69,71,64,50,44,63,,79,79,34,40,5,6,0.6,0.7
2026-01-23T2000,3331A,118.3268,32.2633,滁州市,图书馆,细颗粒物(PM2.5),63,62,60,45,44,62,,72,72,30,40,7,8,0.8,0.8
2026-01-23T2000,4101A,118.3196,32.3335,滁州市,银山路666号,细颗粒物(PM2.5),83,64,57,61,58,52,,86,84,30,28,4,5,0.5,0.5
2026-01-23T2000,4102A,118.3426,32.2979,滁州市,黄山路555号,细颗粒物(PM2.5),77,72,74,56,60,66,,84,84,26,40,15,16,0.8,1
2026-01-23T2000,2606A,101.5379,25.0492,楚雄彝族自治州,市经济开发区,,29,29,30,18,21,75,,79,79,11,24,3,4,0.6,0.5
2026-01-23T2000,4153A,101.5536,25.0343,楚雄彝族自治州,团结路562号,,25,18,28,15,17,78,,80,80,6,16,4,6,0.3,0.4
2026-01-23T2000,2549A,107.5087,31.2186,达州市,市环境监测站,,,76,86,,68,18,,33,33,49,29,6,7,0.9,0.8
2026-01-23T2000,2550A,107.4988,31.2132,达州市,凤凰小区,,,85,88,,67,18,,38,38,53,31,5,5,0.9,0.8
2026-01-23T2000,2551A,107.5081,31.1987,达州市,达县机关宾馆,颗粒物(PM10),73,95,89,50,61,5,,36,35,64,35,3,3,1.1,1
2026-01-23T2000,2552A,107.4644,31.2124,达州市,市政中心,细颗粒物(PM2.5),77,87,91,56,59,13,,36,36,62,35,6,8,0.8,0.7
2026-01-23T2000,2614A,100.2168,25.5818,大理白族自治州,大理市环境监测站,,26,23,20,14,20,81,,76,76,8,7,6,6,0.5,0.6
2026-01-23T2000,2615A,100.1542,25.7055,大理白族自治州,大理古城,,45,38,20,31,15,67,,90,87,19,9,8,8,0.9,0.8
2026-01-23T2000,1109A,121.6119,38.974,大连市,甘井子,,37,37,59,17,44,66,,69,69,26,42,9,9,0.3,0.7
2026-01-23T2000,1110A,121.565,38.9509,大连市,周水子,颗粒物(PM10),52,54,70,21,46,33,,54,53,47,53,10,13,0.5,0.9
2026-01-23T2000,1111A,121.5637,38.8849,大连市,星海三站,,35,35,50,21,43,52,,60,59,25,30,9,9,0.6,0.9
2026-01-23T2000,1112A,121.6301,38.9117,大连市,青泥洼桥,,20,20,59,14,44,60,,57,57,19,38,10,10,0.5,0.9
2026-01-23T2000,1113A,121.6248,38.8643,大连市,傅家庄,,34,34,56,13,43,55,,54,54,20,29,7,14,0.7,0.9
2026-01-23T2000,1114A,121.5117,38.8636,大连市,七贤岭,,40,40,49,19,40,58,,59,59,17,17,8,8,1.0,0.8
2026-01-23T2000,1116A,121.7507,39.1339,大连市,金州,,42,37,54,29,42,73,,73,73,18,26,9,11,0.4,0.6
2026-01-23T2000,1117A,121.7811,39.0495,大连市,开发区,,49,49,63,31,46,54,,65,65,24,44,4,6,0.6,0.9
2026-01-23T2000,1118A,121.9762,39.0631,大连市,双D港,,37,37,46,19,35,66,,70,70,18,19,8,8,0.4,0.7
2026-01-23T2000,4082A,121.2548,38.8188,大连市,旅顺,细颗粒物(PM2.5),59,51,61,42,47,44,,60,59,31,26,12,10,0.9,1
2026-01-23T2000,1789A,124.8085,46.0381,大庆市,大同区,细颗粒物(PM2.5),79,81,49,58,30,35,,71,62,48,21,10,8,1.2,0.8
2026-01-23T2000,1790A,125.1166,46.5255,大庆市,龙凤区,,39,39,40,17,24,38,,59,52,38,28,8,9,0.4,0.5
2026-01-23T2000,1791A,124.8894,46.4007,大庆市,红岗区,,39,39,35,26,21,27,,56,48,40,22,5,5,0.6,0.4
2026-01-23T2000,1792A,125.1391,46.578,大庆市,萨尔图区,,35,35,33,13,16,35,,57,52,36,26,8,10,0.7,0.6
2026-01-23T2000,1793A,124.9026,46.6217,大庆市,让胡路区,,30,30,28,13,26,58,,74,70,25,15,8,8,0.4,0.6
2026-01-23T2000,3481A,125.127,46.6277,大庆市,萨区政府监测点,,,,31,,18,,,65,63,,20,,10,,0.6
2026-01-23T2000,1723A,113.2926,40.0759,大同市,云冈宾馆,颗粒物(PM10),54,57,78,24,43,42,,46,46,39,43,10,16,0.8,1.6
2026-01-23T2000,1724A,113.3437,40.0921,大同市,大同大学,颗粒物(PM10),55,59,77,33,40,39,,52,50,44,38,9,19,0.8,1.2
2026-01-23T2000,1725A,113.2637,40.129,大同市,安家小村,细颗粒物(PM2.5),57,62,95,40,43,33,,47,46,46,44,16,18,0.8,1.9
2026-01-23T2000,3282A,113.3399,40.0586,大同市,大同市卫生学校,颗粒物(PM10),58,66,79,37,39,43,,50,50,46,44,7,16,0.8,1.3
2026-01-23T2000,3565A,113.1371,40.1122,大同市,云冈站,颗粒物(PM10),54,58,67,25,33,6,,61,57,70,38,11,14,0.7,0.9
2026-01-23T2000,3566A,113.1186,40.2556,大同市,图书馆,,49,46,65,34,38,38,,64,62,24,22,5,7,0.7,1
2026-01-23T2000,3567A,113.5931,40.0459,大同市,区一中,细颗粒物(PM2.5),112,135,99,84,57,33,,52,50,40,33,33,26,1.7,1.7
2026-01-23T2000,4199A,113.2798248,40.09972476,大同市,魏都大道141号,颗粒物(PM10),57,63,104,34,47,32,,46,46,52,52,10,15,0.7,1.7
2026-01-23T2000,2269A,124.1068,50.4091,大兴安岭地区,科技局,,27,27,18,10,7,64,,67,66,4,3,6,6,0.3,0.1
2026-01-23T2000,3663A,124.117,50.4279,大兴安岭地区,红旗社区,,25,,5,17,7,62,,71,69,8,3,8,5,0.4,0.3
2026-01-23T2000,1600A,124.33,40.0625,丹东市,江湾东路,,34,34,71,16,45,56,,48,48,20,37,7,18,0.6,1.6
2026-01-23T2000,1601A,124.4242,40.1513,丹东市,临江后街,,31,31,58,14,46,61,,50,50,13,32,9,15,0.6,1.1
2026-01-23T2000,1602A,124.3935,40.1461,丹东市,元宝山,,32,32,61,19,44,55,,55,55,18,33,14,19,0.3,0.9
2026-01-23T2000,1603A,124.3634,40.1093,丹东市,民主桥,,26,26,70,14,44,57,,45,45,19,41,9,16,0.6,1.2
2026-01-23T2000,3541A,109.5726195,19.51688767,儋州市,第一中学子站,颗粒物(PM10),54,58,52,25,23,59,,67,67,14,10,4,4,0.7,0.7
2026-01-23T2000,3542A,109.5567,19.5187,儋州市,东坡学校子站,,45,45,50,20,26,73,,81,80,14,9,6,4,0.8,0.8
2026-01-23T2000,2616A,98.5611,24.4273,德宏傣族景颇族自治州,德宏州监测站,颗粒物(PM10),61,71,52,35,42,47,,79,79,35,24,6,7,0.9,0.7
2026-01-23T2000,3677A,98.5887,24.4366,德宏傣族景颇族自治州,芒市人民政府综合楼,,50,50,50,13,29,59,,77,77,16,14,4,5,0.7,0.8
2026-01-23T2000,1901A,104.424,31.1209,德阳市,东山公园,细颗粒物(PM2.5),75,55,44,55,41,28,,31,31,13,12,1,1,0.7,0.7
2026-01-23T2000,1902A,104.3827,31.1318,德阳市,西小区,细颗粒物(PM2.5),77,71,59,56,45,13,,26,26,35,26,2,2,0.9,0.8
2026-01-23T2000,1904A,104.3553,31.1091,德阳市,耐火材料厂,细颗粒物(PM2.5),78,69,59,57,47,19,,23,23,29,29,1,1,0.8,0.7
2026-01-23T2000,4145A,104.4144,31.1495,德阳市,市林业局,细颗粒物(PM2.5),80,63,51,59,45,24,,31,31,26,27,2,2,0.8,0.7
2026-01-23T2000,1622A,116.3034,37.4675,德州市,儿童乐园,细颗粒物(PM2.5),163,158,117,124,85,66,,84,84,48,36,14,14,1.3,1
2026-01-23T2000,1624A,116.2992,37.4449,德州市,监理站,细颗粒物(PM2.5),153,161,106,117,82,74,,92,92,48,38,14,13,1.1,0.9
2026-01-23T2000,3066A,116.2722,37.438,德州市,九衢泉纯净水厂,细颗粒物(PM2.5),163,156,123,124,92,50,,81,79,63,45,7,9,1.2,1.1
2026-01-23T2000,3371A,116.3693,37.44,德州市,开发区人民医院,细颗粒物(PM2.5),149,158,116,114,84,68,,92,91,52,41,16,15,1.0,0.8
2026-01-23T2000,3511A,116.5687,37.3331,德州市,陵城艺术中心,细颗粒物(PM2.5),203,195,105,153,79,52,,77,72,55,39,33,20,1.3,0.8
2026-01-23T2000,4292A,116.352738,37.420875,德州市,新河东路,细颗粒物(PM2.5),192,180,113,144,88,45,,85,82,71,43,13,14,1.2,0.9
2026-01-23T2000,2621A,99.7054,27.8319,迪庆藏族自治州,迪庆州站,,32,32,32,19,24,66,,74,74,10,11,5,5,0.4,0.5
2026-01-23T2000,3180A,99.7122,27.8129,迪庆藏族自治州,质量技术监督局,,36,,28,25,20,72,,82,82,6,11,4,4,0.4,0.5
2026-01-23T2000,4257A,104.6092,35.5962,定西市,将台街,颗粒物(PM10),60,69,76,30,53,70,,88,88,20,29,14,15,0.4,0.9
2026-01-23T2000,4309A,104.6159,35.5701,定西市,正龙路62号,颗粒物(PM10),61,71,76,32,48,77,,90,90,9,11,8,8,0.5,0.8
2026-01-23T2000,1390A,113.7943,23.0132,东莞市,东城石井,颗粒物(PM10),52,54,34,28,19,14,,29,27,36,21,7,7,0.7,0.6
2026-01-23T2000,1391A,113.7384,22.9659,东莞市,南城西平,颗粒物(PM10),51,51,29,34,19,3,,31,26,51,29,7,6,0.9,0.7
2026-01-23T2000,3319A,113.7283,23.041,东莞市,万江金泰,颗粒物(PM10),57,64,32,39,20,14,,33,29,44,23,5,5,0.8,0.7
2026-01-23T2000,4129A,113.8666,23.1062,东莞市,裕兴路,,46,46,32,28,16,23,,32,32,25,20,5,6,0.7,0.7
2026-01-23T2000,4130A,114.0076,22.9739,东莞市,教育路1号,颗粒物(PM10),56,62,38,36,22,15,,36,34,40,24,7,5,0.8,0.7
2026-01-23T2000,4131A,113.7981,22.8124,东莞市,长怡路1号,,49,49,42,24,20,11,,33,32,46,34,7,6,0.7,0.6
2026-01-23T2000,1666A,118.6612,37.4313,东营市,市环保局,细颗粒物(PM2.5),110,112,99,83,67,26,,83,75,61,52,14,21,1.1,1
2026-01-23T2000,3036A,118.6903,37.4337,东营市,开发区管委会,细颗粒物(PM2.5),128,131,102,97,72,36,,86,77,55,51,6,6,1.0,0.9
2026-01-23T2000,3365A,118.5721,37.5654,东营市,垦利区民丰路,细颗粒物(PM2.5),119,124,97,90,67,,,83,80,,57,13,13,1.0,0.8
2026-01-23T2000,3498A,118.5063,37.8606,东营市,河口城区,细颗粒物(PM2.5),129,149,108,98,72,27,,76,66,72,54,7,10,1.3,1
2026-01-23T2000,3646A,118.4979,37.4623,东营市,胜利站,细颗粒物(PM2.5),134,121,95,102,71,36,,78,72,54,71,14,21,1.1,0.9
2026-01-23T2000,3734A,118.5753,37.4405,东营市,理想之城,细颗粒物(PM2.5),113,127,104,85,71,25,,76,66,59,56,7,13,1.0,1
2026-01-23T2000,1591A,110.0024,39.8127,鄂尔多斯市,综合楼,颗粒物(PM10),68,85,69,29,26,43,,78,72,41,29,14,10,0.6,0.6
2026-01-23T2000,1592A,109.9485,39.8259,鄂尔多斯市,巴音孟克林场办事处,颗粒物(PM10),64,78,61,24,24,47,,82,75,34,29,8,9,0.6,0.6
2026-01-23T2000,1593A,109.7734,39.5987,鄂尔多斯市,康泽苑,颗粒物(PM10),58,66,57,29,27,8,,82,76,75,27,10,9,0.9,0.6
2026-01-23T2000,1594A,109.8121,39.5987,鄂尔多斯市,华泰汽车城,颗粒物(PM10),64,78,63,20,26,13,,80,74,66,36,5,6,0.9,0.8
2026-01-23T2000,1595A,109.9734,39.7884,鄂尔多斯市,奥林花园,颗粒物(PM10),67,83,70,24,24,45,,73,69,39,35,7,9,0.5,0.7
2026-01-23T2000,2436A,114.894,30.3989,鄂州市,市政府,细颗粒物(PM2.5),107,113,79,80,70,,,71,71,46,30,6,6,1.1,0.9
2026-01-23T2000,2437A,114.8986,30.3714,鄂州市,赵家坝,细颗粒物(PM2.5),115,102,89,87,71,30,,74,70,53,34,9,8,1.3,1
2026-01-23T2000,3654A,114.8093,30.4091,鄂州市,精准医疗中心,细颗粒物(PM2.5),100,77,82,75,69,80,,84,84,23,31,32,9,0.6,0.8
2026-01-23T2000,2454A,109.4978,30.2979,恩施土家族苗族自治州,湖北民院,细颗粒物(PM2.5),74,,61,54,63,22,,50,47,26,16,6,6,1.0,0.8
2026-01-23T2000,3549A,109.5061,30.3771,恩施土家族苗族自治州,龙凤新区,细颗粒物(PM2.5),59,56,68,42,58,17,,44,41,22,21,7,7,0.8,0.7
2026-01-23T2000,2499A,108.3411,21.6159,防城港市,沙万,细颗粒物(PM2.5),57,50,31,40,22,36,,45,42,19,12,6,6,0.8,0.7
2026-01-23T2000,2500A,108.3515,21.7733,防城港市,防城档案局,细颗粒物(PM2.5),72,,36,52,22,37,,41,40,16,12,4,4,0.7,0.5
2026-01-23T2000,2501A,108.3506,21.6414,防城港市,大海花园,,46,42,29,32,21,39,,45,44,19,13,6,6,0.7,0.6
2026-01-23T2000,1371A,113.1293,23.0065,佛山市,湾梁,颗粒物(PM10),57,63,40,32,22,4,,18,12,44,29,/,/,/,/
2026-01-23T2000,1372A,113.1082,23.0477,佛山市,华材职中,颗粒物(PM10),64,78,48,40,27,8,,19,15,40,24,6,7,0.7,0.7
2026-01-23T2000,1373A,113.1439,23.045,佛山市,南海气象局,颗粒物(PM10),54,58,35,34,23,1,,19,10,53,35,/,/,/,/
2026-01-23T2000,1374A,113.2879,22.8094,佛山市,顺德苏岗,颗粒物(PM10),54,58,29,34,18,1,,20,14,54,33,/,/,0.9,0.8
2026-01-23T2000,1376A,112.8384,22.8678,佛山市,高明孔堂,细颗粒物(PM2.5),62,69,42,44,29,6,,20,17,44,26,/,/,/,/
2026-01-23T2000,1377A,112.8835,23.1584,佛山市,三水监测站,细颗粒物(PM2.5),53,46,35,37,26,24,,26,26,23,26,1,4,0.7,0.8
2026-01-23T2000,1378A,112.8668,23.185,佛山市,三水云东海,,50,,28,35,24,24,,27,26,25,24,/,/,/,/
2026-01-23T2000,3625A,113.2568,22.7629,佛山市,容桂街道办,颗粒物(PM10),60,70,37,39,23,2,,18,14,60,38,/,/,/,/
2026-01-23T2000,1282A,119.2681,26.0506,福州市,师大,,50,50,34,27,25,28,,38,38,30,24,3,4,0.7,0.6
2026-01-23T2000,1283A,119.2983,26.1028,福州市,五四北路,,43,43,30,23,26,25,,38,36,27,21,4,5,0.6,0.6
2026-01-23T2000,1284A,119.2648,26.0769,福州市,杨桥西路,,43,43,33,28,26,25,,35,35,23,16,4,5,/,/
2026-01-23T2000,3048A,119.5799,26.0937,福州市,九龙,,31,31,33,21,27,43,,48,48,23,23,6,6,0.7,0.7
2026-01-23T2000,3526A,119.5188,25.9666,福州市,吴航,,46,46,46,28,31,14,,44,18,51,30,6,7,0.6,0.6
2026-01-23T2000,4104A,119.3106,26.0648,福州市,路通桥巷6号,颗粒物(PM10),54,57,44,32,30,19,,36,33,34,20,/,/,/,/
2026-01-23T2000,1755A,123.7974,41.8494,抚顺市,望花区,细颗粒物(PM2.5),87,97,102,64,60,8,,61,53,72,48,12,7,1.3,1.3
2026-01-23T2000,1756A,123.9161,41.8827,抚顺市,顺城区,细颗粒物(PM2.5),138,108,97,105,75,10,,57,52,73,51,17,11,1.4,1.4
2026-01-23T2000,1757A,124.0437,41.8615,抚顺市,东洲区,"颗粒物(PM10),细颗粒物(PM2.5)",77,103,84,56,50,21,,49,46,59,41,39,16,1.1,1.1
2026-01-23T2000,1758A,123.9246,41.8638,抚顺市,新抚区,颗粒物(PM10),75,100,88,49,54,4,,56,52,76,52,8,7,1.4,1.3
2026-01-23T2000,1759A,124.0972,41.8961,抚顺市,大伙房水库,细颗粒物(PM2.5),63,61,59,45,40,35,,55,54,36,34,12,11,1.1,0.9
2026-01-23T2000,1760A,123.708,41.8386,抚顺市,沈抚新城,细颗粒物(PM2.5),148,113,96,113,61,16,,60,54,82,51,11,8,1.3,1.1
2026-01-23T2000,2377A,116.3544,27.9833,抚州市,市站,细颗粒物(PM2.5),108,91,67,81,50,,,48,48,43,19,9,10,1.3,1.4
2026-01-23T2000,2378A,116.3562,27.9631,抚州市,血防站,细颗粒物(PM2.5),69,70,68,50,46,30,,42,42,38,26,6,8,1.5,1.4
2026-01-23T2000,2379A,116.3561,28.0007,抚州市,采茶剧团,细颗粒物(PM2.5),82,84,66,60,49,17,,46,44,37,15,6,7,1.2,1.1
2026-01-23T2000,2380A,116.3854,27.9648,抚州市,医学分院,细颗粒物(PM2.5),63,68,70,45,46,41,,51,50,26,18,7,8,1.0,0.7
2026-01-23T2000,2207A,121.6095,41.9978,阜新市,工业园区,颗粒物(PM10),75,100,80,28,32,40,,66,59,29,28,20,17,0.7,0.7
2026-01-23T2000,2208A,121.6567,42.0188,阜新市,长青街,颗粒物(PM10),52,54,48,24,30,55,,77,72,18,21,8,12,0.4,0.6
2026-01-23T2000,2209A,121.6672,42.07,阜新市,农业园区,颗粒物(PM10),51,52,32,28,9,51,,66,62,15,9,22,9,0.4,0.3
2026-01-23T2000,2211A,121.6343,42.0455,阜新市,玉龙新城,颗粒物(PM10),53,56,58,11,19,45,,65,61,25,26,8,10,0.5,0.6
2026-01-23T2000,2301A,115.8276,32.8929,阜阳市,市监测站,细颗粒物(PM2.5),105,114,76,79,57,17,,98,88,95,28,4,4,1.0,0.5
2026-01-23T2000,2303A,115.8551,32.8606,阜阳市,开发区,,,,63,71,53,,,97,96,66,30,6,5,0.9,0.6
2026-01-23T2000,2875A,115.783962,32.889217,阜阳市,阜阳职业技术学院,细颗粒物(PM2.5),82,81,62,60,46,28,,106,97,83,20,7,8,0.9,0.7
2026-01-23T2000,3468A,115.79,32.8614,阜阳市,市规划展馆,细颗粒物(PM2.5),85,70,70,63,56,91,,110,110,26,20,6,6,0.6,0.4
2026-01-23T2000,3469A,115.835101,32.918568,阜阳市,枣园社区,细颗粒物(PM2.5),98,104,71,73,61,42,,103,95,65,26,4,5,0.6,0.4
2026-01-23T2000,2669A,102.9097,34.9841,甘南藏族自治州,州政府,颗粒物(PM10),77,103,57,33,27,5,,72,67,61,34,16,10,0.9,0.8
2026-01-23T2000,3380A,102.8915,34.9618,甘南藏族自治州,甘肃民族师范学院,颗粒物(PM10),86,121,58,23,17,5,,65,60,61,33,12,13,0.3,0.3
2026-01-23T2000,2570A,101.96,30.048,甘孜藏族自治州,水桥子,颗粒物(PM10),59,67,30,20,8,24,,58,56,46,30,6,6,0.7,0.4
2026-01-23T2000,3065A,101.9534,29.9976,甘孜藏族自治州,州环保局,,21,21,18,7,6,60,,70,69,16,11,6,6,0.5,0.4
2026-01-23T2000,2363A,114.9368,25.8663,赣州市,地委,,50,50,55,30,35,42,,49,49,16,16,7,7,0.6,0.5
2026-01-23T2000,2364A,114.946,25.8483,赣州市,气象台,颗粒物(PM10),61,72,68,27,33,25,,40,40,33,22,6,6,0.5,0.5
2026-01-23T2000,2365A,114.932,25.8332,赣州市,市图书馆,,45,43,49,31,37,33,,39,39,24,22,4,4,0.6,0.6
2026-01-23T2000,2366A,114.8905,25.8472,赣州市,华坚鞋城,细颗粒物(PM2.5),52,52,49,36,38,33,,42,41,22,17,4,5,0.5,0.4
2026-01-23T2000,3109A,115.0094,25.8614,赣州市,赣县区卫计委,细颗粒物(PM2.5),87,,61,64,53,30,,40,38,16,11,7,8,0.7,0.7
2026-01-23T2000,2684A,106.2753,36.0057,固原市,监测站,颗粒物(PM10),60,70,81,36,54,62,,79,79,30,40,9,11,0.6,1.2
2026-01-23T2000,2685A,106.2384,36.0189,固原市,新区,,,86,91,48,60,,,78,78,60,45,10,8,0.8,1.5
2026-01-23T2000,2544A,106.6307,30.4577,广安市,市委,,45,44,52,31,38,50,,56,56,26,18,8,9,1.0,0.9
2026-01-23T2000,2545A,106.6266,30.4662,广安市,友谊中学,,46,39,44,32,37,54,,59,59,21,18,6,6,0.7,0.8
2026-01-23T2000,2547A,106.6386,30.4551,广安市,广电花园,,46,46,49,26,41,50,,49,49,21,17,5,7,0.8,0.7
2026-01-23T2000,2902A,106.6347,30.4868,广安市,北辰小学,细颗粒物(PM2.5),58,55,47,41,41,52,,61,61,20,16,4,4,1.1,1
2026-01-23T2000,2524A,105.8211,32.4444,广元市,老城,细颗粒物(PM2.5),75,71,67,55,49,19,,35,33,47,31,3,3,1.0,1
2026-01-23T2000,2526A,105.8629,32.429,广元市,监测站,细颗粒物(PM2.5),64,70,63,46,49,13,,31,31,45,28,7,8,1.0,1
2026-01-23T2000,3617A,105.8047,32.4167,广元市,经开区,细颗粒物(PM2.5),59,55,61,42,47,14,,30,29,38,29,3,6,0.8,0.9
2026-01-23T2000,1345A,113.2346,23.1423,广州市,广雅中学,颗粒物(PM10),77,104,44,55,25,2,,20,12,53,36,4,3,0.7,0.4
2026-01-23T2000,1346A,113.2611,23.105,广州市,市五中,"颗粒物(PM10),细颗粒物(PM2.5)",65,80,41,47,26,3,,27,15,70,43,11,10,/,/
2026-01-23T2000,1348A,113.3477,23.0916,广州市,广东商学院,细颗粒物(PM2.5),67,70,36,48,24,6,,24,20,37,15,7,6,0.7,0.6
2026-01-23T2000,1349A,113.4332,23.105,广州市,市八十六中,颗粒物(PM10),54,58,23,37,21,17,,26,26,35,26,8,7,/,/
2026-01-23T2000,1350A,113.3506,22.9488,广州市,番禺中学,"颗粒物(PM10),细颗粒物(PM2.5)",70,89,43,51,25,6,,25,21,56,32,5,3,0.7,0.6
2026-01-23T2000,1351A,113.2147,23.3918,广州市,花都师范,细颗粒物(PM2.5),64,63,37,46,33,19,,25,20,34,25,6,9,0.7,0.7
2026-01-23T2000,1352A,113.2599,23.1329,广州市,市监测站,细颗粒物(PM2.5),72,82,42,52,28,2,,24,12,48,30,4,3,/,/
2026-01-23T2000,1353A,113.5618,23.3119,广州市,九龙镇镇龙,细颗粒物(PM2.5),67,82,34,48,22,23,,29,29,33,21,6,5,0.6,0.5
2026-01-23T2000,1354A,113.2764,23.1544,广州市,麓湖,细颗粒物(PM2.5),63,70,39,45,28,2,,21,13,48,30,12,11,0.9,0.8
2026-01-23T2000,2846A,113.3209,23.1323,广州市,体育西,细颗粒物(PM2.5),70,81,40,51,26,7,,22,18,46,28,8,7,0.8,0.7
2026-01-23T2000,3298A,113.5718,23.5493,广州市,从化街口,细颗粒物(PM2.5),59,60,29,42,21,22,,35,31,30,13,11,9,0.6,0.4
2026-01-23T2000,3299A,113.3463,23.369,广州市,白云竹料,细颗粒物(PM2.5),58,61,34,41,22,26,,37,34,26,20,4,5,0.8,0.7
2026-01-23T2000,3300A,113.2981,23.2365,广州市,白云嘉禾,颗粒物(PM10),62,74,38,41,22,2,,30,16,50,28,7,6,/,/
2026-01-23T2000,3301A,113.4256,23.1716,广州市,黄埔科学城,细颗粒物(PM2.5),73,72,35,53,23,21,,31,30,34,24,8,7,0.6,0.5
2026-01-23T2000,3302A,113.3942,23.0485,广州市,番禺大学城,颗粒物(PM10),56,62,34,35,18,7,,,,50,28,6,5,0.6,0.6
2026-01-23T2000,3303A,113.4923,22.8169,广州市,南沙黄阁,细颗粒物(PM2.5),53,40,24,37,21,14,,22,20,48,37,6,6,/,/
2026-01-23T2000,3304A,113.534,22.7893,广州市,南沙街,颗粒物(PM10),63,75,43,37,22,3,,22,18,59,35,7,8,0.9,0.9
2026-01-23T2000,3443A,113.2905,23.5541,广州市,花都梯面,"颗粒物(PM10),细颗粒物(PM2.5)",53,56,36,37,25,24,,33,26,19,13,6,11,/,/
2026-01-23T2000,3445A,113.786,23.7479,广州市,从化良口,,39,38,23,27,17,24,,31,31,17,11,8,7,/,/
2026-01-23T2000,3446A,113.805,23.2614,广州市,增城荔城,,39,36,21,27,15,28,,31,30,18,15,6,6,0.6,0.6
2026-01-23T2000,2506A,109.604387,23.066791,贵港市,江南子站,细颗粒物(PM2.5),79,70,52,58,39,26,,30,30,22,14,4,4,0.8,0.7
2026-01-23T2000,2508A,109.5669,23.1065,贵港市,荷城子站,细颗粒物(PM2.5),89,90,43,66,30,20,,29,28,31,17,4,4,1.0,0.9
2026-01-23T2000,3405A,109.5886,23.1172,贵港市,新世纪学校,细颗粒物(PM2.5),97,105,50,72,33,20,,32,30,30,16,/,/,0.6,0.5
2026-01-23T2000,4260A,109.5933,23.095,贵港市,中山路155-3号,细颗粒物(PM2.5),79,70,44,58,36,26,,34,32,28,16,/,/,0.8,0.8
2026-01-23T2000,1439A,106.6863,26.6035,贵阳市,马鞍山,细颗粒物(PM2.5),67,56,41,48,33,30,,44,25,18,20,9,11,/,/
2026-01-23T2000,1441A,106.6241,26.6266,贵阳市,鉴湖路,细颗粒物(PM2.5),73,85,56,53,34,16,,38,22,29,23,6,8,0.8,0.7
2026-01-23T2000,1442A,106.7468,26.6344,贵阳市,燕子冲,细颗粒物(PM2.5),77,56,29,56,37,36,,50,32,17,15,12,12,0.7,0.7
2026-01-23T2000,1443A,106.6556,26.4362,贵阳市,碧云窝,细颗粒物(PM2.5),70,73,56,51,34,22,,36,34,32,21,10,7,/,/
2026-01-23T2000,1445A,106.6963,26.6063,贵阳市,红边门,细颗粒物(PM2.5),85,66,43,63,32,27,,47,22,27,22,16,14,/,/
2026-01-23T2000,1446A,106.7162383,26.56964667,贵阳市,新华路,细颗粒物(PM2.5),70,68,52,51,28,30,,47,27,28,24,10,9,0.7,0.7
2026-01-23T2000,1447A,106.6742,26.542,贵阳市,太慈桥,细颗粒物(PM2.5),70,66,45,51,31,34,,46,30,28,24,6,7,/,/
2026-01-23T2000,4230A,106.688212,26.56952,贵阳市,花果园大街66号,细颗粒物(PM2.5),87,,38,64,42,25,,37,20,23,23,9,9,/,/
2026-01-23T2000,4231A,106.687268,26.516892,贵阳市,漓江路57号,,,,46,,31,,,35,22,,24,15,12,0.8,0.6
2026-01-23T2000,1864A,110.3091,25.2705,桂林市,龙隐路小学,细颗粒物(PM2.5),60,43,31,43,39,36,,45,45,20,11,7,7,0.8,0.7
2026-01-23T2000,1865A,110.2849361,25.22909545,桂林市,八中,细颗粒物(PM2.5),73,54,34,53,35,30,,42,42,31,16,8,8,0.5,0.5
2026-01-23T2000,3531A,110.296,25.1254,桂林市,旅游学院,颗粒物(PM10),52,54,54,34,25,44,,53,52,16,7,5,5,0.4,0.4
2026-01-23T2000,4222A,110.1835,25.2444,桂林市,环湖路276号,细颗粒物(PM2.5),55,41,32,39,30,38,,45,45,21,11,7,7,0.7,0.6
2026-01-23T2000,4301A,110.2803,25.2773,桂林市,信义路13号,,49,49,34,33,28,26,,44,43,36,15,10,4,0.8,0.8
2026-01-23T2000,2674A,100.2262,34.4854,果洛藏族自治州,玛沁县大武镇,颗粒物(PM10),67,83,51,29,12,47,,78,77,17,8,14,18,0.7,0.5
2026-01-23T2000,1130A,126.5557,45.8109,哈尔滨市,松北商大,,,,51,,36,30,,47,43,,31,6,10,,0.7
2026-01-23T2000,1132A,126.6162,45.719,哈尔滨市,南岗学府路,,46,41,61,32,40,43,,57,57,27,27,8,9,0.7,0.8
2026-01-23T2000,1133A,126.6894,45.7733,哈尔滨市,太平宏伟公园,,23,20,51,16,37,58,,65,65,15,28,20,15,0.4,0.7
2026-01-23T2000,1134A,126.6361,45.7672,哈尔滨市,道外承德广场,,28,28,70,11,35,65,,67,67,16,37,8,15,0.8,0.5
2026-01-23T2000,1136A,126.644,45.7261,哈尔滨市,动力和平路,,28,25,59,19,41,41,,56,56,28,33,18,13,0.7,0.8
2026-01-23T2000,1137A,126.5933,45.7479,哈尔滨市,道里建国路,,28,28,52,19,42,48,,57,56,24,29,3,11,0.4,0.7
2026-01-23T2000,1138A,126.6127,45.6119,哈尔滨市,平房东轻厂,颗粒物(PM10),60,69,62,41,44,6,,48,37,78,36,22,9,1.1,1
2026-01-23T2000,1139A,126.5875,45.9827,哈尔滨市,呼兰师专,细颗粒物(PM2.5),77,,55,56,50,18,,49,40,55,32,17,13,0.9,0.8
2026-01-23T2000,1140A,126.6299,45.6799,哈尔滨市,省农科院,细颗粒物(PM2.5),103,92,65,77,54,9,,48,42,67,39,26,12,1.4,0.8
2026-01-23T2000,4282A,126.6769,45.7379,哈尔滨市,华山路1号,,27,27,66,15,43,52,,58,58,20,38,9,33,0.3,0.5
2026-01-23T2000,4283A,126.9717,45.5356,哈尔滨市,解放大街52号,颗粒物(PM10),66,82,54,47,44,38,,58,56,37,21,14,12,0.8,0.6
2026-01-23T2000,2688A,93.5124,42.8176,哈密市,地区监测站,颗粒物(PM10),80,110,111,42,55,19,,40,40,30,27,9,9,0.3,0.4
2026-01-23T2000,2689A,93.5014,42.8312,哈密市,哈密师范学校,颗粒物(PM10),76,101,113,31,38,19,,44,42,36,36,8,7,0.9,1
2026-01-23T2000,2671A,100.9016,36.9464,海北藏族自治州,海晏县西海镇,,37,37,23,18,10,54,,80,78,6,3,6,7,0.3,0.4
2026-01-23T2000,3867A,102.074,36.5056,海东市,平安区公安局北苑,颗粒物(PM10),59,68,73,35,48,46,,68,68,21,27,13,23,1.0,1.2
2026-01-23T2000,4163A,102.0984,36.5119,海东市,滨河路,颗粒物(PM10),63,75,75,38,52,20,,76,70,57,41,9,23,0.6,0.9
2026-01-23T2000,1410A,110.3189,20.0596,海口市,海南大学,颗粒物(PM10),52,53,43,32,25,72,,72,72,16,13,6,6,0.6,0.5
2026-01-23T2000,1411A,110.2827,20.0051,海口市,秀英海南医院,,47,47,42,31,23,68,,71,71,17,14,8,8,0.5,0.5
2026-01-23T2000,1412A,110.3391,19.9979,海口市,海南师范大学,,50,46,40,35,25,69,,73,73,18,15,6,6,0.6,0.6
2026-01-23T2000,1413A,110.3303,20.0359,海口市,龙华路环保局宿舍,,49,46,40,34,25,70,,72,72,18,15,/,/,0.8,0.7
2026-01-23T2000,3539A,110.5111,19.9737,海口市,桂林洋子站,颗粒物(PM10),53,56,43,35,26,66,,71,71,17,14,/,/,/,/
2026-01-23T2000,4134A,110.1952,20.0451,海口市,长滨二路9号,,50,46,39,35,24,70,,69,69,12,12,/,/,/,/
2026-01-23T2000,2673A,100.6158,36.2985,海南藏族自治州,共和县恰卜恰镇,颗粒物(PM10),63,76,37,13,17,31,,74,71,41,21,13,13,0.7,0.6
2026-01-23T2000,2676A,97.373,37.376,海西蒙古族藏族自治州,德令哈市,,38,38,31,15,11,86,,90,89,6,4,15,17,0.5,0.6
2026-01-23T2000,1049A,114.492,36.5712,邯郸市,矿院,细颗粒物(PM2.5),190,148,109,143,107,10,,68,64,88,44,6,8,1.2,0.8
2026-01-23T2000,1050A,114.4839,36.6136,邯郸市,丛台公园,细颗粒物(PM2.5),176,151,123,133,110,63,,75,75,42,37,5,5,1.0,0.9
2026-01-23T2000,3458A,114.7893,36.5592,邯郸市,香泉濮院小区,细颗粒物(PM2.5),147,177,107,112,93,64,,87,81,46,30,8,4,0.9,0.7
2026-01-23T2000,3580A,114.1998,36.4439,邯郸市,峰峰矿区临水派出所,细颗粒物(PM2.5),145,122,118,111,107,82,,83,83,26,35,10,16,1.3,1.5
2026-01-23T2000,4068A,114.5209,36.7697,邯郸市,建安街268号,细颗粒物(PM2.5),172,151,129,130,118,3,,59,54,99,53,5,6,0.9,1
2026-01-23T2000,4069A,114.5488,36.6177,邯郸市,丛台东路558号,细颗粒物(PM2.5),186,,112,140,112,63,,78,78,38,35,7,4,1.1,0.9
2026-01-23T2000,2635A,107.0155,33.0707,汉中市,市监测站,细颗粒物(PM2.5),90,90,60,67,54,13,,32,32,50,27,6,6,1.4,1
2026-01-23T2000,2636A,107.0083,33.114,汉中市,鑫源开发区,细颗粒物(PM2.5),90,75,66,67,59,14,,34,34,49,30,5,6,1.0,0.9
2026-01-23T2000,2637A,107.0072,33.0323,汉中市,南郑大河坎水厂,细颗粒物(PM2.5),135,111,63,103,52,6,,35,35,51,25,8,6,1.6,0.9
2026-01-23T2000,1223A,120.2073,30.2111,杭州市,滨江,细颗粒物(PM2.5),75,71,72,55,54,49,,68,68,47,49,7,7,0.5,0.6
2026-01-23T2000,1224A,120.0625,30.2737,杭州市,西溪,细颗粒物(PM2.5),70,69,64,51,45,31,,69,65,34,43,8,8,0.6,0.5
2026-01-23T2000,1226A,120.3417,30.315,杭州市,下沙,细颗粒物(PM2.5),89,89,74,66,53,8,,63,54,100,60,9,8,0.6,0.7
2026-01-23T2000,1227A,120.1252,30.2465,杭州市,卧龙桥,细颗粒物(PM2.5),64,65,62,46,44,21,,60,56,46,34,9,9,0.5,0.4
2026-01-23T2000,1228A,120.1902,30.2691,杭州市,浙江农大,细颗粒物(PM2.5),79,76,75,58,57,45,,64,62,58,58,6,6,0.7,0.7
2026-01-23T2000,1230A,120.1195,30.3121,杭州市,和睦小学,细颗粒物(PM2.5),78,92,77,57,49,38,,67,65,55,46,5,6,0.8,0.8
2026-01-23T2000,1231A,120.3076,30.4146,杭州市,临平镇,细颗粒物(PM2.5),79,92,80,58,55,4,,54,47,94,55,8,8,0.8,0.7
2026-01-23T2000,1232A,120.2753,30.1839,杭州市,城厢镇,颗粒物(PM10),64,78,72,43,49,35,,78,75,66,49,8,8,0.3,0.4
2026-01-23T2000,1233A,120.0883,30.1808,杭州市,云栖,细颗粒物(PM2.5),72,79,77,52,47,27,,56,55,42,36,3,3,0.5,0.5
2026-01-23T2000,3557A,119.9463,30.0496,杭州市,镇二中,细颗粒物(PM2.5),84,74,56,62,56,27,,62,61,63,47,5,5,0.8,0.7
2026-01-23T2000,3558A,119.7184,30.2367,杭州市,市府大楼,细颗粒物(PM2.5),92,81,54,68,53,36,,77,73,43,28,12,10,1.2,1
2026-01-23T2000,3656A,120.1554,30.2863,杭州市,消防大队,细颗粒物(PM2.5),83,76,68,61,53,29,,66,62,60,50,7,7,0.6,0.4
2026-01-23T2000,1270A,117.1957,31.7845,合肥市,明珠广场,颗粒物(PM10),90,129,79,61,48,4,,58,48,103,52,7,6,1.0,1
2026-01-23T2000,1271A,117.307,31.8765,合肥市,三里街,颗粒物(PM10),91,132,81,61,47,15,,51,44,88,57,6,6,1.0,1.1
2026-01-23T2000,1272A,117.2587,31.8703,合肥市,琥珀山庄,细颗粒物(PM2.5),92,105,74,68,53,11,,60,53,102,62,7,8,1.3,1
2026-01-23T2000,1275A,117.2593,31.9376,合肥市,庐阳区,颗粒物(PM10),90,129,81,63,45,5,,68,60,108,66,8,7,0.9,0.8
2026-01-23T2000,1276A,117.345251,31.861615,合肥市,瑶海区,颗粒物(PM10),79,107,73,49,46,16,,60,54,96,58,4,5,0.7,0.5
2026-01-23T2000,1277A,117.3033,31.7967,合肥市,包河区,细颗粒物(PM2.5),100,127,84,75,56,3,,55,45,141,81,12,9,1.0,0.8
2026-01-23T2000,1278A,117.278,31.7392,合肥市,滨湖新区,细颗粒物(PM2.5),85,92,63,63,51,25,,68,65,70,38,3,4,1.0,0.7
2026-01-23T2000,1279A,117.1324,31.8395,合肥市,高新区,细颗粒物(PM2.5),68,70,63,49,42,42,,73,70,66,47,4,5,0.7,0.7
2026-01-23T2000,3464A,117.3802,31.9148,合肥市,高教基地,细颗粒物(PM2.5),98,97,74,73,59,4,,62,52,78,54,8,8,0.8,0.7
2026-01-23T2000,4098A,117.2518,31.8404,合肥市,中国科学技术大学,细颗粒物(PM2.5),75,97,78,55,47,27,,55,52,75,50,8,9,1.0,0.8
2026-01-23T2000,3614A,79.9241,37.0878,和田地区,地区环保局,颗粒物(PM10),500,986,1092,223,251,49,,48,48,13,16,1,2,0.2,0.4
2026-01-23T2000,3615A,79.9132,37.1137,和田地区,市环保局,颗粒物(PM10),500,1006,1120,221,219,45,,49,49,7,13,3,2,1.7,0.9
2026-01-23T2000,2517A,108.0496,24.6957,河池市,市环保站,,38,38,30,26,21,52,,53,53,11,9,7,12,0.7,0.6
2026-01-23T2000,4302A,108.0901,24.6945,河池市,上任中路54号,,45,34,33,31,30,45,,46,46,23,15,6,11,0.6,0.6
2026-01-23T2000,1697A,114.6962,23.7538,河源市,东埔,细颗粒物(PM2.5),54,42,28,38,26,28,,31,31,21,15,5,5,0.5,0.4
2026-01-23T2000,1698A,114.6895,23.7232,河源市,老城,,49,44,26,34,24,30,,33,33,18,14,6,6,0.7,0.7
2026-01-23T2000,3374A,115.5562,35.089,菏泽市,定陶老年大学,细颗粒物(PM2.5),138,132,102,105,80,73,,89,89,40,28,5,5,0.5,0.5
2026-01-23T2000,4114A,115.4239,35.2593,菏泽市,黄河路600号,细颗粒物(PM2.5),220,228,112,170,95,21,,84,78,98,30,5,4,1.5,0.7
2026-01-23T2000,4115A,115.5025,35.2727,菏泽市,菏泽市人社局,细颗粒物(PM2.5),203,197,110,153,91,22,,78,69,77,31,12,9,1.2,0.7
2026-01-23T2000,4184A,115.479691,35.244011,菏泽市,永昌路1号,细颗粒物(PM2.5),185,189,108,139,87,34,,80,75,68,29,5,4,0.9,0.4
2026-01-23T2000,4193A,115.471542,35.280012,菏泽市,长城路999号,细颗粒物(PM2.5),207,205,106,157,83,22,,78,71,89,30,8,10,1.5,0.8
2026-01-23T2000,2514A,111.5264,24.4178,贺州市,环保小区,细颗粒物(PM2.5),77,84,36,56,31,29,,33,30,23,16,4,3,0.8,0.5
2026-01-23T2000,2515A,111.561,24.4074,贺州市,政协大楼,细颗粒物(PM2.5),57,54,37,40,25,32,,33,31,19,15,10,9,0.7,0.6
2026-01-23T2000,3534A,111.4744,24.455,贺州市,西湾,细颗粒物(PM2.5),78,75,38,57,30,22,,36,35,33,17,9,7,1.1,0.7
2026-01-23T2000,2385A,114.17,35.9019,鹤壁市,市监测站,细颗粒物(PM2.5),235,198,168,185,146,42,,67,67,54,37,9,10,1.8,1.5
2026-01-23T2000,2386A,114.2953,35.7512,鹤壁市,市交警支队,细颗粒物(PM2.5),212,186,144,162,127,37,,63,63,71,41,14,8,1.4,1.2
2026-01-23T2000,2387A,114.2877,35.7302,鹤壁市,迎宾馆,细颗粒物(PM2.5),206,187,142,156,120,43,,73,73,64,37,12,9,1.5,1.3
2026-01-23T2000,3474A,114.2616,35.6824,鹤壁市,大新区,细颗粒物(PM2.5),230,180,129,180,119,30,,71,69,82,47,10,8,1.8,1.1
2026-01-23T2000,3596A,114.1573,35.9607,鹤壁市,南山宾馆,细颗粒物(PM2.5),222,199,168,172,145,62,,75,75,38,35,10,11,1.4,1.5
2026-01-23T2000,2244A,130.2537,47.3416,鹤岗市,哈啤分公司,,40,32,25,28,17,74,,80,80,11,7,10,6,0.4,0.3
2026-01-23T2000,2245A,130.2683,47.3087,鹤岗市,斯达机电,,39,39,26,18,11,66,,75,73,12,8,8,6,0.5,0.5
2026-01-23T2000,2246A,130.3114,47.3388,鹤岗市,东山纸板厂,,24,,27,11,16,74,,75,75,6,10,8,8,0.5,0.8
2026-01-23T2000,2263A,127.4832,50.2524,黑河市,交通局,,23,18,16,16,14,73,,79,76,6,10,4,4,0.2,0.2
2026-01-23T2000,2264A,127.5146,50.2339,黑河市,环保局,,26,26,15,17,9,69,,75,70,9,9,4,4,0.4,0.3
2026-01-23T2000,1074A,115.6839,37.754,衡水市,电机北厂,细颗粒物(PM2.5),176,156,142,133,114,65,,72,72,39,45,7,8,0.9,0.9
2026-01-23T2000,1075A,115.6303,37.7318,衡水市,市监测站,细颗粒物(PM2.5),158,149,130,120,107,59,,70,70,41,43,9,10,1.1,1
2026-01-23T2000,3188A,115.6684,37.7216,衡水市,市城管局,细颗粒物(PM2.5),152,137,136,116,98,58,,69,69,48,47,9,9,1.0,1
2026-01-23T2000,3459A,115.599,37.5491,衡水市,地表水厂,,,142,121,,111,7,,70,59,96,64,,10,0.8,0.8
2026-01-23T2000,2457A,112.6209,26.9268,衡阳市,衡阳化工总厂,细颗粒物(PM2.5),52,,56,36,56,46,,56,56,16,21,7,8,1.0,1
2026-01-23T2000,2458A,112.621,26.8957,衡阳市,珠晖区环保局,细颗粒物(PM2.5),58,,56,41,53,47,,55,55,16,20,4,4,0.9,0.9
2026-01-23T2000,2459A,112.628,26.8654,衡阳市,市委党校,细颗粒物(PM2.5),53,,51,37,57,49,,54,54,8,13,10,10,1.0,0.9
2026-01-23T2000,2460A,112.6007,26.8977,衡阳市,市监测站,颗粒物(PM10),55,60,73,35,45,47,,56,56,15,19,5,5,0.9,0.8
2026-01-23T2000,2461A,112.5658,26.9013,衡阳市,真空机电公司,颗粒物(PM10),56,62,71,39,55,39,,48,48,28,27,5,6,1.0,0.9
2026-01-23T2000,3399A,112.6703,26.8817,衡阳市,师范学院,细颗粒物(PM2.5),53,38,72,37,48,39,,52,52,19,18,2,2,0.8,1
2026-01-23T2000,3038A,103.3757,23.3679,红河哈尼族彝族自治州,州图书馆,,34,34,15,22,9,69,,75,75,9,8,7,6,0.6,0.7
2026-01-23T2000,4154A,103.401,23.3561,红河哈尼族彝族自治州,蒙自市朝阳路,,30,,13,21,11,70,,78,78,6,6,6,6,0.6,0.6
2026-01-23T2000,1090A,111.6506,40.7517,呼和浩特市,呼市一监,细颗粒物(PM2.5),95,127,86,71,49,7,,43,40,64,45,16,16,1.0,1.1
2026-01-23T2000,1094A,111.7516,40.8369,呼和浩特市,如意水处理厂,细颗粒物(PM2.5),72,81,73,52,42,5,,55,44,69,52,15,15,0.8,1.3
2026-01-23T2000,1095A,111.727798,40.806187,呼和浩特市,二十九中,细颗粒物(PM2.5),80,100,74,59,40,13,,47,43,62,44,15,20,0.9,0.8
2026-01-23T2000,1097A,111.717,40.7617,呼和浩特市,化肥厂生活区,颗粒物(PM10),76,102,78,52,43,11,,46,43,67,47,8,12,0.9,1.1
2026-01-23T2000,3699A,111.6519,40.8389,呼和浩特市,海东办,颗粒物(PM10),74,97,79,43,40,2,,43,38,66,50,7,10,0.9,1
2026-01-23T2000,4275A,111.591512,40.827312,呼和浩特市,成吉思汗西街8号,颗粒物(PM10),68,85,66,35,30,11,,38,36,60,47,9,10,0.7,0.7
2026-01-23T2000,4276A,111.6597,40.8077,呼和浩特市,公园东路75号,颗粒物(PM10),87,124,79,53,41,20,,44,42,57,51,10,12,0.9,1.1
2026-01-23T2000,4277A,111.5427,40.7846,呼和浩特市,金海路35号,颗粒物(PM10),77,103,70,45,36,0,,42,35,66,48,11,12,1.0,0.9
2026-01-23T2000,3061A,119.7511,49.1576,呼伦贝尔市,国华电力东,,35,35,23,20,14,56,,61,59,18,14,8,7,0.5,0.4
2026-01-23T2000,4279A,119.7569,49.2222,呼伦贝尔市,伊敏大街东7号,,40,32,28,28,17,47,,57,56,21,19,9,9,0.3,0.4
2026-01-23T2000,1250A,120.075,30.867,湖州市,城西水厂,细颗粒物(PM2.5),62,70,60,44,40,60,,77,77,40,49,6,7,0.4,0.4
2026-01-23T2000,2873A,120.083,30.8929,湖州市,仁皇山新区,细颗粒物(PM2.5),74,71,62,54,45,61,,84,84,49,57,6,6,0.6,0.6
2026-01-23T2000,2907A,120.1846,30.8592,湖州市,吴兴区站,细颗粒物(PM2.5),75,78,67,55,50,49,,74,74,58,53,5,7,0.6,0.6
2026-01-23T2000,3562A,120.4146,30.8538,湖州市,南浔区站,细颗粒物(PM2.5),73,83,69,53,51,48,,86,80,55,49,7,8,0.6,0.8
2026-01-23T2000,1607A,120.904878,40.721091,葫芦岛市,龙港区,细颗粒物(PM2.5),59,51,69,42,48,30,,62,59,45,42,17,37,0.9,1.2
2026-01-23T2000,1608A,120.8382,40.7521,葫芦岛市,化工街,细颗粒物(PM2.5),65,66,76,47,50,29,,60,55,51,46,23,42,0.7,0.9
2026-01-23T2000,1609A,120.8339,40.7078,葫芦岛市,新区,,49,40,56,34,43,39,,61,58,40,47,20,30,0.8,1.2
2026-01-23T2000,1610A,120.8697,40.7679,葫芦岛市,东城区,细颗粒物(PM2.5),57,,68,40,48,31,,62,55,49,43,24,37,1.0,1.2
2026-01-23T2000,2483A,109.9297,27.5383,怀化市,河西地税局,细颗粒物(PM2.5),69,58,75,50,56,47,,66,66,25,25,4,4,/,/
2026-01-23T2000,2484A,109.9783,27.5342,怀化市,市四医院,细颗粒物(PM2.5),70,72,75,51,56,30,,59,55,25,26,7,6,0.8,0.7
2026-01-23T2000,2485A,109.9971,27.5579,怀化市,监测楼,细颗粒物(PM2.5),73,68,73,53,56,42,,70,68,21,22,4,3,0.4,0.3
2026-01-23T2000,1210A,119.0566,33.5991,淮安市,钵池山,细颗粒物(PM2.5),112,100,66,84,53,80,,83,83,26,42,7,9,0.7,0.6
2026-01-23T2000,1211A,119.0083,33.578,淮安市,北京南路,细颗粒物(PM2.5),122,122,70,92,51,21,,68,64,80,50,7,10,0.9,0.7
2026-01-23T2000,1212A,118.9938,33.6083,淮安市,市监测站,细颗粒物(PM2.5),119,92,64,90,53,67,,80,80,42,49,9,12,0.8,0.9
2026-01-23T2000,1213A,119.135,33.5038,淮安市,楚州区监测站,细颗粒物(PM2.5),133,105,70,101,58,39,,77,74,55,52,10,11,0.5,0.4
2026-01-23T2000,3426A,118.8757,33.2897,淮安市,新华书店,细颗粒物(PM2.5),113,100,67,85,55,76,,75,75,27,44,10,11,0.9,0.8
2026-01-23T2000,4092A,119.119691,33.550006,淮安市,枚皋中路89号,细颗粒物(PM2.5),108,97,72,81,57,44,,83,81,45,40,8,10,0.5,0.5
2026-01-23T2000,4206A,119.028838,33.631911,淮安市,承德北路606号,细颗粒物(PM2.5),105,117,84,79,52,60,,80,80,46,52,8,10,0.9,0.9
2026-01-23T2000,2282A,116.8005,33.9749,淮北市,监测站,,,,96,,73,,,93,93,,30,,7,,0.7
2026-01-23T2000,2283A,116.8094,33.9008,淮北市,烈山区政府,细颗粒物(PM2.5),127,123,97,96,78,71,,90,90,,33,4,7,0.7,0.6
2026-01-23T2000,4017A,116.7926,33.9534,淮北市,市博物馆,细颗粒物(PM2.5),130,138,99,99,75,69,,98,97,44,26,9,10,0.8,0.6
2026-01-23T2000,4100A,116.8322,33.9884,淮北市,杜集区第一实验学校,细颗粒物(PM2.5),133,141,94,101,72,58,,102,97,43,25,10,10,1.2,0.7
2026-01-23T2000,2277A,116.8304,32.7726,淮南市,潘集区政府,细颗粒物(PM2.5),118,111,86,89,72,72,,90,89,31,33,6,7,0.6,0.6
2026-01-23T2000,2279A,116.8569,32.5949,淮南市,谢家集区政府,细颗粒物(PM2.5),84,77,70,62,45,68,,80,80,28,32,9,10,0.6,0.6
2026-01-23T2000,2280A,116.8279,32.6333,淮南市,八公山区政府,细颗粒物(PM2.5),89,79,64,66,51,83,,90,90,18,30,9,6,0.7,0.7
2026-01-23T2000,2894A,117.0561,32.6536,淮南市,经济技术开发区消防队,细颗粒物(PM2.5),99,102,80,74,49,67,,86,82,36,43,4,6,0.9,0.8
2026-01-23T2000,3329A,117.011,32.5891,淮南市,山南新区,细颗粒物(PM2.5),82,99,74,60,48,69,,85,84,36,31,8,9,0.8,0.7
2026-01-23T2000,4209A,117.003137,32.644456,淮南市,国庆中路369号,细颗粒物(PM2.5),98,96,67,73,60,66,,73,73,36,36,8,8,0.8,0.7
2026-01-23T2000,2446A,114.9021,30.474,黄冈市,职工中心,细颗粒物(PM2.5),97,89,85,72,66,64,,83,82,34,28,10,8,1.3,1.1
2026-01-23T2000,2929A,114.8858,30.4519,黄冈市,红卫路,细颗粒物(PM2.5),114,,79,86,68,62,,77,77,34,32,11,9,1.1,0.8
2026-01-23T2000,3398A,114.9134,30.4446,黄冈市,市林业局,细颗粒物(PM2.5),99,107,74,74,64,62,,82,81,36,27,3,4,1.3,0.8
2026-01-23T2000,2672A,102.02,35.5101,黄南藏族自治州,同仁县隆务镇,,42,42,34,18,13,55,,64,64,6,5,10,10,0.3,0.3
2026-01-23T2000,2295A,118.2905,29.6965,黄山市,延安路89号,细颗粒物(PM2.5),57,44,37,40,31,43,,78,74,24,17,4,4,0.7,0.6
2026-01-23T2000,2297A,118.1369,30.2755,黄山市,黄山区政府5号楼,,45,37,38,31,30,41,,70,69,14,14,2,2,0.6,0.6
2026-01-23T2000,4210A,118.335445,29.720283,黄山市,滨江东路7-2号,细颗粒物(PM2.5),64,54,52,46,40,35,,76,73,30,18,/,/,/,/
2026-01-23T2000,2423A,115.0547,30.2332,黄石市,沈家营,细颗粒物(PM2.5),89,83,84,66,61,44,,55,55,31,18,8,9,1.5,1.5
2026-01-23T2000,2426A,114.899,30.211,黄石市,铁山,细颗粒物(PM2.5),100,,69,75,69,56,,81,81,28,20,7,6,1.0,0.8
2026-01-23T2000,2427A,115.0259,30.2108,黄石市,团城山,细颗粒物(PM2.5),89,75,77,66,66,67,,78,78,24,20,6,6,0.9,1
2026-01-23T2000,3149A,115.0174,30.1591,黄石市,笔架山北路,细颗粒物(PM2.5),89,87,98,66,63,60,,77,76,23,22,7,8,1.2,1.4
2026-01-23T2000,4185A,115.078022,30.21118,黄石市,磁湖东路29号,细颗粒物(PM2.5),162,158,84,123,79,20,,68,60,75,29,6,8,2.0,1.5
2026-01-23T2000,1392A,114.4181,23.0528,惠州市,河南岸金山湖子站,颗粒物(PM10),53,55,32,36,22,25,,36,36,32,19,4,4,0.9,0.7
2026-01-23T2000,1393A,114.4055,23.0824,惠州市,下埔横江三路子站,颗粒物(PM10),51,51,31,35,21,28,,39,39,28,18,7,7,0.8,0.7
2026-01-23T2000,1395A,114.4645,22.7832,惠州市,惠阳区承修路船湖子站,细颗粒物(PM2.5),67,57,38,48,25,32,,42,42,29,19,7,7,0.8,0.7
2026-01-23T2000,1396A,114.5316,22.7423,惠州市,大亚湾管委会子站,颗粒物(PM10),57,64,38,39,21,33,,41,41,27,17,8,6,0.6,0.5
2026-01-23T2000,3314A,114.4334,22.8134,惠州市,惠阳秋长,颗粒物(PM10),57,63,35,38,24,35,,46,46,38,21,/,/,/,/
2026-01-23T2000,3452A,114.6521,22.7755,惠州市,大亚湾霞涌,,44,44,33,27,22,43,,52,52,21,17,/,/,/,/
2026-01-23T2000,4300A,114.4089,23.1147,惠州市,文华一路1号,颗粒物(PM10),51,51,31,33,22,29,,39,39,29,21,/,/,/,/
2026-01-23T2000,2240A,130.9618,45.2926,鸡西市,环保局,,31,31,30,18,20,60,,64,61,14,11,8,7,0.3,0.3
2026-01-23T2000,2243A,130.9294,45.2959,鸡西市,第一中学,,38,31,30,26,20,65,,68,66,12,10,6,3,0.4,0.4
2026-01-23T2000,3707A,131.0069,45.2988,鸡西市,欧美日汽修厂,,37,37,36,15,20,61,,66,64,13,12,7,7,0.2,0.2
2026-01-23T2000,2367A,114.9753,27.0803,吉安市,红声器材厂,细颗粒物(PM2.5),60,61,64,43,43,44,,54,54,22,23,12,9,0.7,0.7
2026-01-23T2000,2369A,114.9903,27.1313,吉安市,市环境监测站,细颗粒物(PM2.5),54,52,59,38,44,55,,56,56,9,16,17,11,/,/
2026-01-23T2000,2370A,115.009527,27.096792,吉安市,青原区法院,细颗粒物(PM2.5),58,57,64,41,46,36,,49,49,24,22,18,11,0.8,0.8
2026-01-23T2000,1772A,126.54,43.8622,吉林市,哈达湾,,31,31,27,19,17,70,,77,76,14,11,29,11,0.7,0.8
2026-01-23T2000,1773A,126.5843,43.8358,吉林市,东局子,,40,32,28,28,20,56,,68,67,24,17,4,4,0.8,0.7
2026-01-23T2000,1774A,126.5051,43.8243,吉林市,电力学院,,46,43,29,32,24,61,,77,75,24,14,8,7,0.8,0.6
2026-01-23T2000,1775A,126.6133,43.8971,吉林市,江北,,49,49,30,32,19,55,,69,67,20,13,17,8,0.8,0.7
2026-01-23T2000,1776A,126.5549,43.8304,吉林市,江南公园,,38,36,27,26,21,65,,72,71,14,13,7,8,0.6,0.6
2026-01-23T2000,2868A,126.4737,43.953,吉林市,九站,,33,30,30,23,23,56,,71,69,27,20,4,5,0.6,0.6
2026-01-23T2000,1299A,116.9866,36.6118,济南市,科干所,细颗粒物(PM2.5),123,127,74,93,50,27,,86,64,74,24,25,10,1.1,0.6
2026-01-23T2000,1300A,116.9379,36.6652,济南市,农科所,细颗粒物(PM2.5),119,149,77,90,48,20,,78,68,93,37,20,10,1.5,0.8
2026-01-23T2000,1301A,117.1265,36.6736,济南市,开发区,细颗粒物(PM2.5),129,129,76,98,55,36,,75,63,68,46,6,8,1.0,0.8
2026-01-23T2000,1303A,117.0616,36.6865,济南市,省种子仓库,细颗粒物(PM2.5),128,149,87,97,57,46,,79,68,56,41,10,9,,0.6
2026-01-23T2000,1304A,116.9495185,36.644937,济南市,机床二厂,细颗粒物(PM2.5),144,139,77,110,63,28,,90,67,73,30,10,12,1.0,0.6
2026-01-23T2000,1305A,117.0496,36.6629,济南市,市监测站,细颗粒物(PM2.5),123,134,72,93,51,30,,80,65,70,29,6,7,1.1,0.7
2026-01-23T2000,1306A,116.7674,36.5458,济南市,长清党校,细颗粒物(PM2.5),92,132,78,68,50,31,,90,78,75,34,14,8,1.0,0.7
2026-01-23T2000,1961A,117.5323,36.6865,济南市,东山小学,细颗粒物(PM2.5),117,112,71,88,51,38,,85,71,49,27,3,6,0.7,0.5
2026-01-23T2000,3059A,117.7181,36.205,济南市,泰兴公司,细颗粒物(PM2.5),144,161,91,110,68,10,,78,63,89,52,11,12,1.6,1.4
2026-01-23T2000,3064A,117.6861,36.2172,济南市,莱芜战役纪念馆,细颗粒物(PM2.5),148,146,86,113,66,26,,78,72,81,47,16,13,1.3,1.4
2026-01-23T2000,3494A,117.1673,36.9782,济南市,济阳区政府,细颗粒物(PM2.5),132,144,87,100,58,77,,85,85,38,43,11,6,1.0,0.8
2026-01-23T2000,3495A,117.1168,36.6299,济南市,锦屏中学,细颗粒物(PM2.5),104,115,63,78,43,34,,85,68,58,27,4,4,1.2,0.9
2026-01-23T2000,4108A,117.7107,36.2385,济南市,山财大街5号,细颗粒物(PM2.5),117,112,75,88,55,31,,80,74,76,45,12,16,1.0,1.1
2026-01-23T2000,4109A,116.9744,36.6889,济南市,无影山路12号,细颗粒物(PM2.5),132,141,77,100,63,35,,78,68,75,29,14,10,1.2,0.8
2026-01-23T2000,1653A,116.6229,35.4288,济宁市,火炬城,细颗粒物(PM2.5),132,116,80,100,79,54,,77,76,40,22,4,4,0.7,0.6
2026-01-23T2000,3500A,116.5808,35.3703,济宁市,北湖一中,细颗粒物(PM2.5),109,104,74,82,73,56,,84,82,45,25,3,4,0.8,0.6
2026-01-23T2000,3501A,116.8251,35.5592,济宁市,服务中心,细颗粒物(PM2.5),117,129,104,88,69,48,,71,69,32,23,5,6,0.6,0.5
2026-01-23T2000,3678A,116.5907,35.4054,济宁市,市第七中学,细颗粒物(PM2.5),144,133,79,110,68,44,,90,85,63,26,7,5,1.1,0.7
2026-01-23T2000,4111A,116.6075,35.4566,济宁市,任和路,细颗粒物(PM2.5),134,150,97,102,71,53,,80,78,43,25,5,6,0.8,0.8
2026-01-23T2000,4112A,116.5648,35.3921,济宁市,文体南路1号,细颗粒物(PM2.5),135,145,95,103,74,53,,89,86,51,23,4,5,0.8,0.5
2026-01-23T2000,2255A,130.2749,46.8028,佳木斯市,佳纺,颗粒物(PM10),55,60,35,30,28,52,,65,58,21,13,10,6,0.7,0.5
2026-01-23T2000,2257A,130.3258,46.7975,佳木斯市,环保局,细颗粒物(PM2.5),65,56,34,47,22,46,,65,59,26,16,7,7,0.6,0.3
2026-01-23T2000,4285A,130.363,46.806,佳木斯市,顺和街,细颗粒物(PM2.5),57,48,29,40,23,49,,61,57,22,15,9,8,0.5,0.3
2026-01-23T2000,4286A,130.3952,46.8268,佳木斯市,长安路196号,,,,25,,17,56,,69,66,22,13,6,6,0.6,0.5
2026-01-23T2000,1252A,120.7439,30.778,嘉兴市,清河小学,细颗粒物(PM2.5),75,80,78,55,52,38,,74,70,63,43,6,7,1.0,1.1
2026-01-23T2000,1253A,120.7261,30.7477,嘉兴市,嘉兴学院,细颗粒物(PM2.5),80,98,90,59,50,44,,70,66,48,46,5,6,1.3,1.1
2026-01-23T2000,2872A,120.7845,30.7524,嘉兴市,南湖区残联,细颗粒物(PM2.5),73,75,77,53,57,30,,76,70,70,52,5,6,0.8,0.9
2026-01-23T2000,3407A,120.6915,30.7741,嘉兴市,秀洲住建,细颗粒物(PM2.5),77,85,77,56,54,2,,77,68,91,53,6,7,0.6,0.7
2026-01-23T2000,1945A,98.291,39.7705,嘉峪关市,气象局,颗粒物(PM10),95,139,105,39,34,57,,69,67,18,30,14,16,0.6,0.6
2026-01-23T2000,2884A,98.2672,39.7978,嘉峪关市,酒钢宾馆,,,146,126,,35,,,66,66,,27,12,18,0.7,0.6
2026-01-23T2000,3248A,98.2644,39.7723,嘉峪关市,雄关区,颗粒物(PM10),76,101,86,45,32,61,,68,68,19,34,15,16,0.7,0.7
2026-01-23T2000,1383A,113.1063,22.6058,江门市,北街,颗粒物(PM10),60,69,46,41,29,1,,15,11,64,46,/,/,/,/
2026-01-23T2000,1384A,113.073,22.5835,江门市,西区,颗粒物(PM10),69,88,52,47,28,2,,14,11,54,37,/,/,/,/
2026-01-23T2000,1385A,113.0218,22.531,江门市,圭峰西,细颗粒物(PM2.5),67,56,44,48,32,8,,18,16,39,27,/,/,/,/
2026-01-23T2000,1386A,113.0826,22.5947,江门市,东湖,颗粒物(PM10),63,75,50,40,28,1,,15,12,46,31,7,8,0.7,0.7
2026-01-23T2000,3311A,113.1077,22.5647,江门市,江海富民,颗粒物(PM10),65,79,46,38,20,2,,16,12,60,41,/,/,0.5,0.4
2026-01-23T2000,3449A,113.0496,22.4669,江门市,新会银湖,细颗粒物(PM2.5),63,68,46,45,32,1,,12,10,54,38,8,8,0.7,0.6
2026-01-23T2000,3335A,113.3137,35.2643,焦作市,马村街道办,细颗粒物(PM2.5),246,229,180,196,160,38,,77,74,60,35,9,10,1.5,1.3
2026-01-23T2000,3336A,113.2464,35.2374,焦作市,焦作技师学院,细颗粒物(PM2.5),235,220,185,185,155,,,80,80,74,44,12,12,2.0,1.8
2026-01-23T2000,3477A,113.1656,35.2536,焦作市,中站许衡医院,细颗粒物(PM2.5),193,191,138,145,109,67,,76,75,45,41,9,9,1.4,1.3
2026-01-23T2000,3981A,113.2456,35.18,焦作市,原李万街道办,细颗粒物(PM2.5),223,187,164,173,150,58,,76,75,44,44,6,7,1.4,1.3
2026-01-23T2000,4264A,113.234,35.219,焦作市,新安路1731号,细颗粒物(PM2.5),243,245,197,193,169,49,,76,73,51,43,9,9,1.4,1.4
2026-01-23T2000,4295A,113.2722,35.2121,焦作市,人民路3066号,细颗粒物(PM2.5),211,231,185,161,150,35,,75,69,59,40,6,8,1.6,1.6
2026-01-23T2000,1708A,116.3701,23.5345,揭阳市,新兴,细颗粒物(PM2.5),67,56,45,48,33,12,,44,44,45,29,7,8,1.1,0.7
2026-01-23T2000,1709A,116.3261,23.5442,揭阳市,西马,颗粒物(PM10),55,60,40,28,27,17,,39,39,30,20,5,4,0.8,0.7
2026-01-23T2000,1710A,116.361,23.5627,揭阳市,东兴,"颗粒物(PM10),细颗粒物(PM2.5)",59,67,46,42,27,10,,38,38,41,30,8,10,/,/
2026-01-23T2000,1711A,116.4151,23.5295,揭阳市,渔湖,,,60,47,13,28,20,,51,50,,21,7,6,/,/
2026-01-23T2000,3320A,116.4028,23.5699,揭阳市,曲溪,颗粒物(PM10),68,86,51,43,32,9,,42,40,46,23,4,5,0.9,0.7
2026-01-23T2000,1944A,102.1691,38.5166,金昌市,天庆家园,颗粒物(PM10),87,124,115,54,66,54,,67,67,21,25,29,37,1.8,1.1
2026-01-23T2000,4022A,102.1648,38.5369,金昌市,金川区人防中心,细颗粒物(PM2.5),103,117,110,77,66,44,,69,68,35,23,11,32,1.0,0.9
2026-01-23T2000,4239A,102.193042,38.531887,金昌市,长春路96号,颗粒物(PM10),80,109,106,52,59,54,,67,66,24,24,10,38,0.9,1
2026-01-23T2000,1262A,119.6478,29.0773,金华市,十五中,细颗粒物(PM2.5),104,114,94,78,66,16,,43,40,77,57,4,4,0.7,0.5
2026-01-23T2000,1263A,119.6859,29.1032,金华市,监测站,细颗粒物(PM2.5),95,102,95,71,66,12,,39,35,72,58,4,4,0.6,0.5
2026-01-23T2000,3659A,119.656,29.1132,金华市,气象局,细颗粒物(PM2.5),100,116,91,75,60,4,,42,35,71,59,4,4,0.8,0.8
2026-01-23T2000,1767A,121.1114,41.0879,锦州市,南山,,20,19,53,11,44,61,,70,69,20,35,6,12,0.5,1.1
2026-01-23T2000,1768A,121.060361,40.842794,锦州市,开发区,颗粒物(PM10),60,70,78,33,56,8,,61,49,78,50,28,32,0.7,1.1
2026-01-23T2000,1769A,121.1836,41.1118,锦州市,百股街道,细颗粒物(PM2.5),87,,55,64,50,34,,69,65,49,38,12,15,1.3,1
2026-01-23T2000,1770A,121.1176,41.1224,锦州市,天安街道,,26,26,61,15,44,64,,73,73,20,38,4,11,0.7,1.2
2026-01-23T2000,1771A,121.1303,41.1385,锦州市,北湖公园,,39,31,50,27,37,61,,68,68,16,27,10,14,0.8,0.9
2026-01-23T2000,2160A,112.8496,35.5051,晋城市,自来水公司,细颗粒物(PM2.5),103,140,83,77,52,72,,85,85,36,34,9,10,0.8,1.1
2026-01-23T2000,2162A,112.8509,35.4886,晋城市,市环保局,细颗粒物(PM2.5),125,134,82,95,53,71,,90,90,35,34,8,8,1.1,1.3
2026-01-23T2000,3620A,112.8258,35.4804,晋城市,泽州一中,细颗粒物(PM2.5),125,124,87,95,57,68,,88,87,39,30,7,7,1.0,1.1
2026-01-23T2000,4078A,112.8246,35.5152,晋城市,前书院路,细颗粒物(PM2.5),114,141,94,86,47,62,,82,82,35,33,9,7,0.9,1.1
2026-01-23T2000,4079A,112.8864,35.4773,晋城市,祥云街666号,细颗粒物(PM2.5),147,134,78,112,54,72,,86,86,34,36,6,7,0.9,1.1
2026-01-23T2000,2174A,112.6992,37.6984,晋中市,榆次区政府,细颗粒物(PM2.5),128,185,119,97,62,3,,58,53,102,59,26,24,1.4,1.2
2026-01-23T2000,2865A,112.7195,37.683,晋中市,榆次三中,颗粒物(PM10),101,151,106,62,51,15,,62,60,81,51,20,23,1.1,1.2
2026-01-23T2000,4080A,112.7375,37.7215,晋中市,广安街188号,颗粒物(PM10),99,148,121,63,60,3,,61,56,98,59,25,26,0.8,1.1
2026-01-23T2000,4200A,112.7478,37.6954,晋中市,迎宾街26号,颗粒物(PM10),96,141,100,66,56,5,,64,60,87,46,23,24,1.0,1
2026-01-23T2000,2439A,112.2012,31.048,荆门市,竹园小学,细颗粒物(PM2.5),125,104,81,95,70,35,,70,67,51,28,1,4,0.7,0.4
2026-01-23T2000,2440A,112.1968,30.9892,荆门市,掇刀,细颗粒物(PM2.5),110,114,77,83,61,44,,76,74,43,24,2,5,1.0,0.6
2026-01-23T2000,3012A,112.1849,31.0361,荆门市,西山林语,细颗粒物(PM2.5),93,81,71,69,52,45,,76,73,34,23,5,26,0.9,0.7
2026-01-23T2000,3547A,112.1631,31.0134,荆门市,龙泉中学南校,细颗粒物(PM2.5),109,133,79,82,60,,,76,76,26,14,3,5,0.7,0.8
2026-01-23T2000,4124A,112.2213,31.0654,荆门市,新台西路6号,细颗粒物(PM2.5),110,104,82,83,66,35,,71,67,53,32,8,10,0.9,0.8
2026-01-23T2000,1844A,112.2493,30.3198,荆州市,市图书馆,细颗粒物(PM2.5),94,91,59,70,59,51,,76,76,51,19,8,8,1.2,0.7
2026-01-23T2000,1845A,112.2009,30.3543,荆州市,市委党校,细颗粒物(PM2.5),94,106,64,70,56,16,,64,59,77,31,2,2,1.1,0.7
2026-01-23T2000,3194A,112.2749,30.3124,荆州市,管委会,细颗粒物(PM2.5),88,69,57,65,58,54,,74,74,34,22,8,7,1.0,0.9
2026-01-23T2000,4268A,112.1722,30.3366,荆州市,学苑路85号,细颗粒物(PM2.5),89,68,62,66,50,64,,79,79,21,15,9,11,1.0,0.7
2026-01-23T2000,2343A,117.2114,29.2931,景德镇市,老干部活动中心,细颗粒物(PM2.5),98,80,54,73,51,24,,65,60,43,23,7,8,1.1,1
2026-01-23T2000,2344A,117.1893,29.2789,景德镇市,兽医站,颗粒物(PM10),62,73,58,38,32,36,,74,70,48,27,4,4,0.6,0.5
2026-01-23T2000,2346A,117.246,29.2958,景德镇市,陶研所,细颗粒物(PM2.5),64,55,46,46,48,37,,64,62,28,21,4,5,1.0,0.8
2026-01-23T2000,4289A,117.154766,29.256967,景德镇市,青少年活动中心,颗粒物(PM10),65,79,62,42,39,47,,76,74,39,32,22,24,/,/
2026-01-23T2000,1803A,115.9873,29.6816,九江市,十里,细颗粒物(PM2.5),87,77,60,64,45,12,,74,63,78,50,5,6,1.1,0.9
2026-01-23T2000,1804A,115.9583,29.7047,九江市,茅山头,颗粒物(PM10),60,69,61,35,41,4,,73,61,80,50,4,5,1.0,0.8
2026-01-23T2000,1805A,115.9877,29.7295,九江市,西园,"颗粒物(PM10),细颗粒物(PM2.5)",63,75,54,45,33,16,,75,66,90,59,5,6,0.9,0.7
2026-01-23T2000,1808A,115.9112,29.6038,九江市,综合工业园,细颗粒物(PM2.5),90,75,55,67,53,17,,82,74,100,43,2,3,0.9,0.8
2026-01-23T2000,3190A,116.0254,29.6995,九江市,外国语学校,细颗粒物(PM2.5),63,70,57,45,42,34,,67,61,58,54,8,9,0.9,1
2026-01-23T2000,4253A,116.010205,29.659402,九江市,莲花大道8号,细颗粒物(PM2.5),54,46,60,38,53,32,,60,56,33,16,3,4,0.5,0.7
2026-01-23T2000,4240A,98.495752,39.733935,酒泉市,玉门东路5号,颗粒物(PM10),107,163,119,42,36,60,,66,66,17,23,12,13,0.8,0.7
2026-01-23T2000,4241A,98.5099,39.7506,酒泉市,北大街108号,颗粒物(PM10),100,149,118,35,34,54,,59,59,17,24,12,14,0.6,0.8
2026-01-23T2000,2698A,76.0071,39.466,喀什地区,巡警大队,颗粒物(PM10),353,462,559,127,154,34,,37,37,17,21,4,3,0.8,1
2026-01-23T2000,2699A,75.9756,39.4693,喀什地区,吾办,颗粒物(PM10),288,411,513,150,161,32,,37,37,23,22,7,9,0.8,1
2026-01-23T2000,4027A,75.9485,39.4688,喀什地区,老干局,颗粒物(PM10),367,473,550,119,126,31,,34,34,18,19,3,2,0.7,1
2026-01-23T2000,1824A,114.3389,34.778,开封市,肿瘤医院,细颗粒物(PM2.5),202,164,116,152,105,88,,91,91,43,32,9,9,1.2,0.9
2026-01-23T2000,1826A,114.2884,34.7966,开封市,世纪星幼儿园,细颗粒物(PM2.5),222,,108,172,124,88,,83,83,40,33,4,6,1.0,0.8
2026-01-23T2000,3147A,114.3434,34.8101,开封市,龙亭公园,细颗粒物(PM2.5),245,,117,195,131,93,,87,87,45,34,6,7,1.1,0.9
2026-01-23T2000,3210A,114.3645,34.7955,开封市,汴京公园,细颗粒物(PM2.5),231,193,124,181,120,58,,78,78,67,33,4,4,1.0,0.8
2026-01-23T2000,3473A,114.2485,34.8306,开封市,技师学院,细颗粒物(PM2.5),216,,109,166,108,89,,84,84,45,34,6,6,1.0,0.7
2026-01-23T2000,3592A,114.4518,34.7503,开封市,祥符区生态环境局,细颗粒物(PM2.5),205,211,153,155,109,52,,86,83,72,44,4,4,0.8,0.7
2026-01-23T2000,1951A,84.886,45.6029,克拉玛依市,长征新村,细颗粒物(PM2.5),70,68,69,51,47,54,,57,57,24,20,8,7,0.6,0.5
2026-01-23T2000,1952A,84.8894,45.5827,克拉玛依市,南林小区,细颗粒物(PM2.5),59,62,66,42,38,55,,58,58,18,20,4,3,0.7,0.6
2026-01-23T2000,1954A,84.896,44.3328,克拉玛依市,独山子区,颗粒物(PM10),68,85,113,34,66,42,,72,66,54,36,2,5,0.7,0.6
2026-01-23T2000,1955A,85.6888,46.0909,克拉玛依市,乌尔禾区商贸楼,细颗粒物(PM2.5),73,77,68,53,50,57,,56,56,28,34,10,9,0.7,0.6
2026-01-23T2000,3612A,85.1045,45.6895,克拉玛依市,白碱滩区新站,颗粒物(PM10),108,165,83,56,51,69,,55,55,25,31,,10,,0.5
2026-01-23T2000,2697A,76.1457,39.7143,克孜勒苏柯尔克孜自治州,市人民政府,颗粒物(PM10),455,555,615,144,141,36,,31,31,21,22,4,4,0.7,0.8
2026-01-23T2000,3665A,76.1654,39.7157,克孜勒苏柯尔克孜自治州,克州文化中心,颗粒物(PM10),441,541,604,157,152,33,,35,28,20,18,5,4,0.9,0.9
2026-01-23T2000,1450A,102.8203,24.889,昆明市,呈贡新区,,24,24,32,10,21,70,,85,84,11,19,5,5,0.3,0.5
2026-01-23T2000,1452A,102.7253,25.0904,昆明市,龙泉镇,,35,35,38,14,19,42,,85,80,40,30,4,3,0.4,0.4
2026-01-23T2000,1453A,102.7267,25.0378,昆明市,东风东路,,,,38,,26,,,86,,,23,,7,,0.5
2026-01-23T2000,1454A,102.6744,25.0671,昆明市,金鼎山,,34,34,45,17,27,68,,84,82,17,25,5,4,0.4,0.4
2026-01-23T2000,1455A,102.6643,25.0401,昆明市,碧鸡广场,,32,32,39,21,21,63,,85,84,25,23,4,5,0.5,0.5
2026-01-23T2000,3179A,102.7491,25.012,昆明市,官渡区博物馆,,30,30,32,14,22,72,,89,86,18,20,3,5,0.4,0.6
2026-01-23T2000,3375A,102.8016,24.8336,昆明市,青年创业园,,26,19,32,13,19,82,,91,90,4,18,5,9,0.2,0.4
2026-01-23T2000,3550A,102.8,24.9787,昆明市,昆明学院,,30,30,35,16,20,72,,95,91,14,17,4,4,0.4,0.5
2026-01-23T2000,3551A,102.5969,24.6738,昆明市,晋宁区生态环境分局,,26,22,30,12,20,82,,88,87,7,15,3,3,0.5,0.7
2026-01-23T2000,3552A,102.6673,24.9861,昆明市,云天化总部,,25,15,33,7,23,79,,89,88,10,22,5,8,0.2,0.5
2026-01-23T2000,1456A,91.132,29.6515,拉萨市,八廓街,,35,31,25,24,16,63,,82,82,29,23,9,7,0.7,0.7
2026-01-23T2000,1457A,91.1221,29.6748,拉萨市,市环保局,细颗粒物(PM2.5),65,65,37,47,22,33,,78,75,59,32,14,9,1.5,1.2
2026-01-23T2000,1458A,91.0874,29.6476,拉萨市,区监测站,,22,20,16,15,11,56,,79,78,35,29,5,4,0.8,0.9
2026-01-23T2000,1459A,91.1774,29.6541,拉萨市,西藏大学,,35,32,17,24,9,66,,82,82,34,16,7,4,0.9,0.5
2026-01-23T2000,1460A,90.9798,29.6586,拉萨市,区辐射站,,48,48,27,24,15,32,,73,70,64,29,6,4,1.0,0.6
2026-01-23T2000,1461A,91.0831,29.6292,拉萨市,拉萨火车站,,23,17,19,7,12,71,,75,75,16,29,4,4,0.3,0.6
2026-01-23T2000,2520A,109.2203,23.7252,来宾市,来宾技工学校,细颗粒物(PM2.5),67,52,40,48,34,44,,45,45,18,15,8,10,0.5,0.5
2026-01-23T2000,3535A,109.1781,23.7293,来宾市,兴宾区政府,颗粒物(PM10),52,54,47,28,28,42,,46,46,19,12,5,8,0.7,0.7
2026-01-23T2000,4002A,109.2312,23.7428,来宾市,中南小学,细颗粒物(PM2.5),62,50,39,44,36,41,,44,44,19,16,6,8,0.8,0.8
2026-01-23T2000,1479A,103.8309,36.0467,兰州市,铁路设计院,,,,,,,,,,,,,,,,
2026-01-23T2000,3241A,103.7439,36.0841,兰州市,百合公园,细颗粒物(PM2.5),140,175,116,107,73,1,,47,42,117,73,27,23,2.5,1.4
2026-01-23T2000,3242A,103.9613,35.9985,兰州市,和平,细颗粒物(PM2.5),75,96,109,55,76,42,,74,74,48,44,13,18,0.9,1.3
2026-01-23T2000,4236A,103.629272,36.093822,兰州市,庄浪东路808号,细颗粒物(PM2.5),95,114,117,71,68,44,,80,80,77,68,19,23,1.1,1.3
2026-01-23T2000,4237A,103.7251,36.104344,兰州市,安宁西路88号,细颗粒物(PM2.5),108,153,128,81,67,5,,63,56,124,77,20,25,1.8,1.3
2026-01-23T2000,4238A,103.846982,36.067567,兰州市,北滨河东路1号,细颗粒物(PM2.5),109,156,112,82,69,2,,50,45,117,77,21,20,1.8,1.7
2026-01-23T2000,1067A,116.6712,39.5109,廊坊市,药材公司,颗粒物(PM10),56,62,74,33,52,9,,51,47,59,50,2,3,0.7,1
2026-01-23T2000,1068A,116.7215,39.5592,廊坊市,开发区,,38,38,66,22,42,4,,58,50,68,55,3,4,0.7,0.8
2026-01-23T2000,1070A,116.7246,39.5273,廊坊市,北华航天学院,颗粒物(PM10),54,57,82,35,53,4,,55,47,71,53,3,4,0.8,1
2026-01-23T2000,2919A,116.7022,39.5454,廊坊市,河北工业大学,"颗粒物(PM10),细颗粒物(PM2.5)",54,58,70,38,40,8,,55,48,61,50,1,3,0.8,0.8
2026-01-23T2000,2536A,103.7629,29.5844,乐山市,牛耳桥,细颗粒物(PM2.5),62,53,44,44,36,35,,35,35,24,21,4,5,0.8,0.8
2026-01-23T2000,2537A,103.7501,29.6002,乐山市,市第三水厂,细颗粒物(PM2.5),74,64,46,54,39,29,,31,31,32,27,7,6,1.0,0.9
2026-01-23T2000,2538A,103.7571,29.5664,乐山市,市监测站,细颗粒物(PM2.5),59,50,42,42,38,24,,33,33,28,19,5,5,0.8,0.8
2026-01-23T2000,3361A,103.7313,29.563,乐山市,理工大学,细颗粒物(PM2.5),70,62,45,51,37,9,,33,30,33,16,5,6,0.8,0.7
2026-01-23T2000,2599A,100.2497,26.8802,丽江市,丽江古城,,45,45,35,14,20,71,,81,81,22,11,11,10,0.6,0.4
2026-01-23T2000,2600A,100.2203,26.8906,丽江市,市中心,,35,34,29,24,17,66,,81,80,33,16,8,7,0.6,0.5
2026-01-23T2000,1267A,119.9141,28.4513,丽水市,监测站大楼,细颗粒物(PM2.5),92,68,54,68,60,28,,48,44,37,28,5,6,0.6,0.4
2026-01-23T2000,1268A,119.93,28.4589,丽水市,莲都小学,细颗粒物(PM2.5),78,82,74,57,53,35,,48,46,42,37,/,/,/,/
2026-01-23T2000,1269A,119.8794,28.4232,丽水市,余庄前,细颗粒物(PM2.5),80,80,67,59,51,17,,40,35,36,34,4,4,0.5,0.4
2026-01-23T2000,1173A,119.1759,34.5885,连云港市,市环境监测站,细颗粒物(PM2.5),104,97,69,78,53,48,,74,71,55,37,13,11,0.8,0.7
2026-01-23T2000,3000A,119.3577,34.6971,连云港市,德源药业,细颗粒物(PM2.5),83,110,75,61,48,11,,74,63,89,51,6,7,0.7,0.5
2026-01-23T2000,3007A,119.178,34.8442,连云港市,新城一中,细颗粒物(PM2.5),119,97,76,90,66,53,,82,80,60,46,12,12,1.0,0.9
2026-01-23T2000,3008A,119.3607,34.7519,连云港市,胡沟管理处,细颗粒物(PM2.5),73,68,56,53,41,73,,80,80,36,37,7,7,0.7,0.8
2026-01-23T2000,3009A,119.1478,34.5913,连云港市,矿山设计院,细颗粒物(PM2.5),89,102,68,66,48,30,,71,65,65,36,17,11,1.0,0.8
2026-01-23T2000,3434A,119.2414,34.6539,连云港市,工贸学校,细颗粒物(PM2.5),114,101,67,86,56,57,,77,76,30,20,18,14,1.0,0.8
2026-01-23T2000,3664A,119.4171,34.734,连云港市,连云街道,细颗粒物(PM2.5),92,83,63,68,48,89,,80,80,26,34,9,9,0.7,0.7
2026-01-23T2000,2573A,102.2629,27.8981,凉山彝族自治州,西昌市政府,颗粒物(PM10),51,51,48,34,37,76,,93,93,22,19,8,8,0.7,0.7
2026-01-23T2000,2574A,102.2686,27.885,凉山彝族自治州,凉山州政府,颗粒物(PM10),63,76,56,41,32,60,,82,82,37,24,10,9,0.9,0.7
2026-01-23T2000,4229A,102.2342,27.8859,凉山彝族自治州,凯乐南路30号,细颗粒物(PM2.5),62,67,60,44,45,34,,74,74,41,34,11,10,1.0,0.8
2026-01-23T2000,2212A,123.1978,41.2036,辽阳市,宏伟区,颗粒物(PM10),64,78,62,40,42,39,,66,58,26,22,11,13,0.7,1
2026-01-23T2000,2213A,123.1684,41.2497,辽阳市,新华园,,,90,67,,40,33,,68,62,65,37,17,21,2.4,1
2026-01-23T2000,2214A,123.2355,41.2663,辽阳市,滨河路,细颗粒物(PM2.5),62,58,53,44,35,14,,60,54,53,29,5,10,0.7,0.9
2026-01-23T2000,4083A,123.153,41.2874,辽阳市,铁西路150号,细颗粒物(PM2.5),105,,68,79,43,33,,70,65,45,37,21,22,1.7,1.5
2026-01-23T2000,2227A,125.1359,42.8845,辽源市,环保局,细颗粒物(PM2.5),64,60,50,46,39,31,,70,62,58,40,7,5,1.2,1.1
2026-01-23T2000,4085A,125.0998,42.9134,辽源市,安宁大街333号,,43,43,44,27,31,61,,68,66,11,18,6,5,0.7,0.9
2026-01-23T2000,1625A,115.9789,36.4372,聊城市,区政府,细颗粒物(PM2.5),142,152,101,108,75,38,,74,69,67,37,12,13,1.3,0.9
2026-01-23T2000,3200A,115.9772,36.4986,聊城市,监控中心,细颗粒物(PM2.5),195,182,99,146,83,14,,81,69,95,35,8,8,1.4,0.8
2026-01-23T2000,3513A,116.0443,36.436,聊城市,九州社区,细颗粒物(PM2.5),149,145,103,114,80,66,,87,85,39,21,7,5,1.0,0.7
2026-01-23T2000,4018A,116.0564,36.4609,聊城市,星美广场,细颗粒物(PM2.5),199,190,109,149,79,47,,74,68,48,24,5,4,1.1,0.8
2026-01-23T2000,4113A,116.0091,36.4495,聊城市,利民路,细颗粒物(PM2.5),148,150,100,113,79,49,,70,68,54,32,10,11,1.3,0.9
2026-01-23T2000,2632A,94.3683,29.6373,林芝市,林芝监测站,,32,32,19,17,11,65,,69,69,2,4,4,3,0.2,0.2
2026-01-23T2000,2633A,94.3616,29.6634,林芝市,林芝人民医院,,40,40,23,17,12,79,,80,80,2,8,6,4,0.1,0.4
2026-01-23T2000,2603A,100.0779,23.8981,临沧市,市环保局,细颗粒物(PM2.5),115,,42,87,45,76,,95,95,11,11,10,7,0.6,0.5
2026-01-23T2000,2604A,100.0894,23.882,临沧市,市气象局,,50,50,49,29,29,69,,96,96,16,12,15,10,0.5,0.4
2026-01-23T2000,1733A,111.5552,36.0791,临汾市,临钢医院,细颗粒物(PM2.5),155,187,122,118,75,22,,57,54,67,44,20,12,2.3,1.9
2026-01-23T2000,1734A,111.4984,36.0734,临汾市,技工学校,细颗粒物(PM2.5),178,161,113,134,82,16,,55,53,57,45,23,14,2.1,1.5
2026-01-23T2000,1736A,111.5017,36.0857,临汾市,市委,细颗粒物(PM2.5),137,156,118,104,70,30,,57,57,63,49,27,17,2.0,1.6
2026-01-23T2000,3018A,111.5048,36.1015,临汾市,唐尧大酒店,细颗粒物(PM2.5),119,139,120,90,72,48,,62,62,49,50,26,13,1.7,1.4
2026-01-23T2000,4244A,111.4879,36.053,临汾市,启星学校,细颗粒物(PM2.5),143,165,107,109,70,7,,57,54,99,61,20,15,2.2,1.6
2026-01-23T2000,4271A,103.2464,35.6123,临夏回族自治州,滨河东路1号,细颗粒物(PM2.5),172,134,157,130,91,12,,82,77,84,38,14,9,1.9,1.6
2026-01-23T2000,4310A,103.207136,35.599807,临夏回族自治州,新华街21号,细颗粒物(PM2.5),99,144,159,74,97,43,,78,78,52,39,17,12,1.5,1.7
2026-01-23T2000,1618A,118.3429,35.0532,临沂市,沂河小区,细颗粒物(PM2.5),150,144,85,115,68,52,,80,78,58,32,18,17,1.2,0.9
2026-01-23T2000,1619A,118.2962,35.0568,临沂市,鲁南制药厂,细颗粒物(PM2.5),170,153,92,129,72,32,,78,67,89,45,34,22,1.1,1
2026-01-23T2000,1620A,118.2793,34.9976,临沂市,新光毛纺厂,细颗粒物(PM2.5),137,139,79,104,65,35,,83,79,82,42,26,18,1.3,0.9
2026-01-23T2000,1621A,118.3955,35.0889,临沂市,河东保险公司,细颗粒物(PM2.5),148,151,93,113,68,50,,89,86,63,41,15,15,1.4,1.1
2026-01-23T2000,3370A,118.3563,35.0215,临沂市,十里堡居委,细颗粒物(PM2.5),153,188,104,117,71,24,,80,74,89,58,57,30,1.6,1
2026-01-23T2000,3496A,118.359,35.1067,临沂市,南坊新区,细颗粒物(PM2.5),132,136,79,100,60,58,,82,82,60,34,14,14,1.3,0.8
2026-01-23T2000,3860A,118.3915,35.0297,临沂市,皇山花园小区,细颗粒物(PM2.5),129,158,95,98,64,36,,84,81,85,48,32,24,1.4,0.9
2026-01-23T2000,1870A,109.4854,24.3898,柳州市,柳东小学,细颗粒物(PM2.5),52,40,28,36,25,55,,54,54,13,8,8,8,0.8,0.7
2026-01-23T2000,1871A,109.4109,24.3304,柳州市,环保监测站,,42,41,27,29,24,56,,54,54,14,12,4,5,0.6,0.6
2026-01-23T2000,1872A,109.3886,24.3408,柳州市,河西水厂,,,49,33,39,22,58,,54,54,11,10,5,5,,0.3
2026-01-23T2000,1873A,109.4263,24.2951,柳州市,市四中,,43,43,28,28,19,52,,52,52,19,12,9,10,1.0,0.9
2026-01-23T2000,1874A,109.396,24.3658,柳州市,市九中,颗粒物(PM10),53,56,32,34,28,57,,54,54,14,14,8,8,0.6,0.6
2026-01-23T2000,1875A,109.4912,24.3164,柳州市,古亭山,颗粒物(PM10),72,94,33,41,20,31,,54,52,25,11,8,7,0.9,0.9
2026-01-23T2000,3402A,109.5422,24.3994,柳州市,市二中,细颗粒物(PM2.5),58,50,27,41,23,45,,59,59,26,13,15,9,0.7,0.6
2026-01-23T2000,2307A,116.5078,31.7369,六安市,监测大楼,细颗粒物(PM2.5),74,60,51,54,41,62,,81,80,35,27,3,4,0.4,0.4
2026-01-23T2000,2308A,116.4738,31.7642,六安市,皖西学院,"颗粒物(PM10),细颗粒物(PM2.5)",63,76,63,45,40,64,,88,87,39,30,4,5,0.5,0.5
2026-01-23T2000,2309A,116.4997,31.7904,六安市,朝阳厂,细颗粒物(PM2.5),74,67,57,54,41,51,,82,80,61,37,5,6,0.6,0.6
2026-01-23T2000,2310A,116.5566,31.7885,六安市,开发区,细颗粒物(PM2.5),85,97,68,63,55,5,,79,68,81,34,5,4,0.6,0.5
2026-01-23T2000,2577A,104.8293,26.592,六盘水市,黄土坡,细颗粒物(PM2.5),93,84,40,69,35,37,,48,47,31,20,11,9,1.2,0.9
2026-01-23T2000,2579A,104.8481,26.5898,六盘水市,民中,细颗粒物(PM2.5),89,,40,66,35,36,,47,46,28,18,8,5,1.1,0.9
2026-01-23T2000,2580A,104.9541,26.5506,六盘水市,双水,细颗粒物(PM2.5),60,58,42,43,32,38,,46,46,18,14,5,4,0.8,0.7
2026-01-23T2000,4151A,104.8899,26.5685,六盘水市,钟山大道中段564号,细颗粒物(PM2.5),69,71,45,50,30,36,,42,42,23,13,8,6,1.1,0.9
2026-01-23T2000,2336A,117.022,25.1031,龙岩市,龙岩市监测站,,26,26,19,18,17,39,,40,40,26,20,16,14,0.6,0.6
2026-01-23T2000,2337A,117.0257,25.0662,龙岩市,闽西职业技术学院,,33,33,21,21,16,39,,40,40,21,15,23,11,0.9,0.8
2026-01-23T2000,2338A,117.0195,25.0306,龙岩市,龙岩学院,,35,27,24,24,19,27,,36,36,24,16,11,12,/,/
2026-01-23T2000,2885A,104.9344,33.3827,陇南市,滨江中学,细颗粒物(PM2.5),108,161,81,81,41,4,,47,40,74,38,17,10,2.8,1.6
2026-01-23T2000,3247A,104.9551,33.3709,陇南市,市总工会,颗粒物(PM10),69,87,62,45,40,29,,54,53,39,26,9,9,1.1,0.8
2026-01-23T2000,2488A,111.9984,27.7346,娄底市,市监测站,细颗粒物(PM2.5),77,63,73,56,56,60,,77,77,32,33,7,8,0.8,0.9
2026-01-23T2000,2491A,111.9888,27.7035,娄底市,市政府,细颗粒物(PM2.5),72,68,67,52,58,45,,70,70,29,14,5,9,1.0,0.8
2026-01-23T2000,4127A,111.9812,27.7591,娄底市,涟钢职大,细颗粒物(PM2.5),87,94,76,64,53,56,,76,76,26,25,5,6,0.8,0.9
2026-01-23T2000,4128A,112.0303,27.7457,娄底市,娄底体校,颗粒物(PM10),61,72,57,41,50,48,,68,68,21,12,2,3,0.5,0.4
2026-01-23T2000,1894A,105.4427,28.9063,泸州市,小市上码头,细颗粒物(PM2.5),78,85,65,57,48,21,,27,27,32,30,5,5,1.1,1
2026-01-23T2000,1895A,105.4241,28.8573,泸州市,兰田宪桥,细颗粒物(PM2.5),79,78,62,58,44,25,,26,26,23,24,8,8,1.2,1.1
2026-01-23T2000,1896A,105.4378,28.8833,泸州市,市环监站,细颗粒物(PM2.5),75,76,60,55,42,11,,20,19,35,27,9,9,1.0,1.1
2026-01-23T2000,4272A,105.3689,28.7783,泸州市,纳溪中医医院,细颗粒物(PM2.5),87,76,64,64,48,22,,20,20,21,22,8,8,0.9,0.9
2026-01-23T2000,2183A,111.1447,37.5212,吕梁市,环保局,细颗粒物(PM2.5),77,98,79,56,32,5,,56,51,77,47,5,4,0.5,0.3
2026-01-23T2000,2185A,111.1285,37.5338,吕梁市,自来水公司,细颗粒物(PM2.5),85,101,104,63,43,29,,61,60,45,38,7,8,0.8,0.7
2026-01-23T2000,2867A,111.1225,37.5093,吕梁市,马茂庄小学,颗粒物(PM10),90,130,90,40,33,18,,59,49,57,45,10,7,0.9,0.6
2026-01-23T2000,1812A,112.3934,34.6517,洛阳市,市委党校,细颗粒物(PM2.5),107,122,100,80,83,27,,60,58,71,36,11,11,1.4,1.1
2026-01-23T2000,1815A,112.494,34.6883,洛阳市,河南林校,细颗粒物(PM2.5),160,144,111,122,94,15,,51,45,81,41,9,10,1.5,1.1
2026-01-23T2000,1816A,112.3843,34.623,洛阳市,开发区管委会,细颗粒物(PM2.5),134,136,120,102,97,26,,62,60,61,35,12,12,1.1,0.9
2026-01-23T2000,1817A,112.4263,34.6249,洛阳市,市委新办公区,细颗粒物(PM2.5),128,153,122,97,94,10,,60,52,83,37,9,10,1.4,1
2026-01-23T2000,3340A,112.6005,34.6323,洛阳市,伊滨,细颗粒物(PM2.5),158,197,141,120,100,14,,59,53,80,43,8,9,1.0,0.9
2026-01-23T2000,3341A,112.495,34.6338,洛阳市,中移产业园,细颗粒物(PM2.5),135,136,112,103,99,3,,57,45,95,45,13,11,1.4,1.1
2026-01-23T2000,3593A,112.5736,34.8993,洛阳市,吉利监测站,细颗粒物(PM2.5),195,155,115,146,110,44,,51,48,61,52,7,10,1.6,1.2
2026-01-23T2000,3635A,112.3678,34.6623,洛阳市,河科大西苑校区,细颗粒物(PM2.5),115,143,114,87,85,10,,60,56,88,41,10,10,1.5,0.9
2026-01-23T2000,3636A,112.4387,34.678,洛阳市,英才小学,细颗粒物(PM2.5),135,146,123,103,98,8,,53,50,96,46,11,12,1.6,1.1
2026-01-23T2000,4214A,112.460027,34.694929,洛阳市,春都路1号院,细颗粒物(PM2.5),127,154,132,96,82,21,,48,42,65,42,8,9,1.3,1.3
2026-01-23T2000,2399A,114.051,33.5721,漯河市,三五一五工厂,细颗粒物(PM2.5),142,138,126,108,102,67,,87,85,43,36,7,7,1.2,1
2026-01-23T2000,2400A,114.0055,33.5698,漯河市,漯河大学,细颗粒物(PM2.5),144,122,95,110,89,59,,98,94,54,24,6,6,0.7,0.6
2026-01-23T2000,2401A,114.0134,33.5826,漯河市,市水利局,细颗粒物(PM2.5),147,134,101,112,91,48,,77,72,33,21,4,4,1.0,0.8
2026-01-23T2000,2402A,114.0261,33.5697,漯河市,市广电局,细颗粒物(PM2.5),143,139,104,109,97,63,,82,80,40,28,7,7,0.9,0.7
2026-01-23T2000,3478A,113.9691,33.568,漯河市,市图书馆,细颗粒物(PM2.5),115,116,114,87,92,65,,89,86,48,20,7,7,0.8,0.8
2026-01-23T2000,4250A,114.089259,33.588274,漯河市,韶山路11号,细颗粒物(PM2.5),144,137,132,110,104,58,,81,80,53,37,7,7,0.8,0.8
2026-01-23T2000,1798A,118.5084,31.6838,马鞍山市,湖东路四小,细颗粒物(PM2.5),94,101,77,70,51,6,,64,57,85,49,4,5,1.1,0.8
2026-01-23T2000,1799A,118.5019,31.6449,马鞍山市,开发区,细颗粒物(PM2.5),102,106,87,76,65,3,,67,58,89,53,4,6,0.8,0.8
2026-01-23T2000,3633A,118.4914,31.681,马鞍山市,雨山,细颗粒物(PM2.5),89,84,74,66,55,35,,69,66,57,45,7,10,0.7,0.8
2026-01-23T2000,4191A,118.527362,31.722269,马鞍山市,慈湖高新区,细颗粒物(PM2.5),88,105,88,65,59,5,,56,47,77,50,4,8,1.0,0.8
2026-01-23T2000,1686A,111.0285,21.469,茂名市,电白南海,,,83,55,,28,36,,42,,22,19,12,14,1.0,0.9
2026-01-23T2000,1687A,110.9294,21.6533,茂名市,茂石化七小,细颗粒物(PM2.5),62,70,52,44,29,22,,41,40,28,22,11,13,1.0,1
2026-01-23T2000,1688A,110.9108,21.6688,茂名市,健康路,细颗粒物(PM2.5),58,61,43,41,29,23,,46,45,32,25,8,18,0.9,0.9
2026-01-23T2000,1689A,110.8592,21.6826,茂名市,高岭,颗粒物(PM10),64,78,52,36,23,17,,36,35,29,21,12,21,/,/
2026-01-23T2000,3450A,111.0101,21.5165,茂名市,电白水东,颗粒物(PM10),67,83,52,41,31,38,,51,51,20,17,12,13,/,/
2026-01-23T2000,2540A,103.8414,30.0871,眉山市,气象局,细颗粒物(PM2.5),67,57,44,48,32,36,,41,41,25,20,11,11,1.1,0.8
2026-01-23T2000,3148A,103.829,30.0563,眉山市,区人社局,细颗粒物(PM2.5),58,54,46,41,30,24,,31,27,35,22,7,6,1.3,0.9
2026-01-23T2000,4148A,103.8836,30.0695,眉山市,眉职院,细颗粒物(PM2.5),57,57,40,40,26,16,,34,33,32,14,2,1,1.0,1
2026-01-23T2000,1690A,116.1248,24.3307,梅州市,梅江月梅,细颗粒物(PM2.5),57,52,27,40,20,2,,10,9,38,24,/,/,/,/
2026-01-23T2000,1691A,116.0798,24.2719,梅州市,梅县新城,细颗粒物(PM2.5),64,56,28,46,25,2,,12,10,38,21,8,7,0.6,0.5
2026-01-23T2000,3315A,116.1234,24.2994,梅州市,梅龙,"颗粒物(PM10),细颗粒物(PM2.5)",53,56,30,37,20,2,,11,9,38,21,8,8,1.0,0.8
2026-01-23T2000,1878A,104.7775,31.4741,绵阳市,富乐山,,49,43,41,34,36,30,,43,43,21,17,8,8,0.6,0.6
2026-01-23T2000,1880A,104.6698,31.4668,绵阳市,高新区自来水公司,细颗粒物(PM2.5),70,60,54,51,42,11,,25,25,46,30,8,8,1.0,0.9
2026-01-23T2000,3491A,104.6899,31.5324,绵阳市,西科大附属小学,细颗粒物(PM2.5),62,60,55,44,39,23,,38,38,36,30,8,8,0.7,0.7
2026-01-23T2000,3492A,104.5647,31.5343,绵阳市,安州区旅游局,细颗粒物(PM2.5),67,69,49,48,40,10,,28,27,52,33,12,12,0.7,0.6
2026-01-23T2000,4146A,104.7092,31.4972,绵阳市,科技城新区公安局,细颗粒物(PM2.5),55,46,45,39,34,24,,44,42,46,30,6,8,0.8,0.8
2026-01-23T2000,4226A,104.765114,31.453094,绵阳市,绵阳市气象局,细颗粒物(PM2.5),55,42,40,39,36,14,,32,31,39,22,4,4,0.9,0.7
2026-01-23T2000,1784A,129.61,44.561,牡丹江市,环保大楼,,30,29,35,21,18,66,,70,70,14,15,3,5,0.3,0.3
2026-01-23T2000,1787A,129.6364,44.6075,牡丹江市,机车工厂,,,110,54,,32,63,,67,67,15,24,5,4,3.1,0.7
2026-01-23T2000,1788A,129.6386,44.5462,牡丹江市,第一中学,,34,34,31,13,17,65,,68,68,12,21,4,5,0.2,0.3
2026-01-23T2000,4287A,129.5992,44.5964,牡丹江市,东晓云街98号,,43,43,47,25,40,68,,70,70,9,20,3,5,0.3,0.7
2026-01-23T2000,2531A,105.0703,29.61,内江市,市监测站,细颗粒物(PM2.5),85,63,49,63,42,21,,35,35,25,13,4,4,0.9,0.7
2026-01-23T2000,2533A,105.0657,29.5807,内江市,内江二中,细颗粒物(PM2.5),69,83,57,50,35,25,,26,26,32,26,4,4,0.5,0.5
2026-01-23T2000,2534A,105.0407,29.5828,内江市,内江日报社,细颗粒物(PM2.5),72,52,48,52,38,16,,27,27,50,27,4,5,0.9,0.8
2026-01-23T2000,4147A,105.0433,29.6105,内江市,玉峰路西段888号,细颗粒物(PM2.5),77,74,43,56,39,29,,34,34,30,21,3,2,1.2,1.1
2026-01-23T2000,2628A,92.0653,31.4846,那曲市,那曲监测站,,,34,42,18,28,43,,64,64,59,27,,9,2.1,1.3
2026-01-23T2000,4243A,92.0515,31.4787,那曲市,那曲市委宣传部,,32,32,26,16,19,56,,69,69,23,19,6,8,0.6,1.1
2026-01-23T2000,1291A,115.8887,28.7006,南昌市,省林业公司,细颗粒物(PM2.5),100,92,66,75,55,44,,56,56,38,29,5,5,0.5,0.4
2026-01-23T2000,1292A,115.813,28.7443,南昌市,林科所,细颗粒物(PM2.5),67,61,63,48,49,46,,64,62,34,40,6,4,0.4,0.5
2026-01-23T2000,1294A,115.8518,28.687,南昌市,建工学校,细颗粒物(PM2.5),85,90,70,63,54,51,,56,56,45,44,10,9,0.9,0.8
2026-01-23T2000,1295A,115.8926,28.6425,南昌市,象湖,细颗粒物(PM2.5),92,75,60,68,56,42,,56,56,33,29,9,10,0.7,0.6
2026-01-23T2000,3046A,115.9084,28.6062,南昌市,机电学校,细颗粒物(PM2.5),113,104,83,85,62,42,,60,60,40,33,5,6,0.6,0.5
2026-01-23T2000,3690A,115.9718,28.7032,南昌市,外国语学校,细颗粒物(PM2.5),80,87,75,59,54,51,,65,65,38,34,13,14,0.6,0.6
2026-01-23T2000,4106A,115.7923,28.6873,南昌市,工业二路,细颗粒物(PM2.5),69,73,63,50,49,13,,73,69,59,25,4,5,0.7,0.6
2026-01-23T2000,4192A,115.931587,28.686774,南昌市,南京东路235号,细颗粒物(PM2.5),108,107,71,81,64,37,,59,56,40,37,8,7,0.6,0.6
2026-01-23T2000,1906A,106.0791,30.8022,南充市,南充市委,细颗粒物(PM2.5),55,51,49,39,42,10,,34,33,60,28,4,4,1.0,0.7
2026-01-23T2000,1907A,106.1038,30.8215,南充市,南充炼油厂,细颗粒物(PM2.5),64,74,58,46,45,14,,37,36,56,20,6,6,0.9,0.6
2026-01-23T2000,4227A,106.108336,30.788436,南充市,梨树横街98号,,43,43,52,27,36,40,,45,45,39,24,5,6,0.9,0.7
2026-01-23T2000,4304A,106.1172,30.843,南充市,清泉寺北路188号,,39,32,40,27,35,34,,48,48,36,16,6,7,0.6,0.6
2026-01-23T2000,4305A,106.067,30.7616,南充市,同庆路1号,"颗粒物(PM10),细颗粒物(PM2.5)",58,66,47,41,39,8,,34,34,64,35,6,6,1.1,0.9
2026-01-23T2000,1151A,118.8033,32.1085,南京市,迈皋桥,细颗粒物(PM2.5),67,67,55,48,37,18,,64,56,60,37,6,7,0.7,0.6
2026-01-23T2000,1152A,118.7487,32.057,南京市,草场门,颗粒物(PM10),69,88,62,48,40,12,,47,43,87,53,3,5,1.0,0.9
2026-01-23T2000,1154A,118.770105,32.004342,南京市,中华门,细颗粒物(PM2.5),67,73,62,48,43,33,,62,59,52,41,4,6,0.9,0.8
2026-01-23T2000,1155A,118.8059,32.0329,南京市,瑞金路,细颗粒物(PM2.5),94,114,68,70,46,3,,59,49,71,37,4,4,2.6,1.6
2026-01-23T2000,1156A,118.7946,32.0774,南京市,玄武湖,细颗粒物(PM2.5),77,90,60,56,39,3,,64,56,33,24,4,4,0.9,0.8
2026-01-23T2000,1157A,118.6415,32.0964,南京市,浦口,细颗粒物(PM2.5),73,77,60,53,39,65,,74,74,22,39,8,9,0.4,0.5
2026-01-23T2000,1158A,118.730129,32.000956,南京市,奥体中心,细颗粒物(PM2.5),73,72,67,53,46,36,,72,68,67,53,11,14,0.8,0.9
2026-01-23T2000,1159A,118.9072,32.1047,南京市,仙林大学城,细颗粒物(PM2.5),70,85,63,51,40,14,,61,56,83,44,7,7,1.0,0.9
2026-01-23T2000,3422A,118.8443,31.919,南京市,江宁彩虹桥,细颗粒物(PM2.5),79,98,68,58,42,14,,81,70,93,67,4,6,1.5,0.9
2026-01-23T2000,3427A,118.8497,32.3599,南京市,六合雄州,细颗粒物(PM2.5),88,117,68,65,39,19,,75,68,89,48,10,8,0.9,0.6
2026-01-23T2000,4086A,118.7641,32.0841,南京市,新模范马路66号,细颗粒物(PM2.5),80,75,67,59,44,30,,84,77,71,28,5,4,0.5,0.6
2026-01-23T2000,4249A,118.8707617,31.34017673,南京市,汶溪路181号,细颗粒物(PM2.5),95,95,61,71,53,32,,76,67,66,42,7,8,1.1,0.9
2026-01-23T2000,4312A,119.019,31.6512,南京市,中山西路1号,细颗粒物(PM2.5),79,68,63,58,53,34,,64,57,46,38,4,4,1.2,1.1
2026-01-23T2000,1401A,108.3098,22.788,南宁市,二十一中,,49,44,28,34,20,42,,39,39,18,20,5,4,0.7,0.6
2026-01-23T2000,1402A,108.3135,22.8529,南宁市,北湖,细颗粒物(PM2.5),58,56,30,41,21,32,,34,33,24,19,5,4,0.7,0.6
2026-01-23T2000,1403A,108.3205,22.8222,南宁市,市监测站,,45,45,31,27,19,32,,34,32,24,20,7,6,0.8,0.7
2026-01-23T2000,1404A,108.3828,22.8038,南宁市,大自然花园,,44,44,31,28,21,43,,46,46,10,11,6,6,0.7,0.6
2026-01-23T2000,1406A,108.2397,22.8462,南宁市,区农职院,细颗粒物(PM2.5),58,48,39,41,26,34,,37,35,28,20,9,10,0.6,0.9
2026-01-23T2000,1407A,108.3285,22.7356,南宁市,英华嘉园,细颗粒物(PM2.5),62,50,30,44,20,32,,43,41,20,15,4,4,0.6,0.8
2026-01-23T2000,3401A,108.4829,22.762,南宁市,红星社区,,49,47,31,34,25,48,,55,54,16,11,6,6,0.7,0.5
2026-01-23T2000,4132A,108.2927,23.1477,南宁市,起凤路9号,,49,41,35,34,29,40,,45,44,12,10,1,2,0.8,0.8
2026-01-23T2000,4221A,108.2177,22.7774,南宁市,乐贤路16号,颗粒物(PM10),53,55,41,14,21,23,,31,28,37,27,1,8,0.7,0.7
2026-01-23T2000,2332A,118.1682,26.6371,南平市,南平市监测站,细颗粒物(PM2.5),62,48,49,44,42,33,,38,37,17,22,4,5,0.5,0.4
2026-01-23T2000,2334A,118.1757,26.6276,南平市,南平七中,细颗粒物(PM2.5),52,45,42,36,39,32,,37,37,17,22,6,6,0.5,0.7
2026-01-23T2000,1168A,120.9056,31.9669,南通市,狼山街道,细颗粒物(PM2.5),93,85,78,69,61,26,,54,50,71,60,3,4,0.7,0.7
2026-01-23T2000,1170A,120.8635,32.0231,南通市,城中,细颗粒物(PM2.5),108,105,80,81,56,38,,60,55,67,43,6,8,0.8,1
2026-01-23T2000,1171A,120.9376,31.9301,南通市,星湖花园,细颗粒物(PM2.5),84,88,70,62,49,27,,60,54,75,50,5,6,0.8,0.6
2026-01-23T2000,1172A,120.8053,32.046,南通市,紫琅学院,细颗粒物(PM2.5),118,136,86,89,57,15,,59,50,92,50,7,6,0.8,0.7
2026-01-23T2000,3291A,121.0631,32.0644,南通市,通州监测站,细颗粒物(PM2.5),100,92,71,75,54,49,,67,64,60,39,5,6,0.8,0.8
2026-01-23T2000,3432A,120.9348,31.9874,南通市,环境教育馆,细颗粒物(PM2.5),104,90,77,78,62,33,,59,54,66,63,6,6,0.9,0.9
2026-01-23T2000,4091A,120.8692,31.9885,南通市,洪江路,细颗粒物(PM2.5),97,92,69,72,58,36,,53,50,61,40,5,5,0.7,0.7
2026-01-23T2000,2404A,112.5338,33.0086,南阳市,瓦房庄,细颗粒物(PM2.5),130,111,81,99,70,39,,74,72,45,17,7,8,1.3,0.7
2026-01-23T2000,2405A,112.5002,32.9734,南阳市,汉画馆,细颗粒物(PM2.5),113,99,83,85,75,21,,75,70,57,23,6,7,0.8,0.5
2026-01-23T2000,2406A,112.5778,33.0144,南阳市,气象站,细颗粒物(PM2.5),104,109,87,78,64,56,,78,77,,15,6,7,0.9,0.7
2026-01-23T2000,2407A,112.548,32.9687,南阳市,理工学院,细颗粒物(PM2.5),90,100,75,67,55,40,,75,72,47,19,6,6,0.8,0.7
2026-01-23T2000,4008A,112.5233,32.9921,南阳市,卧龙区政府,细颗粒物(PM2.5),105,114,90,79,68,39,,72,69,39,17,6,7,0.9,0.7
2026-01-23T2000,1234A,121.8352,29.9111,宁波市,区环保大楼,细颗粒物(PM2.5),79,105,73,58,40,3,,61,45,110,65,8,8,0.8,0.8
2026-01-23T2000,1235A,121.5595,29.8208,宁波市,万里学院,细颗粒物(PM2.5),67,76,71,48,46,28,,62,55,74,54,3,4,0.5,0.6
2026-01-23T2000,1236A,121.713,29.9564,宁波市,龙赛医院,细颗粒物(PM2.5),95,108,77,71,53,3,,72,62,111,61,5,5,0.8,0.5
2026-01-23T2000,1240A,121.5855,29.8635,宁波市,太古小学,细颗粒物(PM2.5),84,104,80,62,47,17,,71,64,91,52,5,4,0.9,0.6
2026-01-23T2000,1241A,121.5239,29.8673,宁波市,市环境监测中心,细颗粒物(PM2.5),88,80,66,65,49,13,,69,61,94,47,7,7,1.0,0.7
2026-01-23T2000,2871A,121.6156,29.9015,宁波市,万里国际学校,细颗粒物(PM2.5),80,81,63,59,48,38,,78,74,75,55,5,5,0.9,0.7
2026-01-23T2000,3710A,121.5593,29.8976,宁波市,白沙活动中心,细颗粒物(PM2.5),80,68,51,59,43,24,,72,66,81,48,4,5,0.7,0.6
2026-01-23T2000,4095A,121.8962,29.7529,宁波市,中科路88号,细颗粒物(PM2.5),58,57,45,41,31,2,,72,56,87,47,6,5,0.5,0.5
2026-01-23T2000,2341A,119.5387,26.6611,宁德市,宁德市监测站,细颗粒物(PM2.5),72,69,47,52,31,11,,32,22,44,30,4,5,1.1,0.6
2026-01-23T2000,3209A,119.5231,26.6562,宁德市,宁德一中,细颗粒物(PM2.5),59,44,40,42,33,22,,34,24,29,22,3,3,0.8,0.5
2026-01-23T2000,2618A,98.859,25.8541,怒江傈僳族自治州,州监测站,,43,43,35,27,23,62,,78,78,18,13,6,6,0.5,0.5
2026-01-23T2000,2619A,98.8607,25.8168,怒江傈僳族自治州,泸水一中,颗粒物(PM10),56,61,32,13,27,18,,66,63,54,20,5,4,1.2,0.6
2026-01-23T2000,1888A,101.6891,26.571,攀枝花市,弄弄坪,颗粒物(PM10),59,67,101,40,80,74,,111,111,41,39,28,25,2.7,1.6
2026-01-23T2000,1889A,101.577,26.5914,攀枝花市,河门口,细颗粒物(PM2.5),67,72,92,48,64,85,,106,106,29,28,48,23,1.4,1.4
2026-01-23T2000,1891A,101.7365,26.4986,攀枝花市,仁和,细颗粒物(PM2.5),107,118,96,80,72,61,,98,96,36,28,13,14,1.2,1.5
2026-01-23T2000,2835A,101.7222,26.567,攀枝花市,四十中小,细颗粒物(PM2.5),114,116,100,86,73,31,,83,83,6,18,19,23,2.2,1.7
2026-01-23T2000,1604A,122.0303,41.1489,盘锦市,开发区,颗粒物(PM10),52,54,51,26,31,48,,67,61,26,24,4,4,0.3,1.3
2026-01-23T2000,1605A,122.0486,41.0883,盘锦市,兴隆台,,49,49,34,30,25,36,,65,60,35,36,10,6,0.7,0.9
2026-01-23T2000,1606A,121.8297,41.1026,盘锦市,新生街道,细颗粒物(PM2.5),60,46,28,43,20,23,,70,59,46,33,9,7,0.5,0.6
2026-01-23T2000,1832A,113.3257,33.7423,平顶山市,新华旅馆,细颗粒物(PM2.5),137,121,121,104,82,36,,78,69,61,46,6,6,0.8,0.8
2026-01-23T2000,1833A,113.2917,33.737,平顶山市,规划设计院,细颗粒物(PM2.5),144,166,109,110,78,26,,77,70,63,24,6,7,1.0,0.7
2026-01-23T2000,1834A,113.182,33.7738,平顶山市,平顶山工学院,细颗粒物(PM2.5),134,143,92,102,79,29,,87,80,54,21,8,7,0.8,0.7
2026-01-23T2000,3594A,112.8736,33.9068,平顶山市,石龙区,细颗粒物(PM2.5),160,160,132,122,105,70,,88,87,32,25,10,6,1.2,0.9
2026-01-23T2000,4116A,113.284,33.7139,平顶山市,姚电大道23号,细颗粒物(PM2.5),147,149,112,112,82,52,,84,78,46,30,7,7,0.7,0.6
2026-01-23T2000,2656A,106.6633,35.5338,平凉市,聚贤嘉苑,颗粒物(PM10),79,108,66,53,40,38,,65,64,45,34,24,18,0.8,0.7
2026-01-23T2000,2657A,106.7021,35.5307,平凉市,博物馆,细颗粒物(PM2.5),99,124,76,74,50,12,,62,58,76,38,17,14,1.3,1.1
2026-01-23T2000,2348A,113.8384,27.6436,萍乡市,中医院,细颗粒物(PM2.5),99,119,109,74,72,15,,51,45,60,42,4,6,1.7,1.2
2026-01-23T2000,2350A,113.8677,27.6438,萍乡市,市环保局,细颗粒物(PM2.5),99,87,98,74,81,36,,44,44,34,30,13,15,1.6,1.7
2026-01-23T2000,2351A,113.8663,27.6202,萍乡市,安源区政府,细颗粒物(PM2.5),129,98,94,98,76,18,,36,34,46,29,9,10,2.3,1.5
2026-01-23T2000,4107A,113.8686,27.6668,萍乡市,联洪村委会,,,,99,,75,,,46,,,32,,5,,1.1
2026-01-23T2000,2319A,119.0142,25.4324,莆田市,荔城区仓后路,,33,33,27,18,16,42,,51,49,17,15,/,/,/,/
2026-01-23T2000,2320A,119.0016,25.4553,莆田市,莆田市监测站,,22,22,18,15,11,58,,56,56,7,10,2,2,0.5,0.5
2026-01-23T2000,2321A,119.112,25.4561,莆田市,涵江区六中,,30,30,32,15,19,52,,55,55,13,22,/,/,0.4,0.5
2026-01-23T2000,2322A,119.1014,25.3215,莆田市,秀屿区政府,,28,19,35,19,26,54,,53,53,16,20,2,4,0.6,0.7
2026-01-23T2000,2392A,115.0312,35.7636,濮阳市,环保局,细颗粒物(PM2.5),185,152,83,139,84,33,,76,71,100,37,7,6,1.5,0.7
2026-01-23T2000,3021A,115,35.7667,濮阳市,濮水河管理处,细颗粒物(PM2.5),200,175,107,150,67,50,,82,79,60,30,5,5,1.3,0.8
2026-01-23T2000,4118A,115.0552,35.7816,濮阳市,中原东路68号,细颗粒物(PM2.5),196,175,109,147,88,62,,84,84,52,28,8,6,1.2,0.8
2026-01-23T2000,4216A,115.0923632,35.76857718,濮阳市,任丘路479号,细颗粒物(PM2.5),206,210,114,156,95,28,,83,76,94,33,6,5,1.6,1
2026-01-23T2000,2601A,100.9801,22.7634,普洱市,市环保局,颗粒物(PM10),54,57,56,18,17,60,,93,89,16,12,5,5,0.4,0.4
2026-01-23T2000,2602A,100.9763,22.8237,普洱市,普洱第二中学,颗粒物(PM10),55,60,47,25,24,58,,104,97,27,23,5,5,0.4,0.3
2026-01-23T2000,3345A,131.0413,45.7795,七台河市,中波台,,42,42,27,28,17,56,,68,65,18,15,10,8,0.5,0.4
2026-01-23T2000,3637A,131.0136,45.7688,七台河市,人民广场,,39,39,32,27,16,58,,69,66,22,17,6,6,0.6,0.5
2026-01-23T2000,3684A,130.8639,45.8144,七台河市,新建矿广场,细颗粒物(PM2.5),52,41,30,36,22,54,,61,60,13,16,5,5,0.5,0.4
2026-01-23T2000,1779A,123.9307,47.3641,齐齐哈尔市,安居小区,,43,43,22,20,8,41,,65,59,31,13,7,8,0.9,0.6
2026-01-23T2000,1780A,123.9497,47.3389,齐齐哈尔市,中心广场,,31,31,14,17,7,35,,63,58,36,11,14,7,0.6,0.4
2026-01-23T2000,1781A,123.9483,47.3229,齐齐哈尔市,农牧车辆厂,颗粒物(PM10),53,56,19,33,10,31,,65,58,36,9,9,5,0.6,0.3
2026-01-23T2000,1783A,123.9442,47.2994,齐齐哈尔市,市环境监测站,颗粒物(PM10),73,96,20,52,6,11,,66,53,64,11,12,5,1.1,0.5
2026-01-23T2000,3662A,123.6341,47.2079,齐齐哈尔市,富区青少年活动中心,,49,49,32,26,11,29,,67,58,46,13,10,6,0.8,0.6
2026-01-23T2000,2591A,107.9765,26.5724,黔东南苗族侗族自治州,市环境监测站,细颗粒物(PM2.5),78,70,52,57,44,38,,43,43,16,21,9,8,0.8,0.8
2026-01-23T2000,2881A,107.8909,26.531,黔东南苗族侗族自治州,凯里学院,"颗粒物(PM10),细颗粒物(PM2.5)",52,53,45,36,35,39,,46,46,21,16,4,3,0.7,0.7
2026-01-23T2000,2593A,107.5223,26.2371,黔南布依族苗族自治州,小围寨,细颗粒物(PM2.5),58,46,38,41,35,33,,45,45,16,10,6,6,0.9,0.8
2026-01-23T2000,3538A,107.5175,26.2977,黔南布依族苗族自治州,沙坝,细颗粒物(PM2.5),62,53,49,44,39,41,,44,44,12,13,6,6,0.8,0.7
2026-01-23T2000,2589A,104.9022,25.0943,黔西南布依族苗族自治州,场坝街,细颗粒物(PM2.5),52,42,38,36,26,24,,30,28,14,11,3,3,0.9,0.8
2026-01-23T2000,2590A,104.8812,25.0994,黔西南布依族苗族自治州,坪东大道,,32,32,36,8,29,26,,31,27,13,11,5,5,1.0,1
2026-01-23T2000,2502A,108.6238,21.9667,钦州市,市环保站,颗粒物(PM10),58,66,48,34,23,29,,39,38,24,20,2,3,1.0,1.1
2026-01-23T2000,2503A,108.655,21.9481,钦州市,沙埠小学,,,,27,47,25,,,36,,,16,,4,,0.6
2026-01-23T2000,2504A,108.5989,21.7435,钦州市,港区一小,细颗粒物(PM2.5),59,57,44,42,32,22,,30,29,27,23,2,4,0.7,0.8
2026-01-23T2000,3404A,108.5959,21.9634,钦州市,北职校,细颗粒物(PM2.5),69,52,33,50,32,27,,40,39,21,14,2,2,0.7,0.6
2026-01-23T2000,1046A,119.5247,39.9346,秦皇岛市,建设大厦,颗粒物(PM10),54,57,59,36,29,30,,58,57,38,36,10,12,0.6,0.9
2026-01-23T2000,3132A,119.5979,39.938,秦皇岛市,文明里,,38,31,62,26,30,52,,61,61,23,44,11,15,0.3,0.7
2026-01-23T2000,4066A,119.7458,39.9952,秦皇岛市,南园路157号,细颗粒物(PM2.5),72,74,54,52,29,6,,60,53,77,46,14,14,1.0,0.9
2026-01-23T2000,4067A,119.5131,39.8858,秦皇岛市,翠岛大街1号,,42,42,65,12,29,64,,64,64,11,40,11,15,0.4,0.9
2026-01-23T2000,4198A,119.509013,39.825305,秦皇岛市,北戴河轮滑馆,,48,48,65,33,35,40,,64,60,36,44,6,13,0.6,0.9
2026-01-23T2000,1310A,120.404,36.0625,青岛市,市南区东部子站,细颗粒物(PM2.5),100,112,72,75,47,64,,76,74,48,41,15,14,1.0,0.8
2026-01-23T2000,1311A,120.362344,36.10282,青岛市,四方区子站,细颗粒物(PM2.5),107,114,76,80,53,67,,81,81,42,36,11,12,1.1,1
2026-01-23T2000,1312A,120.294373,36.054183,青岛市,市南区西部子站,细颗粒物(PM2.5),92,122,71,68,45,78,,84,84,37,45,9,8,0.9,0.7
2026-01-23T2000,1313A,120.4581,36.0858,青岛市,崂山区子站,细颗粒物(PM2.5),104,105,67,78,46,68,,80,77,47,41,16,14,0.9,0.7
2026-01-23T2000,1315A,120.3945,36.3083,青岛市,城阳区子站,细颗粒物(PM2.5),92,122,85,68,46,67,,79,79,49,53,16,12,1.0,1
2026-01-23T2000,3642A,120.3454,36.0735,青岛市,市北区南部,细颗粒物(PM2.5),94,92,69,70,45,54,,60,,55,44,13,6,1.1,0.8
2026-01-23T2000,3643A,120.3897,36.18,青岛市,李沧区北部,细颗粒物(PM2.5),138,132,74,105,60,49,,70,66,64,45,14,14,1.2,1.2
2026-01-23T2000,4110A,120.5222,36.4089,青岛市,盟旺路653号,细颗粒物(PM2.5),114,123,87,86,58,71,,79,79,43,47,8,9,0.9,1
2026-01-23T2000,4290A,120.196923,35.954556,青岛市,珠江路669号,细颗粒物(PM2.5),108,117,60,81,48,18,,83,70,100,42,9,8,1.1,1
2026-01-23T2000,4291A,120.0424,35.8656,青岛市,黄岛区人民政府广场,细颗粒物(PM2.5),113,132,73,85,48,27,,93,82,76,38,13,12,,1
2026-01-23T2000,1703A,113.0218,23.7086,清远市,凤城街办,颗粒物(PM10),51,51,30,33,21,7,,27,22,45,24,/,/,/,/
2026-01-23T2000,3025A,113.0479,23.6343,清远市,技师学院,,50,50,36,30,23,25,,27,27,28,27,5,7,0.6,0.6
2026-01-23T2000,3318A,112.9898,23.7403,清远市,清新太和,,44,44,28,26,19,12,,29,26,35,19,9,9,0.7,0.6
2026-01-23T2000,3455A,113.076,23.72,清远市,清城东城,,40,40,30,26,20,30,,33,32,19,18,/,/,/,/
2026-01-23T2000,2661A,107.6325,35.7357,庆阳市,庆阳五中,细颗粒物(PM2.5),75,78,77,55,56,80,,87,87,31,28,10,8,0.7,0.9
2026-01-23T2000,2662A,107.6361,35.7067,庆阳市,市环保局,细颗粒物(PM2.5),97,80,77,72,72,88,,89,89,21,23,9,12,1.0,1
2026-01-23T2000,1916A,103.7897,25.5036,曲靖市,环境监测站,,47,47,45,14,24,74,,94,93,17,18,5,4,0.6,0.7
2026-01-23T2000,1917A,103.8013,25.5357,曲靖市,烟厂办公区,,27,27,49,15,28,81,,92,92,12,20,4,7,0.3,0.7
2026-01-23T2000,3376A,103.7926,25.4651,曲靖市,南苑二区,,24,21,44,8,29,75,,90,90,12,12,4,4,0.4,0.7
2026-01-23T2000,3377A,103.7442,25.5259,曲靖市,曲靖师范学院,,25,16,33,11,20,77,,97,94,16,12,2,5,0.3,0.6
2026-01-23T2000,1264A,118.8694,28.94,衢州市,环保大楼,细颗粒物(PM2.5),117,114,82,88,69,12,,43,40,70,47,/,/,/,/
2026-01-23T2000,1266A,118.8622,28.9809,衢州市,衢州学院,细颗粒物(PM2.5),94,96,74,70,58,2,,44,39,74,48,5,6,0.9,0.7
2026-01-23T2000,4097A,118.9646,28.9832,衢州市,衢州三中,细颗粒物(PM2.5),115,125,98,87,69,9,,41,37,68,49,8,6,1.3,1.2
2026-01-23T2000,1611A,118.5818,24.9116,泉州市,涂山街,,42,40,26,29,23,42,,60,58,26,20,3,3,0.7,0.6
2026-01-23T2000,1612A,118.597,24.8976,泉州市,津头埔,,47,47,27,28,23,29,,58,54,33,19,4,4,0.5,0.4
2026-01-23T2000,1613A,118.6669,24.9422,泉州市,万安,,38,38,29,23,20,44,,56,55,20,20,3,3,0.6,0.5
2026-01-23T2000,4105A,118.6355,24.9148,泉州市,霞新路6号,,34,34,30,22,20,35,,61,56,38,23,/,/,0.6,0.5
2026-01-23T2000,2626A,88.8873,29.2723,日喀则市,日喀则监测站,,20,17,33,9,18,41,,75,74,39,20,20,12,0.9,0.8
2026-01-23T2000,3726A,88.8775,29.2425,日喀则市,林业技术推广中心,,23,22,26,3,11,72,,78,78,8,12,10,9,0.3,0.4
2026-01-23T2000,1659A,119.4711,35.421,日照市,监测站,细颗粒物(PM2.5),112,132,80,84,57,6,,81,68,101,55,24,15,1.5,1
2026-01-23T2000,1660A,119.523,35.4216,日照市,市政府广场,细颗粒物(PM2.5),102,105,73,76,55,28,,84,77,78,44,15,14,1.0,0.7
2026-01-23T2000,1661A,119.5511,35.4113,日照市,港务局,细颗粒物(PM2.5),97,105,87,72,67,29,,75,70,67,49,10,15,1.0,0.9
2026-01-23T2000,3507A,119.5326,35.4627,日照市,职业技术学院,细颗粒物(PM2.5),77,83,71,56,46,55,,90,79,46,41,12,13,1.1,0.9
2026-01-23T2000,3604A,119.3267,35.1043,日照市,岚山环保分局,细颗粒物(PM2.5),122,141,86,92,66,50,,85,81,55,39,17,33,1.2,1.1
2026-01-23T2000,1835A,111.1922,34.7752,三门峡市,市政府,细颗粒物(PM2.5),134,,72,102,75,2,,6,,91,61,17,14,1.8,1.1
2026-01-23T2000,1836A,111.1588,34.794,三门峡市,开发区,细颗粒物(PM2.5),118,119,101,89,69,44,,62,62,42,40,7,9,0.7,0.8
2026-01-23T2000,3039A,111.1911,34.7829,三门峡市,三门峡市第一小学,细颗粒物(PM2.5),137,133,92,104,71,9,,50,48,87,50,13,14,1.1,0.8
2026-01-23T2000,3598A,111.1031,34.719,三门峡市,富达温泉假日酒店,细颗粒物(PM2.5),127,120,98,96,72,30,,55,55,50,44,11,15,1.0,1
2026-01-23T2000,2324A,117.621,26.2626,三明市,三钢,细颗粒物(PM2.5),75,,44,55,46,26,,36,35,28,16,17,8,0.6,0.6
2026-01-23T2000,2325A,117.6352,26.2714,三明市,三明二中,细颗粒物(PM2.5),64,,37,46,38,32,,37,37,23,16,10,4,0.7,0.6
2026-01-23T2000,2326A,117.6028,26.2377,三明市,三元区政府,细颗粒物(PM2.5),65,,42,47,40,33,,35,35,26,19,13,8,0.9,0.8
2026-01-23T2000,1877A,109.4962,18.2682,三亚市,河西子站,,39,39,36,15,18,101,,105,105,11,9,3,3,0.5,0.6
2026-01-23T2000,3540A,109.7348,18.3443,三亚市,君悦子站,,36,36,36,16,20,107,,105,105,8,10,5,5,0.5,0.5
2026-01-23T2000,4135A,109.1714,18.3739,三亚市,城东小学站,,43,43,40,28,25,100,,108,108,13,12,/,/,/,/
2026-01-23T2000,2624A,91.7592,29.234,山南市,山南监测站,,19,14,20,3,11,58,,74,74,26,13,5,4,0.4,0.3
2026-01-23T2000,2625A,91.7701,29.2436,山南市,山南人民医院,,33,33,19,21,10,45,,76,74,37,14,9,8,0.8,0.6
2026-01-23T2000,1674A,116.6795,23.3666,汕头市,金平子站,,50,37,39,35,32,98,,90,90,20,21,5,7,0.8,0.9
2026-01-23T2000,1675A,116.7248,23.3632,汕头市,龙湖子站,,43,31,35,30,24,94,,95,95,21,19,10,11,/,/
2026-01-23T2000,1676A,116.7257,23.2774,汕头市,濠江子站,,46,,38,32,34,97,,98,98,20,23,8,10,/,/
2026-01-23T2000,1677A,116.7518,23.4712,汕头市,澄海子站,细颗粒物(PM2.5),60,45,42,43,32,87,,86,86,22,17,7,8,0.7,0.7
2026-01-23T2000,1678A,116.6088,23.2539,汕头市,潮阳子站,,42,35,40,29,26,102,,93,93,13,20,7,9,0.6,0.8
2026-01-23T2000,3444A,116.4539,23.2684,汕头市,潮南峡山,细颗粒物(PM2.5),60,57,45,43,31,94,,82,82,20,20,8,8,0.7,0.8
2026-01-23T2000,3624A,116.4069,23.2533,汕头市,潮南子站,颗粒物(PM10),65,80,59,42,34,84,,70,70,27,25,8,8,/,/
2026-01-23T2000,1693A,115.3653,22.7751,汕尾市,市环保局,细颗粒物(PM2.5),63,,29,45,28,99,,102,102,23,14,8,7,0.7,0.6
2026-01-23T2000,1695A,115.362,22.7926,汕尾市,新城中学,细颗粒物(PM2.5),65,48,32,47,28,95,,101,101,26,14,6,8,0.7,0.6
2026-01-23T2000,2645A,109.9155,33.8714,商洛市,监测站,细颗粒物(PM2.5),89,91,56,66,39,13,,57,53,69,35,11,6,1.6,0.8
2026-01-23T2000,3045A,109.9647,33.8486,商洛市,商州区中学,细颗粒物(PM2.5),62,65,54,44,35,17,,52,50,61,33,18,7,1.1,0.9
2026-01-23T2000,2408A,115.6701,34.4283,商丘市,环境监测站,细颗粒物(PM2.5),183,142,82,138,79,24,,99,85,82,31,3,3,1.3,0.7
2026-01-23T2000,2409A,115.6458,34.4047,商丘市,粮食局,细颗粒物(PM2.5),140,118,75,107,72,55,,92,90,47,21,3,4,1.2,0.8
2026-01-23T2000,3171A,115.6069,34.4465,商丘市,梁园区档案局,细颗粒物(PM2.5),137,,65,104,67,68,,98,96,45,24,1,2,0.9,0.6
2026-01-23T2000,4119A,115.6701,34.3767,商丘市,北海东路185号,细颗粒物(PM2.5),144,134,103,110,76,56,,90,88,53,27,1,2,0.9,0.8
2026-01-23T2000,4120A,115.6172,34.3704,商丘市,中山大街3号,细颗粒物(PM2.5),196,182,104,147,78,27,,87,80,92,36,5,5,,0.3
2026-01-23T2000,1141A,121.401,31.2382,上海市,普陀,细颗粒物(PM2.5),84,80,70,62,51,32,,80,68,73,43,6,7,0.9,0.9
2026-01-23T2000,1142A,121.4774,31.2043,上海市,十五厂,,,,65,,48,,,78,78,67,47,8,7,0.8,0.9
2026-01-23T2000,1143A,121.4673,31.3011,上海市,虹口,细颗粒物(PM2.5),77,72,73,56,51,23,,67,60,79,48,7,8,0.5,0.5
2026-01-23T2000,1147A,121.4253,31.226,上海市,静安监测站,细颗粒物(PM2.5),70,67,66,51,51,50,,78,75,59,42,7,8,0.4,0.4
