timepoint,stationcode,longitude,latitude,area,positionname,primarypollutant,aqi,pm10,pm10_24h,pm2_5,pm2_5_24h,o3,o3_24h,o3_8h,o3_8h_24h,no2,no2_24h,so2,so2_24h,co,co_24h
2026-01-23T0100,2568A,102.2503,31.8896,阿坝藏族羌族自治州,马师校,,30,,26,21,21,26,,,,23,13,4,4,0.5,0.5
2026-01-23T0100,3994A,102.2174,31.9016,阿坝藏族羌族自治州,马尔康中学西区,,28,20,22,19,13,30,,,,23,13,5,6,0.4,0.4
2026-01-23T0100,2695A,80.2899,41.1684,阿克苏地区,电视台,颗粒物(PM10),423,523,551,97,99,38,,,,25,34,7,7,1.6,2.4
2026-01-23T0100,2696A,80.2592,41.1541,阿克苏地区,艺术中心,颗粒物(PM10),429,529,525,113,108,33,,,,37,32,4,4,0.6,1
2026-01-23T0100,2205A,105.699,38.8409,阿拉善盟,蒙二幼,,24,24,33,7,16,64,,,,13,15,9,10,0.6,0.7
2026-01-23T0100,2206A,105.7198,38.8508,阿拉善盟,环保局新楼,,25,19,21,10,7,80,,,,4,8,8,8,0.5,0.5
2026-01-23T0100,2708A,88.1266,47.8515,阿勒泰地区,市站,,23,17,15,6,7,73,,,,12,28,4,6,0.4,0.4
2026-01-23T0100,4166A,88.1198,47.7931,阿勒泰地区,阿勒泰路33号,,30,30,17,10,6,45,,,,31,25,8,10,0.6,0.4
2026-01-23T0100,2630A,80.1171,32.4999,阿里地区,阿里监测站,,18,,2,3,3,55,,,,8,7,8,8,0.6,0.6
2026-01-23T0100,3192A,80.0906,32.5029,阿里地区,阿里藏医院,,27,10,18,6,8,85,,,,1,7,15,13,0.5,0.7
2026-01-23T0100,2644A,109.0088,32.6974,安康市,汉滨区检察院,,48,41,41,33,33,16,,,,23,16,5,5,0.6,0.5
2026-01-23T0100,4054A,109.0324,32.6913,安康市,市邮政管理局,细颗粒物(PM2.5),60,51,49,43,37,18,,,,20,18,9,6,0.5,0.5
2026-01-23T0100,2291A,117.0806,30.5181,安庆市,环科院,细颗粒物(PM2.5),68,81,53,49,39,1,,,,67,25,6,8,0.9,0.6
2026-01-23T0100,2292A,117.0331,30.5118,安庆市,马山宾馆,细颗粒物(PM2.5),60,59,53,43,37,8,,,,69,33,6,7,0.6,0.4
2026-01-23T0100,2294A,116.9897,30.6146,安庆市,安庆大学,,49,46,43,34,34,14,,,,42,26,3,5,0.6,0.5
2026-01-23T0100,3173A,117.0598,30.5351,安庆市,市人大,细颗粒物(PM2.5),69,67,56,50,39,17,,,,52,30,7,7,1.5,0.6
2026-01-23T0100,3123A,105.9408,26.2431,安顺市,凤凰山,细颗粒物(PM2.5),65,,24,47,24,43,,,,21,18,20,17,0.6,0.5
2026-01-23T0100,3124A,105.9443,26.2567,安顺市,金钟山,细颗粒物(PM2.5),60,,21,43,24,42,,,,14,12,22,19,0.7,0.6
2026-01-23T0100,3125A,105.8983,26.248,安顺市,娄家坡,细颗粒物(PM2.5),69,,24,50,26,42,,,,15,13,26,22,0.6,0.7
2026-01-23T0100,1819A,114.3552,36.1017,安阳市,红庙街,细颗粒物(PM2.5),107,84,104,80,98,64,,,,28,32,2,4,0.7,0.8
2026-01-23T0100,1820A,114.361,36.0681,安阳市,银杏小区,细颗粒物(PM2.5),113,93,109,85,108,69,,,,25,32,2,4,0.6,0.7
2026-01-23T0100,3141A,114.3921,36.0879,安阳市,信访局,细颗粒物(PM2.5),108,96,109,81,101,67,,,,24,26,5,6,0.6,0.7
2026-01-23T0100,3669A,114.4706,36.0634,安阳市,左辅环卫站,细颗粒物(PM2.5),112,99,118,84,101,66,,,,24,27,2,4,0.7,0.7
2026-01-23T0100,4117A,114.2918,36.0769,安阳市,钢三路198号,细颗粒物(PM2.5),125,100,133,95,107,47,,,,26,28,2,3,0.6,0.7
2026-01-23T0100,1748A,123.0441,41.1201,鞍山市,深沟寺,,50,50,48,33,30,40,,,,28,31,17,19,1.5,1.5
2026-01-23T0100,1749A,123.011,41.0931,鞍山市,太阳城,,43,43,51,29,35,41,,,,25,32,24,20,1.6,1.2
2026-01-23T0100,1750A,123.0483,41.1445,鞍山市,太平,颗粒物(PM10),57,63,75,36,41,26,,,,34,40,14,16,1.3,1.6
2026-01-23T0100,1751A,122.964,41.0968,鞍山市,铁西三道街,颗粒物(PM10),57,64,91,36,42,30,,,,45,52,35,25,1.4,1.4
2026-01-23T0100,1753A,123.0219,41.0822,鞍山市,明达新区,,41,41,53,24,32,46,,,,21,26,25,22,1.3,1.3
2026-01-23T0100,4201A,122.944647,41.082639,鞍山市,兴盛南路290号,颗粒物(PM10),59,67,93,32,43,36,,,,34,43,27,19,1.7,1.6
2026-01-23T0100,2195A,107.4206,40.7609,巴彦淖尔市,附二中,细颗粒物(PM2.5),97,108,73,72,39,2,,,,54,35,13,11,1.4,0.8
2026-01-23T0100,2196A,107.37,40.7372,巴彦淖尔市,市环保大楼,细颗粒物(PM2.5),118,125,78,89,43,6,,,,61,42,8,7,1.4,0.9
2026-01-23T0100,1956A,86.1476,41.7529,巴音郭楞蒙古自治州,孔雀公园,颗粒物(PM10),190,330,353,57,55,3,,,,67,33,8,8,0.9,0.8
2026-01-23T0100,1957A,86.1971,41.7166,巴音郭楞蒙古自治州,棉纺厂,颗粒物(PM10),230,371,417,54,55,4,,,,62,38,/,/,/,/
2026-01-23T0100,1958A,86.236,41.7172,巴音郭楞蒙古自治州,经济开发区,颗粒物(PM10),194,337,352,47,35,25,,,,35,24,4,5,0.7,0.5
2026-01-23T0100,3181A,106.776805,31.852614,巴中市,市五中,细颗粒物(PM2.5),64,61,48,46,35,4,,,,23,20,5,5,0.9,0.8
2026-01-23T0100,3183A,106.7419,31.8654,巴中市,圣泉水务公司,细颗粒物(PM2.5),69,57,42,50,37,1,,,,36,27,5,5,0.6,0.7
2026-01-23T0100,3616A,106.7617,31.8343,巴中市,市中心医院,细颗粒物(PM2.5),67,63,48,48,36,5,,,,30,22,7,7,0.8,0.8
2026-01-23T0100,2235A,122.7909,45.608,白城市,洮北区环保局,,24,24,29,10,14,63,,,,5,9,4,4,0.1,0.1
2026-01-23T0100,2236A,122.8741,45.5725,白城市,市环保局,,29,29,31,16,14,60,,,,8,15,6,5,0.3,0.3
2026-01-23T0100,2231A,126.4219,41.9172,白山市,喜丰,细颗粒物(PM2.5),62,70,60,44,37,20,,,,45,32,22,20,1.1,0.9
2026-01-23T0100,2232A,126.4082,41.9416,白山市,环保局,细颗粒物(PM2.5),55,54,46,39,35,20,,,,32,26,10,12,1.1,0.9
2026-01-23T0100,2647A,104.1727,36.5448,白银市,第三小学,细颗粒物(PM2.5),82,92,82,60,53,42,,,,34,45,28,43,0.9,1
2026-01-23T0100,2648A,104.1467,36.5482,白银市,动力公司,细颗粒物(PM2.5),78,66,65,57,46,52,,,,18,26,9,14,1.1,1.1
2026-01-23T0100,2512A,106.6102,23.901,百色市,市监测站,,29,23,22,20,11,31,,,,20,14,28,9,0.8,0.7
2026-01-23T0100,2513A,106.6524,23.8842,百色市,市中心血站,,45,32,26,31,21,37,,,,10,10,15,10,0.7,0.7
2026-01-23T0100,4133A,106.6273,23.8798,百色市,龙景西路,,38,30,23,26,13,26,,,,21,12,27,10,0.5,0.5
2026-01-23T0100,2270A,117.396,32.9389,蚌埠市,工人疗养院,细颗粒物(PM2.5),62,62,67,44,50,65,,,,18,30,8,8,0.3,0.4
2026-01-23T0100,2271A,117.3606,32.9428,蚌埠市,百货大楼,颗粒物(PM10),56,62,63,37,48,20,,,,67,37,5,8,0.6,0.6
2026-01-23T0100,2273A,117.4183,32.8909,蚌埠市,蚌埠学院,细颗粒物(PM2.5),55,56,56,39,46,64,,,,21,32,4,5,0.5,0.5
2026-01-23T0100,2274A,117.3534,32.9672,蚌埠市,淮上区政府,细颗粒物(PM2.5),72,58,72,52,56,28,,,,60,44,2,3,0.5,0.5
2026-01-23T0100,2275A,117.3143,32.8977,蚌埠市,高新区,细颗粒物(PM2.5),64,51,59,46,49,50,,,,28,31,6,7,0.4,0.4
2026-01-23T0100,3715A,117.3091,32.9314,蚌埠市,蚌埠田家炳中学,细颗粒物(PM2.5),74,61,73,54,56,44,,,,33,43,7,6,0.7,0.6
2026-01-23T0100,1585A,109.8761,40.6533,包头市,市环境监测站,颗粒物(PM10),56,61,90,25,48,30,,,,35,59,21,23,1.4,3
2026-01-23T0100,1587A,109.9992,40.5843,包头市,包头八中,颗粒物(PM10),62,74,98,37,64,26,,,,42,54,6,22,0.8,2.1
2026-01-23T0100,1589A,109.8641,40.6288,包头市,惠龙物流,颗粒物(PM10),53,56,82,25,53,40,,,,34,57,22,27,1.2,3
2026-01-23T0100,1590A,110.0376,40.5546,包头市,东河鸿龙湾,颗粒物(PM10),66,81,78,43,44,8,,,,82,63,9,19,1.3,1.6
2026-01-23T0100,3283A,109.9154,40.5684,包头市,滨河大厦,细颗粒物(PM2.5),99,105,77,74,52,3,,,,81,64,19,23,2.0,1.9
2026-01-23T0100,3419A,109.9449,40.6259,包头市,包头市委党校,细颗粒物(PM2.5),59,65,77,42,46,6,,,,66,58,10,18,1.1,2.2
2026-01-23T0100,3683A,109.8332,40.6577,包头市,昆区政府,颗粒物(PM10),60,69,90,35,56,40,,,,31,63,39,29,1.5,3
2026-01-23T0100,1931A,107.0802,34.3129,宝鸡市,竹园沟,细颗粒物(PM2.5),92,,67,68,65,16,,,,27,22,5,5,0.5,0.5
2026-01-23T0100,1933A,107.1429,34.3549,宝鸡市,监测站,细颗粒物(PM2.5),110,86,80,83,72,12,,,,37,32,4,5,0.7,0.7
2026-01-23T0100,1934A,107.1172,34.3759,宝鸡市,技工学校,细颗粒物(PM2.5),108,,81,81,72,28,,,,23,28,2,4,0.6,0.6
2026-01-23T0100,1936A,107.2025,34.3518,宝鸡市,文理学院,细颗粒物(PM2.5),115,99,78,87,72,17,,,,38,32,4,4,0.9,0.8
2026-01-23T0100,1937A,107.2396,34.3626,宝鸡市,三迪小学,细颗粒物(PM2.5),132,102,86,100,80,16,,,,41,38,2,4,0.8,0.7
2026-01-23T0100,4155A,107.1721,34.3558,宝鸡市,滨河北路,细颗粒物(PM2.5),108,115,91,81,68,17,,,,25,29,4,4,0.7,0.7
2026-01-23T0100,4308A,107.3898,34.3601,宝鸡市,陈仓区北开路21号,细颗粒物(PM2.5),176,,90,133,78,13,,,,48,34,5,9,1.1,0.9
2026-01-23T0100,1051A,115.4803,38.8568,保定市,游泳馆,细颗粒物(PM2.5),100,100,76,75,61,5,,,,82,61,6,6,1.2,0.8
2026-01-23T0100,1052A,115.509,38.8895,保定市,华电二区,细颗粒物(PM2.5),88,91,77,65,57,0,,,,74,55,4,4,1.2,1
2026-01-23T0100,1053A,115.4588,38.9037,保定市,接待中心,细颗粒物(PM2.5),90,93,76,67,56,1,,,,68,51,1,2,0.7,0.6
2026-01-23T0100,1054A,115.4484,38.8344,保定市,地表水厂,细颗粒物(PM2.5),107,138,101,80,59,2,,,,79,64,6,6,1.1,0.8
2026-01-23T0100,3581A,115.3136,38.9511,保定市,满城区生态环境分局,细颗粒物(PM2.5),88,97,105,65,56,2,,,,61,55,4,4,1.4,1.2
2026-01-23T0100,3582A,115.4709,38.7628,保定市,清苑区第二中学,细颗粒物(PM2.5),108,152,122,81,68,4,,,,88,64,10,9,1.2,0.9
2026-01-23T0100,3583A,115.6231,39.0223,保定市,徐水物探局,细颗粒物(PM2.5),85,106,99,63,59,5,,,,68,56,8,4,1.0,0.9
2026-01-23T0100,4004A,115.4199,38.8665,保定市,双鹰农机,细颗粒物(PM2.5),100,120,94,75,57,10,,,,73,49,8,8,1.0,0.8
2026-01-23T0100,4034A,115.515,38.8589,保定市,植保所站,细颗粒物(PM2.5),93,86,82,69,64,0,,,,86,69,3,2,1.3,1.1
2026-01-23T0100,2594A,99.1589,25.1137,保山市,市环境监测站,,21,20,23,12,16,67,,,,6,9,3,5,0.3,0.3
2026-01-23T0100,2595A,99.1616,25.1381,保山市,市环保局,,42,,25,29,23,75,,,,4,6,3,4,0.5,0.4
2026-01-23T0100,1867A,109.1435,21.4085,北海市,海滩公园,,49,41,28,34,19,27,,,,14,14,6,6,0.8,0.8
2026-01-23T0100,1868A,109.0983,21.466,北海市,新市环保局,细颗粒物(PM2.5),55,,20,39,22,26,,,,16,14,6,5,1.1,1
2026-01-23T0100,1869A,109.1775,21.5232,北海市,北海工业园,细颗粒物(PM2.5),53,,24,37,22,22,,,,16,15,6,6,0.7,0.6
2026-01-23T0100,3400A,109.1844,21.4396,北海市,龙潭自来水厂,细颗粒物(PM2.5),54,,27,38,25,24,,,,17,15,7,6,0.8,0.8
2026-01-23T0100,1001A,116.3611,39.8786,北京市,万寿西宫,颗粒物(PM10),55,59,40,32,23,0,,,,77,43,3,3,0.7,0.5
2026-01-23T0100,1003A,116.4174,39.9289,北京市,东四,颗粒物(PM10),55,60,39,35,20,2,,,,67,40,5,5,0.9,0.5
2026-01-23T0100,1004A,116.4073,39.8858,北京市,天坛,颗粒物(PM10),56,61,39,39,23,3,,,,63,39,1,2,1.1,0.8
2026-01-23T0100,1005A,116.4622,39.9364,北京市,农展馆,颗粒物(PM10),56,61,40,34,19,2,,,,69,38,5,3,1.1,0.6
2026-01-23T0100,1006A,116.3399,39.9293,北京市,官园,颗粒物(PM10),51,51,39,31,22,1,,,,66,42,5,5,0.7,0.5
2026-01-23T0100,1007A,116.2879,39.9613,北京市,海淀万柳,颗粒物(PM10),51,52,40,29,21,1,,,,71,52,3,3,1.0,0.6
2026-01-23T0100,1008A,116.6635,40.1349,北京市,顺义新城,,49,49,30,24,15,7,,,,45,23,5,4,0.5,0.4
2026-01-23T0100,1009A,116.6275,40.327,北京市,怀柔镇,,30,29,20,21,13,25,,,,18,14,4,4,0.6,0.4
2026-01-23T0100,1010A,116.2295,40.217,北京市,昌平镇,,45,45,41,25,21,11,,,,45,36,2,3,0.6,0.6
2026-01-23T0100,1011A,116.3968,39.982,北京市,奥体中心,颗粒物(PM10),55,60,35,32,18,1,,,,89,53,6,4,1.0,0.6
2026-01-23T0100,3418A,116.8336,40.4095,北京市,密云新城,,25,25,26,10,11,32,,,,21,14,1,1,0.4,0.4
2026-01-23T0100,3671A,116.0879,39.9725,北京市,门头沟三家店,,48,48,41,26,21,2,,,,42,36,2,3,0.6,0.5
2026-01-23T0100,3672A,116.1507,39.8246,北京市,丰台云岗,颗粒物(PM10),51,51,40,24,21,4,,,,60,40,2,2,0.7,0.6
2026-01-23T0100,3674A,115.9578,39.7602,北京市,房山燕山,,48,48,42,24,22,16,,,,38,30,4,5,0.4,0.5
2026-01-23T0100,3675A,116.4669,39.7734,北京市,大兴旧宫,颗粒物(PM10),69,87,54,41,27,0,,,,60,45,2,3,0.8,0.6
2026-01-23T0100,3694A,115.9859,40.4562,北京市,延庆石河营,颗粒物(PM10),59,67,43,41,22,2,,,,48,35,3,4,1.5,0.8
2026-01-23T0100,3695A,116.6151,40.3052,北京市,怀柔新城,,39,39,22,26,14,24,,,,18,11,4,4,0.5,0.4
2026-01-23T0100,3696A,116.2542,39.8764,北京市,丰台小屯,颗粒物(PM10),57,63,46,34,22,0,,,,69,54,3,4,0.8,0.7
2026-01-23T0100,3697A,116.8399,40.3843,北京市,密云镇,,27,27,25,15,11,3,,,,44,23,1,1,0.3,0.3
2026-01-23T0100,4057A,115.9423,40.4431,北京市,延庆百泉,,50,50,40,28,23,0,,,,44,32,1,3,0.8,0.7
2026-01-23T0100,4058A,116.6598,39.9164,北京市,通州新华,颗粒物(PM10),71,92,58,50,24,1,,,,80,49,3,3,1.1,0.6
2026-01-23T0100,4182A,116.1942,39.9158,北京市,石景山八角,,50,50,39,27,20,5,,,,55,44,2,3,0.6,0.5
2026-01-23T0100,4194A,117.078628,40.151726,北京市,平谷新城,,35,34,24,24,17,20,,,,24,21,2,3,0.6,0.5
2026-01-23T0100,1761A,123.8274146,41.31234549,本溪市,大峪,颗粒物(PM10),59,68,71,28,38,11,,,,54,42,6,8,1.2,1.3
2026-01-23T0100,1763A,123.7169,41.3094,本溪市,彩屯,颗粒物(PM10),101,152,115,63,71,22,,,,45,44,7,7,1.4,1.9
2026-01-23T0100,1764A,123.7672166,41.28649327,本溪市,东明,细颗粒物(PM2.5),79,98,73,58,57,10,,,,61,47,6,7,1.4,1.5
2026-01-23T0100,1765A,123.799345,41.266614,本溪市,新立屯,,40,40,45,25,27,15,,,,48,42,8,11,1.0,1.6
2026-01-23T0100,1766A,123.829144,41.336777,本溪市,威宁,细颗粒物(PM2.5),68,68,76,49,42,8,,,,50,52,6,6,1.4,1.3
2026-01-23T0100,2587A,105.287,27.3133,毕节市,八中,细颗粒物(PM2.5),64,51,32,46,27,34,,,,15,16,9,10,0.8,0.8
2026-01-23T0100,2588A,105.3079,27.2987,毕节市,师专,细颗粒物(PM2.5),57,49,31,40,25,40,,,,16,16,9,9,0.9,0.8
2026-01-23T0100,4263A,105.3688,27.3598,毕节市,工业大道,细颗粒物(PM2.5),57,53,31,40,23,27,,,,14,10,12,10,/,/
2026-01-23T0100,1629A,117.9961,37.3604,滨州市,第二水厂,细颗粒物(PM2.5),79,83,76,58,49,8,,,,66,49,19,21,0.8,0.8
2026-01-23T0100,1630A,117.9789,37.3931,滨州市,北中新校,细颗粒物(PM2.5),79,85,72,58,48,12,,,,55,38,14,15,0.7,0.8
2026-01-23T0100,3514A,117.9379,37.3959,滨州市,中海酒店,细颗粒物(PM2.5),73,78,75,53,54,25,,,,53,48,18,20,0.7,0.9
2026-01-23T0100,3515A,117.9381509,37.35547456,滨州市,开发区一中,细颗粒物(PM2.5),92,95,80,68,54,3,,,,73,48,23,25,0.8,0.7
2026-01-23T0100,3516A,118.0914,37.6938,滨州市,金海六路,细颗粒物(PM2.5),79,85,77,58,46,8,,,,76,58,19,11,0.7,0.7
2026-01-23T0100,4028A,117.9955,37.3752,滨州市,滨州市西街道办事处,,,83,76,63,53,,,,,49,42,16,18,0.9,0.9
2026-01-23T0100,2311A,115.8071,33.8399,亳州市,污水处理厂,细颗粒物(PM2.5),62,57,66,44,53,62,,,,23,26,4,6,0.2,0.3
2026-01-23T0100,2312A,115.7789,33.8519,亳州市,三国揽胜宫,细颗粒物(PM2.5),67,55,72,48,54,68,,,,18,24,3,4,0.4,0.4
2026-01-23T0100,3332A,115.7631,33.803,亳州市,亳州学院,细颗粒物(PM2.5),67,65,72,48,56,67,,,,17,21,3,5,0.3,0.4
2026-01-23T0100,2693A,82.0482,44.8553,博尔塔拉蒙古自治州,市党校,颗粒物(PM10),80,110,94,46,51,44,,,,32,30,6,6,1.1,1.1
2026-01-23T0100,2694A,82.0805,44.8966,博尔塔拉蒙古自治州,市环保局,颗粒物(PM10),73,96,111,34,46,63,,,,21,30,6,8,0.5,1
2026-01-23T0100,1071A,116.8733,38.2922,沧州市,沧县城建局,细颗粒物(PM2.5),144,140,115,110,85,8,,,,86,57,7,12,1.2,1.1
2026-01-23T0100,1072A,116.8462,38.3189,沧州市,电视转播站,细颗粒物(PM2.5),185,143,111,139,95,1,,,,91,49,7,9,1.2,1
2026-01-23T0100,1073A,116.8588,38.3161,沧州市,市环保局,细颗粒物(PM2.5),159,145,115,121,91,3,,,,79,45,10,12,1.2,1
2026-01-23T0100,3324A,116.8011,38.294,沧州市,河北水利电力学院,细颗粒物(PM2.5),153,171,123,117,84,4,,,,94,57,9,11,1.1,0.9
2026-01-23T0100,2622A,97.1813,31.1289,昌都市,昌都监测站,颗粒物(PM10),53,55,35,12,13,38,,,,17,17,3,3,0.6,0.6
2026-01-23T0100,3719A,97.1707,31.1428,昌都市,昌都会议中心,,23,16,12,16,15,47,,,,3,4,4,2,0.3,0.3
2026-01-23T0100,2692A,87.2722,44.0298,昌吉回族自治州,新区政务中心,细颗粒物(PM2.5),186,173,172,140,134,13,,,,59,43,8,8,1.5,1.3
2026-01-23T0100,3613A,87.3069,44.0093,昌吉回族自治州,亚心广场,细颗粒物(PM2.5),206,193,184,156,146,13,,,,57,41,7,8,1.4,1.3
2026-01-23T0100,4164A,87.2057,43.9289,昌吉回族自治州,财政所,细颗粒物(PM2.5),175,166,162,132,123,23,,,,40,38,5,5,1.2,1.1
2026-01-23T0100,1120A,125.2874,43.9024,长春市,客车厂,,35,32,39,24,29,38,,,,34,30,10,11,0.5,0.5
2026-01-23T0100,1121A,125.2943,43.8508,长春市,邮电学院,,38,33,37,26,25,36,,,,35,28,11,12,0.3,0.4
2026-01-23T0100,1122A,125.3648,43.8745,长春市,劳动公园,"颗粒物(PM10),细颗粒物(PM2.5)",52,53,42,36,25,40,,,,33,29,5,7,0.7,0.5
2026-01-23T0100,1123A,125.3233,43.8781,长春市,园林处,,38,34,37,26,25,32,,,,37,25,15,11,0.5,0.6
2026-01-23T0100,1124A,125.4604,43.7904,长春市,净月潭,,32,32,37,22,23,57,,,,10,16,6,7,0.5,0.5
2026-01-23T0100,1126A,125.38,43.8422,长春市,经开区环卫处,颗粒物(PM10),51,51,40,32,23,36,,,,36,29,4,6,0.5,0.5
2026-01-23T0100,1127A,125.234,43.7761,长春市,高新区管委会,细颗粒物(PM2.5),79,62,44,58,32,13,,,,62,34,6,8,0.8,0.5
2026-01-23T0100,1128A,125.1695,43.83,长春市,岱山公园,,35,31,42,24,30,40,,,,29,29,7,7,0.5,0.5
2026-01-23T0100,4281A,125.334645,43.916281,长春市,北亚泰大街1068号,,40,36,42,28,26,28,,,,41,31,10,11,0.5,0.5
2026-01-23T0100,1335A,113.082,28.2421,长沙市,经开区环保局,细颗粒物(PM2.5),107,84,63,80,52,12,,,,37,22,2,3,0.6,0.5
2026-01-23T0100,1336A,112.8873,28.2202,长沙市,高开区环保局,细颗粒物(PM2.5),99,80,58,74,50,10,,,,45,20,4,5,0.7,0.5
2026-01-23T0100,1337A,113.0785,28.2012,长沙市,马坡岭,细颗粒物(PM2.5),97,86,66,72,52,11,,,,36,24,4,5,0.8,0.8
2026-01-23T0100,1338A,112.9448,28.1894,长沙市,湖南师范大学,细颗粒物(PM2.5),75,68,57,55,36,5,,,,41,18,4,5,0.6,0.5
2026-01-23T0100,1339A,113.0177,28.1322,长沙市,雨花区环保局,细颗粒物(PM2.5),94,88,67,70,44,9,,,,41,26,8,8,0.9,0.7
2026-01-23T0100,1340A,112.9795,28.2593,长沙市,伍家岭,细颗粒物(PM2.5),89,84,60,66,42,7,,,,48,19,4,5,0.9,0.7
2026-01-23T0100,1341A,113.002,28.1944,长沙市,火车新站,细颗粒物(PM2.5),92,85,62,68,50,10,,,,49,24,2,2,0.9,0.7
2026-01-23T0100,1342A,112.9846,28.1177,长沙市,天心区环保局,细颗粒物(PM2.5),83,77,57,61,46,19,,,,40,24,6,6,0.7,0.5
2026-01-23T0100,1343A,112.8906,28.1307,长沙市,湖南中医药大学,细颗粒物(PM2.5),79,76,54,58,35,2,,,,47,24,5,6,0.7,0.5
2026-01-23T0100,1727A,113.1146,36.1547,长治市,清华站,,,53,62,41,49,27,,,,,31,12,14,1.0,1
2026-01-23T0100,1730A,113.0887,36.2126,长治市,审计局,细颗粒物(PM2.5),73,58,69,53,62,46,,,,30,31,14,12,1.4,1.3
2026-01-23T0100,1731A,113.0845,36.1856,长治市,长治八中,细颗粒物(PM2.5),70,72,84,51,69,48,,,,20,24,16,14,1.2,1.3
2026-01-23T0100,2845A,113.1561,36.1912,长治市,德盛苑,,49,38,46,34,45,72,,,,13,17,14,12,0.8,1
2026-01-23T0100,3568A,113.0603,36.0464,长治市,向阳小学,细颗粒物(PM2.5),67,76,81,48,54,58,,,,26,31,21,15,1.0,1.1
2026-01-23T0100,3569A,112.8788,36.315,长治市,屯留一中,细颗粒物(PM2.5),102,92,72,76,55,2,,,,57,35,47,22,2.4,1.9
2026-01-23T0100,4189A,113.113092,36.199482,长治市,英华南巷50号,细颗粒物(PM2.5),58,52,63,41,48,50,,,,20,24,19,12,1.0,1.2
2026-01-23T0100,4190A,113.23666,36.33435,长治市,学府街1号,细颗粒物(PM2.5),82,65,74,60,62,9,,,,63,41,11,12,1.7,1.4
2026-01-23T0100,1854A,111.696,28.9725,常德市,市二中,细颗粒物(PM2.5),80,77,57,59,47,51,,,,19,16,4,6,0.7,0.6
2026-01-23T0100,3138A,111.7152,29.0288,常德市,武陵区永安,细颗粒物(PM2.5),84,84,60,62,46,54,,,,21,17,10,7,0.8,0.7
2026-01-23T0100,3139A,111.6891,28.9881,常德市,鼎城区玉霞,细颗粒物(PM2.5),82,63,62,60,50,41,,,,30,22,18,9,0.6,0.6
2026-01-23T0100,3140A,111.6651,29.0526,常德市,武陵区长庚,细颗粒物(PM2.5),80,,66,59,48,40,,,,36,17,9,6,0.5,0.4
2026-01-23T0100,1196A,119.9524,31.7586,常州市,市监测站,细颗粒物(PM2.5),89,110,61,66,36,0,,,,76,44,3,6,1.5,1
2026-01-23T0100,1200A,119.9351,31.703,常州市,武进监测站,细颗粒物(PM2.5),70,70,48,51,35,12,,,,66,40,8,11,1.3,1
2026-01-23T0100,3002A,119.9701,31.813,常州市,行政中心,细颗粒物(PM2.5),75,89,56,55,33,3,,,,88,46,7,7,1.0,0.7
2026-01-23T0100,3003A,120.0434,31.7726,常州市,经开区,颗粒物(PM10),91,132,68,66,34,1,,,,86,44,6,5,1.0,0.6
2026-01-23T0100,3010A,119.8919,31.7892,常州市,钟楼,,,78,51,59,33,,,,,78,43,7,9,0.9,0.7
2026-01-23T0100,3429A,119.8595,31.706,常州市,武进经发区,细颗粒物(PM2.5),89,86,58,66,44,4,,,,78,50,8,8,0.8,0.7
2026-01-23T0100,3430A,119.5812,31.7256,常州市,金坛城区,细颗粒物(PM2.5),64,64,51,46,32,28,,,,46,28,7,8,0.8,0.8
2026-01-23T0100,4089A,119.9551,31.863,常州市,崇义南街5-H号,细颗粒物(PM2.5),90,96,55,67,33,4,,,,80,43,6,7,1.0,0.7
2026-01-23T0100,2220A,120.4318,41.588,朝阳市,西梁,颗粒物(PM10),89,128,74,39,43,2,,,,58,41,11,12,1.0,0.9
2026-01-23T0100,2221A,120.452,41.565,朝阳市,河畔小区,细颗粒物(PM2.5),58,59,49,41,32,4,,,,54,32,13,11,1.5,1
2026-01-23T0100,2222A,120.4176,41.5648,朝阳市,八里堡,细颗粒物(PM2.5),84,81,64,62,44,4,,,,55,41,16,13,1.4,1.2
2026-01-23T0100,3026A,116.6179,23.6608,潮州市,市政府,,32,30,28,22,19,11,,,,11,9,2,2,0.4,0.4
2026-01-23T0100,4036A,116.646,23.676,潮州市,金山,,36,27,28,25,22,8,,,,14,13,2,2,0.5,0.6
2026-01-23T0100,2473A,113.0116,25.8228,郴州市,市职中,,,55,41,43,33,16,,,,,12,2,2,0.3,0.4
2026-01-23T0100,2475A,113.0381,25.8074,郴州市,市审计局,细颗粒物(PM2.5),67,60,35,48,34,19,,,,17,17,1,1,/,/
2026-01-23T0100,2476A,113.0348,25.7757,郴州市,市环保局,细颗粒物(PM2.5),73,62,42,53,35,15,,,,16,15,1,2,0.5,0.5
2026-01-23T0100,4252A,113.0138,25.8011,郴州市,好美居路49号,细颗粒物(PM2.5),77,56,39,56,39,24,,,,16,15,2,2,/,/
2026-01-23T0100,1431A,103.9727,30.7242,成都市,金泉两河,颗粒物(PM10),72,94,72,34,47,16,,,,38,39,1,2,0.6,0.6
2026-01-23T0100,1432A,104.1423,30.6765,成都市,十里店,,26,22,59,18,43,46,,,,21,28,3,3,0.5,0.5
2026-01-23T0100,1433A,104.0594,30.5765,成都市,三瓦窑,颗粒物(PM10),51,52,66,34,50,38,,,,28,36,3,3,0.6,0.6
2026-01-23T0100,1434A,104.1122,30.6306,成都市,沙河铺,,49,42,62,34,47,29,,,,29,34,3,4,0.7,0.7
2026-01-23T0100,2880A,104.0219,30.6561,成都市,大石西路,细颗粒物(PM2.5),60,64,71,43,48,18,,,,28,22,4,6,0.7,0.7
2026-01-23T0100,3136A,104.2724,30.559,成都市,龙泉驿区区政府,,25,,41,17,34,57,,,,12,18,5,6,0.8,0.8
2026-01-23T0100,3357A,104.0028,30.6891,成都市,金博路,,50,44,56,35,44,23,,,,31,33,4,4,0.7,0.7
2026-01-23T0100,3359A,104.056,30.5228,成都市,华阳,,35,27,54,24,42,42,,,,24,27,2,2,0.6,0.6
2026-01-23T0100,3488A,104.387954,30.746684,成都市,青石路225号,,38,38,52,15,39,45,,,,21,21,3,3,0.7,0.7
2026-01-23T0100,3489A,104.0788,30.4054,成都市,科学城,,36,27,53,25,46,46,,,,13,18,6,6,0.6,0.9
2026-01-23T0100,4011A,103.8505,30.6946,成都市,光华大道三段,细颗粒物(PM2.5),109,98,77,82,55,13,,,,43,33,4,3,0.7,0.6
2026-01-23T0100,4144A,104.3257,30.6406,成都市,八角井街185号,,36,32,57,25,41,54,,,,15,17,2,3,0.7,0.8
2026-01-23T0100,4224A,104.2433276,30.53529463,成都市,鲸龙路1057号,,26,24,48,18,36,57,,,,13,19,4,5,0.8,0.8
2026-01-23T0100,1062A,117.9531,40.908,承德市,铁路,颗粒物(PM10),55,59,48,38,26,12,,,,34,31,10,14,1.0,0.8
2026-01-23T0100,1063A,117.9397,40.9763,承德市,中国银行,颗粒物(PM10),59,67,45,36,19,5,,,,46,31,3,3,0.9,0.6
2026-01-23T0100,4073A,117.9462,40.95,承德市,杏林街1号,颗粒物(PM10),56,62,36,31,23,5,,,,40,26,6,7,1.0,0.6
2026-01-23T0100,4274A,117.7994,40.9605,承德市,滨河大街98号,,45,45,39,24,22,11,,,,38,28,4,18,0.6,0.7
2026-01-23T0100,2314A,117.4698,30.6617,池州市,池州学院,细颗粒物(PM2.5),70,60,53,51,43,20,,,,37,32,4,7,0.6,0.6
2026-01-23T0100,3237A,117.4918,30.6617,池州市,展览馆,细颗粒物(PM2.5),58,59,52,41,34,14,,,,42,35,2,4,1.0,0.9
2026-01-23T0100,3333A,117.5626,30.695,池州市,第八中学,细颗粒物(PM2.5),67,66,55,48,40,11,,,,47,32,3,6,0.6,0.6
2026-01-23T0100,3334A,117.5037,30.6242,池州市,第十二中学,细颗粒物(PM2.5),77,83,57,56,39,4,,,,52,37,4,5,1.9,0.9
2026-01-23T0100,1744A,118.9229,42.2816,赤峰市,松山一中,颗粒物(PM10),61,72,35,36,18,2,,,,52,42,8,9,1.4,1.1
2026-01-23T0100,1745A,118.9588,42.2733,赤峰市,哈达街,细颗粒物(PM2.5),57,61,39,40,18,4,,,,45,26,15,18,1.1,0.8
2026-01-23T0100,1746A,118.8792,42.2551,赤峰市,天义路,细颗粒物(PM2.5),89,,19,66,15,3,,,,47,25,6,6,1.2,0.8
2026-01-23T0100,3058A,119.2656,42.0356,赤峰市,银河街,细颗粒物(PM2.5),74,86,70,54,40,5,,,,44,27,19,25,1.8,1.3
2026-01-23T0100,3286A,118.9359,42.3146,赤峰市,桥北物流园区,颗粒物(PM10),54,57,32,34,18,9,,,,47,30,10,7,0.9,0.7
2026-01-23T0100,2521A,107.3473,22.4137,崇左市,市环保局江州分局,,44,44,22,26,14,22,,,,15,12,5,5,0.8,1
2026-01-23T0100,4256A,107.375,22.3736,崇左市,石景林东路7号,,29,26,17,20,11,26,,,,15,12,1,3,0.6,0.7
2026-01-23T0100,3207A,118.31131,32.3033,滁州市,市政府原办公楼,细颗粒物(PM2.5),62,61,58,44,37,8,,,,53,34,4,7,0.9,0.7
2026-01-23T0100,3331A,118.3268,32.2633,滁州市,图书馆,细颗粒物(PM2.5),54,56,47,38,30,19,,,,45,31,7,9,0.8,0.7
2026-01-23T0100,4101A,118.3196,32.3335,滁州市,银山路666号,细颗粒物(PM2.5),83,61,56,61,48,1,,,,38,26,2,4,0.5,0.5
2026-01-23T0100,4102A,118.3426,32.2979,滁州市,黄山路555号,细颗粒物(PM2.5),84,74,63,62,48,4,,,,54,31,14,16,1.2,0.9
2026-01-23T0100,2606A,101.5379,25.0492,楚雄彝族自治州,市经济开发区,,42,42,26,27,18,6,,,,53,21,4,4,0.6,0.4
2026-01-23T0100,4153A,101.5536,25.0343,楚雄彝族自治州,团结路562号,,28,23,23,19,14,56,,,,10,14,4,5,0.5,0.4
2026-01-23T0100,2549A,107.5087,31.2186,达州市,市环境监测站,细颗粒物(PM2.5),92,101,70,68,43,5,,,,30,29,6,10,0.7,0.6
2026-01-23T0100,2550A,107.4988,31.2132,达州市,凤凰小区,细颗粒物(PM2.5),94,97,72,70,48,15,,,,32,32,7,9,0.7,0.6
2026-01-23T0100,2551A,107.5081,31.1987,达州市,达县机关宾馆,细颗粒物(PM2.5),82,92,71,60,47,2,,,,35,34,2,8,0.9,0.8
2026-01-23T0100,2552A,107.4644,31.2124,达州市,市政中心,细颗粒物(PM2.5),85,92,76,63,45,13,,,,26,30,11,11,0.6,0.5
2026-01-23T0100,2614A,100.2168,25.5818,大理白族自治州,大理市环境监测站,,42,,18,29,18,79,,,,5,6,6,6,0.5,0.6
2026-01-23T0100,2615A,100.1542,25.7055,大理白族自治州,大理古城,,35,,21,24,14,71,,,,6,8,8,8,0.7,0.7
2026-01-23T0100,1109A,121.6119,38.974,大连市,甘井子,,39,37,33,27,20,32,,,,48,27,7,8,0.5,0.4
2026-01-23T0100,1110A,121.565,38.9509,大连市,周水子,细颗粒物(PM2.5),62,64,42,44,29,5,,,,85,46,15,14,1.5,0.8
2026-01-23T0100,1111A,121.5637,38.8849,大连市,星海三站,细颗粒物(PM2.5),55,39,28,39,22,4,,,,44,27,7,9,1.1,0.7
2026-01-23T0100,1112A,121.6301,38.9117,大连市,青泥洼桥,,47,47,38,30,23,9,,,,58,36,9,9,0.9,0.8
2026-01-23T0100,1113A,121.6248,38.8643,大连市,傅家庄,细颗粒物(PM2.5),53,41,29,37,20,53,,,,20,28,15,10,0.9,0.6
2026-01-23T0100,1114A,121.5117,38.8636,大连市,七贤岭,,43,,21,30,17,58,,,,11,16,7,7,0.6,0.6
2026-01-23T0100,1116A,121.7507,39.1339,大连市,金州,,38,34,29,26,21,65,,,,20,18,8,9,0.5,0.4
2026-01-23T0100,1117A,121.7811,39.0495,大连市,开发区,,43,43,35,30,26,25,,,,46,37,4,4,0.7,0.7
2026-01-23T0100,1118A,121.9762,39.0631,大连市,双D港,,,,27,,16,,,84,,,11,,8,,0.3
2026-01-23T0100,4082A,121.2548,38.8188,大连市,旅顺,,50,46,42,35,34,34,,,,22,24,8,9,1.1,0.9
2026-01-23T0100,1789A,124.8085,46.0381,大庆市,大同区,细颗粒物(PM2.5),65,71,37,47,20,22,,,,43,17,7,8,1.1,0.8
2026-01-23T0100,1790A,125.1166,46.5255,大庆市,龙凤区,细颗粒物(PM2.5),78,69,38,57,26,29,,,,37,26,10,11,0.8,0.5
2026-01-23T0100,1791A,124.8894,46.4007,大庆市,红岗区,细颗粒物(PM2.5),80,63,31,59,17,4,,,,48,20,6,5,0.9,0.4
2026-01-23T0100,1792A,125.1391,46.578,大庆市,萨尔图区,颗粒物(PM10),70,90,34,44,16,22,,,,49,24,12,9,0.8,0.5
2026-01-23T0100,1793A,124.9026,46.6217,大庆市,让胡路区,,48,,30,33,26,69,,,,9,16,8,9,0.6,0.7
2026-01-23T0100,3481A,125.127,46.6277,大庆市,萨区政府监测点,颗粒物(PM10),57,64,29,29,14,18,,,,53,19,11,10,1.2,0.6
2026-01-23T0100,1723A,113.2926,40.0759,大同市,云冈宾馆,细颗粒物(PM2.5),63,71,78,45,40,17,,,,41,47,11,18,2.1,1.4
2026-01-23T0100,1724A,113.3437,40.0921,大同市,大同大学,颗粒物(PM10),57,63,76,37,36,30,,,,34,45,18,22,0.9,1.1
2026-01-23T0100,1725A,113.2637,40.129,大同市,安家小村,颗粒物(PM10),81,112,101,48,44,3,,,,60,49,19,24,2.4,2.4
2026-01-23T0100,3282A,113.3399,40.0586,大同市,大同市卫生学校,颗粒物(PM10),62,74,71,36,33,30,,,,42,48,11,18,1.4,1.2
2026-01-23T0100,3565A,113.1371,40.1122,大同市,云冈站,颗粒物(PM10),59,67,66,34,31,1,,,,56,39,8,26,0.8,0.7
2026-01-23T0100,3566A,113.1186,40.2556,大同市,图书馆,颗粒物(PM10),51,51,63,28,35,29,,,,20,27,3,12,0.7,0.6
2026-01-23T0100,3567A,113.5931,40.0459,大同市,区一中,颗粒物(PM10),58,65,94,39,47,26,,,,26,37,13,31,1.4,1.6
2026-01-23T0100,4199A,113.2798248,40.09972476,大同市,魏都大道141号,颗粒物(PM10),90,130,107,50,44,7,,,,64,57,13,19,2.4,2
2026-01-23T0100,2269A,124.1068,50.4091,大兴安岭地区,科技局,,21,12,16,3,6,66,,,,1,2,5,6,0.1,0.1
2026-01-23T0100,3663A,124.117,50.4279,大兴安岭地区,红旗社区,,22,,4,3,6,69,,,,1,3,4,4,0.3,0.3
2026-01-23T0100,1600A,124.33,40.0625,丹东市,江湾东路,颗粒物(PM10),60,69,68,42,40,20,,,,24,31,25,16,2.5,1.5
2026-01-23T0100,1601A,124.4242,40.1513,丹东市,临江后街,,45,41,50,31,38,35,,,,15,26,4,13,0.9,0.9
2026-01-23T0100,1602A,124.3935,40.1461,丹东市,元宝山,细颗粒物(PM2.5),79,82,44,58,28,5,,,,49,25,28,17,1.1,0.6
2026-01-23T0100,1603A,124.3634,40.1093,丹东市,民主桥,细颗粒物(PM2.5),69,81,65,50,37,1,,,,53,35,16,15,1.5,1.1
2026-01-23T0100,3541A,109.5726195,19.51688767,儋州市,第一中学子站,颗粒物(PM10),53,55,61,25,31,53,,,,8,12,4,4,0.8,0.8
2026-01-23T0100,3542A,109.5567,19.5187,儋州市,东坡学校子站,颗粒物(PM10),53,55,55,31,34,62,,,,6,10,4,4,0.8,0.8
2026-01-23T0100,2616A,98.5611,24.4273,德宏傣族景颇族自治州,德宏州监测站,细颗粒物(PM2.5),54,45,53,38,41,37,,,,20,27,6,7,0.7,0.7
2026-01-23T0100,3677A,98.5887,24.4366,德宏傣族景颇族自治州,芒市人民政府综合楼,,43,43,44,29,28,33,,,,12,15,4,4,0.7,0.7
2026-01-23T0100,1901A,104.424,31.1209,德阳市,东山公园,细颗粒物(PM2.5),55,43,45,39,39,29,,,,11,9,1,1,0.7,0.6
2026-01-23T0100,1902A,104.3827,31.1318,德阳市,西小区,细颗粒物(PM2.5),58,51,61,41,45,34,,,,20,25,2,2,0.7,0.7
2026-01-23T0100,1904A,104.3553,31.1091,德阳市,耐火材料厂,细颗粒物(PM2.5),63,45,59,45,47,32,,,,19,27,1,2,0.6,0.6
2026-01-23T0100,4145A,104.4144,31.1495,德阳市,市林业局,细颗粒物(PM2.5),62,48,50,44,47,13,,,,35,28,2,2,0.7,0.7
2026-01-23T0100,1622A,116.3034,37.4675,德州市,儿童乐园,细颗粒物(PM2.5),77,83,106,56,69,61,,,,28,39,12,15,0.9,1
2026-01-23T0100,1624A,116.2992,37.4449,德州市,监理站,细颗粒物(PM2.5),89,70,100,66,70,66,,,,33,43,10,14,0.7,0.9
2026-01-23T0100,3066A,116.2722,37.438,德州市,九衢泉纯净水厂,,,,107,,74,,,73,,,52,,11,,1.0
2026-01-23T0100,3371A,116.3693,37.44,德州市,开发区人民医院,细颗粒物(PM2.5),89,85,103,66,67,57,,,,37,46,13,17,0.7,0.8
2026-01-23T0100,3511A,116.5687,37.3331,德州市,陵城艺术中心,细颗粒物(PM2.5),77,78,86,56,52,43,,,,36,39,16,22,0.7,0.7
2026-01-23T0100,4292A,116.352738,37.420875,德州市,新河东路,细颗粒物(PM2.5),83,85,106,61,73,47,,,,35,45,12,15,0.8,1
2026-01-23T0100,2621A,99.7054,27.8319,迪庆藏族自治州,迪庆州站,,42,37,29,29,20,46,,,,14,9,5,5,0.5,0.5
2026-01-23T0100,3180A,99.7122,27.8129,迪庆藏族自治州,质量技术监督局,,36,31,26,25,16,56,,,,11,11,4,5,0.6,0.5
2026-01-23T0100,4257A,104.6092,35.5962,定西市,将台街,细颗粒物(PM2.5),90,105,84,67,54,9,,,,50,30,16,15,1.3,0.8
2026-01-23T0100,4309A,104.6159,35.5701,定西市,正龙路62号,细颗粒物(PM2.5),90,90,83,67,47,34,,,,13,11,8,9,1.0,0.7
2026-01-23T0100,1390A,113.7943,23.0132,东莞市,东城石井,,27,27,35,15,19,21,,,,16,16,5,6,0.6,0.6
2026-01-23T0100,1391A,113.7384,22.9659,东莞市,南城西平,,26,26,31,14,16,13,,,,25,22,6,6,0.6,0.6
2026-01-23T0100,3319A,113.7283,23.041,东莞市,万江金泰,,22,22,30,14,18,21,,,,20,18,4,4,0.6,0.6
2026-01-23T0100,4129A,113.8666,23.1062,东莞市,裕兴路,,24,24,30,14,15,19,,,,22,17,4,4,0.7,0.8
2026-01-23T0100,4130A,114.0076,22.9739,东莞市,教育路1号,,,31,40,16,22,,,,,20,23,4,4,0.7,0.7
2026-01-23T0100,4131A,113.7981,22.8124,东莞市,长怡路1号,,34,34,41,16,19,13,,,,29,27,5,6,0.6,0.6
2026-01-23T0100,1666A,118.6612,37.4313,东营市,市环保局,细颗粒物(PM2.5),92,100,74,68,43,7,,,,66,49,31,20,1.1,1
2026-01-23T0100,3036A,118.6903,37.4337,东营市,开发区管委会,细颗粒物(PM2.5),92,102,72,68,46,9,,,,69,49,6,6,1.0,0.8
2026-01-23T0100,3365A,118.5721,37.5654,东营市,垦利区民丰路,细颗粒物(PM2.5),83,95,76,61,45,4,,,,76,54,20,13,0.9,0.8
2026-01-23T0100,3498A,118.5063,37.8606,东营市,河口城区,颗粒物(PM10),76,102,78,51,47,7,,,,75,49,12,9,1.2,0.9
2026-01-23T0100,3646A,118.4979,37.4623,东营市,胜利站,细颗粒物(PM2.5),92,92,75,68,49,0,,,,93,69,29,23,1.0,0.9
2026-01-23T0100,3734A,118.5753,37.4405,东营市,理想之城,细颗粒物(PM2.5),98,100,74,73,46,0,,,,76,53,16,14,1.0,0.9
2026-01-23T0100,1591A,110.0024,39.8127,鄂尔多斯市,综合楼,,48,48,68,27,28,40,,,,30,40,10,15,0.6,0.7
2026-01-23T0100,1592A,109.9485,39.8259,鄂尔多斯市,巴音孟克林场办事处,颗粒物(PM10),52,53,54,29,27,27,,,,37,33,11,14,0.7,0.7
2026-01-23T0100,1593A,109.7734,39.5987,鄂尔多斯市,康泽苑,颗粒物(PM10),56,61,50,33,26,20,,,,34,27,9,9,0.7,0.6
2026-01-23T0100,1594A,109.8121,39.5987,鄂尔多斯市,华泰汽车城,颗粒物(PM10),58,66,51,35,23,8,,,,42,36,5,7,0.8,0.6
2026-01-23T0100,1595A,109.9734,39.7884,鄂尔多斯市,奥林花园,颗粒物(PM10),52,53,68,29,27,35,,,,31,45,9,12,0.7,0.7
2026-01-23T0100,2436A,114.894,30.3989,鄂州市,市政府,细颗粒物(PM2.5),108,85,75,81,70,35,,,,36,25,5,7,0.8,1
2026-01-23T0100,2437A,114.8986,30.3714,鄂州市,赵家坝,细颗粒物(PM2.5),100,97,82,75,69,23,,,,45,26,7,9,0.9,1.1
2026-01-23T0100,3654A,114.8093,30.4091,鄂州市,精准医疗中心,细颗粒物(PM2.5),97,78,76,72,66,56,,,,30,18,5,9,0.6,0.8
2026-01-23T0100,2454A,109.4978,30.2979,恩施土家族苗族自治州,湖北民院,细颗粒物(PM2.5),102,,58,76,60,10,,,,19,12,6,6,0.9,0.7
2026-01-23T0100,3549A,109.5061,30.3771,恩施土家族苗族自治州,龙凤新区,细颗粒物(PM2.5),100,86,66,75,59,7,,,,22,20,7,7,0.8,0.7
2026-01-23T0100,2499A,108.3411,21.6159,防城港市,沙万,,20,20,16,12,5,42,,,,9,12,5,6,0.7,0.7
2026-01-23T0100,2500A,108.3515,21.7733,防城港市,防城档案局,,41,41,19,11,9,39,,,,10,12,4,4,0.5,0.6
2026-01-23T0100,2501A,108.3506,21.6414,防城港市,大海花园,,22,,15,15,12,41,,,,11,13,6,5,0.5,0.6
2026-01-23T0100,1371A,113.1293,23.0065,佛山市,湾梁,,31,31,34,17,15,16,,,,23,23,/,/,/,/
2026-01-23T0100,1372A,113.1082,23.0477,佛山市,华材职中,,33,27,40,23,22,19,,,,18,19,6,6,0.6,0.6
2026-01-23T0100,1373A,113.1439,23.045,佛山市,南海气象局,,30,25,28,21,18,17,,,,27,28,/,/,/,/
2026-01-23T0100,1374A,113.2879,22.8094,佛山市,顺德苏岗,,28,28,26,17,16,17,,,,26,25,/,/,0.7,0.7
2026-01-23T0100,1376A,112.8384,22.8678,佛山市,高明孔堂,,36,36,40,24,23,16,,,,21,20,/,/,/,/
2026-01-23T0100,1377A,112.8835,23.1584,佛山市,三水监测站,,33,27,29,23,20,19,,,,23,23,4,3,0.8,0.7
2026-01-23T0100,1378A,112.8668,23.185,佛山市,三水云东海,,29,26,28,20,16,18,,,,24,23,/,/,/,/
2026-01-23T0100,3625A,113.2568,22.7629,佛山市,容桂街道办,,28,22,34,19,20,15,,,,30,29,/,/,/,/
2026-01-23T0100,1282A,119.2681,26.0506,福州市,师大,,35,35,30,24,25,44,,,,23,23,5,4,0.6,0.7
2026-01-23T0100,1283A,119.2983,26.1028,福州市,五四北路,,42,29,27,29,28,45,,,,20,21,7,6,0.6,0.7
2026-01-23T0100,1284A,119.2648,26.0769,福州市,杨桥西路,,35,35,30,23,27,42,,,,14,13,7,5,/,/
2026-01-23T0100,3048A,119.5799,26.0937,福州市,九龙,,39,35,32,27,26,52,,,,21,25,5,7,0.7,0.7
2026-01-23T0100,3526A,119.5188,25.9666,福州市,吴航,,43,43,44,30,31,49,,,,18,21,6,7,0.6,0.7
2026-01-23T0100,4104A,119.3106,26.0648,福州市,路通桥巷6号,,46,43,39,32,31,45,,,,16,17,/,/,/,/
2026-01-23T0100,1755A,123.7974,41.8494,抚顺市,望花区,细颗粒物(PM2.5),99,123,97,74,62,2,,,,62,48,6,7,1.6,1.5
2026-01-23T0100,1756A,123.9161,41.8827,抚顺市,顺城区,细颗粒物(PM2.5),125,135,91,95,71,7,,,,63,49,12,11,1.8,1.4
2026-01-23T0100,1757A,124.0437,41.8615,抚顺市,东洲区,细颗粒物(PM2.5),58,63,71,41,44,26,,,,38,35,8,9,0.9,1
2026-01-23T0100,1758A,123.9246,41.8638,抚顺市,新抚区,细颗粒物(PM2.5),94,91,88,70,56,5,,,,65,52,5,7,1.4,1.4
2026-01-23T0100,1759A,124.0972,41.8961,抚顺市,大伙房水库,细颗粒物(PM2.5),62,60,51,44,36,9,,,,53,30,9,10,1.0,0.9
2026-01-23T0100,1760A,123.708,41.8386,抚顺市,沈抚新城,细颗粒物(PM2.5),93,124,86,69,66,10,,,,65,46,8,9,1.4,1.9
2026-01-23T0100,2377A,116.3544,27.9833,抚州市,市站,细颗粒物(PM2.5),69,65,54,50,40,31,,,,17,14,10,8,1.4,1.1
2026-01-23T0100,2378A,116.3562,27.9631,抚州市,血防站,细颗粒物(PM2.5),69,72,60,50,38,33,,,,17,15,9,6,1.4,1.2
2026-01-23T0100,2379A,116.3561,28.0007,抚州市,采茶剧团,细颗粒物(PM2.5),72,62,55,52,40,35,,,,12,8,7,6,1.1,1.1
2026-01-23T0100,2380A,116.3854,27.9648,抚州市,医学分院,颗粒物(PM10),61,72,61,43,38,37,,,,14,9,9,7,0.7,0.6
2026-01-23T0100,2207A,121.6095,41.9978,阜新市,工业园区,颗粒物(PM10),103,156,61,76,26,2,,,,53,23,24,16,1.5,0.6
2026-01-23T0100,2208A,121.6567,42.0188,阜新市,长青街,细颗粒物(PM2.5),118,,33,89,24,6,,,,45,16,19,10,1.2,0.6
2026-01-23T0100,2209A,121.6672,42.07,阜新市,农业园区,,44,44,25,8,6,55,,,,9,7,8,8,0.3,0.1
2026-01-23T0100,2211A,121.6343,42.0455,阜新市,玉龙新城,颗粒物(PM10),77,103,53,52,23,2,,,,52,23,18,9,1.2,0.7
2026-01-23T0100,2301A,115.8276,32.8929,阜阳市,市监测站,细颗粒物(PM2.5),64,56,82,46,65,49,,,,27,30,4,4,0.4,0.5
2026-01-23T0100,2303A,115.8551,32.8606,阜阳市,开发区,,49,39,63,34,55,58,,,,25,32,5,6,0.4,0.6
2026-01-23T0100,2875A,115.783962,32.889217,阜阳市,阜阳职业技术学院,,41,41,62,22,45,70,,,,18,23,8,9,0.5,0.6
2026-01-23T0100,3468A,115.79,32.8614,阜阳市,市规划展馆,颗粒物(PM10),62,73,75,37,58,54,,,,26,22,6,7,0.3,0.7
2026-01-23T0100,3469A,115.835101,32.918568,阜阳市,枣园社区,颗粒物(PM10),60,70,76,38,60,53,,,,26,28,4,5,0.3,0.4
2026-01-23T0100,2669A,102.9097,34.9841,甘南藏族自治州,州政府,颗粒物(PM10),62,73,62,41,31,2,,,,50,30,13,9,1.1,0.8
2026-01-23T0100,3380A,102.8915,34.9618,甘南藏族自治州,甘肃民族师范学院,,50,50,78,25,25,7,,,,49,36,9,11,0.4,0.4
2026-01-23T0100,2570A,101.96,30.048,甘孜藏族自治州,水桥子,,21,21,21,3,8,26,,,,35,23,6,6,0.3,0.7
2026-01-23T0100,3065A,101.9534,29.9976,甘孜藏族自治州,州环保局,,22,15,20,3,6,68,,,,5,12,5,5,0.3,0.5
2026-01-23T0100,2363A,114.9368,25.8663,赣州市,地委,颗粒物(PM10),53,55,44,36,25,42,,,,15,15,7,7,0.5,0.4
2026-01-23T0100,2364A,114.946,25.8483,赣州市,气象台,颗粒物(PM10),60,70,57,37,23,42,,,,15,19,5,5,0.4,0.4
2026-01-23T0100,2365A,114.932,25.8332,赣州市,市图书馆,,49,46,36,34,27,38,,,,18,20,5,4,0.6,0.6
2026-01-23T0100,2366A,114.8905,25.8472,赣州市,华坚鞋城,细颗粒物(PM2.5),54,52,39,38,29,40,,,,13,15,5,4,0.4,0.3
2026-01-23T0100,3109A,115.0094,25.8614,赣州市,赣县区卫计委,细颗粒物(PM2.5),67,56,42,48,39,38,,,,8,9,7,7,0.6,0.6
2026-01-23T0100,2684A,106.2753,36.0057,固原市,监测站,颗粒物(PM10),74,98,73,53,49,2,,,,65,37,9,8,1.1,1.2
2026-01-23T0100,2685A,106.2384,36.0189,固原市,新区,细颗粒物(PM2.5),124,104,76,94,53,7,,,,61,37,8,7,2.0,1.2
2026-01-23T0100,2544A,106.6307,30.4577,广安市,市委,细颗粒物(PM2.5),63,61,59,45,44,25,,,,15,20,8,8,0.9,0.9
2026-01-23T0100,2545A,106.6266,30.4662,广安市,友谊中学,细颗粒物(PM2.5),59,64,52,42,45,25,,,,16,20,6,6,0.7,1.2
2026-01-23T0100,2547A,106.6386,30.4551,广安市,广电花园,细颗粒物(PM2.5),69,55,55,50,47,22,,,,15,19,8,8,0.7,0.7
2026-01-23T0100,2902A,106.6347,30.4868,广安市,北辰小学,细颗粒物(PM2.5),68,53,53,49,47,27,,,,14,17,4,4,1.0,1
2026-01-23T0100,2524A,105.8211,32.4444,广元市,老城,细颗粒物(PM2.5),60,57,46,43,31,20,,,,33,27,1,2,0.9,0.8
2026-01-23T0100,2526A,105.8629,32.429,广元市,监测站,细颗粒物(PM2.5),69,50,46,50,32,37,,,,14,23,6,7,0.8,0.8
2026-01-23T0100,3617A,105.8047,32.4167,广元市,经开区,细颗粒物(PM2.5),58,54,44,41,31,23,,,,25,26,3,3,0.8,0.7
2026-01-23T0100,1345A,113.2346,23.1423,广州市,广雅中学,,30,30,36,18,21,13,,,,34,29,2,3,0.3,0.3
2026-01-23T0100,1346A,113.2611,23.105,广州市,市五中,,33,33,36,20,22,19,,,,35,30,8,9,/,/
2026-01-23T0100,1348A,113.3477,23.0916,广州市,广东商学院,,31,31,32,20,18,18,,,,10,8,5,5,0.6,0.5
2026-01-23T0100,1349A,113.4332,23.105,广州市,市八十六中,,28,,29,19,20,18,,,,24,21,6,7,/,/
2026-01-23T0100,1350A,113.3506,22.9488,广州市,番禺中学,,35,35,39,20,21,14,,,,30,24,2,3,0.6,0.5
2026-01-23T0100,1351A,113.2147,23.3918,广州市,花都师范,,42,32,32,29,23,23,,,,20,22,8,8,0.6,0.6
2026-01-23T0100,1352A,113.2599,23.1329,广州市,市监测站,,33,32,26,23,22,17,,,,21,25,2,2,/,/
2026-01-23T0100,1353A,113.5618,23.3119,广州市,九龙镇镇龙,,18,18,25,10,14,25,,,,16,16,4,4,0.5,0.5
2026-01-23T0100,1354A,113.2764,23.1544,广州市,麓湖,,29,28,33,20,22,14,,,,25,21,9,10,0.8,0.7
2026-01-23T0100,2846A,113.3209,23.1323,广州市,体育西,,34,34,34,23,20,14,,,,26,21,6,6,0.7,0.6
2026-01-23T0100,3298A,113.5718,23.5493,广州市,从化街口,,16,16,20,11,13,30,,,,10,12,8,8,0.4,0.6
2026-01-23T0100,3299A,113.3463,23.369,广州市,白云竹料,,21,21,32,12,17,27,,,,18,16,4,5,0.6,0.6
2026-01-23T0100,3300A,113.2981,23.2365,广州市,白云嘉禾,,26,26,31,15,17,26,,,,21,21,5,6,/,/
2026-01-23T0100,3301A,113.4256,23.1716,广州市,黄埔科学城,,32,32,32,18,18,18,,,,24,19,6,6,0.5,0.7
2026-01-23T0100,3302A,113.3942,23.0485,广州市,番禺大学城,,33,33,32,18,17,12,,,,30,20,5,6,0.6,0.6
2026-01-23T0100,3303A,113.4923,22.8169,广州市,南沙黄阁,,22,,23,15,20,12,,,,33,30,5,6,/,/
2026-01-23T0100,3304A,113.534,22.7893,广州市,南沙街,,42,42,42,17,19,11,,,,29,28,8,8,0.9,0.8
2026-01-23T0100,3443A,113.2905,23.5541,广州市,花都梯面,,25,24,28,17,17,27,,,,10,11,4,7,/,/
2026-01-23T0100,3445A,113.786,23.7479,广州市,从化良口,,19,19,19,12,12,29,,,,10,11,7,7,/,/
2026-01-23T0100,3446A,113.805,23.2614,广州市,增城荔城,,16,16,22,11,14,25,,,,14,13,6,6,0.6,0.6
2026-01-23T0100,2506A,109.604387,23.066791,贵港市,江南子站,,46,44,28,32,17,23,,,,14,9,4,4,0.6,0.6
2026-01-23T0100,2508A,109.5669,23.1065,贵港市,荷城子站,,39,36,28,27,21,26,,,,16,15,4,4,0.9,0.8
2026-01-23T0100,3405A,109.5886,23.1172,贵港市,新世纪学校,,46,46,32,28,20,28,,,,13,13,/,/,0.4,0.4
2026-01-23T0100,4260A,109.5933,23.095,贵港市,中山路155-3号,,49,43,25,34,21,28,,,,15,13,/,/,0.8,0.8
2026-01-23T0100,1439A,106.6863,26.6035,贵阳市,马鞍山,,32,,27,22,24,48,,,,10,13,7,9,/,/
2026-01-23T0100,1441A,106.6241,26.6266,贵阳市,鉴湖路,,41,41,37,22,24,41,,,,16,15,3,4,0.6,0.6
2026-01-23T0100,1442A,106.7468,26.6344,贵阳市,燕子冲,,32,,15,22,29,61,,,,9,11,9,10,0.7,0.8
2026-01-23T0100,1443A,106.6556,26.4362,贵阳市,碧云窝,,48,48,40,24,24,36,,,,25,17,5,7,/,/
2026-01-23T0100,1445A,106.6963,26.6063,贵阳市,红边门,,42,,29,29,27,54,,,,14,15,14,10,/,/
2026-01-23T0100,1446A,106.7162383,26.56964667,贵阳市,新华路,,46,46,38,24,22,48,,,,20,16,10,6,0.7,0.5
2026-01-23T0100,1447A,106.6742,26.542,贵阳市,太慈桥,,,,33,,25,,,48,,,19,,6,,
2026-01-23T0100,4230A,106.688212,26.56952,贵阳市,花果园大街66号,,48,,25,33,32,39,,,,18,18,10,6,/,/
2026-01-23T0100,4231A,106.687268,26.516892,贵阳市,漓江路57号,,35,34,35,24,25,32,,,,23,18,11,10,0.6,0.6
2026-01-23T0100,1864A,110.3091,25.2705,桂林市,龙隐路小学,细颗粒物(PM2.5),57,,22,40,30,42,,,,10,8,6,6,0.7,0.6
2026-01-23T0100,1865A,110.2849361,25.22909545,桂林市,八中,细颗粒物(PM2.5),53,,27,37,28,40,,,,13,13,7,7,0.5,0.7
2026-01-23T0100,3531A,110.296,25.1254,桂林市,旅游学院,,,,,19,18,47,,,,6,6,5,4,0.4,0.4
2026-01-23T0100,4222A,110.1835,25.2444,桂林市,环湖路276号,,45,,24,31,25,42,,,,5,5,6,7,0.6,0.5
2026-01-23T0100,4301A,110.2803,25.2773,桂林市,信义路13号,,36,33,23,25,21,45,,,,10,11,4,4,0.7,0.7
2026-01-23T0100,2674A,100.2262,34.4854,果洛藏族自治州,玛沁县大武镇,颗粒物(PM10),52,53,57,13,12,36,,,,9,7,18,16,0.4,0.4
2026-01-23T0100,1130A,126.5557,45.8109,哈尔滨市,松北商大,细颗粒物(PM2.5),63,58,39,45,27,27,,,,38,26,7,9,0.8,0.6
2026-01-23T0100,1132A,126.6162,45.719,哈尔滨市,南岗学府路,细颗粒物(PM2.5),62,66,47,44,30,34,,,,28,25,8,10,0.7,0.7
2026-01-23T0100,1133A,126.6894,45.7733,哈尔滨市,太平宏伟公园,细颗粒物(PM2.5),62,61,40,44,24,33,,,,33,20,12,19,0.7,0.6
2026-01-23T0100,1134A,126.6361,45.7672,哈尔滨市,道外承德广场,细颗粒物(PM2.5),72,80,47,52,23,16,,,,53,28,25,13,0.4,0.3
2026-01-23T0100,1136A,126.644,45.7261,哈尔滨市,动力和平路,细颗粒物(PM2.5),62,71,43,44,26,26,,,,34,27,10,12,0.8,0.7
2026-01-23T0100,1137A,126.5933,45.7479,哈尔滨市,道里建国路,细颗粒物(PM2.5),72,62,44,52,29,25,,,,34,24,10,11,0.8,0.4
2026-01-23T0100,1138A,126.6127,45.6119,哈尔滨市,平房东轻厂,细颗粒物(PM2.5),67,75,47,48,32,32,,,,31,35,8,11,1.0,0.9
2026-01-23T0100,1139A,126.5875,45.9827,哈尔滨市,呼兰师专,细颗粒物(PM2.5),69,,45,50,42,23,,,,41,22,20,11,0.9,0.7
2026-01-23T0100,1140A,126.6299,45.6799,哈尔滨市,省农科院,细颗粒物(PM2.5),75,70,62,55,48,18,,,,42,39,11,14,0.7,0.8
2026-01-23T0100,4282A,126.6769,45.7379,哈尔滨市,华山路1号,细颗粒物(PM2.5),70,70,44,51,24,21,,,,40,30,35,37,0.4,0.3
2026-01-23T0100,4283A,126.9717,45.5356,哈尔滨市,解放大街52号,细颗粒物(PM2.5),59,47,56,42,46,49,,,,17,21,10,14,0.6,0.6
2026-01-23T0100,2688A,93.5124,42.8176,哈密市,地区监测站,细颗粒物(PM2.5),78,91,104,57,46,24,,,,31,24,8,8,0.3,0.5
2026-01-23T0100,2689A,93.5014,42.8312,哈密市,哈密师范学校,颗粒物(PM10),76,102,101,36,35,29,,,,35,34,6,6,0.8,1
2026-01-23T0100,2671A,100.9016,36.9464,海北藏族自治州,海晏县西海镇,,20,20,25,10,13,53,,,,4,3,8,7,0.3,0.4
2026-01-23T0100,3867A,102.074,36.5056,海东市,平安区公安局北苑,细颗粒物(PM2.5),79,77,71,58,46,58,,,,18,23,33,21,1.0,1.1
2026-01-23T0100,4163A,102.0984,36.5119,海东市,滨河路,细颗粒物(PM2.5),94,91,78,70,51,58,,,,37,41,31,23,0.9,1
2026-01-23T0100,1410A,110.3189,20.0596,海口市,海南大学,,44,44,47,26,26,55,,,,13,15,6,6,0.5,0.4
2026-01-23T0100,1411A,110.2827,20.0051,海口市,秀英海南医院,,39,39,44,23,24,58,,,,13,16,8,8,0.5,0.5
2026-01-23T0100,1412A,110.3391,19.9979,海口市,海南师范大学,,37,37,42,25,26,65,,,,14,17,6,6,0.6,0.6
2026-01-23T0100,1413A,110.3303,20.0359,海口市,龙华路环保局宿舍,,39,39,42,26,26,58,,,,14,16,/,/,0.7,0.7
2026-01-23T0100,3539A,110.5111,19.9737,海口市,桂林洋子站,,40,40,44,24,26,65,,,,11,16,/,/,/,/
2026-01-23T0100,4134A,110.1952,20.0451,海口市,长滨二路9号,,42,42,45,28,27,57,,,,11,13,/,/,/,/
2026-01-23T0100,2673A,100.6158,36.2985,海南藏族自治州,共和县恰卜恰镇,,36,36,37,11,19,32,,,,17,22,14,12,0.6,0.6
2026-01-23T0100,2676A,97.373,37.376,海西蒙古族藏族自治州,德令哈市,,37,37,42,11,10,82,,,,4,5,16,17,0.6,0.3
2026-01-23T0100,1049A,114.492,36.5712,邯郸市,矿院,细颗粒物(PM2.5),109,,98,82,95,65,,,,26,29,14,7,0.6,0.8
2026-01-23T0100,1050A,114.4839,36.6136,邯郸市,丛台公园,细颗粒物(PM2.5),100,80,105,75,97,71,,,,22,29,3,5,0.6,0.8
2026-01-23T0100,3458A,114.7893,36.5592,邯郸市,香泉濮院小区,细颗粒物(PM2.5),102,90,104,76,94,77,,,,22,23,3,4,0.6,0.8
2026-01-23T0100,3580A,114.1998,36.4439,邯郸市,峰峰矿区临水派出所,细颗粒物(PM2.5),110,86,96,83,89,50,,,,28,27,6,12,0.8,1.2
2026-01-23T0100,4068A,114.5209,36.7697,邯郸市,建安街268号,细颗粒物(PM2.5),100,79,107,75,101,38,,,,47,48,2,7,0.5,0.9
2026-01-23T0100,4069A,114.5488,36.6177,邯郸市,丛台东路558号,细颗粒物(PM2.5),118,,104,89,105,54,,,,28,32,2,8,0.7,0.8
2026-01-23T0100,2635A,107.0155,33.0707,汉中市,市监测站,细颗粒物(PM2.5),78,59,48,57,42,27,,,,23,20,5,5,0.9,0.7
2026-01-23T0100,2636A,107.0083,33.114,汉中市,鑫源开发区,细颗粒物(PM2.5),82,,44,60,43,15,,,,35,20,4,4,0.8,0.5
2026-01-23T0100,2637A,107.0072,33.0323,汉中市,南郑大河坎水厂,细颗粒物(PM2.5),68,57,61,49,49,22,,,,19,21,5,5,0.8,0.8
2026-01-23T0100,1223A,120.2073,30.2111,杭州市,滨江,细颗粒物(PM2.5),73,73,59,53,43,28,,,,50,38,6,6,0.6,0.5
2026-01-23T0100,1224A,120.0625,30.2737,杭州市,西溪,"颗粒物(PM10),细颗粒物(PM2.5)",53,55,54,37,37,0,,,,56,36,8,9,0.5,0.5
2026-01-23T0100,1226A,120.3417,30.315,杭州市,下沙,细颗粒物(PM2.5),64,71,53,46,38,1,,,,85,42,9,8,0.7,0.6
2026-01-23T0100,1227A,120.1252,30.2465,杭州市,卧龙桥,颗粒物(PM10),53,56,55,36,37,5,,,,43,31,9,9,0.4,0.4
2026-01-23T0100,1228A,120.1902,30.2691,杭州市,浙江农大,细颗粒物(PM2.5),77,80,58,56,43,1,,,,80,46,7,6,0.8,0.6
2026-01-23T0100,1230A,120.1195,30.3121,杭州市,和睦小学,颗粒物(PM10),63,75,58,44,40,2,,,,68,37,5,6,0.9,0.7
2026-01-23T0100,1231A,120.3076,30.4146,杭州市,临平镇,细颗粒物(PM2.5),74,73,55,54,40,1,,,,71,26,8,7,0.8,0.6
2026-01-23T0100,1232A,120.2753,30.1839,杭州市,城厢镇,细颗粒物(PM2.5),69,71,54,50,40,0,,,,68,34,8,7,0.6,0.6
2026-01-23T0100,1233A,120.0883,30.1808,杭州市,云栖,颗粒物(PM10),54,58,58,37,39,7,,,,43,29,3,3,0.6,0.5
2026-01-23T0100,3557A,119.9463,30.0496,杭州市,镇二中,细颗粒物(PM2.5),67,48,56,48,49,2,,,,60,38,4,5,0.7,0.7
2026-01-23T0100,3558A,119.7184,30.2367,杭州市,市府大楼,细颗粒物(PM2.5),69,,58,50,42,15,,,,32,23,10,10,1.1,0.9
2026-01-23T0100,3656A,120.1554,30.2863,杭州市,消防大队,细颗粒物(PM2.5),69,69,55,50,42,1,,,,70,39,6,7,0.5,0.4
2026-01-23T0100,1270A,117.1957,31.7845,合肥市,明珠广场,细颗粒物(PM2.5),67,70,51,48,30,12,,,,65,35,5,7,1.1,1
2026-01-23T0100,1271A,117.307,31.8765,合肥市,三里街,颗粒物(PM10),64,78,52,39,32,8,,,,70,37,6,8,0.9,0.8
2026-01-23T0100,1272A,117.2587,31.8703,合肥市,琥珀山庄,细颗粒物(PM2.5),65,63,53,47,37,9,,,,78,35,7,10,1.1,0.8
2026-01-23T0100,1275A,117.2593,31.9376,合肥市,庐阳区,颗粒物(PM10),69,88,57,44,33,3,,,,88,40,7,7,0.9,0.8
2026-01-23T0100,1276A,117.345251,31.861615,合肥市,瑶海区,细颗粒物(PM2.5),62,70,50,44,32,2,,,,88,37,4,6,0.6,0.5
2026-01-23T0100,1277A,117.3033,31.7967,合肥市,包河区,细颗粒物(PM2.5),85,102,57,63,38,2,,,,118,47,13,8,0.9,0.7
2026-01-23T0100,1278A,117.278,31.7392,合肥市,滨湖新区,细颗粒物(PM2.5),64,58,43,46,36,13,,,,65,30,4,4,0.7,0.7
2026-01-23T0100,1279A,117.1324,31.8395,合肥市,高新区,细颗粒物(PM2.5),60,66,46,43,28,28,,,,59,38,5,5,0.8,0.6
2026-01-23T0100,3464A,117.3802,31.9148,合肥市,高教基地,细颗粒物(PM2.5),74,66,52,54,42,1,,,,63,31,8,10,0.7,0.7
2026-01-23T0100,4098A,117.2518,31.8404,合肥市,中国科学技术大学,细颗粒物(PM2.5),62,66,46,44,28,12,,,,64,26,8,10,0.8,0.6
2026-01-23T0100,3614A,79.9241,37.0878,和田地区,地区环保局,颗粒物(PM10),500,1186,1315,298,300,44,,,,11,20,2,3,0.2,0.5
2026-01-23T0100,3615A,79.9132,37.1137,和田地区,市环保局,颗粒物(PM10),500,1251,1399,272,279,52,,,,9,17,2,3,0.1,0.7
2026-01-23T0100,2517A,108.0496,24.6957,河池市,市环保站,,29,29,14,16,10,39,,,,9,8,14,7,0.6,0.6
2026-01-23T0100,4302A,108.0901,24.6945,河池市,上任中路54号,,38,,28,26,21,28,,,,12,10,7,6,0.5,0.5
2026-01-23T0100,1697A,114.6962,23.7538,河源市,东埔,,26,20,22,18,16,23,,,,15,14,5,5,0.4,0.4
2026-01-23T0100,1698A,114.6895,23.7232,河源市,老城,,23,19,22,16,14,23,,,,14,13,5,5,0.6,0.6
2026-01-23T0100,3374A,115.5562,35.089,菏泽市,定陶老年大学,细颗粒物(PM2.5),83,80,80,61,61,64,,,,30,22,4,5,0.4,0.4
2026-01-23T0100,4114A,115.4239,35.2593,菏泽市,黄河路600号,细颗粒物(PM2.5),90,79,83,67,70,76,,,,23,21,3,4,0.5,0.6
2026-01-23T0100,4115A,115.5025,35.2727,菏泽市,菏泽市人社局,细颗粒物(PM2.5),88,74,77,65,61,55,,,,32,20,8,9,0.6,0.5
2026-01-23T0100,4184A,115.479691,35.244011,菏泽市,永昌路1号,细颗粒物(PM2.5),87,72,81,64,65,76,,,,21,20,4,5,0.3,0.3
2026-01-23T0100,4193A,115.471542,35.280012,菏泽市,长城路999号,细颗粒物(PM2.5),84,73,77,62,57,76,,,,20,18,13,12,0.5,0.5
2026-01-23T0100,2514A,111.5264,24.4178,贺州市,环保小区,,38,,25,26,20,34,,,,11,12,3,2,0.5,0.4
2026-01-23T0100,2515A,111.561,24.4074,贺州市,政协大楼,,20,20,23,11,14,31,,,,12,11,9,9,0.6,0.5
2026-01-23T0100,3534A,111.4744,24.455,贺州市,西湾,,33,26,26,23,17,33,,,,14,15,6,6,0.6,0.6
2026-01-23T0100,2385A,114.17,35.9019,鹤壁市,市监测站,细颗粒物(PM2.5),134,103,133,102,113,48,,,,27,29,5,5,0.9,1
2026-01-23T0100,2386A,114.2953,35.7512,鹤壁市,市交警支队,细颗粒物(PM2.5),119,97,128,90,111,55,,,,31,38,3,7,0.7,0.8
2026-01-23T0100,2387A,114.2877,35.7302,鹤壁市,迎宾馆,细颗粒物(PM2.5),119,90,126,90,107,59,,,,30,36,4,6,0.8,0.9
2026-01-23T0100,3474A,114.2616,35.6824,鹤壁市,大新区,细颗粒物(PM2.5),102,96,119,76,106,53,,,,39,44,4,6,0.7,0.8
2026-01-23T0100,3596A,114.1573,35.9607,鹤壁市,南山宾馆,细颗粒物(PM2.5),134,126,131,102,106,47,,,,28,27,4,6,0.8,0.9
2026-01-23T0100,2244A,130.2537,47.3416,鹤岗市,哈啤分公司,,30,30,22,12,13,78,,,,5,6,6,6,0.3,0.3
2026-01-23T0100,2245A,130.2683,47.3087,鹤岗市,斯达机电,,28,28,24,6,11,72,,,,5,6,6,6,0.5,0.4
2026-01-23T0100,2246A,130.3114,47.3388,鹤岗市,东山纸板厂,,35,24,23,24,13,75,,,,4,6,7,8,0.6,0.5
2026-01-23T0100,2263A,127.4832,50.2524,黑河市,交通局,,23,,17,15,15,72,,,,6,13,3,5,0.2,0.2
2026-01-23T0100,2264A,127.5146,50.2339,黑河市,环保局,,24,12,13,8,13,76,,,,6,10,4,4,0.2,0.4
2026-01-23T0100,1074A,115.6839,37.754,衡水市,电机北厂,细颗粒物(PM2.5),134,124,125,102,99,20,,,,67,44,10,11,0.8,0.8
2026-01-23T0100,1075A,115.6303,37.7318,衡水市,市监测站,细颗粒物(PM2.5),152,138,118,116,94,0,,,,93,43,11,10,0.9,0.9
2026-01-23T0100,3188A,115.6684,37.7216,衡水市,市城管局,细颗粒物(PM2.5),127,140,123,96,88,12,,,,81,45,11,9,0.9,0.9
2026-01-23T0100,3459A,115.599,37.5491,衡水市,地表水厂,细颗粒物(PM2.5),153,119,112,117,103,3,,,,80,54,10,10,0.9,0.8
2026-01-23T0100,2457A,112.6209,26.9268,衡阳市,衡阳化工总厂,细颗粒物(PM2.5),72,54,52,52,51,20,,,,31,19,8,8,1.0,0.9
2026-01-23T0100,2458A,112.621,26.8957,衡阳市,珠晖区环保局,细颗粒物(PM2.5),70,51,53,51,48,30,,,,22,22,5,4,0.8,0.8
2026-01-23T0100,2459A,112.628,26.8654,衡阳市,市委党校,细颗粒物(PM2.5),87,,48,64,57,23,,,,20,18,14,10,0.9,0.9
2026-01-23T0100,2460A,112.6007,26.8977,衡阳市,市监测站,颗粒物(PM10),57,64,63,39,46,26,,,,24,17,6,5,0.8,0.9
2026-01-23T0100,2461A,112.5658,26.9013,衡阳市,真空机电公司,细颗粒物(PM2.5),69,61,56,50,43,31,,,,24,21,6,6,0.8,0.8
2026-01-23T0100,3399A,112.6703,26.8817,衡阳市,师范学院,细颗粒物(PM2.5),78,72,62,57,48,24,,,,23,16,2,2,1.1,1.2
2026-01-23T0100,3038A,103.3757,23.3679,红河哈尼族彝族自治州,州图书馆,,13,9,16,3,11,40,,,,12,9,7,6,0.7,0.7
2026-01-23T0100,4154A,103.401,23.3561,红河哈尼族彝族自治州,蒙自市朝阳路,,17,17,14,7,14,40,,,,6,7,6,6,0.7,0.7
2026-01-23T0100,1090A,111.6506,40.7517,呼和浩特市,呼市一监,细颗粒物(PM2.5),83,90,69,61,40,0,,,,60,46,14,15,1.4,1
2026-01-23T0100,1094A,111.7516,40.8369,呼和浩特市,如意水处理厂,细颗粒物(PM2.5),67,78,59,48,26,2,,,,68,49,13,14,1.5,1.2
2026-01-23T0100,1095A,111.727798,40.806187,呼和浩特市,二十九中,颗粒物(PM10),60,69,60,40,32,3,,,,58,45,14,16,0.8,0.8
2026-01-23T0100,1097A,111.717,40.7617,呼和浩特市,化肥厂生活区,颗粒物(PM10),64,77,62,45,35,2,,,,57,45,7,9,1.2,1
2026-01-23T0100,3699A,111.6519,40.8389,呼和浩特市,海东办,细颗粒物(PM2.5),97,117,72,72,39,3,,,,63,47,9,12,1.6,1
2026-01-23T0100,4275A,111.591512,40.827312,呼和浩特市,成吉思汗西街8号,,36,36,64,16,31,23,,,,45,47,6,12,0.4,0.9
2026-01-23T0100,4276A,111.6597,40.8077,呼和浩特市,公园东路75号,细颗粒物(PM2.5),78,85,67,57,40,7,,,,68,52,9,11,1.3,1.1
2026-01-23T0100,4277A,111.5427,40.7846,呼和浩特市,金海路35号,细颗粒物(PM2.5),67,76,65,48,34,0,,,,57,47,10,14,1.1,0.9
2026-01-23T0100,3061A,119.7511,49.1576,呼伦贝尔市,国华电力东,,27,27,24,12,13,58,,,,13,13,6,7,0.4,0.4
2026-01-23T0100,4279A,119.7569,49.2222,呼伦贝尔市,伊敏大街东7号,,35,35,26,18,14,26,,,,33,14,8,8,0.4,0.3
2026-01-23T0100,1250A,120.075,30.867,湖州市,城西水厂,颗粒物(PM10),51,52,42,33,29,12,,,,65,31,6,6,0.4,0.4
2026-01-23T0100,2873A,120.083,30.8929,湖州市,仁皇山新区,细颗粒物(PM2.5),54,50,44,38,32,16,,,,63,35,5,6,0.6,0.6
2026-01-23T0100,2907A,120.1846,30.8592,湖州市,吴兴区站,细颗粒物(PM2.5),58,58,43,41,31,2,,,,82,30,8,5,0.6,0.3
2026-01-23T0100,3562A,120.4146,30.8538,湖州市,南浔区站,细颗粒物(PM2.5),70,69,44,51,32,12,,,,61,27,7,7,1.0,0.8
2026-01-23T0100,1607A,120.904878,40.721091,葫芦岛市,龙港区,细颗粒物(PM2.5),78,66,70,57,50,9,,,,63,38,15,16,1.6,1.1
2026-01-23T0100,1608A,120.8382,40.7521,葫芦岛市,化工街,细颗粒物(PM2.5),98,110,79,73,48,9,,,,55,46,72,43,1.5,1.1
2026-01-23T0100,1609A,120.8339,40.7078,葫芦岛市,新区,细颗粒物(PM2.5),70,65,50,51,36,5,,,,71,48,21,19,1.4,1.2
2026-01-23T0100,1610A,120.8697,40.7679,葫芦岛市,东城区,细颗粒物(PM2.5),120,91,74,91,52,11,,,,70,46,119,40,3.0,1.3
2026-01-23T0100,2483A,109.9297,27.5383,怀化市,河西地税局,颗粒物(PM10),61,72,67,41,51,15,,,,34,19,3,5,/,/
2026-01-23T0100,2484A,109.9783,27.5342,怀化市,市四医院,细颗粒物(PM2.5),78,77,64,57,47,10,,,,39,16,4,6,0.7,0.6
2026-01-23T0100,2485A,109.9971,27.5579,怀化市,监测楼,细颗粒物(PM2.5),93,97,62,69,48,11,,,,29,14,1,4,0.5,0.2
2026-01-23T0100,1210A,119.0566,33.5991,淮安市,钵池山,细颗粒物(PM2.5),67,63,55,48,41,0,,,,82,29,8,10,0.6,0.6
2026-01-23T0100,1211A,119.0083,33.578,淮安市,北京南路,细颗粒物(PM2.5),57,53,62,40,39,13,,,,62,44,8,9,0.6,0.6
2026-01-23T0100,1212A,118.9938,33.6083,淮安市,市监测站,细颗粒物(PM2.5),52,41,51,36,42,20,,,,54,40,9,10,0.9,0.8
2026-01-23T0100,1213A,119.135,33.5038,淮安市,楚州区监测站,,50,49,60,35,43,2,,,,86,41,10,11,0.3,0.4
2026-01-23T0100,3426A,118.8757,33.2897,淮安市,新华书店,,50,46,56,35,46,33,,,,45,39,10,11,0.6,0.7
2026-01-23T0100,4092A,119.119691,33.550006,淮安市,枚皋中路89号,细颗粒物(PM2.5),72,69,58,52,44,1,,,,70,33,8,10,0.6,0.8
2026-01-23T0100,4206A,119.028838,33.631911,淮安市,承德北路606号,颗粒物(PM10),69,88,71,48,42,2,,,,82,42,8,9,0.9,0.7
2026-01-23T0100,2282A,116.8005,33.9749,淮北市,监测站,细颗粒物(PM2.5),92,91,89,68,64,70,,,,28,25,7,7,0.6,0.7
2026-01-23T0100,2283A,116.8094,33.9008,淮北市,烈山区政府,细颗粒物(PM2.5),108,95,101,81,79,55,,,,39,39,6,6,0.5,0.6
2026-01-23T0100,4017A,116.7926,33.9534,淮北市,市博物馆,细颗粒物(PM2.5),97,79,92,72,70,62,,,,30,24,10,10,0.5,0.5
2026-01-23T0100,4100A,116.8322,33.9884,淮北市,杜集区第一实验学校,细颗粒物(PM2.5),94,95,85,70,64,74,,,,23,22,9,9,0.6,0.6
2026-01-23T0100,2277A,116.8304,32.7726,淮南市,潘集区政府,细颗粒物(PM2.5),90,76,75,67,60,29,,,,40,27,6,7,0.6,0.7
2026-01-23T0100,2279A,116.8569,32.5949,淮南市,谢家集区政府,颗粒物(PM10),60,70,54,40,28,26,,,,42,25,8,10,0.6,0.5
2026-01-23T0100,2280A,116.8279,32.6333,淮南市,八公山区政府,细颗粒物(PM2.5),67,60,46,48,34,34,,,,33,25,4,7,0.7,0.6
2026-01-23T0100,2894A,117.0561,32.6536,淮南市,经济技术开发区消防队,细颗粒物(PM2.5),57,59,63,40,42,28,,,,49,40,6,7,0.8,0.7
2026-01-23T0100,3329A,117.011,32.5891,淮南市,山南新区,细颗粒物(PM2.5),62,72,61,44,35,40,,,,41,30,10,9,0.7,0.7
2026-01-23T0100,4209A,117.003137,32.644456,淮南市,国庆中路369号,细颗粒物(PM2.5),62,59,50,44,43,36,,,,34,31,8,8,0.6,0.6
2026-01-23T0100,2446A,114.9021,30.474,黄冈市,职工中心,细颗粒物(PM2.5),78,76,69,57,49,51,,,,26,18,7,8,1.0,1.2
2026-01-23T0100,2929A,114.8858,30.4519,黄冈市,红卫路,细颗粒物(PM2.5),80,71,72,59,58,48,,,,26,23,7,9,0.6,0.8
2026-01-23T0100,3398A,114.9134,30.4446,黄冈市,市林业局,细颗粒物(PM2.5),79,63,65,58,60,58,,,,24,20,4,4,0.6,0.8
2026-01-23T0100,2672A,102.02,35.5101,黄南藏族自治州,同仁县隆务镇,,36,36,52,12,28,50,,,,5,7,10,11,0.5,0.5
2026-01-23T0100,2295A,118.2905,29.6965,黄山市,延安路89号,,38,30,43,26,36,25,,,,16,14,4,5,0.5,0.6
2026-01-23T0100,2297A,118.1369,30.2755,黄山市,黄山区政府5号楼,颗粒物(PM10),53,56,51,24,39,17,,,,16,18,2,3,0.6,0.7
2026-01-23T0100,4210A,118.335445,29.720283,黄山市,滨江东路7-2号,细颗粒物(PM2.5),67,57,57,48,48,21,,,,17,16,/,/,/,/
2026-01-23T0100,2423A,115.0547,30.2332,黄石市,沈家营,细颗粒物(PM2.5),94,81,77,70,58,37,,,,15,15,7,7,1.4,1.5
2026-01-23T0100,2426A,114.899,30.211,黄石市,铁山,细颗粒物(PM2.5),93,71,70,69,75,31,,,,15,18,5,7,1.0,0.9
2026-01-23T0100,2427A,115.0259,30.2108,黄石市,团城山,细颗粒物(PM2.5),123,,72,93,67,34,,,,31,14,6,6,1.3,0.9
2026-01-23T0100,3149A,115.0174,30.1591,黄石市,笔架山北路,细颗粒物(PM2.5),115,131,98,87,66,29,,,,38,17,7,7,1.6,1.2
2026-01-23T0100,4185A,115.078022,30.21118,黄石市,磁湖东路29号,细颗粒物(PM2.5),112,85,75,84,72,52,,,,20,21,7,6,1.5,1.4
2026-01-23T0100,1392A,114.4181,23.0528,惠州市,河南岸金山湖子站,,26,26,31,15,18,20,,,,18,16,5,4,0.8,0.7
2026-01-23T0100,1393A,114.4055,23.0824,惠州市,下埔横江三路子站,,24,24,30,15,19,16,,,,19,16,8,7,0.7,0.7
2026-01-23T0100,1395A,114.4645,22.7832,惠州市,惠阳区承修路船湖子站,,30,30,38,18,24,18,,,,17,16,7,7,0.6,0.6
2026-01-23T0100,1396A,114.5316,22.7423,惠州市,大亚湾管委会子站,,29,29,36,14,19,19,,,,13,13,5,5,0.5,0.5
2026-01-23T0100,3314A,114.4334,22.8134,惠州市,惠阳秋长,,29,29,34,17,22,21,,,,16,16,/,/,/,/
2026-01-23T0100,3452A,114.6521,22.7755,惠州市,大亚湾霞涌,,30,30,34,17,22,23,,,,16,15,/,/,/,/
2026-01-23T0100,4300A,114.4089,23.1147,惠州市,文华一路1号,,25,24,30,17,21,16,,,,22,19,/,/,/,/
2026-01-23T0100,2240A,130.9618,45.2926,鸡西市,环保局,,33,28,24,23,15,62,,,,7,8,6,6,0.2,0.2
2026-01-23T0100,2243A,130.9294,45.2959,鸡西市,第一中学,,35,26,19,24,14,64,,,,8,7,2,3,0.4,0.3
2026-01-23T0100,3707A,131.0069,45.2988,鸡西市,欧美日汽修厂,,30,21,27,21,20,66,,,,4,7,6,6,0.2,0.3
2026-01-23T0100,2367A,114.9753,27.0803,吉安市,红声器材厂,细颗粒物(PM2.5),60,66,57,43,33,27,,,,27,20,9,10,0.7,0.5
2026-01-23T0100,2369A,114.9903,27.1313,吉安市,市环境监测站,细颗粒物(PM2.5),65,64,49,47,35,33,,,,15,11,13,11,/,/
2026-01-23T0100,2370A,115.009527,27.096792,吉安市,青原区法院,细颗粒物(PM2.5),65,67,52,47,36,24,,,,22,19,10,12,0.8,0.7
2026-01-23T0100,1772A,126.54,43.8622,吉林市,哈达湾,,29,29,30,19,19,65,,,,12,12,7,18,0.8,0.7
2026-01-23T0100,1773A,126.5843,43.8358,吉林市,东局子,,28,28,31,19,21,61,,,,11,17,4,4,0.6,0.7
2026-01-23T0100,1774A,126.5051,43.8243,吉林市,电力学院,,30,26,28,21,21,63,,,,15,13,6,6,0.6,0.6
2026-01-23T0100,1775A,126.6133,43.8971,吉林市,江北,,27,27,32,18,20,62,,,,7,13,6,10,0.7,0.8
2026-01-23T0100,1776A,126.5549,43.8304,吉林市,江南公园,,36,28,29,25,23,58,,,,13,11,7,8,0.6,0.6
2026-01-23T0100,2868A,126.4737,43.953,吉林市,九站,,38,31,30,26,23,56,,,,18,16,5,6,0.6,0.6
2026-01-23T0100,1299A,116.9866,36.6118,济南市,科干所,细颗粒物(PM2.5),59,61,59,42,33,86,,,,12,16,8,11,0.5,0.5
2026-01-23T0100,1300A,116.9379,36.6652,济南市,农科所,细颗粒物(PM2.5),62,59,56,44,29,79,,,,26,30,7,10,0.7,0.8
2026-01-23T0100,1301A,117.1265,36.6736,济南市,开发区,细颗粒物(PM2.5),55,46,55,39,37,92,,,,19,30,5,6,0.6,0.7
2026-01-23T0100,1303A,117.0616,36.6865,济南市,省种子仓库,,,48,64,39,38,89,,,,17,33,6,9,,0.8
2026-01-23T0100,1304A,116.9495185,36.644937,济南市,机床二厂,细颗粒物(PM2.5),64,59,61,46,38,87,,,,21,31,9,15,0.5,0.6
2026-01-23T0100,1305A,117.0496,36.6629,济南市,市监测站,,49,49,56,32,33,90,,,,13,27,5,8,0.5,0.7
2026-01-23T0100,1306A,116.7674,36.5458,济南市,长清党校,细颗粒物(PM2.5),59,66,59,42,37,84,,,,29,39,5,8,0.7,0.7
2026-01-23T0100,1961A,117.5323,36.6865,济南市,东山小学,细颗粒物(PM2.5),55,54,59,39,36,79,,,,19,26,5,7,0.4,0.4
2026-01-23T0100,3059A,117.7181,36.205,济南市,泰兴公司,细颗粒物(PM2.5),85,75,71,63,50,25,,,,60,41,5,8,0.9,1
2026-01-23T0100,3064A,117.6861,36.2172,济南市,莱芜战役纪念馆,细颗粒物(PM2.5),68,63,71,49,50,72,,,,21,33,10,10,1.0,1.1
2026-01-23T0100,3494A,117.1673,36.9782,济南市,济阳区政府,细颗粒物(PM2.5),62,59,76,44,38,65,,,,37,48,4,9,0.7,0.8
2026-01-23T0100,3495A,117.1168,36.6299,济南市,锦屏中学,,49,44,48,34,31,98,,,,14,20,4,5,0.7,0.8
2026-01-23T0100,4108A,117.7107,36.2385,济南市,山财大街5号,细颗粒物(PM2.5),62,61,59,44,39,72,,,,22,39,12,13,0.7,1
2026-01-23T0100,4109A,116.9744,36.6889,济南市,无影山路12号,颗粒物(PM10),78,105,58,50,38,81,,,,13,23,7,11,0.7,0.8
2026-01-23T0100,1653A,116.6229,35.4288,济宁市,火炬城,细颗粒物(PM2.5),83,75,61,61,58,73,,,,15,18,4,5,0.5,0.4
2026-01-23T0100,3500A,116.5808,35.3703,济宁市,北湖一中,细颗粒物(PM2.5),83,61,59,61,55,82,,,,19,24,4,5,0.5,0.5
2026-01-23T0100,3501A,116.8251,35.5592,济宁市,服务中心,颗粒物(PM10),76,101,79,51,46,62,,,,19,24,5,6,0.4,0.4
2026-01-23T0100,3678A,116.5907,35.4054,济宁市,市第七中学,细颗粒物(PM2.5),79,,58,58,46,86,,,,17,21,4,5,0.5,0.6
2026-01-23T0100,4111A,116.6075,35.4566,济宁市,任和路,细颗粒物(PM2.5),68,72,70,49,48,84,,,,17,22,6,6,0.7,0.7
2026-01-23T0100,4112A,116.5648,35.3921,济宁市,文体南路1号,细颗粒物(PM2.5),85,71,72,63,56,87,,,,14,23,5,5,0.4,0.5
2026-01-23T0100,2255A,130.2749,46.8028,佳木斯市,佳纺,细颗粒物(PM2.5),67,,27,48,20,63,,,,5,11,4,7,0.5,0.5
2026-01-23T0100,2257A,130.3258,46.7975,佳木斯市,环保局,,26,24,29,18,25,62,,,,10,13,6,7,0,0.2
2026-01-23T0100,4285A,130.363,46.806,佳木斯市,顺和街,,29,23,23,20,20,58,,,,11,14,7,8,0.3,0.3
2026-01-23T0100,4286A,130.3952,46.8268,佳木斯市,长安路196号,,,26,23,18,16,,,,,10,11,5,6,0.4,0.4
2026-01-23T0100,1252A,120.7439,30.778,嘉兴市,清河小学,细颗粒物(PM2.5),60,64,53,43,34,2,,,,71,26,7,7,1.2,1.1
2026-01-23T0100,1253A,120.7261,30.7477,嘉兴市,嘉兴学院,颗粒物(PM10),68,86,60,45,31,1,,,,68,26,5,6,1.2,1
2026-01-23T0100,2872A,120.7845,30.7524,嘉兴市,南湖区残联,细颗粒物(PM2.5),67,79,50,48,35,3,,,,80,33,8,6,1.0,0.9
2026-01-23T0100,3407A,120.6915,30.7741,嘉兴市,秀洲住建,细颗粒物(PM2.5),64,68,53,46,35,0,,,,71,34,7,7,0.8,0.7
2026-01-23T0100,1945A,98.291,39.7705,嘉峪关市,气象局,颗粒物(PM10),90,129,171,34,43,31,,,,36,24,15,19,0.5,0.6
2026-01-23T0100,2884A,98.2672,39.7978,嘉峪关市,酒钢宾馆,颗粒物(PM10),112,173,178,41,44,33,,,,28,25,13,20,0.6,0.7
2026-01-23T0100,3248A,98.2644,39.7723,嘉峪关市,雄关区,颗粒物(PM10),74,97,135,39,35,28,,,,34,31,13,16,0.6,0.6
2026-01-23T0100,1383A,113.1063,22.6058,江门市,北街,,48,48,40,27,23,10,,,,42,38,/,/,/,/
2026-01-23T0100,1384A,113.073,22.5835,江门市,西区,,38,38,45,25,21,9,,,,34,31,/,/,/,/
2026-01-23T0100,1385A,113.0218,22.531,江门市,圭峰西,,38,27,37,26,24,10,,,,26,22,/,/,/,/
2026-01-23T0100,1386A,113.0826,22.5947,江门市,东湖,,44,44,38,24,22,10,,,,28,24,7,7,0.7,0.6
2026-01-23T0100,3311A,113.1077,22.5647,江门市,江海富民,,46,46,45,20,20,10,,,,38,35,/,/,0.4,0.5
2026-01-23T0100,3449A,113.0496,22.4669,江门市,新会银湖,颗粒物(PM10),52,53,39,27,24,7,,,,36,33,8,8,0.6,0.6
2026-01-23T0100,3335A,113.3137,35.2643,焦作市,马村街道办,细颗粒物(PM2.5),207,191,159,157,138,30,,,,40,33,6,8,1.5,1.2
2026-01-23T0100,3336A,113.2464,35.2374,焦作市,焦作技师学院,细颗粒物(PM2.5),175,155,159,132,134,22,,,,50,37,10,13,2.0,1.6
2026-01-23T0100,3477A,113.1656,35.2536,焦作市,中站许衡医院,细颗粒物(PM2.5),143,160,131,109,109,40,,,,50,41,12,9,1.4,1.3
2026-01-23T0100,3981A,113.2456,35.18,焦作市,原李万街道办,细颗粒物(PM2.5),218,,146,168,131,5,,,,80,38,7,7,1.7,1.2
2026-01-23T0100,4264A,113.234,35.219,焦作市,新安路1731号,细颗粒物(PM2.5),213,188,166,163,144,5,,,,73,34,,9,1.8,1.3
2026-01-23T0100,4295A,113.2722,35.2121,焦作市,人民路3066号,细颗粒物(PM2.5),208,202,154,158,129,18,,,,48,32,5,8,1.9,1.5
2026-01-23T0100,1708A,116.3701,23.5345,揭阳市,新兴,,43,42,41,30,29,5,,,,31,24,7,8,0.7,0.7
2026-01-23T0100,1709A,116.3261,23.5442,揭阳市,西马,,38,37,36,26,25,9,,,,21,17,3,4,0.6,0.6
2026-01-23T0100,1710A,116.361,23.5627,揭阳市,东兴,,35,35,44,24,25,3,,,,33,25,10,9,/,/
2026-01-23T0100,1711A,116.4151,23.5295,揭阳市,渔湖,颗粒物(PM10),56,62,38,19,27,12,,,,18,20,5,6,/,/
2026-01-23T0100,3320A,116.4028,23.5699,揭阳市,曲溪,,40,38,43,28,28,5,,,,24,17,1,2,0.6,0.6
2026-01-23T0100,1944A,102.1691,38.5166,金昌市,天庆家园,细颗粒物(PM2.5),89,119,125,66,80,31,,,,25,24,21,29,1.1,1.1
2026-01-23T0100,4022A,102.1648,38.5369,金昌市,金川区人防中心,细颗粒物(PM2.5),89,109,115,66,72,38,,,,21,21,45,23,0.9,0.9
2026-01-23T0100,4239A,102.193042,38.531887,金昌市,长春路96号,细颗粒物(PM2.5),84,110,117,62,67,28,,,,29,25,29,32,1.1,1
2026-01-23T0100,1262A,119.6478,29.0773,金华市,十五中,细颗粒物(PM2.5),88,85,72,65,50,7,,,,79,37,3,4,0.4,0.4
2026-01-23T0100,1263A,119.6859,29.1032,金华市,监测站,细颗粒物(PM2.5),87,92,72,64,50,0,,,,74,42,3,3,0.5,0.4
2026-01-23T0100,3659A,119.656,29.1132,金华市,气象局,细颗粒物(PM2.5),64,66,71,46,47,1,,,,68,40,3,4,0.8,0.9
2026-01-23T0100,1767A,121.1114,41.0879,锦州市,南山,细颗粒物(PM2.5),119,,49,90,43,4,,,,59,36,10,14,2.2,1
2026-01-23T0100,1768A,121.060361,40.842794,锦州市,开发区,细颗粒物(PM2.5),148,166,87,113,53,3,,,,75,48,9,54,1.7,1.1
2026-01-23T0100,1769A,121.1836,41.1118,锦州市,百股街道,细颗粒物(PM2.5),72,62,52,52,45,14,,,,45,38,11,12,1.1,1.1
2026-01-23T0100,1770A,121.1176,41.1224,锦州市,天安街道,,,,48,,36,,,67,,,31,,13,,1.0
2026-01-23T0100,1771A,121.1303,41.1385,锦州市,北湖公园,,,,53,,35,,,63,,,29,,15,,1.0
2026-01-23T0100,2160A,112.8496,35.5051,晋城市,自来水公司,颗粒物(PM10),54,58,117,36,87,38,,,,38,34,5,8,0.7,1.4
2026-01-23T0100,2162A,112.8509,35.4886,晋城市,市环保局,细颗粒物(PM2.5),73,66,113,53,88,29,,,,40,31,4,7,1.0,1.6
2026-01-23T0100,3620A,112.8258,35.4804,晋城市,泽州一中,细颗粒物(PM2.5),78,74,131,57,103,44,,,,32,30,4,6,0.8,1.6
2026-01-23T0100,4078A,112.8246,35.5152,晋城市,前书院路,颗粒物(PM10),66,81,145,45,86,37,,,,28,33,4,6,0.8,1.9
2026-01-23T0100,4079A,112.8864,35.4773,晋城市,祥云街666号,细颗粒物(PM2.5),62,68,120,44,94,32,,,,59,35,5,5,0.7,1.2
2026-01-23T0100,2174A,112.6992,37.6984,晋中市,榆次区政府,颗粒物(PM10),86,122,98,60,48,1,,,,68,53,20,24,1.3,1
2026-01-23T0100,2865A,112.7195,37.683,晋中市,榆次三中,颗粒物(PM10),74,97,89,50,41,0,,,,62,47,21,23,1.1,1.2
2026-01-23T0100,4080A,112.7375,37.7215,晋中市,广安街188号,细颗粒物(PM2.5),89,116,100,66,48,2,,,,76,53,20,26,1.1,1.1
2026-01-23T0100,4200A,112.7478,37.6954,晋中市,迎宾街26号,"颗粒物(PM10),细颗粒物(PM2.5)",74,97,86,54,44,3,,,,57,44,21,25,1.0,1
2026-01-23T0100,2439A,112.2012,31.048,荆门市,竹园小学,细颗粒物(PM2.5),69,59,81,50,64,67,,,,19,28,2,5,0.2,0.1
2026-01-23T0100,2440A,112.1968,30.9892,荆门市,掇刀,细颗粒物(PM2.5),77,,54,56,64,60,,,,25,18,11,6,0.5,0.5
2026-01-23T0100,3012A,112.1849,31.0361,荆门市,西山林语,细颗粒物(PM2.5),65,59,78,47,54,69,,,,20,19,10,7,0.5,0.7
2026-01-23T0100,3547A,112.1631,31.0134,荆门市,龙泉中学南校,细颗粒物(PM2.5),75,72,78,55,62,67,,,,15,12,13,6,0.8,0.8
2026-01-23T0100,4124A,112.2213,31.0654,荆门市,新台西路6号,细颗粒物(PM2.5),77,65,87,56,74,66,,,,25,27,16,10,0.6,0.7
2026-01-23T0100,1844A,112.2493,30.3198,荆州市,市图书馆,,,,58,51,58,,,,,14,20,7,9,0.5,0.8
2026-01-23T0100,1845A,112.2009,30.3543,荆州市,市委党校,,,47,66,45,54,,,,,30,27,1,3,0.5,0.6
2026-01-23T0100,3194A,112.2749,30.3124,荆州市,管委会,,,52,58,48,56,,,,,14,22,7,9,0.7,0.8
2026-01-23T0100,4268A,112.1722,30.3366,荆州市,学苑路85号,,,46,55,36,54,,,,,14,14,13,13,0.6,0.7
2026-01-23T0100,2343A,117.2114,29.2931,景德镇市,老干部活动中心,细颗粒物(PM2.5),62,46,38,44,36,22,,,,20,12,5,5,1.0,0.8
2026-01-23T0100,2344A,117.1893,29.2789,景德镇市,兽医站,颗粒物(PM10),54,58,45,32,23,29,,,,25,16,4,4,0.5,0.5
2026-01-23T0100,2346A,117.246,29.2958,景德镇市,陶研所,细颗粒物(PM2.5),53,47,32,37,35,13,,,,17,10,3,3,0.8,0.7
2026-01-23T0100,4289A,117.154766,29.256967,景德镇市,青少年活动中心,颗粒物(PM10),60,69,40,35,28,22,,,,37,17,50,13,/,/
2026-01-23T0100,1803A,115.9873,29.6816,九江市,十里,细颗粒物(PM2.5),52,43,48,36,33,12,,,,61,31,4,6,0.8,0.7
2026-01-23T0100,1804A,115.9583,29.7047,九江市,茅山头,颗粒物(PM10),51,52,45,30,34,0,,,,73,27,4,5,0.7,0.6
2026-01-23T0100,1805A,115.9877,29.7295,九江市,西园,颗粒物(PM10),51,52,37,31,29,12,,,,81,33,4,5,0.7,0.6
2026-01-23T0100,1808A,115.9112,29.6038,九江市,综合工业园,细颗粒物(PM2.5),53,38,44,37,47,20,,,,54,30,1,3,0.7,0.8
2026-01-23T0100,3190A,116.0254,29.6995,九江市,外国语学校,,48,43,43,33,34,4,,,,78,38,8,8,0.9,0.9
2026-01-23T0100,4253A,116.010205,29.659402,九江市,莲花大道8号,,49,47,53,34,38,51,,,,2,11,3,4,0.6,0.6
2026-01-23T0100,4240A,98.495752,39.733935,酒泉市,玉门东路5号,颗粒物(PM10),90,129,228,39,47,18,,,,29,23,10,15,0.6,0.7
2026-01-23T0100,4241A,98.5099,39.7506,酒泉市,北大街108号,颗粒物(PM10),104,158,225,41,45,18,,,,32,25,11,15,0.8,0.7
2026-01-23T0100,2698A,76.0071,39.466,喀什地区,巡警大队,颗粒物(PM10),489,589,701,156,174,38,,,,19,16,3,3,0.8,0.8
2026-01-23T0100,2699A,75.9756,39.4693,喀什地区,吾办,颗粒物(PM10),413,513,645,164,177,44,,,,18,18,8,8,0.8,0.7
2026-01-23T0100,4027A,75.9485,39.4688,喀什地区,老干局,颗粒物(PM10),457,557,702,127,142,32,,,,20,13,2,2,0.9,0.6
2026-01-23T0100,1824A,114.3389,34.778,开封市,肿瘤医院,细颗粒物(PM2.5),99,86,92,74,78,86,,,,24,33,8,10,0.7,0.8
2026-01-23T0100,1826A,114.2884,34.7966,开封市,世纪星幼儿园,细颗粒物(PM2.5),120,,82,91,87,87,,,,23,29,4,6,0.6,0.7
2026-01-23T0100,3147A,114.3434,34.8101,开封市,龙亭公园,细颗粒物(PM2.5),120,,83,91,83,88,,,,24,31,6,7,0.8,0.8
2026-01-23T0100,3210A,114.3645,34.7955,开封市,汴京公园,细颗粒物(PM2.5),110,,92,83,86,80,,,,20,30,3,4,0.6,0.8
2026-01-23T0100,3473A,114.2485,34.8306,开封市,技师学院,细颗粒物(PM2.5),102,,80,76,68,98,,,,26,30,5,6,0.5,0.5
2026-01-23T0100,3592A,114.4518,34.7503,开封市,祥符区生态环境局,细颗粒物(PM2.5),99,101,109,74,81,82,,,,30,32,3,4,0.4,0.5
2026-01-23T0100,1951A,84.886,45.6029,克拉玛依市,长征新村,细颗粒物(PM2.5),60,61,55,43,39,65,,,,11,19,8,8,0.4,0.4
2026-01-23T0100,1952A,84.8894,45.5827,克拉玛依市,南林小区,颗粒物(PM10),59,68,59,31,33,55,,,,15,20,3,4,0.5,0.6
2026-01-23T0100,1954A,84.896,44.3328,克拉玛依市,独山子区,细颗粒物(PM2.5),155,189,121,118,76,52,,,,45,44,5,5,0.8,0.7
2026-01-23T0100,1955A,85.6888,46.0909,克拉玛依市,乌尔禾区商贸楼,颗粒物(PM10),89,127,59,63,40,13,,,,56,37,9,8,1.2,0.9
2026-01-23T0100,3612A,85.1045,45.6895,克拉玛依市,白碱滩区新站,细颗粒物(PM2.5),62,60,69,44,41,44,,,,28,29,10,9,0.5,0.5
2026-01-23T0100,2697A,76.1457,39.7143,克孜勒苏柯尔克孜自治州,市人民政府,颗粒物(PM10),500,635,772,148,155,27,,,,29,13,4,3,0.5,0.5
2026-01-23T0100,3665A,76.1654,39.7157,克孜勒苏柯尔克孜自治州,克州文化中心,颗粒物(PM10),500,637,756,158,161,41,,,,15,9,4,3,0.6,0.6
2026-01-23T0100,1450A,102.8203,24.889,昆明市,呈贡新区,,42,31,29,29,20,28,,,,33,17,7,4,0.6,0.4
2026-01-23T0100,1452A,102.7253,25.0904,昆明市,龙泉镇,,50,50,40,25,20,6,,,,59,31,3,3,0.5,0.4
2026-01-23T0100,1453A,102.7267,25.0378,昆明市,东风东路,,45,40,36,31,21,63,,,,20,24,6,6,0.4,0.4
2026-01-23T0100,1454A,102.6744,25.0671,昆明市,金鼎山,,44,44,42,30,24,63,,,,15,25,5,4,0.3,0.4
2026-01-23T0100,1455A,102.6643,25.0401,昆明市,碧鸡广场,颗粒物(PM10),51,51,35,25,18,46,,,,30,24,4,5,0.5,0.5
2026-01-23T0100,3179A,102.7491,25.012,昆明市,官渡区博物馆,,38,32,34,26,22,72,,,,14,23,3,4,0.6,0.6
2026-01-23T0100,3375A,102.8016,24.8336,昆明市,青年创业园,,37,37,31,19,17,59,,,,20,16,11,7,0.5,0.5
2026-01-23T0100,3550A,102.8,24.9787,昆明市,昆明学院,,39,39,34,23,20,63,,,,22,19,4,4,0.6,0.4
2026-01-23T0100,3551A,102.5969,24.6738,昆明市,晋宁区生态环境分局,,46,46,32,29,20,51,,,,25,13,3,3,0.8,0.6
2026-01-23T0100,3552A,102.6673,24.9861,昆明市,云天化总部,,48,42,32,33,20,69,,,,12,24,6,7,0.4,0.4
2026-01-23T0100,1456A,91.132,29.6515,拉萨市,八廓街,,43,42,23,30,15,27,,,,42,21,8,7,1.2,0.6
2026-01-23T0100,1457A,91.1221,29.6748,拉萨市,市环保局,细颗粒物(PM2.5),75,79,38,55,23,12,,,,57,33,11,9,2.8,1.2
2026-01-23T0100,1458A,91.0874,29.6476,拉萨市,区监测站,,31,31,15,20,9,19,,,,60,30,5,4,1.5,0.9
2026-01-23T0100,1459A,91.1774,29.6541,拉萨市,西藏大学,,22,22,18,14,10,54,,,,21,17,4,4,0.5,0.4
2026-01-23T0100,1460A,90.9798,29.6586,拉萨市,区辐射站,,28,25,21,19,12,34,,,,34,23,4,4,0.8,0.5
2026-01-23T0100,1461A,91.0831,29.6292,拉萨市,拉萨火车站,,22,20,16,15,10,36,,,,34,25,4,4,0.8,0.6
2026-01-23T0100,2520A,109.2203,23.7252,来宾市,来宾技工学校,颗粒物(PM10),52,53,26,35,22,31,,,,16,11,10,7,0.6,0.5
2026-01-23T0100,3535A,109.1781,23.7293,来宾市,兴宾区政府,,46,46,23,32,17,34,,,,13,10,7,5,0.6,0.6
2026-01-23T0100,4002A,109.2312,23.7428,来宾市,中南小学,细颗粒物(PM2.5),59,48,28,42,22,27,,,,19,12,8,5,0.7,0.7
2026-01-23T0100,1479A,103.8309,36.0467,兰州市,铁路设计院,,,,,,,,,,,,,,,,
2026-01-23T0100,3241A,103.7439,36.0841,兰州市,百合公园,细颗粒物(PM2.5),84,97,90,62,49,20,,,,54,60,22,14,1.3,1
2026-01-23T0100,3242A,103.9613,35.9985,兰州市,和平,细颗粒物(PM2.5),82,89,97,60,63,40,,,,42,36,11,16,0.9,1.3
2026-01-23T0100,4236A,103.629272,36.093822,兰州市,庄浪东路808号,细颗粒物(PM2.5),79,87,96,58,52,25,,,,60,53,15,18,1.1,1
2026-01-23T0100,4237A,103.7251,36.104344,兰州市,安宁西路88号,颗粒物(PM10),90,130,94,65,45,21,,,,61,56,18,16,0.9,0.8
2026-01-23T0100,4238A,103.846982,36.067567,兰州市,北滨河东路1号,细颗粒物(PM2.5),92,105,88,68,50,2,,,,81,59,15,15,1.1,1.3
2026-01-23T0100,1067A,116.6712,39.5109,廊坊市,药材公司,细颗粒物(PM2.5),113,106,83,85,60,1,,,,70,60,4,5,1.3,1
2026-01-23T0100,1068A,116.7215,39.5592,廊坊市,开发区,细颗粒物(PM2.5),104,100,70,78,50,1,,,,79,65,7,5,1.1,0.8
2026-01-23T0100,1070A,116.7246,39.5273,廊坊市,北华航天学院,细颗粒物(PM2.5),144,142,91,110,59,2,,,,74,64,6,5,1.8,1
2026-01-23T0100,2919A,116.7022,39.5454,廊坊市,河北工业大学,细颗粒物(PM2.5),87,99,76,64,48,2,,,,70,59,3,4,1.0,0.8
2026-01-23T0100,2536A,103.7629,29.5844,乐山市,牛耳桥,,49,42,48,34,40,31,,,,21,20,5,4,0.8,0.7
2026-01-23T0100,2537A,103.7501,29.6002,乐山市,市第三水厂,,48,38,47,33,41,36,,,,24,24,6,6,0.9,0.8
2026-01-23T0100,2538A,103.7571,29.5664,乐山市,市监测站,细颗粒物(PM2.5),53,40,49,37,39,36,,,,18,17,5,6,0.8,0.7
2026-01-23T0100,3361A,103.7313,29.563,乐山市,理工大学,细颗粒物(PM2.5),53,45,48,37,40,38,,,,18,16,6,6,0.6,0.5
2026-01-23T0100,2599A,100.2497,26.8802,丽江市,丽江古城,,40,40,31,26,18,76,,,,10,11,10,10,0.5,0.4
2026-01-23T0100,2600A,100.2203,26.8906,丽江市,市中心,,35,31,28,24,17,78,,,,9,13,7,6,0.4,0.5
2026-01-23T0100,1267A,119.9141,28.4513,丽水市,监测站大楼,细颗粒物(PM2.5),78,,45,57,52,31,,,,24,21,6,5,0.4,0.5
2026-01-23T0100,1268A,119.93,28.4589,丽水市,莲都小学,细颗粒物(PM2.5),75,75,63,55,44,24,,,,40,28,/,/,/,/
2026-01-23T0100,1269A,119.8794,28.4232,丽水市,余庄前,细颗粒物(PM2.5),65,60,60,47,46,20,,,,26,26,4,5,0.4,0.4
2026-01-23T0100,1173A,119.1759,34.5885,连云港市,市环境监测站,细颗粒物(PM2.5),70,61,68,51,51,31,,,,48,39,9,15,0.6,0.7
2026-01-23T0100,3000A,119.3577,34.6971,连云港市,德源药业,细颗粒物(PM2.5),55,58,78,39,50,20,,,,57,46,6,8,0.4,0.6
2026-01-23T0100,3007A,119.178,34.8442,连云港市,新城一中,细颗粒物(PM2.5),68,64,66,49,55,31,,,,59,50,12,14,0.8,1
2026-01-23T0100,3008A,119.3607,34.7519,连云港市,胡沟管理处,,44,44,61,27,44,48,,,,44,48,7,10,0.7,0.8
2026-01-23T0100,3009A,119.1478,34.5913,连云港市,矿山设计院,,49,44,68,34,45,49,,,,26,35,8,14,0.7,0.9
2026-01-23T0100,3434A,119.2414,34.6539,连云港市,工贸学校,,40,36,64,28,50,74,,,,8,24,10,14,0.6,0.8
2026-01-23T0100,3664A,119.4171,34.734,连云港市,连云街道,,26,26,59,18,39,78,,,,13,28,3,10,0.5,0.8
2026-01-23T0100,2573A,102.2629,27.8981,凉山彝族自治州,西昌市政府,,40,39,40,28,28,66,,,,12,13,6,6,0.6,0.6
2026-01-23T0100,2574A,102.2686,27.885,凉山彝族自治州,凉山州政府,,49,49,43,28,29,48,,,,20,19,7,8,0.6,0.6
2026-01-23T0100,4229A,102.2342,27.8859,凉山彝族自治州,凯乐南路30号,细颗粒物(PM2.5),55,44,46,39,33,21,,,,37,23,7,8,0.7,0.7
2026-01-23T0100,2212A,123.1978,41.2036,辽阳市,宏伟区,,49,49,65,32,40,43,,,,20,23,16,13,1.0,1
2026-01-23T0100,2213A,123.1684,41.2497,辽阳市,新华园,颗粒物(PM10),60,69,68,40,45,21,,,,42,42,18,20,1.0,1.1
2026-01-23T0100,2214A,123.2355,41.2663,辽阳市,滨河路,,49,49,56,32,32,41,,,,21,30,11,12,0.9,1
2026-01-23T0100,4083A,123.153,41.2874,辽阳市,铁西路150号,颗粒物(PM10),65,79,75,36,45,15,,,,51,44,28,23,1.6,1.6
2026-01-23T0100,2227A,125.1359,42.8845,辽源市,环保局,细颗粒物(PM2.5),78,67,45,57,32,14,,,,59,33,5,5,1.3,1
2026-01-23T0100,4085A,125.0998,42.9134,辽源市,安宁大街333号,细颗粒物(PM2.5),59,48,44,42,30,29,,,,20,20,3,5,1.0,0.7
2026-01-23T0100,1625A,115.9789,36.4372,聊城市,区政府,细颗粒物(PM2.5),92,86,83,68,54,64,,,,33,31,13,13,0.9,0.8
2026-01-23T0100,3200A,115.9772,36.4986,聊城市,监控中心,细颗粒物(PM2.5),98,84,75,73,55,72,,,,29,29,9,8,0.8,0.7
2026-01-23T0100,3513A,116.0443,36.436,聊城市,九州社区,细颗粒物(PM2.5),97,91,84,72,59,77,,,,16,18,3,5,0.7,0.7
2026-01-23T0100,4018A,116.0564,36.4609,聊城市,星美广场,细颗粒物(PM2.5),97,89,84,72,53,72,,,,18,20,4,4,0.7,0.7
2026-01-23T0100,4113A,116.0091,36.4495,聊城市,利民路,细颗粒物(PM2.5),98,98,78,73,54,59,,,,31,28,10,11,0.8,0.8
2026-01-23T0100,2632A,94.3683,29.6373,林芝市,林芝监测站,,20,19,17,12,11,63,,,,1,5,2,2,0.2,0.4
2026-01-23T0100,2633A,94.3616,29.6634,林芝市,林芝人民医院,,22,22,19,12,11,70,,,,7,9,3,2,0.3,0.4
2026-01-23T0100,2603A,100.0779,23.8981,临沧市,市环保局,细颗粒物(PM2.5),72,,38,52,40,48,,,,9,11,6,7,0.6,0.5
2026-01-23T0100,2604A,100.0894,23.882,临沧市,市气象局,,45,45,46,28,30,48,,,,11,11,10,8,0.5,0.5
2026-01-23T0100,1733A,111.5552,36.0791,临汾市,临钢医院,细颗粒物(PM2.5),98,110,77,73,49,10,,,,44,34,8,9,1.9,1.6
2026-01-23T0100,1734A,111.4984,36.0734,临汾市,技工学校,细颗粒物(PM2.5),105,85,76,79,54,11,,,,46,39,7,9,1.5,1.1
2026-01-23T0100,1736A,111.5017,36.0857,临汾市,市委,细颗粒物(PM2.5),94,107,82,70,45,8,,,,54,41,12,12,1.6,1.2
2026-01-23T0100,3018A,111.5048,36.1015,临汾市,唐尧大酒店,细颗粒物(PM2.5),108,116,88,81,46,4,,,,60,43,7,8,1.5,1.1
2026-01-23T0100,4244A,111.4879,36.053,临汾市,启星学校,细颗粒物(PM2.5),82,90,74,60,47,7,,,,63,52,7,11,1.5,1.3
2026-01-23T0100,4271A,103.2464,35.6123,临夏回族自治州,滨河东路1号,细颗粒物(PM2.5),163,230,159,124,89,10,,,,43,40,8,8,1.8,1.6
2026-01-23T0100,4310A,103.207136,35.599807,临夏回族自治州,新华街21号,细颗粒物(PM2.5),200,218,140,150,86,5,,,,55,34,11,10,2.4,1.4
2026-01-23T0100,1618A,118.3429,35.0532,临沂市,沂河小区,细颗粒物(PM2.5),75,63,74,55,53,64,,,,28,36,17,18,0.8,0.9
2026-01-23T0100,1619A,118.2962,35.0568,临沂市,鲁南制药厂,细颗粒物(PM2.5),80,73,78,59,57,45,,,,46,40,21,19,1.1,1.1
2026-01-23T0100,1620A,118.2793,34.9976,临沂市,新光毛纺厂,细颗粒物(PM2.5),69,68,69,50,49,54,,,,41,38,19,16,0.8,1
2026-01-23T0100,1621A,118.3955,35.0889,临沂市,河东保险公司,细颗粒物(PM2.5),64,58,63,46,43,79,,,,26,36,13,14,1.0,0.9
2026-01-23T0100,3370A,118.3563,35.0215,临沂市,十里堡居委,细颗粒物(PM2.5),83,97,75,61,48,50,,,,52,44,34,23,0.9,0.9
2026-01-23T0100,3496A,118.359,35.1067,临沂市,南坊新区,细颗粒物(PM2.5),73,63,69,53,46,71,,,,30,40,13,15,0.6,0.8
2026-01-23T0100,3860A,118.3915,35.0297,临沂市,皇山花园小区,细颗粒物(PM2.5),72,88,73,52,46,69,,,,41,47,27,20,0.8,0.9
2026-01-23T0100,1870A,109.4854,24.3898,柳州市,柳东小学,,38,28,24,26,22,32,,,,7,5,8,7,0.6,0.6
2026-01-23T0100,1871A,109.4109,24.3304,柳州市,环保监测站,,38,27,23,26,19,38,,,,10,11,6,5,0.5,0.5
2026-01-23T0100,1872A,109.3886,24.3408,柳州市,河西水厂,,41,41,30,20,19,36,,,,10,13,6,7,0.3,0.7
2026-01-23T0100,1873A,109.4263,24.2951,柳州市,市四中,,47,47,21,24,17,37,,,,10,10,10,9,0.9,0.8
2026-01-23T0100,1874A,109.396,24.3658,柳州市,市九中,,49,35,24,34,22,31,,,,12,14,11,8,0.9,0.5
2026-01-23T0100,1875A,109.4912,24.3164,柳州市,古亭山,,29,27,20,20,13,40,,,,10,7,7,6,1.0,0.9
2026-01-23T0100,3402A,109.5422,24.3994,柳州市,市二中,,32,,22,22,19,38,,,,13,11,8,8,0.6,0.5
2026-01-23T0100,2307A,116.5078,31.7369,六安市,监测大楼,细颗粒物(PM2.5),62,55,33,44,24,33,,,,34,18,3,4,0.5,0.3
2026-01-23T0100,2308A,116.4738,31.7642,六安市,皖西学院,颗粒物(PM10),57,63,40,37,23,38,,,,36,20,5,5,0.6,0.4
2026-01-23T0100,2309A,116.4997,31.7904,六安市,朝阳厂,细颗粒物(PM2.5),58,46,34,41,25,31,,,,39,24,6,6,0.6,0.5
2026-01-23T0100,2310A,116.5566,31.7885,六安市,开发区,细颗粒物(PM2.5),75,67,31,55,28,35,,,,33,24,4,4,0.6,0.4
2026-01-23T0100,2577A,104.8293,26.592,六盘水市,黄土坡,,48,,24,33,17,37,,,,14,16,6,7,0.8,0.8
2026-01-23T0100,2579A,104.8481,26.5898,六盘水市,民中,,49,38,22,34,18,36,,,,13,15,4,4,0.8,0.8
2026-01-23T0100,2580A,104.9541,26.5506,六盘水市,双水,,36,36,27,25,17,45,,,,11,12,4,5,0.7,0.8
2026-01-23T0100,4151A,104.8899,26.5685,六盘水市,钟山大道中段564号,,36,36,28,21,18,36,,,,8,13,5,7,0.8,0.9
2026-01-23T0100,2336A,117.022,25.1031,龙岩市,龙岩市监测站,,23,,14,16,13,7,,,,24,18,22,11,0.6,0.5
2026-01-23T0100,2337A,117.0257,25.0662,龙岩市,闽西职业技术学院,,23,17,17,16,14,11,,,,16,14,10,7,0.8,0.7
2026-01-23T0100,2338A,117.0195,25.0306,龙岩市,龙岩学院,,25,17,21,17,16,11,,,,16,15,11,9,/,/
2026-01-23T0100,2885A,104.9344,33.3827,陇南市,滨江中学,细颗粒物(PM2.5),63,66,75,45,38,13,,,,37,37,10,10,1.6,1.5
2026-01-23T0100,3247A,104.9551,33.3709,陇南市,市总工会,颗粒物(PM10),52,53,60,34,35,26,,,,24,24,8,9,0.8,0.8
2026-01-23T0100,2488A,111.9984,27.7346,娄底市,市监测站,细颗粒物(PM2.5),83,94,66,61,54,9,,,,50,30,9,14,1.1,1.2
2026-01-23T0100,2491A,111.9888,27.7035,娄底市,市政府,细颗粒物(PM2.5),79,71,62,58,53,24,,,,14,16,5,8,0.9,1
2026-01-23T0100,4127A,111.9812,27.7591,娄底市,涟钢职大,细颗粒物(PM2.5),79,95,64,58,42,5,,,,42,19,5,7,0.9,1
2026-01-23T0100,4128A,112.0303,27.7457,娄底市,娄底体校,细颗粒物(PM2.5),74,62,55,54,45,21,,,,12,7,2,5,0.4,0.6
2026-01-23T0100,1894A,105.4427,28.9063,泸州市,小市上码头,细颗粒物(PM2.5),55,47,30,39,23,9,,,,29,19,4,4,0.9,1.1
2026-01-23T0100,1895A,105.4241,28.8573,泸州市,兰田宪桥,,46,40,34,32,23,9,,,,22,13,6,7,1.1,1
2026-01-23T0100,1896A,105.4378,28.8833,泸州市,市环监站,,42,42,31,28,22,12,,,,22,16,9,8,1.1,1.1
2026-01-23T0100,4272A,105.3689,28.7783,泸州市,纳溪中医医院,细颗粒物(PM2.5),63,68,42,45,30,3,,,,23,15,8,8,0.9,0.8
2026-01-23T0100,2183A,111.1447,37.5212,吕梁市,环保局,颗粒物(PM10),55,60,66,26,26,6,,,,55,45,2,3,0.2,0.3
2026-01-23T0100,2185A,111.1285,37.5338,吕梁市,自来水公司,颗粒物(PM10),97,144,96,46,35,2,,,,50,36,11,6,0.7,0.6
2026-01-23T0100,2867A,111.1225,37.5093,吕梁市,马茂庄小学,颗粒物(PM10),67,84,77,28,26,2,,,,56,44,3,4,0.5,0.6
2026-01-23T0100,1812A,112.3934,34.6517,洛阳市,市委党校,细颗粒物(PM2.5),117,102,104,88,90,75,,,,26,27,9,10,1.0,1
2026-01-23T0100,1815A,112.494,34.6883,洛阳市,河南林校,细颗粒物(PM2.5),112,102,110,84,95,60,,,,31,30,8,10,1.0,1
2026-01-23T0100,1816A,112.3843,34.623,洛阳市,开发区管委会,细颗粒物(PM2.5),128,116,126,97,104,69,,,,31,29,12,12,0.9,0.9
2026-01-23T0100,1817A,112.4263,34.6249,洛阳市,市委新办公区,细颗粒物(PM2.5),127,112,121,96,99,68,,,,32,27,8,11,0.9,0.9
2026-01-23T0100,3340A,112.6005,34.6323,洛阳市,伊滨,细颗粒物(PM2.5),150,170,135,115,98,24,,,,50,37,6,8,1.1,0.8
2026-01-23T0100,3341A,112.495,34.6338,洛阳市,中移产业园,细颗粒物(PM2.5),123,103,95,93,96,58,,,,39,33,9,13,1.0,0.9
2026-01-23T0100,3593A,112.5736,34.8993,洛阳市,吉利监测站,细颗粒物(PM2.5),130,102,109,99,105,38,,,,46,42,7,11,1.1,1.1
2026-01-23T0100,3635A,112.3678,34.6623,洛阳市,河科大西苑校区,细颗粒物(PM2.5),112,106,116,84,94,79,,,,27,30,9,9,0.8,0.8
2026-01-23T0100,3636A,112.4387,34.678,洛阳市,英才小学,细颗粒物(PM2.5),122,119,119,92,102,76,,,,28,31,9,11,0.9,1
2026-01-23T0100,4214A,112.460027,34.694929,洛阳市,春都路1号院,细颗粒物(PM2.5),109,121,132,82,86,56,,,,29,30,7,9,1.1,1.2
2026-01-23T0100,2399A,114.051,33.5721,漯河市,三五一五工厂,细颗粒物(PM2.5),137,124,103,104,78,75,,,,34,31,6,8,1.0,0.9
2026-01-23T0100,2400A,114.0055,33.5698,漯河市,漯河大学,细颗粒物(PM2.5),138,,85,105,78,88,,,,22,20,5,8,0.7,0.8
2026-01-23T0100,2401A,114.0134,33.5826,漯河市,市水利局,细颗粒物(PM2.5),144,114,92,110,80,68,,,,22,22,3,5,0.8,0.7
2026-01-23T0100,2402A,114.0261,33.5697,漯河市,市广电局,细颗粒物(PM2.5),138,110,89,105,81,75,,,,30,27,6,8,0.7,0.7
2026-01-23T0100,3478A,113.9691,33.568,漯河市,市图书馆,细颗粒物(PM2.5),148,137,105,113,82,85,,,,18,21,6,7,0.9,0.8
2026-01-23T0100,4250A,114.089259,33.588274,漯河市,韶山路11号,细颗粒物(PM2.5),129,129,98,98,76,81,,,,25,24,6,8,0.7,0.8
2026-01-23T0100,1798A,118.5084,31.6838,马鞍山市,湖东路四小,细颗粒物(PM2.5),58,63,52,41,31,14,,,,56,35,5,4,0.7,0.6
2026-01-23T0100,1799A,118.5019,31.6449,马鞍山市,开发区,细颗粒物(PM2.5),70,88,53,51,39,8,,,,63,36,4,5,0.7,0.7
2026-01-23T0100,3633A,118.4914,31.681,马鞍山市,雨山,"颗粒物(PM10),细颗粒物(PM2.5)",55,60,51,39,34,22,,,,49,33,9,10,0.7,0.7
2026-01-23T0100,4191A,118.527362,31.722269,马鞍山市,慈湖高新区,细颗粒物(PM2.5),74,74,52,54,34,23,,,,52,36,8,5,0.6,0.5
2026-01-23T0100,1686A,111.0285,21.469,茂名市,电白南海,,46,46,62,27,33,22,,,,20,21,18,13,0.8,0.9
2026-01-23T0100,1687A,110.9294,21.6533,茂名市,茂石化七小,,39,39,50,19,28,18,,,,21,21,10,10,0.9,0.9
2026-01-23T0100,1688A,110.9108,21.6688,茂名市,健康路,,42,41,44,29,30,18,,,,26,22,40,15,1.3,0.9
2026-01-23T0100,1689A,110.8592,21.6826,茂名市,高岭,,34,34,52,19,24,18,,,,22,19,32,19,/,/
2026-01-23T0100,3450A,111.0101,21.5165,茂名市,电白水东,,44,44,58,27,34,25,,,,15,18,10,12,/,/
2026-01-23T0100,2540A,103.8414,30.0871,眉山市,气象局,,36,36,57,24,44,49,,,,14,18,11,10,0.8,0.7
2026-01-23T0100,3148A,103.829,30.0563,眉山市,区人社局,,34,34,55,17,39,42,,,,14,17,6,5,0.7,0.7
2026-01-23T0100,4148A,103.8836,30.0695,眉山市,眉职院,,33,33,56,20,39,40,,,,10,12,1,1,0.9,0.9
2026-01-23T0100,1690A,116.1248,24.3307,梅州市,梅江月梅,,16,11,17,11,14,6,,,,20,19,/,/,/,/
2026-01-23T0100,1691A,116.0798,24.2719,梅州市,梅县新城,,16,,18,11,15,10,,,,18,16,7,7,0.5,0.6
2026-01-23T0100,3315A,116.1234,24.2994,梅州市,梅龙,,15,12,21,10,13,8,,,,16,16,8,7,0.7,0.8
2026-01-23T0100,1878A,104.7775,31.4741,绵阳市,富乐山,细颗粒物(PM2.5),58,44,48,41,40,20,,,,22,15,8,8,0.6,0.6
2026-01-23T0100,1880A,104.6698,31.4668,绵阳市,高新区自来水公司,"颗粒物(PM10),细颗粒物(PM2.5)",52,54,56,36,44,26,,,,18,26,10,8,0.9,0.8
2026-01-23T0100,3491A,104.6899,31.5324,绵阳市,西科大附属小学,细颗粒物(PM2.5),57,57,59,40,39,22,,,,28,29,8,8,0.7,0.6
2026-01-23T0100,3492A,104.5647,31.5343,绵阳市,安州区旅游局,细颗粒物(PM2.5),55,39,52,39,41,22,,,,31,27,12,11,0.6,0.5
2026-01-23T0100,4146A,104.7092,31.4972,绵阳市,科技城新区公安局,,50,45,51,35,35,25,,,,29,31,9,9,0.8,0.8
2026-01-23T0100,4226A,104.765114,31.453094,绵阳市,绵阳市气象局,细颗粒物(PM2.5),52,38,46,36,39,25,,,,19,20,4,7,0.8,0.8
2026-01-23T0100,1784A,129.61,44.561,牡丹江市,环保大楼,,31,31,36,19,18,53,,,,18,14,8,4,0.3,0.3
2026-01-23T0100,1787A,129.6364,44.6075,牡丹江市,机车工厂,,49,49,48,27,28,41,,,,32,17,4,4,0.4,0.5
2026-01-23T0100,1788A,129.6386,44.5462,牡丹江市,第一中学,,33,33,32,20,21,59,,,,12,13,4,4,0.3,0.4
2026-01-23T0100,4287A,129.5992,44.5964,牡丹江市,东晓云街98号,细颗粒物(PM2.5),65,58,38,47,28,32,,,,30,20,5,5,0.9,0.7
2026-01-23T0100,2531A,105.0703,29.61,内江市,市监测站,,45,45,33,27,26,31,,,,10,15,4,4,0.7,0.8
2026-01-23T0100,2533A,105.0657,29.5807,内江市,内江二中,,47,47,35,27,19,21,,,,20,22,4,4,0.4,0.5
2026-01-23T0100,2534A,105.0407,29.5828,内江市,内江日报社,,46,37,26,32,21,21,,,,27,24,4,3,0.8,0.8
2026-01-23T0100,4147A,105.0433,29.6105,内江市,玉峰路西段888号,细颗粒物(PM2.5),52,38,28,36,21,29,,,,18,20,1,2,1.1,1.1
2026-01-23T0100,2628A,92.0653,31.4846,那曲市,那曲监测站,细颗粒物(PM2.5),85,83,46,63,28,13,,,,62,26,17,9,3.6,1.3
2026-01-23T0100,4243A,92.0515,31.4787,那曲市,那曲市委宣传部,,22,22,32,15,20,28,,,,20,16,6,6,1.3,1.1
2026-01-23T0100,1291A,115.8887,28.7006,南昌市,省林业公司,细颗粒物(PM2.5),77,68,58,56,48,41,,,,17,12,5,5,0.3,0.2
2026-01-23T0100,1292A,115.813,28.7443,南昌市,林科所,细颗粒物(PM2.5),77,68,56,56,45,20,,,,42,25,1,5,0.6,0.5
2026-01-23T0100,1294A,115.8518,28.687,南昌市,建工学校,细颗粒物(PM2.5),78,86,60,57,49,30,,,,46,32,8,8,0.8,0.7
2026-01-23T0100,1295A,115.8926,28.6425,南昌市,象湖,细颗粒物(PM2.5),83,61,50,61,49,32,,,,30,20,10,9,0.6,0.6
2026-01-23T0100,3046A,115.9084,28.6062,南昌市,机电学校,细颗粒物(PM2.5),77,80,75,56,53,20,,,,43,21,4,5,0.5,0.6
2026-01-23T0100,3690A,115.9718,28.7032,南昌市,外国语学校,细颗粒物(PM2.5),65,64,66,47,46,33,,,,37,24,12,12,0.6,0.5
2026-01-23T0100,4106A,115.7923,28.6873,南昌市,工业二路,细颗粒物(PM2.5),70,65,60,51,44,44,,,,20,16,5,4,0.6,0.5
2026-01-23T0100,4192A,115.931587,28.686774,南昌市,南京东路235号,细颗粒物(PM2.5),73,62,61,53,54,29,,,,37,20,5,6,0.6,0.4
2026-01-23T0100,1906A,106.0791,30.8022,南充市,南充市委,细颗粒物(PM2.5),62,52,43,44,39,1,,,,32,25,4,4,0.7,0.7
2026-01-23T0100,1907A,106.1038,30.8215,南充市,南充炼油厂,细颗粒物(PM2.5),73,60,55,53,43,5,,,,23,16,5,5,0.6,0.6
2026-01-23T0100,4227A,106.108336,30.788436,南充市,梨树横街98号,细颗粒物(PM2.5),53,54,49,37,37,13,,,,24,21,5,5,0.7,0.7
2026-01-23T0100,4304A,106.1172,30.843,南充市,清泉寺北路188号,细颗粒物(PM2.5),57,43,38,40,34,14,,,,18,16,6,7,0.6,0.6
2026-01-23T0100,4305A,106.067,30.7616,南充市,同庆路1号,细颗粒物(PM2.5),62,47,39,44,35,3,,,,43,32,7,6,0.9,0.8
2026-01-23T0100,1151A,118.8033,32.1085,南京市,迈皋桥,,45,44,40,31,26,34,,,,28,34,4,6,0.5,0.6
2026-01-23T0100,1152A,118.7487,32.057,南京市,草场门,,48,48,45,29,27,20,,,,54,39,4,2,0.8,0.4
2026-01-23T0100,1154A,118.770105,32.004342,南京市,中华门,细颗粒物(PM2.5),52,48,41,36,27,17,,,,42,26,4,5,0.6,0.5
2026-01-23T0100,1155A,118.8059,32.0329,南京市,瑞金路,,49,44,45,34,30,1,,,,47,24,4,4,1.3,1.1
2026-01-23T0100,1156A,118.7946,32.0774,南京市,玄武湖,,48,48,43,29,24,46,,,,18,21,4,4,0.5,0.2
2026-01-23T0100,1157A,118.6415,32.0964,南京市,浦口,,43,43,45,26,26,16,,,,55,30,8,9,0.4,0.7
2026-01-23T0100,1158A,118.730129,32.000956,南京市,奥体中心,颗粒物(PM10),52,54,45,34,29,20,,,,62,33,10,8,0.6,0.6
2026-01-23T0100,1159A,118.9072,32.1047,南京市,仙林大学城,颗粒物(PM10),52,53,48,27,26,12,,,,46,34,5,6,0.8,0.7
2026-01-23T0100,3422A,118.8443,31.919,南京市,江宁彩虹桥,,49,48,40,34,27,4,,,,93,44,3,4,0.7,0.6
2026-01-23T0100,3427A,118.8497,32.3599,南京市,六合雄州,,47,47,47,18,28,7,,,,46,32,4,5,0.4,0.4
2026-01-23T0100,4086A,118.7641,32.0841,南京市,新模范马路66号,颗粒物(PM10),52,53,50,32,34,45,,,,17,18,4,4,0.5,0.5
2026-01-23T0100,4249A,118.8707617,31.34017673,南京市,汶溪路181号,细颗粒物(PM2.5),60,58,44,43,37,20,,,,55,33,6,8,0.8,0.7
2026-01-23T0100,4312A,119.019,31.6512,南京市,中山西路1号,细颗粒物(PM2.5),67,63,42,48,33,17,,,,47,27,4,4,0.9,0.8
2026-01-23T0100,1401A,108.3098,22.788,南宁市,二十一中,,28,28,16,16,10,30,,,,17,17,3,4,0.7,0.6
2026-01-23T0100,1402A,108.3135,22.8529,南宁市,北湖,,18,,18,12,8,22,,,,19,15,5,4,0.6,0.6
2026-01-23T0100,1403A,108.3205,22.8222,南宁市,市监测站,,25,25,19,16,13,26,,,,18,18,7,6,0.7,0.8
2026-01-23T0100,1404A,108.3828,22.8038,南宁市,大自然花园,,22,21,14,15,15,35,,,,9,8,6,5,0.6,0.6
2026-01-23T0100,1406A,108.2397,22.8462,南宁市,区农职院,,30,30,15,19,13,33,,,,14,15,12,7,1.0,1
2026-01-23T0100,1407A,108.3285,22.7356,南宁市,英华嘉园,,21,21,19,9,8,35,,,,12,11,3,3,0.8,0.8
2026-01-23T0100,3401A,108.4829,22.762,南宁市,红星社区,,32,32,17,22,13,47,,,,9,10,6,5,0.5,0.5
2026-01-23T0100,4132A,108.2927,23.1477,南宁市,起凤路9号,,33,30,20,23,13,34,,,,9,8,1,1,0.8,0.8
2026-01-23T0100,4221A,108.2177,22.7774,南宁市,乐贤路16号,,32,28,23,22,14,20,,,,24,17,11,10,0.6,0.7
2026-01-23T0100,2332A,118.1682,26.6371,南平市,南平市监测站,细颗粒物(PM2.5),59,52,45,42,38,7,,,,28,17,4,3,0.3,0.3
2026-01-23T0100,2334A,118.1757,26.6276,南平市,南平七中,细颗粒物(PM2.5),58,43,39,41,37,3,,,,30,17,3,6,0.6,0.6
2026-01-23T0100,1168A,120.9056,31.9669,南通市,狼山街道,细颗粒物(PM2.5),82,81,51,60,38,6,,,,75,29,2,4,0.7,0.5
2026-01-23T0100,1170A,120.8635,32.0231,南通市,城中,细颗粒物(PM2.5),70,68,54,51,35,47,,,,30,23,4,5,1.1,1
2026-01-23T0100,1171A,120.9376,31.9301,南通市,星湖花园,细颗粒物(PM2.5),67,56,47,48,31,36,,,,46,28,4,6,0.6,0.4
2026-01-23T0100,1172A,120.8053,32.046,南通市,紫琅学院,细颗粒物(PM2.5),67,63,57,48,37,49,,,,32,27,4,5,0.6,0.6
2026-01-23T0100,3291A,121.0631,32.0644,南通市,通州监测站,细颗粒物(PM2.5),70,61,47,51,35,49,,,,35,24,3,4,0.7,0.6
2026-01-23T0100,3432A,120.9348,31.9874,南通市,环境教育馆,细颗粒物(PM2.5),77,68,54,56,39,1,,,,74,35,5,5,0.9,0.7
2026-01-23T0100,4091A,120.8692,31.9885,南通市,洪江路,细颗粒物(PM2.5),65,52,45,47,34,51,,,,25,21,3,4,0.6,0.5
2026-01-23T0100,2404A,112.5338,33.0086,南阳市,瓦房庄,细颗粒物(PM2.5),79,71,75,58,70,71,,,,18,19,8,7,0.6,0.8
2026-01-23T0100,2405A,112.5002,32.9734,南阳市,汉画馆,细颗粒物(PM2.5),87,75,80,64,71,61,,,,27,26,6,6,0.5,0.5
2026-01-23T0100,2406A,112.5778,33.0144,南阳市,气象站,细颗粒物(PM2.5),73,75,82,53,59,80,,,,15,19,5,6,0.7,0.7
2026-01-23T0100,2407A,112.548,32.9687,南阳市,理工学院,细颗粒物(PM2.5),77,66,74,56,56,71,,,,16,23,5,5,0.6,0.7
2026-01-23T0100,4008A,112.5233,32.9921,南阳市,卧龙区政府,细颗粒物(PM2.5),84,76,89,62,64,66,,,,17,21,6,7,0.7,0.7
2026-01-23T0100,1234A,121.8352,29.9111,宁波市,区环保大楼,颗粒物(PM10),55,59,48,32,26,5,,,,57,36,4,5,0.8,0.8
2026-01-23T0100,1235A,121.5595,29.8208,宁波市,万里学院,细颗粒物(PM2.5),68,79,54,49,35,13,,,,58,30,4,4,0.6,0.6
2026-01-23T0100,1236A,121.713,29.9564,宁波市,龙赛医院,细颗粒物(PM2.5),75,85,48,55,31,3,,,,70,35,5,4,0.5,0.4
2026-01-23T0100,1240A,121.5855,29.8635,宁波市,太古小学,,,84,54,40,31,1,,,,65,33,,4,0.7,0.5
2026-01-23T0100,1241A,121.5239,29.8673,宁波市,市环境监测中心,细颗粒物(PM2.5),73,70,49,53,35,3,,,,59,24,7,6,0.7,0.6
2026-01-23T0100,2871A,121.6156,29.9015,宁波市,万里国际学校,,,59,42,42,31,,,,,75,29,4,4,0.7,0.6
2026-01-23T0100,3710A,121.5593,29.8976,宁波市,白沙活动中心,细颗粒物(PM2.5),64,51,42,46,29,22,,,,48,27,4,4,0.7,0.5
2026-01-23T0100,4095A,121.8962,29.7529,宁波市,中科路88号,,45,45,35,31,25,4,,,,60,32,4,5,0.5,0.4
2026-01-23T0100,2341A,119.5387,26.6611,宁德市,宁德市监测站,,46,46,34,27,21,37,,,,21,22,5,4,0.5,0.4
2026-01-23T0100,3209A,119.5231,26.6562,宁德市,宁德一中,,39,29,32,27,22,41,,,,17,19,4,2,0.4,0.4
2026-01-23T0100,2618A,98.859,25.8541,怒江傈僳族自治州,州监测站,,41,41,33,28,21,36,,,,18,12,6,5,0.5,0.4
2026-01-23T0100,2619A,98.8607,25.8168,怒江傈僳族自治州,泸水一中,,42,,29,29,26,26,,,,19,18,4,4,0.6,0.6
2026-01-23T0100,1888A,101.6891,26.571,攀枝花市,弄弄坪,细颗粒物(PM2.5),139,114,103,106,72,31,,,,39,37,12,27,1.0,1.7
2026-01-23T0100,1889A,101.577,26.5914,攀枝花市,河门口,细颗粒物(PM2.5),97,95,87,72,59,32,,,,28,27,21,28,1.1,1.3
2026-01-23T0100,1891A,101.7365,26.4986,攀枝花市,仁和,细颗粒物(PM2.5),117,116,72,88,48,30,,,,23,26,10,11,1.2,1
2026-01-23T0100,2835A,101.7222,26.567,攀枝花市,四十中小,细颗粒物(PM2.5),99,98,72,74,49,12,,,,53,30,18,18,1.6,1.3
2026-01-23T0100,1604A,122.0303,41.1489,盘锦市,开发区,细颗粒物(PM2.5),60,47,37,43,22,4,,,,40,23,2,5,1.7,1.1
2026-01-23T0100,1605A,122.0486,41.0883,盘锦市,兴隆台,,26,23,38,18,28,24,,,,41,42,4,8,0.8,1
2026-01-23T0100,1606A,121.8297,41.1026,盘锦市,新生街道,,23,19,28,16,17,27,,,,39,34,5,12,0.6,0.6
2026-01-23T0100,1832A,113.3257,33.7423,平顶山市,新华旅馆,细颗粒物(PM2.5),124,141,105,94,65,19,,,,69,46,5,6,0.8,0.7
2026-01-23T0100,1833A,113.2917,33.737,平顶山市,规划设计院,细颗粒物(PM2.5),74,69,89,54,64,76,,,,14,22,6,7,0.5,0.6
2026-01-23T0100,1834A,113.182,33.7738,平顶山市,平顶山工学院,细颗粒物(PM2.5),73,53,77,53,64,84,,,,13,17,7,7,0.5,0.6
2026-01-23T0100,3594A,112.8736,33.9068,平顶山市,石龙区,细颗粒物(PM2.5),145,144,116,111,92,43,,,,37,26,5,6,0.9,0.7
2026-01-23T0100,4116A,113.284,33.7139,平顶山市,姚电大道23号,细颗粒物(PM2.5),75,83,101,55,69,73,,,,25,30,5,6,0.5,0.6
2026-01-23T0100,2656A,106.6633,35.5338,平凉市,聚贤嘉苑,细颗粒物(PM2.5),59,66,71,42,39,26,,,,33,35,20,21,0.7,0.7
2026-01-23T0100,2657A,106.7021,35.5307,平凉市,博物馆,细颗粒物(PM2.5),72,75,75,52,47,19,,,,36,37,12,15,1.3,1
2026-01-23T0100,2348A,113.8384,27.6436,萍乡市,中医院,细颗粒物(PM2.5),103,113,107,77,72,15,,,,43,40,5,5,1.1,1.1
2026-01-23T0100,2350A,113.8677,27.6438,萍乡市,市环保局,细颗粒物(PM2.5),120,108,92,91,79,12,,,,31,25,14,13,1.4,1.2
2026-01-23T0100,2351A,113.8663,27.6202,萍乡市,安源区政府,细颗粒物(PM2.5),112,112,89,84,72,9,,,,31,23,11,10,1.3,1
2026-01-23T0100,4107A,113.8686,27.6668,萍乡市,联洪村委会,细颗粒物(PM2.5),107,106,106,80,78,8,,,,39,32,4,3,0.8,1
2026-01-23T0100,2319A,119.0142,25.4324,莆田市,荔城区仓后路,,42,42,40,21,29,48,,,,14,17,/,/,/,/
2026-01-23T0100,2320A,119.0016,25.4553,莆田市,莆田市监测站,,28,23,28,19,27,50,,,,12,12,2,2,0.5,0.6
2026-01-23T0100,2321A,119.112,25.4561,莆田市,涵江区六中,,44,44,34,23,27,40,,,,17,20,/,/,0.4,0.4
2026-01-23T0100,2322A,119.1014,25.3215,莆田市,秀屿区政府,,46,46,37,29,32,44,,,,20,20,6,4,0.8,0.7
2026-01-23T0100,2392A,115.0312,35.7636,濮阳市,环保局,细颗粒物(PM2.5),80,,55,59,42,74,,,,23,23,5,6,0.5,0.4
2026-01-23T0100,3021A,115,35.7667,濮阳市,濮水河管理处,细颗粒物(PM2.5),74,75,77,54,37,90,,,,17,19,5,6,0.5,0.6
2026-01-23T0100,4118A,115.0552,35.7816,濮阳市,中原东路68号,细颗粒物(PM2.5),84,76,76,62,56,82,,,,20,20,4,5,0.7,0.6
2026-01-23T0100,4216A,115.0923632,35.76857718,濮阳市,任丘路479号,细颗粒物(PM2.5),97,85,81,72,64,60,,,,29,23,4,5,0.9,0.7
2026-01-23T0100,2601A,100.9801,22.7634,普洱市,市环保局,颗粒物(PM10),52,54,52,13,14,36,,,,9,12,5,5,0.4,0.4
2026-01-23T0100,2602A,100.9763,22.8237,普洱市,普洱第二中学,颗粒物(PM10),51,52,49,28,26,3,,,,46,21,5,5,0.4,0.3
2026-01-23T0100,3345A,131.0413,45.7795,七台河市,中波台,,27,27,28,18,17,56,,,,14,14,7,8,0.4,0.4
2026-01-23T0100,3637A,131.0136,45.7688,七台河市,人民广场,,35,35,32,16,14,52,,,,23,16,5,6,0.5,0.5
2026-01-23T0100,3684A,130.8639,45.8144,七台河市,新建矿广场,,23,22,23,16,18,55,,,,10,10,4,5,0.3,0.3
2026-01-23T0100,1779A,123.9307,47.3641,齐齐哈尔市,安居小区,,24,24,20,7,9,56,,,,10,13,9,8,0.5,0.5
2026-01-23T0100,1780A,123.9497,47.3389,齐齐哈尔市,中心广场,,19,14,14,3,7,59,,,,8,12,6,6,0.3,0.6
2026-01-23T0100,1781A,123.9483,47.3229,齐齐哈尔市,农牧车辆厂,,26,,19,18,7,61,,,,5,10,5,5,0.3,0.3
2026-01-23T0100,1783A,123.9442,47.2994,齐齐哈尔市,市环境监测站,,20,20,24,3,8,62,,,,5,12,4,5,0.4,0.5
2026-01-23T0100,3662A,123.6341,47.2079,齐齐哈尔市,富区青少年活动中心,,20,19,30,9,10,64,,,,5,16,7,7,0.5,0.7
2026-01-23T0100,2591A,107.9765,26.5724,黔东南苗族侗族自治州,市环境监测站,,48,38,41,33,37,29,,,,14,11,8,5,0.6,0.6
2026-01-23T0100,2881A,107.8909,26.531,黔东南苗族侗族自治州,凯里学院,,40,34,38,28,30,37,,,,6,8,3,2,0.6,0.6
2026-01-23T0100,2593A,107.5223,26.2371,黔南布依族苗族自治州,小围寨,细颗粒物(PM2.5),52,41,31,36,30,37,,,,9,8,6,5,0.8,0.8
2026-01-23T0100,3538A,107.5175,26.2977,黔南布依族苗族自治州,沙坝,细颗粒物(PM2.5),67,53,40,48,36,38,,,,11,8,8,6,0.7,0.7
2026-01-23T0100,2589A,104.9022,25.0943,黔西南布依族苗族自治州,场坝街,细颗粒物(PM2.5),57,55,38,40,25,30,,,,12,14,3,5,0.8,0.8
2026-01-23T0100,2590A,104.8812,25.0994,黔西南布依族苗族自治州,坪东大道,细颗粒物(PM2.5),65,63,36,47,25,30,,,,12,14,6,7,1.0,0.9
2026-01-23T0100,2502A,108.6238,21.9667,钦州市,市环保站,,29,29,24,7,5,33,,,,17,16,3,2,1.0,1
2026-01-23T0100,2503A,108.655,21.9481,钦州市,沙埠小学,,32,27,17,22,10,38,,,,16,17,4,3,0.6,0.6
2026-01-23T0100,2504A,108.5989,21.7435,钦州市,港区一小,,49,49,28,22,20,22,,,,24,19,5,3,0.7,0.6
2026-01-23T0100,3404A,108.5959,21.9634,钦州市,北职校,,33,,15,23,13,35,,,,10,8,2,1,0.5,0.5
2026-01-23T0100,1046A,119.5247,39.9346,秦皇岛市,建设大厦,颗粒物(PM10),55,59,54,28,24,4,,,,48,41,10,9,1.0,0.8
2026-01-23T0100,3132A,119.5979,39.938,秦皇岛市,文明里,颗粒物(PM10),63,75,52,36,23,2,,,,59,48,12,11,0.8,0.7
2026-01-23T0100,4066A,119.7458,39.9952,秦皇岛市,南园路157号,,48,48,44,27,20,3,,,,62,50,12,9,1.1,0.8
2026-01-23T0100,4067A,119.5131,39.8858,秦皇岛市,翠岛大街1号,颗粒物(PM10),66,82,49,37,18,1,,,,64,38,16,11,1.2,0.7
2026-01-23T0100,4198A,119.509013,39.825305,秦皇岛市,北戴河轮滑馆,颗粒物(PM10),64,77,51,45,23,4,,,,68,37,15,9,1.2,0.8
2026-01-23T0100,1310A,120.404,36.0625,青岛市,市南区东部子站,颗粒物(PM10),59,68,44,41,26,43,,,,44,31,13,15,0.8,0.7
2026-01-23T0100,1311A,120.362344,36.10282,青岛市,四方区子站,细颗粒物(PM2.5),70,73,49,51,31,42,,,,40,31,9,12,1.0,0.9
2026-01-23T0100,1312A,120.294373,36.054183,青岛市,市南区西部子站,细颗粒物(PM2.5),62,70,46,44,27,21,,,,65,34,7,8,0.7,0.6
2026-01-23T0100,1313A,120.4581,36.0858,青岛市,崂山区子站,细颗粒物(PM2.5),62,61,41,44,24,47,,,,38,32,14,15,0.5,0.4
2026-01-23T0100,1315A,120.3945,36.3083,青岛市,城阳区子站,颗粒物(PM10),62,73,58,42,30,20,,,,64,53,11,11,1.0,1
2026-01-23T0100,3642A,120.3454,36.0735,青岛市,市北区南部,细颗粒物(PM2.5),67,69,44,48,26,35,,,,47,30,6,7,0.8,0.8
2026-01-23T0100,3643A,120.3897,36.18,青岛市,李沧区北部,细颗粒物(PM2.5),70,63,47,51,35,20,,,,59,44,14,15,1.2,1.1
2026-01-23T0100,4110A,120.5222,36.4089,青岛市,盟旺路653号,细颗粒物(PM2.5),75,92,68,55,38,19,,,,66,51,10,9,1.1,1
2026-01-23T0100,4290A,120.196923,35.954556,青岛市,珠江路669号,细颗粒物(PM2.5),70,61,40,51,31,58,,,,33,31,8,8,1.0,0.9
2026-01-23T0100,4291A,120.0424,35.8656,青岛市,黄岛区人民政府广场,细颗粒物(PM2.5),64,68,54,46,31,60,,,,30,36,12,12,1.0,1
2026-01-23T0100,1703A,113.0218,23.7086,清远市,凤城街办,,23,22,21,16,14,25,,,,18,18,/,/,/,/
2026-01-23T0100,3025A,113.0479,23.6343,清远市,技师学院,,33,33,29,20,16,18,,,,26,23,7,6,0.6,0.6
2026-01-23T0100,3318A,112.9898,23.7403,清远市,清新太和,,22,22,21,14,13,28,,,,14,14,8,6,0.6,0.6
2026-01-23T0100,3455A,113.076,23.72,清远市,清城东城,,30,30,24,20,12,24,,,,20,18,/,/,/,/
2026-01-23T0100,2661A,107.6325,35.7357,庆阳市,庆阳五中,细颗粒物(PM2.5),57,56,60,40,41,67,,,,21,24,7,8,0.6,0.7
2026-01-23T0100,2662A,107.6361,35.7067,庆阳市,市环保局,细颗粒物(PM2.5),83,,55,61,47,58,,,,26,18,25,10,0.8,1.1
2026-01-23T0100,1916A,103.7897,25.5036,曲靖市,环境监测站,颗粒物(PM10),53,55,48,27,25,12,,,,25,20,4,7,1.0,0.9
2026-01-23T0100,1917A,103.8013,25.5357,曲靖市,烟厂办公区,颗粒物(PM10),64,77,56,39,27,2,,,,34,25,14,13,1.1,1
2026-01-23T0100,3376A,103.7926,25.4651,曲靖市,南苑二区,颗粒物(PM10),55,59,42,36,25,16,,,,20,14,6,5,1.1,0.9
2026-01-23T0100,3377A,103.7442,25.5259,曲靖市,曲靖师范学院,,,,61,,42,,,29,,,21,,9,,0.9
2026-01-23T0100,1264A,118.8694,28.94,衢州市,环保大楼,细颗粒物(PM2.5),84,72,60,62,51,10,,,,57,30,/,/,/,/
2026-01-23T0100,1266A,118.8622,28.9809,衢州市,衢州学院,细颗粒物(PM2.5),69,65,56,50,44,5,,,,58,31,5,6,0.6,0.6
2026-01-23T0100,4097A,118.9646,28.9832,衢州市,衢州三中,细颗粒物(PM2.5),84,87,68,62,51,6,,,,54,30,4,5,1.1,1
2026-01-23T0100,1611A,118.5818,24.9116,泉州市,涂山街,,38,,32,26,30,36,,,,25,22,2,3,0.7,0.6
2026-01-23T0100,1612A,118.597,24.8976,泉州市,津头埔,,39,,35,27,31,33,,,,20,19,4,4,0.4,0.5
2026-01-23T0100,1613A,118.6669,24.9422,泉州市,万安,,36,28,37,25,29,31,,,,24,22,4,4,0.5,0.4
2026-01-23T0100,4105A,118.6355,24.9148,泉州市,霞新路6号,,36,36,43,24,28,28,,,,30,23,/,/,0.6,0.6
2026-01-23T0100,2626A,88.8873,29.2723,日喀则市,日喀则监测站,,36,36,18,24,10,26,,,,24,15,8,11,1.0,0.7
2026-01-23T0100,3726A,88.8775,29.2425,日喀则市,林业技术推广中心,,46,46,19,25,7,24,,,,28,8,11,9,0.8,0.3
2026-01-23T0100,1659A,119.4711,35.421,日照市,监测站,细颗粒物(PM2.5),88,90,68,65,43,21,,,,63,45,16,15,1.0,1
2026-01-23T0100,1660A,119.523,35.4216,日照市,市政府广场,细颗粒物(PM2.5),82,90,62,60,41,46,,,,45,39,18,14,0.8,0.7
2026-01-23T0100,1661A,119.5511,35.4113,日照市,港务局,细颗粒物(PM2.5),104,105,77,78,51,21,,,,64,44,29,13,1.0,0.9
2026-01-23T0100,3507A,119.5326,35.4627,日照市,职业技术学院,细颗粒物(PM2.5),73,78,61,53,36,41,,,,50,41,15,13,1.0,0.9
2026-01-23T0100,3604A,119.3267,35.1043,日照市,岚山环保分局,细颗粒物(PM2.5),72,75,76,52,54,48,,,,40,33,33,24,1.0,1.2
2026-01-23T0100,1835A,111.1922,34.7752,三门峡市,市政府,细颗粒物(PM2.5),99,,74,74,65,6,,,,66,47,11,14,0.9,0.9
2026-01-23T0100,1836A,111.1588,34.794,三门峡市,开发区,细颗粒物(PM2.5),83,96,97,61,70,39,,,,18,29,6,9,0.6,0.8
2026-01-23T0100,3039A,111.1911,34.7829,三门峡市,三门峡市第一小学,细颗粒物(PM2.5),92,,80,68,60,49,,,,29,35,8,10,0.6,0.7
2026-01-23T0100,3598A,111.1031,34.719,三门峡市,富达温泉假日酒店,细颗粒物(PM2.5),83,76,88,61,68,24,,,,36,37,10,14,1.0,0.9
2026-01-23T0100,2324A,117.621,26.2626,三明市,三钢,细颗粒物(PM2.5),62,44,33,44,34,18,,,,19,13,12,6,0.4,0.5
2026-01-23T0100,2325A,117.6352,26.2714,三明市,三明二中,,46,42,27,32,29,25,,,,14,12,5,2,0.5,0.5
2026-01-23T0100,2326A,117.6028,26.2377,三明市,三元区政府,,48,,25,33,22,26,,,,15,12,8,5,0.5,0.5
2026-01-23T0100,1877A,109.4962,18.2682,三亚市,河西子站,,44,44,44,25,22,68,,,,9,10,3,3,0.6,0.5
2026-01-23T0100,3540A,109.7348,18.3443,三亚市,君悦子站,,33,,42,23,22,72,,,,8,9,5,4,0.5,0.5
2026-01-23T0100,4135A,109.1714,18.3739,三亚市,城东小学站,细颗粒物(PM2.5),58,58,43,41,28,50,,,,25,12,/,/,/,/
2026-01-23T0100,2624A,91.7592,29.234,山南市,山南监测站,,26,25,24,18,12,44,,,,13,15,4,4,0.4,0.3
2026-01-23T0100,2625A,91.7701,29.2436,山南市,山南人民医院,,19,14,21,7,10,60,,,,10,14,7,8,0.5,0.6
2026-01-23T0100,1674A,116.6795,23.3666,汕头市,金平子站,,40,31,38,28,29,14,,,,18,18,5,6,0.9,0.9
2026-01-23T0100,1675A,116.7248,23.3632,汕头市,龙湖子站,,32,31,35,22,23,11,,,,18,17,11,11,/,/
2026-01-23T0100,1676A,116.7257,23.2774,汕头市,濠江子站,细颗粒物(PM2.5),59,45,38,42,32,11,,,,30,21,12,9,/,/
2026-01-23T0100,1677A,116.7518,23.4712,汕头市,澄海子站,,39,28,39,27,29,10,,,,16,16,7,8,0.7,0.7
2026-01-23T0100,1678A,116.6088,23.2539,汕头市,潮阳子站,,37,37,39,22,22,12,,,,22,17,8,8,0.8,0.7
2026-01-23T0100,3444A,116.4539,23.2684,汕头市,潮南峡山,,49,46,44,34,29,12,,,,22,20,8,9,0.7,0.7
2026-01-23T0100,3624A,116.4069,23.2533,汕头市,潮南子站,颗粒物(PM10),51,51,56,30,33,6,,,,26,22,7,8,/,/
2026-01-23T0100,1693A,115.3653,22.7751,汕尾市,市环保局,,30,,27,21,23,22,,,,13,13,8,7,0.6,0.6
2026-01-23T0100,1695A,115.362,22.7926,汕尾市,新城中学,,36,,28,25,22,25,,,,11,12,6,7,0.6,0.6
2026-01-23T0100,2645A,109.9155,33.8714,商洛市,监测站,细颗粒物(PM2.5),58,51,54,41,45,18,,,,35,32,6,7,0.8,0.7
2026-01-23T0100,3045A,109.9647,33.8486,商洛市,商州区中学,细颗粒物(PM2.5),54,46,52,38,41,6,,,,45,27,6,11,0.9,0.9
2026-01-23T0100,2408A,115.6701,34.4283,商丘市,环境监测站,细颗粒物(PM2.5),93,,60,69,66,71,,,,30,26,2,3,0.6,0.6
2026-01-23T0100,2409A,115.6458,34.4047,商丘市,粮食局,细颗粒物(PM2.5),85,68,63,63,60,67,,,,21,19,4,5,0.7,0.7
2026-01-23T0100,3171A,115.6069,34.4465,商丘市,梁园区档案局,细颗粒物(PM2.5),75,,59,55,61,70,,,,22,23,2,6,0.5,0.5
2026-01-23T0100,4119A,115.6701,34.3767,商丘市,北海东路185号,细颗粒物(PM2.5),99,97,87,74,66,64,,,,36,34,2,2,0.8,0.8
2026-01-23T0100,4120A,115.6172,34.3704,商丘市,中山大街3号,细颗粒物(PM2.5),89,83,88,66,66,60,,,,38,36,5,5,0.3,0.4
2026-01-23T0100,1141A,121.401,31.2382,上海市,普陀,细颗粒物(PM2.5),77,67,48,56,35,36,,,,41,29,6,7,0.9,0.8
2026-01-23T0100,1142A,121.4774,31.2043,上海市,十五厂,细颗粒物(PM2.5),62,58,47,44,32,53,,,,35,35,6,7,0.9,0.9
2026-01-23T0100,1143A,121.4673,31.3011,上海市,虹口,细颗粒物(PM2.5),65,64,53,47,33,34,,,,41,35,8,9,0.5,0.6
2026-01-23T0100,1147A,121.4253,31.226,上海市,静安监测站,细颗粒物(PM2.5),69,62,47,50,37,53,,,,31,31,7,8,0.4,0.4
2026-01-23T0100,1148A,121.7029,31.1905,上海市,浦东川沙,细颗粒物(PM2.5),65,63,49,47,25,22,,,,60,33,6,7,0.4,0.2
2026-01-23T0100,1149A,121.5339,31.229,上海市,浦东新区监测站,细颗粒物(PM2.5),62,61,47,44,35,43,,,,41,34,6,7,0.8,0.7
2026-01-23T0100,1150A,121.5776,31.2038,上海市,浦东张江,细颗粒物(PM2.5),62,68,48,44,31,40,,,,40,30,7,7,0.7,0.6
2026-01-23T0100,3265A,121.4242,31.3303,上海市,宝山庙行,细颗粒物(PM2.5),73,92,53,53,31,8,,,,61,33,8,8,0.7,0.6
2026-01-23T0100,3266A,121.8789,31.4662,上海市,崇明上实东滩,,49,45,42,34,29,38,,,,11,13,4,4,0.1,0.2
2026-01-23T0100,3268A,121.316,31.2839,上海市,嘉定南翔,细颗粒物(PM2.5),69,73,47,50,30,3,,,,72,36,4,5,1.0,0.8
2026-01-23T0100,3269A,121.3357,30.7455,上海市,金山新城,细颗粒物(PM2.5),63,51,42,45,36,44,,,,34,28,10,10,0.5,0.5
2026-01-23T0100,3270A,121.4996,31.0741,上海市,闵行浦江,细颗粒物(PM2.5),62,63,47,44,32,30,,,,33,24,6,8,0.5,0.5
2026-01-23T0100,3271A,121.2886,31.1663,上海市,青浦徐泾,细颗粒物(PM2.5),72,83,50,52,33,6,,,,72,40,5,6,0.8,0.8
2026-01-23T0100,3272A,121.2193,31.0382,上海市,松江图书馆,细颗粒物(PM2.5),69,86,55,50,33,23,,,,59,39,6,7,0.7,0.6
2026-01-23T0100,3273A,121.3904,31.206,上海市,长宁仙霞,细颗粒物(PM2.5),62,60,44,44,31,45,,,,29,23,7,8,0.3,0.3
2026-01-23T0100,3274A,121.7964,31.0507,上海市,浦东惠南,,,68,47,,27,19,,,,59,28,5,5,0.8,0.7
2026-01-23T0100,3544A,121.4891,30.925,上海市,奉贤南桥新城,细颗粒物(PM2.5),75,76,53,55,35,47,,,,31,30,2,4,0.6,0.5
2026-01-23T0100,4183A,121.417401,31.16637,上海市,冠生园路458号,细颗粒物(PM2.5),67,59,43,48,32,40,,,,43,30,3,4,0.8,0.7
2026-01-23T0100,4205A,121.541914,31.268301,上海市,宁武路151号,细颗粒物(PM2.5),67,65,44,48,30,27,,,,50,36,5,5,0.8,0.8
2026-01-23T0100,2382A,117.9758,28.4439,上饶市,市监测站,颗粒物(PM10),56,62,51,35,30,36,,,,32,20,6,7,/,/
2026-01-23T0100,2383A,117.9521,28.4637,上饶市,凤凰光学,颗粒物(PM10),58,65,53,31,26,25,,,,34,21,14,11,0.6,0.5
2026-01-23T0100,3685A,117.897,28.4316,上饶市,双创科技城,细颗粒物(PM2.5),65,58,50,47,38,36,,,,41,25,7,7,0.8,0.8
2026-01-23T0100,4211A,118.190438,28.444845,上饶市,裕丰大道,细颗粒物(PM2.5),72,79,65,52,41,31,,,,32,26,12,11,0.7,0.7
2026-01-23T0100,1669A,113.5821,24.7733,韶关市,市八中,,36,34,26,25,17,37,,,,13,14,6,6,0.5,0.5
2026-01-23T0100,1671A,113.5916,24.7973,韶关市,园林处,,36,28,21,25,16,38,,,,14,13,5,6,/,/
2026-01-23T0100,1673A,113.5971,24.6864,韶关市,曲江监测站,,35,30,20,24,14,31,,,,14,12,11,9,0.5,0.5
2026-01-23T0100,2809A,113.6668,24.7756,韶关市,大学路288号,,32,28,14,22,13,33,,,,14,13,7,4,/,/
2026-01-23T0100,3622A,113.5556,24.8082,韶关市,碧湖山庄,,42,38,25,29,16,31,,,,16,15,8,7,0.3,0.3
2026-01-23T0100,2464A,111.5277,27.2442,邵阳市,市化工厂,细颗粒物(PM2.5),72,70,57,52,45,4,,,,26,16,6,9,0.6,0.5
2026-01-23T0100,2466A,111.4327,27.2276,邵阳市,市环保局,细颗粒物(PM2.5),83,,47,61,45,32,,,,23,12,2,2,1.1,1
2026-01-23T0100,4218A,111.446,27.2472,邵阳市,北塔二期4-26地块,细颗粒物(PM2.5),112,,51,84,51,21,,,,12,11,7,6,1.6,1.3
2026-01-23T0100,4219A,111.4739,27.2282,邵阳市,邵水西路287号,细颗粒物(PM2.5),88,69,46,65,47,15,,,,29,14,7,8,1.0,0.9
2026-01-23T0100,1247A,120.6053,29.9927,绍兴市,城东开发委,细颗粒物(PM2.5),62,57,58,44,43,34,,,,23,27,8,8,0.6,0.6
2026-01-23T0100,2921A,120.5482,30.0003,绍兴市,树下王站,细颗粒物(PM2.5),59,61,52,42,36,7,,,,54,29,6,7,0.7,0.8
2026-01-23T0100,3408A,120.5685,29.936,绍兴市,绍兴中专,细颗粒物(PM2.5),57,56,61,40,48,0,,,,49,26,8,8,0.4,0.6
2026-01-23T0100,3409A,120.4905,30.086,绍兴市,柯桥区政府,细颗粒物(PM2.5),70,67,53,51,41,14,,,,59,33,5,6,0.5,0.5
2026-01-23T0100,3410A,120.8751,30.0249,绍兴市,重华小学,细颗粒物(PM2.5),57,55,44,40,34,39,,,,28,25,6,6,0.5,0.6
2026-01-23T0100,3411A,120.837,30.0137,绍兴市,上虞中学,细颗粒物(PM2.5),57,57,45,40,34,25,,,,29,27,7,7,0.5,0.5
2026-01-23T0100,3560A,120.4715,30.0414,绍兴市,柯桥妇保,细颗粒物(PM2.5),59,62,55,42,39,16,,,,31,28,6,6,0.4,0.4
2026-01-23T0100,3658A,120.6156,30.0762,绍兴市,袍江中学,细颗粒物(PM2.5),60,59,59,43,44,41,,,,21,25,7,7,0.6,0.6
2026-01-23T0100,1356A,114.0948,22.5506,深圳市,通心岭子站,,29,29,42,14,21,17,,,,15,21,6,7,0.7,0.7
2026-01-23T0100,1357A,114.1153,22.5713,深圳市,洪湖,,31,31,43,15,22,16,,,,18,23,8,8,0.8,0.9
2026-01-23T0100,1358A,113.9823,22.5398,深圳市,华侨城,,41,41,44,22,25,10,,,,31,28,/,/,/,/
2026-01-23T0100,1359A,113.9181,22.517,深圳市,南海子站,,44,44,48,24,27,8,,,,33,29,5,6,0.9,0.9
2026-01-23T0100,1360A,114.2345,22.565,深圳市,盐田,,30,30,41,13,18,25,,,,17,17,7,7,0.6,0.6
2026-01-23T0100,1363A,114.4911,22.5381,深圳市,南澳,,30,30,36,18,18,31,,,,18,18,/,/,/,/
2026-01-23T0100,1364A,114.41,22.6346,深圳市,葵涌,,27,27,34,16,19,16,,,,18,16,7,8,0.7,0.7
2026-01-23T0100,1365A,114.2967,22.5978,深圳市,梅沙,,30,30,38,17,20,24,,,,16,17,/,/,/,/
2026-01-23T0100,1366A,114.0563,22.7353,深圳市,观澜,,37,37,49,20,26,16,,,,26,29,7,7,0.8,0.8
2026-01-23T0100,3305A,114.0614,22.556,深圳市,莲花,,28,28,41,17,24,14,,,,24,26,/,/,/,/
2026-01-23T0100,3306A,114.0144,22.6163,深圳市,民治,,42,42,45,23,26,14,,,,30,27,/,/,/,/
2026-01-23T0100,3307A,114.1756,22.6421,深圳市,横岗,,30,30,41,18,24,14,,,,21,20,/,/,/,/
2026-01-23T0100,3447A,114.344,22.7115,深圳市,坪山,,28,28,39,16,21,18,,,,19,19,8,8,0.8,0.8
2026-01-23T0100,3623A,113.8952,22.586,深圳市,西乡,,30,30,40,20,25,22,,,,22,22,5,5,0.7,0.7
2026-01-23T0100,4220A,114.214113,22.713717,深圳市,黄阁路,,25,25,34,16,21,17,,,,22,22,6,6,0.7,0.7
2026-01-23T0100,1099A,123.5058,41.7084,沈阳市,浑南东路,细颗粒物(PM2.5),69,73,65,50,45,0,,,,72,52,22,11,1.5,0.9
2026-01-23T0100,1100A,123.4238,41.6992,沈阳市,新秀街,颗粒物(PM10),67,83,65,40,35,6,,,,66,48,20,11,1.6,1.1
2026-01-23T0100,1102A,123.5903,41.8412,沈阳市,东陵路,细颗粒物(PM2.5),78,94,59,57,43,7,,,,66,43,8,8,1.5,1.1
2026-01-23T0100,1103A,123.4267,41.8466,沈阳市,陵东街,细颗粒物(PM2.5),84,67,39,62,27,0,,,,67,39,23,16,1.1,0.8
2026-01-23T0100,1104A,123.4116,41.7654,沈阳市,文化路,"颗粒物(PM10),细颗粒物(PM2.5)",79,107,71,58,36,2,,,,75,43,31,14,1.9,1.1
2026-01-23T0100,1105A,123.4673,41.787,沈阳市,小河沿,细颗粒物(PM2.5),63,63,55,45,37,0,,,,68,44,19,13,1.3,1.2
2026-01-23T0100,1106A,123.4019,41.7978,沈阳市,太原街,细颗粒物(PM2.5),88,94,48,65,26,0,,,,72,40,47,21,1.7,0.8
2026-01-23T0100,1108A,123.3778,41.9233,沈阳市,京沈街,细颗粒物(PM2.5),103,89,47,77,34,1,,,,74,47,30,13,1.1,0.7
2026-01-23T0100,2897A,123.2429,41.7341,沈阳市,沈辽西路,细颗粒物(PM2.5),123,134,114,93,60,9,,,,78,52,23,12,2.0,1.3
2026-01-23T0100,2900A,123.5951,41.9085,沈阳市,裕农路,细颗粒物(PM2.5),83,99,61,61,29,5,,,,71,39,13,9,1.4,0.7
2026-01-23T0100,2429A,110.78,32.6494,十堰市,滨河新村,细颗粒物(PM2.5),98,,70,73,70,12,,,,49,25,/,/,0.9,0.9
2026-01-23T0100,2430A,110.7305,32.6408,十堰市,刘家沟,细颗粒物(PM2.5),80,70,85,59,73,46,,,,18,22,/,/,/,/
