timepoint,stationcode,longitude,latitude,area,positionname,primarypollutant,aqi,pm10,pm10_24h,pm2_5,pm2_5_24h,o3,o3_24h,o3_8h,o3_8h_24h,no2,no2_24h,so2,so2_24h,co,co_24h
2026-01-23T1000,2568A,102.2503,31.8896,阿坝藏族羌族自治州,马师校,,28,21,22,19,17,35,,35,35,15,14,4,4,0.6,0.5
2026-01-23T1000,3994A,102.2174,31.9016,阿坝藏族羌族自治州,马尔康中学西区,,17,17,21,3,14,38,,38,38,10,13,6,6,0.5,0.4
2026-01-23T1000,2695A,80.2899,41.1684,阿克苏地区,电视台,颗粒物(PM10),373,478,542,85,99,4,,13,5,38,33,5,7,2.4,2.3
2026-01-23T1000,2696A,80.2592,41.1541,阿克苏地区,艺术中心,颗粒物(PM10),350,460,504,104,105,6,,18,11,45,35,4,4,1.2,1
2026-01-23T1000,2205A,105.699,38.8409,阿拉善盟,蒙二幼,颗粒物(PM10),55,60,38,13,16,41,,78,75,40,16,10,10,1.2,0.6
2026-01-23T1000,2206A,105.7198,38.8508,阿拉善盟,环保局新楼,,25,18,24,3,9,77,,82,81,5,7,8,8,0.5,0.5
2026-01-23T1000,2708A,88.1266,47.8515,阿勒泰地区,市站,,24,,14,3,7,38,,78,72,47,28,2,6,0.5,0.4
2026-01-23T1000,4166A,88.1198,47.7931,阿勒泰地区,阿勒泰路33号,,22,11,17,3,7,27,,68,65,44,27,6,10,0.5,0.4
2026-01-23T1000,2630A,80.1171,32.4999,阿里地区,阿里监测站,,23,,1,3,2,73,,75,75,1,4,5,7,0.5,0.5
2026-01-23T1000,3192A,80.0906,32.5029,阿里地区,阿里藏医院,,29,26,15,6,6,91,,93,93,2,3,12,12,0.5,0.6
2026-01-23T1000,2644A,109.0088,32.6974,安康市,汉滨区检察院,细颗粒物(PM2.5),55,46,43,39,33,13,,15,14,22,19,7,6,0.7,0.6
2026-01-23T1000,4054A,109.0324,32.6913,安康市,市邮政管理局,细颗粒物(PM2.5),63,59,52,45,39,14,,13,13,20,21,6,8,0.6,0.6
2026-01-23T1000,2291A,117.0806,30.5181,安庆市,环科院,细颗粒物(PM2.5),97,82,64,72,48,18,,8,8,36,36,11,8,0.6,0.6
2026-01-23T1000,2292A,117.0331,30.5118,安庆市,马山宾馆,细颗粒物(PM2.5),98,78,62,73,47,20,,11,11,40,43,8,7,0.7,0.6
2026-01-23T1000,2294A,116.9897,30.6146,安庆市,安庆大学,细颗粒物(PM2.5),97,78,50,72,42,33,,6,6,35,39,8,5,0.6,0.6
2026-01-23T1000,3173A,117.0598,30.5351,安庆市,市人大,细颗粒物(PM2.5),98,78,66,73,50,25,,13,13,35,41,10,8,0.6,0.7
2026-01-23T1000,3123A,105.9408,26.2431,安顺市,凤凰山,,49,40,33,34,35,37,,39,37,21,21,15,20,0.5,0.6
2026-01-23T1000,3124A,105.9443,26.2567,安顺市,金钟山,细颗粒物(PM2.5),52,38,29,36,34,34,,38,36,14,13,22,23,0.7,0.7
2026-01-23T1000,3125A,105.8983,26.248,安顺市,娄家坡,,50,39,34,35,38,36,,37,36,14,13,14,19,0.5,0.6
2026-01-23T1000,1819A,114.3552,36.1017,安阳市,红庙街,细颗粒物(PM2.5),195,174,107,146,103,24,,46,35,43,32,12,4,1.5,0.8
2026-01-23T1000,1820A,114.361,36.0681,安阳市,银杏小区,,,,107,,110,24,,46,33,,32,,3,1.5,0.8
2026-01-23T1000,3141A,114.3921,36.0879,安阳市,信访局,细颗粒物(PM2.5),186,146,109,140,105,33,,56,47,35,25,12,6,1.2,0.7
2026-01-23T1000,3669A,114.4706,36.0634,安阳市,左辅环卫站,细颗粒物(PM2.5),176,141,119,133,103,29,,62,53,40,27,5,4,0.9,0.7
2026-01-23T1000,4117A,114.2918,36.0769,安阳市,钢三路198号,细颗粒物(PM2.5),212,237,147,162,119,18,,28,20,39,29,12,4,2.0,0.9
2026-01-23T1000,1748A,123.0441,41.1201,鞍山市,深沟寺,细颗粒物(PM2.5),59,53,46,42,30,38,,39,36,36,28,18,16,1.3,1.4
2026-01-23T1000,1749A,123.011,41.0931,鞍山市,太阳城,,48,40,42,33,30,48,,42,41,24,26,18,21,0.9,1.2
2026-01-23T1000,1750A,123.0483,41.1445,鞍山市,太平,细颗粒物(PM2.5),80,99,61,59,35,19,,21,18,53,35,24,14,1.8,1.3
2026-01-23T1000,1751A,122.964,41.0968,鞍山市,铁西三道街,颗粒物(PM10),126,202,87,92,44,26,,17,16,69,49,40,25,3.5,1.4
2026-01-23T1000,1753A,123.0219,41.0822,鞍山市,明达新区,,39,37,42,27,26,42,,41,38,27,23,18,20,1.0,1.2
2026-01-23T1000,4201A,122.944647,41.082639,鞍山市,兴盛南路290号,,,,77,135,47,,,19,13,78,42,34,19,4.3,1.6
2026-01-23T1000,2195A,107.4206,40.7609,巴彦淖尔市,附二中,颗粒物(PM10),68,85,79,37,46,10,,2,2,31,38,10,11,0.9,0.8
2026-01-23T1000,2196A,107.37,40.7372,巴彦淖尔市,市环保大楼,颗粒物(PM10),62,73,85,37,49,10,,2,2,30,43,5,7,0.9,0.9
2026-01-23T1000,1956A,86.1476,41.7529,巴音郭楞蒙古自治州,孔雀公园,颗粒物(PM10),252,386,340,47,54,59,,50,50,8,22,7,8,0.6,0.7
2026-01-23T1000,1957A,86.1971,41.7166,巴音郭楞蒙古自治州,棉纺厂,颗粒物(PM10),212,358,385,51,52,47,,36,36,14,29,/,/,/,/
2026-01-23T1000,1958A,86.236,41.7172,巴音郭楞蒙古自治州,经济开发区,颗粒物(PM10),182,314,330,41,39,43,,44,44,15,22,5,5,0.7,0.6
2026-01-23T1000,3181A,106.776805,31.852614,巴中市,市五中,细颗粒物(PM2.5),68,66,54,49,40,5,,5,4,23,20,5,5,1.1,0.9
2026-01-23T1000,3183A,106.7419,31.8654,巴中市,圣泉水务公司,细颗粒物(PM2.5),64,59,47,46,42,4,,2,2,30,29,5,5,0.7,0.6
2026-01-23T1000,3616A,106.7617,31.8343,巴中市,市中心医院,细颗粒物(PM2.5),68,62,53,49,41,3,,3,2,21,23,7,7,0.9,0.8
2026-01-23T1000,2235A,122.7909,45.608,白城市,洮北区环保局,,33,30,28,23,15,61,,61,58,10,9,5,4,0.2,0.1
2026-01-23T1000,2236A,122.8741,45.5725,白城市,市环保局,,41,41,33,7,13,54,,45,41,13,16,6,6,0.4,0.3
2026-01-23T1000,2231A,126.4219,41.9172,白山市,喜丰,细颗粒物(PM2.5),103,104,63,77,40,32,,22,22,38,34,19,21,1.5,1
2026-01-23T1000,2232A,126.4082,41.9416,白山市,环保局,细颗粒物(PM2.5),69,73,50,50,35,33,,16,16,26,29,16,13,1.3,1
2026-01-23T1000,2647A,104.1727,36.5448,白银市,第三小学,细颗粒物(PM2.5),84,90,85,62,59,28,,34,27,44,39,27,31,1.2,1
2026-01-23T1000,2648A,104.1467,36.5482,白银市,动力公司,,,77,74,64,54,,,43,37,,24,23,16,,1.1
2026-01-23T1000,2512A,106.6102,23.901,百色市,市监测站,,35,35,29,22,18,35,,28,28,20,18,23,16,0.8,0.7
2026-01-23T1000,2513A,106.6524,23.8842,百色市,市中心血站,"颗粒物(PM10),细颗粒物(PM2.5)",53,56,35,37,30,32,,37,35,16,12,31,15,0.9,0.7
2026-01-23T1000,4133A,106.6273,23.8798,百色市,龙景西路,,,46,31,29,19,27,,27,27,19,16,,14,,0.5
2026-01-23T1000,2270A,117.396,32.9389,蚌埠市,工人疗养院,细颗粒物(PM2.5),119,122,68,90,49,46,,51,46,32,25,11,8,0.7,0.4
2026-01-23T1000,2271A,117.3606,32.9428,蚌埠市,百货大楼,细颗粒物(PM2.5),85,98,67,63,46,42,,36,36,34,37,6,7,0.8,0.6
2026-01-23T1000,2273A,117.4183,32.8909,蚌埠市,蚌埠学院,细颗粒物(PM2.5),74,75,56,54,44,40,,56,49,27,25,8,5,0.6,0.5
2026-01-23T1000,2274A,117.3534,32.9672,蚌埠市,淮上区政府,细颗粒物(PM2.5),89,97,74,66,56,49,,38,38,30,46,3,3,0.7,0.6
2026-01-23T1000,2275A,117.3143,32.8977,蚌埠市,高新区,细颗粒物(PM2.5),95,97,60,71,50,36,,33,30,34,29,7,7,0.7,0.5
2026-01-23T1000,3715A,117.3091,32.9314,蚌埠市,蚌埠田家炳中学,细颗粒物(PM2.5),108,123,79,81,59,36,,41,38,41,37,9,10,0.8,0.7
2026-01-23T1000,1585A,109.8761,40.6533,包头市,市环境监测站,颗粒物(PM10),59,68,74,16,35,26,,34,32,37,45,10,20,1.1,1.6
2026-01-23T1000,1587A,109.9992,40.5843,包头市,包头八中,细颗粒物(PM2.5),82,92,84,60,48,13,,13,8,56,51,19,16,1.7,1.4
2026-01-23T1000,1589A,109.8641,40.6288,包头市,惠龙物流,颗粒物(PM10),62,74,67,34,39,13,,34,26,58,47,15,22,2.0,1.6
2026-01-23T1000,1590A,110.0376,40.5546,包头市,东河鸿龙湾,细颗粒物(PM2.5),70,78,70,51,41,14,,7,7,60,64,16,17,1.5,1.3
2026-01-23T1000,3283A,109.9154,40.5684,包头市,滨河大厦,细颗粒物(PM2.5),65,70,81,47,51,12,,5,5,48,62,11,22,1.2,1.6
2026-01-23T1000,3419A,109.9449,40.6259,包头市,包头市委党校,颗粒物(PM10),64,77,75,38,38,13,,6,6,55,56,13,16,1.2,1.5
2026-01-23T1000,3683A,109.8332,40.6577,包头市,昆区政府,颗粒物(PM10),55,60,78,38,44,26,,41,37,42,49,11,25,1.2,2
2026-01-23T1000,1931A,107.0802,34.3129,宝鸡市,竹园沟,细颗粒物(PM2.5),113,85,77,85,73,15,,15,14,23,24,5,5,0.6,0.5
2026-01-23T1000,1933A,107.1429,34.3549,宝鸡市,监测站,细颗粒物(PM2.5),114,94,87,86,80,12,,10,9,32,33,5,5,0.8,0.7
2026-01-23T1000,1934A,107.1172,34.3759,宝鸡市,技工学校,细颗粒物(PM2.5),112,96,84,84,76,14,,18,15,27,29,7,5,0.8,0.7
2026-01-23T1000,1936A,107.2025,34.3518,宝鸡市,文理学院,细颗粒物(PM2.5),112,84,83,84,77,14,,14,12,29,32,,5,1.0,0.8
2026-01-23T1000,1937A,107.2396,34.3626,宝鸡市,三迪小学,细颗粒物(PM2.5),125,,89,95,85,13,,14,12,32,38,4,5,0.9,0.7
2026-01-23T1000,4155A,107.1721,34.3558,宝鸡市,滨河北路,细颗粒物(PM2.5),102,95,98,76,72,15,,16,14,19,26,8,5,0.7,0.7
2026-01-23T1000,4308A,107.3898,34.3601,宝鸡市,陈仓区北开路21号,细颗粒物(PM2.5),162,130,104,123,93,29,,20,20,39,37,82,23,1.5,1
2026-01-23T1000,1051A,115.4803,38.8568,保定市,游泳馆,细颗粒物(PM2.5),63,65,79,45,63,22,,7,7,44,64,7,7,1.1,0.9
2026-01-23T1000,1052A,115.509,38.8895,保定市,华电二区,细颗粒物(PM2.5),58,63,77,41,54,13,,2,2,39,55,5,4,1.3,1.1
2026-01-23T1000,1053A,115.4588,38.9037,保定市,接待中心,颗粒物(PM10),56,61,77,35,58,19,,5,5,36,52,4,2,0.7,0.6
2026-01-23T1000,1054A,115.4484,38.8344,保定市,地表水厂,颗粒物(PM10),71,91,110,32,63,14,,4,4,52,68,6,6,1.0,0.9
2026-01-23T1000,3581A,115.3136,38.9511,保定市,满城区生态环境分局,细颗粒物(PM2.5),92,122,103,68,58,10,,3,3,54,56,4,4,1.5,1.2
2026-01-23T1000,3582A,115.4709,38.7628,保定市,清苑区第二中学,,,,126,52,71,18,,6,6,54,67,9,10,1.0,1
2026-01-23T1000,3583A,115.6231,39.0223,保定市,徐水物探局,颗粒物(PM10),65,79,100,42,58,19,,8,8,43,60,6,7,1.0,0.9
2026-01-23T1000,4004A,115.4199,38.8665,保定市,双鹰农机,细颗粒物(PM2.5),74,91,98,54,59,21,,12,12,42,50,8,8,1.0,0.8
2026-01-23T1000,4034A,115.515,38.8589,保定市,植保所站,,,,82,51,62,16,,24,24,,73,,3,,1.1
2026-01-23T1000,2594A,99.1589,25.1137,保山市,市环境监测站,,38,32,23,26,16,29,,56,46,25,9,6,5,0.7,0.3
2026-01-23T1000,2595A,99.1616,25.1381,保山市,市环保局,,36,36,26,19,23,29,,63,54,25,7,4,4,0.7,0.5
2026-01-23T1000,1867A,109.1435,21.4085,北海市,海滩公园,,39,36,29,27,22,22,,23,22,14,13,6,6,1.0,0.8
2026-01-23T1000,1868A,109.0983,21.466,北海市,新市环保局,,39,,22,27,26,21,,22,20,16,14,4,5,1.2,1.1
2026-01-23T1000,1869A,109.1775,21.5232,北海市,北海工业园,,39,35,28,27,25,14,,19,17,18,15,6,6,0.8,0.7
2026-01-23T1000,3400A,109.1844,21.4396,北海市,龙潭自来水厂,,48,34,29,33,27,20,,22,21,17,15,6,7,0.9,0.8
2026-01-23T1000,1001A,116.3611,39.8786,北京市,万寿西宫,,47,47,52,22,30,36,,7,7,28,53,2,3,0.5,0.6
2026-01-23T1000,1003A,116.4174,39.9289,北京市,东四,,39,39,48,21,25,27,,11,11,33,44,5,5,0.5,0.6
2026-01-23T1000,1004A,116.4073,39.8858,北京市,天坛,,39,39,47,21,28,32,,8,8,30,44,3,2,1.0,0.9
2026-01-23T1000,1005A,116.4622,39.9364,北京市,农展馆,,39,39,48,20,24,27,,7,7,28,40,4,4,0.6,0.7
2026-01-23T1000,1006A,116.3399,39.9293,北京市,官园,,46,46,49,22,28,25,,5,5,37,47,6,6,0.7,0.6
2026-01-23T1000,1007A,116.2879,39.9613,北京市,海淀万柳,,50,50,47,25,25,16,,4,4,52,53,4,3,0.7,0.6
2026-01-23T1000,1008A,116.6635,40.1349,北京市,顺义新城,,29,29,34,13,17,48,,21,21,11,29,3,4,0.3,0.4
2026-01-23T1000,1009A,116.6275,40.327,北京市,怀柔镇,,33,33,26,18,17,27,,20,20,26,18,4,4,0.6,0.5
2026-01-23T1000,1010A,116.2295,40.217,北京市,昌平镇,,33,33,50,18,27,47,,22,22,20,39,3,3,0.5,0.7
2026-01-23T1000,1011A,116.3968,39.982,北京市,奥体中心,,44,44,48,22,24,21,,4,4,50,62,4,5,0.7,0.8
2026-01-23T1000,3418A,116.8336,40.4095,北京市,密云新城,,28,28,31,11,13,45,,39,39,9,17,2,1,0.5,0.5
2026-01-23T1000,3671A,116.0879,39.9725,北京市,门头沟三家店,,27,27,45,12,23,58,,18,18,8,36,4,3,0.3,0.6
2026-01-23T1000,3672A,116.1507,39.8246,北京市,丰台云岗,颗粒物(PM10),53,55,47,26,24,21,,7,7,47,46,3,3,0.7,0.6
2026-01-23T1000,3674A,115.9578,39.7602,北京市,房山燕山,,49,49,49,28,24,26,,23,23,43,32,7,6,0.5,0.4
2026-01-23T1000,3675A,116.4669,39.7734,北京市,大兴旧宫,,45,45,63,18,31,23,,3,3,38,49,4,3,0.6,0.7
2026-01-23T1000,3694A,115.9859,40.4562,北京市,延庆石河营,细颗粒物(PM2.5),60,65,53,43,32,11,,3,3,39,35,4,5,1.2,1
2026-01-23T1000,3695A,116.6151,40.3052,北京市,怀柔新城,,33,33,31,23,19,31,,22,22,20,16,4,4,0.5,0.4
2026-01-23T1000,3696A,116.2542,39.8764,北京市,丰台小屯,颗粒物(PM10),53,55,55,27,28,15,,2,2,50,53,5,4,0.8,0.8
2026-01-23T1000,3697A,116.8399,40.3843,北京市,密云镇,,25,25,30,10,13,48,,14,14,8,28,1,1,0.3,0.3
2026-01-23T1000,4057A,115.9423,40.4431,北京市,延庆百泉,,,64,49,38,28,9,,1,1,26,36,,3,1.0,0.8
2026-01-23T1000,4058A,116.6598,39.9164,北京市,通州新华,,42,42,56,19,29,19,,5,5,41,51,3,3,0.6,0.7
2026-01-23T1000,4182A,116.1942,39.9158,北京市,石景山八角,颗粒物(PM10),52,53,47,22,24,23,,7,7,44,48,3,3,0.6,0.6
2026-01-23T1000,4194A,117.078628,40.151726,北京市,平谷新城,细颗粒物(PM2.5),54,51,30,38,21,20,,14,14,32,24,3,3,0.8,0.6
2026-01-23T1000,1761A,123.8274146,41.31234549,本溪市,大峪,细颗粒物(PM2.5),123,150,73,93,38,21,,12,12,45,41,11,8,2.2,1.3
2026-01-23T1000,1763A,123.7169,41.3094,本溪市,彩屯,细颗粒物(PM2.5),193,174,100,145,64,15,,7,6,55,44,14,8,3.5,1.8
2026-01-23T1000,1764A,123.7672166,41.28649327,本溪市,东明,细颗粒物(PM2.5),204,157,78,154,61,21,,12,12,54,49,7,8,3.1,1.5
2026-01-23T1000,1765A,123.799345,41.266614,本溪市,新立屯,细颗粒物(PM2.5),163,141,49,124,33,18,,9,9,56,43,9,10,3.9,1.3
2026-01-23T1000,1766A,123.829144,41.336777,本溪市,威宁,颗粒物(PM10),97,143,83,65,47,22,,8,8,34,49,8,6,1.7,1.4
2026-01-23T1000,2587A,105.287,27.3133,毕节市,八中,细颗粒物(PM2.5),53,43,48,37,41,10,,28,23,20,19,9,10,1.0,0.9
2026-01-23T1000,2588A,105.3079,27.2987,毕节市,师专,,48,42,47,33,37,11,,32,25,22,19,8,9,1.0,0.9
2026-01-23T1000,4263A,105.3688,27.3598,毕节市,工业大道,,43,36,43,30,33,16,,22,20,12,14,11,11,/,/
2026-01-23T1000,1629A,117.9961,37.3604,滨州市,第二水厂,细颗粒物(PM2.5),99,92,72,74,48,36,,8,8,57,48,20,16,1.1,0.8
2026-01-23T1000,1630A,117.9789,37.3931,滨州市,北中新校,细颗粒物(PM2.5),85,83,68,63,47,41,,27,27,42,40,11,10,0.8,0.7
2026-01-23T1000,3514A,117.9379,37.3959,滨州市,中海酒店,细颗粒物(PM2.5),104,95,72,78,54,42,,28,28,49,46,26,18,0.9,0.9
2026-01-23T1000,3515A,117.9381509,37.35547456,滨州市,开发区一中,细颗粒物(PM2.5),110,112,77,83,53,25,,11,11,54,48,21,19,1.0,0.7
2026-01-23T1000,3516A,118.0914,37.6938,滨州市,金海六路,细颗粒物(PM2.5),92,90,77,68,49,48,,26,26,39,56,8,9,0.7,0.7
2026-01-23T1000,4028A,117.9955,37.3752,滨州市,滨州市西街道办事处,细颗粒物(PM2.5),104,105,75,78,54,39,,15,15,45,41,22,14,1.2,0.9
2026-01-23T1000,2311A,115.8071,33.8399,亳州市,污水处理厂,细颗粒物(PM2.5),77,79,62,56,48,56,,49,47,21,23,5,5,0.3,0.2
2026-01-23T1000,2312A,115.7789,33.8519,亳州市,三国揽胜宫,,,92,66,55,49,,,53,45,20,23,4,4,,0.4
2026-01-23T1000,3332A,115.7631,33.803,亳州市,亳州学院,细颗粒物(PM2.5),85,81,65,63,51,52,,56,52,19,18,5,4,0.4,0.3
2026-01-23T1000,2693A,82.0482,44.8553,博尔塔拉蒙古自治州,市党校,细颗粒物(PM2.5),70,87,98,51,52,46,,41,41,25,31,7,8,1.1,1.1
2026-01-23T1000,2694A,82.0805,44.8966,博尔塔拉蒙古自治州,市环保局,颗粒物(PM10),88,125,105,61,46,30,,56,48,38,27,14,9,0.6,0.8
2026-01-23T1000,1071A,116.8733,38.2922,沧州市,沧县城建局,细颗粒物(PM2.5),104,108,116,78,89,51,,30,30,38,54,6,8,0.8,1.1
2026-01-23T1000,1072A,116.8462,38.3189,沧州市,电视转播站,细颗粒物(PM2.5),118,108,113,89,103,48,,37,37,36,44,6,6,0.8,0.9
2026-01-23T1000,1073A,116.8588,38.3161,沧州市,市环保局,细颗粒物(PM2.5),118,120,118,89,96,47,,35,35,28,40,7,9,0.8,1
2026-01-23T1000,3324A,116.8011,38.294,沧州市,河北水利电力学院,细颗粒物(PM2.5),109,117,125,82,87,,,17,17,41,56,6,7,0.7,0.9
2026-01-23T1000,2622A,97.1813,31.1289,昌都市,昌都监测站,,32,32,31,12,13,40,,46,46,12,17,2,3,0.5,0.6
2026-01-23T1000,3719A,97.1707,31.1428,昌都市,昌都会议中心,,16,15,13,11,16,35,,45,42,4,4,4,3,0.4,0.3
2026-01-23T1000,2692A,87.2722,44.0298,昌吉回族自治州,新区政务中心,细颗粒物(PM2.5),176,163,180,133,141,3,,8,7,62,45,8,8,1.7,1.4
2026-01-23T1000,3613A,87.3069,44.0093,昌吉回族自治州,亚心广场,细颗粒物(PM2.5),153,158,186,117,148,5,,14,13,71,43,9,8,1.6,1.4
2026-01-23T1000,4164A,87.2057,43.9289,昌吉回族自治州,财政所,细颗粒物(PM2.5),68,77,148,49,109,51,,54,54,18,30,4,5,0.9,1
2026-01-23T1000,1120A,125.2874,43.9024,长春市,客车厂,,,28,38,,31,41,,35,35,28,31,15,11,0.5,0.5
2026-01-23T1000,1121A,125.2943,43.8508,长春市,邮电学院,,39,,35,27,25,47,,37,37,23,28,15,12,0.4,0.4
2026-01-23T1000,1122A,125.3648,43.8745,长春市,劳动公园,,,31,42,25,26,52,,42,42,,29,6,6,0.5,0.5
2026-01-23T1000,1123A,125.3233,43.8781,长春市,园林处,,41,41,38,28,27,46,,42,42,22,26,11,12,0.6,0.6
2026-01-23T1000,1124A,125.4604,43.7904,长春市,净月潭,,40,35,37,28,24,46,,44,41,21,16,9,7,0.5,0.5
2026-01-23T1000,1126A,125.38,43.8422,长春市,经开区环卫处,,28,26,38,19,23,47,,39,39,27,30,8,6,0.4,0.5
2026-01-23T1000,1127A,125.234,43.7761,长春市,高新区管委会,,40,36,44,28,32,61,,39,39,15,35,10,8,0.4,0.5
2026-01-23T1000,1128A,125.1695,43.83,长春市,岱山公园,细颗粒物(PM2.5),59,42,42,42,32,57,,46,46,13,29,7,7,0.5,0.5
2026-01-23T1000,4281A,125.334645,43.916281,长春市,北亚泰大街1068号,,28,28,40,17,27,42,,36,36,26,31,23,10,0.5,0.5
2026-01-23T1000,1335A,113.082,28.2421,长沙市,经开区环保局,细颗粒物(PM2.5),90,,75,67,68,26,,10,10,16,28,3,3,0.6,0.5
2026-01-23T1000,1336A,112.8873,28.2202,长沙市,高开区环保局,细颗粒物(PM2.5),102,,72,76,66,23,,9,9,21,29,10,6,0.7,0.7
2026-01-23T1000,1337A,113.0785,28.2012,长沙市,马坡岭,细颗粒物(PM2.5),89,82,75,66,63,20,,9,9,16,28,4,4,0.8,0.8
2026-01-23T1000,1338A,112.9448,28.1894,长沙市,湖南师范大学,细颗粒物(PM2.5),88,85,68,65,49,32,,12,12,18,25,10,5,0.7,0.6
2026-01-23T1000,1339A,113.0177,28.1322,长沙市,雨花区环保局,细颗粒物(PM2.5),90,85,78,67,60,18,,7,7,25,32,12,8,0.9,0.8
2026-01-23T1000,1340A,112.9795,28.2593,长沙市,伍家岭,细颗粒物(PM2.5),73,83,75,53,50,22,,7,7,24,29,8,5,1.0,0.8
2026-01-23T1000,1341A,113.002,28.1944,长沙市,火车新站,细颗粒物(PM2.5),98,85,76,73,62,18,,12,12,31,34,4,2,0.9,0.8
2026-01-23T1000,1342A,112.9846,28.1177,长沙市,天心区环保局,细颗粒物(PM2.5),94,78,70,70,58,34,,20,20,20,30,11,6,0.6,0.6
2026-01-23T1000,1343A,112.8906,28.1307,长沙市,湖南中医药大学,细颗粒物(PM2.5),98,78,66,73,53,22,,5,5,25,33,9,6,0.8,0.7
2026-01-23T1000,1727A,113.1146,36.1547,长治市,清华站,细颗粒物(PM2.5),62,72,57,44,39,46,,21,21,30,30,20,14,1.5,1
2026-01-23T1000,1730A,113.0887,36.2126,长治市,审计局,细颗粒物(PM2.5),73,65,63,53,50,49,,14,14,27,35,15,15,1.4,1.3
2026-01-23T1000,1731A,113.0845,36.1856,长治市,长治八中,颗粒物(PM10),72,93,79,43,57,49,,10,10,21,28,17,15,1.2,1.2
2026-01-23T1000,2845A,113.1561,36.1912,长治市,德盛苑,细颗粒物(PM2.5),52,38,41,36,38,68,,66,64,13,16,14,13,1.0,0.9
2026-01-23T1000,3568A,113.0603,36.0464,长治市,向阳小学,颗粒物(PM10),58,66,70,27,39,55,,48,46,32,29,21,16,1.5,1
2026-01-23T1000,3569A,112.8788,36.315,长治市,屯留一中,细颗粒物(PM2.5),97,106,71,72,51,11,,13,13,48,36,41,23,2.4,1.9
2026-01-23T1000,4189A,113.113092,36.199482,长治市,英华南巷50号,颗粒物(PM10),60,69,59,41,39,52,,25,22,26,27,15,14,1.3,1.1
2026-01-23T1000,4190A,113.23666,36.33435,长治市,学府街1号,细颗粒物(PM2.5),70,87,72,51,53,34,,9,9,44,46,26,14,1.7,1.5
2026-01-23T1000,1854A,111.696,28.9725,常德市,市二中,细颗粒物(PM2.5),85,,64,63,56,28,,33,28,25,19,5,6,0.9,0.7
2026-01-23T1000,3138A,111.7152,29.0288,常德市,武陵区永安,细颗粒物(PM2.5),89,89,72,66,57,29,,29,23,26,22,6,7,1.0,0.8
2026-01-23T1000,3139A,111.6891,28.9881,常德市,鼎城区玉霞,细颗粒物(PM2.5),84,83,69,62,57,33,,20,18,24,29,7,9,0.7,0.6
2026-01-23T1000,3140A,111.6651,29.0526,常德市,武陵区长庚,细颗粒物(PM2.5),82,76,89,60,55,34,,29,27,27,22,4,5,0.7,0.5
2026-01-23T1000,1196A,119.9524,31.7586,常州市,市监测站,细颗粒物(PM2.5),85,100,85,63,50,25,,4,4,58,60,6,5,1.2,1.2
2026-01-23T1000,1200A,119.9351,31.703,常州市,武进监测站,细颗粒物(PM2.5),98,103,64,73,47,24,,7,7,57,53,13,10,1.2,1.1
2026-01-23T1000,3002A,119.9701,31.813,常州市,行政中心,细颗粒物(PM2.5),92,99,75,68,49,22,,7,7,62,63,8,7,1.0,0.8
2026-01-23T1000,3003A,120.0434,31.7726,常州市,经开区,细颗粒物(PM2.5),84,116,99,62,50,24,,4,4,53,57,6,6,0.9,0.8
2026-01-23T1000,3010A,119.8919,31.7892,常州市,钟楼,细颗粒物(PM2.5),92,99,68,68,44,26,,10,10,56,56,10,9,0.9,0.8
2026-01-23T1000,3429A,119.8595,31.706,常州市,武进经发区,细颗粒物(PM2.5),104,114,77,78,60,24,,5,5,53,62,10,8,0.8,0.8
2026-01-23T1000,3430A,119.5812,31.7256,常州市,金坛城区,细颗粒物(PM2.5),80,86,67,59,47,32,,12,11,39,39,10,8,1.0,0.8
2026-01-23T1000,4089A,119.9551,31.863,常州市,崇义南街5-H号,细颗粒物(PM2.5),90,92,73,67,50,28,,8,8,54,57,6,7,0.9,0.8
2026-01-23T1000,2220A,120.4318,41.588,朝阳市,西梁,细颗粒物(PM2.5),103,98,95,77,54,16,,6,6,40,45,14,13,1.7,1.3
2026-01-23T1000,2221A,120.452,41.565,朝阳市,河畔小区,细颗粒物(PM2.5),80,91,54,59,37,24,,8,8,27,36,12,10,1.6,1.2
2026-01-23T1000,2222A,120.4176,41.5648,朝阳市,八里堡,细颗粒物(PM2.5),92,85,70,68,52,16,,6,6,35,41,17,13,1.9,1.3
2026-01-23T1000,3026A,116.6179,23.6608,潮州市,市政府,,32,32,25,22,21,11,,8,8,11,10,2,2,0.5,0.4
2026-01-23T1000,4036A,116.646,23.676,潮州市,金山,,32,32,27,22,24,8,,4,4,11,14,2,2,0.6,0.6
2026-01-23T1000,2473A,113.0116,25.8228,郴州市,市职中,细颗粒物(PM2.5),63,46,47,45,38,13,,12,11,17,14,3,3,0.4,0.4
2026-01-23T1000,2475A,113.0381,25.8074,郴州市,市审计局,细颗粒物(PM2.5),58,46,43,41,39,16,,12,12,17,18,2,1,/,/
2026-01-23T1000,2476A,113.0348,25.7757,郴州市,市环保局,细颗粒物(PM2.5),64,56,51,46,42,12,,11,10,18,16,2,2,0.6,0.5
2026-01-23T1000,4252A,113.0138,25.8011,郴州市,好美居路49号,细颗粒物(PM2.5),69,53,46,50,45,20,,20,19,20,16,3,2,/,/
2026-01-23T1000,1431A,103.9727,30.7242,成都市,金泉两河,颗粒物(PM10),55,60,75,34,51,7,,18,15,51,43,1,2,0.7,0.7
2026-01-23T1000,1432A,104.1423,30.6765,成都市,十里店,,43,42,54,30,39,7,,33,23,48,31,3,3,0.6,0.5
2026-01-23T1000,1433A,104.0594,30.5765,成都市,三瓦窑,,40,31,56,28,47,23,,35,30,38,34,3,3,0.7,0.6
2026-01-23T1000,1434A,104.1122,30.6306,成都市,沙河铺,细颗粒物(PM2.5),53,51,56,37,43,4,,27,22,57,35,3,3,0.8,0.7
2026-01-23T1000,2880A,104.0219,30.6561,成都市,大石西路,,,58,70,40,46,11,,26,25,36,23,4,6,,0.6
2026-01-23T1000,3136A,104.2724,30.559,成都市,龙泉驿区区政府,,39,39,35,24,29,25,,42,36,24,18,6,6,1.0,0.8
2026-01-23T1000,3357A,104.0028,30.6891,成都市,金博路,,49,47,62,34,47,9,,23,20,44,36,4,4,0.8,0.7
2026-01-23T1000,3359A,104.056,30.5228,成都市,华阳,,32,29,47,22,35,26,,43,40,33,23,2,2,0.7,0.5
2026-01-23T1000,3488A,104.387954,30.746684,成都市,青石路225号,,47,47,47,29,34,13,,37,28,38,22,5,4,0.9,0.7
2026-01-23T1000,3489A,104.0788,30.4054,成都市,科学城,,42,34,45,29,40,29,,38,35,21,16,6,6,0.6,0.7
2026-01-23T1000,4011A,103.8505,30.6946,成都市,光华大道三段,细颗粒物(PM2.5),78,87,91,57,66,6,,17,15,44,38,3,3,0.8,0.7
2026-01-23T1000,4144A,104.3257,30.6406,成都市,八角井街185号,颗粒物(PM10),57,63,52,38,35,7,,44,33,48,19,2,2,1.0,0.7
2026-01-23T1000,4224A,104.2433276,30.53529463,成都市,鲸龙路1057号,,29,29,41,20,30,14,,44,34,37,19,5,5,0.9,0.8
2026-01-23T1000,1062A,117.9531,40.908,承德市,铁路,颗粒物(PM10),66,81,55,37,30,15,,8,8,29,32,11,14,1.8,1
2026-01-23T1000,1063A,117.9397,40.9763,承德市,中国银行,颗粒物(PM10),53,55,52,28,25,20,,7,7,28,34,4,4,0.9,0.7
2026-01-23T1000,4073A,117.9462,40.95,承德市,杏林街1号,,,,45,101,30,,,3,3,35,30,6,7,1.3,0.8
2026-01-23T1000,4274A,117.7994,40.9605,承德市,滨河大街98号,颗粒物(PM10),63,75,51,13,25,15,,7,7,37,31,8,18,1.9,0.8
2026-01-23T1000,2314A,117.4698,30.6617,池州市,池州学院,细颗粒物(PM2.5),99,89,63,74,51,34,,21,21,33,35,5,6,0.9,0.8
2026-01-23T1000,3237A,117.4918,30.6617,池州市,展览馆,细颗粒物(PM2.5),85,82,62,63,43,31,,19,19,40,39,4,4,1.2,1.1
2026-01-23T1000,3333A,117.5626,30.695,池州市,第八中学,细颗粒物(PM2.5),82,78,64,60,47,32,,14,14,34,37,4,5,1.2,0.8
2026-01-23T1000,3334A,117.5037,30.6242,池州市,第十二中学,细颗粒物(PM2.5),78,87,69,57,47,20,,10,10,41,42,4,4,1.9,1.3
2026-01-23T1000,1744A,118.9229,42.2816,赤峰市,松山一中,细颗粒物(PM2.5),68,70,48,49,26,29,,6,6,36,45,9,10,1.1,1.3
2026-01-23T1000,1745A,118.9588,42.2733,赤峰市,哈达街,,42,42,49,14,25,27,,9,9,35,35,10,21,1.0,1
2026-01-23T1000,1746A,118.8792,42.2551,赤峰市,天义路,,50,,30,35,27,37,,9,9,31,35,6,6,1.0,1.1
2026-01-23T1000,3058A,119.2656,42.0356,赤峰市,银河街,细颗粒物(PM2.5),165,163,88,125,57,17,,8,8,39,32,43,24,3.0,1.7
2026-01-23T1000,3286A,118.9359,42.3146,赤峰市,桥北物流园区,,43,43,39,28,24,40,,22,22,29,37,9,8,0.6,0.8
2026-01-23T1000,2521A,107.3473,22.4137,崇左市,市环保局江州分局,,36,33,31,25,21,21,,20,19,15,13,6,5,0.8,0.8
2026-01-23T1000,4256A,107.375,22.3736,崇左市,石景林东路7号,,35,35,26,21,17,27,,24,24,14,13,1,2,0.6,0.6
2026-01-23T1000,3207A,118.31131,32.3033,滁州市,市政府原办公楼,细颗粒物(PM2.5),72,75,61,52,39,32,,10,10,47,42,8,6,0.8,0.7
2026-01-23T1000,3331A,118.3268,32.2633,滁州市,图书馆,细颗粒物(PM2.5),67,62,52,48,35,24,,8,8,44,41,10,9,0.9,0.8
2026-01-23T1000,4101A,118.3196,32.3335,滁州市,银山路666号,细颗粒物(PM2.5),84,68,60,62,52,23,,4,4,36,31,6,4,0.8,0.5
2026-01-23T1000,4102A,118.3426,32.2979,滁州市,黄山路555号,细颗粒物(PM2.5),87,89,68,64,52,19,,7,7,48,41,18,16,1.0,1
2026-01-23T1000,2606A,101.5379,25.0492,楚雄彝族自治州,市经济开发区,,42,38,29,29,20,22,,13,13,29,23,7,3,0.5,0.4
2026-01-23T1000,4153A,101.5536,25.0343,楚雄彝族自治州,团结路562号,,45,45,27,20,16,19,,21,14,30,17,16,5,0.8,0.5
2026-01-23T1000,2549A,107.5087,31.2186,达州市,市环境监测站,细颗粒物(PM2.5),104,101,87,78,58,5,,5,5,24,29,8,7,1.0,0.7
2026-01-23T1000,2550A,107.4988,31.2132,达州市,凤凰小区,细颗粒物(PM2.5),92,107,89,68,61,9,,5,4,28,31,6,6,1.0,0.8
2026-01-23T1000,2551A,107.5081,31.1987,达州市,达县机关宾馆,细颗粒物(PM2.5),100,112,89,75,61,3,,3,3,35,34,5,4,1.1,0.9
2026-01-23T1000,2552A,107.4644,31.2124,达州市,市政中心,细颗粒物(PM2.5),89,114,93,66,59,7,,7,6,33,33,7,9,0.9,0.6
2026-01-23T1000,2614A,100.2168,25.5818,大理白族自治州,大理市环境监测站,,,,19,27,19,,,70,68,9,7,6,6,0.7,0.6
2026-01-23T1000,2615A,100.1542,25.7055,大理白族自治州,大理古城,,22,22,20,14,14,63,,69,66,10,8,8,8,0.8,0.7
2026-01-23T1000,1109A,121.6119,38.974,大连市,甘井子,细颗粒物(PM2.5),138,129,48,105,35,27,,25,25,62,38,11,8,1.3,0.6
2026-01-23T1000,1110A,121.565,38.9509,大连市,周水子,细颗粒物(PM2.5),107,101,57,80,40,,,12,12,54,49,16,13,,0.9
2026-01-23T1000,1111A,121.5637,38.8849,大连市,星海三站,细颗粒物(PM2.5),103,80,38,77,34,46,,29,29,26,27,10,8,0.9,0.8
2026-01-23T1000,1112A,121.6301,38.9117,大连市,青泥洼桥,细颗粒物(PM2.5),114,109,51,86,36,25,,24,24,44,37,14,10,1.4,0.9
2026-01-23T1000,1113A,121.6248,38.8643,大连市,傅家庄,细颗粒物(PM2.5),100,88,43,75,34,49,,44,42,25,26,15,13,1.0,0.7
2026-01-23T1000,1114A,121.5117,38.8636,大连市,七贤岭,细颗粒物(PM2.5),105,83,33,79,29,58,,52,52,18,11,9,7,0.7,0.6
2026-01-23T1000,1116A,121.7507,39.1339,大连市,金州,细颗粒物(PM2.5),122,109,48,92,38,43,,54,49,40,24,17,10,0.9,0.5
2026-01-23T1000,1117A,121.7811,39.0495,大连市,开发区,细颗粒物(PM2.5),135,118,50,103,38,12,,14,10,67,42,9,5,1.6,0.8
2026-01-23T1000,1118A,121.9762,39.0631,大连市,双D港,,,68,37,48,24,,,,,27,16,9,8,1.0,0.4
2026-01-23T1000,4082A,121.2548,38.8188,大连市,旅顺,细颗粒物(PM2.5),124,121,52,94,40,38,,32,31,34,25,15,9,1.1,0.9
2026-01-23T1000,1789A,124.8085,46.0381,大庆市,大同区,,39,39,48,21,27,63,,50,50,7,21,8,9,0.7,0.9
2026-01-23T1000,1790A,125.1166,46.5255,大庆市,龙凤区,,34,34,39,15,27,53,,44,44,17,29,8,10,0.3,0.5
2026-01-23T1000,1791A,124.8894,46.4007,大庆市,红岗区,,21,21,34,8,22,48,,41,41,11,21,6,5,0.2,0.4
2026-01-23T1000,1792A,125.1391,46.578,大庆市,萨尔图区,,27,27,36,6,17,46,,46,46,26,28,13,10,0.6,0.6
2026-01-23T1000,1793A,124.9026,46.6217,大庆市,让胡路区,,33,29,29,23,28,67,,66,65,9,16,10,9,0.7,0.7
2026-01-23T1000,3481A,125.127,46.6277,大庆市,萨区政府监测点,,21,21,33,12,15,55,,49,49,16,23,10,11,0.5,0.7
2026-01-23T1000,1723A,113.2926,40.0759,大同市,云冈宾馆,细颗粒物(PM2.5),90,114,80,67,43,15,,10,9,42,45,19,17,2.8,1.6
2026-01-23T1000,1724A,113.3437,40.0921,大同市,大同大学,,,,78,,39,,,23,21,,43,,22,,1.2
2026-01-23T1000,1725A,113.2637,40.129,大同市,安家小村,颗粒物(PM10),89,127,98,59,44,12,,6,6,39,48,27,22,4.5,1.9
2026-01-23T1000,3282A,113.3399,40.0586,大同市,大同市卫生学校,颗粒物(PM10),72,93,76,41,38,22,,24,21,42,46,22,17,2.1,1.3
2026-01-23T1000,3565A,113.1371,40.1122,大同市,云冈站,细颗粒物(PM2.5),92,112,70,68,35,10,,2,2,44,40,20,20,1.3,0.8
2026-01-23T1000,3566A,113.1186,40.2556,大同市,图书馆,细颗粒物(PM2.5),90,94,64,67,38,21,,16,14,25,24,14,10,1.6,0.9
2026-01-23T1000,3567A,113.5931,40.0459,大同市,区一中,颗粒物(PM10),109,168,97,76,55,27,,16,16,28,35,24,28,1.8,1.6
2026-01-23T1000,4199A,113.2798248,40.09972476,大同市,魏都大道141号,颗粒物(PM10),91,131,107,64,47,15,,8,8,46,56,20,17,2.5,1.7
2026-01-23T1000,2269A,124.1068,50.4091,大兴安岭地区,科技局,,22,22,18,7,7,60,,62,59,4,3,6,6,0.1,0.1
2026-01-23T1000,3663A,124.117,50.4279,大兴安岭地区,红旗社区,,21,,4,11,7,67,,65,64,4,3,5,4,0.3,0.3
2026-01-23T1000,1600A,124.33,40.0625,丹东市,江湾东路,细颗粒物(PM2.5),70,68,67,51,40,23,,20,19,40,32,25,16,1.6,1.5
2026-01-23T1000,1601A,124.4242,40.1513,丹东市,临江后街,细颗粒物(PM2.5),79,66,55,58,43,20,,16,13,34,28,28,15,1.3,1.1
2026-01-23T1000,1602A,124.3935,40.1461,丹东市,元宝山,细颗粒物(PM2.5),80,76,56,59,39,16,,6,5,36,30,20,18,1.2,0.9
2026-01-23T1000,1603A,124.3634,40.1093,丹东市,民主桥,,46,45,63,32,38,36,,11,11,27,37,14,15,0.9,1.1
2026-01-23T1000,3541A,109.5726195,19.51688767,儋州市,第一中学子站,颗粒物(PM10),54,57,61,25,29,19,,39,30,13,11,4,4,0.8,0.8
2026-01-23T1000,3542A,109.5567,19.5187,儋州市,东坡学校子站,颗粒物(PM10),54,57,57,29,34,19,,44,33,12,10,4,4,0.9,0.8
2026-01-23T1000,2616A,98.5611,24.4273,德宏傣族景颇族自治州,德宏州监测站,细颗粒物(PM2.5),78,72,56,57,45,13,,10,6,26,26,7,7,0.9,0.7
2026-01-23T1000,3677A,98.5887,24.4366,德宏傣族景颇族自治州,芒市人民政府综合楼,颗粒物(PM10),58,65,50,40,30,10,,24,17,28,15,5,4,1.3,0.8
2026-01-23T1000,1901A,104.424,31.1209,德阳市,东山公园,细颗粒物(PM2.5),52,41,44,36,38,13,,24,20,17,11,1,1,0.7,0.7
2026-01-23T1000,1902A,104.3827,31.1318,德阳市,西小区,细颗粒物(PM2.5),58,51,58,41,43,3,,25,18,42,23,2,2,1.0,0.7
2026-01-23T1000,1904A,104.3553,31.1091,德阳市,耐火材料厂,细颗粒物(PM2.5),69,79,55,50,44,2,,17,10,41,27,2,1,0.8,0.6
2026-01-23T1000,4145A,104.4144,31.1495,德阳市,市林业局,细颗粒物(PM2.5),58,51,48,41,44,6,,15,14,36,25,2,2,0.8,0.7
2026-01-23T1000,1622A,116.3034,37.4675,德州市,儿童乐园,细颗粒物(PM2.5),113,112,106,85,73,62,,60,60,33,33,14,13,1.0,1
2026-01-23T1000,1624A,116.2992,37.4449,德州市,监理站,细颗粒物(PM2.5),119,112,100,90,74,64,,65,63,40,37,,12,0.9,0.8
2026-01-23T1000,3066A,116.2722,37.438,德州市,九衢泉纯净水厂,,,,109,,76,,,,,,46,,10,,1
2026-01-23T1000,3371A,116.3693,37.44,德州市,开发区人民医院,细颗粒物(PM2.5),110,114,101,83,70,66,,59,58,38,36,15,15,0.8,0.8
2026-01-23T1000,3511A,116.5687,37.3331,德州市,陵城艺术中心,细颗粒物(PM2.5),122,122,86,92,56,41,,48,45,43,33,21,21,0.8,0.7
2026-01-23T1000,4292A,116.352738,37.420875,德州市,新河东路,细颗粒物(PM2.5),119,102,101,90,75,47,,39,37,38,38,14,13,0.8,0.9
2026-01-23T1000,2621A,99.7054,27.8319,迪庆藏族自治州,迪庆州站,颗粒物(PM10),51,52,30,34,22,41,,41,39,18,10,6,5,1.3,0.4
2026-01-23T1000,3180A,99.7122,27.8129,迪庆藏族自治州,质量技术监督局,,49,49,29,29,20,31,,46,40,29,11,4,5,0.9,0.5
2026-01-23T1000,4257A,104.6092,35.5962,定西市,将台街,细颗粒物(PM2.5),115,92,86,87,59,14,,12,11,29,30,22,15,1.4,0.9
2026-01-23T1000,4309A,104.6159,35.5701,定西市,正龙路62号,细颗粒物(PM2.5),87,89,84,64,51,20,,26,23,12,11,9,8,1.0,0.8
2026-01-23T1000,1390A,113.7943,23.0132,东莞市,东城石井,,34,34,31,18,17,18,,18,17,21,18,8,6,0.6,0.6
2026-01-23T1000,1391A,113.7384,22.9659,东莞市,南城西平,,28,28,27,17,15,17,,10,10,25,24,7,6,0.6,0.6
2026-01-23T1000,3319A,113.7283,23.041,东莞市,万江金泰,,29,29,27,18,16,24,,23,22,21,18,6,5,0.7,0.6
2026-01-23T1000,4129A,113.8666,23.1062,东莞市,裕兴路,,33,33,29,16,15,21,,20,20,20,18,9,5,0.7,0.7
2026-01-23T1000,4130A,114.0076,22.9739,东莞市,教育路1号,,34,34,37,19,20,13,,15,15,26,23,4,4,0.7,0.7
2026-01-23T1000,4131A,113.7981,22.8124,东莞市,长怡路1号,,36,36,39,18,18,12,,14,13,30,29,6,6,0.6,0.6
2026-01-23T1000,1666A,118.6612,37.4313,东营市,市环保局,细颗粒物(PM2.5),83,92,84,61,52,26,,8,8,62,53,18,22,1.2,1
2026-01-23T1000,3036A,118.6903,37.4337,东营市,开发区管委会,细颗粒物(PM2.5),85,89,83,63,55,31,,6,6,62,53,7,6,1.0,0.9
2026-01-23T1000,3365A,118.5721,37.5654,东营市,垦利区民丰路,细颗粒物(PM2.5),77,83,82,56,52,48,,11,11,56,60,12,14,0.7,0.8
2026-01-23T1000,3498A,118.5063,37.8606,东营市,河口城区,细颗粒物(PM2.5),95,95,83,71,53,50,,22,22,39,51,11,11,1.0,0.9
2026-01-23T1000,3646A,118.4979,37.4623,东营市,胜利站,细颗粒物(PM2.5),110,104,84,83,57,25,,6,6,76,75,21,22,0.9,0.9
2026-01-23T1000,3734A,118.5753,37.4405,东营市,理想之城,细颗粒物(PM2.5),94,105,89,70,58,21,,3,3,61,56,16,14,1.2,1
2026-01-23T1000,1591A,110.0024,39.8127,鄂尔多斯市,综合楼,颗粒物(PM10),67,83,68,34,29,32,,55,50,47,37,13,14,1.1,0.7
2026-01-23T1000,1592A,109.9485,39.8259,鄂尔多斯市,巴音孟克林场办事处,颗粒物(PM10),53,56,57,22,27,46,,45,44,32,35,11,12,0.7,0.7
2026-01-23T1000,1593A,109.7734,39.5987,鄂尔多斯市,康泽苑,颗粒物(PM10),53,56,53,28,27,38,,29,29,25,27,9,10,0.6,0.6
2026-01-23T1000,1594A,109.8121,39.5987,鄂尔多斯市,华泰汽车城,颗粒物(PM10),57,63,59,25,27,9,,4,3,37,37,6,7,1.0,0.8
2026-01-23T1000,1595A,109.9734,39.7884,鄂尔多斯市,奥林花园,颗粒物(PM10),69,88,66,36,27,12,,39,31,56,40,10,11,1.1,0.7
2026-01-23T1000,2436A,114.894,30.3989,鄂州市,市政府,细颗粒物(PM2.5),132,,81,100,75,35,,29,27,26,28,5,7,1.0,1.1
2026-01-23T1000,2437A,114.8986,30.3714,鄂州市,赵家坝,细颗粒物(PM2.5),112,90,88,84,73,23,,25,23,31,32,7,9,1.2,1.1
2026-01-23T1000,3654A,114.8093,30.4091,鄂州市,精准医疗中心,细颗粒物(PM2.5),113,91,81,85,70,24,,20,16,35,29,4,8,1.0,0.8
2026-01-23T1000,2454A,109.4978,30.2979,恩施土家族苗族自治州,湖北民院,细颗粒物(PM2.5),109,,63,82,67,9,,7,6,16,15,6,6,0.9,0.8
2026-01-23T1000,3549A,109.5061,30.3771,恩施土家族苗族自治州,龙凤新区,细颗粒物(PM2.5),84,69,72,62,63,14,,10,10,19,21,7,7,0.7,0.7
2026-01-23T1000,2499A,108.3411,21.6159,防城港市,沙万,,35,30,22,24,12,40,,45,45,14,12,5,6,0.7,0.7
2026-01-23T1000,2500A,108.3515,21.7733,防城港市,防城档案局,,37,37,26,21,13,37,,38,37,12,12,5,4,0.5,0.5
2026-01-23T1000,2501A,108.3506,21.6414,防城港市,大海花园,,32,25,22,22,15,40,,45,44,14,13,6,6,0.6,0.6
2026-01-23T1000,1371A,113.1293,23.0065,佛山市,湾梁,,31,31,34,18,17,17,,18,18,27,24,/,/,/,/
2026-01-23T1000,1372A,113.1082,23.0477,佛山市,华材职中,,39,39,40,23,23,19,,19,19,23,20,8,7,0.6,0.6
2026-01-23T1000,1373A,113.1439,23.045,佛山市,南海气象局,,28,24,29,19,19,16,,19,19,34,29,/,/,/,/
2026-01-23T1000,1374A,113.2879,22.8094,佛山市,顺德苏岗,,19,19,23,12,16,16,,15,15,28,27,/,/,0.8,0.7
2026-01-23T1000,1376A,112.8384,22.8678,佛山市,高明孔堂,,40,40,37,28,24,16,,15,14,22,20,/,/,/,/
2026-01-23T1000,1377A,112.8835,23.1584,佛山市,三水监测站,,39,34,28,27,21,19,,18,17,27,24,4,3,0.8,0.8
2026-01-23T1000,1378A,112.8668,23.185,佛山市,三水云东海,,39,,26,27,18,19,,17,17,25,23,/,/,/,/
2026-01-23T1000,3625A,113.2568,22.7629,佛山市,容桂街道办,,22,22,33,14,21,17,,13,13,29,32,/,/,/,/
2026-01-23T1000,1282A,119.2681,26.0506,福州市,师大,,39,36,32,27,25,19,,30,24,24,24,3,4,0.6,0.6
2026-01-23T1000,1283A,119.2983,26.1028,福州市,五四北路,,32,27,27,22,28,27,,38,34,19,20,4,6,0.5,0.6
2026-01-23T1000,1284A,119.2648,26.0769,福州市,杨桥西路,,40,,31,28,26,25,,31,26,13,14,4,5,/,/
2026-01-23T1000,3048A,119.5799,26.0937,福州市,九龙,,49,38,34,34,29,36,,44,40,25,25,8,7,0.8,0.8
2026-01-23T1000,3526A,119.5188,25.9666,福州市,吴航,,50,50,45,34,32,36,,44,41,24,22,11,8,1.1,0.7
2026-01-23T1000,4104A,119.3106,26.0648,福州市,路通桥巷6号,,38,36,40,26,31,26,,36,31,19,18,/,/,/,/
2026-01-23T1000,1755A,123.7974,41.8494,抚顺市,望花区,细颗粒物(PM2.5),144,125,95,110,61,,,4,4,51,48,11,8,1.9,1.4
2026-01-23T1000,1756A,123.9161,41.8827,抚顺市,顺城区,细颗粒物(PM2.5),137,137,95,104,74,18,,9,9,57,51,8,11,2.0,1.4
2026-01-23T1000,1757A,124.0437,41.8615,抚顺市,东洲区,细颗粒物(PM2.5),129,111,75,98,46,30,,22,22,41,39,11,9,1.5,1
2026-01-23T1000,1758A,123.9246,41.8638,抚顺市,新抚区,细颗粒物(PM2.5),107,99,88,80,55,24,,9,9,45,54,9,7,1.6,1.3
2026-01-23T1000,1759A,124.0972,41.8961,抚顺市,大伙房水库,细颗粒物(PM2.5),79,74,53,58,36,33,,12,12,28,32,16,11,1.0,0.9
2026-01-23T1000,1760A,123.708,41.8386,抚顺市,沈抚新城,细颗粒物(PM2.5),192,160,90,144,65,22,,12,12,55,51,9,9,1.9,1.4
2026-01-23T1000,2377A,116.3544,27.9833,抚州市,市站,细颗粒物(PM2.5),79,77,59,58,45,18,,25,21,22,15,16,10,1.8,1.3
2026-01-23T1000,2378A,116.3562,27.9631,抚州市,血防站,颗粒物(PM10),62,73,64,42,42,8,,24,18,32,19,9,8,1.5,1.3
2026-01-23T1000,2379A,116.3561,28.0007,抚州市,采茶剧团,细颗粒物(PM2.5),70,68,59,51,43,19,,28,24,18,10,10,7,1.3,1.1
2026-01-23T1000,2380A,116.3854,27.9648,抚州市,医学分院,细颗粒物(PM2.5),72,70,66,52,42,14,,30,23,24,13,10,8,0.8,0.6
2026-01-23T1000,2207A,121.6095,41.9978,阜新市,工业园区,,25,25,81,15,34,55,,33,33,11,31,11,18,0.4,0.8
2026-01-23T1000,2208A,121.6567,42.0188,阜新市,长青街,,,42,43,22,32,,,42,42,14,21,10,11,0.6,0.7
2026-01-23T1000,2209A,121.6672,42.07,阜新市,农业园区,,28,28,27,10,8,57,,56,56,10,9,8,8,0.3,0.2
2026-01-23T1000,2211A,121.6343,42.0455,阜新市,玉龙新城,,45,45,54,14,24,56,,38,38,13,29,10,10,0.5,0.7
2026-01-23T1000,2301A,115.8276,32.8929,阜阳市,市监测站,细颗粒物(PM2.5),93,95,68,69,51,68,,48,48,18,26,4,4,0.6,0.5
2026-01-23T1000,2303A,115.8551,32.8606,阜阳市,开发区,细颗粒物(PM2.5),93,92,50,69,42,53,,43,42,23,30,5,5,0.7,0.5
2026-01-23T1000,2875A,115.783962,32.889217,阜阳市,阜阳职业技术学院,细颗粒物(PM2.5),85,82,55,63,39,70,,67,66,16,18,8,9,0.8,0.6
2026-01-23T1000,3468A,115.79,32.8614,阜阳市,市规划展馆,细颗粒物(PM2.5),105,104,64,79,47,67,,53,53,16,20,6,7,0.6,0.5
2026-01-23T1000,3469A,115.835101,32.918568,阜阳市,枣园社区,细颗粒物(PM2.5),107,100,63,80,49,74,,50,50,16,24,5,5,0.5,0.4
2026-01-23T1000,2669A,102.9097,34.9841,甘南藏族自治州,州政府,颗粒物(PM10),60,69,63,36,30,13,,4,4,37,34,10,11,1.3,0.8
2026-01-23T1000,3380A,102.8915,34.9618,甘南藏族自治州,甘肃民族师范学院,颗粒物(PM10),69,87,69,28,20,16,,8,8,34,34,13,11,0.5,0.3
2026-01-23T1000,2570A,101.96,30.048,甘孜藏族自治州,水桥子,,47,47,24,17,8,15,,35,32,47,26,7,6,0.5,0.5
2026-01-23T1000,3065A,101.9534,29.9976,甘孜藏族自治州,州环保局,,27,27,19,6,6,49,,65,62,20,9,6,5,0.4,0.4
2026-01-23T1000,2363A,114.9368,25.8663,赣州市,地委,颗粒物(PM10),56,62,52,36,31,39,,35,33,13,15,7,7,0.5,0.5
2026-01-23T1000,2364A,114.946,25.8483,赣州市,气象台,颗粒物(PM10),59,67,64,36,30,30,,34,31,26,19,6,6,0.5,0.4
2026-01-23T1000,2365A,114.932,25.8332,赣州市,市图书馆,细颗粒物(PM2.5),53,47,43,37,33,30,,34,32,24,20,3,4,0.6,0.6
2026-01-23T1000,2366A,114.8905,25.8472,赣州市,华坚鞋城,,,57,47,38,35,30,,32,32,18,15,,5,0.4,0.4
2026-01-23T1000,3109A,115.0094,25.8614,赣州市,赣县区卫计委,细颗粒物(PM2.5),69,60,52,50,47,34,,33,32,10,9,8,7,0.7,0.6
2026-01-23T1000,2684A,106.2753,36.0057,固原市,监测站,细颗粒物(PM2.5),124,130,81,94,54,16,,14,14,54,40,18,10,2.5,1.3
2026-01-23T1000,2685A,106.2384,36.0189,固原市,新区,细颗粒物(PM2.5),104,147,89,78,62,8,,6,6,62,41,9,8,3.3,1.5
2026-01-23T1000,2544A,106.6307,30.4577,广安市,市委,颗粒物(PM10),51,52,58,33,43,22,,24,24,28,19,9,9,1.0,0.9
2026-01-23T1000,2545A,106.6266,30.4662,广安市,友谊中学,,43,43,52,30,43,26,,27,27,24,20,6,6,0.8,1
2026-01-23T1000,2547A,106.6386,30.4551,广安市,广电花园,细颗粒物(PM2.5),57,44,54,40,47,14,,21,19,26,19,8,8,0.8,0.7
2026-01-23T1000,2902A,106.6347,30.4868,广安市,北辰小学,细颗粒物(PM2.5),57,50,55,40,46,23,,28,27,21,18,4,4,1.1,1
2026-01-23T1000,2524A,105.8211,32.4444,广元市,老城,,,78,58,54,41,,,23,22,44,27,1,1,1.2,0.8
2026-01-23T1000,2526A,105.8629,32.429,广元市,监测站,细颗粒物(PM2.5),75,74,57,55,44,9,,24,17,34,23,10,8,1.2,0.9
2026-01-23T1000,3617A,105.8047,32.4167,广元市,经开区,细颗粒物(PM2.5),75,73,54,55,40,5,,18,13,40,24,5,4,1.2,0.8
2026-01-23T1000,1345A,113.2346,23.1423,广州市,广雅中学,,34,34,35,19,21,20,,20,20,32,31,2,3,0.3,0.4
2026-01-23T1000,1346A,113.2611,23.105,广州市,市五中,,32,29,35,22,22,27,,26,26,33,33,9,9,/,/
2026-01-23T1000,1348A,113.3477,23.0916,广州市,广东商学院,,26,26,31,17,18,22,,23,23,9,9,5,6,0.6,0.6
2026-01-23T1000,1349A,113.4332,23.105,广州市,市八十六中,,25,19,21,17,20,19,,19,19,26,24,7,7,/,/
2026-01-23T1000,1350A,113.3506,22.9488,广州市,番禺中学,,30,30,35,19,21,21,,18,18,26,26,2,2,0.6,0.5
2026-01-23T1000,1351A,113.2147,23.3918,广州市,花都师范,,40,29,35,28,28,27,,24,24,24,22,12,9,0.6,0.6
2026-01-23T1000,1352A,113.2599,23.1329,广州市,市监测站,,32,32,32,21,23,22,,23,23,23,24,3,2,/,/
2026-01-23T1000,1353A,113.5618,23.3119,广州市,九龙镇镇龙,,24,24,23,15,13,22,,28,27,20,16,5,4,0.5,0.5
2026-01-23T1000,1354A,113.2764,23.1544,广州市,麓湖,,36,33,33,25,23,22,,19,19,23,22,10,10,0.8,0.8
2026-01-23T1000,2846A,113.3209,23.1323,广州市,体育西,,29,29,34,19,21,22,,22,22,21,22,7,7,0.7,0.6
2026-01-23T1000,3298A,113.5718,23.5493,广州市,从化街口,,29,26,20,20,14,30,,35,35,13,11,8,8,0.4,0.5
2026-01-23T1000,3299A,113.3463,23.369,广州市,白云竹料,,28,28,34,18,18,33,,34,34,20,17,5,5,0.6,0.6
2026-01-23T1000,3300A,113.2981,23.2365,广州市,白云嘉禾,,33,33,31,20,17,26,,30,30,28,22,6,6,/,/
2026-01-23T1000,3301A,113.4256,23.1716,广州市,黄埔科学城,,24,24,31,16,18,23,,25,25,23,21,7,7,0.5,0.6
2026-01-23T1000,3302A,113.3942,23.0485,广州市,番禺大学城,,,,33,,17,,,38,,,23,,6,,0.6
2026-01-23T1000,3303A,113.4923,22.8169,广州市,南沙黄阁,,23,17,21,16,18,12,,10,10,32,33,9,6,/,/
2026-01-23T1000,3304A,113.534,22.7893,广州市,南沙街,,36,36,39,16,18,10,,11,11,28,29,6,7,1.0,0.8
2026-01-23T1000,3443A,113.2905,23.5541,广州市,花都梯面,,33,30,30,23,20,35,,26,26,10,11,15,11,/,/
2026-01-23T1000,3445A,113.786,23.7479,广州市,从化良口,,25,21,19,17,13,25,,29,28,11,11,8,7,/,/
2026-01-23T1000,3446A,113.805,23.2614,广州市,增城荔城,,20,19,20,14,13,24,,25,25,14,14,8,6,0.6,0.6
2026-01-23T1000,2506A,109.604387,23.066791,贵港市,江南子站,,45,44,36,31,23,24,,28,28,14,10,6,4,0.8,0.6
2026-01-23T1000,2508A,109.5669,23.1065,贵港市,荷城子站,,36,36,34,24,26,24,,26,26,17,15,4,4,0.9,0.9
2026-01-23T1000,3405A,109.5886,23.1172,贵港市,新世纪学校,颗粒物(PM10),51,51,39,27,25,25,,28,27,16,14,/,/,0.4,0.4
2026-01-23T1000,4260A,109.5933,23.095,贵港市,中山路155-3号,,39,39,31,26,27,24,,30,30,17,13,/,/,0.8,0.8
2026-01-23T1000,1439A,106.6863,26.6035,贵阳市,马鞍山,,42,39,30,29,26,20,,44,38,29,15,11,10,/,/
2026-01-23T1000,1441A,106.6241,26.6266,贵阳市,鉴湖路,颗粒物(PM10),54,58,42,34,26,19,,38,34,30,19,11,5,0.8,0.7
2026-01-23T1000,1442A,106.7468,26.6344,贵阳市,燕子冲,细颗粒物(PM2.5),58,,21,41,32,27,,50,43,21,12,12,10,0.8,0.8
2026-01-23T1000,1443A,106.6556,26.4362,贵阳市,碧云窝,颗粒物(PM10),52,53,48,31,30,27,,36,33,19,22,10,8,/,/
2026-01-23T1000,1445A,106.6963,26.6063,贵阳市,红边门,颗粒物(PM10),52,53,33,34,27,20,,47,38,28,17,17,12,/,/
2026-01-23T1000,1446A,106.7162383,26.56964667,贵阳市,新华路,颗粒物(PM10),53,56,43,27,24,24,,47,41,31,19,9,7,0.8,0.7
2026-01-23T1000,1447A,106.6742,26.542,贵阳市,太慈桥,,46,46,36,29,28,22,,46,41,31,22,8,7,/,/
2026-01-23T1000,4230A,106.688212,26.56952,贵阳市,花果园大街66号,细颗粒物(PM2.5),54,,27,38,35,14,,37,31,32,20,10,7,/,/
2026-01-23T1000,4231A,106.687268,26.516892,贵阳市,漓江路57号,颗粒物(PM10),53,56,40,34,29,13,,35,29,30,22,16,12,0.6,0.6
2026-01-23T1000,1864A,110.3091,25.2705,桂林市,龙隐路小学,,50,,25,35,33,35,,43,41,12,9,7,6,0.7,0.7
2026-01-23T1000,1865A,110.2849361,25.22909545,桂林市,八中,,42,31,29,29,30,36,,42,41,17,14,8,7,0.6,0.6
2026-01-23T1000,3531A,110.296,25.1254,桂林市,旅游学院,,,,,29,21,42,,46,44,6,6,6,5,0.4,0.4
2026-01-23T1000,4222A,110.1835,25.2444,桂林市,环湖路276号,细颗粒物(PM2.5),55,44,26,39,27,27,,41,38,16,7,8,6,0.7,0.6
2026-01-23T1000,4301A,110.2803,25.2773,桂林市,信义路13号,,46,36,27,32,24,36,,42,40,15,12,4,4,0.8,0.7
2026-01-23T1000,2674A,100.2262,34.4854,果洛藏族自治州,玛沁县大武镇,颗粒物(PM10),53,55,52,6,12,24,,31,28,10,7,25,17,0.7,0.4
2026-01-23T1000,1130A,126.5557,45.8109,哈尔滨市,松北商大,细颗粒物(PM2.5),92,99,46,68,32,25,,29,26,42,28,17,8,1.0,0.6
2026-01-23T1000,1132A,126.6162,45.719,哈尔滨市,南岗学府路,细颗粒物(PM2.5),84,84,54,62,35,36,,19,17,31,26,11,9,1.0,0.7
2026-01-23T1000,1133A,126.6894,45.7733,哈尔滨市,太平宏伟公园,细颗粒物(PM2.5),72,76,53,52,36,29,,26,24,36,27,25,14,1.0,0.7
2026-01-23T1000,1134A,126.6361,45.7672,哈尔滨市,道外承德广场,颗粒物(PM10),70,89,59,48,33,30,,20,20,38,37,39,15,0.5,0.3
2026-01-23T1000,1136A,126.644,45.7261,哈尔滨市,动力和平路,细颗粒物(PM2.5),105,87,52,79,35,21,,17,16,38,31,22,11,1.1,0.8
2026-01-23T1000,1137A,126.5933,45.7479,哈尔滨市,道里建国路,细颗粒物(PM2.5),82,80,55,60,42,24,,24,23,41,31,34,10,1.1,0.7
2026-01-23T1000,1138A,126.6127,45.6119,哈尔滨市,平房东轻厂,细颗粒物(PM2.5),87,95,55,64,39,28,,31,30,35,31,8,9,1.3,1
2026-01-23T1000,1139A,126.5875,45.9827,哈尔滨市,呼兰师专,细颗粒物(PM2.5),113,88,48,85,43,38,,21,21,23,27,10,12,1.0,0.7
2026-01-23T1000,1140A,126.6299,45.6799,哈尔滨市,省农科院,细颗粒物(PM2.5),119,98,62,90,50,24,,13,13,37,38,12,12,1.1,0.7
2026-01-23T1000,4282A,126.6769,45.7379,哈尔滨市,华山路1号,细颗粒物(PM2.5),88,97,60,65,36,20,,12,12,42,37,47,34,0.7,0.4
2026-01-23T1000,4283A,126.9717,45.5356,哈尔滨市,解放大街52号,细颗粒物(PM2.5),105,83,48,79,40,46,,48,47,21,19,14,14,0.9,0.5
2026-01-23T1000,2688A,93.5124,42.8176,哈密市,地区监测站,颗粒物(PM10),75,99,107,54,51,6,,26,22,46,25,8,8,0.7,0.5
2026-01-23T1000,2689A,93.5014,42.8312,哈密市,哈密师范学校,颗粒物(PM10),85,120,109,35,37,5,,21,16,53,34,5,6,1.3,1
2026-01-23T1000,2671A,100.9016,36.9464,海北藏族自治州,海晏县西海镇,,27,27,24,13,11,34,,49,46,11,3,7,7,0.5,0.3
2026-01-23T1000,3867A,102.074,36.5056,海东市,平安区公安局北苑,细颗粒物(PM2.5),85,89,75,63,48,18,,36,26,39,27,14,24,1.3,1.1
2026-01-23T1000,4163A,102.0984,36.5119,海东市,滨河路,细颗粒物(PM2.5),64,67,80,46,54,16,,39,26,51,42,12,24,1.1,1
2026-01-23T1000,1410A,110.3189,20.0596,海口市,海南大学,,38,38,45,22,26,38,,46,42,13,13,5,6,0.5,0.5
2026-01-23T1000,1411A,110.2827,20.0051,海口市,秀英海南医院,,40,40,43,20,24,37,,47,42,14,14,7,8,0.5,0.5
2026-01-23T1000,1412A,110.3391,19.9979,海口市,海南师范大学,,39,39,41,21,25,37,,48,42,16,16,6,6,0.5,0.6
2026-01-23T1000,1413A,110.3303,20.0359,海口市,龙华路环保局宿舍,,35,35,40,21,25,38,,47,43,15,15,/,/,0.8,0.7
2026-01-23T1000,3539A,110.5111,19.9737,海口市,桂林洋子站,,34,34,44,21,26,40,,47,41,14,14,/,/,/,/
2026-01-23T1000,4134A,110.1952,20.0451,海口市,长滨二路9号,,37,37,43,22,26,35,,44,40,13,12,/,/,/,/
2026-01-23T1000,2673A,100.6158,36.2985,海南藏族自治州,共和县恰卜恰镇,,43,43,34,22,18,21,,36,31,32,20,13,13,0.8,0.6
2026-01-23T1000,2676A,97.373,37.376,海西蒙古族藏族自治州,德令哈市,,26,20,32,10,10,82,,80,80,2,5,15,17,0.5,0.5
2026-01-23T1000,1049A,114.492,36.5712,邯郸市,矿院,细颗粒物(PM2.5),132,128,101,100,99,21,,38,26,56,37,10,9,1.0,0.8
2026-01-23T1000,1050A,114.4839,36.6136,邯郸市,丛台公园,细颗粒物(PM2.5),153,137,111,117,99,27,,43,32,47,34,8,6,1.4,0.9
2026-01-23T1000,3458A,114.7893,36.5592,邯郸市,香泉濮院小区,细颗粒物(PM2.5),135,,103,103,98,46,,56,49,37,28,4,4,0.8,0.8
2026-01-23T1000,3580A,114.1998,36.4439,邯郸市,峰峰矿区临水派出所,细颗粒物(PM2.5),150,150,105,115,96,25,,37,32,42,31,23,14,2.4,1.2
2026-01-23T1000,4068A,114.5209,36.7697,邯郸市,建安街268号,细颗粒物(PM2.5),208,192,121,158,112,9,,11,4,50,53,6,6,1.7,1
2026-01-23T1000,4069A,114.5488,36.6177,邯郸市,丛台东路558号,细颗粒物(PM2.5),153,130,105,117,107,25,,50,41,43,33,5,6,1.1,0.9
2026-01-23T1000,2635A,107.0155,33.0707,汉中市,市监测站,细颗粒物(PM2.5),73,59,53,53,48,5,,20,15,30,21,5,5,1.2,0.8
2026-01-23T1000,2636A,107.0083,33.114,汉中市,鑫源开发区,,,91,55,62,52,,,13,11,35,24,5,4,0.8,0.7
2026-01-23T1000,2637A,107.0072,33.0323,汉中市,南郑大河坎水厂,细颗粒物(PM2.5),70,62,59,51,47,4,,13,9,28,20,6,5,1.1,0.8
2026-01-23T1000,1223A,120.2073,30.2111,杭州市,滨江,细颗粒物(PM2.5),82,79,65,60,47,18,,7,5,42,47,7,6,0.7,0.5
2026-01-23T1000,1224A,120.0625,30.2737,杭州市,西溪,细颗粒物(PM2.5),74,72,56,54,37,25,,4,4,37,43,10,8,0.6,0.5
2026-01-23T1000,1226A,120.3417,30.315,杭州市,下沙,细颗粒物(PM2.5),77,81,61,56,42,32,,15,15,34,53,9,8,0.8,0.6
2026-01-23T1000,1227A,120.1252,30.2465,杭州市,卧龙桥,细颗粒物(PM2.5),70,68,55,51,38,25,,11,11,32,32,9,9,0.5,0.4
2026-01-23T1000,1228A,120.1902,30.2691,杭州市,浙江农大,细颗粒物(PM2.5),89,85,64,66,47,23,,5,5,48,55,7,6,0.7,0.6
2026-01-23T1000,1230A,120.1195,30.3121,杭州市,和睦小学,细颗粒物(PM2.5),74,89,64,54,42,21,,6,6,36,45,6,5,0.9,0.8
2026-01-23T1000,1231A,120.3076,30.4146,杭州市,临平镇,细颗粒物(PM2.5),85,95,66,63,47,15,,4,4,49,44,8,8,0.8,0.7
2026-01-23T1000,1232A,120.2753,30.1839,杭州市,城厢镇,细颗粒物(PM2.5),79,77,62,58,45,24,,6,6,36,46,8,8,0.6,0.6
2026-01-23T1000,1233A,120.0883,30.1808,杭州市,云栖,,,107,61,,39,17,,8,8,39,32,4,3,0.7,0.5
2026-01-23T1000,3557A,119.9463,30.0496,杭州市,镇二中,细颗粒物(PM2.5),92,68,60,68,55,14,,4,4,47,47,6,4,1.0,0.8
2026-01-23T1000,3558A,119.7184,30.2367,杭州市,市府大楼,细颗粒物(PM2.5),89,,54,66,47,28,,13,13,28,27,12,10,1.1,0.9
2026-01-23T1000,3656A,120.1554,30.2863,杭州市,消防大队,细颗粒物(PM2.5),79,72,60,58,44,25,,7,7,38,48,7,6,0.5,0.4
2026-01-23T1000,1270A,117.1957,31.7845,合肥市,明珠广场,细颗粒物(PM2.5),70,83,65,51,41,28,,24,24,49,44,6,6,1.3,1.1
2026-01-23T1000,1271A,117.307,31.8765,合肥市,三里街,细颗粒物(PM2.5),79,88,69,58,42,20,,12,12,51,49,7,8,1.0,0.9
2026-01-23T1000,1272A,117.2587,31.8703,合肥市,琥珀山庄,细颗粒物(PM2.5),80,90,62,59,45,32,,12,12,43,51,9,9,1.0,0.9
2026-01-23T1000,1275A,117.2593,31.9376,合肥市,庐阳区,颗粒物(PM10),82,114,73,56,42,18,,6,6,66,60,8,7,1.0,0.9
2026-01-23T1000,1276A,117.345251,31.861615,合肥市,瑶海区,细颗粒物(PM2.5),77,83,63,56,41,28,,15,15,45,51,5,6,0.6,0.5
2026-01-23T1000,1277A,117.3033,31.7967,合肥市,包河区,细颗粒物(PM2.5),77,75,72,56,49,36,,7,7,38,67,6,9,0.8,0.8
2026-01-23T1000,1278A,117.278,31.7392,合肥市,滨湖新区,细颗粒物(PM2.5),77,75,53,56,45,36,,35,33,31,34,4,4,0.8,0.7
2026-01-23T1000,1279A,117.1324,31.8395,合肥市,高新区,细颗粒物(PM2.5),72,83,58,52,37,32,,36,34,49,45,5,5,0.8,0.6
2026-01-23T1000,3464A,117.3802,31.9148,合肥市,高教基地,细颗粒物(PM2.5),92,92,64,68,52,18,,4,4,51,46,10,9,0.9,0.7
2026-01-23T1000,4098A,117.2518,31.8404,合肥市,中国科学技术大学,细颗粒物(PM2.5),78,85,63,57,39,24,,16,16,46,41,10,9,0.8,0.7
2026-01-23T1000,3614A,79.9241,37.0878,和田地区,地区环保局,颗粒物(PM10),500,884,1179,184,268,26,,39,34,23,17,1,3,1.3,0.4
2026-01-23T1000,3615A,79.9132,37.1137,和田地区,市环保局,颗粒物(PM10),500,889,1230,145,242,24,,43,36,21,13,2,2,2.2,0.8
2026-01-23T1000,2517A,108.0496,24.6957,河池市,市环保站,,29,29,21,20,15,37,,45,44,9,8,6,9,0.6,0.6
2026-01-23T1000,4302A,108.0901,24.6945,河池市,上任中路54号,颗粒物(PM10),52,53,37,28,29,33,,34,34,8,11,7,8,0.5,0.5
2026-01-23T1000,1697A,114.6962,23.7538,河源市,东埔,,40,29,22,28,19,23,,21,20,13,15,5,5,0.4,0.4
2026-01-23T1000,1698A,114.6895,23.7232,河源市,老城,,,25,22,21,16,23,,20,20,12,14,6,5,,0.6
2026-01-23T1000,3374A,115.5562,35.089,菏泽市,定陶老年大学,细颗粒物(PM2.5),104,100,81,78,64,49,,58,53,26,24,4,5,0.5,0.4
2026-01-23T1000,4114A,115.4239,35.2593,菏泽市,黄河路600号,细颗粒物(PM2.5),124,109,83,94,69,52,,68,62,28,20,3,4,0.6,0.6
2026-01-23T1000,4115A,115.5025,35.2727,菏泽市,菏泽市人社局,细颗粒物(PM2.5),117,116,81,88,65,38,,53,48,34,23,7,8,0.7,0.6
2026-01-23T1000,4184A,115.479691,35.244011,菏泽市,永昌路1号,细颗粒物(PM2.5),110,100,82,83,67,50,,60,54,27,22,4,4,0.4,0.3
2026-01-23T1000,4193A,115.471542,35.280012,菏泽市,长城路999号,细颗粒物(PM2.5),100,105,78,75,60,45,,63,54,31,19,14,13,0.7,0.6
2026-01-23T1000,2514A,111.5264,24.4178,贺州市,环保小区,,42,39,28,29,24,28,,33,32,17,13,3,2,0.5,0.4
2026-01-23T1000,2515A,111.561,24.4074,贺州市,政协大楼,,42,42,28,29,19,26,,33,32,16,12,10,9,0.7,0.5
2026-01-23T1000,3534A,111.4744,24.455,贺州市,西湾,,43,38,30,30,23,26,,33,31,20,16,7,7,0.7,0.6
2026-01-23T1000,2385A,114.17,35.9019,鹤壁市,市监测站,细颗粒物(PM2.5),233,196,149,183,128,29,,28,23,36,31,11,6,1.9,1.1
2026-01-23T1000,2386A,114.2953,35.7512,鹤壁市,市交警支队,细颗粒物(PM2.5),173,168,128,131,112,16,,42,30,49,36,8,6,1.6,0.9
2026-01-23T1000,2387A,114.2877,35.7302,鹤壁市,迎宾馆,细颗粒物(PM2.5),153,155,127,117,107,21,,45,34,40,32,7,5,1.9,1
2026-01-23T1000,3474A,114.2616,35.6824,鹤壁市,大新区,细颗粒物(PM2.5),158,140,114,120,102,23,,35,26,48,42,6,5,1.3,0.8
2026-01-23T1000,3596A,114.1573,35.9607,鹤壁市,南山宾馆,细颗粒物(PM2.5),212,196,146,162,124,,,35,35,31,30,17,7,2.0,1.1
2026-01-23T1000,2244A,130.2537,47.3416,鹤岗市,哈啤分公司,,28,24,23,19,13,75,,76,75,7,6,7,6,0.4,0.3
2026-01-23T1000,2245A,130.2683,47.3087,鹤岗市,斯达机电,,25,22,24,17,10,66,,71,70,13,6,6,6,0.6,0.4
2026-01-23T1000,2246A,130.3114,47.3388,鹤岗市,东山纸板厂,,49,49,28,20,16,71,,64,59,8,9,8,8,0.8,0.7
2026-01-23T1000,2263A,127.4832,50.2524,黑河市,交通局,,24,,16,16,15,75,,75,75,10,12,4,5,0.2,0.2
2026-01-23T1000,2264A,127.5146,50.2339,黑河市,环保局,,23,18,15,3,8,71,,75,74,11,10,4,4,0.3,0.3
2026-01-23T1000,1074A,115.6839,37.754,衡水市,电机北厂,细颗粒物(PM2.5),113,120,131,85,105,51,,46,46,33,42,5,9,0.8,0.9
2026-01-23T1000,1075A,115.6303,37.7318,衡水市,市监测站,细颗粒物(PM2.5),114,120,123,86,101,38,,30,30,37,40,9,9,0.9,0.9
2026-01-23T1000,3188A,115.6684,37.7216,衡水市,市城管局,细颗粒物(PM2.5),105,118,130,79,94,47,,36,36,35,43,8,8,1.2,0.9
2026-01-23T1000,3459A,115.599,37.5491,衡水市,地表水厂,细颗粒物(PM2.5),140,118,117,107,111,16,,8,8,55,57,8,10,0.8,0.8
2026-01-23T1000,2457A,112.6209,26.9268,衡阳市,衡阳化工总厂,细颗粒物(PM2.5),89,68,60,66,60,33,,19,19,18,23,8,9,1.0,1
2026-01-23T1000,2458A,112.621,26.8957,衡阳市,珠晖区环保局,细颗粒物(PM2.5),82,71,61,60,54,33,,26,26,18,24,4,4,0.9,0.9
2026-01-23T1000,2459A,112.628,26.8654,衡阳市,市委党校,细颗粒物(PM2.5),90,,56,67,69,32,,24,24,11,18,10,11,0.9,0.9
2026-01-23T1000,2460A,112.6007,26.8977,衡阳市,市监测站,细颗粒物(PM2.5),80,81,73,59,51,33,,24,24,16,21,5,5,0.8,0.8
2026-01-23T1000,2461A,112.5658,26.9013,衡阳市,真空机电公司,细颗粒物(PM2.5),94,84,65,70,54,26,,19,18,27,27,6,6,1.0,0.9
2026-01-23T1000,3399A,112.6703,26.8817,衡阳市,师范学院,细颗粒物(PM2.5),83,71,73,61,53,37,,24,24,13,19,3,2,1.2,1.2
2026-01-23T1000,3038A,103.3757,23.3679,红河哈尼族彝族自治州,州图书馆,,15,14,14,10,9,46,,39,39,7,9,6,6,0.7,0.7
2026-01-23T1000,4154A,103.401,23.3561,红河哈尼族彝族自治州,蒙自市朝阳路,,15,12,13,10,12,42,,38,38,8,6,5,6,0.7,0.7
2026-01-23T1000,1090A,111.6506,40.7517,呼和浩特市,呼市一监,颗粒物(PM10),74,97,80,44,46,6,,1,1,37,45,22,16,1.4,1.1
2026-01-23T1000,1094A,111.7516,40.8369,呼和浩特市,如意水处理厂,颗粒物(PM10),60,70,67,42,37,16,,4,4,53,51,30,15,1.6,1.3
2026-01-23T1000,1095A,111.727798,40.806187,呼和浩特市,二十九中,颗粒物(PM10),70,89,70,40,37,12,,5,5,42,45,27,20,1.3,0.9
2026-01-23T1000,1097A,111.717,40.7617,呼和浩特市,化肥厂生活区,颗粒物(PM10),60,70,71,36,40,12,,4,4,40,46,16,12,1.3,1.1
2026-01-23T1000,3699A,111.6519,40.8389,呼和浩特市,海东办,颗粒物(PM10),74,97,76,35,40,8,,3,3,51,50,8,11,1.5,1.1
2026-01-23T1000,4275A,111.591512,40.827312,呼和浩特市,成吉思汗西街8号,颗粒物(PM10),73,95,63,40,30,7,,12,6,60,48,11,11,1.3,0.8
2026-01-23T1000,4276A,111.6597,40.8077,呼和浩特市,公园东路75号,颗粒物(PM10),67,83,75,38,44,17,,9,9,49,52,18,13,1.5,1.1
2026-01-23T1000,4277A,111.5427,40.7846,呼和浩特市,金海路35号,颗粒物(PM10),66,82,66,43,34,10,,5,5,54,48,15,13,1.3,0.9
2026-01-23T1000,3061A,119.7511,49.1576,呼伦贝尔市,国华电力东,,23,23,23,8,14,58,,58,58,13,13,6,7,0.4,0.4
2026-01-23T1000,4279A,119.7569,49.2222,呼伦贝尔市,伊敏大街东7号,,29,29,27,20,16,47,,42,42,19,18,9,8,0.5,0.4
2026-01-23T1000,1250A,120.075,30.867,湖州市,城西水厂,细颗粒物(PM2.5),74,80,49,54,33,22,,13,13,59,43,9,7,0.4,0.4
2026-01-23T1000,2873A,120.083,30.8929,湖州市,仁皇山新区,细颗粒物(PM2.5),77,85,49,56,36,23,,11,11,78,52,9,6,0.6,0.6
2026-01-23T1000,2907A,120.1846,30.8592,湖州市,吴兴区站,细颗粒物(PM2.5),78,74,52,57,38,26,,6,6,53,47,7,6,0.6,0.5
2026-01-23T1000,3562A,120.4146,30.8538,湖州市,南浔区站,,,84,56,62,42,,,2,2,59,45,9,8,1.0,0.9
2026-01-23T1000,1607A,120.904878,40.721091,葫芦岛市,龙港区,颗粒物(PM10),56,62,64,34,45,48,,22,22,40,41,40,29,0.8,1.2
2026-01-23T1000,1608A,120.8382,40.7521,葫芦岛市,化工街,颗粒物(PM10),53,56,76,26,45,44,,14,14,34,47,26,41,0.7,1
2026-01-23T1000,1609A,120.8339,40.7078,葫芦岛市,新区,颗粒物(PM10),54,58,52,17,39,41,,10,10,35,47,30,29,0.8,1.2
2026-01-23T1000,1610A,120.8697,40.7679,葫芦岛市,东城区,,42,42,67,19,46,56,,16,16,20,43,38,34,0.7,1.3
2026-01-23T1000,2483A,109.9297,27.5383,怀化市,河西地税局,细颗粒物(PM2.5),82,69,75,60,54,27,,10,10,19,23,5,4,/,/
2026-01-23T1000,2484A,109.9783,27.5342,怀化市,市四医院,细颗粒物(PM2.5),104,111,73,78,53,9,,3,1,29,24,6,6,0.8,0.6
2026-01-23T1000,2485A,109.9971,27.5579,怀化市,监测楼,细颗粒物(PM2.5),89,87,69,66,53,25,,10,10,26,20,3,3,0.4,0.3
2026-01-23T1000,1210A,119.0566,33.5991,淮安市,钵池山,细颗粒物(PM2.5),67,70,56,48,44,33,,17,17,43,41,10,10,0.5,0.6
2026-01-23T1000,1211A,119.0083,33.578,淮安市,北京南路,细颗粒物(PM2.5),68,80,58,49,39,24,,15,15,50,47,15,10,0.6,0.6
2026-01-23T1000,1212A,118.9938,33.6083,淮安市,市监测站,细颗粒物(PM2.5),85,78,50,63,42,24,,18,18,58,46,29,12,1.5,0.9
2026-01-23T1000,1213A,119.135,33.5038,淮安市,楚州区监测站,细颗粒物(PM2.5),87,81,60,64,42,24,,7,7,53,50,13,11,0.4,0.4
2026-01-23T1000,3426A,118.8757,33.2897,淮安市,新华书店,细颗粒物(PM2.5),84,73,59,62,47,23,,21,17,52,47,12,11,0.9,0.7
2026-01-23T1000,4092A,119.119691,33.550006,淮安市,枚皋中路89号,细颗粒物(PM2.5),95,99,62,71,46,32,,23,23,47,39,14,11,1.0,0.7
2026-01-23T1000,4206A,119.028838,33.631911,淮安市,承德北路606号,颗粒物(PM10),76,102,73,49,45,26,,13,13,54,51,23,10,1.4,0.8
2026-01-23T1000,2282A,116.8005,33.9749,淮北市,监测站,细颗粒物(PM2.5),104,105,80,78,58,46,,50,43,32,26,8,7,0.7,0.6
2026-01-23T1000,2283A,116.8094,33.9008,淮北市,烈山区政府,细颗粒物(PM2.5),104,99,84,78,64,43,,46,40,37,30,10,8,0.6,0.5
2026-01-23T1000,4017A,116.7926,33.9534,淮北市,市博物馆,细颗粒物(PM2.5),103,106,81,77,60,47,,51,45,30,24,13,11,0.6,0.5
2026-01-23T1000,4100A,116.8322,33.9884,淮北市,杜集区第一实验学校,,,90,77,70,55,50,,60,53,28,20,,10,0.7,0.5
2026-01-23T1000,2277A,116.8304,32.7726,淮南市,潘集区政府,细颗粒物(PM2.5),109,105,78,82,63,35,,18,18,34,35,10,7,0.6,0.6
2026-01-23T1000,2279A,116.8569,32.5949,淮南市,谢家集区政府,细颗粒物(PM2.5),77,81,61,56,35,29,,23,23,33,30,9,10,0.5,0.5
2026-01-23T1000,2280A,116.8279,32.6333,淮南市,八公山区政府,细颗粒物(PM2.5),80,76,53,59,40,38,,26,26,33,29,7,7,0.7,0.6
2026-01-23T1000,2894A,117.0561,32.6536,淮南市,经济技术开发区消防队,,,83,68,63,42,,,17,16,35,41,7,6,0.8,0.8
2026-01-23T1000,3329A,117.011,32.5891,淮南市,山南新区,颗粒物(PM10),70,90,65,49,41,31,,30,29,38,30,10,9,0.7,0.7
2026-01-23T1000,4209A,117.003137,32.644456,淮南市,国庆中路369号,细颗粒物(PM2.5),88,75,56,65,49,35,,23,21,36,34,9,8,0.6,0.7
2026-01-23T1000,2446A,114.9021,30.474,黄冈市,职工中心,细颗粒物(PM2.5),94,90,83,70,63,30,,19,14,23,27,6,8,1.1,1.2
2026-01-23T1000,2929A,114.8858,30.4519,黄冈市,红卫路,细颗粒物(PM2.5),107,90,80,80,67,29,,29,23,28,31,7,9,0.8,0.9
2026-01-23T1000,3398A,114.9134,30.4446,黄冈市,市林业局,细颗粒物(PM2.5),105,94,76,79,66,23,,24,17,28,26,4,4,0.9,0.9
2026-01-23T1000,2672A,102.02,35.5101,黄南藏族自治州,同仁县隆务镇,,30,30,41,16,19,47,,51,51,2,5,11,10,0.2,0.3
2026-01-23T1000,2295A,118.2905,29.6965,黄山市,延安路89号,细颗粒物(PM2.5),57,42,38,40,33,18,,12,10,18,16,4,4,0.6,0.5
2026-01-23T1000,2297A,118.1369,30.2755,黄山市,黄山区政府5号楼,,45,36,44,31,33,31,,27,27,15,16,2,3,0.7,0.6
2026-01-23T1000,4210A,118.335445,29.720283,黄山市,滨江东路7-2号,细颗粒物(PM2.5),59,60,53,42,43,22,,14,13,18,16,/,/,/,/
2026-01-23T1000,2423A,115.0547,30.2332,黄石市,沈家营,细颗粒物(PM2.5),84,88,83,62,61,27,,31,30,26,15,7,7,1.7,1.5
2026-01-23T1000,2426A,114.899,30.211,黄石市,铁山,,,,76,,79,,,81,,,19,,7,,1.0
2026-01-23T1000,2427A,115.0259,30.2108,黄石市,团城山,细颗粒物(PM2.5),85,72,79,63,69,40,,34,34,22,17,6,6,1.1,1
2026-01-23T1000,3149A,115.0174,30.1591,黄石市,笔架山北路,细颗粒物(PM2.5),102,119,107,76,69,25,,34,34,40,21,12,8,1.5,1.4
2026-01-23T1000,4185A,115.078022,30.21118,黄石市,磁湖东路29号,,,,76,,73,,,50,45,,22,,6,,1.4
2026-01-23T1000,1392A,114.4181,23.0528,惠州市,河南岸金山湖子站,,27,27,28,18,17,17,,20,19,20,17,4,4,0.7,0.7
2026-01-23T1000,1393A,114.4055,23.0824,惠州市,下埔横江三路子站,,26,25,27,18,17,18,,18,18,14,17,7,7,0.7,0.7
2026-01-23T1000,1395A,114.4645,22.7832,惠州市,惠阳区承修路船湖子站,,33,33,34,20,21,14,,16,15,17,16,8,7,0.7,0.7
2026-01-23T1000,1396A,114.5316,22.7423,惠州市,大亚湾管委会子站,,30,30,34,17,18,15,,16,14,13,14,5,5,0.5,0.5
2026-01-23T1000,3314A,114.4334,22.8134,惠州市,惠阳秋长,,29,29,31,20,21,17,,18,17,17,17,/,/,/,/
2026-01-23T1000,3452A,114.6521,22.7755,惠州市,大亚湾霞涌,,33,33,32,20,20,19,,20,19,16,15,/,/,/,/
2026-01-23T1000,4300A,114.4089,23.1147,惠州市,文华一路1号,,29,27,28,20,19,16,,17,17,17,20,/,/,/,/
2026-01-23T1000,2240A,130.9618,45.2926,鸡西市,环保局,,34,34,27,16,17,61,,57,56,10,9,7,6,0.3,0.2
2026-01-23T1000,2243A,130.9294,45.2959,鸡西市,第一中学,,31,31,24,16,17,65,,59,58,7,8,4,3,0.4,0.4
2026-01-23T1000,3707A,131.0069,45.2988,鸡西市,欧美日汽修厂,,45,45,33,12,22,57,,49,46,14,11,9,7,0.2,0.3
2026-01-23T1000,2367A,114.9753,27.0803,吉安市,红声器材厂,颗粒物(PM10),58,65,64,39,39,12,,18,14,26,22,8,9,0.8,0.7
2026-01-23T1000,2369A,114.9903,27.1313,吉安市,市环境监测站,细颗粒物(PM2.5),68,63,55,49,40,17,,20,15,21,15,9,11,/,/
2026-01-23T1000,2370A,115.009527,27.096792,吉安市,青原区法院,细颗粒物(PM2.5),63,62,60,45,43,15,,14,11,26,21,10,11,0.8,0.8
2026-01-23T1000,1772A,126.54,43.8622,吉林市,哈达湾,,26,26,28,15,17,68,,63,63,8,12,16,17,0.7,0.7
2026-01-23T1000,1773A,126.5843,43.8358,吉林市,东局子,,28,27,29,19,20,57,,51,49,16,19,5,4,0.7,0.7
2026-01-23T1000,1774A,126.5051,43.8243,吉林市,电力学院,,29,24,27,20,22,68,,57,57,9,14,7,7,0.6,0.6
2026-01-23T1000,1775A,126.6133,43.8971,吉林市,江北,,26,25,30,18,19,59,,52,51,9,13,8,10,0.7,0.7
2026-01-23T1000,1776A,126.5549,43.8304,吉林市,江南公园,,26,22,27,18,23,64,,57,57,8,12,8,8,0.6,0.6
2026-01-23T1000,2868A,126.4737,43.953,吉林市,九站,,26,24,30,18,23,63,,48,48,11,20,6,6,0.6,0.6
2026-01-23T1000,1299A,116.9866,36.6118,济南市,科干所,细颗粒物(PM2.5),62,61,55,44,33,78,,86,84,18,14,9,9,0.6,0.5
2026-01-23T1000,1300A,116.9379,36.6652,济南市,农科所,颗粒物(PM10),63,76,56,44,32,60,,68,62,40,29,14,9,0.8,0.7
2026-01-23T1000,1301A,117.1265,36.6736,济南市,开发区,细颗粒物(PM2.5),64,73,55,46,38,38,,51,34,65,37,8,7,0.9,0.7
2026-01-23T1000,1303A,117.0616,36.6865,济南市,省种子仓库,,,68,66,46,39,74,,42,30,30,36,8,8,,0.7
2026-01-23T1000,1304A,116.9495185,36.644937,济南市,机床二厂,细颗粒物(PM2.5),153,,57,117,42,,,84,81,28,24,15,12,0.6,0.5
2026-01-23T1000,1305A,117.0496,36.6629,济南市,市监测站,细颗粒物(PM2.5),68,61,51,49,34,79,,77,72,23,21,7,7,0.6,0.6
2026-01-23T1000,1306A,116.7674,36.5458,济南市,长清党校,细颗粒物(PM2.5),74,71,58,54,38,78,,79,76,29,29,9,8,0.7,0.7
2026-01-23T1000,1961A,117.5323,36.6865,济南市,东山小学,细颗粒物(PM2.5),62,59,59,44,40,81,,69,68,22,22,7,6,0.4,0.4
2026-01-23T1000,3059A,117.7181,36.205,济南市,泰兴公司,细颗粒物(PM2.5),85,97,77,63,57,28,,10,10,63,46,22,10,1.5,1
2026-01-23T1000,3064A,117.6861,36.2172,济南市,莱芜战役纪念馆,细颗粒物(PM2.5),85,100,73,63,54,33,,21,11,61,41,18,11,1.5,1.1
2026-01-23T1000,3494A,117.1673,36.9782,济南市,济阳区政府,细颗粒物(PM2.5),80,88,71,59,40,32,,46,38,71,43,6,6,0.8,0.8
2026-01-23T1000,3495A,117.1168,36.6299,济南市,锦屏中学,细颗粒物(PM2.5),55,49,43,39,28,84,,82,75,20,19,4,4,0.9,0.8
2026-01-23T1000,4108A,117.7107,36.2385,济南市,山财大街5号,细颗粒物(PM2.5),62,66,65,44,45,56,,29,26,44,38,22,15,1.1,1
2026-01-23T1000,4109A,116.9744,36.6889,济南市,无影山路12号,细颗粒物(PM2.5),72,66,56,52,43,72,,76,74,26,19,13,9,0.8,0.7
2026-01-23T1000,1653A,116.6229,35.4288,济宁市,火炬城,细颗粒物(PM2.5),128,,64,97,63,40,,54,45,29,17,4,4,0.8,0.5
2026-01-23T1000,3500A,116.5808,35.3703,济宁市,北湖一中,细颗粒物(PM2.5),119,95,59,90,59,36,,71,58,40,21,4,4,0.9,0.5
2026-01-23T1000,3501A,116.8251,35.5592,济宁市,服务中心,细颗粒物(PM2.5),99,104,87,74,53,42,,48,42,29,21,8,5,0.6,0.4
2026-01-23T1000,3678A,116.5907,35.4054,济宁市,市第七中学,细颗粒物(PM2.5),119,105,62,90,52,41,,68,54,37,20,6,4,1.0,0.6
2026-01-23T1000,4111A,116.6075,35.4566,济宁市,任和路,细颗粒物(PM2.5),118,114,75,89,54,,,67,57,31,20,6,5,1.1,0.7
2026-01-23T1000,4112A,116.5648,35.3921,济宁市,文体南路1号,细颗粒物(PM2.5),123,136,75,93,59,39,,75,62,35,17,5,4,0.7,0.4
2026-01-23T1000,2255A,130.2749,46.8028,佳木斯市,佳纺,,44,44,30,18,24,64,,54,54,7,12,5,7,0.5,0.5
2026-01-23T1000,2257A,130.3258,46.7975,佳木斯市,环保局,颗粒物(PM10),52,54,37,20,23,58,,56,54,17,16,6,7,0.7,0.2
2026-01-23T1000,4285A,130.363,46.806,佳木斯市,顺和街,,29,29,26,14,22,56,,55,53,16,15,8,8,0.4,0.4
2026-01-23T1000,4286A,130.3952,46.8268,佳木斯市,长安路196号,,32,32,25,17,18,64,,59,59,13,12,6,6,0.5,0.4
2026-01-23T1000,1252A,120.7439,30.778,嘉兴市,清河小学,细颗粒物(PM2.5),69,78,67,50,43,49,,19,19,26,37,9,7,1.1,1.1
2026-01-23T1000,1253A,120.7261,30.7477,嘉兴市,嘉兴学院,细颗粒物(PM2.5),77,96,82,56,42,38,,12,12,41,42,7,6,1.1,1
2026-01-23T1000,2872A,120.7845,30.7524,嘉兴市,南湖区残联,细颗粒物(PM2.5),82,77,66,60,47,49,,19,19,34,46,9,6,0.9,0.9
2026-01-23T1000,3407A,120.6915,30.7741,嘉兴市,秀洲住建,,,,64,,44,,,6,6,37,47,7,7,0.7,0.7
2026-01-23T1000,1945A,98.291,39.7705,嘉峪关市,气象局,颗粒物(PM10),60,70,152,22,39,16,,36,33,55,29,17,16,0.7,0.6
2026-01-23T1000,2884A,98.2672,39.7978,嘉峪关市,酒钢宾馆,颗粒物(PM10),74,97,173,19,42,19,,33,31,47,26,17,18,0.5,0.7
2026-01-23T1000,3248A,98.2644,39.7723,嘉峪关市,雄关区,,44,44,122,20,32,28,,31,29,40,32,16,15,0.7,0.6
2026-01-23T1000,1383A,113.1063,22.6058,江门市,北街,,33,28,42,23,25,12,,10,10,39,40,/,/,/,/
2026-01-23T1000,1384A,113.073,22.5835,江门市,西区,,42,42,45,21,24,11,,10,10,28,32,/,/,/,/
2026-01-23T1000,1385A,113.0218,22.531,江门市,圭峰西,,39,32,38,27,27,13,,11,11,22,23,/,/,/,/
2026-01-23T1000,1386A,113.0826,22.5947,江门市,东湖,,38,38,42,21,24,12,,11,11,25,26,8,7,0.7,0.7
2026-01-23T1000,3311A,113.1077,22.5647,江门市,江海富民,,30,30,46,13,19,13,,11,11,34,36,/,/,0.4,0.4
2026-01-23T1000,3449A,113.0496,22.4669,江门市,新会银湖,,36,35,42,25,27,10,,6,6,30,34,9,8,0.6,0.6
2026-01-23T1000,3335A,113.3137,35.2643,焦作市,马村街道办,细颗粒物(PM2.5),190,164,171,143,148,34,,28,27,34,34,6,7,1.1,1.3
2026-01-23T1000,3336A,113.2464,35.2374,焦作市,焦作技师学院,细颗粒物(PM2.5),192,164,167,144,140,40,,21,21,33,41,9,12,1.6,1.8
2026-01-23T1000,3477A,113.1656,35.2536,焦作市,中站许衡医院,细颗粒物(PM2.5),130,145,128,99,102,44,,43,42,37,41,7,9,1.2,1.3
2026-01-23T1000,3981A,113.2456,35.18,焦作市,原李万街道办,细颗粒物(PM2.5),185,171,152,139,134,42,,27,27,32,44,4,7,1.0,1.3
2026-01-23T1000,4264A,113.234,35.219,焦作市,新安路1731号,细颗粒物(PM2.5),201,191,177,151,151,38,,25,25,33,41,6,8,1.2,1.4
2026-01-23T1000,4295A,113.2722,35.2121,焦作市,人民路3066号,细颗粒物(PM2.5),188,162,163,141,135,34,,18,18,33,38,5,7,1.4,1.6
2026-01-23T1000,1708A,116.3701,23.5345,揭阳市,新兴,,,55,40,31,28,8,,5,5,,26,11,8,0.8,0.7
2026-01-23T1000,1709A,116.3261,23.5442,揭阳市,西马,,43,43,35,27,24,8,,8,7,19,18,5,4,0.7,0.6
2026-01-23T1000,1710A,116.361,23.5627,揭阳市,东兴,颗粒物(PM10),53,56,43,24,24,8,,3,3,26,28,12,9,/,/
2026-01-23T1000,1711A,116.4151,23.5295,揭阳市,渔湖,,48,48,38,26,27,9,,6,6,20,20,6,6,/,/
2026-01-23T1000,3320A,116.4028,23.5699,揭阳市,曲溪,颗粒物(PM10),52,53,41,27,27,9,,6,6,18,19,9,2,0.7,0.6
2026-01-23T1000,1944A,102.1691,38.5166,金昌市,天庆家园,细颗粒物(PM2.5),98,114,117,73,71,29,,28,28,34,24,16,28,1.4,1.1
2026-01-23T1000,4022A,102.1648,38.5369,金昌市,金川区人防中心,细颗粒物(PM2.5),98,107,106,73,64,28,,38,37,36,20,16,20,1.4,0.9
2026-01-23T1000,4239A,102.193042,38.531887,金昌市,长春路96号,颗粒物(PM10),62,73,103,40,56,52,,36,36,17,23,15,26,0.8,0.9
2026-01-23T1000,1262A,119.6478,29.0773,金华市,十五中,细颗粒物(PM2.5),102,102,84,76,59,,,5,5,47,49,4,4,1.2,0.4
2026-01-23T1000,1263A,119.6859,29.1032,金华市,监测站,细颗粒物(PM2.5),92,98,84,68,58,12,,2,2,50,52,4,3,0.8,0.4
2026-01-23T1000,3659A,119.656,29.1132,金华市,气象局,细颗粒物(PM2.5),90,96,82,67,54,11,,2,2,54,52,4,4,1.1,0.9
2026-01-23T1000,1767A,121.1114,41.0879,锦州市,南山,细颗粒物(PM2.5),87,96,55,64,47,36,,9,9,30,38,20,13,1.6,1.1
2026-01-23T1000,1768A,121.060361,40.842794,锦州市,开发区,细颗粒物(PM2.5),93,87,87,69,60,44,,15,15,38,51,66,34,1.6,1.2
2026-01-23T1000,1769A,121.1836,41.1118,锦州市,百股街道,细颗粒物(PM2.5),107,93,54,80,49,28,,14,14,46,39,22,15,1.2,1
2026-01-23T1000,1770A,121.1176,41.1224,锦州市,天安街道,细颗粒物(PM2.5),142,143,61,108,45,18,,11,11,53,40,20,12,2.2,1.3
2026-01-23T1000,1771A,121.1303,41.1385,锦州市,北湖公园,细颗粒物(PM2.5),89,92,53,66,37,42,,21,21,27,29,18,15,1.1,0.9
2026-01-23T1000,2160A,112.8496,35.5051,晋城市,自来水公司,细颗粒物(PM2.5),79,92,94,58,64,35,,30,26,41,34,22,10,2.4,1.3
2026-01-23T1000,2162A,112.8509,35.4886,晋城市,市环保局,细颗粒物(PM2.5),98,98,92,73,64,36,,20,20,39,34,17,8,2.7,1.6
2026-01-23T1000,3620A,112.8258,35.4804,晋城市,泽州一中,颗粒物(PM10),89,128,108,60,73,46,,36,35,35,31,18,8,2.1,1.4
2026-01-23T1000,4078A,112.8246,35.5152,晋城市,前书院路,,,,111,,62,,,23,17,37,34,12,7,1.8,1.6
2026-01-23T1000,4079A,112.8864,35.4773,晋城市,祥云街666号,颗粒物(PM10),81,112,83,58,62,28,,29,29,45,36,10,7,2.1,1.1
2026-01-23T1000,2174A,112.6992,37.6984,晋中市,榆次区政府,颗粒物(PM10),106,161,103,71,50,7,,,,52,53,26,24,1.5,1.1
2026-01-23T1000,2865A,112.7195,37.683,晋中市,榆次三中,颗粒物(PM10),85,119,96,52,47,9,,2,2,45,49,22,22,1.4,1.2
2026-01-23T1000,4080A,112.7375,37.7215,晋中市,广安街188号,颗粒物(PM10),103,156,108,63,56,10,,4,4,57,55,39,25,1.7,1.1
2026-01-23T1000,4200A,112.7478,37.6954,晋中市,迎宾街26号,颗粒物(PM10),75,100,92,50,51,20,,8,8,32,44,25,23,1.1,1
2026-01-23T1000,2439A,112.2012,31.048,荆门市,竹园小学,细颗粒物(PM2.5),103,110,76,77,63,31,,49,42,40,28,1,5,0.6,0.3
2026-01-23T1000,2440A,112.1968,30.9892,荆门市,掇刀,细颗粒物(PM2.5),89,107,61,66,60,37,,54,47,32,21,7,6,0.6,0.5
2026-01-23T1000,3012A,112.1849,31.0361,荆门市,西山林语,细颗粒物(PM2.5),72,79,69,52,50,46,,59,50,29,21,11,10,0.6,0.6
2026-01-23T1000,3547A,112.1631,31.0134,荆门市,龙泉中学南校,细颗粒物(PM2.5),75,84,71,55,56,52,,65,59,23,12,4,5,0.9,0.8
2026-01-23T1000,4124A,112.2213,31.0654,荆门市,新台西路6号,细颗粒物(PM2.5),97,104,78,72,64,23,,43,33,43,30,8,10,1.1,0.7
2026-01-23T1000,1844A,112.2493,30.3198,荆州市,市图书馆,细颗粒物(PM2.5),84,69,55,62,57,45,,64,58,16,19,8,9,0.8,0.7
2026-01-23T1000,1845A,112.2009,30.3543,荆州市,市委党校,细颗粒物(PM2.5),88,69,61,65,54,40,,58,52,27,28,2,3,0.8,0.6
2026-01-23T1000,3194A,112.2749,30.3124,荆州市,管委会,细颗粒物(PM2.5),90,74,56,67,55,41,,63,55,24,23,7,8,0.9,0.8
2026-01-23T1000,4268A,112.1722,30.3366,荆州市,学苑路85号,,,55,52,54,48,,,65,61,17,15,10,12,0.8,0.7
2026-01-23T1000,2343A,117.2114,29.2931,景德镇市,老干部活动中心,细颗粒物(PM2.5),75,64,43,55,40,10,,8,5,22,18,5,5,1.0,0.9
2026-01-23T1000,2344A,117.1893,29.2789,景德镇市,兽医站,颗粒物(PM10),53,56,48,34,26,18,,19,15,29,21,4,4,0.6,0.5
2026-01-23T1000,2346A,117.246,29.2958,景德镇市,陶研所,细颗粒物(PM2.5),72,64,35,52,39,10,,5,4,20,14,4,4,0.8,0.7
2026-01-23T1000,4289A,117.154766,29.256967,景德镇市,青少年活动中心,颗粒物(PM10),64,78,51,44,32,18,,12,11,42,26,44,18,/,/
2026-01-23T1000,1803A,115.9873,29.6816,九江市,十里,细颗粒物(PM2.5),75,78,47,55,34,28,,10,10,51,45,11,6,1.1,0.8
2026-01-23T1000,1804A,115.9583,29.7047,九江市,茅山头,颗粒物(PM10),67,83,47,47,34,23,,9,9,43,43,7,5,0.8,0.7
2026-01-23T1000,1805A,115.9877,29.7295,九江市,西园,细颗粒物(PM2.5),102,81,39,76,32,48,,21,21,36,51,15,5,0.9,0.6
2026-01-23T1000,1808A,115.9112,29.6038,九江市,综合工业园,细颗粒物(PM2.5),118,92,44,89,48,31,,17,17,49,41,7,3,1.4,0.9
2026-01-23T1000,3190A,116.0254,29.6995,九江市,外国语学校,细颗粒物(PM2.5),79,87,45,58,34,37,,14,14,40,54,10,9,1.2,0.9
2026-01-23T1000,4253A,116.010205,29.659402,九江市,莲花大道8号,细颗粒物(PM2.5),129,,50,98,42,38,,42,37,26,12,7,4,0.9,0.7
2026-01-23T1000,4240A,98.495752,39.733935,酒泉市,玉门东路5号,颗粒物(PM10),75,100,188,24,42,12,,29,28,43,22,12,12,0.9,0.6
2026-01-23T1000,4241A,98.5099,39.7506,酒泉市,北大街108号,颗粒物(PM10),95,139,188,33,41,8,,23,20,47,23,14,12,2.0,0.7
2026-01-23T1000,2698A,76.0071,39.466,喀什地区,巡警大队,颗粒物(PM10),482,582,617,154,165,28,,28,28,20,21,3,3,1.0,0.9
2026-01-23T1000,2699A,75.9756,39.4693,喀什地区,吾办,颗粒物(PM10),484,584,570,152,168,27,,32,30,25,21,2,6,1.1,0.9
2026-01-23T1000,4027A,75.9485,39.4688,喀什地区,老干局,颗粒物(PM10),472,572,606,129,133,10,,21,18,26,16,2,2,1.4,0.9
2026-01-23T1000,1824A,114.3389,34.778,开封市,肿瘤医院,细颗粒物(PM2.5),147,115,90,112,81,47,,71,62,40,28,9,9,1.0,0.8
2026-01-23T1000,1826A,114.2884,34.7966,开封市,世纪星幼儿园,细颗粒物(PM2.5),176,,84,133,95,45,,70,60,43,26,5,5,0.9,0.7
2026-01-23T1000,3147A,114.3434,34.8101,开封市,龙亭公园,细颗粒物(PM2.5),178,,87,134,94,48,,71,61,41,28,6,7,1.0,0.8
2026-01-23T1000,3210A,114.3645,34.7955,开封市,汴京公园,细颗粒物(PM2.5),162,,94,123,90,46,,66,58,41,26,3,4,0.9,0.7
2026-01-23T1000,3473A,114.2485,34.8306,开封市,技师学院,细颗粒物(PM2.5),145,115,84,111,79,55,,76,66,40,28,6,6,0.7,0.6
2026-01-23T1000,3592A,114.4518,34.7503,开封市,祥符区生态环境局,细颗粒物(PM2.5),139,161,112,106,79,52,,64,53,40,33,4,4,0.8,0.5
2026-01-23T1000,1951A,84.886,45.6029,克拉玛依市,长征新村,细颗粒物(PM2.5),67,74,61,48,43,29,,54,45,30,19,6,7,0.7,0.5
2026-01-23T1000,1952A,84.8894,45.5827,克拉玛依市,南林小区,颗粒物(PM10),69,87,64,40,35,20,,50,39,32,19,3,4,0.7,0.6
2026-01-23T1000,1954A,84.896,44.3328,克拉玛依市,独山子区,颗粒物(PM10),72,93,123,33,77,46,,72,71,46,40,4,5,0.8,0.7
2026-01-23T1000,1955A,85.6888,46.0909,克拉玛依市,乌尔禾区商贸楼,细颗粒物(PM2.5),68,55,64,49,44,20,,33,32,45,35,8,8,0.6,0.8
2026-01-23T1000,3612A,85.1045,45.6895,克拉玛依市,白碱滩区新站,细颗粒物(PM2.5),74,75,74,54,45,14,,38,30,43,32,10,10,0.6,0.5
2026-01-23T1000,2697A,76.1457,39.7143,克孜勒苏柯尔克孜自治州,市人民政府,颗粒物(PM10),500,615,675,128,144,20,,30,28,27,17,4,3,1.1,0.6
2026-01-23T1000,3665A,76.1654,39.7157,克孜勒苏柯尔克孜自治州,克州文化中心,颗粒物(PM10),500,617,665,144,154,24,,35,32,22,13,4,4,0.9,0.7
2026-01-23T1000,1450A,102.8203,24.889,昆明市,呈贡新区,,35,29,30,24,21,65,,54,54,16,19,4,5,0.5,0.4
2026-01-23T1000,1452A,102.7253,25.0904,昆明市,龙泉镇,颗粒物(PM10),59,68,39,26,20,48,,9,9,31,30,6,3,0.6,0.4
2026-01-23T1000,1453A,102.7267,25.0378,昆明市,东风东路,,44,44,34,28,22,60,,55,53,26,19,15,6,0.9,0.4
2026-01-23T1000,1454A,102.6744,25.0671,昆明市,金鼎山,颗粒物(PM10),71,91,45,44,26,24,,25,16,46,26,6,4,0.9,0.4
2026-01-23T1000,1455A,102.6643,25.0401,昆明市,碧鸡广场,颗粒物(PM10),52,53,38,28,20,50,,45,45,30,23,11,5,0.9,0.5
2026-01-23T1000,3179A,102.7491,25.012,昆明市,官渡区博物馆,,38,38,31,26,21,62,,56,48,26,18,6,4,0.7,0.5
2026-01-23T1000,3375A,102.8016,24.8336,昆明市,青年创业园,,41,41,32,26,19,63,,44,43,14,19,7,8,0.4,0.4
2026-01-23T1000,3550A,102.8,24.9787,昆明市,昆明学院,,37,37,33,22,19,71,,58,57,15,16,6,4,0.5,0.4
2026-01-23T1000,3551A,102.5969,24.6738,昆明市,晋宁区生态环境分局,,42,42,32,19,21,58,,40,40,18,15,2,3,0.8,0.6
2026-01-23T1000,3552A,102.6673,24.9861,昆明市,云天化总部,,43,40,31,30,22,55,,38,31,31,22,11,7,0.8,0.4
2026-01-23T1000,1456A,91.132,29.6515,拉萨市,八廓街,,18,18,24,11,15,48,,51,51,16,21,6,7,0.5,0.6
2026-01-23T1000,1457A,91.1221,29.6748,拉萨市,市环保局,,19,19,39,12,21,32,,36,36,30,30,7,9,0.8,1.2
2026-01-23T1000,1458A,91.0874,29.6476,拉萨市,区监测站,,15,14,16,10,10,40,,43,43,27,29,4,4,0.9,0.9
2026-01-23T1000,1459A,91.1774,29.6541,拉萨市,西藏大学,,14,10,19,6,11,44,,54,52,19,17,4,4,0.5,0.4
2026-01-23T1000,1460A,90.9798,29.6586,拉萨市,区辐射站,"颗粒物(PM10),细颗粒物(PM2.5)",60,69,23,43,14,10,,38,32,55,27,8,4,1.2,0.5
2026-01-23T1000,1461A,91.0831,29.6292,拉萨市,拉萨火车站,,27,27,18,16,12,14,,24,21,46,28,5,4,1.1,0.6
2026-01-23T1000,2520A,109.2203,23.7252,来宾市,来宾技工学校,,40,36,33,28,29,32,,30,30,12,13,8,9,0.5,0.5
2026-01-23T1000,3535A,109.1781,23.7293,来宾市,兴宾区政府,,38,38,32,26,23,34,,37,36,11,11,12,7,0.7,0.6
2026-01-23T1000,4002A,109.2312,23.7428,来宾市,中南小学,,43,31,37,30,31,30,,28,28,13,14,7,7,0.7,0.7
2026-01-23T1000,1479A,103.8309,36.0467,兰州市,铁路设计院,,,,,,,,,,,,,,,,
2026-01-23T1000,3241A,103.7439,36.0841,兰州市,百合公园,细颗粒物(PM2.5),107,124,103,80,62,7,,11,7,61,64,20,17,1.5,1.2
2026-01-23T1000,3242A,103.9613,35.9985,兰州市,和平,细颗粒物(PM2.5),104,110,106,78,72,19,,25,20,57,43,18,18,2.1,1.3
2026-01-23T1000,4236A,103.629272,36.093822,兰州市,庄浪东路808号,细颗粒物(PM2.5),108,149,108,81,62,15,,15,13,66,64,30,19,1.7,1.2
2026-01-23T1000,4237A,103.7251,36.104344,兰州市,安宁西路88号,细颗粒物(PM2.5),95,138,112,71,57,10,,6,4,70,66,23,20,1.3,1
2026-01-23T1000,4238A,103.846982,36.067567,兰州市,北滨河东路1号,细颗粒物(PM2.5),105,134,102,79,63,6,,3,3,65,64,25,17,2.5,1.5
2026-01-23T1000,1067A,116.6712,39.5109,廊坊市,药材公司,细颗粒物(PM2.5),68,82,94,49,70,8,,2,2,59,62,4,6,1.1,1.1
2026-01-23T1000,1068A,116.7215,39.5592,廊坊市,开发区,,44,44,83,29,58,16,,3,3,52,66,3,6,0.6,0.9
2026-01-23T1000,1070A,116.7246,39.5273,廊坊市,北华航天学院,,48,48,102,21,70,25,,5,5,41,65,3,5,0.6,1.2
2026-01-23T1000,2919A,116.7022,39.5454,廊坊市,河北工业大学,,,63,85,26,53,,,3,3,45,60,3,4,0.6,0.9
2026-01-23T1000,2536A,103.7629,29.5844,乐山市,牛耳桥,,49,42,47,34,39,8,,26,20,26,21,5,5,0.8,0.7
2026-01-23T1000,2537A,103.7501,29.6002,乐山市,市第三水厂,细颗粒物(PM2.5),53,42,47,37,40,4,,30,22,39,24,6,6,1.3,0.9
2026-01-23T1000,2538A,103.7571,29.5664,乐山市,市监测站,,50,38,48,35,40,9,,29,22,25,18,5,5,0.8,0.8
2026-01-23T1000,3361A,103.7313,29.563,乐山市,理工大学,,,38,48,31,39,,,31,26,19,16,6,6,0.7,0.6
2026-01-23T1000,2599A,100.2497,26.8802,丽江市,丽江古城,,39,39,33,20,19,63,,71,68,16,11,10,10,0.5,0.4
2026-01-23T1000,2600A,100.2203,26.8906,丽江市,市中心,,30,28,28,21,18,54,,68,60,22,15,7,6,0.5,0.5
2026-01-23T1000,1267A,119.9141,28.4513,丽水市,监测站大楼,细颗粒物(PM2.5),84,,51,62,63,26,,24,22,31,25,7,6,0.5,0.4
2026-01-23T1000,1268A,119.93,28.4589,丽水市,莲都小学,细颗粒物(PM2.5),75,78,72,55,52,32,,21,21,30,34,/,/,/,/
2026-01-23T1000,1269A,119.8794,28.4232,丽水市,余庄前,细颗粒物(PM2.5),82,76,64,60,50,27,,16,16,36,28,6,5,0.4,0.4
2026-01-23T1000,1173A,119.1759,34.5885,连云港市,市环境监测站,细颗粒物(PM2.5),67,73,65,48,50,47,,36,36,35,36,14,12,0.8,0.7
2026-01-23T1000,3000A,119.3577,34.6971,连云港市,德源药业,颗粒物(PM10),59,68,69,41,45,44,,18,18,42,47,8,8,0.6,0.5
2026-01-23T1000,3007A,119.178,34.8442,连云港市,新城一中,细颗粒物(PM2.5),104,82,69,78,55,40,,32,32,54,46,14,13,1.1,0.9
2026-01-23T1000,3008A,119.3607,34.7519,连云港市,胡沟管理处,细颗粒物(PM2.5),64,70,52,46,37,42,,54,52,47,40,9,9,0.9,0.7
2026-01-23T1000,3009A,119.1478,34.5913,连云港市,矿山设计院,细颗粒物(PM2.5),64,68,64,46,43,50,,25,25,29,33,15,11,0.9,0.8
2026-01-23T1000,3434A,119.2414,34.6539,连云港市,工贸学校,细颗粒物(PM2.5),69,61,57,50,46,57,,66,61,27,21,16,15,0.8,0.7
2026-01-23T1000,3664A,119.4171,34.734,连云港市,连云街道,细颗粒物(PM2.5),64,66,56,46,41,60,,38,34,25,35,12,10,0.8,0.7
2026-01-23T1000,2573A,102.2629,27.8981,凉山彝族自治州,西昌市政府,细颗粒物(PM2.5),65,53,41,47,32,29,,55,46,33,16,8,7,1.0,0.6
2026-01-23T1000,2574A,102.2686,27.885,凉山彝族自治州,凉山州政府,颗粒物(PM10),60,69,47,34,28,23,,41,35,35,21,9,7,0.9,0.6
2026-01-23T1000,4229A,102.2342,27.8859,凉山彝族自治州,凯乐南路30号,细颗粒物(PM2.5),72,82,56,52,45,10,,9,7,36,33,9,8,1.0,0.8
2026-01-23T1000,2212A,123.1978,41.2036,辽阳市,宏伟区,细颗粒物(PM2.5),105,129,56,79,42,,,27,22,38,20,25,13,1.8,1
2026-01-23T1000,2213A,123.1684,41.2497,辽阳市,新华园,细颗粒物(PM2.5),133,116,61,101,41,23,,22,22,52,37,43,22,1.9,0.9
2026-01-23T1000,2214A,123.2355,41.2663,辽阳市,滨河路,细颗粒物(PM2.5),80,97,52,59,32,22,,25,18,38,27,18,11,2.5,0.9
2026-01-23T1000,4083A,123.153,41.2874,辽阳市,铁西路150号,细颗粒物(PM2.5),102,122,70,76,45,26,,16,16,44,39,27,24,2.2,1.5
2026-01-23T1000,2227A,125.1359,42.8845,辽源市,环保局,颗粒物(PM10),59,67,49,25,38,53,,18,18,21,40,6,5,1.0,1.1
2026-01-23T1000,4085A,125.0998,42.9134,辽源市,安宁大街333号,,49,49,45,27,33,54,,23,23,12,19,10,5,0.7,0.9
2026-01-23T1000,1625A,115.9789,36.4372,聊城市,区政府,,,,83,,57,,,78,57,,29,,13,,0.8
2026-01-23T1000,3200A,115.9772,36.4986,聊城市,监控中心,细颗粒物(PM2.5),98,84,78,73,60,60,,66,62,32,27,9,8,0.8,0.7
2026-01-23T1000,3513A,116.0443,36.436,聊城市,九州社区,细颗粒物(PM2.5),92,92,85,68,62,56,,67,62,25,15,5,5,0.7,0.7
2026-01-23T1000,4018A,116.0564,36.4609,聊城市,星美广场,细颗粒物(PM2.5),93,90,85,69,56,56,,64,60,22,17,5,4,0.7,0.6
2026-01-23T1000,4113A,116.0091,36.4495,聊城市,利民路,细颗粒物(PM2.5),93,87,79,69,57,50,,54,50,28,26,12,10,0.8,0.8
2026-01-23T1000,2632A,94.3683,29.6373,林芝市,林芝监测站,,22,18,19,15,11,36,,52,46,15,5,13,3,0.7,0.3
2026-01-23T1000,2633A,94.3616,29.6634,林芝市,林芝人民医院,,27,27,21,16,11,34,,58,50,20,10,10,3,0.8,0.4
2026-01-23T1000,2603A,100.0779,23.8981,临沧市,市环保局,,50,,39,35,43,31,,35,30,12,12,6,7,0.6,0.6
2026-01-23T1000,2604A,100.0894,23.882,临沧市,市气象局,颗粒物(PM10),57,64,51,38,31,25,,35,29,17,11,7,10,0.6,0.5
2026-01-23T1000,1733A,111.5552,36.0791,临汾市,临钢医院,,,127,97,69,60,,,6,6,36,38,7,9,2.0,1.7
2026-01-23T1000,1734A,111.4984,36.0734,临汾市,技工学校,"颗粒物(PM10),细颗粒物(PM2.5)",84,117,90,62,65,8,,2,2,40,40,7,10,1.5,1.2
2026-01-23T1000,1736A,111.5017,36.0857,临汾市,市委,颗粒物(PM10),79,108,97,54,56,12,,3,3,39,43,11,13,1.5,1.3
2026-01-23T1000,3018A,111.5048,36.1015,临汾市,唐尧大酒店,颗粒物(PM10),85,119,102,57,58,12,,4,4,40,46,7,9,1.3,1.2
2026-01-23T1000,4244A,111.4879,36.053,临汾市,启星学校,颗粒物(PM10),86,122,87,55,56,6,,2,2,54,54,10,11,1.5,1.3
2026-01-23T1000,4271A,103.2464,35.6123,临夏回族自治州,滨河东路1号,细颗粒物(PM2.5),124,164,162,94,95,7,,12,10,42,39,7,8,1.7,1.7
2026-01-23T1000,4310A,103.207136,35.599807,临夏回族自治州,新华街21号,细颗粒物(PM2.5),143,167,153,109,96,12,,12,12,40,37,12,11,2.2,1.6
2026-01-23T1000,1618A,118.3429,35.0532,临沂市,沂河小区,细颗粒物(PM2.5),95,102,69,71,54,47,,56,53,47,28,24,17,1.0,0.8
2026-01-23T1000,1619A,118.2962,35.0568,临沂市,鲁南制药厂,,,,72,,55,,,40,37,59,37,26,20,1.4,1
2026-01-23T1000,1620A,118.2793,34.9976,临沂市,新光毛纺厂,细颗粒物(PM2.5),89,83,64,66,50,46,,44,43,51,35,20,17,0.9,0.9
2026-01-23T1000,1621A,118.3955,35.0889,临沂市,河东保险公司,细颗粒物(PM2.5),142,151,77,108,55,43,,39,26,70,36,22,14,1.4,1
2026-01-23T1000,3370A,118.3563,35.0215,临沂市,十里堡居委,细颗粒物(PM2.5),104,124,87,78,60,42,,37,32,64,46,41,29,1.2,0.9
2026-01-23T1000,3496A,118.359,35.1067,临沂市,南坊新区,细颗粒物(PM2.5),89,88,64,66,47,57,,68,65,39,29,15,14,0.7,0.7
2026-01-23T1000,3860A,118.3915,35.0297,临沂市,皇山花园小区,细颗粒物(PM2.5),98,97,81,73,53,53,,50,44,54,44,30,24,1.1,0.9
2026-01-23T1000,1870A,109.4854,24.3898,柳州市,柳东小学,,32,32,28,20,25,37,,32,32,8,7,7,8,0.7,0.6
2026-01-23T1000,1871A,109.4109,24.3304,柳州市,环保监测站,,30,,25,21,23,36,,38,36,13,11,5,5,0.6,0.5
2026-01-23T1000,1872A,109.3886,24.3408,柳州市,河西水厂,,37,37,33,19,21,34,,39,38,12,10,5,6,0.2,0.4
2026-01-23T1000,1873A,109.4263,24.2951,柳州市,市四中,,28,23,25,19,19,32,,37,36,17,11,10,10,1.0,0.8
2026-01-23T1000,1874A,109.396,24.3658,柳州市,市九中,,32,23,27,22,26,35,,32,32,10,14,8,9,0.5,0.5
2026-01-23T1000,1875A,109.4912,24.3164,柳州市,古亭山,,26,26,26,16,17,39,,36,36,12,9,7,7,1.0,1
2026-01-23T1000,3402A,109.5422,24.3994,柳州市,市二中,,25,18,25,17,22,41,,36,36,13,13,8,8,0.5,0.5
2026-01-23T1000,2307A,116.5078,31.7369,六安市,监测大楼,细颗粒物(PM2.5),64,59,42,46,33,35,,28,26,32,24,5,4,0.5,0.4
2026-01-23T1000,2308A,116.4738,31.7642,六安市,皖西学院,,,,50,,32,,,21,16,45,28,,5,0.8,0.5
2026-01-23T1000,2309A,116.4997,31.7904,六安市,朝阳厂,颗粒物(PM10),71,91,46,51,33,20,,16,13,52,34,7,5,1.0,0.6
2026-01-23T1000,2310A,116.5566,31.7885,六安市,开发区,细颗粒物(PM2.5),92,91,54,68,44,39,,19,16,29,30,4,4,0.6,0.5
2026-01-23T1000,2577A,104.8293,26.592,六盘水市,黄土坡,,35,27,30,24,25,31,,27,25,17,19,11,9,0.9,0.9
2026-01-23T1000,2579A,104.8481,26.5898,六盘水市,民中,,40,40,31,27,26,17,,27,22,29,18,8,5,1.0,0.9
2026-01-23T1000,2580A,104.9541,26.5506,六盘水市,双水,,46,41,35,32,23,26,,38,34,18,14,4,5,0.8,0.8
2026-01-23T1000,4151A,104.8899,26.5685,六盘水市,钟山大道中段564号,,45,36,36,31,24,21,,28,24,17,13,8,7,1.0,0.9
2026-01-23T1000,2336A,117.022,25.1031,龙岩市,龙岩市监测站,,27,27,17,17,15,13,,10,10,18,20,17,13,0.6,0.6
2026-01-23T1000,2337A,117.0257,25.0662,龙岩市,闽西职业技术学院,,25,25,20,16,16,12,,11,11,14,15,13,9,0.9,0.8
2026-01-23T1000,2338A,117.0195,25.0306,龙岩市,龙岩学院,,29,24,21,20,18,9,,10,10,18,16,14,11,/,/
2026-01-23T1000,2885A,104.9344,33.3827,陇南市,滨江中学,颗粒物(PM10),52,53,79,35,38,22,,14,14,24,36,8,10,1.0,1.6
2026-01-23T1000,3247A,104.9551,33.3709,陇南市,市总工会,细颗粒物(PM2.5),59,64,60,42,36,13,,23,19,37,24,11,9,1.0,0.8
2026-01-23T1000,2488A,111.9984,27.7346,娄底市,市监测站,细颗粒物(PM2.5),80,89,80,59,60,14,,6,6,36,38,9,13,1.2,1.4
2026-01-23T1000,2491A,111.9888,27.7035,娄底市,市政府,细颗粒物(PM2.5),107,,68,80,60,22,,13,12,11,16,6,8,0.9,1.1
2026-01-23T1000,4127A,111.9812,27.7591,娄底市,涟钢职大,细颗粒物(PM2.5),69,72,78,50,54,10,,8,8,26,26,11,8,1.7,1.2
2026-01-23T1000,4128A,112.0303,27.7457,娄底市,娄底体校,细颗粒物(PM2.5),82,62,61,60,53,12,,10,7,13,11,2,5,0.4,0.7
2026-01-23T1000,1894A,105.4427,28.9063,泸州市,小市上码头,细颗粒物(PM2.5),72,76,50,52,38,5,,4,3,36,27,5,4,1.0,1
2026-01-23T1000,1895A,105.4241,28.8573,泸州市,兰田宪桥,细颗粒物(PM2.5),69,70,48,50,33,6,,6,5,29,20,8,7,1.2,1.1
2026-01-23T1000,1896A,105.4378,28.8833,泸州市,市环监站,,,73,47,49,33,,,8,7,32,22,9,9,1.4,1.1
2026-01-23T1000,4272A,105.3689,28.7783,泸州市,纳溪中医医院,细颗粒物(PM2.5),68,63,54,49,39,3,,5,4,23,19,8,8,0.9,0.8
2026-01-23T1000,2183A,111.1447,37.5212,吕梁市,环保局,颗粒物(PM10),71,92,71,25,28,11,,5,5,39,47,7,3,0.4,0.3
2026-01-23T1000,2185A,111.1285,37.5338,吕梁市,自来水公司,颗粒物(PM10),77,103,96,44,39,12,,4,4,32,38,18,7,0.7,0.7
2026-01-23T1000,2867A,111.1225,37.5093,吕梁市,马茂庄小学,颗粒物(PM10),76,102,84,37,30,16,,4,4,34,46,18,6,0.6,0.6
2026-01-23T1000,1812A,112.3934,34.6517,洛阳市,市委党校,细颗粒物(PM2.5),117,106,97,88,86,23,,54,42,43,28,10,10,1.2,1
2026-01-23T1000,1815A,112.494,34.6883,洛阳市,河南林校,细颗粒物(PM2.5),132,113,107,100,95,31,,48,40,40,30,9,10,1.2,1
2026-01-23T1000,1816A,112.3843,34.623,洛阳市,开发区管委会,细颗粒物(PM2.5),132,117,122,100,100,30,,43,32,35,30,12,12,1.0,0.9
2026-01-23T1000,1817A,112.4263,34.6249,洛阳市,市委新办公区,细颗粒物(PM2.5),132,119,119,100,96,34,,52,44,35,29,10,11,1.0,0.9
2026-01-23T1000,3340A,112.6005,34.6323,洛阳市,伊滨,细颗粒物(PM2.5),160,161,135,122,99,29,,47,44,41,37,9,8,1.1,0.9
2026-01-23T1000,3341A,112.495,34.6338,洛阳市,中移产业园,细颗粒物(PM2.5),166,134,99,126,101,29,,57,49,46,35,11,12,1.4,1
2026-01-23T1000,3593A,112.5736,34.8993,洛阳市,吉利监测站,细颗粒物(PM2.5),148,123,104,113,102,34,,47,41,56,44,11,11,1.3,1.1
2026-01-23T1000,3635A,112.3678,34.6623,洛阳市,河科大西苑校区,细颗粒物(PM2.5),149,163,111,114,90,13,,50,36,59,33,10,9,1.2,0.9
2026-01-23T1000,3636A,112.4387,34.678,洛阳市,英才小学,细颗粒物(PM2.5),148,140,119,113,97,18,,47,34,56,35,10,11,1.6,1
2026-01-23T1000,4214A,112.460027,34.694929,洛阳市,春都路1号院,细颗粒物(PM2.5),112,128,126,84,82,,,31,22,42,33,8,9,1.5,1.2
2026-01-23T1000,2399A,114.051,33.5721,漯河市,三五一五工厂,细颗粒物(PM2.5),162,147,117,123,95,25,,47,35,62,32,9,8,1.3,1
2026-01-23T1000,2400A,114.0055,33.5698,漯河市,漯河大学,细颗粒物(PM2.5),107,86,93,80,88,55,,65,58,26,21,6,7,0.8,0.7
2026-01-23T1000,2401A,114.0134,33.5826,漯河市,市水利局,细颗粒物(PM2.5),98,90,98,73,89,45,,53,47,23,21,4,5,0.9,0.8
2026-01-23T1000,2402A,114.0261,33.5697,漯河市,市广电局,细颗粒物(PM2.5),155,129,98,118,93,24,,54,43,58,25,7,7,1.0,0.7
2026-01-23T1000,3478A,113.9691,33.568,漯河市,市图书馆,细颗粒物(PM2.5),100,90,113,75,92,57,,67,60,15,18,7,7,0.8,0.8
2026-01-23T1000,4250A,114.089259,33.588274,漯河市,韶山路11号,细颗粒物(PM2.5),166,152,119,126,95,15,,44,27,65,32,8,7,0.9,0.8
2026-01-23T1000,1798A,118.5084,31.6838,马鞍山市,湖东路四小,细颗粒物(PM2.5),87,103,61,64,39,24,,16,16,45,42,8,4,0.9,0.6
2026-01-23T1000,1799A,118.5019,31.6449,马鞍山市,开发区,细颗粒物(PM2.5),100,117,71,75,52,20,,7,7,47,47,8,5,1.0,0.7
2026-01-23T1000,3633A,118.4914,31.681,马鞍山市,雨山,细颗粒物(PM2.5),93,102,59,69,41,28,,16,16,45,41,14,9,1.0,0.7
2026-01-23T1000,4191A,118.527362,31.722269,马鞍山市,慈湖高新区,细颗粒物(PM2.5),94,107,65,70,43,21,,23,20,52,42,9,6,1.0,0.6
2026-01-23T1000,1686A,111.0285,21.469,茂名市,电白南海,颗粒物(PM10),51,51,57,24,30,27,,28,28,21,20,14,13,0.8,0.9
2026-01-23T1000,1687A,110.9294,21.6533,茂名市,茂石化七小,颗粒物(PM10),56,61,47,31,25,19,,19,18,22,20,29,10,1.3,1
2026-01-23T1000,1688A,110.9108,21.6688,茂名市,健康路,,49,41,40,34,27,21,,22,22,25,22,26,16,1.1,0.9
2026-01-23T1000,1689A,110.8592,21.6826,茂名市,高岭,颗粒物(PM10),51,51,47,19,21,19,,19,19,20,19,20,20,/,/
2026-01-23T1000,3450A,111.0101,21.5165,茂名市,电白水东,颗粒物(PM10),53,56,55,24,31,30,,29,29,18,17,11,12,/,/
2026-01-23T1000,2540A,103.8414,30.0871,眉山市,气象局,,49,46,52,34,39,7,,35,25,34,18,11,11,0.8,0.7
2026-01-23T1000,3148A,103.829,30.0563,眉山市,区人社局,,,46,51,29,36,,,31,24,35,18,5,6,0.9,0.8
2026-01-23T1000,4148A,103.8836,30.0695,眉山市,眉职院,,39,39,50,26,35,14,,32,26,22,11,1,1,1.0,0.9
2026-01-23T1000,1690A,116.1248,24.3307,梅州市,梅江月梅,,32,32,17,18,13,6,,3,3,20,19,/,/,/,/
2026-01-23T1000,1691A,116.0798,24.2719,梅州市,梅县新城,,39,33,18,27,16,10,,9,9,18,17,7,7,0.5,0.6
2026-01-23T1000,3315A,116.1234,24.2994,梅州市,梅龙,,34,34,20,20,13,8,,5,5,16,17,8,7,0.8,0.8
2026-01-23T1000,1878A,104.7775,31.4741,绵阳市,富乐山,,49,37,43,34,38,20,,21,20,17,15,8,8,0.6,0.6
2026-01-23T1000,1880A,104.6698,31.4668,绵阳市,高新区自来水公司,细颗粒物(PM2.5),67,60,52,48,42,5,,18,14,38,25,8,8,1.0,0.8
2026-01-23T1000,3491A,104.6899,31.5324,绵阳市,西科大附属小学,细颗粒物(PM2.5),53,54,57,37,40,7,,14,12,35,28,8,8,0.8,0.6
2026-01-23T1000,3492A,104.5647,31.5343,绵阳市,安州区旅游局,细颗粒物(PM2.5),64,63,50,46,41,7,,10,6,29,30,12,11,0.7,0.5
2026-01-23T1000,4146A,104.7092,31.4972,绵阳市,科技城新区公安局,细颗粒物(PM2.5),53,51,46,37,32,8,,24,19,37,27,9,9,0.9,0.8
2026-01-23T1000,4226A,104.765114,31.453094,绵阳市,绵阳市气象局,细颗粒物(PM2.5),52,42,40,36,34,10,,21,18,26,20,5,6,0.8,0.7
2026-01-23T1000,1784A,129.61,44.561,牡丹江市,环保大楼,,41,41,35,23,18,57,,50,50,17,16,7,5,0.4,0.3
2026-01-23T1000,1787A,129.6364,44.6075,牡丹江市,机车工厂,颗粒物(PM10),52,54,54,34,33,51,,35,34,23,22,5,5,0.5,0.6
2026-01-23T1000,1788A,129.6386,44.5462,牡丹江市,第一中学,,38,38,30,23,18,56,,42,38,15,21,8,5,0.4,0.3
2026-01-23T1000,4287A,129.5992,44.5964,牡丹江市,东晓云街98号,细颗粒物(PM2.5),69,55,42,50,36,57,,34,34,18,19,6,5,0.7,0.8
2026-01-23T1000,2531A,105.0703,29.61,内江市,市监测站,细颗粒物(PM2.5),64,50,39,46,31,16,,25,22,16,14,4,4,0.7,0.7
2026-01-23T1000,2533A,105.0657,29.5807,内江市,内江二中,颗粒物(PM10),55,60,44,35,25,8,,16,13,29,23,4,4,0.5,0.5
2026-01-23T1000,2534A,105.0407,29.5828,内江市,内江日报社,,50,40,35,35,27,10,,20,17,27,25,5,4,0.8,0.8
2026-01-23T1000,4147A,105.0433,29.6105,内江市,玉峰路西段888号,细颗粒物(PM2.5),60,50,33,43,28,13,,22,18,25,22,2,2,1.1,1.1
2026-01-23T1000,2628A,92.0653,31.4846,那曲市,那曲监测站,细颗粒物(PM2.5),54,55,41,38,27,23,,22,22,31,25,17,9,1.5,1.3
2026-01-23T1000,4243A,92.0515,31.4787,那曲市,那曲市委宣传部,细颗粒物(PM2.5),54,50,28,38,19,15,,22,18,25,17,13,7,1.3,1.2
2026-01-23T1000,1291A,115.8887,28.7006,南昌市,省林业公司,细颗粒物(PM2.5),79,78,56,58,49,27,,24,20,36,20,8,5,0.4,0.3
2026-01-23T1000,1292A,115.813,28.7443,南昌市,林科所,细颗粒物(PM2.5),70,66,56,51,46,30,,8,8,34,37,7,4,0.5,0.5
2026-01-23T1000,1294A,115.8518,28.687,南昌市,建工学校,细颗粒物(PM2.5),75,73,61,55,50,25,,15,13,40,39,10,8,0.8,0.7
2026-01-23T1000,1295A,115.8926,28.6425,南昌市,象湖,细颗粒物(PM2.5),85,,51,63,50,14,,14,9,34,25,11,9,0.7,0.6
2026-01-23T1000,3046A,115.9084,28.6062,南昌市,机电学校,细颗粒物(PM2.5),89,92,76,66,56,16,,9,7,27,29,8,5,0.6,0.5
2026-01-23T1000,3690A,115.9718,28.7032,南昌市,外国语学校,细颗粒物(PM2.5),89,85,65,66,49,33,,18,16,31,31,14,12,0.6,0.5
2026-01-23T1000,4106A,115.7923,28.6873,南昌市,工业二路,细颗粒物(PM2.5),73,79,62,53,47,14,,20,12,36,22,6,4,0.8,0.6
2026-01-23T1000,4192A,115.931587,28.686774,南昌市,南京东路235号,,,72,57,65,55,24,,15,12,,29,8,6,0.6,0.5
2026-01-23T1000,1906A,106.0791,30.8022,南充市,南充市委,细颗粒物(PM2.5),60,49,47,43,41,4,,3,3,19,26,4,4,0.7,0.7
2026-01-23T1000,1907A,106.1038,30.8215,南充市,南充炼油厂,细颗粒物(PM2.5),67,57,57,48,46,4,,4,4,15,19,6,5,0.6,0.6
2026-01-23T1000,4227A,106.108336,30.788436,南充市,梨树横街98号,细颗粒物(PM2.5),65,55,52,47,39,5,,9,7,23,22,5,5,0.8,0.7
2026-01-23T1000,4304A,106.1172,30.843,南充市,清泉寺北路188号,,49,49,40,34,37,7,,12,10,12,17,6,7,0.5,0.6
2026-01-23T1000,4305A,106.067,30.7616,南充市,同庆路1号,细颗粒物(PM2.5),55,51,44,39,38,5,,7,7,26,34,6,6,0.8,0.9
2026-01-23T1000,1151A,118.8033,32.1085,南京市,迈皋桥,颗粒物(PM10),57,63,43,39,29,35,,26,24,42,37,7,5,0.7,0.6
2026-01-23T1000,1152A,118.7487,32.057,南京市,草场门,颗粒物(PM10),63,75,51,44,31,22,,14,14,50,47,6,3,1.1,0.7
2026-01-23T1000,1154A,118.770105,32.004342,南京市,中华门,细颗粒物(PM2.5),64,73,47,46,33,26,,12,12,45,35,6,4,0.9,0.6
2026-01-23T1000,1155A,118.8059,32.0329,南京市,瑞金路,细颗粒物(PM2.5),73,80,49,53,35,20,,9,9,33,31,4,4,1.4,1.2
2026-01-23T1000,1156A,118.7946,32.0774,南京市,玄武湖,"颗粒物(PM10),细颗粒物(PM2.5)",59,67,46,42,27,28,,32,27,30,22,4,4,0.8,0.4
2026-01-23T1000,1157A,118.6415,32.0964,南京市,浦口,颗粒物(PM10),61,72,50,42,29,25,,23,23,51,40,14,8,0.9,0.5
2026-01-23T1000,1158A,118.730129,32.000956,南京市,奥体中心,细颗粒物(PM2.5),67,82,52,48,35,34,,12,12,46,47,16,9,0.9,0.6
2026-01-23T1000,1159A,118.9072,32.1047,南京市,仙林大学城,颗粒物(PM10),64,78,51,44,30,21,,15,15,53,37,7,6,0.9,0.8
2026-01-23T1000,3422A,118.8443,31.919,南京市,江宁彩虹桥,细颗粒物(PM2.5),64,75,46,46,32,35,,12,12,54,58,4,4,0.8,0.6
2026-01-23T1000,3427A,118.8497,32.3599,南京市,六合雄州,颗粒物(PM10),63,76,50,42,29,24,,11,11,54,39,9,5,0.7,0.5
2026-01-23T1000,4086A,118.7641,32.0841,南京市,新模范马路66号,细颗粒物(PM2.5),74,88,54,54,33,46,,34,33,41,23,4,4,1.0,0.5
2026-01-23T1000,4249A,118.8707617,31.34017673,南京市,汶溪路181号,细颗粒物(PM2.5),84,63,52,62,43,42,,20,20,28,40,10,8,1.0,0.8
2026-01-23T1000,4312A,119.019,31.6512,南京市,中山西路1号,细颗粒物(PM2.5),83,68,50,61,40,27,,10,10,33,34,4,4,1.0,0.9
2026-01-23T1000,1401A,108.3098,22.788,南宁市,二十一中,,28,24,21,19,14,38,,29,29,17,18,4,4,0.6,0.6
2026-01-23T1000,1402A,108.3135,22.8529,南宁市,北湖,,28,21,22,19,11,32,,30,30,17,16,3,5,0.6,0.6
2026-01-23T1000,1403A,108.3205,22.8222,南宁市,市监测站,,32,32,24,18,15,34,,32,32,18,18,6,6,0.7,0.7
2026-01-23T1000,1404A,108.3828,22.8038,南宁市,大自然花园,,32,31,20,22,16,43,,32,32,7,9,7,6,0.6,0.6
2026-01-23T1000,1406A,108.2397,22.8462,南宁市,区农职院,,33,32,26,23,17,39,,32,32,24,16,8,8,1.0,1
2026-01-23T1000,1407A,108.3285,22.7356,南宁市,英华嘉园,,26,26,24,15,10,41,,28,28,11,13,4,3,0.8,0.8
2026-01-23T1000,3401A,108.4829,22.762,南宁市,红星社区,,32,28,22,22,19,44,,46,45,11,10,7,5,0.5,0.5
2026-01-23T1000,4132A,108.2927,23.1477,南宁市,起凤路9号,,36,32,26,25,20,32,,38,37,12,9,1,1,0.8,0.8
2026-01-23T1000,4221A,108.2177,22.7774,南宁市,乐贤路16号,,,35,31,22,17,,,18,17,22,20,,11,0.7,0.7
2026-01-23T1000,2332A,118.1682,26.6371,南平市,南平市监测站,细颗粒物(PM2.5),60,49,52,43,44,24,,12,12,21,22,6,4,0.5,0.4
2026-01-23T1000,2334A,118.1757,26.6276,南平市,南平七中,细颗粒物(PM2.5),58,44,44,41,42,19,,14,14,23,21,6,4,0.7,0.6
2026-01-23T1000,1168A,120.9056,31.9669,南通市,狼山街道,细颗粒物(PM2.5),88,85,63,65,50,37,,14,14,52,43,5,3,0.7,0.6
2026-01-23T1000,1170A,120.8635,32.0231,南通市,城中,细颗粒物(PM2.5),82,93,64,60,44,44,,39,36,35,29,7,7,1.1,1
2026-01-23T1000,1171A,120.9376,31.9301,南通市,星湖花园,细颗粒物(PM2.5),78,80,54,57,38,46,,39,38,47,35,8,5,0.6,0.5
2026-01-23T1000,1172A,120.8053,32.046,南通市,紫琅学院,细颗粒物(PM2.5),93,122,68,69,44,38,,33,27,49,36,10,4,1.4,0.6
2026-01-23T1000,3291A,121.0631,32.0644,南通市,通州监测站,细颗粒物(PM2.5),79,80,56,58,44,48,,56,55,35,25,7,4,0.7,0.7
2026-01-23T1000,3432A,120.9348,31.9874,南通市,环境教育馆,细颗粒物(PM2.5),85,85,66,63,53,36,,6,6,46,51,6,5,0.8,0.8
2026-01-23T1000,4091A,120.8692,31.9885,南通市,洪江路,细颗粒物(PM2.5),94,82,53,70,45,41,,36,30,33,27,6,3,0.8,0.6
2026-01-23T1000,2404A,112.5338,33.0086,南阳市,瓦房庄,细颗粒物(PM2.5),102,83,75,76,67,55,,61,57,15,15,10,7,0.7,0.7
2026-01-23T1000,2405A,112.5002,32.9734,南阳市,汉画馆,细颗粒物(PM2.5),109,98,77,82,67,41,,53,49,24,21,7,6,0.6,0.5
2026-01-23T1000,2406A,112.5778,33.0144,南阳市,气象站,细颗粒物(PM2.5),85,94,82,63,59,56,,67,62,17,15,10,6,0.7,0.7
2026-01-23T1000,2407A,112.548,32.9687,南阳市,理工学院,细颗粒物(PM2.5),82,79,71,60,52,47,,58,52,21,18,10,6,0.6,0.6
2026-01-23T1000,4008A,112.5233,32.9921,南阳市,卧龙区政府,细颗粒物(PM2.5),97,91,86,72,62,48,,58,52,17,15,9,6,0.7,0.7
2026-01-23T1000,1234A,121.8352,29.9111,宁波市,区环保大楼,,,67,59,39,33,,,9,9,40,47,,5,0.9,0.8
2026-01-23T1000,1235A,121.5595,29.8208,宁波市,万里学院,细颗粒物(PM2.5),73,72,67,53,43,24,,5,5,43,44,7,4,0.7,0.6
2026-01-23T1000,1236A,121.713,29.9564,宁波市,龙赛医院,细颗粒物(PM2.5),77,81,63,56,42,23,,9,9,49,47,5,4,0.6,0.5
2026-01-23T1000,1240A,121.5855,29.8635,宁波市,太古小学,细颗粒物(PM2.5),73,87,71,53,39,20,,7,7,47,48,5,4,0.8,0.6
2026-01-23T1000,1241A,121.5239,29.8673,宁波市,市环境监测中心,细颗粒物(PM2.5),67,66,58,48,42,25,,10,10,37,34,8,7,0.7,0.6
2026-01-23T1000,2871A,121.6156,29.9015,宁波市,万里国际学校,细颗粒物(PM2.5),73,64,52,53,40,31,,8,8,45,44,5,4,0.8,0.7
2026-01-23T1000,3710A,121.5593,29.8976,宁波市,白沙活动中心,细颗粒物(PM2.5),55,46,46,39,36,42,,18,18,32,38,6,5,0.7,0.6
2026-01-23T1000,4095A,121.8962,29.7529,宁波市,中科路88号,细颗粒物(PM2.5),55,52,46,39,33,51,,14,14,32,43,6,5,0.5,0.5
2026-01-23T1000,2341A,119.5387,26.6611,宁德市,宁德市监测站,,46,46,38,30,25,32,,32,29,23,25,5,4,0.6,0.5
2026-01-23T1000,3209A,119.5231,26.6562,宁德市,宁德一中,,46,44,35,32,27,38,,34,33,19,20,3,3,0.5,0.4
2026-01-23T1000,2618A,98.859,25.8541,怒江傈僳族自治州,州监测站,,34,34,35,22,22,30,,33,32,14,12,5,6,0.5,0.4
2026-01-23T1000,2619A,98.8607,25.8168,怒江傈僳族自治州,泸水一中,,,22,29,,26,16,,26,23,22,19,4,4,0.7,0.6
2026-01-23T1000,1888A,101.6891,26.571,攀枝花市,弄弄坪,,,,100,,82,,,10,6,54,36,46,19,3.4,1.3
2026-01-23T1000,1889A,101.577,26.5914,攀枝花市,河门口,细颗粒物(PM2.5),97,108,96,72,65,20,,20,17,36,27,20,24,1.6,1.4
2026-01-23T1000,1891A,101.7365,26.4986,攀枝花市,仁和,细颗粒物(PM2.5),118,115,94,89,69,13,,19,14,37,27,10,11,1.7,1.1
2026-01-23T1000,2835A,101.7222,26.567,攀枝花市,四十中小,细颗粒物(PM2.5),109,120,88,82,62,8,,10,9,2,26,22,20,2.2,1.4
2026-01-23T1000,1604A,122.0303,41.1489,盘锦市,开发区,,,27,43,18,30,,,12,12,17,23,6,4,1.1,1.3
2026-01-23T1000,1605A,122.0486,41.0883,盘锦市,兴隆台,,32,27,34,22,26,43,,11,11,29,38,10,7,0.8,0.9
2026-01-23T1000,1606A,121.8297,41.1026,盘锦市,新生街道,,29,21,26,20,17,40,,24,24,35,32,10,9,0.5,0.6
2026-01-23T1000,1832A,113.3257,33.7423,平顶山市,新华旅馆,细颗粒物(PM2.5),104,110,110,78,73,61,,31,31,21,42,8,6,0.7,0.8
2026-01-23T1000,1833A,113.2917,33.737,平顶山市,规划设计院,细颗粒物(PM2.5),104,114,97,78,70,56,,48,44,18,20,8,6,0.7,0.7
2026-01-23T1000,1834A,113.182,33.7738,平顶山市,平顶山工学院,细颗粒物(PM2.5),107,99,84,80,73,58,,56,49,25,18,8,7,0.7,0.6
2026-01-23T1000,3594A,112.8736,33.9068,平顶山市,石龙区,细颗粒物(PM2.5),132,119,128,100,102,66,,61,61,17,24,6,6,0.8,0.8
2026-01-23T1000,4116A,113.284,33.7139,平顶山市,姚电大道23号,细颗粒物(PM2.5),119,128,104,90,75,55,,48,41,28,28,8,6,0.8,0.6
2026-01-23T1000,2656A,106.6633,35.5338,平凉市,聚贤嘉苑,"颗粒物(PM10),细颗粒物(PM2.5)",52,54,67,36,39,19,,18,15,34,35,20,22,0.7,0.7
2026-01-23T1000,2657A,106.7021,35.5307,平凉市,博物馆,细颗粒物(PM2.5),64,69,77,46,50,20,,14,13,34,37,13,14,1.1,1.1
2026-01-23T1000,2348A,113.8384,27.6436,萍乡市,中医院,细颗粒物(PM2.5),89,100,114,66,76,24,,13,13,35,43,8,6,0.9,1
2026-01-23T1000,2350A,113.8677,27.6438,萍乡市,市环保局,细颗粒物(PM2.5),87,79,103,64,86,31,,15,15,20,28,18,14,2.2,1.3
2026-01-23T1000,2351A,113.8663,27.6202,萍乡市,安源区政府,细颗粒物(PM2.5),80,89,98,59,78,24,,12,12,20,25,9,11,1.0,1.1
2026-01-23T1000,4107A,113.8686,27.6668,萍乡市,联洪村委会,细颗粒物(PM2.5),94,89,109,70,82,21,,11,11,27,34,6,5,1.2,1
2026-01-23T1000,2319A,119.0142,25.4324,莆田市,荔城区仓后路,,36,36,36,12,24,46,,49,47,14,17,/,/,/,/
2026-01-23T1000,2320A,119.0016,25.4553,莆田市,莆田市监测站,,20,20,25,7,20,45,,51,49,13,12,2,2,0.5,0.6
2026-01-23T1000,2321A,119.112,25.4561,莆田市,涵江区六中,,,51,34,25,25,,,42,42,45,24,/,/,0.6,0.5
2026-01-23T1000,2322A,119.1014,25.3215,莆田市,秀屿区政府,,46,46,37,25,32,44,,40,40,18,22,4,4,0.7,0.8
2026-01-23T1000,2392A,115.0312,35.7636,濮阳市,环保局,细颗粒物(PM2.5),107,,59,80,54,,,55,48,31,25,7,6,0.7,0.5
2026-01-23T1000,3021A,115,35.7667,濮阳市,濮水河管理处,细颗粒物(PM2.5),102,104,81,76,45,45,,63,50,30,23,5,6,0.8,0.6
2026-01-23T1000,4118A,115.0552,35.7816,濮阳市,中原东路68号,细颗粒物(PM2.5),102,103,82,76,62,46,,57,48,30,22,7,5,0.8,0.7
2026-01-23T1000,4216A,115.0923632,35.76857718,濮阳市,任丘路479号,细颗粒物(PM2.5),118,109,85,89,67,41,,48,44,33,24,7,5,0.9,0.8
2026-01-23T1000,2601A,100.9801,22.7634,普洱市,市环保局,颗粒物(PM10),69,87,54,18,13,16,,30,26,31,12,5,5,0.6,0.4
2026-01-23T1000,2602A,100.9763,22.8237,普洱市,普洱第二中学,颗粒物(PM10),54,57,46,12,22,17,,9,9,27,21,5,5,0.5,0.3
2026-01-23T1000,3345A,131.0413,45.7795,七台河市,中波台,,,,25,,15,61,,60,60,14,13,8,8,0.4,0.4
2026-01-23T1000,3637A,131.0136,45.7688,七台河市,人民广场,,29,29,31,17,14,63,,60,60,15,16,6,6,0.5,0.5
2026-01-23T1000,3684A,130.8639,45.8144,七台河市,新建矿广场,,48,48,28,26,19,42,,45,40,20,15,11,5,0.4,0.3
2026-01-23T1000,1779A,123.9307,47.3641,齐齐哈尔市,安居小区,,32,32,22,9,9,56,,53,52,14,14,9,9,0.7,0.6
2026-01-23T1000,1780A,123.9497,47.3389,齐齐哈尔市,中心广场,,25,18,15,17,8,55,,59,58,14,12,7,6,0.5,0.4
2026-01-23T1000,1781A,123.9483,47.3229,齐齐哈尔市,农牧车辆厂,,22,22,18,9,8,57,,60,58,10,10,6,5,0.3,0.3
2026-01-23T1000,1783A,123.9442,47.2994,齐齐哈尔市,市环境监测站,,25,25,23,3,8,58,,62,61,11,12,5,5,0.5,0.5
2026-01-23T1000,3662A,123.6341,47.2079,齐齐哈尔市,富区青少年活动中心,颗粒物(PM10),65,80,32,6,11,62,,60,58,10,16,5,7,0.6,0.7
2026-01-23T1000,2591A,107.9765,26.5724,黔东南苗族侗族自治州,市环境监测站,细颗粒物(PM2.5),80,70,46,59,41,9,,22,20,33,15,15,6,1.2,0.7
2026-01-23T1000,2881A,107.8909,26.531,黔东南苗族侗族自治州,凯里学院,,,58,41,41,35,,,25,22,,12,,3,,0.7
2026-01-23T1000,2593A,107.5223,26.2371,黔南布依族苗族自治州,小围寨,,45,31,39,31,36,27,,31,29,9,9,6,6,0.8,0.8
2026-01-23T1000,3538A,107.5175,26.2977,黔南布依族苗族自治州,沙坝,,49,48,49,34,42,34,,33,32,16,10,6,6,0.7,0.7
2026-01-23T1000,2589A,104.9022,25.0943,黔西南布依族苗族自治州,场坝街,,34,34,40,20,26,25,,30,28,11,13,2,4,0.8,0.8
2026-01-23T1000,2590A,104.8812,25.0994,黔西南布依族苗族自治州,坪东大道,,38,26,39,26,30,26,,31,30,10,13,4,6,0.9,0.9
2026-01-23T1000,2502A,108.6238,21.9667,钦州市,市环保站,颗粒物(PM10),51,51,36,14,9,28,,30,29,22,18,3,2,0.9,1.1
2026-01-23T1000,2503A,108.655,21.9481,钦州市,沙埠小学,,,,25,,17,,,39,,,16,,3,,0.6
2026-01-23T1000,2504A,108.5989,21.7435,钦州市,港区一小,,46,46,35,32,23,22,,22,22,22,20,4,4,0.7,0.7
2026-01-23T1000,3404A,108.5959,21.9634,钦州市,北职校,,49,34,22,34,21,30,,34,33,15,11,2,2,0.7,0.5
2026-01-23T1000,1046A,119.5247,39.9346,秦皇岛市,建设大厦,颗粒物(PM10),58,66,57,20,26,24,,9,9,38,38,16,10,1.0,1
2026-01-23T1000,3132A,119.5979,39.938,秦皇岛市,文明里,颗粒物(PM10),70,89,61,31,28,21,,5,5,52,48,25,14,0.6,0.8
2026-01-23T1000,4066A,119.7458,39.9952,秦皇岛市,南园路157号,颗粒物(PM10),55,60,51,24,25,24,,8,8,45,50,19,11,0.9,0.9
2026-01-23T1000,4067A,119.5131,39.8858,秦皇岛市,翠岛大街1号,颗粒物(PM10),58,66,66,26,27,26,,7,7,38,43,22,14,0.7,1
2026-01-23T1000,4198A,119.509013,39.825305,秦皇岛市,北戴河轮滑馆,,49,49,70,20,35,33,,11,11,35,46,10,12,0.6,1.1
2026-01-23T1000,1310A,120.404,36.0625,青岛市,市南区东部子站,细颗粒物(PM2.5),64,63,54,46,34,59,,38,38,39,35,12,13,0.8,0.7
2026-01-23T1000,1311A,120.362344,36.10282,青岛市,四方区子站,细颗粒物(PM2.5),73,66,58,53,39,43,,46,46,49,33,27,12,0.9,0.9
2026-01-23T1000,1312A,120.294373,36.054183,青岛市,市南区西部子站,细颗粒物(PM2.5),68,66,55,49,34,58,,39,39,45,43,6,7,0.6,0.7
2026-01-23T1000,1313A,120.4581,36.0858,青岛市,崂山区子站,细颗粒物(PM2.5),58,61,49,41,33,48,,34,32,49,35,14,13,0.6,0.5
2026-01-23T1000,1315A,120.3945,36.3083,青岛市,城阳区子站,颗粒物(PM10),73,95,66,49,35,40,,40,40,60,53,13,10,1.0,0.9
2026-01-23T1000,3642A,120.3454,36.0735,青岛市,市北区南部,细颗粒物(PM2.5),58,60,55,41,33,53,,35,35,42,36,4,5,0.8,0.8
2026-01-23T1000,3643A,120.3897,36.18,青岛市,李沧区北部,细颗粒物(PM2.5),85,70,53,63,43,58,,51,51,35,40,13,14,1.1,1.1
2026-01-23T1000,4110A,120.5222,36.4089,青岛市,盟旺路653号,细颗粒物(PM2.5),102,104,74,76,45,44,,40,40,56,48,14,8,1.7,0.9
2026-01-23T1000,4290A,120.196923,35.954556,青岛市,珠江路669号,,49,39,47,34,40,67,,43,41,40,35,7,8,0.9,1
2026-01-23T1000,4291A,120.0424,35.8656,青岛市,黄岛区人民政府广场,细颗粒物(PM2.5),94,95,62,70,39,42,,46,40,59,35,14,12,1.2,1
2026-01-23T1000,1703A,113.0218,23.7086,清远市,凤城街办,,30,30,21,20,14,15,,27,26,31,19,/,/,/,/
2026-01-23T1000,3025A,113.0479,23.6343,清远市,技师学院,,37,37,30,23,18,21,,22,22,31,24,10,6,0.7,0.6
2026-01-23T1000,3318A,112.9898,23.7403,清远市,清新太和,,26,26,21,18,14,24,,28,27,19,15,7,9,0.6,0.6
2026-01-23T1000,3455A,113.076,23.72,清远市,清城东城,,26,26,25,18,15,33,,31,31,16,18,/,/,/,/
2026-01-23T1000,2661A,107.6325,35.7357,庆阳市,庆阳五中,,,77,68,60,48,,,51,46,24,26,,8,,0.9
2026-01-23T1000,2662A,107.6361,35.7067,庆阳市,市环保局,细颗粒物(PM2.5),95,76,61,71,61,59,,56,55,18,19,8,10,0.9,1.2
2026-01-23T1000,1916A,103.7897,25.5036,曲靖市,环境监测站,颗粒物(PM10),55,60,55,28,29,29,,18,18,20,22,3,6,0.8,0.9
2026-01-23T1000,1917A,103.8013,25.5357,曲靖市,烟厂办公区,颗粒物(PM10),58,65,64,36,34,23,,17,17,24,26,4,12,0.7,1
2026-01-23T1000,3376A,103.7926,25.4651,曲靖市,南苑二区,细颗粒物(PM2.5),59,54,49,42,31,35,,22,22,11,14,4,5,0.8,0.9
2026-01-23T1000,3377A,103.7442,25.5259,曲靖市,曲靖师范学院,,,,66,,47,,,29,,,21,,12,,1.0
2026-01-23T1000,1264A,118.8694,28.94,衢州市,环保大楼,细颗粒物(PM2.5),89,78,68,66,58,20,,11,11,44,40,/,/,/,/
2026-01-23T1000,1266A,118.8622,28.9809,衢州市,衢州学院,细颗粒物(PM2.5),78,71,62,57,49,21,,7,7,42,41,6,5,0.8,0.6
2026-01-23T1000,4097A,118.9646,28.9832,衢州市,衢州三中,细颗粒物(PM2.5),92,94,80,68,58,14,,5,5,40,39,6,4,1.3,1.1
2026-01-23T1000,1611A,118.5818,24.9116,泉州市,涂山街,,32,26,31,22,28,50,,42,42,16,22,3,3,0.6,0.7
2026-01-23T1000,1612A,118.597,24.8976,泉州市,津头埔,,28,25,33,19,29,50,,40,40,15,20,4,5,0.4,0.5
2026-01-23T1000,1613A,118.6669,24.9422,泉州市,万安,,28,28,35,17,26,49,,41,41,16,23,4,4,0.4,0.4
2026-01-23T1000,4105A,118.6355,24.9148,泉州市,霞新路6号,,25,25,39,17,26,50,,38,38,19,26,/,/,0.5,0.6
2026-01-23T1000,2626A,88.8873,29.2723,日喀则市,日喀则监测站,,49,49,29,28,17,15,,18,18,14,19,6,11,0.6,0.8
2026-01-23T1000,3726A,88.8775,29.2425,日喀则市,林业技术推广中心,,48,48,23,13,11,24,,30,29,18,11,12,9,0.7,0.4
2026-01-23T1000,1659A,119.4711,35.421,日照市,监测站,细颗粒物(PM2.5),82,88,74,60,50,36,,19,19,59,52,16,15,1.0,1
2026-01-23T1000,1660A,119.523,35.4216,日照市,市政府广场,细颗粒物(PM2.5),74,73,69,54,49,54,,42,42,46,42,15,15,0.7,0.8
2026-01-23T1000,1661A,119.5511,35.4113,日照市,港务局,细颗粒物(PM2.5),94,90,84,70,61,51,,28,28,46,49,14,15,0.9,1
2026-01-23T1000,3507A,119.5326,35.4627,日照市,职业技术学院,,,75,67,56,42,,,44,42,42,41,14,14,1.0,1
2026-01-23T1000,3604A,119.3267,35.1043,日照市,岚山环保分局,细颗粒物(PM2.5),98,102,79,73,57,38,,40,38,49,38,91,33,2.1,1.1
2026-01-23T1000,1835A,111.1922,34.7752,三门峡市,市政府,细颗粒物(PM2.5),95,80,74,71,66,9,,4,4,47,50,15,14,1.1,0.9
2026-01-23T1000,1836A,111.1588,34.794,三门峡市,开发区,细颗粒物(PM2.5),89,97,88,66,58,7,,14,7,49,36,9,10,1.0,0.7
2026-01-23T1000,3039A,111.1911,34.7829,三门峡市,三门峡市第一小学,细颗粒物(PM2.5),93,95,78,69,57,8,,12,6,52,43,13,11,0.9,0.7
2026-01-23T1000,3598A,111.1031,34.719,三门峡市,富达温泉假日酒店,细颗粒物(PM2.5),107,115,86,80,63,14,,11,9,50,42,21,16,1.7,1
2026-01-23T1000,2324A,117.621,26.2626,三明市,三钢,细颗粒物(PM2.5),73,,40,53,42,22,,22,22,15,15,8,7,0.5,0.5
2026-01-23T1000,2325A,117.6352,26.2714,三明市,三明二中,细颗粒物(PM2.5),62,,33,44,34,23,,24,22,17,14,4,3,0.6,0.5
2026-01-23T1000,2326A,117.6028,26.2377,三明市,三元区政府,细颗粒物(PM2.5),64,,33,46,32,21,,25,23,18,15,10,6,0.6,0.5
2026-01-23T1000,1877A,109.4962,18.2682,三亚市,河西子站,,32,32,40,15,20,71,,70,70,9,9,3,3,0.6,0.6
2026-01-23T1000,3540A,109.7348,18.3443,三亚市,君悦子站,,45,45,38,18,21,60,,58,55,14,10,4,4,0.5,0.5
2026-01-23T1000,4135A,109.1714,18.3739,三亚市,城东小学站,,29,29,42,18,26,52,,54,54,9,12,/,/,/,/
2026-01-23T1000,2624A,91.7592,29.234,山南市,山南监测站,,26,26,22,13,12,24,,39,34,15,15,4,4,0.5,0.3
2026-01-23T1000,2625A,91.7701,29.2436,山南市,山南人民医院,,34,34,19,20,10,29,,46,39,21,13,7,8,0.7,0.6
2026-01-23T1000,1674A,116.6795,23.3666,汕头市,金平子站,,50,43,37,35,30,18,,10,10,23,20,8,7,1.0,0.9
2026-01-23T1000,1675A,116.7248,23.3632,汕头市,龙湖子站,,37,37,34,22,23,15,,10,10,20,18,12,11,/,/
2026-01-23T1000,1676A,116.7257,23.2774,汕头市,濠江子站,,46,43,38,32,34,19,,8,8,23,23,10,9,/,/
2026-01-23T1000,1677A,116.7518,23.4712,汕头市,澄海子站,,42,38,36,29,30,13,,8,8,15,17,7,7,0.7,0.7
2026-01-23T1000,1678A,116.6088,23.2539,汕头市,潮阳子站,,35,35,38,22,24,15,,9,9,17,19,9,8,0.8,0.7
2026-01-23T1000,3444A,116.4539,23.2684,汕头市,潮南峡山,,43,43,44,30,30,15,,8,8,16,20,8,8,0.9,0.8
2026-01-23T1000,3624A,116.4069,23.2533,汕头市,潮南子站,颗粒物(PM10),51,52,55,33,33,12,,7,7,20,25,8,8,/,/
2026-01-23T1000,1693A,115.3653,22.7751,汕尾市,市环保局,,42,32,27,29,23,21,,20,19,17,13,7,7,0.6,0.6
2026-01-23T1000,1695A,115.362,22.7926,汕尾市,新城中学,,36,28,27,25,23,22,,21,20,15,12,17,8,0.6,0.6
2026-01-23T1000,2645A,109.9155,33.8714,商洛市,监测站,颗粒物(PM10),56,61,53,37,42,20,,10,10,19,33,5,7,0.7,0.8
2026-01-23T1000,3045A,109.9647,33.8486,商洛市,商州区中学,颗粒物(PM10),56,61,49,39,39,13,,14,13,30,29,6,10,1.2,0.9
2026-01-23T1000,2408A,115.6701,34.4283,商丘市,环境监测站,细颗粒物(PM2.5),93,86,61,69,65,52,,54,47,25,25,4,3,0.7,0.6
2026-01-23T1000,2409A,115.6458,34.4047,商丘市,粮食局,细颗粒物(PM2.5),92,73,61,68,59,47,,57,51,21,18,5,5,0.8,0.7
2026-01-23T1000,3171A,115.6069,34.4465,商丘市,梁园区档案局,细颗粒物(PM2.5),83,,53,61,55,52,,58,52,24,20,2,4,0.7,0.5
2026-01-23T1000,4119A,115.6701,34.3767,商丘市,北海东路185号,细颗粒物(PM2.5),90,108,85,67,64,42,,52,45,24,24,2,2,0.8,0.7
2026-01-23T1000,4120A,115.6172,34.3704,商丘市,中山大街3号,细颗粒物(PM2.5),102,112,83,76,63,38,,49,44,35,29,5,5,0.4,0.3
2026-01-23T1000,1141A,121.401,31.2382,上海市,普陀,细颗粒物(PM2.5),79,68,58,58,45,50,,32,32,32,36,9,7,0.9,0.9
2026-01-23T1000,1142A,121.4774,31.2043,上海市,十五厂,细颗粒物(PM2.5),73,75,57,53,41,37,,30,26,50,43,7,7,0.8,1
2026-01-23T1000,1143A,121.4673,31.3011,上海市,虹口,细颗粒物(PM2.5),87,91,65,64,43,34,,19,18,49,43,9,9,0.6,0.6
2026-01-23T1000,1147A,121.4253,31.226,上海市,静安监测站,细颗粒物(PM2.5),75,74,58,55,46,44,,37,34,44,37,8,8,0.4,0.5
2026-01-23T1000,1148A,121.7029,31.1905,上海市,浦东川沙,细颗粒物(PM2.5),82,70,64,60,43,36,,12,12,52,48,9,7,0.3,0.4
2026-01-23T1000,1149A,121.5339,31.229,上海市,浦东新区监测站,细颗粒物(PM2.5),72,66,55,52,42,43,,35,33,43,38,7,7,0.9,0.8
2026-01-23T1000,1150A,121.5776,31.2038,上海市,浦东张江,细颗粒物(PM2.5),68,72,60,49,40,44,,24,22,37,38,8,7,0.7,0.7
2026-01-23T1000,3265A,121.4242,31.3303,上海市,宝山庙行,细颗粒物(PM2.5),82,82,71,60,43,35,,17,17,38,39,10,8,0.7,0.6
2026-01-23T1000,3266A,121.8789,31.4662,上海市,崇明上实东滩,细颗粒物(PM2.5),59,55,47,42,34,60,,33,33,20,13,8,4,0.1,0.1
2026-01-23T1000,3268A,121.316,31.2839,上海市,嘉定南翔,细颗粒物(PM2.5),83,81,62,61,40,29,,6,6,55,49,6,5,1.0,0.9
2026-01-23T1000,3269A,121.3357,30.7455,上海市,金山新城,细颗粒物(PM2.5),82,,49,60,43,48,,31,29,36,34,14,10,0.6,0.5
2026-01-23T1000,3270A,121.4996,31.0741,上海市,闵行浦江,细颗粒物(PM2.5),77,69,58,56,42,32,,16,16,36,32,8,7,0.5,0.5
2026-01-23T1000,3271A,121.2886,31.1663,上海市,青浦徐泾,细颗粒物(PM2.5),75,78,65,55,42,31,,8,8,48,54,7,6,0.7,0.8
2026-01-23T1000,3272A,121.2193,31.0382,上海市,松江图书馆,细颗粒物(PM2.5),82,84,71,60,44,37,,8,8,51,56,8,7,0.8,0.7
2026-01-23T1000,3273A,121.3904,31.206,上海市,长宁仙霞,细颗粒物(PM2.5),68,68,54,49,39,46,,31,30,31,30,9,8,0.2,0.3
2026-01-23T1000,3274A,121.7964,31.0507,上海市,浦东惠南,细颗粒物(PM2.5),75,70,60,55,35,46,,10,10,33,41,5,5,0.8,0.8
2026-01-23T1000,3544A,121.4891,30.925,上海市,奉贤南桥新城,细颗粒物(PM2.5),89,87,68,66,46,40,,34,30,36,36,4,4,0.7,0.6
2026-01-23T1000,4183A,121.417401,31.16637,上海市,冠生园路458号,细颗粒物(PM2.5),77,65,53,56,41,33,,25,22,51,38,5,4,0.8,0.8
2026-01-23T1000,4205A,121.541914,31.268301,上海市,宁武路151号,细颗粒物(PM2.5),89,102,69,66,42,27,,14,14,57,47,6,5,1.0,0.9
2026-01-23T1000,2382A,117.9758,28.4439,上饶市,市监测站,颗粒物(PM10),61,72,61,41,34,41,,30,29,34,28,8,8,/,/
2026-01-23T1000,2383A,117.9521,28.4637,上饶市,凤凰光学,颗粒物(PM10),60,70,63,33,31,21,,18,16,34,26,18,15,0.5,0.5
2026-01-23T1000,3685A,117.897,28.4316,上饶市,双创科技城,细颗粒物(PM2.5),68,67,58,49,41,35,,35,34,42,31,10,10,0.9,0.9
2026-01-23T1000,4211A,118.190438,28.444845,上饶市,裕丰大道,细颗粒物(PM2.5),83,79,77,61,49,29,,26,25,37,30,14,12,0.8,0.7
2026-01-23T1000,1669A,113.5821,24.7733,韶关市,市八中,,40,32,31,28,23,42,,38,38,14,15,7,7,0.5,0.5
2026-01-23T1000,1671A,113.5916,24.7973,韶关市,园林处,,39,,25,27,23,46,,41,41,12,14,6,6,/,/
