timepoint,stationcode,longitude,latitude,area,positionname,primarypollutant,aqi,pm10,pm10_24h,pm2_5,pm2_5_24h,o3,o3_24h,o3_8h,o3_8h_24h,no2,no2_24h,so2,so2_24h,co,co_24h
2024-09-14T1900,2566A,102.1879,31.914,阿坝藏族羌族自治州,州农科所,,19,14,16,3,7,58,,71,71,24,16,7,7,0,0
2024-09-14T1900,2568A,102.2502,31.8896,阿坝藏族羌族自治州,马师校,,20,10,14,8,8,63,,71,71,5,8,4,4,0.4,0.4
2024-09-14T1900,3994A,102.2165,31.9024,阿坝藏族羌族自治州,马尔康中学西区,,30,23,14,21,12,59,,75,75,14,8,6,5,0.4,0.4
2024-09-14T1900,2695A,80.292,41.1694,阿克苏地区,电视台,颗粒物(PM10),74,97,53,29,25,146,,122,122,10,13,8,4,0.4,0.4
2024-09-14T1900,2696A,80.2613,41.1551,阿克苏地区,艺术中心,颗粒物(PM10),74,98,46,34,21,132,,115,115,7,12,5,4,0.6,0.7
2024-09-14T1900,2204A,105.6467,38.8363,阿拉善盟,西城区西花园,颗粒物(PM10),64,78,51,34,16,53,,68,62,25,15,9,9,1.1,0.9
2024-09-14T1900,2205A,105.6985,38.8411,阿拉善盟,蒙二幼,颗粒物(PM10),61,71,39,19,12,28,,55,48,39,15,10,9,0.9,0.6
2024-09-14T1900,2206A,105.724,38.8516,阿拉善盟,环保局新楼,,42,42,31,16,12,49,,70,56,26,13,10,10,0.7,0.5
2024-09-14T1900,2708A,88.1264,47.8517,阿勒泰地区,市站,,21,10,9,3,5,67,,69,69,15,9,8,7,0.3,0.5
2024-09-14T1900,2630A,80.1161,32.5,阿里地区,阿里监测站,,,,7,3,6,94,,102,102,7,16,,4,,0.4
2024-09-14T1900,3192A,80.0903,32.5028,阿里地区,阿里藏医院,,31,6,8,3,8,97,,104,104,7,17,7,6,0.5,0.6
2024-09-14T1900,2642A,109.0318,32.6537,安康市,香溪洞,,28,26,39,14,16,88,,96,95,4,7,7,8,0.3,0.4
2024-09-14T1900,2643A,109.0281,32.6939,安康市,安康市监测站,,26,26,30,16,16,82,,94,93,8,10,6,11,0.6,0.6
2024-09-14T1900,2644A,109.0072,32.6975,安康市,汉滨区检察院,,30,21,28,9,14,93,,99,98,6,10,7,8,0.5,0.5
2024-09-14T1900,2291A,117.0809,30.5177,安庆市,环科院,,36,36,27,21,22,114,,108,108,10,11,7,8,0.9,0.9
2024-09-14T1900,2292A,117.0331,30.5119,安庆市,马山宾馆,,35,28,28,17,21,111,,110,110,12,11,8,8,0.5,0.6
2024-09-14T1900,2294A,116.9896,30.6145,安庆市,安庆大学,,31,22,25,13,18,97,,101,101,7,8,8,8,0.6,0.6
2024-09-14T1900,3173A,117.0598,30.5351,安庆市,市人大,,33,31,25,19,22,105,,105,105,10,8,7,8,0.9,0.9
2024-09-14T1900,3123A,105.9408,26.2431,安顺市,凤凰山,颗粒物(PM10),71,92,30,16,17,86,,88,88,8,14,8,7,0.5,0.5
2024-09-14T1900,3124A,105.9439,26.2564,安顺市,金钟山,,29,20,28,19,16,92,,90,90,6,6,6,6,0.5,0.5
2024-09-14T1900,3125A,105.8983,26.2481,安顺市,娄家坡,,28,20,17,16,13,89,,94,94,6,4,5,5,0.4,0.5
2024-09-14T1900,1819A,114.3551,36.1017,安阳市,红庙街,,38,38,48,21,23,92,,121,118,22,24,5,6,0.7,0.7
2024-09-14T1900,1820A,114.361,36.0681,安阳市,银杏小区,,,30,44,,,91,,124,119,20,19,4,5,0.7,0.7
2024-09-14T1900,3141A,114.3922,36.0878,安阳市,信访局,,44,44,46,19,28,91,,127,123,31,27,3,4,0.6,0.7
2024-09-14T1900,3669A,114.4705,36.0637,安阳市,左辅环卫站,颗粒物(PM10),52,54,62,20,29,88,,118,115,18,25,2,3,0.8,0.9
2024-09-14T1900,3703A,114.2917,36.0949,安阳市,安钢职工学校,,47,47,53,22,30,89,,117,113,27,30,12,10,1.2,0.9
2024-09-14T1900,1748A,123.044,41.1196,鞍山市,深沟寺,,25,25,27,12,9,40,,41,41,17,13,4,4,0.4,0.4
2024-09-14T1900,1749A,123.011,41.0931,鞍山市,太阳城,,19,19,25,10,11,44,,42,42,16,14,5,7,0.3,0.5
2024-09-14T1900,1750A,123.0485,41.1442,鞍山市,太平,,29,29,25,14,9,38,,40,40,24,18,6,5,0.5,0.6
2024-09-14T1900,1751A,122.9642,41.0971,鞍山市,铁西三道街,,32,32,39,17,13,33,,30,30,29,32,18,19,1.9,1.9
2024-09-14T1900,1752A,122.9341,41.0833,鞍山市,铁西工业园区,,20,20,27,12,9,48,,44,44,16,16,8,10,0.6,0.7
2024-09-14T1900,1753A,123.022,41.0821,鞍山市,明达新区,,23,23,27,10,8,38,,37,37,17,14,5,5,0.4,0.5
2024-09-14T1900,2195A,107.4212,40.761,巴彦淖尔市,附二中,,37,37,26,17,13,64,,71,70,17,8,5,6,0.4,0.3
2024-09-14T1900,2196A,107.37,40.7372,巴彦淖尔市,市环保大楼,,31,31,24,19,12,54,,78,73,19,6,4,4,0.5,0.4
2024-09-14T1900,1956A,86.1472,41.7538,巴音郭楞蒙古自治州,孔雀公园,颗粒物(PM10),83,116,121,23,30,102,,96,96,3,43,6,7,0.2,0.5
2024-09-14T1900,1957A,86.1972,41.7166,巴音郭楞蒙古自治州,棉纺厂,颗粒物(PM10),86,122,135,53,41,107,,101,101,5,34,5,6,0.3,0.3
2024-09-14T1900,1958A,86.2357,41.7173,巴音郭楞蒙古自治州,经济开发区,颗粒物(PM10),74,98,130,24,35,105,,100,100,6,22,7,7,0.2,0.3
2024-09-14T1900,2914A,106.7677,31.8794,巴中市,苏山坪,,40,19,21,16,16,127,,122,122,9,8,3,3,0.4,0.4
2024-09-14T1900,3182A,106.7656,31.8545,巴中市,丽阳花园,,37,31,31,20,21,116,,120,120,16,16,5,5,0.7,0.6
2024-09-14T1900,3183A,106.7418,31.8654,巴中市,圣泉水务公司,,36,27,25,20,19,114,,123,123,16,12,4,4,0.5,0.5
2024-09-14T1900,3616A,106.7616,31.8344,巴中市,市中心医院,,37,26,29,18,23,117,,120,120,11,17,5,5,0.5,0.6
2024-09-14T1900,2235A,122.7911,45.6077,白城市,洮北区环保局,,32,32,15,11,5,59,,77,77,18,9,6,6,0.1,0.1
2024-09-14T1900,2236A,122.8738,45.5725,白城市,市环保局,,43,43,24,13,6,32,,72,70,35,13,3,3,0.3,0.2
2024-09-14T1900,2231A,126.4219,41.9171,白山市,喜丰,,18,17,27,12,8,34,,61,57,13,9,5,6,0.6,0.6
2024-09-14T1900,2232A,126.4077,41.9419,白山市,环保局,,33,33,26,10,8,32,,56,51,9,10,10,9,0.7,0.7
2024-09-14T1900,2647A,104.1724,36.5446,白银市,第三小学,,28,28,35,13,16,68,,76,74,11,22,4,29,0.5,0.6
2024-09-14T1900,2648A,104.1465,36.5482,白银市,动力公司,,20,9,29,9,12,62,,76,73,15,20,9,18,0.5,0.6
2024-09-14T1900,2512A,106.6103,23.9011,百色市,市监测站,,26,26,32,17,15,56,,76,76,14,12,4,4,0.6,0.6
2024-09-14T1900,2513A,106.6538,23.8859,百色市,市中心血站,,42,42,44,19,25,106,,89,89,18,20,3,8,0.8,0.8
2024-09-14T1900,3406A,106.6085,23.8798,百色市,祈福高中,颗粒物(PM10),55,59,42,14,15,88,,79,79,11,14,8,3,0.6,0.8
2024-09-14T1900,2270A,117.396,32.939,蚌埠市,工人疗养院,颗粒物(PM10),53,55,48,19,23,109,,104,104,20,9,6,6,0.5,0.5
2024-09-14T1900,2271A,117.3605,32.9427,蚌埠市,百货大楼,,38,38,48,17,27,99,,97,97,14,7,6,6,0.6,0.6
2024-09-14T1900,2273A,117.4185,32.8911,蚌埠市,蚌埠学院,,34,34,37,19,28,77,,102,102,18,9,7,6,0.6,0.6
2024-09-14T1900,2274A,117.3533,32.9673,蚌埠市,淮上区政府,,36,36,40,19,27,95,,96,96,13,10,7,7,0.6,0.6
2024-09-14T1900,2275A,117.3145,32.8977,蚌埠市,高新区,,48,48,41,23,28,88,,100,100,22,11,6,6,0.7,0.7
2024-09-14T1900,3715A,117.3092,32.9314,蚌埠市,蚌埠田家炳中学,,45,45,47,21,28,84,,99,99,22,8,5,5,0.6,0.6
2024-09-14T1900,1585A,109.8756,40.6532,包头市,市环境监测站,,23,23,12,8,6,35,,68,48,37,18,13,8,0.6,0.5
2024-09-14T1900,1587A,109.9991,40.5842,包头市,包头八中,,20,16,12,14,6,46,,60,53,27,17,8,7,0.5,0.5
2024-09-14T1900,1588A,109.8538,40.6821,包头市,青山宾馆,,18,17,9,12,4,40,,70,48,30,13,15,7,0.8,0.6
2024-09-14T1900,1589A,109.8642,40.6288,包头市,惠龙物流,,21,21,11,3,5,44,,67,50,29,17,12,9,0.5,0.5
2024-09-14T1900,1590A,110.0377,40.5546,包头市,东河鸿龙湾,,20,20,9,7,3,46,,60,59,19,12,11,10,0.5,0.4
2024-09-14T1900,3283A,109.9154,40.5685,包头市,滨河大厦,,17,17,10,6,4,45,,64,56,28,16,11,10,0.5,0.5
2024-09-14T1900,3419A,109.9447,40.6261,包头市,包头市委党校,,19,19,10,6,3,46,,66,53,36,17,11,8,0.4,0.3
2024-09-14T1900,3683A,109.8331,40.6576,包头市,昆区政府,,26,26,11,14,4,39,,69,46,34,17,15,7,0.5,0.4
2024-09-14T1900,1930A,107.185,34.3063,宝鸡市,庙沟村,,34,32,17,11,7,107,,111,111,9,5,9,8,0.2,0.2
2024-09-14T1900,1931A,107.0708,34.3017,宝鸡市,竹园沟,,32,32,20,10,7,78,,100,100,19,14,9,9,0.4,0.4
2024-09-14T1900,1932A,107.1906,34.3672,宝鸡市,三陆医院,,36,36,31,7,10,111,,107,107,26,23,10,11,0.6,0.5
2024-09-14T1900,1933A,107.1431,34.3547,宝鸡市,监测站,颗粒物(PM10),53,56,35,21,10,78,,100,100,39,21,7,6,0.4,0.3
2024-09-14T1900,1934A,107.1186,34.3739,宝鸡市,技工学校,,34,34,27,17,12,108,,106,106,25,16,9,8,0.6,0.5
2024-09-14T1900,1935A,107.3906,34.3528,宝鸡市,陈仓区环保局家属楼,,35,30,24,10,9,112,,109,109,20,20,10,9,0.6,0.5
2024-09-14T1900,1936A,107.2058,34.3497,宝鸡市,文理学院,,34,18,22,3,7,108,,111,111,24,17,10,10,0.5,0.4
2024-09-14T1900,1937A,107.2386,34.3622,宝鸡市,三迪小学,,35,30,27,3,10,110,,112,112,33,22,9,9,0.6,0.5
2024-09-14T1900,1051A,115.493,38.8632,保定市,游泳馆,,35,35,41,10,16,87,,78,78,17,16,4,5,0.3,0.4
2024-09-14T1900,1052A,115.5213,38.8959,保定市,华电二区,,34,34,47,15,18,70,,72,72,17,18,4,3,0.2,0.3
2024-09-14T1900,1053A,115.4713,38.9108,保定市,接待中心,,41,41,44,18,20,55,,69,67,23,17,3,3,0.5,0.5
2024-09-14T1900,1054A,115.4612,38.8416,保定市,地表水厂,颗粒物(PM10),51,52,52,11,18,68,,74,72,19,16,2,2,0.2,0.3
2024-09-14T1900,3581A,115.31981,38.95208,保定市,满城区生态环境分局,,31,31,56,9,19,54,,64,62,20,26,4,4,0.5,0.5
2024-09-14T1900,3582A,115.47694,38.76408,保定市,清苑区第二中学,颗粒物(PM10),52,54,59,16,23,79,,80,80,20,17,1,2,0.4,0.5
2024-09-14T1900,3583A,115.62909,39.02311,保定市,徐水物探局,,,,40,,16,71,,75,75,20,19,4,5,0.5,0.5
2024-09-14T1900,4004A,115.4202,38.8656,保定市,双鹰农机,,48,48,44,11,15,52,,83,71,29,21,1,2,0.5,0.6
2024-09-14T1900,4034A,115.5150,38.8590,保定市,植保所站,,40,40,44,14,24,87,,76,76,13,18,4,5,0.5,0.6
2024-09-14T1900,2594A,99.1678,25.1081,保山市,市环境监测站,,30,27,22,21,15,59,,67,67,6,8,6,6,0.4,0.5
2024-09-14T1900,2595A,99.1711,25.1328,保山市,市环保局,,31,31,26,7,8,63,,74,74,5,7,5,5,0.4,0.4
2024-09-14T1900,1867A,109.1436,21.4086,北海市,海滩公园,,42,40,38,29,21,76,,99,99,18,10,4,6,0.8,0.7
2024-09-14T1900,1868A,109.0981,21.4661,北海市,新市环保局,,28,27,36,14,27,89,,103,102,13,12,3,6,0.6,0.6
2024-09-14T1900,1869A,109.1778,21.5233,北海市,北海工业园,,32,32,44,12,31,74,,94,92,16,16,5,12,0.5,0.6
2024-09-14T1900,3400A,109.1911,21.4415,北海市,龙潭自来水厂,,43,31,37,30,33,44,,93,88,19,10,5,4,0.7,0.7
2024-09-14T1900,1001A,116.3621,39.8784,北京市,万寿西宫,,16,11,24,3,9,51,,66,64,20,15,3,3,0.4,0.4
2024-09-14T1900,1002A,116.2202,40.2915,北京市,定陵,,14,11,19,3,12,44,,51,50,6,6,6,6,0.3,0.4
2024-09-14T1900,1003A,116.4174,39.9289,北京市,东四,,16,16,27,6,10,49,,74,64,18,12,4,4,0.4,0.5
2024-09-14T1900,1004A,116.4072,39.8863,北京市,天坛,,17,12,23,6,10,52,,66,65,17,13,3,3,0.3,0.4
2024-09-14T1900,1005A,116.462,39.9365,北京市,农展馆,,14,11,26,3,6,44,,58,57,16,12,2,3,0.3,0.4
2024-09-14T1900,1006A,116.3392,39.9295,北京市,官园,,15,12,25,3,8,46,,66,62,19,14,5,6,0.3,0.4
2024-09-14T1900,1007A,116.2878,39.9611,北京市,海淀万柳,,18,13,26,3,9,55,,63,63,11,12,2,3,0.3,0.3
2024-09-14T1900,1008A,116.6636,40.135,北京市,顺义新城,,16,11,32,6,14,49,,58,58,10,16,3,3,0.2,0.4
2024-09-14T1900,1009A,116.6275,40.3275,北京市,怀柔镇,,17,10,18,7,11,52,,63,58,13,14,3,3,0.1,0.3
2024-09-14T1900,1010A,116.2296,40.217,北京市,昌平镇,,20,20,27,6,10,36,,52,52,17,13,3,4,0.2,0.4
2024-09-14T1900,1011A,116.3966,39.9821,北京市,奥体中心,,15,12,26,3,8,45,,64,56,21,16,2,3,0.4,0.5
2024-09-14T1900,1012A,116.184,39.9136,北京市,古城,,16,16,28,7,11,46,,63,62,17,14,2,3,0.5,0.5
2024-09-14T1900,3281A,115.9718,40.4529,北京市,延庆夏都,,16,16,19,3,8,48,,62,61,11,7,1,3,0.3,0.4
2024-09-14T1900,3417A,117.0709,40.1465,北京市,平谷新城,,15,9,25,3,11,46,,62,61,9,9,3,3,0.4,0.5
2024-09-14T1900,3418A,116.8336,40.4095,北京市,密云新城,,19,8,23,3,10,58,,60,60,3,8,3,3,0.2,0.4
2024-09-14T1900,3671A,116.088,39.9726,北京市,门头沟三家店,,17,17,25,8,10,41,,59,58,15,12,4,4,0.3,0.3
2024-09-14T1900,3672A,116.1541,39.8204,北京市,丰台云岗,,13,13,25,3,10,40,,58,57,15,11,2,3,0.3,0.4
2024-09-14T1900,3673A,116.6804,39.9081,北京市,通州东关,,16,9,33,3,12,50,,64,63,18,26,3,3,0.3,0.4
2024-09-14T1900,3674A,115.9577,39.7603,北京市,房山燕山,,15,14,22,3,10,47,,60,60,12,8,3,3,0.2,0.3
2024-09-14T1900,3675A,116.4672,39.7733,北京市,大兴旧宫,,18,9,24,3,9,57,,70,70,15,17,3,3,0.3,0.4
2024-09-14T1900,3694A,115.986,40.4563,北京市,延庆石河营,,15,13,16,3,8,45,,58,57,12,7,1,3,0.2,0.3
2024-09-14T1900,3695A,116.6151,40.3053,北京市,怀柔新城,,17,14,23,7,10,52,,64,57,11,10,3,3,0.3,0.4
2024-09-14T1900,3696A,116.2545,39.8768,北京市,丰台小屯,,16,13,30,3,9,50,,62,62,15,14,3,3,0.4,0.4
2024-09-14T1900,3697A,116.84,40.3844,北京市,密云镇,,18,9,26,3,12,55,,57,57,7,15,2,3,0.2,0.4
2024-09-14T1900,1761A,123.8275,41.3064,本溪市,大峪,,36,36,26,9,4,34,,43,33,20,16,8,8,0.8,0.7
2024-09-14T1900,1762A,123.7567,41.3325,本溪市,溪湖,,28,28,26,18,10,43,,44,35,16,16,6,6,0.7,0.6
2024-09-14T1900,1763A,123.7169,41.3094,本溪市,彩屯,,33,33,33,20,12,37,,38,33,24,22,8,8,0.7,0.8
2024-09-14T1900,1764A,123.7669,41.2864,本溪市,东明,,27,27,27,17,8,40,,47,36,21,18,6,7,0.7,0.6
2024-09-14T1900,1765A,123.7992,41.2664,本溪市,新立屯,,21,21,23,10,7,36,,46,37,24,19,4,5,0.5,0.5
2024-09-14T1900,1766A,123.8142,41.3472,本溪市,威宁,,33,33,26,21,13,34,,36,34,20,22,8,8,0.7,0.7
2024-09-14T1900,2587A,105.2864,27.3125,毕节市,八中,,37,31,30,17,23,117,,113,113,13,15,9,8,0.4,0.5
2024-09-14T1900,2588A,105.31,27.2944,毕节市,师专,,39,26,36,19,24,124,,116,116,11,18,10,10,0.4,0.5
2024-09-14T1900,3537A,105.3631,27.3533,毕节市,长征村,,43,30,40,19,31,135,,125,125,7,13,12,9,0.4,0.5
2024-09-14T1900,1629A,118.0018,37.3617,滨州市,第二水厂,,36,36,27,12,9,75,,81,81,13,10,5,4,0.1,0.2
2024-09-14T1900,1630A,117.9776,37.393,滨州市,北中新校,,29,29,32,12,9,75,,82,82,6,4,5,6,0.4,0.5
2024-09-14T1900,3514A,117.9378,37.3956,滨州市,中海酒店,,29,29,27,9,11,79,,86,86,11,11,4,5,0.5,0.5
2024-09-14T1900,3515A,117.9378,37.3553,滨州市,开发区一中,,29,29,29,12,11,77,,81,81,12,12,6,8,0.3,0.4
2024-09-14T1900,3516A,118.0917,37.694,滨州市,金海六路,,25,24,26,3,3,79,,86,86,11,9,3,4,0.4,0.4
2024-09-14T1900,4028A,117.9956,37.3753,滨州市,滨州市西街道办事处,,25,24,26,17,11,76,,83,83,10,8,5,5,0.5,0.5
2024-09-14T1900,2311A,115.8072,33.8399,亳州市,污水处理厂,细颗粒物(PM2.5),63,53,39,45,34,64,,77,77,14,11,2,2,0.7,0.7
2024-09-14T1900,2312A,115.7789,33.8518,亳州市,三国揽胜宫,细颗粒物(PM2.5),63,53,42,45,39,65,,76,76,9,7,2,2,0.7,0.6
2024-09-14T1900,3332A,115.7633,33.8034,亳州市,亳州学院,细颗粒物(PM2.5),67,52,48,48,41,66,,77,77,11,9,1,1,0.8,0.7
2024-09-14T1900,2693A,82.0485,44.8556,博尔塔拉蒙古自治州,市党校,,28,24,27,11,12,88,,74,74,10,12,4,5,0.3,0.3
2024-09-14T1900,2694A,82.0806,44.8969,博尔塔拉蒙古自治州,市环保局,,38,38,37,14,13,86,,72,72,7,11,7,5,0.3,0.3
2024-09-14T1900,1071A,116.8842,38.2991,沧州市,沧县城建局,,38,38,39,15,13,62,,69,68,22,14,3,2,0.3,0.3
2024-09-14T1900,1072A,116.8584,38.3254,沧州市,电视转播站,,44,44,37,9,10,65,,74,74,26,16,3,4,0.5,0.4
2024-09-14T1900,1073A,116.8709,38.3228,沧州市,市环保局,,31,31,37,12,15,65,,72,72,20,13,3,5,0.3,0.3
2024-09-14T1900,3324A,116.8136,38.3004,沧州市,河北水利电力学院,,36,36,34,19,12,73,,75,75,14,9,7,9,1.2,0.6
2024-09-14T1900,2622A,97.1806,31.1273,昌都市,昌都监测站,,25,6,8,3,5,80,,78,78,4,8,6,6,0.6,0.6
2024-09-14T1900,3719A,97.1714,31.1406,昌都市,昌都会议中心,,25,10,11,6,5,80,,83,83,9,16,8,8,0.6,0.5
2024-09-14T1900,2690A,88.1236,43.8886,昌吉回族自治州,天山天池,,20,6,20,6,11,61,,61,56,10,8,5,5,0.6,0.6
2024-09-14T1900,2692A,87.2717,44.0297,昌吉回族自治州,新区政务中心,,29,25,24,20,12,52,,70,70,12,12,6,7,0.6,0.6
2024-09-14T1900,3613A,87.3095,44.0142,昌吉回族自治州,亚心广场,,24,24,28,7,7,67,,73,73,15,16,5,5,0.6,0.5
2024-09-14T1900,1119A,125.3325,43.9166,长春市,食品厂,,36,36,14,16,9,27,,52,51,44,18,5,4,0.4,0.2
2024-09-14T1900,1120A,125.2863,43.9027,长春市,客车厂,,25,24,14,17,9,25,,50,49,46,19,6,6,0.4,0.3
2024-09-14T1900,1121A,125.2841,43.8463,长春市,邮电学院,,16,15,13,11,6,31,,50,50,26,16,6,6,0.3,0.2
2024-09-14T1900,1122A,125.3716,43.8772,长春市,劳动公园,,20,20,14,8,5,53,,61,61,23,16,8,8,0.3,0.3
2024-09-14T1900,1123A,125.3297,43.8805,长春市,园林处,,14,14,12,3,5,44,,54,54,18,15,4,4,0.3,0.2
2024-09-14T1900,1124A,125.4605,43.79,长春市,净月潭,,15,15,12,3,3,24,,48,46,8,10,6,6,0.2,0.2
2024-09-14T1900,1126A,125.3863,43.8447,长春市,经开区环卫处,,14,13,12,3,5,43,,51,51,24,17,7,7,0.5,0.4
2024-09-14T1900,1127A,125.245,43.7783,长春市,高新区管委会,,24,24,14,12,6,20,,55,52,45,18,4,4,0.3,0.3
2024-09-14T1900,1128A,125.1761,43.8325,长春市,岱山公园,,33,28,16,7,6,6,,52,47,66,23,4,4,0.5,0.4
2024-09-14T1900,1335A,113.0833,28.2325,长沙市,经开区环保局,,47,47,41,27,23,120,,134,134,13,15,2,2,0.6,0.6
2024-09-14T1900,1336A,112.8872,28.2189,长沙市,高开区环保局,,36,35,41,22,22,113,,121,121,10,10,2,3,0.6,0.6
2024-09-14T1900,1337A,113.0792,28.2053,长沙市,马坡岭,,47,47,44,25,28,124,,142,142,14,14,3,3,0.6,0.6
2024-09-14T1900,1338A,112.9394,28.19,长沙市,湖南师范大学,,38,31,42,24,27,119,,131,131,6,9,4,5,0.6,0.6
2024-09-14T1900,1339A,113.0178,28.1322,长沙市,雨花区环保局,,39,34,43,24,23,122,,132,132,10,15,5,4,0.6,0.6
2024-09-14T1900,1340A,112.9792,28.2597,长沙市,伍家岭,,43,40,42,30,27,119,,131,131,7,11,2,2,0.8,0.8
2024-09-14T1900,1341A,113.0014,28.1944,长沙市,火车新站,,46,46,43,27,28,112,,127,127,10,13,3,3,0.6,0.6
2024-09-14T1900,1342A,112.9844,28.1178,长沙市,天心区环保局,,49,49,49,17,21,111,,126,126,11,13,2,2,0.6,0.7
2024-09-14T1900,1343A,112.8908,28.1308,长沙市,湖南中医药大学,,38,26,42,25,33,120,,132,132,8,14,5,5,0.8,0.9
2024-09-14T1900,1344A,112.9581,28.3611,长沙市,沙坪,,35,29,39,15,19,109,,116,116,9,9,8,8,0.7,0.7
2024-09-14T1900,1727A,113.1147,36.1547,长治市,清华站,细颗粒物(PM2.5),52,49,42,36,28,140,,148,148,14,14,7,11,1.0,1.1
2024-09-14T1900,1728A,113.1031,36.1989,长治市,监测站,细颗粒物(PM2.5),55,51,46,39,28,135,,148,148,16,19,10,11,1.1,1.3
2024-09-14T1900,1730A,113.0886,36.2125,长治市,审计局,细颗粒物(PM2.5),55,55,42,39,29,133,,149,149,16,22,6,10,0.7,0.9
2024-09-14T1900,1731A,113.0844,36.1856,长治市,长治八中,细颗粒物(PM2.5),65,66,58,47,26,138,,150,150,13,15,8,11,1.0,1.1
2024-09-14T1900,2845A,113.1569,36.1911,长治市,德盛苑,,49,48,40,34,27,147,,149,149,9,10,3,6,0.8,1
2024-09-14T1900,3568A,113.06,36.0464,长治市,向阳小学,细颗粒物(PM2.5),72,86,72,52,46,135,,148,148,15,16,9,18,1.0,1
2024-09-14T1900,3569A,112.8792,36.3144,长治市,屯留一中,细颗粒物(PM2.5),64,67,67,46,41,137,,157,157,19,22,15,15,1.6,1.5
2024-09-14T1900,3570A,113.235,36.3489,长治市,潞城四中,细颗粒物(PM2.5),80,70,61,59,40,146,,168,168,9,17,6,8,1.1,1.4
2024-09-14T1900,1854A,111.6975,28.9703,常德市,市二中,颗粒物(PM10),55,60,48,36,35,100,,108,108,9,14,8,8,0.8,0.7
2024-09-14T1900,3138A,111.7153,29.0289,常德市,武陵区永安,"颗粒物(PM10),细颗粒物(PM2.5)",53,56,59,37,41,94,,102,102,12,18,8,8,0.8,0.7
2024-09-14T1900,3139A,111.6892,28.9881,常德市,鼎城区玉霞,颗粒物(PM10),56,62,52,35,36,101,,106,106,10,16,8,8,0.8,0.7
2024-09-14T1900,3140A,111.6625,29.0531,常德市,武陵区长庚,细颗粒物(PM2.5),54,55,58,38,41,96,,101,100,13,16,8,9,0.6,0.6
2024-09-14T1900,1196A,119.9633,31.762,常州市,市监测站,颗粒物(PM10),51,52,38,19,16,130,,210,195,18,15,8,7,0.7,0.6
2024-09-14T1900,1200A,119.9468,31.7069,常州市,武进监测站,,44,37,25,18,13,138,,192,192,22,14,11,9,1.0,0.8
2024-09-14T1900,1201A,119.9255,31.9087,常州市,安家,,34,28,30,22,17,107,,160,157,27,24,8,8,0.7,0.7
2024-09-14T1900,3002A,119.9805,31.8174,常州市,行政中心,,38,38,28,20,13,113,,177,174,33,18,14,3,0.6,0.5
2024-09-14T1900,3003A,120.0522,31.7748,常州市,经开区,,37,37,30,18,15,99,,179,175,34,22,12,11,0.7,0.7
2024-09-14T1900,3010A,119.9025,31.7964,常州市,钟楼,,42,21,23,19,12,134,,170,170,23,17,8,8,0.9,0.7
2024-09-14T1900,3429A,119.8598,31.7066,常州市,武进经发区,,42,41,31,19,13,134,,182,182,25,18,11,11,0.7,0.6
2024-09-14T1900,3430A,119.5826,31.7245,常州市,金坛城区,,48,36,27,22,13,152,,173,173,21,17,8,9,0.5,0.5
2024-09-14T1900,2220A,120.4318,41.5881,朝阳市,西梁,,17,17,14,3,2,46,,69,67,25,8,5,5,0.4,0.3
2024-09-14T1900,2221A,120.4521,41.5646,朝阳市,河畔小区,,19,6,12,3,5,60,,69,69,11,5,8,8,0.4,0.4
2024-09-14T1900,2222A,120.4176,41.5648,朝阳市,八里堡,,21,21,18,9,8,57,,72,71,22,11,9,9,0.6,0.5
2024-09-14T1900,2223A,120.3806,41.5969,朝阳市,农业园区,,16,15,12,9,5,49,,66,65,14,6,7,7,0.4,0.3
2024-09-14T1900,1705A,116.6367,23.6719,潮州市,西园路,,36,36,29,16,18,40,,57,56,16,12,8,7,0.4,0.2
2024-09-14T1900,3026A,116.6183,23.6608,潮州市,市政府,,42,42,34,23,16,43,,67,65,17,10,6,6,0.8,0.6
2024-09-14T1900,4036A,116.6461,23.6761,潮州市,金山,颗粒物(PM10),55,60,38,16,20,47,,64,63,16,11,9,7,0.7,0.6
2024-09-14T1900,2472A,113.0073,25.9061,郴州市,马头岭,颗粒物(PM10),51,51,40,12,14,81,,90,90,11,10,8,8,0.6,0.7
2024-09-14T1900,2473A,113.0116,25.8226,郴州市,市职中,,42,41,35,29,30,88,,100,100,12,12,5,4,0.7,0.7
2024-09-14T1900,2474A,113.0161,25.8001,郴州市,兴隆步行街,颗粒物(PM10),51,51,40,29,25,95,,102,102,14,13,17,8,0.8,0.8
2024-09-14T1900,2475A,113.0383,25.8071,郴州市,市审计局,,49,41,35,34,31,87,,95,95,11,11,23,6,0.8,0.7
2024-09-14T1900,2476A,113.0348,25.7759,郴州市,市环保局,,43,43,38,30,30,85,,94,94,15,12,9,6,0.7,0.7
2024-09-14T1900,1431A,103.9728,30.7236,成都市,金泉两河,,36,16,21,3,10,115,,107,107,14,10,3,3,0.5,0.4
2024-09-14T1900,1432A,104.176,30.6872,成都市,十里店,,42,32,27,23,16,132,,124,124,20,18,2,3,0.3,0.4
2024-09-14T1900,1433A,104.079,30.5706,成都市,三瓦窑,,44,27,29,13,21,139,,132,132,19,17,2,3,0.5,0.5
2024-09-14T1900,1434A,104.1114,30.63,成都市,沙河铺,,45,28,32,15,18,142,,136,136,15,15,3,4,0.5,0.5
2024-09-14T1900,1437A,104.0786,30.6531,成都市,君平街,,41,18,24,14,15,131,,128,128,17,14,4,4,0.5,0.6
2024-09-14T1900,2880A,104.0239,30.65639,成都市,大石西路,,32,14,26,3,16,102,,112,112,14,14,6,6,0.6,0.6
2024-09-14T1900,3136A,104.2725,30.5589,成都市,龙泉驿区区政府,,,22,28,9,19,162,,139,139,12,17,4,5,,0.5
2024-09-14T1900,3357A,104.0106,30.6931,成都市,金博路,,34,6,21,3,14,106,,107,107,12,14,1,2,0.5,0.5
2024-09-14T1900,3359A,104.0578,30.5225,成都市,华阳,,47,29,31,12,15,148,,137,137,17,18,3,4,0.7,0.7
2024-09-14T1900,3487A,104.2394,30.5319,成都市,车城东七路,,50,28,39,19,28,157,,140,140,15,19,3,4,0.4,0.5
2024-09-14T1900,3488A,104.3853,30.7453,成都市,青白江技师分院,臭氧1小时,78,45,34,9,22,182,,146,146,18,24,3,4,0.5,0.6
2024-09-14T1900,3489A,104.0789,30.4072,成都市,科学城,臭氧1小时,57,29,36,22,28,165,,154,154,14,17,3,3,0.6,0.6
2024-09-14T1900,4011A,103.8506,30.6947,成都市,光华大道三段,,39,13,22,10,11,122,,115,115,14,10,2,2,0.5,0.5
2024-09-14T1900,1062A,117.9531,40.9081,承德市,铁路,,32,32,20,3,4,24,,55,51,40,17,12,9,0.4,0.2
2024-09-14T1900,1063A,117.9392,40.9763,承德市,中国银行,,30,30,20,3,6,39,,59,58,17,10,5,5,0.4,0.3
2024-09-14T1900,1064A,117.9503,40.928,承德市,开发区,,25,25,26,9,11,37,,58,56,14,11,10,8,0.3,0.3
2024-09-14T1900,1065A,117.8051,40.9655,承德市,文化中心,,28,28,24,7,4,40,,58,56,13,9,9,9,0.3,0.3
2024-09-14T1900,1066A,117.9268,41.0026,承德市,离宫,,25,17,14,17,17,22,,48,43,4,5,3,4,0.3,0.2
2024-09-14T1900,2314A,117.47,30.6618,池州市,池州学院,,42,42,36,29,25,103,,101,101,17,13,6,7,0.8,0.8
2024-09-14T1900,3237A,117.4918,30.6617,池州市,展览馆,,36,36,36,23,21,102,,98,98,16,14,5,5,0.9,0.9
2024-09-14T1900,3333A,117.5627,30.695,池州市,第八中学,,43,43,36,30,24,125,,102,102,11,13,4,4,0.8,0.8
2024-09-14T1900,3334A,117.5038,30.6243,池州市,第十二中学,,42,36,37,29,27,118,,100,100,11,15,3,3,0.7,0.7
2024-09-14T1900,1744A,118.9233,42.2816,赤峰市,松山一中,,17,14,15,3,3,52,,73,72,30,16,8,8,0.6,0.4
2024-09-14T1900,1745A,118.9576,42.2728,赤峰市,哈达街,,30,30,12,3,5,50,,74,73,20,12,6,6,0.4,0.3
2024-09-14T1900,1746A,118.8788,42.2554,赤峰市,天义路,,17,,12,8,7,53,,69,69,22,12,7,6,0.3,0.2
2024-09-14T1900,3058A,119.2658,42.0353,赤峰市,银河街,,28,28,19,9,9,48,,67,67,21,9,10,11,0.4,0.2
2024-09-14T1900,3286A,118.9359,42.3147,赤峰市,桥北物流园区,,19,14,11,8,5,43,,73,72,37,13,8,7,0.5,0.5
2024-09-14T1900,2521A,107.3476,22.4136,崇左市,市环保局江州分局,,35,34,35,24,20,71,,95,95,16,6,8,6,0.8,0.7
2024-09-14T1900,2522A,107.3702,22.3707,崇左市,城南新区,,35,,28,24,22,82,,103,103,12,6,2,3,0.8,0.7
2024-09-14T1900,2298A,118.3093,32.3153,滁州市,老年大学,,40,35,30,28,26,106,,117,117,7,8,5,5,0.4,0.5
2024-09-14T1900,2299A,118.3244,32.2786,滁州市,人大宾馆,,42,42,45,28,31,106,,126,126,5,10,5,6,0.6,0.6
2024-09-14T1900,3207A,118.3118,32.3038,滁州市,市政府原办公楼,,43,34,31,30,29,100,,115,115,12,9,6,6,0.6,0.6
2024-09-14T1900,3331A,118.3267,32.2634,滁州市,图书馆,,40,40,39,26,29,105,,124,124,9,8,5,5,0.5,0.6
2024-09-14T1900,2605A,101.5482,25.0441,楚雄彝族自治州,州环境监测站,,23,23,22,9,14,61,,68,68,7,15,7,10,0.5,0.6
2024-09-14T1900,2606A,101.538,25.0492,楚雄彝族自治州,市经济开发区,,24,24,21,12,14,57,,66,66,9,13,5,9,0.6,0.6
2024-09-14T1900,2548A,107.5277,31.2827,达州市,达州职业技术学院,,36,35,40,7,19,40,,111,105,71,31,5,7,0.5,0.5
2024-09-14T1900,2549A,107.5086,31.2186,达州市,市环境监测站,,38,38,39,7,18,93,,114,114,36,35,7,9,0.5,0.6
2024-09-14T1900,2550A,107.4988,31.2132,达州市,凤凰小区,,40,24,34,17,20,125,,127,127,12,27,7,9,0.4,0.5
2024-09-14T1900,2551A,107.5082,31.1986,达州市,达县机关宾馆,,28,24,38,8,18,89,,115,114,44,42,5,7,0.4,0.4
2024-09-14T1900,2552A,107.4644,31.2124,达州市,市政中心,,35,23,40,12,20,112,,128,128,28,32,10,8,0.7,0.5
2024-09-14T1900,2614A,100.1542,25.7054,大理白族自治州,大理市环境监测站,颗粒物(PM10),55,59,23,14,10,54,,59,59,12,10,4,4,0.6,0.5
2024-09-14T1900,2615A,100.2171,25.5811,大理白族自治州,大理古城,,,29,22,18,13,52,,80,80,,9,,7,0.6,0.5
2024-09-14T1900,1109A,121.612,38.9741,大连市,甘井子,,27,27,37,8,9,70,,76,76,21,21,7,9,0.3,0.5
2024-09-14T1900,1110A,121.565,38.9511,大连市,周水子,,25,25,31,8,9,65,,68,68,16,19,6,8,0.5,0.6
2024-09-14T1900,1111A,121.5637,38.8845,大连市,星海三站,,24,23,33,9,8,74,,78,78,8,9,4,6,0.4,0.4
2024-09-14T1900,1112A,121.6302,38.9117,大连市,青泥洼桥,,26,26,37,8,9,65,,71,71,18,20,9,11,0.4,0.5
2024-09-14T1900,1113A,121.6251,38.8638,大连市,傅家庄,,26,26,32,11,9,68,,73,73,15,15,6,7,0.4,0.5
2024-09-14T1900,1114A,121.5213,38.8661,大连市,七贤岭,,28,28,36,8,9,79,,82,82,9,11,7,8,0.4,0.5
2024-09-14T1900,1115A,121.2529,38.8061,大连市,旅顺,,,16,29,7,8,87,,58,,9,10,,7,0.4,0.4
2024-09-14T1900,1116A,121.7485,39.1311,大连市,金州,,22,22,29,9,10,70,,74,74,12,16,7,10,0.6,0.7
2024-09-14T1900,1117A,121.7811,39.0496,大连市,开发区,,30,30,44,9,12,68,,72,72,11,14,7,10,0.4,0.5
2024-09-14T1900,1118A,121.9762,39.0631,大连市,双D港,,27,27,46,10,14,75,,79,79,18,20,8,9,0.7,0.8
2024-09-14T1900,1789A,124.81117,46.03138,大庆市,大同区,,41,41,25,14,11,51,,57,57,12,8,4,3,0.4,0.3
2024-09-14T1900,1790A,125.129,46.533,大庆市,龙凤区,颗粒物(PM10),71,91,41,17,15,44,,62,61,30,19,8,4,1.2,0.5
2024-09-14T1900,1791A,124.902,46.408,大庆市,红岗区,,30,30,22,17,10,50,,62,62,23,12,6,5,0.4,0.3
2024-09-14T1900,1792A,125.153,46.586,大庆市,萨尔图区,颗粒物(PM10),52,53,27,11,8,33,,56,55,40,18,6,5,0.4,0.3
2024-09-14T1900,1793A,124.9042,46.6215,大庆市,让胡路区,,36,36,19,21,12,29,,58,56,37,13,4,4,0.5,0.3
2024-09-14T1900,3481A,125.141,46.634,大庆市,萨区政府监测点,,29,29,18,3,8,43,,60,60,25,20,6,6,0.4,0.4
2024-09-14T1900,1723A,113.2994,40.0758,大同市,云冈宾馆,,17,14,10,7,5,52,,71,68,21,10,7,7,0.6,0.6
2024-09-14T1900,1724A,113.3444,40.0917,大同市,大同大学,,14,14,10,3,6,42,,68,63,25,10,12,10,0.3,0.3
2024-09-14T1900,1725A,113.2661,40.1269,大同市,安家小村,,17,10,8,3,5,53,,72,68,13,7,10,10,0.0,0.3
2024-09-14T1900,1726A,113.2711,40.0844,大同市,教育学院,,16,15,13,3,5,49,,66,64,17,7,6,6,0.5,0.4
2024-09-14T1900,3282A,113.3397,40.0597,大同市,大同市卫生学校,,18,18,12,8,6,57,,67,66,18,10,6,7,0.4,0.4
2024-09-14T1900,3565A,113.1367,40.1122,大同市,云冈站,,18,18,17,6,4,50,,66,62,18,10,8,8,0.3,0.4
2024-09-14T1900,3566A,113.1186,40.2556,大同市,图书馆,,20,20,14,3,6,52,,65,62,16,10,12,9,1.3,0.7
2024-09-14T1900,3567A,113.5931,40.0461,大同市,区一中,,19,17,11,3,4,59,,68,68,11,9,7,7,0.4,0.4
2024-09-14T1900,3676A,113.2802,40.0995,大同市,第二人民医院,,17,14,9,6,5,54,,71,69,17,8,9,10,0.3,0.3
2024-09-14T1900,2269A,124.1069,50.4097,大兴安岭地区,科技局,,26,,12,18,13,64,,65,65,3,4,5,5,0.2,0.2
2024-09-14T1900,3663A,124.1164,50.4278,大兴安岭地区,红旗社区,,17,14,17,9,7,53,,58,58,9,11,2,2,0.3,0.3
2024-09-14T1900,1600A,124.3303,40.0625,丹东市,江湾东路,,26,26,28,10,12,53,,58,58,17,15,5,6,0.7,0.8
2024-09-14T1900,1601A,124.4256,40.1503,丹东市,临江后街,,34,34,30,14,11,55,,67,67,22,16,5,8,0.7,0.7
2024-09-14T1900,1602A,124.3933,40.1461,丹东市,元宝山,,30,30,25,18,12,51,,57,57,30,23,3,4,0.6,0.7
2024-09-14T1900,1603A,124.3633,40.1092,丹东市,民主桥,,32,32,30,6,9,47,,55,54,19,13,4,6,0.7,0.8
2024-09-14T1900,3541A,109.5726,19.5167,儋州市,第一中学子站,,36,36,17,17,9,71,,60,60,12,4,4,4,0.6,0.5
2024-09-14T1900,3542A,109.5567,19.5187,儋州市,东坡学校子站,,25,,16,17,10,64,,61,61,18,6,4,5,0.6,0.5
2024-09-14T1900,2616A,98.5842,24.428,德宏傣族景颇族自治州,德宏州监测站,,24,24,24,12,10,50,,41,41,11,10,9,10,0.7,0.7
2024-09-14T1900,3677A,98.5881,24.4368,德宏傣族景颇族自治州,芒市人民政府综合楼,,21,21,20,3,8,50,,49,49,10,8,5,6,0.8,0.7
2024-09-14T1900,1901A,104.4239,31.1208,德阳市,东山公园,,43,17,25,11,14,137,,127,127,14,18,3,4,0.5,0.5
2024-09-14T1900,1902A,104.3826,31.1317,德阳市,西小区,,36,19,32,9,19,114,,116,116,18,17,3,12,0.5,0.6
2024-09-14T1900,1904A,104.3553,31.1091,德阳市,耐火材料厂,,35,14,34,9,23,111,,116,116,17,13,3,18,0.5,0.6
2024-09-14T1900,3639A,104.4019,31.1244,德阳市,市教育局,,38,21,30,11,15,120,,122,122,22,14,2,5,0.5,0.5
2024-09-14T1900,1622A,116.3032,37.4674,德州市,儿童乐园,,44,44,37,9,16,65,,72,70,17,11,9,9,0.6,0.6
2024-09-14T1900,1624A,116.2991,37.4451,德州市,监理站,,34,34,31,9,15,74,,76,74,13,8,11,10,0.7,0.7
2024-09-14T1900,3066A,116.2721,37.4379,德州市,九衢泉纯净水厂,,34,34,35,7,16,74,,75,74,16,12,8,9,0.7,0.7
2024-09-14T1900,3371A,116.3728,37.4403,德州市,开发区人民医院,,34,34,31,3,12,70,,72,72,16,12,8,7,0.5,0.5
2024-09-14T1900,3372A,116.3572,37.4094,德州市,太阳城中学,,36,36,29,9,12,71,,77,74,22,15,10,10,0.5,0.5
2024-09-14T1900,3511A,116.5652,37.3319,德州市,陵城艺术中心,,34,34,29,3,8,80,,79,79,16,12,10,11,0.5,0.5
2024-09-14T1900,2621A,99.7056,27.8317,迪庆藏族自治州,迪庆州站,,24,24,17,10,11,55,,62,61,10,9,8,7,0.4,0.4
2024-09-14T1900,3180A,99.7136,27.8094,迪庆藏族自治州,质量技术监督局,,22,22,17,7,8,57,,63,63,11,9,9,8,0.4,0.4
2024-09-14T1900,2663A,104.6241,35.5734,定西市,东关小学,,33,30,29,23,19,46,,66,63,14,15,5,5,0.4,0.3
2024-09-14T1900,2664A,104.6194,35.5934,定西市,供电公司,,35,35,27,22,19,44,,64,60,17,15,6,6,0.3,0.2
2024-09-14T1900,1389A,113.7547,23.0494,东莞市,莞城梨川,,49,43,35,34,24,55,,89,84,59,30,5,5,0.9,0.8
2024-09-14T1900,1390A,113.7944,23.0128,东莞市,东城石井,,33,33,34,18,21,34,,96,89,30,26,4,4,0.7,0.6
2024-09-14T1900,1391A,113.7383,22.9658,东莞市,南城西平,,29,29,38,15,20,64,,95,90,23,35,6,3,0.8,0.8
2024-09-14T1900,3319A,113.7338,23.0381,东莞市,万江金泰,,49,49,36,32,22,59,,98,94,63,32,20,11,0.8,0.7
2024-09-14T1900,3626A,113.7533,23.0202,东莞市,南城元岭,,43,42,35,30,21,60,,99,94,52,29,8,8,0.9,0.7
2024-09-14T1900,3627A,113.7875,23.0457,东莞市,东城主山,,45,45,36,30,24,71,,106,99,50,30,13,9,0.8,0.6
2024-09-14T1900,1666A,118.6614,37.4309,东营市,市环保局,,32,24,26,3,4,101,,98,98,12,9,2,3,0.2,0.1
2024-09-14T1900,3036A,118.6904,37.4338,东营市,开发区管委会,,30,29,32,9,7,96,,94,94,7,7,1,2,0.0,0
2024-09-14T1900,3365A,118.5719,37.565,东营市,垦利区民丰路,颗粒物(PM10),56,61,28,3,6,81,,77,77,6,5,2,4,0.3,0.5
2024-09-14T1900,3498A,118.5055,37.8612,东营市,河口城区,,26,17,27,3,9,82,,80,80,8,9,5,7,0.5,0.5
2024-09-14T1900,3646A,118.4978,37.4623,东营市,胜利站,,27,25,25,7,6,86,,86,86,9,7,5,5,0.5,0.5
2024-09-14T1900,3734A,118.35,37.26,东营市,理想之城,,27,27,25,12,10,84,,81,81,9,8,2,3,0.1,0.2
2024-09-14T1900,1591A,110.0023,39.8129,鄂尔多斯市,综合楼,,31,31,20,3,3,38,,62,59,39,15,9,9,0.6,0.4
2024-09-14T1900,1592A,109.9486,39.8261,鄂尔多斯市,巴音孟克林场办事处,,36,36,21,7,5,47,,62,60,27,15,5,6,0.5,0.4
2024-09-14T1900,1593A,109.7736,39.5986,鄂尔多斯市,康泽苑,,27,27,17,3,4,45,,57,50,25,13,7,8,0.4,0.4
2024-09-14T1900,1594A,109.8119,39.5989,鄂尔多斯市,华泰汽车城,,27,27,17,9,7,44,,53,50,23,12,6,7,0.4,0.4
2024-09-14T1900,1595A,109.9734,39.7884,鄂尔多斯市,奥林花园,,39,39,25,9,6,39,,56,53,34,18,4,4,0.7,0.6
2024-09-14T1900,2436A,114.8938,30.3994,鄂州市,市政府,,50,43,40,27,20,160,,143,143,29,21,12,11,1.2,1
2024-09-14T1900,2437A,114.8989,30.3714,鄂州市,赵家坝,臭氧1小时,80,41,51,20,22,184,,156,156,19,20,10,11,0.9,0.9
2024-09-14T1900,3654A,114.8094,30.4089,鄂州市,精准医疗中心,臭氧1小时,55,40,40,27,21,164,,153,153,24,18,6,6,1.0,0.8
2024-09-14T1900,2454A,109.4978,30.2981,恩施土家族苗族自治州,湖北民院,,28,23,24,19,19,70,,94,94,11,14,10,9,0.8,0.8
2024-09-14T1900,2455A,109.4707,30.2798,恩施土家族苗族自治州,州电力总公司,,32,,23,22,18,65,,86,86,17,22,12,9,0.7,0.7
2024-09-14T1900,3549A,109.5061,30.3772,恩施土家族苗族自治州,龙凤新区,,22,18,24,9,18,68,,91,91,13,15,6,7,0.9,0.9
2024-09-14T1900,2499A,108.3411,21.6158,防城港市,沙万,,50,39,40,35,27,94,,114,114,21,16,10,9,1.1,0.8
2024-09-14T1900,2500A,108.3514,21.7731,防城港市,防城档案局,,35,29,58,24,31,78,,104,103,15,17,7,8,0.7,0.7
2024-09-14T1900,2501A,108.3506,21.6414,防城港市,大海花园,,40,40,40,27,25,89,,115,115,16,12,5,6,1.0,0.8
2024-09-14T1900,1371A,113.1294,23.0067,佛山市,湾梁,,29,29,34,18,23,50,,86,85,46,38,6,7,0.9,0.8
2024-09-14T1900,1372A,113.1083,23.0478,佛山市,华材职中,颗粒物(PM10),51,51,42,29,29,38,,97,95,70,53,7,7,0.5,0.5
2024-09-14T1900,1373A,113.144,23.0453,佛山市,南海气象局,,29,25,35,20,26,54,,79,79,28,31,6,7,0.7,0.7
2024-09-14T1900,1374A,113.2881,22.8094,佛山市,顺德苏岗,,36,36,30,22,22,30,,78,71,50,27,9,8,0.9,0.7
2024-09-14T1900,1376A,112.8383,22.8678,佛山市,高明孔堂,,35,34,41,24,28,55,,106,102,35,20,5,6,0.6,0.5
2024-09-14T1900,1377A,112.8836,23.1588,佛山市,三水监测站,,25,22,27,16,21,59,,114,111,50,31,7,7,0.6,0.5
2024-09-14T1900,1378A,112.867,23.185,佛山市,三水云东海,,35,32,28,24,24,53,,112,108,39,30,8,9,0.7,0.6
2024-09-14T1900,3625A,113.2544,22.7642,佛山市,容桂街道办,,42,41,30,29,26,42,,69,67,62,35,7,8,0.9,0.8
2024-09-14T1900,1282A,119.2681,26.0504,福州市,师大,,12,6,20,3,6,37,,41,41,8,10,4,4,0.3,0.3
2024-09-14T1900,1283A,119.2984,26.1028,福州市,五四北路,,,,,3,5,41,,47,47,9,10,3,4,0.4,0.5
2024-09-14T1900,1284A,119.2648,26.0768,福州市,杨桥西路,,11,10,20,3,5,34,,41,41,10,11,3,4,0.3,0.4
2024-09-14T1900,3048A,119.5799,26.0936,福州市,九龙,,16,16,15,3,3,32,,33,33,7,7,6,7,0.4,0.4
2024-09-14T1900,3526A,119.5189,25.9664,福州市,吴航,,17,17,16,10,8,26,,37,36,7,6,6,6,0.3,0.4
2024-09-14T1900,1755A,123.7977,41.8491,抚顺市,望花区,,18,14,19,7,11,56,,45,45,14,11,6,9,0.3,0.4
2024-09-14T1900,1756A,123.9161,41.8822,抚顺市,顺城区,,18,18,22,8,9,56,,43,43,11,13,6,6,0.4,0.4
2024-09-14T1900,1757A,124.0436,41.8611,抚顺市,东洲区,,19,9,23,3,13,58,,45,39,9,12,8,10,0.3,0.4
2024-09-14T1900,1758A,123.9247,41.8642,抚顺市,新抚区,,20,15,18,7,11,61,,46,45,14,15,8,8,0.2,0.2
2024-09-14T1900,1759A,124.0972,41.8961,抚顺市,大伙房水库,,19,11,16,3,7,60,,53,40,6,6,6,5,0.3,0.3
2024-09-14T1900,1760A,123.7086,41.8391,抚顺市,沈抚新城,,17,14,15,8,13,54,,52,52,15,13,6,7,0.1,0.1
2024-09-14T1900,2376A,116.2127,28.0814,抚州市,桐源党溪,,41,41,37,17,21,117,,125,125,2,3,5,5,0.9,0.9
2024-09-14T1900,2377A,116.3544,27.9831,抚州市,市站,,48,48,35,27,22,100,,106,106,5,6,5,5,0.9,1
2024-09-14T1900,2378A,116.3565,27.963,抚州市,血防站,,39,39,36,25,21,99,,108,108,7,8,1,5,1.0,1.2
2024-09-14T1900,2379A,116.3564,28.0007,抚州市,采茶剧团,,43,43,35,29,22,102,,106,106,4,6,5,7,0.9,1
2024-09-14T1900,2380A,116.385,27.9647,抚州市,医学分院,,46,46,36,26,21,93,,105,105,4,6,4,4,1.0,1.2
2024-09-14T1900,2207A,121.6094,41.998,阜新市,工业园区,,17,17,11,3,4,50,,56,56,22,10,6,6,0.6,0.5
2024-09-14T1900,2208A,121.6697,42.0279,阜新市,长青街,,12,12,8,3,2,29,,52,50,20,7,4,5,0.5,0.4
2024-09-14T1900,2209A,121.6673,42.0705,阜新市,农业园区,,12,12,8,3,0,33,,53,50,11,8,4,4,0.4,0.4
2024-09-14T1900,2210A,121.6717,42.0224,阜新市,东苑,,17,17,13,7,9,40,,57,55,24,6,11,7,0.5,0.5
2024-09-14T1900,2211A,121.6506,42.0498,阜新市,玉龙新城,,38,38,15,14,4,10,,59,52,38,10,8,7,0.6,0.5
2024-09-14T1900,2301A,115.8277,32.8929,阜阳市,市监测站,,47,47,33,30,27,80,,100,100,8,8,6,6,0.7,0.7
2024-09-14T1900,2303A,115.8554,32.8605,阜阳市,开发区,,45,45,39,19,24,82,,106,106,12,11,6,5,0.7,0.7
2024-09-14T1900,2875A,115.784,32.8892,阜阳市,阜阳职业技术学院,,45,45,32,25,23,83,,99,99,10,9,6,6,0.6,0.6
2024-09-14T1900,3468A,115.7901,32.8613,阜阳市,市规划展馆,细颗粒物(PM2.5),65,56,40,47,34,82,,102,102,11,11,5,5,0.8,0.8
2024-09-14T1900,3469A,115.836,32.9183,阜阳市,枣园社区,细颗粒物(PM2.5),73,,38,53,31,80,,95,95,12,8,6,6,0.7,0.6
2024-09-14T1900,2669A,102.9099,34.9841,甘南藏族自治州,州政府,,29,29,13,11,10,58,,70,70,8,5,12,10,0.3,0.3
2024-09-14T1900,3380A,102.8914,34.9617,甘南藏族自治州,甘肃民族师范学院,,36,36,7,8,5,60,,68,68,6,5,4,4,0.3,0.3
2024-09-14T1900,2570A,101.9603,30.0475,甘孜藏族自治州,水桥子,,25,6,8,3,4,80,,85,85,3,18,5,5,0.4,0.3
2024-09-14T1900,3065A,101.9533,29.9972,甘孜藏族自治州,州环保局,,,,12,,5,78,,86,86,10,22,,3,,0.2
2024-09-14T1900,3414A,115.8347,28.932,赣江新区,桑海产业园,,40,36,36,22,22,125,,130,130,11,10,12,13,0.7,0.9
2024-09-14T1900,2363A,114.9367,25.8664,赣州市,地委,,33,33,36,22,29,62,,94,86,16,9,19,17,1.2,1.2
2024-09-14T1900,2364A,114.9461,25.8481,赣州市,气象台,,34,34,40,20,27,57,,96,88,24,8,6,8,1.0,1
2024-09-14T1900,2365A,114.9322,25.8333,赣州市,市图书馆,,34,34,38,11,25,70,,109,102,24,7,4,4,1.2,1.1
2024-09-14T1900,2366A,114.8905,25.8471,赣州市,华坚鞋城,颗粒物(PM10),53,55,45,30,29,49,,90,79,30,9,3,2,0.6,0.6
2024-09-14T1900,3109A,115.0093,25.8613,赣州市,赣县区卫计委,,23,,31,16,23,68,,93,90,16,13,6,7,0.7,0.8
2024-09-14T1900,2683A,106.2319,36.1417,固原市,马园,,48,48,42,7,8,70,,81,80,14,28,5,6,0.7,0.7
2024-09-14T1900,2684A,106.2792,36.0022,固原市,监测站,,29,29,24,17,13,75,,87,86,12,21,3,5,0.5,0.5
2024-09-14T1900,2685A,106.2375,36.0211,固原市,新区,,27,27,27,12,11,69,,79,78,13,21,8,8,0.4,0.4
2024-09-14T1900,3522A,106.2177,35.9959,固原市,原州区十五小,,36,36,28,19,12,80,,89,87,14,15,8,8,0.6,0.5
2024-09-14T1900,2544A,106.6303,30.4576,广安市,市委,颗粒物(PM10),58,65,39,38,29,164,,176,176,19,16,4,3,0.6,0.5
2024-09-14T1900,2545A,106.6271,30.4663,广安市,友谊中学,颗粒物(PM10),51,52,37,26,27,154,,170,170,29,20,6,4,0.7,0.5
2024-09-14T1900,2547A,106.6388,30.4551,广安市,广电花园,颗粒物(PM10),55,60,40,26,28,159,,170,170,20,15,5,3,0.7,0.5
2024-09-14T1900,2902A,106.6351,30.4865,广安市,北辰小学,臭氧1小时,62,63,47,35,28,169,,180,180,12,15,8,7,0.5,0.4
2024-09-14T1900,2523A,105.8945,32.4535,广元市,黑石坡,,29,29,18,12,12,87,,85,85,9,6,11,9,0.6,0.4
2024-09-14T1900,2524A,105.821,32.4444,广元市,老城,,35,35,15,12,7,35,,87,84,47,9,3,3,0.9,0.6
2024-09-14T1900,2526A,105.8628,32.4287,广元市,监测站,,27,27,18,9,11,60,,90,90,29,10,13,7,0.9,0.7
2024-09-14T1900,3617A,105.8047,32.4166,广元市,经开区,,29,29,20,14,9,68,,86,86,16,10,4,7,0.7,0.6
2024-09-14T1900,1345A,113.2347,23.1423,广州市,广雅中学,,38,34,38,23,25,40,,93,88,75,45,4,6,1.0,0.8
2024-09-14T1900,1346A,113.2612,23.105,广州市,市五中,,43,33,37,30,32,67,,97,96,39,25,3,4,0.9,0.8
2024-09-14T1900,1348A,113.3478,23.0916,广州市,广东商学院,,36,32,39,25,29,56,,88,85,48,46,4,5,0.8,0.8
2024-09-14T1900,1349A,113.4332,23.1047,广州市,市八十六中,,32,32,43,19,26,49,,82,82,58,56,3,4,0.8,0.7
2024-09-14T1900,1350A,113.3505,22.9483,广州市,番禺中学,,,34,32,25,22,72,,100,100,38,29,,5,0.9,0.8
2024-09-14T1900,1351A,113.2146,23.3916,广州市,花都师范,,18,18,29,12,18,56,,100,94,26,18,3,4,0.6,0.7
2024-09-14T1900,1352A,113.2597,23.1331,广州市,市监测站,,35,33,36,24,26,47,,90,86,58,41,4,5,0.9,0.8
2024-09-14T1900,1353A,113.5618,23.312,广州市,九龙镇镇龙,,23,21,32,16,21,49,,75,70,25,19,6,6,0.6,0.7
2024-09-14T1900,1354A,113.2765,23.1544,广州市,麓湖,,28,28,39,19,26,43,,90,85,37,36,4,5,0.7,0.8
2024-09-14T1900,1355A,113.443,23.3035,广州市,帽峰山森林公园,,19,15,23,11,17,59,,100,97,13,13,5,5,0.6,0.6
2024-09-14T1900,2846A,113.3221,23.1322,广州市,体育西,,38,37,41,26,27,65,,94,94,37,34,4,5,0.8,0.7
2024-09-14T1900,3298A,113.5717,23.5491,广州市,从化街口,,17,17,29,9,18,39,,71,67,19,15,7,7,0.6,0.6
2024-09-14T1900,3299A,113.3472,23.3692,广州市,白云竹料,,25,20,35,17,23,52,,96,92,37,23,5,5,0.6,0.7
2024-09-14T1900,3300A,113.2981,23.237,广州市,白云嘉禾,,31,29,41,21,25,40,,99,95,61,45,5,5,1.0,0.9
2024-09-14T1900,3301A,113.4256,23.1716,广州市,黄埔科学城,,28,28,38,18,26,45,,103,96,36,34,4,5,1.0,0.9
2024-09-14T1900,3302A,113.3942,23.0483,广州市,番禺大学城,,28,26,37,19,24,63,,92,92,34,38,7,8,0.8,0.7
2024-09-14T1900,3303A,113.4922,22.8168,广州市,南沙黄阁,,42,41,32,29,26,81,,99,99,43,34,5,5,0.8,0.7
2024-09-14T1900,3304A,113.5342,22.7896,广州市,南沙街,"颗粒物(PM10),细颗粒物(PM2.5)",53,55,33,37,25,66,,90,88,34,32,4,5,0.9,0.7
2024-09-14T1900,3443A,113.2902,23.5544,广州市,花都梯面,,24,24,32,16,22,62,,86,83,16,16,5,6,0.6,0.6
2024-09-14T1900,3445A,113.7858,23.7478,广州市,从化良口,,18,17,22,12,14,22,,51,43,13,7,6,6,0.8,0.8
2024-09-14T1900,3446A,113.8051,23.2614,广州市,增城荔城,,27,27,32,16,22,57,,78,76,26,17,5,5,0.6,0.6
2024-09-14T1900,2506A,109.6047,23.0666,贵港市,江南子站,,31,31,70,21,38,88,,116,114,10,25,7,10,0.6,1
2024-09-14T1900,2507A,109.6014,23.0948,贵港市,贵城子站,颗粒物(PM10),57,64,61,31,39,99,,112,112,19,26,9,8,1.0,1
2024-09-14T1900,2508A,109.5669,23.1065,贵港市,荷城子站,,48,48,47,24,25,109,,112,112,16,20,14,11,1.2,0.8
2024-09-14T1900,3405A,109.5886,23.1172,贵港市,新世纪学校,颗粒物(PM10),53,56,40,28,25,104,,112,112,22,13,11,8,1.5,0.8
2024-09-14T1900,1439A,106.6899,26.5998,贵阳市,马鞍山,,32,22,23,9,10,100,,130,130,11,13,4,4,0.4,0.5
2024-09-14T1900,1440A,106.6971,26.5694,贵阳市,市环保站,,40,36,34,28,24,100,,133,133,17,18,3,4,0.7,0.6
2024-09-14T1900,1441A,106.6243,26.6266,贵阳市,鉴湖路,,31,31,30,14,16,92,,107,107,10,15,5,6,0.4,0.4
2024-09-14T1900,1442A,106.7487,26.6343,贵阳市,燕子冲,,31,19,19,19,20,97,,131,131,12,12,5,5,0.4,0.5
2024-09-14T1900,1443A,106.6555,26.4365,贵阳市,碧云窝,,36,36,33,19,18,94,,110,110,8,11,5,6,0.4,0.4
2024-09-14T1900,1444A,106.694,26.5161,贵阳市,中院村,,44,44,42,19,23,97,,115,115,12,27,5,7,0.6,0.6
2024-09-14T1900,1445A,106.7109,26.6027,贵阳市,红边门,,36,36,36,22,27,91,,130,130,21,21,4,5,0.4,0.5
2024-09-14T1900,1446A,106.7164,26.5699,贵阳市,新华路,,35,31,27,24,20,104,,136,136,16,22,5,4,0.4,0.5
2024-09-14T1900,1447A,106.674,26.5424,贵阳市,太慈桥,,33,31,31,17,15,104,,125,125,13,18,3,4,0.4,0.4
2024-09-14T1900,1862A,110.4144,25.3167,桂林市,电子科大尧山校区,颗粒物(PM10),51,52,34,26,24,88,,93,93,6,6,4,6,0.7,0.7
2024-09-14T1900,1863A,110.2819,25.2697,桂林市,监测站,,38,38,33,22,23,84,,91,91,12,8,12,11,0.6,0.6
2024-09-14T1900,1864A,110.3089,25.2708,桂林市,龙隐路小学,,36,36,33,18,22,91,,95,95,6,6,9,19,0.6,0.6
2024-09-14T1900,1865A,110.2869,25.2178,桂林市,八中,,30,30,33,18,22,86,,95,94,8,6,7,14,0.5,0.5
2024-09-14T1900,3403A,110.1764,25.2381,桂林市,创业大厦,,42,31,32,29,27,82,,84,84,8,8,10,9,0.4,0.4
2024-09-14T1900,3531A,110.296,25.1253,桂林市,旅游学院,,42,29,24,29,22,87,,96,95,8,6,7,8,0.4,0.4
2024-09-14T1900,2674A,100.2561,34.4714,果洛藏族自治州,玛沁县大武镇,,24,19,12,15,9,76,,76,76,8,4,10,11,0.5,0.5
2024-09-14T1900,1129A,126.5422,45.755,哈尔滨市,岭北,,26,16,17,3,7,81,,82,82,10,18,4,5,0.2,0.4
2024-09-14T1900,1130A,126.561,45.8167,哈尔滨市,松北商大,,17,17,22,7,6,32,,54,54,34,24,7,8,0.4,0.4
2024-09-14T1900,1131A,126.979,45.5419,哈尔滨市,阿城会宁,,30,30,22,3,4,41,,46,46,26,21,10,10,0.5,0.5
2024-09-14T1900,1132A,126.599,45.7222,哈尔滨市,南岗学府路,,38,38,27,14,6,52,,62,62,23,20,6,6,0.5,0.5
2024-09-14T1900,1133A,126.689,45.7733,哈尔滨市,太平宏伟公园,,18,14,22,12,10,55,,57,57,18,19,9,7,0.6,0.4
2024-09-14T1900,1134A,126.635,45.7667,哈尔滨市,道外承德广场,,30,29,22,21,5,41,,56,56,34,21,5,5,0.6,0.4
2024-09-14T1900,1135A,126.685,45.7319,哈尔滨市,香坊红旗大街,,41,41,32,12,7,44,,62,62,34,21,5,6,0.5,0.4
2024-09-14T1900,1136A,126.6411,45.7258,哈尔滨市,动力和平路,,37,37,24,12,4,48,,59,59,27,21,7,8,0.6,0.5
2024-09-14T1900,1137A,126.593,45.7478,哈尔滨市,道里建国路,,27,27,22,10,6,40,,57,57,28,16,2,7,0.3,0.3
2024-09-14T1900,1138A,126.615,45.61,哈尔滨市,平房东轻厂,颗粒物(PM10),55,60,43,8,8,8,,50,46,67,36,6,6,0.7,0.5
2024-09-14T1900,1139A,126.595,45.9855,哈尔滨市,呼兰师专,,30,30,16,15,5,39,,53,53,29,14,8,8,0.4,0.4
2024-09-14T1900,1140A,126.6206,45.6842,哈尔滨市,省农科院,颗粒物(PM10),76,101,47,28,8,13,,49,47,62,28,8,7,0.6,0.5
2024-09-14T1900,2688A,93.5128,42.8172,哈密市,地区监测站,,36,15,55,10,17,115,,103,103,6,30,8,5,0.2,0.4
2024-09-14T1900,2689A,93.4961,42.8328,哈密市,哈密师范学校,,40,40,53,7,17,114,,103,103,9,32,4,4,0.3,0.6
2024-09-14T1900,2671A,100.9048,36.9639,海北藏族自治州,海晏县西海镇,,23,16,11,16,11,70,,87,82,17,8,16,13,0.6,0.5
2024-09-14T1900,3867A,102.0738,36.5056,海东市,平安区公安北苑,,39,39,31,23,18,84,,94,94,18,15,8,16,0.4,0.4
2024-09-14T1900,1410A,110.3232,20.0574,海口市,海南大学,,,13,13,8,8,64,,52,52,10,9,,6,0.4,0.4
2024-09-14T1900,1411A,110.283,20.0053,海口市,秀英海南医院,,19,18,22,11,11,60,,57,57,11,14,4,4,0.3,0.3
2024-09-14T1900,1412A,110.338,19.9969,海口市,海南师范大学,,21,14,18,10,10,67,,64,64,8,8,5,5,0.4,0.4
2024-09-14T1900,1413A,110.33,20.0356,海口市,龙华路环保局宿舍,,22,15,16,10,9,68,,56,56,7,8,3,3,0.3,0.3
2024-09-14T1900,3539A,110.5111,19.9736,海口市,桂林洋子站,,21,16,22,12,16,66,,64,64,6,10,5,5,0.2,0.3
2024-09-14T1900,2673A,100.6188,36.2866,海南藏族自治州,共和县恰卜恰镇,,24,21,19,9,7,75,,80,80,6,7,18,17,0.5,0.6
2024-09-14T1900,2676A,97.3731,37.3753,海西蒙古族藏族自治州,德令哈市,,28,28,17,9,10,89,,89,80,15,9,8,8,0.6,0.4
2024-09-14T1900,1048A,114.5302,36.6116,邯郸市,东污水处理厂,,34,34,44,12,21,61,,90,86,19,19,3,4,0.4,0.6
2024-09-14T1900,1049A,114.4918,36.5713,邯郸市,矿院,,42,42,42,17,22,71,,100,96,17,17,2,3,0.3,0.4
2024-09-14T1900,1050A,114.484,36.6133,邯郸市,丛台公园,,,40,50,16,23,70,,95,92,17,21,,2,,0.5
2024-09-14T1900,3458A,114.7895,36.5593,邯郸市,香泉濮院小区,颗粒物(PM10),53,55,42,12,16,73,,96,92,12,14,2,2,0.1,0.4
2024-09-14T1900,3579A,114.50634,36.77178,邯郸市,永年区实验高中,,40,40,54,22,27,79,,106,103,19,31,2,3,0.6,0.6
2024-09-14T1900,3580A,114.20016,36.44293,邯郸市,峰峰矿区临水派出所,,35,28,36,14,17,111,,118,116,7,14,2,5,0.5,0.6
2024-09-14T1900,2634A,106.9893,33.1842,汉中市,汉川机床厂子校,,28,20,19,14,10,87,,103,103,5,5,4,5,0.5,0.6
2024-09-14T1900,2635A,107.0154,33.0706,汉中市,市监测站,,30,17,23,10,13,96,,111,111,5,9,7,11,0.5,0.5
2024-09-14T1900,2636A,107.0089,33.1138,汉中市,鑫源开发区,,31,21,24,12,12,98,,116,116,5,10,8,12,0.5,0.6
2024-09-14T1900,2637A,107.007,33.0323,汉中市,南郑大河坎水厂,,27,16,21,13,14,86,,94,94,7,8,8,10,0.5,0.5
2024-09-14T1900,1223A,120.2072,30.2111,杭州市,滨江,,39,39,30,15,12,84,,96,96,17,20,6,6,0.6,0.5
2024-09-14T1900,1224A,120.0633,30.2747,杭州市,西溪,,29,21,24,20,13,90,,97,97,20,20,5,5,0.6,0.6
2024-09-14T1900,1226A,120.3461,30.3153,杭州市,下沙,,27,27,27,12,11,69,,96,96,17,25,8,8,0.5,0.6
2024-09-14T1900,1227A,120.1269,30.2456,杭州市,卧龙桥,,28,23,22,18,12,88,,102,102,21,18,7,6,0.6,0.6
2024-09-14T1900,1228A,120.1903,30.2692,杭州市,浙江农大,,26,26,23,17,14,70,,84,84,32,25,10,9,0.5,0.5
2024-09-14T1900,1230A,120.1197,30.3119,杭州市,和睦小学,,28,27,22,15,11,88,,106,106,23,21,6,7,0.5,0.5
2024-09-14T1900,1231A,120.3019,30.4183,杭州市,临平镇,,38,38,17,3,19,74,,103,103,11,15,5,6,0.9,0.9
2024-09-14T1900,1232A,120.2697,30.1819,杭州市,城厢镇,,30,30,33,13,17,88,,100,100,14,23,8,8,0.6,0.7
2024-09-14T1900,1233A,120.0883,30.1808,杭州市,云栖,,27,21,18,12,9,85,,105,105,18,18,7,7,0.6,0.6
2024-09-14T1900,3557A,119.9464,30.0494,杭州市,镇二中,,40,36,28,28,19,76,,107,107,23,20,9,9,0.6,0.6
2024-09-14T1900,3558A,119.7183,30.2367,杭州市,市府大楼,,42,29,22,26,17,132,,129,129,14,16,7,6,0.5,0.5
2024-09-14T1900,3656A,120.1556,30.2864,杭州市,消防大队,,31,31,27,15,13,84,,99,99,19,17,9,9,0.6,0.6
2024-09-14T1900,1270A,117.1959,31.7848,合肥市,明珠广场,,35,29,26,24,20,92,,92,92,17,12,6,5,0.7,0.6
2024-09-14T1900,1271A,117.3072,31.8764,合肥市,三里街,,46,46,33,24,20,101,,94,94,16,11,6,6,0.7,0.6
2024-09-14T1900,1272A,117.2588,31.8707,合肥市,琥珀山庄,,46,46,31,30,26,113,,99,99,11,8,6,6,1.0,0.8
2024-09-14T1900,1273A,117.1604,31.9052,合肥市,董铺水库,,41,41,28,22,19,91,,83,83,10,7,2,2,0.6,0.5
2024-09-14T1900,1274A,117.25,31.8571,合肥市,长江中路,颗粒物(PM10),52,53,35,30,23,95,,92,92,17,9,8,7,1.0,0.9
2024-09-14T1900,1275A,117.266,31.9436,合肥市,庐阳区,"颗粒物(PM10),细颗粒物(PM2.5)",52,53,32,36,20,115,,99,99,11,8,4,4,0.8,0.7
2024-09-14T1900,1276A,117.336,31.8586,合肥市,瑶海区,颗粒物(PM10),56,61,44,32,23,96,,99,99,25,17,5,5,0.8,0.7
2024-09-14T1900,1277A,117.3027,31.7964,合肥市,包河区,,41,41,31,24,40,84,,103,103,32,16,5,5,0.9,0.7
2024-09-14T1900,1278A,117.2776,31.7385,合肥市,滨湖新区,,41,41,30,22,20,83,,101,101,26,14,6,6,0.8,0.7
2024-09-14T1900,1279A,117.1318,31.8403,合肥市,高新区,,41,41,29,21,19,87,,82,82,14,8,7,7,0.9,0.9
2024-09-14T1900,3464A,117.3803,31.9147,合肥市,高教基地,,40,40,35,26,23,106,,103,103,12,11,3,3,0.7,0.6
2024-09-14T1900,3614A,79.924,37.0877,和田地区,地区环保局,颗粒物(PM10),135,219,284,63,76,104,,96,96,8,8,6,7,0.5,0.6
2024-09-14T1900,3615A,79.9131,37.113,和田地区,市环保局,颗粒物(PM10),129,207,273,,76,103,,93,93,8,12,5,6,0.4,0.5
2024-09-14T1900,2516A,108.2011,24.715,河池市,东仁乐园,,43,43,42,19,24,11,,19,18,9,12,4,5,0.7,0.7
2024-09-14T1900,2517A,108.0497,24.6947,河池市,市环保站,,36,34,38,25,25,79,,96,95,7,14,9,11,0.6,0.6
2024-09-14T1900,2518A,108.0983,24.6989,河池市,市疾控中心,,35,35,41,20,25,78,,93,93,13,17,9,9,0.6,0.6
2024-09-14T1900,1696A,114.6778,23.7569,河源市,源西,,29,20,20,20,18,58,,72,72,9,11,4,6,0.7,0.6
2024-09-14T1900,1697A,114.6944,23.7586,河源市,东埔,,26,,18,18,12,62,,73,73,10,11,2,3,0.6,0.6
2024-09-14T1900,1698A,114.6892,23.7233,河源市,老城,,33,33,21,12,11,56,,70,70,10,8,2,4,0.7,0.7
2024-09-14T1900,1718A,115.4208,35.2464,菏泽市,气象局,,39,39,45,20,28,88,,79,79,11,11,3,4,0.3,0.4
2024-09-14T1900,1719A,115.4747,35.2375,菏泽市,市政协,,42,42,42,13,28,85,,72,72,12,12,5,4,0.2,0.4
2024-09-14T1900,3374A,115.5564,35.0891,菏泽市,定陶老年大学,,36,36,48,12,31,79,,68,68,10,16,4,4,0.3,0.6
2024-09-14T1900,3647A,115.4702,35.2706,菏泽市,菏泽医专,,41,41,39,12,27,85,,72,72,10,11,7,6,0.3,0.5
2024-09-14T1900,2514A,111.5264,24.4172,贺州市,环保小区,,32,30,36,22,23,83,,105,104,12,11,7,7,0.6,0.7
2024-09-14T1900,2515A,111.5608,24.4078,贺州市,政协大楼,,44,44,39,11,22,84,,110,110,14,13,7,7,0.6,0.6
2024-09-14T1900,3534A,111.4744,24.4553,贺州市,西湾,,25,25,37,17,23,79,,104,102,14,11,7,7,0.7,0.6
2024-09-14T1900,2385A,114.17,35.9019,鹤壁市,市监测站,,44,44,53,26,28,109,,140,134,12,20,3,5,0.6,0.9
2024-09-14T1900,2386A,114.2956,35.7511,鹤壁市,市交警支队,,39,39,47,25,25,104,,134,127,15,23,3,8,0.6,0.7
2024-09-14T1900,2387A,114.2878,35.7306,鹤壁市,迎宾馆,,45,45,51,18,26,104,,138,130,14,21,6,9,0.7,0.8
2024-09-14T1900,3474A,114.2617,35.6822,鹤壁市,大新区,,34,34,48,19,23,102,,137,130,22,26,8,10,0.6,0.6
2024-09-14T1900,3596A,114.1572,35.9603,鹤壁市,南山宾馆,,39,30,48,27,28,107,,136,131,5,12,2,6,0.9,1.1
2024-09-14T1900,2244A,130.2537,47.3416,鹤岗市,哈啤分公司,,38,33,19,26,14,26,,48,47,20,7,14,14,0.5,0.4
2024-09-14T1900,2245A,130.2684,47.3086,鹤岗市,斯达机电,,35,35,21,19,16,32,,46,45,19,12,14,13,0.2,0.2
2024-09-14T1900,2246A,130.3114,47.3388,鹤岗市,东山纸板厂,,39,36,80,27,18,24,,45,44,26,17,16,17,0.7,0.9
2024-09-14T1900,2247A,130.1097,47.3382,鹤岗市,五号水库,,21,21,10,12,7,34,,55,53,5,5,16,16,0.2,0.2
2024-09-14T1900,2263A,127.4833,50.2524,黑河市,交通局,,26,24,17,18,10,48,,58,58,17,9,6,7,0.5,0.4
2024-09-14T1900,2264A,127.5144,50.2341,黑河市,环保局,,33,33,14,17,10,32,,62,60,34,10,4,6,0.5,0.4
2024-09-14T1900,2265A,127.5291,50.2472,黑河市,大黑河岛,,,,16,12,9,47,,60,60,15,4,3,2,,0
2024-09-14T1900,1074A,115.6838,37.7541,衡水市,电机北厂,,45,45,42,20,24,60,,62,62,17,16,9,6,0.6,0.5
2024-09-14T1900,1075A,115.6303,37.7316,衡水市,市监测站,,49,49,48,17,19,68,,67,67,18,17,10,7,0.6,0.5
2024-09-14T1900,3188A,115.6683,37.7217,衡水市,市城管局,,50,50,45,30,22,61,,65,65,19,14,6,5,0.7,0.6
2024-09-14T1900,3459A,115.5989,37.5491,衡水市,地表水厂,,31,31,36,3,14,68,,73,72,12,15,6,5,0.3,0.4
2024-09-14T1900,2456A,112.5003,26.9167,衡阳市,原169医院,,47,47,35,27,21,96,,102,102,12,18,5,4,0.7,0.7
2024-09-14T1900,2457A,112.6194,26.9258,衡阳市,衡阳化工总厂,,,48,43,,,110,,113,113,7,12,10,12,0.8,0.9
2024-09-14T1900,2458A,112.6211,26.8956,衡阳市,珠晖区环保局,,,50,39,,,107,,113,113,13,16,8,8,0.9,0.9
2024-09-14T1900,2459A,112.6197,26.8733,衡阳市,市委党校,颗粒物(PM10),53,55,40,24,25,123,,122,122,10,13,10,8,0.9,1
2024-09-14T1900,2460A,112.6006,26.8919,衡阳市,市监测站,细颗粒物(PM2.5),55,44,37,39,24,113,,117,117,14,12,9,8,1.0,0.9
2024-09-14T1900,2461A,112.5664,26.9056,衡阳市,真空机电公司,,41,41,37,24,20,108,,110,110,7,10,7,10,0.9,1
2024-09-14T1900,3399A,112.6703,26.882,衡阳市,师范学院,,43,37,38,30,22,113,,119,119,10,14,8,10,0.8,0.9
2024-09-14T1900,2608A,103.3772,23.3993,红河哈尼族彝族自治州,污水处理厂,,33,,23,23,22,47,,72,72,9,10,6,31,0.4,0.5
2024-09-14T1900,2609A,103.3861,23.35,红河哈尼族彝族自治州,监测站,,21,21,22,12,12,43,,79,76,11,9,11,16,0.4,0.4
2024-09-14T1900,3038A,103.3758,23.368,红河哈尼族彝族自治州,州图书馆,,26,26,24,7,12,41,,72,71,11,9,5,25,0.4,0.4
2024-09-14T1900,1090A,111.6507,40.7517,呼和浩特市,呼市一监,,17,12,8,7,3,52,,67,64,12,5,4,4,0.5,0.4
2024-09-14T1900,1091A,111.6572,40.8033,呼和浩特市,小召,,20,7,5,3,2,64,,70,68,14,10,6,6,0.4,0.4
2024-09-14T1900,1094A,111.7516,40.8369,呼和浩特市,如意水处理厂,,18,10,5,3,1,55,,65,62,18,8,6,6,0.4,0.3
2024-09-14T1900,1095A,111.7276,40.8062,呼和浩特市,二十九中,,18,15,7,3,2,55,,68,65,21,10,4,4,0.6,0.5
2024-09-14T1900,1096A,111.5512,40.7866,呼和浩特市,工大金川校区,,26,26,10,3,2,34,,64,55,40,14,2,2,0.5,0.3
2024-09-14T1900,1097A,111.717,40.7612,呼和浩特市,化肥厂生活区,,29,29,7,7,2,51,,74,70,24,8,7,8,0.4,0.3
2024-09-14T1900,3698A,111.5968,40.8178,呼和浩特市,红旗小学,,22,22,6,3,2,52,,66,64,26,12,3,2,0.4,0.3
2024-09-14T1900,3699A,111.6518,40.8389,呼和浩特市,海东办,,20,12,3,3,2,61,,68,67,20,10,6,6,0.4,0.3
2024-09-14T1900,2192A,119.7594,49.2261,呼伦贝尔市,区环保局,颗粒物(PM10),79,108,38,10,13,37,,57,55,26,14,5,5,0.5,0.5
2024-09-14T1900,3061A,119.7512,49.1577,呼伦贝尔市,国华电力东,,39,39,26,11,12,39,,62,59,17,11,4,3,0.3,0.2
2024-09-14T1900,1250A,120.0751,30.8669,湖州市,城西水厂,,47,27,24,16,12,149,,110,110,8,17,5,5,0.3,0.3
2024-09-14T1900,2873A,120.0875,30.8955,湖州市,仁皇山新区,,47,30,25,22,14,150,,120,120,19,21,6,7,0.4,0.4
2024-09-14T1900,2907A,120.1844,30.8596,湖州市,吴兴区站,,42,27,24,15,13,134,,114,114,10,15,5,5,0.3,0.3
2024-09-14T1900,3562A,120.4148,30.8538,湖州市,南浔区站,,24,24,23,13,13,68,,98,98,17,16,6,6,0.4,0.5
2024-09-14T1900,1607A,120.9092,40.7136,葫芦岛市,龙港区,,31,26,22,17,9,48,,68,67,28,16,93,18,0.7,0.4
2024-09-14T1900,1608A,120.8392,40.7514,葫芦岛市,化工街,,18,14,17,12,3,43,,66,64,26,12,12,14,0.3,0.2
2024-09-14T1900,1609A,120.8341,40.7073,葫芦岛市,新区,,26,21,21,18,4,48,,68,66,28,17,12,13,0.2,0.2
2024-09-14T1900,1610A,120.8695,40.7677,葫芦岛市,东城区,,19,15,17,13,5,35,,63,60,26,9,9,10,0.2,0.2
2024-09-14T1900,2482A,109.5981,27.5721,怀化市,林科所,,24,11,17,3,9,74,,74,74,4,5,6,12,1.0,0.7
2024-09-14T1900,2483A,109.9453,27.5444,怀化市,河西地税局,,23,18,23,13,16,72,,79,78,10,12,5,7,0.7,0.7
2024-09-14T1900,2484A,109.9781,27.5342,怀化市,市四医院,,25,25,21,10,15,76,,81,81,5,7,6,8,0.6,0.6
2024-09-14T1900,2485A,109.9972,27.5578,怀化市,监测楼,,25,19,26,17,16,74,,80,80,7,7,2,4,0.8,0.9
2024-09-14T1900,2486A,110.0394,27.583,怀化市,市委党校,,23,,26,15,21,73,,79,79,8,9,7,12,0.7,0.8
2024-09-14T1900,1210A,119.036,33.5981,淮安市,钵池山,颗粒物(PM10),51,51,22,27,21,80,,96,96,13,14,7,7,0.9,0.8
2024-09-14T1900,1211A,119.007,33.575,淮安市,北京南路,细颗粒物(PM2.5),52,51,28,36,19,80,,86,86,12,18,5,7,0.9,0.9
2024-09-14T1900,1212A,118.989,33.6067,淮安市,市监测站,颗粒物(PM10),53,56,28,36,22,88,,96,96,13,18,6,7,0.9,0.9
2024-09-14T1900,1213A,119.135,33.5039,淮安市,楚州区监测站,颗粒物(PM10),58,66,46,31,24,84,,100,100,13,20,5,6,0.8,0.7
2024-09-14T1900,1214A,119.0186,33.6297,淮安市,淮阴区监测站,颗粒物(PM10),57,63,31,25,21,83,,92,92,15,20,3,4,0.8,0.8
2024-09-14T1900,3426A,118.8755,33.2894,淮安市,新华书店,,30,30,34,16,23,91,,112,112,22,14,7,6,0.8,0.7
2024-09-14T1900,2282A,116.8004,33.975,淮北市,监测站,细颗粒物(PM2.5),59,58,67,42,44,82,,104,104,9,9,5,6,0.9,0.8
2024-09-14T1900,2283A,116.8091,33.9007,淮北市,烈山区政府,细颗粒物(PM2.5),68,72,80,49,55,88,,108,108,8,11,5,6,0.7,0.7
2024-09-14T1900,3330A,116.8873,33.9836,淮北市,杜集区检察院,细颗粒物(PM2.5),93,75,77,69,77,87,,108,108,10,10,8,4,0.9,0.9
2024-09-14T1900,4017A,116.7923,33.9535,淮北市,市博物馆,细颗粒物(PM2.5),60,67,74,43,44,85,,107,107,12,14,5,5,0.9,0.9
2024-09-14T1900,2277A,116.8305,32.7727,淮南市,潘集区政府,,42,42,41,15,27,88,,84,84,14,12,5,5,0.7,0.7
2024-09-14T1900,2278A,117.0067,32.6524,淮南市,师范学院,,,,47,25,35,97,,92,92,10,8,6,7,0.5,0.5
2024-09-14T1900,2279A,116.8569,32.5951,淮南市,谢家集区政府,,38,,36,26,34,83,,89,89,18,15,9,6,0.5,0.5
2024-09-14T1900,2280A,116.8281,32.633,淮南市,八公山区政府,,38,38,51,26,35,82,,77,77,14,12,3,4,0.5,0.4
2024-09-14T1900,2281A,116.6325,32.6201,淮南市,焦岗湖风景区管理处,,23,23,49,15,23,51,,54,54,6,5,4,4,0.2,0.3
2024-09-14T1900,2894A,117.0566,32.6531,淮南市,经济技术开发区消防队,,30,10,29,8,12,94,,85,85,9,8,4,5,0.5,0.5
2024-09-14T1900,3329A,117.0108,32.5893,淮南市,山南新区,,35,35,51,13,34,97,,94,94,14,16,4,4,0.6,0.7
2024-09-14T1900,2446A,114.9028,30.4742,黄冈市,职工中心,,50,37,38,22,22,158,,142,142,12,13,9,8,0.8,0.7
2024-09-14T1900,2929A,114.8858,30.4519,黄冈市,红卫路,臭氧1小时,55,41,34,31,24,164,,149,149,8,5,10,9,0.8,0.7
2024-09-14T1900,3398A,114.9136,30.4445,黄冈市,市林业局,臭氧1小时,80,42,39,25,24,184,,161,161,14,13,8,8,0.5,0.5
2024-09-14T1900,2672A,102.0199,35.5102,黄南藏族自治州,同仁县隆务镇,,29,29,21,14,8,70,,79,75,14,9,9,8,0.6,0.6
2024-09-14T1900,2295A,118.2903,29.6963,黄山市,延安路89号,,28,28,32,3,7,71,,102,94,4,7,6,6,0.4,0.4
2024-09-14T1900,2296A,118.327,29.7178,黄山市,黄山东路89号,,23,21,20,10,10,73,,98,93,4,6,4,4,0.3,0.4
2024-09-14T1900,2297A,118.1371,30.2756,黄山市,黄山区政府5号楼,,45,43,24,31,13,128,,115,115,9,7,6,6,0.5,0.4
2024-09-14T1900,2423A,115.0601,30.2313,黄石市,沈家营,,46,45,68,18,24,147,,153,153,10,14,7,7,0.7,0.8
2024-09-14T1900,2424A,115.0817,30.2006,黄石市,陈家湾,,49,45,61,21,24,155,,160,160,10,12,7,10,0.6,0.7
2024-09-14T1900,2426A,114.8988,30.2019,黄石市,铁山,,43,34,50,14,35,136,,156,156,7,17,9,10,0.6,0.8
2024-09-14T1900,2427A,115.0307,30.2092,黄石市,团城山,,47,43,61,17,21,150,,150,150,10,16,4,8,0.6,0.8
2024-09-14T1900,3149A,115.0235,30.1578,黄石市,笔架山北路,,48,42,63,13,23,152,,158,158,6,13,8,9,0.6,0.9
2024-09-14T1900,1392A,114.4183,23.0528,惠州市,河南岸金山湖子站,,27,19,25,12,19,86,,108,108,10,10,4,5,0.4,0.5
2024-09-14T1900,1393A,114.4053,23.0822,惠州市,下埔横江三路子站,,30,17,24,10,15,93,,112,111,13,11,3,4,0.6,0.6
2024-09-14T1900,1394A,114.4103,23.1142,惠州市,江北云山西路子站,,30,20,24,7,13,96,,105,105,13,9,4,5,0.5,0.5
2024-09-14T1900,1395A,114.4645,22.7833,惠州市,惠阳区承修路船湖子站,,25,18,26,12,17,80,,117,115,22,21,5,5,0.7,0.6
2024-09-14T1900,1396A,114.5317,22.7422,惠州市,大亚湾管委会子站,,28,28,30,16,17,79,,110,107,30,20,7,6,0.7,0.7
2024-09-14T1900,3314A,114.4338,22.8134,惠州市,惠阳秋长,,30,12,24,9,16,93,,132,129,16,21,5,5,0.5,0.7
2024-09-14T1900,3452A,114.6517,22.775,惠州市,大亚湾霞涌,,23,,20,11,14,71,,92,91,15,9,4,4,0.7,0.6
2024-09-14T1900,2240A,130.9762,45.3001,鸡西市,环保局,,11,11,26,6,9,34,,46,45,10,13,2,6,0.4,0.3
2024-09-14T1900,2243A,130.9429,45.3039,鸡西市,第一中学,,13,11,27,3,10,40,,48,48,5,16,4,5,0.1,0.2
2024-09-14T1900,3707A,131.0207,45.3073,鸡西市,欧美日汽修厂,,14,14,32,9,12,42,,46,45,13,18,7,6,0.1,0.1
2024-09-14T1900,3709A,130.9967,45.3106,鸡西市,市政设施管理处,,16,16,27,10,10,40,,46,46,12,21,5,6,0.1,0.1
2024-09-14T1900,2367A,114.9754,27.0803,吉安市,红声器材厂,颗粒物(PM10),51,52,48,32,28,118,,130,128,12,12,10,13,0.7,0.8
2024-09-14T1900,2368A,114.9658,27.0999,吉安市,市森林工业局,,,45,44,27,29,120,,129,128,16,17,10,11,,0.6
2024-09-14T1900,2369A,114.99,27.1312,吉安市,市环境监测站,,50,50,42,26,24,122,,136,134,14,12,10,14,0.8,0.8
2024-09-14T1900,2370A,115.0093,27.0968,吉安市,青原区法院,,48,48,44,31,28,123,,134,133,13,14,10,14,0.7,0.8
2024-09-14T1900,1772A,126.54,43.8622,吉林市,哈达湾,,25,23,20,17,8,23,,55,50,44,17,10,9,0.7,0.6
2024-09-14T1900,1773A,126.5844,43.8358,吉林市,东局子,,35,35,21,13,6,16,,53,47,37,15,5,5,0.7,0.5
2024-09-14T1900,1774A,126.5052,43.8245,吉林市,电力学院,颗粒物(PM10),55,59,23,22,7,11,,54,47,28,14,3,6,0.9,0.7
2024-09-14T1900,1775A,126.6133,43.8972,吉林市,江北,颗粒物(PM10),71,92,21,20,7,9,,53,45,36,10,9,8,0.9,0.6
2024-09-14T1900,1776A,126.555,43.8306,吉林市,江南公园,,32,32,18,20,7,33,,54,50,34,18,9,8,0.7,0.6
2024-09-14T1900,2868A,126.4739,43.953,吉林市,九站,,26,26,25,14,11,13,,54,48,48,21,10,25,0.7,0.6
2024-09-14T1900,1299A,116.9862,36.6114,济南市,科干所,,46,46,48,15,28,83,,75,75,24,25,9,6,0.6,0.8
2024-09-14T1900,1300A,116.9376,36.665,济南市,农科所,颗粒物(PM10),51,51,47,12,28,85,,72,72,24,26,8,8,0.5,0.5
2024-09-14T1900,1301A,117.1265,36.6734,济南市,开发区,,44,44,42,17,25,76,,73,73,27,23,9,5,0.5,0.6
2024-09-14T1900,1303A,117.0624,36.6868,济南市,省种子仓库,,41,41,48,9,24,87,,77,77,19,21,6,6,0.8,0.9
2024-09-14T1900,1304A,116.9489,36.6447,济南市,机床二厂,,37,37,44,10,23,91,,79,79,19,24,8,6,0.6,0.7
2024-09-14T1900,1305A,117.0495,36.663,济南市,市监测站,,37,37,45,12,29,88,,80,80,18,22,8,7,0.5,0.7
2024-09-14T1900,1306A,116.7675,36.5484,济南市,长清党校,,44,44,48,15,28,100,,92,92,17,21,9,6,0.7,0.8
2024-09-14T1900,1616A,117.6795,36.229,济南市,技术学院,,39,39,25,12,17,81,,66,66,13,20,8,6,0.7,0.9
2024-09-14T1900,1961A,117.532,36.6868,济南市,东山小学,,46,46,43,17,22,82,,85,85,22,24,4,3,0.6,0.7
2024-09-14T1900,3059A,117.7161,36.2049,济南市,泰兴公司,,31,31,28,14,19,84,,63,63,11,21,7,7,0.4,0.6
2024-09-14T1900,3064A,117.6867,36.2171,济南市,莱芜战役纪念馆,,31,31,27,9,16,76,,60,60,12,20,3,8,0.5,0.7
2024-09-14T1900,3494A,117.1673,36.9782,济南市,济阳区政府,,34,34,28,7,11,78,,82,82,17,10,8,8,0.6,0.6
2024-09-14T1900,3495A,117.1171,36.63,济南市,锦屏中学,,37,37,38,12,23,86,,79,79,19,21,12,5,0.5,0.6
2024-09-14T1900,3682A,116.9814,36.6819,济南市,济南四建,,39,39,41,12,24,81,,69,69,19,22,8,8,0.6,0.8
2024-09-14T1900,1653A,116.6251,35.4302,济宁市,火炬城,,19,16,66,12,41,58,,66,64,14,17,9,10,0.8,1.1
2024-09-14T1900,1655A,116.5491,35.4042,济宁市,电化厂,,30,30,60,14,42,59,,64,64,17,22,6,8,0.7,1
2024-09-14T1900,3500A,116.5814,35.3707,济宁市,北湖一中,,20,14,63,14,44,52,,65,65,18,19,4,6,0.6,0.8
2024-09-14T1900,3501A,116.8249,35.5593,济宁市,服务中心,,20,20,47,12,37,59,,58,58,13,20,5,6,0.5,0.8
2024-09-14T1900,3678A,116.5907,35.4054,济宁市,市第七中学,,24,24,54,7,37,52,,63,63,16,19,6,7,0.7,0.9
2024-09-14T1900,2255A,130.2751,46.8028,佳木斯市,佳纺,,13,12,21,6,7,41,,61,57,10,14,3,4,0.4,0.4
2024-09-14T1900,2256A,130.3995,46.8307,佳木斯市,发电厂,,12,12,21,3,7,37,,56,53,17,14,4,6,0.5,0.4
2024-09-14T1900,2257A,130.3258,46.7975,佳木斯市,环保局,,21,21,22,3,9,42,,56,53,11,19,8,8,0.4,0.4
2024-09-14T1900,2258A,130.3648,46.8032,佳木斯市,十一中,,22,22,22,3,9,35,,54,50,26,23,6,7,0.5,0.5
2024-09-14T1900,2259A,130.3794,46.7588,佳木斯市,四丰,,15,12,11,3,4,48,,54,53,9,13,1,1,0.2,0.2
2024-09-14T1900,1252A,120.7436,30.778,嘉兴市,清河小学,,32,32,23,14,8,47,,80,79,21,19,4,4,0.3,0.2
2024-09-14T1900,1253A,120.726,30.7478,嘉兴市,嘉兴学院,,21,21,18,10,9,44,,79,78,18,14,3,3,0.4,0.4
2024-09-14T1900,2872A,120.7846,30.7525,嘉兴市,南湖区残联,,22,22,20,11,8,47,,93,87,21,16,4,4,0.4,0.4
2024-09-14T1900,3407A,120.6916,30.7739,嘉兴市,秀洲住建,,17,17,16,10,9,44,,87,85,25,19,4,4,0.6,0.6
2024-09-14T1900,1945A,98.2908,39.7711,嘉峪关市,气象局,颗粒物(PM10),64,78,78,9,14,85,,84,78,4,8,3,4,0.2,0.2
2024-09-14T1900,2884A,98.2672,39.7978,嘉峪关市,酒钢宾馆,颗粒物(PM10),60,70,83,14,17,88,,84,76,6,13,9,7,0.3,0.5
2024-09-14T1900,3248A,98.2643,39.7724,嘉峪关市,雄关区,颗粒物(PM10),52,53,70,19,14,79,,80,70,7,10,9,8,0.4,0.4
2024-09-14T1900,1383A,113.1064,22.6058,江门市,北街,,26,26,33,12,26,66,,83,82,18,24,4,4,0.7,0.7
2024-09-14T1900,1384A,113.0731,22.5835,江门市,西区,,25,22,38,14,23,78,,94,94,20,31,5,5,0.5,0.7
2024-09-14T1900,1385A,113.0219,22.5311,江门市,圭峰西,,28,14,32,13,24,88,,98,98,11,12,3,3,0.6,0.6
2024-09-14T1900,1386A,113.0828,22.5947,江门市,东湖,,23,19,39,10,23,72,,81,81,16,20,2,3,0.5,0.6
2024-09-14T1900,3311A,113.1075,22.5647,江门市,江海富民,,35,33,49,24,30,78,,96,96,15,24,6,6,0.6,0.8
2024-09-14T1900,3449A,113.05,22.4667,江门市,新会银湖,,31,,39,16,44,98,,83,83,11,24,6,5,0.7,0.9
2024-09-14T1900,1828A,113.227,35.2125,焦作市,市环保局,颗粒物(PM10),63,76,69,34,40,125,,181,178,15,22,5,22,0.6,0.8
2024-09-14T1900,3169A,113.2725,35.2067,焦作市,太极体育中心,颗粒物(PM10),63,76,74,35,33,132,,186,183,12,17,7,15,0.9,1
2024-09-14T1900,3335A,113.3137,35.2641,焦作市,马村街道办,细颗粒物(PM2.5),67,53,60,48,38,126,,174,170,13,18,3,6,0.6,0.8
2024-09-14T1900,3336A,113.2465,35.2373,焦作市,焦作技师学院,颗粒物(PM10),55,59,61,34,35,124,,174,171,14,16,5,12,0.7,0.9
2024-09-14T1900,3477A,113.1656,35.2539,焦作市,中站许衡医院,细颗粒物(PM2.5),57,56,51,40,29,123,,177,173,18,23,4,11,0.5,0.7
2024-09-14T1900,3981A,113.2449,35.1803,焦作市,原李万街道办,颗粒物(PM10),65,80,63,34,36,131,,181,178,9,17,2,14,1.1,1.3
2024-09-14T1900,1708A,116.3701,23.5345,揭阳市,新兴,,44,44,35,22,21,44,,88,81,28,16,5,5,0.9,0.7
2024-09-14T1900,1709A,116.3264,23.5443,揭阳市,西马,颗粒物(PM10),51,51,41,15,18,43,,86,79,22,10,5,6,0.7,0.7
2024-09-14T1900,1710A,116.3611,23.5626,揭阳市,东兴,,36,36,44,18,18,46,,86,78,28,14,5,4,0.9,0.7
2024-09-14T1900,1711A,116.4151,23.5294,揭阳市,渔湖,颗粒物(PM10),54,57,41,15,15,45,,83,75,28,16,9,5,0.6,0.5
2024-09-14T1900,3320A,116.403,23.5699,揭阳市,曲溪,,38,38,36,26,18,52,,81,76,23,16,2,2,0.9,0.6
2024-09-14T1900,1944A,102.1692,38.5167,金昌市,天庆家园,颗粒物(PM10),62,74,43,22,17,63,,83,70,22,16,12,13,0.9,0.5
2024-09-14T1900,3170A,102.1864,38.5253,金昌市,市委党校,颗粒物(PM10),59,67,47,12,12,64,,77,62,12,10,7,7,0.6,0.7
2024-09-14T1900,4022A,102.1647,38.5371,金昌市,金川区人防中心,,,82,49,16,14,61,,81,62,16,12,,14,1.0,0.7
2024-09-14T1900,1262A,119.647,29.077,金华市,十五中,,37,37,28,10,12,83,,95,94,16,17,3,2,0.4,0.4
2024-09-14T1900,1263A,119.686,29.1029,金华市,监测站,,39,39,29,19,14,75,,92,91,18,21,3,3,0.3,0.4
2024-09-14T1900,3659A,119.656,29.1131,金华市,气象局,细颗粒物(PM2.5),52,37,26,36,10,80,,92,90,19,24,5,5,0.1,0.1
2024-09-14T1900,1767A,121.1115,41.0879,锦州市,南山,,14,10,13,9,5,43,,62,60,26,12,8,9,0.5,0.4
2024-09-14T1900,1768A,121.0533,40.8434,锦州市,开发区,,16,9,24,9,8,49,,62,62,19,14,15,7,0.4,0.4
2024-09-14T1900,1769A,121.1836,41.1119,锦州市,百股街道,,18,18,16,3,2,45,,60,59,21,13,10,9,0.5,0.6
2024-09-14T1900,1770A,121.1178,41.1222,锦州市,天安街道,,24,24,18,9,6,46,,59,58,20,11,8,9,0.4,0.4
2024-09-14T1900,1771A,121.1303,41.1386,锦州市,北湖公园,,23,23,18,10,6,48,,65,63,19,11,8,10,0.4,0.3
2024-09-14T1900,2160A,112.85,35.5051,晋城市,自来水公司,臭氧1小时,95,81,75,34,39,196,,196,196,16,20,10,13,1.1,1.1
2024-09-14T1900,2161A,112.8318,35.4936,晋城市,白云商贸,臭氧1小时,92,81,75,29,40,193,,193,193,20,22,10,13,1.1,1.1
2024-09-14T1900,2162A,112.8508,35.4887,晋城市,市环保局,臭氧1小时,85,71,71,36,41,188,,191,191,18,21,10,13,1.1,1.1
2024-09-14T1900,2163A,112.8676,35.4897,晋城市,技术学院,臭氧1小时,84,54,62,36,39,187,,188,188,20,24,11,14,1.2,1.2
2024-09-14T1900,3620A,112.8271,35.4828,晋城市,泽州一中,臭氧1小时,78,54,70,36,42,182,,184,184,24,28,13,14,1.1,1.1
2024-09-14T1900,2171A,112.7532,37.6945,晋中市,锦纶小区,,37,29,52,19,23,118,,133,130,12,18,6,8,0.8,0.7
2024-09-14T1900,2173A,112.7249,37.7067,晋中市,南都小区,,36,29,43,25,27,115,,130,128,16,20,5,6,0.7,0.9
2024-09-14T1900,2174A,112.6991,37.6982,晋中市,榆次区政府,,40,34,47,28,24,114,,128,126,14,17,5,6,0.8,0.7
2024-09-14T1900,2865A,112.7195,37.6828,晋中市,榆次三中,,36,24,50,17,19,115,,130,128,13,18,6,8,0.7,0.7
2024-09-14T1900,2439A,112.2014,31.0481,荆门市,竹园小学,,48,48,59,23,31,124,,150,150,15,22,12,12,0.7,0.8
2024-09-14T1900,2440A,112.1969,30.9891,荆门市,掇刀,,46,46,52,26,33,135,,157,157,16,20,16,15,0.6,0.7
2024-09-14T1900,2441A,112.2213,31.0386,荆门市,石化一小,,48,48,64,23,34,125,,153,153,13,24,15,15,0.7,0.8
2024-09-14T1900,3012A,112.1849,31.0362,荆门市,西山林语,,48,48,52,19,28,135,,156,156,14,17,10,9,0.7,0.8
2024-09-14T1900,3547A,112.1632,31.0138,荆门市,龙泉中学南校,,43,26,48,26,24,135,,156,156,9,17,11,11,0.6,0.8
2024-09-14T1900,1844A,112.2494,30.3197,荆州市,市图书馆,颗粒物(PM10),51,52,41,28,29,142,,142,142,18,24,7,7,0.8,0.8
2024-09-14T1900,1845A,112.2008,30.3544,荆州市,市委党校,颗粒物(PM10),51,52,47,29,28,155,,147,147,15,21,5,5,0.8,0.8
2024-09-14T1900,3194A,112.2747,30.3122,荆州市,管委会,,43,39,47,15,27,135,,142,142,18,20,6,7,0.8,0.8
2024-09-14T1900,3548A,112.1655,30.3364,荆州市,学苑路,颗粒物(PM10),56,61,88,30,44,156,,151,151,18,24,7,6,0.7,0.7
2024-09-14T1900,2343A,117.2117,29.2933,景德镇市,老干部活动中心,,23,23,28,13,18,72,,87,86,7,11,5,8,0.4,0.5
2024-09-14T1900,2344A,117.1894,29.2789,景德镇市,兽医站,,31,31,30,16,18,73,,95,93,6,10,6,8,0.6,0.7
2024-09-14T1900,2345A,117.1547,29.2617,景德镇市,台达陶瓷,,40,40,30,24,19,76,,84,84,16,14,24,18,0.4,0.5
2024-09-14T1900,2346A,117.2461,29.2956,景德镇市,陶研所,,37,37,32,20,15,72,,89,88,10,12,4,4,0.3,0.4
2024-09-14T1900,1803A,115.9872,29.6815,九江市,十里,,36,35,40,23,23,114,,106,106,14,16,9,12,1.0,1
2024-09-14T1900,1804A,115.9584,29.7046,九江市,茅山头,,37,37,41,23,26,103,,105,105,17,19,6,10,0.9,1
2024-09-14T1900,1805A,115.9877,29.7295,九江市,西园,,30,30,38,19,28,93,,99,99,25,21,8,13,0.9,0.9
2024-09-14T1900,1806A,116.0172,29.6547,九江市,五七二七厂,,26,24,32,18,20,64,,85,85,13,15,7,8,0.8,0.9
2024-09-14T1900,1808A,115.9114,29.6038,九江市,综合工业园,,35,33,43,17,27,109,,115,115,19,23,10,17,1.1,1.1
2024-09-14T1900,1809A,116.0721,29.7535,九江市,石化总厂,,40,30,48,28,33,91,,95,95,33,20,9,12,0.8,1
2024-09-14T1900,1810A,115.9773,29.5698,九江市,庐山气象台,颗粒物(PM10),65,79,30,22,17,113,,104,104,5,4,8,10,0.7,0.9
2024-09-14T1900,3190A,116.0254,29.6994,九江市,外国语学校,,36,36,40,21,21,115,,105,105,13,17,10,12,0.7,0.9
2024-09-14T1900,2658A,98.5061,39.7443,酒泉市,仓门街子站,,,70,74,15,13,77,,75,75,,8,9,32,0.4,0.3
2024-09-14T1900,2659A,98.4989,39.7256,酒泉市,油田生活基地,颗粒物(PM10),59,68,81,11,12,74,,80,73,16,16,9,15,0.3,0.2
2024-09-14T1900,2698A,76.0072,39.4467,喀什地区,巡警大队,颗粒物(PM10),136,222,238,54,52,99,,91,91,5,36,4,4,0.3,0.6
2024-09-14T1900,2699A,75.9755,39.4694,喀什地区,吾办,颗粒物(PM10),140,229,227,63,69,94,,88,88,12,35,5,4,0.3,0.5
2024-09-14T1900,4027A,75.9483,39.4689,喀什地区,老干局,颗粒物(PM10),143,236,260,41,42,93,,84,84,6,30,4,4,0.1,0.3
2024-09-14T1900,1824A,114.3389,34.7781,开封市,肿瘤医院,,39,39,42,20,24,99,,109,106,10,18,4,7,0.5,0.6
2024-09-14T1900,1826A,114.2885,34.7965,开封市,世纪星幼儿园,,,47,43,,22,100,,114,111,8,17,3,7,0.5,0.6
2024-09-14T1900,3147A,114.3438,34.8106,开封市,龙亭公园,,38,38,41,13,22,88,,100,97,12,19,3,7,0.6,0.7
2024-09-14T1900,3210A,114.3644,34.7964,开封市,汴京公园,,40,40,41,19,26,93,,102,100,12,18,5,8,0.6,0.7
2024-09-14T1900,3473A,114.2485,34.8306,开封市,技师学院,,44,44,44,16,18,98,,115,111,11,27,6,7,0.8,0.9
2024-09-14T1900,3592A,114.4644,34.7556,开封市,祥符区生态环境局,,26,26,38,18,26,74,,86,80,19,22,9,11,0.6,0.7
2024-09-14T1900,1951A,84.895,45.6094,克拉玛依市,长征新村,,24,13,12,3,5,75,,70,70,4,4,6,6,0.2,0.2
2024-09-14T1900,1952A,84.8988,45.5893,克拉玛依市,南林小区,,25,13,11,3,10,77,,71,71,4,3,9,9,0.2,0.4
2024-09-14T1900,1954A,84.905,44.3396,克拉玛依市,独山子区,,27,26,19,8,7,84,,72,72,12,9,7,7,0.4,0.3
2024-09-14T1900,1955A,85.6979,46.098,克拉玛依市,乌尔禾区商贸楼,,25,16,16,3,5,80,,77,77,6,4,3,11,0.2,0.3
2024-09-14T1900,3612A,85.1045,45.6899,克拉玛依市,白碱滩区新站,,25,14,17,8,6,80,,74,74,4,5,7,7,0.1,0.1
2024-09-14T1900,2697A,76.1454,39.7142,克孜勒苏柯尔克孜自治州,市人民政府,颗粒物(PM10),116,182,180,63,63,105,,103,103,1,15,3,9,0.2,0.3
2024-09-14T1900,3665A,76.1658,39.7157,克孜勒苏柯尔克孜自治州,克州文化中心,颗粒物(PM10),117,183,175,67,60,108,,108,108,2,11,6,12,0.2,0.2
2024-09-14T1900,1450A,102.8204,24.8886,昆明市,呈贡新区,,46,46,36,23,19,79,,88,88,14,27,4,4,0.7,0.8
2024-09-14T1900,1452A,102.7252,25.0902,昆明市,龙泉镇,,32,32,27,12,12,99,,114,114,15,22,8,7,0.6,0.7
2024-09-14T1900,1453A,102.7266,25.0375,昆明市,东风东路,,,25,34,15,17,76,,94,94,,35,,6,,0.5
2024-09-14T1900,1454A,102.6742,25.0669,昆明市,金鼎山,,39,39,32,14,17,86,,100,100,19,20,9,13,0.4,0.5
2024-09-14T1900,1455A,102.6644,25.0401,昆明市,碧鸡广场,,25,25,28,9,13,75,,90,90,18,20,6,5,0.5,0.6
2024-09-14T1900,3179A,102.7494,25.0119,昆明市,官渡区博物馆,,29,29,39,14,16,89,,104,104,11,33,8,7,0.3,0.5
2024-09-14T1900,3375A,102.8017,24.8336,昆明市,青年创业园,,29,21,25,20,16,81,,89,89,8,18,3,3,0.6,0.6
2024-09-14T1900,3550A,102.7997,24.9786,昆明市,昆明学院,,28,24,44,13,22,87,,100,100,11,28,6,6,0.4,0.6
2024-09-14T1900,3551A,102.5967,24.6736,昆明市,晋宁区生态环境分局,,38,38,33,17,21,91,,93,93,9,15,2,2,0.3,0.5
2024-09-14T1900,3552A,102.6678,24.9856,昆明市,云天化总部,,25,22,31,11,18,78,,96,96,12,22,11,7,0.4,0.5
2024-09-14T1900,1456A,91.1319,29.6514,拉萨市,八廓街,,30,6,10,6,7,96,,88,88,7,16,7,9,0.1,0.1
2024-09-14T1900,1457A,91.1221,29.6747,拉萨市,市环保局,,30,6,10,3,6,94,,90,90,10,11,8,7,0.2,0.2
2024-09-14T1900,1458A,91.0874,29.6475,拉萨市,区监测站,,27,6,9,3,6,85,,82,82,8,11,8,8,0.3,0.1
2024-09-14T1900,1459A,91.1774,29.6541,拉萨市,西藏大学,,30,6,9,3,6,93,,86,86,4,10,8,9,0.2,0.2
2024-09-14T1900,1460A,90.9798,29.6588,拉萨市,区辐射站,,27,8,10,3,6,84,,83,83,9,10,8,8,0.1,0.1
2024-09-14T1900,1461A,91.0834,29.6292,拉萨市,拉萨火车站,,28,6,8,3,5,88,,80,79,6,7,6,5,0.1,0.1
2024-09-14T1900,2520A,109.2203,23.7256,来宾市,来宾技工学校,,48,45,51,33,32,127,,119,119,10,14,5,18,0.8,0.7
2024-09-14T1900,3535A,109.1781,23.7297,来宾市,兴宾区政府,,40,33,38,23,28,128,,117,117,7,9,6,6,0.9,0.7
2024-09-14T1900,4002A,109.2416,23.7461,来宾市,中南小学,,49,44,50,34,29,137,,132,132,10,15,5,7,0.8,0.8
2024-09-14T1900,1476A,103.631,36.1031,兰州市,兰炼宾馆,颗粒物(PM10),57,63,44,32,27,65,,71,71,37,27,4,5,0.6,0.4
2024-09-14T1900,1478A,103.8412,36.0726,兰州市,生物制品所,,45,45,35,28,25,75,,68,68,17,32,8,10,0.4,0.4
2024-09-14T1900,1479A,103.831,36.0464,兰州市,铁路设计院,颗粒物(PM10),54,58,41,35,27,44,,52,50,47,40,5,7,0.7,0.5
2024-09-14T1900,3186A,103.7158,36.1058,兰州市,教育港,颗粒物(PM10),57,63,49,36,30,64,,69,68,34,30,6,7,0.6,0.5
2024-09-14T1900,3241A,103.7439,36.0842,兰州市,百合公园,,45,45,40,25,16,60,,66,66,35,36,10,10,0.6,0.5
2024-09-14T1900,3242A,103.9611,35.998,兰州市,和平,颗粒物(PM10),51,51,36,26,16,59,,76,74,31,27,8,10,0.5,0.4
2024-09-14T1900,3245A,103.6633,36.533,兰州新区,新区管委会,,49,45,39,34,22,90,,95,95,11,12,19,18,0.6,0.5
2024-09-14T1900,3246A,103.6975,36.4789,兰州新区,舟曲中学,,31,31,30,19,19,81,,100,99,18,14,31,36,0.5,0.6
2024-09-14T1900,1067A,116.6708,39.5111,廊坊市,药材公司,,21,21,40,3,9,54,,69,69,14,18,2,4,0.3,0.4
2024-09-14T1900,1068A,116.7214,39.5589,廊坊市,开发区,,18,7,32,3,12,55,,70,70,12,20,1,2,0.3,0.4
2024-09-14T1900,1070A,116.7244,39.5269,廊坊市,北华航天学院,,18,18,47,3,9,52,,70,70,13,19,2,4,0.3,0.4
2024-09-14T1900,2919A,116.7022,39.5453,廊坊市,河北工业大学,,25,25,42,8,13,55,,70,70,12,19,1,4,0.3,0.4
2024-09-14T1900,2535A,103.7723,29.5462,乐山市,花湖湾,,34,,20,19,10,108,,106,106,8,8,5,5,0.4,0.4
2024-09-14T1900,2536A,103.7627,29.5844,乐山市,牛耳桥,,,19,23,18,21,112,,112,112,27,16,,3,0.5,0.5
2024-09-14T1900,2537A,103.7508,29.6006,乐山市,市第三水厂,,36,23,22,11,17,114,,119,119,16,12,2,2,0.5,0.4
2024-09-14T1900,2538A,103.7571,29.5664,乐山市,市监测站,,34,,29,9,19,108,,96,,11,8,2,3,0.4,0.6
2024-09-14T1900,3361A,103.7311,29.5628,乐山市,理工大学,,35,15,23,12,18,111,,121,121,11,10,1,2,0.6,0.6
2024-09-14T1900,2599A,100.2497,26.8802,丽江市,丽江古城,,30,30,29,15,19,62,,70,70,13,13,10,10,0.6,0.7
2024-09-14T1900,2600A,100.2203,26.8906,丽江市,市中心,,20,15,21,10,17,63,,70,70,7,6,13,11,0.7,0.7
2024-09-14T1900,1267A,119.914,28.4514,丽水市,监测站大楼,,30,30,24,14,8,42,,69,68,20,16,4,4,0.5,0.4
2024-09-14T1900,1268A,119.93,28.4586,丽水市,莲都小学,,28,28,22,3,10,39,,73,70,19,13,4,4,0.4,0.4
2024-09-14T1900,1269A,119.879,28.4231,丽水市,余庄前,,44,44,23,24,11,15,,66,58,17,13,4,4,0.4,0.3
2024-09-14T1900,1173A,119.176,34.5885,连云港市,市环境监测站,,29,29,29,12,18,84,,103,100,13,17,4,4,0.4,0.5
2024-09-14T1900,3000A,119.3581,34.6972,连云港市,德源药业,,30,24,30,7,17,93,,98,98,10,27,4,4,0.4,0.4
2024-09-14T1900,3007A,119.178,34.844,连云港市,新城一中,,27,21,27,8,17,84,,90,90,23,33,5,6,0.8,1.2
2024-09-14T1900,3008A,119.3608,34.7519,连云港市,胡沟管理处,,29,22,25,7,13,92,,98,98,9,17,6,5,0.8,0.9
2024-09-14T1900,3009A,119.1478,34.5911,连云港市,矿山设计院,,28,27,28,9,17,88,,106,106,11,19,4,4,0.6,0.8
2024-09-14T1900,3434A,119.2413,34.6539,连云港市,工贸学校,,29,28,24,11,18,91,,106,104,13,11,7,6,0.6,0.8
2024-09-14T1900,3664A,119.4172,34.7341,连云港市,连云街道,,25,17,24,9,15,78,,89,89,18,12,5,3,0.6,0.7
2024-09-14T1900,2571A,102.3431,27.8099,凉山彝族自治州,青龙寺,,29,8,19,7,8,91,,107,107,5,6,7,7,0.7,0.8
2024-09-14T1900,2572A,102.2721,27.8415,凉山彝族自治州,邛海宾馆,,29,28,27,17,19,90,,105,105,9,16,8,14,0.4,0.7
2024-09-14T1900,2573A,102.2625,27.898,凉山彝族自治州,西昌市政府,,26,23,28,12,20,82,,107,107,11,11,12,15,0.7,0.7
2024-09-14T1900,2574A,102.2685,27.8851,凉山彝族自治州,凉山州政府,,32,32,28,22,18,92,,112,112,8,12,9,15,0.4,0.8
2024-09-14T1900,2575A,102.237,27.8914,凉山彝族自治州,长安,,44,44,33,18,18,83,,112,108,14,16,15,15,0.9,0.8
2024-09-14T1900,2212A,123.2,41.1953,辽阳市,宏伟区,,18,18,23,8,7,38,,32,31,20,16,10,10,0.4,0.4
2024-09-14T1900,2213A,123.1683,41.2495,辽阳市,新华园,,21,21,21,8,4,37,,35,35,20,15,8,7,0.3,0.3
2024-09-14T1900,2214A,123.2354,41.2639,辽阳市,滨河路,,22,22,21,9,11,38,,36,36,20,15,9,10,0.3,0.3
2024-09-14T1900,2215A,123.149,41.2991,辽阳市,铁西工业园,,21,21,19,10,10,33,,33,33,19,13,10,10,0.5,0.5
2024-09-14T1900,2227A,125.1358,42.8845,辽源市,环保局,,22,22,20,8,5,37,,54,53,26,11,8,8,0.8,0.6
2024-09-14T1900,3239A,125.0764,42.9078,辽源市,银鹰制药,,18,13,10,12,6,31,,57,55,25,11,5,5,0.7,0.7
2024-09-14T1900,1625A,115.9848,36.4372,聊城市,区政府,,38,38,39,11,20,84,,79,79,15,15,11,11,0.4,0.5
2024-09-14T1900,2878A,116.0072,36.4343,聊城市,聊大东校,,41,41,43,13,27,88,,84,84,15,16,7,7,0.4,0.6
2024-09-14T1900,3200A,115.9819,36.4978,聊城市,监控中心,,30,30,36,7,18,83,,81,81,12,13,7,6,0.2,0.4
2024-09-14T1900,3513A,116.0445,36.4361,聊城市,九州社区,,46,46,56,14,22,78,,80,80,16,13,6,4,0.3,0.4
2024-09-14T1900,4018A,116.0567,36.4608,聊城市,星美广场,颗粒物(PM10),51,51,40,9,20,72,,76,76,22,15,6,6,0.3,0.7
2024-09-14T1900,2632A,94.3681,29.6376,林芝市,林芝监测站,,17,7,12,7,6,54,,58,58,2,3,10,9,0.1,0.2
2024-09-14T1900,2633A,94.3616,29.6616,林芝市,林芝人民医院,,18,14,10,7,6,55,,59,59,3,5,8,8,0.3,0.3
2024-09-14T1900,2603A,100.0781,23.8982,临沧市,市环保局,,36,36,23,23,13,37,,47,47,15,11,5,5,0.5,0.5
2024-09-14T1900,2604A,100.0894,23.8822,临沧市,市气象局,,23,23,18,10,11,42,,49,49,11,10,4,4,0.5,0.5
2024-09-14T1900,1733A,111.5531,36.0783,临汾市,临钢医院,,39,39,38,14,14,103,,115,115,22,14,5,4,0.5,0.5
2024-09-14T1900,1734A,111.5028,36.0714,临汾市,技工学校,,35,30,38,16,16,111,,127,127,14,13,7,6,0.5,0.6
2024-09-14T1900,1736A,111.5018,36.0855,临汾市,市委,,38,27,31,7,10,120,,136,136,12,10,7,6,0.6,0.6
2024-09-14T1900,3018A,111.505,36.1014,临汾市,唐尧大酒店,,49,49,34,9,12,102,,122,122,17,11,6,4,0.7,0.7
2024-09-14T1900,3668A,111.5036,36.0414,临汾市,城南,,48,48,40,16,15,109,,135,135,20,14,6,6,0.6,0.7
2024-09-14T1900,2667A,103.2069,35.5993,临夏回族自治州,环保局,,46,40,34,32,29,78,,76,76,10,11,10,10,0.5,0.5
2024-09-14T1900,2668A,103.2417,35.6057,临夏回族自治州,建设大厦,,40,40,42,21,20,84,,81,81,8,13,11,10,0.5,0.5
2024-09-14T1900,1618A,118.3429,35.0532,临沂市,沂河小区,,41,41,34,10,18,88,,89,89,15,16,7,7,0.3,0.6
2024-09-14T1900,1619A,118.295,35.0583,临沂市,鲁南制药厂,,48,48,31,8,18,96,,98,98,13,16,5,5,0.2,0.6
2024-09-14T1900,1620A,118.2794,34.9976,临沂市,新光毛纺厂,,36,36,22,3,15,86,,92,92,19,22,5,5,0.5,0.9
2024-09-14T1900,1621A,118.3956,35.0888,临沂市,河东保险公司,,39,39,32,14,11,94,,90,90,14,20,7,7,0.5,0.7
2024-09-14T1900,3370A,118.3564,35.0215,临沂市,十里堡居委,,36,36,23,9,18,91,,93,93,12,16,8,8,0.5,0.9
2024-09-14T1900,3496A,118.3604,35.1084,临沂市,南坊新区,,36,36,36,9,16,90,,88,88,11,17,8,8,0.4,0.9
2024-09-14T1900,3860A,118.3920,35.0300,临沂市,皇山花园小区,,,,34,,21,84,,86,86,14,22,,7,0.4,0.9
2024-09-14T1900,1870A,109.4856,24.3895,柳州市,柳东小学,,33,33,34,18,22,85,,90,90,8,13,7,8,0.7,0.7
2024-09-14T1900,1871A,109.4157,24.3277,柳州市,环保监测站,,30,20,35,18,22,95,,100,100,7,10,8,8,0.8,0.8
2024-09-14T1900,1872A,109.389,24.341,柳州市,河西水厂,,37,37,49,24,30,91,,96,96,5,14,6,10,0.9,1
2024-09-14T1900,1873A,109.4311,24.2921,柳州市,市四中,,40,40,38,27,27,98,,106,106,9,11,8,7,0.7,0.7
2024-09-14T1900,1874A,109.4006,24.3631,柳州市,市九中,,34,34,47,15,26,95,,100,100,7,13,6,6,0.4,0.6
2024-09-14T1900,1875A,109.4958,24.3134,柳州市,古亭山,,33,30,37,23,24,88,,100,99,12,20,8,9,0.8,0.8
2024-09-14T1900,3402A,109.5422,24.3996,柳州市,市二中,,33,28,34,23,24,92,,94,94,11,16,8,8,0.7,0.7
2024-09-14T1900,2307A,116.5079,31.737,六安市,监测大楼,,28,,20,19,23,70,,91,90,7,4,5,5,0.6,0.6
2024-09-14T1900,2308A,116.4738,31.7643,六安市,皖西学院,,34,34,26,17,22,74,,88,88,10,6,4,4,0.4,0.4
2024-09-14T1900,2309A,116.4996,31.7905,六安市,朝阳厂,,24,13,19,10,20,75,,88,88,5,3,1,1,0.4,0.4
2024-09-14T1900,2310A,116.5567,31.7886,六安市,开发区,,30,30,28,15,18,67,,89,88,12,6,2,2,0.5,0.5
2024-09-14T1900,2577A,104.83,26.5917,六盘水市,黄土坡,,30,16,24,3,18,95,,102,102,7,12,6,8,0.3,0.4
2024-09-14T1900,2578A,104.89,26.5939,六盘水市,水钢,,30,24,31,9,16,95,,104,104,5,9,10,9,0.5,0.5
2024-09-14T1900,2579A,104.8475,26.5894,六盘水市,民中,,30,24,25,9,14,93,,103,103,7,13,7,8,0.4,0.5
2024-09-14T1900,2580A,104.9544,26.5506,六盘水市,双水,,27,22,24,3,13,84,,94,94,6,6,6,7,0.5,0.4
2024-09-14T1900,2336A,117.0217,25.1033,龙岩市,龙岩市监测站,,25,24,23,17,13,58,,65,65,20,18,12,9,0.7,0.5
2024-09-14T1900,2337A,117.0258,25.0661,龙岩市,闽西职业技术学院,,26,26,37,16,14,55,,66,66,16,18,9,15,0.8,0.5
2024-09-14T1900,2338A,117.0196,25.0306,龙岩市,龙岩学院,,26,22,23,18,10,33,,61,58,18,13,4,4,0.5,0.4
2024-09-14T1900,2885A,104.9339,33.3826,陇南市,滨江中学,颗粒物(PM10),69,87,38,16,11,36,,54,54,41,12,7,7,1.1,0.6
2024-09-14T1900,3247A,104.955,33.371,陇南市,市总工会,颗粒物(PM10),55,60,28,8,5,36,,58,57,42,11,8,8,1.0,0.5
2024-09-14T1900,2487A,111.9589,27.8901,娄底市,电视发射台,,38,38,33,25,18,84,,85,85,5,5,7,7,0.7,0.7
2024-09-14T1900,2488A,111.9975,27.725,娄底市,市监测站,,44,44,36,24,21,103,,102,102,7,8,5,5,0.5,0.5
2024-09-14T1900,2489A,112.0194,27.7314,娄底市,市委党校,,36,36,34,23,24,98,,94,94,6,7,5,7,0.6,0.6
2024-09-14T1900,2490A,111.9561,27.7569,娄底市,涟钢,,44,44,40,22,24,73,,75,75,18,15,10,8,0.6,0.8
2024-09-14T1900,2491A,111.9892,27.7044,娄底市,市政府,颗粒物(PM10),51,51,33,15,27,94,,98,98,10,8,6,5,0.4,0.5
2024-09-14T1900,1893A,105.4324,28.9634,泸州市,九狮山,颗粒物(PM10),52,54,62,32,38,160,,147,147,10,10,3,5,0.6,0.5
2024-09-14T1900,1894A,105.4427,28.9063,泸州市,小市上码头,臭氧1小时,54,56,60,33,42,163,,153,153,13,14,4,5,0.6,0.6
2024-09-14T1900,1895A,105.4241,28.8573,泸州市,兰田宪桥,细颗粒物(PM2.5),53,48,55,37,46,151,,150,150,18,11,5,5,0.5,0.6
2024-09-14T1900,1896A,105.4379,28.8833,泸州市,市环监站,细颗粒物(PM2.5),52,50,61,36,49,154,,149,149,17,12,6,6,0.6,0.6
2024-09-14T1900,3490A,105.3617,28.7703,泸州市,纳溪区环保局,细颗粒物(PM2.5),54,47,61,38,48,148,,155,155,10,19,6,6,0.5,0.5
2024-09-14T1900,2183A,111.1406,37.5211,吕梁市,环保局,,47,47,38,14,17,82,,80,80,22,13,7,4,0.5,0.5
2024-09-14T1900,2185A,111.1297,37.5136,吕梁市,自来水公司,,44,44,36,19,16,76,,79,79,27,15,4,3,0.5,0.5
2024-09-14T1900,2867A,111.1283,37.51,吕梁市,马茂庄小学,,48,48,47,12,16,73,,82,82,37,19,4,4,0.4,0.4
2024-09-14T1900,1812A,112.3931,34.6516,洛阳市,市委党校,颗粒物(PM10),57,64,72,29,38,156,,202,201,18,22,10,12,0.9,0.9
2024-09-14T1900,1814A,112.4657,34.6871,洛阳市,豫西宾馆,颗粒物(PM10),63,76,72,28,30,152,,192,192,13,19,9,12,0.8,0.8
2024-09-14T1900,1815A,112.494,34.6886,洛阳市,河南林校,颗粒物(PM10),56,62,64,36,34,151,,195,195,15,20,10,13,0.8,0.9
2024-09-14T1900,1816A,112.3844,34.623,洛阳市,开发区管委会,颗粒物(PM10),56,62,61,34,37,156,,201,200,17,22,7,9,0.7,0.7
2024-09-14T1900,1817A,112.4267,34.6258,洛阳市,市委新办公区,颗粒物(PM10),53,55,56,34,39,155,,198,198,10,15,4,8,0.9,0.9
2024-09-14T1900,3340A,112.6005,34.6326,洛阳市,伊滨,颗粒物(PM10),52,54,60,32,39,146,,197,196,3,13,8,12,0.7,0.8
2024-09-14T1900,3341A,112.4951,34.6332,洛阳市,中移产业园,颗粒物(PM10),55,59,67,30,37,162,,209,209,12,21,5,10,0.9,1
2024-09-14T1900,3593A,112.5736,34.8993,洛阳市,吉利监测站,颗粒物(PM10),61,71,65,33,40,145,,189,189,9,19,4,10,0.5,0.6
2024-09-14T1900,3635A,112.3677,34.662,洛阳市,河科大西苑校区,颗粒物(PM10),60,69,67,24,28,163,,204,204,16,23,8,10,0.9,0.9
2024-09-14T1900,2399A,114.051,33.5699,漯河市,三五一五工厂,,35,,46,24,29,79,,98,98,12,21,4,6,0.9,0.6
2024-09-14T1900,2400A,114.0055,33.5698,漯河市,漯河大学,,28,28,44,19,30,82,,104,104,11,17,3,5,0.7,0.7
2024-09-14T1900,2401A,114.0138,33.5828,漯河市,市水利局,,27,27,49,17,28,77,,98,98,9,15,3,5,1.1,1.2
2024-09-14T1900,2402A,114.0261,33.5698,漯河市,市广电局,,34,34,43,7,22,81,,101,101,8,14,5,8,0.8,0.8
2024-09-14T1900,3478A,113.9749,33.5664,漯河市,市图书馆,,28,23,44,19,25,86,,107,107,10,18,7,8,0.8,0.8
2024-09-14T1900,3479A,114.0967,33.5906,漯河市,召陵区卫健委,,36,25,51,25,38,76,,96,96,7,18,4,5,0.8,0.8
2024-09-14T1900,1798A,118.5092,31.6837,马鞍山市,湖东路四小,,39,32,48,26,30,122,,139,139,22,26,8,9,0.8,1.2
2024-09-14T1900,1799A,118.5024,31.6449,马鞍山市,开发区,,37,37,48,17,28,109,,137,137,23,28,6,10,1.0,1.7
2024-09-14T1900,1800A,118.5228,31.7231,马鞍山市,慈湖,颗粒物(PM10),52,54,58,23,30,115,,147,147,23,24,7,9,0.8,1.1
2024-09-14T1900,1802A,118.6245,31.7241,马鞍山市,濮塘,,40,26,35,23,27,126,,150,150,18,22,7,7,0.7,0.8
2024-09-14T1900,3633A,118.4918,31.6809,马鞍山市,雨山,,38,38,45,21,28,109,,127,127,19,30,10,14,1.2,1.9
2024-09-14T1900,1686A,111.0286,21.4688,茂名市,电白南海,细颗粒物(PM2.5),62,58,40,44,26,105,,102,102,15,13,12,15,0.9,0.8
2024-09-14T1900,1687A,110.9294,21.6533,茂名市,茂石化七小,颗粒物(PM10),57,63,39,39,24,64,,97,96,34,15,20,15,1.0,0.8
2024-09-14T1900,1688A,110.9107,21.6687,茂名市,健康路,,46,46,31,29,18,96,,106,106,19,11,29,26,0.9,1
2024-09-14T1900,1689A,110.8592,21.6828,茂名市,高岭,颗粒物(PM10),52,53,46,31,26,72,,95,95,23,18,29,19,0.9,0.8
2024-09-14T1900,3450A,111.01,21.5165,茂名市,电白水东,,48,48,34,29,24,72,,88,88,19,13,8,13,0.6,0.6
2024-09-14T1900,2539A,104.0308,30.0478,眉山市,黑龙滩水库,,38,33,37,26,23,113,,124,124,5,9,10,9,0.5,0.5
2024-09-14T1900,2540A,103.8416,30.0874,眉山市,气象局,,46,,28,22,20,145,,125,125,13,20,7,6,0.5,0.5
2024-09-14T1900,3137A,103.8578,30.0744,眉山市,市委党校,,46,29,24,17,15,146,,130,130,15,17,9,9,0.6,0.7
2024-09-14T1900,3148A,103.8291,30.0564,眉山市,区人社局,,45,35,28,12,14,143,,129,129,20,22,10,10,0.6,0.5
2024-09-14T1900,1690A,116.1231,24.3284,梅州市,梅江月梅,,28,22,27,19,20,58,,86,86,5,12,8,7,0.4,0.4
2024-09-14T1900,1691A,116.0797,24.2719,梅州市,梅县新城,,42,42,26,29,15,43,,88,85,27,12,5,5,0.6,0.4
2024-09-14T1900,1692A,116.1248,24.2654,梅州市,环境监控中心,,34,34,33,23,18,36,,77,77,28,20,5,5,0.6,0.5
2024-09-14T1900,3315A,116.1233,24.2991,梅州市,梅龙,,30,29,24,21,18,65,,94,94,14,11,10,9,0.7,0.6
2024-09-14T1900,1878A,104.7778,31.4741,绵阳市,富乐山,,35,33,30,24,21,112,,107,107,20,15,3,3,0.6,0.6
2024-09-14T1900,1879A,104.7563,31.4535,绵阳市,市人大,,38,32,34,20,20,121,,109,109,20,21,11,8,0.5,0.5
2024-09-14T1900,1880A,104.6697,31.4668,绵阳市,高新区自来水公司,,34,31,33,14,15,108,,106,106,15,16,4,4,0.6,0.6
2024-09-14T1900,1881A,104.7287,31.5075,绵阳市,三水厂,,33,33,35,16,22,60,,99,97,59,26,7,6,0.7,0.6
2024-09-14T1900,3491A,104.69,31.5322,绵阳市,西科大附属小学,,33,31,33,19,20,105,,104,104,15,21,6,6,0.4,0.4
2024-09-14T1900,3492A,104.5648,31.5343,绵阳市,安州区旅游局,,32,,24,17,20,101,,100,100,12,15,8,7,0.5,0.6
2024-09-14T1900,1784A,129.61,44.561,牡丹江市,环保大楼,,28,26,23,19,15,32,,38,38,16,12,6,8,0.4,0.3
2024-09-14T1900,1785A,129.6115,44.5782,牡丹江市,文化广场,,31,31,24,15,20,36,,38,38,14,13,8,9,0.3,0.3
2024-09-14T1900,1786A,129.5904,44.5963,牡丹江市,第一医院,,38,30,22,26,20,40,,48,48,15,10,6,7,0.4,0.3
2024-09-14T1900,1787A,129.6364,44.6075,牡丹江市,机车工厂,,24,24,23,15,14,32,,41,41,16,10,5,6,0.2,0.2
2024-09-14T1900,1788A,129.6386,44.5462,牡丹江市,第一中学,,40,,21,28,15,31,,40,40,20,12,6,6,0.3,0.2
2024-09-14T1900,2531A,105.0703,29.61,内江市,市监测站,细颗粒物(PM2.5),53,,33,37,38,153,,144,144,16,15,4,4,0.6,0.5
2024-09-14T1900,2532A,105.0717,29.5947,内江市,东兴区政府,,47,39,36,26,31,148,,133,133,20,21,4,4,0.7,0.7
2024-09-14T1900,2533A,105.0653,29.5817,内江市,内江二中,颗粒物(PM10),51,51,40,32,40,143,,136,136,19,17,6,7,0.6,0.6
2024-09-14T1900,2534A,105.0406,29.5822,内江市,内江日报社,,49,,38,32,37,156,,136,136,17,22,7,7,0.6,0.6
2024-09-14T1900,2628A,92.0657,31.4846,那曲市,那曲监测站,颗粒物(PM10),60,69,50,17,18,71,,79,79,5,9,7,7,0.6,0.7
2024-09-14T1900,3128A,92.0506,31.4797,那曲市,那曲会议中心,颗粒物(PM10),76,102,60,15,20,82,,89,89,15,19,4,5,0.5,0.6
2024-09-14T1900,1290A,115.8931,28.6843,南昌市,省外办,颗粒物(PM10),51,51,40,34,27,126,,132,132,18,18,9,9,0.6,0.7
2024-09-14T1900,1291A,115.8886,28.7003,南昌市,省林业公司,,48,48,38,27,21,127,,134,134,13,13,7,6,1.0,1
2024-09-14T1900,1292A,115.8126,28.7442,南昌市,林科所,,39,39,29,22,17,118,,135,135,24,17,7,8,0.8,0.9
2024-09-14T1900,1294A,115.8518,28.687,南昌市,建工学校,,41,41,37,17,17,124,,132,132,13,11,8,9,0.9,0.9
2024-09-14T1900,1295A,115.8921,28.6424,南昌市,象湖,,46,42,32,32,22,136,,143,143,11,12,4,4,0.5,0.7
2024-09-14T1900,1296A,115.7423,28.7996,南昌市,武术学校,细颗粒物(PM2.5),57,,32,40,19,71,,110,106,5,6,2,2,0.9,1
2024-09-14T1900,1298A,115.9314,28.6842,南昌市,省站,,48,35,35,33,26,128,,131,131,8,11,8,9,0.8,0.9
2024-09-14T1900,3046A,115.9084,28.6062,南昌市,机电学校,,48,48,43,29,22,130,,136,136,13,13,7,8,0.8,0.8
2024-09-14T1900,3690A,115.9721,28.7031,南昌市,外国语学校,,47,47,39,25,21,141,,136,136,11,15,6,7,0.7,0.7
2024-09-14T1900,1905A,106.056,30.8064,南充市,西山风景区,,47,35,25,32,29,149,,164,164,4,6,2,2,1.0,1
2024-09-14T1900,1906A,106.0789,30.8023,南充市,南充市委,细颗粒物(PM2.5),58,56,46,41,32,141,,172,172,15,13,3,3,0.5,0.5
2024-09-14T1900,1907A,106.1031,30.8217,南充市,南充炼油厂,颗粒物(PM10),51,51,46,35,32,153,,185,185,14,11,3,4,0.4,0.4
2024-09-14T1900,1908A,106.1064,30.7856,南充市,高坪区监测站,细颗粒物(PM2.5),53,54,45,37,31,143,,171,171,21,16,4,4,0.5,0.4
2024-09-14T1900,1909A,106.0642,30.7636,南充市,嘉陵区环保局,颗粒物(PM10),51,52,41,29,27,124,,164,164,23,16,5,6,0.5,0.5
2024-09-14T1900,1910A,106.1087,30.8388,南充市,市环境监测站,细颗粒物(PM2.5),53,53,46,37,32,146,,177,177,14,14,3,3,0.4,0.4
2024-09-14T1900,1151A,118.8086,32.1065,南京市,迈皋桥,,42,33,25,29,17,110,,143,141,16,22,4,4,0.5,0.5
2024-09-14T1900,1152A,118.7538,32.0551,南京市,草场门,,44,44,29,22,17,92,,132,128,16,22,6,7,0.7,0.6
2024-09-14T1900,1153A,118.7794,32.0745,南京市,山西路,,48,48,31,27,19,101,,144,140,2,12,5,4,0.6,0.6
2024-09-14T1900,1154A,118.7752,32.0023,南京市,中华门,,34,34,28,22,17,90,,137,133,18,25,6,6,0.6,0.6
2024-09-14T1900,1155A,118.8109,32.0309,南京市,瑞金路,,39,36,34,27,21,105,,151,147,10,16,5,6,0.6,0.7
2024-09-14T1900,1156A,118.7997,32.0754,南京市,玄武湖,,35,35,35,23,17,104,,141,139,7,11,6,6,0.8,0.8
2024-09-14T1900,1157A,118.6414,32.0931,南京市,浦口,,36,34,31,25,17,87,,112,112,6,8,4,4,0.6,0.6
2024-09-14T1900,1158A,118.7356,31.9996,南京市,奥体中心,,39,37,28,27,21,91,,137,133,10,16,3,4,0.6,0.6
2024-09-14T1900,1159A,118.9125,32.1028,南京市,仙林大学城,细颗粒物(PM2.5),52,39,34,36,27,119,,148,147,12,27,8,9,0.7,0.7
2024-09-14T1900,3422A,118.8436,31.9198,南京市,江宁彩虹桥,,35,35,38,19,21,112,,148,147,17,18,4,5,0.8,1
2024-09-14T1900,3423A,119.0138,31.6494,南京市,溧水永阳,,44,29,31,22,21,140,,142,142,13,17,4,4,0.6,0.6
2024-09-14T1900,3424A,118.879,31.3302,南京市,高淳老职中,,46,,31,26,24,145,,151,151,13,13,5,5,0.8,0.7
2024-09-14T1900,3427A,118.8554,32.3578,南京市,六合雄州,颗粒物(PM10),54,57,26,27,16,96,,104,104,10,10,9,8,0.7,0.5
2024-09-14T1900,1401A,108.3103,22.7881,南宁市,二十一中,,45,45,46,29,30,67,,110,105,41,25,4,10,1.1,0.9
2024-09-14T1900,1402A,108.3141,22.8528,南宁市,北湖,,43,38,48,30,34,66,,111,106,42,30,3,20,0.9,0.8
2024-09-14T1900,1403A,108.3206,22.8225,南宁市,市监测站,颗粒物(PM10),52,54,45,32,30,63,,107,100,42,27,5,11,0.9,0.7
2024-09-14T1900,1404A,108.3829,22.8037,南宁市,大自然花园,,41,41,37,27,26,94,,108,108,17,19,5,5,0.7,0.7
2024-09-14T1900,1405A,108.4394,22.7904,南宁市,仙葫,,36,36,37,23,27,96,,102,102,8,16,7,8,0.9,0.9
2024-09-14T1900,1406A,108.2397,22.8467,南宁市,区农职院,,34,34,44,23,29,49,,106,100,28,16,3,6,0.8,0.8
2024-09-14T1900,1407A,108.3275,22.735,南宁市,英华嘉园,,46,46,47,30,29,66,,96,91,34,27,4,6,0.6,0.7
2024-09-14T1900,1408A,108.2257,22.7757,南宁市,沙井镇街道办,颗粒物(PM10),52,53,52,35,30,38,,102,94,55,28,14,6,0.8,0.8
2024-09-14T1900,3401A,108.4834,22.7618,南宁市,红星社区,,41,41,41,26,27,96,,128,126,12,13,5,9,0.5,0.6
2024-09-14T1900,2332A,118.1681,26.6369,南平市,南平市监测站,,19,15,19,9,11,58,,72,72,7,14,4,5,0.4,0.6
2024-09-14T1900,2333A,118.1825,26.6489,南平市,南平铝业有限公司,,,,22,7,9,54,,69,69,13,16,4,6,0.5,0.5
2024-09-14T1900,2334A,118.1756,26.6272,南平市,南平七中,,33,33,26,8,12,57,,71,71,7,12,4,3,0.4,0.6
2024-09-14T1900,1168A,120.9098,31.9663,南通市,狼山街道,,15,,9,10,4,48,,69,68,7,12,7,8,0.5,0.5
2024-09-14T1900,1169A,120.86,32.0005,南通市,虹桥,,16,16,15,3,6,36,,61,61,5,16,6,8,0.4,0.5
2024-09-14T1900,1170A,120.87,32.02,南通市,城中,,19,19,19,8,5,35,,59,58,10,16,7,7,0.3,0.5
2024-09-14T1900,1171A,120.94,31.93,南通市,星湖花园,,17,17,9,3,5,45,,68,67,14,18,7,7,0.8,0.6
2024-09-14T1900,1172A,120.81,32.0417,南通市,紫琅学院,,12,12,11,3,3,31,,72,68,11,21,8,9,0.3,0.5
2024-09-14T1900,3291A,121.067,32.062,南通市,通州监测站,,17,17,15,7,5,54,,60,60,5,9,4,4,0.4,0.4
2024-09-14T1900,3432A,120.9348,31.9883,南通市,环境教育馆,,17,17,18,3,3,46,,66,65,10,16,4,5,0.4,0.4
2024-09-14T1900,2404A,112.5224,33.0122,南阳市,瓦房庄,臭氧1小时,55,54,52,31,31,164,,162,162,26,23,5,6,0.7,0.8
2024-09-14T1900,2405A,112.5003,32.9735,南阳市,汉画馆,臭氧1小时,58,61,52,35,34,166,,162,162,17,19,8,8,0.7,0.8
2024-09-14T1900,2406A,112.5573,33.027,南阳市,气象站,臭氧1小时,58,55,55,24,28,166,,175,175,17,18,7,8,0.8,0.9
2024-09-14T1900,2407A,112.5481,32.9689,南阳市,理工学院,颗粒物(PM10),58,65,49,27,22,141,,162,162,26,18,7,8,0.7,0.8
2024-09-14T1900,4008A,112.5234,32.9922,南阳市,卧龙区政府,臭氧1小时,54,56,53,28,30,163,,170,170,21,19,5,6,0.9,0.9
2024-09-14T1900,1234A,121.8358,29.911,宁波市,区环保大楼,,27,27,25,13,11,45,,59,58,18,20,3,4,0.5,0.5
2024-09-14T1900,1235A,121.56,29.82,宁波市,万里学院,,21,21,21,9,12,53,,69,69,15,19,12,11,0.5,0.5
2024-09-14T1900,1236A,121.713,29.9572,宁波市,龙赛医院,,21,21,21,9,9,48,,59,59,15,19,8,9,0.5,0.5
2024-09-14T1900,1239A,121.633,29.7733,宁波市,钱湖水厂,,23,23,25,11,11,52,,65,65,10,16,8,8,0.8,0.8
2024-09-14T1900,1240A,121.5856,29.8635,宁波市,太古小学,,17,17,24,9,6,53,,67,67,13,19,7,8,0.7,0.7
2024-09-14T1900,1241A,121.524,29.8674,宁波市,市环境监测中心,,20,20,19,12,8,50,,69,68,16,18,10,9,0.7,0.7
2024-09-14T1900,2871A,121.6147,29.9017,宁波市,万里国际学校,,18,16,20,12,9,54,,68,68,12,20,8,10,0.4,0.4
2024-09-14T1900,3710A,121.5594,29.8975,宁波市,白沙活动中心,,23,23,20,10,9,49,,66,66,15,18,9,10,0.2,0.3
2024-09-14T1900,2341A,119.5388,26.6612,宁德市,宁德市监测站,,24,24,14,16,10,20,,28,28,16,11,6,6,0.6,0.4
2024-09-14T1900,3209A,119.5231,26.6562,宁德市,宁德一中,,17,17,16,6,8,24,,31,31,10,7,4,5,0.4,0.2
2024-09-14T1900,2618A,98.8601,25.8567,怒江傈僳族自治州,州监测站,,25,25,22,14,12,56,,58,58,11,8,4,4,0.5,0.4
2024-09-14T1900,2619A,98.8546,25.8417,怒江傈僳族自治州,泸水一中,,35,35,19,13,11,36,,49,49,19,13,6,5,0.6,0.4
2024-09-14T1900,1888A,101.6891,26.571,攀枝花市,弄弄坪,,49,49,50,19,25,110,,108,108,10,25,18,39,0.8,1.6
2024-09-14T1900,1889A,101.5769,26.5928,攀枝花市,河门口,,,29,27,11,15,,,81,81,20,16,6,8,0.6,0.7
2024-09-14T1900,1890A,101.7169,26.585,攀枝花市,炳草岗,,39,39,43,16,25,116,,122,122,23,32,22,28,1.2,1.5
2024-09-14T1900,1891A,101.7369,26.5008,攀枝花市,仁和,,36,36,32,21,20,76,,129,129,17,16,7,13,1.0,1.2
2024-09-14T1900,2835A,101.7227,26.567,攀枝花市,四十中小,,43,43,45,27,26,113,,130,130,21,35,18,26,1.3,1.9
2024-09-14T1900,1604A,122.0303,41.1489,盘锦市,开发区,,20,7,16,7,5,61,,62,62,12,9,4,6,0.1,0.1
2024-09-14T1900,1605A,122.0485,41.0883,盘锦市,兴隆台,,18,13,14,3,4,55,,60,60,21,13,8,8,0.3,0.2
2024-09-14T1900,1606A,121.8297,41.1028,盘锦市,新生街道,,17,,13,7,5,53,,60,60,18,14,8,8,0.2,0.2
2024-09-14T1900,1832A,113.3257,33.742,平顶山市,新华旅馆,颗粒物(PM10),52,54,68,30,33,107,,161,159,15,22,5,8,1.0,1
2024-09-14T1900,1833A,113.2919,33.737,平顶山市,规划设计院,,47,47,54,25,28,110,,166,163,19,23,6,8,1.0,1
2024-09-14T1900,1834A,113.182,33.774,平顶山市,平顶山工学院,颗粒物(PM10),51,51,62,17,27,118,,171,170,14,19,7,10,0.6,0.7
2024-09-14T1900,3204A,113.3025,33.73,平顶山市,规划局,,46,46,59,25,32,112,,166,164,17,24,4,6,0.8,0.8
2024-09-14T1900,3594A,112.8867,33.9116,平顶山市,石龙区,颗粒物(PM10),60,70,88,22,33,145,,188,188,16,31,12,17,0.9,0.9
2024-09-14T1900,2656A,106.6692,35.5461,平凉市,聚贤嘉苑,,41,41,33,15,12,61,,87,85,33,30,8,7,0.5,0.5
2024-09-14T1900,2657A,106.7021,35.5307,平凉市,博物馆,,44,44,40,14,11,67,,90,88,28,25,8,8,0.5,0.4
2024-09-14T1900,2347A,114.0997,27.5002,萍乡市,武功山,,35,35,12,3,10,89,,103,103,13,7,12,10,0.6,0.5
2024-09-14T1900,2348A,113.8385,27.6434,萍乡市,中医院,,40,40,47,24,30,96,,112,112,7,15,5,13,0.9,1.1
2024-09-14T1900,2349A,113.8493,27.6253,萍乡市,市政府车库,,43,41,42,30,25,91,,109,109,7,10,7,13,0.9,0.9
2024-09-14T1900,2350A,113.8676,27.6435,萍乡市,市环保局,,43,31,40,30,26,86,,106,106,7,12,6,13,0.8,0.9
2024-09-14T1900,2351A,113.866,27.6198,萍乡市,安源区政府,颗粒物(PM10),54,57,36,21,20,99,,120,120,8,14,11,16,0.7,0.7
2024-09-14T1900,2319A,119.0141,25.4325,莆田市,荔城区仓后路,颗粒物(PM10),52,54,18,14,3,29,,41,40,13,6,7,7,0.6,0.6
2024-09-14T1900,2320A,119.0015,25.4553,莆田市,莆田市监测站,,22,22,11,14,3,24,,40,38,3,2,6,6,0.7,0.6
2024-09-14T1900,2321A,119.1119,25.4561,莆田市,涵江区六中,,25,25,16,15,5,23,,39,38,26,9,8,8,0.6,0.5
2024-09-14T1900,2322A,119.1013,25.3215,莆田市,秀屿区政府,,22,,21,15,6,40,,42,42,14,11,10,8,0.6,0.5
2024-09-14T1900,2392A,115.0312,35.7636,濮阳市,环保局,,31,31,30,15,29,86,,83,83,12,14,9,9,0.2,0.4
2024-09-14T1900,2394A,115.0574,35.7609,濮阳市,油田运输公司,,36,36,35,17,26,85,,85,85,12,12,6,5,0.3,0.4
2024-09-14T1900,2395A,115.0866,35.7754,濮阳市,油田物探公司,,44,44,43,17,32,83,,86,86,13,13,5,4,0.2,0.2
2024-09-14T1900,3021A,115,35.7668,濮阳市,濮水河管理处,,29,29,29,14,27,87,,80,80,10,13,7,6,0.3,0.4
2024-09-14T1900,2601A,100.98,22.7633,普洱市,市环保局,,25,22,23,17,13,41,,49,49,8,7,9,9,0.5,0.5
2024-09-14T1900,2602A,100.9817,22.8322,普洱市,普洱第二中学,,32,23,24,22,10,52,,54,54,9,7,10,10,0.5,0.5
2024-09-14T1900,2262A,131.0518,45.8751,七台河市,新一中,,43,43,14,3,5,32,,60,54,26,11,9,9,1.1,1
2024-09-14T1900,3345A,131.0577,45.7879,七台河市,中波台,,16,16,20,7,5,27,,45,44,28,21,6,6,0.5,0.5
2024-09-14T1900,3637A,131.0176,45.7761,七台河市,人民广场,,20,20,22,13,11,29,,52,49,24,17,6,8,0.3,0.3
2024-09-14T1900,3684A,130.8781,45.8222,七台河市,新建矿广场,,36,36,82,23,21,14,,44,39,27,22,5,5,0.5,0.4
2024-09-14T1900,1779A,123.9305,47.3636,齐齐哈尔市,安居小区,,25,25,24,9,6,36,,67,64,32,10,11,11,0.6,0.3
2024-09-14T1900,1780A,123.9488,47.3386,齐齐哈尔市,中心广场,,20,20,13,3,5,46,,61,60,20,11,4,4,0.2,0.2
2024-09-14T1900,1781A,123.9483,47.3227,齐齐哈尔市,农牧车辆厂,,44,44,34,7,4,49,,63,63,16,11,8,9,0.3,0.4
2024-09-14T1900,1783A,123.945,47.2988,齐齐哈尔市,市环境监测站,,49,49,25,6,7,53,,66,65,14,10,8,9,0.2,0.2
2024-09-14T1900,3662A,123.6333,47.2075,齐齐哈尔市,富区青少年活动中心,,42,42,33,3,17,47,,66,64,16,17,7,12,0.6,0.5
2024-09-14T1900,2591A,107.9783,26.5747,黔东南苗族侗族自治州,市环境监测站,,22,19,28,15,20,68,,84,84,17,14,4,4,0.3,0.4
2024-09-14T1900,2881A,107.8908,26.5311,黔东南苗族侗族自治州,凯里学院,,25,,20,13,18,77,,95,95,9,9,2,2,0.5,0.6
2024-09-14T1900,2593A,107.5228,26.2403,黔南布依族苗族自治州,小围寨,,29,14,21,12,15,91,,101,101,7,10,4,4,0.5,0.5
2024-09-14T1900,3538A,107.5175,26.2978,黔南布依族苗族自治州,沙坝,,29,29,29,7,17,89,,95,95,4,9,5,5,0.6,0.6
2024-09-14T1900,2589A,104.9022,25.0925,黔西南布依族苗族自治州,场坝街,,25,22,25,17,14,74,,81,81,6,13,2,21,0.3,0.2
2024-09-14T1900,2590A,104.8811,25.0992,黔西南布依族苗族自治州,坪东大道,,24,24,22,13,8,68,,79,79,5,12,6,10,0.2,0.3
2024-09-14T1900,2502A,108.6236,21.9667,钦州市,市环保站,,23,9,41,3,23,72,,106,104,21,17,5,7,0.8,0.9
2024-09-14T1900,2503A,108.6549,21.9481,钦州市,沙埠小学,,,,52,11,28,73,,112,112,23,24,4,5,0.7,0.8
2024-09-14T1900,2504A,108.5989,21.7431,钦州市,港区一小,,25,23,67,17,32,75,,107,106,22,38,4,7,0.7,0.8
2024-09-14T1900,3404A,108.5959,21.9633,钦州市,北职校,,28,,45,14,28,88,,110,109,13,17,5,6,0.6,0.9
2024-09-14T1900,1042A,119.5134,39.8207,秦皇岛市,北戴河环保局,,25,25,27,14,8,60,,80,76,12,11,3,3,0.5,0.4
2024-09-14T1900,1043A,119.7493,40.0116,秦皇岛市,第一关,,33,33,26,17,16,36,,67,60,36,21,3,2,0.3,0.2
2024-09-14T1900,1044A,119.5897,39.9499,秦皇岛市,监测站,,29,29,29,19,14,55,,72,70,11,11,3,3,0.4,0.3
2024-09-14T1900,1046A,119.5251,39.9041,秦皇岛市,建设大厦,,33,33,29,17,10,57,,75,73,14,7,4,3,0.4,0.2
2024-09-14T1900,3132A,119.610547,39.943889,秦皇岛市,文明里,,32,24,28,22,9,56,,73,71,13,9,3,2,0.6,0.4
2024-09-14T1900,1307A,120.6659,36.2403,青岛市,仰口,,31,30,12,17,12,97,,82,82,8,6,7,6,0.2,0.3
2024-09-14T1900,1310A,120.4134,36.0658,青岛市,市南区东部子站,,48,48,28,14,11,83,,60,60,26,20,7,7,0.4,0.4
2024-09-14T1900,1311A,120.3664,36.1032,青岛市,四方区子站,颗粒物(PM10),51,51,27,17,12,82,,68,68,28,21,10,10,0.6,0.7
2024-09-14T1900,1312A,120.2994,36.054,青岛市,市南区西部子站,,41,41,29,7,8,102,,82,82,12,18,8,9,0.6,0.7
2024-09-14T1900,1313A,120.4581,36.0858,青岛市,崂山区子站,颗粒物(PM10),57,63,22,9,8,88,,68,68,24,21,9,8,0.5,0.5
2024-09-14T1900,1314A,120.1983,35.9608,青岛市,黄岛区子站,,41,41,30,12,12,82,,63,63,43,28,9,9,0.4,0.5
2024-09-14T1900,1315A,120.3999,36.3083,青岛市,城阳区子站,,39,39,24,17,12,85,,72,72,20,21,8,7,0.6,0.7
2024-09-14T1900,1966A,120.0405,35.8735,青岛市,黄岛区4号,,48,48,31,17,16,87,,68,68,19,16,12,10,0.6,0.6
2024-09-14T1900,3362A,120.5014,36.4034,青岛市,即墨2号,,37,37,18,12,9,86,,77,77,12,13,7,7,0.4,0.5
2024-09-14T1900,3642A,120.3503,36.0736,青岛市,市北区南部,,30,30,23,12,12,87,,65,65,25,31,7,8,0.6,0.7
2024-09-14T1900,3643A,120.3948,36.1805,青岛市,李沧区北部,,46,46,22,12,12,89,,72,72,24,25,9,9,0.6,0.6
2024-09-14T1900,1702A,113.0426,23.691,清远市,环保大楼,,25,25,28,13,20,62,,85,84,18,11,8,8,0.8,0.8
2024-09-14T1900,1703A,113.0208,23.7106,清远市,凤城街办,,23,20,33,16,24,57,,79,77,14,11,6,6,0.6,0.6
2024-09-14T1900,3025A,113.0477,23.6344,清远市,技师学院,,23,23,27,14,18,60,,81,79,9,8,5,5,0.7,0.8
2024-09-14T1900,3318A,112.9903,23.7403,清远市,清新太和,,19,18,34,12,22,58,,70,69,12,10,3,3,0.7,0.8
2024-09-14T1900,3455A,113.076,23.7198,清远市,清城东城,,,22,26,15,18,67,,86,84,,5,,7,0.7,0.7
2024-09-14T1900,2661A,107.6325,35.7357,庆阳市,庆阳五中,,42,42,32,11,11,68,,72,68,11,9,6,6,0.4,0.4
2024-09-14T1900,2662A,107.6364,35.7067,庆阳市,市环保局,,40,40,28,12,9,64,,75,69,16,10,5,6,0.5,0.4
2024-09-14T1900,1916A,103.7897,25.5035,曲靖市,环境监测站,,33,33,29,15,13,101,,108,108,11,14,4,5,0.4,0.4
2024-09-14T1900,1917A,103.8,25.5364,曲靖市,烟厂办公区,,31,24,29,11,15,99,,104,104,10,18,3,5,0.4,0.6
2024-09-14T1900,3376A,103.7947,25.462,曲靖市,南苑二区,,33,20,24,8,13,105,,108,108,11,11,6,9,0.4,0.5
2024-09-14T1900,3377A,103.7444,25.5261,曲靖市,曲靖师范学院,,38,38,33,9,20,112,,110,110,9,19,6,22,0.5,0.7
2024-09-14T1900,1264A,118.8692,28.9398,衢州市,环保大楼,,48,48,30,26,16,118,,139,138,20,21,3,3,0.6,0.6
2024-09-14T1900,1265A,118.8709,28.9666,衢州市,实验学校,颗粒物(PM10),52,53,31,27,17,109,,136,133,17,20,6,5,0.5,0.5
2024-09-14T1900,1266A,118.8621,28.9808,衢州市,衢州学院,颗粒物(PM10),53,56,33,26,16,106,,135,132,22,30,6,7,0.5,0.4
2024-09-14T1900,1611A,118.5819,24.9117,泉州市,涂山街,,23,23,21,16,11,31,,49,48,23,11,2,2,0.6,0.5
2024-09-14T1900,1612A,118.5972,24.8978,泉州市,津头埔,,24,24,22,13,9,25,,41,40,29,14,4,4,0.6,0.5
2024-09-14T1900,1613A,118.6663,24.9424,泉州市,万安,,21,21,20,10,9,36,,41,41,15,11,2,2,0.5,0.5
2024-09-14T1900,3529A,118.6333,24.9264,泉州市,城华南路,,25,20,19,17,8,30,,40,39,19,7,4,4,0.6,0.6
2024-09-14T1900,2626A,88.8876,29.2718,日喀则市,日喀则监测站,,29,8,12,3,5,90,,88,88,4,7,6,6,0.3,0.4
2024-09-14T1900,3726A,88.8781,29.2426,日喀则市,林业技术推广中心,,25,,5,3,5,78,,77,77,5,7,6,6,0.4,0.4
2024-09-14T1900,1659A,119.471,35.4209,日照市,监测站,,29,29,24,10,21,90,,80,80,17,14,10,10,0.4,0.4
2024-09-14T1900,1660A,119.523,35.4216,日照市,市政府广场,,34,34,30,10,20,101,,87,87,15,11,11,10,0.6,0.6
2024-09-14T1900,1661A,119.5587,35.4044,日照市,港务局,,39,39,27,18,22,105,,89,89,8,8,10,10,0.6,0.6
2024-09-14T1900,3507A,119.5328,35.4625,日照市,职业技术学院,,34,34,29,12,21,99,,84,84,12,14,10,9,0.6,0.7
2024-09-14T1900,3604A,119.3266,35.1044,日照市,岚山环保分局,,46,46,34,15,18,86,,85,85,26,18,25,18,2.2,1.8
2024-09-14T1900,1835A,111.1922,34.7752,三门峡市,市政府,臭氧1小时,105,75,44,35,23,210,,167,167,20,28,16,11,1.0,0.7
2024-09-14T1900,1836A,111.1587,34.7942,三门峡市,开发区,臭氧1小时,94,92,53,42,29,195,,153,153,18,17,19,13,1.0,0.7
2024-09-14T1900,3039A,111.1911,34.7829,三门峡市,三门峡市第一小学,臭氧1小时,99,84,48,58,25,199,,159,159,19,21,18,11,1.0,0.7
2024-09-14T1900,3598A,111.1,34.7167,三门峡市,富达温泉假日酒店,臭氧1小时,105,96,54,50,30,210,,170,170,18,21,12,16,0.6,0.6
2024-09-14T1900,2324A,117.6211,26.2625,三明市,三钢,,34,34,23,14,14,68,,78,78,12,15,6,6,0.3,0.4
2024-09-14T1900,2325A,117.635,26.2714,三明市,三明二中,,28,28,21,18,12,64,,75,75,16,15,3,3,0.5,0.5
2024-09-14T1900,2326A,117.6028,26.2378,三明市,三元区政府,,38,38,28,15,14,63,,72,72,20,20,9,5,0.9,0.5
2024-09-14T1900,1876A,109.5078,18.2489,三亚市,河东子站,,15,13,11,3,5,48,,56,55,7,5,3,3,0.3,0.3
2024-09-14T1900,1877A,109.4964,18.2681,三亚市,河西子站,,14,9,11,3,3,43,,54,51,7,7,3,3,0.2,0.3
2024-09-14T1900,3540A,109.7348,18.3443,三亚市,君悦子站,,15,15,13,3,4,48,,50,50,11,6,3,3,0.3,0.3
2024-09-14T1900,2624A,91.7608,29.2313,山南市,山南监测站,,,,8,4,4,81,,76,76,12,5,7,7,0.3,0.3
2024-09-14T1900,2625A,91.7706,29.2436,山南市,山南人民医院,,27,18,16,11,9,86,,78,78,9,8,8,8,0.3,0.4
2024-09-14T1900,1674A,116.6794,23.3667,汕头市,金平子站,,18,18,34,3,17,41,,83,77,13,13,4,7,0.5,0.6
2024-09-14T1900,1675A,116.7244,23.3633,汕头市,龙湖子站,,15,15,24,10,9,47,,86,79,6,6,7,8,0.6,0.6
2024-09-14T1900,1676A,116.7258,23.2775,汕头市,濠江子站,,19,13,24,13,15,54,,78,74,14,12,6,6,0.5,0.5
2024-09-14T1900,1677A,116.7519,23.4714,汕头市,澄海子站,,22,22,28,13,15,45,,84,77,20,13,8,7,0.8,0.7
2024-09-14T1900,1678A,116.6092,23.2539,汕头市,潮阳子站,,38,38,30,12,8,50,,92,87,12,10,6,6,0.7,0.6
2024-09-14T1900,3444A,116.454,23.2684,汕头市,潮南峡山,,35,35,26,20,13,66,,100,98,6,5,6,6,0.7,0.7
2024-09-14T1900,3624A,116.4069,23.2533,汕头市,潮南子站,颗粒物(PM10),54,58,32,27,13,72,,100,99,13,12,6,7,0.6,0.5
2024-09-14T1900,1693A,115.3653,22.775,汕尾市,市环保局,,22,12,22,12,15,68,,89,89,12,9,7,7,0.7,0.6
2024-09-14T1900,1694A,115.3706,22.7898,汕尾市,市政府,,19,8,21,6,13,60,,77,77,14,10,6,7,0.5,0.5
2024-09-14T1900,1695A,115.3622,22.7925,汕尾市,新城中学,,,,24,7,12,53,,80,80,,8,6,6,0.6,0.7
2024-09-14T1900,2645A,109.9154,33.8715,商洛市,监测站,,41,41,43,22,22,103,,125,125,17,14,7,5,0.7,0.6
2024-09-14T1900,3045A,109.9643,33.8471,商洛市,商州区中学,,37,37,43,22,20,88,,123,122,22,17,8,5,0.8,0.7
2024-09-14T1900,2408A,115.6702,34.4285,商丘市,环境监测站,,39,,89,27,50,79,,66,66,12,17,4,5,0.7,0.8
2024-09-14T1900,2409A,115.6458,34.4045,商丘市,粮食局,,39,,90,27,55,88,,74,74,12,16,7,8,0.4,0.6
2024-09-14T1900,2410A,115.6293,34.3948,商丘市,睢阳区环保局,,43,43,85,17,42,83,,68,68,9,16,5,6,0.1,0.3
2024-09-14T1900,3171A,115.6071,34.4465,商丘市,梁园区档案局,,27,,69,17,35,84,,71,71,12,18,8,9,0.5,0.6
2024-09-14T1900,1141A,121.4,31.238,上海市,普陀,,25,25,19,6,7,31,,47,44,20,15,8,7,0.5,0.4
2024-09-14T1900,1142A,121.478,31.2036,上海市,十五厂,,28,28,18,18,12,32,,52,51,21,16,8,8,0.5,0.4
2024-09-14T1900,1143A,121.467,31.3008,上海市,虹口,,23,23,20,12,9,36,,41,41,16,18,8,10,0.6,0.6
2024-09-14T1900,1144A,121.412,31.1654,上海市,徐汇上师大,,23,23,20,13,9,29,,55,54,26,19,6,6,0.7,0.7
2024-09-14T1900,1145A,121.536,31.2659,上海市,杨浦四漂,,15,15,18,7,6,34,,48,47,15,19,7,7,0.4,0.5
2024-09-14T1900,1147A,121.425,31.2261,上海市,静安监测站,,23,23,18,10,8,36,,48,48,18,16,8,7,0.6,0.4
2024-09-14T1900,1148A,121.703,31.1907,上海市,浦东川沙,,18,18,20,3,7,47,,50,50,12,21,6,6,0.4,0.5
2024-09-14T1900,1149A,121.533,31.2284,上海市,浦东新区监测站,,16,13,16,11,8,34,,48,47,17,19,6,6,0.4,0.4
2024-09-14T1900,1150A,121.577,31.2071,上海市,浦东张江,,20,18,19,14,10,36,,42,42,14,16,5,6,0.7,0.7
2024-09-14T1900,3265A,121.4316,31.3322,上海市,宝山庙行,,20,20,17,9,6,39,,48,47,13,15,6,8,0.5,0.4
2024-09-14T1900,3266A,121.8791,31.4662,上海市,崇明上实东滩,,,8,8,,,43,,,,8,8,6,4,0.8,1
2024-09-14T1900,3268A,121.3162,31.2838,上海市,嘉定南翔,,15,15,17,6,8,40,,48,48,15,17,6,7,0.3,0.4
2024-09-14T1900,3269A,121.3359,30.7456,上海市,金山新城,,21,21,17,13,10,34,,54,53,24,15,5,5,0.4,0.4
2024-09-14T1900,3270A,121.4996,31.0739,上海市,闵行浦江,,19,16,18,13,11,37,,51,50,16,16,6,6,0.5,0.5
2024-09-14T1900,3271A,121.2886,31.1663,上海市,青浦徐泾,,19,18,20,13,10,29,,53,52,26,19,9,8,0.7,0.5
2024-09-14T1900,3272A,121.2186,31.0378,上海市,松江图书馆,,19,19,21,8,9,34,,63,62,23,21,6,7,0.3,0.3
2024-09-14T1900,3273A,121.3902,31.2059,上海市,长宁仙霞,,24,24,19,7,9,40,,52,52,19,16,10,9,0.7,0.6
2024-09-14T1900,3274A,121.7965,31.0507,上海市,浦东惠南,,15,15,17,8,8,47,,51,51,11,12,8,8,0.5,0.5
2024-09-14T1900,3544A,121.4891,30.925,上海市,奉贤南桥新城,,18,18,19,11,10,38,,51,51,17,20,8,9,0.4,0.4
2024-09-14T1900,2381A,118.005,28.4572,上饶市,百草园,细颗粒物(PM2.5),58,,39,41,27,102,,116,116,5,7,2,10,0.5,0.5
2024-09-14T1900,2382A,117.9756,28.4436,上饶市,市监测站,,32,29,40,14,28,102,,130,129,9,11,2,16,0.6,0.7
2024-09-14T1900,2383A,117.9519,28.4628,上饶市,凤凰光学,,36,34,38,17,23,114,,130,129,10,11,3,13,0.8,0.9
2024-09-14T1900,3413A,118.1953,28.4401,上饶市,广丰区教体局,,31,31,32,16,18,99,,123,122,12,10,10,15,0.7,0.7
2024-09-14T1900,3685A,117.897,28.4315,上饶市,双创科技城,,37,34,43,22,26,117,,127,127,12,16,4,16,0.6,0.7
2024-09-14T1900,1669A,113.5824,24.7733,韶关市,市八中,,20,18,28,14,22,60,,77,76,4,4,9,10,0.6,0.6
2024-09-14T1900,1671A,113.5917,24.7972,韶关市,园林处,,25,22,34,17,29,60,,74,72,6,5,8,9,0.6,0.7
2024-09-14T1900,1672A,113.6735,24.7791,韶关市,韶关学院,,29,25,29,20,24,56,,71,70,7,9,7,8,0.4,0.4
2024-09-14T1900,1673A,113.5971,24.6863,韶关市,曲江监测站,,22,21,29,15,19,62,,79,78,7,11,10,11,0.7,0.7
2024-09-14T1900,3622A,113.5556,24.8082,韶关市,碧湖山庄,,20,20,37,14,27,57,,75,73,6,5,7,8,0.5,0.5
2024-09-14T1900,2462A,111.5239,27.3033,邵阳市,市水土所,,49,49,36,31,22,101,,109,109,5,4,8,9,0.9,0.9
2024-09-14T1900,2463A,111.4733,27.2317,邵阳市,市一中,,45,42,41,31,29,118,,120,120,7,8,8,10,0.7,0.7
2024-09-14T1900,2464A,111.5283,27.2442,邵阳市,市化工厂,,35,35,39,24,27,112,,116,116,12,11,10,14,0.7,0.7
2024-09-14T1900,2465A,111.4503,27.2537,邵阳市,市罐头厂,细颗粒物(PM2.5),54,55,39,38,27,113,,116,116,10,8,8,10,0.6,0.6
2024-09-14T1900,2466A,111.4328,27.2272,邵阳市,市环保局,,50,48,36,35,28,110,,116,116,8,7,5,8,0.7,0.7
