timepoint,stationcode,longitude,latitude,area,positionname,primarypollutant,aqi,pm10,pm10_24h,pm2_5,pm2_5_24h,o3,o3_24h,o3_8h,o3_8h_24h,no2,no2_24h,so2,so2_24h,co,co_24h
2024-09-14T1700,2566A,102.1879,31.914,阿坝藏族羌族自治州,州农科所,,22,19,17,9,7,61,,70,70,43,15,10,7,0,0
2024-09-14T1700,2568A,102.2502,31.8896,阿坝藏族羌族自治州,马师校,,24,10,16,6,8,74,,65,65,7,8,4,4,0.4,0.4
2024-09-14T1700,3994A,102.2165,31.9024,阿坝藏族羌族自治州,马尔康中学西区,,25,13,14,7,12,78,,70,70,7,7,5,5,0.3,0.4
2024-09-14T1700,2695A,80.292,41.1694,阿克苏地区,电视台,颗粒物(PM10),58,65,53,21,26,150,,101,101,10,13,7,4,0.4,0.4
2024-09-14T1700,2696A,80.2613,41.1551,阿克苏地区,艺术中心,颗粒物(PM10),62,73,46,13,21,136,,96,93,7,13,4,4,0.6,0.7
2024-09-14T1700,2204A,105.6467,38.8363,阿拉善盟,西城区西花园,颗粒物(PM10),72,94,46,30,14,62,,68,65,26,14,10,9,1.2,0.9
2024-09-14T1700,2205A,105.6985,38.8411,阿拉善盟,蒙二幼,颗粒物(PM10),55,60,34,29,11,46,,55,54,26,13,11,9,0.9,0.6
2024-09-14T1700,2206A,105.724,38.8516,阿拉善盟,环保局新楼,颗粒物(PM10),58,66,27,28,10,54,,70,56,23,11,11,10,0.8,0.5
2024-09-14T1700,2708A,88.1264,47.8517,阿勒泰地区,市站,,24,10,10,3,6,74,,63,63,10,9,7,7,0.2,0.5
2024-09-14T1700,2630A,80.1161,32.5,阿里地区,阿里监测站,,33,6,7,3,6,105,,99,99,4,18,4,4,0.3,0.4
2024-09-14T1700,3192A,80.0903,32.5028,阿里地区,阿里藏医院,,33,6,9,3,9,103,,102,102,4,19,6,7,0.5,0.7
2024-09-14T1700,2642A,109.0318,32.6537,安康市,香溪洞,,35,35,42,14,16,96,,94,94,3,8,6,8,0.3,0.4
2024-09-14T1700,2643A,109.0281,32.6939,安康市,安康市监测站,,30,20,30,16,15,95,,93,93,4,10,7,11,0.5,0.6
2024-09-14T1700,2644A,109.0072,32.6975,安康市,汉滨区检察院,,32,17,28,10,14,101,,96,96,4,10,7,8,0.4,0.5
2024-09-14T1700,2291A,117.0809,30.5177,安庆市,环科院,,38,24,26,24,22,121,,97,97,8,11,7,8,0.9,0.9
2024-09-14T1700,2292A,117.0331,30.5119,安庆市,马山宾馆,,37,28,27,18,21,116,,101,101,8,11,8,8,0.6,0.6
2024-09-14T1700,2294A,116.9896,30.6145,安庆市,安庆大学,,36,22,26,16,19,113,,92,92,6,9,8,8,0.6,0.7
2024-09-14T1700,3173A,117.0598,30.5351,安庆市,市人大,,36,27,24,21,21,114,,95,95,7,8,8,8,0.9,0.9
2024-09-14T1700,3123A,105.9408,26.2431,安顺市,凤凰山,,29,17,26,10,17,91,,84,84,4,14,6,7,0.4,0.5
2024-09-14T1700,3124A,105.9439,26.2564,安顺市,金钟山,,30,15,29,12,16,94,,86,86,3,6,6,6,0.5,0.5
2024-09-14T1700,3125A,105.8983,26.2481,安顺市,娄家坡,,30,18,17,15,13,93,,90,90,4,4,4,5,0.4,0.5
2024-09-14T1700,1819A,114.3551,36.1017,安阳市,红庙街,颗粒物(PM10),52,53,47,18,22,102,,121,121,18,23,5,6,0.7,0.7
2024-09-14T1700,1820A,114.361,36.0681,安阳市,银杏小区,,,49,45,,,104,,124,124,15,19,3,5,0.8,0.7
2024-09-14T1700,3141A,114.3922,36.0878,安阳市,信访局,,43,43,46,22,28,108,,126,126,21,27,3,4,0.6,0.6
2024-09-14T1700,3669A,114.4705,36.0637,安阳市,左辅环卫站,颗粒物(PM10),56,61,63,21,29,100,,118,118,17,25,3,4,0.9,0.9
2024-09-14T1700,3703A,114.2917,36.0949,安阳市,安钢职工学校,,39,39,52,22,30,101,,117,117,24,30,9,10,0.9,0.9
2024-09-14T1700,1748A,123.044,41.1196,鞍山市,深沟寺,,21,21,28,10,9,46,,39,39,15,13,3,4,0.4,0.4
2024-09-14T1700,1749A,123.011,41.0931,鞍山市,太阳城,,17,17,27,9,11,49,,39,39,13,15,5,7,0.3,0.5
2024-09-14T1700,1750A,123.0485,41.1442,鞍山市,太平,,25,25,27,12,9,45,,38,38,21,18,6,5,0.5,0.6
2024-09-14T1700,1751A,122.9642,41.0971,鞍山市,铁西三道街,,30,30,41,11,13,31,,26,26,33,34,20,21,2.0,2
2024-09-14T1700,1752A,122.9341,41.0833,鞍山市,铁西工业园区,,19,19,29,8,9,53,,39,39,15,17,7,11,0.5,0.7
2024-09-14T1700,1753A,123.022,41.0821,鞍山市,明达新区,,23,23,28,9,8,42,,34,34,15,14,4,5,0.4,0.5
2024-09-14T1700,2195A,107.4212,40.761,巴彦淖尔市,附二中,,29,29,26,13,13,70,,71,70,11,7,7,5,0.4,0.3
2024-09-14T1700,2196A,107.37,40.7372,巴彦淖尔市,市环保大楼,,25,25,25,6,13,74,,78,75,7,6,6,4,0.4,0.4
2024-09-14T1700,1956A,86.1472,41.7538,巴音郭楞蒙古自治州,孔雀公园,颗粒物(PM10),79,107,120,28,30,109,,77,77,2,43,6,7,0.2,0.5
2024-09-14T1700,1957A,86.1972,41.7166,巴音郭楞蒙古自治州,棉纺厂,颗粒物(PM10),83,116,133,40,40,108,,79,79,4,34,5,6,0.2,0.3
2024-09-14T1700,1958A,86.2357,41.7173,巴音郭楞蒙古自治州,经济开发区,颗粒物(PM10),76,102,129,32,35,107,,80,80,4,22,7,7,0.2,0.3
2024-09-14T1700,2914A,106.7677,31.8794,巴中市,苏山坪,,39,18,21,14,16,122,,112,112,7,8,3,3,0.4,0.4
2024-09-14T1700,3182A,106.7656,31.8545,巴中市,丽阳花园,,38,23,31,15,21,121,,110,110,10,16,4,5,0.5,0.6
2024-09-14T1700,3183A,106.7418,31.8654,巴中市,圣泉水务公司,,40,20,25,17,19,126,,111,111,6,11,4,4,0.4,0.5
2024-09-14T1700,3616A,106.7616,31.8344,巴中市,市中心医院,,39,22,29,15,23,123,,110,110,8,16,4,5,0.5,0.6
2024-09-14T1700,2235A,122.7911,45.6077,白城市,洮北区环保局,,27,14,14,3,5,84,,72,72,8,9,6,6,0.1,0.1
2024-09-14T1700,2236A,122.8738,45.5725,白城市,市环保局,,26,24,23,3,5,83,,69,69,9,12,3,3,0.2,0.2
2024-09-14T1700,2231A,126.4219,41.9171,白山市,喜丰,,34,34,29,9,8,47,,61,61,14,10,5,6,0.6,0.6
2024-09-14T1700,2232A,126.4077,41.9419,白山市,环保局,,20,20,27,13,7,44,,56,56,9,10,7,9,0.7,0.7
2024-09-14T1700,2647A,104.1724,36.5446,白银市,第三小学,,39,39,35,14,16,70,,76,76,13,23,20,29,0.5,0.6
2024-09-14T1700,2648A,104.1465,36.5482,白银市,动力公司,,36,36,30,8,13,68,,76,76,13,20,15,18,0.5,0.6
2024-09-14T1700,2512A,106.6103,23.9011,百色市,市监测站,,26,16,32,10,15,81,,69,69,6,12,4,4,0.4,0.6
2024-09-14T1700,2513A,106.6538,23.8859,百色市,市中心血站,,29,23,45,18,26,92,,76,76,7,19,2,8,0.7,0.8
2024-09-14T1700,3406A,106.6085,23.8798,百色市,祈福高中,,38,38,42,13,16,83,,68,68,4,14,3,3,0.5,0.8
2024-09-14T1700,2270A,117.396,32.939,蚌埠市,工人疗养院,,39,27,47,8,23,123,,88,88,6,8,6,6,0.4,0.5
2024-09-14T1700,2271A,117.3605,32.9427,蚌埠市,百货大楼,,34,24,48,8,28,108,,83,83,6,6,6,6,0.5,0.6
2024-09-14T1700,2273A,117.4185,32.8911,蚌埠市,蚌埠学院,,39,17,37,7,28,122,,92,92,5,9,5,6,0.5,0.6
2024-09-14T1700,2274A,117.3533,32.9673,蚌埠市,淮上区政府,,36,19,40,12,27,114,,81,81,4,10,7,7,0.5,0.6
2024-09-14T1700,2275A,117.3145,32.8977,蚌埠市,高新区,,34,24,40,16,28,107,,89,89,8,11,6,6,0.7,0.7
2024-09-14T1700,3715A,117.3092,32.9314,蚌埠市,蚌埠田家炳中学,,34,34,46,17,28,107,,87,87,9,7,6,5,0.6,0.6
2024-09-14T1700,1585A,109.8756,40.6532,包头市,市环境监测站,,17,17,12,10,6,45,,68,50,26,16,16,7,0.6,0.5
2024-09-14T1700,1587A,109.9991,40.5842,包头市,包头八中,,18,18,12,11,4,56,,60,52,20,16,11,6,0.5,0.5
2024-09-14T1700,1588A,109.8538,40.6821,包头市,青山宾馆,,25,25,8,11,3,49,,70,52,22,11,14,6,0.8,0.6
2024-09-14T1700,1589A,109.8642,40.6288,包头市,惠龙物流,,16,13,10,11,4,49,,67,51,23,15,16,8,0.6,0.5
2024-09-14T1700,1590A,110.0377,40.5546,包头市,东河鸿龙湾,,22,22,9,3,3,62,,60,60,15,11,13,9,0.5,0.4
2024-09-14T1700,3283A,109.9154,40.5685,包头市,滨河大厦,,23,23,9,10,4,61,,64,57,16,15,17,9,0.6,0.5
2024-09-14T1700,3419A,109.9447,40.6261,包头市,包头市委党校,,17,12,9,8,3,52,,66,55,29,15,17,7,0.5,0.2
2024-09-14T1700,3683A,109.8331,40.6576,包头市,昆区政府,,24,24,10,11,3,47,,69,50,26,15,14,6,0.5,0.4
2024-09-14T1700,1930A,107.185,34.3063,宝鸡市,庙沟村,,40,17,16,10,7,128,,96,96,7,5,9,8,0.2,0.2
2024-09-14T1700,1931A,107.0708,34.3017,宝鸡市,竹园沟,,43,9,19,8,7,136,,93,93,13,14,10,9,0.4,0.4
2024-09-14T1700,1932A,107.1906,34.3672,宝鸡市,三陆医院,,40,24,30,11,9,128,,86,86,19,23,10,11,0.5,0.5
2024-09-14T1700,1933A,107.1431,34.3547,宝鸡市,监测站,,43,43,34,13,9,124,,84,84,19,20,8,6,0.2,0.3
2024-09-14T1700,1934A,107.1186,34.3739,宝鸡市,技工学校,,40,16,25,11,11,126,,86,86,19,15,9,8,0.5,0.5
2024-09-14T1700,1935A,107.3906,34.3528,宝鸡市,陈仓区环保局家属楼,,39,16,24,8,9,122,,90,90,11,20,9,9,0.5,0.5
2024-09-14T1700,1936A,107.2058,34.3497,宝鸡市,文理学院,,41,27,22,3,7,129,,90,90,14,17,11,10,0.4,0.4
2024-09-14T1700,1937A,107.2386,34.3622,宝鸡市,三迪小学,,42,24,26,12,9,133,,91,91,17,23,10,9,0.5,0.5
2024-09-14T1700,1051A,115.493,38.8632,保定市,游泳馆,,32,32,42,7,16,88,,77,68,11,16,4,6,0.3,0.4
2024-09-14T1700,1052A,115.5213,38.8959,保定市,华电二区,,34,34,48,12,18,81,,65,61,14,17,4,3,0.1,0.3
2024-09-14T1700,1053A,115.4713,38.9108,保定市,接待中心,,36,36,44,11,20,76,,69,61,14,17,3,3,0.4,0.5
2024-09-14T1700,1054A,115.4612,38.8416,保定市,地表水厂,,43,43,52,13,18,83,,74,64,10,16,2,2,0.1,0.3
2024-09-14T1700,3581A,115.31981,38.95208,保定市,满城区生态环境分局,,34,34,57,14,19,69,,64,58,17,26,4,4,0.4,0.5
2024-09-14T1700,3582A,115.47694,38.76408,保定市,清苑区第二中学,,47,47,60,18,23,94,,68,68,10,16,1,2,0.4,0.5
2024-09-14T1700,3583A,115.62909,39.02311,保定市,徐水物探局,,,35,40,,16,91,,64,64,14,19,4,5,0.5,0.6
2024-09-14T1700,4004A,115.4202,38.8656,保定市,双鹰农机,,32,32,44,15,16,83,,83,67,15,20,1,2,0.4,0.6
2024-09-14T1700,4034A,115.5150,38.8590,保定市,植保所站,,41,41,44,14,25,88,,73,63,11,18,4,5,0.4,0.6
2024-09-14T1700,2594A,99.1678,25.1081,保山市,市环境监测站,,24,24,23,14,15,70,,55,55,5,8,6,6,0.4,0.5
2024-09-14T1700,2595A,99.1711,25.1328,保山市,市环保局,,24,14,26,3,9,75,,61,61,4,7,6,5,0.4,0.4
2024-09-14T1700,1867A,109.1436,21.4086,北海市,海滩公园,,35,30,36,24,20,97,,97,97,10,10,5,6,0.7,0.7
2024-09-14T1700,1868A,109.0981,21.4661,北海市,新市环保局,,31,31,37,14,28,97,,101,101,9,11,3,6,0.5,0.6
2024-09-14T1700,1869A,109.1778,21.5233,北海市,北海工业园,,29,,44,20,32,73,,94,94,21,15,4,12,0.5,0.6
2024-09-14T1700,3400A,109.1911,21.4415,北海市,龙潭自来水厂,,36,28,37,25,33,79,,92,92,8,9,5,5,0.6,0.6
2024-09-14T1700,1001A,116.3621,39.8784,北京市,万寿西宫,,21,14,26,3,11,65,,66,63,14,15,3,3,0.3,0.5
2024-09-14T1700,1002A,116.2202,40.2915,北京市,定陵,,17,10,21,3,13,52,,48,48,4,6,6,6,0.3,0.4
2024-09-14T1700,1003A,116.4174,39.9289,北京市,东四,,20,15,29,3,11,61,,74,65,13,12,4,5,0.4,0.5
2024-09-14T1700,1004A,116.4072,39.8863,北京市,天坛,,20,9,26,3,11,64,,64,64,12,13,3,3,0.3,0.4
2024-09-14T1700,1005A,116.462,39.9365,北京市,农展馆,,17,10,29,3,6,54,,57,57,13,13,2,3,0.3,0.4
2024-09-14T1700,1006A,116.3392,39.9295,北京市,官园,,20,10,28,3,10,64,,66,61,11,14,5,6,0.3,0.4
2024-09-14T1700,1007A,116.2878,39.9611,北京市,海淀万柳,,20,12,28,3,10,64,,61,61,8,13,2,4,0.3,0.4
2024-09-14T1700,1008A,116.6636,40.135,北京市,顺义新城,,19,6,35,3,15,58,,57,57,5,17,3,2,0.2,0.5
2024-09-14T1700,1009A,116.6275,40.3275,北京市,怀柔镇,,19,6,19,3,12,59,,63,57,10,15,3,2,0.1,0.3
2024-09-14T1700,1010A,116.2296,40.217,北京市,昌平镇,,18,13,29,3,12,55,,50,50,8,14,4,4,0.2,0.4
2024-09-14T1700,1011A,116.3966,39.9821,北京市,奥体中心,,18,10,29,3,10,56,,64,56,15,16,2,3,0.4,0.5
2024-09-14T1700,1012A,116.184,39.9136,北京市,古城,,20,17,30,3,12,63,,62,62,10,14,2,3,0.4,0.5
2024-09-14T1700,3281A,115.9718,40.4529,北京市,延庆夏都,,19,12,21,3,9,60,,60,60,7,7,3,3,0.3,0.4
2024-09-14T1700,3417A,117.0709,40.1465,北京市,平谷新城,,20,6,26,3,12,62,,62,62,3,9,3,3,0.4,0.5
2024-09-14T1700,3418A,116.8336,40.4095,北京市,密云新城,,20,6,26,3,11,61,,58,58,3,9,3,3,0.2,0.4
2024-09-14T1700,3671A,116.088,39.9726,北京市,门头沟三家店,,19,10,27,3,11,59,,58,58,6,13,4,4,0.2,0.3
2024-09-14T1700,3672A,116.1541,39.8204,北京市,丰台云岗,,18,9,28,3,11,56,,57,57,7,11,2,3,0.2,0.4
2024-09-14T1700,3673A,116.6804,39.9081,北京市,通州东关,,20,7,36,3,14,64,,62,62,9,26,3,3,0.2,0.5
2024-09-14T1700,3674A,115.9577,39.7603,北京市,房山燕山,,20,11,24,3,11,63,,60,60,11,8,3,3,0.2,0.3
2024-09-14T1700,3675A,116.4672,39.7733,北京市,大兴旧宫,,22,8,26,3,11,69,,69,69,15,18,3,3,0.2,0.4
2024-09-14T1700,3694A,115.986,40.4563,北京市,延庆石河营,,18,10,18,3,9,57,,57,57,6,7,3,3,0.2,0.3
2024-09-14T1700,3695A,116.6151,40.3053,北京市,怀柔新城,,19,7,25,3,11,58,,64,56,7,11,3,3,0.2,0.5
2024-09-14T1700,3696A,116.2545,39.8768,北京市,丰台小屯,,27,27,32,3,11,61,,60,60,10,14,3,2,0.3,0.4
2024-09-14T1700,3697A,116.84,40.3844,北京市,密云镇,,18,6,27,3,12,56,,56,56,9,15,2,3,0.3,0.4
2024-09-14T1700,1761A,123.8275,41.3064,本溪市,大峪,,34,34,25,7,4,32,,43,33,19,16,8,8,0.8,0.7
2024-09-14T1700,1762A,123.7567,41.3325,本溪市,溪湖,,31,31,27,20,10,37,,44,33,17,15,6,6,0.7,0.6
2024-09-14T1700,1763A,123.7169,41.3094,本溪市,彩屯,,38,38,32,18,12,34,,38,31,21,21,9,8,0.7,0.8
2024-09-14T1700,1764A,123.7669,41.2864,本溪市,东明,,31,31,28,13,7,34,,47,35,23,18,7,7,0.7,0.6
2024-09-14T1700,1765A,123.7992,41.2664,本溪市,新立屯,,20,20,23,8,7,37,,46,38,19,18,4,5,0.5,0.5
2024-09-14T1700,1766A,123.8142,41.3472,本溪市,威宁,,,25,25,20,12,,,36,34,19,22,8,8,0.7,0.7
2024-09-14T1700,2587A,105.2864,27.3125,毕节市,八中,,37,25,29,13,23,116,,100,100,9,15,11,7,0.3,0.5
2024-09-14T1700,2588A,105.31,27.2944,毕节市,师专,,38,19,36,14,23,120,,102,102,11,18,16,9,0.4,0.5
2024-09-14T1700,3537A,105.3631,27.3533,毕节市,长征村,,44,27,38,16,30,138,,115,115,6,13,10,8,0.4,0.5
2024-09-14T1700,1629A,118.0018,37.3617,滨州市,第二水厂,,29,29,27,9,10,90,,73,73,9,11,4,4,0.1,0.2
2024-09-14T1700,1630A,117.9776,37.393,滨州市,北中新校,,34,34,32,12,10,90,,74,74,2,5,6,6,0.4,0.5
2024-09-14T1700,3514A,117.9378,37.3956,滨州市,中海酒店,,30,29,27,17,12,94,,78,78,7,12,5,5,0.5,0.5
2024-09-14T1700,3515A,117.9378,37.3553,滨州市,开发区一中,,31,31,29,9,12,88,,73,73,9,13,7,8,0.3,0.4
2024-09-14T1700,3516A,118.0917,37.694,滨州市,金海六路,,27,19,27,3,4,85,,82,82,8,9,2,4,0.4,0.4
2024-09-14T1700,4028A,117.9956,37.3753,滨州市,滨州市西街道办事处,,29,27,26,12,12,92,,76,76,5,8,5,5,0.4,0.5
2024-09-14T1700,2311A,115.8072,33.8399,亳州市,污水处理厂,,49,48,38,34,34,92,,69,69,10,11,3,2,0.7,0.6
2024-09-14T1700,2312A,115.7789,33.8518,亳州市,三国揽胜宫,细颗粒物(PM2.5),54,47,41,38,39,87,,69,69,6,7,2,2,0.6,0.6
2024-09-14T1700,3332A,115.7633,33.8034,亳州市,亳州学院,细颗粒物(PM2.5),58,46,48,41,40,87,,70,70,9,9,2,1,0.7,0.7
2024-09-14T1700,2693A,82.0485,44.8556,博尔塔拉蒙古自治州,市党校,,27,20,28,13,11,84,,64,64,10,12,5,5,0.3,0.3
2024-09-14T1700,2694A,82.0806,44.8969,博尔塔拉蒙古自治州,市环保局,,36,36,37,12,12,81,,59,59,6,11,6,5,0.3,0.3
2024-09-14T1700,1071A,116.8842,38.2991,沧州市,沧县城建局,,44,44,38,13,13,76,,69,64,14,13,3,2,0.2,0.4
2024-09-14T1700,1072A,116.8584,38.3254,沧州市,电视转播站,,41,41,37,7,11,87,,71,71,16,16,4,3,0.4,0.4
2024-09-14T1700,1073A,116.8709,38.3228,沧州市,市环保局,,36,36,37,16,15,80,,68,68,12,13,6,5,0.3,0.3
2024-09-14T1700,3324A,116.8136,38.3004,沧州市,河北水利电力学院,,29,29,36,12,13,85,,71,71,11,10,8,9,1.0,0.5
2024-09-14T1700,2622A,97.1806,31.1273,昌都市,昌都监测站,,26,7,8,3,5,82,,66,66,1,8,6,6,0.6,0.6
2024-09-14T1700,3719A,97.1714,31.1406,昌都市,昌都会议中心,,26,6,11,3,5,83,,75,75,11,16,8,8,0.6,0.5
2024-09-14T1700,2690A,88.1236,43.8886,昌吉回族自治州,天山天池,,17,6,23,3,12,53,,61,58,11,8,5,5,0.6,0.6
2024-09-14T1700,2692A,87.2717,44.0297,昌吉回族自治州,新区政务中心,,30,30,25,16,11,79,,65,65,8,12,6,7,0.6,0.6
2024-09-14T1700,3613A,87.3095,44.0142,昌吉回族自治州,亚心广场,,39,39,29,9,7,82,,66,66,13,17,5,5,0.5,0.5
2024-09-14T1700,1119A,125.3325,43.9166,长春市,食品厂,,24,24,13,9,8,64,,50,50,17,16,5,4,0.2,0.2
2024-09-14T1700,1120A,125.2863,43.9027,长春市,客车厂,,19,16,13,11,9,60,,48,48,20,17,7,6,0.3,0.3
2024-09-14T1700,1121A,125.2841,43.8463,长春市,邮电学院,,18,18,14,7,6,53,,49,49,13,16,7,6,0.2,0.2
2024-09-14T1700,1122A,125.3716,43.8772,长春市,劳动公园,,23,15,15,3,5,71,,55,55,15,16,8,8,0.3,0.3
2024-09-14T1700,1123A,125.3297,43.8805,长春市,园林处,,20,16,13,3,5,64,,50,50,13,15,5,4,0.2,0.2
2024-09-14T1700,1124A,125.4605,43.79,长春市,净月潭,,16,16,13,3,3,48,,48,48,8,10,6,6,0.2,0.2
2024-09-14T1700,1126A,125.3863,43.8447,长春市,经开区环卫处,,19,10,14,3,5,60,,47,47,15,17,7,7,0.4,0.4
2024-09-14T1700,1127A,125.245,43.7783,长春市,高新区管委会,,21,13,15,3,7,65,,54,54,15,17,5,4,0.1,0.4
2024-09-14T1700,1128A,125.1761,43.8325,长春市,岱山公园,,18,16,17,3,6,56,,52,52,18,20,4,4,0.3,0.4
2024-09-14T1700,1335A,113.0833,28.2325,长沙市,经开区环保局,,46,42,40,24,22,146,,123,123,12,15,2,2,0.6,0.6
2024-09-14T1700,1336A,112.8872,28.2189,长沙市,高开区环保局,,39,35,41,23,21,123,,114,114,7,10,3,3,0.5,0.6
2024-09-14T1700,1337A,113.0792,28.2053,长沙市,马坡岭,颗粒物(PM10),51,51,44,26,27,156,,132,132,9,14,3,3,0.6,0.6
2024-09-14T1700,1338A,112.9394,28.19,长沙市,湖南师范大学,,43,41,42,22,27,137,,124,124,4,9,5,5,0.5,0.6
2024-09-14T1700,1339A,113.0178,28.1322,长沙市,雨花区环保局,,44,43,43,22,22,138,,123,123,11,15,4,4,0.6,0.6
2024-09-14T1700,1340A,112.9792,28.2597,长沙市,伍家岭,,43,38,42,27,26,135,,121,121,4,12,2,2,0.8,0.8
2024-09-14T1700,1341A,113.0014,28.1944,长沙市,火车新站,,42,40,42,29,27,134,,118,118,6,13,3,3,0.6,0.6
2024-09-14T1700,1342A,112.9844,28.1178,长沙市,天心区环保局,,50,50,48,15,21,136,,118,118,8,14,2,2,0.6,0.7
2024-09-14T1700,1343A,112.8908,28.1308,长沙市,湖南中医药大学,,42,38,42,22,33,132,,126,126,4,14,5,5,0.8,0.9
2024-09-14T1700,1344A,112.9581,28.3611,长沙市,沙坪,,39,21,40,16,19,123,,106,106,7,9,8,8,0.6,0.7
2024-09-14T1700,1727A,113.1147,36.1547,长治市,清华站,,50,38,41,34,26,160,,139,139,15,14,13,11,1.3,1.1
2024-09-14T1700,1728A,113.1031,36.1989,长治市,监测站,细颗粒物(PM2.5),62,50,44,44,26,152,,141,141,16,19,13,11,1.3,1.2
2024-09-14T1700,1730A,113.0886,36.2125,长治市,审计局,细颗粒物(PM2.5),64,50,41,46,27,150,,144,144,17,22,10,10,0.9,0.9
2024-09-14T1700,1731A,113.0844,36.1856,长治市,长治八中,颗粒物(PM10),52,54,55,33,24,157,,143,143,13,15,12,11,1.2,1.1
2024-09-14T1700,2845A,113.1569,36.1911,长治市,德盛苑,臭氧1小时,57,39,38,34,25,165,,139,139,9,10,8,7,1.1,1
2024-09-14T1700,3568A,113.06,36.0464,长治市,向阳小学,颗粒物(PM10),57,64,68,34,43,158,,137,137,13,16,13,18,1.1,0.9
2024-09-14T1700,3569A,112.8792,36.3144,长治市,屯留一中,细颗粒物(PM2.5),64,70,64,46,39,158,,145,145,18,21,18,15,1.6,1.4
2024-09-14T1700,3570A,113.235,36.3489,长治市,潞城四中,细颗粒物(PM2.5),109,,58,82,35,160,,160,160,7,17,6,9,1.2,1.3
2024-09-14T1700,1854A,111.6975,28.9703,常德市,市二中,,45,42,48,31,34,111,,104,104,6,14,8,8,0.7,0.7
2024-09-14T1700,3138A,111.7153,29.0289,常德市,武陵区永安,,46,46,59,31,41,104,,100,100,8,18,7,8,0.7,0.7
2024-09-14T1700,3139A,111.6892,28.9881,常德市,鼎城区玉霞,,44,44,52,29,35,110,,103,103,7,16,8,8,0.7,0.7
2024-09-14T1700,3140A,111.6625,29.0531,常德市,武陵区长庚,细颗粒物(PM2.5),60,59,57,43,40,98,,100,100,13,17,9,9,0.6,0.6
2024-09-14T1700,1196A,119.9633,31.762,常州市,市监测站,臭氧1小时,106,83,35,21,15,212,,210,210,12,14,8,7,0.7,0.5
2024-09-14T1700,1200A,119.9468,31.7069,常州市,武进监测站,臭氧1小时,114,39,23,29,12,228,,178,178,16,12,10,8,1.0,0.8
2024-09-14T1700,1201A,119.9255,31.9087,常州市,安家,,50,31,30,19,17,158,,155,155,10,25,7,8,0.6,0.7
2024-09-14T1700,3002A,119.9805,31.8174,常州市,行政中心,臭氧1小时,74,46,27,18,12,179,,169,169,17,17,1,2,0.5,0.5
2024-09-14T1700,3003A,120.0522,31.7748,常州市,经开区,臭氧1小时,79,42,29,24,15,183,,171,171,14,21,11,10,0.8,0.7
2024-09-14T1700,3010A,119.9025,31.7964,常州市,钟楼,臭氧1小时,63,26,23,20,12,170,,160,160,14,16,8,8,0.6,0.6
2024-09-14T1700,3429A,119.8598,31.7066,常州市,武进经发区,臭氧1小时,89,39,30,23,12,191,,166,166,16,17,11,11,0.7,0.6
2024-09-14T1700,3430A,119.5826,31.7245,常州市,金坛城区,臭氧1小时,88,32,27,17,13,190,,157,157,16,17,8,9,0.4,0.5
2024-09-14T1700,2220A,120.4318,41.5881,朝阳市,西梁,,23,12,15,3,2,71,,68,68,8,7,4,5,0.3,0.3
2024-09-14T1700,2221A,120.4521,41.5646,朝阳市,河畔小区,,23,6,15,3,6,73,,68,68,4,5,7,8,0.4,0.4
2024-09-14T1700,2222A,120.4176,41.5648,朝阳市,八里堡,,24,16,20,8,8,74,,70,70,12,10,7,9,0.6,0.5
2024-09-14T1700,2223A,120.3806,41.5969,朝阳市,农业园区,,22,11,13,3,5,68,,66,66,5,6,7,8,0.3,0.3
2024-09-14T1700,1705A,116.6367,23.6719,潮州市,西园路,,25,20,28,17,18,62,,54,54,15,11,8,7,0.3,0.2
2024-09-14T1700,3026A,116.6183,23.6608,潮州市,市政府,,26,26,33,16,15,75,,66,66,9,10,7,6,0.7,0.6
2024-09-14T1700,4036A,116.6461,23.6761,潮州市,金山,颗粒物(PM10),52,54,35,14,20,66,,62,62,20,11,9,7,0.6,0.6
2024-09-14T1700,2472A,113.0073,25.9061,郴州市,马头岭,,42,42,40,6,14,101,,85,85,5,11,7,8,0.6,0.7
2024-09-14T1700,2473A,113.0116,25.8226,郴州市,市职中,,40,32,34,28,30,113,,92,92,9,12,3,4,0.6,0.7
2024-09-14T1700,2474A,113.0161,25.8001,郴州市,兴隆步行街,,36,36,39,24,24,114,,93,93,10,13,7,8,0.7,0.8
2024-09-14T1700,2475A,113.0383,25.8071,郴州市,市审计局,,38,30,34,26,30,107,,88,88,8,11,4,6,0.7,0.7
2024-09-14T1700,2476A,113.0348,25.7759,郴州市,市环保局,,39,34,38,27,30,108,,87,87,10,12,5,6,0.7,0.7
2024-09-14T1700,1431A,103.9728,30.7236,成都市,金泉两河,,41,6,23,3,10,130,,93,93,7,10,2,3,0.4,0.4
2024-09-14T1700,1432A,104.176,30.6872,成都市,十里店,,45,21,28,17,16,142,,108,108,12,18,2,3,0.3,0.4
2024-09-14T1700,1433A,104.079,30.5706,成都市,三瓦窑,臭氧1小时,58,22,30,3,22,166,,110,110,10,17,2,3,0.5,0.5
2024-09-14T1700,1434A,104.1114,30.63,成都市,沙河铺,臭氧1小时,54,45,34,19,19,163,,117,117,10,15,3,4,0.5,0.5
2024-09-14T1700,1437A,104.0786,30.6531,成都市,君平街,,44,32,25,14,17,140,,113,113,11,13,3,4,0.5,0.6
2024-09-14T1700,2880A,104.0239,30.65639,成都市,大石西路,,40,23,28,23,18,127,,99,99,10,14,6,6,0.6,0.6
2024-09-14T1700,3136A,104.2725,30.5589,成都市,龙泉驿区区政府,,,12,29,12,20,154,,117,117,,17,4,5,0.5,0.5
2024-09-14T1700,3357A,104.0106,30.6931,成都市,金博路,,40,6,22,3,14,126,,93,93,10,14,2,2,0.5,0.5
2024-09-14T1700,3359A,104.0578,30.5225,成都市,华阳,臭氧1小时,55,27,32,9,16,164,,114,114,15,17,3,4,0.6,0.7
2024-09-14T1700,3487A,104.2394,30.5319,成都市,车城东七路,,50,26,41,20,29,159,,120,120,8,19,3,4,0.4,0.5
2024-09-14T1700,3488A,104.3853,30.7453,成都市,青白江技师分院,臭氧1小时,68,,35,29,22,174,,119,119,10,24,3,4,0.5,0.6
2024-09-14T1700,3489A,104.0789,30.4072,成都市,科学城,臭氧1小时,60,26,38,20,29,168,,131,131,4,17,3,3,0.5,0.6
2024-09-14T1700,4011A,103.8506,30.6947,成都市,光华大道三段,,43,13,24,3,12,136,,104,104,9,10,2,2,0.5,0.5
2024-09-14T1700,1062A,117.9531,40.9081,承德市,铁路,,19,12,21,3,5,59,,55,55,11,15,8,9,0.2,0.2
2024-09-14T1700,1063A,117.9392,40.9763,承德市,中国银行,,19,12,21,3,5,59,,58,58,11,9,5,5,0.3,0.3
2024-09-14T1700,1064A,117.9503,40.928,承德市,开发区,,19,18,27,8,11,60,,56,56,9,11,8,8,0.2,0.3
2024-09-14T1700,1065A,117.8051,40.9655,承德市,文化中心,,18,16,25,3,5,57,,58,58,9,9,8,9,0.3,0.3
2024-09-14T1700,1066A,117.9268,41.0026,承德市,离宫,,33,23,15,23,18,40,,48,48,6,5,4,4,0.3,0.2
2024-09-14T1700,2314A,117.47,30.6618,池州市,池州学院,,40,38,35,28,24,116,,87,87,9,13,6,7,0.8,0.8
2024-09-14T1700,3237A,117.4918,30.6617,池州市,展览馆,,39,38,36,27,21,113,,85,85,10,14,4,5,0.9,0.8
2024-09-14T1700,3333A,117.5627,30.695,池州市,第八中学,细颗粒物(PM2.5),53,46,35,37,24,114,,86,86,10,13,4,4,0.8,0.8
2024-09-14T1700,3334A,117.5038,30.6243,池州市,第十二中学,,49,42,36,34,27,111,,84,84,13,15,4,3,0.7,0.7
2024-09-14T1700,1744A,118.9233,42.2816,赤峰市,松山一中,,24,6,19,3,3,74,,71,71,20,15,8,8,0.4,0.4
2024-09-14T1700,1745A,118.9576,42.2728,赤峰市,哈达街,,23,16,14,9,5,72,,71,71,16,11,6,6,0.3,0.3
2024-09-14T1700,1746A,118.8788,42.2554,赤峰市,天义路,,22,,13,8,7,68,,66,66,15,11,6,6,0.2,0.2
2024-09-14T1700,3058A,119.2658,42.0353,赤峰市,银河街,,22,16,21,8,9,69,,65,65,10,8,11,11,0.3,0.2
2024-09-14T1700,3286A,118.9359,42.3147,赤峰市,桥北物流园区,,24,,13,6,5,74,,72,72,19,12,8,7,0.4,0.5
2024-09-14T1700,2521A,107.3476,22.4136,崇左市,市环保局江州分局,,39,39,35,19,20,70,,92,92,13,5,9,6,0.7,0.7
2024-09-14T1700,2522A,107.3702,22.3707,崇左市,城南新区,,36,,29,25,22,83,,97,97,14,5,3,3,0.7,0.7
2024-09-14T1700,2298A,118.3093,32.3153,滁州市,老年大学,,40,31,28,25,25,128,,102,102,8,9,4,5,0.4,0.5
2024-09-14T1700,2299A,118.3244,32.2786,滁州市,人大宾馆,,43,43,43,25,30,136,,112,112,2,12,6,6,0.6,0.6
2024-09-14T1700,3207A,118.3118,32.3038,滁州市,市政府原办公楼,,42,31,30,29,28,127,,102,102,8,10,6,6,0.6,0.6
2024-09-14T1700,3331A,118.3267,32.2634,滁州市,图书馆,,44,44,38,22,29,132,,109,109,6,9,4,5,0.5,0.6
2024-09-14T1700,2605A,101.5482,25.0441,楚雄彝族自治州,州环境监测站,,21,17,22,7,14,66,,60,60,5,15,7,10,0.5,0.6
2024-09-14T1700,2606A,101.538,25.0492,楚雄彝族自治州,市经济开发区,,20,,21,11,14,63,,58,58,4,13,5,9,0.5,0.6
2024-09-14T1700,2548A,107.5277,31.2827,达州市,达州职业技术学院,,36,24,40,7,19,115,,105,105,9,31,5,7,0.5,0.5
2024-09-14T1700,2549A,107.5086,31.2186,达州市,市环境监测站,,46,46,39,9,18,110,,106,106,29,34,7,9,0.4,0.6
2024-09-14T1700,2550A,107.4988,31.2132,达州市,凤凰小区,,39,19,33,7,20,123,,117,117,13,27,6,9,0.4,0.5
2024-09-14T1700,2551A,107.5082,31.1986,达州市,达县机关宾馆,,36,17,38,6,19,113,,110,110,18,43,4,7,0.3,0.5
2024-09-14T1700,2552A,107.4644,31.2124,达州市,市政中心,,40,25,40,7,20,126,,119,119,12,32,7,8,0.6,0.5
2024-09-14T1700,2614A,100.1542,25.7054,大理白族自治州,大理市环境监测站,,34,34,21,11,10,66,,56,56,12,9,4,4,0.5,0.5
2024-09-14T1700,2615A,100.2171,25.5811,大理白族自治州,大理古城,,27,15,22,6,12,85,,76,76,4,10,8,7,0.4,0.5
2024-09-14T1700,1109A,121.612,38.9741,大连市,甘井子,,27,26,38,3,9,84,,70,70,19,22,7,9,0.3,0.5
2024-09-14T1700,1110A,121.565,38.9511,大连市,周水子,,26,26,32,6,9,74,,62,62,17,20,7,8,0.5,0.6
2024-09-14T1700,1111A,121.5637,38.8845,大连市,星海三站,,27,24,35,6,8,84,,72,72,6,9,5,6,0.4,0.5
2024-09-14T1700,1112A,121.6302,38.9117,大连市,青泥洼桥,,24,20,39,3,9,76,,65,65,14,20,9,11,0.4,0.6
2024-09-14T1700,1113A,121.6251,38.8638,大连市,傅家庄,,24,23,34,6,9,75,,68,68,13,15,6,8,0.4,0.5
2024-09-14T1700,1114A,121.5213,38.8661,大连市,七贤岭,,29,28,37,7,9,90,,76,76,10,11,7,8,0.4,0.5
2024-09-14T1700,1116A,121.7485,39.1311,大连市,金州,,25,23,31,7,11,80,,68,68,11,16,7,10,0.6,0.7
2024-09-14T1700,1117A,121.7811,39.0496,大连市,开发区,,32,32,46,8,13,77,,68,68,10,15,7,10,0.3,0.5
2024-09-14T1700,1118A,121.9762,39.0631,大连市,双D港,,33,33,50,13,14,79,,73,73,16,21,7,9,0.7,0.8
2024-09-14T1700,1789A,124.81117,46.03138,大庆市,大同区,,32,32,22,10,11,57,,55,55,9,8,3,3,0.4,0.3
2024-09-14T1700,1790A,125.129,46.533,大庆市,龙凤区,,42,42,38,20,15,66,,59,59,10,19,4,3,0.6,0.5
2024-09-14T1700,1791A,124.902,46.408,大庆市,红岗区,,23,23,22,10,10,68,,59,59,9,12,6,5,0.3,0.3
2024-09-14T1700,1792A,125.153,46.586,大庆市,萨尔图区,,26,26,26,8,8,60,,54,54,13,18,5,5,0.3,0.3
2024-09-14T1700,1793A,124.9042,46.6215,大庆市,让胡路区,,20,18,18,10,12,61,,57,57,12,12,4,4,0.3,0.3
2024-09-14T1700,3481A,125.141,46.634,大庆市,萨区政府监测点,,21,20,18,10,8,67,,57,57,7,19,6,6,0.4,0.4
2024-09-14T1700,1723A,113.2994,40.0758,大同市,云冈宾馆,,21,14,10,3,6,65,,71,71,13,10,7,7,0.7,0.6
2024-09-14T1700,1724A,113.3444,40.0917,大同市,大同大学,,19,11,10,3,6,58,,68,68,14,10,11,10,0.3,0.3
2024-09-14T1700,1725A,113.2661,40.1269,大同市,安家小村,,,,8,3,5,,,72,72,,7,,10,0.3,0.3
2024-09-14T1700,1726A,113.2711,40.0844,大同市,教育学院,,23,23,13,8,5,59,,66,66,13,8,7,6,0.5,0.4
2024-09-14T1700,3282A,113.3397,40.0597,大同市,大同市卫生学校,,20,18,13,3,6,63,,67,67,13,10,8,7,0.4,0.4
2024-09-14T1700,3565A,113.1367,40.1122,大同市,云冈站,,17,12,17,3,4,53,,66,66,24,9,9,8,0.3,0.4
2024-09-14T1700,3566A,113.1186,40.2556,大同市,图书馆,,20,19,13,8,6,61,,65,65,12,10,10,9,0.5,0.6
2024-09-14T1700,3567A,113.5931,40.0461,大同市,区一中,,24,19,12,3,5,74,,65,65,9,10,8,7,0.4,0.5
2024-09-14T1700,3676A,113.2802,40.0995,大同市,第二人民医院,,21,11,10,8,5,66,,71,71,12,8,10,10,0.4,0.4
2024-09-14T1700,2269A,124.1069,50.4097,大兴安岭地区,科技局,,22,12,13,12,13,68,,60,60,2,5,5,5,0.2,0.2
2024-09-14T1700,3663A,124.1164,50.4278,大兴安岭地区,红旗社区,,19,6,18,3,7,59,,54,54,7,11,2,2,0.2,0.3
2024-09-14T1700,1600A,124.3303,40.0625,丹东市,江湾东路,,20,20,29,3,12,58,,55,55,10,16,6,6,0.5,0.8
2024-09-14T1700,1601A,124.4256,40.1503,丹东市,临江后街,,22,19,30,6,12,68,,64,64,9,16,6,8,0.5,0.7
2024-09-14T1700,1602A,124.3933,40.1461,丹东市,元宝山,,19,19,24,9,12,60,,53,53,15,21,3,4,0.4,0.7
2024-09-14T1700,1603A,124.3633,40.1092,丹东市,民主桥,,28,28,30,3,10,57,,53,53,12,15,4,6,0.6,0.8
2024-09-14T1700,3541A,109.5726,19.5167,儋州市,第一中学子站,,21,14,16,8,9,65,,54,54,2,4,4,4,0.4,0.5
2024-09-14T1700,3542A,109.5567,19.5187,儋州市,东坡学校子站,,21,,17,14,11,65,,56,56,3,5,5,5,0.4,0.5
2024-09-14T1700,2616A,98.5842,24.428,德宏傣族景颇族自治州,德宏州监测站,,18,18,24,6,10,44,,33,33,6,10,6,10,0.6,0.7
2024-09-14T1700,3677A,98.5881,24.4368,德宏傣族景颇族自治州,芒市人民政府综合楼,,18,18,19,3,8,50,,40,40,6,8,5,6,0.7,0.7
2024-09-14T1700,1901A,104.4239,31.1208,德阳市,东山公园,,42,17,25,9,15,132,,111,111,16,18,3,4,0.5,0.5
2024-09-14T1700,1902A,104.3826,31.1317,德阳市,西小区,,42,17,33,9,20,133,,103,103,9,16,3,12,0.4,0.6
2024-09-14T1700,1904A,104.3553,31.1091,德阳市,耐火材料厂,,40,15,36,8,24,128,,104,104,4,13,3,18,0.4,0.6
2024-09-14T1700,3639A,104.4019,31.1244,德阳市,市教育局,,42,19,31,8,16,134,,108,108,10,14,2,5,0.5,0.5
2024-09-14T1700,1622A,116.3032,37.4674,德州市,儿童乐园,,36,36,35,9,16,76,,72,67,11,11,9,9,0.5,0.6
2024-09-14T1700,1624A,116.2991,37.4451,德州市,监理站,,29,29,29,7,15,80,,76,70,9,8,10,10,0.6,0.7
2024-09-14T1700,3066A,116.2721,37.4379,德州市,九衢泉纯净水厂,,31,31,33,3,16,80,,75,70,11,12,8,9,0.6,0.8
2024-09-14T1700,3371A,116.3728,37.4403,德州市,开发区人民医院,,31,31,30,7,12,79,,71,68,10,12,8,7,0.4,0.5
2024-09-14T1700,3372A,116.3572,37.4094,德州市,太阳城中学,,31,31,27,7,12,78,,77,70,16,15,10,10,0.4,0.6
2024-09-14T1700,3511A,116.5652,37.3319,德州市,陵城艺术中心,,31,31,27,7,8,80,,77,77,13,12,13,10,0.5,0.6
2024-09-14T1700,2621A,99.7056,27.8317,迪庆藏族自治州,迪庆州站,,19,15,18,10,11,60,,61,61,8,9,7,7,0.4,0.4
2024-09-14T1700,3180A,99.7136,27.8094,迪庆藏族自治州,质量技术监督局,,22,22,17,8,9,62,,61,61,8,9,8,8,0.4,0.4
2024-09-14T1700,2663A,104.6241,35.5734,定西市,东关小学,,28,27,29,19,18,58,,66,66,8,15,5,5,0.3,0.3
2024-09-14T1700,2664A,104.6194,35.5934,定西市,供电公司,,30,30,27,20,19,52,,63,63,13,14,7,6,0.2,0.2
2024-09-14T1700,1389A,113.7547,23.0494,东莞市,莞城梨川,,26,22,36,17,23,83,,87,87,24,28,5,5,0.7,0.7
2024-09-14T1700,1390A,113.7944,23.0128,东莞市,东城石井,,28,21,35,14,21,87,,94,94,16,25,4,4,0.6,0.6
2024-09-14T1700,1391A,113.7383,22.9658,东莞市,南城西平,,28,22,39,12,21,88,,95,95,14,36,5,3,0.8,0.8
2024-09-14T1700,3319A,113.7338,23.0381,东莞市,万江金泰,,30,23,36,16,22,93,,97,97,27,29,10,10,0.7,0.7
2024-09-14T1700,3626A,113.7533,23.0202,东莞市,南城元岭,,26,21,35,15,21,82,,98,98,21,27,7,8,0.7,0.7
2024-09-14T1700,3627A,113.7875,23.0457,东莞市,东城主山,,30,19,36,14,23,95,,103,103,18,28,8,8,0.7,0.6
2024-09-14T1700,1666A,118.6614,37.4309,东营市,市环保局,,33,24,28,7,4,105,,92,90,9,10,2,4,0.1,0.1
2024-09-14T1700,3036A,118.6904,37.4338,东营市,开发区管委会,,31,27,33,9,7,99,,88,87,6,7,1,2,0.0,0.1
2024-09-14T1700,3365A,118.5719,37.565,东营市,垦利区民丰路,,25,19,28,7,6,80,,74,74,4,5,2,4,0.3,0.5
2024-09-14T1700,3498A,118.5055,37.8612,东营市,河口城区,,24,22,29,10,9,76,,75,75,8,9,5,7,0.5,0.5
2024-09-14T1700,3646A,118.4978,37.4623,东营市,胜利站,,30,29,25,9,6,93,,79,79,7,7,5,5,0.5,0.5
2024-09-14T1700,3734A,118.35,37.26,东营市,理想之城,,28,22,26,9,10,88,,74,74,8,9,4,4,0.2,0.2
2024-09-14T1700,1591A,110.0023,39.8129,鄂尔多斯市,综合楼,,29,29,19,3,3,63,,62,62,17,14,8,9,0.5,0.4
2024-09-14T1700,1592A,109.9486,39.8261,鄂尔多斯市,巴音孟克林场办事处,,29,29,20,7,5,61,,62,62,15,14,6,6,0.4,0.4
2024-09-14T1700,1593A,109.7736,39.5986,鄂尔多斯市,康泽苑,,29,29,16,3,4,50,,57,52,21,11,7,8,0.4,0.4
2024-09-14T1700,1594A,109.8119,39.5989,鄂尔多斯市,华泰汽车城,,27,27,16,7,7,51,,53,53,18,11,7,7,0.4,0.4
2024-09-14T1700,1595A,109.9734,39.7884,鄂尔多斯市,奥林花园,,34,34,24,7,6,56,,55,55,18,17,4,4,0.6,0.6
2024-09-14T1700,2436A,114.8938,30.3994,鄂州市,市政府,臭氧1小时,58,29,41,18,20,166,,122,122,17,21,10,11,1.0,1
2024-09-14T1700,2437A,114.8989,30.3714,鄂州市,赵家坝,臭氧1小时,70,31,51,19,22,176,,134,134,12,20,12,11,1.2,0.9
2024-09-14T1700,3654A,114.8094,30.4089,鄂州市,精准医疗中心,臭氧1小时,74,33,41,12,21,179,,133,133,11,18,5,6,0.8,0.8
2024-09-14T1700,2454A,109.4978,30.2981,恩施土家族苗族自治州,湖北民院,,32,16,23,16,18,100,,90,90,2,14,9,9,0.8,0.8
2024-09-14T1700,2455A,109.4707,30.2798,恩施土家族苗族自治州,州电力总公司,,29,,23,7,17,92,,82,82,14,22,8,9,0.6,0.7
2024-09-14T1700,3549A,109.5061,30.3772,恩施土家族苗族自治州,龙凤新区,,33,13,24,7,18,105,,82,82,10,15,7,7,0.8,0.9
2024-09-14T1700,2499A,108.3411,21.6158,防城港市,沙万,,48,36,40,33,27,112,,106,106,13,17,7,9,0.7,0.8
2024-09-14T1700,2500A,108.3514,21.7731,防城港市,防城档案局,,48,42,59,33,31,104,,100,100,7,18,8,8,0.7,0.7
2024-09-14T1700,2501A,108.3506,21.6414,防城港市,大海花园,,42,41,40,29,25,116,,107,107,4,12,6,6,0.7,0.8
2024-09-14T1700,1371A,113.1294,23.0067,佛山市,湾梁,,27,27,34,18,24,71,,86,86,38,35,6,7,0.8,0.8
2024-09-14T1700,1372A,113.1083,23.0478,佛山市,华材职中,,40,34,42,28,30,60,,90,90,60,52,7,7,0.4,0.5
2024-09-14T1700,1373A,113.144,23.0453,佛山市,南海气象局,,29,21,37,20,27,58,,76,76,16,30,6,7,0.6,0.7
2024-09-14T1700,1374A,113.2881,22.8094,佛山市,顺德苏岗,,35,27,32,24,24,75,,75,75,31,26,8,8,0.7,0.7
2024-09-14T1700,1376A,112.8383,22.8678,佛山市,高明孔堂,,38,38,42,22,28,75,,104,104,18,19,4,6,0.4,0.5
2024-09-14T1700,1377A,112.8836,23.1588,佛山市,三水监测站,,30,,28,18,22,96,,111,111,26,29,6,7,0.5,0.5
2024-09-14T1700,1378A,112.867,23.185,佛山市,三水云东海,,30,29,29,16,25,93,,110,110,24,28,8,9,0.6,0.6
2024-09-14T1700,3625A,113.2544,22.7642,佛山市,容桂街道办,,32,24,30,22,26,80,,66,66,36,33,11,8,0.7,0.7
2024-09-14T1700,1282A,119.2681,26.0504,福州市,师大,,23,23,22,7,6,41,,36,36,10,10,4,4,0.3,0.3
2024-09-14T1700,1283A,119.2984,26.1028,福州市,五四北路,,,,,5,5,41,,42,42,9,9,3,4,0.4,0.5
2024-09-14T1700,1284A,119.2648,26.0768,福州市,杨桥西路,,18,18,22,6,5,38,,38,38,13,11,3,4,0.3,0.4
2024-09-14T1700,3048A,119.5799,26.0936,福州市,九龙,,14,14,15,3,3,32,,31,31,9,6,6,7,0.4,0.4
2024-09-14T1700,3526A,119.5189,25.9664,福州市,吴航,,16,16,15,10,7,39,,34,34,4,5,7,6,0.4,0.4
2024-09-14T1700,1755A,123.7977,41.8491,抚顺市,望花区,,18,,20,11,11,55,,42,37,13,11,6,9,0.3,0.4
2024-09-14T1700,1756A,123.9161,41.8822,抚顺市,顺城区,,20,20,22,9,9,54,,42,36,12,12,6,6,0.4,0.4
2024-09-14T1700,1757A,124.0436,41.8611,抚顺市,东洲区,,23,23,24,13,13,43,,45,34,12,12,7,10,0.4,0.4
2024-09-14T1700,1758A,123.9247,41.8642,抚顺市,新抚区,,20,20,19,9,11,54,,46,36,16,15,8,8,0.2,0.2
2024-09-14T1700,1759A,124.0972,41.8961,抚顺市,大伙房水库,,15,15,21,8,7,46,,53,35,7,6,5,5,0.3,0.3
2024-09-14T1700,1760A,123.7086,41.8391,抚顺市,沈抚新城,,21,15,16,7,14,66,,45,45,11,13,6,7,0.1,0.1
2024-09-14T1700,2376A,116.2127,28.0814,抚州市,桐源党溪,,43,36,37,18,21,137,,119,119,2,3,5,5,0.8,0.9
2024-09-14T1700,2377A,116.3544,27.9831,抚州市,市站,,38,38,34,25,22,118,,100,100,4,5,3,5,0.9,1
2024-09-14T1700,2378A,116.3565,27.963,抚州市,血防站,,39,39,36,22,21,120,,102,102,7,8,3,5,1.2,1.2
2024-09-14T1700,2379A,116.3564,28.0007,抚州市,采茶剧团,,38,38,34,21,22,117,,98,98,3,5,4,6,0.9,1
2024-09-14T1700,2380A,116.385,27.9647,抚州市,医学分院,,37,34,34,22,21,117,,100,100,5,6,4,4,1.0,1.2
2024-09-14T1700,2207A,121.6094,41.998,阜新市,工业园区,,19,11,14,3,4,58,,55,55,12,10,6,6,0.5,0.5
2024-09-14T1700,2208A,121.6697,42.0279,阜新市,长青街,,17,7,9,3,2,53,,52,52,8,6,4,5,0.4,0.4
2024-09-14T1700,2209A,121.6673,42.0705,阜新市,农业园区,,17,11,9,3,1,54,,53,53,8,8,4,4,0.4,0.4
2024-09-14T1700,2210A,121.6717,42.0224,阜新市,东苑,,19,11,15,3,9,59,,57,57,8,5,7,6,0.5,0.5
2024-09-14T1700,2211A,121.6506,42.0498,阜新市,玉龙新城,,19,8,15,8,4,60,,59,59,10,8,7,7,0.4,0.5
2024-09-14T1700,2301A,115.8277,32.8929,阜阳市,市监测站,,49,,32,34,26,98,,86,86,7,8,6,6,0.7,0.7
2024-09-14T1700,2303A,115.8554,32.8605,阜阳市,开发区,,43,43,38,25,24,116,,93,93,10,11,6,5,0.6,0.7
2024-09-14T1700,2875A,115.784,32.8892,阜阳市,阜阳职业技术学院,,35,35,31,20,23,103,,84,84,7,10,6,6,0.5,0.6
2024-09-14T1700,3468A,115.7901,32.8613,阜阳市,市规划展馆,,35,23,39,15,32,109,,87,87,9,12,5,5,0.7,0.8
2024-09-14T1700,3469A,115.836,32.9183,阜阳市,枣园社区,,31,31,38,14,29,96,,81,81,7,8,6,6,0.6,0.6
2024-09-14T1700,2669A,102.9099,34.9841,甘南藏族自治州,州政府,,24,9,12,8,10,75,,67,67,2,6,11,10,0.2,0.3
2024-09-14T1700,3380A,102.8914,34.9617,甘南藏族自治州,甘肃民族师范学院,,25,,6,8,6,77,,62,62,1,5,4,4,0.3,0.3
2024-09-14T1700,2570A,101.9603,30.0475,甘孜藏族自治州,水桥子,,27,9,8,6,4,86,,74,74,2,19,5,5,0.3,0.3
2024-09-14T1700,3065A,101.9533,29.9972,甘孜藏族自治州,州环保局,,27,11,12,3,5,85,,77,77,7,22,3,3,0.2,0.2
2024-09-14T1700,3414A,115.8347,28.932,赣江新区,桑海产业园,,44,36,36,21,21,139,,122,122,8,10,12,13,0.8,0.8
2024-09-14T1700,2363A,114.9367,25.8664,赣州市,地委,,36,28,36,25,30,77,,94,93,8,8,21,16,1.1,1.2
2024-09-14T1700,2364A,114.9461,25.8481,赣州市,气象台,,33,27,41,23,28,74,,96,96,15,7,4,8,0.9,1
2024-09-14T1700,2365A,114.9322,25.8333,赣州市,市图书馆,,31,22,40,13,26,98,,109,109,5,6,4,4,1.0,1.1
2024-09-14T1700,2366A,114.8905,25.8471,赣州市,华坚鞋城,,39,39,44,23,30,65,,90,88,16,8,2,2,0.5,0.6
2024-09-14T1700,3109A,115.0093,25.8613,赣州市,赣县区卫计委,,29,,34,20,25,76,,93,93,9,12,6,7,0.6,0.8
2024-09-14T1700,2683A,106.2319,36.1417,固原市,马园,,36,36,40,3,7,76,,80,80,16,28,6,6,0.7,0.7
2024-09-14T1700,2684A,106.2792,36.0022,固原市,监测站,,28,23,24,15,12,87,,86,86,10,20,2,5,0.5,0.5
2024-09-14T1700,2685A,106.2375,36.0211,固原市,新区,,28,28,27,12,11,77,,79,79,15,21,7,8,0.5,0.3
2024-09-14T1700,3522A,106.2177,35.9959,固原市,原州区十五小,,34,34,27,16,11,87,,88,88,10,14,8,8,0.5,0.5
2024-09-14T1700,2544A,106.6303,30.4576,广安市,市委,臭氧1小时,54,30,37,24,28,163,,168,168,9,15,4,2,0.4,0.5
2024-09-14T1700,2545A,106.6271,30.4663,广安市,友谊中学,,48,35,36,23,26,152,,163,163,20,19,4,4,0.5,0.5
2024-09-14T1700,2547A,106.6388,30.4551,广安市,广电花园,,50,32,38,25,27,158,,164,164,10,16,4,3,0.4,0.5
2024-09-14T1700,2902A,106.6351,30.4865,广安市,北辰小学,臭氧1小时,78,39,45,28,26,182,,170,170,11,15,8,7,0.4,0.4
2024-09-14T1700,2523A,105.8945,32.4535,广元市,黑石坡,,35,14,17,8,14,112,,73,73,7,5,13,9,0.6,0.4
2024-09-14T1700,2524A,105.821,32.4444,广元市,老城,,34,13,16,8,8,107,,84,84,7,9,8,3,0.7,0.6
2024-09-14T1700,2526A,105.8628,32.4287,广元市,监测站,,43,43,17,25,12,109,,88,88,14,10,18,6,0.9,0.7
2024-09-14T1700,3617A,105.8047,32.4166,广元市,经开区,,31,27,20,11,9,97,,83,83,7,11,17,7,0.8,0.6
2024-09-14T1700,1345A,113.2347,23.1423,广州市,广雅中学,,32,30,39,22,26,74,,90,90,52,43,5,6,0.8,0.8
2024-09-14T1700,1346A,113.2612,23.105,广州市,市五中,,35,28,39,24,33,106,,93,93,20,24,3,4,0.7,0.8
2024-09-14T1700,1348A,113.3478,23.0916,广州市,广东商学院,,27,25,41,18,31,84,,84,84,35,46,4,5,0.8,0.8
2024-09-14T1700,1349A,113.4332,23.1047,广州市,市八十六中,,31,20,46,13,28,97,,74,74,28,61,3,4,0.6,0.7
2024-09-14T1700,1350A,113.3505,22.9483,广州市,番禺中学,,38,22,33,15,22,121,,98,98,14,28,5,5,0.7,0.8
2024-09-14T1700,1351A,113.2146,23.3916,广州市,花都师范,,26,14,30,10,18,82,,100,100,13,17,3,4,0.5,0.7
2024-09-14T1700,1352A,113.2597,23.1331,广州市,市监测站,,30,27,38,21,26,79,,87,87,42,41,4,5,0.8,0.8
2024-09-14T1700,1353A,113.5618,23.312,广州市,九龙镇镇龙,,26,23,32,18,22,64,,75,75,30,19,6,6,0.6,0.7
2024-09-14T1700,1354A,113.2765,23.1544,广州市,麓湖,,30,28,40,21,27,63,,89,89,26,36,4,5,0.7,0.8
2024-09-14T1700,1355A,113.443,23.3035,广州市,帽峰山森林公园,,27,15,24,12,18,86,,96,96,12,12,5,5,0.6,0.6
2024-09-14T1700,2846A,113.3221,23.1322,广州市,体育西,,31,27,43,20,28,98,,90,90,20,35,4,5,0.7,0.7
2024-09-14T1700,3298A,113.5717,23.5491,广州市,从化街口,,18,15,31,9,20,56,,71,71,8,15,8,7,0.5,0.7
2024-09-14T1700,3299A,113.3472,23.3692,广州市,白云竹料,,31,31,37,20,24,85,,95,95,22,23,4,5,0.7,0.7
2024-09-14T1700,3300A,113.2981,23.237,广州市,白云嘉禾,,33,33,43,22,25,78,,96,96,42,43,4,5,0.9,0.9
2024-09-14T1700,3301A,113.4256,23.1716,广州市,黄埔科学城,,25,18,39,11,27,77,,102,102,23,36,4,5,0.9,0.9
2024-09-14T1700,3302A,113.3942,23.0483,广州市,番禺大学城,,27,19,39,15,25,84,,85,85,30,39,8,8,0.7,0.7
2024-09-14T1700,3303A,113.4922,22.8168,广州市,南沙黄阁,,36,30,33,25,26,105,,93,93,36,34,4,5,0.8,0.7
2024-09-14T1700,3304A,113.5342,22.7896,广州市,南沙街,,39,39,34,21,25,76,,90,90,41,31,5,5,0.8,0.7
2024-09-14T1700,3443A,113.2902,23.5544,广州市,花都梯面,,27,23,34,17,23,84,,85,85,17,15,5,6,0.6,0.6
2024-09-14T1700,3445A,113.7858,23.7478,广州市,从化良口,,18,16,23,12,15,47,,51,51,4,7,6,6,0.7,0.8
2024-09-14T1700,3446A,113.8051,23.2614,广州市,增城荔城,,39,39,32,26,22,96,,75,75,25,16,6,5,0.6,0.6
2024-09-14T1700,2506A,109.6047,23.0666,贵港市,江南子站,,36,,69,23,38,114,,109,109,6,26,8,10,0.6,1
2024-09-14T1700,2507A,109.6014,23.0948,贵港市,贵城子站,,43,42,60,30,39,116,,106,106,10,25,7,8,0.9,1
2024-09-14T1700,2508A,109.5669,23.1065,贵港市,荷城子站,,39,34,45,14,24,122,,105,105,8,20,11,10,0.7,0.7
2024-09-14T1700,3405A,109.5886,23.1172,贵港市,新世纪学校,,39,36,38,27,23,114,,108,108,10,13,8,7,0.9,0.8
2024-09-14T1700,1439A,106.6899,26.5998,贵阳市,马鞍山,,48,17,23,9,10,152,,119,119,9,13,4,4,0.3,0.4
2024-09-14T1700,1440A,106.6971,26.5694,贵阳市,市环保站,,49,31,33,19,23,155,,122,122,10,18,3,4,0.6,0.6
2024-09-14T1700,1441A,106.6243,26.6266,贵阳市,鉴湖路,,42,29,29,14,16,132,,97,97,9,15,4,6,0.3,0.4
2024-09-14T1700,1442A,106.7487,26.6343,贵阳市,燕子冲,,43,,19,17,20,137,,121,121,7,12,6,5,0.4,0.5
2024-09-14T1700,1443A,106.6555,26.4365,贵阳市,碧云窝,,37,22,32,14,17,118,,102,102,5,11,5,6,0.3,0.4
2024-09-14T1700,1444A,106.694,26.5161,贵阳市,中院村,,41,27,40,12,22,130,,105,105,10,27,5,7,0.5,0.6
2024-09-14T1700,1445A,106.7109,26.6027,贵阳市,红边门,,47,34,35,27,27,149,,121,121,17,21,3,5,0.3,0.5
2024-09-14T1700,1446A,106.7164,26.5699,贵阳市,新华路,,48,24,27,19,20,152,,125,125,11,22,3,4,0.6,0.5
2024-09-14T1700,1447A,106.674,26.5424,贵阳市,太慈桥,,45,31,31,7,15,143,,113,113,9,18,3,4,0.3,0.4
2024-09-14T1700,1862A,110.4144,25.3167,桂林市,电子科大尧山校区,颗粒物(PM10),54,57,33,22,25,102,,93,93,5,6,4,5,0.6,0.7
2024-09-14T1700,1863A,110.2819,25.2697,桂林市,监测站,,38,32,33,26,24,94,,90,90,7,8,9,12,0.5,0.6
2024-09-14T1700,1864A,110.3089,25.2708,桂林市,龙隐路小学,,40,40,33,21,23,100,,92,92,3,6,8,19,0.5,0.6
2024-09-14T1700,1865A,110.2869,25.2178,桂林市,八中,,30,23,33,21,23,96,,92,92,5,6,8,14,0.4,0.5
2024-09-14T1700,3403A,110.1764,25.2381,桂林市,创业大厦,,32,24,32,22,27,90,,79,79,6,8,9,10,0.4,0.4
2024-09-14T1700,3531A,110.296,25.1253,桂林市,旅游学院,,31,14,24,12,21,97,,93,93,4,6,6,8,0.4,0.4
2024-09-14T1700,2674A,100.2561,34.4714,果洛藏族自治州,玛沁县大武镇,,22,19,11,3,9,68,,72,72,5,3,9,11,0.4,0.5
2024-09-14T1700,1129A,126.5422,45.755,哈尔滨市,岭北,,29,10,18,3,7,90,,75,75,6,19,4,5,0.3,0.4
2024-09-14T1700,1130A,126.561,45.8167,哈尔滨市,松北商大,,26,26,22,3,6,65,,51,51,11,23,8,8,0.3,0.4
2024-09-14T1700,1131A,126.979,45.5419,哈尔滨市,阿城会宁,,30,30,22,3,4,54,,42,42,17,20,10,10,0.5,0.5
2024-09-14T1700,1132A,126.599,45.7222,哈尔滨市,南岗学府路,,23,20,27,3,5,71,,57,57,10,19,6,5,0.5,0.5
2024-09-14T1700,1133A,126.689,45.7733,哈尔滨市,太平宏伟公园,,21,19,23,10,9,66,,50,50,12,19,7,7,0.5,0.4
2024-09-14T1700,1134A,126.635,45.7667,哈尔滨市,道外承德广场,,24,24,22,8,4,66,,52,52,13,20,4,4,0.4,0.4
2024-09-14T1700,1135A,126.685,45.7319,哈尔滨市,香坊红旗大街,,24,24,31,3,6,73,,59,59,10,20,7,6,0.4,0.3
2024-09-14T1700,1136A,126.6411,45.7258,哈尔滨市,动力和平路,,22,20,22,3,3,68,,56,56,12,20,7,7,0.5,0.5
2024-09-14T1700,1137A,126.593,45.7478,哈尔滨市,道里建国路,,21,16,22,7,5,67,,52,52,8,15,7,8,0.2,0.3
2024-09-14T1700,1138A,126.615,45.61,哈尔滨市,平房东轻厂,,20,17,43,7,8,64,,49,49,15,34,5,6,0.5,0.5
2024-09-14T1700,1139A,126.595,45.9855,哈尔滨市,呼兰师专,,20,18,16,9,5,63,,50,50,10,13,8,8,0.3,0.4
2024-09-14T1700,1140A,126.6206,45.6842,哈尔滨市,省农科院,颗粒物(PM10),76,101,40,10,7,56,,48,48,23,24,8,7,0.4,0.5
2024-09-14T1700,2688A,93.5128,42.8172,哈密市,地区监测站,,44,44,56,14,17,116,,90,90,2,30,9,5,0.1,0.4
2024-09-14T1700,2689A,93.4961,42.8328,哈密市,哈密师范学校,,37,19,53,14,18,117,,89,89,3,32,4,4,0.3,0.6
2024-09-14T1700,2671A,100.9048,36.9639,海北藏族自治州,海晏县西海镇,,27,13,11,11,11,84,,87,82,7,7,13,13,0.5,0.5
2024-09-14T1700,3867A,102.0738,36.5056,海东市,平安区公安北苑,,32,27,29,16,17,101,,88,88,10,15,9,16,0.4,0.4
2024-09-14T1700,1410A,110.3232,20.0574,海口市,海南大学,,,9,12,3,7,46,,50,50,5,9,6,6,,0.4
2024-09-14T1700,1411A,110.283,20.0053,海口市,秀英海南医院,,15,15,22,6,11,46,,54,54,8,14,4,4,0.2,0.3
2024-09-14T1700,1412A,110.338,19.9969,海口市,海南师范大学,,17,11,17,6,10,53,,62,62,6,8,5,5,0.3,0.4
2024-09-14T1700,1413A,110.33,20.0356,海口市,龙华路环保局宿舍,,16,13,16,7,9,50,,52,52,5,8,3,3,0.2,0.3
2024-09-14T1700,3539A,110.5111,19.9736,海口市,桂林洋子站,,19,11,21,8,16,60,,60,60,7,10,5,5,0.2,0.3
2024-09-14T1700,2673A,100.6188,36.2866,海南藏族自治州,共和县恰卜恰镇,,28,16,19,8,7,89,,75,75,9,7,18,17,0.6,0.6
2024-09-14T1700,2676A,97.3731,37.3753,海西蒙古族藏族自治州,德令哈市,,37,37,18,7,10,82,,89,72,7,9,8,8,0.8,0.4
2024-09-14T1700,1048A,114.5302,36.6116,邯郸市,东污水处理厂,,35,35,42,14,20,86,,90,90,17,18,3,4,0.5,0.6
2024-09-14T1700,1049A,114.4918,36.5713,邯郸市,矿院,,38,38,41,22,21,97,,100,100,12,16,2,3,0.4,0.4
2024-09-14T1700,1050A,114.484,36.6133,邯郸市,丛台公园,,42,42,49,21,22,97,,95,95,13,21,2,2,0.4,0.5
2024-09-14T1700,3458A,114.7895,36.5593,邯郸市,香泉濮院小区,,50,50,41,12,16,72,,96,96,12,14,1,2,0.3,0.4
2024-09-14T1700,3579A,114.50634,36.77178,邯郸市,永年区实验高中,,46,46,53,15,27,111,,105,105,16,31,2,3,0.6,0.6
2024-09-14T1700,3580A,114.20016,36.44293,邯郸市,峰峰矿区临水派出所,,35,20,35,13,16,111,,118,117,8,15,2,5,0.6,0.6
2024-09-14T1700,2634A,106.9893,33.1842,汉中市,汉川机床厂子校,,33,28,20,15,11,105,,94,94,3,6,4,5,0.5,0.6
2024-09-14T1700,2635A,107.0154,33.0706,汉中市,市监测站,,40,28,24,9,14,127,,99,99,4,9,8,11,0.5,0.5
2024-09-14T1700,2636A,107.0089,33.1138,汉中市,鑫源开发区,,40,30,25,13,12,125,,106,106,4,10,9,12,0.5,0.6
2024-09-14T1700,2637A,107.007,33.0323,汉中市,南郑大河坎水厂,,34,25,22,15,14,108,,82,82,4,8,8,10,0.5,0.5
2024-09-14T1700,1223A,120.2072,30.2111,杭州市,滨江,,32,22,29,11,12,102,,88,88,10,20,5,6,0.5,0.5
2024-09-14T1700,1224A,120.0633,30.2747,杭州市,西溪,,30,23,24,16,13,96,,84,84,12,20,6,5,0.5,0.6
2024-09-14T1700,1226A,120.3461,30.3153,杭州市,下沙,,31,26,27,14,11,99,,90,90,20,26,8,8,0.5,0.6
2024-09-14T1700,1227A,120.1269,30.2456,杭州市,卧龙桥,,34,22,22,11,12,107,,95,95,13,17,6,6,0.5,0.6
2024-09-14T1700,1228A,120.1903,30.2692,杭州市,浙江农大,,30,22,23,11,14,93,,81,81,22,23,8,9,0.5,0.5
2024-09-14T1700,1230A,120.1197,30.3119,杭州市,和睦小学,,35,20,22,13,11,111,,93,93,10,20,6,7,0.4,0.5
2024-09-14T1700,1231A,120.3019,30.4183,杭州市,临平镇,,37,25,16,3,21,116,,96,96,10,15,5,6,0.8,0.9
2024-09-14T1700,1232A,120.2697,30.1819,杭州市,城厢镇,,32,28,34,9,17,100,,91,91,14,23,7,8,0.6,0.7
2024-09-14T1700,1233A,120.0883,30.1808,杭州市,云栖,,37,18,18,10,9,118,,98,98,11,18,7,7,0.5,0.6
2024-09-14T1700,3557A,119.9464,30.0494,杭州市,镇二中,,38,38,27,22,18,114,,102,102,22,20,8,9,0.6,0.6
2024-09-14T1700,3558A,119.7183,30.2367,杭州市,市府大楼,,43,23,21,19,16,136,,116,116,14,16,6,6,0.4,0.5
2024-09-14T1700,3656A,120.1556,30.2864,杭州市,消防大队,,34,24,27,10,13,107,,89,89,8,17,8,9,0.5,0.6
2024-09-14T1700,1270A,117.1959,31.7848,合肥市,明珠广场,,31,19,24,19,20,97,,81,81,11,12,5,5,0.6,0.6
2024-09-14T1700,1271A,117.3072,31.8764,合肥市,三里街,,33,31,31,22,19,105,,80,80,9,11,6,6,0.5,0.6
2024-09-14T1700,1272A,117.2588,31.8707,合肥市,琥珀山庄,,36,36,29,18,24,104,,85,85,8,8,6,6,0.8,0.8
2024-09-14T1700,1273A,117.1604,31.9052,合肥市,董铺水库,,30,29,27,17,18,95,,72,72,6,7,2,2,0.5,0.5
2024-09-14T1700,1274A,117.25,31.8571,合肥市,长江中路,,36,36,34,24,22,100,,79,79,8,8,8,7,0.9,0.9
2024-09-14T1700,1275A,117.266,31.9436,合肥市,庐阳区,,36,36,29,19,19,111,,84,84,8,7,5,4,0.7,0.7
2024-09-14T1700,1276A,117.336,31.8586,合肥市,瑶海区,,44,44,42,21,21,108,,88,88,15,17,5,5,0.7,0.7
2024-09-14T1700,1277A,117.3027,31.7964,合肥市,包河区,,33,31,30,19,39,105,,94,94,13,16,5,5,0.7,0.7
2024-09-14T1700,1278A,117.2776,31.7385,合肥市,滨湖新区,,39,39,29,19,20,104,,93,93,13,14,6,6,0.6,0.7
2024-09-14T1700,1279A,117.1318,31.8403,合肥市,高新区,,29,29,28,18,18,87,,73,73,8,8,7,7,0.8,0.9
2024-09-14T1700,3464A,117.3803,31.9147,合肥市,高教基地,,36,33,34,17,22,113,,90,90,9,11,3,3,0.7,0.6
2024-09-14T1700,3614A,79.924,37.0877,和田地区,地区环保局,颗粒物(PM10),141,232,284,62,76,107,,85,85,4,8,6,7,0.5,0.6
2024-09-14T1700,3615A,79.9131,37.113,和田地区,市环保局,颗粒物(PM10),144,238,275,51,75,105,,80,80,4,12,6,6,0.4,0.5
2024-09-14T1700,2516A,108.2011,24.715,河池市,东仁乐园,,49,49,42,19,24,18,,18,18,6,12,5,5,0.7,0.7
2024-09-14T1700,2517A,108.0497,24.6947,河池市,市环保站,,36,26,38,25,24,98,,92,92,7,14,8,11,0.6,0.6
2024-09-14T1700,2518A,108.0983,24.6989,河池市,市疾控中心,,37,37,41,22,25,98,,88,88,8,17,9,9,0.6,0.6
2024-09-14T1700,1696A,114.6778,23.7569,河源市,源西,,32,32,20,21,18,66,,69,69,6,11,4,6,0.6,0.6
2024-09-14T1700,1697A,114.6944,23.7586,河源市,东埔,,25,,19,17,13,66,,70,70,8,11,2,3,0.6,0.6
2024-09-14T1700,1698A,114.6892,23.7233,河源市,老城,,20,19,21,12,11,62,,69,69,6,8,2,4,0.7,0.7
2024-09-14T1700,1718A,115.4208,35.2464,菏泽市,气象局,,37,37,47,23,29,84,,73,73,10,11,2,4,0.3,0.4
2024-09-14T1700,1719A,115.4747,35.2375,菏泽市,市政协,,38,38,42,23,29,74,,66,66,12,12,4,4,0.3,0.4
2024-09-14T1700,3374A,115.5564,35.0891,菏泽市,定陶老年大学,,39,39,50,17,33,74,,61,61,13,16,3,4,0.5,0.6
2024-09-14T1700,3647A,115.4702,35.2706,菏泽市,菏泽医专,,33,33,39,16,28,75,,66,66,11,11,4,6,0.4,0.5
2024-09-14T1700,2514A,111.5264,24.4172,贺州市,环保小区,,31,29,36,19,23,99,,102,102,8,11,5,7,0.6,0.7
2024-09-14T1700,2515A,111.5608,24.4078,贺州市,政协大楼,,36,36,39,21,23,106,,108,108,11,13,6,7,0.6,0.6
2024-09-14T1700,3534A,111.4744,24.4553,贺州市,西湾,,29,24,38,14,24,92,,103,103,9,10,7,7,0.6,0.6
2024-09-14T1700,2385A,114.17,35.9019,鹤壁市,市监测站,颗粒物(PM10),52,53,52,22,26,126,,140,140,10,21,2,6,0.7,0.9
2024-09-14T1700,2386A,114.2956,35.7511,鹤壁市,市交警支队,,45,45,45,31,23,118,,134,134,16,23,2,8,0.7,0.7
2024-09-14T1700,2387A,114.2878,35.7306,鹤壁市,迎宾馆,颗粒物(PM10),54,57,49,30,26,119,,138,138,15,21,5,9,0.8,0.8
2024-09-14T1700,3474A,114.2617,35.6822,鹤壁市,大新区,颗粒物(PM10),52,53,46,25,23,122,,137,137,20,26,6,10,0.6,0.6
2024-09-14T1700,3596A,114.1572,35.9603,鹤壁市,南山宾馆,,46,46,48,20,27,124,,136,136,5,12,2,6,0.9,1.1
2024-09-14T1700,2244A,130.2537,47.3416,鹤岗市,哈啤分公司,,21,21,19,12,14,50,,48,48,10,6,14,14,0.4,0.4
2024-09-14T1700,2245A,130.2684,47.3086,鹤岗市,斯达机电,,22,21,22,15,16,51,,44,44,11,11,15,13,0.2,0.2
2024-09-14T1700,2246A,130.3114,47.3388,鹤岗市,东山纸板厂,,35,35,82,17,18,47,,45,45,13,17,16,16,0.7,0.8
2024-09-14T1700,2247A,130.1097,47.3382,鹤岗市,五号水库,,18,12,10,6,6,55,,54,54,5,5,16,16,0.2,0.2
2024-09-14T1700,2263A,127.4833,50.2524,黑河市,交通局,,19,17,17,6,10,60,,56,56,10,9,7,7,0.4,0.4
2024-09-14T1700,2264A,127.5144,50.2341,黑河市,环保局,,22,22,14,11,11,61,,59,59,11,10,4,6,0.3,0.4
2024-09-14T1700,2265A,127.5291,50.2472,黑河市,大黑河岛,,,7,16,3,8,65,,56,56,2,4,1,2,,0
2024-09-14T1700,1074A,115.6838,37.7541,衡水市,电机北厂,,41,41,42,15,24,71,,58,58,8,16,6,6,0.2,0.5
2024-09-14T1700,1075A,115.6303,37.7316,衡水市,市监测站,,46,46,48,18,19,74,,64,64,13,17,7,7,0.3,0.5
2024-09-14T1700,3188A,115.6683,37.7217,衡水市,市城管局,,45,45,44,17,21,71,,64,63,10,14,4,5,0.3,0.6
2024-09-14T1700,3459A,115.5989,37.5491,衡水市,地表水厂,,24,24,36,6,15,74,,73,73,8,15,6,5,0.2,0.5
2024-09-14T1700,2456A,112.5003,26.9167,衡阳市,原169医院,,34,34,34,22,20,107,,96,96,4,18,8,4,0.6,0.7
2024-09-14T1700,2457A,112.6194,26.9258,衡阳市,衡阳化工总厂,,,49,41,,,128,,100,100,7,12,9,12,0.9,0.9
2024-09-14T1700,2458A,112.6211,26.8956,衡阳市,珠晖区环保局,,,30,38,,,114,,101,101,9,16,7,8,0.8,0.9
2024-09-14T1700,2459A,112.6197,26.8733,衡阳市,市委党校,,48,48,39,16,27,122,,110,110,8,13,6,8,0.8,1
2024-09-14T1700,2460A,112.6006,26.8919,衡阳市,市监测站,,38,31,37,18,24,119,,105,105,6,12,6,8,0.7,0.9
2024-09-14T1700,2461A,112.5664,26.9056,衡阳市,真空机电公司,,36,35,35,19,19,114,,102,102,4,10,6,10,0.8,1
2024-09-14T1700,3399A,112.6703,26.882,衡阳市,师范学院,,42,33,36,29,20,126,,107,107,10,14,9,10,0.8,0.9
2024-09-14T1700,2608A,103.3772,23.3993,红河哈尼族彝族自治州,污水处理厂,,26,21,23,18,21,55,,68,68,9,10,7,31,0.4,0.5
2024-09-14T1700,2609A,103.3861,23.35,红河哈尼族彝族自治州,监测站,,26,26,22,15,11,59,,76,76,8,10,11,16,0.4,0.4
2024-09-14T1700,3038A,103.3758,23.368,红河哈尼族彝族自治州,州图书馆,,23,23,23,12,12,52,,69,69,10,9,5,25,0.4,0.4
2024-09-14T1700,1090A,111.6507,40.7517,呼和浩特市,呼市一监,,21,7,10,3,2,66,,67,67,6,5,4,4,0.4,0.4
2024-09-14T1700,1091A,111.6572,40.8033,呼和浩特市,小召,,21,9,6,3,2,66,,70,70,15,9,6,6,0.4,0.4
2024-09-14T1700,1094A,111.7516,40.8369,呼和浩特市,如意水处理厂,,19,8,4,3,1,58,,65,65,16,7,6,6,0.4,0.3
2024-09-14T1700,1095A,111.7276,40.8062,呼和浩特市,二十九中,,21,12,7,3,2,65,,68,68,16,9,4,4,0.6,0.5
2024-09-14T1700,1096A,111.5512,40.7866,呼和浩特市,工大金川校区,,16,11,9,3,2,50,,64,59,28,11,2,2,0.4,0.3
2024-09-14T1700,1097A,111.717,40.7612,呼和浩特市,化肥厂生活区,,23,12,6,3,2,71,,74,74,10,7,8,8,0.3,0.3
2024-09-14T1700,3698A,111.5968,40.8178,呼和浩特市,红旗小学,,20,14,6,3,2,62,,66,65,19,10,3,2,0.3,0.3
2024-09-14T1700,3699A,111.6518,40.8389,呼和浩特市,海东办,,21,9,3,3,2,65,,68,68,18,9,4,7,0.4,0.3
2024-09-14T1700,2192A,119.7594,49.2261,呼伦贝尔市,区环保局,颗粒物(PM10),86,121,34,9,13,56,,55,55,12,14,5,5,0.4,0.5
2024-09-14T1700,3061A,119.7512,49.1577,呼伦贝尔市,国华电力东,,20,14,26,3,12,64,,61,61,4,11,3,4,0.2,0.2
2024-09-14T1700,1250A,120.0751,30.8669,湖州市,城西水厂,,40,24,24,14,12,126,,88,88,22,17,5,5,0.3,0.3
2024-09-14T1700,2873A,120.0875,30.8955,湖州市,仁皇山新区,,47,23,25,16,14,150,,99,99,14,21,7,7,0.4,0.4
2024-09-14T1700,2907A,120.1844,30.8596,湖州市,吴兴区站,,46,22,24,14,13,145,,93,93,7,15,5,5,0.2,0.3
2024-09-14T1700,3562A,120.4148,30.8538,湖州市,南浔区站,,40,23,23,14,13,125,,88,88,9,16,6,6,0.4,0.5
2024-09-14T1700,1607A,120.9092,40.7136,葫芦岛市,龙港区,,22,19,24,9,8,68,,68,68,11,17,10,18,0.3,0.4
2024-09-14T1700,1608A,120.8392,40.7514,葫芦岛市,化工街,,21,6,20,3,3,66,,66,66,10,12,12,14,0.2,0.2
2024-09-14T1700,1609A,120.8341,40.7073,葫芦岛市,新区,,24,24,24,3,3,67,,67,67,14,17,12,14,0.2,0.2
2024-09-14T1700,1610A,120.8695,40.7677,葫芦岛市,东城区,,20,8,19,7,5,63,,63,63,8,10,8,10,0.2,0.2
2024-09-14T1700,2482A,109.5981,27.5721,怀化市,林科所,,23,13,17,3,10,72,,71,71,3,5,5,12,0.6,0.7
2024-09-14T1700,2483A,109.9453,27.5444,怀化市,河西地税局,,25,15,23,9,16,78,,78,78,7,12,5,7,0.6,0.7
2024-09-14T1700,2484A,109.9781,27.5342,怀化市,市四医院,,26,,21,9,15,83,,77,77,3,7,6,8,0.5,0.6
2024-09-14T1700,2485A,109.9972,27.5578,怀化市,监测楼,,26,19,26,6,15,82,,76,76,4,7,4,4,0.8,0.9
2024-09-14T1700,2486A,110.0394,27.583,怀化市,市委党校,,26,21,27,10,21,82,,77,77,4,9,8,12,0.7,0.8
2024-09-14T1700,1210A,119.036,33.5981,淮安市,钵池山,,31,,21,18,21,97,,89,89,10,14,8,7,0.8,0.7
2024-09-14T1700,1211A,119.007,33.575,淮安市,北京南路,,29,22,27,14,18,90,,79,79,11,18,6,7,0.8,0.9
2024-09-14T1700,1212A,118.989,33.6067,淮安市,市监测站,,31,24,28,17,22,99,,87,87,12,19,6,7,0.8,0.9
2024-09-14T1700,1213A,119.135,33.5039,淮安市,楚州区监测站,,37,37,45,14,24,99,,97,97,14,20,6,6,0.7,0.7
2024-09-14T1700,1214A,119.0186,33.6297,淮安市,淮阴区监测站,,30,22,30,17,22,93,,84,84,16,22,4,4,0.7,0.8
2024-09-14T1700,3426A,118.8755,33.2894,淮安市,新华书店,,37,12,34,8,23,116,,105,105,13,13,7,6,0.6,0.7
2024-09-14T1700,2282A,116.8004,33.975,淮北市,监测站,细颗粒物(PM2.5),58,48,65,41,44,102,,101,101,5,10,5,6,0.8,0.8
2024-09-14T1700,2283A,116.8091,33.9007,淮北市,烈山区政府,细颗粒物(PM2.5),59,56,78,42,54,112,,101,101,5,11,6,6,0.6,0.7
2024-09-14T1700,3330A,116.8873,33.9836,淮北市,杜集区检察院,细颗粒物(PM2.5),74,67,75,54,74,114,,100,100,6,10,7,4,0.9,0.9
2024-09-14T1700,4017A,116.7923,33.9535,淮北市,市博物馆,细颗粒物(PM2.5),57,58,73,40,44,105,,103,103,9,14,4,5,0.9,0.9
2024-09-14T1700,2277A,116.8305,32.7727,淮南市,潘集区政府,,33,25,41,13,27,105,,73,73,9,12,5,5,0.6,0.7
2024-09-14T1700,2278A,117.0067,32.6524,淮南市,师范学院,,,31,46,23,34,117,,79,79,7,8,6,7,,0.5
2024-09-14T1700,2279A,116.8569,32.5951,淮南市,谢家集区政府,,33,29,37,21,33,104,,79,79,14,15,9,6,0.5,0.5
2024-09-14T1700,2280A,116.8281,32.633,淮南市,八公山区政府,,30,26,51,12,35,93,,66,66,8,11,3,4,0.4,0.4
2024-09-14T1700,2281A,116.6325,32.6201,淮南市,焦岗湖风景区管理处,,43,41,48,30,22,74,,46,46,5,5,4,4,0.2,0.3
2024-09-14T1700,2894A,117.0566,32.6531,淮南市,经济技术开发区消防队,,32,,31,8,12,102,,74,74,7,9,4,5,0.5,0.5
2024-09-14T1700,3329A,117.0108,32.5893,淮南市,山南新区,,35,34,52,17,34,111,,81,81,13,16,5,4,0.7,0.7
2024-09-14T1700,2446A,114.9028,30.4742,黄冈市,职工中心,臭氧1小时,65,42,39,22,23,172,,121,121,10,14,10,8,0.7,0.7
2024-09-14T1700,2929A,114.8858,30.4519,黄冈市,红卫路,臭氧1小时,77,33,34,27,24,181,,126,126,5,5,9,9,0.7,0.8
2024-09-14T1700,3398A,114.9136,30.4445,黄冈市,市林业局,臭氧1小时,84,35,40,23,24,187,,135,135,7,13,8,8,0.5,0.5
2024-09-14T1700,2672A,102.0199,35.5102,黄南藏族自治州,同仁县隆务镇,,27,27,21,7,7,76,,79,75,12,8,9,8,0.6,0.6
2024-09-14T1700,2295A,118.2903,29.6963,黄山市,延安路89号,,34,34,33,3,7,89,,102,102,4,7,6,6,0.3,0.4
2024-09-14T1700,2296A,118.327,29.7178,黄山市,黄山东路89号,,27,22,20,11,10,86,,98,98,3,6,4,4,0.3,0.4
2024-09-14T1700,2297A,118.1371,30.2756,黄山市,黄山区政府5号楼,,38,33,21,21,11,119,,98,98,8,7,6,6,0.4,0.4
2024-09-14T1700,2423A,115.0601,30.2313,黄石市,沈家营,,50,41,68,16,23,158,,139,139,6,14,7,7,0.7,0.8
2024-09-14T1700,2424A,115.0817,30.2006,黄石市,陈家湾,臭氧1小时,59,35,61,18,24,167,,151,151,6,12,7,10,0.6,0.7
2024-09-14T1700,2426A,114.8988,30.2019,黄石市,铁山,臭氧1小时,65,33,50,17,36,172,,144,144,7,17,9,10,0.6,0.8
2024-09-14T1700,2427A,115.0307,30.2092,黄石市,团城山,,50,32,60,9,21,160,,135,135,8,16,7,8,0.6,0.8
2024-09-14T1700,3149A,115.0235,30.1578,黄石市,笔架山北路,臭氧1小时,63,42,63,15,22,170,,143,143,6,13,8,9,0.7,0.9
2024-09-14T1700,1392A,114.4183,23.0528,惠州市,河南岸金山湖子站,,35,31,26,23,19,112,,103,103,16,9,4,4,0.4,0.5
2024-09-14T1700,1393A,114.4053,23.0822,惠州市,下埔横江三路子站,,38,23,24,14,15,121,,106,106,13,11,3,4,0.6,0.6
2024-09-14T1700,1394A,114.4103,23.1142,惠州市,江北云山西路子站,,36,24,24,12,14,114,,105,105,10,9,4,5,0.4,0.5
2024-09-14T1700,1395A,114.4645,22.7833,惠州市,惠阳区承修路船湖子站,,38,19,27,14,18,120,,113,113,22,20,5,5,0.6,0.6
2024-09-14T1700,1396A,114.5317,22.7422,惠州市,大亚湾管委会子站,,27,18,30,12,17,85,,110,110,17,19,6,6,0.6,0.6
2024-09-14T1700,3314A,114.4338,22.8134,惠州市,惠阳秋长,,41,36,24,17,17,130,,127,127,22,20,6,5,0.5,0.7
2024-09-14T1700,3452A,114.6517,22.775,惠州市,大亚湾霞涌,,46,,20,32,14,81,,92,90,13,8,5,4,0.7,0.5
2024-09-14T1700,2240A,130.9762,45.3001,鸡西市,环保局,,15,9,26,3,9,48,,46,46,4,14,5,6,0.2,0.3
2024-09-14T1700,2243A,130.9429,45.3039,鸡西市,第一中学,,,0,27,,10,49,,48,48,4,16,4,5,0.1,0.1
2024-09-14T1700,3707A,131.0207,45.3073,鸡西市,欧美日汽修厂,,14,11,33,3,12,44,,46,46,16,18,7,5,0.1,0.1
2024-09-14T1700,3709A,130.9967,45.3106,鸡西市,市政设施管理处,,17,10,28,6,10,52,,45,45,9,21,5,6,0.1,0.1
2024-09-14T1700,2367A,114.9754,27.0803,吉安市,红声器材厂,颗粒物(PM10),51,52,48,26,28,129,,127,127,10,12,11,13,0.7,0.8
2024-09-14T1700,2368A,114.9658,27.0999,吉安市,市森林工业局,,,45,44,26,29,128,,126,126,12,17,9,11,,0.6
2024-09-14T1700,2369A,114.99,27.1312,吉安市,市环境监测站,,42,39,42,24,25,134,,134,134,10,12,10,14,0.8,0.8
2024-09-14T1700,2370A,115.0093,27.0968,吉安市,青原区法院,,43,39,45,15,29,135,,132,132,10,14,10,14,0.7,0.8
2024-09-14T1700,1772A,126.54,43.8622,吉林市,哈达湾,,17,16,21,8,7,54,,55,55,16,16,15,9,0.5,0.5
2024-09-14T1700,1773A,126.5844,43.8358,吉林市,东局子,,17,17,22,8,5,48,,53,53,20,13,7,5,0.5,0.4
2024-09-14T1700,1774A,126.5052,43.8245,吉林市,电力学院,,18,14,21,8,7,56,,54,54,11,13,12,7,0.6,0.7
2024-09-14T1700,1775A,126.6133,43.8972,吉林市,江北,,30,30,18,6,6,49,,53,53,9,9,9,8,0.7,0.5
2024-09-14T1700,1776A,126.555,43.8306,吉林市,江南公园,,18,17,18,12,6,52,,54,54,18,17,12,8,0.7,0.6
2024-09-14T1700,2868A,126.4739,43.953,吉林市,九站,,20,17,26,8,11,61,,54,54,8,21,13,31,0.5,0.6
2024-09-14T1700,1299A,116.9862,36.6114,济南市,科干所,颗粒物(PM10),52,53,49,24,28,82,,67,67,22,26,6,6,0.6,0.8
2024-09-14T1700,1300A,116.9376,36.665,济南市,农科所,颗粒物(PM10),52,54,46,22,29,87,,64,64,21,26,11,8,0.5,0.5
2024-09-14T1700,1301A,117.1265,36.6734,济南市,开发区,颗粒物(PM10),51,51,42,22,26,80,,64,64,21,24,7,5,0.4,0.6
2024-09-14T1700,1303A,117.0624,36.6868,济南市,省种子仓库,,46,46,48,17,25,90,,68,68,16,22,9,6,0.8,0.9
2024-09-14T1700,1304A,116.9489,36.6447,济南市,机床二厂,,46,46,45,12,24,90,,70,70,19,24,9,6,0.6,0.7
2024-09-14T1700,1305A,117.0495,36.663,济南市,市监测站,颗粒物(PM10),53,56,46,20,30,92,,71,71,17,23,8,7,0.6,0.7
2024-09-14T1700,1306A,116.7675,36.5484,济南市,长清党校,颗粒物(PM10),56,61,48,24,28,101,,85,85,15,22,8,6,0.7,0.8
2024-09-14T1700,1616A,117.6795,36.229,济南市,技术学院,,34,34,24,17,18,71,,57,57,11,21,6,6,0.6,0.9
2024-09-14T1700,1961A,117.532,36.6868,济南市,东山小学,颗粒物(PM10),51,51,42,12,24,90,,78,78,19,25,6,3,0.6,0.7
2024-09-14T1700,3059A,117.7161,36.2049,济南市,泰兴公司,,39,39,28,17,19,66,,54,54,12,22,5,7,0.4,0.7
2024-09-14T1700,3064A,117.6867,36.2171,济南市,莱芜战役纪念馆,,39,39,27,9,18,64,,53,53,11,21,3,9,0.5,0.8
2024-09-14T1700,3494A,117.1673,36.9782,济南市,济阳区政府,,37,37,27,12,11,98,,75,75,9,10,10,8,0.6,0.6
2024-09-14T1700,3495A,117.1171,36.63,济南市,锦屏中学,,44,44,40,12,24,86,,70,70,17,22,7,4,0.4,0.6
2024-09-14T1700,3682A,116.9814,36.6819,济南市,济南四建,,46,46,41,22,24,83,,61,61,17,22,11,8,0.6,0.8
2024-09-14T1700,1653A,116.6251,35.4302,济宁市,火炬城,,19,13,70,7,44,59,,66,65,14,17,9,10,0.9,1.1
2024-09-14T1700,1655A,116.5491,35.4042,济宁市,电化厂,,37,37,63,17,45,62,,59,59,18,22,7,8,0.9,1
2024-09-14T1700,3500A,116.5814,35.3707,济宁市,北湖一中,,24,24,67,3,46,63,,62,62,15,19,4,6,0.6,0.8
2024-09-14T1700,3501A,116.8249,35.5593,济宁市,服务中心,,16,7,49,6,38,49,,53,53,13,20,4,6,0.6,0.9
2024-09-14T1700,3678A,116.5907,35.4054,济宁市,市第七中学,,30,30,57,7,39,58,,60,60,16,19,6,7,0.7,0.9
2024-09-14T1700,2255A,130.2751,46.8028,佳木斯市,佳纺,,17,6,23,3,7,54,,61,61,3,15,4,4,0.4,0.4
2024-09-14T1700,2256A,130.3995,46.8307,佳木斯市,发电厂,,16,11,22,3,7,51,,56,56,7,14,4,6,0.4,0.4
2024-09-14T1700,2257A,130.3258,46.7975,佳木斯市,环保局,,15,7,21,3,10,47,,56,56,7,21,8,8,0.3,0.4
2024-09-14T1700,2258A,130.3648,46.8032,佳木斯市,十一中,,14,13,22,3,9,44,,54,54,16,23,6,7,0.4,0.5
2024-09-14T1700,2259A,130.3794,46.7588,佳木斯市,四丰,,15,6,14,3,5,46,,54,54,11,14,1,1,0.2,0.2
2024-09-14T1700,1252A,120.7436,30.778,嘉兴市,清河小学,,30,30,22,12,8,82,,76,76,22,18,5,4,0.3,0.2
2024-09-14T1700,1253A,120.726,30.7478,嘉兴市,嘉兴学院,,26,26,18,15,8,76,,78,78,19,13,3,3,0.4,0.4
2024-09-14T1700,2872A,120.7846,30.7525,嘉兴市,南湖区残联,,27,24,19,14,8,84,,93,92,20,15,5,4,0.4,0.4
2024-09-14T1700,3407A,120.6916,30.7739,嘉兴市,秀洲住建,,28,25,16,13,8,89,,84,84,24,19,4,4,0.6,0.6
2024-09-14T1700,1945A,98.2908,39.7711,嘉峪关市,气象局,颗粒物(PM10),58,66,74,12,14,82,,84,74,4,8,1,4,0.2,0.2
2024-09-14T1700,2884A,98.2672,39.7978,嘉峪关市,酒钢宾馆,颗粒物(PM10),51,51,80,14,17,84,,84,71,4,13,1,7,0.2,0.5
2024-09-14T1700,3248A,98.2643,39.7724,嘉峪关市,雄关区,颗粒物(PM10),52,54,68,12,14,75,,80,67,6,11,9,8,0.5,0.4
2024-09-14T1700,1383A,113.1064,22.6058,江门市,北街,细颗粒物(PM2.5),52,39,34,36,26,103,,80,80,26,24,4,4,0.8,0.7
2024-09-14T1700,1384A,113.0731,22.5835,江门市,西区,颗粒物(PM10),53,55,39,33,24,108,,89,89,38,31,5,5,0.9,0.6
2024-09-14T1700,1385A,113.0219,22.5311,江门市,圭峰西,,50,43,33,35,24,119,,94,94,14,12,2,2,0.7,0.6
2024-09-14T1700,1386A,113.0828,22.5947,江门市,东湖,颗粒物(PM10),51,52,41,34,24,84,,78,78,23,20,3,3,0.7,0.6
2024-09-14T1700,3311A,113.1075,22.5647,江门市,江海富民,,48,48,52,28,31,123,,93,93,30,25,6,6,0.9,0.8
2024-09-14T1700,3449A,113.05,22.4667,江门市,新会银湖,细颗粒物(PM2.5),65,48,41,47,45,104,,78,78,25,24,5,5,0.9,0.9
2024-09-14T1700,1828A,113.227,35.2125,焦作市,市环保局,臭氧1小时,69,68,68,39,39,175,,176,176,13,22,4,22,0.7,0.8
2024-09-14T1700,3169A,113.2725,35.2067,焦作市,太极体育中心,臭氧1小时,73,84,74,38,33,178,,180,180,11,18,5,15,0.9,1
2024-09-14T1700,3335A,113.3137,35.2641,焦作市,马村街道办,细颗粒物(PM2.5),67,69,61,48,37,170,,171,171,14,19,2,7,0.7,0.8
2024-09-14T1700,3336A,113.2465,35.2373,焦作市,焦作技师学院,臭氧1小时,64,72,60,39,35,171,,170,170,12,17,5,13,0.8,0.9
2024-09-14T1700,3477A,113.1656,35.2539,焦作市,中站许衡医院,臭氧1小时,72,81,52,31,29,177,,174,174,13,24,6,11,0.6,0.7
2024-09-14T1700,3981A,113.2449,35.1803,焦作市,原李万街道办,颗粒物(PM10),68,86,64,34,35,172,,176,176,12,19,3,14,1.2,1.3
2024-09-14T1700,1708A,116.3701,23.5345,揭阳市,新兴,,47,47,37,22,21,66,,88,88,22,15,5,5,0.6,0.6
2024-09-14T1700,1709A,116.3264,23.5443,揭阳市,西马,颗粒物(PM10),58,65,42,24,19,61,,86,86,23,9,6,6,0.7,0.7
2024-09-14T1700,1710A,116.3611,23.5626,揭阳市,东兴,,25,,44,17,18,80,,86,85,12,12,4,4,0.7,0.7
2024-09-14T1700,1711A,116.4151,23.5294,揭阳市,渔湖,,38,38,43,15,15,62,,83,83,18,14,4,5,0.5,0.5
2024-09-14T1700,3320A,116.403,23.5699,揭阳市,曲溪,,34,34,36,16,18,74,,81,81,16,15,2,2,0.6,0.6
2024-09-14T1700,1944A,102.1692,38.5167,金昌市,天庆家园,颗粒物(PM10),69,87,38,33,16,59,,83,72,22,15,10,13,0.6,0.5
2024-09-14T1700,3170A,102.1864,38.5253,金昌市,市委党校,颗粒物(PM10),70,89,43,19,12,56,,77,63,15,10,7,7,0.7,0.7
2024-09-14T1700,4022A,102.1647,38.5371,金昌市,金川区人防中心,颗粒物(PM10),68,85,45,21,13,54,,81,64,20,12,13,14,0.9,0.7
2024-09-14T1700,1262A,119.647,29.077,金华市,十五中,,31,24,27,9,13,99,,93,93,10,18,2,2,0.4,0.4
2024-09-14T1700,1263A,119.686,29.1029,金华市,监测站,,31,24,28,12,14,97,,90,90,10,21,3,3,0.3,0.4
2024-09-14T1700,3659A,119.656,29.1131,金华市,气象局,,30,24,25,13,8,95,,90,90,12,23,5,5,0.1,0.1
2024-09-14T1700,1767A,121.1115,41.0879,锦州市,南山,,19,,15,8,5,58,,62,62,12,11,8,9,0.4,0.4
2024-09-14T1700,1768A,121.0533,40.8434,锦州市,开发区,,20,12,28,8,8,61,,62,62,14,14,6,6,0.4,0.4
2024-09-14T1700,1769A,121.1836,41.1119,锦州市,百股街道,,,9,19,7,2,55,,59,59,15,13,8,10,,0.6
2024-09-14T1700,1770A,121.1178,41.1222,锦州市,天安街道,,18,12,20,6,6,55,,59,59,14,10,9,9,0.4,0.4
2024-09-14T1700,1771A,121.1303,41.1386,锦州市,北湖公园,,23,23,20,6,6,60,,64,64,12,11,8,10,0.3,0.3
2024-09-14T1700,2160A,112.85,35.5051,晋城市,自来水公司,臭氧1小时,103,54,73,24,39,205,,176,176,15,20,13,14,1.2,1.1
2024-09-14T1700,2161A,112.8318,35.4936,晋城市,白云商贸,臭氧1小时,102,74,75,27,40,203,,172,172,18,22,13,13,1.2,1.1
2024-09-14T1700,2162A,112.8508,35.4887,晋城市,市环保局,臭氧1小时,100,61,70,22,41,200,,172,172,17,21,13,13,1.1,1.1
2024-09-14T1700,2163A,112.8676,35.4897,晋城市,技术学院,臭氧1小时,98,61,62,22,39,198,,168,168,18,24,14,15,1.2,1.2
2024-09-14T1700,3620A,112.8271,35.4828,晋城市,泽州一中,臭氧1小时,95,53,68,27,42,196,,162,162,23,28,16,15,1.1,1.1
2024-09-14T1700,2171A,112.7532,37.6945,晋中市,锦纶小区,,39,34,55,22,24,122,,133,133,10,19,6,8,0.7,0.6
2024-09-14T1700,2173A,112.7249,37.7067,晋中市,南都小区,,43,37,46,30,28,121,,129,129,12,20,5,6,0.9,0.9
2024-09-14T1700,2174A,112.6991,37.6982,晋中市,榆次区政府,,45,36,49,31,25,118,,127,127,10,17,5,7,0.7,0.7
2024-09-14T1700,2865A,112.7195,37.6828,晋中市,榆次三中,,37,34,53,14,19,118,,130,130,10,18,7,9,0.6,0.7
2024-09-14T1700,2439A,112.2014,31.0481,荆门市,竹园小学,,49,49,60,23,31,154,,142,142,14,22,13,12,0.7,0.8
2024-09-14T1700,2440A,112.1969,30.9891,荆门市,掇刀,,49,36,53,27,33,155,,150,150,14,20,19,15,0.7,0.7
2024-09-14T1700,2441A,112.2213,31.0386,荆门市,石化一小,颗粒物(PM10),51,51,65,28,35,155,,145,145,12,24,13,15,0.7,0.8
2024-09-14T1700,3012A,112.1849,31.0362,荆门市,西山林语,臭氧1小时,53,43,52,19,28,162,,149,149,12,17,10,9,0.6,0.8
2024-09-14T1700,3547A,112.1632,31.0138,荆门市,龙泉中学南校,臭氧1小时,53,39,49,23,24,162,,151,151,8,17,10,11,0.6,0.8
2024-09-14T1700,1844A,112.2494,30.3197,荆州市,市图书馆,,48,33,39,22,28,151,,128,128,13,23,8,7,0.7,0.8
2024-09-14T1700,1845A,112.2008,30.3544,荆州市,市委党校,,50,44,45,24,27,160,,130,130,12,21,5,5,0.8,0.8
2024-09-14T1700,3194A,112.2747,30.3122,荆州市,管委会,颗粒物(PM10),52,54,45,10,27,152,,126,126,12,20,7,7,0.7,0.8
2024-09-14T1700,3548A,112.1655,30.3364,荆州市,学苑路,"颗粒物(PM10),臭氧1小时",55,59,87,28,43,164,,134,134,13,24,6,6,0.7,0.7
2024-09-14T1700,2343A,117.2117,29.2933,景德镇市,老干部活动中心,,31,31,28,18,18,88,,85,85,5,11,5,8,0.5,0.5
2024-09-14T1700,2344A,117.1894,29.2789,景德镇市,兽医站,,29,29,30,13,18,92,,92,92,5,10,6,8,0.8,0.7
2024-09-14T1700,2345A,117.1547,29.2617,景德镇市,台达陶瓷,,40,35,29,28,19,75,,80,80,16,13,41,17,0.6,0.5
2024-09-14T1700,2346A,117.2461,29.2956,景德镇市,陶研所,,30,25,31,9,15,93,,87,87,8,12,4,4,0.5,0.4
2024-09-14T1700,1803A,115.9872,29.6815,九江市,十里,,37,27,40,15,23,116,,91,91,10,16,9,12,0.8,1
2024-09-14T1700,1804A,115.9584,29.7046,九江市,茅山头,,40,24,41,22,26,125,,90,90,14,19,7,10,0.8,1
2024-09-14T1700,1805A,115.9877,29.7295,九江市,西园,,32,22,39,15,28,102,,89,89,25,21,9,14,0.6,0.9
2024-09-14T1700,1806A,116.0172,29.6547,九江市,五七二七厂,,31,18,32,16,20,99,,78,78,9,15,7,8,0.7,0.9
2024-09-14T1700,1808A,115.9114,29.6038,九江市,综合工业园,,42,37,44,20,27,133,,106,106,20,23,11,18,1.1,1.1
2024-09-14T1700,1809A,116.0721,29.7535,九江市,石化总厂,,34,27,49,19,33,108,,83,83,14,20,10,12,0.8,1
2024-09-14T1700,1810A,115.9773,29.5698,九江市,庐山气象台,颗粒物(PM10),64,78,25,20,17,112,,95,95,5,4,13,9,0.7,0.9
2024-09-14T1700,3190A,116.0254,29.6994,九江市,外国语学校,,37,24,40,14,21,116,,89,89,8,17,8,12,0.7,0.9
2024-09-14T1700,2658A,98.5061,39.7443,酒泉市,仓门街子站,,,88,71,7,13,77,,75,72,,8,9,32,0.3,0.2
2024-09-14T1700,2659A,98.4989,39.7256,酒泉市,油田生活基地,颗粒物(PM10),67,83,79,12,11,78,,80,72,15,15,9,16,0.2,0.2
2024-09-14T1700,2698A,76.0072,39.4467,喀什地区,巡警大队,颗粒物(PM10),133,216,234,48,51,97,,69,69,5,36,4,4,0.3,0.6
2024-09-14T1700,2699A,75.9755,39.4694,喀什地区,吾办,颗粒物(PM10),124,197,222,62,68,97,,66,66,8,35,4,4,0.3,0.5
2024-09-14T1700,4027A,75.9483,39.4689,喀什地区,老干局,颗粒物(PM10),131,212,254,35,40,92,,63,63,6,30,4,4,0.1,0.3
2024-09-14T1700,1824A,114.3389,34.7781,开封市,肿瘤医院,,39,27,42,27,24,115,,108,108,8,18,4,7,0.5,0.6
2024-09-14T1700,1826A,114.2885,34.7965,开封市,世纪星幼儿园,,,44,42,,21,116,,112,112,6,17,3,7,0.6,0.6
2024-09-14T1700,3147A,114.3438,34.8106,开封市,龙亭公园,,34,34,41,18,22,107,,98,98,9,20,4,7,0.7,0.7
2024-09-14T1700,3210A,114.3644,34.7964,开封市,汴京公园,,34,33,40,23,26,108,,102,102,10,19,5,8,0.7,0.7
2024-09-14T1700,3473A,114.2485,34.8306,开封市,技师学院,,37,17,43,17,18,118,,114,114,8,28,5,7,0.8,0.9
2024-09-14T1700,3592A,114.4644,34.7556,开封市,祥符区生态环境局,,33,28,38,23,26,83,,86,86,22,22,12,11,0.7,0.7
2024-09-14T1700,1951A,84.895,45.6094,克拉玛依市,长征新村,,24,13,12,8,5,74,,64,63,2,4,6,6,0.2,0.2
2024-09-14T1700,1952A,84.8988,45.5893,克拉玛依市,南林小区,,24,13,11,9,10,74,,67,67,2,4,9,9,0.2,0.4
2024-09-14T1700,1954A,84.905,44.3396,克拉玛依市,独山子区,,23,10,19,8,7,73,,67,67,9,9,7,7,0.4,0.3
2024-09-14T1700,1955A,85.6979,46.098,克拉玛依市,乌尔禾区商贸楼,,27,,15,8,5,84,,70,70,4,3,3,13,0.2,0.3
2024-09-14T1700,3612A,85.1045,45.6899,克拉玛依市,白碱滩区新站,,25,12,18,7,6,79,,68,68,3,5,6,7,0.1,0.1
2024-09-14T1700,2697A,76.1454,39.7142,克孜勒苏柯尔克孜自治州,市人民政府,颗粒物(PM10),107,163,178,56,62,107,,87,87,1,15,3,9,0.2,0.3
2024-09-14T1700,3665A,76.1658,39.7157,克孜勒苏柯尔克孜自治州,克州文化中心,颗粒物(PM10),120,189,174,52,59,109,,95,95,2,11,6,12,0.2,0.2
2024-09-14T1700,1450A,102.8204,24.8886,昆明市,呈贡新区,,30,25,35,14,18,95,,80,80,7,27,4,4,0.6,0.8
2024-09-14T1700,1452A,102.7252,25.0902,昆明市,龙泉镇,,39,16,27,10,12,124,,101,101,11,24,6,7,0.6,0.7
2024-09-14T1700,1453A,102.7266,25.0375,昆明市,东风东路,,33,18,34,14,16,104,,81,81,13,36,5,6,0.3,0.5
2024-09-14T1700,1454A,102.6742,25.0669,昆明市,金鼎山,,,30,32,12,17,106,,91,91,10,20,,14,0.4,0.5
2024-09-14T1700,1455A,102.6644,25.0401,昆明市,碧鸡广场,,32,12,27,3,12,101,,80,80,8,20,4,4,0.5,0.6
2024-09-14T1700,3179A,102.7494,25.0119,昆明市,官渡区博物馆,,36,28,38,12,16,113,,93,93,7,33,6,7,0.3,0.5
2024-09-14T1700,3375A,102.8017,24.8336,昆明市,青年创业园,,29,14,25,13,16,90,,84,84,5,19,5,3,0.5,0.6
2024-09-14T1700,3550A,102.7997,24.9786,昆明市,昆明学院,,34,22,44,11,22,107,,91,91,10,28,6,6,0.4,0.6
2024-09-14T1700,3551A,102.5967,24.6736,昆明市,晋宁区生态环境分局,,32,,33,14,20,100,,89,89,7,15,2,2,0.3,0.4
2024-09-14T1700,3552A,102.6678,24.9856,昆明市,云天化总部,,35,14,30,9,18,110,,86,86,6,22,6,6,0.5,0.5
2024-09-14T1700,1456A,91.1319,29.6514,拉萨市,八廓街,,30,6,10,6,7,94,,81,81,6,16,8,9,0.1,0.1
2024-09-14T1700,1457A,91.1221,29.6747,拉萨市,市环保局,,31,6,10,3,7,97,,84,84,7,11,8,7,0.1,0.1
2024-09-14T1700,1458A,91.0874,29.6475,拉萨市,区监测站,,27,7,9,6,6,84,,78,76,4,11,8,8,0.2,0.1
2024-09-14T1700,1459A,91.1774,29.6541,拉萨市,西藏大学,,30,6,9,3,6,94,,79,79,3,10,7,9,0.2,0.2
2024-09-14T1700,1460A,90.9798,29.6588,拉萨市,区辐射站,,28,6,10,3,6,87,,79,77,7,11,8,8,0.1,0.1
2024-09-14T1700,1461A,91.0834,29.6292,拉萨市,拉萨火车站,,26,8,8,6,5,82,,80,73,4,7,6,6,0.1,0.1
2024-09-14T1700,2520A,109.2203,23.7256,来宾市,来宾技工学校,,41,37,50,28,32,130,,108,108,8,14,6,18,0.7,0.7
2024-09-14T1700,3535A,109.1781,23.7297,来宾市,兴宾区政府,,39,29,39,26,28,123,,107,107,5,9,6,6,0.8,0.7
2024-09-14T1700,4002A,109.2416,23.7461,来宾市,中南小学,,49,49,49,33,29,141,,120,120,7,15,7,7,0.8,0.7
2024-09-14T1700,1476A,103.631,36.1031,兰州市,兰炼宾馆,,45,45,42,30,25,76,,67,67,22,25,6,5,0.5,0.4
2024-09-14T1700,1478A,103.8412,36.0726,兰州市,生物制品所,,48,45,34,33,25,54,,67,67,43,31,9,10,0.6,0.4
2024-09-14T1700,1479A,103.831,36.0464,兰州市,铁路设计院,颗粒物(PM10),51,51,39,34,26,44,,50,50,50,38,6,8,0.7,0.5
2024-09-14T1700,3186A,103.7158,36.1058,兰州市,教育港,,49,49,47,30,29,71,,68,68,25,28,7,8,0.6,0.4
2024-09-14T1700,3241A,103.7439,36.0842,兰州市,百合公园,,43,43,38,23,15,72,,63,63,26,34,9,10,0.6,0.5
2024-09-14T1700,3242A,103.9611,35.998,兰州市,和平,,42,42,34,14,15,66,,76,76,31,25,8,10,0.5,0.4
2024-09-14T1700,3245A,103.6633,36.533,兰州新区,新区管委会,颗粒物(PM10),54,57,39,18,22,97,,91,91,11,12,10,17,0.4,0.5
2024-09-14T1700,3246A,103.6975,36.4789,兰州新区,舟曲中学,,34,20,29,13,19,106,,97,97,6,14,11,34,0.4,0.6
2024-09-14T1700,1067A,116.6708,39.5111,廊坊市,药材公司,,25,17,42,3,11,77,,66,66,6,18,2,4,0.3,0.4
2024-09-14T1700,1068A,116.7214,39.5589,廊坊市,开发区,,25,8,35,3,13,77,,66,66,6,21,1,3,0.2,0.4
2024-09-14T1700,1070A,116.7244,39.5269,廊坊市,北华航天学院,,25,15,49,3,10,77,,68,68,4,19,2,4,0.2,0.5
2024-09-14T1700,2919A,116.7022,39.5453,廊坊市,河北工业大学,,25,14,45,3,14,78,,67,67,4,20,2,4,0.2,0.4
2024-09-14T1700,2535A,103.7723,29.5462,乐山市,花湖湾,,37,,22,11,10,117,,95,95,5,8,5,5,0.4,0.4
2024-09-14T1700,2536A,103.7627,29.5844,乐山市,牛耳桥,,39,16,25,13,22,122,,101,101,24,15,3,3,0.5,0.5
2024-09-14T1700,2537A,103.7508,29.6006,乐山市,市第三水厂,,41,17,23,10,18,130,,110,110,10,12,2,2,0.4,0.4
2024-09-14T1700,2538A,103.7571,29.5664,乐山市,市监测站,,,,32,7,21,122,,96,,9,8,2,3,0.3,0.6
2024-09-14T1700,3361A,103.7311,29.5628,乐山市,理工大学,,45,14,25,12,19,143,,109,109,7,10,1,2,0.6,0.6
2024-09-14T1700,2599A,100.2497,26.8802,丽江市,丽江古城,,26,26,29,13,20,75,,63,63,8,12,10,10,0.6,0.7
2024-09-14T1700,2600A,100.2203,26.8906,丽江市,市中心,,28,28,21,12,17,73,,63,63,2,6,12,11,0.6,0.7
2024-09-14T1700,1267A,119.914,28.4514,丽水市,监测站大楼,,27,27,22,14,7,55,,69,69,18,15,4,4,0.4,0.4
2024-09-14T1700,1268A,119.93,28.4586,丽水市,莲都小学,颗粒物(PM10),51,52,21,3,10,59,,73,73,14,12,4,4,0.4,0.4
2024-09-14T1700,1269A,119.879,28.4231,丽水市,余庄前,,12,10,21,8,10,33,,66,66,10,13,4,4,0.3,0.3
2024-09-14T1700,1173A,119.176,34.5885,连云港市,市环境监测站,,36,36,27,14,18,90,,103,103,13,17,4,4,0.4,0.5
2024-09-14T1700,3000A,119.3581,34.6972,连云港市,德源药业,,29,27,30,14,18,91,,40,,10,28,4,4,0.4,0.4
2024-09-14T1700,3007A,119.178,34.844,连云港市,新城一中,,28,28,27,12,17,78,,87,87,25,32,9,5,1.6,1.1
2024-09-14T1700,3008A,119.3608,34.7519,连云港市,胡沟管理处,,28,19,25,7,14,87,,94,94,8,16,5,5,0.8,0.9
2024-09-14T1700,3009A,119.1478,34.5911,连云港市,矿山设计院,,34,34,26,14,16,95,,102,102,10,19,4,4,0.7,0.8
2024-09-14T1700,3434A,119.2413,34.6539,连云港市,工贸学校,,34,34,23,16,18,92,,106,106,13,10,6,6,0.6,0.8
2024-09-14T1700,3664A,119.4172,34.7341,连云港市,连云街道,,24,20,26,12,16,75,,84,84,16,12,3,3,0.7,0.7
2024-09-14T1700,2571A,102.3431,27.8099,凉山彝族自治州,青龙寺,,32,7,19,3,9,102,,100,100,2,6,7,7,0.7,0.8
2024-09-14T1700,2572A,102.2721,27.8415,凉山彝族自治州,邛海宾馆,,29,22,27,16,19,90,,99,99,5,17,12,14,0.4,0.7
2024-09-14T1700,2573A,102.2625,27.898,凉山彝族自治州,西昌市政府,,29,26,27,12,20,90,,101,101,6,11,13,15,0.8,0.8
2024-09-14T1700,2574A,102.2685,27.8851,凉山彝族自治州,凉山州政府,,31,27,28,17,18,98,,106,106,9,13,21,15,0.7,0.9
2024-09-14T1700,2575A,102.237,27.8914,凉山彝族自治州,长安,,30,30,32,12,18,89,,112,108,7,16,8,15,0.2,0.8
2024-09-14T1700,2212A,123.2,41.1953,辽阳市,宏伟区,,29,29,25,8,7,34,,32,29,21,16,10,10,0.4,0.4
2024-09-14T1700,2213A,123.1683,41.2495,辽阳市,新华园,,22,22,23,6,4,39,,33,32,17,15,6,7,0.3,0.3
2024-09-14T1700,2214A,123.2354,41.2639,辽阳市,滨河路,,24,24,24,9,12,40,,35,34,17,15,9,10,0.3,0.3
2024-09-14T1700,2215A,123.149,41.2991,辽阳市,铁西工业园,,21,21,21,9,11,38,,31,31,15,13,9,11,0.5,0.5
2024-09-14T1700,2227A,125.1358,42.8845,辽源市,环保局,,20,16,21,3,5,63,,51,51,14,10,7,7,0.6,0.6
2024-09-14T1700,3239A,125.0764,42.9078,辽源市,银鹰制药,,21,8,10,7,5,65,,55,55,13,10,5,5,0.6,0.6
2024-09-14T1700,1625A,115.9848,36.4372,聊城市,区政府,,50,50,38,14,20,91,,77,77,17,15,12,11,0.5,0.5
2024-09-14T1700,2878A,116.0072,36.4343,聊城市,聊大东校,颗粒物(PM10),52,53,42,18,28,98,,82,82,16,16,8,7,0.5,0.6
2024-09-14T1700,3200A,115.9819,36.4978,聊城市,监控中心,,36,36,35,12,19,96,,78,78,11,13,8,6,0.3,0.4
2024-09-14T1700,3513A,116.0445,36.4361,聊城市,九州社区,颗粒物(PM10),53,55,54,18,22,94,,77,77,12,13,3,4,0.4,0.4
2024-09-14T1700,4018A,116.0567,36.4608,聊城市,星美广场,,47,47,38,19,20,88,,74,74,17,15,9,5,0.4,0.7
2024-09-14T1700,2632A,94.3681,29.6376,林芝市,林芝监测站,,19,13,20,3,6,59,,56,56,1,3,10,10,0.1,0.2
2024-09-14T1700,2633A,94.3616,29.6616,林芝市,林芝人民医院,,19,14,10,3,6,59,,59,57,3,5,8,8,0.3,0.3
2024-09-14T1700,2603A,100.0781,23.8982,临沧市,市环保局,,23,,22,16,12,51,,42,42,8,11,5,5,0.3,0.5
2024-09-14T1700,2604A,100.0894,23.8822,临沧市,市气象局,,17,15,17,8,12,52,,43,43,7,10,4,4,0.4,0.5
2024-09-14T1700,1733A,111.5531,36.0783,临汾市,临钢医院,,34,34,38,8,15,103,,107,107,41,14,4,5,0.4,0.5
2024-09-14T1700,1734A,111.5028,36.0714,临汾市,技工学校,,43,29,39,8,16,136,,116,116,10,13,6,7,0.5,0.6
2024-09-14T1700,1736A,111.5018,36.0855,临汾市,市委,,46,25,32,7,11,146,,125,125,7,11,6,6,0.5,0.6
2024-09-14T1700,3018A,111.505,36.1014,临汾市,唐尧大酒店,,41,35,34,8,13,131,,115,115,10,11,5,5,0.7,0.7
2024-09-14T1700,3668A,111.5036,36.0414,临汾市,城南,,45,26,41,18,16,144,,126,126,12,14,6,6,0.6,0.7
2024-09-14T1700,2667A,103.2069,35.5993,临夏回族自治州,环保局,,39,32,34,27,29,77,,71,71,6,11,10,10,0.4,0.5
2024-09-14T1700,2668A,103.2417,35.6057,临夏回族自治州,建设大厦,,48,48,42,25,20,86,,74,74,7,13,12,10,0.5,0.5
2024-09-14T1700,1618A,118.3429,35.0532,临沂市,沂河小区,,34,34,33,9,18,97,,85,85,12,16,7,7,0.3,0.6
2024-09-14T1700,1619A,118.295,35.0583,临沂市,鲁南制药厂,,34,29,29,9,18,108,,93,93,9,16,5,5,0.2,0.6
2024-09-14T1700,1620A,118.2794,34.9976,临沂市,新光毛纺厂,,30,24,20,7,16,94,,89,89,17,21,5,5,0.5,0.9
2024-09-14T1700,1621A,118.3956,35.0888,临沂市,河东保险公司,,33,29,31,3,11,103,,81,81,10,21,7,7,0.5,0.7
2024-09-14T1700,3370A,118.3564,35.0215,临沂市,十里堡居委,,32,24,21,3,18,101,,85,85,9,17,8,8,0.5,0.9
2024-09-14T1700,3496A,118.3604,35.1084,临沂市,南坊新区,,34,34,35,7,16,100,,84,84,8,18,8,8,0.4,0.9
2024-09-14T1700,3860A,118.3920,35.0300,临沂市,皇山花园小区,,39,39,33,9,21,95,,81,81,9,23,7,7,0.4,0.9
2024-09-14T1700,1870A,109.4856,24.3895,柳州市,柳东小学,,28,27,34,18,22,87,,87,87,6,13,7,8,0.7,0.7
2024-09-14T1700,1871A,109.4157,24.3277,柳州市,环保监测站,,30,,36,17,22,93,,96,96,5,10,8,8,0.7,0.8
2024-09-14T1700,1872A,109.389,24.341,柳州市,河西水厂,,28,17,50,6,30,88,,93,93,4,14,7,10,0.8,1
2024-09-14T1700,1873A,109.4311,24.2921,柳州市,市四中,颗粒物(PM10),51,52,38,26,27,102,,102,102,5,11,6,7,0.6,0.7
2024-09-14T1700,1874A,109.4006,24.3631,柳州市,市九中,,36,36,47,15,27,95,,97,97,4,13,6,6,0.3,0.6
2024-09-14T1700,1875A,109.4958,24.3134,柳州市,古亭山,,40,40,37,23,24,98,,97,97,8,20,8,8,0.8,0.8
2024-09-14T1700,3402A,109.5422,24.3996,柳州市,市二中,,30,27,34,19,23,96,,90,90,7,16,7,8,0.7,0.7
2024-09-14T1700,2307A,116.5079,31.737,六安市,监测大楼,,29,18,20,17,24,90,,90,90,3,3,5,4,0.5,0.6
2024-09-14T1700,2308A,116.4738,31.7643,六安市,皖西学院,,32,32,25,14,22,91,,87,87,4,5,4,4,0.3,0.4
2024-09-14T1700,2309A,116.4996,31.7905,六安市,朝阳厂,,30,21,19,13,20,93,,87,87,2,3,1,1,0.4,0.4
2024-09-14T1700,2310A,116.5567,31.7886,六安市,开发区,,27,15,29,15,17,86,,89,89,4,6,2,2,0.5,0.5
2024-09-14T1700,2577A,104.83,26.5917,六盘水市,黄土坡,,34,,24,16,18,106,,96,96,5,12,6,8,0.3,0.4
2024-09-14T1700,2578A,104.89,26.5939,六盘水市,水钢,,36,36,31,14,16,105,,98,98,4,9,10,9,0.5,0.5
2024-09-14T1700,2579A,104.8475,26.5894,六盘水市,民中,,34,24,24,9,14,107,,97,97,5,13,7,8,0.4,0.5
2024-09-14T1700,2580A,104.9544,26.5506,六盘水市,双水,,31,19,24,10,13,97,,91,91,4,6,7,7,0.4,0.4
2024-09-14T1700,2336A,117.0217,25.1033,龙岩市,龙岩市监测站,,31,31,23,15,12,71,,63,63,13,19,12,9,0.6,0.5
2024-09-14T1700,2337A,117.0258,25.0661,龙岩市,闽西职业技术学院,,30,30,36,11,13,68,,64,64,8,18,5,16,0.5,0.5
2024-09-14T1700,2338A,117.0196,25.0306,龙岩市,龙岩学院,,25,25,23,12,10,63,,59,59,9,13,5,4,0.5,0.4
2024-09-14T1700,2885A,104.9339,33.3826,陇南市,滨江中学,,43,43,35,13,11,59,,53,53,17,11,7,7,0.6,0.6
2024-09-14T1700,3247A,104.955,33.371,陇南市,市总工会,,31,31,25,3,5,63,,57,57,12,9,9,8,0.5,0.5
2024-09-14T1700,2487A,111.9589,27.8901,娄底市,电视发射台,,38,38,32,17,18,87,,84,84,5,5,7,7,0.7,0.8
2024-09-14T1700,2488A,111.9975,27.725,娄底市,市监测站,,43,43,35,27,21,107,,100,100,5,8,4,5,0.4,0.6
2024-09-14T1700,2489A,112.0194,27.7314,娄底市,市委党校,,32,32,33,22,23,95,,91,91,6,7,5,7,0.5,0.6
2024-09-14T1700,2490A,111.9561,27.7569,娄底市,涟钢,,24,13,40,6,24,75,,74,74,11,15,11,8,0.5,0.8
2024-09-14T1700,2491A,111.9892,27.7044,娄底市,市政府,,32,30,31,20,27,102,,96,96,7,8,6,5,0.4,0.5
2024-09-14T1700,1893A,105.4324,28.9634,泸州市,九狮山,细颗粒物(PM2.5),52,50,60,36,38,157,,126,126,8,10,4,5,0.5,0.5
2024-09-14T1700,1894A,105.4427,28.9063,泸州市,小市上码头,颗粒物(PM10),51,51,59,31,42,156,,132,132,10,14,4,5,0.5,0.6
2024-09-14T1700,1895A,105.4241,28.8573,泸州市,兰田宪桥,,50,44,54,35,45,160,,134,134,8,11,6,5,0.4,0.6
2024-09-14T1700,1896A,105.4379,28.8833,泸州市,市环监站,,49,44,60,32,49,154,,133,133,9,12,6,6,0.6,0.6
2024-09-14T1700,3490A,105.3617,28.7703,泸州市,纳溪区环保局,细颗粒物(PM2.5),52,45,60,36,48,157,,143,143,8,19,5,6,0.4,0.5
2024-09-14T1700,2183A,111.1406,37.5211,吕梁市,环保局,,47,47,38,23,18,83,,68,68,12,12,4,4,0.5,0.5
2024-09-14T1700,2185A,111.1297,37.5136,吕梁市,自来水公司,,44,44,35,23,16,83,,67,67,16,15,4,3,0.5,0.5
2024-09-14T1700,2867A,111.1283,37.51,吕梁市,马茂庄小学,颗粒物(PM10),51,52,46,13,17,89,,70,70,13,19,3,4,0.4,0.4
2024-09-14T1700,1812A,112.3931,34.6516,洛阳市,市委党校,臭氧1小时,107,73,70,33,37,214,,194,194,14,22,12,12,1.0,0.9
2024-09-14T1700,1814A,112.4657,34.6871,洛阳市,豫西宾馆,臭氧1小时,103,93,70,31,30,205,,186,186,13,18,12,12,0.9,0.8
2024-09-14T1700,1815A,112.494,34.6886,洛阳市,河南林校,臭氧1小时,105,74,63,26,33,210,,187,187,13,20,12,13,1.0,0.9
2024-09-14T1700,1816A,112.3844,34.623,洛阳市,开发区管委会,臭氧1小时,108,61,59,34,36,215,,193,193,13,22,10,9,0.8,0.7
2024-09-14T1700,1817A,112.4267,34.6258,洛阳市,市委新办公区,臭氧1小时,105,57,54,39,38,210,,190,190,10,14,9,8,1.0,0.9
2024-09-14T1700,3340A,112.6005,34.6326,洛阳市,伊滨,臭氧1小时,100,54,58,32,38,200,,190,190,3,13,11,12,0.9,0.8
2024-09-14T1700,3341A,112.4951,34.6332,洛阳市,中移产业园,臭氧1小时,109,69,66,34,37,218,,200,200,13,21,9,10,1.1,0.9
2024-09-14T1700,3593A,112.5736,34.8993,洛阳市,吉利监测站,臭氧1小时,98,79,64,26,39,198,,181,181,8,20,8,10,0.7,0.6
2024-09-14T1700,3635A,112.3677,34.662,洛阳市,河科大西苑校区,臭氧1小时,111,83,64,30,27,222,,196,196,15,22,11,10,1.0,0.9
2024-09-14T1700,3636A,112.4388,34.6781,洛阳市,英才小学,臭氧1小时,108,74,63,31,32,215,,190,190,12,19,9,9,0.9,0.8
2024-09-14T1700,2399A,114.051,33.5699,漯河市,三五一五工厂,,27,17,48,11,29,86,,95,94,9,22,4,6,0.7,0.6
2024-09-14T1700,2400A,114.0055,33.5698,漯河市,漯河大学,,29,28,45,14,31,90,,100,100,8,17,4,5,0.6,0.7
2024-09-14T1700,2401A,114.0138,33.5828,漯河市,市水利局,,27,19,50,7,28,86,,93,93,6,16,4,5,1.0,1.2
2024-09-14T1700,2402A,114.0261,33.5698,漯河市,市广电局,,27,17,43,7,23,86,,96,96,7,14,5,8,0.7,0.8
2024-09-14T1700,3478A,113.9749,33.5664,漯河市,市图书馆,,30,20,44,10,26,94,,104,104,9,18,6,8,0.6,0.8
2024-09-14T1700,3479A,114.0967,33.5906,漯河市,召陵区卫健委,,26,16,52,9,38,83,,88,88,8,18,4,5,0.7,0.8
2024-09-14T1700,1798A,118.5092,31.6837,马鞍山市,湖东路四小,颗粒物(PM10),52,53,47,33,29,137,,122,122,23,26,10,9,1.4,1.2
2024-09-14T1700,1799A,118.5024,31.6449,马鞍山市,开发区,颗粒物(PM10),52,53,47,27,27,135,,123,123,25,28,16,10,1.9,1.6
2024-09-14T1700,1800A,118.5228,31.7231,马鞍山市,慈湖,颗粒物(PM10),52,54,57,28,30,140,,132,132,18,25,8,9,1.0,1.1
2024-09-14T1700,1802A,118.6245,31.7241,马鞍山市,濮塘,,45,38,36,24,27,144,,136,136,17,23,7,7,0.7,0.8
2024-09-14T1700,3633A,118.4918,31.6809,马鞍山市,雨山,,45,45,43,27,28,128,,112,112,21,29,15,13,1.9,1.9
2024-09-14T1700,1686A,111.0286,21.4688,茂名市,电白南海,,49,39,39,34,25,118,,91,91,10,13,12,15,0.8,0.8
2024-09-14T1700,1687A,110.9294,21.6533,茂名市,茂石化七小,"颗粒物(PM10),细颗粒物(PM2.5)",52,53,37,36,22,107,,92,92,16,15,15,14,0.8,0.8
2024-09-14T1700,1688A,110.9107,21.6687,茂名市,健康路,,44,44,29,27,17,108,,98,98,14,11,20,25,0.8,1
2024-09-14T1700,1689A,110.8592,21.6828,茂名市,高岭,颗粒物(PM10),52,53,44,31,25,92,,92,92,23,20,8,18,0.7,0.8
2024-09-14T1700,3450A,111.01,21.5165,茂名市,电白水东,,45,41,33,31,24,96,,84,84,13,13,15,13,0.6,0.6
2024-09-14T1700,2539A,104.0308,30.0478,眉山市,黑龙滩水库,,45,19,38,9,23,144,,113,113,2,10,10,9,0.4,0.5
2024-09-14T1700,2540A,103.8416,30.0874,眉山市,气象局,,46,,30,17,20,146,,106,106,9,20,6,6,0.5,0.5
2024-09-14T1700,3137A,103.8578,30.0744,眉山市,市委党校,,48,27,26,17,16,153,,110,110,10,17,9,9,0.6,0.7
2024-09-14T1700,3148A,103.8291,30.0564,眉山市,区人社局,,50,30,28,14,15,157,,112,112,10,22,11,10,0.5,0.5
2024-09-14T1700,1690A,116.1231,24.3284,梅州市,梅江月梅,颗粒物(PM10),52,54,29,27,20,79,,80,80,6,13,10,7,0.4,0.4
2024-09-14T1700,1691A,116.0797,24.2719,梅州市,梅县新城,,49,49,26,24,14,90,,84,84,13,12,10,5,0.5,0.4
2024-09-14T1700,1692A,116.1248,24.2654,梅州市,环境监控中心,,38,38,34,22,18,66,,73,73,17,21,7,5,0.5,0.5
2024-09-14T1700,3315A,116.1233,24.2991,梅州市,梅龙,,34,34,24,22,18,88,,88,88,12,12,13,9,0.6,0.6
2024-09-14T1700,1878A,104.7778,31.4741,绵阳市,富乐山,,38,30,30,22,20,120,,95,95,15,15,3,3,0.6,0.6
2024-09-14T1700,1879A,104.7563,31.4535,绵阳市,市人大,,42,31,35,13,20,133,,95,95,11,22,9,8,0.5,0.5
2024-09-14T1700,1880A,104.6697,31.4668,绵阳市,高新区自来水公司,,39,29,33,12,16,123,,98,98,9,16,4,4,0.5,0.6
2024-09-14T1700,1881A,104.7287,31.5075,绵阳市,三水厂,,39,25,35,17,22,124,,91,91,12,23,5,6,0.6,0.6
2024-09-14T1700,3491A,104.69,31.5322,绵阳市,西科大附属小学,,38,22,33,15,20,119,,92,92,6,20,5,5,0.3,0.4
2024-09-14T1700,3492A,104.5648,31.5343,绵阳市,安州区旅游局,,35,20,25,14,20,111,,95,95,8,15,7,7,0.5,0.6
2024-09-14T1700,1784A,129.61,44.561,牡丹江市,环保大楼,,25,22,23,17,15,41,,38,38,16,11,7,8,0.3,0.3
2024-09-14T1700,1785A,129.6115,44.5782,牡丹江市,文化广场,,25,25,25,16,20,45,,36,36,12,13,8,10,0.3,0.3
2024-09-14T1700,1786A,129.5904,44.5963,牡丹江市,第一医院,,29,21,22,20,20,46,,47,46,16,11,6,7,0.3,0.2
2024-09-14T1700,1787A,129.6364,44.6075,牡丹江市,机车工厂,,25,22,25,17,15,35,,41,41,17,10,5,6,0.2,0.2
2024-09-14T1700,1788A,129.6386,44.5462,牡丹江市,第一中学,,28,28,21,14,16,41,,40,40,16,11,6,6,0.2,0.2
2024-09-14T1700,2531A,105.0703,29.61,内江市,市监测站,臭氧1小时,52,,35,29,38,161,,127,127,13,15,4,4,0.5,0.5
2024-09-14T1700,2532A,105.0717,29.5947,内江市,东兴区政府,,49,32,36,25,32,156,,116,116,20,22,4,4,0.7,0.7
2024-09-14T1700,2533A,105.0653,29.5817,内江市,内江二中,,50,27,39,27,40,157,,119,119,12,17,7,7,0.6,0.6
2024-09-14T1700,2534A,105.0406,29.5822,内江市,内江日报社,,48,,39,27,38,151,,118,118,17,22,6,7,0.6,0.6
2024-09-14T1700,2628A,92.0657,31.4846,那曲市,那曲监测站,,48,48,49,14,18,87,,71,71,5,9,6,7,0.4,0.7
2024-09-14T1700,3128A,92.0506,31.4797,那曲市,那曲会议中心,,39,39,57,8,20,96,,82,82,5,18,4,5,0.4,0.6
2024-09-14T1700,1290A,115.8931,28.6843,南昌市,省外办,,45,39,39,31,26,141,,125,125,14,18,8,9,0.6,0.7
2024-09-14T1700,1291A,115.8886,28.7003,南昌市,省林业公司,,46,41,36,24,21,147,,128,128,9,13,5,6,0.9,1
2024-09-14T1700,1292A,115.8126,28.7442,南昌市,林科所,,48,34,27,19,16,153,,130,130,15,17,7,8,0.9,0.9
2024-09-14T1700,1294A,115.8518,28.687,南昌市,建工学校,,46,45,36,15,16,146,,126,126,9,11,8,9,0.9,0.9
2024-09-14T1700,1295A,115.8921,28.6424,南昌市,象湖,,49,33,31,20,21,154,,140,140,8,12,4,4,0.5,0.8
2024-09-14T1700,1296A,115.7423,28.7996,南昌市,武术学校,,45,32,31,31,16,111,,110,110,5,5,3,2,0.9,0.9
2024-09-14T1700,1298A,115.9314,28.6842,南昌市,省站,,45,43,35,23,25,141,,124,124,22,11,8,9,0.8,0.9
2024-09-14T1700,3046A,115.9084,28.6062,南昌市,机电学校,,48,48,43,22,21,139,,129,129,12,13,8,8,0.7,0.8
2024-09-14T1700,3690A,115.9721,28.7031,南昌市,外国语学校,,42,38,38,12,20,134,,128,128,18,15,6,7,0.6,0.7
2024-09-14T1700,1905A,106.056,30.8064,南充市,西山风景区,臭氧1小时,60,,24,32,28,168,,147,147,4,6,3,2,0.9,1
2024-09-14T1700,1906A,106.0789,30.8023,南充市,南充市委,臭氧1小时,75,60,44,43,30,180,,158,158,10,13,3,3,0.4,0.5
2024-09-14T1700,1907A,106.1031,30.8217,南充市,南充炼油厂,臭氧1小时,84,53,45,42,31,187,,168,168,11,11,4,4,0.4,0.4
2024-09-14T1700,1908A,106.1064,30.7856,南充市,高坪区监测站,臭氧1小时,69,49,43,34,30,175,,156,156,15,16,4,4,0.4,0.4
2024-09-14T1700,1909A,106.0642,30.7636,南充市,嘉陵区环保局,臭氧1小时,65,40,39,36,26,172,,154,154,16,15,6,6,0.5,0.5
2024-09-14T1700,1910A,106.1087,30.8388,南充市,市环境监测站,臭氧1小时,78,61,46,37,31,182,,162,162,15,13,4,3,0.4,0.4
2024-09-14T1700,1151A,118.8086,32.1065,南京市,迈皋桥,,39,28,27,22,17,124,,142,142,12,25,3,4,0.4,0.5
2024-09-14T1700,1152A,118.7538,32.0551,南京市,草场门,,34,31,29,14,17,108,,132,132,13,26,6,7,0.7,0.7
2024-09-14T1700,1153A,118.7794,32.0745,南京市,山西路,,40,31,30,19,19,128,,144,144,2,15,4,4,0.7,0.6
2024-09-14T1700,1154A,118.7752,32.0023,南京市,中华门,,40,34,27,19,17,126,,137,137,20,27,8,6,0.8,0.6
2024-09-14T1700,1155A,118.8109,32.0309,南京市,瑞金路,,44,39,33,24,20,138,,148,148,12,18,6,6,0.6,0.7
2024-09-14T1700,1156A,118.7997,32.0754,南京市,玄武湖,,40,40,35,18,16,128,,139,139,4,13,6,6,0.8,0.8
2024-09-14T1700,1157A,118.6414,32.0931,南京市,浦口,,33,30,30,17,16,104,,107,107,4,8,4,4,0.5,0.6
2024-09-14T1700,1158A,118.7356,31.9996,南京市,奥体中心,,42,35,27,29,21,118,,136,136,9,18,3,4,0.5,0.6
2024-09-14T1700,1159A,118.9125,32.1028,南京市,仙林大学城,,42,31,33,24,27,133,,144,144,9,30,8,10,0.6,0.8
2024-09-14T1700,3422A,118.8436,31.9198,南京市,江宁彩虹桥,,50,36,38,19,21,157,,143,143,14,19,4,5,0.8,1
2024-09-14T1700,3423A,119.0138,31.6494,南京市,溧水永阳,,46,24,31,17,21,145,,134,134,8,17,4,4,0.4,0.6
2024-09-14T1700,3424A,118.879,31.3302,南京市,高淳老职中,,49,32,32,20,25,155,,142,142,7,13,5,5,0.4,0.7
2024-09-14T1700,3427A,118.8554,32.3578,南京市,六合雄州,,39,39,23,25,15,109,,95,95,9,11,9,8,0.6,0.5
2024-09-14T1700,1401A,108.3103,22.7881,南宁市,二十一中,颗粒物(PM10),52,54,46,29,30,101,,110,110,24,23,4,9,0.9,0.9
2024-09-14T1700,1402A,108.3141,22.8528,南宁市,北湖,,45,45,48,30,34,99,,109,109,21,28,3,20,0.8,0.8
2024-09-14T1700,1403A,108.3206,22.8225,南宁市,市监测站,,40,31,43,28,30,94,,107,107,29,25,5,11,0.7,0.7
2024-09-14T1700,1404A,108.3829,22.8037,南宁市,大自然花园,,36,25,36,25,26,106,,104,104,25,19,4,5,0.7,0.7
2024-09-14T1700,1405A,108.4394,22.7904,南宁市,仙葫,,38,38,37,23,27,100,,99,99,14,15,7,8,0.9,0.9
2024-09-14T1700,1406A,108.2397,22.8467,南宁市,区农职院,,34,34,45,22,29,90,,106,106,8,15,3,6,0.8,0.8
2024-09-14T1700,1407A,108.3275,22.735,南宁市,英华嘉园,,33,33,46,21,29,67,,96,96,35,25,4,6,0.6,0.8
2024-09-14T1700,1408A,108.2257,22.7757,南宁市,沙井镇街道办,颗粒物(PM10),51,52,52,34,29,84,,100,100,28,26,15,4,0.8,0.8
2024-09-14T1700,3401A,108.4834,22.7618,南宁市,红星社区,,46,46,41,31,27,142,,123,123,9,13,6,9,0.6,0.6
2024-09-14T1700,2332A,118.1681,26.6369,南平市,南平市监测站,,29,29,19,19,11,76,,67,67,9,14,7,5,0.6,0.6
2024-09-14T1700,2333A,118.1825,26.6489,南平市,南平铝业有限公司,,32,32,22,19,10,78,,64,64,12,16,10,6,0.6,0.5
2024-09-14T1700,2334A,118.1756,26.6272,南平市,南平七中,,42,42,25,16,12,81,,70,70,7,13,4,3,0.5,0.6
2024-09-14T1700,1168A,120.9098,31.9663,南通市,狼山街道,,18,15,10,3,4,55,,68,68,5,12,7,8,0.4,0.5
2024-09-14T1700,1169A,120.86,32.0005,南通市,虹桥,,15,14,15,3,6,45,,61,61,3,17,6,8,0.3,0.5
2024-09-14T1700,1170A,120.87,32.02,南通市,城中,,18,18,20,3,5,44,,58,58,8,17,6,8,0.3,0.5
2024-09-14T1700,1171A,120.94,31.93,南通市,星湖花园,,18,9,9,3,5,57,,66,66,8,18,7,6,0.8,0.6
2024-09-14T1700,1172A,120.81,32.0417,南通市,紫琅学院,,17,11,12,3,3,53,,72,72,8,22,8,10,0.3,0.5
2024-09-14T1700,3291A,121.067,32.062,南通市,通州监测站,,14,12,16,3,5,42,,60,60,3,10,4,4,0.4,0.4
2024-09-14T1700,3432A,120.9348,31.9883,南通市,环境教育馆,,16,14,18,3,3,51,,65,65,7,17,5,5,0.4,0.4
2024-09-14T1700,2404A,112.5224,33.0122,南阳市,瓦房庄,颗粒物(PM10),55,59,51,34,30,155,,149,149,47,22,6,6,0.7,0.8
2024-09-14T1700,2405A,112.5003,32.9735,南阳市,汉画馆,细颗粒物(PM2.5),59,65,50,42,33,157,,149,149,30,18,8,8,0.7,0.8
2024-09-14T1700,2406A,112.5573,33.027,南阳市,气象站,臭氧1小时,90,65,53,31,27,192,,159,159,14,18,8,8,0.8,0.9
2024-09-14T1700,2407A,112.5481,32.9689,南阳市,理工学院,臭氧1小时,60,59,47,28,20,168,,151,151,25,17,7,8,0.7,0.8
2024-09-14T1700,4008A,112.5234,32.9922,南阳市,卧龙区政府,臭氧1小时,72,55,52,31,29,177,,156,156,17,19,6,6,0.8,0.8
2024-09-14T1700,1234A,121.8358,29.911,宁波市,区环保大楼,,22,22,25,11,11,57,,57,57,12,21,3,4,0.5,0.5
2024-09-14T1700,1235A,121.56,29.82,宁波市,万里学院,,24,24,20,9,11,67,,64,64,11,19,11,11,0.5,0.5
2024-09-14T1700,1236A,121.713,29.9572,宁波市,龙赛医院,,24,24,21,10,8,59,,57,57,13,20,8,10,0.5,0.5
2024-09-14T1700,1239A,121.633,29.7733,宁波市,钱湖水厂,,20,16,24,6,10,63,,56,56,8,15,8,8,0.8,0.8
2024-09-14T1700,1240A,121.5856,29.8635,宁波市,太古小学,,21,16,24,9,6,66,,64,64,11,20,8,8,0.6,0.7
2024-09-14T1700,1241A,121.524,29.8674,宁波市,市环境监测中心,,21,18,19,10,8,65,,66,66,12,18,11,9,0.7,0.7
2024-09-14T1700,2871A,121.6147,29.9017,宁波市,万里国际学校,,21,14,20,13,9,67,,65,65,10,20,8,10,0.3,0.4
2024-09-14T1700,3710A,121.5594,29.8975,宁波市,白沙活动中心,,25,25,20,8,9,61,,64,64,14,18,10,10,0.3,0.2
2024-09-14T1700,2341A,119.5388,26.6612,宁德市,宁德市监测站,,15,,14,10,10,28,,26,26,10,11,6,6,0.4,0.4
2024-09-14T1700,3209A,119.5231,26.6562,宁德市,宁德一中,,,17,17,6,8,29,,29,29,6,6,4,5,,0.2
2024-09-14T1700,2618A,98.8601,25.8567,怒江傈僳族自治州,州监测站,,22,16,21,8,12,68,,48,48,6,8,4,4,0.4,0.4
2024-09-14T1700,2619A,98.8546,25.8417,怒江傈僳族自治州,泸水一中,,24,24,19,3,11,63,,42,42,11,13,6,5,0.4,0.4
2024-09-14T1700,1888A,101.6891,26.571,攀枝花市,弄弄坪,,28,23,52,14,26,87,,88,88,10,27,25,40,0.6,1.7
2024-09-14T1700,1889A,101.5769,26.5928,攀枝花市,河门口,,26,19,27,9,16,81,,69,69,8,16,7,8,0.5,0.7
2024-09-14T1700,1890A,101.7169,26.585,攀枝花市,炳草岗,,33,28,44,10,26,104,,102,102,18,32,35,28,1.2,1.5
2024-09-14T1700,1891A,101.7369,26.5008,攀枝花市,仁和,,45,32,33,20,21,142,,117,117,8,17,12,13,1.1,1.2
2024-09-14T1700,2835A,101.7227,26.567,攀枝花市,四十中小,,42,42,45,27,26,120,,110,110,14,35,32,26,1.7,1.8
2024-09-14T1700,1604A,122.0303,41.1489,盘锦市,开发区,,20,18,19,3,5,63,,59,59,11,9,5,5,0.1,0.1
2024-09-14T1700,1605A,122.0485,41.0883,盘锦市,兴隆台,,20,17,16,3,4,61,,58,58,16,13,8,8,0.2,0.2
2024-09-14T1700,1606A,121.8297,41.1028,盘锦市,新生街道,,19,13,15,7,4,60,,59,59,14,14,8,7,0.2,0.2
2024-09-14T1700,1832A,113.3257,33.742,平顶山市,新华旅馆,臭氧1小时,82,70,68,32,33,185,,158,158,16,22,7,8,1.0,1
2024-09-14T1700,1833A,113.2919,33.737,平顶山市,规划设计院,臭氧1小时,89,58,54,24,28,191,,163,163,14,23,8,8,1.0,1
2024-09-14T1700,1834A,113.182,33.774,平顶山市,平顶山工学院,臭氧1小时,99,46,62,22,27,199,,164,164,13,20,10,10,0.7,0.7
2024-09-14T1700,3204A,113.3025,33.73,平顶山市,规划局,臭氧1小时,89,58,58,28,32,191,,163,163,14,25,6,6,0.8,0.8
2024-09-14T1700,3594A,112.8867,33.9116,平顶山市,石龙区,臭氧1小时,103,78,88,23,33,205,,175,175,16,31,15,17,0.9,0.9
2024-09-14T1700,2656A,106.6692,35.5461,平凉市,聚贤嘉苑,,40,40,32,9,11,94,,81,81,16,30,8,7,0.5,0.5
2024-09-14T1700,2657A,106.7021,35.5307,平凉市,博物馆,,35,35,39,13,11,96,,85,85,14,24,8,8,0.4,0.4
2024-09-14T1700,2347A,114.0997,27.5002,萍乡市,武功山,,47,16,11,3,11,148,,97,97,8,6,14,10,0.8,0.5
2024-09-14T1700,2348A,113.8385,27.6434,萍乡市,中医院,,36,29,46,15,29,114,,100,100,5,15,5,13,0.8,1.1
2024-09-14T1700,2349A,113.8493,27.6253,萍乡市,市政府车库,,36,26,41,13,24,113,,99,99,3,11,6,13,0.6,0.9
2024-09-14T1700,2350A,113.8676,27.6435,萍乡市,市环保局,,37,37,40,15,25,109,,96,96,4,12,6,13,0.6,0.9
2024-09-14T1700,2351A,113.866,27.6198,萍乡市,安源区政府,,44,44,35,8,20,123,,110,110,7,14,11,16,0.5,0.7
2024-09-14T1700,2319A,119.0141,25.4325,莆田市,荔城区仓后路,,21,21,16,3,3,39,,40,40,9,6,7,7,0.5,0.5
2024-09-14T1700,2320A,119.0015,25.4553,莆田市,莆田市监测站,,21,21,10,7,2,34,,39,39,3,2,6,6,0.6,0.6
2024-09-14T1700,2321A,119.1119,25.4561,莆田市,涵江区六中,,18,14,17,12,4,39,,38,38,12,8,8,8,0.5,0.5
2024-09-14T1700,2322A,119.1013,25.3215,莆田市,秀屿区政府,,12,,22,8,5,36,,36,36,15,11,7,8,0.5,0.5
2024-09-14T1700,2392A,115.0312,35.7636,濮阳市,环保局,,26,23,31,15,30,82,,80,80,10,15,7,9,0.2,0.4
2024-09-14T1700,2394A,115.0574,35.7609,濮阳市,油田运输公司,,26,26,36,16,27,82,,80,80,8,13,4,5,0.3,0.4
2024-09-14T1700,2395A,115.0866,35.7754,濮阳市,油田物探公司,,31,31,43,20,34,81,,82,82,9,14,2,4,0.2,0.2
2024-09-14T1700,3021A,115,35.7668,濮阳市,濮水河管理处,,30,30,30,16,28,78,,75,75,8,13,5,6,0.3,0.4
2024-09-14T1700,2601A,100.98,22.7633,普洱市,市环保局,,16,16,23,10,13,48,,46,46,7,8,9,9,0.5,0.5
2024-09-14T1700,2602A,100.9817,22.8322,普洱市,普洱第二中学,,23,23,24,12,10,60,,46,46,9,7,10,10,0.5,0.5
2024-09-14T1700,2262A,131.0518,45.8751,七台河市,新一中,,,17,14,,5,45,,60,59,23,10,10,9,1.0,1
2024-09-14T1700,3345A,131.0577,45.7879,七台河市,中波台,,15,11,21,3,4,47,,44,44,18,20,6,6,0.4,0.5
2024-09-14T1700,3637A,131.0176,45.7761,七台河市,人民广场,,19,,25,13,12,49,,52,52,16,18,7,8,0.2,0.3
2024-09-14T1700,3684A,130.8781,45.8222,七台河市,新建矿广场,,25,,82,17,21,40,,44,44,14,21,4,5,0.4,0.5
2024-09-14T1700,1779A,123.9305,47.3636,齐齐哈尔市,安居小区,,24,18,23,3,6,74,,66,66,5,9,12,11,0.2,0.3
2024-09-14T1700,1780A,123.9488,47.3386,齐齐哈尔市,中心广场,,20,11,13,3,5,62,,59,59,14,11,4,4,0.2,0.2
2024-09-14T1700,1781A,123.9483,47.3227,齐齐哈尔市,农牧车辆厂,颗粒物(PM10),97,144,33,9,4,68,,62,62,11,11,9,9,0.3,0.4
2024-09-14T1700,1783A,123.945,47.2988,齐齐哈尔市,市环境监测站,,23,20,24,3,7,71,,64,64,6,10,9,9,0.2,0.2
2024-09-14T1700,3662A,123.6333,47.2075,齐齐哈尔市,富区青少年活动中心,,21,18,34,8,17,67,,65,65,7,17,7,16,0.4,0.5
2024-09-14T1700,2591A,107.9783,26.5747,黔东南苗族侗族自治州,市环境监测站,,27,19,29,13,20,84,,81,81,8,14,4,3,0.3,0.4
2024-09-14T1700,2881A,107.8908,26.5311,黔东南苗族侗族自治州,凯里学院,,29,14,21,14,19,92,,92,92,6,9,2,2,0.5,0.6
2024-09-14T1700,2593A,107.5228,26.2403,黔南布依族苗族自治州,小围寨,,34,19,21,9,15,106,,98,98,6,10,3,4,0.5,0.5
2024-09-14T1700,3538A,107.5175,26.2978,黔南布依族苗族自治州,沙坝,,42,42,30,9,17,103,,85,85,3,9,3,4,0.5,0.6
2024-09-14T1700,2589A,104.9022,25.0925,黔西南布依族苗族自治州,场坝街,,25,13,25,6,14,77,,72,72,4,13,2,21,0.2,0.2
2024-09-14T1700,2590A,104.8811,25.0992,黔西南布依族苗族自治州,坪东大道,,24,9,22,3,8,76,,71,71,2,13,6,10,0.2,0.3
2024-09-14T1700,2502A,108.6236,21.9667,钦州市,市环保站,,35,34,44,24,25,110,,102,102,13,17,5,7,0.7,0.9
2024-09-14T1700,2503A,108.6549,21.9481,钦州市,沙埠小学,颗粒物(PM10),57,64,51,29,28,117,,108,108,12,23,4,5,0.7,0.8
2024-09-14T1700,2504A,108.5989,21.7431,钦州市,港区一小,颗粒物(PM10),51,52,70,33,32,108,,104,104,18,40,6,7,0.7,0.8
2024-09-14T1700,3404A,108.5959,21.9633,钦州市,北职校,,42,39,47,29,30,122,,106,106,8,17,5,6,0.7,0.9
2024-09-14T1700,1042A,119.5134,39.8207,秦皇岛市,北戴河环保局,,24,18,30,9,7,74,,80,80,8,11,3,3,0.5,0.4
2024-09-14T1700,1043A,119.7493,40.0116,秦皇岛市,第一关,,21,21,28,13,17,61,,67,67,15,22,1,2,0.3,0.2
2024-09-14T1700,1044A,119.5897,39.9499,秦皇岛市,监测站,,27,27,29,14,14,69,,70,70,4,11,3,3,0.3,0.3
2024-09-14T1700,1046A,119.5251,39.9041,秦皇岛市,建设大厦,,29,29,29,17,10,71,,74,74,4,7,4,3,0.3,0.2
2024-09-14T1700,3132A,119.610547,39.943889,秦皇岛市,文明里,,31,31,31,14,8,69,,72,72,7,9,3,3,0.5,0.4
2024-09-14T1700,1307A,120.6659,36.2403,青岛市,仰口,,35,20,10,12,11,109,,65,65,6,7,7,6,0.2,0.3
2024-09-14T1700,1310A,120.4134,36.0658,青岛市,市南区东部子站,颗粒物(PM10),57,63,25,7,10,69,,48,48,28,20,7,7,0.4,0.3
2024-09-14T1700,1311A,120.3664,36.1032,青岛市,四方区子站,,39,39,24,12,11,88,,55,55,25,20,10,10,0.5,0.7
2024-09-14T1700,1312A,120.2994,36.054,青岛市,市南区西部子站,,35,31,26,3,8,109,,67,67,10,19,8,9,0.6,0.7
2024-09-14T1700,1313A,120.4581,36.0858,青岛市,崂山区子站,,27,27,19,9,7,82,,55,55,22,20,9,8,0.5,0.5
2024-09-14T1700,1314A,120.1983,35.9608,青岛市,黄岛区子站,,34,34,27,10,11,73,,51,51,44,26,10,9,0.4,0.5
2024-09-14T1700,1315A,120.3999,36.3083,青岛市,城阳区子站,,31,27,23,12,12,97,,60,60,16,22,8,7,0.6,0.7
2024-09-14T1700,1966A,120.0405,35.8735,青岛市,黄岛区4号,,31,31,28,9,15,85,,58,58,17,15,11,10,0.6,0.6
2024-09-14T1700,3362A,120.5014,36.4034,青岛市,即墨2号,,32,29,16,9,9,101,,66,66,13,13,8,7,0.5,0.5
2024-09-14T1700,3642A,120.3503,36.0736,青岛市,市北区南部,,26,16,22,9,11,82,,51,51,28,31,7,7,0.6,0.7
2024-09-14T1700,3643A,120.3948,36.1805,青岛市,李沧区北部,,34,34,20,17,12,93,,58,58,26,24,9,9,0.6,0.6
2024-09-14T1700,1702A,113.0426,23.691,清远市,环保大楼,,26,16,29,13,21,81,,83,83,10,11,7,8,0.8,0.8
2024-09-14T1700,1703A,113.0208,23.7106,清远市,凤城街办,,25,20,34,17,25,74,,77,77,10,10,5,6,0.6,0.6
2024-09-14T1700,3025A,113.0477,23.6344,清远市,技师学院,,24,24,28,16,19,76,,80,80,12,8,5,5,0.7,0.8
2024-09-14T1700,3318A,112.9903,23.7403,清远市,清新太和,,23,23,37,14,24,49,,70,70,6,10,3,3,0.7,0.8
2024-09-14T1700,3455A,113.076,23.7198,清远市,清城东城,,23,18,29,11,20,72,,84,84,3,5,7,7,0.7,0.7
2024-09-14T1700,2661A,107.6325,35.7357,庆阳市,庆阳五中,,42,42,30,11,10,71,,72,65,10,8,6,6,0.4,0.3
2024-09-14T1700,2662A,107.6364,35.7067,庆阳市,市环保局,,32,32,27,12,9,76,,75,67,9,11,6,6,0.4,0.4
2024-09-14T1700,1916A,103.7897,25.5035,曲靖市,环境监测站,,35,17,29,9,13,109,,98,98,6,14,3,5,0.3,0.4
2024-09-14T1700,1917A,103.8,25.5364,曲靖市,烟厂办公区,,34,15,29,15,15,108,,91,91,6,17,4,5,0.4,0.6
2024-09-14T1700,3376A,103.7947,25.462,曲靖市,南苑二区,,35,16,23,11,13,112,,98,98,7,11,6,9,0.4,0.5
2024-09-14T1700,3377A,103.7444,25.5261,曲靖市,曲靖师范学院,,36,19,31,8,20,113,,94,94,5,19,6,22,0.5,0.7
2024-09-14T1700,1264A,118.8692,28.9398,衢州市,环保大楼,,48,40,28,20,15,152,,134,134,17,21,3,3,0.6,0.5
2024-09-14T1700,1265A,118.8709,28.9666,衢州市,实验学校,,44,42,28,20,15,139,,131,131,15,20,6,5,0.5,0.5
2024-09-14T1700,1266A,118.8621,28.9808,衢州市,衢州学院,,45,41,30,18,14,141,,129,129,14,30,6,7,0.5,0.4
2024-09-14T1700,1611A,118.5819,24.9117,泉州市,涂山街,,28,28,22,12,10,54,,48,48,10,11,1,2,0.5,0.5
2024-09-14T1700,1612A,118.5972,24.8978,泉州市,津头埔,,32,32,23,10,9,40,,41,41,20,14,3,4,0.5,0.5
2024-09-14T1700,1613A,118.6663,24.9424,泉州市,万安,,25,25,20,11,8,40,,39,39,12,10,2,2,0.5,0.5
2024-09-14T1700,3529A,118.6333,24.9264,泉州市,城华南路,,23,23,18,10,7,41,,40,40,10,7,3,4,0.5,0.6
2024-09-14T1700,2626A,88.8876,29.2718,日喀则市,日喀则监测站,,29,8,12,3,5,92,,79,79,5,7,5,6,0.3,0.4
2024-09-14T1700,3726A,88.8781,29.2426,日喀则市,林业技术推广中心,,25,6,7,3,5,80,,69,69,4,7,6,6,0.4,0.4
2024-09-14T1700,1659A,119.471,35.4209,日照市,监测站,,29,19,22,11,22,90,,75,75,14,14,10,10,0.3,0.4
2024-09-14T1700,1660A,119.523,35.4216,日照市,市政府广场,,32,22,28,11,20,102,,80,80,10,11,11,10,0.5,0.6
2024-09-14T1700,1661A,119.5587,35.4044,日照市,港务局,,33,22,25,14,22,103,,82,82,8,8,10,10,0.6,0.6
2024-09-14T1700,3507A,119.5328,35.4625,日照市,职业技术学院,,32,24,28,9,20,101,,76,76,11,14,9,8,0.6,0.7
2024-09-14T1700,3604A,119.3266,35.1044,日照市,岚山环保分局,,36,36,32,7,17,80,,78,78,18,17,22,16,1.8,1.6
2024-09-14T1700,1835A,111.1922,34.7752,三门峡市,市政府,臭氧1小时,80,42,41,24,21,184,,139,139,15,28,11,11,0.8,0.7
2024-09-14T1700,1836A,111.1587,34.7942,三门峡市,开发区,臭氧1小时,55,54,50,25,29,164,,126,126,12,16,12,13,0.7,0.7
2024-09-14T1700,3039A,111.1911,34.7829,三门峡市,三门峡市第一小学,臭氧1小时,65,59,44,38,24,172,,132,132,14,20,12,10,0.8,0.7
2024-09-14T1700,3598A,111.1,34.7167,三门峡市,富达温泉假日酒店,臭氧1小时,59,51,50,29,28,167,,152,152,12,21,8,17,0.4,0.6
2024-09-14T1700,2324A,117.6211,26.2625,三明市,三钢,,39,31,21,27,14,88,,71,71,10,15,7,6,0.4,0.4
2024-09-14T1700,2325A,117.635,26.2714,三明市,三明二中,,29,26,19,20,12,88,,69,69,9,14,4,3,0.5,0.4
2024-09-14T1700,2326A,117.6028,26.2378,三明市,三元区政府,,31,31,26,20,12,81,,64,64,12,20,4,5,0.4,0.5
2024-09-14T1700,1876A,109.5078,18.2489,三亚市,河东子站,,17,9,11,3,6,54,,55,55,4,5,3,3,0.2,0.3
2024-09-14T1700,1877A,109.4964,18.2681,三亚市,河西子站,,15,11,12,3,3,47,,54,53,7,7,3,3,0.2,0.3
2024-09-14T1700,3540A,109.7348,18.3443,三亚市,君悦子站,,15,8,12,3,4,46,,49,49,6,6,3,2,0.2,0.3
2024-09-14T1700,2624A,91.7608,29.2313,山南市,山南监测站,,26,6,8,3,5,83,,66,66,2,5,8,7,0.3,0.3
2024-09-14T1700,2625A,91.7706,29.2436,山南市,山南人民医院,,27,12,16,3,9,84,,67,67,5,8,8,8,0.3,0.4
2024-09-14T1700,1674A,116.6794,23.3667,汕头市,金平子站,,38,38,35,8,17,67,,31,,8,12,6,7,0.5,0.6
2024-09-14T1700,1675A,116.7244,23.3633,汕头市,龙湖子站,,22,22,25,14,9,61,,86,86,5,6,7,8,0.5,0.5
2024-09-14T1700,1676A,116.7258,23.2775,汕头市,濠江子站,,25,25,24,17,14,74,,78,78,13,11,6,6,0.5,0.5
2024-09-14T1700,1677A,116.7519,23.4714,汕头市,澄海子站,,32,32,28,12,14,61,,84,84,15,12,6,6,0.7,0.7
2024-09-14T1700,1678A,116.6092,23.2539,汕头市,潮阳子站,,37,37,29,8,8,67,,92,92,27,9,6,6,0.6,0.6
2024-09-14T1700,3444A,116.454,23.2684,汕头市,潮南峡山,,32,31,24,22,12,90,,97,97,6,5,6,6,0.7,0.6
2024-09-14T1700,3624A,116.4069,23.2533,汕头市,潮南子站,,39,39,30,13,11,90,,97,97,14,11,7,6,0.5,0.5
2024-09-14T1700,1693A,115.3653,22.775,汕尾市,市环保局,,31,22,22,12,16,97,,84,84,5,10,7,7,0.6,0.7
2024-09-14T1700,1694A,115.3706,22.7898,汕尾市,市政府,,28,20,21,9,12,88,,72,72,7,10,7,7,0.5,0.5
2024-09-14T1700,1695A,115.3622,22.7925,汕尾市,新城中学,,29,18,24,12,13,91,,75,75,5,8,6,6,0.6,0.7
2024-09-14T1700,2645A,109.9154,33.8715,商洛市,监测站,,38,35,45,18,23,121,,117,117,8,14,5,5,0.6,0.6
2024-09-14T1700,3045A,109.9643,33.8471,商洛市,商州区中学,,38,38,43,20,20,113,,118,118,10,16,5,5,0.7,0.7
2024-09-14T1700,2408A,115.6702,34.4285,商丘市,环境监测站,颗粒物(PM10),58,66,93,40,53,69,,61,61,14,17,4,5,0.8,0.8
2024-09-14T1700,2409A,115.6458,34.4045,商丘市,粮食局,细颗粒物(PM2.5),70,70,93,51,57,72,,68,68,14,17,8,8,0.6,0.6
2024-09-14T1700,2410A,115.6293,34.3948,商丘市,睢阳区环保局,颗粒物(PM10),65,79,88,28,45,65,,62,62,12,16,6,6,0.3,0.3
2024-09-14T1700,3171A,115.6071,34.4465,商丘市,梁园区档案局,颗粒物(PM10),52,54,72,27,41,67,,65,65,15,19,8,9,0.6,0.6
2024-09-14T1700,1141A,121.4,31.238,上海市,普陀,,20,20,19,9,7,39,,47,47,17,14,10,6,0.5,0.3
2024-09-14T1700,1142A,121.478,31.2036,上海市,十五厂,,18,17,18,12,11,43,,51,51,18,16,8,8,0.4,0.4
2024-09-14T1700,1143A,121.467,31.3008,上海市,虹口,,21,21,19,9,9,37,,39,39,18,18,10,10,0.6,0.6
2024-09-14T1700,1144A,121.412,31.1654,上海市,徐汇上师大,,21,21,20,10,9,46,,54,54,18,19,6,6,0.7,0.7
2024-09-14T1700,1145A,121.536,31.2659,上海市,杨浦四漂,,20,20,19,3,6,42,,47,47,13,20,7,7,0.4,0.5
2024-09-14T1700,1147A,121.425,31.2261,上海市,静安监测站,,18,17,18,12,8,42,,47,47,17,16,7,6,0.4,0.4
2024-09-14T1700,1148A,121.703,31.1907,上海市,浦东川沙,,16,16,20,3,7,50,,48,48,9,22,6,6,0.4,0.5
2024-09-14T1700,1149A,121.533,31.2284,上海市,浦东新区监测站,,14,12,16,8,8,44,,47,47,15,19,6,6,0.3,0.4
2024-09-14T1700,1150A,121.577,31.2071,上海市,浦东张江,,20,16,19,14,10,39,,41,41,13,17,5,6,0.7,0.7
2024-09-14T1700,3265A,121.4316,31.3322,上海市,宝山庙行,,14,13,17,3,7,43,,46,46,11,16,6,8,0.4,0.5
2024-09-14T1700,3266A,121.8791,31.4662,上海市,崇明上实东滩,,,8,8,,,44,,,,9,9,,2,0.9,1.1
2024-09-14T1700,3268A,121.3162,31.2838,上海市,嘉定南翔,,12,11,17,6,8,37,,46,46,15,18,6,7,0.3,0.4
2024-09-14T1700,3269A,121.3359,30.7456,上海市,金山新城,,16,15,17,8,9,51,,52,52,19,14,5,5,0.3,0.4
2024-09-14T1700,3270A,121.4996,31.0739,上海市,闵行浦江,,14,12,19,7,11,43,,49,49,12,17,6,6,0.5,0.5
2024-09-14T1700,3271A,121.2886,31.1663,上海市,青浦徐泾,,14,14,21,7,10,42,,52,52,20,19,8,8,0.6,0.5
2024-09-14T1700,3272A,121.2186,31.0378,上海市,松江图书馆,,17,17,21,9,9,54,,61,61,16,21,6,7,0.3,0.3
2024-09-14T1700,3273A,121.3902,31.2059,上海市,长宁仙霞,,19,19,19,8,9,45,,50,50,17,16,10,9,0.7,0.6
2024-09-14T1700,3274A,121.7965,31.0507,上海市,浦东惠南,,17,11,18,9,8,52,,49,49,7,12,8,8,0.5,0.5
2024-09-14T1700,3544A,121.4891,30.925,上海市,奉贤南桥新城,,15,11,18,6,9,46,,50,50,14,20,8,9,0.4,0.4
2024-09-14T1700,2381A,118.005,28.4572,上饶市,百草园,,38,26,40,19,27,120,,112,112,3,7,2,10,0.4,0.5
2024-09-14T1700,2382A,117.9756,28.4436,上饶市,市监测站,,44,32,42,18,29,138,,125,125,6,11,5,16,0.6,0.7
2024-09-14T1700,2383A,117.9519,28.4628,上饶市,凤凰光学,,45,33,39,17,24,144,,128,128,8,10,6,13,0.9,0.9
2024-09-14T1700,3413A,118.1953,28.4401,上饶市,广丰区教体局,,42,30,32,10,19,132,,118,118,8,10,8,15,0.8,0.7
2024-09-14T1700,3685A,117.897,28.4315,上饶市,双创科技城,,42,31,44,14,27,132,,122,122,9,16,7,16,0.5,0.7
2024-09-14T1700,1669A,113.5824,24.7733,韶关市,市八中,,26,24,31,18,24,70,,76,76,4,4,10,11,0.6,0.6
2024-09-14T1700,1671A,113.5917,24.7972,韶关市,园林处,,33,27,35,23,31,68,,73,73,3,5,9,9,0.7,0.7
2024-09-14T1700,1672A,113.6735,24.7791,韶关市,韶关学院,,21,16,31,12,25,66,,69,69,11,9,8,8,0.3,0.4
2024-09-14T1700,1673A,113.5971,24.6863,韶关市,曲江监测站,,20,20,31,12,21,62,,76,76,8,11,11,11,0.7,0.7
2024-09-14T1700,3622A,113.5556,24.8082,韶关市,碧湖山庄,,30,30,39,21,28,70,,73,73,3,5,8,8,0.5,0.5
2024-09-14T1700,2462A,111.5239,27.3033,邵阳市,市水土所,,48,42,34,33,22,122,,100,100,5,4,11,9,0.9,0.9
2024-09-14T1700,2463A,111.4733,27.2317,邵阳市,市一中,,50,50,40,32,28,130,,111,111,5,8,7,10,0.7,0.7
2024-09-14T1700,2464A,111.5283,27.2442,邵阳市,市化工厂,,46,46,39,18,26,124,,107,107,8,11,7,14,0.6,0.7
2024-09-14T1700,2465A,111.4503,27.2537,邵阳市,市罐头厂,颗粒物(PM10),59,68,37,40,25,126,,108,108,8,8,8,10,0.6,0.6
2024-09-14T1700,2466A,111.4328,27.2272,邵阳市,市环保局,颗粒物(PM10),53,56,34,30,28,125,,107,107,7,7,4,7,0.6,0.7
2024-09-14T1700,1247A,120.6053,29.9928,绍兴市,城东开发委,,31,19,26,11,13,97,,75,75,10,18,9,8,0.4,0.5
2024-09-14T1700,2921A,120.5483,30.0003,绍兴市,树下王站,,35,22,25,12,14,110,,76,76,7,14,6,5,0.5,0.5
2024-09-14T1700,3408A,120.5683,29.9361,绍兴市,绍兴中专,,30,27,21,14,12,95,,83,83,7,17,4,2,0.5,0.5
2024-09-14T1700,3409A,120.4906,30.0861,绍兴市,柯桥区政府,,34,20,24,11,13,107,,69,69,15,23,6,6,0.7,0.6
2024-09-14T1700,3410A,120.8752,30.0249,绍兴市,重华小学,,,16,25,9,13,53,,68,68,13,16,,7,0.4,0.5
2024-09-14T1700,3411A,120.8369,30.0137,绍兴市,上虞中学,,18,16,26,10,14,56,,66,66,7,11,6,6,0.5,0.6
2024-09-14T1700,3560A,120.4722,30.0415,绍兴市,柯桥妇保,,,20,25,,16,113,,73,73,12,17,8,8,0.6,0.6
