timepoint,stationcode,longitude,latitude,area,positionname,primarypollutant,aqi,pm10,pm10_24h,pm2_5,pm2_5_24h,o3,o3_24h,o3_8h,o3_8h_24h,no2,no2_24h,so2,so2_24h,co,co_24h
2026-02-10T1100,2568A,102.2503,31.8896,阿坝藏族羌族自治州,马师校,,24,24,23,12,9,45,,38,37,14,10,4,4,0.4,0.4
2026-02-10T1100,3994A,102.2174,31.9016,阿坝藏族羌族自治州,马尔康中学西区,,27,27,28,17,9,52,,45,44,8,9,5,5,0.5,0.5
2026-02-10T1100,2695A,80.2899,41.1684,阿克苏地区,电视台,颗粒物(PM10),235,374,372,112,109,17,,21,21,44,33,9,10,2.0,1.2
2026-02-10T1100,2696A,80.2592,41.1541,阿克苏地区,艺术中心,颗粒物(PM10),191,331,344,87,105,43,,33,33,22,30,4,5,0.8,0.8
2026-02-10T1100,2205A,105.699,38.8409,阿拉善盟,蒙二幼,颗粒物(PM10),60,70,146,6,28,92,,84,84,6,7,10,10,0.6,0.6
2026-02-10T1100,2206A,105.7198,38.8508,阿拉善盟,环保局新楼,,,68,127,14,30,86,,78,78,,6,,9,0.6,0.6
2026-02-10T1100,2708A,88.1266,47.8515,阿勒泰地区,市站,,23,7,22,3,7,72,,90,86,30,19,3,5,0.3,0.2
2026-02-10T1100,4166A,88.1198,47.7931,阿勒泰地区,阿勒泰路33号,,29,6,23,3,8,90,,93,92,11,16,4,8,0.3,0.4
2026-02-10T1100,2630A,80.1171,32.4999,阿里地区,阿里监测站,,21,,3,3,4,67,,73,70,5,3,6,8,0.4,0.3
2026-02-10T1100,3192A,80.0906,32.5029,阿里地区,阿里藏医院,,20,20,12,3,4,57,,78,67,12,4,9,9,0.6,0.4
2026-02-10T1100,2644A,109.0088,32.6974,安康市,汉滨区检察院,细颗粒物(PM2.5),67,50,56,48,40,32,,25,23,17,17,7,7,0.9,0.7
2026-02-10T1100,4054A,109.0324,32.6913,安康市,市邮政管理局,细颗粒物(PM2.5),59,63,66,42,43,34,,20,20,16,23,4,4,0.8,0.7
2026-02-10T1100,2291A,117.0806,30.5181,安庆市,环科院,细颗粒物(PM2.5),63,49,53,45,40,63,,50,48,10,19,6,6,0.6,0.6
2026-02-10T1100,2292A,117.0331,30.5118,安庆市,马山宾馆,细颗粒物(PM2.5),64,54,53,46,43,57,,52,49,14,16,5,6,0.6,0.5
2026-02-10T1100,2294A,116.9897,30.6146,安庆市,安庆大学,细颗粒物(PM2.5),73,63,55,53,38,61,,50,47,12,18,6,5,0.6,0.6
2026-02-10T1100,3173A,117.0598,30.5351,安庆市,市人大,细颗粒物(PM2.5),59,56,56,42,39,58,,52,49,12,16,6,10,0.4,0.4
2026-02-10T1100,3123A,105.9408,26.2431,安顺市,凤凰山,,15,12,14,10,10,30,,24,24,11,13,12,13,0.7,0.8
2026-02-10T1100,3124A,105.9443,26.2567,安顺市,金钟山,,15,,10,10,10,29,,23,23,8,12,10,14,0.7,0.8
2026-02-10T1100,3125A,105.8983,26.248,安顺市,娄家坡,,20,,9,14,8,29,,23,21,10,10,15,11,0.7,0.7
2026-02-10T1100,1819A,114.3552,36.1017,安阳市,红庙街,细颗粒物(PM2.5),107,,66,80,56,,,44,31,,19,11,4,0.9,0.7
2026-02-10T1100,1820A,114.361,36.0681,安阳市,银杏小区,细颗粒物(PM2.5),108,101,66,81,56,26,,42,28,31,19,27,8,0.7,0.5
2026-02-10T1100,3141A,114.3921,36.0879,安阳市,信访局,细颗粒物(PM2.5),83,97,67,61,62,32,,47,34,27,14,14,7,0.9,0.7
2026-02-10T1100,3669A,114.4706,36.0634,安阳市,左辅环卫站,细颗粒物(PM2.5),110,110,79,83,50,26,,40,28,33,19,8,4,0.7,0.5
2026-02-10T1100,4117A,114.2918,36.0769,安阳市,钢三路198号,颗粒物(PM10),101,152,102,62,58,31,,36,26,33,24,6,4,0.8,0.5
2026-02-10T1100,1748A,123.0441,41.1201,鞍山市,深沟寺,细颗粒物(PM2.5),72,77,89,52,51,72,,84,74,25,19,13,10,0.8,0.8
2026-02-10T1100,1749A,123.011,41.0931,鞍山市,太阳城,细颗粒物(PM2.5),85,80,85,63,55,64,,79,70,26,19,16,13,1.0,0.8
2026-02-10T1100,1750A,123.0483,41.1445,鞍山市,太平,细颗粒物(PM2.5),70,74,97,51,54,64,,76,65,28,21,15,11,0.8,0.7
2026-02-10T1100,1751A,122.964,41.0968,鞍山市,铁西三道街,细颗粒物(PM2.5),78,96,111,57,57,70,,72,62,27,33,14,22,0.7,0.6
2026-02-10T1100,1753A,123.0219,41.0822,鞍山市,明达新区,细颗粒物(PM2.5),77,72,72,56,53,70,,82,74,25,21,14,13,0.8,0.7
2026-02-10T1100,4201A,122.944647,41.082639,鞍山市,兴盛南路290号,细颗粒物(PM2.5),84,93,115,62,63,65,,68,60,27,32,15,17,0.8,0.7
2026-02-10T1100,2195A,107.4206,40.7609,巴彦淖尔市,附二中,颗粒物(PM10),92,134,190,34,54,61,,65,54,10,12,7,7,0.5,0.5
2026-02-10T1100,2196A,107.37,40.7372,巴彦淖尔市,市环保大楼,颗粒物(PM10),116,182,189,51,49,62,,64,59,8,9,5,5,0.4,0.5
2026-02-10T1100,1956A,86.1476,41.7529,巴音郭楞蒙古自治州,孔雀公园,颗粒物(PM10),164,277,270,55,63,53,,13,13,30,49,8,8,0.7,0.8
2026-02-10T1100,1957A,86.1971,41.7166,巴音郭楞蒙古自治州,棉纺厂,颗粒物(PM10),155,260,313,42,60,47,,44,44,20,27,/,/,/,/
2026-02-10T1100,1958A,86.236,41.7172,巴音郭楞蒙古自治州,经济开发区,颗粒物(PM10),132,214,244,33,34,34,,34,31,33,22,6,5,0.6,0.5
2026-02-10T1100,3181A,106.776805,31.852614,巴中市,市五中,细颗粒物(PM2.5),65,53,57,47,43,12,,4,4,17,20,6,5,1.1,0.9
2026-02-10T1100,3183A,106.7419,31.8654,巴中市,圣泉水务公司,细颗粒物(PM2.5),55,44,49,39,38,16,,4,4,15,23,6,6,1.3,1.1
2026-02-10T1100,3616A,106.7617,31.8343,巴中市,市中心医院,细颗粒物(PM2.5),62,46,56,44,38,12,,3,3,16,22,5,5,1.0,0.9
2026-02-10T1100,2235A,122.7909,45.608,白城市,洮北区环保局,,,59,58,59,48,,,42,42,14,26,7,5,0.6,0.6
2026-02-10T1100,2236A,122.8741,45.5725,白城市,市环保局,颗粒物(PM10),56,61,51,39,33,62,,46,46,13,17,6,7,0.5,0.5
2026-02-10T1100,2231A,126.4219,41.9172,白山市,喜丰,细颗粒物(PM2.5),109,96,71,82,52,29,,27,26,74,37,19,13,1.4,1.1
2026-02-10T1100,2232A,126.4082,41.9416,白山市,环保局,细颗粒物(PM2.5),100,91,70,75,58,22,,12,12,52,37,18,15,1.4,1.1
2026-02-10T1100,2647A,104.1727,36.5448,白银市,第三小学,颗粒物(PM10),131,212,218,56,54,62,,64,54,20,16,11,9,1.2,0.6
2026-02-10T1100,2648A,104.1467,36.5482,白银市,动力公司,颗粒物(PM10),128,205,206,46,51,71,,60,54,14,11,11,6,1.3,0.8
2026-02-10T1100,2512A,106.6102,23.901,百色市,市监测站,细颗粒物(PM2.5),52,,25,36,18,17,,23,21,23,17,19,13,1.0,0.8
2026-02-10T1100,2513A,106.6524,23.8842,百色市,市中心血站,颗粒物(PM10),53,55,32,34,22,14,,23,18,21,15,19,13,0.9,0.8
2026-02-10T1100,4133A,106.6273,23.8798,百色市,龙景西路,,46,41,33,32,24,13,,17,14,21,19,19,14,0.8,0.7
2026-02-10T1100,2270A,117.396,32.9389,蚌埠市,工人疗养院,细颗粒物(PM2.5),74,68,49,54,33,54,,52,46,20,21,4,5,0.7,0.5
2026-02-10T1100,2271A,117.3606,32.9428,蚌埠市,百货大楼,,,,44,,30,51,,50,45,,19,14,6,0.5,0.4
2026-02-10T1100,2273A,117.4183,32.8909,蚌埠市,蚌埠学院,细颗粒物(PM2.5),70,53,37,51,30,55,,46,39,18,20,3,4,0.5,0.5
2026-02-10T1100,2274A,117.3534,32.9672,蚌埠市,淮上区政府,细颗粒物(PM2.5),74,61,42,54,34,61,,51,46,17,20,5,5,0.5,0.4
2026-02-10T1100,2275A,117.3143,32.8977,蚌埠市,高新区,细颗粒物(PM2.5),77,56,41,56,35,50,,40,33,18,19,6,7,0.5,0.5
2026-02-10T1100,3715A,117.3091,32.9314,蚌埠市,蚌埠田家炳中学,细颗粒物(PM2.5),75,65,47,55,33,51,,50,41,21,21,5,6,0.5,0.5
2026-02-10T1100,1585A,109.8761,40.6533,包头市,市环境监测站,颗粒物(PM10),87,124,136,16,44,76,,67,67,8,25,6,10,0.3,0.6
2026-02-10T1100,1587A,109.9992,40.5843,包头市,包头八中,,,104,132,19,46,71,,62,62,,25,5,10,0.4,0.7
2026-02-10T1100,1589A,109.8641,40.6288,包头市,惠龙物流,,,,116,,37,,,72,70,8,28,8,14,0.4,0.9
2026-02-10T1100,1590A,110.0376,40.5546,包头市,东河鸿龙湾,颗粒物(PM10),72,93,125,9,32,70,,53,53,10,34,8,11,0.4,0.6
2026-02-10T1100,3283A,109.9154,40.5684,包头市,滨河大厦,,,68,131,14,45,73,,51,51,,34,7,13,0.3,0.7
2026-02-10T1100,3419A,109.9449,40.6259,包头市,包头市委党校,颗粒物(PM10),65,79,110,12,35,76,,66,66,7,25,9,13,0.4,0.7
2026-02-10T1100,3683A,109.8332,40.6577,包头市,昆区政府,颗粒物(PM10),58,65,114,11,39,76,,70,69,10,30,7,12,0.4,0.8
2026-02-10T1100,1931A,107.0802,34.3129,宝鸡市,竹园沟,颗粒物(PM10),100,150,97,44,39,55,,53,48,20,19,6,7,0.5,0.5
2026-02-10T1100,1933A,107.1429,34.3549,宝鸡市,监测站,颗粒物(PM10),107,164,134,32,34,41,,60,45,26,26,6,6,0.4,0.5
2026-02-10T1100,1934A,107.1172,34.3759,宝鸡市,技工学校,颗粒物(PM10),111,172,123,62,41,44,,60,48,18,24,,7,,0.5
2026-02-10T1100,1936A,107.2025,34.3518,宝鸡市,文理学院,颗粒物(PM10),102,154,119,44,43,49,,64,49,19,22,4,5,0.4,0.4
2026-02-10T1100,1937A,107.2396,34.3626,宝鸡市,三迪小学,颗粒物(PM10),113,176,128,43,42,44,,60,42,31,33,5,4,0.6,0.6
2026-02-10T1100,4155A,107.1721,34.3558,宝鸡市,滨河北路,颗粒物(PM10),116,182,115,48,38,42,,57,42,15,18,5,5,0.5,0.5
2026-02-10T1100,4308A,107.3898,34.3601,宝鸡市,陈仓区北开路21号,颗粒物(PM10),137,223,149,59,47,62,,66,53,34,25,74,10,0.8,0.5
2026-02-10T1100,1051A,115.4803,38.8568,保定市,游泳馆,细颗粒物(PM2.5),219,197,156,169,128,19,,9,9,74,65,11,10,1.9,1.3
2026-02-10T1100,1052A,115.509,38.8895,保定市,华电二区,细颗粒物(PM2.5),190,165,133,143,108,4,,0,0,75,62,6,7,1.7,1.4
2026-02-10T1100,1053A,115.4588,38.9037,保定市,接待中心,细颗粒物(PM2.5),193,186,144,145,114,11,,5,5,72,60,6,6,1.5,1.1
2026-02-10T1100,1054A,115.4484,38.8344,保定市,地表水厂,细颗粒物(PM2.5),219,236,183,169,125,17,,6,6,69,66,8,8,1.5,1.1
2026-02-10T1100,3581A,115.3136,38.9511,保定市,满城区生态环境分局,细颗粒物(PM2.5),175,197,156,132,107,21,,4,4,63,71,10,8,1.6,1.3
2026-02-10T1100,3582A,115.4709,38.7628,保定市,清苑区第二中学,细颗粒物(PM2.5),186,225,193,140,123,29,,9,9,48,59,12,12,1.5,1.2
2026-02-10T1100,3583A,115.6231,39.0223,保定市,徐水物探局,细颗粒物(PM2.5),159,206,193,121,122,15,,4,4,57,57,19,16,1.4,1.2
2026-02-10T1100,4004A,115.4199,38.8665,保定市,双鹰农机,细颗粒物(PM2.5),231,294,206,181,130,28,,17,17,58,57,8,7,1.6,1.2
2026-02-10T1100,4034A,115.515,38.8589,保定市,植保所站,细颗粒物(PM2.5),205,195,156,155,112,10,,3,3,76,69,7,7,1.5,1.1
2026-02-10T1100,2594A,99.1589,25.1137,保山市,市环境监测站,,50,50,33,26,19,76,,79,69,19,9,5,4,0.7,0.4
2026-02-10T1100,2595A,99.1616,25.1381,保山市,市环保局,,47,47,35,21,18,77,,86,75,15,6,4,3,0.8,0.6
2026-02-10T1100,1867A,109.1435,21.4085,北海市,海滩公园,,45,45,46,21,15,85,,83,83,12,10,3,3,0.6,0.5
2026-02-10T1100,1868A,109.0983,21.466,北海市,新市环保局,,46,46,47,21,16,77,,77,76,13,12,7,7,0.6,0.6
2026-02-10T1100,1869A,109.1775,21.5232,北海市,北海工业园,颗粒物(PM10),58,65,51,26,18,76,,75,74,10,9,6,6,0.8,0.6
2026-02-10T1100,3400A,109.1844,21.4396,北海市,龙潭自来水厂,,,49,47,26,18,,,76,75,9,8,5,5,0.7,0.6
2026-02-10T1100,1001A,116.3611,39.8786,北京市,万寿西宫,颗粒物(PM10),67,84,139,46,96,39,,10,10,43,69,5,5,0.8,1.1
2026-02-10T1100,1003A,116.4174,39.9289,北京市,东四,颗粒物(PM10),71,92,135,51,91,31,,8,8,46,63,7,8,0.8,1
2026-02-10T1100,1004A,116.4073,39.8858,北京市,天坛,"颗粒物(PM10),细颗粒物(PM2.5)",68,86,135,49,92,35,,8,8,46,61,5,3,0.8,1
2026-02-10T1100,1005A,116.4622,39.9364,北京市,农展馆,细颗粒物(PM2.5),88,108,142,65,98,34,,8,8,40,57,9,8,0.8,1
2026-02-10T1100,1006A,116.3399,39.9293,北京市,官园,颗粒物(PM10),70,89,127,43,85,31,,7,7,47,66,4,6,0.7,1
2026-02-10T1100,1007A,116.2879,39.9613,北京市,海淀万柳,细颗粒物(PM2.5),74,88,117,54,79,28,,6,6,48,68,5,5,0.7,0.9
2026-02-10T1100,1008A,116.6635,40.1349,北京市,顺义新城,细颗粒物(PM2.5),137,156,157,104,103,48,,13,13,33,62,9,8,0.9,1
2026-02-10T1100,1009A,116.6275,40.327,北京市,怀柔镇,细颗粒物(PM2.5),138,154,119,105,83,38,,16,16,37,60,7,7,1.0,1
2026-02-10T1100,1010A,116.2295,40.217,北京市,昌平镇,颗粒物(PM10),76,101,93,39,59,64,,18,18,12,49,5,4,0.4,0.8
2026-02-10T1100,1011A,116.3968,39.982,北京市,奥体中心,细颗粒物(PM2.5),82,99,126,60,87,28,,7,7,57,76,8,8,0.7,0.9
2026-02-10T1100,3418A,116.8336,40.4095,北京市,密云新城,细颗粒物(PM2.5),130,133,152,99,101,56,,23,23,23,49,7,6,0.7,0.8
2026-02-10T1100,3671A,116.0879,39.9725,北京市,门头沟三家店,颗粒物(PM10),71,92,110,42,63,52,,11,11,22,54,6,4,0.5,0.8
2026-02-10T1100,3672A,116.1507,39.8246,北京市,丰台云岗,细颗粒物(PM2.5),114,137,130,86,83,23,,10,10,60,63,5,4,1.0,0.9
2026-02-10T1100,3674A,115.9578,39.7602,北京市,房山燕山,细颗粒物(PM2.5),119,129,110,90,75,40,,16,16,56,58,7,5,0.8,0.8
2026-02-10T1100,3675A,116.4669,39.7734,北京市,大兴旧宫,细颗粒物(PM2.5),100,121,182,75,115,19,,5,5,72,55,7,5,1.3,1.1
2026-02-10T1100,3694A,115.9859,40.4562,北京市,延庆石河营,颗粒物(PM10),73,95,85,49,55,45,,12,12,25,48,6,6,0.7,0.9
2026-02-10T1100,3695A,116.6151,40.3052,北京市,怀柔新城,细颗粒物(PM2.5),152,148,121,116,87,42,,20,20,38,54,5,5,0.9,0.8
2026-02-10T1100,3696A,116.2542,39.8764,北京市,丰台小屯,细颗粒物(PM2.5),87,114,132,64,83,32,,6,6,46,71,6,5,0.7,1
2026-02-10T1100,3697A,116.8399,40.3843,北京市,密云镇,细颗粒物(PM2.5),140,147,148,107,105,41,,12,12,32,56,5,5,1.0,1
2026-02-10T1100,4057A,115.9423,40.4431,北京市,延庆百泉,颗粒物(PM10),71,92,78,42,50,52,,11,11,17,44,5,4,0.5,0.8
2026-02-10T1100,4058A,116.6598,39.9164,北京市,通州新华,细颗粒物(PM2.5),127,147,165,96,102,27,,7,7,65,69,7,6,1.1,1.1
2026-02-10T1100,4182A,116.1942,39.9158,北京市,石景山八角,细颗粒物(PM2.5),98,120,125,73,76,36,,12,12,44,58,7,4,0.7,0.7
2026-02-10T1100,4194A,117.078628,40.151726,北京市,平谷新城,细颗粒物(PM2.5),153,150,165,117,121,54,,26,26,25,36,7,6,0.9,1
2026-02-10T1100,1761A,123.8274146,41.31234549,本溪市,大峪,细颗粒物(PM2.5),68,78,85,49,45,70,,77,68,21,20,11,10,0.8,0.8
2026-02-10T1100,1763A,123.7169,41.3094,本溪市,彩屯,细颗粒物(PM2.5),83,84,90,61,59,55,,49,46,28,35,16,18,2.4,2.9
2026-02-10T1100,1764A,123.7672166,41.28649327,本溪市,东明,,,56,68,50,49,,,82,75,,16,8,8,1.0,0.9
2026-02-10T1100,1765A,123.799345,41.266614,本溪市,新立屯,细颗粒物(PM2.5),68,60,62,49,46,74,,84,77,15,13,11,12,0.8,0.8
2026-02-10T1100,1766A,123.829144,41.336777,本溪市,威宁,细颗粒物(PM2.5),72,87,80,52,48,61,,59,52,24,24,14,10,0.8,0.8
2026-02-10T1100,2587A,105.287,27.3133,毕节市,八中,,15,,36,10,26,42,,37,37,10,16,8,9,0.8,0.9
2026-02-10T1100,2588A,105.3079,27.2987,毕节市,师专,,15,,32,7,22,45,,41,41,12,16,8,9,0.7,0.8
2026-02-10T1100,4263A,105.3688,27.3598,毕节市,工业大道,,15,6,25,3,21,47,,42,42,9,11,9,9,/,/
2026-02-10T1100,1629A,117.9961,37.3604,滨州市,第二水厂,细颗粒物(PM2.5),72,61,63,52,43,51,,44,43,20,29,12,13,0.6,0.6
2026-02-10T1100,1630A,117.9789,37.3931,滨州市,北中新校,细颗粒物(PM2.5),72,68,61,52,38,43,,43,38,22,25,8,8,0.6,0.7
2026-02-10T1100,3514A,117.9379,37.3959,滨州市,中海酒店,,,,57,,38,,,53,49,24,31,10,12,0.8,0.8
2026-02-10T1100,3515A,117.9381509,37.35547456,滨州市,开发区一中,细颗粒物(PM2.5),72,66,68,52,38,51,,42,41,18,30,15,15,0.7,0.7
2026-02-10T1100,3516A,118.0914,37.6938,滨州市,金海六路,细颗粒物(PM2.5),75,,73,55,51,49,,39,38,23,37,7,11,0.5,0.6
2026-02-10T1100,4028A,117.9955,37.3752,滨州市,滨州市西街道办事处,,,53,55,44,40,,,50,48,16,23,,12,0.5,0.5
2026-02-10T1100,2311A,115.8071,33.8399,亳州市,污水处理厂,细颗粒物(PM2.5),80,66,52,59,40,46,,49,41,11,12,4,4,0.4,0.4
2026-02-10T1100,2312A,115.7789,33.8519,亳州市,三国揽胜宫,,,76,60,60,40,,,46,37,19,21,4,4,0.6,0.5
2026-02-10T1100,3332A,115.7631,33.803,亳州市,亳州学院,细颗粒物(PM2.5),80,75,56,59,40,41,,41,34,13,15,3,3,0.5,0.4
2026-02-10T1100,2693A,82.0482,44.8553,博尔塔拉蒙古自治州,市党校,,47,47,40,17,17,65,,65,63,9,16,2,2,0.8,0.8
2026-02-10T1100,2694A,82.0805,44.8966,博尔塔拉蒙古自治州,市环保局,颗粒物(PM10),53,56,56,22,18,42,,58,56,41,26,5,4,1.1,0.9
2026-02-10T1100,1071A,116.8733,38.2922,沧州市,沧县城建局,,,74,86,,59,39,,47,45,,24,6,7,0.6,0.5
2026-02-10T1100,1072A,116.8462,38.3189,沧州市,电视转播站,细颗粒物(PM2.5),93,78,83,69,60,45,,49,46,20,22,8,6,0.6,0.6
2026-02-10T1100,1073A,116.8588,38.3161,沧州市,市环保局,细颗粒物(PM2.5),84,82,86,62,54,37,,38,38,20,23,6,8,0.4,0.4
2026-02-10T1100,3324A,116.8011,38.294,沧州市,河北水利电力学院,细颗粒物(PM2.5),95,83,87,71,57,39,,39,39,17,23,6,7,0.5,0.5
2026-02-10T1100,2622A,97.1813,31.1289,昌都市,昌都监测站,,22,19,35,15,18,46,,41,41,11,14,4,4,0.7,0.8
2026-02-10T1100,3719A,97.1707,31.1428,昌都市,昌都会议中心,,20,17,13,14,8,46,,47,44,4,2,5,5,0.5,0.4
2026-02-10T1100,2692A,87.2722,44.0298,昌吉回族自治州,新区政务中心,细颗粒物(PM2.5),55,56,56,39,38,44,,74,62,29,17,3,3,1.1,0.8
2026-02-10T1100,3613A,87.3069,44.0093,昌吉回族自治州,亚心广场,细颗粒物(PM2.5),60,61,61,43,46,55,,79,68,23,17,7,8,1.0,0.8
2026-02-10T1100,4164A,87.2057,43.9289,昌吉回族自治州,财政所,颗粒物(PM10),55,60,68,36,53,59,,71,67,10,16,5,5,0.6,0.7
2026-02-10T1100,1120A,125.2874,43.9024,长春市,客车厂,细颗粒物(PM2.5),104,80,76,78,67,45,,53,46,46,36,14,13,1.1,1
2026-02-10T1100,1121A,125.2943,43.8508,长春市,邮电学院,细颗粒物(PM2.5),95,72,70,71,58,47,,58,54,42,30,16,13,1.1,0.9
2026-02-10T1100,1122A,125.3648,43.8745,长春市,劳动公园,细颗粒物(PM2.5),84,88,78,62,54,52,,55,54,38,25,11,7,1.1,0.7
2026-02-10T1100,1123A,125.3233,43.8781,长春市,园林处,细颗粒物(PM2.5),103,,67,77,59,45,,65,58,37,25,14,12,1.0,0.8
2026-02-10T1100,1124A,125.4604,43.7904,长春市,净月潭,细颗粒物(PM2.5),85,71,58,63,48,69,,71,70,23,15,9,8,0.8,0.6
2026-02-10T1100,1126A,125.38,43.8422,长春市,经开区环卫处,细颗粒物(PM2.5),94,78,67,70,55,47,,42,38,42,37,9,7,1.0,0.8
2026-02-10T1100,1127A,125.234,43.7761,长春市,高新区管委会,细颗粒物(PM2.5),110,100,69,83,56,43,,37,37,,35,13,10,1.1,0.9
2026-02-10T1100,1128A,125.1695,43.83,长春市,岱山公园,细颗粒物(PM2.5),120,108,74,91,64,47,,53,38,45,42,12,10,0.9,0.8
2026-02-10T1100,4281A,125.334645,43.916281,长春市,北亚泰大街1068号,细颗粒物(PM2.5),98,84,80,73,65,40,,44,38,43,38,16,12,1.2,1
2026-02-10T1100,1335A,113.082,28.2421,长沙市,经开区环保局,,46,46,52,27,38,33,,27,23,23,26,2,3,0.4,0.5
2026-02-10T1100,1336A,112.8873,28.2202,长沙市,高开区环保局,细颗粒物(PM2.5),65,60,58,47,50,19,,23,19,28,24,4,5,1.0,0.8
2026-02-10T1100,1337A,113.0785,28.2012,长沙市,马坡岭,细颗粒物(PM2.5),59,56,53,42,48,20,,32,24,28,19,4,4,0.9,0.7
2026-02-10T1100,1338A,112.9448,28.1894,长沙市,湖南师范大学,细颗粒物(PM2.5),54,49,55,38,40,36,,29,29,25,23,4,4,0.8,0.7
2026-02-10T1100,1339A,113.0177,28.1322,长沙市,雨花区环保局,细颗粒物(PM2.5),52,50,49,36,40,18,,22,20,32,22,7,7,0.9,0.8
2026-02-10T1100,1340A,112.9795,28.2593,长沙市,伍家岭,细颗粒物(PM2.5),58,51,54,41,41,18,,23,20,25,25,4,4,0.7,0.7
2026-02-10T1100,1341A,113.002,28.1944,长沙市,火车新站,细颗粒物(PM2.5),59,56,53,42,44,23,,26,26,30,26,1,1,0.7,0.6
2026-02-10T1100,1342A,112.9846,28.1177,长沙市,天心区环保局,细颗粒物(PM2.5),60,47,50,43,42,25,,29,27,30,27,5,5,0.9,0.8
2026-02-10T1100,1343A,112.8906,28.1307,长沙市,湖南中医药大学,,,62,55,41,41,,,24,21,,27,5,6,1.0,0.8
2026-02-10T1100,1727A,113.1146,36.1547,长治市,清华站,细颗粒物(PM2.5),70,84,70,51,61,42,,22,22,27,33,11,10,0.8,0.8
2026-02-10T1100,1730A,113.0887,36.2126,长治市,审计局,细颗粒物(PM2.5),85,81,62,63,59,38,,23,22,26,33,16,12,0.8,0.8
2026-02-10T1100,1731A,113.0845,36.1856,长治市,长治八中,细颗粒物(PM2.5),98,83,75,73,59,35,,24,24,24,27,16,11,0.8,0.8
2026-02-10T1100,2845A,113.1561,36.1912,长治市,德盛苑,细颗粒物(PM2.5),97,79,68,72,63,48,,29,29,23,27,10,9,0.7,0.8
2026-02-10T1100,3568A,113.0603,36.0464,长治市,向阳小学,颗粒物(PM10),80,110,90,50,58,60,,27,27,21,32,12,12,0.7,0.8
2026-02-10T1100,3569A,112.8788,36.315,长治市,屯留一中,细颗粒物(PM2.5),68,81,59,49,52,43,,26,26,28,34,8,10,0.2,0.4
2026-02-10T1100,4189A,113.113092,36.199482,长治市,英华南巷50号,细颗粒物(PM2.5),69,74,66,50,60,40,,26,26,24,29,10,10,0.7,0.7
2026-02-10T1100,4190A,113.23666,36.33435,长治市,学府街1号,细颗粒物(PM2.5),98,85,84,73,70,36,,27,27,27,36,8,13,1.0,1.3
2026-02-10T1100,1854A,111.696,28.9725,常德市,市二中,细颗粒物(PM2.5),72,55,62,52,53,24,,22,22,20,20,5,5,1.0,1
2026-02-10T1100,3138A,111.7152,29.0288,常德市,武陵区永安,细颗粒物(PM2.5),63,58,65,45,54,35,,21,19,21,19,4,4,0.9,0.9
2026-02-10T1100,3139A,111.6891,28.9881,常德市,鼎城区玉霞,细颗粒物(PM2.5),67,60,62,48,51,26,,20,20,24,25,4,4,1.0,0.9
2026-02-10T1100,3140A,111.6651,29.0526,常德市,武陵区长庚,细颗粒物(PM2.5),75,64,59,55,49,20,,25,18,23,19,7,4,0.8,0.7
2026-02-10T1100,1196A,119.9524,31.7586,常州市,市监测站,细颗粒物(PM2.5),74,82,61,54,35,49,,50,44,18,26,6,6,0.5,0.4
2026-02-10T1100,1200A,119.9351,31.703,常州市,武进监测站,细颗粒物(PM2.5),74,69,49,54,36,42,,53,47,22,20,7,5,1.1,0.9
2026-02-10T1100,3002A,119.9701,31.813,常州市,行政中心,细颗粒物(PM2.5),74,58,50,54,36,42,,50,41,23,29,4,6,0.7,0.7
2026-02-10T1100,3003A,120.0434,31.7726,常州市,经开区,,,85,66,51,34,,,52,47,9,18,3,3,0.9,0.8
2026-02-10T1100,3010A,119.8919,31.7892,常州市,钟楼,细颗粒物(PM2.5),69,73,57,50,36,49,,45,40,18,24,7,7,0.8,0.6
2026-02-10T1100,3429A,119.8595,31.706,常州市,武进经发区,细颗粒物(PM2.5),78,67,53,57,42,53,,43,43,14,24,5,6,0.9,0.7
2026-02-10T1100,3430A,119.5812,31.7256,常州市,金坛城区,细颗粒物(PM2.5),90,74,60,67,49,53,,50,42,12,17,6,6,0.7,0.5
2026-02-10T1100,4089A,119.9551,31.863,常州市,崇义南街5-H号,细颗粒物(PM2.5),74,60,44,54,35,45,,45,37,19,29,4,5,0.8,0.7
2026-02-10T1100,2220A,120.4318,41.588,朝阳市,西梁,颗粒物(PM10),84,118,97,57,71,68,,58,52,25,32,11,12,0.9,1.1
2026-02-10T1100,2221A,120.452,41.565,朝阳市,河畔小区,,,91,75,45,61,71,,60,60,15,24,11,13,,1.1
2026-02-10T1100,2222A,120.4176,41.5648,朝阳市,八里堡,细颗粒物(PM2.5),85,90,82,63,68,61,,52,47,28,36,14,16,1.1,1.5
2026-02-10T1100,3026A,116.6179,23.6608,潮州市,市政府,,46,46,39,30,20,68,,66,61,15,9,4,4,0.5,0.3
2026-02-10T1100,4036A,116.646,23.676,潮州市,金山,颗粒物(PM10),51,52,39,27,18,75,,66,61,14,13,3,3,0.5,0.4
2026-02-10T1100,2473A,113.0116,25.8228,郴州市,市职中,细颗粒物(PM2.5),72,55,52,52,47,13,,15,9,11,12,11,6,0.6,0.6
2026-02-10T1100,2475A,113.0381,25.8074,郴州市,市审计局,细颗粒物(PM2.5),67,64,51,48,41,18,,16,12,13,16,9,3,/,/
2026-02-10T1100,2476A,113.0348,25.7757,郴州市,市环保局,细颗粒物(PM2.5),80,79,68,59,47,25,,21,18,20,20,24,6,0.7,0.5
2026-02-10T1100,4252A,113.0138,25.8011,郴州市,好美居路49号,细颗粒物(PM2.5),64,50,48,46,42,29,,26,22,18,19,9,7,/,/
2026-02-10T1100,1431A,103.9727,30.7242,成都市,金泉两河,颗粒物(PM10),60,70,54,41,36,39,,12,10,26,31,2,1,0.8,0.8
2026-02-10T1100,1432A,104.1423,30.6765,成都市,十里店,细颗粒物(PM2.5),72,65,80,52,42,20,,23,15,30,21,3,3,0.8,0.5
2026-02-10T1100,1433A,104.0594,30.5765,成都市,三瓦窑,细颗粒物(PM2.5),65,,51,47,41,36,,15,9,30,30,2,2,0.7,0.7
2026-02-10T1100,1434A,104.1122,30.6306,成都市,沙河铺,细颗粒物(PM2.5),62,49,63,44,44,33,,15,12,35,32,3,3,0.5,0.4
2026-02-10T1100,2880A,104.0219,30.6561,成都市,大石西路,细颗粒物(PM2.5),72,54,72,52,44,31,,17,12,32,22,5,4,0.7,0.6
2026-02-10T1100,3136A,104.2724,30.559,成都市,龙泉驿区区政府,细颗粒物(PM2.5),64,51,52,46,39,36,,17,17,21,18,6,6,0.4,0.3
2026-02-10T1100,3357A,104.0028,30.6891,成都市,金博路,,48,43,52,33,37,28,,18,12,35,29,4,4,0.9,0.8
2026-02-10T1100,3359A,104.056,30.5228,成都市,华阳,细颗粒物(PM2.5),64,63,55,46,39,49,,20,19,25,28,3,2,0.2,0.2
2026-02-10T1100,3488A,104.387954,30.746684,成都市,青石路225号,细颗粒物(PM2.5),82,80,74,60,44,34,,9,6,22,24,2,2,0.6,0.6
2026-02-10T1100,3489A,104.0788,30.4054,成都市,科学城,细颗粒物(PM2.5),70,66,55,51,40,26,,14,14,16,16,6,6,1.0,0.9
2026-02-10T1100,4011A,103.8505,30.6946,成都市,光华大道三段,,,,56,,29,46,,19,14,,27,2,2,0.7,0.6
2026-02-10T1100,4144A,104.3257,30.6406,成都市,八角井街185号,细颗粒物(PM2.5),77,,66,56,43,32,,12,12,24,21,3,4,0.7,0.7
2026-02-10T1100,4224A,104.2433276,30.53529463,成都市,鲸龙路1057号,,,58,54,,37,,,18,12,,21,5,4,0.6,0.5
2026-02-10T1100,1062A,117.9531,40.908,承德市,铁路,细颗粒物(PM2.5),94,132,107,70,65,33,,10,10,41,47,13,12,1.2,1.4
2026-02-10T1100,1063A,117.9397,40.9763,承德市,中国银行,,,128,85,,50,30,,9,9,,45,7,6,1.3,1.2
2026-02-10T1100,4073A,117.9462,40.95,承德市,杏林街1号,细颗粒物(PM2.5),102,128,87,76,57,34,,12,12,44,46,8,9,1.3,1.3
2026-02-10T1100,4274A,117.7994,40.9605,承德市,滨河大街98号,细颗粒物(PM2.5),82,87,88,60,63,50,,16,16,40,46,16,10,0.8,1.2
2026-02-10T1100,2314A,117.4698,30.6617,池州市,池州学院,细颗粒物(PM2.5),58,47,54,41,44,67,,51,51,12,21,5,5,1.1,1
2026-02-10T1100,3237A,117.4918,30.6617,池州市,展览馆,细颗粒物(PM2.5),53,47,58,37,41,68,,50,50,15,22,3,4,0.7,1
2026-02-10T1100,3333A,117.5626,30.695,池州市,第八中学,,,36,54,29,40,,,48,,,22,,5,,0.9
2026-02-10T1100,3334A,117.5037,30.6242,池州市,第十二中学,细颗粒物(PM2.5),55,47,57,39,41,64,,48,48,19,28,4,6,0.8,1
2026-02-10T1100,1744A,118.9229,42.2816,赤峰市,松山一中,,49,49,52,3,27,63,,29,29,13,28,5,7,0.7,1.1
2026-02-10T1100,1745A,118.9588,42.2733,赤峰市,哈达街,,49,49,45,10,24,65,,38,38,10,22,11,11,0.5,0.8
2026-02-10T1100,1746A,118.8792,42.2551,赤峰市,天义路,,23,23,25,9,22,68,,47,47,7,16,10,6,0.4,0.6
2026-02-10T1100,3058A,119.2656,42.0356,赤峰市,银河街,颗粒物(PM10),56,62,79,24,41,66,,43,43,12,23,15,15,0.7,1.1
2026-02-10T1100,3286A,118.9359,42.3146,赤峰市,桥北物流园区,,40,40,39,13,29,79,,37,37,8,28,4,5,0.5,0.8
2026-02-10T1100,2521A,107.3473,22.4137,崇左市,市环保局江州分局,细颗粒物(PM2.5),52,40,41,36,34,14,,16,12,15,16,4,5,0.9,0.9
2026-02-10T1100,4256A,107.375,22.3736,崇左市,石景林东路7号,细颗粒物(PM2.5),57,,39,40,38,20,,18,14,18,20,2,2,0.8,0.8
2026-02-10T1100,3207A,118.31131,32.3033,滁州市,市政府原办公楼,细颗粒物(PM2.5),62,,43,44,38,72,,60,60,9,20,4,5,0.4,0.4
2026-02-10T1100,3331A,118.3268,32.2633,滁州市,图书馆,,,42,34,38,29,,,52,51,4,16,8,8,0.4,0.5
2026-02-10T1100,4101A,118.3196,32.3335,滁州市,银山路666号,细颗粒物(PM2.5),68,,37,49,42,68,,58,58,5,13,8,8,0.5,0.5
2026-02-10T1100,4102A,118.3426,32.2979,滁州市,黄山路555号,细颗粒物(PM2.5),65,48,47,47,39,76,,57,57,6,15,5,5,0.4,0.4
2026-02-10T1100,2606A,101.5379,25.0492,楚雄彝族自治州,市经济开发区,,33,27,23,23,15,71,,68,54,11,8,3,2,0.6,0.6
2026-02-10T1100,4153A,101.5536,25.0343,楚雄彝族自治州,团结路562号,,,37,22,14,12,64,,69,51,11,6,,4,0.8,0.6
2026-02-10T1100,2549A,107.5087,31.2186,达州市,市环境监测站,细颗粒物(PM2.5),69,76,63,50,37,23,,10,10,29,26,16,6,0.5,0.4
2026-02-10T1100,2550A,107.4988,31.2132,达州市,凤凰小区,细颗粒物(PM2.5),67,75,63,48,35,24,,16,16,29,30,16,5,0.6,0.4
2026-02-10T1100,2551A,107.5081,31.1987,达州市,达县机关宾馆,细颗粒物(PM2.5),69,80,72,50,48,22,,12,12,36,32,16,4,0.7,0.6
2026-02-10T1100,2552A,107.4644,31.2124,达州市,市政中心,,,,72,56,35,24,,8,8,32,35,10,4,0.6,0.6
2026-02-10T1100,2614A,100.2168,25.5818,大理白族自治州,大理市环境监测站,,29,23,22,20,17,76,,80,78,9,8,7,7,0.5,0.4
2026-02-10T1100,2615A,100.1542,25.7055,大理白族自治州,大理古城,,27,23,22,11,14,86,,64,64,5,8,8,8,0.5,0.4
2026-02-10T1100,1109A,121.6119,38.974,大连市,甘井子,细颗粒物(PM2.5),88,86,74,65,50,53,,51,46,28,32,13,12,0.6,0.5
2026-02-10T1100,1110A,121.565,38.9509,大连市,周水子,细颗粒物(PM2.5),85,80,68,63,49,50,,49,40,28,29,12,12,0.6,0.6
2026-02-10T1100,1111A,121.5637,38.8849,大连市,星海三站,,,74,61,72,49,50,,48,41,24,23,,9,0.6,0.6
2026-02-10T1100,1112A,121.6301,38.9117,大连市,青泥洼桥,细颗粒物(PM2.5),85,84,66,63,50,49,,60,52,31,24,13,10,0.9,0.7
2026-02-10T1100,1113A,121.6248,38.8643,大连市,傅家庄,细颗粒物(PM2.5),80,85,70,59,44,50,,62,54,25,21,12,9,1.1,0.9
2026-02-10T1100,1114A,121.5117,38.8636,大连市,七贤岭,细颗粒物(PM2.5),84,76,65,62,45,56,,59,51,25,26,13,12,0.8,0.8
2026-02-10T1100,1116A,121.7507,39.1339,大连市,金州,细颗粒物(PM2.5),88,82,71,65,53,51,,55,46,27,26,13,12,0.6,0.5
2026-02-10T1100,1117A,121.7811,39.0495,大连市,开发区,细颗粒物(PM2.5),85,79,71,63,48,43,,55,43,35,27,8,6,0.7,0.6
2026-02-10T1100,1118A,121.9762,39.0631,大连市,双D港,细颗粒物(PM2.5),70,80,63,51,46,51,,64,56,37,28,15,11,0.9,0.8
2026-02-10T1100,4082A,121.2548,38.8188,大连市,旅顺,细颗粒物(PM2.5),94,88,66,70,48,53,,49,44,19,22,9,10,0.7,0.7
2026-02-10T1100,1789A,124.8085,46.0381,大庆市,大同区,细颗粒物(PM2.5),98,88,115,73,84,80,,52,52,13,27,8,10,0.8,1
2026-02-10T1100,1790A,125.1166,46.5255,大庆市,龙凤区,细颗粒物(PM2.5),119,117,121,90,102,71,,41,41,28,40,10,10,0.8,0.8
2026-02-10T1100,1791A,124.8894,46.4007,大庆市,红岗区,细颗粒物(PM2.5),114,,102,86,90,,,32,32,10,42,11,8,1.0,1.2
2026-02-10T1100,1792A,125.1391,46.578,大庆市,萨尔图区,细颗粒物(PM2.5),123,130,133,93,95,54,,40,37,44,38,14,12,0.9,0.9
2026-02-10T1100,1793A,124.9026,46.6217,大庆市,让胡路区,细颗粒物(PM2.5),114,92,99,86,86,70,,54,54,20,36,9,9,0.8,0.9
2026-02-10T1100,3481A,125.127,46.6277,大庆市,萨区政府监测点,细颗粒物(PM2.5),119,132,125,90,90,65,,53,53,32,26,9,9,1.2,1.1
2026-02-10T1100,1723A,113.2926,40.0759,大同市,云冈宾馆,颗粒物(PM10),83,115,108,41,64,48,,16,16,22,57,9,23,0.6,1.4
2026-02-10T1100,1724A,113.3437,40.0921,大同市,大同大学,颗粒物(PM10),97,143,115,46,55,41,,20,20,36,57,11,27,1.0,1.3
2026-02-10T1100,1725A,113.2637,40.129,大同市,安家小村,颗粒物(PM10),99,148,136,55,68,38,,18,18,31,58,16,26,1.5,1.8
2026-02-10T1100,3282A,113.3399,40.0586,大同市,大同市卫生学校,颗粒物(PM10),96,142,110,47,58,38,,22,22,38,58,9,24,0.9,1.4
2026-02-10T1100,3565A,113.1371,40.1122,大同市,云冈站,颗粒物(PM10),102,154,114,42,47,48,,17,17,22,52,10,25,0.7,1.1
2026-02-10T1100,3566A,113.1186,40.2556,大同市,图书馆,颗粒物(PM10),87,123,97,41,54,53,,22,22,19,42,14,21,0.7,1.2
2026-02-10T1100,3567A,113.5931,40.0459,大同市,区一中,,,,105,,62,42,,16,16,29,46,32,34,1.3,1.2
2026-02-10T1100,4199A,113.2798248,40.09972476,大同市,魏都大道141号,颗粒物(PM10),110,169,140,51,74,31,,10,10,44,65,12,21,1.4,1.7
2026-02-10T1100,2269A,124.1068,50.4091,大兴安岭地区,科技局,,20,16,32,3,19,62,,57,57,3,8,7,7,0.2,0.3
2026-02-10T1100,3663A,124.117,50.4279,大兴安岭地区,红旗社区,,,19,33,7,21,63,,45,45,12,24,,9,,0.4
2026-02-10T1100,1600A,124.33,40.0625,丹东市,江湾东路,颗粒物(PM10),59,68,63,41,37,64,,64,63,16,15,12,10,0.8,0.7
2026-02-10T1100,1601A,124.4242,40.1513,丹东市,临江后街,细颗粒物(PM2.5),92,92,81,68,55,34,,29,23,46,34,19,13,1.4,1.1
2026-02-10T1100,1602A,124.3935,40.1461,丹东市,元宝山,,,102,72,66,45,30,,54,42,,25,22,16,,1.2
2026-02-10T1100,1603A,124.3634,40.1093,丹东市,民主桥,颗粒物(PM10),64,77,75,40,41,61,,55,51,18,21,13,14,0.6,0.7
2026-02-10T1100,3541A,109.5726195,19.51688767,儋州市,第一中学子站,,27,27,33,13,11,68,,68,66,2,2,4,4,0.6,0.6
2026-02-10T1100,3542A,109.5567,19.5187,儋州市,东坡学校子站,,40,40,36,11,11,73,,73,70,3,4,3,4,0.6,0.6
2026-02-10T1100,2616A,98.5611,24.4273,德宏傣族景颇族自治州,德宏州监测站,颗粒物(PM10),66,81,64,43,45,46,,22,16,23,25,7,6,0.6,0.8
2026-02-10T1100,3677A,98.5887,24.4366,德宏傣族景颇族自治州,芒市人民政府综合楼,细颗粒物(PM2.5),84,106,67,62,37,31,,43,33,34,15,5,4,1.0,0.8
2026-02-10T1100,1901A,104.424,31.1209,德阳市,东山公园,细颗粒物(PM2.5),73,,49,53,39,20,,14,13,22,17,1,1,0.8,0.7
2026-02-10T1100,1902A,104.3827,31.1318,德阳市,西小区,细颗粒物(PM2.5),114,,70,86,50,,,9,3,42,23,4,3,0.8,0.6
2026-02-10T1100,1904A,104.3553,31.1091,德阳市,耐火材料厂,细颗粒物(PM2.5),93,,61,69,51,20,,8,5,30,24,1,1,0.7,0.6
2026-02-10T1100,4145A,104.4144,31.1495,德阳市,市林业局,细颗粒物(PM2.5),89,69,57,66,46,17,,6,6,24,18,5,4,1.0,0.8
2026-02-10T1100,1622A,116.3034,37.4675,德州市,儿童乐园,细颗粒物(PM2.5),102,78,96,76,51,49,,,,16,22,,12,1.1,0.6
2026-02-10T1100,1624A,116.2992,37.4449,德州市,监理站,细颗粒物(PM2.5),87,85,88,64,51,57,,63,56,23,25,9,11,0.7,0.6
2026-02-10T1100,3066A,116.2722,37.438,德州市,九衢泉纯净水厂,细颗粒物(PM2.5),94,73,81,70,53,50,,54,48,21,25,6,6,0.8,0.8
2026-02-10T1100,3371A,116.3693,37.44,德州市,开发区人民医院,细颗粒物(PM2.5),88,85,91,65,53,55,,58,51,13,16,10,11,0.6,0.6
2026-02-10T1100,3511A,116.5687,37.3331,德州市,陵城艺术中心,,,83,74,71,48,42,,47,42,,28,10,12,1.0,0.8
2026-02-10T1100,4292A,116.352738,37.420875,德州市,新河东路,细颗粒物(PM2.5),77,75,89,56,44,50,,53,45,17,24,11,12,0.6,0.7
2026-02-10T1100,2621A,99.7054,27.8319,迪庆藏族自治州,迪庆州站,,40,40,24,28,14,69,,59,57,15,8,5,5,0.9,0.7
2026-02-10T1100,3180A,99.7122,27.8129,迪庆藏族自治州,质量技术监督局,,44,44,23,21,11,70,,68,60,14,8,6,5,0.7,0.5
2026-02-10T1100,4257A,104.6092,35.5962,定西市,将台街,颗粒物(PM10),105,160,142,44,44,55,,65,47,19,11,17,10,0.9,0.6
2026-02-10T1100,4309A,104.6159,35.5701,定西市,正龙路62号,颗粒物(PM10),103,155,145,41,37,59,,76,64,11,7,10,7,0.7,0.4
2026-02-10T1100,1390A,113.7943,23.0132,东莞市,东城石井,颗粒物(PM10),51,52,50,31,28,50,,61,56,31,23,4,4,0.6,0.5
2026-02-10T1100,1391A,113.7384,22.9659,东莞市,南城西平,,44,44,44,27,25,40,,43,38,37,30,6,6,0.5,0.5
2026-02-10T1100,3319A,113.7283,23.041,东莞市,万江金泰,,44,44,48,25,27,56,,60,56,24,21,5,5,0.8,0.7
2026-02-10T1100,4129A,113.8666,23.1062,东莞市,裕兴路,,42,42,50,21,25,53,,55,52,16,14,6,5,0.8,0.7
2026-02-10T1100,4130A,114.0076,22.9739,东莞市,教育路1号,颗粒物(PM10),52,53,51,28,24,48,,62,52,31,24,5,4,0.6,0.5
2026-02-10T1100,4131A,113.7981,22.8124,东莞市,长怡路1号,,36,36,44,17,20,69,,64,64,22,22,6,6,0.4,0.5
2026-02-10T1100,1666A,118.6612,37.4313,东营市,市环保局,细颗粒物(PM2.5),70,68,66,51,44,55,,50,50,31,35,17,16,0.7,0.8
2026-02-10T1100,3036A,118.6903,37.4337,东营市,开发区管委会,细颗粒物(PM2.5),64,58,66,46,40,51,,51,51,33,40,15,14,0.7,0.8
2026-02-10T1100,3365A,118.5721,37.5654,东营市,垦利区民丰路,细颗粒物(PM2.5),78,,60,57,44,51,,37,37,33,36,16,14,0.9,0.8
2026-02-10T1100,3498A,118.5063,37.8606,东营市,河口城区,细颗粒物(PM2.5),68,58,77,49,50,60,,45,45,21,33,6,10,0.9,0.9
2026-02-10T1100,3646A,118.4979,37.4623,东营市,胜利站,颗粒物(PM10),61,71,60,34,35,56,,43,43,38,47,16,13,0.7,0.6
2026-02-10T1100,3734A,118.5753,37.4405,东营市,理想之城,细颗粒物(PM2.5),64,68,63,46,38,61,,50,50,28,38,14,12,0.8,0.7
2026-02-10T1100,1591A,110.0024,39.8127,鄂尔多斯市,综合楼,颗粒物(PM10),75,100,155,17,32,71,,77,73,10,13,6,7,0.3,0.4
2026-02-10T1100,1592A,109.9485,39.8259,鄂尔多斯市,巴音孟克林场办事处,,,92,144,24,34,74,,79,75,,12,,6,0.4,0.5
2026-02-10T1100,1593A,109.7734,39.5987,鄂尔多斯市,康泽苑,颗粒物(PM10),86,122,136,19,32,81,,84,82,6,10,6,7,0.3,0.4
2026-02-10T1100,1594A,109.8121,39.5987,鄂尔多斯市,华泰汽车城,颗粒物(PM10),90,129,137,22,31,80,,84,82,7,11,8,9,0.3,0.4
2026-02-10T1100,1595A,109.9734,39.7884,鄂尔多斯市,奥林花园,颗粒物(PM10),75,100,160,19,30,72,,80,75,12,13,4,4,0.2,0.3
2026-02-10T1100,2436A,114.894,30.3989,鄂州市,市政府,细颗粒物(PM2.5),68,53,52,49,43,45,,27,27,23,26,9,6,0.9,0.8
2026-02-10T1100,2437A,114.8986,30.3714,鄂州市,赵家坝,细颗粒物(PM2.5),68,70,56,49,44,61,,29,29,10,18,9,8,0.7,0.8
2026-02-10T1100,3654A,114.8093,30.4091,鄂州市,精准医疗中心,细颗粒物(PM2.5),62,63,72,44,48,62,,33,33,10,28,4,9,0.7,1
2026-02-10T1100,2454A,109.4978,30.2979,恩施土家族苗族自治州,湖北民院,细颗粒物(PM2.5),59,60,52,42,48,37,,27,24,12,14,6,6,0.7,0.7
2026-02-10T1100,3549A,109.5061,30.3771,恩施土家族苗族自治州,龙凤新区,细颗粒物(PM2.5),53,49,49,37,42,28,,26,23,14,11,7,7,0.6,0.6
2026-02-10T1100,2499A,108.3411,21.6159,防城港市,沙万,颗粒物(PM10),86,121,70,49,42,26,,34,33,22,18,6,7,0.8,0.8
2026-02-10T1100,2500A,108.3515,21.7733,防城港市,防城档案局,颗粒物(PM10),98,146,64,48,41,29,,33,32,12,12,5,5,0.6,0.6
2026-02-10T1100,2501A,108.3506,21.6414,防城港市,大海花园,颗粒物(PM10),84,117,66,60,46,25,,35,32,22,16,7,7,0.8,0.7
2026-02-10T1100,1371A,113.1293,23.0065,佛山市,湾梁,颗粒物(PM10),51,51,50,28,31,41,,40,37,36,32,/,/,/,/
2026-02-10T1100,1372A,113.1082,23.0477,佛山市,华材职中,颗粒物(PM10),52,53,51,30,28,46,,47,42,37,31,6,5,0.4,0.4
2026-02-10T1100,1373A,113.1439,23.045,佛山市,南海气象局,,45,45,47,27,31,46,,42,38,34,32,/,/,/,/
2026-02-10T1100,1374A,113.2879,22.8094,佛山市,顺德苏岗,,40,40,44,27,26,50,,40,39,36,34,/,/,0.7,0.6
2026-02-10T1100,1376A,112.8384,22.8678,佛山市,高明孔堂,颗粒物(PM10),60,69,48,35,28,19,,42,27,49,31,/,/,/,/
2026-02-10T1100,1377A,112.8835,23.1584,佛山市,三水监测站,细颗粒物(PM2.5),64,75,57,46,33,24,,30,25,35,30,2,2,0.6,0.5
2026-02-10T1100,1378A,112.8668,23.185,佛山市,三水云东海,颗粒物(PM10),56,62,50,39,32,24,,31,26,35,28,/,/,/,/
2026-02-10T1100,3625A,113.2568,22.7629,佛山市,容桂街道办,,46,46,45,25,26,49,,46,45,32,27,/,/,/,/
2026-02-10T1100,1282A,119.2681,26.0506,福州市,师大,,,23,30,8,9,75,,59,59,,16,4,3,,0.4
2026-02-10T1100,1283A,119.2983,26.1028,福州市,五四北路,,26,26,28,13,9,68,,50,48,16,17,4,4,0.4,0.4
2026-02-10T1100,1284A,119.2648,26.0769,福州市,杨桥西路,,24,18,27,11,10,74,,54,54,13,16,4,4,/,/
2026-02-10T1100,3048A,119.5799,26.0937,福州市,九龙,,24,24,26,13,8,70,,53,52,17,15,4,4,0.4,0.6
2026-02-10T1100,3526A,119.5188,25.9666,福州市,吴航,,24,24,23,14,10,73,,56,56,16,16,5,6,0.5,0.6
2026-02-10T1100,4104A,119.3106,26.0648,福州市,路通桥巷6号,,,30,37,17,14,,,49,47,,16,/,/,/,/
2026-02-10T1100,1755A,123.7974,41.8494,抚顺市,望花区,细颗粒物(PM2.5),87,83,88,64,57,60,,66,63,26,25,23,29,1.0,0.8
2026-02-10T1100,1756A,123.9161,41.8827,抚顺市,顺城区,细颗粒物(PM2.5),79,75,68,58,50,68,,63,63,28,27,14,13,1.1,0.9
2026-02-10T1100,1757A,124.0437,41.8615,抚顺市,东洲区,,,,78,50,45,,,79,75,15,14,15,16,0.7,0.7
2026-02-10T1100,1758A,123.9246,41.8638,抚顺市,新抚区,细颗粒物(PM2.5),82,86,86,60,55,71,,57,54,22,28,11,10,0.6,0.6
2026-02-10T1100,1759A,124.0972,41.8961,抚顺市,大伙房水库,细颗粒物(PM2.5),70,64,63,51,44,80,,84,82,14,12,12,11,0.7,0.7
2026-02-10T1100,1760A,123.708,41.8386,抚顺市,沈抚新城,,,,79,59,49,55,,67,62,,28,13,11,,0.7
2026-02-10T1100,2377A,116.3544,27.9833,抚州市,市站,细颗粒物(PM2.5),55,42,45,39,42,40,,39,38,15,16,4,5,1.3,1.3
2026-02-10T1100,2378A,116.3562,27.9631,抚州市,血防站,细颗粒物(PM2.5),63,51,52,45,40,32,,31,29,13,15,5,5,1.7,1.4
2026-02-10T1100,2379A,116.3561,28.0007,抚州市,采茶剧团,细颗粒物(PM2.5),62,46,46,44,37,33,,28,28,8,12,4,5,1.1,1.1
2026-02-10T1100,2380A,116.3854,27.9648,抚州市,医学分院,细颗粒物(PM2.5),58,53,56,41,37,35,,33,32,13,15,5,5,0.9,0.9
2026-02-10T1100,2207A,121.6095,41.9978,阜新市,工业园区,颗粒物(PM10),62,73,109,34,72,68,,42,41,16,31,9,20,0.5,0.8
2026-02-10T1100,2208A,121.6567,42.0188,阜新市,长青街,,48,48,92,30,68,69,,48,48,16,34,8,18,0.5,0.9
2026-02-10T1100,2209A,121.6672,42.07,阜新市,农业园区,,,,112,21,67,66,,48,48,10,30,7,20,0.4,0.7
2026-02-10T1100,2211A,121.6343,42.0455,阜新市,玉龙新城,颗粒物(PM10),54,57,103,25,64,66,,38,38,18,38,11,20,0.6,0.9
2026-02-10T1100,2301A,115.8276,32.8929,阜阳市,市监测站,细颗粒物(PM2.5),79,87,62,58,43,49,,57,50,14,15,4,5,0.6,0.5
2026-02-10T1100,2303A,115.8551,32.8606,阜阳市,开发区,细颗粒物(PM2.5),73,80,52,53,40,54,,54,51,11,14,5,5,0.4,0.4
2026-02-10T1100,2875A,115.783962,32.889217,阜阳市,阜阳职业技术学院,细颗粒物(PM2.5),67,63,53,48,39,58,,57,54,9,13,5,6,0.5,0.5
2026-02-10T1100,3468A,115.79,32.8614,阜阳市,市规划展馆,细颗粒物(PM2.5),72,70,54,52,41,57,,56,53,11,14,5,6,0.5,0.5
2026-02-10T1100,3469A,115.835101,32.918568,阜阳市,枣园社区,细颗粒物(PM2.5),72,68,57,52,41,58,,58,54,11,14,6,6,0.7,0.7
2026-02-10T1100,2669A,102.9097,34.9841,甘南藏族自治州,州政府,细颗粒物(PM2.5),83,78,78,61,40,46,,40,34,25,14,9,7,0.9,0.6
2026-02-10T1100,3380A,102.8915,34.9618,甘南藏族自治州,甘肃民族师范学院,颗粒物(PM10),71,91,85,39,33,55,,44,42,27,19,22,9,0.5,0.4
2026-02-10T1100,2570A,101.96,30.048,甘孜藏族自治州,水桥子,,16,16,10,9,4,40,,37,33,10,10,7,6,0.7,0.6
2026-02-10T1100,3065A,101.9534,29.9976,甘孜藏族自治州,州环保局,,19,11,11,3,5,58,,61,55,6,6,6,6,0.6,0.6
2026-02-10T1100,2363A,114.9368,25.8663,赣州市,地委,,46,46,43,32,26,43,,48,41,20,20,8,8,0.5,0.4
2026-02-10T1100,2364A,114.946,25.8483,赣州市,气象台,,,54,51,33,29,,,47,39,32,25,5,6,0.7,0.5
2026-02-10T1100,2365A,114.932,25.8332,赣州市,市图书馆,,49,49,42,33,28,32,,41,36,28,25,3,4,0.8,0.7
2026-02-10T1100,2366A,114.8905,25.8472,赣州市,华坚鞋城,,50,50,48,35,26,36,,41,34,24,29,6,6,0.4,0.4
2026-02-10T1100,3109A,115.0094,25.8614,赣州市,赣县区卫计委,颗粒物(PM10),52,54,47,30,28,50,,58,56,22,18,8,8,0.6,0.6
2026-02-10T1100,2684A,106.2753,36.0057,固原市,监测站,颗粒物(PM10),146,241,237,54,46,78,,81,77,6,6,7,7,0.5,0.5
2026-02-10T1100,2685A,106.2384,36.0189,固原市,新区,颗粒物(PM10),136,222,211,47,46,75,,80,75,6,4,7,6,0.4,0.4
2026-02-10T1100,2544A,106.6307,30.4577,广安市,市委,细颗粒物(PM2.5),72,71,71,52,51,64,,46,42,14,19,6,6,0.7,0.7
2026-02-10T1100,2545A,106.6266,30.4662,广安市,友谊中学,细颗粒物(PM2.5),67,64,64,48,45,62,,49,44,18,20,6,6,0.9,0.9
2026-02-10T1100,2547A,106.6386,30.4551,广安市,广电花园,细颗粒物(PM2.5),85,73,63,63,56,52,,42,35,18,17,7,7,0.7,0.6
2026-02-10T1100,2902A,106.6347,30.4868,广安市,北辰小学,细颗粒物(PM2.5),77,65,65,56,52,59,,46,42,12,13,8,9,0.7,0.7
2026-02-10T1100,2524A,105.8211,32.4444,广元市,老城,颗粒物(PM10),69,88,70,26,36,49,,12,12,27,32,6,4,0.8,0.8
2026-02-10T1100,2526A,105.8629,32.429,广元市,监测站,,,94,60,52,40,17,,8,7,34,24,,5,2.1,1
2026-02-10T1100,3617A,105.8047,32.4167,广元市,经开区,细颗粒物(PM2.5),62,69,61,44,42,24,,6,6,36,29,13,5,1.0,0.8
2026-02-10T1100,1345A,113.2346,23.1423,广州市,广雅中学,颗粒物(PM10),51,52,56,30,30,52,,40,37,37,37,4,3,0.5,0.4
2026-02-10T1100,1346A,113.2611,23.105,广州市,市五中,,48,48,55,27,28,52,,52,48,34,28,10,9,/,/
2026-02-10T1100,1348A,113.3477,23.0916,广州市,广东商学院,颗粒物(PM10),51,52,52,32,30,38,,44,39,40,32,8,7,0.5,0.4
2026-02-10T1100,1349A,113.4332,23.105,广州市,市八十六中,,45,45,48,25,27,41,,51,47,41,35,9,9,/,/
2026-02-10T1100,1350A,113.3506,22.9488,广州市,番禺中学,颗粒物(PM10),51,52,56,22,23,54,,48,47,32,32,2,2,0.5,0.4
2026-02-10T1100,1351A,113.2147,23.3918,广州市,花都师范,颗粒物(PM10),52,53,52,29,27,37,,39,36,46,38,8,6,0.6,0.6
2026-02-10T1100,1352A,113.2599,23.1329,广州市,市监测站,颗粒物(PM10),52,53,57,29,31,47,,42,38,28,26,3,2,/,/
2026-02-10T1100,1353A,113.5618,23.3119,广州市,九龙镇镇龙,,39,39,46,23,27,56,,59,56,13,15,5,5,0.5,0.5
2026-02-10T1100,1354A,113.2764,23.1544,广州市,麓湖,,,54,51,33,30,39,,30,26,,36,5,5,0.8,0.7
2026-02-10T1100,2846A,113.3209,23.1323,广州市,体育西,,50,50,55,28,31,47,,41,39,38,36,8,7,0.8,0.7
2026-02-10T1100,3298A,113.5718,23.5493,广州市,从化街口,细颗粒物(PM2.5),80,86,56,59,36,25,,26,24,34,25,26,16,0.8,0.6
2026-02-10T1100,3299A,113.3463,23.369,广州市,白云竹料,颗粒物(PM10),52,54,51,34,29,54,,47,44,22,26,9,6,0.6,0.5
2026-02-10T1100,3300A,113.2981,23.2365,广州市,白云嘉禾,细颗粒物(PM2.5),80,,52,59,30,50,,51,47,36,32,5,4,/,/
2026-02-10T1100,3301A,113.4256,23.1716,广州市,黄埔科学城,,41,41,49,27,30,59,,60,56,25,26,5,5,0.7,0.6
2026-02-10T1100,3302A,113.3942,23.0485,广州市,番禺大学城,颗粒物(PM10),54,58,53,28,26,44,,52,45,36,26,10,8,0.6,0.5
2026-02-10T1100,3303A,113.4923,22.8169,广州市,南沙黄阁,,46,46,46,23,26,62,,52,51,30,34,5,5,/,/
2026-02-10T1100,3304A,113.534,22.7893,广州市,南沙街,,41,41,46,18,22,65,,54,52,24,29,4,4,0.5,0.6
2026-02-10T1100,3443A,113.2905,23.5541,广州市,花都梯面,,46,42,37,32,26,39,,29,28,12,14,10,8,/,/
2026-02-10T1100,3445A,113.786,23.7479,广州市,从化良口,,33,31,31,23,22,56,,48,47,13,12,8,8,/,/
2026-02-10T1100,3446A,113.805,23.2614,广州市,增城荔城,,37,37,43,21,22,58,,60,57,16,16,6,6,0.5,0.4
2026-02-10T1100,2506A,109.604387,23.066791,贵港市,江南子站,"颗粒物(PM10),细颗粒物(PM2.5)",59,68,68,42,43,49,,46,46,26,25,6,6,0.9,0.9
2026-02-10T1100,2508A,109.5669,23.1065,贵港市,荷城子站,"颗粒物(PM10),细颗粒物(PM2.5)",63,75,62,45,36,44,,45,45,26,23,7,6,1.0,1
2026-02-10T1100,3405A,109.5886,23.1172,贵港市,新世纪学校,细颗粒物(PM2.5),72,70,65,52,45,50,,47,47,27,23,/,/,0.6,0.6
2026-02-10T1100,4260A,109.5933,23.095,贵港市,中山路155-3号,,,,55,60,48,,,51,51,21,20,/,/,0.9,0.9
2026-02-10T1100,1439A,106.6863,26.6035,贵阳市,马鞍山,,30,27,15,21,13,22,,15,14,13,16,4,4,/,/
2026-02-10T1100,1441A,106.6241,26.6266,贵阳市,鉴湖路,,24,24,18,14,8,30,,22,21,13,15,2,4,0.6,0.6
2026-02-10T1100,1442A,106.7468,26.6344,贵阳市,燕子冲,,,24,17,23,14,,,12,10,,20,12,10,0.8,0.8
2026-02-10T1100,1443A,106.6556,26.4362,贵阳市,碧云窝,,39,39,22,25,10,18,,17,14,18,13,20,16,/,/
2026-02-10T1100,1445A,106.6963,26.6063,贵阳市,红边门,,30,24,21,21,17,17,,15,12,20,20,12,8,/,/
2026-02-10T1100,1446A,106.7162383,26.56964667,贵阳市,新华路,,28,24,23,19,13,18,,18,15,21,25,5,5,0.6,0.5
2026-02-10T1100,1447A,106.6742,26.542,贵阳市,太慈桥,,29,29,14,19,10,26,,24,23,18,16,4,6,/,/
2026-02-10T1100,4230A,106.688212,26.56952,贵阳市,花果园大街66号,,40,,12,28,11,19,,10,10,18,20,2,2,/,/
2026-02-10T1100,4231A,106.687268,26.516892,贵阳市,漓江路57号,,36,29,19,25,11,12,,11,9,22,18,9,9,0.8,0.7
2026-02-10T1100,1864A,110.3091,25.2705,桂林市,龙隐路小学,,22,22,41,13,38,11,,12,12,21,23,2,3,0.7,0.7
2026-02-10T1100,1865A,110.2849361,25.22909545,桂林市,八中,,26,26,45,11,22,9,,13,10,24,27,2,6,0.9,0.9
2026-02-10T1100,3531A,110.296,25.1254,桂林市,旅游学院,,45,41,53,31,42,16,,18,13,18,18,4,5,0.8,0.7
2026-02-10T1100,4222A,110.1835,25.2444,桂林市,环湖路276号,,25,17,49,17,35,7,,9,7,43,37,2,7,1.0,0.9
2026-02-10T1100,4301A,110.2803,25.2773,桂林市,信义路13号,,19,19,42,13,37,6,,10,10,28,28,4,10,1.3,1.1
2026-02-10T1100,2674A,100.2262,34.4854,果洛藏族自治州,玛沁县大武镇,细颗粒物(PM2.5),59,45,122,42,43,71,,87,67,8,2,25,15,0.5,0.3
2026-02-10T1100,1130A,126.5557,45.8109,哈尔滨市,松北商大,细颗粒物(PM2.5),180,156,124,136,105,64,,24,24,32,51,13,9,1.4,1.4
2026-02-10T1100,1132A,126.6162,45.719,哈尔滨市,南岗学府路,细颗粒物(PM2.5),163,146,119,124,87,61,,29,29,40,48,15,12,1.4,1.4
2026-02-10T1100,1133A,126.6894,45.7733,哈尔滨市,太平宏伟公园,细颗粒物(PM2.5),182,164,114,137,94,56,,25,25,22,26,30,18,1.8,1.3
2026-02-10T1100,1134A,126.6361,45.7672,哈尔滨市,道外承德广场,细颗粒物(PM2.5),178,185,137,134,91,56,,22,22,47,58,30,15,1.2,0.9
2026-02-10T1100,1136A,126.644,45.7261,哈尔滨市,动力和平路,细颗粒物(PM2.5),173,170,106,131,85,51,,33,33,49,46,38,16,1.9,1.6
2026-02-10T1100,1137A,126.5933,45.7479,哈尔滨市,道里建国路,细颗粒物(PM2.5),182,148,111,137,100,50,,21,21,50,65,8,13,1.5,1.4
2026-02-10T1100,1138A,126.6127,45.6119,哈尔滨市,平房东轻厂,细颗粒物(PM2.5),216,,98,166,87,51,,36,24,46,35,15,8,1.4,1.2
2026-02-10T1100,1139A,126.5875,45.9827,哈尔滨市,呼兰师专,细颗粒物(PM2.5),188,180,121,141,100,71,,43,43,26,39,18,17,1.5,1.5
2026-02-10T1100,1140A,126.6299,45.6799,哈尔滨市,省农科院,细颗粒物(PM2.5),169,145,121,128,98,59,,25,25,36,56,36,23,1.3,1.5
2026-02-10T1100,4282A,126.6769,45.7379,哈尔滨市,华山路1号,细颗粒物(PM2.5),158,163,109,120,79,53,,27,27,44,48,24,16,1.7,1.4
2026-02-10T1100,4283A,126.9717,45.5356,哈尔滨市,解放大街52号,细颗粒物(PM2.5),150,132,78,115,54,47,,62,49,41,21,26,21,1.5,0.9
2026-02-10T1100,2688A,93.5124,42.8176,哈密市,地区监测站,颗粒物(PM10),76,101,77,33,25,33,,56,36,35,15,7,6,0.9,0.1
2026-02-10T1100,2689A,93.5014,42.8312,哈密市,哈密师范学校,颗粒物(PM10),67,83,71,26,21,39,,51,39,41,20,8,5,1.1,0.4
2026-02-10T1100,2671A,100.9016,36.9464,海北藏族自治州,海晏县西海镇,,38,38,107,8,28,74,,81,74,4,2,9,8,0.5,0.4
2026-02-10T1100,3867A,102.074,36.5056,海东市,平安区公安局北苑,颗粒物(PM10),113,176,135,57,52,34,,52,42,30,13,15,17,1.6,0.8
2026-02-10T1100,4163A,102.0984,36.5119,海东市,滨河路,颗粒物(PM10),102,153,137,54,46,43,,45,34,32,27,14,17,1.5,0.8
2026-02-10T1100,1410A,110.3189,20.0596,海口市,海南大学,,38,38,39,14,14,78,,83,80,5,4,5,5,0.4,0.4
2026-02-10T1100,1411A,110.2827,20.0051,海口市,秀英海南医院,,36,36,41,12,14,78,,75,74,6,8,7,7,0.3,0.3
2026-02-10T1100,1412A,110.3391,19.9979,海口市,海南师范大学,,40,40,42,14,16,80,,75,73,4,6,6,5,0.3,0.4
2026-02-10T1100,1413A,110.3303,20.0359,海口市,龙华路环保局宿舍,,38,38,40,15,16,80,,82,80,8,7,/,/,0.6,0.6
2026-02-10T1100,3539A,110.5111,19.9737,海口市,桂林洋子站,,32,32,43,14,17,82,,74,74,4,5,/,/,/,/
2026-02-10T1100,4134A,110.1952,20.0451,海口市,长滨二路9号,,32,32,36,16,16,72,,75,73,7,5,/,/,/,/
2026-02-10T1100,2673A,100.6158,36.2985,海南藏族自治州,共和县恰卜恰镇,,,,130,,37,,,88,71,5,6,16,11,0.5,0.6
2026-02-10T1100,2676A,97.373,37.376,海西蒙古族藏族自治州,德令哈市,,39,39,124,6,19,102,,99,99,1,4,20,18,0.3,0.4
2026-02-10T1100,1049A,114.492,36.5712,邯郸市,矿院,颗粒物(PM10),69,87,60,46,45,38,,43,32,38,25,8,3,1.2,0.5
2026-02-10T1100,1050A,114.4839,36.6136,邯郸市,丛台公园,细颗粒物(PM2.5),85,90,66,63,49,46,,47,38,32,21,15,5,1.4,0.5
2026-02-10T1100,3458A,114.7893,36.5592,邯郸市,香泉濮院小区,细颗粒物(PM2.5),79,82,67,58,46,45,,50,42,18,12,8,3,1.0,0.5
2026-02-10T1100,3580A,114.1998,36.4439,邯郸市,峰峰矿区临水派出所,,,96,62,25,42,,,46,,5,13,,10,0.6,0.8
2026-02-10T1100,4068A,114.5209,36.7697,邯郸市,建安街268号,细颗粒物(PM2.5),90,88,68,67,53,35,,37,28,22,16,19,5,1.7,0.5
2026-02-10T1100,4069A,114.5488,36.6177,邯郸市,丛台东路558号,颗粒物(PM10),65,80,65,23,38,38,,36,26,29,19,10,2,1.3,0.6
2026-02-10T1100,2635A,107.0155,33.0707,汉中市,市监测站,细颗粒物(PM2.5),75,63,61,55,50,34,,16,15,24,25,8,7,1.1,1
2026-02-10T1100,2636A,107.0083,33.114,汉中市,鑫源开发区,细颗粒物(PM2.5),72,76,49,52,39,28,,10,10,19,26,5,6,0.9,1
2026-02-10T1100,2637A,107.0072,33.0323,汉中市,南郑大河坎水厂,细颗粒物(PM2.5),79,92,79,58,54,26,,18,14,33,25,7,6,1.3,1
2026-02-10T1100,1223A,120.2073,30.2111,杭州市,滨江,,48,46,48,33,31,35,,20,18,36,38,7,7,0.5,0.4
2026-02-10T1100,1224A,120.0625,30.2737,杭州市,西溪,,44,44,40,30,31,51,,15,15,23,31,9,9,0.7,0.6
2026-02-10T1100,1226A,120.3417,30.315,杭州市,下沙,细颗粒物(PM2.5),69,57,49,50,37,32,,15,12,36,43,9,9,0.4,0.4
2026-02-10T1100,1227A,120.1252,30.2465,杭州市,卧龙桥,,,,41,26,26,50,,22,22,15,21,9,9,0.4,0.3
2026-02-10T1100,1228A,120.1902,30.2691,杭州市,浙江农大,细颗粒物(PM2.5),58,60,52,41,30,28,,22,20,51,40,7,7,0.7,0.6
2026-02-10T1100,1230A,120.1195,30.3121,杭州市,和睦小学,"颗粒物(PM10),细颗粒物(PM2.5)",58,65,56,41,35,41,,11,11,33,40,6,6,0.7,0.6
2026-02-10T1100,1231A,120.3076,30.4146,杭州市,临平镇,细颗粒物(PM2.5),64,66,56,46,39,50,,12,12,18,30,8,7,0.6,0.6
2026-02-10T1100,1232A,120.2753,30.1839,杭州市,城厢镇,,50,50,47,33,31,35,,19,19,37,34,8,8,0.8,0.7
2026-02-10T1100,1233A,120.0883,30.1808,杭州市,云栖,,39,35,33,27,22,36,,12,12,28,22,5,4,0.6,0.5
2026-02-10T1100,3557A,119.9463,30.0496,杭州市,镇二中,,45,34,36,31,30,34,,13,13,30,35,4,4,0.9,0.9
2026-02-10T1100,3558A,119.7184,30.2367,杭州市,市府大楼,,42,30,32,29,27,42,,31,29,16,19,10,10,0.4,0.6
2026-02-10T1100,3656A,120.1554,30.2863,杭州市,消防大队,细颗粒物(PM2.5),63,58,48,45,35,29,,21,19,44,36,6,6,0.8,0.7
2026-02-10T1100,1270A,117.1957,31.7845,合肥市,明珠广场,,45,39,42,31,30,55,,22,22,21,26,6,6,0.5,0.5
2026-02-10T1100,1271A,117.307,31.8765,合肥市,三里街,细颗粒物(PM2.5),52,36,40,36,31,63,,30,30,20,31,6,6,0.9,0.9
2026-02-10T1100,1272A,117.2587,31.8703,合肥市,琥珀山庄,,,41,43,39,35,69,,43,43,14,22,7,7,,0.8
2026-02-10T1100,1275A,117.2593,31.9376,合肥市,庐阳区,,49,41,42,34,30,69,,46,46,15,25,6,6,0.6,0.6
2026-02-10T1100,1276A,117.345251,31.861615,合肥市,瑶海区,,48,41,41,33,28,71,,33,33,20,30,5,5,0.5,0.5
2026-02-10T1100,1277A,117.3033,31.7967,合肥市,包河区,,46,46,38,31,28,66,,26,26,18,23,6,7,0.8,0.8
2026-02-10T1100,1278A,117.278,31.7392,合肥市,滨湖新区,颗粒物(PM10),51,51,40,34,27,45,,19,16,28,26,3,3,0.7,0.7
2026-02-10T1100,1279A,117.1324,31.8395,合肥市,高新区,,45,36,41,31,30,70,,47,47,9,18,3,4,0.5,0.5
2026-02-10T1100,3464A,117.3802,31.9148,合肥市,高教基地,,49,41,38,34,27,70,,32,32,22,27,7,7,0.6,0.6
2026-02-10T1100,4098A,117.2518,31.8404,合肥市,中国科学技术大学,,43,34,38,30,28,76,,44,44,10,21,7,7,0.6,0.7
2026-02-10T1100,3614A,79.9241,37.0878,和田地区,地区环保局,颗粒物(PM10),373,478,478,131,118,30,,52,46,38,23,4,6,1.6,1.4
2026-02-10T1100,3615A,79.9132,37.1137,和田地区,市环保局,颗粒物(PM10),393,494,485,114,112,34,,43,43,41,33,5,4,0.2,0.9
2026-02-10T1100,2517A,108.0496,24.6957,河池市,市环保站,,9,7,9,6,6,22,,30,25,18,15,2,2,0.9,0.7
2026-02-10T1100,4302A,108.0901,24.6945,河池市,上任中路54号,,18,,9,12,6,15,,29,24,16,13,4,4,1.1,1
2026-02-10T1100,1697A,114.6962,23.7538,河源市,东埔,,46,41,38,32,26,54,,53,50,19,15,6,6,0.6,0.5
2026-02-10T1100,1698A,114.6895,23.7232,河源市,老城,,49,49,38,30,27,54,,52,51,18,14,6,6,0.6,0.5
2026-02-10T1100,3374A,115.5562,35.089,菏泽市,定陶老年大学,细颗粒物(PM2.5),97,83,67,72,50,49,,49,44,16,16,5,5,0.9,0.7
2026-02-10T1100,4114A,115.4239,35.2593,菏泽市,黄河路600号,细颗粒物(PM2.5),107,101,77,80,57,36,,44,37,18,15,3,3,0.6,0.4
2026-02-10T1100,4115A,115.5025,35.2727,菏泽市,菏泽市人社局,细颗粒物(PM2.5),102,96,71,76,54,44,,51,46,,18,5,4,0.7,0.5
2026-02-10T1100,4184A,115.479691,35.244011,菏泽市,永昌路1号,细颗粒物(PM2.5),100,94,74,75,53,46,,53,46,16,16,3,2,0.6,0.5
2026-02-10T1100,4193A,115.471542,35.280012,菏泽市,长城路999号,,,,70,,49,,,92,,,18,,5,,0.4
2026-02-10T1100,2514A,111.5264,24.4178,贺州市,环保小区,细颗粒物(PM2.5),73,65,55,53,47,10,,13,13,24,26,4,3,0.8,0.6
2026-02-10T1100,2515A,111.561,24.4074,贺州市,政协大楼,细颗粒物(PM2.5),73,61,55,53,49,6,,5,5,26,27,5,4,1.1,0.9
2026-02-10T1100,3534A,111.4744,24.455,贺州市,西湾,细颗粒物(PM2.5),70,70,68,51,44,8,,6,6,19,21,5,3,0.9,0.8
2026-02-10T1100,2385A,114.17,35.9019,鹤壁市,市监测站,,,113,74,71,52,32,,31,23,34,20,5,4,,0.7
2026-02-10T1100,2386A,114.2953,35.7512,鹤壁市,市交警支队,细颗粒物(PM2.5),85,112,71,63,51,28,,35,22,32,25,6,5,0.8,0.6
2026-02-10T1100,2387A,114.2877,35.7302,鹤壁市,迎宾馆,细颗粒物(PM2.5),84,109,75,62,48,25,,34,20,32,22,3,5,0.9,0.7
2026-02-10T1100,3474A,114.2616,35.6824,鹤壁市,大新区,细颗粒物(PM2.5),113,121,72,85,57,24,,29,16,35,25,9,7,1.0,0.7
2026-02-10T1100,3596A,114.1573,35.9607,鹤壁市,南山宾馆,,,84,77,39,51,51,,38,37,,17,9,7,0.8,0.6
2026-02-10T1100,2244A,130.2537,47.3416,鹤岗市,哈啤分公司,,45,36,60,31,55,88,,78,76,10,19,10,10,0.4,0.6
2026-02-10T1100,2245A,130.2683,47.3087,鹤岗市,斯达机电,,,52,73,24,46,,,54,44,17,27,15,10,0.7,0.9
2026-02-10T1100,2246A,130.3114,47.3388,鹤岗市,东山纸板厂,颗粒物(PM10),55,59,110,22,51,74,,36,36,17,45,12,14,0.6,1.4
2026-02-10T1100,2263A,127.4832,50.2524,黑河市,交通局,,27,27,42,17,26,65,,65,63,18,22,9,11,0.5,0.6
2026-02-10T1100,2264A,127.5146,50.2339,黑河市,环保局,细颗粒物(PM2.5),144,134,59,110,48,29,,33,28,47,38,37,19,1.4,1
2026-02-10T1100,1074A,115.6839,37.754,衡水市,电机北厂,,,78,88,56,55,,,53,50,22,22,8,7,0.3,0.3
2026-02-10T1100,1075A,115.6303,37.7318,衡水市,市监测站,细颗粒物(PM2.5),75,75,89,55,53,45,,47,42,21,25,8,7,0.6,0.5
2026-02-10T1100,3188A,115.6684,37.7216,衡水市,市城管局,细颗粒物(PM2.5),83,75,91,61,55,40,,48,43,24,24,7,6,0.6,0.5
2026-02-10T1100,3459A,115.599,37.5491,衡水市,地表水厂,细颗粒物(PM2.5),88,82,87,65,58,44,,42,34,18,20,8,7,0.6,0.5
2026-02-10T1100,2457A,112.6209,26.9268,衡阳市,衡阳化工总厂,细颗粒物(PM2.5),69,,48,50,51,29,,32,31,17,15,8,9,0.9,0.8
2026-02-10T1100,2458A,112.621,26.8957,衡阳市,珠晖区环保局,细颗粒物(PM2.5),80,74,51,59,50,26,,26,25,19,22,15,6,1.1,1
2026-02-10T1100,2459A,112.628,26.8654,衡阳市,市委党校,细颗粒物(PM2.5),107,,49,80,51,25,,28,25,18,17,41,12,1.0,0.9
2026-02-10T1100,2460A,112.6007,26.8977,衡阳市,市监测站,细颗粒物(PM2.5),87,93,76,64,50,26,,25,23,17,20,14,8,1.1,1
2026-02-10T1100,2461A,112.5658,26.9013,衡阳市,真空机电公司,细颗粒物(PM2.5),77,78,69,56,56,26,,24,24,21,22,8,9,1.0,0.9
2026-02-10T1100,3399A,112.6703,26.8817,衡阳市,师范学院,细颗粒物(PM2.5),78,79,57,57,43,27,,33,33,22,18,53,6,0.9,0.9
2026-02-10T1100,3038A,103.3757,23.3679,红河哈尼族彝族自治州,州图书馆,,38,28,20,26,15,81,,53,50,7,7,11,10,0.6,0.8
2026-02-10T1100,4154A,103.401,23.3561,红河哈尼族彝族自治州,蒙自市朝阳路,,33,,16,23,13,81,,58,54,7,4,6,5,0.4,0.5
2026-02-10T1100,1090A,111.6506,40.7517,呼和浩特市,呼市一监,,,,82,17,38,70,,,,7,35,6,9,0.4,0.7
2026-02-10T1100,1094A,111.7516,40.8369,呼和浩特市,如意水处理厂,,38,38,72,11,29,69,,59,59,9,29,8,12,0.3,0.6
2026-02-10T1100,1095A,111.727798,40.806187,呼和浩特市,二十九中,,,44,91,11,29,,,67,66,2,21,10,13,0.4,0.6
2026-02-10T1100,1097A,111.717,40.7617,呼和浩特市,化肥厂生活区,,36,36,90,11,36,75,,63,63,7,31,4,7,0.4,0.7
2026-02-10T1100,3699A,111.6519,40.8389,呼和浩特市,海东办,,27,27,92,11,28,72,,71,70,6,22,3,6,0.3,0.5
2026-02-10T1100,4275A,111.591512,40.827312,呼和浩特市,成吉思汗西街8号,,,36,84,9,27,64,,55,55,6,26,,9,0.7,0.5
2026-02-10T1100,4276A,111.6597,40.8077,呼和浩特市,公园东路75号,,31,31,95,11,28,67,,67,67,10,25,5,8,0.4,0.5
2026-02-10T1100,4277A,111.5427,40.7846,呼和浩特市,金海路35号,颗粒物(PM10),54,57,75,10,34,70,,37,37,8,36,6,11,0.4,0.7
2026-02-10T1100,3061A,119.7511,49.1576,呼伦贝尔市,国华电力东,,21,16,38,10,26,66,,54,54,12,27,5,6,0.3,0.6
2026-02-10T1100,4279A,119.7569,49.2222,呼伦贝尔市,伊敏大街东7号,,21,21,39,8,27,62,,56,56,17,25,8,8,0.3,0.4
2026-02-10T1100,1250A,120.075,30.867,湖州市,城西水厂,细颗粒物(PM2.5),68,60,59,49,43,47,,25,25,34,36,7,6,0.5,0.5
2026-02-10T1100,2873A,120.083,30.8929,湖州市,仁皇山新区,,,66,52,48,39,,,24,17,41,37,8,6,0.8,0.6
2026-02-10T1100,2907A,120.1846,30.8592,湖州市,吴兴区站,细颗粒物(PM2.5),70,66,53,51,38,35,,16,13,31,31,7,5,0.7,0.5
2026-02-10T1100,3562A,120.4146,30.8538,湖州市,南浔区站,细颗粒物(PM2.5),54,53,51,38,34,56,,33,33,21,25,8,7,0.6,0.5
2026-02-10T1100,1607A,120.904878,40.721091,葫芦岛市,龙港区,细颗粒物(PM2.5),134,125,91,102,78,42,,44,32,40,30,32,13,1.5,1
2026-02-10T1100,1608A,120.8382,40.7521,葫芦岛市,化工街,,,112,125,71,79,42,,31,23,42,45,35,30,,1.6
2026-02-10T1100,1609A,120.8339,40.7078,葫芦岛市,新区,细颗粒物(PM2.5),104,97,91,78,83,44,,38,25,43,38,25,15,1.5,1.2
2026-02-10T1100,1610A,120.8697,40.7679,葫芦岛市,东城区,细颗粒物(PM2.5),148,,96,113,86,34,,33,22,49,44,40,21,1.9,1.3
2026-02-10T1100,2483A,109.9297,27.5383,怀化市,河西地税局,,33,27,37,23,27,32,,44,39,21,17,3,3,/,/
2026-02-10T1100,2484A,109.9783,27.5342,怀化市,市四医院,,24,24,38,16,30,29,,45,40,14,11,7,5,0.8,0.7
2026-02-10T1100,2485A,109.9971,27.5579,怀化市,监测楼,,,26,38,18,29,36,,40,38,,15,3,2,,0.1
2026-02-10T1100,1210A,119.0566,33.5991,淮安市,钵池山,细颗粒物(PM2.5),80,,48,59,40,44,,47,43,18,26,8,9,0.7,0.5
2026-02-10T1100,1211A,119.0083,33.578,淮安市,北京南路,,,,49,,38,27,,34,29,,26,,8,1.7,0.7
2026-02-10T1100,1212A,118.9938,33.6083,淮安市,市监测站,细颗粒物(PM2.5),83,,40,61,46,42,,38,37,19,28,9,10,0.9,0.8
2026-02-10T1100,1213A,119.135,33.5038,淮安市,楚州区监测站,细颗粒物(PM2.5),74,,45,54,37,45,,39,35,11,30,5,7,0.9,0.8
2026-02-10T1100,3426A,118.8757,33.2897,淮安市,新华书店,细颗粒物(PM2.5),82,60,46,60,41,45,,40,40,14,25,8,9,0.8,0.7
2026-02-10T1100,4092A,119.119691,33.550006,淮安市,枚皋中路89号,细颗粒物(PM2.5),83,64,53,61,44,45,,45,42,10,25,8,10,0.6,0.6
2026-02-10T1100,4206A,119.028838,33.631911,淮安市,承德北路606号,细颗粒物(PM2.5),80,68,55,59,41,46,,46,43,14,26,6,8,0.4,0.6
2026-02-10T1100,2282A,116.8005,33.9749,淮北市,监测站,细颗粒物(PM2.5),88,83,66,65,44,48,,48,48,17,28,4,6,0.8,0.8
2026-02-10T1100,2283A,116.8094,33.9008,淮北市,烈山区政府,细颗粒物(PM2.5),88,82,73,65,47,49,,37,37,13,32,4,6,0.4,0.5
2026-02-10T1100,4017A,116.7926,33.9534,淮北市,市博物馆,细颗粒物(PM2.5),90,78,67,67,47,48,,44,44,16,27,5,6,0.6,0.5
2026-02-10T1100,4100A,116.8322,33.9884,淮北市,杜集区第一实验学校,,,93,67,68,46,,,52,52,12,22,8,7,0.5,0.4
2026-02-10T1100,2277A,116.8304,32.7726,淮南市,潘集区政府,细颗粒物(PM2.5),64,70,56,46,32,61,,54,54,11,22,5,6,0.5,0.4
2026-02-10T1100,2279A,116.8569,32.5949,淮南市,谢家集区政府,细颗粒物(PM2.5),59,53,42,42,32,58,,49,49,13,22,7,7,0.6,0.4
2026-02-10T1100,2280A,116.8279,32.6333,淮南市,八公山区政府,细颗粒物(PM2.5),67,51,44,48,35,62,,57,57,9,18,3,3,0.4,0.4
2026-02-10T1100,2894A,117.0561,32.6536,淮南市,经济技术开发区消防队,细颗粒物(PM2.5),63,62,47,45,31,56,,52,52,19,21,5,5,0.5,0.4
2026-02-10T1100,3329A,117.011,32.5891,淮南市,山南新区,细颗粒物(PM2.5),62,57,34,44,30,59,,52,52,11,12,6,7,0.5,0.4
2026-02-10T1100,4209A,117.003137,32.644456,淮南市,国庆中路369号,细颗粒物(PM2.5),58,43,37,41,28,50,,45,45,18,21,6,5,0.5,0.5
2026-02-10T1100,2446A,114.9021,30.474,黄冈市,职工中心,细颗粒物(PM2.5),82,63,57,60,49,56,,32,32,12,16,6,5,0.8,1
2026-02-10T1100,2929A,114.8858,30.4519,黄冈市,红卫路,细颗粒物(PM2.5),68,50,51,49,45,59,,34,34,15,21,6,6,0.5,0.6
2026-02-10T1100,3398A,114.9134,30.4446,黄冈市,市林业局,细颗粒物(PM2.5),82,,58,60,49,50,,33,33,19,23,4,4,0.7,0.7
2026-02-10T1100,2672A,102.02,35.5101,黄南藏族自治州,同仁县隆务镇,颗粒物(PM10),55,59,115,26,38,81,,87,81,3,3,9,8,0.3,0.3
2026-02-10T1100,2295A,118.2905,29.6965,黄山市,延安路89号,,32,24,27,22,22,44,,48,46,9,10,4,4,0.4,0.3
2026-02-10T1100,2297A,118.1369,30.2755,黄山市,黄山区政府5号楼,,24,,21,14,11,76,,77,77,6,7,2,2,0.6,0.6
2026-02-10T1100,4210A,118.335445,29.720283,黄山市,滨江东路7-2号,,,41,41,20,22,,,52,49,17,13,/,/,/,/
2026-02-10T1100,2423A,115.0547,30.2332,黄石市,沈家营,颗粒物(PM10),64,77,63,43,40,49,,26,26,27,21,8,7,1.0,1
2026-02-10T1100,2426A,114.899,30.211,黄石市,铁山,细颗粒物(PM2.5),103,,58,77,58,30,,18,16,32,24,17,8,1.2,1.5
2026-02-10T1100,2427A,115.0259,30.2108,黄石市,团城山,,,,61,54,53,28,,21,17,22,16,,7,,1
2026-02-10T1100,3149A,115.0174,30.1591,黄石市,笔架山北路,细颗粒物(PM2.5),103,109,84,77,52,19,,12,10,31,28,8,7,1.1,0.9
2026-02-10T1100,4185A,115.078022,30.21118,黄石市,磁湖东路29号,细颗粒物(PM2.5),75,59,60,55,50,52,,22,22,21,25,7,7,0.9,0.9
2026-02-10T1100,1392A,114.4181,23.0528,惠州市,河南岸金山湖子站,,44,44,47,25,28,49,,56,50,22,16,6,6,0.6,0.6
2026-02-10T1100,1393A,114.4055,23.0824,惠州市,下埔横江三路子站,,48,48,48,30,28,56,,60,55,17,14,6,6,0.5,0.4
2026-02-10T1100,1395A,114.4645,22.7832,惠州市,惠阳区承修路船湖子站,,48,48,49,25,27,49,,58,44,35,23,8,7,0.6,0.6
2026-02-10T1100,1396A,114.5316,22.7423,惠州市,大亚湾管委会子站,,35,35,44,15,21,77,,70,70,15,18,6,7,0.5,0.5
2026-02-10T1100,3314A,114.4334,22.8134,惠州市,惠阳秋长,,48,48,47,25,26,65,,70,59,27,21,/,/,/,/
2026-02-10T1100,3452A,114.6521,22.7755,惠州市,大亚湾霞涌,,29,27,39,11,9,90,,61,60,9,16,/,/,/,/
2026-02-10T1100,4300A,114.4089,23.1147,惠州市,文华一路1号,,43,43,44,28,27,58,,60,54,17,14,/,/,/,/
2026-02-10T1100,2240A,130.9618,45.2926,鸡西市,环保局,颗粒物(PM10),76,102,94,54,64,47,,15,15,37,42,12,14,0.9,1
2026-02-10T1100,2243A,130.9294,45.2959,鸡西市,第一中学,细颗粒物(PM2.5),72,74,75,52,58,51,,34,34,30,31,10,8,0.7,0.7
2026-02-10T1100,3707A,131.0069,45.2988,鸡西市,欧美日汽修厂,细颗粒物(PM2.5),165,198,116,125,74,20,,11,11,59,37,26,21,1.1,1.3
2026-02-10T1100,2367A,114.9753,27.0803,吉安市,红声器材厂,细颗粒物(PM2.5),69,71,62,50,51,24,,25,22,18,18,7,8,0.7,0.7
2026-02-10T1100,2369A,114.9903,27.1313,吉安市,市环境监测站,细颗粒物(PM2.5),83,,52,61,54,26,,26,26,20,18,8,7,/,/
2026-02-10T1100,2370A,115.009527,27.096792,吉安市,青原区法院,,,62,55,57,51,17,,27,22,24,21,8,9,,0.8
2026-02-10T1100,1772A,126.54,43.8622,吉林市,哈达湾,细颗粒物(PM2.5),80,66,56,59,44,90,,84,83,19,20,11,10,1.1,1
2026-02-10T1100,1773A,126.5843,43.8358,吉林市,东局子,细颗粒物(PM2.5),87,77,56,64,44,61,,67,55,40,24,16,10,1.0,0.8
2026-02-10T1100,1774A,126.5051,43.8243,吉林市,电力学院,细颗粒物(PM2.5),69,63,63,50,46,90,,78,78,20,23,11,10,0.8,0.8
2026-02-10T1100,1775A,126.6133,43.8971,吉林市,江北,细颗粒物(PM2.5),88,77,60,65,43,75,,84,79,30,18,11,10,0.8,0.7
2026-02-10T1100,1776A,126.5549,43.8304,吉林市,江南公园,细颗粒物(PM2.5),77,73,69,56,46,83,,72,67,18,20,12,11,0.7,0.7
2026-02-10T1100,2868A,126.4737,43.953,吉林市,九站,细颗粒物(PM2.5),112,125,64,84,48,36,,82,65,66,25,14,9,1.2,0.9
2026-02-10T1100,1299A,116.9866,36.6118,济南市,科干所,细颗粒物(PM2.5),55,56,56,39,32,73,,67,67,10,13,6,7,0.4,0.4
2026-02-10T1100,1300A,116.9379,36.6652,济南市,农科所,细颗粒物(PM2.5),79,63,57,58,39,63,,58,57,15,18,8,7,0.6,0.6
2026-02-10T1100,1301A,117.1265,36.6736,济南市,开发区,细颗粒物(PM2.5),67,,42,48,31,79,,75,74,13,18,4,4,0.5,0.5
2026-02-10T1100,1303A,117.0616,36.6865,济南市,省种子仓库,细颗粒物(PM2.5),59,48,50,42,29,73,,67,67,14,19,4,5,0.5,0.5
2026-02-10T1100,1304A,116.9495185,36.644937,济南市,机床二厂,细颗粒物(PM2.5),73,54,58,53,36,63,,60,59,16,19,8,8,0.5,0.5
2026-02-10T1100,1305A,117.0496,36.6629,济南市,市监测站,细颗粒物(PM2.5),64,54,51,46,32,73,,69,68,15,16,4,5,0.6,0.6
2026-02-10T1100,1306A,116.7674,36.5458,济南市,长清党校,细颗粒物(PM2.5),68,71,64,49,36,63,,62,61,24,26,4,6,0.5,0.5
2026-02-10T1100,1961A,117.5323,36.6865,济南市,东山小学,细颗粒物(PM2.5),67,76,61,48,29,67,,66,66,21,20,5,5,0.5,0.5
2026-02-10T1100,3059A,117.7181,36.205,济南市,泰兴公司,细颗粒物(PM2.5),87,75,65,64,36,64,,42,39,16,30,11,12,0.7,0.7
2026-02-10T1100,3064A,117.6861,36.2172,济南市,莱芜战役纪念馆,细颗粒物(PM2.5),102,80,62,76,34,56,,,,16,21,8,14,1.0,0.8
2026-02-10T1100,3494A,117.1673,36.9782,济南市,济阳区政府,,,68,61,56,32,,,56,54,20,23,6,6,0.7,0.6
2026-02-10T1100,3495A,117.1168,36.6299,济南市,锦屏中学,细颗粒物(PM2.5),62,44,44,44,31,76,,70,69,14,16,3,4,0.4,0.3
2026-02-10T1100,4108A,117.7107,36.2385,济南市,山财大街5号,细颗粒物(PM2.5),83,70,56,61,33,61,,51,45,21,33,14,14,1.1,1
2026-02-10T1100,4109A,116.9744,36.6889,济南市,无影山路12号,细颗粒物(PM2.5),70,61,53,51,36,61,,56,56,11,13,7,6,0.4,0.4
2026-02-10T1100,1653A,116.6229,35.4288,济宁市,火炬城,细颗粒物(PM2.5),87,,51,64,39,56,,53,51,14,15,3,3,0.6,0.5
2026-02-10T1100,3500A,116.5808,35.3703,济宁市,北湖一中,细颗粒物(PM2.5),82,,48,60,36,53,,50,50,12,18,7,6,0.6,0.4
2026-02-10T1100,3501A,116.8251,35.5592,济宁市,服务中心,细颗粒物(PM2.5),69,78,69,50,39,60,,46,45,10,14,6,4,0.4,0.3
2026-02-10T1100,3678A,116.5907,35.4054,济宁市,市第七中学,细颗粒物(PM2.5),88,66,54,65,40,58,,57,55,15,19,10,8,0.5,0.5
2026-02-10T1100,4111A,116.6075,35.4566,济宁市,任和路,细颗粒物(PM2.5),82,77,64,60,37,57,,57,54,16,18,5,5,0.7,0.5
2026-02-10T1100,4112A,116.5648,35.3921,济宁市,文体南路1号,细颗粒物(PM2.5),89,84,64,66,39,53,,52,50,16,18,5,4,0.6,0.5
2026-02-10T1100,2255A,130.2749,46.8028,佳木斯市,佳纺,,,87,87,62,69,58,,29,29,,42,11,8,0.6,1
2026-02-10T1100,2257A,130.3258,46.7975,佳木斯市,环保局,细颗粒物(PM2.5),69,66,79,50,64,48,,25,25,27,45,9,8,0.6,0.9
2026-02-10T1100,4285A,130.363,46.806,佳木斯市,顺和街,细颗粒物(PM2.5),68,58,73,49,67,60,,48,48,20,41,8,7,0.8,1
2026-02-10T1100,4286A,130.3952,46.8268,佳木斯市,长安路196号,"颗粒物(PM10),细颗粒物(PM2.5)",54,58,78,38,62,70,,38,38,11,43,7,8,0.5,0.8
2026-02-10T1100,1252A,120.7439,30.778,嘉兴市,清河小学,细颗粒物(PM2.5),70,66,43,51,28,39,,39,32,32,27,6,7,0.2,0.2
2026-02-10T1100,1253A,120.7261,30.7477,嘉兴市,嘉兴学院,细颗粒物(PM2.5),68,70,44,49,26,33,,42,33,31,26,6,5,0.8,0.7
2026-02-10T1100,2872A,120.7845,30.7524,嘉兴市,南湖区残联,细颗粒物(PM2.5),82,84,43,60,28,40,,55,44,33,26,5,5,0.6,0.5
2026-02-10T1100,3407A,120.6915,30.7741,嘉兴市,秀洲住建,细颗粒物(PM2.5),63,65,43,45,24,48,,28,28,20,28,7,7,0.5,0.4
2026-02-10T1100,1945A,98.291,39.7705,嘉峪关市,气象局,颗粒物(PM10),82,114,238,22,46,56,,74,71,23,9,10,7,0.5,0.4
2026-02-10T1100,2884A,98.2672,39.7978,嘉峪关市,酒钢宾馆,颗粒物(PM10),86,122,261,24,48,59,,75,68,17,8,10,12,0.5,0.3
2026-02-10T1100,3248A,98.2644,39.7723,嘉峪关市,雄关区,细颗粒物(PM2.5),113,90,186,85,54,61,,56,52,19,17,14,11,0.4,0.4
2026-02-10T1100,1383A,113.1063,22.6058,江门市,北街,,41,41,40,23,26,58,,47,45,28,26,/,/,/,/
2026-02-10T1100,1384A,113.073,22.5835,江门市,西区,,48,48,48,20,26,56,,48,44,28,24,/,/,/,/
2026-02-10T1100,1385A,113.0218,22.531,江门市,圭峰西,,34,34,42,20,26,58,,48,46,25,21,/,/,/,/
2026-02-10T1100,1386A,113.0826,22.5947,江门市,东湖,,42,42,48,27,26,50,,46,41,32,25,6,5,0.4,0.4
2026-02-10T1100,3311A,113.1077,22.5647,江门市,江海富民,颗粒物(PM10),60,69,52,15,25,63,,49,48,31,29,/,/,0.4,0.4
2026-02-10T1100,3449A,113.0496,22.4669,江门市,新会银湖,,,,43,,28,,,31,31,28,28,,6,0.4,0.4
2026-02-10T1100,3335A,113.3137,35.2643,焦作市,马村街道办,颗粒物(PM10),80,110,101,20,62,65,,38,38,10,25,8,10,0.5,0.7
2026-02-10T1100,3336A,113.2464,35.2374,焦作市,焦作技师学院,颗粒物(PM10),76,101,91,15,57,61,,35,35,13,29,6,9,0.2,0.6
2026-02-10T1100,3477A,113.1656,35.2536,焦作市,中站许衡医院,颗粒物(PM10),72,93,82,17,57,67,,48,48,8,20,8,12,0.5,0.8
2026-02-10T1100,3981A,113.2456,35.18,焦作市,原李万街道办,颗粒物(PM10),101,151,97,24,63,65,,35,35,10,26,6,9,0.3,0.6
2026-02-10T1100,4264A,113.234,35.219,焦作市,新安路1731号,颗粒物(PM10),82,113,94,23,58,68,,43,43,16,29,8,10,0.4,0.6
2026-02-10T1100,4295A,113.2722,35.2121,焦作市,人民路3066号,,,116,96,26,65,63,,37,37,13,28,,8,,0.7
2026-02-10T1100,1708A,116.3701,23.5345,揭阳市,新兴,颗粒物(PM10),53,56,44,29,21,64,,62,56,28,21,8,8,0.6,0.5
2026-02-10T1100,1709A,116.3261,23.5442,揭阳市,西马,颗粒物(PM10),53,56,48,32,23,69,,62,57,22,18,8,5,0.6,0.5
2026-02-10T1100,1710A,116.361,23.5627,揭阳市,东兴,颗粒物(PM10),59,67,43,27,20,60,,56,51,24,18,8,10,/,/
2026-02-10T1100,1711A,116.4151,23.5295,揭阳市,渔湖,颗粒物(PM10),51,52,42,33,22,79,,67,60,20,20,6,5,/,/
2026-02-10T1100,3320A,116.4028,23.5699,揭阳市,曲溪,,50,50,46,33,23,72,,67,61,20,15,4,5,0.5,0.5
2026-02-10T1100,1944A,102.1691,38.5166,金昌市,天庆家园,颗粒物(PM10),157,263,264,61,56,58,,63,57,15,10,23,17,0.6,0.4
2026-02-10T1100,4022A,102.1648,38.5369,金昌市,金川区人防中心,颗粒物(PM10),168,286,256,70,58,61,,62,54,13,9,34,18,0.5,0.4
2026-02-10T1100,4239A,102.193042,38.531887,金昌市,长春路96号,颗粒物(PM10),140,229,256,49,52,58,,63,55,15,9,70,39,0.7,0.6
2026-02-10T1100,1262A,119.6478,29.0773,金华市,十五中,,,47,40,40,28,,,46,44,24,18,3,2,0.9,0.5
2026-02-10T1100,1263A,119.6859,29.1032,金华市,监测站,细颗粒物(PM2.5),55,47,41,39,29,32,,39,35,30,24,3,3,0.7,0.6
2026-02-10T1100,3659A,119.656,29.1132,金华市,气象局,细颗粒物(PM2.5),64,56,45,46,29,31,,30,28,36,33,4,2,0.7,0.5
2026-02-10T1100,1767A,121.1114,41.0879,锦州市,南山,细颗粒物(PM2.5),114,127,100,86,73,49,,43,30,36,40,21,21,1.2,1.1
2026-02-10T1100,1768A,121.060361,40.842794,锦州市,开发区,细颗粒物(PM2.5),173,158,118,131,81,28,,35,20,51,40,22,12,1.8,0.9
2026-02-10T1100,1769A,121.1836,41.1118,锦州市,百股街道,细颗粒物(PM2.5),110,112,108,83,87,57,,43,32,25,37,26,18,1.3,1.3
2026-02-10T1100,1770A,121.1176,41.1224,锦州市,天安街道,细颗粒物(PM2.5),102,122,106,76,79,57,,42,33,24,37,15,15,1.2,1.3
2026-02-10T1100,1771A,121.1303,41.1385,锦州市,北湖公园,细颗粒物(PM2.5),99,125,107,74,82,60,,44,34,21,38,20,19,1.0,1.1
2026-02-10T1100,2160A,112.8496,35.5051,晋城市,自来水公司,颗粒物(PM10),94,137,78,10,35,56,,45,45,9,19,5,7,0.4,0.7
2026-02-10T1100,2162A,112.8509,35.4886,晋城市,市环保局,颗粒物(PM10),89,127,71,18,40,70,,56,56,8,18,3,4,0.5,0.7
2026-02-10T1100,3620A,112.8258,35.4804,晋城市,泽州一中,颗粒物(PM10),99,147,77,30,52,74,,61,61,6,14,3,5,0.3,0.6
2026-02-10T1100,4078A,112.8246,35.5152,晋城市,前书院路,颗粒物(PM10),107,163,92,20,35,59,,50,50,7,19,6,7,0.4,0.5
2026-02-10T1100,4079A,112.8864,35.4773,晋城市,祥云街666号,颗粒物(PM10),101,151,84,16,46,70,,53,53,6,22,5,7,0.2,0.5
2026-02-10T1100,2174A,112.6992,37.6984,晋中市,榆次区政府,细颗粒物(PM2.5),179,210,140,135,106,25,,10,10,45,51,24,14,1.5,1.2
2026-02-10T1100,2865A,112.7195,37.683,晋中市,榆次三中,细颗粒物(PM2.5),129,200,141,98,100,28,,13,13,44,46,22,17,1.3,1.1
2026-02-10T1100,4080A,112.7375,37.7215,晋中市,广安街188号,细颗粒物(PM2.5),173,217,165,131,112,28,,10,10,44,48,12,11,1.2,1.2
2026-02-10T1100,4200A,112.7478,37.6954,晋中市,迎宾街26号,细颗粒物(PM2.5),172,200,142,130,110,31,,15,15,41,46,23,16,1.3,1.3
2026-02-10T1100,2439A,112.2012,31.048,荆门市,竹园小学,细颗粒物(PM2.5),99,91,69,74,56,42,,53,47,19,20,1,1,0.6,0.5
2026-02-10T1100,2440A,112.1968,30.9892,荆门市,掇刀,细颗粒物(PM2.5),110,92,73,83,60,48,,62,54,14,13,3,3,0.8,0.7
2026-02-10T1100,3012A,112.1849,31.0361,荆门市,西山林语,细颗粒物(PM2.5),102,85,65,76,53,40,,49,44,17,18,2,1,0.5,0.5
2026-02-10T1100,3547A,112.1631,31.0134,荆门市,龙泉中学南校,细颗粒物(PM2.5),92,91,71,68,56,50,,61,55,9,11,3,3,0.5,0.6
2026-02-10T1100,4124A,112.2213,31.0654,荆门市,新台西路6号,细颗粒物(PM2.5),102,83,73,76,61,46,,54,47,18,22,8,8,0.6,0.5
2026-02-10T1100,1844A,112.2493,30.3198,荆州市,市图书馆,细颗粒物(PM2.5),77,,51,56,48,42,,61,54,24,17,6,7,0.8,0.7
2026-02-10T1100,1845A,112.2009,30.3543,荆州市,市委党校,细颗粒物(PM2.5),89,74,58,66,58,44,,55,51,19,16,6,6,1.0,0.9
2026-02-10T1100,3194A,112.2749,30.3124,荆州市,管委会,细颗粒物(PM2.5),79,66,47,58,51,47,,57,52,21,17,6,6,0.6,0.6
2026-02-10T1100,4268A,112.1722,30.3366,荆州市,学苑路85号,细颗粒物(PM2.5),94,,50,70,56,51,,63,59,11,9,7,5,0.5,0.4
2026-02-10T1100,2343A,117.2114,29.2931,景德镇市,老干部活动中心,,42,29,28,29,18,26,,37,28,18,14,4,4,0.8,0.6
2026-02-10T1100,2344A,117.1893,29.2789,景德镇市,兽医站,,46,41,34,32,21,30,,41,32,23,18,4,4,0.7,0.5
2026-02-10T1100,2346A,117.246,29.2958,景德镇市,陶研所,,43,,23,30,19,22,,38,28,20,13,4,4,0.7,0.5
2026-02-10T1100,4289A,117.154766,29.256967,景德镇市,青少年活动中心,细颗粒物(PM2.5),58,,31,41,26,29,,38,32,24,18,5,4,/,/
2026-02-10T1100,1803A,115.9873,29.6816,九江市,十里,,,58,43,53,37,31,,29,27,,38,3,5,0.8,0.6
2026-02-10T1100,1804A,115.9583,29.7047,九江市,茅山头,细颗粒物(PM2.5),70,,45,51,51,35,,38,34,18,25,5,5,0.6,0.5
2026-02-10T1100,1805A,115.9877,29.7295,九江市,西园,细颗粒物(PM2.5),68,61,50,49,46,39,,44,41,22,28,7,8,1.0,0.9
2026-02-10T1100,1808A,115.9112,29.6038,九江市,综合工业园,细颗粒物(PM2.5),59,57,49,42,46,32,,37,28,34,36,5,5,0.9,0.7
2026-02-10T1100,3190A,116.0254,29.6995,九江市,外国语学校,细颗粒物(PM2.5),65,,42,47,46,30,,28,28,32,33,4,4,0.8,0.7
2026-02-10T1100,4253A,116.010205,29.659402,九江市,莲花大道8号,细颗粒物(PM2.5),62,45,58,44,47,35,,27,27,22,27,4,4,0.8,0.7
2026-02-10T1100,4240A,98.495752,39.733935,酒泉市,玉门东路5号,颗粒物(PM10),104,158,306,48,58,49,,66,56,23,10,11,10,0.6,0.4
2026-02-10T1100,4241A,98.5099,39.7506,酒泉市,北大街108号,颗粒物(PM10),123,195,296,60,61,40,,58,46,17,8,11,9,0.8,0.5
2026-02-10T1100,2698A,76.0071,39.466,喀什地区,巡警大队,颗粒物(PM10),405,505,538,152,156,6,,10,8,46,35,4,6,2.1,1.3
2026-02-10T1100,2699A,75.9756,39.4693,喀什地区,吾办,颗粒物(PM10),360,468,510,169,164,,,,,49,32,9,5,1.8,1.1
2026-02-10T1100,4027A,75.9485,39.4688,喀什地区,老干局,颗粒物(PM10),403,503,535,135,149,8,,23,17,35,24,4,5,1.5,1.2
2026-02-10T1100,1824A,114.3389,34.778,开封市,肿瘤医院,,,89,66,54,57,,,,,33,23,9,7,0.9,0.7
2026-02-10T1100,1826A,114.2884,34.7966,开封市,世纪星幼儿园,细颗粒物(PM2.5),84,86,66,62,56,29,,36,32,38,25,9,7,0.8,0.7
2026-02-10T1100,3147A,114.3434,34.8101,开封市,龙亭公园,细颗粒物(PM2.5),82,90,63,60,57,35,,42,38,34,23,10,8,0.9,0.7
2026-02-10T1100,3210A,114.3645,34.7955,开封市,汴京公园,颗粒物(PM10),75,100,68,53,49,34,,40,36,31,21,6,5,0.9,0.6
2026-02-10T1100,3473A,114.2485,34.8306,开封市,技师学院,细颗粒物(PM2.5),74,87,63,54,54,43,,42,38,29,21,10,7,1.1,0.9
2026-02-10T1100,3592A,114.4518,34.7503,开封市,祥符区生态环境局,细颗粒物(PM2.5),89,96,71,66,57,41,,37,35,28,21,8,5,0.8,0.5
2026-02-10T1100,1951A,84.886,45.6029,克拉玛依市,长征新村,颗粒物(PM10),54,57,52,33,27,27,,55,44,42,18,6,5,1.0,0.7
2026-02-10T1100,1952A,84.8894,45.5827,克拉玛依市,南林小区,颗粒物(PM10),59,68,52,24,26,26,,36,32,47,18,1,1,1.0,0.7
2026-02-10T1100,1954A,84.896,44.3328,克拉玛依市,独山子区,,39,39,43,25,36,71,,81,77,21,14,3,3,0.7,0.7
2026-02-10T1100,1955A,85.6888,46.0909,克拉玛依市,乌尔禾区商贸楼,,48,48,53,23,28,38,,44,44,20,18,7,8,0.7,1
2026-02-10T1100,3612A,85.1045,45.6895,克拉玛依市,白碱滩区新站,细颗粒物(PM2.5),77,80,48,56,31,12,,39,22,53,25,10,9,0.9,0.7
2026-02-10T1100,2697A,76.1457,39.7143,克孜勒苏柯尔克孜自治州,市人民政府,颗粒物(PM10),400,500,526,116,120,46,,49,48,7,10,3,4,0.2,0.3
2026-02-10T1100,3665A,76.1654,39.7157,克孜勒苏柯尔克孜自治州,克州文化中心,颗粒物(PM10),369,475,518,128,135,48,,53,46,8,8,4,4,0.5,0.5
2026-02-10T1100,1450A,102.8203,24.889,昆明市,呈贡新区,,41,41,35,13,21,83,,70,70,12,14,5,4,0.4,0.4
2026-02-10T1100,1452A,102.7253,25.0904,昆明市,龙泉镇,,,,40,0,21,87,,55,55,,29,4,4,0.4,0.5
2026-02-10T1100,1453A,102.7267,25.0378,昆明市,东风东路,,30,28,30,14,20,94,,74,74,12,16,6,8,0.5,0.5
2026-02-10T1100,1454A,102.6744,25.0671,昆明市,金鼎山,,27,17,33,14,19,85,,69,69,8,14,3,7,0.5,0.6
2026-02-10T1100,1455A,102.6643,25.0401,昆明市,碧鸡广场,,28,28,32,7,22,88,,60,60,8,23,3,6,0.2,0.6
2026-02-10T1100,3179A,102.7491,25.012,昆明市,官渡区博物馆,,,32,37,10,23,86,,51,45,14,21,8,5,,0.6
2026-02-10T1100,3375A,102.8016,24.8336,昆明市,青年创业园,,34,34,30,22,19,88,,70,70,6,9,7,5,0.6,0.6
2026-02-10T1100,3550A,102.8,24.9787,昆明市,昆明学院,,29,26,27,9,16,92,,77,77,7,9,6,4,0.6,0.6
2026-02-10T1100,3551A,102.5969,24.6738,昆明市,晋宁区生态环境分局,,30,29,29,14,21,96,,64,64,5,8,2,1,0.4,0.5
2026-02-10T1100,3552A,102.6673,24.9861,昆明市,云天化总部,,30,30,29,3,16,91,,59,59,10,21,13,8,0.7,0.5
2026-02-10T1100,1456A,91.132,29.6515,拉萨市,八廓街,,33,24,22,23,14,52,,33,33,20,26,8,8,0.9,0.8
2026-02-10T1100,1457A,91.1221,29.6748,拉萨市,市环保局,,41,41,49,8,29,38,,11,11,26,38,8,9,0.9,1.4
2026-02-10T1100,1458A,91.0874,29.6476,拉萨市,区监测站,,32,27,17,22,11,48,,27,27,27,35,5,5,1.0,0.9
2026-02-10T1100,1459A,91.1774,29.6541,拉萨市,西藏大学,,15,10,18,7,9,48,,40,37,12,19,4,4,0.3,0.5
2026-02-10T1100,1460A,90.9798,29.6586,拉萨市,区辐射站,,41,41,35,26,18,43,,36,35,30,32,5,5,0.6,0.7
2026-02-10T1100,1461A,91.0831,29.6292,拉萨市,拉萨火车站,,43,,16,30,10,53,,34,33,34,24,5,4,0.9,0.6
2026-02-10T1100,2520A,109.2203,23.7252,来宾市,来宾技工学校,细颗粒物(PM2.5),57,56,43,40,36,16,,33,27,15,15,4,4,0.9,0.9
2026-02-10T1100,3535A,109.1781,23.7293,来宾市,兴宾区政府,细颗粒物(PM2.5),53,53,53,37,38,22,,39,33,16,18,4,4,0.9,0.9
2026-02-10T1100,4002A,109.2312,23.7428,来宾市,中南小学,"颗粒物(PM10),细颗粒物(PM2.5)",54,58,42,38,39,15,,29,24,16,18,4,4,0.8,0.9
2026-02-10T1100,1479A,103.8309,36.0467,兰州市,铁路设计院,,,,,,,,,,,,,,,,
2026-02-10T1100,3241A,103.7439,36.0841,兰州市,百合公园,颗粒物(PM10),111,172,169,44,51,44,,57,38,33,20,16,11,1.0,0.8
2026-02-10T1100,3242A,103.9613,35.9985,兰州市,和平,颗粒物(PM10),123,195,170,40,45,63,,67,57,13,12,11,11,0.7,0.6
2026-02-10T1100,4236A,103.629272,36.093822,兰州市,庄浪东路808号,,,,172,,49,59,,70,64,,18,28,18,0.6,0.5
2026-02-10T1100,4237A,103.7251,36.104344,兰州市,安宁西路88号,颗粒物(PM10),135,219,225,55,56,55,,70,54,24,12,17,11,0.7,0.4
2026-02-10T1100,4238A,103.846982,36.067567,兰州市,北滨河东路1号,颗粒物(PM10),122,194,187,52,50,38,,51,33,41,29,17,11,1.4,0.6
2026-02-10T1100,1067A,116.6712,39.5109,廊坊市,药材公司,细颗粒物(PM2.5),144,159,155,110,118,32,,8,8,53,52,5,5,1.0,1
2026-02-10T1100,1068A,116.7215,39.5592,廊坊市,开发区,细颗粒物(PM2.5),143,165,155,109,114,28,,11,11,76,63,5,5,1.0,1
2026-02-10T1100,1070A,116.7246,39.5273,廊坊市,北华航天学院,细颗粒物(PM2.5),143,160,156,109,123,35,,15,15,56,55,8,8,0.9,1
2026-02-10T1100,2919A,116.7022,39.5454,廊坊市,河北工业大学,细颗粒物(PM2.5),140,174,162,107,113,23,,10,10,70,55,5,6,1.0,1
2026-02-10T1100,2536A,103.7629,29.5844,乐山市,牛耳桥,,45,40,40,31,29,36,,34,30,27,20,4,5,0.7,0.6
2026-02-10T1100,2537A,103.7501,29.6002,乐山市,市第三水厂,,,46,42,30,26,32,,40,34,30,21,,3,1.0,0.8
2026-02-10T1100,2538A,103.7571,29.5664,乐山市,市监测站,,45,42,37,31,26,37,,31,27,19,17,5,6,0.9,0.8
2026-02-10T1100,3361A,103.7313,29.563,乐山市,理工大学,,39,33,34,27,24,38,,26,24,17,14,3,2,0.8,0.8
2026-02-10T1100,2599A,100.2497,26.8802,丽江市,丽江古城,,28,28,25,3,12,79,,74,74,8,10,6,6,0.4,0.4
2026-02-10T1100,2600A,100.2203,26.8906,丽江市,市中心,,27,19,17,8,13,86,,80,79,10,9,5,5,0.4,0.4
2026-02-10T1100,1267A,119.9141,28.4513,丽水市,监测站大楼,,26,26,27,15,15,62,,45,44,10,11,5,5,0.4,0.3
2026-02-10T1100,1268A,119.93,28.4589,丽水市,莲都小学,,,22,19,13,11,,,47,43,,12,/,/,/,/
2026-02-10T1100,1269A,119.8794,28.4232,丽水市,余庄前,,21,21,20,14,12,50,,22,22,12,11,4,4,0.3,0.3
2026-02-10T1100,1173A,119.1759,34.5885,连云港市,市环境监测站,细颗粒物(PM2.5),62,51,52,44,40,48,,47,47,22,29,12,12,0.5,0.6
2026-02-10T1100,3000A,119.3577,34.6971,连云港市,德源药业,细颗粒物(PM2.5),62,63,60,44,39,53,,32,32,16,24,8,7,1.2,1.1
2026-02-10T1100,3007A,119.178,34.8442,连云港市,新城一中,细颗粒物(PM2.5),74,65,58,54,43,50,,40,40,28,37,11,10,0.4,0.4
2026-02-10T1100,3008A,119.3607,34.7519,连云港市,胡沟管理处,细颗粒物(PM2.5),58,56,47,41,35,44,,39,38,22,22,8,8,1.1,1.1
2026-02-10T1100,3009A,119.1478,34.5913,连云港市,矿山设计院,细颗粒物(PM2.5),58,61,53,41,35,48,,45,45,18,24,12,10,0.9,1
2026-02-10T1100,3434A,119.2414,34.6539,连云港市,工贸学校,细颗粒物(PM2.5),74,71,58,54,41,46,,46,46,26,23,13,12,0.7,0.7
2026-02-10T1100,3664A,119.4171,34.734,连云港市,连云街道,细颗粒物(PM2.5),70,70,58,51,36,61,,52,52,22,25,15,8,0.8,0.8
2026-02-10T1100,2573A,102.2629,27.8981,凉山彝族自治州,西昌市政府,,39,30,28,27,17,56,,64,58,23,11,9,10,0.9,0.7
2026-02-10T1100,2574A,102.2686,27.885,凉山彝族自治州,凉山州政府,,,54,30,21,18,44,,43,37,,13,9,11,,0.8
2026-02-10T1100,4229A,102.2342,27.8859,凉山彝族自治州,凯乐南路30号,,48,48,39,24,17,34,,41,30,38,20,10,11,0.7,0.6
2026-02-10T1100,2212A,123.1978,41.2036,辽阳市,宏伟区,,,62,68,50,49,,,75,71,12,10,8,8,0.8,0.8
2026-02-10T1100,2213A,123.1684,41.2497,辽阳市,新华园,细颗粒物(PM2.5),79,,68,58,52,61,,73,66,18,16,7,7,0.6,0.5
2026-02-10T1100,2214A,123.2355,41.2663,辽阳市,滨河路,细颗粒物(PM2.5),74,68,62,54,50,52,,72,63,24,16,9,14,0.9,0.9
2026-02-10T1100,4083A,123.153,41.2874,辽阳市,铁西路150号,细颗粒物(PM2.5),77,62,83,56,53,51,,64,57,20,16,9,9,0.8,0.8
2026-02-10T1100,2227A,125.1359,42.8845,辽源市,环保局,,,65,59,40,43,79,,71,65,,25,8,9,0.9,1
2026-02-10T1100,4085A,125.0998,42.9134,辽源市,安宁大街333号,细颗粒物(PM2.5),64,72,66,46,46,81,,74,72,15,23,10,10,0.7,0.7
2026-02-10T1100,1625A,115.9789,36.4372,聊城市,区政府,细颗粒物(PM2.5),92,78,71,68,48,48,,50,45,16,15,13,12,0.7,0.6
2026-02-10T1100,3200A,115.9772,36.4986,聊城市,监控中心,,,83,78,64,47,,,59,53,20,20,11,10,0.9,0.8
2026-02-10T1100,3513A,116.0443,36.436,聊城市,九州社区,细颗粒物(PM2.5),87,81,75,64,43,61,,60,54,6,5,3,2,0.6,0.5
2026-02-10T1100,4018A,116.0564,36.4609,聊城市,星美广场,细颗粒物(PM2.5),93,80,76,69,46,54,,53,48,10,10,4,3,0.6,0.5
2026-02-10T1100,4113A,116.0091,36.4495,聊城市,利民路,,,,76,,44,,,52,45,14,17,,8,0.7,0.7
2026-02-10T1100,2632A,94.3683,29.6373,林芝市,林芝监测站,,25,12,8,12,7,80,,82,79,4,2,4,5,0.5,0.4
2026-02-10T1100,2633A,94.3616,29.6634,林芝市,林芝人民医院,,25,18,13,3,7,78,,76,72,5,2,6,6,0.5,0.4
2026-02-10T1100,2603A,100.0779,23.8981,临沧市,市环保局,,50,50,42,29,30,55,,45,43,13,11,6,6,0.9,0.7
2026-02-10T1100,2604A,100.0894,23.882,临沧市,市气象局,细颗粒物(PM2.5),62,62,49,44,31,46,,46,40,21,10,5,5,0.8,0.6
2026-02-10T1100,1733A,111.5552,36.0791,临汾市,临钢医院,颗粒物(PM10),95,140,109,23,55,71,,38,38,12,31,3,7,0.5,1.1
2026-02-10T1100,1734A,111.4984,36.0734,临汾市,技工学校,颗粒物(PM10),89,128,104,19,62,73,,30,30,25,44,2,7,0.4,1
2026-02-10T1100,1736A,111.5017,36.0857,临汾市,市委,颗粒物(PM10),86,121,114,20,55,76,,33,33,8,42,3,7,0.2,0.9
2026-02-10T1100,3018A,111.5048,36.1015,临汾市,唐尧大酒店,颗粒物(PM10),92,134,115,18,55,77,,38,38,11,44,4,9,0.6,1.2
2026-02-10T1100,4244A,111.4879,36.053,临汾市,启星学校,,,,106,,67,,,9,9,,51,4,8,0.6,1.2
2026-02-10T1100,4271A,103.2464,35.6123,临夏回族自治州,滨河东路1号,颗粒物(PM10),109,168,149,53,54,49,,38,35,20,15,7,9,0.8,0.7
2026-02-10T1100,4310A,103.207136,35.599807,临夏回族自治州,新华街21号,颗粒物(PM10),114,177,152,64,51,45,,48,41,27,17,8,9,1.0,0.6
2026-02-10T1100,1618A,118.3429,35.0532,临沂市,沂河小区,细颗粒物(PM2.5),95,90,69,71,39,40,,23,22,29,32,15,17,0.5,0.5
2026-02-10T1100,1619A,118.2962,35.0568,临沂市,鲁南制药厂,细颗粒物(PM2.5),103,95,64,77,41,40,,20,20,31,38,19,19,0.5,0.5
2026-02-10T1100,1620A,118.2793,34.9976,临沂市,新光毛纺厂,细颗粒物(PM2.5),94,78,60,70,45,43,,21,21,22,33,13,17,0.6,0.6
2026-02-10T1100,1621A,118.3955,35.0889,临沂市,河东保险公司,细颗粒物(PM2.5),99,90,66,74,44,50,,27,27,29,38,16,16,0.6,0.7
2026-02-10T1100,3370A,118.3563,35.0215,临沂市,十里堡居委,细颗粒物(PM2.5),97,88,64,72,41,45,,23,23,28,35,15,18,0.7,0.6
2026-02-10T1100,3496A,118.359,35.1067,临沂市,南坊新区,细颗粒物(PM2.5),94,88,59,70,36,45,,29,26,32,37,16,16,0.6,0.5
2026-02-10T1100,3860A,118.3915,35.0297,临沂市,皇山花园小区,细颗粒物(PM2.5),99,85,65,74,45,46,,26,26,32,41,18,20,0.8,0.7
2026-02-10T1100,1870A,109.4854,24.3898,柳州市,柳东小学,,48,,36,33,30,20,,23,21,9,8,8,7,0.7,0.7
2026-02-10T1100,1871A,109.4109,24.3304,柳州市,环保监测站,,28,27,33,19,27,10,,26,21,25,16,4,3,1.0,0.7
2026-02-10T1100,1872A,109.3886,24.3408,柳州市,河西水厂,,38,38,43,18,29,9,,22,18,19,17,8,5,0.6,0.6
2026-02-10T1100,1873A,109.4263,24.2951,柳州市,市四中,,28,19,32,19,30,20,,22,20,12,14,6,6,0.9,0.9
2026-02-10T1100,1874A,109.396,24.3658,柳州市,市九中,,24,24,33,15,31,8,,21,16,18,13,8,8,0.9,0.8
2026-02-10T1100,1875A,109.4912,24.3164,柳州市,古亭山,,35,,29,24,31,20,,18,18,9,15,6,6,0.8,0.8
2026-02-10T1100,3402A,109.5422,24.3994,柳州市,市二中,,33,28,33,23,28,16,,25,21,16,14,5,5,0.5,0.4
2026-02-10T1100,2307A,116.5078,31.7369,六安市,监测大楼,,49,,47,34,37,67,,54,54,12,23,3,3,0.4,0.4
2026-02-10T1100,2308A,116.4738,31.7642,六安市,皖西学院,,50,38,52,35,38,74,,64,64,11,23,4,5,0.4,0.5
2026-02-10T1100,2309A,116.4997,31.7904,六安市,朝阳厂,细颗粒物(PM2.5),52,42,47,36,35,71,,62,62,12,25,3,5,0.4,0.5
2026-02-10T1100,2310A,116.5566,31.7885,六安市,开发区,,49,,46,34,40,74,,59,59,6,16,4,5,0.4,0.4
2026-02-10T1100,2577A,104.8293,26.592,六盘水市,黄土坡,,30,25,40,21,32,27,,24,24,15,21,9,8,1.0,1.4
2026-02-10T1100,2579A,104.8481,26.5898,六盘水市,民中,,28,28,39,18,33,23,,24,24,16,18,4,4,0.8,1.4
2026-02-10T1100,2580A,104.9541,26.5506,六盘水市,双水,,,19,24,11,18,,,36,36,7,11,2,4,0.3,0.4
2026-02-10T1100,4151A,104.8899,26.5685,六盘水市,钟山大道中段564号,,29,24,33,20,23,23,,28,26,11,11,6,6,0.8,1
2026-02-10T1100,2336A,117.022,25.1031,龙岩市,龙岩市监测站,,39,31,33,27,25,36,,38,32,36,20,14,11,0.8,0.7
2026-02-10T1100,2337A,117.0257,25.0662,龙岩市,闽西职业技术学院,,39,39,32,26,20,38,,51,40,32,16,13,8,0.7,0.6
2026-02-10T1100,2338A,117.0195,25.0306,龙岩市,龙岩学院,颗粒物(PM10),53,55,30,33,19,35,,54,50,29,13,9,4,/,/
2026-02-10T1100,2885A,104.9344,33.3827,陇南市,滨江中学,颗粒物(PM10),100,149,69,45,28,63,,30,30,14,20,7,5,0.7,0.9
2026-02-10T1100,3247A,104.9551,33.3709,陇南市,市总工会,颗粒物(PM10),103,156,62,41,26,57,,24,24,19,21,4,3,0.7,0.9
2026-02-10T1100,2488A,111.9984,27.7346,娄底市,市监测站,细颗粒物(PM2.5),78,64,60,57,56,14,,32,24,22,15,7,7,1.0,0.9
2026-02-10T1100,2491A,111.9888,27.7035,娄底市,市政府,细颗粒物(PM2.5),69,65,58,50,46,18,,37,30,11,8,3,4,0.4,0.3
2026-02-10T1100,4127A,111.9812,27.7591,娄底市,涟钢职大,细颗粒物(PM2.5),72,56,60,52,43,11,,33,24,22,16,3,2,1.0,1.2
2026-02-10T1100,4128A,112.0303,27.7457,娄底市,娄底体校,细颗粒物(PM2.5),87,73,58,64,53,20,,25,22,11,9,2,2,0.4,0.3
2026-02-10T1100,1894A,105.4427,28.9063,泸州市,小市上码头,细颗粒物(PM2.5),69,63,40,50,32,22,,41,31,18,16,4,4,0.8,0.8
2026-02-10T1100,1895A,105.4241,28.8573,泸州市,兰田宪桥,细颗粒物(PM2.5),62,66,41,44,27,23,,44,32,17,15,8,8,0.6,0.6
2026-02-10T1100,1896A,105.4378,28.8833,泸州市,市环监站,颗粒物(PM10),63,76,47,39,27,20,,39,29,19,17,6,6,0.8,0.7
2026-02-10T1100,4272A,105.3689,28.7783,泸州市,纳溪中医医院,细颗粒物(PM2.5),78,61,38,57,32,32,,46,38,13,12,8,8,0.8,0.7
2026-02-10T1100,2183A,111.1447,37.5212,吕梁市,环保局,颗粒物(PM10),78,106,83,33,31,78,,53,53,5,36,4,7,0.2,0.4
2026-02-10T1100,2185A,111.1285,37.5338,吕梁市,自来水公司,,,109,84,18,29,,,60,60,5,32,2,7,,0.3
2026-02-10T1100,2867A,111.1225,37.5093,吕梁市,马茂庄小学,颗粒物(PM10),85,120,95,28,31,73,,52,52,8,38,3,8,0.3,0.6
2026-02-10T1100,1812A,112.3934,34.6517,洛阳市,市委党校,颗粒物(PM10),102,153,91,32,62,64,,40,40,14,25,10,9,0.6,0.8
2026-02-10T1100,1815A,112.494,34.6883,洛阳市,河南林校,颗粒物(PM10),125,200,102,38,62,62,,33,33,27,39,16,13,0.6,0.7
2026-02-10T1100,1816A,112.3843,34.623,洛阳市,开发区管委会,颗粒物(PM10),102,153,104,35,59,72,,43,43,12,25,12,12,0.5,0.7
2026-02-10T1100,1817A,112.4263,34.6249,洛阳市,市委新办公区,颗粒物(PM10),97,143,98,31,61,72,,45,45,15,29,11,10,0.5,0.7
2026-02-10T1100,3340A,112.6005,34.6323,洛阳市,伊滨,颗粒物(PM10),107,164,108,31,70,63,,40,40,19,34,12,10,0.8,0.9
2026-02-10T1100,3341A,112.495,34.6338,洛阳市,中移产业园,,,200,96,66,67,,,34,31,20,31,,11,0.6,0.8
2026-02-10T1100,3593A,112.5736,34.8993,洛阳市,吉利监测站,颗粒物(PM10),92,134,97,34,70,64,,23,23,21,42,13,10,0.9,0.8
2026-02-10T1100,3635A,112.3678,34.6623,洛阳市,河科大西苑校区,颗粒物(PM10),111,172,92,30,58,70,,42,42,15,29,12,10,0.5,1.3
2026-02-10T1100,3636A,112.4387,34.678,洛阳市,英才小学,颗粒物(PM10),123,195,102,35,62,64,,38,38,29,37,17,12,0.8,0.9
2026-02-10T1100,4214A,112.460027,34.694929,洛阳市,春都路1号院,颗粒物(PM10),129,208,109,28,64,59,,33,33,21,34,13,10,0.7,0.8
2026-02-10T1100,2399A,114.051,33.5721,漯河市,三五一五工厂,颗粒物(PM10),78,105,75,53,51,59,,45,45,16,19,6,5,0.7,0.6
2026-02-10T1100,2400A,114.0055,33.5698,漯河市,漯河大学,颗粒物(PM10),72,93,64,51,49,62,,48,48,14,17,6,6,0.8,0.7
2026-02-10T1100,2401A,114.0134,33.5826,漯河市,市水利局,,,,64,,50,49,,43,43,,18,6,5,,0.6
2026-02-10T1100,2402A,114.0261,33.5697,漯河市,市广电局,细颗粒物(PM2.5),74,95,62,54,50,54,,41,41,12,15,8,7,0.7,0.6
2026-02-10T1100,3478A,113.9691,33.568,漯河市,市图书馆,细颗粒物(PM2.5),79,92,74,58,49,52,,44,44,13,14,7,7,0.7,0.6
2026-02-10T1100,4250A,114.089259,33.588274,漯河市,韶山路11号,颗粒物(PM10),83,115,76,60,48,60,,48,48,14,17,8,6,0.6,0.5
2026-02-10T1100,1798A,118.5084,31.6838,马鞍山市,湖东路四小,,,53,47,44,36,58,,47,47,,24,4,3,0.5,0.4
2026-02-10T1100,1799A,118.5019,31.6449,马鞍山市,开发区,细颗粒物(PM2.5),67,53,50,48,38,66,,47,47,14,24,3,4,0.5,0.5
2026-02-10T1100,3633A,118.4914,31.681,马鞍山市,雨山,细颗粒物(PM2.5),65,52,52,47,41,63,,50,50,16,24,6,5,0.5,0.5
2026-02-10T1100,4191A,118.527362,31.722269,马鞍山市,慈湖高新区,细颗粒物(PM2.5),67,62,55,48,36,46,,40,39,34,29,11,5,2.0,0.8
2026-02-10T1100,1686A,111.0285,21.469,茂名市,电白南海,颗粒物(PM10),60,70,57,24,20,72,,72,68,15,13,9,9,0.7,0.7
2026-02-10T1100,1687A,110.9294,21.6533,茂名市,茂石化七小,颗粒物(PM10),58,66,46,28,21,67,,68,64,11,11,9,7,0.5,0.4
2026-02-10T1100,1688A,110.9108,21.6688,茂名市,健康路,,,88,43,26,20,76,,80,75,14,13,61,7,,0.6
2026-02-10T1100,1689A,110.8592,21.6826,茂名市,高岭,颗粒物(PM10),58,66,58,27,22,73,,72,70,16,14,15,6,/,/
2026-02-10T1100,3450A,111.0101,21.5165,茂名市,电白水东,颗粒物(PM10),54,58,47,20,19,78,,78,75,14,15,7,8,/,/
2026-02-10T1100,2540A,103.8414,30.0871,眉山市,气象局,细颗粒物(PM2.5),67,82,53,48,28,30,,16,16,22,21,12,13,0.8,0.7
2026-02-10T1100,3148A,103.829,30.0563,眉山市,区人社局,细颗粒物(PM2.5),58,59,48,41,30,34,,17,17,20,21,8,3,0.6,0.7
2026-02-10T1100,4148A,103.8836,30.0695,眉山市,眉职院,细颗粒物(PM2.5),67,69,47,48,31,35,,18,18,11,15,5,5,0.9,0.8
2026-02-10T1100,1690A,116.1248,24.3307,梅州市,梅江月梅,,32,32,36,19,20,71,,54,54,13,17,/,/,/,/
2026-02-10T1100,1691A,116.0798,24.2719,梅州市,梅县新城,,36,36,40,23,23,66,,49,49,18,20,9,8,0.6,0.6
2026-02-10T1100,3315A,116.1234,24.2994,梅州市,梅龙,,34,34,34,21,20,63,,52,52,14,14,10,8,0.6,0.6
2026-02-10T1100,1878A,104.7775,31.4741,绵阳市,富乐山,颗粒物(PM10),52,53,52,31,38,12,,4,4,21,15,8,8,1.0,0.7
2026-02-10T1100,1880A,104.6698,31.4668,绵阳市,高新区自来水公司,颗粒物(PM10),52,53,59,30,38,10,,2,2,29,25,8,7,1.2,0.9
2026-02-10T1100,3491A,104.6899,31.5324,绵阳市,西科大附属小学,,42,42,60,26,38,20,,6,4,17,22,9,8,1.1,0.9
2026-02-10T1100,3492A,104.5647,31.5343,绵阳市,安州区旅游局,颗粒物(PM10),54,57,63,35,36,11,,5,4,25,18,16,11,1.0,0.7
2026-02-10T1100,4146A,104.7092,31.4972,绵阳市,科技城新区公安局,颗粒物(PM10),52,53,57,27,34,18,,9,7,24,30,6,4,0.9,0.8
2026-02-10T1100,4226A,104.765114,31.453094,绵阳市,绵阳市气象局,,47,47,61,32,40,8,,3,1,23,20,8,9,1.1,0.8
2026-02-10T1100,1784A,129.61,44.561,牡丹江市,环保大楼,细颗粒物(PM2.5),158,133,84,120,61,28,,21,21,,44,,7,1.2,0.9
2026-02-10T1100,1787A,129.6364,44.6075,牡丹江市,机车工厂,细颗粒物(PM2.5),108,98,82,81,59,14,,6,6,67,47,13,9,1.4,1
2026-02-10T1100,1788A,129.6386,44.5462,牡丹江市,第一中学,细颗粒物(PM2.5),75,,52,55,48,32,,20,19,40,38,13,8,1.0,0.9
2026-02-10T1100,4287A,129.5992,44.5964,牡丹江市,东晓云街98号,细颗粒物(PM2.5),100,95,83,75,61,20,,16,10,64,41,9,8,1.1,1.1
2026-02-10T1100,2531A,105.0703,29.61,内江市,市监测站,细颗粒物(PM2.5),69,51,58,50,42,38,,40,36,21,19,5,5,0.7,0.6
2026-02-10T1100,2533A,105.0657,29.5807,内江市,内江二中,细颗粒物(PM2.5),64,57,56,46,41,26,,32,27,24,20,7,7,0.5,0.5
2026-02-10T1100,2534A,105.0407,29.5828,内江市,内江日报社,细颗粒物(PM2.5),60,49,51,43,38,27,,28,24,26,23,6,7,0.3,0.3
2026-02-10T1100,4147A,105.0433,29.6105,内江市,玉峰路西段888号,细颗粒物(PM2.5),90,70,52,67,50,30,,,,21,20,5,5,0.6,0.5
2026-02-10T1100,2628A,92.0653,31.4846,那曲市,那曲监测站,细颗粒物(PM2.5),128,113,46,97,36,26,,25,23,51,29,31,16,2.0,1.5
2026-02-10T1100,4243A,92.0515,31.4787,那曲市,那曲市委宣传部,细颗粒物(PM2.5),103,,26,77,26,24,,26,22,32,20,20,11,1.9,1.2
2026-02-10T1100,1291A,115.8887,28.7006,南昌市,省林业公司,细颗粒物(PM2.5),85,,46,63,47,20,,31,22,32,25,3,4,0.5,0.3
2026-02-10T1100,1292A,115.813,28.7443,南昌市,林科所,细颗粒物(PM2.5),75,63,49,55,44,24,,20,18,30,29,7,7,0.3,0.2
2026-02-10T1100,1294A,115.8518,28.687,南昌市,建工学校,细颗粒物(PM2.5),80,,50,59,46,19,,37,25,33,31,8,8,0.8,0.7
2026-02-10T1100,1295A,115.8926,28.6425,南昌市,象湖,细颗粒物(PM2.5),90,,53,67,52,18,,42,31,30,25,7,8,0.9,0.9
2026-02-10T1100,3046A,115.9084,28.6062,南昌市,机电学校,细颗粒物(PM2.5),90,77,65,67,51,22,,36,28,32,28,4,4,0.7,0.6
2026-02-10T1100,3690A,115.9718,28.7032,南昌市,外国语学校,细颗粒物(PM2.5),87,67,57,64,57,29,,39,32,22,28,11,11,0.8,0.8
2026-02-10T1100,4106A,115.7923,28.6873,南昌市,工业二路,细颗粒物(PM2.5),83,75,60,61,49,23,,32,24,32,27,4,3,0.8,0.7
2026-02-10T1100,4192A,115.931587,28.686774,南昌市,南京东路235号,细颗粒物(PM2.5),82,,49,60,48,22,,41,31,23,25,5,5,0.5,0.6
2026-02-10T1100,1906A,106.0791,30.8022,南充市,南充市委,细颗粒物(PM2.5),64,62,65,46,46,25,,16,14,14,22,3,3,0.6,0.6
2026-02-10T1100,1907A,106.1038,30.8215,南充市,南充炼油厂,细颗粒物(PM2.5),60,62,73,43,43,34,,22,19,8,18,4,4,0.6,0.6
2026-02-10T1100,4227A,106.108336,30.788436,南充市,梨树横街98号,细颗粒物(PM2.5),70,71,71,51,48,36,,29,26,16,18,6,6,0.5,0.4
2026-02-10T1100,4304A,106.1172,30.843,南充市,清泉寺北路188号,,,70,59,51,44,19,,24,21,20,19,,3,,0.5
2026-02-10T1100,4305A,106.067,30.7616,南充市,同庆路1号,细颗粒物(PM2.5),63,68,67,45,46,28,,24,18,25,28,6,6,0.4,0.5
2026-02-10T1100,1151A,118.8033,32.1085,南京市,迈皋桥,,42,42,40,29,28,63,,53,53,20,22,6,7,0.3,0.4
2026-02-10T1100,1152A,118.7487,32.057,南京市,草场门,,45,39,41,31,27,44,,38,38,17,26,5,6,0.6,0.6
2026-02-10T1100,1154A,118.770105,32.004342,南京市,中华门,,,,39,45,32,64,,49,49,12,14,,4,,0.6
2026-02-10T1100,1155A,118.8059,32.0329,南京市,瑞金路,,48,48,41,31,31,65,,53,53,13,10,3,4,0.4,0.3
2026-02-10T1100,1156A,118.7946,32.0774,南京市,玄武湖,,,50,41,31,28,,,52,52,15,18,1,1,0.3,0.3
2026-02-10T1100,1157A,118.6415,32.0964,南京市,浦口,,46,44,47,32,31,74,,54,54,12,25,4,5,0.4,0.4
2026-02-10T1100,1158A,118.730129,32.000956,南京市,奥体中心,细颗粒物(PM2.5),53,45,46,37,32,67,,54,54,10,20,5,5,0.4,0.4
2026-02-10T1100,1159A,118.9072,32.1047,南京市,仙林大学城,,46,41,43,32,30,64,,52,51,15,20,6,6,0.5,0.5
2026-02-10T1100,3422A,118.8443,31.919,南京市,江宁彩虹桥,颗粒物(PM10),56,61,50,32,30,77,,60,59,17,23,3,4,0.7,0.7
2026-02-10T1100,3427A,118.8497,32.3599,南京市,六合雄州,,49,49,47,33,29,62,,50,50,13,25,1,1,0.7,0.6
2026-02-10T1100,4086A,118.7641,32.0841,南京市,新模范马路66号,细颗粒物(PM2.5),52,44,46,36,31,67,,56,56,8,17,4,4,0.4,0.4
2026-02-10T1100,4249A,118.8707617,31.34017673,南京市,汶溪路181号,颗粒物(PM10),58,65,53,36,34,52,,44,44,23,29,7,7,0.8,0.7
2026-02-10T1100,4312A,119.019,31.6512,南京市,中山西路1号,细颗粒物(PM2.5),54,41,42,38,31,57,,45,45,17,23,4,4,0.9,0.8
2026-02-10T1100,1401A,108.3098,22.788,南宁市,二十一中,,43,,53,30,50,18,,22,22,27,32,3,4,0.7,0.7
2026-02-10T1100,1402A,108.3135,22.8529,南宁市,北湖,,40,29,49,28,47,18,,23,20,26,27,2,3,0.7,0.6
2026-02-10T1100,1403A,108.3205,22.8222,南宁市,市监测站,,40,,51,28,46,7,,21,19,34,30,5,6,1.0,0.9
2026-02-10T1100,1404A,108.3828,22.8038,南宁市,大自然花园,,38,29,46,26,39,15,,29,25,26,21,5,5,0.8,0.7
2026-02-10T1100,1406A,108.2397,22.8462,南宁市,区农职院,,39,27,46,27,33,14,,18,18,30,23,3,3,1.1,1
2026-02-10T1100,1407A,108.3285,22.7356,南宁市,英华嘉园,,40,28,57,28,49,17,,21,21,20,25,3,3,0.6,0.6
2026-02-10T1100,3401A,108.4829,22.762,南宁市,红星社区,,50,,45,35,43,22,,28,25,17,14,4,4,0.8,0.8
2026-02-10T1100,4132A,108.2927,23.1477,南宁市,起凤路9号,,33,26,36,23,34,13,,15,14,16,15,2,2,0.7,0.6
2026-02-10T1100,4221A,108.2177,22.7774,南宁市,乐贤路16号,,43,31,53,30,50,7,,5,5,33,26,1,2,0.9,0.7
2026-02-10T1100,2332A,118.1682,26.6371,南平市,南平市监测站,,46,46,32,26,17,44,,48,46,20,13,15,4,0.8,0.3
2026-02-10T1100,2334A,118.1757,26.6276,南平市,南平七中,颗粒物(PM10),51,51,26,20,14,49,,45,45,13,8,10,3,0.7,0.5
2026-02-10T1100,1168A,120.9056,31.9669,南通市,狼山街道,细颗粒物(PM2.5),57,52,32,40,19,38,,43,39,35,34,4,3,0.6,0.4
2026-02-10T1100,1170A,120.8635,32.0231,南通市,城中,细颗粒物(PM2.5),74,64,38,54,25,36,,58,50,32,26,8,4,1.1,0.5
2026-02-10T1100,1171A,120.9376,31.9301,南通市,星湖花园,,50,48,32,35,20,47,,56,49,27,27,6,5,0.8,0.5
2026-02-10T1100,1172A,120.8053,32.046,南通市,紫琅学院,细颗粒物(PM2.5),60,60,37,43,22,35,,41,34,31,26,6,5,1.0,0.8
2026-02-10T1100,3291A,121.0631,32.0644,南通市,通州监测站,细颗粒物(PM2.5),60,58,29,43,21,39,,48,43,29,22,6,4,0.9,0.4
2026-02-10T1100,3432A,120.9348,31.9874,南通市,环境教育馆,细颗粒物(PM2.5),53,51,33,37,19,38,,41,34,30,33,6,5,1.0,0.6
2026-02-10T1100,4091A,120.8692,31.9885,南通市,洪江路,细颗粒物(PM2.5),62,52,30,44,23,32,,50,42,34,28,6,5,0.9,0.5
2026-02-10T1100,2404A,112.5338,33.0086,南阳市,瓦房庄,细颗粒物(PM2.5),79,83,66,58,45,49,,50,46,15,15,4,4,0.9,0.8
2026-02-10T1100,2405A,112.5002,32.9734,南阳市,汉画馆,细颗粒物(PM2.5),95,91,73,71,55,50,,41,39,17,21,8,6,0.8,0.6
2026-02-10T1100,2406A,112.5778,33.0144,南阳市,气象站,颗粒物(PM10),72,93,76,50,48,47,,52,49,18,17,6,5,0.8,0.7
2026-02-10T1100,2407A,112.548,32.9687,南阳市,理工学院,细颗粒物(PM2.5),72,82,79,52,53,53,,47,47,13,17,6,5,0.7,0.6
2026-02-10T1100,4008A,112.5233,32.9921,南阳市,卧龙区政府,细颗粒物(PM2.5),75,86,80,55,49,44,,43,41,16,16,6,5,0.8,0.7
2026-02-10T1100,1234A,121.8352,29.9111,宁波市,区环保大楼,颗粒物(PM10),52,54,24,24,6,5,,37,10,68,30,8,5,0.7,0.4
2026-02-10T1100,1235A,121.5595,29.8208,宁波市,万里学院,,30,30,27,18,9,41,,53,40,28,20,3,2,0.7,0.5
2026-02-10T1100,1236A,121.713,29.9564,宁波市,龙赛医院,,29,29,19,15,7,24,,52,35,43,18,3,2,0.7,0.6
2026-02-10T1100,1240A,121.5855,29.8635,宁波市,太古小学,,29,29,18,18,8,34,,49,36,32,19,4,2,0.6,0.4
2026-02-10T1100,1241A,121.5239,29.8673,宁波市,市环境监测中心,,26,20,28,18,10,24,,49,33,38,19,3,2,0.5,0.3
2026-02-10T1100,2871A,121.6156,29.9015,宁波市,万里国际学校,,,39,33,19,8,37,,61,50,,18,,3,0.6,0.4
2026-02-10T1100,3710A,121.5593,29.8976,宁波市,白沙活动中心,,30,23,25,21,11,35,,55,42,36,19,4,3,0.5,0.3
2026-02-10T1100,4095A,121.8962,29.7529,宁波市,中科路88号,,,22,16,17,8,,,39,27,47,21,,4,0.5,0.4
2026-02-10T1100,2341A,119.5387,26.6611,宁德市,宁德市监测站,,28,21,26,19,15,45,,27,27,21,23,4,4,0.6,0.6
2026-02-10T1100,3209A,119.5231,26.6562,宁德市,宁德一中,,29,24,25,20,16,56,,34,33,18,17,3,3,0.4,0.4
2026-02-10T1100,2618A,98.859,25.8541,怒江傈僳族自治州,州监测站,,23,23,24,3,13,60,,59,57,5,6,6,6,0.4,0.4
2026-02-10T1100,2619A,98.8607,25.8168,怒江傈僳族自治州,泸水一中,,33,33,25,6,19,36,,38,35,21,16,5,4,0.5,0.5
2026-02-10T1100,1888A,101.6891,26.571,攀枝花市,弄弄坪,颗粒物(PM10),86,121,58,56,30,34,,18,14,58,33,109,44,5.4,1.8
2026-02-10T1100,1889A,101.577,26.5914,攀枝花市,河门口,颗粒物(PM10),63,76,41,39,20,41,,22,22,28,20,26,16,1.3,0.6
2026-02-10T1100,1891A,101.7365,26.4986,攀枝花市,仁和,,38,38,31,25,20,57,,47,42,23,15,9,9,0.7,0.6
2026-02-10T1100,2835A,101.7222,26.567,攀枝花市,四十中小,,,92,38,44,19,21,,31,19,,31,39,19,,1.3
2026-02-10T1100,1604A,122.0303,41.1489,盘锦市,开发区,细颗粒物(PM2.5),88,74,89,65,57,39,,55,43,21,18,8,7,0.6,0.5
2026-02-10T1100,1605A,122.0486,41.0883,盘锦市,兴隆台,细颗粒物(PM2.5),90,,78,67,56,43,,61,49,30,26,8,7,0.6,0.5
2026-02-10T1100,1606A,121.8297,41.1026,盘锦市,新生街道,细颗粒物(PM2.5),97,76,73,72,59,42,,58,47,31,27,11,8,0.8,0.7
2026-02-10T1100,1832A,113.3257,33.7423,平顶山市,新华旅馆,颗粒物(PM10),80,109,77,54,55,45,,53,49,22,18,7,5,0.6,0.5
2026-02-10T1100,1833A,113.2917,33.737,平顶山市,规划设计院,细颗粒物(PM2.5),83,87,74,61,54,46,,46,44,16,14,8,6,0.6,0.5
2026-02-10T1100,1834A,113.182,33.7738,平顶山市,平顶山工学院,细颗粒物(PM2.5),83,71,62,61,52,47,,47,45,16,14,8,7,0.5,0.4
2026-02-10T1100,3594A,112.8736,33.9068,平顶山市,石龙区,颗粒物(PM10),121,191,85,30,54,75,,38,38,6,20,6,6,0.6,0.7
2026-02-10T1100,4116A,113.284,33.7139,平顶山市,姚电大道23号,细颗粒物(PM2.5),88,89,90,65,61,45,,33,32,22,22,4,4,0.7,0.7
2026-02-10T1100,2656A,106.6633,35.5338,平凉市,聚贤嘉苑,颗粒物(PM10),113,176,180,50,46,60,,84,68,,8,5,7,0.6,0.5
2026-02-10T1100,2657A,106.7021,35.5307,平凉市,博物馆,颗粒物(PM10),123,195,185,58,53,63,,76,61,10,6,10,10,0.7,0.6
2026-02-10T1100,2348A,113.8384,27.6436,萍乡市,中医院,细颗粒物(PM2.5),64,57,58,46,41,18,,30,24,20,18,3,3,0.7,0.6
2026-02-10T1100,2350A,113.8677,27.6438,萍乡市,市环保局,细颗粒物(PM2.5),54,41,54,38,41,17,,27,22,19,24,8,11,0.5,0.4
2026-02-10T1100,2351A,113.8663,27.6202,萍乡市,安源区政府,细颗粒物(PM2.5),70,63,64,51,46,8,,15,11,24,25,3,3,0.4,0.3
2026-02-10T1100,4107A,113.8686,27.6668,萍乡市,联洪村委会,细颗粒物(PM2.5),57,58,53,40,43,16,,26,21,18,14,1,1,0.4,0.4
2026-02-10T1100,2319A,119.0142,25.4324,莆田市,荔城区仓后路,,39,39,26,21,8,77,,60,60,13,11,/,/,/,/
2026-02-10T1100,2320A,119.0016,25.4553,莆田市,莆田市监测站,,44,44,20,14,6,80,,67,63,10,7,4,3,0.4,0.4
2026-02-10T1100,2321A,119.112,25.4561,莆田市,涵江区六中,,28,28,24,14,9,77,,52,50,10,12,/,/,0.5,0.5
2026-02-10T1100,2322A,119.1014,25.3215,莆田市,秀屿区政府,细颗粒物(PM2.5),64,69,33,46,17,87,,48,48,14,13,6,2,0.6,0.6
2026-02-10T1100,2392A,115.0312,35.7636,濮阳市,环保局,细颗粒物(PM2.5),95,79,56,71,44,37,,53,42,19,13,7,6,0.9,0.7
2026-02-10T1100,3021A,115,35.7667,濮阳市,濮水河管理处,细颗粒物(PM2.5),98,107,75,73,48,34,,50,37,22,14,9,5,0.8,0.7
2026-02-10T1100,4118A,115.0552,35.7816,濮阳市,中原东路68号,细颗粒物(PM2.5),97,109,82,72,46,38,,53,42,26,21,8,5,0.9,0.7
2026-02-10T1100,4216A,115.0923632,35.76857718,濮阳市,任丘路479号,细颗粒物(PM2.5),94,105,79,70,50,40,,45,38,24,19,9,8,0.8,0.5
2026-02-10T1100,2601A,100.9801,22.7634,普洱市,市环保局,,47,47,50,29,24,47,,38,32,14,9,5,5,0.7,0.6
2026-02-10T1100,2602A,100.9763,22.8237,普洱市,普洱第二中学,颗粒物(PM10),57,64,55,31,27,52,,25,25,17,21,5,5,0.7,0.6
2026-02-10T1100,3345A,131.0413,45.7795,七台河市,中波台,颗粒物(PM10),56,61,55,26,40,65,,66,66,19,17,14,10,0.8,0.7
2026-02-10T1100,3637A,131.0136,45.7688,七台河市,人民广场,颗粒物(PM10),57,63,78,32,48,62,,64,64,26,34,19,13,0.7,0.8
2026-02-10T1100,3684A,130.8639,45.8144,七台河市,新建矿广场,颗粒物(PM10),148,246,85,67,54,40,,44,43,42,37,,13,1.1,0.9
2026-02-10T1100,1779A,123.9307,47.3641,齐齐哈尔市,安居小区,细颗粒物(PM2.5),95,81,92,71,67,74,,51,51,19,27,13,11,0.7,0.7
2026-02-10T1100,1780A,123.9497,47.3389,齐齐哈尔市,中心广场,细颗粒物(PM2.5),117,113,104,88,76,64,,51,51,28,31,9,9,1.0,0.9
2026-02-10T1100,1781A,123.9483,47.3229,齐齐哈尔市,农牧车辆厂,细颗粒物(PM2.5),122,117,102,92,76,64,,49,49,27,30,8,9,0.7,0.6
2026-02-10T1100,1783A,123.9442,47.2994,齐齐哈尔市,市环境监测站,细颗粒物(PM2.5),100,104,103,75,71,63,,42,42,28,42,9,8,0.8,0.8
2026-02-10T1100,3662A,123.6341,47.2079,齐齐哈尔市,富区青少年活动中心,细颗粒物(PM2.5),90,91,88,67,64,66,,50,50,15,21,12,7,0.6,0.6
2026-02-10T1100,2591A,107.9765,26.5724,黔东南苗族侗族自治州,市环境监测站,,29,,25,20,21,13,,26,22,18,13,3,2,1.0,0.8
2026-02-10T1100,2881A,107.8909,26.531,黔东南苗族侗族自治州,凯里学院,,14,14,18,9,15,25,,30,28,12,14,3,3,0.7,0.6
2026-02-10T1100,2593A,107.5223,26.2371,黔南布依族苗族自治州,小围寨,,20,,8,14,7,13,,11,11,7,9,6,5,0.8,0.8
2026-02-10T1100,3538A,107.5175,26.2977,黔南布依族苗族自治州,沙坝,,,19,10,14,6,,,15,15,,10,6,4,0.9,0.7
2026-02-10T1100,2589A,104.9022,25.0943,黔西南布依族苗族自治州,场坝街,,28,28,23,11,15,22,,30,27,11,8,3,3,0.8,0.7
2026-02-10T1100,2590A,104.8812,25.0994,黔西南布依族苗族自治州,坪东大道,,27,27,25,13,16,23,,33,29,12,8,5,4,1.0,0.9
2026-02-10T1100,2502A,108.6238,21.9667,钦州市,市环保站,颗粒物(PM10),117,183,80,53,45,19,,23,20,16,16,2,2,0.8,0.9
2026-02-10T1100,2503A,108.655,21.9481,钦州市,沙埠小学,颗粒物(PM10),97,144,67,51,45,11,,27,19,34,22,4,4,0.7,0.5
2026-02-10T1100,2504A,108.5989,21.7435,钦州市,港区一小,细颗粒物(PM2.5),75,80,62,55,43,14,,15,13,32,27,1,1,0.7,0.7
2026-02-10T1100,3404A,108.5959,21.9634,钦州市,北职校,颗粒物(PM10),82,114,52,37,34,16,,23,17,15,14,2,2,0.7,0.7
2026-02-10T1100,1046A,119.5247,39.9346,秦皇岛市,建设大厦,细颗粒物(PM2.5),104,129,112,78,71,37,,38,35,,35,24,17,1.5,1.1
2026-02-10T1100,3132A,119.5979,39.938,秦皇岛市,文明里,细颗粒物(PM2.5),99,138,110,74,66,37,,39,35,53,42,25,18,1.4,1
2026-02-10T1100,4066A,119.7458,39.9952,秦皇岛市,南园路157号,细颗粒物(PM2.5),95,124,117,71,72,45,,33,33,46,47,21,15,1.4,1
2026-02-10T1100,4067A,119.5131,39.8858,秦皇岛市,翠岛大街1号,细颗粒物(PM2.5),105,129,103,79,74,37,,30,30,40,39,20,17,1.3,1
2026-02-10T1100,4198A,119.509013,39.825305,秦皇岛市,北戴河轮滑馆,细颗粒物(PM2.5),93,116,106,69,68,46,,37,37,40,46,16,14,0.9,0.9
2026-02-10T1100,1310A,120.404,36.0625,青岛市,市南区东部子站,细颗粒物(PM2.5),70,75,59,51,34,40,,62,45,38,22,14,11,0.8,0.6
2026-02-10T1100,1311A,120.362344,36.10282,青岛市,四方区子站,细颗粒物(PM2.5),73,73,58,53,38,37,,61,42,45,24,13,8,1.0,0.7
2026-02-10T1100,1312A,120.294373,36.054183,青岛市,市南区西部子站,,,,54,,37,,,52,36,45,27,7,5,0.9,0.7
2026-02-10T1100,1313A,120.4581,36.0858,青岛市,崂山区子站,细颗粒物(PM2.5),70,80,54,51,34,37,,65,45,44,24,14,11,0.9,0.6
2026-02-10T1100,1315A,120.3945,36.3083,青岛市,城阳区子站,细颗粒物(PM2.5),64,68,62,46,40,53,,57,43,41,31,11,8,0.9,0.8
2026-02-10T1100,3642A,120.3454,36.0735,青岛市,市北区南部,,,74,58,50,35,,,57,42,35,21,4,3,1.0,0.8
2026-02-10T1100,3643A,120.3897,36.18,青岛市,李沧区北部,细颗粒物(PM2.5),68,70,59,49,37,47,,58,45,42,34,15,10,0.9,0.7
2026-02-10T1100,4110A,120.5222,36.4089,青岛市,盟旺路653号,细颗粒物(PM2.5),70,76,59,51,36,47,,60,49,37,21,12,4,1.0,0.8
2026-02-10T1100,4290A,120.196923,35.954556,青岛市,珠江路669号,细颗粒物(PM2.5),70,68,50,51,37,42,,63,46,26,16,10,9,0.6,0.5
2026-02-10T1100,4291A,120.0424,35.8656,青岛市,黄岛区人民政府广场,细颗粒物(PM2.5),77,83,59,56,38,32,,50,35,45,26,13,9,0.9,0.6
2026-02-10T1100,1703A,113.0218,23.7086,清远市,凤城街办,细颗粒物(PM2.5),60,63,47,43,31,26,,46,38,42,25,/,/,/,/
2026-02-10T1100,3025A,113.0479,23.6343,清远市,技师学院,颗粒物(PM10),62,73,49,42,26,23,,34,28,42,30,6,6,0.6,0.5
2026-02-10T1100,3318A,112.9898,23.7403,清远市,清新太和,细颗粒物(PM2.5),62,72,50,44,31,18,,30,24,46,30,12,12,0.8,0.7
2026-02-10T1100,3455A,113.076,23.72,清远市,清城东城,细颗粒物(PM2.5),62,72,51,44,30,20,,40,30,50,32,/,/,/,/
2026-02-10T1100,2661A,107.6325,35.7357,庆阳市,庆阳五中,颗粒物(PM10),323,438,200,103,50,82,,79,76,7,10,4,4,0.3,0.4
2026-02-10T1100,2662A,107.6361,35.7067,庆阳市,市环保局,颗粒物(PM10),290,413,198,93,49,77,,79,75,8,10,4,4,0.4,0.4
2026-02-10T1100,1916A,103.7897,25.5036,曲靖市,环境监测站,,29,19,28,12,16,92,,76,76,8,10,6,5,0.4,0.5
2026-02-10T1100,1917A,103.8013,25.5357,曲靖市,烟厂办公区,,31,31,32,12,15,85,,68,68,7,11,3,4,0.3,0.4
2026-02-10T1100,3376A,103.7926,25.4651,曲靖市,南苑二区,,28,28,25,17,16,80,,70,70,12,10,4,4,0.3,0.3
2026-02-10T1100,3377A,103.7442,25.5259,曲靖市,曲靖师范学院,,30,30,31,12,21,89,,74,73,6,10,2,5,0.3,0.3
2026-02-10T1100,1264A,118.8694,28.94,衢州市,环保大楼,细颗粒物(PM2.5),52,43,46,36,40,48,,42,36,20,20,/,/,/,/
2026-02-10T1100,1266A,118.8622,28.9809,衢州市,衢州学院,细颗粒物(PM2.5),59,50,48,42,36,41,,44,38,20,24,7,6,0.3,0.2
2026-02-10T1100,4097A,118.9646,28.9832,衢州市,衢州三中,细颗粒物(PM2.5),65,65,48,47,35,23,,40,29,30,21,6,5,0.8,0.6
2026-02-10T1100,1611A,118.5818,24.9116,泉州市,涂山街,,28,28,33,19,19,77,,47,47,10,17,4,3,0.4,0.4
2026-02-10T1100,1612A,118.597,24.8976,泉州市,津头埔,,32,32,34,21,20,75,,47,47,12,16,4,3,0.5,0.5
2026-02-10T1100,1613A,118.6669,24.9422,泉州市,万安,,30,30,31,18,15,71,,46,46,13,20,3,3,0.5,0.4
2026-02-10T1100,4105A,118.6355,24.9148,泉州市,霞新路6号,,31,31,33,20,18,71,,42,42,12,23,/,/,0.5,0.5
2026-02-10T1100,2626A,88.8873,29.2723,日喀则市,日喀则监测站,,24,15,27,3,6,76,,79,79,7,14,13,15,0.4,0.6
2026-02-10T1100,3726A,88.8775,29.2425,日喀则市,林业技术推广中心,,29,8,17,3,7,90,,89,89,2,5,8,8,0.3,0.3
2026-02-10T1100,1659A,119.4711,35.421,日照市,监测站,细颗粒物(PM2.5),83,80,74,61,43,39,,25,19,35,40,17,13,0.9,0.9
2026-02-10T1100,1660A,119.523,35.4216,日照市,市政府广场,细颗粒物(PM2.5),89,92,74,66,44,38,,25,21,41,44,16,12,0.7,0.6
2026-02-10T1100,1661A,119.5511,35.4113,日照市,港务局,细颗粒物(PM2.5),84,105,81,62,43,31,,20,16,46,45,15,11,0.8,0.8
2026-02-10T1100,3507A,119.5326,35.4627,日照市,职业技术学院,细颗粒物(PM2.5),85,83,71,63,42,39,,29,26,44,41,17,12,1.0,1
2026-02-10T1100,3604A,119.3267,35.1043,日照市,岚山环保分局,细颗粒物(PM2.5),68,61,61,49,36,50,,30,30,28,35,31,16,1.1,0.9
2026-02-10T1100,1835A,111.1922,34.7752,三门峡市,市政府,颗粒物(PM10),91,132,84,30,64,82,,35,35,12,34,7,13,0.3,0.9
2026-02-10T1100,1836A,111.1588,34.794,三门峡市,开发区,颗粒物(PM10),72,94,110,38,69,76,,35,35,9,31,6,12,0.4,0.7
2026-02-10T1100,3039A,111.1911,34.7829,三门峡市,三门峡市第一小学,颗粒物(PM10),100,149,100,29,62,76,,36,36,11,30,8,14,0.5,0.8
2026-02-10T1100,3598A,111.1031,34.719,三门峡市,富达温泉假日酒店,颗粒物(PM10),120,189,120,53,72,53,,29,29,33,38,13,17,0.7,0.9
2026-02-10T1100,2324A,117.621,26.2626,三明市,三钢,,45,37,35,31,28,52,,47,42,17,14,9,6,0.4,0.3
2026-02-10T1100,2325A,117.6352,26.2714,三明市,三明二中,,38,37,29,26,23,56,,44,41,16,13,5,4,0.7,0.6
2026-02-10T1100,2326A,117.6028,26.2377,三明市,三元区政府,,,,30,,21,39,,44,41,28,16,,6,1.7,0.7
2026-02-10T1100,1877A,109.4962,18.2682,三亚市,河西子站,,,20,37,13,14,,,83,81,4,5,1,3,0.4,0.4
2026-02-10T1100,3540A,109.7348,18.3443,三亚市,君悦子站,,39,39,46,18,18,56,,49,47,11,8,4,3,0.5,0.4
2026-02-10T1100,4135A,109.1714,18.3739,三亚市,城东小学站,,33,33,34,12,16,84,,52,52,4,9,/,/,/,/
2026-02-10T1100,2624A,91.7592,29.234,山南市,山南监测站,,22,21,10,12,5,68,,79,71,8,5,1,2,0.4,0.3
2026-02-10T1100,2625A,91.7701,29.2436,山南市,山南人民医院,,,28,17,10,7,,,65,61,11,8,7,7,0.6,0.6
2026-02-10T1100,1674A,116.6795,23.3666,汕头市,金平子站,,40,40,33,21,15,87,,70,68,16,14,6,5,0.5,0.5
2026-02-10T1100,1675A,116.7248,23.3632,汕头市,龙湖子站,,46,46,32,22,15,87,,70,70,12,12,10,10,/,/
2026-02-10T1100,1676A,116.7257,23.2774,汕头市,濠江子站,,44,44,33,16,13,81,,71,70,17,15,9,7,/,/
2026-02-10T1100,1677A,116.7518,23.4712,汕头市,澄海子站,,41,41,36,19,15,82,,69,68,14,12,8,7,0.5,0.5
2026-02-10T1100,1678A,116.6088,23.2539,汕头市,潮阳子站,,38,33,31,26,16,80,,72,70,15,12,7,6,0.6,0.5
2026-02-10T1100,3444A,116.4539,23.2684,汕头市,潮南峡山,颗粒物(PM10),52,53,34,26,16,77,,68,65,17,13,7,6,0.5,0.4
2026-02-10T1100,3624A,116.4069,23.2533,汕头市,潮南子站,颗粒物(PM10),52,54,44,27,19,69,,63,59,15,13,7,7,/,/
2026-02-10T1100,1693A,115.3653,22.7751,汕尾市,市环保局,,40,40,40,28,24,76,,76,71,16,13,5,5,0.7,0.6
2026-02-10T1100,1695A,115.362,22.7926,汕尾市,新城中学,,39,39,41,25,23,79,,71,69,13,12,6,6,0.6,0.5
2026-02-10T1100,2645A,109.9155,33.8714,商洛市,监测站,颗粒物(PM10),104,157,91,35,52,84,,65,65,4,29,4,7,0.5,0.8
2026-02-10T1100,3045A,109.9647,33.8486,商洛市,商州区中学,颗粒物(PM10),123,195,99,32,42,86,,60,60,5,29,4,9,0.5,0.7
2026-02-10T1100,2408A,115.6701,34.4283,商丘市,环境监测站,细颗粒物(PM2.5),93,82,59,69,48,47,,53,44,11,10,5,5,0.6,0.5
2026-02-10T1100,2409A,115.6458,34.4047,商丘市,粮食局,细颗粒物(PM2.5),85,75,58,63,49,45,,48,40,16,17,3,2,0.5,0.4
2026-02-10T1100,3171A,115.6069,34.4465,商丘市,梁园区档案局,,,,47,,44,,,48,39,9,11,1,2,0.5,0.4
2026-02-10T1100,4119A,115.6701,34.3767,商丘市,北海东路185号,细颗粒物(PM2.5),78,85,66,57,44,46,,46,39,12,16,2,3,0.5,0.4
2026-02-10T1100,4120A,115.6172,34.3704,商丘市,中山大街3号,细颗粒物(PM2.5),92,94,78,68,48,48,,41,35,14,17,3,3,0.4,0.3
2026-02-10T1100,1141A,121.401,31.2382,上海市,普陀,细颗粒物(PM2.5),52,43,28,36,19,41,,62,48,36,27,6,6,0.6,0.5
2026-02-10T1100,1142A,121.4774,31.2043,上海市,十五厂,细颗粒物(PM2.5),52,44,35,36,22,42,,50,41,36,31,6,6,0.6,0.5
2026-02-10T1100,1143A,121.4673,31.3011,上海市,虹口,细颗粒物(PM2.5),52,51,31,36,20,36,,52,40,33,22,4,4,0.3,0.2
2026-02-10T1100,1147A,121.4253,31.226,上海市,静安监测站,,49,44,29,34,19,43,,65,51,38,25,7,7,0.5,0.3
2026-02-10T1100,1148A,121.7029,31.1905,上海市,浦东川沙,,48,44,30,33,20,35,,50,35,43,26,8,7,0.6,0.4
2026-02-10T1100,1149A,121.5339,31.229,上海市,浦东新区监测站,,49,42,27,34,20,44,,59,49,34,19,6,5,0.7,0.5
2026-02-10T1100,1150A,121.5776,31.2038,上海市,浦东张江,,,51,30,40,21,48,,54,41,,26,7,6,,0.1
2026-02-10T1100,3265A,121.4242,31.3303,上海市,宝山庙行,细颗粒物(PM2.5),58,49,33,41,21,46,,58,46,31,24,8,8,0.5,0.5
2026-02-10T1100,3266A,121.8789,31.4662,上海市,崇明上实东滩,,,41,19,33,14,,,59,48,19,15,5,4,0,0
2026-02-10T1100,3268A,121.316,31.2839,上海市,嘉定南翔,细颗粒物(PM2.5),52,52,33,36,22,53,,40,34,24,31,4,4,0.6,0.5
2026-02-10T1100,3269A,121.3357,30.7455,上海市,金山新城,细颗粒物(PM2.5),57,,24,40,21,46,,67,55,30,20,9,9,0.8,0.7
2026-02-10T1100,3270A,121.4996,31.0741,上海市,闵行浦江,细颗粒物(PM2.5),57,49,26,40,19,38,,55,39,32,22,7,6,0.4,0.3
2026-02-10T1100,3271A,121.2886,31.1663,上海市,青浦徐泾,细颗粒物(PM2.5),55,56,34,39,22,39,,49,38,36,28,5,5,0.6,0.6
2026-02-10T1100,3272A,121.2193,31.0382,上海市,松江图书馆,细颗粒物(PM2.5),60,51,34,43,22,36,,47,38,31,25,6,6,0.7,0.6
2026-02-10T1100,3273A,121.3904,31.206,上海市,长宁仙霞,,46,46,31,28,14,32,,53,39,40,26,8,7,0.9,0.8
2026-02-10T1100,3274A,121.7964,31.0507,上海市,浦东惠南,,48,40,30,33,16,51,,36,33,30,24,5,4,0.6,0.6
2026-02-10T1100,3544A,121.4891,30.925,上海市,奉贤南桥新城,细颗粒物(PM2.5),59,59,28,42,18,43,,59,47,33,23,3,3,0.5,0.4
2026-02-10T1100,4183A,121.417401,31.16637,上海市,冠生园路458号,,,,28,,19,34,,44,33,40,27,,4,,0.5
2026-02-10T1100,4205A,121.541914,31.268301,上海市,宁武路151号,,50,46,32,35,20,42,,52,44,35,27,5,5,0.6,0.5
2026-02-10T1100,2382A,117.9758,28.4439,上饶市,市监测站,细颗粒物(PM2.5),69,55,42,50,34,37,,37,34,27,20,13,6,/,/
2026-02-10T1100,2383A,117.9521,28.4637,上饶市,凤凰光学,,,62,39,48,33,26,,32,24,30,22,,8,0.7,0.9
2026-02-10T1100,3685A,117.897,28.4316,上饶市,双创科技城,细颗粒物(PM2.5),63,45,41,45,32,35,,40,33,31,25,11,4,1.0,0.8
2026-02-10T1100,4211A,118.190438,28.444845,上饶市,裕丰大道,细颗粒物(PM2.5),69,52,44,50,34,34,,36,31,25,22,14,12,0.8,0.7
2026-02-10T1100,1669A,113.5821,24.7733,韶关市,市八中,细颗粒物(PM2.5),59,56,55,42,38,29,,43,37,29,21,8,9,0.6,0.6
2026-02-10T1100,1671A,113.5916,24.7973,韶关市,园林处,细颗粒物(PM2.5),55,42,40,39,34,25,,37,29,33,21,7,8,/,/
2026-02-10T1100,1673A,113.5971,24.6864,韶关市,曲江监测站,细颗粒物(PM2.5),65,62,58,47,42,29,,39,39,30,29,13,16,1.0,0.8
