timepoint,stationcode,longitude,latitude,area,positionname,primarypollutant,aqi,pm10,pm10_24h,pm2_5,pm2_5_24h,o3,o3_24h,o3_8h,o3_8h_24h,no2,no2_24h,so2,so2_24h,co,co_24h
2024-09-29T1300,2566A,102.1879,31.914,阿坝藏族羌族自治州,州农科所,,20,19,17,6,7,62,,31,31,9,8,7,7,0.0,0
2024-09-29T1300,3994A,102.2165,31.9024,阿坝藏族羌族自治州,马尔康中学西区,,19,,16,13,16,56,,23,23,7,7,1,3,0.5,0.5
2024-09-29T1300,2695A,80.292,41.1694,阿克苏地区,电视台,,,92,60,22,24,92,,48,47,10,16,5,3,,0.4
2024-09-29T1300,2696A,80.2613,41.1551,阿克苏地区,艺术中心,颗粒物(PM10),62,73,69,24,26,100,,52,46,8,15,3,4,0.4,0.6
2024-09-29T1300,2204A,105.6467,38.8363,阿拉善盟,西城区西花园,,31,27,48,20,32,98,,91,87,9,8,7,8,0.9,1
2024-09-29T1300,2205A,105.6985,38.8411,阿拉善盟,蒙二幼,,29,26,47,3,20,90,,84,81,6,7,6,6,0.5,0.6
2024-09-29T1300,2206A,105.724,38.8516,阿拉善盟,环保局新楼,,29,7,36,3,18,91,,85,83,5,7,8,8,0.5,0.5
2024-09-29T1300,2708A,88.1264,47.8517,阿勒泰地区,市站,,27,27,18,10,6,57,,44,38,12,12,8,8,0.3,0.2
2024-09-29T1300,2630A,80.1161,32.5,阿里地区,阿里监测站,,35,17,14,7,7,110,,68,64,6,17,7,6,0.3,0.4
2024-09-29T1300,3192A,80.0903,32.5028,阿里地区,阿里藏医院,,35,11,15,3,3,111,,90,77,4,9,6,6,0.4,0.3
2024-09-29T1300,2642A,109.0318,32.6537,安康市,香溪洞,颗粒物(PM10),112,174,145,47,51,114,,127,116,9,11,7,8,0.5,0.5
2024-09-29T1300,2643A,109.0281,32.6939,安康市,安康市监测站,细颗粒物(PM2.5),64,69,82,46,51,114,,87,87,9,13,7,10,0.8,0.8
2024-09-29T1300,2644A,109.0072,32.6975,安康市,汉滨区检察院,细颗粒物(PM2.5),70,64,85,51,57,118,,85,85,10,12,8,8,0.6,0.7
2024-09-29T1300,2291A,117.0809,30.5177,安庆市,环科院,臭氧1小时,60,37,41,24,26,168,,116,116,13,15,9,9,0.7,0.7
2024-09-29T1300,2292A,117.0331,30.5119,安庆市,马山宾馆,臭氧1小时,68,48,40,19,24,174,,123,123,13,16,10,10,0.5,0.6
2024-09-29T1300,2294A,116.9896,30.6145,安庆市,安庆大学,,49,29,38,20,23,156,,112,112,11,11,9,8,0.4,0.4
2024-09-29T1300,3173A,117.0598,30.5351,安庆市,市人大,臭氧1小时,57,52,41,21,29,165,,116,116,12,16,9,9,0.6,0.7
2024-09-29T1300,3123A,105.9408,26.2431,安顺市,凤凰山,,25,22,28,17,22,50,,51,42,4,5,4,4,0.4,0.4
2024-09-29T1300,3124A,105.9439,26.2564,安顺市,金钟山,,26,24,27,18,24,54,,55,45,4,5,6,7,0.7,0.7
2024-09-29T1300,3125A,105.8983,26.2481,安顺市,娄家坡,,22,15,20,15,19,53,,53,46,4,5,6,6,0.5,0.5
2024-09-29T1300,1819A,114.3551,36.1017,安阳市,红庙街,"颗粒物(PM10),细颗粒物(PM2.5)",53,55,66,37,35,135,,91,91,10,24,6,7,0.4,0.4
2024-09-29T1300,1820A,114.361,36.0681,安阳市,银杏小区,,,53,72,,18,132,,83,83,7,23,4,4,0.6,0.7
2024-09-29T1300,3141A,114.3922,36.0878,安阳市,信访局,颗粒物(PM10),59,67,71,33,21,143,,93,93,8,22,4,5,0.7,0.7
2024-09-29T1300,3669A,114.4705,36.0637,安阳市,左辅环卫站,颗粒物(PM10),65,79,100,37,38,141,,80,80,12,33,5,7,0.4,0.5
2024-09-29T1300,3703A,114.2917,36.0949,安阳市,安钢职工学校,细颗粒物(PM2.5),63,64,84,45,44,122,,80,80,11,29,5,6,0.6,0.7
2024-09-29T1300,1748A,123.044,41.1196,鞍山市,深沟寺,,34,34,39,19,21,100,,82,82,6,15,5,6,0.5,0.6
2024-09-29T1300,1749A,123.011,41.0931,鞍山市,太阳城,,40,40,38,22,20,103,,84,84,5,14,6,8,0.4,0.6
2024-09-29T1300,1750A,123.0485,41.1442,鞍山市,太平,,40,40,52,18,25,100,,76,76,8,33,7,10,0.6,0.9
2024-09-29T1300,1751A,122.9642,41.0971,鞍山市,铁西三道街,颗粒物(PM10),56,61,80,20,31,92,,70,70,9,42,5,8,0.6,0.9
2024-09-29T1300,1752A,122.9341,41.0833,鞍山市,铁西工业园区,,50,50,78,20,34,91,,52,52,11,49,6,9,0.6,0.9
2024-09-29T1300,1753A,123.022,41.0821,鞍山市,明达新区,,,45,46,23,22,92,,76,76,7,17,5,6,,0.6
2024-09-29T1300,2195A,107.4212,40.761,巴彦淖尔市,附二中,,30,26,64,21,34,60,,65,57,5,8,4,5,0.3,0.5
2024-09-29T1300,2196A,107.37,40.7372,巴彦淖尔市,市环保大楼,,29,22,61,20,28,63,,62,57,6,6,4,4,0.2,0.4
2024-09-29T1300,1956A,86.1472,41.7538,巴音郭楞蒙古自治州,孔雀公园,颗粒物(PM10),92,133,61,46,21,76,,75,75,4,6,5,5,0.2,0.3
2024-09-29T1300,1957A,86.1972,41.7166,巴音郭楞蒙古自治州,棉纺厂,颗粒物(PM10),111,171,45,51,17,75,,75,70,9,8,4,5,0.2,0.3
2024-09-29T1300,1958A,86.2357,41.7173,巴音郭楞蒙古自治州,经济开发区,颗粒物(PM10),96,141,31,56,20,75,,82,79,10,5,6,6,0.2,0.2
2024-09-29T1300,2914A,106.7677,31.8794,巴中市,苏山坪,细颗粒物(PM2.5),53,49,44,37,33,81,,87,84,7,7,2,3,0.5,0.5
2024-09-29T1300,3182A,106.7656,31.8545,巴中市,丽阳花园,细颗粒物(PM2.5),59,56,45,42,34,74,,20,20,13,26,5,5,0.7,0.9
2024-09-29T1300,3183A,106.7418,31.8654,巴中市,圣泉水务公司,细颗粒物(PM2.5),59,52,41,42,35,66,,24,24,16,21,3,3,0.7,0.7
2024-09-29T1300,3616A,106.7616,31.8344,巴中市,市中心医院,细颗粒物(PM2.5),58,59,47,41,35,76,,19,19,13,29,5,5,0.7,0.8
2024-09-29T1300,2235A,122.7911,45.6077,白城市,洮北区环保局,,45,39,43,23,26,142,,103,103,7,11,5,5,0.5,0.6
2024-09-29T1300,2236A,122.8738,45.5725,白城市,市环保局,颗粒物(PM10),52,53,50,23,24,133,,98,98,10,14,6,7,0.5,0.5
2024-09-29T1300,2231A,126.4219,41.9171,白山市,喜丰,,31,25,44,6,16,97,,41,41,4,19,7,9,0.5,0.6
2024-09-29T1300,2232A,126.4077,41.9419,白山市,环保局,,28,16,41,11,15,87,,35,35,8,20,8,8,0.6,0.7
2024-09-29T1300,2647A,104.1724,36.5446,白银市,第三小学,,27,26,40,6,17,84,,82,82,9,10,7,31,0.1,0.3
2024-09-29T1300,2648A,104.1465,36.5482,白银市,动力公司,,26,21,33,8,19,83,,81,81,5,9,3,19,0.3,0.4
2024-09-29T1300,2512A,106.6103,23.9011,百色市,市监测站,,46,46,46,25,25,54,,43,39,11,13,17,19,0.7,0.7
2024-09-29T1300,2513A,106.6538,23.8859,百色市,市中心血站,颗粒物(PM10),51,51,46,29,30,55,,53,45,11,12,14,16,0.7,0.6
2024-09-29T1300,3406A,106.6085,23.8798,百色市,祈福高中,颗粒物(PM10),56,61,52,22,25,55,,34,34,9,17,15,16,0.8,0.8
2024-09-29T1300,2270A,117.396,32.939,蚌埠市,工人疗养院,,46,46,44,16,16,132,,88,88,6,11,6,7,0.4,0.4
2024-09-29T1300,2271A,117.3605,32.9427,蚌埠市,百货大楼,,45,45,42,15,14,126,,82,82,5,12,7,7,0.4,0.4
2024-09-29T1300,2273A,117.4185,32.8911,蚌埠市,蚌埠学院,,41,39,36,13,18,130,,91,91,5,11,7,7,0.5,0.4
2024-09-29T1300,2274A,117.3533,32.9673,蚌埠市,淮上区政府,,39,39,38,23,20,123,,84,84,6,9,6,6,0.4,0.4
2024-09-29T1300,2275A,117.3145,32.8977,蚌埠市,高新区,,41,41,36,13,17,124,,89,89,6,11,6,7,0.5,0.4
2024-09-29T1300,3715A,117.3092,32.9314,蚌埠市,蚌埠田家炳中学,,42,42,42,20,18,130,,88,88,2,11,5,7,0.4,0.3
2024-09-29T1300,1585A,109.8756,40.6532,包头市,市环境监测站,,17,15,43,3,24,53,,65,54,11,25,4,10,0.5,0.8
2024-09-29T1300,1587A,109.9991,40.5842,包头市,包头八中,,18,13,44,3,24,56,,62,53,10,21,2,7,0.6,0.9
2024-09-29T1300,1588A,109.8538,40.6821,包头市,青山宾馆,,17,6,37,3,16,52,,66,54,11,23,4,11,0.7,1
2024-09-29T1300,1589A,109.8642,40.6288,包头市,惠龙物流,,17,10,43,3,24,54,,56,52,7,18,6,5,1.0,1.2
2024-09-29T1300,1590A,110.0377,40.5546,包头市,东河鸿龙湾,,18,12,40,3,24,56,,61,54,7,22,9,16,0.6,0.8
2024-09-29T1300,3283A,109.9154,40.5685,包头市,滨河大厦,,19,13,40,7,24,58,,63,56,11,23,8,10,0.4,0.6
2024-09-29T1300,3419A,109.9447,40.6261,包头市,包头市委党校,,17,6,44,3,26,54,,65,55,11,21,4,13,0.3,0.6
2024-09-29T1300,3683A,109.8331,40.6576,包头市,昆区政府,,17,7,40,3,24,52,,64,53,10,20,4,7,0.4,0.7
2024-09-29T1300,1930A,107.185,34.3063,宝鸡市,庙沟村,,25,,70,9,47,79,,82,82,2,11,10,11,0.2,0.5
2024-09-29T1300,1931A,107.0708,34.3017,宝鸡市,竹园沟,,22,,66,10,44,69,,72,72,10,17,7,7,0.5,0.7
2024-09-29T1300,1932A,107.1906,34.3672,宝鸡市,三陆医院,,25,25,73,8,48,63,,63,63,15,24,6,6,0.1,0.6
2024-09-29T1300,1933A,107.1431,34.3547,宝鸡市,监测站,,21,14,74,3,44,66,,69,69,15,22,6,6,0.5,0.8
2024-09-29T1300,1934A,107.1186,34.3739,宝鸡市,技工学校,,,5,78,,54,72,,72,72,12,19,7,8,0.5,0.8
2024-09-29T1300,1935A,107.3906,34.3528,宝鸡市,陈仓区环保局家属楼,,,,83,9,51,66,,69,69,17,27,,9,0.4,0.6
2024-09-29T1300,1936A,107.2058,34.3497,宝鸡市,文理学院,,23,,80,8,46,72,,74,74,13,22,7,8,0.3,0.6
2024-09-29T1300,1937A,107.2386,34.3622,宝鸡市,三迪小学,,21,6,77,6,43,66,,66,66,18,28,8,8,0.4,0.7
2024-09-29T1300,1051A,115.493,38.8632,保定市,游泳馆,细颗粒物(PM2.5),60,68,76,43,56,119,,63,63,12,21,7,5,0.3,0.5
2024-09-29T1300,1052A,115.5213,38.8959,保定市,华电二区,颗粒物(PM10),60,69,76,41,55,105,,50,50,19,27,3,3,0.2,0.3
2024-09-29T1300,1053A,115.4713,38.9108,保定市,接待中心,颗粒物(PM10),67,84,82,40,52,104,,56,56,22,26,6,4,0.4,0.5
2024-09-29T1300,1054A,115.4612,38.8416,保定市,地表水厂,颗粒物(PM10),57,63,82,33,49,116,,59,59,16,24,4,3,0.3,0.3
2024-09-29T1300,3581A,115.31981,38.95208,保定市,满城区生态环境分局,细颗粒物(PM2.5),83,114,92,61,53,99,,60,60,29,27,6,5,0.6,0.6
2024-09-29T1300,3582A,115.47694,38.76408,保定市,清苑区第二中学,"颗粒物(PM10),细颗粒物(PM2.5)",62,74,95,44,57,127,,60,60,10,29,4,4,0.5,0.6
2024-09-29T1300,3583A,115.62909,39.02311,保定市,徐水物探局,细颗粒物(PM2.5),92,84,77,68,62,101,,42,42,24,30,8,6,0.5,0.5
2024-09-29T1300,4004A,115.4202,38.8656,保定市,双鹰农机,颗粒物(PM10),62,73,85,40,46,116,,64,64,27,29,4,3,0.5,0.6
2024-09-29T1300,4034A,115.5150,38.8590,保定市,植保所站,"颗粒物(PM10),细颗粒物(PM2.5)",59,68,89,42,56,123,,59,59,16,27,6,5,0.5,0.5
2024-09-29T1300,2594A,99.1678,25.1081,保山市,市环境监测站,,13,8,19,3,11,41,,24,24,4,6,5,5,0.5,0.5
2024-09-29T1300,2595A,99.1711,25.1328,保山市,市环保局,,16,16,22,3,7,47,,28,28,2,4,5,6,0.4,0.4
2024-09-29T1300,1867A,109.1436,21.4086,北海市,海滩公园,,24,7,11,3,3,74,,41,41,3,7,4,4,0.5,0.5
2024-09-29T1300,1868A,109.0981,21.4661,北海市,新市环保局,,25,25,11,9,5,70,,38,38,6,8,4,4,0.5,0.5
2024-09-29T1300,1869A,109.1778,21.5233,北海市,北海工业园,,25,7,23,7,13,80,,37,37,6,13,5,6,0.5,0.5
2024-09-29T1300,3400A,109.1911,21.4415,北海市,龙潭自来水厂,,23,15,9,3,9,73,,36,36,3,10,6,6,0.5,0.5
2024-09-29T1300,1001A,116.3621,39.8784,北京市,万寿西宫,细颗粒物(PM2.5),99,95,74,74,55,113,,57,57,20,28,4,3,0.8,1.1
2024-09-29T1300,1002A,116.2202,40.2915,北京市,定陵,细颗粒物(PM2.5),109,,57,82,69,57,,48,48,12,11,1,2,0.9,0.9
2024-09-29T1300,1003A,116.4174,39.9289,北京市,东四,细颗粒物(PM2.5),100,108,78,75,48,125,,68,68,21,31,5,4,0.9,1.1
2024-09-29T1300,1004A,116.4072,39.8863,北京市,天坛,细颗粒物(PM2.5),87,98,72,64,46,114,,58,58,20,29,3,2,0.7,1
2024-09-29T1300,1005A,116.462,39.9365,北京市,农展馆,细颗粒物(PM2.5),90,97,69,67,44,113,,58,58,24,33,2,3,0.7,1
2024-09-29T1300,1006A,116.3392,39.9295,北京市,官园,细颗粒物(PM2.5),83,99,75,61,44,118,,60,60,22,29,9,8,0.9,1.1
2024-09-29T1300,1007A,116.2878,39.9611,北京市,海淀万柳,细颗粒物(PM2.5),85,86,64,63,44,89,,47,47,24,33,5,4,0.7,0.8
2024-09-29T1300,1008A,116.6636,40.135,北京市,顺义新城,细颗粒物(PM2.5),79,93,57,58,34,104,,62,62,21,21,3,3,0.7,0.8
2024-09-29T1300,1009A,116.6275,40.3275,北京市,怀柔镇,细颗粒物(PM2.5),73,74,47,53,35,101,,66,66,22,18,3,2,1.0,1
2024-09-29T1300,1010A,116.2296,40.217,北京市,昌平镇,细颗粒物(PM2.5),74,91,61,54,38,80,,59,59,21,25,4,4,0.9,0.9
2024-09-29T1300,1011A,116.3966,39.9821,北京市,奥体中心,细颗粒物(PM2.5),98,102,71,73,48,106,,50,50,26,38,4,4,1.0,1.1
2024-09-29T1300,1012A,116.184,39.9136,北京市,古城,细颗粒物(PM2.5),117,148,104,88,66,85,,35,35,26,35,3,3,1.0,1.1
2024-09-29T1300,3281A,115.9718,40.4529,北京市,延庆夏都,细颗粒物(PM2.5),68,70,67,49,47,84,,77,74,11,11,3,2,0.7,0.8
2024-09-29T1300,3417A,117.0709,40.1465,北京市,平谷新城,颗粒物(PM10),69,88,66,48,35,126,,98,98,15,12,4,4,0.8,0.9
2024-09-29T1300,3418A,116.8336,40.4095,北京市,密云新城,细颗粒物(PM2.5),70,75,42,51,28,106,,43,43,18,12,3,3,0.8,0.7
2024-09-29T1300,3671A,116.088,39.9726,北京市,门头沟三家店,细颗粒物(PM2.5),98,113,71,73,44,44,,23,23,24,25,7,8,0.8,0.7
2024-09-29T1300,3672A,116.1541,39.8204,北京市,丰台云岗,细颗粒物(PM2.5),119,107,73,90,61,94,,37,37,18,28,5,4,0.7,0.9
2024-09-29T1300,3673A,116.6804,39.9081,北京市,通州东关,细颗粒物(PM2.5),84,100,84,62,46,122,,70,70,21,32,3,3,0.6,1
2024-09-29T1300,3674A,115.9577,39.7603,北京市,房山燕山,细颗粒物(PM2.5),117,118,72,88,50,79,,41,41,25,21,3,2,0.8,0.7
2024-09-29T1300,3675A,116.4672,39.7733,北京市,大兴旧宫,细颗粒物(PM2.5),87,92,73,64,47,122,,61,61,18,27,3,3,0.6,0.9
2024-09-29T1300,3694A,115.986,40.4563,北京市,延庆石河营,细颗粒物(PM2.5),78,61,61,57,52,83,,74,72,9,10,3,2,0.7,0.7
2024-09-29T1300,3695A,116.6151,40.3053,北京市,怀柔新城,细颗粒物(PM2.5),75,85,48,55,35,101,,62,62,18,11,2,2,1.0,0.9
2024-09-29T1300,3696A,116.2545,39.8768,北京市,丰台小屯,细颗粒物(PM2.5),103,108,76,77,50,93,,44,44,21,27,3,2,0.8,1
2024-09-29T1300,3697A,116.84,40.3844,北京市,密云镇,细颗粒物(PM2.5),88,80,45,65,30,101,,32,32,14,24,5,3,0.9,0.8
2024-09-29T1300,1761A,123.8275,41.3064,本溪市,大峪,,33,25,37,11,18,104,,62,62,7,22,9,10,0.5,0.7
2024-09-29T1300,1762A,123.7567,41.3325,本溪市,溪湖,,35,35,57,11,21,100,,62,62,11,27,11,10,1.0,1.6
2024-09-29T1300,1763A,123.7169,41.3094,本溪市,彩屯,,30,30,48,14,24,88,,60,60,19,31,15,11,1.1,1.3
2024-09-29T1300,1764A,123.7669,41.2864,本溪市,东明,,33,22,53,15,21,103,,59,59,10,38,6,6,0.6,0.9
2024-09-29T1300,1765A,123.7992,41.2664,本溪市,新立屯,,35,33,34,7,10,110,,92,86,10,28,6,6,0.5,0.6
2024-09-29T1300,1766A,123.8142,41.3472,本溪市,威宁,,37,37,54,8,20,105,,56,56,8,27,9,9,0.4,0.6
2024-09-29T1300,2587A,105.2864,27.3125,毕节市,八中,,32,30,34,22,27,67,,48,48,7,13,8,8,0.5,0.5
2024-09-29T1300,2588A,105.31,27.2944,毕节市,师专,,28,25,31,19,24,64,,46,46,6,10,8,11,0.5,0.5
2024-09-29T1300,3537A,105.3631,27.3533,毕节市,长征村,,46,39,46,32,38,70,,54,54,4,8,7,10,0.5,0.5
2024-09-29T1300,1629A,118.0018,37.3617,滨州市,第二水厂,颗粒物(PM10),51,51,59,24,30,156,,86,86,12,28,9,13,0.4,0.5
2024-09-29T1300,1630A,117.9776,37.393,滨州市,北中新校,臭氧1小时,72,51,60,22,28,177,,100,100,9,18,11,14,0.5,0.7
2024-09-29T1300,3514A,117.9378,37.3956,滨州市,中海酒店,臭氧1小时,88,46,53,24,29,190,,104,104,17,28,10,12,0.5,0.7
2024-09-29T1300,3515A,117.9378,37.3553,滨州市,开发区一中,臭氧1小时,80,51,59,19,31,184,,99,99,19,33,12,18,0.7,0.8
2024-09-29T1300,3516A,118.0917,37.694,滨州市,金海六路,颗粒物(PM10),52,54,51,19,24,156,,101,101,6,16,12,7,0.6,0.8
2024-09-29T1300,4028A,117.9956,37.3753,滨州市,滨州市西街道办事处,臭氧1小时,73,51,55,22,36,178,,96,96,10,24,11,15,0.5,0.7
2024-09-29T1300,2311A,115.8072,33.8399,亳州市,污水处理厂,,43,37,38,15,16,137,,91,91,10,16,5,11,0.5,0.4
2024-09-29T1300,2312A,115.7789,33.8518,亳州市,三国揽胜宫,,43,43,37,18,16,130,,86,86,8,11,3,5,0.5,0.5
2024-09-29T1300,3332A,115.7633,33.8034,亳州市,亳州学院,,44,37,39,17,13,138,,89,89,7,11,3,4,0.5,0.5
2024-09-29T1300,2693A,82.0485,44.8556,博尔塔拉蒙古自治州,市党校,,30,30,29,9,11,62,,35,35,5,11,4,4,0.4,0.4
2024-09-29T1300,2694A,82.0806,44.8969,博尔塔拉蒙古自治州,市环保局,,29,29,36,8,12,62,,34,34,7,11,5,4,0.3,0.3
2024-09-29T1300,1071A,116.8842,38.2991,沧州市,沧县城建局,颗粒物(PM10),52,53,59,23,37,151,,82,82,12,27,5,5,0.6,0.6
2024-09-29T1300,1072A,116.8584,38.3254,沧州市,电视转播站,臭氧1小时,52,39,45,19,32,161,,,,12,22,10,7,0.5,0.5
2024-09-29T1300,1073A,116.8709,38.3228,沧州市,市环保局,,49,42,59,29,38,156,,87,87,12,25,6,7,0.4,0.4
2024-09-29T1300,3324A,116.8136,38.3004,沧州市,河北水利电力学院,,50,48,67,26,42,158,,86,86,12,25,6,7,0.4,0.5
2024-09-29T1300,2622A,97.1806,31.1273,昌都市,昌都监测站,,14,8,10,6,5,44,,42,40,7,8,8,7,0.6,0.5
2024-09-29T1300,3719A,97.1714,31.1406,昌都市,昌都会议中心,,15,10,8,3,4,45,,45,42,4,3,8,8,0.5,0.5
2024-09-29T1300,2690A,88.1236,43.8886,昌吉回族自治州,天山天池,,25,6,7,3,3,77,,68,68,5,3,3,3,0.5,0.5
2024-09-29T1300,2692A,87.2717,44.0297,昌吉回族自治州,新区政务中心,,32,25,29,22,24,67,,37,37,7,19,9,7,0.5,0.6
2024-09-29T1300,3613A,87.3095,44.0142,昌吉回族自治州,亚心广场,,22,22,29,3,9,65,,43,43,11,22,3,4,0.5,0.5
2024-09-29T1300,1119A,125.3325,43.9166,长春市,食品厂,,41,41,53,10,21,109,,61,61,13,40,5,5,0.4,0.6
2024-09-29T1300,1120A,125.2863,43.9027,长春市,客车厂,,35,30,44,9,22,109,,64,64,11,35,6,7,0.4,0.5
2024-09-29T1300,1121A,125.2841,43.8463,长春市,邮电学院,,36,33,37,14,15,114,,62,62,9,25,7,8,0.3,0.4
2024-09-29T1300,1122A,125.3716,43.8772,长春市,劳动公园,,37,35,58,13,20,118,,66,66,8,36,9,9,0.4,0.5
2024-09-29T1300,1123A,125.3297,43.8805,长春市,园林处,,36,34,40,18,18,114,,63,63,8,27,5,6,0.5,0.6
2024-09-29T1300,1124A,125.4605,43.79,长春市,净月潭,,38,23,25,15,14,121,,69,69,6,9,7,6,0.4,0.4
2024-09-29T1300,1126A,125.3863,43.8447,长春市,经开区环卫处,,35,28,41,12,16,110,,58,58,10,33,8,8,0.4,0.5
2024-09-29T1300,1127A,125.245,43.7783,长春市,高新区管委会,,37,30,36,12,16,117,,64,64,5,29,5,6,0.5,0.5
2024-09-29T1300,1128A,125.1761,43.8325,长春市,岱山公园,颗粒物(PM10),97,144,53,8,19,109,,67,67,6,35,4,4,0.4,0.5
2024-09-29T1300,1335A,113.0833,28.2325,长沙市,经开区环保局,,38,36,42,16,21,121,,82,82,9,22,2,3,0.5,0.4
2024-09-29T1300,1336A,112.8872,28.2189,长沙市,高开区环保局,,43,33,36,23,25,136,,103,103,5,8,5,5,0.4,0.4
2024-09-29T1300,1337A,113.0792,28.2053,长沙市,马坡岭,,38,31,45,22,24,121,,81,81,2,16,5,5,0.5,0.5
2024-09-29T1300,1338A,112.9394,28.19,长沙市,湖南师范大学,颗粒物(PM10),55,59,42,22,20,145,,104,104,6,10,8,7,0.4,0.5
2024-09-29T1300,1339A,113.0178,28.1322,长沙市,雨花区环保局,,40,37,41,18,26,127,,97,97,2,9,7,7,0.5,0.5
2024-09-29T1300,1340A,112.9792,28.2597,长沙市,伍家岭,,44,41,49,19,29,139,,75,75,4,23,4,3,0.6,0.7
2024-09-29T1300,1341A,113.0014,28.1944,长沙市,火车新站,,42,42,40,19,20,120,,87,87,4,12,6,5,0.6,0.6
2024-09-29T1300,1342A,112.9844,28.1178,长沙市,天心区环保局,,38,34,43,15,19,121,,91,91,8,15,5,4,0.5,0.5
2024-09-29T1300,1343A,112.8908,28.1308,长沙市,湖南中医药大学,,44,35,42,27,21,140,,102,102,5,14,6,6,0.7,0.7
2024-09-29T1300,1344A,112.9581,28.3611,长沙市,沙坪,,42,25,31,14,24,134,,100,100,2,5,7,7,0.6,0.4
2024-09-29T1300,1727A,113.1147,36.1547,长治市,清华站,,,25,32,12,19,129,,117,117,7,12,,6,0.5,0.6
2024-09-29T1300,1728A,113.1031,36.1989,长治市,监测站,,40,30,33,17,20,126,,113,113,11,14,8,9,0.6,0.7
2024-09-29T1300,1730A,113.0886,36.2125,长治市,审计局,,42,32,33,14,19,133,,119,119,11,14,6,6,0.3,0.4
2024-09-29T1300,1731A,113.0844,36.1856,长治市,长治八中,,41,37,40,14,20,130,,122,122,9,12,6,6,0.6,0.6
2024-09-29T1300,2845A,113.1569,36.1911,长治市,德盛苑,,41,21,32,14,18,130,,118,113,7,10,6,4,0.7,0.9
2024-09-29T1300,3568A,113.06,36.0464,长治市,向阳小学,,48,47,56,33,35,128,,123,123,12,16,6,7,0.5,0.5
2024-09-29T1300,3569A,112.8792,36.3144,长治市,屯留一中,颗粒物(PM10),52,54,56,18,35,149,,124,124,10,13,9,8,1.2,1.1
2024-09-29T1300,3570A,113.235,36.3489,长治市,潞城四中,,43,42,54,30,38,123,,100,100,9,12,6,6,0.3,0.4
2024-09-29T1300,1854A,111.6975,28.9703,常德市,市二中,颗粒物(PM10),51,52,103,33,76,131,,80,80,6,18,11,12,0.8,1.1
2024-09-29T1300,3138A,111.7153,29.0289,常德市,武陵区永安,,44,44,89,21,65,132,,87,87,7,14,10,10,0.6,0.9
2024-09-29T1300,3139A,111.6892,28.9881,常德市,鼎城区玉霞,,43,42,106,21,67,135,,83,83,6,17,11,12,0.7,1
2024-09-29T1300,3140A,111.6625,29.0531,常德市,武陵区长庚,颗粒物(PM10),53,56,81,25,52,138,,95,95,7,12,12,12,0.5,0.7
2024-09-29T1300,1196A,119.9633,31.762,常州市,市监测站,,41,26,54,18,25,129,,83,83,8,21,6,9,0.4,0.7
2024-09-29T1300,1200A,119.9468,31.7069,常州市,武进监测站,,42,31,49,14,24,133,,86,86,3,14,5,8,0.6,0.9
2024-09-29T1300,1201A,119.9255,31.9087,常州市,安家,,36,23,49,13,26,114,,76,76,14,26,9,10,0.4,0.7
2024-09-29T1300,3002A,119.9805,31.8174,常州市,行政中心,,38,21,48,8,21,121,,80,80,4,18,8,10,0.3,0.6
2024-09-29T1300,3003A,120.0522,31.7748,常州市,经开区,,41,21,43,8,22,130,,84,84,5,22,6,7,0.3,0.7
2024-09-29T1300,3010A,119.9025,31.7964,常州市,钟楼,,40,28,46,11,23,125,,84,84,8,18,8,9,0.4,0.8
2024-09-29T1300,3429A,119.8598,31.7066,常州市,武进经发区,,41,18,47,9,21,130,,84,84,8,19,6,9,0.6,0.9
2024-09-29T1300,3430A,119.5826,31.7245,常州市,金坛城区,,43,18,34,7,21,136,,86,86,9,21,8,9,0.5,0.8
2024-09-29T1300,2220A,120.4318,41.5881,朝阳市,西梁,颗粒物(PM10),53,55,34,21,13,118,,99,95,8,11,9,11,0.5,0.6
2024-09-29T1300,2221A,120.4521,41.5646,朝阳市,河畔小区,,44,44,29,20,18,119,,113,106,8,9,9,10,0.6,0.7
2024-09-29T1300,2222A,120.4176,41.5648,朝阳市,八里堡,,48,48,37,20,18,119,,94,94,11,17,9,12,0.6,0.7
2024-09-29T1300,2223A,120.3806,41.5969,朝阳市,农业园区,颗粒物(PM10),54,57,42,26,30,117,,73,73,9,23,9,9,0.8,0.7
2024-09-29T1300,1705A,116.6367,23.6719,潮州市,西园路,,24,24,29,15,14,56,,39,39,5,12,3,4,0.3,0.5
2024-09-29T1300,3026A,116.6183,23.6608,潮州市,市政府,,20,14,32,8,15,62,,46,46,3,16,4,9,0.3,0.5
2024-09-29T1300,4036A,116.6461,23.6761,潮州市,金山,,24,24,28,6,14,60,,42,42,2,11,6,7,0.5,0.7
2024-09-29T1300,2472A,113.0073,25.9061,郴州市,马头岭,,31,25,47,7,17,97,,53,53,7,13,7,9,0.1,0.3
2024-09-29T1300,2473A,113.0116,25.8226,郴州市,市职中,,28,22,44,14,32,88,,48,48,5,17,5,6,0.4,0.6
2024-09-29T1300,2474A,113.0161,25.8001,郴州市,兴隆步行街,,25,18,54,7,32,78,,42,42,7,24,4,5,0.5,0.7
2024-09-29T1300,2475A,113.0383,25.8071,郴州市,市审计局,,28,16,41,10,31,88,,42,42,4,20,4,4,0.4,0.5
2024-09-29T1300,2476A,113.0348,25.7759,郴州市,市环保局,,27,27,50,10,31,78,,36,36,6,24,5,5,0.5,0.6
2024-09-29T1300,1431A,103.9728,30.7236,成都市,金泉两河,,34,34,50,14,39,38,,50,44,8,11,3,4,0.6,0.6
2024-09-29T1300,1432A,104.176,30.6872,成都市,十里店,,40,36,63,28,45,31,,51,44,20,16,2,4,0.7,0.7
2024-09-29T1300,1433A,104.079,30.5706,成都市,三瓦窑,,39,39,56,23,46,38,,64,51,16,14,2,4,0.6,0.6
2024-09-29T1300,1434A,104.1114,30.63,成都市,沙河铺,,40,40,59,26,47,34,,63,48,23,20,3,4,0.6,0.6
2024-09-29T1300,1437A,104.0786,30.6531,成都市,君平街,,19,19,54,13,43,36,,62,51,19,16,2,4,0.7,0.7
2024-09-29T1300,2880A,104.0239,30.65639,成都市,大石西路,,39,39,54,16,42,38,,60,49,15,16,4,5,0.5,0.6
2024-09-29T1300,3136A,104.2725,30.5589,成都市,龙泉驿区区政府,,45,31,57,31,45,32,,51,38,21,20,3,2,0.6,0.6
2024-09-29T1300,3357A,104.0106,30.6931,成都市,金博路,,19,19,52,12,36,34,,48,42,13,14,1,2,0.6,0.6
2024-09-29T1300,3359A,104.0578,30.5225,成都市,华阳,细颗粒物(PM2.5),55,48,61,39,48,24,,58,44,22,16,3,4,0.7,0.7
2024-09-29T1300,3487A,104.2394,30.5319,成都市,车城东七路,细颗粒物(PM2.5),53,48,68,37,51,32,,54,39,22,21,2,4,0.8,0.7
2024-09-29T1300,3488A,104.3853,30.7453,成都市,青白江技师分院,,40,34,58,28,48,30,,31,31,16,20,2,3,0.8,0.8
2024-09-29T1300,3489A,104.0789,30.4072,成都市,科学城,细颗粒物(PM2.5),62,57,72,44,56,38,,48,42,21,20,4,5,0.7,0.7
2024-09-29T1300,4011A,103.8506,30.6947,成都市,光华大道三段,颗粒物(PM10),54,57,57,18,38,53,,63,62,14,14,3,4,0.6,0.6
2024-09-29T1300,1062A,117.9531,40.9081,承德市,铁路,细颗粒物(PM2.5),59,60,58,42,29,106,,88,87,25,41,11,10,0.7,0.8
2024-09-29T1300,1063A,117.9392,40.9763,承德市,中国银行,颗粒物(PM10),60,69,48,38,21,116,,62,62,16,27,6,6,0.7,0.7
2024-09-29T1300,1064A,117.9503,40.928,承德市,开发区,颗粒物(PM10),62,73,55,31,25,110,,97,96,25,32,10,10,0.7,0.8
2024-09-29T1300,1065A,117.8051,40.9655,承德市,文化中心,颗粒物(PM10),59,68,56,39,27,113,,118,112,20,21,9,9,0.6,0.7
2024-09-29T1300,1066A,117.9268,41.0026,承德市,离宫,细颗粒物(PM2.5),58,62,46,41,34,98,,54,54,9,12,2,2,0.7,0.6
2024-09-29T1300,2314A,117.47,30.6618,池州市,池州学院,臭氧1小时,60,31,42,21,26,168,,109,109,12,10,10,6,0.5,0.5
2024-09-29T1300,3237A,117.4918,30.6617,池州市,展览馆,臭氧1小时,59,41,43,25,25,167,,104,104,12,8,10,5,0.5,0.5
2024-09-29T1300,3333A,117.5627,30.695,池州市,第八中学,,48,32,40,22,22,153,,100,100,11,12,4,4,0.5,0.6
2024-09-29T1300,3334A,117.5038,30.6243,池州市,第十二中学,,50,31,37,8,19,158,,96,96,11,15,5,5,0.6,1.1
2024-09-29T1300,1744A,118.9233,42.2816,赤峰市,松山一中,,47,47,66,14,33,137,,111,111,15,25,10,10,0.4,0.6
2024-09-29T1300,1745A,118.9576,42.2728,赤峰市,哈达街,颗粒物(PM10),51,51,64,21,41,141,,122,122,12,15,10,10,0.5,0.7
2024-09-29T1300,1746A,118.8788,42.2554,赤峰市,天义路,,48,48,63,19,42,126,,111,111,14,21,7,7,0.3,0.4
2024-09-29T1300,3058A,119.2658,42.0353,赤峰市,银河街,颗粒物(PM10),71,92,67,19,32,141,,114,114,12,15,13,20,0.6,0.7
2024-09-29T1300,3286A,118.9359,42.3147,赤峰市,桥北物流园区,,49,49,68,22,36,126,,121,121,14,25,10,11,0.7,0.8
2024-09-29T1300,2521A,107.3476,22.4136,崇左市,市环保局江州分局,,36,36,33,18,19,69,,31,31,5,8,4,4,0.6,0.6
2024-09-29T1300,2522A,107.3702,22.3707,崇左市,城南新区,,24,24,23,16,17,66,,34,34,4,7,4,4,0.7,0.7
2024-09-29T1300,2298A,118.3093,32.3153,滁州市,老年大学,,42,31,42,20,26,133,,82,82,8,15,5,7,0.4,0.4
2024-09-29T1300,2299A,118.3244,32.2786,滁州市,人大宾馆,,44,43,50,16,29,138,,84,84,9,15,6,7,0.4,0.4
2024-09-29T1300,3207A,118.3118,32.3038,滁州市,市政府原办公楼,,43,34,40,25,31,135,,85,85,5,16,5,7,0.4,0.4
2024-09-29T1300,3331A,118.3267,32.2634,滁州市,图书馆,,42,40,48,12,24,134,,82,82,8,15,5,6,0.4,0.4
2024-09-29T1300,2605A,101.5482,25.0441,楚雄彝族自治州,州环境监测站,,15,10,12,3,8,47,,24,24,3,9,9,17,0.5,0.6
2024-09-29T1300,2606A,101.538,25.0492,楚雄彝族自治州,市经济开发区,,15,15,15,3,10,46,,25,25,4,10,5,11,0.5,0.6
2024-09-29T1300,2548A,107.5277,31.2827,达州市,达州职业技术学院,,40,39,49,28,30,99,,83,82,8,20,5,5,0.7,0.7
2024-09-29T1300,2549A,107.5086,31.2186,达州市,市环境监测站,,46,46,47,27,26,103,,96,96,15,15,6,6,0.5,0.5
2024-09-29T1300,2550A,107.4988,31.2132,达州市,凤凰小区,,44,44,40,29,26,109,,102,102,14,13,7,7,0.6,0.5
2024-09-29T1300,2551A,107.5082,31.1986,达州市,达县机关宾馆,,41,41,43,22,25,106,,95,95,17,17,5,5,0.5,0.4
2024-09-29T1300,2552A,107.4644,31.2124,达州市,市政中心,,47,47,47,27,28,101,,99,99,16,14,5,4,0.5,0.4
2024-09-29T1300,2614A,100.1542,25.7054,大理白族自治州,大理市环境监测站,,,,26,,10,40,,36,36,4,6,,8,0.6,0.5
2024-09-29T1300,2615A,100.2171,25.5811,大理白族自治州,大理古城,,21,18,18,3,10,67,,41,41,4,8,8,8,0.3,0.4
2024-09-29T1300,1109A,121.612,38.9741,大连市,甘井子,,39,24,26,10,12,124,,99,99,10,15,8,9,0.5,0.9
2024-09-29T1300,1110A,121.565,38.9511,大连市,周水子,,27,27,30,10,16,78,,66,66,11,21,7,7,0.5,0.5
2024-09-29T1300,1111A,121.5637,38.8845,大连市,星海三站,,36,22,24,12,11,113,,98,98,4,7,6,6,0.3,0.3
2024-09-29T1300,1112A,121.6302,38.9117,大连市,青泥洼桥,,38,15,25,9,13,119,,93,93,4,12,6,7,0.2,0.2
2024-09-29T1300,1113A,121.6251,38.8638,大连市,傅家庄,,29,20,20,12,11,91,,80,80,11,9,8,7,0.3,0.2
2024-09-29T1300,1114A,121.5213,38.8661,大连市,七贤岭,,38,14,21,10,11,121,,102,102,6,11,7,7,0.4,0.4
2024-09-29T1300,1115A,121.2529,38.8061,大连市,旅顺,,40,,12,8,8,125,,103,103,8,10,6,6,0.4,0.4
2024-09-29T1300,1116A,121.7485,39.1311,大连市,金州,,34,17,20,12,13,106,,94,94,7,9,7,6,0.5,0.5
2024-09-29T1300,1117A,121.7811,39.0496,大连市,开发区,,34,28,31,10,16,108,,80,80,4,17,8,6,0.2,0.3
2024-09-29T1300,1118A,121.9762,39.0631,大连市,双D港,,28,16,20,11,11,89,,91,91,10,11,6,6,0.6,0.6
2024-09-29T1300,1789A,124.81117,46.03138,大庆市,大同区,颗粒物(PM10),67,84,52,29,26,132,,91,91,10,15,5,5,0.3,0.3
2024-09-29T1300,1790A,125.129,46.533,大庆市,龙凤区,颗粒物(PM10),79,108,53,24,23,126,,90,90,7,14,3,8,0.5,0.4
2024-09-29T1300,1791A,124.902,46.408,大庆市,红岗区,颗粒物(PM10),59,68,40,29,21,122,,91,91,10,14,7,6,0.5,0.5
2024-09-29T1300,1792A,125.153,46.586,大庆市,萨尔图区,颗粒物(PM10),63,75,48,25,21,119,,85,85,11,16,6,7,0.4,0.4
2024-09-29T1300,1793A,124.9042,46.6215,大庆市,让胡路区,颗粒物(PM10),55,60,46,27,22,126,,87,87,10,14,6,7,0.5,0.4
2024-09-29T1300,3481A,125.141,46.634,大庆市,萨区政府监测点,,50,50,37,20,17,131,,93,93,9,13,7,8,0.3,0.3
2024-09-29T1300,1721A,113.3819,40.1097,大同市,果树场,细颗粒物(PM2.5),62,,41,44,33,81,,88,74,20,22,7,7,0.7,0.8
2024-09-29T1300,1723A,113.2994,40.0758,大同市,云冈宾馆,,46,37,43,32,34,92,,98,80,20,22,7,8,0.8,0.8
2024-09-29T1300,1724A,113.3444,40.0917,大同市,大同大学,,45,43,36,31,29,83,,101,86,22,18,6,7,0.6,0.6
2024-09-29T1300,1725A,113.2661,40.1269,大同市,安家小村,,35,31,41,24,31,96,,97,87,19,18,11,11,0.7,0.7
2024-09-29T1300,1726A,113.2711,40.0844,大同市,教育学院,,36,36,48,23,31,86,,88,69,28,29,7,8,0.7,0.7
2024-09-29T1300,3282A,113.3397,40.0597,大同市,大同市卫生学校,颗粒物(PM10),54,58,50,32,31,86,,99,83,21,20,6,8,0.6,0.6
2024-09-29T1300,3565A,113.1367,40.1122,大同市,云冈站,,36,31,54,25,29,81,,92,91,20,17,9,9,0.7,0.7
2024-09-29T1300,3566A,113.1186,40.2556,大同市,图书馆,,32,32,42,17,31,73,,86,82,18,21,10,11,0.7,0.8
2024-09-29T1300,3567A,113.5931,40.0461,大同市,区一中,,40,39,41,28,22,73,,100,86,23,19,8,7,0.8,0.8
2024-09-29T1300,3676A,113.2802,40.0995,大同市,第二人民医院,,32,30,43,22,30,94,,100,84,20,20,10,11,0.7,0.7
2024-09-29T1300,2269A,124.1069,50.4097,大兴安岭地区,科技局,,20,,17,14,17,54,,51,51,4,6,6,7,0.3,0.4
2024-09-29T1300,3663A,124.1164,50.4278,大兴安岭地区,红旗社区,,17,6,3,3,5,53,,49,49,2,4,4,4,0.3,0.4
2024-09-29T1300,1600A,124.3303,40.0625,丹东市,江湾东路,,34,34,54,9,24,86,,50,50,4,22,12,10,0.4,0.7
2024-09-29T1300,1601A,124.4256,40.1503,丹东市,临江后街,,30,18,44,6,21,95,,50,50,2,19,8,8,0.6,0.8
2024-09-29T1300,1602A,124.3933,40.1461,丹东市,元宝山,,28,20,32,9,15,87,,44,44,4,15,6,4,0.6,0.7
2024-09-29T1300,1603A,124.3633,40.1092,丹东市,民主桥,,32,32,36,12,18,93,,52,52,3,24,7,6,0.3,0.5
2024-09-29T1300,3541A,109.5726,19.5167,儋州市,第一中学子站,,20,12,20,12,13,64,,42,42,2,4,6,5,0.4,0.6
2024-09-29T1300,3542A,109.5567,19.5187,儋州市,东坡学校子站,,22,15,20,10,12,70,,45,45,2,4,4,4,0.5,0.5
2024-09-29T1300,2616A,98.5842,24.428,德宏傣族景颇族自治州,德宏州监测站,,30,30,27,17,12,18,,5,5,24,14,43,17,0.8,0.7
2024-09-29T1300,3677A,98.5881,24.4368,德宏傣族景颇族自治州,芒市人民政府综合楼,,29,29,21,20,12,24,,8,8,22,13,28,15,0.7,0.6
2024-09-29T1300,1901A,104.4239,31.1208,德阳市,东山公园,,26,,40,18,31,49,,58,52,14,14,2,3,0.6,0.7
2024-09-29T1300,1902A,104.3826,31.1317,德阳市,西小区,,35,25,42,24,35,43,,54,43,18,18,2,2,0.7,0.7
2024-09-29T1300,1904A,104.3553,31.1091,德阳市,耐火材料厂,,30,26,41,21,31,32,,48,43,23,16,12,4,0.6,0.6
2024-09-29T1300,3639A,104.4019,31.1244,德阳市,市教育局,,29,25,42,20,32,40,,57,46,19,15,1,2,0.6,0.7
2024-09-29T1300,1622A,116.3032,37.4674,德州市,儿童乐园,颗粒物(PM10),51,51,63,17,27,157,,108,108,14,30,14,11,0.6,0.6
2024-09-29T1300,1624A,116.2991,37.4451,德州市,监理站,,50,48,54,19,26,160,,108,108,14,26,14,12,0.6,0.5
2024-09-29T1300,3066A,116.2721,37.4379,德州市,九衢泉纯净水厂,,48,46,55,17,26,151,,100,100,12,28,13,11,0.6,0.6
2024-09-29T1300,3371A,116.3728,37.4403,德州市,开发区人民医院,,50,46,58,19,25,158,,104,104,6,26,12,11,0.6,0.6
2024-09-29T1300,3372A,116.3572,37.4094,德州市,太阳城中学,,49,48,59,19,25,155,,97,97,16,41,12,10,0.7,0.6
2024-09-29T1300,3511A,116.5652,37.3319,德州市,陵城艺术中心,,47,41,65,12,28,148,,81,81,15,37,10,11,0.6,0.7
2024-09-29T1300,2621A,99.7056,27.8317,迪庆藏族自治州,迪庆州站,,16,9,19,8,9,51,,25,25,9,10,8,14,0.4,0.4
2024-09-29T1300,3180A,99.7136,27.8094,迪庆藏族自治州,质量技术监督局,,16,12,16,3,7,51,,26,26,8,8,7,10,0.4,0.4
2024-09-29T1300,2663A,104.6241,35.5734,定西市,东关小学,,32,32,32,13,27,83,,83,82,4,5,4,5,0.2,0.3
2024-09-29T1300,2664A,104.6194,35.5934,定西市,供电公司,,26,22,35,3,26,82,,84,81,2,4,8,8,0.4,0.4
2024-09-29T1300,1389A,113.7547,23.0494,东莞市,莞城梨川,臭氧1小时,67,39,27,18,14,173,,83,83,16,18,6,6,0.7,0.7
2024-09-29T1300,1390A,113.7944,23.0128,东莞市,东城石井,臭氧1小时,59,31,24,20,13,167,,80,80,13,18,4,5,0.7,0.7
2024-09-29T1300,1391A,113.7383,22.9658,东莞市,南城西平,臭氧1小时,65,34,29,15,13,172,,71,71,14,26,7,8,0.8,0.8
2024-09-29T1300,3319A,113.7338,23.0381,东莞市,万江金泰,臭氧1小时,68,35,26,20,14,174,,84,84,17,17,9,8,0.5,0.6
2024-09-29T1300,3626A,113.7533,23.0202,东莞市,南城元岭,臭氧1小时,59,48,29,24,14,167,,79,79,12,16,7,7,0.7,0.7
2024-09-29T1300,3627A,113.7875,23.0457,东莞市,东城主山,臭氧1小时,68,35,26,17,14,174,,88,88,11,21,7,7,0.6,0.6
2024-09-29T1300,1666A,118.6614,37.4309,东营市,市环保局,臭氧1小时,62,46,40,17,17,169,,117,117,10,15,4,8,0.3,0.3
2024-09-29T1300,3036A,118.6904,37.4338,东营市,开发区管委会,臭氧1小时,74,60,47,24,20,179,,124,124,11,16,4,7,0.3,0.3
2024-09-29T1300,3365A,118.5719,37.565,东营市,垦利区民丰路,,46,46,37,19,16,147,,104,104,10,14,9,9,0.3,0.3
2024-09-29T1300,3498A,118.5055,37.8612,东营市,河口城区,,,46,41,22,20,156,,101,101,,13,7,7,0.5,0.4
2024-09-29T1300,3646A,118.4978,37.4623,东营市,胜利站,,47,40,33,14,18,149,,98,98,11,16,8,9,0.3,0.4
2024-09-29T1300,3734A,118.35,37.26,东营市,理想之城,,48,44,44,17,23,152,,98,98,13,21,6,8,0.2,0.3
2024-09-29T1300,1591A,110.0023,39.8129,鄂尔多斯市,综合楼,,25,12,51,3,32,77,,97,72,8,13,7,8,0.4,0.6
2024-09-29T1300,1592A,109.9486,39.8261,鄂尔多斯市,巴音孟克林场办事处,,23,12,50,3,28,72,,91,68,10,15,6,7,0.4,0.6
2024-09-29T1300,1593A,109.7736,39.5986,鄂尔多斯市,康泽苑,,25,7,45,3,25,77,,100,72,4,9,8,9,0.4,0.6
2024-09-29T1300,1594A,109.8119,39.5989,鄂尔多斯市,华泰汽车城,,24,19,42,3,30,75,,94,69,5,10,7,8,0.4,0.6
2024-09-29T1300,1595A,109.9734,39.7884,鄂尔多斯市,奥林花园,,22,17,52,3,26,70,,83,64,8,16,4,7,0.5,0.7
2024-09-29T1300,2436A,114.8938,30.3994,鄂州市,市政府,臭氧1小时,58,32,33,19,18,166,,115,115,12,19,12,11,0.6,0.6
2024-09-29T1300,2437A,114.8989,30.3714,鄂州市,赵家坝,臭氧1小时,54,38,38,13,15,163,,111,111,10,17,14,13,0.7,0.8
2024-09-29T1300,3654A,114.8094,30.4089,鄂州市,精准医疗中心,臭氧1小时,52,34,33,10,15,161,,112,112,14,21,14,18,0.9,1.3
2024-09-29T1300,2454A,109.4978,30.2981,恩施土家族苗族自治州,湖北民院,细颗粒物(PM2.5),90,77,62,67,50,92,,57,57,24,20,10,10,0.8,0.8
2024-09-29T1300,2455A,109.4707,30.2798,恩施土家族苗族自治州,州电力总公司,细颗粒物(PM2.5),80,79,58,59,47,82,,48,48,27,23,7,7,0.9,0.8
2024-09-29T1300,3549A,109.5061,30.3772,恩施土家族苗族自治州,龙凤新区,细颗粒物(PM2.5),78,83,60,57,48,60,,52,51,36,21,7,7,1.1,1
2024-09-29T1300,2499A,108.3411,21.6158,防城港市,沙万,,26,26,17,8,9,51,,30,30,5,14,9,10,0.6,0.7
2024-09-29T1300,2500A,108.3514,21.7731,防城港市,防城档案局,,20,20,15,10,8,57,,32,32,6,7,8,9,0.5,0.5
2024-09-29T1300,2501A,108.3506,21.6414,防城港市,大海花园,,16,10,15,6,7,51,,30,30,6,10,7,7,0.7,0.7
2024-09-29T1300,1371A,113.1294,23.0067,佛山市,湾梁,,45,44,32,20,18,142,,67,67,27,30,8,7,0.7,0.7
2024-09-29T1300,1372A,113.1083,23.0478,佛山市,华材职中,,44,44,30,15,21,128,,65,65,25,25,8,8,0.5,0.5
2024-09-29T1300,1373A,113.144,23.0453,佛山市,南海气象局,,40,34,30,15,21,126,,66,66,19,21,8,8,0.6,0.6
2024-09-29T1300,1374A,113.2881,22.8094,佛山市,顺德苏岗,,48,22,32,12,16,152,,66,66,14,23,8,8,0.6,0.7
2024-09-29T1300,1376A,112.8383,22.8678,佛山市,高明孔堂,,32,13,37,13,23,101,,63,63,5,11,4,5,0.4,0.5
2024-09-29T1300,1377A,112.8836,23.1588,佛山市,三水监测站,,31,27,37,19,24,99,,53,53,20,30,8,6,0.5,0.6
2024-09-29T1300,1378A,112.867,23.185,佛山市,三水云东海,,43,32,32,30,28,64,,43,40,45,28,9,9,0.7,0.7
2024-09-29T1300,3625A,113.2544,22.7642,佛山市,容桂街道办,,47,36,27,27,20,149,,66,66,22,25,9,7,0.7,0.7
2024-09-29T1300,1282A,119.2681,26.0504,福州市,师大,,33,33,35,12,18,75,,69,62,7,11,2,2,0.3,0.4
2024-09-29T1300,1283A,119.2984,26.1028,福州市,五四北路,,23,22,32,10,15,71,,77,68,6,9,4,4,0.3,0.4
2024-09-29T1300,1284A,119.2648,26.0768,福州市,杨桥西路,,42,42,37,10,16,75,,77,65,7,11,4,3,0.4,0.4
2024-09-29T1300,1285A,119.317,26.0746,福州市,紫阳,,30,30,35,10,15,72,,78,59,7,19,5,5,0.5,0.5
2024-09-29T1300,3048A,119.5799,26.0936,福州市,九龙,,29,29,31,10,13,80,,86,78,7,5,8,7,0.5,0.4
2024-09-29T1300,3526A,119.5189,25.9664,福州市,吴航,,25,21,29,12,16,80,,87,80,6,5,9,7,0.4,0.4
2024-09-29T1300,1755A,123.7977,41.8491,抚顺市,望花区,,48,48,71,13,29,106,,48,48,14,38,9,9,0.5,0.9
2024-09-29T1300,1756A,123.9161,41.8822,抚顺市,顺城区,,41,41,56,13,24,120,,58,58,11,37,7,7,0.7,0.8
2024-09-29T1300,1757A,124.0436,41.8611,抚顺市,东洲区,,36,29,35,9,21,113,,57,57,6,17,6,7,0.4,0.6
2024-09-29T1300,1758A,123.9247,41.8642,抚顺市,新抚区,,46,46,58,12,21,125,,55,55,11,39,6,5,0.5,0.6
2024-09-29T1300,1759A,124.0972,41.8961,抚顺市,大伙房水库,,37,32,27,12,17,118,,65,65,4,10,7,7,0.4,0.5
2024-09-29T1300,1760A,123.7086,41.8391,抚顺市,沈抚新城,,41,41,63,14,32,113,,57,57,13,40,9,12,0.3,0.7
2024-09-29T1300,2376A,116.2127,28.0814,抚州市,桐源党溪,,41,35,37,18,20,129,,83,83,3,8,7,10,0.6,0.6
2024-09-29T1300,2377A,116.3544,27.9831,抚州市,市站,,35,34,37,14,19,109,,88,88,7,12,4,5,0.8,0.9
2024-09-29T1300,2378A,116.3565,27.963,抚州市,血防站,,37,26,36,14,24,116,,91,91,7,12,1,6,0.9,0.9
2024-09-29T1300,2379A,116.3564,28.0007,抚州市,采茶剧团,,37,31,35,7,19,116,,90,90,2,8,7,8,0.7,0.7
2024-09-29T1300,2380A,116.385,27.9647,抚州市,医学分院,,35,27,35,10,16,112,,88,88,5,10,3,5,0.6,0.7
2024-09-29T1300,2207A,121.6094,41.998,阜新市,工业园区,颗粒物(PM10),64,78,46,13,18,116,,96,96,6,15,7,12,0.7,0.8
2024-09-29T1300,2208A,121.6697,42.0279,阜新市,长青街,,47,47,46,15,20,110,,96,96,8,14,6,12,0.5,0.6
2024-09-29T1300,2209A,121.6673,42.0705,阜新市,农业园区,颗粒物(PM10),54,57,42,19,31,107,,94,94,8,14,5,11,0.4,0.5
2024-09-29T1300,2210A,121.6717,42.0224,阜新市,东苑,颗粒物(PM10),60,70,49,13,20,105,,95,95,9,16,3,10,0.8,0.9
2024-09-29T1300,2211A,121.6506,42.0498,阜新市,玉龙新城,颗粒物(PM10),51,52,45,17,22,120,,96,96,6,14,7,12,0.7,0.8
2024-09-29T1300,2301A,115.8277,32.8929,阜阳市,市监测站,颗粒物(PM10),51,52,45,25,21,144,,90,90,7,14,7,8,0.6,0.5
2024-09-29T1300,2303A,115.8554,32.8605,阜阳市,开发区,颗粒物(PM10),57,64,58,23,23,143,,90,90,11,17,6,7,0.6,0.6
2024-09-29T1300,2875A,115.784,32.8892,阜阳市,阜阳职业技术学院,,45,42,43,18,21,144,,92,92,9,14,6,7,0.5,0.5
2024-09-29T1300,3468A,115.7901,32.8613,阜阳市,市规划展馆,,47,38,47,22,26,148,,96,96,12,17,7,8,0.4,0.4
2024-09-29T1300,3469A,115.836,32.9183,阜阳市,枣园社区,颗粒物(PM10),57,64,45,27,23,143,,87,87,11,16,8,9,0.6,0.5
2024-09-29T1300,2669A,102.9099,34.9841,甘南藏族自治州,州政府,,26,,23,11,23,83,,77,77,4,8,10,12,0.3,0.3
2024-09-29T1300,3380A,102.8914,34.9617,甘南藏族自治州,甘肃民族师范学院,,26,6,24,3,16,82,,75,75,3,12,4,4,0.4,0.5
2024-09-29T1300,2570A,101.9603,30.0475,甘孜藏族自治州,水桥子,,25,8,17,7,7,79,,24,24,4,23,5,5,0.3,0.5
2024-09-29T1300,3065A,101.9533,29.9972,甘孜藏族自治州,州环保局,,24,8,19,3,4,74,,32,32,8,23,3,3,0.3,0.4
2024-09-29T1300,3414A,115.8347,28.932,赣江新区,桑海产业园,,40,31,28,17,11,127,,88,88,8,26,13,12,0.3,0.2
2024-09-29T1300,2362A,114.9017,25.9149,赣州市,通天岩,,33,23,25,19,16,104,,55,55,2,3,11,9,0.4,0.4
2024-09-29T1300,2363A,114.9367,25.8664,赣州市,地委,,32,18,30,13,24,100,,55,55,5,10,9,8,1.1,1.2
2024-09-29T1300,2364A,114.9461,25.8481,赣州市,气象台,,32,22,32,9,21,100,,54,54,2,8,4,12,0.4,0.5
2024-09-29T1300,2365A,114.9322,25.8333,赣州市,市图书馆,,35,15,31,9,18,112,,60,60,4,9,4,6,0.6,0.7
2024-09-29T1300,2366A,114.8905,25.8471,赣州市,华坚鞋城,,32,28,32,14,19,102,,58,58,6,8,5,5,0.4,0.5
2024-09-29T1300,3109A,115.0093,25.8613,赣州市,赣县区卫计委,,30,12,25,3,16,93,,52,52,8,16,7,7,0.5,0.6
2024-09-29T1300,2683A,106.2319,36.1417,固原市,马园,,25,11,48,3,15,78,,87,77,9,12,6,6,0.4,0.6
2024-09-29T1300,2684A,106.2792,36.0022,固原市,监测站,,26,11,25,3,17,82,,94,84,8,8,3,3,0.2,0.3
2024-09-29T1300,2685A,106.2375,36.0211,固原市,新区,,25,17,26,3,19,78,,92,84,7,7,6,5,0.3,0.5
2024-09-29T1300,3522A,106.2177,35.9959,固原市,原州区十五小,,26,9,21,3,16,82,,91,84,9,10,5,5,0.4,0.7
2024-09-29T1300,2544A,106.6303,30.4576,广安市,市委,,36,32,37,25,26,101,,81,80,9,12,1,2,0.4,0.4
2024-09-29T1300,2545A,106.6271,30.4663,广安市,友谊中学,,35,35,37,22,25,100,,78,78,12,16,3,4,0.5,0.5
2024-09-29T1300,2547A,106.6388,30.4551,广安市,广电花园,,34,34,40,20,26,101,,74,74,10,16,2,2,0.4,0.4
2024-09-29T1300,2902A,106.6351,30.4865,广安市,北辰小学,,50,50,47,24,25,98,,78,78,9,12,6,6,0.4,0.5
2024-09-29T1300,2523A,105.8945,32.4535,广元市,黑石坡,,22,13,43,8,46,70,,44,44,5,14,13,13,0.3,0.6
2024-09-29T1300,2524A,105.821,32.4444,广元市,老城,,25,13,48,6,31,78,,54,54,8,24,3,3,0.3,0.8
2024-09-29T1300,2526A,105.8628,32.4287,广元市,监测站,,27,13,45,3,37,85,,62,61,4,17,3,3,0.3,0.7
2024-09-29T1300,3617A,105.8047,32.4166,广元市,经开区,,25,6,36,3,28,79,,52,52,10,19,4,5,0.4,0.8
2024-09-29T1300,1345A,113.2347,23.1423,广州市,广雅中学,,45,40,33,20,19,142,,66,66,29,29,6,7,0.8,0.8
2024-09-29T1300,1346A,113.2612,23.105,广州市,市五中,,49,36,32,23,20,154,,76,76,13,19,6,6,0.6,0.6
2024-09-29T1300,1348A,113.3478,23.0916,广州市,广东商学院,,48,27,32,15,19,152,,62,62,11,30,5,5,0.5,0.6
2024-09-29T1300,1349A,113.4332,23.1047,广州市,市八十六中,,44,24,35,11,17,138,,66,66,14,35,4,5,0.4,0.5
2024-09-29T1300,1350A,113.3505,22.9483,广州市,番禺中学,,45,25,28,14,17,142,,78,78,10,22,6,7,0.6,0.7
2024-09-29T1300,1351A,113.2146,23.3916,广州市,花都师范,,,54,38,,19,139,,60,60,18,29,6,5,,0.7
2024-09-29T1300,1352A,113.2597,23.1331,广州市,市监测站,,39,34,31,17,16,123,,62,62,25,26,4,4,0.7,0.7
2024-09-29T1300,1353A,113.5618,23.312,广州市,九龙镇镇龙,,36,26,31,14,20,114,,53,53,14,20,8,7,0.6,0.7
2024-09-29T1300,1354A,113.2765,23.1544,广州市,麓湖,,43,40,46,18,20,137,,48,48,22,33,6,6,0.5,0.6
2024-09-29T1300,1355A,113.443,23.3035,广州市,帽峰山森林公园,,41,13,23,10,14,131,,61,61,7,16,6,6,0.4,0.5
2024-09-29T1300,2846A,113.3221,23.1322,广州市,体育西,,41,34,32,18,20,131,,57,57,14,25,4,4,0.6,0.6
2024-09-29T1300,3298A,113.5717,23.5491,广州市,从化街口,,32,15,28,12,19,101,,53,53,6,16,8,8,0.5,0.6
2024-09-29T1300,3299A,113.3472,23.3692,广州市,白云竹料,,50,43,38,20,23,157,,64,64,12,24,6,5,0.4,0.6
2024-09-29T1300,3300A,113.2981,23.237,广州市,白云嘉禾,,45,45,41,24,21,128,,54,54,27,39,7,8,0.8,0.9
2024-09-29T1300,3301A,113.4256,23.1716,广州市,黄埔科学城,,49,31,34,15,20,154,,59,59,14,27,9,9,0.7,0.7
2024-09-29T1300,3302A,113.3942,23.0483,广州市,番禺大学城,,47,37,39,14,16,150,,66,66,11,25,9,9,0.4,0.4
2024-09-29T1300,3303A,113.4922,22.8168,广州市,南沙黄阁,,46,43,35,16,16,147,,69,69,16,26,5,5,0.5,0.6
2024-09-29T1300,3304A,113.5342,22.7896,广州市,南沙街,,42,21,32,14,16,132,,72,72,14,20,8,8,0.7,0.7
2024-09-29T1300,3443A,113.2902,23.5544,广州市,花都梯面,,39,22,30,15,19,124,,51,51,9,18,6,6,0.6,0.7
2024-09-29T1300,3445A,113.7858,23.7478,广州市,从化良口,,25,18,19,14,14,79,,46,46,6,8,6,6,0.8,0.8
2024-09-29T1300,3446A,113.8051,23.2614,广州市,增城荔城,,38,23,24,15,14,120,,70,70,6,13,5,6,0.5,0.5
2024-09-29T1300,2506A,109.6047,23.0666,贵港市,江南子站,,26,12,59,7,29,82,,39,39,4,17,7,9,0.5,0.7
2024-09-29T1300,2507A,109.6014,23.0948,贵港市,贵城子站,,28,28,54,3,26,77,,35,35,5,18,8,8,0.5,0.8
2024-09-29T1300,2508A,109.5669,23.1065,贵港市,荷城子站,,24,24,47,3,23,68,,37,37,3,14,11,11,0.4,0.6
2024-09-29T1300,3405A,109.5886,23.1172,贵港市,新世纪学校,,23,22,49,9,27,72,,36,36,6,14,8,8,0.4,0.7
2024-09-29T1300,1439A,106.6899,26.5998,贵阳市,马鞍山,,17,17,20,3,7,40,,49,29,11,10,8,8,0.4,0.4
2024-09-29T1300,1440A,106.6971,26.5694,贵阳市,市环保站,,22,19,25,15,20,42,,56,42,13,12,3,4,0.5,0.5
2024-09-29T1300,1441A,106.6243,26.6266,贵阳市,鉴湖路,,19,19,26,12,14,45,,54,37,7,6,4,5,0.3,0.4
2024-09-29T1300,1442A,106.7487,26.6343,贵阳市,燕子冲,,20,,15,14,17,45,,58,43,9,8,5,5,0.6,0.5
2024-09-29T1300,1443A,106.6555,26.4365,贵阳市,碧云窝,,22,22,29,3,12,47,,47,38,6,7,4,4,0.4,0.4
2024-09-29T1300,1444A,106.694,26.5161,贵阳市,中院村,,22,22,24,9,14,44,,48,35,10,11,6,6,0.5,0.5
2024-09-29T1300,1445A,106.7109,26.6027,贵阳市,红边门,,42,,26,29,25,40,,52,34,17,14,4,4,0.5,0.5
2024-09-29T1300,1446A,106.7164,26.5699,贵阳市,新华路,,28,,15,19,17,60,,59,46,13,10,2,2,0.4,0.4
2024-09-29T1300,1447A,106.674,26.5424,贵阳市,太慈桥,,15,14,22,7,14,46,,48,29,8,8,5,5,0.4,0.5
2024-09-29T1300,1862A,110.4144,25.3167,桂林市,电子科大尧山校区,,39,30,47,27,27,100,,51,51,4,6,4,7,0.7,0.7
2024-09-29T1300,1864A,110.3089,25.2708,桂林市,龙隐路小学,细颗粒物(PM2.5),52,42,46,36,30,105,,54,54,5,12,7,19,0.7,0.8
2024-09-29T1300,1865A,110.2869,25.2178,桂林市,八中,颗粒物(PM10),53,56,43,25,29,94,,50,50,7,11,7,12,0.4,0.5
2024-09-29T1300,3403A,110.1764,25.2381,桂林市,创业大厦,,39,39,42,24,34,78,,42,42,7,13,7,14,0.3,0.5
2024-09-29T1300,3531A,110.296,25.1253,桂林市,旅游学院,,35,27,32,24,25,96,,55,55,3,10,7,11,0.4,0.4
2024-09-29T1300,2674A,100.2561,34.4714,果洛藏族自治州,玛沁县大武镇,,27,24,25,17,16,86,,72,72,1,7,7,7,0.4,0.4
2024-09-29T1300,1129A,126.5422,45.755,哈尔滨市,岭北,,42,33,32,16,17,133,,108,108,10,16,16,16,0.4,0.4
2024-09-29T1300,1130A,126.561,45.8167,哈尔滨市,松北商大,,42,42,37,18,17,107,,86,86,12,32,9,8,0.5,0.5
2024-09-29T1300,1131A,126.979,45.5419,哈尔滨市,阿城会宁,,31,31,36,14,16,97,,65,65,8,19,9,10,0.5,0.5
2024-09-29T1300,1132A,126.599,45.7222,哈尔滨市,南岗学府路,颗粒物(PM10),55,60,56,12,19,108,,81,81,10,32,8,9,0.5,0.6
2024-09-29T1300,1133A,126.689,45.7733,哈尔滨市,太平宏伟公园,颗粒物(PM10),78,105,48,18,17,101,,74,74,14,30,9,9,0.4,0.5
2024-09-29T1300,1134A,126.635,45.7667,哈尔滨市,道外承德广场,,42,42,41,17,14,98,,74,74,17,32,9,8,0.3,0.5
2024-09-29T1300,1135A,126.685,45.7319,哈尔滨市,香坊红旗大街,,48,48,47,16,20,98,,68,68,15,32,11,13,0.7,0.7
2024-09-29T1300,1136A,126.6411,45.7258,哈尔滨市,动力和平路,颗粒物(PM10),51,51,45,26,24,102,,71,71,13,28,15,18,0.5,0.6
2024-09-29T1300,1137A,126.593,45.7478,哈尔滨市,道里建国路,颗粒物(PM10),51,52,45,19,19,106,,88,88,11,31,15,18,0.7,1.2
2024-09-29T1300,1138A,126.615,45.61,哈尔滨市,平房东轻厂,,48,48,37,18,15,107,,73,73,8,18,7,7,0.5,0.5
2024-09-29T1300,1139A,126.595,45.9855,哈尔滨市,呼兰师专,颗粒物(PM10),51,52,50,23,23,92,,75,75,20,37,8,7,0.7,0.7
2024-09-29T1300,1140A,126.6206,45.6842,哈尔滨市,省农科院,颗粒物(PM10),53,55,52,19,22,99,,69,69,13,42,6,6,0.5,0.6
2024-09-29T1300,2688A,93.5128,42.8172,哈密市,地区监测站,,25,,25,16,15,78,,43,43,8,18,6,6,0.3,0.3
2024-09-29T1300,2689A,93.4961,42.8328,哈密市,哈密师范学校,,29,26,23,20,16,80,,40,40,7,17,5,4,0.3,0.4
2024-09-29T1300,2671A,100.9048,36.9639,海北藏族自治州,海晏县西海镇,,18,,22,11,22,57,,56,56,13,9,12,14,0.8,0.5
2024-09-29T1300,3867A,102.0738,36.5056,海东市,平安区公安北苑,,22,22,38,7,21,68,,77,65,8,9,12,13,0.4,0.5
2024-09-29T1300,1410A,110.3232,20.0574,海口市,海南大学,,20,14,16,9,10,64,,40,40,8,8,3,3,0.4,0.4
2024-09-29T1300,1411A,110.283,20.0053,海口市,秀英海南医院,,26,17,20,13,11,83,,43,43,13,11,5,5,0.3,0.3
2024-09-29T1300,1412A,110.338,19.9969,海口市,海南师范大学,,26,11,20,8,12,83,,42,42,4,8,6,6,0.3,0.4
2024-09-29T1300,1413A,110.33,20.0356,海口市,龙华路环保局宿舍,,23,16,19,10,10,72,,43,43,6,8,4,4,0.3,0.3
2024-09-29T1300,3539A,110.5111,19.9736,海口市,桂林洋子站,,22,12,22,8,14,69,,35,35,4,8,6,6,0.2,0.3
2024-09-29T1300,2673A,100.6188,36.2866,海南藏族自治州,共和县恰卜恰镇,,35,31,36,24,15,87,,65,65,5,11,6,5,0.6,0.7
2024-09-29T1300,2676A,97.3731,37.3753,海西蒙古族藏族自治州,德令哈市,,36,36,46,20,13,99,,92,92,7,8,9,9,0.4,0.4
2024-09-29T1300,1048A,114.5302,36.6116,邯郸市,东污水处理厂,颗粒物(PM10),56,62,86,31,50,142,,76,76,10,41,2,3,0.5,0.5
2024-09-29T1300,1049A,114.4918,36.5713,邯郸市,矿院,颗粒物(PM10),53,56,77,36,42,136,,75,75,5,28,4,4,0.5,0.5
2024-09-29T1300,1050A,114.484,36.6133,邯郸市,丛台公园,颗粒物(PM10),51,51,88,30,50,132,,81,81,8,36,5,6,0.5,0.5
2024-09-29T1300,3458A,114.7895,36.5593,邯郸市,香泉濮院小区,颗粒物(PM10),63,76,82,28,28,151,,89,89,11,30,3,6,0.5,0.5
2024-09-29T1300,3579A,114.50634,36.77178,邯郸市,永年区实验高中,颗粒物(PM10),51,52,124,21,72,150,,72,72,9,40,3,5,0.4,0.5
2024-09-29T1300,3580A,114.20016,36.44293,邯郸市,峰峰矿区临水派出所,颗粒物(PM10),62,73,96,31,33,142,,85,85,5,16,3,4,0.7,0.6
2024-09-29T1300,2634A,106.9893,33.1842,汉中市,汉川机床厂子校,,28,,52,9,37,89,,124,98,3,7,4,4,0.4,0.6
2024-09-29T1300,2635A,107.0154,33.0706,汉中市,市监测站,,26,,76,18,46,72,,46,46,9,17,7,8,0.6,0.9
2024-09-29T1300,2636A,107.0089,33.1138,汉中市,鑫源开发区,,,,77,9,55,78,,46,46,6,19,9,10,0.4,0.8
2024-09-29T1300,2637A,107.007,33.0323,汉中市,南郑大河坎水厂,,24,,68,10,51,75,,43,43,5,18,8,9,0.6,0.9
2024-09-29T1300,1223A,120.2072,30.2111,杭州市,滨江,,36,27,40,12,19,114,,58,58,11,20,5,5,0.6,0.7
2024-09-29T1300,1224A,120.0633,30.2747,杭州市,西溪,,38,38,35,11,21,112,,41,41,12,24,6,6,0.6,0.7
2024-09-29T1300,1226A,120.3461,30.3153,杭州市,下沙,,36,35,39,13,18,115,,66,66,14,35,6,6,0.5,0.7
2024-09-29T1300,1227A,120.1269,30.2456,杭州市,卧龙桥,,40,32,32,14,21,126,,72,72,12,18,6,6,0.5,0.6
2024-09-29T1300,1228A,120.1903,30.2692,杭州市,浙江农大,,38,28,33,10,20,119,,64,64,16,24,8,8,0.3,0.4
2024-09-29T1300,1230A,120.1197,30.3119,杭州市,和睦小学,,41,24,30,15,18,131,,74,74,11,18,8,7,0.5,0.6
2024-09-29T1300,1231A,120.3019,30.4183,杭州市,临平镇,,36,15,36,10,19,114,,66,66,5,18,5,5,0.5,0.7
2024-09-29T1300,1232A,120.2697,30.1819,杭州市,城厢镇,,40,32,40,14,24,125,,71,71,17,24,7,7,0.5,0.5
2024-09-29T1300,1233A,120.0883,30.1808,杭州市,云栖,,36,30,31,17,16,115,,57,57,12,15,8,7,0.6,0.7
2024-09-29T1300,3557A,119.9464,30.0494,杭州市,镇二中,,43,26,40,24,29,137,,59,59,15,28,8,8,0.6,0.7
2024-09-29T1300,3558A,119.7183,30.2367,杭州市,市府大楼,,44,39,37,20,24,138,,66,66,14,25,6,6,0.5,0.6
2024-09-29T1300,3656A,120.1556,30.2864,杭州市,消防大队,,40,29,34,12,20,128,,74,74,5,13,8,8,0.6,0.7
2024-09-29T1300,1270A,117.1959,31.7848,合肥市,明珠广场,,40,31,47,17,24,128,,92,92,10,20,7,8,0.7,0.9
2024-09-29T1300,1271A,117.3072,31.8764,合肥市,三里街,,37,34,46,12,23,116,,77,77,10,19,8,9,0.4,0.6
2024-09-29T1300,1272A,117.2588,31.8707,合肥市,琥珀山庄,,43,39,45,17,26,137,,94,94,13,19,8,9,0.5,0.7
2024-09-29T1300,1273A,117.1604,31.9052,合肥市,董铺水库,,39,39,47,19,23,123,,87,87,6,12,3,4,0.3,0.5
2024-09-29T1300,1274A,117.25,31.8571,合肥市,长江中路,,,46,57,20,28,131,,87,87,,20,9,9,0.6,0.8
2024-09-29T1300,1275A,117.266,31.9436,合肥市,庐阳区,,42,36,49,12,24,132,,88,88,10,21,6,6,0.5,0.6
2024-09-29T1300,1276A,117.336,31.8586,合肥市,瑶海区,,39,39,49,20,23,123,,84,84,12,21,6,5,0.5,0.7
2024-09-29T1300,1277A,117.3027,31.7964,合肥市,包河区,,40,39,51,12,26,128,,74,74,8,35,4,5,0.5,0.8
2024-09-29T1300,1278A,117.2776,31.7385,合肥市,滨湖新区,,40,36,46,24,27,125,,91,91,7,14,6,7,0.5,0.7
2024-09-29T1300,1279A,117.1318,31.8403,合肥市,高新区,,38,36,45,16,25,120,,88,88,7,16,9,10,0.6,0.9
2024-09-29T1300,3464A,117.3803,31.9147,合肥市,高教基地,,39,39,45,10,26,124,,83,83,8,14,4,5,0.4,0.6
2024-09-29T1300,3614A,79.924,37.0877,和田地区,地区环保局,颗粒物(PM10),500,1108,1000,247,194,44,,64,54,15,6,6,6,0.7,0.6
2024-09-29T1300,3615A,79.9131,37.113,和田地区,市环保局,颗粒物(PM10),500,1010,905,249,191,57,,71,61,8,7,6,6,0.4,0.4
2024-09-29T1300,2516A,108.2011,24.715,河池市,东仁乐园,,29,29,54,14,36,50,,66,50,7,10,8,10,0.6,0.7
2024-09-29T1300,2517A,108.0497,24.6947,河池市,市环保站,,35,35,43,20,32,60,,43,43,8,10,14,11,0.7,0.8
2024-09-29T1300,2518A,108.0983,24.6989,河池市,市疾控中心,,31,31,44,16,32,55,,61,51,10,13,13,11,0.6,0.7
2024-09-29T1300,1696A,114.6778,23.7569,河源市,源西,,30,22,23,10,15,93,,38,38,6,16,4,4,0.7,0.8
2024-09-29T1300,1697A,114.6944,23.7586,河源市,东埔,,41,41,21,8,14,37,,12,12,44,47,2,2,0.6,0.7
2024-09-29T1300,1698A,114.6892,23.7233,河源市,老城,,29,19,23,9,12,91,,42,42,4,13,2,2,0.6,0.7
2024-09-29T1300,1718A,115.4208,35.2464,菏泽市,气象局,颗粒物(PM10),53,55,50,22,20,148,,96,96,7,13,4,4,0.3,0.3
2024-09-29T1300,3374A,115.5564,35.0891,菏泽市,定陶老年大学,,44,44,46,14,16,130,,84,84,6,12,6,7,0.3,0.4
2024-09-29T1300,3647A,115.4702,35.2706,菏泽市,菏泽医专,颗粒物(PM10),51,52,52,22,19,140,,85,85,8,16,4,8,0.5,0.6
2024-09-29T1300,2514A,111.5264,24.4172,贺州市,环保小区,,46,40,35,32,23,116,,57,57,8,16,7,7,0.7,0.8
2024-09-29T1300,2515A,111.5608,24.4078,贺州市,政协大楼,,39,39,39,13,24,114,,54,54,9,17,5,8,0.6,0.6
2024-09-29T1300,3534A,111.4744,24.4553,贺州市,西湾,,40,39,38,28,26,124,,51,51,9,20,6,6,0.6,0.7
2024-09-29T1300,2385A,114.17,35.9019,鹤壁市,市监测站,颗粒物(PM10),62,73,73,42,40,140,,81,81,17,30,4,6,0.9,1
2024-09-29T1300,2386A,114.2956,35.7511,鹤壁市,市交警支队,颗粒物(PM10),60,70,65,30,30,119,,85,85,17,37,3,3,0.6,0.6
2024-09-29T1300,2387A,114.2878,35.7306,鹤壁市,迎宾馆,颗粒物(PM10),63,76,79,30,35,119,,79,79,14,32,3,4,0.6,0.6
2024-09-29T1300,3474A,114.2617,35.6822,鹤壁市,大新区,颗粒物(PM10),56,61,64,36,27,104,,72,72,18,28,7,7,0.7,0.7
2024-09-29T1300,3596A,114.1572,35.9603,鹤壁市,南山宾馆,颗粒物(PM10),51,52,66,35,35,137,,79,79,7,14,3,4,0.3,0.4
2024-09-29T1300,2244A,130.2537,47.3416,鹤岗市,哈啤分公司,,35,35,31,10,16,71,,39,39,14,8,31,14,0.8,0.8
2024-09-29T1300,2245A,130.2684,47.3086,鹤岗市,斯达机电,,29,28,32,9,20,92,,54,54,8,15,14,14,0.3,0.3
2024-09-29T1300,2246A,130.3114,47.3388,鹤岗市,东山纸板厂,,48,48,55,15,23,78,,34,34,10,20,17,17,0.3,0.9
2024-09-29T1300,2247A,130.1097,47.3382,鹤岗市,五号水库,,30,9,16,3,8,94,,46,46,4,7,8,7,0.5,0.5
2024-09-29T1300,2263A,127.4833,50.2524,黑河市,交通局,,16,,28,11,17,41,,42,42,7,11,7,7,0.3,0.4
2024-09-29T1300,2264A,127.5144,50.2341,黑河市,环保局,,18,18,28,10,16,42,,41,37,5,10,4,6,0.3,0.4
2024-09-29T1300,2265A,127.5291,50.2472,黑河市,大黑河岛,,,,,14,17,43,,41,41,10,10,1,2,0.1,0.1
2024-09-29T1300,1074A,115.6838,37.7541,衡水市,电机北厂,,42,42,73,28,34,134,,85,85,5,33,6,8,0.3,0.3
2024-09-29T1300,1075A,115.6303,37.7316,衡水市,市监测站,颗粒物(PM10),52,54,74,20,32,136,,83,83,9,39,8,8,0.2,0.3
2024-09-29T1300,3188A,115.6683,37.7217,衡水市,市城管局,颗粒物(PM10),53,55,75,27,33,140,,86,86,6,36,6,7,0.4,0.4
2024-09-29T1300,3459A,115.5989,37.5491,衡水市,地表水厂,颗粒物(PM10),53,56,90,23,31,142,,73,73,8,50,9,10,0.4,0.3
2024-09-29T1300,2456A,112.5003,26.9167,衡阳市,原169医院,,,41,57,28,38,116,,67,67,10,13,,8,0.8,1
2024-09-29T1300,2457A,112.6194,26.9258,衡阳市,衡阳化工总厂,,35,35,54,19,41,111,,80,80,5,11,9,11,0.6,0.7
2024-09-29T1300,2458A,112.6211,26.8956,衡阳市,珠晖区环保局,,,31,55,,,110,,73,73,3,16,6,9,0.5,0.7
2024-09-29T1300,2459A,112.6197,26.8733,衡阳市,市委党校,,45,45,56,18,35,103,,77,77,4,13,7,11,0.6,0.8
2024-09-29T1300,2460A,112.6006,26.8919,衡阳市,市监测站,,36,32,51,13,38,113,,83,83,4,10,7,9,0.6,0.8
2024-09-29T1300,2461A,112.5664,26.9056,衡阳市,真空机电公司,,37,36,51,23,34,118,,84,84,5,10,8,10,1.0,0.9
2024-09-29T1300,3399A,112.6703,26.882,衡阳市,师范学院,,43,43,57,23,37,101,,70,70,7,14,8,12,0.6,0.8
2024-09-29T1300,2608A,103.3772,23.3993,红河哈尼族彝族自治州,污水处理厂,,12,10,16,3,12,36,,32,31,4,5,5,5,0.4,0.4
2024-09-29T1300,2609A,103.3861,23.35,红河哈尼族彝族自治州,监测站,,18,18,21,11,19,40,,35,33,2,5,8,9,0.4,0.4
2024-09-29T1300,3038A,103.3758,23.368,红河哈尼族彝族自治州,州图书馆,,14,14,16,3,8,38,,36,34,3,4,5,5,0.2,0.3
2024-09-29T1300,1090A,111.6507,40.7517,呼和浩特市,呼市一监,,22,6,56,3,31,70,,77,63,4,28,6,7,0.4,0.8
2024-09-29T1300,1091A,111.6572,40.8033,呼和浩特市,小召,,22,6,44,3,28,68,,76,61,11,27,7,7,0.4,0.7
2024-09-29T1300,1094A,111.7516,40.8369,呼和浩特市,如意水处理厂,,22,6,55,3,26,68,,79,60,5,28,6,7,0.4,0.7
2024-09-29T1300,1095A,111.7276,40.8062,呼和浩特市,二十九中,,23,6,49,3,34,72,,85,66,7,27,4,6,0.5,0.8
2024-09-29T1300,1096A,111.5512,40.7866,呼和浩特市,工大金川校区,,,,55,3,29,65,,64,57,10,40,,3,0.4,0.7
2024-09-29T1300,1097A,111.717,40.7612,呼和浩特市,化肥厂生活区,,22,6,63,3,28,68,,76,59,8,27,8,9,0.4,0.7
2024-09-29T1300,3698A,111.5968,40.8178,呼和浩特市,红旗小学,,22,6,53,3,28,69,,62,58,9,43,3,4,0.4,0.7
2024-09-29T1300,3699A,111.6518,40.8389,呼和浩特市,海东办,,23,,48,3,29,71,,77,64,7,29,5,6,0.4,0.6
2024-09-29T1300,2192A,119.7594,49.2261,呼伦贝尔市,区环保局,,20,,21,14,18,50,,41,41,9,14,5,4,0.3,0.5
2024-09-29T1300,3061A,119.7512,49.1577,呼伦贝尔市,国华电力东,,18,13,21,8,18,55,,45,45,4,7,4,5,0.4,0.5
2024-09-29T1300,1250A,120.0751,30.8669,湖州市,城西水厂,,39,13,39,6,24,123,,76,76,8,18,4,5,0.1,0.3
2024-09-29T1300,2873A,120.0875,30.8955,湖州市,仁皇山新区,,40,13,39,7,23,126,,74,74,7,23,7,7,0.4,0.6
2024-09-29T1300,2907A,120.1844,30.8596,湖州市,吴兴区站,,37,17,38,6,23,117,,70,70,6,18,6,6,0.4,0.5
2024-09-29T1300,3562A,120.4148,30.8538,湖州市,南浔区站,,35,17,40,6,25,110,,61,61,8,23,6,7,0.3,0.5
2024-09-29T1300,1607A,120.9092,40.7136,葫芦岛市,龙港区,,,42,38,29,26,101,,80,79,,12,10,11,,0.7
2024-09-29T1300,1608A,120.8392,40.7514,葫芦岛市,化工街,,,27,41,,22,102,,76,76,11,21,12,14,0.6,0.7
2024-09-29T1300,1609A,120.8341,40.7073,葫芦岛市,新区,,43,38,36,30,32,103,,78,78,14,22,8,9,0.6,0.7
2024-09-29T1300,1610A,120.8695,40.7677,葫芦岛市,东城区,,32,29,36,22,32,97,,71,71,8,30,8,9,0.3,0.5
2024-09-29T1300,2482A,109.5981,27.5721,怀化市,林科所,,48,48,40,33,25,127,,85,85,13,13,2,6,0.7,0.7
2024-09-29T1300,2483A,109.9453,27.5444,怀化市,河西地税局,细颗粒物(PM2.5),59,53,44,42,33,123,,77,77,7,12,10,8,0.6,0.6
2024-09-29T1300,2484A,109.9781,27.5342,怀化市,市四医院,细颗粒物(PM2.5),73,77,51,53,35,133,,75,75,5,6,11,8,0.7,0.7
2024-09-29T1300,2485A,109.9972,27.5578,怀化市,监测楼,细颗粒物(PM2.5),63,68,50,45,32,129,,81,81,9,8,13,9,0.7,0.6
2024-09-29T1300,2486A,110.0394,27.583,怀化市,市委党校,颗粒物(PM10),54,57,54,35,31,117,,81,81,6,8,19,35,0.7,0.6
2024-09-29T1300,1210A,119.036,33.5981,淮安市,钵池山,,34,24,25,12,17,108,,87,87,4,12,4,4,0.5,0.6
2024-09-29T1300,1211A,119.007,33.575,淮安市,北京南路,,34,34,31,12,17,105,,91,91,6,12,6,6,0.4,0.4
2024-09-29T1300,1212A,118.989,33.6067,淮安市,市监测站,,35,22,26,9,15,111,,94,94,14,21,6,6,0.4,0.4
2024-09-29T1300,1213A,119.135,33.5039,淮安市,楚州区监测站,,37,37,36,10,17,102,,81,81,6,19,6,6,0.5,0.5
2024-09-29T1300,1214A,119.0186,33.6297,淮安市,淮阴区监测站,,34,27,31,16,16,107,,84,84,16,24,2,2,0.3,0.4
2024-09-29T1300,3426A,118.8755,33.2894,淮安市,新华书店,,35,24,29,9,16,109,,89,89,8,16,6,8,0.4,0.5
2024-09-29T1300,2282A,116.8004,33.975,淮北市,监测站,,45,45,39,18,21,110,,96,96,4,8,6,6,0.4,0.4
2024-09-29T1300,2283A,116.8091,33.9007,淮北市,烈山区政府,,41,41,38,18,19,116,,94,94,4,9,5,6,0.4,0.4
2024-09-29T1300,3330A,116.8873,33.9836,淮北市,杜集区检察院,,42,42,41,14,20,120,,104,104,1,4,7,8,0.6,0.5
2024-09-29T1300,4017A,116.7923,33.9535,淮北市,市博物馆,,36,30,32,16,20,114,,95,95,6,7,5,5,0.6,0.6
2024-09-29T1300,2277A,116.8305,32.7727,淮南市,潘集区政府,,44,44,44,26,24,120,,82,82,12,14,6,7,0.5,0.5
2024-09-29T1300,2278A,117.0067,32.6524,淮南市,师范学院,颗粒物(PM10),51,52,49,35,25,120,,88,88,3,9,7,8,0.5,0.6
2024-09-29T1300,2279A,116.8569,32.5951,淮南市,谢家集区政府,,41,41,40,23,27,115,,82,82,10,16,6,9,0.2,0.3
2024-09-29T1300,2280A,116.8281,32.633,淮南市,八公山区政府,,46,46,49,22,26,117,,86,86,6,11,11,11,0.3,0.4
2024-09-29T1300,2281A,116.6325,32.6201,淮南市,焦岗湖风景区管理处,,38,31,34,15,12,121,,79,79,2,6,6,5,0.1,0.1
2024-09-29T1300,2894A,117.0566,32.6531,淮南市,经济技术开发区消防队,,37,29,36,17,15,117,,86,86,5,11,4,5,0.4,0.4
2024-09-29T1300,3329A,117.0108,32.5893,淮南市,山南新区,,46,46,48,15,22,122,,88,88,11,15,3,4,0.6,0.6
2024-09-29T1300,2446A,114.9028,30.4742,黄冈市,职工中心,,44,40,46,16,25,139,,111,111,9,16,8,11,0.4,0.5
2024-09-29T1300,2929A,114.8858,30.4519,黄冈市,红卫路,,45,41,41,18,23,144,,110,110,11,18,9,10,0.6,0.6
2024-09-29T1300,3398A,114.9136,30.4445,黄冈市,市林业局,,50,44,54,22,26,157,,123,123,8,18,9,10,0.5,0.5
2024-09-29T1300,2672A,102.0199,35.5102,黄南藏族自治州,同仁县隆务镇,,35,35,45,6,18,63,,65,64,11,10,9,8,0.4,0.5
2024-09-29T1300,2295A,118.2903,29.6963,黄山市,延安路89号,,30,27,37,3,9,94,,70,70,1,6,6,6,0.2,0.3
2024-09-29T1300,2296A,118.327,29.7178,黄山市,黄山东路89号,,28,17,30,9,15,89,,84,84,2,7,4,5,0.3,0.3
2024-09-29T1300,2297A,118.1371,30.2756,黄山市,黄山区政府5号楼,,35,22,30,12,19,110,,76,76,5,7,7,7,0.3,0.3
2024-09-29T1300,2423A,115.0601,30.2313,黄石市,沈家营,,47,36,36,11,13,150,,124,124,8,15,21,22,0.5,0.6
2024-09-29T1300,2424A,115.0817,30.2006,黄石市,陈家湾,臭氧1小时,52,32,35,14,14,161,,134,134,4,7,10,10,0.6,0.8
2024-09-29T1300,2426A,114.8988,30.2019,黄石市,铁山,,50,30,29,20,18,160,,137,137,6,9,11,10,0.3,0.4
2024-09-29T1300,2427A,115.0307,30.2092,黄石市,团城山,,48,31,32,9,12,152,,131,131,8,9,7,9,0.5,0.5
2024-09-29T1300,3149A,115.0235,30.1578,黄石市,笔架山北路,,47,34,31,12,13,149,,118,118,7,11,9,9,0.7,0.7
2024-09-29T1300,1392A,114.4183,23.0528,惠州市,河南岸金山湖子站,,37,28,23,19,13,117,,55,55,5,9,4,5,0.5,0.5
2024-09-29T1300,1393A,114.4053,23.0822,惠州市,下埔横江三路子站,,41,29,24,13,13,131,,72,72,7,9,3,4,0.6,0.7
2024-09-29T1300,1394A,114.4103,23.1142,惠州市,江北云山西路子站,,41,23,25,18,13,130,,63,63,4,9,5,6,0.5,0.6
2024-09-29T1300,1395A,114.4645,22.7833,惠州市,惠阳区承修路船湖子站,,34,13,21,8,12,108,,63,63,11,17,6,6,0.5,0.6
2024-09-29T1300,1396A,114.5317,22.7422,惠州市,大亚湾管委会子站,,32,15,20,10,11,102,,66,66,7,17,7,8,0.4,0.4
2024-09-29T1300,3314A,114.4338,22.8134,惠州市,惠阳秋长,,35,17,17,11,10,112,,70,70,8,15,5,5,0.4,0.6
2024-09-29T1300,3452A,114.6517,22.775,惠州市,大亚湾霞涌,,43,30,14,14,7,135,,71,71,7,8,4,4,0.6,0.7
2024-09-29T1300,2240A,130.9762,45.3001,鸡西市,环保局,,31,31,39,10,14,87,,43,43,2,14,5,6,0.2,0.3
2024-09-29T1300,2243A,130.9429,45.3039,鸡西市,第一中学,,29,27,31,8,10,90,,50,50,2,20,5,5,0.1,0.1
2024-09-29T1300,3707A,131.0207,45.3073,鸡西市,欧美日汽修厂,,47,47,40,12,15,78,,40,40,17,18,8,6,0.4,0.4
2024-09-29T1300,3709A,130.9967,45.3106,鸡西市,市政设施管理处,,43,43,43,10,13,76,,39,39,18,19,10,8,0.2,0.2
2024-09-29T1300,2367A,114.9754,27.0803,吉安市,红声器材厂,,41,41,46,20,27,119,,64,64,9,18,10,10,0.4,0.5
2024-09-29T1300,2368A,114.9658,27.0999,吉安市,市森林工业局,,35,35,40,19,26,110,,70,70,11,20,15,15,0.5,0.6
2024-09-29T1300,2369A,114.99,27.1312,吉安市,市环境监测站,,36,30,38,17,23,115,,86,86,8,14,18,26,0.4,0.6
2024-09-29T1300,2370A,115.0093,27.0968,吉安市,青原区法院,,38,38,43,13,26,114,,65,65,10,21,19,15,0.6,0.7
2024-09-29T1300,1772A,126.54,43.8622,吉林市,哈达湾,,29,21,36,10,15,91,,64,64,9,21,6,6,0.5,0.6
2024-09-29T1300,1773A,126.5844,43.8358,吉林市,东局子,,30,22,27,12,13,93,,70,70,6,19,4,4,0.5,0.6
2024-09-29T1300,1774A,126.5052,43.8245,吉林市,电力学院,,36,23,50,16,28,113,,56,56,5,26,3,3,0.5,0.7
2024-09-29T1300,1775A,126.6133,43.8972,吉林市,江北,,30,28,40,10,18,96,,61,61,7,22,6,6,0.6,0.7
2024-09-29T1300,1776A,126.555,43.8306,吉林市,江南公园,,28,27,29,19,18,86,,62,62,10,20,7,6,0.6,0.6
2024-09-29T1300,1778A,126.7061,43.7133,吉林市,丰满,细颗粒物(PM2.5),83,,14,61,19,87,,64,64,3,4,5,5,0.8,0.6
2024-09-29T1300,2868A,126.4739,43.953,吉林市,九站,,39,39,50,14,17,113,,70,70,7,25,6,7,0.6,0.6
2024-09-29T1300,1299A,116.9862,36.6114,济南市,科干所,,43,27,40,12,17,136,,120,120,8,17,7,8,0.6,0.7
2024-09-29T1300,1300A,116.9376,36.665,济南市,农科所,颗粒物(PM10),56,61,53,12,20,142,,83,79,30,36,6,7,0.6,0.7
2024-09-29T1300,1301A,117.1265,36.6734,济南市,开发区,颗粒物(PM10),51,51,48,22,23,128,,104,90,29,30,6,7,0.6,0.7
2024-09-29T1300,1303A,117.0624,36.6868,济南市,省种子仓库,颗粒物(PM10),62,73,66,19,23,121,,49,49,38,47,5,5,0.5,0.8
2024-09-29T1300,1304A,116.9489,36.6447,济南市,机床二厂,,50,46,50,10,16,157,,104,104,18,28,5,6,0.5,0.7
2024-09-29T1300,1305A,117.0495,36.663,济南市,市监测站,颗粒物(PM10),53,56,53,15,22,138,,60,60,24,46,6,6,0.7,0.8
2024-09-29T1300,1306A,116.7675,36.5484,济南市,长清党校,,49,32,39,22,16,154,,134,134,12,18,7,7,0.6,0.7
2024-09-29T1300,1616A,117.6795,36.229,济南市,技术学院,,44,29,40,12,20,138,,95,95,4,17,8,9,0.7,0.8
2024-09-29T1300,1961A,117.532,36.6868,济南市,东山小学,,48,39,39,12,15,152,,113,113,14,23,5,4,0.5,0.5
2024-09-29T1300,3059A,117.7161,36.2049,济南市,泰兴公司,,44,44,47,9,20,140,,90,90,7,28,8,10,0.5,0.5
2024-09-29T1300,3064A,117.6867,36.2171,济南市,莱芜战役纪念馆,,44,39,42,12,17,138,,93,93,7,19,8,8,0.6,0.7
2024-09-29T1300,3494A,117.1673,36.9782,济南市,济阳区政府,颗粒物(PM10),53,56,58,15,23,62,,95,86,17,27,4,7,0.4,0.7
2024-09-29T1300,3495A,117.1171,36.63,济南市,锦屏中学,,43,24,30,7,14,136,,111,111,12,18,5,6,0.4,0.6
2024-09-29T1300,3682A,116.9814,36.6819,济南市,济南四建,颗粒物(PM10),57,63,51,17,22,132,,79,63,36,37,5,5,0.7,0.8
2024-09-29T1300,1653A,116.6251,35.4302,济宁市,火炬城,,46,42,43,17,19,146,,112,112,7,9,10,11,0.6,0.6
2024-09-29T1300,1655A,116.5491,35.4042,济宁市,电化厂,,46,46,57,9,15,146,,106,106,11,17,12,12,0.3,0.3
2024-09-29T1300,3500A,116.5814,35.3707,济宁市,北湖一中,,48,47,40,17,17,151,,110,110,8,15,5,6,0.4,0.4
2024-09-29T1300,3501A,116.8249,35.5593,济宁市,服务中心,,43,40,44,10,14,137,,100,100,7,15,6,9,0.7,0.7
2024-09-29T1300,3678A,116.5907,35.4054,济宁市,市第七中学,颗粒物(PM10),55,60,46,14,17,149,,108,108,9,17,7,9,0.6,0.6
2024-09-29T1300,2255A,130.2751,46.8028,佳木斯市,佳纺,,31,21,45,9,20,98,,48,48,2,26,6,4,0.5,0.6
2024-09-29T1300,2256A,130.3995,46.8307,佳木斯市,发电厂,,30,24,41,7,16,95,,44,44,5,27,4,6,0.6,0.6
2024-09-29T1300,2257A,130.3258,46.7975,佳木斯市,环保局,,29,26,30,16,14,91,,47,47,5,25,8,8,0.5,0.6
2024-09-29T1300,2258A,130.3648,46.8032,佳木斯市,十一中,,29,25,29,10,15,92,,48,48,10,32,8,7,0.5,0.5
2024-09-29T1300,2259A,130.3794,46.7588,佳木斯市,四丰,,30,14,12,11,7,93,,69,69,6,9,1,1,0.2,0.2
2024-09-29T1300,1252A,120.7436,30.778,嘉兴市,清河小学,,34,14,36,8,17,108,,61,61,9,25,4,4,0.4,0.6
2024-09-29T1300,1253A,120.726,30.7478,嘉兴市,嘉兴学院,,33,21,35,3,19,103,,63,63,5,19,3,3,0.3,0.4
2024-09-29T1300,2872A,120.7846,30.7525,嘉兴市,南湖区残联,,36,23,37,6,20,115,,69,69,3,20,5,5,0.3,0.4
2024-09-29T1300,3407A,120.6916,30.7739,嘉兴市,秀洲住建,,35,14,34,10,20,110,,60,60,6,22,6,5,0.3,0.5
2024-09-29T1300,1945A,98.2908,39.7711,嘉峪关市,气象局,,27,27,38,9,13,77,,79,77,11,13,11,16,0.2,0.3
2024-09-29T1300,2884A,98.2672,39.7978,嘉峪关市,酒钢宾馆,,36,36,45,17,13,74,,80,80,21,13,43,20,0.5,0.4
2024-09-29T1300,3248A,98.2643,39.7724,嘉峪关市,雄关区,,29,29,46,17,23,71,,74,72,14,13,9,10,0.5,0.3
2024-09-29T1300,1383A,113.1064,22.6058,江门市,北街,,39,39,34,15,23,123,,77,77,6,14,5,5,0.7,0.8
2024-09-29T1300,1384A,113.0731,22.5835,江门市,西区,,40,18,33,14,19,126,,85,85,13,17,6,7,0.5,0.5
2024-09-29T1300,1385A,113.0219,22.5311,江门市,圭峰西,,40,40,31,13,20,119,,79,79,7,11,3,3,0.7,0.8
2024-09-29T1300,1386A,113.0828,22.5947,江门市,东湖,,38,26,32,15,18,119,,84,84,9,13,5,5,0.4,0.5
2024-09-29T1300,3311A,113.1075,22.5647,江门市,江海富民,,36,36,49,19,24,114,,85,85,5,13,6,7,0.5,0.6
2024-09-29T1300,3449A,113.05,22.4667,江门市,新会银湖,,,,33,10,22,114,,62,62,3,14,6,6,0.8,0.9
2024-09-29T1300,1828A,113.227,35.2125,焦作市,市环保局,细颗粒物(PM2.5),67,68,60,48,33,95,,87,80,15,16,4,5,0.5,0.4
2024-09-29T1300,1830A,113.1992,35.2590,焦作市,影视城,细颗粒物(PM2.5),68,68,55,49,38,105,,117,99,12,9,7,8,0.7,0.6
2024-09-29T1300,3169A,113.2725,35.2067,焦作市,太极体育中心,颗粒物(PM10),57,64,75,36,31,96,,88,82,14,14,3,7,0.5,0.5
2024-09-29T1300,3335A,113.3137,35.2641,焦作市,马村街道办,细颗粒物(PM2.5),80,,56,59,39,108,,90,83,12,16,2,5,0.4,0.4
2024-09-29T1300,3336A,113.2465,35.2373,焦作市,焦作技师学院,细颗粒物(PM2.5),64,54,72,46,34,102,,93,84,13,15,1,3,0.5,0.5
2024-09-29T1300,3477A,113.1656,35.2539,焦作市,中站许衡医院,,40,40,50,27,30,99,,103,90,17,16,3,2,0.5,0.5
2024-09-29T1300,3981A,113.2449,35.1803,焦作市,原李万街道办,细颗粒物(PM2.5),60,52,62,43,33,100,,91,85,11,12,7,8,0.4,0.4
2024-09-29T1300,1708A,116.3701,23.5345,揭阳市,新兴,,25,16,32,13,18,79,,51,51,4,17,4,5,0.5,0.8
2024-09-29T1300,1709A,116.3264,23.5443,揭阳市,西马,,34,30,36,15,16,108,,55,55,5,16,5,6,0.5,0.7
2024-09-29T1300,1710A,116.3611,23.5626,揭阳市,东兴,,30,20,35,13,17,95,,52,52,3,18,5,5,0.6,0.8
2024-09-29T1300,1711A,116.4151,23.5294,揭阳市,渔湖,,26,14,36,3,14,82,,52,52,3,24,5,6,0.4,0.7
2024-09-29T1300,3320A,116.403,23.5699,揭阳市,曲溪,,23,8,34,6,19,72,,48,48,4,24,2,2,0.3,0.6
2024-09-29T1300,3170A,102.1864,38.5253,金昌市,市委党校,,44,44,45,9,7,86,,96,88,5,5,5,6,0.6,0.6
2024-09-29T1300,4022A,102.1647,38.5371,金昌市,金川区人防中心,,44,44,74,12,8,80,,90,83,4,3,7,7,0.4,0.5
2024-09-29T1300,1262A,119.647,29.077,金华市,十五中,,39,37,48,22,22,124,,78,78,13,25,2,2,0.4,0.5
2024-09-29T1300,1263A,119.686,29.1029,金华市,监测站,,40,32,49,17,29,127,,78,78,12,27,3,3,0.5,0.5
2024-09-29T1300,3659A,119.656,29.1131,金华市,气象局,,40,29,47,16,24,126,,72,72,12,28,5,6,0.8,1
2024-09-29T1300,1767A,121.1115,41.0879,锦州市,南山,,36,36,43,21,36,96,,67,67,10,28,7,12,0.5,0.8
2024-09-29T1300,1768A,121.0533,40.8434,锦州市,开发区,颗粒物(PM10),56,61,68,24,32,89,,64,64,22,49,6,9,0.9,1.1
2024-09-29T1300,1769A,121.1836,41.1119,锦州市,百股街道,,31,21,31,9,18,98,,77,77,3,16,7,10,0.6,0.8
2024-09-29T1300,1770A,121.1178,41.1222,锦州市,天安街道,,46,37,46,32,43,99,,70,70,9,24,9,14,0.6,0.8
2024-09-29T1300,1771A,121.1303,41.1386,锦州市,北湖公园,,35,34,41,24,42,100,,74,74,11,23,7,13,0.6,0.8
2024-09-29T1300,2160A,112.85,35.5051,晋城市,自来水公司,,43,40,53,19,27,135,,144,144,13,15,6,6,0.7,0.7
2024-09-29T1300,2161A,112.8318,35.4936,晋城市,白云商贸,,41,36,55,17,26,131,,141,141,15,16,6,7,0.7,0.7
2024-09-29T1300,2162A,112.8508,35.4887,晋城市,市环保局,,42,28,49,24,29,132,,140,140,14,17,6,6,0.6,0.7
2024-09-29T1300,2163A,112.8676,35.4897,晋城市,技术学院,,43,43,55,22,28,128,,138,138,16,20,6,6,0.7,0.7
2024-09-29T1300,3620A,112.8271,35.4828,晋城市,泽州一中,,42,32,50,29,29,121,,139,139,12,14,8,9,0.9,0.9
2024-09-29T1300,2171A,112.7532,37.6945,晋中市,锦纶小区,颗粒物(PM10),51,51,71,29,46,90,,95,95,21,15,8,9,0.6,0.6
2024-09-29T1300,2173A,112.7249,37.7067,晋中市,南都小区,颗粒物(PM10),59,68,70,32,49,80,,102,101,32,16,6,6,0.9,0.9
2024-09-29T1300,2174A,112.6991,37.6982,晋中市,榆次区政府,颗粒物(PM10),56,61,68,34,40,62,,105,101,48,17,7,7,0.6,0.6
2024-09-29T1300,2865A,112.7195,37.6828,晋中市,榆次三中,颗粒物(PM10),52,53,70,27,40,76,,94,94,35,17,8,9,0.7,0.7
2024-09-29T1300,2439A,112.2014,31.0481,荆门市,竹园小学,颗粒物(PM10),57,64,69,35,46,164,,100,100,13,27,16,14,0.6,0.6
2024-09-29T1300,2440A,112.1969,30.9891,荆门市,掇刀,细颗粒物(PM2.5),60,47,70,43,54,166,,106,106,16,22,15,18,0.6,0.7
2024-09-29T1300,2441A,112.2213,31.0386,荆门市,石化一小,臭氧1小时,62,53,78,36,49,169,,106,106,11,27,24,19,0.6,0.7
2024-09-29T1300,3012A,112.1849,31.0362,荆门市,西山林语,臭氧1小时,64,46,59,35,44,171,,109,109,13,20,12,14,0.7,0.8
2024-09-29T1300,3547A,112.1632,31.0138,荆门市,龙泉中学南校,臭氧1小时,63,56,63,27,40,170,,111,111,11,18,13,14,0.7,0.8
2024-09-29T1300,1844A,112.2494,30.3197,荆州市,市图书馆,,47,43,73,31,58,150,,82,82,12,27,10,14,0.7,0.9
2024-09-29T1300,1845A,112.2008,30.3544,荆州市,市委党校,,48,45,76,32,57,152,,80,80,10,26,7,9,0.6,0.8
2024-09-29T1300,3194A,112.2747,30.3122,荆州市,管委会,细颗粒物(PM2.5),62,,78,44,60,146,,81,81,10,30,10,12,0.6,0.9
2024-09-29T1300,3548A,112.1655,30.3364,荆州市,学苑路,臭氧1小时,63,68,81,36,71,170,,83,83,9,26,8,10,0.7,0.9
2024-09-29T1300,2343A,117.2117,29.2933,景德镇市,老干部活动中心,,35,18,23,14,14,110,,95,95,4,8,7,8,0.4,0.4
2024-09-29T1300,2344A,117.1894,29.2789,景德镇市,兽医站,,36,34,29,12,13,115,,101,101,4,6,6,7,0.4,0.5
2024-09-29T1300,2345A,117.1547,29.2617,景德镇市,台达陶瓷,,36,30,24,16,14,114,,101,101,4,8,13,11,0.3,0.4
2024-09-29T1300,2346A,117.2461,29.2956,景德镇市,陶研所,,37,21,26,8,13,118,,94,94,5,10,6,10,0.4,0.4
2024-09-29T1300,1803A,115.9872,29.6815,九江市,十里,,45,37,42,16,21,142,,108,108,33,17,10,12,0.7,0.8
2024-09-29T1300,1804A,115.9584,29.7046,九江市,茅山头,臭氧1小时,63,37,40,19,23,170,,110,110,16,18,14,10,0.9,0.8
2024-09-29T1300,1805A,115.9877,29.7295,九江市,西园,臭氧1小时,62,35,38,17,21,169,,120,120,23,16,14,12,0.7,0.6
2024-09-29T1300,1806A,116.0172,29.6547,九江市,五七二七厂,,42,22,32,19,20,134,,98,98,10,16,9,11,0.7,0.8
2024-09-29T1300,1808A,115.9114,29.6038,九江市,综合工业园,臭氧1小时,87,49,42,27,25,189,,95,95,21,27,20,18,0.8,0.8
2024-09-29T1300,1809A,116.0721,29.7535,九江市,石化总厂,臭氧1小时,58,45,47,23,24,166,,107,107,15,22,14,10,0.8,0.7
2024-09-29T1300,1810A,115.9773,29.5698,九江市,庐山气象台,臭氧1小时,54,25,16,22,13,163,,114,114,5,3,6,11,1.0,0.8
2024-09-29T1300,3190A,116.0254,29.6994,九江市,外国语学校,,48,34,40,19,18,151,,108,108,10,16,11,9,0.6,0.7
2024-09-29T1300,2658A,98.5061,39.7443,酒泉市,仓门街子站,,25,19,41,11,19,77,,78,77,4,5,3,3,0.2,0.3
2024-09-29T1300,2659A,98.4989,39.7256,酒泉市,油田生活基地,,28,,46,19,23,77,,79,78,7,8,1,2,0.3,0.3
2024-09-29T1300,2698A,76.0072,39.4467,喀什地区,巡警大队,颗粒物(PM10),276,403,397,93,61,62,,80,70,11,7,3,3,0.4,0.4
2024-09-29T1300,2699A,75.9755,39.4694,喀什地区,吾办,颗粒物(PM10),285,409,372,130,84,60,,80,71,14,11,3,2,0.4,0.3
2024-09-29T1300,4027A,75.9483,39.4689,喀什地区,老干局,颗粒物(PM10),290,413,394,97,60,59,,78,70,15,7,5,4,0.5,0.4
2024-09-29T1300,1824A,114.3389,34.7781,开封市,肿瘤医院,颗粒物(PM10),58,65,66,30,28,150,,89,89,11,16,4,5,0.4,0.4
2024-09-29T1300,1826A,114.2885,34.7965,开封市,世纪星幼儿园,颗粒物(PM10),53,56,63,26,22,152,,90,90,10,17,4,6,0.7,0.7
2024-09-29T1300,3147A,114.3438,34.8106,开封市,龙亭公园,颗粒物(PM10),59,67,64,28,24,149,,84,84,11,19,4,6,0.5,0.5
2024-09-29T1300,3210A,114.3644,34.7964,开封市,汴京公园,颗粒物(PM10),57,63,66,35,30,146,,84,84,10,18,4,6,0.5,0.6
2024-09-29T1300,3473A,114.2485,34.8306,开封市,技师学院,颗粒物(PM10),56,61,63,24,23,145,,90,90,10,16,7,9,0.8,0.7
2024-09-29T1300,3592A,114.4644,34.7556,开封市,祥符区生态环境局,颗粒物(PM10),55,59,63,38,25,150,,82,82,13,24,7,7,0.5,0.5
2024-09-29T1300,1951A,84.895,45.6094,克拉玛依市,长征新村,,22,,13,15,6,62,,53,53,4,3,5,5,0.2,0.2
2024-09-29T1300,1952A,84.8988,45.5893,克拉玛依市,南林小区,,20,,12,14,12,62,,58,58,7,3,3,9,0.2,0.1
2024-09-29T1300,1954A,84.905,44.3396,克拉玛依市,独山子区,,25,12,11,3,5,77,,58,58,7,9,8,8,0.2,0.2
2024-09-29T1300,1955A,85.6979,46.098,克拉玛依市,乌尔禾区商贸楼,,22,22,20,3,7,70,,39,39,6,7,4,3,0.3,0.3
2024-09-29T1300,3612A,85.1045,45.6899,克拉玛依市,白碱滩区新站,,21,15,25,3,8,67,,63,63,7,4,6,6,0.2,0.2
2024-09-29T1300,2697A,76.1454,39.7142,克孜勒苏柯尔克孜自治州,市人民政府,颗粒物(PM10),196,341,250,98,54,83,,88,83,4,3,2,2,0.6,0.5
2024-09-29T1300,3665A,76.1658,39.7157,克孜勒苏柯尔克孜自治州,克州文化中心,颗粒物(PM10),191,332,262,99,56,88,,88,84,4,4,4,4,0.5,0.5
2024-09-29T1300,1450A,102.8204,24.8886,昆明市,呈贡新区,,20,16,23,6,9,63,,36,36,5,13,5,7,0.5,0.5
2024-09-29T1300,1452A,102.7252,25.0902,昆明市,龙泉镇,,19,,18,10,9,60,,26,26,9,16,8,7,0.7,0.7
2024-09-29T1300,1453A,102.7266,25.0375,昆明市,东风东路,,19,18,18,9,9,60,,27,27,10,13,6,6,0.4,0.4
2024-09-29T1300,1454A,102.6742,25.0669,昆明市,金鼎山,,20,20,19,11,8,63,,33,33,7,11,7,5,0.5,0.4
2024-09-29T1300,1455A,102.6644,25.0401,昆明市,碧鸡广场,,21,21,24,3,7,60,,26,26,10,17,9,8,0.6,0.6
2024-09-29T1300,3179A,102.7494,25.0119,昆明市,官渡区博物馆,,21,12,19,6,6,67,,36,36,6,10,7,7,0.5,0.6
2024-09-29T1300,3375A,102.8017,24.8336,昆明市,青年创业园,,20,13,14,7,8,64,,36,36,4,11,4,6,0.6,0.6
2024-09-29T1300,3550A,102.7997,24.9786,昆明市,昆明学院,,22,13,15,8,8,68,,39,39,7,9,6,6,0.4,0.5
2024-09-29T1300,3551A,102.5967,24.6736,昆明市,晋宁区生态环境分局,,17,9,18,3,10,53,,35,35,3,8,1,2,0.6,0.7
2024-09-29T1300,3552A,102.6678,24.9856,昆明市,云天化总部,,22,10,16,6,10,69,,28,28,6,14,7,7,0.4,0.4
2024-09-29T1300,1456A,91.1319,29.6514,拉萨市,八廓街,,26,14,12,7,7,82,,47,47,9,14,7,8,0.1,0.1
2024-09-29T1300,1457A,91.1221,29.6747,拉萨市,市环保局,,27,12,14,8,7,86,,44,44,9,16,7,8,0.3,0.4
2024-09-29T1300,1458A,91.0874,29.6475,拉萨市,区监测站,,25,13,11,7,6,80,,37,37,7,18,5,6,0.1,0.1
2024-09-29T1300,1459A,91.1774,29.6541,拉萨市,西藏大学,,25,9,10,6,6,78,,44,44,9,10,7,8,0.3,0.3
2024-09-29T1300,1460A,90.9798,29.6588,拉萨市,区辐射站,,25,12,13,8,7,78,,43,43,11,17,9,9,0.2,0.2
2024-09-29T1300,1461A,91.0834,29.6292,拉萨市,拉萨火车站,,25,11,10,3,5,79,,39,39,6,14,5,5,0.2,0.3
2024-09-29T1300,2520A,109.2203,23.7256,来宾市,来宾技工学校,,22,10,44,9,26,68,,33,33,6,13,8,13,0.6,0.7
2024-09-29T1300,3535A,109.1781,23.7297,来宾市,兴宾区政府,,24,21,54,14,29,74,,35,35,5,14,7,11,0.6,0.7
2024-09-29T1300,4002A,109.2416,23.7461,来宾市,中南小学,,24,21,45,14,29,74,,40,40,3,9,9,10,0.6,0.8
2024-09-29T1300,1476A,103.631,36.1031,兰州市,兰炼宾馆,,29,26,39,20,32,82,,76,76,7,8,7,6,0.4,0.4
2024-09-29T1300,1478A,103.8412,36.0726,兰州市,生物制品所,,33,24,40,23,32,74,,67,66,16,16,13,10,0.3,0.5
2024-09-29T1300,1479A,103.831,36.0464,兰州市,铁路设计院,,27,27,35,14,31,76,,70,70,20,18,10,7,0.4,0.4
2024-09-29T1300,3186A,103.7158,36.1058,兰州市,教育港,,37,37,46,20,34,83,,73,72,7,10,9,7,0.2,0.4
2024-09-29T1300,3241A,103.7439,36.0842,兰州市,百合公园,,26,26,38,14,26,82,,73,72,7,10,9,6,0.2,0.4
2024-09-29T1300,3242A,103.9611,35.998,兰州市,和平,,26,18,33,7,21,82,,78,78,9,10,12,10,0.2,0.4
2024-09-29T1300,3245A,103.6633,36.533,兰州新区,新区管委会,,29,22,43,20,30,82,,82,82,6,6,5,11,0.3,0.4
2024-09-29T1300,3246A,103.6975,36.4789,兰州新区,舟曲中学,,28,14,25,3,15,87,,82,82,6,9,6,15,0.2,0.4
2024-09-29T1300,1067A,116.6708,39.5111,廊坊市,药材公司,颗粒物(PM10),64,78,90,39,52,127,,63,63,15,37,5,5,0.5,0.7
2024-09-29T1300,1068A,116.7214,39.5589,廊坊市,开发区,颗粒物(PM10),66,82,96,37,46,134,,64,64,17,41,5,3,0.5,0.7
2024-09-29T1300,1070A,116.7244,39.5269,廊坊市,北华航天学院,颗粒物(PM10),72,94,97,30,50,133,,69,69,13,37,5,3,0.4,0.6
2024-09-29T1300,2919A,116.7022,39.5453,廊坊市,河北工业大学,颗粒物(PM10),68,86,87,37,48,131,,67,67,15,39,4,3,0.4,0.6
2024-09-29T1300,2535A,103.7723,29.5462,乐山市,花湖湾,细颗粒物(PM2.5),58,55,61,41,45,54,,50,50,22,18,3,3,0.8,0.8
2024-09-29T1300,2536A,103.7627,29.5844,乐山市,牛耳桥,细颗粒物(PM2.5),77,70,70,56,55,56,,47,47,25,23,6,6,0.8,0.8
2024-09-29T1300,2537A,103.7508,29.6006,乐山市,市第三水厂,细颗粒物(PM2.5),73,64,70,53,55,60,,57,57,25,22,6,6,0.8,0.7
2024-09-29T1300,2538A,103.7571,29.5664,乐山市,市监测站,细颗粒物(PM2.5),72,63,72,52,52,58,,56,56,20,18,6,6,1.0,1
2024-09-29T1300,3361A,103.7311,29.5628,乐山市,理工大学,细颗粒物(PM2.5),65,52,65,47,53,59,,55,55,18,18,5,5,0.7,0.7
2024-09-29T1300,2599A,100.2497,26.8802,丽江市,丽江古城,,13,9,12,3,7,40,,32,32,9,8,9,9,0.4,0.5
2024-09-29T1300,2600A,100.2203,26.8906,丽江市,市中心,,12,12,8,3,4,38,,28,28,6,7,6,6,0.6,0.5
2024-09-29T1300,1267A,119.914,28.4514,丽水市,监测站大楼,,41,41,37,23,19,125,,68,68,8,16,4,4,0.6,0.6
2024-09-29T1300,1268A,119.93,28.4586,丽水市,莲都小学,,44,44,34,17,13,123,,68,68,7,13,4,4,0.4,0.4
2024-09-29T1300,1269A,119.879,28.4231,丽水市,余庄前,,43,39,36,19,18,136,,66,66,9,11,3,3,0.3,0.4
2024-09-29T1300,1173A,119.176,34.5885,连云港市,市环境监测站,,40,19,22,9,8,128,,118,118,6,10,6,6,0.3,0.3
2024-09-29T1300,3000A,119.3581,34.6972,连云港市,德源药业,,41,19,24,12,9,129,,108,108,4,13,5,5,0.2,0.2
2024-09-29T1300,3007A,119.178,34.844,连云港市,新城一中,,39,30,24,13,10,122,,110,110,10,20,3,4,0.5,0.4
2024-09-29T1300,3008A,119.3608,34.7519,连云港市,胡沟管理处,,32,19,26,7,10,101,,90,90,11,21,9,9,0.5,0.5
2024-09-29T1300,3009A,119.1478,34.5911,连云港市,矿山设计院,,39,24,25,14,11,124,,112,112,5,8,5,5,0.5,0.6
2024-09-29T1300,3434A,119.2413,34.6539,连云港市,工贸学校,,44,28,20,16,11,139,,122,122,7,8,7,7,0.8,0.8
2024-09-29T1300,3664A,119.4172,34.7341,连云港市,连云街道,,36,21,20,12,11,114,,120,120,6,7,4,4,0.3,0.3
2024-09-29T1300,2571A,102.3431,27.8099,凉山彝族自治州,青龙寺,,24,11,16,6,6,75,,42,42,2,5,6,5,0.5,0.5
2024-09-29T1300,2572A,102.2721,27.8415,凉山彝族自治州,邛海宾馆,,26,25,26,15,14,81,,35,35,4,18,10,10,0.5,0.6
2024-09-29T1300,2573A,102.2625,27.898,凉山彝族自治州,西昌市政府,,27,27,22,16,15,84,,39,39,5,10,12,10,0.6,0.6
2024-09-29T1300,2574A,102.2685,27.8851,凉山彝族自治州,凉山州政府,,28,22,28,11,15,88,,42,42,6,14,11,10,0.3,0.5
2024-09-29T1300,2575A,102.237,27.8914,凉山彝族自治州,长安,,28,16,25,11,16,88,,32,32,6,18,15,14,0.4,0.7
2024-09-29T1300,2212A,123.2,41.1953,辽阳市,宏伟区,,35,35,37,22,19,93,,77,77,5,17,10,11,0.4,0.6
2024-09-29T1300,2213A,123.1683,41.2495,辽阳市,新华园,,40,40,47,19,24,89,,70,70,5,24,11,12,0.5,0.8
2024-09-29T1300,2214A,123.2354,41.2639,辽阳市,滨河路,,29,28,37,11,16,91,,62,62,6,25,11,11,0.5,0.6
2024-09-29T1300,2215A,123.149,41.2991,辽阳市,铁西工业园,,42,42,53,11,25,83,,65,65,9,22,10,12,0.6,0.9
2024-09-29T1300,2227A,125.1358,42.8845,辽源市,环保局,,36,20,34,12,20,115,,63,63,2,23,7,8,0.7,0.8
2024-09-29T1300,3239A,125.0764,42.9078,辽源市,银鹰制药,,36,25,43,15,20,115,,59,59,6,33,6,7,0.5,0.7
2024-09-29T1300,1625A,115.9848,36.4372,聊城市,区政府,,48,45,54,18,20,151,,104,104,16,28,12,12,0.5,0.5
2024-09-29T1300,2878A,116.0072,36.4343,聊城市,聊大东校,,,44,57,22,26,157,,108,108,14,31,10,10,,0.9
2024-09-29T1300,3200A,115.9819,36.4978,聊城市,监控中心,,48,45,55,22,21,152,,110,110,14,34,9,10,0.3,0.3
2024-09-29T1300,3513A,116.0445,36.4361,聊城市,九州社区,,49,47,58,14,22,155,,106,106,6,32,3,5,0.5,0.5
2024-09-29T1300,4018A,116.0567,36.4608,聊城市,星美广场,,49,38,68,18,27,155,,108,108,8,30,6,8,0.4,0.4
2024-09-29T1300,2632A,94.3681,29.6376,林芝市,林芝监测站,,11,6,6,3,4,35,,20,19,2,2,9,10,0.2,0.2
2024-09-29T1300,2633A,94.3616,29.6616,林芝市,林芝人民医院,,12,6,5,3,2,37,,22,21,4,4,5,5,0,0
2024-09-29T1300,2603A,100.0781,23.8982,临沧市,市环保局,,17,17,14,3,14,49,,22,22,8,9,4,5,0.3,0.4
2024-09-29T1300,2604A,100.0894,23.8822,临沧市,市气象局,,17,12,15,10,12,52,,23,23,7,9,4,4,0.4,0.5
2024-09-29T1300,1733A,111.5531,36.0783,临汾市,临钢医院,颗粒物(PM10),59,67,73,24,23,106,,110,93,15,16,4,5,0.6,0.6
2024-09-29T1300,1734A,111.5028,36.0714,临汾市,技工学校,颗粒物(PM10),54,58,67,22,31,100,,110,100,20,18,6,5,0.6,0.6
2024-09-29T1300,1736A,111.5018,36.0855,临汾市,市委,,46,46,62,21,25,110,,118,109,14,15,6,6,0.7,0.7
2024-09-29T1300,3018A,111.505,36.1014,临汾市,唐尧大酒店,,42,42,54,25,26,98,,106,99,14,14,4,4,0.7,0.7
2024-09-29T1300,3668A,111.5036,36.0414,临汾市,城南,颗粒物(PM10),62,73,68,31,33,104,,114,98,13,13,6,6,0.7,0.7
2024-09-29T1300,2667A,103.2069,35.5993,临夏回族自治州,环保局,,26,24,35,18,20,72,,71,69,6,10,8,9,0.2,0.4
2024-09-29T1300,2668A,103.2417,35.6057,临夏回族自治州,建设大厦,,26,,39,17,23,83,,74,73,4,10,3,2,0.2,0.4
2024-09-29T1300,1618A,118.3429,35.0532,临沂市,沂河小区,,42,31,37,18,16,134,,89,89,9,18,8,7,0.3,0.3
2024-09-29T1300,1619A,118.295,35.0583,临沂市,鲁南制药厂,,45,34,31,17,16,142,,99,99,4,11,6,6,0.5,0.5
2024-09-29T1300,1620A,118.2794,34.9976,临沂市,新光毛纺厂,,42,31,27,16,17,134,,100,100,11,18,4,6,0.5,0.5
2024-09-29T1300,1621A,118.3956,35.0888,临沂市,河东保险公司,,45,29,40,10,17,144,,83,83,11,36,6,7,0.6,0.7
2024-09-29T1300,3370A,118.3564,35.0215,临沂市,十里堡居委,,43,22,28,14,18,136,,89,89,9,21,7,9,0.6,0.6
2024-09-29T1300,3496A,118.3604,35.1084,临沂市,南坊新区,,46,39,39,14,16,147,,87,87,12,26,7,8,0.5,0.6
2024-09-29T1300,3860A,118.3920,35.0300,临沂市,皇山花园小区,,42,34,40,14,22,134,,80,80,8,25,8,8,0.4,0.5
2024-09-29T1300,1870A,109.4856,24.3895,柳州市,柳东小学,,32,25,46,22,31,79,,54,54,4,12,8,11,0.6,0.8
2024-09-29T1300,1871A,109.4157,24.3277,柳州市,环保监测站,,32,22,46,22,33,70,,55,54,6,11,8,9,0.6,0.8
2024-09-29T1300,1872A,109.389,24.341,柳州市,河西水厂,,26,26,49,7,30,63,,59,52,3,10,8,8,0.7,1
2024-09-29T1300,1873A,109.4311,24.2921,柳州市,市四中,,29,22,52,20,35,79,,58,58,5,15,6,7,0.4,0.6
2024-09-29T1300,1874A,109.4006,24.3631,柳州市,市九中,,23,18,49,16,30,65,,60,56,4,10,6,6,0.7,0.9
2024-09-29T1300,1875A,109.4958,24.3134,柳州市,古亭山,,29,29,47,19,31,81,,55,55,6,21,8,8,0.6,0.8
2024-09-29T1300,3402A,109.5422,24.3996,柳州市,市二中,,29,26,50,13,31,91,,50,50,8,20,9,9,0.5,0.7
2024-09-29T1300,2307A,116.5079,31.737,六安市,监测大楼,,43,32,36,6,27,136,,93,93,5,10,5,6,0.5,0.5
2024-09-29T1300,2308A,116.4738,31.7643,六安市,皖西学院,,45,45,50,8,27,136,,103,97,6,13,5,7,0.5,0.6
2024-09-29T1300,2309A,116.4996,31.7905,六安市,朝阳厂,,43,36,36,8,24,136,,96,92,5,10,1,2,0.4,0.5
2024-09-29T1300,2310A,116.5567,31.7886,六安市,开发区,,44,38,48,18,24,138,,93,92,6,13,3,4,0.5,0.6
2024-09-29T1300,2577A,104.83,26.5917,六盘水市,黄土坡,,20,,24,14,21,49,,43,37,6,8,8,6,0.3,0.3
2024-09-29T1300,2578A,104.89,26.5939,六盘水市,水钢,,21,21,29,13,17,52,,47,42,6,6,7,7,0.3,0.3
2024-09-29T1300,2579A,104.8475,26.5894,六盘水市,民中,,25,25,26,14,17,51,,46,37,8,10,7,7,0.4,0.4
2024-09-29T1300,2580A,104.9544,26.5506,六盘水市,双水,,28,27,29,19,17,49,,48,42,5,6,7,7,0.3,0.3
2024-09-29T1300,2336A,117.0217,25.1033,龙岩市,龙岩市监测站,,28,18,17,3,6,88,,72,72,5,11,6,8,0.3,0.4
2024-09-29T1300,2337A,117.0258,25.0661,龙岩市,闽西职业技术学院,,29,19,23,8,9,92,,74,74,2,12,5,7,0.4,0.5
2024-09-29T1300,2338A,117.0196,25.0306,龙岩市,龙岩学院,,30,19,19,7,8,94,,66,66,3,13,6,5,0.4,0.4
2024-09-29T1300,2885A,104.9339,33.3826,陇南市,滨江中学,,34,34,37,15,16,82,,86,78,5,6,7,7,0.6,0.7
2024-09-29T1300,3247A,104.955,33.371,陇南市,市总工会,,28,28,28,3,9,84,,91,80,5,5,3,4,0.3,0.5
2024-09-29T1300,2487A,111.9589,27.8901,娄底市,电视发射台,,46,46,42,22,26,121,,69,69,10,7,12,6,0.8,0.8
2024-09-29T1300,2488A,111.9975,27.725,娄底市,市监测站,颗粒物(PM10),54,57,55,27,40,115,,82,82,4,16,8,8,0.7,0.8
2024-09-29T1300,2489A,112.0194,27.7314,娄底市,市委党校,,48,46,51,33,38,107,,76,76,6,11,8,8,0.7,0.8
2024-09-29T1300,2490A,111.9561,27.7569,娄底市,涟钢,,49,49,62,30,38,77,,49,49,32,23,21,10,1.4,0.6
2024-09-29T1300,2491A,111.9892,27.7044,娄底市,市政府,,35,33,52,20,41,110,,60,60,5,11,6,5,0.2,0.4
2024-09-29T1300,1893A,105.4324,28.9634,泸州市,九狮山,颗粒物(PM10),65,80,84,42,50,123,,65,65,19,20,6,5,0.0,0.5
2024-09-29T1300,1894A,105.4427,28.9063,泸州市,小市上码头,细颗粒物(PM2.5),64,70,91,46,47,144,,80,80,12,16,6,6,0.7,0.7
2024-09-29T1300,1895A,105.4241,28.8573,泸州市,兰田宪桥,细颗粒物(PM2.5),80,75,66,59,55,150,,84,84,10,12,6,6,0.7,0.6
2024-09-29T1300,1896A,105.4379,28.8833,泸州市,市环监站,细颗粒物(PM2.5),77,65,70,56,55,144,,79,79,13,12,5,5,0.7,0.7
2024-09-29T1300,3490A,105.3617,28.7703,泸州市,纳溪区环保局,,,100,89,65,70,136,,83,83,,24,8,7,0.7,0.9
2024-09-29T1300,2183A,111.1406,37.5211,吕梁市,环保局,,18,13,51,3,36,57,,120,78,9,13,5,5,0.5,0.6
2024-09-29T1300,2185A,111.1297,37.5136,吕梁市,自来水公司,,20,11,46,3,33,62,,123,82,7,12,3,3,0.4,0.6
2024-09-29T1300,2867A,111.1283,37.51,吕梁市,马茂庄小学,,14,6,53,3,36,44,,119,74,23,17,2,3,0.4,0.6
2024-09-29T1300,1812A,112.3931,34.6516,洛阳市,市委党校,颗粒物(PM10),61,71,74,42,37,152,,94,94,11,18,7,7,0.6,0.6
2024-09-29T1300,1814A,112.4657,34.6871,洛阳市,豫西宾馆,颗粒物(PM10),63,75,80,37,35,143,,92,92,8,14,8,9,0.6,0.6
2024-09-29T1300,1815A,112.494,34.6886,洛阳市,河南林校,颗粒物(PM10),58,65,70,28,35,145,,92,92,11,18,6,7,0.5,0.5
2024-09-29T1300,1816A,112.3844,34.623,洛阳市,开发区管委会,臭氧1小时,55,55,64,32,36,164,,101,101,11,15,3,2,0.5,0.5
2024-09-29T1300,1817A,112.4267,34.6258,洛阳市,市委新办公区,颗粒物(PM10),59,68,62,39,41,155,,96,96,10,14,5,3,0.3,0.3
2024-09-29T1300,3340A,112.6005,34.6326,洛阳市,伊滨,细颗粒物(PM2.5),64,74,66,46,41,157,,92,92,11,16,10,9,0.7,0.7
2024-09-29T1300,3341A,112.4951,34.6332,洛阳市,中移产业园,颗粒物(PM10),57,64,69,37,38,162,,98,98,11,17,5,4,0.8,0.8
2024-09-29T1300,3593A,112.5736,34.8993,洛阳市,吉利监测站,颗粒物(PM10),61,71,71,42,30,122,,94,94,9,14,4,5,0.4,0.5
2024-09-29T1300,3635A,112.3677,34.662,洛阳市,河科大西苑校区,颗粒物(PM10),61,71,75,26,28,154,,98,98,12,19,4,5,0.6,0.6
2024-09-29T1300,3636A,112.4388,34.6781,洛阳市,英才小学,颗粒物(PM10),60,69,78,33,38,146,,92,92,11,17,3,4,0.6,0.6
2024-09-29T1300,2399A,114.051,33.5699,漯河市,三五一五工厂,颗粒物(PM10),64,78,75,22,31,160,,94,94,9,14,7,8,0.6,0.6
2024-09-29T1300,2400A,114.0055,33.5698,漯河市,漯河大学,颗粒物(PM10),64,77,69,27,31,162,,98,98,9,13,6,6,0.7,0.7
2024-09-29T1300,2401A,114.0138,33.5828,漯河市,市水利局,颗粒物(PM10),64,78,73,24,29,159,,98,98,7,10,6,6,0.6,0.6
2024-09-29T1300,2402A,114.0261,33.5698,漯河市,市广电局,颗粒物(PM10),63,76,71,26,30,160,,99,99,6,11,8,8,0.7,0.7
2024-09-29T1300,3478A,113.9749,33.5664,漯河市,市图书馆,臭氧1小时,65,65,65,22,30,172,,102,102,10,13,13,14,0.7,0.7
2024-09-29T1300,3479A,114.0967,33.5906,漯河市,召陵区卫健委,臭氧1小时,57,53,71,28,35,165,,96,96,5,12,7,10,0.6,0.6
2024-09-29T1300,1798A,118.5092,31.6837,马鞍山市,湖东路四小,颗粒物(PM10),55,59,45,8,27,120,,86,86,11,19,8,8,0.6,0.8
2024-09-29T1300,1799A,118.5024,31.6449,马鞍山市,开发区,,37,34,46,9,25,118,,82,82,8,20,7,7,0.7,0.9
2024-09-29T1300,1800A,118.5228,31.7231,马鞍山市,慈湖,,38,22,46,14,28,119,,87,87,8,14,8,9,0.6,0.8
2024-09-29T1300,1802A,118.6245,31.7241,马鞍山市,濮塘,,36,24,43,8,30,114,,82,82,6,14,8,8,0.7,1
2024-09-29T1300,3633A,118.4918,31.6809,马鞍山市,雨山,,37,25,42,11,24,118,,84,84,6,16,9,9,0.8,1
2024-09-29T1300,1686A,111.0286,21.4688,茂名市,电白南海,,27,27,35,9,18,82,,52,52,4,10,9,12,0.5,0.6
2024-09-29T1300,1687A,110.9294,21.6533,茂名市,茂石化七小,,35,31,40,24,25,97,,61,61,6,11,7,11,0.6,0.7
2024-09-29T1300,1688A,110.9107,21.6687,茂名市,健康路,,33,29,31,17,18,103,,65,65,4,8,12,18,0.8,0.9
2024-09-29T1300,1689A,110.8592,21.6828,茂名市,高岭,,36,36,48,24,27,107,,56,56,19,19,7,16,0.8,0.8
2024-09-29T1300,3450A,111.01,21.5165,茂名市,电白水东,,25,14,28,14,21,77,,52,52,5,10,6,10,0.5,0.7
2024-09-29T1300,2539A,104.0308,30.0478,眉山市,黑龙滩水库,细颗粒物(PM2.5),68,56,68,49,58,46,,38,38,15,16,3,2,0.6,0.6
2024-09-29T1300,2540A,103.8416,30.0874,眉山市,气象局,细颗粒物(PM2.5),62,,61,44,54,55,,44,38,32,26,7,8,0.7,0.7
2024-09-29T1300,3137A,103.8578,30.0744,眉山市,市委党校,,,61,75,44,50,34,,48,39,37,28,8,11,,0.8
2024-09-29T1300,3148A,103.8291,30.0564,眉山市,区人社局,细颗粒物(PM2.5),58,,64,41,48,42,,48,40,30,27,13,14,0.8,0.7
2024-09-29T1300,1690A,116.1231,24.3284,梅州市,梅江月梅,,25,20,19,6,20,79,,41,41,2,8,6,7,0.4,0.5
2024-09-29T1300,1691A,116.0797,24.2719,梅州市,梅县新城,,29,14,23,10,11,90,,41,41,5,16,4,5,0.5,0.6
2024-09-29T1300,1692A,116.1248,24.2654,梅州市,环境监控中心,,25,19,26,11,12,79,,41,41,5,17,5,6,0.5,0.5
2024-09-29T1300,3315A,116.1233,24.2991,梅州市,梅龙,,26,22,17,9,11,83,,43,43,2,9,9,10,0.4,0.5
2024-09-29T1300,1878A,104.7778,31.4741,绵阳市,富乐山,,50,,44,35,39,62,,57,57,7,11,2,2,0.7,0.7
2024-09-29T1300,1879A,104.7563,31.4535,绵阳市,市人大,,42,37,46,29,35,54,,52,48,14,18,11,10,0.6,0.6
2024-09-29T1300,1880A,104.6697,31.4668,绵阳市,高新区自来水公司,,32,31,42,22,31,55,,49,43,11,19,3,4,0.5,0.8
2024-09-29T1300,1881A,104.7287,31.5075,绵阳市,三水厂,,46,34,48,32,42,62,,44,44,7,20,6,6,0.7,0.8
2024-09-29T1300,3491A,104.69,31.5322,绵阳市,西科大附属小学,,36,36,47,25,33,58,,45,45,10,19,4,4,0.6,0.7
2024-09-29T1300,3492A,104.5648,31.5343,绵阳市,安州区旅游局,,42,32,39,29,37,57,,68,63,12,11,7,6,0.6,0.6
2024-09-29T1300,1784A,129.61,44.561,牡丹江市,环保大楼,,28,,31,16,18,89,,43,43,5,23,7,7,0.3,0.4
2024-09-29T1300,1785A,129.6115,44.5782,牡丹江市,文化广场,,27,21,52,14,28,84,,40,40,7,30,8,9,0.4,0.6
2024-09-29T1300,1786A,129.5904,44.5963,牡丹江市,第一医院,,28,19,38,9,26,87,,45,45,6,21,7,7,0.3,0.5
2024-09-29T1300,1787A,129.6364,44.6075,牡丹江市,机车工厂,,28,15,35,9,20,88,,43,43,7,16,7,40,0.3,0.4
2024-09-29T1300,1788A,129.6386,44.5462,牡丹江市,第一中学,,29,13,26,9,14,90,,44,44,4,17,5,6,0.3,0.3
2024-09-29T1300,2531A,105.0703,29.61,内江市,市监测站,细颗粒物(PM2.5),74,,46,54,52,106,,71,71,16,14,6,5,0.6,0.6
2024-09-29T1300,2532A,105.0717,29.5947,内江市,东兴区政府,细颗粒物(PM2.5),73,65,46,53,48,107,,72,72,25,18,5,6,0.6,0.6
2024-09-29T1300,2533A,105.0653,29.5817,内江市,内江二中,细颗粒物(PM2.5),84,,57,62,59,114,,72,72,17,15,10,9,0.7,0.7
2024-09-29T1300,2534A,105.0406,29.5822,内江市,内江日报社,细颗粒物(PM2.5),74,,58,54,56,118,,70,70,23,22,6,7,0.8,0.7
2024-09-29T1300,2628A,92.0657,31.4846,那曲市,那曲监测站,,27,27,26,11,13,64,,36,35,5,8,8,5,0.4,0.5
2024-09-29T1300,3128A,92.0506,31.4797,那曲市,那曲会议中心,,23,20,24,3,11,72,,40,40,6,8,3,3,0.5,0.5
2024-09-29T1300,1290A,115.8931,28.6843,南昌市,省外办,颗粒物(PM10),68,86,54,41,22,142,,107,107,9,18,9,8,0.7,0.7
2024-09-29T1300,1291A,115.8886,28.7003,南昌市,省林业公司,,48,44,38,17,17,152,,106,106,10,24,7,7,0.6,0.5
2024-09-29T1300,1292A,115.8126,28.7442,南昌市,林科所,,47,34,22,12,9,148,,110,110,12,22,5,4,0.3,0.5
2024-09-29T1300,1294A,115.8518,28.687,南昌市,建工学校,,48,31,32,16,13,152,,109,109,10,18,9,8,0.6,0.5
2024-09-29T1300,1295A,115.8921,28.6424,南昌市,象湖,臭氧1小时,55,34,26,25,15,164,,122,122,13,15,14,10,1.3,1
2024-09-29T1300,1296A,115.7423,28.7996,南昌市,武术学校,,43,,16,22,14,137,,80,80,7,8,4,4,0.6,0.5
2024-09-29T1300,1298A,115.9314,28.6842,南昌市,省站,,41,35,31,17,17,131,,104,104,19,19,10,10,0.7,0.6
2024-09-29T1300,3046A,115.9084,28.6062,南昌市,机电学校,颗粒物(PM10),51,51,45,22,18,146,,105,105,11,18,12,13,0.6,0.6
2024-09-29T1300,3690A,115.9721,28.7031,南昌市,外国语学校,,44,41,33,14,14,138,,106,106,8,12,7,7,0.6,0.6
2024-09-29T1300,1905A,106.056,30.8064,南充市,西山风景区,细颗粒物(PM2.5),64,,46,46,43,49,,59,56,15,10,4,4,0.9,0.8
2024-09-29T1300,1906A,106.0789,30.8023,南充市,南充市委,细颗粒物(PM2.5),75,88,66,55,52,47,,51,51,26,22,4,4,0.7,0.6
2024-09-29T1300,1907A,106.1031,30.8217,南充市,南充炼油厂,细颗粒物(PM2.5),73,82,68,53,49,54,,64,64,20,16,4,5,0.5,0.4
2024-09-29T1300,1908A,106.1064,30.7856,南充市,高坪区监测站,颗粒物(PM10),82,113,69,36,46,65,,56,56,26,23,7,7,0.6,0.6
2024-09-29T1300,1909A,106.0642,30.7636,南充市,嘉陵区环保局,细颗粒物(PM2.5),64,69,63,46,42,47,,40,37,32,25,4,4,0.7,0.7
2024-09-29T1300,1910A,106.1087,30.8388,南充市,市环境监测站,细颗粒物(PM2.5),80,91,67,59,47,50,,63,63,20,16,5,6,0.5,0.4
2024-09-29T1300,1151A,118.8086,32.1065,南京市,迈皋桥,,44,44,36,22,20,124,,90,90,5,10,4,4,0.2,0.4
2024-09-29T1300,1152A,118.7538,32.0551,南京市,草场门,,36,31,37,7,18,114,,85,85,10,15,5,5,0.2,0.3
2024-09-29T1300,1153A,118.7794,32.0745,南京市,山西路,,39,29,39,17,21,122,,102,102,8,11,3,4,0.4,0.5
2024-09-29T1300,1154A,118.7752,32.0023,南京市,中华门,,35,27,35,9,20,109,,84,84,7,13,5,5,0.3,0.5
2024-09-29T1300,1155A,118.8109,32.0309,南京市,瑞金路,,36,31,40,19,22,113,,85,85,4,11,4,5,0.3,0.4
2024-09-29T1300,1156A,118.7997,32.0754,南京市,玄武湖,,36,33,37,7,15,114,,85,85,9,20,5,6,0.4,0.5
2024-09-29T1300,1157A,118.6414,32.0931,南京市,浦口,,36,36,40,12,19,108,,77,77,8,16,5,5,0.4,0.5
2024-09-29T1300,1158A,118.7356,31.9996,南京市,奥体中心,,38,30,40,17,24,119,,90,90,7,13,5,6,0.3,0.4
2024-09-29T1300,1159A,118.9125,32.1028,南京市,仙林大学城,,41,31,38,12,18,131,,97,97,9,13,5,6,0.4,0.6
2024-09-29T1300,3422A,118.8436,31.9198,南京市,江宁彩虹桥,,38,28,42,9,24,120,,79,79,2,12,4,4,0.4,0.6
2024-09-29T1300,3423A,119.0138,31.6494,南京市,溧水永阳,,36,27,40,3,21,114,,79,79,9,19,3,4,0.5,0.8
2024-09-29T1300,3424A,118.879,31.3302,南京市,高淳老职中,,39,39,32,13,22,119,,84,84,8,16,3,5,0.5,0.6
2024-09-29T1300,3427A,118.8554,32.3578,南京市,六合雄州,,42,,37,18,19,133,,81,81,11,13,7,7,0.4,0.4
2024-09-29T1300,1401A,108.3103,22.7881,南宁市,二十一中,,28,,37,19,12,56,,29,29,8,11,4,6,1.1,0.9
2024-09-29T1300,1402A,108.3141,22.8528,南宁市,北湖,,19,17,24,12,16,59,,30,30,9,12,3,4,0.7,0.7
2024-09-29T1300,1403A,108.3206,22.8225,南宁市,市监测站,,,18,25,15,17,58,,32,32,,12,5,7,0.5,0.6
2024-09-29T1300,1404A,108.3829,22.8037,南宁市,大自然花园,,19,,23,12,16,58,,31,31,7,10,5,6,0.3,0.4
2024-09-29T1300,1405A,108.4394,22.7904,南宁市,仙葫,,19,16,25,12,15,60,,34,34,5,11,6,8,0.8,0.9
2024-09-29T1300,1406A,108.2397,22.8467,南宁市,区农职院,,23,,27,16,17,54,,28,28,7,11,4,5,0.9,0.9
2024-09-29T1300,1407A,108.3275,22.735,南宁市,英华嘉园,,34,34,24,17,12,50,,27,27,10,14,4,5,0.6,0.7
2024-09-29T1300,1408A,108.2257,22.7757,南宁市,沙井镇街道办,,18,12,32,12,16,54,,27,27,5,16,2,3,0.5,0.6
2024-09-29T1300,3401A,108.4834,22.7618,南宁市,红星社区,,20,12,26,11,14,63,,30,30,6,12,8,9,0.6,0.7
2024-09-29T1300,2332A,118.1681,26.6369,南平市,南平市监测站,,28,19,18,12,6,89,,57,57,5,10,5,5,0.4,0.4
2024-09-29T1300,2333A,118.1825,26.6489,南平市,南平铝业有限公司,,28,21,20,9,6,88,,57,57,6,13,4,5,0.2,0.3
2024-09-29T1300,2334A,118.1756,26.6272,南平市,南平七中,,32,32,19,12,7,89,,57,57,5,8,5,4,0.5,0.5
2024-09-29T1300,1168A,120.9098,31.9663,南通市,狼山街道,,32,27,28,11,18,100,,82,82,1,9,6,7,0.4,0.5
2024-09-29T1300,1169A,120.86,32.0005,南通市,虹桥,,31,25,30,7,16,98,,80,80,3,11,6,7,0.4,0.6
2024-09-29T1300,1170A,120.87,32.02,南通市,城中,,34,34,37,8,16,101,,80,80,3,13,5,5,0.3,0.5
2024-09-29T1300,1171A,120.94,31.93,南通市,星湖花园,,30,22,27,8,15,96,,79,79,7,15,6,6,0.3,0.4
2024-09-29T1300,1172A,120.81,32.0417,南通市,紫琅学院,,,18,29,3,16,96,,76,76,5,13,,7,0.1,0.3
2024-09-29T1300,3291A,121.067,32.062,南通市,通州监测站,,31,29,27,7,13,98,,86,86,5,7,3,2,0.6,0.7
2024-09-29T1300,3432A,120.9348,31.9883,南通市,环境教育馆,,31,31,36,3,17,98,,79,79,5,15,3,4,0.4,0.5
2024-09-29T1300,2404A,112.5224,33.0122,南阳市,瓦房庄,"颗粒物(PM10),臭氧1小时",54,58,63,26,37,163,,124,124,11,16,4,4,0.6,0.7
2024-09-29T1300,2405A,112.5003,32.9735,南阳市,汉画馆,颗粒物(PM10),54,58,66,35,40,160,,124,124,12,15,8,7,0.7,0.7
2024-09-29T1300,2406A,112.5573,33.027,南阳市,气象站,颗粒物(PM10),55,60,68,24,38,162,,124,124,12,16,7,8,0.5,0.6
2024-09-29T1300,2407A,112.5481,32.9689,南阳市,理工学院,颗粒物(PM10),51,52,63,24,36,154,,119,119,11,15,7,7,0.6,0.7
2024-09-29T1300,4008A,112.5234,32.9922,南阳市,卧龙区政府,颗粒物(PM10),57,63,69,29,38,160,,121,121,11,14,5,5,0.7,0.8
2024-09-29T1300,1234A,121.8358,29.911,宁波市,区环保大楼,,38,38,42,15,20,86,,40,40,15,38,7,7,0.5,0.6
2024-09-29T1300,1235A,121.56,29.82,宁波市,万里学院,,40,40,47,17,32,106,,46,46,16,37,7,6,0.6,0.7
2024-09-29T1300,1236A,121.713,29.9572,宁波市,龙赛医院,,50,50,46,16,20,100,,50,50,15,33,9,9,0.6,0.7
2024-09-29T1300,1239A,121.633,29.7733,宁波市,钱湖水厂,,28,28,44,14,24,88,,43,43,26,26,10,9,0.6,0.7
2024-09-29T1300,1240A,121.5856,29.8635,宁波市,太古小学,,33,30,46,16,24,105,,49,49,16,37,8,8,0.8,0.9
2024-09-29T1300,1241A,121.524,29.8674,宁波市,市环境监测中心,,37,32,38,16,17,116,,59,59,13,25,4,4,0.6,0.7
2024-09-29T1300,2871A,121.6147,29.9017,宁波市,万里国际学校,,35,26,36,20,22,112,,53,53,15,35,8,8,0.5,0.6
2024-09-29T1300,3710A,121.5594,29.8975,宁波市,白沙活动中心,,35,30,43,14,18,112,,62,62,16,31,9,9,0.4,0.5
2024-09-29T1300,2341A,119.5388,26.6612,宁德市,宁德市监测站,,49,49,37,19,18,68,,50,44,19,17,7,7,0.5,0.6
2024-09-29T1300,3209A,119.5231,26.6562,宁德市,宁德一中,,40,40,38,18,14,70,,50,44,11,11,5,6,0.4,0.5
2024-09-29T1300,2618A,98.8601,25.8567,怒江傈僳族自治州,州监测站,,16,11,21,7,12,50,,22,22,4,11,4,6,0.4,0.4
2024-09-29T1300,2619A,98.8546,25.8417,怒江傈僳族自治州,泸水一中,,25,25,18,3,9,45,,17,17,8,14,6,6,0.4,0.4
2024-09-29T1300,1888A,101.6891,26.571,攀枝花市,弄弄坪,,29,17,44,13,16,91,,30,30,13,27,29,22,1.0,1.5
2024-09-29T1300,1889A,101.5769,26.5928,攀枝花市,河门口,,30,18,26,11,15,93,,38,38,10,18,12,11,0.8,0.8
2024-09-29T1300,1890A,101.7169,26.585,攀枝花市,炳草岗,,31,19,36,12,16,98,,35,35,10,28,31,21,1.1,1
2024-09-29T1300,1891A,101.7369,26.5008,攀枝花市,仁和,,28,21,22,11,12,89,,39,39,9,12,12,6,0.4,0.5
2024-09-29T1300,2835A,101.7227,26.567,攀枝花市,四十中小,,35,35,36,20,19,101,,36,36,12,21,22,12,1.3,0.9
2024-09-29T1300,1604A,122.0303,41.1489,盘锦市,开发区,,45,45,40,15,31,104,,73,73,7,25,7,10,0,0.2
2024-09-29T1300,1605A,122.0485,41.0883,盘锦市,兴隆台,,38,38,42,14,34,102,,70,70,11,34,4,6,0.3,0.5
2024-09-29T1300,1606A,121.8297,41.1028,盘锦市,新生街道,,41,41,29,11,21,114,,72,72,9,19,8,9,0.4,0.6
2024-09-29T1300,1832A,113.3257,33.742,平顶山市,新华旅馆,颗粒物(PM10),59,67,96,35,40,151,,91,91,12,18,6,7,0.5,0.5
2024-09-29T1300,1833A,113.2919,33.737,平顶山市,规划设计院,细颗粒物(PM2.5),60,65,73,43,36,151,,96,96,18,21,8,8,0.7,0.7
2024-09-29T1300,1834A,113.182,33.774,平顶山市,平顶山工学院,细颗粒物(PM2.5),67,80,75,48,34,129,,71,70,14,19,7,8,0.6,0.5
2024-09-29T1300,3204A,113.3025,33.73,平顶山市,规划局,颗粒物(PM10),70,90,93,35,38,151,,95,95,15,17,6,7,0.9,0.8
2024-09-29T1300,3594A,112.8867,33.9116,平顶山市,石龙区,颗粒物(PM10),68,86,88,46,38,132,,86,86,18,18,14,12,0.9,0.6
2024-09-29T1300,2656A,106.6692,35.5461,平凉市,聚贤嘉苑,,28,25,63,9,41,89,,96,91,11,18,6,9,0.1,0.4
2024-09-29T1300,2657A,106.7021,35.5307,平凉市,博物馆,,29,27,67,13,44,90,,97,91,5,18,7,8,0.3,0.5
2024-09-29T1300,2347A,114.0997,27.5002,萍乡市,武功山,,25,6,22,3,5,80,,42,42,4,5,10,9,0.4,0.4
2024-09-29T1300,2348A,113.8385,27.6434,萍乡市,中医院,,37,26,38,10,21,118,,80,80,4,10,12,20,0.7,0.8
2024-09-29T1300,2349A,113.8493,27.6253,萍乡市,市政府车库,,40,40,40,17,29,123,,70,70,5,17,13,19,0.7,1.5
2024-09-29T1300,2350A,113.8676,27.6435,萍乡市,市环保局,,38,38,38,19,25,111,,72,72,2,9,10,17,0.6,0.7
2024-09-29T1300,2351A,113.866,27.6198,萍乡市,安源区政府,,40,18,41,11,20,126,,69,69,8,23,12,13,0.6,0.7
2024-09-29T1300,2319A,119.0141,25.4325,莆田市,荔城区仓后路,,24,22,27,9,12,75,,96,82,9,9,7,8,0.7,0.7
2024-09-29T1300,2320A,119.0015,25.4553,莆田市,莆田市监测站,,24,13,22,10,12,76,,98,84,6,6,7,7,0.4,0.4
2024-09-29T1300,2321A,119.1119,25.4561,莆田市,涵江区六中,,34,34,28,9,13,77,,92,84,4,6,8,8,0.5,0.5
2024-09-29T1300,2322A,119.1013,25.3215,莆田市,秀屿区政府,,50,50,32,11,15,91,,86,85,2,6,8,8,0.6,0.6
2024-09-29T1300,2392A,115.0312,35.7636,濮阳市,环保局,,49,48,45,27,24,154,,92,92,11,18,7,9,0.6,0.6
2024-09-29T1300,2394A,115.0574,35.7609,濮阳市,油田运输公司,,50,48,49,30,26,157,,92,92,9,16,5,7,0.5,0.5
2024-09-29T1300,2395A,115.0866,35.7754,濮阳市,油田物探公司,颗粒物(PM10),54,57,55,33,29,156,,93,93,9,16,3,7,0.6,0.5
2024-09-29T1300,3021A,115,35.7668,濮阳市,濮水河管理处,,46,37,45,31,25,145,,85,85,8,13,6,7,0.4,0.4
2024-09-29T1300,2601A,100.98,22.7633,普洱市,市环保局,,18,18,21,8,10,41,,23,23,4,5,4,4,0.3,0.3
2024-09-29T1300,2602A,100.9817,22.8322,普洱市,普洱第二中学,,17,17,22,8,9,42,,23,23,4,7,10,10,0.4,0.5
2024-09-29T1300,2262A,131.0518,45.8751,七台河市,新一中,,39,23,16,13,8,122,,66,66,6,9,9,10,1.1,1.2
2024-09-29T1300,3345A,131.0577,45.7879,七台河市,中波台,,28,25,16,7,6,87,,47,47,11,14,6,6,0.4,0.4
2024-09-29T1300,3637A,131.0176,45.7761,七台河市,人民广场,,29,22,27,15,11,91,,48,48,8,16,9,9,0.3,0.4
2024-09-29T1300,3684A,130.8781,45.8222,七台河市,新建矿广场,,36,36,68,11,20,87,,49,49,10,33,3,6,0.2,0.5
2024-09-29T1300,1779A,123.9305,47.3636,齐齐哈尔市,安居小区,细颗粒物(PM2.5),54,54,43,38,25,103,,93,81,15,17,12,11,0.8,0.6
2024-09-29T1300,1780A,123.9488,47.3386,齐齐哈尔市,中心广场,颗粒物(PM10),54,57,54,9,12,104,,85,78,13,15,3,2,0.5,0.4
2024-09-29T1300,1781A,123.9483,47.3227,齐齐哈尔市,农牧车辆厂,,48,48,43,27,16,108,,89,84,8,9,9,8,0.4,0.4
2024-09-29T1300,1783A,123.945,47.2988,齐齐哈尔市,市环境监测站,,50,50,33,28,20,113,,90,89,7,9,9,8,0.5,0.4
2024-09-29T1300,3662A,123.6333,47.2075,齐齐哈尔市,富区青少年活动中心,,48,48,38,9,12,107,,77,77,8,11,6,5,0.7,0.5
2024-09-29T1300,2591A,107.9783,26.5747,黔东南苗族侗族自治州,市环境监测站,,39,33,35,27,29,38,,37,33,22,20,3,4,0.7,0.6
2024-09-29T1300,2881A,107.8908,26.5311,黔东南苗族侗族自治州,凯里学院,,28,,24,19,24,37,,42,31,12,9,2,2,0.8,0.8
2024-09-29T1300,2593A,107.5228,26.2403,黔南布依族苗族自治州,小围寨,,13,,21,9,17,39,,45,29,4,4,4,4,0.5,0.6
2024-09-29T1300,3538A,107.5175,26.2978,黔南布依族苗族自治州,沙坝,,14,6,25,3,15,42,,53,37,5,5,4,4,0.4,0.4
2024-09-29T1300,2589A,104.9022,25.0925,黔西南布依族苗族自治州,场坝街,,18,13,30,12,21,50,,47,42,3,5,4,3,0.2,0.3
2024-09-29T1300,2590A,104.8811,25.0992,黔西南布依族苗族自治州,坪东大道,,26,22,35,18,22,46,,48,41,5,5,7,7,0.2,0.2
2024-09-29T1300,2502A,108.6236,21.9667,钦州市,市环保站,,30,29,27,9,7,94,,35,35,9,19,8,9,0.6,0.6
2024-09-29T1300,2503A,108.6549,21.9481,钦州市,沙埠小学,,37,37,29,14,11,75,,30,30,8,21,6,6,0.7,0.8
2024-09-29T1300,2504A,108.5989,21.7431,钦州市,港区一小,,28,28,28,8,8,56,,36,36,4,10,5,4,0.5,0.5
2024-09-29T1300,3404A,108.5959,21.9633,钦州市,北职校,,26,14,25,9,9,81,,33,33,7,19,6,7,0.5,0.6
2024-09-29T1300,1042A,119.5134,39.8207,秦皇岛市,北戴河环保局,,35,35,33,10,11,106,,92,92,8,12,2,2,0.4,0.4
2024-09-29T1300,1043A,119.7493,40.0116,秦皇岛市,第一关,,41,41,49,22,28,115,,68,68,6,50,2,2,0.3,0.4
2024-09-29T1300,1044A,119.5897,39.9499,秦皇岛市,监测站,,42,36,47,29,28,104,,53,53,12,47,3,3,0.3,0.4
2024-09-29T1300,1046A,119.5251,39.9041,秦皇岛市,建设大厦,,35,30,50,8,18,112,,60,60,4,36,2,2,0.3,0.4
2024-09-29T1300,3132A,119.610547,39.943889,秦皇岛市,文明里,颗粒物(PM10),51,51,54,11,21,111,,63,63,8,44,2,2,0.4,0.5
2024-09-29T1300,1307A,120.6659,36.2403,青岛市,仰口,,35,19,14,16,13,109,,104,104,4,3,7,6,0.4,0.7
2024-09-29T1300,1310A,120.4134,36.0658,青岛市,市南区东部子站,,41,17,15,9,8,129,,124,124,5,8,6,6,0.4,0.5
2024-09-29T1300,1311A,120.3664,36.1032,青岛市,四方区子站,,41,24,16,14,11,131,,125,125,13,14,9,9,0.5,0.5
2024-09-29T1300,1312A,120.2994,36.054,青岛市,市南区西部子站,,44,19,17,3,4,138,,134,134,5,6,8,8,0.6,0.6
2024-09-29T1300,1313A,120.4581,36.0858,青岛市,崂山区子站,,45,12,10,9,5,143,,138,138,11,9,8,8,0.5,0.5
2024-09-29T1300,1314A,120.1983,35.9608,青岛市,黄岛区子站,,41,17,13,10,9,130,,132,131,5,6,8,8,0.5,0.4
2024-09-29T1300,1315A,120.3999,36.3083,青岛市,城阳区子站,,40,24,32,10,13,126,,93,93,9,43,7,7,0.5,0.7
2024-09-29T1300,1966A,120.0405,35.8735,青岛市,黄岛区4号,,41,17,16,9,5,131,,133,133,5,5,5,5,0.5,0.5
2024-09-29T1300,3362A,120.5014,36.4034,青岛市,即墨2号,,39,24,19,10,11,122,,104,104,6,10,6,6,0.4,0.4
2024-09-29T1300,3642A,120.3503,36.0736,青岛市,市北区南部,,39,19,21,12,7,123,,119,119,9,14,6,7,0.4,0.4
2024-09-29T1300,3643A,120.3948,36.1805,青岛市,李沧区北部,,40,19,26,17,14,126,,114,114,9,19,8,8,0.6,0.6
2024-09-29T1300,1702A,113.0426,23.691,清远市,环保大楼,,38,38,45,14,20,121,,56,56,9,18,7,7,0.9,1
2024-09-29T1300,1703A,113.0208,23.7106,清远市,凤城街办,,39,30,30,19,19,123,,55,55,11,13,7,7,0.7,0.8
2024-09-29T1300,3025A,113.0477,23.6344,清远市,技师学院,,47,38,40,21,20,149,,59,59,12,22,6,7,0.8,0.8
2024-09-29T1300,3318A,112.9903,23.7403,清远市,清新太和,,37,26,30,16,18,117,,53,53,9,11,2,2,0.7,0.8
2024-09-29T1300,3455A,113.076,23.7198,清远市,清城东城,,38,24,28,10,16,121,,58,58,4,8,4,4,0.7,0.8
2024-09-29T1300,2661A,107.6325,35.7357,庆阳市,庆阳五中,,20,12,53,3,27,63,,98,72,6,7,6,7,0.4,0.5
2024-09-29T1300,2662A,107.6364,35.7067,庆阳市,市环保局,,21,14,52,3,27,67,,97,76,8,8,6,7,0.3,0.4
2024-09-29T1300,1916A,103.7897,25.5035,曲靖市,环境监测站,,20,20,19,6,9,47,,34,34,5,9,2,3,0.7,0.7
2024-09-29T1300,1917A,103.8,25.5364,曲靖市,烟厂办公区,,16,12,18,3,9,49,,37,37,5,9,4,4,0.4,0.4
2024-09-29T1300,3376A,103.7947,25.462,曲靖市,南苑二区,,15,9,14,6,8,48,,35,35,4,8,6,6,0.3,0.3
2024-09-29T1300,3377A,103.7444,25.5261,曲靖市,曲靖师范学院,,16,,15,7,9,50,,38,38,5,9,6,8,0.5,0.5
2024-09-29T1300,1264A,118.8692,28.9398,衢州市,环保大楼,,36,20,44,12,26,115,,89,89,8,17,3,3,0.5,0.5
2024-09-29T1300,1265A,118.8709,28.9666,衢州市,实验学校,,35,25,39,15,26,111,,94,94,5,14,6,6,0.6,0.6
2024-09-29T1300,1266A,118.8621,28.9808,衢州市,衢州学院,,32,21,40,12,24,102,,90,90,6,17,7,7,0.5,0.6
2024-09-29T1300,1611A,118.5819,24.9117,泉州市,涂山街,,26,18,27,12,16,82,,89,79,5,9,2,2,0.5,0.6
2024-09-29T1300,1612A,118.5972,24.8978,泉州市,津头埔,,25,23,31,11,16,80,,85,75,6,11,4,4,0.7,0.6
2024-09-29T1300,1613A,118.6663,24.9424,泉州市,万安,,25,23,28,10,15,80,,91,80,5,7,2,2,0.6,0.6
2024-09-29T1300,3529A,118.6333,24.9264,泉州市,城华南路,,26,17,24,10,13,81,,93,82,3,6,3,3,0.3,0.3
2024-09-29T1300,2626A,88.8876,29.2718,日喀则市,日喀则监测站,,27,9,9,3,4,86,,50,50,4,9,5,6,0.4,0.4
2024-09-29T1300,3726A,88.8781,29.2426,日喀则市,林业技术推广中心,,27,6,10,3,2,85,,48,48,5,9,6,6,0.6,0.6
2024-09-29T1300,1659A,119.471,35.4209,日照市,监测站,,40,22,17,12,13,125,,86,86,10,26,11,11,0.4,0.5
2024-09-29T1300,1660A,119.523,35.4216,日照市,市政府广场,,43,19,20,15,10,137,,118,118,7,9,9,9,0.4,0.4
2024-09-29T1300,1661A,119.5587,35.4044,日照市,港务局,,45,22,18,14,13,141,,136,136,4,4,10,8,0.3,0.3
2024-09-29T1300,3507A,119.5328,35.4625,日照市,职业技术学院,,43,29,19,17,10,135,,114,114,7,9,8,8,0.5,0.5
2024-09-29T1300,3604A,119.3266,35.1044,日照市,岚山环保分局,,40,17,23,12,12,125,,117,117,6,12,8,9,0.5,0.5
2024-09-29T1300,1835A,111.1922,34.7752,三门峡市,市政府,颗粒物(PM10),59,67,66,37,32,110,,106,102,20,16,11,13,0.9,0.8
2024-09-29T1300,1836A,111.1587,34.7942,三门峡市,开发区,颗粒物(PM10),73,96,77,48,36,108,,105,102,21,16,10,11,0.7,0.6
2024-09-29T1300,1838A,111.143,34.7955,三门峡市,风景区,颗粒物(PM10),67,83,70,42,30,121,,116,114,18,15,10,11,0.8,0.8
2024-09-29T1300,3039A,111.1911,34.7829,三门峡市,三门峡市第一小学,颗粒物(PM10),63,76,68,40,32,110,,105,102,19,15,9,12,0.7,0.7
2024-09-29T1300,3598A,111.1,34.7167,三门峡市,富达温泉假日酒店,,,104,84,,39,86,,112,94,22,18,10,11,0.4,0.8
2024-09-29T1300,2324A,117.6211,26.2625,三明市,三钢,,30,27,19,18,13,96,,64,64,6,11,7,7,0.5,0.5
2024-09-29T1300,2325A,117.635,26.2714,三明市,三明二中,,31,28,24,13,7,97,,69,69,6,10,4,4,0.4,0.4
2024-09-29T1300,2326A,117.6028,26.2378,三明市,三元区政府,,30,14,24,7,8,94,,62,62,7,20,3,3,0.3,0.5
2024-09-29T1300,1876A,109.5078,18.2489,三亚市,河东子站,,13,13,12,3,6,35,,12,,1,5,4,4,0.2,0.2
2024-09-29T1300,1877A,109.4964,18.2681,三亚市,河西子站,,,,13,6,8,32,,17,17,2,9,,3,0.2,0.2
2024-09-29T1300,3540A,109.7348,18.3443,三亚市,君悦子站,,13,8,13,3,6,39,,24,24,3,8,3,3,0.3,0.3
2024-09-29T1300,2624A,91.7608,29.2313,山南市,山南监测站,,20,12,14,6,6,61,,31,31,4,10,9,9,0.3,0.4
2024-09-29T1300,2625A,91.7706,29.2436,山南市,山南人民医院,,20,8,11,3,5,64,,34,34,7,12,10,9,0.3,0.3
2024-09-29T1300,1674A,116.6794,23.3667,汕头市,金平子站,,29,23,30,8,21,90,,66,66,4,16,6,10,0.7,1
2024-09-29T1300,1675A,116.7244,23.3633,汕头市,龙湖子站,颗粒物(PM10),52,53,34,14,14,79,,65,65,2,11,7,10,0.4,0.7
2024-09-29T1300,1676A,116.7258,23.2775,汕头市,濠江子站,,36,36,31,9,24,73,,,,4,12,6,8,0.6,0.8
2024-09-29T1300,1677A,116.7519,23.4714,汕头市,澄海子站,,26,21,35,3,18,81,,62,62,7,19,7,8,0.6,0.8
2024-09-29T1300,1678A,116.6092,23.2539,汕头市,潮阳子站,,32,25,30,3,8,101,,64,64,4,10,6,6,0.5,0.6
2024-09-29T1300,3444A,116.454,23.2684,汕头市,潮南峡山,,33,10,35,6,16,104,,61,61,2,10,7,7,0.4,0.5
2024-09-29T1300,3624A,116.4069,23.2533,汕头市,潮南子站,,30,18,35,6,22,94,,59,59,13,17,6,6,0.6,0.8
2024-09-29T1300,1693A,115.3653,22.775,汕尾市,市环保局,,36,31,19,15,10,114,,74,74,8,10,8,7,0.7,0.7
2024-09-29T1300,1694A,115.3706,22.7898,汕尾市,市政府,,29,26,19,20,10,80,,60,60,7,12,8,8,0.4,0.6
2024-09-29T1300,1695A,115.3622,22.7925,汕尾市,新城中学,,41,41,20,10,9,85,,64,64,4,9,6,6,0.7,0.8
2024-09-29T1300,2645A,109.9154,33.8715,商洛市,监测站,,21,,66,9,37,65,,119,104,10,19,5,8,0.5,0.8
2024-09-29T1300,3045A,109.9643,33.8471,商洛市,商州区中学,,36,36,74,16,42,69,,116,102,9,31,6,11,0.5,0.8
2024-09-29T1300,2408A,115.6702,34.4285,商丘市,环境监测站,,42,34,47,19,19,133,,92,92,8,13,5,4,0.4,0.4
2024-09-29T1300,2409A,115.6458,34.4045,商丘市,粮食局,,50,50,43,25,23,143,,100,100,5,8,5,5,0.5,0.5
2024-09-29T1300,2410A,115.6293,34.3948,商丘市,睢阳区环保局,,49,49,44,16,18,138,,94,94,7,12,5,4,0.4,0.4
2024-09-29T1300,3171A,115.6071,34.4465,商丘市,梁园区档案局,,42,42,44,16,19,129,,92,92,6,9,4,5,0.6,0.6
2024-09-29T1300,1141A,121.4,31.238,上海市,普陀,,,34,35,13,13,98,,80,80,9,17,5,5,,0.7
2024-09-29T1300,1142A,121.478,31.2036,上海市,十五厂,,38,38,33,20,17,103,,81,81,13,18,9,8,0.4,0.4
2024-09-29T1300,1143A,121.467,31.3008,上海市,虹口,,32,32,34,13,16,88,,70,70,11,27,9,9,0.5,0.5
2024-09-29T1300,1144A,121.412,31.1654,上海市,徐汇上师大,,36,36,33,14,16,102,,78,78,15,21,6,6,0.6,0.6
2024-09-29T1300,1145A,121.536,31.2659,上海市,杨浦四漂,,,39,40,,15,91,,73,73,,22,7,7,,0.5
2024-09-29T1300,1147A,121.425,31.2261,上海市,静安监测站,,31,31,31,15,14,99,,78,78,12,21,6,6,0.4,0.5
2024-09-29T1300,1148A,121.703,31.1907,上海市,浦东川沙,,34,34,31,11,11,102,,82,82,8,16,6,6,0.5,0.5
2024-09-29T1300,1149A,121.533,31.2284,上海市,浦东新区监测站,,30,30,30,14,15,96,,74,74,13,18,6,6,0.3,0.6
2024-09-29T1300,1150A,121.577,31.2071,上海市,浦东张江,,34,34,31,15,15,82,,71,71,18,22,5,5,0.7,0.7
2024-09-29T1300,3265A,121.4316,31.3322,上海市,宝山庙行,,40,40,35,18,15,85,,66,66,20,30,14,8,0.9,0.7
2024-09-29T1300,3266A,121.8791,31.4662,上海市,崇明上实东滩,,31,27,21,10,8,98,,85,85,3,4,11,11,0.6,0.6
2024-09-29T1300,3268A,121.3162,31.2838,上海市,嘉定南翔,,31,31,33,10,16,97,,63,63,11,29,7,7,0.4,0.5
2024-09-29T1300,3269A,121.3359,30.7456,上海市,金山新城,,32,30,32,16,17,100,,72,72,4,15,5,5,0.4,0.4
2024-09-29T1300,3270A,121.4996,31.0739,上海市,闵行浦江,,33,33,32,15,16,101,,74,74,8,18,6,6,0.5,0.5
2024-09-29T1300,3271A,121.2886,31.1663,上海市,青浦徐泾,,36,35,32,15,15,113,,79,79,11,18,6,6,0.4,0.5
2024-09-29T1300,3272A,121.2186,31.0378,上海市,松江图书馆,,34,33,32,13,15,107,,73,73,11,20,4,4,0.5,0.5
2024-09-29T1300,3273A,121.3902,31.2059,上海市,长宁仙霞,,36,36,32,17,14,106,,80,80,10,17,6,6,0.6,0.7
2024-09-29T1300,3274A,121.7965,31.0507,上海市,浦东惠南,,36,36,34,13,12,101,,79,79,8,12,9,9,0.7,0.7
2024-09-29T1300,3544A,121.4891,30.925,上海市,奉贤南桥新城,,32,32,36,21,17,98,,69,69,9,17,8,8,0.6,0.7
2024-09-29T1300,2381A,118.005,28.4572,上饶市,百草园,,45,32,40,3,24,141,,121,121,6,11,2,3,0.7,0.7
2024-09-29T1300,2382A,117.9756,28.4436,上饶市,市监测站,,47,37,38,15,20,149,,124,124,7,12,3,4,0.7,0.7
2024-09-29T1300,2383A,117.9519,28.4628,上饶市,凤凰光学,,45,34,37,10,19,144,,121,121,6,14,5,5,0.7,0.7
2024-09-29T1300,3413A,118.1953,28.4401,上饶市,广丰区教体局,,46,46,42,18,23,147,,116,116,8,13,12,14,0.3,0.7
2024-09-29T1300,3685A,117.897,28.4315,上饶市,双创科技城,,46,38,39,17,20,145,,125,125,7,14,4,4,0.5,0.6
2024-09-29T1300,1669A,113.5824,24.7733,韶关市,市八中,,44,44,39,24,23,117,,56,56,1,10,12,12,0.6,0.7
2024-09-29T1300,1671A,113.5917,24.7972,韶关市,园林处,,35,15,31,15,23,109,,55,55,2,14,11,13,0.7,0.7
