timepoint,stationcode,longitude,latitude,area,positionname,primarypollutant,aqi,pm10,pm10_24h,pm2_5,pm2_5_24h,o3,o3_24h,o3_8h,o3_8h_24h,no2,no2_24h,so2,so2_24h,co,co_24h
2024-09-29T1400,2566A,102.1879,31.914,阿坝藏族羌族自治州,州农科所,,19,13,17,3,7,58,,35,35,17,9,8,7,0.1,0
2024-09-29T1400,3994A,102.2165,31.9024,阿坝藏族羌族自治州,马尔康中学西区,,19,,16,13,16,59,,29,29,9,7,1,3,0.5,0.5
2024-09-29T1400,2695A,80.292,41.1694,阿克苏地区,电视台,颗粒物(PM10),71,92,62,13,23,103,,56,56,7,16,5,3,1.2,0.5
2024-09-29T1400,2696A,80.2613,41.1551,阿克苏地区,艺术中心,,46,46,70,16,25,108,,54,54,6,15,3,4,0.4,0.6
2024-09-29T1400,2204A,105.6467,38.8363,阿拉善盟,西城区西花园,,32,24,45,13,31,101,,91,89,8,8,7,8,0.9,1
2024-09-29T1400,2205A,105.6985,38.8411,阿拉善盟,蒙二幼,,30,19,45,3,19,93,,84,82,6,7,5,6,0.5,0.6
2024-09-29T1400,2206A,105.724,38.8516,阿拉善盟,环保局新楼,,30,6,34,3,17,96,,85,84,5,7,8,8,0.5,0.5
2024-09-29T1400,2708A,88.1264,47.8517,阿勒泰地区,市站,,26,26,19,3,6,60,,44,40,10,12,8,8,0.3,0.2
2024-09-29T1400,2630A,80.1161,32.5,阿里地区,阿里监测站,,38,6,15,3,7,120,,72,72,2,17,6,6,0.3,0.4
2024-09-29T1400,3192A,80.0903,32.5028,阿里地区,阿里藏医院,,37,9,15,3,3,118,,90,82,3,9,6,6,0.4,0.3
2024-09-29T1400,2642A,109.0318,32.6537,安康市,香溪洞,颗粒物(PM10),123,195,140,48,51,110,,127,114,13,12,7,8,0.5,0.5
2024-09-29T1400,2643A,109.0281,32.6939,安康市,安康市监测站,细颗粒物(PM2.5),63,66,81,45,51,116,,93,93,8,13,8,10,0.8,0.8
2024-09-29T1400,2644A,109.0072,32.6975,安康市,汉滨区检察院,细颗粒物(PM2.5),65,63,84,47,57,117,,91,91,10,12,8,8,0.6,0.7
2024-09-29T1400,2291A,117.0809,30.5177,安庆市,环科院,,49,40,41,16,26,154,,123,123,8,15,8,9,0.6,0.7
2024-09-29T1400,2292A,117.0331,30.5119,安庆市,马山宾馆,臭氧1小时,59,41,41,16,24,167,,131,131,11,16,9,10,0.4,0.6
2024-09-29T1400,2294A,116.9896,30.6145,安庆市,安庆大学,臭氧1小时,60,37,38,21,24,168,,122,122,11,11,8,8,0.4,0.4
2024-09-29T1400,3173A,117.0598,30.5351,安庆市,市人大,臭氧1小时,57,42,42,20,29,165,,125,125,10,16,10,9,0.6,0.7
2024-09-29T1400,3123A,105.9408,26.2431,安顺市,凤凰山,,22,21,28,15,21,54,,51,42,4,5,4,4,0.4,0.4
2024-09-29T1400,3124A,105.9439,26.2564,安顺市,金钟山,,23,23,27,16,24,56,,55,45,4,5,7,7,0.8,0.7
2024-09-29T1400,3125A,105.8983,26.2481,安顺市,娄家坡,,20,15,20,14,19,59,,53,47,3,5,6,6,0.5,0.5
2024-09-29T1400,1819A,114.3551,36.1017,安阳市,红庙街,颗粒物(PM10),51,51,66,33,35,153,,100,100,8,24,6,7,0.3,0.4
2024-09-29T1400,1820A,114.361,36.0681,安阳市,银杏小区,,,54,73,,18,149,,94,94,5,22,4,4,0.6,0.7
2024-09-29T1400,3141A,114.3922,36.0878,安阳市,信访局,颗粒物(PM10),60,69,71,33,22,158,,102,102,5,22,4,5,0.7,0.7
2024-09-29T1400,3669A,114.4705,36.0637,安阳市,左辅环卫站,颗粒物(PM10),61,71,98,30,38,153,,93,93,10,33,5,7,0.4,0.5
2024-09-29T1400,3703A,114.2917,36.0949,安阳市,安钢职工学校,颗粒物(PM10),54,58,83,37,44,137,,90,90,12,29,6,6,0.6,0.7
2024-09-29T1400,1748A,123.044,41.1196,鞍山市,深沟寺,,32,32,39,18,22,102,,85,85,6,15,5,6,0.5,0.6
2024-09-29T1400,1749A,123.011,41.0931,鞍山市,太阳城,,37,37,38,21,20,105,,87,87,6,14,7,8,0.4,0.6
2024-09-29T1400,1750A,123.0485,41.1442,鞍山市,太平,,38,38,52,17,25,101,,82,82,9,32,7,10,0.6,0.9
2024-09-29T1400,1751A,122.9642,41.0971,鞍山市,铁西三道街,颗粒物(PM10),53,55,80,18,31,95,,76,76,10,42,4,7,0.6,0.8
2024-09-29T1400,1752A,122.9341,41.0833,鞍山市,铁西工业园区,,46,46,78,17,34,90,,62,62,17,49,7,8,0.6,0.9
2024-09-29T1400,1753A,123.022,41.0821,鞍山市,明达新区,,44,44,47,23,23,94,,82,82,7,17,4,6,0.4,0.6
2024-09-29T1400,2195A,107.4212,40.761,巴彦淖尔市,附二中,,29,24,61,20,33,62,,65,56,5,7,4,5,0.3,0.5
2024-09-29T1400,2196A,107.37,40.7372,巴彦淖尔市,市环保大楼,,23,23,59,13,28,65,,62,58,5,6,4,4,0.2,0.3
2024-09-29T1400,1956A,86.1472,41.7538,巴音郭楞蒙古自治州,孔雀公园,颗粒物(PM10),86,121,65,48,22,79,,75,75,4,6,5,5,0.2,0.3
2024-09-29T1400,1957A,86.1972,41.7166,巴音郭楞蒙古自治州,棉纺厂,颗粒物(PM10),100,150,50,50,18,78,,75,71,7,8,4,5,0.2,0.2
2024-09-29T1400,1958A,86.2357,41.7173,巴音郭楞蒙古自治州,经济开发区,颗粒物(PM10),86,121,35,50,22,76,,82,79,10,5,6,6,0.2,0.2
2024-09-29T1400,2914A,106.7677,31.8794,巴中市,苏山坪,,25,18,44,13,33,78,,87,83,7,7,2,3,0.5,0.5
2024-09-29T1400,3182A,106.7656,31.8545,巴中市,丽阳花园,,32,29,45,22,34,77,,27,27,10,26,5,5,0.7,0.9
2024-09-29T1400,3183A,106.7418,31.8654,巴中市,圣泉水务公司,,36,29,41,25,34,75,,31,31,12,21,3,3,0.7,0.7
2024-09-29T1400,3616A,106.7616,31.8344,巴中市,市中心医院,,39,39,47,27,35,72,,26,26,12,29,5,5,0.7,0.8
2024-09-29T1400,2235A,122.7911,45.6077,白城市,洮北区环保局,,45,40,43,20,26,142,,113,113,8,11,6,5,0.5,0.6
2024-09-29T1400,2236A,122.8738,45.5725,白城市,市环保局,颗粒物(PM10),56,61,47,20,23,135,,107,107,10,14,5,6,0.4,0.5
2024-09-29T1400,2231A,126.4219,41.9171,白山市,喜丰,,31,24,44,7,16,98,,52,52,5,19,8,9,0.5,0.6
2024-09-29T1400,2232A,126.4077,41.9419,白山市,环保局,,27,17,41,3,15,86,,45,45,13,20,9,8,0.6,0.7
2024-09-29T1400,2647A,104.1724,36.5446,白银市,第三小学,,26,26,39,6,16,82,,83,83,9,10,8,28,0.1,0.3
2024-09-29T1400,2648A,104.1465,36.5482,白银市,动力公司,,26,24,31,8,18,82,,82,82,5,9,3,18,0.3,0.4
2024-09-29T1400,2512A,106.6103,23.9011,百色市,市监测站,,42,42,45,24,25,61,,43,41,9,14,16,20,0.6,0.7
2024-09-29T1400,2513A,106.6538,23.8859,百色市,市中心血站,,46,46,46,27,29,56,,53,46,9,12,17,17,0.7,0.6
2024-09-29T1400,3406A,106.6085,23.8798,百色市,祈福高中,,39,39,51,21,25,60,,38,38,7,17,11,16,0.7,0.8
2024-09-29T1400,2270A,117.396,32.939,蚌埠市,工人疗养院,,45,44,44,17,16,142,,98,98,5,11,6,7,0.4,0.4
2024-09-29T1400,2271A,117.3605,32.9427,蚌埠市,百货大楼,,43,40,42,14,14,135,,91,91,4,12,7,7,0.4,0.4
2024-09-29T1400,2273A,117.4185,32.8911,蚌埠市,蚌埠学院,,43,36,37,20,18,137,,99,99,5,11,7,7,0.5,0.4
2024-09-29T1400,2274A,117.3533,32.9673,蚌埠市,淮上区政府,,44,44,38,21,20,131,,92,92,6,9,6,6,0.4,0.4
2024-09-29T1400,2275A,117.3145,32.8977,蚌埠市,高新区,,41,41,36,18,18,131,,96,96,6,11,6,7,0.5,0.4
2024-09-29T1400,3715A,117.3092,32.9314,蚌埠市,蚌埠田家炳中学,,43,39,42,17,19,136,,97,97,3,11,6,7,0.3,0.3
2024-09-29T1400,1585A,109.8756,40.6532,包头市,市环境监测站,,17,8,40,3,23,53,,65,54,10,24,4,9,0.5,0.8
2024-09-29T1400,1587A,109.9991,40.5842,包头市,包头八中,,17,12,42,3,22,53,,62,53,9,20,2,6,0.6,0.8
2024-09-29T1400,1588A,109.8538,40.6821,包头市,青山宾馆,,17,11,35,3,14,54,,66,56,11,22,4,10,0.6,1
2024-09-29T1400,1589A,109.8642,40.6288,包头市,惠龙物流,,16,12,41,3,22,49,,56,53,7,18,6,5,1.0,1.2
2024-09-29T1400,1590A,110.0377,40.5546,包头市,东河鸿龙湾,,17,6,39,6,23,52,,61,52,6,21,9,15,0.6,0.8
2024-09-29T1400,3283A,109.9154,40.5685,包头市,滨河大厦,,17,6,39,3,23,54,,63,56,10,22,8,10,0.3,0.6
2024-09-29T1400,3419A,109.9447,40.6261,包头市,包头市委党校,,17,6,41,3,25,53,,65,55,10,20,4,12,0.3,0.6
2024-09-29T1400,3683A,109.8331,40.6576,包头市,昆区政府,,16,7,38,3,22,50,,64,53,10,20,4,7,0.4,0.7
2024-09-29T1400,1930A,107.185,34.3063,宝鸡市,庙沟村,,24,,66,7,45,74,,84,84,4,11,10,10,0.2,0.5
2024-09-29T1400,1931A,107.0708,34.3017,宝鸡市,竹园沟,,22,8,62,7,42,68,,75,75,10,17,7,7,0.4,0.7
2024-09-29T1400,1932A,107.1906,34.3672,宝鸡市,三陆医院,,20,8,70,7,46,64,,65,65,14,24,6,6,0.1,0.6
2024-09-29T1400,1933A,107.1431,34.3547,宝鸡市,监测站,,21,6,69,3,42,67,,72,72,14,22,6,6,0.6,0.8
2024-09-29T1400,1934A,107.1186,34.3739,宝鸡市,技工学校,,22,7,73,3,51,70,,74,74,14,18,7,7,0.5,0.8
2024-09-29T1400,1935A,107.3906,34.3528,宝鸡市,陈仓区环保局家属楼,,22,8,79,7,49,68,,71,71,14,27,9,9,0.4,0.6
2024-09-29T1400,1936A,107.2058,34.3497,宝鸡市,文理学院,,23,,75,9,44,71,,76,76,13,22,8,8,0.4,0.6
2024-09-29T1400,1937A,107.2386,34.3622,宝鸡市,三迪小学,,21,,73,6,41,67,,68,68,15,28,8,8,0.4,0.7
2024-09-29T1400,1051A,115.493,38.8632,保定市,游泳馆,细颗粒物(PM2.5),63,62,76,45,56,137,,74,74,6,20,5,5,0.3,0.5
2024-09-29T1400,1052A,115.5213,38.8959,保定市,华电二区,细颗粒物(PM2.5),54,55,76,38,54,124,,61,61,13,27,3,3,0.2,0.3
2024-09-29T1400,1053A,115.4713,38.9108,保定市,接待中心,颗粒物(PM10),61,72,83,39,52,118,,64,64,17,26,4,4,0.4,0.5
2024-09-29T1400,1054A,115.4612,38.8416,保定市,地表水厂,颗粒物(PM10),58,65,82,40,48,133,,70,70,10,23,3,3,0.2,0.4
2024-09-29T1400,3581A,115.31981,38.95208,保定市,满城区生态环境分局,细颗粒物(PM2.5),92,122,94,68,54,108,,69,69,27,27,6,5,0.6,0.6
2024-09-29T1400,3582A,115.47694,38.76408,保定市,清苑区第二中学,细颗粒物(PM2.5),72,71,94,52,57,140,,72,72,10,28,4,4,0.5,0.6
2024-09-29T1400,3583A,115.62909,39.02311,保定市,徐水物探局,,,89,78,,63,117,,53,53,22,30,8,6,0.5,0.5
2024-09-29T1400,4004A,115.4202,38.8656,保定市,双鹰农机,颗粒物(PM10),58,66,86,32,46,139,,75,75,18,28,3,3,0.5,0.6
2024-09-29T1400,4034A,115.5150,38.8590,保定市,植保所站,颗粒物(PM10),61,71,89,40,56,144,,71,71,11,26,6,5,0.5,0.5
2024-09-29T1400,2594A,99.1678,25.1081,保山市,市环境监测站,,15,15,19,3,11,45,,28,28,4,6,4,5,0.5,0.5
2024-09-29T1400,2595A,99.1711,25.1328,保山市,市环保局,,17,17,22,3,7,50,,32,32,2,4,5,6,0.4,0.4
2024-09-29T1400,1867A,109.1436,21.4086,北海市,海滩公园,,27,12,11,3,3,85,,48,48,3,7,5,5,0.5,0.5
2024-09-29T1400,1868A,109.0981,21.4661,北海市,新市环保局,,27,18,11,7,6,84,,47,47,5,8,4,4,0.6,0.5
2024-09-29T1400,1869A,109.1778,21.5233,北海市,北海工业园,,25,19,23,10,13,80,,46,46,4,13,5,6,0.4,0.5
2024-09-29T1400,3400A,109.1911,21.4415,北海市,龙潭自来水厂,,26,13,9,3,8,82,,45,45,4,10,6,6,0.5,0.5
2024-09-29T1400,1001A,116.3621,39.8784,北京市,万寿西宫,细颗粒物(PM2.5),103,95,76,77,56,129,,68,68,20,28,4,3,0.8,1.1
2024-09-29T1400,1002A,116.2202,40.2915,北京市,定陵,细颗粒物(PM2.5),124,,59,94,71,64,,52,52,13,11,1,2,0.9,0.9
2024-09-29T1400,1003A,116.4174,39.9289,北京市,东四,细颗粒物(PM2.5),99,105,80,74,50,138,,79,79,20,31,5,4,0.9,1.1
2024-09-29T1400,1004A,116.4072,39.8863,北京市,天坛,细颗粒物(PM2.5),83,94,73,61,47,122,,68,68,18,29,2,2,0.7,1
2024-09-29T1400,1005A,116.462,39.9365,北京市,农展馆,细颗粒物(PM2.5),83,91,71,61,45,127,,70,70,22,33,2,2,0.7,1
2024-09-29T1400,1006A,116.3392,39.9295,北京市,官园,细颗粒物(PM2.5),80,96,77,59,45,127,,71,71,21,29,9,8,0.9,1.1
2024-09-29T1400,1007A,116.2878,39.9611,北京市,海淀万柳,细颗粒物(PM2.5),82,85,66,60,45,83,,56,56,26,33,5,4,0.8,0.8
2024-09-29T1400,1008A,116.6636,40.135,北京市,顺义新城,细颗粒物(PM2.5),80,94,59,59,35,113,,72,72,22,21,2,3,0.7,0.8
2024-09-29T1400,1009A,116.6275,40.3275,北京市,怀柔镇,细颗粒物(PM2.5),77,78,49,56,37,110,,74,74,20,18,2,2,0.9,1
2024-09-29T1400,1010A,116.2296,40.217,北京市,昌平镇,细颗粒物(PM2.5),77,93,63,56,39,88,,63,63,21,25,3,4,0.9,0.9
2024-09-29T1400,1011A,116.3966,39.9821,北京市,奥体中心,细颗粒物(PM2.5),98,100,73,73,50,112,,64,64,25,37,4,4,1.0,1.1
2024-09-29T1400,1012A,116.184,39.9136,北京市,古城,细颗粒物(PM2.5),108,142,106,81,68,96,,47,47,25,35,3,3,1.0,1.1
2024-09-29T1400,3281A,115.9718,40.4529,北京市,延庆夏都,细颗粒物(PM2.5),67,66,67,48,47,92,,77,77,10,11,3,2,0.7,0.8
2024-09-29T1400,3417A,117.0709,40.1465,北京市,平谷新城,颗粒物(PM10),69,88,68,47,37,139,,103,103,14,12,3,4,0.8,0.9
2024-09-29T1400,3418A,116.8336,40.4095,北京市,密云新城,细颗粒物(PM2.5),73,78,44,53,29,117,,54,54,19,13,2,3,0.7,0.7
2024-09-29T1400,3671A,116.088,39.9726,北京市,门头沟三家店,细颗粒物(PM2.5),98,112,73,73,46,42,,28,28,25,25,8,8,0.9,0.7
2024-09-29T1400,3672A,116.1541,39.8204,北京市,丰台云岗,细颗粒物(PM2.5),124,110,75,94,63,95,,49,49,20,28,5,4,0.8,0.9
2024-09-29T1400,3673A,116.6804,39.9081,北京市,通州东关,细颗粒物(PM2.5),75,87,86,55,47,140,,80,80,18,32,3,2,0.6,1
2024-09-29T1400,3674A,115.9577,39.7603,北京市,房山燕山,细颗粒物(PM2.5),115,117,75,87,53,87,,48,48,23,21,3,2,0.7,0.7
2024-09-29T1400,3675A,116.4672,39.7733,北京市,大兴旧宫,细颗粒物(PM2.5),85,94,75,63,48,127,,72,72,19,27,3,3,0.6,0.9
2024-09-29T1400,3694A,115.986,40.4563,北京市,延庆石河营,细颗粒物(PM2.5),74,60,62,54,53,91,,75,75,9,10,3,2,0.7,0.7
2024-09-29T1400,3695A,116.6151,40.3053,北京市,怀柔新城,细颗粒物(PM2.5),75,84,50,55,36,105,,70,70,17,11,1,2,0.9,0.9
2024-09-29T1400,3696A,116.2545,39.8768,北京市,丰台小屯,细颗粒物(PM2.5),103,108,78,77,52,104,,56,56,19,26,2,2,0.8,1
2024-09-29T1400,3697A,116.84,40.3844,北京市,密云镇,细颗粒物(PM2.5),84,84,47,62,32,112,,46,46,15,24,4,3,0.8,0.8
2024-09-29T1400,1761A,123.8275,41.3064,本溪市,大峪,,33,26,37,12,18,103,,74,74,7,22,9,10,0.5,0.7
2024-09-29T1400,1762A,123.7567,41.3325,本溪市,溪湖,,32,32,57,10,21,99,,70,70,10,27,10,10,0.7,1.5
2024-09-29T1400,1763A,123.7169,41.3094,本溪市,彩屯,,30,30,48,15,24,88,,71,71,19,31,14,11,1.3,1.3
2024-09-29T1400,1764A,123.7669,41.2864,本溪市,东明,,32,27,53,15,21,102,,70,70,10,38,6,6,0.6,0.9
2024-09-29T1400,1765A,123.7992,41.2664,本溪市,新立屯,,34,30,34,8,10,108,,92,90,10,28,6,6,0.5,0.6
2024-09-29T1400,1766A,123.8142,41.3472,本溪市,威宁,,34,34,55,9,20,106,,68,68,7,27,8,9,0.4,0.6
2024-09-29T1400,2587A,105.2864,27.3125,毕节市,八中,,32,30,34,22,27,68,,51,51,7,13,7,8,0.4,0.5
2024-09-29T1400,2588A,105.31,27.2944,毕节市,师专,,29,26,31,20,24,66,,50,50,6,10,8,11,0.5,0.5
2024-09-29T1400,3537A,105.3631,27.3533,毕节市,长征村,,48,41,46,33,38,72,,57,57,4,7,7,10,0.5,0.5
2024-09-29T1400,1629A,118.0018,37.3617,滨州市,第二水厂,臭氧1小时,63,48,59,14,29,170,,102,102,10,28,8,13,0.4,0.5
2024-09-29T1400,1630A,117.9776,37.393,滨州市,北中新校,臭氧1小时,89,53,60,19,28,191,,117,117,6,18,9,14,0.5,0.7
2024-09-29T1400,3514A,117.9378,37.3956,滨州市,中海酒店,臭氧1小时,92,53,53,22,29,193,,120,120,16,27,9,12,0.6,0.7
2024-09-29T1400,3515A,117.9378,37.3553,滨州市,开发区一中,臭氧1小时,63,46,58,22,31,170,,121,121,14,32,9,18,0.7,0.8
2024-09-29T1400,3516A,118.0917,37.694,滨州市,金海六路,臭氧1小时,62,49,51,14,24,169,,115,115,7,16,12,7,0.6,0.8
2024-09-29T1400,4028A,117.9956,37.3753,滨州市,滨州市西街道办事处,臭氧1小时,99,51,55,29,36,199,,116,116,8,24,9,15,0.5,0.7
2024-09-29T1400,2311A,115.8072,33.8399,亳州市,污水处理厂,,45,39,38,19,17,142,,101,101,10,16,5,11,0.5,0.5
2024-09-29T1400,2312A,115.7789,33.8518,亳州市,三国揽胜宫,,43,40,37,18,17,136,,95,95,8,11,3,5,0.5,0.5
2024-09-29T1400,3332A,115.7633,33.8034,亳州市,亳州学院,,45,39,39,20,13,144,,100,100,7,11,3,4,0.5,0.5
2024-09-29T1400,2693A,82.0485,44.8556,博尔塔拉蒙古自治州,市党校,,30,30,30,7,11,67,,40,40,6,11,4,4,0.4,0.4
2024-09-29T1400,2694A,82.0806,44.8969,博尔塔拉蒙古自治州,市环保局,,25,25,36,7,12,66,,39,39,7,11,1,4,0.3,0.3
2024-09-29T1400,1071A,116.8842,38.2991,沧州市,沧县城建局,臭氧1小时,58,52,60,21,37,166,,98,98,11,27,4,5,0.5,0.6
2024-09-29T1400,1072A,116.8584,38.3254,沧州市,电视转播站,臭氧1小时,65,37,46,19,32,172,,128,128,12,22,8,8,0.5,0.5
2024-09-29T1400,1073A,116.8709,38.3228,沧州市,市环保局,臭氧1小时,65,45,59,35,39,172,,102,102,12,25,6,7,0.4,0.4
2024-09-29T1400,3324A,116.8136,38.3004,沧州市,河北水利电力学院,臭氧1小时,63,44,67,26,42,170,,102,102,11,25,5,7,0.3,0.5
2024-09-29T1400,2622A,97.1806,31.1273,昌都市,昌都监测站,,17,6,9,3,5,52,,42,40,3,8,8,7,0.5,0.5
2024-09-29T1400,3719A,97.1714,31.1406,昌都市,昌都会议中心,,16,6,8,3,4,50,,45,42,5,4,8,8,0.5,0.5
2024-09-29T1400,2690A,88.1236,43.8886,昌吉回族自治州,天山天池,,26,6,7,3,3,82,,70,70,5,3,3,3,0.5,0.5
2024-09-29T1400,2692A,87.2717,44.0297,昌吉回族自治州,新区政务中心,,35,,30,24,24,78,,43,43,6,19,8,7,0.5,0.6
2024-09-29T1400,3613A,87.3095,44.0142,昌吉回族自治州,亚心广场,,24,24,29,3,9,75,,47,47,10,22,4,4,0.5,0.5
2024-09-29T1400,1119A,125.3325,43.9166,长春市,食品厂,,48,48,53,11,21,113,,70,70,13,40,5,5,0.4,0.6
2024-09-29T1400,1120A,125.2863,43.9027,长春市,客车厂,,36,36,45,12,22,111,,72,72,11,35,6,7,0.4,0.5
2024-09-29T1400,1121A,125.2841,43.8463,长春市,邮电学院,,39,39,38,17,16,116,,71,71,9,25,7,8,0.3,0.4
2024-09-29T1400,1122A,125.3716,43.8772,长春市,劳动公园,颗粒物(PM10),54,57,58,14,20,123,,77,77,8,36,8,9,0.3,0.5
2024-09-29T1400,1123A,125.3297,43.8805,长春市,园林处,,39,39,40,18,19,116,,72,72,9,27,5,6,0.5,0.6
2024-09-29T1400,1124A,125.4605,43.79,长春市,净月潭,,40,34,25,18,14,127,,80,80,7,9,6,6,0.4,0.4
2024-09-29T1400,1126A,125.3863,43.8447,长春市,经开区环卫处,,37,37,42,13,16,109,,68,68,13,33,8,8,0.4,0.5
2024-09-29T1400,1127A,125.245,43.7783,长春市,高新区管委会,,37,27,36,14,17,117,,74,74,5,29,5,6,0.5,0.5
2024-09-29T1400,1128A,125.1761,43.8325,长春市,岱山公园,颗粒物(PM10),60,70,55,8,19,110,,75,75,8,35,4,4,0.4,0.5
2024-09-29T1400,1335A,113.0833,28.2325,长沙市,经开区环保局,,39,36,42,16,21,123,,90,90,8,22,2,3,0.5,0.4
2024-09-29T1400,1336A,112.8872,28.2189,长沙市,高开区环保局,,43,30,36,23,24,135,,109,109,4,8,5,5,0.4,0.4
2024-09-29T1400,1337A,113.0792,28.2053,长沙市,马坡岭,,39,32,45,24,24,124,,90,90,2,16,5,5,0.5,0.5
2024-09-29T1400,1338A,112.9394,28.19,长沙市,湖南师范大学,,48,48,42,22,20,148,,112,112,5,10,7,7,0.4,0.5
2024-09-29T1400,1339A,113.0178,28.1322,长沙市,雨花区环保局,,41,37,41,18,25,130,,103,103,2,9,7,7,0.5,0.5
2024-09-29T1400,1340A,112.9792,28.2597,长沙市,伍家岭,,49,37,49,20,28,154,,90,90,5,23,4,3,0.6,0.7
2024-09-29T1400,1341A,113.0014,28.1944,长沙市,火车新站,,40,40,40,19,20,123,,93,93,4,12,5,5,0.6,0.6
2024-09-29T1400,1342A,112.9844,28.1178,长沙市,天心区环保局,,41,31,42,18,19,131,,98,98,9,15,5,5,0.5,0.5
2024-09-29T1400,1343A,112.8908,28.1308,长沙市,湖南中医药大学,,50,37,42,30,21,157,,112,112,6,14,6,6,0.7,0.7
2024-09-29T1400,1344A,112.9581,28.3611,长沙市,沙坪,,42,26,31,9,23,132,,107,107,2,5,7,7,0.5,0.5
2024-09-29T1400,1727A,113.1147,36.1547,长治市,清华站,,,26,32,12,19,124,,119,119,8,12,,6,0.5,0.6
2024-09-29T1400,1728A,113.1031,36.1989,长治市,监测站,,38,32,34,12,20,119,,115,115,9,14,9,9,0.5,0.7
2024-09-29T1400,1730A,113.0886,36.2125,长治市,审计局,,38,32,34,9,19,121,,119,119,11,14,6,6,0.3,0.4
2024-09-29T1400,1731A,113.0844,36.1856,长治市,长治八中,,38,34,40,12,19,121,,123,123,9,12,7,6,0.6,0.6
2024-09-29T1400,2845A,113.1569,36.1911,长治市,德盛苑,,39,25,32,12,18,123,,118,115,7,10,6,4,0.7,0.9
2024-09-29T1400,3568A,113.06,36.0464,长治市,向阳小学,,39,34,56,25,36,124,,125,125,12,16,6,7,0.4,0.5
2024-09-29T1400,3569A,112.8792,36.3144,长治市,屯留一中,,45,38,56,28,35,141,,127,127,9,13,10,8,1.4,1.1
2024-09-29T1400,3570A,113.235,36.3489,长治市,潞城四中,细颗粒物(PM2.5),53,47,54,37,38,130,,106,106,10,12,6,6,0.4,0.4
2024-09-29T1400,1854A,111.6975,28.9703,常德市,市二中,,46,46,103,32,76,137,,92,92,6,18,11,12,0.8,1.1
2024-09-29T1400,3138A,111.7153,29.0289,常德市,武陵区永安,,46,42,88,27,65,147,,98,98,8,14,10,10,0.6,0.9
2024-09-29T1400,3139A,111.6892,28.9881,常德市,鼎城区玉霞,,45,40,105,24,67,144,,95,95,6,17,11,12,0.7,1
2024-09-29T1400,3140A,111.6625,29.0531,常德市,武陵区长庚,,47,44,80,26,52,149,,104,104,7,12,11,12,0.5,0.7
2024-09-29T1400,1196A,119.9633,31.762,常州市,市监测站,,43,25,54,16,25,136,,94,94,8,21,6,8,0.4,0.7
2024-09-29T1400,1200A,119.9468,31.7069,常州市,武进监测站,,,31,49,15,24,140,,95,95,3,14,,8,0.6,0.9
2024-09-29T1400,1201A,119.9255,31.9087,常州市,安家,,40,22,48,15,26,128,,85,85,8,25,8,10,0.4,0.6
2024-09-29T1400,3002A,119.9805,31.8174,常州市,行政中心,,40,23,48,15,21,125,,90,90,5,18,7,10,0.3,0.6
2024-09-29T1400,3003A,120.0522,31.7748,常州市,经开区,,42,23,42,10,22,134,,95,95,6,22,5,7,0.3,0.7
2024-09-29T1400,3010A,119.9025,31.7964,常州市,钟楼,,42,27,46,15,23,132,,93,93,8,18,7,9,0.4,0.7
2024-09-29T1400,3429A,119.8598,31.7066,常州市,武进经发区,,44,20,47,10,21,138,,95,95,9,19,7,8,0.6,0.9
2024-09-29T1400,3430A,119.5826,31.7245,常州市,金坛城区,,47,20,34,8,21,150,,98,98,10,21,8,9,0.5,0.8
2024-09-29T1400,2220A,120.4318,41.5881,朝阳市,西梁,颗粒物(PM10),62,74,35,19,14,116,,99,97,8,11,10,11,0.5,0.6
2024-09-29T1400,2221A,120.4521,41.5646,朝阳市,河畔小区,,46,46,29,20,18,122,,113,108,8,9,7,10,0.6,0.7
2024-09-29T1400,2222A,120.4176,41.5648,朝阳市,八里堡,,48,48,38,20,18,120,,98,98,11,17,8,12,0.6,0.7
2024-09-29T1400,2223A,120.3806,41.5969,朝阳市,农业园区,,49,49,43,25,31,119,,84,84,8,23,9,9,0.7,0.7
2024-09-29T1400,1705A,116.6367,23.6719,潮州市,西园路,,23,,30,16,15,57,,43,43,5,12,4,4,0.2,0.5
2024-09-29T1400,3026A,116.6183,23.6608,潮州市,市政府,,20,17,32,8,15,62,,50,50,3,16,4,9,0.2,0.5
2024-09-29T1400,4036A,116.6461,23.6761,潮州市,金山,,20,19,28,7,14,62,,46,46,2,10,6,7,0.5,0.7
2024-09-29T1400,2472A,113.0073,25.9061,郴州市,马头岭,,33,24,46,9,17,104,,63,63,9,13,8,9,0.1,0.3
2024-09-29T1400,2473A,113.0116,25.8226,郴州市,市职中,,29,11,44,9,32,92,,59,59,5,17,4,6,0.4,0.6
2024-09-29T1400,2474A,113.0161,25.8001,郴州市,兴隆步行街,,28,23,54,6,31,87,,52,52,6,24,4,5,0.5,0.7
2024-09-29T1400,2475A,113.0383,25.8071,郴州市,市审计局,,29,14,40,8,30,90,,52,52,3,20,4,4,0.3,0.5
2024-09-29T1400,2476A,113.0348,25.7759,郴州市,市环保局,,29,20,50,10,31,91,,46,46,8,24,5,5,0.5,0.6
2024-09-29T1400,1431A,103.9728,30.7236,成都市,金泉两河,,20,20,49,3,38,35,,50,42,9,11,3,4,0.6,0.6
2024-09-29T1400,1432A,104.176,30.6872,成都市,十里店,,26,26,61,16,43,31,,51,42,19,16,2,4,0.7,0.7
2024-09-29T1400,1433A,104.079,30.5706,成都市,三瓦窑,,27,27,54,18,44,37,,64,48,16,14,2,3,0.6,0.6
2024-09-29T1400,1434A,104.1114,30.63,成都市,沙河铺,,31,31,57,14,45,35,,63,46,21,20,4,4,0.6,0.6
2024-09-29T1400,1437A,104.0786,30.6531,成都市,君平街,,26,,52,18,42,35,,62,47,19,16,3,4,0.7,0.7
2024-09-29T1400,2880A,104.0239,30.65639,成都市,大石西路,,28,28,53,12,41,37,,60,46,15,16,3,5,0.5,0.6
2024-09-29T1400,3136A,104.2725,30.5589,成都市,龙泉驿区区政府,,39,27,54,27,44,32,,51,36,19,20,3,2,0.6,0.6
2024-09-29T1400,3357A,104.0106,30.6931,成都市,金博路,,26,26,50,16,35,32,,48,40,14,15,1,2,0.6,0.6
2024-09-29T1400,3359A,104.0578,30.5225,成都市,华阳,,42,34,59,29,46,26,,58,40,20,16,3,4,0.7,0.7
2024-09-29T1400,3487A,104.2394,30.5319,成都市,车城东七路,,48,41,66,33,50,32,,54,37,20,21,2,3,0.8,0.7
2024-09-29T1400,3488A,104.3853,30.7453,成都市,青白江技师分院,,28,23,56,19,46,30,,33,33,15,20,2,3,0.8,0.8
2024-09-29T1400,3489A,104.0789,30.4072,成都市,科学城,细颗粒物(PM2.5),53,48,70,37,54,41,,48,42,17,20,3,5,0.7,0.7
2024-09-29T1400,4011A,103.8506,30.6947,成都市,光华大道三段,,30,30,56,20,37,53,,63,60,13,14,3,4,0.6,0.6
2024-09-29T1400,1062A,117.9531,40.9081,承德市,铁路,细颗粒物(PM2.5),60,59,59,43,30,121,,90,90,21,41,10,10,0.6,0.8
2024-09-29T1400,1063A,117.9392,40.9763,承德市,中国银行,细颗粒物(PM2.5),59,64,49,42,22,125,,77,77,17,27,6,6,0.6,0.7
2024-09-29T1400,1064A,117.9503,40.928,承德市,开发区,颗粒物(PM10),59,67,56,32,26,123,,98,98,24,31,9,10,0.6,0.8
2024-09-29T1400,1065A,117.8051,40.9655,承德市,文化中心,颗粒物(PM10),60,70,57,36,28,118,,118,112,19,21,9,9,0.6,0.7
2024-09-29T1400,1066A,117.9268,41.0026,承德市,离宫,细颗粒物(PM2.5),63,64,47,45,35,104,,65,65,10,12,2,2,0.7,0.7
2024-09-29T1400,2314A,117.47,30.6618,池州市,池州学院,臭氧1小时,64,32,42,21,26,171,,123,123,12,11,8,6,0.5,0.5
2024-09-29T1400,3237A,117.4918,30.6617,池州市,展览馆,,49,35,44,21,25,156,,114,114,7,8,5,5,0.5,0.5
2024-09-29T1400,3333A,117.5627,30.695,池州市,第八中学,,46,29,40,18,22,146,,110,110,10,12,4,4,0.4,0.6
2024-09-29T1400,3334A,117.5038,30.6243,池州市,第十二中学,,49,31,37,9,19,155,,108,108,13,15,4,5,0.6,1
2024-09-29T1400,1744A,118.9233,42.2816,赤峰市,松山一中,颗粒物(PM10),52,54,67,18,33,130,,113,113,14,25,10,10,0.4,0.6
2024-09-29T1400,1745A,118.9576,42.2728,赤峰市,哈达街,颗粒物(PM10),54,57,65,23,41,129,,123,123,12,15,10,10,0.6,0.7
2024-09-29T1400,1746A,118.8788,42.2554,赤峰市,天义路,,44,44,63,19,42,125,,114,114,13,21,7,7,0.3,0.4
2024-09-29T1400,3058A,119.2658,42.0353,赤峰市,银河街,颗粒物(PM10),75,100,68,30,32,141,,118,118,12,16,12,20,0.6,0.7
2024-09-29T1400,3286A,118.9359,42.3147,赤峰市,桥北物流园区,颗粒物(PM10),53,56,68,30,35,129,,122,122,13,25,9,11,0.7,0.8
2024-09-29T1400,2521A,107.3476,22.4136,崇左市,市环保局江州分局,,30,30,33,16,18,75,,39,39,4,8,4,4,0.6,0.6
2024-09-29T1400,2522A,107.3702,22.3707,崇左市,城南新区,,28,28,23,16,17,65,,40,40,3,7,4,4,0.7,0.7
2024-09-29T1400,2298A,118.3093,32.3153,滁州市,老年大学,,47,37,42,20,26,149,,93,93,9,14,6,7,0.4,0.4
2024-09-29T1400,2299A,118.3244,32.2786,滁州市,人大宾馆,,47,44,50,14,29,148,,96,96,10,15,6,7,0.4,0.4
2024-09-29T1400,3207A,118.3118,32.3038,滁州市,市政府原办公楼,,47,34,40,27,31,150,,96,96,8,16,6,7,0.4,0.4
2024-09-29T1400,3331A,118.3267,32.2634,滁州市,图书馆,,46,44,48,11,24,146,,93,93,7,15,5,6,0.3,0.4
2024-09-29T1400,2605A,101.5482,25.0441,楚雄彝族自治州,州环境监测站,,15,11,12,3,8,46,,30,30,3,9,9,17,0.5,0.6
2024-09-29T1400,2606A,101.538,25.0492,楚雄彝族自治州,市经济开发区,,15,6,15,3,9,48,,30,30,3,10,5,11,0.5,0.6
2024-09-29T1400,2548A,107.5277,31.2827,达州市,达州职业技术学院,,50,50,49,24,30,80,,83,80,16,19,6,5,0.7,0.7
2024-09-29T1400,2549A,107.5086,31.2186,达州市,市环境监测站,,44,44,47,24,25,96,,96,96,19,15,6,6,0.5,0.5
2024-09-29T1400,2550A,107.4988,31.2132,达州市,凤凰小区,,49,44,40,34,26,96,,102,102,19,13,7,7,0.6,0.5
2024-09-29T1400,2551A,107.5082,31.1986,达州市,达县机关宾馆,,46,46,43,21,25,103,,96,96,21,17,5,5,0.5,0.4
2024-09-29T1400,2552A,107.4644,31.2124,达州市,市政中心,颗粒物(PM10),51,52,47,34,28,71,,99,96,31,14,4,4,0.6,0.4
2024-09-29T1400,2614A,100.1542,25.7054,大理白族自治州,大理市环境监测站,,30,30,26,11,10,47,,38,38,4,6,6,8,0.6,0.5
2024-09-29T1400,2615A,100.2171,25.5811,大理白族自治州,大理古城,,21,14,18,3,10,67,,46,46,4,8,8,8,0.3,0.4
2024-09-29T1400,1109A,121.612,38.9741,大连市,甘井子,,39,24,25,10,12,124,,104,104,10,15,8,9,0.5,0.9
2024-09-29T1400,1110A,121.565,38.9511,大连市,周水子,,28,28,30,10,15,79,,69,69,12,21,8,7,0.5,0.5
2024-09-29T1400,1111A,121.5637,38.8845,大连市,星海三站,,38,23,24,12,11,119,,102,102,6,7,6,6,0.3,0.3
2024-09-29T1400,1112A,121.6302,38.9117,大连市,青泥洼桥,,38,14,25,9,13,121,,99,99,4,12,6,7,0.2,0.2
2024-09-29T1400,1113A,121.6251,38.8638,大连市,傅家庄,,31,21,20,12,11,99,,84,84,6,9,7,7,0.3,0.2
2024-09-29T1400,1114A,121.5213,38.8661,大连市,七贤岭,,41,15,21,11,12,130,,108,108,7,10,7,7,0.4,0.4
2024-09-29T1400,1115A,121.2529,38.8061,大连市,旅顺,,41,12,12,8,8,129,,108,108,8,10,6,6,0.4,0.4
2024-09-29T1400,1116A,121.7485,39.1311,大连市,金州,,,18,20,12,14,105,,98,98,8,9,,6,0.5,0.5
2024-09-29T1400,1117A,121.7811,39.0496,大连市,开发区,,37,26,30,10,17,116,,88,88,5,17,6,6,0.2,0.3
2024-09-29T1400,1118A,121.9762,39.0631,大连市,双D港,,34,24,21,12,11,108,,94,94,11,11,6,6,0.6,0.6
2024-09-29T1400,1789A,124.81117,46.03138,大庆市,大同区,颗粒物(PM10),67,84,54,28,27,132,,99,99,11,15,6,5,0.3,0.3
2024-09-29T1400,1790A,125.129,46.533,大庆市,龙凤区,颗粒物(PM10),81,111,56,29,24,139,,98,98,7,14,3,8,0.5,0.4
2024-09-29T1400,1791A,124.902,46.408,大庆市,红岗区,颗粒物(PM10),70,90,43,17,21,125,,97,97,10,14,7,6,0.5,0.5
2024-09-29T1400,1792A,125.153,46.586,大庆市,萨尔图区,颗粒物(PM10),61,72,50,28,21,129,,91,91,12,16,6,7,0.4,0.4
2024-09-29T1400,1793A,124.9042,46.6215,大庆市,让胡路区,颗粒物(PM10),53,56,48,20,22,133,,95,95,9,14,5,7,0.5,0.4
2024-09-29T1400,3481A,125.141,46.634,大庆市,萨区政府监测点,颗粒物(PM10),51,52,39,22,18,143,,100,100,8,13,7,8,0.4,0.3
2024-09-29T1400,1721A,113.3819,40.1097,大同市,果树场,,43,,40,30,34,68,,88,70,16,21,7,7,0.8,0.7
2024-09-29T1400,1723A,113.2994,40.0758,大同市,云冈宾馆,,20,10,42,6,33,63,,98,74,16,22,7,8,0.7,0.8
2024-09-29T1400,1724A,113.3444,40.0917,大同市,大同大学,,28,28,36,14,29,68,,101,81,16,18,6,7,0.6,0.6
2024-09-29T1400,1725A,113.2661,40.1269,大同市,安家小村,,19,12,40,12,30,59,,97,81,12,18,10,11,0.5,0.7
2024-09-29T1400,1726A,113.2711,40.0844,大同市,教育学院,,27,27,48,11,30,52,,88,63,25,29,7,8,0.6,0.7
2024-09-29T1400,3282A,113.3397,40.0597,大同市,大同市卫生学校,,36,36,51,11,30,71,,99,78,18,20,7,8,0.6,0.6
2024-09-29T1400,3565A,113.1367,40.1122,大同市,云冈站,,19,19,53,8,28,48,,92,85,12,17,9,9,0.5,0.7
2024-09-29T1400,3566A,113.1186,40.2556,大同市,图书馆,,24,24,41,3,29,56,,86,78,13,21,9,11,0.6,0.8
2024-09-29T1400,3567A,113.5931,40.0461,大同市,区一中,,43,42,42,30,23,82,,100,82,18,19,8,7,0.8,0.8
2024-09-29T1400,3676A,113.2802,40.0995,大同市,第二人民医院,,20,19,42,9,29,62,,100,78,13,20,10,11,0.5,0.7
2024-09-29T1400,2269A,124.1069,50.4097,大兴安岭地区,科技局,,19,,16,13,17,53,,51,51,4,6,6,7,0.3,0.4
2024-09-29T1400,3663A,124.1164,50.4278,大兴安岭地区,红旗社区,,16,6,3,3,4,51,,50,50,2,3,4,4,0.3,0.4
2024-09-29T1400,1600A,124.3303,40.0625,丹东市,江湾东路,,32,32,54,9,24,90,,58,58,5,22,12,10,0.4,0.7
2024-09-29T1400,1601A,124.4256,40.1503,丹东市,临江后街,,31,18,43,6,21,99,,60,60,2,19,10,8,0.6,0.8
2024-09-29T1400,1602A,124.3933,40.1461,丹东市,元宝山,,29,19,32,9,15,90,,53,53,5,15,5,4,0.6,0.7
2024-09-29T1400,1603A,124.3633,40.1092,丹东市,民主桥,,30,30,36,12,18,96,,61,61,4,24,7,6,0.3,0.5
2024-09-29T1400,3541A,109.5726,19.5167,儋州市,第一中学子站,,20,12,20,12,13,62,,48,48,2,4,5,5,0.5,0.6
2024-09-29T1400,3542A,109.5567,19.5187,儋州市,东坡学校子站,,,,20,,12,70,,51,51,2,4,,4,,0.5
2024-09-29T1400,2616A,98.5842,24.428,德宏傣族景颇族自治州,德宏州监测站,,31,31,28,15,12,30,,9,9,19,15,16,17,0.7,0.7
2024-09-29T1400,3677A,98.5881,24.4368,德宏傣族景颇族自治州,芒市人民政府综合楼,,25,22,21,17,13,36,,12,12,14,13,12,15,0.7,0.6
2024-09-29T1400,1901A,104.4239,31.1208,德阳市,东山公园,,20,,37,14,30,56,,58,52,10,13,2,3,0.6,0.7
2024-09-29T1400,1902A,104.3826,31.1317,德阳市,西小区,,28,24,40,19,34,52,,54,44,11,18,1,2,0.6,0.7
2024-09-29T1400,1904A,104.3553,31.1091,德阳市,耐火材料厂,,25,22,40,17,30,50,,48,43,10,16,7,4,0.6,0.6
2024-09-29T1400,3639A,104.4019,31.1244,德阳市,市教育局,,28,22,40,19,31,50,,57,46,12,15,1,2,0.6,0.7
2024-09-29T1400,1622A,116.3032,37.4674,德州市,儿童乐园,臭氧1小时,58,48,63,14,26,166,,117,117,13,30,13,11,0.6,0.6
2024-09-29T1400,1624A,116.2991,37.4451,德州市,监理站,臭氧1小时,63,48,54,19,26,170,,117,117,14,26,13,12,0.5,0.5
2024-09-29T1400,3066A,116.2721,37.4379,德州市,九衢泉纯净水厂,,50,41,55,17,26,157,,111,111,12,28,12,11,0.5,0.6
2024-09-29T1400,3371A,116.3728,37.4403,德州市,开发区人民医院,臭氧1小时,64,51,59,22,26,171,,116,116,7,27,13,11,0.6,0.6
2024-09-29T1400,3372A,116.3572,37.4094,德州市,太阳城中学,臭氧1小时,58,48,60,22,25,166,,108,108,18,41,13,10,0.6,0.6
2024-09-29T1400,3511A,116.5652,37.3319,德州市,陵城艺术中心,,49,46,65,9,28,156,,95,95,13,37,9,11,0.5,0.7
2024-09-29T1400,2621A,99.7056,27.8317,迪庆藏族自治州,迪庆州站,,14,10,19,7,9,43,,29,29,8,10,8,14,0.4,0.4
2024-09-29T1400,3180A,99.7136,27.8094,迪庆藏族自治州,质量技术监督局,,15,9,16,3,7,48,,30,30,5,8,6,10,0.4,0.4
2024-09-29T1400,2663A,104.6241,35.5734,定西市,东关小学,,32,27,32,22,27,83,,83,82,4,5,5,5,0.2,0.3
2024-09-29T1400,2664A,104.6194,35.5934,定西市,供电公司,,26,21,34,6,24,81,,84,80,1,4,9,8,0.4,0.4
2024-09-29T1400,1389A,113.7547,23.0494,东莞市,莞城梨川,臭氧1小时,72,35,27,17,14,177,,102,102,14,18,6,6,0.7,0.7
2024-09-29T1400,1390A,113.7944,23.0128,东莞市,东城石井,臭氧1小时,92,35,24,25,13,193,,102,102,14,18,5,5,0.7,0.7
2024-09-29T1400,1391A,113.7383,22.9658,东莞市,南城西平,臭氧1小时,90,38,28,18,13,192,,92,92,14,26,7,8,0.8,0.8
2024-09-29T1400,3319A,113.7338,23.0381,东莞市,万江金泰,臭氧1小时,65,30,26,16,13,172,,102,102,19,17,9,8,0.5,0.6
2024-09-29T1400,3626A,113.7533,23.0202,东莞市,南城元岭,臭氧1小时,75,38,29,19,14,180,,98,98,10,16,7,7,0.6,0.7
2024-09-29T1400,3627A,113.7875,23.0457,东莞市,东城主山,臭氧1小时,90,42,27,20,14,192,,108,108,14,21,9,7,0.6,0.6
2024-09-29T1400,1666A,118.6614,37.4309,东营市,市环保局,臭氧1小时,85,51,40,12,16,188,,129,129,10,15,4,8,0.3,0.3
2024-09-29T1400,3036A,118.6904,37.4338,东营市,开发区管委会,臭氧1小时,97,61,48,19,19,197,,137,137,12,16,4,7,0.3,0.3
2024-09-29T1400,3365A,118.5719,37.565,东营市,垦利区民丰路,臭氧1小时,55,51,37,17,16,164,,114,114,9,14,8,9,0.3,0.3
2024-09-29T1400,3498A,118.5055,37.8612,东营市,河口城区,,,51,41,24,20,175,,116,116,,13,7,7,0.5,0.4
2024-09-29T1400,3646A,118.4978,37.4623,东营市,胜利站,,50,45,32,14,18,160,,109,109,10,16,8,9,0.3,0.4
2024-09-29T1400,3734A,118.35,37.26,东营市,理想之城,臭氧1小时,54,48,43,14,23,163,,110,110,15,21,6,7,0.3,0.3
2024-09-29T1400,1591A,110.0023,39.8129,鄂尔多斯市,综合楼,,23,12,48,3,30,71,,97,70,7,13,6,8,0.4,0.6
2024-09-29T1400,1592A,109.9486,39.8261,鄂尔多斯市,巴音孟克林场办事处,,20,9,47,3,26,64,,91,67,10,15,6,7,0.4,0.6
2024-09-29T1400,1593A,109.7736,39.5986,鄂尔多斯市,康泽苑,,23,7,42,3,23,72,,100,71,5,8,8,9,0.4,0.6
2024-09-29T1400,1594A,109.8119,39.5989,鄂尔多斯市,华泰汽车城,,22,7,40,7,28,70,,94,68,5,9,7,8,0.4,0.6
2024-09-29T1400,1595A,109.9734,39.7884,鄂尔多斯市,奥林花园,,20,12,49,3,25,62,,83,63,9,16,4,6,0.5,0.7
2024-09-29T1400,2436A,114.8938,30.3994,鄂州市,市政府,臭氧1小时,70,30,34,19,18,176,,129,129,13,19,12,11,0.6,0.6
2024-09-29T1400,2437A,114.8989,30.3714,鄂州市,赵家坝,臭氧1小时,67,38,38,16,15,173,,126,126,10,17,13,13,0.7,0.8
2024-09-29T1400,3654A,114.8094,30.4089,鄂州市,精准医疗中心,臭氧1小时,57,33,33,16,16,165,,126,126,13,21,10,18,0.7,1.3
2024-09-29T1400,2454A,109.4978,30.2981,恩施土家族苗族自治州,湖北民院,细颗粒物(PM2.5),93,76,63,69,51,107,,65,65,27,20,10,10,0.8,0.8
2024-09-29T1400,2455A,109.4707,30.2798,恩施土家族苗族自治州,州电力总公司,细颗粒物(PM2.5),87,87,59,64,48,104,,57,57,25,24,8,7,0.9,0.8
2024-09-29T1400,3549A,109.5061,30.3772,恩施土家族苗族自治州,龙凤新区,细颗粒物(PM2.5),83,84,61,61,49,94,,55,55,33,22,6,7,1.1,1
2024-09-29T1400,2499A,108.3411,21.6158,防城港市,沙万,,17,17,17,9,9,51,,35,35,6,14,10,9,0.6,0.7
2024-09-29T1400,2500A,108.3514,21.7731,防城港市,防城档案局,,21,21,15,11,8,66,,38,38,7,7,9,9,0.5,0.5
2024-09-29T1400,2501A,108.3506,21.6414,防城港市,大海花园,,18,18,16,6,7,49,,34,34,7,10,7,7,0.7,0.7
2024-09-29T1400,1371A,113.1294,23.0067,佛山市,湾梁,臭氧1小时,79,41,32,21,18,183,,87,87,20,30,8,7,0.7,0.7
2024-09-29T1400,1372A,113.1083,23.0478,佛山市,华材职中,臭氧1小时,58,46,31,18,21,166,,82,82,27,25,8,8,0.5,0.5
2024-09-29T1400,1373A,113.144,23.0453,佛山市,南海气象局,,47,47,31,18,20,141,,80,80,16,21,7,7,0.6,0.6
2024-09-29T1400,1374A,113.2881,22.8094,佛山市,顺德苏岗,臭氧1小时,85,29,31,19,16,188,,88,88,13,23,9,8,0.6,0.7
2024-09-29T1400,1376A,112.8383,22.8678,佛山市,高明孔堂,,42,22,37,16,22,133,,73,73,10,11,5,5,0.5,0.5
2024-09-29T1400,1377A,112.8836,23.1588,佛山市,三水监测站,,40,22,37,20,24,125,,65,65,19,30,7,6,0.4,0.6
2024-09-29T1400,1378A,112.867,23.185,佛山市,三水云东海,,40,28,31,21,27,125,,53,53,22,28,9,9,0.6,0.7
2024-09-29T1400,3625A,113.2544,22.7642,佛山市,容桂街道办,臭氧1小时,59,34,27,22,19,167,,81,81,29,25,8,7,0.7,0.7
2024-09-29T1400,1282A,119.2681,26.0504,福州市,师大,,27,27,35,10,18,73,,69,62,4,11,2,2,0.4,0.4
2024-09-29T1400,1283A,119.2984,26.1028,福州市,五四北路,,25,25,32,10,15,76,,77,67,4,9,4,4,0.4,0.4
2024-09-29T1400,1284A,119.2648,26.0768,福州市,杨桥西路,,25,25,37,8,16,78,,77,65,5,11,4,3,0.4,0.4
2024-09-29T1400,1285A,119.317,26.0746,福州市,紫阳,,28,28,35,9,15,70,,78,59,7,19,5,5,0.5,0.5
2024-09-29T1400,3048A,119.5799,26.0936,福州市,九龙,,30,30,31,10,13,81,,86,77,7,5,8,7,0.4,0.4
2024-09-29T1400,3526A,119.5189,25.9664,福州市,吴航,,25,20,29,12,16,79,,87,79,5,5,8,7,0.4,0.4
2024-09-29T1400,1755A,123.7977,41.8491,抚顺市,望花区,,45,45,72,14,29,98,,60,60,20,38,8,9,0.5,0.8
2024-09-29T1400,1756A,123.9161,41.8822,抚顺市,顺城区,,43,43,56,12,24,118,,70,70,10,37,6,7,0.6,0.8
2024-09-29T1400,1757A,124.0436,41.8611,抚顺市,东洲区,,35,29,35,8,21,110,,69,69,7,17,6,7,0.4,0.6
2024-09-29T1400,1758A,123.9247,41.8642,抚顺市,新抚区,,50,50,59,12,21,122,,70,70,11,38,5,5,0.4,0.6
2024-09-29T1400,1759A,124.0972,41.8961,抚顺市,大伙房水库,,38,32,27,11,17,119,,75,75,4,10,7,7,0.4,0.5
2024-09-29T1400,1760A,123.7086,41.8391,抚顺市,沈抚新城,,40,40,64,13,32,110,,71,71,14,40,8,12,0.2,0.7
2024-09-29T1400,2376A,116.2127,28.0814,抚州市,桐源党溪,,43,35,37,18,20,136,,97,97,2,8,6,10,0.6,0.6
2024-09-29T1400,2377A,116.3544,27.9831,抚州市,市站,,34,33,37,16,19,107,,92,92,6,12,3,5,0.7,0.9
2024-09-29T1400,2378A,116.3565,27.963,抚州市,血防站,,37,26,36,13,24,117,,96,96,6,12,2,6,0.8,0.9
2024-09-29T1400,2379A,116.3564,28.0007,抚州市,采茶剧团,,35,27,35,7,19,112,,95,95,2,8,6,8,0.6,0.7
2024-09-29T1400,2380A,116.385,27.9647,抚州市,医学分院,,36,27,35,11,16,115,,93,93,3,10,4,5,0.6,0.7
2024-09-29T1400,2207A,121.6094,41.998,阜新市,工业园区,颗粒物(PM10),53,55,46,13,18,119,,102,102,7,15,7,12,0.7,0.8
2024-09-29T1400,2208A,121.6697,42.0279,阜新市,长青街,,40,40,46,15,19,113,,100,100,8,14,6,12,0.5,0.6
2024-09-29T1400,2209A,121.6673,42.0705,阜新市,农业园区,,44,44,42,17,30,109,,97,97,9,14,6,11,0.4,0.5
2024-09-29T1400,2210A,121.6717,42.0224,阜新市,东苑,,44,44,49,12,20,106,,97,97,12,16,4,9,0.8,0.8
2024-09-29T1400,2211A,121.6506,42.0498,阜新市,玉龙新城,,50,50,45,16,22,122,,103,103,6,14,7,12,0.6,0.8
2024-09-29T1400,2301A,115.8277,32.8929,阜阳市,市监测站,,47,43,45,27,22,148,,102,102,8,14,7,8,0.6,0.5
2024-09-29T1400,2303A,115.8554,32.8605,阜阳市,开发区,颗粒物(PM10),56,61,59,17,23,148,,103,103,10,17,6,7,0.6,0.6
2024-09-29T1400,2875A,115.784,32.8892,阜阳市,阜阳职业技术学院,,47,41,44,19,21,149,,104,104,9,14,6,7,0.5,0.5
2024-09-29T1400,3468A,115.7901,32.8613,阜阳市,市规划展馆,,49,41,48,19,26,154,,109,109,12,17,6,8,0.4,0.4
2024-09-29T1400,3469A,115.836,32.9183,阜阳市,枣园社区,颗粒物(PM10),55,60,45,22,24,146,,99,99,10,16,8,9,0.5,0.5
2024-09-29T1400,2669A,102.9099,34.9841,甘南藏族自治州,州政府,,27,,22,12,23,84,,78,78,2,8,10,12,0.3,0.3
2024-09-29T1400,3380A,102.8914,34.9617,甘南藏族自治州,甘肃民族师范学院,,26,,24,7,16,82,,76,76,3,12,4,4,0.4,0.5
2024-09-29T1400,2570A,101.9603,30.0475,甘孜藏族自治州,水桥子,,26,11,16,3,7,82,,34,34,2,23,5,5,0.3,0.5
2024-09-29T1400,3065A,101.9533,29.9972,甘孜藏族自治州,州环保局,,25,8,18,3,4,78,,39,39,8,23,3,3,0.3,0.4
2024-09-29T1400,3414A,115.8347,28.932,赣江新区,桑海产业园,,40,24,28,13,12,125,,97,97,8,26,12,12,0.3,0.3
2024-09-29T1400,2362A,114.9017,25.9149,赣州市,通天岩,,31,15,24,9,15,99,,65,65,2,2,11,9,0.4,0.4
2024-09-29T1400,2363A,114.9367,25.8664,赣州市,地委,,30,21,30,10,23,95,,64,64,5,10,9,8,1.1,1.2
2024-09-29T1400,2364A,114.9461,25.8481,赣州市,气象台,,34,21,31,9,21,106,,64,64,5,8,5,12,0.3,0.5
2024-09-29T1400,2365A,114.9322,25.8333,赣州市,市图书馆,,36,21,30,6,17,115,,72,72,3,9,4,6,0.5,0.7
2024-09-29T1400,2366A,114.8905,25.8471,赣州市,华坚鞋城,,29,27,32,14,18,92,,64,64,5,8,5,5,0.4,0.5
2024-09-29T1400,3109A,115.0093,25.8613,赣州市,赣县区卫计委,,33,,24,7,16,104,,64,64,9,16,7,7,0.5,0.6
2024-09-29T1400,2683A,106.2319,36.1417,固原市,马园,,27,22,45,3,14,85,,87,76,7,12,5,6,0.3,0.5
2024-09-29T1400,2684A,106.2792,36.0022,固原市,监测站,,28,19,25,3,16,88,,94,84,7,8,3,3,0.2,0.3
2024-09-29T1400,2685A,106.2375,36.0211,固原市,新区,,27,22,24,3,18,86,,92,83,5,7,5,5,0.2,0.5
2024-09-29T1400,3522A,106.2177,35.9959,固原市,原州区十五小,,27,12,19,3,15,86,,91,84,7,10,5,5,0.4,0.7
2024-09-29T1400,2544A,106.6303,30.4576,广安市,市委,,36,29,37,25,25,98,,83,83,8,12,1,2,0.4,0.4
2024-09-29T1400,2545A,106.6271,30.4663,广安市,友谊中学,,31,31,36,20,25,94,,81,81,13,16,3,3,0.5,0.5
2024-09-29T1400,2547A,106.6388,30.4551,广安市,广电花园,,43,31,40,30,26,96,,77,77,9,16,2,2,0.4,0.4
2024-09-29T1400,2902A,106.6351,30.4865,广安市,北辰小学,,42,42,47,25,25,102,,83,83,8,12,6,6,0.4,0.5
2024-09-29T1400,2523A,105.8945,32.4535,广元市,黑石坡,,23,13,42,6,45,72,,49,49,4,14,13,13,0.2,0.6
2024-09-29T1400,2524A,105.821,32.4444,广元市,老城,,25,15,46,3,30,77,,58,58,8,24,1,3,0.2,0.8
2024-09-29T1400,2526A,105.8628,32.4287,广元市,监测站,,27,13,43,7,36,86,,64,64,3,17,3,3,0.3,0.7
2024-09-29T1400,3617A,105.8047,32.4166,广元市,经开区,,25,6,35,3,27,78,,57,57,11,19,3,4,0.4,0.8
2024-09-29T1400,1345A,113.2347,23.1423,广州市,广雅中学,臭氧1小时,69,43,33,21,18,175,,84,84,26,30,6,6,0.8,0.8
2024-09-29T1400,1346A,113.2612,23.105,广州市,市五中,臭氧1小时,74,42,32,28,20,179,,94,94,15,19,6,6,0.6,0.6
2024-09-29T1400,1348A,113.3478,23.0916,广州市,广东商学院,臭氧1小时,63,32,32,19,19,170,,83,83,13,30,5,5,0.6,0.6
2024-09-29T1400,1349A,113.4332,23.1047,广州市,市八十六中,,44,23,35,10,17,140,,82,82,13,35,4,5,0.4,0.5
2024-09-29T1400,1350A,113.3505,22.9483,广州市,番禺中学,,48,24,26,13,16,153,,92,92,9,22,6,6,0.6,0.7
2024-09-29T1400,1351A,113.2146,23.3916,广州市,花都师范,,,58,39,,19,173,,80,80,16,30,6,6,,0.7
2024-09-29T1400,1352A,113.2597,23.1331,广州市,市监测站,臭氧1小时,54,38,31,20,16,163,,78,78,22,26,4,4,0.7,0.7
2024-09-29T1400,1353A,113.5618,23.312,广州市,九龙镇镇龙,,41,23,31,14,19,131,,68,68,12,20,7,7,0.6,0.7
2024-09-29T1400,1354A,113.2765,23.1544,广州市,麓湖,臭氧1小时,64,45,46,22,20,171,,68,68,25,33,6,6,0.5,0.6
2024-09-29T1400,1355A,113.443,23.3035,广州市,帽峰山森林公园,,45,15,23,10,14,141,,76,76,6,16,6,6,0.3,0.5
2024-09-29T1400,2846A,113.3221,23.1322,广州市,体育西,臭氧1小时,53,34,32,19,20,162,,76,76,13,25,3,4,0.6,0.6
2024-09-29T1400,3298A,113.5717,23.5491,广州市,从化街口,,31,14,28,12,18,97,,63,63,5,16,8,8,0.5,0.6
2024-09-29T1400,3299A,113.3472,23.3692,广州市,白云竹料,臭氧1小时,63,47,39,19,23,170,,83,83,14,24,5,5,0.4,0.5
2024-09-29T1400,3300A,113.2981,23.237,广州市,白云嘉禾,臭氧1小时,78,55,41,28,21,182,,75,75,29,40,7,8,0.8,0.9
2024-09-29T1400,3301A,113.4256,23.1716,广州市,黄埔科学城,臭氧1小时,54,27,34,12,19,163,,78,78,9,27,8,9,0.6,0.7
2024-09-29T1400,3302A,113.3942,23.0483,广州市,番禺大学城,臭氧1小时,64,35,39,15,16,171,,86,86,10,25,8,9,0.4,0.4
2024-09-29T1400,3303A,113.4922,22.8168,广州市,南沙黄阁,臭氧1小时,58,45,34,17,15,166,,85,85,14,26,5,5,0.5,0.6
2024-09-29T1400,3304A,113.5342,22.7896,广州市,南沙街,臭氧1小时,58,29,31,15,15,166,,86,86,14,20,7,8,0.7,0.7
2024-09-29T1400,3443A,113.2902,23.5544,广州市,花都梯面,,41,23,30,16,19,131,,66,66,8,18,6,6,0.7,0.7
2024-09-29T1400,3445A,113.7858,23.7478,广州市,从化良口,,25,15,19,13,13,79,,53,53,5,8,6,6,0.8,0.8
2024-09-29T1400,3446A,113.8051,23.2614,广州市,增城荔城,,40,22,24,14,14,125,,82,82,6,13,5,6,0.5,0.5
2024-09-29T1400,2506A,109.6047,23.0666,贵港市,江南子站,,26,12,58,6,28,83,,48,48,4,17,7,9,0.5,0.7
2024-09-29T1400,2507A,109.6014,23.0948,贵港市,贵城子站,,26,15,53,3,25,81,,45,45,5,18,8,8,0.5,0.8
2024-09-29T1400,2508A,109.5669,23.1065,贵港市,荷城子站,,23,19,46,3,21,73,,45,45,2,14,10,11,0.4,0.5
2024-09-29T1400,3405A,109.5886,23.1172,贵港市,新世纪学校,,24,22,49,6,26,75,,44,44,6,15,7,8,0.4,0.7
2024-09-29T1400,1439A,106.6899,26.5998,贵阳市,马鞍山,,17,17,20,3,7,52,,49,32,11,10,8,8,0.4,0.4
2024-09-29T1400,1440A,106.6971,26.5694,贵阳市,市环保站,,22,19,25,15,20,52,,56,42,9,12,4,4,0.5,0.5
2024-09-29T1400,1441A,106.6243,26.6266,贵阳市,鉴湖路,,24,24,25,9,13,50,,54,38,5,6,5,5,0.3,0.4
2024-09-29T1400,1442A,106.7487,26.6343,贵阳市,燕子冲,,20,,14,14,17,61,,58,44,7,8,6,5,0.5,0.5
2024-09-29T1400,1443A,106.6555,26.4365,贵阳市,碧云窝,,19,19,28,3,12,54,,47,39,5,7,5,4,0.4,0.4
2024-09-29T1400,1444A,106.694,26.5161,贵阳市,中院村,,19,19,23,12,13,52,,48,36,8,11,6,6,0.5,0.5
2024-09-29T1400,1445A,106.7109,26.6027,贵阳市,红边门,,28,27,26,19,25,53,,52,35,12,14,4,4,0.5,0.5
2024-09-29T1400,1446A,106.7164,26.5699,贵阳市,新华路,,20,19,14,14,17,59,,59,46,8,10,4,2,0.4,0.4
2024-09-29T1400,1447A,106.674,26.5424,贵阳市,太慈桥,,18,14,21,7,13,56,,48,32,7,8,4,5,0.4,0.5
2024-09-29T1400,1862A,110.4144,25.3167,桂林市,电子科大尧山校区,,36,25,44,25,28,101,,62,62,4,7,4,7,0.7,0.7
2024-09-29T1400,1864A,110.3089,25.2708,桂林市,龙隐路小学,,49,38,46,34,31,100,,63,63,4,12,6,19,0.7,0.8
2024-09-29T1400,1865A,110.2869,25.2178,桂林市,八中,,48,48,44,25,30,89,,59,59,6,11,7,12,0.3,0.5
2024-09-29T1400,3403A,110.1764,25.2381,桂林市,创业大厦,,35,34,43,24,34,77,,48,48,6,13,6,14,0.3,0.4
2024-09-29T1400,3531A,110.296,25.1253,桂林市,旅游学院,,30,29,32,17,25,94,,65,65,3,10,8,11,0.4,0.4
2024-09-29T1400,2674A,100.2561,34.4714,果洛藏族自治州,玛沁县大武镇,,28,20,25,13,16,88,,76,76,2,7,8,7,0.4,0.4
2024-09-29T1400,1129A,126.5422,45.755,哈尔滨市,岭北,,42,34,32,16,17,134,,114,114,11,16,16,16,0.6,0.4
2024-09-29T1400,1130A,126.561,45.8167,哈尔滨市,松北商大,,40,40,37,17,17,105,,91,91,13,32,9,8,0.4,0.5
2024-09-29T1400,1131A,126.979,45.5419,哈尔滨市,阿城会宁,,34,34,37,14,16,105,,71,71,8,19,8,10,0.5,0.5
2024-09-29T1400,1132A,126.599,45.7222,哈尔滨市,南岗学府路,颗粒物(PM10),54,57,57,21,20,111,,87,87,12,32,8,9,0.5,0.6
2024-09-29T1400,1133A,126.689,45.7733,哈尔滨市,太平宏伟公园,颗粒物(PM10),56,62,49,18,18,107,,82,82,15,30,8,9,0.4,0.5
2024-09-29T1400,1134A,126.635,45.7667,哈尔滨市,道外承德广场,,46,46,42,21,15,102,,81,81,20,32,9,8,0.4,0.5
2024-09-29T1400,1135A,126.685,45.7319,哈尔滨市,香坊红旗大街,颗粒物(PM10),54,58,49,17,20,106,,76,76,16,32,12,13,0.7,0.7
2024-09-29T1400,1136A,126.6411,45.7258,哈尔滨市,动力和平路,,45,45,46,27,24,108,,80,80,14,28,13,18,0.4,0.6
2024-09-29T1400,1137A,126.593,45.7478,哈尔滨市,道里建国路,,44,44,45,22,19,110,,91,91,9,31,15,18,0.6,1.2
2024-09-29T1400,1138A,126.615,45.61,哈尔滨市,平房东轻厂,,44,44,38,20,15,110,,81,81,11,18,7,7,0.4,0.5
2024-09-29T1400,1139A,126.595,45.9855,哈尔滨市,呼兰师专,颗粒物(PM10),52,53,51,22,23,93,,81,81,19,37,7,7,0.7,0.7
2024-09-29T1400,1140A,126.6206,45.6842,哈尔滨市,省农科院,颗粒物(PM10),55,60,53,23,23,103,,78,78,17,42,6,6,0.5,0.6
2024-09-29T1400,2688A,93.5128,42.8172,哈密市,地区监测站,,38,38,25,18,15,78,,51,51,11,18,11,6,0.6,0.3
2024-09-29T1400,2689A,93.4961,42.8328,哈密市,哈密师范学校,,42,29,23,29,16,83,,49,49,11,17,8,5,0.7,0.4
2024-09-29T1400,2671A,100.9048,36.9639,海北藏族自治州,海晏县西海镇,,19,9,22,8,21,59,,58,58,10,9,10,14,0.7,0.5
2024-09-29T1400,3867A,102.0738,36.5056,海东市,平安区公安北苑,,24,24,37,7,19,70,,77,65,9,9,11,12,0.4,0.5
2024-09-29T1400,1410A,110.3232,20.0574,海口市,海南大学,,19,14,16,8,10,60,,45,45,11,8,3,3,0.4,0.4
2024-09-29T1400,1411A,110.283,20.0053,海口市,秀英海南医院,,24,18,20,12,11,76,,50,50,11,11,5,5,0.3,0.3
2024-09-29T1400,1412A,110.338,19.9969,海口市,海南师范大学,,25,13,20,9,12,79,,49,49,5,8,6,6,0.4,0.4
2024-09-29T1400,1413A,110.33,20.0356,海口市,龙华路环保局宿舍,,22,14,19,9,10,70,,49,49,8,8,4,4,0.3,0.3
2024-09-29T1400,3539A,110.5111,19.9736,海口市,桂林洋子站,,21,11,22,7,14,66,,41,41,3,8,6,6,0.2,0.3
2024-09-29T1400,2673A,100.6188,36.2866,海南藏族自治州,共和县恰卜恰镇,,31,23,37,21,15,98,,70,70,3,11,6,5,0.6,0.7
2024-09-29T1400,2676A,97.3731,37.3753,海西蒙古族藏族自治州,德令哈市,,33,32,47,23,14,102,,95,95,7,8,9,9,0.5,0.4
2024-09-29T1400,1048A,114.5302,36.6116,邯郸市,东污水处理厂,颗粒物(PM10),55,59,86,36,50,150,,91,91,11,41,2,3,0.5,0.5
2024-09-29T1400,1049A,114.4918,36.5713,邯郸市,矿院,颗粒物(PM10),56,62,77,34,42,144,,90,90,5,27,3,4,0.4,0.5
2024-09-29T1400,1050A,114.484,36.6133,邯郸市,丛台公园,,46,41,87,32,50,143,,99,99,8,36,4,6,0.4,0.5
2024-09-29T1400,3458A,114.7895,36.5593,邯郸市,香泉濮院小区,颗粒物(PM10),62,74,83,24,28,164,,102,102,9,30,2,6,0.5,0.5
2024-09-29T1400,3579A,114.50634,36.77178,邯郸市,永年区实验高中,细颗粒物(PM2.5),60,58,124,43,71,165,,92,92,10,40,3,5,0.4,0.5
2024-09-29T1400,3580A,114.20016,36.44293,邯郸市,峰峰矿区临水派出所,颗粒物(PM10),64,77,95,34,33,150,,100,100,5,16,3,4,0.7,0.6
2024-09-29T1400,2634A,106.9893,33.1842,汉中市,汉川机床厂子校,,,,51,8,36,85,,124,91,3,7,4,4,0.4,0.6
2024-09-29T1400,2635A,107.0154,33.0706,汉中市,市监测站,,26,,72,18,45,72,,51,51,7,17,7,8,0.5,0.9
2024-09-29T1400,2636A,107.0089,33.1138,汉中市,鑫源开发区,,24,17,74,8,53,75,,52,52,6,19,9,10,0.4,0.7
2024-09-29T1400,2637A,107.007,33.0323,汉中市,南郑大河坎水厂,,24,,65,10,50,76,,49,49,4,18,8,8,0.5,0.9
2024-09-29T1400,1223A,120.2072,30.2111,杭州市,滨江,,38,30,41,13,19,121,,68,68,12,20,5,5,0.6,0.7
2024-09-29T1400,1224A,120.0633,30.2747,杭州市,西溪,,40,40,35,13,21,120,,55,55,11,24,6,6,0.5,0.7
2024-09-29T1400,1226A,120.3461,30.3153,杭州市,下沙,,36,35,39,13,18,114,,76,76,13,35,6,6,0.5,0.7
2024-09-29T1400,1227A,120.1269,30.2456,杭州市,卧龙桥,,43,34,32,17,22,136,,82,82,12,18,6,6,0.5,0.6
2024-09-29T1400,1228A,120.1903,30.2692,杭州市,浙江农大,,39,30,33,12,20,123,,74,74,15,24,9,8,0.3,0.4
2024-09-29T1400,1230A,120.1197,30.3119,杭州市,和睦小学,,42,26,30,16,18,133,,84,84,12,18,7,7,0.5,0.6
2024-09-29T1400,1231A,120.3019,30.4183,杭州市,临平镇,,37,17,36,10,19,116,,77,77,6,18,5,5,0.5,0.7
2024-09-29T1400,1232A,120.2697,30.1819,杭州市,城厢镇,,42,36,40,15,25,134,,82,82,16,24,7,7,0.5,0.5
2024-09-29T1400,1233A,120.0883,30.1808,杭州市,云栖,,39,32,31,17,16,124,,71,71,10,15,7,7,0.6,0.7
2024-09-29T1400,3557A,119.9464,30.0494,杭州市,镇二中,,45,31,40,24,30,143,,75,75,17,28,8,8,0.6,0.7
2024-09-29T1400,3558A,119.7183,30.2367,杭州市,市府大楼,,50,47,38,24,24,160,,84,84,15,25,6,6,0.5,0.6
2024-09-29T1400,3656A,120.1556,30.2864,杭州市,消防大队,,41,32,34,13,20,130,,83,83,6,13,8,8,0.6,0.7
2024-09-29T1400,1270A,117.1959,31.7848,合肥市,明珠广场,,44,34,47,17,24,138,,102,102,10,20,7,8,0.7,0.9
2024-09-29T1400,1271A,117.3072,31.8764,合肥市,三里街,,38,31,46,14,23,120,,85,85,8,19,8,9,0.4,0.6
2024-09-29T1400,1272A,117.2588,31.8707,合肥市,琥珀山庄,,43,41,45,15,26,137,,102,102,11,19,8,9,0.4,0.7
2024-09-29T1400,1273A,117.1604,31.9052,合肥市,董铺水库,,44,44,47,14,23,129,,96,96,6,12,4,4,0.3,0.5
2024-09-29T1400,1274A,117.25,31.8571,合肥市,长江中路,,,46,57,24,28,130,,96,96,,20,9,9,0.6,0.8
2024-09-29T1400,1275A,117.266,31.9436,合肥市,庐阳区,,43,34,49,12,24,135,,98,98,10,20,5,6,0.5,0.6
2024-09-29T1400,1276A,117.336,31.8586,合肥市,瑶海区,,39,36,49,15,23,124,,92,92,11,21,5,5,0.4,0.7
2024-09-29T1400,1277A,117.3027,31.7964,合肥市,包河区,,43,39,51,14,26,136,,89,89,10,35,5,5,0.5,0.8
2024-09-29T1400,1278A,117.2776,31.7385,合肥市,滨湖新区,,41,36,46,19,27,130,,99,99,7,13,7,7,0.5,0.7
2024-09-29T1400,1279A,117.1318,31.8403,合肥市,高新区,,42,39,45,21,26,134,,97,97,8,16,9,10,0.6,0.9
2024-09-29T1400,3464A,117.3803,31.9147,合肥市,高教基地,,40,38,45,10,26,126,,92,92,6,14,4,5,0.4,0.6
2024-09-29T1400,3614A,79.924,37.0877,和田地区,地区环保局,颗粒物(PM10),500,983,1037,262,204,50,,64,53,9,6,6,6,0.7,0.6
2024-09-29T1400,3615A,79.9131,37.113,和田地区,市环保局,颗粒物(PM10),500,896,938,253,200,59,,71,60,7,7,6,6,0.4,0.4
2024-09-29T1400,2516A,108.2011,24.715,河池市,东仁乐园,,22,22,52,13,35,60,,66,49,6,10,7,10,0.6,0.7
2024-09-29T1400,2517A,108.0497,24.6947,河池市,市环保站,,39,39,42,16,32,65,,48,48,6,10,11,11,0.6,0.8
2024-09-29T1400,2518A,108.0983,24.6989,河池市,市疾控中心,,25,25,43,14,31,62,,61,51,9,13,11,11,0.6,0.7
2024-09-29T1400,1696A,114.6778,23.7569,河源市,源西,,29,27,23,8,15,90,,48,48,6,16,4,4,0.7,0.8
2024-09-29T1400,1697A,114.6944,23.7586,河源市,东埔,,31,31,20,11,14,36,,16,16,41,47,2,2,0.6,0.7
2024-09-29T1400,1698A,114.6892,23.7233,河源市,老城,,35,14,22,12,12,109,,55,55,5,13,2,2,0.6,0.7
2024-09-29T1400,1718A,115.4208,35.2464,菏泽市,气象局,,49,49,50,23,20,154,,106,106,7,13,3,4,0.2,0.3
2024-09-29T1400,1719A,115.4747,35.2375,菏泽市,市政协,颗粒物(PM10),51,51,50,22,23,148,,98,98,5,13,4,5,0.2,0.3
2024-09-29T1400,3374A,115.5564,35.0891,菏泽市,定陶老年大学,,44,44,46,12,17,134,,94,94,5,12,6,7,0.3,0.4
2024-09-29T1400,3647A,115.4702,35.2706,菏泽市,菏泽医专,,47,44,52,19,19,148,,96,96,8,16,4,8,0.5,0.6
2024-09-29T1400,2514A,111.5264,24.4172,贺州市,环保小区,,46,33,36,32,23,104,,68,68,6,16,6,7,0.7,0.8
2024-09-29T1400,2515A,111.5608,24.4078,贺州市,政协大楼,,34,26,40,15,24,107,,66,66,7,17,5,8,0.6,0.6
2024-09-29T1400,3534A,111.4744,24.4553,贺州市,西湾,,38,36,38,26,27,110,,64,64,7,20,6,6,0.6,0.7
2024-09-29T1400,2385A,114.17,35.9019,鹤壁市,市监测站,细颗粒物(PM2.5),60,68,73,43,40,148,,90,90,16,30,3,6,0.9,1
2024-09-29T1400,2386A,114.2956,35.7511,鹤壁市,市交警支队,颗粒物(PM10),59,67,66,31,30,128,,94,94,17,37,1,3,0.6,0.6
2024-09-29T1400,2387A,114.2878,35.7306,鹤壁市,迎宾馆,颗粒物(PM10),70,89,80,36,35,127,,86,86,16,32,3,4,0.6,0.6
2024-09-29T1400,3474A,114.2617,35.6822,鹤壁市,大新区,颗粒物(PM10),57,64,64,37,27,116,,81,81,17,28,7,7,0.7,0.7
2024-09-29T1400,3596A,114.1572,35.9603,鹤壁市,南山宾馆,"颗粒物(PM10),细颗粒物(PM2.5)",52,54,66,36,35,150,,90,90,6,14,3,4,0.3,0.4
2024-09-29T1400,2244A,130.2537,47.3416,鹤岗市,哈啤分公司,,32,32,31,15,16,84,,49,49,14,8,26,15,0.8,0.8
2024-09-29T1400,2245A,130.2684,47.3086,鹤岗市,斯达机电,,33,33,32,10,20,96,,60,60,9,15,14,14,0.3,0.3
2024-09-29T1400,2246A,130.3114,47.3388,鹤岗市,东山纸板厂,,44,44,55,20,24,79,,42,42,14,21,17,17,0.3,0.9
2024-09-29T1400,2247A,130.1097,47.3382,鹤岗市,五号水库,,32,11,16,3,8,100,,56,56,6,7,9,7,0.6,0.5
2024-09-29T1400,2263A,127.4833,50.2524,黑河市,交通局,,12,11,28,8,17,33,,42,42,12,11,7,7,0.3,0.4
2024-09-29T1400,2264A,127.5144,50.2341,黑河市,环保局,,13,,27,9,16,38,,41,37,8,10,3,6,0.3,0.4
2024-09-29T1400,2265A,127.5291,50.2472,黑河市,大黑河岛,,,,,3,17,42,,41,41,12,10,3,2,0.1,0.1
2024-09-29T1400,1074A,115.6838,37.7541,衡水市,电机北厂,,50,50,73,21,34,138,,96,96,5,33,6,8,0.3,0.3
2024-09-29T1400,1075A,115.6303,37.7316,衡水市,市监测站,颗粒物(PM10),58,65,74,13,32,142,,96,96,9,39,8,8,0.2,0.3
2024-09-29T1400,3188A,115.6683,37.7217,衡水市,市城管局,颗粒物(PM10),54,58,75,20,33,148,,99,99,6,36,6,7,0.4,0.4
2024-09-29T1400,3459A,115.5989,37.5491,衡水市,地表水厂,颗粒物(PM10),56,61,89,22,31,155,,90,90,8,50,9,10,0.4,0.4
2024-09-29T1400,2456A,112.5003,26.9167,衡阳市,原169医院,,,34,57,27,38,194,,90,90,,13,5,8,,1
2024-09-29T1400,2457A,112.6194,26.9258,衡阳市,衡阳化工总厂,,35,35,54,18,41,112,,88,88,4,11,8,11,0.6,0.7
2024-09-29T1400,2458A,112.6211,26.8956,衡阳市,珠晖区环保局,,,31,55,,,109,,81,81,3,16,7,8,0.5,0.7
2024-09-29T1400,2459A,112.6197,26.8733,衡阳市,市委党校,,38,38,55,17,34,109,,83,83,4,13,9,11,0.6,0.8
2024-09-29T1400,2460A,112.6006,26.8919,衡阳市,市监测站,,36,23,51,11,37,113,,89,89,4,10,8,9,0.6,0.8
2024-09-29T1400,2461A,112.5664,26.9056,衡阳市,真空机电公司,,36,36,51,22,33,114,,91,91,5,10,8,10,1.0,1
2024-09-29T1400,3399A,112.6703,26.882,衡阳市,师范学院,,37,37,57,21,37,107,,78,78,7,14,9,12,0.6,0.8
2024-09-29T1400,2608A,103.3772,23.3993,红河哈尼族彝族自治州,污水处理厂,,12,11,16,7,12,37,,32,32,3,5,5,5,0.3,0.4
2024-09-29T1400,2609A,103.3861,23.35,红河哈尼族彝族自治州,监测站,,21,21,21,11,19,40,,35,34,3,5,9,9,0.4,0.4
2024-09-29T1400,3038A,103.3758,23.368,红河哈尼族彝族自治州,州图书馆,,12,12,16,3,8,37,,36,34,3,4,5,5,0.2,0.3
2024-09-29T1400,1090A,111.6507,40.7517,呼和浩特市,呼市一监,,22,6,53,3,30,69,,77,62,4,27,6,7,0.4,0.7
2024-09-29T1400,1091A,111.6572,40.8033,呼和浩特市,小召,,22,6,42,3,27,68,,76,62,11,26,7,7,0.5,0.7
2024-09-29T1400,1094A,111.7516,40.8369,呼和浩特市,如意水处理厂,,21,6,53,3,25,67,,79,60,6,27,6,7,0.4,0.6
2024-09-29T1400,1095A,111.7276,40.8062,呼和浩特市,二十九中,,24,,46,3,32,75,,85,66,7,25,4,6,0.5,0.8
2024-09-29T1400,1096A,111.5512,40.7866,呼和浩特市,工大金川校区,,,6,52,3,28,69,,64,58,9,38,3,3,,0.7
2024-09-29T1400,1097A,111.717,40.7612,呼和浩特市,化肥厂生活区,,22,6,60,3,26,70,,76,59,8,26,8,9,0.4,0.7
2024-09-29T1400,3698A,111.5968,40.8178,呼和浩特市,红旗小学,,22,6,50,3,27,69,,62,59,9,41,3,4,0.4,0.7
2024-09-29T1400,3699A,111.6518,40.8389,呼和浩特市,海东办,,23,,45,3,28,71,,77,64,9,28,5,6,0.4,0.6
2024-09-29T1400,2192A,119.7594,49.2261,呼伦贝尔市,区环保局,,17,11,21,10,17,53,,43,43,8,13,5,4,0.4,0.4
2024-09-29T1400,3061A,119.7512,49.1577,呼伦贝尔市,国华电力东,,17,9,20,7,17,54,,46,46,4,7,4,5,0.3,0.5
2024-09-29T1400,1250A,120.0751,30.8669,湖州市,城西水厂,,42,13,39,6,23,134,,88,88,8,18,5,5,0.2,0.3
2024-09-29T1400,2873A,120.0875,30.8955,湖州市,仁皇山新区,,41,13,38,7,23,131,,84,84,8,23,7,7,0.4,0.6
2024-09-29T1400,2907A,120.1844,30.8596,湖州市,吴兴区站,,37,18,38,6,22,118,,80,80,5,18,6,6,0.4,0.5
2024-09-29T1400,3562A,120.4148,30.8538,湖州市,南浔区站,,36,18,39,6,24,114,,73,73,8,23,7,7,0.3,0.5
2024-09-29T1400,1607A,120.9092,40.7136,葫芦岛市,龙港区,,,38,39,20,26,104,,85,85,8,12,10,11,,0.6
2024-09-29T1400,1608A,120.8392,40.7514,葫芦岛市,化工街,,35,27,40,3,22,110,,84,84,8,21,13,14,0.7,0.7
2024-09-29T1400,1609A,120.8341,40.7073,葫芦岛市,新区,,35,17,35,10,32,112,,83,83,9,22,8,8,0.5,0.7
2024-09-29T1400,1610A,120.8695,40.7677,葫芦岛市,东城区,,33,19,36,14,32,104,,77,77,7,29,8,9,0.2,0.5
2024-09-29T1400,2482A,109.5981,27.5721,怀化市,林科所,,46,45,40,32,25,118,,92,92,12,13,3,6,0.7,0.7
2024-09-29T1400,2483A,109.9453,27.5444,怀化市,河西地税局,,50,45,45,35,34,115,,87,87,7,12,9,8,0.6,0.6
2024-09-29T1400,2484A,109.9781,27.5342,怀化市,市四医院,细颗粒物(PM2.5),68,59,52,49,36,114,,84,84,4,6,8,9,0.7,0.7
2024-09-29T1400,2485A,109.9972,27.5578,怀化市,监测楼,颗粒物(PM10),54,57,51,35,32,128,,90,90,8,8,9,9,0.7,0.6
2024-09-29T1400,2486A,110.0394,27.583,怀化市,市委党校,颗粒物(PM10),56,62,54,32,31,118,,89,89,7,8,14,35,0.7,0.6
2024-09-29T1400,1210A,119.036,33.5981,淮安市,钵池山,,33,22,25,12,17,104,,94,94,4,12,4,4,0.5,0.6
2024-09-29T1400,1211A,119.007,33.575,淮安市,北京南路,,32,29,31,12,17,102,,94,94,6,12,6,6,0.4,0.4
2024-09-29T1400,1212A,118.989,33.6067,淮安市,市监测站,,35,19,25,7,15,110,,100,100,14,21,6,6,0.3,0.4
2024-09-29T1400,1213A,119.135,33.5039,淮安市,楚州区监测站,,31,29,36,10,17,99,,89,89,6,18,6,6,0.4,0.5
2024-09-29T1400,1214A,119.0186,33.6297,淮安市,淮阴区监测站,,35,29,31,16,16,110,,94,94,15,24,3,2,0.3,0.4
2024-09-29T1400,3426A,118.8755,33.2894,淮安市,新华书店,,35,28,29,9,16,112,,96,96,8,16,6,8,0.4,0.5
2024-09-29T1400,2282A,116.8004,33.975,淮北市,监测站,,37,37,39,17,21,118,,99,99,3,8,6,6,0.4,0.4
2024-09-29T1400,2283A,116.8091,33.9007,淮北市,烈山区政府,,47,47,38,16,19,125,,99,99,4,9,5,6,0.4,0.4
2024-09-29T1400,3330A,116.8873,33.9836,淮北市,杜集区检察院,,42,42,41,11,20,127,,107,107,1,4,7,8,0.6,0.5
2024-09-29T1400,4017A,116.7923,33.9535,淮北市,市博物馆,,39,35,32,15,20,123,,100,100,5,7,6,5,0.6,0.6
2024-09-29T1400,2277A,116.8305,32.7727,淮南市,潘集区政府,颗粒物(PM10),55,59,45,26,24,122,,90,90,16,15,7,7,0.5,0.5
2024-09-29T1400,2278A,117.0067,32.6524,淮南市,师范学院,,50,38,49,35,26,124,,95,95,4,9,7,8,0.5,0.6
2024-09-29T1400,2279A,116.8569,32.5951,淮南市,谢家集区政府,,38,25,40,18,27,121,,90,90,9,16,6,9,0.2,0.3
2024-09-29T1400,2280A,116.8281,32.633,淮南市,八公山区政府,,41,41,49,20,26,122,,93,93,5,11,11,11,0.3,0.3
2024-09-29T1400,2281A,116.6325,32.6201,淮南市,焦岗湖风景区管理处,,,29,34,19,13,123,,89,89,,6,6,5,0.1,0.1
2024-09-29T1400,2894A,117.0566,32.6531,淮南市,经济技术开发区消防队,,39,35,36,12,16,122,,93,93,5,10,5,5,0.4,0.4
2024-09-29T1400,3329A,117.0108,32.5893,淮南市,山南新区,,40,39,47,11,22,125,,96,96,11,15,3,4,0.5,0.6
2024-09-29T1400,2446A,114.9028,30.4742,黄冈市,职工中心,,49,40,46,18,25,155,,120,120,9,16,9,11,0.5,0.5
2024-09-29T1400,2929A,114.8858,30.4519,黄冈市,红卫路,臭氧1小时,53,43,41,20,24,162,,121,121,11,18,10,10,0.6,0.6
2024-09-29T1400,3398A,114.9136,30.4445,黄冈市,市林业局,臭氧1小时,68,45,54,13,26,174,,135,135,11,18,11,11,0.5,0.5
2024-09-29T1400,2672A,102.0199,35.5102,黄南藏族自治州,同仁县隆务镇,,39,39,45,3,18,65,,65,63,11,10,9,8,0.4,0.5
2024-09-29T1400,2295A,118.2903,29.6963,黄山市,延安路89号,,29,22,37,3,9,90,,78,78,1,6,6,6,0.2,0.3
2024-09-29T1400,2296A,118.327,29.7178,黄山市,黄山东路89号,,27,25,29,6,15,86,,87,87,2,7,4,5,0.2,0.3
2024-09-29T1400,2297A,118.1371,30.2756,黄山市,黄山区政府5号楼,,33,19,30,17,19,104,,86,86,4,7,7,7,0.3,0.3
2024-09-29T1400,2423A,115.0601,30.2313,黄石市,沈家营,臭氧1小时,55,38,37,16,14,164,,132,132,11,15,13,21,0.5,0.6
2024-09-29T1400,2424A,115.0817,30.2006,黄石市,陈家湾,,50,27,35,14,15,158,,140,140,4,7,10,10,0.6,0.8
2024-09-29T1400,2426A,114.8988,30.2019,黄石市,铁山,,49,27,29,14,18,155,,142,142,6,9,11,10,0.3,0.4
2024-09-29T1400,2427A,115.0307,30.2092,黄石市,团城山,,50,30,33,8,12,160,,137,137,8,9,8,9,0.5,0.5
2024-09-29T1400,3149A,115.0235,30.1578,黄石市,笔架山北路,,47,32,32,11,13,149,,125,125,7,11,9,9,0.7,0.7
2024-09-29T1400,1392A,114.4183,23.0528,惠州市,河南岸金山湖子站,,39,28,23,19,13,124,,68,68,5,9,4,5,0.4,0.5
2024-09-29T1400,1393A,114.4053,23.0822,惠州市,下埔横江三路子站,,42,23,24,10,12,133,,84,84,5,9,3,4,0.6,0.7
2024-09-29T1400,1394A,114.4103,23.1142,惠州市,江北云山西路子站,,45,23,25,17,14,142,,78,78,3,9,5,6,0.5,0.6
2024-09-29T1400,1395A,114.4645,22.7833,惠州市,惠阳区承修路船湖子站,,35,13,20,8,11,110,,73,73,11,17,6,6,0.5,0.6
2024-09-29T1400,1396A,114.5317,22.7422,惠州市,大亚湾管委会子站,,39,17,20,12,10,122,,78,78,9,17,7,8,0.4,0.4
2024-09-29T1400,3314A,114.4338,22.8134,惠州市,惠阳秋长,,35,12,17,12,10,109,,79,79,8,15,5,5,0.4,0.6
2024-09-29T1400,3452A,114.6517,22.775,惠州市,大亚湾霞涌,,48,29,14,22,7,152,,86,86,8,8,5,4,0.5,0.7
2024-09-29T1400,2240A,130.9762,45.3001,鸡西市,环保局,,31,31,39,10,14,91,,54,54,2,14,5,6,0.2,0.3
2024-09-29T1400,2243A,130.9429,45.3039,鸡西市,第一中学,,30,27,31,9,10,96,,59,59,2,19,4,5,0.1,0.1
2024-09-29T1400,3707A,131.0207,45.3073,鸡西市,欧美日汽修厂,,43,43,41,15,15,95,,52,52,11,18,6,6,0.3,0.4
2024-09-29T1400,3709A,130.9967,45.3106,鸡西市,市政设施管理处,,44,44,43,15,13,95,,51,51,11,19,7,8,0.1,0.2
2024-09-29T1400,2367A,114.9754,27.0803,吉安市,红声器材厂,,34,33,45,21,26,108,,75,75,8,18,10,10,0.4,0.5
2024-09-29T1400,2368A,114.9658,27.0999,吉安市,市森林工业局,,33,29,40,16,25,103,,77,77,11,19,12,15,0.5,0.6
2024-09-29T1400,2369A,114.99,27.1312,吉安市,市环境监测站,,37,27,38,15,22,118,,95,95,8,14,16,26,0.4,0.6
2024-09-29T1400,2370A,115.0093,27.0968,吉安市,青原区法院,,36,31,43,7,25,114,,77,77,10,21,15,15,0.6,0.7
2024-09-29T1400,1772A,126.54,43.8622,吉林市,哈达湾,,34,24,36,13,15,107,,71,71,8,21,6,6,0.5,0.6
2024-09-29T1400,1773A,126.5844,43.8358,吉林市,东局子,,31,23,27,13,13,97,,76,76,7,19,5,4,0.5,0.6
2024-09-29T1400,1774A,126.5052,43.8245,吉林市,电力学院,,36,25,51,17,28,114,,69,69,6,26,3,3,0.5,0.7
2024-09-29T1400,1775A,126.6133,43.8972,吉林市,江北,,31,28,40,11,18,98,,70,70,7,22,6,6,0.6,0.7
2024-09-29T1400,1776A,126.555,43.8306,吉林市,江南公园,,33,31,30,23,18,101,,69,69,9,20,7,6,0.6,0.6
2024-09-29T1400,1778A,126.7061,43.7133,吉林市,丰满,细颗粒物(PM2.5),77,,15,56,21,94,,72,72,3,4,6,5,0.8,0.6
2024-09-29T1400,2868A,126.4739,43.953,吉林市,九站,,41,41,50,15,17,114,,78,78,8,25,6,7,0.6,0.6
2024-09-29T1400,1299A,116.9862,36.6114,济南市,科干所,,44,24,40,12,17,140,,123,123,9,17,7,8,0.7,0.7
2024-09-29T1400,1300A,116.9376,36.665,济南市,农科所,臭氧1小时,59,49,54,12,20,167,,89,89,21,36,6,7,0.5,0.7
2024-09-29T1400,1301A,117.1265,36.6734,济南市,开发区,,44,24,48,15,23,140,,104,94,8,30,5,7,0.5,0.7
2024-09-29T1400,1303A,117.0624,36.6868,济南市,省种子仓库,颗粒物(PM10),59,68,68,14,23,163,,69,69,23,48,5,5,0.5,0.8
2024-09-29T1400,1304A,116.9489,36.6447,济南市,机床二厂,臭氧1小时,69,46,51,10,17,175,,113,113,15,28,5,6,0.5,0.7
2024-09-29T1400,1305A,117.0495,36.663,济南市,市监测站,颗粒物(PM10),58,66,55,20,22,162,,78,78,32,47,7,6,0.7,0.8
2024-09-29T1400,1306A,116.7675,36.5484,济南市,长清党校,臭氧1小时,53,37,38,17,16,162,,140,140,11,18,7,7,0.6,0.7
2024-09-29T1400,1616A,117.6795,36.229,济南市,技术学院,,46,34,40,12,20,146,,107,107,5,17,8,9,0.6,0.8
2024-09-29T1400,1961A,117.532,36.6868,济南市,东山小学,,50,37,39,10,15,157,,123,123,13,23,4,4,0.4,0.5
2024-09-29T1400,3059A,117.7161,36.2049,济南市,泰兴公司,,47,39,47,14,20,150,,104,104,6,28,8,10,0.4,0.5
2024-09-29T1400,3064A,117.6867,36.2171,济南市,莱芜战役纪念馆,,46,41,43,12,17,145,,104,104,8,19,7,8,0.6,0.7
2024-09-29T1400,3494A,117.1673,36.9782,济南市,济阳区政府,颗粒物(PM10),51,51,59,15,23,60,,95,80,17,27,5,7,0.4,0.7
2024-09-29T1400,3495A,117.1171,36.63,济南市,锦屏中学,,45,22,30,10,14,143,,114,114,13,18,5,6,0.5,0.6
2024-09-29T1400,3682A,116.9814,36.6819,济南市,济南四建,臭氧1小时,57,48,52,20,22,165,,79,78,23,38,4,5,0.7,0.8
2024-09-29T1400,1653A,116.6251,35.4302,济宁市,火炬城,,48,48,44,14,19,151,,120,120,3,9,10,11,0.6,0.6
2024-09-29T1400,1655A,116.5491,35.4042,济宁市,电化厂,颗粒物(PM10),52,53,57,14,15,146,,114,114,12,17,14,12,0.3,0.3
2024-09-29T1400,3500A,116.5814,35.3707,济宁市,北湖一中,,49,42,40,24,18,154,,120,120,7,15,5,6,0.4,0.4
2024-09-29T1400,3501A,116.8249,35.5593,济宁市,服务中心,,46,46,45,15,14,146,,108,108,7,15,8,9,0.7,0.7
2024-09-29T1400,3678A,116.5907,35.4054,济宁市,市第七中学,颗粒物(PM10),53,56,46,12,17,154,,118,118,9,17,8,8,0.6,0.6
2024-09-29T1400,2255A,130.2751,46.8028,佳木斯市,佳纺,,33,18,45,9,20,105,,61,61,2,26,7,4,0.5,0.6
2024-09-29T1400,2256A,130.3995,46.8307,佳木斯市,发电厂,,32,25,41,9,16,102,,56,56,6,27,2,6,0.6,0.6
2024-09-29T1400,2257A,130.3258,46.7975,佳木斯市,环保局,,32,26,30,14,14,100,,59,59,5,25,8,8,0.6,0.6
2024-09-29T1400,2258A,130.3648,46.8032,佳木斯市,十一中,,31,27,29,10,15,99,,60,60,11,32,8,7,0.5,0.5
2024-09-29T1400,2259A,130.3794,46.7588,佳木斯市,四丰,,31,14,12,11,7,97,,74,74,8,9,1,1,0.3,0.2
2024-09-29T1400,1252A,120.7436,30.778,嘉兴市,清河小学,,32,15,35,9,17,100,,71,71,8,25,4,4,0.4,0.6
2024-09-29T1400,1253A,120.726,30.7478,嘉兴市,嘉兴学院,,32,22,35,6,19,100,,72,72,7,19,3,3,0.3,0.4
2024-09-29T1400,2872A,120.7846,30.7525,嘉兴市,南湖区残联,,35,23,37,6,20,111,,80,80,2,19,5,5,0.3,0.4
2024-09-29T1400,3407A,120.6916,30.7739,嘉兴市,秀洲住建,,34,16,33,11,20,106,,73,73,5,22,6,5,0.3,0.5
2024-09-29T1400,1945A,98.2908,39.7711,嘉峪关市,气象局,,25,19,36,7,12,79,,79,76,10,12,9,14,0.1,0.3
2024-09-29T1400,2884A,98.2672,39.7978,嘉峪关市,酒钢宾馆,,27,22,43,9,13,84,,80,79,10,13,16,20,0.4,0.4
2024-09-29T1400,3248A,98.2643,39.7724,嘉峪关市,雄关区,,24,24,45,11,22,75,,74,72,10,12,8,10,0.5,0.3
2024-09-29T1400,1383A,113.1064,22.6058,江门市,北街,,42,38,34,18,22,134,,89,89,7,14,5,5,0.7,0.8
2024-09-29T1400,1384A,113.0731,22.5835,江门市,西区,,42,30,33,16,19,132,,95,95,12,17,6,7,0.5,0.5
2024-09-29T1400,1385A,113.0219,22.5311,江门市,圭峰西,,38,31,31,14,20,120,,88,88,7,11,3,3,0.7,0.8
2024-09-29T1400,1386A,113.0828,22.5947,江门市,东湖,,37,29,31,17,18,118,,92,92,9,13,5,5,0.5,0.5
2024-09-29T1400,3311A,113.1075,22.5647,江门市,江海富民,,42,36,49,14,23,132,,95,95,6,13,6,7,0.5,0.6
2024-09-29T1400,3449A,113.05,22.4667,江门市,新会银湖,,,,32,13,21,130,,78,78,4,14,6,6,0.8,0.9
2024-09-29T1400,1828A,113.227,35.2125,焦作市,市环保局,细颗粒物(PM2.5),62,44,58,44,33,119,,87,84,12,16,5,5,0.5,0.4
2024-09-29T1400,3169A,113.2725,35.2067,焦作市,太极体育中心,颗粒物(PM10),53,56,74,34,31,112,,88,85,12,14,2,6,0.5,0.5
2024-09-29T1400,3335A,113.3137,35.2641,焦作市,马村街道办,细颗粒物(PM2.5),82,,56,60,39,127,,90,88,11,16,2,4,0.4,0.4
2024-09-29T1400,3336A,113.2465,35.2373,焦作市,焦作技师学院,,,,72,48,34,120,,93,87,13,15,2,3,0.5,0.5
2024-09-29T1400,3477A,113.1656,35.2539,焦作市,中站许衡医院,,46,44,50,32,30,118,,103,92,15,16,3,2,0.6,0.5
2024-09-29T1400,3981A,113.2449,35.1803,焦作市,原李万街道办,细颗粒物(PM2.5),65,51,62,47,33,108,,91,87,10,12,6,7,0.4,0.4
2024-09-29T1400,1708A,116.3701,23.5345,揭阳市,新兴,,24,16,31,14,17,76,,59,59,3,17,4,5,0.5,0.7
2024-09-29T1400,1709A,116.3264,23.5443,揭阳市,西马,,34,19,36,15,16,107,,66,66,5,15,5,6,0.5,0.6
2024-09-29T1400,1710A,116.3611,23.5626,揭阳市,东兴,,27,17,35,11,16,85,,62,62,2,17,4,5,0.6,0.8
2024-09-29T1400,1711A,116.4151,23.5294,揭阳市,渔湖,,28,15,34,3,14,89,,62,62,4,23,6,6,0.5,0.7
2024-09-29T1400,3320A,116.403,23.5699,揭阳市,曲溪,,24,10,33,3,18,76,,54,54,4,24,2,2,0.3,0.6
2024-09-29T1400,3170A,102.1864,38.5253,金昌市,市委党校,,40,40,46,8,7,86,,96,87,5,5,5,6,0.6,0.6
2024-09-29T1400,4022A,102.1647,38.5371,金昌市,金川区人防中心,,38,38,75,11,9,80,,90,82,3,3,7,7,0.4,0.5
2024-09-29T1400,1262A,119.647,29.077,金华市,十五中,,42,41,49,21,23,133,,89,89,14,25,2,2,0.4,0.5
2024-09-29T1400,1263A,119.686,29.1029,金华市,监测站,,44,35,49,19,29,138,,90,90,13,27,3,3,0.5,0.5
2024-09-29T1400,3659A,119.656,29.1131,金华市,气象局,,45,33,47,19,25,141,,84,84,13,28,6,6,0.8,1
2024-09-29T1400,1767A,121.1115,41.0879,锦州市,南山,,35,35,44,20,36,101,,75,75,10,28,7,11,0.5,0.8
2024-09-29T1400,1768A,121.0533,40.8434,锦州市,开发区,,46,46,66,20,32,90,,70,70,24,49,5,9,0.9,1.1
2024-09-29T1400,1769A,121.1836,41.1119,锦州市,百股街道,,33,19,31,7,18,104,,83,83,4,16,7,10,0.6,0.8
2024-09-29T1400,1770A,121.1178,41.1222,锦州市,天安街道,,39,35,46,27,43,103,,77,77,8,23,9,13,0.5,0.8
2024-09-29T1400,1771A,121.1303,41.1386,锦州市,北湖公园,,33,32,41,21,42,105,,81,81,10,23,8,13,0.6,0.8
2024-09-29T1400,2160A,112.85,35.5051,晋城市,自来水公司,,43,35,53,22,27,135,,144,144,13,16,6,6,0.7,0.7
2024-09-29T1400,2161A,112.8318,35.4936,晋城市,白云商贸,,42,42,55,22,26,130,,141,141,15,17,6,7,0.7,0.7
2024-09-29T1400,2162A,112.8508,35.4887,晋城市,市环保局,,41,39,49,27,29,131,,140,140,14,17,6,6,0.6,0.7
2024-09-29T1400,2163A,112.8676,35.4897,晋城市,技术学院,,,,56,,28,128,,138,137,17,20,5,6,0.7,0.7
2024-09-29T1400,3620A,112.8271,35.4828,晋城市,泽州一中,,45,,50,31,29,121,,139,138,12,14,8,9,0.9,0.9
2024-09-29T1400,2171A,112.7532,37.6945,晋中市,锦纶小区,,42,39,71,29,46,64,,95,91,34,16,7,9,0.7,0.7
2024-09-29T1400,2173A,112.7249,37.7067,晋中市,南都小区,颗粒物(PM10),54,57,71,34,49,70,,102,96,33,17,5,6,0.9,0.9
2024-09-29T1400,2174A,112.6991,37.6982,晋中市,榆次区政府,,41,41,68,20,40,62,,105,95,40,18,6,7,0.6,0.6
2024-09-29T1400,2865A,112.7195,37.6828,晋中市,榆次三中,,39,39,70,22,40,67,,94,90,34,18,7,9,0.7,0.7
2024-09-29T1400,2439A,112.2014,31.0481,荆门市,竹园小学,颗粒物(PM10),54,58,69,33,45,155,,112,112,10,27,14,14,0.6,0.6
2024-09-29T1400,2440A,112.1969,30.9891,荆门市,掇刀,细颗粒物(PM2.5),53,47,70,37,53,152,,116,116,13,22,13,18,0.5,0.7
2024-09-29T1400,2441A,112.2213,31.0386,荆门市,石化一小,,49,49,77,34,49,153,,116,116,8,27,19,19,0.5,0.7
2024-09-29T1400,3012A,112.1849,31.0362,荆门市,西山林语,臭氧1小时,55,51,58,38,44,164,,119,119,12,20,11,14,0.7,0.8
2024-09-29T1400,3547A,112.1632,31.0138,荆门市,龙泉中学南校,臭氧1小时,62,60,63,43,40,169,,122,122,7,18,14,14,0.7,0.7
2024-09-29T1400,1844A,112.2494,30.3197,荆州市,市图书馆,,45,37,72,24,57,143,,94,94,12,27,10,14,0.7,0.9
2024-09-29T1400,1845A,112.2008,30.3544,荆州市,市委党校,,48,38,75,27,56,153,,94,94,9,26,7,9,0.5,0.7
2024-09-29T1400,3194A,112.2747,30.3122,荆州市,管委会,,43,36,77,30,59,129,,92,92,10,30,11,12,0.6,0.9
2024-09-29T1400,3548A,112.1655,30.3364,荆州市,学苑路,颗粒物(PM10),56,61,80,31,71,156,,101,101,6,26,7,10,0.6,0.9
2024-09-29T1400,2343A,117.2117,29.2933,景德镇市,老干部活动中心,,31,16,24,11,15,98,,98,98,6,9,7,8,0.4,0.4
2024-09-29T1400,2344A,117.1894,29.2789,景德镇市,兽医站,,33,28,29,7,13,104,,105,105,4,6,6,7,0.4,0.5
2024-09-29T1400,2345A,117.1547,29.2617,景德镇市,台达陶瓷,,33,21,24,15,15,105,,104,104,2,8,11,11,0.3,0.4
2024-09-29T1400,2346A,117.2461,29.2956,景德镇市,陶研所,,34,18,27,8,14,107,,101,101,4,10,7,10,0.4,0.4
2024-09-29T1400,1803A,115.9872,29.6815,九江市,十里,,43,30,43,20,21,137,,116,116,8,18,10,12,0.6,0.8
2024-09-29T1400,1804A,115.9584,29.7046,九江市,茅山头,,49,35,41,17,23,155,,120,120,14,18,12,10,0.7,0.8
2024-09-29T1400,1805A,115.9877,29.7295,九江市,西园,臭氧1小时,70,29,38,12,21,176,,133,133,17,16,12,12,0.7,0.6
2024-09-29T1400,1806A,116.0172,29.6547,九江市,五七二七厂,,40,,32,18,20,128,,108,108,9,16,8,11,0.6,0.8
2024-09-29T1400,1808A,115.9114,29.6038,九江市,综合工业园,臭氧1小时,101,44,43,30,25,202,,116,116,33,28,22,19,0.9,0.9
2024-09-29T1400,1809A,116.0721,29.7535,九江市,石化总厂,臭氧1小时,57,35,47,14,24,165,,120,120,16,22,13,11,0.8,0.7
2024-09-29T1400,1810A,115.9773,29.5698,九江市,庐山气象台,,46,26,17,16,13,145,,121,121,4,3,6,11,0.8,0.8
2024-09-29T1400,3190A,116.0254,29.6994,九江市,外国语学校,,43,30,40,11,18,137,,117,117,8,16,12,9,0.6,0.7
2024-09-29T1400,2658A,98.5061,39.7443,酒泉市,仓门街子站,,25,14,39,10,19,79,,78,78,3,5,3,3,0.2,0.3
2024-09-29T1400,2659A,98.4989,39.7256,酒泉市,油田生活基地,,25,19,44,15,23,80,,79,78,5,8,3,2,0.2,0.3
2024-09-29T1400,2698A,76.0072,39.4467,喀什地区,巡警大队,颗粒物(PM10),208,355,410,84,64,53,,80,67,16,8,3,3,0.5,0.4
2024-09-29T1400,2699A,75.9755,39.4694,喀什地区,吾办,颗粒物(PM10),198,346,385,122,89,54,,80,68,17,11,3,2,0.5,0.4
2024-09-29T1400,4027A,75.9483,39.4689,喀什地区,老干局,颗粒物(PM10),206,354,405,84,63,56,,78,68,14,8,4,4,0.5,0.4
2024-09-29T1400,1824A,114.3389,34.7781,开封市,肿瘤医院,臭氧1小时,59,64,66,35,28,167,,102,102,11,16,4,5,0.4,0.4
2024-09-29T1400,1826A,114.2885,34.7965,开封市,世纪星幼儿园,臭氧1小时,58,64,64,24,22,166,,102,102,10,17,4,6,0.7,0.7
2024-09-29T1400,3147A,114.3438,34.8106,开封市,龙亭公园,颗粒物(PM10),59,68,64,25,24,164,,96,96,11,19,4,6,0.5,0.5
2024-09-29T1400,3210A,114.3644,34.7964,开封市,汴京公园,颗粒物(PM10),68,85,67,28,30,165,,97,97,10,18,4,6,0.5,0.6
2024-09-29T1400,3473A,114.2485,34.8306,开封市,技师学院,颗粒物(PM10),61,72,63,22,23,156,,100,100,10,16,7,9,0.7,0.7
2024-09-29T1400,3592A,114.4644,34.7556,开封市,祥符区生态环境局,臭氧1小时,58,52,63,29,25,166,,97,97,12,24,6,7,0.5,0.5
2024-09-29T1400,1951A,84.895,45.6094,克拉玛依市,长征新村,,21,12,13,3,6,66,,55,55,2,3,5,5,0.2,0.2
2024-09-29T1400,1952A,84.8988,45.5893,克拉玛依市,南林小区,,21,9,12,9,12,65,,59,59,6,4,3,9,0.1,0.1
2024-09-29T1400,1954A,84.905,44.3396,克拉玛依市,独山子区,,26,9,11,3,4,81,,61,61,8,10,9,8,0.3,0.2
2024-09-29T1400,1955A,85.6979,46.098,克拉玛依市,乌尔禾区商贸楼,,24,15,20,3,7,74,,43,43,3,7,4,3,0.3,0.3
2024-09-29T1400,3612A,85.1045,45.6899,克拉玛依市,白碱滩区新站,,23,23,25,3,8,70,,64,64,5,5,6,6,0.2,0.2
2024-09-29T1400,2697A,76.1454,39.7142,克孜勒苏柯尔克孜自治州,市人民政府,颗粒物(PM10),180,309,262,92,57,84,,88,82,4,3,2,2,0.6,0.5
2024-09-29T1400,3665A,76.1658,39.7157,克孜勒苏柯尔克孜自治州,克州文化中心,颗粒物(PM10),175,299,273,91,59,88,,88,85,5,4,3,4,0.5,0.5
2024-09-29T1400,1450A,102.8204,24.8886,昆明市,呈贡新区,,21,12,22,3,9,66,,41,41,4,13,5,7,0.4,0.5
2024-09-29T1400,1452A,102.7252,25.0902,昆明市,龙泉镇,,23,,18,9,9,72,,34,34,9,16,9,7,0.7,0.7
2024-09-29T1400,1453A,102.7266,25.0375,昆明市,东风东路,,24,16,19,8,9,75,,34,34,9,13,7,6,0.3,0.4
2024-09-29T1400,1454A,102.6742,25.0669,昆明市,金鼎山,,22,17,19,8,8,69,,38,38,9,11,6,5,0.5,0.4
2024-09-29T1400,1455A,102.6644,25.0401,昆明市,碧鸡广场,,22,17,25,3,7,70,,34,34,10,17,9,8,0.6,0.6
2024-09-29T1400,3179A,102.7494,25.0119,昆明市,官渡区博物馆,,25,17,19,7,6,79,,43,43,5,10,6,7,0.5,0.6
2024-09-29T1400,3375A,102.8017,24.8336,昆明市,青年创业园,,20,11,14,6,8,64,,42,42,3,11,4,6,0.5,0.6
2024-09-29T1400,3550A,102.7997,24.9786,昆明市,昆明学院,,24,11,15,6,8,75,,45,45,8,9,7,6,0.4,0.5
2024-09-29T1400,3551A,102.5967,24.6736,昆明市,晋宁区生态环境分局,,18,10,18,3,10,55,,39,39,3,8,1,2,0.6,0.7
2024-09-29T1400,3552A,102.6678,24.9856,昆明市,云天化总部,,25,10,16,6,10,77,,37,37,5,14,12,7,0.2,0.4
2024-09-29T1400,1456A,91.1319,29.6514,拉萨市,八廓街,,31,9,12,6,7,98,,54,54,7,14,7,8,0.1,0.1
2024-09-29T1400,1457A,91.1221,29.6747,拉萨市,市环保局,,30,14,14,8,8,95,,51,51,10,16,6,8,0.3,0.4
2024-09-29T1400,1458A,91.0874,29.6475,拉萨市,区监测站,,30,9,11,6,6,95,,44,44,6,18,5,6,0.1,0.1
2024-09-29T1400,1459A,91.1774,29.6541,拉萨市,西藏大学,,30,11,10,6,6,94,,51,51,5,10,7,8,0.3,0.3
2024-09-29T1400,1460A,90.9798,29.6588,拉萨市,区辐射站,,30,10,13,7,7,93,,50,50,10,17,9,9,0.2,0.2
2024-09-29T1400,1461A,91.0834,29.6292,拉萨市,拉萨火车站,,30,15,11,3,5,93,,46,46,5,14,5,5,0.2,0.3
2024-09-29T1400,2520A,109.2203,23.7256,来宾市,来宾技工学校,,24,21,42,10,25,76,,40,40,6,12,7,13,0.5,0.7
2024-09-29T1400,3535A,109.1781,23.7297,来宾市,兴宾区政府,,28,28,52,11,27,82,,44,44,5,14,7,11,0.6,0.7
2024-09-29T1400,4002A,109.2416,23.7461,来宾市,中南小学,,25,21,44,14,28,80,,47,47,3,9,9,9,0.6,0.8
2024-09-29T1400,1476A,103.631,36.1031,兰州市,兰炼宾馆,,27,26,38,17,31,84,,77,77,5,7,7,6,0.3,0.4
2024-09-29T1400,1478A,103.8412,36.0726,兰州市,生物制品所,,33,23,39,23,31,74,,67,67,14,16,11,10,0.3,0.4
2024-09-29T1400,1479A,103.831,36.0464,兰州市,铁路设计院,,28,23,34,19,30,77,,70,70,17,18,8,7,0.3,0.4
2024-09-29T1400,3186A,103.7158,36.1058,兰州市,教育港,,38,38,45,20,33,84,,73,72,5,10,8,7,0.2,0.4
2024-09-29T1400,3241A,103.7439,36.0842,兰州市,百合公园,,28,28,38,14,25,83,,73,73,8,10,8,6,0.3,0.4
2024-09-29T1400,3242A,103.9611,35.998,兰州市,和平,,26,22,32,6,20,82,,79,79,9,10,11,10,0.1,0.4
2024-09-29T1400,3245A,103.6633,36.533,兰州新区,新区管委会,,33,,42,23,29,82,,82,82,5,6,7,11,0.3,0.4
2024-09-29T1400,3246A,103.6975,36.4789,兰州新区,舟曲中学,,27,18,24,6,14,84,,84,84,7,9,5,14,0.2,0.3
2024-09-29T1400,1067A,116.6708,39.5111,廊坊市,药材公司,颗粒物(PM10),60,69,90,37,52,140,,76,76,14,36,5,5,0.4,0.7
2024-09-29T1400,1068A,116.7214,39.5589,廊坊市,开发区,颗粒物(PM10),66,81,95,29,45,142,,79,79,16,40,4,3,0.5,0.7
2024-09-29T1400,1070A,116.7244,39.5269,廊坊市,北华航天学院,颗粒物(PM10),63,76,96,32,50,144,,82,82,12,36,4,3,0.4,0.6
2024-09-29T1400,2919A,116.7022,39.5453,廊坊市,河北工业大学,颗粒物(PM10),63,76,86,39,48,141,,80,80,15,38,4,3,0.4,0.6
2024-09-29T1400,2536A,103.7627,29.5844,乐山市,牛耳桥,细颗粒物(PM2.5),73,66,70,53,55,53,,48,48,26,23,6,6,0.8,0.8
2024-09-29T1400,2537A,103.7508,29.6006,乐山市,市第三水厂,细颗粒物(PM2.5),70,56,70,51,54,60,,58,58,25,23,6,6,0.8,0.7
2024-09-29T1400,2538A,103.7571,29.5664,乐山市,市监测站,细颗粒物(PM2.5),64,61,72,46,52,58,,57,57,20,18,6,6,1.0,1
2024-09-29T1400,3361A,103.7311,29.5628,乐山市,理工大学,细颗粒物(PM2.5),63,50,64,45,53,52,,55,55,23,18,6,6,0.8,0.7
2024-09-29T1400,2599A,100.2497,26.8802,丽江市,丽江古城,,14,10,12,3,7,42,,33,33,7,8,9,9,0.4,0.5
2024-09-29T1400,2600A,100.2203,26.8906,丽江市,市中心,,13,13,8,6,4,40,,29,29,6,7,5,6,0.6,0.5
2024-09-29T1400,1267A,119.914,28.4514,丽水市,监测站大楼,,44,44,37,23,19,125,,82,82,9,17,4,4,0.6,0.6
2024-09-29T1400,1268A,119.93,28.4586,丽水市,莲都小学,颗粒物(PM10),51,51,35,18,13,120,,79,79,8,14,4,4,0.4,0.4
2024-09-29T1400,1269A,119.879,28.4231,丽水市,余庄前,,42,37,36,20,19,133,,82,82,8,11,3,3,0.4,0.4
2024-09-29T1400,1173A,119.176,34.5885,连云港市,市环境监测站,,40,36,23,12,9,128,,120,120,6,10,5,6,0.2,0.3
2024-09-29T1400,3000A,119.3581,34.6972,连云港市,德源药业,,36,19,24,7,10,115,,115,115,5,13,5,5,0.2,0.2
2024-09-29T1400,3007A,119.178,34.844,连云港市,新城一中,,35,33,24,11,10,110,,112,112,11,20,3,4,0.4,0.4
2024-09-29T1400,3008A,119.3608,34.7519,连云港市,胡沟管理处,,30,24,26,7,10,94,,97,97,10,21,9,9,0.5,0.5
2024-09-29T1400,3009A,119.1478,34.5911,连云港市,矿山设计院,,39,29,26,12,11,123,,115,115,5,8,5,5,0.5,0.6
2024-09-29T1400,3434A,119.2413,34.6539,连云港市,工贸学校,,40,24,20,13,11,128,,126,126,6,8,7,7,0.7,0.8
2024-09-29T1400,3664A,119.4172,34.7341,连云港市,连云街道,,35,20,21,11,11,109,,120,120,4,7,4,4,0.3,0.3
2024-09-29T1400,2571A,102.3431,27.8099,凉山彝族自治州,青龙寺,,23,12,16,8,6,72,,48,48,3,5,6,5,0.5,0.5
2024-09-29T1400,2572A,102.2721,27.8415,凉山彝族自治州,邛海宾馆,,25,25,26,15,14,77,,44,44,3,18,8,10,0.5,0.6
2024-09-29T1400,2573A,102.2625,27.898,凉山彝族自治州,西昌市政府,,29,24,22,16,15,91,,48,48,5,10,11,10,0.6,0.6
2024-09-29T1400,2574A,102.2685,27.8851,凉山彝族自治州,凉山州政府,,29,22,28,13,15,90,,51,51,5,14,9,9,0.2,0.5
2024-09-29T1400,2575A,102.237,27.8914,凉山彝族自治州,长安,,30,17,25,10,16,95,,43,43,6,18,14,14,0.3,0.7
2024-09-29T1400,2212A,123.2,41.1953,辽阳市,宏伟区,,34,34,37,22,19,96,,81,81,7,16,10,11,0.4,0.6
2024-09-29T1400,2213A,123.1683,41.2495,辽阳市,新华园,,41,41,47,20,24,90,,75,75,6,24,9,12,0.5,0.8
2024-09-29T1400,2214A,123.2354,41.2639,辽阳市,滨河路,,30,30,38,14,16,89,,71,71,10,25,11,11,0.5,0.6
2024-09-29T1400,2215A,123.149,41.2991,辽阳市,铁西工业园,,50,50,53,11,25,87,,70,70,8,22,10,12,0.6,0.9
2024-09-29T1400,2227A,125.1358,42.8845,辽源市,环保局,,36,20,33,12,20,113,,76,76,4,23,7,8,0.6,0.8
2024-09-29T1400,3239A,125.0764,42.9078,辽源市,银鹰制药,,35,22,43,18,21,109,,71,71,8,32,6,7,0.5,0.7
2024-09-29T1400,1625A,115.9848,36.4372,聊城市,区政府,臭氧1小时,54,50,54,19,20,163,,115,115,15,28,12,12,0.5,0.5
2024-09-29T1400,2878A,116.0072,36.4343,聊城市,聊大东校,,,48,57,23,26,170,,119,119,13,31,10,10,,0.9
2024-09-29T1400,3200A,115.9819,36.4978,聊城市,监控中心,臭氧1小时,55,47,55,17,21,164,,119,119,13,34,9,10,0.3,0.3
2024-09-29T1400,3513A,116.0445,36.4361,聊城市,九州社区,臭氧1小时,60,45,58,18,22,168,,118,118,7,32,3,5,0.5,0.5
2024-09-29T1400,4018A,116.0567,36.4608,聊城市,星美广场,臭氧1小时,57,40,68,17,27,165,,120,120,8,30,8,8,0.4,0.4
2024-09-29T1400,2632A,94.3681,29.6376,林芝市,林芝监测站,,13,6,6,3,4,40,,22,22,1,2,10,10,0.2,0.2
2024-09-29T1400,2633A,94.3616,29.6616,林芝市,林芝人民医院,,14,6,5,3,2,42,,23,23,4,4,5,5,0,0
2024-09-29T1400,2603A,100.0781,23.8982,临沧市,市环保局,,13,10,14,3,14,41,,26,26,6,9,4,5,0.3,0.4
2024-09-29T1400,2604A,100.0894,23.8822,临沧市,市气象局,,13,13,15,8,12,41,,27,27,6,9,4,4,0.4,0.5
2024-09-29T1400,1733A,111.5531,36.0783,临汾市,临钢医院,,29,29,72,3,23,59,,110,86,12,16,4,5,0.5,0.6
2024-09-29T1400,1734A,111.5028,36.0714,临汾市,技工学校,,38,32,67,26,31,74,,110,94,20,18,5,5,0.7,0.6
2024-09-29T1400,1736A,111.5018,36.0855,临汾市,市委,,37,37,62,10,24,75,,118,102,13,15,6,6,0.7,0.7
2024-09-29T1400,3018A,111.505,36.1014,临汾市,唐尧大酒店,,22,22,53,13,26,62,,106,92,12,14,4,4,0.6,0.7
2024-09-29T1400,3668A,111.5036,36.0414,临汾市,城南,,23,23,67,16,32,36,,114,88,31,14,6,6,0.7,0.7
2024-09-29T1400,2667A,103.2069,35.5993,临夏回族自治州,环保局,,23,23,34,11,20,72,,71,70,4,10,8,9,0.2,0.4
2024-09-29T1400,2668A,103.2417,35.6057,临夏回族自治州,建设大厦,,26,,33,18,23,83,,75,75,2,9,3,2,0.2,0.4
2024-09-29T1400,1618A,118.3429,35.0532,临沂市,沂河小区,,42,34,37,16,16,134,,101,101,8,17,8,7,0.3,0.3
2024-09-29T1400,1619A,118.295,35.0583,临沂市,鲁南制药厂,,44,24,31,14,16,140,,111,111,3,11,5,6,0.4,0.5
2024-09-29T1400,1620A,118.2794,34.9976,临沂市,新光毛纺厂,,41,19,27,12,17,131,,108,108,10,17,4,6,0.5,0.5
2024-09-29T1400,1621A,118.3956,35.0888,临沂市,河东保险公司,,45,31,40,7,17,142,,97,97,12,36,7,7,0.6,0.7
2024-09-29T1400,3370A,118.3564,35.0215,临沂市,十里堡居委,,43,22,29,7,18,135,,102,102,9,21,9,9,0.5,0.6
2024-09-29T1400,3496A,118.3604,35.1084,临沂市,南坊新区,,46,31,40,9,16,146,,102,102,11,26,8,8,0.5,0.6
2024-09-29T1400,3860A,118.3920,35.0300,临沂市,皇山花园小区,,42,29,40,12,21,134,,96,96,8,25,7,8,0.4,0.5
2024-09-29T1400,1870A,109.4856,24.3895,柳州市,柳东小学,,24,11,45,10,31,76,,58,58,3,11,8,11,0.6,0.8
2024-09-29T1400,1871A,109.4157,24.3277,柳州市,环保监测站,,21,,45,14,32,65,,56,56,5,11,8,9,0.5,0.8
2024-09-29T1400,1872A,109.389,24.341,柳州市,河西水厂,,21,9,48,6,29,66,,59,54,2,10,7,8,0.7,1
2024-09-29T1400,1873A,109.4311,24.2921,柳州市,市四中,,28,27,50,19,34,72,,62,62,4,15,6,7,0.3,0.6
2024-09-29T1400,1874A,109.4006,24.3631,柳州市,市九中,,23,23,48,7,29,68,,60,58,4,10,6,6,0.7,0.9
2024-09-29T1400,1875A,109.4958,24.3134,柳州市,古亭山,,31,31,47,17,30,80,,59,59,6,21,8,8,0.6,0.8
2024-09-29T1400,3402A,109.5422,24.3996,柳州市,市二中,,26,21,49,10,30,81,,56,56,7,20,8,9,0.5,0.7
2024-09-29T1400,2307A,116.5079,31.737,六安市,监测大楼,,44,27,36,19,28,138,,102,102,4,10,5,6,0.4,0.5
2024-09-29T1400,2308A,116.4738,31.7643,六安市,皖西学院,,45,41,50,10,26,141,,104,104,6,13,5,7,0.5,0.6
2024-09-29T1400,2309A,116.4996,31.7905,六安市,朝阳厂,,44,31,36,12,24,138,,100,100,5,10,1,2,0.4,0.5
2024-09-29T1400,2310A,116.5567,31.7886,六安市,开发区,,44,38,48,18,24,139,,101,101,6,13,3,4,0.4,0.6
2024-09-29T1400,2577A,104.83,26.5917,六盘水市,黄土坡,,28,23,24,19,21,57,,43,39,6,8,7,6,0.2,0.3
2024-09-29T1400,2578A,104.89,26.5939,六盘水市,水钢,,24,24,29,16,18,59,,47,43,5,6,8,7,0.3,0.3
2024-09-29T1400,2579A,104.8475,26.5894,六盘水市,民中,,28,24,26,19,17,58,,46,39,8,10,7,7,0.3,0.4
2024-09-29T1400,2580A,104.9544,26.5506,六盘水市,双水,,34,34,30,14,17,50,,48,43,11,6,6,7,0.3,0.3
2024-09-29T1400,2336A,117.0217,25.1033,龙岩市,龙岩市监测站,,28,17,17,3,6,88,,78,78,4,11,6,8,0.3,0.4
2024-09-29T1400,2337A,117.0258,25.0661,龙岩市,闽西职业技术学院,,29,15,23,8,9,90,,79,79,2,12,4,7,0.4,0.5
2024-09-29T1400,2338A,117.0196,25.0306,龙岩市,龙岩学院,,29,14,19,6,8,90,,74,74,4,13,6,5,0.4,0.4
2024-09-29T1400,2885A,104.9339,33.3826,陇南市,滨江中学,,29,29,36,16,16,82,,86,78,4,6,7,7,0.6,0.7
2024-09-29T1400,3247A,104.955,33.371,陇南市,市总工会,,27,27,27,6,8,84,,91,80,5,5,3,4,0.3,0.5
2024-09-29T1400,2487A,111.9589,27.8901,娄底市,电视发射台,颗粒物(PM10),51,51,42,28,26,120,,79,79,7,7,9,6,0.7,0.8
2024-09-29T1400,2488A,111.9975,27.725,娄底市,市监测站,颗粒物(PM10),61,72,56,33,40,118,,90,90,4,16,7,8,0.6,0.8
2024-09-29T1400,2489A,112.0194,27.7314,娄底市,市委党校,,43,42,52,30,38,108,,82,82,4,11,8,8,0.7,0.8
2024-09-29T1400,2490A,111.9561,27.7569,娄底市,涟钢,颗粒物(PM10),52,54,63,32,38,76,,55,55,32,23,19,10,1.4,0.6
2024-09-29T1400,2491A,111.9892,27.7044,娄底市,市政府,,36,36,52,24,40,114,,74,74,4,11,6,5,0.2,0.4
2024-09-29T1400,1893A,105.4324,28.9634,泸州市,九狮山,颗粒物(PM10),53,55,85,22,50,118,,74,74,17,21,5,5,0,0.5
2024-09-29T1400,1894A,105.4427,28.9063,泸州市,小市上码头,颗粒物(PM10),54,57,91,36,46,135,,89,89,12,16,6,6,0.6,0.7
2024-09-29T1400,1895A,105.4241,28.8573,泸州市,兰田宪桥,细颗粒物(PM2.5),74,68,68,54,56,151,,95,95,13,12,5,6,0.6,0.7
2024-09-29T1400,1896A,105.4379,28.8833,泸州市,市环监站,细颗粒物(PM2.5),60,54,71,43,55,133,,88,88,12,12,5,5,0.7,0.7
2024-09-29T1400,3490A,105.3617,28.7703,泸州市,纳溪区环保局,细颗粒物(PM2.5),80,87,91,59,71,145,,93,93,13,24,7,7,0.6,0.9
2024-09-29T1400,2183A,111.1406,37.5211,吕梁市,环保局,,14,6,48,3,34,43,,120,68,18,13,4,5,0.5,0.6
2024-09-29T1400,2185A,111.1297,37.5136,吕梁市,自来水公司,,16,8,44,3,31,51,,123,72,14,12,3,3,0.5,0.6
2024-09-29T1400,2867A,111.1283,37.51,吕梁市,马茂庄小学,,14,,50,8,34,44,,119,64,20,17,2,3,0.4,0.5
2024-09-29T1400,1812A,112.3931,34.6516,洛阳市,市委党校,颗粒物(PM10),64,78,74,43,37,149,,104,104,12,18,6,7,0.6,0.6
2024-09-29T1400,1814A,112.4657,34.6871,洛阳市,豫西宾馆,颗粒物(PM10),63,76,80,39,35,148,,103,103,7,14,7,9,0.6,0.6
2024-09-29T1400,1815A,112.494,34.6886,洛阳市,河南林校,颗粒物(PM10),61,71,71,41,35,152,,103,103,12,18,5,7,0.4,0.5
2024-09-29T1400,1816A,112.3844,34.623,洛阳市,开发区管委会,细颗粒物(PM2.5),65,71,64,47,36,160,,113,113,11,15,1,2,0.5,0.5
2024-09-29T1400,1817A,112.4267,34.6258,洛阳市,市委新办公区,细颗粒物(PM2.5),62,67,63,44,41,155,,107,107,10,14,3,3,0.3,0.3
2024-09-29T1400,3340A,112.6005,34.6326,洛阳市,伊滨,颗粒物(PM10),70,89,68,42,41,160,,105,105,11,16,9,9,0.7,0.7
2024-09-29T1400,3341A,112.4951,34.6332,洛阳市,中移产业园,颗粒物(PM10),60,70,70,41,39,160,,111,111,10,17,3,4,0.8,0.8
2024-09-29T1400,3593A,112.5736,34.8993,洛阳市,吉利监测站,颗粒物(PM10),63,76,72,41,31,134,,101,101,8,14,4,5,0.5,0.5
2024-09-29T1400,3635A,112.3677,34.662,洛阳市,河科大西苑校区,颗粒物(PM10),61,71,75,27,28,158,,110,110,12,19,4,5,0.6,0.6
2024-09-29T1400,3636A,112.4388,34.6781,洛阳市,英才小学,颗粒物(PM10),63,75,78,35,38,148,,102,102,11,17,3,4,0.6,0.6
2024-09-29T1400,2399A,114.051,33.5699,漯河市,三五一五工厂,颗粒物(PM10),64,78,75,20,31,163,,107,107,8,14,6,8,0.6,0.6
2024-09-29T1400,2400A,114.0055,33.5698,漯河市,漯河大学,颗粒物(PM10),65,80,69,24,31,165,,110,110,8,13,5,6,0.7,0.7
2024-09-29T1400,2401A,114.0138,33.5828,漯河市,市水利局,颗粒物(PM10),67,83,73,19,29,168,,110,110,5,10,5,6,0.5,0.6
2024-09-29T1400,2402A,114.0261,33.5698,漯河市,市广电局,颗粒物(PM10),67,83,71,23,29,169,,112,112,6,11,8,8,0.7,0.7
2024-09-29T1400,3478A,113.9749,33.5664,漯河市,市图书馆,臭氧1小时,59,65,65,20,30,167,,114,114,7,13,12,14,0.6,0.7
2024-09-29T1400,3479A,114.0967,33.5906,漯河市,召陵区卫健委,臭氧1小时,63,46,71,24,35,170,,110,110,5,12,7,10,0.6,0.6
2024-09-29T1400,1798A,118.5092,31.6837,马鞍山市,湖东路四小,,50,50,45,6,26,119,,92,92,11,19,8,8,0.5,0.8
2024-09-29T1400,1799A,118.5024,31.6449,马鞍山市,开发区,,38,29,46,8,25,119,,90,90,9,20,7,7,0.7,0.9
2024-09-29T1400,1800A,118.5228,31.7231,马鞍山市,慈湖,,38,27,46,13,28,121,,94,94,6,14,8,9,0.6,0.8
2024-09-29T1400,1802A,118.6245,31.7241,马鞍山市,濮塘,,36,25,42,7,29,113,,89,89,5,14,8,8,0.7,0.9
2024-09-29T1400,3633A,118.4918,31.6809,马鞍山市,雨山,,37,26,43,10,24,117,,90,90,7,15,9,9,0.8,1
2024-09-29T1400,1686A,111.0286,21.4688,茂名市,电白南海,,25,22,35,12,18,80,,60,60,4,10,9,12,0.5,0.6
2024-09-29T1400,1687A,110.9294,21.6533,茂名市,茂石化七小,,30,29,40,12,25,94,,68,68,5,11,6,11,0.6,0.7
2024-09-29T1400,1688A,110.9107,21.6687,茂名市,健康路,,32,22,32,9,18,100,,74,74,2,8,11,18,0.7,0.9
2024-09-29T1400,1689A,110.8592,21.6828,茂名市,高岭,,28,17,49,14,27,88,,65,65,6,19,6,16,0.7,0.8
2024-09-29T1400,3450A,111.01,21.5165,茂名市,电白水东,,24,14,28,12,21,76,,60,60,4,10,6,10,0.5,0.7
2024-09-29T1400,2539A,104.0308,30.0478,眉山市,黑龙滩水库,细颗粒物(PM2.5),59,48,66,42,56,47,,39,39,14,16,2,2,0.6,0.6
2024-09-29T1400,2540A,103.8416,30.0874,眉山市,气象局,细颗粒物(PM2.5),64,,60,46,54,38,,44,38,27,26,10,8,0.7,0.7
2024-09-29T1400,3137A,103.8578,30.0744,眉山市,市委党校,,,63,74,41,49,37,,48,38,33,28,10,11,,0.8
2024-09-29T1400,3148A,103.8291,30.0564,眉山市,区人社局,细颗粒物(PM2.5),58,47,63,41,48,40,,48,39,28,26,15,14,0.8,0.7
2024-09-29T1400,1690A,116.1231,24.3284,梅州市,梅江月梅,,27,13,19,3,18,86,,51,51,1,8,7,7,0.4,0.5
2024-09-29T1400,1691A,116.0797,24.2719,梅州市,梅县新城,,27,22,24,7,11,86,,51,51,4,16,4,5,0.5,0.6
2024-09-29T1400,1692A,116.1248,24.2654,梅州市,环境监控中心,,26,22,26,10,12,82,,51,51,5,17,6,6,0.4,0.5
2024-09-29T1400,3315A,116.1233,24.2991,梅州市,梅龙,,25,9,17,6,11,79,,52,52,1,9,8,10,0.4,0.5
2024-09-29T1400,1878A,104.7778,31.4741,绵阳市,富乐山,,50,,42,35,38,79,,60,60,5,10,2,2,0.6,0.7
2024-09-29T1400,1879A,104.7563,31.4535,绵阳市,市人大,,39,39,45,22,34,75,,52,50,5,17,10,10,0.5,0.6
2024-09-29T1400,1880A,104.6697,31.4668,绵阳市,高新区自来水公司,,21,12,40,7,30,67,,49,46,6,18,3,4,0.5,0.7
2024-09-29T1400,1881A,104.7287,31.5075,绵阳市,三水厂,,43,,46,30,40,72,,49,49,5,20,6,6,0.7,0.8
2024-09-29T1400,3491A,104.69,31.5322,绵阳市,西科大附属小学,,33,,45,23,32,69,,48,48,6,19,4,4,0.6,0.7
2024-09-29T1400,3492A,104.5648,31.5343,绵阳市,安州区旅游局,,22,22,38,9,35,66,,68,64,10,10,8,6,0.6,0.6
2024-09-29T1400,1784A,129.61,44.561,牡丹江市,环保大楼,,27,17,31,16,19,85,,54,54,6,22,7,7,0.3,0.4
2024-09-29T1400,1785A,129.6115,44.5782,牡丹江市,文化广场,,25,16,52,10,28,80,,49,49,8,30,8,9,0.4,0.6
2024-09-29T1400,1786A,129.5904,44.5963,牡丹江市,第一医院,,27,27,38,9,26,86,,56,56,8,21,7,7,0.3,0.5
2024-09-29T1400,1787A,129.6364,44.6075,牡丹江市,机车工厂,,28,28,35,7,19,85,,53,53,8,16,6,40,0.3,0.4
2024-09-29T1400,1788A,129.6386,44.5462,牡丹江市,第一中学,,28,19,25,6,14,88,,54,54,5,16,5,6,0.3,0.3
2024-09-29T1400,2531A,105.0703,29.61,内江市,市监测站,细颗粒物(PM2.5),70,,46,51,52,107,,76,76,15,14,7,5,0.6,0.6
2024-09-29T1400,2532A,105.0717,29.5947,内江市,东兴区政府,细颗粒物(PM2.5),68,54,46,49,48,113,,79,79,18,18,7,6,0.6,0.6
2024-09-29T1400,2533A,105.0653,29.5817,内江市,内江二中,细颗粒物(PM2.5),85,,58,63,60,115,,79,79,17,15,10,9,0.7,0.7
2024-09-29T1400,2534A,105.0406,29.5822,内江市,内江日报社,细颗粒物(PM2.5),80,,57,59,57,114,,78,78,23,22,6,7,0.8,0.7
2024-09-29T1400,2628A,92.0657,31.4846,那曲市,那曲监测站,,27,27,26,9,13,71,,39,39,4,8,8,5,0.4,0.5
2024-09-29T1400,3128A,92.0506,31.4797,那曲市,那曲会议中心,,26,6,24,3,11,81,,44,44,2,8,3,3,0.4,0.5
2024-09-29T1400,1290A,115.8931,28.6843,南昌市,省外办,颗粒物(PM10),58,65,55,29,23,145,,115,115,12,18,8,8,0.7,0.7
2024-09-29T1400,1291A,115.8886,28.7003,南昌市,省林业公司,,47,39,39,19,18,150,,114,114,10,24,7,7,0.5,0.6
2024-09-29T1400,1292A,115.8126,28.7442,南昌市,林科所,,46,31,23,9,10,145,,118,118,12,22,4,4,0.3,0.5
2024-09-29T1400,1294A,115.8518,28.687,南昌市,建工学校,,47,36,34,22,14,148,,118,118,9,19,8,8,0.5,0.5
2024-09-29T1400,1295A,115.8921,28.6424,南昌市,象湖,臭氧1小时,52,30,27,17,15,161,,132,132,9,15,12,10,1.1,1
2024-09-29T1400,1296A,115.7423,28.7996,南昌市,武术学校,,48,,16,33,15,137,,96,96,7,8,4,4,0.5,0.5
2024-09-29T1400,1298A,115.9314,28.6842,南昌市,省站,,42,,32,23,18,132,,110,110,20,20,9,10,0.6,0.7
2024-09-29T1400,3046A,115.9084,28.6062,南昌市,机电学校,,48,48,45,19,19,146,,116,116,11,18,14,13,0.8,0.6
2024-09-29T1400,3690A,115.9721,28.7031,南昌市,外国语学校,,44,40,34,16,14,140,,113,113,8,12,7,7,0.6,0.6
2024-09-29T1400,1905A,106.056,30.8064,南充市,西山风景区,细颗粒物(PM2.5),65,47,47,47,44,50,,59,56,10,10,5,4,0.9,0.8
2024-09-29T1400,1906A,106.0789,30.8023,南充市,南充市委,细颗粒物(PM2.5),75,83,67,55,52,48,,53,53,16,22,7,4,0.6,0.6
2024-09-29T1400,1907A,106.1031,30.8217,南充市,南充炼油厂,细颗粒物(PM2.5),75,79,69,55,50,49,,64,63,14,16,7,5,0.4,0.4
2024-09-29T1400,1908A,106.1064,30.7856,南充市,高坪区监测站,颗粒物(PM10),86,121,73,49,48,49,,56,56,19,23,10,7,0.6,0.6
2024-09-29T1400,1909A,106.0642,30.7636,南充市,嘉陵区环保局,细颗粒物(PM2.5),67,62,64,48,43,46,,40,39,18,25,6,4,0.6,0.7
2024-09-29T1400,1910A,106.1087,30.8388,南充市,市环境监测站,颗粒物(PM10),64,77,69,45,48,50,,63,62,15,16,8,6,0.5,0.4
2024-09-29T1400,1151A,118.8086,32.1065,南京市,迈皋桥,,42,27,35,12,20,134,,98,98,5,10,4,4,0.2,0.4
2024-09-29T1400,1152A,118.7538,32.0551,南京市,草场门,,34,29,37,12,18,108,,90,90,13,15,5,5,0.2,0.3
2024-09-29T1400,1153A,118.7794,32.0745,南京市,山西路,,40,31,39,9,21,125,,107,107,10,12,4,4,0.3,0.5
2024-09-29T1400,1154A,118.7752,32.0023,南京市,中华门,,35,27,35,9,20,110,,89,89,6,13,5,5,0.3,0.5
2024-09-29T1400,1155A,118.8109,32.0309,南京市,瑞金路,,35,31,40,12,22,112,,91,91,2,11,4,5,0.2,0.4
2024-09-29T1400,1156A,118.7997,32.0754,南京市,玄武湖,,36,29,37,9,15,114,,92,92,10,19,5,6,0.3,0.5
2024-09-29T1400,1157A,118.6414,32.0931,南京市,浦口,,33,31,39,13,19,105,,83,83,7,16,5,5,0.3,0.4
2024-09-29T1400,1158A,118.7356,31.9996,南京市,奥体中心,,37,29,40,14,24,118,,96,96,6,13,5,6,0.3,0.4
2024-09-29T1400,1159A,118.9125,32.1028,南京市,仙林大学城,,45,41,38,12,18,141,,105,105,10,13,5,6,0.4,0.6
2024-09-29T1400,3422A,118.8436,31.9198,南京市,江宁彩虹桥,,38,28,42,12,24,120,,88,88,3,12,4,4,0.4,0.6
2024-09-29T1400,3423A,119.0138,31.6494,南京市,溧水永阳,,36,22,40,9,21,114,,88,88,8,19,4,4,0.4,0.7
2024-09-29T1400,3424A,118.879,31.3302,南京市,高淳老职中,,48,48,32,15,22,126,,93,93,8,16,4,5,0.5,0.6
2024-09-29T1400,3427A,118.8554,32.3578,南京市,六合雄州,,46,,38,18,19,145,,93,93,12,13,6,7,0.4,0.4
2024-09-29T1400,1401A,108.3103,22.7881,南宁市,二十一中,,25,25,36,15,11,52,,33,33,5,11,4,6,1.0,1
2024-09-29T1400,1402A,108.3141,22.8528,南宁市,北湖,,21,19,24,13,15,67,,35,35,8,12,3,4,0.6,0.7
2024-09-29T1400,1403A,108.3206,22.8225,南宁市,市监测站,,,23,24,12,17,65,,37,37,,12,5,7,0.5,0.6
2024-09-29T1400,1404A,108.3829,22.8037,南宁市,大自然花园,,21,21,22,11,15,65,,36,36,7,10,5,6,0.3,0.4
2024-09-29T1400,1405A,108.4394,22.7904,南宁市,仙葫,,23,20,25,13,15,72,,41,41,5,11,7,8,0.8,0.9
2024-09-29T1400,1406A,108.2397,22.8467,南宁市,区农职院,,23,19,26,16,17,50,,32,32,5,11,4,5,0.8,0.9
2024-09-29T1400,1407A,108.3275,22.735,南宁市,英华嘉园,,33,33,23,7,11,46,,30,30,9,14,4,5,0.6,0.7
2024-09-29T1400,1408A,108.2257,22.7757,南宁市,沙井镇街道办,,19,19,32,13,16,48,,32,32,5,16,3,3,0.5,0.6
2024-09-29T1400,3401A,108.4834,22.7618,南宁市,红星社区,,25,22,25,12,13,79,,38,38,5,12,8,9,0.6,0.7
2024-09-29T1400,2332A,118.1681,26.6369,南平市,南平市监测站,,28,19,19,12,7,88,,66,66,4,10,5,5,0.3,0.4
2024-09-29T1400,2333A,118.1825,26.6489,南平市,南平铝业有限公司,,28,26,20,11,7,87,,66,66,7,13,4,5,0.2,0.3
2024-09-29T1400,2334A,118.1756,26.6272,南平市,南平七中,,28,22,19,11,7,87,,66,66,5,8,4,4,0.5,0.5
2024-09-29T1400,1168A,120.9098,31.9663,南通市,狼山街道,,31,23,27,10,18,97,,86,86,1,9,6,7,0.4,0.5
2024-09-29T1400,1169A,120.86,32.0005,南通市,虹桥,,31,17,29,6,16,97,,84,84,4,11,6,6,0.4,0.6
2024-09-29T1400,1170A,120.87,32.02,南通市,城中,,34,34,38,7,16,100,,85,85,3,13,4,5,0.3,0.5
2024-09-29T1400,1171A,120.94,31.93,南通市,星湖花园,,30,24,26,3,14,94,,83,83,6,15,5,6,0.3,0.4
2024-09-29T1400,1172A,120.81,32.0417,南通市,紫琅学院,,,23,29,3,16,96,,81,81,6,13,,7,0.1,0.3
2024-09-29T1400,3291A,121.067,32.062,南通市,通州监测站,,31,24,27,3,12,97,,89,89,5,7,3,2,0.6,0.7
2024-09-29T1400,3432A,120.9348,31.9883,南通市,环境教育馆,,34,34,36,3,17,97,,84,84,5,15,3,4,0.4,0.5
2024-09-29T1400,2404A,112.5224,33.0122,南阳市,瓦房庄,臭氧1小时,52,51,63,22,37,161,,130,130,9,16,4,4,0.6,0.7
2024-09-29T1400,2405A,112.5003,32.9735,南阳市,汉画馆,颗粒物(PM10),53,55,66,30,40,159,,131,131,11,15,7,7,0.7,0.7
2024-09-29T1400,2406A,112.5573,33.027,南阳市,气象站,,50,50,68,17,38,158,,131,131,11,16,6,8,0.5,0.6
2024-09-29T1400,2407A,112.5481,32.9689,南阳市,理工学院,,49,47,63,19,35,156,,126,126,10,15,6,7,0.6,0.7
2024-09-29T1400,4008A,112.5234,32.9922,南阳市,卧龙区政府,颗粒物(PM10),52,53,69,25,38,157,,128,128,9,14,5,5,0.7,0.8
2024-09-29T1400,1234A,121.8358,29.911,宁波市,区环保大楼,,38,38,42,15,20,80,,50,50,15,38,9,7,0.7,0.6
2024-09-29T1400,1235A,121.56,29.82,宁波市,万里学院,,38,38,47,15,32,76,,55,55,19,37,6,6,0.6,0.7
2024-09-29T1400,1236A,121.713,29.9572,宁波市,龙赛医院,,48,48,47,16,20,77,,60,60,19,34,11,9,0.6,0.7
2024-09-29T1400,1239A,121.633,29.7733,宁波市,钱湖水厂,,22,12,44,6,24,70,,51,51,11,26,8,9,0.5,0.7
2024-09-29T1400,1240A,121.5856,29.8635,宁波市,太古小学,,36,36,47,19,24,90,,60,60,20,37,8,8,0.9,0.9
2024-09-29T1400,1241A,121.524,29.8674,宁波市,市环境监测中心,,33,31,38,16,17,103,,69,69,16,25,4,4,0.7,0.7
2024-09-29T1400,2871A,121.6147,29.9017,宁波市,万里国际学校,,30,28,36,21,22,87,,64,64,21,35,9,8,0.6,0.6
2024-09-29T1400,3710A,121.5594,29.8975,宁波市,白沙活动中心,,35,35,44,16,18,93,,71,71,22,31,9,9,0.4,0.5
2024-09-29T1400,2341A,119.5388,26.6612,宁德市,宁德市监测站,,39,39,38,25,19,72,,50,48,18,17,7,7,0.6,0.6
2024-09-29T1400,3209A,119.5231,26.6562,宁德市,宁德一中,颗粒物(PM10),51,51,39,23,15,77,,50,48,13,11,5,6,0.4,0.5
2024-09-29T1400,2618A,98.8601,25.8567,怒江傈僳族自治州,州监测站,,17,12,21,8,12,54,,28,28,5,11,4,6,0.4,0.4
2024-09-29T1400,2619A,98.8546,25.8417,怒江傈僳族自治州,泸水一中,,16,12,18,3,9,49,,23,23,7,14,6,6,0.3,0.4
2024-09-29T1400,1888A,101.6891,26.571,攀枝花市,弄弄坪,,35,25,43,13,16,110,,44,44,10,27,21,22,0.7,1.5
2024-09-29T1400,1889A,101.5769,26.5928,攀枝花市,河门口,,41,23,26,14,15,131,,53,53,12,18,21,11,1.4,0.8
2024-09-29T1400,1890A,101.7169,26.585,攀枝花市,炳草岗,,38,28,36,12,16,121,,49,49,10,28,27,21,1.0,1
2024-09-29T1400,1891A,101.7369,26.5008,攀枝花市,仁和,,29,18,22,10,12,92,,48,48,7,12,11,6,0.4,0.5
2024-09-29T1400,2835A,101.7227,26.567,攀枝花市,四十中小,,37,34,35,20,18,116,,48,48,7,21,15,12,0.8,0.9
2024-09-29T1400,1604A,122.0303,41.1489,盘锦市,开发区,,40,40,41,15,31,102,,79,79,9,25,7,9,0,0.2
2024-09-29T1400,1605A,122.0485,41.0883,盘锦市,兴隆台,,36,36,43,15,34,101,,77,77,11,34,4,6,0.3,0.5
2024-09-29T1400,1606A,121.8297,41.1028,盘锦市,新生街道,,38,38,30,12,21,120,,84,84,9,19,7,9,0.4,0.6
2024-09-29T1400,1832A,113.3257,33.742,平顶山市,新华旅馆,颗粒物(PM10),61,71,96,35,39,160,,102,102,16,19,7,7,0.5,0.5
2024-09-29T1400,1833A,113.2919,33.737,平顶山市,规划设计院,臭氧1小时,63,64,74,38,36,170,,107,107,16,21,9,8,0.7,0.7
2024-09-29T1400,1834A,113.182,33.774,平顶山市,平顶山工学院,颗粒物(PM10),62,73,75,41,34,150,,82,82,14,19,7,8,0.6,0.5
2024-09-29T1400,3204A,113.3025,33.73,平顶山市,规划局,颗粒物(PM10),69,88,92,37,37,168,,106,106,14,17,7,7,0.9,0.8
2024-09-29T1400,3594A,112.8867,33.9116,平顶山市,石龙区,颗粒物(PM10),68,85,88,47,38,152,,96,96,18,18,15,13,0.8,0.7
2024-09-29T1400,2656A,106.6692,35.5461,平凉市,聚贤嘉苑,,30,28,61,6,39,93,,96,91,10,17,6,9,0.1,0.4
2024-09-29T1400,2657A,106.7021,35.5307,平凉市,博物馆,,30,30,65,10,42,95,,97,91,4,17,7,8,0.3,0.5
2024-09-29T1400,2347A,114.0997,27.5002,萍乡市,武功山,,34,19,22,3,6,107,,54,54,6,5,12,9,0.5,0.4
2024-09-29T1400,2348A,113.8385,27.6434,萍乡市,中医院,,36,22,38,17,21,115,,88,88,4,10,10,20,0.8,0.8
2024-09-29T1400,2349A,113.8493,27.6253,萍乡市,市政府车库,,39,,39,16,29,123,,82,82,5,17,12,19,0.7,1.5
2024-09-29T1400,2350A,113.8676,27.6435,萍乡市,市环保局,,36,16,37,6,24,113,,81,81,1,9,10,18,0.6,0.7
2024-09-29T1400,2351A,113.866,27.6198,萍乡市,安源区政府,,40,20,42,10,20,128,,83,83,6,23,12,13,0.5,0.7
2024-09-29T1400,2319A,119.0141,25.4325,莆田市,荔城区仓后路,,26,26,27,8,12,71,,96,79,9,10,7,8,0.7,0.7
2024-09-29T1400,2320A,119.0015,25.4553,莆田市,莆田市监测站,,24,22,21,9,12,74,,98,82,6,6,7,7,0.4,0.4
2024-09-29T1400,2321A,119.1119,25.4561,莆田市,涵江区六中,,25,22,28,9,13,78,,92,82,4,6,8,8,0.5,0.5
2024-09-29T1400,2322A,119.1013,25.3215,莆田市,秀屿区政府,,28,18,32,10,15,87,,86,86,4,6,8,8,0.6,0.6
2024-09-29T1400,2392A,115.0312,35.7636,濮阳市,环保局,,50,48,45,25,24,158,,104,104,10,18,7,9,0.5,0.6
2024-09-29T1400,2394A,115.0574,35.7609,濮阳市,油田运输公司,臭氧1小时,55,45,48,28,27,164,,105,105,9,16,5,7,0.5,0.5
2024-09-29T1400,2395A,115.0866,35.7754,濮阳市,油田物探公司,颗粒物(PM10),54,57,56,32,29,162,,106,106,9,15,4,6,0.5,0.5
2024-09-29T1400,3021A,115,35.7668,濮阳市,濮水河管理处,,47,42,45,24,26,148,,97,97,7,13,6,7,0.4,0.4
2024-09-29T1400,2601A,100.98,22.7633,普洱市,市环保局,,16,16,21,9,10,43,,27,27,4,5,4,4,0.3,0.3
2024-09-29T1400,2602A,100.9817,22.8322,普洱市,普洱第二中学,,18,18,22,9,9,42,,28,28,4,7,10,10,0.4,0.5
2024-09-29T1400,2262A,131.0518,45.8751,七台河市,新一中,,37,26,17,15,9,118,,78,78,8,9,9,10,1.1,1.2
2024-09-29T1400,3345A,131.0577,45.7879,七台河市,中波台,,27,26,16,7,6,86,,55,55,16,14,6,6,0.4,0.4
2024-09-29T1400,3637A,131.0176,45.7761,七台河市,人民广场,,30,24,27,15,12,94,,56,56,10,16,9,9,0.4,0.4
2024-09-29T1400,3684A,130.8781,45.8222,七台河市,新建矿广场,颗粒物(PM10),82,114,72,11,20,87,,59,59,14,33,5,6,0.2,0.5
2024-09-29T1400,1779A,123.9305,47.3636,齐齐哈尔市,安居小区,颗粒物(PM10),56,62,45,39,27,103,,93,83,21,17,12,11,0.8,0.6
2024-09-29T1400,1780A,123.9488,47.3386,齐齐哈尔市,中心广场,颗粒物(PM10),55,60,55,10,12,106,,85,81,16,15,3,2,0.5,0.4
2024-09-29T1400,1781A,123.9483,47.3227,齐齐哈尔市,农牧车辆厂,,46,46,44,20,16,113,,89,87,8,9,9,9,0.4,0.4
2024-09-29T1400,1783A,123.945,47.2988,齐齐哈尔市,市环境监测站,颗粒物(PM10),65,79,35,34,21,117,,93,93,8,9,9,9,0.5,0.4
2024-09-29T1400,3662A,123.6333,47.2075,齐齐哈尔市,富区青少年活动中心,颗粒物(PM10),53,55,38,12,12,112,,83,83,10,11,6,5,0.6,0.5
2024-09-29T1400,2591A,107.9783,26.5747,黔东南苗族侗族自治州,市环境监测站,,38,33,35,26,29,44,,37,34,20,20,4,4,0.7,0.6
2024-09-29T1400,2881A,107.8908,26.5311,黔东南苗族侗族自治州,凯里学院,,23,,23,16,23,45,,42,33,4,9,3,2,0.6,0.8
2024-09-29T1400,2593A,107.5228,26.2403,黔南布依族苗族自治州,小围寨,,14,6,20,3,16,42,,45,32,2,4,4,4,0.5,0.6
2024-09-29T1400,3538A,107.5175,26.2978,黔南布依族苗族自治州,沙坝,,14,6,23,3,14,43,,53,38,4,5,4,4,0.3,0.4
2024-09-29T1400,2589A,104.9022,25.0925,黔西南布依族苗族自治州,场坝街,,15,12,29,9,21,48,,47,43,4,5,2,3,0.2,0.3
2024-09-29T1400,2590A,104.8811,25.0992,黔西南布依族苗族自治州,坪东大道,,19,19,35,8,22,46,,48,41,4,5,7,7,0.2,0.2
2024-09-29T1400,2502A,108.6236,21.9667,钦州市,市环保站,,27,24,26,7,6,86,,44,44,8,19,8,9,0.6,0.6
2024-09-29T1400,2503A,108.6549,21.9481,钦州市,沙埠小学,,28,28,28,15,11,76,,39,39,7,20,6,6,0.7,0.8
2024-09-29T1400,2504A,108.5989,21.7431,钦州市,港区一小,,21,21,28,9,8,66,,41,41,5,10,5,5,0.5,0.5
2024-09-29T1400,3404A,108.5959,21.9633,钦州市,北职校,,31,17,26,10,9,99,,44,44,8,19,7,7,0.6,0.6
2024-09-29T1400,1042A,119.5134,39.8207,秦皇岛市,北戴河环保局,,36,32,32,9,11,114,,96,96,7,11,2,2,0.4,0.4
2024-09-29T1400,1043A,119.7493,40.0116,秦皇岛市,第一关,,39,37,50,21,29,122,,79,79,6,50,2,2,0.3,0.4
2024-09-29T1400,1044A,119.5897,39.9499,秦皇岛市,监测站,,45,39,47,31,29,112,,67,67,10,47,3,3,0.3,0.4
2024-09-29T1400,1046A,119.5251,39.9041,秦皇岛市,建设大厦,,38,23,50,7,18,120,,72,72,3,36,2,2,0.3,0.4
2024-09-29T1400,3132A,119.610547,39.943889,秦皇岛市,文明里,,48,48,54,7,21,119,,76,76,6,44,2,2,0.3,0.5
2024-09-29T1400,1307A,120.6659,36.2403,青岛市,仰口,,33,25,15,13,13,105,,106,106,4,3,7,6,0.4,0.6
2024-09-29T1400,1310A,120.4134,36.0658,青岛市,市南区东部子站,,40,19,15,9,8,126,,126,126,5,7,6,6,0.4,0.5
2024-09-29T1400,1311A,120.3664,36.1032,青岛市,四方区子站,,40,19,17,9,11,125,,128,128,14,14,9,9,0.5,0.5
2024-09-29T1400,1312A,120.2994,36.054,青岛市,市南区西部子站,,38,24,18,7,5,119,,134,133,13,6,9,8,0.6,0.6
2024-09-29T1400,1313A,120.4581,36.0858,青岛市,崂山区子站,,44,14,11,9,6,139,,139,139,13,9,9,8,0.5,0.5
2024-09-29T1400,1314A,120.1983,35.9608,青岛市,黄岛区子站,,39,14,14,10,9,123,,132,130,6,6,8,8,0.5,0.4
2024-09-29T1400,1315A,120.3999,36.3083,青岛市,城阳区子站,,39,22,31,7,12,123,,103,103,10,43,7,7,0.5,0.7
2024-09-29T1400,1966A,120.0405,35.8735,青岛市,黄岛区4号,,39,19,16,9,6,122,,133,131,4,5,6,5,0.5,0.5
2024-09-29T1400,3362A,120.5014,36.4034,青岛市,即墨2号,,39,24,19,12,11,123,,113,113,7,10,6,6,0.4,0.4
2024-09-29T1400,3642A,120.3503,36.0736,青岛市,市北区南部,,36,16,20,9,7,115,,121,121,11,14,6,7,0.4,0.4
2024-09-29T1400,3643A,120.3948,36.1805,青岛市,李沧区北部,,38,24,26,9,13,120,,116,116,10,19,9,8,0.6,0.6
2024-09-29T1400,1702A,113.0426,23.691,清远市,环保大楼,,43,32,45,16,20,136,,68,68,9,18,7,7,0.9,1
2024-09-29T1400,1703A,113.0208,23.7106,清远市,凤城街办,,44,26,30,19,19,140,,68,68,7,13,7,7,0.7,0.8
2024-09-29T1400,3025A,113.0477,23.6344,清远市,技师学院,臭氧1小时,57,33,40,18,20,165,,77,77,8,22,6,7,0.8,0.8
2024-09-29T1400,3318A,112.9903,23.7403,清远市,清新太和,,41,25,29,17,18,131,,63,63,8,11,1,2,0.7,0.8
2024-09-29T1400,3455A,113.076,23.7198,清远市,清城东城,,42,26,28,12,16,132,,70,70,2,8,3,4,0.7,0.8
2024-09-29T1400,2661A,107.6325,35.7357,庆阳市,庆阳五中,,20,17,51,3,25,63,,98,69,7,7,6,7,0.3,0.5
2024-09-29T1400,2662A,107.6364,35.7067,庆阳市,市环保局,,22,17,50,6,26,69,,97,74,7,8,6,7,0.2,0.4
2024-09-29T1400,1916A,103.7897,25.5035,曲靖市,环境监测站,,16,16,19,6,9,48,,36,36,6,9,2,3,0.7,0.7
2024-09-29T1400,1917A,103.8,25.5364,曲靖市,烟厂办公区,,16,12,18,3,10,51,,39,39,5,8,4,4,0.4,0.4
2024-09-29T1400,3376A,103.7947,25.462,曲靖市,南苑二区,,16,10,14,3,8,50,,38,38,5,8,8,6,0.3,0.3
2024-09-29T1400,3377A,103.7444,25.5261,曲靖市,曲靖师范学院,,17,,15,7,9,54,,41,41,6,9,6,8,0.5,0.5
2024-09-29T1400,1264A,118.8692,28.9398,衢州市,环保大楼,,38,20,44,13,26,119,,97,97,8,17,3,3,0.4,0.5
2024-09-29T1400,1265A,118.8709,28.9666,衢州市,实验学校,,37,25,40,14,26,116,,98,98,6,14,6,6,0.6,0.6
2024-09-29T1400,1266A,118.8621,28.9808,衢州市,衢州学院,,34,22,40,13,24,107,,94,94,6,17,8,7,0.5,0.6
2024-09-29T1400,1611A,118.5819,24.9117,泉州市,涂山街,,24,16,27,9,16,74,,89,78,5,9,2,2,0.6,0.6
2024-09-29T1400,1612A,118.5972,24.8978,泉州市,津头埔,,22,18,30,9,16,70,,85,74,6,10,4,4,0.6,0.7
2024-09-29T1400,1613A,118.6663,24.9424,泉州市,万安,,24,18,28,10,14,75,,91,79,5,7,2,2,0.6,0.6
2024-09-29T1400,3529A,118.6333,24.9264,泉州市,城华南路,,23,17,24,8,13,72,,93,80,4,6,3,3,0.3,0.3
2024-09-29T1400,2626A,88.8876,29.2718,日喀则市,日喀则监测站,,30,6,9,3,4,94,,55,55,6,9,4,6,0.4,0.4
2024-09-29T1400,3726A,88.8781,29.2426,日喀则市,林业技术推广中心,,29,6,10,3,2,91,,55,55,5,9,6,6,0.6,0.6
2024-09-29T1400,1659A,119.471,35.4209,日照市,监测站,,37,27,18,9,13,116,,99,99,9,26,11,11,0.3,0.5
2024-09-29T1400,1660A,119.523,35.4216,日照市,市政府广场,,41,22,20,11,10,129,,129,129,5,9,10,9,0.4,0.4
2024-09-29T1400,1661A,119.5587,35.4044,日照市,港务局,,41,17,18,13,13,130,,136,136,4,4,6,8,0.3,0.3
2024-09-29T1400,3507A,119.5328,35.4625,日照市,职业技术学院,,41,24,19,7,10,130,,122,122,6,9,9,8,0.5,0.5
2024-09-29T1400,3604A,119.3266,35.1044,日照市,岚山环保分局,,36,14,23,12,12,115,,119,119,5,12,8,9,0.5,0.5
2024-09-29T1400,1835A,111.1922,34.7752,三门峡市,市政府,颗粒物(PM10),55,60,66,21,32,68,,106,97,17,16,9,13,0.7,0.8
2024-09-29T1400,1836A,111.1587,34.7942,三门峡市,开发区,,39,39,77,21,36,60,,105,96,17,16,9,11,0.5,0.6
2024-09-29T1400,1838A,111.143,34.7955,三门峡市,风景区,颗粒物(PM10),58,65,70,38,31,68,,116,108,15,15,9,11,0.7,0.8
2024-09-29T1400,3039A,111.1911,34.7829,三门峡市,三门峡市第一小学,颗粒物(PM10),55,59,68,19,31,68,,105,97,17,15,8,12,0.6,0.7
2024-09-29T1400,3598A,111.1,34.7167,三门峡市,富达温泉假日酒店,,,30,83,8,38,,,112,,18,18,9,11,0.2,0.8
2024-09-29T1400,2324A,117.6211,26.2625,三明市,三钢,,32,25,20,19,14,101,,74,74,6,11,8,7,0.5,0.5
2024-09-29T1400,2325A,117.635,26.2714,三明市,三明二中,,33,26,24,15,8,104,,76,76,6,11,6,4,0.4,0.4
2024-09-29T1400,2326A,117.6028,26.2378,三明市,三元区政府,,30,27,25,7,8,94,,71,71,11,20,4,3,0.4,0.5
2024-09-29T1400,1876A,109.5078,18.2489,三亚市,河东子站,,13,10,12,3,6,39,,12,,1,5,4,4,0.1,0.2
2024-09-29T1400,1877A,109.4964,18.2681,三亚市,河西子站,,,,13,,8,36,,21,21,2,9,,3,0.2,0.2
2024-09-29T1400,3540A,109.7348,18.3443,三亚市,君悦子站,,12,7,13,3,6,36,,28,28,2,8,3,3,0.3,0.3
2024-09-29T1400,2624A,91.7608,29.2313,山南市,山南监测站,,25,9,14,3,6,79,,38,38,2,10,8,9,0.3,0.4
2024-09-29T1400,2625A,91.7706,29.2436,山南市,山南人民医院,,26,6,11,3,5,82,,41,41,5,12,9,9,0.3,0.3
2024-09-29T1400,1674A,116.6794,23.3667,汕头市,金平子站,,29,21,30,8,21,92,,73,73,4,16,5,10,0.7,1
2024-09-29T1400,1675A,116.7244,23.3633,汕头市,龙湖子站,,26,25,34,16,14,83,,70,70,2,11,6,10,0.4,0.7
2024-09-29T1400,1677A,116.7519,23.4714,汕头市,澄海子站,,27,21,35,3,18,86,,67,67,5,18,5,8,0.6,0.8
2024-09-29T1400,1678A,116.6092,23.2539,汕头市,潮阳子站,,29,16,30,7,8,91,,72,72,3,10,6,7,0.5,0.6
2024-09-29T1400,3444A,116.454,23.2684,汕头市,潮南峡山,,29,7,35,3,16,91,,71,71,1,10,6,7,0.4,0.5
2024-09-29T1400,3624A,116.4069,23.2533,汕头市,潮南子站,,29,15,35,3,22,90,,67,67,8,17,6,6,0.6,0.7
2024-09-29T1400,1693A,115.3653,22.775,汕尾市,市环保局,,37,25,19,13,10,117,,84,84,7,10,7,7,0.7,0.7
2024-09-29T1400,1694A,115.3706,22.7898,汕尾市,市政府,,32,32,20,21,10,95,,69,69,8,12,8,8,0.5,0.6
2024-09-29T1400,1695A,115.3622,22.7925,汕尾市,新城中学,,40,40,21,13,9,102,,72,72,5,9,6,6,0.7,0.8
2024-09-29T1400,2645A,109.9154,33.8715,商洛市,监测站,,20,,63,8,35,64,,119,97,10,19,6,8,0.5,0.8
2024-09-29T1400,3045A,109.9643,33.8471,商洛市,商州区中学,,21,,71,14,41,67,,116,95,10,30,5,11,0.4,0.8
2024-09-29T1400,2408A,115.6702,34.4285,商丘市,环境监测站,,44,42,47,15,19,140,,102,102,8,13,5,4,0.4,0.4
2024-09-29T1400,2409A,115.6458,34.4045,商丘市,粮食局,,48,46,43,25,24,152,,110,110,4,8,6,5,0.5,0.5
2024-09-29T1400,2410A,115.6293,34.3948,商丘市,睢阳区环保局,颗粒物(PM10),53,55,44,22,19,145,,104,104,8,12,5,4,0.4,0.4
2024-09-29T1400,3171A,115.6071,34.4465,商丘市,梁园区档案局,,43,42,45,17,20,136,,101,101,5,9,4,5,0.5,0.6
2024-09-29T1400,1141A,121.4,31.238,上海市,普陀,,,36,35,16,13,91,,87,87,11,17,5,5,,0.7
2024-09-29T1400,1142A,121.478,31.2036,上海市,十五厂,,39,39,33,15,16,105,,86,86,12,18,9,8,0.4,0.4
2024-09-29T1400,1143A,121.467,31.3008,上海市,虹口,,32,32,34,18,15,88,,74,74,11,27,9,9,0.5,0.5
2024-09-29T1400,1144A,121.412,31.1654,上海市,徐汇上师大,,40,40,33,15,16,102,,85,85,16,21,6,6,0.6,0.6
2024-09-29T1400,1145A,121.536,31.2659,上海市,杨浦四漂,,43,43,40,11,15,87,,78,78,12,22,8,7,0.5,0.5
2024-09-29T1400,1147A,121.425,31.2261,上海市,静安监测站,,31,31,31,17,14,91,,82,82,14,21,6,6,0.4,0.4
2024-09-29T1400,1148A,121.703,31.1907,上海市,浦东川沙,,35,35,31,14,11,101,,86,86,10,16,6,6,0.5,0.5
2024-09-29T1400,1149A,121.533,31.2284,上海市,浦东新区监测站,,34,34,30,18,15,89,,79,79,17,18,7,6,0.5,0.6
2024-09-29T1400,1150A,121.577,31.2071,上海市,浦东张江,,33,33,32,17,16,84,,75,75,16,22,6,5,0.7,0.7
2024-09-29T1400,3265A,121.4316,31.3322,上海市,宝山庙行,,40,40,35,12,15,86,,71,71,21,30,15,9,1.0,0.7
2024-09-29T1400,3266A,121.8791,31.4662,上海市,崇明上实东滩,,30,28,21,11,8,96,,88,88,3,4,11,11,0.6,0.6
2024-09-29T1400,3268A,121.3162,31.2838,上海市,嘉定南翔,,35,35,33,13,16,97,,73,73,13,29,7,7,0.4,0.5
2024-09-29T1400,3269A,121.3359,30.7456,上海市,金山新城,,32,32,32,16,17,98,,78,78,4,15,5,5,0.3,0.4
2024-09-29T1400,3270A,121.4996,31.0739,上海市,闵行浦江,,35,35,32,16,16,101,,81,81,7,18,6,6,0.5,0.5
2024-09-29T1400,3271A,121.2886,31.1663,上海市,青浦徐泾,,38,38,32,16,15,112,,88,88,12,18,6,6,0.4,0.5
2024-09-29T1400,3272A,121.2186,31.0378,上海市,松江图书馆,,36,36,33,16,15,109,,82,82,11,20,4,4,0.5,0.5
2024-09-29T1400,3273A,121.3902,31.2059,上海市,长宁仙霞,,39,39,32,17,14,105,,86,86,11,17,6,6,0.6,0.7
2024-09-29T1400,3274A,121.7965,31.0507,上海市,浦东惠南,,39,39,34,16,12,102,,83,83,8,12,9,9,0.7,0.7
2024-09-29T1400,3544A,121.4891,30.925,上海市,奉贤南桥新城,,33,33,36,18,17,95,,76,76,7,17,8,8,0.6,0.7
2024-09-29T1400,2381A,118.005,28.4572,上饶市,百草园,,42,27,40,25,25,132,,125,125,6,11,1,3,0.6,0.7
2024-09-29T1400,2382A,117.9756,28.4436,上饶市,市监测站,,45,35,39,16,20,142,,130,130,6,12,3,4,0.6,0.7
2024-09-29T1400,2383A,117.9519,28.4628,上饶市,凤凰光学,,43,29,38,7,19,135,,126,126,6,14,5,5,0.6,0.7
2024-09-29T1400,3413A,118.1953,28.4401,上饶市,广丰区教体局,,43,42,43,16,23,137,,122,122,7,13,12,14,0.3,0.7
2024-09-29T1400,3685A,117.897,28.4315,上饶市,双创科技城,,43,35,39,12,20,137,,129,129,7,14,2,4,0.5,0.5
2024-09-29T1400,1669A,113.5824,24.7733,韶关市,市八中,,48,48,39,26,23,119,,70,70,2,10,11,12,0.5,0.7
2024-09-29T1400,1671A,113.5917,24.7972,韶关市,园林处,,36,14,31,13,23,115,,68,68,1,14,10,13,0.7,0.7
2024-09-29T1400,1672A,113.6735,24.7791,韶关市,韶关学院,,38,33,31,15,21,120,,63,63,6,16,9,13,0.5,0.4
2024-09-29T1400,1673A,113.5971,24.6863,韶关市,曲江监测站,,38,34,40,22,19,120,,66,66,3,15,11,12,0.8,0.9
2024-09-29T1400,3622A,113.5556,24.8082,韶关市,碧湖山庄,,33,32,48,19,30,103,,59,59,2,9,10,10,0.4,0.5
