timepoint,stationcode,longitude,latitude,area,positionname,primarypollutant,aqi,pm10,pm10_24h,pm2_5,pm2_5_24h,o3,o3_24h,o3_8h,o3_8h_24h,no2,no2_24h,so2,so2_24h,co,co_24h
2024-10-09T0500,2566A,102.1879,31.914,阿坝藏族羌族自治州,州农科所,,12,,22,8,9,26,,,,1,8,7,13,0,0.1
2024-10-09T0500,2568A,102.2502,31.8896,阿坝藏族羌族自治州,马师校,,18,15,19,12,15,15,,,,3,7,4,4,0.2,0.2
2024-10-09T0500,3994A,102.2165,31.9024,阿坝藏族羌族自治州,马尔康中学西区,,22,,17,15,16,17,,,,5,8,5,5,0.3,0.4
2024-10-09T0500,2695A,80.292,41.1694,阿克苏地区,电视台,颗粒物(PM10),85,120,162,43,49,43,,,,22,36,2,4,0.5,0.8
2024-10-09T0500,2696A,80.2613,41.1551,阿克苏地区,艺术中心,颗粒物(PM10),89,127,145,48,46,2,,,,49,42,4,4,1.0,1.1
2024-10-09T0500,2204A,105.6467,38.8363,阿拉善盟,西城区西花园,颗粒物(PM10),67,83,55,33,29,118,,,,8,18,9,9,0.8,1
2024-10-09T0500,2205A,105.6985,38.8411,阿拉善盟,蒙二幼,颗粒物(PM10),68,86,50,16,18,112,,,,8,16,6,7,0.6,0.7
2024-10-09T0500,2206A,105.724,38.8516,阿拉善盟,环保局新楼,颗粒物(PM10),59,67,38,18,17,124,,,,4,9,9,9,0.5,0.5
2024-10-09T0500,2708A,88.1264,47.8517,阿勒泰地区,市站,,30,30,28,14,14,40,,,,7,15,7,7,0.4,0.4
2024-10-09T0500,2630A,80.1161,32.5,阿里地区,阿里监测站,,27,,10,3,5,85,,,,10,9,7,6,0.4,0.4
2024-10-09T0500,3192A,80.0903,32.5028,阿里地区,阿里藏医院,,37,8,16,3,4,116,,,,3,9,5,6,0.4,0.4
2024-10-09T0500,2643A,109.0281,32.6939,安康市,安康市监测站,,36,33,38,25,25,20,,,,11,14,19,12,0.5,0.5
2024-10-09T0500,2644A,109.0072,32.6975,安康市,汉滨区检察院,,33,29,36,23,23,21,,,,7,13,7,8,0.4,0.4
2024-10-09T0500,2291A,117.0809,30.5177,安庆市,环科院,,43,37,41,30,28,63,,,,17,19,7,7,0.5,0.6
2024-10-09T0500,2292A,117.0331,30.5119,安庆市,马山宾馆,,49,49,41,34,30,45,,,,36,25,11,10,0.8,0.5
2024-10-09T0500,2294A,116.9896,30.6145,安庆市,安庆大学,细颗粒物(PM2.5),54,54,38,38,23,40,,,,20,16,8,8,0.5,0.5
2024-10-09T0500,3173A,117.0598,30.5351,安庆市,市人大,,45,39,39,31,30,35,,,,36,26,8,8,0.5,0.6
2024-10-09T0500,3123A,105.9408,26.2431,安顺市,凤凰山,,21,15,33,10,30,65,,,,5,9,7,9,0.4,0.5
2024-10-09T0500,3124A,105.9439,26.2564,安顺市,金钟山,,20,16,34,12,32,63,,,,6,9,9,11,0.5,0.6
2024-10-09T0500,3125A,105.8983,26.2481,安顺市,娄家坡,,20,13,37,13,30,64,,,,6,10,11,10,0.6,0.7
2024-10-09T0500,1819A,114.3551,36.1017,安阳市,红庙街,细颗粒物(PM2.5),202,178,130,152,106,30,,,,52,33,2,2,0.8,0.8
2024-10-09T0500,1820A,114.361,36.0681,安阳市,银杏小区,细颗粒物(PM2.5),195,173,117,146,108,30,,,,34,23,4,4,1.2,1
2024-10-09T0500,3141A,114.3922,36.0878,安阳市,信访局,细颗粒物(PM2.5),147,209,135,112,92,55,,,,38,32,4,3,0.9,0.8
2024-10-09T0500,3669A,114.4705,36.0637,安阳市,左辅环卫站,细颗粒物(PM2.5),193,203,167,145,98,40,,,,34,47,4,4,1.0,1.1
2024-10-09T0500,3703A,114.2917,36.0949,安阳市,安钢职工学校,细颗粒物(PM2.5),199,,126,149,113,38,,,,22,22,1,2,0.9,0.8
2024-10-09T0500,1748A,123.044,41.1196,鞍山市,深沟寺,,43,43,48,22,26,43,,,,14,35,5,13,0.9,1.6
2024-10-09T0500,1749A,123.011,41.0931,鞍山市,太阳城,,42,42,43,28,28,56,,,,18,31,13,17,0.8,1.3
2024-10-09T0500,1750A,123.0485,41.1442,鞍山市,太平,,46,46,67,26,34,53,,,,16,51,11,20,0.9,1.9
2024-10-09T0500,1751A,122.9642,41.0971,鞍山市,铁西三道街,颗粒物(PM10),63,76,90,35,41,12,,,,50,52,7,11,1.3,1.3
2024-10-09T0500,1752A,122.9341,41.0833,鞍山市,铁西工业园区,颗粒物(PM10),65,80,78,34,39,12,,,,55,50,10,14,0.8,1
2024-10-09T0500,1753A,123.022,41.0821,鞍山市,明达新区,颗粒物(PM10),51,51,48,30,30,37,,,,22,29,7,12,2.7,1.6
2024-10-09T0500,2195A,107.4212,40.761,巴彦淖尔市,附二中,颗粒物(PM10),109,168,101,44,29,88,,,,7,24,4,7,0.4,0.5
2024-10-09T0500,2196A,107.37,40.7372,巴彦淖尔市,市环保大楼,颗粒物(PM10),84,118,77,35,26,81,,,,5,20,3,5,0.3,0.5
2024-10-09T0500,1956A,86.1472,41.7538,巴音郭楞蒙古自治州,孔雀公园,颗粒物(PM10),72,94,107,17,26,5,,,,73,45,1,3,0.3,0.5
2024-10-09T0500,1957A,86.1972,41.7166,巴音郭楞蒙古自治州,棉纺厂,颗粒物(PM10),74,97,131,22,30,5,,,,68,37,5,6,0.3,0.4
2024-10-09T0500,1958A,86.2357,41.7173,巴音郭楞蒙古自治州,经济开发区,颗粒物(PM10),71,91,103,13,28,59,,,,7,15,6,7,0.2,0.2
2024-10-09T0500,2914A,106.7677,31.8794,巴中市,苏山坪,,38,32,33,26,27,60,,,,8,13,2,2,0.4,0.4
2024-10-09T0500,3182A,106.7656,31.8545,巴中市,丽阳花园,,35,33,45,24,33,17,,,,15,25,5,5,0.5,0.6
2024-10-09T0500,3183A,106.7418,31.8654,巴中市,圣泉水务公司,,28,23,37,19,28,24,,,,9,25,4,5,0.4,0.6
2024-10-09T0500,3616A,106.7616,31.8344,巴中市,市中心医院,,40,35,40,28,27,4,,,,18,23,4,4,0.5,0.5
2024-10-09T0500,2235A,122.7911,45.6077,白城市,洮北区环保局,,32,32,26,21,12,44,,,,13,14,5,3,0.3,0.3
2024-10-09T0500,2236A,122.8738,45.5725,白城市,市环保局,,35,29,25,24,11,39,,,,14,17,4,5,0.4,0.4
2024-10-09T0500,2231A,126.4219,41.9171,白山市,喜丰,颗粒物(PM10),52,53,57,17,18,8,,,,25,30,7,9,0.6,0.6
2024-10-09T0500,2232A,126.4077,41.9419,白山市,环保局,,33,33,44,12,17,20,,,,15,24,7,9,0.6,0.7
2024-10-09T0500,2647A,104.1724,36.5446,白银市,第三小学,颗粒物(PM10),59,68,55,13,32,93,,,,10,33,8,28,0.8,1.5
2024-10-09T0500,2648A,104.1465,36.5482,白银市,动力公司,颗粒物(PM10),56,62,41,13,26,80,,,,6,21,3,7,0.4,1
2024-10-09T0500,2512A,106.6103,23.9011,百色市,市监测站,,38,36,37,26,25,25,,,,18,17,6,6,0.8,0.8
2024-10-09T0500,2513A,106.6538,23.8859,百色市,市中心血站,细颗粒物(PM2.5),54,53,52,38,32,26,,,,20,21,6,6,0.8,0.7
2024-10-09T0500,3406A,106.6085,23.8798,百色市,祈福高中,颗粒物(PM10),54,57,56,30,29,12,,,,25,25,3,4,0.7,0.7
2024-10-09T0500,2270A,117.396,32.939,蚌埠市,工人疗养院,,46,46,58,20,32,93,,,,11,19,6,7,0.4,0.5
2024-10-09T0500,2271A,117.3605,32.9427,蚌埠市,百货大楼,,42,42,58,20,33,88,,,,18,26,6,6,0.5,0.5
2024-10-09T0500,2273A,117.4185,32.8911,蚌埠市,蚌埠学院,,41,41,46,26,35,80,,,,12,19,6,7,0.4,0.4
2024-10-09T0500,2274A,117.3533,32.9673,蚌埠市,淮上区政府,,44,44,52,28,37,83,,,,19,21,7,7,0.4,0.5
2024-10-09T0500,2275A,117.3145,32.8977,蚌埠市,高新区,,43,39,46,30,33,60,,,,19,24,6,7,0.4,0.5
2024-10-09T0500,3715A,117.3092,32.9314,蚌埠市,蚌埠田家炳中学,颗粒物(PM10),51,52,62,32,36,71,,,,16,23,22,7,0.4,0.4
2024-10-09T0500,1585A,109.8756,40.6532,包头市,市环境监测站,颗粒物(PM10),63,76,59,43,25,12,,,,49,53,8,14,0.7,0.9
2024-10-09T0500,1587A,109.9991,40.5842,包头市,包头八中,,47,47,61,30,30,17,,,,45,39,12,17,0.9,1.1
2024-10-09T0500,1588A,109.8538,40.6821,包头市,青山宾馆,,,56,53,41,29,5,,,,58,56,8,15,,0.9
2024-10-09T0500,1589A,109.8642,40.6288,包头市,惠龙物流,颗粒物(PM10),62,73,56,42,26,13,,,,57,47,11,18,0.9,0.8
2024-10-09T0500,1590A,110.0377,40.5546,包头市,东河鸿龙湾,,36,36,53,23,21,23,,,,34,33,10,14,0.7,0.6
2024-10-09T0500,3283A,109.9154,40.5685,包头市,滨河大厦,颗粒物(PM10),57,64,49,36,23,5,,,,60,44,16,15,0.8,0.7
2024-10-09T0500,3419A,109.9447,40.6261,包头市,包头市委党校,,46,46,56,19,27,17,,,,50,46,10,22,0.6,0.9
2024-10-09T0500,3683A,109.8331,40.6576,包头市,昆区政府,颗粒物(PM10),62,74,58,36,34,7,,,,62,52,12,16,0.7,0.8
2024-10-09T0500,1930A,107.185,34.3063,宝鸡市,庙沟村,,25,,75,17,48,53,,,,6,20,7,7,0.5,0.8
2024-10-09T0500,1931A,107.0708,34.3017,宝鸡市,竹园沟,,26,26,74,14,59,36,,,,17,20,7,8,0.4,0.6
2024-10-09T0500,1932A,107.1906,34.3672,宝鸡市,三陆医院,细颗粒物(PM2.5),64,52,121,46,91,6,,,,34,41,9,8,0.7,0.9
2024-10-09T0500,1933A,107.1431,34.3547,宝鸡市,监测站,,25,25,96,17,73,17,,,,16,27,7,8,0.4,0.7
2024-10-09T0500,1934A,107.1186,34.3739,宝鸡市,技工学校,,45,38,93,31,87,8,,,,23,28,7,8,0.6,0.8
2024-10-09T0500,1935A,107.3906,34.3528,宝鸡市,陈仓区环保局家属楼,细颗粒物(PM2.5),93,93,127,69,114,4,,,,34,45,10,10,0.8,0.9
2024-10-09T0500,1937A,107.2386,34.3622,宝鸡市,三迪小学,细颗粒物(PM2.5),69,54,114,50,90,7,,,,28,43,8,9,0.6,0.9
2024-10-09T0500,1051A,115.493,38.8632,保定市,游泳馆,细颗粒物(PM2.5),124,114,94,94,77,36,,,,43,29,4,4,0.6,0.7
2024-10-09T0500,1052A,115.5213,38.8959,保定市,华电二区,细颗粒物(PM2.5),133,107,92,101,78,43,,,,41,32,4,5,0.6,0.7
2024-10-09T0500,1053A,115.4713,38.9108,保定市,接待中心,细颗粒物(PM2.5),134,127,99,102,80,49,,,,34,26,3,4,0.6,0.7
2024-10-09T0500,1054A,115.4612,38.8416,保定市,地表水厂,细颗粒物(PM2.5),113,91,99,85,81,50,,,,37,31,4,4,0.3,0.3
2024-10-09T0500,3581A,115.31981,38.95208,保定市,满城区生态环境分局,细颗粒物(PM2.5),160,156,115,122,77,12,,,,52,31,4,5,0.9,0.8
2024-10-09T0500,3582A,115.47694,38.76408,保定市,清苑区第二中学,细颗粒物(PM2.5),112,104,105,84,80,29,,,,55,40,7,7,0.5,0.6
2024-10-09T0500,3583A,115.62909,39.02311,保定市,徐水物探局,细颗粒物(PM2.5),125,104,82,95,70,39,,,,45,36,8,7,0.5,0.6
2024-10-09T0500,4004A,115.4202,38.8656,保定市,双鹰农机,细颗粒物(PM2.5),100,101,103,75,70,52,,,,41,37,3,4,0.5,0.7
2024-10-09T0500,4034A,115.5150,38.8590,保定市,植保所站,细颗粒物(PM2.5),99,94,99,74,75,31,,,,62,46,3,5,0.4,0.6
2024-10-09T0500,2594A,99.1678,25.1081,保山市,市环境监测站,,25,25,23,9,10,18,,,,5,6,5,5,0.3,0.4
2024-10-09T0500,2595A,99.1711,25.1328,保山市,市环保局,,22,22,22,10,7,24,,,,4,5,4,4,0.3,0.3
2024-10-09T0500,1867A,109.1436,21.4086,北海市,海滩公园,,49,49,65,34,41,109,,,,10,10,9,8,0.6,0.7
2024-10-09T0500,1868A,109.0981,21.4661,北海市,新市环保局,细颗粒物(PM2.5),55,46,60,39,40,101,,,,11,10,6,8,0.6,0.7
2024-10-09T0500,1869A,109.1778,21.5233,北海市,北海工业园,细颗粒物(PM2.5),59,55,66,42,46,83,,,,16,14,8,9,0.9,0.9
2024-10-09T0500,3400A,109.1911,21.4415,北海市,龙潭自来水厂,细颗粒物(PM2.5),64,54,63,46,47,80,,,,16,12,8,9,0.6,0.6
2024-10-09T0500,1001A,116.3621,39.8784,北京市,万寿西宫,,33,33,50,17,22,0,,,,61,33,2,1,1.0,0.8
2024-10-09T0500,1002A,116.2202,40.2915,北京市,定陵,,42,42,20,29,11,6,,,,9,12,3,2,0.3,0.2
2024-10-09T0500,1003A,116.4174,39.9289,北京市,东四,,46,46,46,24,25,1,,,,68,33,3,2,0.8,0.6
2024-10-09T0500,1004A,116.4072,39.8863,北京市,天坛,,33,33,35,22,23,0,,,,49,28,2,2,0.6,0.4
2024-10-09T0500,1005A,116.462,39.9365,北京市,农展馆,,50,50,42,25,23,0,,,,63,36,1,1,0.6,0.5
2024-10-09T0500,1006A,116.3392,39.9295,北京市,官园,,38,38,43,19,22,0,,,,53,30,3,2,0.4,0.4
2024-10-09T0500,1007A,116.2878,39.9611,北京市,海淀万柳,,40,40,38,19,18,7,,,,56,38,3,3,0.4,0.4
2024-10-09T0500,1008A,116.6636,40.135,北京市,顺义新城,,38,38,28,17,10,0,,,,44,35,1,2,0.3,0.3
2024-10-09T0500,1009A,116.6275,40.3275,北京市,怀柔镇,,28,27,16,19,9,35,,,,12,14,3,3,0.3,0.3
2024-10-09T0500,1010A,116.2296,40.217,北京市,昌平镇,颗粒物(PM10),58,65,28,30,12,34,,,,13,18,3,4,0.4,0.3
2024-10-09T0500,1011A,116.3966,39.9821,北京市,奥体中心,,40,40,36,18,19,1,,,,60,41,3,3,0.5,0.5
2024-10-09T0500,1012A,116.184,39.9136,北京市,古城,,50,50,52,20,19,0,,,,57,44,3,3,0.6,0.6
2024-10-09T0500,3281A,115.9718,40.4529,北京市,延庆夏都,,35,35,25,20,13,17,,,,16,14,3,2,0.3,0.3
2024-10-09T0500,3417A,117.0709,40.1465,北京市,平谷新城,,26,26,19,15,10,15,,,,8,12,1,3,0.2,0.3
2024-10-09T0500,3418A,116.8336,40.4095,北京市,密云新城,,31,31,23,11,7,0,,,,34,14,3,2,0.3,0.3
2024-10-09T0500,3671A,116.088,39.9726,北京市,门头沟三家店,,48,48,32,25,14,19,,,,15,20,2,2,0.2,0.2
2024-10-09T0500,3672A,116.1541,39.8204,北京市,丰台云岗,颗粒物(PM10),51,52,44,23,18,2,,,,43,38,3,3,0.3,0.3
2024-10-09T0500,3673A,116.6804,39.9081,北京市,通州东关,细颗粒物(PM2.5),92,124,53,68,24,0,,,,64,38,2,2,0.6,0.4
2024-10-09T0500,3674A,115.9577,39.7603,北京市,房山燕山,细颗粒物(PM2.5),74,70,38,54,26,29,,,,11,13,3,3,0.5,0.3
2024-10-09T0500,3675A,116.4672,39.7733,北京市,大兴旧宫,细颗粒物(PM2.5),89,103,47,66,26,9,,,,31,29,3,3,0.6,0.4
2024-10-09T0500,3694A,115.986,40.4563,北京市,延庆石河营,,30,30,24,17,12,5,,,,20,16,3,3,0.2,0.3
2024-10-09T0500,3695A,116.6151,40.3053,北京市,怀柔新城,,40,40,18,26,10,41,,,,7,12,3,3,0.3,0.2
2024-10-09T0500,3696A,116.2545,39.8768,北京市,丰台小屯,,38,38,41,20,21,1,,,,62,43,1,1,0.5,0.5
2024-10-09T0500,3697A,116.84,40.3844,北京市,密云镇,,24,24,20,10,8,0,,,,32,27,3,3,0.3,0.3
2024-10-09T0500,1761A,123.8275,41.3064,本溪市,大峪,,31,31,46,15,21,15,,,,34,33,10,13,0.9,1.4
2024-10-09T0500,1762A,123.7567,41.3325,本溪市,溪湖,颗粒物(PM10),60,69,71,25,25,6,,,,36,41,9,11,1.4,1.1
2024-10-09T0500,1763A,123.7169,41.3094,本溪市,彩屯,细颗粒物(PM2.5),70,83,70,51,42,6,,,,42,50,10,16,3.0,2
2024-10-09T0500,1764A,123.7669,41.2864,本溪市,东明,,48,48,70,18,30,6,,,,46,52,6,11,0.9,1.7
2024-10-09T0500,1765A,123.7992,41.2664,本溪市,新立屯,,20,14,38,14,16,11,,,,35,44,5,9,0.5,1.1
2024-10-09T0500,1766A,123.8142,41.3472,本溪市,威宁,颗粒物(PM10),55,59,68,23,22,9,,,,29,34,8,8,0.8,0.6
2024-10-09T0500,2587A,105.2864,27.3125,毕节市,八中,,32,31,30,22,21,36,,,,11,13,6,6,0.4,0.5
2024-10-09T0500,2588A,105.31,27.2944,毕节市,师专,,35,30,28,24,22,43,,,,7,11,7,8,0.5,0.5
2024-10-09T0500,3537A,105.3631,27.3533,毕节市,长征村,,49,42,40,34,32,56,,,,7,9,6,7,0.5,0.6
2024-10-09T0500,1629A,118.0018,37.3617,滨州市,第二水厂,"颗粒物(PM10),细颗粒物(PM2.5)",70,90,74,51,41,6,,,,86,50,13,16,0.6,0.6
2024-10-09T0500,1630A,117.9776,37.393,滨州市,北中新校,细颗粒物(PM2.5),73,92,67,53,37,6,,,,80,48,11,11,0.7,0.6
2024-10-09T0500,3514A,117.9378,37.3956,滨州市,中海酒店,细颗粒物(PM2.5),73,85,71,53,43,16,,,,87,51,16,12,0.8,0.7
2024-10-09T0500,3515A,117.9378,37.3553,滨州市,开发区一中,颗粒物(PM10),73,95,78,46,41,18,,,,96,57,16,17,0.6,0.4
2024-10-09T0500,3516A,118.0917,37.694,滨州市,金海六路,细颗粒物(PM2.5),94,105,74,70,37,6,,,,83,40,14,13,0.7,0.5
2024-10-09T0500,4028A,117.9956,37.3753,滨州市,滨州市西街道办事处,细颗粒物(PM2.5),73,85,69,53,46,6,,,,78,48,16,17,0.8,0.8
2024-10-09T0500,2311A,115.8072,33.8399,亳州市,污水处理厂,细颗粒物(PM2.5),89,87,74,66,50,43,,,,25,23,10,14,0.6,0.6
2024-10-09T0500,2312A,115.7789,33.8518,亳州市,三国揽胜宫,细颗粒物(PM2.5),85,,57,63,54,43,,,,21,18,6,6,0.5,0.5
2024-10-09T0500,3332A,115.7633,33.8034,亳州市,亳州学院,细颗粒物(PM2.5),93,97,94,69,58,51,,,,24,22,5,5,0.5,0.6
2024-10-09T0500,2693A,82.0485,44.8556,博尔塔拉蒙古自治州,市党校,,43,43,42,12,14,47,,,,6,14,7,8,0.3,0.3
2024-10-09T0500,2694A,82.0806,44.8969,博尔塔拉蒙古自治州,市环保局,,43,43,50,10,14,39,,,,12,18,7,6,0.4,0.5
2024-10-09T0500,1071A,116.8842,38.2991,沧州市,沧县城建局,细颗粒物(PM2.5),75,89,70,55,44,31,,,,57,45,6,4,0.3,0.5
2024-10-09T0500,1072A,116.8584,38.3254,沧州市,电视转播站,细颗粒物(PM2.5),77,68,64,56,45,27,,,,68,39,12,9,0.5,0.5
2024-10-09T0500,1073A,116.8709,38.3228,沧州市,市环保局,细颗粒物(PM2.5),78,85,73,57,48,23,,,,50,31,6,3,0.4,0.5
2024-10-09T0500,3324A,116.8136,38.3004,沧州市,河北水利电力学院,细颗粒物(PM2.5),74,90,74,54,50,30,,,,62,43,7,5,0.4,0.5
2024-10-09T0500,2622A,97.1806,31.1273,昌都市,昌都监测站,,11,8,13,6,7,34,,,,4,12,8,8,0.5,0.6
2024-10-09T0500,3719A,97.1714,31.1406,昌都市,昌都会议中心,,12,9,10,6,5,38,,,,2,4,8,8,0.3,0.3
2024-10-09T0500,2690A,88.1236,43.8886,昌吉回族自治州,天山天池,,18,,10,8,5,57,,,,1,2,6,8,0.5,0.5
2024-10-09T0500,2692A,87.2717,44.0297,昌吉回族自治州,新区政务中心,颗粒物(PM10),54,57,39,15,15,35,,,,29,27,4,4,0.9,0.8
2024-10-09T0500,3613A,87.3095,44.0142,昌吉回族自治州,亚心广场,,36,36,50,9,13,40,,,,29,37,3,4,0.6,0.7
2024-10-09T0500,1119A,125.3325,43.9166,长春市,食品厂,,50,49,61,35,34,28,,,,38,44,6,6,0.4,0.6
2024-10-09T0500,1120A,125.2863,43.9027,长春市,客车厂,,49,45,63,34,37,41,,,,28,47,9,8,0.4,0.8
2024-10-09T0500,1121A,125.2841,43.8463,长春市,邮电学院,,48,40,43,33,27,19,,,,22,35,6,7,0.4,0.4
2024-10-09T0500,1122A,125.3716,43.8772,长春市,劳动公园,颗粒物(PM10),64,78,76,34,33,7,,,,46,39,7,8,0.6,0.8
2024-10-09T0500,1123A,125.3297,43.8805,长春市,园林处,,42,42,51,28,25,26,,,,41,38,6,6,0.4,0.5
2024-10-09T0500,1124A,125.4605,43.79,长春市,净月潭,,42,42,28,23,16,44,,,,14,13,6,6,0.3,0.2
2024-10-09T0500,1125A,125.7194,43.515,长春市,甩湾子,,33,33,41,19,24,12,,,,24,19,6,6,0.8,0.6
2024-10-09T0500,1126A,125.3863,43.8447,长春市,经开区环卫处,,43,43,51,24,24,35,,,,30,37,8,9,0.5,0.7
2024-10-09T0500,1127A,125.245,43.7783,长春市,高新区管委会,,45,41,44,31,29,26,,,,29,30,6,6,0.4,0.5
2024-10-09T0500,1128A,125.1761,43.8325,长春市,岱山公园,,,48,52,36,29,25,,,,41,41,,6,0.5,0.5
2024-10-09T0500,1335A,113.0833,28.2325,长沙市,经开区环保局,细颗粒物(PM2.5),80,,40,59,31,5,,,,43,33,4,4,0.5,0.5
2024-10-09T0500,1336A,112.8872,28.2189,长沙市,高开区环保局,细颗粒物(PM2.5),64,47,39,46,33,46,,,,14,18,5,5,0.4,0.4
2024-10-09T0500,1337A,113.0792,28.2053,长沙市,马坡岭,细颗粒物(PM2.5),77,64,43,56,34,2,,,,28,24,5,4,0.7,0.6
2024-10-09T0500,1338A,112.9394,28.19,长沙市,湖南师范大学,细颗粒物(PM2.5),69,55,44,50,26,15,,,,30,18,6,3,0.7,0.6
2024-10-09T0500,1339A,113.0178,28.1322,长沙市,雨花区环保局,细颗粒物(PM2.5),64,54,40,46,32,25,,,,24,21,6,5,0.8,0.6
2024-10-09T0500,1340A,112.9792,28.2597,长沙市,伍家岭,细颗粒物(PM2.5),65,63,42,47,32,19,,,,30,20,4,4,0.8,0.8
2024-10-09T0500,1341A,113.0014,28.1944,长沙市,火车新站,细颗粒物(PM2.5),52,50,41,36,28,34,,,,21,23,4,5,0.6,0.6
2024-10-09T0500,1342A,112.9844,28.1178,长沙市,天心区环保局,细颗粒物(PM2.5),70,58,48,51,30,19,,,,29,29,5,4,0.9,0.7
2024-10-09T0500,1343A,112.8908,28.1308,长沙市,湖南中医药大学,细颗粒物(PM2.5),84,66,44,62,37,22,,,,20,18,6,6,1.3,1.2
2024-10-09T0500,1344A,112.9581,28.3611,长沙市,沙坪,颗粒物(PM10),52,54,34,30,21,4,,,,28,17,6,7,0.9,0.8
2024-10-09T0500,1727A,113.1147,36.1547,长治市,清华站,细颗粒物(PM2.5),132,,80,100,82,101,,,,20,21,7,8,1.0,1.1
2024-10-09T0500,1728A,113.1031,36.1989,长治市,监测站,细颗粒物(PM2.5),125,95,84,95,78,97,,,,15,22,9,10,1.1,1.1
2024-10-09T0500,1730A,113.0886,36.2125,长治市,审计局,细颗粒物(PM2.5),134,,79,102,85,110,,,,10,17,6,6,0.7,0.7
2024-10-09T0500,1731A,113.0844,36.1856,长治市,长治八中,细颗粒物(PM2.5),105,115,98,79,62,111,,,,15,20,6,7,1.1,1.1
2024-10-09T0500,2845A,113.1569,36.1911,长治市,德盛苑,细颗粒物(PM2.5),119,,79,90,79,104,,,,12,17,4,5,1.1,1.1
2024-10-09T0500,3568A,113.06,36.0464,长治市,向阳小学,细颗粒物(PM2.5),172,,109,130,93,99,,,,18,23,9,8,1.0,0.9
2024-10-09T0500,3569A,112.8792,36.3144,长治市,屯留一中,细颗粒物(PM2.5),117,,90,88,85,54,,,,24,26,10,9,1.1,1.2
2024-10-09T0500,3570A,113.235,36.3489,长治市,潞城四中,细颗粒物(PM2.5),182,,109,137,98,96,,,,23,36,6,7,1.2,1.1
2024-10-09T0500,1854A,111.6975,28.9703,常德市,市二中,细颗粒物(PM2.5),65,58,64,47,46,31,,,,23,20,4,6,0.7,0.6
2024-10-09T0500,3138A,111.7153,29.0289,常德市,武陵区永安,细颗粒物(PM2.5),60,66,63,43,48,99,,,,17,20,11,8,0.6,0.6
2024-10-09T0500,3139A,111.6892,28.9881,常德市,鼎城区玉霞,细颗粒物(PM2.5),70,78,65,51,44,30,,,,29,20,15,15,0.9,0.8
2024-10-09T0500,3140A,111.6625,29.0531,常德市,武陵区长庚,细颗粒物(PM2.5),59,64,62,42,45,96,,,,15,21,16,11,0.5,0.5
2024-10-09T0500,1196A,119.9633,31.762,常州市,市监测站,,50,50,35,34,25,48,,,,29,23,9,8,0.7,0.5
2024-10-09T0500,1200A,119.9468,31.7069,常州市,武进监测站,,45,45,38,27,21,17,,,,37,21,12,12,0.8,0.7
2024-10-09T0500,1201A,119.9255,31.9087,常州市,安家,颗粒物(PM10),51,52,35,25,23,8,,,,53,39,7,7,0.4,0.3
2024-10-09T0500,3002A,119.9805,31.8174,常州市,行政中心,,40,40,32,27,23,56,,,,21,22,5,5,0.2,0.3
2024-10-09T0500,3003A,120.0522,31.7748,常州市,经开区,颗粒物(PM10),55,59,38,32,24,19,,,,62,38,8,8,0.2,0.1
2024-10-09T0500,3010A,119.9025,31.7964,常州市,钟楼,,50,50,39,28,25,11,,,,63,33,9,9,0,0.1
2024-10-09T0500,3429A,119.8598,31.7066,常州市,武进经发区,,50,50,33,30,21,14,,,,48,34,7,7,0.6,0.5
2024-10-09T0500,3430A,119.5826,31.7245,常州市,金坛城区,颗粒物(PM10),51,51,28,30,20,12,,,,38,19,8,9,0.7,0.6
2024-10-09T0500,2220A,120.4318,41.5881,朝阳市,西梁,,43,43,51,23,19,6,,,,21,26,7,8,0.9,0.9
2024-10-09T0500,2221A,120.4521,41.5646,朝阳市,河畔小区,,26,26,30,14,14,36,,,,17,18,8,9,0.8,0.8
2024-10-09T0500,2222A,120.4176,41.5648,朝阳市,八里堡,,30,30,38,19,17,23,,,,23,30,9,12,0.8,0.8
2024-10-09T0500,2223A,120.3806,41.5969,朝阳市,农业园区,,44,44,34,25,19,9,,,,23,24,5,8,0.8,0.8
2024-10-09T0500,1705A,116.6367,23.6719,潮州市,西园路,,38,33,24,26,19,24,,,,9,10,3,4,0.5,0.5
2024-10-09T0500,3026A,116.6183,23.6608,潮州市,市政府,,30,30,26,20,17,42,,,,7,9,5,6,0.7,0.7
2024-10-09T0500,4036A,116.6461,23.6761,潮州市,金山,,33,33,25,22,14,33,,,,7,7,7,8,0.6,0.7
2024-10-09T0500,2472A,113.0073,25.9061,郴州市,马头岭,颗粒物(PM10),55,59,68,28,32,47,,,,11,14,7,9,0.3,0.3
2024-10-09T0500,2473A,113.0116,25.8226,郴州市,市职中,细颗粒物(PM2.5),59,50,55,42,49,37,,,,17,16,4,5,0.7,0.6
2024-10-09T0500,2474A,113.0161,25.8001,郴州市,兴隆步行街,细颗粒物(PM2.5),59,59,59,42,47,46,,,,16,17,4,5,0.5,0.4
2024-10-09T0500,2475A,113.0383,25.8071,郴州市,市审计局,细颗粒物(PM2.5),77,66,55,56,48,41,,,,10,10,3,3,0.6,0.5
2024-10-09T0500,2476A,113.0348,25.7759,郴州市,市环保局,细颗粒物(PM2.5),78,60,61,57,48,44,,,,12,12,5,8,0.7,0.6
2024-10-09T0500,1431A,103.9728,30.7236,成都市,金泉两河,,29,29,37,13,17,1,,,,14,22,3,3,0.7,0.6
2024-10-09T0500,1432A,104.176,30.6872,成都市,十里店,,46,46,38,23,28,3,,,,46,36,1,1,0.6,0.6
2024-10-09T0500,1433A,104.079,30.5706,成都市,三瓦窑,细颗粒物(PM2.5),58,53,44,41,31,0,,,,50,36,4,3,0.7,0.6
2024-10-09T0500,1434A,104.1114,30.63,成都市,沙河铺,"颗粒物(PM10),细颗粒物(PM2.5)",54,57,48,38,28,4,,,,31,28,3,3,0.7,0.6
2024-10-09T0500,1437A,104.0786,30.6531,成都市,君平街,颗粒物(PM10),54,58,44,33,28,8,,,,35,35,2,2,0.6,0.6
2024-10-09T0500,2880A,104.0239,30.65639,成都市,大石西路,,49,49,44,25,25,2,,,,23,26,2,2,0.7,0.5
2024-10-09T0500,3136A,104.2725,30.5589,成都市,龙泉驿区区政府,,39,36,28,27,21,25,,,,19,18,1,1,0.5,0.5
2024-10-09T0500,3357A,104.0106,30.6931,成都市,金博路,,46,46,35,32,23,1,,,,27,30,1,2,0.7,0.7
2024-10-09T0500,3359A,104.0578,30.5225,成都市,华阳,,46,46,41,27,25,2,,,,41,28,3,3,0.8,0.7
2024-10-09T0500,3487A,104.2394,30.5319,成都市,车城东七路,细颗粒物(PM2.5),58,61,42,41,30,15,,,,28,22,2,2,0.6,0.6
2024-10-09T0500,3488A,104.3853,30.7453,成都市,青白江技师分院,,28,28,28,14,22,4,,,,20,20,2,2,0.7,0.5
2024-10-09T0500,3489A,104.0789,30.4072,成都市,科学城,细颗粒物(PM2.5),58,53,41,41,32,6,,,,37,25,4,4,0.6,0.5
2024-10-09T0500,4011A,103.8506,30.6947,成都市,光华大道三段,,38,38,45,14,28,7,,,,14,22,2,3,0.7,0.7
2024-10-09T0500,1062A,117.9531,40.9081,承德市,铁路,,21,21,20,7,8,5,,,,23,25,9,11,0.3,0.4
2024-10-09T0500,1063A,117.9392,40.9763,承德市,中国银行,,31,31,26,13,9,0,,,,22,25,1,7,0.4,0.6
2024-10-09T0500,1064A,117.9503,40.928,承德市,开发区,,47,47,35,17,14,2,,,,30,29,8,10,0.5,0.5
2024-10-09T0500,1065A,117.8051,40.9655,承德市,文化中心,颗粒物(PM10),52,53,42,14,10,1,,,,27,33,1,28,0.5,0.7
2024-10-09T0500,1066A,117.9268,41.0026,承德市,离宫,,39,28,24,27,19,0,,,,16,17,4,7,0.3,0.5
2024-10-09T0500,2314A,117.47,30.6618,池州市,池州学院,,29,21,28,20,23,19,,,,27,22,6,8,0.7,0.7
2024-10-09T0500,3237A,117.4918,30.6617,池州市,展览馆,,38,38,43,21,27,6,,,,32,23,4,5,0.8,0.7
2024-10-09T0500,3333A,117.5627,30.695,池州市,第八中学,,35,35,41,24,27,19,,,,16,18,4,5,0.7,0.6
2024-10-09T0500,3334A,117.5038,30.6243,池州市,第十二中学,,42,42,43,29,28,15,,,,23,29,4,4,1.6,0.9
2024-10-09T0500,1744A,118.9233,42.2816,赤峰市,松山一中,颗粒物(PM10),57,63,54,36,34,6,,,,30,27,10,10,0.6,0.6
2024-10-09T0500,1745A,118.9576,42.2728,赤峰市,哈达街,细颗粒物(PM2.5),64,55,40,46,25,7,,,,21,18,8,7,0.7,0.5
2024-10-09T0500,1746A,118.8788,42.2554,赤峰市,天义路,,21,21,36,13,30,13,,,,26,23,7,7,0.4,0.4
2024-10-09T0500,3058A,119.2658,42.0353,赤峰市,银河街,,44,44,45,19,24,12,,,,26,21,18,20,0.6,0.6
2024-10-09T0500,3286A,118.9359,42.3147,赤峰市,桥北物流园区,颗粒物(PM10),56,61,46,32,35,4,,,,27,39,11,10,0.0,0
2024-10-09T0500,2521A,107.3476,22.4136,崇左市,市环保局江州分局,颗粒物(PM10),58,66,56,39,38,26,,,,25,12,4,4,0.7,0.6
2024-10-09T0500,2522A,107.3702,22.3707,崇左市,城南新区,,49,48,47,34,35,43,,,,15,11,5,5,0.6,0.6
2024-10-09T0500,2298A,118.3093,32.3153,滁州市,老年大学,,35,25,31,24,24,14,,,,32,18,2,3,0.4,0.4
2024-10-09T0500,2299A,118.3244,32.2786,滁州市,人大宾馆,,30,30,42,17,20,60,,,,18,22,6,6,0.4,0.4
2024-10-09T0500,3207A,118.3118,32.3038,滁州市,市政府原办公楼,,35,26,33,24,27,32,,,,25,21,5,6,0.4,0.4
2024-10-09T0500,3331A,118.3267,32.2634,滁州市,图书馆,,32,32,36,20,17,55,,,,23,20,4,5,0.4,0.4
2024-10-09T0500,2605A,101.5482,25.0441,楚雄彝族自治州,州环境监测站,,26,20,15,18,14,56,,,,3,4,7,7,0.6,0.6
2024-10-09T0500,2606A,101.538,25.0492,楚雄彝族自治州,市经济开发区,,28,,19,19,16,53,,,,4,6,6,6,0.5,0.6
2024-10-09T0500,2548A,107.5277,31.2827,达州市,达州职业技术学院,,46,40,37,32,22,1,,,,29,33,4,5,0.8,0.8
2024-10-09T0500,2549A,107.5086,31.2186,达州市,市环境监测站,,38,38,48,22,22,7,,,,29,34,4,7,0.5,0.7
2024-10-09T0500,2550A,107.4988,31.2132,达州市,凤凰小区,,39,39,44,22,25,11,,,,30,32,6,10,0.5,0.7
2024-10-09T0500,2551A,107.5082,31.1986,达州市,达县机关宾馆,颗粒物(PM10),51,51,51,22,28,2,,,,41,44,5,6,0.6,0.7
2024-10-09T0500,2552A,107.4644,31.2124,达州市,市政中心,颗粒物(PM10),54,57,54,29,30,7,,,,40,43,4,9,0.5,0.9
2024-10-09T0500,2614A,100.1542,25.7054,大理白族自治州,大理市环境监测站,,13,13,18,9,10,36,,,,6,6,6,6,0.6,0.6
2024-10-09T0500,2615A,100.2171,25.5811,大理白族自治州,大理古城,,19,14,20,13,12,28,,,,5,8,7,7,0.6,0.6
2024-10-09T0500,1109A,121.612,38.9741,大连市,甘井子,,23,16,26,3,14,72,,,,14,25,7,8,0.4,0.6
2024-10-09T0500,1110A,121.565,38.9511,大连市,周水子,,20,16,25,7,14,30,,,,40,38,9,10,0.5,0.5
2024-10-09T0500,1111A,121.5637,38.8845,大连市,星海三站,,16,14,22,3,13,49,,,,17,23,6,6,0.3,0.4
2024-10-09T0500,1112A,121.6302,38.9117,大连市,青泥洼桥,,22,6,20,3,13,70,,,,9,21,6,8,0.2,0.3
2024-10-09T0500,1113A,121.6251,38.8638,大连市,傅家庄,,27,9,20,3,11,86,,,,8,14,7,8,0.4,0.4
2024-10-09T0500,1114A,121.5213,38.8661,大连市,七贤岭,,15,13,19,3,11,48,,,,13,17,6,7,0.5,0.6
2024-10-09T0500,1115A,121.2529,38.8061,大连市,旅顺,,24,9,15,3,10,75,,,,16,13,7,7,0.4,0.4
2024-10-09T0500,1116A,121.7485,39.1311,大连市,金州,,21,14,24,6,16,67,,,,10,16,5,7,0.6,0.6
2024-10-09T0500,1117A,121.7811,39.0496,大连市,开发区,,20,20,27,10,15,51,,,,24,19,10,10,0.5,0.4
2024-10-09T0500,1118A,121.9762,39.0631,大连市,双D港,,25,10,19,3,10,80,,,,13,14,8,8,0.7,0.6
2024-10-09T0500,1789A,124.81117,46.03138,大庆市,大同区,,30,30,33,17,19,47,,,,8,15,3,4,0.5,0.4
2024-10-09T0500,1790A,125.129,46.533,大庆市,龙凤区,,26,26,53,13,24,66,,,,9,24,4,13,0.3,0.4
2024-10-09T0500,1791A,124.902,46.408,大庆市,红岗区,,34,34,29,19,15,62,,,,11,17,6,6,0.3,0.3
2024-10-09T0500,1792A,125.153,46.586,大庆市,萨尔图区,,38,38,45,10,21,72,,,,6,27,7,9,0.2,0.4
2024-10-09T0500,1793A,124.9042,46.6215,大庆市,让胡路区,,29,22,30,20,21,61,,,,9,26,10,6,0.4,0.5
2024-10-09T0500,3481A,125.141,46.634,大庆市,萨区政府监测点,,23,23,30,16,17,70,,,,7,24,7,9,0.2,0.4
2024-10-09T0500,1721A,113.3819,40.1097,大同市,果树场,颗粒物(PM10),58,65,83,22,32,4,,,,34,33,7,10,0.9,0.8
2024-10-09T0500,1723A,113.2994,40.0758,大同市,云冈宾馆,颗粒物(PM10),58,65,84,26,35,4,,,,42,46,10,14,1.3,1.3
2024-10-09T0500,1724A,113.3444,40.0917,大同市,大同大学,颗粒物(PM10),55,60,65,22,27,9,,,,48,43,17,18,1.3,0.8
2024-10-09T0500,1725A,113.2661,40.1269,大同市,安家小村,颗粒物(PM10),53,56,67,20,25,32,,,,33,37,17,17,0.6,0.8
2024-10-09T0500,1726A,113.2711,40.0844,大同市,教育学院,颗粒物(PM10),62,74,84,25,30,3,,,,59,48,14,17,1.6,1.1
2024-10-09T0500,3282A,113.3397,40.0597,大同市,大同市卫生学校,颗粒物(PM10),62,74,80,34,32,3,,,,52,44,14,13,1.7,1
2024-10-09T0500,3565A,113.1367,40.1122,大同市,云冈站,颗粒物(PM10),59,68,74,26,31,9,,,,37,32,14,16,0.6,0.5
2024-10-09T0500,3566A,113.1186,40.2556,大同市,图书馆,,41,41,59,24,27,23,,,,20,22,13,14,0.7,0.6
2024-10-09T0500,3567A,113.5931,40.0461,大同市,区一中,颗粒物(PM10),58,65,46,32,16,20,,,,30,22,12,13,0.7,0.5
2024-10-09T0500,3676A,113.2802,40.0995,大同市,第二人民医院,颗粒物(PM10),65,79,86,24,35,19,,,,47,42,18,18,1.0,1.2
2024-10-09T0500,2269A,124.1069,50.4097,大兴安岭地区,科技局,,43,36,36,30,27,33,,,,18,10,8,8,0.4,0.5
2024-10-09T0500,3663A,124.1164,50.4278,大兴安岭地区,红旗社区,,38,31,36,26,25,13,,,,26,19,3,2,0.5,0.5
2024-10-09T0500,1600A,124.3303,40.0625,丹东市,江湾东路,,44,44,46,20,20,29,,,,17,26,7,7,0.5,0.6
2024-10-09T0500,1601A,124.4256,40.1503,丹东市,临江后街,,30,30,29,17,14,13,,,,24,23,10,7,0.6,0.6
2024-10-09T0500,1602A,124.3933,40.1461,丹东市,元宝山,,25,25,20,16,12,12,,,,21,16,4,4,0.5,0.6
2024-10-09T0500,1603A,124.3633,40.1092,丹东市,民主桥,,31,31,28,16,13,17,,,,25,23,6,6,0.5,0.5
2024-10-09T0500,3541A,109.5726,19.5167,儋州市,第一中学子站,颗粒物(PM10),72,94,62,37,33,137,,,,6,6,6,7,0.8,0.7
2024-10-09T0500,3542A,109.5567,19.5187,儋州市,东坡学校子站,细颗粒物(PM2.5),63,63,51,45,37,112,,,,8,7,7,7,0.8,0.7
2024-10-09T0500,2616A,98.5842,24.428,德宏傣族景颇族自治州,德宏州监测站,,32,32,25,11,10,2,,,,18,11,7,10,0.5,0.4
2024-10-09T0500,3677A,98.5881,24.4368,德宏傣族景颇族自治州,芒市人民政府综合楼,,16,16,21,7,10,8,,,,10,10,5,7,0.5,0.5
2024-10-09T0500,1901A,104.4239,31.1208,德阳市,东山公园,,29,26,29,20,21,21,,,,17,18,2,2,0.6,0.6
2024-10-09T0500,1902A,104.3826,31.1317,德阳市,西小区,颗粒物(PM10),53,56,43,36,27,3,,,,32,26,2,2,0.6,0.5
2024-10-09T0500,1904A,104.3553,31.1091,德阳市,耐火材料厂,颗粒物(PM10),51,52,43,29,26,2,,,,32,27,4,4,0.5,0.5
2024-10-09T0500,3639A,104.4019,31.1244,德阳市,市教育局,,30,30,36,18,22,6,,,,19,24,1,1,0.4,0.5
2024-10-09T0500,1622A,116.3032,37.4674,德州市,儿童乐园,颗粒物(PM10),59,68,64,34,33,65,,,,37,33,16,12,0.6,0.6
2024-10-09T0500,1624A,116.2991,37.4451,德州市,监理站,颗粒物(PM10),57,63,59,34,33,61,,,,41,35,17,10,0.7,0.6
2024-10-09T0500,3066A,116.2721,37.4379,德州市,九衢泉纯净水厂,颗粒物(PM10),62,73,71,41,35,39,,,,57,45,13,11,0.7,0.6
2024-10-09T0500,3371A,116.3728,37.4403,德州市,开发区人民医院,颗粒物(PM10),59,68,66,34,33,25,,,,62,51,16,13,0.6,0.6
2024-10-09T0500,3372A,116.3572,37.4094,德州市,太阳城中学,颗粒物(PM10),63,75,72,41,38,7,,,,84,60,17,13,0.5,0.6
2024-10-09T0500,3511A,116.5652,37.3319,德州市,陵城艺术中心,颗粒物(PM10),51,51,60,24,32,44,,,,49,48,9,12,0.5,0.6
2024-10-09T0500,2621A,99.7056,27.8317,迪庆藏族自治州,迪庆州站,,13,12,17,9,9,24,,,,9,10,8,9,0.4,0.4
2024-10-09T0500,3180A,99.7136,27.8094,迪庆藏族自治州,质量技术监督局,,12,10,14,8,9,28,,,,7,9,6,6,0.3,0.4
2024-10-09T0500,2664A,104.6194,35.5934,定西市,供电公司,,35,29,34,24,23,10,,,,25,20,6,7,0.4,0.5
2024-10-09T0500,1389A,113.7547,23.0494,东莞市,莞城梨川,颗粒物(PM10),52,54,57,34,38,58,,,,29,16,7,7,0.8,0.8
2024-10-09T0500,1390A,113.7944,23.0128,东莞市,东城石井,,41,41,52,28,35,80,,,,13,16,6,7,0.6,0.7
2024-10-09T0500,1391A,113.7383,22.9658,东莞市,南城西平,,41,41,54,25,35,70,,,,25,23,3,3,0.8,0.8
2024-10-09T0500,3319A,113.7338,23.0381,东莞市,万江金泰,,45,45,54,30,36,70,,,,15,14,8,7,0.7,0.7
2024-10-09T0500,3626A,113.7533,23.0202,东莞市,南城元岭,,44,44,53,28,36,64,,,,18,11,8,8,0.8,0.8
2024-10-09T0500,3627A,113.7875,23.0457,东莞市,东城主山,,40,39,53,28,36,77,,,,15,20,8,8,0.6,0.6
2024-10-09T0500,1666A,118.6614,37.4309,东营市,市环保局,细颗粒物(PM2.5),67,75,56,48,28,31,,,,60,33,7,11,0.6,0.5
2024-10-09T0500,3036A,118.6904,37.4338,东营市,开发区管委会,细颗粒物(PM2.5),67,78,56,48,31,38,,,,52,31,8,10,0.5,0.4
2024-10-09T0500,3365A,118.5719,37.565,东营市,垦利区民丰路,颗粒物(PM10),71,92,51,51,28,9,,,,88,42,13,12,1.0,0.6
2024-10-09T0500,3498A,118.5055,37.8612,东营市,河口城区,细颗粒物(PM2.5),92,102,67,68,36,35,,,,55,39,19,14,0.7,0.6
2024-10-09T0500,3646A,118.4978,37.4623,东营市,胜利站,细颗粒物(PM2.5),79,92,55,58,30,8,,,,79,39,14,15,1.0,0.5
2024-10-09T0500,3734A,118.35,37.26,东营市,理想之城,细颗粒物(PM2.5),77,92,60,56,34,10,,,,80,53,5,9,0.6,0.5
2024-10-09T0500,1591A,110.0023,39.8129,鄂尔多斯市,综合楼,,27,27,42,7,11,78,,,,11,25,3,5,0.2,0.3
2024-10-09T0500,1592A,109.9486,39.8261,鄂尔多斯市,巴音孟克林场办事处,,24,24,32,12,13,71,,,,10,21,7,7,0.6,0.5
2024-10-09T0500,1593A,109.7736,39.5986,鄂尔多斯市,康泽苑,,27,27,30,17,12,64,,,,8,16,6,7,0.4,0.4
2024-10-09T0500,1594A,109.8119,39.5989,鄂尔多斯市,华泰汽车城,,32,29,25,22,14,61,,,,8,17,8,9,0.5,0.5
2024-10-09T0500,1595A,109.9734,39.7884,鄂尔多斯市,奥林花园,,22,22,37,7,14,48,,,,15,27,4,7,0.4,0.5
2024-10-09T0500,2436A,114.8938,30.3994,鄂州市,市政府,,42,42,31,26,21,68,,,,26,17,14,10,0.9,0.6
2024-10-09T0500,2437A,114.8989,30.3714,鄂州市,赵家坝,,39,37,26,27,20,76,,,,18,16,11,11,0.7,0.6
2024-10-09T0500,3654A,114.8094,30.4089,鄂州市,精准医疗中心,颗粒物(PM10),54,58,40,32,27,82,,,,18,18,6,8,0.6,0.6
2024-10-09T0500,2454A,109.4978,30.2981,恩施土家族苗族自治州,湖北民院,,48,41,38,33,27,16,,,,15,17,7,9,0.7,0.6
2024-10-09T0500,2455A,109.4707,30.2798,恩施土家族苗族自治州,州电力总公司,,40,31,38,28,27,11,,,,22,24,7,7,0.8,0.9
2024-10-09T0500,3549A,109.5061,30.3772,恩施土家族苗族自治州,龙凤新区,,42,33,32,29,24,10,,,,11,15,6,6,0.7,0.8
2024-10-09T0500,2499A,108.3411,21.6158,防城港市,沙万,,39,39,50,27,36,101,,,,12,13,10,9,0.6,0.5
2024-10-09T0500,2500A,108.3514,21.7731,防城港市,防城档案局,颗粒物(PM10),68,85,84,32,45,80,,,,26,22,10,10,0.6,0.6
2024-10-09T0500,2501A,108.3506,21.6414,防城港市,大海花园,,46,45,54,32,39,107,,,,12,11,8,8,0.5,0.5
2024-10-09T0500,1371A,113.1294,23.0067,佛山市,湾梁,细颗粒物(PM2.5),54,53,67,38,44,68,,,,30,26,11,9,0.8,0.8
2024-10-09T0500,1372A,113.1083,23.0478,佛山市,华材职中,细颗粒物(PM2.5),60,56,68,43,52,59,,,,29,26,10,10,0.7,0.7
2024-10-09T0500,1373A,113.144,23.0453,佛山市,南海气象局,细颗粒物(PM2.5),58,54,64,41,46,64,,,,24,20,12,9,0.6,0.6
2024-10-09T0500,1374A,113.2881,22.8094,佛山市,顺德苏岗,,49,36,59,34,41,78,,,,16,20,9,9,0.7,0.7
2024-10-09T0500,1376A,112.8383,22.8678,佛山市,高明孔堂,细颗粒物(PM2.5),67,57,72,48,52,76,,,,21,20,11,9,0.7,0.8
2024-10-09T0500,1377A,112.8836,23.1588,佛山市,三水监测站,细颗粒物(PM2.5),55,44,63,39,49,61,,,,32,24,10,8,0.6,0.6
2024-10-09T0500,1378A,112.867,23.185,佛山市,三水云东海,细颗粒物(PM2.5),57,,54,40,50,49,,,,27,23,11,11,0.6,0.7
2024-10-09T0500,3625A,113.2544,22.7642,佛山市,容桂街道办,,49,44,56,34,45,74,,,,21,21,8,8,0.7,0.8
2024-10-09T0500,1282A,119.2681,26.0504,福州市,师大,,22,13,12,3,4,69,,,,5,13,2,2,0.4,0.4
2024-10-09T0500,1283A,119.2984,26.1028,福州市,五四北路,,22,14,9,3,2,69,,,,12,11,4,3,0.7,0.5
2024-10-09T0500,1284A,119.2648,26.0768,福州市,杨桥西路,,20,17,14,3,5,62,,,,7,12,4,3,0.8,0.6
2024-10-09T0500,1285A,119.317,26.0746,福州市,紫阳,,24,13,15,3,5,76,,,,5,18,1,4,0.4,0.5
2024-10-09T0500,3048A,119.5799,26.0936,福州市,九龙,,20,20,13,3,2,47,,,,8,6,2,3,0.3,0.3
2024-10-09T0500,3526A,119.5189,25.9664,福州市,吴航,,20,16,12,9,6,63,,,,8,8,7,7,0.5,0.5
2024-10-09T0500,1755A,123.7977,41.8491,抚顺市,望花区,颗粒物(PM10),59,67,75,34,37,6,,,,35,41,7,10,0.7,0.9
2024-10-09T0500,1756A,123.9161,41.8822,抚顺市,顺城区,,42,42,51,24,24,22,,,,24,36,6,7,0.5,0.7
2024-10-09T0500,1757A,124.0436,41.8611,抚顺市,东洲区,颗粒物(PM10),51,52,49,35,34,5,,,,25,22,7,8,0.6,0.7
2024-10-09T0500,1758A,123.9247,41.8642,抚顺市,新抚区,颗粒物(PM10),60,70,65,36,30,6,,,,33,35,5,6,0.6,0.7
2024-10-09T0500,1759A,124.0972,41.8961,抚顺市,大伙房水库,,40,38,34,28,25,15,,,,24,16,6,7,0.5,0.6
2024-10-09T0500,1760A,123.7086,41.8391,抚顺市,沈抚新城,颗粒物(PM10),71,91,68,39,37,5,,,,46,42,17,14,1.5,0.9
2024-10-09T0500,2376A,116.2127,28.0814,抚州市,桐源党溪,,22,22,28,6,11,18,,,,3,4,5,5,0.5,0.6
2024-10-09T0500,2377A,116.3544,27.9831,抚州市,市站,,20,20,19,10,8,31,,,,10,8,1,2,0.8,0.9
2024-10-09T0500,2378A,116.3565,27.963,抚州市,血防站,,25,25,21,7,7,36,,,,3,4,2,3,0.6,0.6
2024-10-09T0500,2379A,116.3564,28.0007,抚州市,采茶剧团,,19,19,17,6,9,29,,,,5,5,4,4,0.7,0.7
2024-10-09T0500,2380A,116.385,27.9647,抚州市,医学分院,,23,23,20,6,7,29,,,,10,7,4,4,0.6,0.6
2024-10-09T0500,2207A,121.6094,41.998,阜新市,工业园区,颗粒物(PM10),53,56,54,32,26,2,,,,27,30,4,15,0.7,0.6
2024-10-09T0500,2209A,121.6673,42.0705,阜新市,农业园区,,47,47,38,29,21,43,,,,30,25,32,20,0.8,0.5
2024-10-09T0500,2210A,121.6717,42.0224,阜新市,东苑,,50,50,49,35,24,5,,,,37,35,17,20,0.8,0.7
2024-10-09T0500,2211A,121.6506,42.0498,阜新市,玉龙新城,,44,44,46,16,21,5,,,,25,27,7,11,0.7,0.4
2024-10-09T0500,2301A,115.8277,32.8929,阜阳市,市监测站,细颗粒物(PM2.5),62,72,61,44,39,66,,,,15,30,6,6,0.5,0.5
2024-10-09T0500,2303A,115.8554,32.8605,阜阳市,开发区,细颗粒物(PM2.5),59,50,63,42,37,92,,,,16,26,6,6,0.4,0.4
2024-10-09T0500,2875A,115.784,32.8892,阜阳市,阜阳职业技术学院,颗粒物(PM10),58,66,55,31,32,85,,,,13,30,6,6,0.4,0.4
2024-10-09T0500,3468A,115.7901,32.8613,阜阳市,市规划展馆,细颗粒物(PM2.5),65,49,50,47,33,68,,,,22,27,6,6,0.6,0.6
2024-10-09T0500,3469A,115.836,32.9183,阜阳市,枣园社区,细颗粒物(PM2.5),53,,51,37,36,96,,,,13,27,8,7,0.5,0.5
2024-10-09T0500,2669A,102.9099,34.9841,甘南藏族自治州,州政府,,32,27,27,22,17,55,,,,8,12,6,6,0.3,0.4
2024-10-09T0500,3380A,102.8914,34.9617,甘南藏族自治州,甘肃民族师范学院,,25,18,32,17,20,55,,,,10,18,3,4,0.5,0.5
2024-10-09T0500,2570A,101.9603,30.0475,甘孜藏族自治州,水桥子,,8,8,8,3,5,5,,,,14,16,5,5,0.3,0.4
2024-10-09T0500,3065A,101.9533,29.9972,甘孜藏族自治州,州环保局,,29,29,11,6,4,9,,,,23,16,3,3,0.2,0.3
2024-10-09T0500,3414A,115.8347,28.932,赣江新区,桑海产业园,颗粒物(PM10),52,53,48,34,29,52,,,,19,16,11,9,0.5,0.5
2024-10-09T0500,2362A,114.9017,25.9149,赣州市,通天岩,,34,34,37,19,27,76,,,,7,8,22,19,0.5,0.5
2024-10-09T0500,2363A,114.9367,25.8664,赣州市,地委,,32,26,30,22,26,66,,,,9,10,8,3,0.8,1
2024-10-09T0500,2364A,114.9461,25.8481,赣州市,气象台,,33,33,32,23,25,66,,,,6,7,8,6,0.9,0.8
2024-10-09T0500,2365A,114.9322,25.8333,赣州市,市图书馆,,26,26,31,17,18,70,,,,7,8,3,4,0.7,0.7
2024-10-09T0500,2366A,114.8905,25.8471,赣州市,华坚鞋城,,30,30,32,18,20,62,,,,8,8,3,3,0.5,0.5
2024-10-09T0500,3109A,115.0093,25.8613,赣州市,赣县区卫计委,,31,31,28,16,20,63,,,,9,9,8,6,0.6,0.6
2024-10-09T0500,2683A,106.2319,36.1417,固原市,马园,颗粒物(PM10),51,52,42,26,21,10,,,,27,28,6,6,0.4,0.4
2024-10-09T0500,2684A,106.2792,36.0022,固原市,监测站,,40,39,36,28,28,8,,,,28,21,6,6,1.1,0.5
2024-10-09T0500,2685A,106.2375,36.0211,固原市,新区,,24,24,34,13,22,70,,,,8,21,6,5,0.3,0.5
2024-10-09T0500,3522A,106.2177,35.9959,固原市,原州区十五小,,29,28,28,14,17,90,,,,5,17,5,5,0.4,0.6
2024-10-09T0500,2544A,106.6303,30.4576,广安市,市委,,49,49,40,32,27,10,,,,30,27,1,2,0.6,0.5
2024-10-09T0500,2545A,106.6271,30.4663,广安市,友谊中学,,41,41,38,27,24,9,,,,22,26,2,3,0.5,0.6
2024-10-09T0500,2547A,106.6388,30.4551,广安市,广电花园,,42,42,41,25,25,11,,,,23,25,1,1,0.4,0.5
2024-10-09T0500,2902A,106.6351,30.4865,广安市,北辰小学,,40,40,40,26,23,11,,,,16,18,3,4,0.5,0.6
2024-10-09T0500,2523A,105.8945,32.4535,广元市,黑石坡,,26,25,36,18,31,16,,,,6,16,14,15,0.4,0.5
2024-10-09T0500,2524A,105.821,32.4444,广元市,老城,,36,27,42,25,27,4,,,,29,35,1,5,0.5,0.4
2024-10-09T0500,2526A,105.8628,32.4287,广元市,监测站,,37,37,41,25,32,11,,,,13,23,2,3,0.5,0.6
2024-10-09T0500,3617A,105.8047,32.4166,广元市,经开区,,37,37,58,21,36,7,,,,22,31,4,12,0.6,0.8
2024-10-09T0500,1345A,113.2347,23.1423,广州市,广雅中学,细颗粒物(PM2.5),57,54,71,40,51,71,,,,24,26,9,8,0.8,0.9
2024-10-09T0500,1346A,113.2612,23.105,广州市,市五中,细颗粒物(PM2.5),58,51,104,41,53,77,,,,20,18,7,6,0.8,0.9
2024-10-09T0500,1348A,113.3478,23.0916,广州市,广东商学院,细颗粒物(PM2.5),53,48,64,37,49,86,,,,13,19,7,7,0.6,0.7
2024-10-09T0500,1349A,113.4332,23.1047,广州市,市八十六中,,48,46,61,33,45,74,,,,24,17,5,5,0.8,0.8
2024-10-09T0500,1350A,113.3505,22.9483,广州市,番禺中学,细颗粒物(PM2.5),53,45,62,37,47,88,,,,19,22,7,7,0.6,0.7
2024-10-09T0500,1351A,113.2146,23.3916,广州市,花都师范,细颗粒物(PM2.5),60,51,62,43,48,74,,,,13,12,10,9,0.5,0.7
2024-10-09T0500,1352A,113.2597,23.1331,广州市,市监测站,细颗粒物(PM2.5),54,50,68,38,48,70,,,,22,21,7,6,0.7,0.8
2024-10-09T0500,1353A,113.5618,23.312,广州市,九龙镇镇龙,,42,40,58,29,41,85,,,,13,15,8,7,0.7,0.7
2024-10-09T0500,1354A,113.2765,23.1544,广州市,麓湖,细颗粒物(PM2.5),53,50,69,37,48,45,,,,37,24,8,8,0.7,0.7
2024-10-09T0500,1355A,113.443,23.3035,广州市,帽峰山森林公园,,42,38,50,29,33,82,,,,10,9,9,8,0.6,0.6
2024-10-09T0500,2846A,113.3221,23.1322,广州市,体育西,细颗粒物(PM2.5),55,50,64,39,47,68,,,,20,18,5,5,0.7,0.8
2024-10-09T0500,3298A,113.5717,23.5491,广州市,从化街口,,46,41,58,32,44,78,,,,13,12,11,10,0.7,0.7
2024-10-09T0500,3299A,113.3472,23.3692,广州市,白云竹料,细颗粒物(PM2.5),53,45,61,37,48,80,,,,12,13,9,8,0.8,0.8
2024-10-09T0500,3300A,113.2981,23.237,广州市,白云嘉禾,细颗粒物(PM2.5),54,52,71,38,48,66,,,,16,16,8,8,0.9,0.9
2024-10-09T0500,3301A,113.4256,23.1716,广州市,黄埔科学城,细颗粒物(PM2.5),53,49,61,37,44,81,,,,14,13,9,9,1.0,1
2024-10-09T0500,3302A,113.3942,23.0483,广州市,番禺大学城,,49,46,58,34,45,74,,,,22,22,13,13,0.3,0.3
2024-10-09T0500,3303A,113.4922,22.8168,广州市,南沙黄阁,细颗粒物(PM2.5),57,55,67,40,47,59,,,,36,31,8,9,0.9,0.9
2024-10-09T0500,3304A,113.5342,22.7896,广州市,南沙街,细颗粒物(PM2.5),52,52,62,36,43,58,,,,32,26,10,11,0.8,0.9
2024-10-09T0500,3443A,113.2902,23.5544,广州市,花都梯面,细颗粒物(PM2.5),62,53,64,44,52,57,,,,16,12,13,11,0.7,0.8
2024-10-09T0500,3445A,113.7858,23.7478,广州市,从化良口,,38,34,50,26,37,64,,,,8,8,7,8,0.7,0.7
2024-10-09T0500,3446A,113.8051,23.2614,广州市,增城荔城,,42,37,49,29,38,82,,,,10,11,6,6,0.6,0.7
2024-10-09T0500,2506A,109.6047,23.0666,贵港市,江南子站,,36,36,50,21,30,92,,,,11,13,9,9,0.6,0.6
2024-10-09T0500,2507A,109.6014,23.0948,贵港市,贵城子站,,47,47,44,27,30,90,,,,10,10,9,9,0.8,0.8
2024-10-09T0500,2508A,109.5669,23.1065,贵港市,荷城子站,,36,36,46,22,25,90,,,,10,13,12,12,0.5,0.5
2024-10-09T0500,3405A,109.5886,23.1172,贵港市,新世纪学校,,41,41,49,21,25,84,,,,11,11,9,9,0.5,0.5
2024-10-09T0500,1439A,106.6899,26.5998,贵阳市,马鞍山,,35,34,18,24,11,27,,,,11,10,4,2,0.4,0.3
2024-10-09T0500,1440A,106.6971,26.5694,贵阳市,市环保站,细颗粒物(PM2.5),69,63,23,50,21,62,,,,10,10,14,4,0.6,0.4
2024-10-09T0500,1441A,106.6243,26.6266,贵阳市,鉴湖路,,29,29,21,17,14,51,,,,6,9,5,4,0.4,0.4
2024-10-09T0500,1442A,106.7487,26.6343,贵阳市,燕子冲,,32,24,15,22,19,33,,,,8,6,6,6,0.4,0.4
2024-10-09T0500,1443A,106.6555,26.4365,贵阳市,碧云窝,,29,29,28,14,14,46,,,,13,12,5,5,0.4,0.4
2024-10-09T0500,1444A,106.694,26.5161,贵阳市,中院村,,39,39,25,27,17,47,,,,13,12,9,7,0.6,0.6
2024-10-09T0500,1445A,106.7109,26.6027,贵阳市,红边门,细颗粒物(PM2.5),64,61,26,46,21,41,,,,15,13,9,5,0.5,0.5
2024-10-09T0500,1446A,106.7164,26.5699,贵阳市,新华路,,45,31,18,31,17,50,,,,10,8,6,5,0.4,0.4
2024-10-09T0500,1447A,106.674,26.5424,贵阳市,太慈桥,,42,41,20,29,14,63,,,,10,10,8,5,0.5,0.3
2024-10-09T0500,1862A,110.4144,25.3167,桂林市,电子科大尧山校区,细颗粒物(PM2.5),53,46,38,37,28,75,,,,10,8,7,7,0.5,0.5
2024-10-09T0500,1863A,110.2819,25.2697,桂林市,监测站,,50,50,41,35,31,86,,,,10,11,10,10,0.4,0.4
2024-10-09T0500,1864A,110.3089,25.2708,桂林市,龙隐路小学,,33,33,33,18,36,84,,,,9,8,10,11,0.7,0.7
2024-10-09T0500,1865A,110.2869,25.2178,桂林市,八中,细颗粒物(PM2.5),54,45,39,38,30,78,,,,11,10,10,10,0.6,0.6
2024-10-09T0500,3403A,110.1764,25.2381,桂林市,创业大厦,细颗粒物(PM2.5),62,51,43,44,35,90,,,,8,8,10,10,0.4,0.4
2024-10-09T0500,3531A,110.296,25.1253,桂林市,旅游学院,细颗粒物(PM2.5),52,39,32,36,26,78,,,,9,6,11,9,0.4,0.4
2024-10-09T0500,2674A,100.2561,34.4714,果洛藏族自治州,玛沁县大武镇,,25,25,25,11,13,28,,,,12,7,8,7,0.4,0.4
2024-10-09T0500,1129A,126.5422,45.755,哈尔滨市,岭北,,49,46,40,34,30,74,,,,35,27,9,9,0.0,0.2
2024-10-09T0500,1130A,126.561,45.8167,哈尔滨市,松北商大,颗粒物(PM10),53,55,50,32,31,7,,,,45,36,8,8,0.7,0.7
2024-10-09T0500,1131A,126.979,45.5419,哈尔滨市,阿城会宁,,48,48,75,27,36,13,,,,36,32,10,11,0.6,0.7
2024-10-09T0500,1132A,126.599,45.7222,哈尔滨市,南岗学府路,颗粒物(PM10),68,85,102,38,47,11,,,,47,44,10,9,0.5,0.8
2024-10-09T0500,1133A,126.689,45.7733,哈尔滨市,太平宏伟公园,颗粒物(PM10),57,63,78,34,41,30,,,,29,42,5,5,0.5,0.7
2024-10-09T0500,1135A,126.685,45.7319,哈尔滨市,香坊红旗大街,颗粒物(PM10),56,61,87,35,44,36,,,,27,45,14,11,0.6,1
2024-10-09T0500,1136A,126.6411,45.7258,哈尔滨市,动力和平路,颗粒物(PM10),64,78,65,43,38,29,,,,29,40,13,10,0.5,0.7
2024-10-09T0500,1137A,126.593,45.7478,哈尔滨市,道里建国路,细颗粒物(PM2.5),67,78,70,48,43,6,,,,63,54,29,19,2.9,1.4
2024-10-09T0500,1138A,126.615,45.61,哈尔滨市,平房东轻厂,,44,44,54,27,30,36,,,,25,30,9,6,0.6,0.6
2024-10-09T0500,1139A,126.595,45.9855,哈尔滨市,呼兰师专,颗粒物(PM10),60,70,73,42,35,15,,,,59,47,4,4,0.7,0.7
2024-10-09T0500,1140A,126.6206,45.6842,哈尔滨市,省农科院,颗粒物(PM10),62,74,93,36,44,7,,,,54,51,9,8,0.6,0.8
2024-10-09T0500,2688A,93.5128,42.8172,哈密市,地区监测站,,47,47,69,19,21,71,,,,8,20,4,6,0.2,0.2
2024-10-09T0500,2689A,93.4961,42.8328,哈密市,哈密师范学校,,36,36,64,20,23,68,,,,14,25,4,6,0.3,0.5
2024-10-09T0500,2671A,100.9048,36.9639,海北藏族自治州,海晏县西海镇,,33,32,22,23,18,64,,,,10,8,10,9,0.5,0.4
2024-10-09T0500,3867A,102.0738,36.5056,海东市,平安区公安北苑,,40,40,46,25,32,75,,,,9,15,18,15,0.5,0.6
2024-10-09T0500,1410A,110.3232,20.0574,海口市,海南大学,臭氧1小时,106,70,54,50,38,212,,,,10,9,4,4,0.7,0.6
2024-10-09T0500,1411A,110.283,20.0053,海口市,秀英海南医院,臭氧1小时,109,59,51,51,39,218,,,,13,12,7,7,0.6,0.5
2024-10-09T0500,1412A,110.338,19.9969,海口市,海南师范大学,臭氧1小时,108,58,52,49,38,216,,,,10,9,8,8,0.7,0.6
2024-10-09T0500,1413A,110.33,20.0356,海口市,龙华路环保局宿舍,臭氧1小时,108,60,51,49,38,216,,,,9,9,6,6,0.6,0.5
2024-10-09T0500,3539A,110.5111,19.9736,海口市,桂林洋子站,臭氧1小时,104,67,55,48,40,208,,,,8,9,8,8,0.6,0.5
2024-10-09T0500,2673A,100.6188,36.2866,海南藏族自治州,共和县恰卜恰镇,,28,,28,19,10,50,,,,9,12,10,8,0.6,0.6
2024-10-09T0500,2676A,97.3731,37.3753,海西蒙古族藏族自治州,德令哈市,,20,,29,14,15,55,,,,1,9,8,10,0.5,0.5
2024-10-09T0500,1048A,114.5302,36.6116,邯郸市,东污水处理厂,细颗粒物(PM2.5),230,203,128,180,110,36,,,,36,38,3,3,0.8,0.8
2024-10-09T0500,1049A,114.4918,36.5713,邯郸市,矿院,细颗粒物(PM2.5),211,212,143,161,107,8,,,,50,35,3,4,0.8,0.9
2024-10-09T0500,1050A,114.484,36.6133,邯郸市,丛台公园,细颗粒物(PM2.5),209,198,126,159,104,39,,,,40,31,4,4,0.8,1
2024-10-09T0500,3458A,114.7895,36.5593,邯郸市,香泉濮院小区,细颗粒物(PM2.5),153,167,127,117,87,55,,,,31,28,5,4,0.6,0.6
2024-10-09T0500,3579A,114.50634,36.77178,邯郸市,永年区实验高中,细颗粒物(PM2.5),195,214,140,146,94,64,,,,26,32,8,6,1.2,0.8
2024-10-09T0500,3580A,114.20016,36.44293,邯郸市,峰峰矿区临水派出所,细颗粒物(PM2.5),127,103,108,96,102,73,,,,9,15,3,5,0.7,0.9
2024-10-09T0500,2634A,106.9893,33.1842,汉中市,汉川机床厂子校,,34,34,43,19,30,17,,,,14,16,5,10,0.7,0.8
2024-10-09T0500,2635A,107.0154,33.0706,汉中市,市监测站,,49,41,49,34,33,12,,,,20,17,9,11,0.8,0.8
2024-10-09T0500,2636A,107.0089,33.1138,汉中市,鑫源开发区,,43,32,46,30,31,6,,,,30,23,13,18,0.8,0.6
2024-10-09T0500,2637A,107.007,33.0323,汉中市,南郑大河坎水厂,,32,26,41,22,31,16,,,,11,17,7,8,0.5,0.6
2024-10-09T0500,1223A,120.2072,30.2111,杭州市,滨江,,40,40,39,26,25,51,,,,29,26,5,5,0.6,0.7
2024-10-09T0500,1224A,120.0633,30.2747,杭州市,西溪,,43,43,33,23,25,10,,,,22,23,5,5,0.7,0.7
2024-10-09T0500,1226A,120.3461,30.3153,杭州市,下沙,,50,50,38,26,22,2,,,,82,46,8,7,0.8,0.7
2024-10-09T0500,1227A,120.1269,30.2456,杭州市,卧龙桥,,38,36,24,26,21,15,,,,22,18,5,5,0.6,0.6
2024-10-09T0500,1228A,120.1903,30.2692,杭州市,浙江农大,,47,47,35,29,26,15,,,,46,29,20,10,0.7,0.7
2024-10-09T0500,1230A,120.1197,30.3119,杭州市,和睦小学,,41,41,35,25,19,31,,,,43,32,8,7,0.7,0.7
2024-10-09T0500,1231A,120.3019,30.4183,杭州市,临平镇,细颗粒物(PM2.5),57,55,45,40,34,16,,,,47,25,6,5,0.6,0.6
2024-10-09T0500,1232A,120.2697,30.1819,杭州市,城厢镇,,45,36,37,31,29,41,,,,32,22,7,7,0.7,0.8
2024-10-09T0500,1233A,120.0883,30.1808,杭州市,云栖,,37,37,31,20,15,12,,,,26,17,7,7,0.7,0.7
2024-10-09T0500,3557A,119.9464,30.0494,杭州市,镇二中,细颗粒物(PM2.5),58,50,33,41,17,20,,,,32,21,9,8,0.7,0.7
2024-10-09T0500,3558A,119.7183,30.2367,杭州市,市府大楼,,38,37,30,26,20,24,,,,17,21,6,6,0.7,0.6
2024-10-09T0500,3656A,120.1556,30.2864,杭州市,消防大队,,45,44,32,31,25,17,,,,55,29,9,9,0.5,0.4
2024-10-09T0500,1270A,117.1959,31.7848,合肥市,明珠广场,,32,31,36,22,23,61,,,,28,31,11,10,0.4,0.5
2024-10-09T0500,1271A,117.3072,31.8764,合肥市,三里街,,36,36,40,22,22,38,,,,51,31,4,4,0.6,0.6
2024-10-09T0500,1272A,117.2588,31.8707,合肥市,琥珀山庄,,33,31,39,23,23,45,,,,27,25,7,8,0.5,0.6
2024-10-09T0500,1273A,117.1604,31.9052,合肥市,董铺水库,,31,31,32,17,17,64,,,,15,18,4,4,0.4,0.3
2024-10-09T0500,1274A,117.25,31.8571,合肥市,长江中路,,34,34,46,21,30,61,,,,23,21,8,8,0.6,0.6
2024-10-09T0500,1275A,117.266,31.9436,合肥市,庐阳区,,48,48,46,22,26,31,,,,55,33,3,4,0.6,0.6
2024-10-09T0500,1276A,117.336,31.8586,合肥市,瑶海区,,41,41,44,22,23,53,,,,44,34,9,7,0.8,0.5
2024-10-09T0500,1277A,117.3027,31.7964,合肥市,包河区,,40,29,45,17,25,14,,,,79,55,6,6,0.6,0.6
2024-10-09T0500,1278A,117.2776,31.7385,合肥市,滨湖新区,,27,27,40,17,24,34,,,,46,27,5,5,0.4,0.4
2024-10-09T0500,1279A,117.1318,31.8403,合肥市,高新区,,31,31,35,18,24,67,,,,21,26,8,7,0.6,0.7
2024-10-09T0500,3464A,117.3803,31.9147,合肥市,高教基地,,31,31,34,14,18,24,,,,17,18,4,4,0.3,0.4
2024-10-09T0500,3614A,79.924,37.0877,和田地区,地区环保局,颗粒物(PM10),121,191,236,48,68,50,,,,12,19,8,8,0.4,0.5
2024-10-09T0500,3615A,79.9131,37.113,和田地区,市环保局,颗粒物(PM10),105,160,202,69,68,46,,,,12,27,7,8,0.6,0.6
2024-10-09T0500,2516A,108.2011,24.715,河池市,东仁乐园,,26,21,32,18,23,78,,,,6,9,3,5,0.5,0.6
2024-10-09T0500,2517A,108.0497,24.6947,河池市,市环保站,,28,24,35,19,25,83,,,,7,18,8,9,0.5,0.6
2024-10-09T0500,2518A,108.0983,24.6989,河池市,市疾控中心,,29,26,39,18,31,92,,,,7,17,11,11,0.5,0.6
2024-10-09T0500,1696A,114.6778,23.7569,河源市,源西,,38,32,40,26,31,67,,,,11,13,5,6,0.5,0.6
2024-10-09T0500,1697A,114.6944,23.7586,河源市,东埔,,46,39,43,32,34,69,,,,11,12,4,5,0.6,0.8
2024-10-09T0500,1698A,114.6892,23.7233,河源市,老城,,35,35,43,21,30,68,,,,10,11,4,4,0.7,0.7
2024-10-09T0500,1718A,115.4208,35.2464,菏泽市,气象局,细颗粒物(PM2.5),84,94,83,62,47,81,,,,30,33,6,5,0.5,0.5
2024-10-09T0500,1719A,115.4747,35.2375,菏泽市,市政协,细颗粒物(PM2.5),90,90,75,67,46,93,,,,23,29,6,5,0.5,0.5
2024-10-09T0500,3374A,115.5564,35.0891,菏泽市,定陶老年大学,细颗粒物(PM2.5),100,107,82,75,51,53,,,,28,23,6,8,0.4,0.4
2024-10-09T0500,3647A,115.4702,35.2706,菏泽市,菏泽医专,细颗粒物(PM2.5),100,81,73,75,53,107,,,,20,31,8,8,1.0,1
2024-10-09T0500,2514A,111.5264,24.4172,贺州市,环保小区,,46,36,39,32,28,67,,,,12,11,6,6,0.5,0.5
2024-10-09T0500,2515A,111.5608,24.4078,贺州市,政协大楼,,42,42,43,25,28,68,,,,11,11,6,6,0.4,0.4
2024-10-09T0500,3534A,111.4744,24.4553,贺州市,西湾,,40,29,37,28,27,61,,,,11,10,8,7,0.5,0.5
2024-10-09T0500,2385A,114.17,35.9019,鹤壁市,市监测站,细颗粒物(PM2.5),153,146,137,117,106,17,,,,38,30,3,4,0.8,0.9
2024-10-09T0500,2386A,114.2956,35.7511,鹤壁市,市交警支队,细颗粒物(PM2.5),189,202,134,142,90,49,,,,48,31,5,3,1.3,0.7
2024-10-09T0500,2387A,114.2878,35.7306,鹤壁市,迎宾馆,细颗粒物(PM2.5),207,213,150,157,107,47,,,,49,31,6,5,1.0,0.9
2024-10-09T0500,3474A,114.2617,35.6822,鹤壁市,大新区,细颗粒物(PM2.5),163,174,104,124,81,8,,,,70,42,4,2,0.9,0.8
2024-10-09T0500,3596A,114.1572,35.9603,鹤壁市,南山宾馆,细颗粒物(PM2.5),189,180,149,142,126,94,,,,19,21,6,5,0.2,0.3
2024-10-09T0500,2244A,130.2537,47.3416,鹤岗市,哈啤分公司,,31,31,41,16,22,40,,,,6,10,13,14,0.4,0.5
2024-10-09T0500,2245A,130.2684,47.3086,鹤岗市,斯达机电,,43,41,42,30,29,52,,,,12,17,16,14,0.4,0.4
2024-10-09T0500,2246A,130.3114,47.3388,鹤岗市,东山纸板厂,颗粒物(PM10),73,95,87,31,36,10,,,,32,26,17,18,1.4,0.7
2024-10-09T0500,2247A,130.1097,47.3382,鹤岗市,五号水库,,30,23,26,21,14,54,,,,6,7,8,9,0.1,0.1
2024-10-09T0500,2263A,127.4833,50.2524,黑河市,交通局,,46,46,40,17,21,8,,,,27,19,6,7,0.5,0.4
2024-10-09T0500,2264A,127.5144,50.2341,黑河市,环保局,,38,38,37,19,21,25,,,,16,17,5,5,0.3,0.4
2024-10-09T0500,2265A,127.5291,50.2472,黑河市,大黑河岛,,,,,26,24,26,,,,24,21,2,3,0.2,0.2
2024-10-09T0500,1074A,115.6838,37.7541,衡水市,电机北厂,细颗粒物(PM2.5),62,71,68,44,38,70,,,,25,25,8,8,0.4,0.5
2024-10-09T0500,1075A,115.6303,37.7316,衡水市,市监测站,颗粒物(PM10),60,70,65,42,33,56,,,,36,34,9,8,0.4,0.5
2024-10-09T0500,3188A,115.6683,37.7217,衡水市,市城管局,细颗粒物(PM2.5),63,72,65,45,37,48,,,,38,34,4,8,0.4,0.5
2024-10-09T0500,3459A,115.5989,37.5491,衡水市,地表水厂,细颗粒物(PM2.5),72,77,69,52,43,32,,,,43,52,4,4,0.5,0.5
2024-10-09T0500,2456A,112.5003,26.9167,衡阳市,原169医院,,50,50,39,31,29,38,,,,20,20,16,14,0.7,0.6
2024-10-09T0500,2457A,112.6194,26.9258,衡阳市,衡阳化工总厂,细颗粒物(PM2.5),68,59,50,49,44,28,,,,15,10,6,6,0.7,0.7
2024-10-09T0500,2458A,112.6211,26.8956,衡阳市,珠晖区环保局,,,45,49,,39,28,,,,22,18,8,9,0.8,0.8
2024-10-09T0500,2459A,112.6197,26.8733,衡阳市,市委党校,颗粒物(PM10),54,58,48,36,34,29,,,,24,15,12,9,1.1,0.7
2024-10-09T0500,2460A,112.6006,26.8919,衡阳市,市监测站,,45,41,46,31,37,46,,,,15,15,9,8,0.7,0.7
2024-10-09T0500,2461A,112.5664,26.9056,衡阳市,真空机电公司,细颗粒物(PM2.5),54,45,48,38,38,50,,,,12,13,6,7,0.8,0.8
2024-10-09T0500,3399A,112.6703,26.882,衡阳市,师范学院,,48,48,48,27,29,33,,,,19,15,9,9,0.8,0.7
2024-10-09T0500,2608A,103.3772,23.3993,红河哈尼族彝族自治州,污水处理厂,细颗粒物(PM2.5),57,,35,40,32,82,,,,6,9,5,5,0.5,0.5
2024-10-09T0500,2609A,103.3861,23.35,红河哈尼族彝族自治州,监测站,,48,45,45,33,29,90,,,,4,7,8,8,0.6,0.6
2024-10-09T0500,3038A,103.3758,23.368,红河哈尼族彝族自治州,州图书馆,,44,44,41,24,22,90,,,,5,8,6,6,0.5,0.4
2024-10-09T0500,1090A,111.6507,40.7517,呼和浩特市,呼市一监,,41,41,58,25,27,20,,,,33,33,7,8,0.5,0.6
2024-10-09T0500,1091A,111.6572,40.8033,呼和浩特市,小召,,46,46,54,27,26,13,,,,55,42,8,10,0.5,0.6
2024-10-09T0500,1094A,111.7516,40.8369,呼和浩特市,如意水处理厂,颗粒物(PM10),55,59,50,24,21,9,,,,44,43,5,7,0.4,0.5
2024-10-09T0500,1095A,111.7276,40.8062,呼和浩特市,二十九中,,50,50,59,26,26,9,,,,53,49,6,7,0.6,0.7
2024-10-09T0500,1096A,111.5512,40.7866,呼和浩特市,工大金川校区,颗粒物(PM10),54,57,59,24,25,4,,,,62,49,4,6,0.6,0.6
2024-10-09T0500,1097A,111.717,40.7612,呼和浩特市,化肥厂生活区,颗粒物(PM10),54,57,63,26,25,13,,,,39,43,8,10,0.4,0.5
2024-10-09T0500,3698A,111.5968,40.8178,呼和浩特市,红旗小学,,46,46,59,22,25,1,,,,58,50,4,7,0.5,0.5
2024-10-09T0500,3699A,111.6518,40.8389,呼和浩特市,海东办,颗粒物(PM10),53,56,58,25,27,4,,,,59,48,5,7,0.6,0.6
2024-10-09T0500,2192A,119.7594,49.2261,呼伦贝尔市,区环保局,,27,27,27,17,15,66,,,,8,16,6,6,0.0,0.1
2024-10-09T0500,3061A,119.7512,49.1577,呼伦贝尔市,国华电力东,,21,21,22,8,12,58,,,,6,8,3,5,0.3,0.3
2024-10-09T0500,1250A,120.0751,30.8669,湖州市,城西水厂,,43,43,32,28,22,10,,,,83,41,5,5,0.7,0.7
2024-10-09T0500,2873A,120.0875,30.8955,湖州市,仁皇山新区,,43,39,32,30,27,3,,,,59,27,8,8,0.5,0.5
2024-10-09T0500,2907A,120.1844,30.8596,湖州市,吴兴区站,,37,37,36,22,22,4,,,,59,24,6,6,0.7,0.7
2024-10-09T0500,3562A,120.4148,30.8538,湖州市,南浔区站,,40,40,38,27,26,38,,,,25,23,3,4,0.4,0.5
2024-10-09T0500,1607A,120.9092,40.7136,葫芦岛市,龙港区,颗粒物(PM10),51,52,41,27,21,43,,,,34,23,15,20,0.8,0.7
2024-10-09T0500,1608A,120.8392,40.7514,葫芦岛市,化工街,颗粒物(PM10),59,68,59,36,25,7,,,,38,43,76,42,0.4,0.6
2024-10-09T0500,1609A,120.8341,40.7073,葫芦岛市,新区,颗粒物(PM10),53,56,37,17,17,9,,,,62,43,9,18,0.7,0.7
2024-10-09T0500,1610A,120.8695,40.7677,葫芦岛市,东城区,,46,44,59,32,28,4,,,,36,39,53,52,0.5,0.6
2024-10-09T0500,2482A,109.5981,27.5721,怀化市,林科所,,24,24,24,16,15,67,,,,14,14,9,9,0.9,0.8
2024-10-09T0500,2483A,109.9453,27.5444,怀化市,河西地税局,,36,34,38,25,24,49,,,,11,16,8,10,0.3,0.4
2024-10-09T0500,2484A,109.9781,27.5342,怀化市,市四医院,,48,46,45,33,29,61,,,,11,9,21,16,0.6,0.6
2024-10-09T0500,2485A,109.9972,27.5578,怀化市,监测楼,,47,47,45,32,29,68,,,,13,13,16,16,0.5,0.5
2024-10-09T0500,2486A,110.0394,27.583,怀化市,市委党校,颗粒物(PM10),68,85,47,28,29,45,,,,18,14,16,24,0.6,0.5
2024-10-09T0500,1210A,119.036,33.5981,淮安市,钵池山,,50,39,36,35,29,59,,,,21,21,5,5,0.8,0.8
2024-10-09T0500,1211A,119.007,33.575,淮安市,北京南路,颗粒物(PM10),60,70,48,33,24,0,,,,69,37,6,7,0.6,0.6
2024-10-09T0500,1212A,118.989,33.6067,淮安市,市监测站,细颗粒物(PM2.5),73,70,39,53,29,22,,,,47,35,7,7,0.8,0.8
2024-10-09T0500,1213A,119.135,33.5039,淮安市,楚州区监测站,细颗粒物(PM2.5),70,61,45,51,29,19,,,,50,30,6,7,0.6,0.7
2024-10-09T0500,1214A,119.0186,33.6297,淮安市,淮阴区监测站,颗粒物(PM10),63,75,44,36,30,6,,,,85,45,9,8,0.9,0.7
2024-10-09T0500,3426A,118.8755,33.2894,淮安市,新华书店,,46,46,44,30,23,67,,,,23,25,8,10,0.3,0.4
2024-10-09T0500,2282A,116.8004,33.975,淮北市,监测站,,49,49,47,27,26,79,,,,16,16,4,3,0.4,0.5
2024-10-09T0500,2283A,116.8091,33.9007,淮北市,烈山区政府,颗粒物(PM10),56,62,58,31,36,70,,,,33,22,10,7,0.4,0.4
2024-10-09T0500,3330A,116.8873,33.9836,淮北市,杜集区检察院,颗粒物(PM10),51,52,53,24,22,80,,,,21,16,5,3,0.3,0.3
2024-10-09T0500,4017A,116.7923,33.9535,淮北市,市博物馆,,47,47,46,29,27,73,,,,22,18,5,3,0.5,0.5
2024-10-09T0500,2277A,116.8305,32.7727,淮南市,潘集区政府,细颗粒物(PM2.5),53,51,55,37,36,56,,,,22,21,10,9,0.6,0.5
2024-10-09T0500,2278A,117.0067,32.6524,淮南市,师范学院,,48,48,50,30,34,95,,,,13,18,7,7,0.5,0.5
2024-10-09T0500,2279A,116.8569,32.5951,淮南市,谢家集区政府,颗粒物(PM10),52,53,43,32,33,69,,,,18,22,8,8,0.3,0.4
2024-10-09T0500,2280A,116.8281,32.633,淮南市,八公山区政府,颗粒物(PM10),51,51,50,31,31,74,,,,12,12,8,9,0.3,0.3
2024-10-09T0500,2281A,116.6325,32.6201,淮南市,焦岗湖风景区管理处,,43,42,38,30,18,52,,,,13,14,7,9,0.1,0.1
2024-10-09T0500,2894A,117.0566,32.6531,淮南市,经济技术开发区消防队,,48,48,53,20,29,77,,,,18,21,5,6,0.4,0.4
2024-10-09T0500,3329A,117.0108,32.5893,淮南市,山南新区,,40,40,46,17,24,89,,,,17,18,4,3,0.5,0.5
2024-10-09T0500,2446A,114.9028,30.4742,黄冈市,职工中心,细颗粒物(PM2.5),70,71,47,51,32,52,,,,32,20,12,9,0.9,0.6
2024-10-09T0500,2929A,114.8858,30.4519,黄冈市,红卫路,细颗粒物(PM2.5),62,60,37,44,24,56,,,,26,17,12,8,1.1,0.7
2024-10-09T0500,3398A,114.9136,30.4445,黄冈市,市林业局,"颗粒物(PM10),细颗粒物(PM2.5)",57,63,37,40,23,54,,,,33,14,12,9,0.9,0.5
2024-10-09T0500,2672A,102.0199,35.5102,黄南藏族自治州,同仁县隆务镇,,35,35,42,20,19,38,,,,1,2,10,9,0.4,0.4
2024-10-09T0500,2295A,118.2903,29.6963,黄山市,延安路89号,,44,44,32,3,11,27,,,,9,7,6,6,0.4,0.4
2024-10-09T0500,2296A,118.327,29.7178,黄山市,黄山东路89号,,23,23,30,16,12,26,,,,6,8,4,5,0.4,0.4
2024-10-09T0500,2297A,118.1371,30.2756,黄山市,黄山区政府5号楼,,33,33,30,20,18,32,,,,7,8,7,7,0.4,0.4
2024-10-09T0500,2423A,115.0601,30.2313,黄石市,沈家营,,36,36,31,19,16,107,,,,8,12,8,9,0.6,0.6
2024-10-09T0500,2424A,115.0817,30.2006,黄石市,陈家湾,,38,32,32,26,22,116,,,,7,9,7,8,0.6,0.7
2024-10-09T0500,2426A,114.8988,30.2019,黄石市,铁山,细颗粒物(PM2.5),62,49,35,44,28,66,,,,27,16,14,11,0.5,0.5
2024-10-09T0500,2427A,115.0307,30.2092,黄石市,团城山,,38,38,34,23,18,105,,,,10,13,5,7,0.5,0.6
2024-10-09T0500,3149A,115.0235,30.1578,黄石市,笔架山北路,,46,46,32,29,22,82,,,,16,14,8,7,0.7,0.5
2024-10-09T0500,1392A,114.4183,23.0528,惠州市,河南岸金山湖子站,,36,36,45,25,31,77,,,,12,11,8,7,0.6,0.6
2024-10-09T0500,1393A,114.4053,23.0822,惠州市,下埔横江三路子站,,39,37,44,27,31,87,,,,11,10,8,7,0.7,0.7
2024-10-09T0500,1394A,114.4103,23.1142,惠州市,江北云山西路子站,,36,35,42,25,30,84,,,,9,9,8,7,0.5,0.6
2024-10-09T0500,1395A,114.4645,22.7833,惠州市,惠阳区承修路船湖子站,,46,46,51,28,30,61,,,,14,16,8,8,0.7,0.7
2024-10-09T0500,1396A,114.5317,22.7422,惠州市,大亚湾管委会子站,,39,36,38,27,26,74,,,,9,12,8,8,0.6,0.6
2024-10-09T0500,3314A,114.4338,22.8134,惠州市,惠阳秋长,,35,31,35,24,28,67,,,,12,11,9,7,0.6,0.6
2024-10-09T0500,3452A,114.6517,22.775,惠州市,大亚湾霞涌,,30,30,36,12,26,69,,,,6,7,6,6,0.7,0.7
2024-10-09T0500,2240A,130.9762,45.3001,鸡西市,环保局,,50,50,49,27,28,28,,,,13,17,5,6,0.4,0.4
2024-10-09T0500,2243A,130.9429,45.3039,鸡西市,第一中学,,45,45,48,25,26,25,,,,20,15,5,5,0.1,0.1
2024-10-09T0500,3707A,131.0207,45.3073,鸡西市,欧美日汽修厂,,45,42,67,31,38,19,,,,19,29,7,8,0.2,0.3
2024-10-09T0500,3709A,130.9967,45.3106,鸡西市,市政设施管理处,颗粒物(PM10),54,57,76,31,33,9,,,,33,33,6,7,0.3,0.3
2024-10-09T0500,2367A,114.9754,27.0803,吉安市,红声器材厂,,34,34,31,16,15,55,,,,14,17,12,12,0.5,0.5
2024-10-09T0500,2368A,114.9658,27.0999,吉安市,市森林工业局,,30,30,28,17,15,58,,,,17,16,9,10,0.7,0.7
2024-10-09T0500,2369A,114.99,27.1312,吉安市,市环境监测站,,30,30,26,15,13,55,,,,13,16,12,15,0.5,0.4
2024-10-09T0500,2370A,115.0093,27.0968,吉安市,青原区法院,,30,30,28,19,13,56,,,,17,19,14,15,0.6,0.6
2024-10-09T0500,1772A,126.54,43.8622,吉林市,哈达湾,,30,30,34,16,21,45,,,,16,24,7,7,0.5,0.6
2024-10-09T0500,1773A,126.5844,43.8358,吉林市,东局子,,34,34,32,19,21,22,,,,26,26,5,5,0.6,0.5
2024-10-09T0500,1774A,126.5052,43.8245,吉林市,电力学院,,43,43,46,28,31,6,,,,24,30,5,5,0.6,0.8
2024-10-09T0500,1775A,126.6133,43.8972,吉林市,江北,,31,31,42,19,24,20,,,,14,25,8,8,0.7,0.8
2024-10-09T0500,1776A,126.555,43.8306,吉林市,江南公园,,29,28,40,20,26,19,,,,24,29,6,6,0.5,0.6
2024-10-09T0500,1778A,126.7061,43.7133,吉林市,丰满,,15,15,16,9,13,43,,,,3,4,6,6,0.4,0.2
2024-10-09T0500,2868A,126.4739,43.953,吉林市,九站,,43,43,56,26,31,9,,,,35,35,8,8,0.6,0.7
2024-10-09T0500,1299A,116.9862,36.6114,济南市,科干所,,41,41,41,15,17,114,,,,15,33,8,7,0.6,0.7
2024-10-09T0500,1300A,116.9376,36.665,济南市,农科所,,37,37,48,17,15,78,,,,32,46,6,5,0.7,0.7
2024-10-09T0500,1301A,117.1265,36.6734,济南市,开发区,,35,34,38,24,20,105,,,,19,39,6,4,0.5,0.5
2024-10-09T0500,1303A,117.0624,36.6868,济南市,省种子仓库,,39,39,48,24,18,58,,,,45,43,4,3,0.4,0.4
2024-10-09T0500,1304A,116.9489,36.6447,济南市,机床二厂,,46,46,56,15,20,79,,,,36,49,6,4,0.7,0.8
2024-10-09T0500,1305A,117.0495,36.663,济南市,市监测站,,39,39,40,20,17,95,,,,28,42,6,5,0.5,0.6
2024-10-09T0500,1306A,116.7675,36.5484,济南市,长清党校,,42,42,35,20,17,91,,,,32,31,8,5,0.6,0.5
2024-10-09T0500,1616A,117.6795,36.229,济南市,技术学院,,35,31,39,24,22,50,,,,46,35,8,9,0.4,0.6
2024-10-09T0500,1961A,117.532,36.6868,济南市,东山小学,,44,44,40,22,17,92,,,,29,34,8,4,0.8,0.4
2024-10-09T0500,3059A,117.7161,36.2049,济南市,泰兴公司,,44,44,43,29,24,13,,,,60,47,8,9,0.4,0.4
2024-10-09T0500,3064A,117.6867,36.2171,济南市,莱芜战役纪念馆,颗粒物(PM10),51,51,54,34,22,34,,,,53,45,5,6,0.5,0.6
2024-10-09T0500,3494A,117.1673,36.9782,济南市,济阳区政府,颗粒物(PM10),53,56,66,20,24,51,,,,44,56,3,4,0.4,0.4
2024-10-09T0500,3495A,117.1171,36.63,济南市,锦屏中学,,36,29,24,20,13,114,,,,16,22,7,5,0.4,0.4
2024-10-09T0500,3682A,116.9814,36.6819,济南市,济南四建,,31,31,43,20,23,80,,,,30,50,4,3,0.4,0.6
2024-10-09T0500,1653A,116.6251,35.4302,济宁市,火炬城,细颗粒物(PM2.5),85,74,46,63,31,42,,,,71,36,11,10,0.8,0.6
2024-10-09T0500,1655A,116.5491,35.4042,济宁市,电化厂,细颗粒物(PM2.5),70,83,67,51,31,80,,,,22,37,13,10,1.2,1.2
2024-10-09T0500,3500A,116.5814,35.3707,济宁市,北湖一中,细颗粒物(PM2.5),77,57,45,56,31,72,,,,28,31,13,8,0.5,0.5
2024-10-09T0500,3501A,116.8249,35.5593,济宁市,服务中心,细颗粒物(PM2.5),75,96,56,55,30,42,,,,48,42,10,8,0.8,0.6
2024-10-09T0500,3678A,116.5907,35.4054,济宁市,市第七中学,细颗粒物(PM2.5),73,68,53,53,32,29,,,,52,37,9,8,0.8,0.7
2024-10-09T0500,2255A,130.2751,46.8028,佳木斯市,佳纺,颗粒物(PM10),54,58,51,28,29,8,,,,33,28,5,4,0.6,0.6
2024-10-09T0500,2256A,130.3995,46.8307,佳木斯市,发电厂,颗粒物(PM10),56,62,47,38,30,6,,,,36,22,6,6,0.5,0.5
2024-10-09T0500,2257A,130.3258,46.7975,佳木斯市,环保局,,50,50,46,28,28,3,,,,32,24,8,8,0.5,0.5
2024-10-09T0500,2258A,130.3648,46.8032,佳木斯市,十一中,颗粒物(PM10),52,53,48,34,31,11,,,,45,31,8,7,0.6,0.6
2024-10-09T0500,2259A,130.3794,46.7588,佳木斯市,四丰,,,32,34,17,23,43,,,,,9,1,1,0.2,0.2
2024-10-09T0500,1252A,120.7436,30.778,嘉兴市,清河小学,,37,37,34,21,19,34,,,,40,29,5,5,0.5,0.7
2024-10-09T0500,1253A,120.726,30.7478,嘉兴市,嘉兴学院,,34,34,32,22,24,47,,,,25,24,4,4,0.4,0.5
2024-10-09T0500,2872A,120.7846,30.7525,嘉兴市,南湖区残联,,36,36,34,22,22,60,,,,20,21,6,6,0.4,0.5
2024-10-09T0500,3407A,120.6916,30.7739,嘉兴市,秀洲住建,,35,32,32,24,24,2,,,,54,29,6,6,0.4,0.5
2024-10-09T0500,1945A,98.2908,39.7711,嘉峪关市,气象局,颗粒物(PM10),103,156,78,39,16,75,,,,13,14,20,15,0.4,0.3
2024-10-09T0500,2884A,98.2672,39.7978,嘉峪关市,酒钢宾馆,颗粒物(PM10),118,185,90,61,19,61,,,,43,12,62,14,0.8,0.3
2024-10-09T0500,3248A,98.2643,39.7724,嘉峪关市,雄关区,颗粒物(PM10),95,140,62,40,20,54,,,,32,12,15,10,0.5,0.4
2024-10-09T0500,1383A,113.1064,22.6058,江门市,北街,细颗粒物(PM2.5),63,52,83,45,56,72,,,,22,23,8,7,0.6,0.6
2024-10-09T0500,1384A,113.0731,22.5835,江门市,西区,颗粒物(PM10),59,68,76,40,50,64,,,,25,24,9,8,0.6,0.6
2024-10-09T0500,1385A,113.0219,22.5311,江门市,圭峰西,细颗粒物(PM2.5),65,50,66,47,54,70,,,,25,23,7,6,0.5,0.6
2024-10-09T0500,1386A,113.0828,22.5947,江门市,东湖,颗粒物(PM10),57,63,76,36,46,68,,,,21,21,8,7,0.6,0.6
2024-10-09T0500,3311A,113.1075,22.5647,江门市,江海富民,细颗粒物(PM2.5),73,67,73,53,45,71,,,,22,22,10,9,0.6,0.7
2024-10-09T0500,3449A,113.05,22.4667,江门市,新会银湖,细颗粒物(PM2.5),69,,66,50,55,65,,,,23,21,7,7,0.8,0.8
2024-10-09T0500,1828A,113.227,35.2125,焦作市,市环保局,细颗粒物(PM2.5),180,173,155,136,123,64,,,,26,23,2,5,0.7,0.8
2024-10-09T0500,1830A,113.1992,35.2590,焦作市,影视城,细颗粒物(PM2.5),159,148,132,121,108,145,,,,10,11,6,7,0.7,0.7
2024-10-09T0500,3169A,113.2725,35.2067,焦作市,太极体育中心,细颗粒物(PM2.5),152,172,167,116,98,37,,,,32,31,2,6,0.8,0.8
2024-10-09T0500,3335A,113.3137,35.2641,焦作市,马村街道办,颗粒物(PM10),112,173,142,3,97,57,,,,17,22,3,5,0.7,0.8
2024-10-09T0500,3336A,113.2465,35.2373,焦作市,焦作技师学院,细颗粒物(PM2.5),178,173,149,134,122,94,,,,18,22,2,4,0.8,0.9
2024-10-09T0500,3477A,113.1656,35.2539,焦作市,中站许衡医院,细颗粒物(PM2.5),162,154,135,123,103,112,,,,21,26,3,6,0.9,0.9
2024-10-09T0500,3981A,113.2449,35.1803,焦作市,原李万街道办,细颗粒物(PM2.5),211,214,167,161,116,29,,,,54,34,6,9,1.0,0.9
2024-10-09T0500,1708A,116.3701,23.5345,揭阳市,新兴,,48,,42,33,28,38,,,,9,15,5,6,0.6,0.7
2024-10-09T0500,1709A,116.3264,23.5443,揭阳市,西马,细颗粒物(PM2.5),52,,45,36,29,39,,,,6,12,6,7,0.7,0.8
2024-10-09T0500,1710A,116.3611,23.5626,揭阳市,东兴,,43,38,44,30,28,39,,,,10,16,4,5,0.8,0.8
2024-10-09T0500,1711A,116.4151,23.5294,揭阳市,渔湖,,32,27,34,22,19,48,,,,10,15,5,7,0.7,0.7
2024-10-09T0500,3320A,116.403,23.5699,揭阳市,曲溪,,32,26,32,22,21,37,,,,15,16,2,2,0.5,0.6
2024-10-09T0500,1944A,102.1692,38.5167,金昌市,天庆家园,颗粒物(PM10),57,63,68,16,21,98,,,,2,13,10,10,0.5,0.6
2024-10-09T0500,3170A,102.1864,38.5253,金昌市,市委党校,颗粒物(PM10),62,74,72,15,18,102,,,,4,8,6,7,0.5,0.5
2024-10-09T0500,4022A,102.1647,38.5371,金昌市,金川区人防中心,颗粒物(PM10),66,82,90,14,18,98,,,,3,9,7,8,0.6,0.5
2024-10-09T0500,1262A,119.647,29.077,金华市,十五中,,46,44,28,32,20,22,,,,23,24,2,2,0.5,0.5
2024-10-09T0500,1263A,119.686,29.1029,金华市,监测站,,45,45,27,31,19,8,,,,30,28,2,2,0.6,0.7
2024-10-09T0500,3659A,119.656,29.1131,金华市,气象局,颗粒物(PM10),51,51,28,22,16,0,,,,52,37,4,3,0.5,0.5
2024-10-09T0500,1767A,121.1115,41.0879,锦州市,南山,细颗粒物(PM2.5),64,59,38,46,30,4,,,,56,38,8,11,1.4,0.9
2024-10-09T0500,1768A,121.0533,40.8434,锦州市,开发区,颗粒物(PM10),75,100,79,45,30,4,,,,99,62,32,22,1.0,0.8
2024-10-09T0500,1769A,121.1836,41.1119,锦州市,百股街道,,37,37,40,22,22,4,,,,30,33,8,11,1.1,1
2024-10-09T0500,1770A,121.1178,41.1222,锦州市,天安街道,"颗粒物(PM10),细颗粒物(PM2.5)",59,67,52,42,31,7,,,,70,45,17,13,1.3,0.9
2024-10-09T0500,1771A,121.1303,41.1386,锦州市,北湖公园,,49,48,38,34,23,8,,,,35,37,9,12,1.0,0.7
2024-10-09T0500,2160A,112.85,35.5051,晋城市,自来水公司,细颗粒物(PM2.5),178,171,141,134,113,85,,,,23,30,9,10,1.4,1.4
2024-10-09T0500,2161A,112.8318,35.4936,晋城市,白云商贸,细颗粒物(PM2.5),185,165,155,139,121,48,,,,45,33,5,6,1.1,1.3
2024-10-09T0500,2162A,112.8508,35.4887,晋城市,市环保局,细颗粒物(PM2.5),180,189,162,136,113,71,,,,38,33,6,7,1.1,1.4
2024-10-09T0500,2163A,112.8676,35.4897,晋城市,技术学院,细颗粒物(PM2.5),180,160,150,136,111,37,,,,53,36,6,7,1.2,1.4
2024-10-09T0500,2165A,112.8453,35.546,晋城市,白马寺,细颗粒物(PM2.5),158,182,143,120,100,120,,,,20,20,10,10,1.8,1.5
2024-10-09T0500,3620A,112.8271,35.4828,晋城市,泽州一中,细颗粒物(PM2.5),192,160,142,144,126,61,,,,36,29,10,10,1.3,1.5
2024-10-09T0500,2171A,112.7532,37.6945,晋中市,锦纶小区,颗粒物(PM10),54,58,64,36,32,43,,,,36,33,12,9,0.8,0.6
2024-10-09T0500,2173A,112.7249,37.7067,晋中市,南都小区,颗粒物(PM10),52,54,63,33,34,50,,,,36,39,10,8,0.6,0.5
2024-10-09T0500,2174A,112.6991,37.6982,晋中市,榆次区政府,颗粒物(PM10),52,53,63,32,30,50,,,,34,34,9,8,0.8,0.5
2024-10-09T0500,2865A,112.7195,37.6828,晋中市,榆次三中,颗粒物(PM10),59,68,64,39,30,46,,,,35,33,13,11,0.9,0.7
2024-10-09T0500,2439A,112.2014,31.0481,荆门市,竹园小学,细颗粒物(PM2.5),95,94,89,71,63,114,,,,20,23,16,12,0.6,0.7
2024-10-09T0500,2440A,112.1969,30.9891,荆门市,掇刀,细颗粒物(PM2.5),112,107,87,84,65,102,,,,20,30,13,10,0.6,0.7
2024-10-09T0500,2441A,112.2213,31.0386,荆门市,石化一小,细颗粒物(PM2.5),102,104,89,76,60,90,,,,32,28,19,17,0.6,0.6
2024-10-09T0500,3012A,112.1849,31.0362,荆门市,西山林语,细颗粒物(PM2.5),82,83,77,60,53,88,,,,22,17,10,8,0.4,0.5
2024-10-09T0500,3547A,112.1632,31.0138,荆门市,龙泉中学南校,颗粒物(PM10),69,88,77,49,45,88,,,,27,25,11,7,0.5,0.6
2024-10-09T0500,1844A,112.2494,30.3197,荆州市,市图书馆,细颗粒物(PM2.5),100,100,54,75,37,66,,,,42,32,16,11,0.9,0.7
2024-10-09T0500,1845A,112.2008,30.3544,荆州市,市委党校,细颗粒物(PM2.5),90,112,56,67,37,53,,,,29,29,10,7,0.9,0.6
2024-10-09T0500,3194A,112.2747,30.3122,荆州市,管委会,细颗粒物(PM2.5),105,93,56,79,40,62,,,,36,30,12,10,1.0,0.8
2024-10-09T0500,3548A,112.1655,30.3364,荆州市,学苑路,细颗粒物(PM2.5),166,,57,126,43,67,,,,28,24,7,8,0.8,0.6
2024-10-09T0500,2343A,117.2117,29.2933,景德镇市,老干部活动中心,,28,21,17,19,10,44,,,,7,8,7,7,0.4,0.3
2024-10-09T0500,2344A,117.1894,29.2789,景德镇市,兽医站,,38,38,24,18,9,56,,,,3,5,7,6,0.3,0.3
2024-10-09T0500,2345A,117.1547,29.2617,景德镇市,台达陶瓷,,32,23,19,22,10,53,,,,8,11,8,8,0.5,0.4
2024-10-09T0500,2346A,117.2461,29.2956,景德镇市,陶研所,,22,22,14,10,6,16,,,,13,10,6,6,0.4,0.3
2024-10-09T0500,1803A,115.9872,29.6815,九江市,十里,颗粒物(PM10),52,54,44,35,25,42,,,,28,19,9,9,0.7,0.6
2024-10-09T0500,1804A,115.9584,29.7046,九江市,茅山头,,43,35,39,30,26,58,,,,21,18,9,9,0.6,0.7
2024-10-09T0500,1805A,115.9877,29.7295,九江市,西园,,50,46,41,35,28,73,,,,17,15,10,9,0.4,0.4
2024-10-09T0500,1806A,116.0172,29.6547,九江市,五七二七厂,细颗粒物(PM2.5),74,,39,54,35,51,,,,13,13,8,8,0.9,0.8
2024-10-09T0500,1808A,115.9114,29.6038,九江市,综合工业园,细颗粒物(PM2.5),58,48,40,41,35,25,,,,36,29,12,9,0.6,0.6
2024-10-09T0500,1809A,116.0721,29.7535,九江市,石化总厂,,48,41,42,33,26,66,,,,14,16,8,8,0.6,0.6
2024-10-09T0500,1810A,115.9773,29.5698,九江市,庐山气象台,,38,25,26,21,24,120,,,,3,4,7,8,0.4,0.7
2024-10-09T0500,3190A,116.0254,29.6994,九江市,外国语学校,,49,43,43,34,30,51,,,,23,18,7,8,0.2,0.2
2024-10-09T0500,2658A,98.5061,39.7443,酒泉市,仓门街子站,颗粒物(PM10),62,73,97,23,22,93,,,,6,9,2,5,0.2,0.3
2024-10-09T0500,2659A,98.4989,39.7256,酒泉市,油田生活基地,颗粒物(PM10),60,70,91,29,24,95,,,,6,12,3,5,0.2,0.3
2024-10-09T0500,2698A,76.0072,39.4467,喀什地区,巡警大队,颗粒物(PM10),68,86,157,12,30,43,,,,21,36,4,5,0.5,0.7
2024-10-09T0500,2699A,75.9755,39.4694,喀什地区,吾办,颗粒物(PM10),61,71,136,26,42,50,,,,17,31,4,4,0.5,0.7
2024-10-09T0500,4027A,75.9483,39.4689,喀什地区,老干局,颗粒物(PM10),75,99,163,16,29,41,,,,17,29,5,5,0.5,0.7
2024-10-09T0500,1826A,114.2885,34.7965,开封市,世纪星幼儿园,"颗粒物(PM10),细颗粒物(PM2.5)",105,159,117,79,54,75,,,,26,27,3,2,0.6,0.7
2024-10-09T0500,3147A,114.3438,34.8106,开封市,龙亭公园,细颗粒物(PM2.5),115,162,120,87,66,78,,,,24,26,3,4,0.6,0.7
2024-10-09T0500,3210A,114.3644,34.7964,开封市,汴京公园,细颗粒物(PM2.5),168,180,136,127,99,63,,,,20,27,1,3,0.6,0.7
2024-10-09T0500,3473A,114.2485,34.8306,开封市,技师学院,颗粒物(PM10),93,136,109,67,50,96,,,,17,20,5,5,0.8,0.8
2024-10-09T0500,3592A,114.4644,34.7556,开封市,祥符区生态环境局,细颗粒物(PM2.5),133,162,136,101,78,24,,,,64,58,1,3,0.5,0.6
2024-10-09T0500,1951A,84.895,45.6094,克拉玛依市,长征新村,,23,9,22,3,5,71,,,,2,4,6,6,0.1,0.1
2024-10-09T0500,1952A,84.8988,45.5893,克拉玛依市,南林小区,,24,15,24,13,11,75,,,,4,11,4,5,0.1,0.1
2024-10-09T0500,1954A,84.905,44.3396,克拉玛依市,独山子区,,22,14,23,11,11,68,,,,7,13,8,8,0.3,0.4
2024-10-09T0500,1955A,85.6979,46.098,克拉玛依市,乌尔禾区商贸楼,,29,29,28,10,9,58,,,,5,5,7,7,0.3,0.3
2024-10-09T0500,3612A,85.1045,45.6899,克拉玛依市,白碱滩区新站,,33,33,33,7,6,84,,,,5,5,8,8,0.2,0.2
2024-10-09T0500,2697A,76.1454,39.7142,克孜勒苏柯尔克孜自治州,市人民政府,颗粒物(PM10),69,88,125,34,42,74,,,,8,18,20,17,0.3,0.3
2024-10-09T0500,3665A,76.1658,39.7157,克孜勒苏柯尔克孜自治州,克州文化中心,颗粒物(PM10),74,98,119,37,45,82,,,,7,17,35,21,0.3,0.4
2024-10-09T0500,1450A,102.8204,24.8886,昆明市,呈贡新区,,19,19,42,3,30,16,,,,16,23,6,5,1.0,0.9
2024-10-09T0500,1452A,102.7252,25.0902,昆明市,龙泉镇,,14,14,20,3,9,22,,,,8,17,6,6,0.8,0.8
2024-10-09T0500,1453A,102.7266,25.0375,昆明市,东风东路,,10,,31,7,17,16,,,,8,26,5,5,0.7,0.8
2024-10-09T0500,1454A,102.6742,25.0669,昆明市,金鼎山,,8,6,23,3,14,23,,,,8,23,3,2,0.6,0.7
2024-10-09T0500,1455A,102.6644,25.0401,昆明市,碧鸡广场,,6,6,27,3,15,18,,,,9,27,5,6,0.4,0.6
2024-10-09T0500,3179A,102.7494,25.0119,昆明市,官渡区博物馆,,8,,29,3,16,16,,,,14,30,6,6,0.7,0.8
2024-10-09T0500,3375A,102.8017,24.8336,昆明市,青年创业园,,9,6,32,3,28,15,,,,16,18,5,4,0.9,0.8
2024-10-09T0500,3550A,102.7997,24.9786,昆明市,昆明学院,,8,6,40,3,25,22,,,,13,31,6,6,0.8,0.7
2024-10-09T0500,3551A,102.5967,24.6736,昆明市,晋宁区生态环境分局,,45,45,46,19,33,20,,,,20,13,2,2,1.0,1
2024-10-09T0500,3552A,102.6678,24.9856,昆明市,云天化总部,,7,6,33,3,22,14,,,,14,32,5,5,0.4,0.5
2024-10-09T0500,1456A,91.1319,29.6514,拉萨市,八廓街,,20,16,18,7,9,64,,,,15,19,10,11,0.2,0.3
2024-10-09T0500,1457A,91.1221,29.6747,拉萨市,市环保局,,22,22,19,9,11,51,,,,17,23,10,9,0.3,0.4
2024-10-09T0500,1458A,91.0874,29.6475,拉萨市,区监测站,,18,17,19,7,9,56,,,,21,34,8,9,0.3,0.4
2024-10-09T0500,1459A,91.1774,29.6541,拉萨市,西藏大学,,20,14,14,7,6,64,,,,10,12,12,11,0.3,0.3
2024-10-09T0500,1460A,90.9798,29.6588,拉萨市,区辐射站,,41,41,20,11,14,33,,,,44,31,13,11,0.3,0.3
2024-10-09T0500,1461A,91.0834,29.6292,拉萨市,拉萨火车站,,16,13,14,7,8,50,,,,22,22,6,6,0.8,0.5
2024-10-09T0500,2520A,109.2203,23.7256,来宾市,来宾技工学校,,43,43,39,29,26,72,,,,11,11,8,9,0.7,0.7
2024-10-09T0500,3535A,109.1781,23.7297,来宾市,兴宾区政府,,38,34,39,26,26,77,,,,9,9,10,9,0.7,0.6
2024-10-09T0500,4002A,109.2416,23.7461,来宾市,中南小学,,37,37,43,21,26,76,,,,8,10,8,11,0.7,0.8
2024-10-09T0500,1476A,103.631,36.1031,兰州市,兰炼宾馆,细颗粒物(PM2.5),83,61,66,61,46,9,,,,47,41,16,13,0.6,0.6
2024-10-09T0500,1478A,103.8412,36.0726,兰州市,生物制品所,细颗粒物(PM2.5),53,52,51,37,38,3,,,,49,43,9,11,0.5,0.6
2024-10-09T0500,1479A,103.831,36.0464,兰州市,铁路设计院,细颗粒物(PM2.5),58,52,55,41,41,13,,,,48,50,13,10,0.8,0.7
2024-10-09T0500,3186A,103.7158,36.1058,兰州市,教育港,颗粒物(PM10),61,72,63,38,39,3,,,,53,40,8,9,0.6,0.7
2024-10-09T0500,3241A,103.7439,36.0842,兰州市,百合公园,颗粒物(PM10),52,54,52,32,36,6,,,,49,40,8,9,0.9,0.7
2024-10-09T0500,3242A,103.9611,35.998,兰州市,和平,颗粒物(PM10),57,63,49,33,31,18,,,,42,32,18,13,1.0,0.7
2024-10-09T0500,3245A,103.6633,36.533,兰州新区,新区管委会,颗粒物(PM10),54,57,56,35,38,91,,,,6,22,5,12,0.3,0.6
2024-10-09T0500,3246A,103.6975,36.4789,兰州新区,舟曲中学,,44,44,53,14,33,100,,,,9,27,6,12,0.3,0.6
2024-10-09T0500,1067A,116.6708,39.5111,廊坊市,药材公司,细颗粒物(PM2.5),163,167,70,124,45,5,,,,79,43,8,4,0.9,0.5
2024-10-09T0500,1068A,116.7214,39.5589,廊坊市,开发区,细颗粒物(PM2.5),118,133,56,89,31,7,,,,56,41,3,2,0.7,0.4
2024-10-09T0500,1070A,116.7244,39.5269,廊坊市,北华航天学院,细颗粒物(PM2.5),127,135,70,96,38,22,,,,61,44,7,4,0.7,0.4
2024-10-09T0500,2919A,116.7022,39.5453,廊坊市,河北工业大学,细颗粒物(PM2.5),132,132,63,100,40,29,,,,60,39,10,5,0.7,0.4
2024-10-09T0500,2535A,103.7723,29.5462,乐山市,花湖湾,颗粒物(PM10),58,66,40,39,28,26,,,,25,17,3,3,0.8,0.7
2024-10-09T0500,2536A,103.7627,29.5844,乐山市,牛耳桥,细颗粒物(PM2.5),58,54,43,41,35,21,,,,26,22,5,4,0.6,0.5
2024-10-09T0500,2537A,103.7508,29.6006,乐山市,市第三水厂,细颗粒物(PM2.5),63,56,46,45,37,28,,,,25,21,5,5,0.7,0.7
2024-10-09T0500,2538A,103.7571,29.5664,乐山市,市监测站,,43,43,35,27,30,24,,,,21,16,5,4,0.6,0.6
2024-10-09T0500,3361A,103.7311,29.5628,乐山市,理工大学,,40,33,45,28,36,34,,,,13,15,3,4,0.5,0.6
2024-10-09T0500,2599A,100.2497,26.8802,丽江市,丽江古城,,16,11,18,3,10,51,,,,5,9,8,8,0.5,0.6
2024-10-09T0500,2600A,100.2203,26.8906,丽江市,市中心,,13,,10,8,8,40,,,,5,8,6,6,0.5,0.5
2024-10-09T0500,1267A,119.914,28.4514,丽水市,监测站大楼,,26,19,14,18,8,28,,,,15,16,6,6,0.5,0.5
2024-10-09T0500,1268A,119.93,28.4586,丽水市,莲都小学,,28,26,18,19,10,31,,,,13,15,4,4,0.5,0.5
2024-10-09T0500,1269A,119.879,28.4231,丽水市,余庄前,,25,25,20,13,8,12,,,,8,12,4,4,0.5,0.5
2024-10-09T0500,1173A,119.176,34.5885,连云港市,市环境监测站,细颗粒物(PM2.5),62,66,40,44,21,4,,,,81,25,10,10,0.6,0.7
2024-10-09T0500,3000A,119.3581,34.6972,连云港市,德源药业,,39,39,42,22,18,40,,,,53,34,6,6,0.4,0.5
2024-10-09T0500,3007A,119.178,34.844,连云港市,新城一中,"颗粒物(PM10),细颗粒物(PM2.5)",55,60,47,39,27,40,,,,33,28,8,9,0.8,0.8
2024-10-09T0500,3008A,119.3608,34.7519,连云港市,胡沟管理处,颗粒物(PM10),51,51,31,31,16,69,,,,20,15,4,4,0.5,0.5
2024-10-09T0500,3009A,119.1478,34.5911,连云港市,矿山设计院,细颗粒物(PM2.5),70,63,43,51,24,10,,,,64,25,8,10,0.8,0.8
2024-10-09T0500,3434A,119.2413,34.6539,连云港市,工贸学校,,29,28,30,20,20,83,,,,11,16,8,10,0.6,0.8
2024-10-09T0500,3664A,119.4172,34.7341,连云港市,连云街道,,41,41,32,24,18,95,,,,9,14,7,7,0.3,0.5
2024-10-09T0500,2571A,102.3431,27.8099,凉山彝族自治州,青龙寺,,10,10,9,3,3,17,,,,2,3,6,6,0.5,0.6
2024-10-09T0500,2572A,102.2721,27.8415,凉山彝族自治州,邛海宾馆,,14,14,18,8,10,24,,,,11,14,7,8,0.6,0.7
2024-10-09T0500,2573A,102.2625,27.898,凉山彝族自治州,西昌市政府,,14,14,17,7,11,15,,,,6,12,8,8,0.6,0.7
2024-10-09T0500,2574A,102.2685,27.8851,凉山彝族自治州,凉山州政府,,10,10,17,3,12,17,,,,10,14,6,7,0.8,0.8
2024-10-09T0500,2575A,102.237,27.8914,凉山彝族自治州,长安,,20,20,18,11,10,4,,,,23,16,11,11,0.9,0.8
2024-10-09T0500,2212A,123.2,41.1953,辽阳市,宏伟区,,40,39,47,28,28,35,,,,14,34,6,10,0.9,1
2024-10-09T0500,2213A,123.1683,41.2495,辽阳市,新华园,颗粒物(PM10),56,62,74,35,37,20,,,,30,43,12,16,1.0,1.1
2024-10-09T0500,2214A,123.2354,41.2639,辽阳市,滨河路,颗粒物(PM10),51,52,55,28,31,31,,,,24,36,11,14,1.2,1.3
2024-10-09T0500,2215A,123.149,41.2991,辽阳市,铁西工业园,,50,48,77,35,46,20,,,,21,36,11,16,1.0,1.3
2024-10-09T0500,2227A,125.1358,42.8845,辽源市,环保局,,41,41,45,27,26,5,,,,19,24,6,7,0.6,0.7
2024-10-09T0500,3239A,125.0764,42.9078,辽源市,银鹰制药,,39,34,48,27,30,5,,,,29,30,6,6,0.7,0.7
2024-10-09T0500,1625A,115.9848,36.4372,聊城市,区政府,颗粒物(PM10),65,79,67,36,34,63,,,,38,37,17,11,0.5,0.5
2024-10-09T0500,2878A,116.0072,36.4343,聊城市,聊大东校,颗粒物(PM10),65,80,75,42,42,60,,,,40,42,14,10,0.5,0.6
2024-10-09T0500,3200A,115.9819,36.4978,聊城市,监控中心,颗粒物(PM10),58,66,59,34,32,81,,,,32,40,14,10,0.7,0.7
2024-10-09T0500,3513A,116.0445,36.4361,聊城市,九州社区,颗粒物(PM10),63,76,64,34,33,38,,,,35,30,8,8,0.5,0.5
2024-10-09T0500,4018A,116.0567,36.4608,聊城市,星美广场,颗粒物(PM10),64,77,70,38,33,51,,,,30,38,13,11,0.5,0.6
2024-10-09T0500,2632A,94.3681,29.6376,林芝市,林芝监测站,,13,,6,3,3,39,,,,1,2,10,10,0.2,0.2
2024-10-09T0500,2633A,94.3616,29.6616,林芝市,林芝人民医院,,10,6,9,3,4,32,,,,4,5,5,5,0.3,0.3
2024-10-09T0500,2603A,100.0781,23.8982,临沧市,市环保局,,14,14,17,3,12,10,,,,7,10,10,8,0.5,0.6
2024-10-09T0500,2604A,100.0894,23.8822,临沧市,市气象局,,22,19,19,15,15,6,,,,9,11,11,10,0.5,0.6
2024-10-09T0500,1733A,111.5531,36.0783,临汾市,临钢医院,颗粒物(PM10),57,64,79,33,39,26,,,,42,43,5,6,0.8,0.8
2024-10-09T0500,1734A,111.5028,36.0714,临汾市,技工学校,颗粒物(PM10),51,51,71,35,37,50,,,,37,54,6,8,0.8,0.8
2024-10-09T0500,1736A,111.5018,36.0855,临汾市,市委,颗粒物(PM10),54,57,67,29,28,55,,,,26,39,6,8,0.7,0.7
2024-10-09T0500,3018A,111.505,36.1014,临汾市,唐尧大酒店,颗粒物(PM10),51,52,67,33,31,48,,,,31,39,5,7,0.7,0.7
2024-10-09T0500,3668A,111.5036,36.0414,临汾市,城南,,50,45,82,35,43,48,,,,25,44,5,7,0.7,0.7
2024-10-09T0500,2667A,103.2069,35.5993,临夏回族自治州,环保局,,39,39,44,20,19,40,,,,14,14,3,3,0.5,0.6
2024-10-09T0500,2668A,103.2417,35.6057,临夏回族自治州,建设大厦,,38,38,41,23,23,35,,,,18,16,2,2,0.6,0.5
2024-10-09T0500,1618A,118.3429,35.0532,临沂市,沂河小区,细颗粒物(PM2.5),100,114,66,75,41,9,,,,84,45,22,12,0.7,0.6
2024-10-09T0500,1619A,118.295,35.0583,临沂市,鲁南制药厂,细颗粒物(PM2.5),77,95,62,56,29,24,,,,66,40,18,9,0.7,0.5
2024-10-09T0500,1620A,118.2794,34.9976,临沂市,新光毛纺厂,细颗粒物(PM2.5),98,105,60,73,33,5,,,,88,50,19,13,0.9,0.8
2024-10-09T0500,1621A,118.3956,35.0888,临沂市,河东保险公司,细颗粒物(PM2.5),102,119,68,76,38,9,,,,86,57,11,9,1.1,0.9
2024-10-09T0500,3370A,118.3564,35.0215,临沂市,十里堡居委,细颗粒物(PM2.5),98,102,61,73,40,5,,,,77,46,16,9,0.9,0.8
2024-10-09T0500,3496A,118.3604,35.1084,临沂市,南坊新区,细颗粒物(PM2.5),83,85,57,61,31,18,,,,66,42,12,9,0.8,0.7
2024-10-09T0500,3860A,118.3920,35.0300,临沂市,皇山花园小区,细颗粒物(PM2.5),84,85,61,62,39,24,,,,73,44,23,12,0.8,0.7
2024-10-09T0500,1870A,109.4856,24.3895,柳州市,柳东小学,,33,30,35,23,27,76,,,,10,7,9,10,0.6,0.6
2024-10-09T0500,1871A,109.4157,24.3277,柳州市,环保监测站,,38,35,37,26,27,86,,,,6,8,11,10,0.7,0.7
2024-10-09T0500,1872A,109.389,24.341,柳州市,河西水厂,,35,33,49,24,26,83,,,,6,10,10,11,0.7,0.8
2024-10-09T0500,1873A,109.4311,24.2921,柳州市,市四中,,32,28,34,22,24,90,,,,6,8,9,9,0.8,0.8
2024-10-09T0500,1874A,109.4006,24.3631,柳州市,市九中,,36,36,39,23,26,80,,,,9,9,7,7,1.0,1
2024-10-09T0500,1875A,109.4958,24.3134,柳州市,古亭山,,29,25,36,20,26,87,,,,8,10,9,10,0.8,0.8
2024-10-09T0500,3402A,109.5422,24.3996,柳州市,市二中,,,,41,23,27,85,,,,9,11,9,11,0.6,0.6
2024-10-09T0500,2307A,116.5079,31.737,六安市,监测大楼,,48,35,33,33,25,24,,,,27,28,4,5,0.4,0.5
2024-10-09T0500,2308A,116.4738,31.7643,六安市,皖西学院,,39,39,37,22,22,37,,,,17,26,4,4,0.5,0.5
2024-10-09T0500,2309A,116.4996,31.7905,六安市,朝阳厂,,49,39,30,34,25,32,,,,17,22,3,3,0.5,0.4
2024-10-09T0500,2310A,116.5567,31.7886,六安市,开发区,颗粒物(PM10),57,64,40,32,22,21,,,,17,17,4,4,0.5,0.4
2024-10-09T0500,2577A,104.83,26.5917,六盘水市,黄土坡,,26,24,30,18,19,74,,,,5,14,5,7,0.3,0.4
2024-10-09T0500,2578A,104.89,26.5939,六盘水市,水钢,,27,27,35,15,19,56,,,,34,21,6,7,0.3,0.4
2024-10-09T0500,2579A,104.8475,26.5894,六盘水市,民中,,24,18,26,9,17,75,,,,6,16,6,8,0.3,0.4
2024-10-09T0500,2580A,104.9544,26.5506,六盘水市,双水,,22,22,30,15,18,69,,,,4,11,8,10,0.4,0.4
2024-10-09T0500,2336A,117.0217,25.1033,龙岩市,龙岩市监测站,,14,14,16,9,10,44,,,,12,12,4,7,0.6,0.6
2024-10-09T0500,2337A,117.0258,25.0661,龙岩市,闽西职业技术学院,,15,13,15,9,11,45,,,,7,7,8,8,0.7,0.7
2024-10-09T0500,2338A,117.0196,25.0306,龙岩市,龙岩学院,,15,14,16,10,11,36,,,,9,9,9,5,0.6,0.6
2024-10-09T0500,2885A,104.9339,33.3826,陇南市,滨江中学,,44,44,41,20,22,43,,,,8,8,9,8,0.6,0.5
2024-10-09T0500,3247A,104.955,33.371,陇南市,市总工会,,39,39,33,11,9,44,,,,10,7,4,3,0.4,0.4
2024-10-09T0500,2487A,111.9589,27.8901,娄底市,电视发射台,,26,24,27,18,25,34,,,,7,8,6,7,0.4,0.4
2024-10-09T0500,2488A,111.9975,27.725,娄底市,市监测站,细颗粒物(PM2.5),59,59,50,42,33,45,,,,20,17,15,8,0.9,0.5
2024-10-09T0500,2489A,112.0194,27.7314,娄底市,市委党校,颗粒物(PM10),54,57,47,34,33,29,,,,16,14,8,7,0.6,0.6
2024-10-09T0500,2490A,111.9561,27.7569,娄底市,涟钢,细颗粒物(PM2.5),73,67,51,53,33,28,,,,14,17,6,6,1.2,1.3
2024-10-09T0500,2491A,111.9892,27.7044,娄底市,市政府,细颗粒物(PM2.5),53,49,42,37,33,35,,,,12,13,6,6,0.5,0.5
2024-10-09T0500,1893A,105.4324,28.9634,泸州市,九狮山,,46,46,46,31,30,1,,,,24,22,5,5,0.4,0.6
2024-10-09T0500,1894A,105.4427,28.9063,泸州市,小市上码头,,40,40,52,22,34,18,,,,19,18,4,4,0.6,0.6
2024-10-09T0500,1895A,105.4241,28.8573,泸州市,兰田宪桥,,30,28,41,21,36,14,,,,14,16,3,3,0.4,0.5
2024-10-09T0500,1896A,105.4379,28.8833,泸州市,市环监站,,43,38,49,30,38,16,,,,17,22,3,3,0.6,0.6
2024-10-09T0500,3490A,105.3617,28.7703,泸州市,纳溪区环保局,,33,26,46,23,30,4,,,,18,24,7,6,0.4,0.5
2024-10-09T0500,2183A,111.1406,37.5211,吕梁市,环保局,,34,34,46,23,18,15,,,,28,31,3,3,0.6,0.5
2024-10-09T0500,2185A,111.1297,37.5136,吕梁市,自来水公司,,29,29,53,20,16,29,,,,20,28,1,3,0.5,0.5
2024-10-09T0500,2867A,111.1283,37.51,吕梁市,马茂庄小学,,40,40,51,24,17,6,,,,45,37,2,3,0.4,0.4
2024-10-09T0500,1812A,112.3931,34.6516,洛阳市,市委党校,细颗粒物(PM2.5),217,,131,167,126,41,,,,34,30,2,7,0.9,1
2024-10-09T0500,1814A,112.4657,34.6871,洛阳市,豫西宾馆,细颗粒物(PM2.5),193,153,135,145,119,11,,,,58,34,9,11,1.1,1.1
2024-10-09T0500,1815A,112.494,34.6886,洛阳市,河南林校,细颗粒物(PM2.5),215,165,147,165,138,14,,,,47,28,2,4,0.9,0.9
2024-10-09T0500,1816A,112.3844,34.623,洛阳市,开发区管委会,细颗粒物(PM2.5),236,203,169,186,141,44,,,,28,26,2,5,0.8,0.8
2024-10-09T0500,1817A,112.4267,34.6258,洛阳市,市委新办公区,细颗粒物(PM2.5),225,224,175,175,129,40,,,,33,22,1,4,0.8,0.7
2024-10-09T0500,3340A,112.6005,34.6326,洛阳市,伊滨,细颗粒物(PM2.5),199,,112,149,117,25,,,,25,25,7,9,1.0,0.9
2024-10-09T0500,3341A,112.4951,34.6332,洛阳市,中移产业园,细颗粒物(PM2.5),208,170,150,158,126,43,,,,32,28,2,6,1.0,1
2024-10-09T0500,3593A,112.5736,34.8993,洛阳市,吉利监测站,细颗粒物(PM2.5),169,131,138,128,112,42,,,,29,36,7,8,1.0,0.9
2024-10-09T0500,3635A,112.3677,34.662,洛阳市,河科大西苑校区,细颗粒物(PM2.5),178,197,165,134,114,42,,,,34,37,5,12,1.0,1
2024-10-09T0500,3636A,112.4388,34.6781,洛阳市,英才小学,细颗粒物(PM2.5),152,201,177,116,93,10,,,,67,38,4,8,1.0,0.9
2024-10-09T0500,2399A,114.051,33.5699,漯河市,三五一五工厂,细颗粒物(PM2.5),104,110,176,78,115,48,,,,35,27,8,11,0.7,0.8
2024-10-09T0500,2400A,114.0055,33.5698,漯河市,漯河大学,细颗粒物(PM2.5),104,107,154,78,122,73,,,,20,20,8,8,0.7,0.9
2024-10-09T0500,2401A,114.0138,33.5828,漯河市,市水利局,细颗粒物(PM2.5),117,110,164,88,119,59,,,,24,18,8,8,1.1,1.1
2024-10-09T0500,2402A,114.0261,33.5698,漯河市,市广电局,细颗粒物(PM2.5),144,115,154,110,129,44,,,,36,22,10,13,0.9,0.9
2024-10-09T0500,3478A,113.9749,33.5664,漯河市,市图书馆,细颗粒物(PM2.5),99,108,174,74,123,64,,,,26,27,16,16,0.6,0.7
2024-10-09T0500,3479A,114.0967,33.5906,漯河市,召陵区卫健委,细颗粒物(PM2.5),114,105,111,86,76,67,,,,18,20,10,9,0.6,0.8
2024-10-09T0500,1798A,118.5092,31.6837,马鞍山市,湖东路四小,,32,32,38,18,19,32,,,,26,27,7,8,0.7,0.8
2024-10-09T0500,1799A,118.5024,31.6449,马鞍山市,开发区,,42,42,39,25,21,4,,,,58,35,6,8,0.7,0.7
2024-10-09T0500,1800A,118.5228,31.7231,马鞍山市,慈湖,,39,39,36,23,25,27,,,,40,31,8,9,0.8,0.9
2024-10-09T0500,1802A,118.6245,31.7241,马鞍山市,濮塘,,19,19,33,10,18,47,,,,14,14,6,7,0.5,0.8
2024-10-09T0500,3633A,118.4918,31.6809,马鞍山市,雨山,,34,34,35,17,19,45,,,,25,27,6,8,0.8,1
2024-10-09T0500,1686A,111.0286,21.4688,茂名市,电白南海,细颗粒物(PM2.5),58,61,70,41,40,107,,,,11,14,19,14,0.8,0.8
2024-10-09T0500,1687A,110.9294,21.6533,茂名市,茂石化七小,细颗粒物(PM2.5),67,61,65,48,46,77,,,,12,12,21,14,0.8,0.9
2024-10-09T0500,1688A,110.9107,21.6687,茂名市,健康路,细颗粒物(PM2.5),55,53,60,39,41,82,,,,10,9,31,23,0.7,0.9
2024-10-09T0500,1689A,110.8592,21.6828,茂名市,高岭,细颗粒物(PM2.5),67,68,73,48,47,59,,,,18,17,27,25,1.1,0.9
2024-10-09T0500,3450A,111.01,21.5165,茂名市,电白水东,细颗粒物(PM2.5),62,56,58,44,42,103,,,,10,11,16,12,0.7,0.8
2024-10-09T0500,2539A,104.0308,30.0478,眉山市,黑龙滩水库,细颗粒物(PM2.5),54,39,38,38,32,5,,,,12,8,5,5,0.6,0.6
2024-10-09T0500,2540A,103.8416,30.0874,眉山市,气象局,细颗粒物(PM2.5),64,59,46,46,37,17,,,,30,28,6,6,0.6,0.6
2024-10-09T0500,3137A,103.8578,30.0744,眉山市,市委党校,细颗粒物(PM2.5),52,48,47,36,29,17,,,,29,27,9,9,0.6,0.5
2024-10-09T0500,3148A,103.8291,30.0564,眉山市,区人社局,"颗粒物(PM10),细颗粒物(PM2.5)",52,54,47,36,30,20,,,,27,27,8,8,0.7,0.7
2024-10-09T0500,1690A,116.1231,24.3284,梅州市,梅江月梅,,26,23,31,18,27,38,,,,13,13,7,7,0.7,0.7
2024-10-09T0500,1691A,116.0797,24.2719,梅州市,梅县新城,,29,25,34,20,20,41,,,,12,14,4,4,0.6,0.7
2024-10-09T0500,1692A,116.1248,24.2654,梅州市,环境监控中心,,39,28,35,27,22,24,,,,18,20,5,6,0.7,0.7
2024-10-09T0500,3315A,116.1233,24.2991,梅州市,梅龙,,29,22,29,20,23,41,,,,14,14,10,10,0.6,0.7
2024-10-09T0500,1878A,104.7778,31.4741,绵阳市,富乐山,,46,40,45,32,37,0,,,,29,25,2,2,0.6,0.6
2024-10-09T0500,1879A,104.7563,31.4535,绵阳市,市人大,,47,47,53,30,34,3,,,,32,29,11,11,0.6,0.6
2024-10-09T0500,1880A,104.6697,31.4668,绵阳市,高新区自来水公司,颗粒物(PM10),56,62,56,31,28,2,,,,28,29,6,4,0.6,0.6
2024-10-09T0500,1881A,104.7287,31.5075,绵阳市,三水厂,细颗粒物(PM2.5),55,53,49,39,42,0,,,,23,31,6,6,0.7,0.6
2024-10-09T0500,3491A,104.69,31.5322,绵阳市,西科大附属小学,,42,42,43,17,26,6,,,,18,28,4,4,0.5,0.5
2024-10-09T0500,3492A,104.5648,31.5343,绵阳市,安州区旅游局,,28,20,39,19,34,3,,,,14,23,9,12,0.5,0.6
2024-10-09T0500,1784A,129.61,44.561,牡丹江市,环保大楼,,40,40,38,21,25,4,,,,22,25,7,7,0.4,0.5
2024-10-09T0500,1785A,129.6115,44.5782,牡丹江市,文化广场,颗粒物(PM10),66,82,55,36,33,2,,,,27,30,12,9,0.7,0.7
2024-10-09T0500,1786A,129.5904,44.5963,牡丹江市,第一医院,细颗粒物(PM2.5),55,46,48,39,36,12,,,,22,25,7,7,0.5,0.5
2024-10-09T0500,1787A,129.6364,44.6075,牡丹江市,机车工厂,,46,45,46,32,31,3,,,,19,22,9,22,0.5,0.4
2024-10-09T0500,1788A,129.6386,44.5462,牡丹江市,第一中学,,29,20,36,20,23,7,,,,12,18,6,6,0.2,0.3
2024-10-09T0500,2531A,105.0703,29.61,内江市,市监测站,细颗粒物(PM2.5),53,37,45,37,38,15,,,,18,26,7,6,0.3,0.3
2024-10-09T0500,2532A,105.0717,29.5947,内江市,东兴区政府,,50,,42,35,36,12,,,,26,29,6,5,0.6,0.6
2024-10-09T0500,2533A,105.0653,29.5817,内江市,内江二中,细颗粒物(PM2.5),63,,48,45,46,9,,,,24,27,5,5,0.7,0.6
2024-10-09T0500,2534A,105.0406,29.5822,内江市,内江日报社,细颗粒物(PM2.5),57,46,49,40,45,3,,,,28,27,5,5,0.6,0.6
2024-10-09T0500,2628A,92.0657,31.4846,那曲市,那曲监测站,,27,17,44,8,19,84,,,,5,9,6,8,0.5,0.5
2024-10-09T0500,3128A,92.0506,31.4797,那曲市,那曲会议中心,,30,10,46,3,23,96,,,,3,15,3,4,0.4,0.6
2024-10-09T0500,1290A,115.8931,28.6843,南昌市,省外办,细颗粒物(PM2.5),64,52,43,46,30,73,,,,24,23,10,10,0.9,0.8
2024-10-09T0500,1291A,115.8886,28.7003,南昌市,省林业公司,细颗粒物(PM2.5),67,61,41,48,28,78,,,,16,16,7,6,0.7,0.5
2024-10-09T0500,1292A,115.8126,28.7442,南昌市,林科所,细颗粒物(PM2.5),52,46,37,36,24,82,,,,20,25,7,7,0.6,0.7
2024-10-09T0500,1294A,115.8518,28.687,南昌市,建工学校,细颗粒物(PM2.5),55,56,42,39,23,75,,,,18,18,8,8,0.7,0.6
2024-10-09T0500,1295A,115.8921,28.6424,南昌市,象湖,细颗粒物(PM2.5),59,44,32,42,25,74,,,,21,22,8,8,0.8,0.8
2024-10-09T0500,1296A,115.7423,28.7996,南昌市,武术学校,,33,27,21,23,32,15,,,,14,15,1,1,0.6,0.6
2024-10-09T0500,1298A,115.9314,28.6842,南昌市,省站,细颗粒物(PM2.5),69,67,40,50,30,66,,,,26,20,10,10,0.8,0.7
2024-10-09T0500,3046A,115.9084,28.6062,南昌市,机电学校,细颗粒物(PM2.5),67,63,39,48,24,68,,,,23,23,8,7,0.7,0.7
2024-10-09T0500,3690A,115.9721,28.7031,南昌市,外国语学校,颗粒物(PM10),56,61,36,37,19,61,,,,26,16,8,8,0.7,0.6
2024-10-09T0500,1905A,106.056,30.8064,南充市,西山风景区,细颗粒物(PM2.5),53,,29,37,29,32,,,,15,15,5,2,0.5,0.6
2024-10-09T0500,1906A,106.0789,30.8023,南充市,南充市委,细颗粒物(PM2.5),55,49,41,39,25,13,,,,31,23,4,3,0.5,0.6
2024-10-09T0500,1907A,106.1031,30.8217,南充市,南充炼油厂,细颗粒物(PM2.5),55,51,46,39,33,10,,,,30,20,4,5,0.5,0.5
2024-10-09T0500,1908A,106.1064,30.7856,南充市,高坪区监测站,"颗粒物(PM10),细颗粒物(PM2.5)",54,58,48,38,36,17,,,,24,30,6,7,0.5,0.6
2024-10-09T0500,1909A,106.0642,30.7636,南充市,嘉陵区环保局,颗粒物(PM10),51,52,50,34,29,19,,,,21,30,3,3,0.5,0.6
2024-10-09T0500,1910A,106.1087,30.8388,南充市,市环境监测站,细颗粒物(PM2.5),57,52,48,40,35,6,,,,33,25,3,3,0.5,0.4
2024-10-09T0500,1151A,118.8086,32.1065,南京市,迈皋桥,,28,28,27,19,16,10,,,,36,23,4,4,0.4,0.4
2024-10-09T0500,1152A,118.7538,32.0551,南京市,草场门,,39,,29,27,22,26,,,,44,33,5,6,0.4,0.4
2024-10-09T0500,1153A,118.7794,32.0745,南京市,山西路,,35,29,34,24,24,17,,,,39,26,5,4,0.6,0.6
2024-10-09T0500,1154A,118.7752,32.0023,南京市,中华门,,31,31,35,19,20,13,,,,55,25,5,6,0.6,0.6
2024-10-09T0500,1155A,118.8109,32.0309,南京市,瑞金路,,25,24,33,17,20,6,,,,42,26,4,4,0.8,0.7
2024-10-09T0500,1156A,118.7997,32.0754,南京市,玄武湖,,31,31,33,13,19,27,,,,45,46,5,5,0.5,0.5
2024-10-09T0500,1157A,118.6414,32.0931,南京市,浦口,,23,22,30,16,20,62,,,,11,12,5,6,0.5,0.5
2024-10-09T0500,1158A,118.7356,31.9996,南京市,奥体中心,,32,27,35,22,23,19,,,,55,32,5,7,0.4,0.4
2024-10-09T0500,1159A,118.9125,32.1028,南京市,仙林大学城,,24,24,31,14,18,0,,,,45,29,6,6,0.6,0.5
2024-10-09T0500,3422A,118.8436,31.9198,南京市,江宁彩虹桥,,26,26,30,17,17,33,,,,32,34,4,4,0.6,0.5
2024-10-09T0500,3423A,119.0138,31.6494,南京市,溧水永阳,,34,34,33,20,20,3,,,,41,22,4,4,0.8,0.7
2024-10-09T0500,3424A,118.879,31.3302,南京市,高淳老职中,,32,24,38,22,22,55,,,,19,17,6,6,0.6,0.7
2024-10-09T0500,3427A,118.8554,32.3578,南京市,六合雄州,,28,28,23,16,14,14,,,,32,22,7,7,0.5,0.4
2024-10-09T0500,1401A,108.3103,22.7881,南宁市,二十一中,,29,28,47,20,33,89,,,,15,17,13,11,0.8,0.8
2024-10-09T0500,1402A,108.3141,22.8528,南宁市,北湖,,44,44,52,30,38,50,,,,37,22,13,13,1.0,1
2024-10-09T0500,1403A,108.3206,22.8225,南宁市,市监测站,,42,34,52,29,38,85,,,,14,20,17,14,0.8,0.8
2024-10-09T0500,1404A,108.3829,22.8037,南宁市,大自然花园,,36,36,46,24,34,87,,,,10,13,11,10,0.6,0.5
2024-10-09T0500,1405A,108.4394,22.7904,南宁市,仙葫,,30,28,45,21,36,75,,,,14,15,10,7,0.6,0.6
2024-10-09T0500,1406A,108.2397,22.8467,南宁市,区农职院,,34,34,54,22,33,51,,,,16,16,12,10,0.7,0.7
2024-10-09T0500,1407A,108.3275,22.735,南宁市,英华嘉园,,33,33,50,20,34,87,,,,14,21,10,8,0.6,0.7
2024-10-09T0500,1408A,108.2257,22.7757,南宁市,沙井镇街道办,细颗粒物(PM2.5),58,63,62,41,38,5,,,,43,31,11,7,0.8,0.8
2024-10-09T0500,3401A,108.4834,22.7618,南宁市,红星社区,,29,23,47,17,31,90,,,,10,15,6,6,0.6,0.6
2024-10-09T0500,2332A,118.1681,26.6369,南平市,南平市监测站,,17,6,8,3,5,54,,,,4,8,4,4,0.2,0.4
2024-10-09T0500,2333A,118.1825,26.6489,南平市,南平铝业有限公司,,17,,7,3,7,52,,,,4,8,4,4,0.4,0.5
2024-10-09T0500,2334A,118.1756,26.6272,南平市,南平七中,,16,,9,9,9,51,,,,2,4,5,3,0.5,0.6
2024-10-09T0500,1168A,120.9098,31.9663,南通市,狼山街道,,28,22,26,19,19,51,,,,8,12,6,6,0.4,0.4
2024-10-09T0500,1169A,120.86,32.0005,南通市,虹桥,,25,23,34,15,21,79,,,,18,14,10,7,0.5,0.5
2024-10-09T0500,1170A,120.87,32.02,南通市,城中,,26,26,35,12,19,80,,,,18,16,8,7,0.5,0.5
2024-10-09T0500,1171A,120.94,31.93,南通市,星湖花园,,25,19,27,17,19,69,,,,17,17,5,5,0.6,0.6
2024-10-09T0500,1172A,120.81,32.0417,南通市,紫琅学院,,32,32,29,22,21,50,,,,24,16,11,9,0.5,0.4
2024-10-09T0500,3291A,121.067,32.062,南通市,通州监测站,,35,31,33,24,20,69,,,,14,11,2,2,0.5,0.5
2024-10-09T0500,3432A,120.9348,31.9883,南通市,环境教育馆,,22,17,29,14,17,69,,,,8,14,3,3,0.5,0.5
2024-10-09T0500,2404A,112.5224,33.0122,南阳市,瓦房庄,细颗粒物(PM2.5),109,83,104,82,90,86,,,,21,27,5,5,0.8,0.9
2024-10-09T0500,2405A,112.5003,32.9735,南阳市,汉画馆,细颗粒物(PM2.5),113,,85,85,78,71,,,,27,27,6,7,0.7,0.7
2024-10-09T0500,2407A,112.5481,32.9689,南阳市,理工学院,细颗粒物(PM2.5),102,92,99,76,74,65,,,,29,31,6,7,0.7,0.7
2024-10-09T0500,4008A,112.5234,32.9922,南阳市,卧龙区政府,细颗粒物(PM2.5),109,106,107,82,78,77,,,,24,29,4,5,0.7,0.7
2024-10-09T0500,1234A,121.8358,29.911,宁波市,区环保大楼,,26,26,33,14,20,71,,,,28,30,8,10,0.8,0.8
2024-10-09T0500,1235A,121.56,29.82,宁波市,万里学院,,36,35,39,25,33,60,,,,23,24,8,7,0.5,0.7
2024-10-09T0500,1236A,121.713,29.9572,宁波市,龙赛医院,,29,29,29,14,17,79,,,,17,23,8,10,0.7,0.7
2024-10-09T0500,1239A,121.633,29.7733,宁波市,钱湖水厂,颗粒物(PM10),54,57,42,34,27,31,,,,35,28,9,9,0.7,0.8
2024-10-09T0500,1240A,121.5856,29.8635,宁波市,太古小学,,45,45,41,21,19,51,,,,26,27,9,8,0.9,0.9
2024-10-09T0500,1241A,121.524,29.8674,宁波市,市环境监测中心,,36,36,30,20,20,42,,,,27,25,7,7,0.6,0.8
2024-10-09T0500,2871A,121.6147,29.9017,宁波市,万里国际学校,颗粒物(PM10),59,67,64,31,24,18,,,,54,55,8,8,0.9,0.9
2024-10-09T0500,3710A,121.5594,29.8975,宁波市,白沙活动中心,,46,46,42,22,21,47,,,,26,26,9,9,0.7,0.7
2024-10-09T0500,2341A,119.5388,26.6612,宁德市,宁德市监测站,,18,16,12,12,8,22,,,,10,13,2,3,0.7,0.6
2024-10-09T0500,3209A,119.5231,26.6562,宁德市,宁德一中,,17,17,12,3,3,37,,,,3,7,6,6,0.4,0.4
2024-10-09T0500,2618A,98.8601,25.8567,怒江傈僳族自治州,州监测站,,31,31,29,18,14,5,,,,16,13,19,9,0.3,0.3
2024-10-09T0500,2619A,98.8546,25.8417,怒江傈僳族自治州,泸水一中,,15,,21,10,9,1,,,,14,14,6,6,0.3,0.4
2024-10-09T0500,1888A,101.6891,26.571,攀枝花市,弄弄坪,,13,12,30,9,16,26,,,,14,20,8,12,1.0,0.7
2024-10-09T0500,1889A,101.5769,26.5928,攀枝花市,河门口,,23,23,36,14,21,15,,,,26,25,14,18,1.7,1.6
2024-10-09T0500,1890A,101.7169,26.585,攀枝花市,炳草岗,,19,,24,13,15,28,,,,12,19,8,13,0.7,0.7
2024-10-09T0500,1891A,101.7369,26.5008,攀枝花市,仁和,,10,10,45,6,30,30,,,,14,21,4,14,0.5,0.7
2024-10-09T0500,2835A,101.7227,26.567,攀枝花市,四十中小,,19,19,19,11,11,36,,,,9,16,3,6,0.6,0.7
2024-10-09T0500,1604A,122.0303,41.1489,盘锦市,开发区,,42,39,50,29,41,26,,,,45,35,7,14,0.8,0.7
2024-10-09T0500,1605A,122.0485,41.0883,盘锦市,兴隆台,颗粒物(PM10),52,53,51,31,41,19,,,,57,48,12,11,1.1,0.7
2024-10-09T0500,1606A,121.8297,41.1028,盘锦市,新生街道,,37,37,32,22,27,6,,,,53,28,13,17,0.7,0.5
2024-10-09T0500,1832A,113.3257,33.742,平顶山市,新华旅馆,细颗粒物(PM2.5),125,139,177,95,132,35,,,,40,32,5,8,0.7,0.8
2024-10-09T0500,1833A,113.2919,33.737,平顶山市,规划设计院,细颗粒物(PM2.5),107,118,200,80,138,78,,,,20,27,7,9,0.8,1
2024-10-09T0500,1834A,113.182,33.774,平顶山市,平顶山工学院,细颗粒物(PM2.5),100,102,189,75,140,99,,,,14,23,6,9,0.6,0.9
2024-10-09T0500,3204A,113.3025,33.73,平顶山市,规划局,细颗粒物(PM2.5),133,129,192,101,135,65,,,,27,30,4,7,0.8,0.9
2024-10-09T0500,3594A,112.8867,33.9116,平顶山市,石龙区,细颗粒物(PM2.5),166,159,179,126,122,34,,,,47,36,9,12,0.9,1
2024-10-09T0500,2656A,106.6692,35.5461,平凉市,聚贤嘉苑,,36,,55,25,38,46,,,,22,31,6,8,0.2,0.5
2024-10-09T0500,2657A,106.7021,35.5307,平凉市,博物馆,,30,30,76,17,46,48,,,,21,38,9,11,0.2,0.5
2024-10-09T0500,2347A,114.0997,27.5002,萍乡市,武功山,,38,38,35,14,16,12,,,,9,9,7,6,0.6,0.5
2024-10-09T0500,2348A,113.8385,27.6434,萍乡市,中医院,,29,,60,20,37,47,,,,8,20,8,8,0.6,0.8
2024-10-09T0500,2349A,113.8493,27.6253,萍乡市,市政府车库,颗粒物(PM10),51,52,74,23,38,22,,,,16,17,12,11,0.8,0.7
2024-10-09T0500,2350A,113.8676,27.6435,萍乡市,市环保局,,23,18,48,16,33,47,,,,3,15,13,9,0.4,0.5
2024-10-09T0500,2351A,113.866,27.6198,萍乡市,安源区政府,细颗粒物(PM2.5),57,55,57,40,38,18,,,,23,21,10,7,0.6,0.5
2024-10-09T0500,2319A,119.0141,25.4325,莆田市,荔城区仓后路,,20,17,12,3,2,62,,,,9,11,7,7,0.5,0.5
2024-10-09T0500,2320A,119.0015,25.4553,莆田市,莆田市监测站,,21,8,10,3,1,66,,,,7,8,7,7,0.5,0.5
2024-10-09T0500,2321A,119.1119,25.4561,莆田市,涵江区六中,,23,7,13,3,2,72,,,,5,3,1,1,0.4,0.4
2024-10-09T0500,2322A,119.1013,25.3215,莆田市,秀屿区政府,,22,12,16,7,3,69,,,,2,6,1,5,0.4,0.5
2024-10-09T0500,2392A,115.0312,35.7636,濮阳市,环保局,细颗粒物(PM2.5),128,104,91,97,78,56,,,,28,22,8,5,0.7,0.7
2024-10-09T0500,2394A,115.0574,35.7609,濮阳市,油田运输公司,细颗粒物(PM2.5),128,133,115,97,82,44,,,,32,27,9,8,0.8,0.8
2024-10-09T0500,2395A,115.0866,35.7754,濮阳市,油田物探公司,细颗粒物(PM2.5),139,133,123,106,88,40,,,,29,28,4,5,0.7,0.8
2024-10-09T0500,3021A,115,35.7668,濮阳市,濮水河管理处,细颗粒物(PM2.5),128,,50,97,76,39,,,,23,21,3,3,0.7,0.7
2024-10-09T0500,2601A,100.98,22.7633,普洱市,市环保局,,32,28,29,22,18,39,,,,5,6,4,4,0.4,0.5
2024-10-09T0500,2602A,100.9817,22.8322,普洱市,普洱第二中学,,30,30,36,14,12,27,,,,12,11,6,5,0.6,0.6
2024-10-09T0500,2262A,131.0518,45.8751,七台河市,新一中,,29,29,37,16,22,20,,,,14,10,9,10,1.2,1.2
2024-10-09T0500,3345A,131.0577,45.7879,七台河市,中波台,,48,48,47,29,24,16,,,,41,31,10,7,1.1,0.8
2024-10-09T0500,3637A,131.0176,45.7761,七台河市,人民广场,细颗粒物(PM2.5),57,55,53,40,30,7,,,,48,32,6,7,0.7,0.6
2024-10-09T0500,3684A,130.8781,45.8222,七台河市,新建矿广场,颗粒物(PM10),64,78,81,33,32,13,,,,39,30,6,8,0.7,0.6
2024-10-09T0500,1779A,123.9305,47.3636,齐齐哈尔市,安居小区,,23,23,30,10,8,62,,,,8,16,10,10,0.3,0.4
2024-10-09T0500,1780A,123.9488,47.3386,齐齐哈尔市,中心广场,,20,20,23,3,6,58,,,,8,14,1,3,0.1,0.2
2024-10-09T0500,1781A,123.9483,47.3227,齐齐哈尔市,农牧车辆厂,,24,24,34,3,8,60,,,,6,11,8,9,0.2,0.3
2024-10-09T0500,1783A,123.945,47.2988,齐齐哈尔市,市环境监测站,,20,20,26,11,10,60,,,,9,12,8,9,0.2,0.2
2024-10-09T0500,3662A,123.6333,47.2075,齐齐哈尔市,富区青少年活动中心,,18,16,30,3,8,56,,,,6,11,5,6,0.3,0.3
2024-10-09T0500,2591A,107.9783,26.5747,黔东南苗族侗族自治州,市环境监测站,,38,29,30,26,25,44,,,,10,12,4,5,0.4,0.4
2024-10-09T0500,2881A,107.8908,26.5311,黔东南苗族侗族自治州,凯里学院,,32,22,23,22,20,38,,,,11,10,3,3,0.4,0.4
2024-10-09T0500,2593A,107.5228,26.2403,黔南布依族苗族自治州,小围寨,,28,22,21,19,16,61,,,,9,8,7,6,0.4,0.4
2024-10-09T0500,3538A,107.5175,26.2978,黔南布依族苗族自治州,沙坝,,29,29,26,14,18,58,,,,8,7,4,5,0.5,0.5
2024-10-09T0500,2589A,104.9022,25.0925,黔西南布依族苗族自治州,场坝街,细颗粒物(PM2.5),69,59,59,50,45,51,,,,8,14,5,14,0.3,0.4
2024-10-09T0500,2590A,104.8811,25.0992,黔西南布依族苗族自治州,坪东大道,细颗粒物(PM2.5),74,61,54,54,49,32,,,,10,10,7,16,0.4,0.4
2024-10-09T0500,2502A,108.6236,21.9667,钦州市,市环保站,颗粒物(PM10),54,58,74,31,36,78,,,,17,20,9,10,0.6,1
2024-10-09T0500,2503A,108.6549,21.9481,钦州市,沙埠小学,颗粒物(PM10),60,69,73,33,38,71,,,,24,20,8,9,0.6,0.7
2024-10-09T0500,2504A,108.5989,21.7431,钦州市,港区一小,颗粒物(PM10),58,66,91,34,44,88,,,,22,25,10,10,0.7,0.7
2024-10-09T0500,3404A,108.5959,21.9633,钦州市,北职校,细颗粒物(PM2.5),73,67,63,53,46,50,,,,33,16,20,11,3.2,1.2
2024-10-09T0500,1042A,119.5134,39.8207,秦皇岛市,北戴河环保局,颗粒物(PM10),52,53,35,24,13,33,,,,39,34,5,3,0.6,0.6
2024-10-09T0500,1043A,119.7493,40.0116,秦皇岛市,第一关,,42,42,36,23,23,1,,,,39,49,3,4,0.6,0.5
2024-10-09T0500,1044A,119.5897,39.9499,秦皇岛市,监测站,,44,44,37,25,23,0,,,,47,43,4,3,0.5,0.6
2024-10-09T0500,1046A,119.5251,39.9041,秦皇岛市,建设大厦,颗粒物(PM10),53,56,53,16,17,3,,,,40,39,9,3,0.5,0.6
2024-10-09T0500,3132A,119.610547,39.943889,秦皇岛市,文明里,颗粒物(PM10),54,58,51,20,17,1,,,,42,41,2,3,0.5,0.7
2024-10-09T0500,1307A,120.6659,36.2403,青岛市,仰口,,28,14,34,13,20,89,,,,3,8,6,8,0.6,0.7
2024-10-09T0500,1310A,120.4134,36.0658,青岛市,市南区东部子站,,34,34,53,14,25,56,,,,23,26,6,9,0.5,0.6
2024-10-09T0500,1311A,120.3664,36.1032,青岛市,四方区子站,,35,34,53,24,30,27,,,,50,36,9,12,0.5,0.5
2024-10-09T0500,1312A,120.2994,36.054,青岛市,市南区西部子站,颗粒物(PM10),60,70,50,29,21,8,,,,78,26,10,11,0.7,0.6
2024-10-09T0500,1313A,120.4581,36.0858,青岛市,崂山区子站,,28,12,40,7,19,87,,,,14,26,8,10,0.5,0.7
2024-10-09T0500,1314A,120.1983,35.9608,青岛市,黄岛区子站,,46,44,52,32,28,73,,,,33,38,12,11,0.6,0.6
2024-10-09T0500,1315A,120.3999,36.3083,青岛市,城阳区子站,,29,29,55,20,28,40,,,,41,39,8,10,0.7,0.8
2024-10-09T0500,1966A,120.0405,35.8735,青岛市,黄岛区4号,颗粒物(PM10),59,68,45,39,21,65,,,,45,28,8,8,0.6,0.5
2024-10-09T0500,3362A,120.5014,36.4034,青岛市,即墨2号,,31,31,55,20,28,47,,,,28,25,6,9,0.5,0.6
2024-10-09T0500,3642A,120.3503,36.0736,青岛市,市北区南部,颗粒物(PM10),51,51,54,27,27,37,,,,55,34,9,11,0.7,0.7
2024-10-09T0500,3643A,120.3948,36.1805,青岛市,李沧区北部,,28,27,55,19,32,60,,,,36,33,9,11,0.7,0.8
2024-10-09T0500,1702A,113.0426,23.691,清远市,环保大楼,颗粒物(PM10),61,72,92,42,49,86,,,,12,14,8,8,0.8,0.9
2024-10-09T0500,1703A,113.0208,23.7106,清远市,凤城街办,,48,41,55,33,46,85,,,,5,7,8,8,0.8,0.8
2024-10-09T0500,3025A,113.0477,23.6344,清远市,技师学院,细颗粒物(PM2.5),52,49,63,36,42,80,,,,7,9,10,9,0.7,0.7
2024-10-09T0500,3318A,112.9903,23.7403,清远市,清新太和,,46,45,57,32,42,89,,,,6,7,5,5,0.6,0.7
2024-10-09T0500,3455A,113.076,23.7198,清远市,清城东城,细颗粒物(PM2.5),52,48,58,36,43,82,,,,3,5,4,5,0.6,0.6
2024-10-09T0500,2661A,107.6325,35.7357,庆阳市,庆阳五中,颗粒物(PM10),57,63,91,25,51,59,,,,8,14,6,7,0.4,0.7
2024-10-09T0500,2662A,107.6364,35.7067,庆阳市,市环保局,颗粒物(PM10),56,62,79,26,45,60,,,,9,16,7,7,0.5,0.6
2024-10-09T0500,1916A,103.7897,25.5035,曲靖市,环境监测站,,10,7,39,7,23,29,,,,12,19,4,3,0.6,0.7
2024-10-09T0500,1917A,103.8,25.5364,曲靖市,烟厂办公区,,11,11,37,3,21,33,,,,11,18,4,4,0.5,0.7
2024-10-09T0500,3376A,103.7947,25.462,曲靖市,南苑二区,,11,6,38,3,24,34,,,,12,16,10,10,0.6,0.9
2024-10-09T0500,3377A,103.7444,25.5261,曲靖市,曲靖师范学院,,14,14,31,8,24,22,,,,16,18,8,7,0.8,0.7
2024-10-09T0500,1264A,118.8692,28.9398,衢州市,环保大楼,,,50,28,32,18,21,,,,,16,6,5,0.6,0.5
2024-10-09T0500,1265A,118.8709,28.9666,衢州市,实验学校,细颗粒物(PM2.5),63,49,26,45,21,14,,,,29,17,5,4,0.5,0.4
2024-10-09T0500,1266A,118.8621,28.9808,衢州市,衢州学院,颗粒物(PM10),51,52,32,34,21,18,,,,30,21,7,7,0.5,0.3
2024-10-09T0500,1611A,118.5819,24.9117,泉州市,涂山街,,25,12,12,7,7,80,,,,9,10,2,3,0.4,0.4
2024-10-09T0500,1612A,118.5972,24.8978,泉州市,津头埔,,24,14,20,8,7,76,,,,10,13,4,6,0.4,0.4
2024-10-09T0500,1613A,118.6663,24.9424,泉州市,万安,,23,17,14,8,6,71,,,,8,8,3,3,0.5,0.4
2024-10-09T0500,3529A,118.6333,24.9264,泉州市,城华南路,,23,14,13,8,7,72,,,,5,6,3,4,0.3,0.3
2024-10-09T0500,2626A,88.8876,29.2718,日喀则市,日喀则监测站,,14,13,25,7,11,44,,,,26,16,6,5,0.4,0.4
2024-10-09T0500,3726A,88.8781,29.2426,日喀则市,林业技术推广中心,,24,7,16,3,3,74,,,,4,8,6,6,0.4,0.4
2024-10-09T0500,1659A,119.471,35.4209,日照市,监测站,,41,41,38,27,22,6,,,,62,40,11,12,0.7,0.7
2024-10-09T0500,1660A,119.523,35.4216,日照市,市政府广场,,41,41,38,24,19,57,,,,38,33,7,7,0.6,0.6
2024-10-09T0500,1661A,119.5587,35.4044,日照市,港务局,颗粒物(PM10),51,51,41,31,26,18,,,,72,38,8,9,0.8,0.8
2024-10-09T0500,3507A,119.5328,35.4625,日照市,职业技术学院,,36,36,35,24,18,31,,,,50,32,9,10,0.6,0.7
2024-10-09T0500,3604A,119.3266,35.1044,日照市,岚山环保分局,细颗粒物(PM2.5),89,97,47,66,28,59,,,,40,25,67,23,1.3,1.2
2024-10-09T0500,1835A,111.1922,34.7752,三门峡市,市政府,细颗粒物(PM2.5),94,120,91,70,60,61,,,,32,23,11,13,0.9,0.8
2024-10-09T0500,1836A,111.1587,34.7942,三门峡市,开发区,细颗粒物(PM2.5),142,166,123,108,84,79,,,,22,23,9,11,1.0,0.8
2024-10-09T0500,1838A,111.143,34.7955,三门峡市,风景区,,,142,105,71,60,,,,,17,17,11,12,1.1,1
2024-10-09T0500,3039A,111.1911,34.7829,三门峡市,三门峡市第一小学,细颗粒物(PM2.5),114,121,97,86,64,82,,,,19,18,13,14,0.9,0.8
2024-10-09T0500,3598A,111.1,34.7167,三门峡市,富达温泉假日酒店,细颗粒物(PM2.5),139,117,95,106,66,23,,,,36,23,9,13,0.6,0.6
2024-10-09T0500,2324A,117.6211,26.2625,三明市,三钢,,16,,14,7,14,50,,,,2,6,1,1,0.3,0.4
2024-10-09T0500,2325A,117.635,26.2714,三明市,三明二中,,16,,12,7,10,49,,,,6,9,2,3,0.6,0.6
2024-10-09T0500,2326A,117.6028,26.2378,三明市,三元区政府,,16,,16,7,8,51,,,,8,13,3,2,0.9,0.8
2024-10-09T0500,1876A,109.5078,18.2489,三亚市,河东子站,细颗粒物(PM2.5),59,48,46,42,33,107,,,,5,7,4,4,0.6,0.5
2024-10-09T0500,1877A,109.4964,18.2681,三亚市,河西子站,颗粒物(PM10),51,51,35,30,27,75,,,,12,8,4,4,0.6,0.5
2024-10-09T0500,3540A,109.7348,18.3443,三亚市,君悦子站,"颗粒物(PM10),细颗粒物(PM2.5)",52,53,52,36,30,74,,,,15,9,3,4,0.7,0.6
2024-10-09T0500,2624A,91.7608,29.2313,山南市,山南监测站,,21,7,17,3,8,66,,,,4,8,9,9,0.3,0.3
2024-10-09T0500,2625A,91.7706,29.2436,山南市,山南人民医院,,22,6,25,3,8,69,,,,5,10,9,9,0.2,0.3
2024-10-09T0500,1674A,116.6794,23.3667,汕头市,金平子站,,22,19,21,15,14,59,,,,13,19,8,7,0.6,0.7
2024-10-09T0500,1675A,116.7244,23.3633,汕头市,龙湖子站,,22,22,18,10,8,51,,,,9,9,10,8,0.8,0.8
2024-10-09T0500,1676A,116.7258,23.2775,汕头市,濠江子站,,21,14,16,8,11,67,,,,7,8,8,6,0.8,0.9
2024-10-09T0500,1677A,116.7519,23.4714,汕头市,澄海子站,,28,22,20,19,13,52,,,,8,13,7,8,1.0,1
2024-10-09T0500,1678A,116.6092,23.2539,汕头市,潮阳子站,,20,20,21,10,9,58,,,,8,8,6,6,0.5,0.6
2024-10-09T0500,3444A,116.454,23.2684,汕头市,潮南峡山,,26,26,26,13,12,53,,,,11,13,6,7,0.9,0.9
2024-10-09T0500,3624A,116.4069,23.2533,汕头市,潮南子站,,33,27,36,23,22,54,,,,9,16,6,7,0.8,0.8
2024-10-09T0500,1693A,115.3653,22.775,汕尾市,市环保局,,42,,29,29,27,59,,,,8,10,9,9,0.5,0.5
2024-10-09T0500,1694A,115.3706,22.7898,汕尾市,市政府,,43,32,28,30,13,57,,,,8,10,9,8,0.6,0.6
2024-10-09T0500,1695A,115.3622,22.7925,汕尾市,新城中学,,38,30,32,26,23,58,,,,4,5,7,7,0.6,0.6
2024-10-09T0500,2645A,109.9154,33.8715,商洛市,监测站,,48,48,50,30,31,9,,,,28,26,4,5,0.5,0.6
2024-10-09T0500,3045A,109.9643,33.8471,商洛市,商州区中学,颗粒物(PM10),54,58,55,36,33,29,,,,28,29,5,6,0.3,0.5
2024-10-09T0500,2408A,115.6702,34.4285,商丘市,环境监测站,细颗粒物(PM2.5),102,94,86,76,70,58,,,,24,26,6,7,0.7,0.8
2024-10-09T0500,2409A,115.6458,34.4045,商丘市,粮食局,细颗粒物(PM2.5),115,89,82,87,78,61,,,,19,18,6,7,0.8,0.9
2024-10-09T0500,2410A,115.6293,34.3948,商丘市,睢阳区环保局,细颗粒物(PM2.5),102,95,82,76,68,59,,,,24,25,8,7,0.4,0.5
2024-10-09T0500,3171A,115.6071,34.4465,商丘市,梁园区档案局,细颗粒物(PM2.5),100,87,76,75,66,71,,,,22,24,7,8,0.8,0.9
2024-10-09T0500,1141A,121.4,31.238,上海市,普陀,,34,34,28,23,26,57,,,,28,24,5,5,0.5,0.6
2024-10-09T0500,1142A,121.478,31.2036,上海市,十五厂,,30,30,27,18,25,77,,,,23,24,9,9,0.4,0.5
2024-10-09T0500,1143A,121.467,31.3008,上海市,虹口,,34,34,26,18,27,59,,,,26,24,6,7,0.5,0.7
2024-10-09T0500,1144A,121.412,31.1654,上海市,徐汇上师大,,42,32,28,29,28,48,,,,43,26,7,7,0.6,0.7
2024-10-09T0500,1145A,121.536,31.2659,上海市,杨浦四漂,,34,34,28,21,24,66,,,,25,20,8,8,0.6,0.8
2024-10-09T0500,1147A,121.425,31.2261,上海市,静安监测站,,35,34,28,24,27,68,,,,31,28,6,6,0.4,0.5
2024-10-09T0500,1148A,121.703,31.1907,上海市,浦东川沙,,40,40,31,20,22,48,,,,40,27,6,6,0.7,0.7
2024-10-09T0500,1149A,121.533,31.2284,上海市,浦东新区监测站,,32,32,26,22,27,62,,,,30,25,7,7,0.7,0.8
2024-10-09T0500,1150A,121.577,31.2071,上海市,浦东张江,,32,32,25,22,26,37,,,,52,30,6,6,0.6,0.7
2024-10-09T0500,3265A,121.4316,31.3322,上海市,宝山庙行,,33,33,27,21,25,53,,,,31,25,8,9,0.8,0.9
2024-10-09T0500,3266A,121.8791,31.4662,上海市,崇明上实东滩,,32,28,22,22,17,63,,,,9,7,8,8,0.8,0.8
2024-10-09T0500,3268A,121.3162,31.2838,上海市,嘉定南翔,,38,38,28,26,26,9,,,,69,32,8,8,0.5,0.5
2024-10-09T0500,3269A,121.3359,30.7456,上海市,金山新城,,36,34,28,25,31,62,,,,26,23,5,5,0.4,0.6
2024-10-09T0500,3270A,121.4996,31.0739,上海市,闵行浦江,,34,34,27,22,26,43,,,,42,26,6,6,0.5,0.6
2024-10-09T0500,3271A,121.2886,31.1663,上海市,青浦徐泾,,38,38,32,26,33,13,,,,71,32,8,7,0.5,0.6
2024-10-09T0500,3272A,121.2186,31.0378,上海市,松江图书馆,,38,36,30,26,26,53,,,,34,27,5,5,0.5,0.6
2024-10-09T0500,3273A,121.3902,31.2059,上海市,长宁仙霞,,35,35,28,24,26,16,,,,58,26,6,6,0.8,0.8
2024-10-09T0500,3274A,121.7965,31.0507,上海市,浦东惠南,,34,34,25,19,24,49,,,,43,28,9,9,0.7,0.9
2024-10-09T0500,3544A,121.4891,30.925,上海市,奉贤南桥新城,,38,38,27,21,27,54,,,,34,27,9,9,0.5,0.6
2024-10-09T0500,2381A,118.005,28.4572,上饶市,百草园,,36,,24,25,12,40,,,,8,9,4,5,0.5,0.6
2024-10-09T0500,2382A,117.9756,28.4436,上饶市,市监测站,,31,31,22,18,11,48,,,,12,12,3,3,0.7,0.7
2024-10-09T0500,2383A,117.9519,28.4628,上饶市,凤凰光学,,34,34,20,15,9,42,,,,10,12,7,5,0.9,0.9
2024-10-09T0500,3413A,118.1953,28.4401,上饶市,广丰区教体局,,43,43,26,19,15,46,,,,10,9,3,3,0.9,0.8
2024-10-09T0500,3685A,117.897,28.4315,上饶市,双创科技城,,28,28,20,19,11,44,,,,20,18,4,4,0.6,0.6
2024-10-09T0500,1669A,113.5824,24.7733,韶关市,市八中,细颗粒物(PM2.5),65,58,64,47,51,69,,,,4,5,13,12,0.6,0.6
2024-10-09T0500,1671A,113.5917,24.7972,韶关市,园林处,细颗粒物(PM2.5),79,,50,58,54,67,,,,6,6,13,11,0.4,0.5
2024-10-09T0500,1672A,113.6735,24.7791,韶关市,韶关学院,,38,30,56,26,49,42,,,,16,15,13,11,0.4,0.4
2024-10-09T0500,1673A,113.5971,24.6863,韶关市,曲江监测站,细颗粒物(PM2.5),55,53,66,39,51,51,,,,14,13,11,11,0.6,0.6
2024-10-09T0500,3622A,113.5556,24.8082,韶关市,碧湖山庄,细颗粒物(PM2.5),64,57,64,46,52,56,,,,6,7,10,9,0.5,0.5
2024-10-09T0500,2463A,111.4733,27.2317,邵阳市,市一中,细颗粒物(PM2.5),60,49,51,43,37,61,,,,11,12,13,12,0.7,0.6
2024-10-09T0500,2464A,111.5283,27.2442,邵阳市,市化工厂,细颗粒物(PM2.5),65,58,52,47,39,41,,,,15,14,10,13,0.8,0.7
2024-10-09T0500,2465A,111.4503,27.2537,邵阳市,市罐头厂,细颗粒物(PM2.5),64,58,50,46,40,41,,,,14,11,14,10,0.6,0.5
2024-10-09T0500,2466A,111.4328,27.2272,邵阳市,市环保局,细颗粒物(PM2.5),67,49,50,48,42,49,,,,13,11,10,9,0.7,0.6
2024-10-09T0500,1247A,120.6053,29.9928,绍兴市,城东开发委,颗粒物(PM10),55,60,46,37,29,22,,,,34,29,8,8,0.6,0.6
2024-10-09T0500,2921A,120.5483,30.0003,绍兴市,树下王站,,46,46,31,27,21,12,,,,44,31,5,5,0.7,0.7
2024-10-09T0500,3408A,120.5683,29.9361,绍兴市,绍兴中专,,46,46,39,31,27,15,,,,35,26,5,6,0.7,0.7
2024-10-09T0500,3409A,120.4906,30.0861,绍兴市,柯桥区政府,颗粒物(PM10),54,58,43,35,27,23,,,,44,33,8,8,0.8,0.9
2024-10-09T0500,3410A,120.8752,30.0249,绍兴市,重华小学,,,48,43,33,31,,,,,36,28,9,9,0.7,0.7
2024-10-09T0500,3411A,120.8369,30.0137,绍兴市,上虞中学,"颗粒物(PM10),细颗粒物(PM2.5)",53,55,44,37,33,1,,,,49,38,9,7,0.8,0.8
2024-10-09T0500,3560A,120.4722,30.0415,绍兴市,柯桥妇保,,42,42,38,26,27,27,,,,20,20,3,3,0.8,0.8
2024-10-09T0500,3658A,120.6153,30.0764,绍兴市,袍江中学,,38,38,34,24,24,34,,,,43,33,8,7,0.6,0.7
2024-10-09T0500,1356A,114.1063,22.5545,深圳市,通心岭子站,,,38,46,26,28,60,,,,14,13,,5,0.7,0.7
2024-10-09T0500,1357A,114.117,22.5625,深圳市,洪湖,,44,44,48,22,29,60,,,,16,15,6,6,0.5,0.5
2024-10-09T0500,1358A,113.987,22.5417,深圳市,华侨城,,38,38,47,17,28,60,,,,15,15,9,8,0.7,0.7
2024-10-09T0500,1360A,114.2458,22.5689,深圳市,盐田,,38,38,51,26,26,74,,,,10,19,9,9,0.6,0.6
