timepoint,stationcode,longitude,latitude,area,positionname,primarypollutant,aqi,pm10,pm10_24h,pm2_5,pm2_5_24h,o3,o3_24h,o3_8h,o3_8h_24h,no2,no2_24h,so2,so2_24h,co,co_24h
2025-07-12T1000,2566A,102.1879,31.914,阿坝藏族羌族自治州,州农科所,,,,17,,10,,,62,,,6,,13,,0.6
2025-07-12T1000,2568A,102.2502,31.8896,阿坝藏族羌族自治州,马师校,,16,,15,11,17,48,,34,34,4,9,6,6,0.6,0.6
2025-07-12T1000,3994A,102.2165,31.9024,阿坝藏族羌族自治州,马尔康中学西区,,15,8,17,8,16,47,,37,36,6,5,7,6,0.6,0.6
2025-07-12T1000,2695A,80.292,41.1694,阿克苏地区,电视台,颗粒物(PM10),60,69,42,28,17,68,,109,102,26,9,5,6,0.4,0.5
2025-07-12T1000,2696A,80.2613,41.1551,阿克苏地区,艺术中心,颗粒物(PM10),68,86,48,25,21,72,,110,102,17,4,27,4,0.4,0.3
2025-07-12T1000,2204A,105.6467,38.8363,阿拉善盟,西城区西花园,,33,24,31,17,20,104,,102,102,8,8,19,19,0.6,0.6
2025-07-12T1000,2205A,105.6985,38.8411,阿拉善盟,蒙二幼,,31,20,38,14,16,98,,97,97,9,10,8,8,0.4,0.4
2025-07-12T1000,2206A,105.724,38.8516,阿拉善盟,环保局新楼,,33,20,33,13,14,105,,104,104,4,5,9,9,0.4,0.4
2025-07-12T1000,2708A,88.1264,47.8517,阿勒泰地区,市站,,18,18,27,6,6,48,,52,49,17,10,2,2,0.4,0.3
2025-07-12T1000,2630A,80.1161,32.5,阿里地区,阿里监测站,,32,6,4,3,2,100,,106,106,7,4,14,14,0.2,0.2
2025-07-12T1000,3192A,80.0903,32.5028,阿里地区,阿里藏医院,,35,11,9,3,9,109,,112,111,1,1,5,5,0.3,0.3
2025-07-12T1000,2642A,109.0318,32.6537,安康市,香溪洞,,49,49,33,22,20,57,,48,43,6,4,10,7,0.5,0.4
2025-07-12T1000,2644A,109.0072,32.6975,安康市,汉滨区检察院,,36,36,39,25,24,41,,20,20,8,5,14,12,0.5,0.4
2025-07-12T1000,4054A,109.0325,32.6913,安康市,市邮政管理局,,48,48,36,25,19,48,,26,26,7,6,35,8,0.8,0.7
2025-07-12T1000,2291A,117.0809,30.5177,安庆市,环科院,,24,24,24,15,16,37,,32,31,10,6,4,4,0.6,0.5
2025-07-12T1000,2292A,117.0331,30.5119,安庆市,马山宾馆,,25,25,24,15,14,40,,32,32,8,6,4,4,0.7,0.6
2025-07-12T1000,2294A,116.9896,30.6145,安庆市,安庆大学,,20,19,21,14,16,42,,36,36,6,6,3,3,0.5,0.4
2025-07-12T1000,3173A,117.0598,30.5351,安庆市,市人大,,32,32,26,16,17,41,,32,31,10,9,4,4,0.5,0.5
2025-07-12T1000,3122A,105.9606,26.2611,安顺市,伍家关,,24,24,15,11,8,70,,63,63,5,6,5,3,0.5,0.5
2025-07-12T1000,3123A,105.9408,26.2431,安顺市,凤凰山,,32,,22,22,18,77,,66,66,4,8,5,3,0.3,0.1
2025-07-12T1000,3124A,105.9439,26.2564,安顺市,金钟山,,35,26,23,24,17,76,,60,60,4,5,6,5,0.4,0.4
2025-07-12T1000,3125A,105.8983,26.2481,安顺市,娄家坡,,36,26,19,25,16,70,,62,62,5,5,7,9,0.5,0.5
2025-07-12T1000,1818A,114.4839,36.0621,安阳市,棉研所,,,,,,,,,,,,,,,,
2025-07-12T1000,1819A,114.3551,36.1017,安阳市,红庙街,颗粒物(PM10),55,59,64,38,40,132,,68,68,2,7,7,4,0.6,0.5
2025-07-12T1000,1820A,114.361,36.0681,安阳市,银杏小区,"颗粒物(PM10),细颗粒物(PM2.5)",72,94,69,52,46,128,,57,57,2,6,7,6,0.8,0.6
2025-07-12T1000,3141A,114.3922,36.0878,安阳市,信访局,细颗粒物(PM2.5),58,58,61,41,40,142,,81,81,1,3,7,6,0.9,0.7
2025-07-12T1000,3669A,114.4705,36.0637,安阳市,左辅环卫站,颗粒物(PM10),63,76,68,43,45,122,,67,67,5,8,5,5,0.7,0.7
2025-07-12T1000,3703A,114.2917,36.0949,安阳市,安钢职工学校,颗粒物(PM10),77,103,77,47,47,112,,47,47,14,10,17,6,1.7,0.7
2025-07-12T1000,1748A,123.044,41.1196,鞍山市,深沟寺,,39,25,29,13,15,124,,85,85,14,12,9,7,0.7,0.6
2025-07-12T1000,1749A,123.011,41.0931,鞍山市,太阳城,,40,34,34,15,19,127,,86,86,13,13,8,7,0.8,0.8
2025-07-12T1000,1750A,123.0485,41.1442,鞍山市,太平,,40,32,39,12,18,125,,92,92,15,14,5,4,0.8,0.8
2025-07-12T1000,1751A,122.9642,41.0971,鞍山市,铁西三道街,,41,41,39,16,20,114,,76,76,19,18,8,8,0.9,0.9
2025-07-12T1000,1753A,123.022,41.0821,鞍山市,明达新区,,37,32,29,13,13,117,,77,77,14,12,7,5,0.9,0.8
2025-07-12T1000,1754A,123.1289,41.0228,鞍山市,千山,,,,,,,,,,,,,,,,
2025-07-12T1000,4201A,122.9446,41.0826,鞍山市,兴盛南路290号,,37,37,42,14,17,117,,81,81,18,20,9,8,1.0,1
2025-07-12T1000,2195A,107.4212,40.761,巴彦淖尔市,附二中,,46,42,37,32,23,75,,68,64,7,6,8,8,0.6,0.6
2025-07-12T1000,2196A,107.37,40.7372,巴彦淖尔市,市环保大楼,颗粒物(PM10),59,67,66,31,21,74,,65,61,7,8,5,5,0.5,0.5
2025-07-12T1000,1956A,86.1472,41.7538,巴音郭楞蒙古自治州,孔雀公园,,46,46,66,22,29,51,,90,81,28,11,2,3,0.3,0.3
2025-07-12T1000,1957A,86.1972,41.7166,巴音郭楞蒙古自治州,棉纺厂,,32,32,85,10,19,98,,96,96,11,11,3,4,0.1,0.2
2025-07-12T1000,1958A,86.2357,41.7173,巴音郭楞蒙古自治州,经济开发区,,34,34,60,7,19,99,,97,97,5,4,2,2,0.2,0.2
2025-07-12T1000,2914A,106.7677,31.8794,巴中市,苏山坪,,25,25,15,16,11,57,,54,52,8,7,4,4,0.4,0.4
2025-07-12T1000,3181A,106.7768,31.8526,巴中市,市五中,,32,32,23,18,12,58,,20,20,9,11,8,8,0.5,0.4
2025-07-12T1000,3183A,106.7418,31.8654,巴中市,圣泉水务公司,,23,23,18,13,10,51,,26,26,7,8,6,6,0.7,0.7
2025-07-12T1000,3616A,106.7616,31.8344,巴中市,市中心医院,,31,31,21,20,14,62,,22,22,12,12,8,8,0.4,0.4
2025-07-12T1000,2235A,122.7911,45.6077,白城市,洮北区环保局,,30,9,18,9,13,96,,81,80,6,7,6,4,0.2,0.2
2025-07-12T1000,2236A,122.8738,45.5725,白城市,市环保局,,32,7,23,3,13,101,,91,88,1,3,6,6,0.4,0.4
2025-07-12T1000,2231A,126.4219,41.9171,白山市,喜丰,,36,36,34,17,14,84,,28,28,10,11,11,7,0.7,0.8
2025-07-12T1000,2232A,126.4077,41.9419,白山市,环保局,,35,35,29,19,14,94,,32,32,10,10,12,11,0.5,0.6
2025-07-12T1000,2647A,104.1724,36.5446,白银市,第三小学,,22,19,19,11,10,69,,59,59,6,6,7,5,0.5,0.5
2025-07-12T1000,2648A,104.1465,36.5482,白银市,动力公司,,22,14,16,10,10,68,,60,60,6,7,7,7,0.4,0.4
2025-07-12T1000,2512A,106.6103,23.9011,百色市,市监测站,,34,34,23,14,9,29,,20,20,13,11,7,7,0.7,0.6
2025-07-12T1000,2513A,106.6538,23.8859,百色市,市中心血站,,40,40,27,16,12,31,,19,19,15,18,6,6,0.7,0.7
2025-07-12T1000,3406A,106.6085,23.8798,百色市,祈福高中,,26,26,26,13,12,28,,20,20,15,17,8,5,0.7,0.6
2025-07-12T1000,2270A,117.396,32.939,蚌埠市,工人疗养院,,45,45,36,18,19,60,,55,53,5,3,4,4,0.3,0.2
2025-07-12T1000,2271A,117.3605,32.9427,蚌埠市,百货大楼,,36,36,81,18,19,58,,53,52,1,2,5,5,0.4,0.3
2025-07-12T1000,2273A,117.4185,32.8911,蚌埠市,蚌埠学院,,,34,33,21,21,,,44,,4,10,9,8,0.3,0.3
2025-07-12T1000,2274A,117.3533,32.9673,蚌埠市,淮上区政府,,,,40,,23,,,82,,,4,,5,,0.4
2025-07-12T1000,2275A,117.3145,32.8977,蚌埠市,高新区,,39,39,33,22,20,56,,54,53,7,5,5,5,0.4,0.4
2025-07-12T1000,3715A,117.3092,32.9314,蚌埠市,蚌埠田家炳中学,,48,48,38,18,22,53,,50,48,5,4,6,6,0.2,0.2
2025-07-12T1000,1585A,109.8756,40.6532,包头市,市环境监测站,颗粒物(PM10),55,59,40,36,23,104,,47,47,18,22,14,7,0.9,0.6
2025-07-12T1000,1587A,109.9991,40.5842,包头市,包头八中,颗粒物(PM10),59,68,43,38,29,109,,64,64,18,22,17,13,1.0,0.8
2025-07-12T1000,1588A,109.8538,40.6821,包头市,青山宾馆,颗粒物(PM10),58,65,35,40,28,104,,29,29,21,24,10,4,0.9,0.6
2025-07-12T1000,1589A,109.8642,40.6288,包头市,惠龙物流,细颗粒物(PM2.5),59,64,37,42,23,99,,60,60,14,15,5,4,1.1,0.7
2025-07-12T1000,1590A,110.0377,40.5546,包头市,东河鸿龙湾,细颗粒物(PM2.5),72,61,37,52,24,99,,56,56,18,17,9,5,1.0,0.7
2025-07-12T1000,3283A,109.9154,40.5685,包头市,滨河大厦,细颗粒物(PM2.5),57,54,37,40,20,108,,72,72,14,12,10,5,1.0,0.6
2025-07-12T1000,3419A,109.9447,40.6261,包头市,包头市委党校,颗粒物(PM10),57,64,39,39,24,111,,54,54,18,22,16,8,1.0,0.7
2025-07-12T1000,3683A,109.8331,40.6576,包头市,昆区政府,"颗粒物(PM10),细颗粒物(PM2.5)",63,75,44,45,33,99,,58,58,20,20,14,6,1.2,0.9
2025-07-12T1000,1930A,107.185,34.3063,宝鸡市,庙沟村,,34,34,25,16,15,78,,57,57,10,8,4,4,0.3,0.2
2025-07-12T1000,1931A,107.0708,34.3017,宝鸡市,竹园沟,,33,31,26,23,14,77,,34,34,8,10,7,6,0.4,0.4
2025-07-12T1000,1932A,107.1906,34.3672,宝鸡市,三陆医院,"颗粒物(PM10),细颗粒物(PM2.5)",52,53,32,36,18,86,,37,37,12,15,8,6,0.6,0.5
2025-07-12T1000,1933A,107.1431,34.3547,宝鸡市,监测站,,45,45,34,29,20,84,,36,36,10,11,8,8,0.3,0.2
2025-07-12T1000,1934A,107.1186,34.3739,宝鸡市,技工学校,,50,50,34,23,21,78,,35,35,10,10,9,8,0.6,0.5
2025-07-12T1000,1935A,107.3906,34.3528,宝鸡市,陈仓区环保局家属楼,,,,,,,,,,,,,,,,
2025-07-12T1000,1936A,107.2058,34.3497,宝鸡市,文理学院,,,,33,,17,90,,42,42,,11,8,6,0.4,0.4
2025-07-12T1000,1937A,107.2386,34.3622,宝鸡市,三迪小学,细颗粒物(PM2.5),59,59,31,42,20,92,,41,41,13,14,8,6,0.5,0.4
2025-07-12T1000,1051A,115.493,38.8632,保定市,游泳馆,细颗粒物(PM2.5),60,47,49,43,35,115,,60,60,10,12,6,4,0.3,0.2
2025-07-12T1000,1052A,115.5213,38.8959,保定市,华电二区,颗粒物(PM10),52,53,50,28,32,125,,62,62,15,16,3,2,0.7,0.6
2025-07-12T1000,1053A,115.4713,38.9108,保定市,接待中心,细颗粒物(PM2.5),59,51,51,42,33,122,,64,64,10,11,3,3,0.5,0.4
2025-07-12T1000,1054A,115.4612,38.8416,保定市,地表水厂,颗粒物(PM10),70,89,73,36,32,138,,74,74,15,13,1,2,0.9,0.5
2025-07-12T1000,3581A,115.31981,38.95208,保定市,满城区生态环境分局,,,,62,,38,,,117,,,14,,1,,0.2
2025-07-12T1000,3582A,115.47694,38.76408,保定市,清苑区第二中学,细颗粒物(PM2.5),67,72,66,48,38,116,,66,66,6,7,3,3,0.4,0.4
2025-07-12T1000,3583A,115.62909,39.02311,保定市,徐水物探局,,,59,57,39,28,,,72,67,,9,3,3,0.4,0.5
2025-07-12T1000,4004A,115.4202,38.8656,保定市,双鹰农机,,45,39,41,31,31,115,,66,66,12,13,4,4,0.3,0.3
2025-07-12T1000,4034A,115.5150,38.8590,保定市,植保所站,,49,49,53,22,29,145,,74,74,14,16,3,2,0.2,0.2
2025-07-12T1000,2594A,99.1678,25.1081,保山市,市环境监测站,,42,,19,29,15,47,,26,26,12,8,6,6,0.7,0.5
2025-07-12T1000,2595A,99.1711,25.1328,保山市,市环保局,,30,24,19,21,10,76,,42,42,5,5,8,7,0.4,0.4
2025-07-12T1000,1866A,109.2262,21.588,北海市,牛尾岭水库,,23,23,14,10,9,72,,56,56,8,4,2,2,0.6,0.5
2025-07-12T1000,1867A,109.1436,21.4086,北海市,海滩公园,,40,40,26,22,11,39,,35,35,11,8,3,2,0.5,0.5
2025-07-12T1000,1868A,109.0981,21.4661,北海市,新市环保局,,35,30,21,24,14,55,,52,49,13,11,11,7,0.8,0.7
2025-07-12T1000,1869A,109.1778,21.5233,北海市,北海工业园,,36,36,24,24,12,47,,45,44,15,9,13,7,0.8,0.6
2025-07-12T1000,3400A,109.1911,21.4415,北海市,龙潭自来水厂,,32,31,23,22,16,42,,36,36,12,8,11,5,0.8,0.6
2025-07-12T1000,1001A,116.3621,39.8784,北京市,万寿西宫,细颗粒物(PM2.5),54,43,49,38,36,117,,74,73,20,16,4,3,0.7,0.7
2025-07-12T1000,1002A,116.2202,40.2915,北京市,定陵,细颗粒物(PM2.5),59,54,54,42,40,86,,38,38,6,3,3,3,0.6,0.7
2025-07-12T1000,1003A,116.4174,39.9289,北京市,东四,细颗粒物(PM2.5),63,54,50,45,34,116,,66,66,17,16,7,5,0.5,0.6
2025-07-12T1000,1004A,116.4072,39.8863,北京市,天坛,细颗粒物(PM2.5),60,66,49,43,35,103,,60,60,20,14,6,5,0.7,0.8
2025-07-12T1000,1005A,116.462,39.9365,北京市,农展馆,"颗粒物(PM10),细颗粒物(PM2.5)",53,55,51,37,36,97,,55,55,18,17,2,2,0.8,0.8
2025-07-12T1000,1006A,116.3392,39.9295,北京市,官园,"颗粒物(PM10),细颗粒物(PM2.5)",55,59,52,39,36,89,,72,68,24,13,7,6,0.7,0.6
2025-07-12T1000,1007A,116.2878,39.9611,北京市,海淀万柳,细颗粒物(PM2.5),65,65,53,47,36,94,,63,60,23,19,8,6,0.5,0.6
2025-07-12T1000,1008A,116.6636,40.135,北京市,顺义新城,颗粒物(PM10),53,56,54,23,37,88,,64,64,15,13,2,2,0.8,0.7
2025-07-12T1000,1009A,116.6275,40.3275,北京市,怀柔镇,细颗粒物(PM2.5),77,71,51,56,36,97,,68,68,10,7,9,3,0.9,0.9
2025-07-12T1000,1010A,116.2296,40.217,北京市,昌平镇,细颗粒物(PM2.5),63,59,54,45,45,109,,76,76,11,10,8,6,0.8,0.9
2025-07-12T1000,1011A,116.3966,39.9821,北京市,奥体中心,"颗粒物(PM10),细颗粒物(PM2.5)",54,58,48,38,33,89,,69,63,23,14,4,4,0.6,0.7
2025-07-12T1000,3281A,115.9718,40.4529,北京市,延庆夏都,细颗粒物(PM2.5),58,56,54,41,44,97,,67,67,10,8,4,5,0.6,0.7
2025-07-12T1000,3418A,116.8336,40.4095,北京市,密云新城,颗粒物(PM10),58,66,53,36,33,103,,58,58,10,9,6,2,0.8,0.6
2025-07-12T1000,3671A,116.088,39.9726,北京市,门头沟三家店,颗粒物(PM10),63,75,58,44,39,86,,26,26,5,9,3,3,0.7,0.7
2025-07-12T1000,3672A,116.1541,39.8204,北京市,丰台云岗,颗粒物(PM10),62,73,60,39,38,103,,41,41,18,20,2,1,0.6,0.6
2025-07-12T1000,3673A,116.6804,39.9081,北京市,通州东关,细颗粒物(PM2.5),85,,58,63,37,108,,70,70,12,15,4,2,0.8,0.8
2025-07-12T1000,3674A,115.9577,39.7603,北京市,房山燕山,细颗粒物(PM2.5),64,59,51,46,41,98,,48,48,9,7,1,2,0.6,0.5
2025-07-12T1000,3675A,116.4672,39.7733,北京市,大兴旧宫,颗粒物(PM10),52,54,47,34,31,106,,56,56,15,14,4,2,0.6,0.7
2025-07-12T1000,3694A,115.986,40.4563,北京市,延庆石河营,,48,45,53,33,44,98,,59,59,10,7,2,2,0.6,0.7
2025-07-12T1000,3695A,116.6151,40.3053,北京市,怀柔新城,细颗粒物(PM2.5),67,69,52,48,38,100,,64,64,11,6,7,2,1.0,0.9
2025-07-12T1000,3696A,116.2545,39.8768,北京市,丰台小屯,细颗粒物(PM2.5),69,60,51,50,38,87,,54,54,16,13,1,1,0.8,0.7
2025-07-12T1000,3697A,116.84,40.3844,北京市,密云镇,细颗粒物(PM2.5),59,46,45,42,33,104,,68,65,8,9,9,4,0.8,0.7
2025-07-12T1000,4182A,116.1942,39.9158,北京市,八角北路9号,细颗粒物(PM2.5),70,88,57,51,46,98,,50,50,22,21,4,3,0.6,0.6
2025-07-12T1000,4194A,117.0790,40.1518,北京市,洳河巡河路,,46,46,41,27,31,111,,78,78,3,3,3,2,0.7,0.5
2025-07-12T1000,1761A,123.8275,41.3064,本溪市,大峪,,39,26,37,10,16,122,,52,52,5,14,5,5,0.5,0.4
2025-07-12T1000,1762A,123.7567,41.3325,本溪市,溪湖,,39,37,39,14,17,122,,54,54,13,16,14,7,1.6,1.3
2025-07-12T1000,1763A,123.7169,41.3094,本溪市,彩屯,,,35,38,18,20,,,42,42,16,22,11,8,1.1,1.2
2025-07-12T1000,1764A,123.7669,41.2864,本溪市,东明,,50,50,44,11,14,118,,58,58,8,15,4,4,0.7,0.6
2025-07-12T1000,1765A,123.7992,41.2664,本溪市,新立屯,,39,36,33,12,13,123,,93,93,8,15,4,4,0.6,0.5
2025-07-12T1000,1766A,123.8142,41.3472,本溪市,威宁,,38,26,39,12,20,120,,38,38,7,17,8,7,0.6,0.6
2025-07-12T1000,2587A,105.2864,27.3125,毕节市,八中,,,18,16,16,11,,,36,32,9,5,3,3,0.5,0.4
2025-07-12T1000,2588A,105.31,27.2944,毕节市,师专,,21,21,16,13,10,52,,48,45,9,5,4,4,0.6,0.6
2025-07-12T1000,4263A,105.3688,27.3598,毕节市,工业大道,,19,16,14,13,10,55,,47,47,9,8,7,6,0.6,0.6
2025-07-12T1000,1629A,118.0018,37.3617,滨州市,第二水厂,,,61,47,34,31,,,66,55,11,12,5,5,0.6,0.4
2025-07-12T1000,1630A,117.9776,37.393,滨州市,北中新校,细颗粒物(PM2.5),55,51,45,39,30,137,,75,75,11,12,12,8,0.7,0.5
2025-07-12T1000,3514A,117.9378,37.3956,滨州市,中海酒店,"颗粒物(PM10),细颗粒物(PM2.5)",52,53,38,36,31,129,,76,76,10,8,16,10,0.8,0.7
2025-07-12T1000,3515A,117.9378,37.3553,滨州市,开发区一中,颗粒物(PM10),53,56,45,36,30,141,,76,76,15,14,13,12,0.4,0.5
2025-07-12T1000,3516A,118.0917,37.694,滨州市,金海六路,细颗粒物(PM2.5),58,56,40,41,29,143,,76,76,13,8,14,10,0.5,0.3
2025-07-12T1000,4028A,117.9956,37.3753,滨州市,滨州市西街道办事处,细颗粒物(PM2.5),64,51,40,46,31,154,,85,85,12,12,6,3,0.5,0.4
2025-07-12T1000,2311A,115.8072,33.8399,亳州市,污水处理厂,,28,24,34,15,27,88,,67,67,4,7,6,10,0.5,0.4
2025-07-12T1000,2312A,115.7789,33.8518,亳州市,三国揽胜宫,,44,44,49,18,29,86,,73,73,4,6,5,5,0.5,0.5
2025-07-12T1000,3332A,115.7633,33.8034,亳州市,亳州学院,,32,,29,22,28,88,,76,76,4,5,5,6,0.5,0.5
2025-07-12T1000,2693A,82.0485,44.8556,博尔塔拉蒙古自治州,市党校,,33,33,33,17,11,62,,81,69,11,8,3,2,0.1,0
2025-07-12T1000,2694A,82.0806,44.8969,博尔塔拉蒙古自治州,市环保局,,44,44,40,10,11,44,,76,62,9,4,4,3,0.3,0.2
2025-07-12T1000,1071A,116.8842,38.2991,沧州市,沧县城建局,,49,44,45,34,22,123,,82,82,15,16,1,2,0.4,0.3
2025-07-12T1000,1072A,116.8584,38.3254,沧州市,电视转播站,颗粒物(PM10),53,55,48,36,30,117,,88,88,11,12,2,2,0.2,0.2
2025-07-12T1000,1073A,116.8709,38.3228,沧州市,市环保局,颗粒物(PM10),57,64,60,27,30,105,,67,67,9,12,3,3,0.5,0.4
2025-07-12T1000,3324A,116.8136,38.3004,沧州市,河北水利电力学院,颗粒物(PM10),54,58,42,32,29,118,,89,89,16,11,4,3,0.4,0.4
2025-07-12T1000,2622A,97.1806,31.1273,昌都市,昌都监测站,,20,18,18,14,19,61,,54,53,6,6,3,4,0.2,0.1
2025-07-12T1000,3719A,97.1714,31.1406,昌都市,昌都会议中心,,38,,19,26,18,67,,64,59,5,5,6,6,0.1,0.1
2025-07-12T1000,2690A,88.1236,43.8886,昌吉回族自治州,天山天池,,,,20,,7,,,87,,,7,,9,,0.6
2025-07-12T1000,2692A,87.2717,44.0297,昌吉回族自治州,新区政务中心,颗粒物(PM10),59,68,25,10,10,62,,76,69,13,13,4,4,0.9,0.4
2025-07-12T1000,3613A,87.3095,44.0142,昌吉回族自治州,亚心广场,,29,29,27,7,7,72,,76,73,17,14,6,6,0.1,0.1
2025-07-12T1000,1120A,125.2863,43.9027,长春市,客车厂,,47,47,40,22,21,139,,104,104,14,15,4,3,0.6,0.5
2025-07-12T1000,1121A,125.2841,43.8463,长春市,邮电学院,,43,41,35,16,19,137,,105,104,10,11,6,5,0.6,0.5
2025-07-12T1000,1122A,125.3716,43.8772,长春市,劳动公园,颗粒物(PM10),52,53,47,20,20,141,,106,104,13,14,8,8,0.8,0.7
2025-07-12T1000,1123A,125.3297,43.8805,长春市,园林处,颗粒物(PM10),52,53,41,21,20,138,,105,104,9,10,5,4,0.5,0.4
2025-07-12T1000,1124A,125.4605,43.79,长春市,净月潭,,39,39,35,19,17,122,,84,84,6,8,5,5,0.5,0.4
2025-07-12T1000,1125A,125.7194,43.515,长春市,甩湾子,,34,27,26,12,15,108,,72,72,6,20,1,2,0.7,0.7
2025-07-12T1000,1126A,125.3863,43.8447,长春市,经开区环卫处,,48,48,40,17,16,132,,93,93,8,12,5,4,0.6,0.5
2025-07-12T1000,1127A,125.245,43.7783,长春市,高新区管委会,,49,49,37,18,19,141,,100,100,8,12,4,3,0.6,0.5
2025-07-12T1000,1128A,125.1761,43.8325,长春市,岱山公园,,43,39,41,18,21,135,,97,97,10,20,7,4,0.5,0.5
2025-07-12T1000,4281A,125.3346,43.9164,长春市,北亚泰大街1068号,颗粒物(PM10),53,56,42,21,20,138,,104,104,13,14,2,2,0.6,0.5
2025-07-12T1000,1335A,113.0833,28.2325,长沙市,经开区环保局,,27,27,30,13,22,77,,57,57,5,8,5,4,0.3,0.3
2025-07-12T1000,1336A,112.8872,28.2189,长沙市,高开区环保局,,32,32,36,15,19,72,,51,51,4,8,4,4,0.4,0.4
2025-07-12T1000,1337A,113.0792,28.2053,长沙市,马坡岭,,,20,32,,21,74,,59,59,5,5,5,4,0.5,0.4
2025-07-12T1000,1338A,112.9394,28.19,长沙市,湖南师范大学,,28,28,31,19,21,84,,64,64,4,7,3,3,0.6,0.6
2025-07-12T1000,1339A,113.0178,28.1322,长沙市,雨花区环保局,,,28,28,16,16,78,,62,62,5,5,,5,0.6,0.6
2025-07-12T1000,1340A,112.9792,28.2597,长沙市,伍家岭,,31,31,26,11,21,74,,52,52,5,11,2,2,0.2,0.2
2025-07-12T1000,1341A,113.0014,28.1944,长沙市,火车新站,,25,25,32,14,17,74,,58,58,3,5,6,6,0.4,0.4
2025-07-12T1000,1342A,112.9844,28.1178,长沙市,天心区环保局,,31,31,28,18,19,83,,66,66,4,5,2,2,0.3,0.2
2025-07-12T1000,1343A,112.8908,28.1308,长沙市,湖南中医药大学,,28,28,33,12,20,82,,61,61,2,6,3,3,0.5,0.5
2025-07-12T1000,1344A,112.9581,28.3611,长沙市,沙坪,,27,27,35,10,18,73,,52,52,7,9,5,5,0.5,0.5
2025-07-12T1000,1727A,113.1147,36.1547,长治市,清华站,颗粒物(PM10),51,51,49,29,29,100,,80,77,12,9,7,7,0.9,1.2
2025-07-12T1000,1730A,113.0886,36.2125,长治市,审计局,细颗粒物(PM2.5),55,45,42,39,34,95,,70,64,12,10,4,4,1.0,1
2025-07-12T1000,1731A,113.0844,36.1856,长治市,长治八中,细颗粒物(PM2.5),54,56,49,38,40,95,,74,69,8,7,6,6,0.9,1
2025-07-12T1000,2845A,113.1569,36.1911,长治市,德盛苑,,39,39,43,24,29,104,,72,72,6,6,4,4,0.8,0.7
2025-07-12T1000,3568A,113.06,36.0464,长治市,向阳小学,颗粒物(PM10),58,66,78,34,37,99,,58,58,4,7,5,5,1.2,0.8
2025-07-12T1000,3569A,112.8792,36.3144,长治市,屯留一中,细颗粒物(PM2.5),70,63,69,51,54,118,,63,63,14,17,15,11,0.6,0.7
2025-07-12T1000,4189A,113.1131,36.19948,长治市,英华南巷50号,细颗粒物(PM2.5),52,52,51,36,34,90,,60,57,15,12,6,5,1.2,1.1
2025-07-12T1000,4190A,113.2367,36.3344,长治市,学府街1号,,48,48,51,28,36,106,,64,64,10,14,7,4,0.4,0.6
2025-07-12T1000,1854A,111.6975,28.9703,常德市,市二中,,45,41,37,31,29,79,,66,66,6,4,5,5,0.7,0.6
2025-07-12T1000,1857A,111.7158,29.1456,常德市,白鹤山,,,,,,,,,,,,,,,,
2025-07-12T1000,3138A,111.7153,29.0289,常德市,武陵区永安,细颗粒物(PM2.5),55,46,41,39,31,80,,66,66,6,3,4,3,0.3,0.2
2025-07-12T1000,3139A,111.6892,28.9881,常德市,鼎城区玉霞,细颗粒物(PM2.5),53,46,39,37,33,80,,67,67,3,2,6,5,0.5,0.5
2025-07-12T1000,3140A,111.6625,29.0531,常德市,武陵区长庚,细颗粒物(PM2.5),52,48,38,36,30,79,,66,66,6,4,3,3,0.4,0.4
2025-07-12T1000,1196A,119.9633,31.762,常州市,市监测站,,32,32,27,22,15,42,,31,31,16,16,8,8,0.5,0.5
2025-07-12T1000,1200A,119.9468,31.7069,常州市,武进监测站,,22,22,26,8,13,57,,37,37,9,12,10,9,0.8,0.8
2025-07-12T1000,1201A,119.9255,31.9087,常州市,安家,,30,30,25,14,14,52,,46,46,10,12,6,7,0.7,0.7
2025-07-12T1000,3002A,119.9805,31.8174,常州市,行政中心,,25,25,27,11,13,48,,27,27,11,19,4,5,0.4,0.4
2025-07-12T1000,3003A,120.0522,31.7748,常州市,经开区,,26,26,31,10,11,57,,37,37,14,24,6,5,0.3,0.3
2025-07-12T1000,3010A,119.9025,31.7964,常州市,钟楼,,26,26,26,13,12,44,,32,32,13,14,6,6,0.6,0.5
2025-07-12T1000,3429A,119.8598,31.7066,常州市,武进经发区,,29,29,25,19,17,41,,31,31,13,12,6,6,0.8,0.8
2025-07-12T1000,3430A,119.5826,31.7245,常州市,金坛城区,,34,34,24,21,15,54,,34,34,11,14,8,7,0.4,0.4
2025-07-12T1000,2220A,120.4318,41.5881,朝阳市,西梁,颗粒物(PM10),51,52,35,24,21,120,,91,91,13,11,13,10,1.2,0.7
2025-07-12T1000,2221A,120.4521,41.5646,朝阳市,河畔小区,颗粒物(PM10),56,61,33,21,17,131,,101,101,11,8,12,8,1.0,0.6
2025-07-12T1000,2222A,120.4176,41.5648,朝阳市,八里堡,颗粒物(PM10),59,68,41,22,20,126,,92,92,17,12,8,4,1.3,0.6
2025-07-12T1000,2223A,120.3806,41.5969,朝阳市,农业园区,细颗粒物(PM2.5),53,54,33,37,21,121,,88,88,7,10,5,4,1.0,0.7
2025-07-12T1000,1705A,116.6367,23.6719,潮州市,西园路,颗粒物(PM10),52,53,16,9,6,45,,31,31,10,9,2,2,0.5,0.4
2025-07-12T1000,3026A,116.6183,23.6608,潮州市,市政府,,45,45,17,9,5,42,,31,31,10,9,2,4,0.7,0.7
2025-07-12T1000,4036A,116.6461,23.6761,潮州市,金山,,34,34,13,14,11,43,,27,27,5,6,4,4,0.7,0.7
2025-07-12T1000,2472A,113.0073,25.9061,郴州市,马头岭,,27,27,22,10,7,34,,27,27,4,6,16,8,0.6,0.5
2025-07-12T1000,2473A,113.0116,25.8226,郴州市,市职中,,26,18,18,18,12,42,,29,29,15,14,22,7,0.6,0.5
2025-07-12T1000,2475A,113.0383,25.8071,郴州市,市审计局,,23,23,16,15,13,50,,32,32,7,8,20,5,0.1,0.1
2025-07-12T1000,2476A,113.0348,25.7759,郴州市,市环保局,,40,,19,28,12,44,,36,36,12,7,12,5,0.3,0.2
2025-07-12T1000,4252A,113.0138,25.8011,郴州市,好美居路49号,,23,17,19,16,12,52,,41,41,9,9,29,13,0.3,0.3
2025-07-12T1000,1431A,103.9728,30.7236,成都市,金泉两河,颗粒物(PM10),52,54,20,19,7,33,,14,14,25,16,3,2,0.6,0.4
2025-07-12T1000,1432A,104.176,30.6872,成都市,十里店,,32,32,23,6,13,46,,22,22,24,22,4,4,0.7,0.5
2025-07-12T1000,1433A,104.079,30.5706,成都市,三瓦窑,,40,28,22,28,15,53,,30,30,24,26,4,4,0.7,0.6
2025-07-12T1000,1434A,104.1114,30.63,成都市,沙河铺,,29,28,25,20,12,20,,11,11,22,18,5,5,0.6,0.4
2025-07-12T1000,1437A,104.0786,30.6531,成都市,君平街,,20,20,25,10,11,51,,41,41,24,18,5,4,0.9,0.8
2025-07-12T1000,1438A,103.613,31.0283,成都市,灵岩寺,,,,,,,,,,,,,,,,
2025-07-12T1000,2880A,104.0239,30.65639,成都市,大石西路,,33,33,28,12,15,35,,19,19,32,19,5,4,1.0,0.8
2025-07-12T1000,3136A,104.2725,30.5589,成都市,龙泉驿区区政府,,22,9,11,7,6,68,,36,36,17,16,4,4,0.5,0.4
2025-07-12T1000,3357A,104.0106,30.6931,成都市,金博路,,45,44,15,31,8,32,,11,11,28,19,4,4,1.0,0.8
2025-07-12T1000,3359A,104.0578,30.5225,成都市,华阳,,28,27,16,19,15,61,,34,34,14,17,4,5,0.7,0.7
2025-07-12T1000,3488A,104.3853,30.7453,成都市,青白江技师分院,,22,22,20,10,10,68,,16,16,19,24,6,4,0.6,0.6
2025-07-12T1000,3489A,104.0789,30.4072,成都市,科学城,,23,13,20,9,14,72,,36,36,10,14,4,3,0.5,0.5
2025-07-12T1000,4011A,103.8506,30.6947,成都市,光华大道三段,细颗粒物(PM2.5),52,46,22,36,11,45,,31,31,25,16,5,4,1.3,0.9
2025-07-12T1000,4224A,104.2433,30.5353,成都市,鲸龙路1057号,,24,9,27,7,18,76,,34,34,9,19,6,6,0.7,0.7
2025-07-12T1000,1062A,117.9531,40.9081,承德市,铁路,颗粒物(PM10),60,69,49,42,31,123,,50,50,16,18,31,4,1.3,0.6
2025-07-12T1000,1063A,117.9392,40.9763,承德市,中国银行,细颗粒物(PM2.5),59,56,45,42,37,102,,38,38,10,9,33,5,0.6,0.5
2025-07-12T1000,1064A,117.9503,40.928,承德市,开发区,颗粒物(PM10),67,83,54,24,25,102,,63,63,30,15,34,9,1.1,0.6
2025-07-12T1000,1065A,117.8051,40.9655,承德市,文化中心,细颗粒物(PM2.5),58,59,56,41,34,89,,35,35,12,15,18,6,0.7,0.6
2025-07-12T1000,1066A,117.9268,41.0026,承德市,离宫,,49,46,41,34,31,96,,31,31,10,8,3,3,0.5,0.6
2025-07-12T1000,2314A,117.47,30.6618,池州市,池州学院,,26,26,22,16,15,38,,29,29,8,6,5,5,0.5,0.4
2025-07-12T1000,3237A,117.4918,30.6617,池州市,展览馆,,23,23,20,15,12,42,,29,29,8,8,4,4,0.6,0.5
2025-07-12T1000,3333A,117.5627,30.695,池州市,第八中学,,24,24,22,14,13,40,,28,28,9,7,4,4,0.6,0.5
2025-07-12T1000,3334A,117.5038,30.6243,池州市,第十二中学,,24,24,18,13,12,45,,31,31,6,6,3,3,0.6,0.6
2025-07-12T1000,1744A,118.9233,42.2816,赤峰市,松山一中,,35,33,32,22,25,110,,93,93,8,9,8,8,0.5,0.5
2025-07-12T1000,1745A,118.9576,42.2728,赤峰市,哈达街,,42,41,41,29,24,106,,89,89,13,12,10,10,0.6,0.6
2025-07-12T1000,1746A,118.8788,42.2554,赤峰市,天义路,,40,33,29,28,31,104,,90,90,7,8,8,8,0.4,0.4
2025-07-12T1000,3058A,119.2658,42.0353,赤峰市,银河街,"颗粒物(PM10),细颗粒物(PM2.5)",60,70,46,43,32,118,,92,92,13,14,12,27,0.8,0.8
2025-07-12T1000,3286A,118.9359,42.3147,赤峰市,桥北物流园区,,33,33,29,13,23,94,,73,73,4,5,10,10,0.6,0.6
2025-07-12T1000,2521A,107.3476,22.4136,崇左市,市环保局江州分局,,24,24,22,7,9,55,,39,38,5,6,9,6,0.4,0.5
2025-07-12T1000,4256A,107.3750,22.3736,崇左市,石景林东路7号,,25,25,19,3,9,66,,44,42,5,8,4,4,0.5,0.5
2025-07-12T1000,2298A,118.3093,32.3153,滁州市,老年大学,,,37,29,22,22,,,49,48,3,4,3,3,0.2,0.2
2025-07-12T1000,2299A,118.3244,32.2786,滁州市,人大宾馆,,35,27,18,24,18,53,,46,46,8,6,5,4,0.2,0.2
2025-07-12T1000,3207A,118.3118,32.3038,滁州市,市政府原办公楼,,39,,22,27,24,49,,43,43,3,4,4,4,0.1,0.1
2025-07-12T1000,3331A,118.3267,32.2634,滁州市,图书馆,,32,29,27,22,18,54,,48,48,5,5,9,9,0.2,0.2
2025-07-12T1000,2605A,101.5482,25.0441,楚雄彝族自治州,州环境监测站,,20,16,14,14,10,57,,53,53,10,11,12,9,0.5,0.5
2025-07-12T1000,2606A,101.538,25.0492,楚雄彝族自治州,市经济开发区,,19,,17,13,11,50,,46,45,11,10,14,11,0.5,0.5
2025-07-12T1000,2548A,107.5277,31.2827,达州市,达州职业技术学院,,32,32,31,6,3,51,,15,15,9,14,18,8,0.3,0.4
2025-07-12T1000,2549A,107.5086,31.2186,达州市,市环境监测站,,38,38,29,9,6,32,,17,17,32,25,11,7,0.4,0.4
2025-07-12T1000,2550A,107.4988,31.2132,达州市,凤凰小区,,31,31,27,12,8,44,,20,20,22,19,10,7,0.3,0.3
2025-07-12T1000,2551A,107.5082,31.1986,达州市,达县机关宾馆,,31,31,27,3,5,52,,22,22,16,27,13,10,0.3,0.3
2025-07-12T1000,2552A,107.4644,31.2124,达州市,市政中心,,41,41,33,9,9,55,,19,19,12,20,11,4,0.4,0.4
2025-07-12T1000,2614A,100.1542,25.7054,大理白族自治州,大理市环境监测站,,30,,16,21,18,73,,72,72,12,11,5,5,0.6,0.5
2025-07-12T1000,2615A,100.2171,25.5811,大理白族自治州,大理古城,,19,16,18,10,12,59,,63,62,10,8,4,5,0.7,0.7
2025-07-12T1000,1109A,121.612,38.9741,大连市,甘井子,,47,19,18,11,12,150,,128,128,15,13,4,7,0.3,0.3
2025-07-12T1000,1110A,121.565,38.9511,大连市,周水子,,48,18,20,9,13,152,,129,129,7,8,3,2,0.2,0.3
2025-07-12T1000,1111A,121.5637,38.8845,大连市,星海三站,,47,18,21,12,12,149,,125,125,3,3,5,5,0.3,0.3
2025-07-12T1000,1112A,121.6302,38.9117,大连市,青泥洼桥,,45,14,25,9,12,142,,124,124,4,6,6,6,0.3,0.4
2025-07-12T1000,1113A,121.6251,38.8638,大连市,傅家庄,,43,17,19,10,11,136,,124,124,7,8,8,8,0.2,0.1
2025-07-12T1000,1114A,121.5213,38.8661,大连市,七贤岭,臭氧1小时,55,17,20,11,12,164,,118,118,7,6,11,11,0.3,0.4
2025-07-12T1000,1115A,121.2529,38.8061,大连市,旅顺,,41,17,16,13,13,131,,115,115,16,10,3,3,0.3,0.2
2025-07-12T1000,1116A,121.7485,39.1311,大连市,金州,,,15,19,10,12,,,155,154,8,8,7,8,0.2,0.2
2025-07-12T1000,1117A,121.7811,39.0496,大连市,开发区,,,28,23,9,14,,,92,91,7,16,10,11,0.4,0.3
2025-07-12T1000,1118A,121.9762,39.0631,大连市,双D港,,35,17,20,14,13,110,,80,80,3,4,10,9,0.4,0.4
2025-07-12T1000,1789A,124.81117,46.03138,大庆市,大同区,,47,47,51,11,17,106,,78,78,7,8,7,7,0.5,0.5
2025-07-12T1000,1790A,125.129,46.533,大庆市,龙凤区,,,6,33,3,17,115,,89,89,,6,7,5,0,0.5
2025-07-12T1000,1791A,124.902,46.408,大庆市,红岗区,,43,23,35,10,21,135,,95,95,9,8,11,10,0.6,0.6
2025-07-12T1000,1792A,125.153,46.586,大庆市,萨尔图区,,44,44,47,9,16,108,,89,89,11,9,9,8,0.4,0.4
2025-07-12T1000,1793A,124.9042,46.6215,大庆市,让胡路区,,,,32,,21,,,87,,6,7,7,6,0.1,0.3
2025-07-12T1000,3481A,125.141,46.634,大庆市,萨区政府监测点,,41,41,43,9,16,130,,104,104,9,7,7,6,0.3,0.4
2025-07-12T1000,1721A,113.3819,40.1097,大同市,果树场,细颗粒物(PM2.5),65,62,41,47,33,73,,41,41,19,13,11,6,0.4,0.2
2025-07-12T1000,1723A,113.2994,40.0758,大同市,云冈宾馆,颗粒物(PM10),63,75,49,44,32,79,,39,39,22,17,11,6,0.3,0.2
2025-07-12T1000,1724A,113.3444,40.0917,大同市,大同大学,颗粒物(PM10),61,72,44,39,30,86,,55,55,19,14,13,10,0.4,0.3
2025-07-12T1000,1725A,113.2661,40.1269,大同市,安家小村,颗粒物(PM10),64,77,53,42,27,85,,48,48,25,18,18,8,0.5,0.4
2025-07-12T1000,1726A,113.2711,40.0844,大同市,教育学院,颗粒物(PM10),63,76,52,43,32,73,,31,31,27,19,13,8,0.4,0.3
2025-07-12T1000,3282A,113.3397,40.0597,大同市,大同市卫生学校,细颗粒物(PM2.5),58,64,49,41,33,76,,44,44,18,17,11,8,0.6,0.6
2025-07-12T1000,3565A,113.1367,40.1122,大同市,云冈站,,,124,55,38,28,,,4,4,,16,9,4,0.8,0.6
2025-07-12T1000,3566A,113.1186,40.2556,大同市,图书馆,颗粒物(PM10),55,59,50,32,26,76,,25,25,8,10,10,8,0.6,0.5
2025-07-12T1000,3567A,113.5931,40.0461,大同市,区一中,颗粒物(PM10),62,73,42,40,33,92,,55,55,10,10,14,8,0.3,0.3
2025-07-12T1000,4199A,113.2798,40.0997,大同市,魏都大道141号,细颗粒物(PM2.5),65,78,61,47,31,83,,33,33,23,17,12,8,0.6,0.5
2025-07-12T1000,2269A,124.1069,50.4097,大兴安岭地区,科技局,,20,19,23,13,9,61,,40,40,2,5,6,6,0.2,0.3
2025-07-12T1000,3663A,124.1164,50.4278,大兴安岭地区,红旗社区,,20,,9,3,5,62,,35,35,1,5,6,6,0.1,0.2
2025-07-12T1000,1600A,124.3303,40.0625,丹东市,江湾东路,颗粒物(PM10),53,55,48,22,20,88,,44,44,9,16,6,5,0.7,0.6
2025-07-12T1000,1601A,124.4256,40.1503,丹东市,临江后街,颗粒物(PM10),63,76,83,22,16,91,,38,38,11,16,11,8,0.7,0.7
2025-07-12T1000,1602A,124.3933,40.1461,丹东市,元宝山,,45,45,50,17,18,82,,36,36,11,15,6,3,0.6,0.6
2025-07-12T1000,1603A,124.3633,40.1092,丹东市,民主桥,,,69,44,27,16,,,14,,9,23,10,4,0.9,0.6
2025-07-12T1000,3541A,109.5726,19.5167,儋州市,第一中学子站,,23,23,22,9,10,28,,16,16,5,5,9,9,0.4,0.3
2025-07-12T1000,3542A,109.5567,19.5187,儋州市,东坡学校子站,,19,19,15,8,8,26,,14,14,2,3,6,7,0.5,0.5
2025-07-12T1000,2616A,98.5842,24.428,德宏傣族景颇族自治州,德宏州监测站,,22,22,20,14,12,55,,64,62,11,9,10,10,0.8,0.6
2025-07-12T1000,3677A,98.5881,24.4368,德宏傣族景颇族自治州,芒市人民政府综合楼,,33,30,29,23,12,49,,57,57,8,8,7,9,0.6,0.5
2025-07-12T1000,1901A,104.4239,31.1208,德阳市,东山公园,,,,8,,10,,,32,30,20,11,9,5,1.0,0.8
2025-07-12T1000,1902A,104.3826,31.1317,德阳市,西小区,,43,43,18,22,14,56,,26,26,40,21,8,6,1.2,0.8
2025-07-12T1000,1904A,104.3553,31.1091,德阳市,耐火材料厂,,38,38,18,19,13,51,,22,22,31,19,1,2,0.6,0.5
2025-07-12T1000,3639A,104.4019,31.1244,德阳市,市教育局,,32,32,16,13,10,61,,25,25,24,14,4,13,1.0,0.7
2025-07-12T1000,1622A,116.3032,37.4674,德州市,儿童乐园,颗粒物(PM10),57,63,48,31,28,144,,84,84,17,13,18,10,0.7,0.5
2025-07-12T1000,1624A,116.2991,37.4451,德州市,监理站,颗粒物(PM10),62,73,45,39,25,152,,93,93,21,12,39,11,0.5,0.4
2025-07-12T1000,3066A,116.2721,37.4379,德州市,九衢泉纯净水厂,细颗粒物(PM2.5),64,61,45,46,29,134,,80,80,20,15,12,8,0.6,0.6
2025-07-12T1000,3371A,116.3728,37.4403,德州市,开发区人民医院,颗粒物(PM10),59,68,45,41,28,156,,82,82,22,21,26,11,0.8,0.7
2025-07-12T1000,3511A,116.5652,37.3319,德州市,陵城艺术中心,颗粒物(PM10),67,83,61,31,25,139,,76,76,18,15,10,8,0.4,0.4
2025-07-12T1000,4292A,116.3525,37.4209,德州市,新河东路,颗粒物(PM10),63,75,47,44,28,160,,86,86,15,16,27,11,0.8,0.6
2025-07-12T1000,2621A,99.7056,27.8317,迪庆藏族自治州,迪庆州站,,25,,21,15,17,79,,81,81,9,13,8,8,0.3,0.4
2025-07-12T1000,3180A,99.7136,27.8094,迪庆藏族自治州,质量技术监督局,,25,17,23,8,10,79,,80,80,14,15,6,7,0.4,0.4
2025-07-12T1000,4257A,104.6092,35.5962,定西市,将台街,,31,31,31,11,15,79,,74,74,4,3,7,8,0,0
2025-07-12T1000,4309A,104.6159,35.5701,定西市,正龙路62号,,25,19,19,16,14,78,,69,69,1,2,5,5,0.2,0.2
2025-07-12T1000,1389A,113.7547,23.0494,东莞市,莞城梨川,细颗粒物(PM2.5),84,79,30,62,22,82,,22,22,38,22,8,8,0.8,0.6
2025-07-12T1000,1390A,113.7944,23.0128,东莞市,东城石井,细颗粒物(PM2.5),68,71,29,49,17,62,,12,12,51,25,3,3,0.9,0.7
2025-07-12T1000,1391A,113.7383,22.9658,东莞市,南城西平,细颗粒物(PM2.5),55,57,30,39,19,65,,13,13,36,29,6,5,0.8,0.7
2025-07-12T1000,3319A,113.7338,23.0381,东莞市,万江金泰,细颗粒物(PM2.5),69,57,26,50,18,76,,19,19,38,21,4,4,1.0,0.8
2025-07-12T1000,3626A,113.7533,23.0202,东莞市,南城元岭,,,65,28,46,18,,,12,11,39,25,,5,0.8,0.6
2025-07-12T1000,3627A,113.7875,23.0457,东莞市,东城主山,细颗粒物(PM2.5),63,70,34,45,18,66,,16,16,38,23,4,4,0.7,0.6
2025-07-12T1000,1666A,118.6614,37.4309,东营市,市环保局,,44,44,30,19,20,121,,76,76,18,16,9,10,0.4,0.3
2025-07-12T1000,3036A,118.6904,37.4338,东营市,开发区管委会,,43,43,36,24,20,122,,84,84,21,16,9,10,0.4,0.4
2025-07-12T1000,3365A,118.5719,37.565,东营市,垦利区民丰路,颗粒物(PM10),52,53,32,22,19,137,,87,87,20,15,13,10,0.5,0.5
2025-07-12T1000,3498A,118.5055,37.8612,东营市,河口城区,,46,46,30,24,18,142,,92,92,18,12,10,7,0.6,0.4
2025-07-12T1000,3646A,118.4978,37.4623,东营市,胜利站,颗粒物(PM10),58,65,39,29,19,132,,76,76,26,21,7,4,0.6,0.5
2025-07-12T1000,3734A,118.35,37.26,东营市,理想之城,,49,44,31,34,22,132,,73,73,25,21,13,10,0.5,0.4
2025-07-12T1000,1591A,110.0023,39.8129,鄂尔多斯市,综合楼,颗粒物(PM10),54,58,50,34,30,111,,71,71,16,19,10,8,0.9,0.8
2025-07-12T1000,1592A,109.9486,39.8261,鄂尔多斯市,巴音孟克林场办事处,颗粒物(PM10),59,68,60,36,31,112,,75,75,18,17,6,5,0.7,0.6
2025-07-12T1000,1593A,109.7736,39.5986,鄂尔多斯市,康泽苑,颗粒物(PM10),57,63,53,34,24,112,,52,52,14,15,10,9,0.6,0.4
2025-07-12T1000,1594A,109.8119,39.5989,鄂尔多斯市,华泰汽车城,细颗粒物(PM2.5),55,53,52,39,29,95,,31,31,13,16,5,4,0.7,0.6
2025-07-12T1000,1595A,109.9734,39.7884,鄂尔多斯市,奥林花园,颗粒物(PM10),57,63,60,34,38,106,,51,51,11,19,6,6,1.0,0.9
2025-07-12T1000,2436A,114.8938,30.3994,鄂州市,市政府,,22,22,30,13,14,52,,40,40,10,13,3,5,0.7,0.7
2025-07-12T1000,2437A,114.8989,30.3714,鄂州市,赵家坝,,22,22,23,8,9,56,,43,43,8,5,6,5,0.5,0.5
2025-07-12T1000,3654A,114.8094,30.4089,鄂州市,精准医疗中心,,18,18,25,6,7,45,,26,25,14,13,4,4,0.7,0.7
2025-07-12T1000,2454A,109.4978,30.2981,恩施土家族苗族自治州,湖北民院,,34,34,31,23,22,79,,55,54,6,6,5,5,0.3,0.3
2025-07-12T1000,2455A,109.4707,30.2798,恩施土家族苗族自治州,州电力总公司,,38,37,26,26,20,72,,49,46,5,5,8,8,0.1,0.1
2025-07-12T1000,3549A,109.5061,30.3772,恩施土家族苗族自治州,龙凤新区,,30,30,25,20,20,69,,47,47,3,3,1,1,0.4,0.4
2025-07-12T1000,2499A,108.3411,21.6158,防城港市,沙万,,13,9,23,9,12,39,,43,40,7,9,2,2,0.5,0.6
2025-07-12T1000,2500A,108.3514,21.7731,防城港市,防城档案局,,26,26,31,12,12,27,,34,32,12,11,2,2,0.7,0.7
2025-07-12T1000,2501A,108.3506,21.6414,防城港市,大海花园,,22,,23,15,14,44,,50,45,8,8,3,3,0.5,0.5
2025-07-12T1000,1371A,113.1294,23.0067,佛山市,湾梁,,34,34,18,14,10,92,,21,21,24,30,7,6,0.7,0.6
2025-07-12T1000,1372A,113.1083,23.0478,佛山市,华材职中,,32,24,23,13,12,100,,24,24,19,27,8,7,0.7,0.6
2025-07-12T1000,1373A,113.144,23.0453,佛山市,南海气象局,,38,38,20,15,9,78,,21,21,26,24,4,3,0.6,0.6
2025-07-12T1000,1374A,113.2881,22.8094,佛山市,顺德苏岗,,33,33,21,22,8,64,,16,16,31,30,6,7,0.6,0.6
2025-07-12T1000,1376A,112.8383,22.8678,佛山市,高明孔堂,,32,32,26,16,11,101,,32,32,20,18,7,7,0.8,0.6
2025-07-12T1000,1377A,112.8836,23.1588,佛山市,三水监测站,,34,34,19,17,10,58,,24,24,33,20,2,3,0.7,0.6
2025-07-12T1000,1378A,112.867,23.185,佛山市,三水云东海,,36,35,27,25,11,49,,16,16,34,20,2,2,0.8,0.7
2025-07-12T1000,3625A,113.2544,22.7642,佛山市,容桂街道办,,26,17,14,17,10,83,,26,26,24,31,6,5,0.6,0.6
2025-07-12T1000,1280A,119.3903,26.0543,福州市,鼓山,,,,,,,,,,,,,,,,
2025-07-12T1000,1282A,119.2681,26.0504,福州市,师大,,12,12,12,3,1,27,,19,19,12,13,4,4,0.3,0.3
2025-07-12T1000,1283A,119.2984,26.1028,福州市,五四北路,,22,22,14,3,4,35,,22,22,14,17,3,3,0.3,0.3
2025-07-12T1000,1284A,119.2648,26.0768,福州市,杨桥西路,,18,18,11,3,3,32,,23,23,16,16,3,3,0.3,0.3
2025-07-12T1000,1285A,119.317,26.0746,福州市,紫阳,,41,41,15,12,4,29,,23,22,17,15,4,4,0.3,0.3
2025-07-12T1000,3048A,119.5799,26.0936,福州市,九龙,,12,6,12,3,3,37,,34,34,8,7,4,4,0.3,0.3
2025-07-12T1000,3526A,119.5189,25.9664,福州市,吴航,,13,6,9,3,4,41,,39,39,7,7,4,4,0.4,0.4
2025-07-12T1000,1755A,123.7977,41.8491,抚顺市,望花区,,45,45,50,18,23,141,,70,70,13,24,11,12,0.7,0.8
2025-07-12T1000,1756A,123.9161,41.8822,抚顺市,顺城区,,46,46,48,18,15,146,,78,78,14,19,7,7,1.0,1
2025-07-12T1000,1757A,124.0436,41.8611,抚顺市,东洲区,,43,28,28,15,18,135,,87,87,10,14,6,9,0.7,0.6
2025-07-12T1000,1758A,123.9247,41.8642,抚顺市,新抚区,颗粒物(PM10),51,51,53,14,21,139,,58,58,12,18,8,6,1.1,0.9
2025-07-12T1000,1759A,124.0972,41.8961,抚顺市,大伙房水库,,42,32,30,15,18,133,,60,60,11,15,6,6,0.6,0.5
2025-07-12T1000,1760A,123.7086,41.8391,抚顺市,沈抚新城,,45,45,41,24,22,138,,66,66,13,23,11,12,0.7,0.7
2025-07-12T1000,2376A,116.2127,28.0814,抚州市,桐源党溪,,33,33,28,14,16,70,,27,27,3,3,7,5,0.7,0.6
2025-07-12T1000,2377A,116.3544,27.9831,抚州市,市站,,26,26,29,13,14,70,,33,33,6,7,7,5,0.5,0.4
2025-07-12T1000,2378A,116.3565,27.963,抚州市,血防站,,21,21,28,8,15,60,,29,29,7,8,4,4,0.4,0.3
2025-07-12T1000,2379A,116.3564,28.0007,抚州市,采茶剧团,,29,29,29,12,13,65,,30,30,2,5,6,7,0.4,0.4
2025-07-12T1000,2380A,116.385,27.9647,抚州市,医学分院,,25,25,28,3,10,65,,37,37,3,2,4,4,0.7,0.7
2025-07-12T1000,2207A,121.6094,41.998,阜新市,工业园区,,43,43,45,22,17,132,,111,111,11,11,10,7,0.6,0.5
2025-07-12T1000,2208A,121.6697,42.0279,阜新市,长青街,,41,41,34,17,17,121,,109,108,9,7,9,7,0.6,0.5
2025-07-12T1000,2209A,121.6673,42.0705,阜新市,农业园区,,41,38,37,27,16,129,,110,110,9,8,8,4,0.9,0.8
2025-07-12T1000,2210A,121.6717,42.0224,阜新市,东苑,,46,46,41,19,19,126,,113,112,14,11,10,7,0.5,0.5
2025-07-12T1000,2211A,121.6506,42.0498,阜新市,玉龙新城,,44,44,41,16,16,117,,99,97,9,8,10,6,0.8,0.7
2025-07-12T1000,2301A,115.8277,32.8929,阜阳市,市监测站,,39,34,44,27,31,56,,48,48,11,14,3,3,0.3,0.3
2025-07-12T1000,2303A,115.8554,32.8605,阜阳市,开发区,,37,37,46,13,23,53,,39,39,12,15,5,5,0.2,0.2
2025-07-12T1000,2875A,115.784,32.8892,阜阳市,阜阳职业技术学院,,37,37,43,13,27,58,,52,52,9,9,4,4,0.4,0.4
2025-07-12T1000,3468A,115.7901,32.8613,阜阳市,市规划展馆,,41,41,47,25,37,54,,50,50,9,9,3,3,0.5,0.5
2025-07-12T1000,3469A,115.836,32.9183,阜阳市,枣园社区,,33,29,50,23,38,53,,42,42,14,15,2,3,0.3,0.3
2025-07-12T1000,2669A,102.9099,34.9841,甘南藏族自治州,州政府,,23,23,25,15,18,64,,30,30,6,12,5,6,0.4,0.4
2025-07-12T1000,3380A,102.8914,34.9617,甘南藏族自治州,甘肃民族师范学院,,30,30,34,8,11,60,,27,27,14,16,8,9,0.4,0.4
2025-07-12T1000,2570A,101.9603,30.0475,甘孜藏族自治州,水桥子,,18,9,7,3,6,57,,69,60,29,12,5,5,0.4,0.3
2025-07-12T1000,3065A,101.9533,29.9972,甘孜藏族自治州,州环保局,,23,13,13,8,5,71,,79,75,20,10,2,2,0.3,0.3
2025-07-12T1000,3414A,115.8347,28.932,赣江新区,桑海产业园,,23,,18,8,13,71,,56,56,4,6,6,6,0.1,0.2
2025-07-12T1000,2362A,114.9017,25.9149,赣州市,通天岩,,12,9,15,3,3,36,,32,32,4,3,3,3,0.6,0.6
2025-07-12T1000,2363A,114.9367,25.8664,赣州市,地委,,17,17,18,6,8,40,,31,31,10,8,1,3,0.8,0.8
2025-07-12T1000,2364A,114.9461,25.8481,赣州市,气象台,,18,18,19,3,6,40,,31,31,6,6,6,8,0.5,0.4
2025-07-12T1000,2365A,114.9322,25.8333,赣州市,市图书馆,,13,,12,9,9,33,,29,28,8,6,4,4,0.5,0.5
2025-07-12T1000,2366A,114.8905,25.8471,赣州市,华坚鞋城,,13,10,15,3,8,39,,31,30,6,7,4,4,0.3,0.3
2025-07-12T1000,3109A,115.0093,25.8613,赣州市,赣县区卫计委,,9,7,15,3,6,28,,26,26,10,7,3,3,0.6,0.4
2025-07-12T1000,2683A,106.2319,36.1417,固原市,马园,细颗粒物(PM2.5),52,,28,36,25,78,,82,76,10,15,6,6,0.6,0.6
2025-07-12T1000,2684A,106.2792,36.0022,固原市,监测站,,26,18,22,14,13,81,,95,86,4,4,4,4,0.1,0.1
2025-07-12T1000,2685A,106.2375,36.0211,固原市,新区,,27,27,22,13,11,76,,86,80,6,6,6,6,0.5,0.4
2025-07-12T1000,3522A,106.2177,35.9959,固原市,原州区十五小,,24,18,21,16,14,75,,90,81,5,5,8,8,0.3,0.3
2025-07-12T1000,2543A,106.6308,30.5278,广安市,小平旧居,,,,,,,,,,,,,,,,
2025-07-12T1000,2544A,106.6303,30.4576,广安市,市委,,,,,,,,,,,,,,,,
2025-07-12T1000,2545A,106.6271,30.4663,广安市,友谊中学,,22,20,23,11,14,68,,50,49,12,12,8,4,0.7,0.6
2025-07-12T1000,2547A,106.6388,30.4551,广安市,广电花园,,29,29,24,3,17,58,,36,36,10,11,20,6,0.6,0.5
2025-07-12T1000,2902A,106.6351,30.4865,广安市,北辰小学,,30,30,23,11,14,72,,57,55,10,9,12,9,0.5,0.5
2025-07-12T1000,2523A,105.8945,32.4535,广元市,黑石坡,,31,31,25,18,11,30,,12,12,7,7,1,1,0.4,0.4
2025-07-12T1000,2524A,105.821,32.4444,广元市,老城,,14,14,15,6,7,36,,20,20,18,16,1,2,1.0,1
2025-07-12T1000,2526A,105.8628,32.4287,广元市,监测站,,18,18,19,7,8,31,,13,13,15,11,12,12,0.8,0.7
2025-07-12T1000,3617A,105.8047,32.4166,广元市,经开区,,32,32,26,15,13,31,,14,14,15,14,4,6,0.7,0.7
2025-07-12T1000,1345A,113.2347,23.1423,广州市,广雅中学,颗粒物(PM10),51,51,24,27,11,75,,18,18,35,31,4,3,0.7,0.5
2025-07-12T1000,1346A,113.2612,23.105,广州市,市五中,,43,43,18,28,9,81,,21,21,26,21,6,4,0.7,0.6
2025-07-12T1000,1348A,113.3478,23.0916,广州市,广东商学院,颗粒物(PM10),52,53,21,29,11,70,,18,18,37,28,6,4,0.7,0.6
2025-07-12T1000,1349A,113.4332,23.1047,广州市,市八十六中,,45,41,22,31,12,74,,16,16,41,34,5,3,0.5,0.4
2025-07-12T1000,1350A,113.3505,22.9483,广州市,番禺中学,,39,35,20,27,14,83,,23,23,31,31,10,8,0.6,0.5
2025-07-12T1000,1351A,113.2146,23.3916,广州市,花都师范,,48,48,19,23,10,39,,21,21,51,24,6,5,0.8,0.6
2025-07-12T1000,1352A,113.2597,23.1331,广州市,市监测站,,43,43,18,24,9,86,,21,21,27,26,7,5,0.6,0.5
2025-07-12T1000,1353A,113.5618,23.312,广州市,九龙镇镇龙,,,67,14,46,8,68,,23,23,,10,7,6,,0.4
2025-07-12T1000,1354A,113.2765,23.1544,广州市,麓湖,,39,39,17,22,8,80,,18,18,26,24,4,2,0.8,0.7
2025-07-12T1000,1355A,113.443,23.3035,广州市,帽峰山森林公园,,32,32,13,12,5,41,,22,22,17,6,2,2,0.6,0.5
2025-07-12T1000,2846A,113.3221,23.1322,广州市,体育西,,,43,20,22,12,,,6,4,38,27,,4,0.7,0.6
2025-07-12T1000,3298A,113.5717,23.5491,广州市,从化街口,颗粒物(PM10),52,54,17,33,9,75,,19,19,14,12,8,7,0.7,0.7
2025-07-12T1000,3299A,113.3472,23.3692,广州市,白云竹料,颗粒物(PM10),57,63,19,26,10,73,,32,32,21,13,4,3,0.7,0.5
2025-07-12T1000,3300A,113.2981,23.237,广州市,白云嘉禾,颗粒物(PM10),53,55,22,31,12,68,,17,17,38,25,5,4,0.6,0.5
2025-07-12T1000,3301A,113.4256,23.1716,广州市,黄埔科学城,细颗粒物(PM2.5),70,84,24,51,10,49,,9,9,40,16,4,2,1.0,0.8
2025-07-12T1000,3302A,113.3942,23.0483,广州市,番禺大学城,,45,45,14,29,12,82,,17,17,36,32,9,7,0.7,0.6
2025-07-12T1000,3303A,113.4922,22.8168,广州市,南沙黄阁,,36,27,24,25,13,68,,21,21,28,29,6,6,0.6,0.6
2025-07-12T1000,3304A,113.5342,22.7896,广州市,南沙街,,39,,18,27,12,65,,32,32,33,26,5,5,0.7,0.7
2025-07-12T1000,3443A,113.2902,23.5544,广州市,花都梯面,,31,31,17,15,8,29,,8,8,19,14,5,5,0.6,0.6
2025-07-12T1000,3445A,113.7858,23.7478,广州市,从化良口,,14,11,8,7,4,42,,24,24,5,7,7,7,0.6,0.6
2025-07-12T1000,3446A,113.8051,23.2614,广州市,增城荔城,细颗粒物(PM2.5),64,70,12,46,6,71,,30,30,13,7,7,6,0.5,0.4
2025-07-12T1000,2505A,109.568,23.1478,贵港市,德智高中,,,,,,,,,,,,,,,,
2025-07-12T1000,2506A,109.6047,23.0666,贵港市,江南子站,,,,27,16,17,36,,28,27,,16,7,6,1.0,0.7
2025-07-12T1000,2508A,109.5669,23.1065,贵港市,荷城子站,,14,14,13,3,5,43,,29,25,11,13,6,6,0.4,0.3
2025-07-12T1000,3405A,109.5886,23.1172,贵港市,新世纪学校,,16,12,12,9,9,50,,32,31,9,10,2,2,0.4,0.4
2025-07-12T1000,4260A,109.5933,23.0951,贵港市,中山路155-3号,,26,26,26,10,15,38,,25,22,11,12,3,4,0.7,0.6
2025-07-12T1000,1439A,106.6899,26.5998,贵阳市,马鞍山,,,29,16,12,3,49,,21,21,,6,3,3,0.0,0
2025-07-12T1000,1441A,106.6243,26.6266,贵阳市,鉴湖路,,31,31,23,14,8,54,,42,42,6,8,5,5,0.4,0.4
2025-07-12T1000,1442A,106.7487,26.6343,贵阳市,燕子冲,,35,31,21,24,22,58,,28,28,8,11,9,8,0.1,0.1
2025-07-12T1000,1443A,106.6555,26.4365,贵阳市,碧云窝,,36,36,29,14,9,75,,39,39,8,9,5,4,0.0,0.1
2025-07-12T1000,1445A,106.7109,26.6027,贵阳市,红边门,,25,24,19,17,9,35,,20,20,8,8,4,5,0.1,0.2
2025-07-12T1000,1446A,106.7164,26.5699,贵阳市,新华路,,32,,14,22,14,69,,48,48,8,11,6,5,0.6,0.3
2025-07-12T1000,1447A,106.674,26.5424,贵阳市,太慈桥,,21,17,15,9,8,66,,35,35,9,13,5,5,0.1,0.1
2025-07-12T1000,1552A,106.805,26.3003,贵阳市,桐木岭,,41,41,31,24,20,80,,67,67,7,8,6,6,1.0,1
2025-07-12T1000,4230A,106.6882,26.5695,贵阳市,花果园大街66号,,35,,11,24,16,69,,56,56,5,7,3,2,0.3,0.3
2025-07-12T1000,4231A,106.6873,26.5169,贵阳市,漓江路57号,,27,27,17,12,6,58,,39,39,6,9,5,5,0.2,0.3
2025-07-12T1000,1862A,110.4144,25.3167,桂林市,电子科大尧山校区,,,,,,,,,,,,,,,,
2025-07-12T1000,1864A,110.3089,25.2708,桂林市,龙隐路小学,,,,24,,14,,,54,48,17,6,,9,0.7,0.5
2025-07-12T1000,1865A,110.2869,25.2178,桂林市,八中,,36,36,25,19,13,49,,58,52,17,10,8,6,0.5,0.4
2025-07-12T1000,3531A,110.296,25.1253,桂林市,旅游学院,,32,31,16,22,12,58,,66,60,8,5,4,3,0.4,0.3
2025-07-12T1000,4222A,110.1835,25.2444,桂林市,环湖路276号,,45,44,31,31,20,48,,53,45,13,7,25,28,0.4,0.3
2025-07-12T1000,4301A,110.2803,25.2773,桂林市,信义路13号,,46,46,30,26,14,43,,56,47,22,10,9,5,0.8,0.6
2025-07-12T1000,2674A,100.2561,34.4714,果洛藏族自治州,玛沁县大武镇,,39,39,33,8,15,63,,51,50,20,7,17,14,0.4,0.3
2025-07-12T1000,1129A,126.5422,45.755,哈尔滨市,岭北,,40,35,36,28,26,116,,115,109,11,15,6,7,1.0,1
2025-07-12T1000,1130A,126.561,45.8167,哈尔滨市,松北商大,,45,45,46,17,19,102,,98,94,9,13,7,7,0.6,0.6
2025-07-12T1000,1131A,126.979,45.5419,哈尔滨市,阿城会宁,,38,30,43,21,31,121,,87,87,14,18,6,6,0.6,0.6
2025-07-12T1000,1132A,126.599,45.7222,哈尔滨市,南岗学府路,,47,47,48,20,20,106,,93,89,10,15,6,6,0.9,0.9
2025-07-12T1000,1133A,126.689,45.7733,哈尔滨市,太平宏伟公园,颗粒物(PM10),58,65,51,18,21,108,,97,92,13,15,7,7,0.4,0.4
2025-07-12T1000,1134A,126.635,45.7667,哈尔滨市,道外承德广场,颗粒物(PM10),54,57,59,17,20,94,,85,80,16,17,6,6,0.6,0.5
2025-07-12T1000,1135A,126.685,45.7319,哈尔滨市,香坊红旗大街,,46,46,51,28,30,103,,84,83,18,24,7,8,0.7,0.6
2025-07-12T1000,1136A,126.6411,45.7258,哈尔滨市,动力和平路,,,65,57,,,109,,92,90,12,18,5,5,0.5,0.6
2025-07-12T1000,1137A,126.593,45.7478,哈尔滨市,道里建国路,颗粒物(PM10),70,89,51,16,22,104,,95,90,12,17,4,7,0.6,0.7
2025-07-12T1000,1138A,126.615,45.61,哈尔滨市,平房东轻厂,颗粒物(PM10),59,67,59,14,20,97,,80,80,11,18,7,8,0.4,0.4
2025-07-12T1000,1139A,126.595,45.9855,哈尔滨市,呼兰师专,,38,38,41,14,21,106,,102,97,7,11,10,9,0.7,0.7
2025-07-12T1000,1140A,126.6206,45.6842,哈尔滨市,省农科院,颗粒物(PM10),61,71,62,18,24,102,,85,85,16,20,5,4,0.6,0.6
2025-07-12T1000,2688A,93.5128,42.8172,哈密市,地区监测站,颗粒物(PM10),82,113,60,18,22,60,,87,83,17,10,5,5,0.3,0.2
2025-07-12T1000,2689A,93.4961,42.8328,哈密市,哈密师范学校,颗粒物(PM10),73,96,43,28,14,56,,88,77,19,10,6,6,0.3,0.1
2025-07-12T1000,2671A,100.9048,36.9639,海北藏族自治州,海晏县西海镇,,38,34,33,26,26,104,,80,80,7,5,17,11,0.6,0.5
2025-07-12T1000,3867A,102.0738,36.5056,海东市,平安区公安北苑,,43,43,38,25,18,74,,62,60,15,6,18,13,0.7,0.6
2025-07-12T1000,1409A,110.576,19.9507,海口市,东寨港,,22,20,20,15,11,53,,23,23,7,6,5,5,0.4,0.5
2025-07-12T1000,1410A,110.3232,20.0574,海口市,海南大学,,17,9,22,6,13,54,,40,40,7,10,2,3,0.4,0.5
2025-07-12T1000,1411A,110.283,20.0053,海口市,秀英海南医院,,23,23,21,3,11,53,,40,40,7,12,5,5,0.4,0.4
2025-07-12T1000,1412A,110.338,19.9969,海口市,海南师范大学,,21,21,21,7,13,56,,37,37,7,10,4,4,0.4,0.4
2025-07-12T1000,1413A,110.33,20.0356,海口市,龙华路环保局宿舍,,19,16,19,6,13,59,,51,51,7,10,5,5,0.3,0.3
2025-07-12T1000,3539A,110.5111,19.9736,海口市,桂林洋子站,,27,27,27,14,14,50,,21,21,11,12,4,4,0.3,0.3
2025-07-12T1000,2673A,100.6188,36.2866,海南藏族自治州,共和县恰卜恰镇,,36,26,34,25,15,111,,102,101,4,7,15,14,0.5,0.5
2025-07-12T1000,2676A,97.3731,37.3753,海西蒙古族藏族自治州,德令哈市,,39,29,31,17,17,122,,115,115,2,3,10,11,0.7,0.7
2025-07-12T1000,1048A,114.5302,36.6116,邯郸市,东污水处理厂,颗粒物(PM10),62,73,70,31,27,133,,71,71,11,15,5,6,0.5,0.5
2025-07-12T1000,1049A,114.4918,36.5713,邯郸市,矿院,颗粒物(PM10),55,60,51,34,33,140,,70,70,17,18,6,6,0.6,0.6
2025-07-12T1000,1050A,114.484,36.6133,邯郸市,丛台公园,颗粒物(PM10),59,68,65,34,31,137,,75,75,18,18,7,6,0.7,0.7
2025-07-12T1000,3458A,114.7895,36.5593,邯郸市,香泉濮院小区,颗粒物(PM10),69,88,81,22,25,130,,68,68,9,14,3,3,0.0,0.2
2025-07-12T1000,3579A,114.50634,36.77178,邯郸市,永年区实验高中,细颗粒物(PM2.5),72,83,69,52,42,124,,69,69,24,22,2,2,0.7,0.5
2025-07-12T1000,3580A,114.20016,36.44293,邯郸市,峰峰矿区临水派出所,颗粒物(PM10),61,72,67,32,30,154,,91,91,13,13,13,8,1.4,1
2025-07-12T1000,2634A,106.9893,33.1842,汉中市,汉川机床厂子校,,32,32,25,20,18,64,,60,55,7,7,4,3,0.5,0.4
2025-07-12T1000,2635A,107.0154,33.0706,汉中市,市监测站,,36,34,27,25,18,66,,41,41,7,8,6,6,0.5,0.5
2025-07-12T1000,2636A,107.0089,33.1138,汉中市,鑫源开发区,,33,32,25,23,15,59,,44,44,6,8,6,5,0.4,0.4
2025-07-12T1000,2637A,107.007,33.0323,汉中市,南郑大河坎水厂,,37,37,27,20,16,68,,17,17,6,11,2,2,0.3,0.4
2025-07-12T1000,1223A,120.2072,30.2111,杭州市,滨江,,17,17,14,8,10,48,,33,33,16,18,5,5,0.5,0.5
2025-07-12T1000,1224A,120.0633,30.2747,杭州市,西溪,,15,12,14,8,7,45,,27,27,9,11,3,4,0.3,0.3
2025-07-12T1000,1226A,120.3417,30.3150,杭州市,下沙,,18,18,16,9,8,48,,35,35,9,9,5,4,0.2,0.2
2025-07-12T1000,1227A,120.1269,30.2456,杭州市,卧龙桥,,15,14,15,10,7,42,,27,27,7,8,7,7,0.4,0.4
2025-07-12T1000,1228A,120.1903,30.2692,杭州市,浙江农大,,31,31,16,9,10,44,,28,28,18,21,4,4,0.3,0.3
2025-07-12T1000,1230A,120.1197,30.3119,杭州市,和睦小学,,17,16,17,10,12,53,,32,32,8,13,4,4,0.3,0.3
2025-07-12T1000,1231A,120.3019,30.4183,杭州市,临平镇,,18,18,19,9,9,47,,34,34,9,12,6,5,0.3,0.3
2025-07-12T1000,1232A,120.2753,30.1839,杭州市,城厢镇,,23,20,19,16,18,46,,32,32,13,14,6,6,0.4,0.5
2025-07-12T1000,1233A,120.0883,30.1808,杭州市,云栖,,15,15,16,8,6,21,,22,22,19,13,8,8,0.7,0.6
2025-07-12T1000,3557A,119.9464,30.0494,杭州市,镇二中,,22,21,12,15,14,32,,24,21,14,13,3,3,0.5,0.5
2025-07-12T1000,3558A,119.7183,30.2367,杭州市,市府大楼,,19,13,11,10,10,59,,38,38,7,9,6,6,0.4,0.3
2025-07-12T1000,3656A,120.1556,30.2864,杭州市,消防大队,,18,16,16,8,10,56,,37,37,10,16,6,6,0.5,0.5
2025-07-12T1000,1270A,117.1959,31.7848,合肥市,明珠广场,,29,29,22,19,15,50,,37,37,11,11,5,5,0.5,0.5
2025-07-12T1000,1271A,117.3072,31.8764,合肥市,三里街,,35,31,21,24,15,44,,31,31,6,8,6,6,0.4,0.3
2025-07-12T1000,1272A,117.2588,31.8707,合肥市,琥珀山庄,,36,36,27,20,18,48,,35,35,11,9,7,7,0.5,0.5
2025-07-12T1000,1273A,117.1604,31.9052,合肥市,董铺水库,,34,34,24,19,14,48,,40,40,4,4,4,4,0.2,0.2
2025-07-12T1000,1274A,117.25,31.8571,合肥市,长江中路,,38,36,27,26,19,54,,39,39,5,7,5,5,0.5,0.4
2025-07-12T1000,1275A,117.266,31.9436,合肥市,庐阳区,,39,39,27,24,15,45,,37,37,8,7,6,6,0.4,0.4
2025-07-12T1000,1276A,117.3453,31.8616,合肥市,瑶海区,,35,34,22,24,14,47,,36,36,6,7,6,6,0.5,0.5
2025-07-12T1000,1277A,117.3027,31.7964,合肥市,包河区,,39,39,28,19,15,48,,31,31,14,22,5,5,0.5,0.4
2025-07-12T1000,1278A,117.2776,31.7385,合肥市,滨湖新区,,45,31,26,31,21,53,,37,37,5,7,6,6,0.4,0.4
2025-07-12T1000,1279A,117.1318,31.8403,合肥市,高新区,,35,31,24,24,16,50,,39,39,10,10,7,7,0.5,0.4
2025-07-12T1000,3464A,117.3803,31.9147,合肥市,高教基地,,34,34,24,21,17,44,,35,35,5,6,4,4,0.5,0.4
2025-07-12T1000,3614A,79.924,37.0877,和田地区,地区环保局,,34,34,556,20,133,88,,109,108,9,4,3,3,0.5,0.3
2025-07-12T1000,3615A,79.9131,37.113,和田地区,市环保局,,,,503,,136,,,,,,8,,2,,0.2
2025-07-12T1000,2516A,108.2011,24.715,河池市,东仁乐园,,,,,,,,,,,,,,,,
2025-07-12T1000,2517A,108.0497,24.6947,河池市,市环保站,,38,38,19,13,9,68,,32,32,6,6,3,3,0.5,0.5
2025-07-12T1000,2518A,108.0983,24.6989,河池市,市疾控中心,,33,33,21,17,11,74,,19,19,7,12,3,3,0.7,0.7
2025-07-12T1000,1696A,114.6778,23.7569,河源市,源西,,18,18,9,6,3,53,,24,24,7,14,3,3,0.9,0.8
2025-07-12T1000,1697A,114.6944,23.7586,河源市,东埔,,16,15,6,3,3,51,,31,31,9,10,4,4,0.6,0.5
2025-07-12T1000,1698A,114.6892,23.7233,河源市,老城,,18,14,7,12,5,52,,27,27,6,7,5,5,0.6,0.6
2025-07-12T1000,1718A,115.4208,35.2464,菏泽市,气象局,,38,38,52,25,35,102,,71,71,7,9,4,4,0.4,0.4
2025-07-12T1000,3374A,115.5564,35.0891,菏泽市,定陶老年大学,,36,36,46,19,29,102,,58,58,10,14,2,2,0.4,0.3
2025-07-12T1000,4184A,115.4797,35.24401,菏泽市,永昌路1号,,40,40,52,27,37,101,,69,69,9,11,7,6,0.2,0.1
2025-07-12T1000,4193A,115.4715,35.2800,菏泽市,长城路999号,,40,40,48,19,31,103,,71,71,8,9,4,4,0.3,0.3
2025-07-12T1000,2514A,111.5264,24.4172,贺州市,环保小区,,28,28,22,3,13,39,,26,26,10,9,11,11,0.8,0.8
2025-07-12T1000,2515A,111.5608,24.4078,贺州市,政协大楼,,28,26,20,19,14,34,,20,20,11,11,24,13,1.0,0.9
2025-07-12T1000,3534A,111.4744,24.4553,贺州市,西湾,,21,21,22,10,14,38,,19,19,7,8,5,7,0.6,0.6
2025-07-12T1000,2385A,114.17,35.9019,鹤壁市,市监测站,细颗粒物(PM2.5),84,87,68,62,56,120,,74,74,12,11,4,5,1.7,0.9
2025-07-12T1000,2386A,114.2956,35.7511,鹤壁市,市交警支队,细颗粒物(PM2.5),59,59,66,42,53,118,,68,68,13,18,6,4,0.9,0.9
2025-07-12T1000,2387A,114.2878,35.7306,鹤壁市,迎宾馆,颗粒物(PM10),55,60,65,34,54,125,,73,73,6,10,4,4,0.7,0.7
2025-07-12T1000,3474A,114.2617,35.6822,鹤壁市,大新区,颗粒物(PM10),62,74,65,43,41,116,,64,64,8,9,6,6,0.6,0.6
2025-07-12T1000,3596A,114.1572,35.9603,鹤壁市,南山宾馆,颗粒物(PM10),75,99,75,53,52,130,,90,90,16,7,6,4,2.0,0.9
2025-07-12T1000,2244A,130.2537,47.3416,鹤岗市,哈啤分公司,,28,20,26,3,19,89,,78,78,5,14,10,10,0.7,0.8
2025-07-12T1000,2245A,130.2684,47.3086,鹤岗市,斯达机电,,31,30,39,16,22,98,,82,82,7,13,11,11,0.7,0.7
2025-07-12T1000,2246A,130.3114,47.3388,鹤岗市,东山纸板厂,,21,20,33,10,21,66,,48,48,9,16,10,10,1.1,1
2025-07-12T1000,2247A,130.1097,47.3382,鹤岗市,五号水库,,30,9,15,7,7,93,,59,59,7,20,7,7,0.2,0.3
2025-07-12T1000,2263A,127.4833,50.2524,黑河市,交通局,,20,20,24,3,9,45,,58,46,10,8,6,7,0.4,0.4
2025-07-12T1000,2264A,127.5144,50.2341,黑河市,环保局,,19,19,26,8,13,51,,64,52,7,8,5,5,0.3,0.4
2025-07-12T1000,2265A,127.5291,50.2472,黑河市,大黑河岛,,,,,,,,,,,,,,,,
2025-07-12T1000,1074A,115.6838,37.7541,衡水市,电机北厂,颗粒物(PM10),60,70,63,31,39,150,,80,80,6,15,2,3,0.4,0.3
2025-07-12T1000,1075A,115.6303,37.7316,衡水市,市监测站,颗粒物(PM10),52,54,63,27,32,146,,76,76,8,12,9,8,0.4,0.4
2025-07-12T1000,3188A,115.6683,37.7217,衡水市,市城管局,颗粒物(PM10),54,57,57,37,37,151,,79,79,12,15,15,12,0.4,0.5
2025-07-12T1000,3459A,115.5989,37.5491,衡水市,地表水厂,颗粒物(PM10),61,71,64,34,30,147,,62,62,6,18,7,6,0.4,0.3
2025-07-12T1000,2456A,112.5003,26.9167,衡阳市,原169医院,,29,29,26,16,15,71,,64,63,9,8,7,6,0.5,0.4
2025-07-12T1000,2457A,112.6194,26.9258,衡阳市,衡阳化工总厂,,26,26,30,16,19,71,,54,54,8,10,4,4,0.5,0.5
2025-07-12T1000,2458A,112.6211,26.8956,衡阳市,珠晖区环保局,,34,34,27,17,16,63,,46,46,9,9,6,5,0.6,0.6
2025-07-12T1000,2459A,112.6197,26.8733,衡阳市,市委党校,颗粒物(PM10),58,66,38,17,16,71,,55,55,7,7,8,9,0.5,0.5
2025-07-12T1000,2460A,112.6006,26.8919,衡阳市,市监测站,,23,21,28,15,18,71,,56,56,6,8,4,4,0.4,0.4
2025-07-12T1000,2461A,112.5664,26.9056,衡阳市,真空机电公司,,42,42,27,16,17,67,,54,54,5,5,5,5,0.5,0.5
2025-07-12T1000,3399A,112.6703,26.882,衡阳市,师范学院,,,,29,41,18,72,,52,51,,7,6,7,,0.5
2025-07-12T1000,2608A,103.3772,23.3993,红河哈尼族彝族自治州,污水处理厂,,32,32,23,20,17,86,,62,62,8,8,42,20,0.3,0.3
2025-07-12T1000,2609A,103.3861,23.35,红河哈尼族彝族自治州,监测站,,38,38,34,20,20,71,,52,52,8,8,73,19,0.4,0.3
2025-07-12T1000,3038A,103.3758,23.368,红河哈尼族彝族自治州,州图书馆,,30,29,21,21,16,59,,51,51,8,7,58,19,0.3,0.3
2025-07-12T1000,1090A,111.6507,40.7517,呼和浩特市,呼市一监,,46,46,36,30,28,68,,56,56,17,16,7,7,0.6,0.6
2025-07-12T1000,1091A,111.6572,40.8033,呼和浩特市,小召,,49,46,34,34,24,66,,56,56,22,21,7,7,0.7,0.6
2025-07-12T1000,1094A,111.7516,40.8369,呼和浩特市,如意水处理厂,,43,43,43,27,26,64,,51,51,23,22,3,2,0.5,0.5
2025-07-12T1000,1095A,111.7276,40.8062,呼和浩特市,二十九中,颗粒物(PM10),51,52,39,30,29,72,,60,60,12,16,6,5,0.7,0.7
2025-07-12T1000,1096A,111.5512,40.7866,呼和浩特市,工大金川校区,颗粒物(PM10),58,66,40,37,25,51,,45,44,35,24,5,6,0.7,0.5
2025-07-12T1000,1097A,111.717,40.7612,呼和浩特市,化肥厂生活区,,50,50,43,33,28,66,,65,64,19,19,6,7,0.6,0.5
2025-07-12T1000,3698A,111.5968,40.8178,呼和浩特市,红旗小学,颗粒物(PM10),52,53,35,30,23,72,,55,55,25,23,3,3,0.5,0.4
2025-07-12T1000,3699A,111.6518,40.8389,呼和浩特市,海东办,颗粒物(PM10),53,56,34,30,26,72,,43,43,20,23,2,2,0.6,0.5
2025-07-12T1000,2192A,119.7594,49.2261,呼伦贝尔市,区环保局,,13,13,20,7,13,39,,34,34,25,21,5,4,0.2,0.2
2025-07-12T1000,3061A,119.7512,49.1577,呼伦贝尔市,国华电力东,,17,11,15,6,8,54,,46,46,10,9,11,12,0.4,0.4
2025-07-12T1000,1250A,120.0751,30.8669,湖州市,城西水厂,,18,18,19,11,11,54,,40,40,8,12,6,6,0.3,0.4
2025-07-12T1000,2873A,120.0830,30.8929,湖州市,仁皇山新区,,16,15,18,11,10,46,,31,31,7,11,4,4,0.5,0.5
2025-07-12T1000,2907A,120.1844,30.8596,湖州市,吴兴区站,,18,15,19,12,15,44,,31,31,8,9,6,6,0.3,0.3
2025-07-12T1000,3562A,120.4148,30.8538,湖州市,南浔区站,,16,14,20,6,12,51,,30,30,8,12,6,6,0.5,0.4
2025-07-12T1000,1607A,120.9049,40.7211,葫芦岛市,龙港区,,33,30,38,10,13,103,,105,104,4,5,3,3,0.4,0.5
2025-07-12T1000,1608A,120.8392,40.7514,葫芦岛市,化工街,,35,29,31,17,16,111,,90,90,13,14,6,6,0.5,0.5
2025-07-12T1000,1609A,120.8341,40.7073,葫芦岛市,新区,,35,35,33,11,18,108,,101,101,4,6,4,5,0.6,0.7
2025-07-12T1000,1610A,120.8695,40.7677,葫芦岛市,东城区,,41,41,34,11,20,108,,102,102,10,10,4,4,0.6,0.6
2025-07-12T1000,2482A,109.5981,27.5721,怀化市,林科所,,37,37,36,21,16,59,,76,69,3,4,5,4,0.3,0.4
2025-07-12T1000,2483A,109.9453,27.5444,怀化市,河西地税局,,42,37,35,29,25,58,,60,58,6,7,2,2,0.2,0.2
2025-07-12T1000,2484A,109.9781,27.5342,怀化市,市四医院,,49,48,37,34,26,64,,66,64,4,4,8,12,0.9,0.7
2025-07-12T1000,2485A,109.9972,27.5578,怀化市,监测楼,,44,44,38,29,26,51,,49,48,3,4,3,8,0.2,0.1
2025-07-12T1000,2486A,110.0394,27.583,怀化市,市委党校,细颗粒物(PM2.5),54,41,36,38,27,61,,58,58,2,4,8,18,0.3,0.3
2025-07-12T1000,1210A,119.036,33.5981,淮安市,钵池山,,28,27,30,19,24,82,,70,70,6,6,10,9,0.5,0.5
2025-07-12T1000,1211A,119.007,33.575,淮安市,北京南路,,41,41,34,19,24,79,,70,70,7,6,8,6,0.6,0.6
2025-07-12T1000,1212A,118.989,33.6067,淮安市,市监测站,,36,36,34,22,24,84,,72,72,3,3,9,8,0.5,0.5
2025-07-12T1000,1213A,119.135,33.5039,淮安市,楚州区监测站,,46,46,40,19,24,83,,73,73,3,4,8,7,0.5,0.5
2025-07-12T1000,3426A,118.8755,33.2894,淮安市,新华书店,,38,38,30,26,23,77,,67,67,7,7,9,8,0.5,0.5
2025-07-12T1000,4206A,119.0288,33.6319,淮安市,承德北路606号,,34,34,35,19,25,82,,66,66,4,7,6,5,0.4,0.4
2025-07-12T1000,2282A,116.8004,33.975,淮北市,监测站,,36,36,42,25,27,76,,81,78,4,5,7,7,0.5,0.5
2025-07-12T1000,2283A,116.8091,33.9007,淮北市,烈山区政府,,46,46,46,20,22,80,,85,81,2,2,8,7,0.5,0.5
2025-07-12T1000,3330A,116.8873,33.9836,淮北市,杜集区检察院,,34,34,34,22,28,72,,78,75,4,5,7,6,0.6,0.6
2025-07-12T1000,4017A,116.7923,33.9535,淮北市,市博物馆,,34,34,36,23,26,78,,84,80,3,4,8,8,0.6,0.6
2025-07-12T1000,2277A,116.8305,32.7727,淮南市,潘集区政府,,39,39,41,20,24,31,,47,44,41,7,3,2,0.3,0.4
2025-07-12T1000,2279A,116.8569,32.5951,淮南市,谢家集区政府,,45,45,36,19,19,50,,48,46,8,6,7,6,0.1,0.1
2025-07-12T1000,2280A,116.8281,32.633,淮南市,八公山区政府,,35,35,35,24,21,49,,46,45,9,7,4,6,0.3,0.3
2025-07-12T1000,2281A,116.6325,32.6201,淮南市,焦岗湖风景区管理处,,,,,,,,,,,,,,,,
2025-07-12T1000,2894A,117.0566,32.6531,淮南市,经济技术开发区消防队,,36,36,33,9,12,49,,46,46,10,9,8,8,0.2,0.2
2025-07-12T1000,3329A,117.0108,32.5893,淮南市,山南新区,,26,26,33,3,10,55,,50,50,1,3,8,8,0.3,0.4
2025-07-12T1000,4209A,117.0031,32.6445,淮南市,国庆中路369号,,30,23,26,21,27,54,,52,51,6,5,9,9,0.4,0.4
2025-07-12T1000,2446A,114.9028,30.4742,黄冈市,职工中心,,27,27,26,14,16,57,,42,40,4,5,8,7,0.3,0.3
2025-07-12T1000,2929A,114.8858,30.4519,黄冈市,红卫路,,22,22,22,11,13,62,,48,48,2,2,8,7,0.4,0.4
2025-07-12T1000,3398A,114.9136,30.4445,黄冈市,市林业局,,22,22,24,11,15,65,,53,53,2,2,7,7,0.2,0.2
2025-07-12T1000,2672A,102.0199,35.5102,黄南藏族自治州,同仁县隆务镇,,15,10,28,10,9,41,,46,44,13,13,9,9,0.2,0.2
2025-07-12T1000,2295A,118.2903,29.6963,黄山市,延安路89号,,18,10,11,3,7,56,,34,34,3,4,3,3,0.4,0.4
2025-07-12T1000,2297A,118.1371,30.2756,黄山市,黄山区政府5号楼,,16,16,17,3,9,45,,23,23,2,4,4,4,0.3,0.3
2025-07-12T1000,4210A,118.3354,29.7203,黄山市,滨江东路7-2号,,15,13,19,3,5,48,,28,28,3,4,3,3,0.3,0.4
2025-07-12T1000,2423A,115.0601,30.2313,黄石市,沈家营,,36,36,32,11,9,64,,30,30,4,8,7,7,0.4,0.4
2025-07-12T1000,2426A,114.8988,30.2019,黄石市,铁山,,24,24,27,6,11,51,,36,36,6,8,5,7,0.5,0.5
2025-07-12T1000,2427A,115.0307,30.2092,黄石市,团城山,,26,26,27,7,5,63,,32,32,8,8,7,7,0.3,0.4
2025-07-12T1000,3149A,115.0235,30.1578,黄石市,笔架山北路,,27,27,27,12,6,52,,29,29,10,10,6,6,0.3,0.3
2025-07-12T1000,4185A,115.0780,30.21118,黄石市,磁湖东路29号,,35,35,32,10,12,63,,32,32,9,11,6,8,0.6,0.6
2025-07-12T1000,1392A,114.4183,23.0528,惠州市,河南岸金山湖子站,,17,12,22,9,17,52,,28,28,14,16,8,7,0.5,0.6
2025-07-12T1000,1393A,114.4053,23.0822,惠州市,下埔横江三路子站,,18,13,21,10,15,57,,33,33,10,16,6,5,0.5,0.6
2025-07-12T1000,1394A,114.4103,23.1142,惠州市,江北云山西路子站,,,15,17,9,13,,,27,26,8,14,7,9,0.5,0.6
2025-07-12T1000,1395A,114.4645,22.7833,惠州市,惠阳区承修路船湖子站,,12,12,25,8,16,36,,48,37,12,16,6,6,0.6,0.6
2025-07-12T1000,1396A,114.5317,22.7422,惠州市,大亚湾管委会子站,,15,14,18,10,12,32,,47,38,22,16,6,7,0.7,0.7
2025-07-12T1000,3314A,114.4338,22.8134,惠州市,惠阳秋长,,17,17,30,10,22,38,,21,21,11,24,5,7,0.4,0.6
2025-07-12T1000,3452A,114.6517,22.775,惠州市,大亚湾霞涌,,15,,13,8,8,47,,62,49,5,7,5,5,0.7,0.8
2025-07-12T1000,2240A,130.9762,45.3001,鸡西市,环保局,,36,28,33,11,11,113,,46,46,7,12,5,6,0.2,0.1
2025-07-12T1000,2243A,130.9429,45.3039,鸡西市,第一中学,,,,13,,2,,,35,35,,13,,8,,0
2025-07-12T1000,3707A,131.0207,45.3073,鸡西市,欧美日汽修厂,,36,33,45,15,13,114,,37,37,13,14,9,7,0.4,0.3
2025-07-12T1000,3709A,130.9967,45.3106,鸡西市,市政设施管理处,,36,30,36,15,12,115,,40,40,9,16,5,4,0.3,0.3
2025-07-12T1000,2367A,114.9754,27.0803,吉安市,红声器材厂,,24,24,24,9,10,52,,45,44,7,5,8,9,0.5,0.4
2025-07-12T1000,2368A,114.9658,27.0999,吉安市,市森林工业局,,16,16,21,9,10,50,,49,46,5,3,8,9,0.3,0.3
2025-07-12T1000,2369A,114.99,27.1312,吉安市,市环境监测站,,21,21,22,11,11,57,,53,51,2,2,17,14,0.5,0.4
2025-07-12T1000,2370A,115.0093,27.0968,吉安市,青原区法院,,23,23,23,10,10,44,,38,38,13,9,6,8,0.6,0.5
2025-07-12T1000,1772A,126.54,43.8622,吉林市,哈达湾,,38,29,34,20,23,121,,79,79,6,13,7,6,0.5,0.5
2025-07-12T1000,1773A,126.5844,43.8358,吉林市,东局子,,37,33,34,18,19,116,,73,73,9,17,6,5,0.8,0.8
2025-07-12T1000,1774A,126.5052,43.8245,吉林市,电力学院,,40,23,31,10,17,125,,70,70,6,19,6,5,0.6,0.7
2025-07-12T1000,1775A,126.6133,43.8972,吉林市,江北,,39,34,31,11,18,123,,85,85,8,12,9,8,0.7,0.7
2025-07-12T1000,1776A,126.555,43.8306,吉林市,江南公园,,37,28,28,17,17,117,,72,72,5,14,2,2,0.5,0.5
2025-07-12T1000,1778A,126.7061,43.7133,吉林市,丰满,,,,,,,,,,,,,,,,
2025-07-12T1000,2868A,126.4739,43.953,吉林市,九站,,42,37,30,20,22,132,,119,118,5,9,2,2,0.5,0.6
2025-07-12T1000,1299A,116.9862,36.6114,济南市,科干所,,41,41,36,24,27,110,,88,88,12,13,6,6,0.3,0.3
2025-07-12T1000,1300A,116.9376,36.665,济南市,农科所,,46,46,42,29,22,106,,60,60,12,14,9,7,0.5,0.4
2025-07-12T1000,1301A,117.1265,36.6734,济南市,开发区,,42,42,35,27,24,117,,80,80,16,16,8,7,0.6,0.6
2025-07-12T1000,1303A,117.0624,36.6868,济南市,省种子仓库,,48,48,41,29,23,127,,91,91,9,14,6,6,0.5,0.5
2025-07-12T1000,1304A,116.9489,36.6447,济南市,机床二厂,,46,46,46,27,24,110,,67,67,16,21,8,6,0.5,0.5
2025-07-12T1000,1305A,117.0495,36.663,济南市,市监测站,,46,46,36,24,23,114,,86,86,14,16,10,9,0.5,0.5
2025-07-12T1000,1306A,116.7675,36.5484,济南市,长清党校,,39,39,41,24,32,98,,66,66,11,14,7,6,0.5,0.6
2025-07-12T1000,1616A,117.6795,36.229,济南市,技术学院,,45,39,29,31,25,91,,59,59,14,14,13,8,1.2,0.6
2025-07-12T1000,1961A,117.532,36.6868,济南市,东山小学,,44,44,43,27,25,114,,67,67,7,13,8,7,0.3,0.2
2025-07-12T1000,3059A,117.7161,36.2049,济南市,泰兴公司,,35,34,37,24,24,82,,52,52,14,15,20,9,1.5,0.6
2025-07-12T1000,3064A,117.6867,36.2171,济南市,莱芜战役纪念馆,,48,48,40,24,26,87,,62,62,9,10,14,9,1.6,0.9
2025-07-12T1000,3494A,117.1673,36.9782,济南市,济阳区政府,颗粒物(PM10),56,61,55,32,26,114,,48,48,11,17,8,8,0.3,0.3
2025-07-12T1000,3495A,117.1171,36.63,济南市,锦屏中学,,39,39,35,24,21,114,,76,76,8,11,8,7,0.5,0.5
2025-07-12T1000,3682A,116.9814,36.6819,济南市,济南四建,细颗粒物(PM2.5),53,51,38,37,28,119,,84,84,11,15,7,6,0.6,0.5
2025-07-12T1000,1653A,116.6251,35.4302,济宁市,火炬城,,37,37,44,22,25,85,,49,49,6,11,4,4,0.5,0.5
2025-07-12T1000,1655A,116.5491,35.4042,济宁市,电化厂,,39,38,42,27,29,98,,64,64,6,8,7,7,0.6,0.6
2025-07-12T1000,3500A,116.5814,35.3707,济宁市,北湖一中,,40,40,43,26,27,102,,56,56,11,13,7,5,0.4,0.3
2025-07-12T1000,3501A,116.8249,35.5593,济宁市,服务中心,,41,41,41,15,20,93,,63,63,8,12,4,4,0.2,0.2
2025-07-12T1000,3678A,116.5907,35.4054,济宁市,市第七中学,,46,46,47,14,21,86,,52,52,7,10,7,7,0.4,0.3
2025-07-12T1000,2255A,130.2751,46.8028,佳木斯市,佳纺,,40,31,36,25,20,127,,82,82,9,18,7,6,0.5,0.4
2025-07-12T1000,2256A,130.3995,46.8307,佳木斯市,发电厂,,43,43,50,17,20,126,,77,77,9,19,5,5,0.5,0.4
2025-07-12T1000,2257A,130.3258,46.7975,佳木斯市,环保局,,46,46,38,20,21,128,,85,85,10,18,8,7,0.6,0.6
2025-07-12T1000,2258A,130.3648,46.8032,佳木斯市,十一中,,48,48,32,12,19,138,,86,86,10,17,5,4,0.6,0.6
2025-07-12T1000,2259A,130.3794,46.7588,佳木斯市,四丰,,,,,,,,,,,10,11,1,1,0.7,0.6
2025-07-12T1000,1252A,120.7436,30.778,嘉兴市,清河小学,,17,6,17,3,8,52,,30,30,10,13,8,7,0.8,0.9
2025-07-12T1000,1253A,120.726,30.7478,嘉兴市,嘉兴学院,,17,16,20,3,10,52,,31,31,6,9,4,4,0.4,0.4
2025-07-12T1000,2872A,120.7846,30.7525,嘉兴市,南湖区残联,,,10,16,6,10,,,,,6,9,7,7,0.5,0.5
2025-07-12T1000,3407A,120.6916,30.7739,嘉兴市,秀洲住建,,16,11,16,6,9,50,,24,24,10,14,6,5,0.6,0.7
2025-07-12T1000,1945A,98.2908,39.7711,嘉峪关市,气象局,颗粒物(PM10),57,63,54,36,24,108,,73,73,8,10,10,7,1.2,1
2025-07-12T1000,2884A,98.2672,39.7978,嘉峪关市,酒钢宾馆,颗粒物(PM10),63,75,61,34,26,101,,86,86,13,10,14,16,0.8,0.6
2025-07-12T1000,3248A,98.2643,39.7724,嘉峪关市,雄关区,颗粒物(PM10),54,57,52,22,17,100,,80,80,12,15,10,10,0.7,0.6
2025-07-12T1000,1383A,113.1064,22.6058,江门市,北街,细颗粒物(PM2.5),57,58,30,40,21,91,,16,16,27,27,4,3,0.7,0.7
2025-07-12T1000,1384A,113.0731,22.5835,江门市,西区,颗粒物(PM10),55,59,25,20,15,94,,19,19,36,35,6,5,0.9,0.7
2025-07-12T1000,1385A,113.0219,22.5311,江门市,圭峰西,细颗粒物(PM2.5),57,59,27,40,16,100,,35,35,22,18,6,4,0.8,0.6
2025-07-12T1000,1386A,113.0828,22.5947,江门市,东湖,,38,29,30,26,20,79,,16,16,31,31,9,8,0.7,0.6
2025-07-12T1000,3311A,113.1075,22.5647,江门市,江海富民,颗粒物(PM10),57,63,36,29,20,104,,29,29,27,33,8,7,0.6,0.6
2025-07-12T1000,3449A,113.05,22.4667,江门市,新会银湖,细颗粒物(PM2.5),53,50,32,37,23,76,,13,13,17,25,2,2,0.8,0.8
2025-07-12T1000,1830A,113.1992,35.2590,焦作市,影视城,,,,,,,,,,,,,,,,
2025-07-12T1000,3169A,113.2725,35.2067,焦作市,太极体育中心,,,,,,,,,,,,,,,,
2025-07-12T1000,3335A,113.3137,35.2641,焦作市,马村街道办,细颗粒物(PM2.5),72,70,68,52,47,109,,78,78,11,13,9,8,0.6,0.6
2025-07-12T1000,3336A,113.2465,35.2373,焦作市,焦作技师学院,颗粒物(PM10),60,69,66,34,34,118,,78,78,11,13,3,3,0.8,0.9
2025-07-12T1000,3477A,113.1656,35.2539,焦作市,中站许衡医院,颗粒物(PM10),52,54,60,34,40,116,,88,88,8,13,8,6,0.5,0.5
2025-07-12T1000,3981A,113.2449,35.1803,焦作市,原李万街道办,颗粒物(PM10),51,51,64,34,35,120,,86,86,10,11,11,10,0.5,0.4
2025-07-12T1000,4264A,113.2340,35.2190,焦作市,新安路1731号,细颗粒物(PM2.5),59,58,65,42,39,126,,86,86,8,9,6,4,0.6,0.7
2025-07-12T1000,1708A,116.3701,23.5345,揭阳市,新兴,,42,42,22,10,9,44,,20,20,11,20,6,6,0.7,0.7
2025-07-12T1000,1709A,116.3264,23.5443,揭阳市,西马,,41,41,20,15,8,46,,24,24,7,15,2,3,0.7,0.7
2025-07-12T1000,1710A,116.3611,23.5626,揭阳市,东兴,,50,50,20,10,7,41,,16,16,9,16,4,4,0.7,0.7
2025-07-12T1000,1711A,116.4151,23.5294,揭阳市,渔湖,,29,29,23,11,10,44,,16,16,5,19,8,8,0.5,0.6
2025-07-12T1000,3320A,116.403,23.5699,揭阳市,曲溪,颗粒物(PM10),54,57,19,20,7,46,,19,19,11,15,7,6,0.7,0.6
2025-07-12T1000,1944A,102.1692,38.5167,金昌市,天庆家园,颗粒物(PM10),59,68,135,25,45,58,,69,65,7,8,10,25,0.7,0.8
2025-07-12T1000,4022A,102.1647,38.5371,金昌市,金川区人防中心,颗粒物(PM10),60,70,144,25,54,49,,57,50,7,7,7,8,0.6,0.6
2025-07-12T1000,4239A,102.1930,38.5319,金昌市,长春路96号,颗粒物(PM10),57,64,143,24,47,61,,63,59,3,4,5,14,0.8,0.5
2025-07-12T1000,1262A,119.647,29.077,金华市,十五中,,29,26,27,17,14,91,,43,43,12,17,2,2,0.5,0.5
2025-07-12T1000,1263A,119.686,29.1029,金华市,监测站,,25,24,25,13,13,79,,26,26,10,15,3,2,0.4,0.4
2025-07-12T1000,3659A,119.656,29.1131,金华市,气象局,,26,26,27,9,10,78,,32,32,9,17,3,4,0.5,0.5
2025-07-12T1000,1767A,121.1115,41.0879,锦州市,南山,,34,29,34,18,20,106,,90,90,15,10,4,9,0.6,0.6
2025-07-12T1000,1768A,121.0604,40.8428,锦州市,开发区,颗粒物(PM10),54,57,52,12,16,111,,107,106,10,13,5,8,0.6,0.7
2025-07-12T1000,1769A,121.1836,41.1119,锦州市,百股街道,,42,38,34,9,13,133,,111,111,14,10,6,8,0.6,0.6
2025-07-12T1000,1770A,121.1178,41.1222,锦州市,天安街道,,35,,37,24,23,112,,96,96,14,12,5,8,0.6,0.7
2025-07-12T1000,1771A,121.1303,41.1386,锦州市,北湖公园,,43,43,35,11,16,107,,93,92,11,9,6,9,0.5,0.6
2025-07-12T1000,2160A,112.85,35.5051,晋城市,自来水公司,颗粒物(PM10),57,63,72,39,37,112,,68,68,9,11,4,4,0.7,0.6
2025-07-12T1000,2161A,112.8318,35.4936,晋城市,白云商贸,颗粒物(PM10),54,58,56,17,24,108,,61,61,10,11,5,5,0.5,0.5
2025-07-12T1000,2162A,112.8508,35.4887,晋城市,市环保局,颗粒物(PM10),54,58,67,34,34,107,,64,64,10,12,6,6,0.4,0.4
2025-07-12T1000,2163A,112.8676,35.4897,晋城市,技术学院,,48,48,48,31,33,100,,54,54,6,9,6,6,0.7,0.6
2025-07-12T1000,2165A,112.8453,35.546,晋城市,白马寺,细颗粒物(PM2.5),57,40,39,40,38,112,,87,87,2,4,5,5,0.5,0.5
2025-07-12T1000,3620A,112.8271,35.4828,晋城市,泽州一中,,39,34,50,27,32,110,,62,62,3,5,3,4,0.8,0.7
2025-07-12T1000,2173A,112.7249,37.7067,晋中市,南都小区,细颗粒物(PM2.5),68,72,64,49,44,95,,80,80,10,6,4,3,0.6,0.6
2025-07-12T1000,2174A,112.6991,37.6982,晋中市,榆次区政府,颗粒物(PM10),57,63,59,34,34,89,,79,79,10,6,8,8,0.6,0.5
2025-07-12T1000,2865A,112.7195,37.6828,晋中市,榆次三中,颗粒物(PM10),53,56,53,34,37,102,,81,79,7,6,7,7,0.6,0.6
2025-07-12T1000,4200A,112.7478,37.6954,晋中市,迎宾街26号,细颗粒物(PM2.5),55,58,53,39,36,105,,75,74,7,6,7,7,0.7,0.6
2025-07-12T1000,2439A,112.2014,31.0481,荆门市,竹园小学,颗粒物(PM10),61,71,50,41,33,84,,79,79,12,9,1,1,0.6,0.5
2025-07-12T1000,2440A,112.1969,30.9891,荆门市,掇刀,"颗粒物(PM10),细颗粒物(PM2.5)",57,64,45,40,33,89,,86,86,15,13,8,7,0.6,0.5
2025-07-12T1000,2441A,112.2213,31.0386,荆门市,石化一小,颗粒物(PM10),59,67,50,36,30,85,,73,73,10,7,14,10,0.3,0.2
2025-07-12T1000,3012A,112.1849,31.0362,荆门市,西山林语,细颗粒物(PM2.5),53,53,45,37,34,92,,87,87,4,3,12,11,0.5,0.4
2025-07-12T1000,3547A,112.1632,31.0138,荆门市,龙泉中学南校,细颗粒物(PM2.5),59,49,44,42,35,90,,90,89,4,5,5,5,0.4,0.3
2025-07-12T1000,1844A,112.2494,30.3197,荆州市,市图书馆,细颗粒物(PM2.5),67,,36,48,32,83,,69,69,6,7,3,4,0.4,0.4
2025-07-12T1000,1845A,112.2008,30.3544,荆州市,市委党校,细颗粒物(PM2.5),53,43,39,37,30,82,,64,64,10,11,4,3,0.6,0.5
2025-07-12T1000,3194A,112.2747,30.3122,荆州市,管委会,细颗粒物(PM2.5),63,,34,45,28,78,,66,66,6,9,5,6,0.5,0.5
2025-07-12T1000,4268A,112.1722,30.3366,荆州市,学苑路85号,细颗粒物(PM2.5),57,,29,40,33,80,,59,59,8,11,5,5,0.4,0.4
2025-07-12T1000,2342A,117.3102,29.3867,景德镇市,王港中学,,,,,,,,,,,,,,,,
2025-07-12T1000,2343A,117.2117,29.2933,景德镇市,老干部活动中心,,19,15,13,6,6,58,,33,33,5,6,5,6,0.6,0.6
2025-07-12T1000,2344A,117.1894,29.2789,景德镇市,兽医站,,22,22,22,7,8,66,,38,38,5,4,4,4,0.6,0.6
2025-07-12T1000,2345A,117.1547,29.2617,景德镇市,台达陶瓷,,20,8,13,7,9,64,,40,40,5,5,2,8,0.5,0.5
2025-07-12T1000,2346A,117.2461,29.2956,景德镇市,陶研所,细颗粒物(PM2.5),73,,15,53,10,65,,31,31,5,5,4,4,0.4,0.5
2025-07-12T1000,1803A,115.9872,29.6815,九江市,十里,,23,18,21,16,21,60,,43,43,8,8,4,4,0.7,0.5
2025-07-12T1000,1804A,115.9584,29.7046,九江市,茅山头,,25,24,26,17,19,49,,40,39,8,7,5,4,0.5,0.5
2025-07-12T1000,1805A,115.9877,29.7295,九江市,西园,,18,17,23,10,14,55,,43,42,14,12,4,5,1.0,1
2025-07-12T1000,1808A,115.9114,29.6038,九江市,综合工业园,,38,38,28,15,14,66,,46,46,10,10,7,6,1.0,0.8
2025-07-12T1000,1809A,116.0721,29.7535,九江市,石化总厂,,28,22,30,19,28,44,,35,34,14,12,7,8,0.4,0.4
2025-07-12T1000,1810A,115.9773,29.5698,九江市,庐山气象台,,18,8,12,3,5,56,,55,52,5,4,6,6,1.1,0.9
2025-07-12T1000,3190A,116.0254,29.6994,九江市,外国语学校,,20,,19,14,18,57,,40,40,8,9,6,5,0.9,0.7
2025-07-12T1000,4253A,116.0102,29.6594,九江市,莲花大道8号,,22,22,17,12,14,51,,39,38,5,3,4,4,0.8,0.6
2025-07-12T1000,4240A,98.4958,39.7339,酒泉市,玉门东路5号,颗粒物(PM10),58,66,61,36,36,108,,80,80,9,9,15,11,0.2,0.3
2025-07-12T1000,4241A,98.5099,39.7506,酒泉市,北大街108号,颗粒物(PM10),68,85,68,28,30,98,,56,56,7,8,11,12,0.3,0.4
2025-07-12T1000,2698A,76.0072,39.4467,喀什地区,巡警大队,颗粒物(PM10),126,202,103,36,16,82,,98,90,23,13,3,3,0.3,0.3
2025-07-12T1000,2699A,75.9755,39.4694,喀什地区,吾办,颗粒物(PM10),122,194,114,42,29,78,,93,86,21,22,8,8,0.5,0.4
2025-07-12T1000,4027A,75.9483,39.4689,喀什地区,老干局,颗粒物(PM10),123,195,98,32,18,82,,95,88,14,10,4,4,0.3,0.5
2025-07-12T1000,1824A,114.3389,34.7781,开封市,肿瘤医院,,42,37,63,29,41,111,,68,68,10,16,2,3,0.5,0.5
2025-07-12T1000,1826A,114.2885,34.7965,开封市,世纪星幼儿园,,50,50,61,21,46,104,,68,68,10,16,5,6,0.5,0.6
2025-07-12T1000,3147A,114.3438,34.8106,开封市,龙亭公园,细颗粒物(PM2.5),63,57,63,45,60,105,,58,58,6,16,4,3,0.5,0.5
2025-07-12T1000,3210A,114.3644,34.7964,开封市,汴京公园,颗粒物(PM10),52,54,71,29,46,100,,57,57,10,16,5,5,0.5,0.5
2025-07-12T1000,3473A,114.2485,34.8306,开封市,技师学院,颗粒物(PM10),57,64,67,22,46,112,,58,58,9,17,5,4,0.5,0.5
2025-07-12T1000,3592A,114.4644,34.7556,开封市,祥符区生态环境局,,50,50,63,34,43,97,,44,44,10,26,5,4,0.5,0.5
2025-07-12T1000,1951A,84.895,45.6094,克拉玛依市,长征新村,,24,18,11,9,4,76,,97,90,16,4,2,3,0.2,0.1
2025-07-12T1000,1952A,84.8988,45.5893,克拉玛依市,南林小区,,23,21,18,7,7,71,,90,82,16,4,5,4,0.2,0.1
2025-07-12T1000,1954A,84.905,44.3396,克拉玛依市,独山子区,,45,45,28,3,9,87,,68,63,14,10,13,8,0.5,0.4
2025-07-12T1000,1955A,85.6979,46.098,克拉玛依市,乌尔禾区商贸楼,,19,13,17,10,7,58,,82,70,8,2,5,5,0.4,0.4
2025-07-12T1000,3612A,85.1045,45.6899,克拉玛依市,白碱滩区新站,,32,32,30,18,21,84,,104,89,15,5,8,8,0.5,0.4
2025-07-12T1000,2697A,76.1454,39.7142,克孜勒苏柯尔克孜自治州,市人民政府,颗粒物(PM10),116,182,108,44,32,91,,97,93,9,10,3,4,0.1,0.1
2025-07-12T1000,3665A,76.1658,39.7157,克孜勒苏柯尔克孜自治州,克州文化中心,颗粒物(PM10),119,188,108,41,27,95,,103,100,6,6,3,5,0.4,0.4
2025-07-12T1000,1450A,102.8204,24.8886,昆明市,呈贡新区,,32,,15,22,17,50,,57,52,14,14,3,5,0.4,0.4
2025-07-12T1000,1451A,102.6251,24.9608,昆明市,西山森林公园,,,,,,,,,,,,,,,,
2025-07-12T1000,1452A,102.7252,25.0902,昆明市,龙泉镇,,18,18,16,10,7,53,,58,56,8,7,1,1,0.3,0.3
2025-07-12T1000,1453A,102.7266,25.0375,昆明市,东风东路,,27,27,23,16,12,56,,61,58,15,12,4,4,0.3,0.3
2025-07-12T1000,1454A,102.6742,25.0669,昆明市,金鼎山,,21,21,16,10,6,61,,63,60,7,8,3,3,0.3,0.3
2025-07-12T1000,1455A,102.6644,25.0401,昆明市,碧鸡广场,,21,21,17,12,10,56,,60,57,10,8,5,5,0.4,0.4
2025-07-12T1000,3179A,102.7494,25.0119,昆明市,官渡区博物馆,,18,15,17,12,12,54,,49,48,12,14,1,2,0.4,0.3
2025-07-12T1000,3375A,102.8017,24.8336,昆明市,青年创业园,,32,32,27,20,16,54,,53,50,9,10,3,3,0.4,0.3
2025-07-12T1000,3550A,102.7997,24.9786,昆明市,昆明学院,颗粒物(PM10),52,54,24,24,11,48,,,,19,14,5,5,0.6,0.4
2025-07-12T1000,3551A,102.5967,24.6736,昆明市,晋宁区生态环境分局,,,,16,12,10,,,73,70,12,10,2,3,0.3,0.3
2025-07-12T1000,3552A,102.6678,24.9856,昆明市,云天化总部,,23,23,19,14,10,57,,59,57,11,11,4,4,0.4,0.3
2025-07-12T1000,1456A,91.1319,29.6514,拉萨市,八廓街,,32,32,20,19,10,72,,61,61,15,18,6,5,0.3,0.3
2025-07-12T1000,1457A,91.1221,29.6747,拉萨市,市环保局,,25,13,18,9,9,79,,78,78,10,14,5,5,0.4,0.4
2025-07-12T1000,1458A,91.0874,29.6475,拉萨市,区监测站,,22,20,17,13,10,69,,78,73,20,21,7,7,0.4,0.4
2025-07-12T1000,1459A,91.1774,29.6541,拉萨市,西藏大学,,23,18,16,9,8,71,,63,63,12,14,10,5,0.2,0.2
2025-07-12T1000,1460A,90.9798,29.6588,拉萨市,区辐射站,,23,14,15,7,8,71,,80,76,10,11,6,6,0.2,0.2
2025-07-12T1000,1461A,91.0834,29.6292,拉萨市,拉萨火车站,,24,14,12,8,8,75,,84,81,13,10,5,5,0.2,0.2
2025-07-12T1000,2520A,109.2203,23.7256,来宾市,来宾技工学校,,28,28,28,11,12,58,,40,40,9,10,8,19,0.6,0.6
2025-07-12T1000,3535A,109.1781,23.7297,来宾市,兴宾区政府,,18,16,19,12,12,44,,32,32,7,10,5,7,0.5,0.6
2025-07-12T1000,4002A,109.2416,23.7461,来宾市,中南小学,,28,27,24,19,14,61,,45,45,8,9,11,15,0.6,0.6
2025-07-12T1000,1477A,104.1373,35.9454,兰州市,榆中兰大校区,,,,,,,,,,,,,,,,
2025-07-12T1000,1479A,103.831,36.0464,兰州市,铁路设计院,,32,31,32,22,20,49,,53,48,24,15,7,7,0.4,0.3
2025-07-12T1000,3241A,103.7439,36.0842,兰州市,百合公园,,24,24,27,11,13,59,,40,38,7,8,3,3,0.2,0.3
2025-07-12T1000,3242A,103.9611,35.998,兰州市,和平,,22,19,25,11,11,68,,48,48,8,6,10,9,0.5,0.5
2025-07-12T1000,4236A,103.6293,36.0938,兰州市,庄浪东路808号,,35,31,34,24,21,54,,34,34,19,16,10,10,0.2,0.3
2025-07-12T1000,4237A,103.7251,36.1043,兰州市,安宁西路88号,,29,29,29,17,16,65,,50,48,8,5,5,5,0.3,0.3
2025-07-12T1000,4238A,103.8470,36.0676,兰州市,北滨河东路1号,,25,25,23,16,18,49,,58,54,25,12,7,6,0.6,0.4
2025-07-12T1000,3245A,103.6633,36.533,兰州新区,新区管委会,,25,24,21,11,10,77,,62,62,6,6,7,8,0.3,0.3
2025-07-12T1000,3246A,103.6975,36.4789,兰州新区,舟曲中学,,24,24,21,12,9,75,,61,61,7,7,5,6,0.3,0.4
2025-07-12T1000,1067A,116.6708,39.5111,廊坊市,药材公司,颗粒物(PM10),57,63,62,34,34,117,,63,63,12,14,4,4,0.4,0.5
2025-07-12T1000,1068A,116.7214,39.5589,廊坊市,开发区,颗粒物(PM10),53,55,53,32,34,105,,47,47,14,19,2,2,0.4,0.6
2025-07-12T1000,1070A,116.7244,39.5269,廊坊市,北华航天学院,颗粒物(PM10),63,76,72,29,37,112,,56,56,8,13,3,2,0.5,0.6
2025-07-12T1000,2919A,116.7022,39.5453,廊坊市,河北工业大学,,45,45,67,27,32,118,,54,54,10,15,6,4,0.4,0.5
2025-07-12T1000,2535A,103.7723,29.5462,乐山市,花湖湾,,36,27,15,25,12,52,,44,41,10,6,3,2,1.0,0.7
2025-07-12T1000,2536A,103.7627,29.5844,乐山市,牛耳桥,,41,41,17,25,12,64,,34,33,16,13,15,7,0.9,0.7
2025-07-12T1000,2537A,103.7508,29.6006,乐山市,市第三水厂,,35,25,29,24,11,50,,31,29,26,16,8,5,1.0,0.7
2025-07-12T1000,2538A,103.7571,29.5664,乐山市,市监测站,,45,45,20,29,13,62,,39,39,14,10,14,8,1.0,0.8
2025-07-12T1000,3361A,103.7311,29.5628,乐山市,理工大学,,,,15,,11,,,83,,,10,,7,,0.5
2025-07-12T1000,2598A,100.2143,26.8576,丽江市,西南郊,,20,16,15,3,17,64,,74,67,16,8,5,5,0.8,0.7
2025-07-12T1000,2599A,100.2497,26.8802,丽江市,丽江古城,,,,20,,10,,,61,53,,11,10,9,0.5,0.4
2025-07-12T1000,2600A,100.2203,26.8906,丽江市,市中心,,16,16,21,3,9,49,,65,54,22,13,8,8,0.7,0.6
2025-07-12T1000,1267A,119.914,28.4514,丽水市,监测站大楼,,18,18,17,3,4,45,,26,26,13,11,5,3,0.4,0.4
2025-07-12T1000,1268A,119.93,28.4586,丽水市,莲都小学,,30,30,14,9,6,45,,29,29,10,8,3,3,0.4,0.3
2025-07-12T1000,1269A,119.879,28.4231,丽水市,余庄前,,22,22,16,13,6,36,,13,13,10,7,4,4,0.4,0.4
2025-07-12T1000,1173A,119.176,34.5885,连云港市,市环境监测站,,35,29,29,19,20,109,,99,99,6,7,3,3,0.3,0.4
2025-07-12T1000,3000A,119.3581,34.6972,连云港市,德源药业,,33,27,26,12,14,103,,97,97,5,7,4,4,0.5,0.5
2025-07-12T1000,3007A,119.178,34.844,连云港市,新城一中,,34,28,30,21,24,107,,103,102,6,7,5,4,0.7,0.8
2025-07-12T1000,3008A,119.3608,34.7519,连云港市,胡沟管理处,,39,39,24,9,14,100,,98,98,4,12,4,5,0.5,0.5
2025-07-12T1000,3009A,119.1478,34.5911,连云港市,矿山设计院,,34,34,29,19,18,102,,94,94,2,2,2,2,0.2,0.2
2025-07-12T1000,3434A,119.2413,34.6539,连云港市,工贸学校,,40,40,34,22,22,110,,98,98,5,6,6,6,0.5,0.6
2025-07-12T1000,3664A,119.4172,34.7341,连云港市,连云街道,,33,32,30,23,21,96,,104,101,8,8,5,5,0.4,0.5
2025-07-12T1000,2571A,102.3431,27.8099,凉山彝族自治州,青龙寺,,21,13,16,3,4,65,,52,52,3,6,5,5,0.5,0.5
2025-07-12T1000,2572A,102.2721,27.8415,凉山彝族自治州,邛海宾馆,,24,16,19,7,8,74,,55,55,7,10,9,9,0.3,0.3
2025-07-12T1000,2573A,102.2625,27.898,凉山彝族自治州,西昌市政府,,21,6,15,3,8,67,,60,60,18,8,6,6,0.3,0.3
2025-07-12T1000,2574A,102.2685,27.8851,凉山彝族自治州,凉山州政府,,21,21,21,10,11,66,,53,53,16,13,10,9,0.5,0.5
2025-07-12T1000,4229A,102.2342,27.8859,凉山彝族自治州,凯乐南路30号,,20,20,20,11,10,56,,34,34,19,19,6,6,0.5,0.5
2025-07-12T1000,2212A,123.2,41.1953,辽阳市,宏伟区,,41,41,28,7,11,128,,97,97,9,8,3,3,0.6,0.6
2025-07-12T1000,2213A,123.1683,41.2495,辽阳市,新华园,,44,41,35,11,15,139,,98,98,10,10,7,6,0.6,0.5
2025-07-12T1000,2214A,123.2354,41.2639,辽阳市,滨河路,,43,34,31,21,17,136,,93,93,7,10,4,3,0.2,0.2
2025-07-12T1000,2215A,123.149,41.2991,辽阳市,铁西工业园,,47,47,46,15,18,113,,74,74,19,11,14,5,1.3,0.7
2025-07-12T1000,2227A,125.1358,42.8845,辽源市,环保局,,38,27,29,6,11,120,,65,65,2,14,7,6,0.3,0.3
2025-07-12T1000,3239A,125.0764,42.9078,辽源市,银鹰制药,,39,25,26,9,15,122,,75,75,8,20,6,17,0.3,0.3
2025-07-12T1000,1625A,115.9848,36.4372,聊城市,区政府,,48,47,42,33,29,108,,68,68,10,13,11,7,0.7,0.7
2025-07-12T1000,2878A,116.0072,36.4343,聊城市,聊大东校,细颗粒物(PM2.5),54,48,47,38,34,100,,59,59,9,24,5,4,0.6,0.6
2025-07-12T1000,3200A,115.9819,36.4978,聊城市,监控中心,,39,38,41,27,26,102,,70,70,9,18,8,7,0.7,0.7
2025-07-12T1000,3513A,116.0445,36.4361,聊城市,九州社区,颗粒物(PM10),52,53,46,31,29,108,,67,67,10,14,9,5,0.5,0.5
2025-07-12T1000,4018A,116.0567,36.4608,聊城市,星美广场,颗粒物(PM10),51,52,53,33,31,102,,70,70,11,15,7,5,0.6,0.6
2025-07-12T1000,2632A,94.3681,29.6376,林芝市,林芝监测站,,,,15,12,9,39,,48,42,12,5,6,6,0.4,0.3
2025-07-12T1000,2633A,94.3616,29.6616,林芝市,林芝人民医院,,18,18,15,10,8,40,,44,37,5,2,4,4,0.4,0.4
2025-07-12T1000,2603A,100.0781,23.8982,临沧市,市环保局,,26,26,20,11,16,38,,25,24,7,6,5,7,0.4,0.3
2025-07-12T1000,2604A,100.0894,23.8822,临沧市,市气象局,,23,22,18,16,14,35,,22,22,12,7,7,9,0.6,0.5
2025-07-12T1000,1733A,111.5531,36.0783,临汾市,临钢医院,,,58,52,,22,90,,57,57,8,12,6,5,,0.7
2025-07-12T1000,1734A,111.5028,36.0714,临汾市,技工学校,细颗粒物(PM2.5),70,70,52,51,39,97,,65,65,7,10,2,2,0.5,0.5
2025-07-12T1000,1736A,111.5018,36.0855,临汾市,市委,颗粒物(PM10),64,77,66,33,25,102,,71,71,6,10,4,4,0.8,0.6
2025-07-12T1000,3018A,111.505,36.1014,临汾市,唐尧大酒店,颗粒物(PM10),58,66,62,31,24,92,,59,59,15,11,2,2,0.5,0.5
2025-07-12T1000,4244A,111.4879,36.0530,临汾市,启星学校,细颗粒物(PM2.5),60,52,51,43,39,97,,64,64,8,10,5,4,0.6,0.6
2025-07-12T1000,4271A,103.2464,35.6123,临夏回族自治州,滨河东路1号,,44,44,43,12,13,46,,25,25,9,9,4,4,0.2,0.3
2025-07-12T1000,4310A,103.2093,35.5995,临夏回族自治州,新华街21号,,35,35,34,20,18,51,,38,37,9,6,6,5,0.3,0.2
2025-07-12T1000,1618A,118.3429,35.0532,临沂市,沂河小区,,30,27,34,18,26,94,,83,82,10,12,10,9,0.3,0.4
2025-07-12T1000,1619A,118.295,35.0583,临沂市,鲁南制药厂,,31,19,30,18,24,99,,91,90,5,8,9,9,0.3,0.4
2025-07-12T1000,1620A,118.2794,34.9976,临沂市,新光毛纺厂,,33,17,22,15,23,105,,93,93,8,9,8,8,0.3,0.4
2025-07-12T1000,1621A,118.3956,35.0888,临沂市,河东保险公司,,,22,30,8,16,,,79,78,8,12,,7,0.5,0.6
2025-07-12T1000,3370A,118.3564,35.0215,临沂市,十里堡居委,,34,19,25,12,18,107,,95,95,9,10,10,9,0.4,0.5
2025-07-12T1000,3496A,118.3604,35.1084,临沂市,南坊新区,,30,29,35,9,18,96,,82,81,9,14,10,10,0.3,0.4
2025-07-12T1000,3860A,118.3920,35.0300,临沂市,皇山花园小区,,32,24,28,18,22,100,,89,89,8,10,11,10,0.3,0.3
2025-07-12T1000,1870A,109.4856,24.3895,柳州市,柳东小学,,23,23,21,14,12,45,,37,34,9,6,13,5,0.6,0.5
2025-07-12T1000,1871A,109.4157,24.3277,柳州市,环保监测站,,,,21,,14,,,75,,,8,,8,,0.5
2025-07-12T1000,1872A,109.389,24.341,柳州市,河西水厂,,45,45,25,24,14,38,,39,33,19,12,13,8,0.4,0.4
2025-07-12T1000,1873A,109.4311,24.2921,柳州市,市四中,,29,29,21,15,12,33,,44,37,23,13,8,7,0.6,0.4
2025-07-12T1000,1874A,109.4006,24.3631,柳州市,市九中,,48,48,29,25,15,37,,33,27,17,10,8,5,0.5,0.4
2025-07-12T1000,1875A,109.4958,24.3134,柳州市,古亭山,,25,25,17,10,10,23,,29,21,21,12,8,5,0.6,0.5
2025-07-12T1000,3402A,109.5422,24.3996,柳州市,市二中,,35,35,22,21,13,37,,37,33,18,12,8,8,0.6,0.6
2025-07-12T1000,2307A,116.5079,31.737,六安市,监测大楼,,30,30,26,17,18,47,,35,35,2,3,4,4,0.2,0.2
2025-07-12T1000,2308A,116.4738,31.7643,六安市,皖西学院,,19,19,25,3,17,49,,36,36,2,4,3,3,0,0.1
2025-07-12T1000,2309A,116.4996,31.7905,六安市,朝阳厂,,31,31,27,17,17,48,,35,35,7,8,3,3,0.3,0.3
2025-07-12T1000,2310A,116.5567,31.7886,六安市,开发区,,29,,17,20,18,46,,32,32,3,5,4,4,0.3,0.2
2025-07-12T1000,2576A,104.8,26.5892,六盘水市,窑上,,44,44,29,7,4,68,,30,30,3,4,5,5,0.3,0.3
2025-07-12T1000,2577A,104.83,26.5917,六盘水市,黄土坡,,20,19,16,6,8,64,,47,47,8,10,10,9,0.4,0.4
2025-07-12T1000,2578A,104.89,26.5939,六盘水市,水钢,,31,31,21,11,9,72,,56,56,4,10,10,11,0.3,0.4
2025-07-12T1000,2579A,104.8475,26.5894,六盘水市,民中,,25,20,13,17,7,55,,49,49,16,15,8,9,0.4,0.4
2025-07-12T1000,2580A,104.9544,26.5506,六盘水市,双水,,23,17,15,15,7,71,,44,44,4,9,10,10,0.4,0.5
2025-07-12T1000,2335A,117.0189,25.1181,龙岩市,龙岩师专,,,,,,,,,,,,,,,,
2025-07-12T1000,2336A,117.0217,25.1033,龙岩市,龙岩市监测站,颗粒物(PM10),53,56,15,20,14,13,,10,10,20,13,7,7,0.7,0.6
2025-07-12T1000,2337A,117.0258,25.0661,龙岩市,闽西职业技术学院,,30,23,18,21,14,17,,11,11,16,11,5,6,0.7,0.6
2025-07-12T1000,2338A,117.0196,25.0306,龙岩市,龙岩学院,,33,28,20,23,12,17,,8,8,14,13,4,5,0.8,0.7
2025-07-12T1000,2665A,105.0822,33.3261,陇南市,汉王镇固水子,,,,,,,,,,,,,,,,
2025-07-12T1000,2885A,104.9339,33.3826,陇南市,滨江中学,,23,22,30,11,15,73,,61,60,5,3,7,5,0.5,0.5
2025-07-12T1000,3247A,104.955,33.371,陇南市,市总工会,,34,34,32,13,11,77,,68,65,6,3,6,6,0.3,0.2
2025-07-12T1000,2487A,111.9589,27.8901,娄底市,电视发射台,,32,32,49,15,21,66,,70,62,6,6,7,6,0.2,0.2
2025-07-12T1000,2488A,111.9975,27.725,娄底市,市监测站,,46,,35,32,25,66,,64,59,7,9,2,4,0.6,0.5
2025-07-12T1000,2489A,112.0194,27.7314,娄底市,市委党校,细颗粒物(PM2.5),54,42,33,38,24,64,,95,84,10,7,6,2,0.7,0.6
2025-07-12T1000,2490A,111.9561,27.7569,娄底市,涟钢,,35,,36,24,27,61,,58,53,17,12,13,13,1.5,1.5
2025-07-12T1000,2491A,111.9892,27.7044,娄底市,市政府,细颗粒物(PM2.5),62,,32,44,27,80,,81,74,3,3,7,7,0.6,0.6
2025-07-12T1000,1893A,105.4324,28.9634,泸州市,九狮山,,30,30,36,11,21,73,,50,50,9,8,5,4,0.5,0.4
2025-07-12T1000,1894A,105.4427,28.9063,泸州市,小市上码头,,31,31,19,13,6,48,,47,47,16,10,2,2,0.2,0.1
2025-07-12T1000,1895A,105.4241,28.8573,泸州市,兰田宪桥,,33,33,20,12,10,40,,39,39,10,8,8,8,0.6,0.5
2025-07-12T1000,1896A,105.4379,28.8833,泸州市,市环监站,,30,30,16,20,11,45,,48,46,13,11,4,4,0.2,0.3
2025-07-12T1000,4272A,105.3689,28.7783,泸州市,纳溪中医医院,,19,19,19,12,13,53,,38,38,14,11,4,4,0.6,0.5
2025-07-12T1000,2183A,111.1406,37.5211,吕梁市,环保局,,,,64,,43,,,100,,,18,,3,,0.7
2025-07-12T1000,2185A,111.1297,37.5136,吕梁市,自来水公司,颗粒物(PM10),57,64,73,37,40,75,,23,23,15,22,9,6,0.7,0.6
2025-07-12T1000,2867A,111.1283,37.51,吕梁市,马茂庄小学,颗粒物(PM10),66,81,84,44,44,78,,23,23,18,32,10,7,0.7,0.6
2025-07-12T1000,1812A,112.3931,34.6516,洛阳市,市委党校,细颗粒物(PM2.5),65,62,51,47,36,100,,36,36,17,20,9,7,0.5,0.5
2025-07-12T1000,1815A,112.494,34.6886,洛阳市,河南林校,细颗粒物(PM2.5),72,71,65,52,41,107,,51,51,21,25,10,8,0.7,0.7
2025-07-12T1000,1816A,112.3844,34.623,洛阳市,开发区管委会,颗粒物(PM10),68,85,52,27,27,99,,36,36,12,14,8,5,0.6,0.6
2025-07-12T1000,1817A,112.4267,34.6258,洛阳市,市委新办公区,细颗粒物(PM2.5),77,63,55,56,46,99,,53,53,17,18,14,11,0.3,0.3
2025-07-12T1000,3340A,112.6005,34.6326,洛阳市,伊滨,颗粒物(PM10),64,78,75,44,38,101,,32,32,13,19,6,4,0.6,0.6
2025-07-12T1000,3341A,112.4951,34.6332,洛阳市,中移产业园,细颗粒物(PM2.5),74,67,54,54,42,96,,45,45,15,19,9,7,0.9,0.9
2025-07-12T1000,3593A,112.5736,34.8993,洛阳市,吉利监测站,,,,68,,45,110,,41,41,,12,13,7,0.5,0.5
2025-07-12T1000,3635A,112.3677,34.662,洛阳市,河科大西苑校区,颗粒物(PM10),61,72,56,41,31,98,,34,34,14,19,13,8,0.7,0.7
2025-07-12T1000,3636A,112.4388,34.6781,洛阳市,英才小学,细颗粒物(PM2.5),72,92,61,52,40,92,,50,50,18,17,18,15,0.3,0.2
2025-07-12T1000,4214A,112.4600,34.6949,洛阳市,春都路1号院,细颗粒物(PM2.5),65,72,58,47,35,98,,50,50,12,14,8,5,0.5,0.5
2025-07-12T1000,2399A,114.051,33.5699,漯河市,三五一五工厂,,43,32,53,30,39,91,,63,63,8,10,6,7,0.5,0.5
2025-07-12T1000,2400A,114.0055,33.5698,漯河市,漯河大学,颗粒物(PM10),55,60,58,27,37,93,,69,69,8,11,6,6,0.5,0.4
2025-07-12T1000,2401A,114.0138,33.5828,漯河市,市水利局,,41,41,53,27,39,88,,63,63,6,9,5,6,0.6,0.5
2025-07-12T1000,2402A,114.0261,33.5698,漯河市,市广电局,,,,53,25,41,,,66,64,5,8,,4,0.5,0.4
2025-07-12T1000,3478A,113.9749,33.5664,漯河市,市图书馆,细颗粒物(PM2.5),65,,51,47,45,91,,70,70,8,8,7,7,0.5,0.4
2025-07-12T1000,4250A,114.0892,33.5882,漯河市,韶山路11号,颗粒物(PM10),56,61,55,22,44,89,,50,50,8,19,4,4,0.5,0.4
2025-07-12T1000,1798A,118.5092,31.6837,马鞍山市,湖东路四小,,34,34,28,19,18,55,,39,39,7,6,6,6,0.4,0.4
2025-07-12T1000,1799A,118.5024,31.6449,马鞍山市,开发区,,37,37,27,19,16,65,,43,43,5,6,6,6,0.4,0.4
2025-07-12T1000,1802A,118.6245,31.7241,马鞍山市,濮塘,,40,40,27,26,16,55,,38,38,5,6,8,8,0.7,0.7
2025-07-12T1000,3633A,118.4918,31.6809,马鞍山市,雨山,,29,29,27,19,15,55,,40,40,7,7,6,5,0.3,0.2
2025-07-12T1000,4191A,118.5274,31.72227,马鞍山市,慈湖高新区,,35,35,27,18,16,54,,39,39,5,7,7,6,0.4,0.4
2025-07-12T1000,1686A,111.0286,21.4688,茂名市,电白南海,,36,36,33,22,22,67,,35,34,9,12,7,5,0.6,0.5
2025-07-12T1000,1687A,110.9294,21.6533,茂名市,茂石化七小,,31,31,18,14,8,50,,48,48,14,11,7,5,0.5,0.5
2025-07-12T1000,1688A,110.9107,21.6687,茂名市,健康路,,32,27,17,22,12,49,,52,49,17,9,18,7,0.8,0.6
2025-07-12T1000,1689A,110.8592,21.6828,茂名市,高岭,,34,34,31,14,11,36,,27,24,12,13,16,10,0.5,0.5
2025-07-12T1000,3450A,111.01,21.5165,茂名市,电白水东,,29,29,28,17,18,59,,41,41,14,15,7,8,0.7,0.5
2025-07-12T1000,2539A,104.0308,30.0478,眉山市,黑龙滩水库,,34,34,25,22,7,35,,16,16,6,7,3,3,0.5,0.4
2025-07-12T1000,2540A,103.8416,30.0874,眉山市,气象局,,36,36,25,17,9,58,,24,24,14,15,14,3,0.6,0.5
2025-07-12T1000,3137A,103.8578,30.0744,眉山市,市委党校,,29,29,17,19,9,50,,26,26,22,16,17,7,0.7,0.6
2025-07-12T1000,3148A,103.8291,30.0564,眉山市,区人社局,,39,39,30,9,6,60,,,,22,21,11,12,1.0,1
2025-07-12T1000,1690A,116.1231,24.3284,梅州市,梅江月梅,,13,,10,9,8,19,,23,18,7,6,6,7,0.7,0.6
2025-07-12T1000,1691A,116.0797,24.2719,梅州市,梅县新城,,12,8,11,8,10,18,,22,22,14,12,6,6,0.6,0.5
2025-07-12T1000,1692A,116.1248,24.2654,梅州市,环境监控中心,,20,20,17,11,11,11,,15,11,19,11,8,4,0.5,0.5
2025-07-12T1000,3315A,116.1233,24.2991,梅州市,梅龙,,15,,8,10,4,18,,23,18,10,6,6,6,0.8,0.7
2025-07-12T1000,1878A,104.7778,31.4741,绵阳市,富乐山,,34,34,19,19,10,40,,8,8,16,13,9,8,0.6,0.6
2025-07-12T1000,1880A,104.6697,31.4668,绵阳市,高新区自来水公司,,28,28,25,3,8,34,,13,13,15,14,8,8,0.5,0.5
2025-07-12T1000,1881A,104.7287,31.5075,绵阳市,三水厂,,47,47,20,26,14,27,,8,7,17,16,6,6,0.6,0.5
2025-07-12T1000,3491A,104.69,31.5322,绵阳市,西科大附属小学,,30,30,23,12,12,39,,14,14,13,18,7,7,0.6,0.5
2025-07-12T1000,3492A,104.5648,31.5343,绵阳市,安州区旅游局,,35,35,27,12,12,49,,16,16,14,11,3,8,0.4,0.3
2025-07-12T1000,4226A,104.7651,31.4531,绵阳市,绵阳市气象局,,40,40,23,16,13,33,,17,15,16,13,6,11,0.5,0.5
2025-07-12T1000,1784A,129.61,44.561,牡丹江市,环保大楼,,25,12,14,3,8,80,,40,40,8,9,3,3,0.4,0.3
2025-07-12T1000,1785A,129.6115,44.5782,牡丹江市,文化广场,,25,,12,8,12,77,,38,38,10,12,6,5,0.5,0.4
2025-07-12T1000,1786A,129.5904,44.5963,牡丹江市,第一医院,,25,10,27,6,16,78,,40,40,11,11,7,7,0.4,0.4
2025-07-12T1000,1787A,129.6364,44.6075,牡丹江市,机车工厂,,24,7,14,7,9,76,,39,39,9,10,4,4,0.4,0.4
2025-07-12T1000,1788A,129.6386,44.5462,牡丹江市,第一中学,,25,8,16,3,9,78,,36,36,6,10,5,4,0.5,0.5
2025-07-12T1000,2531A,105.0703,29.61,内江市,市监测站,,18,17,18,12,12,57,,30,30,11,10,2,2,0.7,0.4
2025-07-12T1000,2532A,105.0717,29.5947,内江市,东兴区政府,,19,19,14,12,6,52,,36,35,12,12,5,5,0.7,0.5
2025-07-12T1000,2533A,105.0653,29.5817,内江市,内江二中,,39,,16,27,14,51,,31,29,14,14,5,4,0.7,0.5
2025-07-12T1000,2534A,105.0406,29.5822,内江市,内江日报社,,30,,14,21,12,49,,29,26,11,16,3,2,0.6,0.4
2025-07-12T1000,2628A,92.0657,31.4846,那曲市,那曲监测站,,49,40,29,34,21,70,,74,67,17,12,14,11,0.4,0.3
2025-07-12T1000,4243A,92.0515,31.4787,那曲市,那曲市委宣传部,,26,24,17,15,12,83,,85,77,10,7,6,5,0.3,0.3
2025-07-12T1000,1290A,115.8931,28.6843,南昌市,省外办,,26,26,32,17,17,57,,44,44,10,9,5,6,0.4,0.5
2025-07-12T1000,1291A,115.8886,28.7003,南昌市,省林业公司,,19,17,22,7,11,58,,43,43,7,8,10,10,0.5,0.5
2025-07-12T1000,1292A,115.8126,28.7442,南昌市,林科所,,18,12,15,3,10,57,,50,48,6,4,5,5,0.3,0.2
2025-07-12T1000,1294A,115.8518,28.687,南昌市,建工学校,,29,,27,20,15,64,,48,48,9,12,8,8,0.7,0.7
2025-07-12T1000,1295A,115.8921,28.6424,南昌市,象湖,,21,,17,9,10,65,,52,52,5,5,7,6,0.4,0.5
2025-07-12T1000,1296A,115.7423,28.7996,南昌市,武术学校,,23,23,26,9,14,54,,36,36,3,4,9,8,0.4,0.4
2025-07-12T1000,3046A,115.9084,28.6062,南昌市,机电学校,,22,22,26,9,13,68,,53,53,7,7,5,4,0.6,0.6
2025-07-12T1000,3690A,115.9721,28.7031,南昌市,外国语学校,,23,23,24,10,11,65,,54,53,4,4,10,10,0.4,0.4
2025-07-12T1000,4192A,115.9316,28.68677,南昌市,南京东路235号,,30,30,28,7,12,59,,49,48,8,9,4,4,0.5,0.5
2025-07-12T1000,1905A,106.056,30.8064,南充市,西山风景区,,,,,,,,,,,,,,,,
2025-07-12T1000,1906A,106.0789,30.8023,南充市,南充市委,,35,35,27,20,16,57,,33,33,10,10,6,5,0.4,0.4
2025-07-12T1000,1907A,106.1031,30.8217,南充市,南充炼油厂,,29,29,21,11,13,48,,34,34,10,12,6,7,0.4,0.5
2025-07-12T1000,4227A,106.1083,30.7884,南充市,梨树横街98号,,42,42,24,24,13,49,,34,33,8,9,2,2,0.4,0.3
2025-07-12T1000,4304A,106.1172,30.843,南充市,清泉寺北路188号,,43,43,23,21,15,48,,37,35,10,8,2,3,0.3,0.2
2025-07-12T1000,4305A,106.067,30.7616,南充市,同庆路1号,,34,34,24,17,12,52,,29,29,9,12,2,3,0.3,0.3
2025-07-12T1000,1151A,118.8086,32.1065,南京市,迈皋桥,,34,34,23,22,15,44,,32,32,10,16,4,4,0.6,0.6
2025-07-12T1000,1152A,118.7538,32.0551,南京市,草场门,,39,31,24,27,17,49,,34,34,12,13,8,7,0.5,0.5
2025-07-12T1000,1153A,118.7794,32.0745,南京市,山西路,,34,34,28,17,10,50,,36,36,18,18,5,4,0.4,0.4
2025-07-12T1000,1154A,118.7752,32.0023,南京市,中华门,,31,31,22,17,12,43,,25,25,6,9,7,7,0.5,0.5
2025-07-12T1000,1155A,118.8109,32.0309,南京市,瑞金路,,39,29,19,27,17,47,,32,32,19,12,6,6,0.4,0.4
2025-07-12T1000,1156A,118.7997,32.0754,南京市,玄武湖,,48,48,29,17,9,35,,25,25,12,11,6,6,0.3,0.4
2025-07-12T1000,1157A,118.6414,32.0931,南京市,浦口,,,35,28,20,11,,,36,36,7,10,4,4,0.3,0.3
2025-07-12T1000,1158A,118.7356,31.9996,南京市,奥体中心,,37,37,25,22,16,53,,37,37,7,9,4,4,0.2,0.2
2025-07-12T1000,1159A,118.9125,32.1028,南京市,仙林大学城,,31,31,28,12,10,45,,35,35,9,9,9,7,0.5,0.5
2025-07-12T1000,3422A,118.8436,31.9198,南京市,江宁彩虹桥,,34,34,27,14,16,50,,30,30,8,10,4,4,0.5,0.5
2025-07-12T1000,3427A,118.8554,32.3578,南京市,六合雄州,,38,34,26,26,13,57,,47,47,11,9,5,3,0.7,0.6
2025-07-12T1000,4249A,118.8708,31.3402,南京市,汶溪路181号,,26,24,22,18,17,61,,33,33,11,14,5,5,0.7,0.8
2025-07-12T1000,4312A,119.019,31.6512,南京市,中山西路1号,,32,29,18,22,16,53,,32,32,7,8,3,4,0.6,0.5
2025-07-12T1000,1401A,108.3103,22.7881,南宁市,二十一中,,16,14,25,10,15,51,,33,33,13,16,4,5,0.6,0.7
2025-07-12T1000,1402A,108.3141,22.8528,南宁市,北湖,,20,,21,9,13,61,,39,39,8,13,4,7,0.4,0.5
2025-07-12T1000,1403A,108.3206,22.8225,南宁市,市监测站,,18,,21,12,15,48,,34,34,15,17,7,8,0.5,0.6
2025-07-12T1000,1404A,108.3829,22.8037,南宁市,大自然花园,,19,12,20,11,12,58,,37,37,7,11,4,5,0.5,0.5
2025-07-12T1000,1405A,108.4394,22.7904,南宁市,仙葫,,20,16,23,14,14,56,,32,32,9,14,7,7,0.6,0.7
2025-07-12T1000,1406A,108.2397,22.8467,南宁市,区农职院,,19,17,22,11,10,60,,40,40,7,11,4,6,0.3,0.4
2025-07-12T1000,1407A,108.3275,22.735,南宁市,英华嘉园,,19,14,26,7,16,59,,28,28,8,18,1,3,0.4,0.5
2025-07-12T1000,3401A,108.4834,22.7618,南宁市,红星社区,,18,13,20,6,13,57,,35,35,6,7,2,3,0.4,0.4
2025-07-12T1000,4221A,108.2177,22.7774,南宁市,乐贤路16号,,,22,22,12,15,55,,34,34,10,13,,8,0.6,0.6
2025-07-12T1000,2331A,118.0966,26.6761,南平市,茫荡山,,,,,,,,,,,,,,,,
2025-07-12T1000,2332A,118.1681,26.6369,南平市,南平市监测站,,18,18,12,8,7,18,,14,13,12,8,4,5,0.6,0.5
2025-07-12T1000,2333A,118.1825,26.6489,南平市,南平铝业有限公司,,16,16,17,9,2,26,,16,16,15,11,4,5,0.6,0.5
2025-07-12T1000,2334A,118.1756,26.6272,南平市,南平七中,,,22,15,6,6,21,,20,17,,5,5,5,0.6,0.5
2025-07-12T1000,1168A,120.9098,31.9663,南通市,狼山街道,,19,16,21,8,11,59,,46,46,5,6,3,3,0.5,0.5
2025-07-12T1000,1169A,120.86,32.0005,南通市,虹桥,,18,15,18,9,13,56,,47,47,8,9,2,2,0.5,0.6
2025-07-12T1000,1170A,120.87,32.02,南通市,城中,,,,27,,14,,,41,41,6,7,4,4,0.4,0.4
2025-07-12T1000,1171A,120.94,31.93,南通市,星湖花园,,17,11,15,6,13,53,,43,43,5,7,2,2,0.4,0.4
2025-07-12T1000,1172A,120.81,32.0417,南通市,紫琅学院,,21,21,23,3,9,54,,44,44,5,7,4,5,0.5,0.6
2025-07-12T1000,3291A,121.067,32.062,南通市,通州监测站,,,,20,,12,,,58,,,3,,6,,0.7
2025-07-12T1000,3432A,120.9348,31.9883,南通市,环境教育馆,,22,22,24,6,9,54,,40,40,4,6,2,2,0.1,0.1
2025-07-12T1000,2404A,112.5224,33.0122,南阳市,瓦房庄,颗粒物(PM10),58,65,54,39,37,89,,62,62,8,7,8,7,0.5,0.4
2025-07-12T1000,2405A,112.5003,32.9735,南阳市,汉画馆,颗粒物(PM10),55,59,52,35,32,85,,62,62,11,9,8,7,0.5,0.4
2025-07-12T1000,2406A,112.5573,33.027,南阳市,气象站,细颗粒物(PM2.5),58,58,57,41,37,93,,60,60,8,9,7,7,0.5,0.4
2025-07-12T1000,2407A,112.5481,32.9689,南阳市,理工学院,颗粒物(PM10),55,60,52,29,30,87,,67,67,9,8,7,7,0.5,0.3
2025-07-12T1000,4008A,112.5234,32.9922,南阳市,卧龙区政府,颗粒物(PM10),72,94,57,41,35,87,,63,63,12,10,7,6,0.6,0.4
2025-07-12T1000,1234A,121.8358,29.911,宁波市,区环保大楼,,18,18,20,3,9,45,,28,28,11,24,3,4,0.4,0.4
2025-07-12T1000,1235A,121.56,29.82,宁波市,万里学院,,14,12,15,6,10,44,,26,26,16,25,4,4,0.4,0.4
2025-07-12T1000,1236A,121.713,29.9572,宁波市,龙赛医院,,13,13,19,6,7,32,,35,35,15,11,4,5,0.4,0.3
2025-07-12T1000,1239A,121.633,29.7733,宁波市,钱湖水厂,,16,6,20,3,8,49,,19,19,11,18,4,4,0.4,0.5
2025-07-12T1000,1240A,121.5856,29.8635,宁波市,太古小学,,12,,15,3,8,37,,28,28,11,14,4,4,0.5,0.5
2025-07-12T1000,1241A,121.524,29.8674,宁波市,市环境监测中心,,12,12,18,6,7,35,,23,23,14,17,4,5,0.5,0.5
2025-07-12T1000,2871A,121.6147,29.9017,宁波市,万里国际学校,,14,8,20,6,7,26,,25,25,28,19,3,4,0.5,0.4
2025-07-12T1000,3710A,121.5594,29.8975,宁波市,白沙活动中心,,,9,14,3,7,,,24,23,11,13,3,3,0.4,0.4
2025-07-12T1000,2339A,119.5001,26.6946,宁德市,金涵水库,,,,,,,,,,,,,,,,
2025-07-12T1000,2341A,119.5388,26.6612,宁德市,宁德市监测站,,11,6,14,3,7,18,,25,22,21,12,4,4,0.7,0.6
2025-07-12T1000,3209A,119.5231,26.6562,宁德市,宁德一中,,9,8,15,6,8,28,,22,22,8,6,4,4,0.5,0.4
2025-07-12T1000,2618A,98.8601,25.8567,怒江傈僳族自治州,州监测站,,20,15,21,11,12,61,,43,43,6,8,9,8,0.4,0.4
2025-07-12T1000,2619A,98.8546,25.8417,怒江傈僳族自治州,泸水一中,,13,12,19,3,10,39,,25,25,12,11,6,5,0.4,0.5
2025-07-12T1000,1888A,101.6891,26.571,攀枝花市,弄弄坪,颗粒物(PM10),51,52,31,11,11,43,,63,57,28,14,12,12,0.7,0.7
2025-07-12T1000,1889A,101.5769,26.5928,攀枝花市,河门口,,30,30,24,11,11,64,,63,59,12,9,16,12,0.7,0.7
2025-07-12T1000,1890A,101.7169,26.585,攀枝花市,炳草岗,,31,31,32,18,13,51,,49,42,22,14,15,10,0.7,0.6
2025-07-12T1000,1891A,101.7369,26.5008,攀枝花市,仁和,,,33,25,,13,,,45,40,24,13,31,20,2.4,1.1
2025-07-12T1000,2835A,101.7227,26.567,攀枝花市,四十中小,,18,17,25,8,12,56,,68,64,17,10,22,14,0.8,0.8
2025-07-12T1000,1604A,122.0303,41.1489,盘锦市,开发区,,35,29,32,15,16,109,,92,92,8,10,9,8,0.5,0.5
2025-07-12T1000,1605A,122.0485,41.0883,盘锦市,兴隆台,,42,42,33,15,14,115,,92,92,14,14,6,6,0.3,0.4
2025-07-12T1000,1606A,121.8297,41.1028,盘锦市,新生街道,,40,27,27,17,20,125,,101,101,10,8,5,4,0.4,0.5
2025-07-12T1000,1832A,113.3257,33.742,平顶山市,新华旅馆,,47,47,60,27,31,99,,64,64,11,13,4,4,0.4,0.3
2025-07-12T1000,1833A,113.2919,33.737,平顶山市,规划设计院,细颗粒物(PM2.5),57,51,53,40,40,94,,66,66,10,10,9,7,0.7,0.6
2025-07-12T1000,1834A,113.182,33.774,平顶山市,平顶山工学院,,,,47,36,37,101,,65,65,8,10,,7,0.5,0.4
2025-07-12T1000,3204A,113.3025,33.73,平顶山市,规划局,,48,48,55,27,32,100,,70,70,8,9,5,6,0.6,0.5
2025-07-12T1000,3594A,112.8867,33.9116,平顶山市,石龙区,,44,44,57,25,38,98,,68,68,7,14,8,7,0.5,0.6
2025-07-12T1000,2656A,106.6692,35.5461,平凉市,聚贤嘉苑,,44,44,46,23,16,66,,55,50,10,14,7,8,0.7,0.7
2025-07-12T1000,2657A,106.7021,35.5307,平凉市,博物馆,,,,39,,21,,,56,56,,14,,9,0.7,0.8
2025-07-12T1000,2347A,114.0997,27.5002,萍乡市,武功山,,18,,8,6,9,57,,36,36,4,4,15,16,0.4,0.3
2025-07-12T1000,2348A,113.8385,27.6434,萍乡市,中医院,,26,,25,18,15,58,,57,54,6,5,16,18,0.7,0.7
2025-07-12T1000,2349A,113.8493,27.6253,萍乡市,市政府车库,,22,20,18,15,19,56,,58,55,7,6,15,12,0.5,0.7
2025-07-12T1000,2350A,113.8676,27.6435,萍乡市,市环保局,,32,,25,22,17,56,,59,55,6,110,11,16,0.6,0.6
2025-07-12T1000,2351A,113.866,27.6198,萍乡市,安源区政府,,29,29,30,11,20,57,,56,53,7,7,6,8,2.5,2.3
2025-07-12T1000,2319A,119.0141,25.4325,莆田市,荔城区仓后路,,12,8,10,7,2,36,,33,33,11,10,4,4,0.6,0.5
2025-07-12T1000,2320A,119.0015,25.4553,莆田市,莆田市监测站,,13,6,10,3,1,41,,35,35,10,11,4,4,0.5,0.4
2025-07-12T1000,2321A,119.1119,25.4561,莆田市,涵江区六中,,14,14,10,6,5,39,,38,38,11,11,3,3,0.4,0.3
2025-07-12T1000,2322A,119.1013,25.3215,莆田市,秀屿区政府,,13,13,8,3,4,40,,45,44,13,6,3,3,0.5,0.4
2025-07-12T1000,2323A,118.981,25.4792,莆田市,东圳水库,,,,,,,,,,,,,,,,
2025-07-12T1000,2392A,115.0312,35.7636,濮阳市,环保局,,34,33,53,20,37,106,,72,72,9,13,5,5,0.4,0.5
2025-07-12T1000,2394A,115.0574,35.7609,濮阳市,油田运输公司,,39,35,57,27,36,104,,70,70,8,11,4,4,0.4,0.4
2025-07-12T1000,3021A,115,35.7668,濮阳市,濮水河管理处,,38,37,53,26,40,97,,52,52,13,18,5,5,0.3,0.4
2025-07-12T1000,4216A,115.0924,35.7686,濮阳市,任丘路479号,,39,39,59,20,39,101,,68,68,6,10,6,8,0.3,0.3
2025-07-12T1000,2601A,100.98,22.7633,普洱市,市环保局,,32,32,30,6,12,34,,13,13,13,9,5,5,0.7,0.6
2025-07-12T1000,2602A,100.9817,22.8322,普洱市,普洱第二中学,,38,38,27,14,14,42,,15,15,10,9,7,7,0.5,0.5
2025-07-12T1000,2262A,131.0518,45.8751,七台河市,新一中,,43,24,27,3,14,135,,46,46,10,19,11,10,1.0,0.9
2025-07-12T1000,3345A,131.0577,45.7879,七台河市,中波台,,42,42,31,6,7,94,,31,31,11,20,8,8,0.6,0.5
2025-07-12T1000,3637A,131.0176,45.7761,七台河市,人民广场,,31,29,30,3,14,97,,42,42,9,14,14,14,0.6,0.6
2025-07-12T1000,3684A,130.8781,45.8222,七台河市,新建矿广场,,33,27,25,3,9,104,,49,49,12,21,10,10,0.7,0.5
2025-07-12T1000,1779A,123.9305,47.3636,齐齐哈尔市,安居小区,,28,19,30,12,13,89,,84,84,9,12,2,3,0.6,0.7
2025-07-12T1000,1780A,123.9488,47.3386,齐齐哈尔市,中心广场,,31,23,29,3,9,97,,84,84,8,10,8,9,0.5,0.5
2025-07-12T1000,1781A,123.9483,47.3227,齐齐哈尔市,农牧车辆厂,,30,17,30,12,12,96,,77,77,7,8,6,6,0.2,0.2
2025-07-12T1000,1783A,123.945,47.2988,齐齐哈尔市,市环境监测站,,29,16,23,13,13,92,,78,78,8,8,4,5,0.3,0.3
2025-07-12T1000,3662A,123.6333,47.2075,齐齐哈尔市,富区青少年活动中心,,,9,21,7,13,78,,83,80,11,8,,5,0.3,0.4
2025-07-12T1000,2591A,107.9783,26.5747,黔东南苗族侗族自治州,市环境监测站,,27,27,18,16,11,54,,32,32,6,7,4,3,0.5,0.5
2025-07-12T1000,2881A,107.8908,26.5311,黔东南苗族侗族自治州,凯里学院,,31,31,15,12,9,67,,26,26,8,10,2,2,0.3,0.3
2025-07-12T1000,2593A,107.5228,26.2403,黔南布依族苗族自治州,小围寨,,,,16,,6,,,43,,,7,,2,,0.4
2025-07-12T1000,3538A,107.5175,26.2978,黔南布依族苗族自治州,沙坝,,24,24,20,12,4,54,,32,32,9,8,4,4,0.3,0.4
2025-07-12T1000,2589A,104.9022,25.0925,黔西南布依族苗族自治州,场坝街,,23,22,23,3,11,73,,51,51,9,12,15,26,0.3,0.3
2025-07-12T1000,2590A,104.8811,25.0992,黔西南布依族苗族自治州,坪东大道,,24,11,18,11,14,76,,53,53,9,14,7,4,0.2,0.2
2025-07-12T1000,2502A,108.6236,21.9667,钦州市,市环保站,,24,24,24,14,10,37,,33,31,10,10,1,2,0.4,0.8
2025-07-12T1000,2503A,108.6549,21.9481,钦州市,沙埠小学,,,20,29,13,18,,,35,33,8,10,,2,,1
2025-07-12T1000,2504A,108.5989,21.7431,钦州市,港区一小,,26,26,32,11,13,31,,36,33,17,18,4,2,0.6,0.6
2025-07-12T1000,3404A,108.5959,21.9633,钦州市,北职校,,31,31,23,17,12,36,,30,29,10,8,4,4,1.7,0.7
2025-07-12T1000,1043A,119.7493,40.0116,秦皇岛市,第一关,,33,25,32,15,16,104,,68,68,21,19,6,4,0.3,0.3
2025-07-12T1000,1044A,119.5897,39.9499,秦皇岛市,监测站,,40,40,46,8,9,120,,58,58,13,22,4,5,0.3,0.3
2025-07-12T1000,1046A,119.5251,39.9041,秦皇岛市,建设大厦,,36,25,31,6,10,114,,50,48,11,16,5,5,0.5,0.5
2025-07-12T1000,3132A,119.610547,39.943889,秦皇岛市,文明里,,35,34,38,3,10,112,,93,85,11,8,4,5,0.3,0.2
2025-07-12T1000,4198A,119.5090,39.8253,秦皇岛市,北戴河轮滑馆,,36,27,36,6,11,113,,84,80,11,8,3,2,0.4,0.3
2025-07-12T1000,1307A,120.6659,36.2403,青岛市,仰口,,34,32,28,15,16,107,,86,86,6,5,10,8,0.4,0.4
2025-07-12T1000,1310A,120.4134,36.0658,青岛市,市南区东部子站,,,24,22,14,14,94,,86,81,,4,9,8,0.2,0.2
2025-07-12T1000,1311A,120.3664,36.1032,青岛市,四方区子站,,44,44,27,27,20,127,,94,94,26,14,7,9,0.3,0.3
2025-07-12T1000,1312A,120.2994,36.054,青岛市,市南区西部子站,,39,39,28,27,18,78,,69,67,23,15,8,8,0.6,0.6
2025-07-12T1000,1313A,120.4581,36.0858,青岛市,崂山区子站,,30,22,25,14,14,95,,76,73,2,4,8,7,0.3,0.3
2025-07-12T1000,1315A,120.3999,36.3083,青岛市,城阳区子站,,44,44,30,20,17,122,,80,80,8,9,7,6,0.3,0.3
2025-07-12T1000,1966A,120.0405,35.8735,青岛市,黄岛区4号,,39,39,25,22,15,122,,101,100,15,8,12,9,0.4,0.4
2025-07-12T1000,3362A,120.5014,36.4034,青岛市,即墨2号,,38,28,27,26,17,111,,81,81,8,6,3,2,0.2,0.2
2025-07-12T1000,3642A,120.3503,36.0736,青岛市,市北区南部,,32,28,29,22,16,98,,81,78,17,13,8,8,0.5,0.5
2025-07-12T1000,3643A,120.3948,36.1805,青岛市,李沧区北部,,49,36,26,34,22,118,,75,75,11,8,6,5,0.3,0.3
2025-07-12T1000,4290A,120.1969,35.9546,青岛市,珠江路669号,,39,39,28,27,21,95,,70,65,28,13,5,5,0.5,0.6
2025-07-12T1000,1702A,113.0426,23.691,清远市,环保大楼,,25,25,25,8,7,49,,41,41,12,14,9,8,0.6,0.6
2025-07-12T1000,1703A,113.0208,23.7106,清远市,凤城街办,,,20,19,10,9,,,34,34,19,19,,8,0.6,0.5
2025-07-12T1000,3025A,113.0477,23.6344,清远市,技师学院,,22,22,19,11,9,35,,26,24,16,17,13,12,0.6,0.5
2025-07-12T1000,3318A,112.9903,23.7403,清远市,清新太和,,18,16,14,9,6,56,,36,36,10,10,4,5,0.6,0.5
2025-07-12T1000,3455A,113.076,23.7198,清远市,清城东城,,17,17,17,8,7,49,,28,28,9,10,6,6,0.5,0.6
2025-07-12T1000,2661A,107.6325,35.7357,庆阳市,庆阳五中,,40,40,32,23,20,86,,88,84,4,5,7,6,0.4,0.4
2025-07-12T1000,2662A,107.6364,35.7067,庆阳市,市环保局,,34,34,32,23,21,89,,92,89,2,4,11,12,0.6,0.6
2025-07-12T1000,1916A,103.7897,25.5035,曲靖市,环境监测站,,39,39,26,21,11,44,,43,42,14,10,12,8,0.5,0.4
2025-07-12T1000,1917A,103.8,25.5364,曲靖市,烟厂办公区,,31,31,21,10,12,46,,47,46,14,9,16,7,0.7,0.5
2025-07-12T1000,3376A,103.7947,25.462,曲靖市,南苑二区,,22,22,18,8,11,60,,,,9,9,4,4,0.6,0.6
2025-07-12T1000,3377A,103.7444,25.5261,曲靖市,曲靖师范学院,,45,33,22,31,15,43,,42,41,13,12,12,8,0.7,0.4
2025-07-12T1000,1264A,118.8692,28.9398,衢州市,环保大楼,,34,34,21,20,12,73,,33,33,11,11,4,4,0.4,0.3
2025-07-12T1000,1265A,118.8709,28.9666,衢州市,实验学校,,28,26,18,19,10,74,,38,38,8,10,4,3,0.4,0.4
2025-07-12T1000,1266A,118.8621,28.9808,衢州市,衢州学院,,25,18,15,12,9,77,,42,42,6,10,4,4,0.3,0.3
2025-07-12T1000,1611A,118.5819,24.9117,泉州市,涂山街,,,,8,7,7,31,,23,23,16,12,2,2,0.7,0.6
2025-07-12T1000,1612A,118.5972,24.8978,泉州市,津头埔,,17,17,8,3,6,30,,24,24,18,11,2,1,0.6,0.5
2025-07-12T1000,1613A,118.6663,24.9424,泉州市,万安,,9,8,9,6,4,26,,14,14,15,16,1,1,0.6,0.6
2025-07-12T1000,1614A,118.6117,24.9604,泉州市,清源山,,,,,,,,,,,,,,,,
2025-07-12T1000,3529A,118.6333,24.9264,泉州市,城华南路,,9,8,7,3,4,27,,19,19,17,12,3,3,0.4,0.3
2025-07-12T1000,2626A,88.8876,29.2718,日喀则市,日喀则监测站,,15,10,7,3,4,48,,44,44,10,9,14,14,0.3,0.3
2025-07-12T1000,3726A,88.8781,29.2426,日喀则市,林业技术推广中心,,21,15,9,6,3,67,,68,65,3,2,8,8,0.2,0.2
2025-07-12T1000,1659A,119.471,35.4209,日照市,监测站,,36,22,23,21,20,114,,105,102,8,7,6,5,0.6,0.6
2025-07-12T1000,1660A,119.523,35.4216,日照市,市政府广场,,35,24,22,24,17,103,,98,94,2,2,6,5,0.6,0.7
2025-07-12T1000,1661A,119.5587,35.4044,日照市,港务局,,40,27,23,26,24,126,,105,103,8,4,8,6,0.7,0.6
2025-07-12T1000,3507A,119.5328,35.4625,日照市,职业技术学院,,35,27,23,19,17,110,,97,95,6,5,6,4,0.5,0.6
2025-07-12T1000,3604A,119.3266,35.1044,日照市,岚山环保分局,,35,34,29,16,15,111,,97,97,7,7,9,8,0.6,0.6
2025-07-12T1000,1835A,111.1922,34.7752,三门峡市,市政府,细颗粒物(PM2.5),70,66,60,51,40,103,,59,59,10,16,6,5,0.5,0.5
2025-07-12T1000,1836A,111.1587,34.7942,三门峡市,开发区,细颗粒物(PM2.5),65,66,61,47,42,103,,66,66,9,13,10,9,0.4,0.3
2025-07-12T1000,1838A,111.143,34.7955,三门峡市,风景区,,,,,,,,,,,,,,,,
2025-07-12T1000,3039A,111.1911,34.7829,三门峡市,三门峡市第一小学,,,76,60,35,33,98,,59,59,11,13,,2,0.5,0.5
2025-07-12T1000,3598A,111.1,34.7167,三门峡市,富达温泉假日酒店,颗粒物(PM10),62,74,54,42,37,98,,76,76,5,7,7,7,0.3,0.4
2025-07-12T1000,2324A,117.6211,26.2625,三明市,三钢,,23,16,14,16,12,33,,23,23,10,10,8,7,0.6,0.6
2025-07-12T1000,2325A,117.635,26.2714,三明市,三明二中,,18,13,15,12,8,30,,22,21,12,10,7,6,0.6,0.5
2025-07-12T1000,2326A,117.6028,26.2378,三明市,三元区政府,,14,14,13,7,6,33,,26,25,11,10,9,5,0.4,0.4
2025-07-12T1000,2327A,117.7275,26.3108,三明市,洋溪,,,,,,,,,,,,,,,,
2025-07-12T1000,1876A,109.5078,18.2489,三亚市,河东子站,,15,12,21,6,7,47,,42,40,3,6,2,2,0.4,0.4
2025-07-12T1000,1877A,109.4964,18.2681,三亚市,河西子站,,14,14,18,3,8,42,,33,31,6,6,3,2,0.4,0.3
2025-07-12T1000,3540A,109.7348,18.3443,三亚市,君悦子站,,26,26,27,7,9,48,,43,43,5,7,1,1,0.2,0.2
2025-07-12T1000,2624A,91.7608,29.2313,山南市,山南监测站,,20,13,8,8,6,62,,74,69,10,4,5,3,0.2,0.1
2025-07-12T1000,2625A,91.7706,29.2436,山南市,山南人民医院,,30,30,13,13,7,61,,72,68,12,4,6,4,0.1,0
2025-07-12T1000,1674A,116.6794,23.3667,汕头市,金平子站,,34,34,20,15,8,53,,40,40,6,15,2,3,0.6,0.7
2025-07-12T1000,1675A,116.7244,23.3633,汕头市,龙湖子站,,35,35,19,13,7,52,,46,46,5,10,5,5,0.6,0.7
2025-07-12T1000,1676A,116.7258,23.2775,汕头市,濠江子站,颗粒物(PM10),56,61,27,20,11,48,,39,39,5,7,4,4,0.7,0.7
2025-07-12T1000,1677A,116.7519,23.4714,汕头市,澄海子站,,40,40,18,15,8,48,,40,40,6,12,2,2,0.6,0.6
2025-07-12T1000,1678A,116.6092,23.2539,汕头市,潮阳子站,,29,29,24,18,12,52,,41,41,5,9,4,4,0.7,0.7
2025-07-12T1000,3444A,116.454,23.2684,汕头市,潮南峡山,,33,33,19,18,10,50,,34,34,5,11,5,5,0.7,0.7
2025-07-12T1000,3624A,116.4069,23.2533,汕头市,潮南子站,,30,30,24,14,11,51,,43,43,2,11,3,3,0.5,0.6
2025-07-12T1000,1693A,115.3653,22.775,汕尾市,市环保局,,30,30,19,11,7,54,,61,57,3,5,2,2,0.5,0.6
2025-07-12T1000,1694A,115.3706,22.7898,汕尾市,市政府,,23,21,19,16,11,57,,67,62,7,7,4,3,0.5,0.5
2025-07-12T1000,1695A,115.3622,22.7925,汕尾市,新城中学,,23,23,22,15,9,56,,63,59,5,6,3,3,0.5,0.5
2025-07-12T1000,2645A,109.9154,33.8715,商洛市,监测站,,,51,35,32,22,,,16,16,,10,,6,0.5,0.5
2025-07-12T1000,3045A,109.9643,33.8471,商洛市,商州区中学,颗粒物(PM10),59,67,41,31,22,54,,18,18,12,14,8,6,0.7,0.5
2025-07-12T1000,2408A,115.6702,34.4285,商丘市,环境监测站,,33,33,52,15,35,94,,57,57,4,10,3,3,0.5,0.4
2025-07-12T1000,2409A,115.6458,34.4045,商丘市,粮食局,,36,32,46,25,34,93,,61,61,4,6,3,3,0.5,0.4
2025-07-12T1000,2410A,115.6293,34.3948,商丘市,睢阳区环保局,,48,48,57,23,31,94,,64,64,7,8,4,4,0.3,0.2
2025-07-12T1000,3171A,115.6071,34.4465,商丘市,梁园区档案局,,42,42,50,17,31,89,,59,59,6,9,3,3,0.5,0.5
2025-07-12T1000,1141A,121.4,31.238,上海市,普陀,,17,13,17,8,11,52,,45,45,8,11,5,5,0.3,0.3
2025-07-12T1000,1142A,121.478,31.2036,上海市,十五厂,,15,14,17,7,10,47,,43,43,15,14,8,7,0.5,0.5
2025-07-12T1000,1143A,121.467,31.3008,上海市,虹口,,16,15,18,3,10,49,,39,39,7,10,9,9,0.5,0.6
2025-07-12T1000,1147A,121.425,31.2261,上海市,静安监测站,,16,13,16,8,11,49,,41,41,10,12,4,4,0.6,0.6
2025-07-12T1000,1148A,121.703,31.1907,上海市,浦东川沙,,20,20,16,9,8,47,,44,44,10,9,9,9,0.7,0.7
2025-07-12T1000,1149A,121.533,31.2284,上海市,浦东新区监测站,,17,14,15,6,7,52,,43,43,7,8,7,7,0.6,0.4
2025-07-12T1000,1150A,121.577,31.2071,上海市,浦东张江,,25,25,30,3,10,53,,49,49,9,10,6,6,0.7,0.6
2025-07-12T1000,3265A,121.4316,31.3322,上海市,宝山庙行,,18,13,16,7,8,56,,42,42,7,13,6,6,0.3,0.3
2025-07-12T1000,3266A,121.8791,31.4662,上海市,崇明上实东滩,,17,12,18,6,10,54,,52,52,3,3,2,3,0.5,0.5
2025-07-12T1000,3268A,121.3162,31.2838,上海市,嘉定南翔,,,17,29,3,10,,,39,39,5,11,6,6,0.4,0.4
2025-07-12T1000,3269A,121.3359,30.7456,上海市,金山新城,,,12,20,7,9,55,,42,42,,7,4,3,0.5,0.5
2025-07-12T1000,3270A,121.4996,31.0739,上海市,闵行浦江,,17,11,15,6,7,53,,42,42,5,8,4,4,0.8,0.8
2025-07-12T1000,3271A,121.2886,31.1663,上海市,青浦徐泾,,16,12,16,7,9,50,,39,39,8,11,6,6,0.4,0.5
2025-07-12T1000,3272A,121.2186,31.0378,上海市,松江图书馆,,16,9,15,3,8,50,,40,40,7,8,7,7,0.4,0.4
2025-07-12T1000,3273A,121.3902,31.2059,上海市,长宁仙霞,,15,12,16,6,7,48,,40,40,11,11,4,5,0.4,0.4
2025-07-12T1000,3274A,121.7965,31.0507,上海市,浦东惠南,,16,12,12,6,7,49,,46,46,9,7,9,9,0.9,0.8
2025-07-12T1000,3544A,121.4891,30.925,上海市,奉贤南桥新城,,19,9,14,9,9,58,,44,44,2,5,6,6,0.6,0.6
