timepoint,stationcode,longitude,latitude,area,positionname,primarypollutant,aqi,pm10,pm10_24h,pm2_5,pm2_5_24h,o3,o3_24h,o3_8h,o3_8h_24h,no2,no2_24h,so2,so2_24h,co,co_24h
2023-03-20T17:00:00,1001A,116.3621,39.8784,北京市,万寿西宫,细颗粒物(PM2.5),137,134,150,104,112,102,96,63,63,25,64,2,3,0.6,0.8
2023-03-20T17:00:00,1002A,116.2202,40.2915,北京市,定陵,细颗粒物(PM2.5),180,180,142,136,104,121,105,90,90,40,29,3,2,0.8,0.6
2023-03-20T17:00:00,1003A,116.4174,39.9289,北京市,东四,细颗粒物(PM2.5),130,147,161,99,109,108,104,72,72,22,54,3,6,0.3,0.7
2023-03-20T17:00:00,1004A,116.4072,39.8863,北京市,天坛,细颗粒物(PM2.5),129,134,150,98,109,103,100,70,70,20,52,2,2,0.5,0.7
2023-03-20T17:00:00,1005A,116.462,39.9365,北京市,农展馆,细颗粒物(PM2.5),133,140,160,101,110,103,97,63,63,21,57,2,4,0.5,0.7
2023-03-20T17:00:00,1006A,116.3392,39.9295,北京市,官园,细颗粒物(PM2.5),134,142,154,102,111,127,120,84,84,22,52,1,7,0.4,0.6
2023-03-20T17:00:00,1007A,116.2878,39.9611,北京市,海淀万柳,细颗粒物(PM2.5),132,135,155,100,106,90,88,61,61,23,46,2,2,0.5,0.6
2023-03-20T17:00:00,1008A,116.6636,40.135,北京市,顺义新城,细颗粒物(PM2.5),137,143,163,104,116,110,110,71,71,18,37,3,4,0.5,0.7
2023-03-20T17:00:00,1009A,116.6275,40.3275,北京市,怀柔镇,细颗粒物(PM2.5),156,152,148,119,110,96,93,70,70,32,35,1,3,0.4,0.5
2023-03-20T17:00:00,1010A,116.2296,40.217,北京市,昌平镇,细颗粒物(PM2.5),162,167,157,123,110,140,113,102,102,42,35,3,3,0.6,0.5
2023-03-20T17:00:00,1011A,116.3966,39.9821,北京市,奥体中心,细颗粒物(PM2.5),128,130,152,97,112,116,100,72,72,23,51,1,2,0.5,0.8
2023-03-20T17:00:00,1012A,116.184,39.9136,北京市,古城,细颗粒物(PM2.5),135,144,158,103,106,116,113,80,80,17,47,1,2,0.8,0.9
2023-03-20T17:00:00,1015A,117.1444,39.1661,天津市,勤俭道,细颗粒物(PM2.5),97,101,132,72,94,128,127,100,100,16,36,6,8,0.8,1
2023-03-20T17:00:00,1017A,117.237,39.1082,天津市,大直沽八号路,细颗粒物(PM2.5),94,101,129,70,95,136,136,111,111,15,41,7,9,0.6,1
2023-03-20T17:00:00,1018A,117.202,39.0927,天津市,前进道,细颗粒物(PM2.5),88,90,125,65,90,143,141,115,115,18,41,4,6,0.6,0.8
2023-03-20T17:00:00,1019A,117.1837,39.2133,天津市,淮河道,细颗粒物(PM2.5),132,158,160,100,99,134,102,104,104,31,46,8,9,0.7,0.9
2023-03-20T17:00:00,1021A,117.307,39.0877,天津市,跃进路,细颗粒物(PM2.5),90,87,132,67,99,142,140,115,115,17,43,8,11,0.7,0.9
2023-03-20T17:00:00,1023A,117.707,39.0343,天津市,第四大街,细颗粒物(PM2.5),94,114,146,70,100,129,115,105,105,41,72,32,12,0.7,0.8
2023-03-20T17:00:00,1024A,117.457,38.8394,天津市,永明路,细颗粒物(PM2.5),72,76,115,52,83,140,140,116,116,22,44,6,11,0.3,0.4
2023-03-20T17:00:00,1026A,117.764,39.1587,天津市,汉北路,细颗粒物(PM2.5),150,177,156,115,115,130,107,106,106,46,60,13,12,,0.9
2023-03-20T17:00:00,1027A,117.157,38.9194,天津市,团泊洼,细颗粒物(PM2.5),70,78,122,51,83,122,122,104,104,14,42,8,7,1.0,1
2023-03-20T17:00:00,1029A,114.4422,38.0444,石家庄市,职工医院,细颗粒物(PM2.5),152,123,124,116,93,141,141,97,97,22,36,24,10,1.6,0.9
2023-03-20T17:00:00,1030A,114.6063,38.0266,石家庄市,高新区,细颗粒物(PM2.5),94,113,110,70,73,134,134,87,87,14,26,12,7,1.1,0.7
2023-03-20T17:00:00,1031A,114.4898,38.1328,石家庄市,西北水源,细颗粒物(PM2.5),147,134,145,112,97,140,140,97,97,23,42,17,5,1.6,0.9
2023-03-20T17:00:00,1032A,114.4586,38.0058,石家庄市,西南高教,细颗粒物(PM2.5),150,136,107,115,89,142,141,90,90,26,38,22,8,1.7,0.9
2023-03-20T17:00:00,1033A,114.5331,38.0178,石家庄市,世纪公园,细颗粒物(PM2.5),117,126,108,88,75,133,131,82,82,25,33,18,10,1.3,0.8
2023-03-20T17:00:00,1034A,114.509,38.0457,石家庄市,人民会堂,细颗粒物(PM2.5),138,138,121,105,82,138,138,111,111,20,26,,9,1.4,0.8
2023-03-20T17:00:00,1035A,114.3524,37.8911,石家庄市,封龙山,细颗粒物(PM2.5),119,136,116,90,77,139,134,105,102,39,27,33,15,1.8,1.1
2023-03-20T17:00:00,1037A,118.131,39.6363,唐山市,雷达站,细颗粒物(PM2.5),110,120,152,83,111,116,116,96,96,26,42,5,11,0.6,0.9
2023-03-20T17:00:00,1038A,118.1725,39.6334,唐山市,物资局,,,119,156,73,110,99,98,84,84,,66,9,14,0.7,1
2023-03-20T17:00:00,1040A,118.1705,39.6506,唐山市,十二中,细颗粒物(PM2.5),120,104,154,91,117,116,116,94,94,19,42,6,11,0.6,0.9
2023-03-20T17:00:00,1041A,118.1869,39.622,唐山市,小山,细颗粒物(PM2.5),108,111,154,81,115,123,123,103,103,30,58,,10,,0.9
2023-03-20T17:00:00,1042A,119.5134,39.8207,秦皇岛市,北戴河环保局,细颗粒物(PM2.5),123,116,113,93,95,124,124,94,84,43,42,7,5,0.8,0.7
2023-03-20T17:00:00,1043A,119.7493,40.0116,秦皇岛市,第一关,细颗粒物(PM2.5),144,125,136,110,110,116,116,82,82,25,45,8,7,0.8,0.9
2023-03-20T17:00:00,1044A,119.5897,39.9499,秦皇岛市,监测站,细颗粒物(PM2.5),128,127,129,97,101,111,111,102,76,49,46,8,9,0.7,0.9
2023-03-20T17:00:00,1046A,119.5251,39.9041,秦皇岛市,建设大厦,细颗粒物(PM2.5),104,120,135,78,79,127,127,98,90,35,41,10,13,0.7,1
2023-03-20T17:00:00,1048A,114.5302,36.6116,邯郸市,东污水处理厂,,47,47,87,32,62,101,90,83,83,15,23,7,14,0.5,0.5
2023-03-20T17:00:00,1049A,114.4918,36.5713,邯郸市,矿院,,45,42,82,31,67,100,87,76,76,9,14,8,8,0.5,0.5
2023-03-20T17:00:00,1050A,114.484,36.6133,邯郸市,丛台公园,,45,42,74,31,64,102,90,77,77,11,16,6,7,0.6,0.6
2023-03-20T17:00:00,1051A,115.493,38.8632,保定市,游泳馆,细颗粒物(PM2.5),139,134,119,106,95,132,132,88,88,18,33,14,10,0.3,0.2
2023-03-20T17:00:00,1052A,115.5213,38.8959,保定市,华电二区,细颗粒物(PM2.5),132,132,113,100,86,126,126,95,95,17,34,11,9,,0.6
2023-03-20T17:00:00,1053A,115.4713,38.9108,保定市,接待中心,细颗粒物(PM2.5),110,136,121,83,83,130,130,86,86,15,26,11,9,0.5,0.5
2023-03-20T17:00:00,1054A,115.4612,38.8416,保定市,地表水厂,细颗粒物(PM2.5),129,148,139,98,88,122,122,83,83,21,41,13,11,0.8,0.7
2023-03-20T17:00:00,1056A,115.5086,38.8639,保定市,监测站,细颗粒物(PM2.5),150,139,123,115,92,142,142,94,94,15,37,12,11,0.7,0.5
2023-03-20T17:00:00,1057A,114.8883,40.8336,张家口市,人民公园,颗粒物(PM10),66,82,88,29,50,139,135,117,117,37,30,8,6,0.8,0.8
2023-03-20T17:00:00,1059A,114.8687,40.8042,张家口市,五金库,颗粒物(PM10),70,90,91,41,54,132,131,110,110,19,27,11,10,0.6,0.5
2023-03-20T17:00:00,1060A,114.8902,40.762,张家口市,世纪豪园,颗粒物(PM10),69,88,114,47,64,141,138,114,114,26,28,6,6,0.4,0.6
2023-03-20T17:00:00,1061A,114.8916,40.8661,张家口市,北泵房,颗粒物(PM10),70,89,101,39,60,145,143,124,124,21,28,11,12,0.5,0.5
2023-03-20T17:00:00,1062A,117.9531,40.9081,承德市,铁路,细颗粒物(PM2.5),113,136,104,85,64,110,92,84,84,32,42,13,12,0.7,0.6
2023-03-20T17:00:00,1063A,117.9392,40.9763,承德市,中国银行,细颗粒物(PM2.5),128,131,113,97,71,118,105,94,94,19,34,8,8,0.6,0.6
2023-03-20T17:00:00,1064A,117.9503,40.928,承德市,开发区,细颗粒物(PM2.5),129,129,107,98,71,121,102,88,88,31,43,12,11,0.8,0.7
2023-03-20T17:00:00,1065A,117.8051,40.9655,承德市,文化中心,细颗粒物(PM2.5),100,132,122,75,71,118,113,89,89,15,38,13,19,0.6,0.7
2023-03-20T17:00:00,1066A,117.9268,41.0026,承德市,离宫,细颗粒物(PM2.5),127,138,101,96,63,125,110,103,103,18,23,14,13,0.7,0.5
2023-03-20T17:00:00,1067A,116.6708,39.5111,廊坊市,药材公司,细颗粒物(PM2.5),123,161,141,93,84,112,112,85,85,17,41,5,5,0.8,0.7
2023-03-20T17:00:00,1068A,116.7214,39.5589,廊坊市,开发区,细颗粒物(PM2.5),130,131,133,99,94,122,122,92,92,26,60,12,12,0.9,0.8
2023-03-20T17:00:00,1070A,116.7244,39.5269,廊坊市,北华航天学院,,,,141,,97,114,114,83,83,23,51,,7,,0.8
2023-03-20T17:00:00,1071A,116.8842,38.2991,沧州市,沧县城建局,,,,92,,60,150,150,123,123,,23,9,8,0.3,0.7
2023-03-20T17:00:00,1072A,116.8584,38.3254,沧州市,电视转播站,细颗粒物(PM2.5),73,65,89,53,65,149,149,120,120,22,27,8,9,0.2,0.2
2023-03-20T17:00:00,1073A,116.8709,38.3228,沧州市,市环保局,"颗粒物(PM10),细颗粒物(PM2.5)",65,80,94,47,58,146,146,118,118,25,32,4,6,0.6,0.6
2023-03-20T17:00:00,1074A,115.6838,37.7541,衡水市,电机北厂,颗粒物(PM10),57,64,89,34,70,116,113,104,104,9,13,3,3,0.5,0.3
2023-03-20T17:00:00,1075A,115.6303,37.7316,衡水市,市监测站,"颗粒物(PM10),细颗粒物(PM2.5)",68,86,104,49,61,125,117,106,106,6,11,6,6,0.6,0.5
2023-03-20T17:00:00,1077A,114.4704,37.0886,邢台市,达活泉,细颗粒物(PM2.5),63,64,98,45,79,113,103,92,92,8,21,10,14,0.6,0.9
2023-03-20T17:00:00,1078A,114.5062,37.0349,邢台市,邢师高专,,46,46,91,22,68,109,102,85,85,9,21,6,7,0.5,0.8
2023-03-20T17:00:00,1079A,114.5237,37.0851,邢台市,路桥公司,,48,42,93,33,71,107,97,84,84,12,22,7,8,0.6,0.8
2023-03-20T17:00:00,1080A,114.4725,37.0719,邢台市,市环保局,细颗粒物(PM2.5),58,63,99,41,73,115,107,88,88,9,20,8,10,0.5,0.8
2023-03-20T17:00:00,1081A,112.522,37.8873,太原市,尖草坪,颗粒物(PM10),54,57,128,31,77,137,134,93,93,21,46,6,12,0.5,1
2023-03-20T17:00:00,1083A,112.434,38.0108,太原市,上兰,,,,,,,,,,,,,,,,
2023-03-20T17:00:00,1084A,112.469,37.7124,太原市,晋源,颗粒物(PM10),55,60,125,33,75,141,139,98,98,19,43,14,16,0.6,0.9
2023-03-20T17:00:00,1085A,112.5583,37.7394,太原市,小店,颗粒物(PM10),57,63,149,30,87,143,139,104,104,20,55,5,12,0.5,1
2023-03-20T17:00:00,1086A,112.5369,37.8692,太原市,桃园,,50,50,132,30,82,140,136,96,96,18,51,5,10,0.6,1
2023-03-20T17:00:00,1087A,112.57,37.8195,太原市,坞城,颗粒物(PM10),66,81,139,36,81,144,137,103,103,25,51,11,17,0.5,0.9
2023-03-20T17:00:00,1088A,112.549,37.9854,太原市,南寨,颗粒物(PM10),77,104,128,45,79,132,132,94,94,29,49,18,11,1.3,1.1
2023-03-20T17:00:00,1090A,111.6507,40.7517,呼和浩特市,呼市一监,颗粒物(PM10),62,73,74,30,32,137,137,116,116,11,39,12,10,0.4,0.6
2023-03-20T17:00:00,1091A,111.6572,40.8033,呼和浩特市,小召,颗粒物(PM10),67,83,62,35,24,128,125,104,104,20,43,19,14,0.5,0.6
2023-03-20T17:00:00,1094A,111.7516,40.8369,呼和浩特市,如意水处理厂,颗粒物(PM10),68,86,60,34,21,134,133,107,107,12,42,13,12,0.4,0.5
2023-03-20T17:00:00,1095A,111.7276,40.8062,呼和浩特市,二十九中,颗粒物(PM10),70,89,64,34,27,140,135,109,109,15,40,9,9,0.5,0.6
2023-03-20T17:00:00,1096A,111.5512,40.7866,呼和浩特市,工大金川校区,颗粒物(PM10),86,122,76,42,26,131,130,104,104,11,31,11,12,0.5,0.6
2023-03-20T17:00:00,1097A,111.717,40.7612,呼和浩特市,化肥厂生活区,颗粒物(PM10),66,81,78,33,31,124,121,102,102,17,35,10,10,0.4,0.6
2023-03-20T17:00:00,1098A,123.6836,41.9339,沈阳市,森林路,,,,,,,,,,,,,,,,
2023-03-20T17:00:00,1099A,123.505,41.7406,沈阳市,浑南东路,细颗粒物(PM2.5),118,134,117,89,74,128,117,121,121,29,39,18,22,0.8,1
2023-03-20T17:00:00,1100A,123.4231,41.6989,沈阳市,新秀街,细颗粒物(PM2.5),105,144,126,79,64,114,107,107,107,24,31,20,29,0.9,1
2023-03-20T17:00:00,1102A,123.5903,41.8411,沈阳市,东陵路,细颗粒物(PM2.5),113,116,99,85,64,127,117,121,120,24,33,15,21,0.9,1.2
2023-03-20T17:00:00,1103A,123.4264,41.8467,沈阳市,陵东街,细颗粒物(PM2.5),108,129,115,81,68,116,112,112,112,29,36,17,21,0.8,1
2023-03-20T17:00:00,1104A,123.4114,41.7653,沈阳市,文化路,细颗粒物(PM2.5),133,152,130,101,82,118,114,112,112,26,30,15,22,0.8,1
2023-03-20T17:00:00,1105A,123.4678,41.7867,沈阳市,小河沿,细颗粒物(PM2.5),117,142,118,88,70,115,111,110,110,28,38,13,19,0.8,1
2023-03-20T17:00:00,1106A,123.4017,41.7972,沈阳市,太原街,细颗粒物(PM2.5),137,152,132,104,86,109,100,102,102,35,36,22,26,0.9,1
2023-03-20T17:00:00,1108A,123.3783,41.9228,沈阳市,京沈街,细颗粒物(PM2.5),118,135,104,89,81,123,109,113,113,27,35,15,21,1.0,1.1
2023-03-20T17:00:00,1109A,121.612,38.9741,大连市,甘井子,细颗粒物(PM2.5),107,140,129,80,69,115,99,98,98,51,39,12,10,0.8,0.8
2023-03-20T17:00:00,1110A,121.565,38.9511,大连市,周水子,细颗粒物(PM2.5),100,125,114,75,69,113,84,92,92,67,52,16,14,1.0,0.9
2023-03-20T17:00:00,1111A,121.5637,38.8845,大连市,星海三站,细颗粒物(PM2.5),80,102,100,59,60,98,87,88,88,57,44,7,7,0.7,0.6
2023-03-20T17:00:00,1112A,121.6302,38.9117,大连市,青泥洼桥,细颗粒物(PM2.5),95,108,102,71,66,132,132,119,119,26,32,11,17,0.7,0.7
2023-03-20T17:00:00,1113A,121.6251,38.8638,大连市,傅家庄,细颗粒物(PM2.5),89,120,117,66,65,125,107,100,100,35,30,9,10,0.9,0.9
2023-03-20T17:00:00,1114A,121.5213,38.8661,大连市,七贤岭,细颗粒物(PM2.5),107,119,106,80,70,135,84,112,109,53,37,8,9,0.7,0.7
2023-03-20T17:00:00,1115A,121.2529,38.8061,大连市,旅顺,细颗粒物(PM2.5),109,123,95,82,71,116,94,102,102,48,35,9,10,0.7,0.7
2023-03-20T17:00:00,1116A,121.7485,39.1311,大连市,金州,细颗粒物(PM2.5),109,124,103,82,67,126,101,99,99,46,32,17,15,,0.9
2023-03-20T17:00:00,1117A,121.7811,39.0496,大连市,开发区,细颗粒物(PM2.5),88,98,92,65,65,118,118,99,99,41,44,8,8,0.7,0.7
2023-03-20T17:00:00,1118A,121.9762,39.0631,大连市,双D港,细颗粒物(PM2.5),93,95,90,69,66,93,87,89,89,46,39,10,11,0.9,0.9
2023-03-20T17:00:00,1119A,125.3325,43.9166,长春市,食品厂,细颗粒物(PM2.5),108,140,103,81,70,135,105,122,122,31,34,9,9,0.7,0.7
2023-03-20T17:00:00,1120A,125.2863,43.9027,长春市,客车厂,细颗粒物(PM2.5),108,114,100,81,74,135,101,121,121,33,33,17,13,0.7,0.7
2023-03-20T17:00:00,1121A,125.2841,43.8463,长春市,邮电学院,细颗粒物(PM2.5),113,109,103,85,75,146,113,134,134,32,33,16,13,0.8,0.7
2023-03-20T17:00:00,1122A,125.3716,43.8772,长春市,劳动公园,细颗粒物(PM2.5),112,118,89,84,67,153,120,139,139,23,27,16,14,0.6,0.6
2023-03-20T17:00:00,1123A,125.3297,43.8805,长春市,园林处,细颗粒物(PM2.5),104,114,94,78,70,147,119,136,136,25,32,11,13,0.8,0.8
2023-03-20T17:00:00,1124A,125.4605,43.79,长春市,净月潭,细颗粒物(PM2.5),105,93,87,79,64,148,120,138,138,16,17,5,6,0.6,0.6
2023-03-20T17:00:00,1125A,125.7194,43.515,长春市,甩湾子,,,,,,,,,,,,,,,,
2023-03-20T17:00:00,1126A,125.3863,43.8447,长春市,经开区环卫处,细颗粒物(PM2.5),100,93,88,75,62,143,111,128,128,24,29,10,11,0.6,0.6
2023-03-20T17:00:00,1127A,125.245,43.7783,长春市,高新区管委会,细颗粒物(PM2.5),127,102,93,96,84,138,116,126,126,17,23,11,10,0.7,0.6
2023-03-20T17:00:00,1128A,125.1761,43.8325,长春市,岱山公园,细颗粒物(PM2.5),114,114,106,86,78,138,107,127,127,31,35,6,8,0.8,0.8
2023-03-20T17:00:00,1129A,126.5422,45.755,哈尔滨市,岭北,颗粒物(PM10),121,191,131,84,74,169,160,154,154,21,15,16,17,0.4,0.7
2023-03-20T17:00:00,1130A,126.561,45.8167,哈尔滨市,松北商大,"颗粒物(PM10),细颗粒物(PM2.5)",103,156,111,77,70,173,152,147,147,22,19,8,8,0.8,0.8
2023-03-20T17:00:00,1131A,126.979,45.5419,哈尔滨市,阿城会宁,细颗粒物(PM2.5),117,128,99,88,68,168,168,149,149,22,19,16,14,0.7,0.8
2023-03-20T17:00:00,1132A,126.599,45.7222,哈尔滨市,南岗学府路,细颗粒物(PM2.5),123,188,114,93,67,165,155,152,152,26,23,9,15,0.8,0.7
2023-03-20T17:00:00,1133A,126.689,45.7733,哈尔滨市,太平宏伟公园,颗粒物(PM10),121,191,124,86,75,168,163,149,149,34,32,12,14,0.8,0.7
2023-03-20T17:00:00,1134A,126.635,45.7667,哈尔滨市,道外承德广场,细颗粒物(PM2.5),123,178,121,93,79,165,157,145,145,40,37,12,14,0.6,0.6
2023-03-20T17:00:00,1135A,126.685,45.7319,哈尔滨市,香坊红旗大街,细颗粒物(PM2.5),132,163,118,100,85,159,145,137,137,41,39,14,22,0.7,0.7
2023-03-20T17:00:00,1136A,126.6411,45.7258,哈尔滨市,动力和平路,细颗粒物(PM2.5),120,153,120,91,82,164,152,144,144,35,31,13,13,0.7,0.6
2023-03-20T17:00:00,1137A,126.593,45.7478,哈尔滨市,道里建国路,细颗粒物(PM2.5),123,161,120,93,79,161,149,142,142,29,32,16,19,1.1,0.8
2023-03-20T17:00:00,1138A,126.615,45.61,哈尔滨市,平房东轻厂,,,,93,,64,161,160,161,160,,22,12,12,2.2,1
2023-03-20T17:00:00,1139A,126.595,45.9855,哈尔滨市,呼兰师专,颗粒物(PM10),124,197,124,75,72,159,151,140,140,30,22,12,14,1.0,1
2023-03-20T17:00:00,1140A,126.6206,45.6842,哈尔滨市,省农科院,细颗粒物(PM2.5),109,166,127,82,69,176,164,154,154,33,34,9,12,0.6,0.7
2023-03-20T17:00:00,1141A,121.4,31.238,上海市,普陀,,46,44,51,32,26,126,89,99,99,40,27,4,4,0.7,0.6
2023-03-20T17:00:00,1142A,121.478,31.2036,上海市,十五厂,,47,47,49,30,29,115,73,90,88,45,33,6,6,0.7,0.6
2023-03-20T17:00:00,1143A,121.467,31.3008,上海市,虹口,细颗粒物(PM2.5),59,56,53,42,32,103,80,100,81,33,25,6,6,0.8,0.8
2023-03-20T17:00:00,1144A,121.412,31.1654,上海市,徐汇上师大,,42,38,44,29,27,122,92,98,98,51,33,10,10,0.5,0.6
2023-03-20T17:00:00,1145A,121.536,31.2659,上海市,杨浦四漂,颗粒物(PM10),52,53,56,34,30,100,61,97,73,56,38,7,7,0.7,0.6
2023-03-20T17:00:00,1147A,121.425,31.2261,上海市,静安监测站,,50,50,56,29,27,130,88,99,98,42,30,8,8,0.6,0.6
2023-03-20T17:00:00,1148A,121.703,31.1907,上海市,浦东川沙,,,,47,,31,91,80,91,77,,25,5,5,0.8,0.7
2023-03-20T17:00:00,1149A,121.533,31.2284,上海市,浦东新区监测站,细颗粒物(PM2.5),55,57,57,39,30,120,83,102,97,37,22,6,6,0.8,0.7
2023-03-20T17:00:00,1150A,121.577,31.2071,上海市,浦东张江,细颗粒物(PM2.5),59,50,48,42,27,109,76,109,93,43,24,4,4,0.9,0.7
2023-03-20T17:00:00,1151A,118.8086,32.1065,南京市,迈皋桥,颗粒物(PM10),66,81,70,41,30,101,64,69,69,26,22,5,4,0.2,0.2
2023-03-20T17:00:00,1152A,118.7538,32.0551,南京市,草场门,,,,71,,28,90,55,62,57,38,28,,3,0.6,0.5
2023-03-20T17:00:00,1153A,118.7794,32.0745,南京市,山西路,细颗粒物(PM2.5),62,66,60,44,30,102,60,68,68,23,18,4,4,0.4,0.4
2023-03-20T17:00:00,1154A,118.7752,32.0023,南京市,中华门,,,68,59,39,26,90,46,54,41,32,28,7,7,,0.5
2023-03-20T17:00:00,1155A,118.8109,32.0309,南京市,瑞金路,细颗粒物(PM2.5),58,52,55,41,29,82,55,60,58,20,18,4,4,0.3,0.3
2023-03-20T17:00:00,1156A,118.7997,32.0754,南京市,玄武湖,细颗粒物(PM2.5),63,55,61,45,36,94,53,62,61,28,19,5,4,0.6,0.5
2023-03-20T17:00:00,1157A,118.6414,32.0931,南京市,浦口,颗粒物(PM10),61,72,70,41,32,98,50,62,56,41,30,3,4,0.5,0.4
2023-03-20T17:00:00,1158A,118.7356,31.9996,南京市,奥体中心,细颗粒物(PM2.5),62,57,70,44,31,85,51,56,55,36,30,4,5,0.4,0.3
2023-03-20T17:00:00,1159A,118.9125,32.1028,南京市,仙林大学城,"颗粒物(PM10),细颗粒物(PM2.5)",58,66,57,41,29,95,72,73,70,20,23,6,6,0.6,0.6
2023-03-20T17:00:00,1160A,120.561,31.2472,苏州市,上方山,,48,48,50,28,28,83,60,81,58,34,21,6,6,0.5,0.4
2023-03-20T17:00:00,1162A,120.591,31.3019,苏州市,彩香,,37,37,58,25,30,97,76,95,74,27,16,4,4,0.8,0.6
2023-03-20T17:00:00,1163A,120.596,31.3264,苏州市,轧钢厂,,42,42,61,26,29,96,69,96,74,37,18,6,6,0.7,0.6
2023-03-20T17:00:00,1164A,120.613,31.2703,苏州市,吴中区,,40,40,56,25,27,95,74,95,73,40,24,7,7,0.7,0.7
2023-03-20T17:00:00,1165A,120.543,31.2994,苏州市,苏州新区,,49,44,63,34,32,95,76,95,68,25,17,4,4,0.6,0.7
2023-03-20T17:00:00,1166A,120.669,31.3097,苏州市,苏州工业园区,,41,41,57,23,26,96,62,95,71,44,21,6,7,0.8,0.6
2023-03-20T17:00:00,1167A,120.641,31.3708,苏州市,相城区,颗粒物(PM10),51,51,56,33,27,98,47,97,61,52,28,4,5,0.8,0.7
2023-03-20T17:00:00,1168A,120.9098,31.9663,南通市,狼山街道,细颗粒物(PM2.5),67,64,67,48,37,116,73,99,92,28,15,5,6,0.7,0.6
2023-03-20T17:00:00,1169A,120.86,32.0005,南通市,虹桥,颗粒物(PM10),74,97,83,52,41,114,58,91,82,43,23,5,5,0.6,0.5
2023-03-20T17:00:00,1170A,120.87,32.02,南通市,城中,颗粒物(PM10),96,141,87,60,38,112,61,93,84,46,24,7,7,0.4,0.4
2023-03-20T17:00:00,1171A,120.94,31.93,南通市,星湖花园,细颗粒物(PM2.5),58,48,69,41,38,101,70,89,81,28,14,5,5,0.6,0.5
2023-03-20T17:00:00,1172A,120.81,32.0417,南通市,紫琅学院,细颗粒物(PM2.5),85,107,82,63,40,101,57,80,73,35,20,6,6,0.7,0.6
2023-03-20T17:00:00,1173A,119.176,34.5885,连云港市,市环境监测站,颗粒物(PM10),70,90,72,44,38,118,111,103,103,17,15,11,9,0.4,0.3
2023-03-20T17:00:00,1177A,117.179,34.2761,徐州市,黄河新村,细颗粒物(PM2.5),87,97,88,64,57,119,119,85,85,21,27,11,11,0.8,0.8
2023-03-20T17:00:00,1178A,117.1918,34.2384,徐州市,淮塔,"颗粒物(PM10),细颗粒物(PM2.5)",77,103,99,56,53,126,126,95,95,28,35,10,10,0.7,0.6
2023-03-20T17:00:00,1180A,117.256,34.2153,徐州市,新城区,细颗粒物(PM2.5),74,81,89,54,58,125,125,94,94,17,28,10,12,0.7,0.7
2023-03-20T17:00:00,1181A,117.244,34.2911,徐州市,桃园路,细颗粒物(PM2.5),83,105,94,61,56,115,115,88,88,20,25,9,11,0.8,0.7
2023-03-20T17:00:00,1182A,117.2933,34.2778,徐州市,农科院,细颗粒物(PM2.5),79,95,92,58,55,119,119,89,89,20,37,10,14,0.8,0.8
2023-03-20T17:00:00,1186A,119.389,32.3761,扬州市,邗江监测站,细颗粒物(PM2.5),108,122,82,81,53,80,51,55,55,45,44,,7,0.8,0.7
2023-03-20T17:00:00,1188A,120.269,31.4867,无锡市,雪浪,,49,48,50,34,24,85,44,84,57,45,22,8,7,0.7,0.6
2023-03-20T17:00:00,1189A,120.275,31.6219,无锡市,黄巷,,,60,60,,22,82,40,76,50,66,41,7,8,0.6,0.5
2023-03-20T17:00:00,1190A,120.294,31.56,无锡市,曹张,,45,41,50,31,25,86,46,84,50,45,26,6,6,0.8,0.7
2023-03-20T17:00:00,1191A,120.242,31.5031,无锡市,漆塘,颗粒物(PM10),57,63,49,31,24,88,47,88,63,54,23,8,8,0.6,0.5
2023-03-20T17:00:00,1192A,120.3489,31.5863,无锡市,东亭,颗粒物(PM10),53,56,57,34,25,85,45,79,50,51,33,8,8,1.0,0.8
2023-03-20T17:00:00,1193A,120.354,31.5475,无锡市,旺庄,颗粒物(PM10),51,51,50,24,23,88,55,86,53,45,32,8,8,0.7,0.6
2023-03-20T17:00:00,1194A,120.245,31.5631,无锡市,荣巷,颗粒物(PM10),51,51,50,29,22,94,42,91,59,50,29,10,10,0.5,0.5
2023-03-20T17:00:00,1195A,120.299,31.6817,无锡市,堰桥,颗粒物(PM10),58,66,59,29,22,94,66,89,69,43,31,6,7,0.7,0.6
2023-03-20T17:00:00,1196A,119.9633,31.762,常州市,市监测站,颗粒物(PM10),71,92,73,46,32,79,37,79,52,61,36,5,5,0.3,0.3
2023-03-20T17:00:00,1200A,119.9468,31.7069,常州市,武进监测站,颗粒物(PM10),72,94,69,42,29,81,37,80,64,59,26,7,7,0.5,0.4
2023-03-20T17:00:00,1201A,119.9255,31.9087,常州市,安家,颗粒物(PM10),71,91,83,43,37,75,63,68,63,35,29,6,7,0.7,0.6
2023-03-20T17:00:00,1203A,119.6707,32.1875,镇江市,新区办事处,细颗粒物(PM2.5),107,104,84,80,48,87,47,64,64,47,43,3,4,1.2,0.9
2023-03-20T17:00:00,1204A,119.4974,32.1968,镇江市,职教中心,细颗粒物(PM2.5),95,68,68,71,49,83,41,66,66,68,49,3,5,0.6,0.5
2023-03-20T17:00:00,1205A,119.4303,32.1328,镇江市,丹徒区监测站,颗粒物(PM10),78,106,88,55,46,88,65,67,67,41,38,4,4,0.6,0.5
2023-03-20T17:00:00,1206A,119.905,32.4878,泰州市,公园路,细颗粒物(PM2.5),94,97,79,70,45,105,68,73,73,25,21,7,8,0.8,0.7
2023-03-20T17:00:00,1207A,119.9189,32.4625,泰州市,莲花,细颗粒物(PM2.5),89,95,76,66,45,106,73,76,76,24,22,7,8,0.9,0.9
2023-03-20T17:00:00,1209A,119.888,32.4639,泰州市,留学生创业园,细颗粒物(PM2.5),95,128,100,71,50,105,71,74,74,26,23,8,8,0.8,0.8
2023-03-20T17:00:00,1210A,119.036,33.5981,淮安市,钵池山,细颗粒物(PM2.5),119,75,65,90,51,128,91,98,98,21,25,6,7,0.8,0.6
2023-03-20T17:00:00,1211A,119.007,33.575,淮安市,北京南路,细颗粒物(PM2.5),97,83,67,72,46,120,80,86,86,24,28,8,9,0.8,0.6
2023-03-20T17:00:00,1212A,118.989,33.6067,淮安市,市监测站,细颗粒物(PM2.5),89,92,73,66,44,125,89,92,92,23,24,6,8,0.8,0.7
2023-03-20T17:00:00,1213A,119.135,33.5039,淮安市,楚州区监测站,细颗粒物(PM2.5),125,98,73,95,52,120,85,89,89,21,27,6,8,0.9,0.7
2023-03-20T17:00:00,1214A,119.0186,33.6297,淮安市,淮阴区监测站,细颗粒物(PM2.5),123,97,80,93,51,117,72,86,86,38,25,6,7,0.8,0.7
2023-03-20T17:00:00,1215A,120.118,33.4022,盐城市,盐城电厂,细颗粒物(PM2.5),65,78,67,47,40,120,118,112,112,15,16,9,10,0.6,0.6
2023-03-20T17:00:00,1216A,120.156,33.3942,盐城市,市监测站,细颗粒物(PM2.5),57,52,52,40,33,106,106,100,100,15,17,13,12,0.5,0.5
2023-03-20T17:00:00,1218A,120.2144,33.38,盐城市,开发区管委会,颗粒物(PM10),69,88,74,42,39,115,115,108,108,20,19,5,5,0.6,0.6
2023-03-20T17:00:00,1220A,118.293,33.9528,宿迁市,宿迁学院,颗粒物(PM10),86,122,100,61,65,127,100,94,94,30,42,9,9,0.7,0.5
2023-03-20T17:00:00,1221A,118.2442,33.9592,宿迁市,宿迁中学,细颗粒物(PM2.5),98,131,104,73,62,117,99,88,88,27,31,6,8,0.5,0.5
2023-03-20T17:00:00,1223A,120.2072,30.2111,杭州市,滨江,,48,48,35,26,18,64,23,39,31,70,38,6,7,0.8,0.6
2023-03-20T17:00:00,1224A,120.0633,30.2747,杭州市,西溪,,48,48,42,30,27,60,26,30,30,56,35,8,8,0.9,0.7
2023-03-20T17:00:00,1226A,120.3461,30.3153,杭州市,下沙,细颗粒物(PM2.5),63,53,44,45,39,66,36,40,40,63,39,8,7,0.6,0.6
2023-03-20T17:00:00,1227A,120.1269,30.2456,杭州市,卧龙桥,,38,36,36,26,27,61,26,33,33,58,32,6,6,0.7,0.6
2023-03-20T17:00:00,1228A,120.1903,30.2692,杭州市,浙江农大,,45,41,30,31,20,59,24,35,34,64,36,5,5,0.8,0.8
2023-03-20T17:00:00,1230A,120.1197,30.3119,杭州市,和睦小学,颗粒物(PM10),58,65,57,38,33,58,17,32,29,74,39,5,5,0.8,0.7
2023-03-20T17:00:00,1231A,120.3019,30.4183,杭州市,临平镇,细颗粒物(PM2.5),83,80,59,61,42,74,41,46,46,53,33,5,5,0.8,0.6
2023-03-20T17:00:00,1232A,120.2697,30.1819,杭州市,城厢镇,,43,43,37,30,24,60,30,36,36,57,43,6,6,0.7,0.6
2023-03-20T17:00:00,1233A,120.0883,30.1808,杭州市,云栖,,30,30,31,17,22,63,26,29,29,53,32,6,5,0.8,0.6
2023-03-20T17:00:00,1234A,121.8358,29.911,宁波市,区环保大楼,,27,16,20,12,12,104,85,94,94,23,23,5,5,0.6,0.7
2023-03-20T17:00:00,1235A,121.56,29.82,宁波市,万里学院,,28,22,21,19,17,96,77,83,83,24,22,5,5,0.4,0.4
2023-03-20T17:00:00,1236A,121.713,29.9572,宁波市,龙赛医院,,35,30,28,18,17,91,36,64,61,69,37,12,7,0.3,0.3
2023-03-20T17:00:00,1239A,121.633,29.7733,宁波市,钱湖水厂,,,,15,,12,96,,88,88,,10,,5,,0.4
2023-03-20T17:00:00,1240A,121.5856,29.8635,宁波市,太古小学,,39,18,21,27,17,85,62,74,74,31,23,7,7,0.6,0.6
2023-03-20T17:00:00,1241A,121.524,29.8674,宁波市,市环境监测中心,,29,27,24,20,11,80,63,73,69,34,24,5,5,0.5,0.5
2023-03-20T17:00:00,1242A,120.634,28.0089,温州市,瓯海,细颗粒物(PM2.5),55,54,45,39,36,93,91,71,71,37,46,7,7,0.4,0.5
2023-03-20T17:00:00,1243A,120.6748,27.9939,温州市,南浦,,30,30,33,19,23,88,86,72,72,37,40,5,5,0.5,0.6
2023-03-20T17:00:00,1244A,120.76,27.9747,温州市,龙湾,,30,30,37,20,26,95,90,62,62,28,49,6,6,0.5,0.5
2023-03-20T17:00:00,1245A,120.6709,28.0167,温州市,市站,,42,42,39,21,21,78,78,58,58,45,45,5,5,0.5,0.5
2023-03-20T17:00:00,1247A,120.6053,29.9928,绍兴市,城东开发委,,37,37,24,22,17,66,46,48,48,49,26,6,5,0.7,0.6
2023-03-20T17:00:00,1250A,120.0751,30.8669,湖州市,城西水厂,细颗粒物(PM2.5),77,64,71,56,52,85,56,54,51,37,29,6,6,0.5,0.5
2023-03-20T17:00:00,1252A,120.7436,30.778,嘉兴市,清河小学,,42,29,46,29,30,87,74,78,78,29,19,7,7,0.7,0.9
2023-03-20T17:00:00,1253A,120.726,30.7478,嘉兴市,嘉兴学院,,40,40,51,26,28,90,74,80,80,38,24,6,5,0.7,0.6
2023-03-20T17:00:00,1255A,121.273,28.6459,台州市,黄岩环保大楼,,42,42,31,27,20,98,84,71,71,32,24,4,4,0.5,0.4
2023-03-20T17:00:00,1256A,121.419,28.6542,台州市,台州环保大楼,,28,22,24,15,22,102,88,86,86,22,17,5,5,0.4,0.4
2023-03-20T17:00:00,1257A,121.377,28.5773,台州市,路桥田洋王,,28,21,32,19,30,91,89,80,80,20,21,7,8,0.4,0.4
2023-03-20T17:00:00,1258A,122.122,30.0203,舟山市,定海檀枫,,25,14,31,9,14,101,79,85,82,31,19,5,5,0.6,0.7
2023-03-20T17:00:00,1259A,122.3094,29.9558,舟山市,普陀东港,,43,36,38,30,21,106,58,93,74,45,19,5,5,0.5,0.5
2023-03-20T17:00:00,1260A,122.19,29.9944,舟山市,临城新区,,,19,33,18,20,108,65,90,73,55,27,,5,0.4,0.5
2023-03-20T17:00:00,1262A,119.647,29.077,金华市,十五中,,48,48,36,33,32,104,101,71,71,31,43,7,10,0.6,0.6
2023-03-20T17:00:00,1263A,119.686,29.1029,金华市,监测站,,44,44,27,24,22,110,110,74,74,19,36,6,16,0.8,0.7
2023-03-20T17:00:00,1264A,118.8692,28.9398,衢州市,环保大楼,细颗粒物(PM2.5),54,43,28,38,27,85,85,55,55,26,27,12,8,0.7,0.5
2023-03-20T17:00:00,1265A,118.8709,28.9666,衢州市,实验学校,细颗粒物(PM2.5),60,44,22,43,22,74,71,50,50,32,28,11,6,0.5,0.5
2023-03-20T17:00:00,1266A,118.8621,28.9808,衢州市,衢州学院,细颗粒物(PM2.5),57,53,28,40,21,73,73,52,52,27,28,11,8,0.8,0.7
2023-03-20T17:00:00,1267A,119.914,28.4514,丽水市,监测站大楼,,33,30,18,23,15,92,92,68,68,21,19,8,7,0.6,0.4
2023-03-20T17:00:00,1268A,119.93,28.4586,丽水市,莲都小学,,33,27,19,23,15,93,93,70,70,26,21,7,7,0.4,0.4
2023-03-20T17:00:00,1269A,119.879,28.4231,丽水市,余庄前,,31,17,16,4,11,99,99,68,68,18,21,9,8,0.6,0.4
2023-03-20T17:00:00,1270A,117.1959,31.7848,合肥市,明珠广场,,,107,76,53,37,99,74,65,65,29,28,,10,0.9,0.8
2023-03-20T17:00:00,1271A,117.3072,31.8764,合肥市,三里街,颗粒物(PM10),75,100,81,53,39,93,58,58,58,40,36,6,7,0.9,0.7
2023-03-20T17:00:00,1272A,117.2588,31.8707,合肥市,琥珀山庄,细颗粒物(PM2.5),83,95,75,61,39,103,80,70,64,29,30,4,5,0.7,0.6
2023-03-20T17:00:00,1273A,117.1604,31.9052,合肥市,董铺水库,细颗粒物(PM2.5),79,97,75,58,37,107,87,75,72,26,24,4,5,0.5,0.4
2023-03-20T17:00:00,1274A,117.25,31.8571,合肥市,长江中路,细颗粒物(PM2.5),100,97,77,75,52,90,72,62,62,29,27,8,9,0.8,0.6
2023-03-20T17:00:00,1275A,117.266,31.9436,合肥市,庐阳区,细颗粒物(PM2.5),94,119,86,70,51,73,56,60,56,43,31,9,9,0.9,0.8
2023-03-20T17:00:00,1276A,117.336,31.8586,合肥市,瑶海区,细颗粒物(PM2.5),108,107,81,81,51,97,62,64,64,34,30,7,7,0.8,0.6
2023-03-20T17:00:00,1277A,117.3027,31.7964,合肥市,包河区,细颗粒物(PM2.5),70,80,72,51,42,94,76,70,70,46,32,9,10,0.4,0.3
2023-03-20T17:00:00,1278A,117.2776,31.7385,合肥市,滨湖新区,,,66,67,48,33,105,81,76,68,,23,6,9,0.5,0.4
2023-03-20T17:00:00,1279A,117.1318,31.8403,合肥市,高新区,细颗粒物(PM2.5),79,90,72,58,43,104,77,64,64,30,27,7,9,0.8,0.7
2023-03-20T17:00:00,1280A,119.3903,26.0543,福州市,鼓山,,,,,,,,,,,,,,,,
2023-03-20T17:00:00,1282A,119.2681,26.0504,福州市,师大,颗粒物(PM10),60,69,54,22,31,126,126,95,95,26,25,8,5,0.5,0.5
2023-03-20T17:00:00,1283A,119.2984,26.1028,福州市,五四北路,颗粒物(PM10),56,62,51,24,31,136,136,94,94,27,27,5,2,0.6,0.5
2023-03-20T17:00:00,1284A,119.2648,26.0768,福州市,杨桥西路,颗粒物(PM10),55,60,54,23,30,132,132,94,94,19,22,6,3,0.6,0.5
2023-03-20T17:00:00,1285A,119.317,26.0746,福州市,紫阳,颗粒物(PM10),56,61,55,20,30,120,119,88,88,27,26,6,3,0.6,0.5
2023-03-20T17:00:00,1286A,118.1608,24.8169,厦门市,溪东,,,,,,,,,,,,,,,,
2023-03-20T17:00:00,1287A,118.1514,24.4767,厦门市,洪文,,44,44,45,24,27,108,89,79,79,37,21,4,4,0.1,0.1
2023-03-20T17:00:00,1288A,118.0661,24.4444,厦门市,鼓浪屿,,30,26,40,17,22,117,95,87,81,47,28,6,5,0.2,0.2
2023-03-20T17:00:00,1290A,115.8931,28.6843,南昌市,省外办,颗粒物(PM10),58,65,36,29,20,27,10,12,10,38,35,7,7,0.6,0.5
2023-03-20T17:00:00,1291A,115.8886,28.7003,南昌市,省林业公司,,49,39,18,34,25,21,12,9,9,39,48,4,4,1.0,0.9
2023-03-20T17:00:00,1292A,115.8126,28.7442,南昌市,林科所,,48,48,11,27,11,24,6,23,10,39,33,7,7,0.7,0.6
2023-03-20T17:00:00,1294A,115.8518,28.687,南昌市,建工学校,颗粒物(PM10),54,58,28,27,16,30,9,30,11,40,35,6,6,1.3,1.2
2023-03-20T17:00:00,1295A,115.8921,28.6424,南昌市,象湖,,49,45,23,34,21,26,7,10,10,34,32,4,4,1.0,0.8
2023-03-20T17:00:00,1296A,115.7423,28.7996,南昌市,武术学校,,22,21,14,15,13,34,8,27,18,23,11,4,4,0.7,0.6
2023-03-20T17:00:00,1298A,115.9314,28.6842,南昌市,省站,,47,47,28,29,22,34,16,15,14,35,40,7,7,0.9,0.8
2023-03-20T17:00:00,1299A,116.9862,36.6114,济南市,科干所,颗粒物(PM10),74,97,95,39,43,147,142,135,135,19,21,9,9,0.4,0.4
2023-03-20T17:00:00,1300A,116.9376,36.665,济南市,农科所,颗粒物(PM10),72,93,100,39,48,135,126,123,123,22,24,5,6,0.7,0.6
2023-03-20T17:00:00,1301A,117.1265,36.6734,济南市,开发区,颗粒物(PM10),72,93,87,35,45,141,131,130,130,22,25,11,11,0.6,0.6
2023-03-20T17:00:00,1303A,117.0624,36.6868,济南市,省种子仓库,颗粒物(PM10),76,102,94,44,51,145,140,136,136,19,19,10,9,0.6,0.6
2023-03-20T17:00:00,1304A,116.9489,36.6447,济南市,机床二厂,颗粒物(PM10),77,103,108,42,55,141,134,128,128,17,19,8,9,0.5,0.5
2023-03-20T17:00:00,1305A,117.0495,36.663,济南市,市监测站,颗粒物(PM10),73,95,89,34,40,148,137,134,134,23,18,10,9,0.6,0.5
2023-03-20T17:00:00,1306A,116.7675,36.5484,济南市,长清党校,颗粒物(PM10),73,95,93,51,48,142,139,130,130,31,29,10,11,0.6,0.6
2023-03-20T17:00:00,1307A,120.6659,36.2403,青岛市,仰口,颗粒物(PM10),58,66,87,29,53,135,107,135,114,22,21,5,5,0.7,0.7
2023-03-20T17:00:00,1310A,120.4134,36.0658,青岛市,市南区东部子站,颗粒物(PM10),58,66,65,29,39,104,89,98,98,22,27,9,10,0.4,0.5
2023-03-20T17:00:00,1311A,120.3664,36.1032,青岛市,四方区子站,颗粒物(PM10),60,70,74,34,37,104,92,103,96,28,26,5,8,0.6,0.6
2023-03-20T17:00:00,1312A,120.2994,36.054,青岛市,市南区西部子站,颗粒物(PM10),53,56,58,17,30,104,84,104,96,37,31,9,11,0.5,0.5
2023-03-20T17:00:00,1313A,120.4581,36.0858,青岛市,崂山区子站,颗粒物(PM10),54,58,65,29,36,112,99,108,107,23,28,6,7,0.3,0.4
2023-03-20T17:00:00,1314A,120.1983,35.9608,青岛市,黄岛区子站,颗粒物(PM10),57,63,64,29,36,125,108,123,110,13,18,5,6,0.4,0.4
2023-03-20T17:00:00,1315A,120.3999,36.3083,青岛市,城阳区子站,颗粒物(PM10),64,78,89,27,39,118,107,118,112,26,29,6,7,0.3,0.5
2023-03-20T17:00:00,1316A,113.69031,34.76122,郑州市,烟厂,细颗粒物(PM2.5),62,54,73,44,71,83,54,62,44,26,24,6,6,0.6,0.6
2023-03-20T17:00:00,1317A,113.65724,34.77134,郑州市,郑纺机,细颗粒物(PM2.5),59,44,69,42,62,80,56,58,48,29,29,4,4,0.5,0.6
2023-03-20T17:00:00,1318A,113.67526,34.80246,郑州市,银行学校,细颗粒物(PM2.5),52,42,69,36,61,87,68,68,49,27,28,7,6,0.8,0.8
2023-03-20T17:00:00,1319A,113.56746,34.81334,郑州市,供水公司,细颗粒物(PM2.5),54,54,71,38,62,83,69,55,50,17,22,6,6,0.4,0.4
2023-03-20T17:00:00,1320A,113.7329,34.7178,郑州市,经开区管委,细颗粒物(PM2.5),69,42,75,50,73,80,58,52,48,22,27,3,3,0.8,0.7
2023-03-20T17:00:00,1321A,113.73961,34.77172,郑州市,四十七中,,,,84,44,73,80,60,58,51,22,25,3,4,0.9,0.9
2023-03-20T17:00:00,1322A,113.60532,34.74838,郑州市,市监测站,细颗粒物(PM2.5),52,45,74,36,62,83,63,56,49,20,27,4,5,0.7,0.7
2023-03-20T17:00:00,1323A,113.64164,34.7525,郑州市,河医大,细颗粒物(PM2.5),60,47,68,43,70,79,58,58,46,19,22,5,6,0.6,0.6
2023-03-20T17:00:00,1324A,113.51488,34.91089,郑州市,岗李水库,,,,,,,,,,,,,,,,
2023-03-20T17:00:00,1325A,114.3677,30.5584,武汉市,东湖梨园,,46,33,46,32,36,47,47,36,36,30,35,6,6,1.0,0.9
2023-03-20T17:00:00,1326A,114.2529,30.558,武汉市,汉阳月湖,,38,38,48,24,41,28,21,24,24,42,44,6,6,1.1,1
2023-03-20T17:00:00,1327A,114.282,30.6189,武汉市,汉口花桥,,44,44,56,27,35,22,11,15,15,53,49,5,5,1.0,0.8
2023-03-20T17:00:00,1328A,114.3025,30.5332,武汉市,武昌紫阳,,38,38,50,22,37,28,21,22,22,43,44,8,8,1.2,1.1
2023-03-20T17:00:00,1329A,114.3646,30.6217,武汉市,青山钢花,,45,30,46,31,39,34,14,23,23,37,35,5,5,1.1,0.9
2023-03-20T17:00:00,1330A,114.1566,30.4825,武汉市,沌口新区,,39,39,47,20,30,27,17,21,21,48,45,7,7,1.0,1
2023-03-20T17:00:00,1331A,114.3014,30.5944,武汉市,汉口江滩,,32,32,49,17,31,32,26,21,21,32,40,5,6,0.9,0.8
2023-03-20T17:00:00,1333A,114.135,30.6319,武汉市,吴家山,颗粒物(PM10),51,51,58,34,36,27,11,21,14,53,44,6,5,1.1,0.9
2023-03-20T17:00:00,1334A,113.8454,30.2917,武汉市,沉湖七壕,,19,12,31,13,21,31,31,28,28,21,20,12,12,0.8,0.7
2023-03-20T17:00:00,1335A,113.0833,28.2325,长沙市,经开区环保局,,44,44,19,28,12,15,5,8,8,27,26,1,1,0.7,0.5
2023-03-20T17:00:00,1336A,112.8872,28.2189,长沙市,高开区环保局,,49,49,14,23,10,32,8,24,12,33,20,6,4,0.7,0.5
2023-03-20T17:00:00,1337A,113.0792,28.2053,长沙市,马坡岭,,42,41,18,29,12,13,5,10,10,24,20,6,6,0.6,0.5
2023-03-20T17:00:00,1338A,112.9394,28.19,长沙市,湖南师范大学,颗粒物(PM10),51,51,20,32,16,20,4,14,6,30,21,6,6,0.9,0.6
2023-03-20T17:00:00,1339A,113.0178,28.1322,长沙市,雨花区环保局,,34,34,14,21,10,15,8,10,10,28,27,3,4,0.7,0.6
2023-03-20T17:00:00,1340A,112.9792,28.2597,长沙市,伍家岭,,33,33,15,23,12,22,9,20,10,27,22,4,4,0.7,0.5
2023-03-20T17:00:00,1341A,113.0014,28.1944,长沙市,火车新站,,42,36,17,29,14,17,7,15,8,36,30,5,5,0.7,0.5
2023-03-20T17:00:00,1342A,112.9844,28.1178,长沙市,天心区环保局,,,,17,,15,14,1,7,5,29,20,3,2,0.8,0.6
2023-03-20T17:00:00,1343A,112.8908,28.1308,长沙市,湖南中医药大学,细颗粒物(PM2.5),58,43,17,41,22,17,4,16,7,34,22,4,3,1.1,0.8
2023-03-20T17:00:00,1344A,112.9581,28.3611,长沙市,沙坪,,,,12,22,10,26,7,19,10,28,18,,5,,0.8
2023-03-20T17:00:00,1345A,113.2347,23.1423,广州市,广雅中学,,42,42,39,17,18,87,76,68,68,30,27,4,4,0.8,0.8
2023-03-20T17:00:00,1346A,113.2612,23.105,广州市,市五中,,48,48,38,23,20,97,88,78,78,28,26,2,2,0.7,0.7
2023-03-20T17:00:00,1348A,113.3478,23.0916,广州市,广东商学院,,,55,42,23,19,90,81,69,69,,31,,4,0.7,0.7
2023-03-20T17:00:00,1349A,113.4332,23.1047,广州市,市八十六中,,42,42,40,15,18,89,71,64,64,27,32,5,5,0.6,0.8
2023-03-20T17:00:00,1350A,113.3505,22.9483,广州市,番禺中学,,45,45,29,18,17,98,84,79,79,28,30,7,7,1.0,0.8
2023-03-20T17:00:00,1351A,113.2146,23.3916,广州市,花都师范,,47,47,48,19,23,88,84,64,64,33,33,6,6,0.6,0.7
2023-03-20T17:00:00,1352A,113.2597,23.1331,广州市,市监测站,颗粒物(PM10),51,51,39,19,19,88,81,69,69,28,28,6,6,0.6,0.6
2023-03-20T17:00:00,1353A,113.5618,23.312,广州市,九龙镇镇龙,,40,40,48,16,22,90,77,61,61,29,34,5,5,0.5,0.5
2023-03-20T17:00:00,1354A,113.2765,23.1544,广州市,麓湖,,41,41,36,18,19,93,88,74,74,21,23,4,4,0.5,0.6
2023-03-20T17:00:00,1355A,113.443,23.3035,广州市,帽峰山森林公园,,33,33,36,12,16,95,86,68,68,21,28,7,9,0.3,0.4
2023-03-20T17:00:00,1356A,114.1063,22.5545,深圳市,通心岭子站,,36,36,28,17,15,93,82,84,80,13,8,3,3,0.6,0.6
2023-03-20T17:00:00,1357A,114.117,22.5625,深圳市,洪湖,,,33,31,,15,84,68,72,69,17,13,8,7,0.6,0.5
2023-03-20T17:00:00,1358A,113.987,22.5417,深圳市,华侨城,,27,26,26,13,14,96,86,93,84,17,15,4,4,0.6,0.7
2023-03-20T17:00:00,1359A,113.9181,22.5171,深圳市,南海子站,,,32,30,9,14,94,81,87,80,,15,4,4,0.5,0.6
2023-03-20T17:00:00,1360A,114.2458,22.5689,深圳市,盐田,,,39,30,20,17,115,111,100,100,18,18,,5,0.6,0.6
2023-03-20T17:00:00,1361A,114.2283,22.7244,深圳市,龙岗,,32,32,27,16,14,99,89,90,90,14,11,2,3,0.4,0.4
2023-03-20T17:00:00,1363A,114.494,22.5422,深圳市,南澳,,29,29,20,17,10,98,91,90,90,6,7,5,6,0.6,0.6
2023-03-20T17:00:00,1364A,114.41,22.6342,深圳市,葵涌,,38,38,28,19,15,105,100,95,95,17,11,4,4,0.5,0.5
2023-03-20T17:00:00,1365A,114.297,22.5978,深圳市,梅沙,,38,38,32,13,16,114,114,95,92,8,13,5,4,0.6,0.6
2023-03-20T17:00:00,1366A,114.0678,22.738,深圳市,观澜,颗粒物(PM10),61,71,46,38,25,79,68,62,62,31,24,7,6,0,0.5
2023-03-20T17:00:00,1367A,113.5814,22.2618,珠海市,吉大,,35,32,28,19,16,117,109,106,106,12,11,5,4,0.5,0.6
2023-03-20T17:00:00,1368A,113.4881,22.2335,珠海市,前山,,42,42,30,19,17,99,83,86,84,30,20,4,3,0.5,0.5
2023-03-20T17:00:00,1369A,113.628,22.4251,珠海市,唐家,,33,29,26,21,16,113,103,97,97,16,18,4,4,0.4,0.4
2023-03-20T17:00:00,1370A,113.299,22.2281,珠海市,斗门,,32,32,32,16,16,96,90,89,89,9,14,3,3,0.4,0.4
2023-03-20T17:00:00,1371A,113.1294,23.0067,佛山市,湾梁,,44,44,43,14,17,100,88,83,83,13,22,6,5,0.5,0.6
2023-03-20T17:00:00,1372A,113.1083,23.0478,佛山市,华材职中,,41,41,39,15,20,101,87,85,85,17,24,4,7,0.4,0.4
2023-03-20T17:00:00,1373A,113.144,23.0453,佛山市,南海气象局,,44,44,39,14,19,84,69,65,65,21,28,2,2,0.5,0.4
2023-03-20T17:00:00,1374A,113.2881,22.8094,佛山市,顺德苏岗,,42,42,30,14,18,86,71,74,74,18,19,7,7,0.6,0.6
2023-03-20T17:00:00,1376A,112.8383,22.8678,佛山市,高明孔堂,,35,35,36,14,16,86,80,79,79,11,12,5,5,0.5,0.5
2023-03-20T17:00:00,1377A,112.8836,23.1588,佛山市,三水监测站,,44,44,41,18,21,78,64,67,67,29,32,6,6,0.7,0.7
2023-03-20T17:00:00,1378A,112.867,23.185,佛山市,三水云东海,,36,36,47,14,19,81,70,67,67,25,27,6,5,0.5,0.5
2023-03-20T17:00:00,1379A,113.3769,22.5211,中山市,华柏园,,43,43,28,19,17,98,79,82,82,18,12,3,6,0.6,0.6
2023-03-20T17:00:00,1380A,113.3881,22.5497,中山市,张溪,颗粒物(PM10),59,68,34,20,18,98,69,76,76,29,19,4,4,0.5,0.5
2023-03-20T17:00:00,1381A,113.4075,22.5111,中山市,紫马岭,,29,29,26,15,14,102,86,89,89,10,10,5,5,0.3,0.4
2023-03-20T17:00:00,1382A,113.4411,22.4853,中山市,长江旅游区,,33,33,24,18,15,99,86,88,88,8,9,10,10,0.4,0.4
2023-03-20T17:00:00,1383A,113.1064,22.6058,江门市,北街,,32,32,33,16,14,88,76,77,77,12,13,5,7,0.5,0.5
2023-03-20T17:00:00,1384A,113.0731,22.5835,江门市,西区,,25,25,34,17,18,91,76,78,78,18,17,5,6,0.4,0.5
2023-03-20T17:00:00,1385A,113.0219,22.5311,江门市,圭峰西,,43,43,36,19,20,89,74,75,75,23,18,7,5,0.7,0.6
2023-03-20T17:00:00,1386A,113.0828,22.5947,江门市,东湖,,32,32,39,16,18,94,83,84,84,14,16,6,6,0.5,0.5
2023-03-20T17:00:00,1389A,113.7547,23.0494,东莞市,莞城梨川,,28,28,34,12,18,99,87,80,80,18,22,8,8,0.4,0.5
2023-03-20T17:00:00,1390A,113.7944,23.0128,东莞市,东城石井,,28,27,35,11,17,96,88,80,80,12,19,8,8,0.5,0.5
2023-03-20T17:00:00,1391A,113.7383,22.9658,东莞市,南城西平,,29,29,37,16,15,100,88,79,79,16,25,8,7,0.4,0.4
2023-03-20T17:00:00,1392A,114.4183,23.0528,惠州市,河南岸金山湖子站,,41,41,41,20,19,99,92,86,86,14,14,4,6,0.4,0.4
2023-03-20T17:00:00,1393A,114.4053,23.0822,惠州市,下埔横江三路子站,,37,37,33,15,19,112,105,98,98,12,14,4,6,0.6,0.6
2023-03-20T17:00:00,1394A,114.4103,23.1142,惠州市,江北云山西路子站,,42,42,31,20,21,111,103,95,95,12,11,5,6,0.4,0.4
2023-03-20T17:00:00,1395A,114.4645,22.7833,惠州市,惠阳区承修路船湖子站,,,52,30,23,18,104,91,91,91,18,14,4,5,,0.5
2023-03-20T17:00:00,1396A,114.5317,22.7422,惠州市,大亚湾管委会子站,,44,44,34,17,16,110,105,98,98,17,18,5,6,0.6,0.6
2023-03-20T17:00:00,1397A,112.4267,23.0706,肇庆市,睦岗子站,,28,28,43,12,22,86,69,62,62,17,21,12,10,0.6,0.7
2023-03-20T17:00:00,1398A,112.4645,23.0475,肇庆市,城中子站,,24,23,47,12,26,83,74,62,62,10,22,12,12,0.5,0.6
2023-03-20T17:00:00,1399A,112.5544,23.1522,肇庆市,坑口子站,,26,26,41,14,25,90,73,64,64,15,25,7,8,0.3,0.4
2023-03-20T17:00:00,1400A,112.4753,23.1,肇庆市,七星岩子站,,,,,,,,,,,,,,,,
2023-03-20T17:00:00,1401A,108.3103,22.7881,南宁市,二十一中,,30,30,36,16,20,75,65,63,63,10,12,8,8,0.6,0.7
2023-03-20T17:00:00,1402A,108.3141,22.8528,南宁市,北湖,,27,27,38,17,21,70,64,60,60,10,13,7,7,0.6,0.7
2023-03-20T17:00:00,1403A,108.3206,22.8225,南宁市,市监测站,,36,36,37,14,19,66,59,54,54,18,21,7,8,0.8,0.8
2023-03-20T17:00:00,1404A,108.3829,22.8037,南宁市,大自然花园,,32,32,33,18,21,66,61,56,56,8,12,6,6,0.6,0.7
2023-03-20T17:00:00,1405A,108.4394,22.7904,南宁市,仙葫,,32,32,36,20,25,68,65,58,58,7,13,6,7,0.6,0.7
2023-03-20T17:00:00,1406A,108.2397,22.8467,南宁市,区农职院,,38,38,39,12,19,71,61,57,57,17,22,6,7,0.6,0.6
2023-03-20T17:00:00,1407A,108.3275,22.735,南宁市,英华嘉园,,20,20,38,14,22,58,53,50,50,15,21,6,7,0.6,0.6
2023-03-20T17:00:00,1408A,108.2257,22.7757,南宁市,沙井镇街道办,,30,30,41,15,20,76,63,61,61,16,26,5,6,0.6,0.6
2023-03-20T17:00:00,1409A,110.576,19.9507,海口市,东寨港,,,14,16,6,7,23,19,17,17,,,5,5,0.3,0.3
2023-03-20T17:00:00,1410A,110.3232,20.0574,海口市,海南大学,,27,27,23,14,11,68,66,58,58,7,8,6,6,0.5,0.5
2023-03-20T17:00:00,1411A,110.283,20.0053,海口市,秀英海南医院,,39,39,27,13,10,68,62,57,57,9,17,4,4,0.5,0.5
2023-03-20T17:00:00,1412A,110.338,19.9969,海口市,海南师范大学,,,24,27,11,10,68,61,57,57,6,8,4,4,,0.1
2023-03-20T17:00:00,1413A,110.33,20.0356,海口市,龙华路环保局宿舍,,30,30,26,14,12,64,59,54,54,6,7,6,6,0.3,0.3
2023-03-20T17:00:00,1414A,106.3787,29.8279,重庆市,缙云山,,37,23,24,12,15,117,117,80,80,13,12,9,6,0.4,0.4
2023-03-20T17:00:00,1416A,106.4213,29.8253,重庆市,天生,,33,29,31,18,25,108,105,82,82,17,23,7,8,0.6,0.9
2023-03-20T17:00:00,1417A,106.6263,29.7228,重庆市,两路,,33,26,29,12,18,104,104,73,73,23,22,7,7,0.8,0.8
2023-03-20T17:00:00,1418A,106.2953,29.5983,重庆市,虎溪,,39,22,26,14,18,122,122,77,77,12,19,4,5,0.5,0.6
2023-03-20T17:00:00,1419A,106.5777,29.5102,重庆市,南坪,,31,22,35,17,21,98,98,60,60,14,25,4,7,0.5,0.8
2023-03-20T17:00:00,1420A,106.6556,29.6277,重庆市,唐家沱,,36,19,26,5,18,113,113,74,74,19,22,8,8,0.8,0.8
2023-03-20T17:00:00,1421A,106.6349,29.4906,重庆市,茶园,,31,26,32,14,18,99,99,60,60,18,29,6,8,0.7,0.9
2023-03-20T17:00:00,1422A,106.3754,29.4572,重庆市,白市驿,,34,23,31,19,20,106,106,67,67,19,34,7,9,0.7,0.9
2023-03-20T17:00:00,1425A,106.6205,29.7166,重庆市,空港,,36,18,26,13,18,114,114,79,79,18,20,6,6,0.6,0.7
2023-03-20T17:00:00,1426A,106.4782,29.4875,重庆市,新山村,,28,25,36,14,22,89,89,57,57,23,35,7,10,0.6,0.7
2023-03-20T17:00:00,1427A,106.5616,29.6453,重庆市,礼嘉,,32,26,31,10,17,101,101,64,64,26,27,5,6,0.8,0.8
2023-03-20T17:00:00,1428A,106.4522,29.7091,重庆市,蔡家,,36,28,36,13,20,117,115,80,80,12,22,6,6,0.6,0.7
2023-03-20T17:00:00,1429A,106.5093,29.3917,重庆市,鱼新街,,32,17,35,13,20,102,102,67,67,25,29,8,12,0.9,1.1
2023-03-20T17:00:00,1431A,103.9728,30.7236,成都市,金泉两河,,25,22,31,2,20,77,77,40,40,15,23,3,3,0.5,0.5
2023-03-20T17:00:00,1432A,104.176,30.6872,成都市,十里店,颗粒物(PM10),53,56,54,32,37,57,56,32,32,29,30,3,3,0.6,0.6
2023-03-20T17:00:00,1433A,104.079,30.5706,成都市,三瓦窑,颗粒物(PM10),51,52,58,32,33,55,55,30,26,28,35,1,2,0.7,0.6
2023-03-20T17:00:00,1434A,104.1114,30.63,成都市,沙河铺,细颗粒物(PM2.5),60,46,57,43,43,56,56,23,23,22,27,3,2,0.6,0.6
2023-03-20T17:00:00,1437A,104.0786,30.6531,成都市,君平街,,,38,50,,48,62,,19,16,,34,,4,,0.6
2023-03-20T17:00:00,1438A,103.613,31.0283,成都市,灵岩寺,,18,10,20,12,12,82,49,44,36,16,17,6,6,0.6,0.6
2023-03-20T17:00:00,1439A,106.6899,26.5998,贵阳市,马鞍山,颗粒物(PM10),51,51,20,31,16,66,66,34,34,20,18,10,5,0.9,0.8
2023-03-20T17:00:00,1440A,106.6971,26.5694,贵阳市,市环保站,颗粒物(PM10),57,63,23,37,20,54,34,29,29,56,24,15,6,1.0,0.7
2023-03-20T17:00:00,1441A,106.6243,26.6266,贵阳市,鉴湖路,颗粒物(PM10),52,53,32,24,15,69,69,36,36,18,20,10,5,0.3,0.3
2023-03-20T17:00:00,1442A,106.7487,26.6343,贵阳市,燕子冲,细颗粒物(PM2.5),55,48,23,39,21,63,48,33,33,23,17,8,6,0.6,0.5
2023-03-20T17:00:00,1443A,106.6555,26.4365,贵阳市,碧云窝,颗粒物(PM10),52,53,30,24,13,69,69,48,48,13,20,10,7,0.4,0.6
2023-03-20T17:00:00,1444A,106.694,26.5161,贵阳市,中院村,颗粒物(PM10),53,56,32,34,18,65,65,40,40,22,25,13,11,0.6,0.6
2023-03-20T17:00:00,1445A,106.7109,26.6027,贵阳市,红边门,细颗粒物(PM2.5),58,63,31,41,19,48,46,27,27,44,25,18,9,1.0,0.7
2023-03-20T17:00:00,1446A,106.7164,26.5699,贵阳市,新华路,,45,44,26,31,15,64,64,40,40,20,15,11,6,0.7,0.6
2023-03-20T17:00:00,1447A,106.674,26.5424,贵阳市,太慈桥,颗粒物(PM10),52,53,29,27,12,75,75,44,44,14,21,8,4,0.6,0.6
2023-03-20T17:00:00,1450A,102.8204,24.8886,昆明市,呈贡新区,,41,41,36,18,20,107,85,89,88,11,11,6,6,0.5,0.6
2023-03-20T17:00:00,1451A,102.6251,24.9608,昆明市,西山森林公园,,31,24,28,10,15,115,99,101,98,13,15,5,7,0.6,0.7
2023-03-20T17:00:00,1452A,102.7252,25.0902,昆明市,龙泉镇,,29,24,32,12,19,111,91,92,92,7,22,5,8,0.5,0.6
2023-03-20T17:00:00,1453A,102.7266,25.0375,昆明市,东风东路,,32,32,31,16,20,92,87,88,88,10,13,6,7,0.5,0.6
2023-03-20T17:00:00,1454A,102.6742,25.0669,昆明市,金鼎山,,40,40,32,12,20,109,90,92,91,8,16,7,8,0.5,0.6
2023-03-20T17:00:00,1455A,102.6644,25.0401,昆明市,碧鸡广场,,32,32,35,9,19,109,91,93,93,9,19,4,5,0.4,0.5
2023-03-20T17:00:00,1456A,91.1319,29.6514,拉萨市,八廓街,,38,9,15,6,7,132,121,122,110,10,15,7,7,0.2,0.4
2023-03-20T17:00:00,1457A,91.1221,29.6747,拉萨市,市环保局,,40,8,15,3,7,128,127,110,110,9,16,4,5,0.3,0.4
2023-03-20T17:00:00,1458A,91.0874,29.6475,拉萨市,区监测站,,38,10,14,4,4,119,119,102,102,7,16,6,6,0.2,0.3
2023-03-20T17:00:00,1459A,91.1774,29.6541,拉萨市,西藏大学,,37,12,14,3,6,122,116,101,100,10,14,6,6,0.4,0.5
2023-03-20T17:00:00,1460A,90.9798,29.6588,拉萨市,区辐射站,,39,10,15,2,7,124,124,98,98,10,16,7,7,0.4,0.4
2023-03-20T17:00:00,1461A,91.0834,29.6292,拉萨市,拉萨火车站,,,15,17,4,6,122,120,108,101,,17,,8,0.3,0.6
2023-03-20T17:00:00,1462A,108.882,34.2749,西安市,高压开关厂,细颗粒物(PM2.5),130,131,126,99,90,115,104,83,83,32,42,8,9,0.9,0.9
2023-03-20T17:00:00,1463A,108.993,34.2629,西安市,兴庆小区,细颗粒物(PM2.5),92,90,85,68,57,118,103,78,78,34,38,7,8,1.4,1
2023-03-20T17:00:00,1464A,109.06,34.2572,西安市,纺织城,细颗粒物(PM2.5),100,127,107,75,68,117,93,66,66,39,50,6,10,0.8,0.8
2023-03-20T17:00:00,1465A,108.9356,34.2173,西安市,小寨,细颗粒物(PM2.5),130,136,126,99,90,103,98,67,67,34,42,8,8,0.7,0.7
2023-03-20T17:00:00,1466A,108.954,34.2713,西安市,市人民体育场,细颗粒物(PM2.5),127,100,89,96,75,112,94,78,78,32,37,7,8,0.9,0.8
2023-03-20T17:00:00,1467A,108.8922,34.2322,西安市,高新西区,细颗粒物(PM2.5),140,135,113,107,99,101,101,69,69,37,45,7,8,,0.7
2023-03-20T17:00:00,1468A,108.935,34.3474,西安市,经开区,细颗粒物(PM2.5),80,63,81,59,70,129,129,91,91,14,34,6,7,0.5,0.5
2023-03-20T17:00:00,1469A,108.906,34.1546,西安市,长安区,细颗粒物(PM2.5),128,130,155,97,108,102,102,63,63,31,55,8,8,0.3,0.5
2023-03-20T17:00:00,1471A,109.2186,34.3731,西安市,临潼区,细颗粒物(PM2.5),80,73,88,59,64,127,112,82,82,15,34,10,10,1.0,1.1
2023-03-20T17:00:00,1472A,108.869,34.378,西安市,草滩,颗粒物(PM10),57,64,83,35,42,108,108,82,82,17,32,9,11,0.0,0.2
2023-03-20T17:00:00,1473A,108.985,34.1978,西安市,曲江文化产业集团,细颗粒物(PM2.5),123,123,132,93,92,108,106,66,66,31,46,5,7,0.6,0.7
2023-03-20T17:00:00,1474A,109.051,34.3213,西安市,广运潭,细颗粒物(PM2.5),90,56,82,67,77,121,121,82,82,18,39,8,9,0.5,0.6
2023-03-20T17:00:00,1476A,103.631,36.1031,兰州市,兰炼宾馆,,,70,72,33,34,162,120,124,124,29,48,12,14,,0.8
2023-03-20T17:00:00,1477A,104.1373,35.9454,兰州市,榆中兰大校区,,,,,,,,,,,,,,,,
2023-03-20T17:00:00,1478A,103.8412,36.0726,兰州市,生物制品所,颗粒物(PM10),67,83,61,32,30,113,113,90,90,28,32,19,16,1.0,0.7
2023-03-20T17:00:00,1479A,103.831,36.0464,兰州市,铁路设计院,颗粒物(PM10),60,69,57,33,36,104,104,75,75,32,39,13,11,0.9,0.8
2023-03-20T17:00:00,1483A,101.524,36.6867,西宁市,第五水厂,,,,,,,,,,,,,,,,
2023-03-20T17:00:00,1484A,105.9512,38.6016,银川市,贺兰山马莲口,,50,39,67,12,27,162,159,138,138,17,23,16,33,0.6,0.8
2023-03-20T17:00:00,1488A,106.2328,38.4975,银川市,贺兰山东路,颗粒物(PM10),53,56,101,35,39,171,158,124,124,20,29,10,13,0.7,0.9
2023-03-20T17:00:00,1489A,106.1358,38.5036,银川市,学院路,颗粒物(PM10),58,65,106,28,34,154,154,125,125,17,37,12,21,0.8,1.2
2023-03-20T17:00:00,1490A,87.5801,43.8303,乌鲁木齐市,监测站,,30,22,25,16,7,99,94,80,80,16,30,4,4,0.6,0.7
2023-03-20T17:00:00,1491A,87.6046,43.768,乌鲁木齐市,收费所,,42,42,34,8,11,100,86,76,76,35,27,2,2,0.6,0.4
2023-03-20T17:00:00,1492A,87.4754,43.9469,乌鲁木齐市,新疆农科院农场,细颗粒物(PM2.5),100,35,29,75,72,96,96,78,78,10,27,9,8,0.8,0.9
2023-03-20T17:00:00,1493A,87.5525,43.8711,乌鲁木齐市,铁路局,,32,32,21,12,9,98,98,78,78,12,25,5,4,0.3,0.5
2023-03-20T17:00:00,1494A,87.6432,43.831,乌鲁木齐市,三十一中学,,27,22,22,6,6,89,86,84,74,5,14,7,6,0.5,0.5
2023-03-20T17:00:00,1496A,87.7216,44.1747,乌鲁木齐市,米东区环保局,,30,28,31,14,14,96,96,81,75,3,7,11,8,0.4,0.4
2023-03-20T17:00:00,1508A,112.9433,27.8614,湘潭市,板塘,细颗粒物(PM2.5),60,38,16,43,22,12,0,6,0,26,18,14,11,1.1,0.9
2023-03-20T17:00:00,1511A,112.9118,27.8403,湘潭市,市监测站,细颗粒物(PM2.5),52,51,23,36,18,15,3,14,7,26,15,8,6,1.3,0.9
2023-03-20T17:00:00,1512A,112.8937,27.8728,湘潭市,江麓,细颗粒物(PM2.5),72,43,21,52,21,24,4,18,6,35,22,10,7,1.3,1
2023-03-20T17:00:00,1513A,112.9227,27.8159,湘潭市,岳塘,颗粒物(PM10),57,63,24,37,19,14,0,8,4,34,24,8,4,1.2,0.8
2023-03-20T17:00:00,1514A,112.9074,27.9119,湘潭市,科大,细颗粒物(PM2.5),52,38,22,36,14,16,0,11,0,40,27,6,4,0.9,0.6
2023-03-20T17:00:00,1515A,113.135,27.8244,株洲市,天台山庄,,,,13,,16,14,10,12,12,,33,5,4,,0.7
2023-03-20T17:00:00,1518A,113.095,27.8867,株洲市,株冶医院,,50,36,17,35,15,11,5,8,8,30,31,3,3,0.8,0.6
2023-03-20T17:00:00,1519A,113.167,27.8667,株洲市,市四中,,45,30,16,31,16,12,5,8,8,25,29,5,4,0.9,0.8
2023-03-20T17:00:00,1520A,113.143,27.8381,株洲市,火车站,,45,31,15,31,17,12,8,10,10,27,31,5,4,0.9,0.8
2023-03-20T17:00:00,1524A,113.13,27.8528,株洲市,市监测站,细颗粒物(PM2.5),65,34,16,47,24,15,8,12,12,29,32,7,5,0.9,0.7
2023-03-20T17:00:00,1552A,106.805,26.3003,贵阳市,桐木岭,,,,,,,,,,,,,,,,
2023-03-20T17:00:00,1559A,113.251,27.8336,株洲市,大京风景区,,49,24,10,34,12,14,11,14,12,18,19,7,6,0.7,0.6
2023-03-20T17:00:00,1562A,113.0048,27.9153,湘潭市,昭山,,43,41,16,30,16,14,3,9,5,31,23,2,3,1.4,1.2
2023-03-20T17:00:00,1564A,112.4876,27.9164,湘潭市,韶山,,,23,13,,9,102,18,27,27,20,18,5,7,0.3,1
2023-03-20T17:00:00,1585A,109.8756,40.6532,包头市,市环境监测站,颗粒物(PM10),52,54,62,31,22,132,132,101,101,15,28,19,16,0.5,0.6
2023-03-20T17:00:00,1587A,109.9991,40.5842,包头市,包头八中,颗粒物(PM10),55,59,101,34,41,143,143,104,104,16,46,8,20,0.6,1.2
2023-03-20T17:00:00,1588A,109.8538,40.6821,包头市,青山宾馆,颗粒物(PM10),54,57,60,26,23,128,128,99,99,16,24,16,13,0.8,0.7
2023-03-20T17:00:00,1589A,109.8642,40.6288,包头市,惠龙物流,颗粒物(PM10),55,60,64,23,23,136,136,109,109,14,26,10,12,0.4,0.6
2023-03-20T17:00:00,1590A,110.0377,40.5546,包头市,东河鸿龙湾,颗粒物(PM10),57,63,119,22,39,142,142,108,108,8,37,12,17,0.5,1
2023-03-20T17:00:00,1591A,110.0023,39.8129,鄂尔多斯市,综合楼,颗粒物(PM10),57,63,112,29,40,119,119,91,91,20,59,9,18,0.6,0.9
2023-03-20T17:00:00,1592A,109.9486,39.8261,鄂尔多斯市,巴音孟克林场办事处,颗粒物(PM10),56,61,104,27,40,121,121,96,96,18,58,12,16,0.5,0.7
2023-03-20T17:00:00,1593A,109.7736,39.5986,鄂尔多斯市,康泽苑,颗粒物(PM10),56,61,96,14,36,129,129,99,99,13,34,12,15,0.6,0.9
2023-03-20T17:00:00,1594A,109.8119,39.5989,鄂尔多斯市,华泰汽车城,颗粒物(PM10),54,58,114,29,42,136,136,100,100,11,45,9,11,0.5,0.8
2023-03-20T17:00:00,1595A,109.9734,39.7884,鄂尔多斯市,奥林花园,颗粒物(PM10),58,66,107,24,40,129,129,104,104,15,55,10,12,0.6,0.9
2023-03-20T17:00:00,1597A,122.2703,40.7094,营口市,大庆路,细颗粒物(PM2.5),115,124,105,87,71,123,111,104,104,33,34,13,12,1.0,0.9
2023-03-20T17:00:00,1598A,122.2150,40.6511,营口市,镜湖西路,细颗粒物(PM2.5),95,133,121,71,60,130,113,105,105,24,25,10,12,1.0,1
2023-03-20T17:00:00,1599A,122.1658,40.6789,营口市,西炮台,细颗粒物(PM2.5),117,129,114,88,73,149,132,120,120,25,31,7,16,1.0,0.8
2023-03-20T17:00:00,1600A,124.3303,40.0625,丹东市,江湾东路,细颗粒物(PM2.5),105,110,127,79,82,133,109,118,118,24,35,12,11,0.9,1.5
2023-03-20T17:00:00,1601A,124.4256,40.1503,丹东市,临江后街,细颗粒物(PM2.5),90,120,131,67,82,141,130,123,123,10,27,12,14,1.0,1.4
2023-03-20T17:00:00,1602A,124.3933,40.1461,丹东市,元宝山,细颗粒物(PM2.5),92,106,125,68,85,131,124,116,116,17,36,13,14,1.3,1.4
2023-03-20T17:00:00,1603A,124.3633,40.1092,丹东市,民主桥,细颗粒物(PM2.5),85,102,132,63,91,135,122,121,121,15,39,12,12,0.9,1.2
2023-03-20T17:00:00,1604A,122.0303,41.1489,盘锦市,开发区,细颗粒物(PM2.5),118,112,96,89,71,126,126,112,112,25,25,11,9,1.1,0.9
2023-03-20T17:00:00,1605A,122.0485,41.0883,盘锦市,兴隆台,细颗粒物(PM2.5),125,119,99,95,71,123,123,109,109,20,23,13,12,0.8,0.7
2023-03-20T17:00:00,1606A,121.8297,41.1028,盘锦市,新生街道,细颗粒物(PM2.5),114,104,84,86,81,121,119,110,110,25,24,8,8,0.9,0.8
2023-03-20T17:00:00,1607A,120.9092,40.7136,葫芦岛市,龙港区,细颗粒物(PM2.5),133,131,106,101,85,122,115,117,96,16,12,13,14,1.3,1.1
2023-03-20T17:00:00,1608A,120.8392,40.7514,葫芦岛市,化工街,细颗粒物(PM2.5),117,151,134,88,82,118,101,108,89,24,23,13,14,1.0,0.7
2023-03-20T17:00:00,1609A,120.8341,40.7073,葫芦岛市,新区,细颗粒物(PM2.5),125,130,103,95,83,123,107,123,90,27,25,16,16,1.1,0.9
2023-03-20T17:00:00,1610A,120.8695,40.7677,葫芦岛市,东城区,细颗粒物(PM2.5),124,136,114,94,83,114,90,112,82,32,30,13,16,1.0,0.9
2023-03-20T17:00:00,1611A,118.5819,24.9117,泉州市,涂山街,颗粒物(PM10),77,103,65,54,38,144,125,95,95,48,36,14,14,0.8,0.7
2023-03-20T17:00:00,1612A,118.5972,24.8978,泉州市,津头埔,颗粒物(PM10),75,99,63,53,39,140,118,90,90,51,39,12,11,0.7,0.7
2023-03-20T17:00:00,1613A,118.6663,24.9424,泉州市,万安,细颗粒物(PM2.5),74,81,62,54,46,152,135,102,102,30,30,13,12,0.7,0.7
2023-03-20T17:00:00,1614A,118.6117,24.9604,泉州市,清源山,,,,,,,,,,,,,,,,
2023-03-20T17:00:00,1616A,117.6795,36.229,济南市,技术学院,颗粒物(PM10),80,110,125,48,69,151,142,126,126,24,34,14,14,0.9,0.9
2023-03-20T17:00:00,1618A,118.3429,35.0532,临沂市,沂河小区,细颗粒物(PM2.5),72,90,92,52,58,131,114,103,103,16,22,10,15,0.2,0.3
2023-03-20T17:00:00,1619A,118.295,35.0583,临沂市,鲁南制药厂,细颗粒物(PM2.5),68,83,93,49,55,135,121,106,106,29,34,13,20,0.3,0.4
2023-03-20T17:00:00,1620A,118.2794,34.9976,临沂市,新光毛纺厂,颗粒物(PM10),68,85,99,43,58,135,114,102,102,22,37,11,18,0.4,0.5
2023-03-20T17:00:00,1621A,118.3956,35.0888,临沂市,河东保险公司,颗粒物(PM10),63,75,91,44,58,139,117,110,110,24,33,10,13,0.6,0.7
2023-03-20T17:00:00,1622A,116.3032,37.4674,德州市,儿童乐园,细颗粒物(PM2.5),67,70,86,48,60,137,137,118,118,18,22,8,7,0.7,0.7
2023-03-20T17:00:00,1624A,116.2991,37.4451,德州市,监理站,细颗粒物(PM2.5),77,95,102,56,69,127,127,110,110,17,21,14,12,0.6,0.6
2023-03-20T17:00:00,1625A,115.9848,36.4372,聊城市,区政府,细颗粒物(PM2.5),97,113,104,72,66,124,116,104,104,20,22,7,10,0.8,0.7
2023-03-20T17:00:00,1628A,118.0062,37.3803,滨州市,市环保局,颗粒物(PM10),92,134,147,52,80,147,147,122,122,19,57,11,16,0.7,0.9
2023-03-20T17:00:00,1629A,118.0018,37.3617,滨州市,第二水厂,颗粒物(PM10),96,141,152,48,79,151,151,126,126,24,63,9,12,0.9,1.1
2023-03-20T17:00:00,1630A,117.9776,37.393,滨州市,北中新校,颗粒物(PM10),93,136,145,55,79,153,153,128,128,29,76,12,12,0.5,0.7
2023-03-20T17:00:00,1631A,118.0414,36.8103,淄博市,人民公园,颗粒物(PM10),86,122,120,62,73,142,140,133,133,29,33,13,17,0.8,0.9
2023-03-20T17:00:00,1633A,117.8525,36.4847,淄博市,双山,颗粒物(PM10),76,101,110,43,62,139,136,125,125,25,29,17,16,1.1,1
2023-03-20T17:00:00,1634A,117.9592,36.6331,淄博市,气象站,颗粒物(PM10),79,107,120,31,57,145,145,136,136,25,31,15,19,0.6,0.7
2023-03-20T17:00:00,1635A,118.3092,36.8194,淄博市,莆田园,颗粒物(PM10),70,90,134,31,69,153,137,140,140,33,49,10,19,0.4,1.4
2023-03-20T17:00:00,1637A,117.558,34.8438,枣庄市,市中区政府,颗粒物(PM10),78,105,121,56,68,131,117,102,102,37,47,20,31,0.6,0.6
2023-03-20T17:00:00,1638A,117.2852,34.7837,枣庄市,薛城环保局,细颗粒物(PM2.5),92,112,106,68,65,124,117,99,99,30,36,16,15,0.7,0.7
2023-03-20T17:00:00,1639A,117.5852,34.7745,枣庄市,峄城区政府,颗粒物(PM10),80,110,113,51,58,121,114,97,97,26,36,16,15,0.5,0.5
2023-03-20T17:00:00,1640A,117.7276,34.5578,枣庄市,台儿庄区环保局,细颗粒物(PM2.5),100,129,112,75,72,112,102,89,89,31,42,14,12,1.0,0.9
2023-03-20T17:00:00,1641A,117.4518,35.0992,枣庄市,山亭区环保局,颗粒物(PM10),82,114,97,51,54,135,122,107,107,28,28,11,11,0.8,0.8
2023-03-20T17:00:00,1642A,121.2514,37.5639,烟台市,开发区,颗粒物(PM10),56,61,86,29,52,115,110,108,108,21,32,7,9,0.3,0.5
2023-03-20T17:00:00,1643A,121.3719,37.5433,烟台市,轴承厂,颗粒物(PM10),56,61,87,22,56,149,135,138,138,12,18,6,7,0.4,0.6
2023-03-20T17:00:00,1644A,121.3181,37.5436,烟台市,西郊化工站,颗粒物(PM10),60,70,92,24,50,146,132,138,138,15,24,7,9,0.4,0.6
2023-03-20T17:00:00,1645A,121.4478,37.4822,烟台市,莱山环保局,颗粒物(PM10),58,66,89,23,52,141,124,128,128,17,24,9,11,0.7,0.9
2023-03-20T17:00:00,1646A,121.2611,37.4967,烟台市,福山环保局,颗粒物(PM10),58,66,92,27,51,136,124,129,129,23,35,8,10,0.4,0.5
2023-03-20T17:00:00,1650A,119.1437,36.7023,潍坊市,环保局,颗粒物(PM10),58,66,104,32,59,145,124,118,118,20,32,6,8,0.6,0.9
2023-03-20T17:00:00,1653A,116.6251,35.4302,济宁市,火炬城,细颗粒物(PM2.5),70,64,75,51,60,134,131,99,99,22,29,13,14,0.8,0.8
2023-03-20T17:00:00,1655A,116.5491,35.4042,济宁市,电化厂,细颗粒物(PM2.5),73,62,84,53,61,132,128,102,102,25,24,8,9,0.7,0.7
2023-03-20T17:00:00,1656A,117.1437,36.1937,泰安市,监测站,细颗粒物(PM2.5),93,117,107,69,79,138,138,121,121,15,20,9,10,0.9,0.9
2023-03-20T17:00:00,1657A,117.0885,36.2017,泰安市,人口学校,细颗粒物(PM2.5),78,100,98,57,60,156,156,138,138,21,18,11,10,0.5,0.5
2023-03-20T17:00:00,1658A,117.1089,36.1758,泰安市,电力学校,细颗粒物(PM2.5),75,97,99,55,62,149,149,130,130,18,22,13,13,0.7,0.8
2023-03-20T17:00:00,1659A,119.471,35.4209,日照市,监测站,颗粒物(PM10),62,73,79,33,40,128,107,114,102,23,38,10,12,0.4,0.6
2023-03-20T17:00:00,1660A,119.523,35.4216,日照市,市政府广场,颗粒物(PM10),59,68,72,31,31,131,107,103,103,11,22,4,8,0.7,0.8
2023-03-20T17:00:00,1661A,119.5587,35.4044,日照市,港务局,颗粒物(PM10),56,61,61,24,27,126,105,106,106,24,32,6,9,0.5,0.6
2023-03-20T17:00:00,1662A,122.1214,37.4236,威海市,华夏技校,,,,74,,48,134,127,126,126,19,21,2,4,0.5,0.7
2023-03-20T17:00:00,1663A,122.0508,37.5236,威海市,山大分校,颗粒物(PM10),56,61,83,17,41,150,132,143,133,17,18,3,4,0.3,0.4
2023-03-20T17:00:00,1664A,122.1067,37.5072,威海市,市监测站,颗粒物(PM10),52,54,75,22,37,151,128,147,128,13,14,5,7,0.4,0.5
2023-03-20T17:00:00,1666A,118.6614,37.4309,东营市,市环保局,颗粒物(PM10),78,105,127,48,72,157,152,131,131,22,32,12,16,0.4,0.6
2023-03-20T17:00:00,1669A,113.5824,24.7733,韶关市,市八中,,,75,71,35,49,51,51,28,22,30,25,,24,0.7,0.8
2023-03-20T17:00:00,1671A,113.5917,24.7972,韶关市,园林处,颗粒物(PM10),65,79,68,27,37,57,25,30,19,45,23,15,24,1.0,0.8
2023-03-20T17:00:00,1672A,113.6735,24.7791,韶关市,韶关学院,颗粒物(PM10),55,59,65,36,59,50,49,24,24,28,28,14,30,0.6,0.7
2023-03-20T17:00:00,1673A,113.5971,24.6863,韶关市,曲江监测站,细颗粒物(PM2.5),53,51,81,37,59,49,49,32,31,28,32,12,23,0.6,1
2023-03-20T17:00:00,1674A,116.6794,23.3667,汕头市,金平子站,,,,,,,,,,,,,,,,
2023-03-20T17:00:00,1675A,116.7244,23.3633,汕头市,龙湖子站,,40,40,29,17,25,113,104,104,104,17,16,3,3,0.7,0.6
2023-03-20T17:00:00,1676A,116.7258,23.2775,汕头市,濠江子站,,36,34,27,25,20,112,100,97,97,19,14,10,10,0.5,0.5
2023-03-20T17:00:00,1677A,116.7519,23.4714,汕头市,澄海子站,,42,42,30,26,30,126,109,109,109,22,20,5,7,0.8,0.8
2023-03-20T17:00:00,1678A,116.6092,23.2539,汕头市,潮阳子站,,33,33,29,14,14,111,81,92,92,26,14,11,6,1.7,0.6
2023-03-20T17:00:00,1680A,110.3539,21.2706,湛江市,湛江影剧院,,32,32,30,14,14,80,56,71,56,5,5,5,5,0.4,0.5
2023-03-20T17:00:00,1681A,110.3928,21.2228,湛江市,市环境监测站,,27,27,27,13,17,85,58,73,56,4,5,6,6,0.4,0.4
2023-03-20T17:00:00,1682A,110.4019,21.1997,湛江市,环保局宿舍,,19,18,27,12,15,86,59,73,56,4,6,4,4,0.3,0.4
2023-03-20T17:00:00,1683A,110.4111,21.2028,湛江市,霞山游泳场,,19,19,25,12,14,92,60,78,58,5,7,4,4,0.3,0.3
2023-03-20T17:00:00,1684A,110.3316,21.2679,湛江市,麻章区环保局,,37,37,31,12,15,79,52,70,51,7,9,5,5,0.3,0.4
2023-03-20T17:00:00,1685A,110.4558,21.2567,湛江市,坡头区环保局,,20,19,24,10,14,93,64,77,58,5,6,6,6,0.4,0.5
2023-03-20T17:00:00,1686A,111.0286,21.4688,茂名市,电白南海,,31,31,43,17,18,98,78,85,76,6,10,5,6,0.4,0.5
2023-03-20T17:00:00,1687A,110.9294,21.6533,茂名市,茂石化七小,,41,41,39,17,21,82,62,76,65,8,10,7,6,0.4,0.5
2023-03-20T17:00:00,1688A,110.9107,21.6687,茂名市,健康路,,29,29,35,6,13,83,64,80,66,7,8,7,6,0.6,0.6
2023-03-20T17:00:00,1689A,110.8592,21.6828,茂名市,高岭,,29,29,36,17,24,82,62,76,62,9,11,8,8,0.5,0.6
2023-03-20T17:00:00,1690A,116.1231,24.3284,梅州市,梅江月梅,,,46,55,27,35,125,94,96,96,,18,9,11,0.5,0.6
2023-03-20T17:00:00,1691A,116.0797,24.2719,梅州市,梅县新城,,39,38,60,27,38,123,96,112,112,14,26,8,10,0.7,0.8
2023-03-20T17:00:00,1692A,116.1248,24.2654,梅州市,环境监控中心,,38,36,56,26,37,115,90,101,101,14,33,8,9,0.6,0.6
2023-03-20T17:00:00,1693A,115.3653,22.775,汕尾市,市环保局,,46,46,29,12,15,118,101,106,106,6,9,8,9,0.6,0.6
2023-03-20T17:00:00,1694A,115.3706,22.7898,汕尾市,市政府,,33,22,27,16,16,119,104,108,108,7,11,8,9,0.6,0.6
2023-03-20T17:00:00,1695A,115.3622,22.7925,汕尾市,新城中学,,34,20,31,15,16,118,106,110,110,3,7,6,7,0.6,0.6
2023-03-20T17:00:00,1696A,114.6778,23.7569,河源市,源西,,41,41,32,21,19,111,104,86,86,13,13,5,5,0.6,0.6
2023-03-20T17:00:00,1697A,114.6944,23.7586,河源市,东埔,,39,39,37,26,22,126,110,94,94,17,14,5,5,0.6,0.6
2023-03-20T17:00:00,1698A,114.6892,23.7233,河源市,老城,,,71,50,29,22,125,103,95,95,,14,5,5,0.7,0.7
2023-03-20T17:00:00,1699A,111.9797,21.8593,阳江市,鸳鸯湖,,28,27,32,15,17,95,87,86,86,3,3,7,7,0.6,0.6
2023-03-20T17:00:00,1701A,111.9491,21.8658,阳江市,马南垌,,36,36,36,15,17,96,85,91,85,5,5,5,5,0.5,0.5
2023-03-20T17:00:00,1702A,113.0426,23.691,清远市,环保大楼,,32,29,48,22,30,84,81,62,62,20,26,6,5,1.0,1
2023-03-20T17:00:00,1703A,113.0208,23.7106,清远市,凤城街办,,37,37,54,16,28,70,69,50,50,18,23,10,8,0.5,0.6
2023-03-20T17:00:00,1705A,116.6367,23.6719,潮州市,西园路,臭氧1小时,69,66,46,44,44,175,175,126,126,20,19,8,8,0.8,0.7
2023-03-20T17:00:00,1706A,116.6447,23.6706,潮州市,档案局,细颗粒物(PM2.5),69,63,48,50,42,174,171,128,128,18,16,12,13,0.7,0.6
2023-03-20T17:00:00,1708A,116.3701,23.5345,揭阳市,新兴,颗粒物(PM10),53,55,52,32,41,142,142,108,108,17,26,10,14,0.7,0.8
2023-03-20T17:00:00,1709A,116.3264,23.5443,揭阳市,西马,颗粒物(PM10),54,57,57,35,38,140,140,112,112,16,19,10,14,0.8,0.8
2023-03-20T17:00:00,1710A,116.3611,23.5626,揭阳市,东兴,颗粒物(PM10),54,57,55,25,39,159,159,122,122,15,25,6,12,0.9,0.8
2023-03-20T17:00:00,1711A,116.4151,23.5294,揭阳市,渔湖,颗粒物(PM10),51,51,49,31,30,149,145,111,111,11,20,10,16,0.8,0.8
2023-03-20T17:00:00,1712A,112.0392,22.9169,云浮市,新市府,,28,28,27,16,20,78,65,59,59,5,7,3,3,0.7,0.8
2023-03-20T17:00:00,1714A,112.0539,22.9539,云浮市,牧羊,,42,42,39,18,24,64,53,56,46,18,20,6,6,0.5,0.6
2023-03-20T17:00:00,1715A,102.575,24.3711,玉溪市,东风水库,,33,33,38,17,29,102,95,96,96,6,11,4,5,0.5,0.7
2023-03-20T17:00:00,1718A,115.4208,35.2464,菏泽市,气象局,细颗粒物(PM2.5),79,98,104,58,66,110,98,84,84,27,34,8,12,0.6,0.6
2023-03-20T17:00:00,1719A,115.4747,35.2375,菏泽市,市政协,细颗粒物(PM2.5),72,83,95,52,61,118,108,92,92,21,28,6,9,0.7,0.6
2023-03-20T17:00:00,1721A,113.3819,40.1097,大同市,果树场,,,,,,,,,,,,,,,,
2023-03-20T17:00:00,1723A,113.2994,40.0758,大同市,云冈宾馆,颗粒物(PM10),66,81,108,43,47,138,138,109,109,26,38,12,16,0.5,0.7
2023-03-20T17:00:00,1724A,113.3444,40.0917,大同市,大同大学,颗粒物(PM10),60,70,92,34,41,140,140,112,112,15,37,10,13,0.4,0.8
2023-03-20T17:00:00,1725A,113.2661,40.1269,大同市,安家小村,,,60,108,42,49,128,127,111,111,19,36,9,14,,0.9
2023-03-20T17:00:00,1726A,113.2711,40.0844,大同市,教育学院,颗粒物(PM10),62,74,99,36,41,129,129,97,97,21,40,10,16,0.5,0.7
2023-03-20T17:00:00,1727A,113.1147,36.1547,长治市,清华站,,42,32,46,29,34,139,124,110,110,22,24,7,7,0.9,1
2023-03-20T17:00:00,1728A,113.1031,36.1989,长治市,监测站,,49,40,42,34,33,130,114,104,104,23,22,5,4,1.1,0.9
2023-03-20T17:00:00,1730A,113.0886,36.2125,长治市,审计局,细颗粒物(PM2.5),58,39,42,41,37,121,111,105,105,23,26,8,7,0.9,0.8
2023-03-20T17:00:00,1731A,113.0844,36.1856,长治市,长治八中,,36,11,51,18,26,131,114,106,106,16,19,4,4,0.8,0.7
2023-03-20T17:00:00,1733A,111.5531,36.0783,临汾市,临钢医院,细颗粒物(PM2.5),80,67,81,59,61,133,115,92,92,18,28,4,4,0.8,0.8
2023-03-20T17:00:00,1734A,111.5028,36.0714,临汾市,技工学校,细颗粒物(PM2.5),74,57,78,54,60,130,111,98,98,18,25,6,7,0.8,0.9
2023-03-20T17:00:00,1736A,111.5018,36.0855,临汾市,市委,"颗粒物(PM10),细颗粒物(PM2.5)",62,73,83,44,60,144,124,110,110,16,25,6,7,0.8,1
2023-03-20T17:00:00,1738A,113.5758,37.8572,阳泉市,市中心,细颗粒物(PM2.5),104,146,169,78,103,128,122,82,82,29,54,32,17,1.2,1.4
2023-03-20T17:00:00,1739A,113.4894,37.8731,阳泉市,赛鱼,细颗粒物(PM2.5),109,142,150,82,104,129,124,99,99,36,50,21,14,1.2,1.2
2023-03-20T17:00:00,1740A,113.5819,37.8486,阳泉市,南庄,细颗粒物(PM2.5),117,155,178,88,108,130,123,87,87,45,62,40,20,1.2,1.5
2023-03-20T17:00:00,1742A,113.5614,37.8703,阳泉市,平坦,细颗粒物(PM2.5),123,124,174,93,111,125,121,85,85,32,59,20,16,1.3,1.5
2023-03-20T17:00:00,1743A,113.5158,37.8392,阳泉市,大阳泉,颗粒物(PM10),87,123,124,36,81,132,129,102,102,30,32,25,13,1.2,1.2
2023-03-20T17:00:00,1744A,118.9233,42.2816,赤峰市,松山一中,,30,22,68,10,38,114,93,114,99,20,26,8,11,0.4,0.6
2023-03-20T17:00:00,1745A,118.9576,42.2728,赤峰市,哈达街,,29,16,66,9,37,109,90,105,98,24,30,9,12,0.4,0.6
2023-03-20T17:00:00,1746A,118.8788,42.2554,赤峰市,天义路,,31,8,49,5,32,114,97,110,105,16,21,5,11,0.3,0.5
2023-03-20T17:00:00,1748A,123.044,41.1196,鞍山市,深沟寺,细颗粒物(PM2.5),115,133,120,87,73,132,122,127,126,23,22,13,14,1.0,1
2023-03-20T17:00:00,1749A,123.011,41.0931,鞍山市,太阳城,细颗粒物(PM2.5),108,135,134,81,70,133,116,131,120,24,23,19,16,1.0,0.9
2023-03-20T17:00:00,1750A,123.0485,41.1442,鞍山市,太平,细颗粒物(PM2.5),122,159,145,92,80,123,110,114,114,30,32,15,17,0.9,0.9
2023-03-20T17:00:00,1751A,122.9642,41.0971,鞍山市,铁西三道街,细颗粒物(PM2.5),113,146,146,85,78,121,101,114,114,37,41,11,20,1.0,1.3
2023-03-20T17:00:00,1752A,122.9341,41.0833,鞍山市,铁西工业园区,细颗粒物(PM2.5),113,136,137,85,81,122,111,116,116,24,27,14,15,0.9,1.2
2023-03-20T17:00:00,1753A,123.022,41.0821,鞍山市,明达新区,细颗粒物(PM2.5),105,130,129,79,68,136,123,134,126,25,24,10,13,0.9,0.9
2023-03-20T17:00:00,1754A,123.1289,41.0228,鞍山市,千山,,,,,,,,,,,,,,,,
2023-03-20T17:00:00,1755A,123.7977,41.8491,抚顺市,望花区,细颗粒物(PM2.5),114,129,114,86,77,138,130,130,130,30,39,25,28,1.0,1
2023-03-20T17:00:00,1756A,123.9161,41.8822,抚顺市,顺城区,细颗粒物(PM2.5),104,131,116,78,63,142,137,130,130,30,46,13,13,0.9,1.1
2023-03-20T17:00:00,1757A,124.0436,41.8611,抚顺市,东洲区,细颗粒物(PM2.5),112,123,110,84,69,148,136,140,140,21,23,14,10,0.9,0.9
2023-03-20T17:00:00,1758A,123.9247,41.8642,抚顺市,新抚区,细颗粒物(PM2.5),119,136,134,90,90,137,137,129,129,23,42,15,14,0.8,1
2023-03-20T17:00:00,1759A,124.0972,41.8961,抚顺市,大伙房水库,细颗粒物(PM2.5),108,114,105,81,65,152,150,146,146,15,20,10,11,0.7,0.9
2023-03-20T17:00:00,1760A,123.7086,41.8391,抚顺市,沈抚新城,细颗粒物(PM2.5),114,135,110,86,71,148,127,136,136,28,27,17,17,0.9,0.7
2023-03-20T17:00:00,1761A,123.8275,41.3064,本溪市,大峪,细颗粒物(PM2.5),108,129,110,81,60,132,130,120,120,22,31,8,9,0.7,1.1
2023-03-20T17:00:00,1762A,123.7567,41.3325,本溪市,溪湖,细颗粒物(PM2.5),114,130,110,86,61,121,119,113,113,24,29,12,16,0.9,1.2
2023-03-20T17:00:00,1763A,123.7169,41.3094,本溪市,彩屯,细颗粒物(PM2.5),139,174,136,106,81,105,84,88,88,58,50,120,55,2.7,2.6
2023-03-20T17:00:00,1764A,123.7669,41.2864,本溪市,东明,细颗粒物(PM2.5),108,91,85,81,58,119,115,113,113,25,28,14,18,0.9,0.9
2023-03-20T17:00:00,1765A,123.7992,41.2664,本溪市,新立屯,细颗粒物(PM2.5),113,121,93,85,60,124,124,118,118,23,30,9,10,1.0,0.9
2023-03-20T17:00:00,1766A,123.8142,41.3472,本溪市,威宁,细颗粒物(PM2.5),105,116,114,79,66,118,117,109,109,34,45,6,6,0.7,0.8
2023-03-20T17:00:00,1767A,121.1115,41.0879,锦州市,南山,细颗粒物(PM2.5),139,168,119,106,96,121,108,116,96,34,33,15,20,0.9,0.8
2023-03-20T17:00:00,1768A,121.0533,40.8434,锦州市,开发区,细颗粒物(PM2.5),137,165,134,104,92,114,104,114,90,38,36,12,20,1.0,0.8
2023-03-20T17:00:00,1769A,121.1836,41.1119,锦州市,百股街道,颗粒物(PM10),101,151,104,,83,125,96,119,89,31,28,10,17,,1
2023-03-20T17:00:00,1770A,121.1178,41.1222,锦州市,天安街道,细颗粒物(PM2.5),137,168,125,104,97,120,103,115,92,36,33,16,20,1.3,1
2023-03-20T17:00:00,1771A,121.1303,41.1386,锦州市,北湖公园,细颗粒物(PM2.5),139,155,115,106,88,122,100,116,91,35,32,15,18,1.1,0.9
2023-03-20T17:00:00,1772A,126.54,43.8622,吉林市,哈达湾,细颗粒物(PM2.5),72,84,83,52,48,153,142,146,146,16,22,6,10,0.8,0.8
2023-03-20T17:00:00,1773A,126.5844,43.8358,吉林市,东局子,细颗粒物(PM2.5),74,85,85,54,50,149,139,143,143,18,30,8,10,0.7,0.8
2023-03-20T17:00:00,1774A,126.5052,43.8245,吉林市,电力学院,细颗粒物(PM2.5),80,93,96,59,56,151,140,147,147,16,31,8,13,0.5,0.7
2023-03-20T17:00:00,1775A,126.6133,43.8972,吉林市,江北,"颗粒物(PM10),细颗粒物(PM2.5)",70,90,91,51,50,146,137,142,142,19,24,11,12,0.7,0.8
2023-03-20T17:00:00,1776A,126.555,43.8306,吉林市,江南公园,细颗粒物(PM2.5),82,104,90,60,53,147,139,141,141,15,27,7,10,0.6,0.7
2023-03-20T17:00:00,1778A,126.7061,43.7133,吉林市,丰满,,,,,,,,,,,,,,,,
2023-03-20T17:00:00,1779A,123.9305,47.3636,齐齐哈尔市,安居小区,颗粒物(PM10),81,112,77,45,42,142,142,97,97,21,24,8,7,1.0,0.7
2023-03-20T17:00:00,1780A,123.9488,47.3386,齐齐哈尔市,中心广场,颗粒物(PM10),76,102,72,45,32,130,130,88,88,32,29,11,9,0.8,0.6
2023-03-20T17:00:00,1781A,123.9483,47.3227,齐齐哈尔市,农牧车辆厂,颗粒物(PM10),84,117,84,57,40,143,143,95,95,21,26,10,9,0.6,0.7
2023-03-20T17:00:00,1783A,123.945,47.2988,齐齐哈尔市,市环境监测站,细颗粒物(PM2.5),152,164,83,116,49,147,147,98,98,27,25,12,11,0.6,0.5
2023-03-20T17:00:00,1784A,129.61,44.561,牡丹江市,环保大楼,,36,33,56,19,32,121,113,113,113,20,31,4,6,0.4,0.6
2023-03-20T17:00:00,1785A,129.6115,44.5782,牡丹江市,文化广场,,43,43,71,18,43,114,112,105,105,22,46,4,7,0.5,0.9
2023-03-20T17:00:00,1786A,129.5904,44.5963,牡丹江市,第一医院,,48,48,69,29,45,117,117,109,109,18,35,2,4,0.4,0.8
2023-03-20T17:00:00,1787A,129.6364,44.6075,牡丹江市,机车工厂,颗粒物(PM10),62,73,70,18,34,118,113,107,107,20,34,2,4,0.4,0.7
2023-03-20T17:00:00,1788A,129.6386,44.5462,牡丹江市,第一中学,,39,32,42,13,22,124,122,116,116,13,26,2,5,0.4,0.5
2023-03-20T17:00:00,1789A,124.81117,46.03138,大庆市,大同区,细颗粒物(PM2.5),78,89,62,57,50,133,131,116,116,24,18,6,7,0.6,0.6
2023-03-20T17:00:00,1790A,125.129,46.533,大庆市,龙凤区,颗粒物(PM10),90,130,76,60,37,121,121,105,105,19,18,6,5,0.8,0.6
2023-03-20T17:00:00,1791A,124.902,46.408,大庆市,红岗区,颗粒物(PM10),75,99,62,45,29,132,130,117,117,18,15,7,8,0.6,0.5
2023-03-20T17:00:00,1792A,125.153,46.586,大庆市,萨尔图区,,,142,83,68,44,128,124,100,100,28,22,9,9,,0.6
2023-03-20T17:00:00,1793A,124.9042,46.6215,大庆市,让胡路区,颗粒物(PM10),70,90,56,46,30,129,126,111,111,21,16,7,7,0.8,0.4
2023-03-20T17:00:00,1794A,118.3606,31.3519,芜湖市,监测站,,,,50,,45,94,67,60,57,30,32,7,7,,0.7
2023-03-20T17:00:00,1795A,118.3714,31.4134,芜湖市,科创中心,细颗粒物(PM2.5),94,85,71,70,50,84,60,61,56,30,31,5,6,0.8,0.6
2023-03-20T17:00:00,1796A,118.3673,31.3131,芜湖市,四水厂,细颗粒物(PM2.5),64,51,61,46,43,94,68,59,59,28,33,7,8,0.6,0.5
2023-03-20T17:00:00,1798A,118.5092,31.6837,马鞍山市,湖东路四小,细颗粒物(PM2.5),73,54,44,53,41,81,62,69,61,34,32,9,9,0.8,0.8
2023-03-20T17:00:00,1799A,118.5024,31.6449,马鞍山市,开发区,细颗粒物(PM2.5),70,71,58,51,48,78,62,70,57,19,26,4,5,0.6,0.6
2023-03-20T17:00:00,1800A,118.5228,31.7231,马鞍山市,慈湖,细颗粒物(PM2.5),62,62,55,44,42,88,60,67,60,36,33,5,5,0.7,0.6
2023-03-20T17:00:00,1802A,118.6245,31.7241,马鞍山市,濮塘,颗粒物(PM10),59,68,54,41,29,88,60,62,62,28,23,5,5,1.1,1
2023-03-20T17:00:00,1803A,115.9872,29.6815,九江市,十里,,17,15,34,7,24,30,13,14,14,33,41,7,7,0.8,0.8
2023-03-20T17:00:00,1804A,115.9584,29.7046,九江市,茅山头,,21,8,34,8,30,28,8,23,14,41,42,8,8,1.0,0.9
2023-03-20T17:00:00,1805A,115.9877,29.7295,九江市,西园,,16,11,33,3,34,41,19,23,23,32,41,11,11,0.9,0.9
2023-03-20T17:00:00,1806A,116.0172,29.6547,九江市,五七二七厂,,15,14,27,10,32,31,22,16,16,12,23,6,6,0.8,0.8
2023-03-20T17:00:00,1808A,115.9114,29.6038,九江市,综合工业园,,24,16,31,14,34,13,4,6,6,48,52,9,9,1.1,1.2
2023-03-20T17:00:00,1809A,116.0721,29.7535,九江市,石化总厂,,13,3,40,4,26,49,15,41,22,26,33,8,8,0.8,0.8
2023-03-20T17:00:00,1810A,115.9773,29.5698,九江市,庐山气象台,,20,2,9,6,13,65,63,59,59,2,6,6,6,0.6,1
2023-03-20T17:00:00,1812A,112.3931,34.6516,洛阳市,市委党校,细颗粒物(PM2.5),103,113,80,77,55,78,62,58,58,36,22,8,7,0.8,0.6
2023-03-20T17:00:00,1814A,112.4657,34.6871,洛阳市,豫西宾馆,细颗粒物(PM2.5),112,106,75,84,61,67,40,57,42,37,20,7,6,0.8,0.7
2023-03-20T17:00:00,1815A,112.494,34.6886,洛阳市,河南林校,细颗粒物(PM2.5),112,100,70,84,59,71,37,57,43,42,25,6,5,0.7,0.6
2023-03-20T17:00:00,1816A,112.3844,34.623,洛阳市,开发区管委会,细颗粒物(PM2.5),99,95,72,74,58,73,57,54,54,34,23,7,6,0.6,0.5
2023-03-20T17:00:00,1817A,112.4267,34.6258,洛阳市,市委新办公区,细颗粒物(PM2.5),125,96,73,95,72,67,46,53,50,43,26,6,6,0.7,0.6
2023-03-20T17:00:00,1818A,114.4839,36.0621,安阳市,棉研所,,,,,,,,,,,,,,,,
2023-03-20T17:00:00,1819A,114.3551,36.1017,安阳市,红庙街,,,37,74,35,68,107,,77,74,16,24,7,8,0.4,0.5
2023-03-20T17:00:00,1820A,114.361,36.0681,安阳市,银杏小区,细颗粒物(PM2.5),67,25,62,48,75,96,69,69,69,15,22,7,8,0.5,0.6
2023-03-20T17:00:00,1824A,114.3389,34.7781,开封市,肿瘤医院,,,78,89,,81,106,88,72,72,19,27,5,6,0.7,0.7
2023-03-20T17:00:00,1826A,114.2885,34.7965,开封市,世纪星幼儿园,细颗粒物(PM2.5),98,67,88,73,82,105,81,71,71,17,24,5,5,0.6,0.5
2023-03-20T17:00:00,1828A,113.227,35.2125,焦作市,市环保局,细颗粒物(PM2.5),93,95,107,69,73,114,61,57,54,27,21,4,8,0.8,0.8
2023-03-20T17:00:00,1830A,113.1992,35.2590,焦作市,影视城,,,,,,,,,,,,,,,,
2023-03-20T17:00:00,1832A,113.3257,33.742,平顶山市,新华旅馆,细颗粒物(PM2.5),58,46,71,41,47,69,59,60,60,16,19,6,6,0.5,0.5
2023-03-20T17:00:00,1833A,113.2919,33.737,平顶山市,规划设计院,细颗粒物(PM2.5),69,60,68,50,55,72,64,64,64,17,20,3,3,0.7,0.7
2023-03-20T17:00:00,1834A,113.182,33.774,平顶山市,平顶山工学院,细颗粒物(PM2.5),58,61,70,41,48,80,69,71,71,12,15,3,2,0.6,0.6
2023-03-20T17:00:00,1835A,111.1922,34.7752,三门峡市,市政府,细颗粒物(PM2.5),78,50,54,57,63,110,89,76,62,18,17,7,6,0.9,0.8
2023-03-20T17:00:00,1836A,111.1587,34.7942,三门峡市,开发区,细颗粒物(PM2.5),74,61,87,54,69,110,94,78,59,17,18,6,4,0.6,0.6
2023-03-20T17:00:00,1838A,111.143,34.7955,三门峡市,风景区,,,,,,,,,,,,,,,,
2023-03-20T17:00:00,1840A,111.2992,30.6981,宜昌市,白龙岗,细颗粒物(PM2.5),58,51,75,41,58,35,27,25,23,31,30,6,6,0.9,0.8
2023-03-20T17:00:00,1841A,111.3549,30.6465,宜昌市,伍家岗,细颗粒物(PM2.5),55,54,70,39,54,50,42,34,32,24,28,8,9,0.8,0.7
2023-03-20T17:00:00,1842A,111.2628,30.6961,宜昌市,点军区,颗粒物(PM10),63,75,75,34,59,39,34,33,24,27,26,6,6,0.8,0.7
2023-03-20T17:00:00,1843A,111.3275,30.7819,宜昌市,夷陵区,细颗粒物(PM2.5),52,43,58,36,62,46,46,40,34,22,25,6,6,0.7,0.7
2023-03-20T17:00:00,1844A,112.2494,30.3197,荆州市,市图书馆,,41,41,50,26,47,55,32,29,29,22,30,11,5,0.7,0.7
2023-03-20T17:00:00,1845A,112.2008,30.3544,荆州市,市委党校,,,,44,,45,48,22,29,27,25,28,10,6,0.9,0.8
2023-03-20T17:00:00,1847A,113.1094,29.3578,岳阳市,南湖风景区,,32,29,24,22,18,21,2,13,8,31,25,4,5,1.0,0.9
2023-03-20T17:00:00,1848A,113.1493,29.4251,岳阳市,城陵矶,,29,29,24,16,18,17,4,9,4,37,34,2,2,1.0,0.8
2023-03-20T17:00:00,1849A,113.1497,29.3575,岳阳市,开发区,,,26,21,13,18,22,,17,11,,27,,6,,0.9
2023-03-20T17:00:00,1850A,113.2621,29.4758,岳阳市,云溪区,,20,14,20,14,14,29,23,14,14,15,28,6,6,0.8,0.8
2023-03-20T17:00:00,1851A,112.9943,29.4402,岳阳市,君山区,,29,27,19,20,18,27,10,16,15,31,25,5,6,0.6,0.5
2023-03-20T17:00:00,1852A,113.2117,29.355,岳阳市,金凤水库,,17,17,20,9,13,23,9,13,13,27,22,1,4,0.7,0.7
2023-03-20T17:00:00,1854A,111.6975,28.9703,常德市,市二中,,43,19,21,30,18,33,20,25,24,17,19,5,6,0.8,0.7
2023-03-20T17:00:00,1857A,111.7158,29.1456,常德市,白鹤山,,16,14,20,11,12,30,28,27,27,9,13,3,3,0.7,0.6
2023-03-20T17:00:00,1858A,110.5319,29.1217,张家界市,永定新区,,38,38,34,18,21,51,38,28,28,16,15,4,4,0.7,0.6
2023-03-20T17:00:00,1859A,110.4697,29.1242,张家界市,电业局,颗粒物(PM10),54,57,32,26,27,52,35,31,24,20,17,6,8,0.6,0.6
2023-03-20T17:00:00,1860A,110.5594,29.3547,张家界市,未央路,,22,19,32,15,24,55,46,39,37,6,7,6,5,0.7,0.5
2023-03-20T17:00:00,1861A,110.4417,29.315,张家界市,袁家界,,29,20,9,20,7,51,32,47,32,11,8,4,4,0.6,0.6
2023-03-20T17:00:00,1862A,110.4144,25.3167,桂林市,电子科大尧山校区,,44,44,19,25,13,36,21,29,24,12,9,6,2,0.9,0.8
2023-03-20T17:00:00,1863A,110.2819,25.2697,桂林市,监测站,细颗粒物(PM2.5),59,62,29,42,19,24,4,24,7,33,22,12,10,1.0,0.8
2023-03-20T17:00:00,1864A,110.3089,25.2708,桂林市,龙隐路小学,细颗粒物(PM2.5),57,41,27,40,21,25,4,21,9,27,16,7,13,1.0,0.7
2023-03-20T17:00:00,1865A,110.2869,25.2178,桂林市,八中,,,,29,,19,20,3,18,6,36,23,,8,,0.6
2023-03-20T17:00:00,1866A,109.2262,21.588,北海市,牛尾岭水库,,22,22,29,8,13,75,65,58,58,3,7,7,7,0.3,0.4
2023-03-20T17:00:00,1867A,109.1436,21.4086,北海市,海滩公园,,25,8,26,12,9,77,77,65,64,5,8,2,3,0.5,0.5
2023-03-20T17:00:00,1868A,109.0981,21.4661,北海市,新市环保局,,22,21,27,12,12,78,68,65,58,6,9,2,3,0.5,0.5
2023-03-20T17:00:00,1869A,109.1778,21.5233,北海市,北海工业园,,42,42,38,12,17,79,70,66,64,5,9,4,5,0.3,0.4
2023-03-20T17:00:00,1870A,109.4856,24.3895,柳州市,柳东小学,细颗粒物(PM2.5),119,61,33,90,38,23,22,14,14,26,15,12,11,0.6,0.6
2023-03-20T17:00:00,1871A,109.4157,24.3277,柳州市,环保监测站,细颗粒物(PM2.5),59,56,47,42,25,24,24,9,9,28,22,6,7,1.0,1
2023-03-20T17:00:00,1872A,109.389,24.341,柳州市,河西水厂,颗粒物(PM10),58,66,58,33,29,27,27,8,8,26,24,8,12,0.8,0.9
2023-03-20T17:00:00,1873A,109.4311,24.2921,柳州市,市四中,颗粒物(PM10),75,99,45,24,18,28,28,13,13,21,18,8,10,0.9,1
2023-03-20T17:00:00,1874A,109.4006,24.3631,柳州市,市九中,细颗粒物(PM2.5),80,102,53,59,28,14,9,9,9,40,21,9,10,1.0,0.8
2023-03-20T17:00:00,1875A,109.4958,24.3134,柳州市,古亭山,颗粒物(PM10),52,54,39,25,27,42,42,17,17,11,14,4,4,0.7,0.8
2023-03-20T17:00:00,1876A,109.5078,18.2489,三亚市,河东子站,,14,11,20,9,12,53,42,44,44,5,6,2,2,0.2,0.3
2023-03-20T17:00:00,1877A,109.4964,18.2681,三亚市,河西子站,,14,12,21,8,9,54,42,45,45,4,5,3,3,0.3,0.3
2023-03-20T17:00:00,1878A,104.7778,31.4741,绵阳市,富乐山,,28,20,23,15,16,87,87,73,73,6,6,5,4,0.6,0.6
2023-03-20T17:00:00,1879A,104.7563,31.4535,绵阳市,市人大,,26,23,27,12,19,82,82,65,65,14,19,5,6,0.6,0.7
2023-03-20T17:00:00,1880A,104.6697,31.4668,绵阳市,高新区自来水公司,,30,17,18,20,25,95,95,73,73,5,14,4,4,0.6,0.7
2023-03-20T17:00:00,1881A,104.7287,31.5075,绵阳市,三水厂,,28,21,26,11,19,87,87,72,72,10,14,3,3,0.5,0.5
2023-03-20T17:00:00,1882A,104.563,28.793,宜宾市,石马中学,,36,36,52,25,37,104,103,84,84,19,30,6,7,0.6,0.7
2023-03-20T17:00:00,1883A,104.6201,28.7728,宜宾市,市委,颗粒物(PM10),51,52,65,33,44,97,97,70,70,23,31,10,10,0.6,0.6
2023-03-20T17:00:00,1884A,104.6055,28.793,宜宾市,宜宾四中,颗粒物(PM10),52,53,68,31,45,100,96,69,69,24,37,7,9,0.6,0.6
2023-03-20T17:00:00,1885A,104.639,28.7562,宜宾市,市政府,,45,45,58,30,41,108,108,75,75,20,33,10,14,0.6,0.6
2023-03-20T17:00:00,1886A,104.5742,28.7199,宜宾市,黄金嘴,,48,48,58,31,41,102,100,83,83,25,34,9,11,0.6,0.6
2023-03-20T17:00:00,1888A,101.6891,26.571,攀枝花市,弄弄坪,,30,30,34,9,19,113,76,94,81,20,18,33,19,2.6,1.4
2023-03-20T17:00:00,1889A,101.5769,26.5928,攀枝花市,河门口,,30,12,28,5,17,130,96,91,89,6,16,6,16,0.3,0.5
2023-03-20T17:00:00,1890A,101.7169,26.585,攀枝花市,炳草岗,,27,27,27,5,15,120,85,89,89,11,16,12,8,1.1,0.7
2023-03-20T17:00:00,1891A,101.7369,26.5008,攀枝花市,仁和,,28,10,25,5,16,119,88,106,94,8,10,8,8,0.4,0.5
2023-03-20T17:00:00,1893A,105.4324,28.9634,泸州市,九狮山,,35,35,36,18,22,107,107,71,71,12,24,9,12,0.2,0.4
2023-03-20T17:00:00,1894A,105.4427,28.9063,泸州市,小市上码头,,41,41,49,22,30,101,101,69,69,13,22,7,12,0.7,0.9
2023-03-20T17:00:00,1895A,105.4241,28.8573,泸州市,兰田宪桥,,45,42,45,31,33,100,100,71,71,13,25,11,14,0.8,0.8
2023-03-20T17:00:00,1896A,105.4379,28.8833,泸州市,市环监站,,35,34,42,24,24,91,91,60,60,18,26,5,7,0.5,0.7
2023-03-20T17:00:00,1901A,104.4239,31.1208,德阳市,东山公园,,28,21,31,19,31,82,71,62,62,20,12,2,1,0.6,0.6
2023-03-20T17:00:00,1902A,104.3826,31.1317,德阳市,西小区,,30,29,39,21,35,82,72,60,60,14,15,2,1,0.5,0.6
2023-03-20T17:00:00,1904A,104.3553,31.1091,德阳市,耐火材料厂,,33,26,34,23,34,81,79,58,58,10,19,2,2,0.5,0.6
2023-03-20T17:00:00,1905A,106.056,30.8064,南充市,西山风景区,,,5,17,15,18,109,109,78,78,,12,4,4,0.7,0.7
2023-03-20T17:00:00,1906A,106.0789,30.8023,南充市,南充市委,,32,24,36,6,16,103,102,75,75,18,16,10,9,0.4,0.6
2023-03-20T17:00:00,1907A,106.1031,30.8217,南充市,南充炼油厂,,35,24,36,11,16,110,110,77,77,11,15,10,9,0.3,0.5
2023-03-20T17:00:00,1908A,106.1064,30.7856,南充市,高坪区监测站,,33,23,32,4,21,104,104,74,74,14,15,9,10,0.4,0.6
2023-03-20T17:00:00,1909A,106.0642,30.7636,南充市,嘉陵区环保局,,34,22,28,9,18,107,107,76,76,17,19,9,9,0.6,0.7
2023-03-20T17:00:00,1910A,106.1087,30.8388,南充市,市环境监测站,,35,27,32,18,24,109,109,77,77,15,17,11,10,0.3,0.4
2023-03-20T17:00:00,1911A,106.9222,27.6869,遵义市,丁字口,,19,15,13,13,9,56,47,49,39,17,15,10,10,0.6,0.5
2023-03-20T17:00:00,1912A,106.9242,27.7019,遵义市,凤凰山,,24,24,17,9,9,48,41,41,33,13,12,4,3,0.6,0.5
2023-03-20T17:00:00,1913A,106.8906,27.6486,遵义市,忠庄,,28,12,24,19,15,49,39,46,34,16,12,2,2,0.5,0.5
2023-03-20T17:00:00,1914A,106.9231,27.6506,遵义市,舟水桥,,16,8,15,10,14,51,51,47,40,10,7,3,4,0.8,0.7
2023-03-20T17:00:00,1915A,106.9178,27.72,遵义市,干田坝,,18,7,15,12,12,52,42,45,34,17,14,8,7,0.4,0.3
2023-03-20T17:00:00,1916A,103.7897,25.5035,曲靖市,环境监测站,颗粒物(PM10),55,60,46,7,13,114,93,95,95,5,7,5,7,0.4,0.5
2023-03-20T17:00:00,1917A,103.8,25.5364,曲靖市,烟厂办公区,,49,49,43,12,16,121,100,101,101,5,8,4,7,0.6,0.6
2023-03-20T17:00:00,1918A,108.7197,34.3956,咸阳市,气象站,细颗粒物(PM2.5),84,52,76,62,73,128,128,93,93,19,39,5,4,0.8,0.9
2023-03-20T17:00:00,1919A,108.673,34.3155,咸阳市,实验中学,细颗粒物(PM2.5),105,97,98,79,82,129,110,100,100,25,35,6,6,0.9,0.8
2023-03-20T17:00:00,1920A,108.7233,34.3617,咸阳市,师范学院,细颗粒物(PM2.5),77,77,88,56,51,125,121,93,93,18,34,8,7,0.7,0.8
2023-03-20T17:00:00,1922A,109.0656,35.0994,铜川市,党校,颗粒物(PM10),66,82,81,33,35,129,115,96,96,41,44,12,8,1.2,0.9
2023-03-20T17:00:00,1923A,109.0697,35.0697,铜川市,王益区政府,细颗粒物(PM2.5),83,74,80,61,65,118,110,89,89,38,39,11,7,1.2,1
2023-03-20T17:00:00,1924A,108.9344,34.9058,铜川市,新区管委会,细颗粒物(PM2.5),78,63,86,57,74,137,128,88,88,20,31,13,10,0.8,0.8
2023-03-20T17:00:00,1926A,109.4131,36.6275,延安市,枣园,,39,20,45,20,39,138,123,109,109,13,29,6,6,0.6,0.7
2023-03-20T17:00:00,1927A,109.4761,36.6028,延安市,延大医附院,,38,35,49,21,41,134,121,129,106,11,25,4,5,0.6,0.7
2023-03-20T17:00:00,1929A,109.5056,36.6106,延安市,百米大道,,48,47,60,33,54,123,112,105,104,17,31,8,11,0.6,0.8
2023-03-20T17:00:00,1930A,107.185,34.3063,宝鸡市,庙沟村,细颗粒物(PM2.5),127,90,108,96,111,110,106,66,66,16,28,6,6,0.8,0.9
2023-03-20T17:00:00,1931A,107.0708,34.3017,宝鸡市,竹园沟,细颗粒物(PM2.5),137,114,108,104,105,103,103,61,61,23,26,5,4,0.8,0.8
2023-03-20T17:00:00,1932A,107.1906,34.3672,宝鸡市,三陆医院,,,,126,,105,110,107,77,77,18,41,,6,0.7,0.8
2023-03-20T17:00:00,1933A,107.1431,34.3547,宝鸡市,监测站,细颗粒物(PM2.5),123,105,118,93,109,105,105,72,72,21,39,4,4,0.6,0.8
2023-03-20T17:00:00,1934A,107.1186,34.3739,宝鸡市,技工学校,细颗粒物(PM2.5),132,84,104,100,108,104,104,68,68,18,34,6,6,0.7,0.8
2023-03-20T17:00:00,1935A,107.3906,34.3528,宝鸡市,陈仓区环保局家属楼,细颗粒物(PM2.5),105,83,120,79,105,113,113,84,84,17,42,6,6,0.7,0.8
2023-03-20T17:00:00,1936A,107.2058,34.3497,宝鸡市,文理学院,细颗粒物(PM2.5),113,97,121,85,104,108,107,74,74,18,41,8,9,0.6,0.7
2023-03-20T17:00:00,1937A,107.2386,34.3622,宝鸡市,三迪小学,细颗粒物(PM2.5),112,98,126,84,106,112,111,81,81,18,46,9,10,0.7,0.8
2023-03-20T17:00:00,1938A,109.5293,34.5101,渭南市,农科所,细颗粒物(PM2.5),70,68,76,51,55,130,107,81,81,16,31,9,7,0.8,0.8
2023-03-20T17:00:00,1939A,109.4974,34.4877,渭南市,日报社,细颗粒物(PM2.5),94,78,84,70,70,133,107,80,80,20,36,9,10,0.6,0.8
2023-03-20T17:00:00,1940A,109.4636,34.493,渭南市,体育馆,细颗粒物(PM2.5),88,73,82,65,68,138,110,86,86,18,35,7,9,0.6,0.7
2023-03-20T17:00:00,1941A,109.4259,34.5023,渭南市,高新一小,细颗粒物(PM2.5),88,61,74,65,67,142,107,84,84,17,23,9,9,0.6,0.6
2023-03-20T17:00:00,1943A,102.1725,38.5339,金昌市,新川苑,颗粒物(PM10),500,4369,544,449,73,153,119,114,114,9,27,7,38,0.2,0.7
2023-03-20T17:00:00,1944A,102.1692,38.5167,金昌市,天庆家园,颗粒物(PM10),500,2666,366,467,77,142,110,104,104,7,28,5,27,0.3,0.8
2023-03-20T17:00:00,1945A,98.2908,39.7711,嘉峪关市,气象局,颗粒物(PM10),500,1511,1073,268,199,123,111,103,103,4,18,13,4,0.1,0.1
2023-03-20T17:00:00,1947A,106.3394,38.817,石嘴山市,沙湖旅游区,颗粒物(PM10),71,92,139,32,41,166,160,120,120,17,36,16,40,0.5,1.2
2023-03-20T17:00:00,1948A,106.3668,39.0145,石嘴山市,大武口朝阳西街,颗粒物(PM10),63,75,121,29,41,144,137,115,115,5,42,12,48,0.3,1
2023-03-20T17:00:00,1949A,106.7704,39.2282,石嘴山市,惠农南大街,颗粒物(PM10),62,74,155,37,49,146,144,104,104,16,57,16,50,0.6,2.5
2023-03-20T17:00:00,1950A,106.7099,39.1325,石嘴山市,红果子镇惠新街,颗粒物(PM10),64,77,129,35,44,146,143,113,113,15,45,9,46,0.6,1.6
2023-03-20T17:00:00,1951A,84.895,45.6094,克拉玛依市,长征新村,,26,10,10,8,6,94,82,80,53,4,11,6,6,0.2,0.2
2023-03-20T17:00:00,1952A,84.8988,45.5893,克拉玛依市,南林小区,,25,18,14,17,12,92,79,80,51,6,14,3,3,0.3,0.3
2023-03-20T17:00:00,1954A,84.905,44.3396,克拉玛依市,独山子区,,28,25,26,10,11,91,88,79,79,4,10,5,6,0.2,0.2
2023-03-20T17:00:00,1955A,85.6979,46.098,克拉玛依市,乌尔禾区商贸楼,,24,18,20,1,10,79,76,70,60,1,5,6,6,0.2,0.3
2023-03-20T17:00:00,1956A,86.1472,41.7538,巴音郭楞州,孔雀公园,颗粒物(PM10),466,566,1167,112,180,155,127,126,109,2,7,3,3,0.2,0.2
2023-03-20T17:00:00,1957A,86.1972,41.7166,巴音郭楞州,棉纺厂,颗粒物(PM10),404,504,841,111,158,148,122,125,99,6,15,3,2,0.5,0.5
2023-03-20T17:00:00,1958A,86.2357,41.7173,巴音郭楞州,经济开发区,颗粒物(PM10),454,554,891,110,127,152,121,138,89,10,15,5,5,0.3,0.2
2023-03-20T17:00:00,1961A,117.532,36.6868,济南市,东山小学,颗粒物(PM10),80,110,111,42,56,145,144,132,132,18,23,10,10,0.8,0.8
2023-03-20T17:00:00,1966A,120.0405,35.8735,青岛市,黄岛区4号,,48,48,55,27,34,128,101,120,105,20,26,5,7,0.6,0.6
2023-03-20T17:00:00,1982A,122.0693,37.2174,威海市,文登开发区,颗粒物(PM10),62,73,94,27,55,125,118,119,119,29,26,4,5,0.3,0.6
2023-03-20T17:00:00,2031A,113.1817,27.9958,株洲市,云田中学,,48,36,12,33,12,13,6,11,11,23,27,5,5,0.7,0.6
2023-03-20T17:00:00,2054A,114.1099,32.1059,信阳市,平桥分局,细颗粒物(PM2.5),53,40,51,37,46,44,34,38,38,22,24,8,8,0.7,0.6
2023-03-20T17:00:00,2064A,113.9956,32.1271,信阳市,南湾水厂,,49,43,57,34,43,50,36,45,45,16,14,7,7,0.9,0.8
2023-03-20T17:00:00,2065A,114.0775,32.1195,信阳市,市酿酒公司,细颗粒物(PM2.5),55,47,51,39,49,46,32,39,39,20,22,8,8,0.9,0.7
2023-03-20T17:00:00,2066A,114.0609,32.1399,信阳市,审计局,细颗粒物(PM2.5),57,48,56,40,52,54,34,44,44,27,27,7,7,0.9,0.8
2023-03-20T17:00:00,2067A,114.6613,33.6128,周口市,市环境监测站,细颗粒物(PM2.5),79,63,84,58,72,96,78,77,77,15,21,8,8,0.6,0.6
2023-03-20T17:00:00,2068A,114.6758,33.6347,周口市,周口师范,细颗粒物(PM2.5),88,82,87,65,78,96,78,76,76,18,28,7,7,0.8,0.8
2023-03-20T17:00:00,2069A,114.6546,33.5979,周口市,市运管处,细颗粒物(PM2.5),94,65,90,70,78,96,80,79,79,14,26,6,7,0.7,0.7
2023-03-20T17:00:00,2070A,114.6369,33.6406,周口市,川汇区环保局,细颗粒物(PM2.5),98,67,87,73,79,92,77,74,74,13,22,8,8,0.9,0.9
2023-03-20T17:00:00,2075A,117.6336,24.4674,漳州市,九湖,,,,,,,,,,,,,,,,
2023-03-20T17:00:00,2160A,112.85,35.5051,晋城市,自来水公司,,,,,,,,,,,,,,,,
2023-03-20T17:00:00,2161A,112.8318,35.4936,晋城市,白云商贸,细颗粒物(PM2.5),92,115,87,68,47,128,81,87,87,31,30,6,7,0.5,0.4
2023-03-20T17:00:00,2162A,112.8508,35.4887,晋城市,市环保局,细颗粒物(PM2.5),113,125,83,85,58,128,78,84,84,30,31,9,10,0.7,0.7
2023-03-20T17:00:00,2163A,112.8676,35.4897,晋城市,技术学院,,,112,88,,59,112,76,84,83,22,25,5,7,0.4,0.4
2023-03-20T17:00:00,2165A,112.8453,35.546,晋城市,白马寺,,,,,,,,,,,,,,,,
2023-03-20T17:00:00,2166A,112.4397,39.3522,朔州市,平朔,细颗粒物(PM2.5),65,63,72,47,50,130,128,108,108,14,28,8,11,0.5,0.6
2023-03-20T17:00:00,2167A,112.4575,39.3617,朔州市,朔唯,细颗粒物(PM2.5),65,70,75,47,55,142,142,118,118,16,30,11,13,0.5,0.6
2023-03-20T17:00:00,2168A,112.4258,39.3197,朔州市,区政府,颗粒物(PM10),62,74,86,41,52,137,137,113,113,12,24,9,10,0.6,0.6
2023-03-20T17:00:00,2169A,112.4072,39.3278,朔州市,市环保局,颗粒物(PM10),68,85,88,38,50,130,130,110,110,17,28,9,11,0.8,0.7
2023-03-20T17:00:00,2170A,112.4272,39.3681,朔州市,市二中,颗粒物(PM10),67,83,88,47,49,129,128,108,108,12,25,8,9,0.5,0.5
2023-03-20T17:00:00,2171A,112.7532,37.6945,晋中市,锦纶小区,颗粒物(PM10),57,63,134,34,83,150,150,121,121,17,39,8,10,0.5,0.9
2023-03-20T17:00:00,2173A,112.7249,37.7067,晋中市,南都小区,颗粒物(PM10),51,51,138,26,76,145,145,121,121,14,40,10,12,0.4,0.8
2023-03-20T17:00:00,2174A,112.6991,37.6982,晋中市,榆次区政府,颗粒物(PM10),54,58,140,20,69,146,146,120,120,18,41,12,13,0.6,0.9
2023-03-20T17:00:00,2175A,110.9956,35.0147,运城市,运城中学,,40,40,61,28,45,114,98,90,80,11,15,5,5,0.4,0.5
2023-03-20T17:00:00,2178A,110.9686,35.0303,运城市,地区技校,,50,50,70,18,40,126,111,96,88,10,17,4,4,0.2,0.3
2023-03-20T17:00:00,2179A,111.0414,35.1147,运城市,空港新区,颗粒物(PM10),57,63,85,32,60,134,117,84,84,6,17,6,14,0.6,0.7
2023-03-20T17:00:00,2181A,112.7383,38.4519,忻州市,开发区,细颗粒物(PM2.5),89,94,96,66,76,132,132,86,86,22,34,13,8,0.8,0.9
2023-03-20T17:00:00,2182A,112.7003,38.4928,忻州市,会展中心,细颗粒物(PM2.5),108,99,96,81,72,99,99,67,67,29,36,10,7,0.8,0.9
2023-03-20T17:00:00,2183A,111.1406,37.5211,吕梁市,环保局,细颗粒物(PM2.5),62,64,106,44,27,128,112,92,92,25,58,12,16,0.7,0.6
2023-03-20T17:00:00,2185A,111.1297,37.5136,吕梁市,自来水公司,颗粒物(PM10),55,59,91,16,22,139,115,88,88,26,43,11,15,0.7,0.6
2023-03-20T17:00:00,2187A,106.8174,39.6973,乌海市,市林业局,颗粒物(PM10),76,101,97,29,30,142,142,95,95,14,26,18,19,0.8,0.9
2023-03-20T17:00:00,2188A,106.7907,39.6667,乌海市,中海勃湾学校,颗粒物(PM10),68,86,99,32,34,144,144,104,104,21,28,16,24,0.6,0.8
2023-03-20T17:00:00,2191A,122.2532,43.6801,通辽市,艺术职业学校,,40,40,114,0,71,131,115,116,116,19,29,6,18,0.5,0.8
2023-03-20T17:00:00,2192A,119.7594,49.2261,呼伦贝尔市,区环保局,,40,24,25,28,18,80,79,77,73,9,10,5,5,0.5,0.4
2023-03-20T17:00:00,2195A,107.4212,40.761,巴彦淖尔市,附二中,颗粒物(PM10),68,86,96,13,35,109,109,91,91,10,36,4,20,0.5,0.7
2023-03-20T17:00:00,2196A,107.37,40.7372,巴彦淖尔市,市环保大楼,颗粒物(PM10),77,104,95,28,42,121,121,101,101,11,41,5,11,0.6,0.8
2023-03-20T17:00:00,2197A,113.1306,40.9923,乌兰察布市,集宁新区,,50,50,47,15,22,124,124,97,97,4,18,8,12,0.3,0.4
2023-03-20T17:00:00,2200A,122.0392,46.0656,兴安盟,胜华新制药厂,,32,19,46,6,28,101,101,90,90,9,24,5,5,0.7,1
2023-03-20T17:00:00,2201A,121.9504,46.0741,兴安盟,科右前旗环保局,,31,25,62,14,40,98,97,85,85,13,29,1,1,0.8,1.3
2023-03-20T17:00:00,2202A,116.1042,43.9317,锡林郭勒盟,市环保监测站,颗粒物(PM10),67,83,36,10,8,103,98,91,91,2,11,6,7,0.3,0.3
2023-03-20T17:00:00,2203A,116.0781,43.9311,锡林郭勒盟,市政府,颗粒物(PM10),70,89,31,7,7,100,95,88,88,4,13,7,8,0.2,0.2
2023-03-20T17:00:00,2204A,105.6467,38.8363,阿拉善盟,西城区西花园,颗粒物(PM10),54,58,72,27,28,146,146,126,126,13,18,15,13,0.7,0.8
2023-03-20T17:00:00,2205A,105.6985,38.8411,阿拉善盟,蒙二幼,,,,73,,33,149,149,122,122,11,14,15,13,0.4,0.5
2023-03-20T17:00:00,2206A,105.724,38.8516,阿拉善盟,环保局新楼,颗粒物(PM10),54,57,54,23,28,149,145,123,123,10,10,37,11,0.6,0.6
2023-03-20T17:00:00,2207A,121.6094,41.998,阜新市,工业园区,细颗粒物(PM2.5),135,194,155,103,89,139,134,120,120,26,30,16,19,1.1,1
2023-03-20T17:00:00,2208A,121.6697,42.0279,阜新市,长青街,细颗粒物(PM2.5),123,155,150,93,92,136,130,117,117,25,28,15,21,1.2,1.1
2023-03-20T17:00:00,2209A,121.6673,42.0705,阜新市,农业园区,细颗粒物(PM2.5),134,162,125,102,83,120,118,105,105,18,20,15,18,,0.8
2023-03-20T17:00:00,2210A,121.6717,42.0224,阜新市,东苑,细颗粒物(PM2.5),117,162,141,88,87,132,128,113,113,28,31,16,22,1.3,1.2
2023-03-20T17:00:00,2211A,121.6506,42.0498,阜新市,玉龙新城,细颗粒物(PM2.5),128,139,117,97,86,132,127,113,113,18,21,16,17,0.9,0.8
2023-03-20T17:00:00,2212A,123.2,41.1953,辽阳市,宏伟区,细颗粒物(PM2.5),102,84,80,76,55,110,103,106,104,21,22,11,14,1.0,0.9
2023-03-20T17:00:00,2213A,123.1683,41.2495,辽阳市,新华园,细颗粒物(PM2.5),117,116,97,88,67,120,110,113,112,36,37,10,15,0.9,0.9
2023-03-20T17:00:00,2214A,123.2354,41.2639,辽阳市,滨河路,细颗粒物(PM2.5),129,78,76,98,78,104,96,99,99,26,25,7,11,0.9,0.8
2023-03-20T17:00:00,2215A,123.149,41.2991,辽阳市,铁西工业园,细颗粒物(PM2.5),135,122,106,103,86,113,95,102,99,30,32,11,15,1.7,1.3
2023-03-20T17:00:00,2216A,123.8139,42.3022,铁岭市,汇工街西,细颗粒物(PM2.5),118,126,119,89,84,132,129,128,128,26,36,22,23,0.7,0.9
2023-03-20T17:00:00,2217A,123.8649,42.2923,铁岭市,水上乐园,细颗粒物(PM2.5),103,104,95,77,64,129,122,123,123,39,40,16,16,0.9,0.9
2023-03-20T17:00:00,2218A,123.8486,42.2867,铁岭市,银州路东段,细颗粒物(PM2.5),118,158,131,89,72,124,120,120,120,26,29,13,14,,0.9
2023-03-20T17:00:00,2219A,123.7153,42.2217,铁岭市,金沙江路北,细颗粒物(PM2.5),113,110,114,85,88,119,112,112,112,33,46,20,23,0.8,1.1
2023-03-20T17:00:00,2220A,120.4318,41.5881,朝阳市,西梁,细颗粒物(PM2.5),87,107,116,64,81,116,115,104,104,20,28,12,15,1.0,1.1
2023-03-20T17:00:00,2221A,120.4521,41.5646,朝阳市,河畔小区,细颗粒物(PM2.5),80,104,115,59,73,130,129,118,118,15,20,7,10,1.0,1.1
2023-03-20T17:00:00,2222A,120.4176,41.5648,朝阳市,八里堡,细颗粒物(PM2.5),87,103,114,64,79,128,122,113,113,19,29,15,15,1.0,1
2023-03-20T17:00:00,2223A,120.3806,41.5969,朝阳市,农业园区,细颗粒物(PM2.5),97,122,134,72,85,118,118,108,108,12,29,10,17,1.0,1.2
2023-03-20T17:00:00,2225A,124.4002,43.1713,四平市,一商场,颗粒物(PM10),89,127,145,63,74,130,109,123,122,31,33,12,13,0.7,0.6
2023-03-20T17:00:00,2226A,124.388,43.193,四平市,境园,细颗粒物(PM2.5),82,107,117,60,67,137,112,129,128,26,26,10,10,0.6,0.6
2023-03-20T17:00:00,2227A,125.1358,42.8845,辽源市,环保局,细颗粒物(PM2.5),67,71,66,48,44,141,125,134,134,17,33,11,14,0.7,0.8
2023-03-20T17:00:00,2229A,125.9358,41.7173,通化市,光明,颗粒物(PM10),55,59,55,29,24,143,137,134,134,19,34,15,19,0.5,0.5
2023-03-20T17:00:00,2230A,125.9446,41.7325,通化市,铁路,颗粒物(PM10),52,54,61,30,29,141,138,131,131,19,42,13,15,0.4,0.6
2023-03-20T17:00:00,2231A,126.4219,41.9171,白山市,喜丰,颗粒物(PM10),70,89,89,33,31,133,133,120,120,16,33,11,17,1.0,0.9
2023-03-20T17:00:00,2232A,126.4077,41.9419,白山市,环保局,颗粒物(PM10),70,90,95,45,36,137,137,124,124,15,35,13,20,1.4,1.4
2023-03-20T17:00:00,2233A,124.8006,45.1214,松原市,江南,细颗粒物(PM2.5),94,126,88,70,55,123,115,111,111,15,19,6,11,0.6,0.6
2023-03-20T17:00:00,2234A,124.7965,45.1722,松原市,江北,颗粒物(PM10),110,169,110,66,56,142,133,127,127,14,14,5,6,0.6,0.6
2023-03-20T17:00:00,2235A,122.7911,45.6077,白城市,洮北区环保局,颗粒物(PM10),57,64,70,31,32,124,124,111,111,12,13,10,9,0.3,0.4
2023-03-20T17:00:00,2236A,122.8738,45.5725,白城市,市环保局,颗粒物(PM10),55,60,69,20,21,116,116,106,106,17,25,2,5,0.5,0.5
2023-03-20T17:00:00,2237A,129.47,42.8883,延边朝鲜族自治州,妇幼医院,,37,21,38,15,19,118,117,105,105,13,22,8,10,0.5,0.6
2023-03-20T17:00:00,2238A,129.5055,42.9108,延边朝鲜族自治州,延边医院,,36,32,47,13,27,115,115,101,101,18,28,9,11,0.6,0.8
2023-03-20T17:00:00,2239A,129.3964,42.8881,延边朝鲜族自治州,朝阳川镇医院,,36,19,38,10,19,116,113,106,106,7,15,7,10,0.4,0.5
2023-03-20T17:00:00,2240A,130.9762,45.3001,鸡西市,环保局,,40,40,53,18,30,121,107,112,112,16,20,4,7,0.3,0.4
2023-03-20T17:00:00,2243A,130.9429,45.3039,鸡西市,第一中学,,36,30,51,11,26,124,115,117,117,5,7,4,6,0.3,0.3
2023-03-20T17:00:00,2244A,130.2537,47.3416,鹤岗市,哈啤分公司,颗粒物(PM10),68,86,43,38,25,117,117,97,97,20,14,14,13,0.5,0.4
2023-03-20T17:00:00,2245A,130.2684,47.3086,鹤岗市,斯达机电,"颗粒物(PM10),细颗粒物(PM2.5)",72,94,60,52,29,133,116,133,103,21,18,14,12,0.6,0.4
2023-03-20T17:00:00,2246A,130.3114,47.3388,鹤岗市,东山纸板厂,颗粒物(PM10),81,111,88,46,31,116,114,101,101,20,18,15,15,0.1,0.3
2023-03-20T17:00:00,2247A,130.1097,47.3382,鹤岗市,五号水库,,39,35,25,25,16,122,122,107,107,9,7,10,8,0.4,0.4
2023-03-20T17:00:00,2248A,131.1511,46.6937,双鸭山市,双合村,颗粒物(PM10),61,72,69,35,36,144,144,133,133,16,13,15,16,0.6,0.6
2023-03-20T17:00:00,2249A,131.1652,46.6191,双鸭山市,南小市,颗粒物(PM10),63,75,74,33,40,144,138,133,133,17,12,7,8,0.6,0.5
2023-03-20T17:00:00,2250A,131.1524,46.6554,双鸭山市,环保局,细颗粒物(PM2.5),64,75,74,46,44,134,130,125,125,31,17,18,19,0.8,0.6
2023-03-20T17:00:00,2251A,131.12,46.5656,双鸭山市,苗圃,臭氧1小时,74,71,51,37,42,186,179,179,179,13,11,6,6,0.3,0.2
2023-03-20T17:00:00,2252A,128.5159,47.4311,伊春市,环保局,细颗粒物(PM2.5),67,81,40,48,29,144,144,118,118,20,17,7,8,0.8,0.7
2023-03-20T17:00:00,2253A,128.9102,47.7412,伊春市,电力嘉园,颗粒物(PM10),64,78,42,36,22,149,149,123,123,13,13,10,9,0.5,0.5
2023-03-20T17:00:00,2254A,129.5029,48.471,伊春市,汤旺河国家公园,,42,42,32,11,17,103,103,97,97,5,4,6,6,0.2,0.2
2023-03-20T17:00:00,2255A,130.2751,46.8028,佳木斯市,佳纺,细颗粒物(PM2.5),97,116,69,72,45,132,125,122,122,30,15,10,6,1.3,0.6
2023-03-20T17:00:00,2256A,130.3995,46.8307,佳木斯市,发电厂,细颗粒物(PM2.5),73,80,55,53,40,138,136,126,126,23,18,7,6,0.7,0.5
2023-03-20T17:00:00,2257A,130.3258,46.7975,佳木斯市,环保局,细颗粒物(PM2.5),77,82,59,56,38,136,134,125,125,21,16,7,6,0.6,0.4
2023-03-20T17:00:00,2258A,130.3648,46.8032,佳木斯市,十一中,细颗粒物(PM2.5),79,77,61,58,43,132,130,122,122,26,19,7,5,0.7,0.6
2023-03-20T17:00:00,2259A,130.3794,46.7588,佳木斯市,四丰,臭氧1小时,105,60,46,56,38,210,210,191,191,12,9,1,1,0.6,0.5
2023-03-20T17:00:00,2262A,131.0518,45.8751,七台河市,新一中,,47,47,59,32,38,152,133,138,138,19,18,7,11,0.8,0.8
2023-03-20T17:00:00,2263A,127.4833,50.2524,黑河市,交通局,,,16,14,11,10,94,82,86,86,,10,9,12,0.5,0.4
2023-03-20T17:00:00,2264A,127.5144,50.2341,黑河市,环保局,,28,12,16,12,11,95,87,93,90,12,11,7,9,0.4,0.3
2023-03-20T17:00:00,2265A,127.5291,50.2472,黑河市,大黑河岛,,31,3,8,3,7,104,97,99,98,3,3,8,8,0.3,0.3
2023-03-20T17:00:00,2266A,126.9785,46.6365,绥化市,人和东街,细颗粒物(PM2.5),160,200,124,122,81,195,178,169,169,28,18,8,6,1.0,0.7
2023-03-20T17:00:00,2267A,126.964,46.6528,绥化市,党政办公中心,细颗粒物(PM2.5),160,188,113,122,81,183,170,158,158,27,17,8,6,0.9,0.6
2023-03-20T17:00:00,2269A,124.1069,50.4097,大兴安岭地区,科技局,,,7,7,7,10,108,,99,92,4,5,7,8,0.2,0.2
2023-03-20T17:00:00,2270A,117.396,32.939,蚌埠市,工人疗养院,细颗粒物(PM2.5),88,106,67,65,44,84,59,63,63,32,42,9,13,0.6,0.6
2023-03-20T17:00:00,2271A,117.3605,32.9427,蚌埠市,百货大楼,细颗粒物(PM2.5),89,118,81,66,48,80,60,65,65,35,45,4,6,0.6,0.6
2023-03-20T17:00:00,2273A,117.4185,32.8911,蚌埠市,蚌埠学院,细颗粒物(PM2.5),77,97,66,56,36,90,75,76,76,25,37,6,7,0.5,0.5
2023-03-20T17:00:00,2274A,117.3533,32.9673,蚌埠市,淮上区政府,细颗粒物(PM2.5),83,110,78,61,40,84,66,66,66,24,34,6,8,0.6,0.6
2023-03-20T17:00:00,2275A,117.3145,32.8977,蚌埠市,高新区,细颗粒物(PM2.5),77,92,65,56,40,90,77,75,75,26,34,18,16,0.7,0.7
2023-03-20T17:00:00,2277A,116.8305,32.7727,淮南市,潘集区政府,细颗粒物(PM2.5),98,106,84,73,55,77,68,62,62,24,29,9,8,0.5,0.5
2023-03-20T17:00:00,2278A,117.0067,32.6524,淮南市,师范学院,细颗粒物(PM2.5),105,103,86,79,53,84,82,70,70,25,29,12,13,0.5,0.5
2023-03-20T17:00:00,2279A,116.8569,32.5951,淮南市,谢家集区政府,细颗粒物(PM2.5),89,95,75,66,47,86,74,64,64,26,36,11,13,0.4,0.4
2023-03-20T17:00:00,2280A,116.8281,32.633,淮南市,八公山区政府,细颗粒物(PM2.5),100,90,67,75,40,90,70,63,63,22,26,10,13,0.5,0.5
2023-03-20T17:00:00,2281A,116.6325,32.6201,淮南市,焦岗湖风景区管理处,颗粒物(PM10),74,98,75,6,44,70,47,39,39,37,39,7,5,0.6,0.2
2023-03-20T17:00:00,2282A,116.8004,33.975,淮北市,监测站,细颗粒物(PM2.5),84,98,79,62,50,127,120,91,90,18,18,5,5,0.5,0.6
2023-03-20T17:00:00,2283A,116.8091,33.9007,淮北市,烈山区政府,细颗粒物(PM2.5),88,82,85,65,50,129,121,106,106,20,24,8,10,0.6,0.5
2023-03-20T17:00:00,2284A,116.7856,33.9477,淮北市,职业技术学院,细颗粒物(PM2.5),93,92,78,69,52,126,116,99,99,21,24,7,8,0.7,0.7
2023-03-20T17:00:00,2285A,117.8177,30.9412,铜陵市,市第四中学,颗粒物(PM10),54,57,54,31,36,56,15,36,25,35,30,11,11,0.6,0.5
2023-03-20T17:00:00,2286A,117.8059,30.9273,铜陵市,市公路局,,48,48,56,30,32,49,12,38,26,34,29,7,8,1.0,0.6
2023-03-20T17:00:00,2287A,117.7807,30.9413,铜陵市,市新民污水厂,,45,45,52,23,29,62,17,34,29,34,30,5,6,0.9,0.6
2023-03-20T17:00:00,2288A,117.7439,30.8792,铜陵市,市第九中学,,36,36,60,12,28,61,18,28,28,34,28,6,7,0.6,0.6
2023-03-20T17:00:00,2289A,117.846,30.9413,铜陵市,车站新区,,49,49,45,20,31,62,19,36,28,40,30,8,8,0.7,0.4
2023-03-20T17:00:00,2290A,117.8483,30.97,铜陵市,市职教基地,,41,41,42,25,22,63,29,32,28,25,17,2,2,0.6,0.4
2023-03-20T17:00:00,2291A,117.0809,30.5177,安庆市,环科院,,29,23,56,20,52,61,16,24,24,39,35,9,10,0.7,0.7
2023-03-20T17:00:00,2292A,117.0331,30.5119,安庆市,马山宾馆,,29,29,51,17,46,62,28,34,31,25,30,14,8,0.8,0.8
2023-03-20T17:00:00,2294A,116.9896,30.6145,安庆市,安庆大学,,28,15,72,19,49,65,23,31,31,38,36,9,9,0.8,0.9
2023-03-20T17:00:00,2295A,118.2903,29.6963,黄山市,延安路89号,细颗粒物(PM2.5),79,68,32,58,22,57,53,47,47,18,13,5,5,0.7,0.6
2023-03-20T17:00:00,2296A,118.327,29.7178,黄山市,黄山东路89号,细颗粒物(PM2.5),95,62,24,71,18,54,45,42,42,26,15,4,4,1.0,0.7
2023-03-20T17:00:00,2297A,118.1371,30.2756,黄山市,黄山区政府5号楼,,20,20,26,13,17,43,29,36,36,22,14,6,6,0.6,0.5
2023-03-20T17:00:00,2298A,118.3093,32.3153,滁州市,老年大学,细颗粒物(PM2.5),90,100,78,67,50,85,46,52,52,40,39,8,9,0.7,0.6
2023-03-20T17:00:00,2299A,118.3244,32.2786,滁州市,人大宾馆,细颗粒物(PM2.5),99,112,84,74,52,78,52,54,54,45,44,6,7,0.5,0.5
2023-03-20T17:00:00,2301A,115.8277,32.8929,阜阳市,市监测站,细颗粒物(PM2.5),113,112,101,85,77,95,79,50,49,,33,9,8,,0.7
2023-03-20T17:00:00,2303A,115.8554,32.8605,阜阳市,开发区,细颗粒物(PM2.5),109,117,123,82,80,95,85,55,55,22,34,12,8,0.6,0.8
2023-03-20T17:00:00,2307A,116.5079,31.737,六安市,监测大楼,细颗粒物(PM2.5),98,81,75,73,62,111,75,65,65,30,24,8,5,0.6,0.6
2023-03-20T17:00:00,2308A,116.4738,31.7643,六安市,皖西学院,细颗粒物(PM2.5),72,91,84,52,48,118,90,77,77,23,23,6,5,0.5,0.5
2023-03-20T17:00:00,2309A,116.4996,31.7905,六安市,朝阳厂,,,73,71,71,60,121,84,74,74,,19,,6,0.6,0.6
2023-03-20T17:00:00,2310A,116.5567,31.7886,六安市,开发区,细颗粒物(PM2.5),79,93,87,58,55,107,82,70,70,11,14,7,10,0.5,0.5
2023-03-20T17:00:00,2311A,115.8072,33.8399,亳州市,污水处理厂,细颗粒物(PM2.5),54,54,68,38,48,117,113,90,90,10,16,9,11,0.5,0.5
2023-03-20T17:00:00,2312A,115.7789,33.8518,亳州市,三国揽胜宫,颗粒物(PM10),63,76,81,37,41,117,110,86,86,17,21,5,6,0.5,0.5
2023-03-20T17:00:00,2314A,117.47,30.6618,池州市,池州学院,,19,19,47,13,31,56,27,30,30,19,21,4,4,1.0,0.8
2023-03-20T17:00:00,2316A,118.7581,30.9454,宣城市,鳌峰子站,,30,23,49,21,32,80,73,59,59,12,21,7,7,0.5,0.4
2023-03-20T17:00:00,2317A,118.7385,30.9743,宣城市,敬亭山子站,,,,50,,38,68,52,49,49,26,31,8,7,,0.4
2023-03-20T17:00:00,2318A,118.7173,30.9427,宣城市,开发区子站,,46,46,46,26,37,68,63,53,53,15,24,5,5,0.5,0.5
2023-03-20T17:00:00,2319A,119.0141,25.4325,莆田市,荔城区仓后路,颗粒物(PM10),75,99,58,43,35,180,128,124,124,28,22,10,9,1.0,0.8
2023-03-20T17:00:00,2320A,119.0015,25.4553,莆田市,莆田市监测站,颗粒物(PM10),67,83,61,43,35,189,142,130,130,31,24,11,9,0.8,0.8
2023-03-20T17:00:00,2321A,119.1119,25.4561,莆田市,涵江区六中,颗粒物(PM10),75,100,54,37,39,138,120,115,115,27,32,9,8,0.6,0.5
2023-03-20T17:00:00,2322A,119.1013,25.3215,莆田市,秀屿区政府,颗粒物(PM10),63,75,48,40,42,150,119,107,107,19,22,7,8,0.6,0.6
2023-03-20T17:00:00,2323A,118.981,25.4792,莆田市,东圳水库,,,,,,,,,,,,,,,,
2023-03-20T17:00:00,2324A,117.6211,26.2625,三明市,三钢,颗粒物(PM10),51,51,41,29,32,123,106,93,93,19,20,16,14,1.2,0.8
2023-03-20T17:00:00,2325A,117.635,26.2714,三明市,三明二中,颗粒物(PM10),56,61,38,31,29,121,83,89,89,38,23,11,9,0.8,0.7
2023-03-20T17:00:00,2326A,117.6028,26.2378,三明市,三元区政府,,43,32,43,30,33,114,86,92,92,32,23,9,10,0.8,0.9
2023-03-20T17:00:00,2327A,117.7275,26.3108,三明市,洋溪,,,,,,,,,,,,,,,,
2023-03-20T17:00:00,2331A,118.0966,26.6761,南平市,茫荡山,,,,,,,,,,,,,,,,
2023-03-20T17:00:00,2332A,118.1681,26.6369,南平市,南平市监测站,,,38,31,33,23,111,105,93,93,17,17,6,6,,0.8
2023-03-20T17:00:00,2333A,118.1825,26.6489,南平市,南平铝业有限公司,,45,39,32,31,26,115,113,96,96,13,18,6,8,0.9,0.9
2023-03-20T17:00:00,2334A,118.1756,26.6272,南平市,南平七中,,46,37,31,32,25,118,114,97,97,11,13,5,5,0.7,0.7
2023-03-20T17:00:00,2335A,117.0189,25.1181,龙岩市,龙岩师专,,,,,,,,,,,,,,,,
2023-03-20T17:00:00,2336A,117.0217,25.1033,龙岩市,龙岩市监测站,颗粒物(PM10),52,54,50,30,44,76,76,62,62,22,25,9,15,0.7,0.7
2023-03-20T17:00:00,2337A,117.0258,25.0661,龙岩市,闽西职业技术学院,,40,40,50,25,36,79,78,66,66,19,26,11,14,0.6,0.6
2023-03-20T17:00:00,2338A,117.0196,25.0306,龙岩市,龙岩学院,,,,42,24,34,86,80,72,72,14,15,6,6,0.5,0.5
2023-03-20T17:00:00,2339A,119.5001,26.6946,宁德市,金涵水库,,,,,,,,,,,,,,,,
2023-03-20T17:00:00,2341A,119.5388,26.6612,宁德市,宁德市监测站,颗粒物(PM10),53,56,37,36,29,114,114,84,84,19,17,7,3,1.2,0.8
2023-03-20T17:00:00,2342A,117.3102,29.3867,景德镇市,王港中学,,15,4,10,10,7,34,22,27,27,3,4,4,3,0.7,0.7
2023-03-20T17:00:00,2343A,117.2117,29.2933,景德镇市,老干部活动中心,,23,17,37,16,22,30,14,21,19,15,15,4,9,0.4,0.5
2023-03-20T17:00:00,2344A,117.1894,29.2789,景德镇市,兽医站,,25,10,16,17,13,32,17,21,20,10,14,5,11,0.6,0.6
2023-03-20T17:00:00,2345A,117.1547,29.2617,景德镇市,台达陶瓷,,17,17,16,2,12,33,17,21,17,17,21,6,17,0.5,0.4
2023-03-20T17:00:00,2346A,117.2461,29.2956,景德镇市,陶研所,,37,37,31,4,8,30,21,28,22,9,11,5,7,0.4,0.4
2023-03-20T17:00:00,2347A,114.0997,27.5002,萍乡市,武功山,,,16,4,15,8,10,9,8,8,,21,9,34,0.6,0.8
2023-03-20T17:00:00,2348A,113.8385,27.6434,萍乡市,中医院,细颗粒物(PM2.5),55,52,28,39,18,21,14,16,16,30,26,9,8,1.0,1.2
2023-03-20T17:00:00,2349A,113.8493,27.6253,萍乡市,市政府车库,,43,42,26,30,19,13,8,8,8,26,25,14,12,0.9,1.1
2023-03-20T17:00:00,2350A,113.8676,27.6435,萍乡市,市环保局,,43,43,23,29,18,17,11,12,12,24,23,21,18,0.9,1.2
2023-03-20T17:00:00,2351A,113.866,27.6198,萍乡市,安源区政府,颗粒物(PM10),58,65,36,33,19,13,10,9,9,24,23,21,21,0.9,1.1
2023-03-20T17:00:00,2352A,115.0861,27.9317,新余市,北岗,,19,14,15,13,9,21,21,18,18,15,20,7,9,0.7,1.1
2023-03-20T17:00:00,2353A,114.9886,27.8431,新余市,飞宇,,29,29,25,13,11,22,20,19,19,25,29,7,8,0.5,0.5
2023-03-20T17:00:00,2354A,114.9231,27.8246,新余市,第二水厂,,33,33,18,18,10,21,18,17,17,26,30,8,7,0.5,0.6
2023-03-20T17:00:00,2355A,114.9308,27.8036,新余市,市气象局,,34,34,20,21,11,23,17,18,18,24,24,6,6,0.8,0.8
2023-03-20T17:00:00,2357A,116.9822,28.1136,鹰潭市,龙虎山,,39,39,12,25,9,39,20,28,28,23,10,12,3,1.3,1.1
2023-03-20T17:00:00,2358A,117.0564,28.2642,鹰潭市,新监测站,,20,20,18,8,12,50,17,26,25,27,30,14,9,0.6,0.7
2023-03-20T17:00:00,2359A,117.0311,28.2475,鹰潭市,财苑宾馆,,22,22,19,8,12,47,19,27,26,27,31,22,12,0.9,0.8
2023-03-20T17:00:00,2360A,117.0222,28.2264,鹰潭市,体育馆,,25,25,18,11,14,43,17,23,23,28,27,25,8,0.8,0.7
2023-03-20T17:00:00,2361A,117.0017,28.2131,鹰潭市,三川水表,,,,17,,13,44,16,24,24,30,27,22,5,0.8,0.7
2023-03-20T17:00:00,2362A,114.9017,25.9149,赣州市,通天岩,,,,34,,15,170,108,75,75,,15,8,6,0.9,0.8
2023-03-20T17:00:00,2363A,114.9367,25.8664,赣州市,地委,颗粒物(PM10),77,104,48,41,21,192,123,94,94,19,13,15,13,1.3,1.1
2023-03-20T17:00:00,2364A,114.9461,25.8481,赣州市,气象台,细颗粒物(PM2.5),68,84,34,49,20,188,102,84,84,23,16,9,8,1.0,1
2023-03-20T17:00:00,2365A,114.9322,25.8333,赣州市,市图书馆,颗粒物(PM10),69,88,43,43,21,176,88,80,80,28,19,11,12,1.1,1.1
2023-03-20T17:00:00,2366A,114.8905,25.8471,赣州市,华坚鞋城,颗粒物(PM10),82,113,50,41,18,169,98,84,84,14,13,8,7,0.9,1
2023-03-20T17:00:00,2367A,114.9754,27.0803,吉安市,红声器材厂,,,53,34,30,14,35,35,23,23,20,25,,10,0.6,0.7
2023-03-20T17:00:00,2368A,114.9658,27.0999,吉安市,市森林工业局,颗粒物(PM10),55,59,26,34,16,35,32,26,26,28,30,12,10,0.6,0.7
2023-03-20T17:00:00,2369A,114.99,27.1312,吉安市,市环境监测站,,45,44,24,31,13,34,34,25,25,20,27,18,12,0.8,0.8
2023-03-20T17:00:00,2370A,115.0093,27.0968,吉安市,青原区法院,,48,48,25,31,14,30,30,23,23,21,22,21,15,0.7,0.7
2023-03-20T17:00:00,2371A,114.3408,27.8064,宜春市,槟榔水业,,44,44,17,25,8,126,68,68,60,21,21,6,6,0.8,0.7
2023-03-20T17:00:00,2373A,114.3956,27.7844,宜春市,市石油公司,,43,43,23,30,14,20,12,16,16,26,27,5,3,1.4,1.3
2023-03-20T17:00:00,2374A,114.3703,27.7914,宜春市,市气象局,,,45,22,25,12,16,13,14,14,28,29,7,5,,1.4
2023-03-20T17:00:00,2375A,114.4013,27.8074,宜春市,市广电局,,49,49,23,29,12,21,14,17,17,25,26,16,13,1.3,1.2
2023-03-20T17:00:00,2376A,116.2127,28.0814,抚州市,桐源党溪,,32,32,17,18,7,28,28,15,15,10,7,16,13,1.0,0.9
2023-03-20T17:00:00,2377A,116.3544,27.9831,抚州市,市站,,18,18,18,8,8,20,15,14,14,22,26,5,4,0.6,0.6
2023-03-20T17:00:00,2378A,116.3565,27.963,抚州市,血防站,,30,30,24,9,9,22,18,18,18,25,28,8,7,1.4,1.2
2023-03-20T17:00:00,2379A,116.3564,28.0007,抚州市,采茶剧团,,19,19,15,6,8,20,16,15,15,21,24,5,6,1.1,1
2023-03-20T17:00:00,2380A,116.385,27.9647,抚州市,医学分院,,42,42,15,11,6,23,17,17,17,16,24,7,4,0.9,1
2023-03-20T17:00:00,2381A,118.005,28.4572,上饶市,百草园,,33,33,20,9,9,22,17,15,15,18,19,8,6,1.3,1.2
2023-03-20T17:00:00,2382A,117.9756,28.4436,上饶市,市监测站,,36,36,21,15,12,50,36,33,33,34,28,19,20,0.8,0.7
2023-03-20T17:00:00,2383A,117.9519,28.4628,上饶市,凤凰光学,,26,26,21,9,11,45,37,30,30,25,29,10,24,0.8,0.7
2023-03-20T17:00:00,2385A,114.17,35.9019,鹤壁市,市监测站,细颗粒物(PM2.5),57,52,86,40,69,101,74,88,66,18,22,8,8,0.7,0.7
2023-03-20T17:00:00,2386A,114.2956,35.7511,鹤壁市,市交警支队,颗粒物(PM10),52,53,88,34,66,101,65,61,61,18,27,6,6,0.4,0.4
2023-03-20T17:00:00,2387A,114.2878,35.7306,鹤壁市,迎宾馆,细颗粒物(PM2.5),52,32,71,36,66,104,68,62,62,14,22,9,9,0.5,0.5
2023-03-20T17:00:00,2389A,113.836,35.311,新乡市,环保西院,颗粒物(PM10),85,119,105,17,63,111,69,56,56,12,24,10,8,0.5,0.5
2023-03-20T17:00:00,2390A,113.884,35.272,新乡市,开发区,,48,48,91,22,68,112,70,59,59,12,21,7,7,0.5,0.6
2023-03-20T17:00:00,2391A,113.883,35.303,新乡市,环保东院,,44,44,83,30,62,111,70,59,59,20,28,8,8,0.6,0.4
2023-03-20T17:00:00,2392A,115.0312,35.7636,濮阳市,环保局,细颗粒物(PM2.5),97,86,96,72,86,103,102,91,91,14,20,9,10,0.5,0.6
2023-03-20T17:00:00,2394A,115.0574,35.7609,濮阳市,油田运输公司,细颗粒物(PM2.5),113,126,128,85,93,107,106,89,89,18,21,7,6,0.8,0.8
2023-03-20T17:00:00,2395A,115.0866,35.7754,濮阳市,油田物探公司,细颗粒物(PM2.5),112,102,103,84,95,105,100,84,84,17,21,14,11,0.6,0.6
2023-03-20T17:00:00,2396A,113.8276,34.0159,许昌市,监测站,细颗粒物(PM2.5),75,40,71,55,69,84,64,60,60,9,14,4,5,0.6,0.6
2023-03-20T17:00:00,2398A,113.7906,33.9953,许昌市,开发区,细颗粒物(PM2.5),69,40,65,50,71,76,57,54,54,13,21,2,2,0.6,0.6
