timepoint,stationcode,longitude,latitude,area,positionname,primarypollutant,aqi,pm10,pm10_24h,pm2_5,pm2_5_24h,o3,o3_24h,o3_8h,o3_8h_24h,no2,no2_24h,so2,so2_24h,co,co_24h
2025-06-18T0000,2566A,102.1879,31.914,阿坝藏族羌族自治州,州农科所,,15,15,30,7,10,24,,69,39,12,13,12,12,0.6,0.5
2025-06-18T0000,2568A,102.2502,31.8896,阿坝藏族羌族自治州,马师校,,26,24,21,18,17,4,,86,31,13,13,6,6,0.6,0.5
2025-06-18T0000,3994A,102.2165,31.9024,阿坝藏族羌族自治州,马尔康中学西区,,32,,20,22,18,10,,98,42,12,10,6,6,0.4,0.3
2025-06-18T0000,2695A,80.292,41.1694,阿克苏地区,电视台,颗粒物(PM10),82,113,56,46,30,81,,139,125,24,9,5,6,0.5,0.4
2025-06-18T0000,2696A,80.2613,41.1551,阿克苏地区,艺术中心,颗粒物(PM10),85,120,66,49,30,64,,132,114,48,8,4,3,0.6,0.4
2025-06-18T0000,2204A,105.6467,38.8363,阿拉善盟,西城区西花园,,42,22,21,19,17,132,,159,144,9,10,6,7,0.7,0.7
2025-06-18T0000,2205A,105.6985,38.8411,阿拉善盟,蒙二幼,,,23,30,12,10,107,,128,120,,4,9,9,0.4,0.5
2025-06-18T0000,2206A,105.724,38.8516,阿拉善盟,环保局新楼,,42,27,23,11,9,133,,143,120,4,8,8,9,0.4,0.4
2025-06-18T0000,2708A,88.1264,47.8517,阿勒泰地区,市站,,31,31,19,3,6,71,,114,103,18,7,2,2,0.6,0.5
2025-06-18T0000,2630A,80.1161,32.5,阿里地区,阿里监测站,,31,,4,6,7,99,,120,111,9,6,7,6,0.4,0.4
2025-06-18T0000,3192A,80.0903,32.5028,阿里地区,阿里藏医院,,34,,10,8,3,108,,125,116,1,2,8,8,0.5,0.4
2025-06-18T0000,2642A,109.0318,32.6537,安康市,香溪洞,臭氧1小时,58,56,41,32,19,166,,161,161,5,7,6,7,0.5,0.5
2025-06-18T0000,2644A,109.0072,32.6975,安康市,汉滨区检察院,,46,46,48,20,20,64,,152,116,16,11,7,17,0.5,0.5
2025-06-18T0000,4054A,109.0325,32.6913,安康市,市邮政管理局,,,51,46,22,21,,,154,118,30,15,8,13,0.5,0.7
2025-06-18T0000,2291A,117.0809,30.5177,安庆市,环科院,,35,23,30,17,14,2,,104,66,69,17,4,3,0.4,0.4
2025-06-18T0000,2292A,117.0331,30.5119,安庆市,马山宾馆,,32,24,26,22,13,5,,101,57,55,20,4,5,0.5,0.4
2025-06-18T0000,2294A,116.9896,30.6145,安庆市,安庆大学,,27,27,31,18,14,33,,100,71,28,13,4,4,0.6,0.4
2025-06-18T0000,3173A,117.0598,30.5351,安庆市,市人大,,26,26,27,16,14,20,,109,75,48,12,4,6,0.4,0.4
2025-06-18T0000,3122A,105.9606,26.2611,安顺市,伍家关,,,,16,13,14,47,,60,54,1,2,1,1,0.2,0.2
2025-06-18T0000,3123A,105.9408,26.2431,安顺市,凤凰山,,20,12,32,9,16,64,,83,74,4,5,2,2,0.4,0.4
2025-06-18T0000,3124A,105.9439,26.2564,安顺市,金钟山,,20,16,18,10,13,64,,85,75,3,4,4,4,0.2,0.3
2025-06-18T0000,3125A,105.8983,26.2481,安顺市,娄家坡,,19,11,16,7,13,60,,78,70,2,2,3,3,0.4,0.5
2025-06-18T0000,1818A,114.4839,36.0621,安阳市,棉研所,,,,,,,,,,,,,,,,
2025-06-18T0000,1819A,114.3551,36.1017,安阳市,红庙街,颗粒物(PM10),51,52,41,19,12,136,,187,168,11,7,12,5,0.5,0.5
2025-06-18T0000,1820A,114.361,36.0681,安阳市,银杏小区,,48,48,43,27,21,148,,185,168,14,14,18,9,0.4,0.4
2025-06-18T0000,3141A,114.3922,36.0878,安阳市,信访局,颗粒物(PM10),53,56,42,16,15,143,,186,172,11,10,4,6,1.3,0.8
2025-06-18T0000,3669A,114.4705,36.0637,安阳市,左辅环卫站,颗粒物(PM10),53,55,41,21,16,122,,190,160,23,20,6,5,0.8,0.8
2025-06-18T0000,3703A,114.2917,36.0949,安阳市,安钢职工学校,颗粒物(PM10),56,62,47,28,19,139,,182,170,17,16,48,9,0.3,0.3
2025-06-18T0000,1748A,123.044,41.1196,鞍山市,深沟寺,,40,40,32,27,19,90,,137,100,12,16,6,9,0.7,0.9
2025-06-18T0000,1749A,123.011,41.0931,鞍山市,太阳城,,43,43,32,28,19,88,,138,103,9,13,6,10,0.7,0.9
2025-06-18T0000,1750A,123.0485,41.1442,鞍山市,太平,颗粒物(PM10),53,56,40,32,22,99,,132,101,8,15,6,10,0.7,0.9
2025-06-18T0000,1751A,122.9642,41.0971,鞍山市,铁西三道街,,49,49,37,31,21,94,,129,102,16,20,6,10,0.8,1
2025-06-18T0000,1753A,123.022,41.0821,鞍山市,明达新区,,39,39,31,25,17,100,,126,103,8,12,7,10,0.6,0.8
2025-06-18T0000,1754A,123.1289,41.0228,鞍山市,千山,,,,,,,,,,,,,,,,
2025-06-18T0000,4201A,122.9446,41.0826,鞍山市,兴盛南路290号,颗粒物(PM10),65,80,42,38,22,64,,126,87,33,22,5,7,0.8,0.8
2025-06-18T0000,2195A,107.4212,40.761,巴彦淖尔市,附二中,颗粒物(PM10),53,55,39,24,15,71,,143,85,28,19,8,10,0.5,0.4
2025-06-18T0000,2196A,107.37,40.7372,巴彦淖尔市,市环保大楼,,48,48,39,28,15,60,,153,92,40,17,7,8,0.4,0.5
2025-06-18T0000,1956A,86.1472,41.7538,巴音郭楞蒙古自治州,孔雀公园,,33,32,57,8,21,105,,109,101,7,11,10,8,0.3,0.2
2025-06-18T0000,1957A,86.1972,41.7166,巴音郭楞蒙古自治州,棉纺厂,,40,40,80,3,13,98,,106,101,14,14,6,4,0.3,0.2
2025-06-18T0000,1958A,86.2357,41.7173,巴音郭楞蒙古自治州,经济开发区,,32,17,62,8,12,101,,108,103,7,7,11,10,0.4,0.3
2025-06-18T0000,2914A,106.7677,31.8794,巴中市,苏山坪,,39,28,36,21,23,122,,156,134,5,6,4,4,0.4,0.4
2025-06-18T0000,3181A,106.7768,31.8526,巴中市,市五中,,39,39,42,24,22,90,,146,122,10,16,8,8,0.5,0.6
2025-06-18T0000,3183A,106.7418,31.8654,巴中市,圣泉水务公司,,34,34,35,21,21,72,,146,123,26,15,6,6,0.6,0.5
2025-06-18T0000,3616A,106.7616,31.8344,巴中市,市中心医院,,41,41,38,18,24,60,,141,116,24,18,6,7,0.6,0.5
2025-06-18T0000,2235A,122.7911,45.6077,白城市,洮北区环保局,,28,28,20,12,10,56,,96,82,23,10,5,4,0.3,0.3
2025-06-18T0000,2236A,122.8738,45.5725,白城市,市环保局,,22,9,12,7,7,68,,94,86,10,6,5,5,0.4,0.4
2025-06-18T0000,2231A,126.4219,41.9171,白山市,喜丰,,46,46,23,16,10,17,,107,52,27,15,7,7,0.8,0.9
2025-06-18T0000,2232A,126.4077,41.9419,白山市,环保局,,30,30,21,18,8,17,,107,61,12,12,2,2,0.7,0.8
2025-06-18T0000,2647A,104.1724,36.5446,白银市,第三小学,颗粒物(PM10),56,61,54,38,26,43,,144,110,52,28,11,98,1.1,0.8
2025-06-18T0000,2648A,104.1465,36.5482,白银市,动力公司,,46,46,45,24,21,76,,144,122,38,21,10,53,0.6,0.5
2025-06-18T0000,2512A,106.6103,23.9011,百色市,市监测站,,15,15,35,9,19,48,,90,74,10,12,8,12,0.5,0.6
2025-06-18T0000,2513A,106.6538,23.8859,百色市,市中心血站,,18,18,33,12,19,46,,88,72,10,11,8,8,0.7,0.7
2025-06-18T0000,3406A,106.6085,23.8798,百色市,祈福高中,,20,15,43,14,24,42,,84,66,13,17,10,13,0.6,0.7
2025-06-18T0000,2270A,117.396,32.939,蚌埠市,工人疗养院,,41,41,58,11,17,103,,172,139,6,11,3,6,0.4,0.5
2025-06-18T0000,2271A,117.3605,32.9427,蚌埠市,百货大楼,,34,34,59,11,18,94,,172,134,8,14,4,6,0.4,0.5
2025-06-18T0000,2273A,117.4185,32.8911,蚌埠市,蚌埠学院,,31,31,53,18,20,95,,168,130,8,14,4,6,0.4,0.5
2025-06-18T0000,2274A,117.3533,32.9673,蚌埠市,淮上区政府,,34,31,54,13,21,108,,177,142,7,16,5,7,0.4,0.5
2025-06-18T0000,2275A,117.3145,32.8977,蚌埠市,高新区,,31,31,59,18,21,89,,172,134,19,20,8,8,0.5,0.5
2025-06-18T0000,3715A,117.3092,32.9314,蚌埠市,蚌埠田家炳中学,,45,45,61,16,24,92,,178,137,13,18,10,10,0.3,0.4
2025-06-18T0000,1585A,109.8756,40.6532,包头市,市环境监测站,颗粒物(PM10),51,51,34,23,17,134,,185,161,14,33,10,12,0.3,0.5
2025-06-18T0000,1587A,109.9991,40.5842,包头市,包头八中,,50,50,48,20,19,131,,186,165,15,30,10,17,0.4,0.7
2025-06-18T0000,1588A,109.8538,40.6821,包头市,青山宾馆,,46,46,34,20,17,131,,189,154,13,34,16,12,0.5,0.6
2025-06-18T0000,1589A,109.8642,40.6288,包头市,惠龙物流,,50,50,38,12,17,134,,190,168,14,28,7,9,0.4,0.4
2025-06-18T0000,1590A,110.0377,40.5546,包头市,东河鸿龙湾,颗粒物(PM10),60,69,51,12,16,117,,189,161,22,36,8,11,0.4,0.6
2025-06-18T0000,3283A,109.9154,40.5685,包头市,滨河大厦,,45,45,40,15,19,126,,198,170,21,30,9,11,0.4,0.6
2025-06-18T0000,3419A,109.9447,40.6261,包头市,包头市委党校,,46,46,36,19,15,132,,189,167,16,25,10,14,0.4,0.4
2025-06-18T0000,3683A,109.8331,40.6576,包头市,昆区政府,,48,48,39,20,18,133,,188,165,16,35,38,12,0.7,0.6
2025-06-18T0000,1930A,107.185,34.3063,宝鸡市,庙沟村,,45,41,40,29,18,142,,185,162,16,15,6,7,0.4,0.4
2025-06-18T0000,1931A,107.0708,34.3017,宝鸡市,竹园沟,,38,38,40,16,19,67,,179,112,31,19,5,7,0.4,0.3
2025-06-18T0000,1932A,107.1906,34.3672,宝鸡市,三陆医院,细颗粒物(PM2.5),60,67,52,43,29,70,,186,144,54,28,10,9,0.6,0.4
2025-06-18T0000,1933A,107.1431,34.3547,宝鸡市,监测站,,49,49,50,27,25,98,,171,121,18,23,7,8,0.3,0.3
2025-06-18T0000,1934A,107.1186,34.3739,宝鸡市,技工学校,细颗粒物(PM2.5),52,44,48,36,25,100,,192,153,12,12,7,9,0.5,0.5
2025-06-18T0000,1935A,107.3906,34.3528,宝鸡市,陈仓区环保局家属楼,颗粒物(PM10),55,60,57,30,25,86,,187,141,44,28,6,17,0.5,0.4
2025-06-18T0000,1936A,107.2058,34.3497,宝鸡市,文理学院,颗粒物(PM10),52,54,49,28,23,98,,189,146,21,19,6,7,0.6,0.5
2025-06-18T0000,1937A,107.2386,34.3622,宝鸡市,三迪小学,细颗粒物(PM2.5),54,51,54,38,29,91,,187,144,27,23,7,8,0.6,0.6
2025-06-18T0000,1051A,115.493,38.8632,保定市,游泳馆,颗粒物(PM10),67,83,55,36,21,108,,174,138,35,31,5,5,0.3,0.1
2025-06-18T0000,1052A,115.5213,38.8959,保定市,华电二区,颗粒物(PM10),80,109,54,24,21,125,,176,133,36,28,3,3,0.5,0.3
2025-06-18T0000,1053A,115.4713,38.9108,保定市,接待中心,颗粒物(PM10),71,91,58,43,22,139,,174,142,37,26,1,2,0.6,0.4
2025-06-18T0000,1054A,115.4612,38.8416,保定市,地表水厂,颗粒物(PM10),72,93,65,26,19,99,,174,132,41,38,3,2,0.3,0.3
2025-06-18T0000,3581A,115.31981,38.95208,保定市,满城区生态环境分局,颗粒物(PM10),60,70,66,17,19,57,,199,110,40,27,6,6,0.3,0.3
2025-06-18T0000,3582A,115.47694,38.76408,保定市,清苑区第二中学,颗粒物(PM10),80,109,81,43,28,91,,178,126,39,30,4,4,0.3,0.3
2025-06-18T0000,3583A,115.62909,39.02311,保定市,徐水物探局,颗粒物(PM10),119,188,95,53,16,96,,182,131,38,23,1,2,0.4,0.1
2025-06-18T0000,4004A,115.4202,38.8656,保定市,双鹰农机,颗粒物(PM10),61,72,49,25,21,155,,181,144,26,31,3,4,0.3,0.2
2025-06-18T0000,4034A,115.5150,38.8590,保定市,植保所站,颗粒物(PM10),82,114,68,43,25,116,,184,131,28,25,3,3,0.4,0.3
2025-06-18T0000,2594A,99.1678,25.1081,保山市,市环境监测站,,18,,10,12,13,36,,53,47,8,6,7,7,0.4,0.4
2025-06-18T0000,2595A,99.1711,25.1328,保山市,市环保局,,15,14,13,7,8,45,,56,52,4,5,6,6,0.5,0.5
2025-06-18T0000,1866A,109.2262,21.588,北海市,牛尾岭水库,,20,18,18,3,8,62,,64,56,10,6,2,3,0.6,0.5
2025-06-18T0000,1867A,109.1436,21.4086,北海市,海滩公园,颗粒物(PM10),53,56,36,17,8,46,,52,52,8,6,1,2,0.6,0.6
2025-06-18T0000,1868A,109.0981,21.4661,北海市,新市环保局,,20,17,18,14,11,51,,56,55,9,9,3,3,0.4,0.4
2025-06-18T0000,1869A,109.1778,21.5233,北海市,北海工业园,,25,25,25,17,11,29,,47,41,13,10,3,2,0.6,0.6
2025-06-18T0000,3400A,109.1911,21.4415,北海市,龙潭自来水厂,,25,24,19,17,12,46,,54,53,8,6,5,5,0.5,0.5
2025-06-18T0000,1001A,116.3621,39.8784,北京市,万寿西宫,颗粒物(PM10),85,119,43,62,26,111,,242,208,26,23,7,4,0.4,0.3
2025-06-18T0000,1002A,116.2202,40.2915,北京市,定陵,,,,,,,,,,,,,,,,
2025-06-18T0000,1003A,116.4174,39.9289,北京市,东四,"颗粒物(PM10),细颗粒物(PM2.5)",78,105,46,57,21,116,,242,206,32,29,7,3,0.7,0.4
2025-06-18T0000,1004A,116.4072,39.8863,北京市,天坛,细颗粒物(PM2.5),92,104,43,68,25,115,,227,194,23,20,7,3,0.8,0.5
2025-06-18T0000,1005A,116.462,39.9365,北京市,农展馆,细颗粒物(PM2.5),83,100,43,61,23,85,,206,172,31,23,7,5,1.0,0.7
2025-06-18T0000,1006A,116.3392,39.9295,北京市,官园,细颗粒物(PM2.5),88,98,45,65,27,98,,231,201,31,25,6,3,0.7,0.5
2025-06-18T0000,1007A,116.2878,39.9611,北京市,海淀万柳,颗粒物(PM10),82,114,56,58,24,91,,192,174,34,29,6,4,0.7,0.3
2025-06-18T0000,1008A,116.6636,40.135,北京市,顺义新城,细颗粒物(PM2.5),94,117,43,70,26,88,,189,159,26,17,8,3,0.9,0.5
2025-06-18T0000,1009A,116.6275,40.3275,北京市,怀柔镇,颗粒物(PM10),57,63,38,35,19,111,,180,160,14,14,3,2,0.6,0.5
2025-06-18T0000,1010A,116.2296,40.217,北京市,昌平镇,"颗粒物(PM10),细颗粒物(PM2.5)",62,74,31,44,17,120,,189,168,17,17,7,4,0.6,0.3
2025-06-18T0000,1011A,116.3966,39.9821,北京市,奥体中心,细颗粒物(PM2.5),84,103,42,62,22,90,,192,168,29,25,6,4,0.9,0.6
2025-06-18T0000,3281A,115.9718,40.4529,北京市,延庆夏都,,50,50,27,27,17,129,,179,169,16,16,4,4,0.4,0.3
2025-06-18T0000,3418A,116.8336,40.4095,北京市,密云新城,颗粒物(PM10),51,52,31,28,19,81,,174,150,12,11,1,2,0.5,0.3
2025-06-18T0000,3671A,116.088,39.9726,北京市,门头沟三家店,颗粒物(PM10),58,65,34,35,21,94,,182,143,25,15,2,2,0.6,0.5
2025-06-18T0000,3672A,116.1541,39.8204,北京市,丰台云岗,颗粒物(PM10),70,90,42,33,24,75,,232,195,51,24,3,3,0.6,0.4
2025-06-18T0000,3673A,116.6804,39.9081,北京市,通州东关,细颗粒物(PM2.5),84,106,56,62,29,96,,214,172,28,26,8,3,0.9,0.5
2025-06-18T0000,3674A,115.9577,39.7603,北京市,房山燕山,颗粒物(PM10),58,66,40,35,21,102,,188,165,21,16,3,2,0.5,0.4
2025-06-18T0000,3675A,116.4672,39.7733,北京市,大兴旧宫,"颗粒物(PM10),细颗粒物(PM2.5)",69,88,46,50,27,101,,213,173,29,27,3,2,0.7,0.5
2025-06-18T0000,3694A,115.986,40.4563,北京市,延庆石河营,颗粒物(PM10),51,51,29,33,17,99,,172,157,13,12,2,2,0.5,0.4
2025-06-18T0000,3695A,116.6151,40.3053,北京市,怀柔新城,颗粒物(PM10),54,58,28,37,20,112,,165,145,12,11,4,2,0.5,0.3
2025-06-18T0000,3696A,116.2545,39.8768,北京市,丰台小屯,细颗粒物(PM2.5),74,88,44,54,23,89,,204,179,28,26,4,2,0.7,0.5
2025-06-18T0000,3697A,116.84,40.3844,北京市,密云镇,颗粒物(PM10),62,74,47,36,23,95,,180,160,19,14,7,7,0.6,0.4
2025-06-18T0000,4182A,116.1942,39.9158,北京市,八角北路9号,颗粒物(PM10),72,94,46,43,22,62,,219,176,79,38,4,3,0.6,0.4
2025-06-18T0000,4194A,117.0790,40.1518,北京市,洳河巡河路,颗粒物(PM10),58,66,40,36,21,145,,187,176,12,11,12,5,1.0,0.6
2025-06-18T0000,1761A,123.8275,41.3064,本溪市,大峪,,32,32,22,16,11,80,,117,95,8,10,6,6,0.5,0.4
2025-06-18T0000,1762A,123.7567,41.3325,本溪市,溪湖,,34,32,29,22,16,107,,121,104,15,19,7,8,1.2,1.4
2025-06-18T0000,1763A,123.7169,41.3094,本溪市,彩屯,,45,45,27,29,17,54,,114,87,27,23,11,10,1.1,1.3
2025-06-18T0000,1764A,123.7669,41.2864,本溪市,东明,,42,29,29,12,12,133,,121,120,7,14,5,6,0.6,0.7
2025-06-18T0000,1765A,123.7992,41.2664,本溪市,新立屯,,40,38,25,15,10,126,,113,111,6,13,5,5,0.6,0.6
2025-06-18T0000,1766A,123.8142,41.3472,本溪市,威宁,颗粒物(PM10),52,54,39,23,17,54,,116,64,32,23,6,6,0.4,0.6
2025-06-18T0000,2587A,105.2864,27.3125,毕节市,八中,,25,,34,17,28,55,,90,68,8,11,6,6,0.5,0.5
2025-06-18T0000,2588A,105.31,27.2944,毕节市,师专,,21,21,41,12,24,56,,91,70,12,15,3,4,0.4,0.5
2025-06-18T0000,4263A,105.3688,27.3598,毕节市,工业大道,,23,22,37,16,25,64,,96,74,10,19,6,8,0.7,0.8
2025-06-18T0000,1629A,118.0018,37.3617,滨州市,第二水厂,颗粒物(PM10),57,63,45,29,20,88,,173,141,44,21,10,6,0.6,0.4
2025-06-18T0000,1630A,117.9776,37.393,滨州市,北中新校,颗粒物(PM10),51,51,38,22,15,102,,176,141,32,20,14,13,0.6,0.4
2025-06-18T0000,3514A,117.9378,37.3956,滨州市,中海酒店,颗粒物(PM10),52,53,41,27,21,113,,191,168,31,21,14,13,0.9,0.7
2025-06-18T0000,3515A,117.9378,37.3553,滨州市,开发区一中,颗粒物(PM10),58,66,48,22,19,91,,173,143,35,25,15,12,0.6,0.5
2025-06-18T0000,3516A,118.0917,37.694,滨州市,金海六路,颗粒物(PM10),56,61,42,22,14,123,,188,174,28,28,12,11,0.4,0.3
2025-06-18T0000,4028A,117.9956,37.3753,滨州市,滨州市西街道办事处,颗粒物(PM10),56,61,40,29,18,98,,181,150,28,15,12,7,0.6,0.5
2025-06-18T0000,2311A,115.8072,33.8399,亳州市,污水处理厂,,44,44,48,18,14,97,,174,141,13,10,4,5,0.5,0.5
2025-06-18T0000,2312A,115.7789,33.8518,亳州市,三国揽胜宫,,46,46,47,18,16,107,,173,143,14,14,3,4,0.3,0.3
2025-06-18T0000,3332A,115.7633,33.8034,亳州市,亳州学院,,38,38,42,24,20,100,,176,132,10,12,1,4,0.7,0.4
2025-06-18T0000,2693A,82.0485,44.8556,博尔塔拉蒙古自治州,市党校,,46,,14,20,8,146,,136,136,6,6,3,3,0.2,0
2025-06-18T0000,2694A,82.0806,44.8969,博尔塔拉蒙古自治州,市环保局,,47,40,23,15,9,150,,134,134,7,6,3,9,0.4,0.6
2025-06-18T0000,1071A,116.8842,38.2991,沧州市,沧县城建局,颗粒物(PM10),56,62,45,26,19,121,,144,138,35,29,8,3,0.3,0.4
2025-06-18T0000,1072A,116.8584,38.3254,沧州市,电视转播站,颗粒物(PM10),59,68,45,34,19,105,,179,145,33,19,8,5,0.5,0.4
2025-06-18T0000,1073A,116.8709,38.3228,沧州市,市环保局,颗粒物(PM10),59,68,53,38,25,105,,178,142,36,23,6,3,0.4,0.3
2025-06-18T0000,3324A,116.8136,38.3004,沧州市,河北水利电力学院,,49,46,49,24,19,155,,195,164,25,26,9,6,0.4,0.4
2025-06-18T0000,2622A,97.1806,31.1273,昌都市,昌都监测站,,15,10,9,10,6,48,,79,64,7,6,6,6,0.5,0.4
2025-06-18T0000,3719A,97.1714,31.1406,昌都市,昌都会议中心,,,,16,10,13,42,,74,59,6,7,,4,0.3,0.2
2025-06-18T0000,2690A,88.1236,43.8886,昌吉回族自治州,天山天池,,25,15,19,10,7,80,,127,107,6,6,4,5,0.5,0.6
2025-06-18T0000,2692A,87.2717,44.0297,昌吉回族自治州,新区政务中心,,34,26,17,3,8,108,,145,133,13,7,9,9,0.4,0.4
2025-06-18T0000,3613A,87.3095,44.0142,昌吉回族自治州,亚心广场,,31,29,23,7,7,99,,134,123,16,11,8,9,0.3,0.3
2025-06-18T0000,1120A,125.2863,43.9027,长春市,客车厂,,39,39,27,22,16,19,,104,60,57,44,5,5,0.4,0.4
2025-06-18T0000,1121A,125.2841,43.8463,长春市,邮电学院,,34,34,20,15,10,15,,109,67,48,31,6,7,0.5,0.5
2025-06-18T0000,1122A,125.3716,43.8772,长春市,劳动公园,细颗粒物(PM2.5),54,50,33,38,20,30,,110,82,48,31,1,5,0.5,0.6
2025-06-18T0000,1123A,125.3297,43.8805,长春市,园林处,,33,33,24,18,12,43,,110,86,43,30,6,6,0.7,0.6
2025-06-18T0000,1124A,125.4605,43.79,长春市,净月潭,,30,30,24,19,11,45,,98,70,23,19,6,6,0.4,0.4
2025-06-18T0000,1125A,125.7194,43.515,长春市,甩湾子,,,,,,,,,,,,,,,,
2025-06-18T0000,1126A,125.3863,43.8447,长春市,经开区环卫处,,47,47,33,20,13,22,,114,78,56,31,6,6,0.3,0.3
2025-06-18T0000,1127A,125.245,43.7783,长春市,高新区管委会,,41,41,26,26,17,47,,117,74,40,33,3,4,0.5,0.4
2025-06-18T0000,1128A,125.1761,43.8325,长春市,岱山公园,颗粒物(PM10),51,52,29,27,19,8,,116,57,100,55,4,4,0.4,0.3
2025-06-18T0000,4281A,125.3346,43.9164,长春市,北亚泰大街1068号,,30,28,25,21,15,52,,96,78,35,33,4,5,0.4,0.4
2025-06-18T0000,1335A,113.0833,28.2325,长沙市,经开区环保局,,18,18,18,6,9,49,,86,62,8,8,5,4,0.2,0.3
2025-06-18T0000,1336A,112.8872,28.2189,长沙市,高开区环保局,,17,15,19,3,6,54,,95,69,4,6,3,3,0.6,0.7
2025-06-18T0000,1337A,113.0792,28.2053,长沙市,马坡岭,,19,19,18,3,7,56,,88,65,12,11,4,4,0.5,0.5
2025-06-18T0000,1338A,112.9394,28.19,长沙市,湖南师范大学,,19,13,18,3,8,58,,94,71,4,6,3,3,0.3,0.3
2025-06-18T0000,1339A,113.0178,28.1322,长沙市,雨花区环保局,,19,12,15,3,5,58,,88,68,3,4,5,5,0.4,0.4
2025-06-18T0000,1340A,112.9792,28.2597,长沙市,伍家岭,,18,13,17,7,9,57,,91,68,4,6,3,3,0.5,0.5
2025-06-18T0000,1341A,113.0014,28.1944,长沙市,火车新站,,17,16,16,3,4,53,,83,62,3,5,7,7,0.4,0.4
2025-06-18T0000,1342A,112.9844,28.1178,长沙市,天心区环保局,,19,10,14,3,6,60,,92,72,6,7,2,2,0.5,0.5
2025-06-18T0000,1343A,112.8908,28.1308,长沙市,湖南中医药大学,,18,12,19,3,8,56,,97,70,3,6,3,4,0.3,0.5
2025-06-18T0000,1344A,112.9581,28.3611,长沙市,沙坪,,15,11,14,7,6,47,,98,67,8,10,3,4,0.4,0.5
2025-06-18T0000,1727A,113.1147,36.1547,长治市,清华站,臭氧1小时,101,40,39,14,12,201,,190,190,10,21,7,6,0.5,0.6
2025-06-18T0000,1730A,113.0886,36.2125,长治市,审计局,臭氧1小时,92,32,29,14,13,193,,189,189,14,20,9,9,0.5,0.6
2025-06-18T0000,1731A,113.0844,36.1856,长治市,长治八中,臭氧1小时,98,40,38,19,18,198,,191,191,10,16,11,11,0.6,0.7
2025-06-18T0000,2845A,113.1569,36.1911,长治市,德盛苑,臭氧1小时,93,35,28,14,12,194,,184,184,13,13,9,10,0.7,0.7
2025-06-18T0000,3568A,113.06,36.0464,长治市,向阳小学,臭氧1小时,101,69,49,19,14,202,,199,199,14,13,9,8,0.6,0.6
2025-06-18T0000,3569A,112.8792,36.3144,长治市,屯留一中,,,,18,23,18,149,,181,165,19,25,8,7,0.5,0.5
2025-06-18T0000,4189A,113.1131,36.19948,长治市,英华南巷50号,臭氧1小时,78,40,32,17,13,182,,181,180,16,17,8,9,0.6,0.7
2025-06-18T0000,4190A,113.2367,36.3344,长治市,学府街1号,臭氧1小时,103,50,59,20,23,206,,186,181,10,39,5,11,0.4,0.6
2025-06-18T0000,1854A,111.6975,28.9703,常德市,市二中,,17,16,23,9,16,53,,87,,13,9,6,6,0.7,0.7
2025-06-18T0000,1857A,111.7158,29.1456,常德市,白鹤山,,,,,,,,,,,,,,,,
2025-06-18T0000,3138A,111.7153,29.0289,常德市,武陵区永安,,23,23,27,14,18,54,,96,70,7,9,5,5,0.4,0.5
2025-06-18T0000,3139A,111.6892,28.9881,常德市,鼎城区玉霞,,18,18,26,12,16,57,,97,77,8,7,6,6,0.5,0.5
2025-06-18T0000,3140A,111.6625,29.0531,常德市,武陵区长庚,,23,23,26,12,15,54,,99,76,14,6,7,4,0.4,0.5
2025-06-18T0000,1196A,119.9633,31.762,常州市,市监测站,细颗粒物(PM2.5),73,62,44,53,21,89,,178,141,40,13,12,9,1.0,0.5
2025-06-18T0000,1200A,119.9468,31.7069,常州市,武进监测站,,,53,42,24,18,,,166,,31,18,14,13,0.9,0.8
2025-06-18T0000,1201A,119.9255,31.9087,常州市,安家,颗粒物(PM10),57,64,49,26,20,56,,173,109,64,25,8,9,0.6,0.6
2025-06-18T0000,3002A,119.9805,31.8174,常州市,行政中心,,46,46,31,28,18,98,,177,146,39,14,12,11,0.6,0.3
2025-06-18T0000,3003A,120.0522,31.7748,常州市,经开区,颗粒物(PM10),69,88,64,23,17,77,,191,133,59,21,6,7,0.4,0.3
2025-06-18T0000,3010A,119.9025,31.7964,常州市,钟楼,颗粒物(PM10),52,54,45,27,16,126,,157,146,27,15,11,7,1.0,0.4
2025-06-18T0000,3429A,119.8598,31.7066,常州市,武进经发区,颗粒物(PM10),62,74,49,34,21,104,,153,128,33,15,7,7,1.3,0.9
2025-06-18T0000,3430A,119.5826,31.7245,常州市,金坛城区,颗粒物(PM10),52,53,41,26,19,131,,163,157,18,11,11,8,0.5,0.4
2025-06-18T0000,2220A,120.4318,41.5881,朝阳市,西梁,,25,21,26,14,15,80,,123,110,14,13,16,12,0.4,0.6
2025-06-18T0000,2221A,120.4521,41.5646,朝阳市,河畔小区,,30,14,24,8,10,93,,128,116,11,11,11,8,0.4,0.6
2025-06-18T0000,2222A,120.4176,41.5648,朝阳市,八里堡,,25,21,30,16,14,79,,129,112,16,15,12,7,0.4,0.6
2025-06-18T0000,2223A,120.3806,41.5969,朝阳市,农业园区,,19,14,24,13,16,50,,121,100,25,14,4,4,0.4,0.6
2025-06-18T0000,1705A,116.6367,23.6719,潮州市,西园路,,12,12,10,6,5,8,,20,13,7,8,3,2,0.6,0.7
2025-06-18T0000,3026A,116.6183,23.6608,潮州市,市政府,,18,18,16,3,6,12,,22,13,5,10,3,4,0.5,0.6
2025-06-18T0000,4036A,116.6461,23.6761,潮州市,金山,,18,18,11,8,8,4,,20,12,8,6,6,6,0.5,0.5
2025-06-18T0000,2472A,113.0073,25.9061,郴州市,马头岭,,11,6,6,3,6,35,,48,40,5,7,6,7,0.4,0.4
2025-06-18T0000,2473A,113.0116,25.8226,郴州市,市职中,,12,6,7,3,5,37,,52,43,4,5,1,1,0.2,0.2
2025-06-18T0000,2475A,113.0383,25.8071,郴州市,市审计局,,10,6,7,3,4,29,,48,37,6,5,4,4,0.3,0.4
2025-06-18T0000,2476A,113.0348,25.7759,郴州市,市环保局,,,7,8,,0,39,,56,46,5,7,2,3,0.0,0.1
2025-06-18T0000,4252A,113.0138,25.8011,郴州市,好美居路49号,,14,6,8,3,3,43,,57,48,3,5,2,4,0.4,0.5
2025-06-18T0000,1431A,103.9728,30.7236,成都市,金泉两河,,39,39,58,8,29,124,,265,199,10,24,3,5,0.4,0.6
2025-06-18T0000,1432A,104.176,30.6872,成都市,十里店,,42,34,53,22,28,134,,221,182,7,23,4,7,0.5,0.6
2025-06-18T0000,1433A,104.079,30.5706,成都市,三瓦窑,,40,38,53,19,28,126,,214,176,13,45,2,6,0.5,0.7
2025-06-18T0000,1434A,104.1114,30.63,成都市,沙河铺,,38,34,50,19,26,119,,196,159,12,22,4,6,0.6,0.7
2025-06-18T0000,1437A,104.0786,30.6531,成都市,君平街,,44,37,61,20,35,138,,244,207,9,26,4,8,0.7,0.8
2025-06-18T0000,1438A,103.613,31.0283,成都市,灵岩寺,,,,,,,,,,,,,,,,
2025-06-18T0000,2880A,104.0239,30.65639,成都市,大石西路,,42,39,60,29,35,124,,247,195,13,26,4,7,0.6,0.7
2025-06-18T0000,3136A,104.2725,30.5589,成都市,龙泉驿区区政府,,,17,31,17,18,130,,200,158,5,12,,7,0.7,0.7
2025-06-18T0000,3357A,104.0106,30.6931,成都市,金博路,,40,17,49,9,28,126,,252,198,13,35,3,9,0.7,0.8
2025-06-18T0000,3359A,104.0578,30.5225,成都市,华阳,,35,,43,22,30,112,,200,160,9,26,7,8,0.6,0.7
2025-06-18T0000,3488A,104.3853,30.7453,成都市,青白江技师分院,,44,24,41,13,21,140,,252,173,10,18,6,8,0.6,0.6
2025-06-18T0000,3489A,104.0789,30.4072,成都市,科学城,,34,21,42,13,26,107,,216,171,5,23,3,4,0.5,0.6
2025-06-18T0000,4011A,103.8506,30.6947,成都市,光华大道三段,,44,30,51,21,32,140,,258,198,10,19,4,6,0.6,0.6
2025-06-18T0000,4224A,104.2433,30.5353,成都市,鲸龙路1057号,,40,34,43,28,26,124,,202,157,7,19,7,10,0.6,0.7
2025-06-18T0000,1062A,117.9531,40.9081,承德市,铁路,颗粒物(PM10),51,51,28,16,13,94,,115,96,20,13,3,4,0.5,0.4
2025-06-18T0000,1063A,117.9392,40.9763,承德市,中国银行,颗粒物(PM10),51,51,31,28,12,47,,119,84,22,10,3,2,0.5,0.3
2025-06-18T0000,1064A,117.9503,40.928,承德市,开发区,,37,37,34,21,17,92,,122,100,16,11,4,4,0.6,0.5
2025-06-18T0000,1065A,117.8051,40.9655,承德市,文化中心,颗粒物(PM10),57,64,44,11,18,55,,123,94,22,15,1,2,0.6,0.7
2025-06-18T0000,1066A,117.9268,41.0026,承德市,离宫,,46,46,27,22,18,31,,102,56,15,9,3,2,0.3,0.3
2025-06-18T0000,2314A,117.47,30.6618,池州市,池州学院,,22,22,33,11,14,48,,114,80,11,8,6,6,0.4,0.4
2025-06-18T0000,3237A,117.4918,30.6617,池州市,展览馆,,25,25,30,10,12,38,,114,76,10,7,4,4,0.5,0.5
2025-06-18T0000,3333A,117.5627,30.695,池州市,第八中学,,25,25,31,16,14,37,,119,85,16,7,5,5,0.4,0.5
2025-06-18T0000,3334A,117.5038,30.6243,池州市,第十二中学,,22,22,32,10,15,33,,116,70,14,9,4,4,0.8,0.7
2025-06-18T0000,1744A,118.9233,42.2816,赤峰市,松山一中,,26,24,19,18,12,59,,120,96,24,18,6,7,0.6,0.5
2025-06-18T0000,1745A,118.9576,42.2728,赤峰市,哈达街,,39,39,19,22,13,44,,113,93,49,18,12,12,0.6,0.5
2025-06-18T0000,1746A,118.8788,42.2554,赤峰市,天义路,,28,28,18,18,14,69,,118,100,14,11,8,8,0.5,0.5
2025-06-18T0000,3058A,119.2658,42.0353,赤峰市,银河街,,42,42,27,24,21,89,,114,100,13,9,20,10,0.8,0.7
2025-06-18T0000,3286A,118.9359,42.3147,赤峰市,桥北物流园区,,50,50,19,3,20,50,,112,82,36,11,22,8,0.8,0.6
2025-06-18T0000,2521A,107.3476,22.4136,崇左市,市环保局江州分局,,18,18,22,7,7,27,,68,40,10,14,6,6,0.7,0.6
2025-06-18T0000,4256A,107.3750,22.3736,崇左市,石景林东路7号,,14,14,21,7,6,20,,68,39,18,14,2,2,0.5,0.5
2025-06-18T0000,2298A,118.3093,32.3153,滁州市,老年大学,颗粒物(PM10),51,52,46,26,22,74,,179,151,25,15,10,12,0.5,0.3
2025-06-18T0000,2299A,118.3244,32.2786,滁州市,人大宾馆,,45,45,38,28,21,85,,171,143,14,10,5,5,0.4,0.3
2025-06-18T0000,3207A,118.3118,32.3038,滁州市,市政府原办公楼,,46,46,43,27,24,87,,175,147,15,9,5,5,0.7,0.4
2025-06-18T0000,3331A,118.3267,32.2634,滁州市,图书馆,,50,50,39,25,21,96,,173,147,13,6,9,9,0.6,0.5
2025-06-18T0000,2605A,101.5482,25.0441,楚雄彝族自治州,州环境监测站,,10,,7,3,5,32,,42,38,5,6,10,10,0.5,0.5
2025-06-18T0000,2606A,101.538,25.0492,楚雄彝族自治州,市经济开发区,,27,27,10,15,6,31,,41,37,7,7,6,6,0.5,0.5
2025-06-18T0000,2548A,107.5277,31.2827,达州市,达州职业技术学院,,50,50,46,17,15,26,,124,76,32,24,7,9,0.4,0.3
2025-06-18T0000,2549A,107.5086,31.2186,达州市,市环境监测站,,40,40,42,12,14,64,,130,86,26,30,6,7,0.5,0.5
2025-06-18T0000,2550A,107.4988,31.2132,达州市,凤凰小区,,31,31,38,17,17,73,,141,97,26,25,9,10,0.4,0.4
2025-06-18T0000,2551A,107.5082,31.1986,达州市,达县机关宾馆,,41,41,41,8,9,75,,134,78,18,29,7,8,0.6,0.6
2025-06-18T0000,2552A,107.4644,31.2124,达州市,市政中心,,43,43,46,19,15,59,,117,87,26,24,5,5,0.6,0.5
2025-06-18T0000,2614A,100.1542,25.7054,大理白族自治州,大理市环境监测站,,14,,6,8,11,44,,49,48,4,5,5,6,0.3,0.4
2025-06-18T0000,2615A,100.2171,25.5811,大理白族自治州,大理古城,,16,16,15,10,9,40,,60,39,4,8,8,8,0.5,0.6
2025-06-18T0000,1109A,121.612,38.9741,大连市,甘井子,细颗粒物(PM2.5),53,52,37,37,21,122,,157,135,26,24,9,8,0.4,0.5
2025-06-18T0000,1110A,121.565,38.9511,大连市,周水子,,46,45,29,32,17,121,,159,143,17,17,10,12,0.5,0.5
2025-06-18T0000,1111A,121.5637,38.8845,大连市,星海三站,颗粒物(PM10),52,53,45,19,22,137,,164,161,8,12,5,6,0.4,0.4
2025-06-18T0000,1112A,121.6302,38.9117,大连市,青泥洼桥,颗粒物(PM10),52,53,31,27,16,129,,152,144,14,15,9,9,0.7,0.7
2025-06-18T0000,1113A,121.6251,38.8638,大连市,傅家庄,,46,24,24,15,20,145,,165,164,15,16,11,10,0.3,0.3
2025-06-18T0000,1114A,121.5213,38.8661,大连市,七贤岭,颗粒物(PM10),57,64,47,35,27,56,,104,95,16,19,10,11,0.8,0.6
2025-06-18T0000,1115A,121.2529,38.8061,大连市,旅顺,,44,20,21,18,15,138,,152,147,11,16,2,3,0.3,0.3
2025-06-18T0000,1116A,121.7485,39.1311,大连市,金州,,41,11,37,6,21,131,,189,151,8,21,6,11,0.3,0.5
2025-06-18T0000,1117A,121.7811,39.0496,大连市,开发区,,,68,41,43,25,109,,145,128,38,31,,3,0.6,0.6
2025-06-18T0000,1118A,121.9762,39.0631,大连市,双D港,,40,32,27,28,23,85,,136,115,7,18,8,9,0.7,0.7
2025-06-18T0000,1789A,124.81117,46.03138,大庆市,大同区,,21,15,21,3,6,66,,76,65,6,7,4,8,0.4,0.4
2025-06-18T0000,1790A,125.129,46.533,大庆市,龙凤区,,33,33,26,8,15,59,,91,76,13,11,4,4,0.3,0.3
2025-06-18T0000,1791A,124.902,46.408,大庆市,红岗区,,29,,20,20,17,69,,93,82,7,5,7,7,0.4,0.3
2025-06-18T0000,1792A,125.153,46.586,大庆市,萨尔图区,,25,25,24,13,8,56,,78,69,22,12,10,8,0.6,0.4
2025-06-18T0000,1793A,124.9042,46.6215,大庆市,让胡路区,,24,22,24,16,18,74,,92,85,7,5,4,4,0.2,0.2
2025-06-18T0000,3481A,125.141,46.634,大庆市,萨区政府监测点,,25,24,21,3,4,79,,93,88,8,5,6,6,0.3,0.3
2025-06-18T0000,1721A,113.3819,40.1097,大同市,果树场,,,,,,,,,,,,,,,,
2025-06-18T0000,1723A,113.2994,40.0758,大同市,云冈宾馆,颗粒物(PM10),52,53,44,17,17,82,,145,125,30,22,7,8,0.5,0.9
2025-06-18T0000,1724A,113.3444,40.0917,大同市,大同大学,,38,38,37,20,16,56,,165,134,40,22,11,10,0.4,0.5
2025-06-18T0000,1725A,113.2661,40.1269,大同市,安家小村,颗粒物(PM10),52,54,44,13,14,90,,153,128,27,20,11,10,0.5,1.6
2025-06-18T0000,1726A,113.2711,40.0844,大同市,教育学院,颗粒物(PM10),53,55,49,17,19,83,,154,125,32,26,10,11,0.5,1.2
2025-06-18T0000,3282A,113.3397,40.0597,大同市,大同市卫生学校,,45,45,41,12,17,81,,151,126,34,22,12,12,0.5,0.6
2025-06-18T0000,3565A,113.1367,40.1122,大同市,云冈站,颗粒物(PM10),55,59,42,24,17,75,,142,125,20,17,9,7,0.7,0.7
2025-06-18T0000,3566A,113.1186,40.2556,大同市,图书馆,,48,48,31,18,16,82,,148,127,14,12,8,8,0.8,0.7
2025-06-18T0000,3567A,113.5931,40.0461,大同市,区一中,,32,14,34,14,16,100,,164,127,11,17,12,16,0.4,0.4
2025-06-18T0000,4199A,113.2798,40.0997,大同市,魏都大道141号,,47,47,52,12,19,70,,154,130,42,24,9,10,0.5,1.5
2025-06-18T0000,2269A,124.1069,50.4097,大兴安岭地区,科技局,,26,24,24,18,13,32,,75,54,7,3,8,7,0.4,0.1
2025-06-18T0000,3663A,124.1164,50.4278,大兴安岭地区,红旗社区,,12,12,12,7,4,22,,74,48,10,3,5,5,0.2,0.1
2025-06-18T0000,1600A,124.3303,40.0625,丹东市,江湾东路,,40,30,20,28,16,69,,150,122,29,14,6,7,0.7,0.6
2025-06-18T0000,1601A,124.4256,40.1503,丹东市,临江后街,颗粒物(PM10),59,68,27,28,11,76,,154,136,23,10,10,9,1.1,0.7
2025-06-18T0000,1602A,124.3933,40.1461,丹东市,元宝山,,42,42,24,22,12,109,,133,119,15,11,8,8,0.9,0.6
2025-06-18T0000,1603A,124.3633,40.1092,丹东市,民主桥,,29,29,22,19,14,63,,151,115,18,8,6,8,0.8,0.6
2025-06-18T0000,3541A,109.5726,19.5167,儋州市,第一中学子站,,19,19,16,11,10,33,,38,31,4,4,7,7,0.4,0.4
2025-06-18T0000,3542A,109.5567,19.5187,儋州市,东坡学校子站,,13,13,15,3,3,36,,41,35,3,3,8,7,0.5,0.5
2025-06-18T0000,2616A,98.5842,24.428,德宏傣族景颇族自治州,德宏州监测站,,13,13,13,9,6,32,,49,38,8,6,7,7,0.6,0.5
2025-06-18T0000,3677A,98.5881,24.4368,德宏傣族景颇族自治州,芒市人民政府综合楼,,14,14,20,9,4,28,,47,36,5,5,7,7,0.4,0.4
2025-06-18T0000,1901A,104.4239,31.1208,德阳市,东山公园,,36,,48,23,28,115,,213,172,8,14,4,8,0.9,0.9
2025-06-18T0000,1902A,104.3826,31.1317,德阳市,西小区,,40,33,58,28,34,128,,211,171,9,21,4,8,0.7,0.8
2025-06-18T0000,1904A,104.3553,31.1091,德阳市,耐火材料厂,,42,,61,27,35,132,,242,192,8,25,6,10,0.5,0.6
2025-06-18T0000,3639A,104.4019,31.1244,德阳市,市教育局,,42,29,49,17,28,132,,229,185,5,15,5,8,0.9,1
2025-06-18T0000,1622A,116.3032,37.4674,德州市,儿童乐园,臭氧1小时,63,56,43,19,13,170,,185,181,17,14,10,8,0.5,0.4
2025-06-18T0000,1624A,116.2991,37.4451,德州市,监理站,臭氧1小时,54,48,36,22,12,163,,185,180,23,20,13,9,0.4,0.3
2025-06-18T0000,3066A,116.2721,37.4379,德州市,九衢泉纯净水厂,颗粒物(PM10),57,63,46,19,16,124,,169,153,39,29,8,7,0.6,0.5
2025-06-18T0000,3371A,116.3728,37.4403,德州市,开发区人民医院,颗粒物(PM10),52,53,40,31,13,137,,176,165,31,23,11,8,0.6,0.5
2025-06-18T0000,3372A,116.3572,37.4094,德州市,太阳城中学,,,,,,,,,,,,,,,,
2025-06-18T0000,3511A,116.5652,37.3319,德州市,陵城艺术中心,颗粒物(PM10),56,61,41,19,13,146,,185,179,21,17,8,8,0.6,0.6
2025-06-18T0000,2621A,99.7056,27.8317,迪庆藏族自治州,迪庆州站,,14,14,14,9,10,36,,62,39,5,6,6,6,0.5,0.6
2025-06-18T0000,3180A,99.7136,27.8094,迪庆藏族自治州,质量技术监督局,,12,9,12,3,7,38,,61,39,6,8,6,6,0.4,0.5
2025-06-18T0000,4257A,104.6092,35.5962,定西市,将台街,颗粒物(PM10),54,58,52,27,25,121,,159,145,14,20,6,5,0.2,0.2
2025-06-18T0000,4309A,104.6159,35.5701,定西市,正龙路62号,颗粒物(PM10),70,90,46,43,25,120,,157,142,9,7,4,5,0.4,0.3
2025-06-18T0000,1389A,113.7547,23.0494,东莞市,莞城梨川,,,26,14,21,10,,,36,18,30,20,7,6,0.4,0.4
2025-06-18T0000,1390A,113.7944,23.0128,东莞市,东城石井,,28,28,15,18,8,0,,25,7,31,24,2,2,0.5,0.6
2025-06-18T0000,1391A,113.7383,22.9658,东莞市,南城西平,,24,24,13,13,7,2,,33,8,35,24,3,3,0.6,0.5
2025-06-18T0000,3319A,113.7338,23.0381,东莞市,万江金泰,,24,24,13,16,7,0,,24,10,26,19,3,2,0.7,0.6
2025-06-18T0000,3626A,113.7533,23.0202,东莞市,南城元岭,,28,25,12,19,9,4,,31,14,30,22,6,5,0.6,0.6
2025-06-18T0000,3627A,113.7875,23.0457,东莞市,东城主山,,30,29,15,21,9,1,,27,10,29,22,6,6,0.7,0.7
2025-06-18T0000,1666A,118.6614,37.4309,东营市,市环保局,颗粒物(PM10),52,53,39,17,14,113,,200,181,25,23,10,11,0.6,0.4
2025-06-18T0000,3036A,118.6904,37.4338,东营市,开发区管委会,颗粒物(PM10),58,65,48,17,13,121,,204,187,29,25,10,10,0.6,0.4
2025-06-18T0000,3365A,118.5719,37.565,东营市,垦利区民丰路,颗粒物(PM10),56,61,44,14,15,124,,199,182,25,25,36,19,0.9,0.7
2025-06-18T0000,3498A,118.5055,37.8612,东营市,河口城区,颗粒物(PM10),51,51,43,17,16,135,,225,200,18,23,9,11,0.7,0.6
2025-06-18T0000,3646A,118.4978,37.4623,东营市,胜利站,颗粒物(PM10),53,56,46,14,13,100,,188,175,34,26,12,11,1.0,0.7
2025-06-18T0000,3734A,118.35,37.26,东营市,理想之城,颗粒物(PM10),56,61,40,24,16,102,,198,177,29,23,13,9,1.0,0.6
2025-06-18T0000,1591A,110.0023,39.8129,鄂尔多斯市,综合楼,,41,34,33,12,13,130,,150,142,20,20,4,5,0.5,0.5
2025-06-18T0000,1592A,109.9486,39.8261,鄂尔多斯市,巴音孟克林场办事处,,45,41,43,14,13,143,,165,161,20,18,7,8,0.4,0.4
2025-06-18T0000,1593A,109.7736,39.5986,鄂尔多斯市,康泽苑,,46,39,41,14,14,146,,168,164,12,15,6,7,0.3,0.3
2025-06-18T0000,1594A,109.8119,39.5989,鄂尔多斯市,华泰汽车城,,41,39,38,19,14,131,,153,148,14,22,4,6,0.4,0.5
2025-06-18T0000,1595A,109.9734,39.7884,鄂尔多斯市,奥林花园,,43,34,48,12,18,136,,162,156,20,22,6,7,0.4,0.4
2025-06-18T0000,2436A,114.8938,30.3994,鄂州市,市政府,,34,34,39,10,17,70,,122,,13,11,7,7,0.6,0.6
2025-06-18T0000,2437A,114.8989,30.3714,鄂州市,赵家坝,,29,29,41,9,11,67,,137,106,13,8,10,10,1.0,0.9
2025-06-18T0000,3654A,114.8094,30.4089,鄂州市,精准医疗中心,,28,28,37,3,14,64,,123,93,8,11,11,12,1.1,1.7
2025-06-18T0000,2454A,109.4978,30.2981,恩施土家族苗族自治州,湖北民院,,32,32,33,16,20,55,,126,82,17,10,5,5,0.4,0.4
2025-06-18T0000,2455A,109.4707,30.2798,恩施土家族苗族自治州,州电力总公司,,33,28,31,23,19,48,,110,75,14,12,7,8,0.5,0.5
2025-06-18T0000,3549A,109.5061,30.3772,恩施土家族苗族自治州,龙凤新区,,22,21,27,15,14,49,,114,75,7,6,3,5,0.4,0.3
2025-06-18T0000,2499A,108.3411,21.6158,防城港市,沙万,,,37,31,14,9,14,,45,,,14,3,1,,0.6
2025-06-18T0000,2500A,108.3514,21.7731,防城港市,防城档案局,,28,28,21,10,8,40,,47,46,11,7,1,2,0.6,0.6
2025-06-18T0000,2501A,108.3506,21.6414,防城港市,大海花园,,32,32,26,12,9,26,,52,47,32,13,3,2,0.5,0.5
2025-06-18T0000,1371A,113.1294,23.0067,佛山市,湾梁,,18,17,10,6,6,1,,24,13,35,29,8,8,0.8,0.8
2025-06-18T0000,1372A,113.1083,23.0478,佛山市,华材职中,,,17,9,15,6,,,35,,31,20,6,6,0.5,0.5
2025-06-18T0000,1373A,113.144,23.0453,佛山市,南海气象局,,17,12,13,10,8,0,,23,12,33,26,2,3,0.6,0.6
2025-06-18T0000,1374A,113.2881,22.8094,佛山市,顺德苏岗,,19,19,14,3,5,0,,30,8,32,21,6,7,0.4,0.4
2025-06-18T0000,1376A,112.8383,22.8678,佛山市,高明孔堂,,21,21,13,9,7,16,,38,26,13,13,5,5,0.5,0.5
2025-06-18T0000,1377A,112.8836,23.1588,佛山市,三水监测站,,16,9,10,6,12,2,,32,15,32,29,3,2,0.6,0.6
2025-06-18T0000,1378A,112.867,23.185,佛山市,三水云东海,,29,29,29,10,9,1,,33,16,32,31,2,1,0.6,0.6
2025-06-18T0000,3625A,113.2544,22.7642,佛山市,容桂街道办,,14,14,8,7,7,10,,35,11,23,23,5,5,0.6,0.7
2025-06-18T0000,1280A,119.3903,26.0543,福州市,鼓山,,,,,,,,,,,,,,,,
2025-06-18T0000,1282A,119.2681,26.0504,福州市,师大,,32,32,31,16,10,32,,73,42,17,12,4,4,0.3,0.3
2025-06-18T0000,1283A,119.2984,26.1028,福州市,五四北路,,26,26,32,17,13,37,,80,54,19,14,4,4,0.5,0.5
2025-06-18T0000,1284A,119.2648,26.0768,福州市,杨桥西路,,33,33,31,20,14,28,,81,47,24,14,4,4,0.4,0.4
2025-06-18T0000,1285A,119.317,26.0746,福州市,紫阳,,30,29,38,21,15,43,,65,49,17,20,4,5,0.3,0.4
2025-06-18T0000,3048A,119.5799,26.0936,福州市,九龙,,23,23,28,14,13,52,,83,66,13,14,4,4,0.2,0.3
2025-06-18T0000,3526A,119.5189,25.9664,福州市,吴航,,30,30,28,17,15,53,,70,65,14,12,5,5,0.4,0.4
2025-06-18T0000,1755A,123.7977,41.8491,抚顺市,望花区,,28,28,34,18,20,78,,167,125,28,24,4,3,0.8,0.6
2025-06-18T0000,1756A,123.9161,41.8822,抚顺市,顺城区,,32,32,37,15,19,47,,164,120,39,22,9,11,0.6,1
2025-06-18T0000,1757A,124.0436,41.8611,抚顺市,东洲区,,25,19,27,13,16,78,,149,110,10,16,10,11,0.4,0.7
2025-06-18T0000,1758A,123.9247,41.8642,抚顺市,新抚区,,32,32,38,19,17,51,,160,111,11,11,7,9,0.6,0.9
2025-06-18T0000,1759A,124.0972,41.8961,抚顺市,大伙房水库,,22,21,20,15,15,45,,138,103,34,13,8,9,0.4,0.5
2025-06-18T0000,1760A,123.7086,41.8391,抚顺市,沈抚新城,,38,38,36,16,21,80,,161,119,28,25,7,8,0.8,0.7
2025-06-18T0000,2376A,116.2127,28.0814,抚州市,桐源党溪,,22,22,20,14,8,36,,65,42,3,3,4,4,0.2,0.3
2025-06-18T0000,2377A,116.3544,27.9831,抚州市,市站,,13,13,19,8,7,32,,69,47,5,4,2,2,0.7,0.6
2025-06-18T0000,2378A,116.3565,27.963,抚州市,血防站,,17,17,19,3,8,31,,65,45,6,4,2,3,0.2,0.4
2025-06-18T0000,2379A,116.3564,28.0007,抚州市,采茶剧团,,14,14,18,3,6,34,,71,49,3,3,3,4,0.4,0.4
2025-06-18T0000,2380A,116.385,27.9647,抚州市,医学分院,,13,13,22,7,7,33,,70,49,4,3,3,5,0.6,0.6
2025-06-18T0000,2207A,121.6094,41.998,阜新市,工业园区,,40,40,25,10,12,36,,104,80,40,19,12,17,0.4,0.4
2025-06-18T0000,2208A,121.6697,42.0279,阜新市,长青街,,25,24,19,17,10,66,,99,84,25,13,15,17,0.5,0.5
2025-06-18T0000,2209A,121.6673,42.0705,阜新市,农业园区,,32,32,19,17,8,78,,92,80,23,15,6,8,0.6,0.5
2025-06-18T0000,2210A,121.6717,42.0224,阜新市,东苑,,34,34,26,14,11,79,,104,93,30,17,30,21,0.8,0.7
2025-06-18T0000,2211A,121.6506,42.0498,阜新市,玉龙新城,,43,43,26,17,12,5,,97,48,49,21,6,9,0.8,0.6
2025-06-18T0000,2301A,115.8277,32.8929,阜阳市,市监测站,颗粒物(PM10),103,156,63,26,27,72,,147,,17,18,3,3,0.3,0.5
2025-06-18T0000,2303A,115.8554,32.8605,阜阳市,开发区,,46,46,56,17,17,72,,152,121,22,20,6,7,0.2,0.3
2025-06-18T0000,2875A,115.784,32.8892,阜阳市,阜阳职业技术学院,,45,45,47,13,17,87,,157,131,14,13,4,5,0.5,0.5
2025-06-18T0000,3468A,115.7901,32.8613,阜阳市,市规划展馆,,49,49,62,25,23,71,,147,115,16,15,3,3,0.2,0.2
2025-06-18T0000,3469A,115.836,32.9183,阜阳市,枣园社区,,46,46,52,22,24,78,,150,122,16,17,4,4,0.4,0.4
2025-06-18T0000,2669A,102.9099,34.9841,甘南藏族自治州,州政府,,36,33,51,25,22,84,,112,101,11,23,5,6,0.3,0.3
2025-06-18T0000,3380A,102.8914,34.9617,甘南藏族自治州,甘肃民族师范学院,,29,25,61,14,20,91,,120,108,4,18,9,9,0.4,0.4
2025-06-18T0000,2570A,101.9603,30.0475,甘孜藏族自治州,水桥子,,26,18,25,18,14,68,,117,91,21,22,6,5,0.4,0.4
2025-06-18T0000,3065A,101.9533,29.9972,甘孜藏族自治州,州环保局,,28,28,29,13,11,76,,117,88,18,22,2,2,0.4,0.3
2025-06-18T0000,3414A,115.8347,28.932,赣江新区,桑海产业园,,19,19,17,3,7,22,,120,66,32,14,7,7,0.6,0.5
2025-06-18T0000,2362A,114.9017,25.9149,赣州市,通天岩,,12,11,10,3,4,36,,45,41,3,3,2,2,0.1,0.1
2025-06-18T0000,2363A,114.9367,25.8664,赣州市,地委,,13,10,14,3,6,40,,46,43,4,9,3,3,0.5,0.5
2025-06-18T0000,2364A,114.9461,25.8481,赣州市,气象台,,13,8,13,3,4,39,,48,43,4,8,8,8,0.3,0.4
2025-06-18T0000,2365A,114.9322,25.8333,赣州市,市图书馆,,13,6,7,3,6,40,,48,44,2,5,4,4,0.3,0.3
2025-06-18T0000,2366A,114.8905,25.8471,赣州市,华坚鞋城,,13,10,12,3,5,40,,49,46,4,7,3,4,0.1,0.2
2025-06-18T0000,3109A,115.0093,25.8613,赣州市,赣县区卫计委,,13,6,12,3,4,40,,44,42,3,10,2,2,0.1,0.2
2025-06-18T0000,2683A,106.2319,36.1417,固原市,马园,颗粒物(PM10),60,69,51,18,16,111,,137,100,16,33,10,8,0.6,0.6
2025-06-18T0000,2684A,106.2792,36.0022,固原市,监测站,,37,37,39,18,15,90,,150,125,27,13,5,6,0.3,0.3
2025-06-18T0000,2685A,106.2375,36.0211,固原市,新区,,34,29,39,19,16,107,,138,118,15,11,3,3,0.3,0.3
2025-06-18T0000,3522A,106.2177,35.9959,固原市,原州区十五小,,41,41,43,20,19,122,,149,132,13,9,10,8,0.3,0.2
2025-06-18T0000,2543A,106.6308,30.5278,广安市,小平旧居,,,,,,,,,,,,,,,,
2025-06-18T0000,2544A,106.6303,30.4576,广安市,市委,,29,23,33,20,21,78,,139,119,9,22,3,7,0.4,0.5
2025-06-18T0000,2545A,106.6271,30.4663,广安市,友谊中学,,28,27,32,16,18,88,,154,126,2,16,6,7,0.9,0.9
2025-06-18T0000,2547A,106.6388,30.4551,广安市,广电花园,,25,23,36,12,21,77,,144,118,8,17,9,9,0.5,0.5
2025-06-18T0000,2902A,106.6351,30.4865,广安市,北辰小学,,28,26,35,18,18,87,,156,127,6,14,8,9,0.6,0.7
2025-06-18T0000,2523A,105.8945,32.4535,广元市,黑石坡,细颗粒物(PM2.5),53,,43,37,18,63,,151,118,13,12,8,9,0.4,0.4
2025-06-18T0000,2524A,105.821,32.4444,广元市,老城,,50,50,35,35,18,83,,182,140,21,29,10,16,0.7,0.7
2025-06-18T0000,2526A,105.8628,32.4287,广元市,监测站,,33,33,32,22,21,76,,176,129,9,17,8,8,0.5,0.5
2025-06-18T0000,3617A,105.8047,32.4166,广元市,经开区,,34,34,54,19,29,88,,183,143,17,24,7,12,0.6,0.6
2025-06-18T0000,1345A,113.2347,23.1423,广州市,广雅中学,,22,21,13,15,9,4,,32,17,36,24,3,2,0.5,0.4
2025-06-18T0000,1346A,113.2612,23.105,广州市,市五中,,35,35,18,23,12,1,,30,14,26,19,5,3,0.8,0.7
2025-06-18T0000,1348A,113.3478,23.0916,广州市,广东商学院,,30,30,13,14,5,10,,32,13,33,27,4,3,0.7,0.6
2025-06-18T0000,1349A,113.4332,23.1047,广州市,市八十六中,,37,37,16,23,9,2,,22,2,35,32,4,3,0.3,0.4
2025-06-18T0000,1350A,113.3505,22.9483,广州市,番禺中学,,23,23,12,13,7,1,,34,11,35,24,6,6,0.6,0.5
2025-06-18T0000,1351A,113.2146,23.3916,广州市,花都师范,,25,25,14,17,9,2,,24,12,37,32,4,3,0.8,0.8
2025-06-18T0000,1352A,113.2597,23.1331,广州市,市监测站,,20,20,13,14,8,6,,36,20,37,26,6,5,0.4,0.4
2025-06-18T0000,1353A,113.5618,23.312,广州市,九龙镇镇龙,,17,17,14,9,8,7,,29,18,21,20,6,6,0.4,0.4
2025-06-18T0000,1354A,113.2765,23.1544,广州市,麓湖,,34,34,15,16,7,1,,27,14,36,23,2,2,0.8,0.7
2025-06-18T0000,1355A,113.443,23.3035,广州市,帽峰山森林公园,,12,10,4,8,4,29,,40,36,17,17,5,4,0.4,0.4
2025-06-18T0000,2846A,113.3221,23.1322,广州市,体育西,,35,30,15,24,9,1,,27,9,41,32,6,4,0.6,0.5
2025-06-18T0000,3298A,113.5717,23.5491,广州市,从化街口,,13,13,10,3,5,3,,37,27,22,17,7,7,0.6,0.6
2025-06-18T0000,3299A,113.3472,23.3692,广州市,白云竹料,,16,16,14,11,8,7,,25,14,22,21,3,3,0.6,0.6
2025-06-18T0000,3300A,113.2981,23.237,广州市,白云嘉禾,,,,12,,7,1,,25,11,,27,4,5,1.0,0.9
2025-06-18T0000,3301A,113.4256,23.1716,广州市,黄埔科学城,,27,27,17,16,9,0,,18,6,24,22,5,5,0.7,0.6
2025-06-18T0000,3302A,113.3942,23.0483,广州市,番禺大学城,,29,,12,20,8,1,,33,11,38,25,3,4,0.6,0.5
2025-06-18T0000,3303A,113.4922,22.8168,广州市,南沙黄阁,,28,28,13,19,9,3,,41,20,33,14,5,4,0.6,0.5
2025-06-18T0000,3304A,113.5342,22.7896,广州市,南沙街,,28,25,13,19,7,3,,42,18,35,16,4,3,0.6,0.5
2025-06-18T0000,3443A,113.2902,23.5544,广州市,花都梯面,,12,12,10,7,6,19,,31,29,14,16,4,4,0.4,0.4
2025-06-18T0000,3445A,113.7858,23.7478,广州市,从化良口,,18,18,10,3,3,13,,37,29,7,7,6,6,0.5,0.6
2025-06-18T0000,3446A,113.8051,23.2614,广州市,增城荔城,,17,17,14,3,6,8,,37,23,11,14,5,6,0.4,0.4
2025-06-18T0000,2505A,109.568,23.1478,贵港市,德智高中,,,,,,,,,,,,,,,,
2025-06-18T0000,2506A,109.6047,23.0666,贵港市,江南子站,颗粒物(PM10),56,61,27,19,14,5,,44,18,28,17,9,7,0.8,0.6
2025-06-18T0000,2508A,109.5669,23.1065,贵港市,荷城子站,,27,27,22,7,9,15,,42,25,18,15,6,6,0.5,0.4
2025-06-18T0000,3405A,109.5886,23.1172,贵港市,新世纪学校,,22,22,16,14,13,20,,45,29,14,13,6,4,0.4,0.5
2025-06-18T0000,4260A,109.5933,23.0951,贵港市,中山路155-3号,,29,29,29,18,14,14,,46,25,19,16,6,5,0.6,0.4
2025-06-18T0000,1439A,106.6899,26.5998,贵阳市,马鞍山,,,7,16,,2,54,,71,58,4,6,3,3,0.3,0.3
2025-06-18T0000,1441A,106.6243,26.6266,贵阳市,鉴湖路,,18,17,24,12,9,51,,72,58,7,9,7,8,0.4,0.4
2025-06-18T0000,1442A,106.7487,26.6343,贵阳市,燕子冲,,18,9,20,9,17,57,,83,66,8,9,4,4,0.3,0.4
2025-06-18T0000,1443A,106.6555,26.4365,贵阳市,碧云窝,,20,17,21,7,8,61,,74,64,5,5,4,5,0.3,0.4
2025-06-18T0000,1445A,106.7109,26.6027,贵阳市,红边门,,18,9,20,3,9,55,,76,59,4,7,8,13,0.4,0.4
2025-06-18T0000,1446A,106.7164,26.5699,贵阳市,新华路,,18,9,17,3,9,56,,76,61,11,12,5,11,0.2,0.4
2025-06-18T0000,1447A,106.674,26.5424,贵阳市,太慈桥,,16,6,19,3,7,49,,75,58,9,12,5,5,0.3,0.3
2025-06-18T0000,1552A,106.805,26.3003,贵阳市,桐木岭,,25,24,26,17,15,65,,69,64,2,1,1,1,0.9,0.9
2025-06-18T0000,4230A,106.6882,26.5695,贵阳市,花果园大街66号,,20,,14,8,13,62,,78,66,4,6,3,4,0.2,0.3
2025-06-18T0000,4231A,106.6873,26.5169,贵阳市,漓江路57号,,17,9,18,3,7,52,,73,58,5,7,1,2,0.2,0.3
2025-06-18T0000,1862A,110.4144,25.3167,桂林市,电子科大尧山校区,,,,,,,,,,,,,,,,
2025-06-18T0000,1864A,110.3089,25.2708,桂林市,龙隐路小学,,12,11,14,6,6,36,,61,49,7,6,8,8,0.4,0.4
2025-06-18T0000,1865A,110.2869,25.2178,桂林市,八中,,12,9,14,3,3,38,,57,49,7,8,6,6,0.7,0.7
2025-06-18T0000,3531A,110.296,25.1253,桂林市,旅游学院,,14,6,6,3,4,42,,55,48,3,5,2,5,0.3,0.3
2025-06-18T0000,4222A,110.1835,25.2444,桂林市,环湖路276号,,15,7,9,3,4,45,,56,51,3,5,5,5,0.2,0.3
2025-06-18T0000,4301A,110.2803,25.2773,桂林市,信义路13号,,11,7,11,3,2,35,,58,47,7,8,2,1,0.5,0.5
2025-06-18T0000,2674A,100.2561,34.4714,果洛藏族自治州,玛沁县大武镇,,37,27,35,19,16,118,,122,118,1,6,16,18,0.3,0.4
2025-06-18T0000,1129A,126.5422,45.755,哈尔滨市,岭北,,29,29,10,15,7,50,,98,86,36,13,10,9,1.0,0.8
2025-06-18T0000,1130A,126.561,45.8167,哈尔滨市,松北商大,,28,28,18,3,6,29,,79,61,28,12,5,6,0.5,0.5
2025-06-18T0000,1131A,126.979,45.5419,哈尔滨市,阿城会宁,,27,27,18,11,10,6,,89,55,51,21,8,8,0.4,0.4
2025-06-18T0000,1132A,126.599,45.7222,哈尔滨市,南岗学府路,细颗粒物(PM2.5),82,97,29,60,11,3,,85,55,66,16,6,6,1.2,0.5
2025-06-18T0000,1133A,126.689,45.7733,哈尔滨市,太平宏伟公园,颗粒物(PM10),54,57,23,18,9,7,,87,66,68,13,5,5,0.7,0.4
2025-06-18T0000,1134A,126.635,45.7667,哈尔滨市,道外承德广场,颗粒物(PM10),54,58,36,15,8,6,,83,59,68,17,6,6,0.6,0.3
2025-06-18T0000,1135A,126.685,45.7319,哈尔滨市,香坊红旗大街,颗粒物(PM10),63,75,38,33,14,1,,88,61,74,18,10,8,1.0,0.7
2025-06-18T0000,1136A,126.6411,45.7258,哈尔滨市,动力和平路,颗粒物(PM10),51,52,20,10,5,5,,87,59,74,24,8,8,0.7,0.4
2025-06-18T0000,1137A,126.593,45.7478,哈尔滨市,道里建国路,,48,48,18,8,6,6,,87,58,73,17,6,6,0.9,0.6
2025-06-18T0000,1138A,126.615,45.61,哈尔滨市,平房东轻厂,,40,35,18,6,6,1,,85,41,79,27,9,9,0.4,0.3
2025-06-18T0000,1139A,126.595,45.9855,哈尔滨市,呼兰师专,,34,34,17,3,4,39,,83,66,47,16,10,9,0.3,0.3
2025-06-18T0000,1140A,126.6206,45.6842,哈尔滨市,省农科院,,,,34,15,11,1,,73,38,97,30,14,7,0.6,0.6
2025-06-18T0000,2688A,93.5128,42.8172,哈密市,地区监测站,,39,39,38,7,16,122,,121,116,4,11,7,11,0.1,0.1
2025-06-18T0000,2689A,93.4961,42.8328,哈密市,哈密师范学校,,36,20,36,10,14,113,,120,113,9,13,4,5,0.2,0.3
2025-06-18T0000,2671A,100.9048,36.9639,海北藏族自治州,海晏县西海镇,,36,36,36,19,18,112,,162,148,8,7,11,12,0.5,0.5
2025-06-18T0000,3867A,102.0738,36.5056,海东市,平安区公安北苑,颗粒物(PM10),62,74,45,35,23,85,,149,138,2,9,12,16,0.6,0.6
2025-06-18T0000,1409A,110.576,19.9507,海口市,东寨港,,16,14,19,11,11,41,,44,40,2,3,13,12,0.3,0.4
2025-06-18T0000,1410A,110.3232,20.0574,海口市,海南大学,,22,22,23,11,12,44,,50,44,3,4,4,3,0.3,0.3
2025-06-18T0000,1411A,110.283,20.0053,海口市,秀英海南医院,,25,25,24,10,12,43,,47,40,4,7,4,4,0.3,0.3
2025-06-18T0000,1412A,110.338,19.9969,海口市,海南师范大学,,27,27,24,12,12,42,,50,43,3,5,3,3,0.4,0.4
2025-06-18T0000,1413A,110.33,20.0356,海口市,龙华路环保局宿舍,,26,26,23,13,12,41,,48,42,4,6,4,4,0.3,0.3
2025-06-18T0000,3539A,110.5111,19.9736,海口市,桂林洋子站,,24,24,26,12,14,42,,46,40,3,4,4,4,0.2,0.2
2025-06-18T0000,2673A,100.6188,36.2866,海南藏族自治州,共和县恰卜恰镇,颗粒物(PM10),53,55,43,19,19,88,,139,120,26,13,15,14,0.5,0.4
2025-06-18T0000,2676A,97.3731,37.3753,海西蒙古族藏族自治州,德令哈市,颗粒物(PM10),52,53,47,17,17,132,,145,136,1,5,10,11,0.5,0.5
2025-06-18T0000,1048A,114.5302,36.6116,邯郸市,东污水处理厂,,44,44,36,9,2,138,,192,173,27,24,6,7,0.4,0.5
2025-06-18T0000,1049A,114.4918,36.5713,邯郸市,矿院,,46,46,29,12,8,124,,196,171,33,24,8,9,0.4,0.5
2025-06-18T0000,1050A,114.484,36.6133,邯郸市,丛台公园,,47,42,31,10,10,150,,196,184,19,19,9,9,0.4,0.5
2025-06-18T0000,3458A,114.7895,36.5593,邯郸市,香泉濮院小区,颗粒物(PM10),60,69,48,11,3,127,,186,166,23,18,6,5,0.3,0.4
2025-06-18T0000,3579A,114.50634,36.77178,邯郸市,永年区实验高中,颗粒物(PM10),61,72,56,28,24,76,,207,172,73,27,4,12,0.2,0.8
2025-06-18T0000,3580A,114.20016,36.44293,邯郸市,峰峰矿区临水派出所,臭氧1小时,78,45,26,9,3,182,,199,188,19,14,19,13,1.6,0.6
2025-06-18T0000,2634A,106.9893,33.1842,汉中市,汉川机床厂子校,,36,22,36,21,24,114,,146,126,6,10,4,4,0.6,0.6
2025-06-18T0000,2635A,107.0154,33.0706,汉中市,市监测站,,40,40,42,18,16,80,,143,109,11,10,7,7,0.6,0.5
2025-06-18T0000,2636A,107.0089,33.1138,汉中市,鑫源开发区,,28,26,38,18,18,88,,141,104,10,15,6,6,0.4,0.4
2025-06-18T0000,2637A,107.007,33.0323,汉中市,南郑大河坎水厂,,37,37,41,23,21,70,,140,100,11,14,5,6,0.2,0.4
2025-06-18T0000,1223A,120.2072,30.2111,杭州市,滨江,颗粒物(PM10),61,71,53,30,21,130,,163,152,50,29,7,6,0.6,0.4
2025-06-18T0000,1224A,120.0633,30.2747,杭州市,西溪,颗粒物(PM10),55,59,38,33,21,81,,134,97,19,10,3,4,0.5,0.4
2025-06-18T0000,1226A,120.3417,30.3150,杭州市,下沙,颗粒物(PM10),59,67,46,29,26,104,,178,154,40,23,9,7,0.5,0.4
2025-06-18T0000,1227A,120.1269,30.2456,杭州市,卧龙桥,,34,34,36,13,21,28,,148,70,13,10,7,7,0.7,0.5
2025-06-18T0000,1228A,120.1903,30.2692,杭州市,浙江农大,,,73,46,41,24,100,,148,125,,17,11,10,0.7,0.5
2025-06-18T0000,1230A,120.1197,30.3119,杭州市,和睦小学,颗粒物(PM10),62,73,39,27,17,112,,159,141,29,10,11,8,0.7,0.5
2025-06-18T0000,1231A,120.3019,30.4183,杭州市,临平镇,颗粒物(PM10),65,80,62,30,20,104,,181,154,42,21,7,6,0.5,0.5
2025-06-18T0000,1232A,120.2753,30.1839,杭州市,城厢镇,颗粒物(PM10),61,72,48,34,23,130,,164,142,37,26,9,8,0.8,0.6
2025-06-18T0000,1233A,120.0883,30.1808,杭州市,云栖,,32,24,21,22,16,37,,156,89,23,14,7,7,0.6,0.5
2025-06-18T0000,3557A,119.9464,30.0494,杭州市,镇二中,,39,38,38,27,22,14,,125,70,47,22,3,4,0.3,0.2
2025-06-18T0000,3558A,119.7183,30.2367,杭州市,市府大楼,,43,43,38,24,19,33,,114,74,18,15,7,7,0.6,0.4
2025-06-18T0000,3656A,120.1556,30.2864,杭州市,消防大队,细颗粒物(PM2.5),57,62,41,40,22,101,,153,131,38,17,7,6,0.9,0.7
2025-06-18T0000,1270A,117.1959,31.7848,合肥市,明珠广场,,24,19,36,12,17,75,,140,100,12,16,5,6,0.4,0.5
2025-06-18T0000,1271A,117.3072,31.8764,合肥市,三里街,,21,17,39,9,16,67,,121,94,14,16,6,6,0.4,0.6
2025-06-18T0000,1272A,117.2588,31.8707,合肥市,琥珀山庄,,25,14,39,11,21,77,,140,104,12,15,6,6,0.4,0.5
2025-06-18T0000,1273A,117.1604,31.9052,合肥市,董铺水库,,23,19,49,7,16,72,,120,91,7,10,2,1,0.2,0.3
2025-06-18T0000,1274A,117.25,31.8571,合肥市,长江中路,,22,17,41,9,18,70,,135,100,14,14,6,6,0.4,0.5
2025-06-18T0000,1275A,117.266,31.9436,合肥市,庐阳区,,25,17,41,7,15,78,,140,105,5,10,7,8,0.5,0.6
2025-06-18T0000,1276A,117.3453,31.8616,合肥市,瑶海区,,24,24,41,10,16,66,,121,94,16,15,6,7,0.5,0.5
2025-06-18T0000,1277A,117.3027,31.7964,合肥市,包河区,,25,17,33,7,15,78,,123,101,8,13,4,4,0.4,0.5
2025-06-18T0000,1278A,117.2776,31.7385,合肥市,滨湖新区,,25,,32,14,20,78,,125,99,8,11,8,9,0.4,0.5
2025-06-18T0000,1279A,117.1318,31.8403,合肥市,高新区,,23,19,42,10,18,73,,139,101,14,14,7,7,0.4,0.5
2025-06-18T0000,3464A,117.3803,31.9147,合肥市,高教基地,,25,19,37,13,17,79,,142,111,10,11,7,7,0.4,0.5
2025-06-18T0000,3614A,79.924,37.0877,和田地区,地区环保局,颗粒物(PM10),269,398,250,79,86,104,,113,106,6,7,2,2,0.3,0.3
2025-06-18T0000,3615A,79.9131,37.113,和田地区,市环保局,颗粒物(PM10),174,298,225,94,93,96,,113,105,9,8,1,2,0.3,0.3
2025-06-18T0000,2516A,108.2011,24.715,河池市,东仁乐园,,,,,,,,,,,,,,,,
2025-06-18T0000,2517A,108.0497,24.6947,河池市,市环保站,,14,8,17,3,9,44,,61,54,4,4,3,3,0.5,0.5
2025-06-18T0000,2518A,108.0983,24.6989,河池市,市疾控中心,,12,10,16,3,8,38,,65,55,14,9,8,8,0.6,0.6
2025-06-18T0000,1696A,114.6778,23.7569,河源市,源西,,15,13,10,10,9,20,,49,23,15,14,4,4,0.6,0.7
2025-06-18T0000,1697A,114.6944,23.7586,河源市,东埔,,13,13,11,8,6,21,,28,22,10,13,4,5,0.4,0.7
2025-06-18T0000,1698A,114.6892,23.7233,河源市,老城,,12,12,13,6,9,22,,24,18,2,6,3,3,0.2,0.3
2025-06-18T0000,1718A,115.4208,35.2464,菏泽市,气象局,颗粒物(PM10),56,61,57,20,22,111,,199,157,14,19,5,6,0.4,0.4
2025-06-18T0000,3374A,115.5564,35.0891,菏泽市,定陶老年大学,,41,41,50,9,16,105,,201,156,12,15,3,4,0.2,0.2
2025-06-18T0000,4184A,115.4797,35.24401,菏泽市,永昌路1号,颗粒物(PM10),51,52,51,14,16,114,,200,158,9,15,6,6,0.1,0.2
2025-06-18T0000,4193A,115.4715,35.2800,菏泽市,长城路999号,颗粒物(PM10),55,59,50,19,15,120,,208,176,16,20,6,6,0.3,0.3
2025-06-18T0000,2514A,111.5264,24.4172,贺州市,环保小区,,,6,10,,9,31,,38,36,7,8,8,9,0.8,0.8
2025-06-18T0000,2515A,111.5608,24.4078,贺州市,政协大楼,,10,,7,3,7,31,,41,38,10,9,11,13,0.4,0.6
2025-06-18T0000,3534A,111.4744,24.4553,贺州市,西湾,,10,,7,6,6,31,,42,37,9,11,9,9,0.5,0.5
2025-06-18T0000,2385A,114.17,35.9019,鹤壁市,市监测站,颗粒物(PM10),59,68,34,33,15,118,,202,180,28,12,16,9,1.1,1
2025-06-18T0000,2386A,114.2956,35.7511,鹤壁市,市交警支队,颗粒物(PM10),53,56,33,19,11,129,,196,180,37,20,7,7,0.7,0.5
2025-06-18T0000,2387A,114.2878,35.7306,鹤壁市,迎宾馆,颗粒物(PM10),55,59,36,27,16,133,,199,183,35,17,3,4,0.7,0.6
2025-06-18T0000,3474A,114.2617,35.6822,鹤壁市,大新区,,50,50,51,26,19,76,,192,160,71,28,8,8,0.5,0.4
2025-06-18T0000,3596A,114.1572,35.9603,鹤壁市,南山宾馆,颗粒物(PM10),69,87,44,33,25,166,,202,190,15,11,9,7,0.6,0.6
2025-06-18T0000,2244A,130.2537,47.3416,鹤岗市,哈啤分公司,,26,26,18,7,8,64,,92,76,10,6,13,14,0.3,0.2
2025-06-18T0000,2245A,130.2684,47.3086,鹤岗市,斯达机电,,34,34,30,22,18,67,,81,74,12,10,12,14,0.0,0.3
2025-06-18T0000,2246A,130.3114,47.3388,鹤岗市,东山纸板厂,,30,30,25,19,13,66,,71,68,11,13,14,15,0.8,1
2025-06-18T0000,2247A,130.1097,47.3382,鹤岗市,五号水库,,17,15,13,8,7,52,,80,68,10,9,11,12,0.4,0.4
2025-06-18T0000,2263A,127.4833,50.2524,黑河市,交通局,,25,25,25,12,13,18,,53,32,10,9,8,6,0.3,0.2
2025-06-18T0000,2264A,127.5144,50.2341,黑河市,环保局,,39,39,28,15,11,14,,59,35,23,8,26,7,0.5,0.3
2025-06-18T0000,2265A,127.5291,50.2472,黑河市,大黑河岛,,20,,14,14,6,22,,31,26,6,11,18,17,0.3,0.3
2025-06-18T0000,1074A,115.6838,37.7541,衡水市,电机北厂,臭氧1小时,52,34,41,17,14,161,,173,167,18,16,3,5,0.3,0.4
2025-06-18T0000,1075A,115.6303,37.7316,衡水市,市监测站,,46,46,43,23,11,144,,172,155,28,17,3,5,0.3,0.3
2025-06-18T0000,3188A,115.6683,37.7217,衡水市,市城管局,颗粒物(PM10),52,53,43,20,16,130,,178,154,40,20,3,5,0.4,0.4
2025-06-18T0000,3459A,115.5989,37.5491,衡水市,地表水厂,颗粒物(PM10),59,67,53,17,14,103,,181,143,46,29,8,8,0.3,0.4
2025-06-18T0000,2456A,112.5003,26.9167,衡阳市,原169医院,,,4,12,,10,51,,91,68,3,5,2,7,0.4,0.5
2025-06-18T0000,2457A,112.6194,26.9258,衡阳市,衡阳化工总厂,,14,7,13,3,5,42,,76,58,8,6,4,4,0.4,0.4
2025-06-18T0000,2458A,112.6211,26.8956,衡阳市,珠晖区环保局,,,7,13,,,44,,81,62,5,5,5,6,0.4,0.4
2025-06-18T0000,2459A,112.6197,26.8733,衡阳市,市委党校,,15,6,13,3,5,45,,76,59,6,6,6,6,0.4,0.4
2025-06-18T0000,2460A,112.6006,26.8919,衡阳市,市监测站,,14,6,8,3,6,44,,77,60,8,6,7,8,0.3,0.3
2025-06-18T0000,2461A,112.5664,26.9056,衡阳市,真空机电公司,,13,,21,7,10,41,,74,,6,8,6,7,0.6,0.9
2025-06-18T0000,3399A,112.6703,26.882,衡阳市,师范学院,,14,6,18,3,8,42,,76,59,7,6,6,6,0.5,0.6
2025-06-18T0000,2608A,103.3772,23.3993,红河哈尼族彝族自治州,污水处理厂,,22,17,15,15,10,36,,52,44,2,4,6,7,0.3,0.3
2025-06-18T0000,2609A,103.3861,23.35,红河哈尼族彝族自治州,监测站,,30,30,23,11,13,35,,46,42,2,3,3,5,0.2,0.2
2025-06-18T0000,3038A,103.3758,23.368,红河哈尼族彝族自治州,州图书馆,,14,14,12,6,8,38,,53,48,3,4,2,2,0.2,0.2
2025-06-18T0000,1090A,111.6507,40.7517,呼和浩特市,呼市一监,,44,44,42,13,20,98,,172,154,20,22,9,9,0.4,0.5
2025-06-18T0000,1091A,111.6572,40.8033,呼和浩特市,小召,,39,39,34,13,18,102,,175,154,30,26,7,7,0.8,0.8
2025-06-18T0000,1094A,111.7516,40.8369,呼和浩特市,如意水处理厂,,37,26,35,11,18,118,,189,169,18,20,5,7,0.3,0.4
2025-06-18T0000,1095A,111.7276,40.8062,呼和浩特市,二十九中,,39,38,45,11,20,122,,188,,17,25,6,6,0.4,0.6
2025-06-18T0000,1096A,111.5512,40.7866,呼和浩特市,工大金川校区,颗粒物(PM10),59,67,42,14,18,106,,177,156,27,27,12,9,0.5,0.5
2025-06-18T0000,1097A,111.717,40.7612,呼和浩特市,化肥厂生活区,,36,30,42,10,20,114,,178,159,22,28,7,8,0.4,0.5
2025-06-18T0000,3698A,111.5968,40.8178,呼和浩特市,红旗小学,颗粒物(PM10),53,56,42,17,18,102,,184,159,38,32,13,7,0.4,0.4
2025-06-18T0000,3699A,111.6518,40.8389,呼和浩特市,海东办,,46,46,37,13,18,104,,181,160,25,26,9,7,0.4,0.3
2025-06-18T0000,2192A,119.7594,49.2261,呼伦贝尔市,区环保局,,28,26,29,19,20,52,,76,62,13,12,5,6,0.4,0.5
2025-06-18T0000,3061A,119.7512,49.1577,呼伦贝尔市,国华电力东,,37,37,29,21,16,63,,89,77,6,7,7,4,0.3,0.3
2025-06-18T0000,1250A,120.0751,30.8669,湖州市,城西水厂,颗粒物(PM10),63,76,56,38,28,134,,170,148,22,28,7,6,0.5,0.6
2025-06-18T0000,2873A,120.0830,30.8929,湖州市,仁皇山新区,颗粒物(PM10),60,70,58,32,24,131,,178,145,26,33,6,5,0.7,0.5
2025-06-18T0000,2907A,120.1844,30.8596,湖州市,吴兴区站,颗粒物(PM10),52,54,44,28,23,137,,183,159,20,16,7,7,0.4,0.4
2025-06-18T0000,3562A,120.4148,30.8538,湖州市,南浔区站,颗粒物(PM10),51,52,46,27,23,144,,179,160,18,14,6,5,0.6,0.6
2025-06-18T0000,1607A,120.9049,40.7211,葫芦岛市,龙港区,细颗粒物(PM2.5),93,,29,69,23,125,,124,109,10,21,6,9,0.8,0.6
2025-06-18T0000,1608A,120.8392,40.7514,葫芦岛市,化工街,,32,31,28,22,14,92,,115,88,19,35,8,13,0.7,0.6
2025-06-18T0000,1609A,120.8341,40.7073,葫芦岛市,新区,细颗粒物(PM2.5),70,,24,51,18,115,,116,98,10,24,4,6,0.9,0.7
2025-06-18T0000,1610A,120.8695,40.7677,葫芦岛市,东城区,,45,45,35,24,18,89,,113,86,22,31,7,13,0.9,0.8
2025-06-18T0000,2482A,109.5981,27.5721,怀化市,林科所,,14,10,12,9,3,42,,69,54,4,4,4,4,0.5,0.6
2025-06-18T0000,2483A,109.9453,27.5444,怀化市,河西地税局,,14,9,12,7,7,44,,69,57,7,4,4,3,0.1,0.1
2025-06-18T0000,2484A,109.9781,27.5342,怀化市,市四医院,,19,19,21,3,10,37,,65,51,11,7,2,2,0.0,0
2025-06-18T0000,2485A,109.9972,27.5578,怀化市,监测楼,,12,12,16,6,7,22,,36,29,5,4,3,3,0.1,0.1
2025-06-18T0000,2486A,110.0394,27.583,怀化市,市委党校,,14,14,12,3,13,16,,67,46,22,6,2,3,0.2,0.1
2025-06-18T0000,1210A,119.036,33.5981,淮安市,钵池山,,39,36,39,19,23,124,,169,152,21,19,10,12,0.7,0.9
2025-06-18T0000,1211A,119.007,33.575,淮安市,北京南路,,36,36,42,19,22,110,,160,142,18,19,9,11,0.4,0.6
2025-06-18T0000,1212A,118.989,33.6067,淮安市,市监测站,,43,31,39,17,19,135,,183,169,20,18,12,12,0.5,0.4
2025-06-18T0000,1213A,119.135,33.5039,淮安市,楚州区监测站,颗粒物(PM10),53,56,52,21,26,92,,160,122,21,20,8,9,0.6,0.6
2025-06-18T0000,3426A,118.8755,33.2894,淮安市,新华书店,,41,41,39,22,21,121,,172,149,21,15,9,8,0.6,0.5
2025-06-18T0000,4206A,119.0288,33.6319,淮安市,承德北路606号,,38,34,40,20,24,120,,165,148,15,15,9,8,0.5,0.5
2025-06-18T0000,2282A,116.8004,33.975,淮北市,监测站,颗粒物(PM10),58,65,55,27,25,106,,185,147,16,16,8,8,0.7,0.8
2025-06-18T0000,2283A,116.8091,33.9007,淮北市,烈山区政府,颗粒物(PM10),64,78,71,23,22,101,,180,140,19,23,7,9,0.8,0.9
2025-06-18T0000,3330A,116.8873,33.9836,淮北市,杜集区检察院,颗粒物(PM10),52,54,59,26,23,105,,180,145,12,14,11,11,0.8,0.7
2025-06-18T0000,4017A,116.7923,33.9535,淮北市,市博物馆,颗粒物(PM10),57,63,61,29,25,106,,185,146,12,13,9,9,0.7,0.8
2025-06-18T0000,2277A,116.8305,32.7727,淮南市,潘集区政府,,33,33,63,16,27,77,,168,122,9,17,4,6,0.4,0.4
2025-06-18T0000,2279A,116.8569,32.5951,淮南市,谢家集区政府,,34,34,55,7,17,74,,168,114,14,13,7,6,0.1,0.2
2025-06-18T0000,2280A,116.8281,32.633,淮南市,八公山区政府,,34,34,55,10,17,80,,171,121,11,11,6,6,0.2,0.3
2025-06-18T0000,2281A,116.6325,32.6201,淮南市,焦岗湖风景区管理处,,,,,,,,,,,,,,,,
2025-06-18T0000,2894A,117.0566,32.6531,淮南市,经济技术开发区消防队,,32,32,58,18,29,82,,166,122,17,24,8,8,0.4,0.4
2025-06-18T0000,3329A,117.0108,32.5893,淮南市,山南新区,,43,43,69,8,22,76,,179,125,10,13,7,8,0.4,0.3
2025-06-18T0000,4209A,117.0031,32.6445,淮南市,国庆中路369号,,29,29,58,18,28,82,,175,126,11,17,7,7,0.2,0.3
2025-06-18T0000,2446A,114.9028,30.4742,黄冈市,职工中心,,25,16,33,13,20,79,,152,118,3,2,9,11,0.5,0.5
2025-06-18T0000,2929A,114.8858,30.4519,黄冈市,红卫路,,26,20,33,10,18,82,,147,114,2,4,7,9,0.3,0.4
2025-06-18T0000,3398A,114.9136,30.4445,黄冈市,市林业局,颗粒物(PM10),95,139,42,36,25,70,,132,103,1,8,8,9,0.3,0.6
2025-06-18T0000,2672A,102.0199,35.5102,黄南藏族自治州,同仁县隆务镇,,36,36,42,17,18,99,,115,108,1,4,6,7,0.1,0.2
2025-06-18T0000,2295A,118.2903,29.6963,黄山市,延安路89号,,23,23,28,13,13,30,,89,60,12,6,6,6,0.6,0.5
2025-06-18T0000,2297A,118.1371,30.2756,黄山市,黄山区政府5号楼,,33,25,38,23,20,22,,88,54,6,4,3,4,0.4,0.6
2025-06-18T0000,4210A,118.3354,29.7203,黄山市,滨江东路7-2号,,25,25,30,9,9,18,,92,51,9,6,4,4,0.4,0.4
2025-06-18T0000,2423A,115.0601,30.2313,黄石市,沈家营,,39,39,52,8,15,51,,135,101,20,17,12,9,0.8,0.9
2025-06-18T0000,2426A,114.8988,30.2019,黄石市,铁山,,21,21,34,9,13,64,,126,94,16,18,4,4,0.4,0.4
2025-06-18T0000,2427A,115.0307,30.2092,黄石市,团城山,,24,16,34,16,10,74,,143,113,4,11,14,12,0.5,0.7
2025-06-18T0000,3149A,115.0235,30.1578,黄石市,笔架山北路,,24,24,33,3,10,59,,132,97,5,7,8,8,0.6,0.6
2025-06-18T0000,4185A,115.0780,30.21118,黄石市,磁湖东路29号,,47,47,50,8,17,66,,109,103,5,18,10,11,0.7,0.9
2025-06-18T0000,1392A,114.4183,23.0528,惠州市,河南岸金山湖子站,,17,17,10,10,5,12,,32,19,14,10,7,7,0.5,0.5
2025-06-18T0000,1393A,114.4053,23.0822,惠州市,下埔横江三路子站,,21,21,13,12,6,14,,37,21,16,10,5,4,0.4,0.4
2025-06-18T0000,1394A,114.4103,23.1142,惠州市,江北云山西路子站,,33,,12,23,9,7,,38,19,20,10,6,6,0.5,0.3
2025-06-18T0000,1395A,114.4645,22.7833,惠州市,惠阳区承修路船湖子站,,13,13,19,8,9,28,,38,28,8,13,6,6,0.4,0.4
2025-06-18T0000,1396A,114.5317,22.7422,惠州市,大亚湾管委会子站,,18,18,27,10,13,26,,37,27,11,17,8,8,0.5,0.5
2025-06-18T0000,3314A,114.4338,22.8134,惠州市,惠阳秋长,,11,7,10,3,6,34,,43,29,8,17,4,4,0.6,0.6
2025-06-18T0000,3452A,114.6517,22.775,惠州市,大亚湾霞涌,,15,11,11,10,7,13,,44,28,17,10,5,6,0.5,0.7
2025-06-18T0000,2240A,130.9762,45.3001,鸡西市,环保局,,20,20,22,3,10,64,,112,84,16,15,4,2,0.3,0.4
2025-06-18T0000,2243A,130.9429,45.3039,鸡西市,第一中学,,18,17,17,3,8,55,,102,78,18,8,6,7,0.3,0.4
2025-06-18T0000,3707A,131.0207,45.3073,鸡西市,欧美日汽修厂,,20,20,19,7,11,56,,112,83,16,13,5,6,0.5,0.5
2025-06-18T0000,3709A,130.9967,45.3106,鸡西市,市政设施管理处,,26,26,24,12,10,50,,113,77,23,19,7,7,0.4,0.5
2025-06-18T0000,2367A,114.9754,27.0803,吉安市,红声器材厂,,15,8,17,6,4,48,,60,55,5,4,10,8,0.1,0.1
2025-06-18T0000,2368A,114.9658,27.0999,吉安市,市森林工业局,,17,12,14,3,5,53,,70,65,2,3,8,7,0.3,0.3
2025-06-18T0000,2369A,114.99,27.1312,吉安市,市环境监测站,,18,12,12,3,5,57,,67,62,2,2,15,13,0.3,0.3
2025-06-18T0000,2370A,115.0093,27.0968,吉安市,青原区法院,,15,15,16,6,6,48,,60,56,11,8,13,8,0.2,0.2
2025-06-18T0000,1772A,126.54,43.8622,吉林市,哈达湾,,50,44,45,35,29,58,,117,91,19,22,6,6,0.4,0.3
2025-06-18T0000,1773A,126.5844,43.8358,吉林市,东局子,,49,41,32,34,27,68,,115,86,12,22,5,5,0.7,0.6
2025-06-18T0000,1774A,126.5052,43.8245,吉林市,电力学院,细颗粒物(PM2.5),74,67,41,54,29,36,,118,80,35,27,5,4,0.7,0.6
2025-06-18T0000,1775A,126.6133,43.8972,吉林市,江北,,35,35,29,21,17,53,,105,78,12,20,8,9,1.0,0.8
2025-06-18T0000,1776A,126.555,43.8306,吉林市,江南公园,,40,40,36,27,19,62,,115,84,12,21,4,4,0.4,0.4
2025-06-18T0000,1778A,126.7061,43.7133,吉林市,丰满,,,,,,,,,,,,,,,,
2025-06-18T0000,2868A,126.4739,43.953,吉林市,九站,细颗粒物(PM2.5),72,75,45,52,28,62,,116,96,26,21,5,5,0.5,0.3
2025-06-18T0000,1299A,116.9862,36.6114,济南市,科干所,臭氧1小时,62,39,26,15,12,169,,198,186,11,12,6,6,0.4,0.4
2025-06-18T0000,1300A,116.9376,36.665,济南市,农科所,,47,42,38,15,10,148,,177,158,20,21,8,8,0.2,0.2
2025-06-18T0000,1301A,117.1265,36.6734,济南市,开发区,颗粒物(PM10),51,51,29,17,12,160,,192,172,16,18,8,7,0.6,0.6
2025-06-18T0000,1303A,117.0624,36.6868,济南市,省种子仓库,臭氧1小时,65,56,36,24,14,172,,198,179,10,19,6,6,0.3,0.3
2025-06-18T0000,1304A,116.9489,36.6447,济南市,机床二厂,颗粒物(PM10),58,66,42,12,10,157,,186,178,15,21,5,6,0.4,0.5
2025-06-18T0000,1305A,117.0495,36.663,济南市,市监测站,臭氧1小时,62,51,30,22,10,169,,193,183,9,15,9,9,0.4,0.4
2025-06-18T0000,1306A,116.7675,36.5484,济南市,长清党校,颗粒物(PM10),56,61,31,15,17,157,,198,194,18,22,6,7,0.7,0.7
2025-06-18T0000,1616A,117.6795,36.229,济南市,技术学院,,43,41,33,17,14,136,,180,160,19,28,11,13,0.5,0.7
2025-06-18T0000,1961A,117.532,36.6868,济南市,东山小学,颗粒物(PM10),51,51,27,17,10,156,,177,171,11,14,10,7,0.3,0.2
2025-06-18T0000,3059A,117.7161,36.2049,济南市,泰兴公司,,43,41,34,12,16,137,,180,149,27,34,7,10,0.5,0.7
2025-06-18T0000,3064A,117.6867,36.2171,济南市,莱芜战役纪念馆,,45,41,36,16,16,142,,186,167,14,27,6,9,0.4,0.7
2025-06-18T0000,3494A,117.1673,36.9782,济南市,济阳区政府,颗粒物(PM10),58,66,45,17,10,113,,189,158,37,26,8,7,0.2,0.2
2025-06-18T0000,3495A,117.1171,36.63,济南市,锦屏中学,臭氧1小时,55,44,27,12,9,164,,193,174,16,13,10,9,0.4,0.5
2025-06-18T0000,3682A,116.9814,36.6819,济南市,济南四建,,49,48,30,17,14,154,,183,175,24,22,6,6,0.5,0.4
2025-06-18T0000,1653A,116.6251,35.4302,济宁市,火炬城,颗粒物(PM10),57,63,46,24,16,114,,184,157,12,14,6,6,0.5,0.5
2025-06-18T0000,1655A,116.5491,35.4042,济宁市,电化厂,颗粒物(PM10),53,55,52,24,22,117,,195,165,8,21,6,8,0.7,0.5
2025-06-18T0000,3500A,116.5814,35.3707,济宁市,北湖一中,颗粒物(PM10),56,62,46,23,23,110,,212,170,10,17,7,11,0.5,0.4
2025-06-18T0000,3501A,116.8249,35.5593,济宁市,服务中心,颗粒物(PM10),62,74,49,16,12,120,,184,167,12,23,4,3,0.5,0.4
2025-06-18T0000,3678A,116.5907,35.4054,济宁市,市第七中学,颗粒物(PM10),55,60,52,17,13,119,,200,168,7,12,7,8,0.4,0.4
2025-06-18T0000,2255A,130.2751,46.8028,佳木斯市,佳纺,,19,19,17,8,7,49,,84,59,18,9,7,7,0.3,0.4
2025-06-18T0000,2256A,130.3995,46.8307,佳木斯市,发电厂,,24,18,14,10,9,76,,89,72,12,10,4,4,0.2,0.3
2025-06-18T0000,2257A,130.3258,46.7975,佳木斯市,环保局,,21,21,17,3,7,60,,87,67,17,8,4,4,0.3,0.4
2025-06-18T0000,2258A,130.3648,46.8032,佳木斯市,十一中,,31,31,17,13,9,55,,85,64,20,10,5,5,0.3,0.4
2025-06-18T0000,2259A,130.3794,46.7588,佳木斯市,四丰,,,10,9,,,,,,,11,6,1,1,0.3,0.4
2025-06-18T0000,1252A,120.7436,30.778,嘉兴市,清河小学,颗粒物(PM10),53,56,57,22,21,115,,190,168,30,22,11,9,0.6,0.6
2025-06-18T0000,1253A,120.726,30.7478,嘉兴市,嘉兴学院,,46,46,47,18,23,116,,182,168,22,20,11,6,0.6,0.6
2025-06-18T0000,2872A,120.7846,30.7525,嘉兴市,南湖区残联,,50,50,51,23,23,116,,189,168,26,20,10,7,0.6,0.6
2025-06-18T0000,3407A,120.6916,30.7739,嘉兴市,秀洲住建,,42,40,50,17,22,134,,191,176,22,20,10,8,0.7,0.7
2025-06-18T0000,1945A,98.2908,39.7711,嘉峪关市,气象局,颗粒物(PM10),52,53,30,14,13,116,,144,134,14,12,6,9,0.4,0.4
2025-06-18T0000,2884A,98.2672,39.7978,嘉峪关市,酒钢宾馆,颗粒物(PM10),80,110,35,19,11,77,,136,117,14,9,13,20,0.3,0.4
2025-06-18T0000,3248A,98.2643,39.7724,嘉峪关市,雄关区,,35,34,29,13,13,110,,142,136,19,12,9,10,0.0,0
2025-06-18T0000,1383A,113.1064,22.6058,江门市,北街,,23,23,10,9,6,14,,32,21,18,12,3,2,0.4,0.4
2025-06-18T0000,1384A,113.0731,22.5835,江门市,西区,,18,18,10,6,5,17,,39,26,13,11,7,7,0.4,0.4
2025-06-18T0000,1385A,113.0219,22.5311,江门市,圭峰西,,13,12,12,9,8,20,,39,26,7,9,3,4,0.4,0.4
2025-06-18T0000,1386A,113.0828,22.5947,江门市,东湖,,20,20,10,10,7,17,,37,24,15,12,5,6,0.4,0.5
2025-06-18T0000,3311A,113.1075,22.5647,江门市,江海富民,,38,38,22,19,11,17,,40,25,18,15,9,9,0.5,0.5
2025-06-18T0000,3449A,113.05,22.4667,江门市,新会银湖,,18,18,13,9,9,10,,36,19,13,10,2,2,0.4,0.4
2025-06-18T0000,1830A,113.1992,35.2590,焦作市,影视城,,,,17,,9,,,,,,6,,13,,0.4
2025-06-18T0000,3169A,113.2725,35.2067,焦作市,太极体育中心,臭氧1小时,63,72,60,24,22,170,,193,,16,19,9,8,0.3,0.2
2025-06-18T0000,3335A,113.3137,35.2641,焦作市,马村街道办,臭氧1小时,74,74,48,24,27,179,,213,207,20,20,12,12,0.7,0.5
2025-06-18T0000,3336A,113.2465,35.2373,焦作市,焦作技师学院,臭氧1小时,65,56,37,22,13,172,,209,204,14,13,8,7,0.7,0.6
2025-06-18T0000,3477A,113.1656,35.2539,焦作市,中站许衡医院,颗粒物(PM10),65,79,47,34,20,169,,205,201,20,21,9,9,0.4,0.4
2025-06-18T0000,3981A,113.2449,35.1803,焦作市,原李万街道办,颗粒物(PM10),67,83,58,31,13,165,,220,209,22,22,16,15,0.4,0.4
2025-06-18T0000,4264A,113.2340,35.2190,焦作市,新安路1731号,臭氧1小时,75,58,45,25,15,180,,215,210,13,14,8,9,0.5,0.4
2025-06-18T0000,1708A,116.3701,23.5345,揭阳市,新兴,,36,36,14,15,10,1,,27,15,33,19,15,6,0.7,0.6
2025-06-18T0000,1709A,116.3264,23.5443,揭阳市,西马,,22,20,15,15,10,5,,24,15,25,16,13,3,0.9,0.8
2025-06-18T0000,1710A,116.3611,23.5626,揭阳市,东兴,,21,21,14,12,9,1,,26,15,23,17,10,4,0.7,0.7
2025-06-18T0000,1711A,116.4151,23.5294,揭阳市,渔湖,,41,41,22,14,7,0,,21,9,30,22,5,3,0.7,0.5
2025-06-18T0000,3320A,116.403,23.5699,揭阳市,曲溪,,50,50,15,11,9,6,,25,18,25,18,24,8,0.6,0.5
2025-06-18T0000,1944A,102.1692,38.5167,金昌市,天庆家园,,43,41,30,8,12,135,,143,133,3,7,9,14,0.4,0.6
2025-06-18T0000,4022A,102.1647,38.5371,金昌市,金川区人防中心,颗粒物(PM10),51,52,34,29,12,136,,145,134,3,6,9,10,0.5,0.5
2025-06-18T0000,4239A,102.1930,38.5319,金昌市,长春路96号,,,,,,,,,,,,,,,,
2025-06-18T0000,1262A,119.647,29.077,金华市,十五中,,40,40,39,21,18,80,,198,141,15,14,1,2,0.9,0.9
2025-06-18T0000,1263A,119.686,29.1029,金华市,监测站,,43,43,39,22,19,78,,170,114,15,15,2,2,0.6,0.6
2025-06-18T0000,3659A,119.656,29.1131,金华市,气象局,,50,50,42,25,19,12,,161,100,88,27,3,4,1.1,0.9
2025-06-18T0000,1767A,121.1115,41.0879,锦州市,南山,,46,33,29,32,24,53,,122,86,39,15,28,15,0.7,0.8
2025-06-18T0000,1768A,121.0604,40.8428,锦州市,开发区,"颗粒物(PM10),细颗粒物(PM2.5)",62,73,50,44,21,109,,113,82,29,42,9,22,0.9,0.8
2025-06-18T0000,1769A,121.1836,41.1119,锦州市,百股街道,,32,22,26,19,14,16,,120,80,64,17,8,12,0.7,0.9
2025-06-18T0000,1770A,121.1178,41.1222,锦州市,天安街道,,50,45,27,35,20,64,,134,95,38,20,37,11,0.8,0.8
2025-06-18T0000,1771A,121.1303,41.1386,锦州市,北湖公园,细颗粒物(PM2.5),52,45,26,36,17,61,,120,93,31,15,23,8,0.7,0.6
2025-06-18T0000,2160A,112.85,35.5051,晋城市,自来水公司,,,100,47,34,15,,,214,214,34,21,2,3,0.1,0.3
2025-06-18T0000,2161A,112.8318,35.4936,晋城市,白云商贸,颗粒物(PM10),73,96,50,22,7,119,,205,195,36,25,1,9,0.5,0.5
2025-06-18T0000,2162A,112.8508,35.4887,晋城市,市环保局,颗粒物(PM10),65,80,54,27,16,114,,199,186,38,29,7,8,0.6,0.3
2025-06-18T0000,2163A,112.8676,35.4897,晋城市,技术学院,颗粒物(PM10),52,53,48,19,15,129,,199,192,34,28,8,9,0.4,0.4
2025-06-18T0000,2165A,112.8453,35.546,晋城市,白马寺,臭氧1小时,106,36,26,22,15,212,,217,217,10,9,5,6,0.4,0.4
2025-06-18T0000,3620A,112.8271,35.4828,晋城市,泽州一中,臭氧1小时,95,43,42,14,11,196,,206,206,18,20,14,8,0.4,0.5
2025-06-18T0000,2173A,112.7249,37.7067,晋中市,南都小区,颗粒物(PM10),52,54,40,24,19,62,,176,120,58,24,4,6,0.4,0.4
2025-06-18T0000,2174A,112.6991,37.6982,晋中市,榆次区政府,,48,48,35,22,17,70,,180,128,42,20,4,5,0.2,0.3
2025-06-18T0000,2865A,112.7195,37.6828,晋中市,榆次三中,,34,34,37,12,12,75,,184,126,38,25,5,6,0.1,0.2
2025-06-18T0000,4200A,112.7478,37.6954,晋中市,迎宾街26号,,39,39,34,17,12,79,,186,132,40,22,6,7,0.4,0.4
2025-06-18T0000,2439A,112.2014,31.0481,荆门市,竹园小学,,26,20,37,17,24,83,,111,99,12,11,3,6,0.2,0.4
2025-06-18T0000,2440A,112.1969,30.9891,荆门市,掇刀,,28,23,35,19,24,89,,116,102,8,9,8,8,0.5,0.6
2025-06-18T0000,2441A,112.2213,31.0386,荆门市,石化一小,,32,,40,22,35,92,,120,103,10,16,12,15,0.1,0.4
2025-06-18T0000,3012A,112.1849,31.0362,荆门市,西山林语,,29,22,33,18,22,91,,112,104,8,5,10,10,0.4,0.5
2025-06-18T0000,3547A,112.1632,31.0138,荆门市,龙泉中学南校,颗粒物(PM10),51,52,30,11,19,84,,119,104,13,12,4,4,0.4,0.4
2025-06-18T0000,1844A,112.2494,30.3197,荆州市,市图书馆,,27,13,23,12,18,84,,121,104,12,11,4,3,0.6,0.6
2025-06-18T0000,1845A,112.2008,30.3544,荆州市,市委党校,,26,21,24,13,16,81,,105,96,15,13,8,7,0.5,0.6
2025-06-18T0000,3194A,112.2747,30.3122,荆州市,管委会,,24,,23,16,18,76,,113,100,10,9,8,7,0.6,0.7
2025-06-18T0000,4268A,112.1722,30.3366,荆州市,学苑路85号,,30,30,19,14,18,68,,108,90,22,9,5,4,0.4,0.3
2025-06-18T0000,2342A,117.3102,29.3867,景德镇市,王港中学,,,,,,,,,,,,,,,,
2025-06-18T0000,2343A,117.2117,29.2933,景德镇市,老干部活动中心,,16,6,22,3,10,50,,96,68,8,16,5,7,0.3,0.5
2025-06-18T0000,2344A,117.1894,29.2789,景德镇市,兽医站,,25,25,34,7,13,29,,92,51,26,17,20,9,0.5,0.5
2025-06-18T0000,2345A,117.1547,29.2617,景德镇市,台达陶瓷,,23,23,33,9,16,43,,94,69,11,16,17,31,0.3,0.8
2025-06-18T0000,2346A,117.2461,29.2956,景德镇市,陶研所,,,9,26,3,10,,,94,68,6,9,5,4,0.3,0.5
2025-06-18T0000,1803A,115.9872,29.6815,九江市,十里,,20,,24,14,17,43,,109,77,11,13,2,3,0.4,0.6
2025-06-18T0000,1804A,115.9584,29.7046,九江市,茅山头,,16,,24,8,12,50,,111,75,7,16,4,4,0.2,0.3
2025-06-18T0000,1805A,115.9877,29.7295,九江市,西园,,18,15,23,3,11,29,,113,81,36,19,5,8,0.5,0.6
2025-06-18T0000,1808A,115.9114,29.6038,九江市,综合工业园,,,6,19,,9,66,,108,88,2,10,7,8,0.6,0.7
2025-06-18T0000,1809A,116.0721,29.7535,九江市,石化总厂,,29,,21,20,13,46,,92,72,6,6,7,8,0.6,0.7
2025-06-18T0000,1810A,115.9773,29.5698,九江市,庐山气象台,,18,7,16,7,7,56,,99,77,3,3,7,9,0.6,0.8
2025-06-18T0000,3190A,116.0254,29.6994,九江市,外国语学校,,15,14,20,3,12,47,,98,76,6,11,9,14,0.4,0.5
2025-06-18T0000,4253A,116.0102,29.6594,九江市,莲花大道8号,,13,,17,6,11,40,,97,72,3,4,4,4,0.5,0.5
2025-06-18T0000,4240A,98.4958,39.7339,酒泉市,玉门东路5号,,41,41,32,24,18,102,,129,121,9,5,9,12,0.3,0.3
2025-06-18T0000,4241A,98.5099,39.7506,酒泉市,北大街108号,,34,34,31,17,16,101,,132,122,18,11,11,13,0.3,0.2
2025-06-18T0000,2698A,76.0072,39.4467,喀什地区,巡警大队,颗粒物(PM10),94,137,56,7,14,107,,144,139,32,20,2,2,0.5,0.3
2025-06-18T0000,2699A,75.9755,39.4694,喀什地区,吾办,,,,53,,18,99,,133,129,33,17,3,2,0.4,0.3
2025-06-18T0000,4027A,75.9483,39.4689,喀什地区,老干局,,,147,53,19,10,,,131,,34,10,2,4,0.6,0.4
2025-06-18T0000,1824A,114.3389,34.7781,开封市,肿瘤医院,颗粒物(PM10),51,52,67,20,23,126,,218,184,12,24,2,4,0.5,0.6
2025-06-18T0000,1826A,114.2885,34.7965,开封市,世纪星幼儿园,,50,50,62,3,4,130,,226,193,13,22,3,3,0.7,0.6
2025-06-18T0000,3147A,114.3438,34.8106,开封市,龙亭公园,颗粒物(PM10),56,62,60,16,26,130,,225,193,6,17,5,6,0.3,0.3
2025-06-18T0000,3210A,114.3644,34.7964,开封市,汴京公园,颗粒物(PM10),62,73,68,18,27,133,,222,200,2,26,5,8,0.4,0.4
2025-06-18T0000,3473A,114.2485,34.8306,开封市,技师学院,颗粒物(PM10),52,53,47,29,25,128,,223,195,11,20,4,6,0.5,0.3
2025-06-18T0000,3592A,114.4644,34.7556,开封市,祥符区生态环境局,,37,29,55,18,28,117,,208,172,16,32,5,6,0.6,0.6
2025-06-18T0000,1951A,84.895,45.6094,克拉玛依市,长征新村,,37,11,18,6,5,117,,128,122,4,6,4,4,0.2,0.2
2025-06-18T0000,1952A,84.8988,45.5893,克拉玛依市,南林小区,,35,14,20,12,8,111,,126,116,5,9,9,9,0.1,0.1
2025-06-18T0000,1954A,84.905,44.3396,克拉玛依市,独山子区,,39,16,22,10,10,122,,140,128,6,8,6,7,0.2,0.3
2025-06-18T0000,1955A,85.6979,46.098,克拉玛依市,乌尔禾区商贸楼,,28,28,19,11,6,83,,120,108,12,7,4,4,0.5,0.4
2025-06-18T0000,3612A,85.1045,45.6899,克拉玛依市,白碱滩区新站,,37,32,32,13,19,116,,135,133,6,5,4,11,0.5,0.6
2025-06-18T0000,2697A,76.1454,39.7142,克孜勒苏柯尔克孜自治州,市人民政府,颗粒物(PM10),61,72,44,16,17,133,,145,140,14,6,4,6,0.3,0.2
2025-06-18T0000,3665A,76.1658,39.7157,克孜勒苏柯尔克孜自治州,克州文化中心,颗粒物(PM10),53,55,34,16,20,128,,143,141,15,3,3,9,0.3,0.3
2025-06-18T0000,1450A,102.8204,24.8886,昆明市,呈贡新区,,11,7,9,3,10,35,,57,38,8,12,6,6,0.3,0.2
2025-06-18T0000,1451A,102.6251,24.9608,昆明市,西山森林公园,,,,,,,,,,,,,,,,
2025-06-18T0000,1452A,102.7252,25.0902,昆明市,龙泉镇,,25,25,20,6,9,31,,59,37,9,14,2,2,0.2,0.4
2025-06-18T0000,1453A,102.7266,25.0375,昆明市,东风东路,,10,9,16,6,12,30,,58,40,12,14,6,6,0.3,0.4
2025-06-18T0000,1454A,102.6742,25.0669,昆明市,金鼎山,,14,14,25,3,8,28,,51,37,13,14,2,2,0.3,0.4
2025-06-18T0000,1455A,102.6644,25.0401,昆明市,碧鸡广场,,12,10,19,8,12,19,,50,34,20,16,7,7,0.3,0.5
2025-06-18T0000,3179A,102.7494,25.0119,昆明市,官渡区博物馆,,12,12,15,3,7,34,,60,44,8,11,6,7,0.4,0.4
2025-06-18T0000,3375A,102.8017,24.8336,昆明市,青年创业园,,12,8,10,3,7,37,,58,38,7,11,6,8,0.4,0.4
2025-06-18T0000,3550A,102.7997,24.9786,昆明市,昆明学院,,12,11,14,6,10,36,,59,43,8,10,5,6,0.5,0.4
2025-06-18T0000,3551A,102.5967,24.6736,昆明市,晋宁区生态环境分局,,18,12,12,12,6,35,,50,42,7,7,3,2,0.6,0.5
2025-06-18T0000,3552A,102.6678,24.9856,昆明市,云天化总部,,10,6,13,3,9,30,,50,39,9,12,5,5,0.8,0.9
2025-06-18T0000,1456A,91.1319,29.6514,拉萨市,八廓街,,23,12,13,6,7,72,,110,87,9,12,7,10,0.3,0.3
2025-06-18T0000,1457A,91.1221,29.6747,拉萨市,市环保局,,23,10,18,8,7,73,,107,87,8,12,7,9,0.3,0.4
2025-06-18T0000,1458A,91.0874,29.6475,拉萨市,区监测站,,23,11,11,7,6,72,,105,87,9,16,7,9,0.4,0.4
2025-06-18T0000,1459A,91.1774,29.6541,拉萨市,西藏大学,,22,11,11,7,6,70,,108,84,9,11,7,10,0.3,0.3
2025-06-18T0000,1460A,90.9798,29.6588,拉萨市,区辐射站,,22,10,14,10,6,70,,92,78,7,14,6,7,0.3,0.3
2025-06-18T0000,1461A,91.0834,29.6292,拉萨市,拉萨火车站,,23,8,10,8,6,71,,105,90,8,11,4,5,0.2,0.2
2025-06-18T0000,2520A,109.2203,23.7256,来宾市,来宾技工学校,,28,28,19,8,15,29,,65,42,12,8,7,7,0.9,0.7
2025-06-18T0000,3535A,109.1781,23.7297,来宾市,兴宾区政府,,21,21,18,13,12,36,,61,44,6,5,5,7,0.5,0.6
2025-06-18T0000,4002A,109.2416,23.7461,来宾市,中南小学,,13,9,19,9,9,37,,66,44,8,7,7,6,0.6,0.6
2025-06-18T0000,1477A,104.1373,35.9454,兰州市,榆中兰大校区,,,,,,,,,,,,,,,,
2025-06-18T0000,1479A,103.831,36.0464,兰州市,铁路设计院,颗粒物(PM10),57,63,58,36,29,24,,139,84,82,56,11,15,0.8,0.7
2025-06-18T0000,3241A,103.7439,36.0842,兰州市,百合公园,颗粒物(PM10),56,62,52,29,23,10,,137,85,99,50,4,11,0.7,0.6
2025-06-18T0000,3242A,103.9611,35.998,兰州市,和平,,43,38,50,30,25,108,,148,125,10,13,8,9,0.6,0.5
2025-06-18T0000,4236A,103.6293,36.0938,兰州市,庄浪东路808号,,45,45,56,29,33,52,,146,84,59,43,10,20,0.4,0.5
2025-06-18T0000,4237A,103.7251,36.1043,兰州市,安宁西路88号,颗粒物(PM10),65,80,69,35,34,28,,156,108,68,43,6,15,0.7,0.6
2025-06-18T0000,4238A,103.8470,36.0676,兰州市,北滨河东路1号,颗粒物(PM10),61,72,61,33,23,7,,148,92,102,51,10,14,0.9,0.8
2025-06-18T0000,3245A,103.6633,36.533,兰州新区,新区管委会,颗粒物(PM10),55,59,45,28,27,76,,162,141,32,12,14,17,0.5,0.4
2025-06-18T0000,3246A,103.6975,36.4789,兰州新区,舟曲中学,,,60,51,28,20,,,162,152,25,15,7,18,0.4,0.6
2025-06-18T0000,1067A,116.6708,39.5111,廊坊市,药材公司,细颗粒物(PM2.5),105,125,73,79,37,76,,236,162,48,32,8,6,0.8,0.5
2025-06-18T0000,1068A,116.7214,39.5589,廊坊市,开发区,细颗粒物(PM2.5),135,152,66,103,35,61,,232,155,67,29,6,4,0.7,0.4
2025-06-18T0000,1070A,116.7244,39.5269,廊坊市,北华航天学院,细颗粒物(PM2.5),147,156,83,112,42,72,,226,151,44,29,5,5,0.7,0.4
2025-06-18T0000,2919A,116.7022,39.5453,廊坊市,河北工业大学,细颗粒物(PM2.5),127,155,79,96,35,79,,238,163,43,31,8,7,0.7,0.4
2025-06-18T0000,2535A,103.7723,29.5462,乐山市,花湖湾,,23,20,52,14,34,72,,214,134,9,20,2,6,0.7,1
2025-06-18T0000,2536A,103.7627,29.5844,乐山市,牛耳桥,,35,17,41,10,27,111,,202,,11,23,5,9,0.7,0.8
2025-06-18T0000,2537A,103.7508,29.6006,乐山市,市第三水厂,,37,17,42,8,26,117,,210,160,12,26,4,7,0.7,0.6
2025-06-18T0000,2538A,103.7571,29.5664,乐山市,市监测站,,34,11,47,9,28,108,,210,154,8,18,6,10,0.6,0.8
2025-06-18T0000,3361A,103.7311,29.5628,乐山市,理工大学,,29,10,45,8,25,90,,206,153,10,23,6,11,0.6,0.9
2025-06-18T0000,2598A,100.2143,26.8576,丽江市,西南郊,,17,17,8,10,4,28,,68,41,14,9,6,6,1.0,0.9
2025-06-18T0000,2599A,100.2497,26.8802,丽江市,丽江古城,,22,22,16,9,5,29,,57,35,10,12,8,9,0.5,0.4
2025-06-18T0000,2600A,100.2203,26.8906,丽江市,市中心,,,,9,8,5,26,,51,29,7,14,6,10,0.2,0.7
2025-06-18T0000,1267A,119.914,28.4514,丽水市,监测站大楼,,23,23,27,11,8,40,,111,62,18,17,3,3,0.5,0.5
2025-06-18T0000,1268A,119.93,28.4586,丽水市,莲都小学,,24,24,30,12,12,43,,112,64,16,16,3,3,0.4,0.4
2025-06-18T0000,1269A,119.879,28.4231,丽水市,余庄前,,26,26,27,12,12,3,,114,41,13,10,3,4,0.4,0.4
2025-06-18T0000,1173A,119.176,34.5885,连云港市,市环境监测站,颗粒物(PM10),52,53,44,17,15,104,,174,131,22,27,8,12,0.6,0.7
2025-06-18T0000,3000A,119.3581,34.6972,连云港市,德源药业,颗粒物(PM10),51,51,43,14,11,90,,131,99,29,33,9,11,0.6,0.5
2025-06-18T0000,3007A,119.178,34.844,连云港市,新城一中,,41,41,43,17,19,97,,146,108,34,25,8,9,0.6,0.7
2025-06-18T0000,3008A,119.3608,34.7519,连云港市,胡沟管理处,,43,34,25,12,10,136,,148,148,15,29,9,10,0.4,0.5
2025-06-18T0000,3009A,119.1478,34.5911,连云港市,矿山设计院,颗粒物(PM10),53,56,46,19,14,93,,170,126,20,28,4,8,0.6,0.6
2025-06-18T0000,3434A,119.2413,34.6539,连云港市,工贸学校,颗粒物(PM10),52,53,44,23,19,116,,172,133,12,15,10,14,0.6,0.5
2025-06-18T0000,3664A,119.4172,34.7341,连云港市,连云街道,颗粒物(PM10),54,58,42,18,15,145,,163,154,10,15,10,10,0.5,0.5
2025-06-18T0000,2571A,102.3431,27.8099,凉山彝族自治州,青龙寺,,19,19,14,3,6,19,,87,61,23,9,3,4,0.4,0.5
2025-06-18T0000,2572A,102.2721,27.8415,凉山彝族自治州,邛海宾馆,,16,16,24,8,12,51,,78,66,9,11,9,10,0.3,0.6
2025-06-18T0000,2573A,102.2625,27.898,凉山彝族自治州,西昌市政府,,15,6,17,3,10,46,,90,70,8,11,5,9,0.4,0.7
2025-06-18T0000,2574A,102.2685,27.8851,凉山彝族自治州,凉山州政府,,20,,18,14,15,58,,85,71,10,14,8,12,0.5,0.8
2025-06-18T0000,4229A,102.2342,27.8859,凉山彝族自治州,凯乐南路30号,,20,16,19,12,10,64,,80,67,7,15,14,17,0.6,0.9
2025-06-18T0000,2212A,123.2,41.1953,辽阳市,宏伟区,,40,21,29,14,11,125,,151,124,6,12,6,9,0.7,0.7
2025-06-18T0000,2213A,123.1683,41.2495,辽阳市,新华园,,49,,40,34,16,116,,148,114,8,17,5,9,0.5,0.7
2025-06-18T0000,2214A,123.2354,41.2639,辽阳市,滨河路,,34,30,30,15,13,108,,144,108,10,16,8,11,0.5,0.7
2025-06-18T0000,2215A,123.149,41.2991,辽阳市,铁西工业园,,35,35,56,21,21,101,,132,100,7,18,5,9,0.6,1.1
2025-06-18T0000,2227A,125.1358,42.8845,辽源市,环保局,,36,36,28,23,14,59,,142,112,34,19,2,3,0.5,0.6
2025-06-18T0000,3239A,125.0764,42.9078,辽源市,银鹰制药,,28,26,24,19,18,62,,147,117,38,22,4,4,0.5,0.5
2025-06-18T0000,1625A,115.9848,36.4372,聊城市,区政府,颗粒物(PM10),70,89,43,20,17,146,,201,180,20,17,9,11,0.6,0.6
2025-06-18T0000,2878A,116.0072,36.4343,聊城市,聊大东校,颗粒物(PM10),70,90,45,27,21,142,,202,175,22,20,8,10,0.6,0.6
2025-06-18T0000,3200A,115.9819,36.4978,聊城市,监控中心,颗粒物(PM10),70,89,38,17,13,151,,197,179,16,20,9,10,0.4,0.3
2025-06-18T0000,3513A,116.0445,36.4361,聊城市,九州社区,颗粒物(PM10),65,80,48,23,17,139,,198,176,15,16,7,7,0.5,0.5
2025-06-18T0000,4018A,116.0567,36.4608,聊城市,星美广场,颗粒物(PM10),60,69,44,12,14,143,,198,171,21,20,9,9,0.6,0.7
2025-06-18T0000,2632A,94.3681,29.6376,林芝市,林芝监测站,,8,6,6,3,4,17,,58,33,10,6,4,3,0.5,0.5
2025-06-18T0000,2633A,94.3616,29.6616,林芝市,林芝人民医院,,8,6,7,3,4,15,,51,30,4,4,5,5,0.3,0.3
2025-06-18T0000,2603A,100.0781,23.8982,临沧市,市环保局,,,,14,20,17,13,,48,32,8,7,4,4,0.3,0.2
2025-06-18T0000,2604A,100.0894,23.8822,临沧市,市气象局,,,20,13,12,9,,,47,34,8,7,10,8,0.4,0.4
2025-06-18T0000,1733A,111.5531,36.0783,临汾市,临钢医院,颗粒物(PM10),65,80,51,16,12,65,,188,130,46,26,5,7,0.7,0.7
2025-06-18T0000,1734A,111.5028,36.0714,临汾市,技工学校,颗粒物(PM10),61,72,44,20,22,71,,197,138,39,25,6,7,0.5,0.6
2025-06-18T0000,1736A,111.5018,36.0855,临汾市,市委,颗粒物(PM10),62,74,55,16,14,88,,203,144,35,26,7,7,0.7,0.8
2025-06-18T0000,3018A,111.505,36.1014,临汾市,唐尧大酒店,颗粒物(PM10),57,63,57,9,17,90,,199,140,30,27,6,7,0.6,0.7
2025-06-18T0000,4244A,111.4879,36.0530,临汾市,启星学校,颗粒物(PM10),63,76,50,32,28,54,,196,130,56,27,4,5,0.5,0.6
2025-06-18T0000,4271A,103.2464,35.6123,临夏回族自治州,滨河东路1号,颗粒物(PM10),77,104,71,46,33,50,,120,88,21,18,10,11,0.6,0.5
2025-06-18T0000,4310A,103.2093,35.5995,临夏回族自治州,新华街21号,颗粒物(PM10),67,84,70,47,37,58,,127,102,22,18,8,9,0.6,0.5
2025-06-18T0000,1618A,118.3429,35.0532,临沂市,沂河小区,颗粒物(PM10),51,51,41,25,21,117,,170,141,25,22,11,10,0.4,0.4
2025-06-18T0000,1619A,118.295,35.0583,临沂市,鲁南制药厂,,48,48,42,21,18,123,,181,154,30,27,11,11,0.4,0.4
2025-06-18T0000,1620A,118.2794,34.9976,临沂市,新光毛纺厂,,46,46,38,19,16,125,,173,149,22,23,11,11,0.5,0.4
2025-06-18T0000,1621A,118.3956,35.0888,临沂市,河东保险公司,颗粒物(PM10),51,51,32,17,10,88,,182,143,34,23,26,10,0.5,0.5
2025-06-18T0000,3370A,118.3564,35.0215,临沂市,十里堡居委,,44,44,35,22,13,119,,180,150,29,26,12,11,0.5,0.5
2025-06-18T0000,3496A,118.3604,35.1084,临沂市,南坊新区,颗粒物(PM10),51,51,39,14,13,92,,175,136,35,29,20,12,0.3,0.3
2025-06-18T0000,3860A,118.3920,35.0300,临沂市,皇山花园小区,颗粒物(PM10),58,66,36,30,13,103,,177,143,32,25,34,13,0.3,0.3
2025-06-18T0000,1870A,109.4856,24.3895,柳州市,柳东小学,,15,9,15,8,8,45,,66,52,4,7,9,10,0.4,0.4
2025-06-18T0000,1871A,109.4157,24.3277,柳州市,环保监测站,,16,16,16,3,9,34,,66,44,8,8,6,6,0.7,0.7
2025-06-18T0000,1872A,109.389,24.341,柳州市,河西水厂,,20,20,14,6,8,37,,67,48,9,9,4,4,0.6,0.6
2025-06-18T0000,1873A,109.4311,24.2921,柳州市,市四中,,11,10,18,7,8,34,,65,44,14,13,7,7,0.4,0.6
2025-06-18T0000,1874A,109.4006,24.3631,柳州市,市九中,,22,22,18,3,8,36,,67,47,8,8,9,9,0.6,0.6
2025-06-18T0000,1875A,109.4958,24.3134,柳州市,古亭山,,13,,19,3,6,41,,66,49,5,8,4,4,0.5,0.5
2025-06-18T0000,3402A,109.5422,24.3996,柳州市,市二中,,,,17,,8,,,72,,,10,,12,,0.4
2025-06-18T0000,2307A,116.5079,31.737,六安市,监测大楼,,22,17,36,8,17,69,,128,93,5,4,5,4,0.3,0.4
2025-06-18T0000,2308A,116.4738,31.7643,六安市,皖西学院,,25,10,39,8,16,80,,133,100,2,3,5,5,0.2,0.3
2025-06-18T0000,2309A,116.4996,31.7905,六安市,朝阳厂,,20,8,38,8,17,62,,115,82,9,10,6,6,0.2,0.3
2025-06-18T0000,2310A,116.5567,31.7886,六安市,开发区,颗粒物(PM10),51,51,48,22,24,60,,119,83,8,7,4,8,0.4,0.4
2025-06-18T0000,2576A,104.8,26.5892,六盘水市,窑上,,16,16,28,3,8,43,,76,57,7,6,3,3,0.2,0.3
2025-06-18T0000,2577A,104.83,26.5917,六盘水市,黄土坡,,18,12,18,3,9,55,,86,74,8,9,8,10,0.2,0.3
2025-06-18T0000,2578A,104.89,26.5939,六盘水市,水钢,,18,16,32,7,22,57,,90,77,6,6,9,9,0.3,0.4
2025-06-18T0000,2579A,104.8475,26.5894,六盘水市,民中,,17,12,18,3,10,54,,86,74,7,7,8,8,0.4,0.3
2025-06-18T0000,2580A,104.9544,26.5506,六盘水市,双水,,20,,15,7,9,62,,88,81,5,7,9,9,0.2,0.3
2025-06-18T0000,2335A,117.0189,25.1181,龙岩市,龙岩师专,,,,,,,,,,,,,,,,
2025-06-18T0000,2336A,117.0217,25.1033,龙岩市,龙岩市监测站,,19,19,17,6,6,3,,38,20,15,16,10,9,0.5,0.4
2025-06-18T0000,2337A,117.0258,25.0661,龙岩市,闽西职业技术学院,,23,23,20,10,5,3,,36,14,17,12,49,26,0.4,0.4
2025-06-18T0000,2338A,117.0196,25.0306,龙岩市,龙岩学院,,9,9,10,3,2,14,,36,21,5,5,3,4,0.7,0.7
2025-06-18T0000,2665A,105.0822,33.3261,陇南市,汉王镇固水子,,,,,,,,,,,,,,,,
2025-06-18T0000,2885A,104.9339,33.3826,陇南市,滨江中学,,47,47,46,32,28,123,,169,150,9,6,5,5,0.8,0.7
2025-06-18T0000,3247A,104.955,33.371,陇南市,市总工会,颗粒物(PM10),55,59,58,23,21,138,,170,155,4,6,5,6,0.6,0.6
2025-06-18T0000,2487A,111.9589,27.8901,娄底市,电视发射台,,13,,21,9,9,36,,78,44,9,6,7,8,0.7,0.6
2025-06-18T0000,2488A,111.9975,27.725,娄底市,市监测站,,16,,10,9,13,50,,75,66,7,8,8,8,0.3,0.6
2025-06-18T0000,2489A,112.0194,27.7314,娄底市,市委党校,,16,15,14,8,8,50,,73,65,2,2,8,7,0.3,0.3
2025-06-18T0000,2490A,111.9561,27.7569,娄底市,涟钢,,30,30,21,15,12,40,,73,62,19,16,11,8,0.7,1
2025-06-18T0000,2491A,111.9892,27.7044,娄底市,市政府,,32,32,17,9,8,56,,82,73,2,4,5,6,0.6,0.6
2025-06-18T0000,1893A,105.4324,28.9634,泸州市,九狮山,,49,,41,34,30,48,,151,92,24,20,4,6,0.6,0.5
2025-06-18T0000,1894A,105.4427,28.9063,泸州市,小市上码头,,35,35,35,15,18,71,,103,85,17,11,11,12,0.8,0.7
2025-06-18T0000,1895A,105.4241,28.8573,泸州市,兰田宪桥,,38,38,39,17,21,28,,130,72,22,16,7,8,0.7,0.6
2025-06-18T0000,1896A,105.4379,28.8833,泸州市,市环监站,,,43,37,27,25,,,170,,24,18,7,6,0.7,0.8
2025-06-18T0000,4272A,105.3689,28.7783,泸州市,纳溪中医医院,,43,33,47,30,32,22,,131,72,24,18,4,8,0.7,0.8
2025-06-18T0000,2183A,111.1406,37.5211,吕梁市,环保局,颗粒物(PM10),52,53,49,17,18,87,,170,136,37,20,4,5,0.4,0.4
2025-06-18T0000,2185A,111.1297,37.5136,吕梁市,自来水公司,颗粒物(PM10),56,62,48,29,15,68,,165,132,36,19,5,6,0.4,0.3
2025-06-18T0000,2867A,111.1283,37.51,吕梁市,马茂庄小学,颗粒物(PM10),57,64,52,14,15,84,,157,127,40,27,3,5,0.4,0.5
2025-06-18T0000,1812A,112.3931,34.6516,洛阳市,市委党校,,49,49,50,30,39,112,,208,175,10,24,12,12,0.6,0.6
2025-06-18T0000,1815A,112.494,34.6886,洛阳市,河南林校,,48,48,56,16,26,120,,209,184,14,28,3,8,0.6,0.6
2025-06-18T0000,1816A,112.3844,34.623,洛阳市,开发区管委会,,45,45,46,26,25,114,,219,185,13,20,13,11,0.6,0.5
2025-06-18T0000,1817A,112.4267,34.6258,洛阳市,市委新办公区,,43,43,57,26,24,111,,212,177,14,21,13,11,0.5,0.6
2025-06-18T0000,3340A,112.6005,34.6326,洛阳市,伊滨,颗粒物(PM10),52,53,57,20,24,116,,211,175,7,19,5,9,0.4,0.5
2025-06-18T0000,3341A,112.4951,34.6332,洛阳市,中移产业园,,36,,49,24,25,115,,222,185,8,23,4,10,0.9,0.7
2025-06-18T0000,3593A,112.5736,34.8993,洛阳市,吉利监测站,颗粒物(PM10),63,76,48,30,21,101,,225,195,43,22,11,10,0.5,0.5
2025-06-18T0000,3635A,112.3677,34.662,洛阳市,河科大西苑校区,,49,49,53,14,23,118,,219,190,11,24,12,15,0.5,0.6
2025-06-18T0000,3636A,112.4388,34.6781,洛阳市,英才小学,颗粒物(PM10),51,52,64,27,26,108,,212,179,9,32,12,14,0.7,0.7
2025-06-18T0000,4214A,112.4600,34.6949,洛阳市,春都路1号院,颗粒物(PM10),51,51,61,24,24,116,,217,184,8,28,6,10,0.6,0.7
2025-06-18T0000,2399A,114.051,33.5699,漯河市,三五一五工厂,颗粒物(PM10),53,55,57,26,24,85,,182,133,24,23,4,6,0.7,0.6
2025-06-18T0000,2400A,114.0055,33.5698,漯河市,漯河大学,颗粒物(PM10),52,53,61,17,20,89,,188,131,26,26,5,8,0.6,0.5
2025-06-18T0000,2401A,114.0138,33.5828,漯河市,市水利局,,39,39,52,27,23,95,,191,135,18,18,8,8,0.6,0.8
2025-06-18T0000,2402A,114.0261,33.5698,漯河市,市广电局,,42,42,52,28,27,86,,187,132,22,22,3,5,0.4,0.3
2025-06-18T0000,3478A,113.9749,33.5664,漯河市,市图书馆,,46,46,56,20,27,74,,185,121,29,27,3,5,0.5,0.5
2025-06-18T0000,4250A,114.0892,33.5882,漯河市,韶山路11号,,33,33,58,23,26,94,,182,140,18,23,6,6,0.6,0.6
2025-06-18T0000,1798A,118.5092,31.6837,马鞍山市,湖东路四小,颗粒物(PM10),51,52,53,30,16,86,,181,132,18,10,7,8,0.7,0.6
2025-06-18T0000,1799A,118.5024,31.6449,马鞍山市,开发区,颗粒物(PM10),59,67,53,27,21,89,,179,113,25,18,6,7,0.7,0.7
2025-06-18T0000,1802A,118.6245,31.7241,马鞍山市,濮塘,,47,47,47,31,24,109,,178,134,6,5,9,9,0.8,0.8
2025-06-18T0000,3633A,118.4918,31.6809,马鞍山市,雨山,颗粒物(PM10),54,58,51,28,22,82,,174,124,22,13,5,7,0.8,0.8
2025-06-18T0000,4191A,118.5274,31.72227,马鞍山市,慈湖高新区,颗粒物(PM10),63,75,56,32,24,98,,178,126,23,19,6,9,0.7,0.6
2025-06-18T0000,1686A,111.0286,21.4688,茂名市,电白南海,,27,27,24,3,11,50,,54,54,3,4,1,2,0.1,0.3
2025-06-18T0000,1687A,110.9294,21.6533,茂名市,茂石化七小,,10,7,14,7,6,32,,39,33,8,9,2,2,0.4,0.4
2025-06-18T0000,1688A,110.9107,21.6687,茂名市,健康路,,,,10,,8,,,46,41,,8,,3,,0.5
2025-06-18T0000,1689A,110.8592,21.6828,茂名市,高岭,,14,7,16,3,4,43,,52,44,12,11,4,4,0.4,0.4
2025-06-18T0000,3450A,111.01,21.5165,茂名市,电白水东,,17,17,14,7,6,43,,48,44,4,6,4,3,0.4,0.4
2025-06-18T0000,2539A,104.0308,30.0478,眉山市,黑龙滩水库,,45,,24,31,20,116,,214,168,2,12,3,2,0,0.2
2025-06-18T0000,2540A,103.8416,30.0874,眉山市,气象局,,37,16,43,14,25,118,,227,180,8,46,3,3,0.4,0.6
2025-06-18T0000,3137A,103.8578,30.0744,眉山市,市委党校,,,14,45,7,21,,,,,8,40,4,7,0.5,0.6
2025-06-18T0000,3148A,103.8291,30.0564,眉山市,区人社局,,35,29,57,3,17,111,,230,177,9,41,12,16,0.8,0.9
2025-06-18T0000,1690A,116.1231,24.3284,梅州市,梅江月梅,,21,21,11,3,3,6,,27,14,10,9,6,6,0.5,0.5
2025-06-18T0000,1691A,116.0797,24.2719,梅州市,梅县新城,,16,16,11,3,3,1,,33,13,13,9,6,6,0.5,0.5
2025-06-18T0000,1692A,116.1248,24.2654,梅州市,环境监控中心,,20,20,11,3,5,4,,29,12,11,13,10,3,0.6,0.6
2025-06-18T0000,3315A,116.1233,24.2991,梅州市,梅龙,,19,19,9,6,5,8,,30,16,7,7,6,6,0.4,0.5
2025-06-18T0000,1878A,104.7778,31.4741,绵阳市,富乐山,,37,24,53,15,30,118,,191,163,8,16,8,10,0.6,0.6
2025-06-18T0000,1880A,104.6697,31.4668,绵阳市,高新区自来水公司,,35,26,53,9,23,110,,170,148,5,30,6,8,0.6,0.7
2025-06-18T0000,1881A,104.7287,31.5075,绵阳市,三水厂,,,34,59,25,38,,,188,,5,30,9,10,0.6,0.7
2025-06-18T0000,3491A,104.69,31.5322,绵阳市,西科大附属小学,,33,27,54,14,27,104,,194,155,6,25,8,10,0.5,0.6
2025-06-18T0000,3492A,104.5648,31.5343,绵阳市,安州区旅游局,,39,27,50,12,23,122,,198,160,6,14,7,8,0.4,0.6
2025-06-18T0000,4226A,104.7651,31.4531,绵阳市,绵阳市气象局,,35,8,48,3,28,111,,171,145,4,20,6,8,0.4,0.5
2025-06-18T0000,1784A,129.61,44.561,牡丹江市,环保大楼,,32,30,18,22,19,43,,108,80,26,15,8,8,0.3,0.3
2025-06-18T0000,1785A,129.6115,44.5782,牡丹江市,文化广场,,39,39,23,22,18,25,,105,72,42,19,5,6,0.4,0.3
2025-06-18T0000,1786A,129.5904,44.5963,牡丹江市,第一医院,,22,22,18,12,9,41,,105,67,22,19,5,6,0.2,0.2
2025-06-18T0000,1787A,129.6364,44.6075,牡丹江市,机车工厂,,35,35,22,9,9,21,,101,62,30,19,8,7,0.4,0.3
2025-06-18T0000,1788A,129.6386,44.5462,牡丹江市,第一中学,,45,35,20,31,14,37,,105,76,18,16,8,8,0.3,0.4
2025-06-18T0000,2531A,105.0703,29.61,内江市,市监测站,,37,37,31,20,23,80,,157,119,4,14,4,6,0.6,0.7
2025-06-18T0000,2532A,105.0717,29.5947,内江市,东兴区政府,,26,24,26,9,19,81,,165,126,8,13,3,3,0.8,0.9
2025-06-18T0000,2533A,105.0653,29.5817,内江市,内江二中,,32,32,31,13,27,81,,160,123,9,12,6,8,0.4,0.5
2025-06-18T0000,2534A,105.0406,29.5822,内江市,内江日报社,,32,32,29,15,28,77,,166,126,9,14,12,16,0.3,0.4
2025-06-18T0000,2628A,92.0657,31.4846,那曲市,那曲监测站,,40,6,12,6,7,127,,110,,5,11,6,7,0.4,0.3
2025-06-18T0000,4243A,92.0515,31.4787,那曲市,那曲市委宣传部,,41,7,9,3,6,131,,129,129,6,8,5,6,0.2,0.2
2025-06-18T0000,1290A,115.8931,28.6843,南昌市,省外办,,14,,15,7,11,42,,103,58,9,10,3,10,0.2,0.3
2025-06-18T0000,1291A,115.8886,28.7003,南昌市,省林业公司,,12,6,12,3,8,38,,94,54,10,12,9,11,0.5,0.5
2025-06-18T0000,1292A,115.8126,28.7442,南昌市,林科所,,13,6,10,3,5,41,,98,53,7,8,5,6,0.4,0.3
2025-06-18T0000,1294A,115.8518,28.687,南昌市,建工学校,,13,9,14,3,13,40,,92,54,4,7,7,8,0.2,0.3
2025-06-18T0000,1295A,115.8921,28.6424,南昌市,象湖,,,2,11,,6,31,,86,48,12,11,7,9,0.5,0.5
2025-06-18T0000,1296A,115.7423,28.7996,南昌市,武术学校,,23,23,19,8,11,11,,96,43,5,4,7,9,0.2,0.3
2025-06-18T0000,3046A,115.9084,28.6062,南昌市,机电学校,,18,18,21,7,9,32,,87,47,6,7,4,5,0.1,0.2
2025-06-18T0000,3690A,115.9721,28.7031,南昌市,外国语学校,,18,18,20,3,8,29,,88,45,12,11,16,13,0.7,0.4
2025-06-18T0000,4192A,115.9316,28.68677,南昌市,南京东路235号,,22,22,26,3,8,34,,92,50,13,13,10,11,0.5,0.5
2025-06-18T0000,1905A,106.056,30.8064,南充市,西山风景区,,,,,,,,,,,,,,,,
2025-06-18T0000,1906A,106.0789,30.8023,南充市,南充市委,,42,42,43,28,26,82,,158,120,9,19,4,6,0.3,0.3
2025-06-18T0000,1907A,106.1031,30.8217,南充市,南充炼油厂,,44,44,44,30,27,88,,160,123,11,15,6,8,0.5,0.5
2025-06-18T0000,4227A,106.1083,30.7884,南充市,梨树横街98号,,42,42,42,25,22,85,,156,122,11,14,5,6,0.4,0.4
2025-06-18T0000,4304A,106.1172,30.843,南充市,清泉寺北路188号,,50,50,47,24,25,95,,80,,10,14,8,6,0.4,0.4
2025-06-18T0000,4305A,106.067,30.7616,南充市,同庆路1号,,39,37,41,27,25,89,,156,126,16,16,4,5,0.3,0.3
2025-06-18T0000,1151A,118.8086,32.1065,南京市,迈皋桥,,39,39,39,22,18,119,,168,133,21,12,3,4,0.7,0.6
2025-06-18T0000,1152A,118.7538,32.0551,南京市,草场门,,46,46,44,19,18,147,,184,146,16,16,4,3,0.4,0.4
2025-06-18T0000,1153A,118.7794,32.0745,南京市,山西路,,48,48,52,19,14,152,,194,167,8,17,5,5,0.2,0.3
2025-06-18T0000,1154A,118.7752,32.0023,南京市,中华门,,46,46,43,22,16,120,,169,130,23,22,8,10,0.5,0.6
2025-06-18T0000,1155A,118.8109,32.0309,南京市,瑞金路,,48,48,44,22,19,131,,172,129,8,11,7,6,0.3,0.3
2025-06-18T0000,1156A,118.7997,32.0754,南京市,玄武湖,,49,49,46,15,11,152,,184,149,16,15,6,5,0.2,0.2
2025-06-18T0000,1157A,118.6414,32.0931,南京市,浦口,颗粒物(PM10),59,67,44,17,16,83,,171,122,28,16,3,4,0.9,0.9
2025-06-18T0000,1158A,118.7356,31.9996,南京市,奥体中心,颗粒物(PM10),53,56,47,22,18,117,,173,135,17,14,4,6,0.4,0.5
2025-06-18T0000,1159A,118.9125,32.1028,南京市,仙林大学城,颗粒物(PM10),58,66,52,19,14,126,,171,137,16,11,8,8,0.6,0.7
2025-06-18T0000,3422A,118.8436,31.9198,南京市,江宁彩虹桥,颗粒物(PM10),56,62,49,24,18,123,,177,134,22,15,4,4,0.5,0.5
2025-06-18T0000,3427A,118.8554,32.3578,南京市,六合雄州,颗粒物(PM10),52,53,43,16,16,125,,193,138,38,26,6,6,0.6,0.7
2025-06-18T0000,4249A,118.8708,31.3402,南京市,汶溪路181号,颗粒物(PM10),51,51,40,34,23,114,,138,129,16,10,3,2,0.4,0.5
2025-06-18T0000,4312A,119.019,31.6512,南京市,中山西路1号,,46,46,38,31,21,105,,150,120,20,11,3,4,0.5,0.5
2025-06-18T0000,1401A,108.3103,22.7881,南宁市,二十一中,,24,24,21,10,8,41,,54,34,8,11,3,3,0.7,0.7
2025-06-18T0000,1402A,108.3141,22.8528,南宁市,北湖,,26,26,21,14,11,41,,59,29,9,15,2,3,0.6,0.5
2025-06-18T0000,1403A,108.3206,22.8225,南宁市,市监测站,,30,30,19,9,12,38,,52,31,8,11,3,3,0.6,0.6
2025-06-18T0000,1404A,108.3829,22.8037,南宁市,大自然花园,,24,24,19,10,10,47,,61,44,6,7,4,4,0.6,0.5
2025-06-18T0000,1405A,108.4394,22.7904,南宁市,仙葫,,32,32,19,12,10,46,,65,47,24,12,4,4,0.7,0.6
2025-06-18T0000,1406A,108.2397,22.8467,南宁市,区农职院,,28,28,26,13,10,35,,57,25,12,18,3,4,1.1,0.9
2025-06-18T0000,1407A,108.3275,22.735,南宁市,英华嘉园,,26,26,20,12,10,40,,58,36,9,10,6,6,0.5,0.5
2025-06-18T0000,3401A,108.4834,22.7618,南宁市,红星社区,,25,23,20,17,9,38,,58,37,5,6,1,1,0.5,0.5
2025-06-18T0000,4221A,108.2177,22.7774,南宁市,乐贤路16号,,24,24,24,8,9,10,,53,10,33,24,4,5,0.5,0.5
2025-06-18T0000,2331A,118.0966,26.6761,南平市,茫荡山,,,,,,,,,,,,,,,,
2025-06-18T0000,2332A,118.1681,26.6369,南平市,南平市监测站,,13,13,18,6,11,20,,65,40,13,8,6,5,0.5,0.6
2025-06-18T0000,2333A,118.1825,26.6489,南平市,南平铝业有限公司,,18,18,19,9,9,12,,66,40,21,9,8,5,0.6,0.6
2025-06-18T0000,2334A,118.1756,26.6272,南平市,南平七中,,8,8,17,3,9,22,,67,43,9,6,4,5,0.4,0.5
2025-06-18T0000,1168A,120.9098,31.9663,南通市,狼山街道,颗粒物(PM10),56,62,42,32,22,139,,201,160,22,20,7,8,1.0,1.1
2025-06-18T0000,1169A,120.86,32.0005,南通市,虹桥,颗粒物(PM10),54,57,42,34,25,143,,172,158,29,37,5,6,0.9,0.8
2025-06-18T0000,1170A,120.87,32.02,南通市,城中,颗粒物(PM10),62,74,51,36,21,140,,184,161,24,29,8,9,1.0,0.9
2025-06-18T0000,1171A,120.94,31.93,南通市,星湖花园,颗粒物(PM10),58,65,44,34,25,122,,203,152,34,26,6,8,0.7,0.9
2025-06-18T0000,1172A,120.81,32.0417,南通市,紫琅学院,颗粒物(PM10),59,68,50,27,17,134,,183,151,25,30,7,9,0.7,0.7
2025-06-18T0000,3291A,121.067,32.062,南通市,通州监测站,臭氧1小时,62,51,40,29,20,169,,183,178,10,16,6,8,0.6,0.8
2025-06-18T0000,3432A,120.9348,31.9883,南通市,环境教育馆,颗粒物(PM10),59,68,52,30,19,144,,202,158,25,26,6,8,0.5,0.6
2025-06-18T0000,2404A,112.5224,33.0122,南阳市,瓦房庄,,30,30,50,12,20,78,,156,103,9,14,5,6,0.5,0.6
2025-06-18T0000,2405A,112.5003,32.9735,南阳市,汉画馆,,26,26,48,11,15,80,,163,108,13,16,6,6,0.4,0.5
2025-06-18T0000,2406A,112.5573,33.027,南阳市,气象站,,30,30,50,9,20,78,,163,106,11,12,4,5,0.2,0.3
2025-06-18T0000,2407A,112.5481,32.9689,南阳市,理工学院,,32,32,47,14,21,76,,161,105,13,17,4,5,0.4,0.4
2025-06-18T0000,4008A,112.5234,32.9922,南阳市,卧龙区政府,,27,26,51,13,24,84,,176,108,10,14,4,5,0.4,0.5
2025-06-18T0000,1234A,121.8358,29.911,宁波市,区环保大楼,颗粒物(PM10),54,58,59,19,18,85,,152,115,33,45,4,5,0.6,0.5
2025-06-18T0000,1235A,121.56,29.82,宁波市,万里学院,,47,47,37,24,22,91,,140,130,24,18,3,3,0.6,0.5
2025-06-18T0000,1236A,121.713,29.9572,宁波市,龙赛医院,颗粒物(PM10),65,80,54,19,15,53,,154,95,56,33,4,5,0.7,0.6
2025-06-18T0000,1239A,121.633,29.7733,宁波市,钱湖水厂,,47,47,35,17,17,122,,150,148,8,9,4,4,0.5,0.4
2025-06-18T0000,1240A,121.5856,29.8635,宁波市,太古小学,颗粒物(PM10),51,52,40,22,16,103,,135,122,21,18,4,4,0.6,0.6
2025-06-18T0000,1241A,121.524,29.8674,宁波市,市环境监测中心,,46,46,31,18,13,102,,134,120,27,20,4,4,0.6,0.5
2025-06-18T0000,2871A,121.6147,29.9017,宁波市,万里国际学校,颗粒物(PM10),51,51,33,22,16,111,,142,130,22,18,4,4,0.6,0.5
2025-06-18T0000,3710A,121.5594,29.8975,宁波市,白沙活动中心,,41,41,32,22,15,116,,154,133,21,17,3,3,0.5,0.4
2025-06-18T0000,2339A,119.5001,26.6946,宁德市,金涵水库,,,,,,,,,,,,,,,,
2025-06-18T0000,2341A,119.5388,26.6612,宁德市,宁德市监测站,,15,8,18,8,10,47,,81,48,5,13,4,4,0.3,0.4
2025-06-18T0000,3209A,119.5231,26.6562,宁德市,宁德一中,,16,11,16,11,9,50,,79,50,3,7,3,4,0.1,0.3
2025-06-18T0000,2618A,98.8601,25.8567,怒江傈僳族自治州,州监测站,,19,19,17,13,12,39,,56,49,8,9,10,9,0.5,0.4
2025-06-18T0000,2619A,98.8546,25.8417,怒江傈僳族自治州,泸水一中,,9,7,13,3,9,28,,43,34,7,9,5,5,0.3,0.3
2025-06-18T0000,1888A,101.6891,26.571,攀枝花市,弄弄坪,,44,44,32,12,12,29,,85,52,16,16,8,8,0.8,1
2025-06-18T0000,1889A,101.5769,26.5928,攀枝花市,河门口,,38,38,21,15,9,38,,102,73,12,10,6,7,0.8,0.9
2025-06-18T0000,1890A,101.7169,26.585,攀枝花市,炳草岗,,30,30,29,11,13,9,,82,52,36,22,9,11,0.9,1.1
2025-06-18T0000,1891A,101.7369,26.5008,攀枝花市,仁和,,30,30,25,13,15,15,,81,44,14,18,8,21,0.7,2.1
2025-06-18T0000,2835A,101.7227,26.567,攀枝花市,四十中小,,25,25,21,17,14,13,,91,56,38,17,12,12,1.2,1.2
2025-06-18T0000,1604A,122.0303,41.1489,盘锦市,开发区,,32,,23,22,22,100,,144,110,16,19,8,10,0.4,0.4
2025-06-18T0000,1605A,122.0485,41.0883,盘锦市,兴隆台,,42,42,23,20,16,97,,140,114,25,24,4,5,0.4,0.5
2025-06-18T0000,1606A,121.8297,41.1028,盘锦市,新生街道,,28,,19,19,14,64,,141,96,18,15,6,10,0.6,0.6
2025-06-18T0000,1832A,113.3257,33.742,平顶山市,新华旅馆,,35,25,48,24,18,85,,171,124,13,21,4,6,0.4,0.5
2025-06-18T0000,1833A,113.2919,33.737,平顶山市,规划设计院,,30,30,58,13,24,84,,173,125,13,22,4,7,0.4,0.4
2025-06-18T0000,1834A,113.182,33.774,平顶山市,平顶山工学院,,49,49,44,14,22,82,,181,128,13,21,1,6,0.3,0.4
2025-06-18T0000,3204A,113.3025,33.73,平顶山市,规划局,,26,19,50,7,20,83,,172,123,12,22,4,5,0.4,0.4
2025-06-18T0000,3594A,112.8867,33.9116,平顶山市,石龙区,,34,34,65,17,27,89,,188,149,13,34,5,12,0.6,0.6
2025-06-18T0000,2656A,106.6692,35.5461,平凉市,聚贤嘉苑,颗粒物(PM10),51,51,54,25,23,51,,139,107,61,35,7,7,0.7,0.6
2025-06-18T0000,2657A,106.7021,35.5307,平凉市,博物馆,颗粒物(PM10),55,59,60,19,20,76,,146,110,33,31,10,11,0.7,0.7
2025-06-18T0000,2347A,114.0997,27.5002,萍乡市,武功山,,7,6,4,3,3,21,,54,37,4,3,12,13,0.3,0.3
2025-06-18T0000,2348A,113.8385,27.6434,萍乡市,中医院,,22,22,20,8,11,36,,81,52,7,7,8,13,0.6,0.7
2025-06-18T0000,2349A,113.8493,27.6253,萍乡市,市政府车库,,9,,15,3,14,28,,67,43,9,7,6,8,0.3,0.4
2025-06-18T0000,2350A,113.8676,27.6435,萍乡市,市环保局,,20,14,23,14,15,33,,75,48,5,9,6,8,0.5,0.7
2025-06-18T0000,2351A,113.866,27.6198,萍乡市,安源区政府,,14,14,20,3,8,32,,61,43,4,7,7,9,0.4,0.5
2025-06-18T0000,2319A,119.0141,25.4325,莆田市,荔城区仓后路,,35,34,28,24,17,27,,62,51,19,16,5,4,0.5,0.5
2025-06-18T0000,2320A,119.0015,25.4553,莆田市,莆田市监测站,,38,30,28,26,15,33,,66,54,13,14,4,4,0.4,0.4
2025-06-18T0000,2321A,119.1119,25.4561,莆田市,涵江区六中,,33,32,28,23,16,30,,71,58,26,21,3,3,0.4,0.4
2025-06-18T0000,2322A,119.1013,25.3215,莆田市,秀屿区政府,,22,22,22,13,14,26,,71,57,25,18,5,5,0.4,0.4
2025-06-18T0000,2323A,118.981,25.4792,莆田市,东圳水库,,,,,,,,,,,,,,,,
2025-06-18T0000,2392A,115.0312,35.7636,濮阳市,环保局,,44,44,37,19,16,136,,200,174,27,20,7,7,0.6,0.6
2025-06-18T0000,2394A,115.0574,35.7609,濮阳市,油田运输公司,颗粒物(PM10),51,51,37,16,14,129,,204,171,30,22,7,7,0.7,0.6
2025-06-18T0000,3021A,115,35.7668,濮阳市,濮水河管理处,,,43,41,23,20,100,,185,145,38,31,4,5,,0.8
2025-06-18T0000,4216A,115.0924,35.7686,濮阳市,任丘路479号,颗粒物(PM10),57,63,47,23,15,121,,195,164,24,16,8,8,0.5,0.5
2025-06-18T0000,2601A,100.98,22.7633,普洱市,市环保局,,22,22,20,3,15,25,,36,30,3,3,4,4,0.4,0.5
2025-06-18T0000,2602A,100.9817,22.8322,普洱市,普洱第二中学,,23,23,18,7,11,24,,39,32,4,6,6,6,0.5,0.5
2025-06-18T0000,2262A,131.0518,45.8751,七台河市,新一中,,24,20,15,9,8,74,,119,94,14,9,9,9,0.8,0.9
2025-06-18T0000,3345A,131.0577,45.7879,七台河市,中波台,,19,,9,7,8,60,,86,69,15,12,6,7,0.3,0.3
2025-06-18T0000,3637A,131.0176,45.7761,七台河市,人民广场,,19,18,19,11,11,59,,87,70,12,11,11,11,0.4,0.5
2025-06-18T0000,3684A,130.8781,45.8222,七台河市,新建矿广场,,29,,11,20,13,52,,92,72,14,11,9,10,0.5,0.4
2025-06-18T0000,1779A,123.9305,47.3636,齐齐哈尔市,安居小区,,24,15,18,8,7,74,,90,84,9,11,5,6,0.5,0.4
2025-06-18T0000,1780A,123.9488,47.3386,齐齐哈尔市,中心广场,,26,24,17,3,2,81,,100,94,10,11,6,6,0.4,0.3
2025-06-18T0000,1781A,123.9483,47.3227,齐齐哈尔市,农牧车辆厂,,23,17,23,16,7,72,,96,86,9,8,5,5,0.1,0.2
2025-06-18T0000,1783A,123.945,47.2988,齐齐哈尔市,市环境监测站,,25,18,16,3,4,79,,101,94,8,8,4,4,0.2,0.1
2025-06-18T0000,3662A,123.6333,47.2075,齐齐哈尔市,富区青少年活动中心,细颗粒物(PM2.5),55,40,19,39,11,78,,103,95,7,7,5,3,0.4,0.3
2025-06-18T0000,2591A,107.9783,26.5747,黔东南苗族侗族自治州,市环境监测站,,20,12,14,10,10,62,,62,59,2,3,2,2,0.4,0.4
2025-06-18T0000,2881A,107.8908,26.5311,黔东南苗族侗族自治州,凯里学院,,20,12,9,8,10,62,,63,61,2,3,2,2,0.4,0.4
2025-06-18T0000,2593A,107.5228,26.2403,黔南布依族苗族自治州,小围寨,,16,,7,7,5,49,,57,52,4,4,3,2,0.4,0.4
2025-06-18T0000,3538A,107.5175,26.2978,黔南布依族苗族自治州,沙坝,,14,9,12,3,4,42,,58,47,6,6,4,4,0.2,0.2
2025-06-18T0000,2589A,104.9022,25.0925,黔西南布依族苗族自治州,场坝街,,14,14,17,3,7,44,,62,50,3,4,2,3,0.2,0.3
2025-06-18T0000,2590A,104.8811,25.0992,黔西南布依族苗族自治州,坪东大道,,13,11,20,6,10,41,,57,48,5,7,2,2,0,0.1
2025-06-18T0000,2502A,108.6236,21.9667,钦州市,市环保站,,24,24,18,12,8,32,,54,50,18,10,2,2,0.5,0.5
2025-06-18T0000,2503A,108.6549,21.9481,钦州市,沙埠小学,,34,34,26,12,10,32,,51,39,16,14,3,2,0.4,0.4
2025-06-18T0000,2504A,108.5989,21.7431,钦州市,港区一小,,22,20,27,15,11,34,,58,47,17,14,2,1,0.9,0.6
2025-06-18T0000,3404A,108.5959,21.9633,钦州市,北职校,,31,31,24,15,10,32,,46,44,16,9,1,2,0.5,0.4
2025-06-18T0000,1043A,119.7493,40.0116,秦皇岛市,第一关,颗粒物(PM10),69,88,38,33,17,3,,159,116,122,36,6,6,0.6,0.4
2025-06-18T0000,1044A,119.5897,39.9499,秦皇岛市,监测站,,47,47,41,24,14,131,,158,147,27,29,5,9,0.3,0.4
2025-06-18T0000,1046A,119.5251,39.9041,秦皇岛市,建设大厦,,42,42,40,18,15,128,,160,137,23,30,5,7,0.4,0.4
2025-06-18T0000,3132A,119.610547,39.943889,秦皇岛市,文明里,,49,49,48,28,12,138,,164,150,26,28,5,7,0.3,0.3
2025-06-18T0000,4198A,119.5090,39.8253,秦皇岛市,北戴河轮滑馆,,50,48,38,27,15,158,,184,165,7,14,3,7,0.4,0.6
2025-06-18T0000,1307A,120.6659,36.2403,青岛市,仰口,臭氧1小时,63,38,30,19,16,170,,157,152,4,9,7,8,0.6,0.6
2025-06-18T0000,1310A,120.4134,36.0658,青岛市,市南区东部子站,,43,22,39,14,15,137,,173,150,7,30,10,12,0.5,0.5
2025-06-18T0000,1311A,120.3664,36.1032,青岛市,四方区子站,,50,12,34,9,16,157,,197,162,10,31,10,11,0.5,0.5
2025-06-18T0000,1312A,120.2994,36.054,青岛市,市南区西部子站,,42,19,42,17,18,132,,158,149,15,42,9,10,0.6,0.6
2025-06-18T0000,1313A,120.4581,36.0858,青岛市,崂山区子站,,39,17,37,7,13,123,,172,146,7,26,8,10,0.4,0.4
2025-06-18T0000,1315A,120.3999,36.3083,青岛市,城阳区子站,,42,24,40,12,16,132,,198,131,14,30,5,7,0.3,0.4
2025-06-18T0000,1966A,120.0405,35.8735,青岛市,黄岛区4号,,40,17,31,9,10,126,,182,165,12,22,9,11,0.6,0.7
2025-06-18T0000,3362A,120.5014,36.4034,青岛市,即墨2号,,38,21,44,12,19,120,,170,133,9,23,12,15,0.2,0.3
2025-06-18T0000,3642A,120.3503,36.0736,青岛市,市北区南部,,40,21,41,9,16,128,,159,143,12,31,8,9,0.5,0.5
2025-06-18T0000,3643A,120.3948,36.1805,青岛市,李沧区北部,,40,17,34,14,17,128,,167,128,7,29,8,10,0.5,0.6
2025-06-18T0000,4290A,120.1969,35.9546,青岛市,珠江路669号,,42,12,27,7,10,132,,174,158,7,16,7,9,0.2,0.4
2025-06-18T0000,1702A,113.0426,23.691,清远市,环保大楼,,7,6,8,3,6,10,,18,15,14,18,5,5,0.4,0.5
2025-06-18T0000,1703A,113.0208,23.7106,清远市,凤城街办,,9,7,13,6,7,16,,20,20,16,23,7,6,0.4,0.5
2025-06-18T0000,3025A,113.0477,23.6344,清远市,技师学院,,11,10,13,6,8,10,,20,17,21,24,6,7,0.5,0.5
2025-06-18T0000,3318A,112.9903,23.7403,清远市,清新太和,,8,6,12,3,8,24,,24,,12,19,6,6,0.4,0.5
2025-06-18T0000,3455A,113.076,23.7198,清远市,清城东城,,8,8,12,3,6,18,,26,26,10,14,6,7,0.5,0.6
2025-06-18T0000,2661A,107.6325,35.7357,庆阳市,庆阳五中,,45,45,51,21,21,133,,165,151,14,12,6,6,0.4,0.3
2025-06-18T0000,2662A,107.6364,35.7067,庆阳市,市环保局,,44,42,52,19,19,140,,168,157,8,8,7,7,0.6,0.6
2025-06-18T0000,1916A,103.7897,25.5035,曲靖市,环境监测站,,26,26,16,11,9,31,,70,52,15,10,6,3,0.6,0.5
2025-06-18T0000,1917A,103.8,25.5364,曲靖市,烟厂办公区,,20,20,15,9,10,35,,72,54,11,7,7,4,0.7,0.6
2025-06-18T0000,3376A,103.7947,25.462,曲靖市,南苑二区,,20,20,15,10,9,37,,72,56,12,8,10,5,0.6,0.5
2025-06-18T0000,3377A,103.7444,25.5261,曲靖市,曲靖师范学院,,44,44,21,3,10,36,,72,54,9,9,6,7,0.4,0.5
2025-06-18T0000,1264A,118.8692,28.9398,衢州市,环保大楼,,35,35,36,16,17,25,,105,67,28,15,4,5,0.3,0.4
2025-06-18T0000,1265A,118.8709,28.9666,衢州市,实验学校,,30,30,37,12,16,24,,123,75,34,21,3,4,0.3,0.3
2025-06-18T0000,1266A,118.8621,28.9808,衢州市,衢州学院,,33,33,33,14,15,3,,121,65,58,25,3,3,0.4,0.2
2025-06-18T0000,1611A,118.5819,24.9117,泉州市,涂山街,,31,31,28,13,15,7,,44,23,44,33,7,7,0.6,0.6
2025-06-18T0000,1612A,118.5972,24.8978,泉州市,津头埔,,28,28,26,15,16,12,,40,24,38,32,5,6,0.6,0.6
2025-06-18T0000,1613A,118.6663,24.9424,泉州市,万安,,39,39,29,16,13,2,,45,26,34,26,2,3,0.7,0.6
2025-06-18T0000,1614A,118.6117,24.9604,泉州市,清源山,,,,,,,,,,,,,,,,
2025-06-18T0000,3529A,118.6333,24.9264,泉州市,城华南路,,29,29,23,14,13,4,,43,23,32,25,5,5,0.5,0.5
2025-06-18T0000,2626A,88.8876,29.2718,日喀则市,日喀则监测站,,20,9,7,3,3,64,,104,79,13,7,13,12,0.5,0.4
2025-06-18T0000,3726A,88.8781,29.2426,日喀则市,林业技术推广中心,,20,15,12,8,3,62,,104,72,6,4,9,9,0.3,0.3
2025-06-18T0000,1659A,119.471,35.4209,日照市,监测站,,41,36,26,17,12,129,,145,112,15,26,11,8,0.6,0.6
2025-06-18T0000,1660A,119.523,35.4216,日照市,市政府广场,颗粒物(PM10),53,56,29,9,8,110,,138,113,22,20,15,8,0.7,0.6
2025-06-18T0000,1661A,119.5587,35.4044,日照市,港务局,,44,44,35,19,15,111,,135,122,27,22,11,7,0.7,0.6
2025-06-18T0000,3507A,119.5328,35.4625,日照市,职业技术学院,颗粒物(PM10),54,58,29,14,9,114,,139,122,24,21,12,6,0.7,0.6
2025-06-18T0000,3604A,119.3266,35.1044,日照市,岚山环保分局,,41,41,54,15,20,127,,154,121,12,26,8,19,0.6,0.8
2025-06-18T0000,1835A,111.1922,34.7752,三门峡市,市政府,颗粒物(PM10),56,62,44,30,22,109,,171,139,42,22,12,7,0.6,0.4
2025-06-18T0000,1836A,111.1587,34.7942,三门峡市,开发区,颗粒物(PM10),59,67,51,38,21,118,,178,141,20,22,12,8,0.5,0.5
2025-06-18T0000,1838A,111.143,34.7955,三门峡市,风景区,,50,50,46,23,18,126,,184,159,12,11,12,11,0.4,0.3
2025-06-18T0000,3039A,111.1911,34.7829,三门峡市,三门峡市第一小学,颗粒物(PM10),57,64,45,28,18,137,,171,150,31,17,16,10,0.7,0.5
2025-06-18T0000,3598A,111.1,34.7167,三门峡市,富达温泉假日酒店,,42,40,57,26,24,134,,177,160,18,23,10,13,0.3,0.3
2025-06-18T0000,2324A,117.6211,26.2625,三明市,三钢,,48,,28,33,22,18,,62,46,22,18,7,8,1.2,1.4
2025-06-18T0000,2325A,117.635,26.2714,三明市,三明二中,,23,23,26,15,16,22,,61,45,11,15,2,5,0.7,1
2025-06-18T0000,2326A,117.6028,26.2378,三明市,三元区政府,,26,24,29,18,17,24,,66,48,10,15,6,9,0.3,0.5
2025-06-18T0000,2327A,117.7275,26.3108,三明市,洋溪,,,,,,,,,,,,,,,,
2025-06-18T0000,1876A,109.5078,18.2489,三亚市,河东子站,,22,17,21,15,16,43,,56,45,4,3,2,2,0.3,0.3
2025-06-18T0000,1877A,109.4964,18.2681,三亚市,河西子站,,21,21,22,9,13,48,,56,49,4,5,2,2,0.4,0.4
2025-06-18T0000,3540A,109.7348,18.3443,三亚市,君悦子站,,17,17,18,3,9,53,,58,52,3,3,2,2,0.5,0.4
2025-06-18T0000,2624A,91.7608,29.2313,山南市,山南监测站,,20,10,8,3,3,61,,83,76,13,11,10,9,0.3,0.3
2025-06-18T0000,2625A,91.7706,29.2436,山南市,山南人民医院,,21,13,14,8,10,65,,89,82,9,11,7,7,0.3,0.3
2025-06-18T0000,1674A,116.6794,23.3667,汕头市,金平子站,,30,30,16,18,11,6,,33,17,30,17,7,4,0.7,0.6
2025-06-18T0000,1675A,116.7244,23.3633,汕头市,龙湖子站,,29,29,16,10,7,8,,31,16,27,18,8,6,0.6,0.6
2025-06-18T0000,1676A,116.7258,23.2775,汕头市,濠江子站,,24,24,20,12,8,14,,26,18,19,16,5,4,0.7,0.7
2025-06-18T0000,1677A,116.7519,23.4714,汕头市,澄海子站,,26,26,19,11,9,12,,28,13,20,18,5,4,0.7,0.7
2025-06-18T0000,1678A,116.6092,23.2539,汕头市,潮阳子站,,20,20,14,8,5,19,,30,24,17,12,4,4,0.8,0.8
2025-06-18T0000,3444A,116.454,23.2684,汕头市,潮南峡山,,22,22,14,6,3,18,,31,22,13,11,5,5,0.7,0.7
2025-06-18T0000,3624A,116.4069,23.2533,汕头市,潮南子站,,24,24,14,16,11,14,,28,20,16,13,4,4,0.6,0.6
2025-06-18T0000,1693A,115.3653,22.775,汕尾市,市环保局,,12,12,9,6,4,30,,37,32,10,10,2,2,0.4,0.4
2025-06-18T0000,1694A,115.3706,22.7898,汕尾市,市政府,,16,16,10,10,5,24,,31,25,9,10,4,4,0.5,0.5
2025-06-18T0000,1695A,115.3622,22.7925,汕尾市,新城中学,,21,21,11,8,4,22,,41,25,9,9,1,1,0.5,0.6
2025-06-18T0000,2645A,109.9154,33.8715,商洛市,监测站,颗粒物(PM10),52,54,48,26,22,103,,159,134,23,15,6,9,0.4,0.4
2025-06-18T0000,3045A,109.9643,33.8471,商洛市,商州区中学,颗粒物(PM10),55,60,61,27,21,97,,155,127,29,22,6,7,0.4,0.4
2025-06-18T0000,2408A,115.6702,34.4285,商丘市,环境监测站,颗粒物(PM10),59,67,65,22,19,116,,184,152,10,10,2,3,0.3,0.3
2025-06-18T0000,2409A,115.6458,34.4045,商丘市,粮食局,,,66,51,,23,,,180,152,9,12,3,2,0.4,0.4
