timepoint,stationcode,longitude,latitude,area,positionname,primarypollutant,aqi,pm10,pm10_24h,pm2_5,pm2_5_24h,o3,o3_24h,o3_8h,o3_8h_24h,no2,no2_24h,so2,so2_24h,co,co_24h
2024-08-22T2100,2566A,102.1879,31.914,阿坝藏族羌族自治州,州农科所,,30,30,20,16,9,32,,83,74,34,14,10,8,0,0
2024-08-22T2100,2568A,102.2502,31.8896,阿坝藏族羌族自治州,马师校,,26,26,17,15,9,52,,96,90,17,12,3,3,0.3,0.3
2024-08-22T2100,3994A,102.2165,31.9024,阿坝藏族羌族自治州,马尔康中学西区,,50,,14,35,13,62,,103,99,12,9,5,5,0.4,0.3
2024-08-22T2100,2695A,80.292,41.1694,阿克苏地区,电视台,颗粒物(PM10),52,54,58,27,27,97,,87,87,17,16,3,3,0.4,0.5
2024-08-22T2100,2696A,80.2613,41.1551,阿克苏地区,艺术中心,,44,44,53,21,26,104,,92,92,19,17,3,4,0.5,0.6
2024-08-22T2100,2204A,105.6467,38.8363,阿拉善盟,西城区西花园,,43,40,43,18,15,135,,170,161,23,12,7,8,0.8,0.7
2024-08-22T2100,2205A,105.6985,38.8411,阿拉善盟,蒙二幼,,41,33,26,13,12,130,,152,145,15,6,8,8,0.6,0.5
2024-08-22T2100,2206A,105.724,38.8516,阿拉善盟,环保局新楼,,44,25,24,12,13,139,,153,146,13,6,11,11,0.5,0.5
2024-08-22T2100,2708A,88.1264,47.8517,阿勒泰地区,市站,,30,14,21,8,8,95,,100,100,17,13,7,7,0.7,0.6
2024-08-22T2100,2630A,80.1161,32.5,阿里地区,阿里监测站,,41,7,9,3,4,130,,134,134,4,12,5,6,0.2,0.2
2024-08-22T2100,3192A,80.0903,32.5028,阿里地区,阿里藏医院,,40,9,9,3,5,126,,128,128,3,5,6,6,0.3,0.3
2024-08-22T2100,2642A,109.0318,32.6537,安康市,香溪洞,颗粒物(PM10),83,115,43,26,19,85,,112,108,26,21,6,6,0.4,0.4
2024-08-22T2100,2643A,109.0281,32.6939,安康市,安康市监测站,,46,46,30,16,15,76,,116,110,10,9,7,9,0.6,0.5
2024-08-22T2100,2644A,109.0072,32.6975,安康市,汉滨区检察院,,,45,26,31,21,78,,119,116,,8,8,8,0.5,0.4
2024-08-22T2100,2291A,117.0809,30.5177,安庆市,环科院,,30,28,26,21,17,55,,107,94,27,16,6,6,0.6,0.7
2024-08-22T2100,2292A,117.0331,30.5119,安庆市,马山宾馆,,33,25,20,23,20,51,,108,92,30,21,8,8,0.6,0.5
2024-08-22T2100,2294A,116.9896,30.6145,安庆市,安庆大学,,38,36,30,26,21,59,,111,102,18,13,7,9,0.6,0.6
2024-08-22T2100,3173A,117.0598,30.5351,安庆市,市人大,,34,34,26,18,18,74,,110,102,7,10,7,7,0.4,0.4
2024-08-22T2100,3122A,105.9606,26.2611,安顺市,伍家关,,,,,,,,,,,,,,,,
2024-08-22T2100,3123A,105.9408,26.2431,安顺市,凤凰山,,20,14,15,12,11,63,,86,83,6,5,7,7,0.4,0.5
2024-08-22T2100,3124A,105.9439,26.2564,安顺市,金钟山,,20,13,14,9,11,64,,88,84,6,3,5,5,0.6,0.6
2024-08-22T2100,3125A,105.8983,26.2481,安顺市,娄家坡,,20,9,17,3,11,64,,86,83,3,3,7,7,0.5,0.6
2024-08-22T2100,1818A,114.4839,36.0621,安阳市,棉研所,,,,,,,,,,,,,,,,
2024-08-22T2100,1819A,114.3551,36.1017,安阳市,红庙街,"颗粒物(PM10),臭氧1小时",58,65,49,36,25,166,,199,196,4,8,2,4,0.7,0.5
2024-08-22T2100,1820A,114.361,36.0681,安阳市,银杏小区,,,53,48,,17,161,,192,188,7,10,4,5,0.7,0.5
2024-08-22T2100,3141A,114.3922,36.0878,安阳市,信访局,臭氧1小时,65,64,47,30,19,172,,198,194,2,5,4,5,0.6,0.5
2024-08-22T2100,3669A,114.4705,36.0637,安阳市,左辅环卫站,"颗粒物(PM10),细颗粒物(PM2.5)",52,54,47,36,27,135,,181,176,16,13,5,6,0.7,0.5
2024-08-22T2100,3703A,114.2917,36.0949,安阳市,安钢职工学校,细颗粒物(PM2.5),65,72,50,47,25,156,,191,189,13,12,6,7,0.8,0.6
2024-08-22T2100,1748A,123.044,41.1196,鞍山市,深沟寺,,17,17,21,7,11,29,,63,59,11,12,4,4,0.6,0.8
2024-08-22T2100,1749A,123.011,41.0931,鞍山市,太阳城,,15,14,24,6,14,48,,65,65,9,10,4,4,0.5,0.7
2024-08-22T2100,1750A,123.0485,41.1442,鞍山市,太平,,20,20,27,9,14,45,,69,66,16,16,4,4,0.6,0.8
2024-08-22T2100,1751A,122.9642,41.0971,鞍山市,铁西三道街,,17,17,36,7,22,45,,64,61,21,23,11,10,0.9,1.5
2024-08-22T2100,1752A,122.9341,41.0833,鞍山市,铁西工业园区,,20,20,30,6,18,43,,73,70,24,17,15,8,2.0,1.2
2024-08-22T2100,1753A,123.022,41.0821,鞍山市,明达新区,,14,14,21,3,4,44,,63,62,10,11,3,3,0.4,0.6
2024-08-22T2100,1754A,123.1289,41.0228,鞍山市,千山,,,,,,,,,,,,,,,,
2024-08-22T2100,2195A,107.4212,40.761,巴彦淖尔市,附二中,,50,50,42,26,21,79,,108,102,19,17,4,7,0.6,0.6
2024-08-22T2100,2196A,107.37,40.7372,巴彦淖尔市,市环保大楼,颗粒物(PM10),56,62,39,12,11,66,,108,100,27,12,8,5,0.5,0.5
2024-08-22T2100,1956A,86.1472,41.7538,巴音郭楞蒙古自治州,孔雀公园,颗粒物(PM10),81,112,85,24,30,50,,113,102,64,21,6,6,0.4,0.3
2024-08-22T2100,1957A,86.1972,41.7166,巴音郭楞蒙古自治州,棉纺厂,颗粒物(PM10),76,101,90,32,30,88,,110,107,32,19,6,5,0.4,0.2
2024-08-22T2100,1958A,86.2357,41.7173,巴音郭楞蒙古自治州,经济开发区,,,,77,,34,,,110,110,9,6,5,6,0.2,0.2
2024-08-22T2100,2914A,106.7677,31.8794,巴中市,苏山坪,,48,29,32,24,24,151,,137,137,8,8,6,6,0.6,0.5
2024-08-22T2100,3182A,106.7656,31.8545,巴中市,丽阳花园,细颗粒物(PM2.5),73,66,37,53,28,75,,131,120,19,15,5,4,0.7,0.6
2024-08-22T2100,3183A,106.7418,31.8654,巴中市,圣泉水务公司,,43,40,34,30,26,66,,133,120,28,12,4,4,0.7,0.7
2024-08-22T2100,3616A,106.7616,31.8344,巴中市,市中心医院,细颗粒物(PM2.5),55,47,43,39,31,74,,130,121,22,15,6,5,0.8,0.8
2024-08-22T2100,2235A,122.7911,45.6077,白城市,洮北区环保局,,22,22,12,3,5,46,,85,74,22,8,7,7,0.6,0.4
2024-08-22T2100,2236A,122.8738,45.5725,白城市,市环保局,,,36,21,10,4,12,,88,58,,10,7,3,,0.4
2024-08-22T2100,2231A,126.4219,41.9171,白山市,喜丰,,23,23,20,6,6,40,,55,48,7,9,9,8,0.7,0.7
2024-08-22T2100,2232A,126.4077,41.9419,白山市,环保局,,,27,20,3,6,,,48,35,10,15,7,5,0.8,0.8
2024-08-22T2100,2647A,104.1724,36.5446,白银市,第三小学,颗粒物(PM10),55,60,42,19,22,139,,134,134,10,11,16,49,0.5,0.6
2024-08-22T2100,2648A,104.1465,36.5482,白银市,动力公司,,49,49,37,15,17,134,,130,130,8,12,7,24,0.3,0.5
2024-08-22T2100,2512A,106.6103,23.9011,百色市,市监测站,,32,32,32,14,16,23,,61,44,18,16,10,13,0.7,0.7
2024-08-22T2100,2513A,106.6538,23.8859,百色市,市中心血站,,30,30,35,18,21,29,,67,48,19,15,12,14,0.7,0.7
2024-08-22T2100,3406A,106.6085,23.8798,百色市,祈福高中,,42,42,35,17,17,22,,63,44,23,17,9,11,0.8,0.8
2024-08-22T2100,2270A,117.396,32.939,蚌埠市,工人疗养院,,42,42,47,16,21,110,,158,147,12,10,8,9,0.5,0.5
2024-08-22T2100,2271A,117.3605,32.9427,蚌埠市,百货大楼,,46,46,46,25,23,117,,160,154,9,7,6,7,0.5,0.5
2024-08-22T2100,2273A,117.4185,32.8911,蚌埠市,蚌埠学院,,41,41,48,18,27,81,,164,143,28,15,6,9,0.5,0.8
2024-08-22T2100,2274A,117.3533,32.9673,蚌埠市,淮上区政府,,48,48,47,22,26,127,,162,156,14,11,7,7,0.7,0.7
2024-08-22T2100,2275A,117.3145,32.8977,蚌埠市,高新区,,48,48,50,21,26,88,,162,147,21,21,5,7,0.6,0.7
2024-08-22T2100,3715A,117.3092,32.9314,蚌埠市,蚌埠田家炳中学,,44,44,50,26,26,116,,159,152,7,16,5,8,0.5,0.5
2024-08-22T2100,1585A,109.8756,40.6532,包头市,市环境监测站,,25,20,27,11,15,80,,138,122,18,21,6,10,0.4,0.5
2024-08-22T2100,1587A,109.9991,40.5842,包头市,包头八中,,30,30,35,6,16,63,,139,125,27,28,4,12,0.6,1
2024-08-22T2100,1588A,109.8538,40.6821,包头市,青山宾馆,,19,12,20,3,11,59,,129,110,32,21,5,9,0.5,0.6
2024-08-22T2100,1589A,109.8642,40.6288,包头市,惠龙物流,,26,14,24,7,12,83,,142,129,16,19,6,11,0.6,0.7
2024-08-22T2100,1590A,110.0377,40.5546,包头市,东河鸿龙湾,,30,30,36,16,17,70,,144,128,21,25,4,12,0.8,0.8
2024-08-22T2100,3283A,109.9154,40.5685,包头市,滨河大厦,,23,22,25,13,14,73,,139,126,19,28,8,12,0.6,0.7
2024-08-22T2100,3419A,109.9447,40.6261,包头市,包头市委党校,,24,15,24,9,13,76,,137,124,19,31,4,7,0.4,0.6
2024-08-22T2100,3683A,109.8331,40.6576,包头市,昆区政府,,25,16,21,6,12,77,,136,119,19,18,4,8,0.5,0.6
2024-08-22T2100,1930A,107.185,34.3063,宝鸡市,庙沟村,颗粒物(PM10),58,65,43,22,19,122,,155,154,11,13,7,7,0.5,0.4
2024-08-22T2100,1931A,107.0708,34.3017,宝鸡市,竹园沟,颗粒物(PM10),56,62,38,25,21,95,,150,142,16,13,8,8,0.6,0.6
2024-08-22T2100,1932A,107.1906,34.3672,宝鸡市,三陆医院,,48,46,50,28,27,151,,178,177,25,24,10,12,0.8,0.7
2024-08-22T2100,1933A,107.1431,34.3547,宝鸡市,监测站,颗粒物(PM10),85,119,81,51,30,93,,163,156,22,26,8,8,0.6,0.5
2024-08-22T2100,1934A,107.1186,34.3739,宝鸡市,技工学校,细颗粒物(PM2.5),55,55,43,39,26,102,,178,171,19,14,9,9,0.7,0.6
2024-08-22T2100,1935A,107.3906,34.3528,宝鸡市,陈仓区环保局家属楼,颗粒物(PM10),101,151,45,26,18,,,178,178,30,21,8,9,,0.6
2024-08-22T2100,1936A,107.2058,34.3497,宝鸡市,文理学院,细颗粒物(PM2.5),78,59,53,57,25,118,,183,177,33,19,10,11,0.7,0.6
2024-08-22T2100,1937A,107.2386,34.3622,宝鸡市,三迪小学,,44,44,50,25,29,126,,175,169,26,19,9,10,0.8,0.7
2024-08-22T2100,1051A,115.493,38.8632,保定市,游泳馆,,35,35,36,12,18,107,,136,133,16,26,2,3,0.2,0.3
2024-08-22T2100,1052A,115.5213,38.8959,保定市,华电二区,,43,43,35,19,18,109,,136,134,11,11,1,5,0.2,0.2
2024-08-22T2100,1053A,115.4713,38.9108,保定市,接待中心,,35,34,38,10,17,109,,124,124,8,10,1,2,0.4,0.5
2024-08-22T2100,1054A,115.4612,38.8416,保定市,地表水厂,,,68,50,13,19,96,,134,125,17,25,2,2,,0.4
2024-08-22T2100,3581A,115.31981,38.95208,保定市,满城区生态环境分局,颗粒物(PM10),51,51,38,17,15,114,,140,138,14,17,4,4,0.3,0.3
2024-08-22T2100,3582A,115.47694,38.76408,保定市,清苑区第二中学,颗粒物(PM10),54,58,49,27,25,72,,151,132,33,24,5,5,0.4,0.4
2024-08-22T2100,3583A,115.62909,39.02311,保定市,徐水物探局,,50,50,38,7,16,84,,128,122,19,24,3,4,0.4,0.5
2024-08-22T2100,4004A,115.4202,38.8656,保定市,双鹰农机,,45,45,39,24,20,84,,146,138,30,22,2,3,0.5,0.4
2024-08-22T2100,4034A,115.5150,38.8590,保定市,植保所站,,39,39,34,13,20,103,,152,145,19,17,5,3,0.5,0.5
2024-08-22T2100,2594A,99.1678,25.1081,保山市,市环境监测站,,40,40,27,25,13,81,,115,114,12,8,6,5,0.6,0.4
2024-08-22T2100,2595A,99.1711,25.1328,保山市,市环保局,,42,42,30,18,10,90,,114,114,8,6,6,6,0.6,0.5
2024-08-22T2100,1866A,109.2262,21.588,北海市,牛尾岭水库,,,,,,,,,,,,,,,,
2024-08-22T2100,1867A,109.1436,21.4086,北海市,海滩公园,颗粒物(PM10),63,75,40,3,6,65,,83,82,5,5,4,4,0.7,0.7
2024-08-22T2100,1868A,109.0981,21.4661,北海市,新市环保局,,20,16,18,12,8,63,,78,78,8,7,2,3,0.4,0.4
2024-08-22T2100,1869A,109.1778,21.5233,北海市,北海工业园,,25,,24,17,11,49,,72,72,10,8,4,4,0.4,0.4
2024-08-22T2100,3400A,109.1911,21.4415,北海市,龙潭自来水厂,,17,17,16,9,9,52,,82,80,12,6,3,4,0.5,0.4
2024-08-22T2100,1001A,116.3621,39.8784,北京市,万寿西宫,,35,30,22,14,11,110,,115,115,18,18,3,3,0.6,0.6
2024-08-22T2100,1002A,116.2202,40.2915,北京市,定陵,,8,8,15,3,7,20,,72,54,3,4,1,2,0.4,0.4
2024-08-22T2100,1003A,116.4174,39.9289,北京市,东四,,39,30,22,14,12,123,,123,123,19,19,2,2,0.8,0.8
2024-08-22T2100,1004A,116.4072,39.8863,北京市,天坛,,29,26,20,15,12,92,,108,106,13,14,3,3,0.5,0.5
2024-08-22T2100,1005A,116.462,39.9365,北京市,农展馆,,36,35,21,15,12,114,,112,112,13,17,8,7,0.5,0.5
2024-08-22T2100,1006A,116.3392,39.9295,北京市,官园,,36,30,23,20,12,114,,113,113,13,18,3,3,0.5,0.5
2024-08-22T2100,1007A,116.2878,39.9611,北京市,海淀万柳,,31,31,22,11,10,94,,98,97,15,18,3,2,0.4,0.3
2024-08-22T2100,1008A,116.6636,40.135,北京市,顺义新城,,29,26,24,20,13,75,,96,90,22,16,3,3,0.5,0.5
2024-08-22T2100,1009A,116.6275,40.3275,北京市,怀柔镇,,18,18,15,12,8,36,,87,74,15,7,5,5,0.5,0.5
2024-08-22T2100,1010A,116.2296,40.217,北京市,昌平镇,,17,17,16,8,8,43,,80,70,7,10,4,4,0.3,0.4
2024-08-22T2100,1011A,116.3966,39.9821,北京市,奥体中心,,31,24,21,13,10,98,,88,88,26,27,3,2,0.4,0.5
2024-08-22T2100,1012A,116.184,39.9136,北京市,古城,颗粒物(PM10),51,52,26,18,11,73,,110,105,33,19,2,1,0.5,0.5
2024-08-22T2100,3281A,115.9718,40.4529,北京市,延庆夏都,,21,21,17,9,8,39,,79,69,16,12,3,3,0.4,0.4
2024-08-22T2100,3417A,117.0709,40.1465,北京市,平谷新城,,26,26,22,14,13,72,,76,71,9,7,3,3,0.4,0.4
2024-08-22T2100,3418A,116.8336,40.4095,北京市,密云新城,,20,20,16,13,8,49,,78,73,4,5,3,3,0.4,0.4
2024-08-22T2100,3671A,116.088,39.9726,北京市,门头沟三家店,,38,38,24,18,10,36,,97,89,34,10,1,2,0.3,0.3
2024-08-22T2100,3672A,116.1541,39.8204,北京市,丰台云岗,,37,37,25,19,12,55,,120,111,19,16,3,3,0.4,0.4
2024-08-22T2100,3673A,116.6804,39.9081,北京市,通州东关,,45,23,24,13,8,142,,132,132,16,22,3,3,0.4,0.4
2024-08-22T2100,3674A,115.9577,39.7603,北京市,房山燕山,,28,28,24,14,10,62,,114,95,21,10,3,3,0.4,0.4
2024-08-22T2100,3675A,116.4672,39.7733,北京市,大兴旧宫,,31,25,25,15,15,98,,126,125,4,12,3,3,0.5,0.5
2024-08-22T2100,3694A,115.986,40.4563,北京市,延庆石河营,,15,15,17,7,10,35,,78,65,14,9,3,3,0.4,0.4
2024-08-22T2100,3695A,116.6151,40.3053,北京市,怀柔新城,,15,,16,10,8,46,,77,69,4,3,3,3,0.4,0.5
2024-08-22T2100,3696A,116.2545,39.8768,北京市,丰台小屯,,40,40,23,22,12,77,,110,108,31,18,5,5,0.3,0.4
2024-08-22T2100,3697A,116.84,40.3844,北京市,密云镇,,19,19,16,9,8,48,,77,72,12,14,3,3,0.5,0.4
2024-08-22T2100,1761A,123.8275,41.3064,本溪市,大峪,,22,22,28,13,11,46,,60,57,13,15,6,6,0.5,0.6
2024-08-22T2100,1762A,123.7567,41.3325,本溪市,溪湖,,17,15,22,6,10,52,,60,60,9,15,3,3,0.5,1
2024-08-22T2100,1763A,123.7169,41.3094,本溪市,彩屯,,16,15,23,10,16,49,,50,50,15,21,6,7,0.7,1.1
2024-08-22T2100,1764A,123.7669,41.2864,本溪市,东明,,22,22,24,11,9,53,,58,58,12,19,5,5,0.7,0.9
2024-08-22T2100,1765A,123.7992,41.2664,本溪市,新立屯,,18,18,17,3,4,50,,56,55,11,16,3,3,0.5,0.6
2024-08-22T2100,1766A,123.8142,41.3472,本溪市,威宁,,20,,18,14,12,37,,51,49,16,16,8,8,0.7,0.7
2024-08-22T2100,2587A,105.2864,27.3125,毕节市,八中,,42,38,34,29,25,111,,146,142,14,14,10,9,0.4,0.5
2024-08-22T2100,2588A,105.31,27.2944,毕节市,师专,,39,39,32,26,23,111,,143,140,15,17,10,11,0.5,0.5
2024-08-22T2100,3537A,105.3631,27.3533,毕节市,长征村,,42,34,36,29,31,119,,156,152,8,9,12,9,0.4,0.5
2024-08-22T2100,1629A,118.0018,37.3617,滨州市,第二水厂,颗粒物(PM10),53,56,43,29,29,108,,168,158,16,13,2,3,0.7,0.8
2024-08-22T2100,1630A,117.9776,37.393,滨州市,北中新校,,44,44,45,27,27,100,,152,143,20,16,4,6,0.6,0.6
2024-08-22T2100,3514A,117.9378,37.3956,滨州市,中海酒店,颗粒物(PM10),52,53,45,31,26,106,,171,157,27,16,5,6,0.7,0.6
2024-08-22T2100,3515A,117.9378,37.3553,滨州市,开发区一中,颗粒物(PM10),53,56,47,36,31,130,,171,162,22,18,5,7,0.6,0.6
2024-08-22T2100,3516A,118.0917,37.694,滨州市,金海六路,,46,46,45,27,27,97,,149,131,33,16,3,4,0.6,0.6
2024-08-22T2100,4028A,117.9956,37.3753,滨州市,滨州市西街道办事处,颗粒物(PM10),52,53,44,34,32,131,,179,171,12,8,4,5,0.7,0.7
2024-08-22T2100,2311A,115.8072,33.8399,亳州市,污水处理厂,,43,43,40,13,24,91,,120,117,17,13,11,8,0.6,0.6
2024-08-22T2100,2312A,115.7789,33.8518,亳州市,三国揽胜宫,,38,30,41,22,28,120,,141,139,11,10,5,5,0.5,0.5
2024-08-22T2100,3332A,115.7633,33.8034,亳州市,亳州学院,,37,30,33,19,22,116,,140,137,7,6,6,3,0.4,0.4
2024-08-22T2100,2693A,82.0485,44.8556,博尔塔拉蒙古自治州,市党校,,37,28,22,10,8,116,,124,124,13,8,6,7,0.4,0.4
2024-08-22T2100,2694A,82.0806,44.8969,博尔塔拉蒙古自治州,市环保局,,,,28,,9,,,118,118,14,11,5,5,0.4,0.4
2024-08-22T2100,1071A,116.8842,38.2991,沧州市,沧县城建局,颗粒物(PM10),54,57,42,34,26,142,,183,177,15,21,3,3,1.1,0.7
2024-08-22T2100,1072A,116.8584,38.3254,沧州市,电视转播站,颗粒物(PM10),54,57,40,36,27,146,,174,170,15,18,1,3,1.0,0.6
2024-08-22T2100,1073A,116.8709,38.3228,沧州市,市环保局,颗粒物(PM10),54,58,42,29,23,142,,177,172,15,18,5,3,0.8,0.5
2024-08-22T2100,3324A,116.8136,38.3004,沧州市,河北水利电力学院,颗粒物(PM10),59,68,49,39,40,114,,187,173,31,37,5,5,1.0,0.6
2024-08-22T2100,2622A,97.1806,31.1273,昌都市,昌都监测站,,16,16,10,10,7,35,,67,57,20,8,5,5,0.6,0.4
2024-08-22T2100,3719A,97.1714,31.1406,昌都市,昌都会议中心,,16,16,9,9,5,48,,75,64,13,4,7,6,0.4,0.3
2024-08-22T2100,2690A,88.1236,43.8886,昌吉回族自治州,天山天池,,27,17,10,9,4,86,,127,120,5,4,17,16,0.5,0.4
2024-08-22T2100,2692A,87.2717,44.0297,昌吉回族自治州,新区政务中心,,38,22,34,10,13,120,,149,148,18,35,10,11,0.6,0.8
2024-08-22T2100,3613A,87.3095,44.0142,昌吉回族自治州,亚心广场,,38,36,46,12,14,119,,150,148,27,39,4,6,0.4,0.6
2024-08-22T2100,1119A,125.3325,43.9166,长春市,食品厂,,19,19,14,11,10,38,,38,38,25,15,4,2,0.4,0.4
2024-08-22T2100,1120A,125.2863,43.9027,长春市,客车厂,,18,18,13,9,8,38,,38,38,24,13,6,5,0.5,0.4
2024-08-22T2100,1121A,125.2841,43.8463,长春市,邮电学院,,19,19,11,7,4,38,,40,40,14,10,6,6,0.4,0.4
2024-08-22T2100,1122A,125.3716,43.8772,长春市,劳动公园,,22,22,13,7,6,45,,43,43,21,13,7,6,0.6,0.6
2024-08-22T2100,1123A,125.3297,43.8805,长春市,园林处,,17,13,10,3,4,53,,42,42,13,10,3,2,0.5,0.5
2024-08-22T2100,1124A,125.4605,43.79,长春市,净月潭,,16,16,14,7,4,30,,35,35,12,7,6,5,0.4,0.4
2024-08-22T2100,1125A,125.7194,43.515,长春市,甩湾子,,,,,,,,,,,,,,,,
2024-08-22T2100,1126A,125.3863,43.8447,长春市,经开区环卫处,,18,18,13,6,4,51,,40,40,13,13,6,5,0.5,0.5
2024-08-22T2100,1127A,125.245,43.7783,长春市,高新区管委会,,,27,13,17,9,,,45,45,32,11,2,2,0.5,0.4
2024-08-22T2100,1128A,125.1761,43.8325,长春市,岱山公园,,16,16,11,6,6,18,,47,42,30,11,3,2,0.4,0.4
2024-08-22T2100,1335A,113.0833,28.2325,长沙市,经开区环保局,,32,32,39,16,19,80,,114,108,17,14,1,2,0.4,0.5
2024-08-22T2100,1336A,112.8872,28.2189,长沙市,高开区环保局,,36,36,36,13,20,94,,112,109,9,10,3,3,0.6,0.7
2024-08-22T2100,1337A,113.0792,28.2053,长沙市,马坡岭,,41,41,39,13,21,75,,112,106,13,11,3,4,0.5,0.6
2024-08-22T2100,1338A,112.9394,28.19,长沙市,湖南师范大学,,37,37,43,15,23,81,,120,114,13,14,4,5,0.5,0.8
2024-08-22T2100,1339A,113.0178,28.1322,长沙市,雨花区环保局,,34,34,38,16,20,83,,114,109,9,13,5,6,0.3,0.4
2024-08-22T2100,1340A,112.9792,28.2597,长沙市,伍家岭,,31,31,45,15,23,85,,116,111,7,16,3,4,0.6,0.7
2024-08-22T2100,1341A,113.0014,28.1944,长沙市,火车新站,,32,32,42,17,22,85,,121,114,9,11,4,5,0.4,0.5
2024-08-22T2100,1342A,112.9844,28.1178,长沙市,天心区环保局,,29,29,43,15,22,76,,112,106,13,15,3,4,0.8,0.8
2024-08-22T2100,1343A,112.8908,28.1308,长沙市,湖南中医药大学,,32,32,43,17,24,81,,118,113,17,16,6,6,0.5,0.6
2024-08-22T2100,1344A,112.9581,28.3611,长沙市,沙坪,,39,27,27,27,18,75,,127,119,12,10,8,8,0.7,0.7
2024-08-22T2100,1727A,113.1147,36.1547,长治市,清华站,,42,41,36,22,17,134,,185,173,16,16,6,7,0.6,0.5
2024-08-22T2100,1728A,113.1031,36.1989,长治市,监测站,,44,44,35,29,14,103,,184,170,36,19,8,8,1.0,0.9
2024-08-22T2100,1730A,113.0886,36.2125,长治市,审计局,,44,44,30,24,14,111,,172,161,43,19,7,6,0.7,0.7
2024-08-22T2100,1731A,113.0844,36.1856,长治市,长治八中,颗粒物(PM10),55,59,40,20,18,114,,176,165,31,19,7,7,0.6,0.6
2024-08-22T2100,2845A,113.1569,36.1911,长治市,德盛苑,,45,38,30,24,16,142,,190,181,12,8,8,9,1.8,0.9
2024-08-22T2100,3568A,113.06,36.0464,长治市,向阳小学,颗粒物(PM10),58,65,50,40,29,121,,186,166,24,12,8,10,0.6,0.5
2024-08-22T2100,3569A,112.8792,36.3144,长治市,屯留一中,颗粒物(PM10),60,69,43,34,22,118,,178,162,21,15,8,10,0.6,0.5
2024-08-22T2100,3570A,113.235,36.3489,长治市,潞城四中,颗粒物(PM10),51,52,51,28,32,158,,196,180,15,22,6,7,1.1,1.2
2024-08-22T2100,1854A,111.6975,28.9703,常德市,市二中,,43,38,36,30,25,95,,96,96,7,10,13,8,0.6,0.6
2024-08-22T2100,1857A,111.7158,29.1456,常德市,白鹤山,,,,,,,,,,,,,,,,
2024-08-22T2100,3138A,111.7153,29.0289,常德市,武陵区永安,,46,46,37,23,23,87,,96,95,6,10,14,9,0.6,0.6
2024-08-22T2100,3139A,111.6892,28.9881,常德市,鼎城区玉霞,颗粒物(PM10),52,53,38,28,28,95,,96,96,7,9,14,7,0.6,0.6
2024-08-22T2100,3140A,111.6625,29.0531,常德市,武陵区长庚,颗粒物(PM10),51,51,35,25,24,96,,97,97,9,8,11,8,0.7,0.6
2024-08-22T2100,1196A,119.9633,31.762,常州市,市监测站,,50,28,30,27,24,159,,170,168,20,12,5,7,0.6,0.7
2024-08-22T2100,1200A,119.9468,31.7069,常州市,武进监测站,,50,36,29,23,24,157,,158,158,12,8,56,13,1.2,1.2
2024-08-22T2100,1201A,119.9255,31.9087,常州市,安家,细颗粒物(PM2.5),53,,34,37,29,58,,130,112,56,20,6,5,0.9,0.8
2024-08-22T2100,3002A,119.9805,31.8174,常州市,行政中心,,,34,28,24,25,,,153,153,15,12,8,8,0.5,0.5
2024-08-22T2100,3003A,120.0522,31.7748,常州市,经开区,,45,37,33,23,21,144,,156,153,19,11,9,9,1.1,0.7
2024-08-22T2100,3010A,119.9025,31.7964,常州市,钟楼,,45,36,28,26,23,144,,140,140,13,14,6,6,0.7,0.8
2024-08-22T2100,3429A,119.8598,31.7066,常州市,武进经发区,,43,43,34,28,23,132,,149,147,24,13,8,10,0.6,0.7
2024-08-22T2100,3430A,119.5826,31.7245,常州市,金坛城区,,43,,29,25,20,137,,136,136,16,12,8,8,0.6,0.6
2024-08-22T2100,2220A,120.4318,41.5881,朝阳市,西梁,,,,,,,,,,,,,,,,
2024-08-22T2100,2221A,120.4521,41.5646,朝阳市,河畔小区,,20,20,22,9,11,27,,66,54,13,7,6,6,0.7,0.7
2024-08-22T2100,2222A,120.4176,41.5648,朝阳市,八里堡,,24,24,30,8,16,25,,69,53,27,13,6,5,0.8,0.7
2024-08-22T2100,2223A,120.3806,41.5969,朝阳市,农业园区,,12,12,18,6,13,12,,62,47,24,6,4,4,0.7,0.7
2024-08-22T2100,1705A,116.6367,23.6719,潮州市,西园路,,20,20,27,7,13,35,,51,47,11,15,3,5,0.3,0.4
2024-08-22T2100,3026A,116.6183,23.6608,潮州市,市政府,,20,20,31,11,12,46,,71,64,8,17,4,19,0.4,0.6
2024-08-22T2100,4036A,116.6461,23.6761,潮州市,金山,,20,15,29,14,17,40,,79,59,10,12,6,8,0.7,0.7
2024-08-22T2100,2472A,113.0073,25.9061,郴州市,马头岭,,20,20,15,3,5,39,,65,57,8,7,7,8,0.4,0.4
2024-08-22T2100,2473A,113.0116,25.8226,郴州市,市职中,,,,10,,6,,,75,67,8,4,6,8,0.2,0.3
2024-08-22T2100,2474A,113.0161,25.8001,郴州市,兴隆步行街,,15,11,12,10,6,45,,70,62,8,6,6,6,0.4,0.3
2024-08-22T2100,2475A,113.0383,25.8071,郴州市,市审计局,,25,22,10,17,6,44,,69,62,7,5,2,4,0.4,0.3
2024-08-22T2100,2476A,113.0348,25.7759,郴州市,市环保局,,24,24,18,10,4,47,,67,61,8,16,3,3,0.3,0.3
2024-08-22T2100,1431A,103.9728,30.7236,成都市,金泉两河,臭氧1小时,73,73,60,41,42,178,,233,230,15,13,2,4,0.7,0.7
2024-08-22T2100,1432A,104.176,30.6872,成都市,十里店,颗粒物(PM10),60,69,72,38,47,123,,225,211,19,18,3,4,0.8,0.8
2024-08-22T2100,1433A,104.079,30.5706,成都市,三瓦窑,颗粒物(PM10),53,56,66,36,46,132,,230,204,40,47,1,5,0.6,0.7
2024-08-22T2100,1434A,104.1114,30.63,成都市,沙河铺,细颗粒物(PM2.5),72,52,69,52,47,146,,236,218,22,23,6,8,0.6,0.6
2024-08-22T2100,1437A,104.0786,30.6531,成都市,君平街,臭氧1小时,72,55,69,33,45,177,,261,249,21,21,5,9,0.6,0.7
2024-08-22T2100,1438A,103.613,31.0283,成都市,灵岩寺,,,,,,,,,,,,,,,,
2024-08-22T2100,2880A,104.0239,30.65639,成都市,大石西路,颗粒物(PM10),53,56,61,36,44,161,,233,225,18,19,5,7,0.6,0.6
2024-08-22T2100,3136A,104.2725,30.5589,成都市,龙泉驿区区政府,细颗粒物(PM2.5),52,46,46,36,33,137,,205,185,10,13,4,6,0.7,0.7
2024-08-22T2100,3357A,104.0106,30.6931,成都市,金博路,颗粒物(PM10),56,62,65,38,37,157,,228,221,9,13,2,3,0.9,0.9
2024-08-22T2100,3359A,104.0578,30.5225,成都市,华阳,,50,48,62,34,38,160,,214,196,12,25,3,4,0.7,0.8
2024-08-22T2100,3487A,104.2394,30.5319,成都市,车城东七路,细颗粒物(PM2.5),58,52,61,41,51,160,,220,204,9,20,3,4,0.6,0.7
2024-08-22T2100,3488A,104.3853,30.7453,成都市,青白江技师分院,,48,42,42,33,33,141,,195,182,26,35,2,2,0.9,0.9
2024-08-22T2100,3489A,104.0789,30.4072,成都市,科学城,臭氧1小时,72,60,60,42,48,177,,198,188,7,17,4,4,0.6,0.6
2024-08-22T2100,4011A,103.8506,30.6947,成都市,光华大道三段,,,64,62,30,34,,,109,,17,16,2,3,,0.7
2024-08-22T2100,1062A,117.9531,40.9081,承德市,铁路,,32,32,26,10,11,41,,84,78,17,17,7,8,0.4,0.4
2024-08-22T2100,1063A,117.9392,40.9763,承德市,中国银行,,41,41,28,20,10,29,,86,76,18,15,4,4,0.5,0.4
2024-08-22T2100,1064A,117.9503,40.928,承德市,开发区,,26,26,27,13,10,38,,85,77,16,16,6,6,0.4,0.5
2024-08-22T2100,1065A,117.8051,40.9655,承德市,文化中心,,28,28,32,3,7,24,,88,70,22,17,6,7,0.4,0.4
2024-08-22T2100,1066A,117.9268,41.0026,承德市,离宫,,38,38,28,3,5,7,,46,31,8,8,1,2,0.4,0.5
2024-08-22T2100,2314A,117.47,30.6618,池州市,池州学院,,42,41,34,29,21,83,,113,107,7,7,5,5,0.6,0.7
2024-08-22T2100,3237A,117.4918,30.6617,池州市,展览馆,,38,38,32,25,19,82,,112,106,7,6,5,5,0.6,0.7
2024-08-22T2100,3333A,117.5627,30.695,池州市,第八中学,,37,37,29,23,19,52,,115,102,28,9,4,4,0.6,0.7
2024-08-22T2100,3334A,117.5038,30.6243,池州市,第十二中学,,39,39,34,27,19,55,,113,100,18,11,4,4,1.0,1.1
2024-08-22T2100,1744A,118.9233,42.2816,赤峰市,松山一中,,22,22,11,3,3,24,,59,50,31,17,10,10,0.9,0.7
2024-08-22T2100,1745A,118.9576,42.2728,赤峰市,哈达街,,39,31,13,27,6,34,,60,51,16,12,10,9,0.6,0.5
2024-08-22T2100,1746A,118.8788,42.2554,赤峰市,天义路,,25,23,12,17,10,38,,62,54,19,15,7,7,0.5,0.3
2024-08-22T2100,3058A,119.2658,42.0353,赤峰市,银河街,,17,17,13,3,8,32,,60,53,16,11,11,12,0.5,0.5
2024-08-22T2100,3286A,118.9359,42.3147,赤峰市,桥北物流园区,,23,22,11,16,7,13,,61,49,36,15,10,7,0.8,0.6
2024-08-22T2100,2521A,107.3476,22.4136,崇左市,市环保局江州分局,,,52,29,3,9,,,46,36,7,8,5,6,,0.6
2024-08-22T2100,2522A,107.3702,22.3707,崇左市,城南新区,,13,13,19,6,9,31,,48,40,6,6,3,4,0.5,0.5
2024-08-22T2100,2298A,118.3093,32.3153,滁州市,老年大学,,37,36,34,24,26,116,,144,143,10,7,7,7,0.5,0.5
2024-08-22T2100,2299A,118.3244,32.2786,滁州市,人大宾馆,,46,46,46,23,34,101,,146,138,21,12,6,7,0.6,0.6
2024-08-22T2100,3207A,118.3118,32.3038,滁州市,市政府原办公楼,,40,40,34,27,30,117,,137,136,14,9,7,7,0.6,0.7
2024-08-22T2100,3331A,118.3267,32.2634,滁州市,图书馆,,41,41,40,23,32,97,,142,137,19,8,4,5,0.4,0.4
2024-08-22T2100,2605A,101.5482,25.0441,楚雄彝族自治州,州环境监测站,,21,14,24,9,21,67,,111,101,5,12,4,5,0.5,0.5
2024-08-22T2100,2606A,101.538,25.0492,楚雄彝族自治州,市经济开发区,,42,42,31,12,20,65,,110,99,6,11,5,5,0.6,0.7
2024-08-22T2100,2548A,107.5277,31.2827,达州市,达州职业技术学院,颗粒物(PM10),62,74,52,36,27,36,,114,97,66,36,6,7,0.9,0.8
2024-08-22T2100,2549A,107.5086,31.2186,达州市,市环境监测站,颗粒物(PM10),53,55,48,31,24,53,,126,111,46,26,7,8,0.8,0.5
2024-08-22T2100,2550A,107.4988,31.2132,达州市,凤凰小区,颗粒物(PM10),53,56,40,36,26,62,,134,123,44,22,9,9,0.8,0.5
2024-08-22T2100,2551A,107.5082,31.1986,达州市,达县机关宾馆,颗粒物(PM10),51,51,44,26,21,58,,128,117,51,27,6,7,0.6,0.4
2024-08-22T2100,2552A,107.4644,31.2124,达州市,市政中心,颗粒物(PM10),55,60,63,34,28,64,,138,124,49,25,6,6,0.9,0.7
2024-08-22T2100,2614A,100.1542,25.7054,大理白族自治州,大理市环境监测站,,41,41,26,19,12,87,,113,112,23,10,4,4,0.6,0.6
2024-08-22T2100,2615A,100.2171,25.5811,大理白族自治州,大理古城,细颗粒物(PM2.5),59,46,27,42,15,91,,118,117,22,12,8,7,0.8,0.6
2024-08-22T2100,1109A,121.612,38.9741,大连市,甘井子,臭氧1小时,72,37,26,37,24,177,,170,170,24,17,7,7,0.7,0.4
2024-08-22T2100,1110A,121.565,38.9511,大连市,周水子,臭氧1小时,53,35,25,35,23,162,,164,164,20,22,7,7,0.9,0.9
2024-08-22T2100,1111A,121.5637,38.8845,大连市,星海三站,臭氧1小时,65,41,25,39,22,172,,165,165,12,9,8,8,0.6,0.5
2024-08-22T2100,1112A,121.6302,38.9117,大连市,青泥洼桥,,,51,32,41,23,175,,160,160,,10,7,7,,0.8
2024-08-22T2100,1113A,121.6251,38.8638,大连市,傅家庄,臭氧1小时,89,,22,41,22,191,,179,179,11,9,9,8,0.8,0.6
2024-08-22T2100,1114A,121.5213,38.8661,大连市,七贤岭,细颗粒物(PM2.5),64,56,28,46,23,168,,165,165,10,8,8,7,0.5,0.5
2024-08-22T2100,1115A,121.2529,38.8061,大连市,旅顺,,43,32,22,25,21,137,,178,174,35,13,9,9,0.7,0.7
2024-08-22T2100,1116A,121.7485,39.1311,大连市,金州,,47,30,27,30,27,148,,146,146,12,10,7,8,1.0,0.5
2024-08-22T2100,1117A,121.7811,39.0496,大连市,开发区,臭氧1小时,67,37,27,32,24,173,,163,163,7,8,10,10,0.8,0.6
2024-08-22T2100,1118A,121.9762,39.0631,大连市,双D港,,,40,31,33,23,,,157,157,12,13,6,7,1.2,0.6
2024-08-22T2100,1789A,124.81117,46.03138,大庆市,大同区,,24,23,11,14,13,76,,84,84,6,3,9,8,0.3,0.3
2024-08-22T2100,1790A,125.129,46.533,大庆市,龙凤区,,29,29,22,10,11,62,,86,81,20,8,3,3,0.4,0.3
2024-08-22T2100,1791A,124.902,46.408,大庆市,红岗区,,34,34,22,19,11,50,,85,78,19,7,8,8,0.4,0.4
2024-08-22T2100,1792A,125.153,46.586,大庆市,萨尔图区,,23,,14,9,8,72,,74,74,8,8,6,6,0.2,0.2
2024-08-22T2100,1793A,124.9042,46.6215,大庆市,让胡路区,,35,35,21,21,12,52,,80,74,18,6,5,7,0.2,0.2
2024-08-22T2100,3481A,125.141,46.634,大庆市,萨区政府监测点,,22,20,23,9,10,69,,80,78,7,8,7,7,0.2,0.2
2024-08-22T2100,1721A,113.3819,40.1097,大同市,果树场,,,,,,,,,,,,,,,,
2024-08-22T2100,1723A,113.2994,40.0758,大同市,云冈宾馆,颗粒物(PM10),66,81,27,35,10,93,,128,124,42,18,10,10,0.7,0.6
2024-08-22T2100,1724A,113.3444,40.0917,大同市,大同大学,,43,43,22,24,11,115,,128,128,23,19,9,11,0.5,0.5
2024-08-22T2100,1725A,113.2661,40.1269,大同市,安家小村,,49,49,30,14,7,91,,118,113,21,22,12,11,0.5,0.7
2024-08-22T2100,1726A,113.2711,40.0844,大同市,教育学院,颗粒物(PM10),59,68,35,35,13,100,,120,117,39,29,12,13,0.7,0.8
2024-08-22T2100,3282A,113.3397,40.0597,大同市,大同市卫生学校,,43,43,22,24,11,117,,131,130,22,17,10,10,0.7,0.7
2024-08-22T2100,3565A,113.1367,40.1122,大同市,云冈站,颗粒物(PM10),57,63,32,25,12,83,,120,111,17,25,10,13,0.6,0.5
2024-08-22T2100,3566A,113.1186,40.2556,大同市,图书馆,,32,23,18,22,10,53,,115,106,14,11,9,10,0.4,0.5
2024-08-22T2100,3567A,113.5931,40.0461,大同市,区一中,颗粒物(PM10),53,55,20,14,8,77,,121,117,21,13,9,8,0.6,0.5
2024-08-22T2100,3676A,113.2802,40.0995,大同市,第二人民医院,颗粒物(PM10),54,57,29,31,13,110,,127,125,29,19,12,12,0.6,0.7
2024-08-22T2100,2269A,124.1069,50.4097,大兴安岭地区,科技局,,41,41,18,16,15,48,,53,52,4,5,2,2,0.4,0.3
2024-08-22T2100,3663A,124.1164,50.4278,大兴安岭地区,红旗社区,,36,29,10,25,11,45,,49,49,3,7,6,6,0.4,0.3
2024-08-22T2100,1600A,124.3303,40.0625,丹东市,江湾东路,,14,6,12,6,8,42,,61,60,19,10,1,1,0.8,0.8
2024-08-22T2100,1601A,124.4256,40.1503,丹东市,临江后街,,21,7,9,3,6,66,,66,66,10,7,5,4,0.7,0.6
2024-08-22T2100,1602A,124.3933,40.1461,丹东市,元宝山,,20,10,9,3,7,62,,56,56,1,3,1,3,0.6,0.6
2024-08-22T2100,1603A,124.3633,40.1092,丹东市,民主桥,,20,11,13,3,6,61,,58,58,18,14,1,2,0.6,0.5
2024-08-22T2100,3541A,109.5726,19.5167,儋州市,第一中学子站,,20,20,14,13,9,43,,50,50,7,3,4,4,0.4,0.5
2024-08-22T2100,3542A,109.5567,19.5187,儋州市,东坡学校子站,,21,21,15,13,10,42,,52,51,6,3,2,3,0.6,0.6
2024-08-22T2100,2616A,98.5842,24.428,德宏傣族景颇族自治州,德宏州监测站,,25,20,17,17,11,38,,70,69,14,11,20,22,0.6,0.6
2024-08-22T2100,3677A,98.5881,24.4368,德宏傣族景颇族自治州,芒市人民政府综合楼,,23,23,19,10,11,37,,68,66,17,13,20,14,0.8,0.7
2024-08-22T2100,1901A,104.4239,31.1208,德阳市,东山公园,臭氧1小时,52,41,48,26,30,161,,181,178,8,13,3,8,0.6,0.7
2024-08-22T2100,1902A,104.3826,31.1317,德阳市,西小区,,43,43,50,30,33,128,,179,172,19,16,3,12,0.8,0.8
2024-08-22T2100,1904A,104.3553,31.1091,德阳市,耐火材料厂,颗粒物(PM10),52,54,56,34,33,125,,193,181,19,13,3,12,0.7,0.7
2024-08-22T2100,3639A,104.4019,31.1244,德阳市,市教育局,颗粒物(PM10),51,52,53,31,32,126,,180,172,23,18,2,8,0.7,0.7
2024-08-22T2100,1622A,116.3032,37.4674,德州市,儿童乐园,,49,48,46,22,26,154,,177,174,12,10,8,10,0.7,0.7
2024-08-22T2100,1624A,116.2991,37.4451,德州市,监理站,颗粒物(PM10),51,51,43,27,26,150,,178,174,13,10,8,10,0.7,0.7
2024-08-22T2100,3066A,116.2721,37.4379,德州市,九衢泉纯净水厂,颗粒物(PM10),52,53,45,24,29,118,,167,156,19,13,8,8,0.8,0.7
2024-08-22T2100,3371A,116.3728,37.4403,德州市,开发区人民医院,,48,48,46,27,24,135,,177,170,16,35,9,12,0.8,0.7
2024-08-22T2100,3372A,116.3572,37.4094,德州市,太阳城中学,颗粒物(PM10),56,61,47,29,28,111,,174,161,24,15,9,10,0.8,0.8
2024-08-22T2100,3511A,116.5652,37.3319,德州市,陵城艺术中心,颗粒物(PM10),56,61,46,24,20,136,,175,170,21,20,9,9,0.8,0.7
2024-08-22T2100,2621A,99.7056,27.8317,迪庆藏族自治州,迪庆州站,,31,26,23,18,18,97,,114,112,12,14,9,10,0.4,0.5
2024-08-22T2100,3180A,99.7136,27.8094,迪庆藏族自治州,质量技术监督局,,28,21,28,16,15,87,,108,106,24,15,14,10,0.6,0.6
2024-08-22T2100,2663A,104.6241,35.5734,定西市,东关小学,,38,38,30,26,24,97,,102,102,9,9,2,2,0.2,0.3
2024-08-22T2100,2664A,104.6194,35.5934,定西市,供电公司,,46,46,39,30,27,107,,108,108,4,5,5,6,0.2,0.2
2024-08-22T2100,1389A,113.7547,23.0494,东莞市,莞城梨川,,29,29,41,15,27,7,,62,38,48,38,6,6,0.9,0.9
2024-08-22T2100,1390A,113.7944,23.0128,东莞市,东城石井,,21,15,33,8,20,4,,51,30,42,33,4,5,0.7,0.7
2024-08-22T2100,1391A,113.7383,22.9658,东莞市,南城西平,,25,25,26,8,13,5,,42,26,45,32,1,2,0.6,0.6
2024-08-22T2100,3319A,113.7338,23.0381,东莞市,万江金泰,,25,24,37,16,25,1,,61,34,49,37,5,5,1.0,1
2024-08-22T2100,3626A,113.7533,23.0202,东莞市,南城元岭,,18,18,32,10,19,8,,40,26,34,31,6,7,0.8,0.8
2024-08-22T2100,3627A,113.7875,23.0457,东莞市,东城主山,,,32,44,19,27,,,55,35,48,37,8,8,0.7,0.7
2024-08-22T2100,1666A,118.6614,37.4309,东营市,市环保局,,46,46,39,24,25,137,,186,178,24,14,5,9,0.4,0.4
2024-08-22T2100,3036A,118.6904,37.4338,东营市,开发区管委会,颗粒物(PM10),51,52,45,24,25,141,,184,177,20,13,6,8,0.3,0.3
2024-08-22T2100,3365A,118.5719,37.565,东营市,垦利区民丰路,颗粒物(PM10),57,63,46,27,30,116,,151,144,18,12,7,7,0.4,0.4
2024-08-22T2100,3498A,118.5055,37.8612,东营市,河口城区,,38,31,35,22,25,120,,140,136,6,6,4,6,0.9,0.9
2024-08-22T2100,3646A,118.4978,37.4623,东营市,胜利站,,45,34,35,27,25,144,,162,159,13,16,6,7,0.6,0.6
2024-08-22T2100,3734A,118.35,37.26,东营市,理想之城,,45,39,39,31,30,126,,175,167,18,14,4,6,0.4,0.5
2024-08-22T2100,1591A,110.0023,39.8129,鄂尔多斯市,综合楼,颗粒物(PM10),64,78,51,14,14,76,,170,149,72,33,12,12,0.7,0.7
2024-08-22T2100,1592A,109.9486,39.8261,鄂尔多斯市,巴音孟克林场办事处,,,73,54,22,24,,,153,146,50,36,9,9,0.7,0.8
2024-08-22T2100,1593A,109.7736,39.5986,鄂尔多斯市,康泽苑,,,41,40,,14,,,157,148,35,17,6,7,0.7,0.5
2024-08-22T2100,1594A,109.8119,39.5989,鄂尔多斯市,华泰汽车城,,41,41,38,19,22,21,,146,117,81,28,7,9,0.8,0.5
2024-08-22T2100,1595A,109.9734,39.7884,鄂尔多斯市,奥林花园,颗粒物(PM10),58,66,52,19,19,80,,152,136,45,37,6,6,0.7,0.7
2024-08-22T2100,2436A,114.8938,30.3994,鄂州市,市政府,,46,46,45,23,19,120,,145,145,7,9,3,4,0.8,0.8
2024-08-22T2100,2437A,114.8989,30.3714,鄂州市,赵家坝,,48,48,42,20,19,109,,146,141,17,17,9,10,0.4,0.4
2024-08-22T2100,3654A,114.8094,30.4089,鄂州市,精准医疗中心,,45,45,46,24,23,110,,138,134,20,22,16,11,1.2,0.9
2024-08-22T2100,2454A,109.4978,30.2981,恩施土家族苗族自治州,湖北民院,,35,,27,24,21,76,,115,104,27,17,9,8,0.6,0.6
2024-08-22T2100,2455A,109.4707,30.2798,恩施土家族苗族自治州,州电力总公司,,,28,27,21,21,,,108,102,22,20,7,7,0.8,0.7
2024-08-22T2100,3549A,109.5061,30.3772,恩施土家族苗族自治州,龙凤新区,,31,31,25,9,18,56,,119,99,14,8,7,7,0.8,0.7
2024-08-22T2100,2499A,108.3411,21.6158,防城港市,沙万,,26,26,15,9,8,16,,44,34,27,14,7,9,0.9,0.7
2024-08-22T2100,2500A,108.3514,21.7731,防城港市,防城档案局,,18,18,32,11,11,8,,34,24,14,13,6,6,0.8,0.8
2024-08-22T2100,2501A,108.3506,21.6414,防城港市,大海花园,,36,36,16,10,5,9,,40,32,27,13,5,5,0.8,0.6
2024-08-22T2100,1371A,113.1294,23.0067,佛山市,湾梁,,23,,24,16,17,8,,75,55,31,27,6,7,0.7,0.8
2024-08-22T2100,1372A,113.1083,23.0478,佛山市,华材职中,,14,14,23,9,13,14,,76,57,28,28,6,6,0.4,0.5
2024-08-22T2100,1373A,113.144,23.0453,佛山市,南海气象局,,20,16,27,14,13,8,,71,53,25,24,4,5,0.5,0.6
2024-08-22T2100,1374A,113.2881,22.8094,佛山市,顺德苏岗,,24,24,20,9,9,0,,74,39,38,23,6,7,0.7,0.6
2024-08-22T2100,1376A,112.8383,22.8678,佛山市,高明孔堂,,16,16,23,7,10,20,,60,51,9,9,6,6,0.5,0.5
2024-08-22T2100,1377A,112.8836,23.1588,佛山市,三水监测站,,24,22,25,7,15,3,,76,58,47,31,4,4,0.6,0.6
2024-08-22T2100,1378A,112.867,23.185,佛山市,三水云东海,,24,24,28,11,19,0,,60,41,43,29,9,9,0.6,0.6
2024-08-22T2100,3625A,113.2544,22.7642,佛山市,容桂街道办,,23,17,19,14,14,2,,67,34,45,29,6,6,0.8,0.8
2024-08-22T2100,1280A,119.3903,26.0543,福州市,鼓山,,,,,,,,,,,,,,,,
2024-08-22T2100,1282A,119.2681,26.0504,福州市,师大,,30,30,24,3,9,19,,63,48,21,12,4,4,0.5,0.4
2024-08-22T2100,1283A,119.2984,26.1028,福州市,五四北路,,,,19,12,11,29,,75,62,33,14,3,3,0.5,0.4
2024-08-22T2100,1284A,119.2648,26.0768,福州市,杨桥西路,,36,36,24,9,9,21,,66,52,23,12,3,3,0.5,0.4
2024-08-22T2100,1285A,119.317,26.0746,福州市,紫阳,,38,38,26,16,13,19,,62,46,28,17,6,6,0.5,0.4
2024-08-22T2100,3048A,119.5799,26.0936,福州市,九龙,,27,27,24,10,12,38,,84,69,19,8,6,6,0.4,0.3
2024-08-22T2100,3526A,119.5189,25.9664,福州市,吴航,,19,19,25,9,15,43,,78,66,14,8,6,6,0.6,0.6
2024-08-22T2100,1755A,123.7977,41.8491,抚顺市,望花区,,15,15,18,7,10,45,,51,51,5,8,6,6,0.4,0.4
2024-08-22T2100,1756A,123.9161,41.8822,抚顺市,顺城区,,16,8,22,7,12,49,,50,50,8,16,2,3,0.3,0.5
2024-08-22T2100,1757A,124.0436,41.8611,抚顺市,东洲区,,16,16,18,9,10,44,,46,46,5,10,5,5,0.4,0.6
2024-08-22T2100,1758A,123.9247,41.8642,抚顺市,新抚区,,17,8,21,7,11,52,,50,50,6,14,6,6,0.2,0.5
2024-08-22T2100,1759A,124.0972,41.8961,抚顺市,大伙房水库,,15,15,15,9,10,42,,46,46,6,8,4,3,0.6,0.7
2024-08-22T2100,1760A,123.7086,41.8391,抚顺市,沈抚新城,,16,15,18,6,11,51,,58,58,5,10,5,6,0.4,0.5
2024-08-22T2100,2376A,116.2127,28.0814,抚州市,桐源党溪,,35,35,28,21,11,38,,82,67,8,4,5,5,0.8,0.9
2024-08-22T2100,2377A,116.3544,27.9831,抚州市,市站,,28,24,25,19,10,54,,70,63,12,5,4,4,0.5,0.5
2024-08-22T2100,2378A,116.3565,27.963,抚州市,血防站,,33,33,25,14,10,52,,70,62,12,5,5,4,0.5,0.5
2024-08-22T2100,2379A,116.3564,28.0007,抚州市,采茶剧团,,36,32,23,25,10,51,,76,66,10,6,4,4,0.6,0.6
2024-08-22T2100,2380A,116.385,27.9647,抚州市,医学分院,,31,31,26,15,9,40,,66,57,17,8,8,4,0.8,0.8
2024-08-22T2100,2207A,121.6094,41.998,阜新市,工业园区,,27,27,23,9,13,12,,51,40,30,16,3,14,0.6,0.7
2024-08-22T2100,2208A,121.6697,42.0279,阜新市,长青街,,20,20,20,9,12,18,,40,35,13,12,3,10,0.6,0.6
2024-08-22T2100,2209A,121.6673,42.0705,阜新市,农业园区,,13,6,20,3,7,40,,44,42,8,9,2,5,0.4,0.5
2024-08-22T2100,2210A,121.6717,42.0224,阜新市,东苑,,14,13,21,3,12,44,,57,57,13,13,5,17,0.4,0.5
2024-08-22T2100,2211A,121.6506,42.0498,阜新市,玉龙新城,,27,27,21,7,8,6,,47,36,21,14,4,8,0.6,0.6
2024-08-22T2100,2301A,115.8277,32.8929,阜阳市,市监测站,,41,41,36,23,21,86,,144,130,25,11,6,6,0.6,0.6
2024-08-22T2100,2303A,115.8554,32.8605,阜阳市,开发区,,48,48,45,20,21,110,,151,142,21,12,5,5,0.5,0.5
2024-08-22T2100,2875A,115.784,32.8892,阜阳市,阜阳职业技术学院,,40,40,37,17,20,128,,145,138,10,14,6,5,0.5,0.5
2024-08-22T2100,3468A,115.7901,32.8613,阜阳市,市规划展馆,,45,45,42,29,28,104,,149,137,20,12,6,6,0.6,0.6
2024-08-22T2100,3469A,115.836,32.9183,阜阳市,枣园社区,,40,,42,28,27,109,,141,130,19,18,5,5,0.6,0.6
2024-08-22T2100,2669A,102.9099,34.9841,甘南藏族自治州,州政府,,38,30,39,26,19,94,,115,111,6,21,8,9,0.4,0.5
2024-08-22T2100,3380A,102.8914,34.9617,甘南藏族自治州,甘肃民族师范学院,,42,38,25,29,12,101,,125,122,8,18,5,8,0.5,0.6
2024-08-22T2100,2570A,101.9603,30.0475,甘孜藏族自治州,水桥子,,,29,27,25,15,,,114,114,10,20,7,4,0.3,0.3
2024-08-22T2100,3065A,101.9533,29.9972,甘孜藏族自治州,州环保局,,31,31,23,20,9,91,,110,109,15,17,2,2,0.4,0.3
2024-08-22T2100,3414A,115.8347,28.932,赣江新区,桑海产业园,,36,36,30,18,16,67,,119,108,21,16,10,11,0.2,0.2
2024-08-22T2100,2362A,114.9017,25.9149,赣州市,通天岩,,,,,,,,,,,,,,,,
2024-08-22T2100,2363A,114.9367,25.8664,赣州市,地委,,28,28,19,14,11,55,,76,73,14,10,1,5,0.9,0.9
2024-08-22T2100,2364A,114.9461,25.8481,赣州市,气象台,,24,24,19,14,9,53,,72,69,7,9,13,11,0.5,0.5
2024-08-22T2100,2365A,114.9322,25.8333,赣州市,市图书馆,,24,24,16,11,7,37,,66,61,8,7,4,3,0.7,0.7
2024-08-22T2100,2366A,114.8905,25.8471,赣州市,华坚鞋城,,31,31,19,14,8,52,,73,68,10,6,1,2,0.4,0.3
2024-08-22T2100,3109A,115.0093,25.8613,赣州市,赣县区卫计委,,26,22,15,18,7,49,,74,70,17,12,6,6,0.7,0.6
2024-08-22T2100,2683A,106.2319,36.1417,固原市,马园,颗粒物(PM10),84,118,53,25,11,91,,126,122,30,17,5,5,0.8,0.7
2024-08-22T2100,2684A,106.2792,36.0022,固原市,监测站,颗粒物(PM10),52,54,28,29,22,119,,133,133,8,7,4,4,0.4,0.4
2024-08-22T2100,2685A,106.2375,36.0211,固原市,新区,,44,44,30,26,21,108,,124,123,10,8,6,6,0.5,0.4
2024-08-22T2100,3522A,106.2177,35.9959,固原市,原州区十五小,,35,32,30,19,19,111,,128,127,11,9,9,8,0.8,0.7
2024-08-22T2100,2543A,106.6308,30.5278,广安市,小平旧居,,,,,,,,,,,,,,,,
2024-08-22T2100,2544A,106.6303,30.4576,广安市,市委,,33,33,43,21,30,99,,155,146,24,15,8,9,0.5,0.5
2024-08-22T2100,2545A,106.6271,30.4663,广安市,友谊中学,,34,32,39,21,28,108,,152,145,23,17,6,8,0.5,0.6
2024-08-22T2100,2547A,106.6388,30.4551,广安市,广电花园,,32,32,42,18,29,89,,153,142,32,15,13,13,0.6,0.6
2024-08-22T2100,2902A,106.6351,30.4865,广安市,北辰小学,,43,43,51,24,31,83,,161,148,32,13,8,10,0.5,0.4
2024-08-22T2100,2523A,105.8945,32.4535,广元市,黑石坡,,42,32,32,29,27,105,,122,118,15,10,6,8,0.4,0.5
2024-08-22T2100,2524A,105.821,32.4444,广元市,老城,,29,25,31,12,17,91,,143,134,20,29,3,2,0.7,0.7
2024-08-22T2100,2526A,105.8628,32.4287,广元市,监测站,,37,37,30,15,18,94,,142,130,12,12,2,3,0.6,0.7
2024-08-22T2100,3617A,105.8047,32.4166,广元市,经开区,,43,40,47,30,33,111,,152,142,15,22,3,4,0.6,0.7
2024-08-22T2100,1345A,113.2347,23.1423,广州市,广雅中学,,18,14,19,10,12,18,,73,61,36,34,4,4,0.5,0.5
2024-08-22T2100,1346A,113.2612,23.105,广州市,市五中,,32,27,26,22,23,18,,78,62,34,32,3,4,0.6,0.7
2024-08-22T2100,1348A,113.3478,23.0916,广州市,广东商学院,,24,22,26,15,16,3,,67,52,48,31,3,4,0.6,0.7
2024-08-22T2100,1349A,113.4332,23.1047,广州市,市八十六中,,26,23,30,14,17,5,,60,44,51,41,4,5,0.7,0.7
2024-08-22T2100,1350A,113.3505,22.9483,广州市,番禺中学,,28,23,23,19,14,11,,84,55,39,31,4,4,0.5,0.5
2024-08-22T2100,1351A,113.2146,23.3916,广州市,花都师范,,22,18,22,8,11,11,,76,67,43,37,5,6,0.4,0.6
2024-08-22T2100,1352A,113.2597,23.1331,广州市,市监测站,,24,24,24,12,12,15,,69,59,32,30,4,5,0.4,0.5
2024-08-22T2100,1353A,113.5618,23.312,广州市,九龙镇镇龙,,15,13,29,10,20,27,,64,60,22,32,6,6,0.5,0.7
2024-08-22T2100,1354A,113.2765,23.1544,广州市,麓湖,,25,25,23,13,13,2,,66,53,46,31,4,4,0.7,0.7
2024-08-22T2100,1355A,113.443,23.3035,广州市,帽峰山森林公园,,9,9,22,3,12,26,,76,70,14,24,3,3,0.3,0.4
2024-08-22T2100,2846A,113.3221,23.1322,广州市,体育西,,30,28,26,21,16,6,,69,58,39,26,4,5,0.8,0.7
2024-08-22T2100,3298A,113.5717,23.5491,广州市,从化街口,,16,12,24,7,16,51,,87,86,14,19,6,7,0.7,0.8
2024-08-22T2100,3299A,113.3472,23.3692,广州市,白云竹料,,15,15,29,9,20,20,,76,67,27,29,4,4,0.6,0.7
2024-08-22T2100,3300A,113.2981,23.237,广州市,白云嘉禾,,23,20,27,8,13,6,,78,65,45,38,4,5,0.8,0.8
2024-08-22T2100,3301A,113.4256,23.1716,广州市,黄埔科学城,,22,21,30,11,18,6,,62,47,44,37,6,7,0.7,0.7
2024-08-22T2100,3302A,113.3942,23.0483,广州市,番禺大学城,,25,15,21,13,11,0,,40,27,50,32,7,6,0.6,0.6
2024-08-22T2100,3303A,113.4922,22.8168,广州市,南沙黄阁,,27,23,19,16,10,6,,55,29,53,26,5,4,0.8,0.7
2024-08-22T2100,3304A,113.5342,22.7896,广州市,南沙街,,26,20,18,18,7,12,,48,30,32,20,6,5,0.8,0.7
2024-08-22T2100,3443A,113.2902,23.5544,广州市,花都梯面,,13,13,28,6,15,26,,79,74,18,27,4,4,0.6,0.6
2024-08-22T2100,3445A,113.7858,23.7478,广州市,从化良口,,12,12,17,3,8,25,,58,53,14,14,5,5,0.7,0.7
2024-08-22T2100,3446A,113.8051,23.2614,广州市,增城荔城,,22,22,26,11,14,27,,78,68,23,26,6,7,0.6,0.6
2024-08-22T2100,2505A,109.568,23.1478,贵港市,德智高中,,,,,,,,,,,,,,,,
2024-08-22T2100,2506A,109.6047,23.0666,贵港市,江南子站,,19,19,30,12,12,47,,78,72,12,11,8,7,0.5,0.6
2024-08-22T2100,2507A,109.6014,23.0948,贵港市,贵城子站,,42,42,32,14,16,43,,76,70,13,13,8,7,0.6,0.6
2024-08-22T2100,2508A,109.5669,23.1065,贵港市,荷城子站,,,24,23,14,7,,,73,71,13,10,11,10,,0.5
2024-08-22T2100,3405A,109.5886,23.1172,贵港市,新世纪学校,,24,24,29,9,13,47,,76,72,10,11,9,10,0.5,0.6
2024-08-22T2100,1439A,106.6899,26.5998,贵阳市,马鞍山,,15,12,12,3,1,46,,76,71,9,6,4,4,0.4,0.3
2024-08-22T2100,1440A,106.6971,26.5694,贵阳市,市环保站,,23,17,24,16,17,45,,77,71,20,13,4,5,0.3,0.2
2024-08-22T2100,1441A,106.6243,26.6266,贵阳市,鉴湖路,,19,19,18,7,7,54,,78,74,10,6,8,6,0.5,0.4
2024-08-22T2100,1442A,106.7487,26.6343,贵阳市,燕子冲,,17,7,7,7,11,54,,85,77,12,7,6,7,0.5,0.5
2024-08-22T2100,1443A,106.6555,26.4365,贵阳市,碧云窝,,41,41,22,24,6,50,,74,70,11,7,9,7,0.4,0.4
2024-08-22T2100,1444A,106.694,26.5161,贵阳市,中院村,,27,27,22,14,10,43,,73,66,21,12,8,9,0.6,0.4
2024-08-22T2100,1445A,106.7109,26.6027,贵阳市,红边门,,18,12,20,12,18,47,,78,71,20,13,4,5,0.4,0.4
2024-08-22T2100,1446A,106.7164,26.5699,贵阳市,新华路,,15,9,17,3,10,47,,76,70,14,10,4,5,0.3,0.4
2024-08-22T2100,1447A,106.674,26.5424,贵阳市,太慈桥,,19,6,17,3,5,59,,79,76,8,8,7,6,0.4,0.4
2024-08-22T2100,1552A,106.805,26.3003,贵阳市,桐木岭,,,,,,,,,,,,,,,,
2024-08-22T2100,1862A,110.4144,25.3167,桂林市,电子科大尧山校区,,21,21,21,6,9,45,,58,55,4,5,4,7,0.5,0.5
2024-08-22T2100,1863A,110.2819,25.2697,桂林市,监测站,,21,21,17,12,11,38,,47,45,9,6,6,6,0.6,0.5
2024-08-22T2100,1864A,110.3089,25.2708,桂林市,龙隐路小学,,,28,17,,12,44,,52,51,6,5,5,6,0.4,0.3
2024-08-22T2100,1865A,110.2869,25.2178,桂林市,八中,,,,13,,5,,,39,,,6,,6,,0.5
2024-08-22T2100,3403A,110.1764,25.2381,桂林市,创业大厦,,18,12,12,12,12,46,,45,45,5,4,6,6,0.3,0.3
2024-08-22T2100,3531A,110.296,25.1253,桂林市,旅游学院,,16,7,7,3,6,50,,50,49,6,5,5,7,0.3,0.3
2024-08-22T2100,2674A,100.2561,34.4714,果洛藏族自治州,玛沁县大武镇,,33,28,32,18,11,104,,108,105,1,6,4,5,0.4,0.4
2024-08-22T2100,1129A,126.5422,45.755,哈尔滨市,岭北,,19,9,12,8,8,60,,55,55,11,8,9,9,0.5,0.4
2024-08-22T2100,1130A,126.561,45.8167,哈尔滨市,松北商大,,16,16,13,3,6,26,,32,29,25,13,8,7,0.6,0.5
2024-08-22T2100,1131A,126.979,45.5419,哈尔滨市,阿城会宁,,40,40,20,23,12,22,,36,31,21,12,6,6,0.9,0.6
2024-08-22T2100,1132A,126.599,45.7222,哈尔滨市,南岗学府路,,24,24,23,9,6,45,,43,43,12,7,6,6,0.5,0.4
2024-08-22T2100,1133A,126.689,45.7733,哈尔滨市,太平宏伟公园,,39,39,17,8,8,43,,39,37,15,12,2,3,0.4,0.4
2024-08-22T2100,1134A,126.635,45.7667,哈尔滨市,道外承德广场,,23,23,23,3,4,37,,38,37,18,15,12,11,0.4,0.2
2024-08-22T2100,1135A,126.685,45.7319,哈尔滨市,香坊红旗大街,,16,14,15,11,10,42,,42,42,17,13,3,3,0.6,0.6
2024-08-22T2100,1136A,126.6411,45.7258,哈尔滨市,动力和平路,,19,19,16,3,4,42,,40,40,16,13,5,6,0.5,0.4
2024-08-22T2100,1137A,126.593,45.7478,哈尔滨市,道里建国路,,20,20,16,7,8,34,,38,36,18,10,7,7,0.3,0.4
2024-08-22T2100,1138A,126.615,45.61,哈尔滨市,平房东轻厂,,41,41,20,13,7,6,,43,29,50,16,6,5,0.5,0.3
2024-08-22T2100,1139A,126.595,45.9855,哈尔滨市,呼兰师专,,15,15,13,6,7,42,,40,40,12,11,9,9,0.5,0.5
2024-08-22T2100,1140A,126.6206,45.6842,哈尔滨市,省农科院,,20,20,19,12,9,40,,38,37,17,15,5,4,0.5,0.5
2024-08-22T2100,2688A,93.5128,42.8172,哈密市,地区监测站,颗粒物(PM10),64,77,58,16,19,87,,130,126,42,21,3,3,0.4,0.3
2024-08-22T2100,2689A,93.4961,42.8328,哈密市,哈密师范学校,颗粒物(PM10),55,59,39,17,15,84,,128,122,32,20,4,5,1.0,0.6
2024-08-22T2100,2671A,100.9048,36.9639,海北藏族自治州,海晏县西海镇,颗粒物(PM10),69,87,46,34,24,158,,160,159,12,10,16,18,0.6,0.5
2024-08-22T2100,3867A,102.0738,36.5056,海东市,平安区公安北苑,,,67,59,31,25,147,,115,,,13,10,12,1.8,0.7
2024-08-22T2100,1409A,110.576,19.9507,海口市,东寨港,,,,,,,,,,,,,,,,
2024-08-22T2100,1410A,110.3232,20.0574,海口市,海南大学,,34,34,19,18,10,23,,73,60,24,10,6,6,0.4,0.4
2024-08-22T2100,1411A,110.283,20.0053,海口市,秀英海南医院,,27,27,21,15,11,9,,67,54,39,14,7,7,0.4,0.3
2024-08-22T2100,1412A,110.338,19.9969,海口市,海南师范大学,,25,18,20,17,11,23,,65,53,20,10,7,7,0.4,0.4
2024-08-22T2100,1413A,110.33,20.0356,海口市,龙华路环保局宿舍,,24,24,20,16,9,24,,65,54,20,8,7,7,0.4,0.3
2024-08-22T2100,3539A,110.5111,19.9736,海口市,桂林洋子站,,25,20,20,17,12,30,,56,50,9,7,6,6,0.3,0.3
2024-08-22T2100,2673A,100.6188,36.2866,海南藏族自治州,共和县恰卜恰镇,颗粒物(PM10),116,181,53,31,20,103,,154,142,11,19,17,16,0.4,0.6
2024-08-22T2100,2676A,97.3731,37.3753,海西蒙古族藏族自治州,德令哈市,颗粒物(PM10),87,123,116,31,36,86,,107,106,16,13,9,9,0.3,0.5
2024-08-22T2100,1048A,114.5302,36.6116,邯郸市,东污水处理厂,颗粒物(PM10),58,65,60,17,33,137,,131,,14,24,4,7,0.6,1.1
2024-08-22T2100,1049A,114.4918,36.5713,邯郸市,矿院,,45,42,54,22,31,144,,193,179,3,10,3,5,0.5,0.8
2024-08-22T2100,1050A,114.484,36.6133,邯郸市,丛台公园,,,,48,,29,151,,204,190,4,14,6,11,0.5,1.1
2024-08-22T2100,3458A,114.7895,36.5593,邯郸市,香泉濮院小区,颗粒物(PM10),54,57,49,17,17,161,,192,184,8,9,2,2,0.6,0.7
2024-08-22T2100,3579A,114.50634,36.77178,邯郸市,永年区实验高中,,,64,61,29,31,,,186,186,12,14,4,5,0.2,0.8
2024-08-22T2100,3580A,114.20016,36.44293,邯郸市,峰峰矿区临水派出所,,48,36,27,28,21,151,,201,192,7,5,4,7,0.5,0.8
2024-08-22T2100,2634A,106.9893,33.1842,汉中市,汉川机床厂子校,,,57,34,,21,81,,114,112,13,9,4,4,0.8,0.6
2024-08-22T2100,2635A,107.0154,33.0706,汉中市,市监测站,,39,39,40,23,23,93,,130,126,13,7,7,7,0.8,0.7
2024-08-22T2100,2636A,107.0089,33.1138,汉中市,鑫源开发区,细颗粒物(PM2.5),54,,41,38,26,73,,128,123,20,12,10,9,0.6,0.5
2024-08-22T2100,2637A,107.007,33.0323,汉中市,南郑大河坎水厂,,38,38,36,25,22,67,,128,121,19,7,8,8,0.7,0.6
2024-08-22T2100,1223A,120.2072,30.2111,杭州市,滨江,,40,40,27,19,11,107,,148,145,15,13,4,4,0.7,0.7
2024-08-22T2100,1224A,120.0633,30.2747,杭州市,西溪,,35,,14,24,12,56,,117,105,21,16,6,6,0.7,0.7
2024-08-22T2100,1226A,120.3461,30.3153,杭州市,下沙,颗粒物(PM10),53,56,27,22,12,81,,167,159,70,17,6,6,0.9,0.8
2024-08-22T2100,1227A,120.1269,30.2456,杭州市,卧龙桥,,32,27,18,22,13,37,,132,111,26,14,5,5,0.7,0.7
2024-08-22T2100,1228A,120.1903,30.2692,杭州市,浙江农大,,35,28,17,24,13,110,,144,141,20,18,8,7,0.7,0.6
2024-08-22T2100,1230A,120.1197,30.3119,杭州市,和睦小学,,41,37,19,27,12,130,,148,148,18,13,6,6,0.6,0.7
2024-08-22T2100,1231A,120.3019,30.4183,杭州市,临平镇,颗粒物(PM10),60,70,25,8,11,154,,173,172,34,16,5,4,0.9,0.7
2024-08-22T2100,1232A,120.2697,30.1819,杭州市,城厢镇,颗粒物(PM10),52,54,25,26,15,71,,159,148,42,14,6,5,0.8,0.8
2024-08-22T2100,1233A,120.0883,30.1808,杭州市,云栖,,23,21,14,16,9,20,,116,88,39,16,8,8,0.8,0.7
2024-08-22T2100,3557A,119.9464,30.0494,杭州市,镇二中,,48,48,26,30,19,34,,120,108,61,21,7,8,0.9,0.8
2024-08-22T2100,3558A,119.7183,30.2367,杭州市,市府大楼,,37,37,20,22,14,58,,117,109,20,11,5,5,0.7,0.6
2024-08-22T2100,3656A,120.1556,30.2864,杭州市,消防大队,,38,38,21,26,13,104,,145,143,24,14,7,7,1.0,0.9
2024-08-22T2100,1270A,117.1959,31.7848,合肥市,明珠广场,,32,27,32,22,26,94,,147,124,16,15,7,6,0.5,0.5
2024-08-22T2100,1271A,117.3072,31.8764,合肥市,三里街,,35,34,37,24,23,98,,140,117,14,16,4,4,0.5,0.6
2024-08-22T2100,1272A,117.2588,31.8707,合肥市,琥珀山庄,,39,39,41,26,26,110,,151,132,9,9,5,6,0.5,0.5
2024-08-22T2100,1273A,117.1604,31.9052,合肥市,董铺水库,,36,36,33,22,22,97,,123,111,7,9,2,2,0.4,0.4
2024-08-22T2100,1274A,117.25,31.8571,合肥市,长江中路,,45,36,40,31,27,101,,147,125,13,10,7,7,0.7,0.7
2024-08-22T2100,1275A,117.266,31.9436,合肥市,庐阳区,,37,31,35,22,20,117,,160,138,8,11,4,4,0.5,0.5
2024-08-22T2100,1276A,117.336,31.8586,合肥市,瑶海区,,33,29,42,23,24,85,,132,115,21,23,6,6,0.6,0.6
2024-08-22T2100,1277A,117.3027,31.7964,合肥市,包河区,,34,29,37,17,26,107,,138,123,8,12,6,6,0.4,0.5
2024-08-22T2100,1278A,117.2776,31.7385,合肥市,滨湖新区,,33,22,30,14,22,105,,124,115,7,12,7,7,0.6,0.6
2024-08-22T2100,1279A,117.1318,31.8403,合肥市,高新区,,30,27,34,18,24,94,,130,116,12,12,9,9,0.6,0.6
2024-08-22T2100,3464A,117.3803,31.9147,合肥市,高教基地,,32,26,35,22,25,99,,142,123,9,11,9,9,0.5,0.5
2024-08-22T2100,3614A,79.924,37.0877,和田地区,地区环保局,,,,492,,145,75,,92,90,,11,,7,0.6,0.6
2024-08-22T2100,3615A,79.9131,37.113,和田地区,市环保局,颗粒物(PM10),380,484,434,106,110,58,,89,84,24,15,7,7,0.7,0.6
2024-08-22T2100,2516A,108.2011,24.715,河池市,东仁乐园,,13,10,21,3,9,40,,47,47,8,9,4,5,0.6,0.6
2024-08-22T2100,2517A,108.0497,24.6947,河池市,市环保站,,17,17,15,8,15,32,,53,48,14,8,7,8,0.5,0.5
2024-08-22T2100,2518A,108.0983,24.6989,河池市,市疾控中心,,20,20,25,9,12,20,,49,45,23,15,7,10,0.6,0.6
2024-08-22T2100,1696A,114.6778,23.7569,河源市,源西,,30,,17,21,17,34,,62,60,25,16,4,4,0.6,0.5
2024-08-22T2100,1697A,114.6944,23.7586,河源市,东埔,,18,,17,12,12,49,,66,65,17,17,2,2,0.6,0.6
2024-08-22T2100,1698A,114.6892,23.7233,河源市,老城,,15,12,22,8,10,47,,68,67,12,14,4,4,0.5,0.5
2024-08-22T2100,1718A,115.4208,35.2464,菏泽市,气象局,,42,40,51,14,21,132,,188,174,14,23,5,5,0.4,0.3
2024-08-22T2100,1719A,115.4747,35.2375,菏泽市,市政协,,44,44,51,13,25,128,,180,167,11,17,4,5,0.3,0.3
2024-08-22T2100,3374A,115.5564,35.0891,菏泽市,定陶老年大学,,41,41,40,9,15,97,,152,141,15,13,6,8,0.5,0.4
2024-08-22T2100,3647A,115.4702,35.2706,菏泽市,菏泽医专,,42,40,46,8,18,133,,189,175,14,18,6,7,0.6,0.6
2024-08-22T2100,2514A,111.5264,24.4172,贺州市,环保小区,,18,18,18,8,7,47,,51,48,8,11,7,9,0.5,0.5
2024-08-22T2100,2515A,111.5608,24.4078,贺州市,政协大楼,,26,26,24,12,10,48,,56,51,11,11,7,8,0.4,0.5
2024-08-22T2100,3534A,111.4744,24.4553,贺州市,西湾,,20,20,20,13,10,35,,48,40,15,15,7,7,0.5,0.5
2024-08-22T2100,2385A,114.17,35.9019,鹤壁市,市监测站,细颗粒物(PM2.5),65,62,39,47,24,162,,197,195,12,7,3,8,0.7,0.5
2024-08-22T2100,2386A,114.2956,35.7511,鹤壁市,市交警支队,细颗粒物(PM2.5),62,63,47,44,28,156,,212,202,19,22,5,6,0.8,0.7
2024-08-22T2100,2387A,114.2878,35.7306,鹤壁市,迎宾馆,"细颗粒物(PM2.5),臭氧1小时",54,54,44,38,26,163,,224,214,21,20,6,7,0.8,0.7
2024-08-22T2100,3474A,114.2617,35.6822,鹤壁市,大新区,,,61,50,,,137,,215,197,21,25,4,5,0.6,0.5
2024-08-22T2100,3596A,114.1572,35.9603,鹤壁市,南山宾馆,,50,50,26,26,17,146,,192,188,8,5,4,8,0.5,0.2
2024-08-22T2100,2244A,130.2537,47.3416,鹤岗市,哈啤分公司,,,21,19,9,12,,,47,42,1,9,13,13,0.3,0.5
2024-08-22T2100,2245A,130.2684,47.3086,鹤岗市,斯达机电,,19,19,22,9,10,29,,48,41,4,12,13,14,0.3,0.4
2024-08-22T2100,2246A,130.3114,47.3388,鹤岗市,东山纸板厂,,38,,16,26,17,31,,36,32,2,13,16,16,0.3,0.5
2024-08-22T2100,2247A,130.1097,47.3382,鹤岗市,五号水库,,10,6,15,3,8,32,,51,44,4,7,12,11,0.1,0.2
2024-08-22T2100,2263A,127.4833,50.2524,黑河市,交通局,,37,37,24,19,13,42,,90,77,17,11,10,8,0.4,0.3
2024-08-22T2100,2264A,127.5144,50.2341,黑河市,环保局,,36,36,17,23,13,43,,90,80,26,9,5,5,0.4,0.2
2024-08-22T2100,2265A,127.5291,50.2472,黑河市,大黑河岛,,,,14,17,14,,,,,16,12,1,2,,
2024-08-22T2100,1074A,115.6838,37.7541,衡水市,电机北厂,颗粒物(PM10),57,63,48,20,28,129,,177,171,17,16,6,6,0.8,0.7
2024-08-22T2100,1075A,115.6303,37.7316,衡水市,市监测站,颗粒物(PM10),53,55,51,30,28,146,,179,172,13,16,6,6,0.9,0.7
2024-08-22T2100,3188A,115.6683,37.7217,衡水市,市城管局,颗粒物(PM10),53,56,52,20,28,147,,183,173,12,15,3,4,0.9,0.7
2024-08-22T2100,3459A,115.5989,37.5491,衡水市,地表水厂,,,109,61,35,28,,,191,183,28,27,3,9,0.8,0.6
2024-08-22T2100,2456A,112.5003,26.9167,衡阳市,原169医院,,40,40,22,11,13,32,,69,63,33,7,9,10,0.5,0.5
2024-08-22T2100,2457A,112.6194,26.9258,衡阳市,衡阳化工总厂,,,16,29,,,52,,75,70,13,7,7,10,0.5,0.6
2024-08-22T2100,2458A,112.6211,26.8956,衡阳市,珠晖区环保局,,,22,25,,,60,,76,72,9,6,6,11,0.6,0.7
2024-08-22T2100,2459A,112.6197,26.8733,衡阳市,市委党校,,28,,28,19,14,58,,78,74,13,8,9,12,0.6,0.6
2024-08-22T2100,2460A,112.6006,26.8919,衡阳市,市监测站,,27,27,23,18,16,55,,78,72,11,6,7,11,0.7,0.7
2024-08-22T2100,2461A,112.5664,26.9056,衡阳市,真空机电公司,,33,33,28,14,17,48,,73,68,18,10,8,14,0.7,1
2024-08-22T2100,3399A,112.6703,26.882,衡阳市,师范学院,,27,27,25,13,12,55,,74,70,9,8,7,8,0.5,0.5
2024-08-22T2100,2608A,103.3772,23.3993,红河哈尼族彝族自治州,污水处理厂,,19,14,9,13,7,21,,32,28,4,5,4,5,0.3,0.3
2024-08-22T2100,2609A,103.3861,23.35,红河哈尼族彝族自治州,监测站,,13,11,13,9,9,20,,32,29,4,5,8,10,0.3,0.3
2024-08-22T2100,3038A,103.3758,23.368,红河哈尼族彝族自治州,州图书馆,,10,,6,7,7,24,,35,29,4,5,5,5,0.2,0.2
2024-08-22T2100,1090A,111.6507,40.7517,呼和浩特市,呼市一监,,46,46,27,16,11,69,,135,120,28,16,10,9,0.6,0.5
2024-08-22T2100,1091A,111.6572,40.8033,呼和浩特市,小召,,22,22,18,14,10,65,,116,108,27,23,6,6,0.5,0.5
2024-08-22T2100,1094A,111.7516,40.8369,呼和浩特市,如意水处理厂,,22,16,14,6,7,68,,101,92,20,20,6,6,0.4,0.3
2024-08-22T2100,1095A,111.7276,40.8062,呼和浩特市,二十九中,,24,16,20,6,9,75,,118,110,23,22,3,4,0.5,0.5
2024-08-22T2100,1096A,111.5512,40.7866,呼和浩特市,工大金川校区,,31,31,23,3,9,57,,123,111,30,22,2,5,0.4,0.4
2024-08-22T2100,1097A,111.717,40.7612,呼和浩特市,化肥厂生活区,,,,31,,10,,,134,128,37,17,10,8,,0.5
2024-08-22T2100,3698A,111.5968,40.8178,呼和浩特市,红旗小学,,22,22,18,6,7,58,,110,100,29,19,3,3,0.4,0.4
2024-08-22T2100,3699A,111.6518,40.8389,呼和浩特市,海东办,,27,27,18,10,8,49,,106,95,39,28,6,5,0.7,0.7
2024-08-22T2100,2192A,119.7594,49.2261,呼伦贝尔市,区环保局,细颗粒物(PM2.5),219,200,68,169,60,39,,79,66,35,18,4,4,2.2,0.9
2024-08-22T2100,3061A,119.7512,49.1577,呼伦贝尔市,国华电力东,细颗粒物(PM2.5),223,205,61,173,48,61,,83,82,13,8,4,4,2.3,0.7
2024-08-22T2100,1250A,120.0751,30.8669,湖州市,城西水厂,,,36,26,23,18,,,167,167,32,23,4,3,,0.6
2024-08-22T2100,2873A,120.0875,30.8955,湖州市,仁皇山新区,,41,41,30,24,18,110,,169,164,26,23,7,7,0.8,0.7
2024-08-22T2100,2907A,120.1844,30.8596,湖州市,吴兴区站,,42,42,26,29,18,118,,164,160,32,18,7,7,0.6,0.5
2024-08-22T2100,3562A,120.4148,30.8538,湖州市,南浔区站,,39,38,31,23,20,122,,146,145,21,15,4,4,0.6,0.6
2024-08-22T2100,1607A,120.9092,40.7136,葫芦岛市,龙港区,,18,16,26,12,16,28,,75,57,18,20,13,13,0.8,0.6
2024-08-22T2100,1608A,120.8392,40.7514,葫芦岛市,化工街,,28,19,24,19,18,17,,79,50,32,23,2,19,0.8,0.7
2024-08-22T2100,1609A,120.8341,40.7073,葫芦岛市,新区,,25,25,29,14,20,7,,75,53,50,30,9,9,0.6,0.5
2024-08-22T2100,1610A,120.8695,40.7677,葫芦岛市,东城区,,30,,30,21,18,5,,78,47,42,25,5,11,0.6,0.5
2024-08-22T2100,2482A,109.5981,27.5721,怀化市,林科所,,19,19,18,6,8,46,,72,68,18,17,5,6,0.3,0.3
2024-08-22T2100,2483A,109.9453,27.5444,怀化市,河西地税局,,50,38,19,35,13,41,,76,68,10,6,10,10,0.7,0.5
2024-08-22T2100,2484A,109.9781,27.5342,怀化市,市四医院,,,18,27,17,14,,,77,74,12,8,4,5,0.5,0.6
2024-08-22T2100,2485A,109.9972,27.5578,怀化市,监测楼,,19,19,22,10,10,50,,77,72,8,7,6,5,0.5,0.6
2024-08-22T2100,2486A,110.0394,27.583,怀化市,市委党校,,25,19,21,17,12,50,,76,70,6,8,4,4,0.5,0.5
2024-08-22T2100,1210A,119.036,33.5981,淮安市,钵池山,,38,29,37,26,28,94,,148,136,17,13,8,8,0.7,0.9
2024-08-22T2100,1211A,119.007,33.575,淮安市,北京南路,,29,29,44,20,28,70,,137,122,22,15,4,6,0.8,1.1
2024-08-22T2100,1212A,118.989,33.6067,淮安市,市监测站,颗粒物(PM10),56,61,42,31,32,74,,150,137,36,16,8,7,3.0,0.8
2024-08-22T2100,1213A,119.135,33.5039,淮安市,楚州区监测站,,39,39,62,21,27,81,,148,129,18,21,5,6,0.6,0.7
2024-08-22T2100,1214A,119.0186,33.6297,淮安市,淮阴区监测站,,48,48,44,26,29,80,,150,136,31,16,8,5,1.6,0.7
2024-08-22T2100,3426A,118.8755,33.2894,淮安市,新华书店,,37,11,36,8,25,116,,145,128,12,13,6,6,0.6,0.7
2024-08-22T2100,2282A,116.8004,33.975,淮北市,监测站,颗粒物(PM10),51,51,45,26,26,137,,153,149,10,9,5,8,0.6,0.7
2024-08-22T2100,2283A,116.8091,33.9007,淮北市,烈山区政府,颗粒物(PM10),53,55,54,30,30,137,,158,153,11,19,5,7,0.6,0.6
2024-08-22T2100,3330A,116.8873,33.9836,淮北市,杜集区检察院,,50,50,50,30,34,112,,157,142,13,11,2,3,0.7,0.6
2024-08-22T2100,4017A,116.7923,33.9535,淮北市,市博物馆,,50,50,49,26,28,136,,154,151,12,12,5,6,0.8,0.8
2024-08-22T2100,2277A,116.8305,32.7727,淮南市,潘集区政府,颗粒物(PM10),53,55,46,31,26,113,,149,139,11,14,4,4,0.7,0.6
2024-08-22T2100,2278A,117.0067,32.6524,淮南市,师范学院,颗粒物(PM10),51,52,40,17,23,126,,155,147,11,6,4,4,0.6,0.5
2024-08-22T2100,2279A,116.8569,32.5951,淮南市,谢家集区政府,,37,24,33,20,26,116,,140,133,13,13,5,6,0.4,0.5
2024-08-22T2100,2280A,116.8281,32.633,淮南市,八公山区政府,,38,34,41,18,24,121,,147,138,9,9,4,5,0.4,0.4
2024-08-22T2100,2281A,116.6325,32.6201,淮南市,焦岗湖风景区管理处,,31,31,24,12,10,99,,99,99,10,7,4,4,0.2,0.3
2024-08-22T2100,2894A,117.0566,32.6531,淮南市,经济技术开发区消防队,,37,36,33,22,16,116,,152,144,15,9,4,5,0.5,0.4
2024-08-22T2100,3329A,117.0108,32.5893,淮南市,山南新区,颗粒物(PM10),54,58,46,24,25,120,,152,142,14,12,4,5,0.6,0.6
2024-08-22T2100,2446A,114.9028,30.4742,黄冈市,职工中心,,44,44,47,28,26,111,,142,137,15,20,9,11,0.4,0.5
2024-08-22T2100,2929A,114.8858,30.4519,黄冈市,红卫路,,45,45,43,24,27,114,,144,140,12,18,9,11,0.4,0.5
2024-08-22T2100,3398A,114.9136,30.4445,黄冈市,市林业局,,,,43,22,24,115,,151,147,14,21,7,8,0.5,0.6
2024-08-22T2100,2672A,102.0199,35.5102,黄南藏族自治州,同仁县隆务镇,颗粒物(PM10),60,70,36,31,16,130,,136,134,5,4,13,12,0.6,0.5
2024-08-22T2100,2295A,118.2903,29.6963,黄山市,延安路89号,,40,40,36,3,9,46,,96,87,8,4,5,5,0.6,0.6
2024-08-22T2100,2296A,118.327,29.7178,黄山市,黄山东路89号,,41,41,24,16,8,53,,98,89,9,5,4,4,0.5,0.5
2024-08-22T2100,2297A,118.1371,30.2756,黄山市,黄山区政府5号楼,,20,19,23,8,11,64,,94,87,5,5,6,6,0.5,0.5
2024-08-22T2100,2423A,115.0601,30.2313,黄石市,沈家营,颗粒物(PM10),60,69,55,18,20,109,,,,16,33,18,61,0.8,0.7
2024-08-22T2100,2424A,115.0817,30.2006,黄石市,陈家湾,颗粒物(PM10),62,73,54,19,21,112,,152,144,8,12,4,4,0.6,0.7
2024-08-22T2100,2426A,114.8988,30.2019,黄石市,铁山,颗粒物(PM10),51,51,40,23,18,120,,150,148,9,9,12,9,0.4,0.5
2024-08-22T2100,2427A,115.0307,30.2092,黄石市,团城山,颗粒物(PM10),51,51,46,24,21,112,,160,152,14,17,13,13,0.6,0.7
2024-08-22T2100,3149A,115.0235,30.1578,黄石市,笔架山北路,颗粒物(PM10),59,67,48,18,15,105,,147,140,13,14,8,9,0.5,0.5
2024-08-22T2100,1392A,114.4183,23.0528,惠州市,河南岸金山湖子站,,13,13,20,7,12,36,,65,57,12,13,4,5,0.6,0.6
2024-08-22T2100,1393A,114.4053,23.0822,惠州市,下埔横江三路子站,,15,9,23,7,12,47,,73,64,11,15,4,4,0.5,0.6
2024-08-22T2100,1394A,114.4103,23.1142,惠州市,江北云山西路子站,,15,11,21,6,11,46,,69,61,9,16,4,5,0.6,0.7
2024-08-22T2100,1395A,114.4645,22.7833,惠州市,惠阳区承修路船湖子站,,32,32,18,20,10,12,,52,38,37,24,5,4,0.9,0.6
2024-08-22T2100,1396A,114.5317,22.7422,惠州市,大亚湾管委会子站,,32,32,21,18,9,11,,58,40,47,23,6,7,0.8,0.5
2024-08-22T2100,3314A,114.4338,22.8134,惠州市,惠阳秋长,,22,22,17,13,10,6,,58,36,44,26,6,5,0.7,0.6
2024-08-22T2100,3452A,114.6517,22.775,惠州市,大亚湾霞涌,,13,13,17,3,8,31,,44,37,10,12,3,4,0.5,0.4
2024-08-22T2100,2240A,130.9762,45.3001,鸡西市,环保局,,29,29,26,12,10,23,,29,25,9,11,5,5,0.3,0.3
2024-08-22T2100,2243A,130.9429,45.3039,鸡西市,第一中学,,29,29,27,10,7,10,,31,23,19,11,5,4,0.3,0.3
2024-08-22T2100,3707A,131.0207,45.3073,鸡西市,欧美日汽修厂,,15,15,16,9,9,28,,33,28,8,8,3,4,0.3,0.4
2024-08-22T2100,3709A,130.9967,45.3106,鸡西市,市政设施管理处,,41,41,32,3,10,28,,30,27,12,16,5,5,0.3,0.3
2024-08-22T2100,2367A,114.9754,27.0803,吉安市,红声器材厂,,37,37,22,18,10,55,,68,67,12,8,9,11,0.5,0.6
2024-08-22T2100,2368A,114.9658,27.0999,吉安市,市森林工业局,,30,30,21,20,12,57,,70,69,10,9,8,9,0.4,0.4
2024-08-22T2100,2369A,114.99,27.1312,吉安市,市环境监测站,,28,28,18,16,8,60,,72,70,10,5,12,11,0.5,0.6
2024-08-22T2100,2370A,115.0093,27.0968,吉安市,青原区法院,,35,35,20,17,10,68,,72,72,9,8,9,9,0.5,0.5
2024-08-22T2100,1772A,126.54,43.8622,吉林市,哈达湾,,22,22,15,8,7,44,,39,39,13,10,12,5,0.5,0.5
2024-08-22T2100,1773A,126.5844,43.8358,吉林市,东局子,,19,19,17,10,8,41,,35,33,12,14,7,5,0.5,0.5
2024-08-22T2100,1774A,126.5052,43.8245,吉林市,电力学院,,20,20,16,3,7,38,,38,38,6,9,4,4,0.6,0.6
2024-08-22T2100,1775A,126.6133,43.8972,吉林市,江北,,28,28,26,12,13,33,,31,31,7,11,7,8,0.4,0.5
2024-08-22T2100,1776A,126.555,43.8306,吉林市,江南公园,,17,17,14,3,8,41,,37,36,16,12,7,4,0.6,1.2
2024-08-22T2100,1778A,126.7061,43.7133,吉林市,丰满,,,,,,,,,,,,,,,,
2024-08-22T2100,2868A,126.4739,43.953,吉林市,九站,,15,,12,7,10,46,,42,42,10,12,10,5,0.6,0.6
2024-08-22T2100,1299A,116.9862,36.6114,济南市,科干所,颗粒物(PM10),53,56,48,29,24,133,,168,160,17,25,6,6,0.8,0.7
2024-08-22T2100,1300A,116.9376,36.665,济南市,农科所,,49,49,40,29,22,111,,158,146,23,24,7,7,0.5,0.5
2024-08-22T2100,1301A,117.1265,36.6734,济南市,开发区,颗粒物(PM10),57,63,41,29,21,110,,174,159,32,22,7,8,0.7,0.6
2024-08-22T2100,1303A,117.0624,36.6868,济南市,省种子仓库,颗粒物(PM10),52,53,48,31,22,138,,177,169,26,34,6,6,0.6,0.6
2024-08-22T2100,1304A,116.9489,36.6447,济南市,机床二厂,颗粒物(PM10),56,61,49,27,16,134,,179,170,23,26,8,8,0.8,0.6
2024-08-22T2100,1305A,117.0495,36.663,济南市,市监测站,颗粒物(PM10),56,61,44,34,25,136,,178,170,24,29,8,9,0.7,0.6
2024-08-22T2100,1306A,116.7675,36.5484,济南市,长清党校,,48,42,37,27,24,153,,177,172,14,19,11,10,0.8,0.8
2024-08-22T2100,1616A,117.6795,36.229,济南市,技术学院,颗粒物(PM10),53,56,45,34,27,139,,165,159,18,19,16,12,3.4,1.4
2024-08-22T2100,1961A,117.532,36.6868,济南市,东山小学,颗粒物(PM10),53,56,41,20,19,106,,191,177,28,23,7,7,0.8,0.7
2024-08-22T2100,3059A,117.7161,36.2049,济南市,泰兴公司,颗粒物(PM10),68,85,51,31,27,141,,161,159,23,33,9,10,0.7,0.8
2024-08-22T2100,3064A,117.6867,36.2171,济南市,莱芜战役纪念馆,,44,39,49,24,24,139,,152,150,16,21,14,15,0.6,0.8
2024-08-22T2100,3494A,117.1673,36.9782,济南市,济阳区政府,颗粒物(PM10),58,66,56,32,27,155,,193,181,15,30,10,12,0.7,0.6
2024-08-22T2100,3495A,117.1171,36.63,济南市,锦屏中学,颗粒物(PM10),51,51,36,32,21,95,,173,156,17,12,9,9,0.7,0.6
2024-08-22T2100,3682A,116.9814,36.6819,济南市,济南四建,颗粒物(PM10),67,83,45,22,21,141,,170,164,17,28,7,7,0.7,0.7
2024-08-22T2100,1653A,116.6251,35.4302,济宁市,火炬城,,43,43,42,22,21,136,,163,160,14,15,9,9,0.8,0.8
2024-08-22T2100,1655A,116.5491,35.4042,济宁市,电化厂,,46,46,55,22,29,122,,166,158,28,26,8,8,0.8,0.7
2024-08-22T2100,3500A,116.5814,35.3707,济宁市,北湖一中,,38,38,48,24,22,120,,163,155,16,21,6,10,0.6,0.4
2024-08-22T2100,3501A,116.8249,35.5593,济宁市,服务中心,,38,38,46,22,26,120,,169,159,17,19,6,6,0.5,0.6
2024-08-22T2100,3678A,116.5907,35.4054,济宁市,市第七中学,,42,28,43,19,22,134,,166,162,17,19,6,6,0.7,0.7
2024-08-22T2100,2255A,130.2751,46.8028,佳木斯市,佳纺,,18,18,22,8,20,24,,53,49,11,12,9,12,0.5,0.6
2024-08-22T2100,2256A,130.3995,46.8307,佳木斯市,发电厂,,15,15,24,10,11,27,,46,45,4,14,5,6,0.5,0.6
2024-08-22T2100,2257A,130.3258,46.7975,佳木斯市,环保局,,18,18,26,8,12,23,,42,40,9,17,8,8,0.6,0.6
2024-08-22T2100,2258A,130.3648,46.8032,佳木斯市,十一中,,22,22,23,13,14,29,,42,41,8,20,6,6,0.4,0.6
2024-08-22T2100,2259A,130.3794,46.7588,佳木斯市,四丰,,,12,20,7,11,31,,42,40,,,1,1,0.5,0.5
2024-08-22T2100,1252A,120.7436,30.778,嘉兴市,清河小学,,49,49,29,25,14,147,,162,162,21,20,4,3,0.7,0.8
2024-08-22T2100,1253A,120.726,30.7478,嘉兴市,嘉兴学院,,49,49,38,31,18,119,,156,153,24,22,2,2,0.6,0.5
2024-08-22T2100,2872A,120.7846,30.7525,嘉兴市,南湖区残联,臭氧1小时,75,43,27,27,18,180,,194,193,13,16,5,4,0.6,0.6
2024-08-22T2100,3407A,120.6916,30.7739,嘉兴市,秀洲住建,,,44,29,27,18,81,,166,157,,17,3,3,0.7,0.6
2024-08-22T2100,1945A,98.2908,39.7711,嘉峪关市,气象局,颗粒物(PM10),69,88,59,19,15,105,,126,122,25,15,6,10,0.4,0.4
2024-08-22T2100,2884A,98.2672,39.7978,嘉峪关市,酒钢宾馆,颗粒物(PM10),67,83,61,24,20,113,,123,120,19,15,4,21,0.3,0.5
2024-08-22T2100,3248A,98.2643,39.7724,嘉峪关市,雄关区,颗粒物(PM10),60,70,55,20,15,118,,114,113,13,17,10,12,0.6,0.5
2024-08-22T2100,1383A,113.1064,22.6058,江门市,北街,,33,33,26,15,12,4,,54,28,47,21,5,4,0.8,0.7
2024-08-22T2100,1384A,113.0731,22.5835,江门市,西区,,45,45,24,20,11,2,,55,29,43,20,5,4,0.9,0.6
2024-08-22T2100,1385A,113.0219,22.5311,江门市,圭峰西,,28,28,22,18,9,3,,47,26,42,17,3,3,0.8,0.6
2024-08-22T2100,1386A,113.0828,22.5947,江门市,东湖,,34,34,23,14,10,3,,56,29,38,16,5,5,0.8,0.5
2024-08-22T2100,3311A,113.1075,22.5647,江门市,江海富民,,42,37,34,29,15,5,,55,27,49,21,8,6,0.9,0.6
2024-08-22T2100,3449A,113.05,22.4667,江门市,新会银湖,,31,31,21,21,7,5,,46,18,31,12,7,6,0.8,0.6
2024-08-22T2100,1828A,113.227,35.2125,焦作市,市环保局,,44,41,38,24,22,138,,204,190,20,16,3,6,0.6,0.6
2024-08-22T2100,1830A,113.1992,35.2590,焦作市,影视城,,,,,,,,,,,,,,,,
2024-08-22T2100,3169A,113.2725,35.2067,焦作市,太极体育中心,,50,50,47,21,22,127,,196,183,22,17,4,4,0.8,0.7
2024-08-22T2100,3335A,113.3137,35.2641,焦作市,马村街道办,颗粒物(PM10),63,75,37,38,20,133,,202,182,20,15,2,4,0.7,0.6
2024-08-22T2100,3336A,113.2465,35.2373,焦作市,焦作技师学院,颗粒物(PM10),53,56,38,27,19,127,,201,185,20,13,2,10,0.7,0.7
2024-08-22T2100,3477A,113.1656,35.2539,焦作市,中站许衡医院,,44,40,29,25,21,140,,192,178,16,18,4,8,0.6,0.7
2024-08-22T2100,3981A,113.2449,35.1803,焦作市,原李万街道办,,47,47,36,22,22,142,,195,182,19,18,6,8,0.4,0.5
2024-08-22T2100,1708A,116.3701,23.5345,揭阳市,新兴,,,,28,12,11,34,,74,64,20,16,3,4,0.8,0.7
2024-08-22T2100,1709A,116.3264,23.5443,揭阳市,西马,,20,16,30,14,13,34,,63,57,12,12,4,4,0.7,0.7
2024-08-22T2100,1710A,116.3611,23.5626,揭阳市,东兴,,15,,29,10,9,39,,69,62,12,13,4,5,0.9,0.9
2024-08-22T2100,1711A,116.4151,23.5294,揭阳市,渔湖,,19,,28,13,12,37,,80,71,20,19,6,5,0.6,0.7
2024-08-22T2100,3320A,116.403,23.5699,揭阳市,曲溪,,22,,26,15,10,39,,70,63,14,19,1,3,0.7,0.8
2024-08-22T2100,1944A,102.1692,38.5167,金昌市,天庆家园,颗粒物(PM10),52,54,69,10,30,125,,152,142,7,20,7,31,0.5,0.6
2024-08-22T2100,3170A,102.1864,38.5253,金昌市,市委党校,,41,20,49,9,24,131,,154,147,5,21,9,21,0.5,0.7
2024-08-22T2100,4022A,102.1647,38.5371,金昌市,金川区人防中心,颗粒物(PM10),52,54,62,7,26,129,,154,144,5,14,8,18,0.7,0.7
2024-08-22T2100,1262A,119.647,29.077,金华市,十五中,,48,48,32,12,17,85,,136,133,35,17,4,4,0.7,0.6
2024-08-22T2100,1263A,119.686,29.1029,金华市,监测站,,45,45,30,26,17,69,,142,136,51,18,5,6,0.7,0.6
2024-08-22T2100,3659A,119.656,29.1131,金华市,气象局,,,38,33,26,21,,,139,139,24,19,8,8,0.7,0.6
2024-08-22T2100,1767A,121.1115,41.0879,锦州市,南山,,21,21,24,14,16,16,,67,41,19,18,4,4,0.7,0.6
2024-08-22T2100,1768A,121.0533,40.8434,锦州市,开发区,,42,40,36,29,20,16,,66,44,32,30,14,6,1.3,0.9
2024-08-22T2100,1769A,121.1836,41.1119,锦州市,百股街道,,17,17,22,3,8,26,,58,42,15,20,4,4,0.7,0.7
2024-08-22T2100,1770A,121.1178,41.1222,锦州市,天安街道,,23,22,24,16,18,31,,62,45,19,17,6,6,0.9,0.8
2024-08-22T2100,1771A,121.1303,41.1386,锦州市,北湖公园,,22,22,22,10,15,26,,64,43,9,12,4,4,0.8,0.7
2024-08-22T2100,2160A,112.85,35.5051,晋城市,自来水公司,臭氧1小时,104,76,48,27,21,208,,212,212,16,23,12,10,1.1,1.2
2024-08-22T2100,2161A,112.8318,35.4936,晋城市,白云商贸,臭氧1小时,101,67,45,29,20,201,,204,204,19,22,12,11,1.2,1.3
2024-08-22T2100,2162A,112.8508,35.4887,晋城市,市环保局,臭氧1小时,88,68,53,31,23,190,,210,207,22,26,13,11,1.1,1.1
2024-08-22T2100,2163A,112.8676,35.4897,晋城市,技术学院,臭氧1小时,94,47,37,34,22,195,,214,213,18,26,12,11,1.0,1.1
2024-08-22T2100,2165A,112.8453,35.546,晋城市,白马寺,,,,,,,,,,,,,,,,
2024-08-22T2100,3620A,112.8271,35.4828,晋城市,泽州一中,臭氧1小时,70,30,47,19,21,176,,192,190,23,23,14,12,1.1,1.3
2024-08-22T2100,2171A,112.7532,37.6945,晋中市,锦纶小区,颗粒物(PM10),60,70,52,31,23,142,,188,183,31,21,12,11,0.7,0.6
2024-08-22T2100,2173A,112.7249,37.7067,晋中市,南都小区,颗粒物(PM10),56,61,51,35,31,156,,191,188,25,21,9,12,0.8,0.8
2024-08-22T2100,2174A,112.6991,37.6982,晋中市,榆次区政府,颗粒物(PM10),57,63,56,27,30,144,,186,181,24,22,10,12,0.4,0.6
2024-08-22T2100,2865A,112.7195,37.6828,晋中市,榆次三中,颗粒物(PM10),64,78,58,31,22,158,,184,181,20,21,10,11,0.8,0.8
2024-08-22T2100,2439A,112.2014,31.0481,荆门市,竹园小学,颗粒物(PM10),52,54,42,24,27,98,,144,136,13,16,11,11,0.6,0.6
2024-08-22T2100,2440A,112.1969,30.9891,荆门市,掇刀,,42,42,37,20,23,99,,148,139,13,17,7,7,0.6,0.6
2024-08-22T2100,2441A,112.2213,31.0386,荆门市,石化一小,,47,47,48,20,29,90,,150,140,17,22,21,15,0.6,0.6
2024-08-22T2100,3012A,112.1849,31.0362,荆门市,西山林语,,44,44,35,24,22,106,,146,140,11,13,9,8,0.6,0.6
2024-08-22T2100,3547A,112.1632,31.0138,荆门市,龙泉中学南校,,43,43,37,24,22,103,,146,139,9,16,9,9,0.6,0.6
2024-08-22T2100,1844A,112.2494,30.3197,荆州市,市图书馆,,45,44,35,31,25,96,,126,116,21,20,8,7,0.7,0.7
2024-08-22T2100,1845A,112.2008,30.3544,荆州市,市委党校,,39,39,30,27,23,109,,130,124,12,11,12,9,0.7,0.7
2024-08-22T2100,3194A,112.2747,30.3122,荆州市,管委会,,36,36,33,22,28,108,,130,123,10,14,6,7,0.7,0.7
2024-08-22T2100,3548A,112.1655,30.3364,荆州市,学苑路,,39,36,36,27,25,109,,132,123,10,11,6,7,0.8,0.7
2024-08-22T2100,2342A,117.3102,29.3867,景德镇市,王港中学,,,,,,,,,,,,,,,,
2024-08-22T2100,2343A,117.2117,29.2933,景德镇市,老干部活动中心,,34,34,24,14,16,50,,91,82,13,14,6,8,0.5,0.7
2024-08-22T2100,2344A,117.1894,29.2789,景德镇市,兽医站,,41,41,33,16,17,47,,90,80,12,15,6,12,0.8,0.7
2024-08-22T2100,2345A,117.1547,29.2617,景德镇市,台达陶瓷,,31,31,28,20,16,25,,82,73,57,22,34,23,0.6,0.4
2024-08-22T2100,2346A,117.2461,29.2956,景德镇市,陶研所,,30,30,30,13,10,52,,75,71,10,11,9,13,0.3,0.3
2024-08-22T2100,1803A,115.9872,29.6815,九江市,十里,,33,29,29,23,18,99,,113,110,11,16,8,9,0.7,0.7
2024-08-22T2100,1804A,115.9584,29.7046,九江市,茅山头,,38,32,26,26,18,105,,123,120,11,15,11,11,0.7,0.6
2024-08-22T2100,1805A,115.9877,29.7295,九江市,西园,,40,40,26,23,16,101,,118,115,7,23,8,9,0.4,0.5
2024-08-22T2100,1806A,116.0172,29.6547,九江市,五七二七厂,,32,28,21,22,17,99,,105,104,9,11,7,8,0.4,0.4
2024-08-22T2100,1808A,115.9114,29.6038,九江市,综合工业园,,45,45,25,30,20,67,,129,122,51,14,8,9,0.8,0.7
2024-08-22T2100,1809A,116.0721,29.7535,九江市,石化总厂,,41,41,33,26,18,93,,118,115,13,13,10,12,0.7,0.7
2024-08-22T2100,1810A,115.9773,29.5698,九江市,庐山气象台,,35,31,24,19,21,112,,120,115,2,3,10,8,1.2,1
2024-08-22T2100,3190A,116.0254,29.6994,九江市,外国语学校,,37,37,21,24,15,105,,118,117,9,12,8,10,0.6,0.6
2024-08-22T2100,2658A,98.5061,39.7443,酒泉市,仓门街子站,颗粒物(PM10),73,95,58,22,15,101,,124,121,19,12,20,12,0.5,0.3
2024-08-22T2100,2659A,98.4989,39.7256,酒泉市,油田生活基地,,,97,62,26,22,,,126,126,22,18,12,12,0.3,0.3
2024-08-22T2100,2698A,76.0072,39.4467,喀什地区,巡警大队,,43,43,63,8,8,109,,108,108,8,12,4,4,0.3,0.3
2024-08-22T2100,2699A,75.9755,39.4694,喀什地区,吾办,,40,40,66,16,21,101,,103,101,13,13,4,4,0.4,0.5
2024-08-22T2100,4027A,75.9483,39.4689,喀什地区,老干局,,41,41,72,6,9,100,,103,101,9,11,5,5,0.4,0.4
2024-08-22T2100,1824A,114.3389,34.7781,开封市,肿瘤医院,颗粒物(PM10),56,62,51,26,18,108,,182,171,25,18,5,6,0.5,0.5
2024-08-22T2100,1826A,114.2885,34.7965,开封市,世纪星幼儿园,,,53,46,,32,128,,179,171,14,15,4,5,0.6,0.6
2024-08-22T2100,3147A,114.3438,34.8106,开封市,龙亭公园,,41,41,44,17,18,118,,180,173,21,15,3,5,0.7,0.6
2024-08-22T2100,3210A,114.3644,34.7964,开封市,汴京公园,颗粒物(PM10),61,72,46,31,23,103,,186,173,31,14,6,6,0.5,0.4
2024-08-22T2100,3473A,114.2485,34.8306,开封市,技师学院,,46,36,52,22,21,146,,194,184,10,14,3,8,0.7,0.8
2024-08-22T2100,3592A,114.4644,34.7556,开封市,祥符区生态环境局,颗粒物(PM10),58,65,53,24,23,58,,171,140,52,33,4,5,0.6,0.6
2024-08-22T2100,1951A,84.895,45.6094,克拉玛依市,长征新村,,28,27,21,7,4,88,,116,114,25,6,6,7,0.4,0.3
2024-08-22T2100,1952A,84.8988,45.5893,克拉玛依市,南林小区,,29,29,20,9,8,36,,110,100,36,10,10,9,0.5,0.2
2024-08-22T2100,1954A,84.905,44.3396,克拉玛依市,独山子区,,35,28,27,6,13,109,,135,130,13,10,6,8,0.3,0.4
2024-08-22T2100,1955A,85.6979,46.098,克拉玛依市,乌尔禾区商贸楼,,30,30,21,3,7,96,,101,101,13,13,5,6,0.3,0.3
2024-08-22T2100,3612A,85.1045,45.6899,克拉玛依市,白碱滩区新站,,29,29,24,18,6,88,,121,118,23,8,9,9,0.3,0.3
2024-08-22T2100,2697A,76.1454,39.7142,克孜勒苏柯尔克孜自治州,市人民政府,,35,31,62,13,23,112,,116,116,6,15,1,9,0.5,0.6
2024-08-22T2100,3665A,76.1658,39.7157,克孜勒苏柯尔克孜自治州,克州文化中心,,39,39,48,13,20,115,,116,116,2,10,4,11,0.4,0.4
2024-08-22T2100,1450A,102.8204,24.8886,昆明市,呈贡新区,,22,22,28,12,11,55,,84,78,13,12,5,5,0.5,0.6
2024-08-22T2100,1451A,102.6251,24.9608,昆明市,西山森林公园,,,,,,,,,,,,,,,,
2024-08-22T2100,1452A,102.7252,25.0902,昆明市,龙泉镇,,34,34,23,8,11,57,,118,106,11,14,6,7,0.6,0.6
2024-08-22T2100,1453A,102.7266,25.0375,昆明市,东风东路,,17,17,21,9,11,46,,104,95,14,16,4,5,0.5,0.5
2024-08-22T2100,1454A,102.6742,25.0669,昆明市,金鼎山,,17,12,33,3,11,52,,109,98,8,12,7,8,0.3,0.4
2024-08-22T2100,1455A,102.6644,25.0401,昆明市,碧鸡广场,,15,12,24,3,12,45,,100,88,8,12,3,5,0.3,0.4
2024-08-22T2100,3179A,102.7494,25.0119,昆明市,官渡区博物馆,,17,16,20,3,11,52,,108,99,9,15,6,6,0.2,0.3
2024-08-22T2100,3375A,102.8017,24.8336,昆明市,青年创业园,,,15,15,10,10,,,88,85,11,12,3,3,,0.5
2024-08-22T2100,3550A,102.7997,24.9786,昆明市,昆明学院,,29,29,26,18,13,56,,100,93,13,19,8,6,0.5,0.5
2024-08-22T2100,3551A,102.5967,24.6736,昆明市,晋宁区生态环境分局,,25,25,32,7,15,40,,88,74,8,12,3,6,0.3,0.7
2024-08-22T2100,3552A,102.6678,24.9856,昆明市,云天化总部,,16,8,18,3,14,49,,100,91,4,8,5,6,0.5,0.6
2024-08-22T2100,1456A,91.1319,29.6514,拉萨市,八廓街,,21,,13,13,7,66,,90,89,17,13,7,7,0.3,0.3
2024-08-22T2100,1457A,91.1221,29.6747,拉萨市,市环保局,,,10,15,7,8,,,94,94,22,16,8,7,0.3,0.2
2024-08-22T2100,1458A,91.0874,29.6475,拉萨市,区监测站,,20,6,12,3,6,62,,86,85,20,18,8,8,0.2,0.2
2024-08-22T2100,1459A,91.1774,29.6541,拉萨市,西藏大学,,27,10,7,6,6,85,,96,96,8,7,6,9,0,0.3
2024-08-22T2100,1460A,90.9798,29.6588,拉萨市,区辐射站,,21,14,10,3,6,66,,83,82,19,11,8,8,0.2,0.2
2024-08-22T2100,1461A,91.0834,29.6292,拉萨市,拉萨火车站,,,,10,,7,,,86,86,,13,,5,,0.2
2024-08-22T2100,2520A,109.2203,23.7256,来宾市,来宾技工学校,,,,21,,10,26,,57,51,,11,,12,0.6,0.6
2024-08-22T2100,3535A,109.1781,23.7297,来宾市,兴宾区政府,,14,13,21,6,13,43,,59,57,6,8,5,9,0.7,0.8
2024-08-22T2100,4002A,109.2416,23.7461,来宾市,中南小学,,29,29,23,19,11,34,,70,64,18,11,12,11,0.8,0.7
2024-08-22T2100,1476A,103.631,36.1031,兰州市,兰炼宾馆,颗粒物(PM10),54,58,47,30,24,134,,159,148,5,28,14,21,0.4,0.6
2024-08-22T2100,1477A,104.1373,35.9454,兰州市,榆中兰大校区,,,,,,,,,,,,,,,,
2024-08-22T2100,1478A,103.8412,36.0726,兰州市,生物制品所,,49,44,48,34,25,123,,132,126,13,36,7,9,0.4,0.5
2024-08-22T2100,1479A,103.831,36.0464,兰州市,铁路设计院,,,46,51,36,29,,,132,124,23,50,8,12,0.5,0.7
2024-08-22T2100,3186A,103.7158,36.1058,兰州市,教育港,颗粒物(PM10),62,73,80,33,34,132,,151,143,8,43,7,13,0.3,0.6
2024-08-22T2100,3241A,103.7439,36.0842,兰州市,百合公园,,44,44,49,27,27,139,,152,142,9,45,9,12,0.2,0.6
2024-08-22T2100,3242A,103.9611,35.998,兰州市,和平,,41,40,39,28,20,130,,128,128,9,14,8,9,0.5,0.5
2024-08-22T2100,3245A,103.6633,36.533,兰州新区,新区管委会,颗粒物(PM10),53,55,45,30,23,149,,154,154,6,10,8,19,0.4,0.5
2024-08-22T2100,3246A,103.6975,36.4789,兰州新区,舟曲中学,颗粒物(PM10),52,53,49,20,22,144,,149,149,11,12,14,18,0.4,0.4
2024-08-22T2100,1067A,116.6708,39.5111,廊坊市,药材公司,,36,36,35,7,12,97,,154,147,24,19,1,2,0.5,0.4
2024-08-22T2100,1068A,116.7214,39.5589,廊坊市,开发区,,39,30,29,10,13,124,,147,146,20,14,1,1,0.4,0.4
2024-08-22T2100,1070A,116.7244,39.5269,廊坊市,北华航天学院,,42,42,40,10,12,121,,147,145,15,14,1,1,0.4,0.4
2024-08-22T2100,2919A,116.7022,39.5453,廊坊市,河北工业大学,,40,34,30,13,16,125,,156,153,17,14,2,2,0.4,0.4
2024-08-22T2100,2535A,103.7723,29.5462,乐山市,花湖湾,"颗粒物(PM10),细颗粒物(PM2.5)",75,100,60,55,52,164,,203,193,12,19,6,6,0.7,0.8
2024-08-22T2100,2536A,103.7627,29.5844,乐山市,牛耳桥,颗粒物(PM10),56,62,66,38,50,100,,197,180,42,26,2,2,0.8,0.8
2024-08-22T2100,2537A,103.7508,29.6006,乐山市,市第三水厂,细颗粒物(PM2.5),55,55,69,39,51,137,,204,192,24,26,2,4,0.9,0.8
2024-08-22T2100,2538A,103.7571,29.5664,乐山市,市监测站,细颗粒物(PM2.5),78,62,64,57,50,156,,208,197,9,19,4,7,0.7,0.8
2024-08-22T2100,3361A,103.7311,29.5628,乐山市,理工大学,细颗粒物(PM2.5),57,49,68,40,53,151,,222,203,12,20,4,7,0.7,1
2024-08-22T2100,2598A,100.2143,26.8576,丽江市,西南郊,,,,,,,,,,,,,,,,
2024-08-22T2100,2599A,100.2497,26.8802,丽江市,丽江古城,,29,29,25,20,18,90,,112,110,11,14,9,9,0.5,0.6
2024-08-22T2100,2600A,100.2203,26.8906,丽江市,市中心,,30,19,23,16,16,94,,119,116,14,10,9,9,0.7,0.6
2024-08-22T2100,1267A,119.914,28.4514,丽水市,监测站大楼,,25,25,17,13,8,70,,124,113,18,13,2,2,0.3,0.4
2024-08-22T2100,1268A,119.93,28.4586,丽水市,莲都小学,,32,32,26,3,7,73,,121,110,15,13,3,4,0.3,0.3
2024-08-22T2100,1269A,119.879,28.4231,丽水市,余庄前,,24,24,26,16,11,36,,110,96,19,10,3,3,0.4,0.4
2024-08-22T2100,1173A,119.176,34.5885,连云港市,市环境监测站,颗粒物(PM10),51,51,49,31,33,110,,163,144,19,18,6,14,0.4,0.5
2024-08-22T2100,3000A,119.3581,34.6972,连云港市,德源药业,,44,44,49,24,30,127,,176,150,16,18,4,8,0.5,0.6
2024-08-22T2100,3007A,119.178,34.844,连云港市,新城一中,,39,39,44,24,33,110,,175,153,15,14,3,5,0.7,0.9
2024-08-22T2100,3008A,119.3608,34.7519,连云港市,胡沟管理处,,43,36,45,24,29,136,,156,144,8,18,7,9,0.9,0.9
2024-08-22T2100,3009A,119.1478,34.5911,连云港市,矿山设计院,,46,46,51,31,32,123,,153,139,14,18,3,7,0.7,0.8
2024-08-22T2100,3434A,119.2413,34.6539,连云港市,工贸学校,,43,41,47,30,31,128,,168,151,6,10,6,10,0.7,0.8
2024-08-22T2100,3664A,119.4172,34.7341,连云港市,连云街道,,50,42,44,30,30,160,,174,164,10,13,3,5,0.6,0.6
2024-08-22T2100,2571A,102.3431,27.8099,凉山彝族自治州,青龙寺,,34,29,30,19,20,106,,155,149,6,6,6,10,0.4,0.3
2024-08-22T2100,2572A,102.2721,27.8415,凉山彝族自治州,邛海宾馆,,41,41,34,26,24,91,,166,154,26,15,11,15,0.6,0.8
2024-08-22T2100,2573A,102.2625,27.898,凉山彝族自治州,西昌市政府,,34,29,33,17,23,107,,167,162,9,10,12,14,0.8,0.9
2024-08-22T2100,2574A,102.2685,27.8851,凉山彝族自治州,凉山州政府,细颗粒物(PM2.5),59,64,38,42,24,98,,172,164,18,12,10,13,0.6,0.8
2024-08-22T2100,2575A,102.237,27.8914,凉山彝族自治州,长安,颗粒物(PM10),60,70,39,33,23,107,,167,162,14,17,12,13,0.8,1
2024-08-22T2100,2212A,123.2,41.1953,辽阳市,宏伟区,,21,21,23,7,7,42,,78,76,23,12,10,6,0.7,0.7
2024-08-22T2100,2213A,123.1683,41.2495,辽阳市,新华园,,16,16,21,8,9,41,,67,64,15,12,9,4,0.5,0.6
2024-08-22T2100,2214A,123.2354,41.2639,辽阳市,滨河路,,24,24,22,9,9,37,,65,63,17,15,8,8,0.4,0.4
2024-08-22T2100,2215A,123.149,41.2991,辽阳市,铁西工业园,,18,18,26,11,8,31,,59,56,16,13,12,8,1.0,0.9
2024-08-22T2100,2227A,125.1358,42.8845,辽源市,环保局,,19,19,16,8,3,53,,47,47,1,4,7,5,0.5,0.5
2024-08-22T2100,3239A,125.0764,42.9078,辽源市,银鹰制药,,16,6,9,3,4,49,,46,46,4,10,4,4,0.7,0.7
2024-08-22T2100,1625A,115.9848,36.4372,聊城市,区政府,,45,41,43,17,22,144,,174,167,15,18,9,10,0.5,0.5
2024-08-22T2100,2878A,116.0072,36.4343,聊城市,聊大东校,,41,41,44,24,29,121,,181,170,20,20,6,9,0.6,0.6
2024-08-22T2100,3200A,115.9819,36.4978,聊城市,监控中心,,46,46,46,17,22,140,,187,177,25,27,8,8,0.5,0.6
2024-08-22T2100,3513A,116.0445,36.4361,聊城市,九州社区,,,,,,,,,,,,,,,,
2024-08-22T2100,4018A,116.0567,36.4608,聊城市,星美广场,,33,25,56,18,26,104,,177,162,34,23,8,7,0.4,0.5
2024-08-22T2100,2632A,94.3681,29.6376,林芝市,林芝监测站,,14,10,6,6,4,43,,47,47,2,3,9,9,0.3,0.3
2024-08-22T2100,2633A,94.3616,29.6616,林芝市,林芝人民医院,,15,8,7,3,5,45,,51,51,3,6,7,7,0.2,0.2
2024-08-22T2100,2603A,100.0781,23.8982,临沧市,市环保局,,42,29,20,29,14,36,,73,64,11,9,4,6,0.4,0.3
2024-08-22T2100,2604A,100.0894,23.8822,临沧市,市气象局,,16,,16,11,12,42,,72,65,9,8,5,6,0.2,0.2
2024-08-22T2100,1733A,111.5531,36.0783,临汾市,临钢医院,,,,47,,20,101,,178,169,31,17,7,8,0.6,0.9
2024-08-22T2100,1734A,111.5028,36.0714,临汾市,技工学校,颗粒物(PM10),56,62,59,29,21,98,,196,184,42,24,5,5,0.8,0.9
2024-08-22T2100,1736A,111.5018,36.0855,临汾市,市委,颗粒物(PM10),55,60,49,22,21,96,,203,191,37,23,4,5,0.9,1
2024-08-22T2100,3018A,111.505,36.1014,临汾市,唐尧大酒店,,40,40,45,23,19,106,,183,173,24,21,4,4,0.6,0.7
2024-08-22T2100,3668A,111.5036,36.0414,临汾市,城南,颗粒物(PM10),70,90,60,26,21,62,,195,174,57,26,5,5,0.8,0.9
2024-08-22T2100,2667A,103.2069,35.5993,临夏回族自治州,环保局,颗粒物(PM10),62,74,64,37,25,81,,116,114,16,19,8,10,0.6,0.5
2024-08-22T2100,2668A,103.2417,35.6057,临夏回族自治州,建设大厦,颗粒物(PM10),53,56,45,33,24,89,,116,115,16,12,7,8,0.6,0.5
2024-08-22T2100,1618A,118.3429,35.0532,临沂市,沂河小区,,46,46,54,26,32,128,,164,159,19,23,12,13,0.4,0.6
2024-08-22T2100,1619A,118.295,35.0583,临沂市,鲁南制药厂,颗粒物(PM10),53,56,57,26,29,120,,174,166,28,29,7,9,0.4,0.5
2024-08-22T2100,1620A,118.2794,34.9976,临沂市,新光毛纺厂,,41,41,44,24,25,112,,169,160,30,26,9,10,0.7,0.7
2024-08-22T2100,1621A,118.3956,35.0888,临沂市,河东保险公司,,47,34,47,22,29,148,,172,169,20,26,10,11,0.5,0.6
2024-08-22T2100,3370A,118.3564,35.0215,临沂市,十里堡居委,,,56,45,27,31,112,,170,160,24,22,,12,0.7,0.7
2024-08-22T2100,3496A,118.3604,35.1084,临沂市,南坊新区,颗粒物(PM10),52,53,59,17,31,138,,177,167,21,25,10,12,0.6,0.8
2024-08-22T2100,3860A,118.3920,35.0300,临沂市,皇山花园小区,颗粒物(PM10),57,63,52,31,31,104,,160,151,31,25,9,12,0.6,0.6
2024-08-22T2100,1870A,109.4856,24.3895,柳州市,柳东小学,,38,38,22,3,9,44,,57,57,11,13,8,10,0.7,0.7
2024-08-22T2100,1871A,109.4157,24.3277,柳州市,环保监测站,,16,16,17,3,12,41,,58,58,15,11,8,8,0.9,0.9
2024-08-22T2100,1872A,109.389,24.341,柳州市,河西水厂,,,45,20,34,10,42,,57,57,13,10,7,6,,0.9
2024-08-22T2100,1873A,109.4311,24.2921,柳州市,市四中,,,,18,,7,33,,62,60,,12,,6,1.3,0.7
2024-08-22T2100,1874A,109.4006,24.3631,柳州市,市九中,,22,22,22,3,11,40,,62,62,11,10,6,5,0.6,0.6
2024-08-22T2100,1875A,109.4958,24.3134,柳州市,古亭山,,13,13,16,8,7,38,,59,59,15,15,6,6,0.9,0.8
2024-08-22T2100,3402A,109.5422,24.3996,柳州市,市二中,,19,19,16,6,7,39,,57,57,13,12,6,7,0.6,0.7
2024-08-22T2100,2307A,116.5079,31.737,六安市,监测大楼,,29,18,26,12,17,90,,138,118,6,10,5,6,0.4,0.5
2024-08-22T2100,2308A,116.4738,31.7643,六安市,皖西学院,,34,34,32,14,18,86,,143,119,10,8,4,4,0.6,0.7
2024-08-22T2100,2309A,116.4996,31.7905,六安市,朝阳厂,,,21,29,15,18,82,,140,116,,7,2,9,,0.1
2024-08-22T2100,2310A,116.5567,31.7886,六安市,开发区,,,,37,,21,,,93,,,10,,3,,0.4
2024-08-22T2100,2576A,104.8,26.5892,六盘水市,窑上,,,,,,,,,,,,,,,,
2024-08-22T2100,2577A,104.83,26.5917,六盘水市,黄土坡,,31,23,22,11,16,99,,124,121,9,7,6,7,0.4,0.4
2024-08-22T2100,2578A,104.89,26.5939,六盘水市,水钢,,32,18,29,14,13,101,,122,120,7,6,8,7,0.4,0.4
2024-08-22T2100,2579A,104.8475,26.5894,六盘水市,民中,,31,24,23,9,14,99,,123,120,8,6,7,7,0.4,0.4
2024-08-22T2100,2580A,104.9544,26.5506,六盘水市,双水,,28,22,26,10,13,88,,115,113,8,6,6,6,0.3,0.4
2024-08-22T2100,2335A,117.0189,25.1181,龙岩市,龙岩师专,,,,,,,,,,,,,,,,
2024-08-22T2100,2336A,117.0217,25.1033,龙岩市,龙岩市监测站,,16,16,11,11,5,17,,41,37,22,12,4,4,0.7,0.4
2024-08-22T2100,2337A,117.0258,25.0661,龙岩市,闽西职业技术学院,,23,23,13,11,6,8,,39,33,24,11,3,3,0.4,0.4
2024-08-22T2100,2338A,117.0196,25.0306,龙岩市,龙岩学院,,14,14,10,7,5,28,,42,36,2,4,1,2,0.3,0.3
2024-08-22T2100,2665A,105.0822,33.3261,陇南市,汉王镇固水子,,,,,,,,,,,,,,,,
2024-08-22T2100,2885A,104.9339,33.3826,陇南市,滨江中学,细颗粒物(PM2.5),79,74,57,58,28,111,,128,121,9,10,5,6,0.4,0.6
2024-08-22T2100,3247A,104.955,33.371,陇南市,市总工会,,48,48,42,14,18,117,,130,125,7,6,6,6,0.4,0.4
2024-08-22T2100,2487A,111.9589,27.8901,娄底市,电视发射台,,28,28,49,14,23,34,,92,74,5,6,7,7,0.5,0.7
2024-08-22T2100,2488A,111.9975,27.725,娄底市,市监测站,,22,19,36,15,23,58,,84,78,7,6,4,7,0.5,0.5
2024-08-22T2100,2489A,112.0194,27.7314,娄底市,市委党校,,34,34,36,19,22,50,,70,64,9,7,8,9,0.5,0.5
2024-08-22T2100,2490A,111.9561,27.7569,娄底市,涟钢,,25,25,46,3,27,54,,58,58,9,17,8,11,0.2,1
2024-08-22T2100,2491A,111.9892,27.7044,娄底市,市政府,,23,,33,16,21,58,,82,76,7,8,6,6,0.3,0.4
2024-08-22T2100,1893A,105.4324,28.9634,泸州市,九狮山,颗粒物(PM10),52,53,44,30,35,62,,149,132,42,48,5,5,0.5,0.4
2024-08-22T2100,1894A,105.4427,28.9063,泸州市,小市上码头,颗粒物(PM10),51,51,51,29,33,126,,160,154,16,19,6,8,0.4,0.5
2024-08-22T2100,1895A,105.4241,28.8573,泸州市,兰田宪桥,,35,35,47,20,38,94,,153,140,30,19,9,8,0.5,0.5
2024-08-22T2100,1896A,105.4379,28.8833,泸州市,市环监站,,37,37,50,25,37,107,,149,141,28,15,6,7,0.5,0.5
2024-08-22T2100,3490A,105.3617,28.7703,泸州市,纳溪区环保局,细颗粒物(PM2.5),58,,55,41,44,69,,154,138,44,27,5,6,0.6,0.6
2024-08-22T2100,2183A,111.1406,37.5211,吕梁市,环保局,颗粒物(PM10),73,96,42,31,21,51,,161,143,49,22,5,4,0.6,0.4
2024-08-22T2100,2185A,111.1297,37.5136,吕梁市,自来水公司,颗粒物(PM10),58,65,51,24,18,78,,161,148,29,20,4,4,0.7,0.5
2024-08-22T2100,2867A,111.1283,37.51,吕梁市,马茂庄小学,颗粒物(PM10),69,87,58,18,19,67,,172,155,35,27,6,3,0.6,0.5
2024-08-22T2100,1812A,112.3931,34.6516,洛阳市,市委党校,颗粒物(PM10),52,53,36,35,22,108,,163,155,29,20,19,7,1.0,0.8
2024-08-22T2100,1814A,112.4657,34.6871,洛阳市,豫西宾馆,,48,48,43,26,21,108,,164,154,22,26,14,6,0.7,0.6
2024-08-22T2100,1815A,112.494,34.6886,洛阳市,河南林校,,50,50,34,35,21,95,,167,156,28,23,11,5,0.8,0.7
2024-08-22T2100,1816A,112.3844,34.623,洛阳市,开发区管委会,,36,32,26,25,18,92,,151,136,14,12,6,3,0.6,0.5
2024-08-22T2100,1817A,112.4267,34.6258,洛阳市,市委新办公区,,40,35,27,28,21,46,,157,133,72,17,12,5,0.8,0.6
2024-08-22T2100,3340A,112.6005,34.6326,洛阳市,伊滨,颗粒物(PM10),53,56,34,29,18,67,,151,136,12,8,5,6,0.6,0.5
2024-08-22T2100,3341A,112.4951,34.6332,洛阳市,中移产业园,,34,34,30,21,20,93,,163,151,18,14,7,6,0.6,0.7
2024-08-22T2100,3593A,112.5736,34.8993,洛阳市,吉利监测站,颗粒物(PM10),51,51,35,34,18,62,,174,159,38,16,1,3,0.7,0.7
2024-08-22T2100,3635A,112.3677,34.662,洛阳市,河科大西苑校区,,42,42,30,12,15,64,,165,147,47,20,9,7,0.9,0.7
2024-08-22T2100,3636A,112.4388,34.6781,洛阳市,英才小学,颗粒物(PM10),51,52,37,33,25,112,,168,156,25,20,22,6,0.8,0.7
2024-08-22T2100,2399A,114.051,33.5699,漯河市,三五一五工厂,颗粒物(PM10),61,71,38,32,22,120,,154,150,17,16,6,7,0.7,0.6
2024-08-22T2100,2400A,114.0055,33.5698,漯河市,漯河大学,颗粒物(PM10),54,57,40,29,23,143,,161,159,8,17,10,10,0.8,0.6
2024-08-22T2100,2401A,114.0138,33.5828,漯河市,市水利局,颗粒物(PM10),54,58,36,31,19,130,,153,151,10,14,8,8,0.8,0.6
2024-08-22T2100,2402A,114.0261,33.5698,漯河市,市广电局,细颗粒物(PM2.5),52,51,34,36,16,136,,156,154,9,13,9,7,0.8,0.6
2024-08-22T2100,3478A,113.9749,33.5664,漯河市,市图书馆,细颗粒物(PM2.5),55,44,45,39,25,146,,166,164,9,15,5,7,0.8,0.6
2024-08-22T2100,3479A,114.0967,33.5906,漯河市,召陵区卫健委,颗粒物(PM10),63,76,42,36,30,86,,156,143,30,28,2,3,0.8,0.6
2024-08-22T2100,1798A,118.5092,31.6837,马鞍山市,湖东路四小,,42,34,43,29,24,94,,159,146,27,19,7,7,0.8,1
2024-08-22T2100,1799A,118.5024,31.6449,马鞍山市,开发区,,42,42,37,27,22,79,,151,131,34,24,4,4,0.8,0.9
2024-08-22T2100,1800A,118.5228,31.7231,马鞍山市,慈湖,,38,38,44,23,23,101,,156,145,18,18,5,6,0.7,0.9
2024-08-22T2100,1802A,118.6245,31.7241,马鞍山市,濮塘,,35,29,32,24,24,66,,158,134,21,18,5,6,0.8,0.9
2024-08-22T2100,3633A,118.4918,31.6809,马鞍山市,雨山,,36,36,29,23,22,81,,154,140,23,14,6,6,0.6,0.9
2024-08-22T2100,1686A,111.0286,21.4688,茂名市,电白南海,,28,24,30,19,18,54,,83,78,10,11,7,7,0.5,0.4
2024-08-22T2100,1687A,110.9294,21.6533,茂名市,茂石化七小,,29,29,22,14,16,47,,70,64,9,7,4,6,0.4,0.4
2024-08-22T2100,1688A,110.9107,21.6687,茂名市,健康路,,,,18,,7,,,72,69,9,7,9,11,0.5,0.6
2024-08-22T2100,1689A,110.8592,21.6828,茂名市,高岭,,31,31,18,3,7,42,,65,60,14,10,11,12,0.4,0.4
2024-08-22T2100,3450A,111.01,21.5165,茂名市,电白水东,,25,19,22,17,13,52,,71,69,8,9,4,6,0.4,0.4
2024-08-22T2100,2539A,104.0308,30.0478,眉山市,黑龙滩水库,细颗粒物(PM2.5),97,,54,72,39,101,,172,145,7,10,5,7,0.6,0.5
2024-08-22T2100,2540A,103.8416,30.0874,眉山市,气象局,颗粒物(PM10),54,58,56,36,43,153,,220,208,16,32,8,10,0.7,0.7
2024-08-22T2100,3137A,103.8578,30.0744,眉山市,市委党校,细颗粒物(PM2.5),55,58,60,39,38,148,,217,203,17,25,9,10,0.6,0.5
2024-08-22T2100,3148A,103.8291,30.0564,眉山市,区人社局,细颗粒物(PM2.5),83,78,50,61,38,138,,218,200,24,38,6,8,0.8,0.6
2024-08-22T2100,1690A,116.1231,24.3284,梅州市,梅江月梅,,16,14,17,11,7,36,,48,47,2,7,6,7,0.4,0.4
2024-08-22T2100,1691A,116.0797,24.2719,梅州市,梅县新城,,18,18,16,7,7,34,,41,40,10,7,4,5,0.5,0.4
2024-08-22T2100,1692A,116.1248,24.2654,梅州市,环境监控中心,,,41,22,20,7,,,40,39,33,13,4,5,0.5,0.4
2024-08-22T2100,3315A,116.1233,24.2991,梅州市,梅龙,,23,,10,16,8,26,,48,46,16,8,8,8,0.7,0.5
2024-08-22T2100,1878A,104.7778,31.4741,绵阳市,富乐山,,50,42,46,35,35,124,,153,148,5,13,4,3,0.8,0.8
2024-08-22T2100,1879A,104.7563,31.4535,绵阳市,市人大,颗粒物(PM10),53,55,60,35,36,122,,165,160,32,23,6,10,0.7,0.7
2024-08-22T2100,1880A,104.6697,31.4668,绵阳市,高新区自来水公司,颗粒物(PM10),54,58,55,36,31,95,,177,166,50,20,16,15,0.7,0.7
2024-08-22T2100,1881A,104.7287,31.5075,绵阳市,三水厂,"颗粒物(PM10),细颗粒物(PM2.5)",52,54,74,36,43,104,,167,160,35,24,4,5,0.9,0.9
2024-08-22T2100,3491A,104.69,31.5322,绵阳市,西科大附属小学,细颗粒物(PM2.5),62,65,57,44,37,75,,163,153,48,22,12,11,0.7,0.7
2024-08-22T2100,3492A,104.5648,31.5343,绵阳市,安州区旅游局,细颗粒物(PM2.5),70,54,49,51,39,136,,191,186,17,13,4,7,0.8,0.7
2024-08-22T2100,1784A,129.61,44.561,牡丹江市,环保大楼,,16,15,13,9,11,50,,40,40,14,11,7,7,0.4,0.3
2024-08-22T2100,1785A,129.6115,44.5782,牡丹江市,文化广场,,29,29,17,15,17,44,,36,36,15,13,8,8,0.4,0.4
2024-08-22T2100,1786A,129.5904,44.5963,牡丹江市,第一医院,,21,21,18,11,12,48,,31,31,6,10,5,5,0.5,0.4
2024-08-22T2100,1787A,129.6364,44.6075,牡丹江市,机车工厂,,37,37,22,23,14,45,,31,31,8,10,6,14,0.5,0.4
2024-08-22T2100,1788A,129.6386,44.5462,牡丹江市,第一中学,,32,32,20,11,11,56,,36,36,10,11,5,5,0.4,0.4
2024-08-22T2100,2531A,105.0703,29.61,内江市,市监测站,细颗粒物(PM2.5),92,105,54,68,48,115,,201,191,48,22,7,9,0.8,0.6
2024-08-22T2100,2532A,105.0717,29.5947,内江市,东兴区政府,,,,50,,48,150,,171,169,31,20,,7,,1
2024-08-22T2100,2533A,105.0653,29.5817,内江市,内江二中,细颗粒物(PM2.5),64,58,51,46,46,150,,181,179,28,20,7,8,0.9,0.9
2024-08-22T2100,2534A,105.0406,29.5822,内江市,内江日报社,细颗粒物(PM2.5),67,51,56,48,53,120,,196,187,49,26,10,10,0.7,0.6
2024-08-22T2100,2628A,92.0657,31.4846,那曲市,那曲监测站,,33,33,27,14,21,73,,67,67,5,6,7,5,0.3,0.3
2024-08-22T2100,3128A,92.0506,31.4797,那曲市,那曲会议中心,,28,26,21,7,7,87,,77,77,5,7,4,4,0.4,0.4
2024-08-22T2100,1290A,115.8931,28.6843,南昌市,省外办,,30,30,31,19,17,78,,128,118,9,12,8,11,0.5,0.5
2024-08-22T2100,1291A,115.8886,28.7003,南昌市,省林业公司,,27,27,24,14,12,73,,125,116,8,9,6,8,0.6,0.6
2024-08-22T2100,1292A,115.8126,28.7442,南昌市,林科所,,27,27,19,14,10,68,,121,115,8,7,7,7,0.4,1
2024-08-22T2100,1294A,115.8518,28.687,南昌市,建工学校,,32,32,22,7,8,69,,124,115,8,9,8,10,0.5,0.4
2024-08-22T2100,1295A,115.8921,28.6424,南昌市,象湖,,31,31,24,15,14,70,,130,117,9,10,4,7,0.6,0.6
2024-08-22T2100,1296A,115.7423,28.7996,南昌市,武术学校,,38,,24,26,22,59,,107,94,8,10,2,3,0.4,0.4
2024-08-22T2100,1298A,115.9314,28.6842,南昌市,省站,,31,31,27,18,16,68,,123,112,9,13,9,10,0.7,0.6
2024-08-22T2100,3046A,115.9084,28.6062,南昌市,机电学校,,30,30,29,9,13,66,,120,107,6,9,7,10,0.6,0.6
2024-08-22T2100,3690A,115.9721,28.7031,南昌市,外国语学校,,37,37,29,16,13,72,,128,116,14,12,9,9,0.7,0.5
2024-08-22T2100,1905A,106.056,30.8064,南充市,西山风景区,,42,37,37,19,35,134,,158,157,15,11,2,3,0.7,0.8
2024-08-22T2100,1906A,106.0789,30.8023,南充市,南充市委,,44,44,58,25,38,132,,173,169,21,22,8,8,0.4,0.5
2024-08-22T2100,1907A,106.1031,30.8217,南充市,南充炼油厂,细颗粒物(PM2.5),69,65,62,50,43,134,,171,167,17,16,8,8,0.5,0.5
2024-08-22T2100,1908A,106.1064,30.7856,南充市,高坪区监测站,,41,41,57,24,38,121,,157,153,22,21,6,8,0.5,0.6
2024-08-22T2100,1909A,106.0642,30.7636,南充市,嘉陵区环保局,,,33,61,22,38,125,,171,166,,22,6,6,0.5,0.5
2024-08-22T2100,1910A,106.1087,30.8388,南充市,市环境监测站,细颗粒物(PM2.5),67,63,59,48,39,130,,164,161,22,18,9,8,0.5,0.4
2024-08-22T2100,1151A,118.8086,32.1065,南京市,迈皋桥,,35,35,33,24,21,102,,143,134,25,20,4,4,0.5,0.6
2024-08-22T2100,1152A,118.7538,32.0551,南京市,草场门,,40,36,35,19,22,127,,153,146,15,21,6,8,0.6,0.8
2024-08-22T2100,1153A,118.7794,32.0745,南京市,山西路,,,,38,,28,134,,156,152,,13,3,4,0.6,0.8
2024-08-22T2100,1154A,118.7752,32.0023,南京市,中华门,,32,31,33,22,23,99,,152,141,17,16,4,4,0.6,0.8
2024-08-22T2100,1155A,118.8109,32.0309,南京市,瑞金路,,44,44,38,27,25,124,,174,165,10,10,4,4,0.6,0.8
2024-08-22T2100,1156A,118.7997,32.0754,南京市,玄武湖,,43,43,38,18,20,106,,136,132,5,5,4,7,0.7,0.8
2024-08-22T2100,1157A,118.6414,32.0931,南京市,浦口,,28,21,36,19,19,87,,147,138,9,10,7,7,0.6,0.7
2024-08-22T2100,1158A,118.7356,31.9996,南京市,奥体中心,,38,38,36,22,26,118,,160,153,16,18,3,9,0.4,0.7
2024-08-22T2100,1159A,118.9125,32.1028,南京市,仙林大学城,颗粒物(PM10),51,51,39,24,26,138,,188,178,15,15,7,9,0.8,1
2024-08-22T2100,3422A,118.8436,31.9198,南京市,江宁彩虹桥,,38,38,33,22,23,91,,167,153,23,11,3,4,0.8,0.9
2024-08-22T2100,3423A,119.0138,31.6494,南京市,溧水永阳,,34,34,27,22,18,99,,144,141,18,8,4,4,0.6,0.6
2024-08-22T2100,3424A,118.879,31.3302,南京市,高淳老职中,,35,,25,22,18,109,,136,134,8,8,4,5,0.6,0.6
2024-08-22T2100,3427A,118.8554,32.3578,南京市,六合雄州,,32,30,32,22,26,82,,138,128,48,36,5,6,0.5,0.5
2024-08-22T2100,1401A,108.3103,22.7881,南宁市,二十一中,,,25,20,18,11,40,,60,54,12,10,3,3,,0.8
2024-08-22T2100,1402A,108.3141,22.8528,南宁市,北湖,,27,27,22,12,10,34,,60,50,16,19,2,3,0.8,0.7
2024-08-22T2100,1403A,108.3206,22.8225,南宁市,市监测站,,25,20,21,17,14,40,,67,57,13,12,4,4,0.6,0.5
2024-08-22T2100,1404A,108.3829,22.8037,南宁市,大自然花园,,33,33,20,17,12,48,,58,53,7,10,4,4,0.6,0.6
2024-08-22T2100,1405A,108.4394,22.7904,南宁市,仙葫,,32,30,20,22,14,49,,56,53,5,6,5,6,0.6,0.5
2024-08-22T2100,1406A,108.2397,22.8467,南宁市,区农职院,,33,33,25,21,13,28,,63,52,21,17,5,8,0.8,0.7
2024-08-22T2100,1407A,108.3275,22.735,南宁市,英华嘉园,,27,27,25,16,12,36,,51,46,15,15,5,6,0.6,0.6
2024-08-22T2100,1408A,108.2257,22.7757,南宁市,沙井镇街道办,,45,43,27,31,11,25,,56,45,24,21,2,2,0.6,0.7
2024-08-22T2100,3401A,108.4834,22.7618,南宁市,红星社区,,30,30,20,20,12,46,,59,54,12,8,5,6,0.8,0.7
2024-08-22T2100,2331A,118.0966,26.6761,南平市,茫荡山,,,,,,,,,,,,,,,,
2024-08-22T2100,2332A,118.1681,26.6369,南平市,南平市监测站,,20,20,16,6,5,35,,83,72,12,8,4,4,0.8,0.6
2024-08-22T2100,2333A,118.1825,26.6489,南平市,南平铝业有限公司,,41,41,19,9,6,29,,83,73,21,8,7,5,0.7,0.6
2024-08-22T2100,2334A,118.1756,26.6272,南平市,南平七中,,16,16,19,3,5,34,,80,69,10,7,4,4,0.7,0.6
2024-08-22T2100,1168A,120.9098,31.9663,南通市,狼山街道,,35,25,31,24,25,75,,179,152,34,18,6,8,0.6,0.8
2024-08-22T2100,1169A,120.86,32.0005,南通市,虹桥,,39,39,45,25,30,105,,184,161,25,26,6,8,1.0,1.1
2024-08-22T2100,1170A,120.87,32.02,南通市,城中,,44,44,45,19,24,121,,195,178,23,23,8,10,0.9,1.1
2024-08-22T2100,1171A,120.94,31.93,南通市,星湖花园,,38,34,28,26,20,97,,190,168,36,21,6,6,0.8,1.2
2024-08-22T2100,1172A,120.81,32.0417,南通市,紫琅学院,,,,36,,24,,,174,154,49,39,9,13,,1.6
2024-08-22T2100,3291A,121.067,32.062,南通市,通州监测站,颗粒物(PM10),52,53,41,29,27,119,,200,182,27,20,4,6,0.9,1.2
2024-08-22T2100,3432A,120.9348,31.9883,南通市,环境教育馆,,35,34,39,19,23,109,,187,172,26,19,5,7,0.6,0.9
2024-08-22T2100,2404A,112.5224,33.0122,南阳市,瓦房庄,,48,48,36,33,18,141,,160,158,13,15,5,6,0.6,0.5
2024-08-22T2100,2405A,112.5003,32.9735,南阳市,汉画馆,细颗粒物(PM2.5),84,72,47,62,29,114,,149,142,18,18,4,5,0.6,0.5
2024-08-22T2100,2406A,112.5573,33.027,南阳市,气象站,,,,40,,18,139,,164,160,12,14,5,5,0.7,0.6
2024-08-22T2100,2407A,112.5481,32.9689,南阳市,理工学院,,50,50,34,32,18,130,,155,153,16,17,5,6,0.6,0.5
2024-08-22T2100,4008A,112.5234,32.9922,南阳市,卧龙区政府,颗粒物(PM10),54,57,38,35,21,118,,158,155,26,16,4,5,0.8,0.6
2024-08-22T2100,1234A,121.8358,29.911,宁波市,区环保大楼,,29,27,31,13,18,92,,200,168,14,18,7,8,0.6,0.7
2024-08-22T2100,1235A,121.56,29.82,宁波市,万里学院,,33,26,22,15,14,103,,164,152,11,17,9,9,0.5,0.6
2024-08-22T2100,1236A,121.713,29.9572,宁波市,龙赛医院,,32,32,27,12,12,100,,177,156,14,18,8,9,0.6,0.6
2024-08-22T2100,1239A,121.633,29.7733,宁波市,钱湖水厂,,34,18,20,10,13,106,,153,142,6,10,7,7,0.6,0.7
2024-08-22T2100,1240A,121.5856,29.8635,宁波市,太古小学,,32,19,23,12,11,101,,170,160,13,17,6,6,0.8,0.9
2024-08-22T2100,1241A,121.524,29.8674,宁波市,市环境监测中心,,,24,15,,9,104,,184,172,15,16,5,5,,0.8
2024-08-22T2100,2871A,121.6147,29.9017,宁波市,万里国际学校,,36,21,16,15,11,113,,193,180,10,17,6,7,0.5,0.5
2024-08-22T2100,3710A,121.5594,29.8975,宁波市,白沙活动中心,,34,31,20,12,10,108,,191,178,14,16,7,7,0.6,0.7
2024-08-22T2100,2339A,119.5001,26.6946,宁德市,金涵水库,,,,,,,,,,,,,,,,
2024-08-22T2100,2341A,119.5388,26.6612,宁德市,宁德市监测站,,13,13,20,8,9,29,,74,58,12,14,5,5,0.6,0.5
2024-08-22T2100,3209A,119.5231,26.6562,宁德市,宁德一中,,15,12,21,10,14,33,,76,53,8,7,4,4,0.5,0.6
2024-08-22T2100,2618A,98.8601,25.8567,怒江傈僳族自治州,州监测站,,33,33,22,19,12,50,,79,78,23,10,5,5,0.7,0.4
2024-08-22T2100,2619A,98.8546,25.8417,怒江傈僳族自治州,泸水一中,,21,21,20,13,10,48,,70,70,22,14,5,5,0.5,0.4
2024-08-22T2100,1888A,101.6891,26.571,攀枝花市,弄弄坪,颗粒物(PM10),71,92,80,43,37,76,,162,154,54,30,24,27,1.8,1.6
2024-08-22T2100,1889A,101.5769,26.5928,攀枝花市,河门口,细颗粒物(PM2.5),62,61,45,44,29,121,,187,184,23,22,12,18,1.2,1.3
2024-08-22T2100,1890A,101.7169,26.585,攀枝花市,炳草岗,颗粒物(PM10),62,73,71,38,38,99,,173,166,43,31,14,32,0.6,0.9
2024-08-22T2100,1891A,101.7369,26.5008,攀枝花市,仁和,细颗粒物(PM2.5),75,72,49,55,35,83,,142,132,17,15,6,12,0.6,0.8
2024-08-22T2100,2835A,101.7227,26.567,攀枝花市,四十中小,细颗粒物(PM2.5),64,63,59,46,35,71,,169,157,66,32,16,38,1.3,1.1
2024-08-22T2100,1604A,122.0303,41.1489,盘锦市,开发区,,15,,23,6,12,48,,61,59,7,11,5,5,0.4,0.5
2024-08-22T2100,1605A,122.0485,41.0883,盘锦市,兴隆台,,12,8,21,3,11,36,,47,45,9,15,4,4,0.5,0.6
2024-08-22T2100,1606A,121.8297,41.1028,盘锦市,新生街道,,10,,17,6,9,29,,63,58,8,14,5,4,0.6,0.7
2024-08-22T2100,1832A,113.3257,33.742,平顶山市,新华旅馆,颗粒物(PM10),54,58,59,26,26,107,,153,143,20,29,4,5,0.4,0.3
2024-08-22T2100,1833A,113.2919,33.737,平顶山市,规划设计院,细颗粒物(PM2.5),54,44,32,38,17,119,,156,147,19,21,6,7,1.0,0.8
2024-08-22T2100,1834A,113.182,33.774,平顶山市,平顶山工学院,,,,34,,13,,,119,,,27,,6,,0.7
2024-08-22T2100,3204A,113.3025,33.73,平顶山市,规划局,颗粒物(PM10),67,83,40,38,17,104,,146,137,29,22,2,3,0.9,0.6
2024-08-22T2100,3594A,112.8867,33.9116,平顶山市,石龙区,颗粒物(PM10),61,72,42,19,13,54,,120,108,27,31,8,8,0.5,0.5
2024-08-22T2100,2656A,106.6692,35.5461,平凉市,聚贤嘉苑,颗粒物(PM10),51,51,47,21,22,110,,134,127,24,27,9,9,0.4,0.4
2024-08-22T2100,2657A,106.7021,35.5307,平凉市,博物馆,颗粒物(PM10),52,53,57,24,20,104,,141,135,40,32,8,9,1.0,0.8
2024-08-22T2100,2347A,114.0997,27.5002,萍乡市,武功山,,13,,11,3,3,40,,71,65,5,4,8,8,0.5,0.4
2024-08-22T2100,2348A,113.8385,27.6434,萍乡市,中医院,,26,19,26,18,19,58,,73,72,9,8,6,7,0.5,0.6
2024-08-22T2100,2349A,113.8493,27.6253,萍乡市,市政府车库,,,36,32,,19,46,,64,63,10,6,20,13,0.5,0.7
2024-08-22T2100,2350A,113.8676,27.6435,萍乡市,市环保局,,28,22,28,19,20,57,,66,66,2,7,12,17,0.6,0.8
2024-08-22T2100,2351A,113.866,27.6198,萍乡市,安源区政府,,38,38,38,17,17,47,,60,60,8,10,14,12,0.3,0.5
2024-08-22T2100,2319A,119.0141,25.4325,莆田市,荔城区仓后路,,,,29,25,14,,,69,69,29,14,7,6,0.8,0.6
2024-08-22T2100,2320A,119.0015,25.4553,莆田市,莆田市监测站,,48,48,30,11,11,41,,63,58,12,12,6,6,0.5,0.5
2024-08-22T2100,2321A,119.1119,25.4561,莆田市,涵江区六中,,50,50,29,15,12,39,,81,75,29,16,6,7,0.6,0.5
2024-08-22T2100,2322A,119.1013,25.3215,莆田市,秀屿区政府,,35,35,28,14,13,46,,107,90,26,18,9,8,0.6,0.6
2024-08-22T2100,2323A,118.981,25.4792,莆田市,东圳水库,,,,,,,,,,,,,,,,
2024-08-22T2100,2392A,115.0312,35.7636,濮阳市,环保局,,43,35,35,30,22,132,,162,159,19,11,5,6,0.7,0.6
2024-08-22T2100,2394A,115.0574,35.7609,濮阳市,油田运输公司,,,54,36,26,23,138,,175,171,24,12,,3,0.4,0.4
2024-08-22T2100,2395A,115.0866,35.7754,濮阳市,油田物探公司,,45,45,40,26,26,143,,174,172,12,9,5,6,0.7,0.6
2024-08-22T2100,3021A,115,35.7668,濮阳市,濮水河管理处,,41,41,35,28,27,76,,154,132,22,12,3,4,0.8,0.6
2024-08-22T2100,2601A,100.98,22.7633,普洱市,市环保局,,18,14,22,12,12,20,,23,21,5,6,3,1,0.4,0.4
2024-08-22T2100,2602A,100.9817,22.8322,普洱市,普洱第二中学,,,,32,17,12,17,,23,19,5,12,6,7,0.5,0.5
2024-08-22T2100,2262A,131.0518,45.8751,七台河市,新一中,,20,11,14,3,9,61,,55,53,6,10,9,10,0.9,1
2024-08-22T2100,3345A,131.0577,45.7879,七台河市,中波台,,14,,6,9,7,42,,31,31,10,18,10,10,0.5,0.4
2024-08-22T2100,3637A,131.0176,45.7761,七台河市,人民广场,,16,16,15,3,7,40,,34,34,11,13,10,9,0.4,0.4
2024-08-22T2100,3684A,130.8781,45.8222,七台河市,新建矿广场,,18,,14,12,11,30,,30,28,15,18,5,11,0.4,0.6
2024-08-22T2100,1779A,123.9305,47.3636,齐齐哈尔市,安居小区,,41,41,17,17,9,40,,82,70,30,8,9,9,0.6,0.3
2024-08-22T2100,1780A,123.9488,47.3386,齐齐哈尔市,中心广场,,45,45,17,11,7,48,,79,68,29,10,2,2,0.5,0.3
2024-08-22T2100,1781A,123.9483,47.3227,齐齐哈尔市,农牧车辆厂,颗粒物(PM10),56,61,26,11,5,22,,83,68,40,9,8,8,0.3,0.1
2024-08-22T2100,1783A,123.945,47.2988,齐齐哈尔市,市环境监测站,颗粒物(PM10),55,60,20,25,8,28,,81,67,40,10,7,7,0.5,0.2
2024-08-22T2100,3662A,123.6333,47.2075,齐齐哈尔市,富区青少年活动中心,,27,27,15,3,5,55,,84,76,13,7,4,5,0.6,0.5
2024-08-22T2100,2591A,107.9783,26.5747,黔东南苗族侗族自治州,市环境监测站,,17,12,11,10,11,54,,64,62,10,7,3,3,0.5,0.5
2024-08-22T2100,2881A,107.8908,26.5311,黔东南苗族侗族自治州,凯里学院,,17,,10,8,10,54,,63,63,4,5,2,4,0.5,0.4
2024-08-22T2100,2593A,107.5228,26.2403,黔南布依族苗族自治州,小围寨,,16,9,6,7,4,50,,64,63,3,3,6,4,0.4,0.4
2024-08-22T2100,3538A,107.5175,26.2978,黔南布依族苗族自治州,沙坝,,16,14,9,7,4,50,,66,64,4,3,5,4,0.5,0.5
2024-08-22T2100,2589A,104.9022,25.0925,黔西南布依族苗族自治州,场坝街,,33,28,19,23,12,42,,59,52,6,4,2,3,0.2,0.2
2024-08-22T2100,2590A,104.8811,25.0992,黔西南布依族苗族自治州,坪东大道,,22,22,19,12,13,38,,56,50,6,3,5,5,0.0,0
2024-08-22T2100,2502A,108.6236,21.9667,钦州市,市环保站,,46,46,21,22,10,27,,50,48,26,16,8,8,1.1,0.7
2024-08-22T2100,2503A,108.6549,21.9481,钦州市,沙埠小学,,39,39,26,22,11,20,,60,58,33,19,5,7,0.9,0.5
2024-08-22T2100,2504A,108.5989,21.7431,钦州市,港区一小,,27,27,21,16,7,32,,50,49,19,15,8,8,0.9,0.7
2024-08-22T2100,3404A,108.5959,21.9633,钦州市,北职校,,36,36,25,20,12,10,,43,41,23,17,4,5,0.8,0.7
2024-08-22T2100,1042A,119.5134,39.8207,秦皇岛市,北戴河环保局,,29,29,46,7,20,65,,139,106,22,18,2,3,0.5,0.7
2024-08-22T2100,1043A,119.7493,40.0116,秦皇岛市,第一关,,42,42,44,27,35,26,,120,76,34,41,3,2,0.4,0.6
2024-08-22T2100,1044A,119.5897,39.9499,秦皇岛市,监测站,,38,38,52,22,28,52,,118,82,26,26,3,3,0.6,0.8
2024-08-22T2100,1046A,119.5251,39.9041,秦皇岛市,建设大厦,,25,25,39,8,12,59,,118,90,21,21,2,5,0.4,0.6
2024-08-22T2100,3132A,119.610547,39.943889,秦皇岛市,文明里,,32,32,38,10,20,57,,123,87,20,19,3,2,0.5,0.7
2024-08-22T2100,1307A,120.6659,36.2403,青岛市,仰口,臭氧1小时,73,46,25,39,23,178,,175,175,7,8,6,6,0.4,0.2
2024-08-22T2100,1310A,120.4134,36.0658,青岛市,市南区东部子站,臭氧1小时,103,75,35,29,15,206,,196,196,17,19,8,10,1.2,0.8
2024-08-22T2100,1311A,120.3664,36.1032,青岛市,四方区子站,臭氧1小时,106,58,36,39,23,211,,210,210,8,14,11,13,1.0,0.9
2024-08-22T2100,1312A,120.2994,36.054,青岛市,市南区西部子站,臭氧1小时,100,61,37,37,16,200,,192,192,12,16,9,9,1.0,0.9
2024-08-22T2100,1313A,120.4581,36.0858,青岛市,崂山区子站,臭氧1小时,106,78,35,44,18,212,,201,201,15,19,11,10,1.7,0.8
2024-08-22T2100,1314A,120.1983,35.9608,青岛市,黄岛区子站,臭氧1小时,98,56,34,39,25,198,,214,214,16,31,9,11,1.0,0.8
2024-08-22T2100,1315A,120.3999,36.3083,青岛市,城阳区子站,臭氧1小时,80,80,33,44,18,184,,167,167,28,19,12,8,1.5,0.7
2024-08-22T2100,1966A,120.0405,35.8735,青岛市,黄岛区4号,臭氧1小时,65,48,36,36,21,172,,207,207,13,20,10,11,0.8,0.7
2024-08-22T2100,3362A,120.5014,36.4034,青岛市,即墨2号,细颗粒物(PM2.5),75,80,33,55,25,173,,169,169,18,17,7,7,1.0,0.6
2024-08-22T2100,3642A,120.3503,36.0736,青岛市,市北区南部,臭氧1小时,83,64,30,44,21,186,,179,179,15,24,7,9,1.1,0.9
2024-08-22T2100,3643A,120.3948,36.1805,青岛市,李沧区北部,臭氧1小时,104,78,38,44,25,208,,201,201,23,23,10,10,1.3,0.8
2024-08-22T2100,1702A,113.0426,23.691,清远市,环保大楼,,16,16,46,9,16,34,,104,98,19,25,6,6,0.6,0.7
2024-08-22T2100,1703A,113.0208,23.7106,清远市,凤城街办,,12,12,34,8,21,26,,98,92,18,25,6,5,0.4,0.5
2024-08-22T2100,3025A,113.0477,23.6344,清远市,技师学院,,16,16,29,10,15,25,,103,92,25,25,4,4,0.7,0.8
2024-08-22T2100,3318A,112.9903,23.7403,清远市,清新太和,,16,16,36,8,23,35,,96,90,17,17,4,5,0.6,0.7
2024-08-22T2100,3455A,113.076,23.7198,清远市,清城东城,,15,15,29,8,17,31,,98,92,16,17,6,6,0.5,0.6
2024-08-22T2100,2661A,107.6325,35.7357,庆阳市,庆阳五中,,38,38,36,16,14,120,,146,138,13,9,5,6,0.6,0.5
2024-08-22T2100,2662A,107.6364,35.7067,庆阳市,市环保局,,38,34,32,16,14,120,,144,137,15,8,7,9,0.6,0.6
2024-08-22T2100,1916A,103.7897,25.5035,曲靖市,环境监测站,,35,35,36,3,13,49,,106,89,13,12,4,6,0.4,0.5
2024-08-22T2100,1917A,103.8,25.5364,曲靖市,烟厂办公区,,24,24,25,7,14,49,,109,93,15,13,4,5,0.4,0.5
2024-08-22T2100,3376A,103.7947,25.462,曲靖市,南苑二区,,17,13,22,9,14,52,,112,97,9,10,4,7,0.4,0.5
2024-08-22T2100,3377A,103.7444,25.5261,曲靖市,曲靖师范学院,,,31,25,,17,62,,117,105,9,12,6,14,0.4,0.5
2024-08-22T2100,1264A,118.8692,28.9398,衢州市,环保大楼,,40,40,32,24,20,65,,113,108,26,15,3,2,0.6,0.5
2024-08-22T2100,1265A,118.8709,28.9666,衢州市,实验学校,,39,39,32,24,20,52,,114,107,19,11,1,5,0.5,0.4
2024-08-22T2100,1266A,118.8621,28.9808,衢州市,衢州学院,,38,38,36,20,19,63,,122,114,25,17,5,5,0.4,0.4
2024-08-22T2100,1611A,118.5819,24.9117,泉州市,涂山街,,22,22,25,13,12,39,,84,75,35,27,7,3,0.6,0.5
2024-08-22T2100,1612A,118.5972,24.8978,泉州市,津头埔,,19,19,28,12,13,36,,82,71,35,26,9,4,0.7,0.7
2024-08-22T2100,1613A,118.6663,24.9424,泉州市,万安,,15,15,24,7,12,38,,82,69,24,19,2,2,0.6,0.6
2024-08-22T2100,1614A,118.6117,24.9604,泉州市,清源山,,,,,,,,,,,,,,,,
2024-08-22T2100,3529A,118.6333,24.9264,泉州市,城华南路,,15,15,21,10,12,39,,79,69,20,19,6,4,0.6,0.5
2024-08-22T2100,2626A,88.8876,29.2718,日喀则市,日喀则监测站,,23,7,10,3,4,71,,80,77,6,5,6,5,0.4,0.4
2024-08-22T2100,3726A,88.8781,29.2426,日喀则市,林业技术推广中心,,20,,6,6,4,64,,73,73,8,6,7,7,0.5,0.4
2024-08-22T2100,1659A,119.471,35.4209,日照市,监测站,细颗粒物(PM2.5),53,44,35,37,28,136,,168,164,18,20,9,10,0.7,0.7
2024-08-22T2100,1660A,119.523,35.4216,日照市,市政府广场,颗粒物(PM10),53,56,40,31,26,148,,183,178,26,19,13,11,0.8,0.9
2024-08-22T2100,1661A,119.5587,35.4044,日照市,港务局,颗粒物(PM10),63,75,55,30,27,128,,175,162,46,28,11,11,0.9,0.8
2024-08-22T2100,3507A,119.5328,35.4625,日照市,职业技术学院,颗粒物(PM10),52,53,43,31,27,143,,175,168,30,29,12,10,0.9,0.9
2024-08-22T2100,3604A,119.3266,35.1044,日照市,岚山环保分局,,37,36,53,22,28,116,,186,163,19,23,8,13,0.6,1
2024-08-22T2100,1835A,111.1922,34.7752,三门峡市,市政府,,45,45,33,16,14,77,,148,132,39,20,9,10,0.6,0.5
2024-08-22T2100,1836A,111.1587,34.7942,三门峡市,开发区,,,44,30,21,16,,,148,144,25,19,10,11,0.6,0.6
2024-08-22T2100,1838A,111.143,34.7955,三门峡市,风景区,,,,,,,,,,,,,,,,
2024-08-22T2100,3039A,111.1911,34.7829,三门峡市,三门峡市第一小学,,30,29,30,21,14,84,,145,134,17,16,9,11,0.6,0.6
2024-08-22T2100,3598A,111.1,34.7167,三门峡市,富达温泉假日酒店,,39,39,36,20,14,92,,156,143,21,17,11,12,0.6,0.5
2024-08-22T2100,2324A,117.6211,26.2625,三明市,三钢,,21,21,15,14,9,21,,71,59,19,11,8,9,0.7,0.8
2024-08-22T2100,2325A,117.635,26.2714,三明市,三明二中,,11,9,14,6,5,23,,77,65,21,9,4,5,0.7,0.6
2024-08-22T2100,2326A,117.6028,26.2378,三明市,三元区政府,,28,28,19,8,7,27,,73,60,14,10,4,4,0.5,0.4
2024-08-22T2100,2327A,117.7275,26.3108,三明市,洋溪,,,,,,,,,,,,,,,,
2024-08-22T2100,1876A,109.5078,18.2489,三亚市,河东子站,,,26,26,13,12,35,,58,44,,5,3,3,0,0.2
2024-08-22T2100,1877A,109.4964,18.2681,三亚市,河西子站,,15,14,20,10,11,34,,55,44,9,6,2,2,0.2,0.2
2024-08-22T2100,3540A,109.7348,18.3443,三亚市,君悦子站,,12,11,22,3,9,37,,55,41,4,7,1,1,0.2,0.2
2024-08-22T2100,2624A,91.7608,29.2313,山南市,山南监测站,,,,7,10,4,63,,72,72,3,5,7,7,0.3,0.3
2024-08-22T2100,2625A,91.7706,29.2436,山南市,山南人民医院,,32,32,11,8,5,62,,70,70,8,8,7,7,0.3,0.2
2024-08-22T2100,1674A,116.6794,23.3667,汕头市,金平子站,,,14,22,13,10,,,58,46,12,14,4,4,0.6,0.8
2024-08-22T2100,1675A,116.7244,23.3633,汕头市,龙湖子站,,,,22,10,10,31,,64,48,15,17,6,6,0.6,0.6
2024-08-22T2100,1676A,116.7258,23.2775,汕头市,濠江子站,,17,13,22,11,11,10,,54,32,34,26,6,5,0.7,0.6
2024-08-22T2100,1677A,116.7519,23.4714,汕头市,澄海子站,,20,17,31,14,17,39,,86,67,16,18,4,5,0.9,1
2024-08-22T2100,1678A,116.6092,23.2539,汕头市,潮阳子站,,13,12,18,3,6,41,,67,54,8,11,5,5,0.7,0.5
2024-08-22T2100,3444A,116.454,23.2684,汕头市,潮南峡山,,25,25,27,12,15,34,,63,52,7,8,5,4,0.6,0.6
2024-08-22T2100,3624A,116.4069,23.2533,汕头市,潮南子站,,29,29,30,13,14,22,,54,46,12,11,4,4,0.7,0.7
2024-08-22T2100,1693A,115.3653,22.775,汕尾市,市环保局,,18,,20,12,8,18,,50,43,24,15,6,6,0.5,0.5
2024-08-22T2100,1694A,115.3706,22.7898,汕尾市,市政府,,13,,17,9,8,16,,46,40,20,11,5,5,0.4,0.5
2024-08-22T2100,1695A,115.3622,22.7925,汕尾市,新城中学,,20,16,22,14,7,16,,49,42,24,9,6,6,0.6,0.6
2024-08-22T2100,2645A,109.9154,33.8715,商洛市,监测站,,50,50,32,18,15,56,,122,110,22,13,3,4,0.7,0.6
2024-08-22T2100,3045A,109.9643,33.8471,商洛市,商州区中学,,32,32,33,21,16,37,,115,97,30,16,6,5,0.8,0.6
2024-08-22T2100,2408A,115.6702,34.4285,商丘市,环境监测站,,48,48,34,23,20,123,,150,144,8,10,3,4,0.6,0.6
2024-08-22T2100,2409A,115.6458,34.4045,商丘市,粮食局,颗粒物(PM10),52,54,44,28,24,122,,159,151,8,9,6,6,0.3,0.3
2024-08-22T2100,2410A,115.6293,34.3948,商丘市,睢阳区环保局,颗粒物(PM10),55,59,49,26,25,107,,156,143,16,13,5,5,0.5,0.4
2024-08-22T2100,3171A,115.6071,34.4465,商丘市,梁园区档案局,,,,38,,22,,,152,150,10,11,6,6,0.5,0.5
2024-08-22T2100,1141A,121.4,31.238,上海市,普陀,,45,45,37,26,22,140,,182,172,24,19,5,5,0.6,0.5
2024-08-22T2100,1142A,121.478,31.2036,上海市,十五厂,细颗粒物(PM2.5),54,52,36,38,25,136,,197,184,33,18,10,8,0.8,0.6
2024-08-22T2100,1143A,121.467,31.3008,上海市,虹口,细颗粒物(PM2.5),57,62,37,40,27,125,,190,179,32,20,10,9,0.9,0.8
