timepoint,stationcode,longitude,latitude,area,positionname,primarypollutant,aqi,pm10,pm10_24h,pm2_5,pm2_5_24h,o3,o3_24h,o3_8h,o3_8h_24h,no2,no2_24h,so2,so2_24h,co,co_24h
2023-02-19T08:00:00,1001A,116.3621,39.8784,北京市,万寿西宫,,42,42,92,8,65,74,2,71,36,57,38,3,3,0.6,0.8
2023-02-19T08:00:00,1002A,116.2202,40.2915,北京市,定陵,,23,16,73,4,56,82,73,76,74,5,11,1,2,0.2,0.4
2023-02-19T08:00:00,1003A,116.4174,39.9289,北京市,东四,,38,38,93,7,63,79,32,76,63,33,29,3,3,0.4,0.6
2023-02-19T08:00:00,1004A,116.4072,39.8863,北京市,天坛,,33,33,91,7,67,76,14,74,41,40,32,3,3,0.3,0.6
2023-02-19T08:00:00,1005A,116.462,39.9365,北京市,农展馆,,30,30,93,6,66,74,36,71,62,39,30,1,2,0.2,0.5
2023-02-19T08:00:00,1006A,116.3392,39.9295,北京市,官园,,22,22,92,4,65,88,66,86,72,19,29,2,3,0.3,0.6
2023-02-19T08:00:00,1007A,116.2878,39.9611,北京市,海淀万柳,,22,22,88,6,71,65,54,62,59,18,31,1,2,0.2,0.5
2023-02-19T08:00:00,1008A,116.6636,40.135,北京市,顺义新城,,23,23,98,5,74,84,53,65,64,27,26,3,3,0.2,0.5
2023-02-19T08:00:00,1009A,116.6275,40.3275,北京市,怀柔镇,,47,47,109,6,68,76,11,72,55,53,32,3,2,0.3,0.5
2023-02-19T08:00:00,1010A,116.2296,40.217,北京市,昌平镇,,20,19,73,4,52,72,63,68,64,9,21,3,2,0.2,0.5
2023-02-19T08:00:00,1011A,116.3966,39.9821,北京市,奥体中心,,21,21,85,4,67,73,54,68,62,23,30,3,3,0.2,0.5
2023-02-19T08:00:00,1012A,116.184,39.9136,北京市,古城,,28,28,92,5,61,88,53,80,74,25,22,3,2,0.3,0.6
2023-02-19T08:00:00,1015A,117.1444,39.1661,天津市,勤俭道,,23,23,105,11,81,74,33,58,46,40,51,5,7,0.5,0.9
2023-02-19T08:00:00,1017A,117.237,39.1082,天津市,大直沽八号路,,29,29,100,12,73,76,43,68,57,34,47,6,8,0.6,0.8
2023-02-19T08:00:00,1018A,117.202,39.0927,天津市,前进道,,28,28,95,14,70,82,39,65,56,40,47,2,4,0.5,0.7
2023-02-19T08:00:00,1019A,117.1837,39.2133,天津市,淮河道,,30,30,127,10,80,81,38,68,53,39,53,5,7,0.4,0.9
2023-02-19T08:00:00,1021A,117.307,39.0877,天津市,跃进路,,28,28,87,12,64,78,36,68,55,39,44,7,9,0.6,0.9
2023-02-19T08:00:00,1023A,117.707,39.0343,天津市,第四大街,,29,29,108,11,77,61,29,61,51,45,55,7,8,0.9,0.8
2023-02-19T08:00:00,1024A,117.457,38.8394,天津市,永明路,,24,24,80,10,60,70,38,55,45,41,47,12,8,0.4,0.5
2023-02-19T08:00:00,1026A,117.764,39.1587,天津市,汉北路,,27,27,103,10,83,60,32,56,50,39,43,7,9,0.6,1
2023-02-19T08:00:00,1027A,117.157,38.9194,天津市,团泊洼,,41,41,96,20,71,58,23,55,40,40,45,7,6,1.3,0.9
2023-02-19T08:00:00,1029A,114.4422,38.0444,石家庄市,职工医院,,34,34,125,16,80,106,66,62,62,24,32,6,6,0.4,0.8
2023-02-19T08:00:00,1030A,114.6063,38.0266,石家庄市,高新区,,44,44,119,19,71,98,10,72,34,69,43,3,4,0.3,0.6
2023-02-19T08:00:00,1031A,114.4898,38.1328,石家庄市,西北水源,颗粒物(PM10),52,54,122,16,73,81,46,46,41,30,38,5,2,0.2,0.5
2023-02-19T08:00:00,1032A,114.4586,38.0058,石家庄市,西南高教,,33,33,122,5,72,102,65,48,44,22,36,5,5,0.4,0.8
2023-02-19T08:00:00,1033A,114.5331,38.0178,石家庄市,世纪公园,,21,19,112,6,74,103,28,70,30,42,35,2,4,0.5,0.9
2023-02-19T08:00:00,1034A,114.509,38.0457,石家庄市,人民会堂,,30,30,112,5,79,105,67,72,55,17,28,5,4,0.2,0.5
2023-02-19T08:00:00,1035A,114.3524,37.8911,石家庄市,封龙山,,30,30,115,17,72,86,66,78,74,14,32,3,3,0.5,0.9
2023-02-19T08:00:00,1037A,118.131,39.6363,唐山市,雷达站,颗粒物(PM10),68,85,161,9,111,73,38,55,50,30,45,1,9,0.3,1.3
2023-02-19T08:00:00,1038A,118.1725,39.6334,唐山市,物资局,颗粒物(PM10),63,76,161,17,106,73,41,65,57,40,48,6,15,0.3,1.3
2023-02-19T08:00:00,1040A,118.1705,39.6506,唐山市,十二中,颗粒物(PM10),69,88,153,23,109,63,42,56,51,29,47,1,8,0.3,1.3
2023-02-19T08:00:00,1041A,118.1869,39.622,唐山市,小山,颗粒物(PM10),67,84,163,11,101,72,46,68,61,32,52,1,10,0.3,1.3
2023-02-19T08:00:00,1042A,119.5134,39.8207,秦皇岛市,北戴河环保局,颗粒物(PM10),58,66,95,20,69,71,40,58,49,36,35,20,9,1.7,0.9
2023-02-19T08:00:00,1043A,119.7493,40.0116,秦皇岛市,第一关,颗粒物(PM10),65,79,100,27,75,53,21,45,24,56,50,6,6,0.7,0.7
2023-02-19T08:00:00,1044A,119.5897,39.9499,秦皇岛市,监测站,颗粒物(PM10),68,86,117,17,79,61,49,51,51,31,46,8,9,0.6,0.8
2023-02-19T08:00:00,1046A,119.5251,39.9041,秦皇岛市,建设大厦,颗粒物(PM10),55,60,106,16,63,63,55,58,53,31,48,9,9,0.7,0.8
2023-02-19T08:00:00,1048A,114.5302,36.6116,邯郸市,东污水处理厂,,45,45,149,11,103,86,29,62,50,40,32,6,10,1.0,1.4
2023-02-19T08:00:00,1049A,114.4918,36.5713,邯郸市,矿院,,37,37,144,24,103,89,23,65,47,40,33,8,10,0.7,1.2
2023-02-19T08:00:00,1050A,114.484,36.6133,邯郸市,丛台公园,,20,20,141,6,91,86,32,66,55,34,27,6,11,0.6,1.1
2023-02-19T08:00:00,1051A,115.493,38.8632,保定市,游泳馆,,32,32,108,6,82,89,51,67,48,31,42,9,12,0.3,0.7
2023-02-19T08:00:00,1052A,115.5213,38.8959,保定市,华电二区,,43,43,105,11,89,82,45,77,52,44,51,6,7,0.8,1.1
2023-02-19T08:00:00,1053A,115.4713,38.9108,保定市,接待中心,,25,25,108,8,83,78,44,67,53,33,35,5,6,0.6,1
2023-02-19T08:00:00,1054A,115.4612,38.8416,保定市,地表水厂,颗粒物(PM10),55,59,136,15,79,78,35,53,39,42,42,8,8,0.1,0.5
2023-02-19T08:00:00,1056A,115.5086,38.8639,保定市,监测站,,43,43,114,14,89,85,39,81,47,42,42,7,7,0.7,1
2023-02-19T08:00:00,1057A,114.8883,40.8336,张家口市,人民公园,,41,41,44,2,14,93,62,88,73,10,6,15,7,0.4,0.3
2023-02-19T08:00:00,1059A,114.8687,40.8042,张家口市,五金库,,37,37,40,15,19,84,48,83,72,30,19,6,4,1.1,0.7
2023-02-19T08:00:00,1060A,114.8902,40.762,张家口市,世纪豪园,,40,40,51,23,28,87,60,80,74,22,19,6,4,0.7,0.6
2023-02-19T08:00:00,1061A,114.8916,40.8661,张家口市,北泵房,颗粒物(PM10),52,53,49,23,30,97,55,73,58,22,19,14,12,0.8,0.9
2023-02-19T08:00:00,1062A,117.9531,40.9081,承德市,铁路,颗粒物(PM10),54,58,82,29,54,84,17,50,31,54,38,7,9,0.8,0.9
2023-02-19T08:00:00,1063A,117.9392,40.9763,承德市,中国银行,,42,42,73,26,53,75,27,38,31,30,33,5,6,0.7,0.7
2023-02-19T08:00:00,1064A,117.9503,40.928,承德市,开发区,,48,48,76,29,61,92,23,26,23,44,44,8,9,0.8,0.8
2023-02-19T08:00:00,1065A,117.8051,40.9655,承德市,文化中心,"颗粒物(PM10),细颗粒物(PM2.5)",87,124,88,64,59,68,35,40,39,35,30,7,7,1.0,0.8
2023-02-19T08:00:00,1066A,117.9268,41.0026,承德市,离宫,,35,35,67,22,50,72,40,54,45,12,15,9,10,0.5,0.6
2023-02-19T08:00:00,1067A,116.6708,39.5111,廊坊市,药材公司,,32,32,125,16,80,80,42,74,61,32,44,2,5,0.3,0.9
2023-02-19T08:00:00,1068A,116.7214,39.5589,廊坊市,开发区,,38,38,118,12,81,80,44,74,62,42,55,6,7,0.4,0.9
2023-02-19T08:00:00,1070A,116.7244,39.5269,廊坊市,北华航天学院,颗粒物(PM10),52,54,129,8,85,77,48,73,60,38,55,9,11,0.3,0.8
2023-02-19T08:00:00,1071A,116.8842,38.2991,沧州市,沧县城建局,,48,48,139,14,96,100,28,77,45,50,55,10,12,0.6,0.9
2023-02-19T08:00:00,1072A,116.8584,38.3254,沧州市,电视转播站,,42,42,119,16,87,89,20,68,43,60,53,5,10,0.7,0.9
2023-02-19T08:00:00,1073A,116.8709,38.3228,沧州市,市环保局,,47,47,127,15,101,96,28,72,47,57,59,1,6,0.2,0.6
2023-02-19T08:00:00,1074A,115.6838,37.7541,衡水市,电机北厂,,39,39,122,9,80,92,32,57,44,30,34,2,5,0.3,0.7
2023-02-19T08:00:00,1075A,115.6303,37.7316,衡水市,市监测站,,27,27,132,15,82,92,32,60,46,32,30,5,7,0.3,0.7
2023-02-19T08:00:00,1077A,114.4704,37.0886,邢台市,达活泉,,40,40,135,15,103,96,39,57,40,31,36,7,8,0.6,1.1
2023-02-19T08:00:00,1078A,114.5062,37.0349,邢台市,邢师高专,,43,43,125,22,97,91,10,58,33,44,34,5,7,0.6,0.9
2023-02-19T08:00:00,1079A,114.5237,37.0851,邢台市,路桥公司,,37,37,138,7,98,95,28,59,49,37,34,10,12,0.9,1.1
2023-02-19T08:00:00,1080A,114.4725,37.0719,邢台市,市环保局,,36,36,137,14,96,100,36,58,43,31,32,11,8,0.9,1.1
2023-02-19T08:00:00,1081A,112.522,37.8873,太原市,尖草坪,,28,28,50,6,25,106,70,78,68,23,22,8,6,0.3,0.4
2023-02-19T08:00:00,1083A,112.434,38.0108,太原市,上兰,,,,,,,,,,,,,,,,
2023-02-19T08:00:00,1084A,112.469,37.7124,太原市,晋源,,46,46,66,18,42,107,11,67,35,58,34,8,9,0.7,0.7
2023-02-19T08:00:00,1085A,112.5583,37.7394,太原市,小店,颗粒物(PM10),52,54,66,22,41,108,12,70,45,54,31,11,8,0.6,0.6
2023-02-19T08:00:00,1086A,112.5369,37.8692,太原市,桃园,,24,24,50,6,29,106,75,75,71,14,19,5,5,0.2,0.4
2023-02-19T08:00:00,1087A,112.57,37.8195,太原市,坞城,,25,25,60,5,31,106,72,75,74,21,24,6,8,0.3,0.6
2023-02-19T08:00:00,1088A,112.549,37.9854,太原市,南寨,,44,44,79,8,29,106,5,79,20,60,35,3,4,0.3,0.5
2023-02-19T08:00:00,1090A,111.6507,40.7517,呼和浩特市,呼市一监,,27,27,22,15,7,87,32,50,40,23,15,6,6,0.6,0.4
2023-02-19T08:00:00,1091A,111.6572,40.8033,呼和浩特市,小召,,39,39,26,16,7,83,15,59,35,44,21,10,11,0.7,0.4
2023-02-19T08:00:00,1094A,111.7516,40.8369,呼和浩特市,如意水处理厂,,28,28,17,12,7,89,18,44,28,43,21,13,10,0.5,0.4
2023-02-19T08:00:00,1095A,111.7276,40.8062,呼和浩特市,二十九中,,41,41,28,25,9,88,22,51,33,34,20,7,7,0.7,0.4
2023-02-19T08:00:00,1096A,111.5512,40.7866,呼和浩特市,工大金川校区,,32,32,25,12,6,86,23,47,33,31,11,15,7,0.6,0.4
2023-02-19T08:00:00,1097A,111.717,40.7612,呼和浩特市,化肥厂生活区,颗粒物(PM10),55,59,17,30,7,90,24,44,36,32,18,8,8,0.8,0.4
2023-02-19T08:00:00,1098A,123.6836,41.9339,沈阳市,森林路,,,,,,,,,,,,,,,,
2023-02-19T08:00:00,1099A,123.505,41.7406,沈阳市,浑南东路,细颗粒物(PM2.5),52,50,57,36,36,66,34,48,28,32,32,12,13,0.8,0.7
2023-02-19T08:00:00,1100A,123.4231,41.6989,沈阳市,新秀街,细颗粒物(PM2.5),54,54,52,38,32,71,34,51,26,35,35,9,10,1.0,0.6
2023-02-19T08:00:00,1102A,123.5903,41.8411,沈阳市,东陵路,,43,30,49,30,38,70,33,52,29,32,28,10,11,0.7,0.5
2023-02-19T08:00:00,1103A,123.4264,41.8467,沈阳市,陵东街,颗粒物(PM10),56,61,41,38,23,80,30,60,39,44,26,14,10,0.8,0.6
2023-02-19T08:00:00,1104A,123.4114,41.7653,沈阳市,文化路,细颗粒物(PM2.5),57,60,49,40,33,75,39,55,37,28,30,6,12,0.7,0.6
2023-02-19T08:00:00,1105A,123.4678,41.7867,沈阳市,小河沿,,50,50,41,31,26,73,42,61,43,29,30,8,10,0.6,0.5
2023-02-19T08:00:00,1106A,123.4017,41.7972,沈阳市,太原街,细颗粒物(PM2.5),67,66,55,48,35,64,28,56,35,35,31,9,10,0.8,0.7
2023-02-19T08:00:00,1108A,123.3783,41.9228,沈阳市,京沈街,,48,33,40,33,28,77,39,56,41,34,25,12,10,0.6,0.5
2023-02-19T08:00:00,1109A,121.612,38.9741,大连市,甘井子,,30,30,70,12,44,78,68,76,68,18,35,12,6,0.5,0.5
2023-02-19T08:00:00,1110A,121.565,38.9511,大连市,周水子,,33,33,83,11,48,73,61,70,63,29,32,8,7,0.6,0.7
2023-02-19T08:00:00,1111A,121.5637,38.8845,大连市,星海三站,,23,23,50,8,37,60,60,58,56,20,35,5,9,0.7,0.6
2023-02-19T08:00:00,1112A,121.6302,38.9117,大连市,青泥洼桥,颗粒物(PM10),54,58,54,12,40,78,62,76,64,23,29,12,10,0.7,0.8
2023-02-19T08:00:00,1113A,121.6251,38.8638,大连市,傅家庄,,36,36,56,9,35,74,67,73,65,17,22,19,13,0.8,0.7
2023-02-19T08:00:00,1114A,121.5213,38.8661,大连市,七贤岭,,29,29,48,8,37,82,81,80,77,8,21,7,8,0.7,0.5
2023-02-19T08:00:00,1115A,121.2529,38.8061,大连市,旅顺,,30,30,44,12,36,72,68,70,66,11,18,8,7,0.8,0.7
2023-02-19T08:00:00,1116A,121.7485,39.1311,大连市,金州,,23,22,61,10,51,71,71,69,66,8,21,8,8,0.4,0.9
2023-02-19T08:00:00,1117A,121.7811,39.0496,大连市,开发区,,35,35,61,13,47,65,55,63,57,24,38,10,7,0.4,0.6
2023-02-19T08:00:00,1118A,121.9762,39.0631,大连市,双D港,,27,27,48,16,41,72,70,72,69,14,21,7,6,0.5,0.7
2023-02-19T08:00:00,1119A,125.3325,43.9166,长春市,食品厂,,34,34,36,18,22,80,45,57,50,24,26,9,7,0.4,0.4
2023-02-19T08:00:00,1120A,125.2863,43.9027,长春市,客车厂,,34,34,36,19,23,79,43,62,52,26,26,12,9,0.3,0.3
2023-02-19T08:00:00,1121A,125.2841,43.8463,长春市,邮电学院,,36,36,35,23,24,84,36,60,37,34,27,15,16,0.4,0.4
2023-02-19T08:00:00,1122A,125.3716,43.8772,长春市,劳动公园,,33,33,42,19,33,81,41,71,49,29,26,14,12,0.3,0.4
2023-02-19T08:00:00,1123A,125.3297,43.8805,长春市,园林处,,25,25,31,16,19,74,39,59,48,29,25,14,10,0.4,0.3
2023-02-19T08:00:00,1124A,125.4605,43.79,长春市,净月潭,,31,31,33,15,15,78,36,58,46,24,16,8,7,0.6,0.4
2023-02-19T08:00:00,1125A,125.7194,43.515,长春市,甩湾子,,,,,,,,,,,,,,,,
2023-02-19T08:00:00,1126A,125.3863,43.8447,长春市,经开区环卫处,,,,36,,23,75,,68,63,,24,,15,,0.4
2023-02-19T08:00:00,1127A,125.245,43.7783,长春市,高新区管委会,,30,25,36,21,21,83,48,50,49,18,23,8,11,0.4,0.4
2023-02-19T08:00:00,1128A,125.1761,43.8325,长春市,岱山公园,,32,31,36,22,23,82,46,46,46,14,21,5,7,0.4,0.4
2023-02-19T08:00:00,1129A,126.5422,45.755,哈尔滨市,岭北,细颗粒物(PM2.5),74,60,39,54,30,89,41,56,50,27,21,25,18,0.4,0.4
2023-02-19T08:00:00,1130A,126.561,45.8167,哈尔滨市,松北商大,细颗粒物(PM2.5),55,50,39,39,26,92,44,50,48,37,35,16,16,0.7,0.6
2023-02-19T08:00:00,1131A,126.979,45.5419,哈尔滨市,阿城会宁,,50,36,57,35,39,88,66,60,60,15,26,11,13,0.5,0.6
2023-02-19T08:00:00,1132A,126.599,45.7222,哈尔滨市,南岗学府路,细颗粒物(PM2.5),67,75,46,48,26,91,43,35,34,40,32,27,18,0.5,0.7
2023-02-19T08:00:00,1133A,126.689,45.7733,哈尔滨市,太平宏伟公园,细颗粒物(PM2.5),58,56,43,41,27,91,27,44,42,55,33,30,12,0.3,0.3
2023-02-19T08:00:00,1134A,126.635,45.7667,哈尔滨市,道外承德广场,细颗粒物(PM2.5),64,63,39,46,31,83,35,51,41,43,32,17,13,0.8,0.5
2023-02-19T08:00:00,1135A,126.685,45.7319,哈尔滨市,香坊红旗大街,细颗粒物(PM2.5),84,69,46,62,34,83,19,49,43,65,37,32,20,1.0,0.7
2023-02-19T08:00:00,1136A,126.6411,45.7258,哈尔滨市,动力和平路,细颗粒物(PM2.5),63,67,43,45,29,84,21,40,32,62,41,24,16,0.9,0.6
2023-02-19T08:00:00,1137A,126.593,45.7478,哈尔滨市,道里建国路,细颗粒物(PM2.5),60,59,38,43,28,83,29,48,40,48,32,16,13,1.3,0.7
2023-02-19T08:00:00,1138A,126.615,45.61,哈尔滨市,平房东轻厂,细颗粒物(PM2.5),53,50,45,37,32,86,50,72,64,23,26,12,12,0.9,0.7
2023-02-19T08:00:00,1139A,126.595,45.9855,哈尔滨市,呼兰师专,细颗粒物(PM2.5),88,75,49,65,36,81,19,42,24,57,36,20,16,1.1,0.6
2023-02-19T08:00:00,1140A,126.6206,45.6842,哈尔滨市,省农科院,颗粒物(PM10),65,80,56,43,33,94,15,20,17,63,43,23,19,1.1,0.7
2023-02-19T08:00:00,1141A,121.4,31.238,上海市,普陀,细颗粒物(PM2.5),168,97,86,127,83,118,19,35,20,51,64,7,8,1.2,1.1
2023-02-19T08:00:00,1142A,121.478,31.2036,上海市,十五厂,细颗粒物(PM2.5),155,99,81,118,85,115,18,37,22,50,65,8,9,1.4,1.3
2023-02-19T08:00:00,1143A,121.467,31.3008,上海市,虹口,细颗粒物(PM2.5),182,171,115,137,87,113,38,35,29,45,64,8,9,1.2,1.2
2023-02-19T08:00:00,1144A,121.412,31.1654,上海市,徐汇上师大,细颗粒物(PM2.5),163,93,79,124,80,105,19,34,21,51,64,10,11,1.3,1.2
2023-02-19T08:00:00,1145A,121.536,31.2659,上海市,杨浦四漂,细颗粒物(PM2.5),188,180,113,141,88,111,26,36,25,44,65,9,10,1.2,1.2
2023-02-19T08:00:00,1147A,121.425,31.2261,上海市,静安监测站,细颗粒物(PM2.5),182,167,121,137,81,118,18,37,21,59,73,10,11,1.3,1.2
2023-02-19T08:00:00,1148A,121.703,31.1907,上海市,浦东川沙,细颗粒物(PM2.5),183,106,83,138,80,98,21,25,23,43,57,7,8,1.0,0.9
2023-02-19T08:00:00,1149A,121.533,31.2284,上海市,浦东新区监测站,细颗粒物(PM2.5),168,172,120,127,83,99,18,35,23,42,59,7,8,1.3,1.2
2023-02-19T08:00:00,1150A,121.577,31.2071,上海市,浦东张江,细颗粒物(PM2.5),189,105,81,142,78,106,24,33,26,38,58,6,7,1.2,1.2
2023-02-19T08:00:00,1151A,118.8086,32.1065,南京市,迈皋桥,细颗粒物(PM2.5),153,173,138,117,93,41,32,13,13,30,51,8,7,0.7,0.7
2023-02-19T08:00:00,1152A,118.7538,32.0551,南京市,草场门,细颗粒物(PM2.5),128,184,137,97,73,48,29,16,15,42,58,9,6,0.9,0.8
2023-02-19T08:00:00,1153A,118.7794,32.0745,南京市,山西路,细颗粒物(PM2.5),149,180,135,114,88,48,29,16,16,37,50,8,6,0.8,0.7
2023-02-19T08:00:00,1154A,118.7752,32.0023,南京市,中华门,细颗粒物(PM2.5),144,163,125,110,78,46,31,12,12,36,56,11,9,1.2,1.2
2023-02-19T08:00:00,1155A,118.8109,32.0309,南京市,瑞金路,细颗粒物(PM2.5),140,171,139,107,79,50,28,10,10,30,54,9,7,0.7,0.7
2023-02-19T08:00:00,1156A,118.7997,32.0754,南京市,玄武湖,细颗粒物(PM2.5),183,164,131,138,105,40,28,10,10,35,54,4,4,0.7,0.7
2023-02-19T08:00:00,1157A,118.6414,32.0931,南京市,浦口,细颗粒物(PM2.5),147,170,142,112,87,63,36,37,36,32,40,7,7,1.0,0.9
2023-02-19T08:00:00,1158A,118.7356,31.9996,南京市,奥体中心,细颗粒物(PM2.5),144,165,138,110,75,45,34,14,14,47,68,9,7,1.3,1.1
2023-02-19T08:00:00,1159A,118.9125,32.1028,南京市,仙林大学城,细颗粒物(PM2.5),163,156,134,124,93,34,26,8,8,42,68,8,9,0.9,1.1
2023-02-19T08:00:00,1160A,120.561,31.2472,苏州市,上方山,细颗粒物(PM2.5),173,121,100,131,84,108,20,24,20,39,56,8,9,1.1,1
2023-02-19T08:00:00,1162A,120.591,31.3019,苏州市,彩香,细颗粒物(PM2.5),168,156,122,127,85,115,24,25,24,45,63,8,9,1.1,0.9
2023-02-19T08:00:00,1163A,120.596,31.3264,苏州市,轧钢厂,细颗粒物(PM2.5),173,173,133,131,85,110,23,19,18,38,56,7,8,1.0,0.9
2023-02-19T08:00:00,1164A,120.613,31.2703,苏州市,吴中区,细颗粒物(PM2.5),165,159,125,125,83,116,24,31,24,61,70,8,9,1.1,0.9
2023-02-19T08:00:00,1165A,120.543,31.2994,苏州市,苏州新区,细颗粒物(PM2.5),178,154,121,134,90,110,20,26,25,37,54,9,10,1.2,1.1
2023-02-19T08:00:00,1166A,120.669,31.3097,苏州市,苏州工业园区,细颗粒物(PM2.5),190,173,130,143,88,118,22,28,20,39,57,10,11,1.1,0.9
2023-02-19T08:00:00,1167A,120.641,31.3708,苏州市,相城区,细颗粒物(PM2.5),180,139,121,136,90,106,21,24,18,41,61,10,10,1.1,1
2023-02-19T08:00:00,1168A,120.9098,31.9663,南通市,狼山街道,颗粒物(PM10),94,138,113,67,84,62,62,19,19,19,64,6,10,0.6,0.9
2023-02-19T08:00:00,1169A,120.86,32.0005,南通市,虹桥,细颗粒物(PM2.5),117,149,140,88,94,54,54,18,18,22,64,6,10,0.7,1.1
2023-02-19T08:00:00,1170A,120.87,32.02,南通市,城中,细颗粒物(PM2.5),107,138,148,80,99,51,51,18,18,22,65,6,11,0.6,0.9
2023-02-19T08:00:00,1171A,120.94,31.93,南通市,星湖花园,细颗粒物(PM2.5),119,154,142,90,97,45,45,11,11,27,67,6,10,0.7,0.9
2023-02-19T08:00:00,1172A,120.81,32.0417,南通市,紫琅学院,细颗粒物(PM2.5),119,161,145,90,96,43,43,11,10,22,60,7,11,0.6,0.9
2023-02-19T08:00:00,1173A,119.176,34.5885,连云港市,市环境监测站,细颗粒物(PM2.5),83,83,116,61,86,54,39,42,41,28,41,12,13,0.7,0.6
2023-02-19T08:00:00,1177A,117.179,34.2761,徐州市,黄河新村,细颗粒物(PM2.5),74,95,136,54,93,100,35,70,54,38,33,14,12,0.8,1
2023-02-19T08:00:00,1178A,117.1918,34.2384,徐州市,淮塔,细颗粒物(PM2.5),73,84,141,53,85,113,47,75,60,28,29,9,10,0.8,0.9
2023-02-19T08:00:00,1180A,117.256,34.2153,徐州市,新城区,细颗粒物(PM2.5),112,110,126,84,100,111,35,72,55,34,30,12,11,1.1,1
2023-02-19T08:00:00,1181A,117.244,34.2911,徐州市,桃园路,细颗粒物(PM2.5),85,102,143,63,89,100,23,67,46,44,30,8,9,0.8,0.9
2023-02-19T08:00:00,1182A,117.2933,34.2778,徐州市,农科院,细颗粒物(PM2.5),89,114,136,66,82,106,19,73,47,45,24,13,9,1.1,0.9
2023-02-19T08:00:00,1186A,119.389,32.3761,扬州市,邗江监测站,细颗粒物(PM2.5),122,119,142,92,106,53,53,16,16,25,66,7,9,0.8,1.1
2023-02-19T08:00:00,1188A,120.269,31.4867,无锡市,雪浪,细颗粒物(PM2.5),132,132,106,100,72,100,14,19,17,40,57,9,11,1.0,0.9
2023-02-19T08:00:00,1189A,120.275,31.6219,无锡市,黄巷,细颗粒物(PM2.5),156,164,130,119,77,45,13,8,8,52,80,7,8,1.4,1.2
2023-02-19T08:00:00,1190A,120.294,31.56,无锡市,曹张,细颗粒物(PM2.5),134,152,126,102,72,72,14,13,13,47,66,8,8,1.2,1
2023-02-19T08:00:00,1191A,120.242,31.5031,无锡市,漆塘,细颗粒物(PM2.5),144,141,103,110,70,111,19,20,18,37,55,10,11,1.2,1.1
2023-02-19T08:00:00,1192A,120.3489,31.5863,无锡市,东亭,细颗粒物(PM2.5),163,163,123,124,83,55,17,9,9,45,72,11,11,1.3,1.4
2023-02-19T08:00:00,1193A,120.354,31.5475,无锡市,旺庄,细颗粒物(PM2.5),147,149,110,112,76,74,14,10,10,45,66,7,7,1.2,1.1
2023-02-19T08:00:00,1194A,120.245,31.5631,无锡市,荣巷,细颗粒物(PM2.5),128,144,104,97,68,92,22,17,17,38,57,13,13,1.1,1
2023-02-19T08:00:00,1195A,120.299,31.6817,无锡市,堰桥,细颗粒物(PM2.5),149,168,125,114,76,38,16,10,10,38,74,10,10,1.3,1.3
2023-02-19T08:00:00,1196A,119.9633,31.762,常州市,市监测站,细颗粒物(PM2.5),175,188,156,132,96,27,18,10,10,50,78,8,9,1.0,1
2023-02-19T08:00:00,1200A,119.9468,31.7069,常州市,武进监测站,细颗粒物(PM2.5),168,185,155,127,83,49,14,11,10,43,66,9,10,1.0,1
2023-02-19T08:00:00,1201A,119.9255,31.9087,常州市,安家,细颗粒物(PM2.5),193,193,154,145,101,25,18,6,6,37,65,9,10,1.0,1.1
2023-02-19T08:00:00,1203A,119.6707,32.1875,镇江市,新区办事处,细颗粒物(PM2.5),139,135,149,106,108,32,32,11,11,33,73,4,6,0.8,1.2
2023-02-19T08:00:00,1204A,119.4974,32.1968,镇江市,职教中心,细颗粒物(PM2.5),183,167,134,138,111,31,26,11,11,38,72,9,11,0.8,1
2023-02-19T08:00:00,1205A,119.4303,32.1328,镇江市,丹徒区监测站,细颗粒物(PM2.5),195,176,159,146,116,34,26,13,13,38,68,6,7,0.9,1
2023-02-19T08:00:00,1206A,119.905,32.4878,泰州市,公园路,细颗粒物(PM2.5),85,75,130,63,96,52,52,14,14,18,56,8,12,0.8,1.2
2023-02-19T08:00:00,1207A,119.9189,32.4625,泰州市,莲花,细颗粒物(PM2.5),89,78,133,66,101,54,54,13,13,18,62,8,14,0.9,1.2
2023-02-19T08:00:00,1209A,119.888,32.4639,泰州市,留学生创业园,细颗粒物(PM2.5),75,96,157,55,96,50,50,12,12,19,62,8,11,1.0,1.2
2023-02-19T08:00:00,1210A,119.036,33.5981,淮安市,钵池山,细颗粒物(PM2.5),73,70,121,53,114,67,42,38,38,22,36,5,6,0.8,0.9
2023-02-19T08:00:00,1211A,119.007,33.575,淮安市,北京南路,细颗粒物(PM2.5),102,85,127,76,102,46,40,26,26,25,45,11,10,0.9,1
2023-02-19T08:00:00,1212A,118.989,33.6067,淮安市,市监测站,细颗粒物(PM2.5),85,85,134,63,105,64,43,30,30,28,45,7,12,0.9,1
2023-02-19T08:00:00,1213A,119.135,33.5039,淮安市,楚州区监测站,细颗粒物(PM2.5),90,83,131,67,105,46,39,25,25,24,43,7,8,0.8,0.9
2023-02-19T08:00:00,1214A,119.0186,33.6297,淮安市,淮阴区监测站,细颗粒物(PM2.5),94,122,141,70,126,52,40,28,28,24,42,8,11,0.8,0.9
2023-02-19T08:00:00,1215A,120.118,33.4022,盐城市,盐城电厂,细颗粒物(PM2.5),82,107,104,60,47,57,48,30,30,23,42,7,8,1.0,0.8
2023-02-19T08:00:00,1216A,120.156,33.3942,盐城市,市监测站,细颗粒物(PM2.5),79,97,102,58,49,54,48,29,29,23,41,6,9,0.9,0.7
2023-02-19T08:00:00,1218A,120.2144,33.38,盐城市,开发区管委会,细颗粒物(PM2.5),119,118,126,90,86,53,46,29,29,21,40,8,5,1.0,0.9
2023-02-19T08:00:00,1220A,118.293,33.9528,宿迁市,宿迁学院,细颗粒物(PM2.5),97,85,158,72,102,69,47,58,53,24,39,8,9,0.5,0.8
2023-02-19T08:00:00,1221A,118.2442,33.9592,宿迁市,宿迁中学,细颗粒物(PM2.5),94,89,160,70,99,71,48,56,53,22,43,9,10,0.6,0.7
2023-02-19T08:00:00,1223A,120.2072,30.2111,杭州市,滨江,细颗粒物(PM2.5),110,85,81,83,44,107,55,62,60,22,36,8,9,1.0,0.9
2023-02-19T08:00:00,1224A,120.0633,30.2747,杭州市,西溪,细颗粒物(PM2.5),125,150,97,95,57,119,57,69,66,26,42,6,7,0.8,0.7
2023-02-19T08:00:00,1226A,120.3461,30.3153,杭州市,下沙,细颗粒物(PM2.5),132,117,90,100,66,109,42,60,56,30,43,6,8,1.0,0.9
2023-02-19T08:00:00,1227A,120.1269,30.2456,杭州市,卧龙桥,细颗粒物(PM2.5),103,113,77,77,50,105,46,64,61,28,37,6,8,0.9,0.8
2023-02-19T08:00:00,1228A,120.1903,30.2692,杭州市,浙江农大,细颗粒物(PM2.5),127,136,86,96,56,102,46,61,58,40,45,6,7,0.7,0.7
2023-02-19T08:00:00,1230A,120.1197,30.3119,杭州市,和睦小学,细颗粒物(PM2.5),132,142,109,100,72,96,43,65,61,45,54,5,6,0.8,0.8
2023-02-19T08:00:00,1231A,120.3019,30.4183,杭州市,临平镇,细颗粒物(PM2.5),134,122,108,102,67,89,46,56,54,23,43,8,9,1.0,1
2023-02-19T08:00:00,1232A,120.2697,30.1819,杭州市,城厢镇,细颗粒物(PM2.5),102,97,87,76,55,101,52,65,62,23,36,7,8,1.0,0.8
2023-02-19T08:00:00,1233A,120.0883,30.1808,杭州市,云栖,颗粒物(PM10),67,83,61,46,36,108,45,71,66,31,34,6,7,0.9,0.8
2023-02-19T08:00:00,1234A,121.8358,29.911,宁波市,区环保大楼,细颗粒物(PM2.5),144,127,81,110,52,61,37,26,26,35,69,7,9,1.1,0.8
2023-02-19T08:00:00,1235A,121.56,29.82,宁波市,万里学院,颗粒物(PM10),80,110,77,48,47,119,57,46,46,25,51,6,7,0.9,0.7
2023-02-19T08:00:00,1236A,121.713,29.9572,宁波市,龙赛医院,细颗粒物(PM2.5),114,121,90,86,49,93,33,26,26,46,66,10,9,0.9,0.7
2023-02-19T08:00:00,1239A,121.633,29.7733,宁波市,钱湖水厂,细颗粒物(PM2.5),88,81,64,65,46,106,49,45,45,25,35,5,6,1.0,0.8
2023-02-19T08:00:00,1240A,121.5856,29.8635,宁波市,太古小学,颗粒物(PM10),73,95,69,50,55,108,46,41,41,24,48,9,11,0.9,0.7
2023-02-19T08:00:00,1241A,121.524,29.8674,宁波市,市环境监测中心,颗粒物(PM10),60,70,75,38,48,108,45,38,38,26,50,5,8,0.8,0.7
2023-02-19T08:00:00,1242A,120.634,28.0089,温州市,瓯海,细颗粒物(PM2.5),92,121,89,68,47,99,3,2,2,44,44,8,8,0.8,0.6
2023-02-19T08:00:00,1243A,120.6748,27.9939,温州市,南浦,细颗粒物(PM2.5),62,72,71,44,38,98,3,2,2,45,48,5,6,0.8,0.6
2023-02-19T08:00:00,1244A,120.76,27.9747,温州市,龙湾,颗粒物(PM10),62,73,85,36,42,74,4,2,2,52,62,7,7,0.7,0.6
2023-02-19T08:00:00,1245A,120.6709,28.0167,温州市,市站,颗粒物(PM10),57,63,81,33,41,94,5,3,3,47,57,5,6,0.8,0.7
2023-02-19T08:00:00,1247A,120.6053,29.9928,绍兴市,城东开发委,细颗粒物(PM2.5),95,104,91,71,55,123,51,40,40,28,47,5,7,1.1,0.8
2023-02-19T08:00:00,1250A,120.0751,30.8669,湖州市,城西水厂,细颗粒物(PM2.5),122,76,78,92,89,92,20,43,36,38,56,7,10,0.8,0.8
2023-02-19T08:00:00,1252A,120.7436,30.778,嘉兴市,清河小学,细颗粒物(PM2.5),156,132,114,119,81,85,22,46,40,34,53,5,6,1.2,0.9
2023-02-19T08:00:00,1253A,120.726,30.7478,嘉兴市,嘉兴学院,细颗粒物(PM2.5),149,153,113,114,77,99,27,47,42,29,54,5,6,1.0,0.9
2023-02-19T08:00:00,1255A,121.273,28.6459,台州市,黄岩环保大楼,细颗粒物(PM2.5),83,78,60,61,40,102,43,30,30,32,35,7,8,0.8,0.5
2023-02-19T08:00:00,1256A,121.419,28.6542,台州市,台州环保大楼,细颗粒物(PM2.5),90,108,65,67,41,113,31,25,25,34,36,8,9,0.9,0.6
2023-02-19T08:00:00,1257A,121.377,28.5773,台州市,路桥田洋王,细颗粒物(PM2.5),80,106,70,59,42,102,45,24,24,25,38,7,14,0.6,0.5
2023-02-19T08:00:00,1258A,122.122,30.0203,舟山市,定海檀枫,细颗粒物(PM2.5),108,147,64,81,35,84,38,33,33,33,49,5,5,1.1,0.5
2023-02-19T08:00:00,1259A,122.3094,29.9558,舟山市,普陀东港,细颗粒物(PM2.5),115,150,63,87,42,72,53,36,36,27,32,7,6,1.0,0.7
2023-02-19T08:00:00,1260A,122.19,29.9944,舟山市,临城新区,细颗粒物(PM2.5),132,158,59,100,39,87,53,37,37,32,40,7,6,0.9,0.5
2023-02-19T08:00:00,1262A,119.647,29.077,金华市,十五中,细颗粒物(PM2.5),73,27,91,53,64,93,64,35,35,19,54,5,9,0.7,0.7
2023-02-19T08:00:00,1263A,119.686,29.1029,金华市,监测站,细颗粒物(PM2.5),68,26,82,49,61,101,63,36,36,23,54,5,10,0.9,0.8
2023-02-19T08:00:00,1264A,118.8692,28.9398,衢州市,环保大楼,细颗粒物(PM2.5),100,78,84,75,54,85,40,33,28,26,43,3,10,1.0,0.9
2023-02-19T08:00:00,1265A,118.8709,28.9666,衢州市,实验学校,细颗粒物(PM2.5),88,103,86,65,49,90,44,24,24,22,45,5,10,0.8,0.7
2023-02-19T08:00:00,1266A,118.8621,28.9808,衢州市,衢州学院,细颗粒物(PM2.5),95,96,86,71,51,91,45,22,22,16,44,5,10,0.7,0.7
2023-02-19T08:00:00,1267A,119.914,28.4514,丽水市,监测站大楼,细颗粒物(PM2.5),124,88,69,94,47,112,38,14,14,23,39,8,9,0.9,0.7
2023-02-19T08:00:00,1268A,119.93,28.4586,丽水市,莲都小学,细颗粒物(PM2.5),95,119,73,71,33,116,35,27,27,33,40,8,8,0.8,0.5
2023-02-19T08:00:00,1269A,119.879,28.4231,丽水市,余庄前,细颗粒物(PM2.5),128,121,48,97,29,112,32,9,8,28,25,10,9,0.7,0.4
2023-02-19T08:00:00,1270A,117.1959,31.7848,合肥市,明珠广场,细颗粒物(PM2.5),113,129,112,85,67,60,16,42,37,43,44,7,8,1.1,1.1
2023-02-19T08:00:00,1271A,117.3072,31.8764,合肥市,三里街,细颗粒物(PM2.5),156,149,121,119,91,50,26,27,26,42,46,6,5,0.9,1
2023-02-19T08:00:00,1272A,117.2588,31.8707,合肥市,琥珀山庄,细颗粒物(PM2.5),110,127,109,83,67,47,14,30,26,51,49,5,4,1.1,1
2023-02-19T08:00:00,1273A,117.1604,31.9052,合肥市,董铺水库,细颗粒物(PM2.5),107,117,106,80,68,57,13,31,26,40,32,4,4,0.7,0.7
2023-02-19T08:00:00,1274A,117.25,31.8571,合肥市,长江中路,细颗粒物(PM2.5),156,132,112,119,93,44,17,38,33,39,37,10,10,1.2,1.1
2023-02-19T08:00:00,1275A,117.266,31.9436,合肥市,庐阳区,细颗粒物(PM2.5),134,161,118,102,75,63,33,36,36,32,33,7,7,0.8,0.8
2023-02-19T08:00:00,1276A,117.336,31.8586,合肥市,瑶海区,细颗粒物(PM2.5),159,156,128,121,89,47,19,36,33,52,43,7,6,1.2,1.2
2023-02-19T08:00:00,1277A,117.3027,31.7964,合肥市,包河区,细颗粒物(PM2.5),144,146,114,110,80,52,15,41,33,55,46,10,8,0.9,0.9
2023-02-19T08:00:00,1278A,117.2776,31.7385,合肥市,滨湖新区,细颗粒物(PM2.5),113,144,115,85,70,53,5,34,29,67,51,8,7,0.8,0.8
2023-02-19T08:00:00,1279A,117.1318,31.8403,合肥市,高新区,细颗粒物(PM2.5),140,136,110,107,78,65,22,53,44,40,36,6,6,1.0,1
2023-02-19T08:00:00,1280A,119.3903,26.0543,福州市,鼓山,,,,,,,,,,,,,,,,
2023-02-19T08:00:00,1282A,119.2681,26.0504,福州市,师大,颗粒物(PM10),52,54,56,29,33,123,12,20,11,35,35,5,6,0.6,0.5
2023-02-19T08:00:00,1283A,119.2984,26.1028,福州市,五四北路,颗粒物(PM10),54,57,51,36,34,117,10,20,10,33,35,3,4,0.6,0.6
2023-02-19T08:00:00,1284A,119.2648,26.0768,福州市,杨桥西路,颗粒物(PM10),51,51,53,28,31,119,18,11,11,28,29,4,5,0.6,0.6
2023-02-19T08:00:00,1285A,119.317,26.0746,福州市,紫阳,颗粒物(PM10),51,52,52,30,32,128,12,7,7,34,34,3,4,0.7,0.7
2023-02-19T08:00:00,1286A,118.1608,24.8169,厦门市,溪东,,,,,,,,,,,,,,,,
2023-02-19T08:00:00,1287A,118.1514,24.4767,厦门市,洪文,细颗粒物(PM2.5),82,77,71,60,50,155,16,48,34,71,50,4,4,0.4,0.2
2023-02-19T08:00:00,1288A,118.0661,24.4444,厦门市,鼓浪屿,细颗粒物(PM2.5),95,99,67,71,44,149,14,54,26,89,58,18,9,0.6,0.5
2023-02-19T08:00:00,1290A,115.8931,28.6843,南昌市,省外办,细颗粒物(PM2.5),99,95,88,74,57,86,33,56,44,26,35,10,13,0.8,0.6
2023-02-19T08:00:00,1291A,115.8886,28.7003,南昌市,省林业公司,细颗粒物(PM2.5),107,97,77,80,57,87,30,55,40,14,33,11,14,1.2,1
2023-02-19T08:00:00,1292A,115.8126,28.7442,南昌市,林科所,细颗粒物(PM2.5),113,107,71,85,46,90,66,75,68,15,22,9,11,1.0,0.9
2023-02-19T08:00:00,1294A,115.8518,28.687,南昌市,建工学校,细颗粒物(PM2.5),99,90,84,74,51,85,40,65,51,21,28,6,9,1.1,0.9
2023-02-19T08:00:00,1295A,115.8921,28.6424,南昌市,象湖,细颗粒物(PM2.5),117,81,71,88,59,78,34,56,44,22,31,9,11,1.2,1
2023-02-19T08:00:00,1296A,115.7423,28.7996,南昌市,武术学校,细颗粒物(PM2.5),92,75,48,68,39,110,74,80,76,10,11,9,10,0.7,0.5
2023-02-19T08:00:00,1298A,115.9314,28.6842,南昌市,省站,细颗粒物(PM2.5),105,117,96,79,59,91,40,62,48,19,27,7,8,1.0,0.8
2023-02-19T08:00:00,1299A,116.9862,36.6114,济南市,科干所,颗粒物(PM10),60,70,128,5,73,92,52,65,63,38,35,14,10,0.6,0.8
2023-02-19T08:00:00,1300A,116.9376,36.665,济南市,农科所,颗粒物(PM10),55,59,124,5,68,91,49,56,55,34,48,3,8,0.4,0.8
2023-02-19T08:00:00,1301A,117.1265,36.6734,济南市,开发区,颗粒物(PM10),59,68,121,11,75,91,40,57,55,38,30,8,12,0.4,0.6
2023-02-19T08:00:00,1303A,117.0624,36.6868,济南市,省种子仓库,颗粒物(PM10),56,61,124,5,83,95,54,64,61,27,28,6,12,0.3,0.6
2023-02-19T08:00:00,1304A,116.9489,36.6447,济南市,机床二厂,颗粒物(PM10),58,66,127,5,81,93,43,64,61,42,34,14,12,0.7,0.8
2023-02-19T08:00:00,1305A,117.0495,36.663,济南市,市监测站,颗粒物(PM10),58,66,120,9,78,92,58,64,64,41,43,5,9,0.4,0.7
2023-02-19T08:00:00,1306A,116.7675,36.5484,济南市,长清党校,,34,34,132,10,80,103,61,63,63,38,42,6,11,0.6,1
2023-02-19T08:00:00,1307A,120.6659,36.2403,青岛市,仰口,,,,,,,,,,,,,,,,
2023-02-19T08:00:00,1310A,120.4134,36.0658,青岛市,市南区东部子站,细颗粒物(PM2.5),89,92,50,66,39,75,47,60,58,30,35,9,9,1.0,0.7
2023-02-19T08:00:00,1311A,120.3664,36.1032,青岛市,四方区子站,细颗粒物(PM2.5),113,105,70,85,47,70,40,54,51,22,37,9,7,0.8,0.6
2023-02-19T08:00:00,1312A,120.2994,36.054,青岛市,市南区西部子站,细颗粒物(PM2.5),95,92,51,71,35,70,54,62,61,29,41,9,9,0.7,0.5
2023-02-19T08:00:00,1313A,120.4581,36.0858,青岛市,崂山区子站,细颗粒物(PM2.5),107,112,57,80,38,79,48,61,57,31,33,9,8,0.9,0.6
2023-02-19T08:00:00,1314A,120.1983,35.9608,青岛市,黄岛区子站,细颗粒物(PM2.5),77,83,67,56,46,74,58,65,63,27,33,7,6,0.8,0.7
2023-02-19T08:00:00,1315A,120.3999,36.3083,青岛市,城阳区子站,细颗粒物(PM2.5),80,97,81,59,43,69,34,55,50,31,45,6,6,1.0,0.6
2023-02-19T08:00:00,1316A,113.69031,34.76122,郑州市,烟厂,颗粒物(PM10),54,58,110,15,54,99,44,73,59,31,25,8,8,0.2,0.4
2023-02-19T08:00:00,1317A,113.65724,34.77134,郑州市,郑纺机,颗粒物(PM10),58,65,106,13,51,100,40,71,58,36,27,6,6,0.4,0.6
2023-02-19T08:00:00,1318A,113.67526,34.80246,郑州市,银行学校,颗粒物(PM10),51,52,100,10,54,105,52,75,60,18,19,8,8,0.6,0.8
2023-02-19T08:00:00,1319A,113.56746,34.81334,郑州市,供水公司,颗粒物(PM10),57,63,102,15,51,106,48,74,60,26,22,6,7,0.4,0.6
2023-02-19T08:00:00,1320A,113.7329,34.7178,郑州市,经开区管委,颗粒物(PM10),53,56,102,17,54,100,36,72,57,37,26,8,9,0.4,0.6
2023-02-19T08:00:00,1321A,113.73961,34.77172,郑州市,四十七中,颗粒物(PM10),55,59,100,12,54,92,45,69,55,23,21,6,6,0.4,0.7
2023-02-19T08:00:00,1322A,113.60532,34.74838,郑州市,市监测站,颗粒物(PM10),57,63,110,19,58,95,28,72,58,38,19,9,9,0.5,0.8
2023-02-19T08:00:00,1323A,113.64164,34.7525,郑州市,河医大,颗粒物(PM10),57,63,111,12,49,97,41,72,57,24,19,6,7,0.4,0.6
2023-02-19T08:00:00,1324A,113.51488,34.91089,郑州市,岗李水库,,,,,,,,,,,,,,,,
2023-02-19T08:00:00,1325A,114.3677,30.5584,武汉市,东湖梨园,细颗粒物(PM2.5),68,70,84,49,68,81,66,46,46,30,51,8,7,0.6,1
2023-02-19T08:00:00,1326A,114.2529,30.558,武汉市,汉阳月湖,细颗粒物(PM2.5),79,84,102,58,87,60,60,26,26,30,57,8,7,0.7,1.1
2023-02-19T08:00:00,1327A,114.282,30.6189,武汉市,汉口花桥,颗粒物(PM10),65,79,97,46,71,55,55,29,29,28,53,7,6,0.8,1.1
2023-02-19T08:00:00,1328A,114.3025,30.5332,武汉市,武昌紫阳,细颗粒物(PM2.5),75,64,92,55,72,67,50,30,30,35,58,10,9,0.8,1.3
2023-02-19T08:00:00,1329A,114.3646,30.6217,武汉市,青山钢花,细颗粒物(PM2.5),67,82,95,48,73,67,44,32,32,46,57,11,10,0.7,1.1
2023-02-19T08:00:00,1330A,114.1566,30.4825,武汉市,沌口新区,颗粒物(PM10),74,98,97,51,64,32,27,11,11,55,63,9,9,0.8,1.2
2023-02-19T08:00:00,1331A,114.3014,30.5944,武汉市,汉口江滩,细颗粒物(PM2.5),67,72,92,48,63,72,61,41,41,30,52,8,7,0.7,1.1
2023-02-19T08:00:00,1333A,114.135,30.6319,武汉市,吴家山,细颗粒物(PM2.5),108,110,105,81,80,23,19,11,11,74,68,8,7,0.6,0.8
2023-02-19T08:00:00,1334A,113.8454,30.2917,武汉市,沉湖七壕,颗粒物(PM10),67,83,77,40,49,45,45,18,18,20,30,8,9,0.7,1.1
2023-02-19T08:00:00,1335A,113.0833,28.2325,长沙市,经开区环保局,细颗粒物(PM2.5),158,131,99,120,86,33,8,23,15,30,40,3,4,0.7,0.9
2023-02-19T08:00:00,1336A,112.8872,28.2189,长沙市,高开区环保局,细颗粒物(PM2.5),148,148,113,113,82,49,22,34,27,20,32,8,8,0.7,0.8
2023-02-19T08:00:00,1337A,113.0792,28.2053,长沙市,马坡岭,细颗粒物(PM2.5),140,117,98,107,77,38,8,27,16,29,37,8,9,0.6,0.7
2023-02-19T08:00:00,1338A,112.9394,28.19,长沙市,湖南师范大学,细颗粒物(PM2.5),149,128,96,114,83,41,16,31,20,23,33,5,5,0.7,0.8
2023-02-19T08:00:00,1339A,113.0178,28.1322,长沙市,雨花区环保局,细颗粒物(PM2.5),143,112,89,109,77,40,16,30,21,24,34,4,4,0.7,0.7
2023-02-19T08:00:00,1340A,112.9792,28.2597,长沙市,伍家岭,细颗粒物(PM2.5),144,119,93,110,81,39,12,30,18,28,36,7,7,0.9,1
2023-02-19T08:00:00,1341A,113.0014,28.1944,长沙市,火车新站,细颗粒物(PM2.5),149,117,97,114,85,34,16,31,20,24,39,7,8,0.8,1.1
2023-02-19T08:00:00,1342A,112.9844,28.1178,长沙市,天心区环保局,细颗粒物(PM2.5),149,130,99,114,83,41,16,32,21,22,36,4,5,0.6,0.7
2023-02-19T08:00:00,1343A,112.8908,28.1308,长沙市,湖南中医药大学,细颗粒物(PM2.5),155,133,99,118,82,41,15,30,20,21,29,5,6,1.0,1.1
2023-02-19T08:00:00,1344A,112.9581,28.3611,长沙市,沙坪,细颗粒物(PM2.5),132,135,89,100,68,46,12,29,16,29,31,10,9,0.9,1
2023-02-19T08:00:00,1345A,113.2347,23.1423,广州市,广雅中学,颗粒物(PM10),94,137,107,59,54,213,4,4,4,103,97,5,6,1.1,1.1
2023-02-19T08:00:00,1346A,113.2612,23.105,广州市,市五中,细颗粒物(PM2.5),97,130,99,72,64,225,5,6,5,102,85,8,8,1.2,1.2
2023-02-19T08:00:00,1348A,113.3478,23.0916,广州市,广东商学院,颗粒物(PM10),82,113,92,54,44,202,2,3,2,93,80,6,6,1.3,1
2023-02-19T08:00:00,1349A,113.4332,23.1047,广州市,市八十六中,颗粒物(PM10),79,107,99,48,44,218,3,13,4,82,78,5,6,1.1,1
2023-02-19T08:00:00,1350A,113.3505,22.9483,广州市,番禺中学,颗粒物(PM10),64,78,75,44,40,259,5,23,8,80,57,8,9,1.4,1
2023-02-19T08:00:00,1351A,113.2146,23.3916,广州市,花都师范,颗粒物(PM10),55,60,80,36,47,241,43,23,23,50,60,6,7,0.6,0.8
2023-02-19T08:00:00,1352A,113.2597,23.1331,广州市,市监测站,颗粒物(PM10),96,142,94,62,46,203,3,22,6,108,91,9,9,1.2,1.1
2023-02-19T08:00:00,1353A,113.5618,23.312,广州市,九龙镇镇龙,颗粒物(PM10),61,72,71,41,35,173,14,5,5,55,54,5,5,0.7,0.7
2023-02-19T08:00:00,1354A,113.2765,23.1544,广州市,麓湖,颗粒物(PM10),70,89,68,45,35,212,4,3,3,78,70,4,5,0.9,0.8
2023-02-19T08:00:00,1355A,113.443,23.3035,广州市,帽峰山森林公园,,48,48,39,23,16,181,94,73,66,12,23,6,7,0.7,0.8
2023-02-19T08:00:00,1356A,114.1063,22.5545,深圳市,通心岭子站,,45,45,40,25,19,97,7,72,40,41,25,3,3,0.8,0.7
2023-02-19T08:00:00,1357A,114.117,22.5625,深圳市,洪湖,颗粒物(PM10),62,74,58,32,23,119,4,80,18,68,43,8,8,0.8,0.6
2023-02-19T08:00:00,1358A,113.987,22.5417,深圳市,华侨城,颗粒物(PM10),51,51,43,20,22,115,2,58,44,63,36,6,6,0.7,0.7
2023-02-19T08:00:00,1359A,113.9181,22.5171,深圳市,南海子站,颗粒物(PM10),56,62,49,30,22,107,7,81,53,61,33,5,5,0.9,0.8
2023-02-19T08:00:00,1360A,114.2458,22.5689,深圳市,盐田,,22,22,31,10,15,120,46,92,71,13,21,5,7,0.6,0.6
2023-02-19T08:00:00,1361A,114.2283,22.7244,深圳市,龙岗,颗粒物(PM10),64,78,54,38,23,148,10,60,20,71,38,4,4,0.8,0.5
2023-02-19T08:00:00,1363A,114.494,22.5422,深圳市,南澳,,23,23,34,11,18,147,55,82,64,16,19,5,7,0.5,0.6
2023-02-19T08:00:00,1364A,114.41,22.6342,深圳市,葵涌,,46,46,40,23,20,120,27,59,45,35,22,5,5,0.6,0.5
2023-02-19T08:00:00,1365A,114.297,22.5978,深圳市,梅沙,,39,39,41,15,17,134,61,103,88,18,21,5,5,0.8,0.8
2023-02-19T08:00:00,1366A,114.0678,22.738,深圳市,观澜,颗粒物(PM10),81,111,71,55,31,128,9,26,11,54,44,8,8,0.9,0.7
2023-02-19T08:00:00,1367A,113.5814,22.2618,珠海市,吉大,,41,41,50,17,24,166,50,59,58,39,40,5,5,0.5,0.5
2023-02-19T08:00:00,1368A,113.4881,22.2335,珠海市,前山,颗粒物(PM10),51,52,47,10,15,138,4,61,27,68,48,4,4,0.6,0.5
2023-02-19T08:00:00,1369A,113.628,22.4251,珠海市,唐家,,39,39,46,27,26,149,20,46,24,32,38,6,7,0.4,0.4
2023-02-19T08:00:00,1370A,113.299,22.2281,珠海市,斗门,颗粒物(PM10),62,73,52,34,26,193,14,31,18,58,40,6,5,0.5,0.4
2023-02-19T08:00:00,1371A,113.1294,23.0067,佛山市,湾梁,颗粒物(PM10),114,178,101,81,41,226,8,14,7,116,79,14,11,1.2,0.9
2023-02-19T08:00:00,1372A,113.1083,23.0478,佛山市,华材职中,细颗粒物(PM2.5),127,161,116,96,58,248,6,25,7,105,85,12,9,1.0,0.7
2023-02-19T08:00:00,1373A,113.144,23.0453,佛山市,南海气象局,细颗粒物(PM2.5),143,155,89,109,50,202,5,23,12,118,82,12,9,1.2,0.8
2023-02-19T08:00:00,1374A,113.2881,22.8094,佛山市,顺德苏岗,细颗粒物(PM2.5),52,40,56,36,33,223,4,5,3,66,56,9,10,0.6,0.5
2023-02-19T08:00:00,1376A,112.8383,22.8678,佛山市,高明孔堂,细颗粒物(PM2.5),100,101,87,75,50,241,32,72,41,53,46,15,10,0.7,0.6
2023-02-19T08:00:00,1377A,112.8836,23.1588,佛山市,三水监测站,细颗粒物(PM2.5),85,112,124,63,66,209,45,37,37,68,86,17,11,0.9,0.9
2023-02-19T08:00:00,1378A,112.867,23.185,佛山市,三水云东海,细颗粒物(PM2.5),95,105,96,71,60,213,21,13,13,53,68,6,10,0.7,0.7
2023-02-19T08:00:00,1379A,113.3769,22.5211,中山市,华柏园,,44,44,51,24,33,223,4,39,17,44,40,6,7,0.5,0.5
2023-02-19T08:00:00,1380A,113.3881,22.5497,中山市,张溪,颗粒物(PM10),53,56,65,31,36,220,4,33,15,60,43,6,5,0.7,0.6
2023-02-19T08:00:00,1381A,113.4075,22.5111,中山市,紫马岭,,25,25,45,15,21,187,10,30,20,30,29,5,5,0.5,0.5
2023-02-19T08:00:00,1382A,113.4411,22.4853,中山市,长江旅游区,,19,11,32,13,24,150,17,21,14,11,22,9,10,0.4,0.4
2023-02-19T08:00:00,1383A,113.1064,22.6058,江门市,北街,细颗粒物(PM2.5),73,69,71,53,39,266,12,36,16,92,58,9,9,1.0,0.8
2023-02-19T08:00:00,1384A,113.0731,22.5835,江门市,西区,细颗粒物(PM2.5),69,74,75,50,38,294,6,41,11,78,53,10,8,1.0,0.7
2023-02-19T08:00:00,1385A,113.0219,22.5311,江门市,圭峰西,颗粒物(PM10),51,51,60,33,37,278,23,43,30,44,44,6,7,0.8,0.9
2023-02-19T08:00:00,1386A,113.0828,22.5947,江门市,东湖,颗粒物(PM10),80,109,71,55,34,282,11,38,15,74,51,8,7,0.9,0.7
2023-02-19T08:00:00,1389A,113.7547,23.0494,东莞市,莞城梨川,颗粒物(PM10),53,55,64,30,32,216,34,28,17,47,45,10,10,0.6,0.6
2023-02-19T08:00:00,1390A,113.7944,23.0128,东莞市,东城石井,,43,43,51,24,27,215,14,28,12,34,35,7,9,0.6,0.6
2023-02-19T08:00:00,1391A,113.7383,22.9658,东莞市,南城西平,颗粒物(PM10),68,85,77,38,36,209,5,7,4,65,61,10,9,0.7,0.5
2023-02-19T08:00:00,1392A,114.4183,23.0528,惠州市,河南岸金山湖子站,颗粒物(PM10),58,65,68,37,33,104,8,23,12,39,34,5,5,0.8,0.6
2023-02-19T08:00:00,1393A,114.4053,23.0822,惠州市,下埔横江三路子站,颗粒物(PM10),59,68,68,40,32,121,8,6,5,47,41,7,5,0.9,0.9
2023-02-19T08:00:00,1394A,114.4103,23.1142,惠州市,江北云山西路子站,细颗粒物(PM2.5),67,69,69,48,35,127,3,4,2,43,34,8,6,0.8,0.7
2023-02-19T08:00:00,1395A,114.4645,22.7833,惠州市,惠阳区承修路船湖子站,颗粒物(PM10),53,56,61,33,30,135,38,74,35,27,29,5,6,0.9,0.9
2023-02-19T08:00:00,1396A,114.5317,22.7422,惠州市,大亚湾管委会子站,颗粒物(PM10),57,64,68,34,28,82,13,9,9,47,60,5,6,0.8,0.7
2023-02-19T08:00:00,1397A,112.4267,23.0706,肇庆市,睦岗子站,细颗粒物(PM2.5),59,65,69,42,39,206,14,22,16,82,65,10,11,0.7,0.6
2023-02-19T08:00:00,1398A,112.4645,23.0475,肇庆市,城中子站,,,68,76,48,48,218,24,52,46,,64,15,10,0.7,0.7
2023-02-19T08:00:00,1399A,112.5544,23.1522,肇庆市,坑口子站,细颗粒物(PM2.5),54,47,61,38,46,240,42,109,82,40,32,7,11,0.5,0.5
2023-02-19T08:00:00,1400A,112.4753,23.1,肇庆市,七星岩子站,,,67,57,,34,242,61,141,110,54,29,16,19,0.5,0.5
2023-02-19T08:00:00,1401A,108.3103,22.7881,南宁市,二十一中,细颗粒物(PM2.5),75,80,73,55,45,106,28,15,10,33,30,24,9,1.0,0.9
2023-02-19T08:00:00,1402A,108.3141,22.8528,南宁市,北湖,细颗粒物(PM2.5),87,84,75,64,44,98,23,17,13,31,31,46,14,0.8,0.7
2023-02-19T08:00:00,1403A,108.3206,22.8225,南宁市,市监测站,细颗粒物(PM2.5),83,78,75,61,47,95,21,10,10,62,57,29,12,0.8,0.7
2023-02-19T08:00:00,1404A,108.3829,22.8037,南宁市,大自然花园,细颗粒物(PM2.5),68,66,62,49,41,93,36,30,30,28,29,7,7,0.8,0.8
2023-02-19T08:00:00,1405A,108.4394,22.7904,南宁市,仙葫,细颗粒物(PM2.5),67,76,72,48,40,100,10,14,10,46,30,8,8,0.7,0.7
2023-02-19T08:00:00,1406A,108.2397,22.8467,南宁市,区农职院,细颗粒物(PM2.5),68,67,62,49,38,99,38,38,38,30,31,10,8,0.8,0.7
2023-02-19T08:00:00,1407A,108.3275,22.735,南宁市,英华嘉园,细颗粒物(PM2.5),83,105,78,61,52,87,3,8,4,50,37,8,6,0.9,0.8
2023-02-19T08:00:00,1408A,108.2257,22.7757,南宁市,沙井镇街道办,细颗粒物(PM2.5),78,89,84,57,45,95,3,0,0,43,41,7,6,0.9,0.8
2023-02-19T08:00:00,1409A,110.576,19.9507,海口市,东寨港,,,24,29,20,15,65,58,52,52,,,5,6,0.6,0.6
2023-02-19T08:00:00,1410A,110.3232,20.0574,海口市,海南大学,,32,32,33,22,22,112,86,99,89,10,10,5,5,0.7,0.7
2023-02-19T08:00:00,1411A,110.283,20.0053,海口市,秀英海南医院,,30,29,39,18,19,117,96,102,93,13,14,4,4,0.6,0.6
2023-02-19T08:00:00,1412A,110.338,19.9969,海口市,海南师范大学,,32,32,40,18,19,119,99,98,97,9,10,4,3,0.7,0.7
2023-02-19T08:00:00,1413A,110.33,20.0356,海口市,龙华路环保局宿舍,,32,32,38,19,18,121,94,102,96,13,12,6,6,0.7,0.6
2023-02-19T08:00:00,1414A,106.3787,29.8279,重庆市,缙云山,颗粒物(PM10),51,51,45,32,32,81,38,68,57,22,21,7,10,0.8,0.7
2023-02-19T08:00:00,1416A,106.4213,29.8253,重庆市,天生,细颗粒物(PM2.5),80,93,75,59,52,65,2,4,3,44,38,8,11,1.2,1
2023-02-19T08:00:00,1417A,106.6263,29.7228,重庆市,两路,细颗粒物(PM2.5),67,74,69,48,47,58,5,19,14,57,49,9,8,1.1,1
2023-02-19T08:00:00,1418A,106.2953,29.5983,重庆市,虎溪,细颗粒物(PM2.5),64,60,62,46,50,76,13,24,15,40,36,15,14,0.7,0.7
2023-02-19T08:00:00,1419A,106.5777,29.5102,重庆市,南坪,细颗粒物(PM2.5),79,69,75,58,52,48,39,27,27,17,40,16,14,0.6,0.9
2023-02-19T08:00:00,1420A,106.6556,29.6277,重庆市,唐家沱,细颗粒物(PM2.5),84,71,76,62,51,55,20,6,6,42,58,12,10,1.1,1.1
2023-02-19T08:00:00,1421A,106.6349,29.4906,重庆市,茶园,细颗粒物(PM2.5),80,84,76,59,55,52,16,27,24,45,49,11,9,0.9,1
2023-02-19T08:00:00,1422A,106.3754,29.4572,重庆市,白市驿,细颗粒物(PM2.5),80,54,77,59,55,64,52,45,40,17,40,22,14,0.8,0.8
2023-02-19T08:00:00,1425A,106.6205,29.7166,重庆市,空港,细颗粒物(PM2.5),75,71,68,55,49,60,5,24,18,59,53,8,8,1.0,1
2023-02-19T08:00:00,1426A,106.4782,29.4875,重庆市,新山村,细颗粒物(PM2.5),102,95,84,76,56,62,21,15,15,43,56,17,11,0.7,0.7
2023-02-19T08:00:00,1427A,106.5616,29.6453,重庆市,礼嘉,细颗粒物(PM2.5),99,93,85,74,46,61,14,16,13,46,51,14,11,0.8,0.8
2023-02-19T08:00:00,1428A,106.4522,29.7091,重庆市,蔡家,细颗粒物(PM2.5),94,85,73,70,46,82,8,12,11,38,41,6,8,1.0,0.9
2023-02-19T08:00:00,1429A,106.5093,29.3917,重庆市,鱼新街,细颗粒物(PM2.5),79,80,84,58,61,45,21,35,32,34,41,31,19,1.1,1.1
2023-02-19T08:00:00,1431A,103.9728,30.7236,成都市,金泉两河,颗粒物(PM10),57,63,57,32,33,87,12,23,20,49,37,2,2,0.4,0.7
2023-02-19T08:00:00,1432A,104.176,30.6872,成都市,十里店,,46,46,57,8,36,72,34,51,49,34,35,1,1,0.5,0.9
2023-02-19T08:00:00,1433A,104.079,30.5706,成都市,三瓦窑,,46,46,61,10,37,77,49,54,53,26,36,2,2,0.3,0.7
2023-02-19T08:00:00,1434A,104.1114,30.63,成都市,沙河铺,,38,38,58,11,38,86,41,53,52,36,40,3,3,0.4,0.8
2023-02-19T08:00:00,1437A,104.0786,30.6531,成都市,君平街,,48,41,58,33,44,90,40,57,55,43,45,2,2,0.4,0.8
2023-02-19T08:00:00,1438A,103.613,31.0283,成都市,灵岩寺,,23,21,23,16,20,67,48,50,49,12,11,14,7,0.4,0.6
2023-02-19T08:00:00,1439A,106.6899,26.5998,贵阳市,马鞍山,,41,41,30,27,23,67,50,65,60,14,16,7,6,0.9,0.9
2023-02-19T08:00:00,1440A,106.6971,26.5694,贵阳市,市环保站,,48,36,33,33,33,71,56,70,66,17,25,6,6,0.7,0.7
2023-02-19T08:00:00,1441A,106.6243,26.6266,贵阳市,鉴湖路,,32,31,33,22,19,71,62,71,65,11,16,5,5,0.6,0.7
2023-02-19T08:00:00,1442A,106.7487,26.6343,贵阳市,燕子冲,,49,39,38,34,35,60,54,58,57,11,17,5,5,0.7,0.7
2023-02-19T08:00:00,1443A,106.6555,26.4365,贵阳市,碧云窝,,42,39,46,29,29,75,55,70,68,21,20,12,11,0.8,0.7
2023-02-19T08:00:00,1444A,106.694,26.5161,贵阳市,中院村,,46,46,50,27,30,73,56,72,68,22,25,17,17,0.8,0.8
2023-02-19T08:00:00,1445A,106.7109,26.6027,贵阳市,红边门,细颗粒物(PM2.5),58,41,37,41,33,76,63,76,71,15,20,11,13,0.8,0.9
2023-02-19T08:00:00,1446A,106.7164,26.5699,贵阳市,新华路,,35,34,39,24,28,71,60,71,68,12,19,6,8,0.6,0.7
2023-02-19T08:00:00,1447A,106.674,26.5424,贵阳市,太慈桥,,44,44,43,27,24,72,55,70,67,19,22,6,4,0.8,0.7
2023-02-19T08:00:00,1450A,102.8204,24.8886,昆明市,呈贡新区,细颗粒物(PM2.5),68,64,39,49,31,119,40,68,64,26,16,6,8,0.9,0.6
2023-02-19T08:00:00,1451A,102.6251,24.9608,昆明市,西山森林公园,细颗粒物(PM2.5),57,55,38,40,26,117,56,95,77,16,12,6,8,1.0,0.7
2023-02-19T08:00:00,1452A,102.7252,25.0902,昆明市,龙泉镇,"颗粒物(PM10),细颗粒物(PM2.5)",52,54,49,36,30,114,51,45,45,11,26,6,7,1.0,0.8
2023-02-19T08:00:00,1453A,102.7266,25.0375,昆明市,东风东路,细颗粒物(PM2.5),62,60,47,44,32,112,48,72,59,15,21,7,8,0.9,0.7
2023-02-19T08:00:00,1454A,102.6742,25.0669,昆明市,金鼎山,细颗粒物(PM2.5),58,59,46,41,33,117,53,58,57,10,18,4,5,0.9,0.7
2023-02-19T08:00:00,1455A,102.6644,25.0401,昆明市,碧鸡广场,细颗粒物(PM2.5),68,64,47,49,34,112,52,56,55,16,25,5,6,0.9,0.6
2023-02-19T08:00:00,1456A,91.1319,29.6514,拉萨市,八廓街,,25,25,38,4,14,96,35,43,36,19,20,14,14,0.4,0.5
2023-02-19T08:00:00,1457A,91.1221,29.6747,拉萨市,市环保局,,37,37,47,16,24,101,22,23,21,32,32,5,7,1.0,1.1
2023-02-19T08:00:00,1458A,91.0874,29.6475,拉萨市,区监测站,,19,19,39,10,17,99,23,25,25,20,22,6,7,0.8,1
2023-02-19T08:00:00,1459A,91.1774,29.6541,拉萨市,西藏大学,,23,23,31,9,12,103,47,47,47,14,20,4,5,0.4,0.5
2023-02-19T08:00:00,1460A,90.9798,29.6588,拉萨市,区辐射站,,16,16,30,6,14,95,42,52,50,26,24,6,7,0.6,0.7
2023-02-19T08:00:00,1461A,91.0834,29.6292,拉萨市,拉萨火车站,,32,32,37,9,10,96,14,66,40,44,23,8,8,0.9,0.6
2023-02-19T08:00:00,1462A,108.882,34.2749,西安市,高压开关厂,颗粒物(PM10),85,120,88,30,35,104,8,16,14,64,42,9,9,0.6,0.5
2023-02-19T08:00:00,1463A,108.993,34.2629,西安市,兴庆小区,颗粒物(PM10),87,123,91,26,32,102,8,33,24,60,38,7,6,0.5,0.8
2023-02-19T08:00:00,1464A,109.06,34.2572,西安市,纺织城,颗粒物(PM10),111,171,108,26,33,100,4,7,6,54,46,8,9,0.6,0.5
2023-02-19T08:00:00,1465A,108.9356,34.2173,西安市,小寨,颗粒物(PM10),66,81,77,20,31,97,23,28,27,45,32,7,7,0.4,0.4
2023-02-19T08:00:00,1466A,108.954,34.2713,西安市,市人民体育场,颗粒物(PM10),71,92,96,22,31,100,5,22,17,57,34,7,8,0.6,0.5
2023-02-19T08:00:00,1467A,108.8922,34.2322,西安市,高新西区,颗粒物(PM10),68,85,90,24,32,105,15,31,26,58,41,7,7,0.6,0.5
2023-02-19T08:00:00,1468A,108.935,34.3474,西安市,经开区,颗粒物(PM10),93,135,94,36,30,105,7,39,22,72,39,7,6,0.5,0.4
2023-02-19T08:00:00,1469A,108.906,34.1546,西安市,长安区,颗粒物(PM10),78,106,112,24,31,104,16,42,27,56,32,8,5,0.6,0.5
2023-02-19T08:00:00,1471A,109.2186,34.3731,西安市,临潼区,颗粒物(PM10),71,92,89,20,27,104,18,56,38,47,25,8,8,0.7,0.5
2023-02-19T08:00:00,1472A,108.869,34.378,西安市,草滩,颗粒物(PM10),95,140,108,24,27,91,5,38,12,49,30,14,10,0.3,0.2
2023-02-19T08:00:00,1473A,108.985,34.1978,西安市,曲江文化产业集团,颗粒物(PM10),70,90,104,20,32,106,22,35,32,50,32,6,6,0.8,0.8
2023-02-19T08:00:00,1474A,109.051,34.3213,西安市,广运潭,颗粒物(PM10),73,95,104,23,29,98,5,30,8,50,34,6,6,0.6,0.6
2023-02-19T08:00:00,1476A,103.631,36.1031,兰州市,兰炼宾馆,颗粒物(PM10),70,89,80,44,33,102,6,46,24,64,37,15,9,1.0,0.6
2023-02-19T08:00:00,1477A,104.1373,35.9454,兰州市,榆中兰大校区,,,,,,,,,,,,,,,,
2023-02-19T08:00:00,1478A,103.8412,36.0726,兰州市,生物制品所,颗粒物(PM10),73,96,73,41,32,102,4,5,4,65,45,10,6,1.7,0.8
2023-02-19T08:00:00,1479A,103.831,36.0464,兰州市,铁路设计院,颗粒物(PM10),76,102,75,53,45,95,8,18,8,73,54,28,9,3.5,1.3
2023-02-19T08:00:00,1483A,101.524,36.6867,西宁市,第五水厂,,,,,,,,,,,,,,,,
2023-02-19T08:00:00,1484A,105.9512,38.6016,银川市,贺兰山马莲口,,23,16,27,9,9,103,73,74,74,13,15,9,9,0.3,0.3
2023-02-19T08:00:00,1488A,106.2328,38.4975,银川市,贺兰山东路,,49,49,57,26,20,92,23,26,18,43,30,4,6,0.6,0.5
2023-02-19T08:00:00,1489A,106.1358,38.5036,银川市,学院路,颗粒物(PM10),51,52,59,14,16,87,9,14,13,61,34,8,4,1.0,0.7
2023-02-19T08:00:00,1490A,87.5801,43.8303,乌鲁木齐市,监测站,细颗粒物(PM2.5),97,116,128,72,93,78,14,62,32,88,64,2,2,1.4,1.2
2023-02-19T08:00:00,1491A,87.6046,43.768,乌鲁木齐市,收费所,细颗粒物(PM2.5),100,135,162,75,101,66,29,41,39,44,56,2,3,1.0,1.1
2023-02-19T08:00:00,1492A,87.4754,43.9469,乌鲁木齐市,新疆农科院农场,细颗粒物(PM2.5),192,155,94,144,128,110,5,32,16,98,62,8,9,1.6,1.5
2023-02-19T08:00:00,1493A,87.5525,43.8711,乌鲁木齐市,铁路局,细颗粒物(PM2.5),127,105,118,96,101,94,10,69,37,107,63,3,2,1.7,1.2
2023-02-19T08:00:00,1494A,87.6432,43.831,乌鲁木齐市,三十一中学,细颗粒物(PM2.5),117,118,135,88,99,79,33,62,45,55,41,6,5,1.3,1.1
2023-02-19T08:00:00,1496A,87.7216,44.1747,乌鲁木齐市,米东区环保局,细颗粒物(PM2.5),99,100,128,74,104,120,72,87,69,23,32,9,10,0.8,0.9
2023-02-19T08:00:00,1508A,112.9433,27.8614,湘潭市,板塘,细颗粒物(PM2.5),169,101,88,128,95,51,14,30,20,28,34,5,10,0.7,0.7
2023-02-19T08:00:00,1511A,112.9118,27.8403,湘潭市,市监测站,细颗粒物(PM2.5),145,120,91,111,80,46,16,35,26,28,32,9,12,0.6,0.6
2023-02-19T08:00:00,1512A,112.8937,27.8728,湘潭市,江麓,细颗粒物(PM2.5),142,118,93,108,81,59,26,42,32,14,21,9,16,0.8,0.9
2023-02-19T08:00:00,1513A,112.9227,27.8159,湘潭市,岳塘,,,,98,,72,37,,29,,,47,,14,,1.3
2023-02-19T08:00:00,1514A,112.9074,27.9119,湘潭市,科大,细颗粒物(PM2.5),159,116,92,121,87,52,16,35,23,28,33,7,8,0.4,0.5
2023-02-19T08:00:00,1515A,113.135,27.8244,株洲市,天台山庄,细颗粒物(PM2.5),140,112,89,107,80,37,16,29,23,28,38,5,8,0.9,1
2023-02-19T08:00:00,1518A,113.095,27.8867,株洲市,株冶医院,细颗粒物(PM2.5),133,130,106,101,72,59,10,24,16,37,44,4,9,1.0,1
2023-02-19T08:00:00,1519A,113.167,27.8667,株洲市,市四中,细颗粒物(PM2.5),129,90,78,98,77,54,14,30,24,29,36,8,12,1.0,1.1
2023-02-19T08:00:00,1520A,113.143,27.8381,株洲市,火车站,细颗粒物(PM2.5),140,114,92,107,80,44,13,25,21,33,41,6,9,1.0,1.2
2023-02-19T08:00:00,1524A,113.13,27.8528,株洲市,市监测站,细颗粒物(PM2.5),160,117,93,122,90,50,14,27,22,28,38,10,13,1.0,1
2023-02-19T08:00:00,1552A,106.805,26.3003,贵阳市,桐木岭,,,,,,,,,,,,,,,,
2023-02-19T08:00:00,1559A,113.251,27.8336,株洲市,大京风景区,细颗粒物(PM2.5),119,95,77,90,72,64,16,28,20,24,30,6,8,0.8,0.9
2023-02-19T08:00:00,1562A,113.0048,27.9153,湘潭市,昭山,细颗粒物(PM2.5),145,122,94,111,78,37,16,31,22,19,28,4,6,0.6,0.6
2023-02-19T08:00:00,1564A,112.4876,27.9164,湘潭市,韶山,细颗粒物(PM2.5),107,76,66,80,52,48,34,33,33,18,22,8,10,0.9,1
2023-02-19T08:00:00,1585A,109.8756,40.6532,包头市,市环境监测站,,30,30,27,14,11,92,9,21,14,59,27,9,9,0.9,0.6
2023-02-19T08:00:00,1587A,109.9991,40.5842,包头市,包头八中,,37,37,29,22,7,95,5,24,20,69,28,14,13,1.2,0.7
2023-02-19T08:00:00,1588A,109.8538,40.6821,包头市,青山宾馆,,30,28,24,18,8,91,16,38,33,59,24,6,6,0.8,0.6
2023-02-19T08:00:00,1589A,109.8642,40.6288,包头市,惠龙物流,,34,31,38,15,19,92,4,18,9,67,34,7,9,1.3,0.9
2023-02-19T08:00:00,1590A,110.0377,40.5546,包头市,东河鸿龙湾,,40,40,28,24,10,90,7,35,14,61,26,12,8,1.6,0.8
2023-02-19T08:00:00,1591A,110.0023,39.8129,鄂尔多斯市,综合楼,颗粒物(PM10),51,51,88,9,14,87,47,74,60,28,17,18,8,0.5,0.3
2023-02-19T08:00:00,1592A,109.9486,39.8261,鄂尔多斯市,巴音孟克林场办事处,颗粒物(PM10),52,53,63,9,14,88,62,73,68,18,13,10,8,0.6,0.6
2023-02-19T08:00:00,1593A,109.7736,39.5986,鄂尔多斯市,康泽苑,,34,34,58,9,10,86,33,63,48,21,14,4,4,0.5,0.5
2023-02-19T08:00:00,1594A,109.8119,39.5989,鄂尔多斯市,华泰汽车城,,41,41,62,14,17,90,17,60,45,43,14,7,7,0.5,0.4
2023-02-19T08:00:00,1595A,109.9734,39.7884,鄂尔多斯市,奥林花园,颗粒物(PM10),57,63,72,17,15,88,11,60,31,52,22,10,7,0.8,0.6
2023-02-19T08:00:00,1597A,122.2703,40.7094,营口市,大庆路,细颗粒物(PM2.5),53,49,96,37,71,71,29,66,49,46,28,9,9,0.7,0.8
2023-02-19T08:00:00,1598A,122.2150,40.6511,营口市,镜湖西路,,49,49,102,23,63,70,41,67,51,27,22,9,9,0.5,0.7
2023-02-19T08:00:00,1599A,122.1658,40.6789,营口市,西炮台,,37,37,85,19,63,70,62,66,60,23,30,9,11,0.6,0.7
2023-02-19T08:00:00,1600A,124.3303,40.0625,丹东市,江湾东路,,26,22,86,18,64,100,72,64,64,16,26,12,21,0.6,0.9
2023-02-19T08:00:00,1601A,124.4256,40.1503,丹东市,临江后街,,,35,81,25,55,100,58,58,58,,31,12,19,0.8,1
2023-02-19T08:00:00,1602A,124.3933,40.1461,丹东市,元宝山,,22,22,73,14,51,90,70,56,56,12,26,15,18,0.5,0.8
2023-02-19T08:00:00,1603A,124.3633,40.1092,丹东市,民主桥,,26,26,75,18,50,93,60,57,57,23,27,11,17,0.5,0.8
2023-02-19T08:00:00,1604A,122.0303,41.1489,盘锦市,开发区,细颗粒物(PM2.5),55,41,46,39,26,81,32,52,36,39,22,80,28,0.8,0.6
2023-02-19T08:00:00,1605A,122.0485,41.0883,盘锦市,兴隆台,,50,42,50,35,30,73,25,19,18,48,33,61,19,0.9,0.8
2023-02-19T08:00:00,1606A,121.8297,41.1028,盘锦市,新生街道,,43,36,40,30,23,79,38,43,36,40,29,47,30,0.7,0.6
2023-02-19T08:00:00,1607A,120.9092,40.7136,葫芦岛市,龙港区,,47,47,63,14,40,75,75,64,64,5,19,13,48,0.8,1
2023-02-19T08:00:00,1608A,120.8392,40.7514,葫芦岛市,化工街,颗粒物(PM10),54,58,77,19,45,71,36,45,32,46,31,16,12,0.5,0.5
2023-02-19T08:00:00,1609A,120.8341,40.7073,葫芦岛市,新区,,45,45,59,16,35,65,63,51,51,15,26,18,18,0.7,0.8
2023-02-19T08:00:00,1610A,120.8695,40.7677,葫芦岛市,东城区,颗粒物(PM10),54,58,55,33,30,71,26,29,24,48,28,22,16,0.9,0.7
2023-02-19T08:00:00,1611A,118.5819,24.9117,泉州市,涂山街,细颗粒物(PM2.5),97,92,84,72,57,180,26,18,18,42,44,10,10,0.9,0.8
2023-02-19T08:00:00,1612A,118.5972,24.8978,泉州市,津头埔,细颗粒物(PM2.5),97,93,79,72,55,171,19,18,18,50,46,10,10,0.8,0.7
2023-02-19T08:00:00,1613A,118.6663,24.9424,泉州市,万安,细颗粒物(PM2.5),70,74,71,51,49,184,16,39,36,51,36,9,11,0.8,0.7
2023-02-19T08:00:00,1614A,118.6117,24.9604,泉州市,清源山,,,,,,,,,,,,,,,,
2023-02-19T08:00:00,1616A,117.6795,36.229,济南市,技术学院,颗粒物(PM10),57,63,129,21,87,80,48,67,62,40,44,8,12,0.5,1
2023-02-19T08:00:00,1618A,118.3429,35.0532,临沂市,沂河小区,,46,46,126,25,98,88,52,62,58,27,44,5,12,0.6,1.1
2023-02-19T08:00:00,1619A,118.295,35.0583,临沂市,鲁南制药厂,,48,48,134,27,88,92,57,60,59,30,56,13,20,0.3,0.8
2023-02-19T08:00:00,1620A,118.2794,34.9976,临沂市,新光毛纺厂,,46,46,120,23,85,94,57,55,55,23,37,5,10,0.7,1
2023-02-19T08:00:00,1621A,118.3956,35.0888,临沂市,河东保险公司,颗粒物(PM10),52,53,132,27,93,92,46,70,56,36,57,8,13,0.8,1.3
2023-02-19T08:00:00,1622A,116.3032,37.4674,德州市,儿童乐园,颗粒物(PM10),51,51,128,22,88,97,46,57,53,33,41,3,9,0.4,0.7
2023-02-19T08:00:00,1624A,116.2991,37.4451,德州市,监理站,颗粒物(PM10),55,59,141,24,98,93,32,62,53,46,42,6,12,0.6,0.8
2023-02-19T08:00:00,1625A,115.9848,36.4372,聊城市,区政府,颗粒物(PM10),68,86,142,47,89,101,15,66,51,58,33,8,12,0.6,0.7
2023-02-19T08:00:00,1628A,118.0062,37.3803,滨州市,市环保局,颗粒物(PM10),59,68,125,18,79,81,30,64,56,40,39,11,14,0.5,0.8
2023-02-19T08:00:00,1629A,118.0018,37.3617,滨州市,第二水厂,颗粒物(PM10),63,75,130,22,73,82,31,66,58,40,42,8,13,0.5,0.8
2023-02-19T08:00:00,1630A,117.9776,37.393,滨州市,北中新校,颗粒物(PM10),58,66,119,14,64,80,12,63,51,53,41,6,12,0.6,0.7
2023-02-19T08:00:00,1631A,118.0414,36.8103,淄博市,人民公园,颗粒物(PM10),78,105,114,36,84,66,17,62,50,50,33,32,17,0.7,0.6
2023-02-19T08:00:00,1633A,117.8525,36.4847,淄博市,双山,颗粒物(PM10),73,95,120,37,82,82,18,52,41,58,42,19,13,0.9,0.8
2023-02-19T08:00:00,1634A,117.9592,36.6331,淄博市,气象站,细颗粒物(PM2.5),85,117,128,63,75,80,24,60,47,54,46,22,19,0.8,0.8
2023-02-19T08:00:00,1635A,118.3092,36.8194,淄博市,莆田园,颗粒物(PM10),64,78,108,22,69,70,52,52,52,32,46,13,16,0.5,0.9
2023-02-19T08:00:00,1637A,117.558,34.8438,枣庄市,市中区政府,颗粒物(PM10),75,100,144,41,92,109,43,81,62,45,41,11,30,0.8,0.8
2023-02-19T08:00:00,1638A,117.2852,34.7837,枣庄市,薛城环保局,颗粒物(PM10),55,59,129,31,88,111,54,72,59,31,36,11,17,0.5,0.8
2023-02-19T08:00:00,1639A,117.5852,34.7745,枣庄市,峄城区政府,,46,46,129,22,74,105,74,75,65,24,42,10,18,0.3,0.6
2023-02-19T08:00:00,1640A,117.7276,34.5578,枣庄市,台儿庄区环保局,颗粒物(PM10),58,66,138,36,93,109,55,60,58,36,47,11,14,0.8,1.1
2023-02-19T08:00:00,1641A,117.4518,35.0992,枣庄市,山亭区环保局,,46,46,123,29,81,101,63,78,66,31,42,11,18,0.7,1
2023-02-19T08:00:00,1642A,121.2514,37.5639,烟台市,开发区,颗粒物(PM10),68,85,52,27,40,65,48,62,56,22,34,9,10,0.6,0.6
2023-02-19T08:00:00,1643A,121.3719,37.5433,烟台市,轴承厂,颗粒物(PM10),70,90,57,36,43,77,51,73,65,26,26,8,6,0.8,0.6
2023-02-19T08:00:00,1644A,121.3181,37.5436,烟台市,西郊化工站,颗粒物(PM10),73,95,70,29,41,72,50,68,61,24,33,8,8,1.1,1
2023-02-19T08:00:00,1645A,121.4478,37.4822,烟台市,莱山环保局,颗粒物(PM10),65,80,56,29,39,75,61,70,66,12,24,11,9,1.0,1
2023-02-19T08:00:00,1646A,121.2611,37.4967,烟台市,福山环保局,颗粒物(PM10),69,88,66,31,44,66,48,64,56,25,32,10,9,0.8,0.7
2023-02-19T08:00:00,1650A,119.1437,36.7023,潍坊市,环保局,颗粒物(PM10),59,68,120,19,81,57,29,53,46,51,57,11,9,0.8,1
2023-02-19T08:00:00,1653A,116.6251,35.4302,济宁市,火炬城,细颗粒物(PM2.5),52,37,113,36,94,94,53,64,55,28,32,6,10,0.5,0.8
2023-02-19T08:00:00,1655A,116.5491,35.4042,济宁市,电化厂,细颗粒物(PM2.5),73,76,136,53,102,96,33,58,48,45,36,6,10,0.6,0.8
2023-02-19T08:00:00,1656A,117.1437,36.1937,泰安市,监测站,,48,48,119,18,92,91,49,69,65,30,32,10,7,0.7,0.9
2023-02-19T08:00:00,1657A,117.0885,36.2017,泰安市,人口学校,,34,34,115,14,80,100,66,77,71,18,29,10,13,0.6,0.9
2023-02-19T08:00:00,1658A,117.1089,36.1758,泰安市,电力学校,,39,39,115,18,83,88,46,73,66,36,36,10,13,0.8,0.9
2023-02-19T08:00:00,1659A,119.471,35.4209,日照市,监测站,颗粒物(PM10),60,70,88,28,54,60,54,58,54,26,49,10,10,0.5,0.8
2023-02-19T08:00:00,1660A,119.523,35.4216,日照市,市政府广场,细颗粒物(PM2.5),69,78,90,50,53,63,50,63,56,22,40,5,7,0.8,1
2023-02-19T08:00:00,1661A,119.5587,35.4044,日照市,港务局,颗粒物(PM10),59,68,82,41,48,67,58,65,59,20,44,8,10,0.8,0.9
2023-02-19T08:00:00,1662A,122.1214,37.4236,威海市,华夏技校,颗粒物(PM10),56,61,40,39,30,81,69,72,72,12,23,2,2,0.4,0.4
2023-02-19T08:00:00,1663A,122.0508,37.5236,威海市,山大分校,颗粒物(PM10),59,68,40,34,23,80,70,72,72,10,23,3,3,0.7,0.6
2023-02-19T08:00:00,1664A,122.1067,37.5072,威海市,市监测站,颗粒物(PM10),58,66,41,39,24,81,63,71,70,16,28,6,6,0.5,0.4
2023-02-19T08:00:00,1666A,118.6614,37.4309,东营市,市环保局,颗粒物(PM10),60,70,127,9,86,72,60,62,62,23,48,12,23,0.6,1.1
2023-02-19T08:00:00,1669A,113.5824,24.7733,韶关市,市八中,细颗粒物(PM2.5),73,60,68,53,43,148,47,15,15,13,37,12,14,0.9,1
2023-02-19T08:00:00,1671A,113.5917,24.7972,韶关市,园林处,细颗粒物(PM2.5),64,58,62,46,41,149,50,17,17,12,33,12,14,0.9,1
2023-02-19T08:00:00,1672A,113.6735,24.7791,韶关市,韶关学院,,50,41,59,35,46,145,4,9,4,29,32,9,17,0.7,0.9
2023-02-19T08:00:00,1673A,113.5971,24.6863,韶关市,曲江监测站,细颗粒物(PM2.5),58,54,60,41,38,135,13,28,17,37,39,12,17,1.0,0.7
2023-02-19T08:00:00,1674A,116.6794,23.3667,汕头市,金平子站,细颗粒物(PM2.5),95,75,65,71,49,147,13,64,34,58,38,13,14,1.7,0.9
2023-02-19T08:00:00,1675A,116.7244,23.3633,汕头市,龙湖子站,细颗粒物(PM2.5),112,80,62,84,45,143,34,64,48,49,35,14,13,1.1,0.8
2023-02-19T08:00:00,1676A,116.7258,23.2775,汕头市,濠江子站,细颗粒物(PM2.5),93,71,67,69,51,142,54,66,56,45,33,15,12,1.1,0.8
2023-02-19T08:00:00,1677A,116.7519,23.4714,汕头市,澄海子站,细颗粒物(PM2.5),138,93,77,105,69,151,20,87,54,54,38,15,10,1.3,0.9
2023-02-19T08:00:00,1678A,116.6092,23.2539,汕头市,潮阳子站,细颗粒物(PM2.5),112,118,83,84,61,152,16,66,36,59,37,9,8,1.5,0.9
2023-02-19T08:00:00,1680A,110.3539,21.2706,湛江市,湛江影剧院,细颗粒物(PM2.5),67,71,42,48,25,119,45,114,81,28,16,150,23,0.7,0.5
2023-02-19T08:00:00,1681A,110.3928,21.2228,湛江市,市环境监测站,,35,35,39,20,27,127,75,119,98,16,12,15,10,0.5,0.5
2023-02-19T08:00:00,1682A,110.4019,21.1997,湛江市,环保局宿舍,,45,45,38,24,26,128,67,125,99,19,12,15,7,0.6,0.5
2023-02-19T08:00:00,1683A,110.4111,21.2028,湛江市,霞山游泳场,,49,46,42,34,27,126,62,121,97,19,13,33,12,0.6,0.6
2023-02-19T08:00:00,1684A,110.3316,21.2679,湛江市,麻章区环保局,,49,49,42,34,26,121,33,107,65,35,18,16,11,0.7,0.6
2023-02-19T08:00:00,1685A,110.4558,21.2567,湛江市,坡头区环保局,,45,40,35,31,31,123,67,119,89,16,10,26,10,0.6,0.6
2023-02-19T08:00:00,1686A,111.0286,21.4688,茂名市,电白南海,细颗粒物(PM2.5),64,70,54,46,29,158,41,98,70,19,18,46,11,0.7,0.6
2023-02-19T08:00:00,1687A,110.9294,21.6533,茂名市,茂石化七小,细颗粒物(PM2.5),58,58,50,41,30,130,49,110,74,18,12,15,9,0.6,0.5
2023-02-19T08:00:00,1688A,110.9107,21.6687,茂名市,健康路,颗粒物(PM10),56,61,50,35,23,121,42,107,69,22,13,25,17,0.6,0.5
2023-02-19T08:00:00,1689A,110.8592,21.6828,茂名市,高岭,细颗粒物(PM2.5),73,80,62,53,35,126,25,64,44,27,21,40,20,0.7,0.4
2023-02-19T08:00:00,1690A,116.1231,24.3284,梅州市,梅江月梅,颗粒物(PM10),51,52,48,29,25,117,6,8,6,32,28,14,8,0.7,0.6
2023-02-19T08:00:00,1691A,116.0797,24.2719,梅州市,梅县新城,,31,31,47,20,28,117,24,26,25,18,27,8,10,0.6,0.6
2023-02-19T08:00:00,1692A,116.1248,24.2654,梅州市,环境监控中心,细颗粒物(PM2.5),65,46,55,47,33,124,11,5,4,37,40,19,10,0.7,0.6
2023-02-19T08:00:00,1693A,115.3653,22.775,汕尾市,市环保局,,45,45,62,28,37,146,62,88,71,18,22,10,10,0.9,0.9
2023-02-19T08:00:00,1694A,115.3706,22.7898,汕尾市,市政府,,39,36,56,27,39,142,64,60,60,18,26,10,10,0.7,0.8
2023-02-19T08:00:00,1695A,115.3622,22.7925,汕尾市,新城中学,细颗粒物(PM2.5),52,44,68,36,39,143,40,46,44,27,24,7,7,0.9,0.7
2023-02-19T08:00:00,1696A,114.6778,23.7569,河源市,源西,,30,30,42,20,22,121,27,24,24,39,34,5,6,0.8,0.8
2023-02-19T08:00:00,1697A,114.6944,23.7586,河源市,东埔,,30,30,50,18,23,109,40,23,23,16,30,5,6,0.6,0.8
2023-02-19T08:00:00,1698A,114.6892,23.7233,河源市,老城,,39,39,43,23,18,108,26,13,12,28,24,5,6,0.9,0.7
2023-02-19T08:00:00,1699A,111.9797,21.8593,阳江市,鸳鸯湖,细颗粒物(PM2.5),53,51,44,37,27,158,45,87,70,30,18,7,8,0.7,0.7
2023-02-19T08:00:00,1701A,111.9491,21.8658,阳江市,马南垌,颗粒物(PM10),60,70,61,35,30,150,10,93,61,52,24,6,7,0.9,0.6
2023-02-19T08:00:00,1702A,113.0426,23.691,清远市,环保大楼,细颗粒物(PM2.5),58,46,48,41,39,208,60,94,60,38,37,5,6,0.5,0.6
2023-02-19T08:00:00,1703A,113.0208,23.7106,清远市,凤城街办,,45,45,60,28,37,156,57,64,40,24,35,6,8,0.6,0.8
2023-02-19T08:00:00,1705A,116.6367,23.6719,潮州市,西园路,,43,32,76,30,63,117,13,42,28,19,20,4,6,0.7,0.9
2023-02-19T08:00:00,1706A,116.6447,23.6706,潮州市,档案局,细颗粒物(PM2.5),54,38,79,38,69,130,11,37,22,32,30,7,11,0.4,0.6
2023-02-19T08:00:00,1708A,116.3701,23.5345,揭阳市,新兴,细颗粒物(PM2.5),98,77,91,73,65,144,11,30,19,47,43,12,17,1.1,1.1
2023-02-19T08:00:00,1709A,116.3264,23.5443,揭阳市,西马,细颗粒物(PM2.5),82,84,92,60,58,151,21,25,24,40,35,13,18,0.9,1
2023-02-19T08:00:00,1710A,116.3611,23.5626,揭阳市,东兴,细颗粒物(PM2.5),114,114,96,86,67,163,10,26,15,69,46,10,15,1.4,1.2
2023-02-19T08:00:00,1711A,116.4151,23.5294,揭阳市,渔湖,细颗粒物(PM2.5),88,123,92,65,57,134,8,32,14,70,41,12,15,1.5,1.2
2023-02-19T08:00:00,1712A,112.0392,22.9169,云浮市,新市府,细颗粒物(PM2.5),65,58,50,47,38,166,30,90,62,20,17,3,4,0.8,0.7
2023-02-19T08:00:00,1714A,112.0539,22.9539,云浮市,牧羊,颗粒物(PM10),78,105,85,52,46,153,10,36,13,50,45,25,20,0.4,0.4
2023-02-19T08:00:00,1715A,102.575,24.3711,玉溪市,东风水库,,49,45,44,34,26,107,29,52,43,20,16,8,6,1.1,0.9
2023-02-19T08:00:00,1718A,115.4208,35.2464,菏泽市,气象局,细颗粒物(PM2.5),107,118,150,80,96,98,18,63,44,64,52,6,12,0.7,0.7
2023-02-19T08:00:00,1719A,115.4747,35.2375,菏泽市,市政协,细颗粒物(PM2.5),108,129,146,81,91,103,39,70,55,42,37,8,12,0.7,0.8
2023-02-19T08:00:00,1721A,113.3819,40.1097,大同市,果树场,,,,,,,,,,,,,,,,
2023-02-19T08:00:00,1723A,113.2994,40.0758,大同市,云冈宾馆,,30,30,26,13,14,96,59,73,64,26,19,12,11,0.4,0.4
2023-02-19T08:00:00,1724A,113.3444,40.0917,大同市,大同大学,,39,39,38,10,15,83,29,58,53,42,37,11,9,0.6,0.4
2023-02-19T08:00:00,1725A,113.2661,40.1269,大同市,安家小村,,32,32,48,13,16,93,57,56,56,13,10,19,9,0.4,0.4
2023-02-19T08:00:00,1726A,113.2711,40.0844,大同市,教育学院,颗粒物(PM10),51,52,46,14,14,84,26,62,52,52,21,13,9,0.5,0.3
2023-02-19T08:00:00,1727A,113.1147,36.1547,长治市,清华站,颗粒物(PM10),52,54,72,14,34,103,32,59,43,30,18,7,7,0.7,0.8
2023-02-19T08:00:00,1728A,113.1031,36.1989,长治市,监测站,,46,46,69,17,37,95,36,53,43,29,19,6,5,0.8,0.9
2023-02-19T08:00:00,1730A,113.0886,36.2125,长治市,审计局,,48,48,66,12,38,97,31,54,43,32,18,10,8,0.6,0.7
2023-02-19T08:00:00,1731A,113.0844,36.1856,长治市,长治八中,颗粒物(PM10),53,56,75,9,35,99,24,55,40,39,18,6,5,0.6,0.6
2023-02-19T08:00:00,1733A,111.5531,36.0783,临汾市,临钢医院,,36,36,81,14,34,95,19,68,59,47,19,2,5,0.6,0.6
2023-02-19T08:00:00,1734A,111.5028,36.0714,临汾市,技工学校,,48,48,85,15,36,92,21,68,50,40,16,6,6,0.3,0.5
2023-02-19T08:00:00,1736A,111.5018,36.0855,临汾市,市委,颗粒物(PM10),56,62,92,21,33,103,12,74,51,53,20,3,6,0.5,0.6
2023-02-19T08:00:00,1738A,113.5758,37.8572,阳泉市,市中心,,48,48,103,25,51,99,48,56,54,31,28,11,13,0.5,0.7
2023-02-19T08:00:00,1739A,113.4894,37.8731,阳泉市,赛鱼,,46,46,100,8,42,102,49,58,55,32,33,12,13,0.5,0.7
2023-02-19T08:00:00,1740A,113.5819,37.8486,阳泉市,南庄,,38,30,74,26,51,102,69,67,67,18,25,8,11,0.5,0.7
2023-02-19T08:00:00,1742A,113.5614,37.8703,阳泉市,平坦,,45,45,107,7,42,104,55,55,54,31,31,9,11,0.5,0.7
2023-02-19T08:00:00,1743A,113.5158,37.8392,阳泉市,大阳泉,,25,22,57,17,48,103,75,69,69,17,26,7,9,0.4,0.6
2023-02-19T08:00:00,1744A,118.9233,42.2816,赤峰市,松山一中,,32,32,33,7,13,79,37,69,64,44,29,11,11,0.8,0.6
2023-02-19T08:00:00,1745A,118.9576,42.2728,赤峰市,哈达街,,31,31,37,7,15,80,41,71,67,39,25,16,17,0.7,0.6
2023-02-19T08:00:00,1746A,118.8788,42.2554,赤峰市,天义路,,33,33,30,3,11,82,72,79,78,12,19,12,16,0.5,0.6
2023-02-19T08:00:00,1748A,123.044,41.1196,鞍山市,深沟寺,细颗粒物(PM2.5),54,50,93,38,74,70,44,61,48,32,37,10,12,1.7,1.1
2023-02-19T08:00:00,1749A,123.011,41.0931,鞍山市,太阳城,"颗粒物(PM10),细颗粒物(PM2.5)",54,58,99,38,72,67,40,55,45,30,36,10,12,1.6,1
2023-02-19T08:00:00,1750A,123.0485,41.1442,鞍山市,太平,细颗粒物(PM2.5),64,66,93,46,73,64,37,50,39,40,44,12,15,1.5,1.1
2023-02-19T08:00:00,1751A,122.9642,41.0971,鞍山市,铁西三道街,细颗粒物(PM2.5),69,70,109,50,81,64,41,64,43,30,46,6,19,1.3,2
2023-02-19T08:00:00,1752A,122.9341,41.0833,鞍山市,铁西工业园区,细颗粒物(PM2.5),78,78,106,57,79,59,44,56,41,25,42,10,22,1.4,1.6
2023-02-19T08:00:00,1753A,123.022,41.0821,鞍山市,明达新区,"颗粒物(PM10),细颗粒物(PM2.5)",52,53,98,36,74,67,50,57,45,26,41,8,11,1.4,1.3
2023-02-19T08:00:00,1754A,123.1289,41.0228,鞍山市,千山,,,,,,,,,,,,,,,,
2023-02-19T08:00:00,1755A,123.7977,41.8491,抚顺市,望花区,细颗粒物(PM2.5),53,29,69,37,46,70,50,60,44,17,23,9,13,0.6,0.7
2023-02-19T08:00:00,1756A,123.9161,41.8822,抚顺市,顺城区,细颗粒物(PM2.5),53,54,78,37,48,85,50,78,50,27,34,3,6,1.2,0.6
2023-02-19T08:00:00,1757A,124.0436,41.8611,抚顺市,东洲区,,49,49,87,27,62,75,59,72,51,20,28,7,8,0.4,0.8
2023-02-19T08:00:00,1758A,123.9247,41.8642,抚顺市,新抚区,细颗粒物(PM2.5),58,52,88,41,67,70,50,68,50,21,31,4,6,0.9,0.8
2023-02-19T08:00:00,1759A,124.0972,41.8961,抚顺市,大伙房水库,颗粒物(PM10),59,68,90,37,61,84,60,71,59,17,27,5,6,0.7,0.8
2023-02-19T08:00:00,1760A,123.7086,41.8391,抚顺市,沈抚新城,,43,19,56,30,36,82,55,70,45,22,27,6,9,0.6,0.6
2023-02-19T08:00:00,1761A,123.8275,41.3064,本溪市,大峪,细颗粒物(PM2.5),59,60,90,42,68,55,30,55,40,38,44,12,12,1.8,1.2
2023-02-19T08:00:00,1762A,123.7567,41.3325,本溪市,溪湖,,50,50,98,26,66,67,39,64,50,27,29,8,14,0.9,1.1
2023-02-19T08:00:00,1763A,123.7169,41.3094,本溪市,彩屯,细颗粒物(PM2.5),69,62,108,50,75,64,27,59,40,42,38,8,14,0.9,1
2023-02-19T08:00:00,1764A,123.7669,41.2864,本溪市,东明,颗粒物(PM10),51,51,82,35,72,60,39,58,48,44,43,40,18,2.1,1.2
2023-02-19T08:00:00,1765A,123.7992,41.2664,本溪市,新立屯,细颗粒物(PM2.5),52,46,94,36,75,65,43,63,49,37,42,12,10,1.4,0.8
2023-02-19T08:00:00,1766A,123.8142,41.3472,本溪市,威宁,细颗粒物(PM2.5),78,49,116,57,74,56,20,56,30,41,48,5,7,0.9,0.9
2023-02-19T08:00:00,1767A,121.1115,41.0879,锦州市,南山,细颗粒物(PM2.5),123,111,69,93,42,81,37,69,42,47,28,46,19,1.5,0.8
2023-02-19T08:00:00,1768A,121.0533,40.8434,锦州市,开发区,,45,45,53,16,33,80,30,56,30,47,29,23,18,0.8,0.7
2023-02-19T08:00:00,1769A,121.1836,41.1119,锦州市,百股街道,细颗粒物(PM2.5),104,107,74,78,42,79,36,65,46,44,25,27,12,1.9,1
2023-02-19T08:00:00,1770A,121.1178,41.1222,锦州市,天安街道,颗粒物(PM10),57,63,53,36,27,78,52,66,50,30,24,19,16,1.4,0.7
2023-02-19T08:00:00,1771A,121.1303,41.1386,锦州市,北湖公园,,45,45,40,23,24,75,56,69,59,26,21,18,18,0.8,0.7
2023-02-19T08:00:00,1772A,126.54,43.8622,吉林市,哈达湾,,29,29,33,18,21,90,62,75,70,16,19,8,14,0.5,0.6
2023-02-19T08:00:00,1773A,126.5844,43.8358,吉林市,东局子,,34,34,36,19,22,81,58,74,67,16,19,12,16,0.5,0.6
2023-02-19T08:00:00,1774A,126.5052,43.8245,吉林市,电力学院,,36,36,36,23,26,87,62,73,66,13,21,8,14,0.6,0.6
2023-02-19T08:00:00,1775A,126.6133,43.8972,吉林市,江北,,32,32,29,17,20,90,58,75,69,21,21,15,13,0.6,0.6
2023-02-19T08:00:00,1776A,126.555,43.8306,吉林市,江南公园,,35,34,33,24,23,83,64,76,71,14,23,7,13,0.5,0.6
2023-02-19T08:00:00,1778A,126.7061,43.7133,吉林市,丰满,,,,,,,,,,,,,,,,
2023-02-19T08:00:00,1779A,123.9305,47.3636,齐齐哈尔市,安居小区,,43,40,26,30,19,96,54,69,60,26,13,11,7,0.5,0.3
2023-02-19T08:00:00,1780A,123.9488,47.3386,齐齐哈尔市,中心广场,,33,26,19,23,8,83,56,61,58,24,15,8,6,0.7,0.4
2023-02-19T08:00:00,1781A,123.9483,47.3227,齐齐哈尔市,农牧车辆厂,,30,29,29,21,10,78,45,54,48,34,19,5,4,0.4,0.3
2023-02-19T08:00:00,1783A,123.945,47.2988,齐齐哈尔市,市环境监测站,细颗粒物(PM2.5),57,47,28,40,17,89,41,61,49,45,19,10,9,0.9,0.4
2023-02-19T08:00:00,1784A,129.61,44.561,牡丹江市,环保大楼,,34,34,29,20,22,89,62,63,61,19,18,8,7,0.5,0.4
2023-02-19T08:00:00,1785A,129.6115,44.5782,牡丹江市,文化广场,,50,28,33,35,28,82,52,58,57,27,20,10,10,0.7,0.6
2023-02-19T08:00:00,1786A,129.5904,44.5963,牡丹江市,第一医院,,33,25,35,23,28,90,66,70,69,17,12,5,4,0.7,0.7
2023-02-19T08:00:00,1787A,129.6364,44.6075,牡丹江市,机车工厂,,43,43,47,23,26,89,62,37,37,20,20,1,2,0.6,0.7
2023-02-19T08:00:00,1788A,129.6386,44.5462,牡丹江市,第一中学,,43,42,30,30,25,88,41,48,46,25,18,6,4,0.8,0.6
2023-02-19T08:00:00,1789A,124.81117,46.03138,大庆市,大同区,,50,50,37,24,24,83,37,51,45,18,15,4,8,0.6,0.6
2023-02-19T08:00:00,1790A,125.129,46.533,大庆市,龙凤区,,,143,40,,25,70,16,56,41,44,22,12,16,1.2,0.6
2023-02-19T08:00:00,1791A,124.902,46.408,大庆市,红岗区,,42,34,27,29,19,87,23,50,35,34,19,6,8,0.6,0.4
2023-02-19T08:00:00,1792A,125.153,46.586,大庆市,萨尔图区,细颗粒物(PM2.5),59,61,31,42,21,72,17,66,43,37,19,6,8,0.6,0.2
2023-02-19T08:00:00,1793A,124.9042,46.6215,大庆市,让胡路区,,43,43,27,18,23,83,24,49,36,43,24,6,5,0.9,0.5
2023-02-19T08:00:00,1794A,118.3606,31.3519,芜湖市,监测站,细颗粒物(PM2.5),128,75,93,97,91,50,9,17,6,53,61,6,8,1.0,0.9
2023-02-19T08:00:00,1795A,118.3714,31.4134,芜湖市,科创中心,细颗粒物(PM2.5),125,124,120,95,90,54,14,6,6,47,54,7,7,1.0,0.9
2023-02-19T08:00:00,1796A,118.3673,31.3131,芜湖市,四水厂,细颗粒物(PM2.5),114,102,115,86,90,56,9,15,10,50,60,8,10,0.8,0.8
2023-02-19T08:00:00,1798A,118.5092,31.6837,马鞍山市,湖东路四小,细颗粒物(PM2.5),178,124,99,134,100,54,15,11,9,46,52,14,14,1.4,1.2
2023-02-19T08:00:00,1799A,118.5024,31.6449,马鞍山市,开发区,细颗粒物(PM2.5),133,83,81,101,95,60,13,4,4,46,48,12,11,1.5,1.3
2023-02-19T08:00:00,1800A,118.5228,31.7231,马鞍山市,慈湖,细颗粒物(PM2.5),183,144,121,138,111,48,7,12,10,54,53,12,16,1.4,1.6
2023-02-19T08:00:00,1802A,118.6245,31.7241,马鞍山市,濮塘,细颗粒物(PM2.5),114,138,126,86,76,56,14,14,14,38,39,5,8,1.3,1.3
2023-02-19T08:00:00,1803A,115.9872,29.6815,九江市,十里,细颗粒物(PM2.5),102,112,100,76,65,44,10,19,15,50,52,14,13,1.6,1.3
2023-02-19T08:00:00,1804A,115.9584,29.7046,九江市,茅山头,细颗粒物(PM2.5),103,99,90,77,68,30,8,14,11,51,56,15,15,1.7,1.4
2023-02-19T08:00:00,1805A,115.9877,29.7295,九江市,西园,细颗粒物(PM2.5),115,100,90,87,73,28,8,13,8,50,59,16,13,1.1,0.9
2023-02-19T08:00:00,1806A,116.0172,29.6547,九江市,五七二七厂,细颗粒物(PM2.5),122,118,84,92,68,56,27,24,24,,48,14,12,1.6,1.3
2023-02-19T08:00:00,1808A,115.9114,29.6038,九江市,综合工业园,细颗粒物(PM2.5),128,122,98,97,80,47,31,25,25,35,51,18,16,1.4,1.3
2023-02-19T08:00:00,1809A,116.0721,29.7535,九江市,石化总厂,细颗粒物(PM2.5),98,104,106,73,68,42,5,10,4,55,57,12,15,1.3,1.2
2023-02-19T08:00:00,1810A,115.9773,29.5698,九江市,庐山气象台,细颗粒物(PM2.5),54,40,28,38,23,85,59,50,50,29,23,6,7,0.5,0.4
2023-02-19T08:00:00,1812A,112.3931,34.6516,洛阳市,市委党校,颗粒物(PM10),57,63,96,14,43,88,48,62,52,25,26,7,7,0.4,0.6
2023-02-19T08:00:00,1814A,112.4657,34.6871,洛阳市,豫西宾馆,颗粒物(PM10),59,68,97,30,49,100,36,75,56,32,17,10,4,0.6,0.6
2023-02-19T08:00:00,1815A,112.494,34.6886,洛阳市,河南林校,颗粒物(PM10),60,69,99,24,47,104,40,78,57,34,22,8,5,0.6,0.6
2023-02-19T08:00:00,1816A,112.3844,34.623,洛阳市,开发区管委会,颗粒物(PM10),56,62,92,23,50,107,39,81,55,34,24,5,6,0.4,0.4
2023-02-19T08:00:00,1817A,112.4267,34.6258,洛阳市,市委新办公区,,,,,,,,,,,,,,,,
2023-02-19T08:00:00,1818A,114.4839,36.0621,安阳市,棉研所,,,,,,,,,,,,,,,,
2023-02-19T08:00:00,1819A,114.3551,36.1017,安阳市,红庙街,,37,37,146,21,110,95,10,68,49,62,41,6,11,0.6,1.1
2023-02-19T08:00:00,1820A,114.361,36.0681,安阳市,银杏小区,,49,47,137,34,122,95,19,67,48,40,32,6,12,0.5,1
2023-02-19T08:00:00,1824A,114.3389,34.7781,开封市,肿瘤医院,颗粒物(PM10),51,52,132,25,76,105,33,58,52,30,24,4,7,0.5,0.7
2023-02-19T08:00:00,1826A,114.2885,34.7965,开封市,世纪星幼儿园,颗粒物(PM10),53,56,121,26,76,101,31,60,48,32,28,7,9,0.5,0.7
2023-02-19T08:00:00,1828A,113.227,35.2125,焦作市,市环保局,颗粒物(PM10),53,55,99,9,38,104,60,80,68,21,17,12,8,0.7,0.8
2023-02-19T08:00:00,1830A,113.1992,35.2590,焦作市,影视城,,,,,,,,,,,,,,,,
2023-02-19T08:00:00,1832A,113.3257,33.742,平顶山市,新华旅馆,颗粒物(PM10),74,98,113,22,60,105,58,76,67,19,21,10,12,0.6,0.7
2023-02-19T08:00:00,1833A,113.2919,33.737,平顶山市,规划设计院,颗粒物(PM10),70,89,119,24,64,108,67,75,68,19,30,6,10,0.5,0.7
2023-02-19T08:00:00,1834A,113.182,33.774,平顶山市,平顶山工学院,颗粒物(PM10),76,101,130,22,58,108,52,76,60,25,21,12,14,0.6,0.6
2023-02-19T08:00:00,1835A,111.1922,34.7752,三门峡市,市政府,颗粒物(PM10),58,66,89,22,52,92,10,74,49,64,31,9,10,0.5,0.5
2023-02-19T08:00:00,1836A,111.1587,34.7942,三门峡市,开发区,颗粒物(PM10),61,71,84,24,56,99,33,80,62,39,21,10,9,0.4,0.6
2023-02-19T08:00:00,1838A,111.143,34.7955,三门峡市,风景区,,,,,,,,,,,,,,,,
2023-02-19T08:00:00,1840A,111.2992,30.6981,宜昌市,白龙岗,细颗粒物(PM2.5),147,119,140,112,119,20,16,9,9,47,54,9,6,0.9,1.2
2023-02-19T08:00:00,1841A,111.3549,30.6465,宜昌市,伍家岗,细颗粒物(PM2.5),132,148,151,100,118,36,31,9,9,36,47,15,11,0.7,1.1
2023-02-19T08:00:00,1842A,111.2628,30.6961,宜昌市,点军区,细颗粒物(PM2.5),147,130,144,112,122,12,0,2,1,21,43,5,5,1.0,1.1
2023-02-19T08:00:00,1843A,111.3275,30.7819,宜昌市,夷陵区,细颗粒物(PM2.5),156,117,133,119,135,22,7,9,7,34,47,8,7,1.4,1.3
2023-02-19T08:00:00,1844A,112.2494,30.3197,荆州市,市图书馆,细颗粒物(PM2.5),109,86,117,82,124,54,54,33,33,27,46,7,8,0.7,1
2023-02-19T08:00:00,1845A,112.2008,30.3544,荆州市,市委党校,细颗粒物(PM2.5),103,94,118,77,119,52,52,31,31,21,39,8,9,0.7,0.9
2023-02-19T08:00:00,1847A,113.1094,29.3578,岳阳市,南湖风景区,细颗粒物(PM2.5),98,94,75,73,61,46,14,16,11,34,35,8,12,1.0,1.1
2023-02-19T08:00:00,1848A,113.1493,29.4251,岳阳市,城陵矶,细颗粒物(PM2.5),102,91,77,76,56,43,13,17,10,40,42,4,5,0.8,1
2023-02-19T08:00:00,1849A,113.1497,29.3575,岳阳市,开发区,细颗粒物(PM2.5),139,102,85,106,76,45,8,13,7,31,33,10,9,1.0,1.1
2023-02-19T08:00:00,1850A,113.2621,29.4758,岳阳市,云溪区,细颗粒物(PM2.5),83,76,74,61,52,51,15,27,17,22,24,7,7,0.9,1
2023-02-19T08:00:00,1851A,112.9943,29.4402,岳阳市,君山区,细颗粒物(PM2.5),132,100,76,100,70,53,38,13,13,22,28,6,6,0.7,0.8
2023-02-19T08:00:00,1852A,113.2117,29.355,岳阳市,金凤水库,细颗粒物(PM2.5),92,93,76,68,58,46,11,20,13,22,25,6,9,1.0,1
2023-02-19T08:00:00,1854A,111.6975,28.9703,常德市,市二中,细颗粒物(PM2.5),92,103,107,68,73,46,7,13,12,18,26,5,5,1.2,1.3
2023-02-19T08:00:00,1857A,111.7158,29.1456,常德市,白鹤山,细颗粒物(PM2.5),82,96,91,60,55,57,45,20,20,16,18,9,4,0.8,0.9
2023-02-19T08:00:00,1858A,110.5319,29.1217,张家界市,永定新区,细颗粒物(PM2.5),62,52,61,44,50,64,4,19,11,20,25,4,4,0.7,0.8
2023-02-19T08:00:00,1859A,110.4697,29.1242,张家界市,电业局,细颗粒物(PM2.5),65,67,67,47,49,55,2,28,17,25,26,4,4,0.9,0.9
2023-02-19T08:00:00,1860A,110.5594,29.3547,张家界市,未央路,细颗粒物(PM2.5),55,41,47,39,40,41,7,20,16,14,17,5,5,0.9,1
2023-02-19T08:00:00,1861A,110.4417,29.315,张家界市,袁家界,细颗粒物(PM2.5),54,43,31,38,27,75,65,57,49,8,8,6,7,0.9,1
2023-02-19T08:00:00,1862A,110.4144,25.3167,桂林市,电子科大尧山校区,,39,20,60,27,49,103,84,68,67,8,16,4,8,0.7,0.8
2023-02-19T08:00:00,1863A,110.2819,25.2697,桂林市,监测站,,20,14,101,13,74,75,61,49,49,9,38,2,10,0.8,1.2
2023-02-19T08:00:00,1864A,110.3089,25.2708,桂林市,龙隐路小学,,22,17,89,13,70,93,69,54,54,7,33,4,14,0.6,0.8
2023-02-19T08:00:00,1865A,110.2869,25.2178,桂林市,八中,,19,16,88,12,70,72,60,45,45,12,42,4,12,0.6,0.9
2023-02-19T08:00:00,1866A,109.2262,21.588,北海市,牛尾岭水库,,49,42,50,34,41,114,18,37,24,19,16,7,9,0.5,0.6
2023-02-19T08:00:00,1867A,109.1436,21.4086,北海市,海滩公园,颗粒物(PM10),54,57,48,34,26,125,60,70,58,16,11,10,9,0.6,0.6
2023-02-19T08:00:00,1868A,109.0981,21.4661,北海市,新市环保局,细颗粒物(PM2.5),55,46,47,39,29,114,38,76,53,22,17,7,6,0.6,0.6
2023-02-19T08:00:00,1869A,109.1778,21.5233,北海市,北海工业园,细颗粒物(PM2.5),64,62,62,46,40,116,30,49,43,26,18,9,9,0.7,0.6
2023-02-19T08:00:00,1870A,109.4856,24.3895,柳州市,柳东小学,,22,22,87,3,85,116,43,53,51,7,16,5,10,0.9,1
2023-02-19T08:00:00,1871A,109.4157,24.3277,柳州市,环保监测站,,28,21,85,19,65,112,37,35,35,14,34,5,9,0.9,1.2
2023-02-19T08:00:00,1872A,109.389,24.341,柳州市,河西水厂,,46,30,90,32,63,112,9,48,36,37,29,19,10,2.2,1.3
2023-02-19T08:00:00,1873A,109.4311,24.2921,柳州市,市四中,,25,8,91,17,60,114,41,44,44,11,30,8,12,1.0,1.3
2023-02-19T08:00:00,1874A,109.4006,24.3631,柳州市,市九中,,18,12,78,12,66,112,30,40,32,20,42,9,12,0.7,0.9
2023-02-19T08:00:00,1875A,109.4958,24.3134,柳州市,古亭山,,15,2,79,8,60,114,45,50,48,8,21,8,12,0.6,0.6
2023-02-19T08:00:00,1876A,109.5078,18.2489,三亚市,河东子站,,29,29,30,12,13,86,28,74,56,19,7,3,2,0.5,0.4
2023-02-19T08:00:00,1877A,109.4964,18.2681,三亚市,河西子站,,26,26,30,17,12,91,25,74,56,17,5,3,3,0.4,0.4
2023-02-19T08:00:00,1878A,104.7778,31.4741,绵阳市,富乐山,,35,35,42,20,30,88,17,88,57,35,21,2,3,0.6,0.7
2023-02-19T08:00:00,1879A,104.7563,31.4535,绵阳市,市人大,,45,43,49,31,29,72,1,60,22,45,39,3,4,0.9,0.8
2023-02-19T08:00:00,1880A,104.6697,31.4668,绵阳市,高新区自来水公司,颗粒物(PM10),52,53,51,10,32,74,2,6,3,31,42,6,5,0.7,0.7
2023-02-19T08:00:00,1881A,104.7287,31.5075,绵阳市,三水厂,颗粒物(PM10),52,53,57,25,34,60,1,40,7,35,37,4,3,0.9,0.8
2023-02-19T08:00:00,1882A,104.563,28.793,宜宾市,石马中学,细颗粒物(PM2.5),68,62,68,49,56,78,6,27,17,43,28,8,8,1.1,1
2023-02-19T08:00:00,1883A,104.6201,28.7728,宜宾市,市委,细颗粒物(PM2.5),73,75,84,53,64,81,2,8,4,48,40,11,9,1.1,1.1
2023-02-19T08:00:00,1884A,104.6055,28.793,宜宾市,宜宾四中,细颗粒物(PM2.5),79,79,95,58,72,87,7,12,10,47,41,8,6,1.0,1
2023-02-19T08:00:00,1885A,104.639,28.7562,宜宾市,市政府,细颗粒物(PM2.5),68,65,81,49,66,89,0,21,3,48,44,8,8,0.8,0.8
2023-02-19T08:00:00,1886A,104.5742,28.7199,宜宾市,黄金嘴,细颗粒物(PM2.5),69,61,69,50,58,88,2,44,12,47,39,14,10,0.8,0.8
2023-02-19T08:00:00,1888A,101.6891,26.571,攀枝花市,弄弄坪,细颗粒物(PM2.5),130,173,91,99,53,135,7,21,17,60,43,26,28,1.7,2.2
2023-02-19T08:00:00,1889A,101.5769,26.5928,攀枝花市,河门口,颗粒物(PM10),62,73,63,42,35,134,17,27,18,41,30,25,22,2.2,1.4
2023-02-19T08:00:00,1890A,101.7169,26.585,攀枝花市,炳草岗,细颗粒物(PM2.5),135,158,99,103,56,132,8,30,26,65,56,33,33,1.7,1.9
2023-02-19T08:00:00,1891A,101.7369,26.5008,攀枝花市,仁和,颗粒物(PM10),55,60,56,35,34,140,13,51,36,39,26,12,26,1.1,1.4
2023-02-19T08:00:00,1893A,105.4324,28.9634,泸州市,九狮山,细颗粒物(PM2.5),58,64,81,41,52,81,9,18,7,24,22,10,12,0.5,0.6
2023-02-19T08:00:00,1894A,105.4427,28.9063,泸州市,小市上码头,细颗粒物(PM2.5),79,82,100,58,71,70,16,31,23,32,31,41,20,1.0,1
2023-02-19T08:00:00,1895A,105.4241,28.8573,泸州市,兰田宪桥,细颗粒物(PM2.5),95,82,92,71,74,85,14,35,27,35,26,7,10,1.0,0.9
2023-02-19T08:00:00,1896A,105.4379,28.8833,泸州市,市环监站,细颗粒物(PM2.5),79,76,93,58,63,78,11,37,32,33,24,9,10,1.0,0.8
2023-02-19T08:00:00,1901A,104.4239,31.1208,德阳市,东山公园,,46,46,60,24,39,76,68,65,65,14,25,2,3,0.5,0.8
2023-02-19T08:00:00,1902A,104.3826,31.1317,德阳市,西小区,颗粒物(PM10),54,57,69,32,47,75,2,28,18,59,46,3,4,0.9,1
2023-02-19T08:00:00,1904A,104.3553,31.1091,德阳市,耐火材料厂,颗粒物(PM10),54,57,70,31,48,83,12,30,19,48,35,2,3,0.7,0.8
2023-02-19T08:00:00,1905A,106.056,30.8064,南充市,西山风景区,,,,,,,,,,,,,,,,
2023-02-19T08:00:00,1906A,106.0789,30.8023,南充市,南充市委,,50,50,56,29,33,51,21,10,10,25,31,11,9,0.6,0.8
2023-02-19T08:00:00,1907A,106.1031,30.8217,南充市,南充炼油厂,颗粒物(PM10),58,65,62,26,37,49,21,8,8,35,36,48,14,0.6,0.9
2023-02-19T08:00:00,1908A,106.1064,30.7856,南充市,高坪区监测站,颗粒物(PM10),54,57,57,26,42,51,29,8,8,29,40,23,10,0.5,1
2023-02-19T08:00:00,1909A,106.0642,30.7636,南充市,嘉陵区环保局,,46,46,55,22,36,46,18,10,10,44,39,8,9,0.7,0.9
2023-02-19T08:00:00,1910A,106.1087,30.8388,南充市,市环境监测站,颗粒物(PM10),57,64,71,28,42,47,26,18,18,29,39,16,19,0.5,0.8
2023-02-19T08:00:00,1911A,106.9222,27.6869,遵义市,丁字口,,,,36,,32,33,,23,,,29,,34,,1.4
2023-02-19T08:00:00,1912A,106.9242,27.7019,遵义市,凤凰山,,40,40,32,25,24,77,48,77,63,24,20,12,8,0.8,0.8
2023-02-19T08:00:00,1913A,106.8906,27.6486,遵义市,忠庄,,39,39,39,23,24,70,46,59,56,16,20,6,9,0.7,0.8
2023-02-19T08:00:00,1914A,106.9231,27.6506,遵义市,舟水桥,,50,50,53,20,35,68,8,24,16,27,27,26,29,1.0,1.1
2023-02-19T08:00:00,1915A,106.9178,27.72,遵义市,干田坝,,46,23,27,32,23,71,30,49,41,36,28,9,14,0.8,0.9
2023-02-19T08:00:00,1916A,103.7897,25.5035,曲靖市,环境监测站,,39,39,46,17,24,135,54,72,54,14,11,5,6,1.0,0.7
2023-02-19T08:00:00,1917A,103.8,25.5364,曲靖市,烟厂办公区,,24,24,45,9,21,142,60,70,58,14,11,4,5,1.0,0.7
2023-02-19T08:00:00,1918A,108.7197,34.3956,咸阳市,气象站,颗粒物(PM10),70,90,83,28,24,96,4,61,24,58,26,8,7,0.9,0.8
2023-02-19T08:00:00,1919A,108.673,34.3155,咸阳市,实验中学,颗粒物(PM10),68,85,98,23,30,102,12,58,36,55,34,4,5,0.7,0.5
2023-02-19T08:00:00,1920A,108.7233,34.3617,咸阳市,师范学院,颗粒物(PM10),82,113,102,31,27,100,8,53,34,52,20,5,5,0.6,0.4
2023-02-19T08:00:00,1922A,109.0656,35.0994,铜川市,党校,颗粒物(PM10),66,81,99,14,14,110,28,52,37,23,28,11,12,0.5,0.5
2023-02-19T08:00:00,1923A,109.0697,35.0697,铜川市,王益区政府,颗粒物(PM10),68,86,99,22,29,106,18,31,26,34,32,6,6,0.5,0.5
2023-02-19T08:00:00,1924A,108.9344,34.9058,铜川市,新区管委会,颗粒物(PM10),66,82,78,15,17,103,45,68,58,20,14,7,7,0.4,0.4
2023-02-19T08:00:00,1926A,109.4131,36.6275,延安市,枣园,颗粒物(PM10),51,52,78,11,17,106,7,14,12,32,26,5,5,0.6,0.5
2023-02-19T08:00:00,1927A,109.4761,36.6028,延安市,延大医附院,颗粒物(PM10),51,51,76,16,18,95,6,8,8,34,31,5,6,0.8,0.6
2023-02-19T08:00:00,1929A,109.5056,36.6106,延安市,百米大道,颗粒物(PM10),54,58,88,16,17,101,15,26,13,34,25,7,8,0.6,0.6
2023-02-19T08:00:00,1930A,107.185,34.3063,宝鸡市,庙沟村,颗粒物(PM10),54,58,63,17,22,105,26,66,47,38,16,4,4,0.4,0.4
2023-02-19T08:00:00,1931A,107.0708,34.3017,宝鸡市,竹园沟,,42,42,59,17,21,111,25,56,43,26,18,5,6,0.5,0.5
2023-02-19T08:00:00,1932A,107.1906,34.3672,宝鸡市,三陆医院,颗粒物(PM10),62,73,82,20,32,110,18,30,24,41,33,14,9,0.9,0.6
2023-02-19T08:00:00,1933A,107.1431,34.3547,宝鸡市,监测站,颗粒物(PM10),51,51,70,18,25,106,16,33,28,42,30,4,4,0.6,0.5
2023-02-19T08:00:00,1934A,107.1186,34.3739,宝鸡市,技工学校,,48,48,73,21,37,105,32,44,36,22,24,15,6,0.4,0.4
2023-02-19T08:00:00,1935A,107.3906,34.3528,宝鸡市,陈仓区环保局家属楼,颗粒物(PM10),73,95,96,42,39,97,62,38,38,45,37,136,22,1.3,0.7
2023-02-19T08:00:00,1936A,107.2058,34.3497,宝鸡市,文理学院,颗粒物(PM10),61,72,78,20,27,105,12,31,27,44,30,12,8,0.6,0.6
2023-02-19T08:00:00,1937A,107.2386,34.3622,宝鸡市,三迪小学,颗粒物(PM10),61,71,81,16,27,108,13,29,26,47,33,13,10,0.6,0.5
2023-02-19T08:00:00,1938A,109.5293,34.5101,渭南市,农科所,颗粒物(PM10),63,75,103,22,40,97,10,26,24,51,37,12,11,0.3,0.5
2023-02-19T08:00:00,1939A,109.4974,34.4877,渭南市,日报社,颗粒物(PM10),67,83,104,26,38,89,19,31,27,41,43,9,15,0.6,0.8
2023-02-19T08:00:00,1940A,109.4636,34.493,渭南市,体育馆,颗粒物(PM10),59,68,102,24,41,104,12,32,26,58,46,8,13,0.5,0.4
2023-02-19T08:00:00,1941A,109.4259,34.5023,渭南市,高新一小,颗粒物(PM10),64,78,96,16,32,98,7,41,35,66,39,16,10,0.8,0.6
2023-02-19T08:00:00,1943A,102.1725,38.5339,金昌市,新川苑,颗粒物(PM10),64,78,77,19,14,98,37,77,55,28,16,6,8,1.1,0.7
2023-02-19T08:00:00,1944A,102.1692,38.5167,金昌市,天庆家园,颗粒物(PM10),58,65,63,22,17,98,31,75,53,36,16,5,12,1.1,0.7
2023-02-19T08:00:00,1945A,98.2908,39.7711,嘉峪关市,气象局,,42,31,49,9,18,111,5,26,22,83,41,1,3,0.2,0.2
2023-02-19T08:00:00,1947A,106.3394,38.817,石嘴山市,沙湖旅游区,颗粒物(PM10),51,51,97,18,20,93,14,50,30,29,39,7,9,0.4,0.3
2023-02-19T08:00:00,1948A,106.3668,39.0145,石嘴山市,大武口朝阳西街,颗粒物(PM10),51,52,56,19,15,87,17,41,35,41,16,12,14,0.4,0.2
2023-02-19T08:00:00,1949A,106.7704,39.2282,石嘴山市,惠农南大街,颗粒物(PM10),52,53,65,13,16,83,6,17,14,48,30,12,14,0.6,0.6
2023-02-19T08:00:00,1950A,106.7099,39.1325,石嘴山市,红果子镇惠新街,,36,36,76,14,17,83,14,27,20,30,16,6,16,0.5,0.4
2023-02-19T08:00:00,1951A,84.895,45.6094,克拉玛依市,长征新村,颗粒物(PM10),58,66,52,39,25,99,30,64,50,42,36,5,5,0.5,0.5
2023-02-19T08:00:00,1952A,84.8988,45.5893,克拉玛依市,南林小区,细颗粒物(PM2.5),65,61,51,47,33,91,9,56,42,65,36,1,2,0.5,0.5
2023-02-19T08:00:00,1954A,84.905,44.3396,克拉玛依市,独山子区,细颗粒物(PM2.5),68,63,126,49,83,126,115,88,88,9,31,4,5,0.5,0.9
2023-02-19T08:00:00,1955A,85.6979,46.098,克拉玛依市,乌尔禾区商贸楼,细颗粒物(PM2.5),67,57,44,48,35,100,21,74,54,65,26,2,2,3.8,1
2023-02-19T08:00:00,1956A,86.1472,41.7538,巴音郭楞州,孔雀公园,颗粒物(PM10),87,123,124,38,36,103,43,56,45,12,19,2,4,0.6,0.5
2023-02-19T08:00:00,1957A,86.1972,41.7166,巴音郭楞州,棉纺厂,颗粒物(PM10),87,124,130,40,36,98,42,45,45,14,27,1,2,0.3,0.2
2023-02-19T08:00:00,1958A,86.2357,41.7173,巴音郭楞州,经济开发区,颗粒物(PM10),79,108,110,42,29,110,44,38,38,16,21,3,4,0.5,0.4
2023-02-19T08:00:00,1961A,117.532,36.6868,济南市,东山小学,颗粒物(PM10),63,76,115,15,70,95,38,57,49,39,36,3,4,0.4,0.7
2023-02-19T08:00:00,1966A,120.0405,35.8735,青岛市,黄岛区4号,细颗粒物(PM2.5),110,95,57,83,42,72,45,62,58,32,36,8,7,1.0,0.9
2023-02-19T08:00:00,1982A,122.0693,37.2174,威海市,文登开发区,细颗粒物(PM2.5),62,68,47,44,29,77,58,66,65,19,28,4,5,0.5,0.4
2023-02-19T08:00:00,2031A,113.1817,27.9958,株洲市,云田中学,细颗粒物(PM2.5),134,92,82,102,81,61,15,22,18,32,36,6,8,1.1,1.1
2023-02-19T08:00:00,2054A,114.1099,32.1059,信阳市,平桥分局,颗粒物(PM10),74,97,115,22,75,96,59,62,62,21,35,12,10,0.7,0.9
2023-02-19T08:00:00,2064A,113.9956,32.1271,信阳市,南湾水厂,颗粒物(PM10),58,66,102,19,71,106,60,75,72,19,17,10,8,0.6,0.8
2023-02-19T08:00:00,2065A,114.0775,32.1195,信阳市,市酿酒公司,颗粒物(PM10),55,59,101,27,81,105,51,62,60,34,37,12,10,0.7,1
2023-02-19T08:00:00,2066A,114.0609,32.1399,信阳市,审计局,颗粒物(PM10),62,74,110,24,82,96,29,48,42,52,37,11,8,0.6,0.8
2023-02-19T08:00:00,2067A,114.6613,33.6128,周口市,市环境监测站,颗粒物(PM10),70,89,134,48,90,90,43,65,54,23,27,9,11,0.5,0.7
2023-02-19T08:00:00,2068A,114.6758,33.6347,周口市,周口师范,颗粒物(PM10),75,100,133,50,96,103,45,67,55,30,34,10,12,0.3,0.5
2023-02-19T08:00:00,2069A,114.6546,33.5979,周口市,市运管处,颗粒物(PM10),73,96,136,50,95,107,48,71,60,28,30,12,13,0.3,0.6
2023-02-19T08:00:00,2070A,114.6369,33.6406,周口市,川汇区环保局,"颗粒物(PM10),细颗粒物(PM2.5)",82,113,138,60,100,98,35,69,53,38,30,6,11,0.4,0.6
2023-02-19T08:00:00,2075A,117.6336,24.4674,漳州市,九湖,,,,,,,,,,,,,,,,
2023-02-19T08:00:00,2160A,112.85,35.5051,晋城市,自来水公司,,44,44,82,7,31,104,68,74,70,23,20,6,7,0.2,0.4
2023-02-19T08:00:00,2161A,112.8318,35.4936,晋城市,白云商贸,,42,42,84,7,30,98,57,71,66,20,14,6,5,0.5,0.7
2023-02-19T08:00:00,2162A,112.8508,35.4887,晋城市,市环保局,,38,38,79,7,33,106,69,78,73,20,20,7,7,0.5,0.6
2023-02-19T08:00:00,2163A,112.8676,35.4897,晋城市,技术学院,,31,31,86,9,39,103,68,74,70,23,19,4,5,0.6,0.8
2023-02-19T08:00:00,2165A,112.8453,35.546,晋城市,白马寺 ,,,,,,,,,,,,,,,,
2023-02-19T08:00:00,2166A,112.4397,39.3522,朔州市,平朔,,36,36,53,9,13,86,66,75,66,11,10,5,4,0.4,0.3
2023-02-19T08:00:00,2167A,112.4575,39.3617,朔州市,朔唯,,44,44,60,11,13,91,56,78,59,19,13,8,6,0.4,0.4
2023-02-19T08:00:00,2168A,112.4258,39.3197,朔州市,区政府,,33,33,62,10,11,89,64,73,68,13,10,4,4,0.5,0.5
2023-02-19T08:00:00,2169A,112.4072,39.3278,朔州市,市环保局,,36,36,61,14,21,85,62,74,66,15,12,8,7,0.5,0.4
2023-02-19T08:00:00,2170A,112.4272,39.3681,朔州市,市二中,,32,32,59,9,14,92,70,78,66,8,9,6,4,0.4,0.4
2023-02-19T08:00:00,2171A,112.7532,37.6945,晋中市,锦纶小区,,46,46,91,19,47,108,22,77,60,44,24,26,12,0.7,0.6
2023-02-19T08:00:00,2173A,112.7249,37.7067,晋中市,南都小区,,48,48,77,25,50,103,25,72,55,42,47,19,12,0.5,0.5
2023-02-19T08:00:00,2174A,112.6991,37.6982,晋中市,榆次区政府,,45,45,75,24,46,104,21,67,55,47,25,17,9,0.7,0.7
2023-02-19T08:00:00,2175A,110.9956,35.0147,运城市,运城中学,颗粒物(PM10),60,70,115,19,46,92,48,74,62,25,20,8,7,0.5,0.5
2023-02-19T08:00:00,2178A,110.9686,35.0303,运城市,地区技校,颗粒物(PM10),71,91,122,35,50,95,36,77,61,30,20,7,6,0.5,0.6
2023-02-19T08:00:00,2179A,111.0414,35.1147,运城市,空港新区,颗粒物(PM10),66,81,112,31,53,105,24,75,46,40,18,10,8,0.7,0.6
2023-02-19T08:00:00,2181A,112.7383,38.4519,忻州市,开发区,,28,20,70,19,40,105,30,73,37,29,23,4,6,0.4,0.5
2023-02-19T08:00:00,2182A,112.7003,38.4928,忻州市,会展中心,,32,32,79,11,49,98,10,34,29,45,35,4,12,0.8,0.7
2023-02-19T08:00:00,2183A,111.1406,37.5211,吕梁市,环保局,颗粒物(PM10),60,69,72,8,18,100,3,65,16,52,27,11,10,0.3,0.3
2023-02-19T08:00:00,2185A,111.1297,37.5136,吕梁市,自来水公司,颗粒物(PM10),63,75,72,15,17,100,4,52,23,47,24,12,11,0.4,0.3
2023-02-19T08:00:00,2187A,106.8174,39.6973,乌海市,市林业局,,42,42,63,21,22,90,41,66,58,34,14,10,9,0.9,0.5
2023-02-19T08:00:00,2188A,106.7907,39.6667,乌海市,中海勃湾学校,颗粒物(PM10),71,91,59,34,19,92,8,76,53,69,19,43,11,2.4,0.5
2023-02-19T08:00:00,2191A,122.2532,43.6801,通辽市,艺术职业学校,,48,48,36,10,11,83,58,59,57,15,13,8,7,0.4,0.4
2023-02-19T08:00:00,2192A,119.7594,49.2261,呼伦贝尔市,区环保局,,43,43,32,23,20,82,36,42,42,35,16,5,5,0.5,0.4
2023-02-19T08:00:00,2195A,107.4212,40.761,巴彦淖尔市,附二中,颗粒物(PM10),54,57,68,14,15,88,55,70,68,19,12,3,3,0.5,0.5
2023-02-19T08:00:00,2196A,107.37,40.7372,巴彦淖尔市,市环保大楼,颗粒物(PM10),56,61,58,15,21,92,62,65,64,12,12,5,6,0.4,0.4
2023-02-19T08:00:00,2197A,113.1306,40.9923,乌兰察布市,集宁新区,,36,36,82,17,15,89,67,82,78,14,7,10,8,0.6,0.5
2023-02-19T08:00:00,2200A,122.0392,46.0656,兴安盟,胜华新制药厂,,32,23,19,22,14,82,41,77,64,31,12,5,5,0.6,0.5
2023-02-19T08:00:00,2201A,121.9504,46.0741,兴安盟,科右前旗环保局,,29,22,19,20,16,79,44,74,64,26,10,5,4,0.7,0.4
2023-02-19T08:00:00,2202A,116.1042,43.9317,锡林郭勒盟,市环保监测站,,47,47,30,2,8,85,60,72,67,3,7,9,8,0.2,0.3
2023-02-19T08:00:00,2203A,116.0781,43.9311,锡林郭勒盟,市政府,颗粒物(PM10),51,52,37,6,6,72,60,71,67,7,9,7,8,0.2,0.2
2023-02-19T08:00:00,2204A,105.6467,38.8363,阿拉善盟,西城区西花园,,41,41,43,17,14,91,77,88,86,19,12,8,8,0.7,0.6
2023-02-19T08:00:00,2205A,105.6985,38.8411,阿拉善盟,蒙二幼,颗粒物(PM10),51,51,45,25,24,94,75,89,88,17,10,11,8,0.6,0.4
2023-02-19T08:00:00,2206A,105.724,38.8516,阿拉善盟,环保局新楼,,,,51,,21,88,,91,,,6,,6,,0.5
2023-02-19T08:00:00,2207A,121.6094,41.998,阜新市,工业园区,细颗粒物(PM2.5),79,70,40,58,17,64,14,42,22,37,21,21,11,1.6,1
2023-02-19T08:00:00,2208A,121.6697,42.0279,阜新市,长青街,细颗粒物(PM2.5),59,61,40,42,22,84,28,68,44,37,17,24,13,1.4,0.7
2023-02-19T08:00:00,2209A,121.6673,42.0705,阜新市,农业园区,颗粒物(PM10),51,52,21,35,19,73,47,58,49,18,12,25,12,0.9,0.6
2023-02-19T08:00:00,2210A,121.6717,42.0224,阜新市,东苑,细颗粒物(PM2.5),64,75,41,46,18,78,29,63,43,31,13,34,15,1.3,0.7
2023-02-19T08:00:00,2211A,121.6506,42.0498,阜新市,玉龙新城,颗粒物(PM10),70,90,30,47,20,81,19,53,29,40,18,23,12,1.1,0.6
2023-02-19T08:00:00,2212A,123.2,41.1953,辽阳市,宏伟区,颗粒物(PM10),57,64,100,35,80,66,32,57,37,45,42,18,15,1.3,1.1
2023-02-19T08:00:00,2213A,123.1683,41.2495,辽阳市,新华园,细颗粒物(PM2.5),68,70,91,49,75,74,20,57,34,64,48,16,15,1.9,1.1
2023-02-19T08:00:00,2214A,123.2354,41.2639,辽阳市,滨河路,细颗粒物(PM2.5),83,54,90,61,87,61,14,58,28,59,46,16,8,1.4,1.1
2023-02-19T08:00:00,2215A,123.149,41.2991,辽阳市,铁西工业园,细颗粒物(PM2.5),90,109,95,67,79,62,21,48,23,47,41,6,8,1.6,1.2
2023-02-19T08:00:00,2216A,123.8139,42.3022,铁岭市,汇工街西,细颗粒物(PM2.5),54,50,56,38,23,91,35,63,33,40,24,17,15,0.5,0.4
2023-02-19T08:00:00,2217A,123.8649,42.2923,铁岭市,水上乐园,细颗粒物(PM2.5),74,71,42,54,27,89,30,60,44,42,24,11,11,0.7,0.6
2023-02-19T08:00:00,2218A,123.8486,42.2867,铁岭市,银州路东段,,44,44,38,28,25,86,38,65,41,41,29,7,7,0.6,0.5
2023-02-19T08:00:00,2219A,123.7153,42.2217,铁岭市,金沙江路北,颗粒物(PM10),55,59,48,38,26,82,22,59,42,54,25,12,8,0.6,0.4
2023-02-19T08:00:00,2220A,120.4318,41.5881,朝阳市,西梁,颗粒物(PM10),56,62,46,30,19,78,47,47,47,31,23,23,14,1.0,0.8
2023-02-19T08:00:00,2221A,120.4521,41.5646,朝阳市,河畔小区,颗粒物(PM10),55,60,38,24,18,85,50,60,54,27,20,21,12,1.1,0.8
2023-02-19T08:00:00,2222A,120.4176,41.5648,朝阳市,八里堡,颗粒物(PM10),57,64,46,31,18,80,46,43,43,29,24,20,14,1.2,0.8
2023-02-19T08:00:00,2223A,120.3806,41.5969,朝阳市,农业园区,,47,47,29,20,19,78,54,64,57,16,17,12,9,1.0,0.8
2023-02-19T08:00:00,2225A,124.4002,43.1713,四平市,一商场,,38,35,35,26,20,84,37,62,44,33,17,8,7,0.6,0.3
2023-02-19T08:00:00,2226A,124.388,43.193,四平市,境园,,29,29,28,15,14,89,40,70,58,34,12,4,2,0.4,0.2
2023-02-19T08:00:00,2227A,125.1358,42.8845,辽源市,环保局,,26,26,32,17,26,88,59,72,66,21,18,10,16,0.3,0.3
2023-02-19T08:00:00,2229A,125.9358,41.7173,通化市,光明,,27,27,45,17,33,103,32,78,62,46,21,15,12,0.3,0.3
2023-02-19T08:00:00,2230A,125.9446,41.7325,通化市,铁路,,46,38,41,32,30,109,25,84,61,57,23,15,10,0.4,0.3
2023-02-19T08:00:00,2231A,126.4219,41.9171,白山市,喜丰,,34,34,72,22,44,102,66,84,72,16,24,18,14,0.9,1.2
2023-02-19T08:00:00,2232A,126.4077,41.9419,白山市,环保局,颗粒物(PM10),61,72,85,27,53,91,39,79,64,41,24,12,13,1.2,1.3
2023-02-19T08:00:00,2233A,124.8006,45.1214,松原市,江南,细颗粒物(PM2.5),53,34,34,37,19,81,34,44,36,23,21,8,9,0.5,0.4
2023-02-19T08:00:00,2234A,124.7965,45.1722,松原市,江北,,22,17,27,15,13,80,46,48,45,12,12,5,5,0.4,0.4
2023-02-19T08:00:00,2235A,122.7911,45.6077,白城市,洮北区环保局,,26,26,37,15,20,93,48,73,63,25,12,5,6,0.4,0.3
2023-02-19T08:00:00,2236A,122.8738,45.5725,白城市,市环保局,,48,48,38,10,13,88,18,65,45,49,19,9,5,0.5,0.3
2023-02-19T08:00:00,2237A,129.47,42.8883,延边朝鲜族自治州,妇幼医院,,25,17,37,10,26,88,77,68,68,16,25,17,15,0.4,0.6
2023-02-19T08:00:00,2238A,129.5055,42.9108,延边朝鲜族自治州,延边医院,,25,18,41,10,31,88,77,73,73,16,28,8,12,0.4,0.7
2023-02-19T08:00:00,2239A,129.3964,42.8881,延边朝鲜族自治州,朝阳川镇医院,,26,18,36,8,23,88,82,75,75,6,17,8,9,0.3,0.5
2023-02-19T08:00:00,2240A,130.9762,45.3001,鸡西市,环保局,,36,36,37,25,25,84,47,72,56,34,24,7,7,0.4,0.4
2023-02-19T08:00:00,2243A,130.9429,45.3039,鸡西市,第一中学,,30,30,25,19,17,86,38,71,60,32,10,9,6,0.4,0.4
2023-02-19T08:00:00,2244A,130.2537,47.3416,鹤岗市,哈啤分公司,,,,31,,22,76,,76,,,10,,11,,0.4
2023-02-19T08:00:00,2245A,130.2684,47.3086,鹤岗市,斯达机电,,38,37,34,26,22,81,56,81,75,28,13,8,8,0.5,0.3
2023-02-19T08:00:00,2246A,130.3114,47.3388,鹤岗市,东山纸板厂,颗粒物(PM10),102,154,56,50,25,82,35,80,64,40,12,21,14,2.2,0.4
2023-02-19T08:00:00,2247A,130.1097,47.3382,鹤岗市,五号水库,,21,18,22,11,18,84,66,83,72,9,6,6,7,0.4,0.4
2023-02-19T08:00:00,2248A,131.1511,46.6937,双鸭山市,双合村,颗粒物(PM10),59,67,34,28,21,98,41,71,54,31,13,16,11,1.1,0.7
2023-02-19T08:00:00,2249A,131.1652,46.6191,双鸭山市,南小市,颗粒物(PM10),52,53,40,35,27,102,47,79,62,24,12,10,7,1.0,0.8
2023-02-19T08:00:00,2250A,131.1524,46.6554,双鸭山市,环保局,细颗粒物(PM2.5),69,65,39,50,29,104,34,66,40,53,25,19,11,0.9,0.6
2023-02-19T08:00:00,2251A,131.12,46.5656,双鸭山市,苗圃,,37,37,37,24,32,104,82,95,87,14,11,5,5,0.1,0.1
2023-02-19T08:00:00,2252A,128.5159,47.4311,伊春市,环保局,,32,28,29,22,25,72,45,69,56,25,15,6,5,0.6,0.5
2023-02-19T08:00:00,2253A,128.9102,47.7412,伊春市,电力嘉园,,35,34,34,24,27,87,26,56,44,43,17,6,6,0.7,0.5
2023-02-19T08:00:00,2254A,129.5029,48.471,伊春市,汤旺河国家公园,,30,28,30,21,20,76,49,48,45,3,4,5,6,0.2,0.2
2023-02-19T08:00:00,2255A,130.2751,46.8028,佳木斯市,佳纺,细颗粒物(PM2.5),95,89,43,71,33,92,17,63,42,54,22,14,8,1.1,0.5
2023-02-19T08:00:00,2256A,130.3995,46.8307,佳木斯市,发电厂,,25,25,28,16,24,92,43,69,56,26,16,4,5,0.4,0.4
2023-02-19T08:00:00,2257A,130.3258,46.7975,佳木斯市,环保局,,38,37,34,26,28,89,12,60,43,58,23,12,7,0.8,0.4
2023-02-19T08:00:00,2258A,130.3648,46.8032,佳木斯市,十一中,,48,34,33,33,25,89,19,60,44,66,27,8,9,1.1,0.5
2023-02-19T08:00:00,2259A,130.3794,46.7588,佳木斯市,四丰,,38,15,24,12,20,168,121,126,119,6,6,1,1,0.2,0.3
2023-02-19T08:00:00,2262A,131.0518,45.8751,七台河市,新一中,,30,30,29,20,21,99,81,82,82,13,9,6,7,0.2,0.4
2023-02-19T08:00:00,2263A,127.4833,50.2524,黑河市,交通局,,21,21,24,8,19,76,59,63,63,11,17,5,8,0.5,0.6
2023-02-19T08:00:00,2264A,127.5144,50.2341,黑河市,环保局,,23,18,45,16,26,80,48,62,60,24,19,4,9,0.4,0.5
2023-02-19T08:00:00,2265A,127.5291,50.2472,黑河市,大黑河岛,,17,3,24,3,24,81,53,60,59,5,6,3,7,0.3,0.4
2023-02-19T08:00:00,2266A,126.9785,46.6365,绥化市,人和东街,细颗粒物(PM2.5),57,52,42,40,32,87,65,58,58,20,23,5,3,0.9,0.8
2023-02-19T08:00:00,2267A,126.964,46.6528,绥化市,党政办公中心,,48,40,33,33,25,95,80,76,67,14,17,6,5,0.7,0.6
2023-02-19T08:00:00,2269A,124.1069,50.4097,大兴安岭地区,科技局,,29,18,15,20,16,84,75,73,73,4,7,6,7,0.3,0.4
2023-02-19T08:00:00,2270A,117.396,32.939,蚌埠市,工人疗养院,细颗粒物(PM2.5),102,139,152,76,111,58,56,52,52,22,51,9,13,0.7,0.9
2023-02-19T08:00:00,2271A,117.3605,32.9427,蚌埠市,百货大楼,细颗粒物(PM2.5),98,141,153,73,106,58,44,47,47,28,47,3,6,0.6,0.7
2023-02-19T08:00:00,2273A,117.4185,32.8911,蚌埠市,蚌埠学院,颗粒物(PM10),92,134,145,63,96,62,54,42,42,26,51,6,9,0.7,0.9
2023-02-19T08:00:00,2274A,117.3533,32.9673,蚌埠市,淮上区政府,"颗粒物(PM10),细颗粒物(PM2.5)",98,146,164,73,104,47,45,42,42,24,46,9,11,0.7,0.9
2023-02-19T08:00:00,2275A,117.3145,32.8977,蚌埠市,高新区,,,139,155,73,109,48,41,38,38,41,57,,17,0.7,0.9
2023-02-19T08:00:00,2277A,116.8305,32.7727,淮南市,潘集区政府,细颗粒物(PM2.5),130,151,161,99,118,37,35,27,27,25,37,10,9,0.7,0.8
2023-02-19T08:00:00,2278A,117.0067,32.6524,淮南市,师范学院,细颗粒物(PM2.5),135,158,176,103,123,34,26,33,29,26,43,11,14,0.6,0.8
2023-02-19T08:00:00,2279A,116.8569,32.5951,淮南市,谢家集区政府,细颗粒物(PM2.5),118,159,148,89,102,46,37,37,37,31,44,16,12,0.7,0.8
2023-02-19T08:00:00,2280A,116.8281,32.633,淮南市,八公山区政府,细颗粒物(PM2.5),127,136,142,96,115,57,36,55,40,21,25,9,10,0.6,0.7
2023-02-19T08:00:00,2281A,116.6325,32.6201,淮南市,焦岗湖风景区管理处,细颗粒物(PM2.5),122,140,139,92,104,38,33,23,23,22,34,7,6,0.8,1
2023-02-19T08:00:00,2282A,116.8004,33.975,淮北市,监测站,细颗粒物(PM2.5),115,137,140,87,96,102,37,72,59,30,23,10,9,0.9,0.9
2023-02-19T08:00:00,2283A,116.8091,33.9007,淮北市,烈山区政府,细颗粒物(PM2.5),125,132,134,95,95,102,41,73,60,36,39,10,8,0.6,0.7
2023-02-19T08:00:00,2284A,116.7856,33.9477,淮北市,职业技术学院,细颗粒物(PM2.5),124,130,142,94,99,106,39,78,64,30,27,9,9,0.8,0.8
2023-02-19T08:00:00,2285A,117.8177,30.9412,铜陵市,市第四中学,细颗粒物(PM2.5),114,113,97,86,71,47,18,38,31,46,45,6,13,0.7,0.7
2023-02-19T08:00:00,2286A,117.8059,30.9273,铜陵市,市公路局,细颗粒物(PM2.5),112,100,93,84,71,47,12,35,28,40,36,4,7,1.0,1.1
2023-02-19T08:00:00,2287A,117.7807,30.9413,铜陵市,市新民污水厂,细颗粒物(PM2.5),74,95,89,54,49,51,7,34,21,45,38,5,7,0.8,0.8
2023-02-19T08:00:00,2288A,117.7439,30.8792,铜陵市,市第九中学,细颗粒物(PM2.5),87,101,106,64,58,46,13,35,18,40,47,7,8,0.9,0.9
2023-02-19T08:00:00,2289A,117.846,30.9413,铜陵市,车站新区,细颗粒物(PM2.5),128,117,98,97,67,46,17,28,22,46,43,8,10,0.8,0.9
2023-02-19T08:00:00,2290A,117.8483,30.97,铜陵市,市职教基地,细颗粒物(PM2.5),83,89,83,61,53,46,17,20,20,32,32,4,5,0.5,0.5
2023-02-19T08:00:00,2291A,117.0809,30.5177,安庆市,环科院,细颗粒物(PM2.5),99,100,94,74,76,55,51,48,34,22,37,8,10,0.7,0.9
2023-02-19T08:00:00,2292A,117.0331,30.5119,安庆市,马山宾馆,细颗粒物(PM2.5),87,100,98,64,70,51,47,46,36,28,40,8,11,0.8,0.9
2023-02-19T08:00:00,2294A,116.9896,30.6145,安庆市,安庆大学,颗粒物(PM10),78,106,90,56,58,71,63,47,46,22,37,9,8,0.7,0.8
2023-02-19T08:00:00,2295A,118.2903,29.6963,黄山市,延安路89号,,,61,50,,,100,75,75,75,15,18,7,7,0.7,0.6
2023-02-19T08:00:00,2296A,118.327,29.7178,黄山市,黄山东路89号,细颗粒物(PM2.5),88,72,58,65,42,85,74,72,72,13,24,6,6,0.8,0.9
2023-02-19T08:00:00,2297A,118.1371,30.2756,黄山市,黄山区政府5号楼,细颗粒物(PM2.5),60,68,66,43,38,95,11,39,25,27,21,6,7,1.0,0.8
2023-02-19T08:00:00,2298A,118.3093,32.3153,滁州市,老年大学,细颗粒物(PM2.5),176,160,134,133,116,48,28,32,29,40,45,7,7,1.1,1.1
2023-02-19T08:00:00,2299A,118.3244,32.2786,滁州市,人大宾馆,细颗粒物(PM2.5),169,177,153,128,115,57,29,51,42,48,51,10,9,1.0,1
2023-02-19T08:00:00,2301A,115.8277,32.8929,阜阳市,市监测站,细颗粒物(PM2.5),99,118,131,74,99,80,48,54,53,28,29,5,7,0.6,0.8
2023-02-19T08:00:00,2303A,115.8554,32.8605,阜阳市,开发区,颗粒物(PM10),104,157,163,62,98,83,49,54,53,27,33,7,8,0.7,0.9
2023-02-19T08:00:00,2307A,116.5079,31.737,六安市,监测大楼,细颗粒物(PM2.5),112,115,102,84,81,63,33,61,54,29,32,5,5,0.6,0.7
2023-02-19T08:00:00,2308A,116.4738,31.7643,六安市,皖西学院,细颗粒物(PM2.5),93,126,102,69,66,57,31,45,43,29,36,4,3,0.6,0.7
2023-02-19T08:00:00,2309A,116.4996,31.7905,六安市,朝阳厂,细颗粒物(PM2.5),107,106,94,80,79,60,52,57,55,30,35,5,6,0.7,0.8
2023-02-19T08:00:00,2310A,116.5567,31.7886,六安市,开发区,细颗粒物(PM2.5),110,152,123,83,72,58,24,51,45,34,35,6,7,0.6,0.8
2023-02-19T08:00:00,2311A,115.8072,33.8399,亳州市,污水处理厂,细颗粒物(PM2.5),102,118,131,76,89,89,39,54,48,22,22,6,8,0.7,0.8
2023-02-19T08:00:00,2312A,115.7789,33.8518,亳州市,三国揽胜宫,细颗粒物(PM2.5),99,132,152,74,87,97,40,61,54,22,24,5,8,0.5,0.7
2023-02-19T08:00:00,2314A,117.47,30.6618,池州市,池州学院,细颗粒物(PM2.5),73,77,80,53,51,65,21,34,32,31,27,8,7,0.9,0.9
2023-02-19T08:00:00,2316A,118.7581,30.9454,宣城市,鳌峰子站,细颗粒物(PM2.5),108,84,88,81,73,73,34,55,49,22,31,5,8,1.0,0.8
2023-02-19T08:00:00,2317A,118.7385,30.9743,宣城市,敬亭山子站,细颗粒物(PM2.5),125,106,91,95,74,60,39,47,45,16,32,9,17,0.9,0.8
2023-02-19T08:00:00,2318A,118.7173,30.9427,宣城市,开发区子站,,,63,81,65,69,65,11,38,30,30,35,5,10,,0.8
2023-02-19T08:00:00,2319A,119.0141,25.4325,莆田市,荔城区仓后路,,40,38,62,28,36,138,29,28,28,21,27,8,8,0.9,0.9
2023-02-19T08:00:00,2320A,119.0015,25.4553,莆田市,莆田市监测站,,39,34,50,27,29,127,30,58,46,18,22,6,7,0.6,0.7
2023-02-19T08:00:00,2321A,119.1119,25.4561,莆田市,涵江区六中,细颗粒物(PM2.5),80,48,53,59,44,152,6,3,3,41,40,8,7,1.1,0.7
2023-02-19T08:00:00,2322A,119.1013,25.3215,莆田市,秀屿区政府,细颗粒物(PM2.5),68,51,52,49,43,126,21,39,31,38,26,7,6,0.9,0.7
2023-02-19T08:00:00,2323A,118.981,25.4792,莆田市,东圳水库,,,,,,,,,,,,,,,,
2023-02-19T08:00:00,2324A,117.6211,26.2625,三明市,三钢,,43,31,42,30,28,111,4,8,5,29,32,7,9,0.9,1
2023-02-19T08:00:00,2325A,117.635,26.2714,三明市,三明二中,,36,34,43,25,25,106,6,9,7,34,39,3,6,0.7,0.9
2023-02-19T08:00:00,2326A,117.6028,26.2378,三明市,三元区政府,细颗粒物(PM2.5),52,48,56,36,30,108,5,7,6,27,36,1,8,1.0,1.1
2023-02-19T08:00:00,2327A,117.7275,26.3108,三明市,洋溪,,,,,,,,,,,,,,,,
2023-02-19T08:00:00,2331A,118.0966,26.6761,南平市,茫荡山,,,,,,,,,,,,,,,,
2023-02-19T08:00:00,2332A,118.1681,26.6369,南平市,南平市监测站,,36,36,39,21,21,110,4,4,3,27,29,3,4,0.8,0.7
2023-02-19T08:00:00,2333A,118.1825,26.6489,南平市,南平铝业有限公司,,46,26,40,32,28,101,4,4,3,26,29,10,10,0.7,0.6
2023-02-19T08:00:00,2334A,118.1756,26.6272,南平市,南平七中,,32,27,48,22,27,118,5,9,6,24,32,4,4,0.7,0.7
2023-02-19T08:00:00,2335A,117.0189,25.1181,龙岩市,龙岩师专,,,,,,,,,,,,,,,,
2023-02-19T08:00:00,2336A,117.0217,25.1033,龙岩市,龙岩市监测站,,49,49,42,28,22,108,10,20,13,31,30,7,7,0.7,0.7
2023-02-19T08:00:00,2337A,117.0258,25.0661,龙岩市,闽西职业技术学院,颗粒物(PM10),53,55,47,28,20,101,3,3,2,29,34,38,20,0.6,0.6
2023-02-19T08:00:00,2338A,117.0196,25.0306,龙岩市,龙岩学院,,40,31,32,28,17,99,13,38,24,20,19,4,5,0.5,0.5
2023-02-19T08:00:00,2339A,119.5001,26.6946,宁德市,金涵水库,,,,,,,,,,,,,,,,
2023-02-19T08:00:00,2341A,119.5388,26.6612,宁德市,宁德市监测站,,45,32,40,31,29,101,9,18,14,29,22,3,3,1.0,0.8
2023-02-19T08:00:00,2342A,117.3102,29.3867,景德镇市,王港中学,细颗粒物(PM2.5),65,40,49,47,29,60,54,44,44,5,8,4,4,0.4,0.3
2023-02-19T08:00:00,2343A,117.2117,29.2933,景德镇市,老干部活动中心,细颗粒物(PM2.5),67,54,67,48,38,90,66,58,58,10,18,7,10,0.7,0.7
2023-02-19T08:00:00,2344A,117.1894,29.2789,景德镇市,兽医站,细颗粒物(PM2.5),53,40,48,37,31,104,76,66,66,10,19,5,10,0.8,0.7
2023-02-19T08:00:00,2345A,117.1547,29.2617,景德镇市,台达陶瓷,细颗粒物(PM2.5),57,41,56,40,37,95,72,61,61,13,29,14,45,1.0,0.9
2023-02-19T08:00:00,2346A,117.2461,29.2956,景德镇市,陶研所,颗粒物(PM10),54,58,57,29,30,96,71,65,65,10,17,4,7,0.9,0.8
2023-02-19T08:00:00,2347A,114.0997,27.5002,萍乡市,武功山,,26,16,43,18,37,97,49,29,28,14,20,9,12,0.9,1
2023-02-19T08:00:00,2348A,113.8385,27.6434,萍乡市,中医院,细颗粒物(PM2.5),74,58,91,54,63,91,6,14,12,24,31,15,34,1.3,1.3
2023-02-19T08:00:00,2349A,113.8493,27.6253,萍乡市,市政府车库,,46,38,89,32,57,92,5,16,13,25,32,13,31,1.6,1.7
2023-02-19T08:00:00,2350A,113.8676,27.6435,萍乡市,市环保局,,42,29,83,29,56,98,10,16,15,26,37,19,38,1.1,1.1
2023-02-19T08:00:00,2351A,113.866,27.6198,萍乡市,安源区政府,颗粒物(PM10),56,61,89,38,58,91,9,18,15,27,37,13,26,1.0,1.1
2023-02-19T08:00:00,2352A,115.0861,27.9317,新余市,北岗,细颗粒物(PM2.5),53,41,62,37,49,94,44,31,31,18,31,7,30,0.9,0.8
2023-02-19T08:00:00,2353A,114.9886,27.8431,新余市,飞宇,"颗粒物(PM10),细颗粒物(PM2.5)",57,64,81,40,46,83,39,27,27,21,30,16,24,0.4,0.3
2023-02-19T08:00:00,2354A,114.9231,27.8246,新余市,第二水厂,,49,49,111,34,66,70,41,30,30,14,48,8,30,0.5,1.2
2023-02-19T08:00:00,2355A,114.9308,27.8036,新余市,市气象局,颗粒物(PM10),58,65,120,36,66,82,49,35,35,18,39,10,27,0.6,1.1
2023-02-19T08:00:00,2357A,116.9822,28.1136,鹰潭市,龙虎山,细颗粒物(PM2.5),69,44,66,50,46,97,41,41,39,6,8,2,7,1.4,1.3
2023-02-19T08:00:00,2358A,117.0564,28.2642,鹰潭市,新监测站,细颗粒物(PM2.5),64,38,67,46,47,91,45,58,45,19,24,1,23,0.7,0.6
2023-02-19T08:00:00,2359A,117.0311,28.2475,鹰潭市,财苑宾馆,细颗粒物(PM2.5),60,40,74,43,46,118,44,54,42,22,25,5,24,0.6,0.8
2023-02-19T08:00:00,2360A,117.0222,28.2264,鹰潭市,体育馆,细颗粒物(PM2.5),60,42,76,43,53,168,47,44,41,18,28,4,23,0.4,0.6
2023-02-19T08:00:00,2361A,117.0017,28.2131,鹰潭市,三川水表,细颗粒物(PM2.5),64,44,86,46,58,153,36,36,36,30,40,1,16,0.4,0.7
2023-02-19T08:00:00,2362A,114.9017,25.9149,赣州市,通天岩,"颗粒物(PM10),细颗粒物(PM2.5)",59,67,48,42,25,142,68,90,78,3,10,9,10,1.1,1
2023-02-19T08:00:00,2363A,114.9367,25.8664,赣州市,地委,细颗粒物(PM2.5),68,63,65,49,31,164,68,59,59,10,32,13,16,0.8,0.9
2023-02-19T08:00:00,2364A,114.9461,25.8481,赣州市,气象台,细颗粒物(PM2.5),64,59,54,46,35,170,63,53,53,12,33,12,15,0.9,0.9
2023-02-19T08:00:00,2365A,114.9322,25.8333,赣州市,市图书馆,细颗粒物(PM2.5),60,65,58,43,32,160,65,79,72,11,32,15,14,1.2,1.2
2023-02-19T08:00:00,2366A,114.8905,25.8471,赣州市,华坚鞋城,细颗粒物(PM2.5),58,60,65,41,33,110,50,70,63,13,33,8,9,1.0,0.9
2023-02-19T08:00:00,2367A,114.9754,27.0803,吉安市,红声器材厂,细颗粒物(PM2.5),64,59,66,46,42,124,51,66,51,16,24,24,12,0.9,0.8
2023-02-19T08:00:00,2368A,114.9658,27.0999,吉安市,市森林工业局,细颗粒物(PM2.5),58,55,60,41,42,129,52,75,54,14,19,10,11,0.9,0.7
2023-02-19T08:00:00,2369A,114.99,27.1312,吉安市,市环境监测站,颗粒物(PM10),55,60,63,37,40,135,52,73,54,19,24,6,12,0.8,0.7
2023-02-19T08:00:00,2370A,115.0093,27.0968,吉安市,青原区法院,细颗粒物(PM2.5),62,63,65,44,43,131,53,69,54,18,25,34,16,0.8,0.7
2023-02-19T08:00:00,2371A,114.3408,27.8064,宜春市,槟榔水业,细颗粒物(PM2.5),70,67,69,51,44,83,26,14,14,20,29,14,17,1.0,1
2023-02-19T08:00:00,2373A,114.3956,27.7844,宜春市,市石油公司,细颗粒物(PM2.5),64,58,83,46,52,108,21,16,15,32,34,2,13,1.0,1
2023-02-19T08:00:00,2374A,114.3703,27.7914,宜春市,市气象局,细颗粒物(PM2.5),69,63,78,50,50,108,42,18,18,22,37,6,16,0.9,1.1
2023-02-19T08:00:00,2375A,114.4013,27.8074,宜春市,市广电局,细颗粒物(PM2.5),73,57,82,53,56,115,44,22,22,25,40,3,14,1.1,1.2
2023-02-19T08:00:00,2376A,116.2127,28.0814,抚州市,桐源党溪,细颗粒物(PM2.5),68,60,66,49,46,95,50,52,45,1,24,1,21,0.9,1
2023-02-19T08:00:00,2377A,116.3544,27.9831,抚州市,市站,细颗粒物(PM2.5),77,67,73,56,48,88,52,48,47,16,25,4,10,0.7,0.7
2023-02-19T08:00:00,2378A,116.3565,27.963,抚州市,血防站,细颗粒物(PM2.5),69,68,72,50,45,87,52,50,48,15,26,7,13,0.9,0.9
2023-02-19T08:00:00,2379A,116.3564,28.0007,抚州市,采茶剧团,细颗粒物(PM2.5),72,65,71,52,47,80,45,43,41,16,27,5,11,1.0,1
2023-02-19T08:00:00,2380A,116.385,27.9647,抚州市,医学分院,细颗粒物(PM2.5),65,69,71,47,43,84,44,47,42,18,28,5,14,1.0,1.1
2023-02-19T08:00:00,2381A,118.005,28.4572,上饶市,百草园,,,,59,,31,45,,50,,,18,,8,,0.9
2023-02-19T08:00:00,2382A,117.9756,28.4436,上饶市,市监测站,细颗粒物(PM2.5),68,80,71,49,39,102,26,45,41,26,32,19,32,1.0,0.8
2023-02-19T08:00:00,2383A,117.9519,28.4628,上饶市,凤凰光学,细颗粒物(PM2.5),64,76,81,46,44,91,17,35,31,30,41,34,29,0.8,0.8
2023-02-19T08:00:00,2385A,114.17,35.9019,鹤壁市,市监测站,颗粒物(PM10),63,76,123,27,88,103,24,57,44,28,25,8,13,0.6,0.9
2023-02-19T08:00:00,2386A,114.2956,35.7511,鹤壁市,市交警支队,"颗粒物(PM10),细颗粒物(PM2.5)",84,117,144,62,101,89,4,44,35,56,36,6,14,1.1,0.8
2023-02-19T08:00:00,2387A,114.2878,35.7306,鹤壁市,迎宾馆,,46,46,116,24,103,89,19,50,41,41,34,8,14,0.6,0.9
2023-02-19T08:00:00,2389A,113.836,35.311,新乡市,环保西院,颗粒物(PM10),51,52,121,22,65,95,29,63,50,38,28,6,10,0.5,0.7
2023-02-19T08:00:00,2390A,113.884,35.272,新乡市,开发区,颗粒物(PM10),68,85,124,24,77,99,19,64,51,48,28,9,10,0.7,0.9
2023-02-19T08:00:00,2391A,113.883,35.303,新乡市,环保东院,颗粒物(PM10),52,53,105,30,75,99,35,59,51,32,27,8,11,0.5,0.9
2023-02-19T08:00:00,2392A,115.0312,35.7636,濮阳市,环保局,细颗粒物(PM2.5),74,60,117,54,114,103,39,71,57,28,28,10,11,0.5,0.8
2023-02-19T08:00:00,2394A,115.0574,35.7609,濮阳市,油田运输公司,细颗粒物(PM2.5),90,91,175,67,119,105,24,74,57,46,30,7,9,0.9,1
2023-02-19T08:00:00,2395A,115.0866,35.7754,濮阳市,油田物探公司,细颗粒物(PM2.5),82,53,118,60,116,105,32,68,53,34,27,10,11,0.6,0.8
2023-02-19T08:00:00,2396A,113.8276,34.0159,许昌市,监测站,颗粒物(PM10),67,83,108,30,62,115,54,81,65,23,23,3,5,0.4,0.6
2023-02-19T08:00:00,2398A,113.7906,33.9953,许昌市,开发区,颗粒物(PM10),64,78,102,16,57,115,42,77,65,24,21,2,4,0.4,0.6
2023-02-19T08:00:00,2399A,114.051,33.5699,漯河市,三五一五工厂,颗粒物(PM10),81,112,118,34,65,120,47,80,62,27,26,7,9,0.4,0.6
2023-02-19T08:00:00,2400A,114.0055,33.5698,漯河市,漯河大学,颗粒物(PM10),79,108,119,31,71,123,44,83,64,37,31,8,10,0.4,0.6
