timepoint,stationcode,longitude,latitude,area,positionname,primarypollutant,aqi,pm10,pm10_24h,pm2_5,pm2_5_24h,o3,o3_24h,o3_8h,o3_8h_24h,no2,no2_24h,so2,so2_24h,co,co_24h
2023-08-02T14:00:00,1001A,116.3621,39.8784,北京市,万寿西宫,,38,38,28,22,23,95,95,60,60,12,12,3,3,0.6,0.5
2023-08-02T14:00:00,1002A,116.2202,40.2915,北京市,定陵,细颗粒物(PM2.5),57,39,25,40,22,108,108,69,69,7,7,3,4,0.4,0.4
2023-08-02T14:00:00,1003A,116.4174,39.9289,北京市,东四,细颗粒物(PM2.5),54,48,31,38,26,146,106,68,68,11,12,3,6,0.5,0.6
2023-08-02T14:00:00,1004A,116.4072,39.8863,北京市,天坛,细颗粒物(PM2.5),64,44,28,46,24,101,101,59,59,8,12,1,3,0.4,0.5
2023-08-02T14:00:00,1005A,116.462,39.9365,北京市,农展馆,颗粒物(PM10),52,53,34,35,27,111,111,73,73,8,14,3,3,0.7,0.5
2023-08-02T14:00:00,1006A,116.3392,39.9295,北京市,官园,,49,42,26,34,28,124,124,81,81,7,10,1,2,0.4,0.2
2023-08-02T14:00:00,1007A,116.2878,39.9611,北京市,海淀万柳,细颗粒物(PM2.5),57,58,35,40,28,101,101,69,69,10,13,3,2,0.7,0.5
2023-08-02T14:00:00,1008A,116.6636,40.135,北京市,顺义新城,,,38,35,23,30,,,,,2,2,,,,
2023-08-02T14:00:00,1009A,116.6275,40.3275,北京市,怀柔镇,颗粒物(PM10),52,54,41,30,24,87,87,58,49,11,10,3,3,0.5,0.5
2023-08-02T14:00:00,1010A,116.2296,40.217,北京市,昌平镇,,50,40,33,35,27,109,109,59,59,13,14,3,3,0.4,0.5
2023-08-02T14:00:00,1011A,116.3966,39.9821,北京市,奥体中心,,43,43,27,24,16,91,91,64,64,17,17,1,2,0.5,0.4
2023-08-02T14:00:00,1012A,116.184,39.9136,北京市,古城,细颗粒物(PM2.5),68,50,33,49,29,100,100,58,58,7,10,3,4,0.6,0.4
2023-08-02T14:00:00,1015A,117.1444,39.1661,天津市,勤俭道,,30,14,34,8,24,166,95,76,76,1,13,5,5,0.4,0.6
2023-08-02T14:00:00,1017A,117.237,39.1082,天津市,大直沽八号路,,28,12,39,10,32,148,87,64,64,4,16,2,2,0.5,0.6
2023-08-02T14:00:00,1018A,117.202,39.0927,天津市,前进道,,26,14,35,8,25,148,83,62,62,6,23,4,4,0.4,0.6
2023-08-02T14:00:00,1019A,117.1837,39.2133,天津市,淮河道,,34,17,39,12,28,156,107,84,84,4,14,5,5,0.5,0.8
2023-08-02T14:00:00,1021A,117.307,39.0877,天津市,跃进路,,33,15,37,11,25,171,104,73,73,2,16,4,4,0.5,0.7
2023-08-02T14:00:00,1023A,117.707,39.0343,天津市,第四大街,,30,16,39,10,23,109,93,75,75,4,22,4,4,0.4,0.5
2023-08-02T14:00:00,1024A,117.457,38.8394,天津市,永明路,,29,17,41,11,25,148,91,68,68,2,11,4,3,0.5,0.6
2023-08-02T14:00:00,1026A,117.764,39.1587,天津市,汉北路,,39,20,34,10,24,133,123,91,91,3,13,4,4,0.4,0.5
2023-08-02T14:00:00,1027A,117.157,38.9194,天津市,团泊洼,,20,20,40,8,25,132,63,62,62,4,19,2,2,0.5,0.6
2023-08-02T14:00:00,1029A,114.4422,38.0444,石家庄市,职工医院,臭氧1小时,58,53,40,14,25,170,166,98,98,10,7,2,2,1.2,0.8
2023-08-02T14:00:00,1030A,114.6063,38.0266,石家庄市,高新区,臭氧1小时,59,35,39,32,29,167,167,106,106,7,10,3,3,0.8,0.6
2023-08-02T14:00:00,1031A,114.4898,38.1328,石家庄市,西北水源,,50,22,22,35,30,166,159,98,98,7,10,3,3,1.0,0.7
2023-08-02T14:00:00,1032A,114.4586,38.0058,石家庄市,西南高教,,,36,26,12,22,103,,47,32,6,11,4,3,1.0,0.7
2023-08-02T14:00:00,1033A,114.5331,38.0178,石家庄市,世纪公园,,47,38,36,24,20,150,150,91,91,7,12,5,4,1.0,0.7
2023-08-02T14:00:00,1034A,114.509,38.0457,石家庄市,人民会堂,,48,48,43,27,23,154,152,94,94,5,10,3,2,0.9,0.6
2023-08-02T14:00:00,1035A,114.3524,37.8911,石家庄市,封龙山,,,,24,,11,131,131,87,87,8,6,,9,1.5,0.9
2023-08-02T14:00:00,1037A,118.131,39.6363,唐山市,雷达站,,38,25,41,16,23,120,120,87,87,6,14,1,2,0.3,0.5
2023-08-02T14:00:00,1038A,118.1725,39.6334,唐山市,物资局,,37,23,36,18,23,116,116,80,80,2,12,2,3,0.4,0.5
2023-08-02T14:00:00,1040A,118.1705,39.6506,唐山市,十二中,,36,14,32,12,21,115,115,83,83,2,12,2,3,0,0.2
2023-08-02T14:00:00,1041A,118.1869,39.622,唐山市,小山,,37,10,30,15,16,117,117,79,79,2,9,2,2,0.5,0.5
2023-08-02T14:00:00,1042A,119.5134,39.8207,秦皇岛市,北戴河环保局,臭氧1小时,64,51,27,31,11,171,171,88,88,13,13,4,4,0.4,0.2
2023-08-02T14:00:00,1043A,119.7493,40.0116,秦皇岛市,第一关,颗粒物(PM10),51,52,36,15,13,139,139,82,82,12,20,2,2,0.4,0.3
2023-08-02T14:00:00,1044A,119.5897,39.9499,秦皇岛市,监测站,,45,45,32,14,20,126,118,90,90,16,15,6,6,0.5,0.4
2023-08-02T14:00:00,1046A,119.5251,39.9041,秦皇岛市,建设大厦,,39,39,28,14,14,143,123,91,91,8,10,6,5,0.4,0.4
2023-08-02T14:00:00,1048A,114.5302,36.6116,邯郸市,东污水处理厂,,32,20,30,17,20,102,100,74,74,2,8,4,2,0.3,0.4
2023-08-02T14:00:00,1049A,114.4918,36.5713,邯郸市,矿院,,35,24,29,14,16,110,109,81,81,2,5,3,3,0.4,0.4
2023-08-02T14:00:00,1050A,114.484,36.6133,邯郸市,丛台公园,,35,19,25,13,13,114,111,82,82,5,9,2,2,0.3,0.4
2023-08-02T14:00:00,1051A,115.493,38.8632,保定市,游泳馆,,,14,12,31,13,58,,35,35,2,5,11,10,0.0,0
2023-08-02T14:00:00,1052A,115.5213,38.8959,保定市,华电二区,,40,40,20,18,8,115,115,81,81,1,8,4,2,0.2,0.1
2023-08-02T14:00:00,1053A,115.4713,38.9108,保定市,接待中心,,37,37,20,16,8,140,111,104,103,2,6,6,6,0.7,0.6
2023-08-02T14:00:00,1054A,115.4612,38.8416,保定市,地表水厂,,40,38,35,18,14,162,125,127,92,3,7,8,9,0.7,0.5
2023-08-02T14:00:00,1056A,115.5086,38.8639,保定市,监测站,,34,27,18,23,13,108,108,77,77,3,12,7,6,0.4,0.4
2023-08-02T14:00:00,1057A,114.8883,40.8336,张家口市,人民公园,,,,,6,5,138,138,86,86,5,6,5,11,0.4,0.3
2023-08-02T14:00:00,1059A,114.8687,40.8042,张家口市,五金库,,,,,,,,,,,,,,,,
2023-08-02T14:00:00,1060A,114.8902,40.762,张家口市,世纪豪园,,42,12,16,10,15,134,134,90,90,5,7,3,3,0.3,0.2
2023-08-02T14:00:00,1061A,114.8916,40.8661,张家口市,北泵房,,44,44,22,7,9,139,139,85,85,5,5,10,9,0.6,0.4
2023-08-02T14:00:00,1062A,117.9531,40.9081,承德市,铁路,,,33,25,21,17,76,76,60,60,14,20,5,6,,0.6
2023-08-02T14:00:00,1063A,117.9392,40.9763,承德市,中国银行,,34,34,24,12,13,84,62,60,60,14,16,6,6,0.5,0.6
2023-08-02T14:00:00,1064A,117.9503,40.928,承德市,开发区,,25,23,20,14,13,78,78,70,70,14,13,7,9,0.4,0.6
2023-08-02T14:00:00,1065A,117.8051,40.9655,承德市,文化中心,,35,27,23,24,12,89,89,54,54,8,15,8,3,0.4,0.6
2023-08-02T14:00:00,1066A,117.9268,41.0026,承德市,离宫,,29,29,37,16,12,61,32,35,35,4,8,4,4,0.4,0.5
2023-08-02T14:00:00,1067A,116.6708,39.5111,廊坊市,药材公司,,31,31,29,20,17,116,84,63,63,4,10,1,2,0.2,0.3
2023-08-02T14:00:00,1068A,116.7214,39.5589,廊坊市,开发区,,30,23,26,17,21,106,94,74,74,10,15,1,2,0.3,0.4
2023-08-02T14:00:00,1070A,116.7244,39.5269,廊坊市,北华航天学院,颗粒物(PM10),57,63,37,38,22,117,101,78,78,8,16,4,4,0.3,0.4
2023-08-02T14:00:00,1071A,116.8842,38.2991,沧州市,沧县城建局,,32,29,35,16,21,116,100,74,74,4,11,3,4,0.2,0.2
2023-08-02T14:00:00,1072A,116.8584,38.3254,沧州市,电视转播站,,33,28,33,19,21,118,104,74,74,6,11,4,8,0.1,0.2
2023-08-02T14:00:00,1073A,116.8709,38.3228,沧州市,市环保局,,30,18,22,19,21,108,96,67,67,9,16,2,3,0.1,0.1
2023-08-02T14:00:00,1074A,115.6838,37.7541,衡水市,电机北厂,,34,24,35,10,16,111,107,85,78,2,4,4,5,0.3,0.3
2023-08-02T14:00:00,1075A,115.6303,37.7316,衡水市,市监测站,,33,26,36,7,13,110,103,76,76,3,8,4,4,0.4,0.4
2023-08-02T14:00:00,1077A,114.4704,37.0886,邢台市,达活泉,,47,25,25,21,17,149,149,92,92,1,7,7,6,0.4,0.5
2023-08-02T14:00:00,1078A,114.5062,37.0349,邢台市,邢师高专,,45,33,28,24,24,147,143,96,96,2,11,6,6,0.4,0.5
2023-08-02T14:00:00,1079A,114.5237,37.0851,邢台市,路桥公司,,,,32,,20,150,150,98,98,4,12,6,6,0.3,0.5
2023-08-02T14:00:00,1080A,114.4725,37.0719,邢台市,市环保局,,48,26,26,26,23,153,153,96,96,4,12,7,6,0.6,0.6
2023-08-02T14:00:00,1081A,112.522,37.8873,太原市,尖草坪,臭氧1小时,83,41,45,24,26,186,186,111,111,8,18,7,6,0.8,0.7
2023-08-02T14:00:00,1083A,112.434,38.0108,太原市,上兰,,,,,,,,,,,,,,,,
2023-08-02T14:00:00,1084A,112.469,37.7124,太原市,晋源,,46,26,33,18,24,151,146,95,95,6,20,11,8,0.7,0.7
2023-08-02T14:00:00,1085A,112.5583,37.7394,太原市,小店,,,25,34,16,21,152,140,99,99,6,14,4,3,,0.4
2023-08-02T14:00:00,1086A,112.5369,37.8692,太原市,桃园,臭氧1小时,69,38,36,28,21,175,175,108,108,7,15,4,4,0.7,0.7
2023-08-02T14:00:00,1087A,112.57,37.8195,太原市,坞城,,48,34,32,21,19,162,152,101,101,7,15,3,3,0.6,0.6
2023-08-02T14:00:00,1088A,112.549,37.9854,太原市,南寨,,,,36,,20,165,165,90,90,14,23,2,2,0.9,0.7
2023-08-02T14:00:00,1090A,111.6507,40.7517,呼和浩特市,呼市一监,细颗粒物(PM2.5),52,36,26,36,26,134,134,95,78,8,15,5,5,0.6,0.6
2023-08-02T14:00:00,1091A,111.6572,40.8033,呼和浩特市,小召,,44,44,27,22,20,126,126,83,69,15,19,7,6,0.8,0.8
2023-08-02T14:00:00,1094A,111.7516,40.8369,呼和浩特市,如意水处理厂,,47,42,35,26,22,148,148,86,81,11,19,6,5,0.7,0.6
2023-08-02T14:00:00,1095A,111.7276,40.8062,呼和浩特市,二十九中,,45,39,31,25,22,143,143,90,83,10,18,7,7,0.6,0.6
2023-08-02T14:00:00,1096A,111.5512,40.7866,呼和浩特市,工大金川校区,,47,47,35,20,19,125,125,73,73,10,20,5,5,0.7,0.7
2023-08-02T14:00:00,1097A,111.717,40.7612,呼和浩特市,化肥厂生活区,,43,40,34,20,20,135,135,87,80,13,19,5,5,0.6,0.7
2023-08-02T14:00:00,1098A,123.6836,41.9339,沈阳市,森林路,,,,,,,,,,,,,,,,
2023-08-02T14:00:00,1099A,123.505,41.7406,沈阳市,浑南东路,,42,42,39,15,21,133,133,71,71,13,22,8,12,0.7,0.8
2023-08-02T14:00:00,1100A,123.4231,41.6989,沈阳市,新秀街,,39,33,34,15,18,122,122,67,67,12,20,7,8,0.7,0.7
2023-08-02T14:00:00,1102A,123.5903,41.8411,沈阳市,东陵路,颗粒物(PM10),53,55,37,18,20,129,129,70,70,8,14,7,10,0.6,0.7
2023-08-02T14:00:00,1103A,123.4264,41.8467,沈阳市,陵东街,,36,26,27,15,17,113,113,70,70,9,13,8,7,0.6,0.8
2023-08-02T14:00:00,1104A,123.4114,41.7653,沈阳市,文化路,,39,32,35,7,19,123,123,76,76,7,14,8,9,0.6,0.7
2023-08-02T14:00:00,1105A,123.4678,41.7867,沈阳市,小河沿,,38,38,33,14,17,120,120,70,70,13,18,8,8,0.8,0.8
2023-08-02T14:00:00,1106A,123.4017,41.7972,沈阳市,太原街,,38,29,33,15,23,120,120,74,74,10,17,7,7,0.6,0.7
2023-08-02T14:00:00,1108A,123.3783,41.9228,沈阳市,京沈街,颗粒物(PM10),54,57,42,18,23,117,117,84,84,5,12,6,8,0.6,0.8
2023-08-02T14:00:00,1109A,121.612,38.9741,大连市,甘井子,,22,18,19,12,16,72,70,51,51,9,14,4,4,0.5,0.5
2023-08-02T14:00:00,1110A,121.565,38.9511,大连市,周水子,,32,32,28,13,15,64,61,51,51,14,15,5,5,0.3,0.4
2023-08-02T14:00:00,1111A,121.5637,38.8845,大连市,星海三站,,28,21,22,18,18,88,88,48,48,6,10,12,9,0.4,0.4
2023-08-02T14:00:00,1112A,121.6302,38.9117,大连市,青泥洼桥,,28,25,20,14,14,88,88,55,55,5,10,5,4,0.6,0.5
2023-08-02T14:00:00,1113A,121.6251,38.8638,大连市,傅家庄,,,24,18,17,18,102,102,61,61,,11,8,7,0.4,0.5
2023-08-02T14:00:00,1114A,121.5213,38.8661,大连市,七贤岭,,29,20,18,17,15,90,90,62,62,6,11,7,6,0.2,0.3
2023-08-02T14:00:00,1115A,121.2529,38.8061,大连市,旅顺,,32,31,21,21,18,102,102,58,58,15,21,4,4,0.4,0.3
2023-08-02T14:00:00,1116A,121.7485,39.1311,大连市,金州,,25,20,20,12,15,77,77,53,53,7,15,8,8,0.4,0.4
2023-08-02T14:00:00,1117A,121.7811,39.0496,大连市,开发区,,28,22,22,13,16,89,89,60,60,7,13,4,5,0.5,0.5
2023-08-02T14:00:00,1118A,121.9762,39.0631,大连市,双D港,,30,20,19,13,15,93,93,60,60,9,13,3,2,0.4,0.5
2023-08-02T14:00:00,1119A,125.3325,43.9166,长春市,食品厂,颗粒物(PM10),51,52,36,22,18,77,77,57,56,25,18,3,3,0.6,0.5
2023-08-02T14:00:00,1120A,125.2863,43.9027,长春市,客车厂,,42,42,33,20,18,90,90,59,59,13,13,4,4,0.6,0.6
2023-08-02T14:00:00,1121A,125.2841,43.8463,长春市,邮电学院,,45,45,33,15,17,89,89,66,66,10,9,4,4,0.5,0.5
2023-08-02T14:00:00,1122A,125.3716,43.8772,长春市,劳动公园,,45,45,30,18,16,89,89,64,64,12,11,5,5,0.5,0.4
2023-08-02T14:00:00,1123A,125.3297,43.8805,长春市,园林处,,43,43,34,19,17,98,98,70,70,14,13,2,2,0.6,0.5
2023-08-02T14:00:00,1124A,125.4605,43.79,长春市,净月潭,,27,24,26,14,16,86,86,62,62,6,7,5,5,0.4,0.4
2023-08-02T14:00:00,1125A,125.7194,43.515,长春市,甩湾子,,31,31,32,13,15,76,76,60,60,6,8,4,4,0.6,1.4
2023-08-02T14:00:00,1126A,125.3863,43.8447,长春市,经开区环卫处,,38,38,32,18,16,77,77,56,48,11,12,4,4,0.4,0.4
2023-08-02T14:00:00,1127A,125.245,43.7783,长春市,高新区管委会,,37,37,29,20,19,94,94,64,64,9,10,3,3,0.4,0.4
2023-08-02T14:00:00,1128A,125.1761,43.8325,长春市,岱山公园,,40,40,31,19,17,98,98,64,64,7,13,2,3,0.5,0.5
2023-08-02T14:00:00,1129A,126.5422,45.755,哈尔滨市,岭北,,14,2,21,1,16,71,42,56,39,12,10,7,7,0.5,0.5
2023-08-02T14:00:00,1130A,126.561,45.8167,哈尔滨市,松北商大,,14,14,26,4,13,58,30,43,29,12,8,5,5,0.6,0.6
2023-08-02T14:00:00,1131A,126.979,45.5419,哈尔滨市,阿城会宁,,12,1,29,5,11,70,36,35,33,5,9,5,5,0.5,0.5
2023-08-02T14:00:00,1132A,126.599,45.7222,哈尔滨市,南岗学府路,,18,18,38,2,13,58,33,34,28,6,6,4,4,0.5,0.5
2023-08-02T14:00:00,1133A,126.689,45.7733,哈尔滨市,太平宏伟公园,,16,16,31,5,11,60,34,44,27,15,13,6,7,0.6,0.3
2023-08-02T14:00:00,1134A,126.635,45.7667,哈尔滨市,道外承德广场,,15,15,34,3,12,59,31,41,26,18,16,9,8,0.5,0.5
2023-08-02T14:00:00,1135A,126.685,45.7319,哈尔滨市,香坊红旗大街,,12,2,27,1,16,64,36,35,30,16,17,6,5,0.5,0.6
2023-08-02T14:00:00,1136A,126.6411,45.7258,哈尔滨市,动力和平路,,,12,37,,,62,30,39,26,20,17,7,8,0.6,0.5
2023-08-02T14:00:00,1137A,126.593,45.7478,哈尔滨市,道里建国路,,22,0,37,8,16,55,33,41,27,19,13,5,4,2.2,0.9
2023-08-02T14:00:00,1138A,126.615,45.61,哈尔滨市,平房东轻厂,,11,1,34,5,12,48,35,33,33,10,8,5,5,0.1,0.1
2023-08-02T14:00:00,1139A,126.595,45.9855,哈尔滨市,呼兰师专,,,16,30,4,13,61,33,49,35,19,10,5,6,,0.4
2023-08-02T14:00:00,1140A,126.6206,45.6842,哈尔滨市,省农科院,,21,21,40,2,14,43,31,40,32,20,20,7,11,0.4,0.3
2023-08-02T14:00:00,1141A,121.4,31.238,上海市,普陀,,24,24,23,12,12,51,47,44,43,6,10,5,5,0.4,0.5
2023-08-02T14:00:00,1142A,121.478,31.2036,上海市,十五厂,,30,26,23,21,16,56,47,52,48,6,10,9,9,0.2,0.3
2023-08-02T14:00:00,1143A,121.467,31.3008,上海市,虹口,,25,24,24,17,14,58,47,51,49,6,9,8,8,0.3,0.3
2023-08-02T14:00:00,1144A,121.412,31.1654,上海市,徐汇上师大,,29,29,23,5,9,57,53,52,52,5,9,4,4,0.6,0.6
2023-08-02T14:00:00,1145A,121.536,31.2659,上海市,杨浦四漂,,29,29,30,13,12,60,48,51,50,4,18,5,5,0.4,0.4
2023-08-02T14:00:00,1147A,121.425,31.2261,上海市,静安监测站,,22,22,22,11,13,49,42,45,42,6,10,3,3,0.4,0.4
2023-08-02T14:00:00,1148A,121.703,31.1907,上海市,浦东川沙,,24,24,22,13,12,68,60,66,58,7,11,6,6,0.5,0.5
2023-08-02T14:00:00,1149A,121.533,31.2284,上海市,浦东新区监测站,,25,25,22,13,9,58,42,54,46,5,7,8,7,0.3,0.3
2023-08-02T14:00:00,1150A,121.577,31.2071,上海市,浦东张江,,22,19,23,15,14,54,43,53,45,13,14,6,5,0.3,0.5
2023-08-02T14:00:00,1151A,118.8086,32.1065,南京市,迈皋桥,,30,22,21,12,9,96,96,55,55,2,12,6,6,0.4,0.4
2023-08-02T14:00:00,1152A,118.7538,32.0551,南京市,草场门,,28,22,22,17,11,98,88,60,60,6,14,4,5,0.4,0.5
2023-08-02T14:00:00,1153A,118.7794,32.0745,南京市,山西路,,32,27,25,7,9,106,102,64,64,3,9,4,4,0.1,0.2
2023-08-02T14:00:00,1154A,118.7752,32.0023,南京市,中华门,,31,19,21,7,9,98,98,57,57,2,11,6,7,0.8,0.8
2023-08-02T14:00:00,1155A,118.8109,32.0309,南京市,瑞金路,,30,17,21,14,10,96,93,57,57,5,13,4,4,0.4,0.4
2023-08-02T14:00:00,1156A,118.7997,32.0754,南京市,玄武湖,,30,18,20,10,10,96,93,56,56,2,10,6,7,0.5,0.5
2023-08-02T14:00:00,1157A,118.6414,32.0931,南京市,浦口,,37,37,26,14,13,104,92,61,61,12,17,4,5,0.3,0.2
2023-08-02T14:00:00,1158A,118.7356,31.9996,南京市,奥体中心,,31,26,22,14,14,98,97,58,58,5,15,6,7,0.4,0.4
2023-08-02T14:00:00,1159A,118.9125,32.1028,南京市,仙林大学城,,37,24,23,17,10,117,117,64,64,1,7,8,8,0.4,0.5
2023-08-02T14:00:00,1160A,120.561,31.2472,苏州市,上方山,,35,35,40,17,13,81,81,46,46,6,16,5,5,0.4,0.4
2023-08-02T14:00:00,1162A,120.591,31.3019,苏州市,彩香,,27,19,28,11,15,87,86,61,61,3,11,6,7,0.5,0.5
2023-08-02T14:00:00,1163A,120.596,31.3264,苏州市,轧钢厂,,26,20,31,8,14,88,81,62,62,4,12,8,9,0.5,0.5
2023-08-02T14:00:00,1164A,120.613,31.2703,苏州市,吴中区,,30,21,28,8,14,94,94,62,62,8,20,9,8,0.5,0.5
2023-08-02T14:00:00,1165A,120.543,31.2994,苏州市,苏州新区,,28,14,28,8,16,91,88,58,58,2,14,8,8,0.5,0.5
2023-08-02T14:00:00,1166A,120.669,31.3097,苏州市,苏州工业园区,,28,15,25,11,14,87,87,59,59,2,8,9,10,0.6,0.6
2023-08-02T14:00:00,1167A,120.641,31.3708,苏州市,相城区,,23,22,27,6,13,82,73,65,65,6,11,7,6,0.5,0.6
2023-08-02T14:00:00,1168A,120.9098,31.9663,南通市,狼山街道,,20,14,17,6,6,68,62,61,61,5,8,8,8,0.3,0.3
2023-08-02T14:00:00,1169A,120.86,32.0005,南通市,虹桥,,20,17,20,8,12,64,62,58,58,8,10,9,10,0.4,0.4
2023-08-02T14:00:00,1170A,120.87,32.02,南通市,城中,,20,14,17,5,8,65,64,59,59,4,8,6,7,0.5,0.5
2023-08-02T14:00:00,1171A,120.94,31.93,南通市,星湖花园,,15,12,14,2,6,59,45,57,50,4,7,5,5,0.4,0.4
2023-08-02T14:00:00,1172A,120.81,32.0417,南通市,紫琅学院,,21,11,16,6,6,70,66,61,61,4,8,6,6,0.6,0.5
2023-08-02T14:00:00,1173A,119.176,34.5885,连云港市,市环境监测站,,20,17,26,12,13,73,63,60,60,4,7,4,5,0.2,0.2
2023-08-02T14:00:00,1177A,117.179,34.2761,徐州市,黄河新村,,27,27,32,18,19,77,77,49,49,2,7,6,6,0.3,0.3
2023-08-02T14:00:00,1178A,117.1918,34.2384,徐州市,淮塔,,32,29,29,22,18,78,78,47,47,3,8,8,8,0.2,0.2
2023-08-02T14:00:00,1180A,117.256,34.2153,徐州市,新城区,,42,42,41,14,17,84,82,54,54,4,10,6,6,0.3,0.3
2023-08-02T14:00:00,1181A,117.244,34.2911,徐州市,桃园路,,29,24,25,20,16,90,86,56,56,2,7,7,8,0.2,0.2
2023-08-02T14:00:00,1182A,117.2933,34.2778,徐州市,农科院,,29,29,23,15,18,89,86,57,57,2,11,5,5,0.3,0.3
2023-08-02T14:00:00,1186A,119.389,32.3761,扬州市,邗江监测站,,25,22,30,11,17,93,79,60,60,6,13,8,7,0.4,0.6
2023-08-02T14:00:00,1188A,120.269,31.4867,无锡市,雪浪,,25,19,24,7,11,88,78,63,63,6,14,3,4,0.3,0.4
2023-08-02T14:00:00,1189A,120.275,31.6219,无锡市,黄巷,,,,49,27,15,78,66,55,55,29,23,5,6,0.5,0.5
2023-08-02T14:00:00,1190A,120.294,31.56,无锡市,曹张,,24,17,23,9,12,74,74,55,55,1,6,9,9,0.5,0.5
2023-08-02T14:00:00,1191A,120.242,31.5031,无锡市,漆塘,,26,19,23,5,12,87,81,63,63,7,14,5,7,0.6,0.7
2023-08-02T14:00:00,1192A,120.3489,31.5863,无锡市,东亭,,26,19,25,14,15,82,82,64,64,9,14,10,11,0.4,0.5
2023-08-02T14:00:00,1193A,120.354,31.5475,无锡市,旺庄,,25,17,21,7,14,77,77,59,59,2,9,7,8,0.6,0.6
2023-08-02T14:00:00,1194A,120.245,31.5631,无锡市,荣巷,,26,22,24,12,13,82,82,60,60,6,10,8,9,0.4,0.5
2023-08-02T14:00:00,1195A,120.299,31.6817,无锡市,堰桥,,29,24,22,9,10,92,92,67,67,6,11,7,6,0.5,0.6
2023-08-02T14:00:00,1196A,119.9633,31.762,常州市,市监测站,,27,20,28,16,14,86,86,61,61,7,14,6,8,0.5,0.7
2023-08-02T14:00:00,1200A,119.9468,31.7069,常州市,武进监测站,,31,26,30,12,15,101,99,69,69,3,11,8,10,0.5,0.7
2023-08-02T14:00:00,1201A,119.9255,31.9087,常州市,安家,,36,18,21,14,16,114,114,64,64,4,10,5,5,0.7,0.6
2023-08-02T14:00:00,1203A,119.6707,32.1875,镇江市,新区办事处,,29,19,33,8,20,100,91,67,67,8,15,3,3,0.7,0.6
2023-08-02T14:00:00,1204A,119.4974,32.1968,镇江市,职教中心,,,22,34,12,16,108,100,65,65,6,20,,10,0.4,0.6
2023-08-02T14:00:00,1205A,119.4303,32.1328,镇江市,丹徒区监测站,,37,30,36,12,24,118,116,75,75,6,16,2,2,0.6,0.6
2023-08-02T14:00:00,1206A,119.905,32.4878,泰州市,公园路,,21,12,20,7,13,67,65,62,62,6,7,4,4,0.3,0.4
2023-08-02T14:00:00,1207A,119.9189,32.4625,泰州市,莲花,,22,22,21,9,14,66,65,59,59,3,6,3,3,0.3,0.4
2023-08-02T14:00:00,1209A,119.888,32.4639,泰州市,留学生创业园,,20,18,58,7,11,63,62,57,57,2,5,5,7,0.4,0.4
2023-08-02T14:00:00,1210A,119.036,33.5981,淮安市,钵池山,,,17,20,13,14,59,52,50,50,,8,6,6,0.5,0.7
2023-08-02T14:00:00,1211A,119.007,33.575,淮安市,北京南路,,17,17,19,10,14,52,52,45,45,6,10,8,8,0.5,0.5
2023-08-02T14:00:00,1212A,118.989,33.6067,淮安市,市监测站,,24,24,28,7,11,58,52,49,49,6,8,5,6,0.6,0.6
2023-08-02T14:00:00,1213A,119.135,33.5039,淮安市,楚州区监测站,,16,15,22,7,16,50,50,46,46,3,9,7,7,0.7,0.7
2023-08-02T14:00:00,1214A,119.0186,33.6297,淮安市,淮阴区监测站,,26,24,25,18,13,57,55,48,48,3,9,6,6,0.5,0.6
2023-08-02T14:00:00,1215A,120.118,33.4022,盐城市,盐城电厂,,25,17,21,17,12,70,70,67,67,1,2,5,5,0.4,0.4
2023-08-02T14:00:00,1216A,120.156,33.3942,盐城市,市监测站,,24,17,20,12,12,74,74,66,66,2,5,2,3,0.4,0.3
2023-08-02T14:00:00,1218A,120.2144,33.38,盐城市,开发区管委会,,22,16,21,7,16,72,69,64,64,6,6,4,5,0.3,0.3
2023-08-02T14:00:00,1220A,118.293,33.9528,宿迁市,宿迁学院,,28,28,28,13,21,87,87,60,60,4,8,7,7,0.5,0.5
2023-08-02T14:00:00,1221A,118.2442,33.9592,宿迁市,宿迁中学,,30,30,29,16,19,90,90,59,59,10,10,6,6,0.2,0.4
2023-08-02T14:00:00,1223A,120.2072,30.2111,杭州市,滨江,,17,17,28,9,12,75,51,42,42,1,8,6,6,0.4,0.5
2023-08-02T14:00:00,1224A,120.0633,30.2747,杭州市,西溪,,28,28,27,11,12,77,63,46,46,3,7,4,4,0.6,0.6
2023-08-02T14:00:00,1226A,120.3461,30.3153,杭州市,下沙,,24,24,26,12,12,75,58,50,50,1,10,4,4,0.4,0.4
2023-08-02T14:00:00,1227A,120.1269,30.2456,杭州市,卧龙桥,,23,23,24,11,14,86,62,50,50,3,9,5,5,0.4,0.5
2023-08-02T14:00:00,1228A,120.1903,30.2692,杭州市,浙江农大,,19,19,20,10,14,86,59,50,50,4,9,7,6,0.6,0.6
2023-08-02T14:00:00,1230A,120.1197,30.3119,杭州市,和睦小学,,31,31,28,16,15,79,65,50,50,2,7,6,6,0.5,0.7
2023-08-02T14:00:00,1231A,120.3019,30.4183,杭州市,临平镇,,26,26,27,9,12,82,63,57,57,2,8,4,4,0.3,0.3
2023-08-02T14:00:00,1232A,120.2697,30.1819,杭州市,城厢镇,,22,22,28,7,15,77,53,45,45,5,13,6,6,0.4,0.5
2023-08-02T14:00:00,1233A,120.0883,30.1808,杭州市,云栖,,19,16,24,10,10,77,60,49,49,4,6,6,5,0.6,0.5
2023-08-02T14:00:00,1234A,121.8358,29.911,宁波市,区环保大楼,,,24,23,9,9,54,45,35,35,5,18,,4,0.5,0.5
2023-08-02T14:00:00,1235A,121.56,29.82,宁波市,万里学院,,26,26,25,11,13,62,58,41,41,6,13,5,5,0.4,0.5
2023-08-02T14:00:00,1236A,121.713,29.9572,宁波市,龙赛医院,,23,3,17,12,10,72,72,48,48,9,13,8,8,0.4,0.4
2023-08-02T14:00:00,1239A,121.633,29.7733,宁波市,钱湖水厂,,33,33,28,14,12,68,68,45,45,2,9,4,4,0.6,0.5
2023-08-02T14:00:00,1240A,121.5856,29.8635,宁波市,太古小学,,25,25,28,12,10,52,52,30,30,8,14,4,4,0.7,0.7
2023-08-02T14:00:00,1241A,121.524,29.8674,宁波市,市环境监测中心,,23,23,26,8,9,93,66,53,53,1,7,5,6,0.4,0.4
2023-08-02T14:00:00,1242A,120.634,28.0089,温州市,瓯海,,18,18,24,10,8,49,49,30,30,6,15,4,6,0.2,0.4
2023-08-02T14:00:00,1243A,120.6748,27.9939,温州市,南浦,,24,24,21,7,8,54,54,36,36,6,14,6,7,0.2,0.4
2023-08-02T14:00:00,1244A,120.76,27.9747,温州市,龙湾,,17,16,26,7,11,54,54,33,33,4,15,5,6,0.3,0.3
2023-08-02T14:00:00,1245A,120.6709,28.0167,温州市,市站,,23,23,21,6,10,45,44,28,28,8,14,5,6,0.3,0.4
2023-08-02T14:00:00,1247A,120.6053,29.9928,绍兴市,城东开发委,,23,22,24,16,10,74,59,44,44,5,10,4,4,0.5,0.5
2023-08-02T14:00:00,1250A,120.0751,30.8669,湖州市,城西水厂,,35,18,26,9,16,111,111,65,65,7,14,2,2,0.4,0.5
2023-08-02T14:00:00,1252A,120.7436,30.778,嘉兴市,清河小学,,,20,23,6,9,75,75,54,54,,5,4,4,0.3,0.4
2023-08-02T14:00:00,1253A,120.726,30.7478,嘉兴市,嘉兴学院,,24,22,22,9,11,74,74,51,51,8,10,3,3,0.4,0.4
2023-08-02T14:00:00,1255A,121.273,28.6459,台州市,黄岩环保大楼,,20,20,25,7,12,52,49,35,35,5,12,4,4,0.3,0.4
2023-08-02T14:00:00,1256A,121.419,28.6542,台州市,台州环保大楼,,19,19,22,13,12,44,40,33,33,4,4,4,3,0.3,0.3
2023-08-02T14:00:00,1257A,121.377,28.5773,台州市,路桥田洋王,,18,16,23,12,13,47,43,32,32,4,7,3,3,0.2,0.2
2023-08-02T14:00:00,1258A,122.122,30.0203,舟山市,定海檀枫,,23,23,23,13,10,40,37,34,34,3,5,5,5,0.4,0.4
2023-08-02T14:00:00,1259A,122.3094,29.9558,舟山市,普陀东港,,36,36,25,7,8,50,46,42,42,1,3,4,4,0.3,0.4
2023-08-02T14:00:00,1260A,122.19,29.9944,舟山市,临城新区,,24,24,20,8,7,38,35,34,34,2,2,6,5,0.3,0.3
2023-08-02T14:00:00,1262A,119.647,29.077,金华市,十五中,,27,24,30,14,11,114,86,49,49,6,15,2,3,0.2,0.3
2023-08-02T14:00:00,1263A,119.686,29.1029,金华市,监测站,,24,20,31,14,15,104,75,44,44,4,16,4,4,0.3,0.4
2023-08-02T14:00:00,1264A,118.8692,28.9398,衢州市,环保大楼,,23,22,24,12,14,134,73,45,45,5,14,4,3,0.3,0.4
2023-08-02T14:00:00,1265A,118.8709,28.9666,衢州市,实验学校,,24,20,32,13,14,136,76,48,48,5,18,3,6,0.3,0.3
2023-08-02T14:00:00,1266A,118.8621,28.9808,衢州市,衢州学院,,22,18,23,10,12,125,69,45,45,3,16,3,3,0.3,0.4
2023-08-02T14:00:00,1267A,119.914,28.4514,丽水市,监测站大楼,,36,36,23,21,11,84,84,43,43,5,14,5,6,0.3,0.4
2023-08-02T14:00:00,1268A,119.93,28.4586,丽水市,莲都小学,,36,36,25,14,8,83,83,43,43,4,14,5,6,0.4,0.5
2023-08-02T14:00:00,1269A,119.879,28.4231,丽水市,余庄前,,24,22,22,11,6,76,76,58,58,4,8,5,5,0.4,0.5
2023-08-02T14:00:00,1270A,117.1959,31.7848,合肥市,明珠广场,,,,29,,16,123,82,82,82,,16,,6,0.3,0.3
2023-08-02T14:00:00,1271A,117.3072,31.8764,合肥市,三里街,,39,36,29,27,20,114,98,53,53,10,15,5,5,0.4,0.4
2023-08-02T14:00:00,1272A,117.2588,31.8707,合肥市,琥珀山庄,,35,31,26,24,18,125,106,62,62,3,9,5,5,0.5,0.5
2023-08-02T14:00:00,1273A,117.1604,31.9052,合肥市,董铺水库,,33,29,25,12,12,123,104,60,60,5,11,4,4,0.3,0.3
2023-08-02T14:00:00,1274A,117.25,31.8571,合肥市,长江中路,,39,39,33,19,18,127,94,60,60,4,12,6,6,0.3,0.4
2023-08-02T14:00:00,1275A,117.266,31.9436,合肥市,庐阳区,,34,34,32,19,19,123,99,57,57,10,19,2,3,0.4,0.4
2023-08-02T14:00:00,1276A,117.336,31.8586,合肥市,瑶海区,,41,41,32,21,13,113,98,56,56,5,11,9,8,0.5,0.6
2023-08-02T14:00:00,1277A,117.3027,31.7964,合肥市,包河区,,32,24,32,22,19,116,85,54,54,4,24,11,10,0.3,0.4
2023-08-02T14:00:00,1278A,117.2776,31.7385,合肥市,滨湖新区,,29,27,25,19,15,121,90,58,58,2,8,9,8,0.3,0.4
2023-08-02T14:00:00,1279A,117.1318,31.8403,合肥市,高新区,,27,24,28,16,17,118,85,54,54,5,13,8,9,0.2,0.3
2023-08-02T14:00:00,1280A,119.3903,26.0543,福州市,鼓山,,,,,,,,,,,,,,,,
2023-08-02T14:00:00,1282A,119.2681,26.0504,福州市,师大,,34,25,35,6,14,111,107,55,55,6,13,4,4,0.3,0.3
2023-08-02T14:00:00,1283A,119.2984,26.1028,福州市,五四北路,,24,1,36,5,15,91,74,51,51,3,12,3,4,0.2,0.3
2023-08-02T14:00:00,1284A,119.2648,26.0768,福州市,杨桥西路,,33,27,35,8,15,119,103,56,56,5,13,3,4,0.3,0.4
2023-08-02T14:00:00,1285A,119.317,26.0746,福州市,紫阳,,32,32,32,6,14,101,101,52,52,5,10,3,4,0.3,0.5
2023-08-02T14:00:00,1286A,118.1608,24.8169,厦门市,溪东,,,,,,,,,,,,,,,,
2023-08-02T14:00:00,1287A,118.1514,24.4767,厦门市,洪文,,30,30,36,17,19,92,80,47,47,6,22,2,2,0.4,0.5
2023-08-02T14:00:00,1288A,118.0661,24.4444,厦门市,鼓浪屿,,32,32,32,18,20,92,86,47,47,17,26,4,7,0.4,0.5
2023-08-02T14:00:00,1290A,115.8931,28.6843,南昌市,省外办,,32,21,26,14,16,101,100,73,73,8,16,9,8,0.5,0.6
2023-08-02T14:00:00,1291A,115.8886,28.7003,南昌市,省林业公司,,32,22,22,17,15,100,100,77,77,7,26,7,6,0.2,0.3
2023-08-02T14:00:00,1292A,115.8126,28.7442,南昌市,林科所,,32,24,18,12,10,104,102,74,74,2,13,6,4,0.4,0.5
2023-08-02T14:00:00,1294A,115.8518,28.687,南昌市,建工学校,,37,23,19,10,15,117,117,91,91,2,13,7,5,0.5,0.6
2023-08-02T14:00:00,1295A,115.8921,28.6424,南昌市,象湖,,39,30,22,25,18,135,122,78,78,5,18,4,4,0.6,0.7
2023-08-02T14:00:00,1296A,115.7423,28.7996,南昌市,武术学校,,,17,19,11,12,89,89,59,59,4,5,5,17,,1.4
2023-08-02T14:00:00,1298A,115.9314,28.6842,南昌市,省站,,34,30,29,20,17,112,106,82,82,7,17,7,7,0.4,0.4
2023-08-02T14:00:00,1299A,116.9862,36.6114,济南市,科干所,,31,29,24,20,15,98,98,67,67,5,8,6,7,0.3,0.3
2023-08-02T14:00:00,1300A,116.9376,36.665,济南市,农科所,,31,29,23,12,9,99,99,68,68,7,11,9,7,0.2,0.1
2023-08-02T14:00:00,1301A,117.1265,36.6734,济南市,开发区,,30,22,19,15,12,101,96,67,67,4,8,4,5,0.4,0.4
2023-08-02T14:00:00,1303A,117.0624,36.6868,济南市,省种子仓库,,32,24,19,14,10,100,100,69,69,2,4,4,4,0.4,0.4
2023-08-02T14:00:00,1304A,116.9489,36.6447,济南市,机床二厂,,33,27,25,12,11,105,105,71,71,6,9,7,8,0.5,0.5
2023-08-02T14:00:00,1305A,117.0495,36.663,济南市,市监测站,,32,24,22,17,13,102,102,72,72,8,12,4,3,0.3,0.3
2023-08-02T14:00:00,1306A,116.7675,36.5484,济南市,长清党校,,39,34,28,27,19,113,103,69,69,5,9,6,7,0.4,0.4
2023-08-02T14:00:00,1307A,120.6659,36.2403,青岛市,仰口,,18,17,14,12,15,45,40,38,38,8,7,6,6,0.2,0.2
2023-08-02T14:00:00,1310A,120.4134,36.0658,青岛市,市南区东部子站,,32,27,19,22,13,97,97,68,68,8,10,6,5,0.5,0.4
2023-08-02T14:00:00,1311A,120.3664,36.1032,青岛市,四方区子站,,26,14,16,9,11,81,81,69,69,25,14,10,8,0.4,0.4
2023-08-02T14:00:00,1312A,120.2994,36.054,青岛市,市南区西部子站,,29,29,21,20,12,86,86,57,57,18,19,11,10,0.5,0.5
2023-08-02T14:00:00,1313A,120.4581,36.0858,青岛市,崂山区子站,,34,34,23,19,13,108,108,77,77,8,7,7,6,0.3,0.2
2023-08-02T14:00:00,1314A,120.1983,35.9608,青岛市,黄岛区子站,,34,24,17,17,14,106,106,82,82,8,7,6,6,0.4,0.4
2023-08-02T14:00:00,1315A,120.3999,36.3083,青岛市,城阳区子站,,,22,24,12,12,84,74,67,67,,17,6,6,0.3,0.3
2023-08-02T14:00:00,1316A,113.69031,34.76122,郑州市,烟厂,,45,37,29,17,15,141,141,103,103,8,12,3,2,0.4,0.4
2023-08-02T14:00:00,1317A,113.65724,34.77134,郑州市,郑纺机,,,33,29,,,136,136,100,100,4,7,1,2,0.5,0.5
2023-08-02T14:00:00,1318A,113.67526,34.80246,郑州市,银行学校,,47,25,24,17,13,149,149,109,109,8,11,3,3,0.5,0.5
2023-08-02T14:00:00,1319A,113.56746,34.81334,郑州市,供水公司,,45,45,26,15,12,135,135,99,99,12,12,2,2,0.5,0.5
2023-08-02T14:00:00,1320A,113.7329,34.7178,郑州市,经开区管委,,,,28,,15,106,,72,72,,7,,3,,0.5
2023-08-02T14:00:00,1321A,113.73961,34.77172,郑州市,四十七中,,37,25,26,17,16,117,117,85,85,5,9,1,1,0.5,0.5
2023-08-02T14:00:00,1322A,113.60532,34.74838,郑州市,市监测站,,44,32,28,17,14,140,140,103,103,7,13,3,3,0.4,0.4
2023-08-02T14:00:00,1323A,113.64164,34.7525,郑州市,河医大,,41,40,30,17,13,131,131,93,93,4,6,2,2,0.4,0.4
2023-08-02T14:00:00,1324A,113.51488,34.91089,郑州市,岗李水库,,43,37,35,19,12,137,137,91,91,12,14,2,2,0.5,0.6
2023-08-02T14:00:00,1325A,114.3677,30.5584,武汉市,东湖梨园,,47,19,25,22,11,149,149,93,93,9,17,8,7,0.7,0.9
2023-08-02T14:00:00,1326A,114.2529,30.558,武汉市,汉阳月湖,,35,23,25,5,7,133,110,80,80,10,21,7,7,0.4,0.6
2023-08-02T14:00:00,1327A,114.282,30.6189,武汉市,汉口花桥,,,,27,,13,152,151,88,88,11,17,5,7,,0.5
2023-08-02T14:00:00,1328A,114.3025,30.5332,武汉市,武昌紫阳,,45,31,28,17,13,143,141,95,95,8,19,5,5,0.5,0.7
2023-08-02T14:00:00,1329A,114.3646,30.6217,武汉市,青山钢花,,45,34,29,19,16,149,142,88,88,12,18,10,8,0.7,0.6
2023-08-02T14:00:00,1330A,114.1566,30.4825,武汉市,沌口新区,,47,30,25,16,15,149,149,96,96,8,25,6,7,0.4,0.6
2023-08-02T14:00:00,1331A,114.3014,30.5944,武汉市,汉口江滩,臭氧1小时,60,23,22,22,13,178,168,98,98,14,13,5,5,0.7,0.7
2023-08-02T14:00:00,1333A,114.135,30.6319,武汉市,吴家山,,,27,25,20,11,188,188,113,113,16,19,7,6,,0.5
2023-08-02T14:00:00,1334A,113.8454,30.2917,武汉市,沉湖七壕,,32,21,17,11,9,103,101,71,71,10,16,6,6,0.7,0.6
2023-08-02T14:00:00,1335A,113.0833,28.2325,长沙市,经开区环保局,,31,24,21,8,10,97,97,65,65,3,13,4,5,0.3,0.4
2023-08-02T14:00:00,1336A,112.8872,28.2189,长沙市,高开区环保局,,29,25,21,19,13,114,91,53,53,13,16,5,7,0.6,0.7
2023-08-02T14:00:00,1337A,113.0792,28.2053,长沙市,马坡岭,,35,16,23,18,13,111,111,65,65,5,18,4,4,0.3,0.4
2023-08-02T14:00:00,1338A,112.9394,28.19,长沙市,湖南师范大学,,37,21,18,17,14,118,118,64,64,6,14,2,2,0.5,0.5
2023-08-02T14:00:00,1339A,113.0178,28.1322,长沙市,雨花区环保局,,36,22,24,10,13,113,113,60,60,5,16,4,5,0.5,0.5
2023-08-02T14:00:00,1340A,112.9792,28.2597,长沙市,伍家岭,,37,30,29,22,18,120,117,66,66,9,20,2,2,0.5,0.6
2023-08-02T14:00:00,1341A,113.0014,28.1944,长沙市,火车新站,,35,27,18,19,14,110,110,63,63,8,19,4,4,0.7,0.7
2023-08-02T14:00:00,1342A,112.9844,28.1178,长沙市,天心区环保局,,36,18,16,9,7,114,114,68,68,7,19,1,2,0.6,0.6
2023-08-02T14:00:00,1343A,112.8908,28.1308,长沙市,湖南中医药大学,,36,22,18,12,12,116,113,61,61,3,14,1,2,0.8,0.8
2023-08-02T14:00:00,1344A,112.9581,28.3611,长沙市,沙坪,,,,,,,,,,,,,,,,
2023-08-02T14:00:00,1345A,113.2347,23.1423,广州市,广雅中学,臭氧1小时,73,43,29,24,15,178,178,81,81,13,19,5,4,0.3,0.4
2023-08-02T14:00:00,1346A,113.2612,23.105,广州市,市五中,臭氧1小时,88,33,26,18,9,190,190,89,89,9,15,5,5,0.6,0.6
2023-08-02T14:00:00,1348A,113.3478,23.0916,广州市,广东商学院,,46,30,32,17,14,146,146,81,81,8,24,5,5,0.5,0.5
2023-08-02T14:00:00,1349A,113.4332,23.1047,广州市,市八十六中,臭氧1小时,80,35,33,20,18,184,184,89,89,10,27,6,7,0.5,0.5
2023-08-02T14:00:00,1350A,113.3505,22.9483,广州市,番禺中学,,42,21,23,11,13,155,133,87,87,10,22,9,9,0.5,0.6
2023-08-02T14:00:00,1351A,113.2146,23.3916,广州市,花都师范,,,68,37,,21,226,226,94,94,21,27,7,6,0.7,0.7
2023-08-02T14:00:00,1352A,113.2597,23.1331,广州市,市监测站,臭氧1小时,62,29,20,19,12,169,169,81,81,13,22,7,6,0.7,0.7
2023-08-02T14:00:00,1353A,113.5618,23.312,广州市,九龙镇镇龙,,48,41,33,30,19,164,152,77,77,10,17,6,6,0.6,0.6
2023-08-02T14:00:00,1354A,113.2765,23.1544,广州市,麓湖,,45,29,27,19,14,152,144,77,77,11,23,6,6,0.6,0.7
2023-08-02T14:00:00,1355A,113.443,23.3035,广州市,帽峰山森林公园,臭氧1小时,75,44,29,30,17,196,180,78,78,12,20,8,8,0.4,0.3
2023-08-02T14:00:00,1356A,114.1063,22.5545,深圳市,通心岭子站,,23,13,19,7,10,92,72,70,50,2,10,5,4,0.6,0.6
2023-08-02T14:00:00,1357A,114.117,22.5625,深圳市,洪湖,,24,8,26,8,13,90,75,67,49,5,15,5,5,0.5,0.6
2023-08-02T14:00:00,1358A,113.987,22.5417,深圳市,华侨城,,25,13,21,9,16,83,80,60,53,6,15,7,6,0.5,0.6
2023-08-02T14:00:00,1359A,113.9181,22.5171,深圳市,南海子站,,30,30,44,9,20,85,83,64,55,6,19,4,4,0.4,0.5
2023-08-02T14:00:00,1360A,114.2458,22.5689,深圳市,盐田,,29,17,21,13,12,91,91,50,50,5,14,5,5,0.5,0.5
2023-08-02T14:00:00,1361A,114.2283,22.7244,深圳市,龙岗,,46,28,25,15,16,178,146,99,99,8,13,7,7,0.6,0.7
2023-08-02T14:00:00,1363A,114.494,22.5422,深圳市,南澳,,31,21,22,10,13,100,98,60,60,9,8,6,6,0.7,0.6
2023-08-02T14:00:00,1364A,114.41,22.6342,深圳市,葵涌,,31,24,27,10,12,97,97,55,55,1,7,8,7,0.7,0.6
2023-08-02T14:00:00,1365A,114.297,22.5978,深圳市,梅沙,,32,18,22,12,13,102,102,70,70,3,5,5,5,0.5,0.8
2023-08-02T14:00:00,1366A,114.0678,22.738,深圳市,观澜,臭氧1小时,63,41,38,24,18,170,170,97,97,21,26,8,7,0.6,0.6
2023-08-02T14:00:00,1367A,113.5814,22.2618,珠海市,吉大,,35,20,11,14,9,109,109,68,68,6,12,5,4,0.5,0.5
2023-08-02T14:00:00,1368A,113.4881,22.2335,珠海市,前山,,25,17,12,15,11,80,80,72,56,7,13,6,6,0.3,0.4
2023-08-02T14:00:00,1369A,113.628,22.4251,珠海市,唐家,,30,20,15,9,10,97,94,62,62,18,11,6,5,0.3,0.2
2023-08-02T14:00:00,1370A,113.299,22.2281,珠海市,斗门,,33,16,14,15,14,104,104,60,57,4,9,4,5,0.4,0.4
2023-08-02T14:00:00,1371A,113.1294,23.0067,佛山市,湾梁,臭氧1小时,83,31,17,21,14,186,186,85,85,10,20,5,6,0.5,0.5
2023-08-02T14:00:00,1372A,113.1083,23.0478,佛山市,华材职中,,50,29,21,15,13,160,160,74,74,10,20,9,9,0.5,0.4
2023-08-02T14:00:00,1373A,113.144,23.0453,佛山市,南海气象局,,48,33,26,16,13,151,151,66,66,14,23,5,5,0.5,0.5
2023-08-02T14:00:00,1374A,113.2881,22.8094,佛山市,顺德苏岗,,33,17,18,19,12,121,104,66,66,7,15,7,7,0.7,0.7
2023-08-02T14:00:00,1376A,112.8383,22.8678,佛山市,高明孔堂,,46,29,21,14,10,149,146,83,83,9,13,5,5,0.5,0.6
2023-08-02T14:00:00,1377A,112.8836,23.1588,佛山市,三水监测站,臭氧1小时,89,34,35,26,19,219,191,96,96,23,28,4,4,0.6,0.8
2023-08-02T14:00:00,1378A,112.867,23.185,佛山市,三水云东海,,,42,36,15,22,197,183,117,117,14,20,5,6,,0.6
2023-08-02T14:00:00,1379A,113.3769,22.5211,中山市,华柏园,,28,20,15,5,14,88,88,58,58,7,12,7,6,0.3,0.3
2023-08-02T14:00:00,1380A,113.3881,22.5497,中山市,张溪,,29,16,21,13,11,90,90,60,60,3,10,6,6,0.4,0.4
2023-08-02T14:00:00,1381A,113.4075,22.5111,中山市,紫马岭,,29,12,15,14,12,91,91,56,56,3,8,3,3,0.2,0.3
2023-08-02T14:00:00,1382A,113.4411,22.4853,中山市,长江旅游区,,30,11,15,9,7,95,95,56,56,3,5,10,10,0.4,0.4
2023-08-02T14:00:00,1383A,113.1064,22.6058,江门市,北街,,46,36,21,17,12,149,147,86,86,10,14,7,6,0.5,0.5
2023-08-02T14:00:00,1384A,113.0731,22.5835,江门市,西区,,41,24,20,17,10,130,130,78,78,10,15,6,6,0.3,0.4
2023-08-02T14:00:00,1385A,113.0219,22.5311,江门市,圭峰西,,44,44,19,14,10,108,108,70,70,7,12,4,3,0.5,0.6
2023-08-02T14:00:00,1386A,113.0828,22.5947,江门市,东湖,,47,29,22,19,8,149,149,86,86,8,11,6,5,0.4,0.4
2023-08-02T14:00:00,1389A,113.7547,23.0494,东莞市,莞城梨川,臭氧1小时,101,34,33,22,20,209,201,115,115,16,24,9,9,0.7,0.9
2023-08-02T14:00:00,1390A,113.7944,23.0128,东莞市,东城石井,臭氧1小时,107,33,32,23,17,214,214,108,108,12,21,8,8,0.6,0.6
2023-08-02T14:00:00,1391A,113.7383,22.9658,东莞市,南城西平,臭氧1小时,53,25,32,17,17,171,162,94,94,14,30,5,5,0.9,0.9
2023-08-02T14:00:00,1392A,114.4183,23.0528,惠州市,河南岸金山湖子站,,33,25,25,12,11,105,105,60,60,6,11,3,4,0.6,0.6
2023-08-02T14:00:00,1393A,114.4053,23.0822,惠州市,下埔横江三路子站,,33,27,24,15,11,109,105,62,62,5,10,4,6,0.7,0.7
2023-08-02T14:00:00,1394A,114.4103,23.1142,惠州市,江北云山西路子站,,38,27,30,16,12,121,121,66,66,1,9,4,7,0.5,0.6
2023-08-02T14:00:00,1395A,114.4645,22.7833,惠州市,惠阳区承修路船湖子站,,32,25,29,15,14,145,102,68,68,8,14,6,6,0.7,0.8
2023-08-02T14:00:00,1396A,114.5317,22.7422,惠州市,大亚湾管委会子站,,34,34,29,16,13,91,85,58,58,8,20,5,5,0.7,0.7
2023-08-02T14:00:00,1397A,112.4267,23.0706,肇庆市,睦岗子站,,49,29,29,25,18,187,155,72,72,9,22,10,8,0.4,0.4
2023-08-02T14:00:00,1398A,112.4645,23.0475,肇庆市,城中子站,,49,23,28,19,19,191,154,70,70,10,28,8,9,0.4,0.5
2023-08-02T14:00:00,1399A,112.5544,23.1522,肇庆市,坑口子站,臭氧1小时,83,56,31,32,19,230,186,86,86,16,19,12,7,0.4,0.3
2023-08-02T14:00:00,1400A,112.4753,23.1,肇庆市,七星岩子站,,45,33,26,14,13,187,142,70,70,10,16,11,12,0.3,0.4
2023-08-02T14:00:00,1401A,108.3103,22.7881,南宁市,二十一中,,,,22,,26,83,83,47,47,,13,4,4,0.9,1
2023-08-02T14:00:00,1402A,108.3141,22.8528,南宁市,北湖,,27,18,19,9,11,86,86,52,52,4,8,4,4,0.6,0.6
2023-08-02T14:00:00,1403A,108.3206,22.8225,南宁市,市监测站,,29,25,20,10,13,90,90,50,50,10,12,7,6,0.6,0.6
2023-08-02T14:00:00,1404A,108.3829,22.8037,南宁市,大自然花园,,24,18,17,14,12,76,76,46,46,5,11,5,5,0.6,0.7
2023-08-02T14:00:00,1405A,108.4394,22.7904,南宁市,仙葫,,25,22,17,13,10,77,77,47,47,6,12,5,5,0.7,0.7
2023-08-02T14:00:00,1406A,108.2397,22.8467,南宁市,区农职院,,28,22,22,11,10,93,87,55,55,8,14,6,6,0.7,0.7
2023-08-02T14:00:00,1407A,108.3275,22.735,南宁市,英华嘉园,,23,23,19,14,11,76,58,46,46,16,12,5,5,0.6,0.6
2023-08-02T14:00:00,1408A,108.2257,22.7757,南宁市,沙井镇街道办,,24,24,26,8,12,80,58,45,45,7,19,6,3,0.8,0.8
2023-08-02T14:00:00,1409A,110.576,19.9507,海口市,东寨港,,,,,,,,,,,,,,,,
2023-08-02T14:00:00,1410A,110.3232,20.0574,海口市,海南大学,,19,14,18,5,9,69,60,45,45,4,16,6,6,0.3,0.4
2023-08-02T14:00:00,1411A,110.283,20.0053,海口市,秀英海南医院,,21,21,24,3,9,75,59,36,36,10,21,6,6,0.5,0.5
2023-08-02T14:00:00,1412A,110.338,19.9969,海口市,海南师范大学,,,21,19,6,10,69,,14,12,4,13,7,7,0.3,0.4
2023-08-02T14:00:00,1413A,110.33,20.0356,海口市,龙华路环保局宿舍,,19,18,20,6,10,70,60,40,40,5,16,7,6,0.3,0.4
2023-08-02T14:00:00,1414A,106.3787,29.8279,重庆市,缙云山,,34,16,15,10,10,111,106,87,70,7,7,8,7,0.3,0.3
2023-08-02T14:00:00,1416A,106.4213,29.8253,重庆市,天生,,36,15,21,6,13,114,114,56,56,6,12,5,5,0.6,0.7
2023-08-02T14:00:00,1417A,106.6263,29.7228,重庆市,两路,,50,17,20,16,19,158,158,72,72,14,27,7,5,0.9,0.9
2023-08-02T14:00:00,1418A,106.2953,29.5983,重庆市,虎溪,,49,13,20,19,14,154,154,69,69,12,17,4,4,0.6,0.6
2023-08-02T14:00:00,1419A,106.5777,29.5102,重庆市,南坪,,45,27,31,18,16,165,144,69,69,16,17,6,6,0.5,0.5
2023-08-02T14:00:00,1420A,106.6556,29.6277,重庆市,唐家沱,,44,6,18,9,13,138,138,74,74,13,26,7,6,0.4,0.5
2023-08-02T14:00:00,1421A,106.6349,29.4906,重庆市,茶园,,40,13,18,7,8,145,126,75,75,10,18,5,4,0.5,0.6
2023-08-02T14:00:00,1422A,106.3754,29.4572,重庆市,白市驿,,41,28,20,11,14,165,129,65,65,13,14,5,5,0.7,0.7
2023-08-02T14:00:00,1425A,106.6205,29.7166,重庆市,空港,,50,15,24,11,14,159,159,85,85,11,21,7,6,0.8,0.8
2023-08-02T14:00:00,1426A,106.4782,29.4875,重庆市,新山村,,45,19,30,8,21,192,143,78,78,12,26,8,8,0.3,0.4
2023-08-02T14:00:00,1427A,106.5616,29.6453,重庆市,礼嘉,,47,9,25,8,13,150,150,74,74,5,23,5,5,0.6,0.7
2023-08-02T14:00:00,1428A,106.4522,29.7091,重庆市,蔡家,,43,12,31,5,13,138,137,70,70,8,19,3,3,0.7,0.7
2023-08-02T14:00:00,1429A,106.5093,29.3917,重庆市,鱼新街,,31,24,25,17,16,152,97,59,59,28,24,5,5,0.8,0.8
2023-08-02T14:00:00,1431A,103.9728,30.7236,成都市,金泉两河,,27,14,24,3,14,153,86,65,65,4,6,2,3,0.4,0.4
2023-08-02T14:00:00,1432A,104.176,30.6872,成都市,十里店,,29,5,28,5,18,170,91,72,72,3,14,3,3,0.4,0.5
2023-08-02T14:00:00,1433A,104.079,30.5706,成都市,三瓦窑,,29,2,32,4,21,186,92,75,75,10,21,2,3,0.4,0.5
2023-08-02T14:00:00,1434A,104.1114,30.63,成都市,沙河铺,,25,2,29,1,17,171,77,67,67,6,13,1,2,0.6,0.7
2023-08-02T14:00:00,1437A,104.0786,30.6531,成都市,君平街,,31,13,27,2,22,194,98,75,75,8,16,4,5,0.5,0.6
2023-08-02T14:00:00,1438A,103.613,31.0283,成都市,灵岩寺,,30,26,22,18,16,144,94,82,71,3,4,2,10,0.4,0.4
2023-08-02T14:00:00,1439A,106.6899,26.5998,贵阳市,马鞍山,,20,9,12,5,2,91,62,44,44,15,14,5,5,0.7,0.7
2023-08-02T14:00:00,1440A,106.6971,26.5694,贵阳市,市环保站,,30,12,11,21,12,90,72,52,52,29,21,4,4,0.6,0.5
2023-08-02T14:00:00,1441A,106.6243,26.6266,贵阳市,鉴湖路,,29,19,16,20,10,96,56,40,40,18,16,4,4,0.4,0.4
2023-08-02T14:00:00,1442A,106.7487,26.6343,贵阳市,燕子冲,,22,7,9,9,6,92,69,45,45,13,15,5,5,0.7,0.6
2023-08-02T14:00:00,1443A,106.6555,26.4365,贵阳市,碧云窝,,22,14,15,2,2,82,68,53,53,4,8,5,5,0.5,0.4
2023-08-02T14:00:00,1444A,106.694,26.5161,贵阳市,中院村,,25,22,13,17,5,79,74,49,49,11,13,5,5,0.5,0.4
2023-08-02T14:00:00,1445A,106.7109,26.6027,贵阳市,红边门,,25,14,16,17,12,76,67,43,42,14,20,5,5,0.6,0.5
2023-08-02T14:00:00,1446A,106.7164,26.5699,贵阳市,新华路,,24,14,14,12,9,83,75,53,53,15,18,3,4,0.5,0.4
2023-08-02T14:00:00,1447A,106.674,26.5424,贵阳市,太慈桥,,20,19,18,7,4,81,63,45,45,19,12,5,4,0.6,0.4
2023-08-02T14:00:00,1450A,102.8204,24.8886,昆明市,呈贡新区,,30,20,23,9,13,98,94,68,68,14,20,10,8,0.4,0.5
2023-08-02T14:00:00,1451A,102.6251,24.9608,昆明市,西山森林公园,,45,10,12,6,8,141,141,87,87,9,12,6,6,0.5,0.4
2023-08-02T14:00:00,1452A,102.7252,25.0902,昆明市,龙泉镇,,,,12,7,11,102,102,59,59,6,19,7,7,0.4,0.5
2023-08-02T14:00:00,1453A,102.7266,25.0375,昆明市,东风东路,,35,9,17,6,11,109,109,65,65,11,23,2,3,0.3,0.5
2023-08-02T14:00:00,1454A,102.6742,25.0669,昆明市,金鼎山,,25,12,25,5,14,79,79,50,50,6,17,9,21,0.4,0.5
2023-08-02T14:00:00,1455A,102.6644,25.0401,昆明市,碧鸡广场,,35,6,19,8,13,110,110,70,70,7,20,5,12,0.4,0.6
2023-08-02T14:00:00,1456A,91.1319,29.6514,拉萨市,八廓街,,29,15,19,9,10,100,90,81,81,12,20,9,7,0.1,0.2
2023-08-02T14:00:00,1457A,91.1221,29.6747,拉萨市,市环保局,,24,15,18,5,8,86,75,64,64,12,19,8,8,0.2,0.2
2023-08-02T14:00:00,1458A,91.0874,29.6475,拉萨市,区监测站,,26,6,13,6,6,88,81,75,75,9,18,9,8,0.3,0.4
2023-08-02T14:00:00,1459A,91.1774,29.6541,拉萨市,西藏大学,,27,1,10,5,7,92,85,77,77,4,12,13,12,0.2,0.2
2023-08-02T14:00:00,1460A,90.9798,29.6588,拉萨市,区辐射站,,27,10,17,7,8,95,86,76,76,6,14,10,10,0.1,0.1
2023-08-02T14:00:00,1461A,91.0834,29.6292,拉萨市,拉萨火车站,,25,8,14,6,7,85,80,76,76,6,11,10,11,0.3,0.3
2023-08-02T14:00:00,1462A,108.882,34.2749,西安市,高压开关厂,臭氧1小时,75,30,34,18,19,187,180,97,97,11,24,8,8,0.5,0.5
2023-08-02T14:00:00,1463A,108.993,34.2629,西安市,兴庆小区,,50,39,32,16,20,160,158,84,84,7,17,5,5,1.2,0.7
2023-08-02T14:00:00,1464A,109.06,34.2572,西安市,纺织城,,48,33,36,18,21,151,151,75,75,9,25,4,4,0.5,0.5
2023-08-02T14:00:00,1465A,108.9356,34.2173,西安市,小寨,臭氧1小时,73,41,32,21,15,184,178,87,87,9,16,6,7,0.4,0.5
2023-08-02T14:00:00,1466A,108.954,34.2713,西安市,市人民体育场,臭氧1小时,64,36,32,19,17,171,171,88,88,9,18,5,6,0.5,0.5
2023-08-02T14:00:00,1467A,108.8922,34.2322,西安市,高新西区,臭氧1小时,101,36,30,21,19,218,201,97,97,11,19,7,7,0.7,0.7
2023-08-02T14:00:00,1468A,108.935,34.3474,西安市,经开区,,45,33,32,14,16,142,142,89,89,2,12,2,2,0.5,0.5
2023-08-02T14:00:00,1469A,108.906,34.1546,西安市,长安区,臭氧1小时,109,62,48,40,20,248,217,103,103,18,24,3,4,0.2,0.3
2023-08-02T14:00:00,1471A,109.2186,34.3731,西安市,临潼区,,35,32,30,18,18,121,109,71,71,8,16,4,4,0.5,0.5
2023-08-02T14:00:00,1472A,108.869,34.378,西安市,草滩,,42,27,32,11,14,134,134,82,82,7,24,5,5,0.4,0.4
2023-08-02T14:00:00,1473A,108.985,34.1978,西安市,曲江文化产业集团,臭氧1小时,73,38,34,18,16,182,178,89,89,11,21,5,5,0.7,0.7
2023-08-02T14:00:00,1474A,109.051,34.3213,西安市,广运潭,,40,30,31,18,15,125,125,72,72,7,21,6,7,0.5,0.5
2023-08-02T14:00:00,1476A,103.631,36.1031,兰州市,兰炼宾馆,,48,41,49,12,20,172,152,94,94,8,25,7,13,0.6,0.7
2023-08-02T14:00:00,1477A,104.1373,35.9454,兰州市,榆中兰大校区,,,,,,,,,,,,,,,,
2023-08-02T14:00:00,1478A,103.8412,36.0726,兰州市,生物制品所,,45,35,50,18,26,142,142,74,74,8,36,5,6,0.4,0.6
2023-08-02T14:00:00,1479A,103.831,36.0464,兰州市,铁路设计院,,45,32,39,22,23,141,141,74,74,18,37,9,9,0.7,0.9
2023-08-02T14:00:00,1483A,101.524,36.6867,西宁市,第五水厂,,,,,,,,,,,,,,,,
2023-08-02T14:00:00,1484A,105.9512,38.6016,银川市,贺兰山马莲口,,49,49,33,21,15,150,150,110,110,11,17,5,4,0.6,0.6
2023-08-02T14:00:00,1488A,106.2328,38.4975,银川市,贺兰山东路,臭氧1小时,92,106,68,24,24,193,193,112,112,13,26,6,7,0.4,0.5
2023-08-02T14:00:00,1489A,106.1358,38.5036,银川市,学院路,颗粒物(PM10),62,73,78,23,24,165,157,100,100,10,36,12,12,0.5,0.6
2023-08-02T14:00:00,1490A,87.5801,43.8303,乌鲁木齐市,监测站,颗粒物(PM10),55,59,58,15,10,140,140,86,86,13,28,2,2,0.4,0.4
2023-08-02T14:00:00,1491A,87.6046,43.768,乌鲁木齐市,收费所,,,,,,,,,,,,,,,,
2023-08-02T14:00:00,1492A,87.4754,43.9469,乌鲁木齐市,新疆农科院农场,,45,13,60,6,9,146,141,72,72,8,40,3,3,0.7,0.8
2023-08-02T14:00:00,1493A,87.5525,43.8711,乌鲁木齐市,铁路局,,44,19,34,10,10,149,140,79,79,14,26,5,4,0.5,0.5
2023-08-02T14:00:00,1494A,87.6432,43.831,乌鲁木齐市,三十一中学,,42,16,29,9,8,140,134,86,86,5,17,4,4,0.6,0.6
2023-08-02T14:00:00,1496A,87.7216,44.1747,乌鲁木齐市,米东区环保局,,46,18,47,5,15,156,145,78,78,5,18,6,8,0.3,0.4
2023-08-02T14:00:00,1508A,112.9433,27.8614,湘潭市,板塘,,33,33,24,22,12,99,99,58,58,15,16,23,12,0.7,0.2
2023-08-02T14:00:00,1511A,112.9118,27.8403,湘潭市,市监测站,,27,17,14,12,10,111,86,56,56,3,11,6,5,0.5,0.5
2023-08-02T14:00:00,1512A,112.8937,27.8728,湘潭市,江麓,,33,18,24,12,11,106,103,51,51,11,16,8,12,0.2,0.3
2023-08-02T14:00:00,1513A,112.9227,27.8159,湘潭市,岳塘,,27,20,20,15,9,91,86,53,53,6,14,10,13,0.2,0.3
2023-08-02T14:00:00,1514A,112.9074,27.9119,湘潭市,科大,,37,37,25,18,15,105,105,50,50,6,15,7,8,0.3,0.7
2023-08-02T14:00:00,1515A,113.135,27.8244,株洲市,天台山庄,,33,26,20,22,10,104,104,67,67,7,12,4,4,0.5,0.5
2023-08-02T14:00:00,1518A,113.095,27.8867,株洲市,株冶医院,,43,43,23,18,10,120,120,68,68,11,17,6,4,0.9,0.6
2023-08-02T14:00:00,1519A,113.167,27.8667,株洲市,市四中,,36,27,21,16,7,113,113,62,62,6,10,4,4,0.3,0.5
2023-08-02T14:00:00,1520A,113.143,27.8381,株洲市,火车站,,33,23,20,20,7,103,103,66,66,5,8,6,7,0.4,0.5
2023-08-02T14:00:00,1524A,113.13,27.8528,株洲市,市监测站,,37,37,22,18,13,119,111,72,72,8,11,8,8,0.5,0.5
2023-08-02T14:00:00,1552A,106.805,26.3003,贵阳市,桐木岭,,32,17,17,7,9,130,100,92,92,2,2,1,1,0.4,0.4
2023-08-02T14:00:00,1559A,113.251,27.8336,株洲市,大京风景区,,25,18,19,16,7,79,79,50,50,2,3,4,6,0.3,0.4
2023-08-02T14:00:00,1562A,113.0048,27.9153,湘潭市,昭山,颗粒物(PM10),51,51,24,14,8,115,108,65,65,15,20,12,5,1.5,0.7
2023-08-02T14:00:00,1564A,112.4876,27.9164,湘潭市,韶山,,30,9,13,4,5,94,94,48,48,6,6,7,7,0.5,0.5
2023-08-02T14:00:00,1585A,109.8756,40.6532,包头市,市环境监测站,臭氧1小时,54,31,27,14,18,163,163,98,98,10,24,8,11,0.6,0.6
2023-08-02T14:00:00,1587A,109.9991,40.5842,包头市,包头八中,,42,41,38,15,18,133,133,80,80,12,20,1,3,0.8,0.8
2023-08-02T14:00:00,1588A,109.8538,40.6821,包头市,青山宾馆,,50,26,30,17,20,157,157,92,92,9,22,6,9,0.8,0.8
2023-08-02T14:00:00,1589A,109.8642,40.6288,包头市,惠龙物流,,50,28,30,18,17,158,158,93,93,10,20,8,11,0.7,0.7
2023-08-02T14:00:00,1590A,110.0377,40.5546,包头市,东河鸿龙湾,,40,31,26,12,15,128,128,70,70,10,20,1,2,0.9,0.9
2023-08-02T14:00:00,1591A,110.0023,39.8129,鄂尔多斯市,综合楼,,43,39,33,19,12,136,136,92,92,12,19,5,5,0.7,0.7
2023-08-02T14:00:00,1592A,109.9486,39.8261,鄂尔多斯市,巴音孟克林场办事处,,48,44,29,22,18,152,152,104,104,9,14,9,7,0.6,0.6
2023-08-02T14:00:00,1593A,109.7736,39.5986,鄂尔多斯市,康泽苑,,44,44,24,19,10,133,133,92,92,9,12,10,8,0.4,0.4
2023-08-02T14:00:00,1594A,109.8119,39.5989,鄂尔多斯市,华泰汽车城,,,31,25,,15,126,126,95,95,10,13,9,7,0.5,0.5
2023-08-02T14:00:00,1595A,109.9734,39.7884,鄂尔多斯市,奥林花园,,43,31,31,22,15,136,136,91,91,5,14,7,6,0.7,0.9
2023-08-02T14:00:00,1597A,122.2703,40.7094,营口市,大庆路,,27,23,24,8,13,85,85,64,64,7,9,4,4,0.5,0.6
2023-08-02T14:00:00,1598A,122.2150,40.6511,营口市,镜湖西路,,28,25,21,12,14,88,88,60,60,7,9,6,6,0.5,0.4
2023-08-02T14:00:00,1599A,122.1658,40.6789,营口市,西炮台,,30,26,23,12,14,93,93,63,63,8,10,5,5,0.5,0.4
2023-08-02T14:00:00,1600A,124.3303,40.0625,丹东市,江湾东路,,19,16,19,13,13,50,44,27,27,4,10,2,3,0.5,0.5
2023-08-02T14:00:00,1601A,124.4256,40.1503,丹东市,临江后街,,17,17,22,9,14,70,47,30,30,1,7,5,5,0.5,0.7
2023-08-02T14:00:00,1602A,124.3933,40.1461,丹东市,元宝山,,19,19,21,13,13,60,44,26,26,5,9,6,6,0.4,0.5
2023-08-02T14:00:00,1603A,124.3633,40.1092,丹东市,民主桥,,16,15,19,11,11,53,40,25,25,3,7,3,4,0.4,0.5
2023-08-02T14:00:00,1604A,122.0303,41.1489,盘锦市,开发区,,40,40,28,16,14,91,91,63,63,7,11,4,3,0.5,0.6
2023-08-02T14:00:00,1605A,122.0485,41.0883,盘锦市,兴隆台,,37,37,26,17,16,87,87,62,62,9,13,2,3,0.4,0.3
2023-08-02T14:00:00,1606A,121.8297,41.1028,盘锦市,新生街道,,38,38,25,16,13,108,108,81,81,5,8,6,5,0.4,0.3
2023-08-02T14:00:00,1607A,120.9092,40.7136,葫芦岛市,龙港区,,41,40,27,28,21,131,131,75,75,6,5,8,6,0.6,0.4
2023-08-02T14:00:00,1608A,120.8392,40.7514,葫芦岛市,化工街,,44,44,28,22,16,138,138,81,81,8,10,5,5,0.5,0.3
2023-08-02T14:00:00,1609A,120.8341,40.7073,葫芦岛市,新区,颗粒物(PM10),51,52,34,24,20,142,142,89,89,4,4,6,3,0.7,0.5
2023-08-02T14:00:00,1610A,120.8695,40.7677,葫芦岛市,东城区,,45,45,29,22,15,137,137,77,77,11,13,8,6,0.5,0.3
2023-08-02T14:00:00,1611A,118.5819,24.9117,泉州市,涂山街,,41,38,39,16,14,130,130,83,83,8,11,10,11,0.8,0.8
2023-08-02T14:00:00,1612A,118.5972,24.8978,泉州市,津头埔,,41,37,36,19,20,130,130,80,80,10,15,9,11,0.6,0.6
2023-08-02T14:00:00,1613A,118.6663,24.9424,泉州市,万安,,42,41,37,19,20,134,134,84,84,8,15,10,10,0.7,0.7
2023-08-02T14:00:00,1614A,118.6117,24.9604,泉州市,清源山,,,,,,,,,,,,,,,,
2023-08-02T14:00:00,1616A,117.6795,36.229,济南市,技术学院,,30,22,22,17,15,99,94,64,64,2,9,8,7,0.6,0.7
2023-08-02T14:00:00,1618A,118.3429,35.0532,临沂市,沂河小区,,22,22,27,15,18,76,59,58,58,4,7,4,5,0.1,0.1
2023-08-02T14:00:00,1619A,118.295,35.0583,临沂市,鲁南制药厂,,25,17,19,14,15,79,79,62,62,2,4,3,4,0.5,0.5
2023-08-02T14:00:00,1620A,118.2794,34.9976,临沂市,新光毛纺厂,,24,14,19,13,14,79,74,58,58,2,5,5,6,0.1,0.2
2023-08-02T14:00:00,1621A,118.3956,35.0888,临沂市,河东保险公司,,23,12,20,16,12,67,62,51,51,2,5,2,3,0.3,0.3
2023-08-02T14:00:00,1622A,116.3032,37.4674,德州市,儿童乐园,,32,27,29,14,16,136,100,92,92,2,4,4,6,0.6,0.6
2023-08-02T14:00:00,1624A,116.2991,37.4451,德州市,监理站,,35,35,32,22,20,122,101,69,69,1,7,6,7,0.3,0.4
2023-08-02T14:00:00,1625A,115.9848,36.4372,聊城市,区政府,,36,27,32,22,18,134,114,73,73,2,9,4,7,0.3,0.3
2023-08-02T14:00:00,1628A,118.0062,37.3803,滨州市,市环保局,,45,31,26,31,19,150,114,73,73,2,11,3,4,0.2,0.2
2023-08-02T14:00:00,1629A,118.0018,37.3617,滨州市,第二水厂,,39,29,26,18,14,157,122,80,80,2,12,2,3,0.3,0.3
2023-08-02T14:00:00,1630A,117.9776,37.393,滨州市,北中新校,,36,31,29,24,14,154,113,73,73,2,10,2,4,0.3,0.3
2023-08-02T14:00:00,1631A,118.0414,36.8103,淄博市,人民公园,,37,31,26,19,13,124,117,79,79,9,16,11,13,0.2,0.2
2023-08-02T14:00:00,1633A,117.8525,36.4847,淄博市,双山,,33,31,18,19,9,103,103,66,66,6,6,16,11,0.6,0.3
2023-08-02T14:00:00,1634A,117.9592,36.6331,淄博市,气象站,,29,25,20,17,14,92,92,64,64,4,8,7,8,0.2,0.1
2023-08-02T14:00:00,1635A,118.3092,36.8194,淄博市,莆田园,,34,29,22,19,15,117,106,78,78,4,10,16,10,0.3,0.4
2023-08-02T14:00:00,1637A,117.558,34.8438,枣庄市,市中区政府,,39,34,34,27,23,104,104,63,63,10,14,12,13,0.3,0.3
2023-08-02T14:00:00,1638A,117.2852,34.7837,枣庄市,薛城环保局,,39,39,39,14,16,91,89,61,61,9,13,8,9,0.3,0.3
2023-08-02T14:00:00,1639A,117.5852,34.7745,枣庄市,峄城区政府,,34,34,35,22,16,108,108,65,65,8,11,8,8,0.5,0.4
2023-08-02T14:00:00,1640A,117.7276,34.5578,枣庄市,台儿庄区环保局,,34,34,30,19,16,93,84,59,59,8,12,11,10,0.4,0.4
2023-08-02T14:00:00,1641A,117.4518,35.0992,枣庄市,山亭区环保局,,46,34,31,32,24,95,95,60,60,7,9,8,8,0.2,0.2
2023-08-02T14:00:00,1642A,121.2514,37.5639,烟台市,开发区,,17,12,16,5,10,74,53,41,41,2,6,9,8,0.5,0.6
2023-08-02T14:00:00,1643A,121.3719,37.5433,烟台市,轴承厂,,29,17,17,20,11,83,65,52,52,3,4,2,3,0.3,0.3
2023-08-02T14:00:00,1644A,121.3181,37.5436,烟台市,西郊化工站,,20,19,18,10,14,83,63,51,51,4,6,7,4,0.3,0.4
2023-08-02T14:00:00,1645A,121.4478,37.4822,烟台市,莱山环保局,,20,12,12,11,8,62,62,51,51,2,3,6,5,0.3,0.3
2023-08-02T14:00:00,1646A,121.2611,37.4967,烟台市,福山环保局,,,,,,,,,,,,,,,,
2023-08-02T14:00:00,1650A,119.1437,36.7023,潍坊市,环保局,,31,19,24,14,15,98,98,62,62,7,12,8,8,0.3,0.2
2023-08-02T14:00:00,1653A,116.6251,35.4302,济宁市,火炬城,,44,44,36,22,20,101,101,56,56,1,7,7,9,0.5,0.5
2023-08-02T14:00:00,1655A,116.5491,35.4042,济宁市,电化厂,,39,35,36,27,21,96,90,59,59,2,5,5,6,0.5,0.6
2023-08-02T14:00:00,1656A,117.1437,36.1937,泰安市,监测站,,34,34,31,23,16,106,106,64,64,3,8,9,11,0.1,0.2
2023-08-02T14:00:00,1657A,117.0885,36.2017,泰安市,人口学校,,34,34,24,21,15,108,108,66,66,6,8,8,9,0.3,0.3
2023-08-02T14:00:00,1658A,117.1089,36.1758,泰安市,电力学校,,42,31,29,29,17,110,108,70,70,4,7,11,10,0.1,0.3
2023-08-02T14:00:00,1659A,119.471,35.4209,日照市,监测站,,22,19,17,15,12,61,60,50,50,18,15,10,7,0.3,0.2
2023-08-02T14:00:00,1660A,119.523,35.4216,日照市,市政府广场,,23,19,17,13,13,119,73,64,64,3,4,10,9,0.4,0.3
2023-08-02T14:00:00,1661A,119.5587,35.4044,日照市,港务局,,26,19,18,12,9,91,82,78,78,3,5,6,7,0.5,0.5
2023-08-02T14:00:00,1662A,122.1214,37.4236,威海市,华夏技校,,20,12,12,12,13,61,61,50,50,3,8,3,4,0.1,0.1
2023-08-02T14:00:00,1663A,122.0508,37.5236,威海市,山大分校,,29,22,19,7,10,90,90,67,67,3,8,6,6,0.2,0.2
2023-08-02T14:00:00,1664A,122.1067,37.5072,威海市,市监测站,,29,24,17,20,22,87,87,59,59,12,7,5,6,0.4,0.4
2023-08-02T14:00:00,1666A,118.6614,37.4309,东营市,市环保局,,44,29,20,22,12,138,138,76,76,4,9,8,11,0.3,0.2
2023-08-02T14:00:00,1669A,113.5824,24.7733,韶关市,市八中,,36,36,29,20,17,107,107,58,58,4,8,8,11,0.5,0.5
2023-08-02T14:00:00,1671A,113.5917,24.7972,韶关市,园林处,,34,29,22,14,15,108,108,62,62,1,3,8,10,0.6,0.6
2023-08-02T14:00:00,1672A,113.6735,24.7791,韶关市,韶关学院,,48,48,26,20,12,121,121,58,58,5,8,10,16,0.7,0.5
2023-08-02T14:00:00,1673A,113.5971,24.6863,韶关市,曲江监测站,,40,20,29,22,14,125,125,64,64,3,12,12,15,0.6,0.6
2023-08-02T14:00:00,1674A,116.6794,23.3667,汕头市,金平子站,,34,16,33,14,21,128,106,81,81,6,17,5,12,0.6,0.8
2023-08-02T14:00:00,1675A,116.7244,23.3633,汕头市,龙湖子站,,48,32,31,19,15,151,151,92,92,10,16,6,9,0.6,0.7
2023-08-02T14:00:00,1676A,116.7258,23.2775,汕头市,濠江子站,臭氧1小时,53,44,34,22,18,162,162,93,93,10,15,12,13,0.7,0.8
2023-08-02T14:00:00,1677A,116.7519,23.4714,汕头市,澄海子站,,50,45,29,20,16,157,157,97,97,15,13,7,8,0.8,0.8
2023-08-02T14:00:00,1678A,116.6092,23.2539,汕头市,潮阳子站,,45,26,33,15,12,144,144,99,99,6,11,9,10,0.6,0.6
2023-08-02T14:00:00,1680A,110.3539,21.2706,湛江市,湛江影剧院,,19,6,11,5,3,58,58,48,48,1,6,6,6,0.5,0.5
2023-08-02T14:00:00,1681A,110.3928,21.2228,湛江市,市环境监测站,,17,8,9,6,4,53,53,47,39,3,9,7,6,0.4,0.4
2023-08-02T14:00:00,1682A,110.4019,21.1997,湛江市,环保局宿舍,,17,8,10,8,5,52,52,44,39,3,7,4,4,0.6,0.6
2023-08-02T14:00:00,1683A,110.4111,21.2028,湛江市,霞山游泳场,,16,12,10,5,5,52,50,44,37,2,8,4,4,0.5,0.5
2023-08-02T14:00:00,1684A,110.3316,21.2679,湛江市,麻章区环保局,,18,9,11,8,6,55,55,42,42,3,8,4,4,0.5,0.6
2023-08-02T14:00:00,1685A,110.4558,21.2567,湛江市,坡头区环保局,,17,6,8,4,7,55,52,46,45,3,5,5,5,0.4,0.4
2023-08-02T14:00:00,1686A,111.0286,21.4688,茂名市,电白南海,,,24,18,9,11,71,68,50,50,4,7,9,8,,0.5
2023-08-02T14:00:00,1687A,110.9294,21.6533,茂名市,茂石化七小,,23,19,17,14,11,73,73,45,45,4,6,5,5,0.8,0.8
2023-08-02T14:00:00,1688A,110.9107,21.6687,茂名市,健康路,,22,14,11,7,5,69,69,44,44,5,7,3,3,0.2,0.4
2023-08-02T14:00:00,1689A,110.8592,21.6828,茂名市,高岭,,25,14,20,12,14,80,80,51,51,4,10,7,9,0.7,0.7
2023-08-02T14:00:00,1690A,116.1231,24.3284,梅州市,梅江月梅,,,,15,,7,117,117,62,62,8,9,,2,,0.6
2023-08-02T14:00:00,1691A,116.0797,24.2719,梅州市,梅县新城,,28,13,18,10,8,87,87,49,49,4,12,5,5,0.5,0.6
2023-08-02T14:00:00,1692A,116.1248,24.2654,梅州市,环境监控中心,,34,18,24,12,10,107,107,60,60,6,12,4,5,0.6,0.6
2023-08-02T14:00:00,1693A,115.3653,22.775,汕尾市,市环保局,,18,14,24,7,20,118,57,62,62,2,9,8,8,0.5,0.6
2023-08-02T14:00:00,1694A,115.3706,22.7898,汕尾市,市政府,,21,14,21,10,12,128,66,68,68,2,6,5,5,0.6,0.7
2023-08-02T14:00:00,1695A,115.3622,22.7925,汕尾市,新城中学,,21,6,25,6,14,117,66,62,62,2,6,7,7,0.6,0.6
2023-08-02T14:00:00,1696A,114.6778,23.7569,河源市,源西,,40,40,23,6,14,139,93,47,47,4,13,4,5,0.6,0.6
2023-08-02T14:00:00,1697A,114.6944,23.7586,河源市,东埔,,26,26,22,7,13,79,79,43,43,5,10,5,5,0.4,0.5
2023-08-02T14:00:00,1698A,114.6892,23.7233,河源市,老城,,28,20,20,16,12,89,89,46,46,4,6,4,4,0.5,0.5
2023-08-02T14:00:00,1699A,111.9797,21.8593,阳江市,鸳鸯湖,,20,15,15,14,8,58,58,39,39,3,6,7,6,0.6,0.6
2023-08-02T14:00:00,1701A,111.9491,21.8658,阳江市,马南垌,,28,17,16,19,9,60,60,41,41,2,8,4,4,0.4,0.5
2023-08-02T14:00:00,1702A,113.0426,23.691,清远市,环保大楼,臭氧1小时,55,33,20,22,13,164,164,86,86,9,8,5,5,0.5,0.5
2023-08-02T14:00:00,1703A,113.0208,23.7106,清远市,凤城街办,,47,37,25,27,16,148,148,76,76,8,9,7,7,0.4,0.4
2023-08-02T14:00:00,1705A,116.6367,23.6719,潮州市,西园路,,,45,24,20,13,108,,47,47,6,6,7,5,0.3,0.5
2023-08-02T14:00:00,1706A,116.6447,23.6706,潮州市,档案局,,47,39,21,14,9,148,148,71,71,7,6,11,6,0.6,0.5
2023-08-02T14:00:00,1708A,116.3701,23.5345,揭阳市,新兴,,30,29,36,19,22,132,93,63,63,2,12,6,9,0.5,0.7
2023-08-02T14:00:00,1709A,116.3264,23.5443,揭阳市,西马,,26,23,34,17,22,117,81,60,60,3,11,5,7,0.6,0.7
2023-08-02T14:00:00,1710A,116.3611,23.5626,揭阳市,东兴,,28,22,37,14,18,121,89,64,64,5,19,1,5,0.7,0.7
2023-08-02T14:00:00,1711A,116.4151,23.5294,揭阳市,渔湖,,,22,43,,25,136,93,66,66,2,19,4,13,0.6,0.7
2023-08-02T14:00:00,1712A,112.0392,22.9169,云浮市,新市府,,41,41,26,17,14,103,77,48,48,3,6,6,5,0.6,0.8
2023-08-02T14:00:00,1714A,112.0539,22.9539,云浮市,牧羊,,27,19,32,11,15,119,86,52,52,6,20,7,6,0.4,0.5
2023-08-02T14:00:00,1715A,102.575,24.3711,玉溪市,东风水库,,26,0,16,3,8,83,83,43,43,6,17,4,4,0.5,0.9
2023-08-02T14:00:00,1718A,115.4208,35.2464,菏泽市,气象局,,36,34,31,22,16,118,114,75,75,8,11,2,3,0.3,0.3
2023-08-02T14:00:00,1719A,115.4747,35.2375,菏泽市,市政协,,37,29,29,19,20,118,116,75,75,4,8,5,5,0.2,0.2
2023-08-02T14:00:00,1721A,113.3819,40.1097,大同市,果树场,,43,43,38,26,17,133,130,86,86,10,21,5,4,0.6,0.6
2023-08-02T14:00:00,1723A,113.2994,40.0758,大同市,云冈宾馆,,47,30,45,19,23,150,150,106,106,9,17,8,9,0.6,0.7
2023-08-02T14:00:00,1724A,113.3444,40.0917,大同市,大同大学,,46,43,35,15,20,146,146,100,100,7,17,6,8,0.8,0.8
2023-08-02T14:00:00,1725A,113.2661,40.1269,大同市,安家小村,,45,40,44,21,18,143,143,96,96,7,13,10,10,0.4,0.5
2023-08-02T14:00:00,1726A,113.2711,40.0844,大同市,教育学院,,45,39,49,20,23,144,144,94,94,9,19,8,11,0.5,0.6
2023-08-02T14:00:00,1727A,113.1147,36.1547,长治市,清华站,,36,19,21,9,9,113,113,92,92,2,8,6,8,0.5,0.6
2023-08-02T14:00:00,1728A,113.1031,36.1989,长治市,监测站,,35,20,21,9,11,112,112,91,91,8,12,10,11,0.6,0.8
2023-08-02T14:00:00,1730A,113.0886,36.2125,长治市,审计局,,34,14,18,9,11,107,107,86,86,2,8,4,4,0.6,0.6
2023-08-02T14:00:00,1731A,113.0844,36.1856,长治市,长治八中,,35,20,27,10,12,112,112,88,88,6,11,8,8,0.6,0.6
2023-08-02T14:00:00,1733A,111.5531,36.0783,临汾市,临钢医院,,37,26,30,11,10,118,118,69,69,6,15,8,8,0.8,0.8
2023-08-02T14:00:00,1734A,111.5028,36.0714,临汾市,技工学校,,45,45,33,3,11,127,127,79,79,6,12,6,6,0.8,0.8
2023-08-02T14:00:00,1736A,111.5018,36.0855,临汾市,市委,,46,15,37,32,29,122,122,78,78,7,14,8,8,0.4,0.5
2023-08-02T14:00:00,1738A,113.5758,37.8572,阳泉市,市中心,,36,22,26,22,16,123,113,76,76,6,16,8,7,0.7,1.1
2023-08-02T14:00:00,1739A,113.4894,37.8731,阳泉市,赛鱼,,35,11,27,11,15,112,112,64,64,5,11,6,6,0.5,0.8
2023-08-02T14:00:00,1740A,113.5819,37.8486,阳泉市,南庄,,39,18,35,12,19,131,122,77,77,10,17,5,5,0.7,1.1
2023-08-02T14:00:00,1742A,113.5614,37.8703,阳泉市,平坦,,38,14,40,9,26,129,121,75,75,6,18,7,8,0.5,0.9
2023-08-02T14:00:00,1743A,113.5158,37.8392,阳泉市,大阳泉,,31,11,20,10,14,99,99,69,69,5,8,8,8,0.5,0.8
2023-08-02T14:00:00,1744A,118.9233,42.2816,赤峰市,松山一中,,50,50,13,4,4,98,98,87,87,13,15,11,12,0.4,0.5
2023-08-02T14:00:00,1745A,118.9576,42.2728,赤峰市,哈达街,,31,23,19,4,4,97,97,82,82,9,14,12,13,0.3,0.3
2023-08-02T14:00:00,1746A,118.8788,42.2554,赤峰市,天义路,,33,8,9,4,4,104,104,91,91,6,9,15,16,0.3,0.3
2023-08-02T14:00:00,1748A,123.044,41.1196,鞍山市,深沟寺,,34,29,31,13,17,118,108,77,77,6,9,6,4,0.5,0.7
2023-08-02T14:00:00,1749A,123.011,41.0931,鞍山市,太阳城,,34,26,30,12,16,111,108,74,74,6,10,9,7,0.7,0.9
2023-08-02T14:00:00,1750A,123.0485,41.1442,鞍山市,太平,,35,30,42,14,18,111,111,79,79,7,13,8,8,0.7,1.1
2023-08-02T14:00:00,1751A,122.9642,41.0971,鞍山市,铁西三道街,,41,41,41,16,21,122,111,77,77,8,12,6,7,0.5,0.9
2023-08-02T14:00:00,1752A,122.9341,41.0833,鞍山市,铁西工业园区,,35,26,36,12,20,110,109,74,74,8,11,6,6,0.6,1
2023-08-02T14:00:00,1753A,123.022,41.0821,鞍山市,明达新区,,33,32,32,14,18,110,105,76,76,6,10,5,4,0.5,0.6
2023-08-02T14:00:00,1754A,123.1289,41.0228,鞍山市,千山,,,,,,,,,,,,,,,,
2023-08-02T14:00:00,1755A,123.7977,41.8491,抚顺市,望花区,,47,47,48,17,31,140,110,69,69,9,18,2,3,0.3,0.5
2023-08-02T14:00:00,1756A,123.9161,41.8822,抚顺市,顺城区,,40,40,57,16,26,138,101,61,61,7,19,5,8,0.6,1
2023-08-02T14:00:00,1757A,124.0436,41.8611,抚顺市,东洲区,,43,43,40,14,22,141,101,64,64,6,13,6,8,0.3,0.6
2023-08-02T14:00:00,1758A,123.9247,41.8642,抚顺市,新抚区,,37,37,45,13,25,141,95,58,58,7,17,5,7,0.5,0.9
2023-08-02T14:00:00,1759A,124.0972,41.8961,抚顺市,大伙房水库,,32,32,37,14,22,132,98,61,61,3,9,6,5,0.5,0.6
2023-08-02T14:00:00,1760A,123.7086,41.8391,抚顺市,沈抚新城,颗粒物(PM10),57,63,47,18,33,125,113,64,64,8,20,7,10,0.5,0.7
2023-08-02T14:00:00,1761A,123.8275,41.3064,本溪市,大峪,,22,22,36,11,14,92,65,50,50,6,12,3,4,0.2,0.4
2023-08-02T14:00:00,1762A,123.7567,41.3325,本溪市,溪湖,,27,27,33,13,19,93,53,32,32,19,16,2,3,0.9,1.1
2023-08-02T14:00:00,1763A,123.7169,41.3094,本溪市,彩屯,,25,25,37,14,22,97,52,32,32,11,16,6,6,0.7,1.3
2023-08-02T14:00:00,1764A,123.7669,41.2864,本溪市,东明,,22,18,32,15,21,85,62,42,42,7,16,6,6,0.4,0.9
2023-08-02T14:00:00,1765A,123.7992,41.2664,本溪市,新立屯,,22,18,32,14,13,75,68,47,47,5,12,6,6,0.5,0.7
2023-08-02T14:00:00,1766A,123.8142,41.3472,本溪市,威宁,,37,37,31,11,17,83,58,36,36,5,15,6,6,0.4,0.6
2023-08-02T14:00:00,1767A,121.1115,41.0879,锦州市,南山,颗粒物(PM10),53,55,33,25,21,134,134,74,74,5,9,17,10,0.7,0.4
2023-08-02T14:00:00,1768A,121.0533,40.8434,锦州市,开发区,颗粒物(PM10),53,56,40,22,19,139,139,80,80,2,5,8,32,0.8,0.6
2023-08-02T14:00:00,1769A,121.1836,41.1119,锦州市,百股街道,,43,39,28,24,18,137,137,77,77,9,11,7,5,0.7,0.5
2023-08-02T14:00:00,1770A,121.1178,41.1222,锦州市,天安街道,,,,,,,,,,,,,,,,
2023-08-02T14:00:00,1771A,121.1303,41.1386,锦州市,北湖公园,颗粒物(PM10),61,71,46,26,20,137,137,78,78,11,13,6,6,0.8,0.5
2023-08-02T14:00:00,1772A,126.54,43.8622,吉林市,哈达湾,,18,14,24,12,18,66,56,50,44,8,10,6,6,0.6,0.6
2023-08-02T14:00:00,1773A,126.5844,43.8358,吉林市,东局子,,20,18,25,14,17,59,44,44,35,10,10,4,4,0.6,0.7
2023-08-02T14:00:00,1774A,126.5052,43.8245,吉林市,电力学院,,19,18,27,13,18,58,48,39,36,7,13,6,6,0.6,0.6
2023-08-02T14:00:00,1775A,126.6133,43.8972,吉林市,江北,,23,23,31,13,17,64,41,48,38,11,8,6,6,0.7,0.7
2023-08-02T14:00:00,1776A,126.555,43.8306,吉林市,江南公园,,22,19,24,15,19,64,54,44,39,6,10,3,3,0.6,0.7
2023-08-02T14:00:00,1778A,126.7061,43.7133,吉林市,丰满,,20,16,21,14,13,63,52,35,33,1,2,6,6,0.6,0.6
2023-08-02T14:00:00,1779A,123.9305,47.3636,齐齐哈尔市,安居小区,,28,28,38,16,9,118,84,46,46,10,11,5,5,0.4,0.4
2023-08-02T14:00:00,1780A,123.9488,47.3386,齐齐哈尔市,中心广场,,36,36,31,10,5,127,85,54,54,15,12,3,4,0.3,0.3
2023-08-02T14:00:00,1781A,123.9483,47.3227,齐齐哈尔市,农牧车辆厂,,41,41,37,17,12,121,86,54,54,9,12,7,7,0.2,0.2
2023-08-02T14:00:00,1783A,123.945,47.2988,齐齐哈尔市,市环境监测站,,24,23,22,13,17,110,76,53,53,6,9,5,5,0.3,0.3
2023-08-02T14:00:00,1784A,129.61,44.561,牡丹江市,环保大楼,,8,4,16,5,10,74,23,30,25,8,12,5,5,0.3,0.4
2023-08-02T14:00:00,1785A,129.6115,44.5782,牡丹江市,文化广场,,22,5,15,15,15,73,18,32,22,11,13,6,5,0.5,0.4
2023-08-02T14:00:00,1786A,129.5904,44.5963,牡丹江市,第一医院,,13,12,19,9,12,68,16,16,16,11,12,4,4,0.3,0.4
2023-08-02T14:00:00,1787A,129.6364,44.6075,牡丹江市,机车工厂,,12,12,22,7,6,66,14,16,16,12,12,2,2,0.4,0.5
2023-08-02T14:00:00,1788A,129.6386,44.5462,牡丹江市,第一中学,,12,12,26,4,8,78,21,29,26,8,14,4,4,0.3,0.4
2023-08-02T14:00:00,1789A,124.81117,46.03138,大庆市,大同区,,16,14,20,8,12,63,49,50,35,7,7,4,5,0.3,0.3
2023-08-02T14:00:00,1790A,125.129,46.533,大庆市,龙凤区,,19,19,17,7,11,68,36,42,41,26,19,6,6,0.4,0.4
2023-08-02T14:00:00,1791A,124.902,46.408,大庆市,红岗区,,19,9,18,11,13,64,58,49,48,6,6,2,3,0.4,0.4
2023-08-02T14:00:00,1792A,125.153,46.586,大庆市,萨尔图区,,24,24,27,14,10,72,49,50,49,7,10,4,4,0.3,0.4
2023-08-02T14:00:00,1793A,124.9042,46.6215,大庆市,让胡路区,,23,23,17,8,9,74,59,51,51,9,7,2,2,0.3,0.3
2023-08-02T14:00:00,1794A,118.3606,31.3519,芜湖市,监测站,,33,33,26,13,15,109,87,53,53,6,12,4,5,0.5,0.5
2023-08-02T14:00:00,1795A,118.3714,31.4134,芜湖市,科创中心,,27,24,22,11,14,107,85,56,56,6,12,5,7,0.4,0.5
2023-08-02T14:00:00,1796A,118.3673,31.3131,芜湖市,四水厂,,30,23,25,14,13,108,94,54,54,5,10,3,3,0.6,0.5
2023-08-02T14:00:00,1798A,118.5092,31.6837,马鞍山市,湖东路四小,,28,19,23,9,15,88,88,54,54,4,11,6,8,0.6,0.6
2023-08-02T14:00:00,1799A,118.5024,31.6449,马鞍山市,开发区,,35,35,30,12,15,94,92,53,53,6,15,9,9,0.6,0.6
2023-08-02T14:00:00,1800A,118.5228,31.7231,马鞍山市,慈湖,,26,22,30,13,16,86,81,52,52,7,14,6,12,0.5,0.6
2023-08-02T14:00:00,1802A,118.6245,31.7241,马鞍山市,濮塘,,,15,12,,,84,71,47,47,1,7,5,5,0.4,0.4
2023-08-02T14:00:00,1803A,115.9872,29.6815,九江市,十里,,36,23,27,10,15,115,115,80,74,8,13,12,12,0.7,0.6
2023-08-02T14:00:00,1804A,115.9584,29.7046,九江市,茅山头,,36,21,24,8,17,126,113,79,79,13,17,12,9,0.7,0.7
2023-08-02T14:00:00,1805A,115.9877,29.7295,九江市,西园,,33,23,25,9,10,118,103,76,74,7,16,9,9,0.4,0.5
2023-08-02T14:00:00,1806A,116.0172,29.6547,九江市,五七二七厂,,28,13,22,7,15,92,88,62,62,2,7,9,9,0.5,0.7
2023-08-02T14:00:00,1808A,115.9114,29.6038,九江市,综合工业园,,39,26,29,11,16,124,122,77,77,18,21,12,12,0.6,0.8
2023-08-02T14:00:00,1809A,116.0721,29.7535,九江市,石化总厂,,32,21,24,12,12,112,100,73,73,5,16,11,10,0.7,0.7
2023-08-02T14:00:00,1810A,115.9773,29.5698,九江市,庐山气象台,,25,16,12,6,10,90,78,70,69,2,2,7,8,0.4,0.6
2023-08-02T14:00:00,1812A,112.3931,34.6516,洛阳市,市委党校,,38,29,24,26,25,119,119,82,82,1,10,2,2,0.7,0.9
2023-08-02T14:00:00,1814A,112.4657,34.6871,洛阳市,豫西宾馆,,40,33,34,28,22,129,120,86,86,2,10,3,3,0.3,0.7
2023-08-02T14:00:00,1815A,112.494,34.6886,洛阳市,河南林校,,35,25,20,19,16,124,112,81,81,8,16,3,3,0.6,0.6
2023-08-02T14:00:00,1816A,112.3844,34.623,洛阳市,开发区管委会,,41,38,28,24,17,130,130,95,95,7,14,6,6,0.5,0.6
2023-08-02T14:00:00,1817A,112.4267,34.6258,洛阳市,市委新办公区,,42,32,28,29,26,119,119,80,80,3,13,3,3,0.5,0.6
2023-08-02T14:00:00,1818A,114.4839,36.0621,安阳市,棉研所,,35,26,33,17,15,112,112,80,80,2,6,6,6,0.6,0.5
2023-08-02T14:00:00,1819A,114.3551,36.1017,安阳市,红庙街,,40,29,33,14,19,129,125,84,84,2,6,2,3,0.3,0.4
2023-08-02T14:00:00,1820A,114.361,36.0681,安阳市,银杏小区,,,27,32,,,136,127,92,92,2,10,3,4,0.4,0.4
2023-08-02T14:00:00,1824A,114.3389,34.7781,开封市,肿瘤医院,,37,37,37,12,16,113,108,80,80,1,9,2,4,0.5,0.5
2023-08-02T14:00:00,1826A,114.2885,34.7965,开封市,世纪星幼儿园,,,32,31,,,117,117,87,87,5,10,3,3,0.7,0.7
2023-08-02T14:00:00,1828A,113.227,35.2125,焦作市,市环保局,,42,28,28,16,17,134,134,94,94,11,12,5,6,0.4,0.4
2023-08-02T14:00:00,1830A,113.1992,35.2590,焦作市,影视城,,,,,,,,,,,,,,,,
2023-08-02T14:00:00,1832A,113.3257,33.742,平顶山市,新华旅馆,,41,27,38,20,21,130,130,94,94,5,15,3,3,0.6,0.6
2023-08-02T14:00:00,1833A,113.2919,33.737,平顶山市,规划设计院,,41,39,35,22,19,130,130,92,92,4,12,7,6,0.7,0.7
2023-08-02T14:00:00,1834A,113.182,33.774,平顶山市,平顶山工学院,,44,44,46,17,19,148,130,96,96,4,13,4,4,0.4,0.4
2023-08-02T14:00:00,1835A,111.1922,34.7752,三门峡市,市政府,,32,18,25,13,17,109,100,81,81,5,7,2,2,0.5,0.5
2023-08-02T14:00:00,1836A,111.1587,34.7942,三门峡市,开发区,,32,16,32,17,20,112,102,81,81,7,10,2,2,0.4,0.5
2023-08-02T14:00:00,1838A,111.143,34.7955,三门峡市,风景区,,34,34,28,15,19,113,103,81,81,1,4,5,5,0.4,0.6
2023-08-02T14:00:00,1840A,111.2992,30.6981,宜昌市,白龙岗,,42,34,26,17,9,133,133,67,67,12,17,6,5,0.4,0.4
2023-08-02T14:00:00,1841A,111.3549,30.6465,宜昌市,伍家岗,,40,22,24,14,14,127,127,72,72,11,20,2,3,0.4,0.4
2023-08-02T14:00:00,1842A,111.2628,30.6961,宜昌市,点军区,,43,11,20,12,6,138,136,74,74,9,11,5,5,0.5,0.5
2023-08-02T14:00:00,1843A,111.3275,30.7819,宜昌市,夷陵区,,38,23,20,9,9,120,120,105,66,10,13,2,2,0.4,0.5
2023-08-02T14:00:00,1844A,112.2494,30.3197,荆州市,市图书馆,,43,26,22,3,8,141,137,88,88,6,17,6,7,0.6,0.7
2023-08-02T14:00:00,1845A,112.2008,30.3544,荆州市,市委党校,,39,14,18,0,8,123,123,83,83,9,14,6,6,0.5,0.5
2023-08-02T14:00:00,1847A,113.1094,29.3578,岳阳市,南湖风景区,,38,22,21,18,12,130,119,94,94,3,16,4,6,0.6,0.7
2023-08-02T14:00:00,1848A,113.1493,29.4251,岳阳市,城陵矶,,34,15,21,14,12,115,106,79,79,6,24,6,7,0.7,0.7
2023-08-02T14:00:00,1849A,113.1497,29.3575,岳阳市,开发区,,38,32,24,13,8,145,119,98,98,2,16,6,6,0.3,0.4
2023-08-02T14:00:00,1850A,113.2621,29.4758,岳阳市,云溪区,,,,16,,10,111,98,75,75,7,18,6,7,0.7,0.7
2023-08-02T14:00:00,1851A,112.9943,29.4402,岳阳市,君山区,,33,12,14,4,9,104,104,73,73,6,17,7,8,0.5,0.5
2023-08-02T14:00:00,1852A,113.2117,29.355,岳阳市,金凤水库,,43,21,20,8,9,138,137,87,87,3,11,3,2,0.6,0.7
2023-08-02T14:00:00,1854A,111.6975,28.9703,常德市,市二中,,32,20,15,13,9,109,100,72,72,2,6,4,4,0.6,0.6
2023-08-02T14:00:00,1857A,111.7158,29.1456,常德市,白鹤山,,,15,12,8,6,89,89,63,63,1,3,,7,0.5,0.5
2023-08-02T14:00:00,1858A,110.5319,29.1217,张家界市,永定新区,,24,6,18,8,13,82,74,46,46,2,7,4,5,0.2,0.2
2023-08-02T14:00:00,1859A,110.4697,29.1242,张家界市,电业局,,26,14,13,12,12,83,83,52,52,4,11,7,8,0.3,0.3
2023-08-02T14:00:00,1860A,110.5594,29.3547,张家界市,未央路,,20,18,19,9,8,73,64,50,50,3,7,3,3,0.1,0.1
2023-08-02T14:00:00,1861A,110.4417,29.315,张家界市,袁家界,,19,13,12,10,7,69,59,58,58,6,4,6,6,0.6,0.6
2023-08-02T14:00:00,1862A,110.4144,25.3167,桂林市,电子科大尧山校区,,29,20,28,9,10,92,92,57,57,5,5,4,6,0.7,0.8
2023-08-02T14:00:00,1863A,110.2819,25.2697,桂林市,监测站,,28,28,21,15,12,87,87,60,60,8,9,6,8,0.5,0.5
2023-08-02T14:00:00,1864A,110.3089,25.2708,桂林市,龙隐路小学,,33,33,20,14,14,90,90,56,56,7,8,7,9,0.6,0.6
2023-08-02T14:00:00,1865A,110.2869,25.2178,桂林市,八中,,25,11,21,7,11,79,79,55,55,5,10,4,6,0.3,0.4
2023-08-02T14:00:00,1866A,109.2262,21.588,北海市,牛尾岭水库,,19,14,12,11,6,63,58,38,38,4,7,7,6,0.5,0.5
2023-08-02T14:00:00,1867A,109.1436,21.4086,北海市,海滩公园,,24,14,15,2,3,75,75,62,54,3,4,4,3,0.5,0.5
2023-08-02T14:00:00,1868A,109.0981,21.4661,北海市,新市环保局,,21,13,12,2,5,68,67,60,51,3,5,3,3,0.6,0.6
2023-08-02T14:00:00,1869A,109.1778,21.5233,北海市,北海工业园,,21,19,16,7,7,67,67,52,46,3,7,4,4,0.4,0.4
2023-08-02T14:00:00,1870A,109.4856,24.3895,柳州市,柳东小学,,30,18,18,13,11,96,94,55,55,5,12,7,8,0.4,0.4
2023-08-02T14:00:00,1871A,109.4157,24.3277,柳州市,环保监测站,,31,31,28,13,13,102,87,40,40,7,17,4,5,0.4,0.6
2023-08-02T14:00:00,1872A,109.389,24.341,柳州市,河西水厂,,30,12,33,12,17,104,93,42,42,9,23,5,6,0.8,1.2
2023-08-02T14:00:00,1873A,109.4311,24.2921,柳州市,市四中,,27,27,27,15,13,78,71,38,38,7,14,6,6,0.6,0.7
2023-08-02T14:00:00,1874A,109.4006,24.3631,柳州市,市九中,,30,13,34,16,17,100,94,50,50,5,17,7,8,0.7,1.1
2023-08-02T14:00:00,1875A,109.4958,24.3134,柳州市,古亭山,,36,36,23,17,10,95,95,46,46,9,18,6,8,0.7,0.7
2023-08-02T14:00:00,1876A,109.5078,18.2489,三亚市,河东子站,,13,10,11,4,3,47,41,30,30,5,8,1,1,0.4,0.5
2023-08-02T14:00:00,1877A,109.4964,18.2681,三亚市,河西子站,,14,6,12,4,3,48,43,30,30,2,7,4,3,0.3,0.4
2023-08-02T14:00:00,1878A,104.7778,31.4741,绵阳市,富乐山,,,,27,,17,128,57,76,61,,10,3,4,0.6,0.6
2023-08-02T14:00:00,1879A,104.7563,31.4535,绵阳市,市人大,,26,26,25,2,19,127,77,88,68,19,14,7,7,0.5,0.6
2023-08-02T14:00:00,1880A,104.6697,31.4668,绵阳市,高新区自来水公司,,24,8,31,6,25,151,75,100,75,20,16,6,7,0.5,0.5
2023-08-02T14:00:00,1881A,104.7287,31.5075,绵阳市,三水厂,,21,21,31,13,21,133,66,90,54,26,18,6,6,0.6,0.7
2023-08-02T14:00:00,1882A,104.563,28.793,宜宾市,石马中学,,43,27,20,15,11,147,136,74,74,5,14,7,5,0.5,0.5
2023-08-02T14:00:00,1883A,104.6201,28.7728,宜宾市,市委,,45,27,22,14,11,142,142,74,74,8,16,10,9,0.6,0.6
2023-08-02T14:00:00,1884A,104.6055,28.793,宜宾市,宜宾四中,,43,27,24,16,14,137,137,74,74,7,18,7,9,0.6,0.6
2023-08-02T14:00:00,1885A,104.639,28.7562,宜宾市,市政府,,47,47,26,20,13,142,142,74,74,9,17,8,8,0.6,0.6
2023-08-02T14:00:00,1886A,104.5742,28.7199,宜宾市,黄金嘴,臭氧1小时,58,31,18,20,11,166,166,79,79,11,15,12,5,0.7,0.7
2023-08-02T14:00:00,1888A,101.6891,26.571,攀枝花市,弄弄坪,,37,30,38,15,21,117,117,61,61,9,19,10,9,0.8,1.2
2023-08-02T14:00:00,1889A,101.5769,26.5928,攀枝花市,河门口,,32,21,22,11,13,102,102,73,73,10,16,7,12,0.7,1.2
2023-08-02T14:00:00,1890A,101.7169,26.585,攀枝花市,炳草岗,,39,25,32,16,22,124,124,57,57,11,23,19,15,1.3,1.4
2023-08-02T14:00:00,1891A,101.7369,26.5008,攀枝花市,仁和,,48,28,27,21,20,153,153,70,70,14,14,16,11,1.5,1
2023-08-02T14:00:00,1893A,105.4324,28.9634,泸州市,九狮山,,30,10,12,15,14,95,95,44,44,6,17,5,6,0.4,0.5
2023-08-02T14:00:00,1894A,105.4427,28.9063,泸州市,小市上码头,,32,23,24,14,11,101,101,54,54,6,13,6,8,0.6,0.7
2023-08-02T14:00:00,1895A,105.4241,28.8573,泸州市,兰田宪桥,,29,22,26,8,12,95,92,46,46,5,10,1,1,0.5,0.6
2023-08-02T14:00:00,1896A,105.4379,28.8833,泸州市,市环监站,,31,22,22,12,8,99,99,58,49,5,10,6,6,0.5,0.5
2023-08-02T14:00:00,1901A,104.4239,31.1208,德阳市,东山公园,,28,13,16,15,17,131,87,89,89,2,6,1,1,0.4,0.6
2023-08-02T14:00:00,1902A,104.3826,31.1317,德阳市,西小区,,26,21,31,18,19,148,83,101,88,6,11,3,2,0.4,0.5
2023-08-02T14:00:00,1904A,104.3553,31.1091,德阳市,耐火材料厂,,27,6,19,13,18,139,85,86,84,6,7,3,2,0.4,0.5
2023-08-02T14:00:00,1905A,106.056,30.8064,南充市,西山风景区,,,,47,14,11,113,98,74,62,4,4,3,4,0.5,0.4
2023-08-02T14:00:00,1906A,106.0789,30.8023,南充市,南充市委,,35,18,17,1,9,111,110,84,81,9,10,7,8,0.4,0.4
2023-08-02T14:00:00,1907A,106.1031,30.8217,南充市,南充炼油厂,,34,18,21,8,10,119,108,94,70,8,10,7,7,0.3,0.3
2023-08-02T14:00:00,1908A,106.1064,30.7856,南充市,高坪区监测站,,39,11,18,11,9,122,122,89,78,14,14,7,7,0.5,0.4
2023-08-02T14:00:00,1909A,106.0642,30.7636,南充市,嘉陵区环保局,,37,19,17,14,11,125,117,92,81,11,11,5,5,0.3,0.3
2023-08-02T14:00:00,1910A,106.1087,30.8388,南充市,市环境监测站,,34,14,16,1,16,118,106,90,66,7,11,4,4,0.1,0.2
2023-08-02T14:00:00,1911A,106.9222,27.6869,遵义市,丁字口,,25,6,16,5,7,92,77,46,46,8,14,4,4,0.6,0.6
2023-08-02T14:00:00,1912A,106.9242,27.7019,遵义市,凤凰山,,24,14,18,8,12,102,74,46,46,6,9,6,6,0.6,0.7
2023-08-02T14:00:00,1913A,106.8906,27.6486,遵义市,忠庄,,26,14,22,9,8,98,81,44,44,5,11,1,2,0.4,0.5
2023-08-02T14:00:00,1914A,106.9231,27.6506,遵义市,舟水桥,,26,4,12,5,8,95,81,46,46,3,7,2,2,0.2,0.3
2023-08-02T14:00:00,1915A,106.9178,27.72,遵义市,干田坝,,26,9,16,7,13,95,81,44,44,5,11,6,5,0.5,0.4
2023-08-02T14:00:00,1916A,103.7897,25.5035,曲靖市,环境监测站,,30,25,31,15,15,96,96,58,58,8,21,5,6,0.7,0.9
2023-08-02T14:00:00,1917A,103.8,25.5364,曲靖市,烟厂办公区,,32,24,32,22,16,83,83,50,50,6,18,8,6,0.5,0.7
2023-08-02T14:00:00,1918A,108.7197,34.3956,咸阳市,气象站,,,,,,,,,,,,,,,,
2023-08-02T14:00:00,1919A,108.673,34.3155,咸阳市,实验中学,臭氧1小时,52,46,33,18,19,178,161,91,91,9,14,5,4,0.5,0.6
2023-08-02T14:00:00,1920A,108.7233,34.3617,咸阳市,师范学院,,49,34,32,16,18,172,154,91,91,6,16,4,4,0.5,0.5
2023-08-02T14:00:00,1922A,109.0656,35.0994,铜川市,党校,,30,22,30,12,15,108,96,67,67,5,12,7,7,0.7,0.7
2023-08-02T14:00:00,1923A,109.0697,35.0697,铜川市,王益区政府,,36,22,28,15,17,115,114,74,74,5,10,1,1,0.4,0.4
2023-08-02T14:00:00,1924A,108.9344,34.9058,铜川市,新区管委会,,37,26,32,15,19,132,118,79,79,5,13,3,4,0.6,0.6
2023-08-02T14:00:00,1926A,109.4131,36.6275,延安市,枣园,,,16,28,15,13,87,68,47,47,,17,5,6,0.5,0.7
2023-08-02T14:00:00,1927A,109.4761,36.6028,延安市,延大医附院,,33,17,33,12,15,103,103,62,62,5,18,4,4,0.3,0.4
2023-08-02T14:00:00,1929A,109.5056,36.6106,延安市,百米大道,,30,28,36,12,17,99,94,60,60,10,22,7,8,0.5,0.7
2023-08-02T14:00:00,1930A,107.185,34.3063,宝鸡市,庙沟村,,35,35,39,20,18,110,110,58,55,1,8,7,6,0.3,0.3
2023-08-02T14:00:00,1931A,107.0708,34.3017,宝鸡市,竹园沟,,48,45,30,22,18,152,152,81,81,9,12,6,6,0.5,0.4
2023-08-02T14:00:00,1932A,107.1906,34.3672,宝鸡市,三陆医院,,50,50,43,25,27,151,151,74,74,9,20,4,7,0.5,0.6
2023-08-02T14:00:00,1933A,107.1431,34.3547,宝鸡市,监测站,颗粒物(PM10),52,54,40,26,20,155,155,75,75,14,20,5,5,0.5,0.5
2023-08-02T14:00:00,1934A,107.1186,34.3739,宝鸡市,技工学校,颗粒物(PM10),51,52,37,26,25,157,157,79,79,12,15,4,4,0.6,0.6
2023-08-02T14:00:00,1935A,107.3906,34.3528,宝鸡市,陈仓区环保局家属楼,,46,34,38,26,22,159,147,90,90,7,20,4,5,0.5,0.5
2023-08-02T14:00:00,1936A,107.2058,34.3497,宝鸡市,文理学院,,48,44,41,21,19,156,153,83,83,6,13,3,5,0.5,0.5
2023-08-02T14:00:00,1937A,107.2386,34.3622,宝鸡市,三迪小学,颗粒物(PM10),52,54,43,30,25,154,154,78,78,8,17,4,4,0.5,0.6
2023-08-02T14:00:00,1938A,109.5293,34.5101,渭南市,农科所,,32,27,26,17,17,113,100,66,66,5,12,4,4,0.2,0.2
2023-08-02T14:00:00,1939A,109.4974,34.4877,渭南市,日报社,,38,22,23,20,17,139,119,78,78,4,13,6,6,0.4,0.4
2023-08-02T14:00:00,1940A,109.4636,34.493,渭南市,体育馆,,,22,22,7,13,137,118,84,84,3,10,,5,0.4,0.5
2023-08-02T14:00:00,1941A,109.4259,34.5023,渭南市,高新一小,,36,36,30,12,12,124,111,75,75,5,9,3,3,0.4,0.4
2023-08-02T14:00:00,1943A,102.1725,38.5339,金昌市,新川苑,颗粒物(PM10),51,51,77,13,25,122,122,89,87,6,12,8,7,0.5,0.6
2023-08-02T14:00:00,1944A,102.1692,38.5167,金昌市,天庆家园,,41,34,58,12,22,129,129,99,91,7,15,11,10,0.9,0.7
2023-08-02T14:00:00,1945A,98.2908,39.7711,嘉峪关市,气象局,,46,46,55,14,22,138,138,105,105,11,17,4,10,0.3,0.3
2023-08-02T14:00:00,1947A,106.3394,38.817,石嘴山市,沙湖旅游区,,,110,60,11,21,187,187,106,106,,20,,26,,0.8
2023-08-02T14:00:00,1948A,106.3668,39.0145,石嘴山市,大武口朝阳西街,"颗粒物(PM10),臭氧1小时",84,118,68,38,28,187,187,94,94,22,28,81,41,1.1,0.8
2023-08-02T14:00:00,1949A,106.7704,39.2282,石嘴山市,惠农南大街,颗粒物(PM10),70,89,52,20,17,169,165,86,86,16,20,29,21,0.8,0.6
2023-08-02T14:00:00,1950A,106.7099,39.1325,石嘴山市,红果子镇惠新街,颗粒物(PM10),63,75,51,20,20,168,168,85,85,12,21,24,16,0.6,0.6
2023-08-02T14:00:00,1951A,84.895,45.6094,克拉玛依市,长征新村,,42,31,23,5,4,141,134,100,86,9,12,10,9,0.2,0.2
2023-08-02T14:00:00,1952A,84.8988,45.5893,克拉玛依市,南林小区,,42,34,23,2,12,134,134,97,73,13,19,5,5,0.1,0.2
2023-08-02T14:00:00,1954A,84.905,44.3396,克拉玛依市,独山子区,,44,15,22,7,10,140,140,139,113,5,6,27,10,0.4,0.3
2023-08-02T14:00:00,1955A,85.6979,46.098,克拉玛依市,乌尔禾区商贸楼,,39,14,22,6,8,133,122,104,84,3,6,8,7,0.3,0.3
2023-08-02T14:00:00,1956A,86.1472,41.7538,巴音郭楞州,孔雀公园,颗粒物(PM10),59,68,57,12,15,128,128,92,92,4,20,7,7,0.2,0.3
2023-08-02T14:00:00,1957A,86.1972,41.7166,巴音郭楞州,棉纺厂,颗粒物(PM10),59,67,57,29,21,129,129,89,89,5,18,4,4,0.2,0.3
2023-08-02T14:00:00,1958A,86.2357,41.7173,巴音郭楞州,经济开发区,颗粒物(PM10),52,53,46,16,17,135,135,110,110,5,8,5,5,0.2,0.2
2023-08-02T14:00:00,1961A,117.532,36.6868,济南市,东山小学,,29,27,22,17,11,96,90,64,64,5,10,4,6,0.2,0.4
2023-08-02T14:00:00,1966A,120.0405,35.8735,青岛市,黄岛区4号,,,19,17,17,13,99,99,78,78,11,7,,2,0.4,0.4
2023-08-02T14:00:00,1982A,122.0693,37.2174,威海市,文登开发区,,21,14,19,12,12,67,67,50,50,6,7,5,5,0.1,0.2
2023-08-02T14:00:00,2031A,113.1817,27.9958,株洲市,云田中学,,40,23,19,27,9,128,128,68,68,7,12,8,8,0.4,0.4
2023-08-02T14:00:00,2054A,114.1099,32.1059,信阳市,平桥分局,,35,21,19,10,7,118,111,78,78,4,8,2,1,0.5,0.5
2023-08-02T14:00:00,2064A,113.9956,32.1271,信阳市,南湾水厂,,41,17,21,18,6,129,129,68,68,6,5,2,1,0.6,0.6
2023-08-02T14:00:00,2065A,114.0775,32.1195,信阳市,市酿酒公司,,38,13,14,17,10,124,121,75,75,6,14,1,2,0.5,0.5
2023-08-02T14:00:00,2066A,114.0609,32.1399,信阳市,审计局,,43,16,20,15,13,137,135,83,83,2,9,2,1,0.5,0.5
2023-08-02T14:00:00,2067A,114.6613,33.6128,周口市,市环境监测站,,,30,28,23,18,134,134,89,89,13,9,3,3,,0.4
2023-08-02T14:00:00,2068A,114.6758,33.6347,周口市,周口师范,,40,26,27,14,11,127,127,86,86,2,6,2,3,0.5,0.5
2023-08-02T14:00:00,2069A,114.6546,33.5979,周口市,市运管处,,,51,33,27,16,116,116,68,68,4,7,5,4,,0.6
2023-08-02T14:00:00,2070A,114.6369,33.6406,周口市,川汇区环保局,,40,34,26,14,10,128,128,89,89,2,3,2,2,0.5,0.5
2023-08-02T14:00:00,2075A,117.6336,24.4674,漳州市,九湖,,,,,,,,,,,,,,,,
2023-08-02T14:00:00,2160A,112.85,35.5051,晋城市,自来水公司,,35,18,33,7,11,111,111,102,102,7,9,8,8,1.1,1.1
2023-08-02T14:00:00,2161A,112.8318,35.4936,晋城市,白云商贸,,35,23,32,2,10,109,109,99,99,8,10,8,8,0.7,0.7
2023-08-02T14:00:00,2162A,112.8508,35.4887,晋城市,市环保局,,32,10,28,9,15,101,101,92,92,9,10,8,8,0.8,0.8
2023-08-02T14:00:00,2163A,112.8676,35.4897,晋城市,技术学院,,35,21,28,9,11,109,109,96,96,8,10,8,7,0.6,0.6
2023-08-02T14:00:00,2165A,112.8453,35.546,晋城市,白马寺,,,,,,,,,,,,,,,,
2023-08-02T14:00:00,2166A,112.4397,39.3522,朔州市,平朔,,32,19,30,17,25,105,102,89,89,2,6,3,5,0.5,0.6
2023-08-02T14:00:00,2167A,112.4575,39.3617,朔州市,朔唯,,38,18,34,8,22,123,119,102,102,2,4,4,6,0.5,0.6
2023-08-02T14:00:00,2168A,112.4258,39.3197,朔州市,区政府,,30,12,26,2,16,103,96,81,81,6,11,3,4,0.4,0.5
2023-08-02T14:00:00,2169A,112.4072,39.3278,朔州市,市环保局,,35,24,34,13,22,112,109,94,94,2,4,6,5,0.5,0.7
2023-08-02T14:00:00,2170A,112.4272,39.3681,朔州市,市二中,,35,20,31,7,22,111,111,92,92,3,9,4,5,0.3,0.4
2023-08-02T14:00:00,2171A,112.7532,37.6945,晋中市,锦纶小区,,43,22,22,11,8,135,135,90,90,8,14,8,8,0.7,0.7
2023-08-02T14:00:00,2173A,112.7249,37.7067,晋中市,南都小区,,46,27,25,19,19,146,146,102,102,7,12,9,9,0.5,0.6
2023-08-02T14:00:00,2174A,112.6991,37.6982,晋中市,榆次区政府,,47,26,27,15,18,148,148,102,102,8,15,9,9,0.5,0.5
2023-08-02T14:00:00,2175A,110.9956,35.0147,运城市,运城中学,,34,19,26,9,15,124,107,95,95,3,3,5,5,0.4,0.5
2023-08-02T14:00:00,2178A,110.9686,35.0303,运城市,地区技校,,33,26,25,11,16,119,104,90,90,4,4,2,2,0.4,0.5
2023-08-02T14:00:00,2179A,111.0414,35.1147,运城市,空港新区,,32,27,32,18,18,114,102,87,84,2,5,2,2,0.5,0.5
2023-08-02T14:00:00,2181A,112.7383,38.4519,忻州市,开发区,,46,46,36,21,25,105,103,63,63,8,15,23,12,0.8,0.9
2023-08-02T14:00:00,2182A,112.7003,38.4928,忻州市,会展中心,,46,34,36,29,29,147,147,90,90,9,16,17,9,0.6,0.6
2023-08-02T14:00:00,2183A,111.1406,37.5211,吕梁市,环保局,,37,22,42,11,17,119,116,71,71,5,32,4,4,0.5,0.7
2023-08-02T14:00:00,2185A,111.1297,37.5136,吕梁市,自来水公司,,36,20,45,8,20,117,114,73,73,8,29,4,3,0.5,0.7
2023-08-02T14:00:00,2187A,106.8174,39.6973,乌海市,市林业局,颗粒物(PM10),56,62,68,18,25,171,124,90,88,4,20,10,44,0.6,1.1
2023-08-02T14:00:00,2188A,106.7907,39.6667,乌海市,中海勃湾学校,颗粒物(PM10),60,69,57,16,20,186,116,80,72,5,20,10,30,0.3,1
2023-08-02T14:00:00,2191A,122.2532,43.6801,通辽市,艺术职业学校,,34,26,35,17,18,107,107,79,79,14,13,4,5,0.4,0.3
2023-08-02T14:00:00,2192A,119.7594,49.2261,呼伦贝尔市,区环保局,,34,34,37,15,16,104,98,76,76,6,20,5,5,0.5,0.7
2023-08-02T14:00:00,2195A,107.4212,40.761,巴彦淖尔市,附二中,颗粒物(PM10),63,75,48,22,20,140,136,90,89,4,12,4,8,0.5,0.6
2023-08-02T14:00:00,2196A,107.37,40.7372,巴彦淖尔市,市环保大楼,颗粒物(PM10),60,69,54,21,18,135,131,98,81,4,11,5,4,0.5,0.6
2023-08-02T14:00:00,2197A,113.1306,40.9923,乌兰察布市,集宁新区,,36,32,38,25,25,108,108,84,84,5,10,10,11,0.6,0.7
2023-08-02T14:00:00,2200A,122.0392,46.0656,兴安盟,胜华新制药厂,,24,8,17,9,12,76,75,62,62,6,9,3,4,0.4,0.4
2023-08-02T14:00:00,2201A,121.9504,46.0741,兴安盟,科右前旗环保局,,24,6,18,5,11,78,76,59,59,3,7,3,3,0.4,0.4
2023-08-02T14:00:00,2202A,116.1042,43.9317,锡林郭勒盟,市环保监测站,,35,20,20,13,8,113,112,97,97,3,5,7,7,0.3,0.4
2023-08-02T14:00:00,2203A,116.0781,43.9311,锡林郭勒盟,市政府,,36,22,14,10,5,114,113,97,97,4,8,10,10,0.3,0.4
2023-08-02T14:00:00,2204A,105.6467,38.8363,阿拉善盟,西城区西花园,颗粒物(PM10),61,71,68,30,31,131,115,99,99,8,14,10,11,0.5,0.5
2023-08-02T14:00:00,2205A,105.6985,38.8411,阿拉善盟,蒙二幼,颗粒物(PM10),58,66,77,29,29,128,114,98,98,4,7,8,6,0.3,0.5
2023-08-02T14:00:00,2206A,105.724,38.8516,阿拉善盟,环保局新楼,颗粒物(PM10),53,56,51,34,30,127,111,102,102,4,6,6,7,0.5,0.4
2023-08-02T14:00:00,2207A,121.6094,41.998,阜新市,工业园区,颗粒物(PM10),54,57,36,26,17,109,109,76,76,12,11,5,5,0.7,0.7
2023-08-02T14:00:00,2208A,121.6697,42.0279,阜新市,长青街,,44,44,37,21,21,104,104,72,72,9,11,3,4,0.7,0.6
2023-08-02T14:00:00,2209A,121.6673,42.0705,阜新市,农业园区,,40,39,27,28,22,113,113,80,80,5,9,6,6,0.7,0.6
2023-08-02T14:00:00,2210A,121.6717,42.0224,阜新市,东苑,颗粒物(PM10),51,51,35,25,22,113,113,78,78,7,10,6,9,0.6,0.5
2023-08-02T14:00:00,2211A,121.6506,42.0498,阜新市,玉龙新城,颗粒物(PM10),51,52,40,23,17,153,116,93,93,5,9,4,4,0.7,0.6
2023-08-02T14:00:00,2212A,123.2,41.1953,辽阳市,宏伟区,颗粒物(PM10),56,62,39,15,17,111,104,73,73,6,12,5,6,0.4,0.5
2023-08-02T14:00:00,2213A,123.1683,41.2495,辽阳市,新华园,颗粒物(PM10),54,57,44,16,20,103,103,66,66,5,14,8,9,0.6,0.7
2023-08-02T14:00:00,2214A,123.2354,41.2639,辽阳市,滨河路,,50,50,40,16,20,110,104,70,70,7,15,8,11,0.4,0.5
2023-08-02T14:00:00,2215A,123.149,41.2991,辽阳市,铁西工业园,颗粒物(PM10),53,55,48,18,21,114,114,72,72,14,17,10,11,0.8,1.1
2023-08-02T14:00:00,2216A,123.8139,42.3022,铁岭市,汇工街西,颗粒物(PM10),58,65,43,15,19,117,117,73,73,10,19,12,12,0.6,0.6
2023-08-02T14:00:00,2217A,123.8649,42.2923,铁岭市,水上乐园,颗粒物(PM10),53,56,35,17,18,129,129,78,78,11,17,7,5,0.6,0.7
2023-08-02T14:00:00,2218A,123.8486,42.2867,铁岭市,银州路东段,颗粒物(PM10),59,68,41,14,17,121,121,74,74,12,18,7,7,0.6,0.6
2023-08-02T14:00:00,2219A,123.7153,42.2217,铁岭市,金沙江路北,颗粒物(PM10),55,60,36,15,18,128,128,76,76,8,19,9,8,0.7,0.7
2023-08-02T14:00:00,2220A,120.4318,41.5881,朝阳市,西梁,,34,34,42,8,8,104,104,83,83,5,6,6,10,0.7,0.7
2023-08-02T14:00:00,2221A,120.4521,41.5646,朝阳市,河畔小区,,,21,44,,13,105,105,87,87,5,6,5,5,0.7,0.6
2023-08-02T14:00:00,2222A,120.4176,41.5648,朝阳市,八里堡,,34,30,40,6,13,106,106,84,84,9,12,1,2,0.7,0.7
2023-08-02T14:00:00,2223A,120.3806,41.5969,朝阳市,农业园区,,41,41,36,19,15,104,104,85,85,4,9,3,4,0.7,0.6
2023-08-02T14:00:00,2225A,124.4002,43.1713,四平市,一商场,,49,49,35,21,23,109,109,69,69,11,15,7,7,0.5,0.5
2023-08-02T14:00:00,2226A,124.388,43.193,四平市,境园,,39,39,33,24,22,105,105,68,68,6,15,4,4,0.3,0.3
2023-08-02T14:00:00,2227A,125.1358,42.8845,辽源市,环保局,,29,20,29,12,20,92,92,68,68,4,10,6,6,0.6,0.9
2023-08-02T14:00:00,2229A,125.9358,41.7173,通化市,光明,,22,20,18,15,9,63,50,39,39,4,7,6,6,0.1,0.2
2023-08-02T14:00:00,2230A,125.9446,41.7325,通化市,铁路,,16,16,14,5,8,60,48,34,34,3,6,5,6,0.1,0.2
2023-08-02T14:00:00,2231A,126.4219,41.9171,白山市,喜丰,,32,32,39,8,11,102,46,29,29,7,13,8,9,0.5,0.7
2023-08-02T14:00:00,2232A,126.4077,41.9419,白山市,环保局,,18,18,29,4,11,105,50,31,31,5,12,5,8,0.6,0.7
2023-08-02T14:00:00,2233A,124.8006,45.1214,松原市,江南,,28,26,23,19,14,60,49,56,34,10,8,5,5,0.4,0.4
2023-08-02T14:00:00,2234A,124.7965,45.1722,松原市,江北,,,25,17,16,14,59,52,54,36,,6,3,3,,0.5
2023-08-02T14:00:00,2235A,122.7911,45.6077,白城市,洮北区环保局,,29,3,16,5,10,91,90,74,74,6,8,7,5,0.2,0.1
2023-08-02T14:00:00,2236A,122.8738,45.5725,白城市,市环保局,,25,15,21,4,9,98,80,70,70,4,5,3,4,0.2,0.2
2023-08-02T14:00:00,2237A,129.47,42.8883,延边朝鲜族自治州,妇幼医院,,23,13,27,12,16,76,72,38,38,10,15,8,7,0.5,0.5
2023-08-02T14:00:00,2238A,129.5055,42.9108,延边朝鲜族自治州,延边医院,,,13,66,14,23,76,70,46,46,,17,5,6,0.5,0.7
2023-08-02T14:00:00,2239A,129.3964,42.8881,延边朝鲜族自治州,朝阳川镇医院,,24,15,26,7,12,76,76,41,41,6,12,6,6,0.6,0.6
2023-08-02T14:00:00,2240A,130.9762,45.3001,鸡西市,环保局,,23,23,29,12,15,67,30,39,37,7,11,5,6,0.0,0.1
2023-08-02T14:00:00,2243A,130.9429,45.3039,鸡西市,第一中学,,,,,,,,,,,,,,,,
2023-08-02T14:00:00,2244A,130.2537,47.3416,鹤岗市,哈啤分公司,,30,10,17,6,11,93,93,57,57,9,16,10,9,0.3,0.3
2023-08-02T14:00:00,2245A,130.2684,47.3086,鹤岗市,斯达机电,,28,8,23,5,13,89,89,55,55,6,12,8,7,0.3,0.5
2023-08-02T14:00:00,2246A,130.3114,47.3388,鹤岗市,东山纸板厂,,28,7,22,6,16,88,88,59,59,9,17,8,10,0.4,0.6
2023-08-02T14:00:00,2247A,130.1097,47.3382,鹤岗市,五号水库,,30,5,10,6,11,94,93,58,58,9,9,10,10,0.2,0.1
2023-08-02T14:00:00,2248A,131.1511,46.6937,双鸭山市,双合村,,30,11,27,9,10,93,93,63,63,8,7,9,9,0.2,0.2
2023-08-02T14:00:00,2249A,131.1652,46.6191,双鸭山市,南小市,,,7,31,,18,93,91,66,66,4,5,5,6,0.1,0.1
2023-08-02T14:00:00,2250A,131.1524,46.6554,双鸭山市,环保局,,29,4,17,5,11,92,92,65,65,7,8,8,9,0.5,0.4
2023-08-02T14:00:00,2251A,131.12,46.5656,双鸭山市,苗圃,,33,6,16,6,9,104,104,80,80,17,21,3,3,0.4,0.4
2023-08-02T14:00:00,2252A,128.5159,47.4311,伊春市,环保局,,20,20,25,0,7,62,57,40,40,7,11,5,5,0.2,0.2
2023-08-02T14:00:00,2253A,128.9102,47.7412,伊春市,电力嘉园,,20,16,14,6,12,76,62,45,45,5,8,5,6,0.4,0.4
2023-08-02T14:00:00,2254A,129.5029,48.471,伊春市,汤旺河国家公园,,36,36,36,15,15,68,54,57,57,1,2,15,14,0,0.1
2023-08-02T14:00:00,2255A,130.2751,46.8028,佳木斯市,佳纺,,25,25,24,14,17,80,76,63,63,15,8,4,2,0.6,0.5
2023-08-02T14:00:00,2256A,130.3995,46.8307,佳木斯市,发电厂,,37,37,32,13,18,81,81,67,67,6,7,4,2,0.5,0.5
2023-08-02T14:00:00,2257A,130.3258,46.7975,佳木斯市,环保局,,29,24,36,20,18,80,59,53,53,14,7,4,3,0.6,0.5
2023-08-02T14:00:00,2258A,130.3648,46.8032,佳木斯市,十一中,,23,23,30,15,17,83,65,53,53,18,10,4,4,0.5,0.5
2023-08-02T14:00:00,2259A,130.3794,46.7588,佳木斯市,四丰,,,,,,,,,,,,,,,,
2023-08-02T14:00:00,2262A,131.0518,45.8751,七台河市,新一中,,27,27,33,7,22,87,60,59,59,5,12,8,11,0.8,0.9
2023-08-02T14:00:00,2263A,127.4833,50.2524,黑河市,交通局,,23,23,19,4,6,65,62,60,60,14,14,18,5,0.4,0.5
2023-08-02T14:00:00,2264A,127.5144,50.2341,黑河市,环保局,,22,21,30,6,8,74,69,64,64,5,10,4,8,0.3,0.4
2023-08-02T14:00:00,2265A,127.5291,50.2472,黑河市,大黑河岛,,,,,7,10,83,77,78,78,2,2,1,3,0.3,0.4
2023-08-02T14:00:00,2266A,126.9785,46.6365,绥化市,人和东街,,15,6,25,1,14,66,48,41,41,9,11,6,5,0.3,0.3
2023-08-02T14:00:00,2267A,126.964,46.6528,绥化市,党政办公中心,,14,1,21,1,13,72,42,41,41,8,8,3,3,0.3,0.3
2023-08-02T14:00:00,2269A,124.1069,50.4097,大兴安岭地区,科技局,,24,8,15,11,9,85,76,70,70,3,5,7,7,0.0,0.1
2023-08-02T14:00:00,2270A,117.396,32.939,蚌埠市,工人疗养院,,31,28,30,14,13,98,97,56,56,3,11,5,5,0.3,0.3
2023-08-02T14:00:00,2271A,117.3605,32.9427,蚌埠市,百货大楼,,32,29,34,9,12,103,102,64,64,5,13,5,6,0.3,0.3
2023-08-02T14:00:00,2273A,117.4185,32.8911,蚌埠市,蚌埠学院,,32,24,25,20,17,102,100,64,64,3,7,8,9,0.4,0.3
2023-08-02T14:00:00,2274A,117.3533,32.9673,蚌埠市,淮上区政府,,33,27,29,18,16,103,103,57,57,5,10,5,6,0.3,0.3
2023-08-02T14:00:00,2275A,117.3145,32.8977,蚌埠市,高新区,,32,27,25,11,12,103,102,63,63,3,7,7,7,0.3,0.3
2023-08-02T14:00:00,2277A,116.8305,32.7727,淮南市,潘集区政府,,33,29,28,17,19,111,104,61,61,4,8,6,5,0.3,0.4
2023-08-02T14:00:00,2278A,117.0067,32.6524,淮南市,师范学院,,28,20,33,16,21,123,87,54,54,4,10,9,9,0.3,0.4
2023-08-02T14:00:00,2279A,116.8569,32.5951,淮南市,谢家集区政府,,29,14,20,8,7,123,91,58,58,4,11,4,11,0.1,0.2
2023-08-02T14:00:00,2280A,116.8281,32.633,淮南市,八公山区政府,,30,30,34,18,20,117,93,56,56,4,9,8,8,0.2,0.3
2023-08-02T14:00:00,2281A,116.6325,32.6201,淮南市,焦岗湖风景区管理处,,27,27,24,10,7,37,36,25,25,2,8,5,5,0.2,0.3
2023-08-02T14:00:00,2282A,116.8004,33.975,淮北市,监测站,,26,24,24,17,14,82,82,51,51,4,7,4,3,0.4,0.4
2023-08-02T14:00:00,2283A,116.8091,33.9007,淮北市,烈山区政府,,28,27,27,16,16,87,87,59,59,2,12,5,6,0.3,0.2
2023-08-02T14:00:00,2285A,117.8177,30.9412,铜陵市,市第四中学,,26,26,23,11,10,93,75,51,51,2,6,3,4,0.1,0.1
2023-08-02T14:00:00,2286A,117.8059,30.9273,铜陵市,市公路局,,27,17,24,17,16,107,84,56,56,4,9,3,4,0.1,0.2
2023-08-02T14:00:00,2287A,117.7807,30.9413,铜陵市,市新民污水厂,,27,26,26,3,12,108,84,61,61,3,7,7,5,0.2,0.3
2023-08-02T14:00:00,2288A,117.7439,30.8792,铜陵市,市第九中学,,38,38,31,8,9,84,69,48,48,13,18,11,10,0.4,0.5
2023-08-02T14:00:00,2289A,117.846,30.9413,铜陵市,车站新区,,27,24,24,9,11,110,86,56,56,5,9,4,4,0.2,0.2
2023-08-02T14:00:00,2290A,117.8483,30.97,铜陵市,市职教基地,,23,21,19,1,7,97,73,46,46,4,7,4,4,0.4,0.5
2023-08-02T14:00:00,2291A,117.0809,30.5177,安庆市,环科院,,35,22,24,12,13,142,109,74,74,5,11,5,6,0.5,0.5
2023-08-02T14:00:00,2292A,117.0331,30.5119,安庆市,马山宾馆,,38,23,23,13,13,141,120,79,79,5,11,5,5,0.6,0.6
2023-08-02T14:00:00,2294A,116.9896,30.6145,安庆市,安庆大学,,30,18,22,17,16,121,93,69,69,4,8,4,4,0.4,0.4
2023-08-02T14:00:00,2295A,118.2903,29.6963,黄山市,延安路89号,,25,25,28,6,6,68,50,40,40,2,4,5,6,0.2,0.3
2023-08-02T14:00:00,2296A,118.327,29.7178,黄山市,黄山东路89号,,15,11,14,6,5,65,47,36,36,1,4,6,6,0.3,0.3
2023-08-02T14:00:00,2297A,118.1371,30.2756,黄山市,黄山区政府5号楼,,18,18,24,4,5,73,55,38,38,3,5,7,7,0.3,0.3
2023-08-02T14:00:00,2298A,118.3093,32.3153,滁州市,老年大学,,46,30,31,20,16,145,145,71,71,10,18,11,11,0.4,0.2
2023-08-02T14:00:00,2299A,118.3244,32.2786,滁州市,人大宾馆,,42,20,21,13,14,136,132,73,73,6,16,8,8,0.3,0.3
2023-08-02T14:00:00,2301A,115.8277,32.8929,阜阳市,市监测站,,33,14,21,12,11,149,105,70,70,6,10,6,7,0.5,0.6
2023-08-02T14:00:00,2303A,115.8554,32.8605,阜阳市,开发区,,33,12,21,5,7,148,104,70,70,5,12,5,6,0.4,0.5
2023-08-02T14:00:00,2307A,116.5079,31.737,六安市,监测大楼,,25,19,19,8,8,111,78,54,54,2,4,2,3,0.1,0.2
2023-08-02T14:00:00,2308A,116.4738,31.7643,六安市,皖西学院,,27,21,23,13,7,120,85,61,61,3,5,8,7,0.2,0.2
2023-08-02T14:00:00,2309A,116.4996,31.7905,六安市,朝阳厂,,27,11,13,13,10,115,85,60,60,1,5,8,8,0.3,0.3
2023-08-02T14:00:00,2310A,116.5567,31.7886,六安市,开发区,,25,17,24,15,17,108,77,53,53,2,5,6,8,0.4,0.4
2023-08-02T14:00:00,2311A,115.8072,33.8399,亳州市,污水处理厂,,33,26,21,13,8,103,103,66,66,3,7,4,6,0.6,0.6
2023-08-02T14:00:00,2312A,115.7789,33.8518,亳州市,三国揽胜宫,,33,26,21,14,9,105,105,65,65,4,7,3,5,0.5,0.5
2023-08-02T14:00:00,2314A,117.47,30.6618,池州市,池州学院,,,19,22,11,13,145,91,65,65,3,7,4,4,,0.5
2023-08-02T14:00:00,2316A,118.7581,30.9454,宣城市,鳌峰子站,,20,16,23,11,12,72,62,55,55,17,16,4,4,0.2,0.3
2023-08-02T14:00:00,2317A,118.7385,30.9743,宣城市,敬亭山子站,,28,28,27,10,12,65,65,43,43,15,20,6,7,0.2,0.3
2023-08-02T14:00:00,2318A,118.7173,30.9427,宣城市,开发区子站,,23,15,22,14,13,73,73,47,47,7,14,5,5,0.2,0.4
2023-08-02T14:00:00,2319A,119.0141,25.4325,莆田市,荔城区仓后路,,38,38,37,9,17,108,82,55,55,6,11,7,7,0.6,0.7
2023-08-02T14:00:00,2320A,119.0015,25.4553,莆田市,莆田市监测站,,31,31,31,10,12,110,83,54,54,2,4,7,7,0.1,0.3
2023-08-02T14:00:00,2321A,119.1119,25.4561,莆田市,涵江区六中,,24,24,31,6,13,101,74,50,50,3,10,7,7,0.6,0.7
2023-08-02T14:00:00,2322A,119.1013,25.3215,莆田市,秀屿区政府,,28,28,33,7,16,95,62,55,55,2,7,9,8,0.6,0.7
2023-08-02T14:00:00,2323A,118.981,25.4792,莆田市,东圳水库,,,,,,,,,,,,,,,,
2023-08-02T14:00:00,2324A,117.6211,26.2625,三明市,三钢,,25,14,27,17,16,87,60,50,50,2,12,6,8,0.4,0.7
2023-08-02T14:00:00,2325A,117.635,26.2714,三明市,三明二中,,23,19,25,16,13,84,60,48,48,6,16,3,4,0.4,0.8
2023-08-02T14:00:00,2326A,117.6028,26.2378,三明市,三元区政府,,21,14,28,13,13,86,66,47,47,5,12,7,9,0.6,0.7
2023-08-02T14:00:00,2327A,117.7275,26.3108,三明市,洋溪,,,,,,,,,,,,,,,,
2023-08-02T14:00:00,2331A,118.0966,26.6761,南平市,茫荡山,,,,,,,,,,,,,,,,
2023-08-02T14:00:00,2332A,118.1681,26.6369,南平市,南平市监测站,,19,14,21,3,8,78,58,50,50,1,8,5,5,0.5,0.7
2023-08-02T14:00:00,2333A,118.1825,26.6489,南平市,南平铝业有限公司,,18,14,19,10,9,68,56,47,47,3,9,6,7,0.5,0.6
2023-08-02T14:00:00,2334A,118.1756,26.6272,南平市,南平七中,,19,13,22,9,10,79,59,52,52,1,8,4,4,0.5,0.6
2023-08-02T14:00:00,2335A,117.0189,25.1181,龙岩市,龙岩师专,,,,,,,,,,,,,,,,
2023-08-02T14:00:00,2336A,117.0217,25.1033,龙岩市,龙岩市监测站,,24,24,27,8,12,83,70,51,51,4,17,3,5,0.3,0.5
2023-08-02T14:00:00,2337A,117.0258,25.0661,龙岩市,闽西职业技术学院,,23,12,25,7,12,96,71,54,54,2,14,4,6,0.4,0.4
2023-08-02T14:00:00,2338A,117.0196,25.0306,龙岩市,龙岩学院,,25,23,25,6,10,107,79,51,51,3,9,5,4,0.4,0.4
2023-08-02T14:00:00,2339A,119.5001,26.6946,宁德市,金涵水库,,,,,,,,,,,,,,,,
2023-08-02T14:00:00,2341A,119.5388,26.6612,宁德市,宁德市监测站,,22,20,27,10,15,108,70,45,45,1,9,9,8,0.4,0.6
2023-08-02T14:00:00,2342A,117.3102,29.3867,景德镇市,王港中学,,16,9,18,4,11,62,49,41,41,3,4,3,3,0.3,0.7
2023-08-02T14:00:00,2343A,117.2117,29.2933,景德镇市,老干部活动中心,,16,14,21,7,13,57,49,38,38,4,7,3,4,0.2,0.2
2023-08-02T14:00:00,2344A,117.1894,29.2789,景德镇市,兽医站,,19,19,33,7,22,62,55,41,41,5,8,5,5,0.1,0.3
2023-08-02T14:00:00,2345A,117.1547,29.2617,景德镇市,台达陶瓷,,18,8,17,7,10,65,55,42,42,4,7,5,5,0.3,0.3
2023-08-02T14:00:00,2346A,117.2461,29.2956,景德镇市,陶研所,,16,14,33,9,8,55,50,36,36,5,7,6,10,0.2,0.3
2023-08-02T14:00:00,2347A,114.0997,27.5002,萍乡市,武功山,,15,6,7,2,3,62,46,39,39,2,3,17,20,0.4,0.3
2023-08-02T14:00:00,2348A,113.8385,27.6434,萍乡市,中医院,,36,32,24,21,14,115,115,64,64,6,13,12,13,0.8,0.8
2023-08-02T14:00:00,2349A,113.8493,27.6253,萍乡市,市政府车库,,40,26,25,28,14,122,115,65,65,6,14,12,15,0.7,0.5
2023-08-02T14:00:00,2350A,113.8676,27.6435,萍乡市,市环保局,,30,28,24,20,13,100,95,56,56,4,11,11,16,0.5,0.6
2023-08-02T14:00:00,2351A,113.866,27.6198,萍乡市,安源区政府,,36,22,24,17,12,118,113,61,61,6,14,11,13,0.7,0.7
2023-08-02T14:00:00,2352A,115.0861,27.9317,新余市,北岗,,35,28,17,24,10,104,104,56,56,3,14,8,12,0.6,0.7
2023-08-02T14:00:00,2353A,114.9886,27.8431,新余市,飞宇,颗粒物(PM10),54,57,44,24,15,106,105,60,60,4,16,9,13,0.5,0.7
2023-08-02T14:00:00,2354A,114.9231,27.8246,新余市,第二水厂,,45,45,30,20,9,111,105,72,72,5,15,7,8,0.5,0.5
2023-08-02T14:00:00,2355A,114.9308,27.8036,新余市,市气象局,,34,34,27,20,11,103,102,63,63,1,10,7,9,0.6,0.8
2023-08-02T14:00:00,2357A,116.9822,28.1136,鹰潭市,龙虎山,,24,19,25,15,10,95,76,55,55,1,3,5,5,0.6,0.5
2023-08-02T14:00:00,2358A,117.0564,28.2642,鹰潭市,新监测站,,34,30,32,23,18,120,107,76,76,1,5,12,10,0.3,0.4
2023-08-02T14:00:00,2359A,117.0311,28.2475,鹰潭市,财苑宾馆,,39,39,33,19,15,121,106,80,80,2,7,16,10,0.3,0.4
2023-08-02T14:00:00,2360A,117.0222,28.2264,鹰潭市,体育馆,,45,45,39,20,17,115,111,74,74,1,8,2,2,0.6,0.5
2023-08-02T14:00:00,2361A,117.0017,28.2131,鹰潭市,三川水表,,39,33,38,27,17,121,115,78,78,3,6,6,4,0.6,0.5
2023-08-02T14:00:00,2362A,114.9017,25.9149,赣州市,通天岩,,,,,,,,,,,,,,,,
2023-08-02T14:00:00,2363A,114.9367,25.8664,赣州市,地委,,38,35,36,16,16,119,119,93,93,2,12,14,3,1.1,1.2
2023-08-02T14:00:00,2364A,114.9461,25.8481,赣州市,气象台,,37,24,29,13,14,117,117,60,60,5,9,6,6,0.6,0.7
2023-08-02T14:00:00,2365A,114.9322,25.8333,赣州市,市图书馆,,36,32,32,15,14,114,114,66,66,6,13,6,8,0.9,1
2023-08-02T14:00:00,2366A,114.8905,25.8471,赣州市,华坚鞋城,,32,31,29,10,13,101,101,53,53,4,11,4,5,0.7,0.8
2023-08-02T14:00:00,2367A,114.9754,27.0803,吉安市,红声器材厂,,32,30,29,22,14,96,96,60,60,4,12,2,12,0.7,0.7
2023-08-02T14:00:00,2368A,114.9658,27.0999,吉安市,市森林工业局,,28,28,26,16,16,87,86,57,57,4,8,5,6,0.5,0.4
2023-08-02T14:00:00,2369A,114.99,27.1312,吉安市,市环境监测站,,30,30,29,13,14,86,86,58,58,5,10,6,8,0.7,0.7
2023-08-02T14:00:00,2370A,115.0093,27.0968,吉安市,青原区法院,,36,35,29,25,19,93,93,62,62,7,17,12,13,0.7,0.8
2023-08-02T14:00:00,2371A,114.3408,27.8064,宜春市,槟榔水业,,24,24,22,10,8,64,58,38,38,19,27,1,1,0.6,0.6
2023-08-02T14:00:00,2373A,114.3956,27.7844,宜春市,市石油公司,,25,25,24,12,10,78,76,51,51,5,9,2,4,0.6,0.6
2023-08-02T14:00:00,2374A,114.3703,27.7914,宜春市,市气象局,,34,34,27,13,11,80,76,53,53,6,12,2,4,0.7,0.7
2023-08-02T14:00:00,2375A,114.4013,27.8074,宜春市,市广电局,,29,26,24,14,10,91,91,58,58,4,8,7,8,0.6,0.5
2023-08-02T14:00:00,2376A,116.2127,28.0814,抚州市,桐源党溪,,,63,30,17,16,136,136,88,88,,2,3,4,0.4,0.5
2023-08-02T14:00:00,2377A,116.3544,27.9831,抚州市,市站,,47,47,32,26,18,102,102,69,69,3,7,4,4,1.1,1.1
2023-08-02T14:00:00,2378A,116.3565,27.963,抚州市,血防站,,45,45,37,26,15,95,95,63,63,3,6,4,5,0.8,0.8
2023-08-02T14:00:00,2379A,116.3564,28.0007,抚州市,采茶剧团,,39,39,30,23,18,94,94,64,64,2,4,7,7,0.9,1
2023-08-02T14:00:00,2380A,116.385,27.9647,抚州市,医学分院,,38,38,29,24,13,99,99,63,63,5,9,4,5,1.0,0.9
2023-08-02T14:00:00,2381A,118.005,28.4572,上饶市,百草园,,26,26,30,2,14,120,68,49,49,3,10,3,8,0.7,0.7
2023-08-02T14:00:00,2382A,117.9756,28.4436,上饶市,市监测站,,25,23,31,8,14,130,77,58,58,3,11,5,12,0.4,0.4
2023-08-02T14:00:00,2383A,117.9519,28.4628,上饶市,凤凰光学,,27,27,32,11,15,130,74,55,55,2,12,5,17,0.6,0.7
2023-08-02T14:00:00,2385A,114.17,35.9019,鹤壁市,市监测站,,44,29,20,27,23,138,138,91,91,9,11,1,3,0.5,0.5
2023-08-02T14:00:00,2386A,114.2956,35.7511,鹤壁市,市交警支队,,38,26,29,14,14,123,119,83,83,5,16,10,9,0.4,0.5
2023-08-02T14:00:00,2387A,114.2878,35.7306,鹤壁市,迎宾馆,,39,25,27,16,29,126,122,88,88,2,11,9,14,0.4,0.4
2023-08-02T14:00:00,2389A,113.836,35.311,新乡市,环保西院,,35,27,31,12,16,116,110,79,79,5,16,6,5,0.5,0.6
2023-08-02T14:00:00,2390A,113.884,35.272,新乡市,开发区,,34,16,26,12,14,119,107,85,85,13,7,2,2,0.6,0.6
2023-08-02T14:00:00,2391A,113.883,35.303,新乡市,环保东院,,37,31,35,10,12,117,116,85,85,6,14,5,5,0.4,0.4
2023-08-02T14:00:00,2392A,115.0312,35.7636,濮阳市,环保局,,34,31,27,16,17,116,107,75,75,3,8,4,4,0.5,0.5
2023-08-02T14:00:00,2394A,115.0574,35.7609,濮阳市,油田运输公司,,32,32,32,15,18,109,102,70,70,3,6,4,4,0.4,0.4
2023-08-02T14:00:00,2395A,115.0866,35.7754,濮阳市,油田物探公司,,45,45,31,15,16,107,103,71,71,2,5,2,3,0.4,0.4
2023-08-02T14:00:00,2396A,113.8276,34.0159,许昌市,监测站,,35,28,30,14,16,114,112,87,87,6,10,3,3,0.4,0.5
2023-08-02T14:00:00,2398A,113.7906,33.9953,许昌市,开发区,,37,32,25,13,14,120,117,91,91,3,8,1,1,0.7,0.8
2023-08-02T14:00:00,2399A,114.051,33.5699,漯河市,三五一五工厂,,40,22,31,17,19,125,125,90,90,2,8,8,9,0.4,0.4
2023-08-02T14:00:00,2400A,114.0055,33.5698,漯河市,漯河大学,,40,23,37,14,25,126,126,95,95,2,7,6,8,0.3,0.4
2023-08-02T14:00:00,2401A,114.0138,33.5828,漯河市,市水利局,,39,17,29,12,18,122,122,93,93,3,7,7,8,0.4,0.5
2023-08-02T14:00:00,2402A,114.0261,33.5698,漯河市,市广电局,,40,17,27,12,19,127,127,95,95,1,6,5,7,0.4,0.5
2023-08-02T14:00:00,2404A,112.5224,33.0122,南阳市,瓦房庄,,34,16,19,11,12,109,108,76,76,7,12,6,6,0.4,0.5
2023-08-02T14:00:00,2405A,112.5003,32.9735,南阳市,汉画馆,,35,22,19,20,17,110,109,80,80,2,9,5,6,0.4,0.4
2023-08-02T14:00:00,2406A,112.5573,33.027,南阳市,气象站,,32,14,21,8,11,109,100,75,75,3,9,4,4,0.4,0.2
2023-08-02T14:00:00,2407A,112.5481,32.9689,南阳市,理工学院,,33,12,17,7,8,105,105,75,75,1,8,5,5,0.4,0.4
2023-08-02T14:00:00,2408A,115.6702,34.4285,商丘市,环境监测站,,30,19,25,16,12,93,93,64,64,3,8,5,5,0.6,0.6
2023-08-02T14:00:00,2409A,115.6458,34.4045,商丘市,粮食局,,30,17,22,18,13,102,93,66,66,7,11,4,13,0.1,0.1
2023-08-02T14:00:00,2410A,115.6293,34.3948,商丘市,睢阳区环保局,,32,29,32,22,17,104,92,64,64,3,7,4,5,0.4,0.4
2023-08-02T14:00:00,2420A,114.0189,32.9656,驻马店市,市一纸厂,,34,19,30,7,13,116,108,89,89,3,9,4,6,0.3,0.4
2023-08-02T14:00:00,2421A,114.0114,33.015,驻马店市,市彩印厂,,35,20,33,17,17,112,109,88,88,1,5,8,7,0.4,0.3
2023-08-02T14:00:00,2422A,113.9976,32.9771,驻马店市,天方二分厂,,34,21,31,14,22,116,108,92,92,1,6,4,5,0.2,0.4
2023-08-02T14:00:00,2423A,115.0601,30.2313,黄石市,沈家营,,43,38,39,17,12,136,136,86,86,7,15,9,8,0.6,0.5
2023-08-02T14:00:00,2424A,115.0817,30.2006,黄石市,陈家湾,,50,50,44,15,14,128,128,83,83,1,6,6,6,0.7,0.6
2023-08-02T14:00:00,2426A,114.8988,30.2019,黄石市,铁山,,41,28,27,10,13,147,131,102,102,8,14,4,5,0.5,0.6
2023-08-02T14:00:00,2427A,115.0307,30.2092,黄石市,团城山,,41,37,33,8,10,131,131,87,87,1,13,9,8,0.5,0.5
2023-08-02T14:00:00,2428A,111.0419,32.395,十堰市,武当山,,25,12,17,5,12,88,77,60,60,5,5,8,8,0.6,0.6
2023-08-02T14:00:00,2429A,110.78,32.6494,十堰市,滨河新村,,30,19,25,9,15,104,95,85,76,2,2,4,5,0.5,0.6
2023-08-02T14:00:00,2430A,110.7258,32.6389,十堰市,刘家沟,,32,6,20,10,16,102,100,78,78,2,3,5,5,0.3,0.4
2023-08-02T14:00:00,2431A,110.8839,32.5714,十堰市,铁二处,,36,14,22,8,12,118,113,76,76,2,3,5,5,0.2,0.3
2023-08-02T14:00:00,2432A,112.155,32.0197,襄阳市,襄城运动路,,33,20,24,15,15,117,104,78,78,8,13,6,6,0.6,0.7
2023-08-02T14:00:00,2433A,112.1392,32.0564,襄阳市,樊城新华路,,34,19,23,8,14,119,107,79,79,5,14,6,5,0.5,0.7
2023-08-02T14:00:00,2434A,112.1825,32.1142,襄阳市,高新管委会,,32,20,21,15,16,110,102,72,72,5,14,6,6,0.6,0.7
2023-08-02T14:00:00,2435A,112.2106,32.0903,襄阳市,襄州航空路,,34,16,23,9,12,108,106,75,75,5,10,6,6,0.6,0.6
2023-08-02T14:00:00,2436A,114.8938,30.3994,鄂州市,市政府,,37,22,33,10,10,123,116,86,86,3,13,7,6,0.3,0.3
2023-08-02T14:00:00,2437A,114.8989,30.3714,鄂州市,赵家坝,,35,30,30,0,9,119,111,79,79,6,11,4,4,0.4,0.7
2023-08-02T14:00:00,2439A,112.2014,31.0481,荆门市,竹园小学,臭氧1小时,62,31,32,17,21,169,169,97,97,6,12,12,9,0.5,0.7
2023-08-02T14:00:00,2440A,112.1969,30.9891,荆门市,掇刀,,43,32,36,24,23,150,137,100,100,8,18,16,12,0.5,0.7
2023-08-02T14:00:00,2441A,112.2213,31.0386,荆门市,石化一小,,47,9,30,13,16,150,150,87,87,8,17,8,8,0.4,0.5
2023-08-02T14:00:00,2443A,113.9153,30.9285,孝感市,文化路,,34,6,14,11,11,124,108,84,84,3,9,7,7,0.5,0.7
2023-08-02T14:00:00,2444A,113.942,30.9075,孝感市,东城区,,39,10,15,10,7,129,124,87,87,6,9,6,7,0.5,0.6
2023-08-02T14:00:00,2446A,114.9028,30.4742,黄冈市,职工中心,,,27,33,14,15,120,116,86,86,3,8,,9,0.5,0.5
2023-08-02T14:00:00,2447A,114.3175,29.8142,咸宁市,森林公园,,23,7,18,12,6,77,73,62,59,4,4,5,5,0.4,0.5
2023-08-02T14:00:00,2448A,114.3107,29.8454,咸宁市,市发改委,,29,16,13,12,7,90,90,66,66,2,6,5,5,0.5,0.6
2023-08-02T14:00:00,2449A,114.2936,29.8566,咸宁市,咸安区政府,,30,22,18,21,11,86,86,66,66,3,9,2,2,0.4,0.5
2023-08-02T14:00:00,2451A,113.3583,31.7275,随州市,市委党校,,29,21,23,16,16,98,92,68,68,2,6,6,7,0.6,0.7
2023-08-02T14:00:00,2452A,113.3833,31.6908,随州市,市林业局,,30,18,21,14,13,94,94,66,66,1,6,4,4,0.6,0.6
2023-08-02T14:00:00,2453A,113.3983,31.7308,随州市,市立交桥水厂,,30,14,20,13,12,106,94,66,66,2,12,6,6,0.5,0.5
2023-08-02T14:00:00,2454A,109.4978,30.2981,恩施土家族苗族自治州,湖北民院,,32,32,25,11,11,103,90,58,58,1,6,9,9,0.6,0.7
2023-08-02T14:00:00,2455A,109.4707,30.2798,恩施土家族苗族自治州,州电力总公司,,24,10,14,8,9,82,74,45,45,6,9,10,10,0.7,0.7
2023-08-02T14:00:00,2456A,112.5003,26.9167,衡阳市,原169医院,,32,3,16,10,9,100,100,56,56,2,8,1,7,0.2,0.2
2023-08-02T14:00:00,2457A,112.6194,26.9258,衡阳市,衡阳化工总厂,,33,20,19,8,7,104,104,64,64,4,9,6,8,0.5,0.5
2023-08-02T14:00:00,2458A,112.6211,26.8956,衡阳市,珠晖区环保局,,,24,18,,,104,104,60,60,3,12,4,6,0.5,0.6
2023-08-02T14:00:00,2459A,112.6197,26.8733,衡阳市,市委党校,,31,15,16,8,7,97,97,60,60,4,9,7,9,0.5,0.6
2023-08-02T14:00:00,2460A,112.6006,26.8919,衡阳市,市监测站,,32,20,17,13,9,100,100,62,62,5,11,6,7,0.7,0.7
2023-08-02T14:00:00,2461A,112.5664,26.9056,衡阳市,真空机电公司,,,24,15,,7,106,106,66,66,4,9,5,6,0.5,0.6
2023-08-02T14:00:00,2462A,111.5239,27.3033,邵阳市,市水土所,,29,24,23,20,18,93,80,53,53,3,7,5,10,0.4,0.4
2023-08-02T14:00:00,2463A,111.4733,27.2317,邵阳市,市一中,,34,34,28,12,13,97,96,76,76,3,7,8,12,0.3,0.3
2023-08-02T14:00:00,2464A,111.5283,27.2442,邵阳市,市化工厂,,28,21,22,8,12,92,89,70,70,4,10,4,14,0.4,0.5
2023-08-02T14:00:00,2465A,111.4503,27.2537,邵阳市,市罐头厂,,30,30,26,17,16,89,87,65,65,3,8,8,13,0.4,0.4
2023-08-02T14:00:00,2466A,111.4328,27.2272,邵阳市,市环保局,,30,30,25,20,15,94,92,72,72,3,8,7,12,0.3,0.3
2023-08-02T14:00:00,2467A,112.4067,28.6428,益阳市,甘溪港,,24,16,21,7,6,92,76,52,52,5,5,3,3,0.4,0.4
2023-08-02T14:00:00,2468A,112.3458,28.5808,益阳市,市环保局,,32,17,20,5,11,113,100,53,53,4,10,5,4,0.6,0.7
2023-08-02T14:00:00,2469A,112.3437,28.5531,益阳市,市特殊教育学校,,30,23,28,13,15,107,96,58,50,5,12,2,2,0.7,0.7
2023-08-02T14:00:00,2470A,112.3347,28.6047,益阳市,资阳区政务中心,,31,13,21,9,10,117,97,51,51,2,6,2,2,0.6,0.7
2023-08-02T14:00:00,2471A,112.3744,28.5819,益阳市,赫山环保分局,,30,15,24,8,7,105,96,53,53,1,11,4,4,0.8,0.8
2023-08-02T14:00:00,2472A,113.0073,25.9061,郴州市,马头岭,,38,18,19,16,10,119,119,55,55,8,15,8,9,0.5,0.6
2023-08-02T14:00:00,2473A,113.0116,25.8226,郴州市,市职中,,40,18,17,3,9,127,127,61,61,9,17,4,4,0.4,0.4
2023-08-02T14:00:00,2474A,113.0161,25.8001,郴州市,兴隆步行街,,39,37,21,9,10,123,123,64,64,9,16,5,6,0.5,0.5
2023-08-02T14:00:00,2475A,113.0383,25.8071,郴州市,市审计局,,38,18,15,20,11,121,121,63,63,6,13,4,5,0.4,0.4
2023-08-02T14:00:00,2476A,113.0348,25.7759,郴州市,市环保局,,39,20,20,9,10,123,123,58,58,9,17,4,7,0.4,0.4
2023-08-02T14:00:00,2477A,111.6217,26.2081,永州市,零陵南津渡,,29,8,19,14,11,90,90,44,44,3,6,6,6,0.4,0.4
2023-08-02T14:00:00,2478A,111.6156,26.4214,永州市,市环境监测站,,,,23,,13,80,80,47,47,9,10,6,7,0.9,0.6
2023-08-02T14:00:00,2479A,111.6236,26.2331,永州市,零陵区环保局,,28,26,20,18,12,87,87,49,49,6,11,8,9,0.5,0.5
2023-08-02T14:00:00,2480A,111.5992,26.4364,永州市,永州市环保局,,33,32,23,23,13,79,79,44,44,9,10,12,12,0.6,0.5
2023-08-02T14:00:00,2481A,111.5989,26.4519,永州市,冷水滩区环保局,,40,36,26,28,16,80,80,46,46,10,10,6,8,0.6,0.5
2023-08-02T14:00:00,2482A,109.5981,27.5721,怀化市,林科所,,15,13,13,10,6,97,30,29,23,2,2,10,10,1.1,0.9
2023-08-02T14:00:00,2483A,109.9453,27.5444,怀化市,河西地税局,,12,9,15,7,9,98,37,31,21,10,10,4,5,0.6,0.6
2023-08-02T14:00:00,2484A,109.9781,27.5342,怀化市,市四医院,,17,8,18,9,13,92,52,45,30,9,5,5,9,0.6,0.6
2023-08-02T14:00:00,2485A,109.9972,27.5578,怀化市,监测楼,,29,22,23,20,10,94,38,47,30,5,4,5,9,0.8,0.7
2023-08-02T14:00:00,2486A,110.0394,27.583,怀化市,市委党校,,23,21,19,16,12,86,39,25,25,4,8,5,9,0.5,0.5
2023-08-02T14:00:00,2487A,111.9589,27.8901,娄底市,电视发射台,,,25,25,9,7,75,62,47,47,,4,2,2,0.7,0.7
2023-08-02T14:00:00,2488A,111.9975,27.725,娄底市,市监测站,,35,28,21,24,16,94,94,56,56,15,14,18,17,1.1,0.5
2023-08-02T14:00:00,2489A,112.0194,27.7314,娄底市,市委党校,,,42,21,24,12,96,96,54,54,11,7,,6,,0.7
2023-08-02T14:00:00,2490A,111.9561,27.7569,娄底市,涟钢,,34,34,27,16,13,86,86,45,45,12,16,12,12,1.3,1.2
2023-08-02T14:00:00,2491A,111.9892,27.7044,娄底市,市政府,,33,30,17,12,10,103,103,56,56,3,6,7,6,0.8,0.6
2023-08-02T14:00:00,2492A,109.6414,28.2558,湘西州,跃进水库,,16,16,12,9,6,65,36,18,18,5,4,6,6,0.6,0.6
2023-08-02T14:00:00,2493A,109.7325,28.3169,湘西州,州政府,,18,12,12,4,7,79,57,46,46,6,5,5,6,0.7,0.4
