timepoint,stationcode,longitude,latitude,area,positionname,primarypollutant,aqi,pm10,pm10_24h,pm2_5,pm2_5_24h,o3,o3_24h,o3_8h,o3_8h_24h,no2,no2_24h,so2,so2_24h,co,co_24h
2023-01-11T14:00:00,1001A,116.3621,39.8784,北京市,万寿西宫,细颗粒物(PM2.5),88,103,82,65,48,57,13,14,14,77,66,4,3,1.1,0.9
2023-01-11T14:00:00,1002A,116.2202,40.2915,北京市,定陵(对照点),细颗粒物(PM2.5),64,73,67,46,41,38,34,25,22,33,33,4,3,0.5,0.5
2023-01-11T14:00:00,1003A,116.4174,39.9289,北京市,东四,细颗粒物(PM2.5),94,116,89,70,51,53,5,7,7,63,53,5,4,1.1,0.9
2023-01-11T14:00:00,1004A,116.4072,39.8863,北京市,天坛,细颗粒物(PM2.5),93,109,71,69,44,62,7,8,8,80,56,5,2,1.0,0.7
2023-01-11T14:00:00,1005A,116.462,39.9365,北京市,农展馆,细颗粒物(PM2.5),119,134,93,90,56,53,4,4,4,82,72,6,4,0.9,0.7
2023-01-11T14:00:00,1006A,116.3392,39.9295,北京市,官园,细颗粒物(PM2.5),92,101,87,68,53,62,10,10,10,2,12,7,8,0.6,0.7
2023-01-11T14:00:00,1007A,116.2878,39.9611,北京市,海淀万柳,细颗粒物(PM2.5),79,103,103,58,64,33,9,8,8,61,63,8,6,0.7,0.7
2023-01-11T14:00:00,1008A,116.6636,40.135,北京市,顺义新城,细颗粒物(PM2.5),88,98,85,65,53,28,20,14,14,61,64,8,4,0.8,0.8
2023-01-11T14:00:00,1009A,116.6275,40.3275,北京市,怀柔镇,,,,61,47,45,43,41,24,24,39,42,6,3,0.4,0.5
2023-01-11T14:00:00,1010A,116.2296,40.217,北京市,昌平镇,细颗粒物(PM2.5),68,76,72,49,44,33,27,20,14,42,45,4,2,0.5,0.6
2023-01-11T14:00:00,1011A,116.3966,39.9821,北京市,奥体中心,细颗粒物(PM2.5),105,112,93,79,60,35,4,9,9,80,67,5,5,1.0,1.1
2023-01-11T14:00:00,1012A,116.184,39.9136,北京市,古城,细颗粒物(PM2.5),74,96,85,54,46,62,12,9,9,66,55,8,5,1.0,1
2023-01-11T14:00:00,1015A,117.1444,39.1661,天津市,勤俭道,细颗粒物(PM2.5),123,144,98,93,57,59,15,11,11,71,64,18,11,1.0,0.8
2023-01-11T14:00:00,1017A,117.237,39.1082,天津市,大直沽八号路,细颗粒物(PM2.5),103,121,93,77,54,61,24,12,12,63,68,20,12,0.9,1
2023-01-11T14:00:00,1018A,117.202,39.0927,天津市,前进道,,,,88,,53,68,17,13,13,72,68,14,11,,0.8
2023-01-11T14:00:00,1019A,117.1837,39.2133,天津市,淮河道,细颗粒物(PM2.5),127,164,114,96,63,60,16,15,15,75,66,16,11,0.9,0.8
2023-01-11T14:00:00,1021A,117.307,39.0877,天津市,跃进路,细颗粒物(PM2.5),102,114,94,76,57,61,23,11,11,61,69,20,13,0.9,0.9
2023-01-11T14:00:00,1023A,117.707,39.0343,天津市,第四大街,细颗粒物(PM2.5),85,105,85,63,47,43,22,15,15,62,72,20,12,0.8,0.8
2023-01-11T14:00:00,1024A,117.457,38.8394,天津市,永明路,细颗粒物(PM2.5),99,114,91,74,57,57,29,18,18,59,70,36,26,0.8,0.8
2023-01-11T14:00:00,1026A,117.764,39.1587,天津市,汉北路,细颗粒物(PM2.5),134,135,65,102,42,44,2,3,3,81,75,15,13,0.8,0.5
2023-01-11T14:00:00,1027A,117.157,38.9194,天津市,团泊洼(对照点),细颗粒物(PM2.5),100,112,91,75,61,61,14,4,4,62,63,21,10,0.9,0.9
2023-01-11T14:00:00,1029A,114.4422,38.0444,石家庄市,职工医院,细颗粒物(PM2.5),80,103,123,59,68,46,33,11,11,46,69,12,15,1.0,1.2
2023-01-11T14:00:00,1030A,114.6063,38.0266,石家庄市,高新区,细颗粒物(PM2.5),113,124,104,85,56,58,28,16,16,56,57,17,14,1.2,0.9
2023-01-11T14:00:00,1031A,114.4898,38.1328,石家庄市,西北水源,细颗粒物(PM2.5),108,135,133,81,72,41,24,7,7,55,68,17,15,1.4,1.4
2023-01-11T14:00:00,1032A,114.4586,38.0058,石家庄市,西南高教,颗粒物(PM10),82,113,117,57,73,46,31,12,12,44,63,12,18,1.0,1.2
2023-01-11T14:00:00,1033A,114.5331,38.0178,石家庄市,世纪公园,细颗粒物(PM2.5),83,97,96,61,58,42,28,10,10,44,60,15,15,1.2,1.3
2023-01-11T14:00:00,1034A,114.509,38.0457,石家庄市,人民会堂,细颗粒物(PM2.5),89,100,101,66,64,54,32,16,16,49,56,13,11,1.2,1.2
2023-01-11T14:00:00,1035A,114.3524,37.8911,石家庄市,封龙山(对照点),细颗粒物(PM2.5),103,89,114,77,63,58,30,40,34,70,55,30,34,1.5,1.5
2023-01-11T14:00:00,1037A,118.131,39.6363,唐山市,雷达站,细颗粒物(PM2.5),107,122,69,80,39,52,14,18,10,,66,14,11,1.3,0.8
2023-01-11T14:00:00,1038A,118.1725,39.6334,唐山市,物资局,,,,76,,41,44,5,15,6,96,67,18,14,,0.9
2023-01-11T14:00:00,1040A,118.1705,39.6506,唐山市,十二中,细颗粒物(PM2.5),94,116,81,70,57,49,10,21,8,89,71,15,12,1.4,1.1
2023-01-11T14:00:00,1041A,118.1869,39.622,唐山市,小山,细颗粒物(PM2.5),113,154,89,85,47,51,8,7,7,94,69,20,16,1.5,1
2023-01-11T14:00:00,1042A,119.5134,39.8207,秦皇岛市,北戴河环保局,细颗粒物(PM2.5),103,125,73,77,40,50,29,19,13,62,55,29,22,1.9,1.7
2023-01-11T14:00:00,1043A,119.7493,40.0116,秦皇岛市,第一关,,,,78,,43,55,31,21,21,37,62,12,20,,1.5
2023-01-11T14:00:00,1044A,119.5897,39.9499,秦皇岛市,监测站,细颗粒物(PM2.5),60,67,68,43,44,51,36,20,20,39,50,22,25,1.0,1.5
2023-01-11T14:00:00,1046A,119.5251,39.9041,秦皇岛市,建设大厦,颗粒物(PM10),71,92,71,23,30,51,44,26,26,46,57,23,26,1.1,1.4
2023-01-11T14:00:00,1048A,114.5302,36.6116,邯郸市,东污水处理厂,细颗粒物(PM2.5),113,126,128,85,89,63,63,33,33,16,44,10,12,0.4,0.5
2023-01-11T14:00:00,1049A,114.4918,36.5713,邯郸市,矿院,细颗粒物(PM2.5),117,133,128,88,96,63,63,28,28,16,43,8,11,0.6,1
2023-01-11T14:00:00,1050A,114.484,36.6133,邯郸市,丛台公园,细颗粒物(PM2.5),119,114,109,90,85,61,61,38,34,17,31,10,11,0.6,0.8
2023-01-11T14:00:00,1051A,115.493,38.8632,保定市,游泳馆,细颗粒物(PM2.5),132,129,94,100,71,76,16,19,11,73,67,18,16,1.2,1
2023-01-11T14:00:00,1052A,115.5213,38.8959,保定市,华电二区,细颗粒物(PM2.5),133,122,83,101,61,66,9,26,7,69,59,12,11,1.4,1.1
2023-01-11T14:00:00,1053A,115.4713,38.9108,保定市,接待中心,颗粒物(PM10),88,125,96,56,63,62,10,12,7,64,53,11,11,1.3,1.1
2023-01-11T14:00:00,1054A,115.4612,38.8416,保定市,地表水厂,,,141,99,69,64,76,24,14,14,,70,16,13,,0.8
2023-01-11T14:00:00,1056A,115.5086,38.8639,保定市,监测站,,,,106,,67,70,5,14,5,,65,,13,1.0,0.8
2023-01-11T14:00:00,1057A,114.8883,40.8336,张家口市,人民公园,细颗粒物(PM2.5),90,120,81,67,47,55,44,38,38,54,35,15,17,1.2,0.9
2023-01-11T14:00:00,1059A,114.8687,40.8042,张家口市,五金库,细颗粒物(PM2.5),104,102,69,78,54,58,44,37,35,,42,19,16,0.9,0.7
2023-01-11T14:00:00,1060A,114.8902,40.762,张家口市,世纪豪园,细颗粒物(PM2.5),113,134,102,85,69,49,36,29,21,62,50,13,10,1.1,1
2023-01-11T14:00:00,1061A,114.8916,40.8661,张家口市,北泵房(对照点),细颗粒物(PM2.5),119,139,93,90,58,63,45,40,40,51,34,17,26,1.3,1.1
2023-01-11T14:00:00,1062A,117.9531,40.9081,承德市,铁路,细颗粒物(PM2.5),74,89,93,54,54,47,24,14,14,48,53,21,19,1.1,1.4
2023-01-11T14:00:00,1063A,117.9392,40.9763,承德市,中国银行,颗粒物(PM10),60,69,82,37,53,44,43,20,20,32,46,14,12,0.8,1.2
2023-01-11T14:00:00,1064A,117.9503,40.928,承德市,开发区,,,78,84,54,52,45,,13,13,51,52,,14,1.2,1.3
2023-01-11T14:00:00,1065A,117.8051,40.9655,承德市,文化中心,细颗粒物(PM2.5),149,206,116,114,61,59,12,7,7,60,50,50,21,3.1,1.3
2023-01-11T14:00:00,1066A,117.9268,41.0026,承德市,离宫(对照点),颗粒物(PM10),53,56,68,36,44,37,37,18,18,28,43,18,21,0.7,1
2023-01-11T14:00:00,1067A,116.6708,39.5111,廊坊市,药材公司,细颗粒物(PM2.5),104,132,95,78,60,69,12,10,10,83,71,17,14,1.1,0.8
2023-01-11T14:00:00,1068A,116.7214,39.5589,廊坊市,开发区,细颗粒物(PM2.5),129,144,107,98,70,70,4,2,2,90,75,19,14,1.3,1.2
2023-01-11T14:00:00,1070A,116.7244,39.5269,廊坊市,北华航天学院,细颗粒物(PM2.5),125,146,107,95,70,69,9,7,7,86,74,21,16,1.0,1
2023-01-11T14:00:00,1071A,116.8842,38.2991,沧州市,沧县城建局,细颗粒物(PM2.5),110,136,124,83,75,68,20,15,15,63,65,29,24,1.2,1.1
2023-01-11T14:00:00,1072A,116.8584,38.3254,沧州市,电视转播站,细颗粒物(PM2.5),98,116,101,73,68,76,23,21,21,63,63,21,18,1.1,1
2023-01-11T14:00:00,1073A,116.8709,38.3228,沧州市,市环保局,颗粒物(PM10),95,139,110,67,60,67,19,14,14,65,69,23,23,1.0,0.8
2023-01-11T14:00:00,1074A,115.6838,37.7541,衡水市,电机北厂,细颗粒物(PM2.5),92,107,106,68,64,42,27,12,12,42,60,14,15,0.7,0.9
2023-01-11T14:00:00,1075A,115.6303,37.7316,衡水市,市监测站,细颗粒物(PM2.5),84,114,107,62,62,44,36,17,16,38,58,19,19,0.8,0.9
2023-01-11T14:00:00,1077A,114.4704,37.0886,邢台市,达活泉,细颗粒物(PM2.5),144,112,104,110,87,37,26,8,8,49,53,14,14,0.9,1.3
2023-01-11T14:00:00,1078A,114.5062,37.0349,邢台市,邢师高专,细颗粒物(PM2.5),97,82,106,72,76,45,40,13,13,35,64,12,11,0.4,0.9
2023-01-11T14:00:00,1079A,114.5237,37.0851,邢台市,路桥公司,细颗粒物(PM2.5),109,95,108,82,77,42,35,9,9,42,64,11,12,0.4,1
2023-01-11T14:00:00,1080A,114.4725,37.0719,邢台市,市环保局,细颗粒物(PM2.5),119,118,131,90,88,40,34,9,9,47,64,10,10,0.7,1.3
2023-01-11T14:00:00,1081A,112.522,37.8873,太原市,尖草坪,细颗粒物(PM2.5),143,162,146,109,91,42,36,17,17,58,76,35,28,1.6,1.4
2023-01-11T14:00:00,1083A,112.434,38.0108,太原市,上兰(对照点),,,,,,,,,,,,,,,,
2023-01-11T14:00:00,1084A,112.469,37.7124,太原市,晋源,细颗粒物(PM2.5),150,174,159,115,101,60,41,17,17,67,79,35,30,1.4,1.6
2023-01-11T14:00:00,1085A,112.5583,37.7394,太原市,小店,细颗粒物(PM2.5),150,171,170,115,101,66,33,13,13,72,81,30,34,1.3,1.6
2023-01-11T14:00:00,1086A,112.5369,37.8692,太原市,桃园,细颗粒物(PM2.5),166,194,160,126,97,46,22,9,9,74,79,48,30,2.2,1.6
2023-01-11T14:00:00,1087A,112.57,37.8195,太原市,坞城,细颗粒物(PM2.5),155,181,156,118,100,70,17,12,12,84,82,43,36,2.1,1.7
2023-01-11T14:00:00,1088A,112.549,37.9854,太原市,南寨,细颗粒物(PM2.5),140,143,145,107,91,34,29,14,14,60,66,24,24,1.5,1.5
2023-01-11T14:00:00,1089A,112.4783,37.7778,太原市,金胜(停运211219),,,,,,,,,,,,,,,,
2023-01-11T14:00:00,1090A,111.6507,40.7517,呼和浩特市,呼市一监,细颗粒物(PM2.5),123,117,128,93,98,68,54,16,16,46,79,22,22,1.1,1.5
2023-01-11T14:00:00,1091A,111.6572,40.8033,呼和浩特市,小召,,,,130,,85,65,34,14,14,54,87,,18,1.1,1.7
2023-01-11T14:00:00,1094A,111.7516,40.8369,呼和浩特市,如意水处理厂,细颗粒物(PM2.5),127,178,161,96,88,60,21,11,11,113,98,28,20,1.6,1.5
2023-01-11T14:00:00,1095A,111.7276,40.8062,呼和浩特市,二十九中,细颗粒物(PM2.5),125,148,135,95,90,67,29,14,14,71,79,22,20,1.2,1.3
2023-01-11T14:00:00,1096A,111.5512,40.7866,呼和浩特市,工大金川校区,细颗粒物(PM2.5),137,152,154,104,90,45,19,8,8,82,74,30,20,1.5,1.3
2023-01-11T14:00:00,1097A,111.717,40.7612,呼和浩特市,化肥厂生活区,细颗粒物(PM2.5),119,150,150,90,93,65,54,25,25,57,78,22,22,1.2,1.6
2023-01-11T14:00:00,1098A,123.6836,41.9339,沈阳市,森林路(对照点),,,,,,,,,,,,,,,,
2023-01-11T14:00:00,1099A,123.505,41.7406,沈阳市,浑南东路,"颗粒物(PM10),细颗粒物(PM2.5)",68,86,58,49,33,73,73,47,47,25,36,21,21,0.8,1.1
2023-01-11T14:00:00,1100A,123.4231,41.6989,沈阳市,新秀街,颗粒物(PM10),105,159,70,70,32,72,72,53,53,30,33,18,18,1.0,1.1
2023-01-11T14:00:00,1102A,123.5903,41.8411,沈阳市,东陵路,颗粒物(PM10),63,76,63,43,37,74,74,49,49,26,43,15,21,0.7,1.2
2023-01-11T14:00:00,1103A,123.4264,41.8467,沈阳市,陵东街,颗粒物(PM10),87,123,60,61,29,67,67,47,47,40,44,20,20,1.0,1.1
2023-01-11T14:00:00,1104A,123.4114,41.7653,沈阳市,文化路,颗粒物(PM10),106,161,76,67,39,71,71,55,55,32,35,23,22,0.9,1
2023-01-11T14:00:00,1105A,123.4678,41.7867,沈阳市,小河沿,颗粒物(PM10),97,144,62,60,30,73,73,47,47,29,36,17,19,0.9,1
2023-01-11T14:00:00,1106A,123.4017,41.7972,沈阳市,太原街,细颗粒物(PM2.5),97,139,88,72,44,60,60,51,51,39,43,22,22,0.9,1.1
2023-01-11T14:00:00,1108A,123.3783,41.9228,沈阳市,京沈街,颗粒物(PM10),145,240,101,66,36,68,68,50,50,36,38,22,22,1.0,1
2023-01-11T14:00:00,1109A,121.612,38.9741,大连市,甘井子,细颗粒物(PM2.5),68,52,44,49,38,59,59,45,30,24,39,15,18,0.8,0.7
2023-01-11T14:00:00,1110A,121.565,38.9511,大连市,周水子,细颗粒物(PM2.5),57,62,51,40,30,65,54,44,27,28,49,17,25,0.9,0.8
2023-01-11T14:00:00,1111A,121.5637,38.8845,大连市,星海三站,,,,,,,,,,,,,,,,
2023-01-11T14:00:00,1112A,121.6302,38.9117,大连市,青泥洼桥,,47,47,31,31,24,72,63,51,41,29,33,13,15,0.7,0.7
2023-01-11T14:00:00,1113A,121.6251,38.8638,大连市,傅家庄,,,40,28,31,22,73,62,47,43,22,24,,9,0.6,0.7
2023-01-11T14:00:00,1114A,121.5213,38.8661,大连市,七贤岭,,48,46,41,33,23,80,66,40,34,25,39,12,9,0.6,0.7
2023-01-11T14:00:00,1115A,121.2529,38.8061,大连市,旅顺,,,50,36,37,27,67,67,46,43,,26,12,9,0.7,0.5
2023-01-11T14:00:00,1116A,121.7485,39.1311,大连市,金州,细颗粒物(PM2.5),60,61,64,43,38,67,52,40,30,36,50,17,18,0.6,0.7
2023-01-11T14:00:00,1117A,121.7811,39.0496,大连市,开发区,细颗粒物(PM2.5),59,47,34,42,28,63,49,52,27,40,48,11,13,0.6,0.6
2023-01-11T14:00:00,1118A,121.9762,39.0631,大连市,双D港,,45,42,33,31,24,70,58,45,34,33,32,8,7,0.9,0.9
2023-01-11T14:00:00,1119A,125.3325,43.9166,长春市,食品厂,,,,69,,36,65,64,52,52,26,41,9,16,,0.8
2023-01-11T14:00:00,1120A,125.2863,43.9027,长春市,客车厂,颗粒物(PM10),51,52,66,28,36,57,54,43,43,36,43,14,19,0.6,0.8
2023-01-11T14:00:00,1121A,125.2841,43.8463,长春市,邮电学院,,41,41,62,26,30,70,67,50,50,28,39,14,20,0.6,0.8
2023-01-11T14:00:00,1122A,125.3716,43.8772,长春市,劳动公园,,40,40,58,25,28,67,65,56,56,28,39,15,19,0.6,0.5
2023-01-11T14:00:00,1123A,125.3297,43.8805,长春市,园林处,,43,43,62,28,30,67,66,55,55,26,38,12,17,0.6,0.8
2023-01-11T14:00:00,1124A,125.4605,43.79,长春市,净月潭,,41,41,47,15,20,83,82,66,66,11,17,7,8,0.5,0.8
2023-01-11T14:00:00,1125A,125.7194,43.515,长春市,甩湾子(对照点),,,,,,,,,,,,,,,,
2023-01-11T14:00:00,1126A,125.3863,43.8447,长春市,经开区环卫处,,38,37,55,26,29,71,70,54,54,25,38,17,17,0.6,0.8
2023-01-11T14:00:00,1127A,125.245,43.7783,长春市,高新区管委会,,49,49,52,16,29,77,77,61,61,24,34,12,11,0.4,0.8
2023-01-11T14:00:00,1128A,125.1761,43.8325,长春市,岱山公园,,44,44,56,30,32,68,64,50,50,27,38,12,11,0.7,0.8
2023-01-11T14:00:00,1129A,126.5422,45.755,哈尔滨市,岭北(对照点),细颗粒物(PM2.5),62,69,94,44,52,90,67,54,54,38,40,30,28,0.5,0.7
2023-01-11T14:00:00,1130A,126.561,45.8167,哈尔滨市,松北商大,细颗粒物(PM2.5),64,67,79,46,50,72,72,45,45,32,40,14,16,0.8,1
2023-01-11T14:00:00,1131A,126.979,45.5419,哈尔滨市,阿城会宁,颗粒物(PM10),55,59,64,32,40,73,72,58,58,25,26,16,11,0.6,0.7
2023-01-11T14:00:00,1132A,126.599,45.7222,哈尔滨市,南岗学府路,,,76,87,45,48,68,68,43,43,37,41,,22,0.6,0.7
2023-01-11T14:00:00,1133A,126.689,45.7733,哈尔滨市,太平宏伟公园,颗粒物(PM10),66,81,88,44,43,68,68,47,47,34,45,18,23,0.8,0.9
2023-01-11T14:00:00,1134A,126.635,45.7667,哈尔滨市,道外承德广场,颗粒物(PM10),63,76,89,44,49,66,64,46,46,34,44,17,20,0.9,1.1
2023-01-11T14:00:00,1135A,126.685,45.7319,哈尔滨市,香坊红旗大街,细颗粒物(PM2.5),75,74,85,55,60,59,59,40,40,39,55,32,48,1.0,1.1
2023-01-11T14:00:00,1136A,126.6411,45.7258,哈尔滨市,动力和平路,细颗粒物(PM2.5),69,67,84,50,52,61,61,41,41,33,46,21,20,0.9,1
2023-01-11T14:00:00,1137A,126.593,45.7478,哈尔滨市,道里建国路,细颗粒物(PM2.5),74,71,92,54,58,52,52,36,36,43,54,43,30,0.8,0.2
2023-01-11T14:00:00,1138A,126.615,45.61,哈尔滨市,平房东轻厂,细颗粒物(PM2.5),58,62,78,41,43,69,69,51,51,26,36,16,15,1.2,0.4
2023-01-11T14:00:00,1139A,126.595,45.9855,哈尔滨市,呼兰师专,,,77,90,67,58,77,77,50,50,22,31,,20,1.0,1.1
2023-01-11T14:00:00,1140A,126.6206,45.6842,哈尔滨市,省农科院,细颗粒物(PM2.5),65,70,87,47,48,69,69,50,50,29,42,25,28,0.6,0.9
2023-01-11T14:00:00,1141A,121.4,31.238,上海市,普陀,,41,41,41,26,17,103,103,64,64,20,49,4,6,0.6,0.7
2023-01-11T14:00:00,1142A,121.478,31.2036,上海市,十五厂,,,42,34,,18,81,80,49,49,26,46,10,9,0.6,0.6
2023-01-11T14:00:00,1143A,121.467,31.3008,上海市,虹口,,46,46,43,22,19,84,80,44,44,23,51,8,9,0.5,0.5
2023-01-11T14:00:00,1144A,121.412,31.1654,上海市,徐汇上师大,,49,49,49,22,16,83,83,50,50,24,49,8,8,0.6,0.7
2023-01-11T14:00:00,1145A,121.536,31.2659,上海市,杨浦四漂,,44,44,44,24,22,76,72,45,45,36,60,6,6,0.6,0.6
2023-01-11T14:00:00,1147A,121.425,31.2261,上海市,静安监测站,,49,49,42,20,18,90,90,60,60,24,48,7,7,0.4,0.4
2023-01-11T14:00:00,1148A,121.703,31.1907,上海市,浦东川沙,,39,39,43,20,16,82,73,56,56,21,36,5,5,0.5,0.4
2023-01-11T14:00:00,1149A,121.533,31.2284,上海市,浦东新区监测站,,41,41,40,24,17,77,76,38,38,18,46,5,5,0.6,0.7
2023-01-11T14:00:00,1150A,121.577,31.2071,上海市,浦东张江,,41,41,39,17,16,82,77,47,47,18,47,4,4,0.6,0.5
2023-01-11T14:00:00,1151A,118.8086,32.1065,南京市,迈皋桥,"颗粒物(PM10),细颗粒物(PM2.5)",73,96,72,53,30,85,85,44,44,32,57,3,4,0.3,0.5
2023-01-11T14:00:00,1152A,118.7538,32.0551,南京市,草场门,,,58,57,31,29,81,81,40,40,26,43,,9,0.5,0.6
2023-01-11T14:00:00,1153A,118.7794,32.0745,南京市,山西路,颗粒物(PM10),58,66,61,36,30,91,91,54,54,27,41,4,4,0.3,0.5
2023-01-11T14:00:00,1154A,118.7752,32.0023,南京市,中华门,颗粒物(PM10),58,66,65,39,31,73,73,40,40,30,49,6,5,0.3,0.5
2023-01-11T14:00:00,1155A,118.8109,32.0309,南京市,瑞金路,颗粒物(PM10),60,70,78,27,32,85,85,43,43,22,50,3,3,0.3,0.6
2023-01-11T14:00:00,1156A,118.7997,32.0754,南京市,玄武湖,细颗粒物(PM2.5),59,64,66,42,34,87,87,48,48,16,38,3,4,0.3,0.5
2023-01-11T14:00:00,1157A,118.6414,32.0931,南京市,浦口,颗粒物(PM10),59,67,69,39,31,83,83,41,41,32,54,5,5,0.5,0.6
2023-01-11T14:00:00,1158A,118.7356,31.9996,南京市,奥体中心,颗粒物(PM10),56,61,73,34,36,82,82,44,44,40,54,5,4,0.5,0.7
2023-01-11T14:00:00,1159A,118.9125,32.1028,南京市,仙林大学城,颗粒物(PM10),54,58,58,36,32,85,85,53,53,24,36,5,5,0.7,0.8
2023-01-11T14:00:00,1160A,120.561,31.2472,苏州市,上方山(对照点),,45,45,44,28,23,84,84,37,37,19,46,6,6,0.4,0.7
2023-01-11T14:00:00,1162A,120.591,31.3019,苏州市,彩香,"颗粒物(PM10),细颗粒物(PM2.5)",57,63,51,40,21,93,93,47,47,16,44,6,6,0.6,0.7
2023-01-11T14:00:00,1163A,120.596,31.3264,苏州市,轧钢厂,颗粒物(PM10),59,67,50,32,19,95,95,47,47,20,49,6,5,0.6,0.7
2023-01-11T14:00:00,1164A,120.613,31.2703,苏州市,吴中区,颗粒物(PM10),58,65,54,33,21,102,102,48,48,16,53,6,9,0.5,0.6
2023-01-11T14:00:00,1165A,120.543,31.2994,苏州市,苏州新区,颗粒物(PM10),56,62,49,37,22,81,81,43,43,22,44,6,8,0.5,0.6
2023-01-11T14:00:00,1166A,120.669,31.3097,苏州市,苏州工业园区,颗粒物(PM10),59,68,48,39,21,100,100,49,49,17,44,6,8,0.6,0.7
2023-01-11T14:00:00,1167A,120.641,31.3708,苏州市,相城区,,,68,45,43,19,89,89,41,41,,45,7,7,0.7,0.7
2023-01-11T14:00:00,1168A,120.9098,31.9663,南通市,狼山街道,,46,46,33,30,18,86,83,51,51,24,26,11,7,0.6,0.5
2023-01-11T14:00:00,1169A,120.86,32.0005,南通市,虹桥,颗粒物(PM10),56,62,39,31,16,83,80,59,59,32,29,7,4,0.5,0.5
2023-01-11T14:00:00,1170A,120.87,32.02,南通市,城中,,45,40,35,31,20,95,93,64,64,24,29,9,5,0.3,0.2
2023-01-11T14:00:00,1171A,120.94,31.93,南通市,星湖花园,,,60,37,31,17,87,84,55,55,24,29,,7,0.6,0.5
2023-01-11T14:00:00,1172A,120.81,32.0417,南通市,紫琅学院,颗粒物(PM10),55,60,41,29,16,79,76,50,50,28,28,7,4,0.6,0.5
2023-01-11T14:00:00,1173A,119.176,34.5885,连云港市,市环境监测站,,31,31,31,12,14,77,77,63,63,15,24,7,9,0.2,0.1
2023-01-11T14:00:00,1177A,117.179,34.2761,徐州市,黄河新村,细颗粒物(PM2.5),72,85,69,52,43,81,80,30,30,19,37,10,9,0.8,1
2023-01-11T14:00:00,1178A,117.1918,34.2384,徐州市,淮塔,"颗粒物(PM10),细颗粒物(PM2.5)",73,95,87,53,51,89,89,31,31,22,44,8,7,0.9,1
2023-01-11T14:00:00,1180A,117.256,34.2153,徐州市,新城区,颗粒物(PM10),68,85,76,44,50,87,87,33,33,18,36,10,10,0.9,1.1
2023-01-11T14:00:00,1181A,117.244,34.2911,徐州市,桃园路,颗粒物(PM10),65,80,82,41,46,89,89,32,32,14,38,8,7,0.9,1
2023-01-11T14:00:00,1182A,117.2933,34.2778,徐州市,农科院,颗粒物(PM10),68,85,77,44,44,89,89,32,32,10,38,10,10,0.8,0.8
2023-01-11T14:00:00,1186A,119.389,32.3761,扬州市,邗江监测站,颗粒物(PM10),58,65,54,40,29,99,87,49,49,39,40,9,8,0.5,0.5
2023-01-11T14:00:00,1188A,120.269,31.4867,无锡市,雪浪,颗粒物(PM10),52,53,44,27,18,79,79,43,43,22,40,7,7,0.6,0.6
2023-01-11T14:00:00,1189A,120.275,31.6219,无锡市,黄巷,颗粒物(PM10),56,62,50,22,18,80,76,44,44,29,47,8,8,0.2,0.3
2023-01-11T14:00:00,1190A,120.294,31.56,无锡市,曹张,,48,48,42,19,17,79,76,46,46,21,31,8,9,0.5,0.6
2023-01-11T14:00:00,1191A,120.242,31.5031,无锡市,漆塘,,48,48,36,24,18,87,84,52,52,24,32,6,9,0.5,0.5
2023-01-11T14:00:00,1192A,120.3489,31.5863,无锡市,东亭,颗粒物(PM10),52,53,42,24,18,71,71,39,39,34,44,10,8,1.0,0.9
2023-01-11T14:00:00,1193A,120.354,31.5475,无锡市,旺庄,颗粒物(PM10),53,56,44,27,19,72,72,40,40,24,38,4,3,0.6,0.6
2023-01-11T14:00:00,1194A,120.245,31.5631,无锡市,荣巷,,46,46,39,17,14,82,81,50,50,28,42,10,10,0.6,0.7
2023-01-11T14:00:00,1195A,120.299,31.6817,无锡市,堰桥,颗粒物(PM10),52,53,45,24,19,72,70,48,48,32,33,6,5,0.6,0.7
2023-01-11T14:00:00,1196A,119.9633,31.762,常州市,市监测站,颗粒物(PM10),52,53,50,25,26,103,103,54,54,17,37,6,5,0.5,0.7
2023-01-11T14:00:00,1200A,119.9468,31.7069,常州市,武进监测站,颗粒物(PM10),52,54,48,25,24,110,109,62,62,16,39,7,10,0.5,0.9
2023-01-11T14:00:00,1201A,119.9255,31.9087,常州市,安家,细颗粒物(PM2.5),52,45,55,36,38,96,96,50,50,22,44,9,8,0.8,0.9
2023-01-11T14:00:00,1203A,119.6707,32.1875,镇江市,新区办事处,细颗粒物(PM2.5),57,61,58,40,31,91,90,44,44,34,44,7,6,0.4,0.4
2023-01-11T14:00:00,1204A,119.4974,32.1968,镇江市,职教中心,颗粒物(PM10),58,66,61,35,34,103,103,44,44,26,41,5,5,0.5,0.6
2023-01-11T14:00:00,1205A,119.4303,32.1328,镇江市,丹徒区监测站,颗粒物(PM10),60,70,66,30,34,112,112,53,53,20,39,3,3,0.4,0.6
2023-01-11T14:00:00,1206A,119.905,32.4878,泰州市,公园路,颗粒物(PM10),52,53,41,24,24,83,75,60,60,30,21,8,5,0.9,0.7
2023-01-11T14:00:00,1207A,119.9189,32.4625,泰州市,莲花,颗粒物(PM10),55,59,47,31,32,88,79,56,56,30,22,10,7,0.8,0.7
2023-01-11T14:00:00,1209A,119.888,32.4639,泰州市,留学生创业园,颗粒物(PM10),52,53,53,32,27,85,76,57,57,29,20,10,7,0.8,0.6
2023-01-11T14:00:00,1210A,119.036,33.5981,淮安市,钵池山,,41,41,48,20,35,85,85,52,52,13,28,6,8,0.5,0.6
2023-01-11T14:00:00,1211A,119.007,33.575,淮安市,北京南路,,46,46,55,26,27,82,82,48,48,17,26,8,7,0.7,0.7
2023-01-11T14:00:00,1212A,118.989,33.6067,淮安市,市监测站,,44,44,43,19,23,85,81,58,55,22,26,8,6,0.7,0.6
2023-01-11T14:00:00,1213A,119.135,33.5039,淮安市,楚州区监测站,,39,39,48,26,32,82,81,45,45,16,27,9,7,0.7,0.7
2023-01-11T14:00:00,1214A,119.0186,33.6297,淮安市,淮阴区监测站,颗粒物(PM10),53,55,55,23,36,83,80,46,46,18,29,9,7,0.5,0.5
2023-01-11T14:00:00,1215A,120.118,33.4022,盐城市,盐城电厂,,,34,42,17,20,95,95,63,54,,33,,5,0.5,0.5
2023-01-11T14:00:00,1216A,120.156,33.3942,盐城市,市监测站,,28,28,28,17,14,89,89,52,52,10,27,11,9,0.3,0.4
2023-01-11T14:00:00,1218A,120.2144,33.38,盐城市,开发区管委会,,32,26,30,22,13,91,91,53,53,15,26,5,7,0.4,0.4
2023-01-11T14:00:00,1220A,118.293,33.9528,宿迁市,宿迁学院,细颗粒物(PM2.5),63,62,62,45,39,96,96,41,41,16,29,8,4,0.4,0.4
2023-01-11T14:00:00,1221A,118.2442,33.9592,宿迁市,宿迁中学,颗粒物(PM10),60,69,63,30,31,91,91,50,50,21,30,9,7,0.5,0.6
2023-01-11T14:00:00,1223A,120.2072,30.2111,杭州市,滨江,颗粒物(PM10),67,84,50,40,20,70,61,51,23,47,41,11,7,0.4,0.3
2023-01-11T14:00:00,1224A,120.0633,30.2747,杭州市,西溪,颗粒物(PM10),61,71,40,38,22,75,70,23,23,45,33,9,8,0.4,0.3
2023-01-11T14:00:00,1226A,120.3461,30.3153,杭州市,下沙,细颗粒物(PM2.5),68,80,50,49,24,96,96,50,50,30,46,7,6,0.5,0.5
2023-01-11T14:00:00,1227A,120.1269,30.2456,杭州市,卧龙桥,颗粒物(PM10),58,66,38,34,19,76,71,28,28,40,31,9,6,0.6,0.5
2023-01-11T14:00:00,1228A,120.1903,30.2692,杭州市,浙江农大,颗粒物(PM10),57,63,50,39,27,77,65,33,33,39,40,12,8,0.9,0.8
2023-01-11T14:00:00,1230A,120.1197,30.3119,杭州市,和睦小学,,,75,61,42,32,72,70,26,26,42,51,7,7,,0.5
2023-01-11T14:00:00,1231A,120.3019,30.4183,杭州市,临平镇,颗粒物(PM10),57,63,52,34,21,125,116,57,57,18,31,8,7,0.5,0.5
2023-01-11T14:00:00,1232A,120.2697,30.1819,杭州市,城厢镇,颗粒物(PM10),60,70,52,42,21,76,71,48,33,43,42,9,6,0.6,0.5
2023-01-11T14:00:00,1233A,120.0883,30.1808,杭州市,云栖,细颗粒物(PM2.5),60,61,35,43,15,68,66,34,34,36,28,6,5,0.6,0.5
2023-01-11T14:00:00,1234A,121.8358,29.911,宁波市,区环保大楼,,,74,38,36,17,65,38,18,16,71,53,23,9,,0.6
2023-01-11T14:00:00,1235A,121.56,29.82,宁波市,万里学院,颗粒物(PM10),54,58,54,32,22,89,89,38,33,28,47,8,8,0.5,0.4
2023-01-11T14:00:00,1236A,121.713,29.9572,宁波市,龙赛医院,颗粒物(PM10),62,73,41,33,14,80,69,30,30,62,40,14,10,0.7,0.6
2023-01-11T14:00:00,1239A,121.633,29.7733,宁波市,钱湖水厂,,39,39,36,21,18,92,92,41,41,20,34,5,5,0.5,0.5
2023-01-11T14:00:00,1240A,121.5856,29.8635,宁波市,太古小学,颗粒物(PM10),58,65,50,30,17,82,74,44,28,32,45,9,8,0.5,0.4
2023-01-11T14:00:00,1241A,121.524,29.8674,宁波市,市环境监测中心,颗粒物(PM10),51,52,41,20,14,84,74,39,26,32,40,6,6,0.4,0.3
2023-01-11T14:00:00,1242A,120.634,28.0089,温州市,瓯海,,44,44,70,24,39,88,70,37,37,25,39,7,7,0.4,0.4
2023-01-11T14:00:00,1243A,120.6748,27.9939,温州市,南浦,,44,44,69,23,45,83,78,42,42,23,36,5,6,0.2,0.4
2023-01-11T14:00:00,1244A,120.76,27.9747,温州市,龙湾,,47,47,66,21,31,87,74,42,42,28,41,6,6,0.2,0.3
2023-01-11T14:00:00,1245A,120.6709,28.0167,温州市,市站,,44,44,70,21,42,89,80,41,41,21,39,6,6,0.5,0.6
2023-01-11T14:00:00,1247A,120.6053,29.9928,绍兴市,城东开发委,颗粒物(PM10),54,58,49,32,22,84,70,44,44,34,33,5,4,0.5,0.5
2023-01-11T14:00:00,1250A,120.0751,30.8669,湖州市,城西水厂,细颗粒物(PM2.5),64,65,48,46,26,102,102,48,48,36,46,6,5,0.5,0.6
2023-01-11T14:00:00,1252A,120.7436,30.778,嘉兴市,清河小学,,41,41,43,23,19,110,110,50,50,12,39,6,6,0.5,0.6
2023-01-11T14:00:00,1253A,120.726,30.7478,嘉兴市,嘉兴学院,,,75,46,23,20,103,103,48,48,,43,8,8,0.3,0.6
2023-01-11T14:00:00,1255A,121.273,28.6459,台州市,黄岩环保大楼,,,54,43,17,15,94,88,56,56,17,24,8,8,,0.4
2023-01-11T14:00:00,1256A,121.419,28.6542,台州市,台州环保大楼,,39,39,43,24,16,97,97,57,57,12,28,8,9,0.4,0.4
2023-01-11T14:00:00,1257A,121.377,28.5773,台州市,路桥田洋王,,48,48,47,31,20,90,90,54,54,15,27,6,7,0.4,0.4
2023-01-11T14:00:00,1258A,122.122,30.0203,舟山市,定海檀枫,,32,32,32,13,11,88,88,61,47,20,24,5,4,0.3,0.3
2023-01-11T14:00:00,1259A,122.3094,29.9558,舟山市,普陀东港,,33,33,32,18,15,88,78,64,61,14,16,5,5,0.4,0.5
2023-01-11T14:00:00,1260A,122.19,29.9944,舟山市,临城新区,,,36,32,25,11,84,76,59,50,33,24,,5,0.1,0.3
2023-01-11T14:00:00,1262A,119.647,29.077,金华市,十五中,颗粒物(PM10),81,112,71,51,36,94,94,51,51,23,30,5,5,0.5,0.5
2023-01-11T14:00:00,1263A,119.686,29.1029,金华市,监测站,细颗粒物(PM2.5),82,70,70,60,40,98,98,52,52,22,38,6,5,0.5,0.7
2023-01-11T14:00:00,1264A,118.8692,28.9398,衢州市,环保大楼,细颗粒物(PM2.5),75,61,91,55,55,107,90,49,49,20,30,5,5,0.5,0.6
2023-01-11T14:00:00,1265A,118.8709,28.9666,衢州市,实验学校,,,78,87,57,56,112,93,56,56,,20,6,7,0.5,0.6
2023-01-11T14:00:00,1266A,118.8621,28.9808,衢州市,衢州学院,细颗粒物(PM2.5),72,74,88,52,57,113,94,51,51,12,24,5,4,0.6,0.6
2023-01-11T14:00:00,1267A,119.914,28.4514,丽水市,监测站大楼,颗粒物(PM10),57,63,85,30,65,95,87,53,53,12,19,9,8,0.5,0.8
2023-01-11T14:00:00,1268A,119.93,28.4586,丽水市,莲都小学,颗粒物(PM10),51,51,101,33,73,103,95,56,56,16,20,8,7,0.5,0.7
2023-01-11T14:00:00,1269A,119.879,28.4231,丽水市,余庄前,颗粒物(PM10),56,61,94,34,60,98,88,45,45,16,22,7,7,0.5,0.6
2023-01-11T14:00:00,1270A,117.1959,31.7848,合肥市,明珠广场,细颗粒物(PM2.5),77,100,110,56,57,86,86,33,33,30,55,6,5,0.7,0.9
2023-01-11T14:00:00,1271A,117.3072,31.8764,合肥市,三里街,细颗粒物(PM2.5),104,117,94,78,57,62,62,21,21,45,64,15,8,0.7,0.9
2023-01-11T14:00:00,1272A,117.2588,31.8707,合肥市,琥珀山庄,细颗粒物(PM2.5),85,114,98,63,52,81,81,32,32,34,52,11,10,0.7,0.8
2023-01-11T14:00:00,1273A,117.1604,31.9052,合肥市,董铺水库(对照点),"颗粒物(PM10),细颗粒物(PM2.5)",79,107,97,58,49,85,85,36,36,23,41,4,4,0.6,0.6
2023-01-11T14:00:00,1274A,117.25,31.8571,合肥市,长江中路,细颗粒物(PM2.5),94,112,102,70,58,77,77,27,27,30,54,12,11,0.8,0.9
2023-01-11T14:00:00,1275A,117.266,31.9436,合肥市,庐阳区,颗粒物(PM10),86,122,107,63,51,68,68,26,26,38,63,10,9,0.6,0.7
2023-01-11T14:00:00,1276A,117.336,31.8586,合肥市,瑶海区,细颗粒物(PM2.5),89,114,108,66,56,70,70,26,26,32,59,9,8,0.8,1
2023-01-11T14:00:00,1277A,117.3027,31.7964,合肥市,包河区,细颗粒物(PM2.5),83,102,120,61,61,80,80,33,33,30,58,8,12,0.7,1
2023-01-11T14:00:00,1278A,117.2776,31.7385,合肥市,滨湖新区,颗粒物(PM10),70,90,95,48,47,89,89,37,37,25,62,6,6,0.6,0.7
2023-01-11T14:00:00,1279A,117.1318,31.8403,合肥市,高新区,颗粒物(PM10),75,100,98,53,54,86,86,35,35,30,56,8,8,0.7,0.8
2023-01-11T14:00:00,1280A,119.3903,26.0543,福州市,鼓山(对照点),,,,,,,,,,,,,,,,
2023-01-11T14:00:00,1282A,119.2681,26.0504,福州市,师大,,26,26,34,18,27,61,37,57,23,25,30,4,4,0.6,0.6
2023-01-11T14:00:00,1283A,119.2984,26.1028,福州市,五四北路,,19,16,29,13,27,68,41,51,26,22,24,2,2,0.7,0.7
2023-01-11T14:00:00,1284A,119.2648,26.0768,福州市,杨桥西路,,,19,31,19,28,63,40,57,24,20,23,,3,0.5,0.5
2023-01-11T14:00:00,1285A,119.317,26.0746,福州市,紫阳,,19,19,33,9,25,73,45,54,24,21,26,2,2,0.6,0.6
2023-01-11T14:00:00,1286A,118.1608,24.8169,厦门市,溪东(对照点),,,,,,,,,,,,,,,,
2023-01-11T14:00:00,1287A,118.1514,24.4767,厦门市,洪文,,20,18,24,10,15,68,63,59,44,24,30,1,1,0.6,0.6
2023-01-11T14:00:00,1288A,118.0661,24.4444,厦门市,鼓浪屿,,18,14,26,12,22,70,56,58,25,33,41,3,3,0.6,0.6
2023-01-11T14:00:00,1290A,115.8931,28.6843,南昌市,省外办,细颗粒物(PM2.5),117,129,172,88,112,122,102,56,56,22,36,14,10,1.0,1.1
2023-01-11T14:00:00,1291A,115.8886,28.7003,南昌市,省林业公司,细颗粒物(PM2.5),113,122,168,85,115,117,93,46,46,31,45,10,7,1.2,1.4
2023-01-11T14:00:00,1292A,115.8126,28.7442,南昌市,林科所,细颗粒物(PM2.5),107,112,169,80,117,123,107,52,52,15,42,10,7,0.7,0.9
2023-01-11T14:00:00,1294A,115.8518,28.687,南昌市,建工学校,细颗粒物(PM2.5),117,141,171,88,104,125,102,68,43,26,36,13,9,1.0,1.3
2023-01-11T14:00:00,1295A,115.8921,28.6424,南昌市,象湖,细颗粒物(PM2.5),114,123,141,86,116,124,93,57,50,26,32,13,8,1.3,1.2
2023-01-11T14:00:00,1296A,115.7423,28.7996,南昌市,武术学校(对照点),细颗粒物(PM2.5),98,62,74,73,72,120,99,52,52,11,6,10,7,0.6,0.8
2023-01-11T14:00:00,1298A,115.9314,28.6842,南昌市,省站,颗粒物(PM10),131,211,191,92,118,129,102,54,54,15,26,19,10,1.1,1.1
2023-01-11T14:00:00,1299A,116.9862,36.6114,济南市,科干所,颗粒物(PM10),65,80,79,39,40,87,87,46,46,18,38,10,18,0.5,0.6
2023-01-11T14:00:00,1300A,116.9376,36.665,济南市,农科所,颗粒物(PM10),67,83,110,34,52,76,76,19,19,24,63,16,30,0.6,1.2
2023-01-11T14:00:00,1301A,117.1265,36.6734,济南市,开发区,颗粒物(PM10),61,71,77,34,42,67,57,33,33,36,54,13,13,0.7,0.9
2023-01-11T14:00:00,1303A,117.0624,36.6868,济南市,省种子仓库,颗粒物(PM10),65,80,99,41,50,72,54,18,18,28,53,11,14,0.4,1.2
2023-01-11T14:00:00,1304A,116.9489,36.6447,济南市,机床二厂,颗粒物(PM10),77,103,130,46,63,85,85,28,28,19,61,18,50,0.8,1.4
2023-01-11T14:00:00,1305A,117.0495,36.663,济南市,市监测站,颗粒物(PM10),67,83,84,36,40,75,48,17,17,63,72,12,12,0.7,0.9
2023-01-11T14:00:00,1306A,116.7675,36.5484,济南市,长清党校,,,85,73,49,44,77,,46,46,25,56,8,11,1.0,1
2023-01-11T14:00:00,1307A,120.6659,36.2403,青岛市,仰口(对照点),,27,12,22,9,17,86,86,74,72,21,17,2,2,0.5,0.4
2023-01-11T14:00:00,1310A,120.4134,36.0658,青岛市,市南区东部子站,,24,12,24,5,13,81,76,76,59,11,19,7,8,0.4,0.5
2023-01-11T14:00:00,1311A,120.3664,36.1032,青岛市,四方区子站,,23,17,30,2,14,72,72,48,39,4,28,6,7,0.5,0.6
2023-01-11T14:00:00,1312A,120.2994,36.054,青岛市,市南区西部子站,,26,9,28,7,14,86,83,79,45,19,36,7,9,0.5,0.6
2023-01-11T14:00:00,1313A,120.4581,36.0858,青岛市,崂山区子站,,28,14,20,5,8,88,88,68,68,12,26,7,7,0.2,0.3
2023-01-11T14:00:00,1314A,120.1983,35.9608,青岛市,黄岛区子站,,28,7,26,7,16,88,88,64,60,6,27,4,6,0.4,0.5
2023-01-11T14:00:00,1315A,120.3999,36.3083,青岛市,城阳区子站,,27,27,45,12,22,76,76,41,36,18,46,6,7,0.4,1
2023-01-11T14:00:00,1316A,113.69031,34.76122,郑州市,烟厂,细颗粒物(PM2.5),186,161,92,140,81,70,58,62,61,34,35,4,5,0.6,0.4
2023-01-11T14:00:00,1317A,113.65724,34.77134,郑州市,郑纺机,细颗粒物(PM2.5),172,147,89,130,74,76,60,61,60,29,30,9,10,1.2,1
2023-01-11T14:00:00,1318A,113.67526,34.80246,郑州市,银行学校,细颗粒物(PM2.5),190,142,89,143,77,75,66,66,65,27,33,7,8,0.9,0.6
2023-01-11T14:00:00,1319A,113.56746,34.81334,郑州市,供水公司,细颗粒物(PM2.5),160,122,85,122,65,71,71,60,60,28,38,4,5,0.8,0.6
2023-01-11T14:00:00,1320A,113.7329,34.7178,郑州市,经开区管委,细颗粒物(PM2.5),185,162,105,139,88,80,57,60,60,26,43,6,7,0.7,0.6
2023-01-11T14:00:00,1321A,113.73961,34.77172,郑州市,四十七中,细颗粒物(PM2.5),195,157,98,146,80,71,57,59,58,26,35,5,6,0.9,0.7
2023-01-11T14:00:00,1322A,113.60532,34.74838,郑州市,市监测站,细颗粒物(PM2.5),178,152,94,134,73,75,68,67,66,23,23,5,6,0.8,0.5
2023-01-11T14:00:00,1323A,113.64164,34.7525,郑州市,河医大,细颗粒物(PM2.5),178,156,93,134,76,71,56,60,59,28,27,2,3,1.0,0.8
2023-01-11T14:00:00,1324A,113.51488,34.91089,郑州市,岗李水库(对照点),,,,,,,,,,,,,,,,
2023-01-11T14:00:00,1325A,114.3677,30.5584,武汉市,东湖梨园,细颗粒物(PM2.5),108,114,153,81,110,100,100,43,43,35,48,11,10,1.2,1.7
2023-01-11T14:00:00,1326A,114.2529,30.558,武汉市,汉阳月湖,细颗粒物(PM2.5),138,,156,105,117,75,75,29,29,42,53,8,7,1.2,1.6
2023-01-11T14:00:00,1327A,114.282,30.6189,武汉市,汉口花桥,,,,137,,94,82,82,34,34,36,36,9,7,1.1,1.2
2023-01-11T14:00:00,1328A,114.3025,30.5332,武汉市,武昌紫阳,细颗粒物(PM2.5),107,116,155,80,120,100,100,40,40,30,52,11,13,1.3,2.3
2023-01-11T14:00:00,1329A,114.3646,30.6217,武汉市,青山钢花,细颗粒物(PM2.5),104,105,137,78,100,108,108,46,46,32,48,13,13,1.1,1.2
2023-01-11T14:00:00,1330A,114.1566,30.4825,武汉市,沌口新区,细颗粒物(PM2.5),107,111,149,80,103,74,74,38,38,48,74,12,12,0.9,1.4
2023-01-11T14:00:00,1331A,114.3014,30.5944,武汉市,汉口江滩,细颗粒物(PM2.5),114,114,134,86,96,99,89,40,40,41,40,11,9,1.3,1.3
2023-01-11T14:00:00,1333A,114.135,30.6319,武汉市,吴家山,细颗粒物(PM2.5),102,136,143,76,98,84,79,34,34,58,56,10,7,1.2,1.2
2023-01-11T14:00:00,1334A,113.8454,30.2917,武汉市,沉湖七壕(对照点),颗粒物(PM10),91,131,143,67,74,104,104,48,48,21,46,12,9,1.0,1.3
2023-01-11T14:00:00,1335A,113.0833,28.2325,长沙市,经开区环保局,细颗粒物(PM2.5),143,134,259,109,222,113,109,48,48,30,61,4,4,1.0,1.5
2023-01-11T14:00:00,1336A,112.8872,28.2189,长沙市,高开区环保局,细颗粒物(PM2.5),138,116,254,105,224,123,120,54,54,22,56,8,8,0.9,1.5
2023-01-11T14:00:00,1337A,113.0792,28.2053,长沙市,马坡岭,细颗粒物(PM2.5),140,161,269,107,225,123,123,46,46,20,58,7,8,0.7,1.1
2023-01-11T14:00:00,1338A,112.9394,28.19,长沙市,湖南师范大学,细颗粒物(PM2.5),158,145,251,120,225,118,118,64,64,25,37,5,5,1.0,1.4
2023-01-11T14:00:00,1339A,113.0178,28.1322,长沙市,雨花区环保局,细颗粒物(PM2.5),132,128,251,100,214,121,121,54,54,23,53,,3,0.5,0.9
2023-01-11T14:00:00,1340A,112.9792,28.2597,长沙市,伍家岭,细颗粒物(PM2.5),176,254,291,133,215,120,111,40,40,43,52,6,6,1.3,1.6
2023-01-11T14:00:00,1341A,113.0014,28.1944,长沙市,火车新站,细颗粒物(PM2.5),163,155,258,124,220,127,118,80,62,31,52,6,7,1.0,1.4
2023-01-11T14:00:00,1342A,112.9844,28.1178,长沙市,天心区环保局,细颗粒物(PM2.5),175,165,262,132,210,124,117,58,58,34,54,8,8,0.5,1
2023-01-11T14:00:00,1343A,112.8908,28.1308,长沙市,湖南中医药大学,细颗粒物(PM2.5),158,174,272,120,228,124,124,44,44,25,53,5,5,1.0,1.5
2023-01-11T14:00:00,1344A,112.9581,28.3611,长沙市,沙坪(对照点),细颗粒物(PM2.5),192,186,245,144,201,113,99,60,60,49,30,4,3,1.0,1.3
2023-01-11T14:00:00,1345A,113.2347,23.1423,广州市,广雅中学,,17,14,15,10,11,24,16,11,11,33,38,3,3,1.0,1
2023-01-11T14:00:00,1346A,113.2612,23.105,广州市,市五中,,13,11,13,8,10,37,22,15,15,25,32,4,4,0.8,0.8
2023-01-11T14:00:00,1348A,113.3478,23.0916,广州市,广东商学院,,12,7,9,6,7,23,23,14,14,24,33,4,5,0.6,0.6
2023-01-11T14:00:00,1349A,113.4332,23.1047,广州市,市八十六中,,13,10,13,8,8,27,16,11,11,25,32,2,2,0.5,0.5
2023-01-11T14:00:00,1350A,113.3505,22.9483,广州市,番禺中学,,19,10,11,13,13,30,20,13,13,31,41,8,8,0.9,0.9
2023-01-11T14:00:00,1351A,113.2146,23.3916,广州市,花都师范,,19,18,16,13,10,58,35,41,35,18,19,5,5,0.6,0.5
2023-01-11T14:00:00,1352A,113.2597,23.1331,广州市,市监测站,,12,9,12,8,9,34,21,13,13,24,33,5,4,0.7,0.7
2023-01-11T14:00:00,1353A,113.5618,23.312,广州市,九龙镇镇龙,,16,13,10,11,7,38,28,24,18,14,15,3,3,0.6,0.5
2023-01-11T14:00:00,1354A,113.2765,23.1544,广州市,麓湖,,10,7,10,6,7,32,24,14,14,20,26,3,2,0.7,0.6
2023-01-11T14:00:00,1355A,113.443,23.3035,广州市,帽峰山森林公园(对照点),,,10,7,9,7,43,35,29,29,9,10,,3,0.2,0.3
2023-01-11T14:00:00,1356A,114.1063,22.5545,深圳市,通心岭子站,,36,32,17,25,13,40,40,12,12,17,26,2,2,0.5,0.6
2023-01-11T14:00:00,1357A,114.117,22.5625,深圳市,洪湖,,33,31,17,23,10,48,48,12,12,19,29,6,6,0.7,0.7
2023-01-11T14:00:00,1358A,113.987,22.5417,深圳市,华侨城,,32,27,15,22,9,20,20,8,8,31,29,5,4,0.8,0.8
2023-01-11T14:00:00,1359A,113.9181,22.5171,深圳市,南海子站,,26,26,16,18,8,27,16,13,13,32,29,3,3,0.6,0.6
2023-01-11T14:00:00,1360A,114.2458,22.5689,深圳市,盐田,,30,26,14,21,8,35,34,14,14,35,33,7,6,0.6,0.6
2023-01-11T14:00:00,1361A,114.2283,22.7244,深圳市,龙岗,,26,26,17,18,10,27,18,13,11,22,21,2,3,0.8,0.8
2023-01-11T14:00:00,1363A,114.494,22.5422,深圳市,南澳,,,22,13,13,6,74,,66,46,19,14,,2,0.8,0.7
2023-01-11T14:00:00,1364A,114.41,22.6342,深圳市,葵涌,,24,24,14,16,9,50,50,22,22,10,15,8,8,0.7,0.8
2023-01-11T14:00:00,1365A,114.297,22.5978,深圳市,梅沙,,29,23,11,20,7,51,51,28,28,13,15,2,3,0.6,0.6
2023-01-11T14:00:00,1366A,114.0678,22.738,深圳市,观澜,,21,21,19,14,11,28,21,18,18,24,24,7,6,0.7,0.7
2023-01-11T14:00:00,1367A,113.5814,22.2618,珠海市,吉大,,30,13,12,21,8,34,24,16,16,28,31,7,6,0.6,0.5
2023-01-11T14:00:00,1368A,113.4881,22.2335,珠海市,前山,,37,37,15,7,6,29,29,14,14,39,41,2,2,0.5,0.7
2023-01-11T14:00:00,1369A,113.628,22.4251,珠海市,唐家,,29,16,17,20,13,29,15,12,12,30,33,7,7,0.5,0.4
2023-01-11T14:00:00,1370A,113.299,22.2281,珠海市,斗门,,22,18,10,15,8,30,13,8,8,26,32,3,2,0.5,0.5
2023-01-11T14:00:00,1371A,113.1294,23.0067,佛山市,湾梁,,15,9,10,7,7,36,16,12,12,30,33,6,6,0.6,0.7
2023-01-11T14:00:00,1372A,113.1083,23.0478,佛山市,华材职中,,16,5,11,6,10,30,16,12,12,32,38,5,5,0.4,0.4
2023-01-11T14:00:00,1373A,113.144,23.0453,佛山市,南海气象局,,17,11,11,5,8,22,10,6,6,34,36,5,4,0.6,0.6
2023-01-11T14:00:00,1374A,113.2881,22.8094,佛山市,顺德苏岗,,14,1,5,5,5,12,8,4,4,28,36,6,6,0.8,0.8
2023-01-11T14:00:00,1376A,112.8383,22.8678,佛山市,高明孔堂,,,,15,,8,36,23,25,24,18,24,2,2,0.6,0.6
2023-01-11T14:00:00,1377A,112.8836,23.1588,佛山市,三水监测站,,20,9,12,14,14,34,29,28,28,20,27,5,6,0.6,0.6
2023-01-11T14:00:00,1378A,112.867,23.185,佛山市,三水云东海,,15,5,11,10,12,35,25,29,28,21,21,4,4,0.5,0.5
2023-01-11T14:00:00,1379A,113.3769,22.5211,中山市,华柏园,,19,13,11,13,10,24,10,7,7,37,40,4,4,0.6,0.6
2023-01-11T14:00:00,1380A,113.3881,22.5497,中山市,张溪,,,,14,,11,20,9,6,6,33,38,2,2,0.6,0.6
2023-01-11T14:00:00,1381A,113.4075,22.5111,中山市,紫马岭,,19,15,11,13,11,26,9,8,8,29,31,3,3,0.6,0.5
2023-01-11T14:00:00,1382A,113.4411,22.4853,中山市,长江旅游区(对照点),,,,,,,,,,,,,,,,
2023-01-11T14:00:00,1383A,113.1064,22.6058,江门市,北街,,17,6,13,6,9,24,16,10,10,34,45,6,6,0.7,0.7
2023-01-11T14:00:00,1384A,113.0731,22.5835,江门市,西区,,16,12,12,2,9,21,13,8,8,31,41,5,5,0.5,0.5
2023-01-11T14:00:00,1385A,113.0219,22.5311,江门市,圭峰西,,18,2,10,3,10,29,12,16,10,35,38,3,3,0.8,0.8
2023-01-11T14:00:00,1386A,113.0828,22.5947,江门市,东湖,,15,6,13,4,10,22,14,8,8,30,38,5,5,0.6,0.6
2023-01-11T14:00:00,1389A,113.7547,23.0494,东莞市,莞城梨川,,15,11,15,10,12,36,32,23,20,14,24,7,7,0.7,0.7
2023-01-11T14:00:00,1390A,113.7944,23.0128,东莞市,东城石井,,,18,18,14,11,40,21,24,17,22,22,,9,0.7,0.6
2023-01-11T14:00:00,1391A,113.7383,22.9658,东莞市,南城西平,,25,21,18,17,9,29,22,14,14,25,33,9,9,0.8,0.8
2023-01-11T14:00:00,1392A,114.4183,23.0528,惠州市,河南岸金山湖子站,,28,26,16,19,15,39,26,27,20,14,15,5,5,0.5,0.5
2023-01-11T14:00:00,1393A,114.4053,23.0822,惠州市,下埔横江三路子站,,18,15,14,12,12,45,39,34,27,11,16,2,3,0.6,0.6
2023-01-11T14:00:00,1394A,114.4103,23.1142,惠州市,江北云山西路子站,,22,19,13,15,14,49,35,36,25,8,11,3,3,0.5,0.5
2023-01-11T14:00:00,1395A,114.4645,22.7833,惠州市,惠阳区承修路船湖子站,,23,18,16,16,13,29,17,19,12,17,17,4,4,0.6,0.6
2023-01-11T14:00:00,1396A,114.5317,22.7422,惠州市,大亚湾管委会子站,,19,17,16,13,9,40,20,12,12,24,23,3,3,0.7,0.6
2023-01-11T14:00:00,1397A,112.4267,23.0706,肇庆市,睦岗子站,,18,15,19,12,14,43,36,35,35,22,30,6,6,0.5,0.5
2023-01-11T14:00:00,1398A,112.4645,23.0475,肇庆市,城中子站,,13,12,18,9,12,48,37,44,42,19,19,7,8,0.5,0.5
2023-01-11T14:00:00,1399A,112.5544,23.1522,肇庆市,坑口子站,,19,14,17,13,14,42,36,35,35,22,27,8,8,0.2,0.2
2023-01-11T14:00:00,1400A,112.4753,23.1,肇庆市,七星岩子站(对照点),,15,13,14,10,10,49,38,42,40,11,11,3,3,0.6,0.6
2023-01-11T14:00:00,1401A,108.3103,22.7881,南宁市,二十一中,,16,16,35,4,25,86,34,43,31,16,20,2,4,0.9,0.9
2023-01-11T14:00:00,1402A,108.3141,22.8528,南宁市,北湖,,12,11,42,8,23,88,37,51,26,15,20,6,8,0.9,0.9
2023-01-11T14:00:00,1403A,108.3206,22.8225,南宁市,市监测站,,,19,35,12,26,82,31,41,27,23,30,,10,0.9,1
2023-01-11T14:00:00,1404A,108.3829,22.8037,南宁市,大自然花园,,16,12,32,11,27,79,29,31,30,18,21,5,6,0.9,0.9
2023-01-11T14:00:00,1405A,108.4394,22.7904,南宁市,仙葫(对照点),,19,10,29,13,26,82,39,40,31,12,17,7,8,0.7,0.7
2023-01-11T14:00:00,1406A,108.2397,22.8467,南宁市,区农职院,,18,18,35,8,22,86,31,24,20,29,38,6,7,0.9,0.9
2023-01-11T14:00:00,1407A,108.3275,22.735,南宁市,英华嘉园,,10,9,32,3,21,80,29,33,26,16,22,5,5,0.8,0.8
2023-01-11T14:00:00,1408A,108.2257,22.7757,南宁市,沙井镇街道办,,18,14,38,10,24,75,15,13,13,35,44,8,9,0.8,0.8
2023-01-11T14:00:00,1409A,110.576,19.9507,海口市,东寨港(对照点),,,33,13,23,8,43,43,40,40,,,1,2,0.5,0.5
2023-01-11T14:00:00,1410A,110.3232,20.0574,海口市,海南大学,,40,40,15,18,8,87,85,79,79,11,13,4,4,0.7,0.7
2023-01-11T14:00:00,1411A,110.283,20.0053,海口市,秀英海南医院,,30,30,15,12,5,80,79,78,78,11,11,5,5,0.7,0.7
2023-01-11T14:00:00,1412A,110.338,19.9969,海口市,海南师范大学,,36,36,16,9,6,76,76,73,73,8,12,5,5,0.8,0.8
2023-01-11T14:00:00,1413A,110.33,20.0356,海口市,龙华路环保局宿舍,,,31,14,12,5,71,,66,66,10,10,4,4,0.6,0.6
2023-01-11T14:00:00,1414A,106.3787,29.8279,重庆市,缙云山(对照点),细颗粒物(PM2.5),122,137,123,92,86,96,58,85,64,43,37,7,7,1.0,0.9
2023-01-11T14:00:00,1416A,106.4213,29.8253,重庆市,天生,细颗粒物(PM2.5),213,220,177,163,137,86,7,7,4,59,48,16,13,1.6,1.4
2023-01-11T14:00:00,1417A,106.6263,29.7228,重庆市,两路,细颗粒物(PM2.5),178,183,154,134,115,79,11,21,9,83,78,11,10,1.6,1.5
2023-01-11T14:00:00,1418A,106.2953,29.5983,重庆市,虎溪,细颗粒物(PM2.5),214,176,138,164,133,80,14,32,6,79,58,9,9,1.5,1.1
2023-01-11T14:00:00,1419A,106.5777,29.5102,重庆市,南坪,细颗粒物(PM2.5),182,193,160,137,122,96,12,6,6,89,75,10,10,2.1,1.9
2023-01-11T14:00:00,1420A,106.6556,29.6277,重庆市,唐家沱,,,,152,,113,70,14,4,4,66,65,9,8,,1.1
2023-01-11T14:00:00,1421A,106.6349,29.4906,重庆市,茶园,细颗粒物(PM2.5),162,169,177,123,124,69,32,10,10,68,72,8,7,1.9,2.1
2023-01-11T14:00:00,1422A,106.3754,29.4572,重庆市,白市驿,细颗粒物(PM2.5),223,228,164,173,127,83,25,52,14,,52,15,9,1.5,1.5
2023-01-11T14:00:00,1425A,106.6205,29.7166,重庆市,空港,细颗粒物(PM2.5),183,220,164,138,128,91,8,11,8,90,76,14,12,1.3,1
2023-01-11T14:00:00,1426A,106.4782,29.4875,重庆市,新山村,细颗粒物(PM2.5),226,219,178,176,129,66,18,8,8,,87,16,7,,1.3
2023-01-11T14:00:00,1427A,106.5616,29.6453,重庆市,礼嘉,细颗粒物(PM2.5),175,238,197,132,125,55,7,29,4,,77,12,10,1.4,1.3
2023-01-11T14:00:00,1428A,106.4522,29.7091,重庆市,蔡家,细颗粒物(PM2.5),165,178,147,125,110,60,8,8,6,87,53,9,6,1.6,1.1
2023-01-11T14:00:00,1429A,106.5093,29.3917,重庆市,鱼新街,细颗粒物(PM2.5),237,215,164,187,133,93,33,11,11,60,61,37,12,1.7,2
2023-01-11T14:00:00,1431A,103.9728,30.7236,成都市,金泉两河,细颗粒物(PM2.5),176,157,162,133,141,55,12,3,3,46,50,2,3,0.9,0.9
2023-01-11T14:00:00,1432A,104.176,30.6872,成都市,十里店,细颗粒物(PM2.5),204,187,165,154,136,57,5,1,1,47,49,1,2,1.1,1
2023-01-11T14:00:00,1433A,104.079,30.5706,成都市,三瓦窑,细颗粒物(PM2.5),215,193,157,165,132,40,4,2,2,50,60,3,3,1.1,1
2023-01-11T14:00:00,1434A,104.1114,30.63,成都市,沙河铺,细颗粒物(PM2.5),211,198,171,161,139,59,8,10,3,49,52,3,3,1.0,1
2023-01-11T14:00:00,1437A,104.0786,30.6531,成都市,君平街,细颗粒物(PM2.5),226,201,176,176,159,29,18,8,8,56,62,4,4,1.1,1
2023-01-11T14:00:00,1438A,103.613,31.0283,成都市,灵岩寺(对照点),颗粒物(PM10),113,176,140,83,115,86,32,82,21,38,25,4,4,1.0,0.8
2023-01-11T14:00:00,1439A,106.6899,26.5998,贵阳市,马鞍山,细颗粒物(PM2.5),58,53,54,41,46,132,93,83,83,11,22,8,8,1.0,1.1
2023-01-11T14:00:00,1440A,106.6971,26.5694,贵阳市,市环保站,细颗粒物(PM2.5),64,51,66,46,54,122,85,65,65,16,46,12,18,0.5,0.7
2023-01-11T14:00:00,1441A,106.6243,26.6266,贵阳市,鉴湖路,细颗粒物(PM2.5),58,58,62,41,40,134,91,98,86,10,17,9,12,0.4,0.5
2023-01-11T14:00:00,1442A,106.7487,26.6343,贵阳市,燕子冲,细颗粒物(PM2.5),62,61,71,44,55,134,88,44,44,10,32,8,12,0.5,0.7
2023-01-11T14:00:00,1443A,106.6555,26.4365,贵阳市,碧云窝,细颗粒物(PM2.5),62,58,67,44,47,100,92,93,93,7,14,8,13,0.4,0.6
2023-01-11T14:00:00,1444A,106.694,26.5161,贵阳市,中院村,细颗粒物(PM2.5),62,68,86,44,56,112,82,60,60,13,43,10,28,0.6,0.8
2023-01-11T14:00:00,1445A,106.7109,26.6027,贵阳市,红边门,细颗粒物(PM2.5),64,63,71,46,58,126,83,65,65,21,48,8,23,0.6,0.9
2023-01-11T14:00:00,1446A,106.7164,26.5699,贵阳市,新华路,细颗粒物(PM2.5),67,58,74,48,46,125,89,73,73,10,39,9,18,0.5,0.7
2023-01-11T14:00:00,1447A,106.674,26.5424,贵阳市,太慈桥,细颗粒物(PM2.5),62,66,70,44,43,130,92,80,80,10,26,10,9,0.5,0.6
2023-01-11T14:00:00,1450A,102.8204,24.8886,昆明市,呈贡新区,,30,30,37,13,26,107,80,40,40,5,33,6,9,0.5,0.8
2023-01-11T14:00:00,1451A,102.6251,24.9608,昆明市,西山森林公园(对照点),,,,25,,18,86,,86,,,10,,9,,0.5
2023-01-11T14:00:00,1452A,102.7252,25.0902,昆明市,龙泉镇,,27,25,50,12,29,108,85,38,38,10,38,7,8,0.6,0.8
2023-01-11T14:00:00,1453A,102.7266,25.0375,昆明市,东风东路,,28,28,44,13,27,100,78,37,37,14,34,7,9,0.4,0.6
2023-01-11T14:00:00,1454A,102.6742,25.0669,昆明市,金鼎山,,30,30,62,17,44,108,85,40,40,7,29,7,32,0.4,0.7
2023-01-11T14:00:00,1455A,102.6644,25.0401,昆明市,碧鸡广场,,27,20,43,10,25,104,84,46,46,9,33,3,5,0.3,0.5
2023-01-11T14:00:00,1456A,91.1319,29.6514,拉萨市,八廓街,,29,18,43,8,28,92,92,45,45,13,31,6,6,0.5,1
2023-01-11T14:00:00,1457A,91.1221,29.6747,拉萨市,市环保局,,30,19,50,8,31,93,93,47,47,13,39,4,7,0.4,1.3
2023-01-11T14:00:00,1458A,91.0874,29.6475,拉萨市,区监测站,,,,26,,17,99,99,52,52,,23,6,6,,0.6
2023-01-11T14:00:00,1459A,91.1774,29.6541,拉萨市,西藏大学,,31,15,32,9,20,98,98,53,53,9,32,9,11,0.2,0.6
2023-01-11T14:00:00,1460A,90.9798,29.6588,拉萨市,区辐射站,,33,14,43,5,28,104,104,59,46,8,40,6,9,0.5,1
2023-01-11T14:00:00,1461A,91.0834,29.6292,拉萨市,拉萨火车站,,30,17,24,0,9,93,93,55,48,10,24,9,9,0.3,0.5
2023-01-11T14:00:00,1462A,108.882,34.2749,西安市,高压开关厂,细颗粒物(PM2.5),163,197,205,124,150,75,40,17,17,63,72,10,11,1.1,1.3
2023-01-11T14:00:00,1463A,108.993,34.2629,西安市,兴庆小区,细颗粒物(PM2.5),189,186,157,142,136,74,37,19,19,62,58,12,12,1.3,1.3
2023-01-11T14:00:00,1464A,109.06,34.2572,西安市,纺织城,细颗粒物(PM2.5),196,197,193,147,137,68,39,16,16,60,61,17,14,1.5,1.4
2023-01-11T14:00:00,1465A,108.9356,34.2173,西安市,小寨,,,,212,,140,23,,23,,,67,,13,,1.3
2023-01-11T14:00:00,1466A,108.954,34.2713,西安市,市人民体育场,细颗粒物(PM2.5),202,182,175,152,145,75,44,20,20,62,67,13,12,1.3,1.3
2023-01-11T14:00:00,1467A,108.8922,34.2322,西安市,高新西区,细颗粒物(PM2.5),217,235,193,167,156,72,20,17,16,90,69,12,12,1.7,1.5
2023-01-11T14:00:00,1468A,108.935,34.3474,西安市,经开区,细颗粒物(PM2.5),132,120,163,100,131,79,53,20,20,38,66,11,11,0.9,1.2
2023-01-11T14:00:00,1469A,108.906,34.1546,西安市,长安区,细颗粒物(PM2.5),237,256,237,187,160,43,43,18,18,73,81,9,10,1.5,1.5
2023-01-11T14:00:00,1471A,109.2186,34.3731,西安市,临潼区,细颗粒物(PM2.5),143,170,156,109,110,67,46,46,16,43,56,15,14,1.1,1.2
2023-01-11T14:00:00,1472A,108.869,34.378,西安市,草滩(对照点),颗粒物(PM10),88,126,157,60,74,68,46,19,19,28,57,14,16,0.0,0.3
2023-01-11T14:00:00,1473A,108.985,34.1978,西安市,曲江文化产业集团,细颗粒物(PM2.5),223,236,198,173,131,68,39,20,20,76,69,9,11,1.7,1.4
2023-01-11T14:00:00,1474A,109.051,34.3213,西安市,广运潭,细颗粒物(PM2.5),169,172,179,128,127,69,39,13,13,46,58,12,13,1.2,1.3
2023-01-11T14:00:00,1476A,103.631,36.1031,兰州市,兰炼宾馆,颗粒物(PM10),104,158,163,74,78,87,55,36,22,44,75,81,43,1.4,1.5
2023-01-11T14:00:00,1477A,104.1373,35.9454,兰州市,榆中兰大校区(对照点),,,,,,,,,,,,,,,,
2023-01-11T14:00:00,1478A,103.8412,36.0726,兰州市,生物制品所,颗粒物(PM10),116,182,164,84,72,54,54,19,19,104,86,52,30,1.7,1.8
2023-01-11T14:00:00,1479A,103.831,36.0464,兰州市,铁路设计院,细颗粒物(PM2.5),115,156,159,87,86,67,67,28,28,78,97,47,32,2.0,2.5
2023-01-11T14:00:00,1483A,101.524,36.6867,西宁市,第五水厂(对照点),,,,,,,,,,,,,,,,
2023-01-11T14:00:00,1484A,105.9512,38.6016,银川市,贺兰山马莲口(对照点),颗粒物(PM10),96,142,82,69,47,94,66,75,54,53,40,69,39,1.8,1
2023-01-11T14:00:00,1488A,106.2328,38.4975,银川市,贺兰山东路,细颗粒物(PM2.5),242,331,240,192,142,55,53,52,32,58,73,19,23,2.4,2.2
2023-01-11T14:00:00,1489A,106.1358,38.5036,银川市,学院路,细颗粒物(PM2.5),165,242,245,125,127,54,49,42,22,52,69,46,34,2.5,2.5
2023-01-11T14:00:00,1490A,87.5801,43.8303,乌鲁木齐市,监测站,细颗粒物(PM2.5),95,72,133,71,87,68,36,51,29,30,52,6,7,1.0,1.4
2023-01-11T14:00:00,1491A,87.6046,43.768,乌鲁木齐市,收费所,细颗粒物(PM2.5),79,91,131,58,82,57,39,43,34,29,54,2,1,0.8,1.2
2023-01-11T14:00:00,1492A,87.4754,43.9469,乌鲁木齐市,新疆农科院农场(对照点),细颗粒物(PM2.5),185,57,173,139,217,52,44,44,24,28,53,8,9,1.5,2
2023-01-11T14:00:00,1493A,87.5525,43.8711,乌鲁木齐市,铁路局,细颗粒物(PM2.5),94,75,154,70,119,68,35,49,26,37,59,4,4,1.0,1.4
2023-01-11T14:00:00,1494A,87.6432,43.831,乌鲁木齐市,三十一中学,细颗粒物(PM2.5),82,62,122,60,85,66,40,51,34,22,44,5,5,0.8,1.2
2023-01-11T14:00:00,1496A,87.7216,44.1747,乌鲁木齐市,米东区环保局,细颗粒物(PM2.5),107,86,242,80,191,68,68,54,46,16,39,12,9,1.3,1.7
2023-01-11T14:00:00,1508A,112.9433,27.8614,湘潭市,板塘,细颗粒物(PM2.5),159,174,264,121,235,125,114,50,44,27,51,4,6,0.9,1.3
2023-01-11T14:00:00,1511A,112.9118,27.8403,湘潭市,市监测站,细颗粒物(PM2.5),159,168,278,121,227,131,121,48,48,28,50,10,8,1.1,1.6
2023-01-11T14:00:00,1512A,112.8937,27.8728,湘潭市,江麓,细颗粒物(PM2.5),201,216,281,151,235,141,116,60,54,37,44,21,12,1.3,1.4
2023-01-11T14:00:00,1513A,112.9227,27.8159,湘潭市,岳塘,细颗粒物(PM2.5),133,144,257,101,224,126,116,48,44,24,47,7,6,1.2,1.6
2023-01-11T14:00:00,1514A,112.9074,27.9119,湘潭市,科大,,,,288,,247,69,,76,,,51,,6,,1.8
2023-01-11T14:00:00,1515A,113.135,27.8244,株洲市,天台山庄,细颗粒物(PM2.5),122,144,244,92,216,138,126,55,55,22,58,5,6,0.9,1.4
2023-01-11T14:00:00,1518A,113.095,27.8867,株洲市,株冶医院,细颗粒物(PM2.5),140,146,270,107,240,128,125,51,51,27,60,6,5,0.6,1.1
2023-01-11T14:00:00,1519A,113.167,27.8667,株洲市,市四中,,,139,269,,227,141,121,46,46,12,43,8,8,0.7,1.4
2023-01-11T14:00:00,1520A,113.143,27.8381,株洲市,火车站,细颗粒物(PM2.5),128,119,275,97,231,138,128,55,55,24,54,7,8,0.9,1.5
2023-01-11T14:00:00,1524A,113.13,27.8528,株洲市,市监测站,细颗粒物(PM2.5),132,110,262,100,235,141,132,59,59,20,57,9,10,0.9,1.4
2023-01-11T14:00:00,1552A,106.805,26.3003,贵阳市,桐木岭(对照点),,,,,,,,,,,,,,,,
2023-01-11T14:00:00,1559A,113.251,27.8336,株洲市,大京风景区(对照点),细颗粒物(PM2.5),98,117,220,73,171,140,117,55,55,13,23,6,4,0.7,1.3
2023-01-11T14:00:00,1562A,113.0048,27.9153,湘潭市,昭山,细颗粒物(PM2.5),152,136,275,116,218,133,121,37,37,32,64,4,4,0.8,1.2
2023-01-11T14:00:00,1564A,112.4876,27.9164,湘潭市,韶山(对照点),细颗粒物(PM2.5),160,153,175,122,136,140,130,69,69,27,25,10,7,1.1,1.5
2023-01-11T14:00:00,1585A,109.8756,40.6532,包头市,市环境监测站,细颗粒物(PM2.5),105,121,128,79,85,53,53,27,27,52,77,55,53,1.5,1.9
2023-01-11T14:00:00,1587A,109.9991,40.5842,包头市,包头八中,细颗粒物(PM2.5),133,160,174,101,106,37,37,14,14,59,78,33,66,1.2,1.8
2023-01-11T14:00:00,1588A,109.8538,40.6821,包头市,青山宾馆,细颗粒物(PM2.5),144,140,164,110,109,55,55,17,17,52,82,47,44,1.6,2.3
2023-01-11T14:00:00,1589A,109.8642,40.6288,包头市,惠龙物流,细颗粒物(PM2.5),109,141,157,82,82,44,43,19,19,57,78,26,40,1.4,1.8
2023-01-11T14:00:00,1590A,110.0377,40.5546,包头市,东河鸿龙湾,颗粒物(PM10),116,182,164,75,79,44,44,16,16,52,71,29,33,1.5,1.8
2023-01-11T14:00:00,1591A,110.0023,39.8129,鄂尔多斯市,综合楼,细颗粒物(PM2.5),128,183,154,97,81,72,66,54,49,46,57,22,21,1.2,1.2
2023-01-11T14:00:00,1592A,109.9486,39.8261,鄂尔多斯市,巴音孟克林场办事处,细颗粒物(PM2.5),104,134,144,78,82,65,63,52,45,46,56,28,26,1.1,1.3
2023-01-11T14:00:00,1593A,109.7736,39.5986,鄂尔多斯市,康泽苑,颗粒物(PM10),120,190,175,70,91,89,89,37,37,19,68,14,25,1.0,1.8
2023-01-11T14:00:00,1594A,109.8119,39.5989,鄂尔多斯市,华泰汽车城,细颗粒物(PM2.5),107,156,180,80,100,92,92,39,39,23,75,,28,0.9,1.6
2023-01-11T14:00:00,1595A,109.9734,39.7884,鄂尔多斯市,奥林花园,细颗粒物(PM2.5),113,156,163,85,87,82,82,52,52,,62,20,23,1.1,1.4
2023-01-11T14:00:00,1596A,122.2414,40.6592,营口市,学府南路(停运211214),,,,,,,,,,,,,,,,
2023-01-11T14:00:00,1597A,122.2703,40.7094,营口市,大庆路,细颗粒物(PM2.5),107,89,49,80,31,73,66,51,51,32,27,21,17,0.9,0.8
2023-01-11T14:00:00,1598A,122.2150,40.6511,营口市,镜湖西路,细颗粒物(PM2.5),83,82,50,61,23,70,61,52,50,38,32,14,11,0.8,0.7
2023-01-11T14:00:00,1599A,122.1658,40.6789,营口市,西炮台,细颗粒物(PM2.5),85,88,51,63,30,56,53,43,43,34,29,16,10,0.8,0.6
2023-01-11T14:00:00,1600A,124.3303,40.0625,丹东市,江湾东路,,46,43,79,32,60,78,73,34,34,14,40,17,24,0.8,1.9
2023-01-11T14:00:00,1601A,124.4256,40.1503,丹东市,临江后街,,43,43,80,30,55,82,72,42,32,18,34,19,21,0.8,1.5
2023-01-11T14:00:00,1602A,124.3933,40.1461,丹东市,元宝山,,43,42,77,30,52,74,64,42,25,27,40,21,22,0.9,1.5
2023-01-11T14:00:00,1603A,124.3633,40.1092,丹东市,民主桥,,44,44,71,29,49,76,74,28,28,20,42,24,15,1.1,1.3
2023-01-11T14:00:00,1604A,122.0303,41.1489,盘锦市,开发区,颗粒物(PM10),98,145,51,66,30,74,58,55,48,33,26,16,9,0.9,0.8
2023-01-11T14:00:00,1605A,122.0485,41.0883,盘锦市,兴隆台,细颗粒物(PM2.5),92,115,48,68,30,70,52,51,46,38,26,16,10,1.0,0.8
2023-01-11T14:00:00,1606A,121.8297,41.1028,盘锦市,新生街道,细颗粒物(PM2.5),84,91,41,62,27,71,58,51,45,38,27,16,8,1.1,0.8
2023-01-11T14:00:00,1607A,120.9092,40.7136,葫芦岛市,龙港区,细颗粒物(PM2.5),73,86,71,53,39,33,24,18,18,54,52,12,17,1.2,1.2
2023-01-11T14:00:00,1608A,120.8392,40.7514,葫芦岛市,化工街,颗粒物(PM10),87,124,85,63,47,49,48,28,28,47,64,26,23,1.7,1.5
2023-01-11T14:00:00,1609A,120.8341,40.7073,葫芦岛市,新区,细颗粒物(PM2.5),88,98,79,65,43,48,45,28,28,42,57,27,29,1.6,1.7
2023-01-11T14:00:00,1610A,120.8695,40.7677,葫芦岛市,东城区,颗粒物(PM10),84,117,90,55,43,43,42,25,25,51,63,21,19,1.8,1.6
2023-01-11T14:00:00,1611A,118.5819,24.9117,泉州市,涂山街,,,,26,,16,70,,63,39,11,19,7,8,,0.7
2023-01-11T14:00:00,1612A,118.5972,24.8978,泉州市,津头埔,,20,17,26,10,17,64,63,59,39,18,25,7,7,0.6,0.7
2023-01-11T14:00:00,1613A,118.6663,24.9424,泉州市,万安,,24,19,28,10,15,74,74,62,48,11,19,7,7,0.4,0.5
2023-01-11T14:00:00,1614A,118.6117,24.9604,泉州市,清源山(对照点),,,,,,,,,,,,,,,,
2023-01-11T14:00:00,1616A,117.6795,36.229,济南市,技术学院,细颗粒物(PM2.5),72,68,89,52,53,83,83,41,41,2,38,13,16,0.5,1.1
2023-01-11T14:00:00,1618A,118.3429,35.0532,临沂市,沂河小区,颗粒物(PM10),58,66,69,35,49,71,68,26,26,16,39,14,6,0.5,0.8
2023-01-11T14:00:00,1619A,118.295,35.0583,临沂市,鲁南制药厂,颗粒物(PM10),57,63,64,33,36,75,75,46,37,29,48,27,18,0.2,0.5
2023-01-11T14:00:00,1620A,118.2794,34.9976,临沂市,新光毛纺厂,颗粒物(PM10),51,51,68,32,44,83,83,40,40,16,41,15,13,1.0,1.3
2023-01-11T14:00:00,1621A,118.3956,35.0888,临沂市,河东保险公司,颗粒物(PM10),56,61,70,37,48,71,69,24,24,28,53,12,10,0.5,0.8
2023-01-11T14:00:00,1622A,116.3032,37.4674,德州市,儿童乐园,细颗粒物(PM2.5),83,107,104,61,62,55,18,22,18,56,57,12,16,1.1,1.1
2023-01-11T14:00:00,1624A,116.2991,37.4451,德州市,监理站,细颗粒物(PM2.5),94,118,119,70,71,55,21,19,19,55,62,17,20,1.0,1
2023-01-11T14:00:00,1625A,115.9848,36.4372,聊城市,区政府,颗粒物(PM10),77,103,90,51,51,76,58,38,38,43,52,12,18,0.7,0.7
2023-01-11T14:00:00,1628A,118.0062,37.3803,滨州市,市环保局,细颗粒物(PM2.5),104,114,119,78,74,69,34,17,17,73,78,25,42,1.4,1.3
2023-01-11T14:00:00,1629A,118.0018,37.3617,滨州市,第二水厂,,,112,119,72,55,72,34,18,18,,78,20,30,1.6,1.3
2023-01-11T14:00:00,1630A,117.9776,37.393,滨州市,北中新校,细颗粒物(PM2.5),94,112,110,70,67,72,34,17,17,69,72,24,30,1.3,1.3
2023-01-11T14:00:00,1631A,118.0414,36.8103,淄博市,人民公园,细颗粒物(PM2.5),77,95,113,56,60,54,44,25,25,59,70,18,24,0.7,1
2023-01-11T14:00:00,1633A,117.8525,36.4847,淄博市,双山,颗粒物(PM10),60,69,65,38,42,82,82,58,58,26,39,13,15,1.0,1.2
2023-01-11T14:00:00,1634A,117.9592,36.6331,淄博市,气象站,颗粒物(PM10),53,55,85,34,45,77,77,60,60,18,48,13,24,0.6,0.8
2023-01-11T14:00:00,1635A,118.3092,36.8194,淄博市,莆田园,颗粒物(PM10),58,66,102,36,52,64,56,32,32,26,47,12,27,0.5,1.4
2023-01-11T14:00:00,1637A,117.558,34.8438,枣庄市,市中区政府,细颗粒物(PM2.5),79,92,101,58,52,89,82,47,47,32,55,12,19,1.0,1.1
2023-01-11T14:00:00,1638A,117.2852,34.7837,枣庄市,薛城环保局,细颗粒物(PM2.5),79,90,70,58,44,90,80,59,59,36,45,10,19,0.9,0.9
2023-01-11T14:00:00,1639A,117.5852,34.7745,枣庄市,峄城区政府,细颗粒物(PM2.5),77,97,76,56,38,76,69,47,42,29,34,12,16,0.7,0.6
2023-01-11T14:00:00,1640A,117.7276,34.5578,枣庄市,台儿庄区环保局,颗粒物(PM10),59,68,81,36,53,89,89,36,36,35,47,12,10,0.8,1
2023-01-11T14:00:00,1641A,117.4518,35.0992,枣庄市,山亭区环保局,颗粒物(PM10),64,78,49,39,29,100,100,77,77,30,28,8,8,0.7,0.7
2023-01-11T14:00:00,1642A,121.2514,37.5639,烟台市,开发区,,29,29,45,17,30,70,70,37,37,17,45,12,11,0.6,0.8
2023-01-11T14:00:00,1643A,121.3719,37.5433,烟台市,轴承厂,,26,22,33,14,22,83,83,61,61,8,22,4,4,0.3,0.5
2023-01-11T14:00:00,1644A,121.3181,37.5436,烟台市,西郊化工站,,26,22,45,14,23,83,83,56,56,13,32,3,3,0.6,0.9
2023-01-11T14:00:00,1645A,121.4478,37.4822,烟台市,莱山环保局,,,24,30,19,20,72,72,56,55,,20,,10,0.7,0.8
2023-01-11T14:00:00,1646A,121.2611,37.4967,烟台市,福山环保局,,31,31,63,19,36,74,74,36,36,17,47,9,10,0.2,0.7
2023-01-11T14:00:00,1650A,119.1437,36.7023,潍坊市,环保局,颗粒物(PM10),52,53,64,29,42,74,74,42,42,20,48,8,9,0.7,1
2023-01-11T14:00:00,1653A,116.6251,35.4302,济宁市,火炬城,细颗粒物(PM2.5),85,75,69,63,50,89,89,50,50,23,41,11,14,0.5,0.5
2023-01-11T14:00:00,1655A,116.5491,35.4042,济宁市,电化厂,,,77,69,61,46,91,91,53,53,20,35,,12,0.5,0.5
2023-01-11T14:00:00,1656A,117.1437,36.1937,泰安市,监测站,细颗粒物(PM2.5),99,83,88,74,65,76,76,42,42,27,49,10,16,0.8,1.1
2023-01-11T14:00:00,1657A,117.0885,36.2017,泰安市,人口学校,细颗粒物(PM2.5),80,83,65,59,36,79,79,59,49,24,28,12,15,0.5,0.6
2023-01-11T14:00:00,1658A,117.1089,36.1758,泰安市,电力学校,细颗粒物(PM2.5),87,78,103,64,63,73,73,34,34,24,52,17,26,0.7,1.3
2023-01-11T14:00:00,1659A,119.471,35.4209,日照市,监测站,,27,27,57,7,30,70,70,28,28,25,53,9,13,0.3,1
2023-01-11T14:00:00,1660A,119.523,35.4216,日照市,市政府广场,,25,24,41,5,21,78,78,42,42,8,38,5,6,0.6,1
2023-01-11T14:00:00,1661A,119.5587,35.4044,日照市,港务局,,28,19,41,7,22,87,87,39,39,14,41,5,7,0.4,0.7
2023-01-11T14:00:00,1662A,122.1214,37.4236,威海市,华夏技校,,39,34,21,27,14,80,79,72,70,16,19,3,2,0.4,0.4
2023-01-11T14:00:00,1663A,122.0508,37.5236,威海市,山大分校,,,,20,,9,78,64,78,57,21,16,5,4,0.3,0.2
2023-01-11T14:00:00,1664A,122.1067,37.5072,威海市,市监测站,,34,34,20,22,15,76,55,70,44,38,32,3,2,0.5,0.4
2023-01-11T14:00:00,1666A,118.6614,37.4309,东营市,市环保局,细颗粒物(PM2.5),85,85,81,63,52,75,74,37,37,40,53,19,21,1.2,1
2023-01-11T14:00:00,1669A,113.5824,24.7733,韶关市,市八中,,22,8,20,15,12,73,56,52,41,7,10,8,8,0.4,0.5
2023-01-11T14:00:00,1671A,113.5917,24.7972,韶关市,园林处,,,16,18,,14,77,58,61,45,5,7,6,6,0.4,0.5
2023-01-11T14:00:00,1672A,113.6735,24.7791,韶关市,韶关学院,,26,26,24,18,16,76,52,44,32,11,15,9,6,0.4,0.4
2023-01-11T14:00:00,1673A,113.5971,24.6863,韶关市,曲江监测站,,33,26,24,23,18,69,32,46,29,19,19,7,8,0.4,0.4
2023-01-11T14:00:00,1674A,116.6794,23.3667,汕头市,金平子站,,26,15,18,7,15,81,81,71,59,11,19,10,10,0.6,0.7
2023-01-11T14:00:00,1675A,116.7244,23.3633,汕头市,龙湖子站,,,,18,,15,79,71,76,63,,19,11,10,0.5,0.6
2023-01-11T14:00:00,1676A,116.7258,23.2775,汕头市,濠江子站,,25,23,18,15,13,92,78,79,70,13,12,9,8,0.6,0.6
2023-01-11T14:00:00,1677A,116.7519,23.4714,汕头市,澄海子站,,26,14,21,12,20,81,81,64,61,13,20,4,4,0.6,0.7
2023-01-11T14:00:00,1678A,116.6092,23.2539,汕头市,潮阳子站,,26,10,16,5,8,82,82,77,69,9,12,6,6,0.5,0.5
2023-01-11T14:00:00,1680A,110.3539,21.2706,湛江市,湛江影剧院,,22,14,6,11,5,69,69,52,45,16,15,5,5,0.5,0.6
2023-01-11T14:00:00,1681A,110.3928,21.2228,湛江市,市环境监测站,,21,11,6,11,4,66,66,50,42,15,18,6,6,0.5,0.6
2023-01-11T14:00:00,1682A,110.4019,21.1997,湛江市,环保局宿舍,,25,17,6,17,7,59,59,53,40,18,18,4,4,0.6,0.6
2023-01-11T14:00:00,1683A,110.4111,21.2028,湛江市,霞山游泳场,,23,18,7,16,7,62,62,54,42,16,18,4,4,0.5,0.5
2023-01-11T14:00:00,1684A,110.3316,21.2679,湛江市,麻章区环保局,,22,13,7,6,5,70,70,49,42,15,18,6,7,0.6,0.6
2023-01-11T14:00:00,1685A,110.4558,21.2567,湛江市,坡头区环保局,,21,15,6,11,6,67,67,51,43,13,13,4,4,0.6,0.6
2023-01-11T14:00:00,1686A,111.0286,21.4688,茂名市,电白南海,,17,17,12,9,6,55,46,42,31,14,12,5,5,0.5,0.5
2023-01-11T14:00:00,1687A,110.9294,21.6533,茂名市,茂石化七小,,14,7,5,7,4,59,44,50,38,9,10,10,8,0.7,0.7
2023-01-11T14:00:00,1688A,110.9107,21.6687,茂名市,健康路,,15,5,5,3,2,65,47,56,42,12,12,11,11,0.6,0.6
2023-01-11T14:00:00,1689A,110.8592,21.6828,茂名市,高岭,,25,7,4,17,10,63,48,50,43,27,18,14,14,0.5,0.5
2023-01-11T14:00:00,1690A,116.1231,24.3284,梅州市,梅江月梅,,18,18,10,7,9,44,41,28,28,11,19,4,4,0.4,0.4
2023-01-11T14:00:00,1691A,116.0797,24.2719,梅州市,梅县新城,,16,13,12,8,11,50,50,23,23,13,22,7,7,0.8,0.8
2023-01-11T14:00:00,1692A,116.1248,24.2654,梅州市,环境监控中心,,,9,13,7,11,49,49,26,26,10,25,,7,0.6,0.7
2023-01-11T14:00:00,1693A,115.3653,22.775,汕尾市,市环保局,,23,11,19,4,25,71,71,69,54,7,12,7,7,0.5,0.6
2023-01-11T14:00:00,1694A,115.3706,22.7898,汕尾市,市政府,,24,15,16,16,16,74,74,72,52,10,14,7,7,0.5,0.6
2023-01-11T14:00:00,1695A,115.3622,22.7925,汕尾市,新城中学,,23,13,27,8,19,73,73,67,53,7,12,10,10,0.6,0.6
2023-01-11T14:00:00,1696A,114.6778,23.7569,河源市,源西(对照点),,13,11,19,9,11,43,34,32,25,8,18,3,4,0.6,0.6
2023-01-11T14:00:00,1697A,114.6944,23.7586,河源市,东埔,,23,23,17,12,16,46,31,30,22,7,15,4,4,0.6,0.6
2023-01-11T14:00:00,1698A,114.6892,23.7233,河源市,老城,,18,13,22,12,17,49,32,37,25,7,14,4,4,0.7,0.7
2023-01-11T14:00:00,1699A,111.9797,21.8593,阳江市,鸳鸯湖(对照点),,15,10,9,10,13,49,22,36,17,19,18,3,3,0.6,0.6
2023-01-11T14:00:00,1701A,111.9491,21.8658,阳江市,马南垌,,14,14,8,9,8,55,23,36,14,25,24,4,4,0.6,0.6
2023-01-11T14:00:00,1702A,113.0426,23.691,清远市,环保大楼(对照点),,29,19,17,20,17,59,45,37,34,5,10,3,3,0.8,0.8
2023-01-11T14:00:00,1703A,113.0208,23.7106,清远市,凤城街办,,22,20,21,15,14,45,35,25,25,14,20,4,5,0.6,0.7
2023-01-11T14:00:00,1705A,116.6367,23.6719,潮州市,西园路(对照点),,20,20,25,9,31,64,64,40,40,11,22,6,6,0.6,0.7
2023-01-11T14:00:00,1706A,116.6447,23.6706,潮州市,档案局,,23,23,28,14,31,63,63,39,39,10,24,5,6,0.5,0.7
2023-01-11T14:00:00,1708A,116.3701,23.5345,揭阳市,新兴,,28,19,26,19,38,67,67,48,48,11,21,6,6,0.5,0.6
2023-01-11T14:00:00,1709A,116.3264,23.5443,揭阳市,西马,,38,30,31,26,42,66,66,46,46,12,20,9,8,0.6,0.7
2023-01-11T14:00:00,1710A,116.3611,23.5626,揭阳市,东兴,,29,27,29,20,34,67,67,48,48,17,24,6,5,0.6,0.6
2023-01-11T14:00:00,1711A,116.4151,23.5294,揭阳市,渔湖,,23,23,26,7,19,67,67,47,47,12,23,7,7,0.6,0.7
2023-01-11T14:00:00,1712A,112.0392,22.9169,云浮市,新市府(对照点),,9,6,11,6,8,27,20,18,18,15,16,6,7,0.7,0.7
2023-01-11T14:00:00,1714A,112.0539,22.9539,云浮市,牧羊,,10,10,13,5,10,45,27,28,25,20,15,6,8,0.5,0.5
2023-01-11T14:00:00,1715A,102.575,24.3711,玉溪市,东风水库,,43,43,33,23,29,93,62,32,26,21,18,5,4,1.2,0.8
2023-01-11T14:00:00,1718A,115.4208,35.2464,菏泽市,气象局,细颗粒物(PM2.5),92,110,94,68,60,91,83,50,48,25,37,12,10,0.6,0.7
2023-01-11T14:00:00,1719A,115.4747,35.2375,菏泽市,市政协,细颗粒物(PM2.5),90,105,101,67,67,82,79,46,36,31,44,10,11,0.6,0.7
2023-01-11T14:00:00,1721A,113.3819,40.1097,大同市,果树场(对照点),,,,,,,,,,,,,,,,
2023-01-11T14:00:00,1723A,113.2994,40.0758,大同市,云冈宾馆,细颗粒物(PM2.5),125,166,175,95,92,46,42,16,16,68,69,40,34,1.8,1.9
2023-01-11T14:00:00,1724A,113.3444,40.0917,大同市,大同大学,颗粒物(PM10),141,232,215,84,82,36,36,18,18,54,65,39,46,1.8,1.7
2023-01-11T14:00:00,1725A,113.2661,40.1269,大同市,安家小村,颗粒物(PM10),124,198,182,78,69,40,40,17,17,81,74,49,38,2.8,2.2
2023-01-11T14:00:00,1726A,113.2711,40.0844,大同市,教育学院,,,,208,,106,11,,14,,,75,,48,,2.4
2023-01-11T14:00:00,1727A,113.1147,36.1547,长治市,清华站,细颗粒物(PM2.5),104,97,97,78,70,89,64,39,39,44,52,17,18,1.1,1.1
2023-01-11T14:00:00,1728A,113.1031,36.1989,长治市,监测站,细颗粒物(PM2.5),100,97,83,75,64,89,56,40,40,49,46,19,21,1.2,1.3
2023-01-11T14:00:00,1730A,113.0886,36.2125,长治市,审计局,细颗粒物(PM2.5),110,88,85,83,72,92,70,41,41,38,42,14,17,1.0,1.2
2023-01-11T14:00:00,1731A,113.0844,36.1856,长治市,长治八中,细颗粒物(PM2.5),83,94,95,61,64,96,67,39,39,41,46,14,17,1.0,1.1
2023-01-11T14:00:00,1733A,111.5531,36.0783,临汾市,临钢医院,细颗粒物(PM2.5),104,127,161,78,95,92,54,26,18,35,54,15,24,1.5,1.7
2023-01-11T14:00:00,1734A,111.5028,36.0714,临汾市,技工学校,,,,160,,94,93,67,31,23,29,59,,25,0.6,1.1
2023-01-11T14:00:00,1736A,111.5018,36.0855,临汾市,市委,细颗粒物(PM2.5),88,101,162,65,95,101,75,31,27,28,57,10,19,0.9,1.3
2023-01-11T14:00:00,1738A,113.5758,37.8572,阳泉市,市中心,细颗粒物(PM2.5),155,239,148,118,66,52,14,13,13,82,79,42,29,1.6,1.4
2023-01-11T14:00:00,1739A,113.4894,37.8731,阳泉市,赛鱼,细颗粒物(PM2.5),128,160,133,97,79,40,18,10,10,83,72,30,23,1.6,1.3
2023-01-11T14:00:00,1740A,113.5819,37.8486,阳泉市,南庄,颗粒物(PM10),115,179,182,76,75,51,12,9,9,93,77,44,30,1.7,1.6
2023-01-11T14:00:00,1742A,113.5614,37.8703,阳泉市,平坦,细颗粒物(PM2.5),143,183,145,109,79,47,17,14,14,88,79,38,30,1.6,1.5
2023-01-11T14:00:00,1743A,113.5158,37.8392,阳泉市,大阳泉,细颗粒物(PM2.5),107,130,114,80,71,56,28,35,35,74,62,31,27,1.4,1.1
2023-01-11T14:00:00,1744A,118.9233,42.2816,赤峰市,松山一中,细颗粒物(PM2.5),102,142,68,76,43,60,17,44,16,71,43,47,26,2.0,1.5
2023-01-11T14:00:00,1745A,118.9576,42.2728,赤峰市,哈达街,颗粒物(PM10),86,122,68,60,37,62,26,48,25,67,34,72,24,2.3,1.1
2023-01-11T14:00:00,1746A,118.8788,42.2554,赤峰市,天义路,颗粒物(PM10),70,90,56,46,25,65,51,48,26,45,34,17,15,1.2,0.9
2023-01-11T14:00:00,1748A,123.044,41.1196,鞍山市,深沟寺,颗粒物(PM10),81,111,67,54,28,83,83,71,71,24,22,13,12,0.7,0.7
2023-01-11T14:00:00,1749A,123.011,41.0931,鞍山市,太阳城,颗粒物(PM10),87,124,73,57,28,86,86,74,74,20,20,18,15,0.8,0.7
2023-01-11T14:00:00,1750A,123.0485,41.1442,鞍山市,太平,颗粒物(PM10),98,146,82,55,29,77,77,62,62,26,27,16,15,0.8,0.7
2023-01-11T14:00:00,1751A,122.9642,41.0971,鞍山市,铁西三道街,颗粒物(PM10),114,178,87,67,31,78,78,59,59,25,33,14,17,0.9,1
2023-01-11T14:00:00,1752A,122.9341,41.0833,鞍山市,铁西工业园区,颗粒物(PM10),90,130,72,57,28,78,78,68,68,27,25,16,14,1.0,1.1
2023-01-11T14:00:00,1753A,123.022,41.0821,鞍山市,明达新区,颗粒物(PM10),84,118,69,49,26,71,71,64,64,19,18,13,12,0.8,0.8
2023-01-11T14:00:00,1754A,123.1289,41.0228,鞍山市,千山(对照点),,,,,,,,,,,,,,,,
2023-01-11T14:00:00,1755A,123.7977,41.8491,抚顺市,望花区,颗粒物(PM10),65,80,76,45,35,87,87,48,48,20,41,12,17,0.7,1.1
2023-01-11T14:00:00,1756A,123.9161,41.8822,抚顺市,顺城区,颗粒物(PM10),64,78,95,38,48,82,82,37,37,32,58,10,8,0.7,1.4
2023-01-11T14:00:00,1757A,124.0436,41.8611,抚顺市,东洲区,颗粒物(PM10),60,70,64,39,33,94,94,66,66,18,29,12,12,0.6,0.7
2023-01-11T14:00:00,1758A,123.9247,41.8642,抚顺市,新抚区,颗粒物(PM10),70,90,107,41,51,87,87,42,42,23,46,15,11,0.8,1.2
2023-01-11T14:00:00,1759A,124.0972,41.8961,抚顺市,大伙房水库,细颗粒物(PM2.5),57,57,46,40,24,102,102,72,72,15,19,12,8,0.7,0.7
2023-01-11T14:00:00,1760A,123.7086,41.8391,抚顺市,沈抚新城,颗粒物(PM10),73,95,77,36,30,98,98,68,68,16,33,8,17,0.4,0.8
2023-01-11T14:00:00,1761A,123.8275,41.3064,本溪市,大峪,,50,50,43,30,23,82,82,52,52,10,26,14,13,0.6,0.8
2023-01-11T14:00:00,1762A,123.7567,41.3325,本溪市,溪湖,细颗粒物(PM2.5),54,53,56,38,26,76,76,53,53,16,44,14,55,1.2,1.6
2023-01-11T14:00:00,1763A,123.7169,41.3094,本溪市,彩屯,细颗粒物(PM2.5),84,112,94,62,48,66,43,31,31,54,55,95,56,3.9,3.4
2023-01-11T14:00:00,1764A,123.7669,41.2864,本溪市,东明,,,53,28,28,19,65,64,55,55,,36,23,29,0.6,0.6
2023-01-11T14:00:00,1765A,123.7992,41.2664,本溪市,新立屯,,,,25,,18,76,76,70,70,17,20,9,9,,0.6
2023-01-11T14:00:00,1766A,123.8142,41.3472,本溪市,威宁,,45,44,46,31,27,74,74,42,42,15,36,16,9,0.5,0.7
2023-01-11T14:00:00,1767A,121.1115,41.0879,锦州市,南山,,,124,90,68,52,49,48,31,31,,71,35,32,,1.5
2023-01-11T14:00:00,1768A,121.0533,40.8434,锦州市,开发区,颗粒物(PM10),125,200,138,63,55,54,49,28,28,48,62,16,75,1.4,1.7
2023-01-11T14:00:00,1769A,121.1836,41.1119,锦州市,百股街道,细颗粒物(PM2.5),95,97,91,71,57,51,50,32,32,52,68,37,38,2.0,1.9
2023-01-11T14:00:00,1770A,121.1178,41.1222,锦州市,天安街道,,,112,109,58,58,38,37,20,20,,71,32,31,2.0,1.7
2023-01-11T14:00:00,1771A,121.1303,41.1386,锦州市,北湖公园,颗粒物(PM10),88,126,97,61,52,49,48,31,31,59,72,30,29,2.0,1.7
2023-01-11T14:00:00,1772A,126.54,43.8622,吉林市,哈达湾,,46,41,38,32,22,86,86,68,68,12,20,9,13,0.6,0.8
2023-01-11T14:00:00,1773A,126.5844,43.8358,吉林市,东局子,,45,45,40,27,23,79,79,64,64,15,21,10,13,0.6,0.7
2023-01-11T14:00:00,1774A,126.5052,43.8245,吉林市,电力学院,,46,46,39,25,24,85,85,65,65,14,19,11,11,0.6,0.8
2023-01-11T14:00:00,1775A,126.6133,43.8972,吉林市,江北,,,43,37,23,21,82,82,68,68,21,21,,20,0.6,0.7
2023-01-11T14:00:00,1776A,126.555,43.8306,吉林市,江南公园,,46,43,39,32,28,83,83,63,63,16,24,11,15,0.6,0.7
2023-01-11T14:00:00,1778A,126.7061,43.7133,吉林市,丰满(对照点),,,,,,,,,,,,,,,,
2023-01-11T14:00:00,1779A,123.9305,47.3636,齐齐哈尔市,安居小区,细颗粒物(PM2.5),122,136,102,92,74,59,56,31,31,28,45,9,13,0.8,1
2023-01-11T14:00:00,1780A,123.9488,47.3386,齐齐哈尔市,中心广场,细颗粒物(PM2.5),117,133,87,88,51,52,50,39,29,36,40,8,15,0.9,0.8
2023-01-11T14:00:00,1781A,123.9483,47.3227,齐齐哈尔市,农牧车辆厂,细颗粒物(PM2.5),97,122,86,72,48,46,46,30,22,37,45,6,10,1.0,0.9
2023-01-11T14:00:00,1783A,123.945,47.2988,齐齐哈尔市,市环境监测站,细颗粒物(PM2.5),143,126,87,109,65,56,56,32,32,24,33,9,10,0.6,0.6
2023-01-11T14:00:00,1784A,129.61,44.561,牡丹江市,环保大楼,细颗粒物(PM2.5),132,95,81,100,60,45,29,25,25,61,47,17,11,1.2,1
2023-01-11T14:00:00,1785A,129.6115,44.5782,牡丹江市,文化广场,"颗粒物(PM10),细颗粒物(PM2.5)",68,85,113,49,73,36,17,8,8,63,56,18,12,1.0,1.6
2023-01-11T14:00:00,1786A,129.5904,44.5963,牡丹江市,第一医院,颗粒物(PM10),55,60,93,26,74,51,46,17,16,36,52,10,9,0.9,1.4
2023-01-11T14:00:00,1787A,129.6364,44.6075,牡丹江市,机车工厂,颗粒物(PM10),77,103,111,50,63,53,32,17,17,54,57,10,9,0.8,1.3
2023-01-11T14:00:00,1788A,129.6386,44.5462,牡丹江市,第一中学,颗粒物(PM10),68,86,74,46,51,49,27,15,15,54,52,14,9,1.1,1
2023-01-11T14:00:00,1789A,124.81117,46.03138,大庆市,大同区,颗粒物(PM10),68,85,123,46,59,49,48,33,33,22,28,11,12,0.6,0.9
2023-01-11T14:00:00,1790A,125.129,46.533,大庆市,龙凤区,颗粒物(PM10),65,79,106,44,52,48,47,31,31,21,31,12,17,0.3,0.6
2023-01-11T14:00:00,1791A,124.902,46.408,大庆市,红岗区,颗粒物(PM10),65,80,83,39,41,49,34,21,21,19,28,10,9,0.8,0.8
2023-01-11T14:00:00,1792A,125.153,46.586,大庆市,萨尔图区,,,91,101,52,52,46,,27,27,30,40,14,12,0.9,1
2023-01-11T14:00:00,1793A,124.9042,46.6215,大庆市,让胡路区,颗粒物(PM10),58,66,77,33,45,60,55,33,33,22,44,8,8,0.8,0.9
2023-01-11T14:00:00,1794A,118.3606,31.3519,芜湖市,监测站,细颗粒物(PM2.5),69,84,60,50,33,92,88,42,42,42,55,4,4,0.4,0.4
2023-01-11T14:00:00,1795A,118.3714,31.4134,芜湖市,科创中心,细颗粒物(PM2.5),82,77,62,60,37,84,83,38,38,31,45,5,4,0.5,0.4
2023-01-11T14:00:00,1796A,118.3673,31.3131,芜湖市,四水厂,细颗粒物(PM2.5),75,87,66,55,34,102,102,47,47,13,27,7,6,0.6,0.8
2023-01-11T14:00:00,1798A,118.5092,31.6837,马鞍山市,湖东路四小,细颗粒物(PM2.5),70,44,46,51,33,83,83,40,40,22,45,7,6,0.6,0.7
2023-01-11T14:00:00,1799A,118.5024,31.6449,马鞍山市,开发区,,,70,60,52,34,84,,32,32,25,55,8,7,0.7,0.7
2023-01-11T14:00:00,1800A,118.5228,31.7231,马鞍山市,慈湖,细颗粒物(PM2.5),64,68,64,46,48,89,89,41,41,23,46,9,13,1.1,1.1
2023-01-11T14:00:00,1802A,118.6245,31.7241,马鞍山市,濮塘(对照点),颗粒物(PM10),60,69,52,35,27,84,84,46,46,21,31,6,5,0.6,0.6
2023-01-11T14:00:00,1803A,115.9872,29.6815,九江市,十里,细颗粒物(PM2.5),100,121,125,75,76,103,80,59,34,32,34,17,9,1.3,1
2023-01-11T14:00:00,1804A,115.9584,29.7046,九江市,茅山头,细颗粒物(PM2.5),104,106,118,78,78,103,74,44,34,48,44,17,10,1.3,1.1
2023-01-11T14:00:00,1805A,115.9877,29.7295,九江市,西园,细颗粒物(PM2.5),95,91,104,71,77,95,72,40,40,40,39,14,7,1.3,1
2023-01-11T14:00:00,1806A,116.0172,29.6547,九江市,五七二七厂,细颗粒物(PM2.5),120,124,118,91,79,106,88,64,38,39,26,13,7,1.3,1.1
2023-01-11T14:00:00,1808A,115.9114,29.6038,九江市,综合工业园,细颗粒物(PM2.5),138,120,128,105,95,83,67,31,31,54,47,15,8,1.5,1.1
2023-01-11T14:00:00,1809A,116.0721,29.7535,九江市,石化总厂,颗粒物(PM10),84,118,131,60,70,97,74,44,44,53,46,22,10,1.6,1
2023-01-11T14:00:00,1810A,115.9773,29.5698,九江市,庐山气象台(对照点),,9,2,21,6,17,118,13,106,44,4,6,5,6,0.7,0.5
2023-01-11T14:00:00,1812A,112.3931,34.6516,洛阳市,市委党校,细颗粒物(PM2.5),113,145,127,85,69,69,60,27,27,28,50,10,11,0.8,0.8
2023-01-11T14:00:00,1814A,112.4657,34.6871,洛阳市,豫西宾馆,细颗粒物(PM2.5),108,137,119,81,71,72,72,32,32,24,51,10,12,0.7,0.9
2023-01-11T14:00:00,1815A,112.494,34.6886,洛阳市,河南林校,细颗粒物(PM2.5),104,120,117,78,71,74,73,30,30,23,51,8,7,0.5,0.6
2023-01-11T14:00:00,1816A,112.3844,34.623,洛阳市,开发区管委会,细颗粒物(PM2.5),123,131,110,93,71,76,74,30,30,30,47,8,9,0.6,0.6
2023-01-11T14:00:00,1817A,112.4267,34.6258,洛阳市,市委新办公区,细颗粒物(PM2.5),129,138,111,98,69,71,71,33,33,28,50,8,8,0.6,0.8
2023-01-11T14:00:00,1818A,114.4839,36.0621,安阳市,棉研所(对照点),,,,,,,,,,,,,,,,
2023-01-11T14:00:00,1819A,114.3551,36.1017,安阳市,红庙街,细颗粒物(PM2.5),122,90,108,92,82,75,70,38,38,23,55,9,9,1.0,0.8
2023-01-11T14:00:00,1820A,114.361,36.0681,安阳市,银杏小区,细颗粒物(PM2.5),140,104,109,107,82,76,68,32,32,20,54,7,10,0.9,0.9
2023-01-11T14:00:00,1824A,114.3389,34.7781,开封市,肿瘤医院,细颗粒物(PM2.5),159,165,128,121,82,84,51,26,26,20,44,4,7,0.7,0.7
2023-01-11T14:00:00,1826A,114.2885,34.7965,开封市,世纪星幼儿园,细颗粒物(PM2.5),175,154,111,132,82,83,47,34,34,25,36,6,7,0.9,0.8
2023-01-11T14:00:00,1828A,113.227,35.2125,焦作市,市环保局,细颗粒物(PM2.5),107,120,112,80,65,76,66,45,31,22,37,6,11,0.6,0.8
2023-01-11T14:00:00,1830A,113.1992,35.2590,焦作市,影视城(对照点),,,,,,,,,,,,,,,,
2023-01-11T14:00:00,1832A,113.3257,33.742,平顶山市,新华旅馆,细颗粒物(PM2.5),137,181,157,104,81,77,54,77,44,30,27,104,18,1.1,0.6
2023-01-11T14:00:00,1833A,113.2919,33.737,平顶山市,规划设计院,细颗粒物(PM2.5),140,163,130,107,78,80,61,80,50,22,23,2,4,1.0,0.4
2023-01-11T14:00:00,1834A,113.182,33.774,平顶山市,平顶山工学院,细颗粒物(PM2.5),140,178,142,107,79,85,63,70,52,28,32,4,5,1.1,0.8
2023-01-11T14:00:00,1835A,111.1922,34.7752,三门峡市,市政府,细颗粒物(PM2.5),105,88,90,79,67,81,73,53,53,21,26,12,14,0.7,0.6
2023-01-11T14:00:00,1836A,111.1587,34.7942,三门峡市,开发区,细颗粒物(PM2.5),102,127,116,76,62,67,67,44,44,24,25,12,13,0.7,0.7
2023-01-11T14:00:00,1838A,111.143,34.7955,三门峡市,风景区(对照点),,,,,,,,,,,,,,,,
2023-01-11T14:00:00,1840A,111.2992,30.6981,宜昌市,白龙岗,细颗粒物(PM2.5),250,251,227,200,187,138,63,53,28,53,45,8,8,1.4,1.4
2023-01-11T14:00:00,1841A,111.3549,30.6465,宜昌市,伍家岗,细颗粒物(PM2.5),243,237,228,193,191,130,56,18,18,57,55,4,5,1.4,1.5
2023-01-11T14:00:00,1842A,111.2628,30.6961,宜昌市,点军区,细颗粒物(PM2.5),228,220,234,178,190,134,73,30,30,38,39,6,7,1.4,1.6
2023-01-11T14:00:00,1843A,111.3275,30.7819,宜昌市,夷陵区,细颗粒物(PM2.5),225,181,182,175,178,128,81,36,36,36,46,8,8,1.1,1.3
2023-01-11T14:00:00,1844A,112.2494,30.3197,荆州市,市图书馆,细颗粒物(PM2.5),232,168,183,182,166,125,94,48,38,42,39,17,11,1.3,1.2
2023-01-11T14:00:00,1845A,112.2008,30.3544,荆州市,市委党校,细颗粒物(PM2.5),224,172,184,174,159,118,83,52,31,44,41,15,10,1.3,1.2
2023-01-11T14:00:00,1847A,113.1094,29.3578,岳阳市,南湖风景区,细颗粒物(PM2.5),188,171,214,141,175,113,83,36,31,47,64,11,14,1.6,1.6
2023-01-11T14:00:00,1848A,113.1493,29.4251,岳阳市,城陵矶,细颗粒物(PM2.5),139,147,201,106,145,97,73,24,24,46,79,8,9,1.8,1.7
2023-01-11T14:00:00,1849A,113.1497,29.3575,岳阳市,开发区,细颗粒物(PM2.5),262,200,235,212,214,106,67,22,22,50,54,3,4,1.8,1.9
2023-01-11T14:00:00,1850A,113.2621,29.4758,岳阳市,云溪区,细颗粒物(PM2.5),198,193,209,148,153,106,78,30,30,67,47,8,7,1.7,1.9
2023-01-11T14:00:00,1851A,112.9943,29.4402,岳阳市,君山区,细颗粒物(PM2.5),243,195,226,193,191,131,66,45,25,29,39,6,6,1.5,1.5
2023-01-11T14:00:00,1852A,113.2117,29.355,岳阳市,金凤水库(对照点),细颗粒物(PM2.5),209,199,216,159,157,105,100,40,40,40,42,7,7,1.6,1.8
2023-01-11T14:00:00,1854A,111.6975,28.9703,常德市,市二中,细颗粒物(PM2.5),328,312,305,278,264,130,103,35,35,27,32,6,6,1.5,1.6
2023-01-11T14:00:00,1857A,111.7158,29.1456,常德市,白鹤山(对照点),细颗粒物(PM2.5),268,282,269,218,207,132,111,98,59,26,24,6,6,1.3,1.3
2023-01-11T14:00:00,1858A,110.5319,29.1217,张家界市,永定新区,细颗粒物(PM2.5),259,254,220,209,181,130,111,56,44,34,33,6,5,1.3,1.2
2023-01-11T14:00:00,1859A,110.4697,29.1242,张家界市,电业局,细颗粒物(PM2.5),234,216,208,184,175,122,,52,38,,46,5,5,0.9,0.9
2023-01-11T14:00:00,1860A,110.5594,29.3547,张家界市,未央路,细颗粒物(PM2.5),210,221,200,160,149,130,128,60,60,16,14,5,3,1.1,1.2
2023-01-11T14:00:00,1861A,110.4417,29.315,张家界市,袁家界(对照点),细颗粒物(PM2.5),175,150,173,132,138,150,147,134,134,21,20,11,10,1.1,1.3
2023-01-11T14:00:00,1862A,110.4144,25.3167,桂林市,电子科大尧山校区(对照点),细颗粒物(PM2.5),102,86,78,76,57,120,94,102,94,12,12,5,6,1.1,0.8
2023-01-11T14:00:00,1863A,110.2819,25.2697,桂林市,监测站,细颗粒物(PM2.5),122,114,93,92,82,122,93,100,86,14,17,2,4,1.1,0.9
2023-01-11T14:00:00,1864A,110.3089,25.2708,桂林市,龙隐路小学,细颗粒物(PM2.5),129,102,83,98,78,122,94,96,85,16,16,4,6,0.9,0.7
2023-01-11T14:00:00,1865A,110.2869,25.2178,桂林市,八中,细颗粒物(PM2.5),128,97,79,97,83,114,82,90,74,22,21,4,5,0.8,0.7
2023-01-11T14:00:00,1866A,109.2262,21.588,北海市,牛尾岭水库(对照点),,10,1,7,0,5,33,30,30,28,9,8,5,5,0.5,0.5
2023-01-11T14:00:00,1867A,109.1436,21.4086,北海市,海滩公园,,13,7,10,2,5,50,40,32,29,11,8,4,3,0.7,0.7
2023-01-11T14:00:00,1868A,109.0981,21.4661,北海市,新市环保局,,,13,11,7,10,44,37,29,27,17,13,2,3,,0.7
2023-01-11T14:00:00,1869A,109.1778,21.5233,北海市,北海工业园,,13,2,10,5,9,43,40,28,26,13,13,3,3,0.5,0.5
2023-01-11T14:00:00,1870A,109.4856,24.3895,柳州市,柳东小学,细颗粒物(PM2.5),95,51,70,71,71,111,71,72,71,14,20,4,6,0.9,0.8
2023-01-11T14:00:00,1871A,109.4157,24.3277,柳州市,环保监测站,细颗粒物(PM2.5),68,54,67,49,50,85,73,70,70,7,19,4,5,1.1,1.1
2023-01-11T14:00:00,1872A,109.389,24.341,柳州市,河西水厂,细颗粒物(PM2.5),57,50,67,40,54,110,72,74,73,6,16,7,9,1.0,1.1
2023-01-11T14:00:00,1873A,109.4311,24.2921,柳州市,市四中,,,85,66,49,46,114,65,62,62,18,28,,8,0.9,0.8
2023-01-11T14:00:00,1874A,109.4006,24.3631,柳州市,市九中,细颗粒物(PM2.5),65,44,71,47,57,107,68,72,69,14,26,7,9,0.8,0.8
2023-01-11T14:00:00,1875A,109.4958,24.3134,柳州市,古亭山,细颗粒物(PM2.5),84,96,59,62,48,111,70,59,59,12,21,8,9,1.0,0.7
2023-01-11T14:00:00,1876A,109.5078,18.2489,三亚市,河东子站,,25,22,20,11,11,178,80,65,65,5,7,22,39,0.9,1
2023-01-11T14:00:00,1877A,109.4964,18.2681,三亚市,河西子站,,22,22,19,11,9,74,66,60,56,7,8,2,2,0.4,0.4
2023-01-11T14:00:00,1878A,104.7778,31.4741,绵阳市,富乐山,细颗粒物(PM2.5),168,160,157,127,137,42,31,26,13,50,38,4,3,1.0,0.9
2023-01-11T14:00:00,1879A,104.7563,31.4535,绵阳市,市人大,细颗粒物(PM2.5),185,174,167,139,144,30,13,16,4,62,50,2,3,1.2,1.1
2023-01-11T14:00:00,1880A,104.6697,31.4668,绵阳市,高新区自来水公司,细颗粒物(PM2.5),192,195,187,144,147,23,23,11,11,51,46,5,5,1.1,1.2
2023-01-11T14:00:00,1881A,104.7287,31.5075,绵阳市,三水厂,细颗粒物(PM2.5),188,181,188,141,154,36,36,10,10,40,46,4,4,0.8,1
2023-01-11T14:00:00,1882A,104.563,28.793,宜宾市,石马中学(对照点),细颗粒物(PM2.5),150,143,168,115,134,63,63,45,45,18,31,6,7,0.9,1
2023-01-11T14:00:00,1883A,104.6201,28.7728,宜宾市,市委,细颗粒物(PM2.5),158,167,181,120,138,61,56,46,46,35,47,8,10,0.8,0.9
2023-01-11T14:00:00,1884A,104.6055,28.793,宜宾市,宜宾四中,细颗粒物(PM2.5),170,165,184,129,151,69,62,53,53,30,46,6,7,0.7,0.9
2023-01-11T14:00:00,1885A,104.639,28.7562,宜宾市,市政府,细颗粒物(PM2.5),169,169,175,128,139,62,62,57,57,28,42,8,9,0.8,0.9
2023-01-11T14:00:00,1886A,104.5742,28.7199,宜宾市,黄金嘴,细颗粒物(PM2.5),152,158,169,116,133,73,71,59,59,28,47,10,10,0.9,1
2023-01-11T14:00:00,1888A,101.6891,26.571,攀枝花市,弄弄坪,细颗粒物(PM2.5),57,57,100,40,62,123,92,24,24,27,46,20,29,1.4,1.9
2023-01-11T14:00:00,1889A,101.5769,26.5928,攀枝花市,河门口,,38,38,82,24,51,130,98,40,40,14,35,19,34,0.9,2
2023-01-11T14:00:00,1890A,101.7169,26.585,攀枝花市,炳草岗,颗粒物(PM10),54,58,85,31,53,115,82,24,24,28,58,26,23,1.5,1.8
2023-01-11T14:00:00,1891A,101.7369,26.5008,攀枝花市,仁和,,42,34,96,29,55,148,106,38,35,18,32,26,34,1.5,2.1
2023-01-11T14:00:00,1893A,105.4324,28.9634,泸州市,九狮山(对照点),细颗粒物(PM2.5),138,130,149,105,114,59,27,10,10,22,19,9,8,0.5,0.6
2023-01-11T14:00:00,1894A,105.4427,28.9063,泸州市,小市上码头,细颗粒物(PM2.5),162,174,197,123,148,60,31,25,14,35,43,8,9,1.0,1.1
2023-01-11T14:00:00,1895A,105.4241,28.8573,泸州市,兰田宪桥,细颗粒物(PM2.5),182,180,208,137,172,56,25,26,19,31,32,7,10,0.9,1
2023-01-11T14:00:00,1896A,105.4379,28.8833,泸州市,市环监站,细颗粒物(PM2.5),153,162,195,117,146,53,39,28,18,32,38,5,6,0.9,0.9
2023-01-11T14:00:00,1901A,104.4239,31.1208,德阳市,东山公园,细颗粒物(PM2.5),202,185,173,152,148,50,33,15,9,39,48,3,3,1.1,1.2
2023-01-11T14:00:00,1902A,104.3826,31.1317,德阳市,西小区,细颗粒物(PM2.5),195,174,166,146,146,26,21,8,8,52,51,4,3,1.1,1
2023-01-11T14:00:00,1904A,104.3553,31.1091,德阳市,耐火材料厂,细颗粒物(PM2.5),202,219,212,152,155,51,40,14,14,36,46,3,4,1.0,1.1
2023-01-11T14:00:00,1905A,106.056,30.8064,南充市,西山风景区(对照点),,,,,,,,,,,,,,,,
2023-01-11T14:00:00,1906A,106.0789,30.8023,南充市,南充市委,细颗粒物(PM2.5),168,184,170,127,135,22,9,6,6,60,45,5,5,1.3,1.2
2023-01-11T14:00:00,1907A,106.1031,30.8217,南充市,南充炼油厂,细颗粒物(PM2.5),199,195,183,149,145,36,5,3,3,47,36,8,7,1.0,1
2023-01-11T14:00:00,1908A,106.1064,30.7856,南充市,高坪区监测站,细颗粒物(PM2.5),175,182,193,132,150,27,11,6,6,56,46,9,9,1.1,1.2
2023-01-11T14:00:00,1909A,106.0642,30.7636,南充市,嘉陵区环保局,细颗粒物(PM2.5),153,166,175,117,136,23,19,8,8,49,45,6,5,1.1,1.1
2023-01-11T14:00:00,1910A,106.1087,30.8388,南充市,市环境监测站,细颗粒物(PM2.5),182,186,186,137,142,31,14,10,6,36,33,8,8,0.9,0.9
2023-01-11T14:00:00,1911A,106.9222,27.6869,遵义市,丁字口,细颗粒物(PM2.5),63,47,77,45,61,122,110,91,91,19,44,18,42,0.7,1.2
2023-01-11T14:00:00,1912A,106.9242,27.7019,遵义市,凤凰山,,,57,80,25,50,142,98,124,109,18,17,,10,1.0,0.9
2023-01-11T14:00:00,1913A,106.8906,27.6486,遵义市,忠庄,细颗粒物(PM2.5),58,53,77,41,57,122,104,104,96,19,18,9,6,0.6,0.6
2023-01-11T14:00:00,1914A,106.9231,27.6506,遵义市,舟水桥,细颗粒物(PM2.5),58,52,113,41,68,138,112,69,69,14,36,11,63,0.6,1
2023-01-11T14:00:00,1915A,106.9178,27.72,遵义市,干田坝,细颗粒物(PM2.5),59,52,75,42,51,122,103,68,68,17,37,15,16,0.8,1
2023-01-11T14:00:00,1916A,103.7897,25.5035,曲靖市,环境监测站,,31,19,31,14,23,114,97,67,65,7,15,4,5,0.6,0.7
2023-01-11T14:00:00,1917A,103.8,25.5364,曲靖市,烟厂办公区,,31,24,38,12,24,117,97,60,57,5,19,3,4,0.4,0.5
2023-01-11T14:00:00,1918A,108.7197,34.3956,咸阳市,气象站(对照点),细颗粒物(PM2.5),134,,172,102,136,83,,,,46,67,17,14,1.1,1.3
2023-01-11T14:00:00,1919A,108.673,34.3155,咸阳市,实验中学,细颗粒物(PM2.5),149,167,204,114,160,73,49,20,20,41,56,11,10,0.9,1.3
2023-01-11T14:00:00,1920A,108.7233,34.3617,咸阳市,师范学院,细颗粒物(PM2.5),132,117,174,100,135,82,57,29,29,35,57,15,12,1.0,1.3
2023-01-11T14:00:00,1922A,109.0656,35.0994,铜川市,党校(对照点),颗粒物(PM10),68,86,122,45,56,117,80,55,55,19,27,16,14,1.1,1.2
2023-01-11T14:00:00,1923A,109.0697,35.0697,铜川市,王益区政府,细颗粒物(PM2.5),107,107,131,80,101,100,69,27,27,26,48,11,10,1.0,1.2
2023-01-11T14:00:00,1924A,108.9344,34.9058,铜川市,新区管委会,细颗粒物(PM2.5),142,154,142,108,112,96,57,62,47,33,35,24,16,1.2,1.3
2023-01-11T14:00:00,1926A,109.4131,36.6275,延安市,枣园(对照点),细颗粒物(PM2.5),132,122,130,100,101,92,78,19,19,31,59,8,6,0.7,1.1
2023-01-11T14:00:00,1927A,109.4761,36.6028,延安市,延大医附院,细颗粒物(PM2.5),128,178,145,97,100,90,,9,9,40,72,14,10,1.1,1.7
2023-01-11T14:00:00,1929A,109.5056,36.6106,延安市,百米大道,细颗粒物(PM2.5),127,144,146,96,114,95,83,26,26,28,76,12,13,1.2,2
2023-01-11T14:00:00,1930A,107.185,34.3063,宝鸡市,庙沟村(对照点),细颗粒物(PM2.5),182,175,155,137,119,58,46,47,24,40,49,24,10,1.7,1.4
2023-01-11T14:00:00,1931A,107.0708,34.3017,宝鸡市,竹园沟,细颗粒物(PM2.5),183,186,161,138,134,81,61,30,28,48,46,17,10,1.6,1.5
2023-01-11T14:00:00,1932A,107.1906,34.3672,宝鸡市,三陆医院,细颗粒物(PM2.5),199,207,198,149,154,82,65,22,22,47,62,26,18,1.3,1.3
2023-01-11T14:00:00,1933A,107.1431,34.3547,宝鸡市,监测站,细颗粒物(PM2.5),188,201,172,141,134,77,57,18,18,52,63,23,9,1.3,1.3
2023-01-11T14:00:00,1934A,107.1186,34.3739,宝鸡市,技工学校,细颗粒物(PM2.5),204,210,168,154,144,82,52,30,25,56,54,,17,1.4,1.3
2023-01-11T14:00:00,1935A,107.3906,34.3528,宝鸡市,陈仓区环保局家属楼,细颗粒物(PM2.5),206,212,215,156,161,75,40,21,21,63,67,26,35,1.6,2
2023-01-11T14:00:00,1936A,107.2058,34.3497,宝鸡市,文理学院,细颗粒物(PM2.5),166,187,182,126,129,85,85,28,28,34,59,18,13,1.3,1.4
2023-01-11T14:00:00,1937A,107.2386,34.3622,宝鸡市,三迪小学,细颗粒物(PM2.5),190,,197,143,136,82,55,22,22,49,65,21,14,1.3,1.4
2023-01-11T14:00:00,1938A,109.5293,34.5101,渭南市,农科所(对照点),细颗粒物(PM2.5),107,127,157,80,100,81,68,28,28,24,49,14,12,0.8,1
2023-01-11T14:00:00,1939A,109.4974,34.4877,渭南市,日报社,细颗粒物(PM2.5),114,124,161,86,108,73,59,32,32,27,60,13,14,0.9,1.2
2023-01-11T14:00:00,1940A,109.4636,34.493,渭南市,体育馆,细颗粒物(PM2.5),130,127,144,99,100,66,56,23,23,28,56,,10,1.0,1.1
2023-01-11T14:00:00,1941A,109.4259,34.5023,渭南市,高新一小,细颗粒物(PM2.5),129,150,149,98,111,81,62,24,24,28,47,14,13,0.9,1.1
2023-01-11T14:00:00,1943A,102.1725,38.5339,金昌市,新川苑,颗粒物(PM10),149,247,250,56,46,77,55,37,37,29,28,51,22,1.0,0.9
2023-01-11T14:00:00,1944A,102.1692,38.5167,金昌市,天庆家园,颗粒物(PM10),134,217,211,58,51,78,64,40,40,37,35,68,21,1.5,1.1
2023-01-11T14:00:00,1945A,98.2908,39.7711,嘉峪关市,气象局,颗粒物(PM10),144,237,185,68,46,82,43,27,27,43,41,54,20,1.3,0.6
2023-01-11T14:00:00,1947A,106.3394,38.817,石嘴山市,沙湖旅游区(对照点),颗粒物(PM10),429,529,296,223,175,58,58,20,20,67,70,58,46,4.1,2.8
2023-01-11T14:00:00,1948A,106.3668,39.0145,石嘴山市,大武口朝阳西街,颗粒物(PM10),152,253,156,106,91,76,57,66,20,56,62,103,64,1.6,1.4
2023-01-11T14:00:00,1949A,106.7704,39.2282,石嘴山市,惠农南大街,颗粒物(PM10),135,219,163,102,97,98,49,38,18,50,57,84,44,2.3,1.7
2023-01-11T14:00:00,1950A,106.7099,39.1325,石嘴山市,红果子镇惠新街,颗粒物(PM10),166,282,177,90,93,105,56,53,23,35,48,66,36,1.7,1.3
2023-01-11T14:00:00,1951A,84.895,45.6094,克拉玛依市,长征新村,,19,8,88,4,51,68,59,57,57,5,32,6,7,0.2,0.7
2023-01-11T14:00:00,1952A,84.8988,45.5893,克拉玛依市,南林小区,,22,8,90,15,61,68,59,56,56,6,31,1,2,0.1,0.6
2023-01-11T14:00:00,1954A,84.905,44.3396,克拉玛依市,独山子区,,,22,62,10,43,76,,74,60,,26,7,7,0.4,0.8
2023-01-11T14:00:00,1955A,85.6979,46.098,克拉玛依市,乌尔禾区商贸楼,颗粒物(PM10),78,105,89,23,47,74,72,72,72,12,26,4,5,0.3,0.8
2023-01-11T14:00:00,1956A,86.1472,41.7538,巴音郭楞州,孔雀公园,颗粒物(PM10),182,314,168,48,62,82,78,43,43,22,65,2,5,0.7,1.2
2023-01-11T14:00:00,1957A,86.1972,41.7166,巴音郭楞州,棉纺厂,颗粒物(PM10),436,536,202,60,62,75,75,38,38,29,67,8,6,0.5,0.9
2023-01-11T14:00:00,1958A,86.2357,41.7173,巴音郭楞州,经济开发区,颗粒物(PM10),259,391,138,45,48,75,71,54,54,25,46,6,6,0.8,1
2023-01-11T14:00:00,1961A,117.532,36.6868,济南市,东山小学,,,81,82,42,43,83,83,42,42,,57,10,11,0.5,0.8
2023-01-11T14:00:00,1966A,120.0405,35.8735,青岛市,黄岛区4号,,,22,29,7,16,73,,48,48,8,32,3,6,0.4,0.7
2023-01-11T14:00:00,1982A,122.0693,37.2174,威海市,文登开发区,,32,29,36,22,24,77,77,62,45,17,29,4,4,0.4,0.5
2023-01-11T14:00:00,2031A,113.1817,27.9958,株洲市,云田中学,细颗粒物(PM2.5),163,139,241,124,205,137,128,53,53,29,45,6,5,1.2,1.6
2023-01-11T14:00:00,2054A,114.1099,32.1059,信阳市,平桥分局,细颗粒物(PM2.5),176,155,148,133,102,85,85,54,54,25,25,9,8,1.2,1.1
2023-01-11T14:00:00,2064A,113.9956,32.1271,信阳市,南湾水厂,细颗粒物(PM2.5),185,174,145,139,97,73,73,57,57,22,22,7,6,,1
2023-01-11T14:00:00,2065A,114.0775,32.1195,信阳市,市酿酒公司,细颗粒物(PM2.5),170,140,133,129,104,83,83,54,54,24,23,8,7,1.3,1.1
2023-01-11T14:00:00,2066A,114.0609,32.1399,信阳市,审计局,细颗粒物(PM2.5),189,171,143,142,111,83,83,53,53,24,24,11,9,1.1,0.9
2023-01-11T14:00:00,2067A,114.6613,33.6128,周口市,市环境监测站,颗粒物(PM10),165,279,143,116,102,74,74,46,46,23,37,11,6,1.0,1
2023-01-11T14:00:00,2068A,114.6758,33.6347,周口市,周口师范,细颗粒物(PM2.5),163,155,139,124,117,82,77,50,50,24,38,11,7,1.2,1.2
2023-01-11T14:00:00,2069A,114.6546,33.5979,周口市,市运管处,细颗粒物(PM2.5),163,162,137,124,110,79,78,46,46,22,42,9,5,1.5,1.5
2023-01-11T14:00:00,2070A,114.6369,33.6406,周口市,川汇区环保局,细颗粒物(PM2.5),166,135,131,126,103,73,68,48,48,25,40,8,4,1.1,1.1
2023-01-11T14:00:00,2075A,117.6336,24.4674,漳州市,九湖(对照点),,,,,,,,,,,,,,,,
2023-01-11T14:00:00,2160A,112.85,35.5051,晋城市,自来水公司,细颗粒物(PM2.5),85,86,101,63,65,82,82,66,33,26,39,16,18,1.3,1.3
2023-01-11T14:00:00,2161A,112.8318,35.4936,晋城市,白云商贸,细颗粒物(PM2.5),77,73,91,56,51,92,80,62,39,28,34,13,12,1.1,1.1
2023-01-11T14:00:00,2162A,112.8508,35.4887,晋城市,市环保局,细颗粒物(PM2.5),89,106,106,66,62,100,80,62,33,31,42,15,17,1.0,1
2023-01-11T14:00:00,2163A,112.8676,35.4897,晋城市,技术学院,细颗粒物(PM2.5),85,87,99,63,64,94,77,57,33,24,34,10,12,0.9,1
2023-01-11T14:00:00,2165A,112.8453,35.546,晋城市,白马寺 (对照点),,,,,,,,,,,,,,,,
2023-01-11T14:00:00,2166A,112.4397,39.3522,朔州市,平朔,细颗粒物(PM2.5),189,224,246,142,127,50,20,12,12,79,76,52,42,1.4,1.5
2023-01-11T14:00:00,2167A,112.4575,39.3617,朔州市,朔唯,细颗粒物(PM2.5),190,,276,143,136,52,,5,5,68,78,40,47,1.2,1.3
2023-01-11T14:00:00,2168A,112.4258,39.3197,朔州市,区政府,细颗粒物(PM2.5),237,242,223,187,126,42,18,10,10,77,69,52,42,1.3,1.4
2023-01-11T14:00:00,2169A,112.4072,39.3278,朔州市,市环保局,细颗粒物(PM2.5),200,237,220,150,129,43,18,10,10,78,65,54,43,1.7,1.7
2023-01-11T14:00:00,2170A,112.4272,39.3681,朔州市,市二中,细颗粒物(PM2.5),190,286,277,143,134,44,16,9,9,87,70,48,38,1.7,1.6
2023-01-11T14:00:00,2171A,112.7532,37.6945,晋中市,锦纶小区,细颗粒物(PM2.5),149,180,151,114,94,68,42,18,18,63,63,50,27,1.2,1.1
2023-01-11T14:00:00,2173A,112.7249,37.7067,晋中市,南都小区,细颗粒物(PM2.5),129,168,155,98,82,67,42,22,22,62,65,33,28,1.1,1.2
2023-01-11T14:00:00,2174A,112.6991,37.6982,晋中市,榆次区政府,细颗粒物(PM2.5),133,186,161,101,77,62,30,16,16,67,65,37,33,1.0,1
2023-01-11T14:00:00,2175A,110.9956,35.0147,运城市,运城中学,细颗粒物(PM2.5),97,110,97,72,57,94,72,69,46,23,24,17,10,0.9,0.7
2023-01-11T14:00:00,2178A,110.9686,35.0303,运城市,地区技校,细颗粒物(PM2.5),93,120,103,69,60,90,79,65,46,16,24,10,9,0.8,0.8
2023-01-11T14:00:00,2179A,111.0414,35.1147,运城市,空港新区,细颗粒物(PM2.5),97,110,109,72,68,100,87,56,52,17,27,10,10,0.7,1.1
2023-01-11T14:00:00,2181A,112.7383,38.4519,忻州市,开发区,细颗粒物(PM2.5),168,200,163,127,110,43,11,8,8,66,54,29,21,1.6,1.4
2023-01-11T14:00:00,2182A,112.7003,38.4928,忻州市,会展中心,,,,156,,107,41,20,16,16,,55,27,15,1.3,1.3
2023-01-11T14:00:00,2183A,111.1406,37.5211,吕梁市,环保局,颗粒物(PM10),109,167,172,80,80,77,36,14,14,74,79,43,28,2.0,1.5
2023-01-11T14:00:00,2185A,111.1297,37.5136,吕梁市,自来水公司,颗粒物(PM10),105,159,195,,77,77,46,13,13,56,73,30,30,2.2,1.5
2023-01-11T14:00:00,2187A,106.8174,39.6973,乌海市,市林业局,颗粒物(PM10),95,139,149,61,61,58,58,34,34,39,48,30,27,1.3,1.3
2023-01-11T14:00:00,2188A,106.7907,39.6667,乌海市,中海勃湾学校,颗粒物(PM10),96,141,150,70,61,60,60,40,40,36,46,29,24,1.2,1.1
2023-01-11T14:00:00,2191A,122.2532,43.6801,通辽市,艺术职业学校,颗粒物(PM10),70,90,101,47,46,61,40,26,26,40,44,34,40,0.5,0.1
2023-01-11T14:00:00,2192A,119.7594,49.2261,呼伦贝尔市,区环保局,,27,27,28,13,20,66,60,47,37,6,26,5,5,0.3,0.7
2023-01-11T14:00:00,2195A,107.4212,40.761,巴彦淖尔市,附二中,颗粒物(PM10),112,174,188,72,80,47,47,23,23,37,52,13,19,1.2,1.3
2023-01-11T14:00:00,2196A,107.37,40.7372,巴彦淖尔市,市环保大楼,细颗粒物(PM2.5),125,145,157,95,88,54,54,26,26,38,57,15,16,1.2,1.2
2023-01-11T14:00:00,2197A,113.1306,40.9923,乌兰察布市,集宁新区,细颗粒物(PM2.5),117,150,119,88,66,68,18,11,11,58,54,38,36,1.2,1.1
2023-01-11T14:00:00,2200A,122.0392,46.0656,兴安盟,胜华新制药厂,,45,43,35,31,23,71,70,52,36,19,28,9,6,0.5,0.5
2023-01-11T14:00:00,2201A,121.9504,46.0741,兴安盟,科右前旗环保局,,40,40,40,25,26,72,70,46,34,11,25,3,4,0.5,0.7
2023-01-11T14:00:00,2202A,116.1042,43.9317,锡林郭勒盟,市环保监测站,颗粒物(PM10),60,69,56,37,31,90,90,68,68,16,23,6,9,0.7,0.7
2023-01-11T14:00:00,2203A,116.0781,43.9311,锡林郭勒盟,市政府,颗粒物(PM10),58,66,46,39,30,87,87,66,66,19,29,11,11,0.7,0.7
2023-01-11T14:00:00,2204A,105.6467,38.8363,阿拉善盟,西城区西花园(对照点),颗粒物(PM10),109,167,179,35,61,86,86,68,68,12,27,7,13,0.5,0.8
2023-01-11T14:00:00,2205A,105.6985,38.8411,阿拉善盟,蒙二幼,颗粒物(PM10),119,188,181,,75,86,86,72,72,12,25,9,17,0.2,0.7
2023-01-11T14:00:00,2206A,105.724,38.8516,阿拉善盟,环保局新楼,颗粒物(PM10),84,117,131,42,66,88,88,78,78,11,20,10,13,0.4,0.7
2023-01-11T14:00:00,2207A,121.6094,41.998,阜新市,工业园区,颗粒物(PM10),116,182,181,54,84,44,44,21,21,39,45,22,24,1.3,2
2023-01-11T14:00:00,2208A,121.6697,42.0279,阜新市,长青街,,,110,123,54,64,42,42,19,19,44,62,21,25,,1.7
2023-01-11T14:00:00,2209A,121.6673,42.0705,阜新市,农业园区,颗粒物(PM10),107,163,130,62,70,52,52,27,27,35,54,27,38,1.4,1.6
2023-01-11T14:00:00,2210A,121.6717,42.0224,阜新市,东苑,颗粒物(PM10),100,150,142,60,73,50,50,24,24,37,55,24,42,1.4,1.6
2023-01-11T14:00:00,2211A,121.6506,42.0498,阜新市,玉龙新城,颗粒物(PM10),97,143,129,57,69,50,50,25,25,35,49,24,23,1.2,1.5
2023-01-11T14:00:00,2212A,123.2,41.1953,辽阳市,宏伟区,颗粒物(PM10),51,52,56,29,23,79,77,68,68,18,21,10,12,0.7,0.7
2023-01-11T14:00:00,2213A,123.1683,41.2495,辽阳市,新华园,颗粒物(PM10),95,139,68,58,33,72,72,59,59,23,27,14,17,0.6,0.9
2023-01-11T14:00:00,2214A,123.2354,41.2639,辽阳市,滨河路,细颗粒物(PM2.5),60,48,47,43,29,76,74,65,65,21,22,10,11,0.5,0.5
2023-01-11T14:00:00,2215A,123.149,41.2991,辽阳市,铁西工业园,颗粒物(PM10),85,120,72,60,33,74,74,59,59,29,30,14,14,0.8,0.8
2023-01-11T14:00:00,2216A,123.8139,42.3022,铁岭市,汇工街西,颗粒物(PM10),76,102,68,47,29,66,66,61,61,25,36,20,22,0.8,0.9
2023-01-11T14:00:00,2217A,123.8649,42.2923,铁岭市,水上乐园,颗粒物(PM10),77,104,64,45,31,71,71,60,60,29,35,19,19,0.4,0.6
2023-01-11T14:00:00,2218A,123.8486,42.2867,铁岭市,银州路东段,颗粒物(PM10),86,122,81,43,29,73,73,65,65,34,36,14,15,0.8,0.9
2023-01-11T14:00:00,2219A,123.7153,42.2217,铁岭市,金沙江路北,颗粒物(PM10),95,140,78,63,39,61,61,52,52,37,39,22,20,0.9,1
2023-01-11T14:00:00,2220A,120.4318,41.5881,朝阳市,西梁,颗粒物(PM10),88,125,83,38,36,67,67,36,36,28,38,18,18,0.8,1
2023-01-11T14:00:00,2221A,120.4521,41.5646,朝阳市,河畔小区,颗粒物(PM10),85,119,72,40,33,55,55,36,36,29,30,13,11,1.0,1
2023-01-11T14:00:00,2222A,120.4176,41.5648,朝阳市,八里堡,颗粒物(PM10),76,101,82,39,38,61,59,35,35,35,42,21,20,0.9,1.1
2023-01-11T14:00:00,2223A,120.3806,41.5969,朝阳市,农业园区,细颗粒物(PM2.5),88,91,66,65,34,70,70,51,51,22,25,11,15,1.0,1
2023-01-11T14:00:00,2225A,124.4002,43.1713,四平市,一商场,,45,45,62,17,32,62,56,56,56,32,37,12,12,0.6,0.7
2023-01-11T14:00:00,2226A,124.388,43.193,四平市,境园,颗粒物(PM10),52,53,62,22,28,64,60,59,59,23,26,11,12,0.5,0.6
2023-01-11T14:00:00,2227A,125.1358,42.8845,辽源市,环保局,,27,27,42,18,31,81,80,50,49,12,33,11,13,0.5,0.8
2023-01-11T14:00:00,2229A,125.9358,41.7173,通化市,光明,颗粒物(PM10),69,88,105,34,64,78,78,27,27,13,59,16,33,0.4,1.7
2023-01-11T14:00:00,2230A,125.9446,41.7325,通化市,铁路,,44,44,119,18,69,75,75,28,28,11,60,14,29,0.4,2
2023-01-11T14:00:00,2231A,126.4219,41.9171,白山市,喜丰,颗粒物(PM10),63,76,82,40,48,42,31,20,20,33,40,21,18,1.0,1.1
2023-01-11T14:00:00,2232A,126.4077,41.9419,白山市,环保局,细颗粒物(PM2.5),75,69,95,55,58,49,37,22,22,57,51,27,23,1.8,1.7
2023-01-11T14:00:00,2233A,124.8006,45.1214,松原市,江南,细颗粒物(PM2.5),65,53,69,47,46,51,50,38,38,19,28,12,10,0.7,0.9
2023-01-11T14:00:00,2234A,124.7965,45.1722,松原市,江北,颗粒物(PM10),51,51,86,25,38,55,55,41,41,22,31,10,8,0.2,0.9
2023-01-11T14:00:00,2235A,122.7911,45.6077,白城市,洮北区环保局,颗粒物(PM10),55,60,60,33,37,78,65,56,54,15,18,6,8,0.6,0.7
2023-01-11T14:00:00,2236A,122.8738,45.5725,白城市,市环保局,,50,50,57,9,15,65,58,42,42,14,26,6,8,0.5,0.5
2023-01-11T14:00:00,2237A,129.47,42.8883,延边朝鲜族自治州,妇幼医院,颗粒物(PM10),64,77,53,29,33,72,52,22,22,30,36,17,16,0.7,0.9
2023-01-11T14:00:00,2238A,129.5055,42.9108,延边朝鲜族自治州,延边医院,颗粒物(PM10),67,83,73,31,50,60,37,23,23,50,47,16,15,1.1,1.2
2023-01-11T14:00:00,2239A,129.3964,42.8881,延边朝鲜族自治州,朝阳川镇医院,,48,48,55,18,35,69,49,23,23,30,28,14,12,0.8,0.9
2023-01-11T14:00:00,2240A,130.9762,45.3001,鸡西市,环保局,细颗粒物(PM2.5),58,61,72,41,56,57,53,28,28,30,59,13,17,1.2,1.6
2023-01-11T14:00:00,2243A,130.9429,45.3039,鸡西市,第一中学,,42,42,37,25,24,70,70,60,60,11,20,8,10,0.5,0.5
2023-01-11T14:00:00,2244A,130.2537,47.3416,鹤岗市,哈啤分公司,细颗粒物(PM2.5),83,89,74,61,51,50,39,40,21,38,33,20,15,0.9,0.7
2023-01-11T14:00:00,2245A,130.2684,47.3086,鹤岗市,斯达机电,颗粒物(PM10),79,108,75,51,46,55,37,43,33,49,40,22,18,0.9,0.6
2023-01-11T14:00:00,2246A,130.3114,47.3388,鹤岗市,东山纸板厂,颗粒物(PM10),77,103,110,52,67,33,28,18,18,44,44,33,23,0.6,1.4
2023-01-11T14:00:00,2247A,130.1097,47.3382,鹤岗市,五号水库(对照点),颗粒物(PM10),80,110,50,54,28,64,43,34,34,27,20,12,8,0.5,0.3
2023-01-11T14:00:00,2248A,131.1511,46.6937,双鸭山市,双合村,细颗粒物(PM2.5),59,63,66,42,43,72,63,45,45,25,30,20,15,1.3,1.2
2023-01-11T14:00:00,2249A,131.1652,46.6191,双鸭山市,南小市,颗粒物(PM10),67,83,54,36,31,73,73,60,54,17,19,14,16,0.8,0.6
2023-01-11T14:00:00,2250A,131.1524,46.6554,双鸭山市,环保局,细颗粒物(PM2.5),57,62,53,40,38,62,59,52,52,34,36,21,14,1.1,0.9
2023-01-11T14:00:00,2251A,131.12,46.5656,双鸭山市,苗圃(对照点),,43,29,35,30,28,88,86,72,72,17,14,11,8,0.7,0.5
2023-01-11T14:00:00,2252A,128.5159,47.4311,伊春市,环保局,细颗粒物(PM2.5),74,56,53,54,48,57,35,30,30,31,32,24,10,1.6,1
2023-01-11T14:00:00,2253A,128.9102,47.7412,伊春市,电力嘉园,颗粒物(PM10),52,54,57,29,36,56,34,27,27,33,35,33,12,1.8,1
2023-01-11T14:00:00,2254A,129.5029,48.471,伊春市,汤旺河国家公园(对照点),细颗粒物(PM2.5),79,101,52,58,36,67,23,40,38,15,9,6,7,0.6,0.4
2023-01-11T14:00:00,2255A,130.2751,46.8028,佳木斯市,佳纺,细颗粒物(PM2.5),142,172,96,108,79,62,,21,21,35,23,16,10,1.5,1.2
2023-01-11T14:00:00,2256A,130.3995,46.8307,佳木斯市,发电厂,细颗粒物(PM2.5),155,126,62,118,53,65,43,36,33,34,24,26,8,1.0,0.8
2023-01-11T14:00:00,2257A,130.3258,46.7975,佳木斯市,环保局,细颗粒物(PM2.5),100,98,76,75,63,61,53,23,23,33,49,14,12,0.8,1.1
2023-01-11T14:00:00,2258A,130.3648,46.8032,佳木斯市,十一中,细颗粒物(PM2.5),87,85,78,64,69,60,32,26,26,58,57,13,10,1.3,1.2
2023-01-11T14:00:00,2259A,130.3794,46.7588,佳木斯市,四丰(对照点),细颗粒物(PM2.5),58,49,43,41,36,88,88,75,69,16,18,1,1,0.6,0.5
2023-01-11T14:00:00,2262A,131.0518,45.8751,七台河市,新一中(对照点),细颗粒物(PM2.5),78,81,43,57,33,71,57,55,55,38,24,21,16,1.2,1
2023-01-11T14:00:00,2263A,127.4833,50.2524,黑河市,交通局,细颗粒物(PM2.5),79,78,98,58,73,52,42,19,19,30,49,26,20,0.9,1.4
2023-01-11T14:00:00,2264A,127.5144,50.2341,黑河市,环保局,,,121,104,48,53,56,36,19,19,,40,13,18,0.8,0.9
2023-01-11T14:00:00,2265A,127.5291,50.2472,黑河市,大黑河岛(对照点),细颗粒物(PM2.5),82,73,55,60,54,68,58,36,36,5,12,12,9,0.6,0.8
2023-01-11T14:00:00,2266A,126.9785,46.6365,绥化市,人和东街,细颗粒物(PM2.5),89,95,98,66,68,63,63,35,35,25,40,12,15,0.9,1
2023-01-11T14:00:00,2267A,126.964,46.6528,绥化市,党政办公中心,,,89,92,66,64,78,78,46,46,,31,12,12,,0.9
2023-01-11T14:00:00,2269A,124.1069,50.4097,大兴安岭地区,科技局,,35,35,31,21,23,61,58,49,47,11,15,4,5,0.5,0.5
2023-01-11T14:00:00,2270A,117.396,32.939,蚌埠市,工人疗养院,颗粒物(PM10),68,85,74,45,44,96,96,38,38,21,45,6,7,0.6,0.5
2023-01-11T14:00:00,2271A,117.3605,32.9427,蚌埠市,百货大楼,细颗粒物(PM2.5),79,90,72,58,45,88,88,35,35,23,45,13,11,0.6,0.5
2023-01-11T14:00:00,2273A,117.4185,32.8911,蚌埠市,蚌埠学院,颗粒物(PM10),65,80,69,44,36,100,100,44,44,23,45,10,13,0.5,0.4
2023-01-11T14:00:00,2274A,117.3533,32.9673,蚌埠市,淮上区政府,细颗粒物(PM2.5),73,90,72,53,36,96,96,36,36,20,37,12,10,0.6,0.5
2023-01-11T14:00:00,2275A,117.3145,32.8977,蚌埠市,高新区,细颗粒物(PM2.5),70,88,81,51,49,91,91,44,43,19,29,11,8,0.6,0.4
2023-01-11T14:00:00,2277A,116.8305,32.7727,淮南市,潘集区政府,细颗粒物(PM2.5),110,123,121,83,84,78,78,30,30,29,41,10,6,0.5,0.6
2023-01-11T14:00:00,2278A,117.0067,32.6524,淮南市,师范学院,细颗粒物(PM2.5),103,113,108,77,67,82,82,36,36,29,40,12,10,0.8,0.7
2023-01-11T14:00:00,2279A,116.8569,32.5951,淮南市,谢家集区政府,细颗粒物(PM2.5),77,95,93,56,58,80,80,36,36,38,36,11,11,0.6,0.5
2023-01-11T14:00:00,2280A,116.8281,32.633,淮南市,八公山区政府,细颗粒物(PM2.5),77,86,88,56,66,82,82,45,35,28,28,13,9,0.6,0.5
2023-01-11T14:00:00,2281A,116.6325,32.6201,淮南市,焦岗湖风景区管理处(对照点),细颗粒物(PM2.5),92,105,127,68,87,104,104,104,104,3,8,4,3,0.3,0.4
2023-01-11T14:00:00,2282A,116.8004,33.975,淮北市,监测站,细颗粒物(PM2.5),83,93,77,61,47,82,79,50,42,22,31,9,8,0.6,0.6
2023-01-11T14:00:00,2283A,116.8091,33.9007,淮北市,烈山区政府,,,,71,,48,87,81,45,45,22,36,8,6,0.5,0.5
2023-01-11T14:00:00,2284A,116.7856,33.9477,淮北市,职业技术学院,细颗粒物(PM2.5),87,84,77,64,51,82,80,52,43,28,31,11,9,0.6,0.6
2023-01-11T14:00:00,2285A,117.8177,30.9412,铜陵市,市第四中学,颗粒物(PM10),89,127,101,59,57,89,45,18,18,72,53,17,12,0.8,0.5
2023-01-11T14:00:00,2286A,117.8059,30.9273,铜陵市,市公路局,细颗粒物(PM2.5),98,116,101,73,64,81,30,12,12,80,47,16,11,1.2,1
2023-01-11T14:00:00,2287A,117.7807,30.9413,铜陵市,市新民污水厂,颗粒物(PM10),97,143,93,58,50,94,43,16,16,76,55,35,18,0.8,0.5
2023-01-11T14:00:00,2288A,117.7439,30.8792,铜陵市,市第九中学,细颗粒物(PM2.5),200,227,123,150,72,87,31,18,18,71,47,28,11,2.7,1.1
2023-01-11T14:00:00,2289A,117.846,30.9413,铜陵市,车站新区,细颗粒物(PM2.5),73,89,80,53,45,100,68,22,22,32,38,16,9,0.7,0.6
2023-01-11T14:00:00,2290A,117.8483,30.97,铜陵市,市职教基地,颗粒物(PM10),64,78,79,41,48,101,78,27,27,20,27,13,8,0.5,0.4
2023-01-11T14:00:00,2291A,117.0809,30.5177,安庆市,环科院,细颗粒物(PM2.5),123,117,109,93,72,104,84,60,34,23,24,8,7,0.9,0.9
2023-01-11T14:00:00,2292A,117.0331,30.5119,安庆市,马山宾馆,细颗粒物(PM2.5),150,130,113,115,72,101,85,44,33,20,29,7,8,0.8,0.8
2023-01-11T14:00:00,2294A,116.9896,30.6145,安庆市,安庆大学,细颗粒物(PM2.5),108,98,111,81,77,93,87,50,39,36,31,10,8,0.9,0.9
2023-01-11T14:00:00,2295A,118.2903,29.6963,黄山市,延安路89号,细颗粒物(PM2.5),74,86,100,54,77,115,99,40,40,18,28,5,5,0.5,0.6
2023-01-11T14:00:00,2296A,118.327,29.7178,黄山市,黄山东路89号,细颗粒物(PM2.5),69,59,76,50,60,110,106,47,47,14,25,6,6,0.6,0.8
2023-01-11T14:00:00,2297A,118.1371,30.2756,黄山市,黄山区政府5号楼,,,,94,,58,38,,43,,,22,,6,,1.1
2023-01-11T14:00:00,2298A,118.3093,32.3153,滁州市,老年大学,颗粒物(PM10),64,77,70,45,45,82,81,34,34,28,47,8,7,0.5,0.6
2023-01-11T14:00:00,2299A,118.3244,32.2786,滁州市,人大宾馆,颗粒物(PM10),62,73,73,32,37,75,75,33,33,33,51,8,6,0.4,0.5
2023-01-11T14:00:00,2301A,115.8277,32.8929,阜阳市,市监测站,细颗粒物(PM2.5),103,116,117,77,86,85,85,32,32,30,44,12,8,0.6,0.7
2023-01-11T14:00:00,2303A,115.8554,32.8605,阜阳市,开发区,细颗粒物(PM2.5),109,137,146,82,86,86,86,33,33,32,49,9,6,0.7,1
2023-01-11T14:00:00,2307A,116.5079,31.737,六安市,监测大楼,,,83,109,64,78,78,,32,32,20,40,8,6,0.6,0.7
2023-01-11T14:00:00,2308A,116.4738,31.7643,六安市,皖西学院,细颗粒物(PM2.5),89,90,100,66,61,83,81,29,29,25,37,6,4,0.6,0.6
2023-01-11T14:00:00,2309A,116.4996,31.7905,六安市,朝阳厂,细颗粒物(PM2.5),110,96,95,83,71,80,68,31,24,,39,8,5,0.7,0.7
2023-01-11T14:00:00,2310A,116.5567,31.7886,六安市,开发区,细颗粒物(PM2.5),113,139,131,85,77,84,82,32,32,24,38,12,7,0.8,0.7
2023-01-11T14:00:00,2311A,115.8072,33.8399,亳州市,污水处理厂,细颗粒物(PM2.5),83,88,93,61,68,71,66,31,31,23,33,9,9,0.6,0.6
2023-01-11T14:00:00,2312A,115.7789,33.8518,亳州市,三国揽胜宫,颗粒物(PM10),82,114,104,59,70,77,73,34,33,21,29,8,6,0.5,0.5
2023-01-11T14:00:00,2314A,117.47,30.6618,池州市,池州学院,细颗粒物(PM2.5),117,119,98,88,66,94,,32,13,25,32,14,10,0.9,0.9
2023-01-11T14:00:00,2316A,118.7581,30.9454,宣城市,鳌峰子站,细颗粒物(PM2.5),72,61,73,52,38,89,80,47,47,17,36,5,8,0.5,0.6
2023-01-11T14:00:00,2317A,118.7385,30.9743,宣城市,敬亭山子站,颗粒物(PM10),65,79,71,46,37,93,87,43,43,23,35,9,9,0.4,0.4
2023-01-11T14:00:00,2318A,118.7173,30.9427,宣城市,开发区子站,细颗粒物(PM2.5),72,78,68,52,40,93,83,48,48,26,38,5,5,0.4,0.5
2023-01-11T14:00:00,2319A,119.0141,25.4325,莆田市,荔城区仓后路,,22,18,17,7,11,81,68,74,66,10,10,7,6,0.6,0.6
2023-01-11T14:00:00,2320A,119.0015,25.4553,莆田市,莆田市监测站,,22,11,12,8,10,86,68,79,70,9,7,5,5,0.6,0.6
2023-01-11T14:00:00,2321A,119.1119,25.4561,莆田市,涵江区六中,,36,36,26,11,17,96,63,76,33,19,24,6,5,0.6,0.6
2023-01-11T14:00:00,2322A,119.1013,25.3215,莆田市,秀屿区政府,,32,32,26,22,21,86,71,82,65,10,10,5,4,0.6,0.6
2023-01-11T14:00:00,2323A,118.981,25.4792,莆田市,东圳水库(对照点),,,,,,,,,,,,,,,,
2023-01-11T14:00:00,2324A,117.6211,26.2625,三明市,三钢,,,31,27,23,26,44,44,31,31,14,17,6,8,,0.3
2023-01-11T14:00:00,2325A,117.635,26.2714,三明市,三明二中,,32,27,26,22,20,43,42,32,32,16,18,4,6,0.5,0.5
2023-01-11T14:00:00,2326A,117.6028,26.2378,三明市,三元区政府,,33,33,29,21,30,42,41,31,31,16,18,9,12,0.6,0.7
2023-01-11T14:00:00,2327A,117.7275,26.3108,三明市,洋溪(对照点),,,,,,,,,,,,,,,,
2023-01-11T14:00:00,2331A,118.0966,26.6761,南平市,茫荡山(对照点),,,,,,,,,,,,,,,,
2023-01-11T14:00:00,2332A,118.1681,26.6369,南平市,南平市监测站,,21,21,33,14,24,43,43,31,31,12,15,5,4,0.6,0.5
2023-01-11T14:00:00,2333A,118.1825,26.6489,南平市,南平铝业有限公司,,28,28,32,19,26,41,35,28,28,10,12,5,5,0.6,0.6
2023-01-11T14:00:00,2334A,118.1756,26.6272,南平市,南平七中,,26,26,31,6,28,44,44,31,31,13,16,4,4,0.6,0.5
2023-01-11T14:00:00,2335A,117.0189,25.1181,龙岩市,龙岩师专(对照点),,,,,,,,,,,,,,,,
2023-01-11T14:00:00,2336A,117.0217,25.1033,龙岩市,龙岩市监测站,,18,12,12,6,10,56,56,48,48,12,12,6,6,0.4,0.5
2023-01-11T14:00:00,2337A,117.0258,25.0661,龙岩市,闽西职业技术学院,,22,22,16,13,13,52,52,41,41,9,10,6,6,0.5,0.6
2023-01-11T14:00:00,2338A,117.0196,25.0306,龙岩市,龙岩学院,,26,24,14,18,12,48,47,34,34,12,13,3,4,0.4,0.5
2023-01-11T14:00:00,2339A,119.5001,26.6946,宁德市,金涵水库(对照点),,,,,,,,,,,,,,,,
2023-01-11T14:00:00,2341A,119.5388,26.6612,宁德市,宁德市监测站,细颗粒物(PM2.5),54,43,48,38,52,65,24,46,20,29,26,6,5,0.8,0.9
2023-01-11T14:00:00,2342A,117.3102,29.3867,景德镇市,王港中学(对照点),,,,,,,,,,,,,,,,
2023-01-11T14:00:00,2343A,117.2117,29.2933,景德镇市,老干部活动中心,细颗粒物(PM2.5),69,73,108,50,62,122,89,49,49,14,34,6,7,0.7,0.8
2023-01-11T14:00:00,2344A,117.1894,29.2789,景德镇市,兽医站,细颗粒物(PM2.5),63,62,91,45,60,134,98,58,58,15,31,8,7,0.9,1
2023-01-11T14:00:00,2345A,117.1547,29.2617,景德镇市,台达陶瓷,细颗粒物(PM2.5),65,73,98,47,65,132,93,58,58,26,45,26,21,0.9,1.1
2023-01-11T14:00:00,2346A,117.2461,29.2956,景德镇市,陶研所,细颗粒物(PM2.5),67,63,102,48,55,130,88,40,40,13,32,4,4,0.7,0.7
2023-01-11T14:00:00,2347A,114.0997,27.5002,萍乡市,武功山(对照点),细颗粒物(PM2.5),55,50,49,39,39,114,77,42,42,13,15,11,8,0.6,0.7
2023-01-11T14:00:00,2348A,113.8385,27.6434,萍乡市,中医院,细颗粒物(PM2.5),104,108,175,78,131,136,112,72,72,26,41,9,12,1.3,1.7
2023-01-11T14:00:00,2349A,113.8493,27.6253,萍乡市,市政府车库,细颗粒物(PM2.5),135,151,177,103,133,147,121,62,62,23,36,21,24,1.9,2.3
2023-01-11T14:00:00,2350A,113.8676,27.6435,萍乡市,市环保局,细颗粒物(PM2.5),107,122,150,80,113,133,114,63,63,25,34,17,24,0.8,1.1
2023-01-11T14:00:00,2351A,113.866,27.6198,萍乡市,安源区政府,细颗粒物(PM2.5),152,125,163,116,128,133,108,55,55,34,40,26,24,2.6,1.7
2023-01-11T14:00:00,2352A,115.0861,27.9317,新余市,北岗(对照点),颗粒物(PM10),117,184,119,82,80,110,70,42,42,16,20,21,11,0.6,0.7
2023-01-11T14:00:00,2353A,114.9886,27.8431,新余市,飞宇,细颗粒物(PM2.5),114,132,131,86,90,112,66,56,49,28,30,17,23,0.8,0.8
2023-01-11T14:00:00,2354A,114.9231,27.8246,新余市,第二水厂,细颗粒物(PM2.5),133,160,163,101,99,105,58,50,49,34,34,16,19,0.7,0.8
2023-01-11T14:00:00,2355A,114.9308,27.8036,新余市,市气象局,细颗粒物(PM2.5),139,130,133,106,105,119,62,47,47,36,37,18,17,,0.6
2023-01-11T14:00:00,2357A,116.9822,28.1136,鹰潭市,龙虎山(对照点),,48,19,55,33,58,118,86,48,48,4,10,5,5,0.8,0.9
2023-01-11T14:00:00,2358A,117.0564,28.2642,鹰潭市,新监测站,,33,14,75,23,65,116,88,69,62,10,20,14,14,0.3,0.5
2023-01-11T14:00:00,2359A,117.0311,28.2475,鹰潭市,财苑宾馆,,45,31,77,31,62,120,96,73,67,13,19,19,18,0.6,0.7
2023-01-11T14:00:00,2360A,117.0222,28.2264,鹰潭市,体育馆,,33,28,85,23,66,113,93,68,61,13,27,5,11,0.6,0.6
2023-01-11T14:00:00,2361A,117.0017,28.2131,鹰潭市,三川水表,,49,42,88,34,75,110,88,62,54,18,32,6,9,0.2,0.6
2023-01-11T14:00:00,2362A,114.9017,25.9149,赣州市,通天岩(对照点),颗粒物(PM10),53,56,63,23,25,70,56,52,45,4,6,5,5,1.2,1.1
2023-01-11T14:00:00,2363A,114.9367,25.8664,赣州市,地委,细颗粒物(PM2.5),54,32,43,38,30,70,57,48,48,11,15,2,7,1.0,0.9
2023-01-11T14:00:00,2364A,114.9461,25.8481,赣州市,气象台,,35,35,38,24,29,58,43,39,37,13,16,5,6,0.8,0.8
2023-01-11T14:00:00,2365A,114.9322,25.8333,赣州市,市图书馆,,49,39,42,34,29,69,49,52,42,19,17,4,7,1.1,1.1
2023-01-11T14:00:00,2366A,114.8905,25.8471,赣州市,华坚鞋城,,44,44,49,30,30,57,41,55,40,27,14,2,2,1.0,0.9
2023-01-11T14:00:00,2367A,114.9754,27.0803,吉安市,红声器材厂,细颗粒物(PM2.5),105,109,91,79,63,103,69,37,37,27,33,18,12,0.8,0.8
2023-01-11T14:00:00,2368A,114.9658,27.0999,吉安市,市森林工业局,细颗粒物(PM2.5),120,116,94,91,74,101,74,40,40,35,37,22,18,1.1,1
2023-01-11T14:00:00,2369A,114.99,27.1312,吉安市,市环境监测站,细颗粒物(PM2.5),115,116,104,87,86,99,41,30,23,30,28,12,6,1.1,1
2023-01-11T14:00:00,2370A,115.0093,27.0968,吉安市,青原区法院,细颗粒物(PM2.5),112,116,95,84,65,94,66,41,41,26,26,13,9,0.9,0.8
2023-01-11T14:00:00,2371A,114.3408,27.8064,宜春市,槟榔水业(对照点),细颗粒物(PM2.5),95,100,121,71,83,116,85,63,61,16,24,13,14,0.7,0.8
2023-01-11T14:00:00,2373A,114.3956,27.7844,宜春市,市石油公司,细颗粒物(PM2.5),110,120,122,83,84,139,107,67,67,22,30,10,5,1.2,1.2
2023-01-11T14:00:00,2374A,114.3703,27.7914,宜春市,市气象局,细颗粒物(PM2.5),100,120,131,75,90,130,102,66,66,22,39,9,8,1.4,1.4
2023-01-11T14:00:00,2375A,114.4013,27.8074,宜春市,市广电局,细颗粒物(PM2.5),107,105,130,80,100,139,109,82,76,22,34,5,4,1.1,1.2
2023-01-11T14:00:00,2376A,116.2127,28.0814,抚州市,桐源党溪(对照点),细颗粒物(PM2.5),88,88,99,65,78,102,80,55,55,7,6,3,3,0.6,0.9
2023-01-11T14:00:00,2377A,116.3544,27.9831,抚州市,市站,,,90,117,49,82,91,70,47,47,20,25,,7,0.6,0.5
2023-01-11T14:00:00,2378A,116.3565,27.963,抚州市,血防站,细颗粒物(PM2.5),99,107,121,74,90,90,65,40,40,9,14,6,7,0.9,0.9
2023-01-11T14:00:00,2379A,116.3564,28.0007,抚州市,采茶剧团,细颗粒物(PM2.5),92,93,113,68,87,91,69,44,44,15,19,5,5,0.5,0.6
2023-01-11T14:00:00,2380A,116.385,27.9647,抚州市,医学分院,细颗粒物(PM2.5),79,88,118,58,78,88,68,43,43,18,24,7,7,0.9,0.9
2023-01-11T14:00:00,2381A,118.005,28.4572,上饶市,百草园(对照点),,,,,,,,,,,,,,,,
2023-01-11T14:00:00,2382A,117.9756,28.4436,上饶市,市监测站,颗粒物(PM10),62,73,98,37,55,100,86,61,61,25,29,7,6,0.6,0.7
2023-01-11T14:00:00,2383A,117.9519,28.4628,上饶市,凤凰光学,颗粒物(PM10),64,78,101,36,57,100,86,61,61,14,21,7,11,0.6,0.7
2023-01-11T14:00:00,2385A,114.17,35.9019,鹤壁市,市监测站,细颗粒物(PM2.5),130,152,125,99,82,61,57,30,30,18,42,7,13,0.9,1
2023-01-11T14:00:00,2386A,114.2956,35.7511,鹤壁市,市交警支队,细颗粒物(PM2.5),119,127,127,90,83,66,60,20,20,26,61,7,8,0.6,0.8
2023-01-11T14:00:00,2387A,114.2878,35.7306,鹤壁市,迎宾馆,细颗粒物(PM2.5),107,97,107,80,81,74,62,21,21,21,55,7,13,0.8,0.9
2023-01-11T14:00:00,2389A,113.836,35.311,新乡市,环保西院,细颗粒物(PM2.5),138,151,138,105,90,76,55,30,30,28,58,8,10,0.9,1.2
