timepoint,stationcode,longitude,latitude,area,positionname,primarypollutant,aqi,pm10,pm10_24h,pm2_5,pm2_5_24h,o3,o3_24h,o3_8h,o3_8h_24h,no2,no2_24h,so2,so2_24h,co,co_24h
2023-01-11T22:00:00,1001A,116.3621,39.8784,北京市,万寿西宫,细颗粒物(PM2.5),137,151,108,104,68,24,0,14,1,94,79,8,5,1.2,1
2023-01-11T22:00:00,1002A,116.2202,40.2915,北京市,定陵,细颗粒物(PM2.5),88,91,73,65,48,34,7,25,11,51,39,2,3,0.6,0.5
2023-01-11T22:00:00,1003A,116.4174,39.9289,北京市,东四,细颗粒物(PM2.5),130,158,111,99,68,14,1,8,2,77,60,9,6,1.4,1.1
2023-01-11T22:00:00,1004A,116.4072,39.8863,北京市,天坛,细颗粒物(PM2.5),134,139,98,102,66,15,4,9,4,84,71,4,3,1.1,0.9
2023-01-11T22:00:00,1005A,116.462,39.9365,北京市,农展馆,细颗粒物(PM2.5),132,147,116,100,74,9,0,5,2,87,78,9,5,1.0,0.8
2023-01-11T22:00:00,1006A,116.3392,39.9295,北京市,官园,细颗粒物(PM2.5),108,121,106,81,69,18,2,11,4,88,6,11,9,0.8,0.7
2023-01-11T22:00:00,1007A,116.2878,39.9611,北京市,海淀万柳,细颗粒物(PM2.5),93,115,107,69,63,17,2,9,3,74,68,8,7,0.8,0.8
2023-01-11T22:00:00,1008A,116.6636,40.135,北京市,顺义新城,细颗粒物(PM2.5),118,128,100,89,63,25,3,17,6,72,62,6,5,0.9,0.8
2023-01-11T22:00:00,1009A,116.6275,40.3275,北京市,怀柔镇,细颗粒物(PM2.5),103,,54,77,51,41,8,32,21,53,41,5,3,0.8,0.5
2023-01-11T22:00:00,1010A,116.2296,40.217,北京市,昌平镇,细颗粒物(PM2.5),94,106,80,70,51,33,0,20,6,75,52,4,3,0.9,0.6
2023-01-11T22:00:00,1011A,116.3966,39.9821,北京市,奥体中心,细颗粒物(PM2.5),120,131,108,91,74,15,1,10,2,87,72,11,6,1.1,1
2023-01-11T22:00:00,1012A,116.184,39.9136,北京市,古城,细颗粒物(PM2.5),89,113,94,66,53,16,2,12,6,79,64,7,5,1.1,1
2023-01-11T22:00:00,1015A,117.1444,39.1661,天津市,勤俭道,细颗粒物(PM2.5),104,117,120,78,75,23,5,18,12,81,70,21,14,1.0,0.9
2023-01-11T22:00:00,1017A,117.237,39.1082,天津市,大直沽八号路,细颗粒物(PM2.5),108,127,117,81,72,24,2,19,10,94,75,21,16,1.2,1.1
2023-01-11T22:00:00,1018A,117.202,39.0927,天津市,前进道,细颗粒物(PM2.5),104,120,114,78,72,26,6,21,15,94,75,15,13,1.0,0.9
2023-01-11T22:00:00,1019A,117.1837,39.2133,天津市,淮河道,细颗粒物(PM2.5),130,165,144,99,83,32,5,23,14,86,72,22,15,1.3,1
2023-01-11T22:00:00,1021A,117.307,39.0877,天津市,跃进路,细颗粒物(PM2.5),114,128,117,86,74,23,1,17,9,96,75,20,17,1.2,1
2023-01-11T22:00:00,1023A,117.707,39.0343,天津市,第四大街,细颗粒物(PM2.5),120,170,115,91,65,32,1,18,4,116,79,22,16,1.1,0.9
2023-01-11T22:00:00,1024A,117.457,38.8394,天津市,永明路,细颗粒物(PM2.5),123,135,119,93,78,32,5,20,8,101,80,16,29,1.0,0.9
2023-01-11T22:00:00,1026A,117.764,39.1587,天津市,汉北路,细颗粒物(PM2.5),120,114,89,91,64,9,0,3,1,87,80,10,12,0.8,0.6
2023-01-11T22:00:00,1027A,117.157,38.9194,天津市,团泊洼,细颗粒物(PM2.5),127,154,120,96,80,20,1,8,4,83,68,19,14,1.4,1
2023-01-11T22:00:00,1029A,114.4422,38.0444,石家庄市,职工医院,细颗粒物(PM2.5),201,216,143,151,84,36,6,22,17,106,75,17,15,1.6,1.4
2023-01-11T22:00:00,1030A,114.6063,38.0266,石家庄市,高新区,细颗粒物(PM2.5),210,256,138,160,81,36,11,26,19,104,68,18,15,1.6,1.2
2023-01-11T22:00:00,1031A,114.4898,38.1328,石家庄市,西北水源,细颗粒物(PM2.5),211,258,163,161,96,25,2,14,9,108,75,18,16,1.9,1.6
2023-01-11T22:00:00,1032A,114.4586,38.0058,石家庄市,西南高教,细颗粒物(PM2.5),202,218,135,152,83,34,5,24,18,97,68,19,17,1.5,1.3
2023-01-11T22:00:00,1033A,114.5331,38.0178,石家庄市,世纪公园,细颗粒物(PM2.5),152,170,112,116,71,28,4,17,9,106,69,18,15,1.9,1.4
2023-01-11T22:00:00,1034A,114.509,38.0457,石家庄市,人民会堂,细颗粒物(PM2.5),201,231,129,151,82,36,6,26,16,99,64,16,12,1.8,1.4
2023-01-11T22:00:00,1035A,114.3524,37.8911,石家庄市,封龙山,细颗粒物(PM2.5),128,97,94,97,72,54,43,40,35,51,56,25,28,1.3,1.4
2023-01-11T22:00:00,1037A,118.131,39.6363,唐山市,雷达站,细颗粒物(PM2.5),134,155,96,102,61,23,2,18,5,97,73,30,13,1.2,1
2023-01-11T22:00:00,1038A,118.1725,39.6334,唐山市,物资局,细颗粒物(PM2.5),130,156,107,99,51,19,4,15,4,96,76,30,21,1.2,1.2
2023-01-11T22:00:00,1040A,118.1705,39.6506,唐山市,十二中,细颗粒物(PM2.5),128,151,107,97,72,28,0,21,2,104,83,30,14,1.2,1.3
2023-01-11T22:00:00,1041A,118.1869,39.622,唐山市,小山,细颗粒物(PM2.5),153,195,120,117,68,20,0,8,1,98,82,31,18,1.3,1.3
2023-01-11T22:00:00,1042A,119.5134,39.8207,秦皇岛市,北戴河环保局,细颗粒物(PM2.5),110,134,88,83,57,29,2,21,14,85,65,14,22,1.5,1.8
2023-01-11T22:00:00,1043A,119.7493,40.0116,秦皇岛市,第一关,细颗粒物(PM2.5),152,176,98,116,65,34,5,25,10,79,68,12,19,1.4,1.6
2023-01-11T22:00:00,1044A,119.5897,39.9499,秦皇岛市,监测站,细颗粒物(PM2.5),149,161,89,114,62,36,0,24,7,88,60,22,25,1.6,1.5
2023-01-11T22:00:00,1046A,119.5251,39.9041,秦皇岛市,建设大厦,细颗粒物(PM2.5),119,164,92,90,46,46,2,36,17,91,66,22,27,1.6,1.6
2023-01-11T22:00:00,1048A,114.5302,36.6116,邯郸市,东污水处理厂,细颗粒物(PM2.5),175,174,144,132,99,67,4,54,42,65,40,6,10,0.8,0.5
2023-01-11T22:00:00,1049A,114.4918,36.5713,邯郸市,矿院,细颗粒物(PM2.5),170,158,139,129,108,71,20,54,45,43,38,4,7,1.0,1
2023-01-11T22:00:00,1050A,114.484,36.6133,邯郸市,丛台公园,细颗粒物(PM2.5),168,164,121,127,97,70,23,54,47,37,29,8,10,0.9,0.7
2023-01-11T22:00:00,1051A,115.493,38.8632,保定市,游泳馆,细颗粒物(PM2.5),140,153,122,107,95,21,8,19,8,93,78,20,18,1.3,1.2
2023-01-11T22:00:00,1052A,115.5213,38.8959,保定市,华电二区,细颗粒物(PM2.5),140,136,116,107,87,26,3,26,4,78,69,9,12,1.4,1.3
2023-01-11T22:00:00,1053A,115.4713,38.9108,保定市,接待中心,细颗粒物(PM2.5),109,151,127,82,82,21,3,12,3,81,68,11,12,1.3,1.3
2023-01-11T22:00:00,1054A,115.4612,38.8416,保定市,地表水厂,细颗粒物(PM2.5),134,154,125,102,84,29,18,21,19,89,82,14,15,1.1,1
2023-01-11T22:00:00,1056A,115.5086,38.8639,保定市,监测站,细颗粒物(PM2.5),129,155,136,98,93,14,0,14,0,81,75,17,15,1.0,1
2023-01-11T22:00:00,1057A,114.8883,40.8336,张家口市,人民公园,细颗粒物(PM2.5),117,130,95,88,59,44,15,41,22,67,44,20,16,1.2,1
2023-01-11T22:00:00,1059A,114.8687,40.8042,张家口市,五金库,细颗粒物(PM2.5),138,124,79,105,62,44,11,38,17,80,49,27,17,1.5,0.8
2023-01-11T22:00:00,1060A,114.8902,40.762,张家口市,世纪豪园,细颗粒物(PM2.5),130,134,110,99,77,40,17,32,19,67,50,13,10,1.0,1.1
2023-01-11T22:00:00,1061A,114.8916,40.8661,张家口市,北泵房,细颗粒物(PM2.5),130,142,106,99,71,56,14,46,24,64,42,38,26,1.5,1.2
2023-01-11T22:00:00,1062A,117.9531,40.9081,承德市,铁路,,,166,105,102,63,24,11,17,12,81,58,43,20,2.3,1.5
2023-01-11T22:00:00,1063A,117.9392,40.9763,承德市,中国银行,细颗粒物(PM2.5),105,119,94,79,60,43,7,24,11,61,50,14,11,1.7,1.3
2023-01-11T22:00:00,1064A,117.9503,40.928,承德市,开发区,细颗粒物(PM2.5),113,128,92,85,58,23,6,17,10,65,55,18,14,1.6,1.4
2023-01-11T22:00:00,1065A,117.8051,40.9655,承德市,文化中心,细颗粒物(PM2.5),127,168,135,96,73,14,3,11,7,67,56,32,20,2.3,1.7
2023-01-11T22:00:00,1066A,117.9268,41.0026,承德市,离宫,细颗粒物(PM2.5),117,96,78,88,55,37,2,24,9,62,47,27,20,1.8,1.1
2023-01-11T22:00:00,1067A,116.6708,39.5111,廊坊市,药材公司,细颗粒物(PM2.5),173,196,133,131,87,13,8,11,7,95,87,18,17,1.3,1.1
2023-01-11T22:00:00,1068A,116.7214,39.5589,廊坊市,开发区,细颗粒物(PM2.5),158,184,133,120,88,7,2,3,2,88,86,15,15,1.5,1.3
2023-01-11T22:00:00,1070A,116.7244,39.5269,廊坊市,北华航天学院,细颗粒物(PM2.5),188,211,143,141,96,9,6,8,6,93,88,20,18,1.3,1.2
2023-01-11T22:00:00,1071A,116.8842,38.2991,沧州市,沧县城建局,细颗粒物(PM2.5),156,190,147,119,92,22,8,18,12,86,71,26,27,1.4,1.2
2023-01-11T22:00:00,1072A,116.8584,38.3254,沧州市,电视转播站,细颗粒物(PM2.5),140,165,126,107,85,27,10,23,14,70,70,13,19,1.3,1.1
2023-01-11T22:00:00,1073A,116.8709,38.3228,沧州市,市环保局,细颗粒物(PM2.5),179,146,132,135,77,20,3,15,6,90,76,22,24,1.1,1
2023-01-11T22:00:00,1074A,115.6838,37.7541,衡水市,电机北厂,细颗粒物(PM2.5),114,132,114,86,73,29,0,19,12,69,62,15,15,0.9,0.9
2023-01-11T22:00:00,1075A,115.6303,37.7316,衡水市,市监测站,细颗粒物(PM2.5),114,138,123,86,73,36,2,24,15,66,61,18,19,1.0,0.9
2023-01-11T22:00:00,1077A,114.4704,37.0886,邢台市,达活泉,细颗粒物(PM2.5),188,158,119,141,101,49,3,21,17,73,57,25,16,1.7,1.5
2023-01-11T22:00:00,1078A,114.5062,37.0349,邢台市,邢师高专,细颗粒物(PM2.5),152,137,116,116,91,62,5,42,35,82,59,14,10,1.5,1
2023-01-11T22:00:00,1079A,114.5237,37.0851,邢台市,路桥公司,细颗粒物(PM2.5),156,150,120,119,92,60,7,35,28,83,63,17,12,1.4,1.1
2023-01-11T22:00:00,1080A,114.4725,37.0719,邢台市,市环保局,细颗粒物(PM2.5),170,186,147,129,104,56,3,29,22,80,67,15,9,1.7,1.4
2023-01-11T22:00:00,1081A,112.522,37.8873,太原市,尖草坪,细颗粒物(PM2.5),170,193,156,129,102,46,5,36,28,94,74,38,29,1.4,1.5
2023-01-11T22:00:00,1083A,112.434,38.0108,太原市,上兰,,,,,,,,,,,,,,,,
2023-01-11T22:00:00,1084A,112.469,37.7124,太原市,晋源,细颗粒物(PM2.5),155,178,167,118,108,41,29,30,27,74,81,34,33,1.6,1.7
2023-01-11T22:00:00,1085A,112.5583,37.7394,太原市,小店,细颗粒物(PM2.5),168,190,176,127,109,33,6,19,10,96,86,38,36,2.0,1.8
2023-01-11T22:00:00,1086A,112.5369,37.8692,太原市,桃园,细颗粒物(PM2.5),192,206,175,144,113,34,2,21,17,97,81,39,32,2.3,1.9
2023-01-11T22:00:00,1087A,112.57,37.8195,太原市,坞城,细颗粒物(PM2.5),169,184,161,128,107,33,22,23,22,82,84,35,39,2.2,1.9
2023-01-11T22:00:00,1088A,112.549,37.9854,太原市,南寨,细颗粒物(PM2.5),175,205,150,132,101,43,4,31,22,88,65,52,23,1.7,1.4
2023-01-11T22:00:00,1089A,112.4783,37.7778,太原市,金胜,,,,,,,,,,,,,,,,
2023-01-11T22:00:00,1090A,111.6507,40.7517,呼和浩特市,呼市一监,细颗粒物(PM2.5),183,188,130,138,101,67,5,39,30,108,79,35,21,2.0,1.5
2023-01-11T22:00:00,1091A,111.6572,40.8033,呼和浩特市,小召,细颗粒物(PM2.5),142,156,130,108,90,51,8,35,28,105,90,29,18,1.5,1.6
2023-01-11T22:00:00,1094A,111.7516,40.8369,呼和浩特市,如意水处理厂,细颗粒物(PM2.5),150,199,165,115,93,58,7,29,24,115,102,19,19,1.7,1.5
2023-01-11T22:00:00,1095A,111.7276,40.8062,呼和浩特市,二十九中,细颗粒物(PM2.5),147,155,134,112,94,60,4,38,35,101,78,20,18,1.5,1.3
2023-01-11T22:00:00,1096A,111.5512,40.7866,呼和浩特市,工大金川校区,细颗粒物(PM2.5),152,164,152,116,97,36,3,23,19,89,78,16,19,1.5,1.4
2023-01-11T22:00:00,1097A,111.717,40.7612,呼和浩特市,化肥厂生活区,细颗粒物(PM2.5),212,208,152,162,104,62,14,48,40,107,79,23,21,2.1,1.6
2023-01-11T22:00:00,1098A,123.6836,41.9339,沈阳市,森林路,,,,,,,,,,,,,,,,
2023-01-11T22:00:00,1099A,123.505,41.7406,沈阳市,浑南东路,细颗粒物(PM2.5),68,74,65,49,39,74,31,66,48,43,33,20,19,1.2,1
2023-01-11T22:00:00,1100A,123.4231,41.6989,沈阳市,新秀街,细颗粒物(PM2.5),72,91,78,52,40,72,45,62,52,29,28,15,15,1.2,1
2023-01-11T22:00:00,1102A,123.5903,41.8411,沈阳市,东陵路,细颗粒物(PM2.5),72,61,60,52,41,78,29,66,49,46,41,20,19,1.5,1.2
2023-01-11T22:00:00,1103A,123.4264,41.8467,沈阳市,陵东街,颗粒物(PM10),64,77,73,45,38,68,55,60,58,31,41,16,19,1.0,1
2023-01-11T22:00:00,1104A,123.4114,41.7653,沈阳市,文化路,细颗粒物(PM2.5),80,98,89,59,47,75,50,64,59,30,30,19,20,1.0,0.9
2023-01-11T22:00:00,1105A,123.4678,41.7867,沈阳市,小河沿,颗粒物(PM10),69,88,76,49,38,77,41,64,54,39,34,19,17,1.2,1
2023-01-11T22:00:00,1106A,123.4017,41.7972,沈阳市,太原街,"颗粒物(PM10),细颗粒物(PM2.5)",78,106,98,57,50,62,53,54,53,23,36,14,18,0.9,1
2023-01-11T22:00:00,1108A,123.3783,41.9228,沈阳市,京沈街,细颗粒物(PM2.5),80,60,108,59,46,71,45,62,51,40,39,23,22,1.0,1
2023-01-11T22:00:00,1109A,121.612,38.9741,大连市,甘井子,,43,35,46,30,41,59,49,48,45,29,38,6,17,0.5,0.7
2023-01-11T22:00:00,1110A,121.565,38.9511,大连市,周水子,,41,41,52,27,34,56,51,46,40,27,46,8,21,0.7,0.9
2023-01-11T22:00:00,1111A,121.5637,38.8845,大连市,星海三站,,,,,,,,,,,,,,,,
2023-01-11T22:00:00,1112A,121.6302,38.9117,大连市,青泥洼桥,,30,30,35,20,28,69,57,57,48,29,37,15,13,0.6,0.7
2023-01-11T22:00:00,1113A,121.6251,38.8638,大连市,傅家庄,,33,33,32,18,26,71,67,62,62,15,25,7,9,0.5,0.7
2023-01-11T22:00:00,1114A,121.5213,38.8661,大连市,七贤岭,,38,37,42,26,25,67,60,59,58,22,34,7,8,0.4,0.7
2023-01-11T22:00:00,1115A,121.2529,38.8061,大连市,旅顺,,33,33,40,22,31,71,60,64,63,13,26,6,9,0.4,0.5
2023-01-11T22:00:00,1116A,121.7485,39.1311,大连市,金州,,39,37,56,27,37,73,61,55,55,25,46,9,18,0.4,0.6
2023-01-11T22:00:00,1117A,121.7811,39.0496,大连市,开发区,,42,42,38,28,33,55,24,52,36,72,55,9,11,0.6,0.6
2023-01-11T22:00:00,1118A,121.9762,39.0631,大连市,双D港,,25,25,36,17,26,67,50,59,58,25,33,5,7,0.8,0.9
2023-01-11T22:00:00,1119A,125.3325,43.9166,长春市,食品厂,细颗粒物(PM2.5),89,99,69,66,40,65,38,57,43,50,40,21,19,0.7,0.7
2023-01-11T22:00:00,1120A,125.2863,43.9027,长春市,客车厂,细颗粒物(PM2.5),99,113,68,74,42,57,34,48,36,54,46,16,23,0.8,0.8
2023-01-11T22:00:00,1121A,125.2841,43.8463,长春市,邮电学院,细颗粒物(PM2.5),88,105,63,65,39,70,39,59,44,53,42,25,23,0.8,0.8
2023-01-11T22:00:00,1122A,125.3716,43.8772,长春市,劳动公园,细颗粒物(PM2.5),94,101,59,70,36,67,54,60,56,40,37,16,17,0.9,0.6
2023-01-11T22:00:00,1123A,125.3297,43.8805,长春市,园林处,细颗粒物(PM2.5),83,94,63,61,37,67,40,62,54,54,36,27,16,0.8,0.8
2023-01-11T22:00:00,1124A,125.4605,43.79,长春市,净月潭,颗粒物(PM10),62,74,50,38,23,82,72,78,75,18,17,8,8,0.8,0.8
2023-01-11T22:00:00,1125A,125.7194,43.515,长春市,甩湾子,,,,,,,,,,,,,,,,
2023-01-11T22:00:00,1126A,125.3863,43.8447,长春市,经开区环卫处,细颗粒物(PM2.5),93,90,57,69,36,71,41,63,51,47,39,13,17,0.9,0.8
2023-01-11T22:00:00,1127A,125.245,43.7783,长春市,高新区管委会,细颗粒物(PM2.5),112,83,55,84,42,77,38,71,54,54,35,11,11,0.8,0.7
2023-01-11T22:00:00,1128A,125.1761,43.8325,长春市,岱山公园,细颗粒物(PM2.5),93,101,63,69,41,68,24,61,33,66,45,19,12,0.9,0.9
2023-01-11T22:00:00,1129A,126.5422,45.755,哈尔滨市,岭北,细颗粒物(PM2.5),94,131,96,70,54,90,30,62,48,56,43,29,29,0.7,0.6
2023-01-11T22:00:00,1130A,126.561,45.8167,哈尔滨市,松北商大,细颗粒物(PM2.5),93,96,79,69,54,72,24,56,34,47,42,15,16,1.0,1
2023-01-11T22:00:00,1131A,126.979,45.5419,哈尔滨市,阿城会宁,细颗粒物(PM2.5),72,73,63,52,41,73,64,70,68,23,25,7,11,0.6,0.7
2023-01-11T22:00:00,1132A,126.599,45.7222,哈尔滨市,南岗学府路,细颗粒物(PM2.5),92,103,89,68,52,68,33,60,47,50,42,20,22,0.6,0.6
2023-01-11T22:00:00,1133A,126.689,45.7733,哈尔滨市,太平宏伟公园,细颗粒物(PM2.5),89,119,89,66,48,68,30,58,44,57,47,19,23,0.9,0.9
2023-01-11T22:00:00,1134A,126.635,45.7667,哈尔滨市,道外承德广场,细颗粒物(PM2.5),95,117,87,71,52,66,17,54,32,64,45,25,19,1.1,1
2023-01-11T22:00:00,1135A,126.685,45.7319,哈尔滨市,香坊红旗大街,细颗粒物(PM2.5),120,111,87,91,65,59,14,49,28,76,56,52,48,1.3,1.1
2023-01-11T22:00:00,1136A,126.6411,45.7258,哈尔滨市,动力和平路,细颗粒物(PM2.5),98,102,83,73,56,61,21,51,35,56,47,21,19,1.0,1
2023-01-11T22:00:00,1137A,126.593,45.7478,哈尔滨市,道里建国路,细颗粒物(PM2.5),107,115,84,80,59,52,4,42,21,72,54,9,28,1.4,0.5
2023-01-11T22:00:00,1138A,126.615,45.61,哈尔滨市,平房东轻厂,细颗粒物(PM2.5),92,107,79,68,49,69,36,63,50,40,34,14,14,1.3,0.8
2023-01-11T22:00:00,1139A,126.595,45.9855,哈尔滨市,呼兰师专,细颗粒物(PM2.5),110,113,89,83,62,77,41,66,54,32,30,15,18,1.1,1.1
2023-01-11T22:00:00,1140A,126.6206,45.6842,哈尔滨市,省农科院,细颗粒物(PM2.5),94,107,87,70,53,69,21,59,35,58,43,29,26,0.8,0.9
2023-01-11T22:00:00,1141A,121.4,31.238,上海市,普陀,,39,39,41,13,19,103,71,87,77,37,47,5,5,0.7,0.7
2023-01-11T22:00:00,1142A,121.478,31.2036,上海市,十五厂,,35,35,37,23,22,81,38,68,51,53,49,9,10,0.6,0.6
2023-01-11T22:00:00,1143A,121.467,31.3008,上海市,虹口,,36,36,43,19,21,84,41,72,55,55,51,8,9,0.6,0.6
2023-01-11T22:00:00,1144A,121.412,31.1654,上海市,徐汇上师大,,37,37,49,18,19,83,50,70,60,20,46,8,8,0.6,0.7
2023-01-11T22:00:00,1145A,121.536,31.2659,上海市,杨浦四漂,,39,39,47,22,24,76,26,65,40,71,61,6,6,0.7,0.7
2023-01-11T22:00:00,1147A,121.425,31.2261,上海市,静安监测站,,42,42,45,20,20,90,55,76,65,46,47,7,7,0.5,0.5
2023-01-11T22:00:00,1148A,121.703,31.1907,上海市,浦东川沙,,35,35,40,20,18,82,24,74,40,60,45,6,5,0.5,0.5
2023-01-11T22:00:00,1149A,121.533,31.2284,上海市,浦东新区监测站,,43,43,42,17,19,77,55,65,54,27,46,5,5,0.6,0.7
2023-01-11T22:00:00,1150A,121.577,31.2071,上海市,浦东张江,,35,35,39,13,17,82,48,70,52,36,50,4,4,0.6,0.6
2023-01-11T22:00:00,1151A,118.8086,32.1065,南京市,迈皋桥,颗粒物(PM10),64,77,74,36,32,90,76,84,83,28,49,4,4,0.3,0.4
2023-01-11T22:00:00,1152A,118.7538,32.0551,南京市,草场门,,48,48,56,24,29,81,71,76,74,34,42,2,7,0.6,0.6
2023-01-11T22:00:00,1153A,118.7794,32.0745,南京市,山西路,颗粒物(PM10),57,63,61,29,32,105,85,94,94,22,36,5,4,0.3,0.4
2023-01-11T22:00:00,1154A,118.7752,32.0023,南京市,中华门,颗粒物(PM10),58,66,65,36,32,89,67,77,76,35,45,6,6,0.4,0.4
2023-01-11T22:00:00,1155A,118.8109,32.0309,南京市,瑞金路,颗粒物(PM10),67,83,78,34,32,86,58,81,78,41,43,3,3,0.4,0.5
2023-01-11T22:00:00,1156A,118.7997,32.0754,南京市,玄武湖,颗粒物(PM10),53,55,67,35,36,95,78,87,86,12,30,4,4,0.3,0.4
2023-01-11T22:00:00,1157A,118.6414,32.0931,南京市,浦口,颗粒物(PM10),68,85,75,34,34,85,67,67,64,39,53,5,5,0.4,0.5
2023-01-11T22:00:00,1158A,118.7356,31.9996,南京市,奥体中心,颗粒物(PM10),65,79,74,41,37,83,61,79,75,52,53,4,4,0.5,0.6
2023-01-11T22:00:00,1159A,118.9125,32.1028,南京市,仙林大学城,颗粒物(PM10),56,61,57,31,32,111,71,94,93,29,32,5,5,0.8,0.8
2023-01-11T22:00:00,1160A,120.561,31.2472,苏州市,上方山,,40,40,43,23,23,97,52,82,73,26,40,6,6,0.4,0.6
2023-01-11T22:00:00,1162A,120.591,31.3019,苏州市,彩香,,37,37,51,19,24,105,54,88,81,27,37,5,6,0.5,0.6
2023-01-11T22:00:00,1163A,120.596,31.3264,苏州市,轧钢厂,,40,40,51,17,21,104,54,89,82,30,39,4,5,0.6,0.7
2023-01-11T22:00:00,1164A,120.613,31.2703,苏州市,吴中区,,42,42,52,16,22,108,55,94,82,31,43,4,7,0.5,0.6
2023-01-11T22:00:00,1165A,120.543,31.2994,苏州市,苏州新区,,36,36,49,17,24,100,58,82,78,23,38,6,7,0.5,0.6
2023-01-11T22:00:00,1166A,120.669,31.3097,苏州市,苏州工业园区,,40,40,49,18,23,108,53,93,84,32,37,6,8,0.6,0.6
2023-01-11T22:00:00,1167A,120.641,31.3708,苏州市,相城区,,36,36,45,23,24,96,46,78,68,40,45,6,7,0.6,0.7
2023-01-11T22:00:00,1168A,120.9098,31.9663,南通市,狼山街道,,28,28,37,16,22,86,69,76,67,14,29,8,8,0.4,0.5
2023-01-11T22:00:00,1169A,120.86,32.0005,南通市,虹桥,,27,27,45,17,21,83,71,75,67,16,32,4,5,0.4,0.5
2023-01-11T22:00:00,1170A,120.87,32.02,南通市,城中,,30,30,39,20,23,95,71,82,70,19,33,6,6,0.3,0.3
2023-01-11T22:00:00,1171A,120.94,31.93,南通市,星湖花园,,35,35,42,14,18,87,62,76,63,17,31,7,8,0.4,0.5
2023-01-11T22:00:00,1172A,120.81,32.0417,南通市,紫琅学院,,43,43,48,19,20,76,62,66,59,17,33,4,4,0.5,0.6
2023-01-11T22:00:00,1173A,119.176,34.5885,连云港市,市环境监测站,,45,44,33,31,16,78,58,72,64,21,25,7,8,0.2,0.2
2023-01-11T22:00:00,1177A,117.179,34.2761,徐州市,黄河新村,细颗粒物(PM2.5),75,85,77,55,48,93,46,79,73,42,36,9,9,1.0,1
2023-01-11T22:00:00,1178A,117.1918,34.2384,徐州市,淮塔,颗粒物(PM10),81,111,93,56,53,98,45,77,70,43,41,7,7,1.0,1
2023-01-11T22:00:00,1180A,117.256,34.2153,徐州市,新城区,细颗粒物(PM2.5),89,98,81,66,54,97,33,82,74,52,35,9,9,1.1,1.1
2023-01-11T22:00:00,1181A,117.244,34.2911,徐州市,桃园路,细颗粒物(PM2.5),128,156,91,97,51,101,25,77,66,59,37,7,6,1.1,1
2023-01-11T22:00:00,1182A,117.2933,34.2778,徐州市,农科院,细颗粒物(PM2.5),134,151,85,102,49,98,6,68,50,67,38,10,10,1.0,0.8
2023-01-11T22:00:00,1186A,119.389,32.3761,扬州市,邗江监测站,颗粒物(PM10),72,93,64,50,37,107,13,85,64,89,47,10,9,0.6,0.5
2023-01-11T22:00:00,1188A,120.269,31.4867,无锡市,雪浪,,44,44,47,19,21,83,50,78,70,30,37,6,7,0.6,0.7
2023-01-11T22:00:00,1189A,120.275,31.6219,无锡市,黄巷,颗粒物(PM10),51,51,53,19,19,80,49,68,57,41,46,7,8,0.3,0.3
2023-01-11T22:00:00,1190A,120.294,31.56,无锡市,曹张,,40,40,45,22,20,84,47,73,65,31,30,8,9,0.5,0.6
2023-01-11T22:00:00,1191A,120.242,31.5031,无锡市,漆塘,,31,31,40,19,21,91,62,85,79,25,33,6,6,0.5,0.5
2023-01-11T22:00:00,1192A,120.3489,31.5863,无锡市,东亭,颗粒物(PM10),51,51,44,19,20,88,31,68,56,51,46,8,8,0.6,0.9
2023-01-11T22:00:00,1193A,120.354,31.5475,无锡市,旺庄,,46,46,46,22,21,85,39,70,61,38,37,2,4,0.6,0.6
2023-01-11T22:00:00,1194A,120.245,31.5631,无锡市,荣巷,,39,39,43,12,17,82,54,75,66,37,43,10,10,0.7,0.7
2023-01-11T22:00:00,1195A,120.299,31.6817,无锡市,堰桥,,44,44,47,24,20,84,39,69,62,37,34,4,4,0.7,0.7
2023-01-11T22:00:00,1196A,119.9633,31.762,常州市,市监测站,颗粒物(PM10),64,78,61,41,30,103,31,82,43,58,40,7,6,0.8,0.8
2023-01-11T22:00:00,1200A,119.9468,31.7069,常州市,武进监测站,颗粒物(PM10),54,57,58,25,27,110,55,90,70,37,37,7,9,0.6,0.8
2023-01-11T22:00:00,1201A,119.9255,31.9087,常州市,安家,细颗粒物(PM2.5),65,78,57,47,38,104,27,80,57,53,39,6,7,0.7,0.8
2023-01-11T22:00:00,1203A,119.6707,32.1875,镇江市,新区办事处,细颗粒物(PM2.5),82,87,67,60,40,109,6,78,47,90,55,10,7,1.0,0.5
2023-01-11T22:00:00,1204A,119.4974,32.1968,镇江市,职教中心,细颗粒物(PM2.5),92,103,70,68,42,119,16,95,72,76,43,6,5,0.6,0.6
2023-01-11T22:00:00,1205A,119.4303,32.1328,镇江市,丹徒区监测站,细颗粒物(PM2.5),84,99,73,62,40,118,13,96,71,90,43,7,3,0.9,0.6
2023-01-11T22:00:00,1206A,119.905,32.4878,泰州市,公园路,细颗粒物(PM2.5),70,78,54,51,34,98,27,74,54,42,28,7,6,0.9,0.8
2023-01-11T22:00:00,1207A,119.9189,32.4625,泰州市,莲花,细颗粒物(PM2.5),77,78,62,56,44,104,27,77,56,47,31,9,8,0.9,0.8
2023-01-11T22:00:00,1209A,119.888,32.4639,泰州市,留学生创业园,颗粒物(PM10),65,80,67,39,37,98,27,76,56,50,29,12,8,1.1,0.7
2023-01-11T22:00:00,1210A,119.036,33.5981,淮安市,钵池山,细颗粒物(PM2.5),112,92,53,84,45,90,37,77,64,38,31,5,7,0.6,0.6
2023-01-11T22:00:00,1211A,119.007,33.575,淮安市,北京南路,细颗粒物(PM2.5),75,92,62,55,32,84,38,73,59,35,28,6,7,0.8,0.8
2023-01-11T22:00:00,1212A,118.989,33.6067,淮安市,市监测站,细颗粒物(PM2.5),85,83,49,63,29,89,49,78,72,35,28,5,6,0.8,0.7
2023-01-11T22:00:00,1213A,119.135,33.5039,淮安市,楚州区监测站,细颗粒物(PM2.5),82,71,56,60,39,87,32,75,62,32,28,7,7,0.8,0.7
2023-01-11T22:00:00,1214A,119.0186,33.6297,淮安市,淮阴区监测站,细颗粒物(PM2.5),102,101,60,76,43,88,49,74,66,28,29,7,7,0.6,0.6
2023-01-11T22:00:00,1215A,120.118,33.4022,盐城市,盐城电厂,,39,39,42,26,24,98,74,89,82,18,30,7,6,0.4,0.5
2023-01-11T22:00:00,1216A,120.156,33.3942,盐城市,市监测站,,39,39,31,22,16,90,57,82,72,24,26,10,10,0.4,0.4
2023-01-11T22:00:00,1218A,120.2144,33.38,盐城市,开发区管委会,颗粒物(PM10),51,51,35,27,17,95,56,84,75,18,25,6,6,0.5,0.4
2023-01-11T22:00:00,1220A,118.293,33.9528,宿迁市,宿迁学院,细颗粒物(PM2.5),80,107,72,59,45,99,45,71,59,36,32,4,5,0.6,0.5
2023-01-11T22:00:00,1221A,118.2442,33.9592,宿迁市,宿迁中学,颗粒物(PM10),80,109,71,52,37,91,62,70,60,28,31,8,8,0.7,0.6
2023-01-11T22:00:00,1223A,120.2072,30.2111,杭州市,滨江,颗粒物(PM10),67,83,66,33,27,92,26,67,62,56,48,6,7,0.5,0.4
2023-01-11T22:00:00,1224A,120.0633,30.2747,杭州市,西溪,"颗粒物(PM10),细颗粒物(PM2.5)",73,96,65,53,39,81,19,65,58,31,37,8,9,0.4,0.4
2023-01-11T22:00:00,1226A,120.3461,30.3153,杭州市,下沙,细颗粒物(PM2.5),59,54,57,42,34,128,8,98,74,68,46,5,6,0.6,0.6
2023-01-11T22:00:00,1227A,120.1269,30.2456,杭州市,卧龙桥,颗粒物(PM10),61,71,50,41,25,78,7,58,39,40,37,6,7,0.8,0.6
2023-01-11T22:00:00,1228A,120.1903,30.2692,杭州市,浙江农大,细颗粒物(PM2.5),63,74,64,45,36,100,31,77,69,43,44,7,8,0.6,0.8
2023-01-11T22:00:00,1230A,120.1197,30.3119,杭州市,和睦小学,细颗粒物(PM2.5),70,83,75,51,41,100,16,80,68,78,56,5,6,0.6,0.5
2023-01-11T22:00:00,1231A,120.3019,30.4183,杭州市,临平镇,颗粒物(PM10),56,61,59,36,29,127,33,110,85,34,30,6,7,0.6,0.5
2023-01-11T22:00:00,1232A,120.2697,30.1819,杭州市,城厢镇,细颗粒物(PM2.5),64,76,61,46,32,106,17,78,66,66,48,6,7,0.7,0.6
2023-01-11T22:00:00,1233A,120.0883,30.1808,杭州市,云栖,细颗粒物(PM2.5),59,65,45,42,24,70,18,59,42,37,33,5,6,0.7,0.6
2023-01-11T22:00:00,1234A,121.8358,29.911,宁波市,区环保大楼,颗粒物(PM10),54,58,44,20,21,70,1,46,41,87,55,7,9,0.4,0.6
2023-01-11T22:00:00,1235A,121.56,29.82,宁波市,万里学院,,39,39,52,21,25,101,60,84,81,34,45,7,8,0.4,0.4
2023-01-11T22:00:00,1236A,121.713,29.9572,宁波市,龙赛医院,颗粒物(PM10),52,53,47,16,17,69,53,50,48,27,44,9,10,0.6,0.6
2023-01-11T22:00:00,1239A,121.633,29.7733,宁波市,钱湖水厂,,22,22,36,13,19,97,63,84,79,14,30,4,5,0.4,0.5
2023-01-11T22:00:00,1240A,121.5856,29.8635,宁波市,太古小学,,36,36,51,17,20,92,47,70,66,38,44,8,8,0.4,0.4
2023-01-11T22:00:00,1241A,121.524,29.8674,宁波市,市环境监测中心,,36,36,43,18,16,90,58,73,71,27,39,5,5,0.3,0.3
2023-01-11T22:00:00,1242A,120.634,28.0089,温州市,瓯海,,40,40,65,26,37,80,43,64,48,30,42,6,7,0.5,0.5
2023-01-11T22:00:00,1243A,120.6748,27.9939,温州市,南浦,,45,45,63,21,40,84,56,68,64,21,36,3,5,0.2,0.4
2023-01-11T22:00:00,1244A,120.76,27.9747,温州市,龙湾,,45,45,62,20,29,92,46,66,60,29,43,5,6,0.2,0.2
2023-01-11T22:00:00,1245A,120.6709,28.0167,温州市,市站,颗粒物(PM10),51,51,66,20,36,81,54,66,61,25,40,4,6,0.6,0.6
2023-01-11T22:00:00,1247A,120.6053,29.9928,绍兴市,城东开发委,颗粒物(PM10),66,81,60,40,30,114,4,84,57,64,39,4,4,0.8,0.6
2023-01-11T22:00:00,1250A,120.0751,30.8669,湖州市,城西水厂,细颗粒物(PM2.5),57,46,52,40,34,125,50,94,81,34,44,4,5,0.4,0.6
2023-01-11T22:00:00,1252A,120.7436,30.778,嘉兴市,清河小学,,32,32,43,18,20,110,52,94,75,30,38,6,6,0.6,0.6
2023-01-11T22:00:00,1253A,120.726,30.7478,嘉兴市,嘉兴学院,颗粒物(PM10),53,56,55,16,23,113,66,97,84,26,42,8,8,0.4,0.5
2023-01-11T22:00:00,1255A,121.273,28.6459,台州市,黄岩环保大楼,颗粒物(PM10),55,59,45,25,15,96,66,86,82,20,21,7,8,0.4,0.4
2023-01-11T22:00:00,1256A,121.419,28.6542,台州市,台州环保大楼,,27,27,43,15,19,97,72,88,84,16,26,8,9,0.4,0.4
2023-01-11T22:00:00,1257A,121.377,28.5773,台州市,路桥田洋王,,42,42,49,25,25,92,58,80,74,23,25,6,7,0.5,0.4
2023-01-11T22:00:00,1258A,122.122,30.0203,舟山市,定海檀枫,,,35,35,12,12,92,70,87,84,13,24,5,5,,0.3
2023-01-11T22:00:00,1259A,122.3094,29.9558,舟山市,普陀东港,,37,37,36,18,18,84,68,74,70,19,21,5,5,0.5,0.5
2023-01-11T22:00:00,1260A,122.19,29.9944,舟山市,临城新区,,34,34,35,14,16,94,70,84,83,19,25,5,5,0.3,0.3
2023-01-11T22:00:00,1262A,119.647,29.077,金华市,十五中,颗粒物(PM10),75,99,72,51,34,100,29,82,61,65,36,5,5,0.6,0.5
2023-01-11T22:00:00,1263A,119.686,29.1029,金华市,监测站,,,,57,,32,49,,40,,,33,,5,,0.6
2023-01-11T22:00:00,1264A,118.8692,28.9398,衢州市,环保大楼,细颗粒物(PM2.5),85,106,81,63,50,96,10,76,48,72,37,6,6,0.9,0.6
2023-01-11T22:00:00,1265A,118.8709,28.9666,衢州市,实验学校,细颗粒物(PM2.5),84,87,80,62,54,93,9,81,54,67,29,9,7,0.6,0.6
2023-01-11T22:00:00,1266A,118.8621,28.9808,衢州市,衢州学院,细颗粒物(PM2.5),70,80,78,51,50,96,18,87,62,53,27,4,5,0.7,0.6
2023-01-11T22:00:00,1267A,119.914,28.4514,丽水市,监测站大楼,颗粒物(PM10),52,53,75,12,48,92,46,78,65,28,21,8,8,0.7,0.8
2023-01-11T22:00:00,1268A,119.93,28.4586,丽水市,莲都小学,,30,30,78,15,55,102,50,86,69,25,23,8,7,0.5,0.6
2023-01-11T22:00:00,1269A,119.879,28.4231,丽水市,余庄前,,21,16,69,9,43,91,65,80,77,14,20,8,8,0.3,0.5
2023-01-11T22:00:00,1270A,117.1959,31.7848,合肥市,明珠广场,细颗粒物(PM2.5),122,136,112,92,61,89,45,75,68,54,53,8,6,0.9,0.9
2023-01-11T22:00:00,1271A,117.3072,31.8764,合肥市,三里街,细颗粒物(PM2.5),125,153,108,95,67,95,16,60,47,84,68,12,10,1.1,0.9
2023-01-11T22:00:00,1272A,117.2588,31.8707,合肥市,琥珀山庄,细颗粒物(PM2.5),98,141,107,73,58,108,50,84,75,56,53,12,11,0.9,0.8
2023-01-11T22:00:00,1273A,117.1604,31.9052,合肥市,董铺水库,细颗粒物(PM2.5),103,129,109,77,57,95,46,78,69,44,41,5,4,0.7,0.6
2023-01-11T22:00:00,1274A,117.25,31.8571,合肥市,长江中路,细颗粒物(PM2.5),104,117,108,78,63,99,53,81,77,48,51,14,12,1.0,0.9
2023-01-11T22:00:00,1275A,117.266,31.9436,合肥市,庐阳区,细颗粒物(PM2.5),107,141,121,80,61,88,19,64,54,87,63,10,10,0.8,0.7
2023-01-11T22:00:00,1276A,117.336,31.8586,合肥市,瑶海区,细颗粒物(PM2.5),115,158,119,87,65,99,13,67,50,87,63,7,9,1.1,1.1
2023-01-11T22:00:00,1277A,117.3027,31.7964,合肥市,包河区,细颗粒物(PM2.5),98,117,123,73,66,108,61,83,79,44,51,11,12,0.9,1
2023-01-11T22:00:00,1278A,117.2776,31.7385,合肥市,滨湖新区,细颗粒物(PM2.5),104,127,98,78,51,106,58,84,79,42,54,10,7,0.8,0.7
2023-01-11T22:00:00,1279A,117.1318,31.8403,合肥市,高新区,细颗粒物(PM2.5),100,114,103,75,58,99,50,84,76,53,53,13,9,0.8,0.8
2023-01-11T22:00:00,1280A,119.3903,26.0543,福州市,鼓山,,,,,,,,,,,,,,,,
2023-01-11T22:00:00,1282A,119.2681,26.0504,福州市,师大,,39,39,34,20,22,61,7,57,23,45,30,4,4,0.6,0.6
2023-01-11T22:00:00,1283A,119.2984,26.1028,福州市,五四北路,,,,30,,24,51,16,51,31,33,27,2,2,,0.7
2023-01-11T22:00:00,1284A,119.2648,26.0768,福州市,杨桥西路,,37,37,31,21,26,57,6,57,24,42,24,3,3,0.5,0.5
2023-01-11T22:00:00,1285A,119.317,26.0746,福州市,紫阳,,43,43,34,18,22,54,5,54,24,52,31,2,2,0.8,0.6
2023-01-11T22:00:00,1286A,118.1608,24.8169,厦门市,溪东,,,,,,,,,,,,,,,,
2023-01-11T22:00:00,1287A,118.1514,24.4767,厦门市,洪文,,28,28,25,18,15,66,33,59,41,36,32,2,1,0.6,0.7
2023-01-11T22:00:00,1288A,118.0661,24.4444,厦门市,鼓浪屿,,36,31,25,20,20,69,12,58,26,72,48,3,4,0.6,0.6
2023-01-11T22:00:00,1290A,115.8931,28.6843,南昌市,省外办,细颗粒物(PM2.5),132,175,160,100,101,102,8,83,54,81,41,8,10,1.7,1.1
2023-01-11T22:00:00,1291A,115.8886,28.7003,南昌市,省林业公司,细颗粒物(PM2.5),119,141,149,90,102,94,17,78,62,89,48,5,8,1.4,1.3
2023-01-11T22:00:00,1292A,115.8126,28.7442,南昌市,林科所,细颗粒物(PM2.5),94,117,148,70,99,107,4,93,58,89,46,9,8,0.8,0.9
2023-01-11T22:00:00,1294A,115.8518,28.687,南昌市,建工学校,细颗粒物(PM2.5),109,146,156,82,93,102,8,91,61,90,42,8,10,1.2,1.1
2023-01-11T22:00:00,1295A,115.8921,28.6424,南昌市,象湖,细颗粒物(PM2.5),119,128,129,90,102,93,2,76,50,82,39,6,8,1.3,1.2
2023-01-11T22:00:00,1296A,115.7423,28.7996,南昌市,武术学校,细颗粒物(PM2.5),72,50,61,52,59,102,17,87,59,22,9,8,8,0.7,0.7
2023-01-11T22:00:00,1298A,115.9314,28.6842,南昌市,省站,细颗粒物(PM2.5),148,182,171,113,105,102,7,88,55,78,32,12,11,1.7,1.1
2023-01-11T22:00:00,1299A,116.9862,36.6114,济南市,科干所,细颗粒物(PM2.5),95,114,82,71,43,103,58,64,60,34,38,12,14,0.7,0.6
2023-01-11T22:00:00,1300A,116.9376,36.665,济南市,农科所,细颗粒物(PM2.5),132,200,122,100,59,86,5,44,30,95,67,31,27,1.7,1.2
2023-01-11T22:00:00,1301A,117.1265,36.6734,济南市,开发区,细颗粒物(PM2.5),113,117,86,85,49,61,14,47,25,71,57,10,16,1.1,0.9
2023-01-11T22:00:00,1303A,117.0624,36.6868,济南市,省种子仓库,细颗粒物(PM2.5),199,229,117,149,63,60,8,38,24,88,58,64,22,2.0,1.1
2023-01-11T22:00:00,1304A,116.9489,36.6447,济南市,机床二厂,细颗粒物(PM2.5),158,195,138,120,71,87,8,58,39,92,63,53,41,1.9,1.4
2023-01-11T22:00:00,1305A,117.0495,36.663,济南市,市监测站,细颗粒物(PM2.5),149,178,98,114,51,57,2,34,22,98,78,21,16,1.5,1
2023-01-11T22:00:00,1306A,116.7675,36.5484,济南市,长清党校,细颗粒物(PM2.5),123,110,82,93,40,92,47,82,69,52,55,10,11,0.5,0.8
2023-01-11T22:00:00,1307A,120.6659,36.2403,青岛市,仰口,,26,7,18,7,14,87,83,82,82,7,13,4,3,0.1,0.3
2023-01-11T22:00:00,1310A,120.4134,36.0658,青岛市,市南区东部子站,,24,12,19,5,12,81,75,76,72,10,16,7,8,0.4,0.4
2023-01-11T22:00:00,1311A,120.3664,36.1032,青岛市,四方区子站,,34,34,26,9,12,73,61,67,62,8,22,6,6,0.5,0.6
2023-01-11T22:00:00,1312A,120.2994,36.054,青岛市,市南区西部子站,,25,12,23,2,10,86,78,79,76,16,33,6,8,0.4,0.5
2023-01-11T22:00:00,1313A,120.4581,36.0858,青岛市,崂山区子站,,24,14,15,0,6,88,76,83,80,12,22,7,7,0.1,0.2
2023-01-11T22:00:00,1314A,120.1983,35.9608,青岛市,黄岛区子站,,28,19,21,10,11,90,88,88,88,5,20,4,5,0.3,0.4
2023-01-11T22:00:00,1315A,120.3999,36.3083,青岛市,城阳区子站,,46,46,37,15,20,76,47,69,64,43,38,5,6,0.6,0.9
2023-01-11T22:00:00,1316A,113.69031,34.76122,郑州市,烟厂,细颗粒物(PM2.5),219,174,129,169,120,66,41,62,46,41,34,4,4,0.7,0.5
2023-01-11T22:00:00,1317A,113.65724,34.77134,郑州市,郑纺机,细颗粒物(PM2.5),212,176,127,162,113,66,,61,50,38,31,2,8,1.3,1.1
2023-01-11T22:00:00,1318A,113.67526,34.80246,郑州市,银行学校,细颗粒物(PM2.5),211,196,128,161,115,72,38,66,46,43,34,7,7,1.0,0.8
2023-01-11T22:00:00,1319A,113.56746,34.81334,郑州市,供水公司,细颗粒物(PM2.5),199,186,125,149,100,71,34,60,44,41,38,4,4,0.9,0.7
2023-01-11T22:00:00,1320A,113.7329,34.7178,郑州市,经开区管委,细颗粒物(PM2.5),209,189,137,159,124,64,48,60,50,28,37,6,6,0.8,0.7
2023-01-11T22:00:00,1321A,113.73961,34.77172,郑州市,四十七中,细颗粒物(PM2.5),223,201,139,173,121,64,35,59,45,35,33,5,5,1.0,0.8
2023-01-11T22:00:00,1322A,113.60532,34.74838,郑州市,市监测站,细颗粒物(PM2.5),205,198,138,155,112,75,41,67,47,34,24,5,5,0.9,0.7
2023-01-11T22:00:00,1323A,113.64164,34.7525,郑州市,河医大,细颗粒物(PM2.5),212,191,133,162,114,65,39,60,45,37,26,2,3,1.1,0.9
2023-01-11T22:00:00,1324A,113.51488,34.91089,郑州市,岗李水库,,,,,,,,,,,,,,,,
2023-01-11T22:00:00,1325A,114.3677,30.5584,武汉市,东湖梨园,细颗粒物(PM2.5),117,121,118,88,79,124,30,109,99,91,43,7,8,1.2,1.3
2023-01-11T22:00:00,1326A,114.2529,30.558,武汉市,汉阳月湖,细颗粒物(PM2.5),138,135,124,105,91,101,7,70,48,116,58,7,7,1.8,1.4
2023-01-11T22:00:00,1327A,114.282,30.6189,武汉市,汉口花桥,细颗粒物(PM2.5),165,184,121,125,85,95,6,77,49,113,48,9,7,1.8,1.2
2023-01-11T22:00:00,1328A,114.3025,30.5332,武汉市,武昌紫阳,细颗粒物(PM2.5),140,151,127,107,99,124,6,84,56,117,57,10,12,2.2,2
2023-01-11T22:00:00,1329A,114.3646,30.6217,武汉市,青山钢花,细颗粒物(PM2.5),199,230,126,149,89,122,21,84,51,102,61,15,12,1.9,1.3
2023-01-11T22:00:00,1330A,114.1566,30.4825,武汉市,沌口新区,细颗粒物(PM2.5),110,151,127,83,81,89,8,72,50,142,75,16,13,1.2,1.3
2023-01-11T22:00:00,1331A,114.3014,30.5944,武汉市,汉口江滩,细颗粒物(PM2.5),120,136,115,91,80,104,35,80,58,87,52,11,8,1.6,1.2
2023-01-11T22:00:00,1333A,114.135,30.6319,武汉市,吴家山,细颗粒物(PM2.5),175,201,133,132,88,107,10,69,46,130,69,8,8,2.7,1.3
2023-01-11T22:00:00,1334A,113.8454,30.2917,武汉市,沉湖七壕,细颗粒物(PM2.5),113,167,127,85,72,124,76,112,109,20,41,9,10,1.2,1.3
2023-01-11T22:00:00,1335A,113.0833,28.2325,长沙市,经开区环保局,细颗粒物(PM2.5),140,140,202,107,171,135,56,107,97,51,56,5,4,1.1,1.3
2023-01-11T22:00:00,1336A,112.8872,28.2189,长沙市,高开区环保局,细颗粒物(PM2.5),118,103,206,89,183,142,75,122,114,26,52,8,7,0.8,1.3
2023-01-11T22:00:00,1337A,113.0792,28.2053,长沙市,马坡岭,细颗粒物(PM2.5),160,163,216,122,176,142,47,109,92,48,53,8,8,1.0,1
2023-01-11T22:00:00,1338A,112.9394,28.19,长沙市,湖南师范大学,细颗粒物(PM2.5),125,111,203,95,179,129,56,109,91,37,36,5,4,0.9,1.2
2023-01-11T22:00:00,1339A,113.0178,28.1322,长沙市,雨花区环保局,细颗粒物(PM2.5),125,103,211,95,172,128,55,111,96,45,51,4,3,0.8,0.8
2023-01-11T22:00:00,1340A,112.9792,28.2597,长沙市,伍家岭,细颗粒物(PM2.5),117,124,246,88,174,135,56,97,84,49,57,7,6,1.2,1.5
2023-01-11T22:00:00,1341A,113.0014,28.1944,长沙市,火车新站,细颗粒物(PM2.5),128,114,210,97,180,122,48,105,91,66,53,7,6,1.1,1.3
2023-01-11T22:00:00,1342A,112.9844,28.1178,长沙市,天心区环保局,细颗粒物(PM2.5),113,107,210,85,168,136,64,112,98,41,52,8,8,0.7,0.8
2023-01-11T22:00:00,1343A,112.8908,28.1308,长沙市,湖南中医药大学,细颗粒物(PM2.5),133,150,230,101,183,127,40,93,58,50,58,5,5,1.1,1.4
2023-01-11T22:00:00,1344A,112.9581,28.3611,长沙市,沙坪,细颗粒物(PM2.5),134,123,202,102,162,124,50,104,90,51,34,4,2,1.0,1.1
2023-01-11T22:00:00,1345A,113.2347,23.1423,广州市,广雅中学,,33,28,17,23,13,16,4,12,5,44,39,4,3,1.3,1
2023-01-11T22:00:00,1346A,113.2612,23.105,广州市,市五中,,40,33,17,28,13,23,3,18,8,43,35,4,4,1.1,0.8
2023-01-11T22:00:00,1348A,113.3478,23.0916,广州市,广东商学院,,33,31,13,23,11,23,6,16,9,36,35,4,5,0.8,0.6
2023-01-11T22:00:00,1349A,113.4332,23.1047,广州市,市八十六中,,45,39,18,31,12,17,1,12,4,38,34,3,2,0.9,0.6
2023-01-11T22:00:00,1350A,113.3505,22.9483,广州市,番禺中学,,46,33,17,32,19,23,4,17,10,48,41,4,7,1.0,0.9
2023-01-11T22:00:00,1351A,113.2146,23.3916,广州市,花都师范,,36,33,19,25,12,44,5,41,23,40,20,5,5,0.8,0.6
2023-01-11T22:00:00,1352A,113.2597,23.1331,广州市,市监测站,,30,28,15,21,12,22,2,15,5,40,36,5,4,0.9,0.7
2023-01-11T22:00:00,1353A,113.5618,23.312,广州市,九龙镇镇龙,,30,25,15,21,11,32,3,24,10,26,20,2,3,0.6,0.6
2023-01-11T22:00:00,1354A,113.2765,23.1544,广州市,麓湖,,28,22,13,19,10,24,2,16,6,27,30,2,2,0.8,0.7
2023-01-11T22:00:00,1355A,113.443,23.3035,广州市,帽峰山森林公园,,17,17,10,9,9,35,15,30,21,12,11,3,3,0.5,0.3
2023-01-11T22:00:00,1356A,114.1063,22.5545,深圳市,通心岭子站,,24,24,22,16,16,53,53,38,38,13,25,3,2,0.5,0.6
2023-01-11T22:00:00,1357A,114.117,22.5625,深圳市,洪湖,,40,40,25,28,15,56,56,32,32,18,30,7,6,0.7,0.7
2023-01-11T22:00:00,1358A,113.987,22.5417,深圳市,华侨城,,40,38,23,28,16,44,44,24,24,18,31,4,4,0.8,0.8
2023-01-11T22:00:00,1359A,113.9181,22.5171,深圳市,南海子站,,39,39,23,25,14,48,40,32,32,19,28,3,3,0.6,0.6
2023-01-11T22:00:00,1360A,114.2458,22.5689,深圳市,盐田,,25,25,18,16,12,53,32,42,42,43,37,6,6,0.6,0.6
2023-01-11T22:00:00,1361A,114.2283,22.7244,深圳市,龙岗,,41,41,23,26,14,32,21,18,17,32,23,3,3,0.8,0.8
2023-01-11T22:00:00,1363A,114.494,22.5422,深圳市,南澳,,36,36,21,22,11,74,39,66,55,17,14,2,3,0.2,0.6
2023-01-11T22:00:00,1364A,114.41,22.6342,深圳市,葵涌,,25,22,20,17,14,67,67,41,41,11,15,5,7,0.7,0.8
2023-01-11T22:00:00,1365A,114.297,22.5978,深圳市,梅沙,,24,22,16,11,10,76,76,68,68,12,14,3,3,0.6,0.6
2023-01-11T22:00:00,1366A,114.0678,22.738,深圳市,观澜,,47,47,24,27,14,43,9,26,22,34,24,6,6,0.7,0.7
2023-01-11T22:00:00,1367A,113.5814,22.2618,珠海市,吉大,,,23,14,19,14,25,,20,16,51,34,7,6,,0.5
2023-01-11T22:00:00,1368A,113.4881,22.2335,珠海市,前山,颗粒物(PM10),53,56,29,14,8,29,0,25,15,51,42,3,2,0.7,0.6
2023-01-11T22:00:00,1369A,113.628,22.4251,珠海市,唐家,,25,24,18,17,17,19,2,15,8,35,34,7,7,0.5,0.5
2023-01-11T22:00:00,1370A,113.299,22.2281,珠海市,斗门,细颗粒物(PM2.5),80,33,18,59,17,14,0,12,5,43,34,2,3,0.6,0.5
2023-01-11T22:00:00,1371A,113.1294,23.0067,佛山市,湾梁,,24,24,12,13,9,17,3,14,7,41,36,7,6,0.8,0.7
2023-01-11T22:00:00,1372A,113.1083,23.0478,佛山市,华材职中,,29,17,12,20,13,19,4,14,7,37,37,6,5,0.6,0.4
2023-01-11T22:00:00,1373A,113.144,23.0453,佛山市,南海气象局,,26,23,13,18,9,11,0,8,2,37,37,5,5,0.8,0.6
2023-01-11T22:00:00,1374A,113.2881,22.8094,佛山市,顺德苏岗,,32,18,8,22,9,17,0,8,5,34,35,6,6,1.1,0.9
2023-01-11T22:00:00,1376A,112.8383,22.8678,佛山市,高明孔堂,,30,16,12,21,9,32,7,25,11,33,26,2,2,0.7,0.6
2023-01-11T22:00:00,1377A,112.8836,23.1588,佛山市,三水监测站,,29,19,12,20,15,32,7,28,16,37,27,6,6,0.7,0.6
2023-01-11T22:00:00,1378A,112.867,23.185,佛山市,三水云东海,,26,24,13,18,13,34,4,29,18,29,21,4,4,0.6,0.5
2023-01-11T22:00:00,1379A,113.3769,22.5211,中山市,华柏园,,33,30,18,23,14,12,2,9,6,55,43,5,4,0.8,0.6
2023-01-11T22:00:00,1380A,113.3881,22.5497,中山市,张溪,,43,31,23,30,16,11,0,9,5,32,35,3,2,0.9,0.6
2023-01-11T22:00:00,1381A,113.4075,22.5111,中山市,紫马岭,,36,34,17,25,15,14,0,10,4,28,31,3,3,0.8,0.6
2023-01-11T22:00:00,1382A,113.4411,22.4853,中山市,长江旅游区,,,,,,,,,,,,,,,,
2023-01-11T22:00:00,1383A,113.1064,22.6058,江门市,北街,,23,15,12,12,10,16,5,12,8,46,44,6,6,0.8,0.7
2023-01-11T22:00:00,1384A,113.0731,22.5835,江门市,西区,,24,24,13,15,10,13,1,10,5,46,41,6,6,0.9,0.6
2023-01-11T22:00:00,1385A,113.0219,22.5311,江门市,圭峰西,,32,17,13,22,13,18,2,16,7,52,40,4,4,1.0,0.8
2023-01-11T22:00:00,1386A,113.0828,22.5947,江门市,东湖,,21,21,14,14,10,14,2,10,5,37,37,6,5,0.8,0.7
2023-01-11T22:00:00,1389A,113.7547,23.0494,东莞市,莞城梨川,,36,36,20,23,15,34,6,27,21,42,26,8,7,0.6,0.7
2023-01-11T22:00:00,1390A,113.7944,23.0128,东莞市,东城石井,,31,31,20,19,13,34,2,26,23,35,22,9,9,0.8,0.7
2023-01-11T22:00:00,1391A,113.7383,22.9658,东莞市,南城西平,,35,35,22,17,11,31,5,24,17,43,34,10,9,0.9,0.8
2023-01-11T22:00:00,1392A,114.4183,23.0528,惠州市,河南岸金山湖子站,,49,49,22,24,17,32,5,27,21,27,16,4,5,0.5,0.5
2023-01-11T22:00:00,1393A,114.4053,23.0822,惠州市,下埔横江三路子站,,43,43,18,23,14,39,6,34,21,32,18,2,3,0.8,0.6
2023-01-11T22:00:00,1394A,114.4103,23.1142,惠州市,江北云山西路子站,,35,30,16,24,17,37,7,36,22,25,12,6,3,0.6,0.5
2023-01-11T22:00:00,1395A,114.4645,22.7833,惠州市,惠阳区承修路船湖子站,,43,43,22,17,15,66,66,29,29,14,18,4,4,0.5,0.6
2023-01-11T22:00:00,1396A,114.5317,22.7422,惠州市,大亚湾管委会子站,,44,44,21,14,11,74,74,36,36,16,23,3,3,0.6,0.6
2023-01-11T22:00:00,1397A,112.4267,23.0706,肇庆市,睦岗子站,,18,14,15,12,11,43,26,35,26,32,30,7,6,0.5,0.5
2023-01-11T22:00:00,1398A,112.4645,23.0475,肇庆市,城中子站,,21,11,14,9,10,47,6,44,20,41,23,8,8,0.6,0.6
2023-01-11T22:00:00,1399A,112.5544,23.1522,肇庆市,坑口子站,,20,15,14,14,12,38,26,35,23,28,28,8,8,0.2,0.2
2023-01-11T22:00:00,1400A,112.4753,23.1,肇庆市,七星岩子站,,15,13,12,10,9,46,29,42,32,16,13,3,3,0.6,0.6
2023-01-11T22:00:00,1401A,108.3103,22.7881,南宁市,二十一中,,10,9,25,4,12,54,30,43,34,18,19,2,3,1.0,0.9
2023-01-11T22:00:00,1402A,108.3141,22.8528,南宁市,北湖,,14,14,33,9,17,59,26,51,28,19,19,5,7,0.9,0.9
2023-01-11T22:00:00,1403A,108.3206,22.8225,南宁市,市监测站,,,,24,8,20,41,31,41,29,23,28,8,9,0.8,0.9
2023-01-11T22:00:00,1404A,108.3829,22.8037,南宁市,大自然花园,,13,5,20,9,19,37,24,31,30,20,19,5,5,0.9,0.9
2023-01-11T22:00:00,1405A,108.4394,22.7904,南宁市,仙葫,,10,7,18,7,20,57,30,40,38,16,15,8,8,0.7,0.7
2023-01-11T22:00:00,1406A,108.2397,22.8467,南宁市,区农职院,,,18,25,5,16,33,18,28,26,37,35,,6,0.9,0.9
2023-01-11T22:00:00,1407A,108.3275,22.735,南宁市,英华嘉园,,9,7,27,6,14,44,25,33,30,18,19,5,5,0.8,0.8
2023-01-11T22:00:00,1408A,108.2257,22.7757,南宁市,沙井镇街道办,,24,12,25,11,18,21,1,16,11,48,41,5,9,0.9,0.8
2023-01-11T22:00:00,1409A,110.576,19.9507,海口市,东寨港,,,38,21,11,11,43,31,41,36,,,3,2,0.5,0.5
2023-01-11T22:00:00,1410A,110.3232,20.0574,海口市,海南大学,,41,41,26,16,12,87,74,84,80,10,12,4,4,0.6,0.7
2023-01-11T22:00:00,1411A,110.283,20.0053,海口市,秀英海南医院,,46,46,26,12,7,80,65,78,71,12,11,5,5,0.6,0.7
2023-01-11T22:00:00,1412A,110.338,19.9969,海口市,海南师范大学,,45,45,27,9,7,76,60,74,68,10,10,5,5,0.8,0.8
2023-01-11T22:00:00,1413A,110.33,20.0356,海口市,龙华路环保局宿舍,,40,40,23,13,8,71,60,70,66,8,9,4,4,0.6,0.6
2023-01-11T22:00:00,1414A,106.3787,29.8279,重庆市,缙云山,细颗粒物(PM2.5),130,110,118,99,84,105,79,85,84,39,36,6,6,0.8,0.8
2023-01-11T22:00:00,1416A,106.4213,29.8253,重庆市,天生,细颗粒物(PM2.5),234,240,194,184,149,40,5,21,20,47,50,12,14,1.6,1.5
2023-01-11T22:00:00,1417A,106.6263,29.7228,重庆市,两路,细颗粒物(PM2.5),209,206,178,159,133,27,10,21,14,60,76,10,11,1.4,1.5
2023-01-11T22:00:00,1418A,106.2953,29.5983,重庆市,虎溪,细颗粒物(PM2.5),216,163,150,166,146,44,29,32,27,38,55,15,9,1.1,1.1
2023-01-11T22:00:00,1419A,106.5777,29.5102,重庆市,南坪,细颗粒物(PM2.5),195,181,175,146,134,26,3,10,8,100,93,6,9,1.8,1.9
2023-01-11T22:00:00,1420A,106.6556,29.6277,重庆市,唐家沱,细颗粒物(PM2.5),219,207,168,169,132,18,3,10,8,79,68,8,8,1.2,1.1
2023-01-11T22:00:00,1421A,106.6349,29.4906,重庆市,茶园,细颗粒物(PM2.5),210,207,183,160,130,51,8,26,22,93,77,7,6,1.8,2
2023-01-11T22:00:00,1422A,106.3754,29.4572,重庆市,白市驿,细颗粒物(PM2.5),147,164,176,112,138,57,31,52,29,46,52,8,10,1.0,1.4
2023-01-11T22:00:00,1425A,106.6205,29.7166,重庆市,空港,细颗粒物(PM2.5),215,193,183,165,145,26,6,14,13,65,77,11,12,0.9,1
2023-01-11T22:00:00,1426A,106.4782,29.4875,重庆市,新山村,细颗粒物(PM2.5),198,170,189,148,142,35,25,20,19,56,81,7,8,0.5,1.2
2023-01-11T22:00:00,1427A,106.5616,29.6453,重庆市,礼嘉,细颗粒物(PM2.5),209,236,217,159,134,36,10,29,12,61,72,13,12,0.7,1.2
2023-01-11T22:00:00,1428A,106.4522,29.7091,重庆市,蔡家,细颗粒物(PM2.5),175,189,159,132,120,44,6,21,20,56,52,6,7,1.1,1.1
2023-01-11T22:00:00,1429A,106.5093,29.3917,重庆市,鱼新街,细颗粒物(PM2.5),222,219,180,172,147,52,6,26,21,88,69,9,13,2.2,2.1
2023-01-11T22:00:00,1431A,103.9728,30.7236,成都市,金泉两河,细颗粒物(PM2.5),180,158,174,136,148,23,0,11,9,68,55,1,2,1.1,0.9
2023-01-11T22:00:00,1432A,104.176,30.6872,成都市,十里店,细颗粒物(PM2.5),170,159,177,129,148,36,7,19,19,53,48,3,2,0.9,1.1
2023-01-11T22:00:00,1433A,104.079,30.5706,成都市,三瓦窑,细颗粒物(PM2.5),224,207,172,174,146,35,0,16,16,70,57,3,3,1.3,1.1
2023-01-11T22:00:00,1434A,104.1114,30.63,成都市,沙河铺,细颗粒物(PM2.5),209,163,182,159,153,38,3,19,19,59,52,2,3,1.1,1
2023-01-11T22:00:00,1437A,104.0786,30.6531,成都市,君平街,细颗粒物(PM2.5),220,195,190,170,172,29,2,20,17,78,59,3,4,1.0,1
2023-01-11T22:00:00,1438A,103.613,31.0283,成都市,灵岩寺,细颗粒物(PM2.5),190,172,161,143,128,86,41,82,41,27,30,2,4,1.0,0.9
2023-01-11T22:00:00,1439A,106.6899,26.5998,贵阳市,马鞍山,细颗粒物(PM2.5),52,44,52,36,45,95,62,89,78,14,20,6,7,0.6,1.1
2023-01-11T22:00:00,1440A,106.6971,26.5694,贵阳市,市环保站,细颗粒物(PM2.5),54,46,61,38,51,85,58,77,67,20,38,10,15,0.5,0.6
2023-01-11T22:00:00,1441A,106.6243,26.6266,贵阳市,鉴湖路,,,48,59,34,38,102,,98,86,14,15,8,10,0.4,0.5
2023-01-11T22:00:00,1442A,106.7487,26.6343,贵阳市,燕子冲,细颗粒物(PM2.5),62,51,67,44,52,91,59,85,76,18,29,8,10,0.5,0.6
2023-01-11T22:00:00,1443A,106.6555,26.4365,贵阳市,碧云窝,,,51,64,34,45,100,72,93,88,12,12,10,12,,0.5
2023-01-11T22:00:00,1444A,106.694,26.5161,贵阳市,中院村,细颗粒物(PM2.5),55,58,83,39,52,83,61,78,71,17,36,14,26,0.6,0.8
2023-01-11T22:00:00,1445A,106.7109,26.6027,贵阳市,红边门,细颗粒物(PM2.5),55,46,69,39,56,83,55,78,64,28,42,9,21,0.7,0.8
2023-01-11T22:00:00,1446A,106.7164,26.5699,贵阳市,新华路,细颗粒物(PM2.5),64,58,72,46,45,90,60,86,76,20,34,11,16,0.5,0.6
2023-01-11T22:00:00,1447A,106.674,26.5424,贵阳市,太慈桥,颗粒物(PM10),53,56,67,34,42,96,72,91,85,12,20,10,9,0.5,0.5
2023-01-11T22:00:00,1450A,102.8204,24.8886,昆明市,呈贡新区,,30,28,35,21,23,82,64,78,74,14,29,4,8,0.5,0.7
2023-01-11T22:00:00,1451A,102.6251,24.9608,昆明市,西山森林公园,,26,19,23,11,17,92,83,87,87,9,10,7,9,0.5,0.5
2023-01-11T22:00:00,1452A,102.7252,25.0902,昆明市,龙泉镇,颗粒物(PM10),51,51,49,27,27,90,11,82,58,63,37,8,7,0.9,0.8
2023-01-11T22:00:00,1453A,102.7266,25.0375,昆明市,东风东路,,29,29,40,17,25,82,65,76,73,18,32,7,8,0.4,0.6
2023-01-11T22:00:00,1454A,102.6742,25.0669,昆明市,金鼎山,,39,29,58,27,40,91,59,83,78,20,27,7,32,0.5,0.6
2023-01-11T22:00:00,1455A,102.6644,25.0401,昆明市,碧鸡广场,,39,39,40,24,23,89,50,81,73,32,29,5,5,0.4,0.5
2023-01-11T22:00:00,1456A,91.1319,29.6514,拉萨市,八廓街,,35,35,39,23,24,95,40,87,75,36,28,7,6,1.1,0.9
2023-01-11T22:00:00,1457A,91.1221,29.6747,拉萨市,市环保局,细颗粒物(PM2.5),72,73,49,52,29,98,34,90,76,66,37,17,7,2.2,1.3
2023-01-11T22:00:00,1458A,91.0874,29.6475,拉萨市,区监测站,,,19,24,15,16,103,,102,102,30,21,7,6,0.7,0.6
2023-01-11T22:00:00,1459A,91.1774,29.6541,拉萨市,西藏大学,,27,27,26,14,15,100,56,94,86,30,26,11,10,0.5,0.5
2023-01-11T22:00:00,1460A,90.9798,29.6588,拉萨市,区辐射站,细颗粒物(PM2.5),98,93,41,73,25,108,29,100,83,88,37,20,8,2.6,1
2023-01-11T22:00:00,1461A,91.0834,29.6292,拉萨市,拉萨火车站,,17,15,21,4,8,94,50,88,82,34,22,10,9,0.4,0.4
2023-01-11T22:00:00,1462A,108.882,34.2749,西安市,高压开关厂,细颗粒物(PM2.5),208,192,217,158,162,54,30,43,42,73,75,12,11,1.2,1.4
2023-01-11T22:00:00,1463A,108.993,34.2629,西安市,兴庆小区,细颗粒物(PM2.5),200,169,170,150,151,55,32,46,44,66,63,10,11,1.5,1.4
2023-01-11T22:00:00,1464A,109.06,34.2572,西安市,纺织城,细颗粒物(PM2.5),255,250,208,205,159,46,3,37,23,104,67,12,13,1.6,1.5
2023-01-11T22:00:00,1465A,108.9356,34.2173,西安市,小寨,细颗粒物(PM2.5),186,193,238,140,163,31,31,20,20,67,75,12,12,1.2,1.5
2023-01-11T22:00:00,1466A,108.954,34.2713,西安市,市人民体育场,细颗粒物(PM2.5),198,192,187,148,158,55,38,45,44,59,69,11,11,1.4,1.4
2023-01-11T22:00:00,1467A,108.8922,34.2322,西安市,高新西区,细颗粒物(PM2.5),189,169,212,142,172,48,34,31,31,62,76,11,12,1.3,1.6
2023-01-11T22:00:00,1468A,108.935,34.3474,西安市,经开区,细颗粒物(PM2.5),215,187,169,165,140,70,29,55,50,65,68,10,11,1.2,1.2
2023-01-11T22:00:00,1469A,108.906,34.1546,西安市,长安区,细颗粒物(PM2.5),231,253,238,181,169,43,6,28,17,91,80,10,9,1.5,1.5
2023-01-11T22:00:00,1471A,109.2186,34.3731,西安市,临潼区,细颗粒物(PM2.5),186,173,159,140,117,62,18,48,40,66,56,12,14,1.4,1.3
2023-01-11T22:00:00,1472A,108.869,34.378,西安市,草滩,细颗粒物(PM2.5),127,195,159,96,77,64,5,46,36,85,61,3,11,0.0,0.3
2023-01-11T22:00:00,1473A,108.985,34.1978,西安市,曲江文化产业集团,细颗粒物(PM2.5),185,203,226,139,155,40,26,28,16,73,81,10,9,1.4,1.6
2023-01-11T22:00:00,1474A,109.051,34.3213,西安市,广运潭,细颗粒物(PM2.5),215,203,187,165,140,63,3,38,30,86,63,15,12,1.7,1.4
2023-01-11T22:00:00,1476A,103.631,36.1031,兰州市,兰炼宾馆,细颗粒物(PM2.5),152,197,174,116,80,95,5,58,42,119,71,38,46,1.9,1.5
2023-01-11T22:00:00,1477A,104.1373,35.9454,兰州市,榆中兰大校区,,,,,,,,,,,,,,,,
2023-01-11T22:00:00,1478A,103.8412,36.0726,兰州市,生物制品所,细颗粒物(PM2.5),115,150,162,87,69,64,,42,32,109,84,24,28,1.9,1.4
2023-01-11T22:00:00,1479A,103.831,36.0464,兰州市,铁路设计院,细颗粒物(PM2.5),162,161,158,123,87,76,12,48,32,132,94,36,31,3.8,2.5
2023-01-11T22:00:00,1483A,101.524,36.6867,西宁市,第五水厂,,,,,,,,,,,,,,,,
2023-01-11T22:00:00,1484A,105.9512,38.6016,银川市,贺兰山马莲口,细颗粒物(PM2.5),92,131,110,68,60,94,90,75,70,32,42,29,42,0.8,1.1
2023-01-11T22:00:00,1488A,106.2328,38.4975,银川市,贺兰山东路,颗粒物(PM10),155,259,229,112,115,66,36,54,50,67,58,22,18,1.7,1.7
2023-01-11T22:00:00,1489A,106.1358,38.5036,银川市,学院路,颗粒物(PM10),157,263,224,103,96,62,35,48,45,63,58,28,30,2.1,2
2023-01-11T22:00:00,1490A,87.5801,43.8303,乌鲁木齐市,监测站,,19,13,100,13,67,68,54,52,52,24,36,5,7,0.4,1
2023-01-11T22:00:00,1491A,87.6046,43.768,乌鲁木齐市,收费所,,38,38,108,13,62,57,42,44,44,43,39,2,2,0.3,0.9
2023-01-11T22:00:00,1492A,87.4754,43.9469,乌鲁木齐市,新疆农科院农场,,,,103,55,152,73,70,66,66,13,35,5,8,0.7,1.5
2023-01-11T22:00:00,1493A,87.5525,43.8711,乌鲁木齐市,铁路局,,21,16,113,12,89,70,66,58,58,18,43,2,4,0.3,1
2023-01-11T22:00:00,1494A,87.6432,43.831,乌鲁木齐市,三十一中学,,,14,96,6,68,66,52,55,55,22,28,,5,,0.9
2023-01-11T22:00:00,1496A,87.7216,44.1747,乌鲁木齐市,米东区环保局,,25,3,148,1,114,82,77,77,77,3,22,5,8,0.3,1.1
2023-01-11T22:00:00,1508A,112.9433,27.8614,湘潭市,板塘,细颗粒物(PM2.5),159,129,217,121,191,117,48,92,77,42,49,3,4,0.9,1.1
2023-01-11T22:00:00,1511A,112.9118,27.8403,湘潭市,市监测站,细颗粒物(PM2.5),153,145,230,117,187,124,65,100,88,30,46,8,8,1.3,1.5
2023-01-11T22:00:00,1512A,112.8937,27.8728,湘潭市,江麓,细颗粒物(PM2.5),148,136,231,113,189,129,72,108,99,24,40,8,11,1.0,1.3
2023-01-11T22:00:00,1513A,112.9227,27.8159,湘潭市,岳塘,细颗粒物(PM2.5),153,136,209,117,183,117,63,96,84,25,41,6,6,1.3,1.5
2023-01-11T22:00:00,1514A,112.9074,27.9119,湘潭市,科大,细颗粒物(PM2.5),118,104,244,89,211,74,70,74,73,33,48,3,4,0.9,1.6
2023-01-11T22:00:00,1515A,113.135,27.8244,株洲市,天台山庄,细颗粒物(PM2.5),113,102,199,85,172,126,60,111,96,39,52,5,6,1.1,1.3
2023-01-11T22:00:00,1518A,113.095,27.8867,株洲市,株冶医院,细颗粒物(PM2.5),108,108,215,81,182,125,70,104,92,24,51,4,5,0.4,0.9
2023-01-11T22:00:00,1519A,113.167,27.8667,株洲市,市四中,细颗粒物(PM2.5),152,136,223,116,186,126,62,113,89,33,40,8,7,1.0,1.2
2023-01-11T22:00:00,1520A,113.143,27.8381,株洲市,火车站,细颗粒物(PM2.5),138,124,220,105,185,128,60,111,94,41,48,6,7,1.2,1.3
2023-01-11T22:00:00,1524A,113.13,27.8528,株洲市,市监测站,细颗粒物(PM2.5),132,122,209,100,188,150,61,120,102,39,52,11,10,1.0,1.2
2023-01-11T22:00:00,1552A,106.805,26.3003,贵阳市,桐木岭,,,,,,,,,,,,,,,,
2023-01-11T22:00:00,1559A,113.251,27.8336,株洲市,大京风景区,细颗粒物(PM2.5),88,83,175,65,128,123,49,109,90,19,20,5,5,0.8,1.1
2023-01-11T22:00:00,1562A,113.0048,27.9153,湘潭市,昭山,细颗粒物(PM2.5),143,134,220,109,177,125,51,96,83,50,60,4,3,0.8,1.1
2023-01-11T22:00:00,1564A,112.4876,27.9164,湘潭市,韶山,细颗粒物(PM2.5),124,113,142,94,113,130,73,120,105,26,23,6,7,0.9,1.4
2023-01-11T22:00:00,1585A,109.8756,40.6532,包头市,市环境监测站,细颗粒物(PM2.5),128,141,128,97,90,57,15,44,31,100,78,41,50,1.8,1.8
2023-01-11T22:00:00,1587A,109.9991,40.5842,包头市,包头八中,细颗粒物(PM2.5),159,162,176,121,113,45,16,34,28,87,78,81,67,1.8,1.8
2023-01-11T22:00:00,1588A,109.8538,40.6821,包头市,青山宾馆,,,233,170,163,119,55,6,38,25,120,83,30,39,3.3,2.3
2023-01-11T22:00:00,1589A,109.8642,40.6288,包头市,惠龙物流,细颗粒物(PM2.5),117,176,164,88,90,50,4,37,23,94,80,27,47,1.8,1.9
2023-01-11T22:00:00,1590A,110.0377,40.5546,包头市,东河鸿龙湾,细颗粒物(PM2.5),130,183,166,99,85,53,6,38,28,84,72,23,32,1.7,1.8
2023-01-11T22:00:00,1591A,110.0023,39.8129,鄂尔多斯市,综合楼,细颗粒物(PM2.5),132,163,157,100,87,86,47,70,60,59,52,18,20,1.2,1.2
2023-01-11T22:00:00,1592A,109.9486,39.8261,鄂尔多斯市,巴音孟克林场办事处,细颗粒物(PM2.5),125,146,144,95,86,86,49,65,63,56,50,21,24,1.3,1.2
2023-01-11T22:00:00,1593A,109.7736,39.5986,鄂尔多斯市,康泽苑,细颗粒物(PM2.5),119,141,173,90,91,107,47,85,77,44,56,12,22,1.5,1.6
2023-01-11T22:00:00,1594A,109.8119,39.5989,鄂尔多斯市,华泰汽车城,细颗粒物(PM2.5),138,146,174,105,101,111,16,95,69,71,66,13,24,1.4,1.5
2023-01-11T22:00:00,1595A,109.9734,39.7884,鄂尔多斯市,奥林花园,细颗粒物(PM2.5),132,173,163,100,91,103,34,82,74,68,56,15,21,1.4,1.3
2023-01-11T22:00:00,1596A,122.2414,40.6592,营口市,学府南路,,,,,,,,,,,,,,,,
2023-01-11T22:00:00,1597A,122.2703,40.7094,营口市,大庆路,细颗粒物(PM2.5),104,96,65,78,51,66,18,54,36,62,38,20,19,1.1,1
2023-01-11T22:00:00,1598A,122.2150,40.6511,营口市,镜湖西路,颗粒物(PM10),65,79,63,41,38,61,44,52,41,49,42,12,12,0.8,0.8
2023-01-11T22:00:00,1599A,122.1658,40.6789,营口市,西炮台,细颗粒物(PM2.5),60,65,65,43,44,54,46,49,45,35,34,10,11,0.7,0.7
2023-01-11T22:00:00,1600A,124.3303,40.0625,丹东市,江湾东路,细颗粒物(PM2.5),100,92,73,75,56,79,31,54,43,43,38,35,25,4.0,2
2023-01-11T22:00:00,1601A,124.4256,40.1503,丹东市,临江后街,细颗粒物(PM2.5),94,92,83,70,60,76,32,52,36,46,43,20,23,1.6,1.5
2023-01-11T22:00:00,1602A,124.3933,40.1461,丹东市,元宝山,细颗粒物(PM2.5),60,63,78,43,53,64,42,42,38,34,44,27,24,0.9,1.4
2023-01-11T22:00:00,1603A,124.3633,40.1092,丹东市,民主桥,细颗粒物(PM2.5),92,102,72,68,50,74,6,53,36,70,47,16,17,2.1,1.5
2023-01-11T22:00:00,1604A,122.0303,41.1489,盘锦市,开发区,细颗粒物(PM2.5),79,63,65,58,45,58,46,55,49,27,28,9,10,0.8,0.8
2023-01-11T22:00:00,1605A,122.0485,41.0883,盘锦市,兴隆台,细颗粒物(PM2.5),75,65,64,55,45,54,48,51,47,30,30,11,11,1.0,0.9
2023-01-11T22:00:00,1606A,121.8297,41.1028,盘锦市,新生街道,细颗粒物(PM2.5),83,56,52,61,42,61,42,52,48,32,30,9,9,0.9,0.8
2023-01-11T22:00:00,1607A,120.9092,40.7136,葫芦岛市,龙港区,细颗粒物(PM2.5),95,88,74,71,51,46,46,33,33,31,54,9,16,0.8,1.2
2023-01-11T22:00:00,1608A,120.8392,40.7514,葫芦岛市,化工街,细颗粒物(PM2.5),113,107,86,85,58,48,30,40,31,49,65,22,22,1.3,1.6
2023-01-11T22:00:00,1609A,120.8341,40.7073,葫芦岛市,新区,细颗粒物(PM2.5),122,96,84,92,60,45,35,37,33,39,59,19,27,1.2,1.6
2023-01-11T22:00:00,1610A,120.8695,40.7677,葫芦岛市,东城区,细颗粒物(PM2.5),124,108,94,94,60,42,30,35,28,50,64,17,20,1.3,1.6
2023-01-11T22:00:00,1611A,118.5819,24.9117,泉州市,涂山街,颗粒物(PM10),54,58,30,23,17,72,15,63,43,41,21,8,8,0.7,0.7
2023-01-11T22:00:00,1612A,118.5972,24.8978,泉州市,津头埔,颗粒物(PM10),56,61,29,30,18,66,18,59,37,42,27,8,7,0.9,0.7
2023-01-11T22:00:00,1613A,118.6663,24.9424,泉州市,万安,颗粒物(PM10),52,54,30,28,15,74,16,64,43,40,22,8,7,0.6,0.5
2023-01-11T22:00:00,1614A,118.6117,24.9604,泉州市,清源山,,,,,,,,,,,,,,,,
2023-01-11T22:00:00,1616A,117.6795,36.229,济南市,技术学院,细颗粒物(PM2.5),83,85,82,61,54,85,42,70,60,25,30,10,12,0.9,0.9
2023-01-11T22:00:00,1618A,118.3429,35.0532,临沂市,沂河小区,细颗粒物(PM2.5),80,66,68,59,50,81,39,64,59,25,35,4,6,0.6,0.8
2023-01-11T22:00:00,1619A,118.295,35.0583,临沂市,鲁南制药厂,细颗粒物(PM2.5),52,46,62,36,37,85,52,70,66,36,43,12,17,0.3,0.5
2023-01-11T22:00:00,1620A,118.2794,34.9976,临沂市,新光毛纺厂,,50,48,64,35,41,92,44,74,64,32,37,7,12,0.4,1.1
2023-01-11T22:00:00,1621A,118.3956,35.0888,临沂市,河东保险公司,,45,44,69,31,50,82,28,62,56,43,47,7,9,0.5,0.8
2023-01-11T22:00:00,1622A,116.3032,37.4674,德州市,儿童乐园,细颗粒物(PM2.5),134,146,107,102,66,26,4,22,13,81,62,24,17,1.5,1.1
2023-01-11T22:00:00,1624A,116.2991,37.4451,德州市,监理站,细颗粒物(PM2.5),144,160,121,110,75,25,5,22,16,83,66,28,21,1.4,1
2023-01-11T22:00:00,1625A,115.9848,36.4372,聊城市,区政府,细颗粒物(PM2.5),159,190,105,121,59,73,23,64,59,76,53,11,18,1.1,0.8
2023-01-11T22:00:00,1628A,118.0062,37.3803,滨州市,市环保局,细颗粒物(PM2.5),105,133,132,79,82,51,8,34,29,79,79,27,43,1.1,1.4
2023-01-11T22:00:00,1629A,118.0018,37.3617,滨州市,第二水厂,细颗粒物(PM2.5),120,132,130,91,71,49,7,37,32,80,79,23,32,1.3,1.4
2023-01-11T22:00:00,1630A,117.9776,37.393,滨州市,北中新校,细颗粒物(PM2.5),97,124,123,72,75,51,8,35,27,72,74,20,31,1.1,1.3
2023-01-11T22:00:00,1631A,118.0414,36.8103,淄博市,人民公园,细颗粒物(PM2.5),139,207,125,106,73,62,3,41,19,92,71,22,19,1.4,1.1
2023-01-11T22:00:00,1633A,117.8525,36.4847,淄博市,双山,细颗粒物(PM2.5),65,68,64,47,42,93,66,79,68,29,34,12,15,0.6,1.1
2023-01-11T22:00:00,1634A,117.9592,36.6331,淄博市,气象站,细颗粒物(PM2.5),83,96,79,61,45,99,38,79,64,56,41,16,20,0.6,0.8
2023-01-11T22:00:00,1635A,118.3092,36.8194,淄博市,莆田园,细颗粒物(PM2.5),85,90,94,63,52,68,13,52,35,56,42,12,22,0.8,1.4
2023-01-11T22:00:00,1637A,117.558,34.8438,枣庄市,市中区政府,细颗粒物(PM2.5),85,114,106,63,57,103,27,77,59,63,53,14,16,1.0,1.1
2023-01-11T22:00:00,1638A,117.2852,34.7837,枣庄市,薛城环保局,细颗粒物(PM2.5),85,85,78,63,50,98,66,80,78,40,42,13,18,0.9,0.9
2023-01-11T22:00:00,1639A,117.5852,34.7745,枣庄市,峄城区政府,细颗粒物(PM2.5),70,88,83,51,42,88,56,76,74,33,33,14,14,0.5,0.6
2023-01-11T22:00:00,1640A,117.7276,34.5578,枣庄市,台儿庄区环保局,细颗粒物(PM2.5),125,144,88,95,57,90,36,72,62,55,49,10,9,1.2,0.9
2023-01-11T22:00:00,1641A,117.4518,35.0992,枣庄市,山亭区环保局,颗粒物(PM10),54,58,58,37,35,100,77,92,88,29,29,9,8,0.7,0.8
2023-01-11T22:00:00,1642A,121.2514,37.5639,烟台市,开发区,,20,14,39,14,29,71,53,63,60,24,36,9,10,0.6,0.8
2023-01-11T22:00:00,1643A,121.3719,37.5433,烟台市,轴承厂,,25,19,30,16,21,83,77,79,78,8,16,3,4,0.3,0.4
2023-01-11T22:00:00,1644A,121.3181,37.5436,烟台市,西郊化工站,,24,19,36,11,21,83,75,77,76,15,25,1,3,0.6,0.7
2023-01-11T22:00:00,1645A,121.4478,37.4822,烟台市,莱山环保局,,20,14,30,11,21,75,61,67,62,9,16,8,10,0.7,0.8
2023-01-11T22:00:00,1646A,121.2611,37.4967,烟台市,福山环保局,,25,24,53,17,32,77,52,68,64,28,36,7,9,0.1,0.6
2023-01-11T22:00:00,1650A,119.1437,36.7023,潍坊市,环保局,,39,34,60,27,40,74,58,65,60,24,42,5,8,0.7,1.1
2023-01-11T22:00:00,1653A,116.6251,35.4302,济宁市,火炬城,细颗粒物(PM2.5),113,110,82,85,63,105,53,83,75,50,43,15,14,0.8,0.6
2023-01-11T22:00:00,1655A,116.5491,35.4042,济宁市,电化厂,细颗粒物(PM2.5),107,112,92,80,59,98,55,78,69,38,34,12,11,0.7,0.6
2023-01-11T22:00:00,1656A,117.1437,36.1937,泰安市,监测站,细颗粒物(PM2.5),138,136,102,105,81,90,30,66,59,58,47,11,15,1.0,1.1
2023-01-11T22:00:00,1657A,117.0885,36.2017,泰安市,人口学校,细颗粒物(PM2.5),72,83,76,52,48,88,88,84,84,20,27,12,13,0.5,0.5
2023-01-11T22:00:00,1658A,117.1089,36.1758,泰安市,电力学校,细颗粒物(PM2.5),124,132,108,94,76,80,26,61,51,57,48,12,21,1.0,1.2
2023-01-11T22:00:00,1659A,119.471,35.4209,日照市,监测站,,27,27,50,12,28,74,74,65,59,25,46,7,12,0.3,0.9
2023-01-11T22:00:00,1660A,119.523,35.4216,日照市,市政府广场,,29,29,38,11,20,81,81,77,77,12,30,4,6,0.6,1
2023-01-11T22:00:00,1661A,119.5587,35.4044,日照市,港务局,,28,27,38,7,21,89,89,78,76,17,38,4,7,0.4,0.7
2023-01-11T22:00:00,1662A,122.1214,37.4236,威海市,华夏技校,,22,17,21,15,16,82,70,78,76,16,15,2,2,0.4,0.4
2023-01-11T22:00:00,1663A,122.0508,37.5236,威海市,山大分校,,26,5,22,2,11,83,81,78,77,4,12,3,4,0.1,0.2
2023-01-11T22:00:00,1664A,122.1067,37.5072,威海市,市监测站,,23,15,22,7,14,79,72,70,70,21,28,2,2,0.4,0.4
2023-01-11T22:00:00,1666A,118.6614,37.4309,东营市,市环保局,颗粒物(PM10),51,51,86,34,57,75,37,54,41,33,54,16,21,0.8,1.1
2023-01-11T22:00:00,1669A,113.5824,24.7733,韶关市,市八中,,30,29,22,21,14,57,35,52,43,13,11,8,8,0.5,0.4
2023-01-11T22:00:00,1671A,113.5917,24.7972,韶关市,园林处,,22,22,19,14,15,63,40,61,48,12,8,6,6,0.5,0.4
2023-01-11T22:00:00,1672A,113.6735,24.7791,韶关市,韶关学院,,36,28,18,25,17,52,6,46,33,31,16,6,6,0.6,0.4
2023-01-11T22:00:00,1673A,113.5971,24.6863,韶关市,曲江监测站,,50,42,26,35,22,47,5,46,18,32,22,8,8,0.7,0.4
2023-01-11T22:00:00,1674A,116.6794,23.3667,汕头市,金平子站,,25,19,18,17,15,81,47,71,56,22,18,10,10,0.7,0.7
2023-01-11T22:00:00,1675A,116.7244,23.3633,汕头市,龙湖子站,,29,19,19,20,18,79,51,76,55,22,18,10,10,0.6,0.6
2023-01-11T22:00:00,1676A,116.7258,23.2775,汕头市,濠江子站,,28,23,20,19,16,81,53,79,62,20,14,8,8,0.7,0.6
2023-01-11T22:00:00,1677A,116.7519,23.4714,汕头市,澄海子站,,40,28,21,28,21,81,39,68,53,32,20,7,5,0.7,0.7
2023-01-11T22:00:00,1678A,116.6092,23.2539,汕头市,潮阳子站,,46,32,18,32,11,82,49,77,62,19,12,6,6,0.6,0.5
2023-01-11T22:00:00,1680A,110.3539,21.2706,湛江市,湛江影剧院,,23,20,10,16,9,71,54,62,60,17,15,5,5,0.5,0.6
2023-01-11T22:00:00,1681A,110.3928,21.2228,湛江市,市环境监测站,,25,18,10,17,9,69,46,59,57,20,17,6,6,0.5,0.5
2023-01-11T22:00:00,1682A,110.4019,21.1997,湛江市,环保局宿舍,,36,26,11,25,13,63,41,54,51,22,16,3,4,0.6,0.6
2023-01-11T22:00:00,1683A,110.4111,21.2028,湛江市,霞山游泳场,,30,25,13,21,13,68,42,58,55,20,16,4,4,0.5,0.5
2023-01-11T22:00:00,1684A,110.3316,21.2679,湛江市,麻章区环保局,,22,19,10,15,7,73,56,63,61,16,15,5,6,0.6,0.6
2023-01-11T22:00:00,1685A,110.4558,21.2567,湛江市,坡头区环保局,,29,22,11,20,10,70,48,60,58,17,14,4,4,0.6,0.6
2023-01-11T22:00:00,1686A,111.0286,21.4688,茂名市,电白南海,,25,24,18,17,9,51,36,42,37,20,16,6,6,0.5,0.5
2023-01-11T22:00:00,1687A,110.9294,21.6533,茂名市,茂石化七小,,35,31,10,24,8,50,30,50,37,15,10,13,9,0.8,0.8
2023-01-11T22:00:00,1688A,110.9107,21.6687,茂名市,健康路,,26,24,9,18,5,56,39,56,43,17,13,10,11,0.6,0.6
2023-01-11T22:00:00,1689A,110.8592,21.6828,茂名市,高岭,,45,24,9,31,14,51,32,50,39,44,22,19,15,0.7,0.5
2023-01-11T22:00:00,1690A,116.1231,24.3284,梅州市,梅江月梅,,12,11,10,8,8,45,22,42,38,13,14,4,4,0.3,0.4
2023-01-11T22:00:00,1691A,116.0797,24.2719,梅州市,梅县新城,,34,34,19,14,12,50,5,36,20,39,24,7,7,1.0,0.9
2023-01-11T22:00:00,1692A,116.1248,24.2654,梅州市,环境监控中心,,22,22,18,13,10,49,4,40,26,29,21,8,8,0.8,0.7
2023-01-11T22:00:00,1693A,115.3653,22.775,汕尾市,市环保局,,35,35,23,14,24,73,55,69,66,18,11,8,8,0.5,0.5
2023-01-11T22:00:00,1694A,115.3706,22.7898,汕尾市,市政府,,25,13,18,17,19,74,62,72,64,14,14,8,7,0.5,0.5
2023-01-11T22:00:00,1695A,115.3622,22.7925,汕尾市,新城中学,颗粒物(PM10),52,53,29,5,20,73,62,67,65,12,11,11,10,0.6,0.6
2023-01-11T22:00:00,1696A,114.6778,23.7569,河源市,源西,,25,25,16,14,11,34,3,32,17,29,19,4,3,0.8,0.6
2023-01-11T22:00:00,1697A,114.6944,23.7586,河源市,东埔,,29,18,18,20,16,31,12,30,21,22,15,4,4,0.8,0.7
2023-01-11T22:00:00,1698A,114.6892,23.7233,河源市,老城,,36,34,23,25,17,37,4,37,19,26,15,4,4,1.0,0.8
2023-01-11T22:00:00,1699A,111.9797,21.8593,阳江市,鸳鸯湖,,26,16,10,18,14,36,1,36,8,34,22,3,3,0.7,0.6
2023-01-11T22:00:00,1701A,111.9491,21.8658,阳江市,马南垌,,30,27,11,21,10,38,5,36,12,38,28,4,4,0.6,0.6
2023-01-11T22:00:00,1702A,113.0426,23.691,清远市,环保大楼,,42,25,21,29,21,45,21,37,26,17,13,3,3,0.9,0.8
2023-01-11T22:00:00,1703A,113.0208,23.7106,清远市,凤城街办,,28,25,22,19,16,35,3,26,11,32,23,6,5,0.8,0.7
2023-01-11T22:00:00,1705A,116.6367,23.6719,潮州市,西园路,,39,39,26,21,27,64,22,54,43,31,21,7,6,0.7,0.7
2023-01-11T22:00:00,1706A,116.6447,23.6706,潮州市,档案局,,45,32,28,31,28,63,23,53,42,30,22,6,6,0.7,0.7
2023-01-11T22:00:00,1708A,116.3701,23.5345,揭阳市,新兴,细颗粒物(PM2.5),55,38,28,39,37,67,14,51,36,42,21,8,6,0.9,0.6
2023-01-11T22:00:00,1709A,116.3264,23.5443,揭阳市,西马,颗粒物(PM10),56,62,32,31,38,66,23,53,28,32,16,13,9,1.1,0.7
2023-01-11T22:00:00,1710A,116.3611,23.5626,揭阳市,东兴,,40,39,32,28,33,67,22,49,40,42,24,6,5,0.7,0.6
2023-01-11T22:00:00,1711A,116.4151,23.5294,揭阳市,渔湖,,42,42,27,23,20,72,16,59,44,42,21,11,7,1.0,0.7
2023-01-11T22:00:00,1712A,112.0392,22.9169,云浮市,新市府,,15,9,9,5,7,22,7,19,13,30,20,6,7,0.8,0.7
2023-01-11T22:00:00,1714A,112.0539,22.9539,云浮市,牧羊,,12,1,9,5,9,43,19,28,21,23,19,6,8,0.6,0.5
2023-01-11T22:00:00,1715A,102.575,24.3711,玉溪市,东风水库,,43,36,33,30,26,80,52,71,69,20,17,5,4,0.6,0.7
2023-01-11T22:00:00,1718A,115.4208,35.2464,菏泽市,气象局,细颗粒物(PM2.5),207,242,126,157,82,85,14,78,54,74,45,7,10,1.2,0.8
2023-01-11T22:00:00,1719A,115.4747,35.2375,菏泽市,市政协,细颗粒物(PM2.5),185,204,128,139,93,81,18,69,52,76,52,14,11,1.1,0.8
2023-01-11T22:00:00,1721A,113.3819,40.1097,大同市,果树场,,,,,,,,,,,,,,,,
2023-01-11T22:00:00,1723A,113.2994,40.0758,大同市,云冈宾馆,细颗粒物(PM2.5),152,207,176,116,96,58,5,40,30,93,72,27,34,1.7,1.9
2023-01-11T22:00:00,1724A,113.3444,40.0917,大同市,大同大学,细颗粒物(PM2.5),142,183,201,108,88,36,6,29,18,88,64,31,46,1.5,1.7
2023-01-11T22:00:00,1725A,113.2661,40.1269,大同市,安家小村,颗粒物(PM10),148,245,202,95,76,44,19,36,31,88,75,27,38,1.2,2.2
2023-01-11T22:00:00,1726A,113.2711,40.0844,大同市,教育学院,细颗粒物(PM2.5),230,324,208,180,108,43,14,31,26,94,76,42,50,2.0,2.3
2023-01-11T22:00:00,1727A,113.1147,36.1547,长治市,清华站,细颗粒物(PM2.5),107,105,105,80,78,86,50,71,66,40,52,13,18,1.4,1.2
2023-01-11T22:00:00,1728A,113.1031,36.1989,长治市,监测站,细颗粒物(PM2.5),110,103,92,83,74,79,21,67,54,62,49,18,21,1.6,1.5
2023-01-11T22:00:00,1730A,113.0886,36.2125,长治市,审计局,细颗粒物(PM2.5),125,123,95,95,82,81,26,71,58,59,46,15,17,1.4,1.3
2023-01-11T22:00:00,1731A,113.0844,36.1856,长治市,长治八中,细颗粒物(PM2.5),104,119,104,78,69,90,44,73,67,43,48,12,16,1.4,1.2
2023-01-11T22:00:00,1733A,111.5531,36.0783,临汾市,临钢医院,细颗粒物(PM2.5),207,231,171,157,104,64,10,50,42,82,56,27,26,2.2,1.8
2023-01-11T22:00:00,1734A,111.5028,36.0714,临汾市,技工学校,细颗粒物(PM2.5),185,213,155,139,106,84,16,71,56,79,57,34,28,1.9,1.2
2023-01-11T22:00:00,1736A,111.5018,36.0855,临汾市,市委,细颗粒物(PM2.5),178,208,154,134,93,84,14,69,56,87,58,25,21,1.5,1.3
2023-01-11T22:00:00,1738A,113.5758,37.8572,阳泉市,市中心,细颗粒物(PM2.5),135,126,154,103,77,32,32,22,22,52,76,22,29,1.7,1.7
2023-01-11T22:00:00,1739A,113.4894,37.8731,阳泉市,赛鱼,细颗粒物(PM2.5),109,137,143,82,85,19,18,13,13,65,74,35,26,2.0,1.6
2023-01-11T22:00:00,1740A,113.5819,37.8486,阳泉市,南庄,细颗粒物(PM2.5),104,147,162,78,77,31,28,22,22,64,77,24,31,1.8,1.9
2023-01-11T22:00:00,1742A,113.5614,37.8703,阳泉市,平坦,细颗粒物(PM2.5),114,149,159,86,87,24,24,19,19,63,79,24,29,1.9,1.8
2023-01-11T22:00:00,1743A,113.5158,37.8392,阳泉市,大阳泉,颗粒物(PM10),90,129,122,59,77,45,39,35,24,48,66,22,27,1.7,1.4
2023-01-11T22:00:00,1744A,118.9233,42.2816,赤峰市,松山一中,细颗粒物(PM2.5),74,79,83,54,51,67,67,49,49,32,48,18,28,1.0,1.6
2023-01-11T22:00:00,1745A,118.9576,42.2728,赤峰市,哈达街,细颗粒物(PM2.5),95,97,85,71,47,68,57,52,52,37,41,19,29,1.0,1.3
2023-01-11T22:00:00,1746A,118.8788,42.2554,赤峰市,天义路,颗粒物(PM10),62,73,62,41,30,76,76,70,70,25,36,16,16,0.9,1
2023-01-11T22:00:00,1748A,123.044,41.1196,鞍山市,深沟寺,细颗粒物(PM2.5),74,80,69,54,34,83,62,76,70,20,19,8,10,0.8,0.6
2023-01-11T22:00:00,1749A,123.011,41.0931,鞍山市,太阳城,颗粒物(PM10),61,72,76,38,33,86,72,76,72,14,16,12,13,0.7,0.6
2023-01-11T22:00:00,1750A,123.0485,41.1442,鞍山市,太平,细颗粒物(PM2.5),77,98,86,56,36,77,54,68,58,26,25,15,13,0.9,0.7
2023-01-11T22:00:00,1751A,122.9642,41.0971,鞍山市,铁西三道街,颗粒物(PM10),75,100,97,50,39,78,44,65,44,41,38,37,23,0.9,1.1
2023-01-11T22:00:00,1752A,122.9341,41.0833,鞍山市,铁西工业园区,颗粒物(PM10),76,102,79,54,36,78,49,70,58,37,26,14,13,1.3,1.1
2023-01-11T22:00:00,1753A,123.022,41.0821,鞍山市,明达新区,颗粒物(PM10),60,69,73,38,31,71,59,66,62,19,15,19,12,0.8,0.7
2023-01-11T22:00:00,1754A,123.1289,41.0228,鞍山市,千山,,,,,,,,,,,,,,,,
2023-01-11T22:00:00,1755A,123.7977,41.8491,抚顺市,望花区,细颗粒物(PM2.5),64,56,65,46,39,87,61,73,66,22,33,17,18,1.0,1
2023-01-11T22:00:00,1756A,123.9161,41.8822,抚顺市,顺城区,细颗粒物(PM2.5),73,80,85,53,50,82,29,73,62,56,51,5,7,0.7,1.2
2023-01-11T22:00:00,1757A,124.0436,41.8611,抚顺市,东洲区,细颗粒物(PM2.5),52,51,53,36,34,97,73,86,81,15,23,12,11,0.4,0.6
2023-01-11T22:00:00,1758A,123.9247,41.8642,抚顺市,新抚区,细颗粒物(PM2.5),97,80,95,72,56,87,35,75,62,48,44,11,10,1.0,1.1
2023-01-11T22:00:00,1759A,124.0972,41.8961,抚顺市,大伙房水库,细颗粒物(PM2.5),52,41,39,36,29,103,80,94,89,11,14,8,7,0.6,0.6
2023-01-11T22:00:00,1760A,123.7086,41.8391,抚顺市,沈抚新城,细颗粒物(PM2.5),65,73,68,47,34,98,55,80,64,30,28,16,17,0.8,0.8
2023-01-11T22:00:00,1761A,123.8275,41.3064,本溪市,大峪,细颗粒物(PM2.5),59,63,54,42,30,85,54,73,62,24,28,14,14,0.8,0.8
2023-01-11T22:00:00,1762A,123.7567,41.3325,本溪市,溪湖,细颗粒物(PM2.5),78,73,57,57,35,76,36,64,44,52,44,39,57,2.0,1.6
2023-01-11T22:00:00,1763A,123.7169,41.3094,本溪市,彩屯,细颗粒物(PM2.5),156,145,103,119,63,45,20,36,24,69,60,35,54,3.7,3.6
2023-01-11T22:00:00,1764A,123.7669,41.2864,本溪市,东明,细颗粒物(PM2.5),54,50,38,38,26,64,61,61,59,29,33,22,27,1.1,0.8
2023-01-11T22:00:00,1765A,123.7992,41.2664,本溪市,新立屯,细颗粒物(PM2.5),58,46,34,41,27,78,73,74,73,21,19,11,10,0.7,0.7
2023-01-11T22:00:00,1766A,123.8142,41.3472,本溪市,威宁,"颗粒物(PM10),细颗粒物(PM2.5)",58,66,53,41,33,76,43,63,52,26,35,9,10,0.6,0.7
2023-01-11T22:00:00,1767A,121.1115,41.0879,锦州市,南山,细颗粒物(PM2.5),138,85,86,105,69,48,21,44,31,67,71,62,34,1.4,1.5
2023-01-11T22:00:00,1768A,121.0533,40.8434,锦州市,开发区,细颗粒物(PM2.5),109,66,125,82,69,49,37,38,29,41,62,11,55,1.4,1.7
2023-01-11T22:00:00,1769A,121.1836,41.1119,锦州市,百股街道,细颗粒物(PM2.5),125,90,86,95,66,51,27,44,34,57,67,33,40,1.6,1.9
2023-01-11T22:00:00,1770A,121.1178,41.1222,锦州市,天安街道,细颗粒物(PM2.5),135,106,109,103,74,37,16,30,23,73,71,53,32,1.5,1.8
2023-01-11T22:00:00,1771A,121.1303,41.1386,锦州市,北湖公园,细颗粒物(PM2.5),129,93,100,98,66,49,26,43,33,69,73,46,30,1.6,1.7
2023-01-11T22:00:00,1772A,126.54,43.8622,吉林市,哈达湾,细颗粒物(PM2.5),70,72,47,51,30,87,71,81,76,30,22,12,13,0.8,0.8
2023-01-11T22:00:00,1773A,126.5844,43.8358,吉林市,东局子,细颗粒物(PM2.5),69,75,52,50,30,79,70,70,65,24,22,13,14,0.7,0.7
2023-01-11T22:00:00,1774A,126.5052,43.8245,吉林市,电力学院,细颗粒物(PM2.5),75,70,48,55,31,85,63,76,69,35,23,13,12,0.8,0.8
2023-01-11T22:00:00,1775A,126.6133,43.8972,吉林市,江北,细颗粒物(PM2.5),64,72,49,46,27,82,78,75,73,24,23,16,20,0.7,0.7
2023-01-11T22:00:00,1776A,126.555,43.8306,吉林市,江南公园,细颗粒物(PM2.5),69,68,47,50,33,85,65,77,68,33,25,15,16,0.8,0.8
2023-01-11T22:00:00,1778A,126.7061,43.7133,吉林市,丰满,,,,,,,,,,,,,,,,
2023-01-11T22:00:00,1779A,123.9305,47.3636,齐齐哈尔市,安居小区,细颗粒物(PM2.5),230,315,124,180,88,60,18,50,36,77,44,14,11,2.1,1.1
2023-01-11T22:00:00,1780A,123.9488,47.3386,齐齐哈尔市,中心广场,细颗粒物(PM2.5),199,242,112,149,67,55,16,44,30,70,42,28,12,1.2,0.9
2023-01-11T22:00:00,1781A,123.9483,47.3227,齐齐哈尔市,农牧车辆厂,细颗粒物(PM2.5),185,180,110,139,66,49,3,35,19,78,47,9,7,1.5,1
2023-01-11T22:00:00,1783A,123.945,47.2988,齐齐哈尔市,市环境监测站,细颗粒物(PM2.5),217,192,120,167,92,56,16,40,25,54,35,7,8,1.0,0.7
2023-01-11T22:00:00,1784A,129.61,44.561,牡丹江市,环保大楼,细颗粒物(PM2.5),125,112,90,95,67,41,16,29,22,58,49,15,12,1.5,1.1
2023-01-11T22:00:00,1785A,129.6115,44.5782,牡丹江市,文化广场,细颗粒物(PM2.5),160,161,119,122,77,19,4,12,7,62,60,13,13,2.1,1.6
2023-01-11T22:00:00,1786A,129.5904,44.5963,牡丹江市,第一医院,细颗粒物(PM2.5),134,113,101,102,76,49,10,25,16,58,57,8,9,1.7,1.5
2023-01-11T22:00:00,1787A,129.6364,44.6075,牡丹江市,机车工厂,细颗粒物(PM2.5),180,196,128,136,78,39,10,21,15,63,60,10,10,2.2,1.6
2023-01-11T22:00:00,1788A,129.6386,44.5462,牡丹江市,第一中学,细颗粒物(PM2.5),108,118,81,81,55,35,5,23,15,65,55,15,10,1.3,1
2023-01-11T22:00:00,1789A,124.81117,46.03138,大庆市,大同区,细颗粒物(PM2.5),109,130,114,82,66,48,24,39,30,34,28,12,10,1.1,0.9
2023-01-11T22:00:00,1790A,125.129,46.533,大庆市,龙凤区,细颗粒物(PM2.5),140,156,105,107,60,47,8,37,20,58,33,16,16,1.1,0.6
2023-01-11T22:00:00,1791A,124.902,46.408,大庆市,红岗区,细颗粒物(PM2.5),122,112,88,92,52,41,8,32,22,53,32,12,10,1.2,1
2023-01-11T22:00:00,1792A,125.153,46.586,大庆市,萨尔图区,细颗粒物(PM2.5),107,119,109,80,61,41,15,30,12,56,40,10,12,1.1,1.1
2023-01-11T22:00:00,1793A,124.9042,46.6215,大庆市,让胡路区,细颗粒物(PM2.5),87,109,91,64,55,56,11,44,25,70,43,9,8,2.0,1
2023-01-11T22:00:00,1794A,118.3606,31.3519,芜湖市,监测站,细颗粒物(PM2.5),79,87,70,58,41,100,54,79,72,61,56,4,4,0.4,0.4
2023-01-11T22:00:00,1795A,118.3714,31.4134,芜湖市,科创中心,细颗粒物(PM2.5),82,80,73,60,47,107,43,77,68,50,48,5,5,0.6,0.5
2023-01-11T22:00:00,1796A,118.3673,31.3131,芜湖市,四水厂,细颗粒物(PM2.5),83,78,77,61,45,110,55,89,78,34,31,6,6,0.8,0.8
2023-01-11T22:00:00,1798A,118.5092,31.6837,马鞍山市,湖东路四小,细颗粒物(PM2.5),84,68,53,62,43,99,47,75,66,53,47,8,7,0.7,0.7
2023-01-11T22:00:00,1799A,118.5024,31.6449,马鞍山市,开发区,细颗粒物(PM2.5),79,63,65,58,44,84,32,62,45,66,58,8,7,0.8,0.7
2023-01-11T22:00:00,1800A,118.5228,31.7231,马鞍山市,慈湖,细颗粒物(PM2.5),85,68,68,63,54,98,60,84,80,40,44,8,11,1.1,1.2
2023-01-11T22:00:00,1802A,118.6245,31.7241,马鞍山市,濮塘,颗粒物(PM10),64,77,58,43,32,96,72,88,86,24,31,6,6,0.6,0.6
2023-01-11T22:00:00,1803A,115.9872,29.6815,九江市,十里,细颗粒物(PM2.5),148,174,124,113,77,101,9,77,49,63,44,11,10,1.7,1.2
2023-01-11T22:00:00,1804A,115.9584,29.7046,九江市,茅山头,细颗粒物(PM2.5),162,170,117,123,79,87,9,73,55,104,56,9,11,1.5,1.2
2023-01-11T22:00:00,1805A,115.9877,29.7295,九江市,西园,细颗粒物(PM2.5),147,124,102,112,78,83,12,76,66,88,45,7,8,1.3,1
2023-01-11T22:00:00,1806A,116.0172,29.6547,九江市,五七二七厂,颗粒物(PM10),58,65,95,32,62,114,59,86,81,12,25,6,8,0.8,1.1
2023-01-11T22:00:00,1808A,115.9114,29.6038,九江市,综合工业园,细颗粒物(PM2.5),100,96,117,75,91,67,16,50,36,61,50,9,9,1.0,1.2
2023-01-11T22:00:00,1809A,116.0721,29.7535,九江市,石化总厂,细颗粒物(PM2.5),135,170,130,103,73,98,8,80,56,90,50,14,12,1.1,1
2023-01-11T22:00:00,1810A,115.9773,29.5698,九江市,庐山气象台,颗粒物(PM10),52,54,18,6,11,112,15,106,42,2,3,5,5,0.7,0.5
2023-01-11T22:00:00,1812A,112.3931,34.6516,洛阳市,市委党校,细颗粒物(PM2.5),159,191,142,121,82,70,21,59,49,46,49,7,10,1.0,0.9
2023-01-11T22:00:00,1814A,112.4657,34.6871,洛阳市,豫西宾馆,细颗粒物(PM2.5),168,198,134,127,84,78,22,64,49,47,51,8,10,1.0,0.9
2023-01-11T22:00:00,1815A,112.494,34.6886,洛阳市,河南林校,细颗粒物(PM2.5),160,180,130,122,84,79,17,62,44,50,50,3,6,0.7,0.7
2023-01-11T22:00:00,1816A,112.3844,34.623,洛阳市,开发区管委会,细颗粒物(PM2.5),163,180,126,124,87,80,26,70,60,53,47,5,7,0.8,0.7
2023-01-11T22:00:00,1817A,112.4267,34.6258,洛阳市,市委新办公区,细颗粒物(PM2.5),176,186,128,133,87,77,14,64,51,60,46,5,7,0.8,0.8
2023-01-11T22:00:00,1818A,114.4839,36.0621,安阳市,棉研所,,,,,,,,,,,,,,,,
2023-01-11T22:00:00,1819A,114.3551,36.1017,安阳市,红庙街,细颗粒物(PM2.5),193,153,121,145,98,70,24,58,50,60,52,5,7,1.1,0.9
2023-01-11T22:00:00,1820A,114.361,36.0681,安阳市,银杏小区,细颗粒物(PM2.5),196,158,120,147,101,68,22,57,47,50,51,6,8,1.2,0.9
2023-01-11T22:00:00,1824A,114.3389,34.7781,开封市,肿瘤医院,细颗粒物(PM2.5),208,236,167,158,114,53,11,50,36,50,44,6,6,1.1,0.8
2023-01-11T22:00:00,1826A,114.2885,34.7965,开封市,世纪星幼儿园,细颗粒物(PM2.5),212,206,149,162,119,50,5,47,36,58,39,6,6,1.3,0.9
2023-01-11T22:00:00,1828A,113.227,35.2125,焦作市,市环保局,细颗粒物(PM2.5),168,199,125,127,80,66,47,58,50,30,34,4,9,0.8,0.8
2023-01-11T22:00:00,1830A,113.1992,35.2590,焦作市,影视城,,,,,,,,,,,,,,,,
2023-01-11T22:00:00,1832A,113.3257,33.742,平顶山市,新华旅馆,细颗粒物(PM2.5),199,257,192,149,106,77,8,77,39,68,30,8,20,1.0,0.8
2023-01-11T22:00:00,1833A,113.2919,33.737,平顶山市,规划设计院,细颗粒物(PM2.5),213,231,161,163,105,80,13,80,41,58,25,3,5,1.2,0.7
2023-01-11T22:00:00,1834A,113.182,33.774,平顶山市,平顶山工学院,细颗粒物(PM2.5),188,232,174,141,106,85,25,70,42,51,36,16,7,1.1,1
2023-01-11T22:00:00,1835A,111.1922,34.7752,三门峡市,市政府,细颗粒物(PM2.5),200,163,100,150,87,84,61,75,74,29,25,7,13,1.0,0.7
2023-01-11T22:00:00,1836A,111.1587,34.7942,三门峡市,开发区,细颗粒物(PM2.5),175,197,132,132,78,73,51,65,62,29,24,8,12,0.9,0.8
2023-01-11T22:00:00,1838A,111.143,34.7955,三门峡市,风景区,,,,,,,,,,,,,,,,
2023-01-11T22:00:00,1840A,111.2992,30.6981,宜昌市,白龙岗,细颗粒物(PM2.5),323,305,246,273,207,97,35,69,63,64,52,6,6,1.9,1.5
2023-01-11T22:00:00,1841A,111.3549,30.6465,宜昌市,伍家岗,细颗粒物(PM2.5),301,291,244,251,207,83,7,51,40,96,68,4,4,2.1,1.6
2023-01-11T22:00:00,1842A,111.2628,30.6961,宜昌市,点军区,细颗粒物(PM2.5),355,346,256,305,213,81,22,66,49,62,48,5,6,2.0,1.7
2023-01-11T22:00:00,1843A,111.3275,30.7819,宜昌市,夷陵区,细颗粒物(PM2.5),326,281,200,276,196,104,13,78,55,85,51,7,6,2.2,1.4
2023-01-11T22:00:00,1844A,112.2494,30.3197,荆州市,市图书馆,细颗粒物(PM2.5),305,260,185,255,176,120,53,88,81,65,43,10,12,1.6,1.3
2023-01-11T22:00:00,1845A,112.2008,30.3544,荆州市,市委党校,,,,183,,164,106,46,79,73,69,45,16,13,1.6,1.2
2023-01-11T22:00:00,1847A,113.1094,29.3578,岳阳市,南湖风景区,细颗粒物(PM2.5),268,268,213,218,178,145,18,92,78,120,71,20,13,2.4,1.8
2023-01-11T22:00:00,1848A,113.1493,29.4251,岳阳市,城陵矶,细颗粒物(PM2.5),254,248,196,204,149,127,10,78,62,118,81,24,8,2.2,1.8
2023-01-11T22:00:00,1849A,113.1497,29.3575,岳阳市,开发区,细颗粒物(PM2.5),356,295,235,306,220,143,6,83,68,102,61,5,3,2.4,2
2023-01-11T22:00:00,1850A,113.2621,29.4758,岳阳市,云溪区,细颗粒物(PM2.5),295,304,219,245,167,129,18,86,74,65,53,8,8,2.6,2
2023-01-11T22:00:00,1851A,112.9943,29.4402,岳阳市,君山区,细颗粒物(PM2.5),315,307,231,265,197,129,13,97,89,77,43,8,6,1.8,1.5
2023-01-11T22:00:00,1852A,113.2117,29.355,岳阳市,金凤水库,细颗粒物(PM2.5),348,358,220,298,173,137,63,116,109,45,44,6,7,1.7,1.9
2023-01-11T22:00:00,1854A,111.6975,28.9703,常德市,市二中,细颗粒物(PM2.5),334,351,316,284,274,118,75,100,95,25,31,6,6,1.5,1.6
2023-01-11T22:00:00,1857A,111.7158,29.1456,常德市,白鹤山,细颗粒物(PM2.5),265,261,270,215,214,128,116,116,116,18,23,5,6,1.3,1.3
2023-01-11T22:00:00,1858A,110.5319,29.1217,张家界市,永定新区,细颗粒物(PM2.5),246,238,224,196,188,123,94,96,94,30,36,6,5,1.2,1.3
2023-01-11T22:00:00,1859A,110.4697,29.1242,张家界市,电业局,细颗粒物(PM2.5),245,230,209,195,178,96,16,75,47,77,50,5,5,1.7,1
2023-01-11T22:00:00,1860A,110.5594,29.3547,张家界市,未央路,细颗粒物(PM2.5),202,195,200,152,151,131,56,110,95,20,16,3,3,1.4,1.2
2023-01-11T22:00:00,1861A,110.4417,29.315,张家界市,袁家界,细颗粒物(PM2.5),176,166,172,133,137,150,138,144,138,22,21,10,10,1.3,1.2
2023-01-11T22:00:00,1862A,110.4144,25.3167,桂林市,电子科大尧山校区,细颗粒物(PM2.5),90,76,84,67,67,110,57,102,73,12,13,4,5,1.1,1
2023-01-11T22:00:00,1863A,110.2819,25.2697,桂林市,监测站,细颗粒物(PM2.5),196,164,110,147,102,101,45,100,73,33,18,3,3,1.4,1
2023-01-11T22:00:00,1864A,110.3089,25.2708,桂林市,龙隐路小学,细颗粒物(PM2.5),163,126,96,124,96,103,62,96,78,22,18,4,5,0.9,0.8
2023-01-11T22:00:00,1865A,110.2869,25.2178,桂林市,八中,细颗粒物(PM2.5),193,128,91,145,103,95,49,90,70,,20,4,4,1.1,0.8
2023-01-11T22:00:00,1866A,109.2262,21.588,北海市,牛尾岭水库,,11,11,5,6,3,31,30,30,30,13,9,5,5,0.6,0.5
2023-01-11T22:00:00,1867A,109.1436,21.4086,北海市,海滩公园,,20,16,9,10,5,68,64,50,50,7,9,3,3,0.6,0.7
2023-01-11T22:00:00,1868A,109.0981,21.4661,北海市,新市环保局,,19,11,9,9,8,60,60,43,43,13,16,2,2,0.6,0.7
2023-01-11T22:00:00,1869A,109.1778,21.5233,北海市,北海工业园,,17,15,8,7,8,54,54,39,39,14,14,3,3,0.5,0.5
2023-01-11T22:00:00,1870A,109.4856,24.3895,柳州市,柳东小学,细颗粒物(PM2.5),87,52,68,64,73,82,41,72,53,14,20,4,5,1.0,0.9
2023-01-11T22:00:00,1871A,109.4157,24.3277,柳州市,环保监测站,细颗粒物(PM2.5),70,61,60,51,50,76,24,70,51,31,17,4,5,0.9,1.1
2023-01-11T22:00:00,1872A,109.389,24.341,柳州市,河西水厂,细颗粒物(PM2.5),79,66,62,58,53,78,16,74,48,29,15,8,8,1.3,1.1
2023-01-11T22:00:00,1873A,109.4311,24.2921,柳州市,市四中,细颗粒物(PM2.5),54,49,61,38,45,66,30,62,48,26,25,6,8,0.9,0.8
2023-01-11T22:00:00,1874A,109.4006,24.3631,柳州市,市九中,细颗粒物(PM2.5),67,55,64,48,56,79,22,72,50,36,23,7,9,1.0,0.8
2023-01-11T22:00:00,1875A,109.4958,24.3134,柳州市,古亭山,细颗粒物(PM2.5),58,39,56,41,47,70,12,63,40,39,23,8,9,0.9,0.8
2023-01-11T22:00:00,1876A,109.5078,18.2489,三亚市,河东子站,,42,42,22,16,10,80,53,68,60,6,6,3,19,0.4,1
2023-01-11T22:00:00,1877A,109.4964,18.2681,三亚市,河西子站,,27,27,18,10,8,66,49,61,54,10,8,2,2,0.5,0.4
2023-01-11T22:00:00,1878A,104.7778,31.4741,绵阳市,富乐山,细颗粒物(PM2.5),199,172,163,149,141,53,3,35,28,67,43,4,3,1.1,0.9
2023-01-11T22:00:00,1879A,104.7563,31.4535,绵阳市,市人大,细颗粒物(PM2.5),211,194,176,161,147,30,1,16,9,80,58,1,2,1.3,1.1
2023-01-11T22:00:00,1880A,104.6697,31.4668,绵阳市,高新区自来水公司,细颗粒物(PM2.5),156,232,200,119,150,44,3,20,15,64,50,7,5,1.2,1.1
2023-01-11T22:00:00,1881A,104.7287,31.5075,绵阳市,三水厂,细颗粒物(PM2.5),228,226,197,178,159,36,3,22,16,67,52,6,4,1.2,1
2023-01-11T22:00:00,1882A,104.563,28.793,宜宾市,石马中学,细颗粒物(PM2.5),173,169,163,131,127,67,48,60,58,27,25,5,6,1.1,0.9
2023-01-11T22:00:00,1883A,104.6201,28.7728,宜宾市,市委,细颗粒物(PM2.5),165,182,178,125,132,62,38,57,55,41,39,8,9,0.8,0.9
2023-01-11T22:00:00,1884A,104.6055,28.793,宜宾市,宜宾四中,细颗粒物(PM2.5),193,186,178,145,145,69,44,58,51,39,38,6,7,0.8,0.8
2023-01-11T22:00:00,1885A,104.639,28.7562,宜宾市,市政府,细颗粒物(PM2.5),169,166,172,128,135,63,60,61,61,26,35,8,8,0.8,0.9
2023-01-11T22:00:00,1886A,104.5742,28.7199,宜宾市,黄金嘴,细颗粒物(PM2.5),152,158,167,116,127,73,66,67,65,33,39,10,9,0.9,1
2023-01-11T22:00:00,1888A,101.6891,26.571,攀枝花市,弄弄坪,颗粒物(PM10),60,70,90,42,55,107,48,90,84,33,44,9,24,1.0,1.7
2023-01-11T22:00:00,1889A,101.5769,26.5928,攀枝花市,河门口,颗粒物(PM10),60,70,71,38,44,120,43,97,87,34,32,30,22,1.3,1.6
2023-01-11T22:00:00,1890A,101.7169,26.585,攀枝花市,炳草岗,颗粒物(PM10),77,104,77,49,47,106,3,74,57,96,57,16,18,2.5,1.7
2023-01-11T22:00:00,1891A,101.7369,26.5008,攀枝花市,仁和,细颗粒物(PM2.5),78,91,70,57,44,116,28,90,77,39,29,12,24,1.5,1.8
2023-01-11T22:00:00,1893A,105.4324,28.9634,泸州市,九狮山,细颗粒物(PM2.5),209,181,149,159,117,40,6,31,27,34,21,9,8,0.8,0.6
2023-01-11T22:00:00,1894A,105.4427,28.9063,泸州市,小市上码头,细颗粒物(PM2.5),202,227,189,152,143,47,11,36,32,48,38,8,8,1.2,1.1
2023-01-11T22:00:00,1895A,105.4241,28.8573,泸州市,兰田宪桥,细颗粒物(PM2.5),239,236,195,189,156,38,18,30,29,39,31,7,8,1.1,1
2023-01-11T22:00:00,1896A,105.4379,28.8833,泸州市,市环监站,细颗粒物(PM2.5),223,223,185,173,137,48,18,32,28,46,37,5,5,1.0,0.9
2023-01-11T22:00:00,1901A,104.4239,31.1208,德阳市,东山公园,细颗粒物(PM2.5),221,218,181,171,152,51,7,30,26,80,53,3,3,1.3,1.2
2023-01-11T22:00:00,1902A,104.3826,31.1317,德阳市,西小区,细颗粒物(PM2.5),226,203,174,176,153,26,7,21,19,65,50,3,3,1.2,1
2023-01-11T22:00:00,1904A,104.3553,31.1091,德阳市,耐火材料厂,细颗粒物(PM2.5),247,301,228,197,163,41,4,31,21,62,45,5,4,1.1,1.1
2023-01-11T22:00:00,1905A,106.056,30.8064,南充市,西山风景区,,,,,,,,,,,,,,,,
2023-01-11T22:00:00,1906A,106.0789,30.8023,南充市,南充市委,细颗粒物(PM2.5),156,152,171,119,143,15,10,10,10,49,44,6,5,1.1,1.2
2023-01-11T22:00:00,1907A,106.1031,30.8217,南充市,南充炼油厂,细颗粒物(PM2.5),155,149,186,118,145,24,24,16,16,37,39,7,7,0.8,1
2023-01-11T22:00:00,1908A,106.1064,30.7856,南充市,高坪区监测站,细颗粒物(PM2.5),165,163,194,125,149,20,12,14,14,61,49,8,9,1.1,1.2
2023-01-11T22:00:00,1909A,106.0642,30.7636,南充市,嘉陵区环保局,细颗粒物(PM2.5),144,149,176,110,134,26,26,15,15,38,48,5,6,1.0,1.2
2023-01-11T22:00:00,1910A,106.1087,30.8388,南充市,市环境监测站,细颗粒物(PM2.5),142,153,189,108,141,28,17,18,18,38,35,8,8,0.8,0.9
2023-01-11T22:00:00,1911A,106.9222,27.6869,遵义市,丁字口,细颗粒物(PM2.5),100,83,78,75,60,110,20,106,79,68,40,62,37,1.6,1.1
2023-01-11T22:00:00,1912A,106.9242,27.7019,遵义市,凤凰山,颗粒物(PM10),59,68,76,36,47,131,97,124,102,16,17,13,10,0.7,0.9
2023-01-11T22:00:00,1913A,106.8906,27.6486,遵义市,忠庄,细颗粒物(PM2.5),93,105,77,69,55,113,90,104,99,18,18,4,7,0.8,0.6
2023-01-11T22:00:00,1914A,106.9231,27.6506,遵义市,舟水桥,细颗粒物(PM2.5),115,132,98,87,65,114,33,111,93,52,31,96,38,1.1,0.9
2023-01-11T22:00:00,1915A,106.9178,27.72,遵义市,干田坝,细颗粒物(PM2.5),100,101,73,75,54,105,30,101,82,52,35,20,16,1.1,1
2023-01-11T22:00:00,1916A,103.7897,25.5035,曲靖市,环境监测站,,22,22,29,15,20,110,70,99,91,11,13,4,4,0.6,0.7
2023-01-11T22:00:00,1917A,103.8,25.5364,曲靖市,烟厂办公区,,32,32,38,12,21,108,62,96,90,19,17,3,4,0.3,0.5
2023-01-11T22:00:00,1918A,108.7197,34.3956,咸阳市,气象站,细颗粒物(PM2.5),264,232,191,214,140,55,6,55,34,82,69,12,14,1.7,1.4
2023-01-11T22:00:00,1919A,108.673,34.3155,咸阳市,实验中学,细颗粒物(PM2.5),239,237,212,189,168,72,5,51,40,73,58,8,9,1.4,1.3
2023-01-11T22:00:00,1920A,108.7233,34.3617,咸阳市,师范学院,细颗粒物(PM2.5),257,270,180,207,140,67,13,55,42,83,61,9,11,1.6,1.3
2023-01-11T22:00:00,1922A,109.0656,35.0994,铜川市,党校,颗粒物(PM10),109,167,118,77,54,90,10,81,63,74,29,14,14,1.4,1.2
2023-01-11T22:00:00,1923A,109.0697,35.0697,铜川市,王益区政府,细颗粒物(PM2.5),163,158,129,124,100,69,9,49,35,65,54,8,9,1.5,1.3
2023-01-11T22:00:00,1924A,108.9344,34.9058,铜川市,新区管委会,细颗粒物(PM2.5),214,218,146,164,118,62,8,62,37,80,41,44,22,1.8,1.2
2023-01-11T22:00:00,1926A,109.4131,36.6275,延安市,枣园,细颗粒物(PM2.5),176,181,131,133,109,90,5,57,43,81,58,7,6,1.2,1.1
2023-01-11T22:00:00,1927A,109.4761,36.6028,延安市,延大医附院,细颗粒物(PM2.5),226,197,146,176,107,80,11,46,41,97,69,18,10,2.5,1.7
2023-01-11T22:00:00,1929A,109.5056,36.6106,延安市,百米大道,细颗粒物(PM2.5),169,183,152,128,122,83,32,55,47,62,73,12,13,1.5,1.9
2023-01-11T22:00:00,1930A,107.185,34.3063,宝鸡市,庙沟村,细颗粒物(PM2.5),189,186,164,142,130,62,30,48,42,50,47,10,11,1.5,1.5
2023-01-11T22:00:00,1931A,107.0708,34.3017,宝鸡市,竹园沟,细颗粒物(PM2.5),186,161,163,140,138,85,45,67,65,39,43,9,11,1.5,1.5
2023-01-11T22:00:00,1932A,107.1906,34.3672,宝鸡市,三陆医院,细颗粒物(PM2.5),272,260,202,222,161,84,12,58,47,79,64,14,18,1.6,1.4
2023-01-11T22:00:00,1933A,107.1431,34.3547,宝鸡市,监测站,细颗粒物(PM2.5),229,221,178,179,146,84,15,57,51,71,62,7,10,1.4,1.4
2023-01-11T22:00:00,1934A,107.1186,34.3739,宝鸡市,技工学校,细颗粒物(PM2.5),238,200,171,188,153,86,31,66,63,66,53,10,18,1.3,1.3
2023-01-11T22:00:00,1935A,107.3906,34.3528,宝鸡市,陈仓区环保局家属楼,细颗粒物(PM2.5),260,,212,210,168,79,14,44,40,82,70,13,35,1.9,2
2023-01-11T22:00:00,1936A,107.2058,34.3497,宝鸡市,文理学院,细颗粒物(PM2.5),237,250,194,187,144,85,6,64,44,79,61,11,14,1.6,1.5
2023-01-11T22:00:00,1937A,107.2386,34.3622,宝鸡市,三迪小学,细颗粒物(PM2.5),243,260,208,193,151,76,12,60,46,106,67,12,14,1.6,1.4
2023-01-11T22:00:00,1938A,109.5293,34.5101,渭南市,农科所,细颗粒物(PM2.5),168,173,154,127,104,87,24,64,52,50,47,10,11,1.1,1.1
2023-01-11T22:00:00,1939A,109.4974,34.4877,渭南市,日报社,细颗粒物(PM2.5),188,175,156,141,110,70,4,55,40,80,58,13,13,1.7,1.2
2023-01-11T22:00:00,1940A,109.4636,34.493,渭南市,体育馆,细颗粒物(PM2.5),180,175,145,136,107,69,9,57,38,70,56,11,12,1.1,1.2
2023-01-11T22:00:00,1941A,109.4259,34.5023,渭南市,高新一小,细颗粒物(PM2.5),186,167,152,140,118,81,3,65,46,87,51,12,12,1.3,1.2
2023-01-11T22:00:00,1943A,102.1725,38.5339,金昌市,新川苑,颗粒物(PM10),137,224,230,40,47,65,40,53,50,36,32,34,28,0.8,1
2023-01-11T22:00:00,1944A,102.1692,38.5167,金昌市,天庆家园,,,,195,,54,38,,36,,,39,,33,,1.2
2023-01-11T22:00:00,1945A,98.2908,39.7711,嘉峪关市,气象局,颗粒物(PM10),117,183,182,53,52,75,46,55,50,40,47,11,23,0.6,0.7
2023-01-11T22:00:00,1947A,106.3394,38.817,石嘴山市,沙湖旅游区,细颗粒物(PM2.5),193,319,288,145,156,72,3,52,40,79,60,35,34,2.0,2.3
2023-01-11T22:00:00,1948A,106.3668,39.0145,石嘴山市,大武口朝阳西街,颗粒物(PM10),166,281,211,118,111,71,6,66,24,114,70,46,82,1.6,1.6
2023-01-11T22:00:00,1949A,106.7704,39.2282,石嘴山市,惠农南大街,颗粒物(PM10),182,314,218,132,110,84,4,38,21,102,68,75,52,3.3,2.3
2023-01-11T22:00:00,1950A,106.7099,39.1325,石嘴山市,红果子镇惠新街,颗粒物(PM10),232,372,240,148,108,80,14,53,29,97,56,96,45,3.3,1.8
2023-01-11T22:00:00,1951A,84.895,45.6094,克拉玛依市,长征新村,,23,13,53,16,33,68,58,57,56,2,18,16,7,0.2,0.5
2023-01-11T22:00:00,1952A,84.8988,45.5893,克拉玛依市,南林小区,,32,26,56,22,43,68,60,59,59,5,17,12,3,0.1,0.3
2023-01-11T22:00:00,1954A,84.905,44.3396,克拉玛依市,独山子区,,19,19,25,9,14,76,59,74,60,12,12,7,7,0.4,0.4
2023-01-11T22:00:00,1955A,85.6979,46.098,克拉玛依市,乌尔禾区商贸楼,颗粒物(PM10),88,126,99,15,27,74,71,72,70,13,21,3,4,0.3,0.6
2023-01-11T22:00:00,1956A,86.1472,41.7538,巴音郭楞州,孔雀公园,颗粒物(PM10),73,96,177,28,58,82,78,75,74,13,54,3,4,0.5,1
2023-01-11T22:00:00,1957A,86.1972,41.7166,巴音郭楞州,棉纺厂,颗粒物(PM10),100,150,228,38,55,81,67,74,73,29,55,6,6,0.5,0.7
2023-01-11T22:00:00,1958A,86.2357,41.7173,巴音郭楞州,经济开发区,颗粒物(PM10),84,117,161,27,43,82,74,78,78,21,38,6,6,0.8,0.9
2023-01-11T22:00:00,1961A,117.532,36.6868,济南市,东山小学,颗粒物(PM10),70,90,82,49,47,93,62,78,71,33,47,7,10,0.7,0.8
2023-01-11T22:00:00,1966A,120.0405,35.8735,青岛市,黄岛区4号,,28,14,24,7,13,88,88,81,81,6,27,5,6,0.5,0.6
2023-01-11T22:00:00,1982A,122.0693,37.2174,威海市,文登开发区,,24,24,32,12,22,79,68,75,74,17,25,4,4,0.3,0.5
2023-01-11T22:00:00,2031A,113.1817,27.9958,株洲市,云田中学,细颗粒物(PM2.5),118,112,189,89,160,134,73,112,98,29,39,7,5,1.3,1.5
2023-01-11T22:00:00,2054A,114.1099,32.1059,信阳市,平桥分局,细颗粒物(PM2.5),209,202,166,159,125,94,25,76,66,56,29,9,8,1.5,1.2
2023-01-11T22:00:00,2064A,113.9956,32.1271,信阳市,南湾水厂,细颗粒物(PM2.5),211,213,162,161,121,96,38,75,66,44,25,7,7,1.2,1.1
2023-01-11T22:00:00,2065A,114.0775,32.1195,信阳市,市酿酒公司,细颗粒物(PM2.5),213,203,156,163,128,96,17,76,63,65,29,8,8,1.6,1.2
2023-01-11T22:00:00,2066A,114.0609,32.1399,信阳市,审计局,细颗粒物(PM2.5),233,231,169,183,132,100,5,77,61,67,29,10,10,1.5,1
2023-01-11T22:00:00,2067A,114.6613,33.6128,周口市,市环境监测站,细颗粒物(PM2.5),230,242,166,180,123,84,23,70,56,63,39,8,6,1.5,1.1
2023-01-11T22:00:00,2068A,114.6758,33.6347,周口市,周口师范,细颗粒物(PM2.5),243,226,160,193,137,97,7,78,61,81,44,7,7,1.7,1.3
2023-01-11T22:00:00,2069A,114.6546,33.5979,周口市,市运管处,细颗粒物(PM2.5),235,216,156,185,131,93,39,77,70,68,47,9,6,1.9,1.6
2023-01-11T22:00:00,2070A,114.6369,33.6406,周口市,川汇区环保局,细颗粒物(PM2.5),247,250,153,197,126,88,5,70,53,80,46,6,5,1.5,1.2
2023-01-11T22:00:00,2075A,117.6336,24.4674,漳州市,九湖,,,,,,,,,,,,,,,,
2023-01-11T22:00:00,2160A,112.85,35.5051,晋城市,自来水公司,细颗粒物(PM2.5),132,188,111,100,74,101,39,85,78,38,36,11,16,1.4,1.3
2023-01-11T22:00:00,2161A,112.8318,35.4936,晋城市,白云商贸,细颗粒物(PM2.5),122,162,101,92,59,90,37,80,74,49,35,6,10,1.3,1.1
2023-01-11T22:00:00,2162A,112.8508,35.4887,晋城市,市环保局,细颗粒物(PM2.5),134,190,119,102,72,98,41,86,76,40,41,11,15,1.1,1.1
2023-01-11T22:00:00,2163A,112.8676,35.4897,晋城市,技术学院,细颗粒物(PM2.5),138,170,111,105,74,98,43,80,74,30,34,5,10,1.0,1
2023-01-11T22:00:00,2165A,112.8453,35.546,晋城市,白马寺 ,,,,,,,,,,,,,,,,
2023-01-11T22:00:00,2166A,112.4397,39.3522,朔州市,平朔,细颗粒物(PM2.5),227,339,264,177,144,33,9,21,19,82,80,43,46,1.8,1.6
2023-01-11T22:00:00,2167A,112.4575,39.3617,朔州市,朔唯,细颗粒物(PM2.5),229,305,289,179,147,26,4,19,13,84,82,39,48,1.6,1.4
2023-01-11T22:00:00,2168A,112.4258,39.3197,朔州市,区政府,颗粒物(PM10),183,316,243,,146,39,3,22,20,84,74,46,44,1.7,1.5
2023-01-11T22:00:00,2169A,112.4072,39.3278,朔州市,市环保局,细颗粒物(PM2.5),277,338,245,227,152,44,5,21,19,69,71,30,44,1.9,1.8
2023-01-11T22:00:00,2170A,112.4272,39.3681,朔州市,市二中,颗粒物(PM10),252,386,299,157,147,27,4,17,14,77,76,32,40,1.9,1.7
2023-01-11T22:00:00,2171A,112.7532,37.6945,晋中市,锦纶小区,细颗粒物(PM2.5),135,177,166,103,105,47,4,39,31,94,70,26,27,1.2,1.1
2023-01-11T22:00:00,2173A,112.7249,37.7067,晋中市,南都小区,细颗粒物(PM2.5),118,166,165,89,86,49,6,42,29,94,70,30,28,1.3,1.2
2023-01-11T22:00:00,2174A,112.6991,37.6982,晋中市,榆次区政府,颗粒物(PM10),114,177,166,77,83,59,3,40,27,94,70,28,31,1.0,1
2023-01-11T22:00:00,2175A,110.9956,35.0147,运城市,运城中学,细颗粒物(PM2.5),113,121,102,85,64,78,76,75,75,23,25,9,11,0.7,0.9
2023-01-11T22:00:00,2178A,110.9686,35.0303,运城市,地区技校,细颗粒物(PM2.5),134,142,107,102,69,80,64,67,62,23,27,9,9,0.8,1
2023-01-11T22:00:00,2179A,111.0414,35.1147,运城市,空港新区,细颗粒物(PM2.5),140,151,111,107,72,94,61,78,66,30,31,11,11,0.8,1.1
2023-01-11T22:00:00,2181A,112.7383,38.4519,忻州市,开发区,细颗粒物(PM2.5),198,213,186,148,127,14,6,10,8,68,58,28,25,1.5,1.5
2023-01-11T22:00:00,2182A,112.7003,38.4928,忻州市,会展中心,细颗粒物(PM2.5),196,213,177,147,125,25,12,20,16,81,59,28,18,1.7,1.5
2023-01-11T22:00:00,2183A,111.1406,37.5211,吕梁市,环保局,颗粒物(PM10),141,232,173,96,80,60,1,39,27,87,77,24,25,1.5,1.5
2023-01-11T22:00:00,2185A,111.1297,37.5136,吕梁市,自来水公司,颗粒物(PM10),154,257,198,86,82,68,2,46,32,81,68,24,25,1.5,1.5
2023-01-11T22:00:00,2187A,106.8174,39.6973,乌海市,市林业局,细颗粒物(PM2.5),128,156,159,97,72,70,24,56,41,68,50,34,25,1.6,1.4
2023-01-11T22:00:00,2188A,106.7907,39.6667,乌海市,中海勃湾学校,细颗粒物(PM2.5),123,155,160,93,72,75,52,61,59,41,43,24,23,1.1,1.1
2023-01-11T22:00:00,2191A,122.2532,43.6801,通辽市,艺术职业学校,颗粒物(PM10),113,176,119,79,57,40,21,35,27,60,51,43,40,1.0,0.4
2023-01-11T22:00:00,2192A,119.7594,49.2261,呼伦贝尔市,区环保局,细颗粒物(PM2.5),64,63,33,46,21,63,26,52,36,33,27,5,5,0.5,0.6
2023-01-11T22:00:00,2195A,107.4212,40.761,巴彦淖尔市,附二中,细颗粒物(PM2.5),201,288,198,151,91,58,9,42,32,74,52,30,19,1.8,1.4
2023-01-11T22:00:00,2196A,107.37,40.7372,巴彦淖尔市,市环保大楼,细颗粒物(PM2.5),173,224,164,131,99,61,10,45,32,77,56,18,14,2.2,1.4
2023-01-11T22:00:00,2197A,113.1306,40.9923,乌兰察布市,集宁新区,细颗粒物(PM2.5),108,135,131,81,74,33,4,19,14,73,62,20,40,1.2,1.6
2023-01-11T22:00:00,2200A,122.0392,46.0656,兴安盟,胜华新制药厂,细颗粒物(PM2.5),144,132,60,110,40,70,6,52,26,50,34,8,8,1.6,0.8
2023-01-11T22:00:00,2201A,121.9504,46.0741,兴安盟,科右前旗环保局,细颗粒物(PM2.5),123,120,61,93,42,70,7,46,26,44,31,6,5,1.6,1
2023-01-11T22:00:00,2202A,116.1042,43.9317,锡林郭勒盟,市环保监测站,细颗粒物(PM2.5),67,63,67,48,39,93,26,87,71,70,25,7,9,0.8,0.7
2023-01-11T22:00:00,2203A,116.0781,43.9311,锡林郭勒盟,市政府,细颗粒物(PM2.5),75,75,56,55,37,93,45,84,73,54,29,9,11,0.9,0.7
2023-01-11T22:00:00,2204A,105.6467,38.8363,阿拉善盟,西城区西花园,颗粒物(PM10),81,111,181,49,57,88,76,80,72,23,24,8,10,0.7,0.8
2023-01-11T22:00:00,2205A,105.6985,38.8411,阿拉善盟,蒙二幼,细颗粒物(PM2.5),92,120,192,68,76,91,68,83,72,29,22,16,15,0.9,0.6
2023-01-11T22:00:00,2206A,105.724,38.8516,阿拉善盟,环保局新楼,细颗粒物(PM2.5),70,84,138,51,66,93,92,85,85,9,15,6,12,0.6,0.6
2023-01-11T22:00:00,2207A,121.6094,41.998,阜新市,工业园区,细颗粒物(PM2.5),130,147,186,99,90,44,11,33,24,60,46,25,24,1.5,2
2023-01-11T22:00:00,2208A,121.6697,42.0279,阜新市,长青街,细颗粒物(PM2.5),123,158,134,93,70,42,18,32,25,67,62,26,25,1.6,1.7
2023-01-11T22:00:00,2209A,121.6673,42.0705,阜新市,农业园区,细颗粒物(PM2.5),134,151,138,102,79,52,22,40,32,57,54,32,36,1.7,1.6
2023-01-11T22:00:00,2210A,121.6717,42.0224,阜新市,东苑,细颗粒物(PM2.5),124,157,149,94,79,50,,35,27,56,56,31,41,1.6,1.7
2023-01-11T22:00:00,2211A,121.6506,42.0498,阜新市,玉龙新城,细颗粒物(PM2.5),118,127,133,89,75,50,,39,32,52,48,26,22,,1.5
2023-01-11T22:00:00,2212A,123.2,41.1953,辽阳市,宏伟区,细颗粒物(PM2.5),54,51,47,38,25,79,64,71,66,17,16,10,10,0.8,0.7
2023-01-11T22:00:00,2213A,123.1683,41.2495,辽阳市,新华园,细颗粒物(PM2.5),77,51,62,56,40,72,56,64,59,16,19,9,13,0.7,0.8
2023-01-11T22:00:00,2214A,123.2354,41.2639,辽阳市,滨河路,细颗粒物(PM2.5),78,44,39,57,36,76,62,68,64,21,19,6,9,0.5,0.5
2023-01-11T22:00:00,2215A,123.149,41.2991,辽阳市,铁西工业园,细颗粒物(PM2.5),82,56,63,60,42,74,59,65,60,21,25,10,11,0.7,0.7
2023-01-11T22:00:00,2216A,123.8139,42.3022,铁岭市,汇工街西,细颗粒物(PM2.5),72,65,69,52,40,66,53,63,59,26,30,25,22,1.1,0.9
2023-01-11T22:00:00,2217A,123.8649,42.2923,铁岭市,水上乐园,细颗粒物(PM2.5),64,59,66,46,37,72,47,66,56,38,35,16,18,0.7,0.6
2023-01-11T22:00:00,2218A,123.8486,42.2867,铁岭市,银州路东段,细颗粒物(PM2.5),65,73,84,47,37,73,57,70,65,36,34,15,14,1.0,0.9
2023-01-11T22:00:00,2219A,123.7153,42.2217,铁岭市,金沙江路北,细颗粒物(PM2.5),74,71,83,54,48,66,44,61,52,38,38,17,20,1.0,1
2023-01-11T22:00:00,2220A,120.4318,41.5881,朝阳市,西梁,细颗粒物(PM2.5),102,106,92,76,47,69,44,65,60,42,38,22,19,1.1,1.1
2023-01-11T22:00:00,2221A,120.4521,41.5646,朝阳市,河畔小区,细颗粒物(PM2.5),83,94,84,61,46,61,45,50,48,34,34,15,14,1.1,1.1
2023-01-11T22:00:00,2222A,120.4176,41.5648,朝阳市,八里堡,细颗粒物(PM2.5),118,110,90,89,50,88,37,60,55,48,42,16,18,1.0,1.1
2023-01-11T22:00:00,2223A,120.3806,41.5969,朝阳市,农业园区,细颗粒物(PM2.5),79,83,73,58,44,71,62,68,65,27,26,12,14,1.0,1.1
2023-01-11T22:00:00,2225A,124.4002,43.1713,四平市,一商场,细颗粒物(PM2.5),84,97,69,62,36,62,51,57,50,36,36,14,13,0.8,0.7
2023-01-11T22:00:00,2226A,124.388,43.193,四平市,境园,颗粒物(PM10),76,102,69,53,31,64,51,59,52,31,27,14,12,0.7,0.6
2023-01-11T22:00:00,2227A,125.1358,42.8845,辽源市,环保局,细颗粒物(PM2.5),84,78,51,62,39,83,45,73,63,48,40,20,14,1.0,0.9
2023-01-11T22:00:00,2229A,125.9358,41.7173,通化市,光明,细颗粒物(PM2.5),69,82,79,50,53,79,10,65,48,64,50,18,30,1.4,1.4
2023-01-11T22:00:00,2230A,125.9446,41.7325,通化市,铁路,细颗粒物(PM2.5),97,92,96,72,59,78,8,56,40,79,54,16,25,1.7,1.7
2023-01-11T22:00:00,2231A,126.4219,41.9171,白山市,喜丰,细颗粒物(PM2.5),97,112,87,72,51,37,7,28,20,56,40,16,20,1.6,1.2
2023-01-11T22:00:00,2232A,126.4077,41.9419,白山市,环保局,细颗粒物(PM2.5),118,118,102,89,66,39,6,26,12,64,56,20,27,2.3,1.9
2023-01-11T22:00:00,2233A,124.8006,45.1214,松原市,江南,细颗粒物(PM2.5),89,105,66,66,49,51,17,43,24,45,28,17,10,0.9,0.8
2023-01-11T22:00:00,2234A,124.7965,45.1722,松原市,江北,颗粒物(PM10),87,123,78,59,39,55,25,47,36,41,29,5,8,1.1,0.8
2023-01-11T22:00:00,2235A,122.7911,45.6077,白城市,洮北区环保局,细颗粒物(PM2.5),118,119,66,89,44,65,39,59,45,40,23,13,8,1.1,0.8
2023-01-11T22:00:00,2236A,122.8738,45.5725,白城市,市环保局,颗粒物(PM10),79,108,68,54,22,58,5,48,22,58,30,14,8,1.0,0.6
2023-01-11T22:00:00,2237A,129.47,42.8883,延边朝鲜族自治州,妇幼医院,细颗粒物(PM2.5),68,83,62,49,41,52,11,38,26,45,38,17,16,1.1,0.9
2023-01-11T22:00:00,2238A,129.5055,42.9108,延边朝鲜族自治州,延边医院,细颗粒物(PM2.5),186,141,82,140,57,44,22,30,23,59,51,18,17,2.5,1.4
2023-01-11T22:00:00,2239A,129.3964,42.8881,延边朝鲜族自治州,朝阳川镇医院,细颗粒物(PM2.5),75,72,59,55,36,53,6,34,19,37,31,8,12,1.2,1
2023-01-11T22:00:00,2240A,130.9762,45.3001,鸡西市,环保局,,,,71,,55,27,,22,,,52,,17,,1.5
2023-01-11T22:00:00,2243A,130.9429,45.3039,鸡西市,第一中学,颗粒物(PM10),53,56,43,36,26,70,39,68,63,37,19,12,10,0.7,0.5
2023-01-11T22:00:00,2244A,130.2537,47.3416,鹤岗市,哈啤分公司,细颗粒物(PM2.5),162,180,108,123,65,40,8,40,9,66,47,12,16,1.7,1
2023-01-11T22:00:00,2245A,130.2684,47.3086,鹤岗市,斯达机电,细颗粒物(PM2.5),168,182,100,127,63,55,20,43,20,70,47,18,20,1.3,0.8
2023-01-11T22:00:00,2246A,130.3114,47.3388,鹤岗市,东山纸板厂,细颗粒物(PM2.5),152,187,132,116,82,33,5,21,10,53,47,20,23,1.5,1.5
2023-01-11T22:00:00,2247A,130.1097,47.3382,鹤岗市,五号水库,颗粒物(PM10),60,69,69,36,37,50,12,37,19,29,26,5,8,0.4,0.4
2023-01-11T22:00:00,2248A,131.1511,46.6937,双鸭山市,双合村,颗粒物(PM10),119,187,83,64,50,74,21,64,54,54,34,16,16,1.5,1.3
2023-01-11T22:00:00,2249A,131.1652,46.6191,双鸭山市,南小市,细颗粒物(PM2.5),69,70,71,50,38,74,51,67,63,30,23,22,18,0.8,0.7
2023-01-11T22:00:00,2250A,131.1524,46.6554,双鸭山市,环保局,细颗粒物(PM2.5),115,119,66,87,47,65,29,57,51,59,39,16,15,1.3,1
2023-01-11T22:00:00,2251A,131.12,46.5656,双鸭山市,苗圃,细颗粒物(PM2.5),62,50,42,44,36,89,74,81,77,18,17,9,9,0.6,0.6
2023-01-11T22:00:00,2252A,128.5159,47.4311,伊春市,环保局,细颗粒物(PM2.5),117,103,62,88,55,43,8,30,15,57,37,24,16,2.3,1.4
2023-01-11T22:00:00,2253A,128.9102,47.7412,伊春市,电力嘉园,细颗粒物(PM2.5),75,89,66,55,36,35,6,27,10,54,37,22,18,2.3,1.4
2023-01-11T22:00:00,2254A,129.5029,48.471,伊春市,汤旺河国家公园,细颗粒物(PM2.5),60,63,64,43,44,53,17,40,20,13,12,5,6,0.4,0.4
2023-01-11T22:00:00,2255A,130.2751,46.8028,佳木斯市,佳纺,细颗粒物(PM2.5),195,171,130,146,104,32,14,27,20,44,33,6,11,1.1,1.4
2023-01-11T22:00:00,2256A,130.3995,46.8307,佳木斯市,发电厂,细颗粒物(PM2.5),110,91,84,83,76,47,30,36,32,30,29,6,8,0.9,0.9
2023-01-11T22:00:00,2257A,130.3258,46.7975,佳木斯市,环保局,细颗粒物(PM2.5),142,129,94,108,76,62,4,45,28,66,55,9,12,1.5,1.4
2023-01-11T22:00:00,2258A,130.3648,46.8032,佳木斯市,十一中,细颗粒物(PM2.5),129,114,95,98,84,51,14,40,30,64,62,6,10,1.1,1.3
2023-01-11T22:00:00,2259A,130.3794,46.7588,佳木斯市,四丰,细颗粒物(PM2.5),109,102,55,82,44,90,26,84,58,61,26,1,1,0.9,0.6
2023-01-11T22:00:00,2262A,131.0518,45.8751,七台河市,新一中,细颗粒物(PM2.5),60,62,57,43,41,64,49,59,56,35,28,17,16,1.2,1.1
2023-01-11T22:00:00,2263A,127.4833,50.2524,黑河市,交通局,细颗粒物(PM2.5),93,88,107,69,81,50,23,28,23,44,51,20,21,1.0,1.4
2023-01-11T22:00:00,2264A,127.5144,50.2341,黑河市,环保局,细颗粒物(PM2.5),100,124,115,75,60,36,19,27,21,47,44,20,18,0.9,1
2023-01-11T22:00:00,2265A,127.5291,50.2472,黑河市,大黑河岛,细颗粒物(PM2.5),108,61,64,81,65,58,34,43,37,20,14,16,12,0.7,0.8
2023-01-11T22:00:00,2266A,126.9785,46.6365,绥化市,人和东街,细颗粒物(PM2.5),104,127,100,78,68,63,26,53,44,39,37,8,15,1.0,1
2023-01-11T22:00:00,2267A,126.964,46.6528,绥化市,党政办公中心,细颗粒物(PM2.5),109,100,97,82,68,78,38,61,47,28,30,8,12,0.9,0.9
2023-01-11T22:00:00,2269A,124.1069,50.4097,大兴安岭地区,科技局,细颗粒物(PM2.5),92,90,43,68,33,58,24,55,41,32,18,8,6,0.9,0.6
2023-01-11T22:00:00,2270A,117.396,32.939,蚌埠市,工人疗养院,细颗粒物(PM2.5),102,125,90,76,56,112,25,82,62,72,54,8,8,0.7,0.6
2023-01-11T22:00:00,2271A,117.3605,32.9427,蚌埠市,百货大楼,细颗粒物(PM2.5),100,116,86,75,57,103,42,74,58,54,54,12,12,0.6,0.6
2023-01-11T22:00:00,2273A,117.4185,32.8911,蚌埠市,蚌埠学院,细颗粒物(PM2.5),107,110,85,80,47,114,48,87,75,52,42,9,9,0.8,0.5
2023-01-11T22:00:00,2274A,117.3533,32.9673,蚌埠市,淮上区政府,颗粒物(PM10),87,124,91,63,48,109,40,83,70,53,42,12,10,0.7,0.6
2023-01-11T22:00:00,2275A,117.3145,32.8977,蚌埠市,高新区,细颗粒物(PM2.5),104,119,87,78,54,104,49,83,74,42,31,10,8,0.7,0.5
2023-01-11T22:00:00,2277A,116.8305,32.7727,淮南市,潘集区政府,细颗粒物(PM2.5),195,195,139,146,99,92,38,78,72,43,41,6,7,0.8,0.7
2023-01-11T22:00:00,2278A,117.0067,32.6524,淮南市,师范学院,细颗粒物(PM2.5),108,143,117,81,72,96,39,73,61,49,41,9,10,0.8,0.8
2023-01-11T22:00:00,2279A,116.8569,32.5951,淮南市,谢家集区政府,细颗粒物(PM2.5),114,133,106,86,69,102,51,84,79,36,36,11,12,0.5,0.5
2023-01-11T22:00:00,2280A,116.8281,32.633,淮南市,八公山区政府,细颗粒物(PM2.5),118,132,104,89,81,99,50,78,72,34,34,12,11,0.7,0.6
2023-01-11T22:00:00,2281A,116.6325,32.6201,淮南市,焦岗湖风景区管理处,细颗粒物(PM2.5),134,157,138,102,94,104,104,104,104,9,10,1,3,0.5,0.4
2023-01-11T22:00:00,2282A,116.8004,33.975,淮北市,监测站,细颗粒物(PM2.5),83,104,91,61,56,100,64,76,74,29,31,8,8,0.7,0.6
2023-01-11T22:00:00,2283A,116.8091,33.9007,淮北市,烈山区政府,细颗粒物(PM2.5),84,78,84,62,58,106,77,90,90,29,34,6,6,0.7,0.5
2023-01-11T22:00:00,2284A,116.7856,33.9477,淮北市,职业技术学院,细颗粒物(PM2.5),83,96,90,61,60,103,70,84,83,29,32,9,9,0.7,0.6
2023-01-11T22:00:00,2285A,117.8177,30.9412,铜陵市,市第四中学,细颗粒物(PM2.5),102,125,109,76,61,84,19,59,54,82,64,8,14,0.8,0.7
2023-01-11T22:00:00,2286A,117.8059,30.9273,铜陵市,市公路局,细颗粒物(PM2.5),114,118,107,86,71,75,7,46,41,72,57,7,12,1.1,1.1
2023-01-11T22:00:00,2287A,117.7807,30.9413,铜陵市,市新民污水厂,细颗粒物(PM2.5),100,125,99,75,55,102,5,58,54,92,61,12,20,0.7,0.6
2023-01-11T22:00:00,2288A,117.7439,30.8792,铜陵市,市第九中学,细颗粒物(PM2.5),99,135,132,74,77,47,4,35,23,92,64,10,14,1.2,1.2
2023-01-11T22:00:00,2289A,117.846,30.9413,铜陵市,车站新区,细颗粒物(PM2.5),88,115,86,65,50,90,22,65,59,67,47,9,11,0.7,0.7
2023-01-11T22:00:00,2290A,117.8483,30.97,铜陵市,市职教基地,细颗粒物(PM2.5),104,110,86,78,55,87,60,70,66,26,30,9,10,0.5,0.5
2023-01-11T22:00:00,2291A,117.0809,30.5177,安庆市,环科院,细颗粒物(PM2.5),138,140,107,105,76,105,52,85,81,52,32,12,8,1.2,1
2023-01-11T22:00:00,2292A,117.0331,30.5119,安庆市,马山宾馆,细颗粒物(PM2.5),137,145,113,104,80,85,49,75,71,57,36,11,8,1.1,0.8
2023-01-11T22:00:00,2294A,116.9896,30.6145,安庆市,安庆大学,细颗粒物(PM2.5),128,126,110,97,79,129,54,87,77,59,42,9,8,1.0,1
2023-01-11T22:00:00,2295A,118.2903,29.6963,黄山市,延安路89号,细颗粒物(PM2.5),109,111,82,82,61,109,12,88,66,36,26,5,5,0.7,0.6
2023-01-11T22:00:00,2296A,118.327,29.7178,黄山市,黄山东路89号,颗粒物(PM10),56,62,66,38,51,116,5,88,53,38,25,6,6,1.0,0.8
2023-01-11T22:00:00,2297A,118.1371,30.2756,黄山市,黄山区政府5号楼,细颗粒物(PM2.5),85,101,72,63,42,98,7,65,44,23,21,6,6,1.3,1
2023-01-11T22:00:00,2298A,118.3093,32.3153,滁州市,老年大学,细颗粒物(PM2.5),89,105,77,66,52,88,25,69,50,83,51,9,8,0.8,0.6
2023-01-11T22:00:00,2299A,118.3244,32.2786,滁州市,人大宾馆,颗粒物(PM10),75,99,81,51,41,81,28,64,50,72,54,6,6,0.6,0.5
2023-01-11T22:00:00,2301A,115.8277,32.8929,阜阳市,市监测站,细颗粒物(PM2.5),189,189,132,142,100,95,41,73,65,57,48,11,9,1.0,0.7
2023-01-11T22:00:00,2303A,115.8554,32.8605,阜阳市,开发区,细颗粒物(PM2.5),208,247,165,158,101,93,22,71,56,71,52,7,6,1.2,1
2023-01-11T22:00:00,2307A,116.5079,31.737,六安市,监测大楼,细颗粒物(PM2.5),147,147,111,112,83,95,73,77,76,30,41,10,7,0.7,0.7
2023-01-11T22:00:00,2308A,116.4738,31.7643,六安市,皖西学院,细颗粒物(PM2.5),125,147,105,95,66,102,71,75,73,35,40,8,5,0.8,0.6
2023-01-11T22:00:00,2309A,116.4996,31.7905,六安市,朝阳厂,细颗粒物(PM2.5),149,134,95,114,75,83,56,68,64,34,39,6,6,0.9,0.8
2023-01-11T22:00:00,2310A,116.5567,31.7886,六安市,开发区,细颗粒物(PM2.5),150,176,133,115,80,104,34,74,65,54,38,32,10,0.8,0.7
2023-01-11T22:00:00,2311A,115.8072,33.8399,亳州市,污水处理厂,细颗粒物(PM2.5),188,178,119,141,91,74,44,62,58,32,36,8,9,0.9,0.7
2023-01-11T22:00:00,2312A,115.7789,33.8518,亳州市,三国揽胜宫,细颗粒物(PM2.5),216,216,132,166,88,77,42,65,59,39,33,7,6,0.8,0.6
2023-01-11T22:00:00,2314A,117.47,30.6618,池州市,池州学院,细颗粒物(PM2.5),129,139,107,98,74,102,52,66,58,42,38,8,11,0.9,1
2023-01-11T22:00:00,2316A,118.7581,30.9454,宣城市,鳌峰子站,"颗粒物(PM10),细颗粒物(PM2.5)",73,95,76,53,44,94,64,83,80,39,35,6,7,0.6,0.6
2023-01-11T22:00:00,2317A,118.7385,30.9743,宣城市,敬亭山子站,细颗粒物(PM2.5),78,77,74,57,43,106,58,77,72,36,37,9,9,0.5,0.4
2023-01-11T22:00:00,2318A,118.7173,30.9427,宣城市,开发区子站,细颗粒物(PM2.5),78,81,70,57,45,101,54,86,81,47,38,8,5,0.5,0.5
2023-01-11T22:00:00,2319A,119.0141,25.4325,莆田市,荔城区仓后路,,40,40,18,15,10,79,32,74,54,28,12,7,6,0.9,0.6
2023-01-11T22:00:00,2320A,119.0015,25.4553,莆田市,莆田市监测站,,20,13,11,9,9,83,62,79,64,9,7,6,5,0.5,0.6
2023-01-11T22:00:00,2321A,119.1119,25.4561,莆田市,涵江区六中,,48,48,31,22,16,81,12,76,40,49,29,5,5,0.8,0.6
2023-01-11T22:00:00,2322A,119.1013,25.3215,莆田市,秀屿区政府,,26,21,25,18,20,82,57,82,58,14,11,4,4,0.6,0.6
2023-01-11T22:00:00,2323A,118.981,25.4792,莆田市,东圳水库,,,,,,,,,,,,,,,,
2023-01-11T22:00:00,2324A,117.6211,26.2625,三明市,三钢,,39,33,31,27,28,46,7,42,26,31,20,8,9,0.7,0.4
2023-01-11T22:00:00,2325A,117.635,26.2714,三明市,三明二中,,44,44,30,26,24,44,7,39,27,35,21,4,7,0.7,0.5
2023-01-11T22:00:00,2326A,117.6028,26.2378,三明市,三元区政府,,47,47,32,32,31,42,2,38,25,38,21,13,14,1.0,0.7
2023-01-11T22:00:00,2327A,117.7275,26.3108,三明市,洋溪,,,,,,,,,,,,,,,,
2023-01-11T22:00:00,2331A,118.0966,26.6761,南平市,茫荡山,,,,,,,,,,,,,,,,
2023-01-11T22:00:00,2332A,118.1681,26.6369,南平市,南平市监测站,,46,46,34,32,25,43,3,37,16,29,19,6,4,1.3,0.7
2023-01-11T22:00:00,2333A,118.1825,26.6489,南平市,南平铝业有限公司,,40,34,32,28,26,42,3,37,19,22,15,11,6,0.9,0.7
2023-01-11T22:00:00,2334A,118.1756,26.6272,南平市,南平七中,,35,35,31,6,18,44,5,40,23,27,18,6,4,0.7,0.6
2023-01-11T22:00:00,2335A,117.0189,25.1181,龙岩市,龙岩师专,,,,,,,,,,,,,,,,
2023-01-11T22:00:00,2336A,117.0217,25.1033,龙岩市,龙岩市监测站,,28,28,15,16,11,56,34,49,43,17,13,8,7,0.5,0.5
2023-01-11T22:00:00,2337A,117.0258,25.0661,龙岩市,闽西职业技术学院,,42,42,19,27,15,52,11,46,34,27,11,7,6,0.7,0.6
2023-01-11T22:00:00,2338A,117.0196,25.0306,龙岩市,龙岩学院,,32,30,19,22,13,50,8,43,29,20,14,4,3,0.6,0.5
2023-01-11T22:00:00,2339A,119.5001,26.6946,宁德市,金涵水库,,,,,,,,,,,,,,,,
2023-01-11T22:00:00,2341A,119.5388,26.6612,宁德市,宁德市监测站,细颗粒物(PM2.5),65,74,53,47,49,58,3,46,8,37,30,6,5,1.5,1
2023-01-11T22:00:00,2342A,117.3102,29.3867,景德镇市,王港中学,,,,,,,,,,,,,,,,
2023-01-11T22:00:00,2343A,117.2117,29.2933,景德镇市,老干部活动中心,细颗粒物(PM2.5),99,94,102,74,62,92,5,74,47,48,37,8,8,1.0,0.8
2023-01-11T22:00:00,2344A,117.1894,29.2789,景德镇市,兽医站,细颗粒物(PM2.5),113,111,87,85,59,103,6,84,58,57,34,10,8,1.4,1
2023-01-11T22:00:00,2345A,117.1547,29.2617,景德镇市,台达陶瓷,细颗粒物(PM2.5),115,148,90,87,58,100,4,80,47,67,44,13,16,1.3,1
2023-01-11T22:00:00,2346A,117.2461,29.2956,景德镇市,陶研所,细颗粒物(PM2.5),73,72,92,53,50,103,18,78,56,43,31,4,5,0.7,0.7
2023-01-11T22:00:00,2347A,114.0997,27.5002,萍乡市,武功山,细颗粒物(PM2.5),94,89,53,70,42,97,5,79,60,31,16,9,9,1.0,0.7
2023-01-11T22:00:00,2348A,113.8385,27.6434,萍乡市,中医院,细颗粒物(PM2.5),83,99,148,61,109,121,48,98,82,29,39,10,12,1.3,1.6
2023-01-11T22:00:00,2349A,113.8493,27.6253,萍乡市,市政府车库,细颗粒物(PM2.5),85,83,155,63,115,130,42,109,87,28,33,16,24,1.9,2.4
2023-01-11T22:00:00,2350A,113.8676,27.6435,萍乡市,市环保局,细颗粒物(PM2.5),67,69,131,48,96,124,40,100,80,21,30,16,24,0.8,1
2023-01-11T22:00:00,2351A,113.866,27.6198,萍乡市,安源区政府,细颗粒物(PM2.5),92,94,141,68,111,114,48,99,84,31,38,29,24,1.0,1.6
2023-01-11T22:00:00,2352A,115.0861,27.9317,新余市,北岗,细颗粒物(PM2.5),74,69,114,54,73,70,31,63,53,19,19,6,10,0.5,0.7
2023-01-11T22:00:00,2353A,114.9886,27.8431,新余市,飞宇,细颗粒物(PM2.5),88,95,125,65,84,70,22,64,52,45,31,6,22,0.7,0.7
2023-01-11T22:00:00,2354A,114.9231,27.8246,新余市,第二水厂,细颗粒物(PM2.5),103,140,146,77,95,59,13,55,41,66,36,9,18,0.8,0.7
2023-01-11T22:00:00,2355A,114.9308,27.8036,新余市,市气象局,细颗粒物(PM2.5),108,116,127,81,99,68,32,59,50,40,35,10,16,0.7,0.6
2023-01-11T22:00:00,2357A,116.9822,28.1136,鹰潭市,龙虎山,,32,32,43,19,42,94,48,84,74,4,9,3,4,0.8,0.8
2023-01-11T22:00:00,2358A,117.0564,28.2642,鹰潭市,新监测站,细颗粒物(PM2.5),79,81,64,58,54,89,32,78,58,40,23,6,15,0.6,0.5
2023-01-11T22:00:00,2359A,117.0311,28.2475,鹰潭市,财苑宾馆,细颗粒物(PM2.5),77,80,64,56,51,96,38,83,62,40,21,13,18,0.8,0.7
2023-01-11T22:00:00,2360A,117.0222,28.2264,鹰潭市,体育馆,细颗粒物(PM2.5),85,111,77,63,57,93,6,80,53,73,30,10,12,0.9,0.7
2023-01-11T22:00:00,2361A,117.0017,28.2131,鹰潭市,三川水表,颗粒物(PM10),73,96,74,48,60,88,7,77,44,48,32,6,10,0.7,0.5
2023-01-11T22:00:00,2362A,114.9017,25.9149,赣州市,通天岩,颗粒物(PM10),52,54,63,28,27,56,6,52,18,37,14,5,6,1.1,1.1
2023-01-11T22:00:00,2363A,114.9367,25.8664,赣州市,地委,细颗粒物(PM2.5),68,68,47,49,32,57,5,48,24,40,20,10,8,1.2,1
2023-01-11T22:00:00,2364A,114.9461,25.8481,赣州市,气象台,细颗粒物(PM2.5),62,50,40,44,33,43,0,39,16,49,22,6,6,0.9,0.8
2023-01-11T22:00:00,2365A,114.9322,25.8333,赣州市,市图书馆,细颗粒物(PM2.5),54,55,44,38,31,56,0,52,16,47,23,4,5,1.3,1.1
2023-01-11T22:00:00,2366A,114.8905,25.8471,赣州市,华坚鞋城,细颗粒物(PM2.5),57,52,50,40,33,57,19,55,32,44,19,3,2,1.4,1
2023-01-11T22:00:00,2367A,114.9754,27.0803,吉安市,红声器材厂,细颗粒物(PM2.5),90,93,96,67,67,78,37,59,53,30,34,12,14,0.8,0.8
2023-01-11T22:00:00,2368A,114.9658,27.0999,吉安市,市森林工业局,细颗粒物(PM2.5),105,99,100,79,78,76,35,65,59,38,38,14,18,0.7,0.9
2023-01-11T22:00:00,2369A,114.99,27.1312,吉安市,市环境监测站,细颗粒物(PM2.5),115,121,111,87,96,56,22,46,43,51,32,8,8,1.2,1
2023-01-11T22:00:00,2370A,115.0093,27.0968,吉安市,青原区法院,细颗粒物(PM2.5),105,115,99,79,71,74,24,62,53,34,27,8,9,0.9,0.9
2023-01-11T22:00:00,2371A,114.3408,27.8064,宜春市,槟榔水业,细颗粒物(PM2.5),69,77,111,50,78,85,36,73,55,21,21,14,14,0.5,0.8
2023-01-11T22:00:00,2373A,114.3956,27.7844,宜春市,市石油公司,细颗粒物(PM2.5),75,81,116,55,76,107,38,91,66,29,29,4,6,0.8,1.2
2023-01-11T22:00:00,2374A,114.3703,27.7914,宜春市,市气象局,细颗粒物(PM2.5),77,90,123,56,84,102,30,84,59,34,37,5,7,1.2,1.4
2023-01-11T22:00:00,2375A,114.4013,27.8074,宜春市,市广电局,,,76,117,63,92,110,39,97,72,,29,10,4,0.9,1.2
2023-01-11T22:00:00,2376A,116.2127,28.0814,抚州市,桐源党溪,细颗粒物(PM2.5),85,82,92,63,71,80,20,70,47,8,11,1,6,0.8,0.9
2023-01-11T22:00:00,2377A,116.3544,27.9831,抚州市,市站,细颗粒物(PM2.5),109,127,108,82,74,70,4,65,33,59,31,14,8,1.5,0.7
2023-01-11T22:00:00,2378A,116.3565,27.963,抚州市,血防站,细颗粒物(PM2.5),102,119,111,76,82,65,4,56,33,65,22,5,7,1.4,1
