timepoint,stationcode,longitude,latitude,area,positionname,primarypollutant,aqi,pm10,pm10_24h,pm2_5,pm2_5_24h,o3,o3_24h,o3_8h,o3_8h_24h,no2,no2_24h,so2,so2_24h,co,co_24h
2024-09-10T1400,2566A,102.1879,31.914,阿坝藏族羌族自治州,州农科所,,29,11,14,7,6,90,,57,57,14,10,9,7,0,0
2024-09-10T1400,2568A,102.2502,31.8896,阿坝藏族羌族自治州,马师校,,32,13,15,3,7,102,,61,61,7,10,4,4,0.3,0.4
2024-09-10T1400,3994A,102.2165,31.9024,阿坝藏族羌族自治州,马尔康中学西区,,32,6,14,3,15,102,,63,63,10,10,6,5,0.4,0.4
2024-09-10T1400,2695A,80.292,41.1694,阿克苏地区,电视台,,39,28,59,27,25,104,,113,103,7,13,6,4,0.4,0.4
2024-09-10T1400,2696A,80.2613,41.1551,阿克苏地区,艺术中心,,34,32,55,17,22,108,,113,102,4,12,4,4,0.5,0.6
2024-09-10T1400,2204A,105.6467,38.8363,阿拉善盟,西城区西花园,,38,22,28,12,12,120,,109,109,9,13,10,8,1.0,1
2024-09-10T1400,2205A,105.6985,38.8411,阿拉善盟,蒙二幼,,30,22,24,12,13,93,,92,92,11,10,9,9,0.6,0.6
2024-09-10T1400,2206A,105.724,38.8516,阿拉善盟,环保局新楼,,,,25,,12,96,,100,97,11,10,10,10,0.3,0.4
2024-09-10T1400,2708A,88.1264,47.8517,阿勒泰地区,市站,,24,24,25,11,7,74,,49,49,14,16,8,8,0.4,0.4
2024-09-10T1400,2630A,80.1161,32.5,阿里地区,阿里监测站,,34,6,6,3,3,108,,76,70,3,8,5,6,0.3,0.3
2024-09-10T1400,3192A,80.0903,32.5028,阿里地区,阿里藏医院,,35,6,9,3,2,111,,86,84,3,5,6,6,0.2,0.2
2024-09-10T1400,2642A,109.0318,32.6537,安康市,香溪洞,,,,84,,32,,,97,,,3,,6,,0.4
2024-09-10T1400,2643A,109.0281,32.6939,安康市,安康市监测站,,30,16,17,10,15,95,,59,59,6,6,7,7,0.5,0.5
2024-09-10T1400,2644A,109.0072,32.6975,安康市,汉滨区检察院,,30,14,16,8,12,94,,60,59,7,7,7,7,0.5,0.5
2024-09-10T1400,2291A,117.0809,30.5177,安庆市,环科院,,40,40,35,23,19,117,,96,96,7,19,8,9,0.5,0.6
2024-09-10T1400,2292A,117.0331,30.5119,安庆市,马山宾馆,,45,36,32,23,20,142,,108,108,7,15,10,11,0.4,0.4
2024-09-10T1400,2294A,116.9896,30.6145,安庆市,安庆大学,,43,27,33,25,19,136,,105,105,6,10,8,8,0.4,0.5
2024-09-10T1400,3173A,117.0598,30.5351,安庆市,市人大,,42,37,33,25,20,134,,103,103,5,13,10,9,0.7,0.7
2024-09-10T1400,3122A,105.9606,26.2611,安顺市,伍家关,,,,,,,,,,,,,,,,
2024-09-10T1400,3123A,105.9408,26.2431,安顺市,凤凰山,,32,18,15,13,11,101,,67,67,3,4,8,8,0.5,0.5
2024-09-10T1400,3124A,105.9439,26.2564,安顺市,金钟山,,31,19,20,18,14,98,,65,65,3,4,8,7,0.4,0.4
2024-09-10T1400,3125A,105.8983,26.2481,安顺市,娄家坡,,30,20,14,14,11,96,,65,65,3,4,6,6,0.7,0.7
2024-09-10T1400,1818A,114.4839,36.0621,安阳市,棉研所,,,,,,,,,,,,,,,,
2024-09-10T1400,1819A,114.3551,36.1017,安阳市,红庙街,,27,26,44,8,28,84,,78,73,10,14,5,4,0.5,0.5
2024-09-10T1400,1820A,114.361,36.0681,安阳市,银杏小区,,,26,42,,,88,,75,75,14,12,4,3,0.6,0.7
2024-09-10T1400,3141A,114.3922,36.0878,安阳市,信访局,,31,31,49,8,22,89,,80,79,19,17,4,3,0.5,0.6
2024-09-10T1400,3669A,114.4705,36.0637,安阳市,左辅环卫站,,44,44,50,15,26,80,,77,75,17,13,2,3,0.6,0.7
2024-09-10T1400,3703A,114.2917,36.0949,安阳市,安钢职工学校,,,,53,,29,,,128,,,15,,4,,0.6
2024-09-10T1400,1748A,123.044,41.1196,鞍山市,深沟寺,,18,18,28,10,18,45,,68,43,14,9,5,6,0.4,0.8
2024-09-10T1400,1749A,123.011,41.0931,鞍山市,太阳城,,17,16,23,7,15,54,,66,55,16,12,6,5,0.4,0.7
2024-09-10T1400,1750A,123.0485,41.1442,鞍山市,太平,,16,16,33,6,20,50,,66,53,29,18,10,7,0.5,0.8
2024-09-10T1400,1751A,122.9642,41.0971,鞍山市,铁西三道街,,19,15,35,3,19,60,,68,45,20,21,8,9,0.5,1.2
2024-09-10T1400,1752A,122.9341,41.0833,鞍山市,铁西工业园区,,19,19,28,6,18,58,,59,41,24,18,13,10,0.8,1.2
2024-09-10T1400,1753A,123.022,41.0821,鞍山市,明达新区,,17,14,25,3,17,54,,69,49,15,11,6,4,0.4,0.7
2024-09-10T1400,1754A,123.1289,41.0228,鞍山市,千山,,,,,,,,,,,,,,,,
2024-09-10T1400,2195A,107.4212,40.761,巴彦淖尔市,附二中,,37,37,78,7,24,76,,43,43,8,27,21,10,0.3,0.5
2024-09-10T1400,2196A,107.37,40.7372,巴彦淖尔市,市环保大楼,,40,40,65,22,19,78,,44,44,7,21,7,14,0.4,0.4
2024-09-10T1400,1956A,86.1472,41.7538,巴音郭楞蒙古自治州,孔雀公园,颗粒物(PM10),59,67,153,11,36,115,,99,99,8,13,8,7,0.2,0.3
2024-09-10T1400,1957A,86.1972,41.7166,巴音郭楞蒙古自治州,棉纺厂,颗粒物(PM10),53,55,171,22,50,111,,87,87,5,17,6,8,0.2,0.3
2024-09-10T1400,1958A,86.2357,41.7173,巴音郭楞蒙古自治州,经济开发区,,38,38,149,13,41,111,,90,90,3,8,7,8,0.3,0.3
2024-09-10T1400,2914A,106.7677,31.8794,巴中市,苏山坪,,34,20,18,13,13,107,,78,78,5,6,3,3,0.4,0.4
2024-09-10T1400,3182A,106.7656,31.8545,巴中市,丽阳花园,,35,22,22,20,16,109,,64,64,6,11,5,4,0.5,0.5
2024-09-10T1400,3183A,106.7418,31.8654,巴中市,圣泉水务公司,,36,21,19,16,13,113,,58,58,7,11,4,3,0.6,0.6
2024-09-10T1400,3616A,106.7616,31.8344,巴中市,市中心医院,,35,24,21,17,14,110,,56,56,4,11,5,4,0.5,0.5
2024-09-10T1400,2235A,122.7911,45.6077,白城市,洮北区环保局,,24,11,27,3,10,74,,64,64,3,4,5,4,0.1,0.2
2024-09-10T1400,2236A,122.8738,45.5725,白城市,市环保局,,24,24,33,3,8,67,,57,57,8,9,5,4,0.2,0.3
2024-09-10T1400,2231A,126.4219,41.9171,白山市,喜丰,,22,22,29,3,14,57,,75,65,9,7,7,7,0.5,0.6
2024-09-10T1400,2232A,126.4077,41.9419,白山市,环保局,,20,19,34,14,17,47,,71,59,19,18,8,8,0.5,0.6
2024-09-10T1400,2647A,104.1724,36.5446,白银市,第三小学,,48,23,21,11,13,85,,69,69,12,15,143,25,0.5,0.5
2024-09-10T1400,2648A,104.1465,36.5482,白银市,动力公司,二氧化硫,53,15,19,14,12,83,,64,64,11,14,166,25,0.4,0.4
2024-09-10T1400,2512A,106.6103,23.9011,百色市,市监测站,,22,6,13,3,9,69,,50,50,4,11,5,6,0.6,0.8
2024-09-10T1400,2513A,106.6538,23.8859,百色市,市中心血站,,21,,15,7,9,65,,48,48,9,17,3,4,0.5,0.7
2024-09-10T1400,3406A,106.6085,23.8798,百色市,祈福高中,细颗粒物(PM2.5),53,,15,37,8,69,,51,51,6,15,6,4,0.7,0.8
2024-09-10T1400,2270A,117.396,32.939,蚌埠市,工人疗养院,,37,36,37,14,13,116,,74,74,2,12,3,5,0.3,0.3
2024-09-10T1400,2271A,117.3605,32.9427,蚌埠市,百货大楼,,36,36,37,15,17,114,,71,71,1,11,7,8,0.4,0.4
2024-09-10T1400,2273A,117.4185,32.8911,蚌埠市,蚌埠学院,,35,27,30,16,15,109,,65,65,5,15,7,9,0.4,0.4
2024-09-10T1400,2274A,117.3533,32.9673,蚌埠市,淮上区政府,,34,34,35,20,15,107,,70,70,2,10,7,8,0.4,0.4
2024-09-10T1400,2275A,117.3145,32.8977,蚌埠市,高新区,,38,31,30,17,16,119,,70,70,3,12,6,8,0.5,0.5
2024-09-10T1400,3715A,117.3092,32.9314,蚌埠市,蚌埠田家炳中学,,37,36,35,24,17,118,,73,73,2,8,6,6,0.4,0.5
2024-09-10T1400,1585A,109.8756,40.6532,包头市,市环境监测站,,29,21,24,14,14,92,,56,56,15,25,19,8,0.6,0.6
2024-09-10T1400,1587A,109.9991,40.5842,包头市,包头八中,,23,18,29,3,6,73,,47,47,16,29,18,13,0.5,0.8
2024-09-10T1400,1588A,109.8538,40.6821,包头市,青山宾馆,,30,19,15,6,4,94,,56,56,13,21,11,6,0.6,0.6
2024-09-10T1400,1589A,109.8642,40.6288,包头市,惠龙物流,,29,11,25,11,9,92,,56,56,14,25,21,11,0.6,0.7
2024-09-10T1400,1590A,110.0377,40.5546,包头市,东河鸿龙湾,,25,15,22,8,7,79,,50,50,8,22,12,10,0.4,0.6
2024-09-10T1400,3283A,109.9154,40.5685,包头市,滨河大厦,,26,14,19,6,10,81,,54,54,13,26,16,11,0.5,0.6
2024-09-10T1400,3419A,109.9447,40.6261,包头市,包头市委党校,,26,25,36,18,10,82,,53,53,20,32,28,11,0.6,0.7
2024-09-10T1400,3683A,109.8331,40.6576,包头市,昆区政府,,28,12,23,6,6,88,,56,56,11,22,11,5,0.4,0.8
2024-09-10T1400,1930A,107.185,34.3063,宝鸡市,庙沟村,,32,32,32,16,10,89,,77,77,5,8,9,8,0.2,0.2
2024-09-10T1400,1931A,107.0708,34.3017,宝鸡市,竹园沟,,38,38,28,16,8,86,,61,61,8,10,9,9,0.3,0.4
2024-09-10T1400,1932A,107.1906,34.3672,宝鸡市,三陆医院,,40,40,35,17,11,78,,47,47,8,21,8,10,0.5,0.5
2024-09-10T1400,1933A,107.1431,34.3547,宝鸡市,监测站,,45,45,35,18,12,77,,51,51,9,14,6,6,0.5,0.5
2024-09-10T1400,1934A,107.1186,34.3739,宝鸡市,技工学校,,38,38,28,11,12,80,,55,55,8,11,7,7,0.5,0.5
2024-09-10T1400,1935A,107.3906,34.3528,宝鸡市,陈仓区环保局家属楼,,41,41,35,12,14,87,,60,60,7,15,9,8,0.6,0.6
2024-09-10T1400,1936A,107.2058,34.3497,宝鸡市,文理学院,,31,31,30,20,9,83,,54,54,5,10,9,10,0.4,0.4
2024-09-10T1400,1937A,107.2386,34.3622,宝鸡市,三迪小学,,42,42,30,16,6,83,,56,56,11,17,8,8,0.4,0.5
2024-09-10T1400,1051A,115.493,38.8632,保定市,游泳馆,,32,32,63,3,33,69,,57,57,20,20,3,3,0.0,0.3
2024-09-10T1400,1052A,115.5213,38.8959,保定市,华电二区,,20,15,71,9,48,62,,49,49,8,14,1,2,0,0.4
2024-09-10T1400,1053A,115.4713,38.9108,保定市,接待中心,,25,25,70,3,42,61,,48,48,11,15,2,2,0.1,0.5
2024-09-10T1400,1054A,115.4612,38.8416,保定市,地表水厂,,32,32,73,8,32,61,,52,52,8,15,1,1,0,0.3
2024-09-10T1400,3581A,115.31981,38.95208,保定市,满城区生态环境分局,,24,12,66,3,35,76,,55,55,11,17,4,3,0.2,0.5
2024-09-10T1400,3582A,115.47694,38.76408,保定市,清苑区第二中学,,22,22,73,8,46,59,,54,54,12,19,3,2,0.2,0.5
2024-09-10T1400,3583A,115.62909,39.02311,保定市,徐水物探局,,24,24,51,3,41,65,,50,50,9,17,2,3,0.3,0.6
2024-09-10T1400,4004A,115.4202,38.8656,保定市,双鹰农机,,23,23,64,8,36,70,,58,58,13,17,3,2,0.2,0.6
2024-09-10T1400,4034A,115.5150,38.8590,保定市,植保所站,,28,28,63,11,43,63,,52,52,10,16,2,3,0.1,0.5
2024-09-10T1400,2594A,99.1678,25.1081,保山市,市环境监测站,,24,14,21,6,12,76,,65,65,6,7,6,6,0.3,0.4
2024-09-10T1400,2595A,99.1711,25.1328,保山市,市环保局,,26,20,22,8,11,82,,72,72,4,5,4,4,0.3,0.3
2024-09-10T1400,1866A,109.2262,21.588,北海市,牛尾岭水库,,,,,,,,,,,,,,,,
2024-09-10T1400,1867A,109.1436,21.4086,北海市,海滩公园,,18,14,20,3,7,57,,47,44,3,5,4,4,0.4,0.5
2024-09-10T1400,1868A,109.0981,21.4661,北海市,新市环保局,,25,25,17,9,11,58,,48,42,8,8,3,3,0.5,0.5
2024-09-10T1400,1869A,109.1778,21.5233,北海市,北海工业园,,24,24,24,12,12,50,,42,33,8,11,5,5,0.5,0.5
2024-09-10T1400,3400A,109.1911,21.4415,北海市,龙潭自来水厂,,20,20,17,11,11,56,,50,46,4,5,4,4,0.5,0.5
2024-09-10T1400,1001A,116.3621,39.8784,北京市,万寿西宫,,18,6,32,3,27,55,,54,51,15,22,3,3,0.3,0.8
2024-09-10T1400,1002A,116.2202,40.2915,北京市,定陵,,,4,14,,35,37,,50,40,5,5,6,5,0.4,0.6
2024-09-10T1400,1003A,116.4174,39.9289,北京市,东四,,19,7,36,3,32,58,,61,58,12,20,3,3,0.4,0.8
2024-09-10T1400,1004A,116.4072,39.8863,北京市,天坛,,18,6,23,3,21,55,,58,54,15,19,3,3,0.4,0.7
2024-09-10T1400,1005A,116.462,39.9365,北京市,农展馆,,14,6,28,3,27,44,,53,49,14,22,2,2,0.3,0.7
2024-09-10T1400,1006A,116.3392,39.9295,北京市,官园,,18,6,24,3,18,57,,51,50,12,22,4,4,0.3,0.7
2024-09-10T1400,1007A,116.2878,39.9611,北京市,海淀万柳,,17,6,20,3,17,52,,51,47,12,20,3,3,0.2,0.5
2024-09-10T1400,1008A,116.6636,40.135,北京市,顺义新城,,17,6,25,3,20,52,,54,49,5,12,3,3,0.2,0.6
2024-09-10T1400,1009A,116.6275,40.3275,北京市,怀柔镇,,15,6,24,3,18,47,,63,51,15,12,3,3,0.2,0.6
2024-09-10T1400,1010A,116.2296,40.217,北京市,昌平镇,,11,6,16,3,11,34,,55,44,12,12,4,4,0.3,0.6
2024-09-10T1400,1011A,116.3966,39.9821,北京市,奥体中心,,16,6,27,3,25,49,,49,48,13,24,2,2,0.4,0.8
2024-09-10T1400,1012A,116.184,39.9136,北京市,古城,,16,9,32,3,18,51,,56,52,15,26,2,2,0.4,0.7
2024-09-10T1400,3281A,115.9718,40.4529,北京市,延庆夏都,,19,6,13,3,9,58,,47,47,7,12,3,3,0.3,0.4
2024-09-10T1400,3417A,117.0709,40.1465,北京市,平谷新城,,18,10,45,3,24,57,,54,51,6,6,3,3,0.4,0.7
2024-09-10T1400,3418A,116.8336,40.4095,北京市,密云新城,,15,6,15,3,11,46,,62,52,5,9,3,3,0.3,0.5
2024-09-10T1400,3671A,116.088,39.9726,北京市,门头沟三家店,,12,6,25,3,17,37,,43,42,10,16,3,3,0.3,0.5
2024-09-10T1400,3672A,116.1541,39.8204,北京市,丰台云岗,,13,6,24,3,2,40,,46,40,10,17,3,2,0.3,0.5
2024-09-10T1400,3673A,116.6804,39.9081,北京市,通州东关,,21,6,39,3,33,65,,52,50,11,22,3,2,0.3,0.7
2024-09-10T1400,3674A,115.9577,39.7603,北京市,房山燕山,,15,6,24,3,17,48,,54,48,10,14,3,3,0.2,0.5
2024-09-10T1400,3675A,116.4672,39.7733,北京市,大兴旧宫,,18,6,40,3,29,57,,60,56,11,18,3,3,0.6,0.8
2024-09-10T1400,3694A,115.986,40.4563,北京市,延庆石河营,,16,6,12,3,10,50,,41,41,6,10,3,3,0.3,0.4
2024-09-10T1400,3695A,116.6151,40.3053,北京市,怀柔新城,,15,6,24,3,20,45,,65,52,9,7,3,3,0.3,0.6
2024-09-10T1400,3696A,116.2545,39.8768,北京市,丰台小屯,,17,6,27,3,24,52,,52,48,9,18,3,3,0.3,0.7
2024-09-10T1400,3697A,116.84,40.3844,北京市,密云镇,,13,6,17,3,13,39,,54,45,5,7,2,2,0.3,0.6
2024-09-10T1400,1761A,123.8275,41.3064,本溪市,大峪,,17,17,29,3,17,34,,75,45,15,13,8,8,0.8,0.8
2024-09-10T1400,1762A,123.7567,41.3325,本溪市,溪湖,,20,20,33,6,18,35,,62,48,17,19,5,7,0.7,1.2
2024-09-10T1400,1763A,123.7169,41.3094,本溪市,彩屯,,20,20,32,8,21,38,,54,39,21,26,9,10,0.7,1.6
2024-09-10T1400,1764A,123.7669,41.2864,本溪市,东明,,32,32,29,9,14,36,,86,44,19,16,6,6,0.7,0.8
2024-09-10T1400,1765A,123.7992,41.2664,本溪市,新立屯,,25,25,26,6,10,34,,86,49,19,13,5,4,0.6,0.6
2024-09-10T1400,1766A,123.8142,41.3472,本溪市,威宁,,28,28,27,7,19,36,,40,33,19,19,8,8,0.7,0.8
2024-09-10T1400,2587A,105.2864,27.3125,毕节市,八中,,31,26,23,19,18,99,,59,59,9,10,10,6,0.4,0.5
2024-09-10T1400,2588A,105.31,27.2944,毕节市,师专,,32,18,24,11,15,101,,58,58,11,14,14,8,0.5,0.6
2024-09-10T1400,3537A,105.3631,27.3533,毕节市,长征村,,31,19,25,14,20,99,,63,63,5,8,7,7,0.4,0.5
2024-09-10T1400,1629A,118.0018,37.3617,滨州市,第二水厂,颗粒物(PM10),69,88,61,12,33,75,,61,61,7,29,6,7,0.4,1
2024-09-10T1400,1630A,117.9776,37.393,滨州市,北中新校,颗粒物(PM10),63,75,64,17,31,78,,62,62,3,30,6,9,0.7,1.2
2024-09-10T1400,3514A,117.9378,37.3956,滨州市,中海酒店,颗粒物(PM10),62,73,57,17,29,72,,64,64,11,28,5,8,0.5,0.9
2024-09-10T1400,3515A,117.9378,37.3553,滨州市,开发区一中,颗粒物(PM10),68,85,67,22,35,63,,62,62,11,33,7,11,0.6,0.8
2024-09-10T1400,3516A,118.0917,37.694,滨州市,金海六路,,32,32,52,3,19,74,,74,74,6,17,2,8,0.4,0.8
2024-09-10T1400,4028A,117.9956,37.3753,滨州市,滨州市西街道办事处,颗粒物(PM10),71,92,62,19,34,73,,62,62,5,26,6,8,0.6,1.1
2024-09-10T1400,2311A,115.8072,33.8399,亳州市,污水处理厂,,43,23,31,11,20,136,,89,89,5,10,3,13,0.4,0.5
2024-09-10T1400,2312A,115.7789,33.8518,亳州市,三国揽胜宫,,42,36,38,13,21,133,,87,87,3,5,2,10,0.4,0.5
2024-09-10T1400,3332A,115.7633,33.8034,亳州市,亳州学院,,45,17,27,8,16,142,,95,95,4,7,2,7,0.4,0.5
2024-09-10T1400,2693A,82.0485,44.8556,博尔塔拉蒙古自治州,市党校,,28,24,30,13,11,89,,50,50,13,11,7,6,0.3,0.4
2024-09-10T1400,2694A,82.0806,44.8969,博尔塔拉蒙古自治州,市环保局,,39,39,39,16,15,87,,44,44,11,16,6,5,0.4,0.5
2024-09-10T1400,1071A,116.8842,38.2991,沧州市,沧县城建局,,26,,50,18,37,43,,76,49,15,14,4,3,0.5,0.8
2024-09-10T1400,1072A,116.8584,38.3254,沧州市,电视转播站,,17,14,44,3,30,54,,82,55,13,12,3,2,0.6,0.6
2024-09-10T1400,1073A,116.8709,38.3228,沧州市,市环保局,,21,21,49,7,32,50,,76,50,11,13,2,3,0.6,0.5
2024-09-10T1400,3324A,116.8136,38.3004,沧州市,河北水利电力学院,,18,6,45,3,28,55,,87,56,15,15,3,4,0.6,0.5
2024-09-10T1400,2622A,97.1806,31.1273,昌都市,昌都监测站,,25,6,9,3,5,79,,64,57,3,8,6,6,0.6,0.6
2024-09-10T1400,3719A,97.1714,31.1406,昌都市,昌都会议中心,,26,6,9,3,5,83,,68,62,4,4,8,8,0.6,0.6
2024-09-10T1400,2690A,88.1236,43.8886,昌吉回族自治州,天山天池,,25,6,8,3,5,77,,66,66,8,5,3,3,0.6,0.5
2024-09-10T1400,2692A,87.2717,44.0297,昌吉回族自治州,新区政务中心,,30,,30,21,21,91,,51,51,7,26,6,6,0.5,0.7
2024-09-10T1400,3613A,87.3095,44.0142,昌吉回族自治州,亚心广场,,,19,40,,11,94,,51,51,10,34,13,5,0.4,0.7
2024-09-10T1400,1119A,125.3325,43.9166,长春市,食品厂,,21,10,24,3,13,65,,49,35,10,18,4,4,0.2,0.5
2024-09-10T1400,1120A,125.2863,43.9027,长春市,客车厂,,21,10,23,6,13,65,,50,37,10,16,6,6,0.3,0.5
2024-09-10T1400,1121A,125.2841,43.8463,长春市,邮电学院,,22,6,20,6,13,68,,48,34,8,13,6,6,0.2,0.4
2024-09-10T1400,1122A,125.3716,43.8772,长春市,劳动公园,,23,,25,7,14,73,,57,45,8,15,8,7,0.4,0.4
2024-09-10T1400,1123A,125.3297,43.8805,长春市,园林处,,29,29,26,3,13,67,,59,44,7,9,4,4,0.3,0.5
2024-09-10T1400,1124A,125.4605,43.79,长春市,净月潭,,21,13,19,3,12,66,,51,30,6,8,6,6,0.2,0.4
2024-09-10T1400,1125A,125.7194,43.515,长春市,甩湾子,,,,,,,,,,,,,,,,
2024-09-10T1400,1126A,125.3863,43.8447,长春市,经开区环卫处,,40,40,23,3,10,67,,52,36,9,15,7,7,0.3,0.5
2024-09-10T1400,1127A,125.245,43.7783,长春市,高新区管委会,,22,9,19,3,12,68,,55,38,4,11,4,4,0.2,0.5
2024-09-10T1400,1128A,125.1761,43.8325,长春市,岱山公园,,21,7,20,3,14,67,,51,37,7,15,4,3,0.2,0.4
2024-09-10T1400,1335A,113.0833,28.2325,长沙市,经开区环保局,,38,36,35,20,17,119,,100,100,5,14,3,2,0.4,0.4
2024-09-10T1400,1336A,112.8872,28.2189,长沙市,高开区环保局,,48,40,37,24,18,152,,117,117,7,19,3,3,0.6,0.7
2024-09-10T1400,1337A,113.0792,28.2053,长沙市,马坡岭,,40,33,35,24,21,127,,104,104,2,12,3,3,0.5,0.5
2024-09-10T1400,1338A,112.9394,28.19,长沙市,湖南师范大学,,48,46,42,23,23,152,,109,109,3,14,6,6,0.6,0.7
2024-09-10T1400,1339A,113.0178,28.1322,长沙市,雨花区环保局,,45,36,41,23,22,142,,103,103,6,25,5,5,0.4,0.4
2024-09-10T1400,1340A,112.9792,28.2597,长沙市,伍家岭,,47,39,38,19,20,150,,98,98,3,13,2,1,0.5,0.6
2024-09-10T1400,1341A,113.0014,28.1944,长沙市,火车新站,,43,39,37,17,21,136,,103,103,2,15,3,3,0.4,0.4
2024-09-10T1400,1342A,112.9844,28.1178,长沙市,天心区环保局,,46,46,42,16,18,144,,104,104,8,14,3,3,0.7,0.9
2024-09-10T1400,1343A,112.8908,28.1308,长沙市,湖南中医药大学,,50,50,50,34,25,153,,99,99,2,27,5,4,0.5,1
2024-09-10T1400,1344A,112.9581,28.3611,长沙市,沙坪,,41,28,32,19,20,130,,90,90,6,9,8,8,0.4,0.4
2024-09-10T1400,1727A,113.1147,36.1547,长治市,清华站,,27,8,25,3,16,84,,84,71,4,8,6,6,0.4,0.5
2024-09-10T1400,1728A,113.1031,36.1989,长治市,监测站,,26,12,29,7,15,81,,71,66,7,13,8,8,0.5,0.7
2024-09-10T1400,1730A,113.0886,36.2125,长治市,审计局,,26,11,24,9,16,83,,80,70,6,13,5,5,0.3,0.4
2024-09-10T1400,1731A,113.0844,36.1856,长治市,长治八中,,26,,28,16,20,82,,82,75,5,10,5,6,0.5,0.6
2024-09-10T1400,2845A,113.1569,36.1911,长治市,德盛苑,,29,15,28,3,16,91,,87,76,2,6,4,4,0.4,0.6
2024-09-10T1400,3568A,113.06,36.0464,长治市,向阳小学,,36,36,46,17,32,73,,89,59,7,9,6,6,0.5,0.5
2024-09-10T1400,3569A,112.8792,36.3144,长治市,屯留一中,,30,30,31,16,18,83,,72,63,17,12,9,7,0.7,0.4
2024-09-10T1400,3570A,113.235,36.3489,长治市,潞城四中,,27,24,30,10,20,86,,91,77,7,7,6,6,0.5,0.7
2024-09-10T1400,1854A,111.6975,28.9703,常德市,市二中,细颗粒物(PM2.5),54,49,52,38,39,158,,103,103,5,12,9,9,0.6,0.7
2024-09-10T1400,1857A,111.7158,29.1456,常德市,白鹤山,,,,,,,,,,,,,,,,
2024-09-10T1400,3138A,111.7153,29.0289,常德市,武陵区永安,细颗粒物(PM2.5),52,42,62,36,48,156,,102,102,6,12,8,9,0.5,0.7
2024-09-10T1400,3139A,111.6892,28.9881,常德市,鼎城区玉霞,,50,37,56,30,40,157,,100,100,5,12,7,6,0.6,0.7
2024-09-10T1400,3140A,111.6625,29.0531,常德市,武陵区长庚,,48,36,61,32,44,151,,101,101,5,11,9,13,0.5,0.6
2024-09-10T1400,1196A,119.9633,31.762,常州市,市监测站,,36,36,38,17,21,112,,82,82,2,13,6,7,0.3,0.5
2024-09-10T1400,1200A,119.9468,31.7069,常州市,武进监测站,,35,33,30,18,17,111,,88,88,4,15,8,9,0.7,0.8
2024-09-10T1400,1201A,119.9255,31.9087,常州市,安家,,32,32,38,14,22,79,,58,58,5,20,7,8,0.7,0.9
2024-09-10T1400,3002A,119.9805,31.8174,常州市,行政中心,,40,40,31,19,18,96,,74,74,8,18,6,7,0.3,0.4
2024-09-10T1400,3003A,120.0522,31.7748,常州市,经开区,,35,35,40,15,20,99,,73,73,5,15,10,11,0.5,0.6
2024-09-10T1400,3010A,119.9025,31.7964,常州市,钟楼,,30,27,33,17,19,95,,75,75,9,17,7,8,0.5,0.6
2024-09-10T1400,3429A,119.8598,31.7066,常州市,武进经发区,,34,34,36,22,21,108,,78,78,8,17,10,10,0.4,0.6
2024-09-10T1400,3430A,119.5826,31.7245,常州市,金坛城区,,35,34,28,24,21,112,,84,84,7,19,8,8,0.5,0.7
2024-09-10T1400,2220A,120.4318,41.5881,朝阳市,西梁,,20,9,28,3,16,64,,36,36,4,16,6,6,0.3,0.8
2024-09-10T1400,2221A,120.4521,41.5646,朝阳市,河畔小区,,20,6,32,3,20,62,,49,49,4,12,6,7,0.5,0.9
2024-09-10T1400,2222A,120.4176,41.5648,朝阳市,八里堡,,21,,30,8,21,66,,41,41,7,19,9,8,0.5,1
2024-09-10T1400,2223A,120.3806,41.5969,朝阳市,农业园区,,20,19,29,3,27,64,,39,39,4,10,10,8,0.7,0.9
2024-09-10T1400,1705A,116.6367,23.6719,潮州市,西园路,,25,20,21,17,10,46,,37,37,4,10,5,5,0.2,0.4
2024-09-10T1400,3026A,116.6183,23.6608,潮州市,市政府,,22,22,25,12,11,53,,45,45,2,11,4,6,0.4,0.7
2024-09-10T1400,4036A,116.6461,23.6761,潮州市,金山,,35,35,20,12,12,53,,44,44,2,8,6,6,0.5,0.6
2024-09-10T1400,2472A,113.0073,25.9061,郴州市,马头岭,,30,21,21,9,7,93,,63,63,2,7,8,9,0.2,0.3
2024-09-10T1400,2473A,113.0116,25.8226,郴州市,市职中,,37,25,24,21,15,117,,72,72,8,13,7,8,0.5,0.6
2024-09-10T1400,2474A,113.0161,25.8001,郴州市,兴隆步行街,,42,42,30,20,15,128,,72,72,8,13,17,13,0.6,0.6
2024-09-10T1400,2475A,113.0383,25.8071,郴州市,市审计局,,40,25,22,19,15,127,,66,66,6,16,15,10,0.5,0.5
2024-09-10T1400,2476A,113.0348,25.7759,郴州市,市环保局,,40,27,27,15,15,127,,61,61,8,16,27,11,0.6,0.6
2024-09-10T1400,1431A,103.9728,30.7236,成都市,金泉两河,,38,6,25,3,11,121,,75,75,3,6,3,3,0.3,0.4
2024-09-10T1400,1432A,104.176,30.6872,成都市,十里店,,35,,18,3,8,109,,75,75,10,14,2,2,0.2,0.3
2024-09-10T1400,1433A,104.079,30.5706,成都市,三瓦窑,,46,22,18,3,13,146,,93,93,10,14,2,2,0.5,0.5
2024-09-10T1400,1434A,104.1114,30.63,成都市,沙河铺,,43,23,22,9,10,137,,85,85,11,11,7,7,0.4,0.4
2024-09-10T1400,1437A,104.0786,30.6531,成都市,君平街,,41,13,20,3,13,130,,83,83,9,11,3,3,0.4,0.5
2024-09-10T1400,1438A,103.613,31.0283,成都市,灵岩寺,,,,,,,,,,,,,,,,
2024-09-10T1400,2880A,104.0239,30.65639,成都市,大石西路,,37,21,24,9,15,118,,74,74,8,11,5,5,0.4,0.7
2024-09-10T1400,3136A,104.2725,30.5589,成都市,龙泉驿区区政府,,38,14,12,3,7,121,,88,88,6,9,4,4,0.4,0.4
2024-09-10T1400,3357A,104.0106,30.6931,成都市,金博路,,37,,20,3,12,117,,71,71,4,9,2,2,0.3,0.3
2024-09-10T1400,3359A,104.0578,30.5225,成都市,华阳,,41,19,18,3,5,131,,77,77,9,12,3,3,0.6,0.5
2024-09-10T1400,3487A,104.2394,30.5319,成都市,车城东七路,,42,18,18,12,12,132,,90,90,7,11,3,3,0.5,0.5
2024-09-10T1400,3488A,104.3853,30.7453,成都市,青白江技师分院,,39,,19,3,11,122,,82,82,5,15,2,2,0.4,0.4
2024-09-10T1400,3489A,104.0789,30.4072,成都市,科学城,,42,14,14,9,10,132,,91,91,3,8,3,3,0.4,0.4
2024-09-10T1400,4011A,103.8506,30.6947,成都市,光华大道三段,,42,,22,3,11,132,,93,93,4,8,2,2,0.4,0.5
2024-09-10T1400,1062A,117.9531,40.9081,承德市,铁路,,21,21,35,8,19,56,,28,28,14,31,7,9,0.2,0.6
2024-09-10T1400,1063A,117.9392,40.9763,承德市,中国银行,,20,16,31,3,14,64,,39,39,12,20,5,5,0.1,0.6
2024-09-10T1400,1064A,117.9503,40.928,承德市,开发区,,19,11,33,9,20,59,,35,35,14,22,5,7,0.3,0.7
2024-09-10T1400,1065A,117.8051,40.9655,承德市,文化中心,,22,15,31,3,15,68,,48,48,7,15,8,9,0.4,0.6
2024-09-10T1400,1066A,117.9268,41.0026,承德市,离宫,,18,14,25,9,24,57,,30,30,7,7,3,3,0.3,0.5
2024-09-10T1400,2314A,117.47,30.6618,池州市,池州学院,,45,45,34,30,21,133,,101,101,8,13,8,7,0.5,0.6
2024-09-10T1400,3237A,117.4918,30.6617,池州市,展览馆,,43,43,32,29,18,131,,102,102,7,11,7,8,0.6,0.7
2024-09-10T1400,3333A,117.5627,30.695,池州市,第八中学,,46,37,34,32,20,113,,95,95,8,13,5,5,0.4,0.6
2024-09-10T1400,3334A,117.5038,30.6243,池州市,第十二中学,,46,46,33,26,19,130,,96,96,8,16,6,5,0.5,0.7
2024-09-10T1400,1744A,118.9233,42.2816,赤峰市,松山一中,,24,13,16,6,6,75,,52,49,13,19,8,9,0.4,0.5
2024-09-10T1400,1745A,118.9576,42.2728,赤峰市,哈达街,,24,8,16,3,4,76,,51,49,11,14,7,9,0.1,0.3
2024-09-10T1400,1746A,118.8788,42.2554,赤峰市,天义路,,24,6,9,3,7,74,,51,49,10,15,6,7,0.2,0.4
2024-09-10T1400,3058A,119.2658,42.0353,赤峰市,银河街,,24,18,24,3,12,76,,49,47,9,17,13,15,0.2,0.5
2024-09-10T1400,3286A,118.9359,42.3147,赤峰市,桥北物流园区,,25,,17,3,14,79,,48,48,7,18,6,7,0.3,0.5
2024-09-10T1400,2521A,107.3476,22.4136,崇左市,市环保局江州分局,,17,9,16,3,7,53,,41,41,2,5,6,6,0.6,0.6
2024-09-10T1400,2522A,107.3702,22.3707,崇左市,城南新区,,19,10,15,7,7,59,,44,44,2,6,2,3,0.6,0.6
2024-09-10T1400,2298A,118.3093,32.3153,滁州市,老年大学,,37,28,35,20,20,117,,78,78,3,16,8,8,0.3,0.4
2024-09-10T1400,2299A,118.3244,32.2786,滁州市,人大宾馆,,39,37,37,22,23,123,,79,79,16,18,6,7,0.5,0.5
2024-09-10T1400,3207A,118.3118,32.3038,滁州市,市政府原办公楼,,35,23,31,22,24,112,,73,73,4,16,7,9,0.4,0.5
2024-09-10T1400,3331A,118.3267,32.2634,滁州市,图书馆,,40,29,33,16,22,125,,82,82,3,15,5,7,0.4,0.5
2024-09-10T1400,2605A,101.5482,25.0441,楚雄彝族自治州,州环境监测站,,25,17,11,6,4,80,,64,64,6,10,8,8,0.4,0.5
2024-09-10T1400,2606A,101.538,25.0492,楚雄彝族自治州,市经济开发区,,25,18,16,6,7,79,,64,64,7,12,14,12,0.6,0.7
2024-09-10T1400,2548A,107.5277,31.2827,达州市,达州职业技术学院,,33,12,25,6,9,103,,,,3,8,5,6,0.5,0.5
2024-09-10T1400,2549A,107.5086,31.2186,达州市,市环境监测站,,40,22,27,7,11,127,,63,63,13,26,12,7,0.8,0.5
2024-09-10T1400,2550A,107.4988,31.2132,达州市,凤凰小区,,42,17,22,9,14,134,,67,67,13,21,16,7,1.0,0.5
2024-09-10T1400,2551A,107.5082,31.1986,达州市,达县机关宾馆,,41,22,27,8,12,131,,76,76,16,27,9,5,0.5,0.4
2024-09-10T1400,2552A,107.4644,31.2124,达州市,市政中心,,40,32,32,12,12,127,,72,72,16,24,15,4,0.9,0.4
2024-09-10T1400,2614A,100.1542,25.7054,大理白族自治州,大理市环境监测站,,27,13,17,3,10,86,,70,70,4,13,4,4,0.5,0.6
2024-09-10T1400,2615A,100.2171,25.5811,大理白族自治州,大理古城,,23,12,16,9,7,72,,54,54,6,9,8,8,0.4,0.4
2024-09-10T1400,1109A,121.612,38.9741,大连市,甘井子,,34,34,32,16,16,80,,63,58,18,22,11,10,0.3,0.4
2024-09-10T1400,1110A,121.565,38.9511,大连市,周水子,,38,38,29,13,16,65,,52,48,25,23,7,8,0.7,0.6
2024-09-10T1400,1111A,121.5637,38.8845,大连市,星海三站,,35,35,27,17,18,77,,62,59,18,13,9,8,0.5,0.5
2024-09-10T1400,1112A,121.6302,38.9117,大连市,青泥洼桥,,42,42,32,19,18,80,,58,57,20,17,11,10,0.8,0.8
2024-09-10T1400,1113A,121.6251,38.8638,大连市,傅家庄,,35,35,26,19,17,91,,74,71,15,13,10,10,0.7,0.7
2024-09-10T1400,1114A,121.5213,38.8661,大连市,七贤岭,,39,39,27,16,18,73,,60,60,19,13,8,7,0.6,0.4
2024-09-10T1400,1115A,121.2529,38.8061,大连市,旅顺,,27,27,21,18,16,80,,63,63,13,18,10,8,0.6,0.5
2024-09-10T1400,1116A,121.7485,39.1311,大连市,金州,,24,22,22,13,18,76,,59,59,13,15,10,10,0.6,0.6
2024-09-10T1400,1117A,121.7811,39.0496,大连市,开发区,,33,33,28,13,18,79,,67,67,11,16,9,10,0.5,0.5
2024-09-10T1400,1118A,121.9762,39.0631,大连市,双D港,,25,24,21,10,17,80,,70,70,14,14,8,7,0.6,0.7
2024-09-10T1400,1789A,124.81117,46.03138,大庆市,大同区,,43,43,32,10,20,60,,52,52,3,6,4,4,0.3,0.5
2024-09-10T1400,1790A,125.129,46.533,大庆市,龙凤区,,49,49,47,15,18,60,,51,51,10,10,4,4,0.5,0.4
2024-09-10T1400,1791A,124.902,46.408,大庆市,红岗区,,22,22,31,9,15,62,,54,54,5,8,6,5,0.2,0.4
2024-09-10T1400,1792A,125.153,46.586,大庆市,萨尔图区,,19,19,36,3,12,59,,50,50,5,9,4,5,0.3,0.4
2024-09-10T1400,1793A,124.9042,46.6215,大庆市,让胡路区,,20,20,34,7,18,59,,50,50,4,6,4,4,0.3,0.4
2024-09-10T1400,3481A,125.141,46.634,大庆市,萨区政府监测点,,20,17,33,3,11,63,,52,52,2,8,5,6,0.3,0.5
2024-09-10T1400,1721A,113.3819,40.1097,大同市,果树场,,,,,,,,,,,,,,,,
2024-09-10T1400,1723A,113.2994,40.0758,大同市,云冈宾馆,,28,7,8,3,6,88,,67,65,13,12,8,7,0.4,0.4
2024-09-10T1400,1724A,113.3444,40.0917,大同市,大同大学,,27,,16,9,8,86,,65,65,6,11,9,9,0.2,0.3
2024-09-10T1400,1725A,113.2661,40.1269,大同市,安家小村,,28,14,22,7,5,88,,60,60,8,9,12,10,0.8,0.7
2024-09-10T1400,1726A,113.2711,40.0844,大同市,教育学院,,26,17,22,11,8,81,,63,61,10,10,8,7,0.4,0.5
2024-09-10T1400,3282A,113.3397,40.0597,大同市,大同市卫生学校,,26,10,17,3,7,81,,64,64,5,8,7,7,0.3,0.5
2024-09-10T1400,3565A,113.1367,40.1122,大同市,云冈站,,27,7,27,3,6,86,,60,60,10,9,9,9,0.2,0.3
2024-09-10T1400,3566A,113.1186,40.2556,大同市,图书馆,,28,10,21,3,6,87,,58,58,8,11,9,10,0.4,0.7
2024-09-10T1400,3567A,113.5931,40.0461,大同市,区一中,,25,8,12,3,8,77,,72,72,8,7,9,8,0.4,0.5
2024-09-10T1400,3676A,113.2802,40.0995,大同市,第二人民医院,,27,13,20,10,9,86,,64,63,10,12,11,10,0.4,0.4
2024-09-10T1400,2269A,124.1069,50.4097,大兴安岭地区,科技局,,21,18,29,7,14,66,,60,59,2,3,5,5,0.1,0.2
2024-09-10T1400,3663A,124.1164,50.4278,大兴安岭地区,红旗社区,,22,22,28,3,5,61,,54,53,3,3,4,5,0.2,0.3
2024-09-10T1400,1600A,124.3303,40.0625,丹东市,江湾东路,,28,28,40,10,22,71,,58,58,6,17,4,7,0.7,0.9
2024-09-10T1400,1601A,124.4256,40.1503,丹东市,临江后街,,27,14,52,3,22,86,,68,68,4,15,6,7,0.6,0.8
2024-09-10T1400,1602A,124.3933,40.1461,丹东市,元宝山,,22,14,35,12,19,70,,54,54,10,16,3,4,0.5,1.1
2024-09-10T1400,1603A,124.3633,40.1092,丹东市,民主桥,,34,34,38,13,18,77,,62,62,4,15,4,7,0.7,0.9
2024-09-10T1400,3541A,109.5726,19.5167,儋州市,第一中学子站,,19,19,13,10,6,35,,27,27,3,4,4,4,0.5,0.5
2024-09-10T1400,3542A,109.5567,19.5187,儋州市,东坡学校子站,,17,17,11,6,5,39,,27,27,3,4,4,3,0.5,0.5
2024-09-10T1400,2616A,98.5842,24.428,德宏傣族景颇族自治州,德宏州监测站,,40,40,41,22,23,79,,25,25,10,13,15,10,0.7,0.9
2024-09-10T1400,3677A,98.5881,24.4368,德宏傣族景颇族自治州,芒市人民政府综合楼,,45,45,37,30,23,87,,34,34,11,11,14,11,0.8,0.9
2024-09-10T1400,1901A,104.4239,31.1208,德阳市,东山公园,,34,13,16,3,10,106,,72,72,4,10,2,3,0.5,0.6
2024-09-10T1400,1902A,104.3826,31.1317,德阳市,西小区,,32,10,18,3,12,100,,72,72,3,11,2,4,0.5,0.5
2024-09-10T1400,1904A,104.3553,31.1091,德阳市,耐火材料厂,,32,7,18,3,13,101,,70,70,2,10,3,4,0.5,0.5
2024-09-10T1400,3639A,104.4019,31.1244,德阳市,市教育局,,33,11,20,3,11,103,,70,70,3,11,1,2,0.6,0.6
2024-09-10T1400,1622A,116.3032,37.4674,德州市,儿童乐园,,20,12,29,7,20,61,,74,61,9,10,7,8,0.5,0.7
2024-09-10T1400,1624A,116.2991,37.4451,德州市,监理站,,,7,29,7,19,62,,78,63,,8,6,7,0.6,0.7
2024-09-10T1400,3066A,116.2721,37.4379,德州市,九衢泉纯净水厂,,20,7,32,7,20,61,,77,64,9,12,7,7,0.7,0.8
2024-09-10T1400,3371A,116.3728,37.4403,德州市,开发区人民医院,,20,7,31,7,16,61,,75,65,8,12,6,7,0.5,0.7
2024-09-10T1400,3372A,116.3572,37.4094,德州市,太阳城中学,,20,12,29,3,18,63,,78,68,9,14,8,9,0.5,0.7
2024-09-10T1400,3511A,116.5652,37.3319,德州市,陵城艺术中心,,21,9,34,3,16,65,,74,69,8,12,9,9,0.5,0.6
2024-09-10T1400,2621A,99.7056,27.8317,迪庆藏族自治州,迪庆州站,,,11,19,10,10,101,,85,85,,13,8,9,,0.5
2024-09-10T1400,3180A,99.7136,27.8094,迪庆藏族自治州,质量技术监督局,,31,13,15,3,7,99,,82,82,8,11,8,8,0.2,0.5
2024-09-10T1400,2663A,104.6241,35.5734,定西市,东关小学,,30,,24,16,18,95,,92,92,3,7,4,4,0.2,0.2
2024-09-10T1400,2664A,104.6194,35.5934,定西市,供电公司,,31,18,26,16,18,97,,90,90,1,8,6,6,0.2,0.2
2024-09-10T1400,1389A,113.7547,23.0494,东莞市,莞城梨川,,34,22,26,11,13,107,,62,62,14,27,5,5,0.7,0.8
2024-09-10T1400,1390A,113.7944,23.0128,东莞市,东城石井,,32,21,26,14,12,101,,64,64,8,22,5,5,0.3,0.5
2024-09-10T1400,1391A,113.7383,22.9658,东莞市,南城西平,,38,27,35,18,14,121,,75,75,9,29,3,4,0.6,0.7
2024-09-10T1400,3319A,113.7338,23.0381,东莞市,万江金泰,,,,27,10,13,110,,68,68,7,30,12,10,0.5,0.6
2024-09-10T1400,3626A,113.7533,23.0202,东莞市,南城元岭,,38,29,31,14,15,119,,79,79,4,30,8,8,0.5,0.6
2024-09-10T1400,3627A,113.7875,23.0457,东莞市,东城主山,,36,21,28,11,12,113,,73,73,7,28,10,9,0.6,0.7
2024-09-10T1400,1666A,118.6614,37.4309,东营市,市环保局,颗粒物(PM10),53,56,46,7,19,96,,101,101,6,23,4,9,0.1,0.5
2024-09-10T1400,3036A,118.6904,37.4338,东营市,开发区管委会,颗粒物(PM10),67,83,50,12,21,96,,102,102,8,21,5,11,0.1,0.4
2024-09-10T1400,3365A,118.5719,37.565,东营市,垦利区民丰路,,46,46,51,9,23,81,,92,92,2,19,5,7,0.9,1.2
2024-09-10T1400,3498A,118.5055,37.8612,东营市,河口城区,,34,34,51,3,20,72,,67,67,8,16,8,9,0.5,0.8
2024-09-10T1400,3646A,118.4978,37.4623,东营市,胜利站,颗粒物(PM10),80,109,51,7,22,82,,90,90,6,26,5,7,0.4,0.8
2024-09-10T1400,3734A,118.35,37.26,东营市,理想之城,,,,37,,18,,,169,,,24,,8,,0.4
2024-09-10T1400,1591A,110.0023,39.8129,鄂尔多斯市,综合楼,,29,27,29,3,5,91,,63,63,8,16,9,11,0.5,0.6
2024-09-10T1400,1592A,109.9486,39.8261,鄂尔多斯市,巴音孟克林场办事处,,29,29,26,3,8,83,,62,62,10,15,7,7,0.4,0.5
2024-09-10T1400,1593A,109.7736,39.5986,鄂尔多斯市,康泽苑,,30,22,27,3,7,96,,62,62,4,9,7,7,0.3,0.4
2024-09-10T1400,1594A,109.8119,39.5989,鄂尔多斯市,华泰汽车城,,29,17,26,7,10,92,,60,60,16,12,6,7,0.4,0.4
2024-09-10T1400,1595A,109.9734,39.7884,鄂尔多斯市,奥林花园,,29,29,30,7,8,82,,61,61,10,16,7,7,0.5,0.6
2024-09-10T1400,2436A,114.8938,30.3994,鄂州市,市政府,臭氧1小时,53,27,48,18,25,162,,124,124,9,19,10,11,0.7,0.9
2024-09-10T1400,2437A,114.8989,30.3714,鄂州市,赵家坝,,50,35,52,16,22,158,,112,112,7,21,9,11,0.9,0.9
2024-09-10T1400,3654A,114.8094,30.4089,鄂州市,精准医疗中心,,48,32,44,17,22,152,,117,117,6,17,7,8,0.6,0.8
2024-09-10T1400,2454A,109.4978,30.2981,恩施土家族苗族自治州,湖北民院,,45,23,22,20,19,142,,93,93,7,18,9,9,0.8,0.9
2024-09-10T1400,2455A,109.4707,30.2798,恩施土家族苗族自治州,州电力总公司,,41,20,22,11,15,129,,81,81,9,17,8,8,0.5,0.5
2024-09-10T1400,3549A,109.5061,30.3772,恩施土家族苗族自治州,龙凤新区,,41,26,23,23,17,130,,95,95,9,13,6,6,0.7,0.7
2024-09-10T1400,2499A,108.3411,21.6158,防城港市,沙万,,13,9,23,3,11,29,,34,26,26,18,5,7,0.5,0.7
2024-09-10T1400,2500A,108.3514,21.7731,防城港市,防城档案局,,21,21,22,3,9,36,,25,25,16,14,8,7,0.6,0.6
2024-09-10T1400,2501A,108.3506,21.6414,防城港市,大海花园,,13,,16,6,10,22,,28,19,26,14,9,6,1.1,0.6
2024-09-10T1400,1371A,113.1294,23.0067,佛山市,湾梁,臭氧1小时,80,,23,28,18,184,,92,92,17,34,7,7,0.7,0.8
2024-09-10T1400,1372A,113.1083,23.0478,佛山市,华材职中,,49,19,29,16,15,156,,79,79,16,39,7,8,0.3,0.4
2024-09-10T1400,1373A,113.144,23.0453,佛山市,南海气象局,臭氧1小时,68,29,26,15,13,174,,76,76,11,30,6,6,0.5,0.5
2024-09-10T1400,1374A,113.2881,22.8094,佛山市,顺德苏岗,,48,13,21,7,11,152,,83,83,10,30,9,8,0.5,0.6
2024-09-10T1400,1376A,112.8383,22.8678,佛山市,高明孔堂,臭氧1小时,105,31,27,23,11,209,,72,72,19,22,6,6,0.7,0.7
2024-09-10T1400,1377A,112.8836,23.1588,佛山市,三水监测站,臭氧1小时,90,36,27,28,13,192,,86,86,15,33,6,8,0.4,0.4
2024-09-10T1400,1378A,112.867,23.185,佛山市,三水云东海,臭氧1小时,75,35,30,23,19,180,,83,83,14,26,8,8,0.6,0.6
2024-09-10T1400,3625A,113.2544,22.7642,佛山市,容桂街道办,,50,17,24,14,15,159,,86,86,13,35,7,7,0.5,0.7
2024-09-10T1400,1280A,119.3903,26.0543,福州市,鼓山,,,,,,,,,,,,,,,,
2024-09-10T1400,1282A,119.2681,26.0504,福州市,师大,,35,28,26,20,15,110,,65,65,4,7,4,4,0.3,0.3
2024-09-10T1400,1283A,119.2984,26.1028,福州市,五四北路,,,,25,21,16,101,,67,67,3,8,4,4,0.4,0.4
2024-09-10T1400,1284A,119.2648,26.0768,福州市,杨桥西路,,36,30,28,23,18,115,,70,70,3,8,4,4,0.3,0.3
2024-09-10T1400,1285A,119.317,26.0746,福州市,紫阳,,,,,,,,,,,,,,,,
2024-09-10T1400,3048A,119.5799,26.0936,福州市,九龙,,38,36,26,26,15,115,,74,74,3,4,8,7,0.5,0.4
2024-09-10T1400,3526A,119.5189,25.9664,福州市,吴航,,34,23,27,20,20,108,,65,65,1,5,7,6,0.3,0.2
2024-09-10T1400,1755A,123.7977,41.8491,抚顺市,望花区,,20,18,34,3,19,62,,59,50,22,22,9,10,0.4,0.9
2024-09-10T1400,1756A,123.9161,41.8822,抚顺市,顺城区,,18,16,28,7,19,57,,63,46,24,27,6,5,0.3,0.8
2024-09-10T1400,1757A,124.0436,41.8611,抚顺市,东洲区,,16,13,20,3,16,49,,66,42,10,11,10,9,0.4,0.6
2024-09-10T1400,1758A,123.9247,41.8642,抚顺市,新抚区,,14,12,25,8,17,42,,60,41,25,21,8,7,0.2,0.6
2024-09-10T1400,1759A,124.0972,41.8961,抚顺市,大伙房水库,,35,35,24,8,14,38,,79,45,20,8,14,6,0.5,0.5
2024-09-10T1400,1760A,123.7086,41.8391,抚顺市,沈抚新城,,21,6,26,3,16,65,,62,58,23,20,7,6,0.1,0.3
2024-09-10T1400,2376A,116.2127,28.0814,抚州市,桐源党溪,,38,28,29,10,15,119,,72,72,3,8,9,12,0.5,0.5
2024-09-10T1400,2377A,116.3544,27.9831,抚州市,市站,,32,28,30,12,14,102,,71,71,3,9,5,5,0.7,0.7
2024-09-10T1400,2378A,116.3565,27.963,抚州市,血防站,,33,30,28,14,15,104,,70,70,5,12,9,6,0.8,0.8
2024-09-10T1400,2379A,116.3564,28.0007,抚州市,采茶剧团,,33,23,29,9,15,103,,66,66,2,8,6,5,0.6,0.6
2024-09-10T1400,2380A,116.385,27.9647,抚州市,医学分院,,34,34,31,8,13,105,,68,68,5,11,4,4,0.5,0.6
2024-09-10T1400,2207A,121.6094,41.998,阜新市,工业园区,,22,10,29,7,14,68,,50,35,13,14,11,7,0.4,0.7
2024-09-10T1400,2208A,121.6697,42.0279,阜新市,长青街,,20,17,26,6,16,61,,50,38,13,9,11,7,0.4,0.5
2024-09-10T1400,2209A,121.6673,42.0705,阜新市,农业园区,,20,20,21,3,17,62,,44,43,12,11,5,5,0.3,0.5
2024-09-10T1400,2210A,121.6717,42.0224,阜新市,东苑,,22,22,26,3,15,61,,52,42,15,12,14,11,0.6,0.7
2024-09-10T1400,2211A,121.6506,42.0498,阜新市,玉龙新城,,,14,25,7,15,62,,36,33,13,15,,7,0.3,0.5
2024-09-10T1400,2301A,115.8277,32.8929,阜阳市,市监测站,,40,31,32,17,16,127,,89,89,4,9,6,8,0.4,0.5
2024-09-10T1400,2303A,115.8554,32.8605,阜阳市,开发区,,41,33,40,19,22,130,,87,87,7,13,6,8,0.5,0.6
2024-09-10T1400,2875A,115.784,32.8892,阜阳市,阜阳职业技术学院,,41,22,33,13,18,131,,92,92,4,10,7,10,0.4,0.5
2024-09-10T1400,3468A,115.7901,32.8613,阜阳市,市规划展馆,,42,27,36,15,22,133,,94,94,6,12,5,8,0.5,0.6
2024-09-10T1400,3469A,115.836,32.9183,阜阳市,枣园社区,,40,35,36,18,21,128,,88,88,5,12,6,6,0.5,0.6
2024-09-10T1400,2669A,102.9099,34.9841,甘南藏族自治州,州政府,,29,11,12,11,14,90,,91,78,2,5,9,8,0.5,0.5
2024-09-10T1400,3380A,102.8914,34.9617,甘南藏族自治州,甘肃民族师范学院,,26,,5,8,6,81,,86,73,2,5,4,4,0.5,0.5
2024-09-10T1400,2570A,101.9603,30.0475,甘孜藏族自治州,水桥子,,26,,6,3,5,81,,48,48,6,12,5,5,0.3,0.3
2024-09-10T1400,3065A,101.9533,29.9972,甘孜藏族自治州,州环保局,,30,12,10,3,6,95,,56,56,6,15,3,3,0.2,0.2
2024-09-10T1400,3414A,115.8347,28.932,赣江新区,桑海产业园,,36,17,39,13,20,114,,91,91,6,19,11,12,0.2,0.2
2024-09-10T1400,2362A,114.9017,25.9149,赣州市,通天岩,,,,,,,,,,,,,,,,
2024-09-10T1400,2363A,114.9367,25.8664,赣州市,地委,,34,27,27,20,14,106,,79,79,6,11,15,13,0.9,0.9
2024-09-10T1400,2364A,114.9461,25.8481,赣州市,气象台,,34,26,25,16,13,107,,78,78,2,9,6,5,0.7,0.8
2024-09-10T1400,2365A,114.9322,25.8333,赣州市,市图书馆,,42,24,21,15,11,133,,92,92,4,9,5,4,0.8,0.8
2024-09-10T1400,2366A,114.8905,25.8471,赣州市,华坚鞋城,,38,32,29,16,11,120,,80,80,6,11,2,1,0.5,0.5
2024-09-10T1400,3109A,115.0093,25.8613,赣州市,赣县区卫计委,,39,36,22,15,11,122,,74,74,8,11,7,7,0.6,0.6
2024-09-10T1400,2683A,106.2319,36.1417,固原市,马园,,26,11,26,3,9,81,,70,70,14,15,6,6,0.8,0.8
2024-09-10T1400,2684A,106.2792,36.0022,固原市,监测站,,29,6,15,3,8,91,,90,87,5,8,7,7,0.4,0.4
2024-09-10T1400,2685A,106.2375,36.0211,固原市,新区,,26,9,14,3,9,82,,80,75,3,6,7,8,0.3,0.3
2024-09-10T1400,3522A,106.2177,35.9959,固原市,原州区十五小,,30,6,18,3,11,96,,92,89,5,7,8,8,0.4,0.3
2024-09-10T1400,2543A,106.6308,30.5278,广安市,小平旧居,,,,,,,,,,,,,,,,
2024-09-10T1400,2544A,106.6303,30.4576,广安市,市委,,42,21,24,15,20,133,,97,97,9,12,3,4,0.4,0.4
2024-09-10T1400,2545A,106.6271,30.4663,广安市,友谊中学,,42,16,27,15,20,132,,102,102,12,14,4,4,0.4,0.5
2024-09-10T1400,2547A,106.6388,30.4551,广安市,广电花园,,42,20,28,10,20,134,,94,94,8,12,3,3,0.4,0.4
2024-09-10T1400,2902A,106.6351,30.4865,广安市,北辰小学,,45,25,34,17,20,142,,98,98,6,11,6,5,0.3,0.4
2024-09-10T1400,2523A,105.8945,32.4535,广元市,黑石坡,,22,10,13,3,10,68,,67,64,4,5,5,6,0.3,0.3
2024-09-10T1400,2524A,105.821,32.4444,广元市,老城,,25,11,13,9,7,79,,78,74,6,7,1,2,0.4,0.5
2024-09-10T1400,2526A,105.8628,32.4287,广元市,监测站,,27,14,14,6,7,86,,80,74,5,7,2,4,0.5,0.6
2024-09-10T1400,3617A,105.8047,32.4166,广元市,经开区,,25,14,12,6,6,80,,78,77,5,6,2,3,0.5,0.5
2024-09-10T1400,1345A,113.2347,23.1423,广州市,广雅中学,臭氧1小时,77,28,27,17,16,181,,94,94,20,40,6,5,0.9,1
2024-09-10T1400,1346A,113.2612,23.105,广州市,市五中,臭氧1小时,62,19,26,17,19,169,,96,96,10,30,4,4,0.7,0.8
2024-09-10T1400,1348A,113.3478,23.0916,广州市,广东商学院,,49,19,26,12,15,156,,81,81,14,34,4,4,0.6,0.7
2024-09-10T1400,1349A,113.4332,23.1047,广州市,市八十六中,,46,22,30,13,15,147,,79,79,13,41,4,4,0.5,0.6
2024-09-10T1400,1350A,113.3505,22.9483,广州市,番禺中学,臭氧1小时,82,31,25,19,14,185,,86,86,13,33,6,5,0.7,0.8
2024-09-10T1400,1351A,113.2146,23.3916,广州市,花都师范,,48,20,26,15,13,153,,85,85,10,25,4,4,0.7,0.7
2024-09-10T1400,1352A,113.2597,23.1331,广州市,市监测站,,50,25,26,17,16,158,,90,90,16,33,5,6,0.6,0.7
2024-09-10T1400,1353A,113.5618,23.312,广州市,九龙镇镇龙,,24,14,26,9,13,74,,54,54,5,22,6,6,0.5,0.6
2024-09-10T1400,1354A,113.2765,23.1544,广州市,麓湖,,43,28,27,14,14,135,,75,75,12,27,4,5,0.6,0.6
2024-09-10T1400,1355A,113.443,23.3035,广州市,帽峰山森林公园,,36,8,16,3,8,115,,69,69,3,15,4,5,0.4,0.5
2024-09-10T1400,2846A,113.3221,23.1322,广州市,体育西,,44,16,24,10,15,138,,80,80,7,27,5,6,0.5,0.6
2024-09-10T1400,3298A,113.5717,23.5491,广州市,从化街口,,28,15,22,11,12,88,,62,62,6,17,6,6,0.5,0.6
2024-09-10T1400,3299A,113.3472,23.3692,广州市,白云竹料,,37,18,30,8,15,116,,72,72,5,27,5,5,0.5,0.6
2024-09-10T1400,3300A,113.2981,23.237,广州市,白云嘉禾,,40,17,32,9,17,125,,80,80,14,41,5,5,0.7,0.9
2024-09-10T1400,3301A,113.4256,23.1716,广州市,黄埔科学城,,37,11,27,6,12,116,,72,72,3,24,2,2,0.6,0.8
2024-09-10T1400,3302A,113.3942,23.0483,广州市,番禺大学城,臭氧1小时,70,30,29,11,12,176,,85,85,13,32,6,7,0.5,0.6
2024-09-10T1400,3303A,113.4922,22.8168,广州市,南沙黄阁,臭氧1小时,89,44,35,19,17,191,,102,102,18,36,5,5,0.7,0.8
2024-09-10T1400,3304A,113.5342,22.7896,广州市,南沙街,臭氧1小时,89,31,27,16,15,191,,97,97,15,30,5,6,0.8,0.8
2024-09-10T1400,3443A,113.2902,23.5544,广州市,花都梯面,,33,20,24,13,13,103,,56,56,5,22,5,5,0.5,0.6
2024-09-10T1400,3445A,113.7858,23.7478,广州市,从化良口,,19,19,16,8,6,55,,40,40,4,8,6,6,0.6,0.7
2024-09-10T1400,3446A,113.8051,23.2614,广州市,增城荔城,,27,,21,16,11,84,,60,60,5,19,5,5,0.5,0.6
2024-09-10T1400,2505A,109.568,23.1478,贵港市,德智高中,,,,,,,,,,,,,,,,
2024-09-10T1400,2506A,109.6047,23.0666,贵港市,江南子站,,36,22,26,15,16,114,,58,58,7,15,10,11,0.6,0.7
2024-09-10T1400,2507A,109.6014,23.0948,贵港市,贵城子站,,36,36,33,13,20,110,,55,55,5,12,8,9,0.6,0.6
2024-09-10T1400,2508A,109.5669,23.1065,贵港市,荷城子站,,33,19,24,9,12,105,,60,60,5,8,10,12,0.4,0.4
2024-09-10T1400,3405A,109.5886,23.1172,贵港市,新世纪学校,,33,22,29,15,15,105,,56,56,2,8,10,10,0.5,0.6
2024-09-10T1400,1439A,106.6899,26.5998,贵阳市,马鞍山,,18,9,17,3,5,55,,29,29,5,14,4,3,0.3,0.5
2024-09-10T1400,1440A,106.6971,26.5694,贵阳市,市环保站,,29,,16,10,17,91,,57,57,7,18,3,3,0.3,0.4
2024-09-10T1400,1441A,106.6243,26.6266,贵阳市,鉴湖路,,24,17,18,3,8,75,,38,38,4,11,5,5,0.3,0.4
2024-09-10T1400,1442A,106.7487,26.6343,贵阳市,燕子冲,,28,,10,7,11,87,,47,47,4,14,5,5,0.3,0.5
2024-09-10T1400,1443A,106.6555,26.4365,贵阳市,碧云窝,,31,17,23,3,5,98,,49,49,5,12,4,4,0.3,0.4
2024-09-10T1400,1444A,106.694,26.5161,贵阳市,中院村,,29,12,22,3,9,90,,52,52,5,17,7,7,0.4,0.4
2024-09-10T1400,1445A,106.7109,26.6027,贵阳市,红边门,,27,12,20,12,19,86,,50,50,7,21,4,4,0.3,0.5
2024-09-10T1400,1446A,106.7164,26.5699,贵阳市,新华路,,29,,9,7,10,90,,54,54,4,17,2,4,0.3,0.5
2024-09-10T1400,1447A,106.674,26.5424,贵阳市,太慈桥,,29,6,12,3,4,90,,48,48,5,12,4,4,0.3,0.4
2024-09-10T1400,1552A,106.805,26.3003,贵阳市,桐木岭,,,,,,,,,,,,,,,,
2024-09-10T1400,1862A,110.4144,25.3167,桂林市,电子科大尧山校区,,40,38,35,25,12,125,,50,50,5,5,7,7,0.6,0.5
2024-09-10T1400,1863A,110.2819,25.2697,桂林市,监测站,颗粒物(PM10),52,54,26,22,16,116,,63,63,7,10,10,10,0.5,0.4
2024-09-10T1400,1864A,110.3089,25.2708,桂林市,龙隐路小学,,40,40,26,24,16,115,,66,66,6,8,9,12,0.5,0.5
2024-09-10T1400,1865A,110.2869,25.2178,桂林市,八中,,40,40,28,18,12,98,,57,57,5,7,7,7,0.4,0.5
2024-09-10T1400,3403A,110.1764,25.2381,桂林市,创业大厦,,39,39,32,27,24,104,,49,49,9,14,10,24,0.4,0.4
2024-09-10T1400,3531A,110.296,25.1253,桂林市,旅游学院,,27,12,12,7,10,84,,52,52,3,8,6,7,0.4,0.4
2024-09-10T1400,2674A,100.2561,34.4714,果洛藏族自治州,玛沁县大武镇,,32,7,13,7,10,101,,80,80,1,2,15,13,0.4,0.4
2024-09-10T1400,1129A,126.5422,45.755,哈尔滨市,岭北,,25,6,24,3,18,80,,72,72,5,9,7,8,0.3,0.4
2024-09-10T1400,1130A,126.561,45.8167,哈尔滨市,松北商大,,22,16,29,3,12,69,,54,54,6,12,7,7,0.4,0.6
2024-09-10T1400,1131A,126.979,45.5419,哈尔滨市,阿城会宁,,22,6,32,3,18,68,,53,53,8,12,11,11,0.4,0.6
2024-09-10T1400,1132A,126.599,45.7222,哈尔滨市,南岗学府路,,22,21,48,3,14,68,,61,,7,9,6,6,0.4,0.5
2024-09-10T1400,1133A,126.689,45.7733,哈尔滨市,太平宏伟公园,,22,17,34,6,13,68,,56,56,10,14,5,4,0.3,0.5
2024-09-10T1400,1134A,126.635,45.7667,哈尔滨市,道外承德广场,,26,26,40,3,16,63,,53,53,12,17,6,7,0.7,0.7
2024-09-10T1400,1135A,126.685,45.7319,哈尔滨市,香坊红旗大街,,23,22,34,3,17,72,,62,62,7,11,5,6,0.6,0.7
2024-09-10T1400,1136A,126.6411,45.7258,哈尔滨市,动力和平路,,22,9,35,3,18,70,,57,57,7,12,6,6,0.4,0.6
2024-09-10T1400,1137A,126.593,45.7478,哈尔滨市,道里建国路,,21,15,37,3,16,66,,55,55,5,7,6,9,0,0.4
2024-09-10T1400,1138A,126.615,45.61,哈尔滨市,平房东轻厂,,,,40,4,10,68,,54,54,9,14,5,5,0.1,0.3
2024-09-10T1400,1139A,126.595,45.9855,哈尔滨市,呼兰师专,,39,39,30,3,16,59,,48,48,10,13,10,11,0.3,0.5
2024-09-10T1400,1140A,126.6206,45.6842,哈尔滨市,省农科院,,28,28,45,3,18,62,,47,47,12,17,9,8,0.4,0.5
2024-09-10T1400,2688A,93.5128,42.8172,哈密市,地区监测站,,35,33,72,15,22,112,,56,56,6,37,6,5,0.2,0.4
2024-09-10T1400,2689A,93.4961,42.8328,哈密市,哈密师范学校,,36,35,64,16,20,114,,56,56,5,33,4,4,0.3,0.5
2024-09-10T1400,2671A,100.9048,36.9639,海北藏族自治州,海晏县西海镇,,,,15,,14,,,89,,,9,,14,,0.6
2024-09-10T1400,3867A,102.0738,36.5056,海东市,平安区公安北苑,,35,20,23,3,13,110,,72,72,8,13,23,18,0.4,0.6
2024-09-10T1400,1409A,110.576,19.9507,海口市,东寨港,,,,,,,,,,,,,,,,
2024-09-10T1400,1410A,110.3232,20.0574,海口市,海南大学,,16,13,13,7,9,50,,37,37,8,11,5,5,0.8,0.8
2024-09-10T1400,1411A,110.283,20.0053,海口市,秀英海南医院,,20,20,22,11,12,47,,40,40,12,18,4,4,0.3,0.3
2024-09-10T1400,1412A,110.338,19.9969,海口市,海南师范大学,,18,18,17,10,11,50,,43,43,8,15,5,5,0.4,0.4
2024-09-10T1400,1413A,110.33,20.0356,海口市,龙华路环保局宿舍,,22,22,21,11,12,44,,36,36,15,20,3,3,0.3,0.4
2024-09-10T1400,3539A,110.5111,19.9736,海口市,桂林洋子站,,,,,,,47,,41,41,5,9,4,3,0.4,0.1
2024-09-10T1400,2673A,100.6188,36.2866,海南藏族自治州,共和县恰卜恰镇,,31,13,16,8,4,97,,95,89,5,5,13,17,0.3,0.3
2024-09-10T1400,2676A,97.3731,37.3753,海西蒙古族藏族自治州,德令哈市,,29,13,39,9,15,92,,84,79,9,8,9,8,0.6,0.4
2024-09-10T1400,1048A,114.5302,36.6116,邯郸市,东污水处理厂,,23,23,44,3,26,64,,69,62,5,7,3,3,0.3,0.5
2024-09-10T1400,1049A,114.4918,36.5713,邯郸市,矿院,,22,19,48,3,25,70,,76,68,8,8,2,2,0.4,0.6
2024-09-10T1400,1050A,114.484,36.6133,邯郸市,丛台公园,,21,10,44,7,24,66,,73,66,9,7,2,2,0.3,0.5
2024-09-10T1400,3458A,114.7895,36.5593,邯郸市,香泉濮院小区,,25,20,43,17,23,68,,77,66,9,9,1,2,0.3,0.4
2024-09-10T1400,3579A,114.50634,36.77178,邯郸市,永年区实验高中,,27,27,55,8,36,73,,84,74,11,10,2,2,0.6,0.7
2024-09-10T1400,3580A,114.20016,36.44293,邯郸市,峰峰矿区临水派出所,,25,11,36,3,25,78,,80,72,7,4,2,3,0.4,0.4
2024-09-10T1400,2634A,106.9893,33.1842,汉中市,汉川机床厂子校,,25,22,16,6,7,80,,65,63,5,6,6,5,0.8,0.8
2024-09-10T1400,2635A,107.0154,33.0706,汉中市,市监测站,,28,18,13,3,10,88,,70,70,4,5,8,8,0.5,0.6
2024-09-10T1400,2636A,107.0089,33.1138,汉中市,鑫源开发区,,26,22,17,3,7,83,,67,66,10,8,14,14,0.5,0.5
2024-09-10T1400,2637A,107.007,33.0323,汉中市,南郑大河坎水厂,,24,15,11,6,9,74,,64,64,4,4,9,8,0.3,0.4
2024-09-10T1400,1223A,120.2072,30.2111,杭州市,滨江,"颗粒物(PM10),细颗粒物(PM2.5)",52,53,46,36,27,108,,63,63,10,14,6,6,0.7,0.6
2024-09-10T1400,1224A,120.0633,30.2747,杭州市,西溪,细颗粒物(PM2.5),54,40,38,38,31,117,,68,68,14,16,7,7,0.7,0.7
2024-09-10T1400,1226A,120.3461,30.3153,杭州市,下沙,,48,47,37,33,25,108,,66,66,21,23,8,9,0.7,0.5
2024-09-10T1400,1227A,120.1269,30.2456,杭州市,卧龙桥,细颗粒物(PM2.5),59,47,36,42,29,122,,70,70,14,15,7,7,0.6,0.5
2024-09-10T1400,1228A,120.1903,30.2692,杭州市,浙江农大,细颗粒物(PM2.5),53,46,36,37,27,107,,67,67,16,17,9,10,0.5,0.5
2024-09-10T1400,1230A,120.1197,30.3119,杭州市,和睦小学,,48,48,34,29,22,122,,74,74,15,14,8,8,0.6,0.5
2024-09-10T1400,1231A,120.3019,30.4183,杭州市,临平镇,,46,45,39,32,20,121,,72,72,9,11,5,6,0.6,0.5
2024-09-10T1400,1232A,120.2697,30.1819,杭州市,城厢镇,细颗粒物(PM2.5),54,49,43,38,33,109,,71,71,18,20,8,8,0.6,0.5
2024-09-10T1400,1233A,120.0883,30.1808,杭州市,云栖,,45,40,35,31,25,122,,71,71,10,15,7,8,0.6,0.6
2024-09-10T1400,3557A,119.9464,30.0494,杭州市,镇二中,,,35,42,,38,100,,59,59,17,19,9,10,0.6,0.6
2024-09-10T1400,3558A,119.7183,30.2367,杭州市,市府大楼,,45,43,39,31,28,116,,78,78,10,15,7,7,0.5,0.5
2024-09-10T1400,3656A,120.1556,30.2864,杭州市,消防大队,颗粒物(PM10),56,62,45,38,29,122,,70,70,10,11,8,9,0.7,0.6
2024-09-10T1400,1270A,117.1959,31.7848,合肥市,明珠广场,,32,19,27,17,18,102,,75,75,7,19,7,9,0.3,0.5
2024-09-10T1400,1271A,117.3072,31.8764,合肥市,三里街,,31,22,26,12,14,98,,63,63,4,16,6,7,0.3,0.4
2024-09-10T1400,1272A,117.2588,31.8707,合肥市,琥珀山庄,,32,24,27,18,15,101,,73,73,4,12,7,8,0.5,0.6
2024-09-10T1400,1273A,117.1604,31.9052,合肥市,董铺水库,,31,22,28,12,15,97,,70,70,4,13,3,3,0.3,0.4
2024-09-10T1400,1274A,117.25,31.8571,合肥市,长江中路,,31,31,33,20,18,98,,68,68,5,17,8,9,0.5,0.7
2024-09-10T1400,1275A,117.266,31.9436,合肥市,庐阳区,,40,27,33,14,15,125,,76,76,5,16,4,5,0.4,0.5
2024-09-10T1400,1276A,117.336,31.8586,合肥市,瑶海区,,31,19,28,16,15,99,,67,67,7,18,6,7,0.3,0.5
2024-09-10T1400,1277A,117.3027,31.7964,合肥市,包河区,,29,27,35,14,19,92,,67,67,9,30,6,8,0.2,0.4
2024-09-10T1400,1278A,117.2776,31.7385,合肥市,滨湖新区,,30,19,28,7,16,95,,74,74,4,13,6,7,0.4,0.5
2024-09-10T1400,1279A,117.1318,31.8403,合肥市,高新区,,30,24,30,13,14,93,,72,72,5,13,7,9,0.6,0.7
2024-09-10T1400,3464A,117.3803,31.9147,合肥市,高教基地,,37,26,27,17,16,118,,70,70,5,10,3,3,0.3,0.4
2024-09-10T1400,3614A,79.924,37.0877,和田地区,地区环保局,颗粒物(PM10),137,223,744,69,160,98,,95,94,2,5,6,6,0.4,0.5
2024-09-10T1400,3615A,79.9131,37.113,和田地区,市环保局,颗粒物(PM10),123,196,730,52,131,93,,92,89,4,6,6,6,0.5,0.6
2024-09-10T1400,2516A,108.2011,24.715,河池市,东仁乐园,,24,18,29,9,11,76,,48,48,5,8,4,4,0.5,0.5
2024-09-10T1400,2517A,108.0497,24.6947,河池市,市环保站,,25,21,23,17,8,72,,44,44,7,10,7,7,0.6,0.5
2024-09-10T1400,2518A,108.0983,24.6989,河池市,市疾控中心,,24,12,21,11,9,75,,44,44,8,14,9,9,0.6,0.6
2024-09-10T1400,1696A,114.6778,23.7569,河源市,源西,,27,27,15,11,6,72,,48,48,6,13,4,4,0.5,0.6
2024-09-10T1400,1697A,114.6944,23.7586,河源市,东埔,,26,24,14,13,8,81,,52,52,8,13,2,2,0.5,0.6
2024-09-10T1400,1698A,114.6892,23.7233,河源市,老城,,25,,16,12,7,77,,51,51,4,8,2,4,0.5,0.6
2024-09-10T1400,1718A,115.4208,35.2464,菏泽市,气象局,,35,35,47,20,25,71,,63,59,6,9,2,3,0.4,0.4
2024-09-10T1400,1719A,115.4747,35.2375,菏泽市,市政协,,41,41,54,25,31,63,,50,48,6,10,3,5,0.2,0.3
2024-09-10T1400,3374A,115.5564,35.0891,菏泽市,定陶老年大学,,34,34,47,9,22,64,,53,53,5,10,4,6,0.5,0.5
2024-09-10T1400,3647A,115.4702,35.2706,菏泽市,菏泽医专,,38,38,50,13,24,64,,51,48,5,11,8,7,0.7,0.7
2024-09-10T1400,2514A,111.5264,24.4172,贺州市,环保小区,,32,26,24,15,12,100,,44,44,7,14,6,8,0.4,0.5
2024-09-10T1400,2515A,111.5608,24.4078,贺州市,政协大楼,,32,21,28,12,15,100,,47,47,8,15,7,9,0.5,0.5
2024-09-10T1400,3534A,111.4744,24.4553,贺州市,西湾,,28,28,28,11,12,89,,48,48,6,14,6,6,0.5,0.6
2024-09-10T1400,2385A,114.17,35.9019,鹤壁市,市监测站,,30,25,50,15,32,94,,78,78,13,16,1,3,0.8,0.9
2024-09-10T1400,2386A,114.2956,35.7511,鹤壁市,市交警支队,,32,24,47,22,31,92,,78,78,8,11,11,6,0.5,0.6
2024-09-10T1400,2387A,114.2878,35.7306,鹤壁市,迎宾馆,,30,20,43,9,30,94,,78,78,11,12,2,2,0.7,0.7
2024-09-10T1400,3474A,114.2617,35.6822,鹤壁市,大新区,,29,28,43,3,6,91,,78,78,14,20,6,5,0.4,0.5
2024-09-10T1400,3596A,114.1572,35.9603,鹤壁市,南山宾馆,,29,,35,13,30,90,,74,74,3,6,3,3,0.7,0.8
2024-09-10T1400,2244A,130.2537,47.3416,鹤岗市,哈啤分公司,,20,11,23,11,16,62,,55,55,2,9,14,15,0.2,0.4
2024-09-10T1400,2245A,130.2684,47.3086,鹤岗市,斯达机电,,24,24,27,11,15,62,,54,54,5,9,13,13,0.2,0.3
2024-09-10T1400,2246A,130.3114,47.3388,鹤岗市,东山纸板厂,,19,17,27,12,15,58,,52,52,4,9,16,16,0.1,0.3
2024-09-10T1400,2247A,130.1097,47.3382,鹤岗市,五号水库,,,11,16,3,8,65,,58,58,4,5,26,8,,0.6
2024-09-10T1400,2263A,127.4833,50.2524,黑河市,交通局,颗粒物(PM10),51,51,43,14,13,55,,60,55,2,2,4,5,0.3,0.4
2024-09-10T1400,2264A,127.5144,50.2341,黑河市,环保局,颗粒物(PM10),52,54,47,15,13,59,,61,59,3,3,3,4,0.2,0.3
2024-09-10T1400,2265A,127.5291,50.2472,黑河市,大黑河岛,,28,28,39,3,15,50,,60,53,2,2,2,2,0,0.1
2024-09-10T1400,1074A,115.6838,37.7541,衡水市,电机北厂,,31,31,44,16,34,63,,78,59,5,9,3,4,0.2,0.4
2024-09-10T1400,1075A,115.6303,37.7316,衡水市,市监测站,,22,21,50,9,32,68,,72,61,8,12,4,5,0.1,0.3
2024-09-10T1400,3188A,115.6683,37.7217,衡水市,市城管局,,24,24,46,14,32,68,,83,63,6,8,3,3,0.4,0.5
2024-09-10T1400,3459A,115.5989,37.5491,衡水市,地表水厂,,21,13,47,3,22,66,,82,68,8,7,3,3,0.3,0.4
2024-09-10T1400,2456A,112.5003,26.9167,衡阳市,原169医院,,39,31,38,21,24,124,,84,84,3,8,13,17,0.5,0.5
2024-09-10T1400,2457A,112.6194,26.9258,衡阳市,衡阳化工总厂,,,40,42,,,127,,79,79,3,12,8,10,0.6,0.7
2024-09-10T1400,2458A,112.6211,26.8956,衡阳市,珠晖区环保局,,,36,38,,,128,,81,81,4,13,8,8,0.7,0.7
2024-09-10T1400,2459A,112.6197,26.8733,衡阳市,市委党校,,40,39,32,16,16,128,,86,86,4,11,10,11,0.6,0.7
2024-09-10T1400,2460A,112.6006,26.8919,衡阳市,市监测站,,43,40,37,18,23,136,,88,88,4,13,8,10,0.6,0.8
2024-09-10T1400,2461A,112.5664,26.9056,衡阳市,真空机电公司,,39,30,35,18,21,123,,80,80,2,10,8,8,0.7,0.8
2024-09-10T1400,3399A,112.6703,26.882,衡阳市,师范学院,,40,29,35,20,17,128,,82,82,6,11,10,9,0.5,0.6
2024-09-10T1400,2608A,103.3772,23.3993,红河哈尼族彝族自治州,污水处理厂,,13,,11,8,12,41,,37,37,6,6,6,8,0.4,0.4
2024-09-10T1400,2609A,103.3861,23.35,红河哈尼族彝族自治州,监测站,,15,8,10,3,8,47,,43,43,4,6,6,9,0.4,0.5
2024-09-10T1400,3038A,103.3758,23.368,红河哈尼族彝族自治州,州图书馆,,15,6,8,3,8,48,,42,42,6,7,5,6,0.4,0.4
2024-09-10T1400,1090A,111.6507,40.7517,呼和浩特市,呼市一监,,27,6,15,3,3,85,,58,58,4,9,4,4,0.4,0.4
2024-09-10T1400,1091A,111.6572,40.8033,呼和浩特市,小召,,29,6,11,3,3,92,,65,65,9,16,6,6,0.4,0.4
2024-09-10T1400,1094A,111.7516,40.8369,呼和浩特市,如意水处理厂,,27,6,9,3,2,84,,58,58,7,12,6,6,0.3,0.3
2024-09-10T1400,1095A,111.7276,40.8062,呼和浩特市,二十九中,,27,8,17,3,3,85,,62,62,9,15,4,4,0.4,0.5
2024-09-10T1400,1096A,111.5512,40.7866,呼和浩特市,工大金川校区,,26,12,15,3,2,83,,59,59,8,13,2,2,0.4,0.4
2024-09-10T1400,1097A,111.717,40.7612,呼和浩特市,化肥厂生活区,,30,8,12,3,2,93,,66,66,5,13,8,8,0.3,0.4
2024-09-10T1400,3698A,111.5968,40.8178,呼和浩特市,红旗小学,,29,7,12,3,2,92,,64,64,9,14,3,3,0.3,0.3
2024-09-10T1400,3699A,111.6518,40.8389,呼和浩特市,海东办,,30,6,10,3,2,93,,66,66,8,17,5,6,0.3,0.4
2024-09-10T1400,2192A,119.7594,49.2261,呼伦贝尔市,区环保局,,32,32,39,10,15,64,,55,55,5,30,6,6,0.3,0.3
2024-09-10T1400,3061A,119.7512,49.1577,呼伦贝尔市,国华电力东,,25,25,38,10,15,67,,56,56,4,3,3,3,0.3,0.3
2024-09-10T1400,1250A,120.0751,30.8669,湖州市,城西水厂,,42,37,34,29,25,120,,81,81,7,15,4,5,0.3,0.3
2024-09-10T1400,2873A,120.0875,30.8955,湖州市,仁皇山新区,,43,39,34,30,26,116,,74,74,4,16,6,7,0.6,0.6
2024-09-10T1400,2907A,120.1844,30.8596,湖州市,吴兴区站,,46,40,33,32,26,110,,70,70,6,10,4,5,0.4,0.4
2024-09-10T1400,3562A,120.4148,30.8538,湖州市,南浔区站,,46,46,34,31,28,94,,63,63,11,13,7,6,0.4,0.5
2024-09-10T1400,1607A,120.9092,40.7136,葫芦岛市,龙港区,,20,20,21,8,19,63,,92,61,26,11,24,21,0.5,0.6
2024-09-10T1400,1608A,120.8392,40.7514,葫芦岛市,化工街,,18,12,17,3,9,56,,84,53,18,15,10,10,0.5,0.7
2024-09-10T1400,1609A,120.8341,40.7073,葫芦岛市,新区,,18,10,19,3,15,57,,90,58,21,12,12,10,0.3,0.4
2024-09-10T1400,1610A,120.8695,40.7677,葫芦岛市,东城区,,31,31,22,3,13,54,,84,48,17,13,9,7,0.5,0.6
2024-09-10T1400,2482A,109.5981,27.5721,怀化市,林科所,,32,29,24,20,10,101,,58,58,5,15,7,8,0.5,0.6
2024-09-10T1400,2483A,109.9453,27.5444,怀化市,河西地税局,,34,,28,19,15,107,,66,66,4,12,6,4,0.5,0.5
2024-09-10T1400,2484A,109.9781,27.5342,怀化市,市四医院,,35,,33,24,19,102,,61,61,3,19,7,7,0.4,0.6
2024-09-10T1400,2485A,109.9972,27.5578,怀化市,监测楼,,35,24,38,19,18,109,,67,67,3,18,4,4,0.8,0.9
2024-09-10T1400,2486A,110.0394,27.583,怀化市,市委党校,,43,41,35,30,17,104,,62,62,3,15,9,8,0.6,0.7
2024-09-10T1400,1210A,119.036,33.5981,淮安市,钵池山,,25,14,17,13,13,80,,66,66,10,15,7,7,0.6,0.6
2024-09-10T1400,1211A,119.007,33.575,淮安市,北京南路,,25,17,18,16,16,79,,63,63,5,8,5,5,0.5,0.5
2024-09-10T1400,1212A,118.989,33.6067,淮安市,市监测站,,28,,20,19,15,84,,67,67,6,9,7,7,0.6,0.6
2024-09-10T1400,1213A,119.135,33.5039,淮安市,楚州区监测站,,29,29,29,9,15,68,,57,57,6,13,6,6,0.6,0.6
2024-09-10T1400,1214A,119.0186,33.6297,淮安市,淮阴区监测站,,25,19,24,15,14,80,,63,63,8,16,4,4,0.5,0.5
2024-09-10T1400,3426A,118.8755,33.2894,淮安市,新华书店,,25,20,22,16,17,79,,61,61,7,12,6,7,0.4,0.5
2024-09-10T1400,2282A,116.8004,33.975,淮北市,监测站,,43,19,31,17,20,137,,90,90,2,4,5,6,0.5,0.5
2024-09-10T1400,2283A,116.8091,33.9007,淮北市,烈山区政府,,42,31,33,20,19,133,,88,88,2,7,5,6,0.4,0.4
2024-09-10T1400,3330A,116.8873,33.9836,淮北市,杜集区检察院,,42,30,32,16,23,132,,87,87,2,5,2,2,0.6,0.6
2024-09-10T1400,4017A,116.7923,33.9535,淮北市,市博物馆,,42,21,28,17,18,134,,97,97,4,6,5,4,0.6,0.6
2024-09-10T1400,2277A,116.8305,32.7727,淮南市,潘集区政府,,48,31,35,22,21,151,,81,81,7,11,6,6,0.6,0.6
2024-09-10T1400,2278A,117.0067,32.6524,淮南市,师范学院,,40,40,37,23,20,124,,89,89,3,8,5,7,0.5,0.6
2024-09-10T1400,2279A,116.8569,32.5951,淮南市,谢家集区政府,,44,29,31,19,21,139,,86,86,7,13,7,8,0.3,0.4
2024-09-10T1400,2280A,116.8281,32.633,淮南市,八公山区政府,,46,41,42,21,20,145,,84,84,9,11,4,4,0.4,0.3
2024-09-10T1400,2281A,116.6325,32.6201,淮南市,焦岗湖风景区管理处,,43,43,33,17,15,125,,70,70,8,16,6,4,0.1,0.1
2024-09-10T1400,2894A,117.0566,32.6531,淮南市,经济技术开发区消防队,,37,25,27,8,9,118,,79,79,3,10,4,5,0.3,0.4
2024-09-10T1400,3329A,117.0108,32.5893,淮南市,山南新区,,40,32,39,11,14,128,,85,85,6,12,5,5,0.4,0.4
2024-09-10T1400,2446A,114.9028,30.4742,黄冈市,职工中心,,50,39,39,22,23,160,,116,116,7,11,8,9,0.5,0.5
2024-09-10T1400,2929A,114.8858,30.4519,黄冈市,红卫路,,50,35,39,24,28,159,,120,120,6,12,8,9,0.1,0.2
2024-09-10T1400,3398A,114.9136,30.4445,黄冈市,市林业局,臭氧1小时,59,39,45,19,24,167,,128,128,5,12,7,8,0.4,0.4
2024-09-10T1400,2672A,102.0199,35.5102,黄南藏族自治州,同仁县隆务镇,,33,14,17,3,5,104,,90,90,4,6,17,18,0.4,0.5
2024-09-10T1400,2295A,118.2903,29.6963,黄山市,延安路89号,,29,29,33,11,9,83,,70,70,1,7,6,6,0.2,0.3
2024-09-10T1400,2296A,118.327,29.7178,黄山市,黄山东路89号,,25,10,23,3,10,80,,72,72,2,7,4,4,0.2,0.3
2024-09-10T1400,2297A,118.1371,30.2756,黄山市,黄山区政府5号楼,,32,20,32,13,20,100,,74,74,5,8,7,6,0.2,0.3
2024-09-10T1400,2423A,115.0601,30.2313,黄石市,沈家营,,47,34,49,12,21,149,,122,122,4,18,7,15,0.3,0.4
2024-09-10T1400,2424A,115.0817,30.2006,黄石市,陈家湾,,49,35,46,18,22,154,,114,114,5,16,11,12,0.3,0.5
2024-09-10T1400,2426A,114.8988,30.2019,黄石市,铁山,臭氧1小时,55,37,42,16,21,164,,134,134,2,9,8,10,0.6,0.6
2024-09-10T1400,2427A,115.0307,30.2092,黄石市,团城山,,45,40,45,19,22,144,,121,121,6,14,9,28,0.4,0.6
2024-09-10T1400,3149A,115.0235,30.1578,黄石市,笔架山北路,,45,29,44,13,17,142,,129,129,4,11,9,11,0.4,0.5
2024-09-10T1400,1392A,114.4183,23.0528,惠州市,河南岸金山湖子站,,25,19,18,17,11,66,,50,50,2,7,4,4,0.2,0.3
2024-09-10T1400,1393A,114.4053,23.0822,惠州市,下埔横江三路子站,,23,16,19,7,9,73,,56,56,2,10,5,5,0.5,0.6
2024-09-10T1400,1394A,114.4103,23.1142,惠州市,江北云山西路子站,,21,11,16,3,7,66,,47,47,2,8,4,4,0.3,0.4
2024-09-10T1400,1395A,114.4645,22.7833,惠州市,惠阳区承修路船湖子站,,23,15,19,10,10,72,,51,51,10,16,5,5,0.4,0.5
2024-09-10T1400,1396A,114.5317,22.7422,惠州市,大亚湾管委会子站,,31,18,17,13,7,97,,59,59,8,16,7,7,0.5,0.5
2024-09-10T1400,3314A,114.4338,22.8134,惠州市,惠阳秋长,,28,14,16,8,9,87,,59,59,6,15,5,5,0.5,0.6
2024-09-10T1400,3452A,114.6517,22.775,惠州市,大亚湾霞涌,,40,,14,28,10,79,,53,53,4,7,6,6,0.4,0.5
2024-09-10T1400,2240A,130.9762,45.3001,鸡西市,环保局,,23,23,17,6,6,43,,43,43,3,4,5,5,0.2,0.2
2024-09-10T1400,2243A,130.9429,45.3039,鸡西市,第一中学,,17,17,20,3,6,47,,44,44,1,4,4,4,0.1,0.2
2024-09-10T1400,3707A,131.0207,45.3073,鸡西市,欧美日汽修厂,,15,,17,8,9,48,,42,42,7,9,4,4,0.0,0.1
2024-09-10T1400,3709A,130.9967,45.3106,鸡西市,市政设施管理处,,20,20,22,3,5,43,,41,41,11,10,6,6,0.2,0.2
2024-09-10T1400,2367A,114.9754,27.0803,吉安市,红声器材厂,,45,29,31,23,17,144,,92,92,8,12,8,13,0.5,0.5
2024-09-10T1400,2368A,114.9658,27.0999,吉安市,市森林工业局,,42,40,29,23,22,132,,94,94,13,20,9,10,0.6,0.6
2024-09-10T1400,2369A,114.99,27.1312,吉安市,市环境监测站,,46,33,30,18,16,146,,94,94,7,14,11,13,0.6,0.6
2024-09-10T1400,2370A,115.0093,27.0968,吉安市,青原区法院,,46,35,31,23,19,147,,100,100,10,16,11,14,0.5,0.6
2024-09-10T1400,1772A,126.54,43.8622,吉林市,哈达湾,,19,11,21,3,13,58,,67,41,6,11,5,5,0.4,0.7
2024-09-10T1400,1773A,126.5844,43.8358,吉林市,东局子,,19,10,21,3,13,59,,63,36,6,14,4,4,0.4,0.7
2024-09-10T1400,1774A,126.5052,43.8245,吉林市,电力学院,,19,9,20,7,16,58,,66,43,4,9,3,3,0.4,0.6
2024-09-10T1400,1775A,126.6133,43.8972,吉林市,江北,,18,7,28,3,14,57,,56,34,8,13,7,8,0.5,0.7
2024-09-10T1400,1776A,126.555,43.8306,吉林市,江南公园,,20,6,22,3,19,61,,66,45,6,10,5,5,0.5,0.7
2024-09-10T1400,1778A,126.7061,43.7133,吉林市,丰满,,,,,,,,,,,,,,,,
2024-09-10T1400,2868A,126.4739,43.953,吉林市,九站,,20,9,26,3,13,64,,61,46,7,12,7,8,0.5,0.7
2024-09-10T1400,1299A,116.9862,36.6114,济南市,科干所,,18,9,38,3,20,56,,77,51,16,18,5,6,0.9,0.7
2024-09-10T1400,1300A,116.9376,36.665,济南市,农科所,,17,7,41,3,22,52,,53,41,21,27,6,7,0.7,0.5
2024-09-10T1400,1301A,117.1265,36.6734,济南市,开发区,,20,20,45,12,22,54,,57,48,22,34,4,7,0.7,0.6
2024-09-10T1400,1303A,117.0624,36.6868,济南市,省种子仓库,,19,12,49,7,17,59,,48,39,13,32,4,5,0.8,0.8
2024-09-10T1400,1304A,116.9489,36.6447,济南市,机床二厂,,19,10,50,3,17,59,,59,47,15,28,7,8,0.8,0.7
2024-09-10T1400,1305A,117.0495,36.663,济南市,市监测站,,18,15,42,10,21,57,,70,42,18,27,7,9,0.8,0.7
2024-09-10T1400,1306A,116.7675,36.5484,济南市,长清党校,,18,10,35,7,24,56,,75,57,15,14,5,8,1.0,0.8
2024-09-10T1400,1616A,117.6795,36.229,济南市,技术学院,颗粒物(PM10),51,51,37,29,22,152,,99,99,6,12,11,11,1.2,0.9
2024-09-10T1400,1961A,117.532,36.6868,济南市,东山小学,颗粒物(PM10),57,63,52,27,29,91,,105,105,18,22,6,7,1.1,0.9
2024-09-10T1400,3059A,117.7161,36.2049,济南市,泰兴公司,,46,39,41,24,21,147,,85,85,6,19,12,12,0.8,0.6
2024-09-10T1400,3064A,117.6867,36.2171,济南市,莱芜战役纪念馆,,45,41,39,24,19,141,,85,85,8,16,14,13,1.0,0.7
2024-09-10T1400,3494A,117.1673,36.9782,济南市,济阳区政府,,17,12,61,3,24,54,,46,46,12,39,7,9,0.6,0.8
2024-09-10T1400,3495A,117.1171,36.63,济南市,锦屏中学,,16,15,34,7,17,51,,85,66,21,18,4,5,0.7,0.6
2024-09-10T1400,3682A,116.9814,36.6819,济南市,济南四建,,16,,38,7,20,51,,62,41,15,23,6,8,0.9,0.7
2024-09-10T1400,1653A,116.6251,35.4302,济宁市,火炬城,颗粒物(PM10),62,74,44,41,23,122,,84,84,12,13,9,10,1.0,0.8
2024-09-10T1400,1655A,116.5491,35.4042,济宁市,电化厂,细颗粒物(PM2.5),70,88,45,51,29,123,,85,85,11,11,7,8,0.9,0.8
2024-09-10T1400,3500A,116.5814,35.3707,济宁市,北湖一中,细颗粒物(PM2.5),79,93,45,58,22,118,,79,79,17,12,4,5,0.6,0.5
2024-09-10T1400,3501A,116.8249,35.5593,济宁市,服务中心,,50,50,48,30,25,129,,84,84,7,15,5,6,0.5,0.5
2024-09-10T1400,3678A,116.5907,35.4054,济宁市,市第七中学,颗粒物(PM10),70,90,46,46,23,122,,78,78,13,14,6,7,0.8,0.7
2024-09-10T1400,2255A,130.2751,46.8028,佳木斯市,佳纺,,21,15,19,3,8,65,,61,57,5,5,7,7,0.3,0.5
2024-09-10T1400,2256A,130.3995,46.8307,佳木斯市,发电厂,,21,9,20,6,10,65,,61,58,2,6,6,6,0.5,0.5
2024-09-10T1400,2257A,130.3258,46.7975,佳木斯市,环保局,,22,22,22,7,8,63,,60,55,4,5,7,8,0.4,0.5
2024-09-10T1400,2258A,130.3648,46.8032,佳木斯市,十一中,,21,12,20,3,9,67,,64,58,5,8,7,7,0.4,0.5
2024-09-10T1400,2259A,130.3794,46.7588,佳木斯市,四丰,,20,6,11,3,8,61,,57,53,6,7,4,1,0.2,0.4
2024-09-10T1400,1252A,120.7436,30.778,嘉兴市,清河小学,,45,45,38,27,20,99,,68,68,17,15,6,5,0.7,0.4
2024-09-10T1400,1253A,120.726,30.7478,嘉兴市,嘉兴学院,,46,46,33,30,23,97,,66,66,16,14,4,3,0.6,0.4
2024-09-10T1400,2872A,120.7846,30.7525,嘉兴市,南湖区残联,,40,40,33,28,24,93,,66,66,15,15,5,5,0.4,0.4
2024-09-10T1400,3407A,120.6916,30.7739,嘉兴市,秀洲住建,,49,46,33,34,25,89,,62,62,22,15,4,4,0.7,0.6
2024-09-10T1400,1945A,98.2908,39.7711,嘉峪关市,气象局,,44,44,50,12,11,107,,84,84,3,8,3,4,0.2,0.2
2024-09-10T1400,2884A,98.2672,39.7978,嘉峪关市,酒钢宾馆,,44,44,52,12,13,107,,88,88,5,11,4,10,0.4,0.5
2024-09-10T1400,3248A,98.2643,39.7724,嘉峪关市,雄关区,,45,45,51,7,14,101,,80,80,5,10,7,9,0.4,0.4
2024-09-10T1400,1383A,113.1064,22.6058,江门市,北街,臭氧1小时,82,49,26,20,17,185,,80,80,15,27,5,4,0.5,0.7
2024-09-10T1400,1384A,113.0731,22.5835,江门市,西区,臭氧1小时,92,23,25,18,12,193,,86,86,14,33,6,6,0.5,0.7
2024-09-10T1400,1385A,113.0219,22.5311,江门市,圭峰西,臭氧1小时,74,43,24,21,13,179,,93,93,14,15,3,2,0.5,0.5
2024-09-10T1400,1386A,113.0828,22.5947,江门市,东湖,臭氧1小时,77,30,29,23,13,181,,82,82,13,24,6,5,0.4,0.6
2024-09-10T1400,3311A,113.1075,22.5647,江门市,江海富民,臭氧1小时,63,53,33,21,19,170,,80,80,16,26,6,6,0.5,0.7
2024-09-10T1400,3449A,113.05,22.4667,江门市,新会银湖,,49,41,27,15,17,155,,82,82,4,15,5,4,0.6,0.8
2024-09-10T1400,1828A,113.227,35.2125,焦作市,市环保局,细颗粒物(PM2.5),52,36,48,36,30,47,,60,52,11,12,5,1,0.6,0.4
2024-09-10T1400,1830A,113.1992,35.2590,焦作市,影视城,,,,,,,,,,,,,,,,
2024-09-10T1400,3169A,113.2725,35.2067,焦作市,太极体育中心,,39,39,60,25,30,56,,60,58,8,11,6,4,0.9,0.7
2024-09-10T1400,3335A,113.3137,35.2641,焦作市,马村街道办,,46,38,50,32,37,52,,59,57,11,14,1,2,0.5,0.6
2024-09-10T1400,3336A,113.2465,35.2373,焦作市,焦作技师学院,,49,42,53,34,33,50,,79,52,11,15,4,3,0.8,0.7
2024-09-10T1400,3477A,113.1656,35.2539,焦作市,中站许衡医院,,45,38,38,31,32,48,,68,57,21,15,7,4,0.6,0.5
2024-09-10T1400,3981A,113.2449,35.1803,焦作市,原李万街道办,,41,41,50,17,28,57,,57,52,2,8,1,3,0.6,0.6
2024-09-10T1400,1708A,116.3701,23.5345,揭阳市,新兴,,31,31,27,20,15,90,,57,57,4,16,5,5,0.4,0.6
2024-09-10T1400,1709A,116.3264,23.5443,揭阳市,西马,,,18,32,15,13,86,,62,62,2,14,5,6,,0.7
2024-09-10T1400,1710A,116.3611,23.5626,揭阳市,东兴,,30,30,31,14,13,82,,50,50,3,17,3,4,0.5,0.7
2024-09-10T1400,1711A,116.4151,23.5294,揭阳市,渔湖,,28,24,27,8,12,87,,56,56,6,19,4,4,0.6,0.8
2024-09-10T1400,3320A,116.403,23.5699,揭阳市,曲溪,,28,20,23,16,14,88,,57,57,5,17,2,2,0.4,0.6
2024-09-10T1400,1944A,102.1692,38.5167,金昌市,天庆家园,颗粒物(PM10),59,67,43,28,23,77,,72,72,8,19,12,11,0.4,0.6
2024-09-10T1400,3170A,102.1864,38.5253,金昌市,市委党校,,47,47,55,23,21,85,,57,57,9,19,3,9,0.7,1
2024-09-10T1400,4022A,102.1647,38.5371,金昌市,金川区人防中心,,35,30,48,24,20,89,,57,57,8,18,11,12,0.6,0.6
2024-09-10T1400,1262A,119.647,29.077,金华市,十五中,,39,39,32,26,18,104,,76,76,6,16,2,3,0.4,0.4
2024-09-10T1400,1263A,119.686,29.1029,金华市,监测站,,45,45,37,31,22,102,,75,75,6,20,3,4,0.5,0.6
2024-09-10T1400,3659A,119.656,29.1131,金华市,气象局,,40,40,36,22,19,98,,73,73,8,22,5,6,0.0,0.4
2024-09-10T1400,1767A,121.1115,41.0879,锦州市,南山,,16,12,20,3,16,49,,58,42,13,16,7,6,0.5,0.6
2024-09-10T1400,1768A,121.0533,40.8434,锦州市,开发区,,26,26,20,12,18,46,,87,51,26,22,8,5,0.8,0.7
2024-09-10T1400,1769A,121.1836,41.1119,锦州市,百股街道,,16,15,20,3,10,49,,60,40,14,14,8,7,0.6,0.7
2024-09-10T1400,1770A,121.1178,41.1222,锦州市,天安街道,,17,,26,9,16,52,,62,44,12,14,8,7,0.5,0.7
2024-09-10T1400,1771A,121.1303,41.1386,锦州市,北湖公园,,19,,23,3,16,59,,60,45,8,12,8,7,0.5,0.7
2024-09-10T1400,2160A,112.85,35.5051,晋城市,自来水公司,,25,17,43,3,22,80,,94,53,10,13,7,8,0.9,0.9
2024-09-10T1400,2161A,112.8318,35.4936,晋城市,白云商贸,,24,11,41,3,18,76,,93,53,13,15,7,8,0.9,0.9
2024-09-10T1400,2162A,112.8508,35.4887,晋城市,市环保局,,25,14,45,9,23,79,,92,52,11,14,8,8,0.8,0.7
2024-09-10T1400,2163A,112.8676,35.4897,晋城市,技术学院,,24,18,39,3,22,76,,87,50,12,16,7,8,0.9,0.8
2024-09-10T1400,2165A,112.8453,35.546,晋城市,白马寺,,,,,,,,,,,,,,,,
2024-09-10T1400,3620A,112.8271,35.4828,晋城市,泽州一中,,23,8,39,3,19,72,,84,54,13,15,9,9,1.0,1
2024-09-10T1400,2171A,112.7532,37.6945,晋中市,锦纶小区,,28,22,24,7,11,87,,70,70,6,14,6,7,0.4,0.5
2024-09-10T1400,2173A,112.7249,37.7067,晋中市,南都小区,,27,,28,17,23,85,,75,75,8,14,4,5,0.6,0.7
2024-09-10T1400,2174A,112.6991,37.6982,晋中市,榆次区政府,,27,19,25,16,22,84,,77,73,7,16,5,8,0.4,0.4
2024-09-10T1400,2865A,112.7195,37.6828,晋中市,榆次三中,,28,24,21,3,8,87,,76,75,5,12,7,7,0.5,0.6
2024-09-10T1400,2439A,112.2014,31.0481,荆门市,竹园小学,臭氧1小时,68,69,72,35,47,174,,121,121,8,19,12,12,0.6,0.8
2024-09-10T1400,2440A,112.1969,30.9891,荆门市,掇刀,臭氧1小时,74,61,74,41,53,179,,135,135,10,17,16,14,0.6,0.7
2024-09-10T1400,2441A,112.2213,31.0386,荆门市,石化一小,臭氧1小时,70,75,79,43,44,176,,127,127,8,18,9,11,0.7,0.7
2024-09-10T1400,3012A,112.1849,31.0362,荆门市,西山林语,,,,65,,49,177,,138,138,10,15,9,10,0.8,0.9
2024-09-10T1400,3547A,112.1632,31.0138,荆门市,龙泉中学南校,臭氧1小时,70,53,84,36,52,176,,136,136,4,20,11,11,0.6,0.8
2024-09-10T1400,1844A,112.2494,30.3197,荆州市,市图书馆,臭氧1小时,60,38,42,27,35,168,,127,127,13,23,9,8,0.5,0.7
2024-09-10T1400,1845A,112.2008,30.3544,荆州市,市委党校,臭氧1小时,84,40,47,27,36,187,,139,139,6,15,18,17,0.8,0.8
2024-09-10T1400,3194A,112.2747,30.3122,荆州市,管委会,臭氧1小时,68,33,46,31,36,174,,125,125,6,19,7,7,0.6,0.7
2024-09-10T1400,3548A,112.1655,30.3364,荆州市,学苑路,臭氧1小时,82,54,51,30,40,185,,137,137,7,16,6,8,0.7,0.8
2024-09-10T1400,2342A,117.3102,29.3867,景德镇市,王港中学,,,,,,,,,,,,,,,,
2024-09-10T1400,2343A,117.2117,29.2933,景德镇市,老干部活动中心,,27,9,30,8,16,84,,69,69,4,12,9,9,0.3,0.4
2024-09-10T1400,2344A,117.1894,29.2789,景德镇市,兽医站,,29,26,32,10,17,90,,74,74,3,9,7,8,0.3,0.3
2024-09-10T1400,2345A,117.1547,29.2617,景德镇市,台达陶瓷,,28,13,27,7,16,89,,70,70,3,8,6,7,0.2,0.3
2024-09-10T1400,2346A,117.2461,29.2956,景德镇市,陶研所,,29,20,32,6,16,90,,66,66,6,14,4,4,0.3,0.3
2024-09-10T1400,1803A,115.9872,29.6815,九江市,十里,,37,25,35,16,32,117,,112,112,9,17,10,13,0.5,0.7
2024-09-10T1400,1804A,115.9584,29.7046,九江市,茅山头,,38,18,35,10,24,121,,106,106,9,17,10,12,0.5,0.6
2024-09-10T1400,1805A,115.9877,29.7295,九江市,西园,,41,22,32,13,20,129,,109,109,7,17,8,9,0.5,0.5
2024-09-10T1400,1806A,116.0172,29.6547,九江市,五七二七厂,,39,,29,21,27,122,,100,100,9,14,7,8,0.5,0.7
2024-09-10T1400,1808A,115.9114,29.6038,九江市,综合工业园,,42,25,37,14,25,134,,110,110,9,22,9,11,0.6,0.8
2024-09-10T1400,1809A,116.0721,29.7535,九江市,石化总厂,,37,35,42,18,27,118,,104,104,10,22,10,10,0.7,0.7
2024-09-10T1400,1810A,115.9773,29.5698,九江市,庐山气象台,,40,29,24,21,19,125,,110,110,3,3,7,12,1.1,0.9
2024-09-10T1400,3190A,116.0254,29.6994,九江市,外国语学校,,39,20,40,9,21,122,,110,110,8,16,12,14,0.2,0.4
2024-09-10T1400,2658A,98.5061,39.7443,酒泉市,仓门街子站,,34,34,45,6,11,98,,74,74,4,9,9,18,0.3,0.3
2024-09-10T1400,2659A,98.4989,39.7256,酒泉市,油田生活基地,,36,36,54,3,10,103,,68,67,4,11,9,17,0.2,0.3
2024-09-10T1400,2698A,76.0072,39.4467,喀什地区,巡警大队,颗粒物(PM10),84,118,96,43,19,110,,86,72,10,19,3,3,0.3,0.4
2024-09-10T1400,2699A,75.9755,39.4694,喀什地区,吾办,颗粒物(PM10),80,110,90,38,31,95,,74,60,10,16,3,3,0.3,0.4
2024-09-10T1400,4027A,75.9483,39.4689,喀什地区,老干局,颗粒物(PM10),81,112,97,37,14,90,,64,59,8,15,3,3,0.3,0.4
2024-09-10T1400,1824A,114.3389,34.7781,开封市,肿瘤医院,,33,33,64,10,31,84,,63,63,6,16,4,4,0.3,0.4
2024-09-10T1400,1826A,114.2885,34.7965,开封市,世纪星幼儿园,,,37,61,,5,87,,73,68,6,13,2,2,0.5,0.5
2024-09-10T1400,3147A,114.3438,34.8106,开封市,龙亭公园,,29,29,59,7,28,78,,59,58,6,13,4,4,0.5,0.6
2024-09-10T1400,3210A,114.3644,34.7964,开封市,汴京公园,,36,36,62,10,37,80,,61,61,6,15,5,5,0.5,0.6
2024-09-10T1400,3473A,114.2485,34.8306,开封市,技师学院,,38,38,53,13,26,82,,76,66,7,8,5,4,0.8,0.9
2024-09-10T1400,3592A,114.4644,34.7556,开封市,祥符区生态环境局,,25,24,61,9,30,77,,53,53,4,20,5,5,0.5,0.6
2024-09-10T1400,1951A,84.895,45.6094,克拉玛依市,长征新村,,26,12,24,7,7,82,,58,55,7,13,6,6,0.2,0.3
2024-09-10T1400,1952A,84.8988,45.5893,克拉玛依市,南林小区,,26,19,24,11,14,82,,47,47,8,20,9,10,0.4,0.6
2024-09-10T1400,1954A,84.905,44.3396,克拉玛依市,独山子区,颗粒物(PM10),52,54,29,20,14,90,,74,74,12,11,18,10,0.5,0.4
2024-09-10T1400,1955A,85.6979,46.098,克拉玛依市,乌尔禾区商贸楼,,30,6,24,3,7,95,,40,40,4,17,10,9,0.2,0.3
2024-09-10T1400,3612A,85.1045,45.6899,克拉玛依市,白碱滩区新站,,30,16,18,3,7,93,,65,65,8,9,7,7,0.2,0.2
2024-09-10T1400,2697A,76.1454,39.7142,克孜勒苏柯尔克孜自治州,市人民政府,颗粒物(PM10),84,117,63,46,25,110,,93,93,4,11,2,3,0.9,0.9
2024-09-10T1400,3665A,76.1658,39.7157,克孜勒苏柯尔克孜自治州,克州文化中心,颗粒物(PM10),98,145,63,51,24,110,,97,97,1,4,4,6,0.6,0.6
2024-09-10T1400,1450A,102.8204,24.8886,昆明市,呈贡新区,,26,15,15,6,4,82,,64,64,4,6,6,6,0.5,0.6
2024-09-10T1400,1451A,102.6251,24.9608,昆明市,西山森林公园,,,,,,,,,,,,,,,,
2024-09-10T1400,1452A,102.7252,25.0902,昆明市,龙泉镇,,,,12,4,4,79,,62,62,7,8,5,5,0.5,0.5
2024-09-10T1400,1453A,102.7266,25.0375,昆明市,东风东路,,25,,7,7,5,79,,60,60,10,11,4,4,0.5,0.5
2024-09-10T1400,1454A,102.6742,25.0669,昆明市,金鼎山,,,,13,2,4,81,,60,60,8,11,7,7,0.4,0.4
2024-09-10T1400,1455A,102.6644,25.0401,昆明市,碧鸡广场,,25,7,8,3,5,78,,60,60,10,10,3,3,0.5,0.5
2024-09-10T1400,3179A,102.7494,25.0119,昆明市,官渡区博物馆,,25,6,9,3,6,79,,59,59,9,13,5,6,0.3,0.3
2024-09-10T1400,3375A,102.8017,24.8336,昆明市,青年创业园,,26,6,5,3,3,82,,66,66,5,6,3,2,0.5,0.5
2024-09-10T1400,3550A,102.7997,24.9786,昆明市,昆明学院,,26,8,6,3,3,81,,60,60,10,11,5,4,0.5,0.5
2024-09-10T1400,3551A,102.5967,24.6736,昆明市,晋宁区生态环境分局,,27,13,16,3,3,85,,68,68,9,7,3,2,0.6,0.6
2024-09-10T1400,3552A,102.6678,24.9856,昆明市,云天化总部,,26,12,9,7,6,83,,62,62,7,9,5,5,0.4,0.4
2024-09-10T1400,1456A,91.1319,29.6514,拉萨市,八廓街,,35,,8,12,7,109,,92,92,8,11,7,8,0.6,0.3
2024-09-10T1400,1457A,91.1221,29.6747,拉萨市,市环保局,,34,,10,9,6,106,,88,88,11,13,8,8,0.4,0.3
2024-09-10T1400,1458A,91.0874,29.6475,拉萨市,区监测站,,33,6,8,6,6,105,,85,85,7,12,8,8,0.2,0.2
2024-09-10T1400,1459A,91.1774,29.6541,拉萨市,西藏大学,,33,,8,8,6,104,,92,92,6,6,7,7,0.4,0.4
2024-09-10T1400,1460A,90.9798,29.6588,拉萨市,区辐射站,,34,6,10,3,7,108,,83,83,12,15,8,8,0.2,0.2
2024-09-10T1400,1461A,91.0834,29.6292,拉萨市,拉萨火车站,,33,10,14,6,7,104,,87,87,6,9,5,5,0.2,0.2
2024-09-10T1400,2520A,109.2203,23.7256,来宾市,来宾技工学校,,,,23,,12,,,52,,,12,,6,,0.9
2024-09-10T1400,3535A,109.1781,23.7297,来宾市,兴宾区政府,,29,18,23,10,12,92,,52,52,4,8,5,8,0.6,0.7
2024-09-10T1400,4002A,109.2416,23.7461,来宾市,中南小学,,31,22,21,14,10,97,,61,61,4,10,4,6,0.8,0.9
2024-09-10T1400,1476A,103.631,36.1031,兰州市,兰炼宾馆,,43,,30,30,23,110,,68,68,8,15,4,3,0.4,0.3
2024-09-10T1400,1477A,104.1373,35.9454,兰州市,榆中兰大校区,,,,,,,,,,,,,,,,
2024-09-10T1400,1478A,103.8412,36.0726,兰州市,生物制品所,,33,28,28,23,25,104,,66,66,8,19,9,9,0.4,0.4
2024-09-10T1400,1479A,103.831,36.0464,兰州市,铁路设计院,,48,36,32,33,23,98,,51,50,18,34,8,6,0.6,0.5
2024-09-10T1400,3186A,103.7158,36.1058,兰州市,教育港,,39,31,31,27,25,115,,67,67,5,15,7,6,0.5,0.4
2024-09-10T1400,3241A,103.7439,36.0842,兰州市,百合公园,,35,19,28,15,17,110,,66,66,8,17,10,8,0.7,0.6
2024-09-10T1400,3242A,103.9611,35.998,兰州市,和平,,30,20,27,10,15,96,,64,64,10,18,11,9,0.6,0.4
2024-09-10T1400,3245A,103.6633,36.533,兰州新区,新区管委会,,39,17,26,13,16,123,,97,97,5,8,6,8,0.4,0.4
2024-09-10T1400,3246A,103.6975,36.4789,兰州新区,舟曲中学,,39,16,23,11,13,123,,96,96,7,8,8,9,0.5,0.5
2024-09-10T1400,1067A,116.6708,39.5111,廊坊市,药材公司,,24,24,51,7,27,55,,53,53,13,23,1,1,0.4,0.7
2024-09-10T1400,1068A,116.7214,39.5589,廊坊市,开发区,,19,8,50,6,28,60,,55,55,12,21,1,2,0.4,0.7
2024-09-10T1400,1070A,116.7244,39.5269,廊坊市,北华航天学院,,19,14,55,3,27,60,,54,54,7,19,2,2,0.3,0.7
2024-09-10T1400,2919A,116.7022,39.5453,廊坊市,河北工业大学,,22,22,49,7,31,56,,54,54,12,23,1,1,0.3,0.7
2024-09-10T1400,2535A,103.7723,29.5462,乐山市,花湖湾,,36,14,8,14,13,114,,81,81,7,9,5,6,0.3,0.3
2024-09-10T1400,2536A,103.7627,29.5844,乐山市,牛耳桥,,37,18,18,16,14,118,,84,84,10,12,3,4,0.4,0.4
2024-09-10T1400,2537A,103.7508,29.6006,乐山市,市第三水厂,,39,20,19,12,10,123,,87,87,8,11,2,3,0.3,0.3
2024-09-10T1400,2538A,103.7571,29.5664,乐山市,市监测站,,36,20,18,12,13,115,,82,82,6,8,3,4,0.4,0.4
2024-09-10T1400,3361A,103.7311,29.5628,乐山市,理工大学,,37,16,18,13,14,118,,86,86,6,10,1,2,0.5,0.5
2024-09-10T1400,2598A,100.2143,26.8576,丽江市,西南郊,,,,,,,,,,,,,,,,
2024-09-10T1400,2599A,100.2497,26.8802,丽江市,丽江古城,,23,14,15,8,10,73,,67,61,7,13,8,8,0.6,0.6
2024-09-10T1400,2600A,100.2203,26.8906,丽江市,市中心,,23,,13,10,8,72,,73,53,8,16,9,9,0.6,0.6
2024-09-10T1400,1267A,119.914,28.4514,丽水市,监测站大楼,,41,41,23,21,10,114,,55,55,5,12,5,4,0.4,0.4
2024-09-10T1400,1268A,119.93,28.4586,丽水市,莲都小学,颗粒物(PM10),55,60,24,25,14,117,,56,56,5,11,5,4,0.4,0.4
2024-09-10T1400,1269A,119.879,28.4231,丽水市,余庄前,,41,41,26,27,14,116,,52,52,5,11,4,4,0.4,0.4
2024-09-10T1400,1173A,119.176,34.5885,连云港市,市环境监测站,,32,12,19,7,8,102,,81,81,6,8,4,6,0.3,0.3
2024-09-10T1400,3000A,119.3581,34.6972,连云港市,德源药业,,29,14,18,3,8,91,,72,72,2,7,5,7,0.3,0.4
2024-09-10T1400,3007A,119.178,34.844,连云港市,新城一中,,27,25,26,12,13,86,,77,77,10,20,4,4,0.6,0.7
2024-09-10T1400,3008A,119.3608,34.7519,连云港市,胡沟管理处,,24,19,16,9,7,75,,69,69,7,14,5,6,0.5,0.6
2024-09-10T1400,3009A,119.1478,34.5911,连云港市,矿山设计院,,34,19,19,12,9,106,,81,81,4,6,7,6,0.6,0.6
2024-09-10T1400,3434A,119.2413,34.6539,连云港市,工贸学校,,32,21,19,12,15,102,,78,78,5,5,7,7,0.7,0.7
2024-09-10T1400,3664A,119.4172,34.7341,连云港市,连云街道,,25,17,19,10,12,78,,63,63,3,4,4,4,0.6,0.5
2024-09-10T1400,2571A,102.3431,27.8099,凉山彝族自治州,青龙寺,,33,6,14,3,5,104,,67,67,2,5,6,5,0.7,0.6
2024-09-10T1400,2572A,102.2721,27.8415,凉山彝族自治州,邛海宾馆,,39,19,14,16,11,123,,70,70,8,10,7,6,0.5,0.5
2024-09-10T1400,2573A,102.2625,27.898,凉山彝族自治州,西昌市政府,,,16,16,11,8,91,,69,69,4,6,8,7,,0.3
2024-09-10T1400,2574A,102.2685,27.8851,凉山彝族自治州,凉山州政府,,33,21,16,11,8,104,,74,74,6,9,7,6,0.4,0.6
2024-09-10T1400,2575A,102.237,27.8914,凉山彝族自治州,长安,,29,7,12,6,6,92,,68,68,3,5,7,7,0.4,0.6
2024-09-10T1400,2212A,123.2,41.1953,辽阳市,宏伟区,,46,,25,32,23,45,,63,41,20,10,13,9,0.4,0.6
2024-09-10T1400,2213A,123.1683,41.2495,辽阳市,新华园,,17,15,24,6,12,54,,65,46,14,12,15,8,0.4,0.6
2024-09-10T1400,2214A,123.2354,41.2639,辽阳市,滨河路,,19,,24,12,15,58,,69,44,16,13,16,10,0.3,0.6
2024-09-10T1400,2215A,123.149,41.2991,辽阳市,铁西工业园,,16,11,33,8,16,50,,56,41,16,12,13,9,0.7,0.9
2024-09-10T1400,2227A,125.1358,42.8845,辽源市,环保局,,19,15,22,3,12,60,,73,47,4,8,7,8,0.5,0.7
2024-09-10T1400,3239A,125.0764,42.9078,辽源市,银鹰制药,,20,8,17,3,10,62,,69,45,6,11,5,4,0.8,1
2024-09-10T1400,1625A,115.9848,36.4372,聊城市,区政府,,28,28,43,11,23,57,,59,57,13,14,9,11,0.6,0.6
2024-09-10T1400,2878A,116.0072,36.4343,聊城市,聊大东校,,,,46,22,30,59,,58,56,14,16,6,9,0.5,0.5
2024-09-10T1400,3200A,115.9819,36.4978,聊城市,监控中心,,25,25,41,12,23,55,,61,56,11,12,5,7,0.4,0.4
2024-09-10T1400,3513A,116.0445,36.4361,聊城市,九州社区,,25,25,46,17,27,55,,50,50,10,11,2,7,0.6,0.6
2024-09-10T1400,4018A,116.0567,36.4608,聊城市,星美广场,,27,27,47,9,22,57,,57,53,9,12,4,8,0.6,0.5
2024-09-10T1400,2632A,94.3681,29.6376,林芝市,林芝监测站,,27,9,12,3,6,85,,59,56,2,3,10,9,0.2,0.2
2024-09-10T1400,2633A,94.3616,29.6616,林芝市,林芝人民医院,,27,8,12,3,6,86,,58,55,4,6,8,7,0.3,0.3
2024-09-10T1400,2603A,100.0781,23.8982,临沧市,市环保局,,20,,18,7,12,61,,36,36,6,10,5,5,0.3,0.4
2024-09-10T1400,2604A,100.0894,23.8822,临沧市,市气象局,,20,9,14,3,9,62,,42,42,6,10,5,4,0.3,0.5
2024-09-10T1400,1733A,111.5531,36.0783,临汾市,临钢医院,,29,29,57,12,21,73,,50,50,12,14,5,4,0.9,0.9
2024-09-10T1400,1734A,111.5028,36.0714,临汾市,技工学校,,49,49,67,16,22,63,,43,43,16,14,7,7,0.8,0.8
2024-09-10T1400,1736A,111.5018,36.0855,临汾市,市委,,36,36,57,9,18,76,,46,46,12,12,7,6,0.7,0.8
2024-09-10T1400,3018A,111.505,36.1014,临汾市,唐尧大酒店,,31,31,48,14,19,75,,48,48,11,11,5,4,0.7,0.8
2024-09-10T1400,3668A,111.5036,36.0414,临汾市,城南,,,,65,,22,60,,42,42,14,11,6,5,0.7,0.7
2024-09-10T1400,2667A,103.2069,35.5993,临夏回族自治州,环保局,,27,18,27,17,21,86,,72,72,4,7,7,7,0.3,0.3
2024-09-10T1400,2668A,103.2417,35.6057,临夏回族自治州,建设大厦,,28,17,19,13,13,88,,73,73,4,8,7,7,0.3,0.2
2024-09-10T1400,1618A,118.3429,35.0532,临沂市,沂河小区,,43,29,29,17,20,135,,85,85,7,9,6,8,0.3,0.4
2024-09-10T1400,1619A,118.295,35.0583,临沂市,鲁南制药厂,,43,19,20,13,15,137,,90,90,6,10,4,6,0.3,0.3
2024-09-10T1400,1620A,118.2794,34.9976,临沂市,新光毛纺厂,,41,17,21,16,20,129,,89,89,8,12,5,7,0.5,0.5
2024-09-10T1400,1621A,118.3956,35.0888,临沂市,河东保险公司,,39,22,24,18,21,123,,81,81,6,12,6,7,0.4,0.4
2024-09-10T1400,3370A,118.3564,35.0215,临沂市,十里堡居委,,43,,18,17,15,135,,85,85,9,11,7,9,0.5,0.6
2024-09-10T1400,3496A,118.3604,35.1084,临沂市,南坊新区,,40,19,27,7,12,127,,86,86,6,10,7,8,0.5,0.6
2024-09-10T1400,3860A,118.3920,35.0300,临沂市,皇山花园小区,,40,24,26,15,16,128,,81,81,9,13,7,8,0.5,0.6
2024-09-10T1400,1870A,109.4856,24.3895,柳州市,柳东小学,,34,20,19,13,10,106,,54,54,13,11,8,10,0.6,0.6
2024-09-10T1400,1871A,109.4157,24.3277,柳州市,环保监测站,,36,30,26,24,14,113,,55,55,6,13,8,10,0.7,0.8
2024-09-10T1400,1872A,109.389,24.341,柳州市,河西水厂,,36,20,29,7,14,113,,52,52,4,15,7,10,0.7,0.9
2024-09-10T1400,1873A,109.4311,24.2921,柳州市,市四中,,35,21,22,11,10,112,,62,62,4,12,6,7,0.6,0.7
2024-09-10T1400,1874A,109.4006,24.3631,柳州市,市九中,,36,16,32,10,14,114,,56,56,4,12,6,8,0.5,0.7
2024-09-10T1400,1875A,109.4958,24.3134,柳州市,古亭山,,34,31,19,12,7,106,,55,55,6,12,6,7,0.7,0.6
2024-09-10T1400,3402A,109.5422,24.3996,柳州市,市二中,,39,16,18,12,7,122,,57,57,9,13,7,7,0.6,0.6
2024-09-10T1400,2307A,116.5079,31.737,六安市,监测大楼,臭氧1小时,53,27,26,17,16,162,,98,98,6,8,6,7,0.4,0.4
2024-09-10T1400,2308A,116.4738,31.7643,六安市,皖西学院,,50,42,36,15,15,157,,96,96,5,9,5,6,0.1,0.2
2024-09-10T1400,2309A,116.4996,31.7905,六安市,朝阳厂,,46,22,29,12,16,145,,90,90,4,13,2,3,0.2,0.3
2024-09-10T1400,2310A,116.5567,31.7886,六安市,开发区,,45,37,39,16,20,143,,94,94,5,14,4,4,0.3,0.4
2024-09-10T1400,2576A,104.8,26.5892,六盘水市,窑上,,,,,,,,,,,,,,,,
2024-09-10T1400,2577A,104.83,26.5917,六盘水市,黄土坡,,30,,12,21,12,80,,57,57,10,13,9,9,0.4,0.5
2024-09-10T1400,2578A,104.89,26.5939,六盘水市,水钢,,25,18,17,6,9,80,,63,63,7,9,8,7,0.5,0.5
2024-09-10T1400,2579A,104.8475,26.5894,六盘水市,民中,,25,16,12,9,8,79,,58,58,10,11,7,8,0.5,0.6
2024-09-10T1400,2580A,104.9544,26.5506,六盘水市,双水,,24,9,12,3,7,75,,61,61,8,6,6,6,0.4,0.4
2024-09-10T1400,2335A,117.0189,25.1181,龙岩市,龙岩师专,,,,,,,,,,,,,,,,
2024-09-10T1400,2336A,117.0217,25.1033,龙岩市,龙岩市监测站,,20,17,21,3,14,64,,51,51,4,15,5,8,0.2,0.4
2024-09-10T1400,2337A,117.0258,25.0661,龙岩市,闽西职业技术学院,,22,12,30,12,12,70,,50,50,1,17,4,8,0.3,0.5
2024-09-10T1400,2338A,117.0196,25.0306,龙岩市,龙岩学院,,22,19,22,9,11,70,,47,47,2,11,4,4,0.4,0.4
2024-09-10T1400,2665A,105.0822,33.3261,陇南市,汉王镇固水子,,,,,,,,,,,,,,,,
2024-09-10T1400,2885A,104.9339,33.3826,陇南市,滨江中学,,31,31,33,10,14,82,,72,58,8,10,7,7,0.6,0.6
2024-09-10T1400,3247A,104.955,33.371,陇南市,市总工会,,31,31,24,6,6,82,,75,62,6,7,8,8,0.5,0.5
2024-09-10T1400,2487A,111.9589,27.8901,娄底市,电视发射台,,36,29,47,21,23,115,,69,69,5,7,8,7,0.5,0.5
2024-09-10T1400,2488A,111.9975,27.725,娄底市,市监测站,颗粒物(PM10),58,65,43,28,25,122,,88,88,3,13,6,13,0.6,1
2024-09-10T1400,2489A,112.0194,27.7314,娄底市,市委党校,,35,24,39,15,29,110,,83,83,4,15,8,13,0.5,1
2024-09-10T1400,2490A,111.9561,27.7569,娄底市,涟钢,,30,30,41,20,23,93,,70,70,15,16,9,7,0.1,0.3
2024-09-10T1400,2491A,111.9892,27.7044,娄底市,市政府,,37,,30,18,25,117,,90,90,6,12,4,4,0.4,0.5
2024-09-10T1400,1893A,105.4324,28.9634,泸州市,九狮山,,41,34,33,22,22,130,,68,68,1,10,5,5,0.4,0.4
2024-09-10T1400,1894A,105.4427,28.9063,泸州市,小市上码头,,43,37,28,20,14,135,,81,81,9,18,4,6,0.5,0.5
2024-09-10T1400,1895A,105.4241,28.8573,泸州市,兰田宪桥,,44,26,27,23,18,138,,86,86,10,18,7,7,0.4,0.4
2024-09-10T1400,1896A,105.4379,28.8833,泸州市,市环监站,,45,30,29,22,18,143,,85,85,8,17,6,5,0.5,0.4
2024-09-10T1400,3490A,105.3617,28.7703,泸州市,纳溪区环保局,,44,40,35,25,28,138,,82,82,8,20,6,6,0.3,0.4
2024-09-10T1400,2183A,111.1406,37.5211,吕梁市,环保局,,50,,34,35,21,48,,54,44,17,14,3,3,0.5,0.5
2024-09-10T1400,2185A,111.1297,37.5136,吕梁市,自来水公司,,38,,32,26,15,54,,54,45,16,14,3,2,0.4,0.5
2024-09-10T1400,2867A,111.1283,37.51,吕梁市,马茂庄小学,,48,48,40,20,20,40,,39,31,24,26,4,5,0.1,0.2
2024-09-10T1400,1812A,112.3931,34.6516,洛阳市,市委党校,颗粒物(PM10),52,54,49,23,29,51,,60,60,12,9,6,5,0.7,0.7
2024-09-10T1400,1814A,112.4657,34.6871,洛阳市,豫西宾馆,,47,47,57,26,29,53,,55,55,9,9,5,8,0.6,0.6
2024-09-10T1400,1815A,112.494,34.6886,洛阳市,河南林校,,44,44,47,26,28,52,,53,53,13,12,6,8,0.5,0.5
2024-09-10T1400,1816A,112.3844,34.623,洛阳市,开发区管委会,,,,44,,28,58,,63,63,11,9,2,3,0.5,0.5
2024-09-10T1400,1817A,112.4267,34.6258,洛阳市,市委新办公区,,50,50,46,33,35,58,,65,65,7,4,2,3,0.7,0.7
2024-09-10T1400,3340A,112.6005,34.6326,洛阳市,伊滨,颗粒物(PM10),63,75,44,30,32,51,,58,58,12,7,6,6,0.7,0.6
2024-09-10T1400,3341A,112.4951,34.6332,洛阳市,中移产业园,,47,47,48,27,28,54,,61,61,11,7,2,3,0.9,0.9
2024-09-10T1400,3593A,112.5736,34.8993,洛阳市,吉利监测站,,32,32,49,18,22,67,,64,52,7,8,1,2,0.6,0.7
2024-09-10T1400,3635A,112.3677,34.662,洛阳市,河科大西苑校区,颗粒物(PM10),53,56,49,21,22,53,,58,58,11,9,3,4,0.8,0.7
2024-09-10T1400,3636A,112.4388,34.6781,洛阳市,英才小学,,45,45,52,31,35,46,,53,53,12,12,2,4,0.6,0.6
2024-09-10T1400,2399A,114.051,33.5699,漯河市,三五一五工厂,颗粒物(PM10),78,105,68,19,34,104,,88,88,8,14,5,6,0.7,0.8
2024-09-10T1400,2400A,114.0055,33.5698,漯河市,漯河大学,颗粒物(PM10),61,72,57,17,33,102,,94,94,6,11,4,5,0.7,0.7
2024-09-10T1400,2401A,114.0138,33.5828,漯河市,市水利局,,,,58,14,31,99,,87,87,4,9,4,4,0.9,0.7
2024-09-10T1400,2402A,114.0261,33.5698,漯河市,市广电局,颗粒物(PM10),70,90,63,20,28,104,,91,91,2,9,6,8,0.8,0.7
2024-09-10T1400,3478A,113.9749,33.5664,漯河市,市图书馆,颗粒物(PM10),77,103,61,29,36,105,,93,93,5,10,8,10,0.6,0.6
2024-09-10T1400,3479A,114.0967,33.5906,漯河市,召陵区卫健委,颗粒物(PM10),74,97,69,34,38,108,,86,86,5,15,4,6,0.7,0.6
2024-09-10T1400,1798A,118.5092,31.6837,马鞍山市,湖东路四小,,42,36,30,16,18,133,,85,85,9,14,6,7,0.7,0.7
2024-09-10T1400,1799A,118.5024,31.6449,马鞍山市,开发区,,42,33,36,26,20,132,,78,78,8,17,6,7,0.8,0.7
2024-09-10T1400,1800A,118.5228,31.7231,马鞍山市,慈湖,,43,28,29,25,19,136,,85,85,4,9,7,8,0.9,0.8
2024-09-10T1400,1802A,118.6245,31.7241,马鞍山市,濮塘,,43,31,23,21,18,136,,81,81,10,15,7,7,0.9,0.7
2024-09-10T1400,3633A,118.4918,31.6809,马鞍山市,雨山,,41,25,27,24,17,129,,83,83,5,10,8,8,0.8,0.7
2024-09-10T1400,1686A,111.0286,21.4688,茂名市,电白南海,,,,27,,12,91,,63,63,6,10,10,11,0.4,0.7
2024-09-10T1400,1687A,110.9294,21.6533,茂名市,茂石化七小,,24,14,23,7,12,76,,51,51,4,8,6,6,0.5,0.5
2024-09-10T1400,1688A,110.9107,21.6687,茂名市,健康路,,26,,20,9,8,81,,56,56,4,8,10,11,0.5,0.6
2024-09-10T1400,1689A,110.8592,21.6828,茂名市,高岭,,23,17,25,7,12,73,,49,49,12,12,5,10,0.6,0.7
2024-09-10T1400,3450A,111.01,21.5165,茂名市,电白水东,,30,17,20,12,13,95,,58,58,7,8,8,7,0.4,0.4
2024-09-10T1400,2539A,104.0308,30.0478,眉山市,黑龙滩水库,,32,31,30,10,18,102,,79,79,2,5,3,3,0.4,0.4
2024-09-10T1400,2540A,103.8416,30.0874,眉山市,气象局,,36,12,25,7,10,113,,79,79,6,12,6,6,0.4,0.4
2024-09-10T1400,3137A,103.8578,30.0744,眉山市,市委党校,,35,12,18,3,7,112,,83,83,6,10,7,8,0.4,0.5
2024-09-10T1400,3148A,103.8291,30.0564,眉山市,区人社局,,38,18,24,3,5,120,,86,86,11,14,7,8,0.5,0.5
2024-09-10T1400,1690A,116.1231,24.3284,梅州市,梅江月梅,,25,11,14,9,5,79,,58,58,2,6,6,6,0.2,0.3
2024-09-10T1400,1691A,116.0797,24.2719,梅州市,梅县新城,,34,23,15,14,8,108,,62,62,4,9,4,4,0.4,0.3
2024-09-10T1400,1692A,116.1248,24.2654,梅州市,环境监控中心,,25,19,19,12,10,80,,59,59,5,11,4,6,0.4,0.4
2024-09-10T1400,3315A,116.1233,24.2991,梅州市,梅龙,,25,14,12,8,8,79,,61,61,2,7,9,8,0.4,0.5
2024-09-10T1400,1878A,104.7778,31.4741,绵阳市,富乐山,,29,10,15,3,10,91,,68,68,4,8,2,2,0.5,0.5
2024-09-10T1400,1879A,104.7563,31.4535,绵阳市,市人大,,29,8,19,3,9,90,,67,67,6,14,8,7,0.4,0.4
2024-09-10T1400,1880A,104.6697,31.4668,绵阳市,高新区自来水公司,,32,7,16,3,7,100,,66,66,3,14,3,3,0.6,0.6
2024-09-10T1400,1881A,104.7287,31.5075,绵阳市,三水厂,,30,12,16,7,11,95,,67,67,3,15,4,4,0.6,0.6
2024-09-10T1400,3491A,104.69,31.5322,绵阳市,西科大附属小学,,31,8,15,3,9,98,,64,64,3,15,4,4,0.5,0.6
2024-09-10T1400,3492A,104.5648,31.5343,绵阳市,安州区旅游局,,33,6,19,3,13,104,,58,58,5,12,8,7,0.5,0.6
2024-09-10T1400,1784A,129.61,44.561,牡丹江市,环保大楼,,22,22,17,11,15,57,,55,52,4,5,7,7,0.3,0.3
2024-09-10T1400,1785A,129.6115,44.5782,牡丹江市,文化广场,,29,23,20,20,17,54,,48,48,5,8,8,8,0.2,0.3
2024-09-10T1400,1786A,129.5904,44.5963,牡丹江市,第一医院,,27,27,20,7,15,62,,57,57,4,8,6,6,0.2,0.3
2024-09-10T1400,1787A,129.6364,44.6075,牡丹江市,机车工厂,,26,26,26,15,15,54,,48,48,8,9,7,6,0.2,0.3
2024-09-10T1400,1788A,129.6386,44.5462,牡丹江市,第一中学,,22,22,22,11,16,60,,59,57,4,5,6,6,0.2,0.3
2024-09-10T1400,2531A,105.0703,29.61,内江市,市监测站,,36,16,29,15,22,113,,79,79,10,17,4,4,0.2,0.3
2024-09-10T1400,2532A,105.0717,29.5947,内江市,东兴区政府,,36,,18,11,14,114,,74,74,12,20,3,3,0.6,0.6
2024-09-10T1400,2533A,105.0653,29.5817,内江市,内江二中,,37,18,24,17,19,118,,75,75,9,19,7,7,0.5,0.5
2024-09-10T1400,2534A,105.0406,29.5822,内江市,内江日报社,,39,18,27,17,19,122,,79,79,14,24,5,7,0.5,0.5
2024-09-10T1400,2628A,92.0657,31.4846,那曲市,那曲监测站,,28,28,23,11,15,83,,76,70,6,7,6,6,0.4,0.4
2024-09-10T1400,3128A,92.0506,31.4797,那曲市,那曲会议中心,,30,7,16,3,6,96,,81,81,3,6,4,4,0.4,0.4
2024-09-10T1400,1290A,115.8931,28.6843,南昌市,省外办,,43,31,38,22,26,136,,96,96,10,20,12,11,0.3,0.4
2024-09-10T1400,1291A,115.8886,28.7003,南昌市,省林业公司,,47,31,46,19,24,149,,103,103,8,22,9,8,0.6,0.6
2024-09-10T1400,1292A,115.8126,28.7442,南昌市,林科所,,46,24,29,12,18,145,,120,120,12,18,11,11,0.6,0.6
2024-09-10T1400,1294A,115.8518,28.687,南昌市,建工学校,,49,29,38,16,18,155,,109,109,7,18,12,11,0.6,0.6
2024-09-10T1400,1295A,115.8921,28.6424,南昌市,象湖,,45,23,30,14,20,142,,107,107,4,13,6,6,0.3,0.4
2024-09-10T1400,1296A,115.7423,28.7996,南昌市,武术学校,,40,,27,28,17,118,,84,84,4,7,4,3,0.4,0.5
2024-09-10T1400,1298A,115.9314,28.6842,南昌市,省站,,40,27,38,18,26,126,,97,97,14,16,9,9,0.7,0.7
2024-09-10T1400,3046A,115.9084,28.6062,南昌市,机电学校,,44,40,50,17,22,140,,99,99,6,20,10,10,0.4,0.6
2024-09-10T1400,3690A,115.9721,28.7031,南昌市,外国语学校,,41,30,41,18,17,131,,101,101,7,16,8,7,0.5,0.5
2024-09-10T1400,1905A,106.056,30.8064,南充市,西山风景区,,38,,12,14,15,119,,83,83,5,5,1,1,0.7,0.7
2024-09-10T1400,1906A,106.0789,30.8023,南充市,南充市委,,41,31,24,17,14,129,,86,86,6,9,3,2,0.3,0.3
2024-09-10T1400,1907A,106.1031,30.8217,南充市,南充炼油厂,,43,27,27,13,17,135,,88,88,7,8,3,2,0.5,0.5
2024-09-10T1400,1908A,106.1064,30.7856,南充市,高坪区监测站,,42,23,22,13,13,134,,86,86,11,11,4,3,0.4,0.4
2024-09-10T1400,1909A,106.0642,30.7636,南充市,嘉陵区环保局,,44,23,23,17,13,140,,90,90,9,11,4,5,0.3,0.4
2024-09-10T1400,1910A,106.1087,30.8388,南充市,市环境监测站,,41,27,28,12,14,129,,87,87,9,8,3,3,0.3,0.3
2024-09-10T1400,1151A,118.8086,32.1065,南京市,迈皋桥,,36,23,25,19,17,115,,79,79,10,20,4,4,0.2,0.4
2024-09-10T1400,1152A,118.7538,32.0551,南京市,草场门,,38,24,28,19,16,120,,77,77,9,15,6,6,0.3,0.4
2024-09-10T1400,1153A,118.7794,32.0745,南京市,山西路,,40,31,27,22,17,126,,83,83,2,8,4,4,0.3,0.4
2024-09-10T1400,1154A,118.7752,32.0023,南京市,中华门,,34,24,23,12,13,108,,71,71,12,20,6,6,0.4,0.4
2024-09-10T1400,1155A,118.8109,32.0309,南京市,瑞金路,,,27,28,14,16,115,,81,81,2,10,,5,0.5,0.5
2024-09-10T1400,1156A,118.7997,32.0754,南京市,玄武湖,,38,35,31,11,12,119,,74,74,6,13,6,6,0.6,0.6
2024-09-10T1400,1157A,118.6414,32.0931,南京市,浦口,,43,,31,30,28,121,,78,78,7,16,4,5,0.6,0.6
2024-09-10T1400,1158A,118.7356,31.9996,南京市,奥体中心,,39,21,27,19,19,122,,80,80,7,14,5,6,0.3,0.4
2024-09-10T1400,1159A,118.9125,32.1028,南京市,仙林大学城,,,31,31,27,24,121,,83,83,9,16,,9,0.4,0.5
2024-09-10T1400,3422A,118.8436,31.9198,南京市,江宁彩虹桥,,45,45,33,19,18,118,,74,74,2,15,4,4,0.5,0.6
2024-09-10T1400,3423A,119.0138,31.6494,南京市,溧水永阳,,44,34,26,23,17,140,,84,84,9,12,4,4,0.6,0.4
2024-09-10T1400,3424A,118.879,31.3302,南京市,高淳老职中,,44,39,26,22,19,140,,88,88,7,10,5,5,0.4,0.3
2024-09-10T1400,3427A,118.8554,32.3578,南京市,六合雄州,,22,21,36,14,22,69,,49,49,9,15,2,4,0.4,0.6
2024-09-10T1400,1401A,108.3103,22.7881,南宁市,二十一中,,27,27,24,12,15,84,,54,54,7,17,3,4,0.8,0.8
2024-09-10T1400,1402A,108.3141,22.8528,南宁市,北湖,,25,15,24,14,13,78,,50,50,6,21,3,5,0.6,0.6
2024-09-10T1400,1403A,108.3206,22.8225,南宁市,市监测站,,26,25,25,16,14,81,,48,48,8,22,5,6,0.8,0.8
2024-09-10T1400,1404A,108.3829,22.8037,南宁市,大自然花园,,25,24,21,12,12,80,,54,54,6,15,4,4,0.6,0.7
2024-09-10T1400,1405A,108.4394,22.7904,南宁市,仙葫,,25,17,24,16,16,79,,53,53,5,16,7,7,0.8,0.9
2024-09-10T1400,1406A,108.2397,22.8467,南宁市,区农职院,,26,20,27,13,17,83,,48,48,4,15,2,7,0.7,0.7
2024-09-10T1400,1407A,108.3275,22.735,南宁市,英华嘉园,,28,28,28,16,16,89,,48,48,8,19,4,4,0.6,0.6
2024-09-10T1400,1408A,108.2257,22.7757,南宁市,沙井镇街道办,,29,27,28,12,15,92,,46,46,11,21,3,3,0.6,0.6
2024-09-10T1400,3401A,108.4834,22.7618,南宁市,红星社区,细颗粒物(PM2.5),52,,25,36,31,87,,,,4,10,1,1,0.6,0.6
2024-09-10T1400,2331A,118.0966,26.6761,南平市,茫荡山,,,,,,,,,,,,,,,,
2024-09-10T1400,2332A,118.1681,26.6369,南平市,南平市监测站,,30,27,17,16,8,94,,54,54,5,10,6,5,0.5,0.6
2024-09-10T1400,2333A,118.1825,26.6489,南平市,南平铝业有限公司,,29,,17,20,12,92,,53,53,4,11,5,5,0.4,0.5
2024-09-10T1400,2334A,118.1756,26.6272,南平市,南平七中,,30,22,22,17,12,94,,51,51,4,8,4,3,0.5,0.5
2024-09-10T1400,1168A,120.9098,31.9663,南通市,狼山街道,,28,24,20,12,16,87,,72,72,4,8,6,6,0.4,0.4
2024-09-10T1400,1169A,120.86,32.0005,南通市,虹桥,,25,25,23,15,16,80,,68,68,3,5,6,6,0.4,0.4
2024-09-10T1400,1170A,120.87,32.02,南通市,城中,,26,26,27,13,13,83,,70,70,3,7,6,6,0.5,0.5
2024-09-10T1400,1171A,120.94,31.93,南通市,星湖花园,,28,19,19,13,15,87,,70,70,6,12,6,5,0.5,0.5
2024-09-10T1400,1172A,120.81,32.0417,南通市,紫琅学院,,24,20,16,14,11,76,,61,61,5,11,7,7,0.4,0.5
2024-09-10T1400,3291A,121.067,32.062,南通市,通州监测站,,28,27,24,14,15,89,,75,75,3,6,4,4,0.5,0.6
2024-09-10T1400,3432A,120.9348,31.9883,南通市,环境教育馆,,27,22,27,15,17,86,,71,71,1,9,4,4,0.4,0.4
2024-09-10T1400,2404A,112.5224,33.0122,南阳市,瓦房庄,颗粒物(PM10),57,63,51,25,27,149,,111,111,7,12,4,3,0.4,0.5
2024-09-10T1400,2405A,112.5003,32.9735,南阳市,汉画馆,颗粒物(PM10),58,65,54,30,32,139,,106,106,10,17,6,6,0.5,0.6
2024-09-10T1400,2406A,112.5573,33.027,南阳市,气象站,颗粒物(PM10),53,56,53,24,26,145,,106,106,8,12,7,6,0.6,0.6
2024-09-10T1400,2407A,112.5481,32.9689,南阳市,理工学院,颗粒物(PM10),53,56,46,19,23,145,,109,109,8,13,6,6,0.5,0.5
2024-09-10T1400,4008A,112.5234,32.9922,南阳市,卧龙区政府,颗粒物(PM10),52,54,50,22,28,143,,109,109,11,15,4,6,0.5,0.6
2024-09-10T1400,1234A,121.8358,29.911,宁波市,区环保大楼,,22,21,38,15,26,41,,55,55,27,21,3,5,0.7,0.7
2024-09-10T1400,1235A,121.56,29.82,宁波市,万里学院,,32,32,39,18,32,60,,56,56,18,26,10,11,0.6,0.6
2024-09-10T1400,1236A,121.713,29.9572,宁波市,龙赛医院,,27,27,30,12,18,58,,72,71,14,14,7,10,0.5,0.6
2024-09-10T1400,1239A,121.633,29.7733,宁波市,钱湖水厂,,20,19,40,12,28,63,,46,46,14,18,8,8,0.4,0.6
2024-09-10T1400,1240A,121.5856,29.8635,宁波市,太古小学,,26,26,38,16,25,64,,62,62,16,21,6,8,0.9,0.8
2024-09-10T1400,1241A,121.524,29.8674,宁波市,市环境监测中心,,31,31,37,16,23,64,,59,59,14,24,5,6,0.7,0.7
2024-09-10T1400,2871A,121.6147,29.9017,宁波市,万里国际学校,,29,24,35,20,25,61,,72,72,21,20,7,9,0.4,0.5
2024-09-10T1400,3710A,121.5594,29.8975,宁波市,白沙活动中心,,34,34,33,16,27,70,,65,65,12,20,8,10,0.3,0.4
2024-09-10T1400,2339A,119.5001,26.6946,宁德市,金涵水库,,,,,,,,,,,,,,,,
2024-09-10T1400,2341A,119.5388,26.6612,宁德市,宁德市监测站,,31,25,21,21,17,99,,67,67,7,9,6,6,0.3,0.4
2024-09-10T1400,3209A,119.5231,26.6562,宁德市,宁德一中,,31,26,24,16,14,98,,64,64,4,6,6,6,0.2,0.2
2024-09-10T1400,2618A,98.8601,25.8567,怒江傈僳族自治州,州监测站,,18,12,25,3,17,57,,34,34,5,8,6,7,0.5,0.6
2024-09-10T1400,2619A,98.8546,25.8417,怒江傈僳族自治州,泸水一中,,,15,23,,14,53,,28,28,8,12,5,5,0.4,0.4
2024-09-10T1400,1888A,101.6891,26.571,攀枝花市,弄弄坪,,35,18,30,18,12,109,,72,72,8,14,14,14,0.6,0.5
2024-09-10T1400,1889A,101.5769,26.5928,攀枝花市,河门口,,33,13,22,6,10,104,,74,74,9,13,6,12,0.6,0.8
2024-09-10T1400,1890A,101.7169,26.585,攀枝花市,炳草岗,,39,25,30,16,13,123,,71,71,9,16,12,18,0.6,0.7
2024-09-10T1400,1891A,101.7369,26.5008,攀枝花市,仁和,,41,23,26,15,16,129,,76,76,14,12,20,13,1.0,0.7
2024-09-10T1400,2835A,101.7227,26.567,攀枝花市,四十中小,,42,18,28,13,13,134,,82,82,8,10,13,18,0.9,0.7
2024-09-10T1400,1604A,122.0303,41.1489,盘锦市,开发区,,20,13,21,7,12,64,,88,59,16,12,5,5,0.1,0.2
2024-09-10T1400,1605A,122.0485,41.0883,盘锦市,兴隆台,,23,12,21,3,11,72,,88,61,19,15,10,8,0.3,0.4
2024-09-10T1400,1606A,121.8297,41.1028,盘锦市,新生街道,,15,13,20,6,11,48,,76,49,15,10,7,7,0.3,0.4
2024-09-10T1400,1832A,113.3257,33.742,平顶山市,新华旅馆,,45,45,67,13,36,103,,82,82,5,15,4,6,0.8,0.8
2024-09-10T1400,1833A,113.2919,33.737,平顶山市,规划设计院,,46,46,52,6,28,106,,84,84,13,20,7,9,0.7,0.7
2024-09-10T1400,1834A,113.182,33.774,平顶山市,平顶山工学院,,49,49,48,7,22,104,,80,80,8,16,6,9,0.9,0.8
2024-09-10T1400,3204A,113.3025,33.73,平顶山市,规划局,颗粒物(PM10),57,63,60,26,30,103,,80,80,7,16,3,5,0.4,0.4
2024-09-10T1400,3594A,112.8867,33.9116,平顶山市,石龙区,颗粒物(PM10),59,67,81,16,25,103,,82,82,9,25,11,11,0.5,0.5
2024-09-10T1400,2656A,106.6692,35.5461,平凉市,聚贤嘉苑,,29,29,38,9,15,81,,93,83,15,11,5,5,0.4,0.4
2024-09-10T1400,2657A,106.7021,35.5307,平凉市,博物馆,,29,28,40,8,14,92,,94,86,12,10,7,8,0.4,0.3
2024-09-10T1400,2347A,114.0997,27.5002,萍乡市,武功山,,27,6,6,3,3,85,,57,57,4,4,11,9,0.3,0.3
2024-09-10T1400,2348A,113.8385,27.6434,萍乡市,中医院,,34,19,34,12,19,106,,80,80,2,11,9,12,0.6,0.7
2024-09-10T1400,2349A,113.8493,27.6253,萍乡市,市政府车库,,32,10,29,10,24,102,,75,75,1,12,10,15,0.7,0.8
2024-09-10T1400,2350A,113.8676,27.6435,萍乡市,市环保局,,30,27,34,11,22,96,,76,76,2,10,8,13,0.5,0.6
2024-09-10T1400,2351A,113.866,27.6198,萍乡市,安源区政府,,31,15,34,8,12,99,,75,75,5,14,10,16,0.3,0.5
2024-09-10T1400,2319A,119.0141,25.4325,莆田市,荔城区仓后路,,36,36,26,25,17,105,,69,69,6,5,7,7,0.6,0.5
2024-09-10T1400,2320A,119.0015,25.4553,莆田市,莆田市监测站,颗粒物(PM10),53,56,24,22,15,103,,65,65,8,4,7,6,0.5,0.5
2024-09-10T1400,2321A,119.1119,25.4561,莆田市,涵江区六中,,44,44,29,24,18,121,,75,75,6,6,9,8,0.7,0.5
2024-09-10T1400,2322A,119.1013,25.3215,莆田市,秀屿区政府,,38,29,29,26,23,110,,73,73,2,6,8,7,0.6,0.6
2024-09-10T1400,2323A,118.981,25.4792,莆田市,东圳水库,,,,,,,,,,,,,,,,
2024-09-10T1400,2392A,115.0312,35.7636,濮阳市,环保局,,23,18,38,14,29,71,,70,69,9,11,6,6,0.4,0.7
2024-09-10T1400,2394A,115.0574,35.7609,濮阳市,油田运输公司,,23,21,37,10,26,71,,72,70,7,8,2,3,0.5,0.6
2024-09-10T1400,2395A,115.0866,35.7754,濮阳市,油田物探公司,,23,22,42,16,28,69,,70,69,8,9,2,1,0.5,0.6
2024-09-10T1400,3021A,115,35.7668,濮阳市,濮水河管理处,,22,19,38,14,28,69,,69,67,8,10,5,4,0.4,0.5
2024-09-10T1400,2601A,100.98,22.7633,普洱市,市环保局,,17,13,16,3,9,53,,52,52,4,6,9,9,0.4,0.5
2024-09-10T1400,2602A,100.9817,22.8322,普洱市,普洱第二中学,,18,10,15,7,9,57,,50,50,3,7,8,9,0.5,0.5
2024-09-10T1400,2262A,131.0518,45.8751,七台河市,新一中,,22,6,16,3,7,70,,63,63,5,6,9,9,0.9,1
2024-09-10T1400,3345A,131.0577,45.7879,七台河市,中波台,,17,12,12,3,7,52,,44,44,11,13,6,7,0.4,0.5
2024-09-10T1400,3637A,131.0176,45.7761,七台河市,人民广场,,16,10,16,8,8,50,,45,42,9,9,7,7,0.2,0.3
2024-09-10T1400,3684A,130.8781,45.8222,七台河市,新建矿广场,,32,,26,22,17,50,,43,43,9,15,4,6,0.3,0.5
2024-09-10T1400,1779A,123.9305,47.3636,齐齐哈尔市,安居小区,,20,19,30,3,10,63,,55,55,4,6,8,10,0.3,0.4
2024-09-10T1400,1780A,123.9488,47.3386,齐齐哈尔市,中心广场,,19,12,27,3,9,59,,50,50,5,7,4,5,0.1,0.2
2024-09-10T1400,1781A,123.9483,47.3227,齐齐哈尔市,农牧车辆厂,,19,19,34,3,10,60,,52,52,4,7,7,8,0.2,0.2
2024-09-10T1400,1783A,123.945,47.2988,齐齐哈尔市,市环境监测站,,20,18,28,6,16,61,,51,51,4,6,7,9,0.2,0.3
2024-09-10T1400,3662A,123.6333,47.2075,齐齐哈尔市,富区青少年活动中心,,25,25,34,3,10,60,,52,52,7,9,9,16,0.5,0.6
2024-09-10T1400,2591A,107.9783,26.5747,黔东南苗族侗族自治州,市环境监测站,,26,19,13,9,8,81,,51,51,11,11,3,3,0.5,0.5
2024-09-10T1400,2881A,107.8908,26.5311,黔东南苗族侗族自治州,凯里学院,,30,19,10,9,7,96,,59,59,5,9,2,2,0.6,0.5
2024-09-10T1400,2593A,107.5228,26.2403,黔南布依族苗族自治州,小围寨,,27,7,9,3,3,85,,46,46,4,6,3,4,0.4,0.3
2024-09-10T1400,3538A,107.5175,26.2978,黔南布依族苗族自治州,沙坝,,28,9,15,3,5,88,,49,49,2,7,3,3,0.1,0.2
2024-09-10T1400,2589A,104.9022,25.0925,黔西南布依族苗族自治州,场坝街,,22,13,14,3,6,70,,53,53,5,8,4,7,0.1,0.1
2024-09-10T1400,2590A,104.8811,25.0992,黔西南布依族苗族自治州,坪东大道,,23,11,18,6,7,72,,50,50,3,6,7,7,0.1,0.1
2024-09-10T1400,2502A,108.6236,21.9667,钦州市,市环保站,,17,6,14,3,6,52,,34,34,6,14,5,6,0.5,0.6
2024-09-10T1400,2503A,108.6549,21.9481,钦州市,沙埠小学,,17,,20,11,12,54,,40,40,7,15,4,5,0.5,0.5
2024-09-10T1400,2504A,108.5989,21.7431,钦州市,港区一小,,42,42,30,10,12,40,,27,25,13,16,5,6,0.9,0.6
2024-09-10T1400,3404A,108.5959,21.9633,钦州市,北职校,,19,8,20,7,12,58,,37,37,4,13,4,5,0.5,0.6
2024-09-10T1400,1042A,119.5134,39.8207,秦皇岛市,北戴河环保局,,20,14,31,3,11,63,,79,61,8,8,2,2,0.2,0.3
2024-09-10T1400,1043A,119.7493,40.0116,秦皇岛市,第一关,,16,,31,11,20,47,,66,45,9,12,3,3,0.1,0.3
2024-09-10T1400,1044A,119.5897,39.9499,秦皇岛市,监测站,,23,,31,16,21,45,,77,48,12,11,3,3,0.3,0.4
2024-09-10T1400,1046A,119.5251,39.9041,秦皇岛市,建设大厦,,18,12,31,10,12,56,,76,57,3,8,2,3,0.2,0.4
2024-09-10T1400,3132A,119.610547,39.943889,秦皇岛市,文明里,,16,,32,3,14,50,,79,54,7,8,3,2,0.4,0.5
2024-09-10T1400,1307A,120.6659,36.2403,青岛市,仰口,,,,11,13,11,107,,95,95,,,6,5,0.5,0.4
2024-09-10T1400,1310A,120.4134,36.0658,青岛市,市南区东部子站,,29,12,10,7,6,90,,91,90,10,9,6,7,0.3,0.3
2024-09-10T1400,1311A,120.3664,36.1032,青岛市,四方区子站,,33,17,12,14,9,103,,93,93,15,12,11,10,0.7,0.7
2024-09-10T1400,1312A,120.2994,36.054,青岛市,市南区西部子站,,25,,10,10,5,80,,88,86,12,10,8,8,0.6,0.6
2024-09-10T1400,1313A,120.4581,36.0858,青岛市,崂山区子站,,30,9,9,3,3,94,,97,97,23,14,10,8,0.5,0.4
2024-09-10T1400,1314A,120.1983,35.9608,青岛市,黄岛区子站,,,,6,12,6,93,,93,93,,9,8,8,0.5,0.4
2024-09-10T1400,1315A,120.3999,36.3083,青岛市,城阳区子站,臭氧1小时,74,39,19,15,10,179,,114,114,15,17,8,7,0.7,0.6
2024-09-10T1400,1966A,120.0405,35.8735,青岛市,黄岛区4号,,32,12,7,3,4,100,,88,88,2,4,10,10,0.5,0.5
2024-09-10T1400,3362A,120.5014,36.4034,青岛市,即墨2号,,37,,20,13,14,118,,106,106,7,14,7,6,0.5,0.4
2024-09-10T1400,3642A,120.3503,36.0736,青岛市,市北区南部,,26,17,14,3,5,81,,80,80,13,13,8,8,0.5,0.6
2024-09-10T1400,3643A,120.3948,36.1805,青岛市,李沧区北部,,35,17,14,12,11,112,,100,100,17,15,9,8,0.6,0.5
2024-09-10T1400,1702A,113.0426,23.691,清远市,环保大楼,,37,,25,16,12,117,,86,86,7,17,6,8,0.6,0.6
2024-09-10T1400,1703A,113.0208,23.7106,清远市,凤城街办,,31,15,26,12,13,98,,73,73,7,17,6,7,0.5,0.5
2024-09-10T1400,3025A,113.0477,23.6344,清远市,技师学院,,44,16,28,8,14,140,,90,90,6,18,4,5,0.4,0.5
2024-09-10T1400,3318A,112.9903,23.7403,清远市,清新太和,,30,9,22,7,11,93,,67,67,5,12,4,6,0.8,0.9
2024-09-10T1400,3455A,113.076,23.7198,清远市,清城东城,,38,19,24,10,14,121,,80,80,4,12,6,7,0.6,0.6
2024-09-10T1400,2661A,107.6325,35.7357,庆阳市,庆阳五中,,29,29,51,12,19,86,,74,74,3,5,5,5,0.3,0.3
2024-09-10T1400,2662A,107.6364,35.7067,庆阳市,市环保局,,27,24,50,10,15,84,,75,75,7,7,4,4,0.6,0.6
2024-09-10T1400,1916A,103.7897,25.5035,曲靖市,环境监测站,,26,,11,6,5,83,,60,60,4,9,2,4,0.5,0.6
2024-09-10T1400,1917A,103.8,25.5364,曲靖市,烟厂办公区,,25,6,10,3,6,78,,58,58,5,9,4,4,0.5,0.6
2024-09-10T1400,3376A,103.7947,25.462,曲靖市,南苑二区,,26,12,7,3,5,83,,67,67,5,9,7,7,0.4,0.6
2024-09-10T1400,3377A,103.7444,25.5261,曲靖市,曲靖师范学院,,,,11,3,4,88,,66,66,10,15,7,7,0.4,0.5
2024-09-10T1400,1264A,118.8692,28.9398,衢州市,环保大楼,,43,40,32,30,20,130,,98,98,8,18,3,2,0.5,0.5
2024-09-10T1400,1265A,118.8709,28.9666,衢州市,实验学校,,40,35,31,28,20,123,,90,90,5,14,3,6,0.6,0.6
2024-09-10T1400,1266A,118.8621,28.9808,衢州市,衢州学院,,49,39,31,34,20,120,,88,88,6,15,5,4,0.4,0.4
2024-09-10T1400,1611A,118.5819,24.9117,泉州市,涂山街,细颗粒物(PM2.5),52,46,25,36,17,129,,71,71,9,10,3,2,0.5,0.5
2024-09-10T1400,1612A,118.5972,24.8978,泉州市,津头埔,颗粒物(PM10),51,52,28,32,18,125,,73,73,10,11,5,4,0.6,0.5
2024-09-10T1400,1613A,118.6663,24.9424,泉州市,万安,,45,44,28,31,18,137,,80,80,6,10,4,3,0.4,0.4
2024-09-10T1400,1614A,118.6117,24.9604,泉州市,清源山,,,,,,,,,,,,,,,,
2024-09-10T1400,3529A,118.6333,24.9264,泉州市,城华南路,,43,42,26,13,14,136,,79,79,5,5,4,4,0.5,0.4
2024-09-10T1400,2626A,88.8876,29.2718,日喀则市,日喀则监测站,,30,6,7,3,4,94,,94,94,4,5,6,6,0.5,0.4
2024-09-10T1400,3726A,88.8781,29.2426,日喀则市,林业技术推广中心,,29,6,6,3,4,90,,84,84,7,7,8,8,0.6,0.6
2024-09-10T1400,1659A,119.471,35.4209,日照市,监测站,,30,17,16,16,13,94,,81,81,9,17,9,10,0.4,0.4
2024-09-10T1400,1660A,119.523,35.4216,日照市,市政府广场,,32,14,12,3,8,101,,97,97,2,6,10,10,0.5,0.5
2024-09-10T1400,1661A,119.5587,35.4044,日照市,港务局,,33,,11,20,13,104,,102,102,6,4,11,9,0.6,0.7
2024-09-10T1400,3507A,119.5328,35.4625,日照市,职业技术学院,,34,12,11,7,9,108,,96,96,8,9,8,8,0.6,0.6
2024-09-10T1400,3604A,119.3266,35.1044,日照市,岚山环保分局,,28,19,23,7,7,88,,77,77,8,15,10,10,0.5,0.6
2024-09-10T1400,1835A,111.1922,34.7752,三门峡市,市政府,颗粒物(PM10),56,61,41,16,14,106,,68,68,10,15,12,12,0.5,0.6
2024-09-10T1400,1836A,111.1587,34.7942,三门峡市,开发区,颗粒物(PM10),55,60,31,21,14,95,,63,63,8,11,12,11,0.6,0.6
2024-09-10T1400,1838A,111.143,34.7955,三门峡市,风景区,,,,,,,,,,,,,,,,
2024-09-10T1400,3039A,111.1911,34.7829,三门峡市,三门峡市第一小学,颗粒物(PM10),55,60,45,16,11,99,,65,65,8,13,12,12,0.5,0.5
2024-09-10T1400,3598A,111.1,34.7167,三门峡市,富达温泉假日酒店,颗粒物(PM10),68,86,55,27,14,108,,77,77,12,13,20,15,0.5,0.5
2024-09-10T1400,2324A,117.6211,26.2625,三明市,三钢,,32,,15,22,10,80,,53,53,3,10,5,6,0.3,0.3
2024-09-10T1400,2325A,117.635,26.2714,三明市,三明二中,,25,14,14,12,8,80,,53,53,3,9,3,3,0.2,0.3
2024-09-10T1400,2326A,117.6028,26.2378,三明市,三元区政府,,25,16,21,7,11,78,,51,51,5,13,2,4,0.2,0.4
2024-09-10T1400,2327A,117.7275,26.3108,三明市,洋溪,,,,,,,,,,,,,,,,
2024-09-10T1400,1876A,109.5078,18.2489,三亚市,河东子站,,17,17,25,7,9,49,,44,39,12,6,3,3,0.4,0.4
2024-09-10T1400,1877A,109.4964,18.2681,三亚市,河西子站,,11,10,17,3,9,34,,42,33,5,6,3,3,0.3,0.3
2024-09-10T1400,3540A,109.7348,18.3443,三亚市,君悦子站,,21,10,21,3,8,65,,48,48,4,6,5,5,0.6,0.5
2024-09-10T1400,2624A,91.7608,29.2313,山南市,山南监测站,,34,6,12,3,5,108,,89,81,3,5,7,7,0.3,0.3
2024-09-10T1400,2625A,91.7706,29.2436,山南市,山南人民医院,,35,10,16,3,5,109,,90,81,6,9,8,8,0.4,0.4
2024-09-10T1400,1674A,116.6794,23.3667,汕头市,金平子站,,32,32,20,11,10,87,,62,62,4,13,5,7,0.4,0.5
2024-09-10T1400,1675A,116.7244,23.3633,汕头市,龙湖子站,,39,39,21,26,9,84,,54,54,2,9,7,7,0.5,0.6
2024-09-10T1400,1676A,116.7258,23.2775,汕头市,濠江子站,,38,33,19,26,14,91,,55,55,5,11,6,6,0.4,0.5
2024-09-10T1400,1677A,116.7519,23.4714,汕头市,澄海子站,,36,36,22,11,10,90,,62,62,4,11,5,5,0.7,0.8
2024-09-10T1400,1678A,116.6092,23.2539,汕头市,潮阳子站,,26,23,21,14,10,82,,58,58,2,8,6,6,0.5,0.6
2024-09-10T1400,3444A,116.454,23.2684,汕头市,潮南峡山,,39,29,24,27,12,90,,68,68,1,6,6,6,0.6,0.7
2024-09-10T1400,3624A,116.4069,23.2533,汕头市,潮南子站,,45,45,28,14,12,98,,68,68,8,12,5,6,0.5,0.6
2024-09-10T1400,1693A,115.3653,22.775,汕尾市,市环保局,,27,27,14,18,10,79,,51,51,5,7,7,7,0.5,0.5
2024-09-10T1400,1694A,115.3706,22.7898,汕尾市,市政府,,21,,13,13,8,66,,46,46,6,9,6,7,0.4,0.4
2024-09-10T1400,1695A,115.3622,22.7925,汕尾市,新城中学,,35,32,21,24,9,70,,47,47,5,7,7,6,0.5,0.6
2024-09-10T1400,2645A,109.9154,33.8715,商洛市,监测站,,37,37,24,19,14,92,,67,67,6,7,5,4,0.5,0.6
2024-09-10T1400,3045A,109.9643,33.8471,商洛市,商州区中学,颗粒物(PM10),52,54,27,12,9,93,,66,66,9,10,6,6,0.5,0.5
2024-09-10T1400,2408A,115.6702,34.4285,商丘市,环境监测站,颗粒物(PM10),70,90,45,41,26,132,,90,90,8,11,5,5,0.8,0.6
2024-09-10T1400,2409A,115.6458,34.4045,商丘市,粮食局,颗粒物(PM10),73,95,46,39,25,139,,98,98,7,9,7,8,0.5,0.4
2024-09-10T1400,2410A,115.6293,34.3948,商丘市,睢阳区环保局,颗粒物(PM10),70,89,49,44,25,128,,92,92,6,8,6,7,0.6,0.5
2024-09-10T1400,3171A,115.6071,34.4465,商丘市,梁园区档案局,颗粒物(PM10),63,76,43,35,26,122,,92,92,6,8,7,8,0.5,0.5
2024-09-10T1400,1141A,121.4,31.238,上海市,普陀,,28,28,34,18,18,80,,74,74,13,16,5,6,0.5,0.5
2024-09-10T1400,1142A,121.478,31.2036,上海市,十五厂,,36,32,33,25,22,81,,75,75,16,16,9,9,0.6,0.4
2024-09-10T1400,1143A,121.467,31.3008,上海市,虹口,,28,25,33,19,20,78,,73,73,12,16,9,9,0.6,0.6
2024-09-10T1400,1144A,121.412,31.1654,上海市,徐汇上师大,,35,35,37,18,20,79,,77,77,18,17,6,6,0.8,0.7
2024-09-10T1400,1145A,121.536,31.2659,上海市,杨浦四漂,,29,29,41,16,20,85,,79,79,9,19,7,7,0.6,0.6
2024-09-10T1400,1147A,121.425,31.2261,上海市,静安监测站,,35,31,33,24,22,80,,77,77,15,16,6,7,0.5,0.5
2024-09-10T1400,1148A,121.703,31.1907,上海市,浦东川沙,,30,30,33,16,18,76,,81,81,15,15,6,6,0.5,0.5
2024-09-10T1400,1149A,121.533,31.2284,上海市,浦东新区监测站,,28,28,32,18,21,76,,70,70,17,19,6,6,0.4,0.4
2024-09-10T1400,1150A,121.577,31.2071,上海市,浦东张江,,31,31,34,17,23,69,,68,68,20,17,5,6,0.8,0.8
2024-09-10T1400,3265A,121.4316,31.3322,上海市,宝山庙行,,29,28,33,20,18,77,,74,74,16,17,6,7,0.5,0.4
2024-09-10T1400,3266A,121.8791,31.4662,上海市,崇明上实东滩,,27,24,26,16,19,86,,83,83,2,4,10,10,0.8,0.8
2024-09-10T1400,3268A,121.3162,31.2838,上海市,嘉定南翔,,30,28,33,21,20,79,,74,74,14,17,7,7,0.5,0.4
2024-09-10T1400,3269A,121.3359,30.7456,上海市,金山新城,,35,25,32,24,24,69,,69,69,14,15,5,6,0.6,0.6
2024-09-10T1400,3270A,121.4996,31.0739,上海市,闵行浦江,,30,30,33,19,24,76,,73,73,16,19,6,7,0.8,0.7
2024-09-10T1400,3271A,121.2886,31.1663,上海市,青浦徐泾,,32,30,34,22,23,83,,78,78,16,16,7,8,0.6,0.6
2024-09-10T1400,3272A,121.2186,31.0378,上海市,松江图书馆,,33,33,35,21,21,84,,70,70,16,17,7,7,0.4,0.4
2024-09-10T1400,3273A,121.3902,31.2059,上海市,长宁仙霞,,30,30,33,17,21,84,,81,81,13,14,8,9,0.6,0.6
2024-09-10T1400,3274A,121.7965,31.0507,上海市,浦东惠南,,31,31,34,18,22,74,,76,76,12,12,8,9,0.6,0.6
2024-09-10T1400,3544A,121.4891,30.925,上海市,奉贤南桥新城,,27,27,36,16,23,70,,70,70,14,14,8,8,0.7,0.6
2024-09-10T1400,2381A,118.005,28.4572,上饶市,百草园,,40,27,25,11,15,126,,88,88,3,7,2,4,0.8,0.6
2024-09-10T1400,2382A,117.9756,28.4436,上饶市,市监测站,,44,35,29,20,16,140,,97,97,6,12,4,6,0.5,0.6
2024-09-10T1400,2383A,117.9519,28.4628,上饶市,凤凰光学,,44,29,29,17,17,138,,95,95,6,13,6,7,0.8,0.8
2024-09-10T1400,3413A,118.1953,28.4401,上饶市,广丰区教体局,,,31,29,20,12,125,,83,83,5,8,,14,,0.5
2024-09-10T1400,3685A,117.897,28.4315,上饶市,双创科技城,,41,33,30,14,17,129,,91,91,3,11,6,7,0.5,0.5
2024-09-10T1400,1669A,113.5824,24.7733,韶关市,市八中,,44,44,28,27,15,92,,36,36,1,10,15,15,0.6,0.7
2024-09-10T1400,1671A,113.5917,24.7972,韶关市,园林处,,28,20,23,19,15,86,,35,35,2,9,12,14,0.3,0.8
2024-09-10T1400,1672A,113.6735,24.7791,韶关市,韶关学院,,28,28,22,13,11,79,,38,38,5,9,8,16,0.3,0.4
2024-09-10T1400,1673A,113.5971,24.6863,韶关市,曲江监测站,,36,36,33,23,14,94,,38,38,2,13,11,13,0.9,1
2024-09-10T1400,3622A,113.5556,24.8082,韶关市,碧湖山庄,,25,12,27,9,13,78,,33,33,1,7,9,12,0.3,0.4
2024-09-10T1400,2462A,111.5239,27.3033,邵阳市,市水土所,,,,28,,21,,,88,,,2,,7,,0.5
2024-09-10T1400,2463A,111.4733,27.2317,邵阳市,市一中,,38,31,37,14,24,120,,82,82,4,9,6,8,0.5,0.7
2024-09-10T1400,2464A,111.5283,27.2442,邵阳市,市化工厂,,37,28,27,14,20,116,,82,82,5,10,8,9,0.6,0.6
2024-09-10T1400,2465A,111.4503,27.2537,邵阳市,市罐头厂,细颗粒物(PM2.5),57,49,34,40,21,110,,78,78,4,8,6,6,0.5,0.5
2024-09-10T1400,2466A,111.4328,27.2272,邵阳市,市环保局,,39,39,32,20,22,115,,78,78,5,8,4,4,0.5,0.6
2024-09-10T1400,1247A,120.6053,29.9928,绍兴市,城东开发委,,50,48,47,35,33,87,,63,63,18,18,10,10,0.6,0.5
2024-09-10T1400,2921A,120.5483,30.0003,绍兴市,树下王站,,46,44,45,32,33,91,,56,56,14,16,6,7,0.8,0.8
