timepoint,stationcode,longitude,latitude,area,positionname,primarypollutant,aqi,pm10,pm10_24h,pm2_5,pm2_5_24h,o3,o3_24h,o3_8h,o3_8h_24h,no2,no2_24h,so2,so2_24h,co,co_24h
2024-08-12T1800,2566A,102.1879,31.914,阿坝藏族羌族自治州,州农科所,颗粒物(PM10),55,59,26,13,10,97,,73,73,26,17,7,8,0,0
2024-08-12T1800,2568A,102.2502,31.8896,阿坝藏族羌族自治州,马师校,,40,17,18,3,9,128,,99,99,6,9,3,3,0.2,0.3
2024-08-12T1800,3994A,102.2165,31.9024,阿坝藏族羌族自治州,马尔康中学西区,,40,9,14,9,12,125,,95,95,5,8,4,4,0.2,0.3
2024-08-12T1800,2695A,80.292,41.1694,阿克苏地区,电视台,,44,27,35,13,17,138,,127,127,7,14,5,4,0.4,0.5
2024-08-12T1800,2696A,80.2613,41.1551,阿克苏地区,艺术中心,,43,39,35,16,16,137,,125,125,1,13,4,4,0.3,0.5
2024-08-12T1800,2204A,105.6467,38.8363,阿拉善盟,西城区西花园,臭氧1小时,60,51,20,10,9,168,,145,145,9,12,10,9,0.7,0.8
2024-08-12T1800,2205A,105.6985,38.8411,阿拉善盟,蒙二幼,,48,44,15,15,6,153,,132,132,9,6,10,9,0.4,0.4
2024-08-12T1800,2206A,105.724,38.8516,阿拉善盟,环保局新楼,臭氧1小时,52,32,12,12,5,161,,139,139,6,5,10,9,0.4,0.4
2024-08-12T1800,2708A,88.1264,47.8517,阿勒泰地区,市站,,29,16,18,3,7,92,,88,88,14,10,8,7,0.6,0.6
2024-08-12T1800,2630A,80.1161,32.5,阿里地区,阿里监测站,,29,29,5,8,4,74,,83,72,6,6,6,8,0.2,0.2
2024-08-12T1800,3192A,80.0903,32.5028,阿里地区,阿里藏医院,,25,6,6,3,1,79,,86,77,2,3,6,6,0.2,0.2
2024-08-12T1800,2642A,109.0318,32.6537,安康市,香溪洞,,49,44,54,18,23,156,,122,122,5,6,7,6,0.3,0.3
2024-08-12T1800,2643A,109.0281,32.6939,安康市,安康市监测站,,48,39,60,16,21,152,,124,124,7,9,7,7,0.3,0.4
2024-08-12T1800,2644A,109.0072,32.6975,安康市,汉滨区检察院,,48,41,50,18,19,151,,113,113,8,7,8,7,0.4,0.4
2024-08-12T1800,2291A,117.0809,30.5177,安庆市,环科院,颗粒物(PM10),59,67,44,26,20,124,,125,125,14,18,7,7,0.6,0.7
2024-08-12T1800,2292A,117.0331,30.5119,安庆市,马山宾馆,,40,40,25,26,22,110,,122,122,16,24,8,9,0.6,0.6
2024-08-12T1800,2294A,116.9896,30.6145,安庆市,安庆大学,颗粒物(PM10),81,112,49,32,22,129,,133,133,12,14,8,14,1.0,1
2024-08-12T1800,3173A,117.0598,30.5351,安庆市,市人大,颗粒物(PM10),72,93,48,26,23,133,,131,131,7,14,7,9,0.5,0.5
2024-08-12T1800,3122A,105.9606,26.2611,安顺市,伍家关,,,,,,,,,,,,,,,,
2024-08-12T1800,3123A,105.9408,26.2431,安顺市,凤凰山,颗粒物(PM10),58,65,84,25,31,124,,119,119,13,8,10,12,0.3,0.3
2024-08-12T1800,3124A,105.9439,26.2564,安顺市,金钟山,颗粒物(PM10),61,72,80,26,31,133,,123,123,4,6,8,9,0.5,0.5
2024-08-12T1800,3125A,105.8983,26.2481,安顺市,娄家坡,颗粒物(PM10),57,64,85,27,32,137,,123,123,4,7,8,9,0.5,0.6
2024-08-12T1800,1818A,114.4839,36.0621,安阳市,棉研所,,,,,,,,,,,,,,,,
2024-08-12T1800,1819A,114.3551,36.1017,安阳市,红庙街,,49,28,44,3,12,156,,155,155,2,11,5,10,0.3,0.8
2024-08-12T1800,1820A,114.361,36.0681,安阳市,银杏小区,,49,34,34,12,11,154,,153,153,1,9,4,5,0.4,0.8
2024-08-12T1800,3141A,114.3922,36.0878,安阳市,信访局,臭氧1小时,55,24,37,9,14,164,,163,163,2,6,3,6,0.6,1
2024-08-12T1800,3669A,114.4705,36.0637,安阳市,左辅环卫站,,49,49,40,10,16,142,,149,149,1,15,5,6,0.8,1
2024-08-12T1800,3703A,114.2917,36.0949,安阳市,安钢职工学校,,46,32,44,7,18,147,,142,142,3,13,5,6,0.4,0.6
2024-08-12T1800,1748A,123.044,41.1196,鞍山市,深沟寺,颗粒物(PM10),54,57,48,27,21,77,,85,85,18,9,7,4,0.8,0.6
2024-08-12T1800,1749A,123.011,41.0931,鞍山市,太阳城,颗粒物(PM10),61,71,46,30,20,41,,85,80,55,9,23,4,4.7,0.8
2024-08-12T1800,1750A,123.0485,41.1442,鞍山市,太平,颗粒物(PM10),59,67,55,32,25,79,,91,89,23,14,6,4,1.0,0.6
2024-08-12T1800,1751A,122.9642,41.0971,鞍山市,铁西三道街,颗粒物(PM10),52,54,63,25,31,85,,93,93,29,22,9,9,2.2,1.4
2024-08-12T1800,1752A,122.9341,41.0833,鞍山市,铁西工业园区,,46,46,63,21,30,85,,92,92,18,19,6,8,1.2,1.6
2024-08-12T1800,1753A,123.022,41.0821,鞍山市,明达新区,颗粒物(PM10),59,67,49,29,22,46,,85,81,50,9,13,3,3.4,0.6
2024-08-12T1800,1754A,123.1289,41.0228,鞍山市,千山,,,,,,,,,,,,,,,,
2024-08-12T1800,2195A,107.4212,40.761,巴彦淖尔市,附二中,,40,24,37,24,22,125,,119,119,8,18,2,6,0.5,0.5
2024-08-12T1800,2196A,107.37,40.7372,巴彦淖尔市,市环保大楼,,39,25,35,17,14,123,,116,116,5,11,4,5,0.3,0.4
2024-08-12T1800,1956A,86.1472,41.7538,巴音郭楞蒙古自治州,孔雀公园,,40,36,37,11,12,128,,96,96,6,22,5,6,0.2,0.3
2024-08-12T1800,1957A,86.1972,41.7166,巴音郭楞蒙古自治州,棉纺厂,,43,23,33,9,12,136,,94,94,4,23,5,5,0.2,0.3
2024-08-12T1800,1958A,86.2357,41.7173,巴音郭楞蒙古自治州,经济开发区,,40,,25,16,14,128,,102,102,2,11,5,6,0.2,0.2
2024-08-12T1800,2914A,106.7677,31.8794,巴中市,苏山坪,颗粒物(PM10),51,51,67,24,28,136,,139,139,6,8,4,5,0.5,0.5
2024-08-12T1800,3182A,106.7656,31.8545,巴中市,丽阳花园,颗粒物(PM10),53,55,61,25,26,136,,138,138,8,13,3,4,0.5,0.6
2024-08-12T1800,3183A,106.7418,31.8654,巴中市,圣泉水务公司,颗粒物(PM10),51,52,60,23,25,136,,139,139,6,14,4,3,0.6,0.6
2024-08-12T1800,3616A,106.7616,31.8344,巴中市,市中心医院,颗粒物(PM10),52,53,63,22,27,141,,137,137,8,14,4,3,0.4,0.6
2024-08-12T1800,2235A,122.7911,45.6077,白城市,洮北区环保局,,19,12,11,3,7,59,,77,76,12,8,5,5,0.6,0.5
2024-08-12T1800,2236A,122.8738,45.5725,白城市,市环保局,,26,26,21,9,5,63,,78,77,8,6,5,4,0.4,0.4
2024-08-12T1800,2231A,126.4219,41.9171,白山市,喜丰,,20,20,25,7,8,64,,73,73,5,13,7,8,0.7,0.7
2024-08-12T1800,2232A,126.4077,41.9419,白山市,环保局,,26,26,22,14,9,60,,71,71,9,11,8,9,0.7,0.7
2024-08-12T1800,2647A,104.1724,36.5446,白银市,第三小学,,45,36,38,11,16,144,,132,132,9,16,80,91,0.5,0.7
2024-08-12T1800,2648A,104.1465,36.5482,白银市,动力公司,,45,40,30,3,13,143,,136,136,11,14,34,46,0.2,0.5
2024-08-12T1800,2512A,106.6103,23.9011,百色市,市监测站,,29,24,18,15,8,90,,92,92,7,7,6,6,0.6,0.6
2024-08-12T1800,2513A,106.6538,23.8859,百色市,市中心血站,,39,39,22,15,9,94,,92,92,9,11,26,6,0.8,0.7
2024-08-12T1800,3406A,106.6085,23.8798,百色市,祈福高中,,33,30,19,23,10,81,,88,88,4,7,3,3,0.8,0.8
2024-08-12T1800,2270A,117.396,32.939,蚌埠市,工人疗养院,,49,32,83,6,22,154,,168,167,6,11,9,11,0.3,0.4
2024-08-12T1800,2271A,117.3605,32.9427,蚌埠市,百货大楼,臭氧1小时,55,33,84,10,22,164,,172,172,2,6,7,9,0.3,0.4
2024-08-12T1800,2273A,117.4185,32.8911,蚌埠市,蚌埠学院,,49,24,98,11,26,156,,166,165,9,16,7,9,0.4,0.5
2024-08-12T1800,2274A,117.3533,32.9673,蚌埠市,淮上区政府,,50,27,72,14,23,159,,164,164,2,10,7,8,0.3,0.4
2024-08-12T1800,2275A,117.3145,32.8977,蚌埠市,高新区,臭氧1小时,52,36,93,13,26,161,,168,168,6,16,7,8,0.4,0.5
2024-08-12T1800,3715A,117.3092,32.9314,蚌埠市,蚌埠田家炳中学,臭氧1小时,54,34,87,11,27,163,,170,170,2,12,10,11,0.5,0.5
2024-08-12T1800,1585A,109.8756,40.6532,包头市,市环境监测站,,35,11,11,3,8,110,,109,109,10,11,6,5,0.4,0.5
2024-08-12T1800,1587A,109.9991,40.5842,包头市,包头八中,,34,10,11,6,5,107,,108,108,12,11,6,5,0.5,0.5
2024-08-12T1800,1588A,109.8538,40.6821,包头市,青山宾馆,,35,,7,3,4,109,,107,107,8,9,4,3,0.4,0.4
2024-08-12T1800,1589A,109.8642,40.6288,包头市,惠龙物流,,35,12,9,3,4,109,,108,108,10,8,5,5,0.4,0.4
2024-08-12T1800,1590A,110.0377,40.5546,包头市,东河鸿龙湾,,38,9,9,8,5,119,,116,116,8,10,10,5,0.6,0.6
2024-08-12T1800,3283A,109.9154,40.5685,包头市,滨河大厦,,35,6,7,3,5,110,,110,110,4,8,7,7,0.4,0.4
2024-08-12T1800,3419A,109.9447,40.6261,包头市,包头市委党校,,33,11,8,6,5,104,,105,105,6,8,3,3,0.4,0.4
2024-08-12T1800,3683A,109.8331,40.6576,包头市,昆区政府,,34,18,14,6,5,106,,104,104,8,9,3,3,0.4,0.4
2024-08-12T1800,1930A,107.185,34.3063,宝鸡市,庙沟村,臭氧1小时,52,36,43,16,19,161,,152,152,11,12,7,6,0.2,0.2
2024-08-12T1800,1931A,107.0708,34.3017,宝鸡市,竹园沟,臭氧1小时,59,46,46,19,19,167,,157,157,13,12,8,8,0.5,0.4
2024-08-12T1800,1932A,107.1906,34.3672,宝鸡市,三陆医院,臭氧1小时,62,30,73,21,22,169,,158,158,13,27,9,11,0.4,0.6
2024-08-12T1800,1933A,107.1431,34.3547,宝鸡市,监测站,颗粒物(PM10),73,95,71,18,22,168,,150,150,15,20,8,8,0.3,0.3
2024-08-12T1800,1934A,107.1186,34.3739,宝鸡市,技工学校,臭氧1小时,69,51,52,14,22,175,,160,160,16,14,9,8,0.5,0.5
2024-08-12T1800,1935A,107.3906,34.3528,宝鸡市,陈仓区环保局家属楼,臭氧1小时,58,35,50,12,20,166,,158,158,13,19,8,8,0.3,0.3
2024-08-12T1800,1936A,107.2058,34.3497,宝鸡市,文理学院,臭氧1小时,72,36,52,17,18,177,,162,162,13,18,10,9,0.4,0.4
2024-08-12T1800,1937A,107.2386,34.3622,宝鸡市,三迪小学,,,39,59,11,25,160,,157,157,,21,10,10,0.4,0.4
2024-08-12T1800,1051A,115.493,38.8632,保定市,游泳馆,,35,19,20,3,2,111,,105,105,16,20,2,4,0.0,0.2
2024-08-12T1800,1052A,115.5213,38.8959,保定市,华电二区,,37,14,16,3,6,118,,108,108,5,8,3,5,0.2,0.1
2024-08-12T1800,1053A,115.4713,38.9108,保定市,接待中心,,33,14,21,3,2,104,,97,97,5,8,1,1,0.3,0.3
2024-08-12T1800,1054A,115.4612,38.8416,保定市,地表水厂,,35,31,29,3,4,109,,104,104,6,8,2,2,0.1,0.1
2024-08-12T1800,3581A,115.31981,38.95208,保定市,满城区生态环境分局,,38,12,8,3,0,120,,106,106,13,13,3,3,0.2,0.2
2024-08-12T1800,3582A,115.47694,38.76408,保定市,清苑区第二中学,,37,26,41,6,15,118,,130,130,5,14,4,5,0.3,0.3
2024-08-12T1800,3583A,115.62909,39.02311,保定市,徐水物探局,,39,30,22,3,0,122,,109,109,7,11,3,3,0.1,0.1
2024-08-12T1800,4004A,115.4202,38.8656,保定市,双鹰农机,,37,21,21,3,7,116,,114,114,6,12,1,1,0.3,0.3
2024-08-12T1800,4034A,115.5150,38.8590,保定市,植保所站,,41,19,18,18,9,130,,119,119,2,5,3,3,0.2,0.2
2024-08-12T1800,2594A,99.1678,25.1081,保山市,市环境监测站,,39,38,35,3,14,123,,104,104,6,7,5,5,0.4,0.5
2024-08-12T1800,2595A,99.1711,25.1328,保山市,市环保局,,42,36,34,9,10,134,,113,113,5,6,6,7,0.5,0.5
2024-08-12T1800,1866A,109.2262,21.588,北海市,牛尾岭水库,,,,,,,,,,,,,,,,
2024-08-12T1800,1867A,109.1436,21.4086,北海市,海滩公园,,42,42,24,10,7,40,,50,50,10,8,3,4,0.5,0.5
2024-08-12T1800,1868A,109.0981,21.4661,北海市,新市环保局,,23,23,19,12,10,37,,47,43,20,11,2,2,0.7,0.7
2024-08-12T1800,1869A,109.1778,21.5233,北海市,北海工业园,,30,30,23,15,11,32,,39,39,19,14,5,5,0.6,0.6
2024-08-12T1800,3400A,109.1911,21.4415,北海市,龙潭自来水厂,,20,16,17,14,9,43,,46,46,8,7,6,7,1.1,1.1
2024-08-12T1800,1001A,116.3621,39.8784,北京市,万寿西宫,,21,14,7,6,4,65,,76,74,7,11,3,3,0.4,0.5
2024-08-12T1800,1002A,116.2202,40.2915,北京市,定陵,,17,6,4,3,1,54,,61,57,2,2,1,1,0.3,0.3
2024-08-12T1800,1003A,116.4174,39.9289,北京市,东四,,20,9,7,3,3,62,,74,71,11,14,2,2,0.5,0.5
2024-08-12T1800,1004A,116.4072,39.8863,北京市,天坛,,21,8,8,3,2,67,,78,76,10,13,3,3,0.4,0.4
2024-08-12T1800,1005A,116.462,39.9365,北京市,农展馆,,20,7,7,3,3,62,,70,69,5,10,3,3,0.4,0.4
2024-08-12T1800,1006A,116.3392,39.9295,北京市,官园,,19,14,10,6,4,60,,72,71,9,13,3,4,0.3,0.3
2024-08-12T1800,1007A,116.2878,39.9611,北京市,海淀万柳,,21,6,7,3,3,66,,74,74,4,11,2,2,0.3,0.3
2024-08-12T1800,1008A,116.6636,40.135,北京市,顺义新城,,21,6,6,3,2,65,,66,66,2,10,3,3,0.3,0.3
2024-08-12T1800,1009A,116.6275,40.3275,北京市,怀柔镇,,20,6,6,3,2,63,,67,65,5,6,5,5,0.1,0.1
2024-08-12T1800,1010A,116.2296,40.217,北京市,昌平镇,,19,6,7,3,1,58,,62,60,3,11,4,4,0.4,0.3
2024-08-12T1800,1011A,116.3966,39.9821,北京市,奥体中心,,19,8,6,3,1,58,,68,66,13,18,3,3,0.1,0.1
2024-08-12T1800,1012A,116.184,39.9136,北京市,古城,,21,11,9,3,3,65,,76,76,11,11,1,1,0.4,0.4
2024-08-12T1800,3281A,115.9718,40.4529,北京市,延庆夏都,,20,8,17,3,2,62,,65,65,2,6,3,2,0.3,0.3
2024-08-12T1800,3417A,117.0709,40.1465,北京市,平谷新城,,17,6,11,3,4,52,,57,57,4,7,3,3,0.4,0.3
2024-08-12T1800,3418A,116.8336,40.4095,北京市,密云新城,,21,6,8,3,3,67,,68,67,2,5,3,3,0.3,0.3
2024-08-12T1800,3671A,116.088,39.9726,北京市,门头沟三家店,,18,12,10,3,2,56,,70,70,9,7,1,3,0.4,0.4
2024-08-12T1800,3672A,116.1541,39.8204,北京市,丰台云岗,,15,11,8,3,2,45,,55,55,7,5,3,3,0.3,0.3
2024-08-12T1800,3673A,116.6804,39.9081,北京市,通州东关,,21,7,10,3,4,66,,71,71,4,11,3,3,0.4,0.4
2024-08-12T1800,3674A,115.9577,39.7603,北京市,房山燕山,,22,6,5,3,2,70,,70,68,2,2,3,3,0.2,0.2
2024-08-12T1800,3675A,116.4672,39.7733,北京市,大兴旧宫,,21,9,9,3,4,66,,76,75,8,12,3,3,0.4,0.4
2024-08-12T1800,3694A,115.986,40.4563,北京市,延庆石河营,,18,6,7,3,2,57,,62,62,1,4,3,3,0.3,0.3
2024-08-12T1800,3695A,116.6151,40.3053,北京市,怀柔新城,,20,6,3,3,1,62,,64,63,2,2,3,3,0.4,0.4
2024-08-12T1800,3696A,116.2545,39.8768,北京市,丰台小屯,,20,8,8,3,3,64,,73,72,4,7,5,5,0.2,0.2
2024-08-12T1800,3697A,116.84,40.3844,北京市,密云镇,,20,6,7,3,2,61,,64,62,2,6,3,3,0.3,0.3
2024-08-12T1800,1761A,123.8275,41.3064,本溪市,大峪,颗粒物(PM10),57,64,50,14,15,84,,90,89,10,13,6,6,0.7,0.5
2024-08-12T1800,1762A,123.7567,41.3325,本溪市,溪湖,颗粒物(PM10),53,56,49,18,17,83,,83,83,8,13,6,6,0.7,0.9
2024-08-12T1800,1763A,123.7169,41.3094,本溪市,彩屯,颗粒物(PM10),54,58,51,22,24,74,,81,80,20,19,8,7,1.3,1.3
2024-08-12T1800,1764A,123.7669,41.2864,本溪市,东明,颗粒物(PM10),60,70,53,19,17,91,,92,92,10,14,4,4,0.6,0.6
2024-08-12T1800,1765A,123.7992,41.2664,本溪市,新立屯,颗粒物(PM10),55,59,45,14,11,78,,89,88,10,13,3,3,0.7,0.6
2024-08-12T1800,1766A,123.8142,41.3472,本溪市,威宁,颗粒物(PM10),68,86,47,28,21,70,,80,80,12,13,8,8,0.5,0.6
2024-08-12T1800,2587A,105.2864,27.3125,毕节市,八中,,45,45,85,12,30,123,,118,118,5,14,5,6,0.2,0.3
2024-08-12T1800,2588A,105.31,27.2944,毕节市,师专,,43,43,87,15,33,113,,108,108,5,13,5,7,0.3,0.4
2024-08-12T1800,3537A,105.3631,27.3533,毕节市,长征村,,41,26,64,14,33,131,,121,121,6,11,6,6,0.4,0.5
2024-08-12T1800,1629A,118.0018,37.3617,滨州市,第二水厂,,45,19,28,12,12,142,,144,144,3,13,3,3,0.5,0.7
2024-08-12T1800,1630A,117.9776,37.393,滨州市,北中新校,,44,19,29,3,9,138,,131,131,5,15,5,6,0.3,0.4
2024-08-12T1800,3514A,117.9378,37.3956,滨州市,中海酒店,,47,17,32,7,16,148,,135,135,6,15,4,13,0.7,0.9
2024-08-12T1800,3515A,117.9378,37.3553,滨州市,开发区一中,,47,24,31,3,13,150,,145,145,7,18,6,8,0.5,0.5
2024-08-12T1800,3516A,118.0917,37.694,滨州市,金海六路,,43,19,27,3,8,137,,140,140,12,25,2,4,0.5,0.4
2024-08-12T1800,4028A,117.9956,37.3753,滨州市,滨州市西街道办事处,,,17,28,9,13,152,,153,153,3,9,4,6,,0.5
2024-08-12T1800,2311A,115.8072,33.8399,亳州市,污水处理厂,臭氧1小时,54,24,44,9,12,163,,154,154,7,15,2,2,0.4,0.4
2024-08-12T1800,2312A,115.7789,33.8518,亳州市,三国揽胜宫,,,,46,13,13,166,,159,159,9,11,4,4,0.5,0.5
2024-08-12T1800,3332A,115.7633,33.8034,亳州市,亳州学院,臭氧1小时,54,24,39,6,7,163,,154,154,4,8,2,3,0.4,0.5
2024-08-12T1800,2693A,82.0485,44.8556,博尔塔拉蒙古自治州,市党校,,35,14,19,3,6,112,,108,108,9,8,8,7,0.4,0.4
2024-08-12T1800,2694A,82.0806,44.8969,博尔塔拉蒙古自治州,市环保局,,34,20,28,7,10,106,,102,102,11,11,3,6,0.2,0.3
2024-08-12T1800,1071A,116.8842,38.2991,沧州市,沧县城建局,,37,23,24,3,8,117,,118,118,5,14,2,2,0.2,0.3
2024-08-12T1800,1072A,116.8584,38.3254,沧州市,电视转播站,,40,18,22,3,7,126,,124,124,6,14,3,3,0.2,0.2
2024-08-12T1800,1073A,116.8709,38.3228,沧州市,市环保局,,38,14,22,7,9,120,,121,121,4,12,2,3,0.2,0.2
2024-08-12T1800,3324A,116.8136,38.3004,沧州市,河北水利电力学院,,39,12,21,9,16,122,,121,121,7,18,5,5,0.2,0.3
2024-08-12T1800,2622A,97.1806,31.1273,昌都市,昌都监测站,,40,9,12,6,7,125,,115,115,8,12,5,5,0.5,0.5
2024-08-12T1800,3719A,97.1714,31.1406,昌都市,昌都会议中心,,46,13,12,3,6,146,,133,133,1,7,7,7,0.3,0.4
2024-08-12T1800,2690A,88.1236,43.8886,昌吉回族自治州,天山天池,,34,10,17,8,8,108,,96,96,8,7,7,9,0.6,0.6
2024-08-12T1800,2692A,87.2717,44.0297,昌吉回族自治州,新区政务中心,,37,16,23,3,8,118,,106,106,6,11,13,9,0.6,0.5
2024-08-12T1800,3613A,87.3095,44.0142,昌吉回族自治州,亚心广场,,39,17,26,3,5,124,,114,114,12,15,8,5,0.3,0.2
2024-08-12T1800,1119A,125.3325,43.9166,长春市,食品厂,,18,,23,12,14,42,,52,45,15,16,2,2,0.4,0.5
2024-08-12T1800,1120A,125.2863,43.9027,长春市,客车厂,,16,,27,11,15,50,,57,49,9,14,5,5,0.4,0.5
2024-08-12T1800,1121A,125.2841,43.8463,长春市,邮电学院,,15,13,28,8,14,46,,50,46,9,12,6,6,0.3,0.4
2024-08-12T1800,1122A,125.3716,43.8772,长春市,劳动公园,,16,16,25,6,12,48,,65,52,14,12,6,6,0.6,0.6
2024-08-12T1800,1123A,125.3297,43.8805,长春市,园林处,,14,14,24,8,12,44,,60,48,12,12,2,1,0.4,0.5
2024-08-12T1800,1124A,125.4605,43.79,长春市,净月潭,,17,17,23,6,9,46,,52,48,6,7,5,5,0.4,0.5
2024-08-12T1800,1125A,125.7194,43.515,长春市,甩湾子,,,,,,,,,,,,,,,,
2024-08-12T1800,1126A,125.3863,43.8447,长春市,经开区环卫处,,19,19,28,7,12,44,,60,47,13,14,6,5,0.5,0.6
2024-08-12T1800,1127A,125.245,43.7783,长春市,高新区管委会,,25,25,28,9,15,50,,59,59,18,12,2,2,0.5,0.5
2024-08-12T1800,1128A,125.1761,43.8325,长春市,岱山公园,,24,24,28,12,16,46,,52,52,16,12,2,2,0.6,0.5
2024-08-12T1800,1335A,113.0833,28.2325,长沙市,经开区环保局,,30,18,42,13,22,96,,123,123,11,20,2,2,0.4,0.7
2024-08-12T1800,1336A,112.8872,28.2189,长沙市,高开区环保局,,27,25,38,16,21,85,,112,112,10,10,2,3,0.6,0.7
2024-08-12T1800,1337A,113.0792,28.2053,长沙市,马坡岭,,29,21,39,3,23,92,,130,130,10,16,3,3,0.3,0.6
2024-08-12T1800,1338A,112.9394,28.19,长沙市,湖南师范大学,,25,25,39,12,24,80,,121,121,10,8,4,5,0.5,0.7
2024-08-12T1800,1339A,113.0178,28.1322,长沙市,雨花区环保局,,30,,35,18,19,93,,111,111,6,11,4,4,0.4,0.5
2024-08-12T1800,1340A,112.9792,28.2597,长沙市,伍家岭,,30,20,40,3,20,93,,124,124,7,9,1,2,0.5,0.7
2024-08-12T1800,1341A,113.0014,28.1944,长沙市,火车新站,,30,20,39,14,21,94,,119,119,8,11,3,4,0.4,0.6
2024-08-12T1800,1342A,112.9844,28.1178,长沙市,天心区环保局,,26,23,38,16,25,81,,109,109,20,13,1,3,0.5,0.6
2024-08-12T1800,1343A,112.8908,28.1308,长沙市,湖南中医药大学,,30,15,38,9,20,93,,117,117,8,9,4,3,0.6,0.8
2024-08-12T1800,1344A,112.9581,28.3611,长沙市,沙坪,,38,38,34,3,19,100,,125,125,7,12,6,7,0.6,0.7
2024-08-12T1800,1727A,113.1147,36.1547,长治市,清华站,,45,15,21,3,8,141,,147,147,9,14,8,8,0.6,0.5
2024-08-12T1800,1728A,113.1031,36.1989,长治市,监测站,,42,21,27,3,8,132,,141,141,14,17,10,9,0.6,0.6
2024-08-12T1800,1730A,113.0886,36.2125,长治市,审计局,,40,16,19,3,6,125,,131,131,8,18,7,7,0.2,0.2
2024-08-12T1800,1731A,113.0844,36.1856,长治市,长治八中,,41,11,22,3,8,130,,134,134,11,16,7,8,0.3,0.4
2024-08-12T1800,2845A,113.1569,36.1911,长治市,德盛苑,,44,11,19,3,6,140,,141,141,7,11,10,11,0.7,0.7
2024-08-12T1800,3568A,113.06,36.0464,长治市,向阳小学,,44,26,42,10,18,138,,140,140,7,15,9,8,0.4,0.5
2024-08-12T1800,3569A,112.8792,36.3144,长治市,屯留一中,,,27,30,3,12,136,,132,132,8,18,11,10,,0.4
2024-08-12T1800,3570A,113.235,36.3489,长治市,潞城四中,,47,16,34,6,14,148,,136,136,6,22,4,6,0.4,0.6
2024-08-12T1800,1854A,111.6975,28.9703,常德市,市二中,,,149,85,36,31,110,,94,94,,9,13,7,0.4,0.4
2024-08-12T1800,1857A,111.7158,29.1456,常德市,白鹤山,,,,,,,,,,,,,,,,
2024-08-12T1800,3138A,111.7153,29.0289,常德市,武陵区永安,颗粒物(PM10),96,142,89,32,27,117,,96,96,7,8,8,8,0.4,0.4
2024-08-12T1800,3139A,111.6892,28.9881,常德市,鼎城区玉霞,颗粒物(PM10),97,143,89,38,34,94,,90,90,20,11,5,5,0.5,0.6
2024-08-12T1800,3140A,111.6625,29.0531,常德市,武陵区长庚,颗粒物(PM10),88,125,82,34,30,119,,106,106,7,9,6,7,0.4,0.5
2024-08-12T1800,1196A,119.9633,31.762,常州市,市监测站,,,54,34,33,22,134,,164,163,31,15,,7,0.7,0.6
2024-08-12T1800,1200A,119.9468,31.7069,常州市,武进监测站,颗粒物(PM10),55,59,38,35,21,122,,156,155,35,10,11,9,1.3,0.8
2024-08-12T1800,1201A,119.9255,31.9087,常州市,安家,颗粒物(PM10),54,57,45,33,22,115,,152,151,24,20,5,4,0.9,0.7
2024-08-12T1800,3002A,119.9805,31.8174,常州市,行政中心,,44,44,39,27,26,132,,163,163,21,14,5,7,0.5,0.5
2024-08-12T1800,3003A,120.0522,31.7748,常州市,经开区,,49,49,41,24,21,102,,136,133,21,13,7,8,0.3,0.3
2024-08-12T1800,3010A,119.9025,31.7964,常州市,钟楼,颗粒物(PM10),59,68,42,31,22,141,,162,162,27,15,7,8,0.9,0.7
2024-08-12T1800,3429A,119.8598,31.7066,常州市,武进经发区,颗粒物(PM10),69,87,46,31,22,140,,161,161,37,13,13,10,1.5,0.6
2024-08-12T1800,3430A,119.5826,31.7245,常州市,金坛城区,颗粒物(PM10),70,90,45,29,22,166,,163,163,16,7,6,6,1.0,0.8
2024-08-12T1800,2220A,120.4318,41.5881,朝阳市,西梁,,18,,25,12,14,40,,78,69,4,3,7,9,0.5,0.6
2024-08-12T1800,2221A,120.4521,41.5646,朝阳市,河畔小区,,14,,30,9,12,42,,83,72,8,4,7,8,0.6,0.6
2024-08-12T1800,2222A,120.4176,41.5648,朝阳市,八里堡,,15,,28,10,14,36,,80,67,12,8,4,4,0.7,0.7
2024-08-12T1800,2223A,120.3806,41.5969,朝阳市,农业园区,,10,,26,7,13,32,,73,61,6,5,6,6,0.5,0.6
2024-08-12T1800,1705A,116.6367,23.6719,潮州市,西园路,,27,27,48,17,27,67,,86,86,12,13,4,4,0.4,0.5
2024-08-12T1800,3026A,116.6183,23.6608,潮州市,市政府,,25,,53,15,29,77,,99,99,6,16,4,14,0.7,0.9
2024-08-12T1800,4036A,116.6461,23.6761,潮州市,金山,,27,27,50,11,28,75,,111,111,11,14,6,8,0.6,0.8
2024-08-12T1800,2472A,113.0073,25.9061,郴州市,马头岭,,17,14,27,10,9,54,,58,58,4,10,6,8,0.2,0.3
2024-08-12T1800,2473A,113.0116,25.8226,郴州市,市职中,,25,15,25,9,19,80,,67,67,7,12,6,8,0.5,0.5
2024-08-12T1800,2474A,113.0161,25.8001,郴州市,兴隆步行街,,30,16,36,3,18,95,,70,70,7,16,5,6,0.5,0.6
2024-08-12T1800,2475A,113.0383,25.8071,郴州市,市审计局,,29,,23,11,19,90,,68,68,7,16,4,6,0.4,0.5
2024-08-12T1800,2476A,113.0348,25.7759,郴州市,市环保局,,29,20,29,6,21,91,,61,61,9,22,3,6,0.5,0.6
2024-08-12T1800,1431A,103.9728,30.7236,成都市,金泉两河,颗粒物(PM10),57,64,48,32,20,157,,170,170,20,22,2,2,0.4,0.6
2024-08-12T1800,1432A,104.176,30.6872,成都市,十里店,臭氧1小时,80,66,65,14,23,184,,162,162,8,23,3,4,0.4,0.5
2024-08-12T1800,1433A,104.079,30.5706,成都市,三瓦窑,臭氧1小时,74,56,68,23,28,179,,150,150,14,41,2,3,0.4,0.5
2024-08-12T1800,1434A,104.1114,30.63,成都市,沙河铺,臭氧1小时,90,69,62,18,21,192,,169,169,10,22,5,4,0.5,0.6
2024-08-12T1800,1437A,104.0786,30.6531,成都市,君平街,臭氧1小时,93,57,73,7,25,194,,183,183,14,28,3,4,0.3,0.6
2024-08-12T1800,1438A,103.613,31.0283,成都市,灵岩寺,,,,,,,,,,,,,,,,
2024-08-12T1800,2880A,104.0239,30.65639,成都市,大石西路,臭氧1小时,84,49,66,14,25,187,,174,174,14,33,5,5,0.4,0.6
2024-08-12T1800,3136A,104.2725,30.5589,成都市,龙泉驿区区政府,臭氧1小时,58,53,66,9,18,166,,159,159,9,11,5,5,0.4,0.4
2024-08-12T1800,3357A,104.0106,30.6931,成都市,金博路,臭氧1小时,84,78,57,25,20,187,,172,172,8,26,2,2,0.3,0.5
2024-08-12T1800,3359A,104.0578,30.5225,成都市,华阳,臭氧1小时,75,56,66,19,29,180,,159,159,2,15,3,4,0.5,0.6
2024-08-12T1800,3487A,104.2394,30.5319,成都市,车城东七路,臭氧1小时,79,67,82,25,26,183,,167,167,7,11,3,3,0.3,0.4
2024-08-12T1800,3488A,104.3853,30.7453,成都市,青白江技师分院,臭氧1小时,110,69,56,24,17,219,,194,194,13,24,5,5,0.4,0.5
2024-08-12T1800,3489A,104.0789,30.4072,成都市,科学城,臭氧1小时,70,62,66,26,25,176,,158,158,4,13,3,3,0.5,0.5
2024-08-12T1800,4011A,103.8506,30.6947,成都市,光华大道三段,臭氧1小时,77,47,49,18,17,181,,167,167,9,20,3,3,0.5,0.6
2024-08-12T1800,1062A,117.9531,40.9081,承德市,铁路,,17,17,14,3,7,46,,51,51,16,15,7,7,0.3,0.4
2024-08-12T1800,1063A,117.9392,40.9763,承德市,中国银行,,17,6,12,3,6,52,,52,52,12,11,3,4,0.3,0.3
2024-08-12T1800,1064A,117.9503,40.928,承德市,开发区,,18,16,20,6,8,56,,58,58,9,10,6,6,0.3,0.4
2024-08-12T1800,1065A,117.8051,40.9655,承德市,文化中心,,15,15,16,3,7,44,,60,48,15,10,6,6,0.3,0.3
2024-08-12T1800,1066A,117.9268,41.0026,承德市,离宫,,24,24,23,3,6,15,,39,33,3,5,4,4,0.3,0.3
2024-08-12T1800,2314A,117.47,30.6618,池州市,池州学院,,35,35,29,17,16,98,,123,123,9,9,5,6,0.7,0.7
2024-08-12T1800,3237A,117.4918,30.6617,池州市,展览馆,,34,30,32,13,16,107,,131,131,5,8,4,5,0.5,0.6
2024-08-12T1800,3333A,117.5627,30.695,池州市,第八中学,,30,26,31,14,16,95,,121,121,7,12,4,4,0.6,0.7
2024-08-12T1800,3334A,117.5038,30.6243,池州市,第十二中学,,35,35,30,13,16,87,,117,116,12,12,3,5,0.7,1
2024-08-12T1800,1744A,118.9233,42.2816,赤峰市,松山一中,,20,12,5,3,2,64,,74,74,23,14,9,8,0.6,0.6
2024-08-12T1800,1745A,118.9576,42.2728,赤峰市,哈达街,,22,,6,10,4,68,,74,74,10,8,9,10,0.4,0.4
2024-08-12T1800,1746A,118.8788,42.2554,赤峰市,天义路,,19,,8,6,3,60,,78,76,22,12,5,6,0.5,0.3
2024-08-12T1800,3058A,119.2658,42.0353,赤峰市,银河街,,25,,6,11,5,78,,67,67,12,10,11,10,0.3,0.3
2024-08-12T1800,3286A,118.9359,42.3147,赤峰市,桥北物流园区,,24,19,5,6,3,75,,83,83,10,7,7,6,0.6,0.6
2024-08-12T1800,2521A,107.3476,22.4136,崇左市,市环保局江州分局,,35,22,23,10,11,111,,102,102,6,7,7,6,0.5,0.5
2024-08-12T1800,2522A,107.3702,22.3707,崇左市,城南新区,,27,16,19,9,9,85,,89,89,3,7,5,4,0.6,0.6
2024-08-12T1800,2298A,118.3093,32.3153,滁州市,老年大学,臭氧1小时,55,43,78,12,25,164,,155,155,6,5,7,7,0.3,0.3
2024-08-12T1800,2299A,118.3244,32.2786,滁州市,人大宾馆,颗粒物(PM10),53,55,96,17,28,160,,157,157,8,9,6,7,0.5,0.5
2024-08-12T1800,3207A,118.3118,32.3038,滁州市,市政府原办公楼,,48,48,91,16,30,153,,152,152,8,8,7,7,0.7,0.7
2024-08-12T1800,3331A,118.3267,32.2634,滁州市,图书馆,颗粒物(PM10),54,57,95,14,25,153,,151,151,6,7,5,5,0.7,0.8
2024-08-12T1800,2605A,101.5482,25.0441,楚雄彝族自治州,州环境监测站,,45,24,32,6,20,142,,117,117,6,17,6,5,0.4,0.6
2024-08-12T1800,2606A,101.538,25.0492,楚雄彝族自治州,市经济开发区,颗粒物(PM10),60,69,36,11,19,138,,116,116,7,15,6,6,0.5,0.7
2024-08-12T1800,2548A,107.5277,31.2827,达州市,达州职业技术学院,颗粒物(PM10),51,52,63,16,20,102,,117,117,3,9,5,6,0.4,0.6
2024-08-12T1800,2549A,107.5086,31.2186,达州市,市环境监测站,颗粒物(PM10),53,56,70,14,23,126,,142,142,9,23,6,7,0.4,0.6
2024-08-12T1800,2550A,107.4988,31.2132,达州市,凤凰小区,颗粒物(PM10),54,58,69,19,28,127,,151,151,11,21,7,7,0.5,0.6
2024-08-12T1800,2551A,107.5082,31.1986,达州市,达县机关宾馆,颗粒物(PM10),57,63,79,11,27,128,,155,155,16,33,5,6,0.3,0.5
2024-08-12T1800,2552A,107.4644,31.2124,达州市,市政中心,,49,49,67,14,23,127,,158,158,8,22,8,9,0.5,0.7
2024-08-12T1800,2614A,100.1542,25.7054,大理白族自治州,大理市环境监测站,,40,20,29,16,19,128,,117,117,7,17,4,5,0.5,0.6
2024-08-12T1800,2615A,100.2171,25.5811,大理白族自治州,大理古城,,,,29,13,15,135,,117,117,6,14,6,7,0.5,0.6
2024-08-12T1800,1109A,121.612,38.9741,大连市,甘井子,颗粒物(PM10),55,59,73,30,35,108,,136,133,20,17,7,7,0.6,0.6
2024-08-12T1800,1110A,121.565,38.9511,大连市,周水子,颗粒物(PM10),56,61,68,32,36,120,,124,123,10,11,7,10,0.6,0.7
2024-08-12T1800,1111A,121.5637,38.8845,大连市,星海三站,颗粒物(PM10),59,67,65,32,35,120,,139,139,7,7,8,8,0.6,0.5
2024-08-12T1800,1112A,121.6302,38.9117,大连市,青泥洼桥,颗粒物(PM10),60,70,78,38,39,126,,133,133,8,7,7,7,0.7,0.8
2024-08-12T1800,1113A,121.6251,38.8638,大连市,傅家庄,颗粒物(PM10),57,63,65,29,33,115,,124,124,4,6,5,6,0.8,0.8
2024-08-12T1800,1114A,121.5213,38.8661,大连市,七贤岭,颗粒物(PM10),56,61,68,29,36,128,,142,142,11,9,7,6,0.7,0.7
2024-08-12T1800,1115A,121.2529,38.8061,大连市,旅顺,颗粒物(PM10),66,81,69,31,33,162,,162,162,14,14,7,8,0.5,0.4
2024-08-12T1800,1116A,121.7485,39.1311,大连市,金州,颗粒物(PM10),53,56,62,31,38,102,,113,113,6,10,6,7,0.5,0.5
2024-08-12T1800,1117A,121.7811,39.0496,大连市,开发区,颗粒物(PM10),64,78,75,31,37,109,,116,115,7,13,7,8,0.4,0.5
2024-08-12T1800,1118A,121.9762,39.0631,大连市,双D港,颗粒物(PM10),60,70,62,26,27,106,,103,103,10,10,5,5,0.6,0.5
2024-08-12T1800,1789A,124.81117,46.03138,大庆市,大同区,,25,12,8,11,10,77,,73,73,5,4,7,8,0.4,0.3
2024-08-12T1800,1790A,125.129,46.533,大庆市,龙凤区,,25,20,13,12,7,77,,72,72,8,5,3,4,0.3,0.3
2024-08-12T1800,1791A,124.902,46.408,大庆市,红岗区,,25,21,14,17,11,79,,77,77,10,6,7,7,0.4,0.4
2024-08-12T1800,1792A,125.153,46.586,大庆市,萨尔图区,,22,21,12,3,5,70,,66,66,9,4,5,5,0.4,0.3
2024-08-12T1800,1793A,124.9042,46.6215,大庆市,让胡路区,,40,40,20,8,8,72,,71,71,8,4,4,4,0.2,0.2
2024-08-12T1800,3481A,125.141,46.634,大庆市,萨区政府监测点,,27,27,17,8,7,75,,67,67,4,5,6,7,0.2,0.2
2024-08-12T1800,1721A,113.3819,40.1097,大同市,果树场,,,,,,,,,,,,,,,,
2024-08-12T1800,1723A,113.2994,40.0758,大同市,云冈宾馆,,29,,10,12,5,92,,92,92,8,8,6,8,0.5,0.5
2024-08-12T1800,1724A,113.3444,40.0917,大同市,大同大学,,,,,7,7,,,,,7,7,6,6,0.7,0.7
2024-08-12T1800,1725A,113.2661,40.1269,大同市,安家小村,,29,7,7,3,2,92,,91,91,4,4,9,10,0.5,0.5
2024-08-12T1800,1726A,113.2711,40.0844,大同市,教育学院,,29,10,9,3,4,91,,90,90,9,10,9,10,0.5,0.4
2024-08-12T1800,3282A,113.3397,40.0597,大同市,大同市卫生学校,,29,11,12,6,5,91,,91,91,7,10,6,8,0.5,0.6
2024-08-12T1800,3565A,113.1367,40.1122,大同市,云冈站,,28,19,18,6,5,89,,91,91,6,10,9,9,0.4,0.4
2024-08-12T1800,3566A,113.1186,40.2556,大同市,图书馆,,30,7,9,7,5,93,,95,95,7,10,7,9,0.4,0.6
2024-08-12T1800,3567A,113.5931,40.0461,大同市,区一中,,27,11,10,3,4,84,,88,88,6,6,7,7,0.5,0.3
2024-08-12T1800,3676A,113.2802,40.0995,大同市,第二人民医院,,,10,11,3,4,92,,91,91,8,8,9,11,,0.5
2024-08-12T1800,2269A,124.1069,50.4097,大兴安岭地区,科技局,,17,16,15,9,10,54,,56,56,5,3,3,3,0.1,0.1
2024-08-12T1800,3663A,124.1164,50.4278,大兴安岭地区,红旗社区,,16,,5,3,6,49,,54,54,2,3,5,5,0.3,0.3
2024-08-12T1800,1600A,124.3303,40.0625,丹东市,江湾东路,,21,16,13,12,8,65,,70,66,13,3,2,2,0.7,0.6
2024-08-12T1800,1601A,124.4256,40.1503,丹东市,临江后街,,21,19,12,12,8,66,,70,70,7,3,4,4,0.5,0.4
2024-08-12T1800,1602A,124.3933,40.1461,丹东市,元宝山,,25,22,12,17,10,69,,69,69,4,3,2,2,0.5,0.5
2024-08-12T1800,1603A,124.3633,40.1092,丹东市,民主桥,,24,16,14,10,9,74,,71,70,9,5,1,2,0.6,0.5
2024-08-12T1800,3541A,109.5726,19.5167,儋州市,第一中学子站,,18,18,17,8,9,54,,48,48,8,5,4,5,0.4,0.5
2024-08-12T1800,3542A,109.5567,19.5187,儋州市,东坡学校子站,,19,11,16,9,9,59,,51,51,5,5,7,6,0.5,0.5
2024-08-12T1800,2616A,98.5842,24.428,德宏傣族景颇族自治州,德宏州监测站,,29,23,21,12,8,92,,73,73,7,10,15,11,0.6,0.8
2024-08-12T1800,3677A,98.5881,24.4368,德宏傣族景颇族自治州,芒市人民政府综合楼,,31,31,16,19,9,87,,70,70,9,8,17,8,0.5,0.6
2024-08-12T1800,1901A,104.4239,31.1208,德阳市,东山公园,臭氧1小时,126,81,71,23,20,251,,208,208,19,18,5,5,0.5,0.5
2024-08-12T1800,1902A,104.3826,31.1317,德阳市,西小区,臭氧1小时,144,79,72,31,30,287,,220,220,18,30,4,6,0.7,0.7
2024-08-12T1800,1904A,104.3553,31.1091,德阳市,耐火材料厂,臭氧1小时,134,82,75,32,28,267,,210,210,28,34,5,6,0.6,0.7
2024-08-12T1800,3639A,104.4019,31.1244,德阳市,市教育局,臭氧1小时,136,79,64,23,21,271,,219,219,19,26,4,4,0.6,0.6
2024-08-12T1800,1622A,116.3032,37.4674,德州市,儿童乐园,,42,17,24,3,7,134,,126,126,10,14,8,10,0.5,0.6
2024-08-12T1800,1624A,116.2991,37.4451,德州市,监理站,,45,9,19,3,5,143,,134,134,7,14,8,11,0.4,0.5
2024-08-12T1800,3066A,116.2721,37.4379,德州市,九衢泉纯净水厂,,44,14,25,3,8,138,,131,131,5,14,8,8,0.4,0.5
2024-08-12T1800,3371A,116.3728,37.4403,德州市,开发区人民医院,,41,12,23,3,5,129,,132,132,9,14,8,9,0.6,0.6
2024-08-12T1800,3372A,116.3572,37.4094,德州市,太阳城中学,,39,17,26,3,9,123,,133,133,13,20,8,9,0.5,0.5
2024-08-12T1800,3511A,116.5652,37.3319,德州市,陵城艺术中心,,41,17,26,3,6,131,,137,137,8,15,5,7,0.5,0.5
2024-08-12T1800,2621A,99.7056,27.8317,迪庆藏族自治州,迪庆州站,,31,19,25,10,12,98,,97,97,13,12,9,11,0.4,0.4
2024-08-12T1800,3180A,99.7136,27.8094,迪庆藏族自治州,质量技术监督局,,29,24,22,13,7,91,,94,94,15,13,9,9,0.7,0.6
2024-08-12T1800,2663A,104.6241,35.5734,定西市,东关小学,,39,36,45,10,18,122,,126,126,6,17,9,10,0.3,0.3
2024-08-12T1800,2664A,104.6194,35.5934,定西市,供电公司,,38,30,42,18,19,120,,124,124,5,21,6,7,0.2,0.3
2024-08-12T1800,1389A,113.7547,23.0494,东莞市,莞城梨川,,28,28,34,11,16,86,,101,101,17,34,5,7,0.7,0.8
2024-08-12T1800,1390A,113.7944,23.0128,东莞市,东城石井,,29,23,28,11,13,92,,107,107,17,24,5,5,0.5,0.6
2024-08-12T1800,1391A,113.7383,22.9658,东莞市,南城西平,,22,18,29,11,16,70,,92,92,30,29,3,3,0.6,0.7
2024-08-12T1800,3319A,113.7338,23.0381,东莞市,万江金泰,,26,22,35,11,19,81,,104,104,17,33,4,6,0.7,0.8
2024-08-12T1800,3626A,113.7533,23.0202,东莞市,南城元岭,,,23,32,8,15,76,,88,88,,33,6,6,0.7,0.8
2024-08-12T1800,3627A,113.7875,23.0457,东莞市,东城主山,,30,30,33,12,16,76,,98,98,31,32,7,8,0.6,0.7
2024-08-12T1800,1666A,118.6614,37.4309,东营市,市环保局,臭氧1小时,63,14,29,7,12,170,,171,171,10,22,5,12,0.2,0.2
2024-08-12T1800,3036A,118.6904,37.4338,东营市,开发区管委会,臭氧1小时,64,22,35,3,9,171,,174,171,9,20,5,13,0.3,0.3
2024-08-12T1800,3365A,118.5719,37.565,东营市,垦利区民丰路,,44,12,33,3,10,140,,161,158,5,19,7,8,0.2,0.3
2024-08-12T1800,3498A,118.5055,37.8612,东营市,河口城区,,48,17,27,7,11,152,,139,139,5,10,5,6,0.4,0.5
2024-08-12T1800,3646A,118.4978,37.4623,东营市,胜利站,,46,18,29,3,10,145,,155,153,12,21,7,8,0.2,0.3
2024-08-12T1800,3734A,118.35,37.26,东营市,理想之城,臭氧1小时,58,17,30,12,16,166,,173,171,3,17,5,8,0.5,0.6
2024-08-12T1800,1591A,110.0023,39.8129,鄂尔多斯市,综合楼,,,22,26,,3,116,,111,111,8,14,7,9,0.5,0.5
2024-08-12T1800,1592A,109.9486,39.8261,鄂尔多斯市,巴音孟克林场办事处,,33,22,23,3,7,104,,101,101,8,16,6,8,0.4,0.5
2024-08-12T1800,1593A,109.7736,39.5986,鄂尔多斯市,康泽苑,,37,12,17,3,9,116,,113,113,6,8,5,6,0.4,0.5
2024-08-12T1800,1594A,109.8119,39.5989,鄂尔多斯市,华泰汽车城,,34,14,17,9,9,107,,106,106,4,10,3,5,0.8,0.9
2024-08-12T1800,1595A,109.9734,39.7884,鄂尔多斯市,奥林花园,,,19,22,,7,108,,104,104,9,17,5,6,0.4,0.6
2024-08-12T1800,2436A,114.8938,30.3994,鄂州市,市政府,颗粒物(PM10),71,92,149,22,35,144,,162,160,26,12,26,12,2.7,1.2
2024-08-12T1800,2437A,114.8989,30.3714,鄂州市,赵家坝,颗粒物(PM10),72,93,153,20,35,164,,163,163,2,3,8,9,0.3,0.4
2024-08-12T1800,3654A,114.8094,30.4089,鄂州市,精准医疗中心,颗粒物(PM10),56,62,121,22,36,154,,164,164,2,6,5,6,0.6,0.6
2024-08-12T1800,2454A,109.4978,30.2981,恩施土家族苗族自治州,湖北民院,,40,37,48,17,22,125,,132,132,10,11,7,7,0.6,0.7
2024-08-12T1800,2455A,109.4707,30.2798,恩施土家族苗族自治州,州电力总公司,,37,31,51,18,23,116,,121,121,12,21,7,6,0.5,0.5
2024-08-12T1800,3549A,109.5061,30.3772,恩施土家族苗族自治州,龙凤新区,,,31,43,19,20,116,,120,120,10,14,,6,0.4,0.5
2024-08-12T1800,2499A,108.3411,21.6158,防城港市,沙万,,,76,34,29,14,45,,51,51,23,20,8,8,,0.9
2024-08-12T1800,2500A,108.3514,21.7731,防城港市,防城档案局,,30,30,33,16,13,51,,58,58,18,18,8,7,0.9,0.8
2024-08-12T1800,2501A,108.3506,21.6414,防城港市,大海花园,,17,17,25,7,12,44,,46,46,19,21,6,7,0.5,0.9
2024-08-12T1800,1371A,113.1294,23.0067,佛山市,湾梁,,23,,18,16,17,66,,107,107,18,32,6,6,0.6,0.7
2024-08-12T1800,1372A,113.1083,23.0478,佛山市,华材职中,,22,12,31,11,13,70,,109,109,16,34,6,6,0.4,0.5
2024-08-12T1800,1373A,113.144,23.0453,佛山市,南海气象局,,23,,27,14,12,71,,111,106,9,25,4,6,0.2,0.5
2024-08-12T1800,1374A,113.2881,22.8094,佛山市,顺德苏岗,,19,19,18,7,12,44,,117,117,21,28,6,7,0.6,0.7
2024-08-12T1800,1376A,112.8383,22.8678,佛山市,高明孔堂,,18,,25,12,11,49,,70,70,7,19,6,8,0.6,0.6
2024-08-12T1800,1377A,112.8836,23.1588,佛山市,三水监测站,,15,,31,10,16,45,,88,88,20,38,5,7,0.4,0.5
2024-08-12T1800,1378A,112.867,23.185,佛山市,三水云东海,,16,16,34,11,17,44,,88,88,28,35,8,8,0.5,0.6
2024-08-12T1800,3625A,113.2544,22.7642,佛山市,容桂街道办,,16,12,20,9,12,50,,124,117,20,32,5,8,0.6,0.7
2024-08-12T1800,1280A,119.3903,26.0543,福州市,鼓山,,,,,,,,,,,,,,,,
2024-08-12T1800,1282A,119.2681,26.0504,福州市,师大,,39,39,45,20,29,102,,131,131,18,10,4,4,0.6,0.6
2024-08-12T1800,1283A,119.2984,26.1028,福州市,五四北路,,,,46,23,28,111,,137,137,18,10,3,4,0.6,0.5
2024-08-12T1800,1284A,119.2648,26.0768,福州市,杨桥西路,,43,43,43,22,31,105,,136,136,18,11,3,4,0.5,0.5
2024-08-12T1800,1285A,119.317,26.0746,福州市,紫阳,,44,44,44,25,30,110,,135,132,17,10,4,6,0.5,0.5
2024-08-12T1800,3048A,119.5799,26.0936,福州市,九龙,,50,50,46,35,37,101,,140,138,6,8,5,5,0.4,0.4
2024-08-12T1800,3526A,119.5189,25.9664,福州市,吴航,,39,34,49,21,32,123,,135,135,5,6,6,5,0.6,0.6
2024-08-12T1800,1755A,123.7977,41.8491,抚顺市,望花区,,37,37,29,15,15,53,,94,91,19,11,7,8,0.4,0.5
2024-08-12T1800,1756A,123.9161,41.8822,抚顺市,顺城区,,22,19,25,11,11,68,,89,87,10,11,2,3,0.4,0.4
2024-08-12T1800,1757A,124.0436,41.8611,抚顺市,东洲区,,27,9,21,8,11,84,,81,81,5,6,6,5,0.3,0.3
2024-08-12T1800,1758A,123.9247,41.8642,抚顺市,新抚区,,29,29,23,11,12,69,,87,86,10,11,6,6,0.4,0.4
2024-08-12T1800,1759A,124.0972,41.8961,抚顺市,大伙房水库,,25,6,10,3,12,80,,82,82,4,6,2,3,0.6,0.6
2024-08-12T1800,1760A,123.7086,41.8391,抚顺市,沈抚新城,,34,34,38,12,14,65,,92,91,9,11,4,6,0.2,0.4
2024-08-12T1800,2376A,116.2127,28.0814,抚州市,桐源党溪,,,42,28,17,13,107,,112,112,,4,,6,,0.7
2024-08-12T1800,2377A,116.3544,27.9831,抚州市,市站,,36,36,24,18,11,90,,96,96,3,5,5,5,0.7,0.7
2024-08-12T1800,2378A,116.3565,27.963,抚州市,血防站,,,27,23,17,10,90,,94,93,,8,4,5,0.4,0.7
2024-08-12T1800,2379A,116.3564,28.0007,抚州市,采茶剧团,,32,32,21,18,10,96,,102,102,3,5,6,5,0.9,0.9
2024-08-12T1800,2380A,116.385,27.9647,抚州市,医学分院,,31,30,23,17,8,99,,104,104,3,7,4,4,0.5,0.7
2024-08-12T1800,2207A,121.6094,41.998,阜新市,工业园区,,16,16,25,8,12,44,,72,60,9,12,2,7,0.6,0.7
2024-08-12T1800,2208A,121.6697,42.0279,阜新市,长青街,,18,,22,12,13,37,,66,52,6,7,3,6,0.5,0.6
2024-08-12T1800,2209A,121.6673,42.0705,阜新市,农业园区,,,28,18,3,6,43,,64,52,7,8,,3,0.5,0.6
2024-08-12T1800,2210A,121.6717,42.0224,阜新市,东苑,,13,,26,9,14,37,,72,56,6,8,2,10,0.8,0.8
2024-08-12T1800,2211A,121.6506,42.0498,阜新市,玉龙新城,,14,9,23,6,8,42,,70,55,10,13,4,5,0.4,0.5
2024-08-12T1800,2301A,115.8277,32.8929,阜阳市,市监测站,臭氧1小时,57,24,40,8,14,165,,151,151,7,8,7,8,0.3,0.3
2024-08-12T1800,2303A,115.8554,32.8605,阜阳市,开发区,臭氧1小时,60,38,52,3,12,168,,156,156,6,12,6,7,0.4,0.4
2024-08-12T1800,2875A,115.784,32.8892,阜阳市,阜阳职业技术学院,臭氧1小时,67,23,39,7,13,173,,157,157,6,11,7,11,0.4,0.4
2024-08-12T1800,3468A,115.7901,32.8613,阜阳市,市规划展馆,臭氧1小时,60,26,47,11,17,168,,156,156,8,12,8,10,0.4,0.5
2024-08-12T1800,3469A,115.836,32.9183,阜阳市,枣园社区,臭氧1小时,59,22,43,15,14,167,,155,155,8,16,5,6,0.5,0.5
2024-08-12T1800,2669A,102.9099,34.9841,甘南藏族自治州,州政府,,43,15,32,7,14,137,,134,134,2,19,7,6,0.2,0.3
2024-08-12T1800,3380A,102.8914,34.9617,甘南藏族自治州,甘肃民族师范学院,,46,10,34,9,11,145,,140,140,5,25,6,6,0.4,0.4
2024-08-12T1800,2570A,101.9603,30.0475,甘孜藏族自治州,水桥子,,37,,26,14,12,116,,103,103,2,17,4,4,0.2,0.3
2024-08-12T1800,3065A,101.9533,29.9972,甘孜藏族自治州,州环保局,,37,14,24,3,4,118,,105,105,11,21,3,3,0.2,0.2
2024-08-12T1800,3414A,115.8347,28.932,赣江新区,桑海产业园,,28,12,41,8,17,88,,121,116,11,16,8,14,0.3,0.5
2024-08-12T1800,2362A,114.9017,25.9149,赣州市,通天岩,,,,,,,,,,,,,,,,
2024-08-12T1800,2363A,114.9367,25.8664,赣州市,地委,,22,19,24,15,14,61,,83,83,17,13,13,14,0.8,1.3
2024-08-12T1800,2364A,114.9461,25.8481,赣州市,气象台,,25,23,25,17,13,66,,86,86,16,12,6,10,0.9,0.9
2024-08-12T1800,2365A,114.9322,25.8333,赣州市,市图书馆,,24,16,23,7,9,76,,96,96,15,11,3,5,0.9,0.9
2024-08-12T1800,2366A,114.8905,25.8471,赣州市,华坚鞋城,,20,20,28,10,13,61,,84,84,17,13,6,4,0.4,0.4
2024-08-12T1800,3109A,115.0093,25.8613,赣州市,赣县区卫计委,,37,37,25,15,11,63,,92,92,25,15,6,6,0.5,0.5
2024-08-12T1800,2683A,106.2319,36.1417,固原市,马园,颗粒物(PM10),62,74,74,16,32,120,,121,121,10,27,7,5,0.2,0.5
2024-08-12T1800,2684A,106.2792,36.0022,固原市,监测站,,40,11,25,3,10,126,,126,126,5,15,6,6,0.4,0.5
2024-08-12T1800,2685A,106.2375,36.0211,固原市,新区,,39,12,29,3,8,122,,122,122,3,20,7,7,0.3,0.3
2024-08-12T1800,3522A,106.2177,35.9959,固原市,原州区十五小,,41,14,26,6,10,130,,130,130,4,16,6,6,0.4,0.4
2024-08-12T1800,2543A,106.6308,30.5278,广安市,小平旧居,,,,,,,,,,,,,,,,
2024-08-12T1800,2544A,106.6303,30.4576,广安市,市委,颗粒物(PM10),60,69,81,26,31,150,,171,171,7,16,7,6,0.3,0.4
2024-08-12T1800,2545A,106.6271,30.4663,广安市,友谊中学,,50,50,60,26,27,152,,173,173,10,18,6,6,0.4,0.5
2024-08-12T1800,2547A,106.6388,30.4551,广安市,广电花园,颗粒物(PM10),55,60,77,22,28,150,,168,168,8,13,9,9,0.3,0.4
2024-08-12T1800,2902A,106.6351,30.4865,广安市,北辰小学,颗粒物(PM10),57,64,77,25,28,153,,162,162,4,13,7,7,0.3,0.4
2024-08-12T1800,2523A,105.8945,32.4535,广元市,黑石坡,臭氧1小时,54,27,24,7,6,163,,148,148,7,10,9,8,0.4,0.4
2024-08-12T1800,2524A,105.821,32.4444,广元市,老城,,50,25,37,7,10,159,,147,147,10,32,2,8,0.3,0.5
2024-08-12T1800,2526A,105.8628,32.4287,广元市,监测站,臭氧1小时,54,20,27,17,12,163,,155,155,8,12,3,5,0.5,0.5
2024-08-12T1800,3617A,105.8047,32.4166,广元市,经开区,臭氧1小时,57,57,51,24,21,165,,150,150,8,28,6,10,0.5,0.7
2024-08-12T1800,1345A,113.2347,23.1423,广州市,广雅中学,,25,25,39,8,18,76,,125,125,23,40,5,5,0.5,0.6
2024-08-12T1800,1346A,113.2612,23.105,广州市,市五中,,25,13,26,7,17,79,,122,122,17,28,4,4,0.6,0.7
2024-08-12T1800,1348A,113.3478,23.0916,广州市,广东商学院,,34,22,27,13,17,108,,132,132,21,34,3,4,0.4,0.6
2024-08-12T1800,1349A,113.4332,23.1047,广州市,市八十六中,,29,18,30,6,14,92,,118,118,16,34,2,3,0.3,0.4
2024-08-12T1800,1350A,113.3505,22.9483,广州市,番禺中学,,30,16,24,9,11,93,,128,128,19,26,3,4,0.5,0.5
2024-08-12T1800,1351A,113.2146,23.3916,广州市,花都师范,,27,23,45,11,20,84,,95,95,26,43,7,8,0.6,0.7
2024-08-12T1800,1352A,113.2597,23.1331,广州市,市监测站,,24,13,29,6,16,74,,116,116,19,34,4,5,0.7,0.8
2024-08-12T1800,1353A,113.5618,23.312,广州市,九龙镇镇龙,,34,18,31,8,16,107,,110,110,18,28,6,6,0.5,0.6
2024-08-12T1800,1354A,113.2765,23.1544,广州市,麓湖,,24,14,30,7,17,75,,112,112,26,31,4,4,0.5,0.7
2024-08-12T1800,1355A,113.443,23.3035,广州市,帽峰山森林公园,,36,,20,3,10,115,,112,112,9,18,4,4,0.6,0.7
2024-08-12T1800,2846A,113.3221,23.1322,广州市,体育西,,,,30,,19,103,,137,131,16,25,4,5,0.6,0.7
2024-08-12T1800,3298A,113.5717,23.5491,广州市,从化街口,颗粒物(PM10),51,52,34,28,20,129,,141,141,23,23,6,7,0.7,0.6
2024-08-12T1800,3299A,113.3472,23.3692,广州市,白云竹料,,32,29,40,20,23,101,,106,106,27,37,4,5,0.6,0.7
2024-08-12T1800,3300A,113.2981,23.237,广州市,白云嘉禾,,29,20,34,12,16,90,,91,91,28,42,6,7,0.8,0.9
2024-08-12T1800,3301A,113.4256,23.1716,广州市,黄埔科学城,,28,15,30,3,16,89,,119,119,18,29,6,7,0.4,0.6
2024-08-12T1800,3302A,113.3942,23.0483,广州市,番禺大学城,,34,20,26,6,13,106,,118,118,17,28,7,7,0.5,0.6
2024-08-12T1800,3303A,113.4922,22.8168,广州市,南沙黄阁,,21,,31,11,15,64,,83,83,42,34,5,5,0.8,0.8
2024-08-12T1800,3304A,113.5342,22.7896,广州市,南沙街,,18,15,26,7,14,56,,66,66,16,23,4,4,0.6,0.8
2024-08-12T1800,3443A,113.2902,23.5544,广州市,花都梯面,,27,27,35,14,20,68,,107,107,15,25,4,4,0.6,0.6
2024-08-12T1800,3445A,113.7858,23.7478,广州市,从化良口,,25,18,23,10,14,79,,82,82,8,9,5,5,0.7,0.7
2024-08-12T1800,3446A,113.8051,23.2614,广州市,增城荔城,,35,25,34,13,19,111,,121,121,16,25,7,7,0.4,0.5
2024-08-12T1800,2505A,109.568,23.1478,贵港市,德智高中,,,,,,,,,,,,,,,,
2024-08-12T1800,2506A,109.6047,23.0666,贵港市,江南子站,,17,14,29,10,17,52,,75,75,15,16,7,9,0.6,0.7
2024-08-12T1800,2507A,109.6014,23.0948,贵港市,贵城子站,,18,,37,12,21,56,,74,74,12,16,7,9,0.7,0.6
2024-08-12T1800,2508A,109.5669,23.1065,贵港市,荷城子站,,16,6,27,3,11,50,,72,72,17,17,9,12,0.4,0.5
2024-08-12T1800,3405A,109.5886,23.1172,贵港市,新世纪学校,,16,12,33,3,16,50,,72,72,16,18,9,10,0.7,0.7
2024-08-12T1800,1439A,106.6899,26.5998,贵阳市,马鞍山,,44,44,43,17,13,107,,100,100,2,7,7,10,0.4,0.6
2024-08-12T1800,1440A,106.6971,26.5694,贵阳市,市环保站,颗粒物(PM10),62,73,54,30,28,117,,110,110,17,19,4,4,0.2,0.3
2024-08-12T1800,1441A,106.6243,26.6266,贵阳市,鉴湖路,颗粒物(PM10),52,53,60,12,19,112,,106,106,3,10,2,4,0.3,0.4
2024-08-12T1800,1442A,106.7487,26.6343,贵阳市,燕子冲,,44,44,35,27,17,113,,102,102,3,9,7,6,0.4,0.6
2024-08-12T1800,1443A,106.6555,26.4365,贵阳市,碧云窝,颗粒物(PM10),56,61,51,14,13,121,,116,116,5,13,5,5,0.3,0.2
2024-08-12T1800,1444A,106.694,26.5161,贵阳市,中院村,,,,51,,21,117,,110,110,,20,5,6,0.3,0.5
2024-08-12T1800,1445A,106.7109,26.6027,贵阳市,红边门,颗粒物(PM10),54,58,48,22,27,125,,113,113,8,16,3,4,0.1,0.4
2024-08-12T1800,1446A,106.7164,26.5699,贵阳市,新华路,颗粒物(PM10),54,58,43,19,20,120,,111,111,7,12,7,6,0.4,0.6
2024-08-12T1800,1447A,106.674,26.5424,贵阳市,太慈桥,,46,46,41,14,15,118,,109,109,7,14,8,8,0.3,0.4
2024-08-12T1800,1552A,106.805,26.3003,贵阳市,桐木岭,,,,,,,,,,,,,,,,
2024-08-12T1800,1862A,110.4144,25.3167,桂林市,电子科大尧山校区,,29,29,26,10,10,50,,60,60,5,7,10,12,0.5,0.5
2024-08-12T1800,1863A,110.2819,25.2697,桂林市,监测站,,17,12,17,11,11,52,,57,57,7,9,7,7,0.6,0.5
2024-08-12T1800,1864A,110.3089,25.2708,桂林市,龙隐路小学,,18,,15,12,12,50,,56,56,4,7,8,9,0.5,0.4
2024-08-12T1800,1865A,110.2869,25.2178,桂林市,八中,,15,9,20,3,7,47,,54,54,9,8,7,7,0.6,0.6
2024-08-12T1800,3403A,110.1764,25.2381,桂林市,创业大厦,,14,12,15,9,10,44,,47,47,6,9,6,9,0.3,0.3
2024-08-12T1800,3531A,110.296,25.1253,桂林市,旅游学院,,15,,7,3,3,47,,52,52,5,7,10,6,0.3,0.3
2024-08-12T1800,2674A,100.2561,34.4714,果洛藏族自治州,玛沁县大武镇,,43,34,28,14,11,136,,133,133,1,4,7,7,0.4,0.4
2024-08-12T1800,1129A,126.5422,45.755,哈尔滨市,岭北,,17,7,8,3,5,54,,46,46,6,8,8,8,0.4,0.4
2024-08-12T1800,1130A,126.561,45.8167,哈尔滨市,松北商大,,12,10,10,3,5,38,,33,33,12,10,7,7,0.6,0.6
2024-08-12T1800,1131A,126.979,45.5419,哈尔滨市,阿城会宁,,16,16,20,3,11,36,,37,37,11,11,6,4,0.7,0.6
2024-08-12T1800,1132A,126.599,45.7222,哈尔滨市,南岗学府路,,22,22,24,3,7,45,,37,37,8,7,6,6,0.5,0.5
2024-08-12T1800,1133A,126.689,45.7733,哈尔滨市,太平宏伟公园,,14,14,17,3,6,42,,37,37,12,12,6,7,0.4,0.4
2024-08-12T1800,1134A,126.635,45.7667,哈尔滨市,道外承德广场,,14,14,19,3,3,41,,39,39,13,12,9,9,0.6,0.6
2024-08-12T1800,1135A,126.685,45.7319,哈尔滨市,香坊红旗大街,,19,19,18,6,9,46,,41,41,10,13,2,2,0.8,0.7
2024-08-12T1800,1136A,126.6411,45.7258,哈尔滨市,动力和平路,,25,25,21,7,7,44,,40,40,12,12,6,6,0.5,0.5
2024-08-12T1800,1137A,126.593,45.7478,哈尔滨市,道里建国路,,21,21,15,3,6,40,,36,36,13,9,6,6,0.4,0.5
2024-08-12T1800,1138A,126.615,45.61,哈尔滨市,平房东轻厂,,24,24,14,6,6,33,,37,37,27,11,4,4,0.3,0.3
2024-08-12T1800,1139A,126.595,45.9855,哈尔滨市,呼兰师专,,16,10,10,3,4,50,,41,41,9,10,8,9,0.5,0.4
2024-08-12T1800,1140A,126.6206,45.6842,哈尔滨市,省农科院,,18,18,13,3,6,45,,40,40,11,13,5,4,0.6,0.5
2024-08-12T1800,2688A,93.5128,42.8172,哈密市,地区监测站,,39,33,119,15,23,123,,112,94,11,21,4,4,0.2,0.3
2024-08-12T1800,2689A,93.4961,42.8328,哈密市,哈密师范学校,,40,40,96,15,21,121,,109,90,9,15,5,5,0.4,0.5
2024-08-12T1800,2671A,100.9048,36.9639,海北藏族自治州,海晏县西海镇,,45,24,19,11,12,144,,137,137,5,8,10,13,0.3,0.4
2024-08-12T1800,3867A,102.0738,36.5056,海东市,平安区公安北苑,臭氧1小时,64,11,38,6,15,171,,156,156,5,10,6,11,0.3,0.6
2024-08-12T1800,1409A,110.576,19.9507,海口市,东寨港,,,,,,,,,,,,,,,,
2024-08-12T1800,1410A,110.3232,20.0574,海口市,海南大学,,30,30,23,14,12,34,,78,74,26,22,5,5,0.5,0.4
2024-08-12T1800,1411A,110.283,20.0053,海口市,秀英海南医院,,20,19,28,14,13,28,,71,67,30,24,7,7,0.4,0.3
2024-08-12T1800,1412A,110.338,19.9969,海口市,海南师范大学,,35,35,28,16,14,34,,68,65,21,17,8,7,0.5,0.5
2024-08-12T1800,1413A,110.33,20.0356,海口市,龙华路环保局宿舍,,23,20,25,16,12,28,,75,71,31,19,8,8,0.4,0.4
2024-08-12T1800,3539A,110.5111,19.9736,海口市,桂林洋子站,,15,15,22,8,9,45,,68,65,8,15,6,6,0.3,0.3
2024-08-12T1800,2673A,100.6188,36.2866,海南藏族自治州,共和县恰卜恰镇,,50,12,24,3,9,157,,148,148,5,9,12,11,0.6,0.6
2024-08-12T1800,2676A,97.3731,37.3753,海西蒙古族藏族自治州,德令哈市,,43,23,16,7,9,136,,134,134,9,10,10,8,0.5,0.3
2024-08-12T1800,1048A,114.5302,36.6116,邯郸市,东污水处理厂,,44,19,38,3,8,138,,130,130,2,17,3,7,0.3,1.2
2024-08-12T1800,1049A,114.4918,36.5713,邯郸市,矿院,,44,25,31,3,8,138,,129,129,2,22,2,8,0.3,1.3
2024-08-12T1800,1050A,114.484,36.6133,邯郸市,丛台公园,,43,16,26,3,8,136,,129,129,1,18,3,9,0.4,1.2
2024-08-12T1800,3458A,114.7895,36.5593,邯郸市,香泉濮院小区,,44,25,35,3,11,139,,129,129,2,14,3,6,0.3,0.7
2024-08-12T1800,3579A,114.50634,36.77178,邯郸市,永年区实验高中,,45,26,34,14,11,143,,132,132,3,12,3,4,0.5,1
2024-08-12T1800,3580A,114.20016,36.44293,邯郸市,峰峰矿区临水派出所,,50,24,22,3,2,158,,144,144,2,6,2,6,0.3,0.6
2024-08-12T1800,2634A,106.9893,33.1842,汉中市,汉川机床厂子校,,44,44,39,20,18,132,,113,113,6,11,4,4,0.6,0.6
2024-08-12T1800,2635A,107.0154,33.0706,汉中市,市监测站,,48,47,50,16,22,151,,129,129,5,10,7,9,0.6,0.8
2024-08-12T1800,2636A,107.0089,33.1138,汉中市,鑫源开发区,,45,44,45,24,20,141,,122,122,4,10,9,10,0.4,0.6
2024-08-12T1800,2637A,107.007,33.0323,汉中市,南郑大河坎水厂,,50,50,50,24,22,155,,129,129,4,8,8,8,0.5,0.6
2024-08-12T1800,1223A,120.2072,30.2111,杭州市,滨江,,48,48,30,21,16,139,,159,159,11,9,4,4,0.7,0.7
2024-08-12T1800,1224A,120.0633,30.2747,杭州市,西溪,,41,27,26,19,17,129,,146,146,11,14,5,6,0.6,0.6
2024-08-12T1800,1226A,120.3461,30.3153,杭州市,下沙,臭氧1小时,52,49,39,34,20,161,,181,178,14,13,7,7,0.6,0.5
2024-08-12T1800,1227A,120.1269,30.2456,杭州市,卧龙桥,,44,31,26,25,17,139,,170,170,10,10,5,5,0.7,0.6
2024-08-12T1800,1228A,120.1903,30.2692,杭州市,浙江农大,,37,31,25,19,16,118,,151,151,18,13,7,7,0.8,0.7
2024-08-12T1800,1230A,120.1197,30.3119,杭州市,和睦小学,,39,33,24,23,16,124,,162,162,12,10,5,5,0.6,0.7
2024-08-12T1800,1231A,120.3019,30.4183,杭州市,临平镇,,49,48,32,20,17,154,,164,164,7,10,4,4,0.8,0.6
2024-08-12T1800,1232A,120.2697,30.1819,杭州市,城厢镇,臭氧1小时,83,49,28,23,20,186,,186,186,15,13,6,5,0.7,0.6
2024-08-12T1800,1233A,120.0883,30.1808,杭州市,云栖,,47,41,34,21,13,149,,172,172,11,12,8,7,0.7,0.7
2024-08-12T1800,3557A,119.9464,30.0494,杭州市,镇二中,,,,24,,15,133,,140,140,12,13,7,7,0.7,0.8
2024-08-12T1800,3558A,119.7183,30.2367,杭州市,市府大楼,,43,23,17,11,15,135,,143,143,8,8,5,5,0.5,0.5
2024-08-12T1800,3656A,120.1556,30.2864,杭州市,消防大队,,38,36,28,20,17,120,,163,163,14,9,7,7,0.8,0.7
2024-08-12T1800,1270A,117.1959,31.7848,合肥市,明珠广场,臭氧1小时,74,92,92,29,31,179,,163,163,10,22,7,7,0.5,0.5
2024-08-12T1800,1271A,117.3072,31.8764,合肥市,三里街,颗粒物(PM10),68,85,94,24,28,140,,147,147,10,24,7,7,0.4,0.5
2024-08-12T1800,1272A,117.2588,31.8707,合肥市,琥珀山庄,颗粒物(PM10),78,105,105,29,33,145,,154,153,10,22,5,5,0.5,0.6
2024-08-12T1800,1273A,117.1604,31.9052,合肥市,董铺水库,颗粒物(PM10),73,96,110,19,26,132,,131,131,6,19,3,2,0.3,0.3
2024-08-12T1800,1274A,117.25,31.8571,合肥市,长江中路,颗粒物(PM10),71,92,107,32,33,155,,161,161,7,23,7,7,0.6,0.6
2024-08-12T1800,1275A,117.266,31.9436,合肥市,庐阳区,颗粒物(PM10),68,85,114,27,30,146,,161,161,7,17,3,4,0.4,0.4
2024-08-12T1800,1276A,117.336,31.8586,合肥市,瑶海区,颗粒物(PM10),68,85,86,17,27,144,,142,142,7,35,4,4,0.3,0.4
2024-08-12T1800,1277A,117.3027,31.7964,合肥市,包河区,颗粒物(PM10),71,92,87,24,29,147,,143,143,19,34,12,11,0.4,0.5
2024-08-12T1800,1278A,117.2776,31.7385,合肥市,滨湖新区,颗粒物(PM10),70,90,80,24,23,154,,141,141,10,24,7,7,0.4,0.4
2024-08-12T1800,1279A,117.1318,31.8403,合肥市,高新区,颗粒物(PM10),70,90,97,25,28,158,,147,147,11,20,8,8,0.6,0.5
2024-08-12T1800,3464A,117.3803,31.9147,合肥市,高教基地,颗粒物(PM10),61,72,85,23,29,112,,129,129,4,31,8,8,0.4,0.4
2024-08-12T1800,3614A,79.924,37.0877,和田地区,地区环保局,颗粒物(PM10),500,1091,479,346,143,105,,95,95,2,18,7,8,0.4,0.5
2024-08-12T1800,3615A,79.9131,37.113,和田地区,市环保局,颗粒物(PM10),500,1018,457,223,120,99,,88,88,4,24,7,8,0.3,0.5
2024-08-12T1800,2516A,108.2011,24.715,河池市,东仁乐园,,,37,31,8,4,,,,,5,9,6,5,0.6,0.7
2024-08-12T1800,2517A,108.0497,24.6947,河池市,市环保站,,26,26,23,18,11,71,,74,74,5,11,9,9,0.5,0.6
2024-08-12T1800,2518A,108.0983,24.6989,河池市,市疾控中心,,26,26,24,17,12,78,,74,74,8,12,10,8,0.6,0.6
2024-08-12T1800,1696A,114.6778,23.7569,河源市,源西,,25,,39,17,25,57,,79,77,18,18,4,4,0.2,0.3
2024-08-12T1800,1697A,114.6944,23.7586,河源市,东埔,,20,16,42,11,20,64,,89,87,17,18,7,7,0.7,0.7
2024-08-12T1800,1698A,114.6892,23.7233,河源市,老城,,20,18,36,6,16,64,,86,85,6,17,4,4,0.5,0.6
2024-08-12T1800,1718A,115.4208,35.2464,菏泽市,气象局,臭氧1小时,77,54,45,18,16,181,,181,181,7,14,6,10,0.4,0.5
2024-08-12T1800,1719A,115.4747,35.2375,菏泽市,市政协,臭氧1小时,73,48,42,19,18,178,,174,174,3,11,7,8,0.4,0.4
2024-08-12T1800,3374A,115.5564,35.0891,菏泽市,定陶老年大学,,49,31,43,12,10,156,,177,177,8,13,7,10,0.4,0.3
2024-08-12T1800,3647A,115.4702,35.2706,菏泽市,菏泽医专,臭氧1小时,77,51,40,12,10,181,,183,183,6,12,7,6,0.5,0.5
2024-08-12T1800,2514A,111.5264,24.4172,贺州市,环保小区,,18,17,24,12,9,55,,67,67,12,11,6,7,0.5,0.6
2024-08-12T1800,2515A,111.5608,24.4078,贺州市,政协大楼,,20,20,30,10,13,53,,67,67,11,13,7,8,0.5,0.5
2024-08-12T1800,3534A,111.4744,24.4553,贺州市,西湾,,14,,21,3,10,43,,61,61,16,13,5,6,0.6,0.5
2024-08-12T1800,2385A,114.17,35.9019,鹤壁市,市监测站,臭氧1小时,57,27,28,6,10,165,,164,164,16,17,9,9,0.6,0.6
2024-08-12T1800,2386A,114.2956,35.7511,鹤壁市,市交警支队,臭氧1小时,60,30,32,21,19,168,,155,155,8,22,4,3,0.7,0.6
2024-08-12T1800,2387A,114.2878,35.7306,鹤壁市,迎宾馆,臭氧1小时,64,27,20,9,10,171,,158,158,10,15,5,4,0.6,0.6
2024-08-12T1800,3474A,114.2617,35.6822,鹤壁市,大新区,臭氧1小时,58,32,24,3,6,166,,154,154,8,13,4,3,0.4,0.5
2024-08-12T1800,3596A,114.1572,35.9603,鹤壁市,南山宾馆,臭氧1小时,54,,29,15,15,163,,158,158,10,12,3,4,0.5,0.4
2024-08-12T1800,2244A,130.2537,47.3416,鹤岗市,哈啤分公司,,20,20,21,12,11,37,,51,51,3,10,12,12,0.4,0.4
2024-08-12T1800,2245A,130.2684,47.3086,鹤岗市,斯达机电,,29,29,19,12,8,41,,57,54,8,9,13,13,0.3,0.3
2024-08-12T1800,2246A,130.3114,47.3388,鹤岗市,东山纸板厂,,25,,15,17,16,26,,38,37,5,11,14,14,0.6,0.5
2024-08-12T1800,2247A,130.1097,47.3382,鹤岗市,五号水库,,13,7,7,3,4,39,,51,51,4,12,11,12,0.5,0.6
2024-08-12T1800,2263A,127.4833,50.2524,黑河市,交通局,,28,28,26,18,13,51,,50,50,7,8,5,5,0.4,0.4
2024-08-12T1800,2264A,127.5144,50.2341,黑河市,环保局,,21,21,18,10,11,44,,47,47,10,7,6,7,0.4,0.3
2024-08-12T1800,2265A,127.5291,50.2472,黑河市,大黑河岛,,,15,6,13,14,,,,,10,8,2,2,,
2024-08-12T1800,1074A,115.6838,37.7541,衡水市,电机北厂,,43,6,24,3,9,136,,125,125,6,10,3,5,0.4,0.4
2024-08-12T1800,1075A,115.6303,37.7316,衡水市,市监测站,,42,12,30,7,6,134,,127,127,6,14,3,5,0.3,0.3
2024-08-12T1800,3188A,115.6683,37.7217,衡水市,市城管局,,41,13,24,13,11,131,,126,126,3,10,3,5,0.3,0.3
2024-08-12T1800,3459A,115.5989,37.5491,衡水市,地表水厂,,42,31,34,3,6,134,,128,128,2,12,8,10,0.3,0.4
2024-08-12T1800,2456A,112.5003,26.9167,衡阳市,原169医院,,21,17,25,9,14,67,,72,72,3,12,9,8,0.5,0.5
2024-08-12T1800,2457A,112.6194,26.9258,衡阳市,衡阳化工总厂,,,29,39,,,59,,66,66,9,12,9,8,0.6,0.7
2024-08-12T1800,2458A,112.6211,26.8956,衡阳市,珠晖区环保局,,,26,35,,,64,,66,66,5,12,6,8,0.7,0.8
2024-08-12T1800,2459A,112.6197,26.8733,衡阳市,市委党校,,30,30,39,12,19,56,,68,68,13,12,7,10,1.7,0.8
2024-08-12T1800,2460A,112.6006,26.8919,衡阳市,市监测站,,23,17,31,16,20,67,,70,70,4,11,5,9,0.6,0.8
2024-08-12T1800,2461A,112.5664,26.9056,衡阳市,真空机电公司,,19,,32,13,17,53,,54,54,8,10,9,7,0.7,0.9
2024-08-12T1800,3399A,112.6703,26.882,衡阳市,师范学院,,28,28,37,19,19,65,,65,65,11,11,6,9,0.8,0.8
2024-08-12T1800,2608A,103.3772,23.3993,红河哈尼族彝族自治州,污水处理厂,颗粒物(PM10),67,84,51,35,29,76,,70,70,12,16,16,20,0.4,0.4
2024-08-12T1800,2609A,103.3861,23.35,红河哈尼族彝族自治州,监测站,颗粒物(PM10),57,64,50,27,27,69,,77,77,14,18,18,23,0.7,0.7
2024-08-12T1800,3038A,103.3758,23.368,红河哈尼族彝族自治州,州图书馆,颗粒物(PM10),59,67,57,31,23,74,,72,72,11,14,13,19,0.4,0.6
2024-08-12T1800,1090A,111.6507,40.7517,呼和浩特市,呼市一监,,28,7,5,6,4,87,,98,96,6,5,8,8,0.5,0.4
2024-08-12T1800,1091A,111.6572,40.8033,呼和浩特市,小召,,30,7,4,6,3,96,,97,97,5,7,4,5,0.5,0.5
2024-08-12T1800,1094A,111.7516,40.8369,呼和浩特市,如意水处理厂,,28,10,6,3,3,89,,97,97,11,8,6,5,0.3,0.3
2024-08-12T1800,1095A,111.7276,40.8062,呼和浩特市,二十九中,,29,10,6,3,3,91,,98,98,10,7,3,3,0.6,0.6
2024-08-12T1800,1096A,111.5512,40.7866,呼和浩特市,工大金川校区,,20,13,8,8,4,64,,93,88,27,10,5,5,0.5,0.4
2024-08-12T1800,1097A,111.717,40.7612,呼和浩特市,化肥厂生活区,,31,11,7,3,2,98,,105,105,7,8,6,6,0.4,0.5
2024-08-12T1800,3698A,111.5968,40.8178,呼和浩特市,红旗小学,,28,7,4,3,3,89,,97,96,13,9,3,3,0.3,0.3
2024-08-12T1800,3699A,111.6518,40.8389,呼和浩特市,海东办,,29,22,5,3,3,92,,100,98,11,8,3,3,0.6,0.6
2024-08-12T1800,2192A,119.7594,49.2261,呼伦贝尔市,区环保局,,44,44,39,25,24,69,,67,67,20,24,5,5,0.4,0.5
2024-08-12T1800,3061A,119.7512,49.1577,呼伦贝尔市,国华电力东,,32,30,27,22,17,83,,79,79,4,10,3,3,0.3,0.3
2024-08-12T1800,1250A,120.0751,30.8669,湖州市,城西水厂,,33,33,33,22,20,65,,125,120,40,23,4,4,0.6,0.6
2024-08-12T1800,2873A,120.0875,30.8955,湖州市,仁皇山新区,,34,33,30,22,21,107,,148,148,20,20,7,6,0.7,0.7
2024-08-12T1800,2907A,120.1844,30.8596,湖州市,吴兴区站,,46,42,30,25,21,147,,156,156,14,16,7,7,0.6,0.5
2024-08-12T1800,3562A,120.4148,30.8538,湖州市,南浔区站,,40,39,31,26,22,128,,137,137,15,10,3,4,0.7,0.7
2024-08-12T1800,1607A,120.9092,40.7136,葫芦岛市,龙港区,,38,17,72,11,22,121,,91,91,17,17,28,18,0.4,0.7
2024-08-12T1800,1608A,120.8392,40.7514,葫芦岛市,化工街,,33,31,54,14,26,105,,97,97,15,16,7,6,0.4,0.6
2024-08-12T1800,1609A,120.8341,40.7073,葫芦岛市,新区,,47,47,55,10,26,104,,81,81,15,16,9,7,0.5,0.6
2024-08-12T1800,1610A,120.8695,40.7677,葫芦岛市,东城区,,40,29,51,10,26,125,,108,108,16,17,7,11,0.6,0.6
2024-08-12T1800,2482A,109.5981,27.5721,怀化市,林科所,颗粒物(PM10),54,57,37,25,16,92,,87,87,5,6,6,7,0.2,0.3
2024-08-12T1800,2483A,109.9453,27.5444,怀化市,河西地税局,颗粒物(PM10),59,67,47,32,20,106,,98,98,4,8,9,8,0.5,0.5
2024-08-12T1800,2484A,109.9781,27.5342,怀化市,市四医院,颗粒物(PM10),61,72,46,29,25,93,,99,99,5,11,4,6,0.5,0.7
2024-08-12T1800,2485A,109.9972,27.5578,怀化市,监测楼,,,63,50,24,24,95,,99,99,,10,7,11,0.5,0.5
2024-08-12T1800,2486A,110.0394,27.583,怀化市,市委党校,颗粒物(PM10),74,98,47,24,23,95,,97,97,7,11,9,10,0.5,0.6
2024-08-12T1800,1210A,119.036,33.5981,淮安市,钵池山,,49,27,86,23,31,155,,167,167,10,15,7,10,0.6,0.7
2024-08-12T1800,1211A,119.007,33.575,淮安市,北京南路,臭氧1小时,53,34,91,20,29,162,,165,165,10,18,9,11,0.6,0.6
2024-08-12T1800,1212A,118.989,33.6067,淮安市,市监测站,臭氧1小时,69,31,98,14,30,175,,178,178,16,24,7,9,0.6,0.7
2024-08-12T1800,1213A,119.135,33.5039,淮安市,楚州区监测站,,50,37,115,21,33,157,,169,169,14,26,6,7,0.6,0.6
2024-08-12T1800,1214A,119.0186,33.6297,淮安市,淮阴区监测站,,49,39,95,23,31,155,,176,175,21,21,4,7,0.6,0.7
2024-08-12T1800,3426A,118.8755,33.2894,淮安市,新华书店,臭氧1小时,52,35,91,15,28,161,,167,167,12,16,8,8,0.6,0.6
2024-08-12T1800,2282A,116.8004,33.975,淮北市,监测站,臭氧1小时,70,40,55,15,18,176,,171,171,9,12,8,9,0.5,0.5
2024-08-12T1800,2283A,116.8091,33.9007,淮北市,烈山区政府,臭氧1小时,72,36,65,12,22,177,,170,170,2,20,9,10,0.5,0.7
2024-08-12T1800,3330A,116.8873,33.9836,淮北市,杜集区检察院,臭氧1小时,78,41,62,10,21,182,,173,173,6,13,4,4,0.5,0.6
2024-08-12T1800,4017A,116.7923,33.9535,淮北市,市博物馆,臭氧1小时,78,40,64,14,21,182,,178,178,9,17,8,9,0.6,0.7
2024-08-12T1800,2277A,116.8305,32.7727,淮南市,潘集区政府,臭氧1小时,60,55,92,18,29,168,,167,167,10,17,6,8,0.5,0.5
2024-08-12T1800,2278A,117.0067,32.6524,淮南市,师范学院,臭氧1小时,74,60,96,38,27,179,,180,180,8,11,8,10,0.5,0.5
2024-08-12T1800,2279A,116.8569,32.5951,淮南市,谢家集区政府,臭氧1小时,54,51,80,8,15,163,,161,161,10,14,8,8,0.4,0.4
2024-08-12T1800,2280A,116.8281,32.633,淮南市,八公山区政府,臭氧1小时,68,56,81,19,23,174,,161,161,10,8,6,5,0.4,0.3
2024-08-12T1800,2281A,116.6325,32.6201,淮南市,焦岗湖风景区管理处,颗粒物(PM10),53,56,82,10,21,108,,97,97,5,9,11,11,0.2,0.2
2024-08-12T1800,2894A,117.0566,32.6531,淮南市,经济技术开发区消防队,臭氧1小时,64,52,79,12,19,171,,187,187,4,10,7,9,0.4,0.4
2024-08-12T1800,3329A,117.0108,32.5893,淮南市,山南新区,臭氧1小时,74,70,110,20,30,179,,167,167,9,13,6,6,0.5,0.5
2024-08-12T1800,2446A,114.9028,30.4742,黄冈市,职工中心,"颗粒物(PM10),臭氧1小时",67,84,146,29,40,173,,191,191,13,13,9,9,0.4,0.4
2024-08-12T1800,2929A,114.8858,30.4519,黄冈市,红卫路,颗粒物(PM10),61,72,137,28,39,167,,184,184,12,12,8,9,0.4,0.4
2024-08-12T1800,3398A,114.9136,30.4445,黄冈市,市林业局,臭氧1小时,75,70,119,28,38,180,,199,199,8,8,8,9,0.4,0.4
2024-08-12T1800,2672A,102.0199,35.5102,黄南藏族自治州,同仁县隆务镇,,47,27,25,14,9,149,,140,140,4,2,10,10,0.4,0.4
2024-08-12T1800,2295A,118.2903,29.6963,黄山市,延安路89号,,43,43,45,7,13,106,,110,110,3,4,5,5,0.5,0.5
2024-08-12T1800,2296A,118.327,29.7178,黄山市,黄山东路89号,,31,23,30,3,9,99,,111,111,3,5,6,6,0.4,0.4
2024-08-12T1800,2297A,118.1371,30.2756,黄山市,黄山区政府5号楼,,30,,30,18,14,94,,99,99,6,7,6,6,0.4,0.3
2024-08-12T1800,2423A,115.0601,30.2313,黄石市,沈家营,臭氧1小时,79,95,151,22,38,183,,171,171,8,10,8,9,0.5,0.5
2024-08-12T1800,2424A,115.0817,30.2006,黄石市,陈家湾,臭氧1小时,77,79,133,27,40,181,,168,168,8,9,4,7,0.5,0.6
2024-08-12T1800,2426A,114.8988,30.2019,黄石市,铁山,臭氧1小时,70,69,132,25,38,176,,168,168,6,9,8,10,0.5,0.4
2024-08-12T1800,2427A,115.0307,30.2092,黄石市,团城山,臭氧1小时,79,84,151,20,39,183,,166,166,6,10,9,14,0.5,0.6
2024-08-12T1800,3149A,115.0235,30.1578,黄石市,笔架山北路,臭氧1小时,68,76,136,10,36,174,,163,163,8,14,7,8,0.7,0.8
2024-08-12T1800,1392A,114.4183,23.0528,惠州市,河南岸金山湖子站,,,15,29,10,17,110,,106,106,,15,4,4,0.5,0.6
2024-08-12T1800,1393A,114.4053,23.0822,惠州市,下埔横江三路子站,,37,15,33,9,18,116,,118,118,7,17,3,3,0.5,0.6
2024-08-12T1800,1394A,114.4103,23.1142,惠州市,江北云山西路子站,,39,15,32,11,17,123,,119,119,4,15,4,4,0.5,0.6
2024-08-12T1800,1395A,114.4645,22.7833,惠州市,惠阳区承修路船湖子站,,33,33,24,19,13,92,,76,76,21,25,4,4,0.6,0.6
2024-08-12T1800,1396A,114.5317,22.7422,惠州市,大亚湾管委会子站,,30,18,23,10,12,93,,78,78,22,24,6,6,0.8,0.8
2024-08-12T1800,3314A,114.4338,22.8134,惠州市,惠阳秋长,,,19,27,9,15,103,,102,102,,33,5,6,0.6,0.7
2024-08-12T1800,3452A,114.6517,22.775,惠州市,大亚湾霞涌,,21,14,19,3,8,66,,87,87,8,12,3,3,0.5,0.5
2024-08-12T1800,2240A,130.9762,45.3001,鸡西市,环保局,,23,23,15,8,4,37,,40,40,4,6,8,8,0.3,0.3
2024-08-12T1800,2243A,130.9429,45.3039,鸡西市,第一中学,,16,16,14,3,4,40,,46,45,5,7,4,4,0.2,0.1
2024-08-12T1800,3707A,131.0207,45.3073,鸡西市,欧美日汽修厂,,35,35,12,9,4,38,,41,41,5,5,3,4,0.3,0.3
2024-08-12T1800,3709A,130.9967,45.3106,鸡西市,市政设施管理处,,27,27,15,13,5,34,,45,44,14,9,6,5,0.3,0.2
2024-08-12T1800,2367A,114.9754,27.0803,吉安市,红声器材厂,,23,21,29,16,16,63,,93,92,15,12,14,15,0.6,0.5
2024-08-12T1800,2368A,114.9658,27.0999,吉安市,市森林工业局,,22,15,26,3,16,69,,96,96,10,11,11,13,0.4,0.4
2024-08-12T1800,2369A,114.99,27.1312,吉安市,市环境监测站,,21,14,25,6,14,65,,98,98,18,12,11,14,0.5,0.6
2024-08-12T1800,2370A,115.0093,27.0968,吉安市,青原区法院,,20,15,28,10,17,63,,98,96,12,15,10,13,0.5,0.5
2024-08-12T1800,1772A,126.54,43.8622,吉林市,哈达湾,,35,35,27,20,15,56,,89,85,14,10,15,6,0.8,0.6
2024-08-12T1800,1773A,126.5844,43.8358,吉林市,东局子,,30,30,30,18,14,61,,97,92,9,8,5,5,0.6,0.6
2024-08-12T1800,1774A,126.5052,43.8245,吉林市,电力学院,,30,30,30,18,14,53,,88,84,11,9,9,5,0.6,0.6
2024-08-12T1800,1775A,126.6133,43.8972,吉林市,江北,,22,22,31,10,13,51,,82,78,4,7,7,7,0.7,0.7
2024-08-12T1800,1776A,126.555,43.8306,吉林市,江南公园,,36,36,30,25,17,55,,91,85,19,11,8,3,3.0,1.3
2024-08-12T1800,1778A,126.7061,43.7133,吉林市,丰满,,,,,,,,,,,,,,,,
2024-08-12T1800,2868A,126.4739,43.953,吉林市,九站,,26,23,30,18,15,48,,82,72,17,8,6,5,0.6,0.6
2024-08-12T1800,1299A,116.9862,36.6114,济南市,科干所,,42,22,30,3,9,134,,136,136,14,19,9,11,0.5,0.6
2024-08-12T1800,1300A,116.9376,36.665,济南市,农科所,,40,12,26,3,10,128,,127,127,11,21,8,9,0.3,0.4
2024-08-12T1800,1301A,117.1265,36.6734,济南市,开发区,,44,22,26,3,7,140,,148,148,19,19,11,12,0.6,0.6
2024-08-12T1800,1303A,117.0624,36.6868,济南市,省种子仓库,,45,24,29,3,8,143,,146,146,9,13,6,7,0.4,0.5
2024-08-12T1800,1304A,116.9489,36.6447,济南市,机床二厂,,45,15,32,3,5,144,,142,142,8,21,9,10,0.5,0.6
2024-08-12T1800,1305A,117.0495,36.663,济南市,市监测站,,44,12,24,3,8,140,,146,146,11,14,11,13,0.4,0.5
2024-08-12T1800,1306A,116.7675,36.5484,济南市,长清党校,,41,,25,12,10,131,,127,127,7,15,10,11,0.6,0.7
2024-08-12T1800,1616A,117.6795,36.229,济南市,技术学院,臭氧1小时,69,22,48,17,20,175,,176,176,5,19,12,13,0.8,1
2024-08-12T1800,1961A,117.532,36.6868,济南市,东山小学,臭氧1小时,63,22,26,3,5,170,,182,182,11,18,10,11,0.5,0.5
2024-08-12T1800,3059A,117.7161,36.2049,济南市,泰兴公司,臭氧1小时,54,31,50,14,21,163,,166,166,14,36,11,12,0.6,0.8
2024-08-12T1800,3064A,117.6867,36.2171,济南市,莱芜战役纪念馆,臭氧1小时,52,31,54,9,19,161,,161,161,7,24,7,8,0.7,1.1
2024-08-12T1800,3494A,117.1673,36.9782,济南市,济阳区政府,,,27,31,7,8,,,134,134,10,20,24,12,0.4,0.5
2024-08-12T1800,3495A,117.1171,36.63,济南市,锦屏中学,,46,12,22,3,9,147,,159,159,14,13,11,12,0.4,0.5
2024-08-12T1800,3682A,116.9814,36.6819,济南市,济南四建,,41,12,23,3,10,131,,131,131,6,13,9,10,0.8,0.8
2024-08-12T1800,1653A,116.6251,35.4302,济宁市,火炬城,臭氧1小时,65,34,43,12,13,172,,169,169,8,16,9,16,0.8,0.8
2024-08-12T1800,1655A,116.5491,35.4042,济宁市,电化厂,臭氧1小时,52,45,54,19,21,161,,165,165,10,29,9,12,0.6,0.7
2024-08-12T1800,3500A,116.5814,35.3707,济宁市,北湖一中,臭氧1小时,73,43,47,14,14,178,,175,175,8,24,9,12,0.7,0.7
2024-08-12T1800,3501A,116.8249,35.5593,济宁市,服务中心,臭氧1小时,55,28,44,14,15,164,,166,166,6,13,6,8,0.6,0.7
2024-08-12T1800,3678A,116.5907,35.4054,济宁市,市第七中学,臭氧1小时,77,28,40,17,13,181,,178,178,9,18,5,8,0.6,0.7
2024-08-12T1800,2255A,130.2751,46.8028,佳木斯市,佳纺,,22,22,15,14,7,65,,75,75,8,5,4,4,0.6,0.5
2024-08-12T1800,2256A,130.3995,46.8307,佳木斯市,发电厂,,26,26,18,17,8,69,,73,73,5,8,5,5,0.7,0.6
2024-08-12T1800,2257A,130.3258,46.7975,佳木斯市,环保局,,35,35,18,10,8,57,,67,67,12,5,8,8,0.6,0.5
2024-08-12T1800,2258A,130.3648,46.8032,佳木斯市,十一中,,23,23,18,14,9,68,,72,72,10,8,6,6,0.6,0.5
2024-08-12T1800,2259A,130.3794,46.7588,佳木斯市,四丰,,,25,14,13,8,64,,67,67,,,1,1,0.6,0.5
2024-08-12T1800,1252A,120.7436,30.778,嘉兴市,清河小学,,46,30,39,30,43,145,,174,170,23,13,8,7,1.2,1.2
2024-08-12T1800,1253A,120.726,30.7478,嘉兴市,嘉兴学院,,49,49,45,24,24,136,,145,145,26,21,1,1,0.7,0.6
2024-08-12T1800,2872A,120.7846,30.7525,嘉兴市,南湖区残联,,45,40,37,26,22,144,,174,174,26,16,4,4,0.7,0.7
2024-08-12T1800,3407A,120.6916,30.7739,嘉兴市,秀洲住建,,46,30,33,17,18,145,,163,163,22,14,3,3,0.8,0.8
2024-08-12T1800,1945A,98.2908,39.7711,嘉峪关市,气象局,,42,34,54,7,11,134,,121,121,9,27,5,21,0.3,0.6
2024-08-12T1800,2884A,98.2672,39.7978,嘉峪关市,酒钢宾馆,,43,39,50,12,13,136,,117,117,10,25,3,28,0.4,0.6
2024-08-12T1800,3248A,98.2643,39.7724,嘉峪关市,雄关区,颗粒物(PM10),53,55,42,11,11,118,,107,107,8,26,8,15,0.1,0.5
2024-08-12T1800,1383A,113.1064,22.6058,江门市,北街,,17,17,25,9,14,52,,84,81,10,24,3,4,0.4,0.5
2024-08-12T1800,1384A,113.0731,22.5835,江门市,西区,,18,17,28,11,12,55,,78,78,12,23,4,4,0.4,0.5
2024-08-12T1800,1385A,113.0219,22.5311,江门市,圭峰西,,19,18,18,9,11,58,,72,72,7,11,3,3,0.4,0.4
2024-08-12T1800,1386A,113.0828,22.5947,江门市,东湖,,15,15,24,6,12,46,,77,76,13,20,5,7,0.4,0.5
2024-08-12T1800,3311A,113.1075,22.5647,江门市,江海富民,,27,27,31,16,14,56,,85,85,13,20,5,6,0.4,0.5
2024-08-12T1800,3449A,113.05,22.4667,江门市,新会银湖,,17,14,22,3,4,52,,71,71,12,18,4,4,0.6,0.6
2024-08-12T1800,1828A,113.227,35.2125,焦作市,市环保局,臭氧1小时,62,28,32,17,13,169,,160,160,10,16,6,5,0.4,0.4
2024-08-12T1800,1830A,113.1992,35.2590,焦作市,影视城,,,,,,,,,,,,,,,,
2024-08-12T1800,3169A,113.2725,35.2067,焦作市,太极体育中心,,50,30,38,15,11,159,,156,156,10,15,8,4,0.4,0.4
2024-08-12T1800,3335A,113.3137,35.2641,焦作市,马村街道办,,45,28,28,10,12,143,,154,154,10,14,1,5,0.3,0.4
2024-08-12T1800,3336A,113.2465,35.2373,焦作市,焦作技师学院,,50,25,31,12,13,158,,152,152,12,16,6,6,0.6,0.6
2024-08-12T1800,3477A,113.1656,35.2539,焦作市,中站许衡医院,,50,27,26,11,15,159,,146,146,12,17,8,8,0.2,0.3
2024-08-12T1800,3981A,113.2449,35.1803,焦作市,原李万街道办,臭氧1小时,77,40,31,14,10,181,,170,170,10,17,9,6,0.2,0.3
2024-08-12T1800,1708A,116.3701,23.5345,揭阳市,新兴,,,,41,18,23,88,,93,93,12,14,5,6,0.6,0.6
2024-08-12T1800,1709A,116.3264,23.5443,揭阳市,西马,,30,30,43,14,21,79,,90,90,14,12,4,6,0.8,0.7
2024-08-12T1800,1710A,116.3611,23.5626,揭阳市,东兴,,,,50,15,19,80,,93,93,13,12,4,6,0.8,0.8
2024-08-12T1800,1711A,116.4151,23.5294,揭阳市,渔湖,,27,27,40,11,18,84,,94,94,22,21,7,6,0.6,0.6
2024-08-12T1800,3320A,116.403,23.5699,揭阳市,曲溪,,25,19,36,17,19,76,,94,94,19,19,5,5,0.7,0.8
2024-08-12T1800,1944A,102.1692,38.5167,金昌市,天庆家园,,42,42,36,21,21,126,,118,118,6,16,4,13,0.4,0.6
2024-08-12T1800,3170A,102.1864,38.5253,金昌市,市委党校,颗粒物(PM10),53,55,44,12,14,125,,118,118,5,12,8,22,0.6,0.6
2024-08-12T1800,4022A,102.1647,38.5371,金昌市,金川区人防中心,颗粒物(PM10),58,66,42,23,17,126,,118,118,6,13,7,13,0.6,0.5
2024-08-12T1800,1262A,119.647,29.077,金华市,十五中,,48,20,24,13,13,152,,148,148,11,12,2,2,0.4,0.4
2024-08-12T1800,1263A,119.686,29.1029,金华市,监测站,,50,21,24,15,15,160,,149,149,10,12,3,3,0.5,0.6
2024-08-12T1800,3659A,119.656,29.1131,金华市,气象局,臭氧1小时,57,28,24,3,13,165,,152,152,9,11,4,5,0.5,0.3
2024-08-12T1800,1767A,121.1115,41.0879,锦州市,南山,,39,39,36,15,21,81,,88,88,16,13,3,5,0.5,0.6
2024-08-12T1800,1768A,121.0533,40.8434,锦州市,开发区,,35,31,51,10,25,109,,105,105,11,14,3,3,0.7,0.7
2024-08-12T1800,1769A,121.1836,41.1119,锦州市,百股街道,,27,23,33,3,13,84,,87,87,11,11,5,6,0.7,0.7
2024-08-12T1800,1770A,121.1178,41.1222,锦州市,天安街道,,32,32,38,14,20,81,,84,84,10,11,5,5,0.8,0.8
2024-08-12T1800,1771A,121.1303,41.1386,锦州市,北湖公园,,25,24,38,10,18,79,,90,90,7,10,3,4,0.6,0.7
2024-08-12T1800,2160A,112.85,35.5051,晋城市,自来水公司,臭氧1小时,73,29,23,7,7,178,,151,151,16,22,12,10,0.7,0.8
2024-08-12T1800,2161A,112.8318,35.4936,晋城市,白云商贸,,,26,33,12,7,176,,149,149,,21,12,8,0.8,0.7
2024-08-12T1800,2162A,112.8508,35.4887,晋城市,市环保局,臭氧1小时,68,21,18,9,8,174,,150,150,22,22,12,9,0.7,0.7
2024-08-12T1800,2163A,112.8676,35.4897,晋城市,技术学院,臭氧1小时,75,35,28,12,9,180,,153,153,15,21,12,10,0.7,0.8
2024-08-12T1800,2165A,112.8453,35.546,晋城市,白马寺,,,,,,,,,,,,,,,,
2024-08-12T1800,3620A,112.8271,35.4828,晋城市,泽州一中,臭氧1小时,62,28,20,9,5,169,,149,149,15,17,12,10,0.8,0.6
2024-08-12T1800,2171A,112.7532,37.6945,晋中市,锦纶小区,,40,19,27,3,5,125,,122,122,7,20,9,8,0.2,0.3
2024-08-12T1800,2173A,112.7249,37.7067,晋中市,南都小区,,39,18,28,12,14,124,,121,121,9,26,6,6,0.2,0.4
2024-08-12T1800,2174A,112.6991,37.6982,晋中市,榆次区政府,,39,19,31,10,12,122,,120,120,10,25,9,9,0.2,0.3
2024-08-12T1800,2865A,112.7195,37.6828,晋中市,榆次三中,,40,14,28,3,4,125,,122,122,6,19,10,10,0.4,0.5
2024-08-12T1800,2439A,112.2014,31.0481,荆门市,竹园小学,,46,33,90,11,26,147,,138,138,11,14,11,10,0.5,0.6
2024-08-12T1800,2440A,112.1969,30.9891,荆门市,掇刀,,46,29,87,3,28,146,,143,143,13,17,9,7,0.4,0.5
2024-08-12T1800,2441A,112.2213,31.0386,荆门市,石化一小,,47,25,87,13,21,148,,143,143,7,13,18,20,0.4,0.5
2024-08-12T1800,3012A,112.1849,31.0362,荆门市,西山林语,,48,17,75,13,25,151,,140,140,10,12,10,9,0.6,0.8
2024-08-12T1800,3547A,112.1632,31.0138,荆门市,龙泉中学南校,,48,26,89,10,26,151,,139,139,11,22,11,10,0.5,0.6
2024-08-12T1800,1844A,112.2494,30.3197,荆州市,市图书馆,臭氧1小时,53,40,93,25,38,162,,153,153,10,17,8,7,0.5,0.7
2024-08-12T1800,1845A,112.2008,30.3544,荆州市,市委党校,臭氧1小时,63,34,91,13,37,170,,158,158,7,11,9,9,0.5,0.6
2024-08-12T1800,3194A,112.2747,30.3122,荆州市,管委会,臭氧1小时,55,39,91,21,40,164,,160,160,13,13,10,8,0.4,0.5
2024-08-12T1800,3548A,112.1655,30.3364,荆州市,学苑路,,,37,108,20,40,169,,162,162,6,13,,7,,0.6
2024-08-12T1800,2342A,117.3102,29.3867,景德镇市,王港中学,,,,,,,,,,,,,,,,
2024-08-12T1800,2343A,117.2117,29.2933,景德镇市,老干部活动中心,,40,40,34,16,22,86,,112,112,9,18,5,10,0.4,0.6
2024-08-12T1800,2344A,117.1894,29.2789,景德镇市,兽医站,,44,44,40,27,26,98,,112,112,6,23,9,19,0.3,0.6
2024-08-12T1800,2345A,117.1547,29.2617,景德镇市,台达陶瓷,,41,41,41,21,24,85,,95,95,13,29,19,25,0.3,0.5
2024-08-12T1800,2346A,117.2461,29.2956,景德镇市,陶研所,,43,43,33,19,15,82,,101,101,10,12,11,14,0.3,0.4
2024-08-12T1800,1803A,115.9872,29.6815,九江市,十里,颗粒物(PM10),80,110,62,30,19,133,,141,141,4,15,10,11,0.5,0.6
2024-08-12T1800,1804A,115.9584,29.7046,九江市,茅山头,颗粒物(PM10),79,108,53,36,20,144,,148,148,7,14,6,8,0.6,0.6
2024-08-12T1800,1805A,115.9877,29.7295,九江市,西园,颗粒物(PM10),78,105,49,33,19,155,,149,149,9,15,13,12,0.7,0.6
2024-08-12T1800,1806A,116.0172,29.6547,九江市,五七二七厂,颗粒物(PM10),83,115,61,40,25,124,,131,131,9,15,10,10,0.5,0.5
2024-08-12T1800,1808A,115.9114,29.6038,九江市,综合工业园,颗粒物(PM10),62,74,56,32,23,140,,154,154,8,16,11,12,0.9,0.8
2024-08-12T1800,1809A,116.0721,29.7535,九江市,石化总厂,颗粒物(PM10),64,77,53,28,20,139,,144,144,11,16,13,14,0.8,0.7
2024-08-12T1800,1810A,115.9773,29.5698,九江市,庐山气象台,颗粒物(PM10),91,131,139,36,40,137,,145,145,8,5,7,14,0.7,0.9
2024-08-12T1800,3190A,116.0254,29.6994,九江市,外国语学校,颗粒物(PM10),74,98,56,35,23,142,,146,146,12,16,11,14,0.6,0.5
2024-08-12T1800,2658A,98.5061,39.7443,酒泉市,仓门街子站,,46,46,42,10,9,130,,116,116,7,18,8,12,0.3,0.4
2024-08-12T1800,2659A,98.4989,39.7256,酒泉市,油田生活基地,,48,48,44,17,14,130,,119,119,10,18,9,11,0.3,0.4
2024-08-12T1800,2698A,76.0072,39.4467,喀什地区,巡警大队,颗粒物(PM10),83,115,156,26,32,133,,122,122,9,20,4,4,0.3,0.3
2024-08-12T1800,2699A,75.9755,39.4694,喀什地区,吾办,颗粒物(PM10),81,112,148,37,38,133,,121,121,11,17,4,4,0.4,0.4
2024-08-12T1800,4027A,75.9483,39.4689,喀什地区,老干局,颗粒物(PM10),82,114,167,21,25,134,,123,123,6,16,5,5,0.4,0.5
2024-08-12T1800,1824A,114.3389,34.7781,开封市,肿瘤医院,臭氧1小时,77,34,35,14,10,181,,173,173,3,13,6,6,0.6,0.6
2024-08-12T1800,1826A,114.2885,34.7965,开封市,世纪星幼儿园,,50,30,32,11,12,157,,153,153,4,12,7,6,0.5,0.4
2024-08-12T1800,3147A,114.3438,34.8106,开封市,龙亭公园,臭氧1小时,57,27,32,15,15,165,,156,156,6,13,4,4,0.6,0.6
2024-08-12T1800,3210A,114.3644,34.7964,开封市,汴京公园,臭氧1小时,74,26,32,14,14,179,,169,169,6,13,6,6,0.6,0.5
2024-08-12T1800,3473A,114.2485,34.8306,开封市,技师学院,,47,29,30,11,13,150,,153,153,14,18,10,9,0.8,0.7
2024-08-12T1800,3592A,114.4644,34.7556,开封市,祥符区生态环境局,臭氧1小时,55,30,40,10,14,164,,163,163,7,24,7,7,0.4,0.4
2024-08-12T1800,1951A,84.895,45.6094,克拉玛依市,长征新村,,28,11,16,8,6,87,,94,94,11,4,6,7,0.2,0.1
2024-08-12T1800,1952A,84.8988,45.5893,克拉玛依市,南林小区,,26,,13,14,10,81,,99,99,13,5,8,8,0.2,0.1
2024-08-12T1800,1954A,84.905,44.3396,克拉玛依市,独山子区,,40,21,36,3,13,126,,112,112,6,7,8,9,0.3,0.3
2024-08-12T1800,1955A,85.6979,46.098,克拉玛依市,乌尔禾区商贸楼,,26,13,16,11,6,83,,75,75,11,12,4,4,0.1,0.2
2024-08-12T1800,3612A,85.1045,45.6899,克拉玛依市,白碱滩区新站,,32,10,18,3,6,100,,103,103,9,5,8,8,0.3,0.2
2024-08-12T1800,2697A,76.1454,39.7142,克孜勒苏柯尔克孜自治州,市人民政府,颗粒物(PM10),69,87,185,30,59,133,,127,127,2,13,1,5,0.3,0.3
2024-08-12T1800,3665A,76.1658,39.7157,克孜勒苏柯尔克孜自治州,克州文化中心,颗粒物(PM10),55,60,173,31,47,132,,128,128,2,4,4,7,0.2,0.2
2024-08-12T1800,1450A,102.8204,24.8886,昆明市,呈贡新区,颗粒物(PM10),56,61,54,23,22,148,,126,126,8,29,11,7,0.7,0.8
2024-08-12T1800,1451A,102.6251,24.9608,昆明市,西山森林公园,,,,,,,,,,,,,,,,
2024-08-12T1800,1452A,102.7252,25.0902,昆明市,龙泉镇,,46,31,33,9,12,146,,132,132,8,18,7,7,0.4,0.5
2024-08-12T1800,1453A,102.7266,25.0375,昆明市,东风东路,,46,31,40,17,21,147,,131,131,10,19,5,6,0.3,0.5
2024-08-12T1800,1454A,102.6742,25.0669,昆明市,金鼎山,,46,39,39,3,12,146,,131,131,9,14,11,9,0.3,0.4
2024-08-12T1800,1455A,102.6644,25.0401,昆明市,碧鸡广场,,48,18,34,14,16,152,,134,134,12,17,4,5,0.2,0.4
2024-08-12T1800,3179A,102.7494,25.0119,昆明市,官渡区博物馆,,48,35,42,15,19,151,,132,132,8,28,6,8,0.3,0.5
2024-08-12T1800,3375A,102.8017,24.8336,昆明市,青年创业园,,47,39,44,20,22,149,,129,129,6,23,6,5,0.5,0.5
2024-08-12T1800,3550A,102.7997,24.9786,昆明市,昆明学院,,47,39,55,13,23,150,,136,136,8,26,6,9,0.3,0.4
2024-08-12T1800,3551A,102.5967,24.6736,昆明市,晋宁区生态环境分局,臭氧1小时,55,29,34,17,22,164,,140,140,5,15,6,6,0.5,0.5
2024-08-12T1800,3552A,102.6678,24.9856,昆明市,云天化总部,,49,23,35,9,17,156,,135,135,7,20,5,6,0.1,0.3
2024-08-12T1800,1456A,91.1319,29.6514,拉萨市,八廓街,,34,7,16,6,11,106,,100,100,12,16,6,8,0.2,0.2
2024-08-12T1800,1457A,91.1221,29.6747,拉萨市,市环保局,,33,9,15,3,8,104,,96,96,12,15,8,8,0.1,0.2
2024-08-12T1800,1458A,91.0874,29.6475,拉萨市,区监测站,,30,8,13,3,8,96,,93,93,14,17,8,8,0.3,0.3
2024-08-12T1800,1459A,91.1774,29.6541,拉萨市,西藏大学,,36,12,13,6,7,113,,104,104,6,10,6,10,0.2,0.3
2024-08-12T1800,1460A,90.9798,29.6588,拉萨市,区辐射站,,29,9,14,3,10,90,,91,90,16,16,8,8,0.1,0.1
2024-08-12T1800,1461A,91.0834,29.6292,拉萨市,拉萨火车站,,30,17,12,9,8,95,,97,97,15,14,9,10,0.2,0.2
2024-08-12T1800,2520A,109.2203,23.7256,来宾市,来宾技工学校,,23,,21,16,10,66,,52,52,6,14,7,7,0.6,0.7
2024-08-12T1800,3535A,109.1781,23.7297,来宾市,兴宾区政府,,23,16,15,12,8,71,,57,57,7,8,5,4,0.7,0.7
2024-08-12T1800,4002A,109.2416,23.7461,来宾市,中南小学,,25,18,18,14,8,79,,56,56,6,16,8,8,0.7,0.7
2024-08-12T1800,1476A,103.631,36.1031,兰州市,兰炼宾馆,臭氧1小时,101,41,47,31,25,202,,187,187,20,26,16,32,0.6,0.6
2024-08-12T1800,1477A,104.1373,35.9454,兰州市,榆中兰大校区,,,,,,,,,,,,,,,,
2024-08-12T1800,1478A,103.8412,36.0726,兰州市,生物制品所,臭氧1小时,73,26,46,15,24,178,,151,151,15,42,9,13,0.4,0.6
2024-08-12T1800,1479A,103.831,36.0464,兰州市,铁路设计院,臭氧1小时,57,31,44,23,25,165,,153,153,34,55,11,18,0.4,0.7
2024-08-12T1800,3186A,103.7158,36.1058,兰州市,教育港,臭氧1小时,102,39,55,23,28,203,,174,174,8,33,12,16,0.5,0.5
2024-08-12T1800,3241A,103.7439,36.0842,兰州市,百合公园,臭氧1小时,94,23,48,11,19,195,,173,173,9,44,16,16,0.5,0.7
2024-08-12T1800,3242A,103.9611,35.998,兰州市,和平,,42,31,37,15,14,132,,145,145,82,22,14,12,0.3,0.4
2024-08-12T1800,3245A,103.6633,36.533,兰州新区,新区管委会,臭氧1小时,97,36,41,14,18,197,,170,170,6,13,9,16,0.4,0.4
2024-08-12T1800,3246A,103.6975,36.4789,兰州新区,舟曲中学,臭氧1小时,67,16,38,8,14,173,,163,163,7,15,9,20,0.4,0.5
2024-08-12T1800,1067A,116.6708,39.5111,廊坊市,药材公司,,24,22,26,3,3,76,,84,84,9,14,3,2,0.3,0.3
2024-08-12T1800,1068A,116.7214,39.5589,廊坊市,开发区,,,11,19,3,7,79,,83,83,2,15,3,3,,0.4
2024-08-12T1800,1070A,116.7244,39.5269,廊坊市,北华航天学院,,30,30,31,3,4,76,,84,83,4,13,3,1,0.3,0.3
2024-08-12T1800,2919A,116.7022,39.5453,廊坊市,河北工业大学,,24,17,26,3,5,76,,81,81,6,16,1,2,0.3,0.3
2024-08-12T1800,2535A,103.7723,29.5462,乐山市,花湖湾,,41,18,51,15,32,130,,124,124,3,15,5,8,0.2,0.6
2024-08-12T1800,2536A,103.7627,29.5844,乐山市,牛耳桥,颗粒物(PM10),52,53,69,16,30,130,,132,132,11,23,3,5,0.4,0.7
2024-08-12T1800,2537A,103.7508,29.6006,乐山市,市第三水厂,,46,46,66,14,26,142,,144,144,8,23,2,5,0.3,0.6
2024-08-12T1800,2538A,103.7571,29.5664,乐山市,市监测站,,46,46,72,28,29,135,,136,136,6,19,4,10,0.6,1
2024-08-12T1800,3361A,103.7311,29.5628,乐山市,理工大学,颗粒物(PM10),51,52,71,20,28,141,,144,144,4,18,4,11,0.4,0.8
2024-08-12T1800,2598A,100.2143,26.8576,丽江市,西南郊,,,,,,,,,,,,,,,,
2024-08-12T1800,2599A,100.2497,26.8802,丽江市,丽江古城,,34,21,24,15,14,107,,91,91,9,14,10,10,0.5,0.7
2024-08-12T1800,2600A,100.2203,26.8906,丽江市,市中心,,36,27,21,13,10,114,,102,102,6,12,8,8,0.5,0.6
2024-08-12T1800,1267A,119.914,28.4514,丽水市,监测站大楼,,37,21,21,17,12,118,,128,128,5,10,2,3,0.5,0.5
2024-08-12T1800,1268A,119.93,28.4586,丽水市,莲都小学,,37,23,22,9,12,117,,127,127,4,8,4,4,0.2,0.3
2024-08-12T1800,1269A,119.879,28.4231,丽水市,余庄前,,43,18,21,11,14,135,,127,127,10,9,4,4,0.4,0.5
2024-08-12T1800,1173A,119.176,34.5885,连云港市,市环境监测站,臭氧1小时,102,36,64,17,23,203,,187,187,8,18,10,10,0.6,0.6
2024-08-12T1800,3000A,119.3581,34.6972,连云港市,德源药业,臭氧1小时,87,44,66,17,21,189,,178,178,18,23,8,8,0.5,0.5
2024-08-12T1800,3007A,119.178,34.844,连云港市,新城一中,臭氧1小时,98,51,87,16,28,198,,198,198,7,14,4,6,0.6,0.7
2024-08-12T1800,3008A,119.3608,34.7519,连云港市,胡沟管理处,臭氧1小时,67,39,67,14,21,173,,174,174,20,23,9,11,0.4,0.4
2024-08-12T1800,3009A,119.1478,34.5911,连云港市,矿山设计院,,,39,71,17,21,174,,161,161,9,20,,10,0.7,0.7
2024-08-12T1800,3434A,119.2413,34.6539,连云港市,工贸学校,臭氧1小时,95,33,64,16,21,196,,182,182,12,12,10,10,0.9,0.9
2024-08-12T1800,3664A,119.4172,34.7341,连云港市,连云街道,臭氧1小时,103,35,64,22,22,205,,189,189,13,11,5,5,0.7,0.6
2024-08-12T1800,2571A,102.3431,27.8099,凉山彝族自治州,青龙寺,,49,13,22,3,8,154,,129,129,4,5,2,2,0.4,0.4
2024-08-12T1800,2572A,102.2721,27.8415,凉山彝族自治州,邛海宾馆,,44,25,25,14,10,138,,132,132,11,11,8,9,0.5,0.6
2024-08-12T1800,2573A,102.2625,27.898,凉山彝族自治州,西昌市政府,,47,23,26,11,10,149,,136,136,7,8,8,9,0.5,0.6
2024-08-12T1800,2574A,102.2685,27.8851,凉山彝族自治州,凉山州政府,,47,26,26,13,12,149,,132,132,9,10,6,6,0.1,0.4
2024-08-12T1800,2575A,102.237,27.8914,凉山彝族自治州,长安,,49,22,28,11,14,155,,137,137,10,12,6,7,0.2,0.5
2024-08-12T1800,2212A,123.2,41.1953,辽阳市,宏伟区,颗粒物(PM10),58,66,47,18,17,90,,87,87,10,9,6,7,0.4,0.6
2024-08-12T1800,2213A,123.1683,41.2495,辽阳市,新华园,颗粒物(PM10),56,62,48,20,19,84,,80,80,9,14,6,9,0.5,0.7
2024-08-12T1800,2214A,123.2354,41.2639,辽阳市,滨河路,颗粒物(PM10),52,53,46,15,20,84,,77,77,8,15,7,8,0.3,0.5
2024-08-12T1800,2215A,123.149,41.2991,辽阳市,铁西工业园,颗粒物(PM10),53,55,49,14,19,74,,73,73,9,14,7,9,0.7,0.8
2024-08-12T1800,2227A,125.1358,42.8845,辽源市,环保局,,38,38,23,16,11,69,,87,87,14,9,9,8,0.8,0.7
2024-08-12T1800,3239A,125.0764,42.9078,辽源市,银鹰制药,,32,32,21,13,13,76,,87,86,17,12,4,9,0.9,0.8
2024-08-12T1800,1625A,115.9848,36.4372,聊城市,区政府,,47,22,27,8,8,150,,134,134,12,17,8,11,0.5,0.5
2024-08-12T1800,2878A,116.0072,36.4343,聊城市,聊大东校,,48,27,32,17,14,153,,138,138,13,18,9,10,0.6,0.6
2024-08-12T1800,3200A,115.9819,36.4978,聊城市,监控中心,,46,18,30,3,8,145,,132,132,7,31,8,9,0.5,0.5
2024-08-12T1800,3513A,116.0445,36.4361,聊城市,九州社区,,49,27,34,9,11,154,,134,134,4,18,7,8,0.6,0.6
2024-08-12T1800,4018A,116.0567,36.4608,聊城市,星美广场,,48,32,38,3,9,153,,135,135,8,15,12,8,0.6,0.6
2024-08-12T1800,2632A,94.3681,29.6376,林芝市,林芝监测站,,28,,9,3,5,89,,76,76,2,3,9,9,0.3,0.3
2024-08-12T1800,2633A,94.3616,29.6616,林芝市,林芝人民医院,,30,9,10,3,5,94,,81,81,3,5,6,6,0.1,0.1
2024-08-12T1800,2603A,100.0781,23.8982,临沧市,市环保局,,40,37,25,28,22,96,,89,89,7,8,5,4,0.2,0.3
2024-08-12T1800,2604A,100.0894,23.8822,临沧市,市气象局,,30,25,17,17,10,94,,90,90,6,7,4,4,0.4,0.4
2024-08-12T1800,1733A,111.5531,36.0783,临汾市,临钢医院,颗粒物(PM10),54,58,43,12,12,161,,146,146,6,17,6,5,0.7,0.6
2024-08-12T1800,1734A,111.5028,36.0714,临汾市,技工学校,臭氧1小时,74,36,43,12,14,179,,154,154,9,26,6,3,0.6,0.5
2024-08-12T1800,1736A,111.5018,36.0855,临汾市,市委,,,16,41,11,13,189,,163,163,5,18,,7,0.5,0.5
2024-08-12T1800,3018A,111.505,36.1014,临汾市,唐尧大酒店,臭氧1小时,58,22,34,14,8,166,,146,146,9,20,8,7,0.6,0.5
2024-08-12T1800,3668A,111.5036,36.0414,临汾市,城南,臭氧1小时,75,48,51,12,14,180,,152,152,8,23,6,4,0.6,0.6
2024-08-12T1800,2667A,103.2069,35.5993,临夏回族自治州,环保局,,50,30,46,16,21,160,,142,142,2,9,10,10,0.3,0.4
2024-08-12T1800,2668A,103.2417,35.6057,临夏回族自治州,建设大厦,,48,18,38,7,21,153,,140,140,4,9,7,7,0.4,0.4
2024-08-12T1800,1618A,118.3429,35.0532,临沂市,沂河小区,臭氧1小时,78,31,70,16,26,182,,184,184,14,14,7,10,0.4,0.5
2024-08-12T1800,1619A,118.295,35.0583,临沂市,鲁南制药厂,臭氧1小时,60,22,72,14,25,168,,186,183,9,23,5,8,0.2,0.4
2024-08-12T1800,1620A,118.2794,34.9976,临沂市,新光毛纺厂,,48,22,66,9,25,153,,169,167,7,21,5,9,0.7,0.8
2024-08-12T1800,1621A,118.3956,35.0888,临沂市,河东保险公司,臭氧1小时,70,27,59,8,20,176,,179,179,21,18,8,10,0.5,0.6
2024-08-12T1800,3370A,118.3564,35.0215,临沂市,十里堡居委,,,19,64,14,25,182,,190,190,22,24,,12,0.5,0.7
2024-08-12T1800,3496A,118.3604,35.1084,临沂市,南坊新区,臭氧1小时,74,27,71,9,21,179,,178,177,12,18,8,11,0.6,0.8
2024-08-12T1800,3860A,118.3920,35.0300,临沂市,皇山花园小区,臭氧1小时,83,44,74,17,27,186,,181,181,16,26,12,16,0.4,0.6
2024-08-12T1800,1870A,109.4856,24.3895,柳州市,柳东小学,细颗粒物(PM2.5),52,,17,36,11,62,,52,52,8,14,10,9,0.7,0.8
2024-08-12T1800,1871A,109.4157,24.3277,柳州市,环保监测站,,36,,30,25,14,64,,63,63,7,14,7,11,0.8,0.9
2024-08-12T1800,1872A,109.389,24.341,柳州市,河西水厂,,26,26,33,11,12,70,,66,66,7,11,6,9,0.8,0.9
2024-08-12T1800,1873A,109.4311,24.2921,柳州市,市四中,,21,18,22,7,12,66,,64,64,5,15,5,11,0.6,0.7
2024-08-12T1800,1874A,109.4006,24.3631,柳州市,市九中,,25,21,33,10,15,78,,65,65,10,16,6,9,0.8,0.9
2024-08-12T1800,1875A,109.4958,24.3134,柳州市,古亭山,,18,,19,9,10,57,,53,53,6,19,6,8,0.7,0.8
2024-08-12T1800,3402A,109.5422,24.3996,柳州市,市二中,,19,14,21,6,8,60,,47,47,8,15,6,7,0.5,0.6
2024-08-12T1800,2307A,116.5079,31.737,六安市,监测大楼,颗粒物(PM10),63,76,82,25,26,120,,145,144,13,11,6,6,0.4,0.5
2024-08-12T1800,2308A,116.4738,31.7643,六安市,皖西学院,颗粒物(PM10),67,83,99,22,27,130,,143,143,3,11,4,5,0.2,0.3
2024-08-12T1800,2309A,116.4996,31.7905,六安市,朝阳厂,颗粒物(PM10),61,71,92,22,27,123,,138,138,3,10,10,10,0.3,0.3
2024-08-12T1800,2310A,116.5567,31.7886,六安市,开发区,颗粒物(PM10),68,85,98,27,31,118,,145,144,2,12,6,6,0.2,0.3
2024-08-12T1800,2576A,104.8,26.5892,六盘水市,窑上,,,,,,,,,,,,,,,,
2024-08-12T1800,2577A,104.83,26.5917,六盘水市,黄土坡,,45,45,63,22,25,141,,127,127,5,11,7,6,0.4,0.4
2024-08-12T1800,2578A,104.89,26.5939,六盘水市,水钢,颗粒物(PM10),63,76,86,11,23,139,,125,125,9,22,10,18,0.9,1.3
2024-08-12T1800,2579A,104.8475,26.5894,六盘水市,民中,,,48,59,14,22,138,,123,123,,13,7,7,0.2,0.2
2024-08-12T1800,2580A,104.9544,26.5506,六盘水市,双水,颗粒物(PM10),52,53,88,15,25,145,,125,125,3,17,6,8,0.3,0.6
2024-08-12T1800,2335A,117.0189,25.1181,龙岩市,龙岩师专,,,,,,,,,,,,,,,,
2024-08-12T1800,2336A,117.0217,25.1033,龙岩市,龙岩市监测站,,19,11,26,9,17,59,,90,90,32,17,6,5,0.4,0.4
2024-08-12T1800,2337A,117.0258,25.0661,龙岩市,闽西职业技术学院,,20,20,34,3,15,52,,77,76,30,21,24,12,0.4,0.4
2024-08-12T1800,2338A,117.0196,25.0306,龙岩市,龙岩学院,,20,12,25,3,12,61,,82,82,10,9,4,3,0.3,0.3
2024-08-12T1800,2665A,105.0822,33.3261,陇南市,汉王镇固水子,,,,,,,,,,,,,,,,
2024-08-12T1800,2885A,104.9339,33.3826,陇南市,滨江中学,,40,40,42,9,12,108,,108,108,7,12,5,6,0.3,0.4
2024-08-12T1800,3247A,104.955,33.371,陇南市,市总工会,,37,37,34,6,8,110,,108,108,4,5,5,5,0.4,0.4
2024-08-12T1800,2487A,111.9589,27.8901,娄底市,电视发射台,,27,21,49,3,24,84,,74,74,5,7,6,6,0.4,0.6
2024-08-12T1800,2488A,111.9975,27.725,娄底市,市监测站,,29,,51,14,23,91,,95,95,5,10,7,12,0.5,0.7
2024-08-12T1800,2489A,112.0194,27.7314,娄底市,市委党校,,26,18,47,8,24,82,,85,85,1,6,2,2,0.4,0.6
2024-08-12T1800,2490A,111.9561,27.7569,娄底市,涟钢,,20,17,58,8,25,61,,64,64,19,17,10,10,0.8,0.7
2024-08-12T1800,2491A,111.9892,27.7044,娄底市,市政府,,23,11,36,7,26,71,,131,131,9,9,6,8,0.4,0.3
2024-08-12T1800,1893A,105.4324,28.9634,泸州市,九狮山,颗粒物(PM10),65,80,103,27,37,171,,170,170,2,16,3,4,0.6,0.5
2024-08-12T1800,1894A,105.4427,28.9063,泸州市,小市上码头,颗粒物(PM10),85,120,129,27,36,171,,176,176,11,26,7,12,0.4,0.5
2024-08-12T1800,1895A,105.4241,28.8573,泸州市,兰田宪桥,颗粒物(PM10),79,107,113,36,43,176,,172,172,17,21,6,6,0.3,0.4
2024-08-12T1800,1896A,105.4379,28.8833,泸州市,市环监站,颗粒物(PM10),78,106,124,33,41,167,,168,168,10,21,4,6,0.3,0.3
2024-08-12T1800,3490A,105.3617,28.7703,泸州市,纳溪区环保局,颗粒物(PM10),78,106,111,39,42,166,,163,163,14,24,4,5,0.3,0.4
2024-08-12T1800,2183A,111.1406,37.5211,吕梁市,环保局,,39,10,43,3,13,122,,106,106,4,25,4,5,0.4,0.5
2024-08-12T1800,2185A,111.1297,37.5136,吕梁市,自来水公司,,39,14,46,3,13,122,,104,104,5,21,3,5,0.4,0.6
2024-08-12T1800,2867A,111.1283,37.51,吕梁市,马茂庄小学,,40,25,53,6,13,126,,108,108,9,32,1,3,0.4,0.6
2024-08-12T1800,1812A,112.3931,34.6516,洛阳市,市委党校,,47,32,27,14,13,150,,140,140,6,10,6,6,0.6,0.6
2024-08-12T1800,1814A,112.4657,34.6871,洛阳市,豫西宾馆,,50,29,34,8,13,160,,145,145,10,19,6,9,0.3,0.4
2024-08-12T1800,1815A,112.494,34.6886,洛阳市,河南林校,,47,35,30,18,13,150,,138,138,7,15,3,6,0.4,0.5
2024-08-12T1800,1816A,112.3844,34.623,洛阳市,开发区管委会,,45,24,20,13,10,142,,138,138,7,9,2,2,0.4,0.3
2024-08-12T1800,1817A,112.4267,34.6258,洛阳市,市委新办公区,,48,26,20,12,12,151,,142,142,1,4,5,4,0.5,0.5
2024-08-12T1800,3340A,112.6005,34.6326,洛阳市,伊滨,,49,29,27,13,11,154,,151,151,20,16,7,6,0.1,0.2
2024-08-12T1800,3341A,112.4951,34.6332,洛阳市,中移产业园,,48,21,19,15,10,153,,145,145,5,8,6,5,0.8,0.7
2024-08-12T1800,3593A,112.5736,34.8993,洛阳市,吉利监测站,,,26,24,14,11,142,,134,134,,8,2,2,0.2,0.3
2024-08-12T1800,3635A,112.3677,34.662,洛阳市,河科大西苑校区,,47,24,23,8,10,148,,137,137,1,10,5,6,0.6,0.6
2024-08-12T1800,3636A,112.4388,34.6781,洛阳市,英才小学,,49,,34,15,20,155,,142,142,2,13,5,10,0.5,0.5
2024-08-12T1800,2399A,114.051,33.5699,漯河市,三五一五工厂,臭氧1小时,64,32,28,14,12,171,,161,161,5,10,8,10,0.4,0.4
2024-08-12T1800,2400A,114.0055,33.5698,漯河市,漯河大学,臭氧1小时,67,32,33,9,10,173,,163,163,6,11,12,12,0.4,0.4
2024-08-12T1800,2401A,114.0138,33.5828,漯河市,市水利局,臭氧1小时,63,29,28,7,8,170,,159,159,5,10,8,9,0.6,0.6
2024-08-12T1800,2402A,114.0261,33.5698,漯河市,市广电局,臭氧1小时,64,22,25,8,7,171,,160,160,7,10,7,8,0.5,0.5
2024-08-12T1800,3478A,113.9749,33.5664,漯河市,市图书馆,臭氧1小时,65,30,29,12,12,172,,164,164,8,10,11,10,0.4,0.4
2024-08-12T1800,3479A,114.0967,33.5906,漯河市,召陵区卫健委,臭氧1小时,68,28,32,12,13,174,,162,162,5,8,4,7,0.6,0.5
2024-08-12T1800,1798A,118.5092,31.6837,马鞍山市,湖东路四小,颗粒物(PM10),74,97,64,24,28,130,,149,149,21,21,18,11,1.5,1
2024-08-12T1800,1799A,118.5024,31.6449,马鞍山市,开发区,颗粒物(PM10),73,95,57,24,23,139,,148,148,9,20,4,4,0.6,0.8
2024-08-12T1800,1800A,118.5228,31.7231,马鞍山市,慈湖,颗粒物(PM10),63,76,49,27,29,137,,151,151,15,29,7,12,0.8,1.1
2024-08-12T1800,1802A,118.6245,31.7241,马鞍山市,濮塘,颗粒物(PM10),68,85,54,41,29,161,,162,162,7,14,4,5,0.9,1.1
2024-08-12T1800,3633A,118.4918,31.6809,马鞍山市,雨山,颗粒物(PM10),82,113,55,29,25,134,,144,144,11,18,11,8,1.2,1.1
2024-08-12T1800,1686A,111.0286,21.4688,茂名市,电白南海,,19,19,33,12,22,50,,75,70,12,9,10,8,0.6,0.6
2024-08-12T1800,1687A,110.9294,21.6533,茂名市,茂石化七小,,,7,28,7,20,46,,61,59,10,10,,10,0.4,0.4
2024-08-12T1800,1688A,110.9107,21.6687,茂名市,健康路,,15,7,26,7,11,48,,65,62,9,12,10,15,0.6,0.6
2024-08-12T1800,1689A,110.8592,21.6828,茂名市,高岭,,17,17,26,9,16,37,,49,46,10,14,13,19,0.8,0.7
2024-08-12T1800,3450A,111.01,21.5165,茂名市,电白水东,,18,17,30,12,18,47,,65,64,12,11,12,9,0.6,0.5
2024-08-12T1800,2539A,104.0308,30.0478,眉山市,黑龙滩水库,,49,37,50,14,21,154,,140,140,1,7,6,6,0.1,0.3
2024-08-12T1800,2540A,103.8416,30.0874,眉山市,气象局,,50,42,53,17,25,157,,149,149,7,32,7,8,0.4,0.5
2024-08-12T1800,3137A,103.8578,30.0744,眉山市,市委党校,,49,48,64,17,19,155,,144,144,6,27,6,6,0.3,0.5
2024-08-12T1800,3148A,103.8291,30.0564,眉山市,区人社局,,49,49,53,12,21,149,,150,150,10,29,8,11,0.4,0.5
2024-08-12T1800,1690A,116.1231,24.3284,梅州市,梅江月梅,,17,16,25,6,14,52,,86,82,11,9,7,8,0.5,0.5
2024-08-12T1800,1691A,116.0797,24.2719,梅州市,梅县新城,,22,,24,14,13,68,,89,84,13,16,4,4,0.7,0.6
2024-08-12T1800,1692A,116.1248,24.2654,梅州市,环境监控中心,,31,31,23,10,12,64,,82,81,20,19,4,5,0.6,0.5
2024-08-12T1800,3315A,116.1233,24.2991,梅州市,梅龙,,22,,17,10,14,69,,95,92,8,9,8,8,0.7,0.6
2024-08-12T1800,1878A,104.7778,31.4741,绵阳市,富乐山,颗粒物(PM10),51,51,46,24,25,156,,164,164,20,13,9,9,0.5,0.5
2024-08-12T1800,1879A,104.7563,31.4535,绵阳市,市人大,臭氧1小时,74,52,55,20,26,179,,165,165,9,28,13,10,0.4,0.6
2024-08-12T1800,1880A,104.6697,31.4668,绵阳市,高新区自来水公司,臭氧1小时,93,51,59,19,21,194,,160,160,11,35,8,8,0.4,0.6
2024-08-12T1800,1881A,104.7287,31.5075,绵阳市,三水厂,臭氧1小时,70,44,57,22,28,176,,164,164,14,29,7,6,0.5,0.6
2024-08-12T1800,3491A,104.69,31.5322,绵阳市,西科大附属小学,臭氧1小时,90,57,52,27,26,192,,164,164,9,23,10,10,0.3,0.4
2024-08-12T1800,3492A,104.5648,31.5343,绵阳市,安州区旅游局,臭氧1小时,106,58,50,29,30,212,,171,171,10,15,5,7,0.6,0.5
2024-08-12T1800,1784A,129.61,44.561,牡丹江市,环保大楼,,21,21,15,9,10,44,,47,47,8,4,7,7,0.3,0.3
2024-08-12T1800,1785A,129.6115,44.5782,牡丹江市,文化广场,,23,,14,16,14,44,,46,46,10,6,6,7,0.4,0.3
2024-08-12T1800,1786A,129.5904,44.5963,牡丹江市,第一医院,,28,28,15,3,9,42,,48,48,12,6,5,5,0.4,0.4
2024-08-12T1800,1787A,129.6364,44.6075,牡丹江市,机车工厂,,28,,10,19,17,42,,46,46,10,7,5,5,0.3,0.3
2024-08-12T1800,1788A,129.6386,44.5462,牡丹江市,第一中学,,28,24,15,19,10,49,,51,51,7,4,5,5,0.4,0.3
2024-08-12T1800,2531A,105.0703,29.61,内江市,市监测站,臭氧1小时,64,42,61,29,32,171,,147,147,14,23,4,4,0.3,0.4
2024-08-12T1800,2532A,105.0717,29.5947,内江市,东兴区政府,,47,47,68,19,25,146,,127,127,16,20,10,9,0.7,0.8
2024-08-12T1800,2533A,105.0653,29.5817,内江市,内江二中,颗粒物(PM10),57,63,65,22,24,153,,126,126,13,19,8,4,0.5,0.6
2024-08-12T1800,2534A,105.0406,29.5822,内江市,内江日报社,,,85,77,35,33,165,,145,145,8,22,11,7,,0.4
2024-08-12T1800,2628A,92.0657,31.4846,那曲市,那曲监测站,,37,20,35,10,13,116,,108,108,6,8,6,6,0.4,0.5
2024-08-12T1800,3128A,92.0506,31.4797,那曲市,那曲会议中心,,42,13,36,3,13,132,,120,120,4,10,4,4,0.2,0.3
2024-08-12T1800,1290A,115.8931,28.6843,南昌市,省外办,,31,26,41,7,20,99,,131,131,23,19,7,11,0.4,0.4
2024-08-12T1800,1291A,115.8886,28.7003,南昌市,省林业公司,,29,17,31,7,15,91,,126,126,18,14,5,10,0.5,0.5
2024-08-12T1800,1292A,115.8126,28.7442,南昌市,林科所,,17,14,29,3,12,50,,131,126,34,19,3,9,0.2,0.2
2024-08-12T1800,1294A,115.8518,28.687,南昌市,建工学校,,30,9,30,8,14,93,,128,128,18,16,7,12,0.4,0.4
2024-08-12T1800,1295A,115.8921,28.6424,南昌市,象湖,,29,24,25,9,13,92,,124,124,22,15,4,9,0.7,0.7
2024-08-12T1800,1296A,115.7423,28.7996,南昌市,武术学校,,,,27,,18,,,45,,,7,,2,,0.7
2024-08-12T1800,1298A,115.9314,28.6842,南昌市,省站,,28,19,31,13,18,87,,120,120,16,7,8,12,0.5,0.6
2024-08-12T1800,3046A,115.9084,28.6062,南昌市,机电学校,,36,36,31,7,14,82,,114,114,23,13,6,11,0.6,0.6
2024-08-12T1800,3690A,115.9721,28.7031,南昌市,外国语学校,,35,35,36,22,14,78,,137,136,21,12,5,7,0.2,0.3
2024-08-12T1800,1905A,106.056,30.8064,南充市,西山风景区,,50,50,52,25,29,128,,131,131,4,10,2,4,0.1,0.1
2024-08-12T1800,1906A,106.0789,30.8023,南充市,南充市委,颗粒物(PM10),67,84,74,25,32,146,,155,155,5,18,7,8,0.3,0.4
2024-08-12T1800,1907A,106.1031,30.8217,南充市,南充炼油厂,颗粒物(PM10),65,79,81,24,34,150,,160,160,7,19,6,6,0.2,0.4
2024-08-12T1800,1908A,106.1064,30.7856,南充市,高坪区监测站,颗粒物(PM10),58,65,72,19,28,148,,149,149,9,20,6,6,0.2,0.3
2024-08-12T1800,1909A,106.0642,30.7636,南充市,嘉陵区环保局,颗粒物(PM10),60,70,73,27,30,156,,156,156,10,19,8,9,0.3,0.4
2024-08-12T1800,1910A,106.1087,30.8388,南充市,市环境监测站,颗粒物(PM10),62,73,72,24,31,146,,162,162,12,22,5,6,0.5,0.6
2024-08-12T1800,1151A,118.8086,32.1065,南京市,迈皋桥,颗粒物(PM10),53,56,57,17,22,146,,164,164,8,21,12,16,0.4,0.3
2024-08-12T1800,1152A,118.7538,32.0551,南京市,草场门,颗粒物(PM10),60,70,70,19,20,139,,151,151,8,17,6,7,0.4,0.4
2024-08-12T1800,1153A,118.7794,32.0745,南京市,山西路,,,,51,22,24,148,,170,170,3,11,4,4,0.3,0.4
2024-08-12T1800,1154A,118.7752,32.0023,南京市,中华门,颗粒物(PM10),57,63,66,19,22,144,,148,148,26,19,4,4,0.5,0.5
2024-08-12T1800,1155A,118.8109,32.0309,南京市,瑞金路,颗粒物(PM10),64,78,72,22,23,154,,162,162,12,9,7,7,0.4,0.5
2024-08-12T1800,1156A,118.7997,32.0754,南京市,玄武湖,颗粒物(PM10),67,84,70,15,20,135,,148,148,1,6,7,9,0.5,0.5
2024-08-12T1800,1157A,118.6414,32.0931,南京市,浦口,颗粒物(PM10),60,70,75,20,22,140,,149,149,6,6,7,7,0.4,0.3
2024-08-12T1800,1158A,118.7356,31.9996,南京市,奥体中心,颗粒物(PM10),54,58,69,22,27,132,,136,136,9,21,7,7,0.2,0.3
2024-08-12T1800,1159A,118.9125,32.1028,南京市,仙林大学城,颗粒物(PM10),63,75,74,14,24,153,,184,179,14,18,7,9,0.4,0.6
2024-08-12T1800,3422A,118.8436,31.9198,南京市,江宁彩虹桥,颗粒物(PM10),76,102,60,24,21,163,,170,170,11,11,4,4,0.7,0.8
2024-08-12T1800,3423A,119.0138,31.6494,南京市,溧水永阳,臭氧1小时,70,48,40,20,19,176,,176,176,9,9,4,4,0.5,0.5
2024-08-12T1800,3424A,118.879,31.3302,南京市,高淳老职中,臭氧1小时,62,62,40,38,19,169,,178,178,8,9,4,6,0.4,0.4
2024-08-12T1800,3427A,118.8554,32.3578,南京市,六合雄州,颗粒物(PM10),54,57,93,20,29,145,,146,146,10,11,5,6,0.8,0.8
2024-08-12T1800,1401A,108.3103,22.7881,南宁市,二十一中,,24,23,21,13,13,75,,84,84,8,12,3,3,0.7,0.7
2024-08-12T1800,1402A,108.3141,22.8528,南宁市,北湖,,25,22,26,17,13,77,,93,93,10,14,2,3,0.6,0.6
2024-08-12T1800,1403A,108.3206,22.8225,南宁市,市监测站,,24,17,25,10,12,75,,83,82,8,12,4,5,0.7,0.7
2024-08-12T1800,1404A,108.3829,22.8037,南宁市,大自然花园,,24,24,19,13,12,66,,76,76,10,12,4,4,0.7,0.6
2024-08-12T1800,1405A,108.4394,22.7904,南宁市,仙葫,,27,27,18,15,10,71,,79,79,4,10,6,6,0.8,0.8
2024-08-12T1800,1406A,108.2397,22.8467,南宁市,区农职院,,27,23,28,13,24,84,,93,93,10,14,5,12,0.8,0.8
2024-08-12T1800,1407A,108.3275,22.735,南宁市,英华嘉园,,21,16,24,13,14,67,,73,73,11,22,5,5,0.6,0.6
2024-08-12T1800,1408A,108.2257,22.7757,南宁市,沙井镇街道办,,29,29,26,14,14,75,,77,77,16,22,2,2,0.7,0.6
2024-08-12T1800,3401A,108.4834,22.7618,南宁市,红星社区,,29,29,20,8,10,62,,70,70,7,10,5,5,0.7,0.7
2024-08-12T1800,2331A,118.0966,26.6761,南平市,茫荡山,,,,,,,,,,,,,,,,
2024-08-12T1800,2332A,118.1681,26.6369,南平市,南平市监测站,,32,25,23,15,11,101,,111,111,6,12,6,7,0.7,0.6
2024-08-12T1800,2333A,118.1825,26.6489,南平市,南平铝业有限公司,,32,17,24,15,13,100,,109,109,6,11,7,8,0.7,0.6
2024-08-12T1800,2334A,118.1756,26.6272,南平市,南平七中,,32,20,23,15,13,102,,110,110,6,10,6,6,0.7,0.6
2024-08-12T1800,1168A,120.9098,31.9663,南通市,狼山街道,,34,17,29,3,19,107,,175,172,17,23,5,11,0.6,1
2024-08-12T1800,1169A,120.86,32.0005,南通市,虹桥,,36,19,37,3,23,113,,178,177,14,23,5,10,0.8,1.2
2024-08-12T1800,1170A,120.87,32.02,南通市,城中,,35,17,40,3,21,110,,168,166,15,19,6,11,0.7,1.1
2024-08-12T1800,1171A,120.94,31.93,南通市,星湖花园,,37,14,28,3,15,117,,180,175,26,27,4,7,0.7,0.9
2024-08-12T1800,1172A,120.81,32.0417,南通市,紫琅学院,,35,15,30,3,18,110,,169,168,23,23,6,10,0.9,1
2024-08-12T1800,3291A,121.067,32.062,南通市,通州监测站,,34,22,31,3,16,106,,168,161,11,10,3,5,0.8,0.9
2024-08-12T1800,3432A,120.9348,31.9883,南通市,环境教育馆,,30,17,37,3,19,93,,173,165,22,26,7,12,0.6,1
2024-08-12T1800,2404A,112.5224,33.0122,南阳市,瓦房庄,,48,20,32,8,12,153,,147,147,12,16,4,5,0.6,0.5
2024-08-12T1800,2405A,112.5003,32.9735,南阳市,汉画馆,,45,21,35,13,17,143,,136,136,9,18,5,5,0.4,0.4
2024-08-12T1800,2406A,112.5573,33.027,南阳市,气象站,臭氧1小时,53,20,34,7,10,162,,160,160,8,18,7,8,0.5,0.5
2024-08-12T1800,2407A,112.5481,32.9689,南阳市,理工学院,,46,19,32,7,8,145,,138,138,11,21,5,6,0.4,0.4
2024-08-12T1800,4008A,112.5234,32.9922,南阳市,卧龙区政府,,47,23,34,12,14,148,,137,137,14,20,5,6,0.4,0.5
2024-08-12T1800,1234A,121.8358,29.911,宁波市,区环保大楼,颗粒物(PM10),53,56,57,30,34,141,,193,186,22,27,9,9,0.9,1
2024-08-12T1800,1235A,121.56,29.82,宁波市,万里学院,细颗粒物(PM2.5),54,54,53,38,37,89,,158,152,42,14,8,9,0.9,0.8
2024-08-12T1800,1236A,121.713,29.9572,宁波市,龙赛医院,颗粒物(PM10),53,55,49,30,30,119,,219,216,34,19,8,10,0.7,0.8
2024-08-12T1800,1239A,121.633,29.7733,宁波市,钱湖水厂,,,33,47,26,33,123,,152,152,10,8,,6,0.7,0.7
2024-08-12T1800,1240A,121.5856,29.8635,宁波市,太古小学,,36,34,49,25,30,81,,148,144,41,12,6,6,1.1,1.1
2024-08-12T1800,1241A,121.524,29.8674,宁波市,市环境监测中心,,44,44,48,23,26,94,,167,161,35,16,4,4,0.9,0.8
2024-08-12T1800,2871A,121.6147,29.9017,宁波市,万里国际学校,,42,40,46,29,38,81,,180,173,58,17,6,6,0.7,0.6
2024-08-12T1800,3710A,121.5594,29.8975,宁波市,白沙活动中心,,36,36,43,20,29,79,,178,163,43,16,6,6,0.7,0.6
2024-08-12T1800,2339A,119.5001,26.6946,宁德市,金涵水库,,,,,,,,,,,,,,,,
2024-08-12T1800,2341A,119.5388,26.6612,宁德市,宁德市监测站,,49,48,35,34,24,130,,130,130,15,12,6,5,0.8,0.6
2024-08-12T1800,3209A,119.5231,26.6562,宁德市,宁德一中,细颗粒物(PM2.5),52,48,39,36,23,129,,126,126,9,8,4,4,1.2,1.1
2024-08-12T1800,2618A,98.8601,25.8567,怒江傈僳族自治州,州监测站,,30,28,25,14,11,96,,62,62,8,11,11,10,0.5,0.5
2024-08-12T1800,2619A,98.8546,25.8417,怒江傈僳族自治州,泸水一中,,29,24,22,16,9,91,,58,58,10,12,5,5,0.5,0.5
2024-08-12T1800,1888A,101.6891,26.571,攀枝花市,弄弄坪,臭氧1小时,55,53,54,25,22,164,,129,129,12,20,13,12,0.9,0.8
2024-08-12T1800,1889A,101.5769,26.5928,攀枝花市,河门口,臭氧1小时,70,30,36,14,18,176,,150,150,16,16,20,10,1.0,0.9
2024-08-12T1800,1890A,101.7169,26.585,攀枝花市,炳草岗,臭氧1小时,63,39,58,12,26,170,,136,136,7,24,3,19,0.5,1
2024-08-12T1800,1891A,101.7369,26.5008,攀枝花市,仁和,臭氧1小时,79,38,41,24,24,183,,152,152,12,15,19,13,0.5,0.8
2024-08-12T1800,2835A,101.7227,26.567,攀枝花市,四十中小,臭氧1小时,75,40,45,19,22,180,,140,140,11,23,10,11,0.7,1
2024-08-12T1800,1604A,122.0303,41.1489,盘锦市,开发区,,33,24,35,8,20,103,,109,109,8,9,4,6,0.6,0.6
2024-08-12T1800,1605A,122.0485,41.0883,盘锦市,兴隆台,,30,30,37,6,19,89,,95,95,17,13,4,4,0.6,0.6
2024-08-12T1800,1606A,121.8297,41.1028,盘锦市,新生街道,,29,23,34,9,19,92,,90,90,9,9,4,5,0.6,0.7
2024-08-12T1800,1832A,113.3257,33.742,平顶山市,新华旅馆,臭氧1小时,57,29,39,21,21,165,,158,158,4,13,6,7,0.4,0.4
2024-08-12T1800,1833A,113.2919,33.737,平顶山市,规划设计院,,,,30,12,11,158,,156,156,,17,9,10,,0.7
2024-08-12T1800,1834A,113.182,33.774,平顶山市,平顶山工学院,,49,25,27,9,8,154,,154,154,8,15,9,10,0.6,0.7
2024-08-12T1800,3204A,113.3025,33.73,平顶山市,规划局,,49,29,30,17,15,155,,152,152,8,13,6,7,0.7,0.7
2024-08-12T1800,3594A,112.8867,33.9116,平顶山市,石龙区,,44,36,47,15,14,139,,139,139,13,25,9,9,0.3,0.3
2024-08-12T1800,2656A,106.6692,35.5461,平凉市,聚贤嘉苑,,45,34,37,10,12,141,,144,144,14,25,9,9,0.3,0.3
2024-08-12T1800,2657A,106.7021,35.5307,平凉市,博物馆,,46,30,42,10,11,146,,143,143,12,24,8,9,0.3,0.3
2024-08-12T1800,2347A,114.0997,27.5002,萍乡市,武功山,,23,6,11,3,4,71,,79,79,3,4,16,16,0.2,0.2
2024-08-12T1800,2348A,113.8385,27.6434,萍乡市,中医院,,19,10,29,10,20,59,,80,80,8,11,4,13,0.9,1
2024-08-12T1800,2349A,113.8493,27.6253,萍乡市,市政府车库,,,7,28,,23,53,,71,70,12,8,14,16,0.5,0.6
2024-08-12T1800,2350A,113.8676,27.6435,萍乡市,市环保局,,,,29,,20,60,,75,74,7,7,8,13,0.7,1
2024-08-12T1800,2351A,113.866,27.6198,萍乡市,安源区政府,,23,23,26,9,10,57,,69,68,6,10,8,12,0.4,0.4
2024-08-12T1800,2319A,119.0141,25.4325,莆田市,荔城区仓后路,,30,25,63,10,40,94,,154,152,9,14,6,7,0.6,0.7
2024-08-12T1800,2320A,119.0015,25.4553,莆田市,莆田市监测站,,,,63,3,41,98,,157,156,9,12,5,7,0.5,0.7
2024-08-12T1800,2321A,119.1119,25.4561,莆田市,涵江区六中,,31,26,63,13,41,97,,148,146,9,14,6,6,0.6,0.7
2024-08-12T1800,2322A,119.1013,25.3215,莆田市,秀屿区政府,,33,20,41,14,36,103,,132,132,13,13,5,6,0.6,0.7
2024-08-12T1800,2323A,118.981,25.4792,莆田市,东圳水库,,,,,,,,,,,,,,,,
2024-08-12T1800,2392A,115.0312,35.7636,濮阳市,环保局,,45,10,30,10,13,143,,147,147,9,14,6,8,0.5,0.7
2024-08-12T1800,2394A,115.0574,35.7609,濮阳市,油田运输公司,,47,19,31,10,15,148,,153,153,4,15,3,4,0.3,0.6
2024-08-12T1800,2395A,115.0866,35.7754,濮阳市,油田物探公司,,44,20,32,8,16,139,,151,151,6,10,5,6,0.4,0.6
2024-08-12T1800,3021A,115,35.7668,濮阳市,濮水河管理处,,37,36,31,15,18,118,,125,125,7,13,4,4,0.6,0.7
2024-08-12T1800,2601A,100.98,22.7633,普洱市,市环保局,,43,40,31,30,19,74,,63,63,7,10,10,10,0.5,0.5
2024-08-12T1800,2602A,100.9817,22.8322,普洱市,普洱第二中学,,47,47,32,10,13,89,,67,67,8,9,6,5,0.4,0.5
2024-08-12T1800,2262A,131.0518,45.8751,七台河市,新一中,,25,17,10,17,5,72,,79,79,9,7,10,10,0,0.7
2024-08-12T1800,3345A,131.0577,45.7879,七台河市,中波台,,19,19,8,6,7,47,,44,44,19,17,10,10,0.3,0.3
2024-08-12T1800,3637A,131.0176,45.7761,七台河市,人民广场,,25,25,14,8,6,57,,60,60,14,7,10,11,0.4,0.3
2024-08-12T1800,3684A,130.8781,45.8222,七台河市,新建矿广场,,28,19,34,19,9,52,,56,55,13,14,9,6,0.4,0.4
2024-08-12T1800,1779A,123.9305,47.3636,齐齐哈尔市,安居小区,,17,17,14,3,8,54,,64,63,7,6,6,7,0.5,0.4
2024-08-12T1800,1780A,123.9488,47.3386,齐齐哈尔市,中心广场,,18,,15,12,7,53,,62,61,10,7,2,2,0.4,0.3
2024-08-12T1800,1781A,123.9483,47.3227,齐齐哈尔市,农牧车辆厂,,22,22,22,3,5,55,,66,64,8,5,8,8,0.2,0.2
2024-08-12T1800,1783A,123.945,47.2988,齐齐哈尔市,市环境监测站,,19,19,15,3,7,56,,65,64,7,6,6,7,0.2,0.1
2024-08-12T1800,3662A,123.6333,47.2075,齐齐哈尔市,富区青少年活动中心,,,19,10,6,6,56,,62,61,6,5,4,4,,0.4
2024-08-12T1800,2591A,107.9783,26.5747,黔东南苗族侗族自治州,市环境监测站,,47,47,27,19,12,96,,81,81,11,14,4,4,0.4,0.5
2024-08-12T1800,2881A,107.8908,26.5311,黔东南苗族侗族自治州,凯里学院,颗粒物(PM10),59,68,33,18,11,99,,85,85,6,9,4,5,0.2,0.3
2024-08-12T1800,2593A,107.5228,26.2403,黔南布依族苗族自治州,小围寨,颗粒物(PM10),57,63,31,19,9,98,,86,86,4,7,4,4,0.4,0.4
2024-08-12T1800,3538A,107.5175,26.2978,黔南布依族苗族自治州,沙坝,,,78,36,19,10,105,,88,88,3,7,,4,0.5,0.4
2024-08-12T1800,2589A,104.9022,25.0925,黔西南布依族苗族自治州,场坝街,颗粒物(PM10),53,55,66,15,27,96,,93,93,6,18,8,27,0.2,0.2
2024-08-12T1800,2590A,104.8811,25.0992,黔西南布依族苗族自治州,坪东大道,颗粒物(PM10),51,52,79,19,28,97,,101,101,4,18,6,10,0.2,0.3
2024-08-12T1800,2502A,108.6236,21.9667,钦州市,市环保站,,24,24,14,7,5,52,,69,67,10,11,6,7,0.5,0.6
2024-08-12T1800,2503A,108.6549,21.9481,钦州市,沙埠小学,,23,23,19,10,10,50,,65,65,11,12,5,6,0.5,0.6
2024-08-12T1800,2504A,108.5989,21.7431,钦州市,港区一小,颗粒物(PM10),60,70,28,15,12,49,,55,55,23,18,8,8,0.5,0.6
2024-08-12T1800,3404A,108.5959,21.9633,钦州市,北职校,,20,20,18,10,11,55,,68,68,10,12,4,6,0.6,0.6
2024-08-12T1800,1042A,119.5134,39.8207,秦皇岛市,北戴河环保局,颗粒物(PM10),53,56,59,19,21,129,,140,140,8,14,1,2,0.4,0.5
2024-08-12T1800,1043A,119.7493,40.0116,秦皇岛市,第一关,颗粒物(PM10),52,54,61,35,35,115,,139,139,14,27,3,3,0.4,0.4
2024-08-12T1800,1044A,119.5897,39.9499,秦皇岛市,监测站,颗粒物(PM10),57,63,69,32,34,118,,141,140,11,28,3,3,0.5,0.6
2024-08-12T1800,1046A,119.5251,39.9041,秦皇岛市,建设大厦,颗粒物(PM10),51,52,56,16,13,82,,147,125,17,23,8,3,0.3,0.4
2024-08-12T1800,3132A,119.610547,39.943889,秦皇岛市,文明里,颗粒物(PM10),55,59,58,23,24,122,,146,145,4,18,3,2,0.7,0.6
2024-08-12T1800,1307A,120.6659,36.2403,青岛市,仰口,颗粒物(PM10),73,96,126,29,40,141,,188,186,19,9,7,10,0.5,0.5
2024-08-12T1800,1310A,120.4134,36.0658,青岛市,市南区东部子站,臭氧1小时,141,117,139,34,33,281,,230,230,20,19,14,11,1.8,0.7
2024-08-12T1800,1311A,120.3664,36.1032,青岛市,四方区子站,臭氧1小时,123,88,123,34,37,246,,212,212,20,17,20,13,1.7,0.9
2024-08-12T1800,1312A,120.2994,36.054,青岛市,市南区西部子站,臭氧1小时,112,102,144,37,35,223,,202,202,36,22,10,9,1.7,0.9
2024-08-12T1800,1313A,120.4581,36.0858,青岛市,崂山区子站,臭氧1小时,124,107,133,44,38,248,,212,212,14,18,12,10,1.4,0.7
2024-08-12T1800,1314A,120.1983,35.9608,青岛市,黄岛区子站,臭氧1小时,89,68,117,29,37,191,,203,203,18,20,10,10,0.8,0.8
2024-08-12T1800,1315A,120.3999,36.3083,青岛市,城阳区子站,臭氧1小时,72,61,130,15,30,177,,202,202,28,23,10,9,0.8,0.8
2024-08-12T1800,1966A,120.0405,35.8735,青岛市,黄岛区4号,臭氧1小时,100,75,122,29,36,200,,213,213,27,27,10,10,0.8,0.8
2024-08-12T1800,3362A,120.5014,36.4034,青岛市,即墨2号,颗粒物(PM10),66,81,143,25,39,161,,184,184,24,16,8,8,0.6,0.6
2024-08-12T1800,3642A,120.3503,36.0736,青岛市,市北区南部,臭氧1小时,133,93,128,44,39,265,,238,238,20,18,15,10,1.9,0.9
2024-08-12T1800,3643A,120.3948,36.1805,青岛市,李沧区北部,臭氧1小时,108,66,128,29,39,216,,205,205,13,20,12,10,0.9,0.5
2024-08-12T1800,1702A,113.0426,23.691,清远市,环保大楼,,28,21,28,17,14,87,,86,86,8,16,5,9,0.5,0.5
2024-08-12T1800,1703A,113.0208,23.7106,清远市,凤城街办,,30,25,30,21,12,89,,74,74,7,16,4,4,0.5,0.6
2024-08-12T1800,3025A,113.0477,23.6344,清远市,技师学院,,32,31,27,16,12,101,,101,101,9,18,5,12,0.9,1
2024-08-12T1800,3318A,112.9903,23.7403,清远市,清新太和,,48,48,30,20,13,86,,70,70,7,11,4,3,0.6,0.6
2024-08-12T1800,3455A,113.076,23.7198,清远市,清城东城,,32,32,31,20,16,102,,92,92,5,13,6,7,0.6,0.8
2024-08-12T1800,2661A,107.6325,35.7357,庆阳市,庆阳五中,,44,26,30,14,11,138,,143,143,4,12,5,6,0.3,0.3
2024-08-12T1800,2662A,107.6364,35.7067,庆阳市,市环保局,,44,29,28,8,8,140,,147,147,8,14,6,7,0.3,0.3
2024-08-12T1800,1916A,103.7897,25.5035,曲靖市,环境监测站,,47,47,70,3,20,139,,126,126,8,14,5,8,0.4,0.7
2024-08-12T1800,1917A,103.8,25.5364,曲靖市,烟厂办公区,,41,36,72,3,19,129,,118,118,6,14,3,4,0.3,0.7
2024-08-12T1800,3376A,103.7947,25.462,曲靖市,南苑二区,,45,45,69,13,20,140,,131,131,7,14,8,13,0.4,0.7
2024-08-12T1800,3377A,103.7444,25.5261,曲靖市,曲靖师范学院,,44,41,63,12,24,140,,133,133,7,14,7,9,0.2,0.5
2024-08-12T1800,1264A,118.8692,28.9398,衢州市,环保大楼,,41,21,27,14,19,130,,122,122,8,12,6,7,0.4,0.5
2024-08-12T1800,1265A,118.8709,28.9666,衢州市,实验学校,,42,19,28,14,19,132,,122,122,7,8,6,7,0.3,0.3
2024-08-12T1800,1266A,118.8621,28.9808,衢州市,衢州学院,,44,18,27,13,18,138,,127,127,7,11,5,4,0.6,0.7
2024-08-12T1800,1611A,118.5819,24.9117,泉州市,涂山街,,38,32,63,23,39,120,,162,161,10,28,4,7,0.6,0.8
2024-08-12T1800,1612A,118.5972,24.8978,泉州市,津头埔,,37,34,60,19,39,116,,148,147,14,30,3,6,0.7,0.8
2024-08-12T1800,1613A,118.6663,24.9424,泉州市,万安,,37,,53,12,37,118,,154,154,11,22,2,5,0.5,0.7
2024-08-12T1800,1614A,118.6117,24.9604,泉州市,清源山,,,,,,,,,,,,,,,,
2024-08-12T1800,3529A,118.6333,24.9264,泉州市,城华南路,,35,28,59,16,44,112,,144,144,8,19,2,5,0.5,0.7
2024-08-12T1800,2626A,88.8876,29.2718,日喀则市,日喀则监测站,,25,6,5,3,2,80,,92,82,4,4,5,5,0.6,0.5
2024-08-12T1800,3726A,88.8781,29.2426,日喀则市,林业技术推广中心,,27,6,4,3,5,86,,83,82,6,6,7,6,0.6,0.5
2024-08-12T1800,1659A,119.471,35.4209,日照市,监测站,臭氧1小时,92,70,83,29,31,193,,183,183,29,27,10,10,0.8,0.8
2024-08-12T1800,1660A,119.523,35.4216,日照市,市政府广场,臭氧1小时,107,63,91,24,33,214,,207,207,17,23,12,12,0.8,0.8
2024-08-12T1800,1661A,119.5587,35.4044,日照市,港务局,臭氧1小时,112,83,123,30,31,224,,217,217,25,36,14,17,0.9,0.8
2024-08-12T1800,3507A,119.5328,35.4625,日照市,职业技术学院,臭氧1小时,109,58,104,24,36,218,,220,220,18,26,12,14,0.8,0.9
2024-08-12T1800,3604A,119.3266,35.1044,日照市,岚山环保分局,臭氧1小时,95,53,89,20,30,196,,198,198,15,20,11,14,0.7,0.7
2024-08-12T1800,1835A,111.1922,34.7752,三门峡市,市政府,,47,27,34,13,12,150,,139,139,6,28,10,11,0.4,0.5
2024-08-12T1800,1836A,111.1587,34.7942,三门峡市,开发区,,,33,34,13,16,133,,132,132,17,15,10,11,,0.5
2024-08-12T1800,1838A,111.143,34.7955,三门峡市,风景区,,,,,,,,,,,,,,,,
2024-08-12T1800,3039A,111.1911,34.7829,三门峡市,三门峡市第一小学,,46,,35,29,13,146,,135,135,13,25,10,11,0.4,0.5
2024-08-12T1800,3598A,111.1,34.7167,三门峡市,富达温泉假日酒店,,46,28,37,12,19,147,,142,142,7,18,9,11,0.3,0.3
2024-08-12T1800,2324A,117.6211,26.2625,三明市,三钢,,42,38,30,29,21,82,,84,84,20,18,13,12,0.7,1.2
2024-08-12T1800,2325A,117.635,26.2714,三明市,三明二中,,34,34,29,20,14,90,,92,92,18,19,11,9,0.8,1.5
2024-08-12T1800,2326A,117.6028,26.2378,三明市,三元区政府,,45,44,29,31,14,84,,77,77,17,13,9,3,0.5,0.5
2024-08-12T1800,2327A,117.7275,26.3108,三明市,洋溪,,,,,,,,,,,,,,,,
2024-08-12T1800,1876A,109.5078,18.2489,三亚市,河东子站,,22,18,19,11,9,68,,75,75,5,5,2,2,0.3,0.3
2024-08-12T1800,1877A,109.4964,18.2681,三亚市,河西子站,,21,21,19,9,11,65,,75,75,5,6,3,3,0.3,0.3
2024-08-12T1800,3540A,109.7348,18.3443,三亚市,君悦子站,,31,31,22,8,9,62,,74,74,9,11,2,2,0.2,0.3
2024-08-12T1800,2624A,91.7608,29.2313,山南市,山南监测站,,33,7,12,3,5,105,,95,95,4,11,6,7,0.3,0.3
2024-08-12T1800,2625A,91.7706,29.2436,山南市,山南人民医院,,32,,20,8,14,102,,93,93,9,13,7,7,0.3,0.3
2024-08-12T1800,1674A,116.6794,23.3667,汕头市,金平子站,,,,32,3,17,107,,105,105,9,8,5,5,0.9,0.9
2024-08-12T1800,1675A,116.7244,23.3633,汕头市,龙湖子站,,26,,30,18,19,78,,85,85,15,11,5,5,0.4,0.5
2024-08-12T1800,1676A,116.7258,23.2775,汕头市,濠江子站,,,26,32,14,19,82,,73,73,,17,6,5,0.6,0.6
2024-08-12T1800,1677A,116.7519,23.4714,汕头市,澄海子站,,,25,38,15,22,70,,83,83,,19,4,4,0.7,0.8
2024-08-12T1800,1678A,116.6092,23.2539,汕头市,潮阳子站,,36,36,25,8,12,90,,92,92,6,6,5,5,0.6,0.5
2024-08-12T1800,3444A,116.454,23.2684,汕头市,潮南峡山,,26,11,20,3,12,81,,80,80,3,5,4,4,0.4,0.5
2024-08-12T1800,3624A,116.4069,23.2533,汕头市,潮南子站,,37,37,30,12,16,86,,86,86,4,5,4,4,0.6,0.6
2024-08-12T1800,1693A,115.3653,22.775,汕尾市,市环保局,,23,21,19,9,12,73,,73,73,12,14,6,6,0.4,0.4
2024-08-12T1800,1694A,115.3706,22.7898,汕尾市,市政府,,21,11,18,6,10,65,,65,65,8,10,6,6,0.4,0.4
2024-08-12T1800,1695A,115.3622,22.7925,汕尾市,新城中学,,42,42,23,6,7,117,,94,94,7,10,5,6,0.5,0.5
2024-08-12T1800,2645A,109.9154,33.8715,商洛市,监测站,,40,15,43,7,14,128,,126,126,9,11,3,3,0.2,0.3
2024-08-12T1800,3045A,109.9643,33.8471,商洛市,商州区中学,,42,35,43,8,16,133,,131,131,7,13,6,5,0.3,0.5
2024-08-12T1800,2408A,115.6702,34.4285,商丘市,环境监测站,臭氧1小时,54,29,42,12,16,163,,159,159,6,13,5,6,0.5,0.5
2024-08-12T1800,2409A,115.6458,34.4045,商丘市,粮食局,臭氧1小时,63,34,48,13,16,170,,166,166,4,13,7,7,0.7,0.7
2024-08-12T1800,2410A,115.6293,34.3948,商丘市,睢阳区环保局,臭氧1小时,59,46,57,15,20,167,,166,166,7,17,6,7,0.4,0.5
2024-08-12T1800,3171A,115.6071,34.4465,商丘市,梁园区档案局,,,43,50,21,18,178,,164,164,,18,7,7,0.4,0.5
2024-08-12T1800,1141A,121.4,31.238,上海市,普陀,,31,29,46,17,26,79,,142,136,62,23,9,6,0.9,0.6
