timepoint,stationcode,longitude,latitude,area,positionname,primarypollutant,aqi,pm10,pm10_24h,pm2_5,pm2_5_24h,o3,o3_24h,o3_8h,o3_8h_24h,no2,no2_24h,so2,so2_24h,co,co_24h
2022-05-22T12:00:00,1001A,116.3621,39.8784,北京市,万寿西宫,臭氧1小时,110,86,72,43,29,261,220,111,111,20,21,4,2,0.6,0.6
2022-05-22T12:00:00,1002A,116.2202,40.2915,北京市,定陵(对照点),臭氧1小时,97,75,57,26,21,220,197,124,124,19,15,3,2,0.4,0.4
2022-05-22T12:00:00,1003A,116.4174,39.9289,北京市,东四,臭氧1小时,109,87,80,38,30,261,218,125,121,19,20,5,4,0.5,0.5
2022-05-22T12:00:00,1004A,116.4072,39.8863,北京市,天坛,臭氧1小时,107,100,70,38,28,257,213,118,100,24,25,4,2,0.5,0.5
2022-05-22T12:00:00,1005A,116.462,39.9365,北京市,农展馆,臭氧1小时,112,88,75,35,27,262,223,136,112,23,26,6,5,0.6,0.5
2022-05-22T12:00:00,1006A,116.3392,39.9295,北京市,官园,臭氧1小时,112,75,70,36,30,270,223,118,113,18,27,8,6,0.5,0.5
2022-05-22T12:00:00,1007A,116.2878,39.9611,北京市,海淀万柳,臭氧1小时,104,72,57,7,24,248,207,105,105,21,32,4,2,0.4,0.5
2022-05-22T12:00:00,1008A,116.6636,40.135,北京市,顺义新城,,,75,72,34,29,212,164,97,94,4,12,3,2,0.5,0.5
2022-05-22T12:00:00,1009A,116.6275,40.3275,北京市,怀柔镇,臭氧1小时,93,55,55,21,22,217,194,133,133,9,14,2,2,0.4,0.4
2022-05-22T12:00:00,1010A,116.2296,40.217,北京市,昌平镇,臭氧1小时,78,69,66,25,25,227,182,125,112,15,22,2,2,0.4,0.4
2022-05-22T12:00:00,1011A,116.3966,39.9821,北京市,奥体中心,臭氧1小时,103,77,74,32,27,242,205,129,117,15,24,4,3,0.5,0.4
2022-05-22T12:00:00,1012A,116.184,39.9136,北京市,古城,臭氧1小时,116,82,77,31,27,255,231,132,132,16,21,1,2,0.4,0.4
2022-05-22T12:00:00,1015A,117.1444,39.1661,天津市,勤俭道,臭氧1小时,103,69,69,30,24,211,205,135,132,11,13,16,13,1.1,0.8
2022-05-22T12:00:00,1018A,117.202,39.0927,天津市,前进道,臭氧1小时,88,76,66,34,26,191,190,118,118,18,17,15,12,0.9,0.7
2022-05-22T12:00:00,1019A,117.1837,39.2133,天津市,淮河道,臭氧1小时,107,84,73,38,27,226,213,138,134,14,16,20,11,0.7,0.3
2022-05-22T12:00:00,1021A,117.307,39.0877,天津市,跃进路,臭氧1小时,90,65,66,32,26,201,192,124,124,13,16,14,11,0.7,0.6
2022-05-22T12:00:00,1023A,117.707,39.0343,天津市,第四大街,臭氧1小时,65,75,75,33,28,204,172,112,112,20,23,10,10,0.5,0.6
2022-05-22T12:00:00,1024A,117.457,38.8394,天津市,永明路,臭氧1小时,68,48,57,23,25,195,174,113,113,12,17,14,12,0.3,0.4
2022-05-22T12:00:00,1026A,117.764,39.1587,天津市,汉北路,臭氧1小时,89,69,67,31,25,210,191,119,119,20,19,14,13,1.2,1.2
2022-05-22T12:00:00,1027A,117.157,38.9194,天津市,团泊洼(对照点),臭氧1小时,89,56,59,44,36,212,191,123,122,14,18,11,10,0.9,0.9
2022-05-22T12:00:00,1029A,114.4422,38.0444,石家庄市,职工医院,臭氧1小时,105,105,95,29,30,214,210,80,80,34,54,23,16,1.0,0.8
2022-05-22T12:00:00,1030A,114.6063,38.0266,石家庄市,高新区,臭氧1小时,92,107,85,55,34,208,193,73,73,27,39,44,16,1.3,0.6
2022-05-22T12:00:00,1031A,114.4898,38.1328,石家庄市,西北水源,臭氧1小时,103,130,88,42,38,208,205,80,80,32,37,18,12,0.9,0.8
2022-05-22T12:00:00,1032A,114.4586,38.0058,石家庄市,西南高教,臭氧1小时,82,100,92,47,41,206,185,68,68,34,45,25,10,1.4,1
2022-05-22T12:00:00,1033A,114.5331,38.0178,石家庄市,世纪公园,颗粒物(PM10),82,114,99,46,37,204,178,66,66,24,32,25,9,1.4,0.9
2022-05-22T12:00:00,1034A,114.509,38.0457,石家庄市,人民会堂,臭氧1小时,105,117,88,38,39,224,210,90,90,35,43,29,19,1.2,0.8
2022-05-22T12:00:00,1035A,114.3524,37.8911,石家庄市,封龙山(对照点),臭氧1小时,85,63,54,28,27,208,188,175,175,13,8,18,16,1.0,0.8
2022-05-22T12:00:00,1037A,118.131,39.6363,唐山市,雷达站,臭氧1小时,106,100,108,34,27,230,211,125,125,11,13,7,5,0.6,0.5
2022-05-22T12:00:00,1038A,118.1725,39.6334,唐山市,物资局,臭氧1小时,109,99,102,29,28,233,217,114,112,16,24,9,7,0.6,0.5
2022-05-22T12:00:00,1040A,118.1705,39.6506,唐山市,十二中,臭氧1小时,102,82,94,46,35,224,204,111,111,20,24,9,7,0.8,0.6
2022-05-22T12:00:00,1041A,118.1869,39.622,唐山市,小山,臭氧1小时,110,86,93,25,24,241,219,111,106,13,26,9,8,0.6,0.5
2022-05-22T12:00:00,1042A,119.5134,39.8207,秦皇岛市,北戴河环保局,臭氧1小时,79,79,78,27,22,235,183,108,108,14,19,15,14,1.1,1.3
2022-05-22T12:00:00,1043A,119.7493,40.0116,秦皇岛市,第一关,臭氧1小时,55,52,62,17,24,237,164,120,120,8,32,18,18,0.6,0.7
2022-05-22T12:00:00,1044A,119.5897,39.9499,秦皇岛市,监测站,臭氧1小时,73,78,57,19,19,253,178,132,132,24,28,13,11,0.5,0.6
2022-05-22T12:00:00,1046A,119.5251,39.9041,秦皇岛市,建设大厦,臭氧1小时,93,65,58,26,19,240,194,131,131,15,22,12,11,0.8,0.9
2022-05-22T12:00:00,1048A,114.5302,36.6116,邯郸市,东污水处理厂,颗粒物(PM10),55,59,57,38,36,209,144,84,79,13,18,18,11,0.7,0.6
2022-05-22T12:00:00,1049A,114.4918,36.5713,邯郸市,矿院,颗粒物(PM10),60,69,65,37,32,213,148,89,80,7,11,12,9,0.6,0.5
2022-05-22T12:00:00,1050A,114.484,36.6133,邯郸市,丛台公园,"颗粒物(PM10),细颗粒物(PM2.5)",54,58,60,38,29,207,150,89,82,16,19,14,9,0.7,0.6
2022-05-22T12:00:00,1051A,115.493,38.8632,保定市,游泳馆,颗粒物(PM10),64,77,70,25,25,208,163,106,89,18,25,19,17,0.4,0.5
2022-05-22T12:00:00,1053A,115.4713,38.9108,保定市,接待中心,颗粒物(PM10),51,51,66,30,31,216,154,126,94,22,25,11,11,0.8,0.8
2022-05-22T12:00:00,1054A,115.4612,38.8416,保定市,地表水厂,颗粒物(PM10),67,83,82,31,32,205,161,98,86,17,24,15,13,0.7,0.7
2022-05-22T12:00:00,1055A,115.4323,38.8697,保定市,胶片厂,颗粒物(PM10),56,62,63,25,29,216,160,116,87,19,21,15,15,0.8,0.7
2022-05-22T12:00:00,1056A,115.5086,38.8639,保定市,监测站,颗粒物(PM10),75,100,83,37,35,210,161,108,88,18,24,12,12,0.7,0.7
2022-05-22T12:00:00,1057A,114.8883,40.8336,张家口市,人民公园,,50,50,45,3,12,154,154,108,108,15,12,7,5,0.5,0.4
2022-05-22T12:00:00,1059A,114.8687,40.8042,张家口市,五金库,颗粒物(PM10),57,63,51,22,16,155,155,112,112,11,9,5,5,0.3,0.4
2022-05-22T12:00:00,1060A,114.8902,40.762,张家口市,世纪豪园,细颗粒物(PM2.5),52,43,44,36,16,160,160,113,113,12,16,7,6,0.4,0.3
2022-05-22T12:00:00,1061A,114.8916,40.8661,张家口市,北泵房(对照点),,,52,39,8,17,,,,,12,9,,,,
2022-05-22T12:00:00,1062A,117.9531,40.9081,承德市,铁路,颗粒物(PM10),53,56,58,14,23,194,129,65,65,18,34,9,9,0.3,0.4
2022-05-22T12:00:00,1063A,117.9392,40.9763,承德市,中国银行,,48,48,48,18,22,190,140,77,77,11,24,5,4,0.3,0.4
2022-05-22T12:00:00,1064A,117.9503,40.928,承德市,开发区,,47,47,56,15,22,216,148,80,80,14,30,10,10,0.4,0.5
2022-05-22T12:00:00,1065A,117.8051,40.9655,承德市,文化中心,臭氧1小时,77,58,51,30,25,181,181,107,107,8,16,7,9,0.3,0.4
2022-05-22T12:00:00,1066A,117.9268,41.0026,承德市,离宫(对照点),,47,41,42,17,22,177,150,88,88,8,15,8,8,0.3,0.4
2022-05-22T12:00:00,1067A,116.6708,39.5111,廊坊市,药材公司,臭氧1小时,108,88,70,35,28,215,215,116,116,23,24,10,9,0.6,0.6
2022-05-22T12:00:00,1068A,116.7214,39.5589,廊坊市,开发区,臭氧1小时,105,88,69,48,35,209,209,119,119,19,22,11,10,0.5,0.4
2022-05-22T12:00:00,1070A,116.7244,39.5269,廊坊市,北华航天学院,臭氧1小时,99,96,80,42,35,202,199,117,117,21,24,12,10,0.5,0.4
2022-05-22T12:00:00,1071A,116.8842,38.2991,沧州市,沧县城建局,颗粒物(PM10),54,57,62,21,26,186,156,109,108,16,20,12,13,0.6,0.6
2022-05-22T12:00:00,1072A,116.8584,38.3254,沧州市,电视转播站,颗粒物(PM10),52,53,56,17,24,171,145,110,110,15,19,12,11,0.4,0.4
2022-05-22T12:00:00,1073A,116.8709,38.3228,沧州市,市环保局,,,48,59,21,28,194,,105,105,17,26,9,9,0.5,0.6
2022-05-22T12:00:00,1074A,115.6838,37.7541,衡水市,电机北厂,臭氧1小时,68,75,74,23,23,212,174,128,122,10,11,10,10,0.4,0.4
2022-05-22T12:00:00,1075A,115.6303,37.7316,衡水市,市监测站,臭氧1小时,65,69,72,25,23,207,172,116,116,11,14,14,14,0.5,0.5
2022-05-22T12:00:00,1077A,114.4704,37.0886,邢台市,达活泉,颗粒物(PM10),143,235,94,,33,242,156,82,78,40,29,39,17,2.2,1.1
2022-05-22T12:00:00,1078A,114.5062,37.0349,邢台市,邢师高专,,,,78,,38,236,164,68,68,31,32,27,12,1.8,0.9
2022-05-22T12:00:00,1079A,114.5237,37.0851,邢台市,路桥公司,颗粒物(PM10),76,101,82,48,35,224,158,74,63,33,36,31,17,1.8,1
2022-05-22T12:00:00,1081A,112.5139,37.8873,太原市,尖草坪,颗粒物(PM10),84,118,71,56,31,187,138,80,80,48,40,32,9,1.6,0.6
2022-05-22T12:00:00,1083A,112.434,38.0108,太原市,上兰(对照点),,49,49,43,26,27,153,151,108,94,16,16,10,7,0.6,0.6
2022-05-22T12:00:00,1084A,112.469,37.7124,太原市,晋源,颗粒物(PM10),79,108,60,53,28,169,131,67,67,33,47,8,6,1.1,0.8
2022-05-22T12:00:00,1085A,112.5583,37.7394,太原市,小店,颗粒物(PM10),84,118,83,54,35,184,125,56,56,42,72,19,16,1.0,0.8
2022-05-22T12:00:00,1086A,112.5369,37.8692,太原市,桃园,细颗粒物(PM2.5),89,120,71,66,31,193,142,72,72,48,48,34,13,1.7,0.8
2022-05-22T12:00:00,1087A,112.57,37.8195,太原市,坞城,颗粒物(PM10),89,127,85,62,38,188,128,58,58,49,61,26,16,1.4,0.9
2022-05-22T12:00:00,1088A,112.549,37.9854,太原市,南寨,颗粒物(PM10),75,99,86,43,32,167,151,51,51,28,51,21,12,1.1,0.8
2022-05-22T12:00:00,1090A,111.6507,40.7517,呼和浩特市,呼市一监,颗粒物(PM10),58,66,79,24,24,151,109,58,58,25,36,6,6,0.4,0.4
2022-05-22T12:00:00,1091A,111.6572,40.8033,呼和浩特市,小召,颗粒物(PM10),51,51,65,26,27,145,116,66,66,25,46,8,7,0.5,0.5
2022-05-22T12:00:00,1094A,111.7516,40.8369,呼和浩特市,如意水处理厂,,48,48,60,19,19,159,135,74,74,17,39,9,8,0.5,0.5
2022-05-22T12:00:00,1095A,111.7276,40.8062,呼和浩特市,二十九中,颗粒物(PM10),57,63,73,12,18,159,126,73,73,19,40,8,9,0.6,0.6
2022-05-22T12:00:00,1096A,111.5512,40.7866,呼和浩特市,工大金川校区,颗粒物(PM10),57,63,63,25,19,151,122,82,82,26,35,10,7,0.5,0.4
2022-05-22T12:00:00,1097A,111.717,40.7612,呼和浩特市,化肥厂生活区,颗粒物(PM10),57,64,84,14,19,148,116,66,66,21,34,10,12,0.5,0.5
2022-05-22T12:00:00,1098A,123.6836,41.9339,沈阳市,森林路(对照点),,39,14,41,5,39,189,122,106,106,6,13,6,12,0.2,0.6
2022-05-22T12:00:00,1099A,123.505,41.7406,沈阳市,浑南东路,,,,52,8,27,221,146,113,113,6,18,12,22,0.5,0.9
2022-05-22T12:00:00,1100A,123.4231,41.6989,沈阳市,新秀街,,48,35,70,12,30,209,153,108,108,10,28,9,19,0.7,1.1
2022-05-22T12:00:00,1102A,123.5903,41.8411,沈阳市,东陵路,,44,44,63,17,31,207,132,102,102,10,18,11,16,0.4,0.9
2022-05-22T12:00:00,1103A,123.4264,41.8467,沈阳市,陵东街,,43,12,60,6,26,199,136,106,106,12,23,6,13,0.4,0.9
2022-05-22T12:00:00,1104A,123.4114,41.7653,沈阳市,文化路,,46,25,60,11,31,223,146,112,112,6,17,7,16,0.5,0.9
2022-05-22T12:00:00,1105A,123.4678,41.7867,沈阳市,小河沿,,43,18,53,9,27,216,135,102,102,9,22,6,15,0.4,0.8
2022-05-22T12:00:00,1106A,123.4017,41.7972,沈阳市,太原街,,46,24,68,14,30,227,147,111,111,12,26,7,17,0.5,1
2022-05-22T12:00:00,1108A,123.3783,41.9228,沈阳市,京沈街,,45,42,69,5,27,204,142,114,114,7,21,8,14,0.5,0.8
2022-05-22T12:00:00,1109A,121.612,38.9741,大连市,甘井子,颗粒物(PM10),59,67,77,33,46,198,142,139,139,23,24,12,12,0.5,0.6
2022-05-22T12:00:00,1110A,121.565,38.9511,大连市,周水子,颗粒物(PM10),65,80,76,30,35,202,158,129,129,12,16,11,10,1.1,1.1
2022-05-22T12:00:00,1111A,121.5637,38.8845,大连市,星海三站,颗粒物(PM10),57,64,67,34,41,276,149,178,171,24,23,8,10,0.9,0.9
2022-05-22T12:00:00,1112A,121.6302,38.9117,大连市,青泥洼桥,臭氧1小时,72,58,55,22,30,233,177,158,158,23,27,14,12,0.7,0.6
2022-05-22T12:00:00,1113A,121.6251,38.8638,大连市,傅家庄,颗粒物(PM10),56,61,75,23,44,283,128,157,144,16,16,4,9,0.8,0.9
2022-05-22T12:00:00,1114A,121.5213,38.8661,大连市,七贤岭,,,66,56,,,30,,18,18,,,,18,,0.7
2022-05-22T12:00:00,1115A,121.2529,38.8061,大连市,旅顺,臭氧1小时,59,53,52,33,33,229,167,154,118,18,23,14,12,0.8,0.8
2022-05-22T12:00:00,1116A,121.7485,39.1311,大连市,金州,颗粒物(PM10),59,68,84,29,39,169,106,87,87,24,22,12,11,0.7,0.8
2022-05-22T12:00:00,1117A,121.7811,39.0496,大连市,开发区,颗粒物(PM10),57,64,78,27,49,223,124,134,126,29,36,10,12,0.9,1.2
2022-05-22T12:00:00,1118A,121.9762,39.0631,大连市,双D港,,48,34,56,33,43,159,129,159,118,14,18,7,8,0.8,0.9
2022-05-22T12:00:00,1119A,125.3325,43.9166,长春市,食品厂,,32,13,32,12,8,116,102,90,68,9,21,5,6,0.3,0.4
2022-05-22T12:00:00,1120A,125.2863,43.9027,长春市,客车厂,颗粒物(PM10),51,51,38,9,12,118,91,87,60,24,21,6,6,0.5,0.5
2022-05-22T12:00:00,1121A,125.2841,43.8463,长春市,邮电学院,,33,14,33,9,10,124,103,67,67,6,14,1,2,0.3,0.4
2022-05-22T12:00:00,1122A,125.3716,43.8772,长春市,劳动公园,,32,23,37,5,9,123,101,76,68,9,16,2,3,0.4,0.4
2022-05-22T12:00:00,1123A,125.3297,43.8805,长春市,园林处,,33,15,21,5,7,126,104,92,74,4,11,5,5,0.3,0.4
2022-05-22T12:00:00,1124A,125.4605,43.79,长春市,净月潭,,32,11,21,4,5,127,100,62,62,2,5,6,6,0.4,0.4
2022-05-22T12:00:00,1125A,125.7194,43.515,长春市,甩湾子(对照点),,32,8,22,1,4,152,102,71,71,4,10,8,8,0.4,0.4
2022-05-22T12:00:00,1126A,125.3863,43.8447,长春市,经开区环卫处,,,15,20,10,9,132,104,67,65,,14,7,8,0.5,0.5
2022-05-22T12:00:00,1127A,125.245,43.7783,长春市,高新区管委会,,35,15,22,9,10,130,112,90,73,9,15,5,5,0.3,0.3
2022-05-22T12:00:00,1128A,125.1761,43.8325,长春市,岱山公园,,30,21,51,7,12,118,96,73,62,10,19,5,6,0.3,0.4
2022-05-22T12:00:00,1129A,126.5422,45.755,哈尔滨市,岭北(对照点),,31,13,18,7,10,106,97,62,62,9,19,12,11,0.2,0.3
2022-05-22T12:00:00,1130A,126.561,45.8167,哈尔滨市,松北商大,,33,16,14,3,4,104,104,58,58,2,19,4,4,0.4,0.5
2022-05-22T12:00:00,1131A,126.979,45.5419,哈尔滨市,阿城会宁,,30,15,29,5,9,107,96,58,58,6,24,10,10,0.5,0.7
2022-05-22T12:00:00,1132A,126.599,45.7222,哈尔滨市,南岗学府路,,32,11,13,2,4,114,100,76,76,3,13,6,6,0.6,0.6
2022-05-22T12:00:00,1133A,126.689,45.7733,哈尔滨市,太平宏伟公园,,30,28,31,6,11,112,96,70,70,10,22,11,14,0.4,0.5
2022-05-22T12:00:00,1134A,126.635,45.7667,哈尔滨市,道外承德广场,,30,29,29,9,10,114,95,72,72,14,21,7,7,0.3,0.3
2022-05-22T12:00:00,1135A,126.685,45.7319,哈尔滨市,香坊红旗大街,,29,20,28,11,14,109,90,69,69,8,16,10,9,0.5,0.5
2022-05-22T12:00:00,1136A,126.6411,45.7258,哈尔滨市,动力和平路,,30,24,20,5,7,111,95,74,74,1,9,10,9,0.3,0.3
2022-05-22T12:00:00,1137A,126.593,45.7478,哈尔滨市,道里建国路,,28,16,20,9,12,96,88,68,67,11,17,14,16,0.3,0.4
2022-05-22T12:00:00,1138A,126.615,45.61,哈尔滨市,平房东轻厂,,30,30,31,12,12,104,92,54,54,11,34,13,8,0.6,0.7
2022-05-22T12:00:00,1139A,126.595,45.9855,哈尔滨市,呼兰师专,,30,16,22,4,15,104,95,69,69,8,15,9,9,0.4,0.5
2022-05-22T12:00:00,1140A,126.6206,45.6842,哈尔滨市,省农科院,,32,14,14,10,8,115,101,77,77,6,14,5,8,0.6,0.7
2022-05-22T12:00:00,1141A,121.4,31.238,上海市,普陀,,45,17,25,9,14,146,142,107,107,13,15,4,8,0.9,0.9
2022-05-22T12:00:00,1142A,121.478,31.2036,上海市,十五厂,,42,19,20,12,18,133,133,100,100,10,13,6,5,1.0,1.1
2022-05-22T12:00:00,1143A,121.467,31.3008,上海市,虹口,,40,17,18,11,16,127,127,94,94,5,10,5,5,1.2,1.2
2022-05-22T12:00:00,1144A,121.412,31.1654,上海市,徐汇上师大,,43,21,25,14,12,135,135,96,96,6,8,18,13,1.1,1.2
2022-05-22T12:00:00,1145A,121.536,31.2659,上海市,杨浦四漂,,43,19,15,11,16,136,136,100,100,3,7,7,7,0.1,0.2
2022-05-22T12:00:00,1147A,121.425,31.2261,上海市,静安监测站,,42,16,23,16,18,136,133,99,99,12,18,5,6,0,0
2022-05-22T12:00:00,1148A,121.703,31.1907,上海市,浦东川沙,,42,32,31,17,20,134,134,97,91,11,15,5,4,1.1,1.1
2022-05-22T12:00:00,1149A,121.533,31.2284,上海市,浦东新区监测站,,41,26,24,15,18,131,131,100,100,5,11,6,5,0.7,0.7
2022-05-22T12:00:00,1150A,121.577,31.2071,上海市,浦东张江,,37,18,16,22,20,116,116,87,87,11,12,4,4,0.6,0.7
2022-05-22T12:00:00,1151A,118.8086,32.1065,南京市,迈皋桥,,46,45,63,9,30,225,147,117,107,17,36,3,7,0.5,0.7
2022-05-22T12:00:00,1152A,118.7538,32.0551,南京市,草场门,,48,29,57,17,34,245,153,147,112,13,32,3,5,0.5,0.4
2022-05-22T12:00:00,1153A,118.7794,32.0745,南京市,山西路,臭氧1小时,52,36,67,14,37,248,161,135,135,2,23,4,5,0.0,0.3
2022-05-22T12:00:00,1154A,118.7752,32.0023,南京市,中华门,,48,29,68,9,31,230,153,136,114,1,22,5,4,0.4,0.6
2022-05-22T12:00:00,1155A,118.8109,32.0309,南京市,瑞金路,,47,38,73,9,38,223,148,107,107,7,26,5,5,0.4,0.6
2022-05-22T12:00:00,1156A,118.7997,32.0754,南京市,玄武湖,,48,20,48,17,36,231,151,129,120,8,24,4,4,0.4,0.7
2022-05-22T12:00:00,1157A,118.6414,32.0931,南京市,浦口,臭氧1小时,62,39,61,14,33,247,169,124,122,11,25,5,6,0.2,0.4
2022-05-22T12:00:00,1158A,118.7356,31.9996,南京市,奥体中心,,45,31,62,9,35,225,143,113,113,7,28,2,5,0.5,0.8
2022-05-22T12:00:00,1159A,118.9125,32.1028,南京市,仙林大学城,,50,36,62,22,38,254,157,135,118,2,18,6,9,0.5,0.8
2022-05-22T12:00:00,1160A,120.561,31.2472,苏州市,上方山(对照点),,48,24,25,20,21,169,153,86,86,15,23,8,6,0.4,0.4
2022-05-22T12:00:00,1162A,120.591,31.3019,苏州市,彩香,,50,38,28,13,23,189,160,98,98,8,14,8,7,0.3,0.3
2022-05-22T12:00:00,1163A,120.596,31.3264,苏州市,轧钢厂,,50,20,30,13,16,193,160,100,100,14,17,8,7,0.4,0.5
2022-05-22T12:00:00,1164A,120.613,31.2703,苏州市,吴中区,臭氧1小时,57,33,33,12,26,184,165,98,98,12,18,8,7,0.4,0.5
2022-05-22T12:00:00,1165A,120.543,31.2994,苏州市,苏州新区,臭氧1小时,58,23,26,10,28,189,166,98,98,11,17,7,6,0.5,0.5
2022-05-22T12:00:00,1166A,120.669,31.3097,苏州市,苏州工业园区,,48,15,25,22,17,176,152,97,97,10,12,6,6,0.5,0.5
2022-05-22T12:00:00,1167A,120.641,31.3708,苏州市,相城区,,46,26,29,14,19,173,147,90,90,7,15,7,6,0.4,0.5
2022-05-22T12:00:00,1168A,120.9098,31.9663,南通市,狼山街道,,50,24,36,14,13,175,158,92,92,18,25,13,11,0.6,0.6
2022-05-22T12:00:00,1169A,120.86,32.0005,南通市,虹桥,臭氧1小时,52,39,33,13,25,199,161,93,93,29,33,10,7,0.4,0.5
2022-05-22T12:00:00,1170A,120.87,32.02,南通市,城中,,47,32,30,14,23,180,148,88,88,34,32,12,8,0.3,0.4
2022-05-22T12:00:00,1171A,120.94,31.93,南通市,星湖花园,,47,39,30,14,16,152,150,93,93,11,28,10,10,0.5,0.6
2022-05-22T12:00:00,1172A,120.81,32.0417,南通市,紫琅学院,臭氧1小时,57,25,33,19,17,165,165,83,83,25,44,10,8,0.3,0.5
2022-05-22T12:00:00,1173A,119.176,34.5885,连云港市,市环境监测站,臭氧1小时,99,68,78,34,41,224,199,135,135,9,15,10,11,0.3,0.3
2022-05-22T12:00:00,1177A,117.179,34.2761,徐州市,黄河新村,臭氧1小时,102,66,75,30,37,203,203,110,110,11,28,9,9,0.5,0.6
2022-05-22T12:00:00,1178A,117.1918,34.2384,徐州市,淮塔,臭氧1小时,99,53,73,27,40,200,199,123,100,8,25,11,12,0.6,0.7
2022-05-22T12:00:00,1180A,117.256,34.2153,徐州市,新城区,臭氧1小时,100,63,86,34,42,201,200,101,101,9,46,10,11,0.6,0.8
2022-05-22T12:00:00,1181A,117.244,34.2911,徐州市,桃园路,臭氧1小时,107,73,81,32,36,213,213,118,118,12,33,13,13,0.7,0.9
2022-05-22T12:00:00,1182A,117.2933,34.2778,徐州市,农科院,臭氧1小时,102,66,75,29,29,203,203,127,127,15,30,8,11,0.6,0.7
2022-05-22T12:00:00,1186A,119.389,32.3761,扬州市,邗江监测站,臭氧1小时,100,56,76,25,37,239,200,134,105,10,24,10,10,0.9,0.8
2022-05-22T12:00:00,1188A,120.269,31.4867,无锡市,雪浪,臭氧1小时,53,41,39,12,20,236,162,102,102,8,11,9,10,0.5,0.6
2022-05-22T12:00:00,1189A,120.275,31.6219,无锡市,黄巷,,50,39,40,9,22,219,159,94,94,14,26,7,8,0.2,0.5
2022-05-22T12:00:00,1190A,120.294,31.56,无锡市,曹张,,49,38,35,7,17,213,156,96,96,11,21,8,7,0.6,0.8
2022-05-22T12:00:00,1191A,120.242,31.5031,无锡市,漆塘,臭氧1小时,57,29,35,18,23,199,165,107,107,14,16,6,6,0.3,0.5
2022-05-22T12:00:00,1192A,120.3489,31.5863,无锡市,东亭,,47,34,42,14,24,206,150,80,80,8,20,8,10,0.5,0.7
2022-05-22T12:00:00,1193A,120.354,31.5475,无锡市,旺庄,,48,31,41,7,23,205,152,87,87,7,26,5,8,0.6,0.7
2022-05-22T12:00:00,1194A,120.245,31.5631,无锡市,荣巷,臭氧1小时,58,36,36,17,25,209,166,103,103,11,14,10,10,0.3,0.4
2022-05-22T12:00:00,1195A,120.299,31.6817,无锡市,堰桥,,49,39,50,17,26,196,155,88,88,12,32,7,8,0.4,0.7
2022-05-22T12:00:00,1196A,119.9633,31.762,常州市,市监测站,臭氧1小时,52,18,45,12,23,227,161,95,95,13,22,8,8,0.5,0.6
2022-05-22T12:00:00,1200A,119.9468,31.7069,常州市,武进监测站,,,14,45,11,35,248,162,100,97,,17,9,12,0.6,0.8
2022-05-22T12:00:00,1201A,119.9255,31.9087,常州市,安家,臭氧1小时,78,22,47,14,36,238,182,103,101,20,25,6,8,0.5,0.8
2022-05-22T12:00:00,1203A,119.6707,32.1875,镇江市,新区办事处,,50,24,49,12,35,228,159,131,110,18,25,5,8,0.4,0.8
2022-05-22T12:00:00,1204A,119.4974,32.1968,镇江市,职教中心,臭氧1小时,72,27,56,16,42,259,177,117,107,19,24,5,9,0.5,0.7
2022-05-22T12:00:00,1205A,119.4303,32.1328,镇江市,丹徒区监测站,,,24,55,14,51,273,,126,82,13,21,7,8,0.5,0.7
2022-05-22T12:00:00,1206A,119.905,32.4878,泰州市,公园路,,,41,50,19,32,186,148,96,96,,18,7,8,0.5,0.8
2022-05-22T12:00:00,1207A,119.9189,32.4625,泰州市,莲花,,46,34,54,14,36,185,146,100,100,8,18,8,10,0.6,0.8
2022-05-22T12:00:00,1209A,119.888,32.4639,泰州市,留学生创业园,,48,24,53,13,31,196,153,113,106,9,20,7,9,0.5,0.9
2022-05-22T12:00:00,1210A,119.036,33.5981,淮安市,钵池山,臭氧1小时,111,80,72,32,46,222,222,168,164,11,18,12,12,0.8,0.9
2022-05-22T12:00:00,1211A,119.007,33.575,淮安市,北京南路,臭氧1小时,105,78,87,36,52,210,210,154,148,14,25,14,13,0.7,0.7
2022-05-22T12:00:00,1212A,118.989,33.6067,淮安市,市监测站,臭氧1小时,106,90,88,36,48,212,212,156,144,14,27,16,18,0.7,0.9
2022-05-22T12:00:00,1213A,119.135,33.5039,淮安市,楚州区监测站,臭氧1小时,105,78,82,30,52,214,209,151,151,14,28,13,11,0.7,0.8
2022-05-22T12:00:00,1214A,119.0186,33.6297,淮安市,淮阴区监测站,臭氧1小时,101,69,74,33,53,202,202,148,138,14,22,15,13,1.1,1.1
2022-05-22T12:00:00,1215A,120.118,33.4022,盐城市,盐城电厂,臭氧1小时,90,66,63,42,38,192,192,112,112,14,18,15,15,0.7,0.7
2022-05-22T12:00:00,1216A,120.156,33.3942,盐城市,市监测站,臭氧1小时,104,60,53,35,30,207,207,118,118,14,18,8,8,0.2,0.2
2022-05-22T12:00:00,1218A,120.2144,33.38,盐城市,开发区管委会,臭氧1小时,101,53,50,24,25,202,202,111,111,11,18,14,12,0.4,0.4
2022-05-22T12:00:00,1220A,118.293,33.9528,宿迁市,宿迁学院,臭氧1小时,99,73,71,47,41,207,199,136,114,15,27,7,7,0.4,0.5
2022-05-22T12:00:00,1221A,118.2442,33.9592,宿迁市,宿迁中学,臭氧1小时,92,48,75,33,34,205,193,132,132,5,19,8,9,0.5,0.5
2022-05-22T12:00:00,1223A,120.2072,30.2111,杭州市,滨江,颗粒物(PM10),60,70,56,37,28,188,163,61,61,25,44,5,5,0.6,0.6
2022-05-22T12:00:00,1224A,120.0633,30.2747,杭州市,西溪,,42,30,41,16,24,183,133,55,55,10,26,10,9,0.7,0.8
2022-05-22T12:00:00,1226A,120.3461,30.3153,杭州市,下沙,,,,60,,33,162,,55,55,,45,,8,,0.5
2022-05-22T12:00:00,1227A,120.1269,30.2456,杭州市,卧龙桥,,48,40,41,23,26,187,152,61,61,18,24,6,5,0.5,0.6
2022-05-22T12:00:00,1228A,120.1903,30.2692,杭州市,浙江农大,臭氧1小时,72,47,51,50,41,188,177,69,69,20,39,7,6,0.5,0.5
2022-05-22T12:00:00,1230A,120.1197,30.3119,杭州市,和睦小学,臭氧1小时,62,62,57,37,31,191,169,64,64,22,45,5,4,0.6,0.7
2022-05-22T12:00:00,1231A,120.3019,30.4183,杭州市,临平镇,臭氧1小时,72,62,59,35,31,178,177,91,91,20,26,5,4,0.6,0.6
2022-05-22T12:00:00,1232A,120.2697,30.1819,杭州市,城厢镇,颗粒物(PM10),55,60,53,36,31,177,162,66,66,22,41,7,7,0.5,0.6
2022-05-22T12:00:00,1233A,120.0883,30.1808,杭州市,云栖,,,33,44,15,22,189,153,71,71,13,27,8,8,,0.4
2022-05-22T12:00:00,1234A,121.8358,29.911,宁波市,区环保大楼,,35,20,24,14,15,124,111,78,75,10,22,10,7,0.3,0.4
2022-05-22T12:00:00,1235A,121.56,29.82,宁波市,万里学院,,38,14,20,8,12,155,120,84,84,5,13,9,8,0.3,0.4
2022-05-22T12:00:00,1236A,121.713,29.9572,宁波市,龙赛医院,,39,24,24,13,13,144,124,82,82,11,28,6,7,0.3,0.4
2022-05-22T12:00:00,1239A,121.633,29.7733,宁波市,钱湖水厂,,36,14,14,11,9,135,113,84,84,4,7,7,7,0.4,0.5
2022-05-22T12:00:00,1240A,121.5856,29.8635,宁波市,太古小学,,34,10,15,11,12,139,108,76,76,7,16,7,6,0.3,0.4
2022-05-22T12:00:00,1241A,121.524,29.8674,宁波市,市环境监测中心,,36,17,22,6,9,150,115,79,79,8,15,8,9,0.4,0.4
2022-05-22T12:00:00,1242A,120.634,28.0089,温州市,瓯海,,40,23,40,12,24,126,126,86,86,14,30,6,5,0.3,0.4
2022-05-22T12:00:00,1243A,120.6748,27.9939,温州市,南浦,,40,26,43,13,22,126,126,90,90,16,26,7,6,0.3,0.4
2022-05-22T12:00:00,1244A,120.76,27.9747,温州市,龙湾,,35,28,42,9,16,112,112,84,84,21,34,6,6,0.4,0.4
2022-05-22T12:00:00,1245A,120.6709,28.0167,温州市,市站,,39,20,46,6,22,123,123,84,84,9,25,5,5,0.3,0.4
2022-05-22T12:00:00,1247A,120.6053,29.9928,绍兴市,城东开发委,,38,24,28,4,16,161,121,72,72,4,16,5,6,0.4,0.5
2022-05-22T12:00:00,1250A,120.0751,30.8669,湖州市,城西水厂,臭氧1小时,60,52,39,26,23,169,168,79,79,17,20,7,7,0.4,0.4
2022-05-22T12:00:00,1252A,120.7436,30.778,嘉兴市,清河小学,,41,14,24,10,17,161,131,81,81,6,17,8,8,0.5,0.5
2022-05-22T12:00:00,1253A,120.726,30.7478,嘉兴市,嘉兴学院,,42,18,28,12,20,158,132,85,78,11,22,8,7,0.2,0.3
2022-05-22T12:00:00,1255A,121.273,28.6459,台州市,黄岩环保大楼,,42,37,35,16,13,134,134,68,68,12,18,6,6,0.4,0.4
2022-05-22T12:00:00,1256A,121.419,28.6542,台州市,台州环保大楼,,42,36,34,19,16,133,133,88,76,10,13,5,5,0.3,0.3
2022-05-22T12:00:00,1257A,121.377,28.5773,台州市,路桥田洋王,,43,34,30,24,17,135,135,81,72,12,14,7,6,0.2,0.2
2022-05-22T12:00:00,1258A,122.122,30.0203,舟山市,定海檀枫,,34,20,21,9,12,113,108,71,71,9,8,4,2,0.2,0.2
2022-05-22T12:00:00,1259A,122.3094,29.9558,舟山市,普陀东港,,34,16,20,6,13,128,106,74,74,5,8,4,4,0.3,0.3
2022-05-22T12:00:00,1260A,122.19,29.9944,舟山市,临城新区,,32,12,17,8,9,110,101,66,66,10,7,5,4,0.3,0.4
2022-05-22T12:00:00,1262A,119.647,29.077,金华市,十五中,,39,33,53,21,32,133,124,51,51,12,30,6,7,0.5,0.6
2022-05-22T12:00:00,1263A,119.686,29.1029,金华市,监测站,,39,31,51,19,28,136,123,53,53,9,34,5,9,0.5,0.6
2022-05-22T12:00:00,1264A,118.8692,28.9398,衢州市,环保大楼,,48,48,78,32,50,135,130,58,58,16,27,7,9,0.7,0.8
2022-05-22T12:00:00,1265A,118.8709,28.9666,衢州市,实验学校,,45,45,63,31,46,144,134,66,66,10,20,5,5,0.6,0.6
2022-05-22T12:00:00,1266A,118.8621,28.9808,衢州市,衢州学院,,44,44,60,27,38,143,133,75,75,12,25,10,9,0.5,0.6
2022-05-22T12:00:00,1267A,119.914,28.4514,丽水市,监测站大楼,,25,23,40,12,22,91,79,41,41,6,19,5,5,0.4,0.5
2022-05-22T12:00:00,1268A,119.93,28.4586,丽水市,莲都小学,,35,35,45,15,19,101,86,48,48,6,18,6,6,0.2,0.3
2022-05-22T12:00:00,1269A,119.879,28.4231,丽水市,余庄前,,,15,35,7,23,98,82,39,39,6,13,,5,0.3,0.4
2022-05-22T12:00:00,1270A,117.1959,31.7848,合肥市,明珠广场,,49,46,78,27,38,178,156,89,89,20,49,9,8,0.5,0.6
2022-05-22T12:00:00,1271A,117.3072,31.8764,合肥市,三里街,,,56,81,24,39,164,144,89,89,17,41,12,11,,0.5
2022-05-22T12:00:00,1272A,117.2588,31.8707,合肥市,琥珀山庄,颗粒物(PM10),52,54,66,19,33,181,160,109,109,12,27,11,9,0.5,0.7
2022-05-22T12:00:00,1273A,117.1604,31.9052,合肥市,董铺水库(对照点),,,150,75,22,27,178,,62,62,25,33,9,8,0.3,0.5
2022-05-22T12:00:00,1274A,117.25,31.8571,合肥市,长江中路,颗粒物(PM10),60,70,78,29,42,182,163,115,115,22,40,12,11,0.5,0.6
2022-05-22T12:00:00,1275A,117.266,31.9436,合肥市,庐阳区,颗粒物(PM10),52,54,83,31,46,160,154,103,87,14,48,10,11,0.4,0.6
2022-05-22T12:00:00,1276A,117.336,31.8586,合肥市,瑶海区,,50,48,92,26,44,181,159,94,94,14,55,11,10,0.4,0.5
2022-05-22T12:00:00,1277A,117.3027,31.7964,合肥市,包河区,颗粒物(PM10),59,68,87,31,44,192,164,81,81,25,71,12,11,0.2,0.3
2022-05-22T12:00:00,1278A,117.2776,31.7385,合肥市,滨湖新区,,,68,71,34,38,203,,145,99,12,26,12,10,0.1,0.2
2022-05-22T12:00:00,1279A,117.1318,31.8403,合肥市,高新区,臭氧1小时,58,53,74,27,39,196,166,110,110,15,34,12,12,0.6,0.6
2022-05-22T12:00:00,1280A,119.3903,26.0543,福州市,鼓山(对照点),,,28,18,16,16,108,48,99,63,28,11,,7,0.3,0.2
2022-05-22T12:00:00,1282A,119.2681,26.0504,福州市,师大,,24,24,29,11,20,87,65,34,34,16,20,4,2,0.5,0.3
2022-05-22T12:00:00,1283A,119.2984,26.1028,福州市,五四北路,,,26,26,14,22,81,59,50,50,,20,,2,0.7,0.4
2022-05-22T12:00:00,1284A,119.2648,26.0768,福州市,杨桥西路,,26,26,30,16,20,81,59,35,35,19,23,4,3,0.7,0.5
2022-05-22T12:00:00,1285A,119.317,26.0746,福州市,紫阳,,29,29,29,12,20,80,74,65,65,11,20,6,5,0.8,0.6
2022-05-22T12:00:00,1286A,118.1608,24.8169,厦门市,溪东(对照点),,26,6,19,8,16,94,83,92,90,3,5,1,2,0.4,0.4
2022-05-22T12:00:00,1287A,118.1514,24.4767,厦门市,洪文,,24,22,46,9,20,92,76,71,71,27,29,8,5,0.5,0.5
2022-05-22T12:00:00,1288A,118.0661,24.4444,厦门市,鼓浪屿,,,,32,,24,97,71,71,71,,17,,2,0.4,0.5
2022-05-22T12:00:00,1290A,115.8931,28.6843,南昌市,省外办,颗粒物(PM10),51,52,48,32,26,117,98,34,34,17,34,12,5,1.0,1
2022-05-22T12:00:00,1291A,115.8886,28.7003,南昌市,省林业公司,颗粒物(PM10),62,74,57,28,19,122,62,22,22,60,53,10,6,1.3,1
2022-05-22T12:00:00,1292A,115.8126,28.7442,南昌市,林科所,细颗粒物(PM2.5),53,53,34,37,23,126,89,46,46,29,32,9,7,1.0,0.9
2022-05-22T12:00:00,1294A,115.8518,28.687,南昌市,建工学校,颗粒物(PM10),55,59,52,33,27,125,99,39,39,28,43,13,10,0.7,0.7
2022-05-22T12:00:00,1295A,115.8921,28.6424,南昌市,象湖,,48,48,52,22,21,119,103,40,40,14,40,9,4,0.7,0.9
2022-05-22T12:00:00,1296A,115.7423,28.7996,南昌市,武术学校(对照点),,48,48,30,26,15,128,104,44,44,18,8,16,12,0.7,0.6
2022-05-22T12:00:00,1298A,115.9314,28.6842,南昌市,省站,颗粒物(PM10),61,72,72,36,30,116,86,35,35,35,49,17,9,1.0,0.9
2022-05-22T12:00:00,1299A,116.9862,36.6114,济南市,科干所,臭氧1小时,88,56,55,24,22,210,190,173,158,16,15,13,13,0.4,0.4
2022-05-22T12:00:00,1300A,116.9376,36.665,济南市,农科所,"颗粒物(PM10),臭氧1小时",62,73,64,17,19,170,169,133,131,12,20,10,11,0.3,0.3
2022-05-22T12:00:00,1301A,117.1265,36.6734,济南市,开发区,臭氧1小时,75,44,50,22,24,207,180,170,153,11,13,10,11,0.3,0.3
2022-05-22T12:00:00,1303A,117.0624,36.6868,济南市,省种子仓库,臭氧1小时,64,61,60,24,25,192,171,162,144,5,8,11,12,0.4,0.4
2022-05-22T12:00:00,1304A,116.9489,36.6447,济南市,机床二厂,颗粒物(PM10),80,110,77,15,21,184,171,138,138,8,11,8,8,0.3,0.3
2022-05-22T12:00:00,1305A,117.0495,36.663,济南市,市监测站,臭氧1小时,70,66,58,17,18,201,176,171,149,8,11,8,9,0.4,0.4
2022-05-22T12:00:00,1306A,116.7675,36.5484,济南市,长清党校,臭氧1小时,75,63,58,27,23,186,180,148,145,10,15,14,15,0.6,0.6
2022-05-22T12:00:00,1307A,120.6659,36.2403,青岛市,仰口(对照点),细颗粒物(PM2.5),70,75,66,51,38,183,130,152,121,22,13,7,9,0.8,0.7
2022-05-22T12:00:00,1310A,120.4134,36.0658,青岛市,市南区东部子站,颗粒物(PM10),70,90,57,46,28,161,161,91,86,32,20,13,7,0.6,0.4
2022-05-22T12:00:00,1311A,120.3664,36.1032,青岛市,四方区子站,臭氧1小时,102,70,66,34,38,203,203,113,104,28,27,13,10,0.8,0.9
2022-05-22T12:00:00,1312A,120.2994,36.054,青岛市,市南区西部子站,颗粒物(PM10),75,100,50,42,25,155,131,115,83,94,31,15,9,0.8,0.6
2022-05-22T12:00:00,1313A,120.4581,36.0858,青岛市,崂山区子站,颗粒物(PM10),85,119,49,48,28,148,144,115,89,45,23,15,9,0.8,0.5
2022-05-22T12:00:00,1314A,120.1983,35.9608,青岛市,黄岛区子站,颗粒物(PM10),74,97,61,51,41,201,152,128,128,48,25,18,8,0.8,0.5
2022-05-22T12:00:00,1315A,120.3999,36.3083,青岛市,城阳区子站,臭氧1小时,88,77,83,42,37,203,190,130,112,19,28,9,9,0.6,0.8
2022-05-22T12:00:00,1316A,113.69031,34.76122,郑州市,烟厂,颗粒物(PM10),59,67,50,22,26,193,153,120,120,8,18,8,9,0.5,0.5
2022-05-22T12:00:00,1317A,113.65724,34.77134,郑州市,郑纺机,颗粒物(PM10),58,65,54,25,22,181,150,114,114,8,15,10,10,0.6,0.6
2022-05-22T12:00:00,1318A,113.67526,34.80246,郑州市,银行学校,臭氧1小时,59,55,45,25,22,198,167,127,127,11,16,9,8,0.5,0.5
2022-05-22T12:00:00,1319A,113.56746,34.81334,郑州市,供水公司,颗粒物(PM10),54,58,57,27,25,177,152,115,115,16,20,9,8,0.5,0.5
2022-05-22T12:00:00,1320A,113.7329,34.7178,郑州市,经开区管委,,49,49,58,20,29,181,147,101,101,12,22,7,7,0.5,0.6
2022-05-22T12:00:00,1321A,113.73961,34.77172,郑州市,四十七中,臭氧1小时,52,41,51,20,28,196,161,118,118,6,18,9,9,0.5,0.5
2022-05-22T12:00:00,1322A,113.60532,34.74838,郑州市,市监测站,颗粒物(PM10),54,57,62,19,23,176,144,110,110,12,18,10,10,0.5,0.6
2022-05-22T12:00:00,1323A,113.64164,34.7525,郑州市,河医大,颗粒物(PM10),53,56,55,26,23,184,152,118,118,6,13,7,7,0.5,0.5
2022-05-22T12:00:00,1324A,113.51488,34.91089,郑州市,岗李水库(对照点),颗粒物(PM10),65,80,62,29,24,179,166,83,83,15,21,13,8,0.5,0.5
2022-05-22T12:00:00,1325A,114.3677,30.5584,武汉市,东湖梨园,细颗粒物(PM2.5),110,138,77,83,50,206,178,72,72,20,35,16,11,1.2,1
2022-05-22T12:00:00,1326A,114.2529,30.558,武汉市,汉阳月湖,细颗粒物(PM2.5),92,105,73,68,50,212,160,72,72,26,70,15,11,1.0,1.1
2022-05-22T12:00:00,1327A,114.282,30.6189,武汉市,汉口花桥,细颗粒物(PM2.5),89,111,71,66,54,190,159,68,68,33,73,14,12,1.1,1.2
2022-05-22T12:00:00,1328A,114.3025,30.5332,武汉市,武昌紫阳,,,96,81,42,42,194,164,59,59,27,70,,11,1.1,1.4
2022-05-22T12:00:00,1329A,114.3646,30.6217,武汉市,青山钢花,细颗粒物(PM2.5),110,136,93,83,59,210,161,69,69,42,75,21,13,1.6,1.4
2022-05-22T12:00:00,1330A,114.1566,30.4825,武汉市,沌口新区,颗粒物(PM10),67,84,84,37,43,198,166,80,80,21,60,15,12,1.1,1
2022-05-22T12:00:00,1331A,114.3014,30.5944,武汉市,汉口江滩,细颗粒物(PM2.5),95,138,87,71,49,206,163,59,59,42,88,13,10,1.1,1.1
2022-05-22T12:00:00,1333A,114.135,30.6319,武汉市,吴家山,颗粒物(PM10),68,86,86,42,48,202,161,64,64,23,59,11,8,0.9,1
2022-05-22T12:00:00,1334A,113.8454,30.2917,武汉市,沉湖七壕(对照点),颗粒物(PM10),57,63,70,25,32,203,160,76,76,11,32,6,6,0.8,1
2022-05-22T12:00:00,1335A,113.0833,28.2325,长沙市,经开区环保局,细颗粒物(PM2.5),54,53,34,38,38,135,88,49,49,15,38,4,4,0.7,0.8
2022-05-22T12:00:00,1336A,112.8872,28.2189,长沙市,高开区环保局,细颗粒物(PM2.5),65,48,42,47,36,144,71,20,20,28,43,8,8,0.6,0.6
2022-05-22T12:00:00,1338A,112.9394,28.19,长沙市,湖南师范大学,细颗粒物(PM2.5),77,49,42,56,45,150,73,83,34,26,25,3,2,0.8,0.8
2022-05-22T12:00:00,1339A,113.0178,28.1322,长沙市,雨花区环保局,细颗粒物(PM2.5),55,51,47,39,33,154,93,62,62,19,32,6,6,0.6,0.6
2022-05-22T12:00:00,1340A,112.9792,28.2597,长沙市,伍家岭,细颗粒物(PM2.5),72,63,59,52,28,137,67,23,23,34,40,8,7,0.8,0.7
2022-05-22T12:00:00,1341A,113.0014,28.1944,长沙市,火车新站,细颗粒物(PM2.5),74,57,51,54,45,144,82,57,47,28,40,8,7,0.6,0.5
2022-05-22T12:00:00,1342A,112.9844,28.1178,长沙市,天心区环保局,细颗粒物(PM2.5),59,54,41,42,37,150,83,33,33,15,35,5,5,0.6,0.7
2022-05-22T12:00:00,1343A,112.8908,28.1308,长沙市,湖南中医药大学,细颗粒物(PM2.5),73,52,44,53,39,124,72,24,24,29,43,5,3,0.8,0.7
2022-05-22T12:00:00,1344A,112.9581,28.3611,长沙市,沙坪(对照点),颗粒物(PM10),62,74,43,43,33,133,55,65,40,42,16,5,4,0.8,0.7
2022-05-22T12:00:00,1345A,113.2347,23.1423,广州市,广雅中学,颗粒物(PM10),54,58,42,36,32,115,96,51,46,28,34,8,6,0.9,1
2022-05-22T12:00:00,1346A,113.2612,23.105,广州市,市五中,,41,41,39,28,32,127,103,63,52,26,27,6,5,0.7,0.8
2022-05-22T12:00:00,1348A,113.3478,23.0916,广州市,广东商学院,,41,41,39,26,30,97,90,46,43,27,36,6,5,0.8,0.9
2022-05-22T12:00:00,1349A,113.4332,23.1047,广州市,市八十六中,,48,48,52,28,29,103,94,52,44,34,38,10,7,0.7,0.8
2022-05-22T12:00:00,1350A,113.3505,22.9483,广州市,番禺中学,,39,31,40,17,26,128,122,59,59,10,33,8,8,0.6,0.7
2022-05-22T12:00:00,1351A,113.2146,23.3916,广州市,花都师范,,34,34,41,22,30,133,46,47,47,26,20,3,4,0.7,0.9
2022-05-22T12:00:00,1352A,113.2597,23.1331,广州市,市监测站,,44,44,40,25,31,115,104,58,55,25,26,7,6,0.7,0.8
2022-05-22T12:00:00,1353A,113.5618,23.312,广州市,九龙镇镇龙,,40,40,44,22,30,141,95,50,50,17,18,5,5,0.6,0.8
2022-05-22T12:00:00,1354A,113.2765,23.1544,广州市,麓湖,,40,40,38,26,27,112,112,49,49,20,32,5,4,0.8,1
2022-05-22T12:00:00,1355A,113.443,23.3035,广州市,帽峰山森林公园(对照点),,30,26,37,20,27,141,94,61,61,14,12,4,4,0.6,0.8
2022-05-22T12:00:00,1356A,114.1063,22.5545,深圳市,通心岭子站,,31,31,27,18,15,111,90,104,91,6,8,3,3,0.3,0.3
2022-05-22T12:00:00,1357A,114.117,22.5625,深圳市,洪湖,,31,27,29,14,15,136,99,114,95,7,11,6,6,0.3,0.3
2022-05-22T12:00:00,1358A,113.987,22.5417,深圳市,华侨城,,35,35,32,20,17,109,86,109,94,10,16,4,4,0.6,0.6
2022-05-22T12:00:00,1359A,113.9181,22.5171,深圳市,南海子站,,30,30,34,17,19,99,88,97,93,7,16,3,4,0.5,0.5
2022-05-22T12:00:00,1360A,114.2458,22.5689,深圳市,盐田,,32,32,28,20,17,114,90,78,69,17,23,3,4,0.6,0.6
2022-05-22T12:00:00,1361A,114.2283,22.7244,深圳市,龙岗,,30,30,34,16,16,141,95,107,97,17,18,4,3,0.5,0.5
2022-05-22T12:00:00,1363A,114.494,22.5422,深圳市,南澳,,34,32,28,15,15,120,107,109,100,6,6,6,6,0.7,0.6
2022-05-22T12:00:00,1364A,114.41,22.6342,深圳市,葵涌,,31,26,28,17,15,114,97,97,92,5,7,5,5,0.4,0.4
2022-05-22T12:00:00,1365A,114.297,22.5978,深圳市,梅沙,,38,38,30,17,15,120,112,107,102,6,9,5,5,0.5,0.4
2022-05-22T12:00:00,1366A,114.0678,22.738,深圳市,观澜,,41,41,48,19,24,132,74,77,76,18,23,4,5,0.5,0.5
2022-05-22T12:00:00,1367A,113.5814,22.2618,珠海市,吉大,,31,29,27,17,18,110,97,108,98,11,7,6,7,0.5,0.5
2022-05-22T12:00:00,1368A,113.4881,22.2335,珠海市,前山,,34,28,29,11,16,108,108,104,104,11,14,8,8,0.3,0.3
2022-05-22T12:00:00,1369A,113.628,22.4251,珠海市,唐家,,29,25,24,19,18,110,92,97,96,20,13,11,8,0.4,0.4
2022-05-22T12:00:00,1370A,113.299,22.2281,珠海市,斗门,,31,28,29,15,18,134,98,98,96,8,9,8,9,0.5,0.5
2022-05-22T12:00:00,1371A,113.1294,23.0067,佛山市,湾梁,,41,41,47,12,31,148,8,36,24,44,29,5,5,1.0,0.7
2022-05-22T12:00:00,1372A,113.1083,23.0478,佛山市,华材职中,,24,22,42,11,32,162,16,47,27,47,32,7,6,0.8,0.6
2022-05-22T12:00:00,1373A,113.144,23.0453,佛山市,南海气象局,,42,42,42,18,35,155,11,40,22,51,38,5,4,0.7,0.6
2022-05-22T12:00:00,1374A,113.2881,22.8094,佛山市,顺德苏岗,,36,31,34,17,26,166,115,69,69,13,26,5,5,0.7,0.8
2022-05-22T12:00:00,1376A,112.8383,22.8678,佛山市,高明孔堂,,26,26,51,13,33,151,26,48,27,37,26,9,7,0.8,0.7
2022-05-22T12:00:00,1377A,112.8836,23.1588,佛山市,三水监测站,,,2,47,9,34,137,28,36,19,24,27,5,6,,1.1
2022-05-22T12:00:00,1378A,112.867,23.185,佛山市,三水云东海,,13,13,45,2,27,155,32,43,25,21,25,7,6,0.9,0.8
2022-05-22T12:00:00,1379A,113.3769,22.5211,中山市,华柏园,,32,32,31,16,19,136,95,88,88,13,14,3,3,0.7,0.7
2022-05-22T12:00:00,1380A,113.3881,22.5497,中山市,张溪,,46,43,38,32,24,118,98,96,87,13,15,1,1,0.5,0.6
2022-05-22T12:00:00,1381A,113.4075,22.5111,中山市,紫马岭,,34,34,32,16,16,128,97,96,91,12,12,4,4,0.5,0.5
2022-05-22T12:00:00,1382A,113.4411,22.4853,中山市,长江旅游区(对照点),,31,31,28,17,16,128,96,101,88,11,12,4,3,0.4,0.5
2022-05-22T12:00:00,1383A,113.1064,22.6058,江门市,北街,,40,40,31,16,19,134,111,92,92,13,19,7,5,0.5,0.6
2022-05-22T12:00:00,1384A,113.0731,22.5835,江门市,西区,,39,36,33,18,22,135,122,102,102,11,19,4,5,0.5,0.6
2022-05-22T12:00:00,1385A,113.0219,22.5311,江门市,圭峰西,,35,35,32,16,22,132,112,94,94,9,14,4,4,0.4,0.5
2022-05-22T12:00:00,1386A,113.0828,22.5947,江门市,东湖,,39,33,40,20,23,133,122,100,100,9,15,8,8,0.5,0.5
2022-05-22T12:00:00,1389A,113.7547,23.0494,东莞市,莞城梨川,,37,32,52,19,37,158,117,70,70,20,28,8,9,0.7,0.9
2022-05-22T12:00:00,1390A,113.7944,23.0128,东莞市,东城石井,,40,22,46,16,33,171,127,80,80,12,21,6,6,0.5,0.7
2022-05-22T12:00:00,1391A,113.7383,22.9658,东莞市,南城西平,,40,24,44,17,34,157,126,80,80,16,29,4,4,0.5,0.6
2022-05-22T12:00:00,1392A,114.4183,23.0528,惠州市,河南岸金山湖子站,,33,33,39,11,24,181,99,78,78,3,10,3,3,0.5,0.6
2022-05-22T12:00:00,1393A,114.4053,23.0822,惠州市,下埔横江三路子站,,37,37,43,11,23,197,109,82,82,9,14,4,4,0.6,0.8
2022-05-22T12:00:00,1394A,114.4103,23.1142,惠州市,江北云山西路子站,,46,46,41,15,32,215,118,75,75,5,12,6,6,0.4,0.6
2022-05-22T12:00:00,1395A,114.4645,22.7833,惠州市,惠阳区承修路船湖子站,,36,36,32,15,16,122,94,82,80,9,11,1,1,0.4,0.4
2022-05-22T12:00:00,1396A,114.5317,22.7422,惠州市,大亚湾管委会子站,,41,41,30,16,18,122,108,97,90,10,12,5,5,0.4,0.3
2022-05-22T12:00:00,1397A,112.4267,23.0706,肇庆市,睦岗子站,,20,17,52,14,39,125,48,59,36,21,25,7,8,1.1,1.1
2022-05-22T12:00:00,1398A,112.4645,23.0475,肇庆市,城中子站,,33,23,49,23,37,136,52,58,36,22,26,8,9,0.9,0.9
2022-05-22T12:00:00,1399A,112.5544,23.1522,肇庆市,坑口子站,,32,25,52,22,42,130,29,46,32,24,22,4,5,0.9,0.9
2022-05-22T12:00:00,1400A,112.4753,23.1,肇庆市,七星岩子站(对照点),,19,16,48,13,37,131,45,63,35,13,15,8,9,0.9,0.9
2022-05-22T12:00:00,1401A,108.3103,22.7881,南宁市,二十一中,,43,41,44,30,26,67,59,40,38,12,23,6,8,0.5,0.6
2022-05-22T12:00:00,1402A,108.3141,22.8528,南宁市,北湖,,45,40,44,31,28,64,61,38,38,10,21,6,11,0.7,0.8
2022-05-22T12:00:00,1403A,108.3206,22.8225,南宁市,市监测站,,45,45,39,25,30,59,56,37,36,18,30,8,12,0.7,0.8
2022-05-22T12:00:00,1404A,108.3829,22.8037,南宁市,大自然花园,,41,41,35,28,25,86,64,52,44,16,21,6,7,0.7,0.8
2022-05-22T12:00:00,1405A,108.4394,22.7904,南宁市,仙葫(对照点),,46,45,36,32,22,83,65,44,41,12,17,4,5,0.8,0.8
2022-05-22T12:00:00,1406A,108.2397,22.8467,南宁市,区农职院,,42,42,36,24,22,69,60,33,33,17,20,8,9,0.7,0.7
2022-05-22T12:00:00,1407A,108.3275,22.735,南宁市,英华嘉园,,49,48,43,34,28,76,41,44,34,27,27,5,5,0.7,0.8
2022-05-22T12:00:00,1408A,108.2257,22.7757,南宁市,沙井镇街道办,,,43,40,21,23,56,,15,15,25,28,4,8,0.7,0.7
2022-05-22T12:00:00,1409A,110.576,19.9507,海口市,东寨港(对照点),,19,19,15,12,9,28,18,15,14,1,1,3,2,0.1,0.1
2022-05-22T12:00:00,1410A,110.3232,20.0574,海口市,海南大学,,20,20,16,7,10,84,56,52,52,2,2,4,4,0.4,0.4
2022-05-22T12:00:00,1411A,110.283,20.0053,海口市,秀英海南医院,,16,15,17,7,10,77,50,47,41,3,2,3,3,0.4,0.4
2022-05-22T12:00:00,1412A,110.338,19.9969,海口市,海南师范大学,,,,19,11,5,67,48,34,34,2,3,1,2,,0.4
2022-05-22T12:00:00,1413A,110.33,20.0356,海口市,龙华路环保局宿舍,,16,14,16,7,8,76,49,43,43,5,4,5,4,0.5,0.4
2022-05-22T12:00:00,1414A,106.3787,29.8279,重庆市,缙云山(对照点),,19,13,23,9,18,140,60,123,100,16,13,9,12,0.4,0.4
2022-05-22T12:00:00,1416A,106.4213,29.8253,重庆市,天生,,27,27,60,11,37,98,70,66,66,22,44,5,8,0.8,1.1
2022-05-22T12:00:00,1417A,106.6263,29.7228,重庆市,两路,,25,17,55,13,29,81,77,72,72,41,80,7,7,1.0,1.2
2022-05-22T12:00:00,1418A,106.2953,29.5983,重庆市,虎溪,,29,29,58,14,34,80,68,65,65,23,45,5,7,0.6,0.9
2022-05-22T12:00:00,1419A,106.5777,29.5102,重庆市,南坪,,30,30,40,13,24,86,81,58,58,29,37,5,7,0.5,0.6
2022-05-22T12:00:00,1420A,106.6556,29.6277,重庆市,唐家沱,,27,27,42,11,21,86,86,40,40,26,58,5,6,0.4,0.6
2022-05-22T12:00:00,1421A,106.6349,29.4906,重庆市,茶园,,28,28,38,14,16,75,69,49,49,34,52,6,8,0.3,0.4
2022-05-22T12:00:00,1422A,106.3754,29.4572,重庆市,白市驿,,35,35,40,16,27,83,61,54,54,22,25,7,10,0.7,0.7
2022-05-22T12:00:00,1425A,106.6205,29.7166,重庆市,空港,,25,12,59,9,39,83,78,70,70,30,72,5,6,0.6,1
2022-05-22T12:00:00,1426A,106.4782,29.4875,重庆市,新山村,,27,27,46,15,25,84,80,49,49,32,59,8,13,0.7,1.1
2022-05-22T12:00:00,1427A,106.5616,29.6453,重庆市,礼嘉,,27,14,54,7,31,86,86,70,70,43,85,11,13,0.3,0.7
2022-05-22T12:00:00,1428A,106.4522,29.7091,重庆市,蔡家,,24,16,48,7,30,77,76,62,62,25,46,4,6,0.5,0.7
2022-05-22T12:00:00,1429A,106.5093,29.3917,重庆市,鱼新街,,33,33,36,19,19,62,55,35,35,36,42,6,8,0.8,0.9
2022-05-22T12:00:00,1431A,103.9728,30.7236,成都市,金泉两河,,38,26,37,21,27,120,120,56,56,8,26,2,1,0.4,0.5
2022-05-22T12:00:00,1432A,104.1419,30.6764,成都市,十里店,,34,31,44,23,29,108,108,56,56,12,33,2,2,0.4,0.5
2022-05-22T12:00:00,1433A,104.0594,30.5767,成都市,三瓦窑,,36,31,41,25,29,110,110,59,59,12,38,2,2,0.4,0.5
2022-05-22T12:00:00,1434A,104.1122,30.6306,成都市,沙河铺,细颗粒物(PM2.5),58,42,45,41,42,103,103,46,46,18,34,3,3,0.4,0.5
2022-05-22T12:00:00,1437A,104.0431,30.6556,成都市,君平街,,,,50,,38,94,,56,56,16,38,,3,,0.8
2022-05-22T12:00:00,1438A,103.6202,31.0201,成都市,灵岩寺(对照点),,25,22,22,14,18,96,78,62,48,8,11,2,12,0.4,0.5
2022-05-22T12:00:00,1439A,106.6899,26.5998,贵阳市,马鞍山,,16,5,21,2,20,101,49,42,42,10,10,4,4,0.3,0.3
2022-05-22T12:00:00,1440A,106.6971,26.5694,贵阳市,市环保站,,13,2,23,2,18,86,40,46,40,12,16,5,6,0.4,0.4
2022-05-22T12:00:00,1441A,106.6243,26.6266,贵阳市,鉴湖路,,15,14,26,5,14,98,47,50,46,9,9,2,2,0.3,0.3
2022-05-22T12:00:00,1442A,106.7487,26.6343,贵阳市,燕子冲,,16,7,30,9,23,91,51,59,50,6,6,6,6,0.5,0.5
2022-05-22T12:00:00,1443A,106.6555,26.4365,贵阳市,碧云窝,,17,12,36,7,22,101,52,46,46,10,14,4,3,0.5,0.6
2022-05-22T12:00:00,1444A,106.694,26.5161,贵阳市,中院村,,15,9,31,5,18,100,48,47,46,14,17,4,4,0.4,0.5
2022-05-22T12:00:00,1446A,106.7164,26.5699,贵阳市,新华路,,15,5,21,2,19,101,47,51,49,6,9,3,4,0.3,0.4
2022-05-22T12:00:00,1447A,106.674,26.5424,贵阳市,太慈桥,,13,9,29,0,14,104,41,46,44,15,16,4,4,0.7,0.7
2022-05-22T12:00:00,1450A,102.8204,24.8886,昆明市,呈贡新区,,14,8,8,2,3,56,43,47,38,13,12,6,8,0.6,0.6
2022-05-22T12:00:00,1451A,102.6251,24.9608,昆明市,西山森林公园(对照点),,32,32,40,1,2,75,46,45,41,10,6,7,7,0.6,0.6
2022-05-22T12:00:00,1452A,102.7252,25.0902,昆明市,龙泉镇,,10,5,13,4,5,45,31,34,25,15,18,8,9,0.6,0.6
2022-05-22T12:00:00,1453A,102.7266,25.0375,昆明市,东风东路,,11,8,8,5,9,43,31,38,25,21,23,5,6,0.5,0.5
2022-05-22T12:00:00,1455A,102.6644,25.0401,昆明市,碧鸡广场,,15,10,6,7,5,66,27,42,27,30,20,8,8,0.7,0.6
2022-05-22T12:00:00,1456A,91.1319,29.6514,拉萨市,八廓街,,35,11,8,7,6,148,110,118,102,10,10,5,5,0.3,0.2
2022-05-22T12:00:00,1457A,91.1221,29.6747,拉萨市,市环保局,,35,12,8,6,5,144,109,112,94,8,13,5,6,0.2,0.2
2022-05-22T12:00:00,1458A,91.0874,29.6475,拉萨市,区监测站,,32,13,9,4,2,137,102,117,92,11,12,7,7,0.3,0.2
2022-05-22T12:00:00,1459A,91.1774,29.6541,拉萨市,西藏大学,,,,,3,4,142,106,113,103,11,10,7,8,0.2,0.2
2022-05-22T12:00:00,1460A,90.9798,29.6588,拉萨市,区辐射站,,30,13,9,9,4,125,95,117,88,19,14,7,7,0.3,0.2
2022-05-22T12:00:00,1461A,91.0834,29.6292,拉萨市,拉萨火车站,,29,16,10,0,1,134,92,119,88,15,11,8,7,0.3,0.3
2022-05-22T12:00:00,1462A,108.882,34.2749,西安市,高压开关厂,,38,38,65,18,26,172,119,48,48,20,41,5,8,0.3,0.4
2022-05-22T12:00:00,1463A,108.993,34.2629,西安市,兴庆小区,颗粒物(PM10),52,53,69,24,33,186,98,40,34,20,46,5,6,0.4,0.6
2022-05-22T12:00:00,1464A,109.06,34.2572,西安市,纺织城,,40,40,75,18,30,207,108,40,40,22,44,6,7,0.3,0.5
2022-05-22T12:00:00,1465A,108.9356,34.2173,西安市,小寨,,43,43,64,25,31,173,106,52,52,22,42,2,2,0.6,0.7
2022-05-22T12:00:00,1466A,108.954,34.2713,西安市,市人民体育场,颗粒物(PM10),53,55,64,23,30,174,109,62,62,23,38,6,7,0.3,0.4
2022-05-22T12:00:00,1467A,108.8922,34.2322,西安市,高新西区,,39,39,56,20,28,173,110,43,43,21,40,7,7,0.5,0.6
2022-05-22T12:00:00,1468A,108.935,34.3474,西安市,经开区,,41,41,64,17,29,186,112,45,45,16,37,4,5,0.3,0.4
2022-05-22T12:00:00,1469A,108.906,34.1546,西安市,长安区,颗粒物(PM10),51,51,56,19,25,181,109,44,44,23,29,7,6,0.5,0.6
2022-05-22T12:00:00,1471A,109.2186,34.3731,西安市,临潼区,颗粒物(PM10),59,68,65,25,26,202,122,101,58,20,29,4,6,0.4,0.5
2022-05-22T12:00:00,1472A,108.869,34.378,西安市,草滩(对照点),,35,32,93,20,32,200,110,39,39,18,50,14,12,0.4,0.7
2022-05-22T12:00:00,1473A,108.985,34.1978,西安市,曲江文化产业集团,,41,41,75,17,31,184,116,35,35,13,51,5,4,0.7,0.9
2022-05-22T12:00:00,1474A,109.051,34.3213,西安市,广运潭,,,,71,22,32,185,115,115,115,14,35,,6,0.5,0.6
2022-05-22T12:00:00,1476A,103.631,36.1031,兰州市,兰炼宾馆,臭氧1小时,60,62,55,28,24,168,168,65,65,36,36,24,12,0.6,0.5
2022-05-22T12:00:00,1478A,103.8412,36.0726,兰州市,生物制品所,,31,31,50,18,22,134,98,46,36,26,37,11,12,0.7,0.8
2022-05-22T12:00:00,1479A,103.831,36.0464,兰州市,铁路设计院,,37,37,47,14,20,117,93,48,48,30,33,10,10,0.8,0.6
2022-05-22T12:00:00,1483A,101.524,36.6867,西宁市,第五水厂(对照点),,45,32,32,17,17,160,144,84,84,9,13,15,12,0.6,0.7
2022-05-22T12:00:00,1484A,105.9512,38.6016,银川市,贺兰山马莲口(对照点),颗粒物(PM10),57,63,74,13,26,201,118,111,105,22,11,14,11,0.4,0.4
2022-05-22T12:00:00,1488A,106.2328,38.4975,银川市,贺兰山东路,,35,32,53,17,19,187,109,104,85,27,19,14,12,0.5,0.5
2022-05-22T12:00:00,1489A,106.1358,38.5036,银川市,学院路,颗粒物(PM10),53,56,63,17,18,175,112,106,81,20,19,20,14,0.4,0.3
2022-05-22T12:00:00,1490A,87.5801,43.8303,乌鲁木齐市,监测站,颗粒物(PM10),51,52,58,25,22,137,93,64,53,22,33,8,7,0.6,0.5
2022-05-22T12:00:00,1492A,87.4754,43.9469,乌鲁木齐市,新疆农科院农场(对照点),,42,42,79,22,27,124,103,31,31,13,35,8,7,0.1,0.2
2022-05-22T12:00:00,1493A,87.5525,43.8711,乌鲁木齐市,铁路局,颗粒物(PM10),52,54,57,24,22,132,87,62,62,28,29,9,9,0.6,0.6
2022-05-22T12:00:00,1494A,87.6432,43.831,乌鲁木齐市,三十一中学,,48,48,63,6,9,133,107,78,75,11,20,12,11,0.4,0.3
2022-05-22T12:00:00,1496A,87.7216,44.1747,乌鲁木齐市,米东区环保局,,42,42,61,9,18,126,102,43,43,13,24,15,11,0.4,0.3
2022-05-22T12:00:00,1508A,112.9433,27.8614,湘潭市,板塘,"颗粒物(PM10),细颗粒物(PM2.5)",59,68,53,42,33,161,51,65,34,35,27,20,9,1.2,0.7
2022-05-22T12:00:00,1511A,112.9118,27.8403,湘潭市,市监测站,,,49,38,,49,151,44,49,40,33,24,12,9,1.2,0.9
2022-05-22T12:00:00,1512A,112.8937,27.8728,湘潭市,江麓,细颗粒物(PM2.5),64,64,52,46,29,163,67,76,39,24,25,10,10,1.2,0.9
2022-05-22T12:00:00,1513A,112.9227,27.8159,湘潭市,岳塘,细颗粒物(PM2.5),67,64,47,48,37,159,57,43,43,24,28,15,10,1.1,0.8
2022-05-22T12:00:00,1514A,112.9074,27.9119,湘潭市,科大,,,,41,,30,160,64,64,38,,32,12,4,1.5,1
2022-05-22T12:00:00,1515A,113.135,27.8244,株洲市,天台山庄,细颗粒物(PM2.5),57,41,34,40,31,147,76,44,44,21,33,8,7,0.7,0.8
2022-05-22T12:00:00,1518A,113.095,27.8867,株洲市,株冶医院,细颗粒物(PM2.5),52,39,38,36,32,143,80,34,34,15,32,12,9,0.9,0.9
2022-05-22T12:00:00,1519A,113.167,27.8667,株洲市,市四中,细颗粒物(PM2.5),60,37,35,43,32,140,68,44,44,13,18,6,6,0.6,0.7
2022-05-22T12:00:00,1520A,113.143,27.8381,株洲市,火车站,细颗粒物(PM2.5),58,51,46,41,32,145,68,34,34,18,32,8,8,0.7,0.8
2022-05-22T12:00:00,1524A,113.13,27.8528,株洲市,市监测站,细颗粒物(PM2.5),64,51,47,46,35,146,66,41,40,20,29,10,8,0.6,0.6
2022-05-22T12:00:00,1552A,106.805,26.3003,贵阳市,桐木岭(对照点),,18,14,34,12,21,93,53,68,57,5,5,14,9,0.4,0.4
2022-05-22T12:00:00,1559A,113.251,27.8336,株洲市,大京风景区(对照点),颗粒物(PM10),59,67,29,32,26,106,48,24,24,9,8,6,5,0.7,0.7
2022-05-22T12:00:00,1562A,113.0048,27.9153,湘潭市,昭山,细颗粒物(PM2.5),60,46,40,43,35,143,75,21,21,17,33,10,7,1.3,1
2022-05-22T12:00:00,1564A,112.4876,27.9164,湘潭市,韶山(对照点),颗粒物(PM10),52,54,35,30,17,121,72,46,42,9,6,5,4,0.9,0.7
2022-05-22T12:00:00,1585A,109.8756,40.6532,包头市,市环境监测站,颗粒物(PM10),62,73,85,29,24,156,151,68,68,16,53,15,15,0.7,0.9
2022-05-22T12:00:00,1587A,109.9991,40.5842,包头市,包头八中,颗粒物(PM10),69,88,83,20,27,177,163,78,78,12,38,10,20,0.5,0.7
2022-05-22T12:00:00,1588A,109.8538,40.6821,包头市,青山宾馆,颗粒物(PM10),66,81,92,32,33,160,150,71,71,17,54,17,18,0.8,0.9
2022-05-22T12:00:00,1589A,109.8642,40.6288,包头市,惠龙物流,颗粒物(PM10),61,71,88,30,28,166,166,86,76,11,41,9,15,0.6,0.8
2022-05-22T12:00:00,1590A,110.0377,40.5546,包头市,东河鸿龙湾,颗粒物(PM10),71,91,93,29,27,184,160,78,78,8,29,13,17,0.4,0.5
2022-05-22T12:00:00,1591A,110.0023,39.8129,鄂尔多斯市,综合楼,,,,70,44,37,163,151,136,100,32,31,17,25,1.0,0.7
2022-05-22T12:00:00,1592A,109.9486,39.8261,鄂尔多斯市,巴音孟克林场办事处,颗粒物(PM10),69,88,59,24,22,167,167,138,106,24,26,20,10,0.7,0.7
2022-05-22T12:00:00,1593A,109.7736,39.5986,鄂尔多斯市,康泽苑,臭氧1小时,72,83,57,27,18,177,177,102,102,10,16,12,7,0.5,0.5
2022-05-22T12:00:00,1594A,109.8119,39.5989,鄂尔多斯市,华泰汽车城,臭氧1小时,68,80,63,29,24,174,174,88,88,9,17,14,9,0.6,0.5
2022-05-22T12:00:00,1595A,109.9734,39.7884,鄂尔多斯市,奥林花园,颗粒物(PM10),64,78,63,31,22,162,158,115,96,22,25,15,10,0.9,0.8
2022-05-22T12:00:00,1597A,122.2703,40.7094,营口市,大庆路,臭氧1小时,99,87,69,54,43,224,199,160,160,14,13,14,10,1.0,0.9
2022-05-22T12:00:00,1598A,122.215,40.6511,营口市,镜湖西路,臭氧1小时,104,64,59,40,31,240,208,166,166,14,17,12,9,0.9,1
2022-05-22T12:00:00,1600A,124.3303,40.0625,丹东市,江湾东路,细颗粒物(PM2.5),60,54,41,43,35,163,163,139,139,10,9,9,9,0.7,0.5
2022-05-22T12:00:00,1601A,124.4256,40.1503,丹东市,临江后街,,,,,24,21,154,154,126,126,6,5,12,11,1.3,1.3
2022-05-22T12:00:00,1602A,124.3933,40.1461,丹东市,元宝山,,48,38,39,33,35,143,143,117,117,8,7,11,10,0.9,0.9
2022-05-22T12:00:00,1603A,124.3633,40.1092,丹东市,民主桥,,49,44,38,34,29,156,156,134,134,6,5,11,10,1.1,1
2022-05-22T12:00:00,1604A,122.0303,41.1489,盘锦市,开发区,臭氧1小时,89,83,109,54,76,234,191,149,134,20,24,20,9,1.2,1
2022-05-22T12:00:00,1605A,122.0485,41.0883,盘锦市,兴隆台,臭氧1小时,80,77,112,53,69,237,184,151,134,24,26,17,8,1.3,1
2022-05-22T12:00:00,1606A,121.8297,41.1028,盘锦市,新生街道,臭氧1小时,87,51,88,29,39,201,189,151,130,23,21,24,10,1.2,1
2022-05-22T12:00:00,1607A,120.9092,40.7136,葫芦岛市,龙港区,颗粒物(PM10),80,109,78,48,26,196,174,98,90,26,33,32,68,0.7,0.7
2022-05-22T12:00:00,1608A,120.8392,40.7514,葫芦岛市,化工街,颗粒物(PM10),64,77,90,33,42,176,169,82,82,19,49,17,25,0.5,0.7
2022-05-22T12:00:00,1609A,120.8341,40.7073,葫芦岛市,新区,颗粒物(PM10),70,89,64,40,24,185,162,116,92,26,32,47,20,0.9,0.8
2022-05-22T12:00:00,1610A,120.8695,40.7677,葫芦岛市,东城区,颗粒物(PM10),80,110,101,48,43,179,179,80,80,16,56,17,20,0.3,0.5
2022-05-22T12:00:00,1611A,118.5819,24.9117,泉州市,涂山街,,31,19,26,9,19,99,99,85,71,7,14,6,7,0.2,0.4
2022-05-22T12:00:00,1612A,118.5972,24.8978,泉州市,津头埔,,38,38,29,11,17,91,91,81,76,12,17,4,3,0.3,0.4
2022-05-22T12:00:00,1613A,118.6663,24.9424,泉州市,万安,,30,25,25,11,20,95,95,81,81,10,16,7,6,0.4,0.4
2022-05-22T12:00:00,1614A,118.6117,24.9604,泉州市,清源山(对照点),,28,26,17,19,18,89,85,86,85,6,8,6,6,0.3,0.3
2022-05-22T12:00:00,1616A,117.6795,36.229,济南市,技术学院,臭氧1小时,87,58,82,30,39,202,189,124,124,6,24,14,19,0.5,0.9
2022-05-22T12:00:00,1618A,118.3429,35.0532,临沂市,沂河小区,臭氧1小时,95,63,85,27,40,198,196,107,107,15,39,10,16,0.4,0.5
2022-05-22T12:00:00,1619A,118.295,35.0583,临沂市,鲁南制药厂,臭氧1小时,103,58,90,32,37,212,206,116,116,14,41,,17,0.5,0.6
2022-05-22T12:00:00,1620A,118.2794,34.9976,临沂市,新光毛纺厂,臭氧1小时,100,58,85,32,38,206,200,111,111,4,28,7,16,0.5,0.7
2022-05-22T12:00:00,1621A,118.3956,35.0888,临沂市,河东保险公司,臭氧1小时,104,51,73,27,31,208,208,116,116,11,27,9,12,0.2,0.3
2022-05-22T12:00:00,1622A,116.3032,37.4674,德州市,儿童乐园,颗粒物(PM10),60,70,73,22,26,174,154,123,119,5,11,7,9,0.5,0.4
2022-05-22T12:00:00,1624A,116.2991,37.4451,德州市,监理站,颗粒物(PM10),57,63,63,24,28,163,147,115,113,5,11,14,17,0.3,0.3
2022-05-22T12:00:00,1625A,115.9848,36.4372,聊城市,区政府,颗粒物(PM10),56,62,72,20,24,156,150,107,107,9,12,10,13,0.5,0.5
2022-05-22T12:00:00,1628A,118.0062,37.3803,滨州市,市环保局,臭氧1小时,101,70,77,24,31,217,202,140,140,6,16,9,16,0.4,0.3
2022-05-22T12:00:00,1629A,118.0018,37.3617,滨州市,第二水厂,臭氧1小时,70,68,76,29,30,189,176,111,111,10,24,10,13,0.4,0.5
2022-05-22T12:00:00,1630A,117.9776,37.393,滨州市,北中新校,臭氧1小时,78,57,64,17,28,191,182,139,139,11,19,13,19,0.5,0.6
2022-05-22T12:00:00,1631A,118.0414,36.8103,淄博市,人民公园,臭氧1小时,92,51,67,26,29,211,193,145,145,9,21,11,12,0.4,0.4
2022-05-22T12:00:00,1633A,117.8525,36.4847,淄博市,双山,臭氧1小时,74,50,55,33,35,191,179,147,147,7,13,12,16,0.4,0.4
2022-05-22T12:00:00,1634A,117.9592,36.6331,淄博市,气象站,,,,68,46,28,198,182,151,151,8,13,12,15,0.4,0.4
2022-05-22T12:00:00,1635A,118.3092,36.8194,淄博市,莆田园,臭氧1小时,93,66,81,27,34,230,194,162,162,12,22,12,21,0.3,0.7
2022-05-22T12:00:00,1637A,117.558,34.8438,枣庄市,市中区政府,臭氧1小时,107,53,90,19,33,213,213,109,109,20,46,8,13,0.4,0.5
2022-05-22T12:00:00,1638A,117.2852,34.7837,枣庄市,薛城环保局,臭氧1小时,92,71,72,34,33,193,193,114,114,14,47,14,14,0.8,0.8
2022-05-22T12:00:00,1639A,117.5852,34.7745,枣庄市,峄城区政府,臭氧1小时,99,61,75,36,30,199,199,102,102,15,33,25,15,0.5,0.5
2022-05-22T12:00:00,1640A,117.7276,34.5578,枣庄市,台儿庄区环保局,臭氧1小时,85,48,68,19,27,188,188,104,104,11,35,10,11,0.7,0.9
2022-05-22T12:00:00,1641A,117.4518,35.0992,枣庄市,山亭区环保局,臭氧1小时,93,46,62,29,34,195,194,123,123,13,21,13,18,0.5,0.6
2022-05-22T12:00:00,1642A,121.2514,37.5639,烟台市,开发区,臭氧1小时,68,68,88,24,36,207,174,166,155,19,24,16,10,0.5,0.7
2022-05-22T12:00:00,1643A,121.3719,37.5433,烟台市,轴承厂,臭氧1小时,94,75,75,30,32,214,195,207,171,14,17,10,10,0.7,0.7
2022-05-22T12:00:00,1644A,121.3181,37.5436,烟台市,西郊化工站,臭氧1小时,68,80,76,27,35,203,174,166,155,16,17,16,16,0.6,0.7
2022-05-22T12:00:00,1645A,121.4478,37.4822,烟台市,莱山环保局,臭氧1小时,98,88,71,34,35,223,198,153,153,18,18,15,10,0.4,0.5
2022-05-22T12:00:00,1646A,121.2611,37.4967,烟台市,福山环保局,臭氧1小时,84,63,83,19,35,199,187,158,136,3,15,16,15,0.6,0.7
2022-05-22T12:00:00,1650A,119.1437,36.7023,潍坊市,环保局,臭氧1小时,80,51,80,22,37,208,184,138,138,9,28,8,11,0.5,0.8
2022-05-22T12:00:00,1653A,116.6251,35.4302,济宁市,火炬城,臭氧1小时,74,56,59,27,26,199,179,126,124,6,13,11,12,0.6,0.7
2022-05-22T12:00:00,1655A,116.5491,35.4042,济宁市,电化厂,臭氧1小时,77,69,74,22,30,200,181,123,123,8,23,8,10,0.7,0.8
2022-05-22T12:00:00,1656A,117.1437,36.1937,泰安市,监测站,臭氧1小时,89,68,64,27,29,191,191,135,135,6,13,10,10,0.4,0.4
2022-05-22T12:00:00,1657A,117.0885,36.2017,泰安市,人口学校,臭氧1小时,80,56,60,23,23,184,184,140,138,14,17,9,9,0.2,0.2
2022-05-22T12:00:00,1658A,117.1089,36.1758,泰安市,电力学校,臭氧1小时,74,53,65,24,27,179,179,112,112,7,23,8,9,0.8,0.8
2022-05-22T12:00:00,1659A,119.471,35.4209,日照市,监测站,臭氧1小时,101,68,94,34,51,202,202,94,94,12,44,9,11,0.4,0.7
2022-05-22T12:00:00,1660A,119.523,35.4216,日照市,市政府广场,颗粒物(PM10),87,124,91,49,50,236,180,117,117,52,33,24,15,0.9,0.8
2022-05-22T12:00:00,1661A,119.5587,35.4044,日照市,港务局,颗粒物(PM10),117,183,116,57,49,236,205,92,87,69,63,35,17,1.3,1
2022-05-22T12:00:00,1662A,122.1214,37.4236,威海市,华夏技校,臭氧1小时,101,85,72,31,40,228,201,180,180,12,15,10,8,0.5,0.6
2022-05-22T12:00:00,1663A,122.0508,37.5236,威海市,山大分校,臭氧1小时,110,56,50,29,31,264,220,199,199,13,13,11,11,0.4,0.5
2022-05-22T12:00:00,1664A,122.1067,37.5072,威海市,市监测站,臭氧1小时,93,66,71,29,35,247,194,210,183,12,18,11,12,0.4,0.6
2022-05-22T12:00:00,1666A,118.6614,37.4309,东营市,市环保局,臭氧1小时,112,66,72,70,44,223,223,149,149,12,25,17,17,0.6,0.6
2022-05-22T12:00:00,1669A,113.5824,24.7733,韶关市,市八中,,25,20,23,17,17,80,39,47,42,15,12,7,12,0.7,0.7
2022-05-22T12:00:00,1671A,113.5917,24.7972,韶关市,园林处,,26,25,24,18,18,77,36,42,34,9,8,7,10,0.6,0.6
2022-05-22T12:00:00,1672A,113.6735,24.7791,韶关市,韶关学院,,32,21,23,22,17,76,36,54,36,12,12,7,8,0.5,0.5
2022-05-22T12:00:00,1673A,113.5971,24.6863,韶关市,曲江监测站,,20,20,25,14,16,166,64,107,61,12,11,6,12,0.6,0.6
2022-05-22T12:00:00,1674A,116.6794,23.3667,汕头市,金平子站,,34,10,28,21,11,122,108,94,90,9,6,11,10,0.6,0.5
2022-05-22T12:00:00,1675A,116.7244,23.3633,汕头市,龙湖子站,,35,35,31,14,11,118,104,92,88,11,10,8,7,0.5,0.5
2022-05-22T12:00:00,1676A,116.7258,23.2775,汕头市,濠江子站,,,,21,,11,114,101,98,91,8,7,,9,0.5,0.4
2022-05-22T12:00:00,1677A,116.7519,23.4714,汕头市,澄海子站,,35,29,30,14,13,128,110,93,88,12,12,6,6,0.6,0.6
2022-05-22T12:00:00,1678A,116.6092,23.2539,汕头市,潮阳子站,,35,32,27,14,10,113,112,96,95,10,10,8,8,0.5,0.5
2022-05-22T12:00:00,1680A,110.3539,21.2706,湛江市,湛江影剧院,,22,16,21,12,9,91,69,74,74,6,4,5,5,0.6,0.6
2022-05-22T12:00:00,1681A,110.3928,21.2228,湛江市,市环境监测站,,,,19,12,12,98,66,83,82,5,3,4,5,0.5,0.5
2022-05-22T12:00:00,1682A,110.4019,21.1997,湛江市,环保局宿舍,,19,2,18,9,11,90,59,78,77,5,3,4,4,0.4,0.4
2022-05-22T12:00:00,1683A,110.4111,21.2028,湛江市,霞山游泳场,,18,13,17,6,10,85,57,75,74,5,4,5,5,0.4,0.4
2022-05-22T12:00:00,1684A,110.3316,21.2679,湛江市,麻章区环保局,,22,12,22,10,9,120,68,74,74,6,5,4,5,0.5,0.5
2022-05-22T12:00:00,1685A,110.4558,21.2567,湛江市,坡头区环保局,,23,22,18,8,11,93,73,85,85,4,4,5,5,0.6,0.6
2022-05-22T12:00:00,1686A,111.0286,21.4688,茂名市,电白南海,,36,36,26,14,12,98,74,85,85,14,12,4,4,0.5,0.6
2022-05-22T12:00:00,1687A,110.9294,21.6533,茂名市,茂石化七小,,,,26,,15,100,,68,68,,9,,7,,0.5
2022-05-22T12:00:00,1688A,110.9107,21.6687,茂名市,健康路,,22,19,18,6,7,88,69,63,63,6,8,5,6,0.5,0.5
2022-05-22T12:00:00,1689A,110.8592,21.6828,茂名市,高岭,,22,19,12,5,4,80,69,68,68,11,10,10,9,0.4,0.4
2022-05-22T12:00:00,1690A,116.1231,24.3284,梅州市,梅江月梅,,48,32,31,33,25,57,57,33,33,12,25,4,4,0.6,0.7
2022-05-22T12:00:00,1691A,116.0797,24.2719,梅州市,梅县新城,细颗粒物(PM2.5),77,34,33,56,27,62,55,35,35,17,23,5,5,0.9,0.8
2022-05-22T12:00:00,1692A,116.1248,24.2654,梅州市,环境监控中心,,,40,33,27,29,67,38,51,26,,18,,5,0.8,0.7
2022-05-22T12:00:00,1693A,115.3653,22.775,汕尾市,市环保局,,34,34,24,18,13,118,101,90,88,8,6,8,8,0.6,0.5
2022-05-22T12:00:00,1694A,115.3706,22.7898,汕尾市,市政府,,39,39,25,25,12,125,107,96,90,9,7,6,6,0.5,0.5
2022-05-22T12:00:00,1695A,115.3622,22.7925,汕尾市,新城中学,,34,29,26,20,15,125,107,97,93,5,5,6,6,0.5,0.5
2022-05-22T12:00:00,1696A,114.6778,23.7569,河源市,源西(对照点),,32,32,36,16,20,78,55,34,30,8,13,5,4,0.5,0.5
2022-05-22T12:00:00,1697A,114.6944,23.7586,河源市,东埔,,34,34,34,23,22,74,50,43,38,24,17,4,4,0.9,0.9
2022-05-22T12:00:00,1698A,114.6892,23.7233,河源市,老城,,42,37,35,29,23,80,61,47,43,19,11,3,3,0.9,0.9
2022-05-22T12:00:00,1699A,111.9797,21.8593,阳江市,鸳鸯湖(对照点),,26,18,19,13,12,110,83,92,92,1,2,7,8,0.5,0.5
2022-05-22T12:00:00,1701A,111.9491,21.8658,阳江市,马南垌,,24,23,22,12,13,95,74,84,84,1,3,5,5,0.4,0.4
2022-05-22T12:00:00,1702A,113.0426,23.691,清远市,环保大楼(对照点),,10,4,31,5,26,135,29,50,30,13,10,3,4,0.8,0.8
2022-05-22T12:00:00,1703A,113.0208,23.7106,清远市,凤城街办,,11,6,36,5,27,105,28,50,29,14,10,4,5,1.1,1
2022-05-22T12:00:00,1705A,116.6367,23.6719,潮州市,西园路(对照点),,41,41,37,24,23,131,87,77,68,15,13,7,8,0.7,0.7
2022-05-22T12:00:00,1706A,116.6447,23.6706,潮州市,档案局,颗粒物(PM10),65,80,38,30,23,143,90,80,70,16,14,13,13,0.6,0.6
2022-05-22T12:00:00,1708A,116.3701,23.5345,揭阳市,新兴,,41,41,40,23,22,167,96,83,78,12,12,8,9,0.6,0.7
2022-05-22T12:00:00,1709A,116.3264,23.5443,揭阳市,西马,,40,38,37,28,23,169,92,83,76,12,9,7,7,0.7,0.6
2022-05-22T12:00:00,1710A,116.3611,23.5626,揭阳市,东兴,,,46,42,20,19,167,,82,72,11,8,6,6,0.6,0.6
2022-05-22T12:00:00,1711A,116.4151,23.5294,揭阳市,渔湖,,40,40,32,18,18,159,92,81,72,13,13,8,8,0.5,0.5
2022-05-22T12:00:00,1714A,112.0539,22.9539,云浮市,牧羊,,36,36,54,21,41,98,84,58,50,8,18,8,10,0.5,0.8
2022-05-22T12:00:00,1715A,102.575,24.3711,玉溪市,东风水库,,14,2,6,2,3,62,43,44,34,6,8,6,8,0.6,0.7
2022-05-22T12:00:00,1718A,115.4208,35.2464,菏泽市,气象局,颗粒物(PM10),64,77,80,18,29,181,139,108,108,8,16,8,15,0.3,0.4
2022-05-22T12:00:00,1719A,115.4747,35.2375,菏泽市,市政协,,,70,77,16,26,179,145,114,114,8,13,,15,0.3,0.3
2022-05-22T12:00:00,1721A,113.3819,40.1097,大同市,果树场(对照点),臭氧1小时,70,41,81,16,31,176,176,93,93,5,33,15,21,0.5,0.6
2022-05-22T12:00:00,1723A,113.2994,40.0758,大同市,云冈宾馆,颗粒物(PM10),55,60,79,32,31,160,160,84,84,21,33,14,20,1.2,1.2
2022-05-22T12:00:00,1724A,113.3444,40.0917,大同市,大同大学,臭氧1小时,69,28,43,20,25,175,175,98,98,10,27,14,23,0.5,0.6
2022-05-22T12:00:00,1725A,113.2661,40.1269,大同市,安家小村,臭氧1小时,67,51,96,20,28,173,173,74,74,10,33,17,23,0.6,1.2
2022-05-22T12:00:00,1726A,113.2711,40.0844,大同市,教育学院,臭氧1小时,60,52,82,14,31,168,168,80,80,15,35,15,25,0.4,0.8
2022-05-22T12:00:00,1727A,113.1147,36.1547,长治市,清华站,颗粒物(PM10),67,84,60,27,25,197,157,102,75,19,25,16,13,0.4,0.4
2022-05-22T12:00:00,1728A,113.1031,36.1989,长治市,监测站,臭氧1小时,57,53,61,22,25,216,165,112,83,27,26,12,13,0.7,0.7
2022-05-22T12:00:00,1730A,113.0886,36.2125,长治市,审计局,,,43,56,29,26,223,,104,73,20,41,9,9,,0.8
2022-05-22T12:00:00,1731A,113.0844,36.1856,长治市,长治八中,颗粒物(PM10),68,86,63,24,23,208,161,120,75,24,31,12,11,0.7,0.7
2022-05-22T12:00:00,1733A,111.5531,36.0783,临汾市,临钢医院,臭氧1小时,92,62,53,23,23,224,193,88,88,17,33,11,9,1.2,0.7
2022-05-22T12:00:00,1734A,111.5028,36.0714,临汾市,技工学校,臭氧1小时,73,60,52,30,30,209,178,82,82,21,38,16,14,1.1,0.7
2022-05-22T12:00:00,1736A,111.5018,36.0855,临汾市,市委,臭氧1小时,94,69,57,39,28,229,195,89,89,25,46,23,18,1.1,0.7
2022-05-22T12:00:00,1738A,113.5758,37.8572,阳泉市,市中心,臭氧1小时,68,72,81,37,26,174,174,67,67,30,62,39,17,1.0,0.7
2022-05-22T12:00:00,1739A,113.4894,37.8731,阳泉市,赛鱼,臭氧1小时,62,31,47,17,20,169,169,77,77,28,68,19,17,0.7,0.6
2022-05-22T12:00:00,1740A,113.5819,37.8486,阳泉市,南庄,颗粒物(PM10),70,90,80,26,28,162,162,75,75,37,49,16,11,0.9,0.6
2022-05-22T12:00:00,1742A,113.5614,37.8703,阳泉市,平坦,颗粒物(PM10),67,83,71,30,20,163,163,60,60,32,69,29,16,1.0,0.7
2022-05-22T12:00:00,1743A,113.5158,37.8392,阳泉市,大阳泉,颗粒物(PM10),57,63,41,24,22,164,164,145,115,30,26,36,18,0.8,0.5
2022-05-22T12:00:00,1744A,118.9233,42.2816,赤峰市,松山一中,颗粒物(PM10),59,67,53,11,18,122,94,60,60,30,34,49,10,1.0,0.7
2022-05-22T12:00:00,1745A,118.9576,42.2728,赤峰市,哈达街,颗粒物(PM10),58,66,55,5,13,119,91,60,60,34,34,72,17,0.9,0.7
2022-05-22T12:00:00,1746A,118.8788,42.2554,赤峰市,天义路,颗粒物(PM10),52,54,43,7,11,130,105,66,66,23,32,24,12,0.8,0.5
2022-05-22T12:00:00,1748A,123.044,41.1196,鞍山市,深沟寺,臭氧1小时,73,65,77,32,39,241,178,137,120,17,17,16,13,0.9,1
2022-05-22T12:00:00,1749A,123.011,41.0931,鞍山市,太阳城,臭氧1小时,68,65,73,38,40,237,174,133,112,17,18,14,12,0.9,1.1
2022-05-22T12:00:00,1751A,122.9642,41.0971,鞍山市,铁西三道街,臭氧1小时,80,76,92,40,44,232,184,132,132,16,26,14,15,1.0,1.4
2022-05-22T12:00:00,1752A,122.9341,41.0833,鞍山市,铁西工业园区,臭氧1小时,73,67,84,37,46,242,178,135,122,14,19,14,16,0.8,1.1
2022-05-22T12:00:00,1753A,123.022,41.0821,鞍山市,明达新区,臭氧1小时,73,60,69,38,41,238,178,144,124,14,14,10,10,0.8,0.9
2022-05-22T12:00:00,1754A,123.1289,41.0228,鞍山市,千山(对照点),,48,32,53,28,36,210,153,99,99,9,10,15,12,0.8,0.8
2022-05-22T12:00:00,1755A,123.7977,41.8491,抚顺市,望花区,,40,31,59,9,27,195,126,102,102,5,18,3,10,0.4,0.7
2022-05-22T12:00:00,1756A,123.9161,41.8822,抚顺市,顺城区,,36,31,65,8,28,180,115,92,92,6,25,7,11,0.3,0.6
2022-05-22T12:00:00,1757A,124.0436,41.8611,抚顺市,东洲区,,40,13,50,7,24,210,128,105,105,4,9,6,8,0.5,0.7
2022-05-22T12:00:00,1758A,123.9247,41.8642,抚顺市,新抚区,,39,39,61,13,29,190,124,96,96,6,24,4,8,0.2,0.6
2022-05-22T12:00:00,1759A,124.0972,41.8961,抚顺市,大伙房水库,,42,17,35,8,20,215,132,112,109,1,6,5,7,0.4,0.5
2022-05-22T12:00:00,1760A,123.7086,41.8391,抚顺市,沈抚新城,,43,34,65,13,40,211,136,102,102,3,25,9,19,0.1,1
2022-05-22T12:00:00,1761A,123.8275,41.3064,本溪市,大峪,,44,34,93,16,43,195,138,100,100,10,34,6,11,0.6,1
2022-05-22T12:00:00,1762A,123.7567,41.3325,本溪市,溪湖,,45,32,82,17,48,208,142,96,96,8,37,16,29,0.8,1.7
2022-05-22T12:00:00,1763A,123.7169,41.3094,本溪市,彩屯,,46,44,84,20,61,204,146,87,87,10,37,15,20,0.7,1.9
2022-05-22T12:00:00,1764A,123.7669,41.2864,本溪市,东明,颗粒物(PM10),51,51,71,18,35,186,141,94,94,11,22,11,11,0.8,1
2022-05-22T12:00:00,1765A,123.7992,41.2664,本溪市,新立屯,,45,29,69,21,47,186,144,118,95,3,16,6,9,0.9,1.1
2022-05-22T12:00:00,1766A,123.8142,41.3472,本溪市,威宁,颗粒物(PM10),51,52,70,22,43,199,123,84,84,8,23,12,13,0.8,1
2022-05-22T12:00:00,1767A,121.1115,41.0879,锦州市,南山,颗粒物(PM10),59,67,75,35,54,173,162,104,104,13,21,15,12,0.6,0.6
2022-05-22T12:00:00,1768A,121.0533,40.8434,锦州市,开发区,颗粒物(PM10),80,110,114,46,55,166,166,89,89,14,42,15,16,1.1,1.1
2022-05-22T12:00:00,1769A,121.1836,41.1119,锦州市,百股街道,臭氧1小时,80,70,86,43,48,204,184,107,107,13,24,13,12,1.2,1.2
2022-05-22T12:00:00,1770A,121.1178,41.1222,锦州市,天安街道,臭氧1小时,73,81,94,20,33,203,178,119,119,17,27,17,16,1.2,1.1
2022-05-22T12:00:00,1771A,121.1303,41.1386,锦州市,北湖公园,颗粒物(PM10),67,83,73,35,43,189,172,114,114,13,21,14,14,1.0,0.9
2022-05-22T12:00:00,1772A,126.54,43.8622,吉林市,哈达湾,,36,19,26,8,11,131,114,97,89,5,15,6,14,0.7,0.9
2022-05-22T12:00:00,1773A,126.5844,43.8358,吉林市,东局子,,34,12,23,5,9,127,108,85,85,7,18,5,7,0.4,0.5
2022-05-22T12:00:00,1774A,126.5052,43.8245,吉林市,电力学院,,38,20,24,6,9,143,121,96,83,10,14,16,14,0.6,0.6
2022-05-22T12:00:00,1775A,126.6133,43.8972,吉林市,江北,,36,9,24,1,9,129,114,88,88,4,28,8,10,0.5,0.6
2022-05-22T12:00:00,1776A,126.555,43.8306,吉林市,江南公园,,,,19,,11,124,,89,76,7,16,5,8,0.4,0.5
2022-05-22T12:00:00,1778A,126.7061,43.7133,吉林市,丰满(对照点),,45,45,43,16,11,134,103,88,88,4,6,4,4,0.6,0.6
2022-05-22T12:00:00,1779A,123.9305,47.3636,齐齐哈尔市,安居小区,,27,27,31,8,11,96,81,51,51,14,21,4,4,0.5,0.5
2022-05-22T12:00:00,1780A,123.9488,47.3386,齐齐哈尔市,中心广场,,27,19,21,6,8,98,86,66,51,10,19,4,4,0.3,0.4
2022-05-22T12:00:00,1781A,123.9483,47.3227,齐齐哈尔市,农牧车辆厂,,34,34,30,6,7,104,87,55,52,8,15,3,4,0.2,0.2
2022-05-22T12:00:00,1783A,123.945,47.2988,齐齐哈尔市,市环境监测站,细颗粒物(PM2.5),73,33,33,53,24,104,92,64,52,10,18,4,4,0.4,0.5
2022-05-22T12:00:00,1784A,129.61,44.561,牡丹江市,环保大楼,,31,31,28,4,10,127,86,65,65,4,11,3,4,0.3,0.4
2022-05-22T12:00:00,1785A,129.6115,44.5782,牡丹江市,文化广场,,24,11,28,11,17,122,76,57,55,9,16,2,4,0.2,0.3
2022-05-22T12:00:00,1786A,129.5904,44.5963,牡丹江市,第一医院,,,,,,,121,78,54,54,5,13,3,4,0.5,0.6
2022-05-22T12:00:00,1787A,129.6364,44.6075,牡丹江市,机车工厂,,24,23,33,5,12,125,76,55,55,29,16,7,9,0.2,0.3
2022-05-22T12:00:00,1788A,129.6386,44.5462,牡丹江市,第一中学,,27,9,24,4,11,128,86,63,63,5,12,2,2,0.3,0.3
2022-05-22T12:00:00,1789A,124.81117,46.03138,大庆市,大同区,,,,23,,8,104,,62,55,4,9,5,4,0.4,0.5
2022-05-22T12:00:00,1790A,125.129,46.533,大庆市,龙凤区,,25,11,24,4,10,97,80,58,58,6,17,5,5,0.1,0.2
2022-05-22T12:00:00,1791A,124.902,46.408,大庆市,红岗区,,32,13,21,11,10,105,102,70,70,5,12,15,13,0.5,0.5
2022-05-22T12:00:00,1792A,125.153,46.586,大庆市,萨尔图区,,28,9,16,5,8,104,88,66,66,5,9,4,4,0.5,0.6
2022-05-22T12:00:00,1793A,124.9042,46.6215,大庆市,让胡路区,,35,22,25,12,17,116,109,71,71,10,14,14,14,0.2,0.3
2022-05-22T12:00:00,1794A,118.3606,31.3519,芜湖市,监测站,,46,44,58,15,27,191,147,123,111,16,28,8,11,0.4,0.6
2022-05-22T12:00:00,1795A,118.3714,31.4134,芜湖市,科创中心,,45,30,57,17,31,201,143,116,109,13,30,8,9,0.3,0.6
2022-05-22T12:00:00,1796A,118.3673,31.3131,芜湖市,四水厂,,46,43,64,14,34,196,146,112,112,13,26,7,9,0.4,0.7
2022-05-22T12:00:00,1798A,118.5092,31.6837,马鞍山市,湖东路四小,臭氧1小时,74,34,54,22,33,210,179,136,136,14,22,5,6,0.4,0.7
2022-05-22T12:00:00,1799A,118.5024,31.6449,马鞍山市,开发区,臭氧1小时,65,42,70,24,37,215,172,114,114,9,36,10,11,0.7,1
2022-05-22T12:00:00,1800A,118.5228,31.7231,马鞍山市,慈湖,,50,37,63,20,31,186,160,115,115,12,25,10,15,0.5,0.7
2022-05-22T12:00:00,1802A,118.6245,31.7241,马鞍山市,濮塘(对照点),臭氧1小时,52,26,50,13,29,182,161,117,117,5,8,9,10,0.5,0.7
2022-05-22T12:00:00,1803A,115.9872,29.6815,九江市,十里,颗粒物(PM10),57,63,60,38,41,195,158,86,78,26,32,11,8,0.8,0.8
2022-05-22T12:00:00,1804A,115.9584,29.7046,九江市,茅山头,细颗粒物(PM2.5),57,57,56,40,41,190,156,65,65,16,27,7,6,0.6,0.6
2022-05-22T12:00:00,1805A,115.9877,29.7295,九江市,西园,颗粒物(PM10),57,63,63,36,41,180,142,57,57,36,36,13,8,0.8,0.8
2022-05-22T12:00:00,1806A,116.0172,29.6547,九江市,五七二七厂,颗粒物(PM10),53,56,57,28,30,210,158,99,99,18,7,8,7,0.6,0.5
2022-05-22T12:00:00,1808A,115.9114,29.6038,九江市,综合工业园,,41,40,59,22,38,204,131,60,60,10,35,8,9,0.6,0.7
2022-05-22T12:00:00,1809A,116.0721,29.7535,九江市,石化总厂,细颗粒物(PM2.5),54,49,67,38,42,176,144,80,80,12,35,10,9,0.5,0.6
2022-05-22T12:00:00,1810A,115.9773,29.5698,九江市,庐山气象台(对照点),,36,22,35,25,31,177,109,136,114,7,7,8,8,0.7,0.8
2022-05-22T12:00:00,1812A,112.3931,34.6516,洛阳市,市委党校,,46,44,52,20,23,179,147,112,100,6,10,6,13,0.5,0.6
2022-05-22T12:00:00,1814A,112.4657,34.6871,洛阳市,豫西宾馆,,49,46,56,25,27,185,154,106,106,6,16,3,9,0.4,0.5
2022-05-22T12:00:00,1815A,112.494,34.6886,洛阳市,河南林校,颗粒物(PM10),59,68,59,41,30,187,158,104,104,11,20,10,12,0.3,0.3
2022-05-22T12:00:00,1816A,112.3844,34.623,洛阳市,开发区管委会,,49,43,53,24,28,186,154,108,95,10,16,6,11,0.3,0.3
2022-05-22T12:00:00,1817A,112.4267,34.6258,洛阳市,市委新办公区,,49,46,51,24,26,175,155,112,97,9,15,8,13,0.4,0.4
2022-05-22T12:00:00,1818A,114.4839,36.0621,安阳市,棉研所(对照点),颗粒物(PM10),66,81,72,31,27,192,141,85,83,10,17,6,10,0.6,0.6
2022-05-22T12:00:00,1819A,114.3551,36.1017,安阳市,红庙街,颗粒物(PM10),66,82,76,28,28,209,156,77,77,16,29,14,17,0.5,0.7
2022-05-22T12:00:00,1820A,114.361,36.0681,安阳市,银杏小区,,,97,82,31,29,212,,76,51,,31,14,12,0.6,0.8
2022-05-22T12:00:00,1824A,114.3389,34.7781,开封市,肿瘤医院,颗粒物(PM10),58,66,65,24,26,181,149,93,92,3,14,9,8,0.5,0.6
2022-05-22T12:00:00,1826A,114.2885,34.7965,开封市,世纪星幼儿园,颗粒物(PM10),58,66,59,12,23,184,151,111,98,8,14,11,7,0.5,0.6
2022-05-22T12:00:00,1828A,113.2269,35.2127,焦作市,市环保局,,50,46,48,29,26,198,157,104,84,14,24,6,5,0.4,0.4
2022-05-22T12:00:00,1830A,113.1987,35.2703,焦作市,影视城(对照点),,47,43,39,28,19,187,148,130,119,20,13,14,11,0.5,0.5
2022-05-22T12:00:00,1832A,113.3257,33.742,平顶山市,新华旅馆,,48,48,62,30,29,155,141,95,93,6,12,3,3,0.0,0.1
2022-05-22T12:00:00,1833A,113.2919,33.737,平顶山市,规划设计院,,44,41,44,18,19,149,140,92,92,10,15,4,4,0.4,0.4
2022-05-22T12:00:00,1834A,113.182,33.774,平顶山市,平顶山工学院,,48,48,50,24,29,146,126,94,91,8,11,3,3,0.4,0.4
2022-05-22T12:00:00,1835A,111.1922,34.7752,三门峡市,市政府,颗粒物(PM10),54,58,50,30,22,190,149,81,81,20,40,11,10,0.5,0.4
2022-05-22T12:00:00,1836A,111.1587,34.7942,三门峡市,开发区,颗粒物(PM10),51,52,60,22,23,181,135,77,77,3,21,5,9,0.5,0.7
2022-05-22T12:00:00,1838A,111.143,34.7955,三门峡市,风景区(对照点),,,61,54,26,21,185,142,78,71,,15,6,7,0.5,0.7
2022-05-22T12:00:00,1840A,111.2992,30.6981,宜昌市,白龙岗,细颗粒物(PM2.5),64,66,50,46,32,174,83,60,40,29,25,10,7,0.5,0.4
2022-05-22T12:00:00,1841A,111.3549,30.6465,宜昌市,伍家岗,细颗粒物(PM2.5),58,55,56,41,37,156,65,34,34,38,32,8,6,0.5,0.4
2022-05-22T12:00:00,1842A,111.2628,30.6961,宜昌市,点军区,"颗粒物(PM10),细颗粒物(PM2.5)",58,65,57,41,38,166,73,40,35,30,22,6,5,0.5,0.4
2022-05-22T12:00:00,1843A,111.3275,30.7819,宜昌市,夷陵区,细颗粒物(PM2.5),55,55,49,39,32,153,95,62,49,19,18,9,6,0.4,0.3
2022-05-22T12:00:00,1844A,112.2494,30.3197,荆州市,市图书馆,颗粒物(PM10),58,66,63,34,41,142,127,76,76,16,38,8,12,0.7,0.8
2022-05-22T12:00:00,1845A,112.2008,30.3544,荆州市,市委党校,细颗粒物(PM2.5),59,64,65,42,41,158,121,69,69,19,35,12,15,0.7,0.7
2022-05-22T12:00:00,1847A,113.1094,29.3578,岳阳市,南湖风景区,颗粒物(PM10),56,62,53,36,36,158,125,49,49,14,34,15,12,0.8,0.9
2022-05-22T12:00:00,1848A,113.1493,29.4251,岳阳市,城陵矶,细颗粒物(PM2.5),72,80,62,52,35,142,59,39,39,65,56,26,16,0.8,0.7
2022-05-22T12:00:00,1849A,113.1497,29.3575,岳阳市,开发区,颗粒物(PM10),58,66,58,37,31,150,121,47,47,12,34,15,11,0.8,0.8
2022-05-22T12:00:00,1850A,113.2621,29.4758,岳阳市,云溪区,,42,40,42,29,31,114,99,52,52,15,15,18,10,0.9,0.9
2022-05-22T12:00:00,1851A,112.9943,29.4402,岳阳市,君山区,细颗粒物(PM2.5),67,66,55,48,45,151,99,40,40,15,27,13,7,0.9,1
2022-05-22T12:00:00,1852A,113.2117,29.355,岳阳市,金凤水库(对照点),细颗粒物(PM2.5),62,55,40,44,28,141,104,79,50,11,14,13,9,0.7,0.6
2022-05-22T12:00:00,1854A,111.6975,28.9703,常德市,市二中,颗粒物(PM10),52,54,43,22,25,130,67,39,34,12,14,15,8,0.6,0.6
2022-05-22T12:00:00,1857A,111.7158,29.1456,常德市,白鹤山(对照点),细颗粒物(PM2.5),67,40,38,48,32,115,72,77,51,10,6,7,6,0.6,0.5
2022-05-22T12:00:00,1858A,110.5319,29.1217,张家界市,永定新区,细颗粒物(PM2.5),77,73,40,56,34,108,31,40,23,27,14,2,2,0.8,0.6
2022-05-22T12:00:00,1859A,110.4697,29.1242,张家界市,电业局,细颗粒物(PM2.5),63,44,30,45,31,103,21,32,23,23,14,2,2,0.4,0.2
2022-05-22T12:00:00,1860A,110.5594,29.3547,张家界市,未央路,颗粒物(PM10),68,85,44,29,24,102,36,31,24,13,6,2,2,0.4,0.4
2022-05-22T12:00:00,1861A,110.4417,29.315,张家界市,袁家界(对照点),,25,24,39,3,6,132,80,87,80,6,7,7,7,0.2,0.2
2022-05-22T12:00:00,1862A,110.4144,25.3167,桂林市,电子科大尧山校区(对照点),,32,24,36,22,27,75,71,49,49,4,5,5,6,0.7,0.7
2022-05-22T12:00:00,1863A,110.2819,25.2697,桂林市,监测站,,43,36,58,30,43,78,61,44,44,18,18,3,7,0.7,0.8
2022-05-22T12:00:00,1864A,110.3089,25.2708,桂林市,龙隐路小学,颗粒物(PM10),52,54,54,28,38,73,66,48,48,10,18,6,10,0.7,0.8
2022-05-22T12:00:00,1865A,110.2869,25.2178,桂林市,八中,,32,32,47,20,36,70,70,44,44,12,18,6,10,0.6,0.6
2022-05-22T12:00:00,1866A,109.2262,21.588,北海市,牛尾岭水库(对照点),,35,30,35,24,25,106,68,36,35,8,10,6,5,0.4,0.5
2022-05-22T12:00:00,1867A,109.1436,21.4086,北海市,海滩公园,,28,25,32,10,17,122,88,54,54,3,6,5,5,0.7,0.8
2022-05-22T12:00:00,1869A,109.1778,21.5233,北海市,北海工业园,,39,39,45,17,30,127,63,44,34,10,11,6,8,0.6,0.6
2022-05-22T12:00:00,1870A,109.4856,24.3895,柳州市,柳东小学,细颗粒物(PM2.5),54,34,35,38,38,68,58,50,50,4,9,11,14,0.9,0.9
2022-05-22T12:00:00,1871A,109.4157,24.3277,柳州市,环保监测站,,43,30,32,30,34,58,52,46,46,10,19,6,9,0.9,0.9
2022-05-22T12:00:00,1873A,109.4311,24.2921,柳州市,市四中,,42,39,47,29,29,64,48,41,41,15,17,6,9,0.9,0.9
2022-05-22T12:00:00,1874A,109.4006,24.3631,柳州市,市九中,,39,30,46,27,35,58,58,41,41,6,20,5,12,1.0,1.1
2022-05-22T12:00:00,1875A,109.4958,24.3134,柳州市,古亭山,,38,27,35,26,30,68,59,48,48,6,11,4,5,0.5,0.6
2022-05-22T12:00:00,1876A,109.5078,18.2489,三亚市,河东子站,,27,27,10,6,6,69,52,51,48,3,3,2,2,0.4,0.4
2022-05-22T12:00:00,1877A,109.4964,18.2681,三亚市,河西子站,,17,16,9,5,5,69,53,50,46,3,3,2,1,0.3,0.3
2022-05-22T12:00:00,1878A,104.7778,31.4741,绵阳市,富乐山,颗粒物(PM10),52,54,47,33,32,125,125,43,43,17,27,5,5,0.7,0.8
2022-05-22T12:00:00,1879A,104.7563,31.4535,绵阳市,市人大,细颗粒物(PM2.5),74,68,75,54,50,125,125,46,46,12,39,8,11,0.5,0.6
2022-05-22T12:00:00,1880A,104.6697,31.4668,绵阳市,高新区自来水公司,细颗粒物(PM2.5),85,71,70,63,51,124,124,43,43,12,38,5,8,0.6,0.8
2022-05-22T12:00:00,1881A,104.7287,31.5075,绵阳市,三水厂,细颗粒物(PM2.5),79,85,81,58,56,122,122,40,40,16,34,8,9,0.8,1
2022-05-22T12:00:00,1883A,104.6201,28.7728,宜宾市,市委,,45,41,40,31,26,61,57,43,38,18,30,7,6,0.6,0.6
2022-05-22T12:00:00,1884A,104.6055,28.793,宜宾市,宜宾四中,,45,41,43,31,27,56,56,41,38,19,33,7,6,0.5,0.6
2022-05-22T12:00:00,1885A,104.639,28.7562,宜宾市,市政府,,46,44,42,32,24,71,49,59,49,24,33,6,6,0.7,0.6
2022-05-22T12:00:00,1886A,104.5742,28.7199,宜宾市,黄金嘴,,35,33,36,24,22,56,46,47,38,14,21,6,6,0.6,0.6
2022-05-22T12:00:00,1888A,101.6891,26.571,攀枝花市,弄弄坪,,14,10,37,6,22,106,42,49,39,16,18,5,9,1.0,1
2022-05-22T12:00:00,1889A,101.5769,26.5928,攀枝花市,河门口,,23,11,54,16,32,102,23,20,15,28,43,12,30,2.2,2.8
2022-05-22T12:00:00,1890A,101.7169,26.585,攀枝花市,炳草岗,,19,19,34,11,27,100,39,48,35,21,22,17,28,0.7,0.7
2022-05-22T12:00:00,1891A,101.7369,26.5008,攀枝花市,仁和,,17,5,45,2,29,112,54,44,44,17,20,5,17,0.7,0.9
2022-05-22T12:00:00,1893A,105.4324,28.9634,泸州市,九狮山(对照点),,37,37,42,11,24,79,51,42,42,12,18,6,9,0.5,0.5
2022-05-22T12:00:00,1894A,105.4427,28.9063,泸州市,小市上码头,,50,50,48,20,25,79,44,43,43,20,23,17,19,0.6,0.6
2022-05-22T12:00:00,1895A,105.4241,28.8573,泸州市,兰田宪桥,,41,41,48,14,21,70,49,46,46,15,21,8,21,0.5,0.6
2022-05-22T12:00:00,1896A,105.4379,28.8833,泸州市,市环监站,,,,51,,21,68,49,48,48,,29,,12,0.5,0.6
2022-05-22T12:00:00,1901A,104.4239,31.1208,德阳市,东山公园,,44,44,46,17,29,116,116,61,61,13,27,5,6,0.4,0.6
2022-05-22T12:00:00,1902A,104.3826,31.1317,德阳市,西小区,颗粒物(PM10),54,58,66,28,36,112,112,49,49,20,38,8,7,0.5,0.7
2022-05-22T12:00:00,1904A,104.3553,31.1091,德阳市,耐火材料厂,,50,50,57,24,29,114,114,52,52,23,40,7,7,0.5,0.6
2022-05-22T12:00:00,1905A,106.056,30.8064,南充市,西山风景区(对照点),,38,29,39,26,35,110,81,64,57,8,11,4,3,0.4,0.5
2022-05-22T12:00:00,1906A,106.0789,30.8023,南充市,南充市委,,37,37,51,19,30,113,85,80,80,17,18,2,2,0.5,0.6
2022-05-22T12:00:00,1907A,106.1031,30.8217,南充市,南充炼油厂,,40,40,52,20,31,119,82,63,63,9,11,1,2,0.5,0.6
2022-05-22T12:00:00,1908A,106.1064,30.7856,南充市,高坪区监测站,,25,25,43,17,31,112,80,64,64,12,20,1,2,0.4,0.6
2022-05-22T12:00:00,1909A,106.0642,30.7636,南充市,嘉陵区环保局,,31,31,39,0,29,98,91,83,83,9,24,4,5,0.4,0.6
2022-05-22T12:00:00,1910A,106.1087,30.8388,南充市,市环境监测站,,35,27,47,24,34,118,102,86,86,15,17,1,2,0.4,0.5
2022-05-22T12:00:00,1911A,106.9222,27.6869,遵义市,丁字口,,33,33,36,14,23,89,67,64,64,20,21,7,6,0.6,0.7
2022-05-22T12:00:00,1912A,106.9242,27.7019,遵义市,凤凰山,,18,16,24,6,16,109,55,61,59,20,19,5,5,0.5,0.5
2022-05-22T12:00:00,1913A,106.8906,27.6486,遵义市,忠庄,,28,18,31,19,21,81,67,64,64,23,16,3,2,0.3,0.4
2022-05-22T12:00:00,1914A,106.9231,27.6506,遵义市,舟水桥,,26,24,26,18,21,81,70,70,70,20,13,2,2,0.3,0.3
2022-05-22T12:00:00,1915A,106.9178,27.72,遵义市,干田坝,,20,17,31,13,22,82,63,66,66,17,11,5,6,0.5,0.6
2022-05-22T12:00:00,1916A,103.7897,25.5035,曲靖市,环境监测站,,20,3,14,14,13,55,35,40,31,20,22,5,6,0.8,1
2022-05-22T12:00:00,1917A,103.8,25.5364,曲靖市,烟厂办公区,,12,6,11,4,9,71,38,51,36,14,13,4,4,0.8,0.8
2022-05-22T12:00:00,1918A,108.7197,34.3956,咸阳市,气象站(对照点),,,,71,17,26,200,119,47,47,16,35,7,7,0.7,0.7
2022-05-22T12:00:00,1919A,108.673,34.3155,咸阳市,实验中学,,37,28,68,15,26,167,116,36,36,13,38,5,4,0.2,0.3
2022-05-22T12:00:00,1920A,108.7233,34.3617,咸阳市,师范学院,,50,50,66,19,28,216,123,47,47,17,36,6,6,0.5,0.6
2022-05-22T12:00:00,1922A,109.0656,35.0994,铜川市,党校(对照点),颗粒物(PM10),51,51,50,23,25,163,137,68,68,32,53,9,8,0.6,0.6
2022-05-22T12:00:00,1923A,109.0697,35.0697,铜川市,王益区政府,颗粒物(PM10),54,58,60,30,32,167,152,74,74,16,39,8,9,0.6,0.6
2022-05-22T12:00:00,1924A,108.9344,34.9058,铜川市,新区管委会,,43,38,54,24,29,174,136,92,92,14,18,8,8,0.5,0.5
2022-05-22T12:00:00,1926A,109.4131,36.6275,延安市,枣园(对照点),,44,34,36,20,17,174,138,53,53,10,22,4,4,0.5,0.5
2022-05-22T12:00:00,1927A,109.4761,36.6028,延安市,延大医附院,,44,44,41,20,18,180,138,54,54,11,25,4,4,0.5,0.5
2022-05-22T12:00:00,1929A,109.5056,36.6106,延安市,百米大道,颗粒物(PM10),51,51,52,20,20,175,145,50,50,21,31,5,4,0.7,0.6
2022-05-22T12:00:00,1930A,107.185,34.3063,宝鸡市,庙沟村(对照点),,,31,34,14,14,125,,76,73,,15,,4,0.4,0.4
2022-05-22T12:00:00,1931A,107.0708,34.3017,宝鸡市,竹园沟,,39,17,23,15,14,157,124,102,78,9,9,6,6,0.4,0.4
2022-05-22T12:00:00,1932A,107.1906,34.3672,宝鸡市,三陆医院,,36,34,40,9,18,151,115,52,52,11,27,5,7,0.4,0.5
2022-05-22T12:00:00,1933A,107.1431,34.3547,宝鸡市,监测站,,36,23,35,10,18,161,115,65,57,11,21,4,5,0.5,0.6
2022-05-22T12:00:00,1934A,107.1186,34.3739,宝鸡市,技工学校,,38,36,36,9,15,164,120,83,75,16,16,4,5,0.4,0.4
2022-05-22T12:00:00,1935A,107.3906,34.3528,宝鸡市,陈仓区环保局家属楼,,42,42,51,13,20,165,105,50,50,14,33,9,15,0.5,0.6
2022-05-22T12:00:00,1936A,107.2058,34.3497,宝鸡市,文理学院,,37,22,36,14,18,155,116,64,64,14,24,6,8,0.3,0.3
2022-05-22T12:00:00,1937A,107.2386,34.3622,宝鸡市,三迪小学,,36,18,38,11,17,152,115,59,59,11,29,7,8,0.3,0.4
2022-05-22T12:00:00,1938A,109.5293,34.5101,渭南市,农科所(对照点),细颗粒物(PM2.5),58,48,46,41,33,162,150,87,87,17,23,11,13,0.5,0.5
2022-05-22T12:00:00,1939A,109.4974,34.4877,渭南市,日报社,颗粒物(PM10),59,68,62,29,27,182,146,64,56,8,29,9,10,0.4,0.5
2022-05-22T12:00:00,1940A,109.4636,34.493,渭南市,体育馆,颗粒物(PM10),58,66,55,24,24,186,140,96,67,23,34,7,9,0.5,0.5
2022-05-22T12:00:00,1941A,109.4259,34.5023,渭南市,高新一小,颗粒物(PM10),63,75,76,24,29,174,123,54,54,24,38,9,8,0.5,0.5
2022-05-22T12:00:00,1943A,102.1725,38.5339,金昌市,新川苑,颗粒物(PM10),71,91,72,11,13,151,125,89,89,15,23,14,14,0.5,0.5
2022-05-22T12:00:00,1944A,102.1692,38.5167,金昌市,天庆家园,,,,64,,18,149,,69,69,,27,11,15,0.3,0.5
2022-05-22T12:00:00,1945A,98.2908,39.7711,嘉峪关市,气象局,,39,39,57,22,16,131,121,100,87,4,12,6,4,0.5,0.5
2022-05-22T12:00:00,1947A,106.3394,38.817,石嘴山市,沙湖旅游区(对照点),颗粒物(PM10),52,54,133,24,33,166,119,85,81,11,17,44,33,0.4,0.4
2022-05-22T12:00:00,1948A,106.3668,39.0145,石嘴山市,大武口朝阳西街,颗粒物(PM10),71,92,133,30,39,160,120,78,78,19,20,42,16,0.8,0.7
2022-05-22T12:00:00,1949A,106.7704,39.2282,石嘴山市,惠农南大街,颗粒物(PM10),54,58,105,26,38,170,134,87,87,11,17,15,10,0.6,0.5
2022-05-22T12:00:00,1950A,106.7099,39.1325,石嘴山市,红果子镇惠新街,颗粒物(PM10),68,86,183,41,44,144,111,72,62,17,21,14,10,0.6,0.5
2022-05-22T12:00:00,1951A,84.895,45.6094,克拉玛依市,长征新村,,30,20,27,0,4,109,95,101,85,12,9,5,5,0.2,0.2
2022-05-22T12:00:00,1952A,84.8988,45.5893,克拉玛依市,南林小区,,44,44,30,12,12,115,70,108,46,31,20,8,8,0.4,0.3
2022-05-22T12:00:00,1954A,84.905,44.3396,克拉玛依市,独山子区,,48,48,35,10,12,131,106,95,95,8,10,6,6,0.4,0.4
2022-05-22T12:00:00,1955A,85.6979,46.098,克拉玛依市,乌尔禾区商贸楼,,39,39,21,3,5,111,88,84,66,6,9,12,10,0.4,0.3
2022-05-22T12:00:00,1956A,86.1472,41.7538,巴音郭楞州,孔雀公园,,,42,39,14,9,125,113,99,99,10,12,,2,0.2,0.4
2022-05-22T12:00:00,1957A,86.1972,41.7166,巴音郭楞州,棉纺厂,,35,35,31,10,15,113,99,88,88,12,19,4,2,0.3,0.2
2022-05-22T12:00:00,1958A,86.2357,41.7173,巴音郭楞州,经济开发区,,48,48,43,16,14,122,105,93,93,7,10,2,2,0.2,0.1
2022-05-22T12:00:00,1961A,117.532,36.6868,济南市,东山小学,臭氧1小时,84,49,65,22,24,203,187,160,155,8,16,9,10,0.3,0.2
2022-05-22T12:00:00,1966A,120.0405,35.8735,青岛市,黄岛区4号,细颗粒物(PM2.5),64,73,78,46,46,172,166,136,111,33,33,15,12,0.7,0.7
2022-05-22T12:00:00,1982A,122.0693,37.2174,威海市,文登开发区,臭氧1小时,95,61,69,27,39,196,196,160,160,14,22,8,7,0.4,0.5
2022-05-22T12:00:00,2031A,113.1817,27.9958,株洲市,云田中学,细颗粒物(PM2.5),55,51,42,39,30,144,73,74,55,19,16,9,5,0.8,0.7
2022-05-22T12:00:00,2054A,114.1099,32.1059,信阳市,平桥分局,,48,39,36,33,25,181,130,90,90,25,18,8,8,0.7,0.7
2022-05-22T12:00:00,2064A,113.9956,32.1271,信阳市,南湾水厂,细颗粒物(PM2.5),52,49,43,36,23,171,147,98,98,11,11,8,7,0.5,0.5
2022-05-22T12:00:00,2065A,114.0775,32.1195,信阳市,市酿酒公司,细颗粒物(PM2.5),53,52,32,37,30,178,158,97,97,23,19,7,6,0.7,0.6
2022-05-22T12:00:00,2066A,114.0609,32.1399,信阳市,审计局,,49,49,44,29,30,162,156,95,95,21,19,8,7,0.5,0.4
2022-05-22T12:00:00,2067A,114.6613,33.6128,周口市,市环境监测站,"颗粒物(PM10),臭氧1小时",52,53,48,19,24,161,161,122,94,7,18,5,7,0.5,0.5
2022-05-22T12:00:00,2068A,114.6758,33.6347,周口市,周口师范,,,56,47,20,22,157,154,118,92,,16,7,9,,0.5
2022-05-22T12:00:00,2069A,114.6546,33.5979,周口市,市运管处,,49,46,53,25,22,158,155,118,90,10,19,4,5,0.4,0.4
2022-05-22T12:00:00,2070A,114.6369,33.6406,周口市,川汇区环保局,,49,46,47,20,23,156,154,122,99,10,16,4,5,0.8,0.8
2022-05-22T12:00:00,2075A,117.6336,24.4674,漳州市,九湖(对照点),,40,40,52,22,31,82,82,55,55,21,29,14,7,0.4,0.5
2022-05-22T12:00:00,2160A,112.85,35.5051,晋城市,自来水公司,臭氧1小时,68,40,60,14,25,223,174,77,77,18,49,11,11,0.8,0.8
2022-05-22T12:00:00,2161A,112.8318,35.4936,晋城市,白云商贸,臭氧1小时,83,56,70,27,25,227,186,95,95,14,37,10,9,0.7,0.6
2022-05-22T12:00:00,2162A,112.8508,35.4887,晋城市,市环保局,臭氧1小时,72,57,87,24,26,224,177,72,72,14,48,13,12,0.8,0.7
2022-05-22T12:00:00,2163A,112.8676,35.4897,晋城市,技术学院,臭氧1小时,73,51,67,19,24,222,178,88,88,15,37,8,8,0.7,0.6
2022-05-22T12:00:00,2165A,112.8453,35.546,晋城市,白马寺 (对照点),臭氧1小时,100,71,69,24,21,234,200,148,128,18,24,7,8,1.1,0.9
2022-05-22T12:00:00,2166A,112.4397,39.3522,朔州市,平朔,颗粒物(PM10),53,56,92,30,35,175,150,60,60,24,53,8,12,0.4,0.6
2022-05-22T12:00:00,2167A,112.4575,39.3617,朔州市,朔唯,,49,46,113,27,34,180,154,65,65,27,53,13,14,0.6,0.6
2022-05-22T12:00:00,2168A,112.4258,39.3197,朔州市,区政府,颗粒物(PM10),56,62,80,17,31,181,154,72,72,22,40,12,14,0.5,0.6
2022-05-22T12:00:00,2169A,112.4072,39.3278,朔州市,市环保局,颗粒物(PM10),60,69,90,22,28,172,143,74,74,24,39,14,16,0.6,0.5
2022-05-22T12:00:00,2170A,112.4272,39.3681,朔州市,市二中,颗粒物(PM10),62,73,100,29,40,169,144,57,57,25,54,17,18,0.5,0.6
2022-05-22T12:00:00,2171A,112.7532,37.6945,晋中市,锦纶小区,颗粒物(PM10),84,117,57,60,26,192,150,83,83,30,37,29,10,0.8,0.4
2022-05-22T12:00:00,2173A,112.7249,37.7067,晋中市,南都小区,颗粒物(PM10),89,128,66,59,27,191,147,71,71,32,42,19,7,0.8,0.4
2022-05-22T12:00:00,2174A,112.6991,37.6982,晋中市,榆次区政府,颗粒物(PM10),84,117,59,42,29,177,135,60,60,29,39,18,7,0.9,0.5
2022-05-22T12:00:00,2175A,110.9956,35.0147,运城市,运城中学,颗粒物(PM10),67,83,60,37,32,167,153,117,98,10,14,9,9,0.5,0.5
2022-05-22T12:00:00,2178A,110.9686,35.0303,运城市,地区技校,颗粒物(PM10),68,86,60,28,26,171,157,115,82,11,15,10,7,0.6,0.5
2022-05-22T12:00:00,2179A,111.0414,35.1147,运城市,空港新区,颗粒物(PM10),69,87,74,42,33,182,169,123,88,11,20,10,9,0.5,0.4
2022-05-22T12:00:00,2181A,112.7383,38.4519,忻州市,开发区,颗粒物(PM10),65,80,48,32,27,165,107,69,69,35,29,34,16,0.4,0.3
2022-05-22T12:00:00,2182A,112.7003,38.4928,忻州市,会展中心,颗粒物(PM10),65,80,55,21,11,157,119,53,53,27,37,22,13,0.3,0.3
2022-05-22T12:00:00,2183A,111.1406,37.5211,吕梁市,环保局,臭氧1小时,77,48,51,29,23,202,181,72,72,23,46,13,8,1.2,0.6
2022-05-22T12:00:00,2185A,111.1297,37.5136,吕梁市,自来水公司,臭氧1小时,85,53,69,26,20,211,188,68,68,20,37,12,8,1.0,0.4
2022-05-22T12:00:00,2187A,106.8174,39.6973,乌海市,市林业局,颗粒物(PM10),86,121,107,28,27,161,112,103,70,47,24,42,26,1.2,0.8
2022-05-22T12:00:00,2188A,106.7907,39.6667,乌海市,中海勃湾学校,颗粒物(PM10),73,96,90,31,25,164,145,100,82,39,26,47,26,1.0,0.7
2022-05-22T12:00:00,2191A,122.2532,43.6801,通辽市,艺术职业学校,,50,50,76,18,34,148,125,91,91,11,16,5,6,0.0,0.1
2022-05-22T12:00:00,2192A,119.7594,49.2261,呼伦贝尔市,区环保局,,33,32,36,15,19,103,103,60,60,5,19,4,5,0.4,0.5
2022-05-22T12:00:00,2195A,107.4212,40.761,巴彦淖尔市,附二中,颗粒物(PM10),59,68,100,13,27,185,131,114,89,7,12,12,12,0.4,0.4
2022-05-22T12:00:00,2196A,107.37,40.7372,巴彦淖尔市,市环保大楼,颗粒物(PM10),65,80,105,20,34,176,133,118,99,3,5,6,6,0.4,0.4
2022-05-22T12:00:00,2197A,113.1306,40.9923,乌兰察布市,集宁新区,臭氧1小时,57,38,39,16,21,170,165,133,120,8,15,9,13,0.3,0.4
2022-05-22T12:00:00,2200A,122.0392,46.0656,兴安盟,胜华新制药厂,,29,20,37,8,17,116,92,74,62,10,17,2,3,0.2,0.3
2022-05-22T12:00:00,2201A,121.9504,46.0741,兴安盟,科右前旗环保局,,32,18,35,8,18,126,100,77,61,5,15,2,4,0.1,0.2
2022-05-22T12:00:00,2202A,116.1042,43.9317,锡林郭勒盟,市环保监测站,,34,27,31,10,9,111,107,93,82,2,6,11,10,0.2,0.3
2022-05-22T12:00:00,2203A,116.0781,43.9311,锡林郭勒盟,市政府,,35,14,24,12,9,115,109,98,83,5,7,5,8,0.4,0.4
2022-05-22T12:00:00,2204A,105.6467,38.8363,阿拉善盟,西城区西花园(对照点),,45,33,78,15,24,164,144,133,122,5,7,15,15,0.2,0.2
2022-05-22T12:00:00,2205A,105.6985,38.8411,阿拉善盟,蒙二幼,,45,37,88,24,29,163,141,136,124,6,8,8,9,0.3,0.2
2022-05-22T12:00:00,2206A,105.724,38.8516,阿拉善盟,环保局新楼,,43,35,61,21,33,167,136,140,127,7,8,7,8,0.2,0.3
2022-05-22T12:00:00,2207A,121.6094,41.998,阜新市,工业园区,颗粒物(PM10),55,59,67,4,24,186,146,122,106,12,23,9,18,0.7,0.8
2022-05-22T12:00:00,2208A,121.6697,42.0279,阜新市,长青街,,41,31,56,4,23,167,129,115,96,6,18,13,25,0.6,0.9
2022-05-22T12:00:00,2209A,121.6673,42.0705,阜新市,农业园区,,44,38,47,10,25,164,139,132,108,8,14,11,13,0.5,0.6
2022-05-22T12:00:00,2210A,121.6717,42.0224,阜新市,东苑,颗粒物(PM10),62,73,76,9,39,174,136,120,102,14,25,13,30,0.5,0.7
2022-05-22T12:00:00,2211A,121.6506,42.0498,阜新市,玉龙新城,,50,50,60,8,24,158,133,101,101,8,17,17,15,0.4,0.6
2022-05-22T12:00:00,2212A,123.2,41.1953,辽阳市,宏伟区,臭氧1小时,67,71,64,30,35,217,173,120,111,16,15,21,15,1.1,0.8
2022-05-22T12:00:00,2213A,123.1683,41.2495,辽阳市,新华园,臭氧1小时,65,71,74,33,41,220,172,107,107,18,21,26,13,0.9,0.6
2022-05-22T12:00:00,2214A,123.2354,41.2639,辽阳市,滨河路,臭氧1小时,68,63,74,43,49,218,174,115,108,16,19,27,16,0.7,0.7
2022-05-22T12:00:00,2215A,123.149,41.2991,辽阳市,铁西工业园,臭氧1小时,73,72,78,47,51,220,178,107,107,17,27,21,17,1.1,0.9
2022-05-22T12:00:00,2216A,123.8139,42.3022,铁岭市,汇工街西,,40,23,53,8,18,166,128,114,114,12,25,7,11,0.3,0.5
2022-05-22T12:00:00,2217A,123.8649,42.2923,铁岭市,水上乐园,,41,38,44,0,19,166,129,124,116,10,23,5,7,0.1,0.3
2022-05-22T12:00:00,2218A,123.8486,42.2867,铁岭市,银州路东段,,39,34,58,7,20,168,124,125,113,13,25,5,8,0.3,0.5
2022-05-22T12:00:00,2219A,123.7153,42.2217,铁岭市,金沙江路北,,40,18,50,7,18,166,127,118,111,13,28,5,7,0.4,0.7
2022-05-22T12:00:00,2220A,120.4318,41.5881,朝阳市,西梁,颗粒物(PM10),67,83,61,32,19,170,156,94,93,9,17,12,13,0.8,0.7
2022-05-22T12:00:00,2221A,120.4521,41.5646,朝阳市,河畔小区,颗粒物(PM10),63,76,57,29,18,180,160,98,98,9,15,11,13,0.7,0.7
2022-05-22T12:00:00,2222A,120.4176,41.5648,朝阳市,八里堡,颗粒物(PM10),90,130,79,50,29,177,165,105,97,10,15,12,13,0.8,0.7
2022-05-22T12:00:00,2223A,120.3806,41.5969,朝阳市,农业园区,细颗粒物(PM2.5),65,77,64,47,28,181,161,97,97,9,15,12,13,0.8,0.6
2022-05-22T12:00:00,2225A,124.4002,43.1713,四平市,一商场,,38,29,50,9,21,156,120,93,93,8,18,8,9,0.1,0.3
2022-05-22T12:00:00,2226A,124.388,43.193,四平市,境园,,37,12,34,2,12,160,117,88,88,5,12,2,3,0.2,0.3
2022-05-22T12:00:00,2227A,125.1358,42.8845,辽源市,环保局,,38,22,27,20,19,170,120,92,92,6,10,9,11,0.5,0.6
2022-05-22T12:00:00,2229A,125.9358,41.7173,通化市,光明,,37,37,28,20,15,178,116,108,88,10,13,24,17,0.9,0.8
2022-05-22T12:00:00,2230A,125.9446,41.7325,通化市,铁路,细颗粒物(PM2.5),52,48,29,36,17,172,116,112,84,8,17,16,19,0.7,1
2022-05-22T12:00:00,2231A,126.4219,41.9171,白山市,喜丰,,39,24,49,10,17,191,122,92,86,8,16,16,39,0.7,0.8
2022-05-22T12:00:00,2232A,126.4077,41.9419,白山市,环保局,,36,30,38,14,15,180,113,94,90,12,15,105,37,0.5,0.5
2022-05-22T12:00:00,2233A,124.8006,45.1214,松原市,江南,,31,13,15,8,12,102,98,75,73,7,10,2,3,0.3,0.3
2022-05-22T12:00:00,2234A,124.7965,45.1722,松原市,江北,,32,8,21,10,12,117,100,66,66,8,12,1,2,0.3,0.3
2022-05-22T12:00:00,2235A,122.7911,45.6077,白城市,洮北区环保局,,30,21,28,2,4,120,94,72,72,10,12,8,8,0.2,0.2
2022-05-22T12:00:00,2236A,122.8738,45.5725,白城市,市环保局,,25,17,31,7,16,97,79,59,59,19,20,5,5,0.3,0.3
2022-05-22T12:00:00,2237A,129.47,42.8883,延边朝鲜族自治州,妇幼医院,,31,29,34,6,13,137,97,73,73,5,13,6,6,0.4,0.5
2022-05-22T12:00:00,2238A,129.5055,42.9108,延边朝鲜族自治州,延边医院,,29,27,33,12,12,137,92,70,69,5,12,5,6,0.5,0.5
2022-05-22T12:00:00,2239A,129.3964,42.8881,延边朝鲜族自治州,朝阳川镇医院,,33,20,43,10,20,140,105,76,76,6,12,9,10,0.4,0.4
2022-05-22T12:00:00,2240A,130.9762,45.3001,鸡西市,环保局,,26,14,22,6,12,100,81,62,62,14,27,3,4,0.0,0.2
2022-05-22T12:00:00,2243A,130.9429,45.3039,鸡西市,第一中学,,27,13,25,1,10,112,85,63,63,14,24,5,8,0.2,0.3
2022-05-22T12:00:00,2244A,130.2537,47.3416,鹤岗市,哈啤分公司,,28,11,18,5,10,87,87,68,68,5,6,12,12,0.3,0.4
2022-05-22T12:00:00,2245A,130.2684,47.3086,鹤岗市,斯达机电,,28,8,18,3,8,89,89,70,70,4,8,6,6,0.3,0.3
2022-05-22T12:00:00,2246A,130.3114,47.3388,鹤岗市,东山纸板厂,,27,11,18,5,10,85,85,63,63,2,8,8,9,0.1,0.2
2022-05-22T12:00:00,2247A,130.1097,47.3382,鹤岗市,五号水库(对照点),,29,6,12,7,12,92,92,64,64,4,6,5,5,0.4,0.4
2022-05-22T12:00:00,2248A,131.1511,46.6937,双鸭山市,双合村,,27,8,17,8,12,112,84,64,64,7,14,5,6,0.2,0.3
2022-05-22T12:00:00,2249A,131.1652,46.6191,双鸭山市,南小市,,27,17,22,5,11,112,85,53,53,3,9,5,5,0.1,0.1
2022-05-22T12:00:00,2250A,131.1524,46.6554,双鸭山市,环保局,,28,11,22,6,14,115,88,63,63,6,14,2,3,0.2,0.3
2022-05-22T12:00:00,2251A,131.12,46.5656,双鸭山市,苗圃(对照点),,28,7,16,7,18,105,89,58,58,4,5,2,2,0.3,0.4
2022-05-22T12:00:00,2252A,128.5159,47.4311,伊春市,环保局,,26,6,12,0,8,83,83,47,47,6,9,5,6,0.2,0.1
2022-05-22T12:00:00,2253A,128.9102,47.7412,伊春市,电力嘉园,,29,11,22,8,15,92,92,54,54,5,6,5,6,0.4,0.4
2022-05-22T12:00:00,2254A,129.5029,48.471,伊春市,汤旺河国家公园(对照点),,31,8,8,4,4,98,98,62,62,1,1,15,10,0.3,0.2
2022-05-22T12:00:00,2255A,130.2751,46.8028,佳木斯市,佳纺,,,,14,4,12,99,79,54,54,4,12,,3,0.4,0.4
2022-05-22T12:00:00,2256A,130.3995,46.8307,佳木斯市,发电厂,,29,11,11,6,8,119,92,72,72,4,8,7,7,0.3,0.5
2022-05-22T12:00:00,2257A,130.3258,46.7975,佳木斯市,环保局,,25,18,17,7,11,106,80,54,54,7,18,4,6,0.4,0.4
2022-05-22T12:00:00,2258A,130.3648,46.8032,佳木斯市,十一中,,27,15,17,7,11,105,84,69,69,5,18,5,5,0.2,0.3
2022-05-22T12:00:00,2259A,130.3794,46.7588,佳木斯市,四丰(对照点),,27,19,17,11,10,111,86,61,61,8,14,6,4,0.6,0.5
2022-05-22T12:00:00,2262A,131.0518,45.8751,七台河市,新一中(对照点),,29,5,12,5,7,117,91,63,63,6,11,6,7,0.7,0.8
2022-05-22T12:00:00,2263A,127.4833,50.2524,黑河市,交通局,,27,8,13,7,8,84,84,59,59,5,8,3,6,0.3,0.3
2022-05-22T12:00:00,2264A,127.5144,50.2341,黑河市,环保局,,28,10,15,8,10,87,87,62,62,5,8,5,6,0.3,0.4
2022-05-22T12:00:00,2265A,127.5291,50.2472,黑河市,大黑河岛(对照点),,29,7,9,2,8,91,91,62,62,1,4,6,6,0.3,0.3
2022-05-22T12:00:00,2266A,126.9785,46.6365,绥化市,人和东街,,24,6,21,4,9,94,76,59,59,3,11,6,8,0.2,0.3
2022-05-22T12:00:00,2267A,126.964,46.6528,绥化市,党政办公中心,,25,3,14,2,9,96,79,70,61,4,9,5,6,0.2,0.3
2022-05-22T12:00:00,2269A,124.1069,50.4097,大兴安岭地区,科技局,,21,10,11,5,9,81,66,49,39,4,6,4,4,0.3,0.3
2022-05-22T12:00:00,2270A,117.396,32.939,蚌埠市,工人疗养院,臭氧1小时,100,66,75,33,40,207,200,135,135,8,21,8,15,0.3,0.5
2022-05-22T12:00:00,2271A,117.3605,32.9427,蚌埠市,百货大楼,臭氧1小时,100,82,88,40,38,212,200,135,135,10,27,9,15,0.5,0.6
2022-05-22T12:00:00,2273A,117.4185,32.8911,蚌埠市,蚌埠学院,臭氧1小时,95,58,72,36,37,210,196,132,132,9,23,10,15,0.4,0.5
2022-05-22T12:00:00,2274A,117.3533,32.9673,蚌埠市,淮上区政府,臭氧1小时,99,73,82,36,41,210,199,119,119,10,29,12,16,0.5,0.5
2022-05-22T12:00:00,2275A,117.3145,32.8977,蚌埠市,高新区,臭氧1小时,100,78,88,36,45,209,200,118,118,9,37,10,14,0.5,0.6
2022-05-22T12:00:00,2277A,116.8305,32.7727,淮南市,潘集区政府,,,,79,,54,211,211,127,127,,21,13,12,0.3,0.3
2022-05-22T12:00:00,2278A,117.0067,32.6524,淮南市,师范学院,臭氧1小时,100,74,77,47,39,200,200,120,120,11,29,10,10,0.5,0.6
2022-05-22T12:00:00,2279A,116.8569,32.5951,淮南市,谢家集区政府,臭氧1小时,100,75,71,45,37,200,200,143,133,13,22,8,7,0.4,0.4
2022-05-22T12:00:00,2280A,116.8281,32.633,淮南市,八公山区政府,臭氧1小时,95,70,62,43,36,196,196,146,129,12,19,10,5,0.4,0.3
2022-05-22T12:00:00,2281A,116.6325,32.6201,淮南市,焦岗湖风景区管理处(对照点),臭氧1小时,101,73,58,36,35,201,201,119,119,10,18,14,10,0.4,0.4
2022-05-22T12:00:00,2282A,116.8004,33.975,淮北市,监测站,臭氧1小时,94,71,65,35,38,195,195,130,130,3,14,14,16,0.4,0.5
2022-05-22T12:00:00,2283A,116.8091,33.9007,淮北市,烈山区政府,臭氧1小时,93,55,91,44,53,194,194,104,104,7,40,10,10,0.5,0.5
2022-05-22T12:00:00,2284A,116.7856,33.9477,淮北市,职业技术学院,臭氧1小时,89,67,75,29,39,191,191,115,113,7,19,10,9,0.5,0.5
2022-05-22T12:00:00,2285A,117.8177,30.9412,铜陵市,市第四中学,,48,37,43,17,28,224,151,143,95,8,19,7,8,0.2,0.4
2022-05-22T12:00:00,2286A,117.8059,30.9273,铜陵市,市公路局,,40,22,56,12,35,194,125,115,84,6,21,3,5,0.3,0.5
2022-05-22T12:00:00,2287A,117.7807,30.9413,铜陵市,市新民污水厂,颗粒物(PM10),59,68,66,35,36,224,141,125,74,24,30,19,9,0.6,0.4
2022-05-22T12:00:00,2288A,117.7439,30.8792,铜陵市,市第九中学,颗粒物(PM10),63,75,77,38,42,189,118,40,40,46,68,18,10,0.9,0.9
2022-05-22T12:00:00,2289A,117.846,30.9413,铜陵市,车站新区,,44,42,46,26,29,212,140,134,83,8,20,4,5,0.2,0.4
2022-05-22T12:00:00,2290A,117.8483,30.97,铜陵市,市职教基地,,45,43,55,15,30,205,142,112,88,10,15,4,6,0.4,0.6
2022-05-22T12:00:00,2291A,117.0809,30.5177,安庆市,环科院,细颗粒物(PM2.5),68,65,74,49,49,186,167,71,71,27,47,10,9,0.5,0.6
2022-05-22T12:00:00,2292A,117.0331,30.5119,安庆市,马山宾馆,臭氧1小时,60,51,68,36,48,176,168,98,98,11,29,8,8,0.6,0.8
2022-05-22T12:00:00,2294A,116.9896,30.6145,安庆市,安庆大学,臭氧1小时,98,69,68,48,47,198,198,95,95,17,24,13,8,0.8,0.7
2022-05-22T12:00:00,2295A,118.2903,29.6963,黄山市,延安路89号,,46,46,26,26,12,136,136,57,57,4,5,6,5,0.2,0.2
2022-05-22T12:00:00,2296A,118.327,29.7178,黄山市,黄山东路89号,,43,43,21,27,12,134,134,59,59,5,6,6,5,0.4,0.4
2022-05-22T12:00:00,2297A,118.1371,30.2756,黄山市,黄山区政府5号楼,,43,30,34,11,18,135,135,60,60,5,6,6,5,0.3,0.3
2022-05-22T12:00:00,2298A,118.3093,32.3153,滁州市,老年大学,臭氧1小时,102,69,72,27,39,203,203,148,120,30,29,8,9,0.5,0.6
2022-05-22T12:00:00,2299A,118.3244,32.2786,滁州市,人大宾馆,,,52,75,,46,196,195,124,124,19,30,8,10,0.4,0.6
2022-05-22T12:00:00,2301A,115.8277,32.8929,阜阳市,市监测站,臭氧1小时,83,66,67,43,39,186,186,88,88,14,35,10,11,0.6,0.7
2022-05-22T12:00:00,2303A,115.8554,32.8605,阜阳市,开发区,臭氧1小时,74,73,82,41,42,179,179,77,77,20,40,7,8,0.7,0.7
2022-05-22T12:00:00,2307A,116.5079,31.737,六安市,监测大楼,臭氧1小时,60,49,47,29,25,173,168,106,106,10,20,8,7,0.4,0.3
2022-05-22T12:00:00,2308A,116.4738,31.7643,六安市,皖西学院,臭氧1小时,75,66,53,31,29,183,180,108,95,12,18,11,9,0.5,0.4
2022-05-22T12:00:00,2309A,116.4996,31.7905,六安市,朝阳厂,颗粒物(PM10),55,60,53,38,33,175,162,115,82,9,19,9,7,0.5,0.5
2022-05-22T12:00:00,2310A,116.5567,31.7886,六安市,开发区,颗粒物(PM10),66,81,71,36,33,188,162,105,98,15,17,11,7,0.4,0.4
2022-05-22T12:00:00,2311A,115.8072,33.8399,亳州市,污水处理厂,臭氧1小时,82,43,42,28,26,189,185,126,117,3,10,7,8,0.3,0.3
2022-05-22T12:00:00,2312A,115.7789,33.8518,亳州市,三国揽胜宫,臭氧1小时,69,40,48,22,27,185,175,130,130,4,9,5,8,0.3,0.4
2022-05-22T12:00:00,2314A,117.47,30.6618,池州市,池州学院,臭氧1小时,68,49,55,30,35,202,174,96,96,10,18,8,8,0.5,0.7
2022-05-22T12:00:00,2316A,118.7581,30.9454,宣城市,鳌峰子站,,40,37,50,23,29,139,126,85,85,9,20,4,7,0.4,0.6
2022-05-22T12:00:00,2317A,118.7385,30.9743,宣城市,敬亭山子站,,47,47,45,24,26,137,137,80,76,12,21,7,8,0.4,0.5
2022-05-22T12:00:00,2318A,118.7173,30.9427,宣城市,开发区子站,,40,36,44,20,25,139,126,85,85,8,15,5,7,0.4,0.5
2022-05-22T12:00:00,2319A,119.0141,25.4325,莆田市,荔城区仓后路,,23,23,23,9,15,76,71,70,62,9,14,4,4,0.5,0.6
2022-05-22T12:00:00,2320A,119.0015,25.4553,莆田市,莆田市监测站,,24,24,15,8,15,76,62,68,56,1,5,4,4,0.5,0.5
2022-05-22T12:00:00,2321A,119.1119,25.4561,莆田市,涵江区六中,,28,28,26,12,26,79,79,60,57,4,12,5,6,0.5,0.6
2022-05-22T12:00:00,2322A,119.1013,25.3215,莆田市,秀屿区政府,,24,24,24,11,26,76,70,53,52,14,16,7,6,0.7,0.7
2022-05-22T12:00:00,2323A,118.981,25.4792,莆田市,东圳水库(对照点),细颗粒物(PM2.5),69,12,16,50,48,66,57,58,53,2,2,4,4,0.6,0.6
2022-05-22T12:00:00,2324A,117.6211,26.2625,三明市,三钢,,22,20,34,15,27,62,46,40,37,18,22,3,2,0.6,0.8
2022-05-22T12:00:00,2325A,117.635,26.2714,三明市,三明二中,,16,16,30,9,24,64,46,44,39,15,18,2,2,0.4,0.7
2022-05-22T12:00:00,2326A,117.6028,26.2378,三明市,三元区政府,,16,16,34,11,27,55,43,42,38,18,24,4,3,0.6,0.9
2022-05-22T12:00:00,2327A,117.7275,26.3108,三明市,洋溪(对照点),,22,20,25,15,22,82,46,48,37,14,10,6,5,0.6,0.7
2022-05-22T12:00:00,2331A,118.0966,26.6761,南平市,茫荡山(对照点),,,,6,1,8,89,82,85,85,2,4,4,4,0.7,0.7
2022-05-22T12:00:00,2332A,118.1681,26.6369,南平市,南平市监测站,,25,15,22,12,21,99,78,72,72,6,8,4,6,0.5,0.5
2022-05-22T12:00:00,2333A,118.1825,26.6489,南平市,南平铝业有限公司,,26,18,23,10,17,97,82,72,69,5,7,4,5,0.5,0.6
2022-05-22T12:00:00,2334A,118.1756,26.6272,南平市,南平七中,,22,15,22,10,19,90,70,61,61,5,5,2,3,0.4,0.4
2022-05-22T12:00:00,2335A,117.0189,25.1181,龙岩市,龙岩师专(对照点),,22,22,22,14,20,68,42,35,24,20,21,5,5,0.7,0.8
2022-05-22T12:00:00,2336A,117.0217,25.1033,龙岩市,龙岩市监测站,,33,33,25,20,20,67,45,32,32,22,21,6,6,0.8,0.7
2022-05-22T12:00:00,2337A,117.0258,25.0661,龙岩市,闽西职业技术学院,,26,26,26,18,20,66,46,33,33,18,21,6,6,0.6,0.7
2022-05-22T12:00:00,2338A,117.0196,25.0306,龙岩市,龙岩学院,,26,26,24,14,16,62,42,35,30,20,17,5,3,0.5,0.6
2022-05-22T12:00:00,2339A,119.5001,26.6946,宁德市,金涵水库(对照点),,26,24,19,18,7,78,65,34,34,13,10,11,7,0.5,0.4
2022-05-22T12:00:00,2341A,119.5388,26.6612,宁德市,宁德市监测站,,33,33,24,17,17,78,59,40,40,16,12,11,9,0.6,0.6
2022-05-22T12:00:00,2342A,117.3102,29.3867,景德镇市,王港中学(对照点),,35,30,28,17,18,111,111,45,45,4,5,4,4,0.3,0.5
2022-05-22T12:00:00,2343A,117.2117,29.2933,景德镇市,老干部活动中心,,38,36,58,20,33,126,121,52,52,6,21,4,11,0.3,0.5
2022-05-22T12:00:00,2344A,117.1894,29.2789,景德镇市,兽医站,,39,39,46,24,30,125,113,50,50,11,24,5,16,0.7,0.8
2022-05-22T12:00:00,2345A,117.1547,29.2617,景德镇市,台达陶瓷,,41,41,50,22,25,124,107,54,54,22,22,35,20,0.7,0.7
2022-05-22T12:00:00,2346A,117.2461,29.2956,景德镇市,陶研所,颗粒物(PM10),52,54,47,17,24,108,108,45,45,6,17,5,7,0.4,0.6
2022-05-22T12:00:00,2347A,114.0997,27.5002,萍乡市,武功山(对照点),,21,4,5,14,8,112,65,41,36,7,6,15,14,0.4,0.3
2022-05-22T12:00:00,2348A,113.8385,27.6434,萍乡市,中医院,细颗粒物(PM2.5),67,51,38,48,35,124,78,94,52,19,15,16,14,1.0,0.9
2022-05-22T12:00:00,2349A,113.8493,27.6253,萍乡市,市政府车库,细颗粒物(PM2.5),55,56,44,39,25,115,69,71,38,22,18,19,13,0.9,1
2022-05-22T12:00:00,2350A,113.8676,27.6435,萍乡市,市环保局,细颗粒物(PM2.5),69,56,42,50,35,121,78,89,48,25,25,22,17,0.6,0.6
2022-05-22T12:00:00,2351A,113.866,27.6198,萍乡市,安源区政府,颗粒物(PM10),58,66,46,38,26,116,71,57,34,26,24,13,11,1.2,1
2022-05-22T12:00:00,2352A,115.0861,27.9317,新余市,北岗(对照点),细颗粒物(PM2.5),55,57,47,39,31,122,77,46,46,14,11,17,9,0.8,0.6
2022-05-22T12:00:00,2353A,114.9886,27.8431,新余市,飞宇,,,92,56,,28,126,80,48,36,17,21,24,14,0.5,0.6
2022-05-22T12:00:00,2354A,114.9231,27.8246,新余市,第二水厂,颗粒物(PM10),65,80,53,35,33,124,72,63,49,24,21,14,14,0.5,0.5
2022-05-22T12:00:00,2355A,114.9308,27.8036,新余市,市气象局,细颗粒物(PM2.5),68,68,49,49,36,115,69,44,37,22,22,16,11,0.7,1
2022-05-22T12:00:00,2357A,116.9822,28.1136,鹰潭市,龙虎山(对照点),,,,46,38,30,107,,33,33,1,3,4,3,0.4,0.5
2022-05-22T12:00:00,2358A,117.0564,28.2642,鹰潭市,新监测站,细颗粒物(PM2.5),67,51,60,48,42,131,114,70,70,9,20,21,12,0.6,0.5
2022-05-22T12:00:00,2359A,117.0311,28.2475,鹰潭市,财苑宾馆,细颗粒物(PM2.5),62,54,59,44,36,114,107,66,66,6,15,16,8,0.6,0.6
2022-05-22T12:00:00,2360A,117.0222,28.2264,鹰潭市,体育馆,细颗粒物(PM2.5),70,41,61,51,41,107,95,60,60,2,17,17,14,0.6,0.7
2022-05-22T12:00:00,2361A,117.0017,28.2131,鹰潭市,三川水表,细颗粒物(PM2.5),70,47,59,51,42,130,97,58,58,2,10,14,12,0.6,0.6
2022-05-22T12:00:00,2362A,114.9017,25.9149,赣州市,通天岩(对照点),,36,32,39,25,31,107,67,45,45,42,26,5,6,1.1,1.1
2022-05-22T12:00:00,2363A,114.9367,25.8664,赣州市,地委,,39,31,46,27,34,87,55,31,31,24,20,6,12,0.8,0.8
2022-05-22T12:00:00,2364A,114.9461,25.8481,赣州市,气象台,,36,32,42,25,31,95,66,44,44,17,20,8,16,0.8,0.9
2022-05-22T12:00:00,2365A,114.9322,25.8333,赣州市,市图书馆,,45,35,43,31,35,97,68,37,37,16,20,4,11,1.0,1.1
2022-05-22T12:00:00,2366A,114.8905,25.8471,赣州市,华坚鞋城,,40,27,41,28,32,91,75,45,45,16,20,4,10,1.0,1.1
2022-05-22T12:00:00,2367A,114.9754,27.0803,吉安市,红声器材厂,颗粒物(PM10),55,60,51,38,32,148,62,75,51,16,13,11,10,0.6,0.5
2022-05-22T12:00:00,2368A,114.9658,27.0999,吉安市,市森林工业局,细颗粒物(PM2.5),57,59,46,40,31,135,56,78,47,16,13,6,6,0.6,0.5
2022-05-22T12:00:00,2369A,114.99,27.1312,吉安市,市环境监测站,颗粒物(PM10),57,64,51,39,31,134,68,61,40,15,14,47,10,0.7,0.5
2022-05-22T12:00:00,2370A,115.0093,27.0968,吉安市,青原区法院,颗粒物(PM10),59,68,49,39,30,138,58,52,42,16,14,14,15,0.6,0.5
2022-05-22T12:00:00,2371A,114.3408,27.8064,宜春市,槟榔水业(对照点),颗粒物(PM10),53,55,50,35,32,127,74,48,37,26,17,12,6,0.7,0.6
2022-05-22T12:00:00,2373A,114.3956,27.7844,宜春市,市石油公司,颗粒物(PM10),51,51,51,33,32,140,79,44,44,10,12,7,6,0.8,0.7
2022-05-22T12:00:00,2374A,114.3703,27.7914,宜春市,市气象局,颗粒物(PM10),53,56,50,31,31,138,96,67,55,20,17,8,7,0.8,0.6
2022-05-22T12:00:00,2375A,114.4013,27.8074,宜春市,市广电局,细颗粒物(PM2.5),62,66,51,44,36,133,87,48,48,22,20,8,5,0.8,0.8
2022-05-22T12:00:00,2376A,116.2127,28.0814,抚州市,桐源党溪(对照点),颗粒物(PM10),55,60,31,38,19,106,106,38,38,14,16,103,18,0.8,0.5
2022-05-22T12:00:00,2377A,116.3544,27.9831,抚州市,市站,颗粒物(PM10),59,68,46,41,25,101,97,56,56,16,21,8,7,1.0,0.9
2022-05-22T12:00:00,2378A,116.3565,27.963,抚州市,血防站,颗粒物(PM10),51,52,41,30,22,101,90,53,53,11,17,5,7,0.8,0.7
2022-05-22T12:00:00,2379A,116.3564,28.0007,抚州市,采茶剧团,颗粒物(PM10),56,62,44,37,24,99,99,37,37,13,21,11,5,1.0,0.9
2022-05-22T12:00:00,2380A,116.385,27.9647,抚州市,医学分院,颗粒物(PM10),52,54,40,34,24,102,90,50,50,16,21,6,6,0.9,0.8
2022-05-22T12:00:00,2381A,118.005,28.4572,上饶市,百草园(对照点),颗粒物(PM10),68,85,55,36,35,113,113,52,52,8,17,14,14,0.6,0.5
2022-05-22T12:00:00,2382A,117.9756,28.4436,上饶市,市监测站,细颗粒物(PM2.5),64,66,59,46,40,125,125,59,59,12,20,13,12,0.5,0.5
2022-05-22T12:00:00,2383A,117.9519,28.4628,上饶市,凤凰光学,细颗粒物(PM2.5),63,63,57,45,37,123,123,58,58,8,21,14,16,0.7,0.7
2022-05-22T12:00:00,2385A,114.17,35.9019,鹤壁市,市监测站,颗粒物(PM10),82,113,82,45,34,196,156,111,62,28,29,19,14,1.3,1.2
2022-05-22T12:00:00,2386A,114.2956,35.7511,鹤壁市,市交警支队,颗粒物(PM10),68,85,66,43,28,193,149,86,82,23,24,12,13,1.0,0.8
2022-05-22T12:00:00,2387A,114.2878,35.7306,鹤壁市,迎宾馆,颗粒物(PM10),76,102,65,44,27,198,154,84,84,23,28,10,8,0.6,0.5
2022-05-22T12:00:00,2389A,113.836,35.311,新乡市,环保西院,臭氧1小时,67,72,69,39,31,192,173,83,83,14,23,16,9,0.9,0.8
2022-05-22T12:00:00,2390A,113.884,35.272,新乡市,开发区,臭氧1小时,67,76,58,36,24,196,173,94,94,20,25,13,7,0.7,0.4
2022-05-22T12:00:00,2391A,113.883,35.303,新乡市,环保东院,,,69,56,,24,200,180,97,97,20,28,15,7,0.5,0.4
2022-05-22T12:00:00,2392A,115.0312,35.7636,濮阳市,环保局,,43,43,51,16,27,167,127,134,104,8,12,7,8,0.4,0.4
2022-05-22T12:00:00,2394A,115.0574,35.7609,濮阳市,油田运输公司,颗粒物(PM10),61,71,67,19,28,180,140,136,110,10,16,7,8,0.3,0.3
2022-05-22T12:00:00,2395A,115.0866,35.7754,濮阳市,油田物探公司,颗粒物(PM10),55,59,59,19,26,185,143,126,107,8,16,9,10,0.2,0.3
2022-05-22T12:00:00,2396A,113.8276,34.0159,许昌市,监测站,,44,31,42,20,24,155,138,90,90,5,13,5,6,0.3,0.3
2022-05-22T12:00:00,2398A,113.7906,33.9953,许昌市,开发区,,48,48,54,19,23,160,149,82,82,4,21,5,5,0.5,0.5
2022-05-22T12:00:00,2399A,114.051,33.5699,漯河市,三五一五工厂,颗粒物(PM10),97,144,48,27,26,187,162,89,89,2,17,6,8,0.5,0.5
2022-05-22T12:00:00,2400A,114.0055,33.5698,漯河市,漯河大学,,47,36,41,24,24,174,149,84,84,7,15,4,5,0.6,0.6
2022-05-22T12:00:00,2401A,114.0138,33.5828,漯河市,市水利局,,48,36,40,22,23,173,152,88,88,2,12,5,8,0.5,0.6
2022-05-22T12:00:00,2402A,114.0261,33.5698,漯河市,市广电局,,48,34,39,25,24,171,152,88,88,4,15,6,7,0.5,0.5
2022-05-22T12:00:00,2403A,112.5192,32.9917,南阳市,环保局,颗粒物(PM10),61,71,66,32,31,145,124,75,72,13,21,4,3,0.5,0.5
2022-05-22T12:00:00,2404A,112.5339,33.0086,南阳市,瓦房庄,,50,50,52,23,28,142,131,81,71,12,22,5,5,0.6,0.6
2022-05-22T12:00:00,2405A,112.5003,32.9735,南阳市,汉画馆,,49,49,50,28,28,146,130,76,76,13,25,8,6,0.6,0.6
2022-05-22T12:00:00,2406A,112.5779,33.0144,南阳市,气象站,颗粒物(PM10),60,69,55,26,28,155,131,91,78,18,23,7,6,0.6,0.5
2022-05-22T12:00:00,2407A,112.548,32.9692,南阳市,理工学院,颗粒物(PM10),52,53,53,28,28,139,124,66,60,9,23,5,5,0.6,0.6
2022-05-22T12:00:00,2408A,115.6702,34.4285,商丘市,环境监测站,,,47,50,26,25,172,160,123,112,,13,8,11,0.4,0.4
2022-05-22T12:00:00,2409A,115.6458,34.4045,商丘市,粮食局,臭氧1小时,55,47,53,24,28,175,164,125,125,13,15,7,7,0.5,0.5
2022-05-22T12:00:00,2410A,115.6293,34.3948,商丘市,睢阳区环保局,臭氧1小时,52,50,53,30,33,175,161,115,115,10,17,7,7,0.5,0.5
2022-05-22T12:00:00,2420A,114.0189,32.9656,驻马店市,市一纸厂,,49,42,42,31,22,177,154,85,75,11,20,8,6,0.4,0.4
2022-05-22T12:00:00,2421A,114.0114,33.015,驻马店市,市彩印厂,颗粒物(PM10),56,61,40,22,20,179,156,95,81,9,18,7,5,0.3,0.4
2022-05-22T12:00:00,2422A,113.9976,32.9771,驻马店市,天方二分厂,臭氧1小时,53,45,37,21,20,178,162,98,98,3,12,2,2,0.5,0.5
2022-05-22T12:00:00,2423A,115.0601,30.2313,黄石市,沈家营,细颗粒物(PM2.5),80,104,79,59,48,200,179,84,84,19,38,27,12,0.8,0.8
2022-05-22T12:00:00,2424A,115.0817,30.2006,黄石市,陈家湾,臭氧1小时,82,93,78,51,52,207,185,109,88,11,24,12,9,0.9,1.2
2022-05-22T12:00:00,2426A,114.8988,30.2019,黄石市,铁山,臭氧1小时,85,89,86,48,52,209,188,116,109,9,25,22,18,1.0,1
2022-05-22T12:00:00,2427A,115.0307,30.2092,黄石市,团城山,臭氧1小时,83,110,82,55,47,211,186,90,90,17,39,20,12,0.7,0.8
2022-05-22T12:00:00,2428A,111.0419,32.395,十堰市,武当山(对照点),,38,35,32,26,24,121,106,104,99,8,8,9,8,0.5,0.5
2022-05-22T12:00:00,2429A,110.78,32.6494,十堰市,滨河新村,颗粒物(PM10),61,72,75,35,38,130,123,49,49,13,28,8,10,0.5,0.7
2022-05-22T12:00:00,2430A,110.7258,32.6389,十堰市,刘家沟,颗粒物(PM10),59,68,62,38,33,138,120,62,59,16,14,11,11,0.8,0.9
2022-05-22T12:00:00,2431A,110.8839,32.5714,十堰市,铁二处,颗粒物(PM10),67,84,48,41,32,140,130,68,68,16,12,8,8,0.5,0.5
2022-05-22T12:00:00,2432A,112.155,32.0197,襄阳市,襄城运动路,细颗粒物(PM2.5),82,79,65,60,41,165,122,83,83,18,17,16,14,0.8,0.7
2022-05-22T12:00:00,2433A,112.1392,32.0564,襄阳市,樊城新华路,细颗粒物(PM2.5),89,93,62,66,61,162,115,98,74,16,16,14,10,0.8,0.6
2022-05-22T12:00:00,2434A,112.1825,32.1142,襄阳市,高新管委会,细颗粒物(PM2.5),87,82,65,64,46,151,99,79,68,15,17,7,6,0.8,0.7
2022-05-22T12:00:00,2435A,112.2106,32.0903,襄阳市,襄州航空路,细颗粒物(PM2.5),89,82,61,66,40,137,94,77,65,16,20,9,7,0.8,0.8
