timepoint,stationcode,longitude,latitude,area,positionname,primarypollutant,aqi,pm10,pm10_24h,pm2_5,pm2_5_24h,o3,o3_24h,o3_8h,o3_8h_24h,no2,no2_24h,so2,so2_24h,co,co_24h
2022-05-22T20:00:00,1001A,116.3621,39.8784,北京市,万寿西宫,臭氧1小时,107,84,78,33,31,250,213,235,234,18,20,3,3,0.7,0.6
2022-05-22T20:00:00,1002A,116.2202,40.2915,北京市,定陵(对照点),臭氧1小时,104,85,68,34,25,263,207,230,230,17,16,2,2,0.5,0.4
2022-05-22T20:00:00,1003A,116.4174,39.9289,北京市,东四,臭氧1小时,120,88,85,34,32,252,240,241,241,15,21,6,4,0.6,0.6
2022-05-22T20:00:00,1004A,116.4072,39.8863,北京市,天坛,臭氧1小时,109,48,77,36,30,238,217,231,231,22,25,3,3,0.5,0.5
2022-05-22T20:00:00,1005A,116.462,39.9365,北京市,农展馆,臭氧1小时,122,82,82,34,29,258,244,249,249,18,26,6,5,0.6,0.6
2022-05-22T20:00:00,1006A,116.3392,39.9295,北京市,官园,臭氧1小时,121,84,77,34,31,259,241,245,245,20,27,10,7,0.6,0.5
2022-05-22T20:00:00,1007A,116.2878,39.9611,北京市,海淀万柳,臭氧1小时,103,47,61,9,21,250,206,229,229,11,33,3,2,0.6,0.5
2022-05-22T20:00:00,1008A,116.6636,40.135,北京市,顺义新城,颗粒物(PM10),69,88,83,32,31,194,153,182,181,14,11,2,2,0.5,0.5
2022-05-22T20:00:00,1009A,116.6275,40.3275,北京市,怀柔镇,臭氧1小时,93,87,66,40,26,253,194,225,225,18,14,1,2,0.5,0.4
2022-05-22T20:00:00,1010A,116.2296,40.217,北京市,昌平镇,臭氧1小时,101,108,76,37,27,254,202,226,226,18,22,2,2,0.5,0.4
2022-05-22T20:00:00,1011A,116.3966,39.9821,北京市,奥体中心,臭氧1小时,120,79,81,37,30,248,239,234,234,18,24,5,4,0.5,0.5
2022-05-22T20:00:00,1012A,116.184,39.9136,北京市,古城,臭氧1小时,119,92,82,33,29,271,237,248,248,22,22,2,2,0.5,0.4
2022-05-22T20:00:00,1015A,117.1444,39.1661,天津市,勤俭道,颗粒物(PM10),57,63,74,21,27,242,153,217,209,16,13,11,12,0.8,0.9
2022-05-22T20:00:00,1017A,117.237,39.1082,天津市,大直沽八号路,,,59,42,24,18,162,147,162,154,17,17,9,10,,
2022-05-22T20:00:00,1018A,117.202,39.0927,天津市,前进道,颗粒物(PM10),54,58,68,24,28,216,138,190,183,18,17,9,12,0.6,0.7
2022-05-22T20:00:00,1019A,117.1837,39.2133,天津市,淮河道,颗粒物(PM10),54,58,74,24,30,240,152,219,210,21,15,10,12,0.1,0.3
2022-05-22T20:00:00,1021A,117.307,39.0877,天津市,跃进路,颗粒物(PM10),55,60,68,23,27,218,148,196,190,16,16,8,11,0.5,0.6
2022-05-22T20:00:00,1023A,117.707,39.0343,天津市,第四大街,颗粒物(PM10),59,68,75,34,30,194,143,174,170,24,24,7,9,0.5,0.5
2022-05-22T20:00:00,1024A,117.457,38.8394,天津市,永明路,颗粒物(PM10),54,58,57,23,26,190,134,173,168,18,16,8,12,0.3,0.3
2022-05-22T20:00:00,1026A,117.764,39.1587,天津市,汉北路,颗粒物(PM10),51,52,73,18,29,199,156,181,172,16,25,9,13,0.9,1.2
2022-05-22T20:00:00,1027A,117.157,38.9194,天津市,团泊洼(对照点),颗粒物(PM10),55,60,62,30,34,216,148,192,186,17,17,8,9,0.8,0.9
2022-05-22T20:00:00,1029A,114.4422,38.0444,石家庄市,职工医院,颗粒物(PM10),52,53,99,33,34,227,143,204,195,24,53,12,18,0.6,0.9
2022-05-22T20:00:00,1030A,114.6063,38.0266,石家庄市,高新区,颗粒物(PM10),56,61,88,34,39,208,134,190,182,19,39,11,18,0.4,0.6
2022-05-22T20:00:00,1031A,114.4898,38.1328,石家庄市,西北水源,颗粒物(PM10),70,89,93,33,39,236,148,207,200,18,37,9,14,0.6,0.8
2022-05-22T20:00:00,1032A,114.4586,38.0058,石家庄市,西南高教,颗粒物(PM10),63,76,96,29,44,213,133,194,188,18,42,7,13,0.8,1.1
2022-05-22T20:00:00,1033A,114.5331,38.0178,石家庄市,世纪公园,颗粒物(PM10),65,79,101,30,40,201,137,182,177,13,32,7,11,0.7,0.9
2022-05-22T20:00:00,1034A,114.509,38.0457,石家庄市,人民会堂,细颗粒物(PM2.5),60,68,92,43,44,230,154,206,199,15,42,14,21,0.6,0.9
2022-05-22T20:00:00,1035A,114.3524,37.8911,石家庄市,封龙山(对照点),颗粒物(PM10),59,68,59,19,29,222,160,200,195,10,7,17,17,0.7,0.9
2022-05-22T20:00:00,1037A,118.131,39.6363,唐山市,雷达站,臭氧1小时,77,90,100,31,31,292,181,254,250,18,14,6,6,0.8,0.6
2022-05-22T20:00:00,1038A,118.1725,39.6334,唐山市,物资局,臭氧1小时,69,82,94,34,29,292,175,255,250,28,26,8,9,0.6,0.6
2022-05-22T20:00:00,1040A,118.1705,39.6506,唐山市,十二中,颗粒物(PM10),72,93,90,36,39,279,169,242,238,31,27,8,9,0.9,0.8
2022-05-22T20:00:00,1041A,118.1869,39.622,唐山市,小山,颗粒物(PM10),75,99,96,35,28,300,168,259,253,28,27,7,10,0.5,0.6
2022-05-22T20:00:00,1042A,119.5134,39.8207,秦皇岛市,北戴河环保局,臭氧1小时,92,118,79,60,25,204,193,187,187,17,20,12,15,1.2,1.2
2022-05-22T20:00:00,1043A,119.7493,40.0116,秦皇岛市,第一关,臭氧1小时,102,87,54,61,26,210,204,188,188,13,28,21,18,0.7,0.7
2022-05-22T20:00:00,1044A,119.5897,39.9499,秦皇岛市,监测站,臭氧1小时,84,87,56,51,22,202,187,184,184,34,29,15,13,0.6,0.6
2022-05-22T20:00:00,1046A,119.5251,39.9041,秦皇岛市,建设大厦,臭氧1小时,103,90,59,46,21,206,206,195,195,18,21,14,13,0.8,0.9
2022-05-22T20:00:00,1048A,114.5302,36.6116,邯郸市,东污水处理厂,颗粒物(PM10),51,52,57,30,32,185,131,165,163,15,17,12,11,0.6,0.6
2022-05-22T20:00:00,1049A,114.4918,36.5713,邯郸市,矿院,颗粒物(PM10),59,67,66,32,32,187,138,167,166,5,11,11,9,0.5,0.5
2022-05-22T20:00:00,1050A,114.484,36.6133,邯郸市,丛台公园,颗粒物(PM10),51,51,59,29,29,187,141,167,166,14,18,10,9,0.5,0.6
2022-05-22T20:00:00,1051A,115.493,38.8632,保定市,游泳馆,颗粒物(PM10),62,74,71,28,29,250,152,211,210,21,23,14,18,0.3,0.5
2022-05-22T20:00:00,1053A,115.4713,38.9108,保定市,接待中心,颗粒物(PM10),61,72,69,30,33,255,156,218,218,31,26,10,12,0.8,0.9
2022-05-22T20:00:00,1054A,115.4612,38.8416,保定市,地表水厂,颗粒物(PM10),75,99,84,33,34,253,134,211,207,32,24,11,14,0.6,0.7
2022-05-22T20:00:00,1055A,115.4323,38.8697,保定市,胶片厂,颗粒物(PM10),57,63,66,30,33,264,156,218,217,20,21,15,16,0.6,0.8
2022-05-22T20:00:00,1056A,115.5086,38.8639,保定市,监测站,颗粒物(PM10),72,94,84,34,38,251,161,213,213,15,23,11,13,0.6,0.7
2022-05-22T20:00:00,1057A,114.8883,40.8336,张家口市,人民公园,,47,36,51,8,13,171,148,158,157,13,11,4,5,0.4,0.4
2022-05-22T20:00:00,1059A,114.8687,40.8042,张家口市,五金库,,48,39,66,22,21,168,152,159,158,9,8,4,5,0.3,0.4
2022-05-22T20:00:00,1060A,114.8902,40.762,张家口市,世纪豪园,,42,42,53,23,22,166,133,157,153,24,17,4,5,0.5,0.4
2022-05-22T20:00:00,1061A,114.8916,40.8661,张家口市,北泵房(对照点),,,30,52,26,23,,,,,7,8,,,,
2022-05-22T20:00:00,1062A,117.9531,40.9081,承德市,铁路,颗粒物(PM10),74,97,67,30,24,162,131,150,150,56,35,13,9,0.7,0.4
2022-05-22T20:00:00,1063A,117.9392,40.9763,承德市,中国银行,颗粒物(PM10),64,78,51,37,24,175,154,160,160,25,24,8,4,0.7,0.4
2022-05-22T20:00:00,1064A,117.9503,40.928,承德市,开发区,臭氧1小时,82,73,57,28,22,185,185,173,173,27,33,15,10,0.8,0.6
2022-05-22T20:00:00,1065A,117.8051,40.9655,承德市,文化中心,颗粒物(PM10),59,68,53,38,28,195,159,180,177,14,15,8,7,0.6,0.4
2022-05-22T20:00:00,1066A,117.9268,41.0026,承德市,离宫(对照点),颗粒物(PM10),57,63,46,36,25,178,113,160,154,22,16,7,7,0.6,0.4
2022-05-22T20:00:00,1067A,116.6708,39.5111,廊坊市,药材公司,臭氧1小时,93,87,76,45,32,258,194,233,231,25,25,11,10,0.8,0.6
2022-05-22T20:00:00,1068A,116.7214,39.5589,廊坊市,开发区,臭氧1小时,89,73,73,39,40,251,191,230,228,22,23,11,10,0.7,0.5
2022-05-22T20:00:00,1070A,116.7244,39.5269,廊坊市,北华航天学院,臭氧1小时,103,90,86,39,40,245,206,226,226,23,25,13,11,0.7,0.5
2022-05-22T20:00:00,1071A,116.8842,38.2991,沧州市,沧县城建局,颗粒物(PM10),61,72,61,26,26,173,120,160,154,29,22,10,13,0.6,0.6
2022-05-22T20:00:00,1072A,116.8584,38.3254,沧州市,电视转播站,颗粒物(PM10),61,72,55,23,22,159,125,150,148,21,18,13,12,0.4,0.4
2022-05-22T20:00:00,1073A,116.8709,38.3228,沧州市,市环保局,颗粒物(PM10),60,69,56,30,27,174,130,169,159,31,26,9,9,0.6,0.6
2022-05-22T20:00:00,1074A,115.6838,37.7541,衡水市,电机北厂,颗粒物(PM10),64,78,71,20,23,182,147,172,168,11,11,10,10,0.4,0.4
2022-05-22T20:00:00,1075A,115.6303,37.7316,衡水市,市监测站,颗粒物(PM10),71,91,70,20,22,178,134,166,161,15,13,13,14,0.4,0.5
2022-05-22T20:00:00,1077A,114.4704,37.0886,邢台市,达活泉,颗粒物(PM10),60,70,94,22,31,204,144,181,180,15,27,7,16,0.5,1.1
2022-05-22T20:00:00,1078A,114.5062,37.0349,邢台市,邢师高专,,49,49,77,22,36,195,141,182,179,17,30,5,11,0.5,0.9
2022-05-22T20:00:00,1079A,114.5237,37.0851,邢台市,路桥公司,颗粒物(PM10),59,68,84,19,36,182,143,173,171,15,36,9,17,0.5,1
2022-05-22T20:00:00,1081A,112.5139,37.8873,太原市,尖草坪,颗粒物(PM10),59,67,75,28,32,190,161,169,169,23,41,7,10,0.5,0.7
2022-05-22T20:00:00,1083A,112.434,38.0108,太原市,上兰(对照点),,47,47,43,24,28,189,124,167,163,20,16,6,7,0.5,0.6
2022-05-22T20:00:00,1084A,112.469,37.7124,太原市,晋源,,48,44,66,21,30,203,151,179,179,14,45,3,6,0.6,0.8
2022-05-22T20:00:00,1085A,112.5583,37.7394,太原市,小店,,44,44,87,17,38,203,139,174,174,33,73,5,16,0.5,0.9
2022-05-22T20:00:00,1086A,112.5369,37.8692,太原市,桃园,颗粒物(PM10),57,64,76,28,34,199,163,178,178,22,47,7,13,0.5,0.8
2022-05-22T20:00:00,1087A,112.57,37.8195,太原市,坞城,颗粒物(PM10),54,57,89,24,39,205,158,179,179,23,60,7,16,0.4,0.9
2022-05-22T20:00:00,1088A,112.549,37.9854,太原市,南寨,颗粒物(PM10),56,61,87,23,30,186,138,165,163,37,50,10,10,0.6,0.8
2022-05-22T20:00:00,1090A,111.6507,40.7517,呼和浩特市,呼市一监,颗粒物(PM10),59,68,70,22,24,164,142,153,153,16,34,7,6,0.4,0.4
2022-05-22T20:00:00,1091A,111.6572,40.8033,呼和浩特市,小召,,48,48,52,27,26,165,132,154,154,34,43,9,7,0.6,0.5
2022-05-22T20:00:00,1094A,111.7516,40.8369,呼和浩特市,如意水处理厂,颗粒物(PM10),52,54,55,23,20,176,156,164,164,17,37,9,8,0.6,0.5
2022-05-22T20:00:00,1095A,111.7276,40.8062,呼和浩特市,二十九中,颗粒物(PM10),64,78,60,19,17,176,156,163,163,17,38,10,9,0.6,0.6
2022-05-22T20:00:00,1096A,111.5512,40.7866,呼和浩特市,工大金川校区,颗粒物(PM10),53,56,55,21,19,174,147,163,163,20,33,6,7,0.5,0.4
2022-05-22T20:00:00,1097A,111.717,40.7612,呼和浩特市,化肥厂生活区,颗粒物(PM10),58,65,71,17,17,167,137,153,153,19,32,10,11,0.5,0.5
2022-05-22T20:00:00,1098A,123.6836,41.9339,沈阳市,森林路(对照点),,40,20,35,28,36,152,101,122,118,11,12,7,11,0.5,0.5
2022-05-22T20:00:00,1099A,123.505,41.7406,沈阳市,浑南东路,,36,36,53,19,22,184,86,149,140,50,17,10,20,0.6,0.8
2022-05-22T20:00:00,1100A,123.4231,41.6989,沈阳市,新秀街,,46,46,60,15,24,178,62,155,141,79,26,7,17,0.9,1
2022-05-22T20:00:00,1102A,123.5903,41.8411,沈阳市,东陵路,,38,38,52,14,25,179,83,132,125,32,19,11,15,0.5,0.8
2022-05-22T20:00:00,1103A,123.4264,41.8467,沈阳市,陵东街,,27,21,43,8,20,187,86,137,128,25,21,6,12,0.4,0.8
2022-05-22T20:00:00,1104A,123.4114,41.7653,沈阳市,文化路,,35,22,47,8,23,187,112,147,141,22,15,6,14,0.5,0.8
2022-05-22T20:00:00,1105A,123.4678,41.7867,沈阳市,小河沿,,32,21,43,8,21,183,102,142,135,31,21,5,14,0.4,0.7
2022-05-22T20:00:00,1106A,123.4017,41.7972,沈阳市,太原街,二氧化氮,55,36,58,18,26,196,23,148,127,110,29,6,15,0.8,0.9
2022-05-22T20:00:00,1108A,123.3783,41.9228,沈阳市,京沈街,,40,40,56,5,20,204,114,136,130,23,16,8,13,0.4,0.7
2022-05-22T20:00:00,1109A,121.612,38.9741,大连市,甘井子,颗粒物(PM10),70,90,87,50,49,161,123,139,130,28,22,8,10,0.6,0.6
2022-05-22T20:00:00,1110A,121.565,38.9511,大连市,周水子,"颗粒物(PM10),细颗粒物(PM2.5)",73,96,91,53,43,167,80,134,115,36,16,5,8,1.2,1
2022-05-22T20:00:00,1111A,121.5637,38.8845,大连市,星海三站,,,64,61,,35,222,,178,131,34,20,7,9,0.9,0.8
2022-05-22T20:00:00,1112A,121.6302,38.9117,大连市,青泥洼桥,颗粒物(PM10),65,79,64,37,29,217,127,159,138,35,26,7,10,0.7,0.6
2022-05-22T20:00:00,1113A,121.6251,38.8638,大连市,傅家庄,,43,43,62,23,31,207,96,157,111,20,15,3,6,0.9,0.8
2022-05-22T20:00:00,1114A,121.5213,38.8661,大连市,七贤岭,,,83,62,,,30,13,24,12,,,,18,1.8,0.8
2022-05-22T20:00:00,1115A,121.2529,38.8061,大连市,旅顺,,34,34,48,14,28,181,95,154,126,19,18,6,9,0.7,0.7
2022-05-22T20:00:00,1116A,121.7485,39.1311,大连市,金州,颗粒物(PM10),68,86,83,39,39,141,64,107,100,42,26,7,10,0.8,0.7
2022-05-22T20:00:00,1117A,121.7811,39.0496,大连市,开发区,细颗粒物(PM2.5),67,68,80,48,50,157,88,134,115,57,34,6,11,1.1,1.1
2022-05-22T20:00:00,1118A,121.9762,39.0631,大连市,双D港,,49,41,54,34,41,159,92,159,122,14,16,8,8,0.9,0.9
2022-05-22T20:00:00,1119A,125.3325,43.9166,长春市,食品厂,,46,46,29,28,9,118,96,111,110,27,20,6,6,0.5,0.4
2022-05-22T20:00:00,1120A,125.2863,43.9027,长春市,客车厂,,40,40,35,11,11,122,65,108,105,49,23,6,6,0.7,0.5
2022-05-22T20:00:00,1121A,125.2841,43.8463,长春市,邮电学院,,32,32,25,15,10,130,98,118,118,16,15,1,2,0.5,0.4
2022-05-22T20:00:00,1122A,125.3716,43.8772,长春市,劳动公园,颗粒物(PM10),61,71,34,41,10,125,78,114,111,38,18,2,3,0.6,0.4
2022-05-22T20:00:00,1123A,125.3297,43.8805,长春市,园林处,,33,33,20,17,7,131,101,119,119,22,13,5,5,0.5,0.4
2022-05-22T20:00:00,1124A,125.4605,43.79,长春市,净月潭,,29,12,16,4,4,114,90,106,105,2,5,5,6,0.4,0.4
2022-05-22T20:00:00,1125A,125.7194,43.515,长春市,甩湾子(对照点),,27,6,14,3,2,118,84,111,109,10,9,8,8,0.4,0.4
2022-05-22T20:00:00,1126A,125.3863,43.8447,长春市,经开区环卫处,,28,14,21,19,11,130,76,119,115,34,16,7,7,0.7,0.5
2022-05-22T20:00:00,1127A,125.245,43.7783,长春市,高新区管委会,,42,42,22,16,11,134,60,124,117,63,18,6,5,0.4,0.3
2022-05-22T20:00:00,1128A,125.1761,43.8325,长春市,岱山公园,颗粒物(PM10),51,52,40,12,10,118,88,111,110,31,19,6,6,0.4,0.4
2022-05-22T20:00:00,1129A,126.5422,45.755,哈尔滨市,岭北(对照点),,29,18,19,7,10,112,92,106,106,14,19,11,11,0.3,0.3
2022-05-22T20:00:00,1130A,126.561,45.8167,哈尔滨市,松北商大,,,14,13,17,6,106,,106,106,19,18,3,4,0.3,0.5
2022-05-22T20:00:00,1131A,126.979,45.5419,哈尔滨市,阿城会宁,,44,44,29,15,11,105,67,100,97,24,22,8,9,0.6,0.6
2022-05-22T20:00:00,1132A,126.599,45.7222,哈尔滨市,南岗学府路,,31,31,13,14,4,117,75,108,104,25,13,5,5,0.6,0.6
2022-05-22T20:00:00,1133A,126.689,45.7733,哈尔滨市,太平宏伟公园,颗粒物(PM10),55,59,28,19,9,114,65,104,100,49,22,12,13,0.6,0.5
2022-05-22T20:00:00,1134A,126.635,45.7667,哈尔滨市,道外承德广场,,43,43,26,29,11,120,83,107,106,37,21,8,7,0.3,0.3
2022-05-22T20:00:00,1135A,126.685,45.7319,哈尔滨市,香坊红旗大街,,38,30,24,26,15,103,62,96,93,45,18,9,9,0.7,0.5
2022-05-22T20:00:00,1136A,126.6411,45.7258,哈尔滨市,动力和平路,,31,31,22,21,8,108,80,101,100,23,10,10,9,0.4,0.3
2022-05-22T20:00:00,1137A,126.593,45.7478,哈尔滨市,道里建国路,,27,27,26,18,12,106,70,98,95,38,18,16,16,1.0,0.4
2022-05-22T20:00:00,1138A,126.615,45.61,哈尔滨市,平房东轻厂,,32,23,31,22,13,108,63,98,95,36,33,5,8,0.9,0.7
2022-05-22T20:00:00,1139A,126.595,45.9855,哈尔滨市,呼兰师专,,32,32,22,20,13,109,98,104,104,18,15,9,10,0.5,0.5
2022-05-22T20:00:00,1140A,126.6206,45.6842,哈尔滨市,省农科院,细颗粒物(PM2.5),70,78,21,51,10,120,56,108,102,34,15,5,7,0.8,0.7
2022-05-22T20:00:00,1141A,121.4,31.238,上海市,普陀,,45,39,27,20,16,189,142,163,163,20,16,4,9,1.0,1
2022-05-22T20:00:00,1142A,121.478,31.2036,上海市,十五厂,,39,34,25,23,20,182,124,154,153,20,14,6,6,1.1,1.1
2022-05-22T20:00:00,1143A,121.467,31.3008,上海市,虹口,,41,29,22,20,18,179,130,150,150,11,10,5,5,1.2,1.2
2022-05-22T20:00:00,1144A,121.412,31.1654,上海市,徐汇上师大,,39,38,28,13,15,167,122,148,147,11,9,7,15,1.1,1.2
2022-05-22T20:00:00,1145A,121.536,31.2659,上海市,杨浦四漂,,36,29,22,21,19,190,115,156,153,12,8,8,7,0.2,0.2
2022-05-22T20:00:00,1147A,121.425,31.2261,上海市,静安监测站,,41,41,28,27,21,176,130,153,152,25,18,5,6,0,0
2022-05-22T20:00:00,1148A,121.703,31.1907,上海市,浦东川沙,,33,29,37,20,23,164,105,145,141,19,15,6,5,1.1,1.1
2022-05-22T20:00:00,1149A,121.533,31.2284,上海市,浦东新区监测站,,40,34,29,27,21,190,126,154,154,13,11,6,6,0.7,0.7
2022-05-22T20:00:00,1150A,121.577,31.2071,上海市,浦东张江,,33,27,21,21,23,164,103,135,133,16,13,4,4,0.7,0.7
2022-05-22T20:00:00,1151A,118.8086,32.1065,南京市,迈皋桥,,40,40,53,24,25,165,107,139,128,41,34,7,5,0.6,0.6
2022-05-22T20:00:00,1152A,118.7538,32.0551,南京市,草场门,,42,41,48,19,26,180,134,154,141,29,31,1,4,0.6,0.5
2022-05-22T20:00:00,1153A,118.7794,32.0745,南京市,山西路,,45,39,56,22,30,170,142,156,148,15,21,10,4,0.1,0.2
2022-05-22T20:00:00,1154A,118.7752,32.0023,南京市,中华门,,48,48,58,19,25,158,147,149,142,13,21,4,4,0.4,0.5
2022-05-22T20:00:00,1155A,118.8109,32.0309,南京市,瑞金路,,44,44,65,27,32,153,130,144,136,21,27,3,4,0.6,0.6
2022-05-22T20:00:00,1156A,118.7997,32.0754,南京市,玄武湖,,40,36,41,14,29,168,125,142,132,21,22,4,4,0.6,0.6
2022-05-22T20:00:00,1157A,118.6414,32.0931,南京市,浦口,,41,41,52,20,26,170,107,153,134,40,25,5,5,0.2,0.3
2022-05-22T20:00:00,1158A,118.7356,31.9996,南京市,奥体中心,,45,41,51,17,26,159,144,141,135,20,27,3,3,0.6,0.7
2022-05-22T20:00:00,1159A,118.9125,32.1028,南京市,仙林大学城,,42,34,53,17,32,202,134,154,147,25,17,6,7,0.6,0.7
2022-05-22T20:00:00,1160A,120.561,31.2472,苏州市,上方山(对照点),,43,22,24,16,21,154,136,144,142,17,23,6,7,0.5,0.4
2022-05-22T20:00:00,1162A,120.591,31.3019,苏州市,彩香,,,31,28,20,22,160,,150,149,13,14,6,7,0.4,0.3
2022-05-22T20:00:00,1163A,120.596,31.3264,苏州市,轧钢厂,,48,37,29,17,16,169,152,153,152,13,16,7,7,0.4,0.4
2022-05-22T20:00:00,1164A,120.613,31.2703,苏州市,吴中区,,47,31,34,23,25,165,148,154,152,16,18,6,7,0.4,0.4
2022-05-22T20:00:00,1165A,120.543,31.2994,苏州市,苏州新区,,49,39,27,20,26,172,156,157,156,11,16,6,6,0.5,0.5
2022-05-22T20:00:00,1166A,120.669,31.3097,苏州市,苏州工业园区,,46,27,24,25,17,156,146,143,142,12,11,5,6,0.5,0.5
2022-05-22T20:00:00,1167A,120.641,31.3708,苏州市,相城区,,41,37,29,19,18,149,130,135,133,20,16,6,6,0.5,0.5
2022-05-22T20:00:00,1168A,120.9098,31.9663,南通市,狼山街道,,46,43,28,22,13,177,145,168,166,16,23,11,11,0.6,0.6
2022-05-22T20:00:00,1169A,120.86,32.0005,南通市,虹桥,,48,40,31,24,23,183,152,171,170,19,30,6,7,0.4,0.4
2022-05-22T20:00:00,1170A,120.87,32.02,南通市,城中,,44,42,28,26,21,164,139,158,156,24,32,10,9,0.4,0.4
2022-05-22T20:00:00,1171A,120.94,31.93,南通市,星湖花园,,42,42,30,24,16,172,127,160,157,23,27,10,10,0.6,0.6
2022-05-22T20:00:00,1172A,120.81,32.0417,南通市,紫琅学院,,45,38,31,19,16,172,143,144,139,22,45,6,8,0.3,0.5
2022-05-22T20:00:00,1173A,119.176,34.5885,连云港市,市环境监测站,臭氧1小时,68,70,77,36,39,214,174,201,198,16,15,9,11,0.3,0.3
2022-05-22T20:00:00,1177A,117.179,34.2761,徐州市,黄河新村,臭氧1小时,88,61,76,36,38,206,190,200,198,16,27,9,9,0.8,0.6
2022-05-22T20:00:00,1178A,117.1918,34.2384,徐州市,淮塔,臭氧1小时,89,69,75,39,40,202,191,196,194,16,25,11,12,0.6,0.7
2022-05-22T20:00:00,1180A,117.256,34.2153,徐州市,新城区,臭氧1小时,69,83,86,35,42,200,175,195,192,24,45,8,11,0.7,0.8
2022-05-22T20:00:00,1181A,117.244,34.2911,徐州市,桃园路,臭氧1小时,79,83,80,31,36,213,183,205,201,21,31,12,14,0.7,0.8
2022-05-22T20:00:00,1182A,117.2933,34.2778,徐州市,农科院,臭氧1小时,84,68,70,29,28,203,187,198,196,19,25,7,9,0.6,0.7
2022-05-22T20:00:00,1186A,119.389,32.3761,扬州市,邗江监测站,颗粒物(PM10),64,78,66,33,32,223,139,203,195,38,25,10,10,0.6,0.8
2022-05-22T20:00:00,1188A,120.269,31.4867,无锡市,雪浪,,41,41,33,14,14,182,121,162,153,20,12,8,10,0.4,0.5
2022-05-22T20:00:00,1189A,120.275,31.6219,无锡市,黄巷,,38,36,36,14,15,182,119,160,153,29,27,7,8,0.2,0.3
2022-05-22T20:00:00,1190A,120.294,31.56,无锡市,曹张,,39,21,30,14,13,195,122,163,158,19,19,7,7,0.6,0.6
2022-05-22T20:00:00,1191A,120.242,31.5031,无锡市,漆塘,,42,19,28,18,18,186,132,167,161,22,17,6,6,0.2,0.3
2022-05-22T20:00:00,1192A,120.3489,31.5863,无锡市,东亭,,39,36,36,7,18,168,122,152,148,17,20,10,9,0.5,0.6
2022-05-22T20:00:00,1193A,120.354,31.5475,无锡市,旺庄,,40,24,35,12,17,180,128,156,151,20,22,5,6,0.6,0.7
2022-05-22T20:00:00,1194A,120.245,31.5631,无锡市,荣巷,,38,27,29,14,19,193,119,166,158,22,15,8,10,0.3,0.3
2022-05-22T20:00:00,1195A,120.299,31.6817,无锡市,堰桥,,44,44,46,28,21,167,122,153,146,19,32,8,8,0.5,0.5
2022-05-22T20:00:00,1196A,119.9633,31.762,常州市,市监测站,,39,38,38,24,19,200,122,181,176,34,21,8,8,0.6,0.6
2022-05-22T20:00:00,1200A,119.9468,31.7069,常州市,武进监测站,,44,41,35,23,27,216,139,193,187,19,16,7,11,0.5,0.6
2022-05-22T20:00:00,1201A,119.9255,31.9087,常州市,安家,,40,37,40,21,29,199,128,186,178,22,24,6,7,0.5,0.7
2022-05-22T20:00:00,1203A,119.6707,32.1875,镇江市,新区办事处,细颗粒物(PM2.5),92,86,45,68,31,196,122,177,172,46,26,10,8,0.6,0.6
2022-05-22T20:00:00,1204A,119.4974,32.1968,镇江市,职教中心,细颗粒物(PM2.5),68,67,48,49,36,218,166,199,198,24,23,10,8,0.6,0.7
2022-05-22T20:00:00,1205A,119.4303,32.1328,镇江市,丹徒区监测站,细颗粒物(PM2.5),93,75,51,69,47,227,181,220,213,22,20,9,7,0.7,0.6
2022-05-22T20:00:00,1206A,119.905,32.4878,泰州市,公园路,颗粒物(PM10),54,58,50,22,28,190,162,173,173,25,21,8,9,0.8,0.8
2022-05-22T20:00:00,1207A,119.9189,32.4625,泰州市,莲花,臭氧1小时,58,56,51,29,33,190,166,174,174,24,20,14,11,0.8,0.8
2022-05-22T20:00:00,1209A,119.888,32.4639,泰州市,留学生创业园,臭氧1小时,69,45,50,16,28,195,175,178,178,26,21,12,9,0.8,0.9
2022-05-22T20:00:00,1210A,119.036,33.5981,淮安市,钵池山,,49,43,69,26,46,228,154,204,191,17,17,8,11,0.6,0.8
2022-05-22T20:00:00,1211A,119.007,33.575,淮安市,北京南路,颗粒物(PM10),108,166,87,28,52,226,124,200,188,45,24,10,13,0.5,0.7
2022-05-22T20:00:00,1212A,118.989,33.6067,淮安市,市监测站,,49,44,86,22,48,229,156,201,192,21,27,12,18,0.6,1
2022-05-22T20:00:00,1213A,119.135,33.5039,淮安市,楚州区监测站,颗粒物(PM10),56,61,77,29,50,209,124,190,173,20,26,11,11,0.6,0.7
2022-05-22T20:00:00,1214A,119.0186,33.6297,淮安市,淮阴区监测站,,45,40,71,22,52,212,144,188,179,21,22,9,13,0.8,1.1
2022-05-22T20:00:00,1215A,120.118,33.4022,盐城市,盐城电厂,,40,39,59,27,37,192,127,171,152,15,17,11,15,0.6,0.7
2022-05-22T20:00:00,1216A,120.156,33.3942,盐城市,市监测站,,41,34,49,10,27,207,129,182,160,20,18,10,8,0.3,0.2
2022-05-22T20:00:00,1218A,120.2144,33.38,盐城市,开发区管委会,,44,44,47,16,24,202,129,179,157,19,18,10,12,0.3,0.4
2022-05-22T20:00:00,1220A,118.293,33.9528,宿迁市,宿迁学院,颗粒物(PM10),62,73,74,34,44,213,155,200,194,37,28,9,8,0.6,0.5
2022-05-22T20:00:00,1221A,118.2442,33.9592,宿迁市,宿迁中学,臭氧1小时,74,53,74,24,34,212,179,202,200,14,18,8,9,0.5,0.5
2022-05-22T20:00:00,1223A,120.2072,30.2111,杭州市,滨江,颗粒物(PM10),52,54,58,24,27,202,120,170,164,26,44,6,5,0.6,0.6
2022-05-22T20:00:00,1224A,120.0633,30.2747,杭州市,西溪,,47,47,41,22,23,155,123,146,145,22,25,10,9,0.8,0.8
2022-05-22T20:00:00,1226A,120.3461,30.3153,杭州市,下沙,,40,32,52,17,30,205,126,192,178,25,37,8,9,0.6,0.6
2022-05-22T20:00:00,1227A,120.1269,30.2456,杭州市,卧龙桥,,39,36,39,18,25,178,123,164,161,22,23,7,5,0.6,0.6
2022-05-22T20:00:00,1228A,120.1903,30.2692,杭州市,浙江农大,细颗粒物(PM2.5),52,39,50,36,42,203,121,175,168,25,38,7,7,0.5,0.5
2022-05-22T20:00:00,1230A,120.1197,30.3119,杭州市,和睦小学,,41,41,56,20,31,202,118,174,168,33,45,5,5,0.6,0.7
2022-05-22T20:00:00,1231A,120.3019,30.4183,杭州市,临平镇,颗粒物(PM10),51,51,62,35,33,201,129,182,175,21,25,5,5,0.6,0.6
2022-05-22T20:00:00,1232A,120.2697,30.1819,杭州市,城厢镇,颗粒物(PM10),54,58,53,33,31,169,105,146,138,38,40,9,7,0.6,0.5
2022-05-22T20:00:00,1233A,120.0883,30.1808,杭州市,云栖,,45,45,41,23,21,160,130,151,148,31,27,9,8,0.1,0.4
2022-05-22T20:00:00,1234A,121.8358,29.911,宁波市,区环保大楼,,36,27,26,14,17,114,113,110,110,12,20,7,7,0.3,0.4
2022-05-22T20:00:00,1235A,121.56,29.82,宁波市,万里学院,,40,36,23,28,16,130,111,125,124,12,11,10,9,0.4,0.4
2022-05-22T20:00:00,1236A,121.713,29.9572,宁波市,龙赛医院,,,23,24,12,14,125,118,122,122,,26,6,7,0.3,0.4
2022-05-22T20:00:00,1239A,121.633,29.7733,宁波市,钱湖水厂,,34,22,17,17,12,118,107,116,115,7,5,8,7,0.4,0.5
2022-05-22T20:00:00,1240A,121.5856,29.8635,宁波市,太古小学,,39,39,22,25,15,114,92,110,107,18,15,7,7,0.4,0.4
2022-05-22T20:00:00,1241A,121.524,29.8674,宁波市,市环境监测中心,,33,28,25,19,12,124,104,116,115,16,14,8,9,0.4,0.4
2022-05-22T20:00:00,1242A,120.634,28.0089,温州市,瓯海,,30,30,35,14,20,144,74,112,100,23,24,6,6,0.5,0.4
2022-05-22T20:00:00,1243A,120.6748,27.9939,温州市,南浦,,36,36,39,19,19,139,72,112,98,27,23,6,6,0.4,0.3
2022-05-22T20:00:00,1244A,120.76,27.9747,温州市,龙湾,颗粒物(PM10),55,60,40,22,14,114,76,103,93,29,26,4,5,0.4,0.4
2022-05-22T20:00:00,1245A,120.6709,28.0167,温州市,市站,,38,38,41,16,18,142,74,112,102,24,21,4,5,0.4,0.4
2022-05-22T20:00:00,1247A,120.6053,29.9928,绍兴市,城东开发委,,40,40,31,28,18,154,98,128,125,20,17,7,6,0.5,0.5
2022-05-22T20:00:00,1250A,120.0751,30.8669,湖州市,城西水厂,,43,43,40,11,21,172,129,161,156,20,20,8,7,0.3,0.4
2022-05-22T20:00:00,1252A,120.7436,30.778,嘉兴市,清河小学,,39,35,27,23,18,178,124,154,153,20,18,8,9,0.5,0.6
2022-05-22T20:00:00,1253A,120.726,30.7478,嘉兴市,嘉兴学院,,38,33,30,13,21,177,119,152,150,26,22,7,7,0.3,0.3
2022-05-22T20:00:00,1255A,121.273,28.6459,台州市,黄岩环保大楼,,38,38,35,17,15,148,90,121,112,16,17,6,6,0.4,0.4
2022-05-22T20:00:00,1256A,121.419,28.6542,台州市,台州环保大楼,,48,48,36,19,16,133,111,118,114,11,13,6,5,0.3,0.3
2022-05-22T20:00:00,1257A,121.377,28.5773,台州市,路桥田洋王,,41,41,32,27,20,135,97,115,108,16,15,13,7,0.3,0.2
2022-05-22T20:00:00,1258A,122.122,30.0203,舟山市,定海檀枫,,36,23,23,14,13,113,113,108,108,15,12,4,3,0.2,0.2
2022-05-22T20:00:00,1259A,122.3094,29.9558,舟山市,普陀东港,,31,24,20,20,14,114,99,110,109,16,12,4,4,0.3,0.3
2022-05-22T20:00:00,1260A,122.19,29.9944,舟山市,临城新区,,33,20,19,11,10,118,104,111,111,13,10,4,4,0.3,0.4
2022-05-22T20:00:00,1262A,119.647,29.077,金华市,十五中,,31,31,47,16,28,124,72,107,97,13,27,5,6,0.5,0.6
2022-05-22T20:00:00,1263A,119.686,29.1029,金华市,监测站,,31,31,48,2,24,142,70,117,106,12,31,5,8,0.6,0.6
2022-05-22T20:00:00,1264A,118.8692,28.9398,衢州市,环保大楼,颗粒物(PM10),59,68,78,24,48,148,58,132,120,21,27,31,10,0.7,0.8
2022-05-22T20:00:00,1265A,118.8709,28.9666,衢州市,实验学校,,41,41,60,26,41,147,68,134,122,17,20,3,5,0.7,0.7
2022-05-22T20:00:00,1266A,118.8621,28.9808,衢州市,衢州学院,颗粒物(PM10),52,53,58,33,36,148,71,135,123,27,25,6,9,0.7,0.6
2022-05-22T20:00:00,1267A,119.914,28.4514,丽水市,监测站大楼,,35,34,36,24,19,81,74,74,74,14,18,4,5,0.4,0.5
2022-05-22T20:00:00,1268A,119.93,28.4586,丽水市,莲都小学,颗粒物(PM10),51,51,39,18,16,88,88,86,86,12,15,5,5,0.3,0.3
2022-05-22T20:00:00,1269A,119.879,28.4231,丽水市,余庄前,,26,26,30,15,19,82,51,77,68,10,12,5,5,0.3,0.4
2022-05-22T20:00:00,1270A,117.1959,31.7848,合肥市,明珠广场,颗粒物(PM10),52,53,78,12,37,170,99,155,142,44,51,7,8,0.5,0.6
2022-05-22T20:00:00,1271A,117.3072,31.8764,合肥市,三里街,颗粒物(PM10),59,68,83,24,39,164,81,152,140,54,44,14,12,0.5,0.4
2022-05-22T20:00:00,1272A,117.2588,31.8707,合肥市,琥珀山庄,颗粒物(PM10),52,53,66,19,32,181,95,170,158,40,30,10,10,0.7,0.7
2022-05-22T20:00:00,1273A,117.1604,31.9052,合肥市,董铺水库(对照点),,44,44,85,19,29,176,119,167,156,36,38,9,8,0.3,0.5
2022-05-22T20:00:00,1274A,117.25,31.8571,合肥市,长江中路,颗粒物(PM10),53,56,78,27,42,180,102,170,158,52,43,11,11,0.6,0.6
2022-05-22T20:00:00,1275A,117.266,31.9436,合肥市,庐阳区,颗粒物(PM10),54,58,82,27,47,181,105,163,152,49,54,13,11,0.5,0.6
2022-05-22T20:00:00,1276A,117.336,31.8586,合肥市,瑶海区,颗粒物(PM10),59,68,94,27,44,174,58,163,143,85,61,12,11,0.5,0.5
2022-05-22T20:00:00,1277A,117.3027,31.7964,合肥市,包河区,"二氧化氮,颗粒物(PM10)",51,51,86,24,43,184,44,168,150,102,73,9,11,0.2,0.3
2022-05-22T20:00:00,1278A,117.2776,31.7385,合肥市,滨湖新区,颗粒物(PM10),51,51,72,19,38,188,115,173,159,31,28,10,11,0.4,0.3
2022-05-22T20:00:00,1279A,117.1318,31.8403,合肥市,高新区,,46,46,73,19,39,181,108,170,158,40,36,12,12,0.5,0.7
2022-05-22T20:00:00,1280A,119.3903,26.0543,福州市,鼓山(对照点),,,7,16,10,14,105,63,99,62,16,13,,,0.1,0.1
2022-05-22T20:00:00,1282A,119.2681,26.0504,福州市,师大,,25,24,26,17,19,67,45,56,54,25,21,2,2,0.6,0.4
2022-05-22T20:00:00,1283A,119.2984,26.1028,福州市,五四北路,,20,20,24,9,21,63,54,50,44,23,22,3,3,0.6,0.5
2022-05-22T20:00:00,1284A,119.2648,26.0768,福州市,杨桥西路,,25,22,27,17,20,65,40,55,51,27,23,3,3,0.8,0.6
2022-05-22T20:00:00,1285A,119.317,26.0746,福州市,紫阳,,25,20,26,17,18,74,45,65,44,28,22,4,5,0.7,0.7
2022-05-22T20:00:00,1286A,118.1608,24.8169,厦门市,溪东(对照点),,22,15,17,14,12,94,70,92,78,5,4,1,2,0.4,0.4
2022-05-22T20:00:00,1287A,118.1514,24.4767,厦门市,洪文,颗粒物(PM10),54,57,37,34,17,120,58,92,88,35,27,4,5,0.7,0.5
2022-05-22T20:00:00,1288A,118.0661,24.4444,厦门市,鼓浪屿,,38,38,28,26,21,110,56,93,90,28,14,3,2,0.5,0.5
2022-05-22T20:00:00,1290A,115.8931,28.6843,南昌市,省外办,细颗粒物(PM2.5),53,47,54,37,32,118,80,108,106,18,36,8,7,0.8,1
2022-05-22T20:00:00,1291A,115.8886,28.7003,南昌市,省林业公司,颗粒物(PM10),51,51,64,31,24,127,80,109,109,27,54,9,7,0.9,1
2022-05-22T20:00:00,1292A,115.8126,28.7442,南昌市,林科所,细颗粒物(PM2.5),52,48,40,36,27,129,89,106,106,16,36,12,8,0.7,0.9
2022-05-22T20:00:00,1294A,115.8518,28.687,南昌市,建工学校,颗粒物(PM10),51,52,58,35,31,126,77,112,109,29,45,11,11,0.6,0.8
2022-05-22T20:00:00,1295A,115.8921,28.6424,南昌市,象湖,,43,43,53,30,25,117,74,106,102,19,39,12,6,0.7,0.9
2022-05-22T20:00:00,1296A,115.7423,28.7996,南昌市,武术学校(对照点),,44,44,33,27,17,122,29,102,78,6,9,14,13,0.6,0.6
2022-05-22T20:00:00,1298A,115.9314,28.6842,南昌市,省站,颗粒物(PM10),59,68,79,35,35,115,80,104,103,24,52,18,11,0.6,0.9
2022-05-22T20:00:00,1300A,116.9376,36.665,济南市,农科所,颗粒物(PM10),57,63,62,22,20,180,145,176,172,23,19,9,11,0.3,0.3
2022-05-22T20:00:00,1301A,117.1265,36.6734,济南市,开发区,臭氧1小时,84,54,48,20,22,209,187,199,199,14,12,10,11,0.3,0.3
2022-05-22T20:00:00,1303A,117.0624,36.6868,济南市,省种子仓库,臭氧1小时,68,53,59,22,26,191,174,185,185,13,8,8,11,0.5,0.4
2022-05-22T20:00:00,1304A,116.9489,36.6447,济南市,机床二厂,颗粒物(PM10),72,93,78,20,21,182,160,178,177,15,10,6,9,0.4,0.3
2022-05-22T20:00:00,1305A,117.0495,36.663,济南市,市监测站,臭氧1小时,70,54,56,31,19,198,176,190,190,20,11,8,9,0.5,0.4
2022-05-22T20:00:00,1306A,116.7675,36.5484,济南市,长清党校,颗粒物(PM10),55,59,58,27,24,191,161,187,184,28,15,12,16,0.7,0.6
2022-05-22T20:00:00,1307A,120.6659,36.2403,青岛市,仰口(对照点),臭氧1小时,59,48,71,31,36,189,167,174,174,11,12,6,9,0.4,0.6
2022-05-22T20:00:00,1310A,120.4134,36.0658,青岛市,市南区东部子站,细颗粒物(PM2.5),58,63,71,41,36,240,160,201,201,30,26,6,9,0.5,0.5
2022-05-22T20:00:00,1311A,120.3664,36.1032,青岛市,四方区子站,细颗粒物(PM2.5),62,68,65,44,37,220,161,202,195,31,28,7,10,0.9,0.8
2022-05-22T20:00:00,1312A,120.2994,36.054,青岛市,市南区西部子站,臭氧1小时,102,68,70,39,32,249,204,214,214,32,39,10,11,0.7,0.7
2022-05-22T20:00:00,1313A,120.4581,36.0858,青岛市,崂山区子站,臭氧1小时,75,70,71,39,36,252,180,217,217,22,26,10,11,0.6,0.6
2022-05-22T20:00:00,1314A,120.1983,35.9608,青岛市,黄岛区子站,臭氧1小时,102,56,69,34,43,253,204,218,218,29,28,7,9,0.5,0.5
2022-05-22T20:00:00,1315A,120.3999,36.3083,青岛市,城阳区子站,颗粒物(PM10),62,73,77,34,35,199,150,192,187,27,26,7,8,0.7,0.7
2022-05-22T20:00:00,1316A,113.69031,34.76122,郑州市,烟厂,臭氧1小时,62,43,51,28,27,182,169,172,172,12,16,6,9,0.5,0.5
2022-05-22T20:00:00,1317A,113.65724,34.77134,郑州市,郑纺机,颗粒物(PM10),51,52,55,23,23,176,160,162,162,11,15,8,10,0.6,0.6
2022-05-22T20:00:00,1318A,113.67526,34.80246,郑州市,银行学校,臭氧1小时,70,45,46,27,24,192,176,180,180,12,15,6,8,0.5,0.5
2022-05-22T20:00:00,1319A,113.56746,34.81334,郑州市,供水公司,颗粒物(PM10),59,68,58,26,28,177,164,165,165,17,19,7,8,0.5,0.5
2022-05-22T20:00:00,1320A,113.7329,34.7178,郑州市,经开区管委,颗粒物(PM10),52,53,57,25,30,170,158,164,164,17,22,6,7,0.5,0.6
2022-05-22T20:00:00,1321A,113.73961,34.77172,郑州市,四十七中,臭氧1小时,64,57,56,18,28,182,171,175,175,6,14,7,9,0.5,0.5
2022-05-22T20:00:00,1322A,113.60532,34.74838,郑州市,市监测站,颗粒物(PM10),54,58,62,25,24,176,157,160,160,15,18,8,10,0.5,0.5
2022-05-22T20:00:00,1323A,113.64164,34.7525,郑州市,河医大,颗粒物(PM10),57,63,55,21,25,179,162,166,166,9,12,5,7,0.5,0.5
2022-05-22T20:00:00,1324A,113.51488,34.91089,郑州市,岗李水库(对照点),臭氧1小时,57,55,59,27,24,181,165,168,168,16,21,7,8,0.5,0.5
2022-05-22T20:00:00,1325A,114.3677,30.5584,武汉市,东湖梨园,细颗粒物(PM2.5),62,60,84,44,53,189,113,163,155,21,35,11,12,0.9,1
2022-05-22T20:00:00,1326A,114.2529,30.558,武汉市,汉阳月湖,颗粒物(PM10),60,69,75,39,50,162,109,148,141,24,69,10,11,0.8,1.1
2022-05-22T20:00:00,1327A,114.282,30.6189,武汉市,汉口花桥,细颗粒物(PM2.5),70,64,77,51,56,168,108,145,138,27,72,9,12,0.9,1.2
2022-05-22T20:00:00,1328A,114.3025,30.5332,武汉市,武昌紫阳,颗粒物(PM10),63,76,82,27,44,167,97,146,135,26,74,9,11,1.0,1.4
2022-05-22T20:00:00,1329A,114.3646,30.6217,武汉市,青山钢花,细颗粒物(PM2.5),64,65,100,46,62,182,111,156,150,36,72,8,13,1.0,1.4
2022-05-22T20:00:00,1330A,114.1566,30.4825,武汉市,沌口新区,"颗粒物(PM10),细颗粒物(PM2.5)",55,60,87,39,46,172,97,152,137,27,61,12,12,0.9,1
2022-05-22T20:00:00,1331A,114.3014,30.5944,武汉市,汉口江滩,颗粒物(PM10),66,81,91,37,51,169,101,132,124,40,92,7,10,1.0,1.1
2022-05-22T20:00:00,1333A,114.135,30.6319,武汉市,吴家山,颗粒物(PM10),65,79,95,37,55,161,101,153,139,21,64,6,8,0.7,1
2022-05-22T20:00:00,1334A,113.8454,30.2917,武汉市,沉湖七壕(对照点),,47,47,71,29,32,166,110,142,128,9,31,5,6,0.9,1
2022-05-22T20:00:00,1335A,113.0833,28.2325,长沙市,经开区环保局,,49,31,40,34,38,109,59,96,92,33,34,3,3,0.7,0.8
2022-05-22T20:00:00,1336A,112.8872,28.2189,长沙市,高开区环保局,,48,38,46,33,39,113,80,94,94,31,47,7,8,0.6,0.7
2022-05-22T20:00:00,1337A,113.0792,28.2053,长沙市,马坡岭,,,39,54,24,34,116,76,111,104,22,32,,5,0.5,0.6
2022-05-22T20:00:00,1338A,112.9394,28.19,长沙市,湖南师范大学,细颗粒物(PM2.5),62,43,42,44,49,117,75,96,96,18,26,1,2,0.8,0.8
2022-05-22T20:00:00,1339A,113.0178,28.1322,长沙市,雨花区环保局,,43,33,47,30,35,122,88,111,110,21,33,5,6,0.5,0.6
2022-05-22T20:00:00,1340A,112.9792,28.2597,长沙市,伍家岭,,50,50,62,35,36,104,54,91,89,51,44,7,7,0.8,0.7
2022-05-22T20:00:00,1341A,113.0014,28.1944,长沙市,火车新站,细颗粒物(PM2.5),55,50,53,39,48,111,69,98,96,42,42,6,7,0.5,0.6
2022-05-22T20:00:00,1342A,112.9844,28.1178,长沙市,天心区环保局,,42,33,42,29,38,111,69,102,100,31,37,4,5,0.5,0.6
2022-05-22T20:00:00,1343A,112.8908,28.1308,长沙市,湖南中医药大学,细颗粒物(PM2.5),62,36,45,44,41,96,50,83,81,45,46,4,4,0.9,0.8
2022-05-22T20:00:00,1344A,112.9581,28.3611,长沙市,沙坪(对照点),,49,49,48,33,34,112,52,80,80,22,21,4,4,0.7,0.7
2022-05-22T20:00:00,1345A,113.2347,23.1423,广州市,广雅中学,细颗粒物(PM2.5),52,48,39,36,29,96,17,54,36,68,40,6,6,1.3,1.1
2022-05-22T20:00:00,1346A,113.2612,23.105,广州市,市五中,颗粒物(PM10),54,57,38,37,31,133,63,78,69,47,33,5,5,0.9,0.8
2022-05-22T20:00:00,1348A,113.3478,23.0916,广州市,广东商学院,,42,42,37,25,26,128,74,109,107,40,31,4,5,0.8,0.9
2022-05-22T20:00:00,1349A,113.4332,23.1047,广州市,市八十六中,颗粒物(PM10),51,51,51,21,28,164,70,131,128,44,35,7,8,0.6,0.7
2022-05-22T20:00:00,1350A,113.3505,22.9483,广州市,番禺中学,,30,30,35,17,22,125,71,116,108,24,25,9,8,0.6,0.6
2022-05-22T20:00:00,1351A,113.2146,23.3916,广州市,花都师范,,30,30,33,20,23,68,42,53,52,25,22,3,3,0.9,0.8
2022-05-22T20:00:00,1352A,113.2597,23.1331,广州市,市监测站,颗粒物(PM10),55,60,40,33,29,104,43,68,54,54,34,5,6,1.0,0.8
2022-05-22T20:00:00,1353A,113.5618,23.312,广州市,九龙镇镇龙,,43,43,36,25,23,141,70,112,109,29,17,5,5,0.7,0.7
2022-05-22T20:00:00,1354A,113.2765,23.1544,广州市,麓湖,,50,50,38,32,26,124,54,69,52,35,35,3,4,1.0,1
2022-05-22T20:00:00,1355A,113.443,23.3035,广州市,帽峰山森林公园(对照点),,34,34,28,20,20,142,51,114,105,22,11,4,4,0.8,0.7
2022-05-22T20:00:00,1356A,114.1063,22.5545,深圳市,通心岭子站,,33,31,28,20,16,105,105,104,98,6,5,3,3,0.4,0.3
2022-05-22T20:00:00,1357A,114.117,22.5625,深圳市,洪湖,,39,39,30,22,15,115,106,114,105,14,10,6,6,0.3,0.3
2022-05-22T20:00:00,1358A,113.987,22.5417,深圳市,华侨城,,31,31,32,14,17,109,93,109,94,9,7,4,3,0.6,0.6
2022-05-22T20:00:00,1359A,113.9181,22.5171,深圳市,南海子站,,30,27,31,16,18,106,94,97,97,4,6,2,3,0.4,0.4
2022-05-22T20:00:00,1360A,114.2458,22.5689,深圳市,盐田,,32,32,30,22,18,113,61,103,99,62,26,5,4,0.6,0.6
2022-05-22T20:00:00,1361A,114.2283,22.7244,深圳市,龙岗,,30,30,32,15,15,118,94,107,96,20,16,3,3,0.5,0.5
2022-05-22T20:00:00,1363A,114.494,22.5422,深圳市,南澳,,36,30,30,17,14,124,114,116,116,6,6,6,6,0.7,0.6
2022-05-22T20:00:00,1364A,114.41,22.6342,深圳市,葵涌,,37,36,28,22,16,119,117,104,104,5,5,5,5,0.4,0.4
2022-05-22T20:00:00,1365A,114.297,22.5978,深圳市,梅沙,,43,43,33,21,15,128,128,120,120,7,7,5,5,0.5,0.4
2022-05-22T20:00:00,1366A,114.0678,22.738,深圳市,观澜,,37,37,39,16,18,86,71,79,78,18,17,5,5,0.5,0.5
2022-05-22T20:00:00,1367A,113.5814,22.2618,珠海市,吉大,,29,29,28,9,17,110,76,108,93,21,10,7,7,0.5,0.5
2022-05-22T20:00:00,1368A,113.4881,22.2335,珠海市,前山,,30,29,28,12,15,117,95,109,107,16,12,8,8,0.3,0.3
2022-05-22T20:00:00,1369A,113.628,22.4251,珠海市,唐家,,29,23,24,16,17,126,92,108,108,21,16,8,8,0.4,0.4
2022-05-22T20:00:00,1370A,113.299,22.2281,珠海市,斗门,,29,25,29,12,18,105,90,98,95,10,8,8,8,0.5,0.5
2022-05-22T20:00:00,1371A,113.1294,23.0067,佛山市,湾梁,颗粒物(PM10),62,73,45,30,27,59,19,37,34,62,37,5,5,1.0,0.8
2022-05-22T20:00:00,1372A,113.1083,23.0478,佛山市,华材职中,颗粒物(PM10),60,70,39,32,29,79,32,50,50,59,38,7,6,0.8,0.6
2022-05-22T20:00:00,1373A,113.144,23.0453,佛山市,南海气象局,颗粒物(PM10),52,54,38,32,32,55,29,40,36,60,44,5,5,0.7,0.6
2022-05-22T20:00:00,1374A,113.2881,22.8094,佛山市,顺德苏岗,,25,24,32,14,20,126,77,112,104,18,22,4,5,0.7,0.8
2022-05-22T20:00:00,1376A,112.8383,22.8678,佛山市,高明孔堂,颗粒物(PM10),52,53,37,29,22,82,23,48,48,49,29,8,7,0.8,0.7
2022-05-22T20:00:00,1377A,112.8836,23.1588,佛山市,三水监测站,,41,41,31,24,25,65,27,36,35,34,28,7,6,1.0,1.1
2022-05-22T20:00:00,1378A,112.867,23.185,佛山市,三水云东海,,21,21,31,7,16,76,28,43,40,27,23,5,6,0.8,0.8
2022-05-22T20:00:00,1379A,113.3769,22.5211,中山市,华柏园,,32,32,31,19,17,102,80,97,94,15,12,3,3,0.6,0.7
2022-05-22T20:00:00,1380A,113.3881,22.5497,中山市,张溪,颗粒物(PM10),51,51,32,21,24,104,77,101,96,11,10,1,1,0.5,0.5
2022-05-22T20:00:00,1381A,113.4075,22.5111,中山市,紫马岭,,27,27,27,15,15,108,80,102,98,13,10,4,4,0.5,0.5
2022-05-22T20:00:00,1382A,113.4411,22.4853,中山市,长江旅游区(对照点),,26,25,27,18,16,112,82,103,101,12,9,3,3,0.4,0.4
2022-05-22T20:00:00,1383A,113.1064,22.6058,江门市,北街,,29,29,28,14,15,112,75,101,93,15,14,5,5,0.5,0.5
2022-05-22T20:00:00,1384A,113.0731,22.5835,江门市,西区,,37,37,29,14,17,122,75,112,100,17,14,4,4,0.5,0.5
2022-05-22T20:00:00,1385A,113.0219,22.5311,江门市,圭峰西,,27,27,28,16,18,112,74,103,93,13,12,4,4,0.4,0.4
2022-05-22T20:00:00,1386A,113.0828,22.5947,江门市,东湖,,34,34,31,14,17,122,80,112,102,14,12,8,8,0.4,0.5
2022-05-22T20:00:00,1389A,113.7547,23.0494,东莞市,莞城梨川,,25,22,36,11,22,140,79,127,122,17,18,7,8,0.7,0.8
2022-05-22T20:00:00,1390A,113.7944,23.0128,东莞市,东城石井,,,22,31,11,22,144,,127,124,,17,,6,,0.6
2022-05-22T20:00:00,1391A,113.7383,22.9658,东莞市,南城西平,,24,23,31,14,22,131,75,122,113,22,22,4,4,0.5,0.6
2022-05-22T20:00:00,1392A,114.4183,23.0528,惠州市,河南岸金山湖子站,,31,31,32,16,16,118,88,102,99,11,8,4,4,0.6,0.6
2022-05-22T20:00:00,1393A,114.4053,23.0822,惠州市,下埔横江三路子站,,29,24,33,14,16,127,90,112,106,17,12,3,4,0.6,0.7
2022-05-22T20:00:00,1394A,114.4103,23.1142,惠州市,江北云山西路子站,,34,20,34,15,21,143,107,120,117,6,9,6,6,0.4,0.5
2022-05-22T20:00:00,1395A,114.4645,22.7833,惠州市,惠阳区承修路船湖子站,,33,30,29,18,14,108,105,99,99,10,10,1,1,0.4,0.4
2022-05-22T20:00:00,1396A,114.5317,22.7422,惠州市,大亚湾管委会子站,,35,27,29,19,18,124,111,116,116,17,12,5,5,0.4,0.4
2022-05-22T20:00:00,1397A,112.4267,23.0706,肇庆市,睦岗子站,颗粒物(PM10),51,51,37,34,27,85,63,60,60,32,25,8,8,1.0,1.1
2022-05-22T20:00:00,1398A,112.4645,23.0475,肇庆市,城中子站,,49,49,35,32,29,70,61,61,61,31,26,8,8,0.9,0.9
2022-05-22T20:00:00,1399A,112.5544,23.1522,肇庆市,坑口子站,,38,38,37,26,30,68,43,46,45,32,25,4,5,0.8,0.9
2022-05-22T20:00:00,1400A,112.4753,23.1,肇庆市,七星岩子站(对照点),,45,39,33,31,24,82,50,63,53,26,17,10,9,0.8,0.9
2022-05-22T20:00:00,1401A,108.3103,22.7881,南宁市,二十一中,细颗粒物(PM2.5),70,62,46,51,31,82,46,67,64,18,19,6,8,0.8,0.6
2022-05-22T20:00:00,1402A,108.3141,22.8528,南宁市,北湖,细颗粒物(PM2.5),64,63,47,46,32,76,49,67,66,16,18,6,9,0.9,0.8
2022-05-22T20:00:00,1403A,108.3206,22.8225,南宁市,市监测站,细颗粒物(PM2.5),70,46,42,51,32,77,39,61,59,28,27,9,10,0.9,0.8
2022-05-22T20:00:00,1404A,108.3829,22.8037,南宁市,大自然花园,细颗粒物(PM2.5),55,53,39,39,29,85,48,71,69,23,20,6,7,0.9,0.8
2022-05-22T20:00:00,1405A,108.4394,22.7904,南宁市,仙葫(对照点),细颗粒物(PM2.5),62,52,40,44,27,84,49,70,68,18,15,4,5,0.8,0.8
2022-05-22T20:00:00,1406A,108.2397,22.8467,南宁市,区农职院,细颗粒物(PM2.5),54,54,40,38,27,81,44,69,67,28,22,7,8,0.8,0.7
2022-05-22T20:00:00,1407A,108.3275,22.735,南宁市,英华嘉园,细颗粒物(PM2.5),63,55,48,45,31,60,49,52,52,26,28,5,5,0.9,0.7
2022-05-22T20:00:00,1408A,108.2257,22.7757,南宁市,沙井镇街道办,细颗粒物(PM2.5),64,60,44,46,28,64,28,56,45,42,32,4,6,0.9,0.7
2022-05-22T20:00:00,1409A,110.576,19.9507,海口市,东寨港(对照点),,6,4,12,4,8,19,14,17,17,2,1,2,2,0.0,0.1
2022-05-22T20:00:00,1410A,110.3232,20.0574,海口市,海南大学,,16,16,13,7,8,61,44,53,43,3,2,4,4,0.4,0.4
2022-05-22T20:00:00,1411A,110.283,20.0053,海口市,秀英海南医院,,15,15,15,8,8,51,42,47,45,4,3,3,3,0.5,0.4
2022-05-22T20:00:00,1412A,110.338,19.9969,海口市,海南师范大学,,11,9,13,6,6,48,33,40,37,5,3,1,1,0.3,0.4
2022-05-22T20:00:00,1413A,110.33,20.0356,海口市,龙华路环保局宿舍,,16,15,12,11,7,53,36,47,45,8,4,4,4,0.4,0.4
2022-05-22T20:00:00,1414A,106.3787,29.8279,重庆市,缙云山(对照点),,40,33,20,23,15,140,125,123,102,21,11,9,10,0.4,0.4
2022-05-22T20:00:00,1416A,106.4213,29.8253,重庆市,天生,,,43,43,27,26,121,,109,109,28,34,5,6,0.8,0.9
2022-05-22T20:00:00,1417A,106.6263,29.7228,重庆市,两路,,,39,40,23,22,113,,106,106,67,60,5,6,,1.1
2022-05-22T20:00:00,1418A,106.2953,29.5983,重庆市,虎溪,颗粒物(PM10),59,67,47,39,27,125,85,103,103,23,31,9,6,0.7,0.8
2022-05-22T20:00:00,1419A,106.5777,29.5102,重庆市,南坪,,40,39,38,28,21,130,74,108,107,16,26,5,6,0.4,0.5
2022-05-22T20:00:00,1420A,106.6556,29.6277,重庆市,唐家沱,,49,49,35,26,17,135,48,111,106,58,44,5,5,0.3,0.5
2022-05-22T20:00:00,1421A,106.6349,29.4906,重庆市,茶园,,33,33,36,16,16,129,54,95,93,45,40,7,7,0.5,0.4
2022-05-22T20:00:00,1422A,106.3754,29.4572,重庆市,白市驿,颗粒物(PM10),63,76,41,37,25,103,70,85,85,22,23,8,8,0.6,0.7
2022-05-22T20:00:00,1425A,106.6205,29.7166,重庆市,空港,,44,44,44,30,31,114,87,105,105,42,49,5,5,0.6,0.8
2022-05-22T20:00:00,1426A,106.4782,29.4875,重庆市,新山村,,36,36,40,22,22,122,68,104,102,36,50,14,12,0.8,1
2022-05-22T20:00:00,1427A,106.5616,29.6453,重庆市,礼嘉,,42,40,38,29,22,129,65,106,104,67,65,12,11,0.3,0.5
2022-05-22T20:00:00,1428A,106.4522,29.7091,重庆市,蔡家,,33,33,33,19,20,124,76,101,101,30,32,4,5,0.5,0.6
2022-05-22T20:00:00,1429A,106.5093,29.3917,重庆市,鱼新街,,25,25,33,16,19,101,54,89,89,37,34,7,8,0.8,0.8
2022-05-22T20:00:00,1431A,103.9728,30.7236,成都市,金泉两河,,44,26,35,15,25,170,138,156,156,16,22,1,1,0.4,0.5
2022-05-22T20:00:00,1432A,104.1419,30.6764,成都市,十里店,,31,21,39,13,26,127,98,120,118,15,28,2,2,0.4,0.5
2022-05-22T20:00:00,1433A,104.0594,30.5767,成都市,三瓦窑,,31,19,36,13,25,132,98,126,124,16,32,1,2,0.4,0.5
2022-05-22T20:00:00,1434A,104.1122,30.6306,成都市,沙河铺,,30,22,40,19,40,130,96,122,121,18,29,3,3,0.4,0.5
2022-05-22T20:00:00,1437A,104.0431,30.6556,成都市,君平街,,37,19,45,14,35,155,116,144,141,19,31,2,2,0.6,0.7
2022-05-22T20:00:00,1438A,103.6202,31.0201,成都市,灵岩寺(对照点),,47,43,24,28,18,148,148,122,122,11,10,3,12,0.4,0.4
2022-05-22T20:00:00,1439A,106.6899,26.5998,贵阳市,马鞍山,,14,5,15,6,16,57,44,52,51,10,10,4,4,0.3,0.3
2022-05-22T20:00:00,1440A,106.6971,26.5694,贵阳市,市环保站,,12,8,16,3,13,47,38,46,39,19,17,4,5,0.4,0.4
2022-05-22T20:00:00,1441A,106.6243,26.6266,贵阳市,鉴湖路,,17,12,20,0,10,53,53,50,45,8,10,2,2,0.2,0.3
2022-05-22T20:00:00,1442A,106.7487,26.6343,贵阳市,燕子冲,,15,14,24,7,20,64,48,59,49,9,7,5,5,0.5,0.5
2022-05-22T20:00:00,1443A,106.6555,26.4365,贵阳市,碧云窝,,18,17,26,12,17,56,52,51,51,15,14,4,4,0.6,0.6
2022-05-22T20:00:00,1444A,106.694,26.5161,贵阳市,中院村,,16,14,24,5,14,55,49,47,47,18,16,4,4,0.5,0.5
2022-05-22T20:00:00,1445A,106.7109,26.6027,贵阳市,红边门,,,,30,,24,67,,60,,,19,,2,,0.3
2022-05-22T20:00:00,1446A,106.7164,26.5699,贵阳市,新华路,,16,0,14,5,14,55,49,52,52,10,8,4,3,0.3,0.4
2022-05-22T20:00:00,1447A,106.674,26.5424,贵阳市,太慈桥,,17,17,22,0,9,50,41,46,43,20,16,3,4,0.6,0.7
2022-05-22T20:00:00,1450A,102.8204,24.8886,昆明市,呈贡新区,,17,10,8,2,3,65,53,57,57,11,12,6,8,0.6,0.6
2022-05-22T20:00:00,1451A,102.6251,24.9608,昆明市,西山森林公园(对照点),颗粒物(PM10),71,92,44,0,1,70,54,61,61,12,8,7,7,0.7,0.6
2022-05-22T20:00:00,1452A,102.7252,25.0902,昆明市,龙泉镇,,15,15,8,10,3,54,32,43,43,20,15,8,8,0.8,0.6
2022-05-22T20:00:00,1453A,102.7266,25.0375,昆明市,东风东路,,15,15,7,5,6,62,40,46,46,18,20,5,5,0.6,0.5
2022-05-22T20:00:00,1454A,102.6742,25.0669,昆明市,金鼎山,,,,5,15,6,44,31,42,35,22,14,15,10,0.7,0.5
2022-05-22T20:00:00,1455A,102.6644,25.0401,昆明市,碧鸡广场,,14,11,6,8,5,67,36,48,48,28,22,8,8,0.7,0.6
2022-05-22T20:00:00,1456A,91.1319,29.6514,拉萨市,八廓街,,43,9,7,7,5,137,137,130,130,10,10,6,5,0.2,0.2
2022-05-22T20:00:00,1457A,91.1221,29.6747,拉萨市,市环保局,,41,15,9,3,5,136,131,127,127,15,13,6,6,0.2,0.2
2022-05-22T20:00:00,1458A,91.0874,29.6475,拉萨市,区监测站,,41,14,8,0,1,131,129,123,123,12,12,7,7,0.3,0.3
2022-05-22T20:00:00,1459A,91.1774,29.6541,拉萨市,西藏大学,,,,,2,3,133,127,125,125,15,10,8,8,0.2,0.2
2022-05-22T20:00:00,1460A,90.9798,29.6588,拉萨市,区辐射站,,36,12,8,4,4,127,113,117,117,27,14,7,7,0.3,0.3
2022-05-22T20:00:00,1461A,91.0834,29.6292,拉萨市,拉萨火车站,,42,14,10,0,1,132,132,122,122,8,12,8,7,0.3,0.3
2022-05-22T20:00:00,1462A,108.882,34.2749,西安市,高压开关厂,臭氧1小时,55,55,54,20,20,199,164,179,179,26,37,6,6,0.3,0.4
2022-05-22T20:00:00,1463A,108.993,34.2629,西安市,兴庆小区,,50,48,59,19,27,193,159,176,176,25,40,5,6,0.5,0.6
2022-05-22T20:00:00,1464A,109.06,34.2572,西安市,纺织城,颗粒物(PM10),55,59,61,21,24,188,135,166,166,29,41,7,7,0.4,0.4
2022-05-22T20:00:00,1465A,108.9356,34.2173,西安市,小寨,,,64,55,,36,194,143,172,172,29,37,3,2,0.6,0.6
2022-05-22T20:00:00,1466A,108.954,34.2713,西安市,市人民体育场,颗粒物(PM10),51,52,53,19,24,190,155,172,172,27,34,6,6,0.2,0.3
2022-05-22T20:00:00,1467A,108.8922,34.2322,西安市,高新西区,,47,36,50,20,25,195,149,172,172,24,38,7,7,0.4,0.5
2022-05-22T20:00:00,1468A,108.935,34.3474,西安市,经开区,颗粒物(PM10),52,53,55,21,24,187,157,170,170,22,34,4,4,0.3,0.4
2022-05-22T20:00:00,1469A,108.906,34.1546,西安市,长安区,,33,32,44,17,21,184,105,160,159,15,25,6,6,0.4,0.5
2022-05-22T20:00:00,1471A,109.2186,34.3731,西安市,临潼区,颗粒物(PM10),51,51,61,32,26,185,150,170,170,20,29,4,6,0.4,0.4
2022-05-22T20:00:00,1472A,108.869,34.378,西安市,草滩(对照点),颗粒物(PM10),65,80,90,22,27,177,143,160,160,28,45,12,11,0.5,0.6
2022-05-22T20:00:00,1473A,108.985,34.1978,西安市,曲江文化产业集团,,29,24,61,16,25,193,91,162,159,39,46,4,4,0.7,0.8
2022-05-22T20:00:00,1474A,109.051,34.3213,西安市,广运潭,,46,46,57,20,26,177,134,160,160,25,31,6,5,0.4,0.5
2022-05-22T20:00:00,1476A,103.631,36.1031,兰州市,兰炼宾馆,颗粒物(PM10),71,91,65,28,24,182,111,160,149,24,37,10,14,0.4,0.5
2022-05-22T20:00:00,1478A,103.8412,36.0726,兰州市,生物制品所,,44,44,50,19,20,161,124,145,145,24,35,6,12,0.1,0.8
2022-05-22T20:00:00,1479A,103.831,36.0464,兰州市,铁路设计院,,47,47,53,25,20,144,112,128,128,33,35,5,10,0.3,0.7
2022-05-22T20:00:00,1483A,101.524,36.6867,西宁市,第五水厂(对照点),,45,35,34,13,17,174,142,153,153,14,13,12,14,0.6,0.7
2022-05-22T20:00:00,1484A,105.9512,38.6016,银川市,贺兰山马莲口(对照点),颗粒物(PM10),166,282,79,76,24,154,134,140,140,14,11,13,10,0.5,0.4
2022-05-22T20:00:00,1488A,106.2328,38.4975,银川市,贺兰山东路,颗粒物(PM10),73,96,60,38,22,143,120,126,126,20,19,5,10,0.4,0.4
2022-05-22T20:00:00,1489A,106.1358,38.5036,银川市,学院路,颗粒物(PM10),97,143,71,28,19,145,121,127,127,17,19,7,13,0.3,0.3
2022-05-22T20:00:00,1490A,87.5801,43.8303,乌鲁木齐市,监测站,,43,43,58,28,25,151,124,129,129,14,34,7,8,0.5,0.6
2022-05-22T20:00:00,1491A,87.6046,43.768,乌鲁木齐市,收费所,颗粒物(PM10),52,53,59,13,19,150,126,128,128,17,33,9,7,0.3,0.3
2022-05-22T20:00:00,1492A,87.4754,43.9469,乌鲁木齐市,新疆农科院农场(对照点),,42,42,86,12,29,142,125,127,127,6,36,6,7,0.1,0.2
2022-05-22T20:00:00,1493A,87.5525,43.8711,乌鲁木齐市,铁路局,,50,50,57,14,22,148,123,130,130,11,30,8,9,0.5,0.6
2022-05-22T20:00:00,1494A,87.6432,43.831,乌鲁木齐市,三十一中学,颗粒物(PM10),64,78,60,15,8,148,124,133,133,12,20,12,12,0.3,0.3
2022-05-22T20:00:00,1496A,87.7216,44.1747,乌鲁木齐市,米东区环保局,颗粒物(PM10),56,61,65,16,19,143,133,133,133,6,23,10,12,0.3,0.4
2022-05-22T20:00:00,1508A,112.9433,27.8614,湘潭市,板塘,颗粒物(PM10),56,62,58,30,36,112,76,93,93,28,29,10,10,0.9,0.8
2022-05-22T20:00:00,1511A,112.9118,27.8403,湘潭市,市监测站,,,,44,,54,100,,86,86,,27,,10,,1
2022-05-22T20:00:00,1512A,112.8937,27.8728,湘潭市,江麓,,48,48,55,27,33,112,93,103,103,15,25,8,11,1.0,1
2022-05-22T20:00:00,1513A,112.9227,27.8159,湘潭市,岳塘,,42,42,50,29,39,113,70,93,93,20,27,10,11,0.8,0.8
2022-05-22T20:00:00,1514A,112.9074,27.9119,湘潭市,科大,,50,50,44,31,33,117,83,96,96,24,33,6,5,1.3,1.1
2022-05-22T20:00:00,1515A,113.135,27.8244,株洲市,天台山庄,,,34,38,23,35,110,,98,98,25,35,5,8,0.8,0.9
2022-05-22T20:00:00,1518A,113.095,27.8867,株洲市,株冶医院,,36,31,42,25,34,114,59,99,97,29,33,8,9,0.7,0.9
2022-05-22T20:00:00,1519A,113.167,27.8667,株洲市,市四中,,39,29,39,27,37,106,78,90,90,11,19,4,6,0.6,0.7
2022-05-22T20:00:00,1520A,113.143,27.8381,株洲市,火车站,,39,39,51,24,34,114,81,99,99,23,31,5,7,0.6,0.8
2022-05-22T20:00:00,1524A,113.13,27.8528,株洲市,市监测站,,34,34,51,18,37,112,93,97,97,12,29,3,8,0.4,0.6
2022-05-22T20:00:00,1552A,106.805,26.3003,贵阳市,桐木岭(对照点),,17,17,23,9,15,73,46,68,54,6,5,3,7,0.4,0.4
2022-05-22T20:00:00,1559A,113.251,27.8336,株洲市,大京风景区(对照点),,28,28,34,17,27,88,28,67,65,4,7,5,5,0.5,0.7
2022-05-22T20:00:00,1562A,113.0048,27.9153,湘潭市,昭山,,39,22,43,27,38,80,31,76,71,38,35,6,7,0.9,1
2022-05-22T20:00:00,1564A,112.4876,27.9164,湘潭市,韶山(对照点),,20,20,36,5,16,91,59,77,75,3,6,3,4,0.5,0.8
2022-05-22T20:00:00,1585A,109.8756,40.6532,包头市,市环境监测站,,47,35,57,19,23,182,148,168,168,14,48,7,13,0.6,0.8
2022-05-22T20:00:00,1587A,109.9991,40.5842,包头市,包头八中,,48,48,58,17,26,180,150,169,167,15,37,8,21,0.5,0.7
2022-05-22T20:00:00,1588A,109.8538,40.6821,包头市,青山宾馆,,47,38,66,13,29,178,148,164,164,16,48,11,16,0.5,0.7
2022-05-22T20:00:00,1589A,109.8642,40.6288,包头市,惠龙物流,,48,41,57,15,26,186,152,174,172,14,37,6,13,0.6,0.7
2022-05-22T20:00:00,1590A,110.0377,40.5546,包头市,东河鸿龙湾,颗粒物(PM10),69,87,68,17,25,179,148,168,166,8,29,10,18,0.4,0.5
2022-05-22T20:00:00,1591A,110.0023,39.8129,鄂尔多斯市,综合楼,,45,29,72,22,35,183,141,158,157,21,31,5,26,0.6,0.7
2022-05-22T20:00:00,1592A,109.9486,39.8261,鄂尔多斯市,巴音孟克林场办事处,,47,36,58,17,24,193,148,165,162,17,25,6,12,0.5,0.7
2022-05-22T20:00:00,1593A,109.7736,39.5986,鄂尔多斯市,康泽苑,颗粒物(PM10),61,72,53,9,16,180,134,168,162,13,15,5,7,0.4,0.5
2022-05-22T20:00:00,1594A,109.8119,39.5989,鄂尔多斯市,华泰汽车城,,41,24,50,22,23,186,130,168,162,11,17,6,10,0.6,0.6
2022-05-22T20:00:00,1595A,109.9734,39.7884,鄂尔多斯市,奥林花园,,43,27,60,17,24,185,136,160,157,16,25,5,11,0.8,0.8
2022-05-22T20:00:00,1597A,122.2703,40.7094,营口市,大庆路,臭氧1小时,115,87,71,44,38,252,229,235,235,12,12,11,11,1.3,1
2022-05-22T20:00:00,1598A,122.215,40.6511,营口市,镜湖西路,臭氧1小时,126,87,61,52,32,267,252,253,253,16,16,11,11,1.3,1
2022-05-22T20:00:00,1600A,124.3303,40.0625,丹东市,江湾东路,细颗粒物(PM2.5),64,70,48,46,39,180,130,168,162,17,11,14,11,0.7,0.6
2022-05-22T20:00:00,1601A,124.4256,40.1503,丹东市,临江后街,,,,,29,23,173,134,156,153,8,6,14,12,1.6,1.3
2022-05-22T20:00:00,1602A,124.3933,40.1461,丹东市,元宝山,细颗粒物(PM2.5),57,51,41,40,35,166,137,150,150,10,8,12,11,0.9,0.9
2022-05-22T20:00:00,1603A,124.3633,40.1092,丹东市,民主桥,细颗粒物(PM2.5),59,57,43,42,34,173,132,159,155,9,6,15,11,1.1,1
2022-05-22T20:00:00,1604A,122.0303,41.1489,盘锦市,开发区,细颗粒物(PM2.5),104,91,84,78,71,205,171,191,189,43,22,9,9,1.2,0.9
2022-05-22T20:00:00,1605A,122.0485,41.0883,盘锦市,兴隆台,颗粒物(PM10),84,118,85,42,55,199,78,191,178,105,28,7,9,1.5,1.1
2022-05-22T20:00:00,1606A,121.8297,41.1028,盘锦市,新生街道,臭氧1小时,83,72,70,28,33,204,186,198,197,18,20,11,11,1.1,1
2022-05-22T20:00:00,1607A,120.9092,40.7136,葫芦岛市,龙港区,细颗粒物(PM2.5),117,106,83,88,34,261,227,228,228,19,32,23,72,1.0,0.8
2022-05-22T20:00:00,1608A,120.8392,40.7514,葫芦岛市,化工街,臭氧1小时,99,91,87,64,40,245,199,218,218,27,40,16,22,1.0,0.6
2022-05-22T20:00:00,1609A,120.8341,40.7073,葫芦岛市,新区,细颗粒物(PM2.5),123,110,67,93,32,251,212,220,220,27,28,17,23,1.2,0.8
2022-05-22T20:00:00,1610A,120.8695,40.7677,葫芦岛市,东城区,细颗粒物(PM2.5),124,150,98,94,43,254,202,224,224,32,47,20,19,0.8,0.4
2022-05-22T20:00:00,1611A,118.5819,24.9117,泉州市,涂山街,,23,20,25,10,14,107,72,95,90,19,13,8,7,0.4,0.3
2022-05-22T20:00:00,1612A,118.5972,24.8978,泉州市,津头埔,,21,21,29,14,15,97,64,89,81,27,17,4,3,0.4,0.4
2022-05-22T20:00:00,1613A,118.6663,24.9424,泉州市,万安,,21,20,24,12,14,106,65,94,85,24,15,7,6,0.4,0.4
2022-05-22T20:00:00,1614A,118.6117,24.9604,泉州市,清源山(对照点),,22,16,16,15,14,92,67,86,79,13,8,7,6,0.4,0.3
2022-05-22T20:00:00,1616A,117.6795,36.229,济南市,技术学院,臭氧1小时,62,63,75,29,39,212,169,202,200,20,23,25,20,1.9,0.9
2022-05-22T20:00:00,1618A,118.3429,35.0532,临沂市,沂河小区,臭氧1小时,68,66,83,30,41,199,174,192,189,11,38,6,15,0.4,0.5
2022-05-22T20:00:00,1619A,118.295,35.0583,临沂市,鲁南制药厂,臭氧1小时,62,63,91,34,40,207,169,201,195,27,43,7,16,0.5,0.6
2022-05-22T20:00:00,1620A,118.2794,34.9976,临沂市,新光毛纺厂,颗粒物(PM10),62,73,83,34,41,209,159,195,188,17,28,16,16,0.6,0.7
2022-05-22T20:00:00,1621A,118.3956,35.0888,临沂市,河东保险公司,臭氧1小时,78,66,71,32,33,212,182,204,200,17,28,7,12,0.2,0.3
2022-05-22T20:00:00,1622A,116.3032,37.4674,德州市,儿童乐园,颗粒物(PM10),59,68,74,23,26,185,154,171,171,14,11,6,9,0.4,0.4
2022-05-22T20:00:00,1624A,116.2991,37.4451,德州市,监理站,颗粒物(PM10),53,56,63,34,29,176,141,162,161,18,12,11,17,0.3,0.3
2022-05-22T20:00:00,1625A,115.9848,36.4372,聊城市,区政府,颗粒物(PM10),60,69,72,19,24,166,153,158,158,20,12,9,13,0.7,0.6
2022-05-22T20:00:00,1628A,118.0062,37.3803,滨州市,市环保局,臭氧1小时,82,72,75,29,32,235,185,220,218,16,16,11,16,0.4,0.3
2022-05-22T20:00:00,1629A,118.0018,37.3617,滨州市,第二水厂,颗粒物(PM10),64,78,73,29,33,202,164,190,188,20,24,10,14,0.5,0.5
2022-05-22T20:00:00,1630A,117.9776,37.393,滨州市,北中新校,颗粒物(PM10),57,64,63,23,27,213,148,197,193,32,19,13,18,0.6,0.6
2022-05-22T20:00:00,1631A,118.0414,36.8103,淄博市,人民公园,臭氧1小时,69,56,62,32,29,201,175,192,189,19,19,8,11,0.3,0.4
2022-05-22T20:00:00,1633A,117.8525,36.4847,淄博市,双山,臭氧1小时,75,39,53,29,35,206,180,195,195,5,11,10,16,0.3,0.4
2022-05-22T20:00:00,1634A,117.9592,36.6331,淄博市,气象站,,,,75,27,30,206,156,195,192,26,13,10,14,0.4,0.4
2022-05-22T20:00:00,1635A,118.3092,36.8194,淄博市,莆田园,颗粒物(PM10),62,73,76,31,32,216,168,202,199,36,22,12,19,0.4,0.7
2022-05-22T20:00:00,1637A,117.558,34.8438,枣庄市,市中区政府,臭氧1小时,65,66,90,27,35,238,172,225,220,36,48,23,14,0.5,0.5
2022-05-22T20:00:00,1638A,117.2852,34.7837,枣庄市,薛城环保局,臭氧1小时,80,76,74,39,36,214,184,207,206,22,47,12,14,0.7,0.8
2022-05-22T20:00:00,1639A,117.5852,34.7745,枣庄市,峄城区政府,,,90,81,31,32,220,,216,216,23,34,7,15,0.5,0.5
2022-05-22T20:00:00,1640A,117.7276,34.5578,枣庄市,台儿庄区环保局,臭氧1小时,65,68,68,24,28,188,172,181,177,15,35,9,11,0.8,0.9
2022-05-22T20:00:00,1641A,117.4518,35.0992,枣庄市,山亭区环保局,臭氧1小时,75,66,62,37,35,201,180,197,195,21,21,13,18,0.6,0.6
2022-05-22T20:00:00,1642A,121.2514,37.5639,烟台市,开发区,细颗粒物(PM2.5),89,122,88,66,40,278,180,229,229,52,20,20,13,0.9,0.7
2022-05-22T20:00:00,1643A,121.3719,37.5433,烟台市,轴承厂,细颗粒物(PM2.5),82,68,77,60,40,267,184,223,222,35,18,12,12,0.8,0.7
2022-05-22T20:00:00,1644A,121.3181,37.5436,烟台市,西郊化工站,臭氧1小时,82,70,79,41,40,246,185,217,217,30,17,16,17,0.8,0.7
2022-05-22T20:00:00,1645A,121.4478,37.4822,烟台市,莱山环保局,臭氧1小时,127,88,78,56,39,271,253,236,236,20,19,19,11,0.7,0.6
2022-05-22T20:00:00,1646A,121.2611,37.4967,烟台市,福山环保局,臭氧1小时,102,114,93,53,37,249,203,214,214,26,15,18,16,1.0,0.8
2022-05-22T20:00:00,1650A,119.1437,36.7023,潍坊市,环保局,"颗粒物(PM10),臭氧1小时",68,85,77,32,36,193,174,187,185,20,27,9,10,0.6,0.7
2022-05-22T20:00:00,1653A,116.6251,35.4302,济宁市,火炬城,,50,42,55,22,25,179,158,175,171,11,12,10,12,0.6,0.7
2022-05-22T20:00:00,1655A,116.5491,35.4042,济宁市,电化厂,颗粒物(PM10),56,61,71,29,28,181,149,177,171,21,19,6,10,0.8,0.8
2022-05-22T20:00:00,1656A,117.1437,36.1937,泰安市,监测站,颗粒物(PM10),52,54,62,24,28,203,154,191,187,16,12,8,10,0.4,0.4
2022-05-22T20:00:00,1657A,117.0885,36.2017,泰安市,人口学校,,50,48,59,21,22,202,159,190,186,18,17,6,8,0.2,0.2
2022-05-22T20:00:00,1658A,117.1089,36.1758,泰安市,电力学校,颗粒物(PM10),58,66,64,24,27,189,140,180,175,19,23,8,9,0.7,0.8
2022-05-22T20:00:00,1659A,119.471,35.4209,日照市,监测站,臭氧1小时,94,78,88,48,48,210,195,192,191,18,40,8,10,0.4,0.6
2022-05-22T20:00:00,1660A,119.523,35.4216,日照市,市政府广场,臭氧1小时,92,68,88,42,46,215,193,206,206,31,33,11,14,0.6,0.7
2022-05-22T20:00:00,1661A,119.5587,35.4044,日照市,港务局,臭氧1小时,110,85,114,44,47,246,220,225,225,15,61,6,16,0.7,0.9
2022-05-22T20:00:00,1662A,122.1214,37.4236,威海市,华夏技校,臭氧1小时,85,92,75,53,42,250,188,207,205,38,16,15,10,0.8,0.6
2022-05-22T20:00:00,1663A,122.0508,37.5236,威海市,山大分校,细颗粒物(PM2.5),85,93,57,63,36,295,167,252,245,75,18,16,14,1.0,0.5
2022-05-22T20:00:00,1664A,122.1067,37.5072,威海市,市监测站,臭氧1小时,101,115,76,71,39,267,201,231,231,70,21,19,15,1.0,0.6
2022-05-22T20:00:00,1666A,118.6614,37.4309,东营市,市环保局,臭氧1小时,107,85,72,61,60,251,213,232,231,24,25,12,16,0.6,0.7
2022-05-22T20:00:00,1669A,113.5824,24.7733,韶关市,市八中,,18,13,22,12,17,68,47,49,49,14,12,7,12,0.7,0.7
2022-05-22T20:00:00,1671A,113.5917,24.7972,韶关市,园林处,,23,14,22,16,18,65,45,47,47,10,8,7,10,0.6,0.6
2022-05-22T20:00:00,1672A,113.6735,24.7791,韶关市,韶关学院,,17,17,23,11,18,54,43,54,47,11,12,8,8,0.5,0.5
2022-05-22T20:00:00,1673A,113.5971,24.6863,韶关市,曲江监测站,,19,19,23,12,16,166,39,107,42,17,13,6,12,0.6,0.6
2022-05-22T20:00:00,1674A,116.6794,23.3667,汕头市,金平子站,,34,32,29,12,12,125,106,120,120,8,6,10,9,0.5,0.5
2022-05-22T20:00:00,1675A,116.7244,23.3633,汕头市,龙湖子站,,32,31,32,12,12,124,101,117,117,12,10,7,7,0.5,0.5
2022-05-22T20:00:00,1676A,116.7258,23.2775,汕头市,濠江子站,,32,26,24,12,12,127,102,115,115,8,7,9,9,0.4,0.4
2022-05-22T20:00:00,1677A,116.7519,23.4714,汕头市,澄海子站,,33,30,32,11,14,127,104,120,120,12,12,6,6,0.6,0.6
2022-05-22T20:00:00,1678A,116.6092,23.2539,汕头市,潮阳子站,,37,37,30,9,9,126,97,119,117,12,10,8,8,0.5,0.5
2022-05-22T20:00:00,1680A,110.3539,21.2706,湛江市,湛江影剧院,,31,31,21,11,9,81,73,74,69,2,4,5,5,0.6,0.6
2022-05-22T20:00:00,1681A,110.3928,21.2228,湛江市,市环境监测站,,26,24,21,14,14,92,82,83,80,3,3,4,4,0.5,0.5
2022-05-22T20:00:00,1682A,110.4019,21.1997,湛江市,环保局宿舍,,25,25,20,13,12,90,80,78,78,1,2,3,4,0.4,0.4
2022-05-22T20:00:00,1683A,110.4111,21.2028,湛江市,霞山游泳场,,24,24,17,16,12,85,76,75,74,4,4,5,5,0.4,0.4
2022-05-22T20:00:00,1684A,110.3316,21.2679,湛江市,麻章区环保局,,25,25,20,16,12,81,71,74,68,3,4,4,4,0.4,0.4
2022-05-22T20:00:00,1685A,110.4558,21.2567,湛江市,坡头区环保局,,26,23,19,14,12,93,83,86,81,3,4,4,5,0.6,0.6
2022-05-22T20:00:00,1686A,111.0286,21.4688,茂名市,电白南海,,39,39,30,14,14,98,77,85,73,9,10,4,4,0.5,0.5
2022-05-22T20:00:00,1687A,110.9294,21.6533,茂名市,茂石化七小,,34,34,25,22,16,79,60,71,66,10,9,7,6,0.6,0.5
2022-05-22T20:00:00,1688A,110.9107,21.6687,茂名市,健康路,,24,24,18,13,7,70,55,63,57,8,7,5,6,0.6,0.6
2022-05-22T20:00:00,1689A,110.8592,21.6828,茂名市,高岭,,18,17,12,12,6,74,55,69,61,17,10,15,10,0.6,0.4
2022-05-22T20:00:00,1690A,116.1231,24.3284,梅州市,梅江月梅,,42,39,31,29,24,76,49,56,54,7,19,4,4,0.5,0.7
2022-05-22T20:00:00,1691A,116.0797,24.2719,梅州市,梅县新城,细颗粒物(PM2.5),52,38,32,36,29,91,48,71,70,19,19,5,5,0.8,0.8
2022-05-22T20:00:00,1692A,116.1248,24.2654,梅州市,环境监控中心,,45,45,34,27,26,78,36,62,62,27,18,4,5,0.6,0.7
2022-05-22T20:00:00,1693A,115.3653,22.775,汕尾市,市环保局,,35,19,25,12,13,122,111,114,114,7,6,8,8,0.5,0.6
2022-05-22T20:00:00,1694A,115.3706,22.7898,汕尾市,市政府,,38,29,26,16,12,131,120,123,123,7,7,6,6,0.5,0.5
2022-05-22T20:00:00,1695A,115.3622,22.7925,汕尾市,新城中学,,38,24,26,16,14,130,120,121,121,5,5,6,6,0.5,0.5
2022-05-22T20:00:00,1696A,114.6778,23.7569,河源市,源西(对照点),,45,45,37,25,20,76,39,65,63,12,14,4,4,0.5,0.5
2022-05-22T20:00:00,1697A,114.6944,23.7586,河源市,东埔,,39,37,34,27,22,83,44,68,67,15,17,4,4,0.8,0.8
2022-05-22T20:00:00,1698A,114.6892,23.7233,河源市,老城,,40,40,33,23,21,91,45,79,77,17,13,2,3,0.9,0.9
2022-05-22T20:00:00,1699A,111.9797,21.8593,阳江市,鸳鸯湖(对照点),,27,21,21,15,13,110,86,92,78,2,2,7,7,0.5,0.5
2022-05-22T20:00:00,1701A,111.9491,21.8658,阳江市,马南垌,,23,18,23,16,14,95,69,84,69,13,4,5,6,0.5,0.4
2022-05-22T20:00:00,1702A,113.0426,23.691,清远市,环保大楼(对照点),,15,11,22,10,18,81,44,50,43,11,12,3,3,0.8,0.8
2022-05-22T20:00:00,1703A,113.0208,23.7106,清远市,凤城街办,,13,13,23,9,18,74,33,50,37,15,12,4,5,1.1,1.1
2022-05-22T20:00:00,1705A,116.6367,23.6719,潮州市,西园路(对照点),,45,45,37,21,23,108,97,103,103,16,14,7,8,0.7,0.7
2022-05-22T20:00:00,1706A,116.6447,23.6706,潮州市,档案局,,42,42,40,22,23,116,105,111,111,17,15,12,13,0.6,0.6
2022-05-22T20:00:00,1708A,116.3701,23.5345,揭阳市,新兴,颗粒物(PM10),52,53,37,24,24,131,112,122,122,12,10,9,8,0.7,0.6
2022-05-22T20:00:00,1709A,116.3264,23.5443,揭阳市,西马,,46,46,36,26,25,133,108,122,122,12,9,9,7,0.7,0.6
2022-05-22T20:00:00,1710A,116.3611,23.5626,揭阳市,东兴,,50,50,38,18,19,127,109,123,119,10,7,5,6,0.6,0.5
2022-05-22T20:00:00,1711A,116.4151,23.5294,揭阳市,渔湖,,44,44,32,23,18,122,106,115,115,13,12,8,7,0.4,0.4
2022-05-22T20:00:00,1714A,112.0539,22.9539,云浮市,牧羊,颗粒物(PM10),52,54,45,28,31,97,84,92,92,22,17,11,9,0.7,0.7
2022-05-22T20:00:00,1715A,102.575,24.3711,玉溪市,东风水库,,16,16,6,4,2,58,47,52,52,6,7,7,8,0.6,0.7
2022-05-22T20:00:00,1718A,115.4208,35.2464,菏泽市,气象局,颗粒物(PM10),66,82,77,35,29,177,153,164,164,18,16,10,15,0.4,0.4
2022-05-22T20:00:00,1719A,115.4747,35.2375,菏泽市,市政协,颗粒物(PM10),65,79,73,29,25,177,158,165,165,12,12,13,16,0.3,0.3
2022-05-22T20:00:00,1721A,113.3819,40.1097,大同市,果树场(对照点),,47,32,73,30,30,177,150,166,160,13,31,11,20,0.5,0.6
2022-05-22T20:00:00,1723A,113.2994,40.0758,大同市,云冈宾馆,颗粒物(PM10),60,70,77,24,30,174,138,157,155,21,33,7,19,0.9,1.3
2022-05-22T20:00:00,1724A,113.3444,40.0917,大同市,大同大学,,48,24,41,13,23,176,152,168,166,16,26,8,22,0.5,0.6
2022-05-22T20:00:00,1725A,113.2661,40.1269,大同市,安家小村,颗粒物(PM10),66,81,99,39,36,188,151,170,167,16,33,15,22,0.6,1.2
2022-05-22T20:00:00,1726A,113.2711,40.0844,大同市,教育学院,颗粒物(PM10),54,58,74,6,26,183,142,161,158,19,33,11,23,0.3,0.8
2022-05-22T20:00:00,1727A,113.1147,36.1547,长治市,清华站,,49,43,59,24,24,198,156,179,179,18,25,10,13,0.3,0.4
2022-05-22T20:00:00,1728A,113.1031,36.1989,长治市,监测站,臭氧1小时,68,46,58,24,25,202,174,187,187,9,27,9,12,0.5,0.7
2022-05-22T20:00:00,1730A,113.0886,36.2125,长治市,审计局,臭氧1小时,57,42,57,19,26,213,165,195,191,17,39,22,10,0.9,0.9
2022-05-22T20:00:00,1731A,113.0844,36.1856,长治市,长治八中,臭氧1小时,59,47,64,15,21,202,167,186,186,25,30,9,10,0.5,0.7
2022-05-22T20:00:00,1733A,111.5531,36.0783,临汾市,临钢医院,,45,45,53,14,22,208,118,187,177,30,33,4,8,0.6,0.8
2022-05-22T20:00:00,1734A,111.5028,36.0714,临汾市,技工学校,,48,48,54,31,32,203,127,180,174,30,38,6,14,0.7,0.8
2022-05-22T20:00:00,1736A,111.5018,36.0855,临汾市,市委,,46,46,58,26,29,221,139,196,189,34,46,13,19,0.7,0.8
2022-05-22T20:00:00,1738A,113.5758,37.8572,阳泉市,市中心,颗粒物(PM10),51,52,82,21,26,187,149,155,151,36,61,18,20,0.8,0.7
2022-05-22T20:00:00,1739A,113.4894,37.8731,阳泉市,赛鱼,颗粒物(PM10),62,73,48,24,21,190,66,156,140,85,66,11,18,0.6,0.6
2022-05-22T20:00:00,1740A,113.5819,37.8486,阳泉市,南庄,颗粒物(PM10),76,102,88,33,28,178,153,150,149,34,50,11,12,0.7,0.7
2022-05-22T20:00:00,1742A,113.5614,37.8703,阳泉市,平坦,颗粒物(PM10),59,67,72,27,22,182,134,148,144,32,69,13,18,0.8,0.7
2022-05-22T20:00:00,1743A,113.5158,37.8392,阳泉市,大阳泉,,50,35,41,18,23,175,159,154,153,19,26,16,20,0.6,0.5
2022-05-22T20:00:00,1744A,118.9233,42.2816,赤峰市,松山一中,颗粒物(PM10),61,71,57,37,22,130,114,120,120,16,33,7,13,0.6,0.7
2022-05-22T20:00:00,1745A,118.9576,42.2728,赤峰市,哈达街,颗粒物(PM10),64,78,61,10,12,128,109,117,117,16,34,15,17,0.6,0.7
2022-05-22T20:00:00,1746A,118.8788,42.2554,赤峰市,天义路,颗粒物(PM10),61,71,51,9,11,145,124,132,132,8,28,8,13,0.4,0.5
2022-05-22T20:00:00,1748A,123.044,41.1196,鞍山市,深沟寺,,43,25,59,13,30,203,135,182,176,22,14,12,11,0.6,0.8
2022-05-22T20:00:00,1749A,123.011,41.0931,鞍山市,太阳城,,48,23,56,13,32,202,151,189,182,17,17,15,12,0.6,0.9
2022-05-22T20:00:00,1750A,123.0485,41.1442,鞍山市,太平,,36,31,61,12,35,172,114,165,152,32,20,17,14,0.7,0.9
2022-05-22T20:00:00,1751A,122.9642,41.0971,鞍山市,铁西三道街,,50,50,75,24,35,218,134,193,187,36,25,13,14,0.8,1.3
2022-05-22T20:00:00,1752A,122.9341,41.0833,鞍山市,铁西工业园区,颗粒物(PM10),56,61,71,26,38,208,122,190,183,42,22,12,16,0.6,1.1
2022-05-22T20:00:00,1753A,123.022,41.0821,鞍山市,明达新区,,38,35,55,18,33,210,120,194,187,27,14,8,9,0.6,0.8
2022-05-22T20:00:00,1754A,123.1289,41.0228,鞍山市,千山(对照点),,42,41,43,29,31,180,123,159,150,12,10,11,12,0.7,0.7
2022-05-22T20:00:00,1755A,123.7977,41.8491,抚顺市,望花区,,40,40,43,9,20,144,106,125,121,16,14,4,8,0.4,0.7
2022-05-22T20:00:00,1756A,123.9161,41.8822,抚顺市,顺城区,,30,27,48,21,21,115,47,110,101,60,20,8,9,0.5,0.5
2022-05-22T20:00:00,1757A,124.0436,41.8611,抚顺市,东洲区,,39,16,36,6,17,132,123,127,127,4,8,3,7,0.5,0.6
2022-05-22T20:00:00,1758A,123.9247,41.8642,抚顺市,新抚区,颗粒物(PM10),56,62,46,12,19,126,78,121,114,31,17,5,6,0.3,0.4
2022-05-22T20:00:00,1759A,124.0972,41.8961,抚顺市,大伙房水库,,39,39,24,6,15,135,109,133,130,1,5,5,6,0.3,0.4
2022-05-22T20:00:00,1760A,123.7086,41.8391,抚顺市,沈抚新城,,35,32,52,12,36,154,109,136,131,20,21,7,17,0.1,0.9
2022-05-22T20:00:00,1761A,123.8275,41.3064,本溪市,大峪,颗粒物(PM10),83,116,74,19,31,143,39,133,114,81,33,6,7,0.6,0.8
2022-05-22T20:00:00,1762A,123.7567,41.3325,本溪市,溪湖,颗粒物(PM10),53,56,64,19,36,148,104,138,130,23,32,10,22,0.7,1.4
2022-05-22T20:00:00,1763A,123.7169,41.3094,本溪市,彩屯,,41,41,68,17,46,149,68,142,126,33,29,10,16,0.6,1.4
2022-05-22T20:00:00,1764A,123.7669,41.2864,本溪市,东明,颗粒物(PM10),60,70,54,23,28,143,57,136,121,56,22,10,10,1.1,0.8
2022-05-22T20:00:00,1765A,123.7992,41.2664,本溪市,新立屯,,39,39,48,14,32,144,78,137,116,34,16,6,6,0.8,0.9
2022-05-22T20:00:00,1766A,123.8142,41.3472,本溪市,威宁,,40,40,52,12,33,134,67,124,111,21,20,10,11,0.5,0.7
2022-05-22T20:00:00,1767A,121.1115,41.0879,锦州市,南山,细颗粒物(PM2.5),72,88,67,52,48,199,162,176,176,30,19,15,13,0.8,0.5
2022-05-22T20:00:00,1768A,121.0533,40.8434,锦州市,开发区,颗粒物(PM10),137,224,94,76,43,229,147,199,196,83,35,33,17,1.3,1
2022-05-22T20:00:00,1769A,121.1836,41.1119,锦州市,百股街道,细颗粒物(PM2.5),77,66,75,56,43,235,165,202,197,31,22,12,14,1.4,1.2
2022-05-22T20:00:00,1770A,121.1178,41.1222,锦州市,天安街道,臭氧1小时,100,104,92,18,27,230,200,199,199,31,25,18,17,1.4,1
2022-05-22T20:00:00,1772A,126.54,43.8622,吉林市,哈达湾,,32,24,26,17,12,129,102,122,120,15,15,4,14,0.7,0.9
2022-05-22T20:00:00,1774A,126.5052,43.8245,吉林市,电力学院,颗粒物(PM10),52,54,26,34,11,141,72,130,123,28,15,11,15,0.7,0.6
2022-05-22T20:00:00,1775A,126.6133,43.8972,吉林市,江北,,40,40,22,19,9,121,87,116,112,13,27,7,10,0.5,0.6
2022-05-22T20:00:00,1776A,126.555,43.8306,吉林市,江南公园,,28,26,20,13,11,123,87,116,110,25,17,5,9,0.5,0.5
2022-05-22T20:00:00,1778A,126.7061,43.7133,吉林市,丰满(对照点),,34,34,37,10,12,134,96,114,112,5,6,5,5,0.7,0.7
2022-05-22T20:00:00,1779A,123.9305,47.3636,齐齐哈尔市,安居小区,,38,38,32,8,11,96,92,92,92,12,20,4,4,0.6,0.5
2022-05-22T20:00:00,1780A,123.9488,47.3386,齐齐哈尔市,中心广场,,29,29,24,10,9,94,84,90,90,14,19,4,4,0.4,0.4
2022-05-22T20:00:00,1781A,123.9483,47.3227,齐齐哈尔市,农牧车辆厂,,30,27,27,2,6,104,93,100,100,6,14,3,4,0.2,0.2
2022-05-22T20:00:00,1783A,123.945,47.2988,齐齐哈尔市,市环境监测站,,36,26,32,25,27,104,92,100,100,7,17,3,4,0.5,0.5
2022-05-22T20:00:00,1784A,129.61,44.561,牡丹江市,环保大楼,,34,34,22,9,9,88,60,85,81,19,10,6,4,0.5,0.4
2022-05-22T20:00:00,1785A,129.6115,44.5782,牡丹江市,文化广场,,24,24,22,11,13,77,59,75,69,25,17,11,5,0.6,0.3
2022-05-22T20:00:00,1786A,129.5904,44.5963,牡丹江市,第一医院,,,,,,,80,47,78,72,18,13,4,4,0.7,0.6
2022-05-22T20:00:00,1787A,129.6364,44.6075,牡丹江市,机车工厂,,45,45,30,12,10,83,61,80,79,17,15,24,9,0.3,0.3
2022-05-22T20:00:00,1788A,129.6386,44.5462,牡丹江市,第一中学,,33,33,21,18,10,89,38,86,78,32,12,2,2,0.4,0.3
2022-05-22T20:00:00,1789A,124.81117,46.03138,大庆市,大同区,,24,23,23,5,8,98,76,94,91,18,10,6,4,0.6,0.5
2022-05-22T20:00:00,1790A,125.129,46.533,大庆市,龙凤区,,23,22,22,12,9,95,72,90,89,24,17,6,5,0.2,0.2
2022-05-22T20:00:00,1791A,124.902,46.408,大庆市,红岗区,,27,5,20,3,10,102,84,98,96,11,12,13,13,0.6,0.5
2022-05-22T20:00:00,1792A,125.153,46.586,大庆市,萨尔图区,,26,22,16,6,7,106,81,97,96,17,8,5,5,0.7,0.6
2022-05-22T20:00:00,1793A,124.9042,46.6215,大庆市,让胡路区,,31,20,24,16,17,116,98,107,105,14,14,16,14,0.3,0.3
2022-05-22T20:00:00,1794A,118.3606,31.3519,芜湖市,监测站,颗粒物(PM10),54,57,48,29,23,153,134,146,139,39,28,9,10,0.5,0.6
2022-05-22T20:00:00,1795A,118.3714,31.4134,芜湖市,科创中心,颗粒物(PM10),57,64,44,38,26,151,128,145,140,34,29,8,9,0.5,0.5
2022-05-22T20:00:00,1796A,118.3673,31.3131,芜湖市,四水厂,颗粒物(PM10),55,60,54,27,27,162,136,148,144,39,26,8,9,0.5,0.6
2022-05-22T20:00:00,1798A,118.5092,31.6837,马鞍山市,湖东路四小,,48,37,47,18,30,191,151,180,174,23,21,4,5,0.4,0.6
2022-05-22T20:00:00,1799A,118.5024,31.6449,马鞍山市,开发区,颗粒物(PM10),55,60,62,12,31,181,133,169,159,32,37,9,11,0.7,0.9
2022-05-22T20:00:00,1800A,118.5228,31.7231,马鞍山市,慈湖,,50,50,58,34,30,171,130,158,151,27,24,81,17,0.5,0.7
2022-05-22T20:00:00,1802A,118.6245,31.7241,马鞍山市,濮塘(对照点),,46,34,44,28,24,168,147,152,151,9,8,10,10,0.5,0.6
2022-05-22T20:00:00,1803A,115.9872,29.6815,九江市,十里,细颗粒物(PM2.5),55,51,56,39,38,166,66,128,108,36,35,6,7,0.7,0.7
2022-05-22T20:00:00,1804A,115.9584,29.7046,九江市,茅山头,,46,39,48,32,37,167,76,129,112,24,27,4,6,0.5,0.6
2022-05-22T20:00:00,1805A,115.9877,29.7295,九江市,西园,颗粒物(PM10),59,68,60,32,38,151,85,125,115,25,38,4,9,0.6,0.8
2022-05-22T20:00:00,1806A,116.0172,29.6547,九江市,五七二七厂,,32,32,49,14,25,172,60,132,104,3,7,5,6,0.6,0.5
2022-05-22T20:00:00,1808A,115.9114,29.6038,九江市,综合工业园,,,50,52,27,32,131,48,116,96,,31,7,9,0.5,0.7
2022-05-22T20:00:00,1809A,116.0721,29.7535,九江市,石化总厂,颗粒物(PM10),62,74,59,32,36,144,75,122,102,25,35,11,10,0.6,0.6
2022-05-22T20:00:00,1810A,115.9773,29.5698,九江市,庐山气象台(对照点),,30,19,27,16,22,144,93,136,96,3,5,7,8,0.5,0.7
2022-05-22T20:00:00,1812A,112.3931,34.6516,洛阳市,市委党校,,50,49,53,18,24,182,158,169,169,6,10,8,12,0.5,0.6
2022-05-22T20:00:00,1814A,112.4657,34.6871,洛阳市,豫西宾馆,颗粒物(PM10),54,58,58,22,28,205,149,178,178,14,15,4,9,0.5,0.6
2022-05-22T20:00:00,1815A,112.494,34.6886,洛阳市,河南林校,颗粒物(PM10),52,54,65,19,30,213,158,182,182,13,20,8,12,0.2,0.3
2022-05-22T20:00:00,1816A,112.3844,34.623,洛阳市,开发区管委会,,48,46,53,23,28,180,153,168,168,15,15,7,11,0.3,0.3
2022-05-22T20:00:00,1817A,112.4267,34.6258,洛阳市,市委新办公区,臭氧1小时,52,45,52,18,27,177,161,168,168,9,14,4,12,0.3,0.4
2022-05-22T20:00:00,1818A,114.4839,36.0621,安阳市,棉研所(对照点),颗粒物(PM10),66,82,78,28,28,164,113,151,148,25,17,6,9,0.6,0.6
2022-05-22T20:00:00,1819A,114.3551,36.1017,安阳市,红庙街,颗粒物(PM10),58,66,81,22,27,198,143,171,169,16,28,10,16,0.4,0.7
2022-05-22T20:00:00,1820A,114.361,36.0681,安阳市,银杏小区,颗粒物(PM10),61,72,81,23,29,205,149,185,176,16,32,8,12,0.5,0.8
2022-05-22T20:00:00,1824A,114.3389,34.7781,开封市,肿瘤医院,颗粒物(PM10),59,67,62,24,27,174,150,163,163,10,14,6,8,0.5,0.5
2022-05-22T20:00:00,1826A,114.2885,34.7965,开封市,世纪星幼儿园,,,61,61,,22,178,158,168,168,12,14,5,7,0.5,0.6
2022-05-22T20:00:00,1828A,113.2269,35.2127,焦作市,市环保局,,,,48,24,28,211,153,182,182,21,24,3,5,0.4,0.4
2022-05-22T20:00:00,1830A,113.1987,35.2703,焦作市,影视城(对照点),,47,40,40,22,19,205,148,176,176,14,13,6,11,0.4,0.5
2022-05-22T20:00:00,1832A,113.3257,33.742,平顶山市,新华旅馆,颗粒物(PM10),53,56,72,28,30,162,143,157,157,12,12,3,3,0,0
2022-05-22T20:00:00,1833A,113.2919,33.737,平顶山市,规划设计院,颗粒物(PM10),52,53,48,22,21,159,141,154,154,15,16,4,4,0.5,0.4
2022-05-22T20:00:00,1834A,113.182,33.774,平顶山市,平顶山工学院,颗粒物(PM10),55,60,53,29,30,148,133,142,142,8,11,3,3,0.4,0.4
2022-05-22T20:00:00,1835A,111.1922,34.7752,三门峡市,市政府,,46,38,47,20,22,180,145,160,160,23,37,7,9,0.4,0.4
2022-05-22T20:00:00,1836A,111.1587,34.7942,三门峡市,开发区,颗粒物(PM10),55,59,57,22,23,173,120,150,148,28,20,4,8,0.5,0.7
2022-05-22T20:00:00,1838A,111.143,34.7955,三门峡市,风景区(对照点),,42,25,54,15,21,176,134,157,156,22,16,4,7,0.4,0.6
2022-05-22T20:00:00,1840A,111.2992,30.6981,宜昌市,白龙岗,细颗粒物(PM2.5),58,58,56,41,37,129,98,116,116,28,28,9,8,0.5,0.5
2022-05-22T20:00:00,1841A,111.3549,30.6465,宜昌市,伍家岗,,42,42,56,27,40,117,81,102,102,36,34,8,7,0.5,0.5
2022-05-22T20:00:00,1842A,111.2628,30.6961,宜昌市,点军区,颗粒物(PM10),63,75,65,41,43,112,79,97,97,44,28,7,6,0.5,0.5
2022-05-22T20:00:00,1843A,111.3275,30.7819,宜昌市,夷陵区,颗粒物(PM10),51,51,52,34,35,126,96,117,117,26,21,9,7,0.5,0.4
2022-05-22T20:00:00,1844A,112.2494,30.3197,荆州市,市图书馆,,43,36,62,30,40,140,106,125,118,18,35,6,10,0.6,0.8
2022-05-22T20:00:00,1845A,112.2008,30.3544,荆州市,市委党校,,42,32,66,29,43,123,95,118,112,23,34,10,14,0.7,0.8
2022-05-22T20:00:00,1847A,113.1094,29.3578,岳阳市,南湖风景区,,48,48,57,30,40,135,99,121,118,22,33,7,12,0.8,0.9
2022-05-22T20:00:00,1848A,113.1493,29.4251,岳阳市,城陵矶,,49,46,65,34,38,121,84,95,95,34,58,10,16,0.6,0.7
2022-05-22T20:00:00,1849A,113.1497,29.3575,岳阳市,开发区,,47,47,61,29,33,135,92,122,119,17,30,6,10,0.8,0.8
2022-05-22T20:00:00,1850A,113.2621,29.4758,岳阳市,云溪区,细颗粒物(PM2.5),55,47,47,39,35,114,99,98,98,11,18,9,12,0.8,0.9
2022-05-22T20:00:00,1851A,112.9943,29.4402,岳阳市,君山区,,48,39,60,33,50,127,104,115,115,13,27,5,7,0.8,1
2022-05-22T20:00:00,1852A,113.2117,29.355,岳阳市,金凤水库(对照点),,48,42,44,33,31,122,87,103,100,7,14,6,8,0.6,0.7
2022-05-22T20:00:00,1854A,111.6975,28.9703,常德市,市二中,,46,46,47,31,27,96,60,81,80,19,16,21,10,0.7,0.7
2022-05-22T20:00:00,1857A,111.7158,29.1456,常德市,白鹤山(对照点),细颗粒物(PM2.5),67,64,43,48,39,91,56,77,67,9,8,8,7,0.6,0.6
2022-05-22T20:00:00,1858A,110.5319,29.1217,张家界市,永定新区,,28,21,42,19,36,81,51,56,56,18,18,1,2,0.6,0.6
2022-05-22T20:00:00,1859A,110.4697,29.1242,张家界市,电业局,,22,11,31,15,32,75,40,51,51,18,15,1,1,0.2,0.2
2022-05-22T20:00:00,1860A,110.5594,29.3547,张家界市,未央路,,26,14,41,18,24,71,37,60,60,3,6,1,2,0.2,0.4
2022-05-22T20:00:00,1861A,110.4417,29.315,张家界市,袁家界(对照点),,24,19,34,10,6,121,75,87,82,5,6,7,7,0.1,0.2
2022-05-22T20:00:00,1862A,110.4144,25.3167,桂林市,电子科大尧山校区(对照点),,22,20,29,15,24,79,63,74,72,5,5,5,6,0.7,0.7
2022-05-22T20:00:00,1863A,110.2819,25.2697,桂林市,监测站,,23,23,47,16,37,77,70,71,71,16,18,2,5,0.7,0.8
2022-05-22T20:00:00,1864A,110.3089,25.2708,桂林市,龙隐路小学,,23,16,42,16,33,79,73,75,75,10,15,6,8,0.6,0.7
2022-05-22T20:00:00,1865A,110.2869,25.2178,桂林市,八中,,23,17,40,8,24,79,71,71,71,14,16,5,8,0.7,0.6
2022-05-22T20:00:00,1866A,109.2262,21.588,北海市,牛尾岭水库(对照点),,18,18,27,12,19,78,55,66,64,10,10,4,5,0.4,0.5
2022-05-22T20:00:00,1867A,109.1436,21.4086,北海市,海滩公园,,21,21,26,5,13,90,67,82,79,3,5,4,5,0.8,0.8
2022-05-22T20:00:00,1868A,109.0981,21.4661,北海市,新市环保局,颗粒物(PM10),64,77,36,5,29,93,59,63,61,5,8,4,6,0.5,0.8
2022-05-22T20:00:00,1869A,109.1778,21.5233,北海市,北海工业园,,20,20,33,10,22,81,56,68,68,7,9,5,7,0.4,0.6
2022-05-22T20:00:00,1870A,109.4856,24.3895,柳州市,柳东小学,,19,16,32,6,34,70,59,65,65,4,7,10,13,0.9,0.9
2022-05-22T20:00:00,1871A,109.4157,24.3277,柳州市,环保监测站,,20,11,28,14,29,71,60,66,66,5,15,5,7,0.8,0.9
2022-05-22T20:00:00,1873A,109.4311,24.2921,柳州市,市四中,,29,22,41,20,29,66,52,60,60,9,15,6,8,0.9,0.9
2022-05-22T20:00:00,1874A,109.4006,24.3631,柳州市,市九中,,26,26,36,14,30,66,53,61,61,11,16,5,10,1.0,1
2022-05-22T20:00:00,1875A,109.4958,24.3134,柳州市,古亭山,,23,16,33,16,29,71,66,66,66,7,10,4,5,0.5,0.5
2022-05-22T20:00:00,1876A,109.5078,18.2489,三亚市,河东子站,,15,10,9,5,5,56,48,52,52,3,2,2,2,0.4,0.4
2022-05-22T20:00:00,1877A,109.4964,18.2681,三亚市,河西子站,,15,11,9,6,5,55,48,53,52,4,3,2,2,0.3,0.3
2022-05-22T20:00:00,1878A,104.7778,31.4741,绵阳市,富乐山,,31,27,43,19,27,143,97,126,122,12,22,1,4,0.5,0.7
2022-05-22T20:00:00,1879A,104.7563,31.4535,绵阳市,市人大,,31,27,64,12,41,141,98,122,119,12,28,8,12,0.4,0.6
2022-05-22T20:00:00,1880A,104.6697,31.4668,绵阳市,高新区自来水公司,,34,30,63,9,43,142,108,130,128,10,27,5,8,0.5,0.7
2022-05-22T20:00:00,1881A,104.7287,31.5075,绵阳市,三水厂,,30,25,68,16,45,141,96,126,123,20,28,9,9,0.7,0.9
2022-05-22T20:00:00,1882A,104.563,28.793,宜宾市,石马中学(对照点),,,,40,,25,56,,32,,,21,,6,,0.7
2022-05-22T20:00:00,1883A,104.6201,28.7728,宜宾市,市委,,26,26,36,18,24,101,81,90,90,19,23,9,6,0.5,0.6
2022-05-22T20:00:00,1884A,104.6055,28.793,宜宾市,宜宾四中,,26,26,38,18,25,95,75,86,86,23,24,9,6,0.5,0.6
2022-05-22T20:00:00,1885A,104.639,28.7562,宜宾市,市政府,,29,26,37,16,23,100,90,88,88,13,25,8,7,0.6,0.6
2022-05-22T20:00:00,1886A,104.5742,28.7199,宜宾市,黄金嘴,,24,24,30,16,19,94,75,81,81,16,15,7,6,0.5,0.5
2022-05-22T20:00:00,1888A,101.6891,26.571,攀枝花市,弄弄坪,,24,24,32,14,18,66,39,54,54,27,18,6,10,1.3,1.1
2022-05-22T20:00:00,1889A,101.5769,26.5928,攀枝花市,河门口,,32,32,49,18,30,47,21,35,34,50,47,7,26,2.5,3.1
2022-05-22T20:00:00,1890A,101.7169,26.585,攀枝花市,炳草岗,,32,29,27,22,24,67,43,53,53,31,23,16,27,0.8,0.8
2022-05-22T20:00:00,1891A,101.7369,26.5008,攀枝花市,仁和,,35,35,39,23,26,72,55,62,62,25,21,18,16,1.1,0.9
2022-05-22T20:00:00,1893A,105.4324,28.9634,泸州市,九狮山(对照点),,30,23,35,21,19,104,58,84,84,12,16,5,7,0.4,0.4
2022-05-22T20:00:00,1894A,105.4427,28.9063,泸州市,小市上码头,,21,17,42,11,23,92,65,79,79,18,20,11,16,0.5,0.5
2022-05-22T20:00:00,1895A,105.4241,28.8573,泸州市,兰田宪桥,,23,13,40,14,20,84,71,77,77,7,17,4,8,0.4,0.5
2022-05-22T20:00:00,1896A,105.4379,28.8833,泸州市,市环监站,,19,16,40,13,20,88,51,76,76,31,24,5,9,0.5,0.5
2022-05-22T20:00:00,1901A,104.4239,31.1208,德阳市,东山公园,,35,24,41,9,22,122,109,117,116,9,20,5,6,0.4,0.5
2022-05-22T20:00:00,1902A,104.3826,31.1317,德阳市,西小区,,35,35,58,13,30,126,99,118,116,18,30,6,7,0.5,0.6
2022-05-22T20:00:00,1904A,104.3553,31.1091,德阳市,耐火材料厂,,34,29,50,9,25,130,108,123,122,19,33,6,7,0.4,0.5
2022-05-22T20:00:00,1905A,106.056,30.8064,南充市,西山风景区(对照点),,30,26,34,21,31,109,80,98,98,9,11,4,4,0.4,0.5
2022-05-22T20:00:00,1906A,106.0789,30.8023,南充市,南充市委,,30,28,46,20,26,115,95,104,104,11,16,2,2,0.4,0.6
2022-05-22T20:00:00,1907A,106.1031,30.8217,南充市,南充炼油厂,,30,30,45,14,27,124,91,111,111,7,11,1,2,0.5,0.5
2022-05-22T20:00:00,1908A,106.1064,30.7856,南充市,高坪区监测站,,26,26,37,17,27,113,77,98,98,20,18,3,2,0.4,0.5
2022-05-22T20:00:00,1909A,106.0642,30.7636,南充市,嘉陵区环保局,,31,25,35,11,23,115,97,104,104,11,20,4,4,0.4,0.6
2022-05-22T20:00:00,1910A,106.1087,30.8388,南充市,市环境监测站,,35,30,40,21,30,122,111,113,113,14,16,3,2,0.4,0.4
2022-05-22T20:00:00,1911A,106.9222,27.6869,遵义市,丁字口,,30,27,36,21,22,68,48,64,50,20,23,6,6,0.6,0.7
2022-05-22T20:00:00,1912A,106.9242,27.7019,遵义市,凤凰山,,22,22,20,8,13,68,52,61,46,15,20,6,5,0.5,0.5
2022-05-22T20:00:00,1913A,106.8906,27.6486,遵义市,忠庄,,32,32,29,15,19,77,55,67,50,18,21,1,3,0.3,0.4
2022-05-22T20:00:00,1914A,106.9231,27.6506,遵义市,舟水桥,,25,25,26,16,17,81,56,73,52,11,17,2,2,0.3,0.3
2022-05-22T20:00:00,1915A,106.9178,27.72,遵义市,干田坝,,35,35,28,19,19,73,36,68,52,24,16,5,5,0.7,0.6
2022-05-22T20:00:00,1916A,103.7897,25.5035,曲靖市,环境监测站,,15,10,9,9,11,59,30,47,47,29,20,5,5,0.8,0.9
2022-05-22T20:00:00,1917A,103.8,25.5364,曲靖市,烟厂办公区,,16,4,7,4,6,71,50,60,60,14,12,4,4,0.7,0.8
2022-05-22T20:00:00,1918A,108.7197,34.3956,咸阳市,气象站(对照点),颗粒物(PM10),59,68,57,18,20,190,142,165,165,37,33,9,6,0.7,0.7
2022-05-22T20:00:00,1919A,108.673,34.3155,咸阳市,实验中学,臭氧1小时,72,56,57,24,22,204,177,176,176,16,32,4,4,0.2,0.3
2022-05-22T20:00:00,1920A,108.7233,34.3617,咸阳市,师范学院,臭氧1小时,73,62,57,21,22,205,178,181,181,19,31,6,5,0.4,0.5
2022-05-22T20:00:00,1922A,109.0656,35.0994,铜川市,党校(对照点),,40,37,44,17,23,152,128,148,147,15,46,7,7,0.4,0.5
2022-05-22T20:00:00,1923A,109.0697,35.0697,铜川市,王益区政府,,44,44,49,18,28,159,120,156,152,18,32,6,7,0.4,0.5
2022-05-22T20:00:00,1924A,108.9344,34.9058,铜川市,新区管委会,,47,39,45,20,23,164,148,155,155,20,17,5,7,0.4,0.5
2022-05-22T20:00:00,1926A,109.4131,36.6275,延安市,枣园(对照点),,42,42,34,17,17,143,88,132,126,33,23,5,4,0.7,0.5
2022-05-22T20:00:00,1927A,109.4761,36.6028,延安市,延大医附院,,37,37,38,23,18,142,90,135,129,43,26,5,4,0.7,0.5
2022-05-22T20:00:00,1929A,109.5056,36.6106,延安市,百米大道,,40,40,49,20,20,169,115,137,133,29,32,5,4,0.7,0.6
2022-05-22T20:00:00,1930A,107.185,34.3063,宝鸡市,庙沟村(对照点),,38,38,24,15,12,141,101,127,124,26,12,5,4,0.4,0.4
2022-05-22T20:00:00,1931A,107.0708,34.3017,宝鸡市,竹园沟,,26,26,20,11,11,147,78,136,130,14,10,6,6,0.4,0.4
2022-05-22T20:00:00,1932A,107.1906,34.3672,宝鸡市,三陆医院,,41,31,33,11,12,153,131,142,142,18,25,6,7,0.5,0.5
2022-05-22T20:00:00,1933A,107.1431,34.3547,宝鸡市,监测站,,44,44,28,14,12,148,115,139,139,28,19,5,5,0.6,0.5
2022-05-22T20:00:00,1934A,107.1186,34.3739,宝鸡市,技工学校,,42,22,30,27,12,147,132,142,142,27,16,5,5,0.5,0.4
2022-05-22T20:00:00,1935A,107.3906,34.3528,宝鸡市,陈仓区环保局家属楼,颗粒物(PM10),56,61,45,21,19,148,109,133,133,28,31,5,14,0.5,0.5
2022-05-22T20:00:00,1936A,107.2058,34.3497,宝鸡市,文理学院,,42,42,29,4,13,153,132,143,143,26,21,8,7,0.4,0.3
2022-05-22T20:00:00,1937A,107.2386,34.3622,宝鸡市,三迪小学,,50,50,35,17,13,151,122,140,140,27,26,8,7,0.4,0.3
2022-05-22T20:00:00,1938A,109.5293,34.5101,渭南市,农科所(对照点),,,53,45,29,31,192,,183,183,67,25,9,12,0.9,0.6
2022-05-22T20:00:00,1939A,109.4974,34.4877,渭南市,日报社,颗粒物(PM10),53,56,59,27,26,178,132,148,146,81,35,5,9,0.5,0.5
2022-05-22T20:00:00,1940A,109.4636,34.493,渭南市,体育馆,臭氧1小时,65,44,51,24,23,203,172,189,189,32,32,5,8,0.5,0.5
2022-05-22T20:00:00,1941A,109.4259,34.5023,渭南市,高新一小,颗粒物(PM10),61,72,72,22,26,182,158,172,172,14,36,6,8,0.4,0.5
2022-05-22T20:00:00,1943A,102.1725,38.5339,金昌市,新川苑,颗粒物(PM10),500,3349,215,496,32,141,126,135,135,12,24,9,13,0.5,0.5
2022-05-22T20:00:00,1944A,102.1692,38.5167,金昌市,天庆家园,"颗粒物(PM10),细颗粒物(PM2.5)",500,3674,239,537,42,148,130,142,140,8,29,12,13,0.3,0.5
2022-05-22T20:00:00,1945A,98.2908,39.7711,嘉峪关市,气象局,颗粒物(PM10),62,73,51,17,16,132,122,127,127,6,11,5,5,0.5,0.6
2022-05-22T20:00:00,1947A,106.3394,38.817,石嘴山市,沙湖旅游区(对照点),颗粒物(PM10),65,80,97,24,32,144,111,132,131,20,17,35,35,0.4,0.4
2022-05-22T20:00:00,1948A,106.3668,39.0145,石嘴山市,大武口朝阳西街,颗粒物(PM10),82,113,127,30,36,142,113,124,123,27,24,11,22,0.6,0.8
2022-05-22T20:00:00,1949A,106.7704,39.2282,石嘴山市,惠农南大街,颗粒物(PM10),79,107,94,27,32,149,116,134,131,17,18,8,14,0.5,0.6
2022-05-22T20:00:00,1950A,106.7099,39.1325,石嘴山市,红果子镇惠新街,颗粒物(PM10),179,308,147,61,40,122,98,113,111,20,21,10,10,0.3,0.5
2022-05-22T20:00:00,1951A,84.895,45.6094,克拉玛依市,长征新村,,37,37,24,5,5,116,114,113,113,4,9,5,5,0.2,0.2
2022-05-22T20:00:00,1952A,84.8988,45.5893,克拉玛依市,南林小区,,37,36,27,12,13,118,118,115,115,6,20,7,8,0.3,0.4
2022-05-22T20:00:00,1954A,84.905,44.3396,克拉玛依市,独山子区,,43,43,35,20,12,120,113,117,117,6,10,6,6,0.4,0.4
2022-05-22T20:00:00,1955A,85.6979,46.098,克拉玛依市,乌尔禾区商贸楼,颗粒物(PM10),84,118,32,18,5,118,111,113,113,3,9,11,11,0.3,0.3
2022-05-22T20:00:00,1956A,86.1472,41.7538,巴音郭楞州,孔雀公园,,,32,36,6,9,129,124,123,123,15,13,,2,0.3,0.3
2022-05-22T20:00:00,1957A,86.1972,41.7166,巴音郭楞州,棉纺厂,颗粒物(PM10),82,114,35,35,17,116,116,112,112,15,20,4,3,0.2,0.2
2022-05-22T20:00:00,1958A,86.2357,41.7173,巴音郭楞州,经济开发区,,43,43,38,13,14,127,127,122,122,7,11,2,2,0.1,0.1
2022-05-22T20:00:00,1961A,117.532,36.6868,济南市,东山小学,臭氧1小时,83,54,63,20,25,209,186,196,196,14,16,9,10,0.3,0.3
2022-05-22T20:00:00,1966A,120.0405,35.8735,青岛市,黄岛区4号,臭氧1小时,109,70,83,41,45,231,218,206,206,25,33,11,12,0.7,0.7
2022-05-22T20:00:00,1982A,122.0693,37.2174,威海市,文登开发区,臭氧1小时,106,85,77,41,39,220,211,207,207,23,22,10,8,0.5,0.5
2022-05-22T20:00:00,2031A,113.1817,27.9958,株洲市,云田中学,,40,31,44,28,33,127,95,109,109,11,16,2,5,0.6,0.7
2022-05-22T20:00:00,2054A,114.1099,32.1059,信阳市,平桥分局,颗粒物(PM10),55,59,38,26,28,164,128,152,152,17,17,8,8,0.8,0.7
2022-05-22T20:00:00,2064A,113.9956,32.1271,信阳市,南湾水厂,,47,47,46,27,26,180,143,168,168,11,11,8,8,0.6,0.5
2022-05-22T20:00:00,2065A,114.0775,32.1195,信阳市,市酿酒公司,,49,43,34,34,31,174,147,161,159,17,19,7,7,0.8,0.6
2022-05-22T20:00:00,2066A,114.0609,32.1399,信阳市,审计局,颗粒物(PM10),52,54,45,29,31,170,135,154,151,16,20,7,7,0.5,0.5
2022-05-22T20:00:00,2067A,114.6613,33.6128,周口市,市环境监测站,,46,44,51,24,25,178,146,170,169,17,18,4,6,0.6,0.6
2022-05-22T20:00:00,2068A,114.6758,33.6347,周口市,周口师范,细颗粒物(PM2.5),72,58,50,52,25,172,150,165,165,14,15,7,9,0.6,0.6
2022-05-22T20:00:00,2069A,114.6546,33.5979,周口市,市运管处,,45,45,50,15,24,173,137,166,164,21,18,6,5,0.4,0.4
2022-05-22T20:00:00,2070A,114.6369,33.6406,周口市,川汇区环保局,,49,49,48,21,23,174,148,166,166,16,16,4,5,0.4,0.7
2022-05-22T20:00:00,2075A,117.6336,24.4674,漳州市,九湖(对照点),颗粒物(PM10),55,60,46,30,28,105,86,96,96,29,24,6,7,0.4,0.4
2022-05-22T20:00:00,2160A,112.85,35.5051,晋城市,自来水公司,臭氧1小时,88,40,60,22,23,214,190,192,192,17,48,11,11,0.6,0.7
2022-05-22T20:00:00,2161A,112.8318,35.4936,晋城市,白云商贸,臭氧1小时,94,56,66,29,25,218,195,198,198,15,36,9,9,0.4,0.6
2022-05-22T20:00:00,2162A,112.8508,35.4887,晋城市,市环保局,臭氧1小时,85,78,84,19,26,215,188,192,192,18,47,12,12,0.5,0.7
2022-05-22T20:00:00,2163A,112.8676,35.4897,晋城市,技术学院,臭氧1小时,87,56,65,29,23,217,189,194,194,15,36,8,8,0.4,0.6
2022-05-22T20:00:00,2165A,112.8453,35.546,晋城市,白马寺 (对照点),臭氧1小时,111,65,65,19,23,232,221,214,214,16,21,8,8,0.6,0.8
2022-05-22T20:00:00,2166A,112.4397,39.3522,朔州市,平朔,颗粒物(PM10),87,124,101,29,37,180,150,164,164,24,54,2,12,0.5,0.6
2022-05-22T20:00:00,2167A,112.4575,39.3617,朔州市,朔唯,颗粒物(PM10),81,112,102,21,32,183,155,167,167,21,54,4,15,0.5,0.6
2022-05-22T20:00:00,2168A,112.4258,39.3197,朔州市,区政府,颗粒物(PM10),69,88,91,24,32,181,157,166,166,23,40,7,15,0.6,0.6
2022-05-22T20:00:00,2169A,112.4072,39.3278,朔州市,市环保局,颗粒物(PM10),64,77,89,24,28,178,147,162,162,27,38,10,16,0.6,0.6
2022-05-22T20:00:00,2170A,112.4272,39.3681,朔州市,市二中,颗粒物(PM10),59,67,105,24,41,177,145,161,161,21,56,7,19,0.5,0.6
2022-05-22T20:00:00,2171A,112.7532,37.6945,晋中市,锦纶小区,,50,50,59,18,27,196,136,173,171,25,36,7,11,0.3,0.4
2022-05-22T20:00:00,2173A,112.7249,37.7067,晋中市,南都小区,,46,41,70,18,30,200,146,173,173,23,42,3,8,0.3,0.5
2022-05-22T20:00:00,2174A,112.6991,37.6982,晋中市,榆次区政府,,47,44,62,20,31,194,148,170,170,15,38,4,8,0.5,0.6
2022-05-22T20:00:00,2175A,110.9956,35.0147,运城市,运城中学,,48,33,60,15,30,161,153,155,155,6,13,5,9,0.3,0.5
2022-05-22T20:00:00,2178A,110.9686,35.0303,运城市,地区技校,,48,37,62,9,25,167,151,158,158,6,14,4,7,0.3,0.5
2022-05-22T20:00:00,2179A,111.0414,35.1147,运城市,空港新区,,47,35,75,12,32,176,150,168,165,14,20,6,9,0.3,0.4
2022-05-22T20:00:00,2181A,112.7383,38.4519,忻州市,开发区,颗粒物(PM10),66,81,55,23,27,176,147,160,160,16,28,12,17,0.3,0.3
2022-05-22T20:00:00,2182A,112.7003,38.4928,忻州市,会展中心,颗粒物(PM10),52,53,56,12,14,165,134,148,148,18,37,11,14,0.3,0.3
2022-05-22T20:00:00,2183A,111.1406,37.5211,吕梁市,环保局,颗粒物(PM10),54,58,48,19,19,184,83,156,144,63,47,13,9,0.8,0.7
2022-05-22T20:00:00,2185A,111.1297,37.5136,吕梁市,自来水公司,颗粒物(PM10),53,55,68,21,20,188,111,160,148,40,38,10,8,0.8,0.5
2022-05-22T20:00:00,2187A,106.8174,39.6973,乌海市,市林业局,颗粒物(PM10),108,166,100,23,27,165,88,128,125,48,30,11,28,0.6,0.8
2022-05-22T20:00:00,2188A,106.7907,39.6667,乌海市,中海勃湾学校,颗粒物(PM10),99,148,82,31,27,169,117,138,135,28,30,11,29,0.4,0.7
2022-05-22T20:00:00,2191A,122.2532,43.6801,通辽市,艺术职业学校,,,39,69,,39,146,92,135,130,36,16,6,6,0.1,0.1
2022-05-22T20:00:00,2192A,119.7594,49.2261,呼伦贝尔市,区环保局,,30,20,54,17,20,126,95,113,112,7,18,4,4,0.6,0.5
2022-05-22T20:00:00,2195A,107.4212,40.761,巴彦淖尔市,附二中,颗粒物(PM10),115,180,70,33,23,179,138,164,164,14,12,4,12,0.3,0.4
2022-05-22T20:00:00,2196A,107.37,40.7372,巴彦淖尔市,市环保大楼,颗粒物(PM10),126,202,69,62,29,178,139,165,165,4,5,5,6,0.4,0.4
2022-05-22T20:00:00,2197A,113.1306,40.9923,乌兰察布市,集宁新区,,50,38,44,30,23,183,160,171,169,12,16,8,13,0.4,0.4
2022-05-22T20:00:00,2200A,122.0392,46.0656,兴安盟,胜华新制药厂,,48,48,38,21,18,112,102,106,106,13,16,2,3,0.2,0.3
2022-05-22T20:00:00,2201A,121.9504,46.0741,兴安盟,科右前旗环保局,,33,25,32,9,16,118,103,111,111,11,14,2,2,0.1,0.2
2022-05-22T20:00:00,2202A,116.1042,43.9317,锡林郭勒盟,市环保监测站,,,44,32,,9,111,100,107,105,6,6,10,10,0.3,0.2
2022-05-22T20:00:00,2203A,116.0781,43.9311,锡林郭勒盟,市政府,,,38,23,,9,114,103,110,108,8,8,8,8,0.4,0.4
2022-05-22T20:00:00,2204A,105.6467,38.8363,阿拉善盟,西城区西花园(对照点),颗粒物(PM10),500,1645,149,274,37,164,136,141,140,6,7,14,15,0.2,0.2
2022-05-22T20:00:00,2205A,105.6985,38.8411,阿拉善盟,蒙二幼,颗粒物(PM10),500,1400,145,256,40,163,137,140,139,7,7,7,9,0.3,0.2
2022-05-22T20:00:00,2206A,105.724,38.8516,阿拉善盟,环保局新楼,颗粒物(PM10),500,1107,105,211,40,167,134,140,137,9,8,7,8,0.2,0.3
2022-05-22T20:00:00,2207A,121.6094,41.998,阜新市,工业园区,,50,49,62,16,24,172,157,159,159,20,22,16,17,0.8,0.8
2022-05-22T20:00:00,2208A,121.6697,42.0279,阜新市,长青街,,45,37,55,10,22,150,141,141,141,12,17,12,25,0.6,0.9
2022-05-22T20:00:00,2209A,121.6673,42.0705,阜新市,农业园区,,43,41,47,17,24,154,136,146,145,16,14,13,13,0.5,0.6
2022-05-22T20:00:00,2210A,121.6717,42.0224,阜新市,东苑,颗粒物(PM10),51,52,73,13,34,153,147,149,149,21,24,19,29,0.5,0.7
2022-05-22T20:00:00,2211A,121.6506,42.0498,阜新市,玉龙新城,,45,42,62,12,23,147,142,142,142,11,17,9,14,0.4,0.6
2022-05-22T20:00:00,2212A,123.2,41.1953,辽阳市,宏伟区,,39,37,50,10,27,182,122,171,165,28,13,9,13,0.5,0.7
2022-05-22T20:00:00,2213A,123.1683,41.2495,辽阳市,新华园,,38,29,59,5,32,187,121,169,163,22,20,7,11,0.2,0.4
2022-05-22T20:00:00,2214A,123.2354,41.2639,辽阳市,滨河路,,36,28,56,12,42,183,114,168,160,18,16,11,14,0.2,0.4
2022-05-22T20:00:00,2215A,123.149,41.2991,辽阳市,铁西工业园,,45,45,66,13,41,183,78,169,154,46,25,7,15,0.3,0.7
2022-05-22T20:00:00,2216A,123.8139,42.3022,铁岭市,汇工街西,,41,41,48,24,15,166,104,137,134,30,22,10,10,0.3,0.4
2022-05-22T20:00:00,2217A,123.8649,42.2923,铁岭市,水上乐园,,31,26,35,8,14,160,99,138,134,54,20,6,7,0.1,0.3
2022-05-22T20:00:00,2218A,123.8486,42.2867,铁岭市,银州路东段,,39,27,47,18,17,154,122,128,128,22,22,5,7,0.4,0.5
2022-05-22T20:00:00,2219A,123.7153,42.2217,铁岭市,金沙江路北,,38,38,39,10,15,166,116,133,132,23,22,4,6,0.5,0.6
2022-05-22T20:00:00,2220A,120.4318,41.5881,朝阳市,西梁,颗粒物(PM10),73,95,59,37,22,183,173,168,168,14,17,28,13,0.9,0.8
2022-05-22T20:00:00,2221A,120.4521,41.5646,朝阳市,河畔小区,臭氧1小时,80,73,57,30,19,194,184,177,177,10,15,26,13,0.8,0.7
2022-05-22T20:00:00,2222A,120.4176,41.5648,朝阳市,八里堡,颗粒物(PM10),70,90,71,48,33,181,166,171,171,16,15,24,13,0.9,0.7
2022-05-22T20:00:00,2223A,120.3806,41.5969,朝阳市,农业园区,臭氧1小时,68,81,57,41,29,187,174,172,172,14,14,17,13,1.0,0.7
2022-05-22T20:00:00,2225A,124.4002,43.1713,四平市,一商场,,,37,37,12,13,140,,131,131,41,19,7,9,0.5,0.2
2022-05-22T20:00:00,2226A,124.388,43.193,四平市,境园,,33,23,22,9,6,141,104,130,128,18,12,2,3,0.3,0.2
2022-05-22T20:00:00,2227A,125.1358,42.8845,辽源市,环保局,,26,24,22,15,14,132,82,122,117,22,12,10,10,0.9,0.6
2022-05-22T20:00:00,2229A,125.9358,41.7173,通化市,光明,,20,18,22,5,12,121,62,117,108,25,14,8,16,0.8,0.8
2022-05-22T20:00:00,2230A,125.9446,41.7325,通化市,铁路,,21,8,26,6,13,121,66,116,108,22,17,10,19,0.8,1
2022-05-22T20:00:00,2231A,126.4219,41.9171,白山市,喜丰,,41,41,35,8,12,130,71,119,110,28,16,9,39,0.8,0.7
2022-05-22T20:00:00,2232A,126.4077,41.9419,白山市,环保局,,30,30,30,10,10,120,77,112,107,24,15,7,39,0.6,0.4
2022-05-22T20:00:00,2233A,124.8006,45.1214,松原市,江南,,29,4,12,20,12,102,82,99,97,22,10,5,3,0.4,0.3
2022-05-22T20:00:00,2234A,124.7965,45.1722,松原市,江北,,21,5,18,5,10,120,67,103,97,19,13,3,2,0.4,0.3
2022-05-22T20:00:00,2235A,122.7911,45.6077,白城市,洮北区环保局,,30,22,26,5,3,117,94,108,108,15,13,7,8,0.2,0.2
2022-05-22T20:00:00,2236A,122.8738,45.5725,白城市,市环保局,,26,26,29,11,13,97,80,87,87,26,21,5,5,0.3,0.3
2022-05-22T20:00:00,2237A,129.47,42.8883,延边朝鲜族自治州,妇幼医院,,32,32,26,22,10,103,58,96,87,28,12,7,6,0.5,0.4
2022-05-22T20:00:00,2238A,129.5055,42.9108,延边朝鲜族自治州,延边医院,,36,36,23,20,10,98,61,93,87,25,12,5,6,0.6,0.5
2022-05-22T20:00:00,2239A,129.3964,42.8881,延边朝鲜族自治州,朝阳川镇医院,,39,39,23,4,13,108,46,102,90,34,12,9,10,0.5,0.4
2022-05-22T20:00:00,2240A,130.9762,45.3001,鸡西市,环保局,,24,24,19,7,10,94,61,87,85,41,23,4,4,0.2,0.1
2022-05-22T20:00:00,2243A,130.9429,45.3039,鸡西市,第一中学,,27,27,20,8,8,101,75,95,93,34,21,7,7,0.3,0.2
2022-05-22T20:00:00,2244A,130.2537,47.3416,鹤岗市,哈啤分公司,,27,27,17,8,9,102,78,94,93,15,6,12,12,0.5,0.4
2022-05-22T20:00:00,2245A,130.2684,47.3086,鹤岗市,斯达机电,,30,25,15,21,8,103,82,95,94,7,6,6,6,0.2,0.3
2022-05-22T20:00:00,2246A,130.3114,47.3388,鹤岗市,东山纸板厂,,39,39,17,18,9,96,47,89,82,33,8,9,8,0.3,0.2
2022-05-22T20:00:00,2247A,130.1097,47.3382,鹤岗市,五号水库(对照点),,21,21,12,14,11,96,61,93,88,13,6,5,5,0.4,0.4
2022-05-22T20:00:00,2248A,131.1511,46.6937,双鸭山市,双合村,,22,14,16,6,10,88,68,85,83,13,12,5,6,0.2,0.3
2022-05-22T20:00:00,2249A,131.1652,46.6191,双鸭山市,南小市,,26,22,20,18,10,92,74,88,86,9,7,5,5,0.2,0.2
2022-05-22T20:00:00,2250A,131.1524,46.6554,双鸭山市,环保局,,23,20,21,14,12,92,72,89,86,10,12,3,3,0.2,0.3
2022-05-22T20:00:00,2251A,131.12,46.5656,双鸭山市,苗圃(对照点),,28,26,13,19,15,100,64,94,90,5,5,1,2,0.3,0.3
2022-05-22T20:00:00,2252A,128.5159,47.4311,伊春市,环保局,,,13,10,,9,86,55,82,76,18,9,5,5,0.2,0.2
2022-05-22T20:00:00,2253A,128.9102,47.7412,伊春市,电力嘉园,,37,37,21,18,13,95,44,92,83,19,7,5,5,0.5,0.4
2022-05-22T20:00:00,2254A,129.5029,48.471,伊春市,汤旺河国家公园(对照点),,19,2,6,0,4,102,60,99,92,1,1,17,11,0.0,0.2
2022-05-22T20:00:00,2255A,130.2751,46.8028,佳木斯市,佳纺,,46,46,16,12,10,96,42,88,81,34,10,2,3,0.5,0.4
2022-05-22T20:00:00,2256A,130.3995,46.8307,佳木斯市,发电厂,,19,17,9,6,6,106,59,99,94,26,8,7,7,0.3,0.4
2022-05-22T20:00:00,2257A,130.3258,46.7975,佳木斯市,环保局,,19,18,16,9,10,101,58,92,89,31,15,5,5,0.5,0.4
2022-05-22T20:00:00,2258A,130.3648,46.8032,佳木斯市,十一中,,30,30,15,6,10,96,50,89,83,34,15,4,4,0.4,0.3
2022-05-22T20:00:00,2259A,130.3794,46.7588,佳木斯市,四丰(对照点),,24,16,16,6,9,101,75,93,91,9,10,3,4,0.4,0.5
2022-05-22T20:00:00,2262A,131.0518,45.8751,七台河市,新一中(对照点),,21,14,11,8,7,103,66,98,95,14,10,7,6,0.7,0.8
2022-05-22T20:00:00,2263A,127.4833,50.2524,黑河市,交通局,,22,17,8,9,7,86,68,83,79,8,6,3,3,0.3,0.3
2022-05-22T20:00:00,2264A,127.5144,50.2341,黑河市,环保局,,23,19,14,9,10,92,71,88,85,7,6,6,5,0.4,0.4
2022-05-22T20:00:00,2265A,127.5291,50.2472,黑河市,大黑河岛(对照点),,24,24,7,12,6,94,72,92,88,3,2,5,6,0.3,0.3
2022-05-22T20:00:00,2266A,126.9785,46.6365,绥化市,人和东街,,24,24,20,11,8,92,70,85,84,19,11,7,8,0.3,0.3
2022-05-22T20:00:00,2267A,126.964,46.6528,绥化市,党政办公中心,,25,20,13,12,9,95,79,89,89,17,9,6,6,0.3,0.3
2022-05-22T20:00:00,2269A,124.1069,50.4097,大兴安岭地区,科技局,,29,8,12,11,9,98,90,85,85,6,5,4,4,0.4,0.3
2022-05-22T20:00:00,2270A,117.396,32.939,蚌埠市,工人疗养院,臭氧1小时,72,46,74,31,40,201,177,197,193,14,20,8,14,0.3,0.5
2022-05-22T20:00:00,2271A,117.3605,32.9427,蚌埠市,百货大楼,臭氧1小时,75,62,90,16,38,203,180,197,193,15,25,9,15,0.5,0.6
2022-05-22T20:00:00,2273A,117.4185,32.8911,蚌埠市,蚌埠学院,颗粒物(PM10),51,51,72,17,36,204,157,196,190,24,22,10,15,0.4,0.5
2022-05-22T20:00:00,2274A,117.3533,32.9673,蚌埠市,淮上区政府,臭氧1小时,64,51,81,17,40,199,171,190,185,14,28,11,16,0.4,0.5
2022-05-22T20:00:00,2275A,117.3145,32.8977,蚌埠市,高新区,臭氧1小时,64,61,89,31,46,203,171,197,191,17,35,12,14,0.5,0.7
2022-05-22T20:00:00,2277A,116.8305,32.7727,淮南市,潘集区政府,颗粒物(PM10),55,60,81,33,54,211,155,194,182,19,22,10,12,0.5,0.4
2022-05-22T20:00:00,2278A,117.0067,32.6524,淮南市,师范学院,颗粒物(PM10),58,66,72,16,41,200,158,189,180,18,29,9,10,0.4,0.6
2022-05-22T20:00:00,2279A,116.8569,32.5951,淮南市,谢家集区政府,颗粒物(PM10),51,51,72,15,38,208,146,186,176,24,22,6,7,0.4,0.4
2022-05-22T20:00:00,2280A,116.8281,32.633,淮南市,八公山区政府,颗粒物(PM10),53,55,64,25,39,208,150,186,179,17,18,6,5,0.3,0.4
2022-05-22T20:00:00,2281A,116.6325,32.6201,淮南市,焦岗湖风景区管理处(对照点),臭氧1小时,68,66,62,10,37,213,174,194,191,9,18,10,10,0.4,0.4
2022-05-22T20:00:00,2282A,116.8004,33.975,淮北市,监测站,臭氧1小时,85,62,65,40,39,205,188,193,192,10,14,12,16,0.5,0.5
2022-05-22T20:00:00,2283A,116.8091,33.9007,淮北市,烈山区政府,臭氧1小时,79,57,94,53,56,213,183,200,198,20,40,8,10,0.6,0.6
2022-05-22T20:00:00,2284A,116.7856,33.9477,淮北市,职业技术学院,臭氧1小时,78,62,76,40,40,201,182,189,188,13,19,8,9,0.6,0.5
2022-05-22T20:00:00,2285A,117.8177,30.9412,铜陵市,市第四中学,,41,34,33,20,23,187,129,166,163,32,20,11,8,0.4,0.3
2022-05-22T20:00:00,2286A,117.8059,30.9273,铜陵市,市公路局,颗粒物(PM10),59,67,52,33,31,164,111,144,143,27,22,5,5,0.5,0.5
2022-05-22T20:00:00,2287A,117.7807,30.9413,铜陵市,市新民污水厂,颗粒物(PM10),59,67,63,36,34,179,100,159,153,44,34,11,11,0.4,0.4
2022-05-22T20:00:00,2288A,117.7439,30.8792,铜陵市,市第九中学,颗粒物(PM10),69,87,80,39,40,151,60,130,123,87,81,11,10,0.6,0.9
2022-05-22T20:00:00,2289A,117.846,30.9413,铜陵市,车站新区,颗粒物(PM10),51,52,42,34,24,175,121,154,151,32,21,5,5,0.4,0.3
2022-05-22T20:00:00,2290A,117.8483,30.97,铜陵市,市职教基地,颗粒物(PM10),55,59,50,22,25,164,81,148,139,32,16,6,5,0.5,0.5
2022-05-22T20:00:00,2291A,117.0809,30.5177,安庆市,环科院,颗粒物(PM10),67,83,79,38,50,221,110,193,180,54,53,7,10,0.5,0.6
2022-05-22T20:00:00,2292A,117.0331,30.5119,安庆市,马山宾馆,颗粒物(PM10),60,70,71,38,51,216,53,188,167,89,37,5,9,0.6,0.8
2022-05-22T20:00:00,2294A,116.9896,30.6145,安庆市,安庆大学,细颗粒物(PM2.5),103,94,74,77,54,206,69,182,156,56,28,7,8,0.8,0.7
2022-05-22T20:00:00,2295A,118.2903,29.6963,黄山市,延安路89号,,34,34,30,11,13,136,57,119,104,8,5,6,5,0.4,0.2
2022-05-22T20:00:00,2296A,118.327,29.7178,黄山市,黄山东路89号,,36,26,24,25,15,135,63,123,108,10,7,6,5,0.6,0.4
2022-05-22T20:00:00,2297A,118.1371,30.2756,黄山市,黄山区政府5号楼,,47,47,32,13,14,147,74,136,126,15,7,6,5,0.5,0.3
2022-05-22T20:00:00,2298A,118.3093,32.3153,滁州市,老年大学,颗粒物(PM10),60,69,72,17,37,208,112,189,168,35,30,6,8,0.3,0.6
2022-05-22T20:00:00,2299A,118.3244,32.2786,滁州市,人大宾馆,,42,42,73,20,44,200,113,182,160,31,31,7,8,0.2,0.5
2022-05-22T20:00:00,2301A,115.8277,32.8929,阜阳市,市监测站,臭氧1小时,95,71,70,31,46,208,196,190,190,21,35,10,12,0.7,0.7
2022-05-22T20:00:00,2303A,115.8554,32.8605,阜阳市,开发区,臭氧1小时,79,89,87,41,44,205,183,184,184,24,38,7,8,0.8,0.8
2022-05-22T20:00:00,2307A,116.5079,31.737,六安市,监测大楼,,49,49,47,21,23,176,148,164,161,18,18,7,8,0.3,0.3
2022-05-22T20:00:00,2308A,116.4738,31.7643,六安市,皖西学院,颗粒物(PM10),53,56,53,15,27,180,151,170,166,19,19,10,9,0.3,0.4
2022-05-22T20:00:00,2309A,116.4996,31.7905,六安市,朝阳厂,颗粒物(PM10),63,75,54,34,31,165,123,155,150,28,20,8,8,0.4,0.5
2022-05-22T20:00:00,2310A,116.5567,31.7886,六安市,开发区,颗粒物(PM10),54,58,72,19,34,179,141,165,161,21,18,7,7,0.3,0.4
2022-05-22T20:00:00,2311A,115.8072,33.8399,亳州市,污水处理厂,臭氧1小时,70,41,43,23,28,203,176,193,192,11,10,7,8,0.2,0.3
2022-05-22T20:00:00,2312A,115.7789,33.8518,亳州市,三国揽胜宫,臭氧1小时,69,49,49,25,28,193,175,182,182,8,9,6,8,0.3,0.4
2022-05-22T20:00:00,2314A,117.47,30.6618,池州市,池州学院,颗粒物(PM10),59,67,50,41,32,202,131,179,174,23,17,8,8,0.6,0.7
2022-05-22T20:00:00,2316A,118.7581,30.9454,宣城市,鳌峰子站,颗粒物(PM10),60,69,47,35,27,153,149,134,134,19,20,5,7,0.5,0.5
2022-05-22T20:00:00,2317A,118.7385,30.9743,宣城市,敬亭山子站,颗粒物(PM10),57,64,48,34,24,137,129,125,124,26,22,8,8,0.4,0.4
2022-05-22T20:00:00,2318A,118.7173,30.9427,宣城市,开发区子站,颗粒物(PM10),54,57,43,30,24,154,146,135,135,16,15,6,7,0.4,0.4
2022-05-22T20:00:00,2319A,119.0141,25.4325,莆田市,荔城区仓后路,,23,23,20,13,11,76,34,70,59,23,12,4,4,0.7,0.5
2022-05-22T20:00:00,2320A,119.0015,25.4553,莆田市,莆田市监测站,,15,14,14,10,12,74,44,68,55,2,3,4,4,0.5,0.5
2022-05-22T20:00:00,2321A,119.1119,25.4561,莆田市,涵江区六中,,26,19,22,18,19,79,41,70,62,24,11,6,6,0.7,0.6
2022-05-22T20:00:00,2322A,119.1013,25.3215,莆田市,秀屿区政府,,19,15,23,13,17,74,57,68,65,19,16,6,6,0.7,0.7
2022-05-22T20:00:00,2323A,118.981,25.4792,莆田市,东圳水库(对照点),,19,4,16,6,39,63,59,58,58,2,2,4,4,0.6,0.6
2022-05-22T20:00:00,2324A,117.6211,26.2625,三明市,三钢,,19,17,22,13,18,52,40,48,47,20,18,2,2,0.6,0.7
2022-05-22T20:00:00,2325A,117.635,26.2714,三明市,三明二中,,16,7,17,6,13,56,50,52,52,11,13,1,2,0.4,0.5
2022-05-22T20:00:00,2326A,117.6028,26.2378,三明市,三元区政府,,15,6,20,7,16,51,47,48,48,15,18,3,3,0.6,0.7
2022-05-22T20:00:00,2327A,117.7275,26.3108,三明市,洋溪(对照点),,18,11,16,12,16,56,46,50,50,14,11,6,5,0.5,0.6
2022-05-22T20:00:00,2331A,118.0966,26.6761,南平市,茫荡山(对照点),,25,0,1,2,2,89,77,85,81,2,3,4,4,0.7,0.7
2022-05-22T20:00:00,2332A,118.1681,26.6369,南平市,南平市监测站,,20,10,14,9,13,78,64,73,68,8,8,4,6,0.5,0.5
2022-05-22T20:00:00,2333A,118.1825,26.6489,南平市,南平铝业有限公司,,16,13,16,8,11,82,49,72,58,14,9,5,5,0.6,0.5
2022-05-22T20:00:00,2334A,118.1756,26.6272,南平市,南平七中,,16,9,13,11,12,70,45,65,59,13,6,3,3,0.4,0.3
2022-05-22T20:00:00,2335A,117.0189,25.1181,龙岩市,龙岩师专(对照点),,33,19,21,23,18,60,36,48,47,27,23,5,5,0.8,0.8
2022-05-22T20:00:00,2336A,117.0217,25.1033,龙岩市,龙岩市监测站,,38,32,22,26,18,59,20,50,46,44,24,5,6,0.9,0.7
2022-05-22T20:00:00,2337A,117.0258,25.0661,龙岩市,闽西职业技术学院,,32,28,22,22,17,60,37,53,52,30,20,5,6,0.7,0.6
2022-05-22T20:00:00,2338A,117.0196,25.0306,龙岩市,龙岩学院,,25,23,23,17,15,57,36,49,48,21,17,2,3,0.5,0.5
2022-05-22T20:00:00,2339A,119.5001,26.6946,宁德市,金涵水库(对照点),,28,14,18,19,12,65,35,50,46,24,14,7,7,0.5,0.4
2022-05-22T20:00:00,2341A,119.5388,26.6612,宁德市,宁德市监测站,,30,21,24,21,17,62,44,52,50,30,18,9,9,0.8,0.7
2022-05-22T20:00:00,2342A,117.3102,29.3867,景德镇市,王港中学(对照点),,48,48,32,26,18,114,42,102,89,11,7,4,4,0.5,0.5
2022-05-22T20:00:00,2343A,117.2117,29.2933,景德镇市,老干部活动中心,颗粒物(PM10),65,79,63,45,35,121,70,113,102,30,24,13,12,0.7,0.5
2022-05-22T20:00:00,2344A,117.1894,29.2789,景德镇市,兽医站,细颗粒物(PM2.5),63,74,51,45,34,114,5,106,79,84,29,53,19,1.1,0.9
2022-05-22T20:00:00,2345A,117.1547,29.2617,景德镇市,台达陶瓷,颗粒物(PM10),56,61,58,36,29,119,77,108,100,16,24,22,23,1.2,0.7
2022-05-22T20:00:00,2346A,117.2461,29.2956,景德镇市,陶研所,颗粒物(PM10),56,62,50,31,27,108,43,98,86,12,18,4,7,0.4,0.6
2022-05-22T20:00:00,2347A,114.0997,27.5002,萍乡市,武功山(对照点),,17,2,5,5,8,92,54,79,76,8,6,15,14,0.3,0.3
2022-05-22T20:00:00,2348A,113.8385,27.6434,萍乡市,中医院,,48,27,42,33,38,115,73,98,97,20,17,9,14,1.1,1
2022-05-22T20:00:00,2349A,113.8493,27.6253,萍乡市,市政府车库,,38,38,49,12,29,102,60,80,79,21,21,8,14,0.8,1.2
2022-05-22T20:00:00,2350A,113.8676,27.6435,萍乡市,市环保局,,36,32,45,25,39,113,75,89,84,28,29,8,18,0.8,0.7
2022-05-22T20:00:00,2351A,113.866,27.6198,萍乡市,安源区政府,,24,24,47,13,28,95,57,79,77,22,26,10,12,0.7,1.1
2022-05-22T20:00:00,2352A,115.0861,27.9317,新余市,北岗(对照点),,28,22,47,19,33,89,72,77,76,6,11,4,10,0.5,0.6
2022-05-22T20:00:00,2353A,114.9886,27.8431,新余市,飞宇,,,,62,,23,103,62,78,75,13,22,8,15,0.5,0.6
2022-05-22T20:00:00,2354A,114.9231,27.8246,新余市,第二水厂,,39,39,60,24,35,97,60,65,63,20,26,7,17,0.5,0.6
2022-05-22T20:00:00,2355A,114.9308,27.8036,新余市,市气象局,,48,34,51,33,39,93,49,64,62,14,23,7,11,0.4,1
2022-05-22T20:00:00,2357A,116.9822,28.1136,鹰潭市,龙虎山(对照点),,28,18,38,19,26,105,88,84,84,2,3,1,2,0.1,0.4
2022-05-22T20:00:00,2358A,117.0564,28.2642,鹰潭市,新监测站,,28,24,58,19,40,131,86,107,94,2,18,2,11,0.3,0.5
2022-05-22T20:00:00,2359A,117.0311,28.2475,鹰潭市,财苑宾馆,,25,19,55,17,35,114,76,104,86,6,15,2,8,0.5,0.6
2022-05-22T20:00:00,2360A,117.0222,28.2264,鹰潭市,体育馆,,28,21,56,19,39,107,68,99,85,4,16,6,13,0.5,0.7
2022-05-22T20:00:00,2361A,117.0017,28.2131,鹰潭市,三川水表,,35,21,53,24,37,130,67,100,82,5,9,5,11,0.5,0.6
2022-05-22T20:00:00,2362A,114.9017,25.9149,赣州市,通天岩(对照点),,42,30,36,29,30,97,72,80,80,11,27,5,7,1.1,1.1
2022-05-22T20:00:00,2363A,114.9367,25.8664,赣州市,地委,,38,38,45,21,32,69,47,57,56,22,21,5,11,0.7,0.8
2022-05-22T20:00:00,2364A,114.9461,25.8481,赣州市,气象台,,45,43,43,31,32,77,45,64,60,36,23,5,15,0.9,0.9
2022-05-22T20:00:00,2365A,114.9322,25.8333,赣州市,市图书馆,,36,31,38,25,32,74,50,62,60,29,22,4,9,1.2,1.1
2022-05-22T20:00:00,2366A,114.8905,25.8471,赣州市,华坚鞋城,,40,26,38,28,31,75,56,66,60,29,22,2,10,1.1,1.1
2022-05-22T20:00:00,2367A,114.9754,27.0803,吉安市,红声器材厂,,34,26,51,17,32,114,106,104,104,10,14,5,9,0.4,0.5
2022-05-22T20:00:00,2368A,114.9658,27.0999,吉安市,市森林工业局,,36,21,46,14,31,120,113,101,101,6,14,3,5,0.4,0.5
2022-05-22T20:00:00,2369A,114.99,27.1312,吉安市,市环境监测站,,34,21,52,16,33,121,106,104,104,11,15,5,11,0.4,0.5
2022-05-22T20:00:00,2370A,115.0093,27.0968,吉安市,青原区法院,,30,28,50,21,31,119,95,103,103,14,15,13,15,0.4,0.5
2022-05-22T20:00:00,2371A,114.3408,27.8064,宜春市,槟榔水业(对照点),,45,40,52,31,34,103,68,83,82,17,21,6,6,0.7,0.7
2022-05-22T20:00:00,2373A,114.3956,27.7844,宜春市,市石油公司,,38,31,52,26,34,111,55,94,89,10,13,6,6,0.9,0.9
2022-05-22T20:00:00,2374A,114.3703,27.7914,宜春市,市气象局,,42,37,51,29,33,118,57,105,97,18,18,4,7,0.7,0.7
2022-05-22T20:00:00,2375A,114.4013,27.8074,宜春市,市广电局,,39,35,53,27,38,115,76,98,96,12,20,3,4,0.7,0.8
2022-05-22T20:00:00,2376A,116.2127,28.0814,抚州市,桐源党溪(对照点),,35,35,37,23,25,106,90,85,82,5,17,1,20,0.4,0.6
2022-05-22T20:00:00,2377A,116.3544,27.9831,抚州市,市站,,38,38,49,25,29,97,88,92,88,7,21,6,7,0.8,0.9
2022-05-22T20:00:00,2378A,116.3565,27.963,抚州市,血防站,,38,38,52,25,25,98,98,87,87,6,19,3,7,0.6,0.8
2022-05-22T20:00:00,2379A,116.3564,28.0007,抚州市,采茶剧团,,42,42,49,24,28,99,84,90,84,6,21,5,6,0.8,0.9
2022-05-22T20:00:00,2380A,116.385,27.9647,抚州市,医学分院,,36,36,43,20,27,92,92,84,84,6,21,3,6,0.8,0.9
2022-05-22T20:00:00,2381A,118.005,28.4572,上饶市,百草园(对照点),,34,34,56,20,36,116,84,103,94,11,17,11,13,0.6,0.5
2022-05-22T20:00:00,2382A,117.9756,28.4436,上饶市,市监测站,,49,46,59,34,38,129,85,114,104,17,20,21,13,0.6,0.5
2022-05-22T20:00:00,2383A,117.9519,28.4628,上饶市,凤凰光学,细颗粒物(PM2.5),55,49,58,39,39,129,82,114,108,15,21,29,17,0.9,0.8
2022-05-22T20:00:00,2385A,114.17,35.9019,鹤壁市,市监测站,颗粒物(PM10),67,84,88,31,37,212,136,186,183,22,29,12,16,1.4,1.3
2022-05-22T20:00:00,2386A,114.2956,35.7511,鹤壁市,市交警支队,颗粒物(PM10),57,64,69,29,30,200,128,170,168,20,24,8,12,0.9,0.9
2022-05-22T20:00:00,2387A,114.2878,35.7306,鹤壁市,迎宾馆,颗粒物(PM10),57,64,67,26,29,204,129,174,171,25,27,7,8,0.5,0.5
2022-05-22T20:00:00,2389A,113.836,35.311,新乡市,环保西院,颗粒物(PM10),54,58,72,27,33,204,155,184,182,13,23,7,10,0.8,0.8
2022-05-22T20:00:00,2390A,113.884,35.272,新乡市,开发区,颗粒物(PM10),60,70,62,24,25,195,147,183,180,21,25,5,7,0.5,0.5
2022-05-22T20:00:00,2391A,113.883,35.303,新乡市,环保东院,颗粒物(PM10),53,56,59,30,25,202,151,188,184,22,28,4,7,0.3,0.4
2022-05-22T20:00:00,2392A,115.0312,35.7636,濮阳市,环保局,颗粒物(PM10),53,55,52,26,28,154,135,146,146,18,12,7,8,0.4,0.4
2022-05-22T20:00:00,2394A,115.0574,35.7609,濮阳市,油田运输公司,颗粒物(PM10),61,71,70,29,29,161,152,155,155,20,17,7,8,0.4,0.3
2022-05-22T20:00:00,2395A,115.0866,35.7754,濮阳市,油田物探公司,颗粒物(PM10),57,64,60,25,26,170,143,161,161,23,16,11,10,0.3,0.3
2022-05-22T20:00:00,2396A,113.8276,34.0159,许昌市,监测站,,44,44,43,27,27,160,134,153,152,10,12,5,6,0.3,0.3
2022-05-22T20:00:00,2398A,113.7906,33.9953,许昌市,开发区,颗粒物(PM10),55,60,57,23,26,171,135,163,161,14,20,4,5,0.5,0.6
2022-05-22T20:00:00,2399A,114.051,33.5699,漯河市,三五一五工厂,颗粒物(PM10),53,56,52,34,27,187,157,177,176,13,17,6,8,0.7,0.5
2022-05-22T20:00:00,2400A,114.0055,33.5698,漯河市,漯河大学,,48,47,41,26,24,168,151,161,161,13,15,7,5,0.8,0.6
2022-05-22T20:00:00,2401A,114.0138,33.5828,漯河市,市水利局,颗粒物(PM10),53,56,42,30,25,174,160,166,166,10,12,6,7,0.6,0.5
2022-05-22T20:00:00,2402A,114.0261,33.5698,漯河市,市广电局,颗粒物(PM10),55,59,41,32,24,178,150,166,166,16,14,6,7,0.6,0.5
2022-05-22T20:00:00,2403A,112.5192,32.9917,南阳市,环保局,颗粒物(PM10),54,57,67,35,33,161,141,155,155,15,21,2,3,0.5,0.5
2022-05-22T20:00:00,2404A,112.5339,33.0086,南阳市,瓦房庄,,43,42,54,30,29,162,137,156,156,16,22,4,5,0.7,0.6
2022-05-22T20:00:00,2405A,112.5003,32.9735,南阳市,汉画馆,,47,47,53,29,30,164,138,157,157,23,26,5,7,0.7,0.6
2022-05-22T20:00:00,2406A,112.5779,33.0144,南阳市,气象站,颗粒物(PM10),55,60,63,31,30,170,124,160,159,37,24,5,6,0.6,0.6
2022-05-22T20:00:00,2407A,112.548,32.9692,南阳市,理工学院,颗粒物(PM10),52,53,55,29,30,159,128,150,150,14,23,4,5,0.6,0.6
2022-05-22T20:00:00,2408A,115.6702,34.4285,商丘市,环境监测站,颗粒物(PM10),54,57,50,28,25,168,162,165,165,14,13,8,11,0.5,0.4
2022-05-22T20:00:00,2409A,115.6458,34.4045,商丘市,粮食局,颗粒物(PM10),53,56,50,30,27,175,156,169,168,21,15,16,8,0.5,0.5
2022-05-22T20:00:00,2410A,115.6293,34.3948,商丘市,睢阳区环保局,"颗粒物(PM10),细颗粒物(PM2.5)",53,56,51,37,33,168,148,165,163,22,17,29,8,0.5,0.5
2022-05-22T20:00:00,2420A,114.0189,32.9656,驻马店市,市一纸厂,颗粒物(PM10),51,52,43,33,24,169,135,162,159,14,19,8,7,0.4,0.4
2022-05-22T20:00:00,2421A,114.0114,33.015,驻马店市,市彩印厂,,47,47,44,24,23,170,141,165,163,9,18,5,5,0.3,0.4
