timepoint,stationcode,longitude,latitude,area,positionname,primarypollutant,aqi,pm10,pm10_24h,pm2_5,pm2_5_24h,o3,o3_24h,o3_8h,o3_8h_24h,no2,no2_24h,so2,so2_24h,co,co_24h
2023-05-15T18:00:00,1001A,116.3621,39.8784,北京市,万寿西宫,臭氧1小时,114,68,97,29,56,246,227,220,220,22,24,3,3,0.7,1
2023-05-15T18:00:00,1002A,116.2202,40.2915,北京市,定陵,臭氧1小时,136,61,73,22,37,308,271,250,250,16,14,4,3,0.8,0.7
2023-05-15T18:00:00,1003A,116.4174,39.9289,北京市,东四,臭氧1小时,128,57,106,20,60,276,255,243,243,16,25,5,5,1.0,0.9
2023-05-15T18:00:00,1004A,116.4072,39.8863,北京市,天坛,臭氧1小时,119,57,95,24,54,261,238,232,232,27,25,3,3,0.5,0.8
2023-05-15T18:00:00,1005A,116.462,39.9365,北京市,农展馆,臭氧1小时,111,57,102,23,55,246,222,218,218,23,32,1,3,0.6,0.9
2023-05-15T18:00:00,1006A,116.3392,39.9295,北京市,官园,臭氧1小时,116,65,101,27,58,243,231,214,214,24,29,4,5,0.5,0.8
2023-05-15T18:00:00,1007A,116.2878,39.9611,北京市,海淀万柳,臭氧1小时,88,66,102,24,57,192,190,174,174,22,48,3,2,0.6,0.7
2023-05-15T18:00:00,1008A,116.6636,40.135,北京市,顺义新城,臭氧1小时,125,80,100,42,56,271,250,226,226,19,18,4,4,0.9,0.9
2023-05-15T18:00:00,1009A,116.6275,40.3275,北京市,怀柔镇,臭氧1小时,143,76,96,38,48,288,286,248,248,23,18,5,4,0.8,0.7
2023-05-15T18:00:00,1010A,116.2296,40.217,北京市,昌平镇,臭氧1小时,110,59,89,24,48,273,220,224,224,6,5,2,3,0.8,0.8
2023-05-15T18:00:00,1011A,116.3966,39.9821,北京市,奥体中心,臭氧1小时,116,69,103,24,52,243,232,213,213,22,35,3,3,0.6,0.8
2023-05-15T18:00:00,1012A,116.184,39.9136,北京市,古城,臭氧1小时,119,65,109,25,56,238,238,214,214,20,37,2,2,0.8,0.8
2023-05-15T18:00:00,1015A,117.1444,39.1661,天津市,勤俭道,臭氧1小时,106,68,130,20,75,239,212,214,214,16,40,13,11,0.7,0.9
2023-05-15T18:00:00,1017A,117.237,39.1082,天津市,大直沽八号路,臭氧1小时,99,41,127,20,77,220,199,204,204,16,47,8,11,0.6,0.7
2023-05-15T18:00:00,1018A,117.202,39.0927,天津市,前进道,臭氧1小时,102,76,142,26,80,234,204,213,213,23,49,10,8,0.6,1
2023-05-15T18:00:00,1019A,117.1837,39.2133,天津市,淮河道,臭氧1小时,112,38,120,14,65,259,223,224,224,17,45,11,9,,0.9
2023-05-15T18:00:00,1021A,117.307,39.0877,天津市,跃进路,臭氧1小时,114,86,136,26,71,248,227,226,226,18,43,11,10,0.8,1
2023-05-15T18:00:00,1023A,117.707,39.0343,天津市,第四大街,臭氧1小时,102,58,88,22,54,250,203,196,196,19,66,6,6,0.8,0.9
2023-05-15T18:00:00,1024A,117.457,38.8394,天津市,永明路,臭氧1小时,95,69,98,23,52,243,196,207,207,19,35,10,9,0.6,0.7
2023-05-15T18:00:00,1026A,117.764,39.1587,天津市,汉北路,臭氧1小时,110,33,88,16,51,256,220,194,194,17,27,5,8,,0.9
2023-05-15T18:00:00,1027A,117.157,38.9194,天津市,团泊洼,臭氧1小时,111,67,103,18,53,244,221,221,221,27,40,8,6,0.6,0.9
2023-05-15T18:00:00,1029A,114.4422,38.0444,石家庄市,职工医院,臭氧1小时,97,129,107,32,39,245,197,203,203,15,39,12,14,0.6,0.5
2023-05-15T18:00:00,1030A,114.6063,38.0266,石家庄市,高新区,颗粒物(PM10),84,118,108,29,39,243,180,202,202,5,31,8,8,0.5,0.7
2023-05-15T18:00:00,1031A,114.4898,38.1328,石家庄市,西北水源,臭氧1小时,98,110,118,48,49,244,198,201,201,12,36,12,10,0.9,0.8
2023-05-15T18:00:00,1032A,114.4586,38.0058,石家庄市,西南高教,臭氧1小时,90,98,105,29,43,247,192,201,201,16,39,12,10,0.9,0.9
2023-05-15T18:00:00,1033A,114.5331,38.0178,石家庄市,世纪公园,颗粒物(PM10),81,111,95,37,41,231,170,185,185,10,33,11,10,0.7,0.8
2023-05-15T18:00:00,1034A,114.509,38.0457,石家庄市,人民会堂,臭氧1小时,82,91,107,41,43,249,185,195,195,14,36,14,14,0.7,0.9
2023-05-15T18:00:00,1035A,114.3524,37.8911,石家庄市,封龙山,,,107,86,25,24,264,186,206,206,21,11,,8,1.2,0.7
2023-05-15T18:00:00,1037A,118.131,39.6363,唐山市,雷达站,臭氧1小时,121,114,108,48,64,310,241,242,242,17,23,7,10,0.9,1.5
2023-05-15T18:00:00,1038A,118.1725,39.6334,唐山市,物资局,臭氧1小时,117,132,116,41,61,293,233,229,229,20,27,13,13,0.9,1.5
2023-05-15T18:00:00,1040A,118.1705,39.6506,唐山市,十二中,臭氧1小时,118,118,98,52,59,309,236,234,234,20,24,13,13,0.9,1.5
2023-05-15T18:00:00,1041A,118.1869,39.622,唐山市,小山,臭氧1小时,126,131,114,48,54,322,252,247,247,11,18,14,13,0.9,1.4
2023-05-15T18:00:00,1042A,119.5134,39.8207,秦皇岛市,北戴河环保局,细颗粒物(PM2.5),100,94,58,75,44,156,156,139,139,24,14,4,3,0.4,0.2
2023-05-15T18:00:00,1043A,119.7493,40.0116,秦皇岛市,第一关,细颗粒物(PM2.5),100,114,71,75,49,153,153,139,139,30,32,3,2,0.6,0.4
2023-05-15T18:00:00,1044A,119.5897,39.9499,秦皇岛市,监测站,细颗粒物(PM2.5),124,134,86,94,55,172,144,138,138,36,27,3,2,0.6,0.4
2023-05-15T18:00:00,1046A,119.5251,39.9041,秦皇岛市,建设大厦,细颗粒物(PM2.5),102,105,77,76,52,160,146,140,140,24,22,6,7,0.5,0.4
2023-05-15T18:00:00,1048A,114.5302,36.6116,邯郸市,东污水处理厂,颗粒物(PM10),87,124,93,32,35,174,174,160,160,12,30,3,4,0.1,0.5
2023-05-15T18:00:00,1049A,114.4918,36.5713,邯郸市,矿院,臭氧1小时,72,77,77,34,39,183,177,172,172,12,38,6,8,0.4,0.7
2023-05-15T18:00:00,1050A,114.484,36.6133,邯郸市,丛台公园,颗粒物(PM10),83,116,95,38,37,180,173,170,170,10,26,6,8,0.5,0.8
2023-05-15T18:00:00,1051A,115.493,38.8632,保定市,游泳馆,臭氧1小时,69,85,93,34,67,230,175,207,207,9,37,15,15,0.4,0.4
2023-05-15T18:00:00,1052A,115.5213,38.8959,保定市,华电二区,臭氧1小时,87,111,118,31,56,223,189,205,205,9,37,9,9,0.8,0.7
2023-05-15T18:00:00,1053A,115.4713,38.9108,保定市,接待中心,臭氧1小时,78,103,125,39,44,219,182,201,201,6,32,10,10,0.7,0.7
2023-05-15T18:00:00,1054A,115.4612,38.8416,保定市,地表水厂,颗粒物(PM10),81,111,132,28,44,209,182,189,189,16,48,12,12,0.8,0.7
2023-05-15T18:00:00,1056A,115.5086,38.8639,保定市,监测站,颗粒物(PM10),111,172,121,38,52,236,199,216,216,16,38,9,10,0.5,0.5
2023-05-15T18:00:00,1057A,114.8883,40.8336,张家口市,人民公园,颗粒物(PM10),52,53,65,20,15,145,135,136,136,6,10,4,4,0.3,0.3
2023-05-15T18:00:00,1059A,114.8687,40.8042,张家口市,五金库,颗粒物(PM10),53,56,59,16,19,140,128,127,127,11,24,4,3,0.3,0.4
2023-05-15T18:00:00,1060A,114.8902,40.762,张家口市,世纪豪园,细颗粒物(PM2.5),60,50,59,43,31,143,129,134,134,8,15,2,2,0.2,0.3
2023-05-15T18:00:00,1061A,114.8916,40.8661,张家口市,北泵房,颗粒物(PM10),51,51,69,18,21,147,142,140,140,6,13,10,10,0.4,0.4
2023-05-15T18:00:00,1062A,117.9531,40.9081,承德市,铁路,臭氧1小时,85,76,58,26,28,188,188,169,169,13,24,12,11,0.5,0.4
2023-05-15T18:00:00,1063A,117.9392,40.9763,承德市,中国银行,臭氧1小时,74,83,59,34,29,199,179,173,170,13,23,9,9,0.4,0.4
2023-05-15T18:00:00,1064A,117.9503,40.928,承德市,开发区,臭氧1小时,80,69,59,30,29,193,184,175,175,19,26,11,10,0.6,0.5
2023-05-15T18:00:00,1065A,117.8051,40.9655,承德市,文化中心,颗粒物(PM10),62,74,70,25,33,165,145,145,145,8,29,8,10,0.3,0.5
2023-05-15T18:00:00,1066A,117.9268,41.0026,承德市,离宫,颗粒物(PM10),56,61,55,30,28,189,137,157,152,6,19,7,7,0.4,0.4
2023-05-15T18:00:00,1067A,116.6708,39.5111,廊坊市,药材公司,臭氧1小时,117,116,118,38,58,257,233,221,221,16,31,8,6,0.7,0.9
2023-05-15T18:00:00,1068A,116.7214,39.5589,廊坊市,开发区,臭氧1小时,122,100,103,49,70,262,243,229,229,26,33,10,8,0.6,0.9
2023-05-15T18:00:00,1070A,116.7244,39.5269,廊坊市,北华航天学院,臭氧1小时,114,123,124,46,66,253,228,215,215,16,30,8,8,0.6,0.8
2023-05-15T18:00:00,1071A,116.8842,38.2991,沧州市,沧县城建局,臭氧1小时,79,85,92,36,42,209,183,192,192,17,26,11,12,0.7,0.7
2023-05-15T18:00:00,1072A,116.8584,38.3254,沧州市,电视转播站,臭氧1小时,88,87,93,56,54,214,190,192,192,18,32,14,14,0.5,0.6
2023-05-15T18:00:00,1073A,116.8709,38.3228,沧州市,市环保局,臭氧1小时,85,99,106,34,47,214,188,192,192,21,33,11,13,0.3,0.5
2023-05-15T18:00:00,1074A,115.6838,37.7541,衡水市,电机北厂,颗粒物(PM10),106,161,113,50,48,217,197,193,193,8,21,7,8,0.5,0.7
2023-05-15T18:00:00,1075A,115.6303,37.7316,衡水市,市监测站,颗粒物(PM10),99,148,110,50,50,214,186,188,188,9,23,9,10,0.6,0.8
2023-05-15T18:00:00,1077A,114.4704,37.0886,邢台市,达活泉,颗粒物(PM10),98,145,104,36,31,250,169,191,188,15,27,8,13,0.5,0.9
2023-05-15T18:00:00,1078A,114.5062,37.0349,邢台市,邢师高专,颗粒物(PM10),96,141,112,38,38,225,154,171,171,26,37,7,9,0.3,1
2023-05-15T18:00:00,1079A,114.5237,37.0851,邢台市,路桥公司,,,131,99,,36,234,161,179,179,15,29,8,11,0.1,0.7
2023-05-15T18:00:00,1080A,114.4725,37.0719,邢台市,市环保局,颗粒物(PM10),96,142,100,44,40,249,171,198,198,8,23,9,12,0.4,1
2023-05-15T18:00:00,1081A,112.522,37.8873,太原市,尖草坪,颗粒物(PM10),75,100,130,41,48,195,172,166,166,17,54,8,12,0.5,0.8
2023-05-15T18:00:00,1083A,112.434,38.0108,太原市,上兰,颗粒物(PM10),67,83,86,41,42,188,164,152,152,8,13,9,15,0.6,0.6
2023-05-15T18:00:00,1084A,112.469,37.7124,太原市,晋源,颗粒物(PM10),68,85,119,33,48,208,164,168,168,17,52,9,13,0.3,0.6
2023-05-15T18:00:00,1085A,112.5583,37.7394,太原市,小店,颗粒物(PM10),72,93,158,34,65,195,158,166,166,22,66,5,13,0.3,0.7
2023-05-15T18:00:00,1086A,112.5369,37.8692,太原市,桃园,颗粒物(PM10),67,83,113,42,50,191,170,162,162,18,56,7,11,0.4,0.7
2023-05-15T18:00:00,1087A,112.57,37.8195,太原市,坞城,颗粒物(PM10),75,100,143,34,56,194,165,165,165,18,62,6,10,0.4,0.7
2023-05-15T18:00:00,1088A,112.549,37.9854,太原市,南寨,颗粒物(PM10),82,113,125,48,49,188,174,153,153,16,46,10,13,0.5,0.7
2023-05-15T18:00:00,1090A,111.6507,40.7517,呼和浩特市,呼市一监,颗粒物(PM10),65,80,74,27,27,148,148,121,121,11,39,9,8,0.4,0.5
2023-05-15T18:00:00,1091A,111.6572,40.8033,呼和浩特市,小召,颗粒物(PM10),58,66,63,34,28,139,134,112,112,21,37,12,12,0.4,0.4
2023-05-15T18:00:00,1094A,111.7516,40.8369,呼和浩特市,如意水处理厂,颗粒物(PM10),65,80,73,29,25,138,138,112,112,10,36,9,9,0.3,0.4
2023-05-15T18:00:00,1095A,111.7276,40.8062,呼和浩特市,二十九中,颗粒物(PM10),59,68,65,21,23,142,142,103,103,16,42,7,8,0.4,0.4
2023-05-15T18:00:00,1096A,111.5512,40.7866,呼和浩特市,工大金川校区,颗粒物(PM10),64,77,65,29,22,144,144,114,114,11,39,7,8,0.4,0.4
2023-05-15T18:00:00,1097A,111.717,40.7612,呼和浩特市,化肥厂生活区,颗粒物(PM10),132,214,100,51,41,126,126,102,102,22,40,8,9,0.3,0.3
2023-05-15T18:00:00,1098A,123.6836,41.9339,沈阳市,森林路,,,,,,,,,,,,,,,,
2023-05-15T18:00:00,1099A,123.505,41.7406,沈阳市,浑南东路,颗粒物(PM10),52,54,45,30,24,175,132,149,149,18,24,13,20,0.8,0.7
2023-05-15T18:00:00,1100A,123.4231,41.6989,沈阳市,新秀街,颗粒物(PM10),58,65,51,28,20,175,131,157,156,14,16,10,23,0.8,0.8
2023-05-15T18:00:00,1102A,123.5903,41.8411,沈阳市,东陵路,颗粒物(PM10),64,77,57,30,21,181,135,150,150,17,22,13,14,0.9,0.8
2023-05-15T18:00:00,1103A,123.4264,41.8467,沈阳市,陵东街,颗粒物(PM10),58,65,54,33,22,180,134,162,162,19,19,14,15,0.8,0.8
2023-05-15T18:00:00,1104A,123.4114,41.7653,沈阳市,文化路,"颗粒物(PM10),细颗粒物(PM2.5)",58,66,65,41,28,184,138,165,165,15,17,12,19,0.7,0.7
2023-05-15T18:00:00,1105A,123.4678,41.7867,沈阳市,小河沿,颗粒物(PM10),59,67,47,35,22,177,126,155,154,25,24,8,14,0.8,0.7
2023-05-15T18:00:00,1106A,123.4017,41.7972,沈阳市,太原街,细颗粒物(PM2.5),54,56,51,38,25,184,134,163,162,20,23,17,20,0.5,0.6
2023-05-15T18:00:00,1108A,123.3783,41.9228,沈阳市,京沈街,颗粒物(PM10),61,72,58,33,25,179,135,164,163,18,17,18,17,0.8,0.8
2023-05-15T18:00:00,1109A,121.612,38.9741,大连市,甘井子,颗粒物(PM10),58,66,41,34,29,147,105,122,122,31,18,6,5,0.7,0.5
2023-05-15T18:00:00,1110A,121.565,38.9511,大连市,周水子,细颗粒物(PM2.5),65,76,48,47,31,149,120,127,127,30,24,7,5,0.8,0.6
2023-05-15T18:00:00,1111A,121.5637,38.8845,大连市,星海三站,颗粒物(PM10),63,75,59,36,32,160,138,142,142,26,16,5,4,0.7,0.6
2023-05-15T18:00:00,1112A,121.6302,38.9117,大连市,青泥洼桥,颗粒物(PM10),61,72,52,34,28,160,125,138,138,24,14,6,5,0.8,0.7
2023-05-15T18:00:00,1113A,121.6251,38.8638,大连市,傅家庄,臭氧1小时,70,60,46,42,29,188,176,154,154,12,12,7,6,0.8,0.7
2023-05-15T18:00:00,1114A,121.5213,38.8661,大连市,七贤岭,"颗粒物(PM10),细颗粒物(PM2.5)",60,69,53,43,34,189,167,164,164,21,12,6,6,0.5,0.4
2023-05-15T18:00:00,1115A,121.2529,38.8061,大连市,旅顺,臭氧1小时,90,95,47,43,30,192,192,165,165,25,17,12,7,0.7,0.6
2023-05-15T18:00:00,1116A,121.7485,39.1311,大连市,金州,细颗粒物(PM2.5),58,62,42,41,27,173,141,142,142,16,13,7,6,0.7,0.6
2023-05-15T18:00:00,1117A,121.7811,39.0496,大连市,开发区,,49,49,40,30,25,153,103,134,132,40,17,5,3,0.6,0.5
2023-05-15T18:00:00,1118A,121.9762,39.0631,大连市,双D港,,44,44,24,20,18,138,118,121,120,8,8,6,5,0.5,0.5
2023-05-15T18:00:00,1119A,125.3325,43.9166,长春市,食品厂,颗粒物(PM10),53,55,53,11,22,149,87,116,114,28,23,7,9,0.4,0.5
2023-05-15T18:00:00,1120A,125.2863,43.9027,长春市,客车厂,颗粒物(PM10),60,70,67,9,24,154,89,116,115,23,20,4,6,0.4,0.5
2023-05-15T18:00:00,1121A,125.2841,43.8463,长春市,邮电学院,颗粒物(PM10),52,54,56,12,21,149,101,121,121,13,16,5,7,0.3,0.5
2023-05-15T18:00:00,1122A,125.3716,43.8772,长春市,劳动公园,,49,49,50,13,20,162,111,132,131,12,15,6,8,0.3,0.5
2023-05-15T18:00:00,1123A,125.3297,43.8805,长春市,园林处,,47,47,53,9,18,155,96,115,114,20,19,3,4,0.3,0.5
2023-05-15T18:00:00,1124A,125.4605,43.79,长春市,净月潭,颗粒物(PM10),51,51,40,10,18,150,114,136,135,10,10,4,5,0.4,0.5
2023-05-15T18:00:00,1125A,125.7194,43.515,长春市,甩湾子,,,,,,,,,,,,,,,,
2023-05-15T18:00:00,1126A,125.3863,43.8447,长春市,经开区环卫处,,50,50,46,6,18,143,107,129,128,17,18,7,8,0.3,0.4
2023-05-15T18:00:00,1127A,125.245,43.7783,长春市,高新区管委会,颗粒物(PM10),54,57,49,17,19,155,110,135,134,14,13,6,7,0.3,0.4
2023-05-15T18:00:00,1128A,125.1761,43.8325,长春市,岱山公园,颗粒物(PM10),58,65,52,10,19,147,99,123,122,18,18,4,6,0.2,0.4
2023-05-15T18:00:00,1129A,126.5422,45.755,哈尔滨市,岭北,,34,24,27,5,13,132,106,106,106,7,11,5,16,0.4,0.1
2023-05-15T18:00:00,1130A,126.561,45.8167,哈尔滨市,松北商大,,31,30,32,7,11,127,99,98,98,12,14,5,6,0.4,0.5
2023-05-15T18:00:00,1131A,126.979,45.5419,哈尔滨市,阿城会宁,,32,25,34,12,14,114,101,98,98,15,13,8,9,0.4,0.4
2023-05-15T18:00:00,1132A,126.599,45.7222,哈尔滨市,南岗学府路,,36,36,43,3,14,115,101,98,98,8,13,4,7,0.4,0.5
2023-05-15T18:00:00,1133A,126.689,45.7733,哈尔滨市,太平宏伟公园,,42,42,39,10,14,111,100,95,95,15,20,5,6,0.3,0.4
2023-05-15T18:00:00,1134A,126.635,45.7667,哈尔滨市,道外承德广场,,33,25,36,20,13,125,104,101,101,14,18,8,9,0.4,0.5
2023-05-15T18:00:00,1135A,126.685,45.7319,哈尔滨市,香坊红旗大街,,44,44,40,3,25,114,109,104,104,10,19,8,10,0.3,0.4
2023-05-15T18:00:00,1136A,126.6411,45.7258,哈尔滨市,动力和平路,,44,44,40,9,15,116,103,101,101,16,20,10,12,0.5,0.5
2023-05-15T18:00:00,1137A,126.593,45.7478,哈尔滨市,道里建国路,,,,,,,,,,,,,,,,
2023-05-15T18:00:00,1138A,126.615,45.61,哈尔滨市,平房东轻厂,,39,39,34,10,13,125,109,102,102,11,13,5,6,0.6,0.6
2023-05-15T18:00:00,1139A,126.595,45.9855,哈尔滨市,呼兰师专,,34,26,42,5,12,128,107,106,100,12,16,8,10,0.4,0.5
2023-05-15T18:00:00,1140A,126.6206,45.6842,哈尔滨市,省农科院,,,50,41,12,14,114,108,108,108,12,22,,13,0.4,0.5
2023-05-15T18:00:00,1141A,121.4,31.238,上海市,普陀,臭氧1小时,102,69,77,27,42,215,204,191,191,29,42,8,7,0.6,0.7
2023-05-15T18:00:00,1142A,121.478,31.2036,上海市,十五厂,,,,,,,,,,,,,,,,
2023-05-15T18:00:00,1143A,121.467,31.3008,上海市,虹口,臭氧1小时,90,68,74,40,38,202,192,176,176,22,39,11,11,0.5,0.6
2023-05-15T18:00:00,1144A,121.412,31.1654,上海市,徐汇上师大,臭氧1小时,105,61,64,31,46,210,210,179,179,35,45,12,9,0.4,0.6
2023-05-15T18:00:00,1145A,121.536,31.2659,上海市,杨浦四漂,臭氧1小时,106,83,84,34,42,211,211,185,185,29,60,9,9,0.7,0.8
2023-05-15T18:00:00,1147A,121.425,31.2261,上海市,静安监测站,臭氧1小时,104,70,74,27,41,207,207,184,184,30,40,10,8,0.6,0.8
2023-05-15T18:00:00,1148A,121.703,31.1907,上海市,浦东川沙,臭氧1小时,80,72,96,34,58,228,184,180,180,16,30,8,9,0.6,0.8
2023-05-15T18:00:00,1149A,121.533,31.2284,上海市,浦东新区监测站,臭氧1小时,116,67,79,31,44,232,232,203,203,19,40,10,10,0.5,0.6
2023-05-15T18:00:00,1150A,121.577,31.2071,上海市,浦东张江,臭氧1小时,104,65,89,30,50,207,207,187,187,23,49,7,6,0.7,0.9
2023-05-15T18:00:00,1151A,118.8086,32.1065,南京市,迈皋桥,臭氧1小时,114,63,68,27,30,227,227,206,206,17,27,14,18,0.7,1
2023-05-15T18:00:00,1152A,118.7538,32.0551,南京市,草场门,臭氧1小时,103,70,73,29,32,209,206,188,188,21,30,9,15,1.0,1.5
2023-05-15T18:00:00,1153A,118.7794,32.0745,南京市,山西路,臭氧1小时,105,66,74,29,32,212,209,192,192,14,23,13,19,0.7,1.2
2023-05-15T18:00:00,1154A,118.7752,32.0023,南京市,中华门,臭氧1小时,77,51,61,29,27,215,181,190,190,20,26,7,12,0.8,1.2
2023-05-15T18:00:00,1155A,118.8109,32.0309,南京市,瑞金路,臭氧1小时,88,69,70,29,30,222,190,195,195,19,24,5,10,0.7,1
2023-05-15T18:00:00,1156A,118.7997,32.0754,南京市,玄武湖,臭氧1小时,105,68,67,28,31,209,209,189,189,14,22,14,15,1.2,1.5
2023-05-15T18:00:00,1157A,118.6414,32.0931,南京市,浦口,臭氧1小时,90,66,71,22,35,206,192,181,181,17,21,9,12,0.3,0.4
2023-05-15T18:00:00,1158A,118.7356,31.9996,南京市,奥体中心,臭氧1小时,90,72,75,34,33,199,192,182,182,24,34,14,18,0.8,1.3
2023-05-15T18:00:00,1159A,118.9125,32.1028,南京市,仙林大学城,,,51,67,19,28,222,174,194,194,18,25,9,17,,1
2023-05-15T18:00:00,1160A,120.561,31.2472,苏州市,上方山,臭氧1小时,89,63,56,33,37,191,191,162,162,13,22,8,9,0.4,0.5
2023-05-15T18:00:00,1162A,120.591,31.3019,苏州市,彩香,臭氧1小时,105,64,62,31,31,209,209,179,179,12,26,7,7,0.5,0.6
2023-05-15T18:00:00,1163A,120.596,31.3264,苏州市,轧钢厂,臭氧1小时,101,63,63,26,31,201,201,175,175,10,25,8,9,0.6,0.7
2023-05-15T18:00:00,1164A,120.613,31.2703,苏州市,吴中区,臭氧1小时,102,60,66,28,32,206,204,185,185,21,35,8,9,0.6,0.7
2023-05-15T18:00:00,1165A,120.543,31.2994,苏州市,苏州新区,臭氧1小时,94,70,65,34,32,204,195,172,172,14,21,6,7,0.5,0.6
2023-05-15T18:00:00,1166A,120.669,31.3097,苏州市,苏州工业园区,臭氧1小时,104,54,65,21,31,208,208,182,182,11,27,9,10,0.5,0.6
2023-05-15T18:00:00,1167A,120.641,31.3708,苏州市,相城区,臭氧1小时,102,59,64,26,31,206,203,179,179,12,28,8,7,0.5,0.6
2023-05-15T18:00:00,1168A,120.9098,31.9663,南通市,狼山街道,臭氧1小时,59,46,60,22,32,193,167,168,168,42,40,9,10,0.4,0.6
2023-05-15T18:00:00,1169A,120.86,32.0005,南通市,虹桥,臭氧1小时,58,59,75,24,38,220,166,162,162,46,53,8,12,0.4,0.8
2023-05-15T18:00:00,1170A,120.87,32.02,南通市,城中,颗粒物(PM10),52,54,73,24,36,207,160,163,163,36,41,8,12,0.5,0.8
2023-05-15T18:00:00,1171A,120.94,31.93,南通市,星湖花园,臭氧1小时,74,66,68,24,34,190,179,170,170,29,41,6,10,0.3,0.7
2023-05-15T18:00:00,1172A,120.81,32.0417,南通市,紫琅学院,颗粒物(PM10),52,54,80,24,38,172,100,141,138,92,74,9,13,0.5,0.8
2023-05-15T18:00:00,1173A,119.176,34.5885,连云港市,市环境监测站,颗粒物(PM10),65,80,89,24,33,186,169,167,167,7,9,8,9,0.3,0.4
2023-05-15T18:00:00,1177A,117.179,34.2761,徐州市,黄河新村,臭氧1小时,64,75,81,35,35,180,171,171,171,10,11,9,10,0.7,0.7
2023-05-15T18:00:00,1178A,117.1918,34.2384,徐州市,淮塔,臭氧1小时,72,76,77,31,35,182,177,177,177,10,12,11,13,0.7,0.7
2023-05-15T18:00:00,1180A,117.256,34.2153,徐州市,新城区,颗粒物(PM10),63,76,80,26,33,172,168,167,167,7,15,7,9,0.7,0.7
2023-05-15T18:00:00,1181A,117.244,34.2911,徐州市,桃园路,颗粒物(PM10),68,85,83,27,32,171,166,165,165,7,14,9,10,0.7,0.7
2023-05-15T18:00:00,1182A,117.2933,34.2778,徐州市,农科院,颗粒物(PM10),63,75,73,24,27,184,168,173,173,12,15,8,9,0.6,0.7
2023-05-15T18:00:00,1186A,119.389,32.3761,扬州市,邗江监测站,颗粒物(PM10),58,66,82,33,31,190,159,180,180,21,31,9,13,0.5,1
2023-05-15T18:00:00,1188A,120.269,31.4867,无锡市,雪浪,臭氧1小时,83,44,51,12,25,202,186,183,183,9,12,8,10,0.4,0.6
2023-05-15T18:00:00,1189A,120.275,31.6219,无锡市,黄巷,臭氧1小时,73,46,56,19,25,194,178,179,179,12,23,5,7,0.7,0.9
2023-05-15T18:00:00,1190A,120.294,31.56,无锡市,曹张,臭氧1小时,72,44,57,19,27,189,177,170,170,9,49,6,6,0.6,0.8
2023-05-15T18:00:00,1191A,120.242,31.5031,无锡市,漆塘,臭氧1小时,67,39,45,17,26,188,173,174,174,9,12,6,7,0.3,0.4
2023-05-15T18:00:00,1192A,120.3489,31.5863,无锡市,东亭,臭氧1小时,88,44,53,24,27,204,190,185,185,16,29,10,11,0.8,1
2023-05-15T18:00:00,1193A,120.354,31.5475,无锡市,旺庄,臭氧1小时,73,44,56,22,27,199,178,178,178,18,34,6,8,0.4,0.6
2023-05-15T18:00:00,1194A,120.245,31.5631,无锡市,荣巷,臭氧1小时,73,41,45,17,25,199,178,184,184,12,14,7,9,0.5,0.6
2023-05-15T18:00:00,1195A,120.299,31.6817,无锡市,堰桥,臭氧1小时,64,39,57,17,27,181,171,171,171,17,30,6,10,0.4,0.6
2023-05-15T18:00:00,1196A,119.9633,31.762,常州市,市监测站,臭氧1小时,77,35,56,26,32,183,181,176,176,18,26,7,10,0.3,0.5
2023-05-15T18:00:00,1200A,119.9468,31.7069,常州市,武进监测站,臭氧1小时,93,36,59,22,31,194,194,181,181,14,21,7,15,0.4,0.6
2023-05-15T18:00:00,1201A,119.9255,31.9087,常州市,安家,臭氧1小时,57,31,67,15,36,192,165,172,172,18,34,8,10,0.5,0.7
2023-05-15T18:00:00,1203A,119.6707,32.1875,镇江市,新区办事处,,47,31,63,12,30,200,148,172,172,9,14,3,4,0.0,0.6
2023-05-15T18:00:00,1204A,119.4974,32.1968,镇江市,职教中心,,50,48,62,19,29,182,159,169,169,18,14,2,5,0.4,0.8
2023-05-15T18:00:00,1205A,119.4303,32.1328,镇江市,丹徒区监测站,臭氧1小时,60,50,72,21,32,176,168,173,173,8,15,4,7,0.4,0.6
2023-05-15T18:00:00,1206A,119.905,32.4878,泰州市,公园路,臭氧1小时,62,36,64,29,47,197,169,181,181,13,29,10,12,0.4,0.8
2023-05-15T18:00:00,1207A,119.9189,32.4625,泰州市,莲花,臭氧1小时,74,34,72,27,38,212,179,191,191,16,29,8,12,0.4,0.8
2023-05-15T18:00:00,1209A,119.888,32.4639,泰州市,留学生创业园,,,56,67,19,32,194,171,178,178,,44,,12,0.4,0.9
2023-05-15T18:00:00,1210A,119.036,33.5981,淮安市,钵池山,臭氧1小时,74,51,54,27,31,188,179,172,172,15,18,12,13,0.6,0.8
2023-05-15T18:00:00,1211A,119.007,33.575,淮安市,北京南路,臭氧1小时,69,63,69,28,35,195,175,172,172,20,27,10,14,0.6,1.1
2023-05-15T18:00:00,1212A,118.989,33.6067,淮安市,市监测站,臭氧1小时,70,80,70,31,32,201,176,178,178,23,16,14,10,1.0,0.7
2023-05-15T18:00:00,1213A,119.135,33.5039,淮安市,楚州区监测站,臭氧1小时,68,71,72,30,35,191,174,173,173,14,19,11,13,0.6,0.6
2023-05-15T18:00:00,1214A,119.0186,33.6297,淮安市,淮阴区监测站,颗粒物(PM10),68,85,76,24,32,181,166,164,164,24,18,13,12,0.6,0.7
2023-05-15T18:00:00,1215A,120.118,33.4022,盐城市,盐城电厂,臭氧1小时,108,58,64,34,32,240,215,206,206,14,12,10,11,0.5,0.6
2023-05-15T18:00:00,1216A,120.156,33.3942,盐城市,市监测站,臭氧1小时,94,61,64,37,32,223,195,190,190,11,12,11,13,0.5,0.5
2023-05-15T18:00:00,1218A,120.2144,33.38,盐城市,开发区管委会,臭氧1小时,82,52,64,25,29,217,185,188,188,10,12,9,10,0.4,0.5
2023-05-15T18:00:00,1220A,118.293,33.9528,宿迁市,宿迁学院,臭氧1小时,65,60,74,27,36,188,172,172,172,10,13,10,12,0.6,0.7
2023-05-15T18:00:00,1221A,118.2442,33.9592,宿迁市,宿迁中学,臭氧1小时,67,63,69,29,36,190,173,171,171,11,13,9,10,0.4,0.5
2023-05-15T18:00:00,1223A,120.2072,30.2111,杭州市,滨江,臭氧1小时,53,46,73,26,31,211,162,173,173,15,27,9,9,0.4,0.6
2023-05-15T18:00:00,1224A,120.0633,30.2747,杭州市,西溪,,47,47,58,24,25,167,139,155,155,14,32,7,7,0.5,0.5
2023-05-15T18:00:00,1226A,120.3461,30.3153,杭州市,下沙,臭氧1小时,68,71,72,26,34,197,174,174,174,22,25,7,7,0.5,0.6
2023-05-15T18:00:00,1227A,120.1269,30.2456,杭州市,卧龙桥,,47,40,41,22,26,201,149,173,173,16,20,7,8,0.5,0.5
2023-05-15T18:00:00,1228A,120.1903,30.2692,杭州市,浙江农大,,47,42,57,24,33,213,148,171,171,17,30,7,8,0.2,0.4
2023-05-15T18:00:00,1230A,120.1197,30.3119,杭州市,和睦小学,颗粒物(PM10),51,52,64,26,33,180,154,159,159,16,44,6,6,0.4,0.6
2023-05-15T18:00:00,1231A,120.3019,30.4183,杭州市,临平镇,臭氧1小时,63,34,51,18,30,205,170,176,176,15,38,5,6,0.4,0.6
2023-05-15T18:00:00,1232A,120.2697,30.1819,杭州市,城厢镇,颗粒物(PM10),53,55,68,27,39,199,161,168,168,18,28,5,5,0.3,0.5
2023-05-15T18:00:00,1233A,120.0883,30.1808,杭州市,云栖,,44,44,46,29,29,182,134,157,157,14,27,6,6,0.4,0.5
2023-05-15T18:00:00,1234A,121.8358,29.911,宁波市,区环保大楼,,48,45,63,26,42,230,151,177,177,27,73,5,7,0.5,0.7
2023-05-15T18:00:00,1235A,121.56,29.82,宁波市,万里学院,臭氧1小时,83,69,71,36,39,218,186,205,205,16,34,4,5,0.5,0.6
2023-05-15T18:00:00,1236A,121.713,29.9572,宁波市,龙赛医院,臭氧1小时,92,57,78,27,42,316,193,232,232,13,44,5,8,0.4,0.5
2023-05-15T18:00:00,1239A,121.633,29.7733,宁波市,钱湖水厂,臭氧1小时,79,57,63,24,42,212,183,198,196,6,15,5,6,0.4,0.5
2023-05-15T18:00:00,1240A,121.5856,29.8635,宁波市,太古小学,臭氧1小时,72,60,64,32,43,203,177,193,193,16,38,7,8,0.6,0.7
2023-05-15T18:00:00,1241A,121.524,29.8674,宁波市,市环境监测中心,臭氧1小时,68,83,67,42,33,199,174,190,190,24,28,5,7,0.4,0.5
2023-05-15T18:00:00,1242A,120.634,28.0089,温州市,瓯海,,48,48,81,26,47,247,120,169,169,20,43,8,9,0.6,0.7
2023-05-15T18:00:00,1243A,120.6748,27.9939,温州市,南浦,,41,40,74,23,42,258,131,177,177,15,33,7,8,0.4,0.6
2023-05-15T18:00:00,1244A,120.76,27.9747,温州市,龙湾,,48,48,70,24,37,185,127,153,153,22,44,8,8,0.6,0.8
2023-05-15T18:00:00,1245A,120.6709,28.0167,温州市,市站,颗粒物(PM10),58,66,81,34,46,255,123,163,163,34,49,6,7,0.7,0.9
2023-05-15T18:00:00,1247A,120.6053,29.9928,绍兴市,城东开发委,臭氧1小时,74,57,66,28,38,185,179,172,172,20,26,8,8,0.6,0.7
2023-05-15T18:00:00,1250A,120.0751,30.8669,湖州市,城西水厂,,50,43,60,24,30,165,158,150,150,25,59,6,6,0.5,0.5
2023-05-15T18:00:00,1252A,120.7436,30.778,嘉兴市,清河小学,臭氧1小时,95,77,78,31,36,197,196,169,169,22,38,7,6,0.4,0.4
2023-05-15T18:00:00,1253A,120.726,30.7478,嘉兴市,嘉兴学院,臭氧1小时,95,72,70,35,38,203,196,176,176,21,37,7,6,0.4,0.4
2023-05-15T18:00:00,1255A,121.273,28.6459,台州市,黄岩环保大楼,"颗粒物(PM10),细颗粒物(PM2.5)",54,58,57,38,28,186,155,171,171,14,17,7,8,0.5,0.4
2023-05-15T18:00:00,1256A,121.419,28.6542,台州市,台州环保大楼,颗粒物(PM10),55,60,67,34,38,211,137,175,175,12,22,5,6,0.5,0.6
2023-05-15T18:00:00,1257A,121.377,28.5773,台州市,路桥田洋王,颗粒物(PM10),54,57,62,28,35,184,131,160,160,17,23,12,11,0.6,0.6
2023-05-15T18:00:00,1258A,122.122,30.0203,舟山市,定海檀枫,,,,61,24,38,198,138,166,166,22,38,6,7,0.5,0.7
2023-05-15T18:00:00,1259A,122.3094,29.9558,舟山市,普陀东港,,44,34,60,27,38,169,139,156,154,17,24,6,8,0.4,0.5
2023-05-15T18:00:00,1260A,122.19,29.9944,舟山市,临城新区,,46,41,61,25,39,208,146,177,177,30,31,13,8,0.5,0.6
2023-05-15T18:00:00,1262A,119.647,29.077,金华市,十五中,,47,40,71,17,39,205,148,184,184,12,29,6,10,0.3,0.6
2023-05-15T18:00:00,1263A,119.686,29.1029,金华市,监测站,,,47,67,,38,194,144,180,180,14,25,5,8,0.5,0.6
2023-05-15T18:00:00,1264A,118.8692,28.9398,衢州市,环保大楼,臭氧1小时,70,53,83,15,36,179,176,168,168,13,24,8,13,0.5,0.6
2023-05-15T18:00:00,1265A,118.8709,28.9666,衢州市,实验学校,臭氧1小时,65,58,54,24,32,172,172,156,156,13,36,12,10,0.3,0.4
2023-05-15T18:00:00,1266A,118.8621,28.9808,衢州市,衢州学院,臭氧1小时,65,54,74,22,39,172,172,162,162,13,44,7,10,0.3,0.4
2023-05-15T18:00:00,1267A,119.914,28.4514,丽水市,监测站大楼,臭氧1小时,87,71,62,30,32,189,189,155,155,14,29,7,6,0.4,0.4
2023-05-15T18:00:00,1268A,119.93,28.4586,丽水市,莲都小学,臭氧1小时,98,90,62,30,30,198,198,161,161,18,20,7,6,0.4,0.3
2023-05-15T18:00:00,1269A,119.879,28.4231,丽水市,余庄前,臭氧1小时,93,68,54,38,28,194,194,162,162,16,24,9,7,0.4,0.4
2023-05-15T18:00:00,1270A,117.1959,31.7848,合肥市,明珠广场,颗粒物(PM10),60,70,76,39,45,179,154,168,168,21,23,6,7,0.5,0.6
2023-05-15T18:00:00,1271A,117.3072,31.8764,合肥市,三里街,颗粒物(PM10),58,66,88,29,45,164,144,152,152,24,37,6,7,0.6,0.8
2023-05-15T18:00:00,1272A,117.2588,31.8707,合肥市,琥珀山庄,颗粒物(PM10),58,66,76,27,40,178,158,167,167,12,22,5,5,0.7,0.8
2023-05-15T18:00:00,1273A,117.1604,31.9052,合肥市,董铺水库,颗粒物(PM10),58,66,74,22,33,168,147,156,156,11,15,4,4,0.3,0.4
2023-05-15T18:00:00,1274A,117.25,31.8571,合肥市,长江中路,颗粒物(PM10),60,70,84,30,45,165,151,156,156,13,21,11,12,0.5,0.7
2023-05-15T18:00:00,1275A,117.266,31.9436,合肥市,庐阳区,颗粒物(PM10),53,56,66,27,42,162,144,152,152,17,28,6,7,0.3,0.4
2023-05-15T18:00:00,1276A,117.336,31.8586,合肥市,瑶海区,颗粒物(PM10),60,70,104,22,46,162,146,151,151,14,29,8,9,0.5,0.7
2023-05-15T18:00:00,1277A,117.3027,31.7964,合肥市,包河区,颗粒物(PM10),62,73,86,29,44,164,146,153,153,11,18,8,8,0.4,0.6
2023-05-15T18:00:00,1278A,117.2776,31.7385,合肥市,滨湖新区,颗粒物(PM10),53,56,73,29,39,154,145,150,150,12,15,8,10,0.7,0.8
2023-05-15T18:00:00,1279A,117.1318,31.8403,合肥市,高新区,颗粒物(PM10),56,61,73,34,41,177,158,162,162,17,20,9,9,0.4,0.4
2023-05-15T18:00:00,1280A,119.3903,26.0543,福州市,鼓山,,,,,,,,,,,,,,,,
2023-05-15T18:00:00,1282A,119.2681,26.0504,福州市,师大,细颗粒物(PM2.5),79,81,76,58,52,197,167,157,157,24,34,9,9,0.8,0.8
2023-05-15T18:00:00,1283A,119.2984,26.1028,福州市,五四北路,细颗粒物(PM2.5),78,83,76,57,58,189,170,155,155,23,39,7,5,0.8,0.8
2023-05-15T18:00:00,1284A,119.2648,26.0768,福州市,杨桥西路,细颗粒物(PM2.5),82,75,76,60,54,191,160,150,150,19,30,7,7,0.8,0.8
2023-05-15T18:00:00,1285A,119.317,26.0746,福州市,紫阳,细颗粒物(PM2.5),74,82,80,54,56,162,159,141,141,24,37,8,6,0.9,0.9
2023-05-15T18:00:00,1286A,118.1608,24.8169,厦门市,溪东,,,,,,,,,,,,,,,,
2023-05-15T18:00:00,1287A,118.1514,24.4767,厦门市,洪文,,41,36,68,24,49,178,130,145,145,13,16,3,3,0.4,0.5
2023-05-15T18:00:00,1288A,118.0661,24.4444,厦门市,鼓浪屿,,41,29,64,22,47,168,131,140,140,24,39,2,7,0.2,0.3
2023-05-15T18:00:00,1290A,115.8931,28.6843,南昌市,省外办,臭氧1小时,54,56,73,29,42,165,163,154,154,5,19,8,18,0.4,0.5
2023-05-15T18:00:00,1291A,115.8886,28.7003,南昌市,省林业公司,臭氧1小时,53,48,66,31,42,167,162,156,156,9,25,9,18,0.4,0.4
2023-05-15T18:00:00,1292A,115.8126,28.7442,南昌市,林科所,,50,41,61,22,37,174,159,157,157,11,38,12,16,0.5,0.7
2023-05-15T18:00:00,1294A,115.8518,28.687,南昌市,建工学校,颗粒物(PM10),58,66,83,21,41,169,163,155,155,8,25,9,16,0.4,0.5
2023-05-15T18:00:00,1295A,115.8921,28.6424,南昌市,象湖,,50,47,76,26,43,164,159,153,153,15,35,8,22,0.5,0.7
2023-05-15T18:00:00,1296A,115.7423,28.7996,南昌市,武术学校,,,69,48,21,25,176,165,162,162,7,2,7,10,,0.7
2023-05-15T18:00:00,1298A,115.9314,28.6842,南昌市,省站,颗粒物(PM10),54,57,88,24,44,162,159,151,151,9,24,11,23,0.5,0.7
2023-05-15T18:00:00,1299A,116.9862,36.6114,济南市,科干所,臭氧1小时,102,119,93,49,33,206,204,193,193,14,13,12,12,0.5,0.4
2023-05-15T18:00:00,1300A,116.9376,36.665,济南市,农科所,颗粒物(PM10),100,149,98,39,33,200,198,186,186,18,25,7,6,0.3,0.2
2023-05-15T18:00:00,1301A,117.1265,36.6734,济南市,开发区,"颗粒物(PM10),臭氧1小时",92,134,104,42,33,196,193,184,184,37,41,8,8,0.5,0.5
2023-05-15T18:00:00,1303A,117.0624,36.6868,济南市,省种子仓库,,,,101,,18,202,,185,185,,32,,6,,0.4
2023-05-15T18:00:00,1304A,116.9489,36.6447,济南市,机床二厂,"颗粒物(PM10),臭氧1小时",101,151,118,37,34,204,201,189,189,24,25,6,8,0.5,0.6
2023-05-15T18:00:00,1305A,117.0495,36.663,济南市,市监测站,臭氧1小时,107,125,98,44,42,214,213,203,203,21,25,12,12,0.7,0.6
2023-05-15T18:00:00,1306A,116.7675,36.5484,济南市,长清党校,臭氧1小时,105,127,99,49,35,218,210,199,199,15,19,12,12,0.5,0.4
2023-05-15T18:00:00,1307A,120.6659,36.2403,青岛市,仰口,颗粒物(PM10),69,88,84,44,47,165,141,144,140,21,14,6,6,0.3,0.3
2023-05-15T18:00:00,1310A,120.4134,36.0658,青岛市,市南区东部子站,臭氧1小时,102,80,88,48,51,203,203,168,164,24,19,8,9,0.7,0.7
2023-05-15T18:00:00,1311A,120.3664,36.1032,青岛市,四方区子站,臭氧1小时,104,90,91,44,54,222,207,192,192,41,33,14,11,1.0,1
2023-05-15T18:00:00,1312A,120.2994,36.054,青岛市,市南区西部子站,臭氧1小时,111,80,82,42,49,221,221,168,168,19,21,8,7,0.9,0.8
2023-05-15T18:00:00,1313A,120.4581,36.0858,青岛市,崂山区子站,臭氧1小时,99,92,95,56,58,199,199,170,161,22,22,9,9,0.6,0.6
2023-05-15T18:00:00,1314A,120.1983,35.9608,青岛市,黄岛区子站,臭氧1小时,103,83,100,49,59,208,206,177,177,15,17,7,9,0.6,0.7
2023-05-15T18:00:00,1315A,120.3999,36.3083,青岛市,城阳区子站,臭氧1小时,100,105,98,29,34,200,200,184,184,32,25,11,8,0.7,0.6
2023-05-15T18:00:00,1316A,113.69031,34.76122,郑州市,烟厂,,,125,104,45,41,224,176,191,191,,42,7,8,0.5,0.6
2023-05-15T18:00:00,1317A,113.65724,34.77134,郑州市,郑纺机,,,102,92,,34,203,170,186,186,17,43,6,7,0.6,0.6
2023-05-15T18:00:00,1318A,113.67526,34.80246,郑州市,银行学校,颗粒物(PM10),76,102,94,40,39,217,177,187,187,16,32,9,10,0.6,0.7
2023-05-15T18:00:00,1319A,113.56746,34.81334,郑州市,供水公司,颗粒物(PM10),85,119,107,32,34,194,158,167,167,14,29,10,10,0.4,0.5
2023-05-15T18:00:00,1320A,113.7329,34.7178,郑州市,经开区管委,臭氧1小时,72,92,90,46,40,200,177,182,182,12,27,4,7,0.5,0.5
2023-05-15T18:00:00,1321A,113.73961,34.77172,郑州市,四十七中,颗粒物(PM10),102,153,99,37,35,211,173,182,182,15,30,7,8,0.8,0.8
2023-05-15T18:00:00,1322A,113.60532,34.74838,郑州市,市监测站,颗粒物(PM10),81,112,114,40,40,201,171,179,179,15,45,7,7,0.6,0.7
2023-05-15T18:00:00,1323A,113.64164,34.7525,郑州市,河医大,颗粒物(PM10),85,119,99,42,35,191,162,175,175,13,31,6,8,0.7,0.7
2023-05-15T18:00:00,1324A,113.51488,34.91089,郑州市,岗李水库,颗粒物(PM10),81,111,88,29,23,232,172,182,182,15,24,9,9,0.4,0.4
2023-05-15T18:00:00,1325A,114.3677,30.5584,武汉市,东湖梨园,,45,44,56,20,36,166,141,152,152,20,24,7,7,0.3,0.5
2023-05-15T18:00:00,1326A,114.2529,30.558,武汉市,汉阳月湖,颗粒物(PM10),54,58,71,31,40,158,147,143,143,25,51,9,8,0.7,0.6
2023-05-15T18:00:00,1327A,114.282,30.6189,武汉市,汉口花桥,颗粒物(PM10),57,64,77,32,43,182,152,160,160,31,33,8,8,0.6,0.7
2023-05-15T18:00:00,1328A,114.3025,30.5332,武汉市,武昌紫阳,臭氧1小时,55,48,60,35,40,177,164,161,161,22,40,8,9,0.6,0.8
2023-05-15T18:00:00,1329A,114.3646,30.6217,武汉市,青山钢花,颗粒物(PM10),54,57,85,31,49,185,162,170,170,23,40,8,9,0.6,0.9
2023-05-15T18:00:00,1330A,114.1566,30.4825,武汉市,沌口新区,,50,48,76,33,43,184,158,163,163,24,28,8,14,0.5,0.6
2023-05-15T18:00:00,1331A,114.3014,30.5944,武汉市,汉口江滩,臭氧1小时,70,47,65,25,39,180,176,164,164,17,47,8,9,0.5,0.7
2023-05-15T18:00:00,1333A,114.135,30.6319,武汉市,吴家山,,,64,61,20,36,175,166,164,164,,30,8,9,0.5,0.6
2023-05-15T18:00:00,1334A,113.8454,30.2917,武汉市,沉湖七壕,颗粒物(PM10),53,56,60,30,38,161,146,144,144,9,19,8,8,0.5,0.5
2023-05-15T18:00:00,1335A,113.0833,28.2325,长沙市,经开区环保局,,50,50,67,29,46,154,129,134,134,16,19,7,10,0.6,0.7
2023-05-15T18:00:00,1336A,112.8872,28.2189,长沙市,高开区环保局,细颗粒物(PM2.5),62,55,74,44,57,163,152,143,143,9,11,14,20,0.9,1.1
2023-05-15T18:00:00,1337A,113.0792,28.2053,长沙市,马坡岭,颗粒物(PM10),55,60,65,31,47,152,129,134,134,18,20,2,4,0.4,0.5
2023-05-15T18:00:00,1338A,112.9394,28.19,长沙市,湖南师范大学,颗粒物(PM10),65,79,79,31,59,155,101,128,128,22,16,9,14,0.8,0.9
2023-05-15T18:00:00,1339A,113.0178,28.1322,长沙市,雨花区环保局,,49,45,64,34,48,157,136,136,136,16,21,9,14,0.3,0.5
2023-05-15T18:00:00,1340A,112.9792,28.2597,长沙市,伍家岭,颗粒物(PM10),57,64,81,32,51,173,133,143,143,31,35,8,9,0.8,0.8
2023-05-15T18:00:00,1341A,113.0014,28.1944,长沙市,火车新站,,48,48,74,29,51,149,127,131,131,20,27,12,15,0.7,0.9
2023-05-15T18:00:00,1342A,112.9844,28.1178,长沙市,天心区环保局,颗粒物(PM10),53,55,75,28,47,154,127,131,130,15,15,3,7,0.4,0.6
2023-05-15T18:00:00,1343A,112.8908,28.1308,长沙市,湖南中医药大学,"颗粒物(PM10),细颗粒物(PM2.5)",55,60,76,39,60,166,131,141,141,24,23,10,13,0.7,1
2023-05-15T18:00:00,1344A,112.9581,28.3611,长沙市,沙坪,颗粒物(PM10),57,64,68,33,51,156,140,134,134,17,23,9,10,0.6,0.7
2023-05-15T18:00:00,1345A,113.2347,23.1423,广州市,广雅中学,臭氧1小时,123,54,50,35,30,245,245,181,181,32,44,4,5,0.9,0.9
2023-05-15T18:00:00,1346A,113.2612,23.105,广州市,市五中,臭氧1小时,133,61,48,37,33,266,266,192,192,32,38,5,6,0.7,0.7
2023-05-15T18:00:00,1348A,113.3478,23.0916,广州市,广东商学院,臭氧1小时,122,57,58,34,32,244,244,172,172,30,42,4,5,0.7,0.8
2023-05-15T18:00:00,1349A,113.4332,23.1047,广州市,市八十六中,臭氧1小时,114,56,67,30,33,236,228,185,185,30,48,4,6,0.8,0.8
2023-05-15T18:00:00,1350A,113.3505,22.9483,广州市,番禺中学,臭氧1小时,127,59,42,37,28,254,254,197,197,31,37,8,9,0.4,0.5
2023-05-15T18:00:00,1351A,113.2146,23.3916,广州市,花都师范,臭氧1小时,109,51,64,32,36,235,217,202,202,17,40,11,8,0.7,0.9
2023-05-15T18:00:00,1352A,113.2597,23.1331,广州市,市监测站,臭氧1小时,131,36,41,23,29,262,262,192,192,35,44,6,7,1.1,1
2023-05-15T18:00:00,1353A,113.5618,23.312,广州市,九龙镇镇龙,臭氧1小时,122,86,50,48,28,243,243,153,153,35,30,7,5,0.7,0.7
2023-05-15T18:00:00,1354A,113.2765,23.1544,广州市,麓湖,臭氧1小时,132,49,47,32,30,263,263,196,196,26,40,4,5,0.8,0.8
2023-05-15T18:00:00,1355A,113.443,23.3035,广州市,帽峰山森林公园,臭氧1小时,130,57,36,40,22,263,260,183,183,24,15,2,2,0.6,0.6
2023-05-15T18:00:00,1356A,114.1063,22.5545,深圳市,通心岭子站,,44,37,36,27,26,166,140,129,129,25,19,4,3,0.8,0.8
2023-05-15T18:00:00,1357A,114.117,22.5625,深圳市,洪湖,臭氧1小时,64,45,39,34,30,197,171,153,153,30,28,9,8,0.7,0.7
2023-05-15T18:00:00,1358A,113.987,22.5417,深圳市,华侨城,,38,33,39,25,34,182,119,152,152,62,27,8,6,0.8,0.9
2023-05-15T18:00:00,1359A,113.9181,22.5171,深圳市,南海子站,,44,44,51,19,29,183,135,147,147,36,26,7,5,0.8,0.8
2023-05-15T18:00:00,1360A,114.2458,22.5689,深圳市,盐田,,33,30,34,20,24,137,105,125,125,37,16,6,4,0.8,0.8
2023-05-15T18:00:00,1361A,114.2283,22.7244,深圳市,龙岗,,47,47,35,27,22,187,134,159,159,33,22,4,3,0.7,0.7
2023-05-15T18:00:00,1363A,114.494,22.5422,深圳市,南澳,,39,13,27,8,19,135,124,124,124,9,9,3,3,0.6,0.7
2023-05-15T18:00:00,1364A,114.41,22.6342,深圳市,葵涌,,39,10,28,7,22,140,122,123,123,4,9,5,5,0.6,0.6
2023-05-15T18:00:00,1365A,114.297,22.5978,深圳市,梅沙,,41,26,32,19,25,143,131,133,133,11,10,4,4,0.7,0.7
2023-05-15T18:00:00,1366A,114.0678,22.738,深圳市,观澜,臭氧1小时,110,54,43,35,32,220,220,185,185,41,26,5,5,0.8,0.8
2023-05-15T18:00:00,1367A,113.5814,22.2618,珠海市,吉大,,50,26,27,17,25,189,160,158,158,13,16,6,6,0.5,0.6
2023-05-15T18:00:00,1368A,113.4881,22.2335,珠海市,前山,,48,20,26,16,22,177,151,151,151,29,25,4,4,0.4,0.5
2023-05-15T18:00:00,1369A,113.628,22.4251,珠海市,唐家,,,34,51,15,31,180,144,152,152,,21,4,5,,0.3
2023-05-15T18:00:00,1370A,113.299,22.2281,珠海市,斗门,,42,27,30,20,23,148,134,139,139,54,22,9,5,0.8,0.7
2023-05-15T18:00:00,1371A,113.1294,23.0067,佛山市,湾梁,臭氧1小时,121,68,58,27,27,286,241,215,215,22,27,5,5,0.7,0.8
2023-05-15T18:00:00,1372A,113.1083,23.0478,佛山市,华材职中,臭氧1小时,114,51,45,27,27,269,228,207,207,22,27,9,8,0.7,0.8
2023-05-15T18:00:00,1373A,113.144,23.0453,佛山市,南海气象局,臭氧1小时,94,67,46,30,29,220,195,175,175,28,32,5,6,0.9,0.9
2023-05-15T18:00:00,1374A,113.2881,22.8094,佛山市,顺德苏岗,臭氧1小时,74,38,34,27,34,195,179,168,168,18,26,4,4,0.7,0.8
2023-05-15T18:00:00,1376A,112.8383,22.8678,佛山市,高明孔堂,,39,25,40,19,22,177,124,147,147,10,15,4,4,0.9,0.9
2023-05-15T18:00:00,1377A,112.8836,23.1588,佛山市,三水监测站,臭氧1小时,55,51,62,29,38,231,164,190,190,44,59,6,6,0.8,0.8
2023-05-15T18:00:00,1378A,112.867,23.185,佛山市,三水云东海,臭氧1小时,62,46,54,27,32,228,169,188,188,20,32,5,6,0.5,0.7
2023-05-15T18:00:00,1379A,113.3769,22.5211,中山市,华柏园,臭氧1小时,69,63,41,20,26,205,175,171,171,22,24,6,5,0.6,0.7
2023-05-15T18:00:00,1380A,113.3881,22.5497,中山市,张溪,臭氧1小时,77,50,52,14,28,228,181,183,183,22,26,3,3,0.6,0.7
2023-05-15T18:00:00,1381A,113.4075,22.5111,中山市,紫马岭,臭氧1小时,60,43,35,18,27,195,168,164,164,14,18,5,4,0.5,0.6
2023-05-15T18:00:00,1382A,113.4411,22.4853,中山市,长江旅游区,臭氧1小时,55,40,33,18,20,186,164,146,146,16,15,7,7,0.5,0.6
2023-05-15T18:00:00,1383A,113.1064,22.6058,江门市,北街,颗粒物(PM10),53,55,47,17,26,201,160,171,171,17,24,5,6,0.6,0.8
2023-05-15T18:00:00,1384A,113.0731,22.5835,江门市,西区,颗粒物(PM10),51,52,39,20,32,206,151,173,173,15,32,6,7,0.6,0.8
2023-05-15T18:00:00,1385A,113.0219,22.5311,江门市,圭峰西,,47,47,42,17,27,170,144,154,154,13,19,5,5,0.3,0.6
2023-05-15T18:00:00,1386A,113.0828,22.5947,江门市,东湖,臭氧1小时,54,20,53,18,27,220,163,188,185,14,24,6,6,0.5,0.9
2023-05-15T18:00:00,1389A,113.7547,23.0494,东莞市,莞城梨川,臭氧1小时,141,62,35,40,25,281,281,200,200,30,24,10,10,0.8,0.8
2023-05-15T18:00:00,1390A,113.7944,23.0128,东莞市,东城石井,臭氧1小时,143,57,39,38,24,286,286,210,210,25,24,12,10,0.7,0.8
2023-05-15T18:00:00,1391A,113.7383,22.9658,东莞市,南城西平,臭氧1小时,131,57,38,42,24,276,262,201,201,25,32,11,7,0.6,0.6
2023-05-15T18:00:00,1392A,114.4183,23.0528,惠州市,河南岸金山湖子站,,45,44,36,21,20,147,143,127,127,13,14,4,4,0.6,0.6
2023-05-15T18:00:00,1393A,114.4053,23.0822,惠州市,下埔横江三路子站,,46,36,31,14,16,157,146,139,139,9,13,4,5,0.6,0.6
2023-05-15T18:00:00,1394A,114.4103,23.1142,惠州市,江北云山西路子站,,49,24,33,14,18,158,154,141,141,6,14,6,6,0.6,0.6
2023-05-15T18:00:00,1395A,114.4645,22.7833,惠州市,惠阳区承修路船湖子站,,49,49,33,20,21,149,126,137,137,20,18,7,5,0.7,0.8
2023-05-15T18:00:00,1396A,114.5317,22.7422,惠州市,大亚湾管委会子站,,37,26,35,17,19,138,118,124,124,15,21,8,9,0.5,0.6
2023-05-15T18:00:00,1397A,112.4267,23.0706,肇庆市,睦岗子站,,49,44,67,26,40,156,156,147,147,11,30,20,22,0.7,0.8
2023-05-15T18:00:00,1398A,112.4645,23.0475,肇庆市,城中子站,,43,34,72,22,54,156,136,140,140,15,35,10,17,0.4,0.6
2023-05-15T18:00:00,1399A,112.5544,23.1522,肇庆市,坑口子站,,45,39,47,24,33,164,142,145,145,16,24,10,5,0.3,0.4
2023-05-15T18:00:00,1400A,112.4753,23.1,肇庆市,七星岩子站,,48,38,53,19,37,160,151,147,147,13,23,16,10,0.6,0.7
2023-05-15T18:00:00,1401A,108.3103,22.7881,南宁市,二十一中,,38,35,33,26,21,139,119,139,121,10,9,6,6,0.8,0.8
2023-05-15T18:00:00,1402A,108.3141,22.8528,南宁市,北湖,,35,35,69,21,35,146,104,120,120,10,25,8,10,0.6,0.9
2023-05-15T18:00:00,1403A,108.3206,22.8225,南宁市,市监测站,,35,34,63,24,34,139,110,116,116,17,46,10,11,0.7,1
2023-05-15T18:00:00,1404A,108.3829,22.8037,南宁市,大自然花园,,40,40,31,26,23,114,100,114,101,6,8,6,6,0.8,0.8
2023-05-15T18:00:00,1405A,108.4394,22.7904,南宁市,仙葫,,40,28,51,28,32,104,104,95,95,10,32,6,6,0.4,0.6
2023-05-15T18:00:00,1406A,108.2397,22.8467,南宁市,区农职院,,33,29,51,19,26,148,104,119,119,13,22,8,11,0.7,0.8
2023-05-15T18:00:00,1407A,108.3275,22.735,南宁市,英华嘉园,,32,31,47,22,28,109,97,97,97,19,29,7,7,0.8,0.9
2023-05-15T18:00:00,1408A,108.2257,22.7757,南宁市,沙井镇街道办,,33,33,59,22,24,124,97,107,107,11,27,6,7,0.6,0.7
2023-05-15T18:00:00,1409A,110.576,19.9507,海口市,东寨港,,,,,,,,,,,,,,,,
2023-05-15T18:00:00,1410A,110.3232,20.0574,海口市,海南大学,,35,12,16,6,9,130,110,113,113,9,7,6,6,0.6,0.5
2023-05-15T18:00:00,1411A,110.283,20.0053,海口市,秀英海南医院,,36,16,18,8,11,122,113,110,110,8,12,5,4,0.4,0.5
2023-05-15T18:00:00,1412A,110.338,19.9969,海口市,海南师范大学,,32,14,16,7,7,110,102,101,101,8,10,5,4,0.4,0.4
2023-05-15T18:00:00,1413A,110.33,20.0356,海口市,龙华路环保局宿舍,,34,14,15,6,11,123,108,106,106,6,8,5,5,0.4,0.4
2023-05-15T18:00:00,1414A,106.3787,29.8279,重庆市,缙云山,颗粒物(PM10),54,57,50,31,21,182,121,148,123,29,17,12,13,0.3,0.3
2023-05-15T18:00:00,1416A,106.4213,29.8253,重庆市,天生,颗粒物(PM10),91,131,77,47,44,142,68,103,98,70,54,8,10,1.0,1
2023-05-15T18:00:00,1417A,106.6263,29.7228,重庆市,两路,颗粒物(PM10),60,70,60,35,32,122,62,95,89,100,59,10,10,1.3,1
2023-05-15T18:00:00,1418A,106.2953,29.5983,重庆市,虎溪,"颗粒物(PM10),细颗粒物(PM2.5)",62,74,70,44,41,175,85,88,88,68,71,10,7,0.9,0.8
2023-05-15T18:00:00,1419A,106.5777,29.5102,重庆市,南坪,颗粒物(PM10),85,120,78,48,45,191,75,114,90,73,42,13,14,1.1,0.8
2023-05-15T18:00:00,1420A,106.6556,29.6277,重庆市,唐家沱,颗粒物(PM10),78,105,82,54,41,136,73,90,90,78,62,12,10,1.0,0.9
2023-05-15T18:00:00,1421A,106.6349,29.4906,重庆市,茶园,颗粒物(PM10),91,131,128,56,49,157,44,79,79,115,95,9,9,1.1,0.9
2023-05-15T18:00:00,1422A,106.3754,29.4572,重庆市,白市驿,颗粒物(PM10),68,86,101,35,42,161,97,97,85,31,55,12,11,0.8,0.9
2023-05-15T18:00:00,1425A,106.6205,29.7166,重庆市,空港,颗粒物(PM10),74,97,69,44,40,145,83,107,102,78,47,11,11,1.0,0.9
2023-05-15T18:00:00,1426A,106.4782,29.4875,重庆市,新山村,颗粒物(PM10),84,117,101,46,48,142,65,54,54,96,113,18,12,1.0,1.2
2023-05-15T18:00:00,1427A,106.5616,29.6453,重庆市,礼嘉,颗粒物(PM10),72,94,86,41,35,126,60,77,77,94,99,11,10,1.1,1.2
2023-05-15T18:00:00,1428A,106.4522,29.7091,重庆市,蔡家,颗粒物(PM10),83,115,86,41,37,138,53,76,76,76,51,8,8,0.9,0.8
2023-05-15T18:00:00,1429A,106.5093,29.3917,重庆市,鱼新街,"颗粒物(PM10),细颗粒物(PM2.5)",67,83,76,48,39,188,66,67,67,103,102,12,13,1.6,1.5
2023-05-15T18:00:00,1431A,103.9728,30.7236,成都市,金泉两河,细颗粒物(PM2.5),94,120,90,70,58,200,182,164,164,31,42,5,4,0.5,0.6
2023-05-15T18:00:00,1432A,104.176,30.6872,成都市,十里店,颗粒物(PM10),72,94,90,47,45,179,171,137,137,19,57,3,3,0.5,0.7
2023-05-15T18:00:00,1433A,104.079,30.5706,成都市,三瓦窑,臭氧1小时,80,81,84,54,46,184,184,135,135,26,69,1,4,0.5,0.7
2023-05-15T18:00:00,1434A,104.1114,30.63,成都市,沙河铺,,,,,,,,,,,,,,,,
2023-05-15T18:00:00,1437A,104.0786,30.6531,成都市,君平街,细颗粒物(PM2.5),89,90,90,66,59,195,185,158,158,28,57,9,7,0.7,0.9
2023-05-15T18:00:00,1438A,103.613,31.0283,成都市,灵岩寺,细颗粒物(PM2.5),58,57,41,41,27,179,161,145,145,10,12,8,16,0.7,0.6
2023-05-15T18:00:00,1439A,106.6899,26.5998,贵阳市,马鞍山,,35,29,46,24,37,127,94,86,86,14,19,4,4,0.4,0.6
2023-05-15T18:00:00,1440A,106.6971,26.5694,贵阳市,市环保站,,39,39,57,20,46,113,97,96,96,23,30,5,6,0.2,0.4
2023-05-15T18:00:00,1441A,106.6243,26.6266,贵阳市,鉴湖路,,35,34,57,24,37,129,95,93,93,17,15,5,5,0.7,0.9
2023-05-15T18:00:00,1442A,106.7487,26.6343,贵阳市,燕子冲,"颗粒物(PM10),细颗粒物(PM2.5)",52,53,54,36,43,141,108,104,104,19,21,6,7,0.7,0.7
2023-05-15T18:00:00,1443A,106.6555,26.4365,贵阳市,碧云窝,,39,39,57,14,33,112,100,96,96,9,17,5,5,0.5,0.6
2023-05-15T18:00:00,1444A,106.694,26.5161,贵阳市,中院村,,39,39,64,22,40,102,85,88,88,23,24,8,10,0.5,0.6
2023-05-15T18:00:00,1445A,106.7109,26.6027,贵阳市,红边门,颗粒物(PM10),52,53,60,34,43,130,97,94,94,26,29,4,6,0.6,0.7
2023-05-15T18:00:00,1446A,106.7164,26.5699,贵阳市,新华路,,36,36,60,24,39,122,92,98,98,21,25,4,5,0.4,0.5
2023-05-15T18:00:00,1447A,106.674,26.5424,贵阳市,太慈桥,,41,41,56,17,32,118,91,95,95,17,23,7,5,0.4,0.5
2023-05-15T18:00:00,1450A,102.8204,24.8886,昆明市,呈贡新区,,28,10,24,7,18,140,88,77,77,7,23,6,6,0.6,0.7
2023-05-15T18:00:00,1451A,102.6251,24.9608,昆明市,西山森林公园,,19,10,18,9,13,115,58,85,64,13,14,6,8,0.9,1
2023-05-15T18:00:00,1452A,102.7252,25.0902,昆明市,龙泉镇,,17,15,34,11,17,136,54,53,53,23,42,6,6,0.7,0.6
2023-05-15T18:00:00,1453A,102.7266,25.0375,昆明市,东风东路,,18,12,34,8,21,125,56,76,54,22,32,6,10,0.8,0.8
2023-05-15T18:00:00,1454A,102.6742,25.0669,昆明市,金鼎山,,20,12,45,9,26,139,62,68,55,21,33,4,26,0.7,0.7
2023-05-15T18:00:00,1455A,102.6644,25.0401,昆明市,碧鸡广场,,,,36,4,22,135,62,69,59,,34,,7,0.8,0.7
2023-05-15T18:00:00,1456A,91.1319,29.6514,拉萨市,八廓街,,46,30,23,10,12,173,147,147,147,11,14,6,8,0.3,0.3
2023-05-15T18:00:00,1457A,91.1221,29.6747,拉萨市,市环保局,,48,27,17,11,9,179,153,152,152,10,21,5,6,0.3,0.2
2023-05-15T18:00:00,1458A,91.0874,29.6475,拉萨市,区监测站,,45,32,19,8,12,172,144,144,144,12,21,7,9,0.2,0.3
2023-05-15T18:00:00,1459A,91.1774,29.6541,拉萨市,西藏大学,,50,15,17,10,10,180,157,152,152,5,10,8,10,0.2,0.2
2023-05-15T18:00:00,1460A,90.9798,29.6588,拉萨市,区辐射站,,43,43,25,15,12,162,130,133,133,18,19,8,9,0.4,0.4
2023-05-15T18:00:00,1461A,91.0834,29.6292,拉萨市,拉萨火车站,,45,36,23,5,10,170,144,136,136,9,18,8,8,0.2,0.4
2023-05-15T18:00:00,1462A,108.882,34.2749,西安市,高压开关厂,臭氧1小时,108,70,71,30,35,236,215,194,194,28,62,9,9,0.4,0.6
2023-05-15T18:00:00,1463A,108.993,34.2629,西安市,兴庆小区,臭氧1小时,103,68,50,22,20,214,206,180,180,15,24,8,8,0.5,0.5
2023-05-15T18:00:00,1464A,109.06,34.2572,西安市,纺织城,臭氧1小时,101,69,57,30,25,212,202,176,176,18,32,6,6,0.6,0.5
2023-05-15T18:00:00,1465A,108.9356,34.2173,西安市,小寨,臭氧1小时,115,64,54,32,30,237,230,196,196,21,40,10,9,0.2,0.2
2023-05-15T18:00:00,1466A,108.954,34.2713,西安市,市人民体育场,臭氧1小时,102,68,59,31,29,209,204,182,182,25,38,8,7,0.5,0.6
2023-05-15T18:00:00,1467A,108.8922,34.2322,西安市,高新西区,臭氧1小时,123,66,59,25,26,254,246,204,204,21,44,9,8,0.6,0.8
2023-05-15T18:00:00,1468A,108.935,34.3474,西安市,经开区,臭氧1小时,88,66,68,25,35,195,190,166,166,20,54,6,5,0.3,0.6
2023-05-15T18:00:00,1469A,108.906,34.1546,西安市,长安区,臭氧1小时,127,63,53,45,24,257,254,207,207,27,37,8,7,0.4,0.4
2023-05-15T18:00:00,1471A,109.2186,34.3731,西安市,临潼区,颗粒物(PM10),60,70,60,27,26,197,166,162,162,21,32,10,10,0.4,0.4
2023-05-15T18:00:00,1472A,108.869,34.378,西安市,草滩,臭氧1小时,69,53,72,30,28,180,175,156,156,11,45,12,18,0.1,0.2
2023-05-15T18:00:00,1473A,108.985,34.1978,西安市,曲江文化产业集团,臭氧1小时,119,76,53,30,23,247,237,201,201,23,40,6,6,0.4,0.4
2023-05-15T18:00:00,1474A,109.051,34.3213,西安市,广运潭,臭氧1小时,78,61,54,33,26,182,182,154,154,12,31,9,8,0.5,0.4
2023-05-15T18:00:00,1476A,103.631,36.1031,兰州市,兰炼宾馆,臭氧1小时,58,49,88,22,41,178,166,156,156,17,58,10,19,0.1,0.8
2023-05-15T18:00:00,1477A,104.1373,35.9454,兰州市,榆中兰大校区,,,,,,,,,,,,,,,,
2023-05-15T18:00:00,1478A,103.8412,36.0726,兰州市,生物制品所,,48,15,78,10,32,152,152,129,129,12,51,9,14,0.4,0.9
2023-05-15T18:00:00,1479A,103.831,36.0464,兰州市,铁路设计院,,47,23,82,10,35,158,149,131,131,32,66,5,16,0.1,0.7
2023-05-15T18:00:00,1483A,101.524,36.6867,西宁市,第五水厂,,,,,,,,,,,,,,,,
2023-05-15T18:00:00,1484A,105.9512,38.6016,银川市,贺兰山马莲口,臭氧1小时,78,38,34,16,15,182,182,168,168,11,9,12,12,0.4,0.4
2023-05-15T18:00:00,1488A,106.2328,38.4975,银川市,贺兰山东路,臭氧1小时,62,36,68,10,26,176,169,151,151,10,46,6,10,0.2,0.4
2023-05-15T18:00:00,1489A,106.1358,38.5036,银川市,学院路,臭氧1小时,53,37,70,19,24,174,162,154,154,12,49,12,13,0.4,0.6
2023-05-15T18:00:00,1490A,87.5801,43.8303,乌鲁木齐市,监测站,,28,26,44,10,15,120,88,84,84,17,21,6,8,0.3,0.3
2023-05-15T18:00:00,1491A,87.6046,43.768,乌鲁木齐市,收费所,,29,26,49,9,17,106,90,86,86,16,21,8,6,0.2,0.3
2023-05-15T18:00:00,1492A,87.4754,43.9469,乌鲁木齐市,新疆农科院农场,,39,39,59,4,14,111,85,78,78,22,26,7,7,0.6,0.7
2023-05-15T18:00:00,1493A,87.5525,43.8711,乌鲁木齐市,铁路局,,29,17,40,7,18,124,91,82,82,14,19,6,9,0.5,0.5
2023-05-15T18:00:00,1494A,87.6432,43.831,乌鲁木齐市,三十一中学,颗粒物(PM10),59,68,46,3,11,122,97,98,98,12,17,10,13,0.3,0.4
2023-05-15T18:00:00,1496A,87.7216,44.1747,乌鲁木齐市,米东区环保局,,32,15,55,14,28,128,101,101,97,6,7,2,5,0.2,0.3
2023-05-15T18:00:00,1508A,112.9433,27.8614,湘潭市,板塘,颗粒物(PM10),57,64,79,34,57,128,115,118,118,21,24,10,14,0.3,0.5
2023-05-15T18:00:00,1511A,112.9118,27.8403,湘潭市,市监测站,颗粒物(PM10),53,56,79,32,60,137,121,125,125,35,25,12,17,0.9,0.9
2023-05-15T18:00:00,1512A,112.8937,27.8728,湘潭市,江麓,颗粒物(PM10),57,63,88,36,68,136,134,124,124,11,21,10,29,0.4,0.9
2023-05-15T18:00:00,1513A,112.9227,27.8159,湘潭市,岳塘,颗粒物(PM10),55,60,81,35,71,140,129,128,128,11,12,7,12,0.1,0.2
2023-05-15T18:00:00,1514A,112.9074,27.9119,湘潭市,科大,颗粒物(PM10),58,65,87,40,58,143,132,129,129,13,20,5,16,0.6,0.9
2023-05-15T18:00:00,1515A,113.135,27.8244,株洲市,天台山庄,,,,59,23,41,145,134,132,132,,11,,13,0.5,0.7
2023-05-15T18:00:00,1518A,113.095,27.8867,株洲市,株冶医院,颗粒物(PM10),51,51,67,25,48,140,125,128,128,21,19,4,6,0.5,0.7
2023-05-15T18:00:00,1519A,113.167,27.8667,株洲市,市四中,,41,41,53,23,44,138,129,126,126,11,15,7,11,0.6,0.7
2023-05-15T18:00:00,1520A,113.143,27.8381,株洲市,火车站,颗粒物(PM10),51,51,60,27,42,139,132,128,128,19,17,6,9,0.5,0.6
2023-05-15T18:00:00,1524A,113.13,27.8528,株洲市,市监测站,,44,44,58,30,47,148,136,133,133,15,15,6,10,0.5,0.7
2023-05-15T18:00:00,1552A,106.805,26.3003,贵阳市,桐木岭,,39,34,52,27,40,111,95,102,102,1,2,2,2,0.3,0.3
2023-05-15T18:00:00,1559A,113.251,27.8336,株洲市,大京风景区,,48,48,49,18,19,111,88,104,104,3,4,2,4,0.6,0.6
2023-05-15T18:00:00,1562A,113.0048,27.9153,湘潭市,昭山,颗粒物(PM10),53,56,72,30,48,137,128,125,125,14,17,6,10,0.4,0.6
2023-05-15T18:00:00,1564A,112.4876,27.9164,湘潭市,韶山,颗粒物(PM10),52,53,63,23,31,127,110,118,118,10,13,7,7,0.3,0.3
2023-05-15T18:00:00,1585A,109.8756,40.6532,包头市,市环境监测站,颗粒物(PM10),57,63,68,18,29,146,137,132,132,15,52,14,17,0.6,0.9
2023-05-15T18:00:00,1587A,109.9991,40.5842,包头市,包头八中,颗粒物(PM10),57,64,85,22,30,151,144,136,136,17,52,13,15,0.5,0.6
2023-05-15T18:00:00,1588A,109.8538,40.6821,包头市,青山宾馆,颗粒物(PM10),55,60,79,17,39,148,140,131,131,8,57,8,17,0.4,1.1
2023-05-15T18:00:00,1589A,109.8642,40.6288,包头市,惠龙物流,颗粒物(PM10),53,56,73,20,25,145,138,130,130,14,52,11,18,0.5,0.7
2023-05-15T18:00:00,1590A,110.0377,40.5546,包头市,东河鸿龙湾,颗粒物(PM10),51,51,71,17,33,152,145,136,136,7,34,6,7,0.3,0.4
2023-05-15T18:00:00,1591A,110.0023,39.8129,鄂尔多斯市,综合楼,颗粒物(PM10),84,117,78,41,28,133,125,124,124,20,41,5,10,0.6,0.6
2023-05-15T18:00:00,1592A,109.9486,39.8261,鄂尔多斯市,巴音孟克林场办事处,颗粒物(PM10),69,88,71,29,25,140,134,134,134,12,26,8,10,0.6,0.8
2023-05-15T18:00:00,1593A,109.7736,39.5986,鄂尔多斯市,康泽苑,颗粒物(PM10),71,92,72,22,24,135,132,131,131,13,19,9,9,0.6,0.6
2023-05-15T18:00:00,1594A,109.8119,39.5989,鄂尔多斯市,华泰汽车城,颗粒物(PM10),59,68,68,27,26,133,124,126,126,16,38,6,7,0.5,0.6
2023-05-15T18:00:00,1595A,109.9734,39.7884,鄂尔多斯市,奥林花园,颗粒物(PM10),82,114,77,27,22,137,133,130,130,13,41,5,6,0.5,0.6
2023-05-15T18:00:00,1597A,122.2703,40.7094,营口市,大庆路,颗粒物(PM10),55,59,56,38,26,200,140,161,161,16,17,6,6,0.7,0.7
2023-05-15T18:00:00,1598A,122.2150,40.6511,营口市,镜湖西路,,,42,45,30,29,201,137,181,175,21,18,13,11,,0.9
2023-05-15T18:00:00,1599A,122.1658,40.6789,营口市,西炮台,颗粒物(PM10),54,57,68,26,20,171,128,152,150,24,19,10,9,0.6,0.6
2023-05-15T18:00:00,1600A,124.3303,40.0625,丹东市,江湾东路,,44,44,41,22,20,167,132,151,151,23,11,14,9,0.7,0.7
2023-05-15T18:00:00,1601A,124.4256,40.1503,丹东市,临江后街,,46,40,31,18,16,172,146,161,159,5,4,5,6,0.6,0.6
2023-05-15T18:00:00,1602A,124.3933,40.1461,丹东市,元宝山,,42,29,25,20,21,160,134,141,141,15,14,8,8,0.5,0.5
2023-05-15T18:00:00,1603A,124.3633,40.1092,丹东市,民主桥,,42,40,31,19,16,166,134,150,150,15,8,6,7,0.5,0.5
2023-05-15T18:00:00,1604A,122.0303,41.1489,盘锦市,开发区,细颗粒物(PM2.5),57,62,47,40,38,175,162,165,165,24,19,8,6,1.0,0.9
2023-05-15T18:00:00,1605A,122.0485,41.0883,盘锦市,兴隆台,颗粒物(PM10),60,70,52,33,33,170,165,164,164,24,18,8,6,0.9,0.8
2023-05-15T18:00:00,1606A,121.8297,41.1028,盘锦市,新生街道,颗粒物(PM10),51,52,39,24,31,157,152,155,155,17,18,6,7,0.7,0.6
2023-05-15T18:00:00,1607A,120.9092,40.7136,葫芦岛市,龙港区,臭氧1小时,105,72,47,47,38,210,210,175,175,10,11,9,8,0.8,0.7
2023-05-15T18:00:00,1608A,120.8392,40.7514,葫芦岛市,化工街,臭氧1小时,104,88,71,56,45,207,207,177,177,8,10,8,6,0.9,0.9
2023-05-15T18:00:00,1609A,120.8341,40.7073,葫芦岛市,新区,臭氧1小时,102,92,56,72,52,204,204,174,174,15,14,10,10,0.8,0.7
2023-05-15T18:00:00,1610A,120.8695,40.7677,葫芦岛市,东城区,臭氧1小时,105,78,62,64,48,210,210,179,179,19,20,9,11,0.8,0.8
2023-05-15T18:00:00,1611A,118.5819,24.9117,泉州市,涂山街,,47,41,81,15,64,261,148,206,206,24,32,9,11,0.7,0.9
2023-05-15T18:00:00,1612A,118.5972,24.8978,泉州市,津头埔,,44,38,78,27,67,247,139,199,199,28,37,9,11,0.6,0.8
2023-05-15T18:00:00,1613A,118.6663,24.9424,泉州市,万安,,48,45,76,33,70,257,142,194,194,18,29,10,10,0.7,0.8
2023-05-15T18:00:00,1614A,118.6117,24.9604,泉州市,清源山,,,,,,,,,,,,,,,,
2023-05-15T18:00:00,1616A,117.6795,36.229,济南市,技术学院,臭氧1小时,108,136,99,37,36,215,215,202,202,17,25,11,11,0.6,0.7
2023-05-15T18:00:00,1618A,118.3429,35.0532,临沂市,沂河小区,颗粒物(PM10),68,85,84,31,29,194,155,175,175,16,20,12,13,0.4,0.4
2023-05-15T18:00:00,1619A,118.295,35.0583,临沂市,鲁南制药厂,,,83,88,37,32,205,,191,191,17,23,14,16,0.4,0.3
2023-05-15T18:00:00,1620A,118.2794,34.9976,临沂市,新光毛纺厂,颗粒物(PM10),64,78,82,26,29,191,159,175,175,7,20,9,13,0.5,0.5
2023-05-15T18:00:00,1621A,118.3956,35.0888,临沂市,河东保险公司,颗粒物(PM10),64,78,76,32,30,209,159,185,185,23,18,14,14,0.3,0.3
2023-05-15T18:00:00,1622A,116.3032,37.4674,德州市,儿童乐园,颗粒物(PM10),103,156,112,51,43,206,201,191,191,11,21,11,9,0.7,0.7
2023-05-15T18:00:00,1624A,116.2991,37.4451,德州市,监理站,颗粒物(PM10),106,161,114,46,42,211,206,197,197,17,29,18,16,0.6,0.5
2023-05-15T18:00:00,1625A,115.9848,36.4372,聊城市,区政府,颗粒物(PM10),91,132,104,36,34,199,158,176,174,9,30,7,10,0.4,0.7
2023-05-15T18:00:00,1628A,118.0062,37.3803,滨州市,市环保局,臭氧1小时,98,134,133,40,59,264,198,216,216,12,38,11,14,0.5,0.9
2023-05-15T18:00:00,1629A,118.0018,37.3617,滨州市,第二水厂,颗粒物(PM10),89,127,134,42,53,261,186,212,212,19,46,10,13,0.6,1
2023-05-15T18:00:00,1630A,117.9776,37.393,滨州市,北中新校,颗粒物(PM10),92,133,121,27,53,215,190,186,186,28,45,10,14,0.1,0.9
2023-05-15T18:00:00,1631A,118.0414,36.8103,淄博市,人民公园,臭氧1小时,102,110,100,40,49,220,204,200,200,8,25,10,16,0.4,0.7
2023-05-15T18:00:00,1633A,117.8525,36.4847,淄博市,双山,臭氧1小时,93,108,88,36,35,209,194,195,195,12,17,12,13,0.4,0.5
2023-05-15T18:00:00,1634A,117.9592,36.6331,淄博市,气象站,,,121,99,31,35,212,,196,196,9,24,5,9,0.3,0.6
2023-05-15T18:00:00,1635A,118.3092,36.8194,淄博市,莆田园,臭氧1小时,90,95,108,39,47,213,192,192,192,18,30,12,19,0.5,0.9
2023-05-15T18:00:00,1637A,117.558,34.8438,枣庄市,市中区政府,臭氧1小时,85,88,80,36,33,240,188,201,201,18,17,10,9,0.5,0.5
2023-05-15T18:00:00,1638A,117.2852,34.7837,枣庄市,薛城环保局,臭氧1小时,80,83,78,39,36,209,184,183,183,14,15,10,10,0.5,0.5
2023-05-15T18:00:00,1639A,117.5852,34.7745,枣庄市,峄城区政府,颗粒物(PM10),68,85,83,31,30,217,158,183,183,12,15,13,13,0.4,0.4
2023-05-15T18:00:00,1640A,117.7276,34.5578,枣庄市,台儿庄区环保局,颗粒物(PM10),56,61,76,29,32,186,160,174,174,16,26,10,12,0.7,0.7
2023-05-15T18:00:00,1641A,117.4518,35.0992,枣庄市,山亭区环保局,臭氧1小时,107,95,76,44,39,222,214,191,191,19,17,10,11,0.4,0.3
2023-05-15T18:00:00,1642A,121.2514,37.5639,烟台市,开发区,臭氧1小时,92,97,64,34,40,193,193,182,182,21,21,5,7,0.7,0.7
2023-05-15T18:00:00,1643A,121.3719,37.5433,烟台市,轴承厂,臭氧1小时,84,85,72,35,49,195,187,184,184,8,10,5,3,0.5,0.6
2023-05-15T18:00:00,1644A,121.3181,37.5436,烟台市,西郊化工站,臭氧1小时,82,88,79,26,35,194,185,185,183,14,11,5,5,0.5,0.5
2023-05-15T18:00:00,1645A,121.4478,37.4822,烟台市,莱山环保局,细颗粒物(PM2.5),148,100,74,113,47,195,185,183,183,16,15,6,5,0.6,0.6
2023-05-15T18:00:00,1646A,121.2611,37.4967,烟台市,福山环保局,臭氧1小时,78,100,77,46,39,186,182,177,177,25,19,8,13,0.3,0.2
2023-05-15T18:00:00,1650A,119.1437,36.7023,潍坊市,环保局,臭氧1小时,89,88,104,38,56,198,191,192,192,23,22,9,10,0.4,0.8
2023-05-15T18:00:00,1653A,116.6251,35.4302,济宁市,火炬城,颗粒物(PM10),64,78,88,34,32,178,162,163,163,4,9,16,15,0.8,0.8
2023-05-15T18:00:00,1655A,116.5491,35.4042,济宁市,电化厂,颗粒物(PM10),69,88,106,36,36,158,150,153,153,9,12,10,11,0.7,0.6
2023-05-15T18:00:00,1656A,117.1437,36.1937,泰安市,监测站,臭氧1小时,101,114,98,44,50,226,201,203,203,11,17,10,9,0.5,0.5
2023-05-15T18:00:00,1657A,117.0885,36.2017,泰安市,人口学校,臭氧1小时,89,107,103,39,37,201,191,190,190,15,19,10,9,0.5,0.4
2023-05-15T18:00:00,1658A,117.1089,36.1758,泰安市,电力学校,臭氧1小时,84,114,103,42,37,208,187,190,190,8,24,13,12,0.3,0.4
2023-05-15T18:00:00,1659A,119.471,35.4209,日照市,监测站,臭氧1小时,87,97,88,39,52,226,189,205,205,24,33,9,6,0.5,0.5
2023-05-15T18:00:00,1660A,119.523,35.4216,日照市,市政府广场,臭氧1小时,90,112,95,43,48,221,192,198,198,24,33,14,11,1.0,0.7
2023-05-15T18:00:00,1661A,119.5587,35.4044,日照市,港务局,颗粒物(PM10),84,117,120,40,48,198,178,172,172,41,43,24,13,1.0,0.7
2023-05-15T18:00:00,1662A,122.1214,37.4236,威海市,华夏技校,"颗粒物(PM10),细颗粒物(PM2.5),臭氧1小时",68,85,65,49,45,187,174,180,180,26,20,8,6,0.6,0.5
2023-05-15T18:00:00,1663A,122.0508,37.5236,威海市,山大分校,臭氧1小时,97,93,75,32,35,206,197,197,197,13,14,9,8,0.5,0.5
2023-05-15T18:00:00,1664A,122.1067,37.5072,威海市,市监测站,臭氧1小时,73,76,70,29,38,197,178,186,186,14,15,8,8,0.6,0.6
2023-05-15T18:00:00,1666A,118.6614,37.4309,东营市,市环保局,臭氧1小时,102,114,107,39,52,245,203,217,217,26,28,11,23,0.5,1
2023-05-15T18:00:00,1669A,113.5824,24.7733,韶关市,市八中,颗粒物(PM10),53,55,49,29,30,154,144,138,138,18,20,12,12,0.7,0.7
2023-05-15T18:00:00,1671A,113.5917,24.7972,韶关市,园林处,,46,46,53,21,31,152,143,139,139,10,20,13,14,0.5,0.8
2023-05-15T18:00:00,1672A,113.6735,24.7791,韶关市,韶关学院,颗粒物(PM10),54,58,56,27,34,176,159,151,151,16,23,11,16,0.5,0.7
2023-05-15T18:00:00,1673A,113.5971,24.6863,韶关市,曲江监测站,,46,46,60,31,33,153,142,136,136,15,24,9,10,0.7,0.8
2023-05-15T18:00:00,1674A,116.6794,23.3667,汕头市,金平子站,,46,40,45,18,32,156,145,140,140,17,20,7,11,0.8,1
2023-05-15T18:00:00,1675A,116.7244,23.3633,汕头市,龙湖子站,,50,36,46,21,33,158,158,142,142,11,18,5,7,0.7,0.9
2023-05-15T18:00:00,1676A,116.7258,23.2775,汕头市,濠江子站,,46,42,44,20,34,146,146,132,132,14,17,10,11,0.8,0.9
2023-05-15T18:00:00,1677A,116.7519,23.4714,汕头市,澄海子站,,47,38,46,23,36,157,149,144,144,14,22,7,12,0.7,0.8
2023-05-15T18:00:00,1678A,116.6092,23.2539,汕头市,潮阳子站,,45,42,42,18,26,158,144,141,141,9,13,10,11,0.7,0.8
2023-05-15T18:00:00,1680A,110.3539,21.2706,湛江市,湛江影剧院,,40,40,39,22,28,118,117,111,111,16,21,10,11,0.8,0.7
2023-05-15T18:00:00,1681A,110.3928,21.2228,湛江市,市环境监测站,,42,42,29,20,26,120,113,109,109,13,16,10,7,0.7,0.6
2023-05-15T18:00:00,1682A,110.4019,21.1997,湛江市,环保局宿舍,,38,29,35,18,22,125,119,114,114,10,19,6,6,0.6,0.6
2023-05-15T18:00:00,1683A,110.4111,21.2028,湛江市,霞山游泳场,,36,19,24,16,21,126,114,112,112,15,15,6,6,0.6,0.7
2023-05-15T18:00:00,1684A,110.3316,21.2679,湛江市,麻章区环保局,颗粒物(PM10),51,52,40,23,30,129,113,112,112,24,22,6,9,0.8,0.7
2023-05-15T18:00:00,1685A,110.4558,21.2567,湛江市,坡头区环保局,,43,43,25,22,18,128,119,116,116,12,10,10,7,0.7,0.6
2023-05-15T18:00:00,1686A,111.0286,21.4688,茂名市,电白南海,,41,31,36,22,23,130,130,120,120,9,19,6,7,0.6,0.7
2023-05-15T18:00:00,1687A,110.9294,21.6533,茂名市,茂石化七小,,,31,36,22,28,154,113,121,121,11,19,7,10,,0.8
2023-05-15T18:00:00,1688A,110.9107,21.6687,茂名市,健康路,,35,27,28,18,18,155,111,121,121,8,14,5,7,0.9,0.9
2023-05-15T18:00:00,1689A,110.8592,21.6828,茂名市,高岭,,49,39,42,34,31,147,104,116,116,12,18,6,10,0.5,0.6
2023-05-15T18:00:00,1690A,116.1231,24.3284,梅州市,梅江月梅,,46,33,35,20,23,146,146,131,131,9,15,6,7,0.5,0.5
2023-05-15T18:00:00,1691A,116.0797,24.2719,梅州市,梅县新城,,40,29,36,21,21,134,128,127,127,9,23,6,6,0.5,0.5
2023-05-15T18:00:00,1692A,116.1248,24.2654,梅州市,环境监控中心,,46,37,37,22,21,147,146,138,138,11,19,3,5,0.6,0.5
2023-05-15T18:00:00,1693A,115.3653,22.775,汕尾市,市环保局,,,43,32,29,22,148,148,133,133,10,7,,9,0.7,0.7
2023-05-15T18:00:00,1694A,115.3706,22.7898,汕尾市,市政府,细颗粒物(PM2.5),55,30,29,39,27,151,151,132,132,11,8,5,5,0.7,0.6
2023-05-15T18:00:00,1695A,115.3622,22.7925,汕尾市,新城中学,,48,37,33,28,23,151,151,135,135,8,6,7,7,0.7,0.6
2023-05-15T18:00:00,1696A,114.6778,23.7569,河源市,源西,,48,44,37,24,19,153,153,132,132,9,19,4,4,0.5,0.7
2023-05-15T18:00:00,1697A,114.6944,23.7586,河源市,东埔,,46,33,33,19,19,145,145,126,126,13,15,6,5,0.5,0.5
2023-05-15T18:00:00,1698A,114.6892,23.7233,河源市,老城,颗粒物(PM10),52,53,49,22,18,148,146,127,127,12,16,6,5,0.5,0.6
2023-05-15T18:00:00,1699A,111.9797,21.8593,阳江市,鸳鸯湖,,37,14,42,12,36,134,116,121,121,7,18,8,8,0.8,1
2023-05-15T18:00:00,1701A,111.9491,21.8658,阳江市,马南垌,,37,26,44,16,50,124,116,119,119,9,24,6,6,0.8,0.9
2023-05-15T18:00:00,1702A,113.0426,23.691,清远市,环保大楼,臭氧1小时,105,32,65,32,47,209,209,182,182,15,24,7,9,1.0,1
2023-05-15T18:00:00,1703A,113.0208,23.7106,清远市,凤城街办,臭氧1小时,84,52,81,33,54,187,187,163,163,15,21,4,8,0.6,0.7
2023-05-15T18:00:00,1705A,116.6367,23.6719,潮州市,西园路,细颗粒物(PM2.5),52,43,43,36,36,111,111,91,91,11,13,6,6,0.4,0.5
2023-05-15T18:00:00,1706A,116.6447,23.6706,潮州市,档案局,,45,40,44,28,30,173,141,146,146,5,9,7,9,0.5,0.6
2023-05-15T18:00:00,1708A,116.3701,23.5345,揭阳市,新兴,,45,36,50,26,34,195,143,160,160,14,18,8,12,0.6,0.7
2023-05-15T18:00:00,1709A,116.3264,23.5443,揭阳市,西马,颗粒物(PM10),53,55,52,24,31,194,157,160,160,14,21,7,10,0.7,0.8
2023-05-15T18:00:00,1710A,116.3611,23.5626,揭阳市,东兴,,47,47,53,19,31,194,145,157,157,12,19,5,10,0.9,0.9
2023-05-15T18:00:00,1711A,116.4151,23.5294,揭阳市,渔湖,,44,44,54,14,36,209,138,161,161,9,17,7,12,0.6,0.8
2023-05-15T18:00:00,1712A,112.0392,22.9169,云浮市,新市府,,33,32,39,23,24,116,95,106,106,4,7,3,3,0.8,0.8
2023-05-15T18:00:00,1714A,112.0539,22.9539,云浮市,牧羊,细颗粒物(PM2.5),95,39,59,71,36,140,89,125,115,13,21,7,9,0.7,0.8
2023-05-15T18:00:00,1715A,102.575,24.3711,玉溪市,东风水库,,22,12,31,6,22,120,69,59,59,10,17,7,8,0.6,0.8
2023-05-15T18:00:00,1718A,115.4208,35.2464,菏泽市,气象局,颗粒物(PM10),76,101,96,35,35,165,154,155,155,11,14,8,10,0.5,0.5
2023-05-15T18:00:00,1719A,115.4747,35.2375,菏泽市,市政协,颗粒物(PM10),67,83,84,40,40,164,155,155,155,10,12,12,10,0.5,0.5
2023-05-15T18:00:00,1721A,113.3819,40.1097,大同市,果树场,颗粒物(PM10),51,51,92,14,36,147,147,124,124,11,37,10,16,0.3,0.5
2023-05-15T18:00:00,1723A,113.2994,40.0758,大同市,云冈宾馆,颗粒物(PM10),60,69,98,17,32,152,152,134,134,15,41,7,15,0.3,0.9
2023-05-15T18:00:00,1724A,113.3444,40.0917,大同市,大同大学,,50,50,88,18,28,144,144,122,122,10,29,7,16,0.3,0.7
2023-05-15T18:00:00,1725A,113.2661,40.1269,大同市,安家小村,颗粒物(PM10),52,54,96,11,28,152,152,129,129,8,29,8,14,0.2,1.1
2023-05-15T18:00:00,1726A,113.2711,40.0844,大同市,教育学院,颗粒物(PM10),54,58,99,26,38,139,139,124,124,23,46,8,18,0.4,1.3
2023-05-15T18:00:00,1727A,113.1147,36.1547,长治市,清华站,颗粒物(PM10),62,73,124,31,38,173,156,162,162,9,27,8,10,0.4,0.6
2023-05-15T18:00:00,1728A,113.1031,36.1989,长治市,监测站,颗粒物(PM10),72,94,116,27,41,164,151,151,151,10,33,6,11,0.4,0.8
2023-05-15T18:00:00,1730A,113.0886,36.2125,长治市,审计局,颗粒物(PM10),74,98,107,39,43,161,146,149,149,13,34,8,13,0.4,0.6
2023-05-15T18:00:00,1731A,113.0844,36.1856,长治市,长治八中,颗粒物(PM10),77,103,123,33,46,174,156,158,158,8,24,6,9,0.3,0.6
2023-05-15T18:00:00,1733A,111.5531,36.0783,临汾市,临钢医院,颗粒物(PM10),77,104,87,3,25,184,161,164,164,13,34,6,6,0.6,0.7
2023-05-15T18:00:00,1734A,111.5028,36.0714,临汾市,技工学校,臭氧1小时,99,65,76,23,29,214,199,191,191,15,27,8,12,0.5,0.6
2023-05-15T18:00:00,1736A,111.5018,36.0855,临汾市,市委,臭氧1小时,99,90,95,26,35,221,199,195,195,22,28,6,9,0.9,1
2023-05-15T18:00:00,1738A,113.5758,37.8572,阳泉市,市中心,颗粒物(PM10),55,60,105,14,33,175,155,150,150,15,55,9,22,0.5,0.9
2023-05-15T18:00:00,1739A,113.4894,37.8731,阳泉市,赛鱼,颗粒物(PM10),58,65,94,29,31,175,148,149,149,22,46,10,13,0.6,0.8
2023-05-15T18:00:00,1740A,113.5819,37.8486,阳泉市,南庄,颗粒物(PM10),63,76,118,29,43,184,162,153,153,14,42,9,21,0.5,0.9
2023-05-15T18:00:00,1742A,113.5614,37.8703,阳泉市,平坦,颗粒物(PM10),75,100,118,27,40,175,159,149,149,11,56,8,20,0.5,0.8
2023-05-15T18:00:00,1743A,113.5158,37.8392,阳泉市,大阳泉,颗粒物(PM10),56,62,85,30,32,189,161,155,155,10,23,9,14,0.4,0.6
2023-05-15T18:00:00,1744A,118.9233,42.2816,赤峰市,松山一中,颗粒物(PM10),74,98,72,15,20,150,106,146,113,35,28,12,14,0.5,0.6
2023-05-15T18:00:00,1745A,118.9576,42.2728,赤峰市,哈达街,颗粒物(PM10),81,111,77,26,27,148,123,142,125,25,26,17,16,0.4,0.6
2023-05-15T18:00:00,1746A,118.8788,42.2554,赤峰市,天义路,颗粒物(PM10),59,67,55,15,21,166,128,159,132,26,22,13,14,0.5,0.6
2023-05-15T18:00:00,1748A,123.044,41.1196,鞍山市,深沟寺,,47,47,37,32,22,165,134,142,142,8,8,8,9,0.5,0.5
2023-05-15T18:00:00,1749A,123.011,41.0931,鞍山市,太阳城,颗粒物(PM10),51,52,39,34,24,165,146,158,156,11,11,8,8,0.7,0.7
2023-05-15T18:00:00,1750A,123.0485,41.1442,鞍山市,太平,颗粒物(PM10),56,61,48,36,26,144,125,132,132,15,13,10,10,0.7,0.6
2023-05-15T18:00:00,1751A,122.9642,41.0971,鞍山市,铁西三道街,颗粒物(PM10),59,68,60,36,29,155,139,147,147,19,20,4,6,0.8,0.8
2023-05-15T18:00:00,1752A,122.9341,41.0833,鞍山市,铁西工业园区,颗粒物(PM10),60,70,53,35,25,173,136,156,155,16,15,7,9,0.7,0.8
2023-05-15T18:00:00,1753A,123.022,41.0821,鞍山市,明达新区,颗粒物(PM10),51,51,40,34,24,167,151,161,160,9,10,7,6,0.5,0.4
2023-05-15T18:00:00,1754A,123.1289,41.0228,鞍山市,千山,,,,,,,,,,,,,,,,
2023-05-15T18:00:00,1755A,123.7977,41.8491,抚顺市,望花区,臭氧1小时,69,68,51,44,31,189,175,182,182,17,22,8,15,0.2,0.3
2023-05-15T18:00:00,1756A,123.9161,41.8822,抚顺市,顺城区,颗粒物(PM10),57,63,47,39,27,197,158,180,180,20,20,5,5,0.4,0.3
2023-05-15T18:00:00,1757A,124.0436,41.8611,抚顺市,东洲区,颗粒物(PM10),59,68,47,38,28,182,166,177,177,8,9,12,13,0.5,0.4
2023-05-15T18:00:00,1758A,123.9247,41.8642,抚顺市,新抚区,颗粒物(PM10),59,67,54,32,24,196,159,178,178,14,18,10,9,0.5,0.5
2023-05-15T18:00:00,1759A,124.0972,41.8961,抚顺市,大伙房水库,臭氧1小时,72,50,35,39,25,191,177,185,184,6,5,6,7,0.4,0.3
2023-05-15T18:00:00,1760A,123.7086,41.8391,抚顺市,沈抚新城,颗粒物(PM10),65,79,56,37,28,193,166,182,182,19,16,13,11,0.7,0.5
2023-05-15T18:00:00,1761A,123.8275,41.3064,本溪市,大峪,颗粒物(PM10),58,66,43,33,19,148,146,146,146,7,10,5,4,0.7,0.6
2023-05-15T18:00:00,1762A,123.7567,41.3325,本溪市,溪湖,颗粒物(PM10),51,52,42,33,30,144,138,138,138,14,18,12,15,0.7,0.8
2023-05-15T18:00:00,1763A,123.7169,41.3094,本溪市,彩屯,颗粒物(PM10),67,84,79,36,40,116,93,109,107,47,31,58,58,2.0,1.8
2023-05-15T18:00:00,1764A,123.7669,41.2864,本溪市,东明,颗粒物(PM10),55,59,42,28,24,144,140,140,140,18,15,7,6,0.6,0.5
2023-05-15T18:00:00,1765A,123.7992,41.2664,本溪市,新立屯,颗粒物(PM10),59,68,46,39,26,143,143,141,141,10,10,6,6,0.6,0.5
2023-05-15T18:00:00,1766A,123.8142,41.3472,本溪市,威宁,颗粒物(PM10),54,58,42,34,25,143,127,139,139,17,13,6,6,0.5,0.5
2023-05-15T18:00:00,1767A,121.1115,41.0879,锦州市,南山,细颗粒物(PM2.5),98,92,59,73,60,192,192,171,171,18,17,10,11,0.6,0.5
2023-05-15T18:00:00,1768A,121.0533,40.8434,锦州市,开发区,细颗粒物(PM2.5),79,82,65,58,49,180,171,166,166,30,20,9,21,0.6,0.5
2023-05-15T18:00:00,1769A,121.1836,41.1119,锦州市,百股街道,臭氧1小时,94,71,52,56,46,202,195,178,178,16,15,9,8,0.7,0.4
2023-05-15T18:00:00,1770A,121.1178,41.1222,锦州市,天安街道,臭氧1小时,103,111,66,57,52,206,206,182,182,21,18,10,12,1.0,0.7
2023-05-15T18:00:00,1771A,121.1303,41.1386,锦州市,北湖公园,臭氧1小时,101,110,64,74,53,202,202,177,177,18,16,8,10,0.7,0.5
2023-05-15T18:00:00,1772A,126.54,43.8622,吉林市,哈达湾,颗粒物(PM10),59,68,46,34,23,169,138,157,156,16,13,5,5,0.7,0.6
2023-05-15T18:00:00,1773A,126.5844,43.8358,吉林市,东局子,细颗粒物(PM2.5),65,78,39,47,22,170,145,158,158,19,12,6,6,0.8,0.7
2023-05-15T18:00:00,1774A,126.5052,43.8245,吉林市,电力学院,细颗粒物(PM2.5),72,72,40,52,24,174,150,161,161,14,21,8,7,0.6,0.5
2023-05-15T18:00:00,1775A,126.6133,43.8972,吉林市,江北,颗粒物(PM10),62,74,43,33,19,167,135,153,153,24,14,8,7,0.8,0.7
2023-05-15T18:00:00,1776A,126.555,43.8306,吉林市,江南公园,细颗粒物(PM2.5),70,88,44,51,25,165,141,156,156,21,16,6,6,0.7,0.7
2023-05-15T18:00:00,1778A,126.7061,43.7133,吉林市,丰满,,,,,,,,,,,,,,,,
2023-05-15T18:00:00,1779A,123.9305,47.3636,齐齐哈尔市,安居小区,,45,45,38,6,10,109,100,99,99,5,9,3,3,0.1,0.3
2023-05-15T18:00:00,1780A,123.9488,47.3386,齐齐哈尔市,中心广场,,30,30,31,3,5,98,90,91,91,10,9,5,6,0.3,0.2
2023-05-15T18:00:00,1781A,123.9483,47.3227,齐齐哈尔市,农牧车辆厂,颗粒物(PM10),53,56,44,3,6,112,100,97,97,5,8,5,5,0.1,0.2
2023-05-15T18:00:00,1783A,123.945,47.2988,齐齐哈尔市,市环境监测站,,,53,47,,22,120,98,96,96,7,7,5,6,0.2,0.3
2023-05-15T18:00:00,1784A,129.61,44.561,牡丹江市,环保大楼,,41,36,27,21,15,138,129,115,115,12,13,5,4,0.4,0.3
2023-05-15T18:00:00,1785A,129.6115,44.5782,牡丹江市,文化广场,,45,45,28,30,20,136,122,108,108,18,16,5,4,0.6,0.5
2023-05-15T18:00:00,1786A,129.5904,44.5963,牡丹江市,第一医院,,46,46,29,19,20,138,124,113,113,12,16,3,3,0.4,0.4
2023-05-15T18:00:00,1787A,129.6364,44.6075,牡丹江市,机车工厂,,46,46,31,23,14,137,119,112,112,12,13,4,6,0.3,0.3
2023-05-15T18:00:00,1788A,129.6386,44.5462,牡丹江市,第一中学,,45,45,29,12,17,136,127,113,113,13,14,3,2,0.5,0.4
2023-05-15T18:00:00,1789A,124.81117,46.03138,大庆市,大同区,,45,45,53,7,12,125,88,116,93,3,9,4,5,0.2,0.3
2023-05-15T18:00:00,1790A,125.129,46.533,大庆市,龙凤区,,37,37,40,10,15,127,104,112,101,11,12,1,4,0.1,0.2
2023-05-15T18:00:00,1791A,124.902,46.408,大庆市,红岗区,,31,31,40,10,19,128,93,110,95,6,10,3,6,0.3,0.4
2023-05-15T18:00:00,1792A,125.153,46.586,大庆市,萨尔图区,,35,35,40,5,13,116,86,107,86,14,12,7,8,0.4,0.4
2023-05-15T18:00:00,1793A,124.9042,46.6215,大庆市,让胡路区,,33,33,30,16,14,131,100,114,95,7,8,6,6,0.2,0.3
2023-05-15T18:00:00,1794A,118.3606,31.3519,芜湖市,监测站,臭氧1小时,65,66,66,36,33,199,172,183,183,34,28,12,11,0.8,0.7
2023-05-15T18:00:00,1795A,118.3714,31.4134,芜湖市,科创中心,臭氧1小时,73,67,72,35,36,201,178,186,185,24,42,9,11,0.8,0.9
2023-05-15T18:00:00,1796A,118.3673,31.3131,芜湖市,四水厂,颗粒物(PM10),59,68,62,35,34,194,141,172,171,58,28,13,11,0.7,0.7
2023-05-15T18:00:00,1798A,118.5092,31.6837,马鞍山市,湖东路四小,臭氧1小时,100,62,67,33,37,217,200,196,196,15,26,8,10,0.7,0.9
2023-05-15T18:00:00,1799A,118.5024,31.6449,马鞍山市,开发区,臭氧1小时,90,74,74,33,35,212,192,191,191,18,34,9,11,0.9,1.1
2023-05-15T18:00:00,1800A,118.5228,31.7231,马鞍山市,慈湖,臭氧1小时,99,68,67,38,38,216,199,192,192,20,26,12,12,0.8,0.9
2023-05-15T18:00:00,1802A,118.6245,31.7241,马鞍山市,濮塘,臭氧1小时,55,45,62,23,34,214,164,189,189,8,20,6,10,1.2,1.4
2023-05-15T18:00:00,1803A,115.9872,29.6815,九江市,十里,颗粒物(PM10),54,58,62,35,35,180,159,160,160,13,28,13,12,0.5,0.6
2023-05-15T18:00:00,1804A,115.9584,29.7046,九江市,茅山头,"颗粒物(PM10),臭氧1小时",60,69,66,35,38,179,168,161,161,31,32,12,12,0.6,0.6
2023-05-15T18:00:00,1805A,115.9877,29.7295,九江市,西园,,45,33,56,27,44,171,144,151,150,16,39,9,10,0.8,0.7
2023-05-15T18:00:00,1806A,116.0172,29.6547,九江市,五七二七厂,臭氧1小时,54,52,51,32,31,182,163,161,161,8,10,10,10,0.4,0.4
2023-05-15T18:00:00,1808A,115.9114,29.6038,九江市,综合工业园,颗粒物(PM10),54,58,71,36,45,180,159,159,159,24,30,13,15,0.7,0.8
2023-05-15T18:00:00,1809A,116.0721,29.7535,九江市,石化总厂,,43,30,85,24,44,175,136,142,142,24,24,13,18,0.6,0.7
2023-05-15T18:00:00,1810A,115.9773,29.5698,九江市,庐山气象台,,49,45,41,30,28,188,155,150,150,6,5,6,6,0.9,0.7
2023-05-15T18:00:00,1812A,112.3931,34.6516,洛阳市,市委党校,颗粒物(PM10),60,69,85,28,31,164,145,145,145,6,19,4,4,0.5,0.5
2023-05-15T18:00:00,1814A,112.4657,34.6871,洛阳市,豫西宾馆,颗粒物(PM10),70,89,105,33,42,192,142,154,154,7,34,1,5,0.6,0.7
2023-05-15T18:00:00,1815A,112.494,34.6886,洛阳市,河南林校,颗粒物(PM10),65,79,83,26,32,186,144,154,154,9,23,8,9,0.4,0.5
2023-05-15T18:00:00,1816A,112.3844,34.623,洛阳市,开发区管委会,颗粒物(PM10),59,67,77,25,30,176,149,157,157,8,18,9,7,0.3,0.3
2023-05-15T18:00:00,1817A,112.4267,34.6258,洛阳市,市委新办公区,颗粒物(PM10),58,65,81,27,39,170,143,152,152,9,22,12,9,0.4,0.4
2023-05-15T18:00:00,1818A,114.4839,36.0621,安阳市,棉研所,颗粒物(PM10),105,160,109,39,32,174,164,154,154,5,14,7,9,0.6,0.6
2023-05-15T18:00:00,1819A,114.3551,36.1017,安阳市,红庙街,臭氧1小时,97,119,123,35,45,215,197,184,184,6,30,5,12,0.3,0.4
2023-05-15T18:00:00,1820A,114.361,36.0681,安阳市,银杏小区,颗粒物(PM10),85,119,113,49,42,199,186,170,170,5,23,12,20,0.5,0.6
2023-05-15T18:00:00,1824A,114.3389,34.7781,开封市,肿瘤医院,颗粒物(PM10),75,99,97,32,37,171,160,162,162,6,13,7,9,0.7,0.7
2023-05-15T18:00:00,1826A,114.2885,34.7965,开封市,世纪星幼儿园,颗粒物(PM10),73,96,89,35,36,169,155,159,159,8,17,5,5,0.7,0.7
2023-05-15T18:00:00,1828A,113.227,35.2125,焦作市,市环保局,颗粒物(PM10),78,106,126,29,43,227,160,177,177,12,33,6,17,0.4,0.7
2023-05-15T18:00:00,1830A,113.1992,35.2590,焦作市,影视城,臭氧1小时,79,86,91,28,31,220,183,192,192,14,19,11,17,0.5,0.6
2023-05-15T18:00:00,1832A,113.3257,33.742,平顶山市,新华旅馆,颗粒物(PM10),63,76,76,44,42,169,169,159,159,15,11,4,5,0.5,0.4
2023-05-15T18:00:00,1833A,113.2919,33.737,平顶山市,规划设计院,臭氧1小时,68,78,81,42,42,174,174,164,164,17,15,8,8,0.3,0.4
2023-05-15T18:00:00,1834A,113.182,33.774,平顶山市,平顶山工学院,,,66,69,41,35,169,169,155,155,,6,5,6,0.5,0.4
2023-05-15T18:00:00,1835A,111.1922,34.7752,三门峡市,市政府,,40,37,75,21,30,170,126,147,147,13,31,6,9,0.4,0.5
2023-05-15T18:00:00,1836A,111.1587,34.7942,三门峡市,开发区,,40,39,84,24,30,175,125,151,151,16,25,4,9,0.4,0.5
2023-05-15T18:00:00,1838A,111.143,34.7955,三门峡市,风景区,,48,29,80,33,42,186,130,156,156,10,17,7,11,0.4,0.5
2023-05-15T18:00:00,1840A,111.2992,30.6981,宜昌市,白龙岗,颗粒物(PM10),69,88,63,36,31,193,140,150,150,51,36,10,8,0.6,0.5
2023-05-15T18:00:00,1841A,111.3549,30.6465,宜昌市,伍家岗,颗粒物(PM10),63,76,71,44,39,201,127,158,158,65,47,9,8,0.7,0.7
2023-05-15T18:00:00,1842A,111.2628,30.6961,宜昌市,点军区,颗粒物(PM10),66,81,65,34,30,172,118,139,139,85,34,9,8,0.7,0.6
2023-05-15T18:00:00,1843A,111.3275,30.7819,宜昌市,夷陵区,颗粒物(PM10),79,108,73,36,38,187,156,155,155,64,39,10,8,0.6,0.6
2023-05-15T18:00:00,1844A,112.2494,30.3197,荆州市,市图书馆,细颗粒物(PM2.5),72,71,84,52,63,156,142,146,146,15,17,8,9,0.6,0.8
2023-05-15T18:00:00,1845A,112.2008,30.3544,荆州市,市委党校,细颗粒物(PM2.5),67,78,90,48,64,154,142,144,144,14,17,8,10,0.6,0.7
2023-05-15T18:00:00,1847A,113.1094,29.3578,岳阳市,南湖风景区,颗粒物(PM10),51,52,60,32,44,176,158,146,146,16,16,12,15,0.5,0.6
2023-05-15T18:00:00,1848A,113.1493,29.4251,岳阳市,城陵矶,颗粒物(PM10),54,57,66,31,41,169,157,142,142,14,20,14,14,0.8,0.8
2023-05-15T18:00:00,1849A,113.1497,29.3575,岳阳市,开发区,细颗粒物(PM2.5),54,53,66,38,40,158,156,147,147,13,21,10,16,0.6,0.7
2023-05-15T18:00:00,1850A,113.2621,29.4758,岳阳市,云溪区,颗粒物(PM10),53,55,54,36,35,161,153,144,144,17,13,12,12,0.6,0.7
2023-05-15T18:00:00,1851A,112.9943,29.4402,岳阳市,君山区,臭氧1小时,64,56,65,32,45,178,171,151,151,21,20,10,12,0.6,0.6
2023-05-15T18:00:00,1852A,113.2117,29.355,岳阳市,金凤水库,,49,48,57,30,37,164,154,143,143,7,16,4,9,0.8,0.9
2023-05-15T18:00:00,1854A,111.6975,28.9703,常德市,市二中,细颗粒物(PM2.5),53,47,55,37,39,118,101,108,108,12,9,7,11,0.3,0.3
2023-05-15T18:00:00,1857A,111.7158,29.1456,常德市,白鹤山,颗粒物(PM10),51,51,57,35,41,115,98,106,106,4,5,8,9,0.5,0.5
2023-05-15T18:00:00,1858A,110.5319,29.1217,张家界市,永定新区,颗粒物(PM10),69,88,59,32,34,134,70,108,108,33,20,4,4,0.1,0.3
2023-05-15T18:00:00,1859A,110.4697,29.1242,张家界市,电业局,颗粒物(PM10),55,59,62,32,36,114,76,97,97,31,20,4,4,0.4,0.3
2023-05-15T18:00:00,1860A,110.5594,29.3547,张家界市,未央路,,50,50,47,27,27,123,78,106,106,22,22,4,4,0.3,0.3
2023-05-15T18:00:00,1861A,110.4417,29.315,张家界市,袁家界,,45,45,43,19,24,118,85,112,104,21,8,7,8,0.7,0.5
2023-05-15T18:00:00,1862A,110.4144,25.3167,桂林市,电子科大尧山校区,,42,38,36,29,27,132,132,117,117,9,7,5,7,0.7,0.7
2023-05-15T18:00:00,1863A,110.2819,25.2697,桂林市,监测站,,49,42,52,34,35,145,137,128,128,8,15,7,7,0.5,0.6
2023-05-15T18:00:00,1864A,110.3089,25.2708,桂林市,龙隐路小学,,43,43,46,22,31,138,131,123,123,10,16,6,6,0.5,0.6
2023-05-15T18:00:00,1865A,110.2869,25.2178,桂林市,八中,,41,39,49,23,30,138,130,119,119,9,17,5,5,0.3,0.4
2023-05-15T18:00:00,1866A,109.2262,21.588,北海市,牛尾岭水库,,,,41,,26,143,,125,125,,12,,9,,0.9
2023-05-15T18:00:00,1867A,109.1436,21.4086,北海市,海滩公园,颗粒物(PM10),52,54,41,22,25,168,144,144,144,6,9,7,7,0.7,0.7
2023-05-15T18:00:00,1868A,109.0981,21.4661,北海市,新市环保局,,49,42,38,29,25,169,155,146,146,9,11,6,6,0.9,0.7
2023-05-15T18:00:00,1869A,109.1778,21.5233,北海市,北海工业园,,50,50,48,27,29,159,158,142,142,9,10,11,9,0.9,0.7
2023-05-15T18:00:00,1870A,109.4856,24.3895,柳州市,柳东小学,,46,40,56,24,41,147,147,137,137,8,18,6,18,0.6,0.7
2023-05-15T18:00:00,1871A,109.4157,24.3277,柳州市,环保监测站,,42,36,69,18,48,141,134,131,131,15,31,5,9,0.6,1
2023-05-15T18:00:00,1872A,109.389,24.341,柳州市,河西水厂,,42,38,73,21,46,137,133,124,124,13,34,7,11,0.5,0.9
2023-05-15T18:00:00,1873A,109.4311,24.2921,柳州市,市四中,,45,43,68,30,47,149,143,135,135,10,29,8,13,0.8,1.3
2023-05-15T18:00:00,1874A,109.4006,24.3631,柳州市,市九中,,48,48,75,20,44,141,135,134,134,14,24,9,11,0.4,0.6
2023-05-15T18:00:00,1875A,109.4958,24.3134,柳州市,古亭山,,48,48,58,23,39,140,140,127,127,9,24,3,6,0.5,0.9
2023-05-15T18:00:00,1876A,109.5078,18.2489,三亚市,河东子站,,26,11,13,8,7,88,83,85,85,7,5,4,3,0.4,0.5
2023-05-15T18:00:00,1877A,109.4964,18.2681,三亚市,河西子站,,26,12,13,6,5,88,83,84,84,5,6,2,2,0.4,0.4
2023-05-15T18:00:00,1878A,104.7778,31.4741,绵阳市,富乐山,臭氧1小时,84,61,74,40,54,187,187,170,170,13,26,5,5,0.4,0.5
2023-05-15T18:00:00,1879A,104.7563,31.4535,绵阳市,市人大,臭氧1小时,70,57,83,44,59,178,176,164,164,16,36,6,8,0.5,0.6
2023-05-15T18:00:00,1880A,104.6697,31.4668,绵阳市,高新区自来水公司,臭氧1小时,103,74,103,39,56,206,206,178,178,10,36,8,9,0.5,0.6
2023-05-15T18:00:00,1881A,104.7287,31.5075,绵阳市,三水厂,臭氧1小时,101,72,105,36,69,214,201,188,188,22,49,8,8,0.6,0.8
2023-05-15T18:00:00,1882A,104.563,28.793,宜宾市,石马中学,"颗粒物(PM10),细颗粒物(PM2.5)",59,68,77,42,46,168,148,123,123,29,37,22,8,0.7,0.7
2023-05-15T18:00:00,1883A,104.6201,28.7728,宜宾市,市委,细颗粒物(PM2.5),72,86,87,52,48,146,146,116,116,25,38,20,12,0.6,0.7
2023-05-15T18:00:00,1884A,104.6055,28.793,宜宾市,宜宾四中,细颗粒物(PM2.5),78,97,94,57,55,145,142,112,112,30,47,15,10,0.6,0.7
2023-05-15T18:00:00,1885A,104.639,28.7562,宜宾市,市政府,细颗粒物(PM2.5),85,90,92,63,54,147,147,112,112,27,53,16,9,0.7,0.8
2023-05-15T18:00:00,1886A,104.5742,28.7199,宜宾市,黄金嘴,细颗粒物(PM2.5),65,78,77,47,43,137,137,114,114,27,44,18,8,0.7,0.7
2023-05-15T18:00:00,1888A,101.6891,26.571,攀枝花市,弄弄坪,细颗粒物(PM2.5),52,42,30,36,20,106,88,96,88,26,16,21,10,2.0,0.7
2023-05-15T18:00:00,1889A,101.5769,26.5928,攀枝花市,河门口,,34,17,29,13,20,107,107,94,94,15,18,7,6,0.6,0.6
2023-05-15T18:00:00,1890A,101.7169,26.585,攀枝花市,炳草岗,,33,28,33,23,21,105,98,98,81,26,26,9,13,1.3,1
2023-05-15T18:00:00,1891A,101.7369,26.5008,攀枝花市,仁和,,,,40,,31,113,110,96,96,15,24,7,22,,1.4
2023-05-15T18:00:00,1893A,105.4324,28.9634,泸州市,九狮山,,,66,61,51,39,156,148,124,124,,25,13,12,0.3,0.4
2023-05-15T18:00:00,1894A,105.4427,28.9063,泸州市,小市上码头,细颗粒物(PM2.5),90,94,100,67,65,148,105,116,116,34,37,14,18,0.8,0.8
2023-05-15T18:00:00,1895A,105.4241,28.8573,泸州市,兰田宪桥,细颗粒物(PM2.5),79,79,94,58,68,162,110,124,124,17,32,12,12,0.9,1
2023-05-15T18:00:00,1896A,105.4379,28.8833,泸州市,市环监站,细颗粒物(PM2.5),89,79,91,66,59,147,111,119,119,25,41,10,19,0.5,0.8
2023-05-15T18:00:00,1901A,104.4239,31.1208,德阳市,东山公园,臭氧1小时,102,74,94,44,47,203,203,173,173,18,33,6,5,0.7,0.7
2023-05-15T18:00:00,1902A,104.3826,31.1317,德阳市,西小区,臭氧1小时,97,89,110,50,66,210,197,171,171,26,44,5,5,0.5,0.7
2023-05-15T18:00:00,1904A,104.3553,31.1091,德阳市,耐火材料厂,臭氧1小时,108,107,128,48,69,226,215,184,184,22,44,4,6,0.5,0.7
2023-05-15T18:00:00,1905A,106.056,30.8064,南充市,西山风景区,细颗粒物(PM2.5),68,74,78,49,64,172,161,154,154,13,21,10,18,0.6,0.7
2023-05-15T18:00:00,1906A,106.0789,30.8023,南充市,南充市委,细颗粒物(PM2.5),72,86,93,52,56,173,164,156,156,23,39,18,15,0.6,0.8
2023-05-15T18:00:00,1907A,106.1031,30.8217,南充市,南充炼油厂,颗粒物(PM10),67,83,106,46,63,169,157,155,155,20,28,19,15,0.7,0.8
2023-05-15T18:00:00,1908A,106.1064,30.7856,南充市,高坪区监测站,"颗粒物(PM10),细颗粒物(PM2.5)",65,79,87,47,63,169,157,157,157,26,38,24,15,0.6,0.8
2023-05-15T18:00:00,1909A,106.0642,30.7636,南充市,嘉陵区环保局,,,82,103,56,69,180,161,164,164,22,45,14,38,,0.8
2023-05-15T18:00:00,1910A,106.1087,30.8388,南充市,市环境监测站,细颗粒物(PM2.5),73,72,103,53,70,166,156,152,152,23,34,15,14,0.6,0.8
2023-05-15T18:00:00,1911A,106.9222,27.6869,遵义市,丁字口,细颗粒物(PM2.5),92,79,60,68,53,91,46,70,70,36,37,9,10,1.0,0.9
2023-05-15T18:00:00,1912A,106.9242,27.7019,遵义市,凤凰山,颗粒物(PM10),55,59,64,37,39,163,94,86,86,21,24,8,10,0.6,0.6
2023-05-15T18:00:00,1913A,106.8906,27.6486,遵义市,忠庄,细颗粒物(PM2.5),75,98,96,55,57,134,54,68,68,22,33,4,4,0.7,0.7
2023-05-15T18:00:00,1914A,106.9231,27.6506,遵义市,舟水桥,细颗粒物(PM2.5),83,98,73,61,45,134,54,73,73,22,24,4,4,0.8,0.6
2023-05-15T18:00:00,1915A,106.9178,27.72,遵义市,干田坝,,46,46,67,26,38,126,60,84,84,31,35,6,8,0.7,0.7
2023-05-15T18:00:00,1916A,103.7897,25.5035,曲靖市,环境监测站,,25,24,32,17,16,118,79,89,88,9,19,2,7,0.6,0.5
2023-05-15T18:00:00,1917A,103.8,25.5364,曲靖市,烟厂办公区,,30,23,34,10,17,139,96,103,103,10,20,4,12,0.5,0.5
2023-05-15T18:00:00,1918A,108.7197,34.3956,咸阳市,气象站,臭氧1小时,84,62,60,25,27,213,187,171,171,24,44,7,6,0.7,0.7
2023-05-15T18:00:00,1919A,108.673,34.3155,咸阳市,实验中学,臭氧1小时,119,64,69,26,32,259,238,200,200,25,46,6,5,0.6,0.7
2023-05-15T18:00:00,1920A,108.7233,34.3617,咸阳市,师范学院,臭氧1小时,102,67,70,27,32,226,203,182,182,21,42,9,8,0.6,0.6
2023-05-15T18:00:00,1922A,109.0656,35.0994,铜川市,党校,颗粒物(PM10),59,68,76,13,25,168,136,145,145,13,32,10,10,0.6,0.7
2023-05-15T18:00:00,1923A,109.0697,35.0697,铜川市,王益区政府,,44,36,58,20,28,170,140,147,147,12,23,6,8,0.3,0.5
2023-05-15T18:00:00,1924A,108.9344,34.9058,铜川市,新区管委会,臭氧1小时,55,52,68,29,29,180,164,160,160,19,20,10,8,0.5,0.3
2023-05-15T18:00:00,1926A,109.4131,36.6275,延安市,枣园,颗粒物(PM10),65,80,78,27,26,170,170,149,149,6,30,6,5,0.2,0.3
2023-05-15T18:00:00,1927A,109.4761,36.6028,延安市,延大医附院,颗粒物(PM10),66,82,88,30,22,163,163,140,140,11,68,4,4,0.5,0.6
2023-05-15T18:00:00,1929A,109.5056,36.6106,延安市,百米大道,颗粒物(PM10),67,84,94,28,33,153,153,131,131,16,43,7,7,0.4,0.5
2023-05-15T18:00:00,1930A,107.185,34.3063,宝鸡市,庙沟村,颗粒物(PM10),54,57,34,26,18,176,160,155,155,13,9,8,7,0.3,0.2
2023-05-15T18:00:00,1931A,107.0708,34.3017,宝鸡市,竹园沟,,41,41,32,18,20,180,127,157,157,13,18,7,7,0.5,0.4
2023-05-15T18:00:00,1932A,107.1906,34.3672,宝鸡市,三陆医院,,,77,60,29,25,178,153,151,151,20,37,,10,0.5,0.5
2023-05-15T18:00:00,1933A,107.1431,34.3547,宝鸡市,监测站,颗粒物(PM10),62,73,49,25,25,181,152,155,155,22,30,8,7,0.4,0.4
2023-05-15T18:00:00,1934A,107.1186,34.3739,宝鸡市,技工学校,颗粒物(PM10),55,60,51,26,25,182,155,155,155,18,26,5,5,0.5,0.5
2023-05-15T18:00:00,1935A,107.3906,34.3528,宝鸡市,陈仓区环保局家属楼,臭氧1小时,72,71,63,24,27,181,177,157,157,27,35,6,8,0.5,0.5
2023-05-15T18:00:00,1936A,107.2058,34.3497,宝鸡市,文理学院,颗粒物(PM10),58,66,51,28,26,187,163,160,160,20,27,5,5,0.5,0.5
2023-05-15T18:00:00,1937A,107.2386,34.3622,宝鸡市,三迪小学,臭氧1小时,68,72,60,32,26,186,174,159,159,20,37,6,6,0.4,0.4
2023-05-15T18:00:00,1938A,109.5293,34.5101,渭南市,农科所,颗粒物(PM10),60,70,52,34,26,172,164,148,148,15,28,14,10,0.6,0.5
2023-05-15T18:00:00,1939A,109.4974,34.4877,渭南市,日报社,臭氧1小时,87,70,59,26,19,192,189,168,168,21,39,11,8,0.6,0.5
2023-05-15T18:00:00,1940A,109.4636,34.493,渭南市,体育馆,臭氧1小时,88,68,60,35,29,190,190,167,167,15,40,10,8,0.4,0.4
2023-05-15T18:00:00,1941A,109.4259,34.5023,渭南市,高新一小,颗粒物(PM10),67,84,74,34,26,136,123,120,120,75,52,8,6,0.5,0.5
2023-05-15T18:00:00,1943A,102.1725,38.5339,金昌市,新川苑,颗粒物(PM10),65,80,92,19,23,148,127,130,130,13,24,6,12,0.4,0.6
2023-05-15T18:00:00,1944A,102.1692,38.5167,金昌市,天庆家园,,48,48,71,28,28,160,136,138,138,9,21,7,15,0.4,0.7
2023-05-15T18:00:00,1945A,98.2908,39.7711,嘉峪关市,气象局,颗粒物(PM10),58,66,82,17,27,162,140,136,136,11,26,28,20,0.5,0.5
2023-05-15T18:00:00,1947A,106.3394,38.817,石嘴山市,沙湖旅游区,,,,,,,,,,,,,,,,
2023-05-15T18:00:00,1948A,106.3668,39.0145,石嘴山市,大武口朝阳西街,臭氧1小时,78,74,79,24,32,182,182,142,142,11,29,11,57,0.2,0.6
2023-05-15T18:00:00,1949A,106.7704,39.2282,石嘴山市,惠农南大街,,,,75,24,25,149,148,133,133,14,34,18,27,0.4,0.5
2023-05-15T18:00:00,1950A,106.7099,39.1325,石嘴山市,红果子镇惠新街,颗粒物(PM10),61,72,65,32,33,159,159,140,140,12,24,15,13,0.4,0.4
2023-05-15T18:00:00,1951A,84.895,45.6094,克拉玛依市,长征新村,,44,44,28,9,5,111,94,106,94,5,3,8,8,0.2,0.1
2023-05-15T18:00:00,1952A,84.8988,45.5893,克拉玛依市,南林小区,,48,48,32,16,18,112,94,106,93,5,4,3,2,0.1,0.1
2023-05-15T18:00:00,1954A,84.905,44.3396,克拉玛依市,独山子区,,50,50,68,16,18,119,92,119,103,6,6,8,7,0.3,0.3
2023-05-15T18:00:00,1955A,85.6979,46.098,克拉玛依市,乌尔禾区商贸楼,,33,22,32,6,13,105,103,105,97,2,1,10,10,0.1,0.2
2023-05-15T18:00:00,1956A,86.1472,41.7538,巴音郭楞州,孔雀公园,颗粒物(PM10),53,56,105,7,24,121,118,109,109,2,10,3,4,0.1,0.3
2023-05-15T18:00:00,1957A,86.1972,41.7166,巴音郭楞州,棉纺厂,颗粒物(PM10),53,56,94,26,27,132,126,117,117,3,13,3,3,0.3,0.3
2023-05-15T18:00:00,1958A,86.2357,41.7173,巴音郭楞州,经济开发区,颗粒物(PM10),51,52,75,18,23,124,119,110,110,4,11,2,2,0.2,0.3
2023-05-15T18:00:00,1961A,117.532,36.6868,济南市,东山小学,颗粒物(PM10),118,186,106,39,35,208,203,193,193,10,19,8,7,0.4,0.5
2023-05-15T18:00:00,1966A,120.0405,35.8735,青岛市,黄岛区4号,臭氧1小时,101,92,102,41,59,208,201,170,170,29,23,10,10,0.9,1
2023-05-15T18:00:00,1982A,122.0693,37.2174,威海市,文登开发区,臭氧1小时,98,102,84,56,46,198,198,188,188,17,15,9,7,0.8,0.7
2023-05-15T18:00:00,2031A,113.1817,27.9958,株洲市,云田中学,颗粒物(PM10),54,58,62,33,42,178,137,145,145,18,16,5,8,0.5,0.7
2023-05-15T18:00:00,2054A,114.1099,32.1059,信阳市,平桥分局,颗粒物(PM10),59,68,58,35,35,163,158,151,151,14,13,8,10,0.5,0.6
2023-05-15T18:00:00,2064A,113.9956,32.1271,信阳市,南湾水厂,臭氧1小时,69,60,65,36,40,175,175,158,158,5,6,8,9,0.7,0.7
2023-05-15T18:00:00,2065A,114.0775,32.1195,信阳市,市酿酒公司,颗粒物(PM10),56,61,65,39,43,162,162,150,150,9,11,9,10,0.6,0.6
2023-05-15T18:00:00,2066A,114.0609,32.1399,信阳市,审计局,颗粒物(PM10),61,72,67,38,45,167,163,160,157,14,10,9,10,0.4,0.5
2023-05-15T18:00:00,2067A,114.6613,33.6128,周口市,市环境监测站,颗粒物(PM10),58,66,71,35,41,170,153,156,156,8,8,6,5,0.6,0.6
2023-05-15T18:00:00,2068A,114.6758,33.6347,周口市,周口师范,颗粒物(PM10),61,72,68,41,37,160,145,147,147,8,12,4,5,0.5,0.5
2023-05-15T18:00:00,2069A,114.6546,33.5979,周口市,市运管处,颗粒物(PM10),60,70,74,31,36,163,145,151,151,7,9,8,8,0.8,0.7
2023-05-15T18:00:00,2070A,114.6369,33.6406,周口市,川汇区环保局,颗粒物(PM10),62,73,68,34,34,154,145,143,143,8,10,10,10,0.7,0.6
2023-05-15T18:00:00,2075A,117.6336,24.4674,漳州市,九湖,,,,,,,,,,,,,,,,
2023-05-15T18:00:00,2160A,112.85,35.5051,晋城市,自来水公司,臭氧1小时,102,94,116,31,37,203,203,168,168,13,36,18,14,0.2,0.5
2023-05-15T18:00:00,2161A,112.8318,35.4936,晋城市,白云商贸,臭氧1小时,80,90,121,27,37,184,184,161,161,12,32,15,10,0.4,0.7
2023-05-15T18:00:00,2162A,112.8508,35.4887,晋城市,市环保局,臭氧1小时,95,91,119,36,41,196,196,165,165,12,42,14,9,0.5,0.7
2023-05-15T18:00:00,2163A,112.8676,35.4897,晋城市,技术学院,臭氧1小时,83,96,108,34,40,186,186,155,155,10,38,14,9,0.3,0.6
2023-05-15T18:00:00,2165A,112.8453,35.546,晋城市,白马寺,臭氧1小时,70,86,97,35,33,176,176,150,150,17,18,9,8,0.6,0.7
2023-05-15T18:00:00,2166A,112.4397,39.3522,朔州市,平朔,颗粒物(PM10),65,80,98,34,42,140,134,134,134,7,30,3,11,0.3,0.4
2023-05-15T18:00:00,2167A,112.4575,39.3617,朔州市,朔唯,颗粒物(PM10),69,88,126,32,44,142,134,136,136,10,46,6,18,0.4,0.5
2023-05-15T18:00:00,2168A,112.4258,39.3197,朔州市,区政府,颗粒物(PM10),62,74,80,29,23,144,137,138,138,7,19,4,6,0.4,0.5
2023-05-15T18:00:00,2169A,112.4072,39.3278,朔州市,市环保局,颗粒物(PM10),79,108,99,28,31,131,116,126,126,19,29,3,8,0.4,0.5
2023-05-15T18:00:00,2170A,112.4272,39.3681,朔州市,市二中,颗粒物(PM10),63,76,110,37,41,147,139,140,140,5,33,4,14,0.3,0.4
2023-05-15T18:00:00,2171A,112.7532,37.6945,晋中市,锦纶小区,颗粒物(PM10),69,88,123,36,43,196,166,175,175,24,36,8,13,0.2,0.4
2023-05-15T18:00:00,2173A,112.7249,37.7067,晋中市,南都小区,颗粒物(PM10),66,82,141,26,36,201,165,176,176,13,37,7,13,0.6,0.9
2023-05-15T18:00:00,2174A,112.6991,37.6982,晋中市,榆次区政府,颗粒物(PM10),64,78,135,20,33,198,170,140,140,14,39,8,15,0.5,0.8
2023-05-15T18:00:00,2175A,110.9956,35.0147,运城市,运城中学,,47,47,87,19,30,168,136,152,152,15,19,5,7,0.6,0.8
2023-05-15T18:00:00,2178A,110.9686,35.0303,运城市,地区技校,,44,44,100,6,30,182,139,160,160,6,31,4,7,0.3,0.8
2023-05-15T18:00:00,2179A,111.0414,35.1147,运城市,空港新区,颗粒物(PM10),57,63,97,21,37,167,150,160,159,7,33,6,12,0.4,1.2
2023-05-15T18:00:00,2181A,112.7383,38.4519,忻州市,开发区,臭氧1小时,92,94,92,25,35,193,193,151,151,15,38,12,17,0.5,0.5
2023-05-15T18:00:00,2182A,112.7003,38.4928,忻州市,会展中心,臭氧1小时,75,92,101,38,36,180,180,136,136,14,45,9,13,0.4,0.4
2023-05-15T18:00:00,2183A,111.1406,37.5211,吕梁市,环保局,颗粒物(PM10),72,94,115,24,21,163,147,140,140,15,47,6,9,0.3,0.5
2023-05-15T18:00:00,2185A,111.1297,37.5136,吕梁市,自来水公司,颗粒物(PM10),64,78,126,26,21,150,142,139,139,14,39,4,6,0.3,0.6
2023-05-15T18:00:00,2187A,106.8174,39.6973,乌海市,市林业局,臭氧1小时,78,62,77,21,26,184,182,153,153,6,27,13,38,0.6,1.1
2023-05-15T18:00:00,2188A,106.7907,39.6667,乌海市,中海勃湾学校,臭氧1小时,79,77,89,27,30,187,183,158,158,8,36,17,44,0.5,1
2023-05-15T18:00:00,2191A,122.2532,43.6801,通辽市,艺术职业学校,颗粒物(PM10),66,81,85,47,29,154,115,122,108,13,14,5,6,0.2,0.4
2023-05-15T18:00:00,2192A,119.7594,49.2261,呼伦贝尔市,区环保局,颗粒物(PM10),54,57,56,16,18,99,96,92,92,4,4,4,5,0.2,0.2
2023-05-15T18:00:00,2195A,107.4212,40.761,巴彦淖尔市,附二中,,44,36,54,5,13,143,138,137,137,7,18,3,4,0.4,0.5
2023-05-15T18:00:00,2196A,107.37,40.7372,巴彦淖尔市,市环保大楼,,47,47,67,14,27,146,142,141,141,5,23,2,4,0.4,0.4
2023-05-15T18:00:00,2197A,113.1306,40.9923,乌兰察布市,集宁新区,颗粒物(PM10),54,57,41,21,16,150,150,138,138,7,16,13,23,0.4,0.4
2023-05-15T18:00:00,2200A,122.0392,46.0656,兴安盟,胜华新制药厂,,43,43,33,11,14,103,96,97,95,11,10,2,2,0.3,0.3
2023-05-15T18:00:00,2201A,121.9504,46.0741,兴安盟,科右前旗环保局,,,,,,,,,,,,,,,,
2023-05-15T18:00:00,2202A,116.1042,43.9317,锡林郭勒盟,市环保监测站,,34,34,39,4,6,105,101,102,102,6,9,12,13,0.2,0.2
2023-05-15T18:00:00,2203A,116.0781,43.9311,锡林郭勒盟,市政府,,31,26,46,2,8,105,98,101,101,11,15,9,11,0.2,0.2
2023-05-15T18:00:00,2204A,105.6467,38.8363,阿拉善盟,西城区西花园,,44,41,58,23,22,140,139,136,136,8,11,8,8,0.5,0.5
2023-05-15T18:00:00,2205A,105.6985,38.8411,阿拉善盟,蒙二幼,,47,46,56,21,23,148,148,131,131,8,8,6,6,0.2,0.3
2023-05-15T18:00:00,2206A,105.724,38.8516,阿拉善盟,环保局新楼,,44,36,37,25,25,146,139,140,140,8,6,8,8,0.4,0.5
2023-05-15T18:00:00,2207A,121.6094,41.998,阜新市,工业园区,颗粒物(PM10),88,126,96,36,32,179,156,159,159,14,11,12,16,0.8,0.4
2023-05-15T18:00:00,2208A,121.6697,42.0279,阜新市,长青街,颗粒物(PM10),70,90,68,39,32,183,163,168,168,18,16,12,16,0.8,0.7
2023-05-15T18:00:00,2209A,121.6673,42.0705,阜新市,农业园区,细颗粒物(PM2.5),70,60,52,51,37,183,160,168,168,21,16,11,15,0.8,0.7
2023-05-15T18:00:00,2210A,121.6717,42.0224,阜新市,东苑,颗粒物(PM10),68,85,71,36,36,177,152,160,160,20,16,13,18,1.1,1
2023-05-15T18:00:00,2211A,121.6506,42.0498,阜新市,玉龙新城,细颗粒物(PM2.5),68,78,63,49,35,183,158,166,166,17,14,11,15,0.8,0.7
2023-05-15T18:00:00,2212A,123.2,41.1953,辽阳市,宏伟区,,44,44,32,22,18,139,123,129,127,8,8,10,10,0.6,0.6
2023-05-15T18:00:00,2213A,123.1683,41.2495,辽阳市,新华园,,49,47,47,34,26,138,124,129,128,8,8,10,10,0.6,0.5
2023-05-15T18:00:00,2214A,123.2354,41.2639,辽阳市,滨河路,颗粒物(PM10),53,55,36,33,19,124,117,116,115,15,13,5,5,0.7,0.7
2023-05-15T18:00:00,2215A,123.149,41.2991,辽阳市,铁西工业园,颗粒物(PM10),53,56,48,28,26,136,120,131,130,19,13,7,7,0.5,0.5
2023-05-15T18:00:00,2216A,123.8139,42.3022,铁岭市,汇工街西,颗粒物(PM10),73,96,63,39,30,198,152,172,172,18,17,15,15,0.6,0.5
2023-05-15T18:00:00,2217A,123.8649,42.2923,铁岭市,水上乐园,颗粒物(PM10),64,78,48,41,25,191,144,166,166,23,18,13,11,0.9,0.7
2023-05-15T18:00:00,2218A,123.8486,42.2867,铁岭市,银州路东段,颗粒物(PM10),63,76,59,29,23,197,154,172,172,19,17,12,11,0.8,0.6
2023-05-15T18:00:00,2219A,123.7153,42.2217,铁岭市,金沙江路北,颗粒物(PM10),73,95,54,34,28,196,143,169,169,21,20,13,13,0.8,0.7
2023-05-15T18:00:00,2220A,120.4318,41.5881,朝阳市,西梁,细颗粒物(PM2.5),169,87,53,128,45,175,160,167,167,14,12,30,13,1.0,0.8
2023-05-15T18:00:00,2221A,120.4521,41.5646,朝阳市,河畔小区,细颗粒物(PM2.5),80,90,53,59,30,187,180,183,183,11,10,13,11,0.9,0.8
2023-05-15T18:00:00,2222A,120.4176,41.5648,朝阳市,八里堡,细颗粒物(PM2.5),80,106,60,59,38,190,174,182,182,19,17,11,9,1.0,0.9
2023-05-15T18:00:00,2223A,120.3806,41.5969,朝阳市,农业园区,细颗粒物(PM2.5),112,118,65,84,43,191,169,181,181,15,17,13,10,1.0,0.9
2023-05-15T18:00:00,2225A,124.4002,43.1713,四平市,一商场,臭氧1小时,70,82,64,39,28,187,176,173,173,18,13,8,10,0.6,0.5
2023-05-15T18:00:00,2226A,124.388,43.193,四平市,境园,细颗粒物(PM2.5),69,68,53,50,30,178,158,164,164,11,11,8,9,0.7,0.4
2023-05-15T18:00:00,2227A,125.1358,42.8845,辽源市,环保局,臭氧1小时,88,45,31,38,22,201,190,189,189,12,11,10,8,0.9,0.6
2023-05-15T18:00:00,2229A,125.9358,41.7173,通化市,光明,臭氧1小时,54,52,28,31,16,168,163,160,160,7,6,9,8,0.7,0.2
2023-05-15T18:00:00,2230A,125.9446,41.7325,通化市,铁路,,49,47,32,22,17,158,154,152,152,12,13,8,8,0.4,0.3
2023-05-15T18:00:00,2231A,126.4219,41.9171,白山市,喜丰,颗粒物(PM10),79,107,48,29,22,162,162,152,152,10,14,11,11,1.8,1.6
2023-05-15T18:00:00,2232A,126.4077,41.9419,白山市,环保局,臭氧1小时,67,68,48,33,21,173,173,158,158,8,14,11,11,1.1,1
2023-05-15T18:00:00,2233A,124.8006,45.1214,松原市,江南,,48,48,43,11,17,171,102,149,108,8,10,5,6,0.3,0.4
2023-05-15T18:00:00,2234A,124.7965,45.1722,松原市,江北,,39,39,42,5,16,152,101,131,107,6,9,1,4,0.4,0.5
2023-05-15T18:00:00,2235A,122.7911,45.6077,白城市,洮北区环保局,,33,29,41,4,8,128,103,111,109,7,11,5,5,0.1,0.1
2023-05-15T18:00:00,2236A,122.8738,45.5725,白城市,市环保局,,34,34,45,6,17,144,98,109,106,8,12,3,4,0.2,0.2
2023-05-15T18:00:00,2237A,129.47,42.8883,延边朝鲜族自治州,妇幼医院,,35,35,26,12,16,106,84,84,84,14,12,8,8,0.6,0.6
2023-05-15T18:00:00,2238A,129.5055,42.9108,延边朝鲜族自治州,延边医院,,28,28,24,11,15,97,85,94,85,12,12,7,8,0.5,0.5
2023-05-15T18:00:00,2239A,129.3964,42.8881,延边朝鲜族自治州,朝阳川镇医院,,37,37,27,12,17,107,86,90,90,7,10,9,9,0.5,0.5
2023-05-15T18:00:00,2240A,130.9762,45.3001,鸡西市,环保局,,29,29,29,16,17,101,59,92,89,24,17,9,6,0.5,0.4
2023-05-15T18:00:00,2243A,130.9429,45.3039,鸡西市,第一中学,,37,37,30,20,17,106,67,99,95,21,12,6,5,0.5,0.4
2023-05-15T18:00:00,2244A,130.2537,47.3416,鹤岗市,哈啤分公司,,30,18,26,14,17,116,93,92,92,7,15,12,13,0.2,0.3
2023-05-15T18:00:00,2245A,130.2684,47.3086,鹤岗市,斯达机电,,30,28,32,19,18,114,93,92,92,6,13,8,9,0.3,0.2
2023-05-15T18:00:00,2246A,130.3114,47.3388,鹤岗市,东山纸板厂,,30,21,26,17,16,104,94,94,94,13,19,10,12,0.3,0.4
2023-05-15T18:00:00,2247A,130.1097,47.3382,鹤岗市,五号水库,,32,22,20,20,12,112,100,98,98,4,9,10,10,0.0,0.1
2023-05-15T18:00:00,2248A,131.1511,46.6937,双鸭山市,双合村,,30,30,28,18,15,112,92,99,99,12,7,11,7,0.6,0.1
2023-05-15T18:00:00,2249A,131.1652,46.6191,双鸭山市,南小市,,29,27,28,13,18,105,90,97,96,14,8,5,5,0.2,0.4
2023-05-15T18:00:00,2250A,131.1524,46.6554,双鸭山市,环保局,,29,23,24,16,12,104,90,93,93,12,8,7,7,0.4,0.3
2023-05-15T18:00:00,2251A,131.12,46.5656,双鸭山市,苗圃,,34,26,17,17,9,121,106,114,114,6,6,4,4,0.2,0.3
2023-05-15T18:00:00,2252A,128.5159,47.4311,伊春市,环保局,,30,19,17,3,13,109,95,106,79,10,10,4,5,0.3,0.4
2023-05-15T18:00:00,2253A,128.9102,47.7412,伊春市,电力嘉园,,34,21,36,12,14,125,108,96,90,5,8,5,6,0.5,0.6
2023-05-15T18:00:00,2254A,129.5029,48.471,伊春市,汤旺河国家公园,,35,18,24,15,21,111,109,108,94,2,3,4,4,1.1,1.2
2023-05-15T18:00:00,2255A,130.2751,46.8028,佳木斯市,佳纺,,40,40,31,27,21,112,94,99,99,9,8,4,5,0.5,0.6
2023-05-15T18:00:00,2256A,130.3995,46.8307,佳木斯市,发电厂,,37,37,31,21,17,112,99,101,101,13,16,6,7,0.4,0.4
2023-05-15T18:00:00,2257A,130.3258,46.7975,佳木斯市,环保局,,43,37,28,30,19,111,95,100,100,12,11,5,5,0.4,0.4
2023-05-15T18:00:00,2258A,130.3648,46.8032,佳木斯市,十一中,,40,40,28,23,20,109,93,96,96,17,13,7,7,0.4,0.4
2023-05-15T18:00:00,2259A,130.3794,46.7588,佳木斯市,四丰,,47,28,23,21,17,177,149,153,153,7,5,1,1,0.5,0.4
2023-05-15T18:00:00,2262A,131.0518,45.8751,七台河市,新一中,,45,35,27,31,24,114,106,108,108,12,10,7,8,0.7,0.7
2023-05-15T18:00:00,2263A,127.4833,50.2524,黑河市,交通局,,25,18,11,10,9,112,80,101,87,8,8,4,9,0.5,0.6
2023-05-15T18:00:00,2264A,127.5144,50.2341,黑河市,环保局,,28,19,18,7,9,121,87,99,94,10,10,2,6,0.2,0.3
2023-05-15T18:00:00,2265A,127.5291,50.2472,黑河市,大黑河岛,,32,13,12,3,8,142,101,116,110,3,3,10,15,0.3,0.3
2023-05-15T18:00:00,2266A,126.9785,46.6365,绥化市,人和东街,,33,26,26,10,16,118,104,101,101,7,11,7,11,0.4,0.5
2023-05-15T18:00:00,2267A,126.964,46.6528,绥化市,党政办公中心,,,32,29,19,14,132,110,108,108,8,13,6,11,,0.4
2023-05-15T18:00:00,2269A,124.1069,50.4097,大兴安岭地区,科技局,,41,41,21,11,9,115,84,102,92,3,3,6,6,0.2,0.3
2023-05-15T18:00:00,2270A,117.396,32.939,蚌埠市,工人疗养院,臭氧1小时,68,50,72,23,31,207,174,184,184,14,21,7,12,0.4,0.6
2023-05-15T18:00:00,2271A,117.3605,32.9427,蚌埠市,百货大楼,臭氧1小时,74,62,74,32,32,211,179,185,185,9,16,3,9,0.4,0.5
2023-05-15T18:00:00,2273A,117.4185,32.8911,蚌埠市,蚌埠学院,颗粒物(PM10),57,63,70,22,34,197,155,171,171,12,17,6,13,0.4,0.6
2023-05-15T18:00:00,2274A,117.3533,32.9673,蚌埠市,淮上区政府,臭氧1小时,67,63,75,31,33,203,173,176,176,8,12,7,12,0.4,0.4
2023-05-15T18:00:00,2275A,117.3145,32.8977,蚌埠市,高新区,臭氧1小时,72,73,80,29,38,212,177,177,177,9,20,7,12,0.3,0.5
2023-05-15T18:00:00,2277A,116.8305,32.7727,淮南市,潘集区政府,颗粒物(PM10),53,56,68,25,36,171,151,156,156,9,14,5,8,0.1,0.2
2023-05-15T18:00:00,2278A,117.0067,32.6524,淮南市,师范学院,臭氧1小时,94,64,65,31,34,195,195,163,163,12,12,6,6,0.5,0.6
2023-05-15T18:00:00,2279A,116.8569,32.5951,淮南市,谢家集区政府,臭氧1小时,59,58,56,18,23,172,167,164,164,13,15,4,5,0.2,0.2
2023-05-15T18:00:00,2280A,116.8281,32.633,淮南市,八公山区政府,,50,47,64,18,28,166,160,155,155,12,12,2,7,0.1,0.2
2023-05-15T18:00:00,2281A,116.6325,32.6201,淮南市,焦岗湖风景区管理处,,42,41,48,22,29,153,134,142,142,2,4,9,9,0.1,0.1
2023-05-15T18:00:00,2282A,116.8004,33.975,淮北市,监测站,臭氧1小时,67,72,76,34,41,176,173,163,163,5,11,5,6,0.6,0.6
2023-05-15T18:00:00,2283A,116.8091,33.9007,淮北市,烈山区政府,臭氧1小时,62,71,74,33,41,174,169,161,161,10,18,8,9,0.6,0.7
2023-05-15T18:00:00,2284A,116.7856,33.9477,淮北市,职业技术学院,臭氧1小时,68,75,79,32,42,178,174,167,167,9,15,6,9,0.7,0.8
2023-05-15T18:00:00,2285A,117.8177,30.9412,铜陵市,市第四中学,颗粒物(PM10),53,55,62,26,28,158,151,154,154,15,18,16,22,0.4,0.8
2023-05-15T18:00:00,2286A,117.8059,30.9273,铜陵市,市公路局,颗粒物(PM10),53,56,65,30,31,157,146,148,148,12,12,9,11,0.8,0.9
2023-05-15T18:00:00,2287A,117.7807,30.9413,铜陵市,市新民污水厂,颗粒物(PM10),54,57,76,33,34,159,136,151,151,30,41,12,28,0.5,0.6
2023-05-15T18:00:00,2288A,117.7439,30.8792,铜陵市,市第九中学,颗粒物(PM10),57,63,78,33,30,160,135,147,147,32,34,10,8,0.4,0.5
2023-05-15T18:00:00,2289A,117.846,30.9413,铜陵市,车站新区,颗粒物(PM10),52,54,55,19,22,162,153,156,156,13,16,9,12,0.6,0.6
2023-05-15T18:00:00,2290A,117.8483,30.97,铜陵市,市职教基地,,46,43,56,25,25,149,146,144,144,9,21,7,9,0.4,0.5
2023-05-15T18:00:00,2291A,117.0809,30.5177,安庆市,环科院,颗粒物(PM10),51,52,63,28,40,155,131,146,146,31,23,9,10,0.4,0.5
2023-05-15T18:00:00,2292A,117.0331,30.5119,安庆市,马山宾馆,,45,43,68,26,45,157,143,149,149,18,30,9,13,0.2,0.4
2023-05-15T18:00:00,2294A,116.9896,30.6145,安庆市,安庆大学,颗粒物(PM10),51,51,68,26,40,165,141,155,155,21,18,11,14,0.2,0.3
2023-05-15T18:00:00,2295A,118.2903,29.6963,黄山市,延安路89号,,43,32,47,21,29,142,136,138,138,5,10,6,6,0.1,0.2
2023-05-15T18:00:00,2296A,118.327,29.7178,黄山市,黄山东路89号,,41,30,48,13,29,140,129,135,135,6,15,5,5,0.2,0.4
2023-05-15T18:00:00,2297A,118.1371,30.2756,黄山市,黄山区政府5号楼,,41,39,40,25,20,138,129,135,135,10,8,8,7,0.5,0.5
2023-05-15T18:00:00,2298A,118.3093,32.3153,滁州市,老年大学,臭氧1小时,74,46,61,28,34,188,179,176,176,12,13,13,13,0.3,0.3
2023-05-15T18:00:00,2299A,118.3244,32.2786,滁州市,人大宾馆,臭氧1小时,67,66,69,32,45,186,173,176,176,12,17,9,12,0.5,0.6
2023-05-15T18:00:00,2301A,115.8277,32.8929,阜阳市,市监测站,,46,46,58,22,28,172,144,150,150,18,16,7,9,0.4,0.6
2023-05-15T18:00:00,2303A,115.8554,32.8605,阜阳市,开发区,颗粒物(PM10),51,51,69,22,32,169,151,156,156,12,13,9,10,0.4,0.6
2023-05-15T18:00:00,2307A,116.5079,31.737,六安市,监测大楼,,47,40,49,16,29,151,148,148,148,8,10,5,5,0.3,0.2
2023-05-15T18:00:00,2308A,116.4738,31.7643,六安市,皖西学院,颗粒物(PM10),52,53,52,15,18,163,156,158,158,18,13,6,6,0.3,0.2
2023-05-15T18:00:00,2309A,116.4996,31.7905,六安市,朝阳厂,,48,40,42,11,19,165,151,155,155,6,9,6,6,0.3,0.3
2023-05-15T18:00:00,2310A,116.5567,31.7886,六安市,开发区,,49,48,61,24,29,158,154,154,154,10,15,6,8,0.4,0.4
2023-05-15T18:00:00,2311A,115.8072,33.8399,亳州市,污水处理厂,颗粒物(PM10),61,71,66,32,33,173,160,161,161,6,7,14,13,0.7,0.6
2023-05-15T18:00:00,2312A,115.7789,33.8518,亳州市,三国揽胜宫,颗粒物(PM10),63,75,69,33,33,164,159,154,154,6,8,18,11,0.6,0.5
2023-05-15T18:00:00,2314A,117.47,30.6618,池州市,池州学院,颗粒物(PM10),52,54,59,31,35,162,155,157,157,11,11,7,7,0.5,0.6
2023-05-15T18:00:00,2316A,118.7581,30.9454,宣城市,鳌峰子站,,31,29,51,18,28,109,98,105,105,14,21,4,5,0.4,0.5
2023-05-15T18:00:00,2317A,118.7385,30.9743,宣城市,敬亭山子站,,,,49,20,26,121,105,115,114,17,22,6,6,0.3,0.4
2023-05-15T18:00:00,2318A,118.7173,30.9427,宣城市,开发区子站,,31,29,45,16,28,112,98,108,107,12,19,4,7,0.4,0.5
2023-05-15T18:00:00,2319A,119.0141,25.4325,莆田市,荔城区仓后路,颗粒物(PM10),57,64,79,24,55,195,139,165,165,17,23,7,7,1.0,1.3
2023-05-15T18:00:00,2320A,119.0015,25.4553,莆田市,莆田市监测站,颗粒物(PM10),56,62,76,26,50,212,146,171,171,17,16,7,7,0.8,0.9
2023-05-15T18:00:00,2321A,119.1119,25.4561,莆田市,涵江区六中,颗粒物(PM10),57,63,83,17,64,190,133,162,162,13,25,9,10,0.7,1
2023-05-15T18:00:00,2322A,119.1013,25.3215,莆田市,秀屿区政府,,40,39,63,12,50,165,126,154,154,8,22,6,10,0.8,1
2023-05-15T18:00:00,2323A,118.981,25.4792,莆田市,东圳水库,,,,,,,,,,,,,,,,
2023-05-15T18:00:00,2324A,117.6211,26.2625,三明市,三钢,,46,46,52,27,35,131,107,118,118,25,25,11,13,0.8,1.3
2023-05-15T18:00:00,2325A,117.635,26.2714,三明市,三明二中,,43,32,48,30,32,139,119,126,126,17,26,7,10,0.8,1.4
2023-05-15T18:00:00,2326A,117.6028,26.2378,三明市,三元区政府,,47,47,52,26,38,130,99,120,120,26,21,8,10,0.8,0.8
2023-05-15T18:00:00,2327A,117.7275,26.3108,三明市,洋溪,,,,,,,,,,,,,,,,
2023-05-15T18:00:00,2331A,118.0966,26.6761,南平市,茫荡山,,,,,,,,,,,,,,,,
2023-05-15T18:00:00,2332A,118.1681,26.6369,南平市,南平市监测站,,40,35,48,28,32,133,122,126,126,12,19,4,4,0.6,0.8
2023-05-15T18:00:00,2333A,118.1825,26.6489,南平市,南平铝业有限公司,,40,33,45,28,30,134,124,126,126,10,19,6,7,0.7,0.9
2023-05-15T18:00:00,2334A,118.1756,26.6272,南平市,南平七中,,42,41,48,25,31,141,132,133,133,5,17,4,4,0.6,0.8
2023-05-15T18:00:00,2335A,117.0189,25.1181,龙岩市,龙岩师专,,,,,,,,,,,,,,,,
2023-05-15T18:00:00,2336A,117.0217,25.1033,龙岩市,龙岩市监测站,,40,19,45,20,28,155,126,136,136,13,21,10,11,0.5,0.6
2023-05-15T18:00:00,2337A,117.0258,25.0661,龙岩市,闽西职业技术学院,,45,45,54,24,30,151,119,131,131,15,22,12,21,0.4,0.5
2023-05-15T18:00:00,2338A,117.0196,25.0306,龙岩市,龙岩学院,,36,36,40,19,25,146,112,130,130,6,12,6,6,0.5,0.4
2023-05-15T18:00:00,2339A,119.5001,26.6946,宁德市,金涵水库,,,,,,,,,,,,,,,,
2023-05-15T18:00:00,2341A,119.5388,26.6612,宁德市,宁德市监测站,细颗粒物(PM2.5),65,62,52,47,36,169,154,142,142,18,20,10,8,0.9,0.8
2023-05-15T18:00:00,2342A,117.3102,29.3867,景德镇市,王港中学,,46,46,53,26,30,135,123,126,126,4,5,15,14,0.1,0.2
2023-05-15T18:00:00,2343A,117.2117,29.2933,景德镇市,老干部活动中心,颗粒物(PM10),52,54,75,31,40,142,137,136,136,10,20,12,10,0.4,0.5
2023-05-15T18:00:00,2344A,117.1894,29.2789,景德镇市,兽医站,,47,47,58,32,39,155,148,146,146,6,17,15,12,0.4,0.5
2023-05-15T18:00:00,2345A,117.1547,29.2617,景德镇市,台达陶瓷,颗粒物(PM10),54,58,72,29,43,132,118,123,122,28,29,37,27,0.6,0.6
2023-05-15T18:00:00,2346A,117.2461,29.2956,景德镇市,陶研所,,44,42,67,29,35,141,140,132,132,8,19,6,6,0.5,0.5
2023-05-15T18:00:00,2347A,114.0997,27.5002,萍乡市,武功山,,,33,24,17,20,122,122,90,90,,7,11,23,0.7,0.2
2023-05-15T18:00:00,2348A,113.8385,27.6434,萍乡市,中医院,颗粒物(PM10),52,54,53,30,36,129,121,121,121,13,16,11,12,0.7,0.9
2023-05-15T18:00:00,2349A,113.8493,27.6253,萍乡市,市政府车库,,40,33,59,27,38,126,126,120,120,4,13,17,16,0.5,0.8
2023-05-15T18:00:00,2350A,113.8676,27.6435,萍乡市,市环保局,,42,42,62,22,39,138,114,120,120,15,18,14,16,0.6,0.8
2023-05-15T18:00:00,2351A,113.866,27.6198,萍乡市,安源区政府,,35,33,54,20,38,121,111,110,110,9,18,16,15,0.4,0.8
2023-05-15T18:00:00,2352A,115.0861,27.9317,新余市,北岗,,40,36,46,28,38,117,109,103,103,2,17,8,10,0.5,0.6
2023-05-15T18:00:00,2353A,114.9886,27.8431,新余市,飞宇,,50,50,69,26,38,128,128,117,117,12,18,5,8,0.5,0.6
2023-05-15T18:00:00,2354A,114.9231,27.8246,新余市,第二水厂,颗粒物(PM10),52,54,73,26,41,116,115,104,104,8,14,8,18,0.4,0.7
2023-05-15T18:00:00,2355A,114.9308,27.8036,新余市,市气象局,,44,44,68,27,45,131,126,116,116,5,15,8,14,0.5,1
2023-05-15T18:00:00,2357A,116.9822,28.1136,鹰潭市,龙虎山,,,0,38,,25,117,88,88,88,4,2,42,5,0.6,0.7
2023-05-15T18:00:00,2358A,117.0564,28.2642,鹰潭市,新监测站,,44,44,53,20,24,147,133,141,140,3,13,12,12,0.4,0.4
2023-05-15T18:00:00,2359A,117.0311,28.2475,鹰潭市,财苑宾馆,,42,31,53,20,25,149,134,139,139,4,20,5,8,0.3,0.3
2023-05-15T18:00:00,2360A,117.0222,28.2264,鹰潭市,体育馆,,45,45,48,19,22,140,128,133,133,6,15,2,6,0.2,0.4
2023-05-15T18:00:00,2361A,117.0017,28.2131,鹰潭市,三川水表,,48,48,48,16,21,138,121,131,131,8,5,1,2,0.3,0.3
2023-05-15T18:00:00,2362A,114.9017,25.9149,赣州市,通天岩,,48,48,54,30,35,166,138,146,146,15,16,17,11,0.8,0.8
2023-05-15T18:00:00,2363A,114.9367,25.8664,赣州市,地委,,50,50,70,32,41,158,131,147,147,21,25,11,10,1.3,1.3
2023-05-15T18:00:00,2364A,114.9461,25.8481,赣州市,气象台,,48,41,62,22,35,156,152,145,145,17,24,5,7,0.9,0.9
2023-05-15T18:00:00,2365A,114.9322,25.8333,赣州市,市图书馆,,36,36,67,24,35,152,98,127,127,16,27,5,7,1.2,1.3
2023-05-15T18:00:00,2366A,114.8905,25.8471,赣州市,华坚鞋城,颗粒物(PM10),61,71,78,26,39,150,50,124,117,67,31,10,15,0.9,0.9
2023-05-15T18:00:00,2367A,114.9754,27.0803,吉安市,红声器材厂,,48,48,63,20,38,133,133,130,130,8,11,11,16,0.5,0.5
2023-05-15T18:00:00,2368A,114.9658,27.0999,吉安市,市森林工业局,,47,47,60,24,40,132,109,120,120,10,15,8,14,0.6,0.7
2023-05-15T18:00:00,2369A,114.99,27.1312,吉安市,市环境监测站,,49,49,59,23,35,140,120,132,132,13,16,9,16,0.5,0.5
2023-05-15T18:00:00,2370A,115.0093,27.0968,吉安市,青原区法院,,40,40,59,20,36,134,117,126,126,16,17,12,18,0.5,0.6
2023-05-15T18:00:00,2371A,114.3408,27.8064,宜春市,槟榔水业,,43,43,61,17,37,136,109,113,113,7,16,18,15,0.6,0.8
2023-05-15T18:00:00,2373A,114.3956,27.7844,宜春市,市石油公司,,,51,61,26,36,142,113,118,118,12,17,5,5,,0.8
2023-05-15T18:00:00,2374A,114.3703,27.7914,宜春市,市气象局,细颗粒物(PM2.5),94,62,59,70,45,138,115,121,121,16,18,6,6,0.6,0.8
2023-05-15T18:00:00,2375A,114.4013,27.8074,宜春市,市广电局,颗粒物(PM10),52,53,61,31,38,133,109,114,114,12,16,11,11,0.5,0.7
2023-05-15T18:00:00,2376A,116.2127,28.0814,抚州市,桐源党溪,,39,32,44,14,26,161,123,149,149,5,4,1,2,0.5,0.6
2023-05-15T18:00:00,2377A,116.3544,27.9831,抚州市,市站,,39,37,55,21,28,132,124,123,123,9,13,1,3,0.3,0.5
2023-05-15T18:00:00,2378A,116.3565,27.963,抚州市,血防站,,39,39,55,19,28,131,121,121,121,6,13,5,6,0.5,0.6
2023-05-15T18:00:00,2379A,116.3564,28.0007,抚州市,采茶剧团,,38,36,53,13,28,137,121,124,124,7,13,5,6,0.4,0.6
2023-05-15T18:00:00,2380A,116.385,27.9647,抚州市,医学分院,,39,34,55,18,24,127,124,119,119,8,17,5,7,0.6,0.6
2023-05-15T18:00:00,2381A,118.005,28.4572,上饶市,百草园,臭氧1小时,65,37,53,16,30,172,172,154,154,3,6,4,12,0.2,0.2
2023-05-15T18:00:00,2382A,117.9756,28.4436,上饶市,市监测站,臭氧1小时,64,54,66,22,35,179,171,159,159,7,22,9,15,0.5,0.6
2023-05-15T18:00:00,2383A,117.9519,28.4628,上饶市,凤凰光学,颗粒物(PM10),52,54,74,24,37,173,160,156,156,6,25,6,17,0.5,0.7
2023-05-15T18:00:00,2385A,114.17,35.9019,鹤壁市,市监测站,臭氧1小时,106,91,119,46,48,231,211,186,186,21,42,4,10,0.6,0.7
2023-05-15T18:00:00,2386A,114.2956,35.7511,鹤壁市,市交警支队,臭氧1小时,73,83,94,50,45,216,178,180,180,13,33,11,11,0.4,0.5
