timepoint,stationcode,longitude,latitude,area,positionname,primarypollutant,aqi,pm10,pm10_24h,pm2_5,pm2_5_24h,o3,o3_24h,o3_8h,o3_8h_24h,no2,no2_24h,so2,so2_24h,co,co_24h
2023-05-15T22:00:00,1001A,116.3621,39.8784,北京市,万寿西宫,颗粒物(PM10),69,88,98,35,56,246,142,225,205,28,24,2,3,0.9,1
2023-05-15T22:00:00,1002A,116.2202,40.2915,北京市,定陵,颗粒物(PM10),71,92,75,32,37,308,168,264,251,13,14,3,3,0.7,0.8
2023-05-15T22:00:00,1003A,116.4174,39.9289,北京市,东四,颗粒物(PM10),72,93,107,28,59,276,165,255,237,26,25,5,5,1.2,1
2023-05-15T22:00:00,1004A,116.4072,39.8863,北京市,天坛,颗粒物(PM10),66,82,96,31,54,261,131,238,216,25,26,1,3,0.7,0.9
2023-05-15T22:00:00,1005A,116.462,39.9365,北京市,农展馆,颗粒物(PM10),69,87,102,32,55,246,149,226,209,24,32,2,3,0.8,0.9
2023-05-15T22:00:00,1006A,116.3392,39.9295,北京市,官园,颗粒物(PM10),69,88,101,33,58,243,150,222,209,27,29,5,5,0.7,0.8
2023-05-15T22:00:00,1007A,116.2878,39.9611,北京市,海淀万柳,颗粒物(PM10),73,95,104,29,57,192,122,182,166,31,47,3,3,0.7,0.8
2023-05-15T22:00:00,1008A,116.6636,40.135,北京市,顺义新城,细颗粒物(PM2.5),139,179,113,106,65,271,187,240,234,29,19,2,4,1.0,1
2023-05-15T22:00:00,1009A,116.6275,40.3275,北京市,怀柔镇,细颗粒物(PM2.5),107,148,108,80,55,288,190,260,251,42,20,3,4,1.0,0.8
2023-05-15T22:00:00,1010A,116.2296,40.217,北京市,昌平镇,颗粒物(PM10),72,94,91,35,48,273,156,233,220,8,5,2,3,0.8,0.8
2023-05-15T22:00:00,1011A,116.3966,39.9821,北京市,奥体中心,颗粒物(PM10),70,89,104,33,53,243,150,223,208,28,34,3,3,0.8,0.8
2023-05-15T22:00:00,1012A,116.184,39.9136,北京市,古城,颗粒物(PM10),87,123,108,31,55,238,153,222,208,28,36,2,2,0.8,0.9
2023-05-15T22:00:00,1015A,117.1444,39.1661,天津市,勤俭道,颗粒物(PM10),91,131,128,34,71,239,139,223,195,21,38,12,11,0.7,0.9
2023-05-15T22:00:00,1017A,117.237,39.1082,天津市,大直沽八号路,颗粒物(PM10),86,122,117,44,73,220,131,207,183,20,43,6,10,0.7,0.7
2023-05-15T22:00:00,1018A,117.202,39.0927,天津市,前进道,颗粒物(PM10),92,134,139,45,76,234,140,224,205,26,45,10,9,0.7,0.9
2023-05-15T22:00:00,1019A,117.1837,39.2133,天津市,淮河道,细颗粒物(PM2.5),54,52,104,38,59,259,153,234,210,21,39,10,9,0.7,0.8
2023-05-15T22:00:00,1021A,117.307,39.0877,天津市,跃进路,颗粒物(PM10),88,126,131,44,67,248,148,232,208,17,39,10,10,0.8,0.9
2023-05-15T22:00:00,1023A,117.707,39.0343,天津市,第四大街,颗粒物(PM10),76,102,84,35,49,250,160,205,200,16,53,5,5,0.8,0.9
2023-05-15T22:00:00,1024A,117.457,38.8394,天津市,永明路,颗粒物(PM10),82,113,94,40,48,243,145,210,191,20,30,9,9,0.6,0.6
2023-05-15T22:00:00,1026A,117.764,39.1587,天津市,汉北路,臭氧1小时,55,44,77,20,43,256,164,208,200,13,24,5,7,0.8,0.9
2023-05-15T22:00:00,1027A,117.157,38.9194,天津市,团泊洼,细颗粒物(PM2.5),118,92,100,89,56,244,152,224,199,25,39,6,6,0.6,0.8
2023-05-15T22:00:00,1029A,114.4422,38.0444,石家庄市,职工医院,"颗粒物(PM10),细颗粒物(PM2.5)",98,146,114,73,43,245,122,205,177,26,39,7,14,0.4,0.5
2023-05-15T22:00:00,1030A,114.6063,38.0266,石家庄市,高新区,颗粒物(PM10),70,89,110,32,40,243,136,204,180,13,30,6,8,0.6,0.7
2023-05-15T22:00:00,1031A,114.4898,38.1328,石家庄市,西北水源,颗粒物(PM10),91,132,121,41,49,244,136,207,182,18,33,10,10,0.7,0.8
2023-05-15T22:00:00,1032A,114.4586,38.0058,石家庄市,西南高教,颗粒物(PM10),86,122,108,51,43,247,117,204,176,29,38,10,10,0.8,0.9
2023-05-15T22:00:00,1033A,114.5331,38.0178,石家庄市,世纪公园,颗粒物(PM10),75,100,98,41,41,231,120,188,167,20,31,8,9,0.6,0.8
2023-05-15T22:00:00,1034A,114.509,38.0457,石家庄市,人民会堂,颗粒物(PM10),83,116,111,34,44,249,130,199,178,22,36,12,13,0.7,0.9
2023-05-15T22:00:00,1035A,114.3524,37.8911,石家庄市,封龙山,细颗粒物(PM2.5),132,202,99,100,27,264,170,210,198,7,11,21,9,0.6,0.7
2023-05-15T22:00:00,1037A,118.131,39.6363,唐山市,雷达站,颗粒物(PM10),88,125,112,52,66,310,135,253,232,28,23,6,10,0.6,1.4
2023-05-15T22:00:00,1038A,118.1725,39.6334,唐山市,物资局,颗粒物(PM10),88,125,120,50,60,293,120,236,213,35,28,11,13,0.8,1.5
2023-05-15T22:00:00,1040A,118.1705,39.6506,唐山市,十二中,颗粒物(PM10),81,112,102,54,60,309,131,241,222,28,25,11,13,0.8,1.5
2023-05-15T22:00:00,1041A,118.1869,39.622,唐山市,小山,颗粒物(PM10),97,144,117,55,56,322,118,256,230,31,18,11,13,0.7,1.4
2023-05-15T22:00:00,1042A,119.5134,39.8207,秦皇岛市,北戴河环保局,细颗粒物(PM2.5),89,75,65,66,50,160,160,153,153,14,15,2,3,0.3,0.2
2023-05-15T22:00:00,1043A,119.7493,40.0116,秦皇岛市,第一关,细颗粒物(PM2.5),144,120,81,110,59,172,102,149,142,48,33,1,2,0.5,0.5
2023-05-15T22:00:00,1044A,119.5897,39.9499,秦皇岛市,监测站,细颗粒物(PM2.5),104,120,96,78,65,172,126,142,141,28,29,2,2,0.5,0.5
2023-05-15T22:00:00,1046A,119.5251,39.9041,秦皇岛市,建设大厦,细颗粒物(PM2.5),119,120,89,90,60,158,138,145,143,22,24,6,7,0.5,0.4
2023-05-15T22:00:00,1048A,114.5302,36.6116,邯郸市,东污水处理厂,颗粒物(PM10),62,74,93,34,36,174,111,164,146,12,26,2,4,0.2,0.4
2023-05-15T22:00:00,1049A,114.4918,36.5713,邯郸市,矿院,细颗粒物(PM2.5),58,64,77,41,41,183,113,175,156,13,36,4,8,0.5,0.7
2023-05-15T22:00:00,1050A,114.484,36.6133,邯郸市,丛台公园,颗粒物(PM10),68,85,95,39,39,180,110,171,151,11,24,5,8,0.6,0.8
2023-05-15T22:00:00,1051A,115.493,38.8632,保定市,游泳馆,颗粒物(PM10),74,98,90,43,63,230,105,207,165,14,33,14,15,0.2,0.4
2023-05-15T22:00:00,1052A,115.5213,38.8959,保定市,华电二区,颗粒物(PM10),78,105,119,32,52,223,130,208,182,13,34,5,9,0.7,0.7
2023-05-15T22:00:00,1053A,115.4713,38.9108,保定市,接待中心,颗粒物(PM10),82,113,125,36,43,219,132,203,179,9,30,11,10,0.5,0.7
2023-05-15T22:00:00,1054A,115.4612,38.8416,保定市,地表水厂,颗粒物(PM10),91,132,130,35,44,218,123,194,170,16,43,8,12,0.4,0.7
2023-05-15T22:00:00,1056A,115.5086,38.8639,保定市,监测站,颗粒物(PM10),88,125,122,50,52,236,139,219,194,15,36,12,10,0.3,0.5
2023-05-15T22:00:00,1057A,114.8883,40.8336,张家口市,人民公园,颗粒物(PM10),59,67,64,21,16,145,93,137,120,9,11,4,5,0.4,0.4
2023-05-15T22:00:00,1059A,114.8687,40.8042,张家口市,五金库,颗粒物(PM10),60,70,56,28,18,140,52,130,111,45,20,4,4,0.7,0.4
2023-05-15T22:00:00,1060A,114.8902,40.762,张家口市,世纪豪园,颗粒物(PM10),72,94,60,46,32,143,40,135,107,67,17,2,2,0.7,0.3
2023-05-15T22:00:00,1061A,114.8916,40.8661,张家口市,北泵房,颗粒物(PM10),57,63,62,24,20,147,82,142,118,15,12,9,10,0.4,0.4
2023-05-15T22:00:00,1062A,117.9531,40.9081,承德市,铁路,臭氧1小时,112,126,67,40,30,224,224,186,186,29,23,15,11,0.7,0.5
2023-05-15T22:00:00,1063A,117.9392,40.9763,承德市,中国银行,臭氧1小时,123,126,70,55,32,246,246,182,182,20,22,10,9,0.7,0.5
2023-05-15T22:00:00,1064A,117.9503,40.928,承德市,开发区,臭氧1小时,122,112,68,45,31,243,243,192,192,21,25,13,10,0.8,0.6
2023-05-15T22:00:00,1065A,117.8051,40.9655,承德市,文化中心,颗粒物(PM10),74,98,75,48,35,189,156,151,151,29,27,10,11,0.7,0.6
2023-05-15T22:00:00,1066A,117.9268,41.0026,承德市,离宫,颗粒物(PM10),74,97,62,47,30,189,154,157,148,13,19,6,7,0.7,0.5
2023-05-15T22:00:00,1067A,116.6708,39.5111,廊坊市,药材公司,颗粒物(PM10),90,129,118,46,58,257,135,228,205,20,28,9,7,0.7,0.9
2023-05-15T22:00:00,1068A,116.7214,39.5589,廊坊市,开发区,颗粒物(PM10),84,117,108,49,70,262,151,238,216,26,31,10,9,0.6,0.9
2023-05-15T22:00:00,1070A,116.7244,39.5269,廊坊市,北华航天学院,颗粒物(PM10),98,146,126,57,66,253,139,223,204,18,26,6,8,0.5,0.8
2023-05-15T22:00:00,1071A,116.8842,38.2991,沧州市,沧县城建局,,,80,92,47,42,209,,193,177,14,23,10,12,0.6,0.7
2023-05-15T22:00:00,1072A,116.8584,38.3254,沧州市,电视转播站,细颗粒物(PM2.5),79,104,99,58,56,214,141,194,175,21,30,13,14,0.4,0.6
2023-05-15T22:00:00,1073A,116.8709,38.3228,沧州市,市环保局,颗粒物(PM10),81,111,106,47,47,214,131,193,169,22,31,10,13,0.2,0.5
2023-05-15T22:00:00,1074A,115.6838,37.7541,衡水市,电机北厂,,,,118,29,48,217,142,200,187,10,19,7,8,0.6,0.7
2023-05-15T22:00:00,1075A,115.6303,37.7316,衡水市,市监测站,颗粒物(PM10),80,109,114,49,51,214,138,195,181,12,21,9,10,0.6,0.8
2023-05-15T22:00:00,1077A,114.4704,37.0886,邢台市,达活泉,颗粒物(PM10),66,81,103,30,32,250,139,200,178,9,26,10,12,0.7,0.9
2023-05-15T22:00:00,1078A,114.5062,37.0349,邢台市,邢师高专,颗粒物(PM10),75,100,109,44,39,225,131,182,162,12,34,5,9,0.4,0.9
2023-05-15T22:00:00,1079A,114.5237,37.0851,邢台市,路桥公司,颗粒物(PM10),70,90,100,38,36,234,131,188,166,14,29,7,11,0.2,0.7
2023-05-15T22:00:00,1080A,114.4725,37.0719,邢台市,市环保局,颗粒物(PM10),78,105,100,46,41,249,130,200,176,5,22,6,11,0.5,0.9
2023-05-15T22:00:00,1081A,112.522,37.8873,太原市,尖草坪,颗粒物(PM10),86,122,126,47,46,195,109,176,160,37,50,7,13,0.6,0.8
2023-05-15T22:00:00,1083A,112.434,38.0108,太原市,上兰,颗粒物(PM10),68,86,86,43,47,188,135,163,158,7,14,9,15,0.6,0.6
2023-05-15T22:00:00,1084A,112.469,37.7124,太原市,晋源,颗粒物(PM10),73,95,116,46,49,208,90,173,137,51,52,10,13,0.4,0.6
2023-05-15T22:00:00,1085A,112.5583,37.7394,太原市,小店,颗粒物(PM10),93,136,155,43,64,195,64,169,135,78,63,12,13,0.7,0.7
2023-05-15T22:00:00,1086A,112.5369,37.8692,太原市,桃园,颗粒物(PM10),72,94,110,44,49,191,108,171,155,40,54,6,12,0.5,0.7
2023-05-15T22:00:00,1087A,112.57,37.8195,太原市,坞城,颗粒物(PM10),77,103,137,41,52,194,116,172,153,30,57,6,11,0.5,0.7
2023-05-15T22:00:00,1088A,112.549,37.9854,太原市,南寨,颗粒物(PM10),86,122,119,51,49,188,49,167,139,76,46,7,13,0.6,0.7
2023-05-15T22:00:00,1090A,111.6507,40.7517,呼和浩特市,呼市一监,颗粒物(PM10),163,276,95,54,32,148,118,134,133,15,38,10,9,0.5,0.5
2023-05-15T22:00:00,1091A,111.6572,40.8033,呼和浩特市,小召,颗粒物(PM10),168,285,78,56,32,139,115,123,122,21,37,12,13,0.4,0.5
2023-05-15T22:00:00,1094A,111.7516,40.8369,呼和浩特市,如意水处理厂,颗粒物(PM10),122,194,84,52,29,138,113,125,125,14,34,10,9,0.4,0.4
2023-05-15T22:00:00,1095A,111.7276,40.8062,呼和浩特市,二十九中,颗粒物(PM10),141,231,79,49,26,142,116,128,128,19,42,9,8,0.5,0.4
2023-05-15T22:00:00,1096A,111.5512,40.7866,呼和浩特市,工大金川校区,颗粒物(PM10),130,210,80,55,28,144,121,126,126,15,38,7,9,0.4,0.4
2023-05-15T22:00:00,1097A,111.717,40.7612,呼和浩特市,化肥厂生活区,颗粒物(PM10),148,245,117,95,44,126,105,114,113,17,40,10,10,0.4,0.3
2023-05-15T22:00:00,1098A,123.6836,41.9339,沈阳市,森林路,,,,,,,,,,,,,,,,
2023-05-15T22:00:00,1099A,123.505,41.7406,沈阳市,浑南东路,颗粒物(PM10),57,64,50,30,26,175,108,149,122,26,25,14,18,0.8,0.7
2023-05-15T22:00:00,1100A,123.4231,41.6989,沈阳市,新秀街,颗粒物(PM10),56,62,56,26,22,175,120,157,132,20,17,10,21,0.9,0.8
2023-05-15T22:00:00,1102A,123.5903,41.8411,沈阳市,东陵路,颗粒物(PM10),62,74,63,33,23,181,116,150,126,24,23,13,16,0.9,0.9
2023-05-15T22:00:00,1103A,123.4264,41.8467,沈阳市,陵东街,颗粒物(PM10),56,61,57,29,24,180,120,162,140,23,20,9,14,0.9,0.9
2023-05-15T22:00:00,1104A,123.4114,41.7653,沈阳市,文化路,颗粒物(PM10),58,65,64,40,32,184,130,165,141,18,18,9,18,0.8,0.8
2023-05-15T22:00:00,1105A,123.4678,41.7867,沈阳市,小河沿,颗粒物(PM10),59,68,52,34,25,177,104,155,129,28,25,8,13,0.7,0.7
2023-05-15T22:00:00,1106A,123.4017,41.7972,沈阳市,太原街,颗粒物(PM10),59,67,56,37,28,184,127,163,139,23,23,12,19,0.7,0.6
2023-05-15T22:00:00,1108A,123.3783,41.9228,沈阳市,京沈街,颗粒物(PM10),54,58,59,36,28,179,123,164,142,19,17,12,18,0.8,0.8
2023-05-15T22:00:00,1109A,121.612,38.9741,大连市,甘井子,颗粒物(PM10),62,74,47,32,30,147,108,122,103,30,22,6,5,0.7,0.5
2023-05-15T22:00:00,1110A,121.565,38.9511,大连市,周水子,颗粒物(PM10),58,66,50,28,30,149,113,132,126,33,26,9,5,0.8,0.7
2023-05-15T22:00:00,1111A,121.5637,38.8845,大连市,星海三站,颗粒物(PM10),59,67,62,33,32,160,94,144,131,28,17,4,4,0.7,0.6
2023-05-15T22:00:00,1112A,121.6302,38.9117,大连市,青泥洼桥,颗粒物(PM10),62,73,55,29,28,160,127,140,132,19,15,6,6,0.7,0.7
2023-05-15T22:00:00,1113A,121.6251,38.8638,大连市,傅家庄,颗粒物(PM10),53,56,49,32,31,188,143,168,167,13,11,7,6,0.8,0.7
2023-05-15T22:00:00,1114A,121.5213,38.8661,大连市,七贤岭,颗粒物(PM10),61,72,56,38,34,189,149,171,168,16,12,6,6,0.5,0.4
2023-05-15T22:00:00,1115A,121.2529,38.8061,大连市,旅顺,颗粒物(PM10),62,73,54,29,31,194,162,179,179,15,16,8,8,0.6,0.6
2023-05-15T22:00:00,1116A,121.7485,39.1311,大连市,金州,,46,46,40,24,26,173,120,143,134,10,12,7,7,0.9,0.7
2023-05-15T22:00:00,1117A,121.7811,39.0496,大连市,开发区,颗粒物(PM10),54,58,43,27,25,153,106,134,115,21,19,4,4,0.8,0.5
2023-05-15T22:00:00,1118A,121.9762,39.0631,大连市,双D港,,36,36,25,22,17,138,114,121,113,6,8,5,5,0.5,0.5
2023-05-15T22:00:00,1119A,125.3325,43.9166,长春市,食品厂,颗粒物(PM10),55,59,53,19,21,133,17,116,72,78,29,8,8,0.5,0.5
2023-05-15T22:00:00,1120A,125.2863,43.9027,长春市,客车厂,,44,44,65,23,22,132,21,116,73,75,26,6,6,0.6,0.5
2023-05-15T22:00:00,1121A,125.2841,43.8463,长春市,邮电学院,,38,38,54,23,20,134,24,121,88,61,19,5,7,0.4,0.5
2023-05-15T22:00:00,1122A,125.3716,43.8772,长春市,劳动公园,,48,48,48,21,19,146,41,132,99,48,18,6,8,0.5,0.5
2023-05-15T22:00:00,1123A,125.3297,43.8805,长春市,园林处,,44,44,51,11,15,129,25,115,83,65,22,3,4,0.4,0.5
2023-05-15T22:00:00,1124A,125.4605,43.79,长春市,净月潭,,28,28,39,9,16,148,56,136,102,21,11,3,5,0.4,0.5
2023-05-15T22:00:00,1125A,125.7194,43.515,长春市,甩湾子,,,,,,,,,,,,,,,,
2023-05-15T22:00:00,1126A,125.3863,43.8447,长春市,经开区环卫处,,38,38,43,19,17,143,37,129,86,48,20,6,8,0.4,0.4
2023-05-15T22:00:00,1127A,125.245,43.7783,长春市,高新区管委会,颗粒物(PM10),59,68,51,16,18,147,11,135,93,67,17,5,7,0.4,0.4
2023-05-15T22:00:00,1128A,125.1761,43.8325,长春市,岱山公园,颗粒物(PM10),64,77,50,16,18,136,3,123,79,86,22,6,6,0.3,0.4
2023-05-15T22:00:00,1129A,126.5422,45.755,哈尔滨市,岭北,,49,49,32,12,13,115,58,107,95,20,11,5,14,0.5,0.2
2023-05-15T22:00:00,1130A,126.561,45.8167,哈尔滨市,松北商大,,40,40,33,9,11,109,57,99,87,28,16,5,6,0.4,0.5
2023-05-15T22:00:00,1131A,126.979,45.5419,哈尔滨市,阿城会宁,,34,34,35,11,15,105,67,100,89,20,14,7,9,0.3,0.4
2023-05-15T22:00:00,1132A,126.599,45.7222,哈尔滨市,南岗学府路,,44,44,43,6,12,107,59,100,90,22,12,4,6,0.4,0.5
2023-05-15T22:00:00,1133A,126.689,45.7733,哈尔滨市,太平宏伟公园,,48,48,40,18,15,105,64,97,91,25,19,5,6,0.3,0.4
2023-05-15T22:00:00,1134A,126.635,45.7667,哈尔滨市,道外承德广场,,32,32,36,11,13,112,69,102,96,23,18,8,9,0.4,0.5
2023-05-15T22:00:00,1135A,126.685,45.7319,哈尔滨市,香坊红旗大街,,48,48,41,11,24,112,76,106,99,17,18,9,9,0.3,0.4
2023-05-15T22:00:00,1136A,126.6411,45.7258,哈尔滨市,动力和平路,,40,40,41,8,15,109,66,102,93,26,20,8,11,0.4,0.5
2023-05-15T22:00:00,1137A,126.593,45.7478,哈尔滨市,道里建国路,,,,,,,,,,,,,,,,
2023-05-15T22:00:00,1138A,126.615,45.61,哈尔滨市,平房东轻厂,,47,47,36,9,13,109,32,103,87,49,16,5,6,0.6,0.6
2023-05-15T22:00:00,1139A,126.595,45.9855,哈尔滨市,呼兰师专,,33,33,41,8,11,112,59,106,94,31,15,8,10,0.4,0.5
2023-05-15T22:00:00,1140A,126.6206,45.6842,哈尔滨市,省农科院,颗粒物(PM10),53,55,44,10,13,114,43,109,96,48,21,11,13,0.3,0.5
2023-05-15T22:00:00,1141A,121.4,31.238,上海市,普陀,颗粒物(PM10),56,61,76,30,43,215,155,202,195,35,38,9,8,0.6,0.7
2023-05-15T22:00:00,1142A,121.478,31.2036,上海市,十五厂,,,,80,,52,215,,210,208,,54,,10,,0.6
2023-05-15T22:00:00,1143A,121.467,31.3008,上海市,虹口,细颗粒物(PM2.5),62,66,74,44,39,202,141,186,180,35,36,11,11,0.5,0.6
2023-05-15T22:00:00,1144A,121.412,31.1654,上海市,徐汇上师大,颗粒物(PM10),65,80,66,38,46,210,136,187,178,51,44,17,11,0.5,0.6
2023-05-15T22:00:00,1145A,121.536,31.2659,上海市,杨浦四漂,颗粒物(PM10),59,68,84,40,42,211,137,192,180,42,52,8,10,0.7,0.8
2023-05-15T22:00:00,1147A,121.425,31.2261,上海市,静安监测站,颗粒物(PM10),61,71,74,32,40,207,151,193,186,32,37,8,8,0.6,0.7
2023-05-15T22:00:00,1148A,121.703,31.1907,上海市,浦东川沙,,,88,91,43,54,228,102,185,173,32,27,6,9,,0.8
2023-05-15T22:00:00,1149A,121.533,31.2284,上海市,浦东新区监测站,颗粒物(PM10),63,75,80,34,45,232,156,212,202,28,37,9,10,0.6,0.6
2023-05-15T22:00:00,1150A,121.577,31.2071,上海市,浦东张江,颗粒物(PM10),62,74,88,35,49,207,158,197,189,29,44,6,6,0.7,0.9
2023-05-15T22:00:00,1151A,118.8086,32.1065,南京市,迈皋桥,颗粒物(PM10),69,87,69,29,30,227,35,210,166,85,30,9,16,0.4,0.8
2023-05-15T22:00:00,1152A,118.7538,32.0551,南京市,草场门,颗粒物(PM10),52,53,70,31,32,209,58,193,160,70,32,3,13,0.9,1.4
2023-05-15T22:00:00,1153A,118.7794,32.0745,南京市,山西路,颗粒物(PM10),58,66,73,24,31,212,57,198,164,53,24,6,17,0.5,1.1
2023-05-15T22:00:00,1154A,118.7752,32.0023,南京市,中华门,,39,39,59,19,26,215,99,190,161,34,26,3,11,0.6,1.1
2023-05-15T22:00:00,1155A,118.8109,32.0309,南京市,瑞金路,颗粒物(PM10),61,71,69,39,30,222,7,195,135,115,33,4,9,1.1,1
2023-05-15T22:00:00,1156A,118.7997,32.0754,南京市,玄武湖,颗粒物(PM10),52,54,65,26,30,209,40,191,155,71,23,6,14,0.9,1.3
2023-05-15T22:00:00,1157A,118.6414,32.0931,南京市,浦口,颗粒物(PM10),61,72,72,31,34,206,128,185,171,23,19,7,12,0.3,0.5
2023-05-15T22:00:00,1158A,118.7356,31.9996,南京市,奥体中心,颗粒物(PM10),71,91,74,39,33,199,10,183,141,125,37,10,17,0.7,1.2
2023-05-15T22:00:00,1159A,118.9125,32.1028,南京市,仙林大学城,颗粒物(PM10),65,80,65,29,28,222,56,194,160,47,27,8,16,0.6,1
2023-05-15T22:00:00,1160A,120.561,31.2472,苏州市,上方山,颗粒物(PM10),59,68,58,30,36,191,126,176,171,28,23,10,9,0.6,0.5
2023-05-15T22:00:00,1162A,120.591,31.3019,苏州市,彩香,颗粒物(PM10),70,90,64,37,31,209,160,194,192,18,24,9,7,0.6,0.6
2023-05-15T22:00:00,1163A,120.596,31.3264,苏州市,轧钢厂,颗粒物(PM10),67,83,65,40,31,201,151,186,183,19,23,11,9,0.7,0.7
2023-05-15T22:00:00,1164A,120.613,31.2703,苏州市,吴中区,颗粒物(PM10),69,87,67,41,33,206,154,192,187,27,34,10,9,0.8,0.7
2023-05-15T22:00:00,1165A,120.543,31.2994,苏州市,苏州新区,细颗粒物(PM2.5),65,77,65,47,33,204,148,186,184,24,18,8,7,0.7,0.6
2023-05-15T22:00:00,1166A,120.669,31.3097,苏州市,苏州工业园区,颗粒物(PM10),73,95,67,49,33,208,158,191,187,20,25,10,10,0.6,0.6
2023-05-15T22:00:00,1167A,120.641,31.3708,苏州市,相城区,颗粒物(PM10),60,69,63,41,30,206,147,188,185,30,25,9,8,0.6,0.6
2023-05-15T22:00:00,1168A,120.9098,31.9663,南通市,狼山街道,颗粒物(PM10),71,91,59,41,31,175,153,168,155,38,39,13,10,0.6,0.6
2023-05-15T22:00:00,1169A,120.86,32.0005,南通市,虹桥,颗粒物(PM10),69,87,73,38,36,182,159,162,150,39,51,10,12,0.6,0.7
2023-05-15T22:00:00,1170A,120.87,32.02,南通市,城中,颗粒物(PM10),70,89,70,38,34,184,158,165,155,30,39,10,11,0.6,0.8
2023-05-15T22:00:00,1171A,120.94,31.93,南通市,星湖花园,颗粒物(PM10),71,91,69,41,33,179,131,172,159,48,38,10,10,0.5,0.6
2023-05-15T22:00:00,1172A,120.81,32.0417,南通市,紫琅学院,颗粒物(PM10),77,104,77,39,35,172,116,141,109,70,67,11,13,0.6,0.7
2023-05-15T22:00:00,1173A,119.176,34.5885,连云港市,市环境监测站,颗粒物(PM10),70,90,89,39,34,186,130,168,159,16,10,8,9,0.4,0.4
2023-05-15T22:00:00,1177A,117.179,34.2761,徐州市,黄河新村,颗粒物(PM10),60,70,81,30,35,180,135,172,159,15,12,10,10,0.7,0.7
2023-05-15T22:00:00,1178A,117.1918,34.2384,徐州市,淮塔,颗粒物(PM10),67,84,77,41,36,182,136,177,165,20,11,11,12,0.6,0.7
2023-05-15T22:00:00,1180A,117.256,34.2153,徐州市,新城区,颗粒物(PM10),70,90,79,39,33,172,114,167,154,21,13,6,8,0.7,0.7
2023-05-15T22:00:00,1181A,117.244,34.2911,徐州市,桃园路,颗粒物(PM10),58,66,82,29,32,171,132,165,155,14,14,9,10,0.6,0.7
2023-05-15T22:00:00,1182A,117.2933,34.2778,徐州市,农科院,颗粒物(PM10),59,68,71,29,27,184,133,174,164,17,14,8,9,0.6,0.7
2023-05-15T22:00:00,1186A,119.389,32.3761,扬州市,邗江监测站,,,56,75,36,32,190,,180,156,,28,10,13,0.6,0.9
2023-05-15T22:00:00,1188A,120.269,31.4867,无锡市,雪浪,臭氧1小时,79,75,52,36,25,210,183,194,194,19,13,10,10,0.6,0.6
2023-05-15T22:00:00,1189A,120.275,31.6219,无锡市,黄巷,颗粒物(PM10),66,81,57,39,25,194,170,181,180,36,24,7,7,1.0,0.8
2023-05-15T22:00:00,1190A,120.294,31.56,无锡市,曹张,臭氧1小时,75,79,56,34,26,189,180,179,179,22,40,8,6,0.8,0.8
2023-05-15T22:00:00,1191A,120.242,31.5031,无锡市,漆塘,臭氧1小时,82,66,47,34,26,204,185,186,186,15,12,8,7,0.4,0.4
2023-05-15T22:00:00,1192A,120.3489,31.5863,无锡市,东亭,颗粒物(PM10),68,85,53,36,26,204,151,189,184,54,29,12,11,1.1,1
2023-05-15T22:00:00,1193A,120.354,31.5475,无锡市,旺庄,颗粒物(PM10),67,83,57,39,26,199,158,180,175,48,34,10,8,0.6,0.6
2023-05-15T22:00:00,1194A,120.245,31.5631,无锡市,荣巷,臭氧1小时,102,78,47,31,25,207,204,191,191,16,14,9,9,0.6,0.6
2023-05-15T22:00:00,1195A,120.299,31.6817,无锡市,堰桥,颗粒物(PM10),69,88,56,39,26,181,156,172,168,40,28,9,10,0.6,0.5
2023-05-15T22:00:00,1196A,119.9633,31.762,常州市,市监测站,颗粒物(PM10),63,76,57,40,32,183,164,177,162,33,25,11,10,0.4,0.5
2023-05-15T22:00:00,1200A,119.9468,31.7069,常州市,武进监测站,颗粒物(PM10),62,73,57,32,29,194,157,181,178,24,20,10,14,0.6,0.6
2023-05-15T22:00:00,1201A,119.9255,31.9087,常州市,安家,颗粒物(PM10),62,73,67,41,36,192,79,172,133,72,37,8,10,0.7,0.7
2023-05-15T22:00:00,1203A,119.6707,32.1875,镇江市,新区办事处,颗粒物(PM10),70,90,62,28,29,186,18,172,120,69,19,3,4,0.6,0.6
2023-05-15T22:00:00,1204A,119.4974,32.1968,镇江市,职教中心,颗粒物(PM10),64,77,62,32,28,174,56,169,135,55,19,4,4,0.6,0.7
2023-05-15T22:00:00,1205A,119.4303,32.1328,镇江市,丹徒区监测站,颗粒物(PM10),66,81,69,44,32,176,77,173,138,45,18,6,6,0.6,0.6
2023-05-15T22:00:00,1206A,119.905,32.4878,泰州市,公园路,细颗粒物(PM2.5),58,41,58,41,47,193,83,181,148,35,29,10,12,0.5,0.7
2023-05-15T22:00:00,1207A,119.9189,32.4625,泰州市,莲花,,49,44,64,34,36,204,89,191,159,43,30,10,12,0.5,0.8
2023-05-15T22:00:00,1209A,119.888,32.4639,泰州市,留学生创业园,颗粒物(PM10),60,70,67,25,31,194,64,178,114,53,43,8,11,0.6,0.8
2023-05-15T22:00:00,1210A,119.036,33.5981,淮安市,钵池山,,46,46,53,28,32,188,133,175,168,23,17,14,13,0.6,0.8
2023-05-15T22:00:00,1211A,119.007,33.575,淮安市,北京南路,颗粒物(PM10),57,63,67,27,35,195,110,174,161,41,26,12,15,0.5,1.1
2023-05-15T22:00:00,1212A,118.989,33.6067,淮安市,市监测站,颗粒物(PM10),67,83,71,31,33,201,107,178,160,49,18,31,13,2.9,0.9
2023-05-15T22:00:00,1213A,119.135,33.5039,淮安市,楚州区监测站,颗粒物(PM10),58,66,72,37,36,191,136,174,165,19,19,10,13,0.6,0.6
2023-05-15T22:00:00,1214A,119.0186,33.6297,淮安市,淮阴区监测站,颗粒物(PM10),58,65,75,24,33,181,122,165,153,27,18,12,12,0.6,0.6
2023-05-15T22:00:00,1215A,120.118,33.4022,盐城市,盐城电厂,颗粒物(PM10),52,53,62,34,32,240,139,208,196,21,12,14,11,0.4,0.6
2023-05-15T22:00:00,1216A,120.156,33.3942,盐城市,市监测站,颗粒物(PM10),52,53,62,29,32,223,133,193,184,18,12,16,13,0.5,0.5
2023-05-15T22:00:00,1218A,120.2144,33.38,盐城市,开发区管委会,颗粒物(PM10),52,53,61,26,29,217,131,191,177,20,12,11,10,0.5,0.5
2023-05-15T22:00:00,1220A,118.293,33.9528,宿迁市,宿迁学院,颗粒物(PM10),59,67,74,30,37,188,124,172,156,18,14,11,12,0.5,0.7
2023-05-15T22:00:00,1221A,118.2442,33.9592,宿迁市,宿迁中学,颗粒物(PM10),60,70,70,32,37,190,137,171,156,16,14,10,10,0.4,0.5
2023-05-15T22:00:00,1223A,120.2072,30.2111,杭州市,滨江,细颗粒物(PM2.5),110,150,74,83,33,211,120,175,158,64,28,12,9,0.8,0.6
2023-05-15T22:00:00,1224A,120.0633,30.2747,杭州市,西溪,颗粒物(PM10),59,67,60,25,25,167,68,155,120,36,31,6,7,0.7,0.6
2023-05-15T22:00:00,1226A,120.3461,30.3153,杭州市,下沙,颗粒物(PM10),78,106,73,46,33,199,120,179,168,68,27,8,7,0.7,0.6
2023-05-15T22:00:00,1227A,120.1269,30.2456,杭州市,卧龙桥,,38,38,41,24,26,201,55,173,120,26,21,6,8,0.6,0.5
2023-05-15T22:00:00,1228A,120.1903,30.2692,杭州市,浙江农大,细颗粒物(PM2.5),74,91,59,54,34,213,137,171,153,51,31,10,8,0.5,0.4
2023-05-15T22:00:00,1230A,120.1197,30.3119,杭州市,和睦小学,颗粒物(PM10),66,82,63,38,34,180,92,159,129,76,45,8,7,0.7,0.6
2023-05-15T22:00:00,1231A,120.3019,30.4183,杭州市,临平镇,细颗粒物(PM2.5),83,78,52,61,32,205,146,183,177,37,35,6,6,0.8,0.6
2023-05-15T22:00:00,1232A,120.2697,30.1819,杭州市,城厢镇,细颗粒物(PM2.5),103,99,66,77,39,199,119,168,148,64,29,7,5,0.8,0.5
2023-05-15T22:00:00,1233A,120.0883,30.1808,杭州市,云栖,,41,41,46,12,25,182,62,157,118,38,27,6,6,0.5,0.5
2023-05-15T22:00:00,1234A,121.8358,29.911,宁波市,区环保大楼,,44,44,58,25,38,230,83,180,138,56,65,4,7,0.6,0.7
2023-05-15T22:00:00,1235A,121.56,29.82,宁波市,万里学院,,49,49,67,13,35,218,126,205,172,23,31,5,5,0.5,0.6
2023-05-15T22:00:00,1236A,121.713,29.9572,宁波市,龙赛医院,,47,40,72,27,40,316,149,232,182,15,39,5,8,0.3,0.4
2023-05-15T22:00:00,1239A,121.633,29.7733,宁波市,钱湖水厂,,45,27,57,11,37,212,143,198,175,2,12,5,6,0.2,0.5
2023-05-15T22:00:00,1240A,121.5856,29.8635,宁波市,太古小学,颗粒物(PM10),54,58,61,28,40,203,103,193,157,37,35,7,8,0.6,0.7
2023-05-15T22:00:00,1241A,121.524,29.8674,宁波市,市环境监测中心,颗粒物(PM10),53,56,64,26,31,199,128,190,165,23,26,4,7,0.3,0.5
2023-05-15T22:00:00,1242A,120.634,28.0089,温州市,瓯海,颗粒物(PM10),65,79,76,32,44,247,104,169,125,24,41,8,9,0.5,0.7
2023-05-15T22:00:00,1243A,120.6748,27.9939,温州市,南浦,细颗粒物(PM2.5),78,83,71,57,41,258,109,177,131,19,31,6,8,0.4,0.5
2023-05-15T22:00:00,1244A,120.76,27.9747,温州市,龙湾,颗粒物(PM10),80,109,70,50,36,185,65,153,118,74,43,6,8,0.6,0.7
2023-05-15T22:00:00,1245A,120.6709,28.0167,温州市,市站,细颗粒物(PM2.5),82,100,80,60,45,255,109,163,126,28,47,6,7,0.6,0.8
2023-05-15T22:00:00,1247A,120.6053,29.9928,绍兴市,城东开发委,颗粒物(PM10),57,64,64,33,36,185,154,172,160,18,24,8,8,0.6,0.7
2023-05-15T22:00:00,1250A,120.0751,30.8669,湖州市,城西水厂,颗粒物(PM10),60,70,60,42,31,180,158,154,154,35,56,8,7,0.5,0.5
2023-05-15T22:00:00,1252A,120.7436,30.778,嘉兴市,清河小学,颗粒物(PM10),70,90,78,43,36,197,121,180,174,38,37,7,7,0.5,0.4
2023-05-15T22:00:00,1253A,120.726,30.7478,嘉兴市,嘉兴学院,颗粒物(PM10),63,76,72,42,38,203,124,186,179,31,35,10,7,0.5,0.5
2023-05-15T22:00:00,1255A,121.273,28.6459,台州市,黄岩环保大楼,颗粒物(PM10),53,56,58,36,31,186,124,171,147,13,18,8,8,0.5,0.4
2023-05-15T22:00:00,1256A,121.419,28.6542,台州市,台州环保大楼,颗粒物(PM10),52,53,67,31,39,211,120,175,138,8,21,5,6,0.5,0.6
2023-05-15T22:00:00,1257A,121.377,28.5773,台州市,路桥田洋王,颗粒物(PM10),57,63,64,33,38,184,93,160,124,20,23,14,11,0.8,0.7
2023-05-15T22:00:00,1258A,122.122,30.0203,舟山市,定海檀枫,,38,38,54,21,34,198,117,166,135,18,34,6,7,0.5,0.6
2023-05-15T22:00:00,1259A,122.3094,29.9558,舟山市,普陀东港,,40,37,57,28,36,169,119,156,138,12,21,6,8,0.4,0.5
2023-05-15T22:00:00,1260A,122.19,29.9944,舟山市,临城新区,,42,29,57,22,36,208,132,177,150,17,29,8,8,0.4,0.6
2023-05-15T22:00:00,1262A,119.647,29.077,金华市,十五中,颗粒物(PM10),57,63,67,32,37,205,128,184,152,20,24,6,10,0.4,0.6
2023-05-15T22:00:00,1263A,119.686,29.1029,金华市,监测站,颗粒物(PM10),59,68,64,34,37,194,59,180,130,53,25,6,7,0.7,0.6
2023-05-15T22:00:00,1264A,118.8692,28.9398,衢州市,环保大楼,颗粒物(PM10),71,92,81,37,37,179,33,172,142,65,25,5,13,0.6,0.6
2023-05-15T22:00:00,1265A,118.8709,28.9666,衢州市,实验学校,颗粒物(PM10),78,105,62,42,35,172,79,160,141,43,31,8,11,0.6,0.4
2023-05-15T22:00:00,1266A,118.8621,28.9808,衢州市,衢州学院,细颗粒物(PM2.5),68,82,74,49,39,172,6,163,116,98,42,4,10,0.5,0.4
2023-05-15T22:00:00,1267A,119.914,28.4514,丽水市,监测站大楼,颗粒物(PM10),56,61,61,22,33,189,115,163,157,25,25,7,6,0.6,0.4
2023-05-15T22:00:00,1268A,119.93,28.4586,丽水市,莲都小学,颗粒物(PM10),54,58,61,21,30,198,148,172,170,14,18,6,6,0.4,0.3
2023-05-15T22:00:00,1269A,119.879,28.4231,丽水市,余庄前,细颗粒物(PM2.5),74,69,57,54,32,194,118,166,155,23,23,9,7,0.6,0.4
2023-05-15T22:00:00,1270A,117.1959,31.7848,合肥市,明珠广场,"颗粒物(PM10),细颗粒物(PM2.5)",58,66,75,41,44,179,111,168,146,33,23,7,7,0.5,0.6
2023-05-15T22:00:00,1271A,117.3072,31.8764,合肥市,三里街,颗粒物(PM10),62,73,88,34,45,164,119,152,138,29,37,7,7,0.7,0.8
2023-05-15T22:00:00,1272A,117.2588,31.8707,合肥市,琥珀山庄,颗粒物(PM10),60,70,74,31,39,178,137,167,153,16,22,5,5,0.7,0.8
2023-05-15T22:00:00,1273A,117.1604,31.9052,合肥市,董铺水库,颗粒物(PM10),59,68,72,24,33,168,120,156,142,17,15,5,4,0.4,0.4
2023-05-15T22:00:00,1274A,117.25,31.8571,合肥市,长江中路,颗粒物(PM10),67,83,83,34,44,165,126,156,143,17,21,12,12,0.6,0.6
2023-05-15T22:00:00,1275A,117.266,31.9436,合肥市,庐阳区,颗粒物(PM10),52,53,66,34,42,162,125,152,140,20,28,8,7,0.4,0.4
2023-05-15T22:00:00,1276A,117.336,31.8586,合肥市,瑶海区,颗粒物(PM10),70,90,104,37,46,162,115,151,132,23,30,8,9,0.6,0.7
2023-05-15T22:00:00,1277A,117.3027,31.7964,合肥市,包河区,颗粒物(PM10),62,73,86,36,43,164,128,153,142,12,17,8,8,0.5,0.6
2023-05-15T22:00:00,1278A,117.2776,31.7385,合肥市,滨湖新区,颗粒物(PM10),58,66,73,39,39,154,129,150,142,14,15,9,10,0.7,0.8
2023-05-15T22:00:00,1279A,117.1318,31.8403,合肥市,高新区,颗粒物(PM10),58,66,72,34,40,177,125,162,147,22,21,9,10,0.4,0.4
2023-05-15T22:00:00,1280A,119.3903,26.0543,福州市,鼓山,,,,,,,,,,,,,,,,
2023-05-15T22:00:00,1282A,119.2681,26.0504,福州市,师大,细颗粒物(PM2.5),64,55,69,46,48,197,112,164,154,28,28,8,9,0.7,0.8
2023-05-15T22:00:00,1283A,119.2984,26.1028,福州市,五四北路,,,56,71,45,55,189,,166,166,33,33,6,5,0.8,0.8
2023-05-15T22:00:00,1284A,119.2648,26.0768,福州市,杨桥西路,细颗粒物(PM2.5),63,54,68,45,50,191,112,157,148,19,24,8,7,0.7,0.7
2023-05-15T22:00:00,1285A,119.317,26.0746,福州市,紫阳,,,58,76,60,53,162,,147,141,,31,8,6,0.8,0.8
2023-05-15T22:00:00,1286A,118.1608,24.8169,厦门市,溪东,,,,,,,,,,,,,,,,
2023-05-15T22:00:00,1287A,118.1514,24.4767,厦门市,洪文,,42,32,63,20,45,178,24,146,122,83,20,18,3,1.8,0.5
2023-05-15T22:00:00,1288A,118.0661,24.4444,厦门市,鼓浪屿,,26,26,61,18,44,168,81,141,128,36,39,2,7,0.2,0.3
2023-05-15T22:00:00,1290A,115.8931,28.6843,南昌市,省外办,颗粒物(PM10),59,67,72,34,41,165,97,158,144,24,19,12,18,0.5,0.5
2023-05-15T22:00:00,1291A,115.8886,28.7003,南昌市,省林业公司,颗粒物(PM10),54,58,64,36,41,167,96,160,145,18,21,15,19,0.4,0.4
2023-05-15T22:00:00,1292A,115.8126,28.7442,南昌市,林科所,颗粒物(PM10),65,80,61,31,35,174,12,162,114,100,39,13,16,0.7,0.7
2023-05-15T22:00:00,1294A,115.8518,28.687,南昌市,建工学校,颗粒物(PM10),64,78,81,31,40,169,61,160,136,56,25,14,16,0.6,0.5
2023-05-15T22:00:00,1295A,115.8921,28.6424,南昌市,象湖,颗粒物(PM10),56,62,75,35,42,164,59,156,134,59,34,8,22,0.7,0.6
2023-05-15T22:00:00,1296A,115.7423,28.7996,南昌市,武术学校,,42,35,45,29,23,176,83,162,135,13,4,1,9,0.1,0.6
2023-05-15T22:00:00,1298A,115.9314,28.6842,南昌市,省站,颗粒物(PM10),65,80,85,35,42,162,92,154,140,26,22,11,23,0.6,0.7
2023-05-15T22:00:00,1299A,116.9862,36.6114,济南市,科干所,颗粒物(PM10),67,83,95,39,34,206,146,196,186,11,12,11,12,0.5,0.4
2023-05-15T22:00:00,1300A,116.9376,36.665,济南市,农科所,颗粒物(PM10),86,122,104,39,33,200,142,190,184,18,23,4,6,0.2,0.2
2023-05-15T22:00:00,1301A,117.1265,36.6734,济南市,开发区,颗粒物(PM10),70,90,107,37,35,196,161,187,183,14,41,8,8,0.6,0.5
2023-05-15T22:00:00,1303A,117.0624,36.6868,济南市,省种子仓库,颗粒物(PM10),85,119,105,36,19,202,162,192,177,6,30,3,6,0.3,0.3
2023-05-15T22:00:00,1304A,116.9489,36.6447,济南市,机床二厂,颗粒物(PM10),79,107,120,37,34,204,126,191,171,4,20,3,8,0.3,0.5
2023-05-15T22:00:00,1305A,117.0495,36.663,济南市,市监测站,颗粒物(PM10),95,139,101,37,42,214,168,207,198,15,24,11,12,0.8,0.6
2023-05-15T22:00:00,1306A,116.7675,36.5484,济南市,长清党校,颗粒物(PM10),69,88,99,42,37,218,145,202,192,14,17,10,12,0.5,0.4
2023-05-15T22:00:00,1307A,120.6659,36.2403,青岛市,仰口,颗粒物(PM10),85,119,87,34,46,179,161,156,156,12,14,11,6,0.3,0.3
2023-05-15T22:00:00,1310A,120.4134,36.0658,青岛市,市南区东部子站,颗粒物(PM10),60,70,89,36,51,203,160,179,179,20,20,7,9,0.6,0.7
2023-05-15T22:00:00,1311A,120.3664,36.1032,青岛市,四方区子站,,,70,92,41,53,222,,205,205,27,35,11,11,0.8,1
2023-05-15T22:00:00,1312A,120.2994,36.054,青岛市,市南区西部子站,颗粒物(PM10),64,78,83,34,49,221,169,197,197,20,21,7,7,0.7,0.8
2023-05-15T22:00:00,1313A,120.4581,36.0858,青岛市,崂山区子站,臭氧1小时,68,75,95,48,58,200,174,182,182,19,22,8,9,0.5,0.6
2023-05-15T22:00:00,1314A,120.1983,35.9608,青岛市,黄岛区子站,颗粒物(PM10),56,61,98,32,57,208,158,192,192,14,17,6,9,0.5,0.7
2023-05-15T22:00:00,1315A,120.3999,36.3083,青岛市,城阳区子站,颗粒物(PM10),73,95,101,34,34,200,153,188,181,27,27,9,8,0.8,0.7
2023-05-15T22:00:00,1316A,113.69031,34.76122,郑州市,烟厂,颗粒物(PM10),83,115,105,43,41,224,120,191,169,28,43,6,8,0.6,0.6
2023-05-15T22:00:00,1317A,113.65724,34.77134,郑州市,郑纺机,,,71,93,,33,203,117,186,160,19,39,4,7,0.7,0.7
2023-05-15T22:00:00,1318A,113.67526,34.80246,郑州市,银行学校,颗粒物(PM10),65,80,92,39,40,217,132,189,165,16,30,8,10,0.7,0.7
2023-05-15T22:00:00,1319A,113.56746,34.81334,郑州市,供水公司,颗粒物(PM10),75,99,102,38,36,194,119,169,151,24,29,9,10,0.5,0.5
2023-05-15T22:00:00,1320A,113.7329,34.7178,郑州市,经开区管委,颗粒物(PM10),61,71,87,39,41,200,125,184,164,19,26,4,6,0.5,0.5
2023-05-15T22:00:00,1321A,113.73961,34.77172,郑州市,四十七中,颗粒物(PM10),66,81,103,43,36,211,122,185,162,18,29,7,8,0.8,0.8
2023-05-15T22:00:00,1322A,113.60532,34.74838,郑州市,市监测站,颗粒物(PM10),69,87,114,45,42,201,132,185,166,19,42,5,7,0.8,0.7
2023-05-15T22:00:00,1323A,113.64164,34.7525,郑州市,河医大,颗粒物(PM10),68,86,98,42,37,191,120,177,156,17,30,6,8,0.7,0.7
2023-05-15T22:00:00,1324A,113.51488,34.91089,郑州市,岗李水库,颗粒物(PM10),63,76,83,33,25,232,130,185,164,22,21,8,9,0.5,0.4
2023-05-15T22:00:00,1325A,114.3677,30.5584,武汉市,东湖梨园,,46,43,54,32,35,166,95,153,136,25,24,7,7,0.4,0.5
2023-05-15T22:00:00,1326A,114.2529,30.558,武汉市,汉阳月湖,颗粒物(PM10),59,67,71,34,38,158,80,148,128,47,52,8,8,0.5,0.6
2023-05-15T22:00:00,1327A,114.282,30.6189,武汉市,汉口花桥,颗粒物(PM10),85,120,80,37,41,182,84,163,141,43,33,8,8,0.8,0.7
2023-05-15T22:00:00,1328A,114.3025,30.5332,武汉市,武昌紫阳,颗粒物(PM10),53,55,57,35,38,177,98,162,142,37,39,9,9,0.6,0.8
2023-05-15T22:00:00,1329A,114.3646,30.6217,武汉市,青山钢花,颗粒物(PM10),70,90,84,46,46,185,71,172,142,57,40,8,9,0.9,0.8
2023-05-15T22:00:00,1330A,114.1566,30.4825,武汉市,沌口新区,颗粒物(PM10),55,59,74,38,41,184,78,165,143,48,28,10,14,0.5,0.6
2023-05-15T22:00:00,1331A,114.3014,30.5944,武汉市,汉口江滩,颗粒物(PM10),57,64,64,33,37,180,62,164,131,71,47,8,9,0.7,0.7
2023-05-15T22:00:00,1333A,114.135,30.6319,武汉市,吴家山,颗粒物(PM10),64,77,59,37,35,175,78,166,141,56,32,8,9,0.7,0.6
2023-05-15T22:00:00,1334A,113.8454,30.2917,武汉市,沉湖七壕,颗粒物(PM10),60,70,60,37,36,159,96,147,135,14,19,7,7,0.5,0.5
2023-05-15T22:00:00,1335A,113.0833,28.2325,长沙市,经开区环保局,细颗粒物(PM2.5),53,54,64,37,45,154,76,138,118,33,20,6,10,0.6,0.7
2023-05-15T22:00:00,1336A,112.8872,28.2189,长沙市,高开区环保局,颗粒物(PM10),56,61,73,37,55,163,113,146,134,16,13,13,19,0.8,1.1
2023-05-15T22:00:00,1337A,113.0792,28.2053,长沙市,马坡岭,细颗粒物(PM2.5),65,72,65,47,47,152,58,136,110,40,22,1,4,0.4,0.5
2023-05-15T22:00:00,1338A,112.9394,28.19,长沙市,湖南师范大学,颗粒物(PM10),57,63,77,33,56,155,95,128,105,20,17,7,13,0.8,0.9
2023-05-15T22:00:00,1339A,113.0178,28.1322,长沙市,雨花区环保局,颗粒物(PM10),51,52,63,34,46,157,97,140,128,29,22,9,13,0.3,0.5
2023-05-15T22:00:00,1340A,112.9792,28.2597,长沙市,伍家岭,颗粒物(PM10),59,68,79,32,50,173,33,145,114,73,38,3,8,0.8,0.8
2023-05-15T22:00:00,1341A,113.0014,28.1944,长沙市,火车新站,颗粒物(PM10),62,73,74,41,49,149,55,131,108,53,31,8,14,0.8,0.9
2023-05-15T22:00:00,1342A,112.9844,28.1178,长沙市,天心区环保局,颗粒物(PM10),53,56,74,31,45,154,90,133,118,24,16,3,6,0.5,0.6
2023-05-15T22:00:00,1343A,112.8908,28.1308,长沙市,湖南中医药大学,"颗粒物(PM10),细颗粒物(PM2.5)",58,65,74,41,58,166,64,142,115,57,26,8,12,0.8,1
2023-05-15T22:00:00,1344A,112.9581,28.3611,长沙市,沙坪,颗粒物(PM10),63,76,68,43,48,156,63,135,106,37,23,6,9,0.6,0.7
2023-05-15T22:00:00,1345A,113.2347,23.1423,广州市,广雅中学,细颗粒物(PM2.5),63,66,51,45,32,245,126,209,202,52,45,4,5,1.0,0.9
2023-05-15T22:00:00,1346A,113.2612,23.105,广州市,市五中,细颗粒物(PM2.5),63,65,52,45,35,266,138,224,218,40,38,5,6,0.8,0.7
2023-05-15T22:00:00,1348A,113.3478,23.0916,广州市,广东商学院,"颗粒物(PM10),细颗粒物(PM2.5)",57,64,60,40,34,245,101,210,201,45,43,4,5,0.9,0.8
2023-05-15T22:00:00,1349A,113.4332,23.1047,广州市,市八十六中,颗粒物(PM10),60,69,70,31,34,236,76,208,185,61,50,4,5,0.8,0.8
2023-05-15T22:00:00,1350A,113.3505,22.9483,广州市,番禺中学,,45,43,45,31,30,254,109,220,201,43,38,9,9,0.6,0.5
2023-05-15T22:00:00,1351A,113.2146,23.3916,广州市,花都师范,颗粒物(PM10),66,81,69,45,39,235,166,222,210,50,41,6,8,1.0,0.9
2023-05-15T22:00:00,1352A,113.2597,23.1331,广州市,市监测站,颗粒物(PM10),62,73,43,39,30,262,146,227,222,45,44,6,7,1.1,1
2023-05-15T22:00:00,1353A,113.5618,23.312,广州市,九龙镇镇龙,颗粒物(PM10),81,111,58,55,32,243,41,181,160,114,38,5,6,0.9,0.7
2023-05-15T22:00:00,1354A,113.2765,23.1544,广州市,麓湖,细颗粒物(PM2.5),62,62,49,44,31,263,111,224,211,60,40,4,5,0.9,0.8
2023-05-15T22:00:00,1355A,113.443,23.3035,广州市,帽峰山森林公园,臭氧1小时,69,83,42,49,26,263,175,226,226,39,17,3,2,0.6,0.6
2023-05-15T22:00:00,1356A,114.1063,22.5545,深圳市,通心岭子站,,25,24,36,17,26,166,56,134,120,33,20,4,3,0.7,0.8
2023-05-15T22:00:00,1357A,114.117,22.5625,深圳市,洪湖,,40,40,41,22,30,197,55,159,141,44,28,9,8,0.7,0.7
2023-05-15T22:00:00,1358A,113.987,22.5417,深圳市,华侨城,,44,44,39,30,33,182,108,154,137,24,29,7,6,0.8,0.9
2023-05-15T22:00:00,1359A,113.9181,22.5171,深圳市,南海子站,颗粒物(PM10),55,59,50,33,28,183,82,152,127,31,27,5,5,0.8,0.8
2023-05-15T22:00:00,1360A,114.2458,22.5689,深圳市,盐田,,24,24,34,5,22,137,58,125,88,25,18,4,4,0.8,0.8
2023-05-15T22:00:00,1361A,114.2283,22.7244,深圳市,龙岗,,48,48,38,25,23,187,82,159,131,33,24,3,3,0.7,0.7
2023-05-15T22:00:00,1363A,114.494,22.5422,深圳市,南澳,,36,14,26,10,18,135,113,127,122,11,9,3,3,0.6,0.7
2023-05-15T22:00:00,1364A,114.41,22.6342,深圳市,葵涌,,30,11,26,7,20,140,96,127,119,10,7,5,5,0.6,0.6
2023-05-15T22:00:00,1365A,114.297,22.5978,深圳市,梅沙,,,,33,,26,143,82,133,113,16,10,4,4,0.6,0.7
2023-05-15T22:00:00,1366A,114.0678,22.738,深圳市,观澜,"颗粒物(PM10),细颗粒物(PM2.5)",63,76,48,45,35,220,64,196,167,64,33,5,5,0.7,0.8
2023-05-15T22:00:00,1367A,113.5814,22.2618,珠海市,吉大,,35,23,27,12,24,189,111,162,148,13,15,6,6,0.5,0.6
2023-05-15T22:00:00,1368A,113.4881,22.2335,珠海市,前山,,41,14,25,13,22,177,130,159,153,16,24,4,4,0.3,0.4
2023-05-15T22:00:00,1369A,113.628,22.4251,珠海市,唐家,,,,51,,32,180,,158,157,7,19,4,5,0.4,0.3
2023-05-15T22:00:00,1370A,113.299,22.2281,珠海市,斗门,,34,15,29,12,23,148,106,140,131,18,22,5,5,0.5,0.7
2023-05-15T22:00:00,1371A,113.1294,23.0067,佛山市,湾梁,颗粒物(PM10),65,80,59,35,27,286,113,231,211,39,26,6,5,0.9,0.8
2023-05-15T22:00:00,1372A,113.1083,23.0478,佛山市,华材职中,颗粒物(PM10),59,68,46,41,28,269,125,222,207,34,26,8,8,0.8,0.8
2023-05-15T22:00:00,1373A,113.144,23.0453,佛山市,南海气象局,,,,48,,29,220,,185,177,45,31,4,6,0.8,0.9
2023-05-15T22:00:00,1374A,113.2881,22.8094,佛山市,顺德苏岗,细颗粒物(PM2.5),62,57,38,44,35,195,112,177,162,24,27,6,5,0.9,0.8
2023-05-15T22:00:00,1376A,112.8383,22.8678,佛山市,高明孔堂,,50,50,40,25,22,177,98,147,124,15,14,4,4,0.8,0.9
2023-05-15T22:00:00,1377A,112.8836,23.1588,佛山市,三水监测站,颗粒物(PM10),64,78,62,38,36,231,73,192,155,84,61,4,6,0.8,0.8
2023-05-15T22:00:00,1378A,112.867,23.185,佛山市,三水云东海,颗粒物(PM10),56,61,53,30,30,228,66,188,148,36,29,3,6,0.7,0.7
2023-05-15T22:00:00,1379A,113.3769,22.5211,中山市,华柏园,,39,36,42,18,25,205,124,177,166,19,23,6,6,0.6,0.7
2023-05-15T22:00:00,1380A,113.3881,22.5497,中山市,张溪,,42,27,49,12,26,228,134,192,176,14,24,3,3,0.6,0.7
2023-05-15T22:00:00,1381A,113.4075,22.5111,中山市,紫马岭,,42,31,36,20,26,195,132,174,167,11,16,5,5,0.5,0.5
2023-05-15T22:00:00,1382A,113.4411,22.4853,中山市,长江旅游区,,35,30,35,22,21,186,112,156,152,11,15,8,7,0.5,0.6
2023-05-15T22:00:00,1383A,113.1064,22.6058,江门市,北街,,36,36,46,21,23,201,98,174,153,19,22,6,6,0.7,0.7
2023-05-15T22:00:00,1384A,113.0731,22.5835,江门市,西区,,42,42,41,25,28,206,109,177,152,24,30,8,7,0.6,0.8
2023-05-15T22:00:00,1385A,113.0219,22.5311,江门市,圭峰西,,39,31,38,25,21,170,122,155,141,20,16,6,5,0.4,0.5
2023-05-15T22:00:00,1386A,113.0828,22.5947,江门市,东湖,,38,38,46,23,24,220,113,188,164,22,23,8,7,0.7,0.9
2023-05-15T22:00:00,1389A,113.7547,23.0494,东莞市,莞城梨川,细颗粒物(PM2.5),57,60,43,40,30,281,121,222,213,35,26,9,10,0.8,0.8
2023-05-15T22:00:00,1390A,113.7944,23.0128,东莞市,东城石井,颗粒物(PM10),55,60,44,35,27,286,110,225,203,28,25,10,11,0.7,0.8
2023-05-15T22:00:00,1391A,113.7383,22.9658,东莞市,南城西平,,47,47,43,21,25,276,122,216,201,20,33,8,7,0.6,0.6
2023-05-15T22:00:00,1392A,114.4183,23.0528,惠州市,河南岸金山湖子站,,45,45,42,22,21,147,84,134,125,19,15,5,4,0.6,0.6
2023-05-15T22:00:00,1393A,114.4053,23.0822,惠州市,下埔横江三路子站,,43,43,34,16,17,161,93,148,137,22,14,5,5,0.7,0.6
2023-05-15T22:00:00,1394A,114.4103,23.1142,惠州市,江北云山西路子站,,47,47,36,20,18,158,88,150,140,24,14,10,7,0.7,0.7
2023-05-15T22:00:00,1395A,114.4645,22.7833,惠州市,惠阳区承修路船湖子站,,29,28,36,20,21,149,92,137,118,17,18,5,6,0.7,0.7
2023-05-15T22:00:00,1396A,114.5317,22.7422,惠州市,大亚湾管委会子站,,36,24,36,15,19,138,113,125,118,15,20,8,9,0.5,0.6
2023-05-15T22:00:00,1397A,112.4267,23.0706,肇庆市,睦岗子站,颗粒物(PM10),54,58,58,29,34,156,87,147,130,32,28,13,22,0.8,0.8
2023-05-15T22:00:00,1398A,112.4645,23.0475,肇庆市,城中子站,颗粒物(PM10),51,52,62,35,46,156,102,143,128,21,32,15,17,0.6,0.5
2023-05-15T22:00:00,1399A,112.5544,23.1522,肇庆市,坑口子站,,48,46,41,33,29,164,85,148,128,18,22,5,5,0.3,0.3
2023-05-15T22:00:00,1400A,112.4753,23.1,肇庆市,七星岩子站,,46,46,44,30,30,160,113,149,136,16,20,12,10,0.6,0.6
2023-05-15T22:00:00,1401A,108.3103,22.7881,南宁市,二十一中,,35,34,35,24,24,139,99,139,111,16,11,10,7,1.0,0.8
2023-05-15T22:00:00,1402A,108.3141,22.8528,南宁市,北湖,,43,43,65,21,33,146,88,122,107,15,23,11,10,0.9,0.8
2023-05-15T22:00:00,1403A,108.3206,22.8225,南宁市,市监测站,,28,28,59,19,32,139,89,118,105,23,41,11,11,1.0,1
2023-05-15T22:00:00,1404A,108.3829,22.8037,南宁市,大自然花园,,36,36,32,21,23,114,84,114,98,12,8,9,7,1.1,0.8
2023-05-15T22:00:00,1405A,108.4394,22.7904,南宁市,仙葫,,36,35,48,25,30,118,93,102,102,16,28,8,6,0.7,0.6
2023-05-15T22:00:00,1406A,108.2397,22.8467,南宁市,区农职院,,46,46,50,23,26,148,88,120,105,23,21,12,12,1.0,0.8
2023-05-15T22:00:00,1407A,108.3275,22.735,南宁市,英华嘉园,,37,37,45,20,26,109,72,97,90,27,27,9,8,1.0,1
2023-05-15T22:00:00,1408A,108.2257,22.7757,南宁市,沙井镇街道办,颗粒物(PM10),55,60,58,21,24,124,72,108,96,32,26,7,6,0.8,0.7
2023-05-15T22:00:00,1409A,110.576,19.9507,海口市,东寨港,,,,,,,,,,,,,,,,
2023-05-15T22:00:00,1410A,110.3232,20.0574,海口市,海南大学,,24,17,16,8,8,130,74,114,103,9,8,6,6,0.6,0.6
2023-05-15T22:00:00,1411A,110.283,20.0053,海口市,秀英海南医院,,20,20,19,10,11,122,64,111,99,16,12,4,4,0.5,0.5
2023-05-15T22:00:00,1412A,110.338,19.9969,海口市,海南师范大学,,20,19,17,8,7,110,62,101,89,10,10,5,4,0.4,0.4
2023-05-15T22:00:00,1413A,110.33,20.0356,海口市,龙华路环保局宿舍,,22,17,16,11,11,123,68,107,96,8,8,5,5,0.4,0.4
2023-05-15T22:00:00,1414A,106.3787,29.8279,重庆市,缙云山,颗粒物(PM10),52,53,51,33,23,160,126,148,127,15,16,13,13,0.3,0.3
2023-05-15T22:00:00,1416A,106.4213,29.8253,重庆市,天生,颗粒物(PM10),80,109,78,57,47,122,8,103,59,112,63,8,10,1.3,1
2023-05-15T22:00:00,1417A,106.6263,29.7228,重庆市,两路,颗粒物(PM10),65,79,65,38,34,114,7,95,53,128,61,9,10,1.4,1
2023-05-15T22:00:00,1418A,106.2953,29.5983,重庆市,虎溪,细颗粒物(PM2.5),77,86,72,56,44,99,5,88,64,126,70,7,8,1.1,0.9
2023-05-15T22:00:00,1419A,106.5777,29.5102,重庆市,南坪,颗粒物(PM10),84,117,83,57,46,128,73,114,80,58,48,12,14,1.0,0.9
2023-05-15T22:00:00,1420A,106.6556,29.6277,重庆市,唐家沱,细颗粒物(PM2.5),103,116,84,77,44,114,3,90,58,109,67,9,10,1.1,0.8
2023-05-15T22:00:00,1421A,106.6349,29.4906,重庆市,茶园,颗粒物(PM10),103,155,130,56,51,98,10,79,50,136,94,8,9,1.2,1
2023-05-15T22:00:00,1422A,106.3754,29.4572,重庆市,白市驿,细颗粒物(PM2.5),107,140,107,80,45,126,73,97,88,57,60,21,13,1.2,1
2023-05-15T22:00:00,1425A,106.6205,29.7166,重庆市,空港,细颗粒物(PM2.5),75,79,72,55,43,126,15,107,64,120,52,9,11,1.2,0.9
2023-05-15T22:00:00,1426A,106.4782,29.4875,重庆市,新山村,颗粒物(PM10),83,116,104,58,50,67,2,55,40,135,115,10,12,1.4,1.2
2023-05-15T22:00:00,1427A,106.5616,29.6453,重庆市,礼嘉,颗粒物(PM10),83,115,92,40,36,97,10,77,52,133,100,11,10,1.4,1.2
2023-05-15T22:00:00,1428A,106.4522,29.7091,重庆市,蔡家,"颗粒物(PM10),细颗粒物(PM2.5)",78,105,88,57,39,94,9,76,46,106,60,7,8,1.0,0.8
2023-05-15T22:00:00,1429A,106.5093,29.3917,重庆市,鱼新街,颗粒物(PM10),88,126,80,54,41,84,24,67,50,139,100,11,14,1.8,1.5
2023-05-15T22:00:00,1431A,103.9728,30.7236,成都市,金泉两河,细颗粒物(PM2.5),93,87,94,69,62,200,117,175,169,36,41,4,4,0.5,0.6
2023-05-15T22:00:00,1432A,104.176,30.6872,成都市,十里店,,,77,94,51,49,179,,163,163,32,56,2,3,0.6,0.7
2023-05-15T22:00:00,1433A,104.079,30.5706,成都市,三瓦窑,细颗粒物(PM2.5),84,86,87,62,51,184,89,159,153,61,69,2,3,0.7,0.7
2023-05-15T22:00:00,1434A,104.1114,30.63,成都市,沙河铺,细颗粒物(PM2.5),79,73,75,58,42,172,77,156,145,31,45,1,2,0.8,0.8
2023-05-15T22:00:00,1437A,104.0786,30.6531,成都市,君平街,细颗粒物(PM2.5),90,94,92,67,61,195,126,175,171,37,56,8,7,0.7,0.9
2023-05-15T22:00:00,1438A,103.613,31.0283,成都市,灵岩寺,细颗粒物(PM2.5),65,71,42,47,28,176,169,166,166,11,12,6,16,0.7,0.6
2023-05-15T22:00:00,1439A,106.6899,26.5998,贵阳市,马鞍山,,27,27,42,14,34,97,36,88,79,14,18,2,4,0.4,0.6
2023-05-15T22:00:00,1440A,106.6971,26.5694,贵阳市,市环保站,,42,34,49,29,40,113,47,98,88,38,25,4,5,0.3,0.3
2023-05-15T22:00:00,1441A,106.6243,26.6266,贵阳市,鉴湖路,,31,31,51,14,33,108,70,95,91,12,14,3,5,0.8,0.8
2023-05-15T22:00:00,1442A,106.7487,26.6343,贵阳市,燕子冲,,39,31,51,27,41,119,64,106,98,15,19,5,7,0.6,0.7
2023-05-15T22:00:00,1443A,106.6555,26.4365,贵阳市,碧云窝,,34,34,49,17,30,112,49,99,88,10,11,3,5,0.5,0.6
2023-05-15T22:00:00,1444A,106.694,26.5161,贵阳市,中院村,,44,44,58,27,36,102,46,89,78,29,22,7,9,0.7,0.6
2023-05-15T22:00:00,1445A,106.7109,26.6027,贵阳市,红边门,,41,41,54,27,39,110,54,95,86,29,26,3,6,0.6,0.6
2023-05-15T22:00:00,1446A,106.7164,26.5699,贵阳市,新华路,,36,36,53,19,35,115,51,99,91,29,21,2,5,0.5,0.4
2023-05-15T22:00:00,1447A,106.674,26.5424,贵阳市,太慈桥,,29,29,50,14,28,109,22,97,81,28,21,3,5,0.5,0.5
2023-05-15T22:00:00,1450A,102.8204,24.8886,昆明市,呈贡新区,,29,15,23,8,17,93,91,87,87,11,22,6,6,0.6,0.7
2023-05-15T22:00:00,1451A,102.6251,24.9608,昆明市,西山森林公园,,21,11,17,2,13,108,65,85,61,11,14,6,8,0.9,1
2023-05-15T22:00:00,1452A,102.7252,25.0902,昆明市,龙泉镇,,20,13,33,10,17,66,35,58,56,40,39,6,6,0.6,0.6
2023-05-15T22:00:00,1453A,102.7266,25.0375,昆明市,东风东路,,22,11,33,7,21,97,68,76,65,16,32,6,10,0.7,0.8
2023-05-15T22:00:00,1454A,102.6742,25.0669,昆明市,金鼎山,,24,17,43,6,25,76,76,70,70,14,32,4,26,0.5,0.7
2023-05-15T22:00:00,1455A,102.6644,25.0401,昆明市,碧鸡广场,,21,7,37,5,21,75,66,69,66,23,33,5,7,0.5,0.7
2023-05-15T22:00:00,1456A,91.1319,29.6514,拉萨市,八廓街,,41,29,26,15,13,160,131,151,149,21,14,7,8,0.4,0.3
2023-05-15T22:00:00,1457A,91.1221,29.6747,拉萨市,市环保局,,46,25,20,8,9,170,146,159,158,12,20,6,6,0.3,0.2
2023-05-15T22:00:00,1458A,91.0874,29.6475,拉萨市,区监测站,,44,23,21,15,13,159,140,151,149,17,20,7,9,0.2,0.3
2023-05-15T22:00:00,1459A,91.1774,29.6541,拉萨市,西藏大学,,41,27,20,9,10,168,130,157,153,24,11,8,10,0.3,0.2
2023-05-15T22:00:00,1460A,90.9798,29.6588,拉萨市,区辐射站,,40,26,27,11,12,150,128,138,136,21,20,8,9,0.4,0.4
2023-05-15T22:00:00,1461A,91.0834,29.6292,拉萨市,拉萨火车站,,45,24,26,6,10,156,144,148,148,8,17,8,8,0.3,0.4
2023-05-15T22:00:00,1462A,108.882,34.2749,西安市,高压开关厂,颗粒物(PM10),57,63,72,34,36,236,77,203,179,47,56,8,9,0.4,0.6
2023-05-15T22:00:00,1463A,108.993,34.2629,西安市,兴庆小区,颗粒物(PM10),53,56,53,24,22,214,62,194,168,44,24,6,8,0.5,0.6
2023-05-15T22:00:00,1464A,109.06,34.2572,西安市,纺织城,,40,40,56,22,26,212,59,182,150,45,31,5,6,0.4,0.5
2023-05-15T22:00:00,1465A,108.9356,34.2173,西安市,小寨,,48,48,52,27,28,237,68,205,174,41,36,7,9,0.1,0.2
2023-05-15T22:00:00,1466A,108.954,34.2713,西安市,市人民体育场,颗粒物(PM10),69,88,63,49,31,209,42,191,159,84,40,7,8,0.8,0.6
2023-05-15T22:00:00,1467A,108.8922,34.2322,西安市,高新西区,,30,30,59,20,26,254,82,218,191,38,43,7,8,0.6,0.8
2023-05-15T22:00:00,1468A,108.935,34.3474,西安市,经开区,颗粒物(PM10),67,83,70,42,35,195,68,178,157,58,49,5,5,0.6,0.5
2023-05-15T22:00:00,1469A,108.906,34.1546,西安市,长安区,,39,39,50,20,23,257,102,216,190,15,34,6,7,0.2,0.3
2023-05-15T22:00:00,1471A,109.2186,34.3731,西安市,临潼区,,39,34,62,18,26,197,123,172,160,7,32,6,10,0.1,0.4
2023-05-15T22:00:00,1472A,108.869,34.378,西安市,草滩,颗粒物(PM10),56,61,72,28,28,180,94,169,156,22,35,12,18,0.0,0.1
2023-05-15T22:00:00,1473A,108.985,34.1978,西安市,曲江文化产业集团,,36,27,51,15,22,247,113,211,188,17,35,4,6,0.2,0.4
2023-05-15T22:00:00,1474A,109.051,34.3213,西安市,广运潭,,34,34,55,21,27,182,82,163,143,26,29,7,8,0.3,0.4
2023-05-15T22:00:00,1476A,103.631,36.1031,兰州市,兰炼宾馆,细颗粒物(PM2.5),59,65,92,42,38,178,126,165,155,13,50,15,20,0.7,0.7
2023-05-15T22:00:00,1477A,104.1373,35.9454,兰州市,榆中兰大校区,,,,,,,,,,,,,,,,
2023-05-15T22:00:00,1478A,103.8412,36.0726,兰州市,生物制品所,颗粒物(PM10),66,82,82,36,31,153,106,142,136,22,47,11,14,0.5,0.8
2023-05-15T22:00:00,1479A,103.831,36.0464,兰州市,铁路设计院,颗粒物(PM10),58,66,83,31,34,158,90,138,129,40,59,7,16,0.2,0.6
2023-05-15T22:00:00,1483A,101.524,36.6867,西宁市,第五水厂,,,,,,,,,,,,,,,,
2023-05-15T22:00:00,1484A,105.9512,38.6016,银川市,贺兰山马莲口,臭氧1小时,58,31,34,21,15,182,166,177,174,8,9,11,13,0.4,0.4
2023-05-15T22:00:00,1488A,106.2328,38.4975,银川市,贺兰山东路,颗粒物(PM10),71,91,70,31,27,176,79,159,141,70,50,8,10,0.5,0.4
2023-05-15T22:00:00,1489A,106.1358,38.5036,银川市,学院路,颗粒物(PM10),71,91,71,22,24,174,77,160,138,59,51,8,13,0.5,0.6
2023-05-15T22:00:00,1490A,87.5801,43.8303,乌鲁木齐市,监测站,,27,27,40,8,14,94,74,88,85,24,22,5,8,0.3,0.3
2023-05-15T22:00:00,1491A,87.6046,43.768,乌鲁木齐市,收费所,,34,34,43,12,15,94,64,89,83,32,20,8,6,0.2,0.2
2023-05-15T22:00:00,1492A,87.4754,43.9469,乌鲁木齐市,新疆农科院农场,,,50,46,,10,86,69,81,79,24,26,6,7,0.6,0.7
2023-05-15T22:00:00,1493A,87.5525,43.8711,乌鲁木齐市,铁路局,,24,23,36,9,16,95,75,87,86,23,19,6,9,0.5,0.5
2023-05-15T22:00:00,1494A,87.6432,43.831,乌鲁木齐市,三十一中学,,29,24,39,8,10,106,90,100,95,16,16,9,13,0.3,0.4
2023-05-15T22:00:00,1496A,87.7216,44.1747,乌鲁木齐市,米东区环保局,,49,32,51,34,28,110,89,101,99,9,8,2,5,0.2,0.3
2023-05-15T22:00:00,1508A,112.9433,27.8614,湘潭市,板塘,细颗粒物(PM2.5),62,71,79,44,54,128,85,119,108,35,26,15,14,0.5,0.5
2023-05-15T22:00:00,1511A,112.9118,27.8403,湘潭市,市监测站,颗粒物(PM10),57,63,75,39,56,137,117,128,125,22,24,14,17,0.9,0.9
2023-05-15T22:00:00,1512A,112.8937,27.8728,湘潭市,江麓,细颗粒物(PM2.5),74,79,85,54,63,136,82,129,118,34,21,36,29,1.0,0.9
2023-05-15T22:00:00,1513A,112.9227,27.8159,湘潭市,岳塘,颗粒物(PM10),60,69,78,40,64,140,100,131,125,19,13,11,12,0.2,0.2
2023-05-15T22:00:00,1514A,112.9074,27.9119,湘潭市,科大,颗粒物(PM10),62,74,84,41,56,143,92,133,123,30,21,7,15,0.7,0.9
2023-05-15T22:00:00,1515A,113.135,27.8244,株洲市,天台山庄,细颗粒物(PM2.5),70,68,61,51,42,145,76,132,122,30,14,10,12,0.8,0.7
2023-05-15T22:00:00,1518A,113.095,27.8867,株洲市,株冶医院,颗粒物(PM10),65,80,68,46,47,140,55,128,112,51,21,4,6,0.7,0.7
2023-05-15T22:00:00,1519A,113.167,27.8667,株洲市,市四中,颗粒物(PM10),54,57,53,36,43,138,84,128,112,20,15,8,10,0.7,0.7
2023-05-15T22:00:00,1520A,113.143,27.8381,株洲市,火车站,细颗粒物(PM2.5),62,66,62,44,43,139,74,128,105,28,19,6,8,0.7,0.6
2023-05-15T22:00:00,1524A,113.13,27.8528,株洲市,市监测站,细颗粒物(PM2.5),70,70,59,51,46,148,79,136,122,31,17,9,9,0.8,0.7
2023-05-15T22:00:00,1552A,106.805,26.3003,贵阳市,桐木岭,,39,38,46,27,35,111,86,102,93,2,2,2,2,0.3,0.3
2023-05-15T22:00:00,1559A,113.251,27.8336,株洲市,大京风景区,,39,39,48,25,21,111,39,104,78,5,4,1,4,0.6,0.6
2023-05-15T22:00:00,1562A,113.0048,27.9153,湘潭市,昭山,颗粒物(PM10),62,73,72,41,48,137,68,126,107,46,20,7,9,0.5,0.6
2023-05-15T22:00:00,1564A,112.4876,27.9164,湘潭市,韶山,颗粒物(PM10),56,61,61,35,30,127,73,118,100,11,12,7,7,0.5,0.3
2023-05-15T22:00:00,1585A,109.8756,40.6532,包头市,市环境监测站,颗粒物(PM10),56,62,69,23,28,146,101,139,128,33,50,10,17,0.4,0.9
2023-05-15T22:00:00,1587A,109.9991,40.5842,包头市,包头八中,颗粒物(PM10),63,76,86,27,34,151,104,142,130,32,49,11,15,0.5,0.6
2023-05-15T22:00:00,1588A,109.8538,40.6821,包头市,青山宾馆,颗粒物(PM10),51,51,79,27,38,148,99,140,125,31,54,8,17,0.5,1.1
2023-05-15T22:00:00,1589A,109.8642,40.6288,包头市,惠龙物流,,47,47,72,17,26,145,109,139,133,27,49,9,17,0.4,0.6
2023-05-15T22:00:00,1590A,110.0377,40.5546,包头市,东河鸿龙湾,颗粒物(PM10),63,75,72,24,30,152,114,142,133,20,34,6,7,0.3,0.4
2023-05-15T22:00:00,1591A,110.0023,39.8129,鄂尔多斯市,综合楼,颗粒物(PM10),82,114,92,46,31,133,111,129,124,22,39,9,10,0.6,0.6
2023-05-15T22:00:00,1592A,109.9486,39.8261,鄂尔多斯市,巴音孟克林场办事处,颗粒物(PM10),74,97,75,27,26,140,114,136,131,21,22,8,9,0.7,0.7
2023-05-15T22:00:00,1593A,109.7736,39.5986,鄂尔多斯市,康泽苑,颗粒物(PM10),64,78,75,24,23,136,120,132,130,16,17,9,9,0.6,0.6
2023-05-15T22:00:00,1594A,109.8119,39.5989,鄂尔多斯市,华泰汽车城,细颗粒物(PM2.5),67,58,70,48,28,133,110,130,125,19,30,6,7,0.6,0.6
2023-05-15T22:00:00,1595A,109.9734,39.7884,鄂尔多斯市,奥林花园,颗粒物(PM10),68,85,88,39,24,137,110,132,127,23,40,8,6,0.7,0.6
2023-05-15T22:00:00,1597A,122.2703,40.7094,营口市,大庆路,细颗粒物(PM2.5),97,107,67,72,34,200,115,161,140,31,19,21,8,2.0,0.9
2023-05-15T22:00:00,1598A,122.2150,40.6511,营口市,镜湖西路,,,,,,,,,,,,,,,,
2023-05-15T22:00:00,1599A,122.1658,40.6789,营口市,西炮台,,,,64,,23,171,124,152,137,21,20,14,10,0.7,0.6
2023-05-15T22:00:00,1600A,124.3303,40.0625,丹东市,江湾东路,,44,41,34,21,20,167,139,151,141,10,12,18,11,0.7,0.7
2023-05-15T22:00:00,1601A,124.4256,40.1503,丹东市,临江后街,,46,33,30,13,15,172,146,161,148,5,4,6,6,0.6,0.6
2023-05-15T22:00:00,1602A,124.3933,40.1461,丹东市,元宝山,,43,20,23,18,19,160,136,143,138,9,15,7,8,0.4,0.5
2023-05-15T22:00:00,1603A,124.3633,40.1092,丹东市,民主桥,,44,35,30,16,16,166,140,150,140,10,9,6,7,0.5,0.5
2023-05-15T22:00:00,1604A,122.0303,41.1489,盘锦市,开发区,细颗粒物(PM2.5),72,69,52,52,42,175,114,166,147,25,20,7,6,1.0,0.9
2023-05-15T22:00:00,1605A,122.0485,41.0883,盘锦市,兴隆台,颗粒物(PM10),71,91,62,44,37,170,99,164,140,31,21,6,6,1.0,0.8
2023-05-15T22:00:00,1606A,121.8297,41.1028,盘锦市,新生街道,颗粒物(PM10),56,61,42,38,33,157,114,155,138,26,19,39,9,0.7,0.7
2023-05-15T22:00:00,1607A,120.9092,40.7136,葫芦岛市,龙港区,细颗粒物(PM2.5),89,90,55,66,44,210,180,190,190,13,12,20,9,0.9,0.8
2023-05-15T22:00:00,1608A,120.8392,40.7514,葫芦岛市,化工街,细颗粒物(PM2.5),94,105,81,70,52,207,183,192,192,10,10,10,7,1.0,0.9
2023-05-15T22:00:00,1609A,120.8341,40.7073,葫芦岛市,新区,细颗粒物(PM2.5),120,102,65,91,62,204,175,187,187,15,15,14,10,0.9,0.8
2023-05-15T22:00:00,1610A,120.8695,40.7677,葫芦岛市,东城区,细颗粒物(PM2.5),127,126,72,96,58,210,171,192,192,22,20,30,12,0.9,0.8
2023-05-15T22:00:00,1611A,118.5819,24.9117,泉州市,涂山街,,34,34,81,17,61,261,82,206,139,32,33,10,11,0.8,0.9
2023-05-15T22:00:00,1612A,118.5972,24.8978,泉州市,津头埔,,48,48,78,30,65,247,80,199,139,40,37,9,11,0.7,0.8
2023-05-15T22:00:00,1613A,118.6663,24.9424,泉州市,万安,细颗粒物(PM2.5),60,56,76,43,70,257,53,194,139,51,30,9,10,0.8,0.8
2023-05-15T22:00:00,1614A,118.6117,24.9604,泉州市,清源山,,,,,,,,,,,,,,,,
2023-05-15T22:00:00,1616A,117.6795,36.229,济南市,技术学院,颗粒物(PM10),79,107,104,33,36,215,175,205,194,15,25,10,11,0.7,0.7
2023-05-15T22:00:00,1618A,118.3429,35.0532,临沂市,沂河小区,颗粒物(PM10),63,75,83,36,31,194,124,175,156,27,21,23,14,0.3,0.4
2023-05-15T22:00:00,1619A,118.295,35.0583,临沂市,鲁南制药厂,颗粒物(PM10),68,85,83,40,35,205,128,196,158,38,23,29,17,0.5,0.4
2023-05-15T22:00:00,1620A,118.2794,34.9976,临沂市,新光毛纺厂,颗粒物(PM10),71,92,83,34,30,191,105,175,150,36,18,32,14,0.6,0.5
2023-05-15T22:00:00,1621A,118.3956,35.0888,临沂市,河东保险公司,颗粒物(PM10),60,70,73,34,33,209,138,185,167,24,19,17,15,0.3,0.3
2023-05-15T22:00:00,1622A,116.3032,37.4674,德州市,儿童乐园,颗粒物(PM10),73,95,114,36,42,206,140,196,183,13,18,9,9,0.8,0.7
2023-05-15T22:00:00,1624A,116.2991,37.4451,德州市,监理站,颗粒物(PM10),78,106,117,36,40,211,144,202,188,19,27,16,16,0.6,0.5
2023-05-15T22:00:00,1625A,115.9848,36.4372,聊城市,区政府,颗粒物(PM10),68,85,104,42,36,199,102,176,150,12,25,8,10,0.5,0.6
2023-05-15T22:00:00,1628A,118.0062,37.3803,滨州市,市环保局,颗粒物(PM10),104,158,140,63,59,264,125,216,186,29,38,62,19,0.8,0.9
2023-05-15T22:00:00,1629A,118.0018,37.3617,滨州市,第二水厂,颗粒物(PM10),97,144,140,50,53,261,101,212,172,43,46,62,19,0.9,1
2023-05-15T22:00:00,1630A,117.9776,37.393,滨州市,北中新校,颗粒物(PM10),98,145,128,42,52,215,152,186,157,13,42,7,13,0.9,0.9
2023-05-15T22:00:00,1631A,118.0414,36.8103,淄博市,人民公园,,,124,103,,47,220,150,203,189,15,20,13,14,0.5,0.6
2023-05-15T22:00:00,1633A,117.8525,36.4847,淄博市,双山,细颗粒物(PM2.5),88,105,94,65,37,209,145,198,181,18,17,11,13,0.5,0.4
2023-05-15T22:00:00,1634A,117.9592,36.6331,淄博市,气象站,颗粒物(PM10),86,122,107,44,36,212,148,196,158,16,22,12,9,0.5,0.5
2023-05-15T22:00:00,1635A,118.3092,36.8194,淄博市,莆田园,颗粒物(PM10),87,124,112,39,46,213,152,195,180,25,28,14,18,0.8,1
2023-05-15T22:00:00,1637A,117.558,34.8438,枣庄市,市中区政府,颗粒物(PM10),63,75,79,29,34,240,159,201,187,20,17,14,10,0.4,0.5
2023-05-15T22:00:00,1638A,117.2852,34.7837,枣庄市,薛城环保局,颗粒物(PM10),64,78,79,31,38,209,128,185,172,29,17,12,11,1.0,0.5
2023-05-15T22:00:00,1639A,117.5852,34.7745,枣庄市,峄城区政府,颗粒物(PM10),74,97,82,34,30,217,106,183,154,31,15,13,13,0.4,0.4
2023-05-15T22:00:00,1640A,117.7276,34.5578,枣庄市,台儿庄区环保局,颗粒物(PM10),68,85,79,34,32,186,88,174,143,58,29,15,12,0.8,0.7
2023-05-15T22:00:00,1641A,117.4518,35.0992,枣庄市,山亭区环保局,颗粒物(PM10),57,63,76,32,39,222,147,195,186,19,17,10,11,0.4,0.3
2023-05-15T22:00:00,1642A,121.2514,37.5639,烟台市,开发区,臭氧1小时,64,68,71,39,42,193,171,185,177,20,22,7,8,0.8,0.7
2023-05-15T22:00:00,1643A,121.3719,37.5433,烟台市,轴承厂,臭氧1小时,92,73,76,43,50,195,193,188,188,9,10,5,4,0.6,0.6
2023-05-15T22:00:00,1644A,121.3181,37.5436,烟台市,西郊化工站,臭氧1小时,90,80,84,44,37,194,192,186,186,10,11,6,5,0.6,0.5
2023-05-15T22:00:00,1645A,121.4478,37.4822,烟台市,莱山环保局,细颗粒物(PM2.5),80,100,80,59,51,195,171,188,185,22,15,7,5,0.9,0.6
2023-05-15T22:00:00,1646A,121.2611,37.4967,烟台市,福山环保局,颗粒物(PM10),69,88,82,48,42,186,156,180,170,26,21,7,12,0.4,0.3
2023-05-15T22:00:00,1650A,119.1437,36.7023,潍坊市,环保局,颗粒物(PM10),71,92,104,39,53,198,168,194,188,22,24,10,10,0.5,0.7
2023-05-15T22:00:00,1653A,116.6251,35.4302,济宁市,火炬城,颗粒物(PM10),61,71,88,31,33,178,127,164,152,8,8,15,15,0.9,0.8
2023-05-15T22:00:00,1655A,116.5491,35.4042,济宁市,电化厂,,,78,103,36,36,158,,153,143,9,9,15,11,0.8,0.6
2023-05-15T22:00:00,1656A,117.1437,36.1937,泰安市,监测站,颗粒物(PM10),68,85,99,40,48,226,140,204,186,12,17,8,9,0.4,0.5
2023-05-15T22:00:00,1657A,117.0885,36.2017,泰安市,人口学校,颗粒物(PM10),69,88,103,33,37,201,130,192,175,18,18,10,9,0.5,0.5
2023-05-15T22:00:00,1658A,117.1089,36.1758,泰安市,电力学校,颗粒物(PM10),71,92,105,40,39,208,121,190,167,15,24,13,12,0.3,0.4
2023-05-15T22:00:00,1659A,119.471,35.4209,日照市,监测站,颗粒物(PM10),62,73,87,35,49,226,125,206,181,32,33,6,7,0.2,0.5
2023-05-15T22:00:00,1660A,119.523,35.4216,日照市,市政府广场,颗粒物(PM10),62,73,95,32,44,221,130,198,173,33,36,8,11,0.5,0.7
2023-05-15T22:00:00,1661A,119.5587,35.4044,日照市,港务局,颗粒物(PM10),75,100,125,40,47,198,117,178,159,38,47,12,14,0.9,0.8
2023-05-15T22:00:00,1662A,122.1214,37.4236,威海市,华夏技校,臭氧1小时,103,75,71,51,48,222,206,195,195,16,20,7,7,0.5,0.5
2023-05-15T22:00:00,1663A,122.0508,37.5236,威海市,山大分校,臭氧1小时,116,95,80,42,37,232,232,211,211,11,14,11,9,0.6,0.6
2023-05-15T22:00:00,1664A,122.1067,37.5072,威海市,市监测站,臭氧1小时,114,83,76,34,39,227,227,192,192,7,14,10,8,0.7,0.7
2023-05-15T22:00:00,1666A,118.6614,37.4309,东营市,市环保局,颗粒物(PM10),97,144,115,41,52,245,104,217,182,50,31,16,23,0.6,0.9
2023-05-15T22:00:00,1669A,113.5824,24.7733,韶关市,市八中,颗粒物(PM10),52,54,47,25,30,154,85,142,127,36,21,12,13,0.8,0.7
2023-05-15T22:00:00,1671A,113.5917,24.7972,韶关市,园林处,颗粒物(PM10),53,55,52,31,30,152,87,142,128,27,18,20,14,0.9,0.8
2023-05-15T22:00:00,1672A,113.6735,24.7791,韶关市,韶关学院,颗粒物(PM10),55,59,55,37,34,176,83,164,146,24,22,12,16,0.7,0.7
2023-05-15T22:00:00,1673A,113.5971,24.6863,韶关市,曲江监测站,细颗粒物(PM2.5),57,49,57,40,33,153,99,139,132,18,22,10,9,0.6,0.8
2023-05-15T22:00:00,1674A,116.6794,23.3667,汕头市,金平子站,,36,31,43,17,30,161,113,144,139,13,20,5,10,0.8,0.9
2023-05-15T22:00:00,1675A,116.7244,23.3633,汕头市,龙湖子站,,37,30,46,16,31,165,116,150,148,11,18,3,7,0.6,0.9
2023-05-15T22:00:00,1676A,116.7258,23.2775,汕头市,濠江子站,,33,22,44,9,31,151,103,138,133,12,17,7,11,0.7,0.9
2023-05-15T22:00:00,1677A,116.7519,23.4714,汕头市,澄海子站,,40,40,44,22,33,176,125,153,150,14,21,5,12,0.7,0.7
2023-05-15T22:00:00,1678A,116.6092,23.2539,汕头市,潮阳子站,,35,28,42,12,24,165,112,149,141,8,13,8,11,0.6,0.8
2023-05-15T22:00:00,1680A,110.3539,21.2706,湛江市,湛江影剧院,,32,32,37,21,26,118,100,112,110,18,18,8,11,0.7,0.7
2023-05-15T22:00:00,1681A,110.3928,21.2228,湛江市,市环境监测站,,34,21,27,19,24,120,108,116,115,11,14,6,7,0.6,0.6
2023-05-15T22:00:00,1682A,110.4019,21.1997,湛江市,环保局宿舍,,33,27,26,23,21,125,100,119,117,21,17,9,6,0.6,0.6
2023-05-15T22:00:00,1683A,110.4111,21.2028,湛江市,霞山游泳场,,39,25,23,20,20,133,122,124,124,11,15,6,6,0.6,0.7
2023-05-15T22:00:00,1684A,110.3316,21.2679,湛江市,麻章区环保局,,45,45,40,30,28,129,65,113,102,38,21,4,9,0.8,0.7
2023-05-15T22:00:00,1685A,110.4558,21.2567,湛江市,坡头区环保局,,39,25,23,22,18,128,122,122,122,8,10,7,7,0.6,0.6
2023-05-15T22:00:00,1686A,111.0286,21.4688,茂名市,电白南海,,39,39,36,27,23,130,117,122,119,21,17,5,7,0.6,0.7
2023-05-15T22:00:00,1687A,110.9294,21.6533,茂名市,茂石化七小,,,36,37,28,29,154,,122,109,21,18,7,10,0.7,0.8
2023-05-15T22:00:00,1688A,110.9107,21.6687,茂名市,健康路,,34,27,30,18,18,155,108,121,108,12,12,5,7,0.9,0.9
2023-05-15T22:00:00,1689A,110.8592,21.6828,茂名市,高岭,,39,39,42,24,31,147,89,116,100,20,17,5,10,0.5,0.6
2023-05-15T22:00:00,1690A,116.1231,24.3284,梅州市,梅江月梅,细颗粒物(PM2.5),53,48,35,37,24,146,141,135,135,13,15,11,7,0.6,0.5
2023-05-15T22:00:00,1691A,116.0797,24.2719,梅州市,梅县新城,,38,38,36,26,21,134,103,128,115,21,23,7,6,0.6,0.6
2023-05-15T22:00:00,1692A,116.1248,24.2654,梅州市,环境监控中心,,44,44,36,24,21,147,64,140,120,50,20,4,5,0.7,0.6
2023-05-15T22:00:00,1693A,115.3653,22.775,汕尾市,市环保局,,,37,33,32,25,148,,140,140,7,7,10,9,0.7,0.7
2023-05-15T22:00:00,1694A,115.3706,22.7898,汕尾市,市政府,细颗粒物(PM2.5),77,47,33,56,33,151,127,140,139,13,9,6,5,0.7,0.7
2023-05-15T22:00:00,1695A,115.3622,22.7925,汕尾市,新城中学,细颗粒物(PM2.5),57,50,36,40,26,151,127,142,140,11,7,8,7,0.8,0.7
2023-05-15T22:00:00,1696A,114.6778,23.7569,河源市,源西,,48,39,40,33,22,153,53,135,112,33,22,4,4,0.7,0.7
2023-05-15T22:00:00,1697A,114.6944,23.7586,河源市,东埔,颗粒物(PM10),57,64,39,28,20,145,80,130,118,21,16,6,5,0.7,0.6
2023-05-15T22:00:00,1698A,114.6892,23.7233,河源市,老城,,,108,55,28,19,148,,132,120,32,18,6,5,0.7,0.6
2023-05-15T22:00:00,1699A,111.9797,21.8593,阳江市,鸳鸯湖,,34,14,38,14,29,134,106,124,117,6,16,7,8,0.8,0.9
2023-05-15T22:00:00,1701A,111.9491,21.8658,阳江市,马南垌,,34,23,41,17,40,124,107,120,117,7,20,5,6,0.8,0.9
2023-05-15T22:00:00,1702A,113.0426,23.691,清远市,环保大楼,细颗粒物(PM2.5),60,62,68,43,48,213,110,192,179,42,26,6,9,1.4,1
2023-05-15T22:00:00,1703A,113.0208,23.7106,清远市,凤城街办,细颗粒物(PM2.5),70,83,85,51,57,200,109,176,167,40,22,5,8,0.9,0.7
2023-05-15T22:00:00,1705A,116.6367,23.6719,潮州市,西园路,细颗粒物(PM2.5),79,59,44,58,37,112,105,104,104,18,12,6,6,0.5,0.4
2023-05-15T22:00:00,1706A,116.6447,23.6706,潮州市,档案局,细颗粒物(PM2.5),59,55,44,42,30,173,117,150,138,15,7,12,8,0.6,0.5
2023-05-15T22:00:00,1708A,116.3701,23.5345,揭阳市,新兴,颗粒物(PM10),56,62,50,38,33,195,112,162,146,15,16,7,12,0.7,0.7
2023-05-15T22:00:00,1709A,116.3264,23.5443,揭阳市,西马,颗粒物(PM10),51,52,50,35,30,194,118,162,148,12,18,6,10,0.8,0.8
2023-05-15T22:00:00,1710A,116.3611,23.5626,揭阳市,东兴,颗粒物(PM10),60,70,53,32,29,194,121,160,147,13,17,8,10,1.2,0.9
2023-05-15T22:00:00,1711A,116.4151,23.5294,揭阳市,渔湖,细颗粒物(PM2.5),59,52,51,42,33,209,120,163,148,13,15,9,12,0.8,0.7
2023-05-15T22:00:00,1712A,112.0392,22.9169,云浮市,新市府,,33,33,39,22,24,116,44,106,79,7,7,3,3,0.8,0.8
2023-05-15T22:00:00,1714A,112.0539,22.9539,云浮市,牧羊,细颗粒物(PM2.5),99,52,58,74,44,140,42,125,76,37,23,8,9,0.8,0.8
2023-05-15T22:00:00,1715A,102.575,24.3711,玉溪市,东风水库,,24,12,30,6,22,82,76,70,70,10,17,9,8,0.6,0.8
2023-05-15T22:00:00,1718A,115.4208,35.2464,菏泽市,气象局,颗粒物(PM10),67,84,94,38,36,165,110,156,142,14,14,8,10,0.6,0.5
2023-05-15T22:00:00,1719A,115.4747,35.2375,菏泽市,市政协,细颗粒物(PM2.5),63,72,83,45,42,164,117,157,146,11,11,6,10,0.5,0.5
2023-05-15T22:00:00,1721A,113.3819,40.1097,大同市,果树场,颗粒物(PM10),117,183,95,86,35,147,33,131,105,69,38,15,17,0.7,0.6
2023-05-15T22:00:00,1723A,113.2994,40.0758,大同市,云冈宾馆,颗粒物(PM10),94,137,102,42,33,152,98,140,133,42,40,11,15,0.5,0.9
2023-05-15T22:00:00,1724A,113.3444,40.0917,大同市,大同大学,颗粒物(PM10),87,123,91,37,29,144,100,132,128,29,27,12,17,0.5,0.6
2023-05-15T22:00:00,1725A,113.2661,40.1269,大同市,安家小村,颗粒物(PM10),82,113,99,35,28,153,127,142,141,11,29,38,16,0.3,1.1
2023-05-15T22:00:00,1726A,113.2711,40.0844,大同市,教育学院,颗粒物(PM10),93,135,102,40,38,139,97,130,123,38,44,11,18,0.5,1.3
2023-05-15T22:00:00,1727A,113.1147,36.1547,长治市,清华站,颗粒物(PM10),65,80,110,27,36,173,161,162,158,12,25,10,10,0.5,0.6
2023-05-15T22:00:00,1728A,113.1031,36.1989,长治市,监测站,颗粒物(PM10),64,77,108,29,37,164,154,153,152,12,30,9,10,0.6,0.8
2023-05-15T22:00:00,1730A,113.0886,36.2125,长治市,审计局,颗粒物(PM10),64,77,102,39,42,161,152,152,151,13,32,11,13,0.5,0.6
2023-05-15T22:00:00,1731A,113.0844,36.1856,长治市,长治八中,细颗粒物(PM2.5),115,88,117,87,45,174,156,161,158,10,22,8,8,0.5,0.6
2023-05-15T22:00:00,1733A,111.5531,36.0783,临汾市,临钢医院,颗粒物(PM10),86,122,89,53,25,184,8,167,121,90,38,4,5,0.7,0.7
2023-05-15T22:00:00,1734A,111.5028,36.0714,临汾市,技工学校,颗粒物(PM10),80,109,79,36,29,214,70,199,168,52,28,10,11,0.9,0.6
2023-05-15T22:00:00,1736A,111.5018,36.0855,临汾市,市委,颗粒物(PM10),91,132,99,44,36,221,62,202,161,59,31,5,8,1.3,1
2023-05-15T22:00:00,1738A,113.5758,37.8572,阳泉市,市中心,颗粒物(PM10),86,122,103,34,33,158,2,152,112,118,58,10,22,0.7,0.9
2023-05-15T22:00:00,1739A,113.4894,37.8731,阳泉市,赛鱼,颗粒物(PM10),87,124,96,36,31,159,4,149,102,111,51,10,13,0.9,0.8
2023-05-15T22:00:00,1740A,113.5819,37.8486,阳泉市,南庄,颗粒物(PM10),88,125,113,49,42,166,13,158,132,113,44,10,20,1.0,0.9
2023-05-15T22:00:00,1742A,113.5614,37.8703,阳泉市,平坦,颗粒物(PM10),83,116,112,32,38,159,20,153,118,117,58,10,19,0.6,0.8
2023-05-15T22:00:00,1743A,113.5158,37.8392,阳泉市,大阳泉,颗粒物(PM10),58,66,79,31,31,163,145,157,155,11,21,8,13,0.4,0.6
2023-05-15T22:00:00,1744A,118.9233,42.2816,赤峰市,松山一中,颗粒物(PM10),72,94,82,22,21,150,91,146,104,41,30,15,14,0.8,0.6
2023-05-15T22:00:00,1745A,118.9576,42.2728,赤峰市,哈达街,颗粒物(PM10),84,117,88,30,28,148,58,142,109,72,29,46,18,1.1,0.6
2023-05-15T22:00:00,1746A,118.8788,42.2554,赤峰市,天义路,颗粒物(PM10),83,115,61,24,22,166,72,159,115,57,26,15,14,0.7,0.6
2023-05-15T22:00:00,1748A,123.044,41.1196,鞍山市,深沟寺,颗粒物(PM10),52,53,41,35,26,165,157,142,139,8,8,9,9,0.6,0.5
2023-05-15T22:00:00,1749A,123.011,41.0931,鞍山市,太阳城,,,59,44,37,28,165,,158,144,9,10,8,8,0.8,0.7
2023-05-15T22:00:00,1750A,123.0485,41.1442,鞍山市,太平,颗粒物(PM10),60,69,52,40,28,144,143,132,131,11,12,11,10,0.7,0.6
2023-05-15T22:00:00,1751A,122.9642,41.0971,鞍山市,铁西三道街,颗粒物(PM10),62,74,63,40,31,158,158,147,144,14,19,5,5,0.7,0.8
2023-05-15T22:00:00,1752A,122.9341,41.0833,鞍山市,铁西工业园区,颗粒物(PM10),63,75,58,40,28,173,155,156,141,17,16,9,9,0.9,0.8
2023-05-15T22:00:00,1753A,123.022,41.0821,鞍山市,明达新区,臭氧1小时,72,54,43,36,27,177,177,161,157,6,9,7,6,0.5,0.5
2023-05-15T22:00:00,1754A,123.1289,41.0228,鞍山市,千山,,,,,,,,,,,,,,,,
2023-05-15T22:00:00,1755A,123.7977,41.8491,抚顺市,望花区,细颗粒物(PM2.5),55,54,51,39,33,189,141,182,166,30,22,21,16,0.2,0.3
2023-05-15T22:00:00,1756A,123.9161,41.8822,抚顺市,顺城区,颗粒物(PM10),52,53,50,33,30,197,159,180,163,11,20,4,5,0.3,0.4
2023-05-15T22:00:00,1757A,124.0436,41.8611,抚顺市,东洲区,臭氧1小时,57,60,51,35,30,182,165,177,169,6,9,11,13,0.4,0.4
2023-05-15T22:00:00,1758A,123.9247,41.8642,抚顺市,新抚区,颗粒物(PM10),54,58,57,36,27,196,154,178,160,10,17,9,9,0.5,0.5
2023-05-15T22:00:00,1759A,124.0972,41.8961,抚顺市,大伙房水库,臭氧1小时,63,44,38,31,27,191,170,185,178,5,5,5,6,0.4,0.3
2023-05-15T22:00:00,1760A,123.7086,41.8391,抚顺市,沈抚新城,颗粒物(PM10),53,55,58,35,30,193,155,182,168,14,16,7,11,0.6,0.5
2023-05-15T22:00:00,1761A,123.8275,41.3064,本溪市,大峪,颗粒物(PM10),58,65,50,29,22,148,131,146,140,15,10,6,5,0.7,0.6
2023-05-15T22:00:00,1762A,123.7567,41.3325,本溪市,溪湖,颗粒物(PM10),53,56,45,36,31,154,154,141,141,12,16,11,14,0.7,0.7
2023-05-15T22:00:00,1763A,123.7169,41.3094,本溪市,彩屯,颗粒物(PM10),74,98,84,42,41,116,107,109,102,47,34,55,56,2.3,1.9
2023-05-15T22:00:00,1764A,123.7669,41.2864,本溪市,东明,"颗粒物(PM10),臭氧1小时",53,55,45,31,25,162,162,148,148,15,15,7,6,0.6,0.5
2023-05-15T22:00:00,1765A,123.7992,41.2664,本溪市,新立屯,细颗粒物(PM2.5),57,62,50,40,30,156,156,146,146,10,9,7,6,0.6,0.6
2023-05-15T22:00:00,1766A,123.8142,41.3472,本溪市,威宁,细颗粒物(PM2.5),52,50,46,36,29,143,114,139,124,15,14,6,6,0.5,0.5
2023-05-15T22:00:00,1767A,121.1115,41.0879,锦州市,南山,细颗粒物(PM2.5),97,73,65,72,64,192,158,176,172,14,17,9,11,0.5,0.5
2023-05-15T22:00:00,1768A,121.0533,40.8434,锦州市,开发区,细颗粒物(PM2.5),88,64,70,65,55,181,157,172,170,9,19,8,20,0.5,0.5
2023-05-15T22:00:00,1769A,121.1836,41.1119,锦州市,百股街道,细颗粒物(PM2.5),67,56,55,48,48,202,146,182,176,15,15,8,8,0.6,0.5
2023-05-15T22:00:00,1770A,121.1178,41.1222,锦州市,天安街道,颗粒物(PM10),76,102,74,49,54,206,156,189,185,19,18,8,11,0.8,0.8
2023-05-15T22:00:00,1771A,121.1303,41.1386,锦州市,北湖公园,细颗粒物(PM2.5),90,79,69,67,58,202,155,183,180,16,16,7,9,0.5,0.5
2023-05-15T22:00:00,1772A,126.54,43.8622,吉林市,哈达湾,,28,25,44,8,22,169,89,157,127,17,14,4,5,0.5,0.6
2023-05-15T22:00:00,1773A,126.5844,43.8358,吉林市,东局子,,44,44,42,20,24,170,30,158,119,60,16,9,6,0.7,0.7
2023-05-15T22:00:00,1774A,126.5052,43.8245,吉林市,电力学院,,48,48,42,26,25,174,57,161,129,27,20,8,8,0.6,0.5
2023-05-15T22:00:00,1775A,126.6133,43.8972,吉林市,江北,,41,41,46,19,21,167,44,153,114,40,17,10,7,0.7,0.7
2023-05-15T22:00:00,1776A,126.555,43.8306,吉林市,江南公园,,30,30,46,13,25,165,57,156,120,44,17,6,6,0.6,0.6
2023-05-15T22:00:00,1778A,126.7061,43.7133,吉林市,丰满,,26,26,35,16,27,164,82,153,133,10,7,5,5,0.4,0.5
2023-05-15T22:00:00,1779A,123.9305,47.3636,齐齐哈尔市,安居小区,,24,24,33,6,7,104,70,99,92,11,7,3,3,0.2,0.2
2023-05-15T22:00:00,1780A,123.9488,47.3386,齐齐哈尔市,中心广场,,28,28,26,3,4,97,67,92,84,11,8,5,6,0.3,0.2
2023-05-15T22:00:00,1781A,123.9483,47.3227,齐齐哈尔市,农牧车辆厂,,29,29,41,3,9,105,76,98,91,6,8,4,5,0.2,0.2
2023-05-15T22:00:00,1783A,123.945,47.2988,齐齐哈尔市,市环境监测站,,36,36,45,5,21,107,82,96,92,4,7,5,6,0.2,0.3
2023-05-15T22:00:00,1784A,129.61,44.561,牡丹江市,环保大楼,细颗粒物(PM2.5),53,42,29,37,18,138,62,115,103,35,13,5,5,0.6,0.3
2023-05-15T22:00:00,1785A,129.6115,44.5782,牡丹江市,文化广场,细颗粒物(PM2.5),60,49,31,43,22,136,50,108,96,45,17,6,5,0.8,0.5
2023-05-15T22:00:00,1786A,129.5904,44.5963,牡丹江市,第一医院,细颗粒物(PM2.5),64,54,32,46,21,138,55,113,105,41,14,4,3,0.7,0.4
2023-05-15T22:00:00,1787A,129.6364,44.6075,牡丹江市,机车工厂,,36,36,31,19,14,137,73,112,105,13,12,4,4,0.4,0.3
2023-05-15T22:00:00,1788A,129.6386,44.5462,牡丹江市,第一中学,,48,40,32,33,18,136,24,113,86,35,15,6,3,0.6,0.4
2023-05-15T22:00:00,1789A,124.81117,46.03138,大庆市,大同区,,45,45,53,6,11,125,79,116,90,8,7,4,4,0.3,0.3
2023-05-15T22:00:00,1790A,125.129,46.533,大庆市,龙凤区,颗粒物(PM10),58,65,47,22,15,127,66,112,91,31,14,1,3,0.1,0.2
2023-05-15T22:00:00,1791A,124.902,46.408,大庆市,红岗区,,50,50,41,17,18,128,78,110,89,11,10,3,5,0.3,0.4
2023-05-15T22:00:00,1792A,125.153,46.586,大庆市,萨尔图区,,50,50,40,13,12,116,66,107,80,22,13,7,8,0.5,0.4
2023-05-15T22:00:00,1793A,124.9042,46.6215,大庆市,让胡路区,,37,37,31,7,14,131,80,114,91,12,8,6,6,0.2,0.3
2023-05-15T22:00:00,1794A,118.3606,31.3519,芜湖市,监测站,细颗粒物(PM2.5),62,67,66,44,35,199,122,183,158,33,27,16,11,1.1,0.7
2023-05-15T22:00:00,1795A,118.3714,31.4134,芜湖市,科创中心,颗粒物(PM10),72,94,71,48,38,201,85,186,146,60,40,23,11,1.6,0.9
2023-05-15T22:00:00,1796A,118.3673,31.3131,芜湖市,四水厂,颗粒物(PM10),61,72,63,42,35,194,124,172,150,33,30,16,12,0.9,0.7
2023-05-15T22:00:00,1798A,118.5092,31.6837,马鞍山市,湖东路四小,细颗粒物(PM2.5),63,62,67,45,38,217,112,198,178,39,26,9,11,0.8,0.9
2023-05-15T22:00:00,1799A,118.5024,31.6449,马鞍山市,开发区,颗粒物(PM10),85,119,77,51,38,212,40,191,156,97,38,9,11,1.0,1.1
2023-05-15T22:00:00,1800A,118.5228,31.7231,马鞍山市,慈湖,颗粒物(PM10),65,80,69,40,38,216,95,195,175,50,28,9,12,0.8,0.9
2023-05-15T22:00:00,1802A,118.6245,31.7241,马鞍山市,濮塘,,49,49,61,33,34,214,114,189,162,26,20,7,10,1.2,1.4
2023-05-15T22:00:00,1803A,115.9872,29.6815,九江市,十里,颗粒物(PM10),56,62,57,39,34,180,84,162,146,36,26,11,12,0.7,0.5
2023-05-15T22:00:00,1804A,115.9584,29.7046,九江市,茅山头,颗粒物(PM10),60,69,67,38,39,179,88,161,145,38,34,7,12,0.8,0.6
2023-05-15T22:00:00,1805A,115.9877,29.7295,九江市,西园,颗粒物(PM10),51,51,54,34,42,171,108,151,141,25,37,7,10,0.6,0.7
2023-05-15T22:00:00,1806A,116.0172,29.6547,九江市,五七二七厂,,48,48,51,23,30,182,146,164,162,6,10,9,10,0.4,0.4
2023-05-15T22:00:00,1808A,115.9114,29.6038,九江市,综合工业园,颗粒物(PM10),65,80,72,33,45,180,148,161,154,11,30,13,14,0.7,0.8
2023-05-15T22:00:00,1809A,116.0721,29.7535,九江市,石化总厂,颗粒物(PM10),65,79,76,36,40,163,101,143,129,31,23,17,18,0.6,0.6
2023-05-15T22:00:00,1810A,115.9773,29.5698,九江市,庐山气象台,,49,48,39,28,27,171,156,160,160,6,4,9,7,0.6,0.8
2023-05-15T22:00:00,1812A,112.3931,34.6516,洛阳市,市委党校,颗粒物(PM10),53,56,75,30,29,164,114,148,137,14,15,5,5,0.6,0.5
2023-05-15T22:00:00,1814A,112.4657,34.6871,洛阳市,豫西宾馆,颗粒物(PM10),57,63,97,31,40,192,129,157,143,11,29,13,6,0.7,0.7
2023-05-15T22:00:00,1815A,112.494,34.6886,洛阳市,河南林校,颗粒物(PM10),51,52,75,25,30,186,132,157,146,11,19,16,10,0.5,0.4
2023-05-15T22:00:00,1816A,112.3844,34.623,洛阳市,开发区管委会,颗粒物(PM10),51,51,71,27,29,176,122,159,145,12,15,7,7,0.3,0.3
2023-05-15T22:00:00,1817A,112.4267,34.6258,洛阳市,市委新办公区,颗粒物(PM10),54,57,74,36,37,170,123,153,141,18,17,15,11,0.5,0.4
2023-05-15T22:00:00,1818A,114.4839,36.0621,安阳市,棉研所,颗粒物(PM10),94,137,123,41,35,174,108,158,146,8,13,7,9,0.7,0.6
2023-05-15T22:00:00,1819A,114.3551,36.1017,安阳市,红庙街,颗粒物(PM10),68,86,124,39,46,215,123,191,177,10,27,4,12,0.4,0.4
2023-05-15T22:00:00,1820A,114.361,36.0681,安阳市,银杏小区,细颗粒物(PM2.5),59,65,113,42,45,199,110,179,164,7,22,9,20,0.6,0.7
2023-05-15T22:00:00,1824A,114.3389,34.7781,开封市,肿瘤医院,颗粒物(PM10),60,70,90,33,37,171,106,163,144,6,12,6,8,0.7,0.7
2023-05-15T22:00:00,1826A,114.2885,34.7965,开封市,世纪星幼儿园,颗粒物(PM10),121,191,101,36,37,169,107,161,143,11,16,4,5,0.7,0.7
2023-05-15T22:00:00,1828A,113.227,35.2125,焦作市,市环保局,颗粒物(PM10),59,67,118,28,42,227,120,181,166,18,29,8,16,0.5,0.7
2023-05-15T22:00:00,1830A,113.1992,35.2590,焦作市,影视城,颗粒物(PM10),60,69,90,30,32,220,137,194,175,14,19,12,16,0.6,0.6
2023-05-15T22:00:00,1832A,113.3257,33.742,平顶山市,新华旅馆,颗粒物(PM10),71,91,77,51,44,169,131,161,152,12,12,4,5,0.5,0.5
2023-05-15T22:00:00,1833A,113.2919,33.737,平顶山市,规划设计院,细颗粒物(PM2.5),72,83,82,52,44,174,126,167,157,23,16,7,8,0.4,0.4
2023-05-15T22:00:00,1834A,113.182,33.774,平顶山市,平顶山工学院,细颗粒物(PM2.5),70,81,71,51,38,169,111,158,149,10,6,4,6,0.5,0.5
2023-05-15T22:00:00,1835A,111.1922,34.7752,三门峡市,市政府,,38,37,69,26,29,170,96,147,126,20,26,6,9,0.5,0.4
2023-05-15T22:00:00,1836A,111.1587,34.7942,三门峡市,开发区,颗粒物(PM10),58,65,81,25,30,175,82,151,126,23,25,5,8,0.5,0.5
2023-05-15T22:00:00,1838A,111.143,34.7955,三门峡市,风景区,,43,43,77,25,44,186,90,157,135,16,17,8,10,0.4,0.5
2023-05-15T22:00:00,1840A,111.2992,30.6981,宜昌市,白龙岗,细颗粒物(PM2.5),83,102,65,61,32,193,66,154,127,32,36,10,8,0.8,0.6
2023-05-15T22:00:00,1841A,111.3549,30.6465,宜昌市,伍家岗,细颗粒物(PM2.5),85,93,72,63,40,201,66,158,131,33,45,12,8,0.8,0.7
2023-05-15T22:00:00,1842A,111.2628,30.6961,宜昌市,点军区,颗粒物(PM10),72,93,68,51,33,172,46,145,111,58,38,9,8,0.8,0.6
2023-05-15T22:00:00,1843A,111.3275,30.7819,宜昌市,夷陵区,细颗粒物(PM2.5),85,104,71,63,37,187,76,160,138,29,37,11,8,0.6,0.6
2023-05-15T22:00:00,1844A,112.2494,30.3197,荆州市,市图书馆,细颗粒物(PM2.5),87,75,85,64,63,156,112,146,134,21,16,12,10,0.8,0.8
2023-05-15T22:00:00,1845A,112.2008,30.3544,荆州市,市委党校,细颗粒物(PM2.5),107,85,91,80,65,154,115,145,135,21,16,11,10,0.7,0.7
2023-05-15T22:00:00,1847A,113.1094,29.3578,岳阳市,南湖风景区,细颗粒物(PM2.5),59,61,58,42,42,161,96,154,146,31,16,21,15,0.5,0.5
2023-05-15T22:00:00,1848A,113.1493,29.4251,岳阳市,城陵矶,细颗粒物(PM2.5),70,78,66,51,41,157,110,148,142,21,20,8,13,0.8,0.8
2023-05-15T22:00:00,1849A,113.1497,29.3575,岳阳市,开发区,颗粒物(PM10),60,69,64,37,39,158,99,150,139,25,21,11,16,0.7,0.7
2023-05-15T22:00:00,1850A,113.2621,29.4758,岳阳市,云溪区,颗粒物(PM10),53,55,53,31,34,153,132,149,145,14,13,10,12,0.6,0.7
2023-05-15T22:00:00,1851A,112.9943,29.4402,岳阳市,君山区,细颗粒物(PM2.5),60,67,63,43,43,171,120,157,152,22,19,13,12,0.5,0.6
2023-05-15T22:00:00,1852A,113.2117,29.355,岳阳市,金凤水库,细颗粒物(PM2.5),59,63,56,42,36,161,101,146,134,12,13,4,9,0.8,0.9
2023-05-15T22:00:00,1854A,111.6975,28.9703,常德市,市二中,,,92,60,60,42,118,,108,96,29,10,9,11,0.5,0.3
2023-05-15T22:00:00,1857A,111.7158,29.1456,常德市,白鹤山,细颗粒物(PM2.5),70,72,59,51,41,115,73,106,96,8,5,10,10,0.6,0.5
2023-05-15T22:00:00,1858A,110.5319,29.1217,张家界市,永定新区,细颗粒物(PM2.5),68,68,57,49,36,134,49,108,80,24,22,4,4,0.1,0.3
2023-05-15T22:00:00,1859A,110.4697,29.1242,张家界市,电业局,细颗粒物(PM2.5),75,74,63,55,36,114,50,97,78,27,21,6,4,0.6,0.4
2023-05-15T22:00:00,1860A,110.5594,29.3547,张家界市,未央路,颗粒物(PM10),54,57,47,28,27,123,47,106,76,26,21,3,4,0.3,0.3
2023-05-15T22:00:00,1861A,110.4417,29.315,张家界市,袁家界,,37,37,44,21,24,118,106,112,101,5,8,8,8,0.5,0.5
2023-05-15T22:00:00,1862A,110.4144,25.3167,桂林市,电子科大尧山校区,,49,49,38,32,27,132,67,120,107,10,7,4,7,0.7,0.7
2023-05-15T22:00:00,1863A,110.2819,25.2697,桂林市,监测站,颗粒物(PM10),53,56,51,32,32,145,101,132,126,19,12,6,7,0.6,0.6
2023-05-15T22:00:00,1864A,110.3089,25.2708,桂林市,龙隐路小学,,49,49,46,29,30,138,77,126,116,24,15,6,6,0.7,0.6
2023-05-15T22:00:00,1865A,110.2869,25.2178,桂林市,八中,,46,46,46,31,29,138,42,123,113,67,17,4,5,0.5,0.4
2023-05-15T22:00:00,1866A,109.2262,21.588,北海市,牛尾岭水库,,,,37,,25,143,,129,121,,11,,10,,0.9
2023-05-15T22:00:00,1867A,109.1436,21.4086,北海市,海滩公园,,29,17,40,7,23,168,90,145,132,5,9,3,7,0.4,0.7
2023-05-15T22:00:00,1868A,109.0981,21.4661,北海市,新市环保局,,30,21,37,9,24,169,93,149,134,7,11,2,6,0.7,0.7
2023-05-15T22:00:00,1869A,109.1778,21.5233,北海市,北海工业园,,30,28,47,17,28,159,94,144,132,6,10,4,8,0.5,0.7
2023-05-15T22:00:00,1870A,109.4856,24.3895,柳州市,柳东小学,,50,49,54,35,39,147,118,143,139,15,17,15,17,0.6,0.7
2023-05-15T22:00:00,1871A,109.4157,24.3277,柳州市,环保监测站,颗粒物(PM10),53,55,64,29,44,141,96,134,124,21,27,5,7,0.7,0.9
2023-05-15T22:00:00,1872A,109.389,24.341,柳州市,河西水厂,,48,45,67,33,42,137,87,128,120,25,30,6,9,0.6,0.9
2023-05-15T22:00:00,1873A,109.4311,24.2921,柳州市,市四中,,50,50,62,28,44,149,88,139,128,25,25,8,11,0.9,1.1
2023-05-15T22:00:00,1874A,109.4006,24.3631,柳州市,市九中,颗粒物(PM10),55,60,68,30,40,141,94,136,125,21,22,8,10,0.5,0.6
2023-05-15T22:00:00,1875A,109.4958,24.3134,柳州市,古亭山,,42,37,54,29,37,140,96,131,121,22,23,2,5,0.6,0.8
2023-05-15T22:00:00,1876A,109.5078,18.2489,三亚市,河东子站,,22,16,13,10,8,88,70,85,79,6,6,4,3,0.5,0.5
2023-05-15T22:00:00,1877A,109.4964,18.2681,三亚市,河西子站,,20,15,12,9,6,88,62,84,78,11,7,2,2,0.4,0.4
2023-05-15T22:00:00,1878A,104.7778,31.4741,绵阳市,富乐山,"颗粒物(PM10),细颗粒物(PM2.5)",63,76,78,45,55,187,132,178,164,19,25,5,5,0.5,0.5
2023-05-15T22:00:00,1879A,104.7563,31.4535,绵阳市,市人大,细颗粒物(PM2.5),65,66,85,47,60,178,130,170,160,29,36,6,8,0.6,0.6
2023-05-15T22:00:00,1880A,104.6697,31.4668,绵阳市,高新区自来水公司,细颗粒物(PM2.5),94,105,106,70,58,206,133,188,178,26,35,11,9,0.7,0.7
2023-05-15T22:00:00,1881A,104.7287,31.5075,绵阳市,三水厂,细颗粒物(PM2.5),64,75,107,46,70,214,134,194,178,35,47,8,8,0.8,0.8
2023-05-15T22:00:00,1882A,104.563,28.793,宜宾市,石马中学,细颗粒物(PM2.5),85,111,81,63,49,168,87,142,131,55,37,9,8,0.8,0.7
2023-05-15T22:00:00,1883A,104.6201,28.7728,宜宾市,市委,细颗粒物(PM2.5),108,122,92,81,53,146,115,135,132,28,37,11,11,0.8,0.7
2023-05-15T22:00:00,1884A,104.6055,28.793,宜宾市,宜宾四中,细颗粒物(PM2.5),110,136,99,83,60,145,69,129,119,69,44,10,9,0.9,0.7
2023-05-15T22:00:00,1885A,104.639,28.7562,宜宾市,市政府,细颗粒物(PM2.5),124,135,98,94,60,147,90,130,127,52,52,15,10,0.9,0.8
2023-05-15T22:00:00,1886A,104.5742,28.7199,宜宾市,黄金嘴,细颗粒物(PM2.5),95,110,82,71,47,137,70,129,117,48,43,11,9,0.8,0.7
2023-05-15T22:00:00,1888A,101.6891,26.571,攀枝花市,弄弄坪,细颗粒物(PM2.5),93,62,31,69,26,106,57,96,82,34,18,12,11,1.4,0.8
2023-05-15T22:00:00,1889A,101.5769,26.5928,攀枝花市,河门口,,28,27,28,19,20,107,79,100,96,19,18,6,6,0.7,0.6
2023-05-15T22:00:00,1890A,101.7169,26.585,攀枝花市,炳草岗,细颗粒物(PM2.5),58,58,31,41,24,105,59,98,81,45,26,13,8,1.4,1
2023-05-15T22:00:00,1891A,101.7369,26.5008,攀枝花市,仁和,,,88,41,67,32,110,,100,99,27,22,16,19,1.8,1.3
2023-05-15T22:00:00,1893A,105.4324,28.9634,泸州市,九狮山,细颗粒物(PM2.5),93,86,68,69,43,156,73,135,119,32,25,8,12,0.4,0.4
2023-05-15T22:00:00,1894A,105.4427,28.9063,泸州市,小市上码头,细颗粒物(PM2.5),117,129,107,88,72,148,81,120,108,25,36,16,18,0.9,0.9
2023-05-15T22:00:00,1895A,105.4241,28.8573,泸州市,兰田宪桥,细颗粒物(PM2.5),119,113,101,90,74,162,85,126,112,23,31,11,13,1.0,1
2023-05-15T22:00:00,1896A,105.4379,28.8833,泸州市,市环监站,细颗粒物(PM2.5),94,106,97,70,64,147,66,122,107,39,40,10,19,0.8,0.8
2023-05-15T22:00:00,1901A,104.4239,31.1208,德阳市,东山公园,颗粒物(PM10),62,73,95,38,47,205,153,193,190,17,30,5,6,0.7,0.7
2023-05-15T22:00:00,1902A,104.3826,31.1317,德阳市,西小区,,,83,112,47,68,210,,193,193,35,44,3,5,0.6,0.7
2023-05-15T22:00:00,1904A,104.3553,31.1091,德阳市,耐火材料厂,颗粒物(PM10),78,106,129,49,71,226,108,206,192,43,44,4,6,0.5,0.7
2023-05-15T22:00:00,1905A,106.056,30.8064,南充市,西山风景区,细颗粒物(PM2.5),112,106,84,84,68,172,123,160,151,25,21,29,16,0.8,0.7
2023-05-15T22:00:00,1906A,106.0789,30.8023,南充市,南充市委,细颗粒物(PM2.5),113,128,98,85,59,173,124,165,155,32,35,29,15,0.8,0.8
2023-05-15T22:00:00,1907A,106.1031,30.8217,南充市,南充炼油厂,细颗粒物(PM2.5),98,115,112,73,67,169,120,160,150,30,27,19,16,0.8,0.8
2023-05-15T22:00:00,1908A,106.1064,30.7856,南充市,高坪区监测站,细颗粒物(PM2.5),98,112,93,73,68,169,123,162,150,32,38,19,16,0.8,0.8
2023-05-15T22:00:00,1909A,106.0642,30.7636,南充市,嘉陵区环保局,细颗粒物(PM2.5),122,130,107,92,74,180,119,169,156,36,42,40,38,0.9,0.8
2023-05-15T22:00:00,1910A,106.1087,30.8388,南充市,市环境监测站,细颗粒物(PM2.5),97,109,107,72,70,166,118,158,149,36,34,17,15,0.8,0.8
2023-05-15T22:00:00,1911A,106.9222,27.6869,遵义市,丁字口,细颗粒物(PM2.5),79,53,61,58,55,86,24,70,52,45,36,7,9,0.9,0.9
2023-05-15T22:00:00,1912A,106.9242,27.7019,遵义市,凤凰山,细颗粒物(PM2.5),52,50,62,36,38,111,102,100,100,18,24,7,9,0.5,0.6
2023-05-15T22:00:00,1913A,106.8906,27.6486,遵义市,忠庄,颗粒物(PM10),82,113,97,53,56,92,44,69,63,24,33,4,4,0.6,0.7
2023-05-15T22:00:00,1914A,106.9231,27.6506,遵义市,舟水桥,细颗粒物(PM2.5),75,91,77,55,47,92,22,73,58,34,25,3,3,0.7,0.6
2023-05-15T22:00:00,1915A,106.9178,27.72,遵义市,干田坝,颗粒物(PM10),51,51,65,33,38,109,42,84,73,36,34,6,8,0.7,0.7
2023-05-15T22:00:00,1916A,103.7897,25.5035,曲靖市,环境监测站,,19,15,31,6,16,95,60,89,76,12,18,2,7,0.6,0.5
2023-05-15T22:00:00,1917A,103.8,25.5364,曲靖市,烟厂办公区,,23,14,32,13,17,109,72,103,92,15,19,3,12,0.5,0.6
2023-05-15T22:00:00,1918A,108.7197,34.3956,咸阳市,气象站,颗粒物(PM10),63,76,62,35,28,213,56,178,154,92,44,8,7,0.8,0.7
2023-05-15T22:00:00,1919A,108.673,34.3155,咸阳市,实验中学,颗粒物(PM10),69,87,69,33,32,259,107,216,196,46,43,6,6,0.8,0.7
2023-05-15T22:00:00,1920A,108.7233,34.3617,咸阳市,师范学院,,,89,69,40,30,226,109,192,178,,39,11,9,0.7,0.6
2023-05-15T22:00:00,1922A,109.0656,35.0994,铜川市,党校,颗粒物(PM10),89,127,74,29,24,168,38,148,119,59,33,10,10,0.8,0.7
2023-05-15T22:00:00,1923A,109.0697,35.0697,铜川市,王益区政府,颗粒物(PM10),70,90,59,24,27,170,46,150,118,36,24,9,8,0.5,0.4
2023-05-15T22:00:00,1924A,108.9344,34.9058,铜川市,新区管委会,颗粒物(PM10),89,128,69,43,30,180,30,167,143,85,21,8,8,0.8,0.4
2023-05-15T22:00:00,1926A,109.4131,36.6275,延安市,枣园,颗粒物(PM10),65,79,72,25,25,170,22,158,129,78,27,5,5,0.4,0.3
2023-05-15T22:00:00,1927A,109.4761,36.6028,延安市,延大医附院,二氧化氮,80,75,81,21,23,163,26,148,124,159,58,4,4,0.8,0.6
2023-05-15T22:00:00,1929A,109.5056,36.6106,延安市,百米大道,颗粒物(PM10),64,78,87,31,31,153,55,140,124,69,38,6,7,0.7,0.5
2023-05-15T22:00:00,1930A,107.185,34.3063,宝鸡市,庙沟村,颗粒物(PM10),51,51,39,23,19,176,124,160,152,7,10,7,7,0.2,0.3
2023-05-15T22:00:00,1931A,107.0708,34.3017,宝鸡市,竹园沟,,30,26,33,20,20,180,95,157,127,15,17,6,7,0.4,0.4
2023-05-15T22:00:00,1932A,107.1906,34.3672,宝鸡市,三陆医院,颗粒物(PM10),52,54,62,24,26,178,79,157,144,50,37,6,10,0.6,0.5
2023-05-15T22:00:00,1933A,107.1431,34.3547,宝鸡市,监测站,,50,50,51,19,25,181,140,158,153,10,26,6,7,0.2,0.4
2023-05-15T22:00:00,1934A,107.1186,34.3739,宝鸡市,技工学校,,35,31,52,21,26,182,112,159,146,18,25,5,6,0.4,0.5
2023-05-15T22:00:00,1935A,107.3906,34.3528,宝鸡市,陈仓区环保局家属楼,颗粒物(PM10),66,82,68,18,28,181,137,164,158,6,31,5,8,0.3,0.5
2023-05-15T22:00:00,1936A,107.2058,34.3497,宝鸡市,文理学院,颗粒物(PM10),57,63,53,36,27,187,80,166,145,42,27,5,5,0.5,0.5
2023-05-15T22:00:00,1937A,107.2386,34.3622,宝鸡市,三迪小学,,48,48,58,24,26,186,113,166,152,28,33,10,7,0.3,0.4
2023-05-15T22:00:00,1938A,109.5293,34.5101,渭南市,农科所,,46,46,58,24,29,172,108,152,136,9,28,8,10,0.4,0.5
2023-05-15T22:00:00,1939A,109.4974,34.4877,渭南市,日报社,,,39,62,12,21,192,110,176,150,21,36,6,8,,0.5
2023-05-15T22:00:00,1940A,109.4636,34.493,渭南市,体育馆,,34,34,60,16,31,190,108,176,149,14,39,6,8,0.2,0.4
2023-05-15T22:00:00,1941A,109.4259,34.5023,渭南市,高新一小,,,,,,,,,,,,,,,,
2023-05-15T22:00:00,1943A,102.1725,38.5339,金昌市,新川苑,颗粒物(PM10),57,63,87,14,23,138,118,132,126,11,23,7,12,0.4,0.6
2023-05-15T22:00:00,1944A,102.1692,38.5167,金昌市,天庆家园,,42,42,66,15,27,147,125,139,134,11,19,8,13,0.6,0.6
2023-05-15T22:00:00,1945A,98.2908,39.7711,嘉峪关市,气象局,颗粒物(PM10),377,481,141,105,38,142,86,138,126,33,27,63,25,1.5,0.6
2023-05-15T22:00:00,1947A,106.3394,38.817,石嘴山市,沙湖旅游区,,,,,,,,,,,,,,,,
2023-05-15T22:00:00,1948A,106.3668,39.0145,石嘴山市,大武口朝阳西街,颗粒物(PM10),68,86,83,26,36,182,126,161,156,28,33,9,57,0.3,0.6
2023-05-15T22:00:00,1949A,106.7704,39.2282,石嘴山市,惠农南大街,颗粒物(PM10),87,124,83,27,26,149,55,142,126,48,39,25,36,0.5,0.5
2023-05-15T22:00:00,1950A,106.7099,39.1325,石嘴山市,红果子镇惠新街,颗粒物(PM10),78,106,72,40,35,159,79,151,140,45,27,12,15,0.5,0.4
2023-05-15T22:00:00,1951A,84.895,45.6094,克拉玛依市,长征新村,,30,16,26,3,4,111,93,106,93,2,3,8,8,0.2,0.2
2023-05-15T22:00:00,1952A,84.8988,45.5893,克拉玛依市,南林小区,,29,20,29,8,15,112,90,106,92,3,4,2,2,0.1,0.1
2023-05-15T22:00:00,1954A,84.905,44.3396,克拉玛依市,独山子区,,28,14,59,10,16,119,87,119,96,8,6,8,7,0.3,0.3
2023-05-15T22:00:00,1955A,85.6979,46.098,克拉玛依市,乌尔禾区商贸楼,颗粒物(PM10),97,144,33,9,11,105,86,105,99,3,2,9,10,0.2,0.2
2023-05-15T22:00:00,1956A,86.1472,41.7538,巴音郭楞州,孔雀公园,颗粒物(PM10),80,109,85,22,20,121,88,117,110,9,8,3,4,0.2,0.2
2023-05-15T22:00:00,1957A,86.1972,41.7166,巴音郭楞州,棉纺厂,颗粒物(PM10),65,79,81,14,24,132,82,126,116,21,13,3,3,0.3,0.3
2023-05-15T22:00:00,1958A,86.2357,41.7173,巴音郭楞州,经济开发区,颗粒物(PM10),67,83,63,12,19,124,92,119,114,8,10,2,2,0.2,0.2
2023-05-15T22:00:00,1961A,117.532,36.6868,济南市,东山小学,颗粒物(PM10),92,134,114,34,35,208,162,196,187,10,17,7,8,0.5,0.4
2023-05-15T22:00:00,1966A,120.0405,35.8735,青岛市,黄岛区4号,颗粒物(PM10),79,107,105,34,56,208,151,188,185,24,25,12,11,1.1,1.1
2023-05-15T22:00:00,1982A,122.0693,37.2174,威海市,文登开发区,臭氧1小时,78,83,89,48,48,200,182,194,193,13,15,7,7,0.7,0.7
2023-05-15T22:00:00,2031A,113.1817,27.9958,株洲市,云田中学,细颗粒物(PM2.5),70,53,62,51,44,178,92,145,110,11,14,6,8,0.4,0.7
2023-05-15T22:00:00,2054A,114.1099,32.1059,信阳市,平桥分局,细颗粒物(PM2.5),62,70,59,44,36,163,140,156,153,16,14,9,10,0.6,0.6
2023-05-15T22:00:00,2064A,113.9956,32.1271,信阳市,南湾水厂,,,,,,,,,,,,,,,,
2023-05-15T22:00:00,2065A,114.0775,32.1195,信阳市,市酿酒公司,细颗粒物(PM2.5),52,49,60,36,43,162,147,157,156,10,11,10,10,0.5,0.6
2023-05-15T22:00:00,2066A,114.0609,32.1399,信阳市,审计局,颗粒物(PM10),57,63,70,36,45,167,148,163,162,13,10,9,10,0.4,0.5
2023-05-15T22:00:00,2067A,114.6613,33.6128,周口市,市环境监测站,细颗粒物(PM2.5),58,58,70,41,40,170,144,156,151,9,8,6,6,0.5,0.6
2023-05-15T22:00:00,2068A,114.6758,33.6347,周口市,周口师范,颗粒物(PM10),53,56,66,34,37,160,138,148,144,11,12,4,5,0.4,0.5
2023-05-15T22:00:00,2069A,114.6546,33.5979,周口市,市运管处,颗粒物(PM10),57,63,73,31,36,163,138,151,144,11,9,8,8,0.7,0.7
2023-05-15T22:00:00,2070A,114.6369,33.6406,周口市,川汇区环保局,颗粒物(PM10),58,66,69,34,33,154,141,144,143,10,10,9,10,0.6,0.6
2023-05-15T22:00:00,2075A,117.6336,24.4674,漳州市,九湖,,,,,,,,,,,,,,,,
2023-05-15T22:00:00,2160A,112.85,35.5051,晋城市,自来水公司,颗粒物(PM10),60,69,101,29,34,213,136,176,173,20,32,16,14,0.5,0.5
2023-05-15T22:00:00,2161A,112.8318,35.4936,晋城市,白云商贸,,45,45,107,31,34,191,121,165,158,21,28,12,10,0.5,0.7
2023-05-15T22:00:00,2162A,112.8508,35.4887,晋城市,市环保局,颗粒物(PM10),65,79,108,31,38,201,127,169,165,23,37,11,10,0.6,0.7
2023-05-15T22:00:00,2163A,112.8676,35.4897,晋城市,技术学院,颗粒物(PM10),61,72,96,24,36,191,128,161,157,19,33,11,10,0.4,0.6
2023-05-15T22:00:00,2165A,112.8453,35.546,晋城市,白马寺,颗粒物(PM10),59,67,88,26,31,189,122,158,154,30,19,9,8,0.7,0.7
2023-05-15T22:00:00,2166A,112.4397,39.3522,朔州市,平朔,颗粒物(PM10),68,85,105,40,44,140,117,134,129,7,30,4,11,0.3,0.4
2023-05-15T22:00:00,2167A,112.4575,39.3617,朔州市,朔唯,颗粒物(PM10),78,105,133,32,43,142,120,136,130,8,43,6,17,0.4,0.5
2023-05-15T22:00:00,2168A,112.4258,39.3197,朔州市,区政府,,,133,86,,23,144,117,138,132,6,17,4,6,0.4,0.5
2023-05-15T22:00:00,2169A,112.4072,39.3278,朔州市,市环保局,颗粒物(PM10),80,110,104,34,32,131,107,126,118,14,28,4,8,0.4,0.5
2023-05-15T22:00:00,2170A,112.4272,39.3681,朔州市,市二中,颗粒物(PM10),86,122,114,39,41,147,123,141,136,4,30,5,13,0.2,0.4
2023-05-15T22:00:00,2171A,112.7532,37.6945,晋中市,锦纶小区,颗粒物(PM10),91,132,118,41,43,196,99,175,150,43,34,12,13,0.4,0.5
2023-05-15T22:00:00,2173A,112.7249,37.7067,晋中市,南都小区,颗粒物(PM10),94,138,129,41,35,201,105,177,151,31,33,14,13,0.9,0.9
2023-05-15T22:00:00,2174A,112.6991,37.6982,晋中市,榆次区政府,颗粒物(PM10),82,114,126,31,32,198,95,162,149,34,35,14,15,0.6,0.8
2023-05-15T22:00:00,2175A,110.9956,35.0147,运城市,运城中学,,48,48,82,17,29,168,118,152,136,16,19,5,7,0.7,0.7
2023-05-15T22:00:00,2178A,110.9686,35.0303,运城市,地区技校,,38,35,95,17,27,182,121,160,141,5,24,4,6,0.4,0.7
2023-05-15T22:00:00,2179A,111.0414,35.1147,运城市,空港新区,颗粒物(PM10),51,52,94,18,36,167,116,160,140,7,28,7,11,0.5,1.1
2023-05-15T22:00:00,2181A,112.7383,38.4519,忻州市,开发区,颗粒物(PM10),69,87,93,32,34,193,142,172,168,17,36,8,16,0.4,0.5
2023-05-15T22:00:00,2182A,112.7003,38.4928,忻州市,会展中心,颗粒物(PM10),72,93,103,34,36,180,115,154,150,25,42,10,14,0.4,0.4
2023-05-15T22:00:00,2183A,111.1406,37.5211,吕梁市,环保局,颗粒物(PM10),86,122,108,29,21,163,30,147,124,87,42,7,8,0.6,0.5
2023-05-15T22:00:00,2185A,111.1297,37.5136,吕梁市,自来水公司,颗粒物(PM10),91,132,126,28,21,150,43,146,119,59,37,5,7,1.1,0.6
2023-05-15T22:00:00,2187A,106.8174,39.6973,乌海市,市林业局,颗粒物(PM10),81,112,83,36,29,184,63,160,146,55,30,12,39,1.2,1.1
2023-05-15T22:00:00,2188A,106.7907,39.6667,乌海市,中海勃湾学校,颗粒物(PM10),100,150,96,62,32,187,31,166,150,103,40,16,45,1.2,1.1
2023-05-15T22:00:00,2191A,122.2532,43.6801,通辽市,艺术职业学校,颗粒物(PM10),53,56,76,21,27,126,70,122,98,22,15,4,6,0.2,0.3
2023-05-15T22:00:00,2192A,119.7594,49.2261,呼伦贝尔市,区环保局,,37,37,59,21,18,99,94,96,96,5,3,4,4,0.2,0.2
2023-05-15T22:00:00,2195A,107.4212,40.761,巴彦淖尔市,附二中,颗粒物(PM10),58,66,54,19,13,143,68,139,118,41,20,3,4,0.7,0.5
2023-05-15T22:00:00,2196A,107.37,40.7372,巴彦淖尔市,市环保大楼,颗粒物(PM10),59,68,68,24,26,146,57,142,119,45,24,3,4,0.5,0.5
2023-05-15T22:00:00,2197A,113.1306,40.9923,乌兰察布市,集宁新区,颗粒物(PM10),65,79,47,23,18,150,112,142,137,24,19,18,23,0.5,0.5
2023-05-15T22:00:00,2200A,122.0392,46.0656,兴安盟,胜华新制药厂,,31,31,32,13,14,103,91,97,94,9,10,2,2,0.4,0.3
2023-05-15T22:00:00,2201A,121.9504,46.0741,兴安盟,科右前旗环保局,,31,31,34,15,12,103,86,97,92,8,7,1,3,0,0.2
2023-05-15T22:00:00,2202A,116.1042,43.9317,锡林郭勒盟,市环保监测站,,26,19,34,7,6,105,83,102,92,2,7,13,13,0.2,0.2
2023-05-15T22:00:00,2203A,116.0781,43.9311,锡林郭勒盟,市政府,,28,28,40,3,6,105,81,101,92,7,10,8,11,0.2,0.2
2023-05-15T22:00:00,2204A,105.6467,38.8363,阿拉善盟,西城区西花园,颗粒物(PM10),56,61,59,23,24,140,111,136,128,10,10,8,8,0.4,0.5
2023-05-15T22:00:00,2205A,105.6985,38.8411,阿拉善盟,蒙二幼,颗粒物(PM10),57,64,57,32,24,148,114,141,137,10,7,6,6,0.2,0.2
2023-05-15T22:00:00,2206A,105.724,38.8516,阿拉善盟,环保局新楼,,46,38,38,32,26,146,125,141,137,5,6,7,8,0.3,0.4
2023-05-15T22:00:00,2207A,121.6094,41.998,阜新市,工业园区,颗粒物(PM10),93,136,100,40,35,179,147,167,164,17,12,17,16,0.9,0.5
2023-05-15T22:00:00,2208A,121.6697,42.0279,阜新市,长青街,颗粒物(PM10),74,97,74,42,36,183,154,174,170,18,17,13,16,0.9,0.8
2023-05-15T22:00:00,2209A,121.6673,42.0705,阜新市,农业园区,细颗粒物(PM2.5),80,72,57,59,43,183,161,175,173,16,17,12,14,0.9,0.8
2023-05-15T22:00:00,2210A,121.6717,42.0224,阜新市,东苑,,,,68,45,39,177,153,162,159,24,17,15,18,1.0,1
2023-05-15T22:00:00,2211A,121.6506,42.0498,阜新市,玉龙新城,细颗粒物(PM2.5),72,86,65,52,40,183,154,173,171,17,14,14,15,0.9,0.7
2023-05-15T22:00:00,2212A,123.2,41.1953,辽阳市,宏伟区,,45,45,35,27,19,141,141,129,129,6,7,10,10,0.6,0.6
2023-05-15T22:00:00,2213A,123.1683,41.2495,辽阳市,新华园,颗粒物(PM10),55,59,50,37,28,138,134,129,128,8,8,10,10,0.6,0.5
2023-05-15T22:00:00,2214A,123.2354,41.2639,辽阳市,滨河路,细颗粒物(PM2.5),65,54,40,47,22,129,129,118,118,9,13,5,5,0.7,0.7
2023-05-15T22:00:00,2215A,123.149,41.2991,辽阳市,铁西工业园,颗粒物(PM10),56,62,51,32,27,136,135,131,130,9,12,6,7,0.5,0.5
2023-05-15T22:00:00,2216A,123.8139,42.3022,铁岭市,汇工街西,颗粒物(PM10),66,81,66,35,33,198,145,172,154,12,16,9,15,0.5,0.6
2023-05-15T22:00:00,2217A,123.8649,42.2923,铁岭市,水上乐园,细颗粒物(PM2.5),55,56,51,39,29,191,131,166,146,19,19,8,11,0.7,0.7
2023-05-15T22:00:00,2218A,123.8486,42.2867,铁岭市,银州路东段,颗粒物(PM10),59,68,64,31,25,197,143,172,156,12,16,9,11,0.6,0.6
2023-05-15T22:00:00,2219A,123.7153,42.2217,铁岭市,金沙江路北,颗粒物(PM10),54,58,58,32,30,196,130,169,144,16,21,10,13,0.8,0.7
2023-05-15T22:00:00,2220A,120.4318,41.5881,朝阳市,西梁,细颗粒物(PM2.5),90,96,62,67,56,175,129,167,148,16,12,13,14,1.0,0.9
2023-05-15T22:00:00,2221A,120.4521,41.5646,朝阳市,河畔小区,,,56,62,66,36,187,156,183,173,12,10,12,11,,0.8
2023-05-15T22:00:00,2222A,120.4176,41.5648,朝阳市,八里堡,细颗粒物(PM2.5),92,99,67,68,45,190,145,182,162,18,17,9,9,1.0,0.9
2023-05-15T22:00:00,2223A,120.3806,41.5969,朝阳市,农业园区,细颗粒物(PM2.5),112,112,79,84,54,191,112,181,151,20,18,11,11,1.0,0.9
2023-05-15T22:00:00,2225A,124.4002,43.1713,四平市,一商场,颗粒物(PM10),57,63,64,34,29,187,119,173,142,20,15,10,10,0.7,0.5
2023-05-15T22:00:00,2226A,124.388,43.193,四平市,境园,颗粒物(PM10),53,55,53,26,31,178,101,164,130,18,12,11,10,0.5,0.5
2023-05-15T22:00:00,2227A,125.1358,42.8845,辽源市,环保局,细颗粒物(PM2.5),53,48,33,37,24,201,148,190,178,15,10,8,8,0.8,0.7
2023-05-15T22:00:00,2229A,125.9358,41.7173,通化市,光明,颗粒物(PM10),51,52,33,21,18,168,149,162,160,5,6,9,8,0.6,0.3
2023-05-15T22:00:00,2230A,125.9446,41.7325,通化市,铁路,细颗粒物(PM2.5),52,46,35,36,20,158,142,153,152,11,12,9,8,0.3,0.3
2023-05-15T22:00:00,2231A,126.4219,41.9171,白山市,喜丰,"颗粒物(PM10),细颗粒物(PM2.5)",60,70,55,43,25,162,137,155,152,13,14,12,12,2.0,1.7
2023-05-15T22:00:00,2232A,126.4077,41.9419,白山市,环保局,颗粒物(PM10),62,74,52,32,24,173,154,165,165,8,12,10,11,1.0,1
2023-05-15T22:00:00,2233A,124.8006,45.1214,松原市,江南,,33,33,43,10,15,154,69,149,97,14,10,6,5,0.3,0.3
2023-05-15T22:00:00,2234A,124.7965,45.1722,松原市,江北,,25,25,40,8,14,134,76,131,96,7,8,2,4,0.4,0.5
2023-05-15T22:00:00,2235A,122.7911,45.6077,白城市,洮北区环保局,,34,34,34,12,7,114,78,111,99,13,10,4,5,0.1,0.1
2023-05-15T22:00:00,2236A,122.8738,45.5725,白城市,市环保局,,40,40,40,6,12,116,82,109,97,16,11,3,3,0.2,0.2
2023-05-15T22:00:00,2237A,129.47,42.8883,延边朝鲜族自治州,妇幼医院,,25,13,26,12,16,95,79,84,83,12,12,8,8,0.6,0.6
2023-05-15T22:00:00,2238A,129.5055,42.9108,延边朝鲜族自治州,延边医院,,26,10,24,7,14,97,83,94,86,10,12,8,8,0.5,0.5
2023-05-15T22:00:00,2239A,129.3964,42.8881,延边朝鲜族自治州,朝阳川镇医院,,25,24,37,10,17,92,80,91,87,7,10,9,9,0.5,0.5
2023-05-15T22:00:00,2240A,130.9762,45.3001,鸡西市,环保局,,36,36,31,22,18,101,79,92,83,13,16,6,6,0.4,0.4
2023-05-15T22:00:00,2243A,130.9429,45.3039,鸡西市,第一中学,,48,34,32,33,18,106,78,99,90,8,10,5,5,0.4,0.4
2023-05-15T22:00:00,2244A,130.2537,47.3416,鹤岗市,哈啤分公司,,25,25,26,14,17,101,72,93,90,11,15,12,13,0.2,0.3
2023-05-15T22:00:00,2245A,130.2684,47.3086,鹤岗市,斯达机电,,36,33,31,17,18,114,114,99,99,8,12,7,9,0.3,0.2
2023-05-15T22:00:00,2246A,130.3114,47.3388,鹤岗市,东山纸板厂,,31,31,25,20,17,103,53,95,90,26,19,12,12,0.6,0.4
2023-05-15T22:00:00,2247A,130.1097,47.3382,鹤岗市,五号水库,,21,21,19,13,13,105,60,99,90,8,9,9,10,0.0,0.1
2023-05-15T22:00:00,2248A,131.1511,46.6937,双鸭山市,双合村,,31,31,32,11,15,106,83,99,91,10,8,6,7,0.4,0.2
2023-05-15T22:00:00,2249A,131.1652,46.6191,双鸭山市,南小市,,33,22,27,23,19,104,60,97,84,10,8,5,5,0.3,0.3
2023-05-15T22:00:00,2250A,131.1524,46.6554,双鸭山市,环保局,,38,38,25,22,13,98,54,93,83,29,9,7,7,0.3,0.3
2023-05-15T22:00:00,2251A,131.12,46.5656,双鸭山市,苗圃,,33,24,19,23,11,121,68,114,97,5,6,3,4,0.2,0.3
2023-05-15T22:00:00,2252A,128.5159,47.4311,伊春市,环保局,,24,24,17,10,12,109,60,106,79,16,10,3,4,0.4,0.4
2023-05-15T22:00:00,2253A,128.9102,47.7412,伊春市,电力嘉园,,32,32,37,20,15,125,58,96,87,12,8,6,6,0.5,0.6
2023-05-15T22:00:00,2254A,129.5029,48.471,伊春市,汤旺河国家公园,,23,11,22,16,20,111,39,108,81,2,3,4,4,1.1,1.2
2023-05-15T22:00:00,2255A,130.2751,46.8028,佳木斯市,佳纺,,24,23,32,9,21,111,74,99,94,19,9,4,5,0.4,0.6
2023-05-15T22:00:00,2256A,130.3995,46.8307,佳木斯市,发电厂,,27,20,31,8,17,112,86,101,98,15,14,6,7,0.2,0.3
2023-05-15T22:00:00,2257A,130.3258,46.7975,佳木斯市,环保局,,24,20,27,8,18,111,75,100,94,15,10,5,5,0.2,0.4
2023-05-15T22:00:00,2258A,130.3648,46.8032,佳木斯市,十一中,,28,28,28,8,19,109,76,96,92,23,13,6,7,0.3,0.4
2023-05-15T22:00:00,2259A,130.3794,46.7588,佳木斯市,四丰,,44,20,23,13,17,177,138,153,141,3,6,1,1,0.2,0.4
2023-05-15T22:00:00,2262A,131.0518,45.8751,七台河市,新一中,,43,32,29,30,26,114,85,108,103,11,10,7,8,0.6,0.7
2023-05-15T22:00:00,2263A,127.4833,50.2524,黑河市,交通局,,45,45,13,13,9,101,68,101,78,5,8,5,9,0.5,0.6
2023-05-15T22:00:00,2264A,127.5144,50.2341,黑河市,环保局,颗粒物(PM10),67,84,22,16,9,106,70,99,85,9,10,2,6,0.2,0.3
2023-05-15T22:00:00,2265A,127.5291,50.2472,黑河市,大黑河岛,,42,42,12,11,7,126,85,116,100,2,3,13,16,0.3,0.3
2023-05-15T22:00:00,2266A,126.9785,46.6365,绥化市,人和东街,,30,30,27,9,14,110,81,103,98,7,10,7,10,0.4,0.4
2023-05-15T22:00:00,2267A,126.964,46.6528,绥化市,党政办公中心,,,33,31,8,13,116,,110,108,6,11,5,8,0.3,0.4
2023-05-15T22:00:00,2269A,124.1069,50.4097,大兴安岭地区,科技局,,26,12,22,11,9,104,81,102,84,2,3,6,6,0.3,0.2
2023-05-15T22:00:00,2270A,117.396,32.939,蚌埠市,工人疗养院,颗粒物(PM10),53,56,69,30,30,207,146,185,173,14,19,8,11,0.5,0.6
2023-05-15T22:00:00,2271A,117.3605,32.9427,蚌埠市,百货大楼,颗粒物(PM10),59,68,72,31,32,211,147,186,176,10,15,5,8,0.5,0.5
2023-05-15T22:00:00,2273A,117.4185,32.8911,蚌埠市,蚌埠学院,颗粒物(PM10),59,68,66,31,34,197,131,171,155,13,17,8,13,0.4,0.6
2023-05-15T22:00:00,2274A,117.3533,32.9673,蚌埠市,淮上区政府,颗粒物(PM10),60,70,72,34,33,203,145,177,169,6,10,8,11,0.4,0.4
2023-05-15T22:00:00,2275A,117.3145,32.8977,蚌埠市,高新区,颗粒物(PM10),64,78,78,44,38,212,142,178,169,11,18,8,12,0.5,0.5
2023-05-15T22:00:00,2277A,116.8305,32.7727,淮南市,潘集区政府,颗粒物(PM10),68,86,67,40,36,171,115,159,149,21,14,10,8,0.3,0.2
2023-05-15T22:00:00,2278A,117.0067,32.6524,淮南市,师范学院,"颗粒物(PM10),细颗粒物(PM2.5)",63,75,68,45,35,195,129,166,158,16,12,8,7,0.6,0.6
2023-05-15T22:00:00,2279A,116.8569,32.5951,淮南市,谢家集区政府,颗粒物(PM10),58,66,57,25,24,172,116,165,152,23,15,6,5,0.3,0.2
2023-05-15T22:00:00,2280A,116.8281,32.633,淮南市,八公山区政府,颗粒物(PM10),71,91,66,37,29,166,105,158,146,28,13,3,6,0.3,0.2
2023-05-15T22:00:00,2281A,116.6325,32.6201,淮南市,焦岗湖风景区管理处,细颗粒物(PM2.5),57,61,48,40,29,153,114,143,136,6,4,9,9,0.2,0.2
2023-05-15T22:00:00,2282A,116.8004,33.975,淮北市,监测站,颗粒物(PM10),51,52,73,34,41,176,130,165,157,15,11,7,6,0.5,0.6
2023-05-15T22:00:00,2283A,116.8091,33.9007,淮北市,烈山区政府,颗粒物(PM10),59,67,71,32,40,174,129,162,153,20,17,10,9,0.5,0.6
2023-05-15T22:00:00,2284A,116.7856,33.9477,淮北市,职业技术学院,颗粒物(PM10),55,59,76,33,42,178,135,168,159,16,14,6,8,0.6,0.8
2023-05-15T22:00:00,2285A,117.8177,30.9412,铜陵市,市第四中学,颗粒物(PM10),55,59,59,30,27,158,97,154,141,19,17,17,21,0.6,0.7
2023-05-15T22:00:00,2286A,117.8059,30.9273,铜陵市,市公路局,颗粒物(PM10),55,60,64,37,31,157,101,148,133,21,12,13,11,0.8,0.9
2023-05-15T22:00:00,2287A,117.7807,30.9413,铜陵市,市新民污水厂,颗粒物(PM10),75,100,77,36,34,159,96,152,134,36,39,46,28,1.0,0.6
2023-05-15T22:00:00,2288A,117.7439,30.8792,铜陵市,市第九中学,颗粒物(PM10),81,111,79,41,31,160,56,147,115,62,34,25,9,0.5,0.5
2023-05-15T22:00:00,2289A,117.846,30.9413,铜陵市,车站新区,颗粒物(PM10),52,54,55,24,23,162,110,156,140,21,17,14,12,0.5,0.6
2023-05-15T22:00:00,2290A,117.8483,30.97,铜陵市,市职教基地,颗粒物(PM10),51,51,54,21,24,149,104,145,133,18,21,13,8,1.0,0.5
2023-05-15T22:00:00,2291A,117.0809,30.5177,安庆市,环科院,细颗粒物(PM2.5),59,54,59,42,38,155,108,146,129,24,23,9,10,0.4,0.5
2023-05-15T22:00:00,2292A,117.0331,30.5119,安庆市,马山宾馆,细颗粒物(PM2.5),55,52,64,39,43,157,98,149,127,35,27,9,12,0.5,0.4
2023-05-15T22:00:00,2294A,116.9896,30.6145,安庆市,安庆大学,,,73,66,,40,165,106,155,140,,17,12,14,0.5,0.4
2023-05-15T22:00:00,2295A,118.2903,29.6963,黄山市,延安路89号,颗粒物(PM10),57,63,46,39,30,142,64,138,112,21,11,6,6,0.3,0.2
2023-05-15T22:00:00,2296A,118.327,29.7178,黄山市,黄山东路89号,细颗粒物(PM2.5),54,53,47,38,29,140,77,135,102,18,14,6,5,0.4,0.4
2023-05-15T22:00:00,2297A,118.1371,30.2756,黄山市,黄山区政府5号楼,细颗粒物(PM2.5),87,92,43,64,24,138,57,135,109,15,9,7,7,0.8,0.5
2023-05-15T22:00:00,2298A,118.3093,32.3153,滁州市,老年大学,颗粒物(PM10),54,58,61,30,34,188,111,177,162,25,13,12,13,0.4,0.4
2023-05-15T22:00:00,2299A,118.3244,32.2786,滁州市,人大宾馆,颗粒物(PM10),60,70,67,41,44,186,45,176,144,68,20,10,12,0.7,0.6
2023-05-15T22:00:00,2301A,115.8277,32.8929,阜阳市,市监测站,颗粒物(PM10),52,53,56,25,28,171,126,150,139,19,16,8,9,0.5,0.5
2023-05-15T22:00:00,2303A,115.8554,32.8605,阜阳市,开发区,颗粒物(PM10),58,66,67,31,31,164,126,156,143,15,13,9,10,0.5,0.6
2023-05-15T22:00:00,2307A,116.5079,31.737,六安市,监测大楼,细颗粒物(PM2.5),60,64,48,43,30,151,103,148,135,18,10,6,5,0.3,0.2
2023-05-15T22:00:00,2308A,116.4738,31.7643,六安市,皖西学院,颗粒物(PM10),64,77,53,34,19,163,99,158,142,24,14,6,6,0.4,0.2
2023-05-15T22:00:00,2309A,116.4996,31.7905,六安市,朝阳厂,颗粒物(PM10),56,61,43,37,20,165,94,155,138,24,9,7,6,0.5,0.3
2023-05-15T22:00:00,2310A,116.5567,31.7886,六安市,开发区,细颗粒物(PM2.5),62,72,61,44,31,158,110,154,141,15,15,8,9,0.6,0.4
2023-05-15T22:00:00,2311A,115.8072,33.8399,亳州市,污水处理厂,颗粒物(PM10),55,59,65,28,34,173,135,161,154,4,7,7,13,0.6,0.6
2023-05-15T22:00:00,2312A,115.7789,33.8518,亳州市,三国揽胜宫,颗粒物(PM10),58,65,68,30,34,164,139,156,152,7,8,6,12,0.6,0.6
2023-05-15T22:00:00,2314A,117.47,30.6618,池州市,池州学院,细颗粒物(PM2.5),63,73,59,45,35,162,105,157,140,19,12,9,8,0.6,0.6
2023-05-15T22:00:00,2316A,118.7581,30.9454,宣城市,鳌峰子站,颗粒物(PM10),56,62,45,28,27,109,84,105,93,24,20,8,5,0.4,0.5
2023-05-15T22:00:00,2317A,118.7385,30.9743,宣城市,敬亭山子站,,43,43,44,28,26,121,80,115,99,10,19,7,6,0.4,0.4
2023-05-15T22:00:00,2318A,118.7173,30.9427,宣城市,开发区子站,颗粒物(PM10),66,82,44,40,29,112,19,108,74,64,23,5,7,0.7,0.5
2023-05-15T22:00:00,2319A,119.0141,25.4325,莆田市,荔城区仓后路,,,49,75,30,50,195,,165,137,30,22,8,7,0.8,1.2
2023-05-15T22:00:00,2320A,119.0015,25.4553,莆田市,莆田市监测站,颗粒物(PM10),53,55,70,26,47,212,75,171,130,17,16,6,7,0.7,0.9
2023-05-15T22:00:00,2321A,119.1119,25.4561,莆田市,涵江区六中,,39,39,81,26,59,190,104,162,127,21,25,8,9,0.8,0.9
2023-05-15T22:00:00,2322A,119.1013,25.3215,莆田市,秀屿区政府,细颗粒物(PM2.5),55,45,59,39,46,165,111,154,134,16,21,6,9,0.8,0.9
2023-05-15T22:00:00,2323A,118.981,25.4792,莆田市,东圳水库,,,,,,,,,,,,,,,,
2023-05-15T22:00:00,2324A,117.6211,26.2625,三明市,三钢,,47,47,51,29,34,131,46,118,87,33,25,8,13,0.8,1.3
2023-05-15T22:00:00,2325A,117.635,26.2714,三明市,三明二中,,48,43,47,33,32,139,39,126,91,39,26,6,10,1.2,1.4
2023-05-15T22:00:00,2326A,117.6028,26.2378,三明市,三元区政府,细颗粒物(PM2.5),59,57,52,42,38,130,36,120,87,46,23,9,10,0.8,0.8
2023-05-15T22:00:00,2327A,117.7275,26.3108,三明市,洋溪,,,,,,,,,,,,,,,,
2023-05-15T22:00:00,2331A,118.0966,26.6761,南平市,茫荡山,,,,,,,,,,,,,,,,
2023-05-15T22:00:00,2332A,118.1681,26.6369,南平市,南平市监测站,,49,45,45,34,32,133,53,126,98,25,18,4,4,0.8,0.7
2023-05-15T22:00:00,2333A,118.1825,26.6489,南平市,南平铝业有限公司,细颗粒物(PM2.5),54,46,43,38,30,134,47,126,98,31,18,8,7,1.0,0.8
2023-05-15T22:00:00,2334A,118.1756,26.6272,南平市,南平七中,,45,36,47,31,31,141,75,133,113,13,15,3,4,0.7,0.7
2023-05-15T22:00:00,2335A,117.0189,25.1181,龙岩市,龙岩师专,,,,,,,,,,,,,,,,
2023-05-15T22:00:00,2336A,117.0217,25.1033,龙岩市,龙岩市监测站,细颗粒物(PM2.5),59,54,46,42,30,158,138,142,140,22,21,14,11,0.6,0.6
2023-05-15T22:00:00,2337A,117.0258,25.0661,龙岩市,闽西职业技术学院,细颗粒物(PM2.5),63,49,54,45,32,151,128,134,131,19,21,18,20,0.5,0.5
2023-05-15T22:00:00,2338A,117.0196,25.0306,龙岩市,龙岩学院,颗粒物(PM10),61,72,43,34,26,146,114,130,122,15,12,5,6,0.4,0.5
2023-05-15T22:00:00,2339A,119.5001,26.6946,宁德市,金涵水库,,,,,,,,,,,,,,,,
2023-05-15T22:00:00,2341A,119.5388,26.6612,宁德市,宁德市监测站,细颗粒物(PM2.5),98,68,52,73,39,169,131,151,149,19,16,9,8,0.8,0.7
2023-05-15T22:00:00,2342A,117.3102,29.3867,景德镇市,王港中学,颗粒物(PM10),56,62,52,39,32,135,46,126,94,5,5,14,14,0.2,0.2
2023-05-15T22:00:00,2343A,117.2117,29.2933,景德镇市,老干部活动中心,颗粒物(PM10),62,74,71,39,40,141,78,136,118,16,19,7,9,0.5,0.5
2023-05-15T22:00:00,2344A,117.1894,29.2789,景德镇市,兽医站,"颗粒物(PM10),细颗粒物(PM2.5)",60,69,55,43,38,155,86,148,126,12,17,8,12,0.5,0.5
2023-05-15T22:00:00,2345A,117.1547,29.2617,景德镇市,台达陶瓷,颗粒物(PM10),69,88,68,47,41,128,21,123,93,91,33,136,34,0.8,0.6
2023-05-15T22:00:00,2346A,117.2461,29.2956,景德镇市,陶研所,颗粒物(PM10),59,68,64,39,34,141,63,132,112,20,19,7,7,0.5,0.5
2023-05-15T22:00:00,2347A,114.0997,27.5002,萍乡市,武功山,,32,32,24,21,20,122,72,98,96,16,8,10,22,0.5,0.3
2023-05-15T22:00:00,2348A,113.8385,27.6434,萍乡市,中医院,,50,50,52,34,36,129,42,121,91,36,19,14,11,0.9,1
2023-05-15T22:00:00,2349A,113.8493,27.6253,萍乡市,市政府车库,颗粒物(PM10),66,81,62,43,38,126,41,120,89,31,16,18,15,0.7,0.9
2023-05-15T22:00:00,2350A,113.8676,27.6435,萍乡市,市环保局,颗粒物(PM10),68,85,63,42,38,138,30,120,92,43,21,18,16,0.9,0.8
2023-05-15T22:00:00,2351A,113.866,27.6198,萍乡市,安源区政府,细颗粒物(PM2.5),62,66,55,44,38,121,45,110,86,31,20,22,16,0.7,0.8
2023-05-15T22:00:00,2352A,115.0861,27.9317,新余市,北岗,,40,32,43,28,36,113,55,105,95,27,17,6,9,0.6,0.6
2023-05-15T22:00:00,2353A,114.9886,27.8431,新余市,飞宇,颗粒物(PM10),51,52,67,26,37,128,77,121,111,30,19,5,8,0.6,0.6
2023-05-15T22:00:00,2354A,114.9231,27.8246,新余市,第二水厂,颗粒物(PM10),59,68,71,31,38,116,23,109,89,47,16,13,16,0.7,0.7
2023-05-15T22:00:00,2355A,114.9308,27.8036,新余市,市气象局,颗粒物(PM10),53,56,65,32,42,131,80,119,113,19,14,9,13,0.9,1
2023-05-15T22:00:00,2357A,116.9822,28.1136,鹰潭市,龙虎山,,23,17,37,1,21,111,71,102,92,2,2,1,5,0.4,0.7
2023-05-15T22:00:00,2358A,117.0564,28.2642,鹰潭市,新监测站,颗粒物(PM10),59,68,50,30,24,147,58,141,110,34,12,7,12,0.4,0.4
2023-05-15T22:00:00,2359A,117.0311,28.2475,鹰潭市,财苑宾馆,颗粒物(PM10),72,93,53,23,25,149,35,140,107,44,20,5,8,0.4,0.3
2023-05-15T22:00:00,2360A,117.0222,28.2264,鹰潭市,体育馆,,39,39,47,14,22,140,37,133,102,16,15,3,6,0.4,0.4
2023-05-15T22:00:00,2361A,117.0017,28.2131,鹰潭市,三川水表,,42,42,48,19,20,138,72,131,101,4,7,2,2,0.4,0.3
2023-05-15T22:00:00,2362A,114.9017,25.9149,赣州市,通天岩,颗粒物(PM10),59,68,56,37,35,166,78,147,122,19,17,8,11,0.9,0.8
2023-05-15T22:00:00,2363A,114.9367,25.8664,赣州市,地委,颗粒物(PM10),68,85,70,47,40,158,44,147,108,37,23,8,10,1.3,1.3
2023-05-15T22:00:00,2364A,114.9461,25.8481,赣州市,气象台,颗粒物(PM10),58,65,60,35,34,156,49,147,114,45,25,8,7,1.0,0.9
2023-05-15T22:00:00,2365A,114.9322,25.8333,赣州市,市图书馆,颗粒物(PM10),65,79,66,34,34,152,31,127,90,50,29,6,6,1.3,1.3
2023-05-15T22:00:00,2366A,114.8905,25.8471,赣州市,华坚鞋城,颗粒物(PM10),77,103,83,39,39,150,36,124,66,50,34,14,15,1.0,0.9
2023-05-15T22:00:00,2367A,114.9754,27.0803,吉安市,红声器材厂,颗粒物(PM10),63,75,63,40,37,133,119,132,131,18,11,15,16,0.6,0.5
2023-05-15T22:00:00,2368A,114.9658,27.0999,吉安市,市森林工业局,颗粒物(PM10),60,70,60,38,38,132,64,120,90,33,17,11,14,0.7,0.7
2023-05-15T22:00:00,2369A,114.99,27.1312,吉安市,市环境监测站,颗粒物(PM10),58,66,57,34,34,140,60,132,104,32,15,12,16,0.7,0.5
2023-05-15T22:00:00,2370A,115.0093,27.0968,吉安市,青原区法院,颗粒物(PM10),60,69,57,38,34,134,63,126,96,26,18,13,17,0.7,0.6
2023-05-15T22:00:00,2371A,114.3408,27.8064,宜春市,槟榔水业,细颗粒物(PM2.5),62,65,61,44,37,127,67,114,94,15,17,10,14,0.7,0.8
2023-05-15T22:00:00,2373A,114.3956,27.7844,宜春市,市石油公司,颗粒物(PM10),64,77,62,45,37,142,59,122,102,20,17,5,5,0.7,0.7
