timepoint,stationcode,longitude,latitude,area,positionname,primarypollutant,aqi,pm10,pm10_24h,pm2_5,pm2_5_24h,o3,o3_24h,o3_8h,o3_8h_24h,no2,no2_24h,so2,so2_24h,co,co_24h
2025-01-13T1300,2566A,102.1879,31.914,阿坝藏族羌族自治州,州农科所,,25,25,14,12,14,62,,44,44,5,14,5,7,0.8,1
2025-01-13T1300,2568A,102.2502,31.8896,阿坝藏族羌族自治州,马师校,,19,6,17,3,12,58,,28,28,14,21,5,5,0.4,0.4
2025-01-13T1300,3994A,102.2165,31.9024,阿坝藏族羌族自治州,马尔康中学西区,,20,8,19,8,11,64,,42,42,7,17,5,5,0.4,0.5
2025-01-13T1300,2695A,80.292,41.1694,阿克苏地区,电视台,颗粒物(PM10),76,102,72,52,53,36,,50,41,26,23,2,3,0.8,0.7
2025-01-13T1300,2696A,80.2613,41.1551,阿克苏地区,艺术中心,细颗粒物(PM2.5),80,100,79,59,57,41,,47,42,21,25,3,3,0.9,1
2025-01-13T1300,2204A,105.6467,38.8363,阿拉善盟,西城区西花园,颗粒物(PM10),109,168,349,40,74,93,,88,88,8,10,6,6,0.5,0.6
2025-01-13T1300,2205A,105.6985,38.8411,阿拉善盟,蒙二幼,颗粒物(PM10),99,148,357,25,67,90,,82,82,8,9,3,4,0.6,0.6
2025-01-13T1300,2206A,105.724,38.8516,阿拉善盟,环保局新楼,,,,327,,76,87,,90,89,7,6,7,7,0.4,0.6
2025-01-13T1300,2708A,88.1264,47.8517,阿勒泰地区,市站,,19,17,15,9,12,38,,33,33,37,33,8,9,0.5,0.5
2025-01-13T1300,2630A,80.1161,32.5,阿里地区,阿里监测站,,27,11,10,3,5,85,,79,75,4,5,8,9,0.5,0.6
2025-01-13T1300,3192A,80.0903,32.5028,阿里地区,阿里藏医院,,26,19,10,12,4,82,,82,72,7,4,13,8,0.7,0.6
2025-01-13T1300,2642A,109.0318,32.6537,安康市,香溪洞,细颗粒物(PM2.5),53,47,52,37,37,70,,49,43,17,15,10,13,0.6,0.6
2025-01-13T1300,2644A,109.0072,32.6975,安康市,汉滨区检察院,细颗粒物(PM2.5),65,76,70,47,44,58,,30,28,31,30,8,7,0.8,0.7
2025-01-13T1300,4054A,109.0325,32.6913,安康市,市邮政管理局,颗粒物(PM10),60,70,81,42,52,61,,30,30,28,38,8,7,0.9,0.9
2025-01-13T1300,2291A,117.0809,30.5177,安庆市,环科院,细颗粒物(PM2.5),93,94,97,69,65,83,,36,36,36,56,9,8,0.7,0.7
2025-01-13T1300,2292A,117.0331,30.5119,安庆市,马山宾馆,细颗粒物(PM2.5),84,107,100,62,67,92,,27,27,30,56,10,10,0.8,0.9
2025-01-13T1300,2294A,116.9896,30.6145,安庆市,安庆大学,细颗粒物(PM2.5),94,94,101,70,65,113,,43,43,22,44,12,8,0.8,0.9
2025-01-13T1300,3173A,117.0598,30.5351,安庆市,市人大,细颗粒物(PM2.5),88,100,101,65,68,88,,38,38,30,51,10,9,0.8,0.9
2025-01-13T1300,3123A,105.9408,26.2431,安顺市,凤凰山,,,,38,,19,101,,92,92,12,13,15,16,0.5,0.4
2025-01-13T1300,3124A,105.9439,26.2564,安顺市,金钟山,,36,27,26,25,19,101,,93,93,9,10,19,20,0.6,0.5
2025-01-13T1300,3125A,105.8983,26.2481,安顺市,娄家坡,,36,36,29,23,18,101,,87,87,8,10,11,14,0.4,0.4
2025-01-13T1300,1819A,114.3551,36.1017,安阳市,红庙街,,,,70,56,34,44,,29,29,36,24,16,8,1.5,0.9
2025-01-13T1300,1820A,114.361,36.0681,安阳市,银杏小区,颗粒物(PM10),96,142,75,55,32,41,,27,27,40,30,14,5,1.3,0.7
2025-01-13T1300,3141A,114.3922,36.0878,安阳市,信访局,颗粒物(PM10),95,140,74,56,34,38,,24,24,49,35,14,6,1.3,0.6
2025-01-13T1300,3669A,114.4705,36.0637,安阳市,左辅环卫站,颗粒物(PM10),97,143,91,65,42,47,,22,22,36,27,21,8,1.4,0.7
2025-01-13T1300,3703A,114.2917,36.0949,安阳市,安钢职工学校,颗粒物(PM10),124,198,99,41,43,76,,37,37,17,30,9,8,1.0,0.8
2025-01-13T1300,1748A,123.044,41.1196,鞍山市,深沟寺,颗粒物(PM10),63,75,83,40,62,52,,52,52,24,34,14,15,0.9,1.3
2025-01-13T1300,1749A,123.011,41.0931,鞍山市,太阳城,,,75,86,39,56,49,,60,56,32,36,,13,0.7,1.1
2025-01-13T1300,1750A,123.0485,41.1442,鞍山市,太平,颗粒物(PM10),69,88,92,39,57,49,,45,45,30,44,18,16,1.1,1.4
2025-01-13T1300,1751A,122.9642,41.0971,鞍山市,铁西三道街,颗粒物(PM10),71,91,102,36,61,54,,42,42,27,49,11,14,1.0,1.4
2025-01-13T1300,1752A,122.9341,41.0833,鞍山市,铁西工业园区,颗粒物(PM10),65,80,133,33,85,55,,45,45,26,58,14,14,1.0,2
2025-01-13T1300,1753A,123.022,41.0821,鞍山市,明达新区,颗粒物(PM10),59,68,85,38,66,61,,62,61,16,24,17,18,0.8,1.2
2025-01-13T1300,2195A,107.4212,40.761,巴彦淖尔市,附二中,颗粒物(PM10),74,98,190,35,40,82,,72,70,7,13,4,4,0.4,0.5
2025-01-13T1300,2196A,107.37,40.7372,巴彦淖尔市,市环保大楼,颗粒物(PM10),79,107,181,38,38,82,,68,68,4,8,4,4,0.3,0.3
2025-01-13T1300,1956A,86.1472,41.7538,巴音郭楞蒙古自治州,孔雀公园,细颗粒物(PM2.5),58,43,36,41,32,31,,49,45,25,11,3,3,0.6,0.5
2025-01-13T1300,1958A,86.2357,41.7173,巴音郭楞蒙古自治州,经济开发区,细颗粒物(PM2.5),53,39,32,37,24,43,,49,43,22,18,2,2,0.6,0.5
2025-01-13T1300,2914A,106.7677,31.8794,巴中市,苏山坪,细颗粒物(PM2.5),73,74,50,53,37,58,,80,64,34,16,4,3,0.5,0.3
2025-01-13T1300,3182A,106.7656,31.8545,巴中市,丽阳花园,细颗粒物(PM2.5),79,81,95,58,68,42,,12,12,47,48,5,4,1.0,0.9
2025-01-13T1300,3183A,106.7418,31.8654,巴中市,圣泉水务公司,细颗粒物(PM2.5),64,64,78,46,57,63,,19,19,28,46,4,3,0.6,0.7
2025-01-13T1300,3616A,106.7616,31.8344,巴中市,市中心医院,细颗粒物(PM2.5),89,,89,66,70,66,,19,19,23,46,5,4,0.5,0.8
2025-01-13T1300,2235A,122.7911,45.6077,白城市,洮北区环保局,细颗粒物(PM2.5),69,,44,50,42,55,,42,38,11,23,10,10,0.6,0.7
2025-01-13T1300,2236A,122.8738,45.5725,白城市,市环保局,,48,41,58,33,38,51,,24,24,12,35,4,4,0.5,0.5
2025-01-13T1300,2231A,126.4219,41.9171,白山市,喜丰,颗粒物(PM10),66,82,93,40,40,54,,24,24,28,48,24,25,1.0,1.1
2025-01-13T1300,2232A,126.4077,41.9419,白山市,环保局,"颗粒物(PM10),细颗粒物(PM2.5)",62,74,88,44,46,36,,20,20,32,33,27,27,1.3,1.4
2025-01-13T1300,2647A,104.1724,36.5446,白银市,第三小学,细颗粒物(PM2.5),80,93,202,59,59,56,,38,30,29,33,36,38,1.4,1.2
2025-01-13T1300,2648A,104.1465,36.5482,白银市,动力公司,细颗粒物(PM2.5),77,101,171,56,46,61,,42,39,30,26,33,19,1.1,0.9
2025-01-13T1300,2512A,106.6103,23.9011,百色市,市监测站,细颗粒物(PM2.5),93,114,51,69,29,82,,30,30,37,28,50,14,1.5,1
2025-01-13T1300,2513A,106.6538,23.8859,百色市,市中心血站,细颗粒物(PM2.5),119,162,91,90,51,82,,32,32,36,38,52,17,1.1,0.8
2025-01-13T1300,3406A,106.6085,23.8798,百色市,祈福高中,颗粒物(PM10),86,122,79,51,29,86,,27,27,33,37,49,11,1.2,0.8
2025-01-13T1300,2270A,117.396,32.939,蚌埠市,工人疗养院,颗粒物(PM10),75,99,102,45,60,92,,74,74,27,37,6,7,0.6,0.6
2025-01-13T1300,2271A,117.3605,32.9427,蚌埠市,百货大楼,颗粒物(PM10),76,101,108,44,64,92,,75,75,23,44,8,8,0.7,0.9
2025-01-13T1300,2273A,117.4185,32.8911,蚌埠市,蚌埠学院,颗粒物(PM10),69,88,118,34,64,98,,72,72,16,32,8,9,0.5,0.5
2025-01-13T1300,2274A,117.3533,32.9673,蚌埠市,淮上区政府,颗粒物(PM10),78,105,111,51,67,91,,74,74,22,40,11,11,0.7,0.8
2025-01-13T1300,2275A,117.3145,32.8977,蚌埠市,高新区,颗粒物(PM10),81,112,116,49,70,95,,67,67,26,49,11,12,0.6,0.7
2025-01-13T1300,3715A,117.3092,32.9314,蚌埠市,蚌埠田家炳中学,颗粒物(PM10),81,112,122,52,73,89,,62,62,24,43,10,15,0.7,0.8
2025-01-13T1300,1585A,109.8756,40.6532,包头市,市环境监测站,,,,65,,24,49,,33,20,38,38,27,15,1.1,0.9
2025-01-13T1300,1587A,109.9991,40.5842,包头市,包头八中,颗粒物(PM10),121,192,85,51,28,55,,27,27,24,39,8,11,0.6,0.8
2025-01-13T1300,1588A,109.8538,40.6821,包头市,青山宾馆,颗粒物(PM10),84,117,50,42,25,47,,42,24,37,33,23,14,1.0,0.8
2025-01-13T1300,1589A,109.8642,40.6288,包头市,惠龙物流,颗粒物(PM10),110,170,81,49,28,56,,25,25,35,43,45,25,1.5,1.3
2025-01-13T1300,1590A,110.0377,40.5546,包头市,东河鸿龙湾,颗粒物(PM10),125,199,86,39,31,67,,26,26,16,41,11,19,0.6,0.9
2025-01-13T1300,3283A,109.9154,40.5685,包头市,滨河大厦,颗粒物(PM10),122,193,81,52,25,57,,24,24,26,46,11,10,0.7,0.6
2025-01-13T1300,3419A,109.9447,40.6261,包头市,包头市委党校,颗粒物(PM10),118,186,79,46,26,55,,27,22,24,40,10,12,0.7,0.8
2025-01-13T1300,3683A,109.8331,40.6576,包头市,昆区政府,颗粒物(PM10),106,162,64,62,31,47,,42,18,43,36,50,19,1.6,0.9
2025-01-13T1300,1930A,107.185,34.3063,宝鸡市,庙沟村,,45,36,81,31,40,79,,57,57,13,27,7,7,0.6,0.6
2025-01-13T1300,1931A,107.0708,34.3017,宝鸡市,竹园沟,,45,42,85,31,48,70,,36,36,19,28,6,6,0.6,0.6
2025-01-13T1300,1932A,107.1906,34.3672,宝鸡市,三陆医院,颗粒物(PM10),131,212,109,50,55,47,,30,28,40,37,6,6,0.8,0.6
2025-01-13T1300,1933A,107.1431,34.3547,宝鸡市,监测站,颗粒物(PM10),60,69,101,40,52,61,,28,28,27,37,9,7,0.7,0.7
2025-01-13T1300,1934A,107.1186,34.3739,宝鸡市,技工学校,,,138,102,45,51,,,31,31,,29,7,5,0.7,0.8
2025-01-13T1300,1935A,107.3906,34.3528,宝鸡市,陈仓区环保局家属楼,颗粒物(PM10),89,127,124,39,74,59,,30,30,27,43,17,45,0.7,1
2025-01-13T1300,1936A,107.2058,34.3497,宝鸡市,文理学院,颗粒物(PM10),75,99,109,46,59,57,,35,35,21,20,7,6,0.7,0.6
2025-01-13T1300,1937A,107.2386,34.3622,宝鸡市,三迪小学,颗粒物(PM10),76,102,101,49,53,40,,21,21,48,44,14,7,0.8,0.7
2025-01-13T1300,1051A,115.493,38.8632,保定市,游泳馆,细颗粒物(PM2.5),67,67,70,48,45,44,,24,24,45,51,8,9,0.7,0.7
2025-01-13T1300,1052A,115.5213,38.8959,保定市,华电二区,细颗粒物(PM2.5),53,54,63,37,46,46,,19,19,36,48,3,3,0.6,0.6
2025-01-13T1300,1053A,115.4713,38.9108,保定市,接待中心,细颗粒物(PM2.5),59,63,64,42,43,51,,26,26,30,39,1,2,0.9,0.9
2025-01-13T1300,1054A,115.4612,38.8416,保定市,地表水厂,,,120,84,,48,32,,15,15,51,47,2,3,0.5,0.5
2025-01-13T1300,3581A,115.31981,38.95208,保定市,满城区生态环境分局,颗粒物(PM10),63,75,83,39,47,56,,24,24,35,54,6,8,0.5,0.8
2025-01-13T1300,3582A,115.47694,38.76408,保定市,清苑区第二中学,,,74,97,32,53,,,10,10,40,54,8,8,0.5,0.6
2025-01-13T1300,3583A,115.62909,39.02311,保定市,徐水物探局,颗粒物(PM10),57,63,65,39,42,47,,16,16,36,47,8,7,0.5,0.5
2025-01-13T1300,4004A,115.4202,38.8656,保定市,双鹰农机,细颗粒物(PM2.5),54,56,68,38,40,57,,30,30,27,35,1,4,0.4,0.4
2025-01-13T1300,4034A,115.5150,38.8590,保定市,植保所站,细颗粒物(PM2.5),59,65,84,42,48,40,,18,18,40,50,6,5,0.5,0.5
2025-01-13T1300,2594A,99.1678,25.1081,保山市,市环境监测站,,44,44,29,24,21,86,,44,43,12,11,5,4,0.5,0.5
2025-01-13T1300,2595A,99.1711,25.1328,保山市,市环保局,,,49,29,21,23,90,,56,48,,6,,5,0.5,0.4
2025-01-13T1300,1867A,109.1436,21.4086,北海市,海滩公园,,46,46,68,27,43,132,,97,97,16,25,11,11,0.8,0.8
2025-01-13T1300,1868A,109.0981,21.4661,北海市,新市环保局,"颗粒物(PM10),细颗粒物(PM2.5)",58,66,64,41,50,131,,78,78,18,34,10,11,0.9,1
2025-01-13T1300,1869A,109.1778,21.5233,北海市,北海工业园,颗粒物(PM10),59,68,73,20,54,119,,84,84,11,28,9,12,0.6,0.7
2025-01-13T1300,3400A,109.1911,21.4415,北海市,龙潭自来水厂,,37,34,90,25,79,116,,67,67,16,34,10,9,0.6,0.9
2025-01-13T1300,1001A,116.3621,39.8784,北京市,万寿西宫,颗粒物(PM10),52,53,54,31,29,37,,14,14,40,44,5,4,0.4,0.4
2025-01-13T1300,1003A,116.4174,39.9289,北京市,东四,颗粒物(PM10),53,56,57,29,29,32,,11,11,24,37,4,3,0.4,0.5
2025-01-13T1300,1004A,116.4072,39.8863,北京市,天坛,颗粒物(PM10),54,57,51,32,30,44,,14,14,32,39,2,2,0.5,0.5
2025-01-13T1300,1005A,116.462,39.9365,北京市,农展馆,颗粒物(PM10),51,51,56,29,30,48,,18,18,32,43,3,3,0.7,0.7
2025-01-13T1300,1006A,116.3392,39.9295,北京市,官园,,48,48,54,25,28,29,,10,10,23,42,5,5,0.7,0.7
2025-01-13T1300,1007A,116.2878,39.9611,北京市,海淀万柳,,43,43,53,23,28,48,,17,17,20,38,3,3,0.6,0.6
2025-01-13T1300,1008A,116.6636,40.135,北京市,顺义新城,颗粒物(PM10),51,52,41,33,21,24,,10,10,39,35,2,2,0.4,0.4
2025-01-13T1300,1009A,116.6275,40.3275,北京市,怀柔镇,,50,50,27,28,16,39,,36,30,32,17,3,2,0.6,0.5
2025-01-13T1300,1010A,116.2296,40.217,北京市,昌平镇,,41,41,40,15,18,62,,26,26,8,28,2,2,0.6,0.7
2025-01-13T1300,1011A,116.3966,39.9821,北京市,奥体中心,,47,47,53,24,25,47,,14,14,27,40,5,5,0.4,0.5
2025-01-13T1300,3281A,115.9718,40.4529,北京市,延庆夏都,,21,14,29,7,15,67,,32,32,2,22,1,2,0.2,0.4
2025-01-13T1300,3417A,117.0709,40.1465,北京市,平谷新城,,41,41,41,20,22,55,,22,22,14,20,2,2,0.4,0.5
2025-01-13T1300,3418A,116.8336,40.4095,北京市,密云新城,,42,42,28,22,14,43,,21,21,29,20,2,2,0.3,0.3
2025-01-13T1300,3671A,116.088,39.9726,北京市,门头沟三家店,颗粒物(PM10),52,54,46,20,21,57,,32,32,10,27,4,3,0.4,0.3
2025-01-13T1300,3672A,116.1541,39.8204,北京市,丰台云岗,颗粒物(PM10),56,62,56,27,26,55,,25,25,23,36,5,3,0.4,0.3
2025-01-13T1300,3673A,116.6804,39.9081,北京市,通州东关,颗粒物(PM10),54,57,67,27,35,39,,11,11,31,42,3,2,0.4,0.5
2025-01-13T1300,3674A,115.9577,39.7603,北京市,房山燕山,颗粒物(PM10),53,55,46,30,28,60,,36,36,23,23,5,2,0.4,0.5
2025-01-13T1300,3675A,116.4672,39.7733,北京市,大兴旧宫,颗粒物(PM10),69,88,60,44,32,15,,7,7,68,44,3,2,0.8,0.4
2025-01-13T1300,3694A,115.986,40.4563,北京市,延庆石河营,,21,13,29,7,17,67,,29,29,3,23,1,2,0.3,0.6
2025-01-13T1300,3695A,116.6151,40.3053,北京市,怀柔新城,,49,49,27,23,16,39,,35,33,28,13,3,2,0.3,0.2
2025-01-13T1300,3696A,116.2545,39.8768,北京市,丰台小屯,颗粒物(PM10),51,51,60,27,30,43,,17,17,31,54,5,4,0.4,0.4
2025-01-13T1300,3697A,116.84,40.3844,北京市,密云镇,,48,48,36,23,18,45,,14,14,25,38,2,2,0.4,0.4
2025-01-13T1300,4182A,116.1942,39.91583,北京市,八角,颗粒物(PM10),53,55,64,25,27,46,,16,16,16,33,2,1,0.5,0.5
2025-01-13T1300,1761A,123.8275,41.3064,本溪市,大峪,,,53,112,39,76,63,,26,26,,63,,9,0.9,2.9
2025-01-13T1300,1762A,123.7567,41.3325,本溪市,溪湖,颗粒物(PM10),61,71,162,33,86,55,,25,25,24,51,28,22,1.2,2.3
2025-01-13T1300,1763A,123.7169,41.3094,本溪市,彩屯,细颗粒物(PM2.5),60,53,126,43,100,45,,20,20,37,54,22,13,3.2,3
2025-01-13T1300,1764A,123.7669,41.2864,本溪市,东明,颗粒物(PM10),55,59,107,32,71,56,,28,28,28,57,28,21,0.9,2.1
2025-01-13T1300,1765A,123.7992,41.2664,本溪市,新立屯,颗粒物(PM10),51,52,86,25,51,72,,49,49,25,61,9,9,0.9,1.8
2025-01-13T1300,1766A,123.8142,41.3472,本溪市,威宁,颗粒物(PM10),73,96,171,30,96,66,,27,27,22,60,11,6,1.0,2.6
2025-01-13T1300,2587A,105.2864,27.3125,毕节市,八中,细颗粒物(PM2.5),67,64,57,48,46,46,,54,48,28,20,10,12,0.8,0.8
2025-01-13T1300,2588A,105.31,27.2944,毕节市,师专,细颗粒物(PM2.5),70,60,52,51,44,41,,53,45,28,20,10,11,0.9,0.8
2025-01-13T1300,3537A,105.3631,27.3533,毕节市,长征村,细颗粒物(PM2.5),70,59,43,51,37,62,,62,61,19,11,12,11,0.7,0.6
2025-01-13T1300,1629A,118.0018,37.3617,滨州市,第二水厂,颗粒物(PM10),89,127,113,48,63,67,,32,32,22,54,20,20,0.6,0.6
2025-01-13T1300,1630A,117.9776,37.393,滨州市,北中新校,颗粒物(PM10),79,107,112,46,62,67,,34,34,26,60,14,17,0.6,0.7
2025-01-13T1300,3514A,117.9378,37.3956,滨州市,中海酒店,颗粒物(PM10),76,102,100,48,62,71,,41,41,19,48,15,19,0.6,0.8
2025-01-13T1300,3515A,117.9378,37.3553,滨州市,开发区一中,颗粒物(PM10),85,119,109,46,62,69,,32,32,27,60,16,20,0.7,0.7
2025-01-13T1300,3516A,118.0917,37.694,滨州市,金海六路,颗粒物(PM10),84,117,113,53,62,64,,27,27,33,60,15,16,0.7,1
2025-01-13T1300,4028A,117.9956,37.3753,滨州市,滨州市西街道办事处,颗粒物(PM10),81,112,112,48,71,67,,32,32,22,49,16,16,1.7,1.5
2025-01-13T1300,2311A,115.8072,33.8399,亳州市,污水处理厂,颗粒物(PM10),81,112,86,55,45,99,,64,64,22,26,9,5,0.6,0.5
2025-01-13T1300,2312A,115.7789,33.8518,亳州市,三国揽胜宫,细颗粒物(PM2.5),87,117,81,64,42,108,,72,72,20,23,12,6,0.6,0.5
2025-01-13T1300,3332A,115.7633,33.8034,亳州市,亳州学院,细颗粒物(PM2.5),79,106,84,58,45,103,,59,59,18,21,9,5,0.6,0.5
2025-01-13T1300,2693A,82.0485,44.8556,博尔塔拉蒙古自治州,市党校,细颗粒物(PM2.5),84,72,65,62,49,63,,44,44,23,24,8,8,1.4,1
2025-01-13T1300,2694A,82.0806,44.8969,博尔塔拉蒙古自治州,市环保局,颗粒物(PM10),55,60,77,36,41,74,,55,55,17,31,7,8,0.9,1
2025-01-13T1300,1071A,116.8842,38.2991,沧州市,沧县城建局,细颗粒物(PM2.5),84,114,83,62,52,46,,26,26,41,46,15,13,0.8,0.7
2025-01-13T1300,1072A,116.8584,38.3254,沧州市,电视转播站,,,105,80,75,50,50,,25,25,,54,14,12,0.7,0.7
2025-01-13T1300,1073A,116.8709,38.3228,沧州市,市环保局,细颗粒物(PM2.5),89,98,73,66,48,51,,24,24,34,45,12,11,0.6,0.5
2025-01-13T1300,3324A,116.8136,38.3004,沧州市,河北水利电力学院,细颗粒物(PM2.5),97,129,86,72,54,45,,22,22,36,43,16,17,0.7,0.6
2025-01-13T1300,2622A,97.1806,31.1273,昌都市,昌都监测站,,24,24,41,7,22,68,,45,45,11,25,6,7,0.4,0.8
2025-01-13T1300,3719A,97.1714,31.1406,昌都市,昌都会议中心,,,,18,,15,,,50,50,8,11,5,5,0.5,0.6
2025-01-13T1300,2690A,88.1236,43.8886,昌吉回族自治州,天山天池,,29,,3,3,1,92,,85,84,2,1,7,7,0.4,0.4
2025-01-13T1300,2692A,87.2717,44.0297,昌吉回族自治州,新区政务中心,细颗粒物(PM2.5),183,233,205,138,143,12,,4,4,46,52,1,2,2.2,1.9
2025-01-13T1300,3613A,87.3095,44.0142,昌吉回族自治州,亚心广场,细颗粒物(PM2.5),299,285,247,249,210,18,,8,8,44,55,9,8,2.2,1.9
2025-01-13T1300,1119A,125.3325,43.9166,长春市,食品厂,细颗粒物(PM2.5),95,107,102,71,81,35,,26,26,41,53,17,17,1.0,1
2025-01-13T1300,1120A,125.2863,43.9027,长春市,客车厂,细颗粒物(PM2.5),82,101,94,60,82,45,,33,33,38,51,17,17,1.1,1
2025-01-13T1300,1121A,125.2841,43.8463,长春市,邮电学院,细颗粒物(PM2.5),79,104,95,58,80,46,,34,34,36,47,19,15,1.0,0.9
2025-01-13T1300,1122A,125.3716,43.8772,长春市,劳动公园,细颗粒物(PM2.5),98,114,90,73,75,47,,34,34,37,51,18,18,1.3,1
2025-01-13T1300,1123A,125.3297,43.8805,长春市,园林处,,,,82,63,68,41,,32,32,38,43,19,18,1.1,0.9
2025-01-13T1300,1124A,125.4605,43.79,长春市,净月潭,,,,74,60,60,58,,50,50,21,20,,8,0.9,0.7
2025-01-13T1300,1126A,125.3863,43.8447,长春市,经开区环卫处,细颗粒物(PM2.5),100,106,101,75,73,37,,33,33,41,50,14,13,1.3,1.1
2025-01-13T1300,1127A,125.245,43.7783,长春市,高新区管委会,细颗粒物(PM2.5),60,63,96,43,89,56,,39,39,25,47,16,11,0.9,1.2
2025-01-13T1300,1128A,125.1761,43.8325,长春市,岱山公园,细颗粒物(PM2.5),72,69,94,52,77,50,,32,32,30,53,14,14,1.1,1
2025-01-13T1300,1335A,113.0833,28.2325,长沙市,经开区环保局,颗粒物(PM10),72,94,98,47,57,90,,29,29,22,54,4,6,0.6,0.8
2025-01-13T1300,1336A,112.8872,28.2189,长沙市,高开区环保局,颗粒物(PM10),64,78,102,45,67,84,,36,36,25,60,7,7,0.7,1.1
2025-01-13T1300,1337A,113.0792,28.2053,长沙市,马坡岭,"颗粒物(PM10),细颗粒物(PM2.5)",69,87,109,50,71,123,,39,39,8,57,6,7,0.7,0.9
2025-01-13T1300,1338A,112.9394,28.19,长沙市,湖南师范大学,细颗粒物(PM2.5),77,87,84,56,53,83,,35,35,30,48,6,6,0.8,0.9
2025-01-13T1300,1339A,113.0178,28.1322,长沙市,雨花区环保局,颗粒物(PM10),61,72,83,40,52,91,,54,54,22,45,8,8,0.6,0.8
2025-01-13T1300,1340A,112.9792,28.2597,长沙市,伍家岭,细颗粒物(PM2.5),74,85,123,54,75,86,,22,22,30,62,6,5,0.5,0.9
2025-01-13T1300,1341A,113.0014,28.1944,长沙市,火车新站,细颗粒物(PM2.5),73,87,109,53,75,79,,30,30,34,70,6,5,0.6,1.1
2025-01-13T1300,1342A,112.9844,28.1178,长沙市,天心区环保局,细颗粒物(PM2.5),77,75,86,56,59,81,,60,60,30,53,5,5,0.8,1.1
2025-01-13T1300,1343A,112.8908,28.1308,长沙市,湖南中医药大学,颗粒物(PM10),66,81,106,33,59,87,,28,28,27,53,10,8,0.7,0.9
2025-01-13T1300,1344A,112.9581,28.3611,长沙市,沙坪,细颗粒物(PM2.5),65,59,52,47,46,77,,53,47,35,30,9,8,0.9,0.9
2025-01-13T1300,1727A,113.1147,36.1547,长治市,清华站,颗粒物(PM10),94,138,51,34,16,74,,48,43,15,19,14,14,0.8,0.8
2025-01-13T1300,1730A,113.0886,36.2125,长治市,审计局,颗粒物(PM10),99,148,54,46,21,77,,47,35,11,22,12,10,0.7,0.7
2025-01-13T1300,1731A,113.0844,36.1856,长治市,长治八中,颗粒物(PM10),109,167,73,51,27,69,,44,34,14,20,12,11,0.7,0.7
2025-01-13T1300,2845A,113.1569,36.1911,长治市,德盛苑,颗粒物(PM10),106,162,58,36,17,75,,69,68,15,12,10,9,0.8,0.7
2025-01-13T1300,3568A,113.06,36.0464,长治市,向阳小学,颗粒物(PM10),109,168,72,43,25,85,,60,60,8,17,11,32,0.4,0.5
2025-01-13T1300,3569A,112.8792,36.3144,长治市,屯留一中,颗粒物(PM10),86,122,51,27,19,86,,57,57,19,25,9,11,0.9,1
2025-01-13T1300,4190A,113.2367,36.3344,长治市,学府街1号,颗粒物(PM10),111,171,77,55,30,,,50,50,13,25,6,7,,1.6
2025-01-13T1300,1854A,111.6975,28.9703,常德市,市二中,细颗粒物(PM2.5),175,,107,132,96,82,,35,35,22,32,8,4,1.0,0.9
2025-01-13T1300,3138A,111.7153,29.0289,常德市,武陵区永安,细颗粒物(PM2.5),172,153,107,130,87,78,,40,40,31,27,6,4,1.2,0.9
2025-01-13T1300,3139A,111.6892,28.9881,常德市,鼎城区玉霞,细颗粒物(PM2.5),160,159,118,122,89,88,,27,27,20,30,9,5,1.0,0.9
2025-01-13T1300,3140A,111.6625,29.0531,常德市,武陵区长庚,细颗粒物(PM2.5),159,181,126,121,96,83,,45,41,27,24,6,2,0.9,0.9
2025-01-13T1300,1196A,119.9633,31.762,常州市,市监测站,颗粒物(PM10),76,102,108,53,56,98,,36,36,30,62,11,11,0.5,0.7
2025-01-13T1300,1200A,119.9468,31.7069,常州市,武进监测站,颗粒物(PM10),72,94,84,49,49,104,,42,42,26,55,11,13,0.5,0.7
2025-01-13T1300,1201A,119.9255,31.9087,常州市,安家,颗粒物(PM10),69,88,106,46,63,97,,36,36,32,69,12,11,0.6,0.8
2025-01-13T1300,3002A,119.9805,31.8174,常州市,行政中心,细颗粒物(PM2.5),73,83,80,53,52,88,,34,34,30,58,14,14,0.6,0.7
2025-01-13T1300,3003A,120.0522,31.7748,常州市,经开区,颗粒物(PM10),80,109,99,57,54,101,,38,38,37,65,14,12,0.5,0.7
2025-01-13T1300,3010A,119.9025,31.7964,常州市,钟楼,颗粒物(PM10),70,89,89,45,49,98,,36,36,25,62,10,10,0.5,0.7
2025-01-13T1300,3429A,119.8598,31.7066,常州市,武进经发区,颗粒物(PM10),71,92,109,48,58,106,,38,38,22,59,7,9,0.6,0.8
2025-01-13T1300,3430A,119.5826,31.7245,常州市,金坛城区,细颗粒物(PM2.5),82,103,94,60,51,106,,38,38,21,39,14,10,0.6,0.7
2025-01-13T1300,2220A,120.4318,41.5881,朝阳市,西梁,颗粒物(PM10),51,51,81,16,53,57,,25,25,22,52,16,20,0.8,1.5
2025-01-13T1300,2221A,120.4521,41.5646,朝阳市,河畔小区,颗粒物(PM10),57,63,59,18,42,57,,33,33,19,30,15,17,0.8,1
2025-01-13T1300,2222A,120.4176,41.5648,朝阳市,八里堡,颗粒物(PM10),51,51,73,19,51,62,,34,34,19,34,14,18,0.7,1.1
2025-01-13T1300,2223A,120.3806,41.5969,朝阳市,农业园区,,41,41,76,19,64,66,,30,30,11,41,13,19,0.8,1.4
2025-01-13T1300,1705A,116.6367,23.6719,潮州市,西园路,颗粒物(PM10),55,60,53,15,31,96,,61,61,17,19,6,5,0.4,0.3
2025-01-13T1300,3026A,116.6183,23.6608,潮州市,市政府,颗粒物(PM10),58,65,59,21,28,93,,56,56,16,24,5,6,0.3,0.3
2025-01-13T1300,4036A,116.6461,23.6761,潮州市,金山,颗粒物(PM10),63,75,50,20,28,92,,56,56,16,20,6,6,0.5,0.5
2025-01-13T1300,2472A,113.0073,25.9061,郴州市,马头岭,,41,41,64,18,31,96,,56,56,16,27,12,12,0.5,0.6
2025-01-13T1300,2473A,113.0116,25.8226,郴州市,市职中,颗粒物(PM10),55,60,81,33,46,80,,28,28,19,39,12,8,0.6,0.8
2025-01-13T1300,2474A,113.0161,25.8001,郴州市,兴隆步行街,细颗粒物(PM2.5),70,74,80,51,46,74,,24,24,28,47,11,8,0.5,0.8
2025-01-13T1300,2475A,113.0383,25.8071,郴州市,市审计局,颗粒物(PM10),53,56,65,36,41,76,,26,26,24,42,10,8,0.5,1
2025-01-13T1300,2476A,113.0348,25.7759,郴州市,市环保局,颗粒物(PM10),57,63,63,32,42,64,,17,17,30,47,13,12,0.5,0.6
2025-01-13T1300,1431A,103.9728,30.7236,成都市,金泉两河,细颗粒物(PM2.5),53,42,97,37,75,61,,16,16,32,46,2,3,0.8,0.9
2025-01-13T1300,1432A,104.176,30.6872,成都市,十里店,细颗粒物(PM2.5),63,51,97,45,75,75,,26,26,32,52,3,2,0.5,0.7
2025-01-13T1300,1433A,104.079,30.5706,成都市,三瓦窑,细颗粒物(PM2.5),89,92,107,66,76,58,,17,17,39,57,2,2,0.4,0.7
2025-01-13T1300,1434A,104.1114,30.63,成都市,沙河铺,细颗粒物(PM2.5),68,65,97,49,74,68,,18,18,34,46,2,2,0.6,0.7
2025-01-13T1300,1437A,104.0786,30.6531,成都市,君平街,细颗粒物(PM2.5),67,64,88,48,71,67,,25,25,31,48,4,5,0.9,1
2025-01-13T1300,2880A,104.0239,30.65639,成都市,大石西路,细颗粒物(PM2.5),72,71,87,52,65,52,,21,21,44,48,4,4,0.8,0.9
2025-01-13T1300,3136A,104.2725,30.5589,成都市,龙泉驿区区政府,细颗粒物(PM2.5),64,61,95,46,72,92,,36,36,17,41,4,4,0.5,0.7
2025-01-13T1300,3357A,104.0106,30.6931,成都市,金博路,"颗粒物(PM10),细颗粒物(PM2.5)",69,87,92,50,67,44,,16,16,46,45,2,2,0.8,0.8
2025-01-13T1300,3359A,104.0578,30.5225,成都市,华阳,细颗粒物(PM2.5),70,75,116,51,85,75,,24,24,20,55,1,1,0.7,1
2025-01-13T1300,3487A,104.2394,30.5319,成都市,车城东七路,细颗粒物(PM2.5),75,69,99,55,73,92,,36,36,13,41,2,2,0.5,0.7
2025-01-13T1300,3488A,104.3853,30.7453,成都市,青白江技师分院,,48,48,81,30,69,92,,26,26,18,42,3,4,0.6,0.7
2025-01-13T1300,3489A,104.0789,30.4072,成都市,科学城,细颗粒物(PM2.5),97,90,119,72,92,79,,29,29,11,43,5,5,0.6,0.8
2025-01-13T1300,4011A,103.8506,30.6947,成都市,光华大道三段,颗粒物(PM10),56,62,96,31,68,59,,19,19,29,39,1,2,0.6,0.8
2025-01-13T1300,1062A,117.9531,40.9081,承德市,铁路,颗粒物(PM10),60,69,57,19,33,35,,15,15,31,38,28,15,1.0,0.9
2025-01-13T1300,1063A,117.9392,40.9763,承德市,中国银行,颗粒物(PM10),56,62,57,19,27,34,,15,15,22,30,8,5,0.7,0.6
2025-01-13T1300,1064A,117.9503,40.928,承德市,开发区,颗粒物(PM10),52,54,52,31,29,39,,19,19,31,35,14,10,0.8,0.7
2025-01-13T1300,1065A,117.8051,40.9655,承德市,文化中心,,39,39,60,22,29,55,,21,21,18,40,16,14,0.7,0.7
2025-01-13T1300,1066A,117.9268,41.0026,承德市,离宫,,,51,49,27,33,36,,14,14,,31,11,8,0.6,0.5
2025-01-13T1300,2314A,117.47,30.6618,池州市,池州学院,细颗粒物(PM2.5),78,90,102,57,64,87,,44,44,22,34,8,7,0.5,0.9
2025-01-13T1300,3333A,117.5627,30.695,池州市,第八中学,细颗粒物(PM2.5),64,76,104,46,60,100,,63,63,18,29,6,6,0.5,0.7
2025-01-13T1300,3334A,117.5038,30.6243,池州市,第十二中学,颗粒物(PM10),61,71,100,40,65,109,,41,41,14,45,4,5,0.4,1.2
2025-01-13T1300,1744A,118.9233,42.2816,赤峰市,松山一中,,29,29,21,10,13,64,,48,48,10,22,6,13,0.5,0.7
2025-01-13T1300,1745A,118.9576,42.2728,赤峰市,哈达街,,20,,16,14,8,58,,54,49,22,22,4,5,0.6,0.8
2025-01-13T1300,1746A,118.8788,42.2554,赤峰市,天义路,,,30,18,11,10,59,,47,47,,17,6,9,,0.4
2025-01-13T1300,3058A,119.2658,42.0353,赤峰市,银河街,颗粒物(PM10),57,64,106,33,62,59,,26,26,13,42,14,35,0.5,1.7
2025-01-13T1300,3286A,118.9359,42.3147,赤峰市,桥北物流园区,,25,25,26,8,14,61,,35,35,15,33,5,10,0.6,0.8
2025-01-13T1300,2521A,107.3476,22.4136,崇左市,市环保局江州分局,细颗粒物(PM2.5),83,114,93,61,49,122,,41,41,27,40,13,7,0.7,0.7
2025-01-13T1300,2522A,107.3702,22.3707,崇左市,城南新区,细颗粒物(PM2.5),97,96,74,72,51,121,,45,45,26,31,14,7,0.9,0.7
2025-01-13T1300,2298A,118.3093,32.3153,滁州市,老年大学,细颗粒物(PM2.5),79,106,74,58,40,82,,33,33,42,42,9,4,0.8,0.6
2025-01-13T1300,2299A,118.3244,32.2786,滁州市,人大宾馆,细颗粒物(PM2.5),98,107,87,73,55,78,,33,33,47,40,14,9,0.8,0.7
2025-01-13T1300,3207A,118.3118,32.3038,滁州市,市政府原办公楼,细颗粒物(PM2.5),79,97,74,58,46,79,,31,31,42,47,11,6,0.6,0.5
2025-01-13T1300,3331A,118.3267,32.2634,滁州市,图书馆,颗粒物(PM10),78,105,85,48,49,77,,36,36,39,37,13,8,0.5,0.4
2025-01-13T1300,2605A,101.5482,25.0441,楚雄彝族自治州,州环境监测站,,27,27,40,14,34,72,,21,21,5,22,5,6,0.6,0.9
2025-01-13T1300,2606A,101.538,25.0492,楚雄彝族自治州,市经济开发区,,,32,48,14,36,52,,18,18,8,21,,7,0.5,0.8
2025-01-13T1300,2548A,107.5277,31.2827,达州市,达州职业技术学院,细颗粒物(PM2.5),107,119,94,80,67,34,,28,28,54,41,25,7,2.0,0.7
2025-01-13T1300,2549A,107.5086,31.2186,达州市,市环境监测站,细颗粒物(PM2.5),107,152,101,80,64,17,,8,8,77,57,17,8,1.5,1.1
2025-01-13T1300,2550A,107.4988,31.2132,达州市,凤凰小区,细颗粒物(PM2.5),113,146,101,85,66,21,,9,9,67,56,19,10,1.2,0.9
2025-01-13T1300,2551A,107.5082,31.1986,达州市,达县机关宾馆,细颗粒物(PM2.5),100,132,105,75,64,24,,9,9,67,57,16,8,1.1,1
2025-01-13T1300,2552A,107.4644,31.2124,达州市,市政中心,细颗粒物(PM2.5),110,149,102,83,62,14,,6,6,83,63,32,7,2.2,1.1
2025-01-13T1300,2614A,100.1542,25.7054,大理白族自治州,大理市环境监测站,,35,29,25,24,24,78,,68,68,7,8,8,7,0.5,0.5
2025-01-13T1300,2615A,100.2171,25.5811,大理白族自治州,大理古城,,27,19,27,3,18,86,,67,67,3,11,6,7,0.4,0.6
2025-01-13T1300,1109A,121.612,38.9741,大连市,甘井子,细颗粒物(PM2.5),60,68,62,43,38,72,,42,42,29,44,10,11,0.5,0.9
2025-01-13T1300,1110A,121.565,38.9511,大连市,周水子,细颗粒物(PM2.5),69,78,68,50,49,68,,38,38,24,48,13,16,1.0,1.1
2025-01-13T1300,1111A,121.5637,38.8845,大连市,星海三站,细颗粒物(PM2.5),70,74,51,51,34,69,,49,49,25,24,14,13,0.6,0.7
2025-01-13T1300,1112A,121.6302,38.9117,大连市,青泥洼桥,细颗粒物(PM2.5),73,,43,53,39,65,,41,41,22,32,15,14,0.7,0.9
2025-01-13T1300,1113A,121.6251,38.8638,大连市,傅家庄,细颗粒物(PM2.5),68,68,49,49,32,72,,50,50,18,16,13,17,0.9,0.9
2025-01-13T1300,1114A,121.5213,38.8661,大连市,七贤岭,细颗粒物(PM2.5),69,71,49,50,34,72,,40,40,24,23,12,10,0.8,0.9
2025-01-13T1300,1115A,121.2529,38.8061,大连市,旅顺,细颗粒物(PM2.5),73,78,46,53,32,75,,50,50,25,25,13,12,0.8,0.7
2025-01-13T1300,1116A,121.7485,39.1311,大连市,金州,细颗粒物(PM2.5),60,66,63,43,48,68,,42,42,27,31,10,10,0.8,1.1
2025-01-13T1300,1117A,121.7811,39.0496,大连市,开发区,细颗粒物(PM2.5),69,74,73,50,56,59,,27,27,31,55,18,18,0.6,1
2025-01-13T1300,1118A,121.9762,39.0631,大连市,双D港,细颗粒物(PM2.5),67,74,56,48,39,76,,53,53,24,23,12,12,0.8,0.8
2025-01-13T1300,1789A,124.81117,46.03138,大庆市,大同区,细颗粒物(PM2.5),82,61,151,60,130,38,,26,26,18,41,10,12,0.6,1.1
2025-01-13T1300,1790A,125.129,46.533,大庆市,龙凤区,细颗粒物(PM2.5),79,83,141,58,108,42,,43,38,33,40,17,7,0.8,1
2025-01-13T1300,1791A,124.902,46.408,大庆市,红岗区,细颗粒物(PM2.5),105,82,132,79,107,36,,21,21,33,53,,9,0.8,1.1
2025-01-13T1300,1792A,125.153,46.586,大庆市,萨尔图区,,,100,142,72,117,40,,43,34,40,48,,7,0.8,0.9
2025-01-13T1300,1793A,124.9042,46.6215,大庆市,让胡路区,细颗粒物(PM2.5),149,141,131,114,112,42,,28,28,36,56,7,7,0.9,0.9
2025-01-13T1300,3481A,125.141,46.634,大庆市,萨区政府监测点,细颗粒物(PM2.5),98,101,144,73,107,39,,23,23,33,57,10,8,0.7,0.9
2025-01-13T1300,1723A,113.2994,40.0758,大同市,云冈宾馆,颗粒物(PM10),52,54,64,22,27,70,,52,52,10,26,10,13,0.5,0.6
2025-01-13T1300,1724A,113.3444,40.0917,大同市,大同大学,颗粒物(PM10),60,70,57,19,21,65,,51,50,8,20,14,17,0.5,0.6
2025-01-13T1300,1725A,113.2661,40.1269,大同市,安家小村,颗粒物(PM10),58,65,69,16,23,62,,51,51,12,24,17,20,0.7,0.8
2025-01-13T1300,1726A,113.2711,40.0844,大同市,教育学院,颗粒物(PM10),62,74,70,16,23,62,,46,44,15,31,8,12,0.7,0.8
2025-01-13T1300,3282A,113.3397,40.0597,大同市,大同市卫生学校,颗粒物(PM10),62,73,62,23,24,61,,52,49,15,27,9,10,0.5,0.6
2025-01-13T1300,3565A,113.1367,40.1122,大同市,云冈站,颗粒物(PM10),51,52,68,24,24,74,,56,56,9,21,9,15,0.4,0.5
2025-01-13T1300,3566A,113.1186,40.2556,大同市,图书馆,颗粒物(PM10),57,64,54,14,26,76,,47,47,7,17,8,15,0.4,0.6
2025-01-13T1300,3567A,113.5931,40.0461,大同市,区一中,颗粒物(PM10),62,73,74,9,21,59,,40,38,18,31,15,24,0.5,0.7
2025-01-13T1300,2269A,124.1069,50.4097,大兴安岭地区,科技局,,20,17,38,11,28,63,,50,50,4,12,8,9,0.3,0.4
2025-01-13T1300,3663A,124.1164,50.4278,大兴安岭地区,红旗社区,,,12,44,3,30,57,,25,25,6,32,,9,0.3,0.6
2025-01-13T1300,1600A,124.3303,40.0625,丹东市,江湾东路,细颗粒物(PM2.5),68,81,112,49,82,66,,33,33,17,40,17,25,1.0,2.1
2025-01-13T1300,1601A,124.4256,40.1503,丹东市,临江后街,细颗粒物(PM2.5),93,108,110,69,75,63,,27,27,30,43,36,24,1.9,1.9
2025-01-13T1300,1602A,124.3933,40.1461,丹东市,元宝山,细颗粒物(PM2.5),78,79,103,57,74,45,,21,21,28,38,15,15,1.7,2
2025-01-13T1300,1603A,124.3633,40.1092,丹东市,民主桥,颗粒物(PM10),71,91,99,50,72,61,,26,26,18,46,18,19,1.2,1.8
2025-01-13T1300,3541A,109.5726,19.5167,儋州市,第一中学子站,,35,31,34,14,17,112,,93,86,9,13,6,7,0.3,0.4
2025-01-13T1300,3542A,109.5567,19.5187,儋州市,东坡学校子站,,39,34,38,15,19,123,,93,93,8,11,4,7,0.5,0.5
2025-01-13T1300,2616A,98.5842,24.428,德宏傣族景颇族自治州,德宏州监测站,颗粒物(PM10),58,66,62,39,38,70,,28,28,18,25,9,8,0.8,0.8
2025-01-13T1300,3677A,98.5881,24.4368,德宏傣族景颇族自治州,芒市人民政府综合楼,细颗粒物(PM2.5),62,64,56,44,35,67,,23,23,17,19,6,6,0.7,0.7
2025-01-13T1300,1901A,104.4239,31.1208,德阳市,东山公园,细颗粒物(PM2.5),108,112,89,81,72,61,,23,23,45,42,4,3,0.8,0.7
2025-01-13T1300,1902A,104.3826,31.1317,德阳市,西小区,细颗粒物(PM2.5),132,137,103,100,78,49,,17,17,44,46,4,3,0.9,0.8
2025-01-13T1300,1904A,104.3553,31.1091,德阳市,耐火材料厂,细颗粒物(PM2.5),124,101,96,94,79,57,,19,19,43,40,6,5,0.9,0.9
2025-01-13T1300,3639A,104.4019,31.1244,德阳市,市教育局,细颗粒物(PM2.5),122,121,88,92,73,59,,18,18,43,46,7,5,1.0,1
2025-01-13T1300,1622A,116.3032,37.4674,德州市,儿童乐园,颗粒物(PM10),82,114,95,56,46,58,,38,37,28,32,13,11,1.1,0.9
2025-01-13T1300,1624A,116.2991,37.4451,德州市,监理站,细颗粒物(PM2.5),107,139,89,80,47,53,,36,36,42,39,29,18,1.0,0.8
2025-01-13T1300,3066A,116.2721,37.4379,德州市,九衢泉纯净水厂,细颗粒物(PM2.5),94,127,97,70,54,53,,31,31,41,41,30,17,0.9,0.9
2025-01-13T1300,3371A,116.3728,37.4403,德州市,开发区人民医院,颗粒物(PM10),90,129,100,58,51,59,,40,40,36,43,23,15,0.9,0.8
2025-01-13T1300,3372A,116.3572,37.4094,德州市,太阳城中学,细颗粒物(PM2.5),100,136,104,75,60,56,,36,36,42,48,25,15,0.9,0.8
2025-01-13T1300,3511A,116.5652,37.3319,德州市,陵城艺术中心,"颗粒物(PM10),细颗粒物(PM2.5)",85,119,96,63,49,54,,36,36,31,32,16,12,1.0,0.9
2025-01-13T1300,2621A,99.7056,27.8317,迪庆藏族自治州,迪庆州站,,27,24,27,14,20,85,,67,67,8,12,8,8,0.4,0.6
2025-01-13T1300,3180A,99.7136,27.8094,迪庆藏族自治州,质量技术监督局,,25,14,20,3,12,78,,62,62,6,10,7,7,0.6,0.6
2025-01-13T1300,2663A,104.6241,35.5734,定西市,东关小学,,49,49,80,33,51,61,,18,18,22,33,20,23,1.2,1.4
2025-01-13T1300,2664A,104.6194,35.5934,定西市,供电公司,颗粒物(PM10),54,58,73,37,48,68,,17,17,20,38,18,18,1.3,1.8
2025-01-13T1300,1389A,113.7547,23.0494,东莞市,莞城梨川,颗粒物(PM10),51,51,59,24,29,102,,45,45,25,53,8,7,0.6,0.7
2025-01-13T1300,1390A,113.7944,23.0128,东莞市,东城石井,,42,42,51,22,26,98,,40,40,22,46,7,6,0.4,0.6
2025-01-13T1300,1391A,113.7383,22.9658,东莞市,南城西平,颗粒物(PM10),52,53,62,28,30,116,,44,44,30,59,4,6,0.4,0.5
2025-01-13T1300,3319A,113.7338,23.0381,东莞市,万江金泰,颗粒物(PM10),53,56,63,28,31,99,,41,41,25,52,10,9,0.6,0.6
2025-01-13T1300,3626A,113.7533,23.0202,东莞市,南城元岭,颗粒物(PM10),51,52,62,26,29,105,,47,47,21,56,7,8,0.5,0.7
2025-01-13T1300,3627A,113.7875,23.0457,东莞市,东城主山,颗粒物(PM10),51,51,54,23,26,95,,43,43,18,48,9,11,0.6,0.7
2025-01-13T1300,1666A,118.6614,37.4309,东营市,市环保局,颗粒物(PM10),79,107,102,48,65,74,,29,29,31,60,16,19,0.7,0.9
2025-01-13T1300,3036A,118.6904,37.4338,东营市,开发区管委会,颗粒物(PM10),85,120,106,48,65,73,,32,32,34,62,15,17,0.8,1
2025-01-13T1300,3365A,118.5719,37.565,东营市,垦利区民丰路,颗粒物(PM10),80,110,98,46,53,51,,22,22,35,58,19,18,0.6,0.8
2025-01-13T1300,3498A,118.5055,37.8612,东营市,河口城区,颗粒物(PM10),86,122,96,54,50,65,,34,34,36,51,12,12,0.9,1.2
2025-01-13T1300,3646A,118.4978,37.4623,东营市,胜利站,颗粒物(PM10),77,104,113,44,65,59,,26,26,34,64,15,21,0.9,1.1
2025-01-13T1300,3734A,118.35,37.26,东营市,理想之城,颗粒物(PM10),80,110,111,48,67,80,,32,32,37,63,16,18,0.8,0.9
2025-01-13T1300,1591A,110.0023,39.8129,鄂尔多斯市,综合楼,颗粒物(PM10),133,215,148,31,27,82,,76,62,10,14,7,8,0.5,0.5
2025-01-13T1300,1592A,109.9486,39.8261,鄂尔多斯市,巴音孟克林场办事处,颗粒物(PM10),124,197,147,36,31,83,,76,66,7,11,8,8,0.3,0.3
2025-01-13T1300,1593A,109.7736,39.5986,鄂尔多斯市,康泽苑,颗粒物(PM10),129,207,132,41,30,76,,66,52,8,13,6,7,0.4,0.5
2025-01-13T1300,1594A,109.8119,39.5989,鄂尔多斯市,华泰汽车城,颗粒物(PM10),140,229,130,44,30,77,,68,52,9,14,8,8,0.4,0.4
2025-01-13T1300,1595A,109.9734,39.7884,鄂尔多斯市,奥林花园,颗粒物(PM10),134,217,144,34,29,68,,66,56,23,20,28,11,0.5,0.5
2025-01-13T1300,2436A,114.8938,30.3994,鄂州市,市政府,细颗粒物(PM2.5),94,97,107,70,73,94,,70,70,38,52,16,14,0.9,0.8
2025-01-13T1300,2437A,114.8989,30.3714,鄂州市,赵家坝,细颗粒物(PM2.5),85,103,103,63,68,92,,67,67,36,45,12,10,1.0,0.9
2025-01-13T1300,3654A,114.8094,30.4089,鄂州市,精准医疗中心,细颗粒物(PM2.5),102,127,113,76,76,82,,54,54,45,53,10,25,1.6,1.3
2025-01-13T1300,2454A,109.4978,30.2981,恩施土家族苗族自治州,湖北民院,细颗粒物(PM2.5),120,,82,91,81,39,,13,13,31,27,8,8,1.0,1
2025-01-13T1300,2455A,109.4707,30.2798,恩施土家族苗族自治州,州电力总公司,细颗粒物(PM2.5),118,100,102,89,86,35,,14,14,34,34,8,8,1.0,1.1
2025-01-13T1300,3549A,109.5061,30.3772,恩施土家族苗族自治州,龙凤新区,细颗粒物(PM2.5),82,83,70,60,55,26,,17,17,48,20,6,6,1.0,0.8
2025-01-13T1300,2499A,108.3411,21.6158,防城港市,沙万,颗粒物(PM10),62,73,67,22,43,115,,70,70,17,36,11,13,0.6,0.6
2025-01-13T1300,2500A,108.3514,21.7731,防城港市,防城档案局,颗粒物(PM10),54,58,115,24,54,116,,46,46,16,45,8,7,0,0.3
2025-01-13T1300,2501A,108.3506,21.6414,防城港市,大海花园,颗粒物(PM10),59,68,70,20,39,116,,69,69,15,28,10,14,0.7,0.8
2025-01-13T1300,1371A,113.1294,23.0067,佛山市,湾梁,颗粒物(PM10),54,58,79,30,41,59,,22,22,59,78,7,8,0.4,0.6
2025-01-13T1300,1372A,113.1083,23.0478,佛山市,华材职中,细颗粒物(PM2.5),60,61,105,43,51,62,,22,22,60,88,9,9,0.7,1
2025-01-13T1300,1373A,113.144,23.0453,佛山市,南海气象局,颗粒物(PM10),59,68,76,40,45,59,,20,20,53,76,7,9,0.5,0.8
2025-01-13T1300,1374A,113.2881,22.8094,佛山市,顺德苏岗,,,41,62,29,37,,,19,19,38,61,12,11,0.5,0.6
2025-01-13T1300,1376A,112.8383,22.8678,佛山市,高明孔堂,细颗粒物(PM2.5),60,67,56,43,33,85,,44,44,50,32,14,12,0.6,0.6
2025-01-13T1300,1377A,112.8836,23.1588,佛山市,三水监测站,细颗粒物(PM2.5),54,46,75,38,45,92,,42,42,33,74,12,20,0.5,0.7
2025-01-13T1300,1378A,112.867,23.185,佛山市,三水云东海,,42,29,67,29,40,94,,38,38,31,67,13,15,0.5,0.7
2025-01-13T1300,3625A,113.2544,22.7642,佛山市,容桂街道办,颗粒物(PM10),54,58,82,31,44,87,,33,33,45,76,10,9,0.5,0.7
2025-01-13T1300,1282A,119.2681,26.0504,福州市,师大,,48,48,46,26,26,112,,65,65,16,28,4,5,0.4,0.5
2025-01-13T1300,1283A,119.2984,26.1028,福州市,五四北路,,49,44,44,34,26,100,,59,59,20,31,2,2,0.4,0.4
2025-01-13T1300,1284A,119.2648,26.0768,福州市,杨桥西路,,48,48,50,30,26,112,,62,62,17,30,2,2,0.4,0.5
2025-01-13T1300,1285A,119.317,26.0746,福州市,紫阳,颗粒物(PM10),53,56,58,35,31,95,,49,49,24,49,4,4,0.5,0.5
2025-01-13T1300,3048A,119.5799,26.0936,福州市,九龙,,44,44,33,23,23,115,,79,79,11,19,2,2,0.4,0.5
2025-01-13T1300,3526A,119.5189,25.9664,福州市,吴航,,38,38,47,19,27,119,,53,53,13,35,4,3,0.3,0.5
2025-01-13T1300,1755A,123.7977,41.8491,抚顺市,望花区,颗粒物(PM10),102,153,147,41,95,45,,20,20,33,58,11,6,1.2,1.7
2025-01-13T1300,1756A,123.9161,41.8822,抚顺市,顺城区,颗粒物(PM10),77,104,120,54,81,36,,29,29,55,60,10,10,1.6,1.8
2025-01-13T1300,1757A,124.0436,41.8611,抚顺市,东洲区,细颗粒物(PM2.5),72,86,97,52,66,54,,45,45,22,30,5,4,1.3,1.5
2025-01-13T1300,1758A,123.9247,41.8642,抚顺市,新抚区,细颗粒物(PM2.5),92,103,123,68,90,39,,28,28,62,70,9,8,1.4,1.7
2025-01-13T1300,1759A,124.0972,41.8961,抚顺市,大伙房水库,,,80,82,48,63,54,,41,41,,34,,11,1.2,1.5
2025-01-13T1300,1760A,123.7086,41.8391,抚顺市,沈抚新城,颗粒物(PM10),94,138,139,24,102,53,,24,24,32,67,14,14,1.1,2.3
2025-01-13T1300,2376A,116.2127,28.0814,抚州市,桐源党溪,颗粒物(PM10),71,91,71,43,39,78,,30,30,14,15,35,5,0.7,0.6
2025-01-13T1300,2377A,116.3544,27.9831,抚州市,市站,颗粒物(PM10),55,60,76,25,45,87,,44,44,23,43,10,13,0.5,0.9
2025-01-13T1300,2378A,116.3565,27.963,抚州市,血防站,颗粒物(PM10),56,61,73,28,42,85,,44,44,20,44,8,9,0.9,1
2025-01-13T1300,2379A,116.3564,28.0007,抚州市,采茶剧团,,,58,75,25,44,70,,30,30,15,36,7,8,,1.5
2025-01-13T1300,2380A,116.385,27.9647,抚州市,医学分院,颗粒物(PM10),52,54,75,21,36,71,,35,35,18,37,5,7,0.6,0.6
2025-01-13T1300,2207A,121.6094,41.998,阜新市,工业园区,细颗粒物(PM2.5),102,114,140,76,85,57,,23,23,29,41,30,24,1.3,1.5
2025-01-13T1300,2208A,121.6697,42.0279,阜新市,长青街,细颗粒物(PM2.5),74,77,97,54,81,61,,21,21,26,40,28,20,1.0,1
2025-01-13T1300,2209A,121.6673,42.0705,阜新市,农业园区,细颗粒物(PM2.5),85,108,83,63,61,54,,35,35,25,31,31,27,1.1,1
2025-01-13T1300,2210A,121.6717,42.0224,阜新市,东苑,细颗粒物(PM2.5),70,84,91,51,64,55,,21,21,26,38,31,32,1.0,1.2
2025-01-13T1300,2211A,121.6506,42.0498,阜新市,玉龙新城,细颗粒物(PM2.5),87,109,123,64,82,59,,25,25,30,43,32,18,1.0,1.2
2025-01-13T1300,2301A,115.8277,32.8929,阜阳市,市监测站,细颗粒物(PM2.5),83,95,87,61,58,102,,57,57,19,34,10,8,0.5,0.6
2025-01-13T1300,2303A,115.8554,32.8605,阜阳市,开发区,颗粒物(PM10),78,106,111,52,53,106,,57,57,19,32,11,10,0.5,0.6
2025-01-13T1300,2875A,115.784,32.8892,阜阳市,阜阳职业技术学院,细颗粒物(PM2.5),78,93,81,57,46,110,,68,68,17,29,11,9,0.5,0.5
2025-01-13T1300,3468A,115.7901,32.8613,阜阳市,市规划展馆,细颗粒物(PM2.5),100,104,90,75,52,113,,63,63,16,23,9,8,0.6,0.5
2025-01-13T1300,3469A,115.836,32.9183,阜阳市,枣园社区,细颗粒物(PM2.5),98,101,90,73,52,113,,62,62,15,41,7,6,0.6,0.5
2025-01-13T1300,2669A,102.9099,34.9841,甘南藏族自治州,州政府,,31,31,52,20,25,66,,21,21,15,30,18,15,0.5,0.7
2025-01-13T1300,3380A,102.8914,34.9617,甘南藏族自治州,甘肃民族师范学院,,22,22,53,7,14,68,,23,23,16,36,23,10,0.4,0.5
2025-01-13T1300,2570A,101.9603,30.0475,甘孜藏族自治州,水桥子,,21,15,24,10,10,66,,25,25,9,26,3,2,0.4,0.4
2025-01-13T1300,3065A,101.9533,29.9972,甘孜藏族自治州,州环保局,,24,22,20,3,5,74,,52,45,7,16,3,4,0.3,0.3
2025-01-13T1300,3414A,115.8347,28.932,赣江新区,桑海产业园,细颗粒物(PM2.5),77,100,85,56,49,86,,32,32,45,52,22,13,1.3,0.7
2025-01-13T1300,2362A,114.9017,25.9149,赣州市,通天岩,颗粒物(PM10),56,62,46,32,27,118,,67,67,17,12,6,3,0.7,0.8
2025-01-13T1300,2363A,114.9367,25.8664,赣州市,地委,颗粒物(PM10),53,56,65,36,34,104,,47,47,37,42,2,10,1.2,1.1
2025-01-13T1300,2364A,114.9461,25.8481,赣州市,气象台,颗粒物(PM10),70,90,84,39,32,126,,52,52,44,63,11,10,0.8,0.9
2025-01-13T1300,2365A,114.9322,25.8333,赣州市,市图书馆,颗粒物(PM10),64,78,72,42,36,126,,41,41,45,64,6,6,0.8,0.9
2025-01-13T1300,2366A,114.8905,25.8471,赣州市,华坚鞋城,颗粒物(PM10),57,64,74,39,36,106,,43,43,32,48,10,9,0.7,0.8
2025-01-13T1300,3109A,115.0093,25.8613,赣州市,赣县区卫计委,颗粒物(PM10),69,87,66,41,40,90,,40,40,34,43,6,5,0.5,0.5
2025-01-13T1300,2683A,106.2319,36.1417,固原市,马园,颗粒物(PM10),76,102,214,37,64,74,,27,27,17,39,6,8,0.3,0.5
2025-01-13T1300,2684A,106.2792,36.0022,固原市,监测站,,35,35,163,13,52,86,,43,43,13,31,6,11,0.5,1.2
2025-01-13T1300,2685A,106.2375,36.0211,固原市,新区,,29,29,165,7,40,86,,34,34,5,44,6,7,0.2,0.9
2025-01-13T1300,3522A,106.2177,35.9959,固原市,原州区十五小,,28,23,96,10,29,89,,74,74,7,16,6,8,0.2,0.4
2025-01-13T1300,2544A,106.6303,30.4576,广安市,市委,细颗粒物(PM2.5),89,83,82,66,69,56,,32,32,21,34,6,4,0.8,0.9
2025-01-13T1300,2545A,106.6271,30.4663,广安市,友谊中学,细颗粒物(PM2.5),88,78,77,65,63,54,,30,30,22,31,9,6,0.8,0.9
2025-01-13T1300,2547A,106.6388,30.4551,广安市,广电花园,细颗粒物(PM2.5),79,87,83,58,68,56,,28,28,22,41,5,4,0.9,1
2025-01-13T1300,2902A,106.6351,30.4865,广安市,北辰小学,细颗粒物(PM2.5),87,74,79,64,64,57,,29,28,16,23,14,7,0.9,0.9
2025-01-13T1300,2523A,105.8945,32.4535,广元市,黑石坡,颗粒物(PM10),67,83,74,40,36,57,,31,31,16,23,1,4,0.4,0.5
2025-01-13T1300,2524A,105.821,32.4444,广元市,老城,细颗粒物(PM2.5),59,55,62,42,37,52,,42,42,33,43,11,3,1.8,1
2025-01-13T1300,2526A,105.8628,32.4287,广元市,监测站,,43,43,58,19,42,64,,62,61,26,37,5,7,0.7,0.7
2025-01-13T1300,3617A,105.8047,32.4166,广元市,经开区,细颗粒物(PM2.5),74,71,77,54,54,58,,29,29,25,48,22,9,1.1,1
2025-01-13T1300,1345A,113.2347,23.1423,广州市,广雅中学,颗粒物(PM10),59,68,91,30,43,70,,26,26,50,82,9,10,0.8,0.9
2025-01-13T1300,1346A,113.2612,23.105,广州市,市五中,,45,45,72,23,45,87,,36,36,28,62,4,5,0.6,0.9
2025-01-13T1300,1348A,113.3478,23.0916,广州市,广东商学院,,,61,76,30,35,76,,40,40,,74,5,5,0.5,0.7
2025-01-13T1300,1349A,113.4332,23.1047,广州市,市八十六中,颗粒物(PM10),57,64,79,25,32,67,,32,32,52,73,9,8,0.6,0.8
2025-01-13T1300,1350A,113.3505,22.9483,广州市,番禺中学,颗粒物(PM10),58,66,84,33,48,86,,32,32,43,76,11,4,0.6,0.8
2025-01-13T1300,1351A,113.2146,23.3916,广州市,花都师范,颗粒物(PM10),55,60,78,30,39,71,,26,26,48,72,8,9,0.5,0.8
2025-01-13T1300,1352A,113.2597,23.1331,广州市,市监测站,,50,50,70,21,34,85,,33,33,48,70,6,6,0.5,0.7
2025-01-13T1300,1353A,113.5618,23.312,广州市,九龙镇镇龙,,45,45,65,19,32,89,,47,47,24,51,6,5,0.4,0.6
2025-01-13T1300,1354A,113.2765,23.1544,广州市,麓湖,,37,37,57,20,32,89,,33,33,22,64,4,5,0.5,0.7
2025-01-13T1300,1355A,113.443,23.3035,广州市,帽峰山森林公园,,38,38,31,7,13,90,,78,71,17,12,24,8,0.4,0.4
2025-01-13T1300,2846A,113.3221,23.1322,广州市,体育西,,48,48,63,23,32,81,,38,38,22,55,6,7,0.4,0.6
2025-01-13T1300,3298A,113.5717,23.5491,广州市,从化街口,,49,49,59,29,35,91,,32,32,26,48,8,6,0.5,0.6
2025-01-13T1300,3299A,113.3472,23.3692,广州市,白云竹料,颗粒物(PM10),53,56,89,25,41,92,,40,40,22,55,9,8,0.4,0.7
2025-01-13T1300,3300A,113.2981,23.237,广州市,白云嘉禾,颗粒物(PM10),55,59,73,24,31,82,,36,36,36,69,8,8,0.4,0.6
2025-01-13T1300,3301A,113.4256,23.1716,广州市,黄埔科学城,,38,38,41,19,21,90,,61,61,20,36,7,7,0.6,0.6
2025-01-13T1300,3302A,113.3942,23.0483,广州市,番禺大学城,颗粒物(PM10),53,55,58,22,32,88,,32,32,42,71,15,9,0.5,0.6
2025-01-13T1300,3303A,113.4922,22.8168,广州市,南沙黄阁,颗粒物(PM10),65,80,75,40,36,108,,39,39,50,67,6,6,0.6,0.7
2025-01-13T1300,3304A,113.5342,22.7896,广州市,南沙街,颗粒物(PM10),58,65,66,34,34,106,,39,39,49,61,7,6,0.6,0.6
2025-01-13T1300,3443A,113.2902,23.5544,广州市,花都梯面,,41,41,39,21,21,107,,63,63,11,39,8,7,0.4,0.4
2025-01-13T1300,3445A,113.7858,23.7478,广州市,从化良口,,34,29,24,19,14,106,,54,54,8,22,6,5,0.4,0.4
2025-01-13T1300,3446A,113.8051,23.2614,广州市,增城荔城,,,40,42,24,21,103,,57,57,,26,6,5,0.5,0.5
2025-01-13T1300,2506A,109.6047,23.0666,贵港市,江南子站,细颗粒物(PM2.5),65,75,146,47,85,108,,38,38,28,50,18,11,1.1,1.2
2025-01-13T1300,2507A,109.6014,23.0948,贵港市,贵城子站,颗粒物(PM10),66,82,94,47,69,106,,40,40,20,41,16,15,0.8,1
2025-01-13T1300,2508A,109.5669,23.1065,贵港市,荷城子站,颗粒物(PM10),63,75,88,34,47,103,,40,40,23,44,17,13,0.7,0.8
2025-01-13T1300,3405A,109.5886,23.1172,贵港市,新世纪学校,颗粒物(PM10),63,75,79,40,43,115,,50,50,21,37,12,9,0.7,0.8
2025-01-13T1300,1439A,106.6899,26.5998,贵阳市,马鞍山,,44,44,37,17,16,93,,47,47,20,28,9,7,0.3,0.4
2025-01-13T1300,1440A,106.6971,26.5694,贵阳市,市环保站,,43,41,56,30,42,82,,48,48,54,73,21,37,0.3,0.8
2025-01-13T1300,1441A,106.6243,26.6266,贵阳市,鉴湖路,,44,44,35,24,18,99,,89,89,12,15,10,10,0.4,0.4
2025-01-13T1300,1442A,106.7487,26.6343,贵阳市,燕子冲,,42,41,33,29,24,97,,32,32,17,28,13,17,0.4,0.6
2025-01-13T1300,1443A,106.6555,26.4365,贵阳市,碧云窝,,41,41,36,17,14,109,,94,94,10,14,10,15,0.4,0.4
2025-01-13T1300,1444A,106.694,26.5161,贵阳市,中院村,,,70,98,27,46,80,,25,25,21,54,,54,,1.1
2025-01-13T1300,1445A,106.7109,26.6027,贵阳市,红边门,颗粒物(PM10),51,51,55,27,34,93,,32,32,22,48,10,58,0.6,1.2
2025-01-13T1300,1446A,106.7164,26.5699,贵阳市,新华路,,46,46,56,29,28,98,,34,34,15,44,12,33,0.4,0.8
2025-01-13T1300,1447A,106.674,26.5424,贵阳市,太慈桥,,46,46,39,22,18,95,,60,60,16,26,14,13,0.3,0.4
2025-01-13T1300,1862A,110.4144,25.3167,桂林市,电子科大尧山校区,,48,42,56,33,38,103,,53,53,7,11,11,5,0.7,0.7
2025-01-13T1300,1863A,110.2819,25.2697,桂林市,监测站,颗粒物(PM10),70,89,91,41,65,98,,44,44,26,52,13,15,0.9,1.4
2025-01-13T1300,1864A,110.3089,25.2708,桂林市,龙隐路小学,细颗粒物(PM2.5),67,60,69,48,52,112,,48,48,16,48,13,16,0.6,0.8
2025-01-13T1300,1865A,110.2869,25.2178,桂林市,八中,细颗粒物(PM2.5),63,61,81,45,62,102,,41,41,21,37,12,14,0.7,0.9
2025-01-13T1300,3403A,110.1764,25.2381,桂林市,创业大厦,细颗粒物(PM2.5),62,61,71,44,46,96,,28,28,25,47,12,16,1.0,1.1
2025-01-13T1300,3531A,110.296,25.1253,桂林市,旅游学院,细颗粒物(PM2.5),55,53,83,39,62,99,,35,35,21,38,10,9,1.1,1.3
2025-01-13T1300,2674A,100.2561,34.4714,果洛藏族自治州,玛沁县大武镇,,25,15,25,7,13,79,,47,47,5,5,22,15,0.5,0.5
2025-01-13T1300,1129A,126.5422,45.755,哈尔滨市,岭北,细颗粒物(PM2.5),152,137,130,116,117,60,,52,52,42,48,23,23,2.1,1.9
2025-01-13T1300,1130A,126.561,45.8167,哈尔滨市,松北商大,细颗粒物(PM2.5),155,130,129,118,119,50,,40,40,43,50,15,9,1.3,1.3
2025-01-13T1300,1131A,126.979,45.5419,哈尔滨市,阿城会宁,细颗粒物(PM2.5),94,87,110,70,98,66,,62,62,29,34,26,13,1.0,1.2
2025-01-13T1300,1132A,126.599,45.7222,哈尔滨市,南岗学府路,,,,177,,135,44,,26,26,41,68,,24,0.9,1
2025-01-13T1300,1133A,126.689,45.7733,哈尔滨市,太平宏伟公园,细颗粒物(PM2.5),132,131,143,100,114,44,,28,28,41,57,10,11,0.9,1
2025-01-13T1300,1134A,126.635,45.7667,哈尔滨市,道外承德广场,细颗粒物(PM2.5),137,151,154,104,112,39,,27,27,50,62,24,24,0.8,0.9
2025-01-13T1300,1135A,126.685,45.7319,哈尔滨市,香坊红旗大街,细颗粒物(PM2.5),148,132,147,113,130,42,,32,32,46,55,27,29,1.3,1.2
2025-01-13T1300,1136A,126.6411,45.7258,哈尔滨市,动力和平路,细颗粒物(PM2.5),144,125,146,110,127,47,,24,24,37,61,27,44,1.2,1.3
2025-01-13T1300,1137A,126.593,45.7478,哈尔滨市,道里建国路,细颗粒物(PM2.5),156,151,135,119,117,39,,32,32,48,61,28,24,1.3,1.2
2025-01-13T1300,1138A,126.615,45.61,哈尔滨市,平房东轻厂,细颗粒物(PM2.5),119,114,124,90,106,59,,46,46,30,37,13,12,1.0,0.9
2025-01-13T1300,1139A,126.595,45.9855,哈尔滨市,呼兰师专,细颗粒物(PM2.5),192,155,152,144,95,50,,14,,40,57,20,28,1.2,1.1
2025-01-13T1300,1140A,126.6206,45.6842,哈尔滨市,省农科院,细颗粒物(PM2.5),137,133,170,104,137,49,,27,27,40,72,14,18,1.1,1.4
2025-01-13T1300,2688A,93.5128,42.8172,哈密市,地区监测站,,39,39,50,23,30,65,,55,55,10,18,4,5,0.2,0.6
2025-01-13T1300,2689A,93.4961,42.8328,哈密市,哈密师范学校,,,,48,,33,65,,58,58,13,21,5,6,0.5,1
2025-01-13T1300,2671A,100.9048,36.9639,海北藏族自治州,海晏县西海镇,,26,13,21,6,11,83,,73,65,2,3,9,10,0.7,0.7
2025-01-13T1300,3867A,102.0738,36.5056,海东市,平安区公安北苑,,47,47,40,18,17,57,,29,29,33,24,34,14,1.2,0.7
2025-01-13T1300,1409A,110.576,19.9507,海口市,东寨港,,38,36,30,22,19,119,,67,67,8,7,12,12,0.7,0.6
2025-01-13T1300,1410A,110.3232,20.0574,海口市,海南大学,颗粒物(PM10),52,54,36,22,16,130,,107,107,16,14,7,6,0.4,0.3
2025-01-13T1300,1411A,110.283,20.0053,海口市,秀英海南医院,,47,47,39,22,17,133,,104,104,14,20,5,5,0.3,0.3
2025-01-13T1300,1412A,110.338,19.9969,海口市,海南师范大学,,46,46,38,21,17,136,,110,110,12,13,7,6,0.3,0.3
2025-01-13T1300,1413A,110.33,20.0356,海口市,龙华路环保局宿舍,颗粒物(PM10),51,51,37,21,16,132,,108,108,13,11,8,7,0.4,0.3
2025-01-13T1300,3539A,110.5111,19.9736,海口市,桂林洋子站,,47,47,37,20,18,139,,111,111,11,11,6,6,0.3,0.3
2025-01-13T1300,2673A,100.6188,36.2866,海南藏族自治州,共和县恰卜恰镇,,25,,29,17,13,79,,43,43,4,18,8,8,0.8,0.9
2025-01-13T1300,2676A,97.3731,37.3753,海西蒙古族藏族自治州,德令哈市,,29,29,29,9,13,76,,75,75,16,11,15,12,0.7,0.5
2025-01-13T1300,1048A,114.5302,36.6116,邯郸市,东污水处理厂,细颗粒物(PM2.5),79,106,77,58,37,32,,15,15,50,35,15,8,1.4,0.8
2025-01-13T1300,1049A,114.4918,36.5713,邯郸市,矿院,"颗粒物(PM10),细颗粒物(PM2.5)",73,95,66,53,32,32,,12,12,52,39,20,5,1.3,0.7
2025-01-13T1300,1050A,114.484,36.6133,邯郸市,丛台公园,细颗粒物(PM2.5),89,109,73,66,32,27,,15,15,51,34,13,6,1.2,0.7
2025-01-13T1300,3458A,114.7895,36.5593,邯郸市,香泉濮院小区,颗粒物(PM10),79,108,84,49,35,62,,37,37,29,22,21,8,1.5,0.7
2025-01-13T1300,3579A,114.50634,36.77178,邯郸市,永年区实验高中,,,,78,,37,46,,19,19,,35,16,12,1.0,0.8
2025-01-13T1300,3580A,114.20016,36.44293,邯郸市,峰峰矿区临水派出所,颗粒物(PM10),87,123,73,27,26,85,,68,68,7,17,11,15,0.4,0.7
2025-01-13T1300,2634A,106.9893,33.1842,汉中市,汉川机床厂子校,细颗粒物(PM2.5),60,53,53,43,52,73,,46,45,11,10,8,6,0.7,0.6
2025-01-13T1300,2635A,107.0154,33.0706,汉中市,市监测站,细颗粒物(PM2.5),102,100,95,76,73,52,,21,21,43,54,12,9,1.7,1.5
2025-01-13T1300,2636A,107.0089,33.1138,汉中市,鑫源开发区,细颗粒物(PM2.5),98,104,85,73,72,65,,27,27,30,44,14,8,1.3,1.2
2025-01-13T1300,2637A,107.007,33.0323,汉中市,南郑大河坎水厂,细颗粒物(PM2.5),94,106,124,70,86,68,,26,26,33,37,14,11,1.5,1.3
2025-01-13T1300,1223A,120.2072,30.2111,杭州市,滨江,细颗粒物(PM2.5),79,93,98,58,60,81,,35,35,36,58,9,8,0.7,0.7
2025-01-13T1300,1224A,120.0633,30.2747,杭州市,西溪,细颗粒物(PM2.5),73,79,85,53,55,82,,30,30,38,43,10,9,0.7,0.9
2025-01-13T1300,1226A,120.3461,30.3153,杭州市,下沙,颗粒物(PM10),79,107,118,57,65,92,,42,42,33,66,10,9,0.7,0.9
2025-01-13T1300,1227A,120.1269,30.2456,杭州市,卧龙桥,细颗粒物(PM2.5),79,85,72,58,50,70,,35,35,43,37,8,7,0.4,0.4
2025-01-13T1300,1228A,120.1903,30.2692,杭州市,浙江农大,,,91,107,60,66,68,,26,26,40,63,,8,0.7,0.8
2025-01-13T1300,1230A,120.1197,30.3119,杭州市,和睦小学,细颗粒物(PM2.5),84,93,88,62,56,64,,29,29,49,56,9,8,1.0,1
2025-01-13T1300,1231A,120.3019,30.4183,杭州市,临平镇,"颗粒物(PM10),细颗粒物(PM2.5)",79,107,108,58,59,73,,28,28,43,62,8,8,0.7,0.8
2025-01-13T1300,1232A,120.2697,30.1819,杭州市,城厢镇,细颗粒物(PM2.5),88,102,106,65,61,82,,37,37,35,64,8,6,0.8,0.9
2025-01-13T1300,1233A,120.0883,30.1808,杭州市,云栖,细颗粒物(PM2.5),84,103,84,62,50,70,,34,34,52,35,7,6,0.7,0.6
2025-01-13T1300,3557A,119.9464,30.0494,杭州市,镇二中,细颗粒物(PM2.5),93,76,79,69,62,77,,27,27,39,54,8,8,0.7,0.8
2025-01-13T1300,3558A,119.7183,30.2367,杭州市,市府大楼,细颗粒物(PM2.5),75,72,89,55,65,98,,55,55,28,41,9,8,0.7,0.8
2025-01-13T1300,3656A,120.1556,30.2864,杭州市,消防大队,细颗粒物(PM2.5),92,115,104,68,62,64,,28,28,51,56,11,10,0.6,0.6
2025-01-13T1300,1270A,117.1959,31.7848,合肥市,明珠广场,细颗粒物(PM2.5),85,110,96,63,52,76,,44,44,40,55,13,12,0.9,0.9
2025-01-13T1300,1271A,117.3072,31.8764,合肥市,三里街,细颗粒物(PM2.5),83,114,107,61,54,71,,30,30,46,60,7,7,0.8,0.9
2025-01-13T1300,1272A,117.2588,31.8707,合肥市,琥珀山庄,细颗粒物(PM2.5),100,110,96,75,54,76,,43,43,36,58,8,7,1.0,1.1
2025-01-13T1300,1273A,117.1604,31.9052,合肥市,董铺水库,颗粒物(PM10),89,127,100,51,41,66,,40,40,46,44,5,5,0.6,0.5
2025-01-13T1300,1274A,117.25,31.8571,合肥市,长江中路,细颗粒物(PM2.5),85,102,99,63,56,65,,40,40,40,54,8,8,0.9,0.8
2025-01-13T1300,1275A,117.266,31.9436,合肥市,庐阳区,颗粒物(PM10),84,117,110,56,55,67,,34,34,39,56,7,6,0.9,1
2025-01-13T1300,1276A,117.336,31.8586,合肥市,瑶海区,细颗粒物(PM2.5),83,110,107,61,51,90,,39,39,31,59,8,8,0.7,0.7
2025-01-13T1300,1277A,117.3027,31.7964,合肥市,包河区,细颗粒物(PM2.5),85,102,101,63,54,94,,46,46,34,70,6,8,0.8,0.6
2025-01-13T1300,1278A,117.2776,31.7385,合肥市,滨湖新区,,,105,98,61,46,,,53,53,28,46,12,11,0.4,0.4
2025-01-13T1300,1279A,117.1318,31.8403,合肥市,高新区,细颗粒物(PM2.5),78,102,94,57,48,75,,54,54,45,54,8,9,0.6,0.5
2025-01-13T1300,3464A,117.3803,31.9147,合肥市,高教基地,,,118,111,67,61,87,,34,34,34,50,,9,0.6,0.6
2025-01-13T1300,3614A,79.924,37.0877,和田地区,地区环保局,细颗粒物(PM2.5),104,,126,78,53,49,,46,46,36,30,43,17,0.7,0.2
2025-01-13T1300,3615A,79.9131,37.113,和田地区,市环保局,颗粒物(PM10),119,188,137,84,59,33,,24,23,102,57,33,18,5.2,2.1
2025-01-13T1300,2516A,108.2011,24.715,河池市,东仁乐园,颗粒物(PM10),82,114,101,54,52,90,,36,36,32,39,21,14,0.7,0.7
2025-01-13T1300,2517A,108.0497,24.6947,河池市,市环保站,颗粒物(PM10),78,105,47,45,32,106,,40,40,15,25,16,11,0.6,0.6
2025-01-13T1300,2518A,108.0983,24.6989,河池市,市疾控中心,颗粒物(PM10),69,87,85,48,41,97,,27,27,25,39,22,8,0.6,0.6
2025-01-13T1300,1696A,114.6778,23.7569,河源市,源西,,48,48,38,20,20,85,,42,42,12,32,6,6,0.4,0.4
2025-01-13T1300,1697A,114.6944,23.7586,河源市,东埔,颗粒物(PM10),55,59,44,20,23,90,,53,53,20,42,6,5,0.6,0.6
2025-01-13T1300,1698A,114.6892,23.7233,河源市,老城,,40,40,40,22,22,89,,41,41,14,33,5,4,0.5,0.6
2025-01-13T1300,1718A,115.4208,35.2464,菏泽市,气象局,颗粒物(PM10),96,142,107,53,48,66,,49,49,27,26,10,7,0.6,0.6
2025-01-13T1300,3374A,115.5564,35.0891,菏泽市,定陶老年大学,颗粒物(PM10),98,146,91,56,44,70,,55,55,31,32,12,9,0.5,0.5
2025-01-13T1300,4184A,115.4797,35.24401,菏泽市,永昌路1号,颗粒物(PM10),109,167,91,74,46,64,,55,53,43,33,11,8,1.3,1.1
2025-01-13T1300,4193A,115.4715,35.2800,菏泽市,长城路999号,颗粒物(PM10),101,151,95,58,34,60,,56,51,43,30,9,7,0.7,0.6
2025-01-13T1300,2514A,111.5264,24.4172,贺州市,环保小区,细颗粒物(PM2.5),74,78,72,54,50,84,,37,37,24,31,11,8,0.8,0.8
2025-01-13T1300,2515A,111.5608,24.4078,贺州市,政协大楼,颗粒物(PM10),60,69,78,33,44,72,,29,29,28,37,9,9,0.7,0.7
2025-01-13T1300,3534A,111.4744,24.4553,贺州市,西湾,细颗粒物(PM2.5),88,87,90,65,58,103,,39,39,18,35,11,8,0.6,0.8
2025-01-13T1300,2385A,114.17,35.9019,鹤壁市,市监测站,颗粒物(PM10),92,134,90,28,29,87,,47,47,11,29,5,4,0.4,0.5
2025-01-13T1300,2386A,114.2956,35.7511,鹤壁市,市交警支队,颗粒物(PM10),84,118,79,14,27,42,,17,16,44,40,8,5,0.5,0.5
2025-01-13T1300,2387A,114.2878,35.7306,鹤壁市,迎宾馆,颗粒物(PM10),100,150,83,25,27,47,,17,17,42,39,7,4,0.6,0.5
2025-01-13T1300,3474A,114.2617,35.6822,鹤壁市,大新区,颗粒物(PM10),106,161,81,51,37,43,,21,21,49,48,10,7,0.8,0.6
2025-01-13T1300,3596A,114.1572,35.9603,鹤壁市,南山宾馆,颗粒物(PM10),93,136,89,26,38,92,,70,70,2,16,2,4,0.5,0.6
2025-01-13T1300,2244A,130.2537,47.3416,鹤岗市,哈啤分公司,细颗粒物(PM2.5),143,120,80,109,62,24,,43,32,48,37,18,16,1.3,1.2
2025-01-13T1300,2245A,130.2684,47.3086,鹤岗市,斯达机电,细颗粒物(PM2.5),69,64,76,50,58,54,,45,35,29,34,19,19,0.4,0.7
2025-01-13T1300,2246A,130.3114,47.3388,鹤岗市,东山纸板厂,细颗粒物(PM2.5),84,,83,62,94,36,,21,21,37,53,20,17,0.9,2.4
2025-01-13T1300,2247A,130.1097,47.3382,鹤岗市,五号水库,颗粒物(PM10),66,82,45,40,29,68,,70,70,24,18,11,8,0.9,0.7
2025-01-13T1300,2263A,127.4833,50.2524,黑河市,交通局,,49,49,102,32,73,52,,31,31,14,45,7,9,0.8,1.2
2025-01-13T1300,2264A,127.5144,50.2341,黑河市,环保局,细颗粒物(PM2.5),135,133,95,103,79,22,,19,19,,49,12,10,1.7,1.5
2025-01-13T1300,2265A,127.5291,50.2472,黑河市,大黑河岛,,,62,81,62,72,5,,12,7,9,25,3,2,,
2025-01-13T1300,1074A,115.6838,37.7541,衡水市,电机北厂,,,112,84,55,45,58,,32,28,30,28,,10,0.8,0.6
2025-01-13T1300,1075A,115.6303,37.7316,衡水市,市监测站,"颗粒物(PM10),细颗粒物(PM2.5)",70,90,75,51,42,57,,29,29,30,33,15,12,0.8,0.7
2025-01-13T1300,3188A,115.6683,37.7217,衡水市,市城管局,颗粒物(PM10),74,97,82,45,46,52,,25,25,35,36,13,13,0.8,0.7
2025-01-13T1300,3459A,115.5989,37.5491,衡水市,地表水厂,细颗粒物(PM2.5),95,86,74,71,50,64,,27,27,26,46,12,11,0.8,0.7
2025-01-13T1300,2456A,112.5003,26.9167,衡阳市,原169医院,细颗粒物(PM2.5),72,71,71,52,55,60,,40,40,36,42,24,24,1.5,0.7
2025-01-13T1300,2457A,112.6194,26.9258,衡阳市,衡阳化工总厂,颗粒物(PM10),75,100,104,54,75,90,,28,28,24,43,15,11,0.8,1.1
2025-01-13T1300,2458A,112.6211,26.8956,衡阳市,珠晖区环保局,细颗粒物(PM2.5),77,87,97,56,70,80,,27,27,30,54,17,12,0.8,1
2025-01-13T1300,2459A,112.6197,26.8733,衡阳市,市委党校,颗粒物(PM10),75,99,96,45,72,89,,29,29,18,45,13,11,0.6,1.2
2025-01-13T1300,2460A,112.6006,26.8919,衡阳市,市监测站,细颗粒物(PM2.5),83,84,117,61,88,78,,24,24,25,48,16,11,0.7,1.5
2025-01-13T1300,2461A,112.5664,26.9056,衡阳市,真空机电公司,细颗粒物(PM2.5),73,94,102,53,68,84,,25,25,23,49,11,8,0.7,1.4
2025-01-13T1300,3399A,112.6703,26.882,衡阳市,师范学院,细颗粒物(PM2.5),93,,98,69,77,98,,34,34,17,37,16,12,0.6,1
2025-01-13T1300,2608A,103.3772,23.3993,红河哈尼族彝族自治州,污水处理厂,细颗粒物(PM2.5),57,,50,40,43,103,,80,80,8,13,7,12,0.4,0.5
2025-01-13T1300,2609A,103.3861,23.35,红河哈尼族彝族自治州,监测站,细颗粒物(PM2.5),58,,43,41,43,90,,77,75,4,8,8,7,0.3,0.4
2025-01-13T1300,3038A,103.3758,23.368,红河哈尼族彝族自治州,州图书馆,,,,37,,37,92,,73,73,7,10,8,9,0.4,0.5
2025-01-13T1300,1090A,111.6507,40.7517,呼和浩特市,呼市一监,,,,79,,42,,,12,12,,39,15,13,0.9,0.8
2025-01-13T1300,1091A,111.6572,40.8033,呼和浩特市,小召,颗粒物(PM10),84,117,88,54,42,31,,14,14,45,50,12,15,0.9,0.8
2025-01-13T1300,1094A,111.7516,40.8369,呼和浩特市,如意水处理厂,颗粒物(PM10),75,99,76,50,40,25,,12,12,35,36,13,11,0.8,0.7
2025-01-13T1300,1095A,111.7276,40.8062,呼和浩特市,二十九中,颗粒物(PM10),71,92,74,46,38,24,,11,11,41,43,14,11,0.8,0.8
2025-01-13T1300,1096A,111.5512,40.7866,呼和浩特市,工大金川校区,细颗粒物(PM2.5),88,116,83,65,41,26,,11,11,42,50,10,14,0.9,0.8
2025-01-13T1300,1097A,111.717,40.7612,呼和浩特市,化肥厂生活区,颗粒物(PM10),77,103,79,48,40,35,,14,14,33,46,13,9,0.7,0.8
2025-01-13T1300,3698A,111.5968,40.8178,呼和浩特市,红旗小学,颗粒物(PM10),79,107,85,52,38,28,,9,9,40,53,10,15,0.9,0.9
2025-01-13T1300,3699A,111.6518,40.8389,呼和浩特市,海东办,颗粒物(PM10),81,112,80,58,40,23,,10,10,44,49,6,9,1.3,1
2025-01-13T1300,2192A,119.7594,49.2261,呼伦贝尔市,区环保局,,30,30,36,17,27,49,,27,27,8,39,6,6,0.4,0.7
2025-01-13T1300,3061A,119.7512,49.1577,呼伦贝尔市,国华电力东,,23,23,27,9,18,55,,52,51,4,9,5,4,0.3,0.4
2025-01-13T1300,1250A,120.0751,30.8669,湖州市,城西水厂,细颗粒物(PM2.5),89,112,103,66,56,88,,29,29,36,67,9,9,0.6,0.6
2025-01-13T1300,2873A,120.0875,30.8955,湖州市,仁皇山新区,细颗粒物(PM2.5),80,97,101,59,57,93,,30,30,33,57,10,9,0.6,0.6
2025-01-13T1300,2907A,120.1844,30.8596,湖州市,吴兴区站,细颗粒物(PM2.5),87,106,96,64,54,87,,35,35,34,59,8,7,0.8,0.8
2025-01-13T1300,3562A,120.4148,30.8538,湖州市,南浔区站,细颗粒物(PM2.5),87,98,91,64,51,82,,28,28,44,51,10,10,0.5,0.5
2025-01-13T1300,1607A,120.9092,40.7136,葫芦岛市,龙港区,颗粒物(PM10),57,64,70,33,57,58,,42,42,31,42,9,18,0.6,0.7
2025-01-13T1300,1608A,120.8392,40.7514,葫芦岛市,化工街,颗粒物(PM10),58,66,123,27,75,45,,18,18,25,50,13,31,0.8,1.6
2025-01-13T1300,1609A,120.8341,40.7073,葫芦岛市,新区,颗粒物(PM10),56,61,71,25,56,54,,24,24,28,60,7,16,0.6,1.2
2025-01-13T1300,1610A,120.8695,40.7677,葫芦岛市,东城区,颗粒物(PM10),61,71,105,26,73,46,,19,19,33,51,15,48,0.1,0.8
2025-01-13T1300,2482A,109.5981,27.5721,怀化市,林科所,细颗粒物(PM2.5),97,100,53,72,42,59,,16,16,61,35,16,9,2.0,1.4
2025-01-13T1300,2483A,109.9453,27.5444,怀化市,河西地税局,细颗粒物(PM2.5),98,105,81,73,62,57,,16,16,47,36,7,4,0.8,0.7
2025-01-13T1300,2484A,109.9781,27.5342,怀化市,市四医院,细颗粒物(PM2.5),109,120,101,82,68,75,,25,25,33,39,10,7,1.1,1.2
2025-01-13T1300,2485A,109.9972,27.5578,怀化市,监测楼,细颗粒物(PM2.5),98,99,91,73,66,69,,18,18,36,38,14,4,1.0,1
2025-01-13T1300,2486A,110.0394,27.583,怀化市,市委党校,细颗粒物(PM2.5),84,80,91,62,64,72,,21,21,25,38,20,9,0.8,0.9
2025-01-13T1300,1210A,119.036,33.5981,淮安市,钵池山,细颗粒物(PM2.5),80,97,110,59,80,87,,47,47,26,49,12,12,0.7,1
2025-01-13T1300,1211A,119.007,33.575,淮安市,北京南路,细颗粒物(PM2.5),72,90,115,52,74,84,,38,38,27,56,10,12,0.6,0.9
2025-01-13T1300,1212A,118.989,33.6067,淮安市,市监测站,颗粒物(PM10),76,102,115,48,86,85,,42,42,29,57,11,11,1.3,1
2025-01-13T1300,1213A,119.135,33.5039,淮安市,楚州区监测站,细颗粒物(PM2.5),80,107,133,59,84,77,,26,26,33,60,13,10,0.8,0.9
2025-01-13T1300,1214A,119.0186,33.6297,淮安市,淮阴区监测站,细颗粒物(PM2.5),83,107,130,61,80,84,,43,43,35,59,15,12,0.9,1.1
2025-01-13T1300,3426A,118.8755,33.2894,淮安市,新华书店,颗粒物(PM10),70,90,117,50,81,74,,42,42,36,46,12,12,0.7,0.8
2025-01-13T1300,2282A,116.8004,33.975,淮北市,监测站,颗粒物(PM10),96,141,124,67,79,89,,58,58,21,35,10,10,0.4,0.5
2025-01-13T1300,2283A,116.8091,33.9007,淮北市,烈山区政府,颗粒物(PM10),78,105,118,54,79,90,,52,52,27,52,9,9,0.7,0.8
2025-01-13T1300,3330A,116.8873,33.9836,淮北市,杜集区检察院,,,,116,67,75,89,,59,59,24,25,7,7,0.6,0.6
2025-01-13T1300,4017A,116.7923,33.9535,淮北市,市博物馆,颗粒物(PM10),93,136,128,66,77,93,,55,55,23,43,9,11,0.7,0.8
2025-01-13T1300,2277A,116.8305,32.7727,淮南市,潘集区政府,细颗粒物(PM2.5),87,106,127,64,86,95,,56,56,25,42,11,12,0.5,0.6
2025-01-13T1300,2279A,116.8569,32.5951,淮南市,谢家集区政府,细颗粒物(PM2.5),94,122,118,70,69,80,,49,49,35,36,8,10,0.6,0.6
2025-01-13T1300,2280A,116.8281,32.633,淮南市,八公山区政府,细颗粒物(PM2.5),87,119,117,64,68,79,,53,53,32,33,8,5,0.5,0.5
2025-01-13T1300,2894A,117.0566,32.6531,淮南市,经济技术开发区消防队,颗粒物(PM10),83,115,127,52,69,102,,55,55,18,38,7,10,0.5,0.6
2025-01-13T1300,3329A,117.0108,32.5893,淮南市,山南新区,颗粒物(PM10),77,104,134,51,79,101,,62,62,21,29,8,11,0.5,0.7
2025-01-13T1300,2446A,114.9028,30.4742,黄冈市,职工中心,细颗粒物(PM2.5),92,102,109,68,70,109,,70,70,26,34,13,10,0.7,0.8
2025-01-13T1300,2929A,114.8858,30.4519,黄冈市,红卫路,细颗粒物(PM2.5),93,107,106,69,70,106,,72,72,30,40,10,8,1.0,1
2025-01-13T1300,3398A,114.9136,30.4445,黄冈市,市林业局,细颗粒物(PM2.5),94,95,101,70,71,107,,73,73,24,34,14,11,0.8,0.8
2025-01-13T1300,2672A,102.0199,35.5102,黄南藏族自治州,同仁县隆务镇,,27,23,31,18,15,84,,73,73,2,3,8,9,0.5,0.5
2025-01-13T1300,2295A,118.2903,29.6963,黄山市,延安路89号,颗粒物(PM10),60,69,54,23,36,100,,39,39,17,20,6,5,0.4,0.4
2025-01-13T1300,2296A,118.327,29.7178,黄山市,黄山东路89号,颗粒物(PM10),65,79,75,42,44,79,,35,35,28,28,8,7,0.5,0.5
2025-01-13T1300,2297A,118.1371,30.2756,黄山市,黄山区政府5号楼,颗粒物(PM10),54,58,73,31,44,92,,48,48,11,13,8,8,0.5,0.6
2025-01-13T1300,2423A,115.0601,30.2313,黄石市,沈家营,细颗粒物(PM2.5),97,123,104,72,67,80,,47,47,49,55,22,12,1.4,1
2025-01-13T1300,2426A,114.8988,30.2019,黄石市,铁山,,,,90,,71,101,,72,70,30,34,16,14,0.7,0.8
2025-01-13T1300,2427A,115.0307,30.2092,黄石市,团城山,细颗粒物(PM2.5),107,96,96,80,68,75,,45,45,56,46,22,13,1.7,1.1
2025-01-13T1300,3149A,115.0235,30.1578,黄石市,笔架山北路,细颗粒物(PM2.5),112,112,90,84,71,89,,74,62,42,32,16,16,0.9,1
2025-01-13T1300,4185A,115.0780,30.21118,黄石市,磁湖东路29号,细颗粒物(PM2.5),117,122,108,88,78,75,,41,41,56,57,37,20,1.7,1.4
2025-01-13T1300,1392A,114.4183,23.0528,惠州市,河南岸金山湖子站,,44,44,53,24,28,87,,39,39,13,33,8,8,0.6,0.7
2025-01-13T1300,1393A,114.4053,23.0822,惠州市,下埔横江三路子站,,,,53,,28,,,45,45,14,39,8,7,0.4,0.5
2025-01-13T1300,1394A,114.4103,23.1142,惠州市,江北云山西路子站,,43,43,45,22,24,96,,57,57,14,34,8,8,0.6,0.7
2025-01-13T1300,1395A,114.4645,22.7833,惠州市,惠阳区承修路船湖子站,颗粒物(PM10),51,52,57,19,22,89,,56,56,16,30,9,9,0.4,0.5
2025-01-13T1300,1396A,114.5317,22.7422,惠州市,大亚湾管委会子站,颗粒物(PM10),54,58,45,26,19,107,,51,51,45,48,14,11,0.6,0.5
2025-01-13T1300,3314A,114.4338,22.8134,惠州市,惠阳秋长,,48,48,56,24,25,99,,58,58,18,37,12,10,0.5,0.6
2025-01-13T1300,3452A,114.6517,22.775,惠州市,大亚湾霞涌,颗粒物(PM10),59,67,37,23,17,91,,69,69,15,20,8,7,0.3,0.4
2025-01-13T1300,2240A,130.9762,45.3001,鸡西市,环保局,细颗粒物(PM2.5),55,50,81,39,63,56,,37,37,12,34,8,10,0.4,0.8
2025-01-13T1300,2243A,130.9429,45.3039,鸡西市,第一中学,,,,54,38,43,69,,52,52,8,20,,10,,0.4
2025-01-13T1300,3707A,131.0207,45.3073,鸡西市,欧美日汽修厂,颗粒物(PM10),63,76,122,44,86,57,,29,29,28,51,11,43,0.5,1.1
2025-01-13T1300,3709A,130.9967,45.3106,鸡西市,市政设施管理处,颗粒物(PM10),66,82,93,38,63,50,,27,27,29,52,10,12,0.4,0.8
2025-01-13T1300,2367A,114.9754,27.0803,吉安市,红声器材厂,细颗粒物(PM2.5),68,83,81,49,44,88,,39,39,32,45,16,10,0.6,0.6
2025-01-13T1300,2368A,114.9658,27.0999,吉安市,市森林工业局,,,77,75,,45,90,,39,39,,34,,13,1.0,0.7
2025-01-13T1300,2369A,114.99,27.1312,吉安市,市环境监测站,细颗粒物(PM2.5),85,102,80,63,54,88,,34,34,29,39,17,15,0.6,0.7
2025-01-13T1300,2370A,115.0093,27.0968,吉安市,青原区法院,颗粒物(PM10),61,72,74,43,44,97,,37,37,36,55,15,11,0.5,0.6
2025-01-13T1300,1772A,126.54,43.8622,吉林市,哈达湾,颗粒物(PM10),53,56,100,34,77,64,,47,47,30,51,13,12,1.0,1.2
2025-01-13T1300,1773A,126.5844,43.8358,吉林市,东局子,细颗粒物(PM2.5),53,48,80,37,61,69,,59,59,17,37,9,12,0.8,1
2025-01-13T1300,1774A,126.5052,43.8245,吉林市,电力学院,细颗粒物(PM2.5),53,39,136,37,110,63,,27,27,22,48,14,14,0.9,1.7
2025-01-13T1300,1775A,126.6133,43.8972,吉林市,江北,,43,43,91,30,72,64,,54,54,23,43,29,14,0.7,1.1
2025-01-13T1300,1776A,126.555,43.8306,吉林市,江南公园,细颗粒物(PM2.5),52,46,83,36,68,62,,52,52,26,42,14,13,0.9,1.4
2025-01-13T1300,2868A,126.4739,43.953,吉林市,九站,颗粒物(PM10),51,51,106,34,86,68,,45,45,21,54,13,17,1.0,1.3
2025-01-13T1300,1299A,116.9862,36.6114,济南市,科干所,颗粒物(PM10),73,95,82,42,35,83,,81,81,25,25,12,12,0.7,0.6
2025-01-13T1300,1300A,116.9376,36.665,济南市,农科所,颗粒物(PM10),79,107,106,32,44,76,,69,69,26,41,13,15,0.8,0.8
2025-01-13T1300,1301A,117.1265,36.6734,济南市,开发区,颗粒物(PM10),69,88,82,37,46,81,,79,79,26,32,14,10,0.8,0.7
2025-01-13T1300,1303A,117.0624,36.6868,济南市,省种子仓库,颗粒物(PM10),81,112,93,34,40,80,,77,77,19,31,12,9,0.8,0.7
2025-01-13T1300,1304A,116.9489,36.6447,济南市,机床二厂,颗粒物(PM10),78,105,106,37,45,83,,74,73,19,34,15,25,0.8,0.9
2025-01-13T1300,1305A,117.0495,36.663,济南市,市监测站,颗粒物(PM10),72,93,87,37,38,84,,82,82,22,28,14,11,0.8,0.7
2025-01-13T1300,1306A,116.7675,36.5484,济南市,长清党校,颗粒物(PM10),77,103,95,42,47,88,,77,77,22,32,12,10,0.8,0.8
2025-01-13T1300,1616A,117.6795,36.229,济南市,技术学院,细颗粒物(PM2.5),83,114,116,61,71,78,,40,40,29,58,27,25,2.1,1.4
2025-01-13T1300,1961A,117.532,36.6868,济南市,东山小学,颗粒物(PM10),70,90,99,32,48,74,,65,65,17,38,11,11,0.7,0.8
2025-01-13T1300,3059A,117.7161,36.2049,济南市,泰兴公司,细颗粒物(PM2.5),79,102,129,58,77,83,,34,34,21,59,21,19,0.7,1.1
2025-01-13T1300,3064A,117.6867,36.2171,济南市,莱芜战役纪念馆,颗粒物(PM10),81,112,128,53,73,82,,37,37,27,64,19,21,0.9,1.2
2025-01-13T1300,3494A,117.1673,36.9782,济南市,济阳区政府,颗粒物(PM10),78,105,109,39,51,67,,41,41,20,44,18,17,0.5,0.6
2025-01-13T1300,3495A,117.1171,36.63,济南市,锦屏中学,颗粒物(PM10),68,85,80,29,40,86,,84,84,23,29,12,10,0.5,0.5
2025-01-13T1300,3682A,116.9814,36.6819,济南市,济南四建,颗粒物(PM10),71,92,85,37,40,74,,70,70,28,36,14,13,0.5,0.5
2025-01-13T1300,1653A,116.6251,35.4302,济宁市,火炬城,细颗粒物(PM2.5),73,85,91,53,53,75,,50,50,26,37,11,11,0.8,0.9
2025-01-13T1300,1655A,116.5491,35.4042,济宁市,电化厂,颗粒物(PM10),94,138,117,63,56,78,,61,61,33,42,13,15,0.7,0.8
2025-01-13T1300,3500A,116.5814,35.3707,济宁市,北湖一中,细颗粒物(PM2.5),85,96,97,63,58,74,,60,60,32,40,10,11,0.8,0.8
2025-01-13T1300,3501A,116.8249,35.5593,济宁市,服务中心,颗粒物(PM10),91,132,122,54,63,74,,53,53,32,42,17,17,1.0,1
2025-01-13T1300,3678A,116.5907,35.4054,济宁市,市第七中学,颗粒物(PM10),85,120,96,61,57,78,,58,58,26,36,7,7,0.9,1
2025-01-13T1300,2255A,130.2751,46.8028,佳木斯市,佳纺,细颗粒物(PM2.5),140,139,129,107,116,46,,29,29,50,61,14,8,1.2,1.5
2025-01-13T1300,2256A,130.3995,46.8307,佳木斯市,发电厂,细颗粒物(PM2.5),158,124,106,120,105,40,,36,36,54,46,16,9,1.1,0.9
2025-01-13T1300,2257A,130.3258,46.7975,佳木斯市,环保局,细颗粒物(PM2.5),185,154,127,139,113,18,,12,12,76,71,19,13,1.7,1.6
2025-01-13T1300,2258A,130.3648,46.8032,佳木斯市,十一中,细颗粒物(PM2.5),155,,93,118,95,34,,21,21,57,64,10,7,1.3,1.2
2025-01-13T1300,2259A,130.3794,46.7588,佳木斯市,四丰,细颗粒物(PM2.5),99,,92,74,52,46,,56,54,42,17,1,1,1.1,1.1
2025-01-13T1300,1252A,120.7436,30.778,嘉兴市,清河小学,细颗粒物(PM2.5),82,102,95,60,53,74,,30,30,46,58,12,12,0.9,1.1
2025-01-13T1300,1253A,120.726,30.7478,嘉兴市,嘉兴学院,细颗粒物(PM2.5),85,108,104,63,58,79,,29,29,41,57,9,8,0.7,0.8
2025-01-13T1300,2872A,120.7846,30.7525,嘉兴市,南湖区残联,细颗粒物(PM2.5),85,108,100,63,56,94,,41,41,34,52,12,10,0.6,0.6
2025-01-13T1300,3407A,120.6916,30.7739,嘉兴市,秀洲住建,细颗粒物(PM2.5),95,111,105,71,59,78,,27,27,45,64,12,8,0.6,0.7
2025-01-13T1300,1945A,98.2908,39.7711,嘉峪关市,气象局,,48,48,63,24,18,63,,66,63,24,16,10,15,0.5,0.4
2025-01-13T1300,2884A,98.2672,39.7978,嘉峪关市,酒钢宾馆,,48,48,79,12,21,65,,63,50,22,19,28,33,0.6,0.7
2025-01-13T1300,3248A,98.2643,39.7724,嘉峪关市,雄关区,,26,24,53,13,17,81,,67,67,20,19,9,11,0.4,0.5
2025-01-13T1300,1383A,113.1064,22.6058,江门市,北街,颗粒物(PM10),71,91,66,38,40,83,,31,31,65,69,12,8,0.7,0.8
2025-01-13T1300,1384A,113.0731,22.5835,江门市,西区,颗粒物(PM10),77,104,83,40,42,84,,30,30,54,63,16,13,0.7,0.7
2025-01-13T1300,1385A,113.0219,22.5311,江门市,圭峰西,颗粒物(PM10),71,92,66,49,39,85,,34,34,74,52,10,7,0.8,0.7
2025-01-13T1300,1386A,113.0828,22.5947,江门市,东湖,细颗粒物(PM2.5),74,82,91,54,45,79,,29,29,58,64,12,9,0.5,0.6
2025-01-13T1300,3311A,113.1075,22.5647,江门市,江海富民,颗粒物(PM10),75,99,80,38,35,104,,34,34,46,68,10,11,0.6,0.7
2025-01-13T1300,3449A,113.05,22.4667,江门市,新会银湖,颗粒物(PM10),66,82,70,36,45,112,,32,32,38,56,8,6,0.4,0.6
2025-01-13T1300,1828A,113.227,35.2125,焦作市,市环保局,,,,79,,32,60,,37,37,,33,10,10,,0.9
2025-01-13T1300,3169A,113.2725,35.2067,焦作市,太极体育中心,颗粒物(PM10),105,159,92,43,25,62,,38,38,32,45,13,14,0.5,0.5
2025-01-13T1300,3335A,113.3137,35.2641,焦作市,马村街道办,颗粒物(PM10),113,176,87,55,36,58,,33,33,28,34,13,12,1.0,1
2025-01-13T1300,3336A,113.2465,35.2373,焦作市,焦作技师学院,颗粒物(PM10),116,181,84,48,31,60,,41,41,34,36,13,14,0.8,0.7
2025-01-13T1300,3477A,113.1656,35.2539,焦作市,中站许衡医院,颗粒物(PM10),131,211,82,41,28,65,,51,51,18,23,20,18,0.9,0.8
2025-01-13T1300,3981A,113.2449,35.1803,焦作市,原李万街道办,颗粒物(PM10),83,116,91,41,38,64,,33,33,20,39,16,17,0.8,0.8
2025-01-13T1300,1708A,116.3701,23.5345,揭阳市,新兴,颗粒物(PM10),55,60,63,28,30,105,,46,46,18,37,11,11,0.5,0.6
2025-01-13T1300,1709A,116.3264,23.5443,揭阳市,西马,颗粒物(PM10),58,65,67,28,31,100,,46,46,24,36,20,13,0.6,0.6
2025-01-13T1300,1710A,116.3611,23.5626,揭阳市,东兴,颗粒物(PM10),66,81,70,30,28,101,,42,42,23,38,23,15,0.6,0.7
2025-01-13T1300,1711A,116.4151,23.5294,揭阳市,渔湖,细颗粒物(PM2.5),67,82,70,48,34,118,,46,46,18,40,16,20,0.6,0.7
2025-01-13T1300,3320A,116.403,23.5699,揭阳市,曲溪,细颗粒物(PM2.5),64,68,71,46,36,120,,44,44,26,47,8,10,0.6,0.7
2025-01-13T1300,1944A,102.1692,38.5167,金昌市,天庆家园,颗粒物(PM10),209,356,289,96,52,88,,65,65,6,23,22,55,0.9,0.9
2025-01-13T1300,3170A,102.1864,38.5253,金昌市,市委党校,颗粒物(PM10),395,496,327,129,56,87,,65,65,4,18,6,42,0.4,0.7
2025-01-13T1300,4022A,102.1647,38.5371,金昌市,金川区人防中心,颗粒物(PM10),500,686,492,117,48,90,,69,68,5,16,12,25,0.1,0.6
2025-01-13T1300,1262A,119.647,29.077,金华市,十五中,细颗粒物(PM2.5),92,104,97,68,58,90,,40,40,44,61,6,5,0.9,0.8
2025-01-13T1300,1263A,119.686,29.1029,金华市,监测站,细颗粒物(PM2.5),77,91,97,56,56,94,,31,31,29,55,8,7,0.7,0.8
2025-01-13T1300,3659A,119.656,29.1131,金华市,气象局,细颗粒物(PM2.5),94,101,105,70,61,91,,31,31,37,70,7,6,0.9,0.9
2025-01-13T1300,1767A,121.1115,41.0879,锦州市,南山,细颗粒物(PM2.5),109,138,123,82,121,53,,22,22,40,64,36,22,1.3,2
2025-01-13T1300,1768A,121.0533,40.8434,锦州市,开发区,颗粒物(PM10),69,88,137,37,78,42,,18,18,46,86,20,28,0.8,1.2
2025-01-13T1300,1769A,121.1836,41.1119,锦州市,百股街道,,,111,113,,100,52,,18,18,,66,27,22,1.3,1.7
2025-01-13T1300,1770A,121.1178,41.1222,锦州市,天安街道,细颗粒物(PM2.5),122,131,110,92,90,51,,21,21,37,54,39,28,1.8,1.6
2025-01-13T1300,1771A,121.1303,41.1386,锦州市,北湖公园,细颗粒物(PM2.5),102,101,93,76,76,56,,24,24,34,56,36,25,1.6,1.5
2025-01-13T1300,2160A,112.85,35.5051,晋城市,自来水公司,颗粒物(PM10),144,237,70,56,30,84,,36,36,11,40,6,12,0.5,1.2
2025-01-13T1300,2161A,112.8318,35.4936,晋城市,白云商贸,颗粒物(PM10),162,274,82,51,21,85,,42,42,12,37,6,9,0.5,1
2025-01-13T1300,2162A,112.8508,35.4887,晋城市,市环保局,颗粒物(PM10),157,264,80,53,28,84,,38,38,12,40,6,10,0.6,1.1
2025-01-13T1300,2163A,112.8676,35.4897,晋城市,技术学院,颗粒物(PM10),147,243,72,51,29,89,,29,29,12,47,5,13,0.6,1.2
2025-01-13T1300,3620A,112.8271,35.4828,晋城市,泽州一中,颗粒物(PM10),121,191,60,66,23,86,,56,56,8,30,5,9,0.5,0.9
2025-01-13T1300,2173A,112.7249,37.7067,晋中市,南都小区,颗粒物(PM10),81,111,97,38,39,83,,30,30,12,42,15,26,0.3,0.7
2025-01-13T1300,2174A,112.6991,37.6982,晋中市,榆次区政府,颗粒物(PM10),84,117,104,35,38,84,,28,28,12,43,14,25,0.5,1
2025-01-13T1300,2865A,112.7195,37.6828,晋中市,榆次三中,颗粒物(PM10),92,134,110,27,35,81,,27,27,12,44,16,28,0.6,0.9
2025-01-13T1300,2439A,112.2014,31.0481,荆门市,竹园小学,细颗粒物(PM2.5),134,132,137,102,94,120,,80,80,21,39,,14,0.8,0.8
2025-01-13T1300,2440A,112.1969,30.9891,荆门市,掇刀,细颗粒物(PM2.5),134,147,143,102,94,122,,79,79,24,43,14,12,0.7,0.8
2025-01-13T1300,2441A,112.2213,31.0386,荆门市,石化一小,细颗粒物(PM2.5),127,144,153,96,96,119,,41,41,27,58,12,11,0.7,0.9
2025-01-13T1300,3012A,112.1849,31.0362,荆门市,西山林语,细颗粒物(PM2.5),132,120,122,100,92,123,,95,95,20,23,12,10,0.5,0.6
2025-01-13T1300,3547A,112.1632,31.0138,荆门市,龙泉中学南校,细颗粒物(PM2.5),149,141,143,114,96,119,,81,81,20,29,13,13,0.8,0.8
2025-01-13T1300,1844A,112.2494,30.3197,荆州市,市图书馆,细颗粒物(PM2.5),175,,125,132,118,108,,35,35,34,65,10,9,0.9,1.1
2025-01-13T1300,1845A,112.2008,30.3544,荆州市,市委党校,细颗粒物(PM2.5),170,,140,129,119,94,,40,40,35,62,9,8,0.8,0.9
2025-01-13T1300,3194A,112.2747,30.3122,荆州市,管委会,细颗粒物(PM2.5),178,,142,134,124,110,,37,37,24,45,11,8,0.9,1
2025-01-13T1300,3548A,112.1655,30.3364,荆州市,学苑路,细颗粒物(PM2.5),144,124,132,110,125,122,,61,61,35,69,14,13,1.0,1.1
2025-01-13T1300,2343A,117.2117,29.2933,景德镇市,老干部活动中心,细颗粒物(PM2.5),57,56,64,40,52,65,,30,30,21,38,5,6,0.8,0.9
2025-01-13T1300,2344A,117.1894,29.2789,景德镇市,兽医站,颗粒物(PM10),59,68,81,30,41,88,,38,38,19,31,6,6,0.7,0.8
2025-01-13T1300,2345A,117.1547,29.2617,景德镇市,台达陶瓷,颗粒物(PM10),57,63,95,29,51,94,,41,41,25,46,23,30,0.6,0.8
2025-01-13T1300,2346A,117.2461,29.2956,景德镇市,陶研所,,50,50,60,27,39,83,,29,29,19,34,3,4,0.6,0.7
2025-01-13T1300,1803A,115.9872,29.6815,九江市,十里,细颗粒物(PM2.5),64,70,79,46,57,84,,33,33,28,46,12,9,0.7,0.9
2025-01-13T1300,1804A,115.9584,29.7046,九江市,茅山头,颗粒物(PM10),67,84,94,47,60,83,,34,34,37,68,12,10,0.9,1.1
2025-01-13T1300,1805A,115.9877,29.7295,九江市,西园,,,79,98,55,68,,,18,18,,86,,10,,0.8
2025-01-13T1300,1806A,116.0172,29.6547,九江市,五七二七厂,细颗粒物(PM2.5),73,84,79,53,50,79,,65,65,38,29,12,8,0.6,0.7
2025-01-13T1300,1808A,115.9114,29.6038,九江市,综合工业园,细颗粒物(PM2.5),70,63,83,51,65,106,,46,46,25,52,11,9,0.4,0.7
2025-01-13T1300,1809A,116.0721,29.7535,九江市,石化总厂,颗粒物(PM10),60,70,102,32,78,100,,51,51,11,43,24,14,0.8,0.9
2025-01-13T1300,1810A,115.9773,29.5698,九江市,庐山气象台,,29,13,39,10,23,91,,97,93,5,7,7,9,0.8,0.8
2025-01-13T1300,3190A,116.0254,29.6994,九江市,外国语学校,细颗粒物(PM2.5),65,70,103,47,67,98,,47,47,17,39,22,13,0.8,0.7
2025-01-13T1300,2658A,98.5061,39.7443,酒泉市,仓门街子站,颗粒物(PM10),58,66,93,22,27,74,,57,57,13,17,18,31,0.4,0.6
2025-01-13T1300,2659A,98.4989,39.7256,酒泉市,油田生活基地,颗粒物(PM10),60,70,104,21,28,65,,45,45,13,20,6,36,0.4,0.5
2025-01-13T1300,2698A,76.0072,39.4467,喀什地区,巡警大队,颗粒物(PM10),124,197,172,82,69,27,,23,23,80,58,8,7,2.8,2.2
2025-01-13T1300,2699A,75.9755,39.4694,喀什地区,吾办,细颗粒物(PM2.5),143,199,154,109,86,29,,15,15,72,66,4,3,2.3,2.4
2025-01-13T1300,4027A,75.9483,39.4689,喀什地区,老干局,颗粒物(PM10),279,405,222,115,91,18,,9,9,89,68,10,8,4.1,4.3
2025-01-13T1300,1824A,114.3389,34.7781,开封市,肿瘤医院,颗粒物(PM10),110,169,95,39,42,71,,31,31,14,34,5,4,0.5,0.5
2025-01-13T1300,1826A,114.2885,34.7965,开封市,世纪星幼儿园,颗粒物(PM10),112,174,92,48,50,66,,31,31,19,33,9,6,0.4,0.5
2025-01-13T1300,3147A,114.3438,34.8106,开封市,龙亭公园,颗粒物(PM10),108,165,86,40,39,69,,42,42,24,33,6,4,1.3,1
2025-01-13T1300,3210A,114.3644,34.7964,开封市,汴京公园,颗粒物(PM10),128,206,99,42,49,72,,35,35,24,38,8,6,0.5,0.6
2025-01-13T1300,3473A,114.2485,34.8306,开封市,技师学院,颗粒物(PM10),123,195,82,55,33,66,,36,36,22,32,4,3,0.5,0.4
2025-01-13T1300,3592A,114.4644,34.7556,开封市,祥符区生态环境局,颗粒物(PM10),97,144,104,55,49,60,,31,31,31,42,6,5,0.5,0.4
2025-01-13T1300,1951A,84.895,45.6094,克拉玛依市,长征新村,颗粒物(PM10),53,55,43,26,29,41,,32,32,26,28,7,6,0.9,0.7
2025-01-13T1300,1952A,84.8988,45.5893,克拉玛依市,南林小区,细颗粒物(PM2.5),57,40,42,40,30,44,,32,30,18,23,6,5,0.9,0.9
2025-01-13T1300,1954A,84.905,44.3396,克拉玛依市,独山子区,细颗粒物(PM2.5),122,115,119,92,110,60,,70,70,37,42,7,5,0.9,0.9
2025-01-13T1300,1955A,85.6979,46.098,克拉玛依市,乌尔禾区商贸楼,,36,,34,25,35,53,,31,31,25,42,5,4,0.8,1.1
2025-01-13T1300,3612A,85.1045,45.6899,克拉玛依市,白碱滩区新站,,44,44,40,23,28,52,,28,28,16,30,6,5,1.4,1.3
2025-01-13T1300,2697A,76.1454,39.7142,克孜勒苏柯尔克孜自治州,市人民政府,颗粒物(PM10),63,75,100,43,50,53,,63,53,14,18,4,5,0.8,0.9
2025-01-13T1300,3665A,76.1658,39.7157,克孜勒苏柯尔克孜自治州,克州文化中心,颗粒物(PM10),75,100,101,47,49,44,,68,53,39,25,9,9,1.4,0.9
2025-01-13T1300,1450A,102.8204,24.8886,昆明市,呈贡新区,,42,40,38,29,33,80,,59,58,14,20,7,7,0.6,0.7
2025-01-13T1300,1452A,102.7252,25.0902,昆明市,龙泉镇,细颗粒物(PM2.5),54,,45,38,33,78,,31,31,14,39,10,8,0.5,0.7
2025-01-13T1300,1453A,102.7266,25.0375,昆明市,东风东路,,48,46,42,33,32,71,,27,18,16,29,9,8,0.6,0.8
2025-01-13T1300,1454A,102.6742,25.0669,昆明市,金鼎山,,50,50,53,31,50,80,,45,45,11,34,15,12,0.7,0.9
2025-01-13T1300,1455A,102.6644,25.0401,昆明市,碧鸡广场,,40,34,44,28,37,76,,47,47,15,34,11,9,0.6,0.7
2025-01-13T1300,3179A,102.7494,25.0119,昆明市,官渡区博物馆,,36,31,49,25,36,79,,27,27,12,33,8,8,0.5,0.9
2025-01-13T1300,3375A,102.8017,24.8336,昆明市,青年创业园,,30,28,34,21,25,87,,61,61,8,18,8,10,0.6,0.8
2025-01-13T1300,3550A,102.7997,24.9786,昆明市,昆明学院,,46,46,55,28,30,79,,44,44,13,27,9,10,0.5,0.6
2025-01-13T1300,3551A,102.5967,24.6736,昆明市,晋宁区生态环境分局,,27,14,42,14,29,86,,56,56,6,17,2,4,0.4,0.8
2025-01-13T1300,3552A,102.6678,24.9856,昆明市,云天化总部,,36,36,34,25,24,84,,44,44,14,29,10,8,0.4,0.5
2025-01-13T1300,1456A,91.1319,29.6514,拉萨市,八廓街,,46,41,21,32,13,102,,84,73,12,13,6,6,0.3,0.3
2025-01-13T1300,1457A,91.1221,29.6747,拉萨市,市环保局,,34,28,29,3,8,107,,83,56,17,20,4,5,0.6,0.6
2025-01-13T1300,1458A,91.0874,29.6475,拉萨市,区监测站,,35,19,17,11,9,111,,93,65,11,17,6,6,0.3,0.4
2025-01-13T1300,1459A,91.1774,29.6541,拉萨市,西藏大学,,36,36,32,24,11,100,,86,70,13,15,5,6,0.5,0.5
2025-01-13T1300,1460A,90.9798,29.6588,拉萨市,区辐射站,,33,23,22,12,11,105,,97,80,10,14,7,7,0.4,0.4
2025-01-13T1300,1461A,91.0834,29.6292,拉萨市,拉萨火车站,,36,19,14,15,8,115,,100,85,6,9,4,4,0.4,0.4
2025-01-13T1300,2520A,109.2203,23.7256,来宾市,来宾技工学校,细颗粒物(PM2.5),190,206,149,143,118,121,,38,38,52,59,23,16,1.1,1.1
2025-01-13T1300,3535A,109.1781,23.7297,来宾市,兴宾区政府,细颗粒物(PM2.5),113,103,100,85,109,130,,60,60,40,35,19,12,1.2,1.2
2025-01-13T1300,4002A,109.2416,23.7461,来宾市,中南小学,细颗粒物(PM2.5),162,187,179,123,150,128,,44,44,34,56,16,9,1.2,1.4
2025-01-13T1300,1476A,103.631,36.1031,兰州市,兰炼宾馆,颗粒物(PM10),74,97,93,48,57,64,,24,24,57,67,62,41,1.3,1.2
2025-01-13T1300,1478A,103.8412,36.0726,兰州市,生物制品所,细颗粒物(PM2.5),87,109,106,64,62,30,,10,10,76,78,41,22,2.5,1.6
2025-01-13T1300,1479A,103.831,36.0464,兰州市,铁路设计院,细颗粒物(PM2.5),109,122,117,82,74,24,,9,9,78,86,31,23,2.7,2.2
2025-01-13T1300,3186A,103.7158,36.1058,兰州市,教育港,细颗粒物(PM2.5),103,127,107,77,60,55,,15,15,34,67,55,30,1.1,1.3
2025-01-13T1300,3241A,103.7439,36.0842,兰州市,百合公园,细颗粒物(PM2.5),74,86,92,54,57,50,,18,18,41,62,54,28,1.3,1.7
2025-01-13T1300,3242A,103.9611,35.998,兰州市,和平,细颗粒物(PM2.5),107,127,90,80,57,48,,21,19,45,54,35,21,2.1,1.4
2025-01-13T1300,3245A,103.6633,36.533,兰州新区,新区管委会,,48,48,48,25,30,77,,40,40,17,22,52,19,0.7,0.6
2025-01-13T1300,3246A,103.6975,36.4789,兰州新区,舟曲中学,颗粒物(PM10),51,52,64,28,29,68,,42,42,16,31,80,23,0.6,0.5
2025-01-13T1300,1067A,116.6708,39.5111,廊坊市,药材公司,,,,87,64,57,26,,12,12,62,55,7,6,0.7,0.7
2025-01-13T1300,1068A,116.7214,39.5589,廊坊市,开发区,颗粒物(PM10),58,65,76,24,45,42,,16,16,42,49,6,6,0.5,0.6
2025-01-13T1300,1070A,116.7244,39.5269,廊坊市,北华航天学院,,,84,82,64,50,35,,18,18,52,46,,7,0.7,0.7
2025-01-13T1300,2919A,116.7022,39.5453,廊坊市,河北工业大学,细颗粒物(PM2.5),73,90,80,53,50,31,,16,16,58,52,9,9,0.6,0.6
2025-01-13T1300,2535A,103.7723,29.5462,乐山市,花湖湾,细颗粒物(PM2.5),102,85,93,76,84,25,,16,16,22,38,5,6,0.7,0.8
2025-01-13T1300,2536A,103.7627,29.5844,乐山市,牛耳桥,细颗粒物(PM2.5),110,96,96,83,85,15,,8,5,25,38,6,6,0.8,0.8
2025-01-13T1300,2537A,103.7508,29.6006,乐山市,市第三水厂,细颗粒物(PM2.5),109,97,94,82,81,21,,12,8,24,37,5,4,0.9,0.9
2025-01-13T1300,2538A,103.7571,29.5664,乐山市,市监测站,细颗粒物(PM2.5),88,82,83,65,64,24,,8,6,21,33,5,5,1.0,1
2025-01-13T1300,3361A,103.7311,29.5628,乐山市,理工大学,细颗粒物(PM2.5),109,100,92,82,79,32,,9,9,30,37,8,8,0.8,0.8
2025-01-13T1300,2599A,100.2497,26.8802,丽江市,丽江古城,,28,17,24,9,16,89,,71,71,7,12,8,8,0.6,0.7
2025-01-13T1300,2600A,100.2203,26.8906,丽江市,市中心,,27,18,11,3,7,86,,77,76,5,8,9,9,0.5,0.5
2025-01-13T1300,1267A,119.914,28.4514,丽水市,监测站大楼,颗粒物(PM10),55,60,54,34,39,89,,38,38,22,39,6,8,0.6,0.7
2025-01-13T1300,1268A,119.93,28.4586,丽水市,莲都小学,颗粒物(PM10),56,62,58,32,37,90,,36,36,23,37,8,7,0.7,0.7
2025-01-13T1300,1269A,119.879,28.4231,丽水市,余庄前,细颗粒物(PM2.5),57,58,51,40,36,91,,36,36,32,30,5,4,0.4,0.4
2025-01-13T1300,1173A,119.176,34.5885,连云港市,市环境监测站,细颗粒物(PM2.5),83,102,99,61,67,91,,47,47,22,40,14,14,0.9,1
2025-01-13T1300,3000A,119.3581,34.6972,连云港市,德源药业,细颗粒物(PM2.5),85,107,100,63,60,83,,56,56,25,42,10,12,0.5,0.6
2025-01-13T1300,3007A,119.178,34.844,连云港市,新城一中,细颗粒物(PM2.5),102,116,104,76,74,82,,47,47,33,49,12,15,0.6,0.8
2025-01-13T1300,3008A,119.3608,34.7519,连云港市,胡沟管理处,细颗粒物(PM2.5),73,85,74,53,48,78,,72,72,21,27,8,10,0.7,0.7
2025-01-13T1300,3009A,119.1478,34.5911,连云港市,矿山设计院,细颗粒物(PM2.5),83,112,107,61,68,87,,51,51,21,37,10,12,0.7,0.8
2025-01-13T1300,3434A,119.2413,34.6539,连云港市,工贸学校,细颗粒物(PM2.5),99,118,102,74,68,88,,67,67,29,30,13,14,0.7,0.8
2025-01-13T1300,3664A,119.4172,34.7341,连云港市,连云街道,细颗粒物(PM2.5),83,112,96,61,56,89,,83,83,24,29,7,11,0.7,0.8
2025-01-13T1300,2571A,102.3431,27.8099,凉山彝族自治州,青龙寺,,47,47,39,18,14,77,,50,50,10,11,14,6,1.1,0.8
2025-01-13T1300,2572A,102.2721,27.8415,凉山彝族自治州,邛海宾馆,,43,39,44,30,31,67,,39,39,12,16,17,9,1.2,0.8
2025-01-13T1300,2573A,102.2625,27.898,凉山彝族自治州,西昌市政府,细颗粒物(PM2.5),53,52,41,37,34,58,,38,28,19,19,15,10,1.1,0.9
2025-01-13T1300,2574A,102.2685,27.8851,凉山彝族自治州,凉山州政府,颗粒物(PM10),51,51,48,35,32,56,,42,36,20,17,13,10,1.0,0.8
2025-01-13T1300,2575A,102.237,27.8914,凉山彝族自治州,长安,细颗粒物(PM2.5),58,62,45,41,33,47,,30,15,29,24,15,10,1.4,1.1
2025-01-13T1300,2212A,123.2,41.1953,辽阳市,宏伟区,细颗粒物(PM2.5),123,172,89,93,65,54,,52,52,23,32,18,17,,0.9
2025-01-13T1300,2213A,123.1683,41.2495,辽阳市,新华园,颗粒物(PM10),85,120,105,39,79,47,,38,38,36,57,20,27,1.4,1.7
2025-01-13T1300,2214A,123.2354,41.2639,辽阳市,滨河路,颗粒物(PM10),83,116,78,35,59,54,,51,51,29,41,16,18,1.2,1.2
2025-01-13T1300,2215A,123.149,41.2991,辽阳市,铁西工业园,颗粒物(PM10),104,157,105,37,63,50,,41,41,26,44,13,17,1.0,1.4
2025-01-13T1300,2227A,125.1358,42.8845,辽源市,环保局,细颗粒物(PM2.5),70,67,96,51,73,66,,24,24,16,51,14,13,0.8,1.6
2025-01-13T1300,3239A,125.0764,42.9078,辽源市,银鹰制药,细颗粒物(PM2.5),78,86,97,57,77,71,,33,33,14,48,11,10,0.8,1.5
2025-01-13T1300,1625A,115.9848,36.4372,聊城市,区政府,,,,80,,42,61,,46,45,31,30,25,15,1.1,0.9
2025-01-13T1300,2878A,116.0072,36.4343,聊城市,聊大东校,细颗粒物(PM2.5),94,127,99,70,50,59,,44,44,34,35,27,12,1.2,0.8
2025-01-13T1300,3200A,115.9819,36.4978,聊城市,监控中心,颗粒物(PM10),87,123,94,56,42,60,,51,46,37,35,28,14,1.4,1
2025-01-13T1300,3513A,116.0445,36.4361,聊城市,九州社区,颗粒物(PM10),79,108,88,57,49,64,,45,45,31,36,16,12,0.9,0.6
2025-01-13T1300,4018A,116.0567,36.4608,聊城市,星美广场,颗粒物(PM10),83,115,90,51,46,61,,45,45,28,27,22,15,0.9,0.6
2025-01-13T1300,2632A,94.3681,29.6376,林芝市,林芝监测站,,28,8,11,3,5,88,,92,88,2,2,7,7,0.5,0.4
2025-01-13T1300,2633A,94.3616,29.6616,林芝市,林芝人民医院,,26,6,11,3,3,83,,87,82,6,4,6,6,0.6,0.5
2025-01-13T1300,2603A,100.0781,23.8982,临沧市,市环保局,,,35,36,19,26,70,,31,31,11,13,10,9,,0.5
2025-01-13T1300,2604A,100.0894,23.8822,临沧市,市气象局,,48,46,35,33,30,72,,24,24,12,13,8,8,0.6,0.7
2025-01-13T1300,1733A,111.5531,36.0783,临汾市,临钢医院,颗粒物(PM10),83,116,72,56,32,39,,17,17,42,34,12,5,1.3,0.8
2025-01-13T1300,1734A,111.5028,36.0714,临汾市,技工学校,颗粒物(PM10),82,113,80,51,44,38,,13,13,37,36,16,9,1.4,1
2025-01-13T1300,1736A,111.5018,36.0855,临汾市,市委,颗粒物(PM10),85,120,88,53,38,39,,15,15,40,38,15,8,1.3,0.9
2025-01-13T1300,3018A,111.505,36.1014,临汾市,唐尧大酒店,"颗粒物(PM10),细颗粒物(PM2.5)",79,107,86,58,39,37,,12,12,39,38,16,9,1.3,0.9
2025-01-13T1300,3668A,111.5036,36.0414,临汾市,城南,颗粒物(PM10),78,105,84,56,41,39,,13,13,40,42,13,6,1.5,1.1
2025-01-13T1300,2667A,103.2069,35.5993,临夏回族自治州,环保局,颗粒物(PM10),69,88,125,48,67,55,,17,17,29,36,14,14,1.1,1.9
2025-01-13T1300,2668A,103.2417,35.6057,临夏回族自治州,建设大厦,,42,42,80,17,42,58,,32,32,24,22,17,14,1.0,1
2025-01-13T1300,1618A,118.3429,35.0532,临沂市,沂河小区,细颗粒物(PM2.5),109,141,131,82,87,77,,38,38,39,60,20,30,0.7,0.8
2025-01-13T1300,1619A,118.295,35.0583,临沂市,鲁南制药厂,细颗粒物(PM2.5),112,139,136,84,84,79,,35,35,33,61,18,31,0.5,0.7
2025-01-13T1300,1620A,118.2794,34.9976,临沂市,新光毛纺厂,细颗粒物(PM2.5),112,,124,84,88,76,,32,32,29,55,16,25,0.8,0.9
2025-01-13T1300,1621A,118.3956,35.0888,临沂市,河东保险公司,细颗粒物(PM2.5),109,136,129,82,85,80,,34,34,37,58,21,17,0.9,1
2025-01-13T1300,3370A,118.3564,35.0215,临沂市,十里堡居委,细颗粒物(PM2.5),110,132,134,83,90,82,,35,35,32,58,21,29,0.7,0.9
2025-01-13T1300,3496A,118.3604,35.1084,临沂市,南坊新区,细颗粒物(PM2.5),113,132,116,85,75,78,,42,42,43,52,16,18,0.7,0.7
2025-01-13T1300,3860A,118.3920,35.0300,临沂市,皇山花园小区,,,,131,,80,78,,34,34,40,66,17,22,,0.9
2025-01-13T1300,1870A,109.4856,24.3895,柳州市,柳东小学,细颗粒物(PM2.5),60,45,82,43,65,109,,54,54,17,34,14,15,0.6,0.8
2025-01-13T1300,1871A,109.4157,24.3277,柳州市,环保监测站,细颗粒物(PM2.5),129,107,126,98,76,105,,39,39,34,53,22,25,0.8,1.2
2025-01-13T1300,1872A,109.389,24.341,柳州市,河西水厂,颗粒物(PM10),94,137,151,60,87,106,,35,35,31,61,22,32,0.8,1.6
2025-01-13T1300,1873A,109.4311,24.2921,柳州市,市四中,细颗粒物(PM2.5),100,110,112,75,73,101,,37,37,39,62,15,15,0.8,1.3
2025-01-13T1300,1874A,109.4006,24.3631,柳州市,市九中,细颗粒物(PM2.5),125,,114,95,77,105,,40,40,26,50,15,17,0.8,1.2
2025-01-13T1300,1875A,109.4958,24.3134,柳州市,古亭山,颗粒物(PM10),78,105,70,53,47,102,,37,37,28,58,28,28,0.8,0.9
2025-01-13T1300,3402A,109.5422,24.3996,柳州市,市二中,细颗粒物(PM2.5),72,74,96,52,73,101,,34,34,25,43,16,12,0.7,0.9
2025-01-13T1300,2307A,116.5079,31.737,六安市,监测大楼,,,66,80,37,39,82,,55,50,30,31,,6,0.6,0.6
2025-01-13T1300,2308A,116.4738,31.7643,六安市,皖西学院,颗粒物(PM10),63,75,79,38,37,83,,46,46,31,44,6,5,0.6,0.7
2025-01-13T1300,2309A,116.4996,31.7905,六安市,朝阳厂,颗粒物(PM10),61,72,73,41,39,75,,54,50,34,37,3,3,0.5,0.5
2025-01-13T1300,2310A,116.5567,31.7886,六安市,开发区,颗粒物(PM10),62,74,112,42,52,90,,44,44,22,40,7,5,0.7,0.7
2025-01-13T1300,2577A,104.83,26.5917,六盘水市,黄土坡,细颗粒物(PM2.5),55,55,50,39,33,83,,84,83,18,20,17,13,0.8,0.8
2025-01-13T1300,2578A,104.89,26.5939,六盘水市,水钢,细颗粒物(PM2.5),57,58,49,40,33,89,,87,84,13,12,14,10,0.6,0.6
2025-01-13T1300,2579A,104.8475,26.5894,六盘水市,民中,,49,46,44,34,32,85,,86,84,15,15,16,14,0.7,0.8
2025-01-13T1300,2580A,104.9544,26.5506,六盘水市,双水,,48,44,43,33,28,94,,86,86,9,10,12,11,0.7,0.7
2025-01-13T1300,2336A,117.0217,25.1033,龙岩市,龙岩市监测站,颗粒物(PM10),52,54,41,28,26,92,,51,51,17,29,8,9,0.5,0.6
2025-01-13T1300,2337A,117.0258,25.0661,龙岩市,闽西职业技术学院,颗粒物(PM10),61,72,51,22,18,92,,37,37,16,37,7,5,0.6,0.6
2025-01-13T1300,2338A,117.0196,25.0306,龙岩市,龙岩学院,颗粒物(PM10),57,64,38,22,20,80,,37,37,23,24,11,9,0.5,0.5
2025-01-13T1300,2885A,104.9339,33.3826,陇南市,滨江中学,,34,34,60,14,39,64,,30,30,18,39,33,80,0.6,1.3
2025-01-13T1300,3247A,104.955,33.371,陇南市,市总工会,细颗粒物(PM2.5),57,51,51,40,33,62,,35,33,22,28,38,35,0.9,0.9
2025-01-13T1300,2487A,111.9589,27.8901,娄底市,电视发射台,细颗粒物(PM2.5),54,46,45,38,35,93,,75,75,30,16,29,12,1.4,0.7
2025-01-13T1300,2488A,111.9975,27.725,娄底市,市监测站,细颗粒物(PM2.5),67,79,90,48,62,104,,30,30,17,47,16,14,0.6,1.1
2025-01-13T1300,2489A,112.0194,27.7314,娄底市,市委党校,细颗粒物(PM2.5),74,81,83,54,54,96,,29,29,25,47,13,8,0.6,0.9
2025-01-13T1300,2490A,111.9561,27.7569,娄底市,涟钢,细颗粒物(PM2.5),89,102,99,66,64,88,,28,28,26,34,33,14,2.3,1.1
2025-01-13T1300,2491A,111.9892,27.7044,娄底市,市政府,细颗粒物(PM2.5),72,73,85,52,57,100,,36,36,15,35,12,8,0.8,1.1
2025-01-13T1300,1894A,105.4427,28.9063,泸州市,小市上码头,细颗粒物(PM2.5),110,108,78,83,63,27,,24,15,36,35,4,3,0.9,0.8
2025-01-13T1300,1895A,105.4241,28.8573,泸州市,兰田宪桥,细颗粒物(PM2.5),107,95,74,80,61,29,,24,18,29,27,4,3,0.9,0.8
2025-01-13T1300,1896A,105.4379,28.8833,泸州市,市环监站,细颗粒物(PM2.5),105,96,70,79,58,29,,25,16,29,30,6,5,0.8,0.7
2025-01-13T1300,3490A,105.3617,28.7703,泸州市,纳溪区环保局,细颗粒物(PM2.5),105,84,68,79,59,36,,14,13,22,28,7,5,0.9,0.8
2025-01-13T1300,2183A,111.1406,37.5211,吕梁市,环保局,颗粒物(PM10),86,121,85,23,23,40,,12,12,30,44,9,4,0.6,0.6
2025-01-13T1300,2185A,111.1297,37.5136,吕梁市,自来水公司,颗粒物(PM10),82,113,84,29,30,46,,14,14,25,37,10,9,0.5,0.5
2025-01-13T1300,2867A,111.1283,37.51,吕梁市,马茂庄小学,颗粒物(PM10),93,136,87,24,23,48,,13,13,29,47,9,8,0.6,0.7
2025-01-13T1300,1812A,112.3931,34.6516,洛阳市,市委党校,颗粒物(PM10),82,113,84,43,31,46,,24,20,36,35,6,6,0.7,0.7
2025-01-13T1300,1815A,112.494,34.6886,洛阳市,河南林校,颗粒物(PM10),80,109,86,53,48,53,,21,21,29,38,4,3,0.7,0.7
2025-01-13T1300,1816A,112.3844,34.623,洛阳市,开发区管委会,颗粒物(PM10),80,110,81,58,42,55,,25,25,24,28,8,7,0.7,0.7
2025-01-13T1300,1817A,112.4267,34.6258,洛阳市,市委新办公区,颗粒物(PM10),80,109,84,53,42,58,,30,30,27,30,5,5,0.5,0.5
2025-01-13T1300,3340A,112.6005,34.6326,洛阳市,伊滨,颗粒物(PM10),87,124,112,35,44,58,,24,24,27,42,8,7,0.6,0.7
2025-01-13T1300,3341A,112.4951,34.6332,洛阳市,中移产业园,颗粒物(PM10),71,91,75,32,30,60,,33,33,26,27,10,5,0.6,0.6
2025-01-13T1300,3593A,112.5736,34.8993,洛阳市,吉利监测站,颗粒物(PM10),75,99,64,45,25,66,,32,32,22,35,8,5,0.5,0.4
2025-01-13T1300,3635A,112.3677,34.662,洛阳市,河科大西苑校区,颗粒物(PM10),90,130,100,52,47,46,,15,15,34,41,5,7,0.9,0.9
2025-01-13T1300,3636A,112.4388,34.6781,洛阳市,英才小学,颗粒物(PM10),80,110,100,49,48,49,,17,17,42,51,7,7,0.8,0.9
2025-01-13T1300,2399A,114.051,33.5699,漯河市,三五一五工厂,细颗粒物(PM2.5),107,125,91,80,50,,,42,42,16,30,10,9,0.5,0.7
2025-01-13T1300,2400A,114.0055,33.5698,漯河市,漯河大学,细颗粒物(PM2.5),85,117,90,63,46,108,,64,64,18,25,8,8,0.5,0.4
2025-01-13T1300,2401A,114.0138,33.5828,漯河市,市水利局,细颗粒物(PM2.5),92,122,91,68,46,104,,62,62,16,21,10,8,0.6,0.5
2025-01-13T1300,2402A,114.0261,33.5698,漯河市,市广电局,细颗粒物(PM2.5),90,112,90,67,46,106,,59,59,15,21,9,8,0.5,0.4
2025-01-13T1300,3478A,113.9749,33.5664,漯河市,市图书馆,细颗粒物(PM2.5),95,132,92,71,45,104,,68,68,22,30,8,8,0.4,0.3
2025-01-13T1300,3479A,114.0967,33.5906,漯河市,召陵区卫健委,细颗粒物(PM2.5),98,131,91,73,50,104,,43,43,23,35,9,9,0.5,0.4
2025-01-13T1300,1798A,118.5092,31.6837,马鞍山市,湖东路四小,颗粒物(PM10),84,117,93,52,42,89,,37,37,37,51,8,6,1.1,1.1
2025-01-13T1300,1799A,118.5024,31.6449,马鞍山市,开发区,,,104,107,75,45,88,,35,35,,49,13,8,1.1,1
2025-01-13T1300,1802A,118.6245,31.7241,马鞍山市,濮塘,,,,75,,41,,,63,62,,15,,9,,0.3
2025-01-13T1300,3633A,118.4918,31.6809,马鞍山市,雨山,细颗粒物(PM2.5),102,109,94,76,48,87,,37,37,36,52,12,8,1.2,1.1
2025-01-13T1300,4191A,118.5274,31.72227,马鞍山市,慈湖高新区,细颗粒物(PM2.5),87,71,78,64,51,91,,42,42,35,41,11,11,0.8,0.7
2025-01-13T1300,1686A,111.0286,21.4688,茂名市,电白南海,颗粒物(PM10),58,66,65,17,26,113,,73,73,15,24,8,13,0.7,0.7
2025-01-13T1300,1687A,110.9294,21.6533,茂名市,茂石化七小,,48,48,57,9,18,114,,60,60,11,23,9,14,0.6,0.7
2025-01-13T1300,1688A,110.9107,21.6687,茂名市,健康路,,39,39,52,22,30,121,,58,58,13,27,12,14,0.5,0.6
2025-01-13T1300,1689A,110.8592,21.6828,茂名市,高岭,颗粒物(PM10),52,53,75,14,33,115,,54,54,15,29,17,21,0.6,0.8
2025-01-13T1300,3450A,111.01,21.5165,茂名市,电白水东,颗粒物(PM10),51,51,55,14,23,110,,80,80,11,19,11,17,0.5,0.6
2025-01-13T1300,2539A,104.0308,30.0478,眉山市,黑龙滩水库,细颗粒物(PM2.5),107,94,89,80,72,80,,39,39,4,29,6,4,0.8,1
2025-01-13T1300,2540A,103.8416,30.0874,眉山市,气象局,细颗粒物(PM2.5),100,129,125,75,86,53,,19,17,30,42,5,6,0.8,0.8
2025-01-13T1300,3137A,103.8578,30.0744,眉山市,市委党校,细颗粒物(PM2.5),89,88,98,66,79,55,,14,14,23,43,7,7,0.6,0.7
2025-01-13T1300,3148A,103.8291,30.0564,眉山市,区人社局,细颗粒物(PM2.5),98,,78,73,79,55,,18,18,31,45,10,8,0.9,1
2025-01-13T1300,1690A,116.1231,24.3284,梅州市,梅江月梅,,34,34,44,14,19,88,,38,38,10,31,11,9,0.4,0.4
2025-01-13T1300,1691A,116.0797,24.2719,梅州市,梅县新城,,42,42,54,20,29,85,,40,40,16,35,10,5,0.4,0.5
2025-01-13T1300,1692A,116.1248,24.2654,梅州市,环境监控中心,,48,48,45,19,23,91,,45,45,10,33,6,8,0.5,0.5
2025-01-13T1300,3315A,116.1233,24.2991,梅州市,梅龙,,28,27,39,16,20,88,,41,41,14,27,9,7,0.5,0.5
2025-01-13T1300,1878A,104.7778,31.4741,绵阳市,富乐山,细颗粒物(PM2.5),68,77,68,49,49,47,,13,13,37,38,4,3,0.9,0.9
2025-01-13T1300,1880A,104.6697,31.4668,绵阳市,高新区自来水公司,,,,82,56,55,40,,10,10,38,41,5,4,0.8,0.7
2025-01-13T1300,1881A,104.7287,31.5075,绵阳市,三水厂,细颗粒物(PM2.5),83,95,83,61,59,53,,12,12,32,45,5,6,0.8,0.9
2025-01-13T1300,3491A,104.69,31.5322,绵阳市,西科大附属小学,细颗粒物(PM2.5),63,66,83,45,59,53,,18,18,20,38,5,6,0.9,0.9
2025-01-13T1300,3492A,104.5648,31.5343,绵阳市,安州区旅游局,细颗粒物(PM2.5),94,83,78,70,64,53,,17,17,23,31,11,7,0.7,0.8
2025-01-13T1300,4226A,104.7651,31.4531,绵阳市,绵阳市气象局,颗粒物(PM10),72,93,88,42,52,32,,11,11,46,46,3,2,0.9,0.8
2025-01-13T1300,1784A,129.61,44.561,牡丹江市,环保大楼,细颗粒物(PM2.5),57,60,78,40,60,47,,27,27,27,48,13,14,0.7,0.9
2025-01-13T1300,1785A,129.6115,44.5782,牡丹江市,文化广场,细颗粒物(PM2.5),63,73,92,45,70,42,,27,27,36,48,17,15,1.1,1.3
2025-01-13T1300,1786A,129.5904,44.5963,牡丹江市,第一医院,细颗粒物(PM2.5),80,84,103,59,91,37,,21,21,39,48,14,11,0.7,1
2025-01-13T1300,1787A,129.6364,44.6075,牡丹江市,机车工厂,细颗粒物(PM2.5),75,90,123,55,77,33,,21,21,44,47,17,12,1.0,1.2
2025-01-13T1300,1788A,129.6386,44.5462,牡丹江市,第一中学,细颗粒物(PM2.5),55,57,59,39,48,38,,26,26,35,35,17,11,0.7,0.8
2025-01-13T1300,2531A,105.0703,29.61,内江市,市监测站,细颗粒物(PM2.5),140,,55,107,62,17,,28,12,46,32,8,6,1.2,0.9
2025-01-13T1300,2532A,105.0717,29.5947,内江市,东兴区政府,颗粒物(PM10),152,254,71,93,58,19,,32,13,35,28,6,4,1.2,0.9
2025-01-13T1300,2533A,105.0653,29.5817,内江市,内江二中,细颗粒物(PM2.5),127,97,72,96,58,24,,30,12,34,31,11,9,1.0,0.9
2025-01-13T1300,2534A,105.0406,29.5822,内江市,内江日报社,细颗粒物(PM2.5),119,102,65,90,59,19,,27,10,37,28,10,9,1.1,0.9
2025-01-13T1300,2628A,92.0657,31.4846,那曲市,那曲监测站,,31,26,31,21,28,98,,72,72,8,17,9,8,0.5,1
2025-01-13T1300,3128A,92.0506,31.4797,那曲市,那曲会议中心,,34,25,25,3,9,106,,79,79,4,7,2,3,0.4,0.6
2025-01-13T1300,1290A,115.8931,28.6843,南昌市,省外办,细颗粒物(PM2.5),104,121,120,78,81,83,,28,28,51,68,12,8,0.8,1
2025-01-13T1300,1291A,115.8886,28.7003,南昌市,省林业公司,细颗粒物(PM2.5),107,153,109,80,66,67,,20,20,79,69,14,10,0.9,0.8
2025-01-13T1300,1292A,115.8126,28.7442,南昌市,林科所,细颗粒物(PM2.5),94,112,84,70,56,91,,46,46,52,60,14,12,0.6,0.6
2025-01-13T1300,1294A,115.8518,28.687,南昌市,建工学校,颗粒物(PM10),137,223,117,74,66,94,,28,28,45,68,16,13,0.7,1
2025-01-13T1300,1295A,115.8921,28.6424,南昌市,象湖,,,94,127,58,76,100,,28,28,,71,16,11,0.6,1.2
2025-01-13T1300,1296A,115.7423,28.7996,南昌市,武术学校,颗粒物(PM10),56,61,39,6,33,88,,35,35,26,22,4,3,0.9,0.8
2025-01-13T1300,3046A,115.9084,28.6062,南昌市,机电学校,细颗粒物(PM2.5),83,100,133,61,76,102,,38,38,22,62,23,18,0.6,0.8
2025-01-13T1300,3690A,115.9721,28.7031,南昌市,外国语学校,细颗粒物(PM2.5),95,124,99,71,61,77,,29,29,35,51,20,8,1.3,0.7
2025-01-13T1300,1905A,106.056,30.8064,南充市,西山风景区,细颗粒物(PM2.5),72,52,47,52,41,28,,79,45,32,12,1,2,0.6,0.5
2025-01-13T1300,1906A,106.0789,30.8023,南充市,南充市委,细颗粒物(PM2.5),87,76,63,64,51,39,,37,25,36,29,4,4,0.6,0.6
2025-01-13T1300,1907A,106.1031,30.8217,南充市,南充炼油厂,细颗粒物(PM2.5),75,83,71,55,50,43,,42,22,33,33,4,4,0.6,0.5
2025-01-13T1300,1908A,106.1064,30.7856,南充市,高坪区监测站,细颗粒物(PM2.5),70,84,69,51,50,38,,29,14,32,36,3,3,0.5,0.6
2025-01-13T1300,1909A,106.0642,30.7636,南充市,嘉陵区环保局,细颗粒物(PM2.5),83,71,70,61,50,36,,22,21,28,35,4,5,0.7,0.5
2025-01-13T1300,1910A,106.1087,30.8388,南充市,市环境监测站,细颗粒物(PM2.5),72,87,74,52,49,34,,36,20,42,37,6,6,0.7,0.6
2025-01-13T1300,1151A,118.8086,32.1065,南京市,迈皋桥,颗粒物(PM10),68,86,67,46,34,70,,41,41,52,52,12,7,0.6,0.4
2025-01-13T1300,1152A,118.7538,32.0551,南京市,草场门,颗粒物(PM10),70,90,74,44,36,82,,33,33,37,57,12,8,0.6,0.4
2025-01-13T1300,1153A,118.7794,32.0745,南京市,山西路,颗粒物(PM10),80,110,82,48,37,78,,40,40,51,61,10,5,0.7,0.5
2025-01-13T1300,1154A,118.7752,32.0023,南京市,中华门,颗粒物(PM10),70,90,70,44,35,57,,25,25,49,61,11,8,0.7,0.7
2025-01-13T1300,1155A,118.8109,32.0309,南京市,瑞金路,颗粒物(PM10),75,100,74,46,36,58,,24,24,49,56,9,5,0.9,0.9
2025-01-13T1300,1156A,118.7997,32.0754,南京市,玄武湖,,,125,74,44,31,63,,31,31,,26,10,8,0.8,0.7
2025-01-13T1300,1157A,118.6414,32.0931,南京市,浦口,颗粒物(PM10),80,110,78,47,34,76,,34,34,37,33,16,9,1.1,0.6
2025-01-13T1300,1158A,118.7356,31.9996,南京市,奥体中心,颗粒物(PM10),74,97,73,44,35,90,,33,33,40,62,15,10,0.7,0.6
2025-01-13T1300,1159A,118.9125,32.1028,南京市,仙林大学城,,,,73,,34,79,,36,36,,51,10,7,0.7,0.6
2025-01-13T1300,3422A,118.8436,31.9198,南京市,江宁彩虹桥,颗粒物(PM10),78,106,75,48,34,72,,27,27,36,49,11,8,0.6,0.5
2025-01-13T1300,3423A,119.0138,31.6494,南京市,溧水永阳,细颗粒物(PM2.5),68,66,59,49,37,109,,42,42,18,22,4,4,0.5,0.5
2025-01-13T1300,3424A,118.879,31.3302,南京市,高淳老职中,细颗粒物(PM2.5),64,54,82,46,48,99,,50,50,17,30,9,5,0.5,0.5
2025-01-13T1300,3427A,118.8554,32.3578,南京市,六合雄州,颗粒物(PM10),71,92,86,47,49,75,,27,27,32,27,14,5,1.4,0.8
2025-01-13T1300,1401A,108.3103,22.7881,南宁市,二十一中,细颗粒物(PM2.5),82,88,79,60,63,113,,40,40,35,62,9,7,0.9,1.1
2025-01-13T1300,1402A,108.3141,22.8528,南宁市,北湖,细颗粒物(PM2.5),82,67,86,60,55,106,,34,34,31,60,10,11,0.9,1
2025-01-13T1300,1403A,108.3206,22.8225,南宁市,市监测站,"颗粒物(PM10),细颗粒物(PM2.5)",80,109,77,59,52,109,,44,44,33,56,14,17,0.9,1
2025-01-13T1300,1404A,108.3829,22.8037,南宁市,大自然花园,细颗粒物(PM2.5),79,69,65,58,49,124,,52,52,27,38,9,8,1.1,1.1
2025-01-13T1300,1406A,108.2397,22.8467,南宁市,区农职院,细颗粒物(PM2.5),85,85,67,63,45,101,,45,45,39,43,12,15,0.9,0.8
2025-01-13T1300,1407A,108.3275,22.735,南宁市,英华嘉园,细颗粒物(PM2.5),75,89,91,55,66,110,,40,40,29,64,12,11,0.8,0.9
2025-01-13T1300,3401A,108.4834,22.7618,南宁市,红星社区,细颗粒物(PM2.5),73,91,72,53,55,128,,40,40,25,48,13,11,0.8,0.9
2025-01-13T1300,4221A,108.2177,22.7774,南宁市,乐贤路16号,颗粒物(PM10),80,109,106,56,58,115,,28,28,20,59,9,10,0.9,1
2025-01-13T1300,2332A,118.1681,26.6369,南平市,南平市监测站,,33,33,43,23,29,99,,41,41,10,33,5,5,0.5,0.5
2025-01-13T1300,2333A,118.1825,26.6489,南平市,南平铝业有限公司,,35,35,38,16,24,99,,36,36,10,36,6,6,0.4,0.5
2025-01-13T1300,2334A,118.1756,26.6272,南平市,南平七中,颗粒物(PM10),56,62,41,22,29,96,,43,43,9,23,4,3,0.4,0.5
2025-01-13T1300,1168A,120.9098,31.9663,南通市,狼山街道,颗粒物(PM10),79,108,98,57,65,79,,29,29,38,41,9,7,1.1,1
2025-01-13T1300,1169A,120.86,32.0005,南通市,虹桥,细颗粒物(PM2.5),74,90,90,54,63,78,,32,32,38,41,9,8,0.9,0.9
2025-01-13T1300,1170A,120.87,32.02,南通市,城中,颗粒物(PM10),78,106,110,47,64,83,,35,35,42,52,10,10,0.5,0.8
2025-01-13T1300,1171A,120.94,31.93,南通市,星湖花园,"颗粒物(PM10),细颗粒物(PM2.5)",79,107,101,58,62,78,,28,28,40,53,9,8,0.6,0.6
2025-01-13T1300,1172A,120.81,32.0417,南通市,紫琅学院,颗粒物(PM10),75,99,95,46,57,76,,31,31,45,48,11,6,1.1,1
2025-01-13T1300,3291A,121.067,32.062,南通市,通州监测站,,,102,107,48,69,92,,48,44,47,42,,6,0.7,0.7
2025-01-13T1300,3432A,120.9348,31.9883,南通市,环境教育馆,,,114,108,,70,80,,30,30,52,60,7,5,0.9,0.9
2025-01-13T1300,2404A,112.5224,33.0122,南阳市,瓦房庄,颗粒物(PM10),89,127,132,61,67,73,,32,32,26,47,10,8,0.8,0.9
2025-01-13T1300,2405A,112.5003,32.9735,南阳市,汉画馆,颗粒物(PM10),84,117,120,53,57,84,,34,34,21,46,10,8,0.7,0.8
2025-01-13T1300,2406A,112.5573,33.027,南阳市,气象站,颗粒物(PM10),94,137,149,53,56,84,,37,37,23,51,10,7,0.7,0.8
2025-01-13T1300,2407A,112.5481,32.9689,南阳市,理工学院,颗粒物(PM10),75,100,124,53,67,87,,32,32,16,47,8,8,0.7,0.9
2025-01-13T1300,4008A,112.5234,32.9922,南阳市,卧龙区政府,颗粒物(PM10),88,125,128,51,55,74,,30,30,24,46,8,6,0.7,0.8
2025-01-13T1300,1234A,121.8358,29.911,宁波市,区环保大楼,颗粒物(PM10),73,95,91,40,48,100,,41,41,36,51,9,12,0.6,0.7
2025-01-13T1300,1235A,121.56,29.82,宁波市,万里学院,细颗粒物(PM2.5),69,67,103,50,69,113,,38,38,25,54,7,7,0.5,0.7
2025-01-13T1300,1236A,121.713,29.9572,宁波市,龙赛医院,颗粒物(PM10),72,93,114,50,57,105,,37,37,29,61,10,11,0.6,0.7
2025-01-13T1300,1239A,121.633,29.7733,宁波市,钱湖水厂,细颗粒物(PM2.5),70,74,90,51,57,113,,53,53,28,30,8,6,0.5,0.6
2025-01-13T1300,1240A,121.5856,29.8635,宁波市,太古小学,细颗粒物(PM2.5),77,88,106,56,67,97,,38,38,29,56,12,10,0.7,0.8
2025-01-13T1300,1241A,121.524,29.8674,宁波市,市环境监测中心,细颗粒物(PM2.5),63,66,95,45,63,106,,43,43,27,60,8,8,0.7,0.8
2025-01-13T1300,2871A,121.6147,29.9017,宁波市,万里国际学校,细颗粒物(PM2.5),68,73,91,49,63,109,,48,48,26,59,10,9,0.6,0.6
2025-01-13T1300,3710A,121.5594,29.8975,宁波市,白沙活动中心,细颗粒物(PM2.5),74,81,97,54,66,99,,40,40,32,64,12,10,0.7,0.8
2025-01-13T1300,2341A,119.5388,26.6612,宁德市,宁德市监测站,,,70,34,32,26,97,,59,59,11,10,4,3,,0.7
2025-01-13T1300,3209A,119.5231,26.6562,宁德市,宁德一中,细颗粒物(PM2.5),53,52,39,37,25,107,,67,67,16,16,3,3,0.5,0.6
2025-01-13T1300,2618A,98.8601,25.8567,怒江傈僳族自治州,州监测站,,30,30,39,16,22,65,,36,36,14,18,4,3,0.6,0.6
2025-01-13T1300,2619A,98.8546,25.8417,怒江傈僳族自治州,泸水一中,,38,31,34,26,28,57,,22,22,12,22,7,7,0.5,0.6
2025-01-13T1300,1888A,101.6891,26.571,攀枝花市,弄弄坪,细颗粒物(PM2.5),79,77,62,58,43,59,,20,20,38,31,46,25,3.2,1.7
2025-01-13T1300,1889A,101.5769,26.5928,攀枝花市,河门口,细颗粒物(PM2.5),77,60,62,56,43,66,,24,24,24,27,11,14,1.4,1.3
2025-01-13T1300,1890A,101.7169,26.585,攀枝花市,炳草岗,细颗粒物(PM2.5),67,72,61,48,43,53,,18,18,41,36,26,21,1.9,1.4
2025-01-13T1300,1891A,101.7369,26.5008,攀枝花市,仁和,细颗粒物(PM2.5),60,60,55,43,38,74,,,,29,23,31,10,2.2,1.1
2025-01-13T1300,2835A,101.7227,26.567,攀枝花市,四十中小,,,,72,,46,55,,23,23,39,43,,33,2.3,2
2025-01-13T1300,1604A,122.0303,41.1489,盘锦市,开发区,颗粒物(PM10),60,69,89,26,70,57,,30,30,24,53,12,17,0.8,1.1
2025-01-13T1300,1605A,122.0485,41.0883,盘锦市,兴隆台,颗粒物(PM10),61,72,102,26,70,52,,24,24,26,58,16,20,1.0,1.4
2025-01-13T1300,1606A,121.8297,41.1028,盘锦市,新生街道,颗粒物(PM10),64,77,82,31,65,57,,26,26,32,60,14,15,0.8,1.2
2025-01-13T1300,1832A,113.3257,33.742,平顶山市,新华旅馆,,,,104,,43,,,30,30,,36,10,9,0.6,0.6
2025-01-13T1300,1833A,113.2919,33.737,平顶山市,规划设计院,颗粒物(PM10),73,95,102,40,46,95,,37,37,17,32,8,7,0.2,0.2
2025-01-13T1300,1834A,113.182,33.774,平顶山市,平顶山工学院,颗粒物(PM10),80,109,123,46,44,99,,53,53,11,20,13,12,0.4,0.5
2025-01-13T1300,3204A,113.3025,33.73,平顶山市,规划局,细颗粒物(PM2.5),70,88,102,51,47,86,,33,33,17,32,12,8,0.5,0.6
2025-01-13T1300,3594A,112.8867,33.9116,平顶山市,石龙区,颗粒物(PM10),69,88,118,41,52,97,,58,58,7,24,9,8,0.6,0.6
2025-01-13T1300,2656A,106.6692,35.5461,平凉市,聚贤嘉苑,颗粒物(PM10),58,66,63,23,23,69,,53,53,32,42,19,15,0.8,0.7
2025-01-13T1300,2657A,106.7021,35.5307,平凉市,博物馆,颗粒物(PM10),68,86,75,27,34,69,,48,48,34,43,22,20,0.6,0.8
2025-01-13T1300,2347A,114.0997,27.5002,萍乡市,武功山,,28,23,38,13,30,88,,56,56,6,12,14,11,0.4,0.7
2025-01-13T1300,2348A,113.8385,27.6434,萍乡市,中医院,细颗粒物(PM2.5),77,89,106,56,64,101,,46,46,20,44,25,15,1.0,1.5
2025-01-13T1300,2349A,113.8493,27.6253,萍乡市,市政府车库,细颗粒物(PM2.5),118,105,96,89,75,86,,38,38,33,42,30,16,1.9,1.8
2025-01-13T1300,2350A,113.8676,27.6435,萍乡市,市环保局,细颗粒物(PM2.5),112,113,103,84,71,91,,47,47,28,47,31,20,1.1,1.3
2025-01-13T1300,2351A,113.866,27.6198,萍乡市,安源区政府,颗粒物(PM10),104,158,104,68,70,81,,39,39,38,36,38,16,3.9,1.7
2025-01-13T1300,2319A,119.0141,25.4325,莆田市,荔城区仓后路,颗粒物(PM10),53,56,50,21,27,118,,66,66,11,24,2,3,0.7,0.9
2025-01-13T1300,2320A,119.0015,25.4553,莆田市,莆田市监测站,颗粒物(PM10),56,61,39,11,11,121,,96,96,11,13,4,3,0.3,0.4
2025-01-13T1300,2321A,119.1119,25.4561,莆田市,涵江区六中,颗粒物(PM10),53,56,41,22,20,119,,94,94,10,15,1,2,0.2,0.3
2025-01-13T1300,2322A,119.1013,25.3215,莆田市,秀屿区政府,,48,48,41,28,25,122,,82,82,12,19,2,2,0.4,0.4
2025-01-13T1300,2392A,115.0312,35.7636,濮阳市,环保局,颗粒物(PM10),78,106,66,40,29,97,,44,44,38,24,11,6,0.8,0.5
2025-01-13T1300,2394A,115.0574,35.7609,濮阳市,油田运输公司,颗粒物(PM10),82,114,75,39,28,88,,41,37,36,27,9,4,0.9,0.6
2025-01-13T1300,3021A,115,35.7668,濮阳市,濮水河管理处,颗粒物(PM10),92,134,80,42,29,104,,41,41,41,25,14,6,0.9,0.5
2025-01-13T1300,2601A,100.98,22.7633,普洱市,市环保局,,41,41,40,16,10,86,,39,39,10,11,5,4,0.6,0.7
2025-01-13T1300,2602A,100.9817,22.8322,普洱市,普洱第二中学,,44,44,37,14,20,83,,32,32,10,18,4,4,0.6,0.6
2025-01-13T1300,2262A,131.0518,45.8751,七台河市,新一中,细颗粒物(PM2.5),94,80,63,70,49,62,,70,66,37,19,9,10,2.1,2
2025-01-13T1300,3345A,131.0577,45.7879,七台河市,中波台,细颗粒物(PM2.5),98,104,98,73,67,55,,37,37,31,54,20,21,1.1,1.3
2025-01-13T1300,3637A,131.0176,45.7761,七台河市,人民广场,细颗粒物(PM2.5),127,138,119,96,80,36,,30,30,55,59,10,9,1.6,1.4
2025-01-13T1300,3684A,130.8781,45.8222,七台河市,新建矿广场,,,,97,,66,,,19,13,57,57,9,9,1.0,0.8
2025-01-13T1300,1779A,123.9305,47.3636,齐齐哈尔市,安居小区,细颗粒物(PM2.5),302,258,235,252,225,61,,36,36,41,65,11,10,1.5,1.7
2025-01-13T1300,1780A,123.9488,47.3386,齐齐哈尔市,中心广场,细颗粒物(PM2.5),296,305,208,246,169,54,,32,32,55,57,6,9,1.9,1.5
2025-01-13T1300,1781A,123.9483,47.3227,齐齐哈尔市,农牧车辆厂,细颗粒物(PM2.5),248,215,166,198,141,55,,29,29,52,61,8,10,1.6,1.4
2025-01-13T1300,1783A,123.945,47.2988,齐齐哈尔市,市环境监测站,细颗粒物(PM2.5),287,269,208,237,168,63,,25,25,,63,8,4,1.5,1.5
2025-01-13T1300,3662A,123.6333,47.2075,齐齐哈尔市,富区青少年活动中心,细颗粒物(PM2.5),236,235,235,186,163,69,,41,41,,51,,11,1.7,1.8
2025-01-13T1300,2591A,107.9783,26.5747,黔东南苗族侗族自治州,市环境监测站,,50,50,52,34,38,89,,26,26,16,39,6,10,0.6,1
2025-01-13T1300,2881A,107.8908,26.5311,黔东南苗族侗族自治州,凯里学院,,37,27,32,23,24,116,,37,37,1,22,5,5,0.4,0.4
2025-01-13T1300,2593A,107.5228,26.2403,黔南布依族苗族自治州,小围寨,,34,29,24,19,16,108,,50,50,9,21,8,10,0.6,0.6
2025-01-13T1300,3538A,107.5175,26.2978,黔南布依族苗族自治州,沙坝,,34,34,35,22,19,106,,33,33,8,27,7,11,0.5,0.5
2025-01-13T1300,2589A,104.9022,25.0925,黔西南布依族苗族自治州,场坝街,颗粒物(PM10),53,55,58,30,42,84,,40,40,10,23,8,9,0.4,0.6
2025-01-13T1300,2590A,104.8811,25.0992,黔西南布依族苗族自治州,坪东大道,,,43,49,20,38,82,,42,42,9,27,6,5,,0.6
2025-01-13T1300,2502A,108.6236,21.9667,钦州市,市环保站,,,78,162,41,73,116,,42,42,24,60,,12,,1.2
2025-01-13T1300,2503A,108.6549,21.9481,钦州市,沙埠小学,颗粒物(PM10),77,104,165,38,93,115,,39,39,21,61,8,12,0.7,1.1
2025-01-13T1300,2504A,108.5989,21.7431,钦州市,港区一小,颗粒物(PM10),71,91,177,39,74,104,,41,41,30,77,11,12,0.6,0.9
2025-01-13T1300,3404A,108.5959,21.9633,钦州市,北职校,"颗粒物(PM10),细颗粒物(PM2.5)",64,78,127,46,68,113,,46,46,24,51,10,12,0.6,0.9
2025-01-13T1300,1042A,119.5134,39.8207,秦皇岛市,北戴河环保局,颗粒物(PM10),74,97,68,47,36,35,,22,22,49,44,6,5,1.2,0.9
2025-01-13T1300,1043A,119.7493,40.0116,秦皇岛市,第一关,颗粒物(PM10),71,92,66,46,45,55,,21,21,32,52,20,14,1.5,1.1
2025-01-13T1300,1044A,119.5897,39.9499,秦皇岛市,监测站,"颗粒物(PM10),细颗粒物(PM2.5)",60,69,77,43,49,48,,17,17,56,74,24,15,1.8,1.3
2025-01-13T1300,1046A,119.5251,39.9041,秦皇岛市,建设大厦,颗粒物(PM10),71,91,74,47,48,47,,23,23,45,49,20,12,1.8,1.1
2025-01-13T1300,3132A,119.610547,39.943889,秦皇岛市,文明里,,,110,86,49,39,45,,21,21,,8,22,12,1.5,1
2025-01-13T1300,1307A,120.6659,36.2403,青岛市,仰口,细颗粒物(PM2.5),73,81,77,53,52,94,,81,81,20,21,7,8,0.2,0.5
2025-01-13T1300,1310A,120.4134,36.0658,青岛市,市南区东部子站,细颗粒物(PM2.5),83,114,101,61,53,73,,43,43,31,42,15,17,0.9,1.1
2025-01-13T1300,1311A,120.3664,36.1032,青岛市,四方区子站,细颗粒物(PM2.5),92,105,93,68,63,87,,52,52,35,54,18,19,1.1,1.3
2025-01-13T1300,1312A,120.2994,36.054,青岛市,市南区西部子站,细颗粒物(PM2.5),83,110,89,61,49,86,,51,51,28,45,21,18,1.0,1.3
2025-01-13T1300,1313A,120.4581,36.0858,青岛市,崂山区子站,"颗粒物(PM10),细颗粒物(PM2.5)",79,107,86,58,50,84,,48,48,31,41,15,15,1.2,1.3
2025-01-13T1300,1314A,120.1983,35.9608,青岛市,黄岛区子站,细颗粒物(PM2.5),92,112,97,68,61,85,,44,44,28,47,14,17,1.0,1.3
2025-01-13T1300,1315A,120.3999,36.3083,青岛市,城阳区子站,颗粒物(PM10),90,129,105,56,49,77,,36,36,47,67,23,17,1.4,1.3
2025-01-13T1300,1966A,120.0405,35.8735,青岛市,黄岛区4号,颗粒物(PM10),112,173,102,75,61,94,,39,39,23,57,20,20,1.0,1.4
2025-01-13T1300,3362A,120.5014,36.4034,青岛市,即墨2号,颗粒物(PM10),90,130,109,65,60,77,,35,35,45,57,20,20,1.2,1.3
2025-01-13T1300,3642A,120.3503,36.0736,青岛市,市北区南部,颗粒物(PM10),87,124,95,61,54,85,,52,52,30,45,13,14,0.9,1.1
2025-01-13T1300,3643A,120.3948,36.1805,青岛市,李沧区北部,细颗粒物(PM2.5),94,119,102,70,65,83,,42,42,39,61,20,19,1.2,1.5
2025-01-13T1300,1702A,113.0426,23.691,清远市,环保大楼,,31,26,35,21,27,99,,42,42,10,36,7,7,0.6,0.8
2025-01-13T1300,1703A,113.0208,23.7106,清远市,凤城街办,颗粒物(PM10),52,54,51,34,27,83,,30,30,27,44,13,10,0.6,0.7
2025-01-13T1300,3025A,113.0477,23.6344,清远市,技师学院,,49,49,61,26,29,98,,40,40,16,51,10,10,0.8,0.9
2025-01-13T1300,3318A,112.9903,23.7403,清远市,清新太和,颗粒物(PM10),53,55,41,32,21,93,,50,50,29,36,14,11,0.7,0.7
2025-01-13T1300,3455A,113.076,23.7198,清远市,清城东城,,44,44,39,22,19,103,,58,58,9,23,15,14,0.4,0.5
2025-01-13T1300,2661A,107.6325,35.7357,庆阳市,庆阳五中,颗粒物(PM10),148,246,225,73,69,81,,66,56,11,20,7,8,0.5,0.6
2025-01-13T1300,2662A,107.6364,35.7067,庆阳市,市环保局,颗粒物(PM10),142,234,214,74,62,81,,74,59,12,21,11,14,0.4,0.5
2025-01-13T1300,1916A,103.7897,25.5035,曲靖市,环境监测站,,28,,42,16,27,88,,56,56,10,22,5,7,0.5,0.8
2025-01-13T1300,1917A,103.8,25.5364,曲靖市,烟厂办公区,,28,28,46,6,27,77,,53,53,8,24,4,4,0.3,0.6
2025-01-13T1300,3376A,103.7947,25.462,曲靖市,南苑二区,,32,28,41,22,28,84,,58,58,9,16,5,6,0.7,0.9
2025-01-13T1300,3377A,103.7444,25.5261,曲靖市,曲靖师范学院,,35,24,44,24,32,84,,60,60,11,23,6,9,0.6,0.7
2025-01-13T1300,1264A,118.8692,28.9398,衢州市,环保大楼,细颗粒物(PM2.5),87,102,84,64,50,80,,34,34,47,56,15,7,1.5,0.9
2025-01-13T1300,1265A,118.8709,28.9666,衢州市,实验学校,细颗粒物(PM2.5),93,85,69,69,44,90,,33,33,34,54,19,11,1.1,0.7
2025-01-13T1300,1266A,118.8621,28.9808,衢州市,衢州学院,细颗粒物(PM2.5),75,92,67,55,42,88,,32,32,38,62,14,7,1.1,0.8
2025-01-13T1300,1611A,118.5819,24.9117,泉州市,涂山街,,50,50,51,22,24,124,,74,74,10,19,2,7,0.3,0.4
2025-01-13T1300,1612A,118.5972,24.8978,泉州市,津头埔,,49,49,49,22,25,123,,72,72,12,23,3,7,0.4,0.5
