timepoint,stationcode,longitude,latitude,area,positionname,primarypollutant,aqi,pm10,pm10_24h,pm2_5,pm2_5_24h,o3,o3_24h,o3_8h,o3_8h_24h,no2,no2_24h,so2,so2_24h,co,co_24h
2026-02-23T1700,2568A,102.2503,31.8896,阿坝藏族羌族自治州,马师校,,37,25,16,22,13,118,,102,102,2,3,5,4,0.3,0.2
2026-02-23T1700,3994A,102.2174,31.9016,阿坝藏族羌族自治州,马尔康中学西区,颗粒物(PM10),59,67,20,12,13,100,,86,86,4,5,6,5,0.4,0.3
2026-02-23T1700,2695A,80.2899,41.1684,阿克苏地区,电视台,,,140,119,51,47,99,,75,75,3,22,,11,0.4,0.8
2026-02-23T1700,2696A,80.2592,41.1541,阿克苏地区,艺术中心,颗粒物(PM10),97,143,142,47,51,105,,76,76,2,37,3,4,0.5,0.9
2026-02-23T1700,2205A,105.699,38.8409,阿拉善盟,蒙二幼,颗粒物(PM10),80,109,112,27,28,91,,85,85,4,9,9,9,0.5,0.5
2026-02-23T1700,2206A,105.7198,38.8508,阿拉善盟,环保局新楼,颗粒物(PM10),78,105,99,27,26,82,,86,80,3,5,9,9,0.5,0.5
2026-02-23T1700,2708A,88.1266,47.8515,阿勒泰地区,市站,,26,6,15,3,5,82,,82,76,10,12,3,2,0.3,0.3
2026-02-23T1700,4166A,88.1198,47.7931,阿勒泰地区,阿勒泰路33号,,26,6,15,3,4,83,,70,70,7,15,6,6,0.3,0.4
2026-02-23T1700,2630A,80.1171,32.4999,阿里地区,阿里监测站,,35,6,10,3,4,109,,98,98,2,4,2,4,0.4,0.4
2026-02-23T1700,3192A,80.0906,32.5029,阿里地区,阿里藏医院,,35,6,10,3,4,112,,99,99,2,4,6,9,0.2,0.3
2026-02-23T1700,2644A,109.0088,32.6974,安康市,汉滨区检察院,颗粒物(PM10),70,90,182,29,56,68,,71,71,7,17,2,4,0.4,0.5
2026-02-23T1700,4054A,109.0324,32.6913,安康市,市邮政管理局,颗粒物(PM10),80,109,196,37,58,70,,73,73,6,24,3,5,0.5,0.8
2026-02-23T1700,2291A,117.0806,30.5181,安庆市,环科院,颗粒物(PM10),127,203,254,47,52,89,,83,83,8,10,8,9,0.6,0.6
2026-02-23T1700,2292A,117.0331,30.5118,安庆市,马山宾馆,颗粒物(PM10),125,200,246,49,54,90,,87,87,15,14,8,8,0.4,0.4
2026-02-23T1700,2294A,116.9897,30.6146,安庆市,安庆大学,颗粒物(PM10),114,178,246,36,52,90,,85,85,3,3,5,6,0.5,0.5
2026-02-23T1700,3173A,117.0598,30.5351,安庆市,市人大,颗粒物(PM10),129,207,260,47,55,89,,85,85,10,12,7,8,0.5,0.5
2026-02-23T1700,3123A,105.9408,26.2431,安顺市,凤凰山,,34,23,31,22,26,106,,90,90,6,6,8,10,0.3,0.4
2026-02-23T1700,3124A,105.9443,26.2567,安顺市,金钟山,,32,24,29,22,26,102,,87,87,5,5,10,10,0.4,0.5
2026-02-23T1700,3125A,105.8983,26.248,安顺市,娄家坡,,38,26,31,26,28,99,,87,87,5,5,10,11,0.3,0.4
2026-02-23T1700,1819A,114.3552,36.1017,安阳市,红庙街,颗粒物(PM10),59,67,296,28,79,48,,52,52,19,14,3,2,0.8,0.5
2026-02-23T1700,1820A,114.361,36.0681,安阳市,银杏小区,颗粒物(PM10),59,67,302,34,93,50,,53,53,17,13,4,4,0.5,0.4
2026-02-23T1700,3141A,114.3921,36.0879,安阳市,信访局,细颗粒物(PM2.5),59,58,284,42,82,50,,57,56,14,9,5,6,0.5,0.4
2026-02-23T1700,3669A,114.4706,36.0634,安阳市,左辅环卫站,颗粒物(PM10),62,73,293,18,74,52,,56,55,13,12,5,5,0.4,0.4
2026-02-23T1700,4117A,114.2918,36.0769,安阳市,钢三路198号,颗粒物(PM10),68,85,324,28,73,44,,48,48,24,18,8,5,0.8,0.6
2026-02-23T1700,1748A,123.0441,41.1201,鞍山市,深沟寺,细颗粒物(PM2.5),87,103,73,64,24,103,,96,96,17,14,12,12,0.8,0.9
2026-02-23T1700,1749A,123.011,41.0931,鞍山市,太阳城,细颗粒物(PM2.5),98,113,70,73,25,97,,92,92,16,14,14,17,0.8,1.1
2026-02-23T1700,1750A,123.0483,41.1445,鞍山市,太平,,,108,77,66,30,,,63,,22,14,16,14,0.9,0.7
2026-02-23T1700,1751A,122.964,41.0968,鞍山市,铁西三道街,细颗粒物(PM2.5),105,126,83,79,27,94,,92,92,23,16,13,10,0.8,0.6
2026-02-23T1700,1753A,123.0219,41.0822,鞍山市,明达新区,细颗粒物(PM2.5),100,87,69,75,30,98,,100,100,18,13,15,16,0.7,0.9
2026-02-23T1700,4201A,122.944647,41.082639,鞍山市,兴盛南路290号,细颗粒物(PM2.5),114,138,88,86,30,102,,98,98,17,18,11,9,0.7,0.8
2026-02-23T1700,2195A,107.4206,40.7609,巴彦淖尔市,附二中,颗粒物(PM10),53,55,84,13,35,86,,70,70,3,7,6,10,0.6,0.6
2026-02-23T1700,2196A,107.37,40.7372,巴彦淖尔市,市环保大楼,颗粒物(PM10),51,52,82,10,24,88,,72,72,3,10,4,5,0.4,0.5
2026-02-23T1700,1956A,86.1476,41.7529,巴音郭楞蒙古自治州,孔雀公园,颗粒物(PM10),103,155,292,37,74,83,,74,74,3,16,8,9,0.3,0.4
2026-02-23T1700,1957A,86.1971,41.7166,巴音郭楞蒙古自治州,棉纺厂,颗粒物(PM10),95,140,315,28,64,86,,68,68,3,17,/,/,/,/
2026-02-23T1700,1958A,86.236,41.7172,巴音郭楞蒙古自治州,经济开发区,颗粒物(PM10),80,110,208,20,28,77,,64,64,2,13,6,6,0.4,0.4
2026-02-23T1700,3181A,106.776805,31.852614,巴中市,市五中,,33,33,74,22,55,46,,34,34,6,23,7,8,0.8,1.1
2026-02-23T1700,3183A,106.7419,31.8654,巴中市,圣泉水务公司,,36,30,70,25,54,48,,42,42,8,22,8,8,1.0,1.1
2026-02-23T1700,3616A,106.7617,31.8343,巴中市,市中心医院,,35,27,82,24,62,50,,32,32,6,34,8,8,0.8,1.4
2026-02-23T1700,2235A,122.7909,45.608,白城市,洮北区环保局,颗粒物(PM10),86,121,94,8,7,82,,81,81,9,6,2,3,0.1,0.1
2026-02-23T1700,2236A,122.8741,45.5725,白城市,市环保局,颗粒物(PM10),112,173,101,27,15,88,,89,89,3,4,3,3,0.3,0.3
2026-02-23T1700,2231A,126.4219,41.9172,白山市,喜丰,,48,48,125,6,5,92,,86,86,2,2,8,6,0.5,0.5
2026-02-23T1700,2232A,126.4082,41.9416,白山市,环保局,,31,31,91,9,5,96,,88,88,5,4,7,7,0.4,0.4
2026-02-23T1700,2647A,104.1727,36.5448,白银市,第三小学,,,131,208,50,68,95,,84,84,10,20,,16,0.5,0.3
2026-02-23T1700,2648A,104.1467,36.5482,白银市,动力公司,颗粒物(PM10),95,140,202,47,62,95,,78,78,12,10,54,14,0.4,0.4
2026-02-23T1700,2512A,106.6102,23.901,百色市,市监测站,,39,39,39,20,30,67,,62,62,9,10,14,14,0.4,0.4
2026-02-23T1700,2513A,106.6524,23.8842,百色市,市中心血站,,44,44,42,22,32,62,,60,60,10,11,16,14,0.7,0.7
2026-02-23T1700,4133A,106.6273,23.8798,百色市,龙景西路,,33,30,48,23,34,70,,63,63,9,10,13,14,0.6,0.6
2026-02-23T1700,2270A,117.396,32.9389,蚌埠市,工人疗养院,,,136,258,,51,71,,77,77,20,21,4,5,0.6,0.6
2026-02-23T1700,2271A,117.3606,32.9428,蚌埠市,百货大楼,颗粒物(PM10),89,128,254,41,48,70,,75,75,21,19,6,8,0.5,0.5
2026-02-23T1700,2273A,117.4183,32.8909,蚌埠市,蚌埠学院,颗粒物(PM10),100,149,279,41,45,60,,80,78,28,15,4,5,0.5,0.4
2026-02-23T1700,2274A,117.3534,32.9672,蚌埠市,淮上区政府,颗粒物(PM10),87,124,263,40,48,76,,76,76,16,16,5,6,0.5,0.5
2026-02-23T1700,2275A,117.3143,32.8977,蚌埠市,高新区,颗粒物(PM10),87,124,270,43,50,68,,78,78,16,11,5,7,0.5,0.5
2026-02-23T1700,3715A,117.3091,32.9314,蚌埠市,蚌埠田家炳中学,颗粒物(PM10),91,131,265,43,51,77,,78,78,16,19,4,6,0.5,0.5
2026-02-23T1700,1585A,109.8761,40.6533,包头市,市环境监测站,颗粒物(PM10),54,57,58,17,18,100,,88,88,15,19,14,10,1.2,0.4
2026-02-23T1700,1587A,109.9992,40.5843,包头市,包头八中,,44,44,61,17,27,91,,75,75,11,20,10,14,0.6,1
2026-02-23T1700,1589A,109.8641,40.6288,包头市,惠龙物流,,37,37,49,11,19,99,,81,81,9,17,12,14,0.7,1
2026-02-23T1700,1590A,110.0376,40.5546,包头市,东河鸿龙湾,,45,45,48,14,16,95,,79,79,6,18,8,9,0.4,0.5
2026-02-23T1700,3283A,109.9154,40.5684,包头市,滨河大厦,,39,39,45,7,17,91,,78,78,9,22,7,7,0.7,0.8
2026-02-23T1700,3419A,109.9449,40.6259,包头市,包头市委党校,,31,10,47,8,20,97,,83,83,8,18,12,11,0.9,1
2026-02-23T1700,3683A,109.8332,40.6577,包头市,昆区政府,,46,46,56,19,23,90,,76,76,20,32,17,14,1.5,1
2026-02-23T1700,1931A,107.0802,34.3129,宝鸡市,竹园沟,颗粒物(PM10),88,126,252,50,56,44,,,,14,16,6,6,0.6,0.4
2026-02-23T1700,1933A,107.1429,34.3549,宝鸡市,监测站,颗粒物(PM10),91,132,323,46,64,44,,44,37,16,12,4,5,0.5,0.5
2026-02-23T1700,1934A,107.1172,34.3759,宝鸡市,技工学校,颗粒物(PM10),94,138,318,67,105,51,,53,46,16,13,4,4,0.7,0.6
2026-02-23T1700,1936A,107.2025,34.3518,宝鸡市,文理学院,细颗粒物(PM2.5),102,137,326,76,110,52,,52,45,11,9,4,4,0.6,0.6
2026-02-23T1700,1937A,107.2396,34.3626,宝鸡市,三迪小学,细颗粒物(PM2.5),107,146,331,80,110,53,,53,46,14,13,4,4,0.6,0.6
2026-02-23T1700,4155A,107.1721,34.3558,宝鸡市,滨河北路,细颗粒物(PM2.5),107,147,345,80,113,50,,51,43,14,11,5,5,0.6,0.5
2026-02-23T1700,4308A,107.3898,34.3601,宝鸡市,陈仓区北开路21号,细颗粒物(PM2.5),119,173,341,90,103,52,,52,48,8,8,7,7,0.6,0.5
2026-02-23T1700,1051A,115.4803,38.8568,保定市,游泳馆,,46,46,46,24,17,85,,86,86,11,7,2,3,0.3,0.3
2026-02-23T1700,1052A,115.509,38.8895,保定市,华电二区,,45,45,42,10,8,88,,87,87,10,10,4,3,0.3,0.3
2026-02-23T1700,1053A,115.4588,38.9037,保定市,接待中心,,48,48,43,15,13,85,,84,84,7,7,2,2,0.2,0.2
2026-02-23T1700,1054A,115.4484,38.8344,保定市,地表水厂,颗粒物(PM10),67,83,55,9,8,89,,88,88,10,12,4,3,0.2,0.2
2026-02-23T1700,3581A,115.3136,38.9511,保定市,满城区生态环境分局,颗粒物(PM10),59,68,55,16,12,94,,90,90,8,13,1,2,0.3,0.3
2026-02-23T1700,3582A,115.4709,38.7628,保定市,清苑区第二中学,颗粒物(PM10),54,58,60,18,12,85,,85,85,9,7,6,5,0.3,0.3
2026-02-23T1700,3583A,115.6231,39.0223,保定市,徐水物探局,颗粒物(PM10),66,82,53,13,18,89,,86,86,9,11,4,3,0.4,0.3
2026-02-23T1700,4004A,115.4199,38.8665,保定市,双鹰农机,,49,49,48,18,11,95,,95,95,7,4,3,2,0.4,0.3
2026-02-23T1700,4034A,115.515,38.8589,保定市,植保所站,颗粒物(PM10),54,58,51,18,8,86,,86,86,11,10,3,3,0.6,0.6
2026-02-23T1700,2594A,99.1589,25.1137,保山市,市环境监测站,,45,39,41,31,28,100,,104,87,6,7,6,5,0.3,0.3
2026-02-23T1700,2595A,99.1616,25.1381,保山市,市环保局,颗粒物(PM10),51,52,44,26,28,133,,122,122,3,4,4,4,0.4,0.4
2026-02-23T1700,1867A,109.1435,21.4085,北海市,海滩公园,,44,44,33,13,16,70,,70,70,10,8,2,3,0.9,0.7
2026-02-23T1700,1868A,109.0983,21.466,北海市,新市环保局,,33,33,27,20,16,68,,71,71,10,8,4,4,0.7,0.5
2026-02-23T1700,1869A,109.1775,21.5232,北海市,北海工业园,,38,38,36,17,25,65,,68,68,5,7,5,6,0.6,0.6
2026-02-23T1700,3400A,109.1844,21.4396,北海市,龙潭自来水厂,,27,27,30,13,17,69,,66,66,2,4,3,3,0.8,0.8
2026-02-23T1700,1001A,116.3611,39.8786,北京市,万寿西宫,,45,45,26,19,9,93,,88,88,5,6,3,2,0.4,0.4
2026-02-23T1700,1003A,116.4174,39.9289,北京市,东四,颗粒物(PM10),53,55,27,9,4,81,,78,78,10,10,5,4,0.3,0.4
2026-02-23T1700,1004A,116.4073,39.8858,北京市,天坛,,46,46,27,12,6,85,,80,80,4,5,3,2,0.5,0.4
2026-02-23T1700,1005A,116.4622,39.9364,北京市,农展馆,,48,48,25,14,6,92,,86,86,3,5,6,5,0.5,0.4
2026-02-23T1700,1006A,116.3399,39.9293,北京市,官园,颗粒物(PM10),51,52,29,16,7,80,,76,76,5,5,4,3,0.4,0.3
2026-02-23T1700,1007A,116.2879,39.9613,北京市,海淀万柳,,46,46,25,14,7,78,,73,73,11,10,3,2,0.3,0.3
2026-02-23T1700,1008A,116.6635,40.1349,北京市,顺义新城,,42,42,24,13,6,88,,80,80,5,3,7,5,0.5,0.4
2026-02-23T1700,1009A,116.6275,40.327,北京市,怀柔镇,,41,41,24,15,7,81,,72,72,11,9,6,4,0.6,0.5
2026-02-23T1700,1010A,116.2295,40.217,北京市,昌平镇,,42,42,24,12,6,85,,77,77,6,6,3,2,0.5,0.5
2026-02-23T1700,1011A,116.3968,39.982,北京市,奥体中心,,44,44,26,14,7,80,,77,77,7,9,6,5,0.4,0.3
2026-02-23T1700,3418A,116.8336,40.4095,北京市,密云新城,,41,41,23,15,6,80,,74,74,11,5,5,3,0.3,0.2
2026-02-23T1700,3671A,116.0879,39.9725,北京市,门头沟三家店,颗粒物(PM10),52,53,31,11,9,86,,78,78,9,6,4,3,0.4,0.3
2026-02-23T1700,3672A,116.1507,39.8246,北京市,丰台云岗,,48,48,29,20,8,96,,89,89,7,5,3,2,0.4,0.3
2026-02-23T1700,3674A,115.9578,39.7602,北京市,房山燕山,,43,43,34,14,9,87,,83,83,7,4,5,4,0.4,0.4
2026-02-23T1700,3675A,116.4669,39.7734,北京市,大兴旧宫,,50,50,27,13,6,89,,82,82,6,7,5,4,0.4,0.3
2026-02-23T1700,3694A,115.9859,40.4562,北京市,延庆石河营,,35,35,25,11,7,81,,74,74,7,5,2,1,0.4,0.3
2026-02-23T1700,3695A,116.6151,40.3052,北京市,怀柔新城,,40,40,22,12,7,81,,73,73,12,6,4,2,0.3,0.3
2026-02-23T1700,3696A,116.2542,39.8764,北京市,丰台小屯,,46,46,29,14,7,79,,74,74,4,4,5,4,0.4,0.3
2026-02-23T1700,3697A,116.8399,40.3843,北京市,密云镇,,33,33,23,10,6,81,,74,74,11,9,2,2,0.4,0.3
2026-02-23T1700,4057A,115.9423,40.4431,北京市,延庆百泉,,27,27,25,8,9,80,,73,73,6,5,1,2,0.3,0.3
2026-02-23T1700,4058A,116.6598,39.9164,北京市,通州新华,颗粒物(PM10),51,52,26,13,12,84,,79,79,7,6,2,1,0.6,0.5
2026-02-23T1700,4182A,116.1942,39.9158,北京市,石景山八角,颗粒物(PM10),51,51,31,15,7,80,,72,72,5,4,4,3,0.2,0.1
2026-02-23T1700,4194A,117.078628,40.151726,北京市,平谷新城,,40,40,22,11,6,84,,78,78,4,2,6,3,0.5,0.4
2026-02-23T1700,1761A,123.8274146,41.31234549,本溪市,大峪,颗粒物(PM10),63,75,76,39,13,93,,88,88,12,9,11,10,0.8,0.7
2026-02-23T1700,1763A,123.7169,41.3094,本溪市,彩屯,细颗粒物(PM2.5),64,71,74,46,13,95,,92,92,12,8,11,7,0.7,0.6
2026-02-23T1700,1764A,123.7672166,41.28649327,本溪市,东明,细颗粒物(PM2.5),72,78,69,52,15,96,,86,86,14,11,10,10,0.7,0.8
2026-02-23T1700,1765A,123.799345,41.266614,本溪市,新立屯,细颗粒物(PM2.5),79,84,61,58,15,98,,87,87,12,6,12,9,0.9,0.9
2026-02-23T1700,1766A,123.829144,41.336777,本溪市,威宁,颗粒物(PM10),64,78,82,34,14,94,,92,92,9,5,8,6,0.5,0.4
2026-02-23T1700,2587A,105.287,27.3133,毕节市,八中,细颗粒物(PM2.5),60,,72,43,54,84,,76,76,6,15,11,11,0.7,1
2026-02-23T1700,2588A,105.3079,27.2987,毕节市,师专,细颗粒物(PM2.5),54,43,76,38,54,94,,81,81,7,16,12,11,0.5,0.8
2026-02-23T1700,4263A,105.3688,27.3598,毕节市,工业大道,细颗粒物(PM2.5),57,50,60,40,43,90,,80,80,6,12,11,10,/,/
2026-02-23T1700,1629A,117.9961,37.3604,滨州市,第二水厂,颗粒物(PM10),65,80,63,26,20,65,,67,67,19,17,15,15,0.8,0.8
2026-02-23T1700,1630A,117.9789,37.3931,滨州市,北中新校,颗粒物(PM10),65,80,59,26,19,60,,64,64,21,18,9,10,0.5,0.4
2026-02-23T1700,3514A,117.9379,37.3959,滨州市,中海酒店,颗粒物(PM10),67,83,58,25,16,71,,76,76,20,15,14,14,0.8,0.6
2026-02-23T1700,3515A,117.9381509,37.35547456,滨州市,开发区一中,,,,79,,20,64,,69,69,,14,18,18,0.8,0.8
2026-02-23T1700,3516A,118.0914,37.6938,滨州市,金海六路,颗粒物(PM10),68,85,68,28,18,69,,80,80,19,15,13,6,0.7,0.5
2026-02-23T1700,4028A,117.9955,37.3752,滨州市,滨州市西街道办事处,颗粒物(PM10),69,88,66,34,22,68,,71,71,13,11,13,14,0.3,0.1
2026-02-23T1700,2311A,115.8071,33.8399,亳州市,污水处理厂,颗粒物(PM10),85,119,319,39,78,68,,74,74,12,13,5,6,0.3,0.3
2026-02-23T1700,2312A,115.7789,33.8519,亳州市,三国揽胜宫,颗粒物(PM10),107,164,341,45,87,65,,70,70,10,12,5,6,0.2,0.2
2026-02-23T1700,3332A,115.7631,33.803,亳州市,亳州学院,颗粒物(PM10),99,148,292,38,77,70,,73,73,11,11,3,4,0.3,0.1
2026-02-23T1700,2693A,82.0482,44.8553,博尔塔拉蒙古自治州,市党校,颗粒物(PM10),53,56,48,21,14,69,,78,66,18,17,3,3,0.2,0.3
2026-02-23T1700,2694A,82.0805,44.8966,博尔塔拉蒙古自治州,市环保局,,31,31,33,18,15,68,,76,66,15,14,5,3,0.4,0.4
2026-02-23T1700,1071A,116.8733,38.2922,沧州市,沧县城建局,颗粒物(PM10),67,83,62,28,20,78,,79,79,17,16,10,8,0.3,0.2
2026-02-23T1700,1072A,116.8462,38.3189,沧州市,电视转播站,颗粒物(PM10),69,88,58,28,16,77,,78,78,18,16,7,5,0.4,0.4
2026-02-23T1700,1073A,116.8588,38.3161,沧州市,市环保局,颗粒物(PM10),74,97,63,34,22,66,,69,69,14,12,6,4,0.3,0.3
2026-02-23T1700,3324A,116.8011,38.294,沧州市,河北水利电力学院,颗粒物(PM10),75,100,61,31,19,71,,69,69,13,10,10,5,0.4,0.2
2026-02-23T1700,2622A,97.1813,31.1289,昌都市,昌都监测站,,38,,20,8,12,121,,112,112,2,6,4,4,0.4,0.6
2026-02-23T1700,3719A,97.1707,31.1428,昌都市,昌都会议中心,,39,14,12,8,12,122,,113,113,2,1,5,5,0.3,0.4
2026-02-23T1700,2692A,87.2722,44.0298,昌吉回族自治州,新区政务中心,细颗粒物(PM2.5),92,94,52,68,35,100,,79,79,18,17,8,5,0.8,0.6
2026-02-23T1700,3613A,87.3069,44.0093,昌吉回族自治州,亚心广场,细颗粒物(PM2.5),102,107,56,76,43,96,,79,79,18,13,11,9,0.7,0.4
2026-02-23T1700,4164A,87.2057,43.9289,昌吉回族自治州,财政所,细颗粒物(PM2.5),80,61,42,59,29,85,,72,72,6,8,6,6,0.5,0.5
2026-02-23T1700,1120A,125.2874,43.9024,长春市,客车厂,颗粒物(PM10),157,264,232,20,15,75,,72,72,1,3,6,6,0.3,0.3
2026-02-23T1700,1121A,125.2943,43.8508,长春市,邮电学院,颗粒物(PM10),138,225,176,18,13,77,,78,78,3,3,7,7,0.3,0.4
2026-02-23T1700,1122A,125.3648,43.8745,长春市,劳动公园,颗粒物(PM10),98,146,158,18,13,74,,74,74,6,5,6,5,0.2,0.4
2026-02-23T1700,1123A,125.3233,43.8781,长春市,园林处,颗粒物(PM10),115,179,158,19,13,74,,75,75,1,2,7,6,0.2,0.2
2026-02-23T1700,1124A,125.4604,43.7904,长春市,净月潭,颗粒物(PM10),126,202,162,18,12,78,,76,76,3,4,5,5,0.2,0.2
2026-02-23T1700,1126A,125.38,43.8422,长春市,经开区环卫处,,,,161,,12,77,,77,77,6,4,4,4,0.2,0.2
2026-02-23T1700,1127A,125.234,43.7761,长春市,高新区管委会,颗粒物(PM10),160,269,159,15,11,78,,77,77,2,2,7,6,0.5,0.4
2026-02-23T1700,1128A,125.1695,43.83,长春市,岱山公园,颗粒物(PM10),177,304,192,16,14,72,,74,74,2,2,4,4,0.4,0.4
2026-02-23T1700,4281A,125.334645,43.916281,长春市,北亚泰大街1068号,颗粒物(PM10),121,191,185,18,14,70,,70,70,9,6,7,6,0.2,0.2
2026-02-23T1700,1335A,113.082,28.2421,长沙市,经开区环保局,,34,34,55,20,38,57,,55,53,6,12,3,7,0.5,0.6
2026-02-23T1700,1336A,112.8873,28.2202,长沙市,高开区环保局,,40,31,56,28,45,63,,54,54,8,12,5,6,0.9,1.1
2026-02-23T1700,1337A,113.0785,28.2012,长沙市,马坡岭,,45,41,62,31,45,52,,57,57,7,20,4,6,0.7,0.8
2026-02-23T1700,1338A,112.9448,28.1894,长沙市,湖南师范大学,,38,38,61,21,35,65,,69,55,6,13,3,5,0.8,0.8
2026-02-23T1700,1339A,113.0177,28.1322,长沙市,雨花区环保局,,38,37,64,26,36,59,,74,57,12,15,7,8,0.9,1
2026-02-23T1700,1340A,112.9795,28.2593,长沙市,伍家岭,,36,36,69,22,42,60,,49,49,3,15,5,6,0.7,0.9
2026-02-23T1700,1341A,113.002,28.1944,长沙市,火车新站,,38,37,68,26,47,56,,53,53,8,26,2,3,0.7,1
2026-02-23T1700,1342A,112.9846,28.1177,长沙市,天心区环保局,,43,43,64,27,37,61,,81,62,11,11,5,6,0.8,0.9
2026-02-23T1700,1343A,112.8906,28.1307,长沙市,湖南中医药大学,,44,44,63,27,40,66,,62,60,6,17,5,6,0.8,0.9
2026-02-23T1700,1727A,113.1146,36.1547,长治市,清华站,,49,49,200,25,75,78,,70,70,6,10,7,10,0.6,0.7
2026-02-23T1700,1730A,113.0887,36.2126,长治市,审计局,,35,35,202,20,76,80,,65,65,5,15,7,10,0.4,0.7
2026-02-23T1700,1731A,113.0845,36.1856,长治市,长治八中,,47,47,225,20,78,83,,66,66,2,11,8,11,0.4,0.7
2026-02-23T1700,2845A,113.1561,36.1912,长治市,德盛苑,颗粒物(PM10),51,51,200,28,81,84,,74,74,8,13,6,9,0.5,0.8
2026-02-23T1700,3568A,113.0603,36.0464,长治市,向阳小学,颗粒物(PM10),58,66,198,23,69,77,,69,69,6,10,7,15,0.5,0.4
2026-02-23T1700,3569A,112.8788,36.315,长治市,屯留一中,,40,40,199,18,72,84,,62,62,4,24,6,17,0.2,0.7
2026-02-23T1700,4189A,113.113092,36.199482,长治市,英华南巷50号,颗粒物(PM10),56,62,222,32,91,86,,70,70,6,11,5,9,0.5,0.8
2026-02-23T1700,4190A,113.23666,36.33435,长治市,学府街1号,颗粒物(PM10),62,73,267,33,79,80,,63,63,11,25,5,11,0.5,0.9
2026-02-23T1700,1854A,111.696,28.9725,常德市,市二中,颗粒物(PM10),55,59,90,38,50,61,,52,52,7,8,5,7,1.2,1.3
2026-02-23T1700,3138A,111.7152,29.0288,常德市,武陵区永安,颗粒物(PM10),61,72,101,42,50,61,,57,57,9,10,4,6,0.9,1
2026-02-23T1700,3139A,111.6891,28.9881,常德市,鼎城区玉霞,细颗粒物(PM2.5),52,50,90,36,49,61,,55,55,12,12,5,6,0.9,1
2026-02-23T1700,3140A,111.6651,29.0526,常德市,武陵区长庚,细颗粒物(PM2.5),59,60,93,42,49,59,,60,56,7,8,5,7,0.8,0.9
2026-02-23T1700,1196A,119.9524,31.7586,常州市,市监测站,,,92,103,,20,95,,90,90,12,13,9,10,0.2,0.4
2026-02-23T1700,1200A,119.9351,31.703,常州市,武进监测站,颗粒物(PM10),68,86,110,14,18,94,,86,86,6,9,6,8,0.5,0.6
2026-02-23T1700,3002A,119.9701,31.813,常州市,行政中心,颗粒物(PM10),82,114,140,19,19,87,,83,83,11,12,4,5,0.4,0.5
2026-02-23T1700,3003A,120.0434,31.7726,常州市,经开区,颗粒物(PM10),76,102,108,16,17,94,,92,92,5,5,6,7,0.6,0.6
2026-02-23T1700,3010A,119.8919,31.7892,常州市,钟楼,颗粒物(PM10),74,98,109,16,18,93,,88,88,12,13,6,8,0.5,0.6
2026-02-23T1700,3429A,119.8595,31.706,常州市,武进经发区,,,,136,,25,99,,87,87,,10,6,7,,0.7
2026-02-23T1700,3430A,119.5812,31.7256,常州市,金坛城区,颗粒物(PM10),67,84,137,21,29,100,,89,89,6,9,6,7,0.5,0.6
2026-02-23T1700,4089A,119.9551,31.863,常州市,崇义南街5-H号,颗粒物(PM10),76,102,119,19,19,88,,85,85,13,13,5,5,0.6,0.6
2026-02-23T1700,2220A,120.4318,41.588,朝阳市,西梁,,37,37,46,15,13,97,,84,84,13,14,7,6,0.7,0.7
2026-02-23T1700,2221A,120.452,41.565,朝阳市,河畔小区,,33,33,32,11,9,87,,79,79,8,9,13,9,0.6,0.6
2026-02-23T1700,2222A,120.4176,41.5648,朝阳市,八里堡,,32,32,32,17,10,83,,72,72,12,13,10,10,0.4,0.4
2026-02-23T1700,3026A,116.6179,23.6608,潮州市,市政府,颗粒物(PM10),83,115,77,31,53,115,,108,108,3,9,4,5,0.5,0.8
2026-02-23T1700,4036A,116.646,23.676,潮州市,金山,颗粒物(PM10),74,97,78,35,56,122,,112,112,6,10,3,3,0.6,0.8
2026-02-23T1700,2473A,113.0116,25.8228,郴州市,市职中,,,30,40,21,32,87,,71,71,4,11,,7,0.4,0.6
2026-02-23T1700,2475A,113.0381,25.8074,郴州市,市审计局,,33,33,46,19,36,88,,76,76,3,17,3,4,/,/
2026-02-23T1700,2476A,113.0348,25.7757,郴州市,市环保局,,33,33,46,22,31,88,,76,76,4,18,4,4,0.2,0.4
2026-02-23T1700,4252A,113.0138,25.8011,郴州市,好美居路49号,,30,26,42,16,32,93,,83,83,3,17,4,4,/,/
2026-02-23T1700,1431A,103.9727,30.7242,成都市,金泉两河,,,56,83,,,96,,79,79,11,27,3,14,0.5,0.7
2026-02-23T1700,1432A,104.1423,30.6765,成都市,十里店,颗粒物(PM10),52,53,94,28,65,97,,74,74,5,22,4,6,0.6,0.8
2026-02-23T1700,1433A,104.0594,30.5765,成都市,三瓦窑,颗粒物(PM10),52,54,79,28,66,106,,77,77,5,36,3,3,0.4,0.7
2026-02-23T1700,1434A,104.1122,30.6306,成都市,沙河铺,颗粒物(PM10),51,52,85,30,69,89,,66,66,14,38,4,4,0.5,0.8
2026-02-23T1700,2880A,104.0219,30.6561,成都市,大石西路,颗粒物(PM10),56,61,98,38,75,98,,76,76,8,27,6,7,0.5,0.5
2026-02-23T1700,3136A,104.2724,30.559,成都市,龙泉驿区区政府,颗粒物(PM10),54,58,73,24,62,91,,76,76,3,14,6,7,0.4,0.7
2026-02-23T1700,3357A,104.0028,30.6891,成都市,金博路,,43,36,75,30,58,97,,74,74,11,30,6,12,0.8,1
2026-02-23T1700,3359A,104.056,30.5228,成都市,华阳,细颗粒物(PM2.5),69,56,88,50,79,102,,72,72,16,44,3,3,0.6,0.9
2026-02-23T1700,3488A,104.387954,30.746684,成都市,青石路225号,颗粒物(PM10),62,74,79,24,62,87,,75,75,5,31,4,3,0.4,0.8
2026-02-23T1700,3489A,104.0788,30.4054,成都市,科学城,细颗粒物(PM2.5),75,69,84,55,69,102,,70,70,16,18,8,8,0.8,0.8
2026-02-23T1700,4011A,103.8505,30.6946,成都市,光华大道三段,颗粒物(PM10),57,63,102,32,63,100,,84,84,12,27,4,10,0.4,0.7
2026-02-23T1700,4144A,104.3257,30.6406,成都市,八角井街185号,颗粒物(PM10),75,99,80,22,59,74,,69,69,13,23,5,5,0.5,0.8
2026-02-23T1700,4224A,104.2433276,30.53529463,成都市,鲸龙路1057号,,36,35,86,25,70,99,,81,81,4,25,5,7,0.6,0.9
2026-02-23T1700,1062A,117.9531,40.908,承德市,铁路,,25,21,40,10,11,80,,74,74,6,9,3,2,0.3,0.3
2026-02-23T1700,1063A,117.9397,40.9763,承德市,中国银行,,35,35,48,14,8,79,,72,72,5,7,4,2,0.4,0.3
2026-02-23T1700,4073A,117.9462,40.95,承德市,杏林街1号,,26,26,38,15,13,82,,76,76,4,6,4,3,0.3,0.3
2026-02-23T1700,4274A,117.7994,40.9605,承德市,滨河大街98号,,45,45,39,21,13,75,,69,69,12,8,25,10,0.8,0.5
2026-02-23T1700,2314A,117.4698,30.6617,池州市,池州学院,颗粒物(PM10),117,184,249,50,67,82,,78,78,24,22,7,6,0.8,0.8
2026-02-23T1700,3237A,117.4918,30.6617,池州市,展览馆,颗粒物(PM10),121,191,246,52,75,84,,81,81,19,14,12,5,0.7,0.7
2026-02-23T1700,3333A,117.5626,30.695,池州市,第八中学,颗粒物(PM10),124,197,254,43,58,85,,81,81,19,18,7,5,0.4,0.4
2026-02-23T1700,3334A,117.5037,30.6242,池州市,第十二中学,颗粒物(PM10),122,193,262,46,58,84,,79,79,12,11,9,6,0.6,0.7
2026-02-23T1700,1744A,118.9229,42.2816,赤峰市,松山一中,,26,,20,18,9,69,,68,68,12,13,3,5,0.6,0.5
2026-02-23T1700,1745A,118.9588,42.2733,赤峰市,哈达街,,23,20,27,12,8,71,,68,68,9,8,6,6,0.6,0.7
2026-02-23T1700,1746A,118.8792,42.2551,赤峰市,天义路,,25,14,18,12,5,77,,78,78,8,6,5,6,0.5,0.6
2026-02-23T1700,3058A,119.2656,42.0356,赤峰市,银河街,,36,36,29,9,12,91,,90,90,3,4,8,9,0.4,0.5
2026-02-23T1700,3286A,118.9359,42.3146,赤峰市,桥北物流园区,,29,11,15,8,7,90,,87,87,2,3,4,4,0.3,0.3
2026-02-23T1700,2521A,107.3473,22.4137,崇左市,市环保局江州分局,,28,28,66,18,47,40,,36,36,8,20,4,4,0.6,0.9
2026-02-23T1700,4256A,107.375,22.3736,崇左市,石景林东路7号,细颗粒物(PM2.5),58,55,42,41,34,35,,37,37,11,18,4,3,0.8,0.8
2026-02-23T1700,3207A,118.31131,32.3033,滁州市,市政府原办公楼,颗粒物(PM10),92,134,195,46,53,88,,83,83,9,16,5,7,0.3,0.4
2026-02-23T1700,3331A,118.3268,32.2633,滁州市,图书馆,颗粒物(PM10),94,137,212,32,41,92,,85,85,11,13,8,9,0.2,0.4
2026-02-23T1700,4101A,118.3196,32.3335,滁州市,银山路666号,颗粒物(PM10),107,163,215,36,42,97,,90,90,9,10,9,8,0.6,0.6
2026-02-23T1700,4102A,118.3426,32.2979,滁州市,黄山路555号,颗粒物(PM10),106,162,234,35,38,94,,84,84,4,9,7,8,0.5,0.6
2026-02-23T1700,2606A,101.5379,25.0492,楚雄彝族自治州,市经济开发区,,40,39,37,22,23,128,,121,121,3,9,3,4,0.4,0.4
2026-02-23T1700,4153A,101.5536,25.0343,楚雄彝族自治州,团结路562号,,40,31,27,19,19,128,,121,121,3,5,4,4,0.4,0.4
2026-02-23T1700,2549A,107.5087,31.2186,达州市,市环境监测站,,35,35,67,12,47,58,,41,41,9,32,6,7,0.1,0.4
2026-02-23T1700,2550A,107.4988,31.2132,达州市,凤凰小区,,24,24,68,12,49,58,,40,40,9,40,6,7,0.2,0.7
2026-02-23T1700,2551A,107.5081,31.1987,达州市,达县机关宾馆,,27,27,72,3,56,59,,40,40,12,45,4,5,0.6,1.2
2026-02-23T1700,2552A,107.4644,31.2124,达州市,市政中心,,44,44,75,11,52,60,,35,35,10,48,6,6,0.3,0.9
2026-02-23T1700,2614A,100.2168,25.5818,大理白族自治州,大理市环境监测站,,39,32,29,21,22,123,,119,119,7,6,7,7,0.7,0.7
2026-02-23T1700,2615A,100.1542,25.7055,大理白族自治州,大理古城,,40,,28,28,21,120,,125,123,4,4,9,8,0.6,0.6
2026-02-23T1700,1109A,121.6119,38.974,大连市,甘井子,,29,28,42,7,11,91,,88,88,8,9,6,8,0.5,0.5
2026-02-23T1700,1110A,121.565,38.9509,大连市,周水子,,28,28,44,7,10,85,,82,82,6,8,10,9,0.2,0.3
2026-02-23T1700,1111A,121.5637,38.8849,大连市,星海三站,,26,24,41,3,7,82,,82,82,7,7,4,5,0.5,0.5
2026-02-23T1700,1112A,121.6301,38.9117,大连市,青泥洼桥,,28,21,36,3,9,88,,88,88,8,11,7,8,0.3,0.4
2026-02-23T1700,1113A,121.6248,38.8643,大连市,傅家庄,,27,22,32,3,6,85,,84,84,5,4,5,6,0.2,0.3
2026-02-23T1700,1114A,121.5117,38.8636,大连市,七贤岭,,30,30,48,3,7,84,,83,83,8,8,5,6,0.4,0.4
2026-02-23T1700,1116A,121.7507,39.1339,大连市,金州,,26,26,37,7,10,81,,84,84,8,4,9,9,0.2,0.2
2026-02-23T1700,1117A,121.7811,39.0495,大连市,开发区,,28,28,43,6,12,86,,82,82,6,10,3,5,0.2,0.3
2026-02-23T1700,1118A,121.9762,39.0631,大连市,双D港,,28,22,31,3,6,87,,89,89,11,7,7,6,0.6,0.6
2026-02-23T1700,4082A,121.2548,38.8188,大连市,旅顺,,40,40,45,6,9,78,,79,79,10,8,7,8,0.4,0.4
2026-02-23T1700,1789A,124.8085,46.0381,大庆市,大同区,颗粒物(PM10),79,107,65,13,10,83,,84,84,6,3,8,9,0.3,0.3
2026-02-23T1700,1790A,125.1166,46.5255,大庆市,龙凤区,,50,50,45,14,13,75,,74,74,10,12,3,3,0.0,0.1
2026-02-23T1700,1791A,124.8894,46.4007,大庆市,红岗区,颗粒物(PM10),53,56,47,10,10,55,,65,56,7,6,6,6,0.2,0.2
2026-02-23T1700,1792A,125.1391,46.578,大庆市,萨尔图区,颗粒物(PM10),66,81,60,9,9,70,,70,70,10,9,6,5,0.4,0.3
2026-02-23T1700,1793A,124.9026,46.6217,大庆市,让胡路区,,,48,35,18,12,65,,66,66,8,8,,16,0.3,0.3
2026-02-23T1700,3481A,125.127,46.6277,大庆市,萨区政府监测点,颗粒物(PM10),54,58,38,9,8,75,,77,77,2,2,8,8,0.2,0.2
2026-02-23T1700,1723A,113.2926,40.0759,大同市,云冈宾馆,,41,41,67,12,21,82,,69,69,8,14,5,13,0.7,1.2
2026-02-23T1700,1724A,113.3437,40.0921,大同市,大同大学,颗粒物(PM10),59,68,67,24,26,91,,78,78,8,13,1,18,0.4,0.6
2026-02-23T1700,1725A,113.2637,40.129,大同市,安家小村,颗粒物(PM10),55,60,76,10,24,94,,73,73,6,16,10,16,0.3,1.1
2026-02-23T1700,3282A,113.3399,40.0586,大同市,大同市卫生学校,颗粒物(PM10),55,59,64,10,18,92,,78,78,9,14,3,12,0.3,0.7
2026-02-23T1700,3565A,113.1371,40.1122,大同市,云冈站,,42,42,73,10,21,90,,70,70,6,18,6,15,0.4,0.6
2026-02-23T1700,3566A,113.1186,40.2556,大同市,图书馆,颗粒物(PM10),52,54,67,11,21,92,,72,72,3,8,3,11,0.2,0.4
2026-02-23T1700,3567A,113.5931,40.0459,大同市,区一中,颗粒物(PM10),67,83,77,17,24,93,,84,84,7,8,13,12,0.3,0.5
2026-02-23T1700,4199A,113.2798248,40.09972476,大同市,魏都大道141号,颗粒物(PM10),54,58,79,20,21,90,,73,73,7,19,6,13,0.3,1
2026-02-23T1700,2269A,124.1068,50.4091,大兴安岭地区,科技局,,30,30,28,10,10,62,,65,63,2,1,5,4,0.4,0.4
2026-02-23T1700,3663A,124.117,50.4279,大兴安岭地区,红旗社区,,22,22,15,12,9,64,,68,65,4,3,5,5,0.3,0.2
2026-02-23T1700,1600A,124.33,40.0625,丹东市,江湾东路,,46,46,53,24,17,81,,87,87,14,10,9,10,0.4,0.4
2026-02-23T1700,1601A,124.4242,40.1513,丹东市,临江后街,颗粒物(PM10),59,67,47,33,11,86,,86,86,14,7,10,8,0.4,0.4
2026-02-23T1700,1602A,124.3935,40.1461,丹东市,元宝山,颗粒物(PM10),51,52,39,27,7,85,,81,81,8,2,11,8,0.4,0.3
2026-02-23T1700,1603A,124.3634,40.1093,丹东市,民主桥,颗粒物(PM10),54,58,58,25,14,78,,81,81,8,6,10,8,0.3,0.3
2026-02-23T1700,3541A,109.5726195,19.51688767,儋州市,第一中学子站,,20,20,22,11,11,64,,54,54,1,2,4,4,0.5,0.5
2026-02-23T1700,3542A,109.5567,19.5187,儋州市,东坡学校子站,,24,23,23,12,12,74,,61,61,3,2,5,4,0.4,0.4
2026-02-23T1700,2616A,98.5611,24.4273,德宏傣族景颇族自治州,德宏州监测站,细颗粒物(PM2.5),62,46,55,44,44,122,,90,90,8,23,8,8,0.6,0.7
2026-02-23T1700,3677A,98.5887,24.4366,德宏傣族景颇族自治州,芒市人民政府综合楼,"颗粒物(PM10),细颗粒物(PM2.5)",62,74,71,44,40,120,,88,88,6,13,5,5,0.5,0.6
2026-02-23T1700,1901A,104.424,31.1209,德阳市,东山公园,颗粒物(PM10),58,65,72,28,64,79,,78,78,2,10,2,4,0.5,0.7
2026-02-23T1700,1902A,104.3827,31.1318,德阳市,西小区,颗粒物(PM10),61,71,88,27,64,78,,75,75,7,21,3,5,0.6,0.9
2026-02-23T1700,1904A,104.3553,31.1091,德阳市,耐火材料厂,颗粒物(PM10),61,72,76,30,64,67,,69,69,16,21,1,3,0.7,0.8
2026-02-23T1700,4145A,104.4144,31.1495,德阳市,市林业局,颗粒物(PM10),61,71,85,27,65,80,,77,77,1,15,6,8,0.6,0.8
2026-02-23T1700,1622A,116.3034,37.4675,德州市,儿童乐园,颗粒物(PM10),81,112,80,58,27,68,,67,67,17,15,16,14,0.6,0.5
2026-02-23T1700,1624A,116.2992,37.4449,德州市,监理站,颗粒物(PM10),81,112,92,46,26,74,,94,94,18,13,18,15,0.9,0.9
2026-02-23T1700,3066A,116.2722,37.438,德州市,九衢泉纯净水厂,颗粒物(PM10),73,95,80,36,21,72,,76,71,18,14,12,9,0.7,0.6
2026-02-23T1700,3371A,116.3693,37.44,德州市,开发区人民医院,颗粒物(PM10),79,107,82,32,21,66,,65,65,16,14,16,14,0.6,0.5
2026-02-23T1700,3511A,116.5687,37.3331,德州市,陵城艺术中心,,,,87,,21,,,81,62,,11,,12,,0.6
2026-02-23T1700,4292A,116.352738,37.420875,德州市,新河东路,颗粒物(PM10),63,75,65,30,19,64,,65,64,14,11,16,15,0.7,0.7
2026-02-23T1700,2621A,99.7054,27.8319,迪庆藏族自治州,迪庆州站,,38,36,28,19,21,120,,123,123,5,8,5,10,0.5,0.6
2026-02-23T1700,3180A,99.7122,27.8129,迪庆藏族自治州,质量技术监督局,,39,31,22,19,16,122,,137,127,6,8,5,5,0.6,0.6
2026-02-23T1700,4257A,104.6092,35.5962,定西市,将台街,颗粒物(PM10),57,63,220,30,74,97,,91,91,2,11,9,14,0.4,0.5
2026-02-23T1700,4309A,104.6159,35.5701,定西市,正龙路62号,颗粒物(PM10),69,88,206,47,63,92,,86,86,5,10,6,15,1.4,0.7
2026-02-23T1700,1390A,113.7943,23.0132,东莞市,东城石井,,43,25,35,16,26,136,,125,125,8,18,6,5,0.6,0.6
2026-02-23T1700,1391A,113.7384,22.9659,东莞市,南城西平,,41,23,36,13,27,131,,117,117,11,19,8,7,0.5,0.6
2026-02-23T1700,3319A,113.7283,23.041,东莞市,万江金泰,,41,27,43,20,31,131,,116,116,5,15,6,6,0.7,0.8
2026-02-23T1700,4129A,113.8666,23.1062,东莞市,裕兴路,,37,32,46,14,31,116,,107,107,7,17,6,6,0.8,0.8
2026-02-23T1700,4130A,114.0076,22.9739,东莞市,教育路1号,,40,32,42,16,28,125,,117,117,7,17,5,5,0.6,0.6
2026-02-23T1700,4131A,113.7981,22.8124,东莞市,长怡路1号,,40,27,40,13,25,128,,122,122,8,24,8,9,0.7,0.7
2026-02-23T1700,1666A,118.6612,37.4313,东营市,市环保局,颗粒物(PM10),58,66,57,23,10,67,,80,77,25,17,10,8,0.7,0.6
2026-02-23T1700,3036A,118.6903,37.4337,东营市,开发区管委会,颗粒物(PM10),67,84,63,18,9,67,,80,77,24,8,11,10,0.7,0.6
2026-02-23T1700,3365A,118.5721,37.5654,东营市,垦利区民丰路,,,73,59,23,11,75,,84,83,25,18,12,11,,1.2
2026-02-23T1700,3498A,118.5063,37.8606,东营市,河口城区,颗粒物(PM10),70,90,64,26,8,82,,90,90,26,19,12,6,0.5,0.4
2026-02-23T1700,3646A,118.4979,37.4623,东营市,胜利站,颗粒物(PM10),66,81,44,25,10,60,,74,70,26,14,10,8,0.8,0.6
2026-02-23T1700,3734A,118.5753,37.4405,东营市,理想之城,颗粒物(PM10),59,68,59,22,7,70,,82,79,17,10,9,6,0.7,0.5
2026-02-23T1700,1591A,110.0024,39.8127,鄂尔多斯市,综合楼,,46,46,87,3,20,98,,81,81,4,14,6,11,0.2,0.3
2026-02-23T1700,1592A,109.9485,39.8259,鄂尔多斯市,巴音孟克林场办事处,,39,39,86,12,29,100,,87,87,4,13,4,8,0.2,0.3
2026-02-23T1700,1593A,109.7734,39.5987,鄂尔多斯市,康泽苑,,32,31,76,16,34,102,,81,81,4,11,4,6,0.3,0.3
2026-02-23T1700,1594A,109.8121,39.5987,鄂尔多斯市,华泰汽车城,,34,34,62,16,27,104,,83,83,4,14,8,10,0.3,0.3
2026-02-23T1700,1595A,109.9734,39.7884,鄂尔多斯市,奥林花园,,,44,85,,28,98,,83,83,7,22,4,6,0.2,0.4
2026-02-23T1700,2436A,114.894,30.3989,鄂州市,市政府,颗粒物(PM10),84,118,152,50,49,70,,57,57,16,29,13,35,0.9,0.9
2026-02-23T1700,2437A,114.8986,30.3714,鄂州市,赵家坝,,,125,142,,43,73,,70,70,5,15,10,15,1.0,1
2026-02-23T1700,3654A,114.8093,30.4091,鄂州市,精准医疗中心,颗粒物(PM10),82,113,132,51,51,68,,60,60,25,32,22,32,1.8,1.4
2026-02-23T1700,2454A,109.4978,30.2979,恩施土家族苗族自治州,湖北民院,细颗粒物(PM2.5),55,48,48,39,42,52,,36,36,15,16,6,6,1.0,0.9
2026-02-23T1700,3549A,109.5061,30.3771,恩施土家族苗族自治州,龙凤新区,细颗粒物(PM2.5),74,,51,54,36,38,,45,28,15,11,8,7,0.6,0.5
2026-02-23T1700,2499A,108.3411,21.6159,防城港市,沙万,,41,41,48,24,23,40,,44,42,24,20,6,7,0.5,0.6
2026-02-23T1700,2500A,108.3515,21.7733,防城港市,防城档案局,,32,24,41,22,28,47,,42,42,8,11,4,5,0.6,0.8
2026-02-23T1700,2501A,108.3506,21.6414,防城港市,大海花园,,36,36,37,24,25,44,,48,48,19,15,6,8,0.5,0.6
2026-02-23T1700,1371A,113.1293,23.0065,佛山市,湾梁,,49,39,40,23,32,154,,106,106,10,13,/,/,/,/
2026-02-23T1700,1372A,113.1082,23.0477,佛山市,华材职中,细颗粒物(PM2.5),54,46,43,38,36,160,,118,118,12,16,6,6,0.5,0.5
2026-02-23T1700,1373A,113.1439,23.045,佛山市,南海气象局,,48,40,44,24,38,152,,107,107,10,14,/,/,/,/
2026-02-23T1700,1374A,113.2879,22.8094,佛山市,顺德苏岗,颗粒物(PM10),54,57,46,23,31,144,,119,119,12,15,/,/,0.6,0.8
2026-02-23T1700,1376A,112.8384,22.8678,佛山市,高明孔堂,,41,,34,26,25,129,,98,98,5,8,/,/,/,/
2026-02-23T1700,1377A,112.8835,23.1584,佛山市,三水监测站,,43,34,46,30,41,132,,98,98,9,26,3,3,0.5,0.5
2026-02-23T1700,1378A,112.8668,23.185,佛山市,三水云东海,,45,34,45,26,35,143,,108,108,14,22,/,/,/,/
2026-02-23T1700,3625A,113.2568,22.7629,佛山市,容桂街道办,,39,39,34,19,29,123,,92,92,10,12,/,/,/,/
2026-02-23T1700,1282A,119.2681,26.0506,福州市,师大,颗粒物(PM10),100,149,103,46,41,91,,107,97,9,10,3,4,0.6,0.6
2026-02-23T1700,1283A,119.2983,26.1028,福州市,五四北路,颗粒物(PM10),96,141,88,50,35,88,,107,97,12,10,4,5,0.6,0.6
2026-02-23T1700,1284A,119.2648,26.0769,福州市,杨桥西路,颗粒物(PM10),96,141,88,46,33,92,,103,99,12,10,4,5,/,/
2026-02-23T1700,3048A,119.5799,26.0937,福州市,九龙,颗粒物(PM10),103,156,150,45,44,88,,104,92,10,11,4,5,0.4,0.5
2026-02-23T1700,3526A,119.5188,25.9666,福州市,吴航,颗粒物(PM10),104,157,127,47,43,87,,103,91,11,11,5,6,0.4,0.5
2026-02-23T1700,4104A,119.3106,26.0648,福州市,路通桥巷6号,颗粒物(PM10),94,138,79,46,35,90,,111,97,9,8,/,/,/,/
2026-02-23T1700,1755A,123.7974,41.8494,抚顺市,望花区,,37,37,85,14,10,89,,88,88,6,6,3,3,0.7,0.7
2026-02-23T1700,1756A,123.9161,41.8827,抚顺市,顺城区,,32,32,54,14,8,87,,86,86,7,8,8,8,0.4,0.4
2026-02-23T1700,1757A,124.0437,41.8615,抚顺市,东洲区,,47,47,84,12,8,84,,82,82,7,7,9,9,0.4,0.5
2026-02-23T1700,1758A,123.9246,41.8638,抚顺市,新抚区,,42,42,85,13,11,90,,87,87,7,8,8,8,0.3,0.4
2026-02-23T1700,1759A,124.0972,41.8961,抚顺市,大伙房水库,,39,39,79,11,8,90,,88,88,5,4,9,15,0.4,0.4
2026-02-23T1700,1760A,123.708,41.8386,抚顺市,沈抚新城,,44,44,82,13,8,85,,84,84,4,5,6,7,0.4,0.4
2026-02-23T1700,2377A,116.3544,27.9833,抚州市,市站,,30,30,95,16,56,96,,90,90,2,3,6,8,0.9,1
2026-02-23T1700,2378A,116.3562,27.9631,抚州市,血防站,,29,29,85,12,56,90,,80,80,7,13,2,9,1.6,1.6
2026-02-23T1700,2379A,116.3561,28.0007,抚州市,采茶剧团,,36,36,90,20,51,92,,84,84,1,4,14,16,1.3,1.4
2026-02-23T1700,2380A,116.3854,27.9648,抚州市,医学分院,,30,25,87,12,43,94,,84,84,4,7,4,6,1.2,1.3
2026-02-23T1700,2207A,121.6095,41.9978,阜新市,工业园区,,26,24,49,3,10,83,,82,82,4,7,8,12,0.2,0.4
2026-02-23T1700,2208A,121.6567,42.0188,阜新市,长青街,,26,10,29,3,7,82,,81,81,3,5,6,9,0.3,0.4
2026-02-23T1700,2209A,121.6672,42.07,阜新市,农业园区,,24,16,36,3,6,76,,76,76,2,3,6,7,0.5,0.5
2026-02-23T1700,2211A,121.6343,42.0455,阜新市,玉龙新城,,26,25,41,3,8,81,,80,80,5,8,6,7,0.4,0.5
2026-02-23T1700,2301A,115.8276,32.8929,阜阳市,市监测站,颗粒物(PM10),70,89,307,35,80,56,,58,58,15,16,5,6,0.6,0.6
2026-02-23T1700,2303A,115.8551,32.8606,阜阳市,开发区,颗粒物(PM10),67,83,343,36,77,58,,60,60,7,11,4,6,0.4,0.5
2026-02-23T1700,2875A,115.783962,32.889217,阜阳市,阜阳职业技术学院,颗粒物(PM10),71,92,329,31,71,66,,65,65,10,14,6,7,0.7,0.7
2026-02-23T1700,3468A,115.79,32.8614,阜阳市,市规划展馆,颗粒物(PM10),88,125,345,34,78,67,,65,65,10,12,6,8,0.9,0.8
2026-02-23T1700,3469A,115.835101,32.918568,阜阳市,枣园社区,颗粒物(PM10),87,123,341,34,76,54,,54,54,10,15,6,8,0.6,0.6
2026-02-23T1700,2669A,102.9097,34.9841,甘南藏族自治州,州政府,颗粒物(PM10),68,86,175,35,78,78,,74,74,3,9,8,9,0.2,0.4
2026-02-23T1700,3380A,102.8915,34.9618,甘南藏族自治州,甘肃民族师范学院,颗粒物(PM10),70,90,199,26,63,89,,84,84,6,13,7,9,0.1,0.3
2026-02-23T1700,2570A,101.96,30.048,甘孜藏族自治州,水桥子,,29,16,10,8,6,92,,86,86,2,8,7,7,0.5,0.4
2026-02-23T1700,3065A,101.9534,29.9976,甘孜藏族自治州,州环保局,,31,11,7,7,8,99,,106,106,6,5,6,6,0.2,0.2
2026-02-23T1700,2363A,114.9368,25.8663,赣州市,地委,,40,40,39,19,28,97,,85,85,10,13,8,8,0.9,1.1
2026-02-23T1700,2364A,114.946,25.8483,赣州市,气象台,,38,38,44,22,30,100,,82,82,5,20,6,6,0.5,0.5
2026-02-23T1700,2365A,114.932,25.8332,赣州市,市图书馆,,35,28,40,24,32,87,,69,69,5,16,5,4,1.0,1.1
2026-02-23T1700,2366A,114.8905,25.8472,赣州市,华坚鞋城,,35,35,47,21,35,91,,75,75,7,20,6,7,0.5,0.6
2026-02-23T1700,3109A,115.0094,25.8614,赣州市,赣县区卫计委,,33,23,46,21,34,105,,86,86,7,18,8,9,0.5,0.7
2026-02-23T1700,2684A,106.2753,36.0057,固原市,监测站,颗粒物(PM10),92,134,277,36,77,88,,83,83,5,8,8,9,0.4,0.4
2026-02-23T1700,2685A,106.2384,36.0189,固原市,新区,颗粒物(PM10),94,137,270,40,80,88,,82,82,4,9,7,8,0.4,0.5
2026-02-23T1700,2544A,106.6307,30.4577,广安市,市委,细颗粒物(PM2.5),82,72,111,60,99,55,,49,49,8,35,8,9,0.7,1.2
2026-02-23T1700,2545A,106.6266,30.4662,广安市,友谊中学,"颗粒物(PM10),细颗粒物(PM2.5)",64,78,99,46,76,60,,55,55,8,26,8,9,1.0,1.3
2026-02-23T1700,2547A,106.6386,30.4551,广安市,广电花园,细颗粒物(PM2.5),80,91,111,59,105,54,,46,46,8,28,8,8,0.7,1.1
2026-02-23T1700,2902A,106.6347,30.4868,广安市,北辰小学,细颗粒物(PM2.5),87,71,101,64,94,52,,48,48,7,19,12,13,0.8,1
2026-02-23T1700,2524A,105.8211,32.4444,广元市,老城,颗粒物(PM10),97,143,86,45,45,85,,74,74,9,24,1,2,0.4,0.7
2026-02-23T1700,2526A,105.8629,32.429,广元市,监测站,颗粒物(PM10),83,116,79,44,45,84,,68,68,7,21,4,8,0.3,0.8
2026-02-23T1700,3617A,105.8047,32.4167,广元市,经开区,颗粒物(PM10),86,122,86,44,45,77,,66,66,11,23,2,5,0.4,0.8
2026-02-23T1700,1345A,113.2346,23.1423,广州市,广雅中学,,44,36,48,23,36,138,,101,101,6,21,3,3,0.5,0.6
2026-02-23T1700,1346A,113.2611,23.105,广州市,市五中,,50,31,46,20,34,160,,116,116,9,22,7,7,/,/
2026-02-23T1700,1348A,113.3477,23.0916,广州市,广东商学院,,46,29,46,18,37,146,,110,110,7,22,6,6,0.8,0.9
2026-02-23T1700,1349A,113.4332,23.105,广州市,市八十六中,臭氧1小时(O3_1h),53,28,42,23,32,162,,127,127,13,34,5,5,/,/
2026-02-23T1700,1350A,113.3506,22.9488,广州市,番禺中学,,45,30,63,22,34,142,,107,107,9,19,4,4,0.8,0.8
2026-02-23T1700,1351A,113.2147,23.3918,广州市,花都师范,,45,29,59,27,51,142,,114,114,9,31,6,7,0.8,0.9
2026-02-23T1700,1352A,113.2599,23.1329,广州市,市监测站,,44,37,50,22,37,140,,104,104,8,23,1,2,/,/
2026-02-23T1700,1353A,113.5618,23.3119,广州市,九龙镇镇龙,,46,40,51,27,39,147,,106,106,10,16,6,6,0.6,0.6
2026-02-23T1700,1354A,113.2764,23.1544,广州市,麓湖,,46,38,47,24,35,145,,111,111,9,30,4,4,0.5,0.6
2026-02-23T1700,2846A,113.3209,23.1323,广州市,体育西,,45,29,50,22,36,141,,108,108,8,31,6,7,0.8,0.8
2026-02-23T1700,3298A,113.5718,23.5493,广州市,从化街口,,41,38,52,28,40,131,,103,103,9,16,8,8,0.7,0.8
2026-02-23T1700,3299A,113.3463,23.369,广州市,白云竹料,,45,35,54,23,41,141,,113,113,10,22,4,4,0.6,0.7
2026-02-23T1700,3300A,113.2981,23.2365,广州市,白云嘉禾,,47,27,52,19,38,149,,119,119,10,23,6,6,/,/
2026-02-23T1700,3301A,113.4256,23.1716,广州市,黄埔科学城,臭氧1小时(O3_1h),55,29,51,23,42,164,,136,136,8,16,6,6,0.7,0.7
2026-02-23T1700,3302A,113.3942,23.0485,广州市,番禺大学城,,49,31,56,14,37,155,,118,118,6,17,9,9,0.6,0.6
2026-02-23T1700,3303A,113.4923,22.8169,广州市,南沙黄阁,颗粒物(PM10),54,57,46,18,32,128,,108,108,14,21,6,6,/,/
2026-02-23T1700,3304A,113.534,22.7893,广州市,南沙街,,48,48,42,15,28,126,,110,110,12,21,5,5,0.6,0.6
2026-02-23T1700,3443A,113.2905,23.5541,广州市,花都梯面,,43,37,39,26,32,137,,108,108,8,13,6,5,/,/
2026-02-23T1700,3445A,113.786,23.7479,广州市,从化良口,,42,34,27,29,22,115,,87,87,6,7,5,4,/,/
2026-02-23T1700,3446A,113.805,23.2614,广州市,增城荔城,,43,32,51,22,38,137,,119,119,9,15,7,6,0.5,0.6
2026-02-23T1700,2506A,109.604387,23.066791,贵港市,江南子站,,48,48,69,23,45,64,,67,67,8,16,6,10,0.6,0.7
2026-02-23T1700,2508A,109.5669,23.1065,贵港市,荷城子站,,48,48,68,28,53,55,,60,60,16,22,8,8,0.7,0.8
2026-02-23T1700,3405A,109.5886,23.1172,贵港市,新世纪学校,,48,48,72,24,59,56,,64,64,18,24,/,/,0.6,0.8
2026-02-23T1700,4260A,109.5933,23.095,贵港市,中山路155-3号,,37,37,75,24,55,59,,62,62,9,19,/,/,0.6,0.8
2026-02-23T1700,1439A,106.6863,26.6035,贵阳市,马鞍山,,35,27,25,16,20,109,,75,75,6,7,6,5,/,/
2026-02-23T1700,1441A,106.6241,26.6266,贵阳市,鉴湖路,,40,39,34,16,22,126,,90,90,8,8,7,6,0.4,0.5
2026-02-23T1700,1442A,106.7468,26.6344,贵阳市,燕子冲,,32,27,31,19,22,101,,79,79,14,12,2,6,0.1,0.3
2026-02-23T1700,1443A,106.6556,26.4362,贵阳市,碧云窝,,36,36,30,19,21,103,,83,83,4,5,7,9,/,/
2026-02-23T1700,1445A,106.6963,26.6063,贵阳市,红边门,,32,29,35,17,26,101,,73,73,13,17,6,8,/,/
2026-02-23T1700,1446A,106.7162383,26.56964667,贵阳市,新华路,,41,41,38,14,22,108,,80,80,13,18,26,13,0.4,0.4
2026-02-23T1700,1447A,106.6742,26.542,贵阳市,太慈桥,,32,29,24,20,22,100,,65,65,7,11,4,4,/,/
2026-02-23T1700,4230A,106.688212,26.56952,贵阳市,花果园大街66号,,,31,24,18,22,93,,68,68,,12,2,3,/,/
2026-02-23T1700,4231A,106.687268,26.516892,贵阳市,漓江路57号,,33,31,30,17,21,105,,77,77,8,10,7,7,0.4,0.6
2026-02-23T1700,1864A,110.3091,25.2705,桂林市,龙隐路小学,细颗粒物(PM2.5),85,64,109,63,92,44,,24,24,24,25,6,6,1.0,1.3
2026-02-23T1700,1865A,110.2849361,25.22909545,桂林市,八中,颗粒物(PM10),67,84,92,35,53,37,,21,21,30,25,6,7,1.1,1.2
2026-02-23T1700,3531A,110.296,25.1254,桂林市,旅游学院,细颗粒物(PM2.5),74,74,70,54,60,59,,38,38,8,11,7,6,0.8,0.9
2026-02-23T1700,4222A,110.1835,25.2444,桂林市,环湖路276号,细颗粒物(PM2.5),69,63,73,50,64,46,,21,21,12,20,6,15,0.8,1.1
2026-02-23T1700,4301A,110.2803,25.2773,桂林市,信义路13号,细颗粒物(PM2.5),77,79,103,56,83,33,,20,20,26,23,7,8,1.2,1.5
2026-02-23T1700,2674A,100.2262,34.4854,果洛藏族自治州,玛沁县大武镇,,50,50,34,19,11,94,,94,94,2,2,6,9,0.3,0.3
2026-02-23T1700,1130A,126.5557,45.8109,哈尔滨市,松北商大,颗粒物(PM10),64,77,57,6,9,75,,76,76,1,2,5,6,0.5,0.5
2026-02-23T1700,1132A,126.6162,45.719,哈尔滨市,南岗学府路,颗粒物(PM10),100,150,87,6,6,73,,78,78,4,5,5,6,0.1,0.4
2026-02-23T1700,1133A,126.6894,45.7733,哈尔滨市,太平宏伟公园,颗粒物(PM10),81,111,81,3,6,78,,78,78,3,4,4,5,0.4,0.5
2026-02-23T1700,1134A,126.6361,45.7672,哈尔滨市,道外承德广场,颗粒物(PM10),122,194,140,13,6,76,,75,75,5,7,6,6,0.2,0.2
2026-02-23T1700,1136A,126.644,45.7261,哈尔滨市,动力和平路,颗粒物(PM10),101,151,86,3,7,77,,75,75,2,3,2,3,0.7,0.7
2026-02-23T1700,1137A,126.5933,45.7479,哈尔滨市,道里建国路,,,,61,,7,77,,76,76,,8,7,5,0.5,0.1
2026-02-23T1700,1138A,126.6127,45.6119,哈尔滨市,平房东轻厂,颗粒物(PM10),87,123,90,7,6,66,,64,64,4,4,2,3,0.6,0.6
2026-02-23T1700,1139A,126.5875,45.9827,哈尔滨市,呼兰师专,颗粒物(PM10),64,77,56,3,4,71,,70,70,1,2,5,6,0.3,0.3
2026-02-23T1700,1140A,126.6299,45.6799,哈尔滨市,省农科院,,,127,72,10,7,72,,72,72,4,4,,,0.2,0.2
2026-02-23T1700,4282A,126.6769,45.7379,哈尔滨市,华山路1号,颗粒物(PM10),107,163,96,10,5,78,,77,77,5,6,5,6,0.4,0.4
2026-02-23T1700,4283A,126.9717,45.5356,哈尔滨市,解放大街52号,颗粒物(PM10),89,128,89,10,7,77,,76,76,2,3,3,3,0.4,0.4
2026-02-23T1700,2688A,93.5124,42.8176,哈密市,地区监测站,,29,29,50,13,17,89,,79,79,3,7,5,6,0.1,0.2
2026-02-23T1700,2689A,93.5014,42.8312,哈密市,哈密师范学校,,33,33,46,7,17,90,,78,78,5,16,7,8,0.6,0.8
2026-02-23T1700,2671A,100.9016,36.9464,海北藏族自治州,海晏县西海镇,,33,30,110,16,40,103,,82,82,2,2,6,9,0.3,0.5
2026-02-23T1700,3867A,102.074,36.5056,海东市,平安区公安局北苑,颗粒物(PM10),96,142,290,66,117,89,,69,69,2,8,8,22,0.5,0.7
2026-02-23T1700,4163A,102.0984,36.5119,海东市,滨河路,颗粒物(PM10),108,166,321,65,104,96,,76,76,11,19,9,27,0.5,0.6
2026-02-23T1700,1410A,110.3189,20.0596,海口市,海南大学,,24,21,28,15,18,74,,76,76,3,4,6,6,0.4,0.4
2026-02-23T1700,1411A,110.2827,20.0051,海口市,秀英海南医院,,22,22,27,13,19,63,,67,67,5,8,8,8,0.3,0.3
2026-02-23T1700,1412A,110.3391,19.9979,海口市,海南师范大学,,22,20,28,14,19,70,,74,74,3,5,6,6,0.3,0.4
2026-02-23T1700,1413A,110.3303,20.0359,海口市,龙华路环保局宿舍,,23,21,26,14,18,71,,76,76,5,6,/,/,0.5,0.7
2026-02-23T1700,3539A,110.5111,19.9737,海口市,桂林洋子站,,23,19,27,13,18,73,,75,75,3,4,/,/,/,/
2026-02-23T1700,4134A,110.1952,20.0451,海口市,长滨二路9号,,26,23,24,18,18,82,,76,76,3,3,/,/,/,/
2026-02-23T1700,2673A,100.6158,36.2985,海南藏族自治州,共和县恰卜恰镇,颗粒物(PM10),53,55,42,19,17,106,,99,99,2,6,10,10,0.2,0.3
2026-02-23T1700,2676A,97.373,37.376,海西蒙古族藏族自治州,德令哈市,颗粒物(PM10),85,119,33,26,13,115,,104,104,1,4,16,19,0.3,0.4
2026-02-23T1700,1049A,114.492,36.5712,邯郸市,矿院,颗粒物(PM10),59,68,182,25,74,58,,64,63,11,6,4,2,0.4,0.4
2026-02-23T1700,1050A,114.4839,36.6136,邯郸市,丛台公园,细颗粒物(PM2.5),59,50,166,42,69,58,,66,65,17,12,4,3,0.5,0.4
2026-02-23T1700,3458A,114.7893,36.5592,邯郸市,香泉濮院小区,颗粒物(PM10),61,71,205,20,45,59,,64,64,10,8,3,2,0.5,0.4
2026-02-23T1700,3580A,114.1998,36.4439,邯郸市,峰峰矿区临水派出所,颗粒物(PM10),51,52,179,13,51,61,,64,64,9,6,6,4,0.6,0.6
2026-02-23T1700,4068A,114.5209,36.7697,邯郸市,建安街268号,颗粒物(PM10),55,59,152,32,53,62,,63,63,7,8,6,3,0.3,0.3
2026-02-23T1700,4069A,114.5488,36.6177,邯郸市,丛台东路558号,,40,40,156,26,70,66,,66,66,12,14,3,3,0.4,0.4
2026-02-23T1700,2635A,107.0155,33.0707,汉中市,市监测站,颗粒物(PM10),64,77,125,32,52,53,,54,49,10,16,4,5,0.7,0.8
2026-02-23T1700,2636A,107.0083,33.114,汉中市,鑫源开发区,颗粒物(PM10),60,70,116,36,59,55,,51,51,11,13,5,5,0.7,0.6
2026-02-23T1700,2637A,107.0072,33.0323,汉中市,南郑大河坎水厂,颗粒物(PM10),61,72,132,38,64,54,,50,47,10,17,4,6,0.7,0.8
2026-02-23T1700,1223A,120.2073,30.2111,杭州市,滨江,颗粒物(PM10),97,144,194,30,35,106,,102,102,10,12,7,7,0.4,0.5
2026-02-23T1700,1224A,120.0625,30.2737,杭州市,西溪,颗粒物(PM10),100,149,165,34,40,102,,100,100,7,6,9,9,0.6,0.6
2026-02-23T1700,1226A,120.3417,30.315,杭州市,下沙,颗粒物(PM10),72,93,138,20,32,99,,91,91,12,13,8,8,0.2,0.2
2026-02-23T1700,1227A,120.1252,30.2465,杭州市,卧龙桥,颗粒物(PM10),92,133,158,32,36,100,,99,99,8,8,8,8,0.2,0.2
2026-02-23T1700,1228A,120.1902,30.2691,杭州市,浙江农大,颗粒物(PM10),84,118,148,27,33,109,,102,102,7,8,6,6,0.5,0.5
2026-02-23T1700,1230A,120.1195,30.3121,杭州市,和睦小学,颗粒物(PM10),83,116,162,25,37,103,,99,99,7,7,5,5,0.3,0.4
2026-02-23T1700,1231A,120.3076,30.4146,杭州市,临平镇,颗粒物(PM10),61,71,155,16,29,104,,97,97,8,10,6,6,0.3,0.3
2026-02-23T1700,1232A,120.2753,30.1839,杭州市,城厢镇,颗粒物(PM10),99,147,166,35,38,102,,100,100,6,8,8,8,0.5,0.5
2026-02-23T1700,1233A,120.0883,30.1808,杭州市,云栖,颗粒物(PM10),104,157,172,36,41,104,,101,101,12,14,5,5,0.6,0.6
2026-02-23T1700,3557A,119.9463,30.0496,杭州市,镇二中,颗粒物(PM10),113,176,195,42,44,108,,96,96,9,10,5,5,0.5,0.4
2026-02-23T1700,3558A,119.7184,30.2367,杭州市,市府大楼,颗粒物(PM10),109,167,168,45,46,105,,92,92,9,10,7,7,0.4,0.3
2026-02-23T1700,3656A,120.1554,30.2863,杭州市,消防大队,颗粒物(PM10),88,125,154,25,32,95,,91,91,9,9,7,8,0.5,0.5
2026-02-23T1700,1270A,117.1957,31.7845,合肥市,明珠广场,颗粒物(PM10),111,171,265,41,58,97,,90,90,9,12,7,8,0.5,0.6
2026-02-23T1700,1271A,117.307,31.8765,合肥市,三里街,颗粒物(PM10),103,156,232,40,52,86,,80,80,12,19,6,7,0.5,0.6
2026-02-23T1700,1272A,117.2587,31.8703,合肥市,琥珀山庄,颗粒物(PM10),112,173,264,43,55,92,,86,86,14,19,7,7,0.6,0.7
2026-02-23T1700,1275A,117.2593,31.9376,合肥市,庐阳区,颗粒物(PM10),114,178,272,43,53,88,,88,88,8,13,5,5,0.5,0.8
2026-02-23T1700,1276A,117.345251,31.861615,合肥市,瑶海区,颗粒物(PM10),109,168,278,38,50,92,,99,99,20,23,7,6,0.5,0.5
2026-02-23T1700,1277A,117.3033,31.7967,合肥市,包河区,颗粒物(PM10),112,173,271,38,52,90,,89,89,16,24,11,11,0.6,0.7
2026-02-23T1700,1278A,117.278,31.7392,合肥市,滨湖新区,,,,310,,56,,,86,,,10,,4,,0.7
2026-02-23T1700,1279A,117.1324,31.8395,合肥市,高新区,颗粒物(PM10),109,168,269,41,55,94,,88,88,8,12,5,6,0.5,0.6
2026-02-23T1700,3464A,117.3802,31.9148,合肥市,高教基地,颗粒物(PM10),106,161,251,33,46,91,,91,91,11,12,9,9,0.5,0.5
2026-02-23T1700,4098A,117.2518,31.8404,合肥市,中国科学技术大学,颗粒物(PM10),111,171,277,36,49,98,,93,93,6,8,9,9,0.6,0.7
2026-02-23T1700,3614A,79.9241,37.0878,和田地区,地区环保局,颗粒物(PM10),120,190,186,17,24,91,,82,82,4,9,2,2,0.1,0.3
2026-02-23T1700,3615A,79.9132,37.1137,和田地区,市环保局,颗粒物(PM10),104,158,169,18,32,115,,83,83,4,32,1,3,0.6,1.3
2026-02-23T1700,2517A,108.0496,24.6957,河池市,市环保站,,50,50,103,30,91,44,,27,27,7,7,4,3,0.7,1.3
2026-02-23T1700,4302A,108.0901,24.6945,河池市,上任中路54号,,45,45,95,28,83,41,,24,24,10,19,6,5,0.6,1
2026-02-23T1700,1697A,114.6962,23.7538,河源市,东埔,,36,26,38,25,32,108,,92,92,6,18,6,6,0.7,0.9
2026-02-23T1700,1698A,114.6895,23.7232,河源市,老城,,42,42,37,24,28,107,,92,92,5,10,6,6,0.6,0.6
2026-02-23T1700,3374A,115.5562,35.089,菏泽市,定陶老年大学,颗粒物(PM10),69,88,245,31,62,56,,67,63,19,16,8,7,0.5,0.3
2026-02-23T1700,4114A,115.4239,35.2593,菏泽市,黄河路600号,颗粒物(PM10),83,115,262,44,78,54,,57,54,13,12,2,4,0.4,0.4
2026-02-23T1700,4115A,115.5025,35.2727,菏泽市,菏泽市人社局,颗粒物(PM10),73,95,230,42,69,53,,59,56,18,17,5,6,0.5,0.5
2026-02-23T1700,4184A,115.479691,35.244011,菏泽市,永昌路1号,颗粒物(PM10),79,108,247,45,71,63,,69,67,13,11,4,5,0.5,0.5
2026-02-23T1700,4193A,115.471542,35.280012,菏泽市,长城路999号,颗粒物(PM10),74,97,252,43,89,58,,62,59,16,13,4,5,0.4,0.4
2026-02-23T1700,2514A,111.5264,24.4178,贺州市,环保小区,,34,34,53,17,42,88,,81,81,4,9,6,4,0.6,0.7
2026-02-23T1700,2515A,111.561,24.4074,贺州市,政协大楼,,40,40,48,20,40,83,,88,88,14,19,5,5,0.4,0.5
2026-02-23T1700,3534A,111.4744,24.455,贺州市,西湾,颗粒物(PM10),51,52,67,24,36,83,,78,78,9,13,7,6,0.7,0.8
2026-02-23T1700,2385A,114.17,35.9019,鹤壁市,市监测站,颗粒物(PM10),59,68,252,31,82,42,,47,46,17,15,5,6,1.0,0.7
2026-02-23T1700,2386A,114.2953,35.7512,鹤壁市,市交警支队,颗粒物(PM10),62,74,304,38,87,40,,39,39,20,17,9,4,1.0,0.6
2026-02-23T1700,2387A,114.2877,35.7302,鹤壁市,迎宾馆,颗粒物(PM10),63,75,322,43,92,41,,39,39,17,16,9,6,1.1,0.7
2026-02-23T1700,3474A,114.2616,35.6824,鹤壁市,大新区,,,91,347,43,86,40,,39,39,14,19,10,9,,0.8
2026-02-23T1700,3596A,114.1573,35.9607,鹤壁市,南山宾馆,颗粒物(PM10),64,77,326,41,85,37,,50,48,18,10,4,5,1.0,0.8
2026-02-23T1700,2244A,130.2537,47.3416,鹤岗市,哈啤分公司,,35,35,43,7,14,88,,87,87,4,4,8,9,0.3,0.4
2026-02-23T1700,2245A,130.2683,47.3087,鹤岗市,斯达机电,,47,47,56,11,14,83,,83,83,7,6,7,8,0.3,0.3
2026-02-23T1700,2246A,130.3114,47.3388,鹤岗市,东山纸板厂,,41,41,50,10,14,82,,81,81,3,4,7,9,0.5,0.6
2026-02-23T1700,2263A,127.4832,50.2524,黑河市,交通局,,22,22,21,13,14,69,,69,69,6,8,5,6,0.3,0.3
2026-02-23T1700,2264A,127.5146,50.2339,黑河市,环保局,,23,23,21,12,12,66,,69,68,6,6,8,8,0.3,0.2
2026-02-23T1700,1074A,115.6839,37.754,衡水市,电机北厂,颗粒物(PM10),70,90,69,29,24,73,,69,69,14,12,10,9,0.5,0.5
2026-02-23T1700,1075A,115.6303,37.7318,衡水市,市监测站,颗粒物(PM10),67,83,62,21,17,70,,66,66,13,10,10,8,0.5,0.4
2026-02-23T1700,3188A,115.6684,37.7216,衡水市,市城管局,颗粒物(PM10),84,117,72,21,20,70,,67,67,14,10,11,7,0.5,0.4
2026-02-23T1700,3459A,115.599,37.5491,衡水市,地表水厂,颗粒物(PM10),70,90,66,24,19,71,,68,68,10,6,9,7,0.5,0.4
2026-02-23T1700,2457A,112.6209,26.9268,衡阳市,衡阳化工总厂,颗粒物(PM10),55,60,48,38,35,72,,63,63,14,14,15,15,1.3,1.2
2026-02-23T1700,2458A,112.621,26.8957,衡阳市,珠晖区环保局,颗粒物(PM10),51,52,51,35,37,64,,56,56,12,21,8,8,1.3,1.2
2026-02-23T1700,2459A,112.628,26.8654,衡阳市,市委党校,颗粒物(PM10),52,54,47,33,37,77,,62,62,8,11,8,8,1.0,1.1
2026-02-23T1700,2460A,112.6007,26.8977,衡阳市,市监测站,细颗粒物(PM2.5),64,58,74,46,50,58,,58,58,32,31,9,9,1.1,1.2
2026-02-23T1700,2461A,112.5658,26.9013,衡阳市,真空机电公司,细颗粒物(PM2.5),59,64,51,42,42,60,,54,54,17,17,11,14,1.4,1.4
2026-02-23T1700,3399A,112.6703,26.8817,衡阳市,师范学院,颗粒物(PM10),51,52,46,31,34,79,,68,68,5,6,8,6,1.1,1.1
2026-02-23T1700,3038A,103.3757,23.3679,红河哈尼族彝族自治州,州图书馆,,35,29,28,24,23,108,,90,90,4,4,5,5,0.3,0.4
2026-02-23T1700,4154A,103.401,23.3561,红河哈尼族彝族自治州,蒙自市朝阳路,,35,25,17,24,22,103,,89,89,4,4,8,8,0.4,0.5
2026-02-23T1700,1090A,111.6506,40.7517,呼和浩特市,呼市一监,颗粒物(PM10),64,78,43,28,13,97,,84,84,12,13,9,7,0.5,0.5
2026-02-23T1700,1094A,111.7516,40.8369,呼和浩特市,如意水处理厂,颗粒物(PM10),55,59,38,22,16,90,,82,82,8,13,15,10,0.3,0.4
2026-02-23T1700,1095A,111.727798,40.806187,呼和浩特市,二十九中,颗粒物(PM10),57,64,40,19,17,83,,77,77,9,13,16,12,0.5,0.6
2026-02-23T1700,1097A,111.717,40.7617,呼和浩特市,化肥厂生活区,颗粒物(PM10),60,69,48,21,17,95,,87,87,8,10,7,6,0.5,0.5
2026-02-23T1700,3699A,111.6519,40.8389,呼和浩特市,海东办,颗粒物(PM10),68,85,35,18,10,90,,77,77,8,12,6,4,0.3,0.4
2026-02-23T1700,4275A,111.591512,40.827312,呼和浩特市,成吉思汗西街8号,颗粒物(PM10),64,78,34,18,11,87,,74,74,9,12,6,4,0.5,0.5
2026-02-23T1700,4276A,111.6597,40.8077,呼和浩特市,公园东路75号,颗粒物(PM10),64,78,39,20,11,84,,76,76,11,14,9,7,0.5,0.4
2026-02-23T1700,4277A,111.5427,40.7846,呼和浩特市,金海路35号,颗粒物(PM10),56,62,40,23,15,94,,80,80,9,13,9,7,0.5,0.6
2026-02-23T1700,3061A,119.7511,49.1576,呼伦贝尔市,国华电力东,,35,35,39,15,11,83,,80,80,11,13,5,6,0.4,0.4
2026-02-23T1700,4279A,119.7569,49.2222,呼伦贝尔市,伊敏大街东7号,,38,,26,26,12,73,,73,73,8,6,6,6,0.2,0.2
2026-02-23T1700,1250A,120.075,30.867,湖州市,城西水厂,,,,136,,25,117,,109,109,11,10,6,6,0.3,0.3
2026-02-23T1700,2873A,120.083,30.8929,湖州市,仁皇山新区,颗粒物(PM10),65,80,146,21,26,114,,100,100,9,8,5,5,0.3,0.3
2026-02-23T1700,2907A,120.1846,30.8592,湖州市,吴兴区站,颗粒物(PM10),67,83,126,18,27,104,,92,92,5,7,5,4,0.5,0.5
2026-02-23T1700,3562A,120.4146,30.8538,湖州市,南浔区站,颗粒物(PM10),68,85,118,19,25,108,,98,98,8,9,8,7,0.4,0.4
2026-02-23T1700,1607A,120.904878,40.721091,葫芦岛市,龙港区,,36,36,50,7,15,82,,75,75,5,11,6,11,0.3,0.4
2026-02-23T1700,1608A,120.8382,40.7521,葫芦岛市,化工街,颗粒物(PM10),58,66,58,14,17,70,,66,66,13,21,10,20,0.4,0.4
2026-02-23T1700,1609A,120.8339,40.7078,葫芦岛市,新区,,46,46,46,9,14,79,,72,72,8,16,10,10,0.5,0.5
2026-02-23T1700,1610A,120.8697,40.7679,葫芦岛市,东城区,,33,33,52,13,19,77,,74,74,13,18,10,18,0.4,0.5
2026-02-23T1700,2483A,109.9297,27.5383,怀化市,河西地税局,,32,32,33,22,23,46,,42,37,9,13,2,2,/,/
2026-02-23T1700,2484A,109.9783,27.5342,怀化市,市四医院,,32,30,30,22,25,41,,39,36,8,13,7,6,0.6,0.6
2026-02-23T1700,2485A,109.9971,27.5579,怀化市,监测楼,,39,28,33,27,25,47,,43,43,5,12,4,4,0.5,0.3
2026-02-23T1700,1210A,119.0566,33.5991,淮安市,钵池山,颗粒物(PM10),71,92,111,18,22,89,,86,86,10,10,9,9,0.3,0.3
2026-02-23T1700,1211A,119.0083,33.578,淮安市,北京南路,颗粒物(PM10),87,124,127,21,25,86,,80,80,5,9,7,7,0.4,0.4
2026-02-23T1700,1212A,118.9938,33.6083,淮安市,市监测站,颗粒物(PM10),71,92,115,20,26,90,,87,87,8,8,10,10,0.3,0.5
2026-02-23T1700,1213A,119.135,33.5038,淮安市,楚州区监测站,颗粒物(PM10),86,122,127,19,26,92,,86,86,5,7,6,6,0.5,0.5
2026-02-23T1700,3426A,118.8757,33.2897,淮安市,新华书店,颗粒物(PM10),96,141,150,23,28,83,,79,79,6,10,6,6,0.5,0.5
2026-02-23T1700,4092A,119.119691,33.550006,淮安市,枚皋中路89号,颗粒物(PM10),92,133,119,21,25,92,,86,86,9,10,10,10,0.3,0.3
2026-02-23T1700,4206A,119.028838,33.631911,淮安市,承德北路606号,颗粒物(PM10),87,124,131,19,23,89,,88,88,5,6,8,7,0.4,0.4
2026-02-23T1700,2282A,116.8005,33.9749,淮北市,监测站,颗粒物(PM10),99,147,253,39,59,82,,82,82,13,13,5,5,0.5,0.4
2026-02-23T1700,2283A,116.8094,33.9008,淮北市,烈山区政府,颗粒物(PM10),95,139,275,41,73,82,,74,73,8,8,3,4,0.3,0.3
2026-02-23T1700,4017A,116.7926,33.9534,淮北市,市博物馆,颗粒物(PM10),101,152,260,38,56,79,,77,77,13,11,2,2,0.5,0.4
2026-02-23T1700,4100A,116.8322,33.9884,淮北市,杜集区第一实验学校,颗粒物(PM10),92,133,259,33,59,81,,80,80,10,11,5,8,0.5,0.4
2026-02-23T1700,2277A,116.8304,32.7726,淮南市,潘集区政府,颗粒物(PM10),107,163,292,44,62,74,,70,70,14,15,6,6,0.4,0.4
2026-02-23T1700,2279A,116.8569,32.5949,淮南市,谢家集区政府,颗粒物(PM10),82,113,291,39,58,75,,78,78,12,10,8,8,0.5,0.5
2026-02-23T1700,2280A,116.8279,32.6333,淮南市,八公山区政府,颗粒物(PM10),91,132,290,42,61,78,,80,80,12,12,6,6,0.4,0.4
2026-02-23T1700,2894A,117.0561,32.6536,淮南市,经济技术开发区消防队,颗粒物(PM10),101,151,275,39,48,67,,74,74,24,20,6,6,0.5,0.5
2026-02-23T1700,3329A,117.011,32.5891,淮南市,山南新区,颗粒物(PM10),110,170,358,38,53,80,,82,82,14,13,7,8,0.4,0.4
2026-02-23T1700,4209A,117.003137,32.644456,淮南市,国庆中路369号,颗粒物(PM10),93,136,245,41,53,60,,71,71,16,12,8,9,0.4,0.5
2026-02-23T1700,2446A,114.9021,30.474,黄冈市,职工中心,细颗粒物(PM2.5),94,102,113,70,53,60,,70,64,11,13,5,6,0.8,0.6
2026-02-23T1700,2929A,114.8858,30.4519,黄冈市,红卫路,细颗粒物(PM2.5),82,102,106,60,53,65,,73,68,18,15,4,6,0.6,0.5
2026-02-23T1700,3398A,114.9134,30.4446,黄冈市,市林业局,细颗粒物(PM2.5),103,130,170,77,56,56,,63,59,18,16,5,4,0.6,0.5
2026-02-23T1700,2672A,102.02,35.5101,黄南藏族自治州,同仁县隆务镇,,46,46,126,10,49,96,,80,80,1,2,8,10,0.1,0.3
2026-02-23T1700,2295A,118.2905,29.6965,黄山市,延安路89号,颗粒物(PM10),80,109,114,34,39,98,,93,93,4,7,5,5,0.5,0.5
2026-02-23T1700,2297A,118.1369,30.2755,黄山市,黄山区政府5号楼,颗粒物(PM10),74,98,124,29,48,97,,92,92,3,5,3,3,0.5,0.6
2026-02-23T1700,4210A,118.335445,29.720283,黄山市,滨江东路7-2号,颗粒物(PM10),86,121,141,35,44,104,,99,99,4,9,/,/,/,/
2026-02-23T1700,2423A,115.0547,30.2332,黄石市,沈家营,颗粒物(PM10),87,124,139,46,41,77,,97,90,29,10,11,25,1.2,0.9
2026-02-23T1700,2426A,114.899,30.211,黄石市,铁山,颗粒物(PM10),71,92,120,39,42,76,,,,15,10,8,8,0.7,0.7
2026-02-23T1700,2427A,115.0259,30.2108,黄石市,团城山,颗粒物(PM10),81,112,145,48,46,53,,77,65,27,14,7,7,0.9,0.6
2026-02-23T1700,3149A,115.0174,30.1591,黄石市,笔架山北路,颗粒物(PM10),96,142,189,54,46,52,,77,62,18,8,9,10,1.2,0.9
2026-02-23T1700,4185A,115.078022,30.21118,黄石市,磁湖东路29号,颗粒物(PM10),73,96,128,44,47,64,,85,77,20,6,6,8,1.2,1
2026-02-23T1700,1392A,114.4181,23.0528,惠州市,河南岸金山湖子站,,41,32,37,19,26,130,,110,110,6,9,7,6,0.6,0.7
2026-02-23T1700,1393A,114.4055,23.0824,惠州市,下埔横江三路子站,,,28,42,16,28,131,,113,113,7,13,,7,,0.7
2026-02-23T1700,1395A,114.4645,22.7832,惠州市,惠阳区承修路船湖子站,颗粒物(PM10),51,51,41,24,29,128,,118,118,7,16,6,7,0.6,0.6
2026-02-23T1700,1396A,114.5316,22.7423,惠州市,大亚湾管委会子站,颗粒物(PM10),62,73,41,25,25,119,,115,115,6,16,7,7,0.5,0.6
2026-02-23T1700,3314A,114.4334,22.8134,惠州市,惠阳秋长,颗粒物(PM10),62,73,42,24,28,144,,133,133,6,17,/,/,/,/
2026-02-23T1700,3452A,114.6521,22.7755,惠州市,大亚湾霞涌,颗粒物(PM10),67,84,36,22,20,124,,121,121,8,11,/,/,/,/
2026-02-23T1700,4300A,114.4089,23.1147,惠州市,文华一路1号,,40,26,35,17,27,128,,112,112,6,12,/,/,/,/
2026-02-23T1700,2240A,130.9618,45.2926,鸡西市,环保局,颗粒物(PM10),100,149,145,12,12,78,,78,78,4,3,5,5,0.3,0.3
2026-02-23T1700,2243A,130.9294,45.2959,鸡西市,第一中学,颗粒物(PM10),94,138,121,11,12,80,,78,77,3,3,3,3,0.3,0.3
2026-02-23T1700,3707A,131.0069,45.2988,鸡西市,欧美日汽修厂,颗粒物(PM10),101,151,146,8,12,76,,71,71,5,6,5,7,0.4,0.3
2026-02-23T1700,2367A,114.9753,27.0803,吉安市,红声器材厂,,44,44,48,19,31,88,,71,71,3,8,8,8,0.5,0.7
2026-02-23T1700,2369A,114.9903,27.1313,吉安市,市环境监测站,,37,37,44,20,35,90,,76,76,3,8,8,9,/,/
2026-02-23T1700,2370A,115.009527,27.096792,吉安市,青原区法院,,33,33,41,18,32,96,,79,79,5,10,5,6,0.5,0.7
2026-02-23T1700,1772A,126.54,43.8622,吉林市,哈达湾,颗粒物(PM10),104,158,179,14,11,78,,80,80,3,3,5,5,0.4,0.4
2026-02-23T1700,1773A,126.5843,43.8358,吉林市,东局子,颗粒物(PM10),100,149,162,15,12,79,,82,82,3,3,3,3,0.4,0.4
2026-02-23T1700,1774A,126.5051,43.8243,吉林市,电力学院,颗粒物(PM10),105,159,163,18,13,82,,84,84,2,2,5,4,0.5,0.4
2026-02-23T1700,1775A,126.6133,43.8971,吉林市,江北,颗粒物(PM10),96,141,140,11,10,86,,86,86,5,4,8,7,0.3,0.3
2026-02-23T1700,1776A,126.5549,43.8304,吉林市,江南公园,颗粒物(PM10),98,146,140,16,12,74,,75,75,2,2,5,5,0.5,0.4
2026-02-23T1700,2868A,126.4737,43.953,吉林市,九站,颗粒物(PM10),123,195,184,21,14,75,,77,77,2,2,8,8,0.5,0.4
2026-02-23T1700,1299A,116.9866,36.6118,济南市,科干所,颗粒物(PM10),67,83,125,27,34,64,,68,67,13,14,5,9,0.6,0.6
2026-02-23T1700,1300A,116.9379,36.6652,济南市,农科所,,,,114,,40,67,,52,50,,19,5,8,0.6,0.7
2026-02-23T1700,1301A,117.1265,36.6736,济南市,开发区,颗粒物(PM10),68,85,104,33,30,68,,67,67,12,17,3,6,0.5,0.5
2026-02-23T1700,1303A,117.0616,36.6865,济南市,省种子仓库,颗粒物(PM10),74,97,112,32,31,69,,58,58,12,17,4,7,0.7,0.7
2026-02-23T1700,1304A,116.9495185,36.644937,济南市,机床二厂,细颗粒物(PM2.5),70,88,123,51,40,68,,56,54,9,16,4,7,0.3,0.5
2026-02-23T1700,1305A,117.0496,36.6629,济南市,市监测站,颗粒物(PM10),72,93,123,35,37,70,,61,61,17,20,3,6,0.4,0.5
2026-02-23T1700,1306A,116.7674,36.5458,济南市,长清党校,颗粒物(PM10),83,115,157,41,46,61,,52,52,12,17,3,6,0.6,0.6
2026-02-23T1700,1961A,117.5323,36.6865,济南市,东山小学,颗粒物(PM10),69,88,101,38,28,50,,64,64,25,18,2,6,0.7,0.5
2026-02-23T1700,3059A,117.7181,36.205,济南市,泰兴公司,颗粒物(PM10),78,105,98,36,28,75,,74,74,16,16,10,10,0.5,0.7
2026-02-23T1700,3064A,117.6861,36.2172,济南市,莱芜战役纪念馆,,,,94,31,24,64,,64,64,,14,9,7,0.7,0.6
2026-02-23T1700,3494A,117.1673,36.9782,济南市,济阳区政府,颗粒物(PM10),79,107,97,40,27,48,,62,54,21,11,10,11,0.4,0.3
2026-02-23T1700,3495A,117.1168,36.6299,济南市,锦屏中学,颗粒物(PM10),78,105,153,41,47,70,,69,69,10,13,6,6,0.6,0.6
2026-02-23T1700,4108A,117.7107,36.2385,济南市,山财大街5号,颗粒物(PM10),81,112,98,27,25,73,,70,70,19,17,12,12,0.7,0.7
2026-02-23T1700,4109A,116.9744,36.6889,济南市,无影山路12号,颗粒物(PM10),65,80,107,32,32,64,,52,49,15,19,4,8,0.5,0.6
2026-02-23T1700,1653A,116.6229,35.4288,济宁市,火炬城,,,89,174,29,47,61,,66,65,,14,,4,0.5,0.4
2026-02-23T1700,3500A,116.5808,35.3703,济宁市,北湖一中,颗粒物(PM10),65,79,154,30,42,64,,68,68,16,13,8,8,0.6,0.5
2026-02-23T1700,3501A,116.8251,35.5592,济宁市,服务中心,颗粒物(PM10),71,92,185,35,45,63,,67,67,19,18,5,3,0.3,0.1
2026-02-23T1700,3678A,116.5907,35.4054,济宁市,市第七中学,颗粒物(PM10),75,99,184,28,43,68,,73,72,20,16,6,4,0.6,0.5
2026-02-23T1700,4111A,116.6075,35.4566,济宁市,任和路,颗粒物(PM10),68,85,177,37,51,66,,67,67,17,16,7,6,0.7,0.6
2026-02-23T1700,4112A,116.5648,35.3921,济宁市,文体南路1号,颗粒物(PM10),64,78,171,26,42,66,,70,70,16,12,5,4,0.4,0.3
2026-02-23T1700,2255A,130.2749,46.8028,佳木斯市,佳纺,颗粒物(PM10),51,51,85,14,13,74,,74,74,3,2,5,5,0.4,0.4
2026-02-23T1700,2257A,130.3258,46.7975,佳木斯市,环保局,,40,40,83,7,10,81,,81,81,2,2,7,8,0.3,0.3
2026-02-23T1700,4285A,130.363,46.806,佳木斯市,顺和街,,44,44,86,16,13,72,,73,73,6,6,6,6,0.4,0.4
2026-02-23T1700,4286A,130.3952,46.8268,佳木斯市,长安路196号,,45,45,99,6,11,78,,78,78,3,3,3,3,0.3,0.3
2026-02-23T1700,1252A,120.7439,30.778,嘉兴市,清河小学,颗粒物(PM10),66,81,142,7,13,106,,98,98,10,11,6,6,0.4,0.5
2026-02-23T1700,1253A,120.7261,30.7477,嘉兴市,嘉兴学院,,,,128,17,23,103,,95,95,9,10,6,5,0.5,0.5
2026-02-23T1700,2872A,120.7845,30.7524,嘉兴市,南湖区残联,颗粒物(PM10),65,80,133,18,26,101,,93,93,11,13,4,4,0.4,0.4
2026-02-23T1700,3407A,120.6915,30.7741,嘉兴市,秀洲住建,颗粒物(PM10),63,75,133,15,23,111,,102,102,11,12,7,7,0.5,0.6
2026-02-23T1700,1945A,98.291,39.7705,嘉峪关市,气象局,颗粒物(PM10),52,53,97,24,29,99,,88,88,9,8,27,12,0.8,0.5
2026-02-23T1700,2884A,98.2672,39.7978,嘉峪关市,酒钢宾馆,细颗粒物(PM2.5),59,63,97,42,35,89,,85,85,13,7,38,17,1.2,0.5
2026-02-23T1700,3248A,98.2644,39.7723,嘉峪关市,雄关区,,44,44,79,16,23,98,,86,86,10,14,14,8,0.8,0.5
2026-02-23T1700,1383A,113.1063,22.6058,江门市,北街,,41,36,36,20,30,129,,107,107,11,11,/,/,/,/
2026-02-23T1700,1384A,113.073,22.5835,江门市,西区,,48,48,37,19,30,130,,110,110,11,16,/,/,/,/
2026-02-23T1700,1385A,113.0218,22.531,江门市,圭峰西,,50,50,36,20,28,125,,108,108,7,9,/,/,/,/
2026-02-23T1700,1386A,113.0826,22.5947,江门市,东湖,,40,36,39,16,30,128,,108,108,7,11,7,7,0.5,0.5
2026-02-23T1700,3311A,113.1077,22.5647,江门市,江海富民,颗粒物(PM10),52,53,47,19,31,135,,114,114,11,16,/,/,0.5,0.5
2026-02-23T1700,3449A,113.0496,22.4669,江门市,新会银湖,颗粒物(PM10),54,57,35,19,29,127,,110,110,2,10,7,6,0.5,0.5
2026-02-23T1700,3335A,113.3137,35.2643,焦作市,马村街道办,,,104,308,,73,41,,58,49,16,11,7,7,0.6,0.4
2026-02-23T1700,3336A,113.2464,35.2374,焦作市,焦作技师学院,颗粒物(PM10),81,112,320,47,92,38,,58,46,14,13,7,6,0.6,0.4
2026-02-23T1700,3477A,113.1656,35.2536,焦作市,中站许衡医院,颗粒物(PM10),83,116,262,47,65,38,,74,50,14,9,8,8,0.9,0.5
2026-02-23T1700,3981A,113.2456,35.18,焦作市,原李万街道办,颗粒物(PM10),100,150,322,65,83,43,,65,48,11,10,7,10,0.6,0.5
2026-02-23T1700,4264A,113.234,35.219,焦作市,新安路1731号,颗粒物(PM10),116,181,313,44,82,43,,66,52,14,12,9,8,,0.7
2026-02-23T1700,4295A,113.2722,35.2121,焦作市,人民路3066号,细颗粒物(PM2.5),74,88,321,54,86,50,,71,57,13,11,5,7,0.8,0.7
2026-02-23T1700,1708A,116.3701,23.5345,揭阳市,新兴,颗粒物(PM10),54,58,67,23,48,105,,100,100,8,15,7,8,0.6,0.9
2026-02-23T1700,1709A,116.3261,23.5442,揭阳市,西马,颗粒物(PM10),56,62,76,22,52,105,,102,102,4,12,5,6,0.6,0.9
2026-02-23T1700,1710A,116.361,23.5627,揭阳市,东兴,颗粒物(PM10),59,68,65,24,47,108,,102,102,7,15,3,5,/,/
2026-02-23T1700,1711A,116.4151,23.5295,揭阳市,渔湖,颗粒物(PM10),65,79,66,22,48,117,,112,112,9,16,4,5,/,/
2026-02-23T1700,3320A,116.4028,23.5699,揭阳市,曲溪,颗粒物(PM10),62,74,71,27,50,121,,115,115,7,15,3,4,0.7,0.9
2026-02-23T1700,1944A,102.1691,38.5166,金昌市,天庆家园,,41,41,211,10,68,104,,100,100,3,12,5,13,0.4,0.6
2026-02-23T1700,4022A,102.1648,38.5369,金昌市,金川区人防中心,,43,43,217,11,65,102,,99,99,1,7,6,16,0.3,0.4
2026-02-23T1700,4239A,102.193042,38.531887,金昌市,长春路96号,,47,47,229,15,58,98,,91,91,5,11,6,18,0.4,0.5
2026-02-23T1700,1262A,119.6478,29.0773,金华市,十五中,颗粒物(PM10),127,204,239,50,52,104,,99,99,2,5,3,4,0.6,0.5
2026-02-23T1700,1263A,119.6859,29.1032,金华市,监测站,颗粒物(PM10),132,214,234,52,54,92,,89,89,5,8,3,3,0.7,0.6
2026-02-23T1700,3659A,119.656,29.1132,金华市,气象局,颗粒物(PM10),120,190,238,44,55,92,,87,87,6,11,2,2,0.7,0.6
2026-02-23T1700,1767A,121.1114,41.0879,锦州市,南山,颗粒物(PM10),54,58,43,11,21,83,,80,80,9,15,10,22,0.5,0.9
2026-02-23T1700,1768A,121.060361,40.842794,锦州市,开发区,颗粒物(PM10),74,98,65,8,14,78,,72,72,16,20,6,9,0.4,0.6
2026-02-23T1700,1769A,121.1836,41.1118,锦州市,百股街道,,50,50,37,14,16,83,,80,80,8,10,4,7,0.4,0.5
2026-02-23T1700,1770A,121.1176,41.1224,锦州市,天安街道,颗粒物(PM10),55,60,40,16,15,80,,83,83,13,12,6,13,0.5,0.8
2026-02-23T1700,1771A,121.1303,41.1385,锦州市,北湖公园,,38,38,35,15,14,84,,86,86,11,8,5,14,0.5,0.8
2026-02-23T1700,2160A,112.8496,35.5051,晋城市,自来水公司,,43,43,158,15,43,49,,59,53,12,15,4,6,0.6,0.5
2026-02-23T1700,2162A,112.8509,35.4886,晋城市,市环保局,,34,34,144,17,58,56,,70,64,15,17,2,4,0.3,0.3
2026-02-23T1700,3620A,112.8258,35.4804,晋城市,泽州一中,,33,29,153,23,50,56,,70,64,15,10,3,4,0.8,0.6
2026-02-23T1700,4078A,112.8246,35.5152,晋城市,前书院路,,32,22,155,22,44,46,,57,51,12,14,5,8,0.5,0.5
2026-02-23T1700,4079A,112.8864,35.4773,晋城市,祥云街666号,,50,38,170,35,65,49,,67,60,18,14,5,7,0.4,0.3
2026-02-23T1700,2174A,112.6992,37.6984,晋中市,榆次区政府,颗粒物(PM10),98,146,115,49,42,74,,65,65,24,25,19,11,0.6,0.3
2026-02-23T1700,2865A,112.7195,37.683,晋中市,榆次三中,颗粒物(PM10),101,151,124,49,35,75,,67,67,18,17,19,11,0.7,0.2
2026-02-23T1700,4080A,112.7375,37.7215,晋中市,广安街188号,颗粒物(PM10),90,130,112,56,37,80,,68,68,18,24,19,13,0.6,0.4
2026-02-23T1700,4200A,112.7478,37.6954,晋中市,迎宾街26号,颗粒物(PM10),101,151,121,54,40,76,,69,69,16,13,18,11,0.8,0.4
2026-02-23T1700,2439A,112.2012,31.048,荆门市,竹园小学,"颗粒物(PM10),细颗粒物(PM2.5)",69,87,168,50,53,50,,60,58,14,22,2,2,1.0,0.8
2026-02-23T1700,2440A,112.1968,30.9892,荆门市,掇刀,细颗粒物(PM2.5),67,75,166,48,57,56,,70,65,13,19,6,8,0.6,0.7
2026-02-23T1700,3012A,112.1849,31.0361,荆门市,西山林语,颗粒物(PM10),65,80,158,45,50,51,,66,61,12,13,3,5,0.6,0.6
2026-02-23T1700,3547A,112.1631,31.0134,荆门市,龙泉中学南校,,,,,,,,,,,,,,,,
2026-02-23T1700,4124A,112.2213,31.0654,荆门市,新台西路6号,细颗粒物(PM2.5),74,88,177,54,59,49,,58,57,12,15,8,10,0.5,0.5
2026-02-23T1700,1844A,112.2493,30.3198,荆州市,市图书馆,颗粒物(PM10),64,78,160,38,57,73,,62,62,9,17,5,8,0.8,0.8
2026-02-23T1700,1845A,112.2009,30.3543,荆州市,市委党校,颗粒物(PM10),71,92,179,43,61,67,,56,56,16,23,5,8,0.6,0.6
2026-02-23T1700,3194A,112.2749,30.3124,荆州市,管委会,颗粒物(PM10),69,87,148,34,56,66,,56,56,9,17,8,10,0.7,0.7
2026-02-23T1700,4268A,112.1722,30.3366,荆州市,学苑路85号,颗粒物(PM10),55,59,147,34,58,75,,63,63,7,13,1,2,0,0.1
2026-02-23T1700,2343A,117.2114,29.2931,景德镇市,老干部活动中心,颗粒物(PM10),73,95,105,43,44,95,,96,96,6,10,4,5,0.6,0.8
2026-02-23T1700,2344A,117.1893,29.2789,景德镇市,兽医站,颗粒物(PM10),74,97,110,33,40,103,,100,100,7,11,3,3,0.3,0.4
2026-02-23T1700,2346A,117.246,29.2958,景德镇市,陶研所,颗粒物(PM10),67,84,81,36,35,99,,97,97,4,11,3,3,0.5,0.6
2026-02-23T1700,4289A,117.154766,29.256967,景德镇市,青少年活动中心,颗粒物(PM10),70,90,109,34,39,93,,90,90,8,13,4,6,/,/
2026-02-23T1700,1803A,115.9873,29.6816,九江市,十里,,,130,202,62,56,67,,77,63,18,15,,11,1.0,0.9
2026-02-23T1700,1804A,115.9583,29.7047,九江市,茅山头,颗粒物(PM10),90,129,208,66,74,78,,76,68,20,18,5,8,0.7,0.6
2026-02-23T1700,1805A,115.9877,29.7295,九江市,西园,颗粒物(PM10),91,132,201,39,55,72,,72,66,32,27,3,5,0.5,0.5
2026-02-23T1700,1808A,115.9112,29.6038,九江市,综合工业园,颗粒物(PM10),85,120,220,50,63,50,,74,59,38,24,6,9,0.7,0.7
2026-02-23T1700,3190A,116.0254,29.6995,九江市,外国语学校,细颗粒物(PM2.5),92,122,182,68,71,62,,64,58,21,17,7,9,0.7,0.8
2026-02-23T1700,4253A,116.010205,29.659402,九江市,莲花大道8号,颗粒物(PM10),99,148,213,57,66,73,,70,57,17,19,5,9,0.6,0.6
2026-02-23T1700,4240A,98.495752,39.733935,酒泉市,玉门东路5号,颗粒物(PM10),57,63,123,27,39,93,,82,82,5,9,18,11,0.6,0.4
2026-02-23T1700,4241A,98.5099,39.7506,酒泉市,北大街108号,,36,36,102,24,37,94,,83,83,5,9,21,12,0.6,0.5
2026-02-23T1700,2698A,76.0071,39.466,喀什地区,巡警大队,颗粒物(PM10),52,53,95,9,26,107,,63,63,8,25,5,5,0.5,0.9
2026-02-23T1700,2699A,75.9756,39.4693,喀什地区,吾办,颗粒物(PM10),54,57,118,26,48,97,,59,59,11,36,4,5,0.3,0.9
2026-02-23T1700,4027A,75.9485,39.4688,喀什地区,老干局,,,67,118,3,30,,,56,56,6,22,4,4,,0.8
2026-02-23T1700,1824A,114.3389,34.778,开封市,肿瘤医院,颗粒物(PM10),87,124,376,42,78,67,,55,51,14,18,7,8,0.5,0.5
2026-02-23T1700,1826A,114.2884,34.7966,开封市,世纪星幼儿园,颗粒物(PM10),79,108,358,38,79,57,,56,47,17,18,7,8,0.6,0.6
2026-02-23T1700,3147A,114.3434,34.8101,开封市,龙亭公园,,,75,367,35,62,62,,53,47,,22,11,9,0.8,0.6
2026-02-23T1700,3210A,114.3645,34.7955,开封市,汴京公园,颗粒物(PM10),73,95,376,38,56,63,,52,47,11,19,4,6,0.5,0.4
2026-02-23T1700,3473A,114.2485,34.8306,开封市,技师学院,颗粒物(PM10),72,93,334,41,83,58,,52,45,14,18,7,8,0.6,0.5
2026-02-23T1700,3592A,114.4518,34.7503,开封市,祥符区生态环境局,颗粒物(PM10),87,124,377,46,74,51,,46,41,13,21,4,8,0.6,0.5
2026-02-23T1700,1951A,84.886,45.6029,克拉玛依市,长征新村,,24,20,30,9,13,74,,59,59,2,9,6,6,0.5,0.6
2026-02-23T1700,1952A,84.8894,45.5827,克拉玛依市,南林小区,,26,18,27,3,5,81,,64,64,1,5,1,2,0.4,0.6
2026-02-23T1700,1954A,84.896,44.3328,克拉玛依市,独山子区,颗粒物(PM10),78,105,86,38,58,76,,75,73,12,11,3,4,0.6,0.7
2026-02-23T1700,1955A,85.6888,46.0909,克拉玛依市,乌尔禾区商贸楼,,25,23,26,8,9,79,,57,57,5,9,8,8,0.3,0.2
2026-02-23T1700,3612A,85.1045,45.6895,克拉玛依市,白碱滩区新站,,33,33,30,3,7,77,,62,62,10,11,11,10,0.4,0.3
2026-02-23T1700,2697A,76.1457,39.7143,克孜勒苏柯尔克孜自治州,市人民政府,,,70,50,16,14,109,,88,88,2,4,4,4,,0.2
2026-02-23T1700,3665A,76.1654,39.7157,克孜勒苏柯尔克孜自治州,克州文化中心,颗粒物(PM10),54,58,57,11,15,104,,86,86,5,12,7,5,0.3,0.4
2026-02-23T1700,1450A,102.8203,24.889,昆明市,呈贡新区,,40,29,30,18,20,126,,126,126,4,8,4,6,0.4,0.5
2026-02-23T1700,1452A,102.7253,25.0904,昆明市,龙泉镇,,40,22,31,21,22,127,,124,124,3,15,3,4,0.3,0.4
2026-02-23T1700,1453A,102.7267,25.0378,昆明市,东风东路,,41,32,31,24,21,130,,129,129,7,9,6,9,0.4,0.5
2026-02-23T1700,1454A,102.6744,25.0671,昆明市,金鼎山,,40,31,34,21,23,127,,124,124,5,11,3,5,0.4,0.6
2026-02-23T1700,1455A,102.6643,25.0401,昆明市,碧鸡广场,,41,26,31,22,22,131,,128,128,6,12,4,6,0.4,0.4
2026-02-23T1700,3179A,102.7491,25.012,昆明市,官渡区博物馆,,40,30,28,20,20,126,,129,129,7,9,3,4,0.2,0.3
2026-02-23T1700,3375A,102.8016,24.8336,昆明市,青年创业园,,38,26,28,19,17,120,,122,122,2,5,4,5,0.5,0.5
2026-02-23T1700,3550A,102.8,24.9787,昆明市,昆明学院,,41,29,31,18,20,131,,131,131,3,6,3,5,0.3,0.4
2026-02-23T1700,3551A,102.5969,24.6738,昆明市,晋宁区生态环境分局,,38,20,35,17,28,121,,122,122,1,6,2,2,0.3,0.3
2026-02-23T1700,3552A,102.6673,24.9861,昆明市,云天化总部,,41,26,29,17,17,131,,132,132,6,9,8,8,0.2,0.3
2026-02-23T1700,1456A,91.132,29.6515,拉萨市,八廓街,,38,13,16,3,9,119,,106,106,5,7,8,7,0.5,0.5
2026-02-23T1700,1457A,91.1221,29.6748,拉萨市,市环保局,,,12,16,3,8,114,,102,102,,8,,7,0.4,0.5
2026-02-23T1700,1458A,91.0874,29.6476,拉萨市,区监测站,,36,6,10,3,7,114,,105,102,5,8,4,4,0.5,0.5
2026-02-23T1700,1459A,91.1774,29.6541,拉萨市,西藏大学,,37,14,14,3,9,117,,108,108,6,8,4,4,0.4,0.5
2026-02-23T1700,1460A,90.9798,29.6586,拉萨市,区辐射站,,35,13,15,6,9,110,,96,96,4,11,3,3,0.3,0.4
2026-02-23T1700,1461A,91.0831,29.6292,拉萨市,拉萨火车站,,35,6,12,3,6,112,,98,98,5,14,4,4,0.3,0.4
2026-02-23T1700,2520A,109.2203,23.7252,来宾市,来宾技工学校,,48,44,86,33,68,55,,58,58,5,14,8,10,0.6,0.8
2026-02-23T1700,3535A,109.1781,23.7293,来宾市,兴宾区政府,,45,45,90,26,74,65,,68,68,3,12,5,7,0.7,0.9
2026-02-23T1700,4002A,109.2312,23.7428,来宾市,中南小学,颗粒物(PM10),51,51,88,34,80,47,,54,54,12,19,6,7,0.6,0.9
2026-02-23T1700,1479A,103.8309,36.0467,兰州市,铁路设计院,,,,,,,,,,,,,,,,
2026-02-23T1700,3241A,103.7439,36.0841,兰州市,百合公园,颗粒物(PM10),73,95,237,37,84,89,,58,58,4,28,9,10,0.4,0.7
2026-02-23T1700,3242A,103.9613,35.9985,兰州市,和平,颗粒物(PM10),81,111,317,24,86,97,,67,67,3,13,11,17,0.5,0.8
2026-02-23T1700,4236A,103.629272,36.093822,兰州市,庄浪东路808号,颗粒物(PM10),73,95,263,26,87,93,,72,72,7,23,12,16,0.4,0.5
2026-02-23T1700,4237A,103.7251,36.104344,兰州市,安宁西路88号,颗粒物(PM10),89,128,284,41,86,93,,63,63,2,20,10,11,0.3,0.5
2026-02-23T1700,4238A,103.846982,36.067567,兰州市,北滨河东路1号,颗粒物(PM10),71,92,245,38,80,99,,57,57,8,32,9,9,0.4,0.7
2026-02-23T1700,1067A,116.6712,39.5109,廊坊市,药材公司,颗粒物(PM10),52,53,27,22,9,88,,84,84,4,5,2,3,0.4,0.3
2026-02-23T1700,1068A,116.7215,39.5592,廊坊市,开发区,颗粒物(PM10),51,52,23,18,6,92,,87,87,4,6,2,3,0.4,0.3
2026-02-23T1700,1070A,116.7246,39.5273,廊坊市,北华航天学院,颗粒物(PM10),53,56,31,21,9,88,,82,82,7,5,5,3,0.3,0.2
2026-02-23T1700,2919A,116.7022,39.5454,廊坊市,河北工业大学,颗粒物(PM10),53,56,27,19,9,86,,83,83,3,3,2,3,0.4,0.3
2026-02-23T1700,2536A,103.7629,29.5844,乐山市,牛耳桥,细颗粒物(PM2.5),95,92,82,71,65,108,,76,76,18,26,14,8,0.8,0.9
2026-02-23T1700,2537A,103.7501,29.6002,乐山市,市第三水厂,细颗粒物(PM2.5),85,80,80,63,67,109,,77,77,15,26,12,7,0.9,1
2026-02-23T1700,2538A,103.7571,29.5664,乐山市,市监测站,细颗粒物(PM2.5),88,84,85,65,65,103,,76,76,13,19,12,9,0.9,0.9
2026-02-23T1700,3361A,103.7313,29.563,乐山市,理工大学,细颗粒物(PM2.5),82,79,74,60,62,104,,77,77,10,14,10,7,0.9,0.9
2026-02-23T1700,2599A,100.2497,26.8802,丽江市,丽江古城,,40,26,29,18,19,128,,126,126,9,11,8,8,0.4,0.5
2026-02-23T1700,2600A,100.2203,26.8906,丽江市,市中心,,41,24,20,20,18,131,,131,131,11,10,6,6,0.4,0.4
2026-02-23T1700,1267A,119.9141,28.4513,丽水市,监测站大楼,颗粒物(PM10),103,155,78,44,36,95,,95,95,6,14,5,5,0.4,0.6
2026-02-23T1700,1268A,119.93,28.4589,丽水市,莲都小学,颗粒物(PM10),115,180,75,44,29,98,,97,97,6,9,/,/,/,/
2026-02-23T1700,1269A,119.8794,28.4232,丽水市,余庄前,颗粒物(PM10),95,140,61,35,25,99,,98,98,4,7,4,4,0.4,0.5
2026-02-23T1700,1173A,119.1759,34.5885,连云港市,市环境监测站,,44,44,38,7,9,80,,77,77,13,13,7,7,0.3,0.4
2026-02-23T1700,3000A,119.3577,34.6971,连云港市,德源药业,,39,39,41,12,7,90,,83,83,5,6,5,5,0.6,0.6
2026-02-23T1700,3007A,119.178,34.8442,连云港市,新城一中,,45,45,66,12,8,94,,86,86,10,13,8,7,0.6,0.5
2026-02-23T1700,3008A,119.3607,34.7519,连云港市,胡沟管理处,,41,41,34,12,5,45,,72,69,58,30,19,15,0.8,0.8
2026-02-23T1700,3009A,119.1478,34.5913,连云港市,矿山设计院,,46,46,42,7,6,82,,80,80,16,16,7,6,0.4,0.4
2026-02-23T1700,3434A,119.2414,34.6539,连云港市,工贸学校,颗粒物(PM10),53,56,58,11,10,89,,84,84,7,8,9,10,0.3,0.3
2026-02-23T1700,3664A,119.4171,34.734,连云港市,连云街道,,46,46,39,12,9,94,,84,84,11,10,5,6,0.5,0.4
2026-02-23T1700,2573A,102.2629,27.8981,凉山彝族自治州,西昌市政府,,40,28,31,26,34,128,,119,119,4,6,7,9,0.4,0.6
2026-02-23T1700,2574A,102.2686,27.885,凉山彝族自治州,凉山州政府,,36,34,36,18,26,113,,108,108,4,10,9,10,0.3,0.5
2026-02-23T1700,4229A,102.2342,27.8859,凉山彝族自治州,凯乐南路30号,,38,28,36,17,25,121,,112,112,9,17,12,12,0.4,0.6
2026-02-23T1700,2212A,123.1978,41.2036,辽阳市,宏伟区,颗粒物(PM10),67,84,61,46,19,102,,96,96,8,7,9,9,0.5,0.5
2026-02-23T1700,2213A,123.1684,41.2497,辽阳市,新华园,颗粒物(PM10),69,88,67,41,20,101,,94,94,12,10,9,8,0.7,0.9
2026-02-23T1700,2214A,123.2355,41.2663,辽阳市,滨河路,细颗粒物(PM2.5),70,88,59,51,19,94,,94,94,11,7,8,7,0.6,0.5
2026-02-23T1700,4083A,123.153,41.2874,辽阳市,铁西路150号,颗粒物(PM10),68,86,62,42,22,92,,90,90,11,9,10,9,0.6,0.7
2026-02-23T1700,2227A,125.1359,42.8845,辽源市,环保局,颗粒物(PM10),52,54,100,3,6,85,,83,83,2,2,2,3,0.4,0.3
2026-02-23T1700,4085A,125.0998,42.9134,辽源市,安宁大街333号,颗粒物(PM10),59,67,161,7,9,82,,83,83,2,2,2,2,0.5,0.4
2026-02-23T1700,1625A,115.9789,36.4372,聊城市,区政府,,,,182,,49,37,,53,38,27,17,13,14,,0.7
2026-02-23T1700,3200A,115.9772,36.4986,聊城市,监控中心,颗粒物(PM10),65,79,177,40,54,51,,47,44,23,22,10,15,0.7,0.6
2026-02-23T1700,3513A,116.0443,36.436,聊城市,九州社区,颗粒物(PM10),69,88,171,43,51,57,,59,58,20,14,1,4,0.7,0.6
2026-02-23T1700,4018A,116.0564,36.4609,聊城市,星美广场,颗粒物(PM10),70,90,171,44,58,35,,46,41,20,12,3,5,0.8,0.6
2026-02-23T1700,4113A,116.0091,36.4495,聊城市,利民路,颗粒物(PM10),64,78,181,41,56,44,,54,48,25,20,7,10,0.8,0.7
2026-02-23T1700,2632A,94.3683,29.6373,林芝市,林芝监测站,,39,7,11,3,13,124,,124,118,1,1,5,4,0.4,0.4
2026-02-23T1700,2633A,94.3616,29.6634,林芝市,林芝人民医院,,39,11,15,3,13,122,,126,116,1,2,8,7,0.2,0.3
2026-02-23T1700,2603A,100.0779,23.8981,临沧市,市环保局,颗粒物(PM10),52,54,32,23,26,135,,107,107,2,5,7,6,0.6,0.7
2026-02-23T1700,2604A,100.0894,23.882,临沧市,市气象局,细颗粒物(PM2.5),52,46,41,36,28,131,,104,104,4,6,9,7,0.5,0.7
2026-02-23T1700,1733A,111.5552,36.0791,临汾市,临钢医院,颗粒物(PM10),77,104,209,44,66,66,,52,52,18,16,7,10,1.0,0.8
2026-02-23T1700,1734A,111.4984,36.0734,临汾市,技工学校,颗粒物(PM10),78,105,196,49,69,60,,52,52,16,15,6,10,1.2,0.5
2026-02-23T1700,1736A,111.5017,36.0857,临汾市,市委,颗粒物(PM10),78,105,205,40,58,60,,54,54,16,19,7,10,0.9,0.7
2026-02-23T1700,3018A,111.5048,36.1015,临汾市,唐尧大酒店,颗粒物(PM10),79,107,198,42,71,65,,59,59,14,19,6,10,1.0,0.7
2026-02-23T1700,4244A,111.4879,36.053,临汾市,启星学校,颗粒物(PM10),70,90,197,47,67,61,,49,49,18,21,8,10,0.9,0.7
2026-02-23T1700,4271A,103.2464,35.6123,临夏回族自治州,滨河东路1号,颗粒物(PM10),107,163,359,66,127,84,,60,60,6,19,10,11,0.4,1.3
2026-02-23T1700,4310A,103.207136,35.599807,临夏回族自治州,新华街21号,颗粒物(PM10),104,157,362,44,108,78,,50,50,2,16,8,11,0.6,1.3
2026-02-23T1700,1618A,118.3429,35.0532,临沂市,沂河小区,颗粒物(PM10),58,66,88,11,22,85,,76,76,4,11,9,10,0.2,0.3
2026-02-23T1700,1619A,118.2962,35.0568,临沂市,鲁南制药厂,颗粒物(PM10),57,63,93,10,24,81,,73,73,10,14,11,13,0.2,0.3
2026-02-23T1700,1620A,118.2793,34.9976,临沂市,新光毛纺厂,颗粒物(PM10),54,58,81,17,32,83,,74,74,8,12,8,9,0.4,0.5
2026-02-23T1700,1621A,118.3955,35.0889,临沂市,河东保险公司,颗粒物(PM10),58,66,81,8,22,93,,83,83,10,17,8,10,0.3,0.5
2026-02-23T1700,3370A,118.3563,35.0215,临沂市,十里堡居委,颗粒物(PM10),56,61,85,11,20,91,,82,82,10,13,7,9,0.5,0.5
2026-02-23T1700,3496A,118.359,35.1067,临沂市,南坊新区,颗粒物(PM10),60,70,88,12,26,94,,83,83,6,12,8,10,0.4,0.5
2026-02-23T1700,3860A,118.3915,35.0297,临沂市,皇山花园小区,颗粒物(PM10),57,63,88,11,21,94,,86,86,11,15,11,13,0.4,0.5
2026-02-23T1700,1870A,109.4854,24.3898,柳州市,柳东小学,,32,32,69,22,60,78,,66,66,6,11,4,5,0.6,0.8
2026-02-23T1700,1871A,109.4109,24.3304,柳州市,环保监测站,,33,24,100,23,78,68,,55,55,12,25,4,5,0.8,1.3
2026-02-23T1700,1872A,109.3886,24.3408,柳州市,河西水厂,,47,47,108,27,92,74,,60,60,11,21,8,8,0.5,1
2026-02-23T1700,1873A,109.4263,24.2951,柳州市,市四中,颗粒物(PM10),51,51,103,30,90,63,,55,55,14,26,7,7,1.0,1.5
2026-02-23T1700,1874A,109.396,24.3658,柳州市,市九中,,48,48,99,23,81,63,,53,53,12,20,7,8,0.6,0.9
2026-02-23T1700,1875A,109.4912,24.3164,柳州市,古亭山,,34,34,66,21,55,78,,64,64,6,16,6,6,0.6,0.9
2026-02-23T1700,3402A,109.5422,24.3994,柳州市,市二中,,29,29,72,20,58,73,,60,60,10,15,6,7,0.5,0.7
2026-02-23T1700,2307A,116.5078,31.7369,六安市,监测大楼,颗粒物(PM10),94,137,248,39,61,72,,76,76,15,10,4,4,0.4,0.5
2026-02-23T1700,2308A,116.4738,31.7642,六安市,皖西学院,颗粒物(PM10),98,146,283,41,60,85,,82,82,11,12,5,5,0.3,0.3
2026-02-23T1700,2309A,116.4997,31.7904,六安市,朝阳厂,颗粒物(PM10),85,120,222,48,66,82,,80,80,14,15,6,6,0.4,0.4
2026-02-23T1700,2310A,116.5566,31.7885,六安市,开发区,颗粒物(PM10),101,151,312,45,62,84,,86,86,13,8,5,6,0.4,0.5
2026-02-23T1700,2577A,104.8293,26.592,六盘水市,黄土坡,,39,22,34,10,28,124,,108,108,5,11,6,9,0.3,0.6
2026-02-23T1700,2579A,104.8481,26.5898,六盘水市,民中,,40,18,38,8,32,125,,107,107,5,9,4,5,0.3,0.6
2026-02-23T1700,2580A,104.9541,26.5506,六盘水市,双水,,39,29,40,12,26,122,,102,102,7,7,4,5,0.4,0.5
2026-02-23T1700,4151A,104.8899,26.5685,六盘水市,钟山大道中段564号,,39,39,44,14,27,118,,102,102,5,7,7,7,0.3,0.6
2026-02-23T1700,2336A,117.022,25.1031,龙岩市,龙岩市监测站,,36,,32,20,27,113,,98,98,3,9,7,8,0.8,0.8
2026-02-23T1700,2337A,117.0257,25.0662,龙岩市,闽西职业技术学院,,36,32,31,18,24,114,,98,98,4,5,5,5,0.5,0.6
2026-02-23T1700,2338A,117.0195,25.0306,龙岩市,龙岩学院,,38,31,33,18,25,120,,100,100,4,7,5,5,/,/
2026-02-23T1700,2885A,104.9344,33.3827,陇南市,滨江中学,颗粒物(PM10),103,155,102,57,44,82,,66,66,5,11,5,6,0.6,0.9
2026-02-23T1700,3247A,104.9551,33.3709,陇南市,市总工会,颗粒物(PM10),105,160,92,65,46,79,,78,68,8,9,4,4,0.7,0.8
2026-02-23T1700,2488A,111.9984,27.7346,娄底市,市监测站,细颗粒物(PM2.5),55,46,52,39,41,54,,57,53,17,21,4,6,0.5,0.6
2026-02-23T1700,2491A,111.9888,27.7035,娄底市,市政府,细颗粒物(PM2.5),54,48,50,38,41,52,,51,51,11,16,3,3,0.6,0.5
2026-02-23T1700,4127A,111.9812,27.7591,娄底市,涟钢职大,,,50,49,35,35,54,,63,51,8,12,,5,,0.8
2026-02-23T1700,4128A,112.0303,27.7457,娄底市,娄底体校,"颗粒物(PM10),细颗粒物(PM2.5)",55,60,61,39,44,45,,44,44,2,6,2,2,0.7,0.7
2026-02-23T1700,1894A,105.4427,28.9063,泸州市,小市上码头,细颗粒物(PM2.5),100,92,124,75,98,113,,83,83,13,23,7,7,0.4,0.6
2026-02-23T1700,1895A,105.4241,28.8573,泸州市,兰田宪桥,细颗粒物(PM2.5),80,92,110,59,78,109,,80,80,9,20,12,12,1.0,1
2026-02-23T1700,1896A,105.4378,28.8833,泸州市,市环监站,细颗粒物(PM2.5),115,102,143,87,104,106,,79,79,15,23,1,6,0.5,0.7
2026-02-23T1700,4272A,105.3689,28.7783,泸州市,纳溪中医医院,细颗粒物(PM2.5),99,78,96,74,90,104,,79,79,14,18,9,7,0.8,0.9
2026-02-23T1700,2183A,111.1447,37.5212,吕梁市,环保局,颗粒物(PM10),116,181,131,55,41,81,,69,69,12,15,3,6,0.1,0.2
2026-02-23T1700,2185A,111.1285,37.5338,吕梁市,自来水公司,颗粒物(PM10),117,184,135,51,39,84,,64,64,8,19,3,8,0.2,0.3
2026-02-23T1700,2867A,111.1225,37.5093,吕梁市,马茂庄小学,颗粒物(PM10),127,204,140,54,42,81,,61,61,8,20,5,10,0.2,0.3
2026-02-23T1700,1812A,112.3934,34.6517,洛阳市,市委党校,颗粒物(PM10),111,171,316,73,106,47,,64,63,21,19,,8,,0.6
2026-02-23T1700,1815A,112.494,34.6883,洛阳市,河南林校,颗粒物(PM10),109,168,328,72,92,58,,69,68,15,17,9,11,0.4,0.4
2026-02-23T1700,1816A,112.3843,34.623,洛阳市,开发区管委会,颗粒物(PM10),130,210,364,81,100,56,,69,68,16,17,9,11,0.6,0.5
2026-02-23T1700,1817A,112.4263,34.6249,洛阳市,市委新办公区,颗粒物(PM10),127,203,334,70,92,57,,68,68,17,17,8,9,0.5,0.4
2026-02-23T1700,3340A,112.6005,34.6323,洛阳市,伊滨,颗粒物(PM10),115,180,347,67,100,63,,69,69,15,16,8,9,0.7,0.7
2026-02-23T1700,3341A,112.495,34.6338,洛阳市,中移产业园,颗粒物(PM10),103,155,325,75,98,56,,65,65,16,19,8,9,0.8,0.7
2026-02-23T1700,3593A,112.5736,34.8993,洛阳市,吉利监测站,颗粒物(PM10),127,204,361,67,94,46,,67,60,18,18,8,10,0.7,0.6
2026-02-23T1700,3635A,112.3678,34.6623,洛阳市,河科大西苑校区,细颗粒物(PM2.5),122,189,349,92,123,54,,72,71,23,18,8,9,0.7,0.6
2026-02-23T1700,3636A,112.4387,34.678,洛阳市,英才小学,颗粒物(PM10),118,186,343,82,100,54,,68,66,20,23,9,10,0.8,0.7
2026-02-23T1700,4214A,112.460027,34.694929,洛阳市,春都路1号院,颗粒物(PM10),119,188,374,78,117,51,,64,62,19,21,8,8,0.6,0.6
2026-02-23T1700,2399A,114.051,33.5721,漯河市,三五一五工厂,颗粒物(PM10),98,146,409,30,73,65,,61,61,13,15,6,6,0.6,0.5
2026-02-23T1700,2400A,114.0055,33.5698,漯河市,漯河大学,颗粒物(PM10),95,140,398,25,68,60,,59,59,14,16,6,7,0.4,0.4
2026-02-23T1700,2401A,114.0134,33.5826,漯河市,市水利局,颗粒物(PM10),98,146,433,31,78,61,,61,60,14,15,6,6,0.5,0.4
2026-02-23T1700,2402A,114.0261,33.5697,漯河市,市广电局,颗粒物(PM10),102,154,427,33,76,60,,56,56,11,14,7,7,0.4,0.4
2026-02-23T1700,3478A,113.9691,33.568,漯河市,市图书馆,颗粒物(PM10),98,146,408,32,81,46,,59,55,14,14,7,7,0.6,0.5
2026-02-23T1700,4250A,114.089259,33.588274,漯河市,韶山路11号,颗粒物(PM10),86,122,381,29,80,63,,58,58,14,18,6,6,0.5,0.5
2026-02-23T1700,1798A,118.5084,31.6838,马鞍山市,湖东路四小,颗粒物(PM10),79,108,227,22,40,96,,92,92,8,10,5,6,0.1,0.2
2026-02-23T1700,1799A,118.5019,31.6449,马鞍山市,开发区,颗粒物(PM10),79,107,228,24,44,100,,95,95,12,14,4,5,0.3,0.3
2026-02-23T1700,3633A,118.4914,31.681,马鞍山市,雨山,颗粒物(PM10),79,108,242,27,43,97,,94,94,8,10,5,5,0.3,0.4
2026-02-23T1700,4191A,118.527362,31.722269,马鞍山市,慈湖高新区,颗粒物(PM10),85,119,232,26,45,100,,92,92,8,10,5,6,0.1,0.2
2026-02-23T1700,1686A,111.0285,21.469,茂名市,电白南海,,39,39,34,19,21,90,,76,76,10,9,5,5,0.8,0.8
2026-02-23T1700,1687A,110.9294,21.6533,茂名市,茂石化七小,,,41,36,,22,76,,71,71,9,12,5,7,,0.6
2026-02-23T1700,1688A,110.9108,21.6688,茂名市,健康路,,29,22,26,15,19,91,,84,84,8,9,3,5,0.6,0.6
2026-02-23T1700,1689A,110.8592,21.6826,茂名市,高岭,,44,44,38,18,19,89,,83,83,9,10,2,3,/,/
2026-02-23T1700,3450A,111.0101,21.5165,茂名市,电白水东,,28,24,27,17,20,89,,79,79,14,13,3,3,/,/
2026-02-23T1700,2540A,103.8414,30.0871,眉山市,气象局,细颗粒物(PM2.5),72,78,89,52,70,104,,71,71,14,21,7,9,0.5,0.6
2026-02-23T1700,3148A,103.829,30.0563,眉山市,区人社局,细颗粒物(PM2.5),70,85,92,51,70,94,,67,67,18,35,9,13,0.7,1
2026-02-23T1700,4148A,103.8836,30.0695,眉山市,眉职院,细颗粒物(PM2.5),68,79,90,49,60,105,,69,69,15,19,7,7,0.8,0.8
2026-02-23T1700,1690A,116.1248,24.3307,梅州市,梅江月梅,,45,31,35,31,32,106,,91,91,9,12,/,/,/,/
2026-02-23T1700,1691A,116.0798,24.2719,梅州市,梅县新城,,43,43,50,26,40,121,,94,94,11,17,8,8,0.7,0.7
2026-02-23T1700,3315A,116.1234,24.2994,梅州市,梅龙,,35,31,41,24,36,105,,87,87,8,13,8,8,0.7,0.8
2026-02-23T1700,1878A,104.7775,31.4741,绵阳市,富乐山,颗粒物(PM10),59,68,70,35,49,82,,78,78,4,10,9,9,0.4,0.7
2026-02-23T1700,1880A,104.6698,31.4668,绵阳市,高新区自来水公司,,,66,76,29,51,77,,72,72,6,29,,8,,0.9
2026-02-23T1700,3491A,104.6899,31.5324,绵阳市,西科大附属小学,颗粒物(PM10),57,63,74,32,51,83,,75,75,7,22,7,8,0.4,0.7
2026-02-23T1700,3492A,104.5647,31.5343,绵阳市,安州区旅游局,颗粒物(PM10),56,62,71,27,49,86,,79,79,11,26,4,6,0.5,0.8
2026-02-23T1700,4146A,104.7092,31.4972,绵阳市,科技城新区公安局,颗粒物(PM10),64,78,77,32,51,81,,73,73,10,20,6,6,0.7,0.9
2026-02-23T1700,4226A,104.765114,31.453094,绵阳市,绵阳市气象局,颗粒物(PM10),70,90,78,32,54,77,,71,71,4,19,8,9,0.7,0.9
2026-02-23T1700,1784A,129.61,44.561,牡丹江市,环保大楼,颗粒物(PM10),59,67,107,9,11,85,,83,83,2,2,1,1,0.2,0.2
2026-02-23T1700,1787A,129.6364,44.6075,牡丹江市,机车工厂,颗粒物(PM10),59,68,106,11,12,80,,79,79,4,4,5,6,0.3,0.3
2026-02-23T1700,1788A,129.6386,44.5462,牡丹江市,第一中学,颗粒物(PM10),56,62,93,9,11,82,,80,80,3,3,3,4,0.3,0.3
2026-02-23T1700,4287A,129.5992,44.5964,牡丹江市,东晓云街98号,颗粒物(PM10),59,67,105,14,13,80,,80,80,4,3,4,5,0.5,0.4
2026-02-23T1700,2531A,105.0703,29.61,内江市,市监测站,细颗粒物(PM2.5),69,60,95,50,94,112,,93,93,9,17,8,8,0.4,0.6
2026-02-23T1700,2533A,105.0657,29.5807,内江市,内江二中,细颗粒物(PM2.5),64,75,107,46,88,102,,84,84,15,30,8,9,0.5,0.7
2026-02-23T1700,2534A,105.0407,29.5828,内江市,内江日报社,细颗粒物(PM2.5),64,49,86,46,86,110,,89,89,13,27,10,10,0.5,0.7
2026-02-23T1700,4147A,105.0433,29.6105,内江市,玉峰路西段888号,细颗粒物(PM2.5),68,,85,49,85,117,,96,96,11,23,10,11,0.6,0.8
2026-02-23T1700,2628A,92.0653,31.4846,那曲市,那曲监测站,,31,12,27,6,22,97,,79,79,2,14,8,10,0.3,0.8
2026-02-23T1700,4243A,92.0515,31.4787,那曲市,那曲市委宣传部,,33,12,18,3,15,103,,82,82,2,6,3,4,0.3,0.5
2026-02-23T1700,1291A,115.8887,28.7006,南昌市,省林业公司,颗粒物(PM10),67,83,197,42,49,70,,80,80,10,11,4,6,0.7,0.6
2026-02-23T1700,1292A,115.813,28.7443,南昌市,林科所,细颗粒物(PM2.5),62,68,159,44,45,80,,87,87,7,11,8,10,0.9,0.8
2026-02-23T1700,1294A,115.8518,28.687,南昌市,建工学校,颗粒物(PM10),73,96,181,44,47,69,,79,79,14,12,8,9,0.4,0.4
2026-02-23T1700,1295A,115.8926,28.6425,南昌市,象湖,颗粒物(PM10),67,83,166,45,46,77,,82,82,18,17,9,10,0.9,0.9
2026-02-23T1700,3046A,115.9084,28.6062,南昌市,机电学校,颗粒物(PM10),76,102,174,48,48,81,,86,86,12,14,6,7,0.6,0.5
2026-02-23T1700,3690A,115.9718,28.7032,南昌市,外国语学校,颗粒物(PM10),67,83,178,46,48,66,,77,77,22,18,8,10,0.7,0.7
2026-02-23T1700,4106A,115.7923,28.6873,南昌市,工业二路,颗粒物(PM10),70,89,175,40,47,76,,87,87,19,18,5,6,0.8,0.7
2026-02-23T1700,4192A,115.931587,28.686774,南昌市,南京东路235号,颗粒物(PM10),78,105,186,46,47,75,,83,83,13,14,6,8,0.4,0.5
2026-02-23T1700,1906A,106.0791,30.8022,南充市,南充市委,,43,40,78,30,61,62,,52,52,9,32,6,7,0.5,0.9
2026-02-23T1700,1907A,106.1038,30.8215,南充市,南充炼油厂,,50,50,79,32,64,60,,50,50,7,35,4,6,0.5,0.9
2026-02-23T1700,4227A,106.108336,30.788436,南充市,梨树横街98号,,48,38,85,33,73,66,,56,56,5,36,5,6,0.3,0.8
2026-02-23T1700,4304A,106.1172,30.843,南充市,清泉寺北路188号,,45,40,64,31,58,67,,60,60,3,14,5,6,0.3,0.6
2026-02-23T1700,4305A,106.067,30.7616,南充市,同庆路1号,,45,,77,31,64,65,,55,55,8,46,6,6,0.4,1
2026-02-23T1700,1151A,118.8033,32.1085,南京市,迈皋桥,颗粒物(PM10),76,101,143,29,32,110,,102,102,13,15,8,9,0.3,0.3
2026-02-23T1700,1152A,118.7487,32.057,南京市,草场门,颗粒物(PM10),82,114,193,22,30,70,,63,63,14,17,7,8,0.5,0.6
2026-02-23T1700,1154A,118.770105,32.004342,南京市,中华门,颗粒物(PM10),80,110,192,21,33,101,,88,88,2,6,5,4,0.4,0.4
2026-02-23T1700,1155A,118.8059,32.0329,南京市,瑞金路,,,105,173,20,27,103,,90,84,12,12,4,4,,1.3
2026-02-23T1700,1156A,118.7946,32.0774,南京市,玄武湖,颗粒物(PM10),85,119,161,19,27,103,,92,92,17,20,7,7,0.4,0.5
2026-02-23T1700,1157A,118.6415,32.0964,南京市,浦口,颗粒物(PM10),90,129,206,28,40,92,,82,82,11,15,5,5,0.2,0.3
2026-02-23T1700,1158A,118.730129,32.000956,南京市,奥体中心,颗粒物(PM10),82,113,202,19,28,94,,84,84,9,12,6,7,0.2,0.2
2026-02-23T1700,1159A,118.9072,32.1047,南京市,仙林大学城,颗粒物(PM10),95,139,198,28,33,101,,90,90,8,10,6,6,0.4,0.5
2026-02-23T1700,3422A,118.8443,31.919,南京市,江宁彩虹桥,颗粒物(PM10),87,123,174,16,28,112,,101,101,2,4,4,4,0.3,0.4
2026-02-23T1700,3427A,118.8497,32.3599,南京市,六合雄州,颗粒物(PM10),104,157,169,33,33,90,,84,84,18,17,4,4,0.8,0.7
2026-02-23T1700,4086A,118.7641,32.0841,南京市,新模范马路66号,颗粒物(PM10),87,124,210,19,24,124,,111,111,2,2,4,4,0.5,0.6
2026-02-23T1700,4249A,118.8707617,31.34017673,南京市,汶溪路181号,颗粒物(PM10),98,146,242,17,40,99,,95,95,12,13,5,6,0.5,0.5
2026-02-23T1700,4312A,119.019,31.6512,南京市,中山西路1号,颗粒物(PM10),64,78,187,16,31,85,,79,79,8,9,4,4,0.5,0.6
2026-02-23T1700,1401A,108.3098,22.788,南宁市,二十一中,细颗粒物(PM2.5),52,46,41,36,32,43,,46,46,11,12,3,4,0.6,0.6
2026-02-23T1700,1402A,108.3135,22.8529,南宁市,北湖,细颗粒物(PM2.5),55,48,48,39,39,37,,46,46,13,14,2,2,0.6,0.7
2026-02-23T1700,1403A,108.3205,22.8222,南宁市,市监测站,,48,39,41,33,29,40,,44,44,12,12,5,6,0.7,0.7
2026-02-23T1700,1404A,108.3828,22.8038,南宁市,大自然花园,,33,32,42,23,30,56,,57,57,6,8,5,6,0.4,0.5
2026-02-23T1700,1406A,108.2397,22.8462,南宁市,区农职院,颗粒物(PM10),55,60,47,24,27,39,,42,42,13,13,4,4,0.4,0.4
2026-02-23T1700,1407A,108.3285,22.7356,南宁市,英华嘉园,,44,44,50,30,31,43,,45,45,9,10,2,3,0.5,0.6
2026-02-23T1700,3401A,108.4829,22.762,南宁市,红星社区,,49,49,49,31,36,62,,60,60,4,10,4,4,0.5,0.6
2026-02-23T1700,4132A,108.2927,23.1477,南宁市,起凤路9号,,43,35,49,30,40,48,,54,54,6,11,2,3,0.6,0.7
2026-02-23T1700,4221A,108.2177,22.7774,南宁市,乐贤路16号,,40,37,41,28,31,42,,45,45,12,14,2,2,0.3,0.5
2026-02-23T1700,2332A,118.1682,26.6371,南平市,南平市监测站,,30,27,37,12,27,93,,101,101,3,12,4,5,0.3,0.4
2026-02-23T1700,2334A,118.1757,26.6276,南平市,南平七中,,42,42,36,12,24,98,,105,105,1,8,2,4,0.4,0.6
2026-02-23T1700,1168A,120.9056,31.9669,南通市,狼山街道,颗粒物(PM10),68,85,83,17,16,101,,94,94,4,5,3,3,0.5,0.5
2026-02-23T1700,1170A,120.8635,32.0231,南通市,城中,颗粒物(PM10),69,87,84,15,14,106,,100,100,7,8,4,4,0.4,0.4
2026-02-23T1700,1171A,120.9376,31.9301,南通市,星湖花园,颗粒物(PM10),65,80,75,15,14,103,,96,96,7,7,3,3,0.2,0.3
2026-02-23T1700,1172A,120.8053,32.046,南通市,紫琅学院,颗粒物(PM10),68,86,83,10,10,102,,95,95,8,9,4,4,0.2,0.3
2026-02-23T1700,3291A,121.0631,32.0644,南通市,通州监测站,颗粒物(PM10),59,68,68,15,13,106,,102,102,12,9,5,3,0.4,0.4
2026-02-23T1700,3432A,120.9348,31.9874,南通市,环境教育馆,颗粒物(PM10),65,80,75,13,14,103,,97,97,4,7,4,4,0.3,0.3
2026-02-23T1700,4091A,120.8692,31.9885,南通市,洪江路,颗粒物(PM10),59,68,63,15,14,97,,91,91,8,8,4,4,0.4,0.4
2026-02-23T1700,2404A,112.5338,33.0086,南阳市,瓦房庄,颗粒物(PM10),133,216,290,46,53,57,,72,54,13,11,6,6,0.7,0.6
2026-02-23T1700,2405A,112.5002,32.9734,南阳市,汉画馆,颗粒物(PM10),149,247,319,77,81,58,,75,56,17,15,5,5,0.7,0.6
2026-02-23T1700,2406A,112.5778,33.0144,南阳市,气象站,颗粒物(PM10),154,258,384,47,48,58,,71,55,16,15,6,6,0.6,0.5
2026-02-23T1700,2407A,112.548,32.9687,南阳市,理工学院,颗粒物(PM10),138,225,331,47,51,55,,67,51,13,12,7,6,0.7,0.6
2026-02-23T1700,4008A,112.5233,32.9921,南阳市,卧龙区政府,颗粒物(PM10),168,285,354,58,56,54,,70,52,14,12,7,6,0.7,0.6
2026-02-23T1700,1234A,121.8352,29.9111,宁波市,区环保大楼,颗粒物(PM10),60,69,175,13,31,104,,94,94,4,13,6,6,0.2,0.2
2026-02-23T1700,1235A,121.5595,29.8208,宁波市,万里学院,颗粒物(PM10),66,81,159,15,32,106,,93,93,11,15,3,3,0.3,0.4
2026-02-23T1700,1236A,121.713,29.9564,宁波市,龙赛医院,颗粒物(PM10),70,90,164,18,27,89,,86,86,16,10,4,4,0.2,0.4
2026-02-23T1700,1240A,121.5855,29.8635,宁波市,太古小学,颗粒物(PM10),66,81,171,19,30,104,,92,92,8,12,3,3,0.4,0.4
2026-02-23T1700,1241A,121.5239,29.8673,宁波市,市环境监测中心,颗粒物(PM10),67,83,135,15,27,101,,88,88,11,13,4,4,0.3,0.3
2026-02-23T1700,2871A,121.6156,29.9015,宁波市,万里国际学校,颗粒物(PM10),65,79,133,16,29,102,,93,93,9,13,3,3,0.4,0.4
2026-02-23T1700,3710A,121.5593,29.8976,宁波市,白沙活动中心,颗粒物(PM10),65,80,127,18,27,103,,92,92,4,8,4,4,0.4,0.4
2026-02-23T1700,4095A,121.8962,29.7529,宁波市,中科路88号,颗粒物(PM10),56,62,154,13,29,100,,96,96,13,11,5,5,0.3,0.3
2026-02-23T1700,2341A,119.5387,26.6611,宁德市,宁德市监测站,颗粒物(PM10),117,184,103,52,36,86,,93,93,15,14,6,5,0.6,0.6
2026-02-23T1700,3209A,119.5231,26.6562,宁德市,宁德一中,颗粒物(PM10),113,176,97,59,39,90,,94,94,12,11,5,4,0.5,0.5
2026-02-23T1700,2618A,98.859,25.8541,怒江傈僳族自治州,州监测站,,,,38,,28,,,97,,,7,,8,,0.6
2026-02-23T1700,2619A,98.8607,25.8168,怒江傈僳族自治州,泸水一中,,42,42,32,25,29,101,,82,82,8,10,5,5,0.7,0.7
2026-02-23T1700,1888A,101.6891,26.571,攀枝花市,弄弄坪,,37,36,53,20,30,118,,102,102,15,27,42,45,1.7,2.4
2026-02-23T1700,1889A,101.577,26.5914,攀枝花市,河门口,,40,35,51,25,33,128,,107,107,4,10,9,11,0.4,0.6
2026-02-23T1700,1891A,101.7365,26.4986,攀枝花市,仁和,,,27,42,22,28,124,,115,115,,13,7,10,0.5,0.8
2026-02-23T1700,2835A,101.7222,26.567,攀枝花市,四十中小,,43,43,59,18,34,120,,99,99,7,35,8,30,0.6,2.2
2026-02-23T1700,1604A,122.0303,41.1489,盘锦市,开发区,颗粒物(PM10),54,57,40,17,15,82,,83,83,10,12,4,4,0.3,0.4
2026-02-23T1700,1605A,122.0486,41.0883,盘锦市,兴隆台,细颗粒物(PM2.5),125,109,46,95,25,83,,87,87,18,13,8,6,0.6,0.4
2026-02-23T1700,1606A,121.8297,41.1026,盘锦市,新生街道,,40,40,36,7,8,77,,79,79,11,17,6,7,0.2,0.3
2026-02-23T1700,1832A,113.3257,33.7423,平顶山市,新华旅馆,颗粒物(PM10),110,169,370,61,106,62,,54,52,16,20,5,6,0.4,0.4
2026-02-23T1700,1833A,113.2917,33.737,平顶山市,规划设计院,颗粒物(PM10),116,181,396,45,91,62,,57,53,10,14,6,8,0.4,0.3
2026-02-23T1700,1834A,113.182,33.7738,平顶山市,平顶山工学院,颗粒物(PM10),126,201,389,56,83,66,,57,57,12,13,8,9,0.2,0.2
2026-02-23T1700,3594A,112.8736,33.9068,平顶山市,石龙区,颗粒物(PM10),116,182,406,68,89,65,,62,62,10,11,5,7,0.6,0.5
2026-02-23T1700,4116A,113.284,33.7139,平顶山市,姚电大道23号,颗粒物(PM10),138,226,462,62,100,65,,60,55,12,14,5,7,0.5,0.4
2026-02-23T1700,2656A,106.6633,35.5338,平凉市,聚贤嘉苑,颗粒物(PM10),70,89,270,45,100,94,,79,79,5,12,6,8,0.5,0.7
2026-02-23T1700,2657A,106.7021,35.5307,平凉市,博物馆,颗粒物(PM10),75,99,273,32,89,93,,80,80,5,12,10,10,0.6,0.7
2026-02-23T1700,2348A,113.8384,27.6436,萍乡市,中医院,颗粒物(PM10),75,100,88,33,34,83,,89,89,13,9,7,5,0.7,0.5
2026-02-23T1700,2350A,113.8677,27.6438,萍乡市,市环保局,,,95,78,37,37,110,,107,107,10,10,14,12,,0
2026-02-23T1700,2351A,113.8663,27.6202,萍乡市,安源区政府,颗粒物(PM10),80,110,88,34,36,80,,76,76,12,13,9,7,0.7,0.8
2026-02-23T1700,4107A,113.8686,27.6668,萍乡市,联洪村委会,颗粒物(PM10),75,100,85,38,34,86,,83,83,4,3,4,3,0.5,0.4
2026-02-23T1700,2319A,119.0142,25.4324,莆田市,荔城区仓后路,颗粒物(PM10),64,78,68,33,37,88,,105,99,6,12,/,/,/,/
2026-02-23T1700,2320A,119.0016,25.4553,莆田市,莆田市监测站,,,,46,37,32,91,,112,102,6,8,3,3,0.4,0.4
2026-02-23T1700,2321A,119.112,25.4561,莆田市,涵江区六中,颗粒物(PM10),66,82,76,30,32,91,,114,98,3,6,/,/,0.4,0.5
2026-02-23T1700,2322A,119.1014,25.3215,莆田市,秀屿区政府,颗粒物(PM10),101,151,108,48,44,90,,109,95,6,7,2,4,0.3,0.4
2026-02-23T1700,2392A,115.0312,35.7636,濮阳市,环保局,颗粒物(PM10),62,74,241,29,63,44,,48,40,12,13,6,8,0.6,0.5
2026-02-23T1700,3021A,115,35.7667,濮阳市,濮水河管理处,颗粒物(PM10),57,63,230,28,63,46,,48,40,12,16,5,9,0.5,0.4
2026-02-23T1700,4118A,115.0552,35.7816,濮阳市,中原东路68号,颗粒物(PM10),60,70,257,34,63,46,,42,42,18,19,4,9,0.6,0.7
2026-02-23T1700,4216A,115.0923632,35.76857718,濮阳市,任丘路479号,颗粒物(PM10),58,66,229,30,62,46,,42,38,15,16,3,9,0.6,0.5
2026-02-23T1700,2601A,100.9801,22.7634,普洱市,市环保局,颗粒物(PM10),54,58,54,26,25,121,,100,100,5,7,5,5,0.6,0.7
2026-02-23T1700,2602A,100.9763,22.8237,普洱市,普洱第二中学,颗粒物(PM10),54,57,51,30,28,121,,103,103,6,11,6,6,0.6,0.6
2026-02-23T1700,3345A,131.0413,45.7795,七台河市,中波台,颗粒物(PM10),81,111,87,8,10,81,,82,82,3,3,5,6,0.2,0.2
2026-02-23T1700,3637A,131.0136,45.7688,七台河市,人民广场,颗粒物(PM10),79,108,85,12,11,76,,78,78,10,10,6,7,0.4,0.4
2026-02-23T1700,3684A,130.8639,45.8144,七台河市,新建矿广场,颗粒物(PM10),112,173,101,11,12,75,,76,76,2,4,2,3,0,0.1
2026-02-23T1700,1779A,123.9307,47.3641,齐齐哈尔市,安居小区,,30,30,25,7,5,78,,78,78,2,3,11,12,0.5,0.4
2026-02-23T1700,1780A,123.9497,47.3389,齐齐哈尔市,中心广场,,28,28,18,3,5,76,,76,76,5,5,7,8,0.5,0.5
2026-02-23T1700,1781A,123.9483,47.3229,齐齐哈尔市,农牧车辆厂,,27,27,28,7,5,79,,79,79,2,3,7,7,0.2,0.2
2026-02-23T1700,1783A,123.9442,47.2994,齐齐哈尔市,市环境监测站,,44,44,30,8,6,77,,76,76,3,4,3,3,0.2,0.2
2026-02-23T1700,3662A,123.6341,47.2079,齐齐哈尔市,富区青少年活动中心,颗粒物(PM10),51,51,39,10,10,72,,74,74,6,8,4,4,0.4,0.3
2026-02-23T1700,2591A,107.9765,26.5724,黔东南苗族侗族自治州,市环境监测站,,25,19,41,17,34,73,,59,59,2,12,3,4,0.3,0.6
2026-02-23T1700,2881A,107.8909,26.531,黔东南苗族侗族自治州,凯里学院,,31,31,34,20,31,68,,60,60,8,10,3,2,0.5,0.6
2026-02-23T1700,2593A,107.5223,26.2371,黔南布依族苗族自治州,小围寨,,23,22,24,11,23,72,,60,60,3,5,3,5,0.5,0.6
2026-02-23T1700,3538A,107.5175,26.2977,黔南布依族苗族自治州,沙坝,,23,22,28,6,21,71,,56,56,5,6,3,4,0.6,0.7
2026-02-23T1700,2589A,104.9022,25.0943,黔西南布依族苗族自治州,场坝街,,37,23,35,20,28,117,,98,98,5,5,6,5,0.5,0.6
2026-02-23T1700,2590A,104.8812,25.0994,黔西南布依族苗族自治州,坪东大道,,39,,35,18,29,123,,105,105,4,5,6,5,0.4,0.5
2026-02-23T1700,2502A,108.6238,21.9667,钦州市,市环保站,,35,29,40,24,26,63,,59,59,4,9,2,4,0.3,0.4
2026-02-23T1700,2503A,108.655,21.9481,钦州市,沙埠小学,,42,42,44,25,26,64,,62,62,6,9,3,5,0.5,0.6
2026-02-23T1700,2504A,108.5989,21.7435,钦州市,港区一小,,28,28,39,19,21,56,,57,57,14,15,1,2,1.0,0.8
2026-02-23T1700,3404A,108.5959,21.9634,钦州市,北职校,,30,30,37,12,21,57,,56,56,8,10,2,4,0.6,0.6
2026-02-23T1700,1046A,119.5247,39.9346,秦皇岛市,建设大厦,颗粒物(PM10),55,60,63,8,8,79,,80,80,6,8,4,4,0.2,0.3
2026-02-23T1700,3132A,119.5979,39.938,秦皇岛市,文明里,颗粒物(PM10),53,56,63,8,6,74,,78,78,9,8,8,8,0.2,0.3
2026-02-23T1700,4066A,119.7458,39.9952,秦皇岛市,南园路157号,颗粒物(PM10),55,60,56,13,6,73,,77,77,9,13,5,5,0.3,0.3
2026-02-23T1700,4067A,119.5131,39.8858,秦皇岛市,翠岛大街1号,颗粒物(PM10),59,67,56,6,5,71,,75,75,10,6,7,7,0.2,0.3
2026-02-23T1700,4198A,119.509013,39.825305,秦皇岛市,北戴河轮滑馆,,50,50,56,8,6,76,,80,80,11,9,5,6,0.2,0.2
2026-02-23T1700,1310A,120.404,36.0625,青岛市,市南区东部子站,,,56,45,10,10,88,,86,86,,7,9,8,0.4,0.5
2026-02-23T1700,1311A,120.362344,36.10282,青岛市,四方区子站,颗粒物(PM10),53,56,48,11,11,90,,88,88,5,8,5,5,0.4,0.4
2026-02-23T1700,1312A,120.294373,36.054183,青岛市,市南区西部子站,颗粒物(PM10),51,51,43,10,10,93,,88,88,9,12,3,4,0.4,0.4
2026-02-23T1700,1313A,120.4581,36.0858,青岛市,崂山区子站,颗粒物(PM10),51,51,40,11,9,92,,88,88,1,3,7,7,0.3,0.4
2026-02-23T1700,1315A,120.3945,36.3083,青岛市,城阳区子站,颗粒物(PM10),52,53,50,13,18,73,,77,77,18,16,6,7,0.7,0.8
2026-02-23T1700,3642A,120.3454,36.0735,青岛市,市北区南部,颗粒物(PM10),56,62,44,9,10,86,,83,83,6,6,2,2,0.5,0.6
2026-02-23T1700,3643A,120.3897,36.18,青岛市,李沧区北部,颗粒物(PM10),56,61,52,10,10,83,,81,81,9,11,8,8,0.4,0.5
2026-02-23T1700,4110A,120.5222,36.4089,青岛市,盟旺路653号,颗粒物(PM10),55,59,53,11,19,88,,85,85,6,7,2,2,0.5,0.6
2026-02-23T1700,4290A,120.196923,35.954556,青岛市,珠江路669号,,48,48,45,7,11,87,,83,83,11,27,8,9,0.3,0.3
2026-02-23T1700,4291A,120.0424,35.8656,青岛市,黄岛区人民政府广场,颗粒物(PM10),52,53,43,6,8,91,,85,85,8,10,7,7,0.4,0.4
2026-02-23T1700,1703A,113.0218,23.7086,清远市,凤城街办,,50,46,55,35,41,139,,112,112,11,20,/,/,/,/
2026-02-23T1700,3025A,113.0479,23.6343,清远市,技师学院,,45,34,52,22,32,144,,114,114,9,16,5,5,0.4,0.5
2026-02-23T1700,3318A,112.9898,23.7403,清远市,清新太和,,49,47,43,34,30,153,,125,125,13,15,9,9,0.6,0.6
2026-02-23T1700,3455A,113.076,23.72,清远市,清城东城,,46,46,57,28,33,142,,114,114,13,27,/,/,/,/
2026-02-23T1700,2661A,107.6325,35.7357,庆阳市,庆阳五中,颗粒物(PM10),82,113,271,47,100,84,,67,67,8,12,5,8,0.4,0.5
2026-02-23T1700,2662A,107.6361,35.7067,庆阳市,市环保局,颗粒物(PM10),115,180,266,43,98,63,,71,60,16,11,,6,0.5,0.4
2026-02-23T1700,1916A,103.7897,25.5036,曲靖市,环境监测站,,44,33,28,9,17,140,,128,128,4,8,4,5,0.3,0.4
2026-02-23T1700,1917A,103.8013,25.5357,曲靖市,烟厂办公区,,42,23,33,11,19,132,,120,120,3,19,4,6,0.3,0.4
2026-02-23T1700,3376A,103.7926,25.4651,曲靖市,南苑二区,,38,27,27,12,13,120,,115,115,8,8,4,4,0.2,0.4
2026-02-23T1700,3377A,103.7442,25.5259,曲靖市,曲靖师范学院,,43,28,34,13,21,136,,127,127,4,10,4,4,0.3,0.4
2026-02-23T1700,1264A,118.8694,28.94,衢州市,环保大楼,颗粒物(PM10),147,244,216,70,62,109,,100,100,6,8,/,/,/,/
2026-02-23T1700,1266A,118.8622,28.9809,衢州市,衢州学院,颗粒物(PM10),140,229,194,61,54,105,,97,97,6,7,6,5,0.5,0.5
2026-02-23T1700,4097A,118.9646,28.9832,衢州市,衢州三中,颗粒物(PM10),142,234,211,60,53,100,,92,92,6,8,5,5,0.6,0.6
2026-02-23T1700,1611A,118.5818,24.9116,泉州市,涂山街,颗粒物(PM10),78,105,71,42,34,79,,93,90,10,12,3,4,0.6,0.6
2026-02-23T1700,1612A,118.597,24.8976,泉州市,津头埔,颗粒物(PM10),84,118,72,49,34,82,,98,94,12,12,4,4,0.6,0.6
2026-02-23T1700,1613A,118.6669,24.9422,泉州市,万安,颗粒物(PM10),86,121,84,42,34,72,,88,83,8,10,3,6,0.5,0.6
2026-02-23T1700,4105A,118.6355,24.9148,泉州市,霞新路6号,颗粒物(PM10),84,117,62,52,37,78,,93,88,11,11,/,/,0.5,0.6
2026-02-23T1700,2626A,88.8873,29.2723,日喀则市,日喀则监测站,,38,14,23,3,9,121,,105,105,3,7,10,10,0.4,0.6
2026-02-23T1700,3726A,88.8775,29.2425,日喀则市,林业技术推广中心,,36,22,24,7,8,115,,100,100,3,5,16,16,0.3,0.4
2026-02-23T1700,1659A,119.4711,35.421,日照市,监测站,颗粒物(PM10),52,53,42,3,11,90,,88,88,11,14,6,8,0.5,0.6
2026-02-23T1700,1660A,119.523,35.4216,日照市,市政府广场,颗粒物(PM10),52,53,42,6,8,91,,90,90,10,11,6,6,0.4,0.4
2026-02-23T1700,1661A,119.5511,35.4113,日照市,港务局,颗粒物(PM10),53,56,45,7,8,94,,91,91,11,14,4,6,0.5,0.5
2026-02-23T1700,3507A,119.5326,35.4627,日照市,职业技术学院,颗粒物(PM10),52,53,40,3,9,93,,90,90,9,11,6,8,0.5,0.6
2026-02-23T1700,3604A,119.3267,35.1043,日照市,岚山环保分局,颗粒物(PM10),53,56,41,7,6,88,,85,85,13,12,9,9,0.6,0.6
2026-02-23T1700,1835A,111.1922,34.7752,三门峡市,市政府,颗粒物(PM10),87,124,282,43,73,71,,75,75,3,6,8,9,0.3,0.4
2026-02-23T1700,1836A,111.1588,34.794,三门峡市,开发区,颗粒物(PM10),109,168,365,55,92,71,,76,74,9,8,7,9,0.3,0.4
2026-02-23T1700,3039A,111.1911,34.7829,三门峡市,三门峡市第一小学,颗粒物(PM10),94,138,317,42,83,72,,77,76,8,10,11,11,0.4,0.4
2026-02-23T1700,3598A,111.1031,34.719,三门峡市,富达温泉假日酒店,颗粒物(PM10),99,147,332,61,97,74,,76,75,2,9,8,10,0.3,0.4
2026-02-23T1700,2324A,117.621,26.2626,三明市,三钢,,32,31,31,18,25,102,,100,100,4,10,4,5,0.3,0.6
2026-02-23T1700,2325A,117.6352,26.2714,三明市,三明二中,,31,30,32,19,26,98,,95,95,4,9,6,6,0.5,0.3
2026-02-23T1700,2326A,117.6028,26.2377,三明市,三元区政府,,32,25,32,18,24,101,,101,101,6,13,6,7,0.7,1
2026-02-23T1700,1877A,109.4962,18.2682,三亚市,河西子站,,20,13,23,10,12,64,,66,66,2,2,1,1,0.2,0.3
2026-02-23T1700,3540A,109.7348,18.3443,三亚市,君悦子站,,30,30,27,14,14,68,,67,67,3,4,2,2,0.4,0.4
2026-02-23T1700,4135A,109.1714,18.3739,三亚市,城东小学站,,23,18,22,15,13,71,,73,73,4,5,/,/,/,/
2026-02-23T1700,2624A,91.7592,29.234,山南市,山南监测站,,34,14,16,12,8,108,,100,100,1,2,11,11,0.4,0.4
2026-02-23T1700,2625A,91.7701,29.2436,山南市,山南人民医院,颗粒物(PM10),55,60,18,11,10,112,,105,105,2,2,10,10,0.3,0.4
2026-02-23T1700,1674A,116.6795,23.3666,汕头市,金平子站,颗粒物(PM10),66,82,53,26,31,112,,116,116,5,10,5,5,0.7,0.8
2026-02-23T1700,1675A,116.7248,23.3632,汕头市,龙湖子站,颗粒物(PM10),70,90,56,26,32,108,,113,113,9,14,9,10,/,/
2026-02-23T1700,1676A,116.7257,23.2774,汕头市,濠江子站,颗粒物(PM10),75,100,55,32,30,106,,115,115,10,14,7,8,/,/
2026-02-23T1700,1677A,116.7518,23.4712,汕头市,澄海子站,颗粒物(PM10),71,92,57,26,33,108,,110,110,4,8,6,7,0.7,0.8
2026-02-23T1700,1678A,116.6088,23.2539,汕头市,潮阳子站,颗粒物(PM10),62,73,58,28,38,108,,112,112,6,11,5,6,0.5,0.7
2026-02-23T1700,3444A,116.4539,23.2684,汕头市,潮南峡山,颗粒物(PM10),56,61,53,28,37,114,,115,115,3,6,6,6,0.7,0.8
2026-02-23T1700,3624A,116.4069,23.2533,汕头市,潮南子站,颗粒物(PM10),62,73,67,26,45,103,,103,103,3,9,6,6,/,/
2026-02-23T1700,1693A,115.3653,22.7751,汕尾市,市环保局,颗粒物(PM10),61,71,49,26,30,124,,119,119,6,10,6,6,0.7,0.8
2026-02-23T1700,1695A,115.362,22.7926,汕尾市,新城中学,颗粒物(PM10),59,67,50,25,30,120,,117,117,7,9,6,6,0.7,0.7
2026-02-23T1700,2645A,109.9155,33.8714,商洛市,监测站,颗粒物(PM10),61,72,246,27,76,46,,95,58,10,11,4,10,0.7,0.5
2026-02-23T1700,3045A,109.9647,33.8486,商洛市,商州区中学,颗粒物(PM10),61,71,236,43,74,50,,108,55,8,8,4,15,0.9,0.8
2026-02-23T1700,2408A,115.6701,34.4283,商丘市,环境监测站,颗粒物(PM10),83,115,302,32,63,69,,69,69,13,12,4,2,0.5,0.4
2026-02-23T1700,2409A,115.6458,34.4047,商丘市,粮食局,颗粒物(PM10),78,106,287,34,66,64,,64,64,11,9,4,2,0.5,0.3
2026-02-23T1700,3171A,115.6069,34.4465,商丘市,梁园区档案局,颗粒物(PM10),84,118,293,32,58,72,,71,71,10,8,6,2,0.4,0.3
2026-02-23T1700,4119A,115.6701,34.3767,商丘市,北海东路185号,颗粒物(PM10),84,117,305,31,68,66,,67,67,13,10,5,3,0.4,0.3
2026-02-23T1700,4120A,115.6172,34.3704,商丘市,中山大街3号,颗粒物(PM10),90,130,326,31,78,68,,68,68,14,12,6,4,0.3,0.2
2026-02-23T1700,1141A,121.401,31.2382,上海市,普陀,颗粒物(PM10),59,68,110,16,24,101,,95,95,13,10,6,5,0.4,0.4
2026-02-23T1700,1142A,121.4774,31.2043,上海市,十五厂,颗粒物(PM10),60,70,107,18,22,108,,100,100,15,14,8,8,0.6,0.5
2026-02-23T1700,1143A,121.4673,31.3011,上海市,虹口,颗粒物(PM10),60,70,103,16,18,100,,91,91,7,10,6,6,0.3,0.4
2026-02-23T1700,1147A,121.4253,31.226,上海市,静安监测站,颗粒物(PM10),58,66,77,18,21,105,,99,99,12,11,7,7,0.4,0.4
2026-02-23T1700,1148A,121.7029,31.1905,上海市,浦东川沙,颗粒物(PM10),58,66,104,16,19,98,,94,94,17,14,2,2,0.3,0.4
2026-02-23T1700,1149A,121.5339,31.229,上海市,浦东新区监测站,颗粒物(PM10),58,65,100,23,21,104,,96,96,8,8,5,5,0.4,0.4
2026-02-23T1700,1150A,121.5776,31.2038,上海市,浦东张江,颗粒物(PM10),59,68,109,20,24,108,,98,98,12,13,6,6,0.1,0
2026-02-23T1700,3265A,121.4242,31.3303,上海市,宝山庙行,颗粒物(PM10),61,72,102,17,15,96,,92,92,12,13,9,9,0.4,0.4
2026-02-23T1700,3266A,121.8789,31.4662,上海市,崇明上实东滩,颗粒物(PM10),56,62,84,16,17,108,,102,102,5,6,6,6,0.5,0.1
2026-02-23T1700,3268A,121.316,31.2839,上海市,嘉定南翔,颗粒物(PM10),58,66,97,17,21,98,,93,93,14,17,4,4,0.4,0.4
2026-02-23T1700,3269A,121.3357,30.7455,上海市,金山新城,颗粒物(PM10),56,61,126,17,25,100,,93,93,6,7,4,4,0.6,0.6
2026-02-23T1700,3270A,121.4996,31.0741,上海市,闵行浦江,颗粒物(PM10),55,60,109,16,22,107,,98,98,8,11,6,6,0,0
2026-02-23T1700,3271A,121.2886,31.1663,上海市,青浦徐泾,颗粒物(PM10),61,71,121,18,23,104,,93,93,8,12,4,5,0.5,0.5
2026-02-23T1700,3272A,121.2193,31.0382,上海市,松江图书馆,颗粒物(PM10),62,73,136,17,24,106,,98,98,9,12,6,6,0.6,0.5
2026-02-23T1700,3273A,121.3904,31.206,上海市,长宁仙霞,,,66,109,16,22,103,,95,95,10,4,7,7,,0.2
2026-02-23T1700,3274A,121.7964,31.0507,上海市,浦东惠南,颗粒物(PM10),54,58,104,16,20,103,,98,98,11,12,6,5,0.5,0.5
2026-02-23T1700,3544A,121.4891,30.925,上海市,奉贤南桥新城,颗粒物(PM10),57,64,130,14,27,107,,99,99,4,6,2,2,0.4,0.4
2026-02-23T1700,4183A,121.417401,31.16637,上海市,冠生园路458号,颗粒物(PM10),57,64,104,18,24,101,,92,92,13,14,6,6,0.2,0.3
2026-02-23T1700,4205A,121.541914,31.268301,上海市,宁武路151号,颗粒物(PM10),61,72,105,16,20,105,,96,96,11,12,6,6,0.2,0.2
2026-02-23T1700,2382A,117.9758,28.4439,上饶市,市监测站,颗粒物(PM10),109,168,126,52,42,108,,100,100,9,17,4,5,/,/
2026-02-23T1700,2383A,117.9521,28.4637,上饶市,凤凰光学,颗粒物(PM10),105,160,133,54,47,97,,91,91,11,15,7,8,0.6,0.7
2026-02-23T1700,3685A,117.897,28.4316,上饶市,双创科技城,颗粒物(PM10),103,155,119,48,46,110,,108,108,9,14,,5,0.8,0.9
2026-02-23T1700,4211A,118.190438,28.444845,上饶市,裕丰大道,颗粒物(PM10),121,192,162,60,54,116,,102,102,9,12,10,10,0.7,0.8
2026-02-23T1700,1669A,113.5821,24.7733,韶关市,市八中,,,43,63,29,46,110,,94,94,,22,10,12,0.5,0.6
2026-02-23T1700,1671A,113.5916,24.7973,韶关市,园林处,,35,27,51,23,48,110,,92,92,9,27,5,7,/,/
2026-02-23T1700,1673A,113.5971,24.6864,韶关市,曲江监测站,,39,33,47,27,34,102,,97,97,9,18,5,8,0.6,0.9
2026-02-23T1700,2809A,113.6668,24.7756,韶关市,大学路288号,,39,39,39,26,33,105,,92,92,8,12,5,5,/,/
2026-02-23T1700,3622A,113.5556,24.8082,韶关市,碧湖山庄,,39,39,56,26,41,116,,96,96,5,10,8,8,0.7,0.7
2026-02-23T1700,2464A,111.5277,27.2442,邵阳市,市化工厂,细颗粒物(PM2.5),67,48,56,48,50,56,,48,48,4,10,10,10,0.9,0.9
2026-02-23T1700,2466A,111.4327,27.2276,邵阳市,市环保局,细颗粒物(PM2.5),70,,49,51,50,61,,53,53,7,13,6,7,1.0,1.1
2026-02-23T1700,4218A,111.446,27.2472,邵阳市,北塔二期4-26地块,颗粒物(PM10),51,51,53,28,44,61,,51,51,5,16,7,8,0.8,1
2026-02-23T1700,4219A,111.4739,27.2282,邵阳市,邵水西路287号,,,,55,48,50,59,,51,51,,10,,5,0.9,1
2026-02-23T1700,1247A,120.6053,29.9927,绍兴市,城东开发委,颗粒物(PM10),94,137,203,44,41,92,,85,85,8,5,8,7,0.3,0.3
2026-02-23T1700,2921A,120.5482,30.0003,绍兴市,树下王站,颗粒物(PM10),89,127,182,33,42,96,,90,90,7,8,7,6,0.4,0.4
2026-02-23T1700,3408A,120.5685,29.936,绍兴市,绍兴中专,颗粒物(PM10),112,174,226,35,43,106,,95,95,5,6,7,6,0.5,0.4
2026-02-23T1700,3409A,120.4905,30.086,绍兴市,柯桥区政府,颗粒物(PM10),79,107,173,29,37,95,,92,92,12,14,5,5,0.2,0.2
