timepoint,stationcode,longitude,latitude,area,positionname,primarypollutant,aqi,pm10,pm10_24h,pm2_5,pm2_5_24h,o3,o3_24h,o3_8h,o3_8h_24h,no2,no2_24h,so2,so2_24h,co,co_24h
2025-04-04T1400,2566A,102.1879,31.914,阿坝藏族羌族自治州,州农科所,,24,14,28,6,10,74,,53,53,7,9,12,12,0.3,0.4
2025-04-04T1400,2568A,102.2502,31.8896,阿坝藏族羌族自治州,马师校,,30,30,26,8,17,85,,50,50,6,13,6,5,0.4,0.4
2025-04-04T1400,3994A,102.2165,31.9024,阿坝藏族羌族自治州,马尔康中学西区,,,,23,,14,88,,60,60,7,8,4,6,0.3,0.4
2025-04-04T1400,2695A,80.292,41.1694,阿克苏地区,电视台,颗粒物(PM10),256,389,428,85,109,86,,47,47,5,18,6,4,0.3,0.5
2025-04-04T1400,2696A,80.2613,41.1551,阿克苏地区,艺术中心,颗粒物(PM10),307,425,451,99,116,87,,52,52,9,18,4,3,0.5,0.6
2025-04-04T1400,2204A,105.6467,38.8363,阿拉善盟,西城区西花园,,44,44,148,14,44,108,,107,104,6,8,11,12,0.6,0.6
2025-04-04T1400,2205A,105.6985,38.8411,阿拉善盟,蒙二幼,,44,44,166,9,51,97,,99,95,7,7,5,5,0.4,0.5
2025-04-04T1400,2206A,105.724,38.8516,阿拉善盟,环保局新楼,,48,48,160,11,50,101,,106,98,3,4,8,8,0.5,0.5
2025-04-04T1400,2708A,88.1264,47.8517,阿勒泰地区,市站,,29,14,12,3,5,91,,92,91,4,4,2,2,0.4,0.6
2025-04-04T1400,2630A,80.1161,32.5,阿里地区,阿里监测站,,31,12,15,9,10,97,,97,82,1,5,6,6,0.4,0.5
2025-04-04T1400,3192A,80.0903,32.5028,阿里地区,阿里藏医院,,34,15,17,9,8,108,,108,97,1,2,6,7,0.5,0.5
2025-04-04T1400,2642A,109.0318,32.6537,安康市,香溪洞,,48,48,55,30,30,41,,61,38,8,10,7,9,0.5,0.5
2025-04-04T1400,2644A,109.0072,32.6975,安康市,汉滨区检察院,颗粒物(PM10),65,80,69,32,28,36,,44,27,23,18,11,10,0.6,0.5
2025-04-04T1400,4054A,109.0325,32.6913,安康市,市邮政管理局,颗粒物(PM10),71,91,61,42,35,31,,35,25,30,24,13,14,0.8,0.7
2025-04-04T1400,2291A,117.0809,30.5177,安庆市,环科院,颗粒物(PM10),70,90,76,41,35,108,,56,56,46,43,14,15,0.8,0.8
2025-04-04T1400,2292A,117.0331,30.5119,安庆市,马山宾馆,颗粒物(PM10),70,89,79,50,34,98,,59,48,55,44,12,10,0.9,0.8
2025-04-04T1400,2294A,116.9896,30.6145,安庆市,安庆大学,颗粒物(PM10),71,91,87,32,40,142,,73,73,30,38,14,8,0.9,0.7
2025-04-04T1400,3173A,117.0598,30.5351,安庆市,市人大,颗粒物(PM10),68,85,77,40,36,125,,62,62,31,39,25,12,0.8,0.7
2025-04-04T1400,3122A,105.9606,26.2611,安顺市,伍家关,细颗粒物(PM2.5),72,84,51,52,37,123,,125,119,8,7,11,8,0.8,0.7
2025-04-04T1400,3123A,105.9408,26.2431,安顺市,凤凰山,细颗粒物(PM2.5),85,78,60,63,41,136,,130,130,10,10,14,11,0.6,0.5
2025-04-04T1400,3124A,105.9439,26.2564,安顺市,金钟山,细颗粒物(PM2.5),84,72,54,62,41,141,,136,136,10,9,12,10,0.7,0.6
2025-04-04T1400,3125A,105.8983,26.2481,安顺市,娄家坡,细颗粒物(PM2.5),82,79,58,60,36,138,,132,132,9,9,12,10,0.9,0.8
2025-04-04T1400,1818A,114.4839,36.0621,安阳市,棉研所,,,,,,,,,,,,,,,,
2025-04-04T1400,1819A,114.3551,36.1017,安阳市,红庙街,细颗粒物(PM2.5),108,151,98,81,53,55,,66,44,44,21,12,7,1.0,0.6
2025-04-04T1400,1820A,114.361,36.0681,安阳市,银杏小区,细颗粒物(PM2.5),122,95,85,92,58,51,,,,41,21,,6,1.5,0.6
2025-04-04T1400,3141A,114.3922,36.0878,安阳市,信访局,细颗粒物(PM2.5),149,166,106,114,74,42,,76,38,46,27,,6,0.9,0.5
2025-04-04T1400,3669A,114.4705,36.0637,安阳市,左辅环卫站,细颗粒物(PM2.5),120,154,112,91,57,56,,65,52,23,15,8,6,0.6,0.5
2025-04-04T1400,3703A,114.2917,36.0949,安阳市,安钢职工学校,细颗粒物(PM2.5),145,162,124,111,85,65,,57,44,47,29,15,6,1.4,0.7
2025-04-04T1400,1748A,123.044,41.1196,鞍山市,深沟寺,细颗粒物(PM2.5),63,64,43,45,28,125,,120,120,11,15,10,11,0.5,0.6
2025-04-04T1400,1749A,123.011,41.0931,鞍山市,太阳城,细颗粒物(PM2.5),65,71,42,47,28,123,,119,119,12,16,4,6,0.5,0.8
2025-04-04T1400,1750A,123.0485,41.1442,鞍山市,太平,颗粒物(PM10),61,72,51,39,27,122,,116,116,12,16,8,10,0.5,0.6
2025-04-04T1400,1751A,122.9642,41.0971,鞍山市,铁西三道街,颗粒物(PM10),65,80,52,46,30,124,,114,114,17,25,4,7,0.5,0.7
2025-04-04T1400,1753A,123.022,41.0821,鞍山市,明达新区,,,63,39,45,25,125,,120,120,8,13,6,9,,0.5
2025-04-04T1400,1754A,123.1289,41.0228,鞍山市,千山,,,,31,,15,,,86,,,11,,4,,0.8
2025-04-04T1400,4201A,122.9446,41.0826,鞍山市,兴盛南路290号,颗粒物(PM10),67,83,48,42,41,124,,117,117,15,27,9,13,0.6,0.9
2025-04-04T1400,2195A,107.4212,40.761,巴彦淖尔市,附二中,,31,29,125,12,38,98,,92,92,2,6,7,8,0.2,0.2
2025-04-04T1400,2196A,107.37,40.7372,巴彦淖尔市,市环保大楼,,30,28,128,8,35,94,,88,88,2,5,5,5,0.2,0.2
2025-04-04T1400,1956A,86.1472,41.7538,巴音郭楞蒙古自治州,孔雀公园,颗粒物(PM10),97,143,228,23,57,110,,75,74,4,22,5,7,0.2,0.3
2025-04-04T1400,1957A,86.1972,41.7166,巴音郭楞蒙古自治州,棉纺厂,颗粒物(PM10),123,196,289,23,56,110,,66,59,8,26,2,3,0.3,0.3
2025-04-04T1400,1958A,86.2357,41.7173,巴音郭楞蒙古自治州,经济开发区,颗粒物(PM10),349,459,236,23,46,112,,86,84,6,12,4,5,0.2,0.3
2025-04-04T1400,2914A,106.7677,31.8794,巴中市,苏山坪,,50,50,50,30,28,82,,90,80,19,11,3,3,0.4,0.3
2025-04-04T1400,3181A,106.7768,31.8526,巴中市,市五中,颗粒物(PM10),61,72,66,38,34,56,,22,18,36,30,6,6,0.8,0.7
2025-04-04T1400,3183A,106.7418,31.8654,巴中市,圣泉水务公司,颗粒物(PM10),52,54,56,31,29,80,,46,33,15,24,3,2,0.5,0.4
2025-04-04T1400,3616A,106.7616,31.8344,巴中市,市中心医院,颗粒物(PM10),61,71,65,43,38,49,,16,16,38,36,8,6,0.8,0.7
2025-04-04T1400,2235A,122.7911,45.6077,白城市,洮北区环保局,颗粒物(PM10),74,98,56,37,29,127,,96,96,13,12,7,7,0.6,0.5
2025-04-04T1400,2236A,122.8738,45.5725,白城市,市环保局,颗粒物(PM10),78,105,62,53,32,129,,94,94,10,11,8,6,0.5,0.5
2025-04-04T1400,2231A,126.4219,41.9171,白山市,喜丰,,43,43,71,19,30,130,,87,87,11,31,6,10,0.8,0.9
2025-04-04T1400,2232A,126.4077,41.9419,白山市,环保局,,42,32,56,15,26,132,,85,85,11,22,7,7,0.8,0.8
2025-04-04T1400,2647A,104.1724,36.5446,白银市,第三小学,颗粒物(PM10),93,136,228,33,57,113,,102,102,5,7,8,11,0.3,0.3
2025-04-04T1400,2648A,104.1465,36.5482,白银市,动力公司,颗粒物(PM10),92,134,209,41,61,111,,101,101,6,7,4,7,0.3,0.3
2025-04-04T1400,2512A,106.6103,23.9011,百色市,市监测站,颗粒物(PM10),55,60,77,35,46,145,,117,117,12,16,15,21,0.8,0.9
2025-04-04T1400,2513A,106.6538,23.8859,百色市,市中心血站,细颗粒物(PM2.5),59,64,84,42,54,144,,118,118,10,15,14,22,0.7,0.9
2025-04-04T1400,3406A,106.6085,23.8798,百色市,祈福高中,颗粒物(PM10),57,64,82,33,42,141,,108,108,11,18,15,18,0.8,0.9
2025-04-04T1400,2270A,117.396,32.939,蚌埠市,工人疗养院,颗粒物(PM10),71,92,69,36,30,169,,134,134,13,17,7,7,0.6,0.6
2025-04-04T1400,2271A,117.3605,32.9427,蚌埠市,百货大楼,颗粒物(PM10),75,99,70,43,31,152,,118,118,26,27,10,8,0.6,0.5
2025-04-04T1400,2273A,117.4185,32.8911,蚌埠市,蚌埠学院,颗粒物(PM10),70,90,60,38,31,159,,126,126,14,18,8,6,0.6,0.6
2025-04-04T1400,2274A,117.3533,32.9673,蚌埠市,淮上区政府,颗粒物(PM10),73,95,66,44,35,164,,128,128,17,21,9,8,0.5,0.5
2025-04-04T1400,2275A,117.3145,32.8977,蚌埠市,高新区,颗粒物(PM10),81,112,67,47,34,151,,116,116,19,20,10,8,0.6,0.6
2025-04-04T1400,3715A,117.3092,32.9314,蚌埠市,蚌埠田家炳中学,颗粒物(PM10),81,112,78,45,33,158,,120,120,24,25,16,9,0.5,0.5
2025-04-04T1400,1585A,109.8756,40.6532,包头市,市环境监测站,颗粒物(PM10),89,128,197,7,42,95,,88,88,4,11,9,10,0.4,0.4
2025-04-04T1400,1587A,109.9991,40.5842,包头市,包头八中,颗粒物(PM10),75,99,199,10,53,95,,87,87,4,13,7,8,0.3,0.4
2025-04-04T1400,1588A,109.8538,40.6821,包头市,青山宾馆,颗粒物(PM10),73,96,177,16,50,95,,89,89,2,8,7,8,0.4,0.5
2025-04-04T1400,1589A,109.8642,40.6288,包头市,惠龙物流,颗粒物(PM10),80,109,191,13,45,98,,91,91,4,10,6,7,0.3,0.5
2025-04-04T1400,1590A,110.0377,40.5546,包头市,东河鸿龙湾,颗粒物(PM10),73,95,196,3,38,95,,86,86,4,11,7,9,0.3,0.4
2025-04-04T1400,3283A,109.9154,40.5685,包头市,滨河大厦,颗粒物(PM10),61,71,185,11,49,97,,83,83,1,13,8,11,0.4,0.5
2025-04-04T1400,3419A,109.9447,40.6261,包头市,包头市委党校,颗粒物(PM10),84,117,186,11,41,83,,84,84,3,7,6,6,0.3,0.3
2025-04-04T1400,3683A,109.8331,40.6576,包头市,昆区政府,颗粒物(PM10),81,111,182,23,48,94,,87,87,5,12,6,7,0.3,0.4
2025-04-04T1400,1930A,107.185,34.3063,宝鸡市,庙沟村,颗粒物(PM10),178,306,132,86,50,114,,90,90,7,17,8,7,0.4,0.5
2025-04-04T1400,1931A,107.0708,34.3017,宝鸡市,竹园沟,颗粒物(PM10),148,245,129,71,49,118,,78,78,6,19,7,7,0.3,0.4
2025-04-04T1400,1932A,107.1906,34.3672,宝鸡市,三陆医院,颗粒物(PM10),161,272,140,54,52,112,,65,65,4,31,5,9,0.4,0.7
2025-04-04T1400,1933A,107.1431,34.3547,宝鸡市,监测站,颗粒物(PM10),151,252,142,91,54,109,,71,71,6,25,8,9,0.4,0.5
2025-04-04T1400,1934A,107.1186,34.3739,宝鸡市,技工学校,颗粒物(PM10),164,277,139,61,47,109,,79,79,7,18,5,9,0.4,0.6
2025-04-04T1400,1935A,107.3906,34.3528,宝鸡市,陈仓区环保局家属楼,颗粒物(PM10),130,209,137,45,53,115,,78,78,11,39,7,24,0.4,0.7
2025-04-04T1400,1936A,107.2058,34.3497,宝鸡市,文理学院,颗粒物(PM10),137,224,139,60,53,112,,74,74,8,26,6,8,0.3,0.5
2025-04-04T1400,1937A,107.2386,34.3622,宝鸡市,三迪小学,颗粒物(PM10),142,233,141,80,60,112,,68,68,12,37,10,9,0.3,0.6
2025-04-04T1400,1051A,115.493,38.8632,保定市,游泳馆,颗粒物(PM10),126,201,118,77,62,93,,72,72,49,43,14,11,0.4,0.3
2025-04-04T1400,1052A,115.5213,38.8959,保定市,华电二区,细颗粒物(PM2.5),107,142,105,80,65,93,,57,57,36,32,2,3,0.4,0.4
2025-04-04T1400,1053A,115.4713,38.9108,保定市,接待中心,细颗粒物(PM2.5),193,,109,145,83,110,,58,58,29,29,4,4,0.5,0.4
2025-04-04T1400,1054A,115.4612,38.8416,保定市,地表水厂,颗粒物(PM10),121,191,129,86,61,92,,66,66,53,45,7,6,0.6,0.5
2025-04-04T1400,3581A,115.31981,38.95208,保定市,满城区生态环境分局,细颗粒物(PM2.5),134,141,105,102,61,110,,68,68,31,36,1,3,0.6,0.5
2025-04-04T1400,3582A,115.47694,38.76408,保定市,清苑区第二中学,颗粒物(PM10),113,176,132,79,62,99,,53,53,39,42,8,7,0.5,0.5
2025-04-04T1400,3583A,115.62909,39.02311,保定市,徐水物探局,颗粒物(PM10),112,174,131,68,60,109,,48,48,28,47,9,8,0.2,0.2
2025-04-04T1400,4004A,115.4202,38.8656,保定市,双鹰农机,颗粒物(PM10),103,156,109,65,62,101,,71,71,44,49,7,6,0.4,0.3
2025-04-04T1400,4034A,115.5150,38.8590,保定市,植保所站,细颗粒物(PM2.5),179,172,110,135,59,74,,53,53,48,39,,3,,0.4
2025-04-04T1400,2594A,99.1678,25.1081,保山市,市环境监测站,细颗粒物(PM2.5),84,108,103,62,60,152,,138,138,9,12,6,7,0.7,0.8
2025-04-04T1400,2595A,99.1711,25.1328,保山市,市环保局,颗粒物(PM10),74,97,105,42,63,160,,154,154,8,9,6,7,0.7,0.8
2025-04-04T1400,1866A,109.2262,21.588,北海市,牛尾岭水库,,,42,34,31,31,121,,98,98,,12,6,6,0.5,0.6
2025-04-04T1400,1867A,109.1436,21.4086,北海市,海滩公园,,46,43,32,22,17,145,,132,132,8,11,8,7,0.7,0.6
2025-04-04T1400,1868A,109.0981,21.4661,北海市,新市环保局,,44,35,33,22,24,139,,132,132,11,16,6,5,0.2,0.2
2025-04-04T1400,1869A,109.1778,21.5233,北海市,北海工业园,,43,37,44,20,29,137,,125,125,6,14,10,9,0.2,0.4
2025-04-04T1400,3400A,109.1911,21.4415,北海市,龙潭自来水厂,,48,40,35,33,26,137,,126,126,10,13,8,8,0.4,0.5
2025-04-04T1400,1001A,116.3621,39.8784,北京市,万寿西宫,细颗粒物(PM2.5),90,122,115,67,58,118,,84,84,32,48,9,9,0.5,0.5
2025-04-04T1400,1002A,116.2202,40.2915,北京市,定陵,,,,,,,,,,,,,,,,
2025-04-04T1400,1003A,116.4174,39.9289,北京市,东四,颗粒物(PM10),65,80,110,42,59,110,,80,80,17,43,8,10,0.5,0.6
2025-04-04T1400,1004A,116.4072,39.8863,北京市,天坛,颗粒物(PM10),88,126,109,63,54,109,,74,74,31,46,5,4,0.8,0.8
2025-04-04T1400,1005A,116.462,39.9365,北京市,农展馆,颗粒物(PM10),53,56,105,25,53,105,,70,70,13,46,8,10,0.4,0.7
2025-04-04T1400,1006A,116.3392,39.9295,北京市,官园,颗粒物(PM10),68,86,113,39,54,100,,71,71,16,40,8,9,0.4,0.6
2025-04-04T1400,1007A,116.2878,39.9611,北京市,海淀万柳,,34,34,105,9,50,86,,60,60,11,47,4,6,0.6,0.7
2025-04-04T1400,1008A,116.6636,40.135,北京市,顺义新城,,42,42,104,9,52,112,,80,80,8,34,5,10,0.3,0.6
2025-04-04T1400,1009A,116.6275,40.3275,北京市,怀柔镇,,30,16,82,6,47,95,,84,84,4,21,3,6,0.2,0.5
2025-04-04T1400,1010A,116.2296,40.217,北京市,昌平镇,,32,31,91,3,40,100,,80,80,9,32,1,3,0.2,0.4
2025-04-04T1400,1011A,116.3966,39.9821,北京市,奥体中心,,33,33,100,10,49,102,,72,72,9,46,3,6,0.4,0.7
2025-04-04T1400,3281A,115.9718,40.4529,北京市,延庆夏都,,33,,73,23,45,101,,70,70,5,20,5,7,0.3,0.4
2025-04-04T1400,3418A,116.8336,40.4095,北京市,密云新城,颗粒物(PM10),63,75,90,39,47,121,,89,89,18,27,7,6,0.4,0.5
2025-04-04T1400,3671A,116.088,39.9726,北京市,门头沟三家店,颗粒物(PM10),67,84,118,20,49,85,,65,65,10,43,5,6,0.3,0.5
2025-04-04T1400,3672A,116.1541,39.8204,北京市,丰台云岗,细颗粒物(PM2.5),118,137,120,89,58,112,,74,74,33,47,9,8,0.6,0.5
2025-04-04T1400,3673A,116.6804,39.9081,北京市,通州东关,,48,48,114,11,58,95,,70,70,14,50,5,9,0.2,0.5
2025-04-04T1400,3674A,115.9577,39.7603,北京市,房山燕山,细颗粒物(PM2.5),103,146,95,77,64,109,,88,88,37,26,8,7,0.6,0.5
2025-04-04T1400,3675A,116.4672,39.7733,北京市,大兴旧宫,细颗粒物(PM2.5),93,130,116,69,57,104,,57,57,29,42,4,3,0.5,0.5
2025-04-04T1400,3694A,115.986,40.4563,北京市,延庆石河营,,32,15,81,3,41,100,,67,67,5,21,4,6,0.4,0.5
2025-04-04T1400,3695A,116.6151,40.3053,北京市,怀柔新城,,30,11,80,3,50,95,,85,85,9,21,5,8,0.3,0.7
2025-04-04T1400,3696A,116.2545,39.8768,北京市,丰台小屯,颗粒物(PM10),83,115,128,59,58,103,,73,73,28,55,5,5,0.5,0.4
2025-04-04T1400,3697A,116.84,40.3844,北京市,密云镇,颗粒物(PM10),63,75,89,43,46,129,,92,92,13,29,8,8,0.4,0.6
2025-04-04T1400,4182A,116.1942,39.9158,北京市,八角北路9号,颗粒物(PM10),71,91,124,38,56,112,,69,69,19,50,4,5,0.4,0.5
2025-04-04T1400,4194A,117.0790,40.1518,北京市,洳河巡河路,细颗粒物(PM2.5),72,85,83,52,56,128,,96,96,19,21,9,8,0.6,0.6
2025-04-04T1400,1761A,123.8275,41.3064,本溪市,大峪,,49,49,54,32,36,128,,122,122,11,23,9,9,0.4,0.5
2025-04-04T1400,1762A,123.7567,41.3325,本溪市,溪湖,颗粒物(PM10),52,54,59,32,37,128,,120,120,13,21,8,9,0.6,0.8
2025-04-04T1400,1763A,123.7169,41.3094,本溪市,彩屯,颗粒物(PM10),56,61,77,37,53,122,,110,110,19,31,15,13,1.2,1.6
2025-04-04T1400,1764A,123.7669,41.2864,本溪市,东明,颗粒物(PM10),52,53,57,28,34,123,,120,120,12,21,14,16,0.5,0.7
2025-04-04T1400,1765A,123.7992,41.2664,本溪市,新立屯,,47,47,45,30,33,126,,123,123,14,28,7,8,0.6,0.7
2025-04-04T1400,1766A,123.8142,41.3472,本溪市,威宁,颗粒物(PM10),52,54,75,22,35,125,,110,110,3,19,5,5,0.5,0.7
2025-04-04T1400,2587A,105.2864,27.3125,毕节市,八中,细颗粒物(PM2.5),67,82,62,48,42,114,,109,109,10,14,14,16,0.5,0.7
2025-04-04T1400,2588A,105.31,27.2944,毕节市,师专,颗粒物(PM10),63,75,60,44,38,123,,119,119,9,13,6,8,0.6,0.7
2025-04-04T1400,4263A,105.3688,27.3598,毕节市,工业大道,颗粒物(PM10),64,77,64,41,39,120,,112,112,12,16,8,10,0.6,0.6
2025-04-04T1400,1629A,118.0018,37.3617,滨州市,第二水厂,颗粒物(PM10),82,114,84,44,40,115,,86,86,19,33,16,12,0.8,0.7
2025-04-04T1400,1630A,117.9776,37.393,滨州市,北中新校,颗粒物(PM10),73,95,81,51,47,122,,93,93,23,48,18,17,0.5,0.7
2025-04-04T1400,3514A,117.9378,37.3956,滨州市,中海酒店,颗粒物(PM10),73,95,69,51,47,121,,101,101,19,29,12,13,0.5,0.6
2025-04-04T1400,3515A,117.9378,37.3553,滨州市,开发区一中,颗粒物(PM10),84,117,87,39,38,119,,90,90,28,46,17,15,0.5,0.5
2025-04-04T1400,3516A,118.0917,37.694,滨州市,金海六路,颗粒物(PM10),74,98,75,44,36,110,,86,86,22,32,13,10,0.6,0.6
2025-04-04T1400,4028A,117.9956,37.3753,滨州市,滨州市西街道办事处,颗粒物(PM10),80,110,84,51,50,124,,94,94,21,39,15,10,0.7,0.7
2025-04-04T1400,2311A,115.8072,33.8399,亳州市,污水处理厂,颗粒物(PM10),64,77,78,37,35,129,,105,105,15,17,5,5,0.5,0.4
2025-04-04T1400,2312A,115.7789,33.8518,亳州市,三国揽胜宫,颗粒物(PM10),69,88,79,36,31,137,,114,114,11,14,6,6,0.5,0.4
2025-04-04T1400,3332A,115.7633,33.8034,亳州市,亳州学院,颗粒物(PM10),66,81,72,36,33,120,,100,100,14,14,6,7,0.5,0.4
2025-04-04T1400,2693A,82.0485,44.8556,博尔塔拉蒙古自治州,市党校,颗粒物(PM10),52,54,50,22,21,93,,56,56,23,29,2,2,0.3,0.4
2025-04-04T1400,2694A,82.0806,44.8969,博尔塔拉蒙古自治州,市环保局,颗粒物(PM10),54,57,60,15,16,108,,43,43,13,17,2,3,0.6,1.4
2025-04-04T1400,1071A,116.8842,38.2991,沧州市,沧县城建局,颗粒物(PM10),85,119,78,52,44,104,,85,85,22,23,7,5,0.6,0.6
2025-04-04T1400,1072A,116.8584,38.3254,沧州市,电视转播站,"颗粒物(PM10),细颗粒物(PM2.5)",83,116,78,61,48,114,,93,93,19,21,10,7,0.3,0.3
2025-04-04T1400,1073A,116.8709,38.3228,沧州市,市环保局,颗粒物(PM10),83,116,79,57,43,112,,90,90,18,21,10,8,0.5,0.4
2025-04-04T1400,3324A,116.8136,38.3004,沧州市,河北水利电力学院,颗粒物(PM10),95,139,91,54,46,96,,81,81,23,25,8,7,0.4,0.4
2025-04-04T1400,2622A,97.1806,31.1273,昌都市,昌都监测站,,39,8,12,6,9,124,,106,106,3,7,8,8,0.0,0.1
2025-04-04T1400,3719A,97.1714,31.1406,昌都市,昌都会议中心,细颗粒物(PM2.5),69,,14,50,22,92,,90,90,6,8,3,3,0.0,0.1
2025-04-04T1400,2690A,88.1236,43.8886,昌吉回族自治州,天山天池,,32,16,14,16,9,100,,86,86,6,7,3,3,0.4,0.5
2025-04-04T1400,2692A,87.2717,44.0297,昌吉回族自治州,新区政务中心,颗粒物(PM10),51,52,45,14,16,119,,83,83,12,24,16,9,0.7,0.6
2025-04-04T1400,3613A,87.3095,44.0142,昌吉回族自治州,亚心广场,颗粒物(PM10),58,66,53,24,16,121,,86,86,11,20,12,7,0.7,0.5
2025-04-04T1400,1119A,125.3325,43.9166,长春市,食品厂,细颗粒物(PM2.5),74,86,84,54,67,150,,119,119,17,28,10,10,0.4,0.6
2025-04-04T1400,1120A,125.2863,43.9027,长春市,客车厂,细颗粒物(PM2.5),74,77,77,54,73,144,,116,116,19,26,8,8,0.5,0.6
2025-04-04T1400,1121A,125.2841,43.8463,长春市,邮电学院,颗粒物(PM10),71,91,88,50,68,153,,120,120,14,25,9,9,0.4,0.6
2025-04-04T1400,1122A,125.3716,43.8772,长春市,劳动公园,"颗粒物(PM10),细颗粒物(PM2.5)",63,76,85,45,63,153,,123,123,13,26,9,9,0.4,0.4
2025-04-04T1400,1123A,125.3297,43.8805,长春市,园林处,细颗粒物(PM2.5),67,76,75,48,59,154,,121,121,13,22,9,9,0.5,0.6
2025-04-04T1400,1124A,125.4605,43.79,长春市,净月潭,颗粒物(PM10),56,62,69,37,49,145,,114,114,10,13,9,7,0.4,0.5
2025-04-04T1400,1125A,125.7194,43.515,长春市,甩湾子,,,,,,,,,,,,,,,,
2025-04-04T1400,1126A,125.3863,43.8447,长春市,经开区环卫处,颗粒物(PM10),59,68,78,40,56,141,,114,114,12,24,8,7,0.5,0.6
2025-04-04T1400,1127A,125.245,43.7783,长春市,高新区管委会,细颗粒物(PM2.5),64,73,100,46,91,143,,112,112,13,30,10,11,0.5,0.8
2025-04-04T1400,1128A,125.1761,43.8325,长春市,岱山公园,细颗粒物(PM2.5),67,63,88,48,74,153,,127,127,14,37,7,8,0.5,0.7
2025-04-04T1400,1335A,113.0833,28.2325,长沙市,经开区环保局,细颗粒物(PM2.5),92,80,71,68,40,37,,49,36,59,52,7,8,0.7,0.6
2025-04-04T1400,1336A,112.8872,28.2189,长沙市,高开区环保局,细颗粒物(PM2.5),70,74,71,51,37,90,,125,90,29,29,8,9,0.7,0.7
2025-04-04T1400,1337A,113.0792,28.2053,长沙市,马坡岭,细颗粒物(PM2.5),67,79,69,48,40,68,,80,53,26,35,7,8,0.6,0.6
2025-04-04T1400,1338A,112.9394,28.19,长沙市,湖南师范大学,"颗粒物(PM10),细颗粒物(PM2.5)",63,76,59,45,35,89,,109,80,27,22,8,8,0.7,0.7
2025-04-04T1400,1339A,113.0178,28.1322,长沙市,雨花区环保局,颗粒物(PM10),58,66,66,36,34,101,,123,97,20,27,10,11,0.5,0.6
2025-04-04T1400,1340A,112.9792,28.2597,长沙市,伍家岭,细颗粒物(PM2.5),80,81,93,59,44,55,,43,43,43,56,6,6,0.8,0.8
2025-04-04T1400,1341A,113.0014,28.1944,长沙市,火车新站,细颗粒物(PM2.5),67,76,74,48,40,96,,104,85,25,39,10,10,0.7,0.7
2025-04-04T1400,1342A,112.9844,28.1178,长沙市,天心区环保局,颗粒物(PM10),60,69,66,38,38,103,,128,100,21,27,7,8,0.9,0.9
2025-04-04T1400,1343A,112.8908,28.1308,长沙市,湖南中医药大学,颗粒物(PM10),60,70,74,39,40,70,,47,35,29,51,5,5,0.7,0.7
2025-04-04T1400,1344A,112.9581,28.3611,长沙市,沙坪,细颗粒物(PM2.5),69,68,49,50,35,65,,112,78,19,18,9,9,0.9,0.7
2025-04-04T1400,1727A,113.1147,36.1547,长治市,清华站,颗粒物(PM10),88,125,86,48,40,102,,101,82,14,18,14,10,0.7,0.7
2025-04-04T1400,1730A,113.0886,36.2125,长治市,审计局,颗粒物(PM10),79,108,83,39,41,108,,98,74,11,22,13,12,0.3,0.4
2025-04-04T1400,1731A,113.0844,36.1856,长治市,长治八中,颗粒物(PM10),104,158,109,66,51,105,,95,70,14,23,16,13,0.5,0.6
2025-04-04T1400,2845A,113.1569,36.1911,长治市,德盛苑,颗粒物(PM10),95,140,88,44,39,106,,117,90,11,14,13,9,0.7,0.7
2025-04-04T1400,3568A,113.06,36.0464,长治市,向阳小学,颗粒物(PM10),103,156,104,40,40,103,,102,88,12,19,13,13,0.4,0.6
2025-04-04T1400,3569A,112.8792,36.3144,长治市,屯留一中,颗粒物(PM10),68,85,88,23,35,116,,63,63,12,32,8,10,0.5,0.6
2025-04-04T1400,4189A,113.1131,36.19948,长治市,英华南巷50号,颗粒物(PM10),97,144,98,44,43,105,,96,78,17,23,13,14,0.4,0.8
2025-04-04T1400,4190A,113.2367,36.3344,长治市,学府街1号,颗粒物(PM10),102,153,110,30,54,110,,78,78,8,30,8,16,0.4,0.8
2025-04-04T1400,1854A,111.6975,28.9703,常德市,市二中,细颗粒物(PM2.5),64,68,68,46,44,69,,72,64,19,23,7,9,0.8,0.7
2025-04-04T1400,1857A,111.7158,29.1456,常德市,白鹤山,,,,,,,,,,,,,,,,
2025-04-04T1400,3138A,111.7153,29.0289,常德市,武陵区永安,细颗粒物(PM2.5),63,72,76,45,43,92,,95,83,19,18,8,8,0.8,0.7
2025-04-04T1400,3139A,111.6892,28.9881,常德市,鼎城区玉霞,细颗粒物(PM2.5),60,64,73,43,43,87,,78,71,14,22,7,9,0.8,0.7
2025-04-04T1400,3140A,111.6625,29.0531,常德市,武陵区长庚,,,66,70,43,40,100,,93,91,13,18,,9,0.7,0.7
2025-04-04T1400,1196A,119.9633,31.762,常州市,市监测站,,,89,65,42,35,164,,108,108,,32,8,8,0.7,0.7
2025-04-04T1400,1200A,119.9468,31.7069,常州市,武进监测站,颗粒物(PM10),62,73,50,39,29,167,,118,118,26,31,10,12,0.5,0.5
2025-04-04T1400,1201A,119.9255,31.9087,常州市,安家,,,92,70,43,42,162,,103,103,24,42,10,9,,0.7
2025-04-04T1400,3002A,119.9805,31.8174,常州市,行政中心,细颗粒物(PM2.5),63,70,59,45,33,167,,110,110,26,39,16,12,1.2,0.8
2025-04-04T1400,3003A,120.0522,31.7748,常州市,经开区,颗粒物(PM10),63,75,63,41,34,169,,113,113,32,47,9,10,0.7,0.6
2025-04-04T1400,3010A,119.9025,31.7964,常州市,钟楼,臭氧1小时,72,88,58,46,32,177,,126,126,20,27,8,8,0.8,0.7
2025-04-04T1400,3429A,119.8598,31.7066,常州市,武进经发区,细颗粒物(PM2.5),72,84,54,52,33,160,,114,114,28,32,9,9,0.9,0.8
2025-04-04T1400,3430A,119.5826,31.7245,常州市,金坛城区,细颗粒物(PM2.5),74,90,58,54,36,160,,116,116,21,22,10,10,0.6,0.6
2025-04-04T1400,2220A,120.4318,41.5881,朝阳市,西梁,颗粒物(PM10),64,78,49,43,29,126,,108,108,16,15,19,16,0.8,0.7
2025-04-04T1400,2221A,120.4521,41.5646,朝阳市,河畔小区,细颗粒物(PM2.5),69,75,45,50,31,124,,112,111,14,13,13,14,0.7,0.6
2025-04-04T1400,2222A,120.4176,41.5648,朝阳市,八里堡,颗粒物(PM10),61,72,44,39,28,121,,102,102,14,16,14,14,0.7,0.7
2025-04-04T1400,2223A,120.3806,41.5969,朝阳市,农业园区,细颗粒物(PM2.5),75,90,58,55,40,127,,100,100,16,23,17,15,0.8,0.8
2025-04-04T1400,1705A,116.6367,23.6719,潮州市,西园路,,,,,,,,,,,,,,,,
2025-04-04T1400,3026A,116.6183,23.6608,潮州市,市政府,颗粒物(PM10),60,69,63,29,26,146,,89,89,17,27,7,11,0.6,0.6
2025-04-04T1400,4036A,116.6461,23.6761,潮州市,金山,颗粒物(PM10),66,81,46,33,20,154,,93,93,15,17,10,8,0.5,0.5
2025-04-04T1400,2472A,113.0073,25.9061,郴州市,马头岭,,,102,67,43,25,34,,46,26,,20,10,8,0.9,0.8
2025-04-04T1400,2473A,113.0116,25.8226,郴州市,市职中,颗粒物(PM10),83,116,77,59,36,6,,11,3,51,35,13,9,0.9,0.6
2025-04-04T1400,2475A,113.0383,25.8071,郴州市,市审计局,细颗粒物(PM2.5),87,112,66,64,36,17,,16,11,50,34,11,9,1.1,0.7
2025-04-04T1400,2476A,113.0348,25.7759,郴州市,市环保局,颗粒物(PM10),76,102,68,49,35,44,,38,27,43,35,11,9,0.8,0.6
2025-04-04T1400,4252A,113.0138,25.8011,郴州市,好美居路49号,颗粒物(PM10),84,117,77,59,37,14,,16,16,50,43,7,7,1.0,0.7
2025-04-04T1400,1431A,103.9728,30.7236,成都市,金泉两河,颗粒物(PM10),61,72,87,20,42,142,,66,66,10,31,2,2,0.7,0.9
2025-04-04T1400,1432A,104.176,30.6872,成都市,十里店,颗粒物(PM10),59,68,104,35,49,148,,72,72,16,38,4,3,0.7,0.8
2025-04-04T1400,1433A,104.079,30.5706,成都市,三瓦窑,颗粒物(PM10),58,66,89,23,46,146,,73,73,18,49,4,4,0.5,0.7
2025-04-04T1400,1434A,104.1114,30.63,成都市,沙河铺,颗粒物(PM10),58,66,87,31,54,131,,62,62,14,29,6,5,0.7,0.8
2025-04-04T1400,1437A,104.0786,30.6531,成都市,君平街,颗粒物(PM10),61,71,89,37,55,143,,81,81,15,36,6,6,0.7,0.9
2025-04-04T1400,1438A,103.613,31.0283,成都市,灵岩寺,,,,,,,,,,,,,,,,
2025-04-04T1400,2880A,104.0239,30.65639,成都市,大石西路,颗粒物(PM10),63,76,86,35,51,138,,69,69,15,35,5,4,0.7,0.8
2025-04-04T1400,3136A,104.2725,30.5589,成都市,龙泉驿区区政府,颗粒物(PM10),54,58,62,34,37,123,,73,73,14,20,4,4,0.8,0.8
2025-04-04T1400,3357A,104.0106,30.6931,成都市,金博路,颗粒物(PM10),51,52,76,26,41,137,,63,63,12,35,6,6,0.5,0.6
2025-04-04T1400,3359A,104.0578,30.5225,成都市,华阳,细颗粒物(PM2.5),67,73,75,48,52,143,,74,74,21,39,6,6,0.6,0.8
2025-04-04T1400,3488A,104.3853,30.7453,成都市,青白江技师分院,颗粒物(PM10),58,65,80,27,45,144,,68,68,16,44,7,7,0.6,0.8
2025-04-04T1400,3489A,104.0789,30.4072,成都市,科学城,细颗粒物(PM2.5),60,64,84,43,49,134,,68,68,16,28,5,5,0.6,0.7
2025-04-04T1400,4011A,103.8506,30.6947,成都市,光华大道三段,颗粒物(PM10),57,64,81,16,47,151,,85,85,12,26,2,1,0.6,0.8
2025-04-04T1400,4224A,104.2433,30.5353,成都市,鲸龙路1057号,颗粒物(PM10),51,51,83,33,48,132,,77,77,16,34,4,4,0.8,0.9
2025-04-04T1400,1062A,117.9531,40.9081,承德市,铁路,,45,45,61,15,28,104,,77,77,10,32,7,10,0.2,0.4
2025-04-04T1400,1063A,117.9392,40.9763,承德市,中国银行,,34,20,60,3,29,106,,80,80,6,22,4,6,0.3,0.4
2025-04-04T1400,1064A,117.9503,40.928,承德市,开发区,,47,47,61,24,31,105,,80,80,9,27,8,9,0.3,0.5
2025-04-04T1400,1065A,117.8051,40.9655,承德市,文化中心,,49,49,76,3,31,102,,75,75,6,32,4,11,0.3,0.7
2025-04-04T1400,1066A,117.9268,41.0026,承德市,离宫,,32,25,54,22,37,74,,60,60,6,15,22,21,0.2,0.4
2025-04-04T1400,2314A,117.47,30.6618,池州市,池州学院,颗粒物(PM10),71,92,65,50,34,102,,69,69,27,24,13,9,0.9,0.6
2025-04-04T1400,3237A,117.4918,30.6617,池州市,展览馆,颗粒物(PM10),72,94,60,49,30,109,,73,73,24,20,14,7,1.2,0.8
2025-04-04T1400,3333A,117.5627,30.695,池州市,第八中学,颗粒物(PM10),66,82,64,36,29,110,,67,67,33,26,51,12,0.8,0.7
2025-04-04T1400,3334A,117.5038,30.6243,池州市,第十二中学,颗粒物(PM10),75,100,68,53,35,116,,77,77,30,32,27,8,1.9,0.7
2025-04-04T1400,1744A,118.9233,42.2816,赤峰市,松山一中,颗粒物(PM10),65,79,51,3,20,84,,102,91,9,21,7,10,0.3,0.5
2025-04-04T1400,1745A,118.9576,42.2728,赤峰市,哈达街,颗粒物(PM10),60,69,46,7,22,92,,110,97,13,16,7,8,0.4,0.5
2025-04-04T1400,1746A,118.8788,42.2554,赤峰市,天义路,颗粒物(PM10),69,88,45,12,25,91,,113,99,10,19,6,8,0.3,0.4
2025-04-04T1400,3058A,119.2658,42.0353,赤峰市,银河街,颗粒物(PM10),56,61,68,16,32,94,,81,81,7,19,12,21,0.1,0.4
2025-04-04T1400,3286A,118.9359,42.3147,赤峰市,桥北物流园区,,49,49,41,26,32,84,,106,90,9,19,6,9,0.3,0.5
2025-04-04T1400,2521A,107.3476,22.4136,崇左市,市环保局江州分局,,47,47,58,20,35,114,,108,108,6,11,6,8,0.6,0.6
2025-04-04T1400,4256A,107.3750,22.3736,崇左市,石景林东路7号,,47,47,50,18,33,118,,116,116,8,11,5,7,0.6,0.6
2025-04-04T1400,2298A,118.3093,32.3153,滁州市,老年大学,颗粒物(PM10),69,87,58,38,31,147,,101,101,25,26,11,5,0.9,0.7
2025-04-04T1400,2299A,118.3244,32.2786,滁州市,人大宾馆,颗粒物(PM10),62,73,50,39,31,146,,105,105,31,31,17,10,0.8,0.6
2025-04-04T1400,3207A,118.3118,32.3038,滁州市,市政府原办公楼,颗粒物(PM10),65,79,49,39,30,147,,107,107,19,22,15,7,0.8,0.5
2025-04-04T1400,3331A,118.3267,32.2634,滁州市,图书馆,颗粒物(PM10),65,79,51,43,35,143,,105,105,22,24,16,9,0.7,0.5
2025-04-04T1400,2605A,101.5482,25.0441,楚雄彝族自治州,州环境监测站,颗粒物(PM10),54,57,71,37,58,144,,110,110,8,15,8,9,0.5,0.8
2025-04-04T1400,2606A,101.538,25.0492,楚雄彝族自治州,市经济开发区,,50,44,70,35,57,146,,117,117,6,13,8,8,0.6,0.8
2025-04-04T1400,2548A,107.5277,31.2827,达州市,达州职业技术学院,颗粒物(PM10),58,65,68,33,35,67,,26,26,23,32,8,7,0.1,0.3
2025-04-04T1400,2549A,107.5086,31.2186,达州市,市环境监测站,颗粒物(PM10),52,54,69,24,34,71,,26,26,28,45,6,6,0.6,0.8
2025-04-04T1400,2550A,107.4988,31.2132,达州市,凤凰小区,,,56,70,36,37,71,,29,29,25,45,,8,,0.7
2025-04-04T1400,2551A,107.5082,31.1986,达州市,达县机关宾馆,颗粒物(PM10),52,53,75,27,36,70,,30,30,24,47,6,6,0.4,0.7
2025-04-04T1400,2552A,107.4644,31.2124,达州市,市政中心,颗粒物(PM10),59,68,80,29,36,57,,27,27,30,51,3,3,0.6,0.8
2025-04-04T1400,2614A,100.1542,25.7054,大理白族自治州,大理市环境监测站,细颗粒物(PM2.5),69,68,75,50,54,153,,126,126,9,13,8,9,1.0,1.1
2025-04-04T1400,2615A,100.2171,25.5811,大理白族自治州,大理古城,细颗粒物(PM2.5),63,52,63,45,49,137,,140,139,7,7,8,8,0.6,0.6
2025-04-04T1400,1109A,121.612,38.9741,大连市,甘井子,,48,48,51,32,35,112,,110,110,30,26,6,7,0.9,0.6
2025-04-04T1400,1110A,121.565,38.9511,大连市,周水子,,50,50,57,35,42,106,,97,97,24,24,8,8,0.4,0.5
2025-04-04T1400,1111A,121.5637,38.8845,大连市,星海三站,,50,45,46,35,39,110,,103,103,14,16,7,6,0.6,0.6
2025-04-04T1400,1112A,121.6302,38.9117,大连市,青泥洼桥,,40,40,44,28,33,124,,115,115,15,16,9,9,0.5,0.5
2025-04-04T1400,1113A,121.6251,38.8638,大连市,傅家庄,,46,44,42,32,33,110,,102,102,22,25,6,6,0.2,0.2
2025-04-04T1400,1114A,121.5213,38.8661,大连市,七贤岭,,49,47,48,34,36,102,,98,98,19,18,6,6,0.4,0.4
2025-04-04T1400,1115A,121.2529,38.8061,大连市,旅顺,,46,42,38,32,36,101,,93,93,29,30,8,7,0.5,0.5
2025-04-04T1400,1116A,121.7485,39.1311,大连市,金州,,45,43,40,31,31,124,,114,114,20,21,9,9,0.6,0.6
2025-04-04T1400,1117A,121.7811,39.0496,大连市,开发区,,46,46,46,31,33,103,,101,101,26,24,7,6,0.9,0.8
2025-04-04T1400,1118A,121.9762,39.0631,大连市,双D港,细颗粒物(PM2.5),57,56,48,40,35,113,,111,111,22,27,7,8,0.5,0.5
2025-04-04T1400,1789A,124.81117,46.03138,大庆市,大同区,颗粒物(PM10),164,277,131,77,94,147,,99,99,21,22,8,6,0.7,0.7
2025-04-04T1400,1790A,125.129,46.533,大庆市,龙凤区,,,130,92,50,57,147,,96,96,18,20,,8,0.7,0.7
2025-04-04T1400,1791A,124.902,46.408,大庆市,红岗区,颗粒物(PM10),92,133,84,45,65,154,,104,104,16,14,10,8,0.7,0.6
2025-04-04T1400,1792A,125.153,46.586,大庆市,萨尔图区,细颗粒物(PM2.5),93,127,90,69,62,133,,91,91,23,21,12,9,0.6,0.5
2025-04-04T1400,1793A,124.9042,46.6215,大庆市,让胡路区,颗粒物(PM10),82,113,82,51,70,136,,92,92,15,17,9,8,0.5,0.4
2025-04-04T1400,3481A,125.141,46.634,大庆市,萨区政府监测点,颗粒物(PM10),82,113,86,58,52,150,,100,100,18,16,10,7,0.7,0.6
2025-04-04T1400,1721A,113.3819,40.1097,大同市,果树场,颗粒物(PM10),60,70,185,12,55,94,,67,67,4,26,6,11,0.3,0.6
2025-04-04T1400,1723A,113.2994,40.0758,大同市,云冈宾馆,,34,34,209,7,52,105,,80,80,4,22,6,12,0.3,0.6
2025-04-04T1400,1724A,113.3444,40.0917,大同市,大同大学,颗粒物(PM10),56,62,226,19,62,102,,73,73,2,22,15,20,0.3,0.5
2025-04-04T1400,1725A,113.2661,40.1269,大同市,安家小村,颗粒物(PM10),84,117,256,34,63,96,,69,69,12,17,13,13,0.5,0.7
2025-04-04T1400,1726A,113.2711,40.0844,大同市,教育学院,颗粒物(PM10),64,78,240,15,68,101,,78,78,6,23,5,12,0.3,0.5
2025-04-04T1400,3282A,113.3397,40.0597,大同市,大同市卫生学校,颗粒物(PM10),56,61,228,20,61,100,,75,75,6,26,6,11,0.3,0.5
2025-04-04T1400,3565A,113.1367,40.1122,大同市,云冈站,颗粒物(PM10),75,99,237,22,70,98,,78,78,4,19,8,18,0.2,0.4
2025-04-04T1400,3566A,113.1186,40.2556,大同市,图书馆,,,,230,,65,91,,74,74,2,9,7,9,,0.5
2025-04-04T1400,3567A,113.5931,40.0461,大同市,区一中,颗粒物(PM10),68,85,269,3,55,100,,69,69,4,22,12,24,0.3,0.6
2025-04-04T1400,4199A,113.2798,40.0997,大同市,魏都大道141号,颗粒物(PM10),69,87,260,30,67,106,,74,74,6,27,11,15,0.3,0.7
2025-04-04T1400,2269A,124.1069,50.4097,大兴安岭地区,科技局,颗粒物(PM10),63,75,54,40,33,103,,89,89,11,9,8,8,0.6,0.5
2025-04-04T1400,3663A,124.1164,50.4278,大兴安岭地区,红旗社区,,,58,42,42,30,105,,88,,,11,5,11,,0.5
2025-04-04T1400,1600A,124.3303,40.0625,丹东市,江湾东路,颗粒物(PM10),82,114,79,49,59,122,,97,97,10,25,9,11,0.5,1
2025-04-04T1400,1601A,124.4256,40.1503,丹东市,临江后街,,46,46,69,27,51,123,,98,98,8,19,10,10,0.5,0.9
2025-04-04T1400,1602A,124.3933,40.1461,丹东市,元宝山,,50,44,62,35,48,119,,95,95,11,22,8,8,0.4,0.8
2025-04-04T1400,1603A,124.3633,40.1092,丹东市,民主桥,颗粒物(PM10),55,60,72,34,53,122,,93,93,8,27,9,10,0.6,0.9
2025-04-04T1400,3541A,109.5726,19.5167,儋州市,第一中学子站,,31,30,28,15,13,99,,98,98,6,7,4,4,0.4,0.6
2025-04-04T1400,3542A,109.5567,19.5187,儋州市,东坡学校子站,,35,22,30,14,13,112,,111,111,5,7,5,5,0.4,0.6
2025-04-04T1400,2616A,98.5842,24.428,德宏傣族景颇族自治州,德宏州监测站,细颗粒物(PM2.5),162,145,138,123,104,183,,88,88,16,37,16,12,1.0,1.2
2025-04-04T1400,3677A,98.5881,24.4368,德宏傣族景颇族自治州,芒市人民政府综合楼,细颗粒物(PM2.5),149,184,158,114,98,188,,102,102,18,22,17,13,1.1,1.1
2025-04-04T1400,1901A,104.4239,31.1208,德阳市,东山公园,颗粒物(PM10),64,78,88,36,52,125,,69,69,10,27,4,5,0.6,0.7
2025-04-04T1400,1902A,104.3826,31.1317,德阳市,西小区,颗粒物(PM10),69,87,109,38,63,127,,61,61,12,38,5,6,0.5,0.7
2025-04-04T1400,1904A,104.3553,31.1091,德阳市,耐火材料厂,颗粒物(PM10),58,66,98,39,60,130,,65,65,12,36,6,7,0.4,0.6
2025-04-04T1400,3639A,104.4019,31.1244,德阳市,市教育局,颗粒物(PM10),63,76,94,36,56,129,,64,64,10,37,5,6,0.6,0.7
2025-04-04T1400,1622A,116.3032,37.4674,德州市,儿童乐园,颗粒物(PM10),91,132,94,63,44,99,,94,91,25,22,11,10,1.0,0.8
2025-04-04T1400,1624A,116.2991,37.4451,德州市,监理站,细颗粒物(PM2.5),89,122,86,66,43,98,,90,89,18,20,18,15,0.6,0.5
2025-04-04T1400,3066A,116.2721,37.4379,德州市,九衢泉纯净水厂,颗粒物(PM10),87,124,87,53,38,98,,82,82,24,28,15,11,0.8,0.7
2025-04-04T1400,3371A,116.3728,37.4403,德州市,开发区人民医院,颗粒物(PM10),86,122,90,48,34,101,,93,93,20,21,12,9,0.8,0.7
2025-04-04T1400,3372A,116.3572,37.4094,德州市,太阳城中学,颗粒物(PM10),86,122,91,58,42,96,,87,87,20,20,11,8,0.5,0.4
2025-04-04T1400,3511A,116.5652,37.3319,德州市,陵城艺术中心,"颗粒物(PM10),细颗粒物(PM2.5)",79,107,77,58,39,111,,97,97,25,24,15,12,0.8,0.7
2025-04-04T1400,2621A,99.7056,27.8317,迪庆藏族自治州,迪庆州站,,50,50,53,25,27,117,,114,114,10,11,8,9,0.5,0.6
2025-04-04T1400,3180A,99.7136,27.8094,迪庆藏族自治州,质量技术监督局,,,48,40,32,23,138,,134,134,,9,9,10,,0.6
2025-04-04T1400,4257A,104.6092,35.5962,定西市,将台街,颗粒物(PM10),115,179,152,39,39,106,,66,66,8,19,9,8,0.1,0.2
2025-04-04T1400,4309A,104.6159,35.5701,定西市,正龙路62号,颗粒物(PM10),116,181,161,33,50,112,,69,69,5,12,,11,0.3,0.4
2025-04-04T1400,1389A,113.7547,23.0494,东莞市,莞城梨川,颗粒物(PM10),53,56,60,25,29,142,,103,103,19,31,6,7,0.5,0.6
2025-04-04T1400,1390A,113.7944,23.0128,东莞市,东城石井,,47,47,50,21,25,141,,96,96,16,26,7,7,0.6,0.6
2025-04-04T1400,1391A,113.7383,22.9658,东莞市,南城西平,,47,47,53,17,22,128,,82,82,20,49,9,9,0.5,0.5
2025-04-04T1400,3319A,113.7338,23.0381,东莞市,万江金泰,,47,46,51,20,23,148,,108,108,13,27,7,8,0.6,0.6
2025-04-04T1400,3626A,113.7533,23.0202,东莞市,南城元岭,,47,47,52,22,24,134,,93,93,14,30,8,8,0.6,0.6
2025-04-04T1400,3627A,113.7875,23.0457,东莞市,东城主山,颗粒物(PM10),54,58,63,22,28,141,,100,100,24,43,6,6,0.6,0.6
2025-04-04T1400,1666A,118.6614,37.4309,东营市,市环保局,颗粒物(PM10),71,92,62,36,24,110,,85,85,27,26,11,10,0.6,0.6
2025-04-04T1400,3036A,118.6904,37.4338,东营市,开发区管委会,颗粒物(PM10),73,96,66,41,30,108,,86,86,32,29,10,8,0.8,0.9
2025-04-04T1400,3365A,118.5719,37.565,东营市,垦利区民丰路,颗粒物(PM10),69,88,61,36,27,123,,92,92,23,23,13,13,0.8,0.8
2025-04-04T1400,3498A,118.5055,37.8612,东营市,河口城区,颗粒物(PM10),78,105,72,42,28,123,,96,96,28,28,12,8,0.9,0.9
2025-04-04T1400,3646A,118.4978,37.4623,东营市,胜利站,颗粒物(PM10),70,89,69,34,27,111,,86,86,32,33,11,11,0.7,0.8
2025-04-04T1400,3734A,118.35,37.26,东营市,理想之城,颗粒物(PM10),69,88,67,41,29,123,,87,87,23,31,10,13,0.6,0.6
2025-04-04T1400,1591A,110.0023,39.8129,鄂尔多斯市,综合楼,颗粒物(PM10),79,107,246,12,57,95,,87,83,7,12,3,4,0.2,0.2
2025-04-04T1400,1592A,109.9486,39.8261,鄂尔多斯市,巴音孟克林场办事处,颗粒物(PM10),107,163,229,14,55,95,,84,84,6,10,6,6,0.2,0.3
2025-04-04T1400,1593A,109.7736,39.5986,鄂尔多斯市,康泽苑,颗粒物(PM10),82,114,200,14,50,94,,85,85,3,6,3,3,0.2,0.3
2025-04-04T1400,1594A,109.8119,39.5989,鄂尔多斯市,华泰汽车城,颗粒物(PM10),74,97,201,9,52,92,,78,78,4,9,4,3,0.3,0.3
2025-04-04T1400,1595A,109.9734,39.7884,鄂尔多斯市,奥林花园,颗粒物(PM10),119,188,240,14,50,97,,84,84,6,15,4,7,0.3,0.3
2025-04-04T1400,2436A,114.8938,30.3994,鄂州市,市政府,细颗粒物(PM2.5),77,95,86,56,52,103,,101,90,21,24,18,13,1.6,1
2025-04-04T1400,2437A,114.8989,30.3714,鄂州市,赵家坝,颗粒物(PM10),82,114,90,54,49,93,,81,75,16,25,12,10,0.9,0.9
2025-04-04T1400,3654A,114.8094,30.4089,鄂州市,精准医疗中心,颗粒物(PM10),80,110,91,40,53,138,,95,95,12,35,13,27,0.6,1.7
2025-04-04T1400,2454A,109.4978,30.2981,恩施土家族苗族自治州,湖北民院,,46,46,55,26,34,111,,49,47,14,21,1,2,0.1,0.2
2025-04-04T1400,2455A,109.4707,30.2798,恩施土家族苗族自治州,州电力总公司,颗粒物(PM10),51,51,63,34,39,66,,37,37,19,23,4,5,0.3,0.4
2025-04-04T1400,3549A,109.5061,30.3772,恩施土家族苗族自治州,龙凤新区,,48,48,59,31,36,79,,41,33,18,14,6,6,0.5,0.5
2025-04-04T1400,2499A,108.3411,21.6158,防城港市,沙万,,36,36,53,18,25,111,,98,98,23,34,2,5,0.3,0.4
2025-04-04T1400,2500A,108.3514,21.7731,防城港市,防城档案局,,36,36,67,17,38,112,,83,83,19,24,8,4,0.7,0.7
2025-04-04T1400,2501A,108.3506,21.6414,防城港市,大海花园,,43,35,50,9,26,135,,107,107,11,22,5,9,0.6,0.8
2025-04-04T1400,1371A,113.1294,23.0067,佛山市,湾梁,颗粒物(PM10),56,61,68,19,24,127,,80,80,28,44,8,9,0.5,0.5
2025-04-04T1400,1372A,113.1083,23.0478,佛山市,华材职中,颗粒物(PM10),52,53,65,25,29,139,,94,94,26,42,7,7,0.5,0.5
2025-04-04T1400,1373A,113.144,23.0453,佛山市,南海气象局,颗粒物(PM10),69,88,70,36,33,124,,78,78,18,35,6,7,0.5,0.6
2025-04-04T1400,1374A,113.2881,22.8094,佛山市,顺德苏岗,,43,43,54,17,25,113,,73,73,20,38,7,7,0.5,0.6
2025-04-04T1400,1376A,112.8383,22.8678,佛山市,高明孔堂,,40,40,59,20,30,127,,94,94,11,21,6,7,0.5,0.5
2025-04-04T1400,1377A,112.8836,23.1588,佛山市,三水监测站,,,,90,30,45,115,,59,59,,72,,4,0.5,0.7
2025-04-04T1400,1378A,112.867,23.185,佛山市,三水云东海,颗粒物(PM10),54,58,66,22,33,131,,78,78,33,51,1,3,0.6,0.7
2025-04-04T1400,3625A,113.2544,22.7642,佛山市,容桂街道办,,36,36,56,12,27,110,,84,84,21,42,8,9,0.6,0.6
2025-04-04T1400,1280A,119.3903,26.0543,福州市,鼓山,,,,36,,12,,,134,,,3,,2,,0.4
2025-04-04T1400,1282A,119.2681,26.0504,福州市,师大,颗粒物(PM10),56,62,41,20,15,159,,112,112,9,16,5,4,0.4,0.3
2025-04-04T1400,1283A,119.2984,26.1028,福州市,五四北路,颗粒物(PM10),57,64,43,23,15,153,,106,106,11,18,5,5,0.5,0.5
2025-04-04T1400,1284A,119.2648,26.0768,福州市,杨桥西路,颗粒物(PM10),57,64,49,24,15,156,,120,120,13,21,5,5,0.5,0.4
2025-04-04T1400,1285A,119.317,26.0746,福州市,紫阳,颗粒物(PM10),55,59,46,18,15,150,,102,102,12,23,6,6,0.4,0.4
2025-04-04T1400,3048A,119.5799,26.0936,福州市,九龙,颗粒物(PM10),53,55,31,25,13,138,,114,114,12,13,9,6,0.5,0.4
2025-04-04T1400,3526A,119.5189,25.9664,福州市,吴航,,49,36,36,16,16,154,,95,95,5,19,5,5,0.4,0.3
2025-04-04T1400,1755A,123.7977,41.8491,抚顺市,望花区,细颗粒物(PM2.5),74,78,102,54,56,136,,107,107,15,34,10,13,0.6,1
2025-04-04T1400,1756A,123.9161,41.8822,抚顺市,顺城区,颗粒物(PM10),61,71,75,32,45,142,,113,113,14,34,8,12,0.6,0.8
2025-04-04T1400,1757A,124.0436,41.8611,抚顺市,东洲区,颗粒物(PM10),56,62,64,32,40,136,,120,120,15,22,7,9,0.7,0.9
2025-04-04T1400,1758A,123.9247,41.8642,抚顺市,新抚区,颗粒物(PM10),67,83,84,35,50,133,,103,103,13,33,6,8,0.8,1.1
2025-04-04T1400,1759A,124.0972,41.8961,抚顺市,大伙房水库,颗粒物(PM10),54,57,55,29,39,139,,122,122,9,16,8,8,0.5,0.6
2025-04-04T1400,1760A,123.7086,41.8391,抚顺市,沈抚新城,颗粒物(PM10),65,80,79,41,47,136,,120,120,12,27,9,13,0.7,1
2025-04-04T1400,2376A,116.2127,28.0814,抚州市,桐源党溪,颗粒物(PM10),63,75,65,37,36,90,,75,75,3,5,10,14,0.5,0.5
2025-04-04T1400,2377A,116.3544,27.9831,抚州市,市站,颗粒物(PM10),51,51,60,26,30,84,,72,72,9,20,10,10,0.8,0.8
2025-04-04T1400,2378A,116.3565,27.963,抚州市,血防站,颗粒物(PM10),52,53,58,23,31,90,,72,72,7,18,6,5,1.0,1.1
2025-04-04T1400,2379A,116.3564,28.0007,抚州市,采茶剧团,颗粒物(PM10),53,55,61,30,30,79,,68,68,6,14,2,4,1.3,1.2
2025-04-04T1400,2380A,116.385,27.9647,抚州市,医学分院,颗粒物(PM10),52,54,54,20,28,71,,61,61,6,14,4,7,1.3,1
2025-04-04T1400,2207A,121.6094,41.998,阜新市,工业园区,颗粒物(PM10),90,130,66,35,36,99,,93,91,19,19,14,16,0.5,0.6
2025-04-04T1400,2208A,121.6697,42.0279,阜新市,长青街,颗粒物(PM10),72,94,56,39,38,102,,95,94,20,17,12,13,0.7,0.6
2025-04-04T1400,2209A,121.6673,42.0705,阜新市,农业园区,颗粒物(PM10),87,124,66,31,33,101,,94,91,17,15,12,13,0.6,0.6
2025-04-04T1400,2210A,121.6717,42.0224,阜新市,东苑,颗粒物(PM10),77,104,62,41,37,95,,90,87,24,20,15,15,0.7,0.6
2025-04-04T1400,2211A,121.6506,42.0498,阜新市,玉龙新城,颗粒物(PM10),80,110,59,39,37,98,,90,89,15,14,14,14,0.7,0.6
2025-04-04T1400,2301A,115.8277,32.8929,阜阳市,市监测站,颗粒物(PM10),68,85,72,41,41,114,,81,81,24,24,12,9,0.8,0.6
2025-04-04T1400,2303A,115.8554,32.8605,阜阳市,开发区,颗粒物(PM10),68,85,88,37,34,119,,90,90,17,20,11,8,0.6,0.4
2025-04-04T1400,2875A,115.784,32.8892,阜阳市,阜阳职业技术学院,颗粒物(PM10),69,88,71,32,37,120,,98,98,17,19,9,9,0.4,0.4
2025-04-04T1400,3468A,115.7901,32.8613,阜阳市,市规划展馆,颗粒物(PM10),69,88,74,39,32,122,,98,98,16,17,11,9,0.6,0.5
2025-04-04T1400,3469A,115.836,32.9183,阜阳市,枣园社区,颗粒物(PM10),70,90,76,42,54,135,,94,94,18,21,11,8,0.8,0.5
2025-04-04T1400,2669A,102.9099,34.9841,甘南藏族自治州,州政府,颗粒物(PM10),77,103,105,34,38,106,,72,72,2,15,8,9,0.3,0.4
2025-04-04T1400,3380A,102.8914,34.9617,甘南藏族自治州,甘肃民族师范学院,颗粒物(PM10),68,85,118,32,36,88,,48,48,2,24,8,9,0.3,0.6
2025-04-04T1400,2570A,101.9603,30.0475,甘孜藏族自治州,水桥子,,30,30,27,21,15,54,,20,20,10,23,4,4,0.2,0.3
2025-04-04T1400,3065A,101.9533,29.9972,甘孜藏族自治州,州环保局,,23,14,29,8,8,71,,56,56,8,20,4,4,0.4,0.4
2025-04-04T1400,3414A,115.8347,28.932,赣江新区,桑海产业园,颗粒物(PM10),70,90,71,38,31,90,,54,54,33,48,12,8,0.7,0.5
2025-04-04T1400,2362A,114.9017,25.9149,赣州市,通天岩,颗粒物(PM10),53,56,42,13,8,102,,125,125,10,5,15,10,0.9,0.7
2025-04-04T1400,2363A,114.9367,25.8664,赣州市,地委,颗粒物(PM10),56,61,52,33,27,71,,47,47,34,29,18,13,1.1,1
2025-04-04T1400,2364A,114.9461,25.8481,赣州市,气象台,颗粒物(PM10),63,76,60,30,25,73,,49,49,43,46,14,16,0.7,0.6
2025-04-04T1400,2365A,114.9322,25.8333,赣州市,市图书馆,颗粒物(PM10),65,80,60,36,28,64,,42,42,43,45,11,7,1.0,1
2025-04-04T1400,2366A,114.8905,25.8471,赣州市,华坚鞋城,颗粒物(PM10),60,69,65,34,32,82,,51,51,29,42,15,17,0.9,0.6
2025-04-04T1400,3109A,115.0093,25.8613,赣州市,赣县区卫计委,颗粒物(PM10),62,74,49,33,28,74,,48,48,24,26,8,7,0.6,0.5
2025-04-04T1400,2683A,106.2319,36.1417,固原市,马园,颗粒物(PM10),500,618,218,71,58,101,,59,59,7,34,4,6,0.3,0.6
2025-04-04T1400,2684A,106.2792,36.0022,固原市,监测站,颗粒物(PM10),155,260,197,46,58,106,,82,82,4,20,6,8,0.2,0.4
2025-04-04T1400,2685A,106.2375,36.0211,固原市,新区,颗粒物(PM10),153,255,189,46,52,104,,77,77,5,25,5,7,0.3,0.5
2025-04-04T1400,3522A,106.2177,35.9959,固原市,原州区十五小,颗粒物(PM10),132,213,194,49,62,111,,79,79,,18,6,8,0.4,0.5
2025-04-04T1400,2543A,106.6308,30.5278,广安市,小平旧居,,,,,,,,,,,,,,,,
2025-04-04T1400,2544A,106.6303,30.4576,广安市,市委,细颗粒物(PM2.5),88,76,78,65,51,90,,54,54,14,24,14,7,0.5,0.6
2025-04-04T1400,2545A,106.6271,30.4663,广安市,友谊中学,细颗粒物(PM2.5),84,83,76,62,43,90,,54,50,16,25,11,4,0.6,0.7
2025-04-04T1400,2547A,106.6388,30.4551,广安市,广电花园,细颗粒物(PM2.5),90,73,74,67,50,87,,49,45,14,30,14,9,0.6,0.7
2025-04-04T1400,2902A,106.6351,30.4865,广安市,北辰小学,细颗粒物(PM2.5),89,86,77,66,47,84,,53,48,20,24,12,9,0.8,0.8
2025-04-04T1400,2523A,105.8945,32.4535,广元市,黑石坡,颗粒物(PM10),58,65,72,15,26,114,,48,48,9,18,4,4,0.4,0.4
2025-04-04T1400,2524A,105.821,32.4444,广元市,老城,颗粒物(PM10),54,57,69,29,28,112,,41,41,12,45,1,2,0.7,0.8
2025-04-04T1400,2526A,105.8628,32.4287,广元市,监测站,,39,34,51,22,26,122,,52,52,10,22,7,7,0.5,0.6
2025-04-04T1400,3617A,105.8047,32.4166,广元市,经开区,颗粒物(PM10),58,65,79,35,41,102,,39,39,15,49,9,9,0.8,0.8
2025-04-04T1400,1345A,113.2347,23.1423,广州市,广雅中学,颗粒物(PM10),59,67,76,28,32,129,,74,74,29,53,6,6,0.5,0.5
2025-04-04T1400,1346A,113.2612,23.105,广州市,市五中,颗粒物(PM10),52,54,67,29,39,131,,85,85,25,46,3,3,0.7,0.8
2025-04-04T1400,1348A,113.3478,23.0916,广州市,广东商学院,,,60,63,28,30,146,,73,73,27,60,7,6,,0.5
2025-04-04T1400,1349A,113.4332,23.1047,广州市,市八十六中,颗粒物(PM10),54,58,71,23,29,106,,54,54,33,74,7,7,0.8,0.8
2025-04-04T1400,1350A,113.3505,22.9483,广州市,番禺中学,,50,50,58,18,24,125,,84,84,24,44,5,6,0.4,0.5
2025-04-04T1400,1351A,113.2146,23.3916,广州市,花都师范,颗粒物(PM10),60,69,86,32,40,128,,66,66,34,69,10,7,0.5,0.7
2025-04-04T1400,1352A,113.2597,23.1331,广州市,市监测站,颗粒物(PM10),57,64,64,23,27,129,,70,70,30,55,7,7,0.5,0.6
2025-04-04T1400,1353A,113.5618,23.312,广州市,九龙镇镇龙,颗粒物(PM10),59,67,83,29,40,124,,72,72,21,50,8,6,0.5,0.6
2025-04-04T1400,1354A,113.2765,23.1544,广州市,麓湖,颗粒物(PM10),61,71,62,29,29,144,,73,73,29,62,7,6,0.1,0.4
2025-04-04T1400,1355A,113.443,23.3035,广州市,帽峰山森林公园,,,60,59,9,12,127,,100,100,,32,,9,0.6,0.6
2025-04-04T1400,2846A,113.3221,23.1322,广州市,体育西,颗粒物(PM10),61,71,74,28,31,146,,73,73,25,51,7,7,0.5,0.6
2025-04-04T1400,3298A,113.5717,23.5491,广州市,从化街口,颗粒物(PM10),62,74,79,43,44,129,,75,75,22,41,10,9,0.7,0.8
2025-04-04T1400,3299A,113.3472,23.3692,广州市,白云竹料,颗粒物(PM10),58,65,88,28,42,137,,80,80,23,56,10,9,0.5,0.6
2025-04-04T1400,3300A,113.2981,23.237,广州市,白云嘉禾,颗粒物(PM10),61,71,74,32,34,138,,75,75,36,70,8,7,0.5,0.6
2025-04-04T1400,3301A,113.4256,23.1716,广州市,黄埔科学城,颗粒物(PM10),65,80,66,38,30,144,,80,80,33,51,13,8,0.5,0.5
2025-04-04T1400,3302A,113.3942,23.0483,广州市,番禺大学城,颗粒物(PM10),53,55,58,22,26,149,,88,88,30,51,10,11,0.4,0.4
2025-04-04T1400,3303A,113.4922,22.8168,广州市,南沙黄阁,颗粒物(PM10),51,52,62,20,22,121,,83,83,21,43,6,6,0.5,0.6
2025-04-04T1400,3304A,113.5342,22.7896,广州市,南沙街,,,49,55,19,20,,,83,83,25,32,5,5,0.6,0.7
2025-04-04T1400,3443A,113.2902,23.5544,广州市,花都梯面,颗粒物(PM10),51,52,64,27,36,139,,74,74,23,47,7,6,0.5,0.7
2025-04-04T1400,3445A,113.7858,23.7478,广州市,从化良口,,,70,49,43,26,134,,66,66,17,13,,7,0.5,0.5
2025-04-04T1400,3446A,113.8051,23.2614,广州市,增城荔城,颗粒物(PM10),51,52,68,25,36,140,,97,97,16,25,11,9,0.4,0.5
2025-04-04T1400,2505A,109.568,23.1478,贵港市,德智高中,,,,,,,,,,,,,,,,
2025-04-04T1400,2506A,109.6047,23.0666,贵港市,江南子站,颗粒物(PM10),62,73,79,36,44,128,,103,103,14,20,11,9,0.5,0.6
2025-04-04T1400,2508A,109.5669,23.1065,贵港市,荷城子站,颗粒物(PM10),57,63,67,31,38,116,,93,93,14,23,11,11,0.5,0.6
2025-04-04T1400,3405A,109.5886,23.1172,贵港市,新世纪学校,细颗粒物(PM2.5),58,63,71,41,45,124,,100,100,12,21,10,9,0.6,0.8
2025-04-04T1400,4260A,109.5933,23.0951,贵港市,中山路155-3号,颗粒物(PM10),56,61,70,38,41,124,,101,101,14,21,14,16,0.5,0.6
2025-04-04T1400,1439A,106.6899,26.5998,贵阳市,马鞍山,颗粒物(PM10),64,78,59,41,29,145,,127,127,11,10,6,7,0.6,0.5
2025-04-04T1400,1441A,106.6243,26.6266,贵阳市,鉴湖路,颗粒物(PM10),69,88,75,46,32,144,,135,132,9,8,10,10,0.5,0.5
2025-04-04T1400,1442A,106.7487,26.6343,贵阳市,燕子冲,细颗粒物(PM2.5),70,85,68,51,41,159,,143,140,17,14,5,6,0.6,0.4
2025-04-04T1400,1443A,106.6555,26.4365,贵阳市,碧云窝,颗粒物(PM10),73,95,77,41,33,148,,142,139,13,12,7,10,0.7,0.5
2025-04-04T1400,1445A,106.7109,26.6027,贵阳市,红边门,细颗粒物(PM2.5),79,90,74,58,39,151,,137,132,14,17,5,7,0.6,0.5
2025-04-04T1400,1446A,106.7164,26.5699,贵阳市,新华路,颗粒物(PM10),71,92,72,46,37,151,,136,133,13,13,13,16,0.5,0.5
2025-04-04T1400,1447A,106.674,26.5424,贵阳市,太慈桥,颗粒物(PM10),70,90,70,48,34,147,,136,134,17,17,8,10,0.6,0.5
2025-04-04T1400,1552A,106.805,26.3003,贵阳市,桐木岭,颗粒物(PM10),79,107,82,56,42,137,,148,139,10,8,7,8,0.7,0.5
2025-04-04T1400,4230A,106.6882,26.5695,贵阳市,花果园大街66号,细颗粒物(PM2.5),74,83,62,54,40,135,,129,125,17,17,7,8,0.5,0.4
2025-04-04T1400,4231A,106.6873,26.5169,贵阳市,漓江路57号,,,88,70,51,36,143,,130,128,,15,11,14,,0.5
2025-04-04T1400,1862A,110.4144,25.3167,桂林市,电子科大尧山校区,,,,,,,,,,,,,,,,
2025-04-04T1400,1864A,110.3089,25.2708,桂林市,龙隐路小学,细颗粒物(PM2.5),158,148,105,120,76,74,,48,48,32,29,37,31,1.2,1
2025-04-04T1400,1865A,110.2869,25.2178,桂林市,八中,细颗粒物(PM2.5),144,171,118,110,74,71,,30,30,32,36,32,23,0.8,0.7
2025-04-04T1400,3531A,110.296,25.1253,桂林市,旅游学院,细颗粒物(PM2.5),160,166,99,122,68,85,,40,40,27,30,31,14,0.9,0.8
2025-04-04T1400,4222A,110.1835,25.2444,桂林市,环湖路276号,细颗粒物(PM2.5),168,183,127,127,81,20,,11,11,60,54,40,18,1.1,0.9
2025-04-04T1400,4301A,110.2803,25.2773,桂林市,信义路13号,细颗粒物(PM2.5),156,154,107,119,78,53,,50,34,49,37,42,28,1.3,1
2025-04-04T1400,2674A,100.2561,34.4714,果洛藏族自治州,玛沁县大武镇,,50,50,66,18,22,112,,90,90,2,2,14,16,0.3,0.3
2025-04-04T1400,1129A,126.5422,45.755,哈尔滨市,岭北,,,74,48,46,39,161,,123,123,23,21,,12,0.3,0.5
2025-04-04T1400,1130A,126.561,45.8167,哈尔滨市,松北商大,颗粒物(PM10),64,78,52,44,37,157,,117,117,16,21,10,9,0.6,0.6
2025-04-04T1400,1131A,126.979,45.5419,哈尔滨市,阿城会宁,,,89,50,43,36,163,,125,125,,21,,12,0.6,0.5
2025-04-04T1400,1132A,126.599,45.7222,哈尔滨市,南岗学府路,颗粒物(PM10),69,88,65,49,38,155,,116,116,16,24,9,10,0.7,0.6
2025-04-04T1400,1133A,126.689,45.7733,哈尔滨市,太平宏伟公园,颗粒物(PM10),62,74,62,38,34,153,,117,117,13,26,8,7,0.7,0.8
2025-04-04T1400,1134A,126.635,45.7667,哈尔滨市,道外承德广场,细颗粒物(PM2.5),79,98,65,58,49,148,,110,110,22,25,12,11,0.5,0.5
2025-04-04T1400,1135A,126.685,45.7319,哈尔滨市,香坊红旗大街,,,,71,,36,147,,112,112,17,25,15,14,0.6,0.5
2025-04-04T1400,1136A,126.6411,45.7258,哈尔滨市,动力和平路,细颗粒物(PM2.5),70,72,59,51,44,143,,106,106,17,23,11,12,0.5,0.5
2025-04-04T1400,1137A,126.593,45.7478,哈尔滨市,道里建国路,细颗粒物(PM2.5),70,76,56,51,42,151,,109,109,17,27,16,15,0.8,1
2025-04-04T1400,1138A,126.615,45.61,哈尔滨市,平房东轻厂,细颗粒物(PM2.5),65,73,52,47,37,151,,112,112,12,11,11,9,0.7,0.6
2025-04-04T1400,1139A,126.595,45.9855,哈尔滨市,呼兰师专,细颗粒物(PM2.5),72,79,55,52,39,140,,99,99,26,26,8,7,0.6,0.6
2025-04-04T1400,1140A,126.6206,45.6842,哈尔滨市,省农科院,颗粒物(PM10),75,99,73,50,46,145,,106,106,23,38,11,12,0.6,0.7
2025-04-04T1400,2688A,93.5128,42.8172,哈密市,地区监测站,,35,35,57,11,25,98,,81,81,4,12,9,13,0.2,0.3
2025-04-04T1400,2689A,93.4961,42.8328,哈密市,哈密师范学校,,45,45,42,10,13,105,,89,89,8,14,5,5,0,0
2025-04-04T1400,2671A,100.9048,36.9639,海北藏族自治州,海晏县西海镇,,48,48,101,19,33,110,,83,83,1,5,6,9,0.4,0.5
2025-04-04T1400,3867A,102.0738,36.5056,海东市,平安区公安北苑,颗粒物(PM10),135,219,234,86,84,107,,72,72,2,7,8,10,0.4,0.4
2025-04-04T1400,1409A,110.576,19.9507,海口市,东寨港,,41,41,27,16,18,37,,23,23,4,7,2,4,0.5,0.6
2025-04-04T1400,1410A,110.3232,20.0574,海口市,海南大学,,40,33,29,12,13,125,,119,119,9,14,2,2,0.3,0.4
2025-04-04T1400,1411A,110.283,20.0053,海口市,秀英海南医院,,42,36,30,20,13,132,,116,116,7,11,5,5,0.3,0.3
2025-04-04T1400,1412A,110.338,19.9969,海口市,海南师范大学,,42,30,33,12,14,134,,122,122,3,6,4,4,0.4,0.4
2025-04-04T1400,1413A,110.33,20.0356,海口市,龙华路环保局宿舍,,40,25,30,12,14,127,,122,122,3,6,4,4,0.3,0.3
2025-04-04T1400,3539A,110.5111,19.9736,海口市,桂林洋子站,,43,31,27,12,12,135,,119,119,5,8,4,5,0.3,0.3
2025-04-04T1400,2673A,100.6188,36.2866,海南藏族自治州,共和县恰卜恰镇,细颗粒物(PM2.5),54,54,67,38,34,116,,102,102,1,6,14,12,0.4,0.4
2025-04-04T1400,2676A,97.3731,37.3753,海西蒙古族藏族自治州,德令哈市,颗粒物(PM10),52,53,59,12,20,114,,94,91,1,5,9,10,0.4,0.4
2025-04-04T1400,1048A,114.5302,36.6116,邯郸市,东污水处理厂,颗粒物(PM10),90,130,92,66,37,63,,55,42,38,31,8,4,0.8,0.5
2025-04-04T1400,1049A,114.4918,36.5713,邯郸市,矿院,细颗粒物(PM2.5),98,105,85,73,47,54,,47,36,33,30,9,4,0.8,0.5
2025-04-04T1400,1050A,114.484,36.6133,邯郸市,丛台公园,细颗粒物(PM2.5),99,134,93,74,43,60,,54,48,36,25,12,9,0.8,0.5
2025-04-04T1400,3458A,114.7895,36.5593,邯郸市,香泉濮院小区,颗粒物(PM10),94,138,108,67,34,69,,87,68,22,15,10,5,0.7,0.7
2025-04-04T1400,3579A,114.50634,36.77178,邯郸市,永年区实验高中,颗粒物(PM10),92,134,105,58,40,67,,51,51,38,26,13,7,1.0,1
2025-04-04T1400,3580A,114.20016,36.44293,邯郸市,峰峰矿区临水派出所,细颗粒物(PM2.5),119,149,104,90,48,70,,81,66,36,23,25,20,1.5,1.2
2025-04-04T1400,2634A,106.9893,33.1842,汉中市,汉川机床厂子校,颗粒物(PM10),56,62,63,35,31,126,,79,79,5,5,9,8,0.6,0.5
2025-04-04T1400,2635A,107.0154,33.0706,汉中市,市监测站,颗粒物(PM10),58,66,88,34,44,121,,66,66,9,23,10,9,0.7,0.8
2025-04-04T1400,2636A,107.0089,33.1138,汉中市,鑫源开发区,颗粒物(PM10),64,78,80,28,35,122,,63,63,10,23,8,8,0.5,0.6
2025-04-04T1400,2637A,107.007,33.0323,汉中市,南郑大河坎水厂,颗粒物(PM10),58,66,79,29,36,112,,60,60,7,23,6,9,0.6,0.7
2025-04-04T1400,1223A,120.2072,30.2111,杭州市,滨江,颗粒物(PM10),65,79,55,44,35,142,,77,77,50,54,8,8,0.3,0.3
2025-04-04T1400,1224A,120.0633,30.2747,杭州市,西溪,"颗粒物(PM10),细颗粒物(PM2.5)",67,84,49,48,31,146,,77,77,35,40,8,7,0.4,0.3
2025-04-04T1400,1226A,120.3417,30.3150,杭州市,下沙,细颗粒物(PM2.5),94,112,60,70,35,147,,74,74,42,62,9,8,0.6,0.4
2025-04-04T1400,1227A,120.1269,30.2456,杭州市,卧龙桥,细颗粒物(PM2.5),67,79,46,48,29,139,,79,79,41,37,8,7,0.4,0.3
2025-04-04T1400,1228A,120.1903,30.2692,杭州市,浙江农大,细颗粒物(PM2.5),89,100,58,66,38,132,,78,78,50,54,7,6,0.5,0.4
2025-04-04T1400,1230A,120.1197,30.3119,杭州市,和睦小学,细颗粒物(PM2.5),74,91,54,54,34,137,,87,87,44,47,8,8,0.7,0.6
2025-04-04T1400,1231A,120.3019,30.4183,杭州市,临平镇,细颗粒物(PM2.5),103,130,62,77,36,152,,77,77,34,46,9,7,0.6,0.5
2025-04-04T1400,1232A,120.2753,30.1839,杭州市,城厢镇,颗粒物(PM10),74,97,62,47,33,167,,87,87,37,57,9,9,0.5,0.4
2025-04-04T1400,1233A,120.0883,30.1808,杭州市,云栖,颗粒物(PM10),66,81,50,47,27,158,,90,90,43,46,11,9,0.7,0.6
2025-04-04T1400,3557A,119.9464,30.0494,杭州市,镇二中,细颗粒物(PM2.5),64,69,49,46,38,145,,83,83,38,41,7,7,0.7,0.5
2025-04-04T1400,3558A,119.7183,30.2367,杭州市,市府大楼,细颗粒物(PM2.5),68,84,67,49,40,119,,90,90,42,33,10,9,0.5,0.5
2025-04-04T1400,3656A,120.1556,30.2864,杭州市,消防大队,细颗粒物(PM2.5),83,102,58,61,36,145,,87,87,47,50,5,5,0.6,0.5
2025-04-04T1400,1270A,117.1959,31.7848,合肥市,明珠广场,,,83,62,,27,126,,98,98,23,30,8,7,0.6,0.5
2025-04-04T1400,1271A,117.3072,31.8764,合肥市,三里街,颗粒物(PM10),68,85,73,36,34,113,,91,91,32,37,10,10,0.9,0.8
2025-04-04T1400,1272A,117.2588,31.8707,合肥市,琥珀山庄,颗粒物(PM10),67,83,68,39,32,137,,111,111,27,27,6,6,0.8,0.6
2025-04-04T1400,1273A,117.1604,31.9052,合肥市,董铺水库,颗粒物(PM10),65,80,66,27,24,139,,118,118,10,10,5,5,0.6,0.4
2025-04-04T1400,1274A,117.25,31.8571,合肥市,长江中路,颗粒物(PM10),68,85,67,45,33,136,,109,109,25,25,11,11,0.8,0.6
2025-04-04T1400,1275A,117.266,31.9436,合肥市,庐阳区,颗粒物(PM10),64,78,73,31,33,139,,108,108,24,37,9,9,0.5,0.5
2025-04-04T1400,1276A,117.3453,31.8616,合肥市,瑶海区,颗粒物(PM10),68,85,77,32,32,120,,94,94,29,38,9,10,0.7,0.6
2025-04-04T1400,1277A,117.3027,31.7964,合肥市,包河区,颗粒物(PM10),65,80,61,34,29,135,,94,94,21,34,9,8,0.7,0.5
2025-04-04T1400,1278A,117.2776,31.7385,合肥市,滨湖新区,细颗粒物(PM2.5),79,92,63,58,34,119,,101,101,21,19,9,7,0.8,0.6
2025-04-04T1400,1279A,117.1318,31.8403,合肥市,高新区,颗粒物(PM10),68,85,68,36,29,133,,106,106,25,30,5,5,0.6,0.4
2025-04-04T1400,3464A,117.3803,31.9147,合肥市,高教基地,颗粒物(PM10),67,84,65,37,31,139,,100,100,23,28,8,8,0.5,0.5
2025-04-04T1400,3614A,79.924,37.0877,和田地区,地区环保局,颗粒物(PM10),447,547,336,94,76,64,,45,41,8,15,2,2,0.4,0.4
2025-04-04T1400,3615A,79.9131,37.113,和田地区,市环保局,颗粒物(PM10),344,455,318,83,66,68,,42,42,8,18,1,1,0.1,0.1
2025-04-04T1400,2516A,108.2011,24.715,河池市,东仁乐园,颗粒物(PM10),62,74,69,29,43,129,,116,116,10,18,11,13,0.8,0.8
2025-04-04T1400,2517A,108.0497,24.6947,河池市,市环保站,,,,65,,42,126,,112,112,8,15,9,13,,0.6
2025-04-04T1400,2518A,108.0983,24.6989,河池市,市疾控中心,,43,43,61,28,43,132,,119,119,10,18,10,12,0.6,0.6
2025-04-04T1400,1696A,114.6778,23.7569,河源市,源西,,42,41,66,20,29,133,,86,86,7,33,5,6,0.5,0.7
2025-04-04T1400,1697A,114.6944,23.7586,河源市,东埔,,49,49,63,18,25,134,,84,84,10,31,5,7,0.5,0.7
2025-04-04T1400,1698A,114.6892,23.7233,河源市,老城,,46,46,53,16,24,133,,83,83,9,18,5,7,0.3,0.4
2025-04-04T1400,1718A,115.4208,35.2464,菏泽市,气象局,颗粒物(PM10),100,150,101,74,50,113,,93,90,18,18,8,6,0.6,0.5
2025-04-04T1400,3374A,115.5564,35.0891,菏泽市,定陶老年大学,细颗粒物(PM2.5),110,112,83,83,42,117,,90,90,18,20,8,6,0.7,0.7
2025-04-04T1400,4184A,115.4797,35.24401,菏泽市,永昌路1号,细颗粒物(PM2.5),119,152,104,90,56,109,,92,91,21,24,,6,0.5,0.3
2025-04-04T1400,4193A,115.4715,35.2800,菏泽市,长城路999号,颗粒物(PM10),92,134,99,66,41,116,,101,98,21,22,12,9,0.6,0.4
2025-04-04T1400,2514A,111.5264,24.4172,贺州市,环保小区,,,,84,54,47,136,,103,103,16,21,,9,0.6,0.7
2025-04-04T1400,2515A,111.5608,24.4078,贺州市,政协大楼,颗粒物(PM10),64,77,75,42,46,137,,103,103,16,23,22,11,0.5,0.5
2025-04-04T1400,3534A,111.4744,24.4553,贺州市,西湾,颗粒物(PM10),77,103,91,52,51,136,,106,106,19,30,21,10,0.7,0.7
2025-04-04T1400,2385A,114.17,35.9019,鹤壁市,市监测站,颗粒物(PM10),85,119,120,55,56,117,,46,46,24,31,14,7,0.8,0.7
2025-04-04T1400,2386A,114.2956,35.7511,鹤壁市,市交警支队,颗粒物(PM10),87,124,105,63,52,79,,70,42,37,32,15,7,1.1,0.9
2025-04-04T1400,2387A,114.2878,35.7306,鹤壁市,迎宾馆,颗粒物(PM10),100,149,113,70,47,73,,68,41,31,25,7,5,0.8,0.6
2025-04-04T1400,3474A,114.2617,35.6822,鹤壁市,大新区,细颗粒物(PM2.5),129,140,102,98,70,72,,45,38,34,33,14,8,0.9,0.6
2025-04-04T1400,3596A,114.1572,35.9603,鹤壁市,南山宾馆,,,132,119,65,60,121,,61,55,,34,13,6,1.1,0.8
2025-04-04T1400,2244A,130.2537,47.3416,鹤岗市,哈啤分公司,,48,48,56,32,44,89,,51,51,8,17,15,14,0.4,0.6
2025-04-04T1400,2245A,130.2684,47.3086,鹤岗市,斯达机电,,43,38,56,30,47,96,,60,60,6,15,15,15,0.4,0.6
2025-04-04T1400,2246A,130.3114,47.3388,鹤岗市,东山纸板厂,细颗粒物(PM2.5),59,53,66,42,54,77,,47,47,14,26,14,14,0.5,1.5
2025-04-04T1400,2247A,130.1097,47.3382,鹤岗市,五号水库,,,,,,,,,,,,,,,,
2025-04-04T1400,2263A,127.4833,50.2524,黑河市,交通局,,36,36,40,20,24,88,,74,74,8,10,7,7,0.4,0.4
2025-04-04T1400,2264A,127.5144,50.2341,黑河市,环保局,,34,34,33,20,24,95,,80,80,7,7,4,4,0.4,0.4
2025-04-04T1400,2265A,127.5291,50.2472,黑河市,大黑河岛,,35,35,31,15,21,102,,86,86,5,8,3,3,0.3,0.3
2025-04-04T1400,1074A,115.6838,37.7541,衡水市,电机北厂,细颗粒物(PM2.5),108,127,95,81,50,86,,89,78,23,20,12,8,0.5,0.4
2025-04-04T1400,1075A,115.6303,37.7316,衡水市,市监测站,细颗粒物(PM2.5),87,122,88,64,47,92,,77,72,21,21,13,11,0.6,0.5
2025-04-04T1400,3188A,115.6683,37.7217,衡水市,市城管局,"颗粒物(PM10),细颗粒物(PM2.5)",88,125,88,65,49,84,,82,70,25,22,13,10,0.5,0.5
2025-04-04T1400,3459A,115.5989,37.5491,衡水市,地表水厂,细颗粒物(PM2.5),108,147,97,81,54,91,,69,69,24,26,14,11,,0.5
2025-04-04T1400,2456A,112.5003,26.9167,衡阳市,原169医院,细颗粒物(PM2.5),205,295,104,155,63,50,,33,33,32,31,34,17,1.6,0.9
2025-04-04T1400,2457A,112.6194,26.9258,衡阳市,衡阳化工总厂,细颗粒物(PM2.5),166,162,95,126,63,67,,39,39,20,25,22,11,1.1,1
2025-04-04T1400,2458A,112.6211,26.8956,衡阳市,珠晖区环保局,细颗粒物(PM2.5),117,126,86,88,60,73,,36,36,28,43,16,11,1.2,1
2025-04-04T1400,2459A,112.6197,26.8733,衡阳市,市委党校,细颗粒物(PM2.5),180,178,93,136,63,61,,45,44,28,30,16,10,1.1,0.8
2025-04-04T1400,2460A,112.6006,26.8919,衡阳市,市监测站,细颗粒物(PM2.5),99,110,91,74,61,69,,44,44,27,41,17,12,1.0,1
2025-04-04T1400,2461A,112.5664,26.9056,衡阳市,真空机电公司,细颗粒物(PM2.5),122,106,101,92,61,66,,42,42,36,49,18,11,1.5,1.1
2025-04-04T1400,3399A,112.6703,26.882,衡阳市,师范学院,细颗粒物(PM2.5),147,214,88,112,57,72,,42,40,,23,,13,1.6,0.9
2025-04-04T1400,2608A,103.3772,23.3993,红河哈尼族彝族自治州,污水处理厂,细颗粒物(PM2.5),135,112,93,103,78,161,,120,120,8,12,10,9,0.6,0.7
2025-04-04T1400,2609A,103.3861,23.35,红河哈尼族彝族自治州,监测站,细颗粒物(PM2.5),97,92,95,72,70,144,,121,121,9,9,12,10,0.7,0.5
2025-04-04T1400,3038A,103.3758,23.368,红河哈尼族彝族自治州,州图书馆,细颗粒物(PM2.5),105,,90,79,69,155,,121,121,9,10,8,6,0.6,0.6
2025-04-04T1400,1090A,111.6507,40.7517,呼和浩特市,呼市一监,颗粒物(PM10),64,78,178,6,48,97,,79,79,1,10,8,10,0.4,0.5
2025-04-04T1400,1091A,111.6572,40.8033,呼和浩特市,小召,颗粒物(PM10),95,139,152,7,37,95,,86,86,6,14,4,5,0.3,0.4
2025-04-04T1400,1094A,111.7516,40.8369,呼和浩特市,如意水处理厂,颗粒物(PM10),61,71,124,8,36,92,,83,83,2,13,5,7,0.3,0.4
2025-04-04T1400,1095A,111.7276,40.8062,呼和浩特市,二十九中,颗粒物(PM10),62,73,138,10,36,98,,89,89,1,8,2,4,0.3,0.4
2025-04-04T1400,1096A,111.5512,40.7866,呼和浩特市,工大金川校区,颗粒物(PM10),54,58,155,9,43,99,,78,78,4,15,5,7,0.4,0.5
2025-04-04T1400,1097A,111.717,40.7612,呼和浩特市,化肥厂生活区,颗粒物(PM10),52,54,142,6,37,98,,87,86,4,14,5,8,0.3,0.4
2025-04-04T1400,3698A,111.5968,40.8178,呼和浩特市,红旗小学,颗粒物(PM10),87,124,158,6,38,99,,87,87,4,15,3,5,0.3,0.4
2025-04-04T1400,3699A,111.6518,40.8389,呼和浩特市,海东办,颗粒物(PM10),70,90,136,6,36,95,,85,85,2,9,5,7,0.5,0.5
2025-04-04T1400,2192A,119.7594,49.2261,呼伦贝尔市,区环保局,颗粒物(PM10),61,72,51,24,21,87,,75,68,7,12,6,6,0.3,0.3
2025-04-04T1400,3061A,119.7512,49.1577,呼伦贝尔市,国华电力东,颗粒物(PM10),53,55,35,20,13,86,,78,78,3,5,4,4,0.3,0.3
2025-04-04T1400,1250A,120.0751,30.8669,湖州市,城西水厂,颗粒物(PM10),90,129,74,64,35,142,,81,81,39,37,9,9,0.5,0.4
2025-04-04T1400,2873A,120.0830,30.8929,湖州市,仁皇山新区,细颗粒物(PM2.5),88,100,59,65,38,143,,85,85,38,34,7,6,0.7,0.6
2025-04-04T1400,2907A,120.1844,30.8596,湖州市,吴兴区站,颗粒物(PM10),76,102,61,54,37,157,,92,92,23,30,9,8,0.5,0.4
2025-04-04T1400,3562A,120.4148,30.8538,湖州市,南浔区站,细颗粒物(PM2.5),67,72,55,48,36,144,,99,99,24,31,4,6,0.4,0.3
2025-04-04T1400,1607A,120.9049,40.7211,葫芦岛市,龙港区,,42,31,42,29,34,82,,83,80,18,18,8,9,0.4,0.4
2025-04-04T1400,1608A,120.8392,40.7514,葫芦岛市,化工街,,35,34,46,24,30,84,,83,78,20,24,11,12,0.4,0.5
2025-04-04T1400,1609A,120.8341,40.7073,葫芦岛市,新区,,43,41,42,30,36,90,,92,86,18,20,8,9,0.5,0.6
2025-04-04T1400,1610A,120.8695,40.7677,葫芦岛市,东城区,,45,,36,31,39,87,,80,76,21,26,5,6,0.6,0.6
2025-04-04T1400,2482A,109.5981,27.5721,怀化市,林科所,颗粒物(PM10),62,73,76,43,37,81,,54,54,26,37,21,9,0.0,0
2025-04-04T1400,2483A,109.9453,27.5444,怀化市,河西地税局,,,82,78,56,45,74,,34,34,,21,11,11,0.4,0.4
2025-04-04T1400,2484A,109.9781,27.5342,怀化市,市四医院,细颗粒物(PM2.5),83,110,116,61,50,62,,24,24,23,41,15,7,0.8,1.1
2025-04-04T1400,2485A,109.9972,27.5578,怀化市,监测楼,细颗粒物(PM2.5),78,91,88,57,48,76,,37,37,11,28,9,8,0.6,0.6
2025-04-04T1400,2486A,110.0394,27.583,怀化市,市委党校,细颗粒物(PM2.5),143,144,89,109,51,63,,34,34,19,32,65,11,1.1,0.9
2025-04-04T1400,1210A,119.036,33.5981,淮安市,钵池山,颗粒物(PM10),65,80,55,44,35,144,,82,82,17,21,6,6,0.7,0.7
2025-04-04T1400,1211A,119.007,33.575,淮安市,北京南路,细颗粒物(PM2.5),64,70,50,46,34,146,,83,83,19,22,10,10,0.7,0.7
2025-04-04T1400,1212A,118.989,33.6067,淮安市,市监测站,细颗粒物(PM2.5),70,70,51,51,38,137,,78,78,23,27,12,12,0.6,0.6
2025-04-04T1400,1213A,119.135,33.5039,淮安市,楚州区监测站,颗粒物(PM10),72,93,58,46,36,142,,76,76,17,22,11,9,0.6,0.6
2025-04-04T1400,3426A,118.8755,33.2894,淮安市,新华书店,细颗粒物(PM2.5),87,93,64,64,48,148,,84,84,25,27,11,10,0.6,0.7
2025-04-04T1400,4206A,119.0288,33.6319,淮安市,承德北路606号,颗粒物(PM10),71,92,67,44,35,138,,79,79,23,25,10,10,0.6,0.6
2025-04-04T1400,2282A,116.8004,33.975,淮北市,监测站,颗粒物(PM10),72,93,69,44,36,147,,109,109,16,22,9,10,0.8,0.8
2025-04-04T1400,2283A,116.8091,33.9007,淮北市,烈山区政府,细颗粒物(PM2.5),70,79,71,51,42,144,,108,108,16,26,9,9,0.8,0.8
2025-04-04T1400,3330A,116.8873,33.9836,淮北市,杜集区检察院,颗粒物(PM10),74,97,74,49,36,156,,115,115,22,23,10,9,0.9,0.8
2025-04-04T1400,4017A,116.7923,33.9535,淮北市,市博物馆,"颗粒物(PM10),细颗粒物(PM2.5)",73,95,72,53,38,144,,108,108,16,23,10,12,0.9,0.9
2025-04-04T1400,2277A,116.8305,32.7727,淮南市,潘集区政府,细颗粒物(PM2.5),95,132,85,71,47,123,,100,100,25,23,10,8,0.6,0.5
2025-04-04T1400,2279A,116.8569,32.5951,淮南市,谢家集区政府,细颗粒物(PM2.5),85,114,81,63,41,118,,94,94,28,25,13,10,0.6,0.5
2025-04-04T1400,2280A,116.8281,32.633,淮南市,八公山区政府,颗粒物(PM10),93,136,74,60,37,121,,99,99,22,15,13,10,0.5,0.4
2025-04-04T1400,2281A,116.6325,32.6201,淮南市,焦岗湖风景区管理处,颗粒物(PM10),66,81,56,38,26,66,,70,63,25,20,8,8,0.8,0.6
2025-04-04T1400,2894A,117.0566,32.6531,淮南市,经济技术开发区消防队,,,116,70,71,40,136,,103,103,,18,,10,0.6,0.5
2025-04-04T1400,3329A,117.0108,32.5893,淮南市,山南新区,颗粒物(PM10),92,134,77,60,38,140,,113,113,23,16,14,11,0.6,0.5
2025-04-04T1400,4209A,117.0031,32.6445,淮南市,国庆中路369号,细颗粒物(PM2.5),98,114,73,73,35,134,,115,115,28,19,16,13,0.6,0.5
2025-04-04T1400,2446A,114.9028,30.4742,黄冈市,职工中心,细颗粒物(PM2.5),94,92,73,70,48,126,,110,110,27,26,19,15,1.0,0.8
2025-04-04T1400,2929A,114.8858,30.4519,黄冈市,红卫路,细颗粒物(PM2.5),89,112,85,66,47,119,,110,110,29,21,18,12,1.1,0.8
2025-04-04T1400,3398A,114.9136,30.4445,黄冈市,市林业局,细颗粒物(PM2.5),85,100,86,63,53,133,,116,116,29,30,22,15,1.1,0.9
2025-04-04T1400,2672A,102.0199,35.5102,黄南藏族自治州,同仁县隆务镇,颗粒物(PM10),117,183,144,65,50,101,,84,84,4,4,23,22,0.2,0.3
2025-04-04T1400,2295A,118.2903,29.6963,黄山市,延安路89号,颗粒物(PM10),54,58,54,37,33,135,,86,86,11,12,6,6,0.5,0.4
2025-04-04T1400,2297A,118.1371,30.2756,黄山市,黄山区政府5号楼,颗粒物(PM10),55,60,67,20,32,129,,83,83,5,8,9,9,0.5,0.6
2025-04-04T1400,4210A,118.3354,29.7203,黄山市,滨江东路7-2号,颗粒物(PM10),64,77,68,29,31,135,,91,91,12,13,6,5,0.6,0.5
2025-04-04T1400,2423A,115.0601,30.2313,黄石市,沈家营,颗粒物(PM10),72,93,84,48,44,140,,96,96,21,39,15,12,0.8,0.9
2025-04-04T1400,2426A,114.8988,30.2019,黄石市,铁山,细颗粒物(PM2.5),70,79,82,51,46,130,,118,118,19,27,18,16,0.3,0.2
2025-04-04T1400,2427A,115.0307,30.2092,黄石市,团城山,颗粒物(PM10),63,75,72,35,37,136,,103,103,18,29,16,13,0.6,0.7
2025-04-04T1400,3149A,115.0235,30.1578,黄石市,笔架山北路,细颗粒物(PM2.5),83,76,69,61,46,129,,117,117,30,22,23,18,0.9,0.9
2025-04-04T1400,4185A,115.0780,30.21118,黄石市,磁湖东路29号,细颗粒物(PM2.5),70,88,87,51,49,143,,122,122,22,35,15,16,0.9,0.9
2025-04-04T1400,1392A,114.4183,23.0528,惠州市,河南岸金山湖子站,,37,33,45,15,21,118,,84,84,10,22,10,11,0.4,0.5
2025-04-04T1400,1393A,114.4053,23.0822,惠州市,下埔横江三路子站,,40,36,47,15,21,126,,99,99,10,21,10,11,0.4,0.5
2025-04-04T1400,1394A,114.4103,23.1142,惠州市,江北云山西路子站,,42,39,49,15,19,134,,98,98,9,23,10,10,0.3,0.4
2025-04-04T1400,1395A,114.4645,22.7833,惠州市,惠阳区承修路船湖子站,,44,44,47,17,18,114,,82,82,15,23,10,10,0.4,0.5
2025-04-04T1400,1396A,114.5317,22.7422,惠州市,大亚湾管委会子站,,48,48,44,19,16,129,,93,93,10,22,8,8,0.4,0.4
2025-04-04T1400,3314A,114.4338,22.8134,惠州市,惠阳秋长,,44,44,52,17,18,128,,90,90,12,20,15,12,0.6,0.6
2025-04-04T1400,3452A,114.6517,22.775,惠州市,大亚湾霞涌,,37,31,42,15,16,118,,101,101,23,18,7,8,0.9,0.8
2025-04-04T1400,2240A,130.9762,45.3001,鸡西市,环保局,,48,45,60,33,46,114,,76,76,10,22,9,9,0.6,0.8
2025-04-04T1400,2243A,130.9429,45.3039,鸡西市,第一中学,,36,30,44,24,32,114,,83,83,9,17,8,9,0.5,0.6
2025-04-04T1400,3707A,131.0207,45.3073,鸡西市,欧美日汽修厂,,41,37,74,21,54,129,,83,83,10,28,14,11,0.5,0.9
2025-04-04T1400,3709A,130.9967,45.3106,鸡西市,市政设施管理处,,,49,70,32,47,,,63,63,12,34,9,8,0.5,0.9
2025-04-04T1400,2367A,114.9754,27.0803,吉安市,红声器材厂,颗粒物(PM10),65,79,61,40,31,27,,52,47,44,31,14,15,0.7,0.6
2025-04-04T1400,2368A,114.9658,27.0999,吉安市,市森林工业局,颗粒物(PM10),57,64,55,39,32,47,,50,50,38,39,13,13,0.5,0.6
2025-04-04T1400,2369A,114.99,27.1312,吉安市,市环境监测站,颗粒物(PM10),53,56,55,28,31,52,,60,59,34,26,18,18,0.4,0.4
2025-04-04T1400,2370A,115.0093,27.0968,吉安市,青原区法院,细颗粒物(PM2.5),64,75,59,46,33,45,,57,54,45,30,14,15,0.5,0.5
2025-04-04T1400,1772A,126.54,43.8622,吉林市,哈达湾,,43,34,56,23,37,136,,104,104,10,21,7,7,0.6,0.7
2025-04-04T1400,1773A,126.5844,43.8358,吉林市,东局子,,44,36,46,24,34,140,,112,112,11,15,8,6,0.6,0.7
2025-04-04T1400,1774A,126.5052,43.8245,吉林市,电力学院,,43,24,64,16,50,137,,95,95,10,29,6,6,0.5,0.9
2025-04-04T1400,1775A,126.6133,43.8972,吉林市,江北,,43,35,54,18,35,135,,103,103,10,17,5,4,0.4,0.6
2025-04-04T1400,1776A,126.555,43.8306,吉林市,江南公园,,43,35,43,29,36,136,,103,103,10,15,7,6,0.4,0.5
2025-04-04T1400,1778A,126.7061,43.7133,吉林市,丰满,,,,38,40,35,154,,110,110,,10,,5,0.6,0.7
2025-04-04T1400,2868A,126.4739,43.953,吉林市,九站,,43,37,53,20,41,137,,111,111,9,27,11,14,0.5,0.6
2025-04-04T1400,1299A,116.9862,36.6114,济南市,科干所,颗粒物(PM10),74,97,69,44,27,134,,141,138,19,12,11,8,0.7,0.5
2025-04-04T1400,1300A,116.9376,36.665,济南市,农科所,颗粒物(PM10),80,110,78,49,31,115,,128,123,26,19,12,9,0.5,0.4
2025-04-04T1400,1301A,117.1265,36.6734,济南市,开发区,颗粒物(PM10),74,98,65,42,28,132,,142,140,23,15,11,8,0.7,0.5
2025-04-04T1400,1303A,117.0624,36.6868,济南市,省种子仓库,颗粒物(PM10),78,105,75,44,29,130,,139,137,19,13,9,6,0.8,0.7
2025-04-04T1400,1304A,116.9489,36.6447,济南市,机床二厂,颗粒物(PM10),88,125,83,51,32,120,,137,129,26,17,13,10,0.5,0.4
2025-04-04T1400,1305A,117.0495,36.663,济南市,市监测站,颗粒物(PM10),79,107,72,49,29,125,,134,130,20,14,12,9,0.6,0.4
2025-04-04T1400,1306A,116.7675,36.5484,济南市,长清党校,颗粒物(PM10),75,100,74,46,27,125,,134,123,29,20,10,8,0.9,0.8
2025-04-04T1400,1616A,117.6795,36.229,济南市,技术学院,颗粒物(PM10),86,122,67,61,37,139,,107,107,25,27,14,14,0.7,0.6
2025-04-04T1400,1961A,117.532,36.6868,济南市,东山小学,颗粒物(PM10),75,100,70,42,28,146,,131,131,18,14,11,10,0.4,0.4
2025-04-04T1400,3059A,117.7161,36.2049,济南市,泰兴公司,细颗粒物(PM2.5),83,110,73,61,41,142,,108,108,26,31,15,12,0.8,0.7
2025-04-04T1400,3064A,117.6867,36.2171,济南市,莱芜战役纪念馆,颗粒物(PM10),82,114,73,56,35,141,,111,111,26,29,11,9,0.7,0.6
2025-04-04T1400,3494A,117.1673,36.9782,济南市,济阳区政府,颗粒物(PM10),84,117,85,42,35,127,,118,118,19,26,15,11,0.7,0.5
2025-04-04T1400,3495A,117.1171,36.63,济南市,锦屏中学,颗粒物(PM10),67,83,64,37,25,131,,136,135,19,15,12,10,0.5,0.3
2025-04-04T1400,3682A,116.9814,36.6819,济南市,济南四建,颗粒物(PM10),81,112,70,46,29,123,,137,131,31,20,10,6,0.6,0.4
2025-04-04T1400,1653A,116.6251,35.4302,济宁市,火炬城,细颗粒物(PM2.5),79,84,55,58,42,106,,101,95,21,17,14,11,0.7,0.5
2025-04-04T1400,1655A,116.5491,35.4042,济宁市,电化厂,细颗粒物(PM2.5),85,102,77,63,43,97,,96,90,25,19,9,6,0.6,0.4
2025-04-04T1400,3500A,116.5814,35.3707,济宁市,北湖一中,颗粒物(PM10),63,75,52,41,32,97,,97,91,29,21,15,10,0.6,0.4
2025-04-04T1400,3501A,116.8249,35.5593,济宁市,服务中心,颗粒物(PM10),83,116,77,54,34,111,,100,96,25,22,10,8,0.9,0.7
2025-04-04T1400,3678A,116.5907,35.4054,济宁市,市第七中学,,,82,54,48,33,,,94,90,22,19,,9,0.6,0.4
2025-04-04T1400,2255A,130.2751,46.8028,佳木斯市,佳纺,细颗粒物(PM2.5),55,48,82,39,58,96,,50,50,15,35,7,7,0.6,0.9
2025-04-04T1400,2256A,130.3995,46.8307,佳木斯市,发电厂,细颗粒物(PM2.5),55,,62,39,54,108,,57,57,9,29,4,3,0.4,0.7
2025-04-04T1400,2257A,130.3258,46.7975,佳木斯市,环保局,细颗粒物(PM2.5),69,51,77,50,62,100,,48,48,19,43,3,4,0.6,0.9
2025-04-04T1400,2258A,130.3648,46.8032,佳木斯市,十一中,细颗粒物(PM2.5),64,52,75,46,68,94,,47,47,12,41,8,8,0.6,0.9
2025-04-04T1400,2259A,130.3794,46.7588,佳木斯市,四丰,细颗粒物(PM2.5),55,46,47,39,36,95,,48,48,7,17,1,1,0.9,1.1
2025-04-04T1400,1252A,120.7436,30.778,嘉兴市,清河小学,颗粒物(PM10),60,69,57,33,27,120,,104,104,36,32,13,10,0.9,0.7
2025-04-04T1400,1253A,120.726,30.7478,嘉兴市,嘉兴学院,颗粒物(PM10),57,64,48,35,26,145,,110,110,27,26,11,10,1.1,1
2025-04-04T1400,2872A,120.7846,30.7525,嘉兴市,南湖区残联,颗粒物(PM10),52,54,51,33,26,129,,122,122,34,27,13,11,0.9,0.8
2025-04-04T1400,3407A,120.6916,30.7739,嘉兴市,秀洲住建,颗粒物(PM10),61,71,48,31,27,165,,118,118,26,29,9,8,0.7,0.6
2025-04-04T1400,1945A,98.2908,39.7711,嘉峪关市,气象局,颗粒物(PM10),79,107,131,19,33,115,,85,85,6,20,3,10,0.4,0.6
2025-04-04T1400,2884A,98.2672,39.7978,嘉峪关市,酒钢宾馆,颗粒物(PM10),84,117,133,19,33,114,,85,85,5,16,10,29,0.2,0.3
2025-04-04T1400,3248A,98.2643,39.7724,嘉峪关市,雄关区,颗粒物(PM10),66,81,113,14,34,114,,81,81,9,22,5,9,0.3,0.4
2025-04-04T1400,1383A,113.1064,22.6058,江门市,北街,颗粒物(PM10),51,51,50,19,21,116,,86,86,11,23,5,4,0.6,0.6
2025-04-04T1400,1384A,113.0731,22.5835,江门市,西区,颗粒物(PM10),56,61,60,24,23,123,,85,85,13,35,9,9,0.5,0.6
2025-04-04T1400,1385A,113.0219,22.5311,江门市,圭峰西,颗粒物(PM10),54,58,48,21,22,112,,90,90,11,21,5,7,0.3,0.4
2025-04-04T1400,1386A,113.0828,22.5947,江门市,东湖,,48,48,46,21,29,125,,86,86,13,26,10,10,0.4,0.5
2025-04-04T1400,3311A,113.1075,22.5647,江门市,江海富民,,48,48,57,29,27,120,,85,85,13,30,9,9,0.5,0.5
2025-04-04T1400,3449A,113.05,22.4667,江门市,新会银湖,颗粒物(PM10),52,53,50,19,23,111,,71,71,11,35,1,2,0.2,0.2
2025-04-04T1400,1830A,113.1992,35.2590,焦作市,影视城,,,,,,,,,,,,,,,,
2025-04-04T1400,3169A,113.2725,35.2067,焦作市,太极体育中心,颗粒物(PM10),91,132,108,62,52,100,,70,70,26,30,15,16,0.7,0.6
2025-04-04T1400,3335A,113.3137,35.2641,焦作市,马村街道办,"颗粒物(PM10),细颗粒物(PM2.5)",98,146,112,73,55,88,,70,69,34,29,16,14,0.9,0.7
2025-04-04T1400,3336A,113.2465,35.2373,焦作市,焦作技师学院,颗粒物(PM10),97,143,108,63,48,94,,76,75,33,26,16,13,1.0,0.7
2025-04-04T1400,3477A,113.1656,35.2539,焦作市,中站许衡医院,颗粒物(PM10),85,119,105,59,47,85,,93,89,41,28,23,15,1.2,0.9
2025-04-04T1400,3981A,113.2449,35.1803,焦作市,原李万街道办,颗粒物(PM10),85,120,115,56,50,101,,63,63,26,34,18,20,0.7,0.6
2025-04-04T1400,4264A,113.2340,35.2190,焦作市,新安路1731号,颗粒物(PM10),92,133,112,65,55,92,,68,68,28,26,15,14,0.9,0.7
2025-04-04T1400,1708A,116.3701,23.5345,揭阳市,新兴,颗粒物(PM10),60,69,60,29,30,153,,92,92,13,26,9,9,0.7,0.7
2025-04-04T1400,1709A,116.3264,23.5443,揭阳市,西马,颗粒物(PM10),56,62,60,25,25,159,,94,94,9,20,10,10,0.6,0.6
2025-04-04T1400,1710A,116.3611,23.5626,揭阳市,东兴,颗粒物(PM10),61,72,61,25,24,154,,89,89,10,26,8,9,0.6,0.7
2025-04-04T1400,1711A,116.4151,23.5294,揭阳市,渔湖,颗粒物(PM10),59,67,58,28,24,156,,86,86,13,27,7,7,0.7,0.7
2025-04-04T1400,3320A,116.403,23.5699,揭阳市,曲溪,臭氧1小时,59,60,61,36,28,167,,99,99,13,32,3,8,0.5,0.6
2025-04-04T1400,1944A,102.1692,38.5167,金昌市,天庆家园,,37,37,169,18,63,111,,108,108,3,4,8,8,0.8,0.8
2025-04-04T1400,4022A,102.1647,38.5371,金昌市,金川区人防中心,,46,46,219,30,95,107,,104,104,4,5,13,11,0.5,0.4
2025-04-04T1400,4239A,102.1930,38.5319,金昌市,长春路96号,颗粒物(PM10),56,62,151,21,57,104,,101,101,2,2,14,13,0.6,0.5
2025-04-04T1400,1262A,119.647,29.077,金华市,十五中,臭氧1小时,57,60,79,26,43,165,,112,112,26,39,7,7,0.5,0.6
2025-04-04T1400,1263A,119.686,29.1029,金华市,监测站,颗粒物(PM10),54,58,92,33,54,160,,105,105,29,53,6,6,0.4,0.4
2025-04-04T1400,3659A,119.656,29.1131,金华市,气象局,颗粒物(PM10),54,58,82,27,50,155,,109,109,25,42,6,7,0.4,0.5
2025-04-04T1400,1767A,121.1115,41.0879,锦州市,南山,细颗粒物(PM2.5),53,42,45,37,43,79,,75,74,21,26,8,17,0.6,0.7
2025-04-04T1400,1768A,121.0604,40.8428,锦州市,开发区,,47,47,62,30,41,82,,82,82,29,29,9,15,0.5,0.6
2025-04-04T1400,1769A,121.1836,41.1119,锦州市,百股街道,,38,38,42,24,30,85,,81,80,20,24,5,11,0.5,0.5
2025-04-04T1400,1770A,121.1178,41.1222,锦州市,天安街道,颗粒物(PM10),53,55,48,34,40,79,,81,75,24,25,10,16,0.6,0.6
2025-04-04T1400,1771A,121.1303,41.1386,锦州市,北湖公园,细颗粒物(PM2.5),52,52,49,36,39,77,,80,73,25,26,9,15,0.7,0.7
2025-04-04T1400,2160A,112.85,35.5051,晋城市,自来水公司,颗粒物(PM10),131,211,116,56,40,113,,70,70,10,34,9,12,0.4,0.7
2025-04-04T1400,2161A,112.8318,35.4936,晋城市,白云商贸,颗粒物(PM10),139,228,122,48,39,117,,74,74,11,31,8,10,0.5,0.8
2025-04-04T1400,2162A,112.8508,35.4887,晋城市,市环保局,颗粒物(PM10),142,233,120,58,39,116,,72,72,6,36,6,9,0.2,0.6
2025-04-04T1400,2163A,112.8676,35.4897,晋城市,技术学院,颗粒物(PM10),132,214,120,56,38,110,,69,69,10,39,8,10,0.5,0.8
2025-04-04T1400,2165A,112.8453,35.546,晋城市,白马寺,颗粒物(PM10),115,179,90,60,47,116,,118,106,4,15,5,9,0.4,0.6
2025-04-04T1400,3620A,112.8271,35.4828,晋城市,泽州一中,颗粒物(PM10),138,225,101,66,41,112,,79,79,7,26,4,12,0.6,0.8
2025-04-04T1400,2173A,112.7249,37.7067,晋中市,南都小区,颗粒物(PM10),89,128,204,35,53,105,,63,63,13,29,7,9,0.4,0.6
2025-04-04T1400,2174A,112.6991,37.6982,晋中市,榆次区政府,颗粒物(PM10),107,163,213,37,46,109,,64,64,14,30,6,9,0.3,0.5
2025-04-04T1400,2865A,112.7195,37.6828,晋中市,榆次三中,颗粒物(PM10),113,175,218,41,62,106,,60,60,11,30,6,10,0.3,0.6
2025-04-04T1400,4200A,112.7478,37.6954,晋中市,迎宾街26号,颗粒物(PM10),106,161,215,36,64,108,,66,66,11,25,7,9,0.3,0.5
2025-04-04T1400,2439A,112.2014,31.0481,荆门市,竹园小学,颗粒物(PM10),56,62,93,31,46,140,,103,103,10,23,7,9,0.5,0.5
2025-04-04T1400,2440A,112.1969,30.9891,荆门市,掇刀,颗粒物(PM10),53,55,90,33,48,146,,101,101,9,21,8,12,0.3,0.4
2025-04-04T1400,2441A,112.2213,31.0386,荆门市,石化一小,颗粒物(PM10),55,60,95,29,49,139,,98,98,13,30,8,14,0.3,0.6
2025-04-04T1400,3012A,112.1849,31.0362,荆门市,西山林语,颗粒物(PM10),53,56,79,30,38,138,,100,99,10,15,7,8,0.2,0.3
2025-04-04T1400,3547A,112.1632,31.0138,荆门市,龙泉中学南校,颗粒物(PM10),57,63,88,32,47,131,,97,90,9,22,7,10,0.4,0.4
2025-04-04T1400,1844A,112.2494,30.3197,荆州市,市图书馆,细颗粒物(PM2.5),54,49,64,38,44,136,,114,114,17,25,6,10,0.5,0.5
2025-04-04T1400,1845A,112.2008,30.3544,荆州市,市委党校,细颗粒物(PM2.5),59,55,68,42,45,128,,111,111,15,23,6,11,0.6,0.6
2025-04-04T1400,3194A,112.2747,30.3122,荆州市,管委会,颗粒物(PM10),58,66,76,37,43,138,,122,122,14,18,8,13,0.6,0.5
2025-04-04T1400,4268A,112.1722,30.3366,荆州市,学苑路85号,细颗粒物(PM2.5),57,,58,40,43,138,,113,113,16,28,9,15,0.6,0.5
2025-04-04T1400,2342A,117.3102,29.3867,景德镇市,王港中学,,,,,,,,,,,,,,,,
2025-04-04T1400,2343A,117.2117,29.2933,景德镇市,老干部活动中心,,46,46,69,21,36,134,,96,96,13,25,11,9,0.4,0.5
2025-04-04T1400,2344A,117.1894,29.2789,景德镇市,兽医站,颗粒物(PM10),59,67,73,28,37,127,,88,88,12,21,7,6,0.8,0.7
2025-04-04T1400,2345A,117.1547,29.2617,景德镇市,台达陶瓷,颗粒物(PM10),54,57,79,29,40,126,,97,97,20,35,19,21,0.7,0.7
2025-04-04T1400,2346A,117.2461,29.2956,景德镇市,陶研所,,43,43,62,23,44,134,,84,84,11,21,10,8,0.5,0.6
2025-04-04T1400,1803A,115.9872,29.6815,九江市,十里,颗粒物(PM10),59,68,68,40,40,102,,67,67,39,40,10,7,0.7,0.7
2025-04-04T1400,1804A,115.9584,29.7046,九江市,茅山头,颗粒物(PM10),74,98,82,46,41,98,,56,56,46,58,13,8,0.6,0.6
2025-04-04T1400,1805A,115.9877,29.7295,九江市,西园,"颗粒物(PM10),细颗粒物(PM2.5)",67,83,80,48,42,100,,51,51,60,73,19,14,0.8,0.9
2025-04-04T1400,1808A,115.9114,29.6038,九江市,综合工业园,颗粒物(PM10),58,65,65,39,37,138,,86,86,32,44,19,11,0.7,0.8
2025-04-04T1400,1809A,116.0721,29.7535,九江市,石化总厂,细颗粒物(PM2.5),53,49,58,37,43,136,,68,68,20,49,24,17,0.7,0.8
2025-04-04T1400,1810A,115.9773,29.5698,九江市,庐山气象台,,40,29,48,16,28,128,,146,137,9,13,7,6,0.5,0.8
2025-04-04T1400,3190A,116.0254,29.6994,九江市,外国语学校,细颗粒物(PM2.5),70,77,72,51,42,109,,66,66,34,39,24,18,1.0,1
2025-04-04T1400,4253A,116.0102,29.6594,九江市,莲花大道8号,颗粒物(PM10),61,72,64,39,36,118,,82,80,20,15,10,8,0.7,0.6
2025-04-04T1400,4240A,98.4958,39.7339,酒泉市,玉门东路5号,颗粒物(PM10),78,105,143,18,38,109,,84,84,5,10,13,10,0.2,0.3
2025-04-04T1400,4241A,98.5099,39.7506,酒泉市,北大街108号,颗粒物(PM10),81,112,132,12,33,103,,81,81,5,10,10,10,0.4,0.3
2025-04-04T1400,2698A,76.0072,39.4467,喀什地区,巡警大队,颗粒物(PM10),480,580,463,146,111,75,,52,34,17,34,4,4,0.5,0.7
2025-04-04T1400,2699A,75.9755,39.4694,喀什地区,吾办,颗粒物(PM10),458,558,419,162,127,73,,45,36,14,32,7,5,0.4,0.6
2025-04-04T1400,4027A,75.9483,39.4689,喀什地区,老干局,颗粒物(PM10),468,568,429,133,102,83,,55,37,10,29,2,3,0.1,0.3
2025-04-04T1400,1824A,114.3389,34.7781,开封市,肿瘤医院,颗粒物(PM10),85,119,96,52,47,157,,91,91,15,25,12,10,0.7,0.7
2025-04-04T1400,1826A,114.2885,34.7965,开封市,世纪星幼儿园,颗粒物(PM10),83,115,96,55,49,150,,90,90,24,27,12,10,0.7,0.6
2025-04-04T1400,3147A,114.3438,34.8106,开封市,龙亭公园,颗粒物(PM10),87,123,96,53,52,154,,96,96,18,24,9,6,0.6,0.6
2025-04-04T1400,3210A,114.3644,34.7964,开封市,汴京公园,颗粒物(PM10),100,149,113,56,63,164,,96,96,18,29,8,6,0.5,0.7
2025-04-04T1400,3473A,114.2485,34.8306,开封市,技师学院,细颗粒物(PM2.5),134,136,95,102,57,127,,97,93,30,24,10,14,0.9,0.9
2025-04-04T1400,3592A,114.4644,34.7556,开封市,祥符区生态环境局,颗粒物(PM10),95,139,115,66,59,150,,92,92,20,35,12,8,0.6,0.6
2025-04-04T1400,1951A,84.895,45.6094,克拉玛依市,长征新村,,30,21,21,3,8,95,,77,74,8,11,9,7,0.2,0.2
2025-04-04T1400,1952A,84.8988,45.5893,克拉玛依市,南林小区,,30,25,22,6,11,96,,80,74,2,6,5,3,0.5,0.5
2025-04-04T1400,1954A,84.905,44.3396,克拉玛依市,独山子区,,47,47,36,28,18,103,,82,82,7,9,12,8,0.4,0.3
2025-04-04T1400,1955A,85.6979,46.098,克拉玛依市,乌尔禾区商贸楼,,,,12,,5,,,72,,,1,,5,,0.2
2025-04-04T1400,3612A,85.1045,45.6899,克拉玛依市,白碱滩区新站,,30,17,17,3,6,95,,82,74,6,8,10,9,0.3,0.3
2025-04-04T1400,2697A,76.1454,39.7142,克孜勒苏柯尔克孜自治州,市人民政府,颗粒物(PM10),466,566,437,156,127,89,,82,67,5,12,5,8,1.2,1.2
2025-04-04T1400,3665A,76.1658,39.7157,克孜勒苏柯尔克孜自治州,克州文化中心,颗粒物(PM10),447,547,441,146,120,86,,82,71,6,10,5,8,0.4,0.4
2025-04-04T1400,1450A,102.8204,24.8886,昆明市,呈贡新区,细颗粒物(PM2.5),52,51,83,36,70,157,,138,138,10,13,7,7,0.6,0.8
2025-04-04T1400,1451A,102.6251,24.9608,昆明市,西山森林公园,,,,,,,,,,,,,,,,
2025-04-04T1400,1452A,102.7252,25.0902,昆明市,龙泉镇,细颗粒物(PM2.5),54,50,84,38,59,145,,94,94,11,43,8,8,0.6,0.9
2025-04-04T1400,1453A,102.7266,25.0375,昆明市,东风东路,细颗粒物(PM2.5),55,57,85,39,63,152,,123,123,13,21,9,10,0.5,0.8
2025-04-04T1400,1454A,102.6742,25.0669,昆明市,金鼎山,颗粒物(PM10),54,57,87,32,59,147,,114,114,13,25,6,7,0.6,0.9
2025-04-04T1400,1455A,102.6644,25.0401,昆明市,碧鸡广场,细颗粒物(PM2.5),52,48,82,36,64,150,,123,123,14,24,7,8,0.6,0.8
2025-04-04T1400,3179A,102.7494,25.0119,昆明市,官渡区博物馆,颗粒物(PM10),61,72,87,36,57,153,,122,122,11,18,8,9,0.4,0.7
2025-04-04T1400,3375A,102.8017,24.8336,昆明市,青年创业园,细颗粒物(PM2.5),54,44,82,38,67,145,,128,128,8,11,10,11,0.5,0.8
2025-04-04T1400,3550A,102.7997,24.9786,昆明市,昆明学院,细颗粒物(PM2.5),57,56,93,40,69,151,,127,127,9,14,7,7,0.6,0.8
2025-04-04T1400,3551A,102.5967,24.6736,昆明市,晋宁区生态环境分局,细颗粒物(PM2.5),58,56,73,41,63,146,,123,123,5,9,8,9,0.7,1
2025-04-04T1400,3552A,102.6678,24.9856,昆明市,云天化总部,,50,50,80,31,58,153,,128,128,9,15,10,10,0.5,0.7
2025-04-04T1400,1456A,91.1319,29.6514,拉萨市,八廓街,,47,14,22,12,16,148,,137,137,5,9,4,6,0.4,0.5
2025-04-04T1400,1457A,91.1221,29.6747,拉萨市,市环保局,,45,25,26,13,16,143,,137,134,9,10,3,3,0.3,0.3
2025-04-04T1400,1458A,91.0874,29.6475,拉萨市,区监测站,,45,24,24,14,14,142,,134,131,6,11,6,6,0.5,0.5
2025-04-04T1400,1459A,91.1774,29.6541,拉萨市,西藏大学,,44,20,24,7,15,140,,128,128,5,10,4,5,0.2,0.3
2025-04-04T1400,1460A,90.9798,29.6588,拉萨市,区辐射站,,45,23,33,8,17,142,,136,131,9,14,7,7,0.3,0.4
2025-04-04T1400,1461A,91.0834,29.6292,拉萨市,拉萨火车站,,44,17,20,8,14,140,,139,136,3,5,3,3,0.6,0.7
2025-04-04T1400,2520A,109.2203,23.7256,来宾市,来宾技工学校,细颗粒物(PM2.5),60,62,81,43,53,111,,118,96,13,18,12,18,0.8,0.8
2025-04-04T1400,3535A,109.1781,23.7297,来宾市,兴宾区政府,颗粒物(PM10),54,58,80,37,57,113,,107,92,7,14,13,13,0.7,0.9
2025-04-04T1400,4002A,109.2416,23.7461,来宾市,中南小学,细颗粒物(PM2.5),60,65,76,43,49,107,,111,91,11,17,11,13,0.8,0.8
2025-04-04T1400,1477A,104.1373,35.9454,兰州市,榆中兰大校区,,,,,,,,,,,,,,,,
2025-04-04T1400,1479A,103.831,36.0464,兰州市,铁路设计院,颗粒物(PM10),127,204,201,49,53,101,,55,55,12,34,10,13,0.5,0.6
2025-04-04T1400,3241A,103.7439,36.0842,兰州市,百合公园,颗粒物(PM10),130,210,211,43,55,107,,64,64,2,19,7,9,0.4,0.5
2025-04-04T1400,3242A,103.9611,35.998,兰州市,和平,颗粒物(PM10),144,237,209,73,69,109,,80,80,3,16,15,13,0.4,0.5
2025-04-04T1400,4236A,103.6293,36.0938,兰州市,庄浪东路808号,颗粒物(PM10),130,209,236,63,82,112,,75,75,6,19,9,14,0.3,0.3
2025-04-04T1400,4237A,103.7251,36.1043,兰州市,安宁西路88号,颗粒物(PM10),144,238,259,59,73,114,,69,69,3,16,5,9,0.3,0.3
2025-04-04T1400,4238A,103.8470,36.0676,兰州市,北滨河东路1号,颗粒物(PM10),129,208,215,46,65,115,,68,68,8,26,11,14,0.4,0.5
2025-04-04T1400,3245A,103.6633,36.533,兰州新区,新区管委会,颗粒物(PM10),100,149,223,45,74,116,,91,91,4,9,8,13,0.1,0.2
2025-04-04T1400,3246A,103.6975,36.4789,兰州新区,舟曲中学,颗粒物(PM10),144,238,313,99,136,114,,90,90,6,12,4,12,0.1,0.1
2025-04-04T1400,1067A,116.6708,39.5111,廊坊市,药材公司,细颗粒物(PM2.5),108,114,106,81,72,131,,66,66,24,38,6,7,0.5,0.5
2025-04-04T1400,1068A,116.7214,39.5589,廊坊市,开发区,颗粒物(PM10),92,133,114,64,68,128,,65,65,25,30,6,6,0.4,0.5
2025-04-04T1400,1070A,116.7244,39.5269,廊坊市,北华航天学院,,,124,123,73,63,122,,32,,,36,,8,0.5,0.5
2025-04-04T1400,2919A,116.7022,39.5453,廊坊市,河北工业大学,细颗粒物(PM2.5),95,99,98,71,66,127,,65,65,23,36,9,9,0.5,0.5
2025-04-04T1400,2535A,103.7723,29.5462,乐山市,花湖湾,细颗粒物(PM2.5),54,55,75,38,44,141,,90,90,10,21,5,5,0.4,0.5
2025-04-04T1400,2536A,103.7627,29.5844,乐山市,牛耳桥,细颗粒物(PM2.5),67,71,87,48,49,135,,81,81,20,34,7,8,0.5,0.5
2025-04-04T1400,2537A,103.7508,29.6006,乐山市,市第三水厂,颗粒物(PM10),58,66,75,37,42,139,,83,83,8,22,6,5,0.5,0.6
2025-04-04T1400,2538A,103.7571,29.5664,乐山市,市监测站,细颗粒物(PM2.5),70,65,74,51,46,130,,83,83,10,21,5,5,0.4,0.5
2025-04-04T1400,3361A,103.7311,29.5628,乐山市,理工大学,颗粒物(PM10),64,77,76,43,44,140,,84,84,12,24,4,6,0.6,0.6
2025-04-04T1400,2598A,100.2143,26.8576,丽江市,西南郊,,43,40,44,25,30,137,,132,132,3,4,4,5,0.6,0.7
2025-04-04T1400,2599A,100.2497,26.8802,丽江市,丽江古城,,45,45,49,30,31,130,,118,118,8,12,8,8,0.5,0.6
2025-04-04T1400,2600A,100.2203,26.8906,丽江市,市中心,,42,34,38,29,28,126,,116,116,12,14,9,10,0.9,0.9
2025-04-04T1400,1267A,119.914,28.4514,丽水市,监测站大楼,,50,50,51,21,34,136,,109,109,15,17,4,4,0.4,0.3
2025-04-04T1400,1268A,119.93,28.4586,丽水市,莲都小学,,45,45,60,21,32,135,,107,107,17,22,4,5,0.4,0.4
2025-04-04T1400,1269A,119.879,28.4231,丽水市,余庄前,,46,38,53,21,29,145,,101,101,16,17,4,4,0.4,0.4
2025-04-04T1400,1173A,119.176,34.5885,连云港市,市环境监测站,细颗粒物(PM2.5),64,63,43,46,28,121,,89,89,18,18,14,11,0.6,0.5
2025-04-04T1400,3000A,119.3581,34.6972,连云港市,德源药业,颗粒物(PM10),62,73,39,36,20,125,,90,90,16,18,10,9,0.5,0.5
2025-04-04T1400,3007A,119.178,34.844,连云港市,新城一中,细颗粒物(PM2.5),63,63,41,45,26,118,,82,82,20,38,11,8,0.7,0.5
2025-04-04T1400,3008A,119.3608,34.7519,连云港市,胡沟管理处,颗粒物(PM10),52,53,34,31,18,124,,101,99,20,26,9,9,0.5,0.4
2025-04-04T1400,3009A,119.1478,34.5911,连云港市,矿山设计院,颗粒物(PM10),65,80,47,39,25,115,,85,85,23,22,14,10,0.6,0.5
2025-04-04T1400,3434A,119.2413,34.6539,连云港市,工贸学校,细颗粒物(PM2.5),69,66,43,50,27,123,,97,97,21,18,11,16,0.7,0.6
2025-04-04T1400,3664A,119.4172,34.7341,连云港市,连云街道,颗粒物(PM10),63,76,43,41,22,121,,92,92,24,21,9,8,0.6,0.5
2025-04-04T1400,2571A,102.3431,27.8099,凉山彝族自治州,青龙寺,臭氧1小时,55,52,52,18,18,164,,99,99,4,8,11,8,0.9,0.8
2025-04-04T1400,2572A,102.2721,27.8415,凉山彝族自治州,邛海宾馆,颗粒物(PM10),62,74,61,33,34,148,,85,84,17,16,14,12,0.6,0.6
2025-04-04T1400,2573A,102.2625,27.898,凉山彝族自治州,西昌市政府,,,60,59,34,38,150,,90,90,,16,14,12,0.9,0.8
2025-04-04T1400,2574A,102.2685,27.8851,凉山彝族自治州,凉山州政府,颗粒物(PM10),51,52,54,31,38,156,,96,96,14,17,10,9,0.7,0.9
2025-04-04T1400,4229A,102.2342,27.8859,凉山彝族自治州,凯乐南路30号,颗粒物(PM10),58,65,63,34,34,136,,90,90,16,16,12,10,0.8,0.8
2025-04-04T1400,2212A,123.2,41.1953,辽阳市,宏伟区,细颗粒物(PM2.5),55,47,40,39,30,124,,120,120,8,12,10,12,0.8,0.9
2025-04-04T1400,2213A,123.1683,41.2495,辽阳市,新华园,"颗粒物(PM10),细颗粒物(PM2.5)",54,57,50,38,31,131,,126,126,14,21,8,11,0.4,0.7
2025-04-04T1400,2214A,123.2354,41.2639,辽阳市,滨河路,细颗粒物(PM2.5),53,47,42,37,33,113,,104,104,12,17,7,14,0.6,0.7
2025-04-04T1400,2215A,123.149,41.2991,辽阳市,铁西工业园,细颗粒物(PM2.5),54,52,52,38,32,129,,125,125,12,18,9,14,0.5,0.7
2025-04-04T1400,2227A,125.1358,42.8845,辽源市,环保局,颗粒物(PM10),56,62,91,19,52,143,,111,111,14,33,6,6,0.4,0.8
2025-04-04T1400,3239A,125.0764,42.9078,辽源市,银鹰制药,,47,29,68,14,51,149,,118,118,12,31,7,7,0.4,0.7
2025-04-04T1400,1625A,115.9848,36.4372,聊城市,区政府,,,,,,,,,,,,,,,,
2025-04-04T1400,2878A,116.0072,36.4343,聊城市,聊大东校,,,,,,,,,,,,,,,,
2025-04-04T1400,3200A,115.9819,36.4978,聊城市,监控中心,细颗粒物(PM2.5),92,119,90,68,43,88,,101,92,26,19,16,14,0.9,0.7
2025-04-04T1400,3513A,116.0445,36.4361,聊城市,九州社区,颗粒物(PM10),86,121,86,57,36,95,,99,95,20,14,8,7,0.7,0.6
2025-04-04T1400,4018A,116.0567,36.4608,聊城市,星美广场,颗粒物(PM10),86,121,89,53,34,93,,97,94,19,15,12,10,0.7,0.6
2025-04-04T1400,2632A,94.3681,29.6376,林芝市,林芝监测站,,43,11,10,3,6,137,,132,131,5,5,5,5,0.5,0.5
2025-04-04T1400,2633A,94.3616,29.6616,林芝市,林芝人民医院,,40,19,13,3,5,126,,120,120,2,2,8,8,0.6,0.6
2025-04-04T1400,2603A,100.0781,23.8982,临沧市,市环保局,颗粒物(PM10),102,154,131,69,88,164,,109,109,12,17,13,10,0.9,1.1
2025-04-04T1400,2604A,100.0894,23.8822,临沧市,市气象局,细颗粒物(PM2.5),109,106,112,82,92,169,,105,105,11,21,9,9,0.8,1
2025-04-04T1400,1733A,111.5531,36.0783,临汾市,临钢医院,颗粒物(PM10),102,154,152,24,37,101,,69,69,10,29,4,7,0.4,0.7
2025-04-04T1400,1734A,111.5028,36.0714,临汾市,技工学校,颗粒物(PM10),103,156,133,37,46,107,,68,68,3,27,6,9,0.4,0.7
2025-04-04T1400,1736A,111.5018,36.0855,临汾市,市委,颗粒物(PM10),122,193,144,22,39,105,,65,65,5,33,,6,0.2,0.6
2025-04-04T1400,3018A,111.505,36.1014,临汾市,唐尧大酒店,颗粒物(PM10),103,155,148,22,40,111,,60,60,2,31,6,9,0.3,0.7
2025-04-04T1400,4244A,111.4879,36.0530,临汾市,启星学校,颗粒物(PM10),96,142,140,27,44,105,,62,62,2,27,2,6,0.4,0.7
2025-04-04T1400,4271A,103.2464,35.6123,临夏回族自治州,滨河东路1号,颗粒物(PM10),163,276,206,71,73,106,,58,58,4,16,10,8,0.3,0.5
2025-04-04T1400,4310A,103.2093,35.5995,临夏回族自治州,新华街21号,颗粒物(PM10),158,265,218,77,72,97,,63,63,7,16,14,14,0.3,0.5
2025-04-04T1400,1618A,118.3429,35.0532,临沂市,沂河小区,细颗粒物(PM2.5),100,107,71,75,50,109,,83,83,23,19,15,18,0.8,0.6
2025-04-04T1400,1619A,118.295,35.0583,临沂市,鲁南制药厂,细颗粒物(PM2.5),93,102,66,69,45,120,,91,91,32,25,18,24,0.8,0.6
2025-04-04T1400,1620A,118.2794,34.9976,临沂市,新光毛纺厂,细颗粒物(PM2.5),82,102,61,60,42,112,,83,83,36,34,16,22,0.9,0.7
2025-04-04T1400,1621A,118.3956,35.0888,临沂市,河东保险公司,细颗粒物(PM2.5),79,95,62,58,36,114,,90,90,33,30,13,9,0.6,0.4
2025-04-04T1400,3370A,118.3564,35.0215,临沂市,十里堡居委,颗粒物(PM10),73,95,61,51,39,113,,85,85,27,24,12,14,0.9,0.7
2025-04-04T1400,3496A,118.3604,35.1084,临沂市,南坊新区,细颗粒物(PM2.5),79,102,64,58,37,103,,81,81,28,23,15,13,0.9,0.7
2025-04-04T1400,3860A,118.3920,35.0300,临沂市,皇山花园小区,颗粒物(PM10),70,90,64,36,40,110,,86,86,24,20,16,15,0.7,0.5
2025-04-04T1400,1870A,109.4856,24.3895,柳州市,柳东小学,细颗粒物(PM2.5),72,62,80,52,52,84,,84,75,20,23,21,17,0.6,0.7
2025-04-04T1400,1871A,109.4157,24.3277,柳州市,环保监测站,细颗粒物(PM2.5),69,64,90,50,57,88,,95,86,20,23,14,14,0.7,0.8
2025-04-04T1400,1872A,109.389,24.341,柳州市,河西水厂,颗粒物(PM10),60,70,92,36,50,95,,95,87,19,30,11,11,0.7,0.8
2025-04-04T1400,1873A,109.4311,24.2921,柳州市,市四中,,,79,83,44,51,85,,87,79,19,25,12,11,,1
2025-04-04T1400,1874A,109.4006,24.3631,柳州市,市九中,颗粒物(PM10),56,61,93,39,50,96,,98,91,14,24,11,11,0.9,1
2025-04-04T1400,1875A,109.4958,24.3134,柳州市,古亭山,二氧化硫,59,63,84,35,48,99,,97,92,14,20,210,20,0.7,0.8
2025-04-04T1400,3402A,109.5422,24.3996,柳州市,市二中,颗粒物(PM10),62,74,85,31,50,94,,91,91,15,23,20,21,0.5,0.6
2025-04-04T1400,2307A,116.5079,31.737,六安市,监测大楼,颗粒物(PM10),53,55,57,22,24,126,,89,89,17,18,8,7,0.7,0.6
2025-04-04T1400,2308A,116.4738,31.7643,六安市,皖西学院,颗粒物(PM10),60,69,76,26,28,125,,92,92,20,19,7,6,0.6,0.6
2025-04-04T1400,2309A,116.4996,31.7905,六安市,朝阳厂,颗粒物(PM10),57,64,61,31,29,115,,88,88,23,23,6,5,0.7,0.7
2025-04-04T1400,2310A,116.5567,31.7886,六安市,开发区,颗粒物(PM10),63,75,75,40,35,130,,91,91,19,28,7,6,0.7,0.6
2025-04-04T1400,2576A,104.8,26.5892,六盘水市,窑上,颗粒物(PM10),82,113,65,53,33,96,,70,70,11,8,6,6,0.7,0.7
2025-04-04T1400,2577A,104.83,26.5917,六盘水市,黄土坡,,,109,74,60,43,86,,61,61,,21,11,12,0.7,0.8
2025-04-04T1400,2578A,104.89,26.5939,六盘水市,水钢,颗粒物(PM10),83,115,86,52,51,94,,112,97,15,13,10,12,0.5,0.4
2025-04-04T1400,2579A,104.8475,26.5894,六盘水市,民中,"颗粒物(PM10),细颗粒物(PM2.5)",70,90,74,51,46,87,,62,62,13,28,9,14,0.6,0.9
2025-04-04T1400,2580A,104.9544,26.5506,六盘水市,双水,颗粒物(PM10),81,112,71,56,38,98,,118,100,12,14,9,12,0.5,0.5
2025-04-04T1400,2335A,117.0189,25.1181,龙岩市,龙岩师专,,,,,,,,,,,,,,,,
2025-04-04T1400,2336A,117.0217,25.1033,龙岩市,龙岩市监测站,,45,42,48,17,21,143,,95,95,13,25,10,11,0.3,0.4
2025-04-04T1400,2337A,117.0258,25.0661,龙岩市,闽西职业技术学院,,45,37,54,19,20,141,,88,88,12,25,9,25,0.4,0.4
2025-04-04T1400,2338A,117.0196,25.0306,龙岩市,龙岩学院,,49,49,46,15,20,147,,98,98,11,15,5,5,0.4,0.4
2025-04-04T1400,2665A,105.0822,33.3261,陇南市,汉王镇固水子,,,,,,,,,,,,,,,,
2025-04-04T1400,2885A,104.9339,33.3826,陇南市,滨江中学,颗粒物(PM10),57,64,88,26,34,98,,72,72,4,9,6,7,0.5,0.5
2025-04-04T1400,3247A,104.955,33.371,陇南市,市总工会,颗粒物(PM10),55,59,72,27,32,104,,80,80,4,8,8,8,0.6,0.6
2025-04-04T1400,2487A,111.9589,27.8901,娄底市,电视发射台,,46,46,51,22,24,78,,94,74,6,6,8,8,0.7,0.7
2025-04-04T1400,2488A,111.9975,27.725,娄底市,市监测站,细颗粒物(PM2.5),65,70,72,47,46,104,,80,80,19,28,23,16,0.8,0.7
2025-04-04T1400,2489A,112.0194,27.7314,娄底市,市委党校,细颗粒物(PM2.5),64,75,83,46,55,97,,82,82,22,25,10,4,0.7,0.6
2025-04-04T1400,2490A,111.9561,27.7569,娄底市,涟钢,细颗粒物(PM2.5),64,74,85,46,50,103,,66,66,22,28,9,8,0.8,0.8
2025-04-04T1400,2491A,111.9892,27.7044,娄底市,市政府,,,90,76,57,47,95,,58,58,18,27,,10,1.1,0.9
2025-04-04T1400,1893A,105.4324,28.9634,泸州市,九狮山,,,,,,,,,,,,,,,,
2025-04-04T1400,1894A,105.4427,28.9063,泸州市,小市上码头,,49,49,52,26,28,123,,95,92,13,18,7,8,0.2,0.4
2025-04-04T1400,1895A,105.4241,28.8573,泸州市,兰田宪桥,,45,43,45,31,34,116,,83,83,6,18,5,6,0.5,0.6
2025-04-04T1400,1896A,105.4379,28.8833,泸州市,市环监站,,,,,,,,,,,,,,,,
2025-04-04T1400,4272A,105.3689,28.7783,泸州市,纳溪中医医院,"颗粒物(PM10),细颗粒物(PM2.5)",54,58,66,38,35,123,,85,85,8,20,9,7,0.7,0.7
2025-04-04T1400,2183A,111.1406,37.5211,吕梁市,环保局,颗粒物(PM10),85,119,244,42,73,94,,48,48,10,36,6,6,0.2,0.3
2025-04-04T1400,2185A,111.1297,37.5136,吕梁市,自来水公司,颗粒物(PM10),79,108,348,25,68,100,,52,52,6,32,6,7,0.3,0.4
2025-04-04T1400,2867A,111.1283,37.51,吕梁市,马茂庄小学,颗粒物(PM10),90,130,263,35,67,101,,50,50,7,38,4,4,0.3,0.4
2025-04-04T1400,1812A,112.3931,34.6516,洛阳市,市委党校,颗粒物(PM10),95,140,105,44,53,107,,64,64,15,42,9,9,0.7,0.8
2025-04-04T1400,1815A,112.494,34.6886,洛阳市,河南林校,细颗粒物(PM2.5),102,151,119,76,59,92,,60,60,37,39,17,9,1.0,0.8
2025-04-04T1400,1816A,112.3844,34.623,洛阳市,开发区管委会,颗粒物(PM10),93,136,101,49,50,113,,76,76,12,24,11,9,0.3,0.4
2025-04-04T1400,1817A,112.4267,34.6258,洛阳市,市委新办公区,颗粒物(PM10),87,123,103,46,43,117,,84,84,15,29,9,7,0.3,0.4
2025-04-04T1400,3340A,112.6005,34.6326,洛阳市,伊滨,,,,84,,50,,,61,61,,33,,9,,0.6
2025-04-04T1400,3341A,112.4951,34.6332,洛阳市,中移产业园,颗粒物(PM10),88,126,124,59,55,96,,72,72,24,32,11,10,0.7,0.6
2025-04-04T1400,3593A,112.5736,34.8993,洛阳市,吉利监测站,细颗粒物(PM2.5),77,96,90,56,50,110,,77,77,19,25,17,11,0.7,0.6
2025-04-04T1400,3635A,112.3677,34.662,洛阳市,河科大西苑校区,颗粒物(PM10),103,156,111,42,51,114,,71,71,16,41,12,13,0.5,0.6
2025-04-04T1400,3636A,112.4388,34.6781,洛阳市,英才小学,颗粒物(PM10),93,135,108,46,48,108,,60,60,18,43,12,12,0.6,0.6
2025-04-04T1400,4214A,112.4600,34.6949,洛阳市,春都路1号院,颗粒物(PM10),107,164,150,47,51,114,,61,61,18,48,13,12,0.7,0.7
2025-04-04T1400,2399A,114.051,33.5699,漯河市,三五一五工厂,细颗粒物(PM2.5),113,115,102,85,60,134,,105,105,21,17,9,6,0.6,0.5
2025-04-04T1400,2400A,114.0055,33.5698,漯河市,漯河大学,,,126,104,70,51,131,,101,101,14,17,,12,,0.6
2025-04-04T1400,2401A,114.0138,33.5828,漯河市,市水利局,细颗粒物(PM2.5),92,107,103,68,54,135,,101,101,16,18,8,10,0.5,0.5
2025-04-04T1400,2402A,114.0261,33.5698,漯河市,市广电局,细颗粒物(PM2.5),99,117,98,74,54,132,,101,101,15,18,9,8,0.7,0.7
2025-04-04T1400,3478A,113.9749,33.5664,漯河市,市图书馆,细颗粒物(PM2.5),107,116,104,80,57,130,,94,94,13,20,8,9,0.7,0.6
2025-04-04T1400,4250A,114.0892,33.5882,漯河市,韶山路11号,细颗粒物(PM2.5),102,121,102,76,51,147,,113,113,20,20,9,7,0.7,0.6
2025-04-04T1400,1798A,118.5092,31.6837,马鞍山市,湖东路四小,颗粒物(PM10),71,91,54,32,27,135,,110,110,28,23,8,11,0.8,0.6
2025-04-04T1400,1799A,118.5024,31.6449,马鞍山市,开发区,细颗粒物(PM2.5),68,81,68,49,33,135,,104,104,24,28,6,9,0.7,0.7
2025-04-04T1400,1802A,118.6245,31.7241,马鞍山市,濮塘,颗粒物(PM10),62,74,49,39,27,160,,119,119,12,13,13,11,0.5,0.4
2025-04-04T1400,3633A,118.4918,31.6809,马鞍山市,雨山,颗粒物(PM10),68,85,58,40,31,132,,104,104,26,21,10,12,0.8,0.6
2025-04-04T1400,4191A,118.5274,31.72227,马鞍山市,慈湖高新区,细颗粒物(PM2.5),65,72,59,47,38,134,,106,106,30,30,6,9,0.7,0.6
2025-04-04T1400,1686A,111.0286,21.4688,茂名市,电白南海,颗粒物(PM10),57,63,53,27,30,110,,106,106,8,17,3,5,0.9,1
2025-04-04T1400,1687A,110.9294,21.6533,茂名市,茂石化七小,颗粒物(PM10),51,51,52,19,24,111,,97,97,5,14,3,6,0.8,0.9
2025-04-04T1400,1688A,110.9107,21.6687,茂名市,健康路,,46,46,46,14,23,124,,113,113,7,14,4,7,0.6,0.7
2025-04-04T1400,1689A,110.8592,21.6828,茂名市,高岭,颗粒物(PM10),58,66,60,17,25,122,,112,112,4,13,5,11,0.5,0.6
2025-04-04T1400,3450A,111.01,21.5165,茂名市,电白水东,颗粒物(PM10),52,53,42,19,20,105,,99,99,12,16,4,6,0.6,0.6
2025-04-04T1400,2539A,104.0308,30.0478,眉山市,黑龙滩水库,,44,40,52,28,28,138,,87,87,2,7,3,3,0.3,0.4
2025-04-04T1400,2540A,103.8416,30.0874,眉山市,气象局,颗粒物(PM10),61,71,91,41,48,148,,81,81,11,27,2,3,0.5,0.6
2025-04-04T1400,3137A,103.8578,30.0744,眉山市,市委党校,颗粒物(PM10),54,58,75,36,42,138,,78,78,12,26,6,6,0.5,0.6
2025-04-04T1400,3148A,103.8291,30.0564,眉山市,区人社局,颗粒物(PM10),51,52,70,34,42,140,,87,87,16,31,5,7,0.6,0.7
2025-04-04T1400,1690A,116.1231,24.3284,梅州市,梅江月梅,,48,48,59,21,26,143,,84,84,7,18,5,5,0.4,0.4
2025-04-04T1400,1691A,116.0797,24.2719,梅州市,梅县新城,,47,45,61,22,29,149,,90,90,9,25,7,6,0.4,0.5
2025-04-04T1400,1692A,116.1248,24.2654,梅州市,环境监控中心,颗粒物(PM10),51,52,62,27,27,143,,79,79,10,39,7,9,0.4,0.6
2025-04-04T1400,3315A,116.1233,24.2991,梅州市,梅龙,,45,44,59,18,24,141,,94,94,6,19,8,8,0.3,0.5
2025-04-04T1400,1878A,104.7778,31.4741,绵阳市,富乐山,颗粒物(PM10),61,71,77,29,38,116,,56,56,8,32,3,3,0.5,0.6
2025-04-04T1400,1880A,104.6697,31.4668,绵阳市,高新区自来水公司,颗粒物(PM10),57,64,104,27,38,119,,53,53,10,44,3,3,0.5,0.6
2025-04-04T1400,1881A,104.7287,31.5075,绵阳市,三水厂,颗粒物(PM10),60,70,100,32,43,114,,47,47,8,42,6,6,0.5,0.7
2025-04-04T1400,3491A,104.69,31.5322,绵阳市,西科大附属小学,颗粒物(PM10),59,68,90,30,38,112,,56,56,10,36,7,6,0.5,0.6
2025-04-04T1400,3492A,104.5648,31.5343,绵阳市,安州区旅游局,颗粒物(PM10),55,59,86,27,35,111,,55,55,9,29,4,7,0.8,1
2025-04-04T1400,4226A,104.7651,31.4531,绵阳市,绵阳市气象局,,48,48,85,18,40,104,,51,51,13,42,4,5,0.3,0.5
2025-04-04T1400,1784A,129.61,44.561,牡丹江市,环保大楼,细颗粒物(PM2.5),54,40,42,38,33,126,,68,68,12,25,5,7,0.4,0.5
2025-04-04T1400,1785A,129.6115,44.5782,牡丹江市,文化广场,细颗粒物(PM2.5),64,47,66,46,44,124,,66,66,13,28,10,13,0.5,0.7
2025-04-04T1400,1786A,129.5904,44.5963,牡丹江市,第一医院,,50,50,50,31,39,127,,75,75,10,22,11,13,0.3,0.5
2025-04-04T1400,1787A,129.6364,44.6075,牡丹江市,机车工厂,细颗粒物(PM2.5),53,50,54,37,33,127,,67,67,15,23,6,35,0.5,0.6
2025-04-04T1400,1788A,129.6386,44.5462,牡丹江市,第一中学,,43,43,38,30,27,133,,73,73,8,22,7,8,0.5,0.6
2025-04-04T1400,2531A,105.0703,29.61,内江市,市监测站,细颗粒物(PM2.5),53,,46,37,35,121,,89,78,13,18,6,5,0.5,0.5
2025-04-04T1400,2532A,105.0717,29.5947,内江市,东兴区政府,,38,36,43,26,25,112,,90,74,15,19,2,2,0.6,0.6
2025-04-04T1400,2533A,105.0653,29.5817,内江市,内江二中,,49,44,49,34,30,117,,96,76,21,23,8,7,0.5,0.5
2025-04-04T1400,2534A,105.0406,29.5822,内江市,内江日报社,细颗粒物(PM2.5),55,47,55,39,30,117,,87,68,16,22,4,6,0.6,0.5
2025-04-04T1400,2628A,92.0657,31.4846,那曲市,那曲监测站,,39,18,36,9,18,122,,74,74,5,17,4,6,0.4,0.7
2025-04-04T1400,4243A,92.0515,31.4787,那曲市,那曲市委宣传部,,,6,32,3,18,132,,76,76,,14,4,6,0.3,0.6
2025-04-04T1400,1290A,115.8931,28.6843,南昌市,省外办,细颗粒物(PM2.5),85,92,87,63,52,105,,69,69,38,63,21,10,0.7,0.8
2025-04-04T1400,1291A,115.8886,28.7003,南昌市,省林业公司,颗粒物(PM10),74,97,92,53,45,106,,56,56,27,54,25,11,0.4,0.4
2025-04-04T1400,1292A,115.8126,28.7442,南昌市,林科所,颗粒物(PM10),65,80,51,46,28,108,,98,98,44,40,16,6,0.5,0.5
2025-04-04T1400,1294A,115.8518,28.687,南昌市,建工学校,细颗粒物(PM2.5),79,87,86,58,48,116,,73,73,30,59,20,8,0.7,0.8
2025-04-04T1400,1295A,115.8921,28.6424,南昌市,象湖,颗粒物(PM10),122,193,97,58,50,131,,81,81,22,62,24,11,0.6,1
2025-04-04T1400,1296A,115.7423,28.7996,南昌市,武术学校,颗粒物(PM10),51,51,39,32,21,85,,66,66,9,9,8,7,0.7,0.6
2025-04-04T1400,3046A,115.9084,28.6062,南昌市,机电学校,细颗粒物(PM2.5),89,103,117,66,52,120,,78,78,22,64,19,9,0.7,0.8
2025-04-04T1400,3690A,115.9721,28.7031,南昌市,外国语学校,颗粒物(PM10),75,99,86,49,42,119,,86,86,25,53,18,11,0.1,0.1
2025-04-04T1400,4192A,115.9316,28.68677,南昌市,南京东路235号,,,108,96,62,47,111,,73,73,,62,24,14,0.7,0.6
2025-04-04T1400,1905A,106.056,30.8064,南充市,西山风景区,,50,38,43,35,30,93,,80,62,15,12,6,5,0.7,0.6
2025-04-04T1400,1906A,106.0789,30.8023,南充市,南充市委,细颗粒物(PM2.5),64,72,66,46,38,94,,54,49,16,26,5,5,0.6,0.7
2025-04-04T1400,1907A,106.1031,30.8217,南充市,南充炼油厂,颗粒物(PM10),62,74,66,41,38,98,,50,44,14,21,6,5,0.5,0.5
2025-04-04T1400,1909A,106.0642,30.7636,南充市,嘉陵区环保局,,,,,,,,,,,,,,,,
2025-04-04T1400,4227A,106.1083,30.7884,南充市,梨树横街98号,颗粒物(PM10),58,66,66,34,32,92,,51,51,16,25,6,6,0.1,0.4
2025-04-04T1400,4304A,106.1172,30.843,南充市,清泉寺北路188号,"颗粒物(PM10),细颗粒物(PM2.5)",54,57,65,38,36,101,,59,51,14,21,9,8,0.4,0.4
2025-04-04T1400,1151A,118.8086,32.1065,南京市,迈皋桥,,,62,47,31,26,148,,107,107,30,37,,4,0.6,0.4
2025-04-04T1400,1152A,118.7538,32.0551,南京市,草场门,颗粒物(PM10),59,68,44,29,25,148,,107,107,23,28,8,6,0.6,0.5
2025-04-04T1400,1153A,118.7794,32.0745,南京市,山西路,颗粒物(PM10),62,73,52,29,25,155,,113,113,21,21,6,5,0.2,0.2
2025-04-04T1400,1154A,118.7752,32.0023,南京市,中华门,颗粒物(PM10),58,66,45,29,23,133,,97,97,22,21,12,9,0.4,0.4
2025-04-04T1400,1155A,118.8109,32.0309,南京市,瑞金路,颗粒物(PM10),62,73,52,34,26,139,,97,97,12,18,7,6,0.4,0.4
2025-04-04T1400,1156A,118.7997,32.0754,南京市,玄武湖,颗粒物(PM10),58,66,46,33,23,124,,92,92,13,16,6,6,0.5,0.5
2025-04-04T1400,1157A,118.6414,32.0931,南京市,浦口,颗粒物(PM10),61,72,54,29,25,134,,103,103,32,29,9,8,0.3,0.3
2025-04-04T1400,1158A,118.7356,31.9996,南京市,奥体中心,颗粒物(PM10),62,73,49,39,28,136,,98,98,26,26,11,8,0.4,0.4
2025-04-04T1400,1159A,118.9125,32.1028,南京市,仙林大学城,颗粒物(PM10),65,80,53,39,29,147,,106,106,18,19,10,10,0.8,0.7
2025-04-04T1400,3422A,118.8436,31.9198,南京市,江宁彩虹桥,颗粒物(PM10),66,81,53,39,27,147,,101,101,13,17,5,4,0.5,0.5
2025-04-04T1400,3427A,118.8554,32.3578,南京市,六合雄州,颗粒物(PM10),56,62,56,30,38,153,,102,102,13,28,7,7,0.4,0.4
2025-04-04T1400,4249A,118.8708,31.3402,南京市,汶溪路181号,细颗粒物(PM2.5),72,72,51,52,35,133,,99,99,28,25,6,6,0.8,0.6
2025-04-04T1400,4312A,119.019,31.6512,南京市,中山西路1号,颗粒物(PM10),59,68,38,40,27,141,,103,103,27,27,15,8,0.6,0.4
2025-04-04T1400,1401A,108.3103,22.7881,南宁市,二十一中,,42,42,43,24,29,126,,126,115,9,15,5,8,0.8,0.9
2025-04-04T1400,1402A,108.3141,22.8528,南宁市,北湖,,40,37,41,21,25,127,,125,114,11,15,7,10,0.5,0.6
2025-04-04T1400,1403A,108.3206,22.8225,南宁市,市监测站,颗粒物(PM10),58,65,43,21,28,120,,120,108,11,15,7,10,0.6,0.7
2025-04-04T1400,1404A,108.3829,22.8037,南宁市,大自然花园,,44,44,46,25,29,136,,133,120,7,10,7,7,0.8,0.8
2025-04-04T1400,1405A,108.4394,22.7904,南宁市,仙葫,,45,45,40,20,27,116,,110,104,8,10,3,5,0.5,0.6
2025-04-04T1400,1406A,108.2397,22.8467,南宁市,区农职院,,38,38,46,18,24,115,,114,104,7,14,4,7,0.6,0.9
2025-04-04T1400,1407A,108.3275,22.735,南宁市,英华嘉园,颗粒物(PM10),57,63,63,21,31,127,,124,115,10,19,7,10,0.5,0.6
2025-04-04T1400,3401A,108.4834,22.7618,南宁市,红星社区,,45,45,44,16,25,144,,129,126,6,10,9,11,0.6,0.7
2025-04-04T1400,4221A,108.2177,22.7774,南宁市,乐贤路16号,,38,38,52,22,27,112,,98,97,9,20,9,12,0.9,0.9
2025-04-04T1400,2331A,118.0966,26.6761,南平市,茫荡山,,,,,,,,,,,,,,,,
2025-04-04T1400,2332A,118.1681,26.6369,南平市,南平市监测站,,46,38,33,13,17,146,,117,117,7,17,5,5,0.4,0.6
2025-04-04T1400,2333A,118.1825,26.6489,南平市,南平铝业有限公司,,46,42,35,16,15,145,,115,115,6,16,6,6,0.5,0.7
2025-04-04T1400,2334A,118.1756,26.6272,南平市,南平七中,,45,42,34,17,17,142,,114,114,8,14,6,6,0.5,0.6
2025-04-04T1400,1168A,120.9098,31.9663,南通市,狼山街道,颗粒物(PM10),57,64,46,25,25,105,,80,80,39,32,9,8,0.5,0.5
2025-04-04T1400,1169A,120.86,32.0005,南通市,虹桥,颗粒物(PM10),59,68,48,30,27,95,,80,80,49,38,9,8,0.5,0.5
2025-04-04T1400,1170A,120.87,32.02,南通市,城中,,,67,50,,25,106,,85,85,43,36,9,8,0.6,0.6
2025-04-04T1400,1171A,120.94,31.93,南通市,星湖花园,颗粒物(PM10),58,66,43,29,27,97,,74,74,43,36,10,8,0.2,0.2
2025-04-04T1400,1172A,120.81,32.0417,南通市,紫琅学院,颗粒物(PM10),54,58,43,19,22,115,,76,76,34,41,5,6,0.4,0.4
2025-04-04T1400,3291A,121.067,32.062,南通市,通州监测站,颗粒物(PM10),54,58,47,24,28,134,,97,97,24,23,7,6,0.7,0.7
2025-04-04T1400,3432A,120.9348,31.9883,南通市,环境教育馆,,,56,45,21,27,103,,71,71,,31,7,7,0.4,0.4
2025-04-04T1400,2404A,112.5224,33.0122,南阳市,瓦房庄,,,,115,,51,,,119,,,29,,6,,0.7
2025-04-04T1400,2405A,112.5003,32.9735,南阳市,汉画馆,细颗粒物(PM2.5),90,106,100,67,52,112,,91,91,24,34,10,6,0.6,0.6
2025-04-04T1400,2406A,112.5573,33.027,南阳市,气象站,,,,115,,49,120,,94,94,,30,12,8,0.7,0.7
2025-04-04T1400,2407A,112.5481,32.9689,南阳市,理工学院,细颗粒物(PM2.5),97,122,104,72,48,114,,104,104,20,26,9,6,0.7,0.6
2025-04-04T1400,4008A,112.5234,32.9922,南阳市,卧龙区政府,细颗粒物(PM2.5),102,115,112,76,56,125,,100,100,11,27,9,6,0.7,0.6
2025-04-04T1400,1234A,121.8358,29.911,宁波市,区环保大楼,,35,35,32,11,19,107,,94,94,16,28,7,8,0.4,0.5
2025-04-04T1400,1235A,121.56,29.82,宁波市,万里学院,,41,30,36,15,18,130,,108,108,11,20,10,10,0.5,0.5
2025-04-04T1400,1236A,121.713,29.9572,宁波市,龙赛医院,,37,26,38,21,22,117,,102,102,15,32,8,8,0.5,0.5
2025-04-04T1400,1239A,121.633,29.7733,宁波市,钱湖水厂,,40,23,24,14,14,126,,110,110,15,17,7,7,0.5,0.5
2025-04-04T1400,1240A,121.5856,29.8635,宁波市,太古小学,,41,30,33,13,15,129,,110,110,11,19,8,9,0.4,0.3
2025-04-04T1400,1241A,121.524,29.8674,宁波市,市环境监测中心,,40,29,35,15,19,126,,106,106,27,32,9,9,0.3,0.4
2025-04-04T1400,2871A,121.6147,29.9017,宁波市,万里国际学校,,42,32,33,16,14,133,,115,115,12,18,8,8,0.5,0.5
2025-04-04T1400,3710A,121.5594,29.8975,宁波市,白沙活动中心,,40,31,35,18,20,128,,106,106,15,23,7,8,0.4,0.4
2025-04-04T1400,2339A,119.5001,26.6946,宁德市,金涵水库,,,,,,,,,,,,,,,,
2025-04-04T1400,2341A,119.5388,26.6612,宁德市,宁德市监测站,,49,49,32,17,20,144,,92,92,9,14,7,6,0.5,0.5
2025-04-04T1400,3209A,119.5231,26.6562,宁德市,宁德一中,,45,41,29,20,17,144,,93,93,6,11,7,6,0.3,0.4
2025-04-04T1400,2618A,98.8601,25.8567,怒江傈僳族自治州,州监测站,,,83,76,62,52,149,,97,97,,9,9,7,0.6,0.6
2025-04-04T1400,2619A,98.8546,25.8417,怒江傈僳族自治州,泸水一中,细颗粒物(PM2.5),93,83,71,69,60,139,,82,82,9,16,8,8,0.7,0.7
2025-04-04T1400,1888A,101.6891,26.571,攀枝花市,弄弄坪,,45,45,74,25,63,131,,112,112,12,29,25,21,1.2,1.4
2025-04-04T1400,1889A,101.5769,26.5928,攀枝花市,河门口,,,64,81,28,49,141,,86,83,10,23,,14,0.4,0.7
2025-04-04T1400,1890A,101.7169,26.585,攀枝花市,炳草岗,,45,37,80,24,51,144,,88,88,10,52,12,16,0.9,1.3
2025-04-04T1400,1891A,101.7369,26.5008,攀枝花市,仁和,,45,,68,27,48,144,,107,107,7,27,7,10,0.5,0.9
2025-04-04T1400,2835A,101.7227,26.567,攀枝花市,四十中小,颗粒物(PM10),58,65,81,38,50,142,,102,102,8,38,9,22,0.8,2.2
2025-04-04T1400,1604A,122.0303,41.1489,盘锦市,开发区,颗粒物(PM10),66,81,41,44,27,120,,115,115,17,15,8,7,0.5,0.5
2025-04-04T1400,1605A,122.0485,41.0883,盘锦市,兴隆台,细颗粒物(PM2.5),85,85,44,63,29,112,,106,106,22,20,10,9,0.7,0.6
2025-04-04T1400,1606A,121.8297,41.1028,盘锦市,新生街道,,44,44,31,28,31,113,,107,107,18,19,8,9,0.7,0.8
2025-04-04T1400,1832A,113.3257,33.742,平顶山市,新华旅馆,颗粒物(PM10),83,115,119,54,44,116,,50,50,24,35,7,6,0.6,0.6
2025-04-04T1400,1833A,113.2919,33.737,平顶山市,规划设计院,颗粒物(PM10),89,127,114,64,58,102,,49,49,26,34,8,5,0.6,0.6
2025-04-04T1400,1834A,113.182,33.774,平顶山市,平顶山工学院,颗粒物(PM10),93,135,106,68,48,98,,61,52,26,26,7,6,0.8,0.5
2025-04-04T1400,3204A,113.3025,33.73,平顶山市,规划局,细颗粒物(PM2.5),88,122,116,65,53,100,,53,53,30,32,8,6,0.8,0.6
2025-04-04T1400,3594A,112.8867,33.9116,平顶山市,石龙区,颗粒物(PM10),79,107,131,41,47,117,,75,75,16,41,8,8,0.3,0.4
2025-04-04T1400,2656A,106.6692,35.5461,平凉市,聚贤嘉苑,颗粒物(PM10),119,187,173,42,45,113,,79,79,6,27,17,19,0.4,0.5
2025-04-04T1400,2657A,106.7021,35.5307,平凉市,博物馆,颗粒物(PM10),122,194,173,36,44,108,,78,78,6,26,9,11,0.5,0.6
2025-04-04T1400,2347A,114.0997,27.5002,萍乡市,武功山,,36,36,31,25,21,65,,69,52,13,9,10,10,1.0,0.9
2025-04-04T1400,2348A,113.8385,27.6434,萍乡市,中医院,颗粒物(PM10),82,114,74,53,38,69,,93,62,45,24,35,26,2.5,1.1
2025-04-04T1400,2349A,113.8493,27.6253,萍乡市,市政府车库,细颗粒物(PM2.5),85,96,65,63,43,73,,59,56,39,30,25,17,0.8,1.4
2025-04-04T1400,2350A,113.8676,27.6435,萍乡市,市环保局,细颗粒物(PM2.5),87,107,69,64,40,70,,77,60,50,30,31,22,1.6,1
2025-04-04T1400,2351A,113.866,27.6198,萍乡市,安源区政府,颗粒物(PM10),80,110,68,55,37,71,,59,59,35,24,29,18,0.7,0.9
2025-04-04T1400,2319A,119.0141,25.4325,莆田市,荔城区仓后路,,50,46,47,30,21,157,,121,121,11,18,4,3,0.6,0.6
2025-04-04T1400,2320A,119.0015,25.4553,莆田市,莆田市监测站,臭氧1小时,52,52,35,20,17,161,,130,130,10,9,5,4,0.4,0.4
2025-04-04T1400,2321A,119.1119,25.4561,莆田市,涵江区六中,颗粒物(PM10),51,51,52,20,23,157,,121,121,10,19,4,4,0.6,0.6
2025-04-04T1400,2322A,119.1013,25.3215,莆田市,秀屿区政府,,49,49,45,21,21,156,,121,121,11,16,5,6,0.6,0.5
2025-04-04T1400,2323A,118.981,25.4792,莆田市,东圳水库,,,,23,,12,,,,,,5,,2,,0.6
2025-04-04T1400,2392A,115.0312,35.7636,濮阳市,环保局,细颗粒物(PM2.5),93,82,73,69,44,89,,102,86,22,18,12,8,0.8,0.7
2025-04-04T1400,2394A,115.0574,35.7609,濮阳市,油田运输公司,细颗粒物(PM2.5),89,118,85,66,44,96,,99,86,22,18,12,7,0.8,0.6
2025-04-04T1400,3021A,115,35.7668,濮阳市,濮水河管理处,细颗粒物(PM2.5),95,126,92,71,47,88,,98,87,29,26,12,8,0.9,0.7
2025-04-04T1400,4216A,115.0924,35.7686,濮阳市,任丘路479号,细颗粒物(PM2.5),98,126,98,73,48,106,,83,83,20,22,12,8,0.9,0.7
2025-04-04T1400,2601A,100.98,22.7633,普洱市,市环保局,颗粒物(PM10),92,134,85,36,26,122,,50,50,10,12,7,5,1.0,0.9
2025-04-04T1400,2602A,100.9817,22.8322,普洱市,普洱第二中学,细颗粒物(PM2.5),73,94,62,53,36,114,,44,44,11,21,8,6,0.9,0.8
2025-04-04T1400,2262A,131.0518,45.8751,七台河市,新一中,,38,23,42,19,31,120,,88,88,12,17,13,11,1.0,1
2025-04-04T1400,3345A,131.0577,45.7879,七台河市,中波台,,33,33,93,19,37,98,,63,63,12,21,7,8,0.5,0.7
2025-04-04T1400,3637A,131.0176,45.7761,七台河市,人民广场,,38,37,74,26,48,103,,68,68,14,34,8,9,0.5,0.7
2025-04-04T1400,3684A,130.8781,45.8222,七台河市,新建矿广场,,46,46,65,23,34,107,,72,72,15,29,5,10,0.6,0.7
2025-04-04T1400,1779A,123.9305,47.3636,齐齐哈尔市,安居小区,颗粒物(PM10),78,106,102,40,56,119,,91,91,21,18,6,3,0.6,0.5
2025-04-04T1400,1780A,123.9488,47.3386,齐齐哈尔市,中心广场,颗粒物(PM10),77,104,111,52,60,115,,85,85,20,16,9,7,0.6,0.6
2025-04-04T1400,1781A,123.9483,47.3227,齐齐哈尔市,农牧车辆厂,颗粒物(PM10),76,102,92,43,53,123,,89,89,19,16,8,7,0.5,0.4
2025-04-04T1400,1783A,123.945,47.2988,齐齐哈尔市,市环境监测站,颗粒物(PM10),76,102,92,44,61,121,,90,90,18,15,6,4,0.6,0.5
2025-04-04T1400,3662A,123.6333,47.2075,齐齐哈尔市,富区青少年活动中心,颗粒物(PM10),105,159,106,63,64,116,,89,89,15,13,6,4,0.7,0.5
2025-04-04T1400,2591A,107.9783,26.5747,黔东南苗族侗族自治州,市环境监测站,细颗粒物(PM2.5),72,84,69,52,38,134,,77,77,8,24,7,6,0.5,0.5
2025-04-04T1400,2881A,107.8908,26.5311,黔东南苗族侗族自治州,凯里学院,"颗粒物(PM10),细颗粒物(PM2.5)",65,80,65,47,33,144,,106,104,7,11,6,5,0.6,0.5
2025-04-04T1400,2593A,107.5228,26.2403,黔南布依族苗族自治州,小围寨,颗粒物(PM10),59,68,55,41,29,150,,105,105,8,10,8,6,0.5,0.4
2025-04-04T1400,3538A,107.5175,26.2978,黔南布依族苗族自治州,沙坝,"颗粒物(PM10),细颗粒物(PM2.5)",62,73,63,44,30,112,,80,80,9,16,6,6,0.7,0.6
2025-04-04T1400,2589A,104.9022,25.0925,黔西南布依族苗族自治州,场坝街,颗粒物(PM10),53,55,53,31,36,129,,97,97,10,15,6,7,0.6,0.5
2025-04-04T1400,2590A,104.8811,25.0992,黔西南布依族苗族自治州,坪东大道,,,,54,,40,123,,88,88,12,27,5,4,,0.5
2025-04-04T1400,2502A,108.6236,21.9667,钦州市,市环保站,,41,34,62,17,30,130,,99,99,10,28,8,12,0.4,0.6
2025-04-04T1400,2503A,108.6549,21.9481,钦州市,沙埠小学,,40,35,71,14,35,126,,94,94,9,34,7,13,0.6,0.7
2025-04-04T1400,2504A,108.5989,21.7431,钦州市,港区一小,颗粒物(PM10),55,59,74,20,28,129,,91,91,13,36,9,13,0.6,0.7
2025-04-04T1400,3404A,108.5959,21.9633,钦州市,北职校,,,45,59,15,34,129,,93,93,15,30,11,12,,0.8
2025-04-04T1400,1043A,119.7493,40.0116,秦皇岛市,第一关,颗粒物(PM10),55,59,51,28,35,93,,67,67,22,30,6,5,0.5,0.4
