timepoint,stationcode,longitude,latitude,area,positionname,primarypollutant,aqi,pm10,pm10_24h,pm2_5,pm2_5_24h,o3,o3_24h,o3_8h,o3_8h_24h,no2,no2_24h,so2,so2_24h,co,co_24h
2025-01-02T0600,2566A,102.1879,31.914,阿坝藏族羌族自治州,州农科所,,16,12,32,9,10,50,,,,5,14,5,6,0.7,0.7
2025-01-02T0600,2568A,102.2502,31.8896,阿坝藏族羌族自治州,马师校,,19,,14,13,13,36,,,,8,17,3,3,0.3,0.4
2025-01-02T0600,3994A,102.2165,31.9024,阿坝藏族羌族自治州,马尔康中学西区,,19,19,22,9,12,39,,,,9,14,5,5,0.4,0.5
2025-01-02T0600,2695A,80.292,41.1694,阿克苏地区,电视台,细颗粒物(PM2.5),107,109,111,80,78,18,,,,52,40,4,3,1.8,1.3
2025-01-02T0600,2696A,80.2613,41.1551,阿克苏地区,艺术中心,细颗粒物(PM2.5),137,143,138,104,90,6,,,,59,50,4,4,2.5,1.6
2025-01-02T0600,2204A,105.6467,38.8363,阿拉善盟,西城区西花园,,33,31,46,23,23,64,,,,14,12,9,9,0.9,0.7
2025-01-02T0600,2205A,105.6985,38.8411,阿拉善盟,蒙二幼,,21,9,37,6,14,66,,,,10,11,3,3,0.6,0.6
2025-01-02T0600,2206A,105.724,38.8516,阿拉善盟,环保局新楼,,29,17,27,6,10,90,,,,4,5,8,7,0.5,0.5
2025-01-02T0600,2708A,88.1264,47.8517,阿勒泰地区,市站,,16,,26,11,18,47,,,,23,38,8,9,0.6,0.6
2025-01-02T0600,2630A,80.1161,32.5,阿里地区,阿里监测站,,21,6,13,3,5,65,,,,4,11,7,12,0.4,0.5
2025-01-02T0600,3192A,80.0903,32.5028,阿里地区,阿里藏医院,,17,16,16,7,8,53,,,,13,12,19,13,0.7,0.7
2025-01-02T0600,2642A,109.0318,32.6537,安康市,香溪洞,细颗粒物(PM2.5),65,57,67,47,53,59,,,,11,18,9,11,0.6,0.7
2025-01-02T0600,2644A,109.0072,32.6975,安康市,汉滨区检察院,细颗粒物(PM2.5),77,72,79,56,60,20,,,,34,34,11,7,0.8,0.8
2025-01-02T0600,4054A,109.0325,32.6913,安康市,市邮政管理局,细颗粒物(PM2.5),73,68,97,53,70,22,,,,28,44,6,8,0.6,1
2025-01-02T0600,2291A,117.0809,30.5177,安庆市,环科院,细颗粒物(PM2.5),105,113,115,79,74,4,,,,75,54,,9,1.0,0.9
2025-01-02T0600,2292A,117.0331,30.5119,安庆市,马山宾馆,细颗粒物(PM2.5),114,122,111,86,74,5,,,,79,56,10,10,0.9,0.8
2025-01-02T0600,2294A,116.9896,30.6145,安庆市,安庆大学,细颗粒物(PM2.5),100,104,121,75,78,37,,,,38,61,10,15,0.9,1
2025-01-02T0600,3173A,117.0598,30.5351,安庆市,市人大,细颗粒物(PM2.5),118,120,118,89,80,2,,,,79,73,7,9,0.9,0.9
2025-01-02T0600,3123A,105.9408,26.2431,安顺市,凤凰山,细颗粒物(PM2.5),67,58,68,48,60,60,,,,17,31,35,44,0.7,0.9
2025-01-02T0600,3124A,105.9439,26.2564,安顺市,金钟山,细颗粒物(PM2.5),64,52,59,46,50,60,,,,13,15,34,34,0.9,0.9
2025-01-02T0600,3125A,105.8983,26.2481,安顺市,娄家坡,细颗粒物(PM2.5),60,49,59,43,52,60,,,,15,22,33,31,0.8,0.8
2025-01-02T0600,1819A,114.3551,36.1017,安阳市,红庙街,细颗粒物(PM2.5),95,113,157,71,86,9,,,,51,43,15,12,1.5,1.2
2025-01-02T0600,1820A,114.361,36.0681,安阳市,银杏小区,细颗粒物(PM2.5),92,116,160,68,86,11,,,,52,48,11,10,1.4,1.3
2025-01-02T0600,3141A,114.3922,36.0878,安阳市,信访局,细颗粒物(PM2.5),88,118,172,65,88,10,,,,52,50,10,10,1.3,1.1
2025-01-02T0600,3669A,114.4705,36.0637,安阳市,左辅环卫站,细颗粒物(PM2.5),92,130,194,68,98,13,,,,51,51,13,13,1.3,1.1
2025-01-02T0600,3703A,114.2917,36.0949,安阳市,安钢职工学校,细颗粒物(PM2.5),122,159,184,92,98,7,,,,66,58,49,25,2.6,2
2025-01-02T0600,1748A,123.044,41.1196,鞍山市,深沟寺,,46,46,47,21,29,35,,,,21,24,9,13,0.8,0.9
2025-01-02T0600,1749A,123.011,41.0931,鞍山市,太阳城,,37,37,42,21,26,49,,,,14,24,8,12,0.5,0.8
2025-01-02T0600,1750A,123.0485,41.1442,鞍山市,太平,,47,47,65,27,39,30,,,,28,35,10,14,0.8,1.1
2025-01-02T0600,1751A,122.9642,41.0971,鞍山市,铁西三道街,,36,36,78,15,44,27,,,,34,39,13,20,0.9,1.4
2025-01-02T0600,1752A,122.9341,41.0833,鞍山市,铁西工业园区,颗粒物(PM10),58,66,77,40,48,25,,,,48,45,21,16,1.6,1.4
2025-01-02T0600,1753A,123.022,41.0821,鞍山市,明达新区,,31,31,45,18,26,43,,,,13,19,9,13,0.6,0.8
2025-01-02T0600,2195A,107.4212,40.761,巴彦淖尔市,附二中,,45,45,63,19,26,50,,,,15,21,4,8,0.4,0.4
2025-01-02T0600,2196A,107.37,40.7372,巴彦淖尔市,市环保大楼,,33,33,54,14,22,58,,,,8,14,5,6,0.4,0.4
2025-01-02T0600,1956A,86.1472,41.7538,巴音郭楞蒙古自治州,孔雀公园,细颗粒物(PM2.5),68,75,92,49,64,55,,,,26,27,6,5,0.7,0.8
2025-01-02T0600,1957A,86.1972,41.7166,巴音郭楞蒙古自治州,棉纺厂,颗粒物(PM10),77,104,117,53,62,54,,,,28,41,4,4,0.8,0.9
2025-01-02T0600,1958A,86.2357,41.7173,巴音郭楞蒙古自治州,经济开发区,细颗粒物(PM2.5),72,82,84,52,57,63,,,,23,23,5,4,0.8,0.8
2025-01-02T0600,2914A,106.7677,31.8794,巴中市,苏山坪,细颗粒物(PM2.5),58,52,61,41,48,75,,,,10,15,3,3,0.4,0.4
2025-01-02T0600,3182A,106.7656,31.8545,巴中市,丽阳花园,细颗粒物(PM2.5),84,78,94,62,72,2,,,,40,46,3,4,0.7,1
2025-01-02T0600,3183A,106.7418,31.8654,巴中市,圣泉水务公司,细颗粒物(PM2.5),75,66,81,55,66,25,,,,28,40,3,3,0.5,0.6
2025-01-02T0600,3616A,106.7616,31.8344,巴中市,市中心医院,细颗粒物(PM2.5),120,97,98,91,86,2,,,,43,45,3,3,0.9,0.8
2025-01-02T0600,2235A,122.7911,45.6077,白城市,洮北区环保局,,23,23,32,15,23,38,,,,20,14,4,6,0.5,0.5
2025-01-02T0600,2236A,122.8738,45.5725,白城市,市环保局,,19,17,29,13,17,27,,,,25,17,5,5,0.4,0.4
2025-01-02T0600,2231A,126.4219,41.9171,白山市,喜丰,颗粒物(PM10),63,75,73,38,35,21,,,,30,30,24,21,0.9,0.9
2025-01-02T0600,2232A,126.4077,41.9419,白山市,环保局,颗粒物(PM10),66,82,79,27,44,19,,,,23,23,7,9,0.9,1
2025-01-02T0600,2647A,104.1724,36.5446,白银市,第三小学,,28,28,37,11,15,36,,,,30,27,9,25,0.7,0.7
2025-01-02T0600,2648A,104.1465,36.5482,白银市,动力公司,,18,12,34,12,19,50,,,,12,20,1,9,0.6,0.7
2025-01-02T0600,2512A,106.6103,23.9011,百色市,市监测站,细颗粒物(PM2.5),77,65,78,56,57,4,,,,45,29,9,17,1.2,1.3
2025-01-02T0600,2513A,106.6538,23.8859,百色市,市中心血站,细颗粒物(PM2.5),99,86,119,74,85,25,,,,30,48,12,26,1.1,1.4
2025-01-02T0600,3406A,106.6085,23.8798,百色市,祈福高中,细颗粒物(PM2.5),82,78,94,60,58,6,,,,27,42,5,15,1.1,1.2
2025-01-02T0600,2270A,117.396,32.939,蚌埠市,工人疗养院,细颗粒物(PM2.5),115,124,106,87,65,8,,,,91,50,10,10,0.9,0.8
2025-01-02T0600,2271A,117.3605,32.9427,蚌埠市,百货大楼,细颗粒物(PM2.5),133,147,106,101,62,2,,,,83,53,8,10,1.1,0.9
2025-01-02T0600,2273A,117.4185,32.8911,蚌埠市,蚌埠学院,细颗粒物(PM2.5),105,122,109,79,65,22,,,,59,40,8,11,0.7,0.7
2025-01-02T0600,2274A,117.3533,32.9673,蚌埠市,淮上区政府,细颗粒物(PM2.5),134,163,120,102,70,4,,,,75,52,12,13,0.9,0.8
2025-01-02T0600,2275A,117.3145,32.8977,蚌埠市,高新区,细颗粒物(PM2.5),119,127,105,90,63,5,,,,81,49,8,11,1.1,0.8
2025-01-02T0600,3715A,117.3092,32.9314,蚌埠市,蚌埠田家炳中学,细颗粒物(PM2.5),123,146,113,93,65,3,,,,79,49,10,11,0.9,0.9
2025-01-02T0600,1585A,109.8756,40.6532,包头市,市环境监测站,,19,12,55,8,14,60,,,,10,17,9,10,0.4,0.5
2025-01-02T0600,1587A,109.9991,40.5842,包头市,包头八中,,17,12,63,6,27,52,,,,23,25,4,8,0.6,0.9
2025-01-02T0600,1588A,109.8538,40.6821,包头市,青山宾馆,,18,13,32,9,18,55,,,,11,15,10,11,0.5,0.5
2025-01-02T0600,1589A,109.8642,40.6288,包头市,惠龙物流,,21,6,45,3,19,67,,,,8,18,8,11,0.5,0.7
2025-01-02T0600,1590A,110.0377,40.5546,包头市,东河鸿龙湾,,15,12,59,3,22,47,,,,26,27,10,14,0.5,0.8
2025-01-02T0600,3283A,109.9154,40.5685,包头市,滨河大厦,,15,6,51,3,25,41,,,,29,25,6,14,0.4,0.8
2025-01-02T0600,3419A,109.9447,40.6261,包头市,包头市委党校,,24,24,64,10,14,35,,,,31,24,8,7,0.4,0.5
2025-01-02T0600,3683A,109.8331,40.6576,包头市,昆区政府,,20,12,45,8,26,62,,,,9,17,13,13,0.4,0.6
2025-01-02T0600,1930A,107.185,34.3063,宝鸡市,庙沟村,,32,32,37,14,26,76,,,,8,16,7,8,0.3,0.4
2025-01-02T0600,1931A,107.0708,34.3017,宝鸡市,竹园沟,,27,27,44,10,31,55,,,,12,21,5,7,0.3,0.5
2025-01-02T0600,1932A,107.1906,34.3672,宝鸡市,三陆医院,,46,46,67,31,50,9,,,,52,42,4,6,0.7,0.7
2025-01-02T0600,1933A,107.1431,34.3547,宝鸡市,监测站,,45,45,66,26,44,32,,,,26,38,6,7,0.5,0.7
2025-01-02T0600,1934A,107.1186,34.3739,宝鸡市,技工学校,,41,41,72,26,46,39,,,,15,27,7,7,0.5,0.6
2025-01-02T0600,1935A,107.3906,34.3528,宝鸡市,陈仓区环保局家属楼,颗粒物(PM10),58,66,86,34,57,11,,,,52,49,14,24,0.7,0.9
2025-01-02T0600,1936A,107.2058,34.3497,宝鸡市,文理学院,,41,41,61,24,40,41,,,,23,35,5,6,0.5,0.6
2025-01-02T0600,1937A,107.2386,34.3622,宝鸡市,三迪小学,,43,43,65,26,51,33,,,,25,43,5,7,0.5,0.6
2025-01-02T0600,1051A,115.493,38.8632,保定市,游泳馆,颗粒物(PM10),68,86,73,47,39,5,,,,54,45,3,2,0.6,0.5
2025-01-02T0600,1052A,115.5213,38.8959,保定市,华电二区,细颗粒物(PM2.5),77,72,68,56,48,0,,,,57,47,4,5,0.6,0.4
2025-01-02T0600,1053A,115.4713,38.9108,保定市,接待中心,颗粒物(PM10),68,85,70,44,39,6,,,,54,40,4,4,0.9,0.7
2025-01-02T0600,1054A,115.4612,38.8416,保定市,地表水厂,细颗粒物(PM2.5),70,81,80,51,38,8,,,,63,47,3,4,0.6,0.5
2025-01-02T0600,3581A,115.31981,38.95208,保定市,满城区生态环境分局,颗粒物(PM10),62,73,78,34,34,5,,,,63,56,2,4,0.7,0.4
2025-01-02T0600,3582A,115.47694,38.76408,保定市,清苑区第二中学,颗粒物(PM10),74,98,93,48,41,2,,,,61,54,3,6,0.7,0.7
2025-01-02T0600,3583A,115.62909,39.02311,保定市,徐水物探局,颗粒物(PM10),62,73,70,41,37,2,,,,50,47,10,7,0.9,0.6
2025-01-02T0600,4004A,115.4202,38.8656,保定市,双鹰农机,细颗粒物(PM2.5),68,72,64,49,36,7,,,,54,41,6,4,0.7,0.5
2025-01-02T0600,4034A,115.5150,38.8590,保定市,植保所站,细颗粒物(PM2.5),64,66,76,46,43,4,,,,59,47,5,6,0.8,0.7
2025-01-02T0600,2594A,99.1678,25.1081,保山市,市环境监测站,,20,,25,14,14,33,,,,8,10,4,4,0.4,0.4
2025-01-02T0600,2595A,99.1711,25.1328,保山市,市环保局,,29,20,25,20,19,40,,,,6,6,5,5,0.6,0.5
2025-01-02T0600,1867A,109.1436,21.4086,北海市,海滩公园,细颗粒物(PM2.5),102,86,112,76,87,97,,,,23,29,11,12,0.9,1.1
2025-01-02T0600,1868A,109.0981,21.4661,北海市,新市环保局,细颗粒物(PM2.5),89,71,94,66,80,94,,,,24,28,13,11,0.9,0.9
2025-01-02T0600,1869A,109.1778,21.5233,北海市,北海工业园,细颗粒物(PM2.5),102,99,124,76,97,90,,,,20,32,15,14,1.0,1.1
2025-01-02T0600,3400A,109.1911,21.4415,北海市,龙潭自来水厂,细颗粒物(PM2.5),158,,98,120,96,44,,,,19,25,7,11,1.0,1
2025-01-02T0600,1001A,116.3621,39.8784,北京市,万寿西宫,,18,18,33,7,14,40,,,,25,30,3,4,0.2,0.4
2025-01-02T0600,1003A,116.4174,39.9289,北京市,东四,,17,9,32,3,15,53,,,,14,27,3,3,0.1,0.3
2025-01-02T0600,1004A,116.4072,39.8863,北京市,天坛,,18,16,30,8,15,55,,,,16,27,1,2,0.2,0.4
2025-01-02T0600,1005A,116.462,39.9365,北京市,农展馆,,16,12,33,3,14,50,,,,21,36,2,2,0.3,0.5
2025-01-02T0600,1006A,116.3392,39.9295,北京市,官园,,19,19,30,11,15,35,,,,27,28,4,4,0.3,0.4
2025-01-02T0600,1007A,116.2878,39.9611,北京市,海淀万柳,,21,21,36,9,15,36,,,,26,34,3,3,0.4,0.5
2025-01-02T0600,1008A,116.6636,40.135,北京市,顺义新城,,18,11,33,3,16,56,,,,9,24,1,1,0.2,0.3
2025-01-02T0600,1009A,116.6275,40.3275,北京市,怀柔镇,,14,11,31,6,16,44,,,,13,21,3,1,0.6,0.7
2025-01-02T0600,1010A,116.2296,40.217,北京市,昌平镇,,18,9,38,3,19,57,,,,8,29,2,2,0.3,0.6
2025-01-02T0600,1011A,116.3966,39.9821,北京市,奥体中心,,17,9,31,3,14,54,,,,13,29,4,5,0.5,0.7
2025-01-02T0600,1012A,116.184,39.9136,北京市,古城,,22,22,38,10,16,40,,,,22,29,6,6,0.4,0.6
2025-01-02T0600,3281A,115.9718,40.4529,北京市,延庆夏都,,16,16,49,8,27,29,,,,15,27,1,2,0.2,0.4
2025-01-02T0600,3417A,117.0709,40.1465,北京市,平谷新城,,17,6,47,3,27,54,,,,8,25,3,2,0.2,0.6
2025-01-02T0600,3418A,116.8336,40.4095,北京市,密云新城,,20,8,28,3,11,63,,,,2,12,2,2,0.2,0.2
2025-01-02T0600,3671A,116.088,39.9726,北京市,门头沟三家店,,21,21,47,10,20,24,,,,30,35,6,4,0.2,0.4
2025-01-02T0600,3672A,116.1541,39.8204,北京市,丰台云岗,,19,19,36,6,13,53,,,,9,26,3,4,0.3,0.4
2025-01-02T0600,3673A,116.6804,39.9081,北京市,通州东关,,19,19,51,8,24,24,,,,37,51,2,4,0.2,0.8
2025-01-02T0600,3674A,115.9577,39.7603,北京市,房山燕山,,24,9,29,3,13,76,,,,2,16,1,2,0.2,0.3
2025-01-02T0600,3675A,116.4672,39.7733,北京市,大兴旧宫,,13,,30,3,15,34,,,,26,36,1,2,0.2,0.4
2025-01-02T0600,3694A,115.986,40.4563,北京市,延庆石河营,,12,12,45,6,26,17,,,,23,23,3,3,0.2,0.5
2025-01-02T0600,3695A,116.6151,40.3053,北京市,怀柔新城,,15,11,29,6,15,47,,,,5,14,3,2,0.2,0.2
2025-01-02T0600,3696A,116.2545,39.8768,北京市,丰台小屯,,23,23,40,12,20,41,,,,17,35,4,4,0.2,0.4
2025-01-02T0600,3697A,116.84,40.3844,北京市,密云镇,,14,11,31,6,15,39,,,,27,22,2,2,0.2,0.3
2025-01-02T0600,1761A,123.8275,41.3064,本溪市,大峪,"颗粒物(PM10),细颗粒物(PM2.5)",67,83,54,48,32,7,,,,54,42,10,12,2.7,1.3
2025-01-02T0600,1762A,123.7567,41.3325,本溪市,溪湖,颗粒物(PM10),69,87,70,48,40,7,,,,46,36,11,13,1.9,1.3
2025-01-02T0600,1763A,123.7169,41.3094,本溪市,彩屯,细颗粒物(PM2.5),90,92,68,67,47,10,,,,42,36,8,11,1.3,1
2025-01-02T0600,1764A,123.7669,41.2864,本溪市,东明,细颗粒物(PM2.5),97,85,77,72,53,7,,,,55,43,12,12,1.9,1.2
2025-01-02T0600,1765A,123.7992,41.2664,本溪市,新立屯,颗粒物(PM10),52,53,42,27,24,12,,,,50,38,7,8,0.8,1
2025-01-02T0600,1766A,123.8142,41.3472,本溪市,威宁,颗粒物(PM10),64,78,78,29,38,11,,,,38,38,3,4,1.1,0.8
2025-01-02T0600,2587A,105.2864,27.3125,毕节市,八中,,38,29,71,26,61,90,,,,12,18,6,12,0.7,0.8
2025-01-02T0600,2588A,105.31,27.2944,毕节市,师专,,36,28,84,25,74,86,,,,10,19,6,14,0.7,0.8
2025-01-02T0600,3537A,105.3631,27.3533,毕节市,长征村,,32,24,59,22,52,95,,,,10,11,7,12,0.8,0.8
2025-01-02T0600,1629A,118.0018,37.3617,滨州市,第二水厂,,19,12,114,3,56,58,,,,12,45,12,16,0.1,0.7
2025-01-02T0600,1630A,117.9776,37.393,滨州市,北中新校,,22,22,124,9,61,50,,,,21,53,9,16,0.5,1.1
2025-01-02T0600,3514A,117.9378,37.3956,滨州市,中海酒店,,22,22,104,9,59,33,,,,21,43,10,14,0.4,0.7
2025-01-02T0600,3515A,117.9378,37.3553,滨州市,开发区一中,,17,17,113,3,53,51,,,,19,45,9,15,0.2,0.7
2025-01-02T0600,3516A,118.0917,37.694,滨州市,金海六路,,16,10,100,9,47,49,,,,12,39,4,18,0.4,0.9
2025-01-02T0600,4028A,117.9956,37.3753,滨州市,滨州市西街道办事处,,19,,113,12,64,58,,,,13,44,10,15,0.6,1.2
2025-01-02T0600,2311A,115.8072,33.8399,亳州市,污水处理厂,细颗粒物(PM2.5),205,221,155,155,97,18,,,,49,43,8,7,0.9,0.8
2025-01-02T0600,2312A,115.7789,33.8518,亳州市,三国揽胜宫,细颗粒物(PM2.5),210,253,165,160,97,21,,,,54,45,9,7,1.1,0.9
2025-01-02T0600,3332A,115.7633,33.8034,亳州市,亳州学院,细颗粒物(PM2.5),200,225,148,150,88,21,,,,46,35,8,6,1.1,0.8
2025-01-02T0600,2693A,82.0485,44.8556,博尔塔拉蒙古自治州,市党校,细颗粒物(PM2.5),113,111,118,85,89,27,,,,31,35,11,12,1.6,1.6
2025-01-02T0600,2694A,82.0806,44.8969,博尔塔拉蒙古自治州,市环保局,细颗粒物(PM2.5),107,125,142,80,84,29,,,,40,41,9,9,1.7,1.9
2025-01-02T0600,1071A,116.8842,38.2991,沧州市,沧县城建局,颗粒物(PM10),58,66,111,30,63,8,,,,54,50,6,11,0.8,0.8
2025-01-02T0600,1072A,116.8584,38.3254,沧州市,电视转播站,细颗粒物(PM2.5),58,63,104,41,51,4,,,,63,59,10,13,0.7,0.7
2025-01-02T0600,1073A,116.8709,38.3228,沧州市,市环保局,"颗粒物(PM10),细颗粒物(PM2.5)",58,65,100,41,67,3,,,,54,50,4,9,0.8,0.7
2025-01-02T0600,3324A,116.8136,38.3004,沧州市,河北水利电力学院,细颗粒物(PM2.5),63,66,110,45,58,4,,,,52,46,8,15,0.7,0.6
2025-01-02T0600,2622A,97.1806,31.1273,昌都市,昌都监测站,,19,19,48,6,29,40,,,,13,33,6,7,0.7,1.3
2025-01-02T0600,3719A,97.1714,31.1406,昌都市,昌都会议中心,,18,6,12,3,12,56,,,,2,12,5,6,0.6,0.8
2025-01-02T0600,2690A,88.1236,43.8886,昌吉回族自治州,天山天池,,28,6,4,3,2,88,,,,2,2,6,7,0.5,0.4
2025-01-02T0600,2692A,87.2717,44.0297,昌吉回族自治州,新区政务中心,细颗粒物(PM2.5),232,258,252,182,176,9,,,,72,63,6,7,2.1,2.1
2025-01-02T0600,3613A,87.3095,44.0142,昌吉回族自治州,亚心广场,细颗粒物(PM2.5),274,278,256,224,209,39,,,,59,65,9,9,1.9,2
2025-01-02T0600,1119A,125.3325,43.9166,长春市,食品厂,,24,24,38,13,23,35,,,,21,27,8,10,0.2,0.4
2025-01-02T0600,1120A,125.2863,43.9027,长春市,客车厂,,26,26,36,14,25,26,,,,28,28,16,13,0.3,0.4
2025-01-02T0600,1121A,125.2841,43.8463,长春市,邮电学院,,22,20,37,15,26,28,,,,25,24,43,19,0.2,0.4
2025-01-02T0600,1122A,125.3716,43.8772,长春市,劳动公园,,18,18,37,10,22,38,,,,20,26,16,14,0.3,0.4
2025-01-02T0600,1123A,125.3297,43.8805,长春市,园林处,,20,16,33,14,21,34,,,,18,21,16,15,0.4,0.5
2025-01-02T0600,1124A,125.4605,43.79,长春市,净月潭,,18,18,29,10,19,34,,,,14,15,7,8,0.3,0.3
2025-01-02T0600,1126A,125.3863,43.8447,长春市,经开区环卫处,,16,15,39,11,25,32,,,,20,26,12,17,0.4,0.5
2025-01-02T0600,1127A,125.245,43.7783,长春市,高新区管委会,,17,17,53,11,33,36,,,,15,20,7,8,0.4,0.6
2025-01-02T0600,1128A,125.1761,43.8325,长春市,岱山公园,,16,14,40,11,31,40,,,,10,23,6,8,0.4,0.6
2025-01-02T0600,1335A,113.0833,28.2325,长沙市,经开区环保局,细颗粒物(PM2.5),134,151,141,102,94,22,,,,60,55,5,8,1.0,1.1
2025-01-02T0600,1336A,112.8872,28.2189,长沙市,高开区环保局,细颗粒物(PM2.5),159,164,182,121,133,9,,,,78,61,6,9,1.2,1.3
2025-01-02T0600,1337A,113.0792,28.2053,长沙市,马坡岭,细颗粒物(PM2.5),156,153,152,119,118,2,,,,69,62,3,6,1.0,1
2025-01-02T0600,1338A,112.9394,28.19,长沙市,湖南师范大学,细颗粒物(PM2.5),166,142,144,126,103,5,,,,81,59,6,10,1.5,1.1
2025-01-02T0600,1339A,113.0178,28.1322,长沙市,雨花区环保局,细颗粒物(PM2.5),133,142,137,101,100,6,,,,91,72,8,10,1.1,1.1
2025-01-02T0600,1340A,112.9792,28.2597,长沙市,伍家岭,细颗粒物(PM2.5),158,153,170,120,116,1,,,,63,62,4,6,1.2,1.2
2025-01-02T0600,1341A,113.0014,28.1944,长沙市,火车新站,细颗粒物(PM2.5),211,230,191,161,135,8,,,,93,81,5,7,1.8,1.6
2025-01-02T0600,1342A,112.9844,28.1178,长沙市,天心区环保局,细颗粒物(PM2.5),153,,145,117,105,3,,,,91,67,5,6,1.4,1.3
2025-01-02T0600,1343A,112.8908,28.1308,长沙市,湖南中医药大学,细颗粒物(PM2.5),158,155,145,120,103,3,,,,73,68,5,9,1.1,1
2025-01-02T0600,1344A,112.9581,28.3611,长沙市,沙坪,细颗粒物(PM2.5),105,,95,79,71,45,,,,29,25,6,9,0.9,0.7
2025-01-02T0600,1727A,113.1147,36.1547,长治市,清华站,细颗粒物(PM2.5),98,106,82,73,58,2,,,,54,45,17,22,1.9,1.3
2025-01-02T0600,1728A,113.1031,36.1989,长治市,监测站,细颗粒物(PM2.5),85,88,85,63,60,4,,,,53,47,25,22,1.7,1.6
2025-01-02T0600,1730A,113.0886,36.2125,长治市,审计局,细颗粒物(PM2.5),83,82,89,61,59,2,,,,61,53,25,24,1.5,1.4
2025-01-02T0600,1731A,113.0844,36.1856,长治市,长治八中,细颗粒物(PM2.5),99,117,115,74,74,3,,,,60,53,27,23,1.6,1.3
2025-01-02T0600,2845A,113.1569,36.1911,长治市,德盛苑,细颗粒物(PM2.5),100,122,88,75,53,13,,,,61,40,24,20,2.3,1.5
2025-01-02T0600,3568A,113.06,36.0464,长治市,向阳小学,"颗粒物(PM10),细颗粒物(PM2.5)",79,107,93,58,53,23,,,,39,34,29,31,1.8,1.3
2025-01-02T0600,3569A,112.8792,36.3144,长治市,屯留一中,细颗粒物(PM2.5),58,57,59,41,40,28,,,,46,53,17,20,1.3,1.2
2025-01-02T0600,3570A,113.235,36.3489,长治市,潞城四中,细颗粒物(PM2.5),114,146,125,86,76,13,,,,54,50,21,42,1.9,2
2025-01-02T0600,1854A,111.6975,28.9703,常德市,市二中,细颗粒物(PM2.5),205,162,119,155,106,33,,,,29,31,6,7,1.1,0.9
2025-01-02T0600,3138A,111.7153,29.0289,常德市,武陵区永安,细颗粒物(PM2.5),199,171,125,149,102,44,,,,32,28,4,6,1.2,1
2025-01-02T0600,3139A,111.6892,28.9881,常德市,鼎城区玉霞,细颗粒物(PM2.5),180,151,129,136,100,11,,,,34,32,5,5,1.0,0.9
2025-01-02T0600,3140A,111.6625,29.0531,常德市,武陵区长庚,细颗粒物(PM2.5),204,191,135,154,105,74,,,,20,29,5,4,1.0,0.9
2025-01-02T0600,1196A,119.9633,31.762,常州市,市监测站,颗粒物(PM10),72,93,113,47,60,3,,,,76,69,8,10,0.9,1.1
2025-01-02T0600,1200A,119.9468,31.7069,常州市,武进监测站,颗粒物(PM10),72,94,99,41,53,2,,,,74,61,12,12,0.8,0.9
2025-01-02T0600,1201A,119.9255,31.9087,常州市,安家,细颗粒物(PM2.5),79,103,112,58,63,3,,,,57,70,10,10,1.1,1
2025-01-02T0600,3002A,119.9805,31.8174,常州市,行政中心,颗粒物(PM10),69,88,91,46,53,0,,,,64,57,13,13,0.9,0.7
2025-01-02T0600,3003A,120.0522,31.7748,常州市,经开区,颗粒物(PM10),84,118,119,56,56,3,,,,69,66,13,19,1.2,1
2025-01-02T0600,3010A,119.9025,31.7964,常州市,钟楼,颗粒物(PM10),70,89,98,50,51,3,,,,74,65,9,10,0.8,0.9
2025-01-02T0600,3429A,119.8598,31.7066,常州市,武进经发区,细颗粒物(PM2.5),84,105,119,62,66,4,,,,80,73,7,8,0.8,0.8
2025-01-02T0600,3430A,119.5826,31.7245,常州市,金坛城区,细颗粒物(PM2.5),89,112,106,66,61,2,,,,71,42,9,10,1.0,0.8
2025-01-02T0600,2220A,120.4318,41.5881,朝阳市,西梁,,48,33,49,33,32,15,,,,30,24,6,9,1.5,1.1
2025-01-02T0600,2221A,120.4521,41.5646,朝阳市,河畔小区,,36,,42,25,25,19,,,,30,21,5,8,1.0,0.9
2025-01-02T0600,2222A,120.4176,41.5648,朝阳市,八里堡,,39,38,53,27,35,15,,,,32,32,9,14,0.6,0.6
2025-01-02T0600,2223A,120.3806,41.5969,朝阳市,农业园区,,18,14,39,12,30,48,,,,12,24,6,12,0.6,0.8
2025-01-02T0600,1705A,116.6367,23.6719,潮州市,西园路,细颗粒物(PM2.5),82,74,82,60,51,33,,,,21,24,5,8,0.3,0.3
2025-01-02T0600,3026A,116.6183,23.6608,潮州市,市政府,细颗粒物(PM2.5),69,60,71,50,40,52,,,,15,24,5,7,0.4,0.4
2025-01-02T0600,4036A,116.6461,23.6761,潮州市,金山,细颗粒物(PM2.5),72,59,69,52,48,30,,,,20,24,6,8,0.6,0.6
2025-01-02T0600,2472A,113.0073,25.9061,郴州市,马头岭,细颗粒物(PM2.5),78,80,99,57,60,55,,,,21,30,12,17,0.8,0.9
2025-01-02T0600,2473A,113.0116,25.8226,郴州市,市职中,细颗粒物(PM2.5),99,89,94,74,72,18,,,,33,40,5,8,0.9,0.9
2025-01-02T0600,2474A,113.0161,25.8001,郴州市,兴隆步行街,细颗粒物(PM2.5),90,86,104,67,76,7,,,,41,44,4,7,0.9,1
2025-01-02T0600,2475A,113.0383,25.8071,郴州市,市审计局,细颗粒物(PM2.5),105,94,97,79,77,11,,,,40,40,5,7,1.6,1.4
2025-01-02T0600,2476A,113.0348,25.7759,郴州市,市环保局,细颗粒物(PM2.5),100,106,105,75,77,7,,,,57,53,6,8,1.0,1
2025-01-02T0600,1431A,103.9728,30.7236,成都市,金泉两河,细颗粒物(PM2.5),179,145,117,135,98,3,,,,61,52,2,4,1.4,1
2025-01-02T0600,1432A,104.176,30.6872,成都市,十里店,细颗粒物(PM2.5),159,140,128,121,103,17,,,,64,58,3,5,0.7,0.7
2025-01-02T0600,1433A,104.079,30.5706,成都市,三瓦窑,细颗粒物(PM2.5),159,148,134,121,104,0,,,,85,62,2,2,1.2,1
2025-01-02T0600,1434A,104.1114,30.63,成都市,沙河铺,细颗粒物(PM2.5),155,141,119,118,101,5,,,,71,56,3,2,0.8,0.7
2025-01-02T0600,1437A,104.0786,30.6531,成都市,君平街,细颗粒物(PM2.5),149,127,111,114,94,2,,,,85,56,5,5,1.0,0.9
2025-01-02T0600,2880A,104.0239,30.65639,成都市,大石西路,细颗粒物(PM2.5),134,131,115,102,90,0,,,,67,50,3,4,1.0,0.9
2025-01-02T0600,3136A,104.2725,30.5589,成都市,龙泉驿区区政府,细颗粒物(PM2.5),122,107,115,92,91,35,,,,32,32,3,4,0.9,0.9
2025-01-02T0600,3357A,104.0106,30.6931,成都市,金博路,细颗粒物(PM2.5),152,133,122,116,93,3,,,,67,47,1,3,1.0,0.9
2025-01-02T0600,3359A,104.0578,30.5225,成都市,华阳,细颗粒物(PM2.5),138,127,129,105,101,4,,,,75,66,3,2,1.1,1
2025-01-02T0600,3487A,104.2394,30.5319,成都市,车城东七路,细颗粒物(PM2.5),138,126,124,105,103,25,,,,41,45,2,3,0.8,0.8
2025-01-02T0600,3488A,104.3853,30.7453,成都市,青白江技师分院,细颗粒物(PM2.5),145,113,106,111,91,22,,,,42,43,1,2,0.5,0.6
2025-01-02T0600,3489A,104.0789,30.4072,成都市,科学城,细颗粒物(PM2.5),124,110,119,94,100,7,,,,45,43,4,5,0.8,0.8
2025-01-02T0600,4011A,103.8506,30.6947,成都市,光华大道三段,细颗粒物(PM2.5),147,132,122,112,93,10,,,,42,38,1,2,0.8,0.8
2025-01-02T0600,1062A,117.9531,40.9081,承德市,铁路,,26,24,58,18,32,29,,,,21,35,5,8,0.6,0.8
2025-01-02T0600,1063A,117.9392,40.9763,承德市,中国银行,,16,,52,11,26,17,,,,23,39,3,3,0.4,0.6
2025-01-02T0600,1064A,117.9503,40.928,承德市,开发区,,32,32,55,20,30,25,,,,29,32,3,5,0.6,0.7
2025-01-02T0600,1065A,117.8051,40.9655,承德市,文化中心,颗粒物(PM10),59,67,86,28,37,14,,,,41,44,3,8,0.5,0.8
2025-01-02T0600,1066A,117.9268,41.0026,承德市,离宫,,32,27,36,22,29,55,,,,3,20,5,6,0.2,0.4
2025-01-02T0600,2314A,117.47,30.6618,池州市,池州学院,细颗粒物(PM2.5),97,92,119,72,79,15,,,,43,44,4,7,0.9,0.9
2025-01-02T0600,3237A,117.4918,30.6617,池州市,展览馆,细颗粒物(PM2.5),74,80,99,54,66,4,,,,45,44,4,7,1.0,0.9
2025-01-02T0600,3333A,117.5627,30.695,池州市,第八中学,细颗粒物(PM2.5),113,122,122,85,81,45,,,,30,42,6,7,0.8,0.9
2025-01-02T0600,3334A,117.5038,30.6243,池州市,第十二中学,细颗粒物(PM2.5),88,85,101,65,69,7,,,,40,50,2,5,1.5,1
2025-01-02T0600,1744A,118.9233,42.2816,赤峰市,松山一中,,19,11,25,6,9,58,,,,12,26,14,15,0.5,0.6
2025-01-02T0600,1745A,118.9576,42.2728,赤峰市,哈达街,,18,17,23,3,12,56,,,,11,24,9,11,0.5,0.7
2025-01-02T0600,1746A,118.8788,42.2554,赤峰市,天义路,,25,25,21,3,12,55,,,,10,23,10,13,0.6,0.7
2025-01-02T0600,3058A,119.2658,42.0353,赤峰市,银河街,,35,28,49,24,26,43,,,,17,26,17,22,0.8,0.8
2025-01-02T0600,3286A,118.9359,42.3147,赤峰市,桥北物流园区,,15,11,21,6,16,47,,,,24,29,9,13,0.8,0.8
2025-01-02T0600,2521A,107.3476,22.4136,崇左市,市环保局江州分局,细颗粒物(PM2.5),95,101,104,71,70,14,,,,32,33,4,6,0.8,0.7
2025-01-02T0600,2522A,107.3702,22.3707,崇左市,城南新区,细颗粒物(PM2.5),95,85,113,71,79,23,,,,36,34,5,7,0.9,1
2025-01-02T0600,2298A,118.3093,32.3153,滁州市,老年大学,细颗粒物(PM2.5),78,83,108,57,68,4,,,,46,69,3,8,0.7,0.9
2025-01-02T0600,2299A,118.3244,32.2786,滁州市,人大宾馆,细颗粒物(PM2.5),102,104,112,76,78,10,,,,61,64,8,11,0.8,0.8
2025-01-02T0600,3207A,118.3118,32.3038,滁州市,市政府原办公楼,细颗粒物(PM2.5),88,90,106,65,72,4,,,,54,71,4,8,1.1,1.2
2025-01-02T0600,3331A,118.3267,32.2634,滁州市,图书馆,细颗粒物(PM2.5),92,116,120,68,66,12,,,,57,61,7,9,1.3,1.2
2025-01-02T0600,2605A,101.5482,25.0441,楚雄彝族自治州,州环境监测站,,28,24,28,19,26,7,,,,30,19,6,8,0.4,0.5
2025-01-02T0600,2606A,101.538,25.0492,楚雄彝族自治州,市经济开发区,,26,21,32,18,25,11,,,,25,18,7,7,0.4,0.5
2025-01-02T0600,2548A,107.5277,31.2827,达州市,达州职业技术学院,细颗粒物(PM2.5),188,145,151,141,139,7,,,,18,28,4,7,1.2,1.3
2025-01-02T0600,2549A,107.5086,31.2186,达州市,市环境监测站,细颗粒物(PM2.5),156,140,147,119,115,5,,,,42,60,5,8,1.5,1.5
2025-01-02T0600,2550A,107.4988,31.2132,达州市,凤凰小区,细颗粒物(PM2.5),156,139,150,119,122,6,,,,41,60,6,10,1.4,1.6
2025-01-02T0600,2551A,107.5082,31.1986,达州市,达县机关宾馆,细颗粒物(PM2.5),139,132,154,106,114,4,,,,45,61,4,8,1.5,1.7
2025-01-02T0600,2552A,107.4644,31.2124,达州市,市政中心,细颗粒物(PM2.5),156,147,160,119,121,4,,,,48,73,1,15,1.5,2.2
2025-01-02T0600,2614A,100.1542,25.7054,大理白族自治州,大理市环境监测站,,28,19,18,19,14,73,,,,4,6,7,7,0.6,0.6
2025-01-02T0600,2615A,100.2171,25.5811,大理白族自治州,大理古城,,25,19,22,17,15,62,,,,10,14,4,5,0.4,0.5
2025-01-02T0600,1109A,121.612,38.9741,大连市,甘井子,细颗粒物(PM2.5),64,,39,46,23,39,,,,37,31,17,11,0.6,0.4
2025-01-02T0600,1110A,121.565,38.9511,大连市,周水子,细颗粒物(PM2.5),79,,46,58,28,25,,,,48,41,16,11,0.8,0.6
2025-01-02T0600,1111A,121.5637,38.8845,大连市,星海三站,细颗粒物(PM2.5),63,51,39,45,21,33,,,,34,21,22,14,0.8,0.4
2025-01-02T0600,1112A,121.6302,38.9117,大连市,青泥洼桥,细颗粒物(PM2.5),63,62,40,45,23,36,,,,30,28,22,16,0.7,0.5
2025-01-02T0600,1113A,121.6251,38.8638,大连市,傅家庄,细颗粒物(PM2.5),58,52,40,41,20,44,,,,28,27,22,17,0.7,0.6
2025-01-02T0600,1114A,121.5213,38.8661,大连市,七贤岭,细颗粒物(PM2.5),64,66,37,46,16,46,,,,26,16,21,13,1.1,0.7
2025-01-02T0600,1115A,121.2529,38.8061,大连市,旅顺,细颗粒物(PM2.5),57,40,21,40,14,35,,,,37,16,15,11,1.0,0.6
2025-01-02T0600,1116A,121.7485,39.1311,大连市,金州,细颗粒物(PM2.5),59,54,37,42,24,37,,,,32,19,20,16,1.0,0.7
2025-01-02T0600,1117A,121.7811,39.0496,大连市,开发区,细颗粒物(PM2.5),59,43,38,42,27,61,,,,15,25,17,16,0.7,0.7
2025-01-02T0600,1118A,121.9762,39.0631,大连市,双D港,细颗粒物(PM2.5),58,56,35,41,23,62,,,,16,13,16,12,0.9,0.8
2025-01-02T0600,1789A,124.81117,46.03138,大庆市,大同区,细颗粒物(PM2.5),103,88,110,77,98,5,,,,49,37,8,10,0.9,1
2025-01-02T0600,1790A,125.129,46.533,大庆市,龙凤区,细颗粒物(PM2.5),109,105,161,82,121,14,,,,54,56,7,15,1.0,1.3
2025-01-02T0600,1791A,124.902,46.408,大庆市,红岗区,细颗粒物(PM2.5),67,61,82,48,63,4,,,,55,41,6,8,0.8,0.9
2025-01-02T0600,1792A,125.153,46.586,大庆市,萨尔图区,细颗粒物(PM2.5),102,86,119,76,101,16,,,,68,66,6,7,1.0,1
2025-01-02T0600,1793A,124.9042,46.6215,大庆市,让胡路区,细颗粒物(PM2.5),63,49,84,45,74,39,,,,24,44,6,7,0.5,0.9
2025-01-02T0600,3481A,125.141,46.634,大庆市,萨区政府监测点,颗粒物(PM10),72,93,118,51,85,16,,,,49,48,4,5,1.0,1
2025-01-02T0600,1723A,113.2994,40.0758,大同市,云冈宾馆,,33,33,64,10,27,29,,,,26,26,32,23,1.1,1.2
2025-01-02T0600,1724A,113.3444,40.0917,大同市,大同大学,,35,35,56,22,23,30,,,,23,27,65,22,1.1,0.9
2025-01-02T0600,1725A,113.2661,40.1269,大同市,安家小村,颗粒物(PM10),51,51,66,16,28,29,,,,20,21,15,24,0.9,1.1
2025-01-02T0600,1726A,113.2711,40.0844,大同市,教育学院,,47,47,70,19,28,15,,,,39,30,33,23,0.8,1.1
2025-01-02T0600,3282A,113.3397,40.0597,大同市,大同市卫生学校,,27,27,59,14,25,23,,,,34,27,20,17,1.3,0.9
2025-01-02T0600,3565A,113.1367,40.1122,大同市,云冈站,颗粒物(PM10),58,66,67,28,29,7,,,,42,28,24,25,1.0,0.8
2025-01-02T0600,3566A,113.1186,40.2556,大同市,图书馆,,28,23,64,19,35,25,,,,14,20,8,16,0.8,1
2025-01-02T0600,3567A,113.5931,40.0461,大同市,区一中,,32,32,69,9,30,38,,,,14,23,8,18,0.7,0.9
2025-01-02T0600,3676A,113.2802,40.0995,大同市,第二人民医院,,42,42,72,12,29,32,,,,23,28,15,23,0.8,1.1
2025-01-02T0600,2269A,124.1069,50.4097,大兴安岭地区,科技局,,23,,22,16,18,48,,,,4,7,5,6,0.5,0.5
2025-01-02T0600,3663A,124.1164,50.4278,大兴安岭地区,红旗社区,,15,,22,10,32,38,,,,14,25,2,7,0.5,0.7
2025-01-02T0600,1600A,124.3303,40.0625,丹东市,江湾东路,细颗粒物(PM2.5),64,52,48,46,34,12,,,,24,21,22,21,2.6,1.5
2025-01-02T0600,1601A,124.4256,40.1503,丹东市,临江后街,,45,36,45,31,36,23,,,,24,25,14,12,1.1,0.9
2025-01-02T0600,1602A,124.3933,40.1461,丹东市,元宝山,,35,35,33,24,21,20,,,,34,18,12,11,1.3,1
2025-01-02T0600,1603A,124.3633,40.1092,丹东市,民主桥,,45,45,48,28,28,25,,,,28,25,10,12,1.0,1
2025-01-02T0600,3541A,109.5726,19.5167,儋州市,第一中学子站,,30,30,56,19,38,92,,,,7,13,5,7,0.6,0.7
2025-01-02T0600,3542A,109.5567,19.5187,儋州市,东坡学校子站,,32,32,56,17,38,102,,,,6,13,6,7,0.6,0.7
2025-01-02T0600,2616A,98.5842,24.428,德宏傣族景颇族自治州,德宏州监测站,颗粒物(PM10),55,59,61,38,37,12,,,,29,23,6,10,0.6,0.6
2025-01-02T0600,3677A,98.5881,24.4368,德宏傣族景颇族自治州,芒市人民政府综合楼,细颗粒物(PM2.5),54,45,51,38,34,8,,,,22,16,5,6,0.6,0.6
2025-01-02T0600,1901A,104.4239,31.1208,德阳市,东山公园,细颗粒物(PM2.5),149,134,113,114,95,38,,,,44,35,4,4,0.9,0.8
2025-01-02T0600,1902A,104.3826,31.1317,德阳市,西小区,细颗粒物(PM2.5),163,154,133,124,105,2,,,,53,51,4,3,1.0,0.8
2025-01-02T0600,1904A,104.3553,31.1091,德阳市,耐火材料厂,细颗粒物(PM2.5),165,136,124,125,108,2,,,,44,49,7,6,1.3,0.9
2025-01-02T0600,3639A,104.4019,31.1244,德阳市,市教育局,细颗粒物(PM2.5),143,118,113,109,99,2,,,,58,58,4,5,0.8,0.9
2025-01-02T0600,1622A,116.3032,37.4674,德州市,儿童乐园,,46,46,147,27,76,7,,,,53,57,5,15,0.7,1
2025-01-02T0600,1624A,116.2991,37.4451,德州市,监理站,,34,34,131,19,72,24,,,,42,54,12,19,0.6,0.8
2025-01-02T0600,3066A,116.2721,37.4379,德州市,九衢泉纯净水厂,,39,39,143,19,71,19,,,,44,56,11,18,0.6,0.9
2025-01-02T0600,3371A,116.3728,37.4403,德州市,开发区人民医院,,46,46,141,27,73,12,,,,52,53,10,16,0.4,0.8
2025-01-02T0600,3372A,116.3572,37.4094,德州市,太阳城中学,,39,39,137,27,76,31,,,,33,50,9,16,0.6,0.8
2025-01-02T0600,3511A,116.5652,37.3319,德州市,陵城艺术中心,,39,39,152,19,83,25,,,,28,43,6,17,0.7,1.1
2025-01-02T0600,2621A,99.7056,27.8317,迪庆藏族自治州,迪庆州站,,22,,26,15,20,55,,,,6,11,8,8,0.4,0.6
2025-01-02T0600,3180A,99.7136,27.8094,迪庆藏族自治州,质量技术监督局,,16,12,23,9,16,51,,,,8,11,6,7,0.4,0.5
2025-01-02T0600,2663A,104.6241,35.5734,定西市,东关小学,"颗粒物(PM10),细颗粒物(PM2.5)",55,59,71,39,41,19,,,,21,27,10,18,0.9,1.3
2025-01-02T0600,2664A,104.6194,35.5934,定西市,供电公司,颗粒物(PM10),55,60,68,24,30,11,,,,32,35,10,14,1.3,1.4
2025-01-02T0600,1389A,113.7547,23.0494,东莞市,莞城梨川,细颗粒物(PM2.5),68,73,81,49,50,50,,,,36,36,8,9,0.8,0.9
2025-01-02T0600,1390A,113.7944,23.0128,东莞市,东城石井,细颗粒物(PM2.5),70,78,69,51,45,15,,,,52,32,6,8,0.8,0.7
2025-01-02T0600,1391A,113.7383,22.9658,东莞市,南城西平,细颗粒物(PM2.5),83,104,85,61,50,5,,,,82,48,3,6,0.9,0.8
2025-01-02T0600,3319A,113.7338,23.0381,东莞市,万江金泰,细颗粒物(PM2.5),64,72,87,46,54,56,,,,29,34,11,10,0.9,0.9
2025-01-02T0600,3626A,113.7533,23.0202,东莞市,南城元岭,细颗粒物(PM2.5),69,74,76,50,50,53,,,,32,32,9,10,0.8,0.9
2025-01-02T0600,3627A,113.7875,23.0457,东莞市,东城主山,细颗粒物(PM2.5),67,70,79,48,49,32,,,,52,37,11,12,0.7,0.8
2025-01-02T0600,1666A,118.6614,37.4309,东营市,市环保局,,18,17,96,12,49,48,,,,12,37,3,14,0.4,0.8
2025-01-02T0600,3036A,118.6904,37.4338,东营市,开发区管委会,,19,19,103,9,53,52,,,,20,46,2,14,0.4,0.8
2025-01-02T0600,3365A,118.5719,37.565,东营市,垦利区民丰路,,15,9,87,3,40,48,,,,13,38,9,15,0.3,0.6
2025-01-02T0600,3498A,118.5055,37.8612,东营市,河口城区,,20,7,91,3,34,64,,,,17,40,2,12,0.2,0.5
2025-01-02T0600,3646A,118.4978,37.4623,东营市,胜利站,,18,18,104,9,47,46,,,,17,40,5,12,0.5,0.9
2025-01-02T0600,3734A,118.35,37.26,东营市,理想之城,,18,17,94,12,49,43,,,,24,44,3,12,0.6,0.9
2025-01-02T0600,1591A,110.0023,39.8129,鄂尔多斯市,综合楼,,19,14,54,3,14,60,,,,20,21,9,9,0.5,0.6
2025-01-02T0600,1592A,109.9486,39.8261,鄂尔多斯市,巴音孟克林场办事处,,22,22,51,12,17,56,,,,20,23,10,10,0.4,0.4
2025-01-02T0600,1593A,109.7736,39.5986,鄂尔多斯市,康泽苑,,22,22,35,3,14,43,,,,16,11,5,6,0.4,0.5
2025-01-02T0600,1594A,109.8119,39.5989,鄂尔多斯市,华泰汽车城,,22,22,39,9,16,53,,,,14,14,6,7,0.3,0.4
2025-01-02T0600,1595A,109.9734,39.7884,鄂尔多斯市,奥林花园,,19,14,49,3,12,59,,,,19,22,11,8,0.5,0.5
2025-01-02T0600,2437A,114.8989,30.3714,鄂州市,赵家坝,细颗粒物(PM2.5),117,120,119,88,85,11,,,,74,61,9,12,1.0,1.2
2025-01-02T0600,3654A,114.8094,30.4089,鄂州市,精准医疗中心,细颗粒物(PM2.5),130,137,133,99,96,15,,,,69,69,20,19,1.1,1.2
2025-01-02T0600,2454A,109.4978,30.2981,恩施土家族苗族自治州,湖北民院,细颗粒物(PM2.5),130,,104,99,116,15,,,,13,22,7,8,1.0,1.1
2025-01-02T0600,2455A,109.4707,30.2798,恩施土家族苗族自治州,州电力总公司,细颗粒物(PM2.5),150,126,148,115,121,8,,,,24,34,7,8,1.3,1.4
2025-01-02T0600,3549A,109.5061,30.3772,恩施土家族苗族自治州,龙凤新区,细颗粒物(PM2.5),107,89,93,80,83,13,,,,15,20,6,6,0.9,1
2025-01-02T0600,2499A,108.3411,21.6158,防城港市,沙万,细颗粒物(PM2.5),117,113,105,88,78,55,,,,40,37,14,16,1.1,1
2025-01-02T0600,2500A,108.3514,21.7731,防城港市,防城档案局,细颗粒物(PM2.5),119,121,117,90,72,7,,,,63,42,6,8,1.1,0.9
2025-01-02T0600,2501A,108.3506,21.6414,防城港市,大海花园,细颗粒物(PM2.5),125,105,96,95,82,38,,,,40,31,8,14,1.1,1
2025-01-02T0600,1371A,113.1294,23.0067,佛山市,湾梁,细颗粒物(PM2.5),95,117,99,71,53,8,,,,62,43,8,8,1.0,0.8
2025-01-02T0600,1372A,113.1083,23.0478,佛山市,华材职中,细颗粒物(PM2.5),114,127,110,86,70,2,,,,107,73,8,9,1.0,1
2025-01-02T0600,1373A,113.144,23.0453,佛山市,南海气象局,细颗粒物(PM2.5),97,121,89,72,58,2,,,,108,70,8,9,1.1,0.9
2025-01-02T0600,1374A,113.2881,22.8094,佛山市,顺德苏岗,细颗粒物(PM2.5),83,93,81,61,54,2,,,,66,49,8,10,0.9,0.8
2025-01-02T0600,1376A,112.8383,22.8678,佛山市,高明孔堂,细颗粒物(PM2.5),113,104,86,85,65,5,,,,89,38,9,11,1.0,0.9
2025-01-02T0600,1377A,112.8836,23.1588,佛山市,三水监测站,细颗粒物(PM2.5),104,100,103,78,70,41,,,,58,72,15,14,1.3,1.2
2025-01-02T0600,1378A,112.867,23.185,佛山市,三水云东海,细颗粒物(PM2.5),103,99,90,77,64,17,,,,74,64,12,12,1.0,1
2025-01-02T0600,3625A,113.2544,22.7642,佛山市,容桂街道办,细颗粒物(PM2.5),89,88,83,66,53,6,,,,73,46,6,8,0.8,0.8
2025-01-02T0600,1282A,119.2681,26.0504,福州市,师大,颗粒物(PM10),56,61,68,39,41,54,,,,26,28,5,5,0.5,0.5
2025-01-02T0600,1283A,119.2984,26.1028,福州市,五四北路,颗粒物(PM10),51,52,65,35,45,51,,,,25,33,1,2,0.6,0.6
2025-01-02T0600,1284A,119.2648,26.0768,福州市,杨桥西路,颗粒物(PM10),53,56,71,36,45,45,,,,32,30,2,3,0.5,0.6
2025-01-02T0600,1285A,119.317,26.0746,福州市,紫阳,"颗粒物(PM10),细颗粒物(PM2.5)",53,55,76,37,46,53,,,,28,40,4,5,0.5,0.6
2025-01-02T0600,3048A,119.5799,26.0936,福州市,九龙,,48,47,55,33,32,62,,,,14,17,2,4,0.8,0.6
2025-01-02T0600,3526A,119.5189,25.9664,福州市,吴航,颗粒物(PM10),53,55,53,28,28,41,,,,39,22,2,3,0.7,0.5
2025-01-02T0600,1755A,123.7977,41.8491,抚顺市,望花区,细颗粒物(PM2.5),68,,66,49,45,12,,,,42,34,7,9,1.1,0.9
2025-01-02T0600,1756A,123.9161,41.8822,抚顺市,顺城区,细颗粒物(PM2.5),97,118,86,72,49,12,,,,42,41,8,9,1.7,1.1
2025-01-02T0600,1757A,124.0436,41.8611,抚顺市,东洲区,细颗粒物(PM2.5),67,71,68,48,41,17,,,,34,31,8,8,1.1,0.9
2025-01-02T0600,1758A,123.9247,41.8642,抚顺市,新抚区,细颗粒物(PM2.5),113,117,85,85,57,12,,,,29,33,4,6,1.2,0.9
2025-01-02T0600,1759A,124.0972,41.8961,抚顺市,大伙房水库,细颗粒物(PM2.5),58,55,48,41,32,14,,,,31,25,7,9,1.0,0.8
2025-01-02T0600,1760A,123.7086,41.8391,抚顺市,沈抚新城,,46,33,59,32,39,14,,,,41,35,5,6,0.9,0.7
2025-01-02T0600,2376A,116.2127,28.0814,抚州市,桐源党溪,细颗粒物(PM2.5),77,94,89,56,54,21,,,,5,8,3,4,0.4,0.5
2025-01-02T0600,2377A,116.3544,27.9831,抚州市,市站,细颗粒物(PM2.5),94,99,109,70,71,8,,,,46,40,6,25,1.4,1.2
2025-01-02T0600,2378A,116.3565,27.963,抚州市,血防站,细颗粒物(PM2.5),83,95,138,61,69,28,,,,32,42,14,20,1.0,1.2
2025-01-02T0600,2379A,116.3564,28.0007,抚州市,采茶剧团,细颗粒物(PM2.5),92,100,99,68,67,6,,,,33,33,1,16,1.8,1.7
2025-01-02T0600,2380A,116.385,27.9647,抚州市,医学分院,细颗粒物(PM2.5),77,94,112,56,67,22,,,,37,38,14,19,0.9,1
2025-01-02T0600,2207A,121.6094,41.998,阜新市,工业园区,,49,49,59,9,29,42,,,,18,28,10,11,0.4,0.6
2025-01-02T0600,2208A,121.6697,42.0279,阜新市,长青街,,20,20,36,10,23,47,,,,11,18,6,7,0.9,1
2025-01-02T0600,2209A,121.6673,42.0705,阜新市,农业园区,,16,8,18,3,5,51,,,,5,6,10,9,0.6,0.6
2025-01-02T0600,2210A,121.6717,42.0224,阜新市,东苑,,20,20,41,3,23,49,,,,10,18,3,4,0.7,0.9
2025-01-02T0600,2211A,121.6506,42.0498,阜新市,玉龙新城,,19,13,60,13,30,52,,,,11,26,7,8,0.5,0.7
2025-01-02T0600,2301A,115.8277,32.8929,阜阳市,市监测站,细颗粒物(PM2.5),223,207,139,173,104,34,,,,37,46,7,9,0.8,0.7
2025-01-02T0600,2303A,115.8554,32.8605,阜阳市,开发区,细颗粒物(PM2.5),193,242,176,145,94,34,,,,39,55,9,10,0.9,0.9
2025-01-02T0600,2875A,115.784,32.8892,阜阳市,阜阳职业技术学院,细颗粒物(PM2.5),209,213,144,159,104,33,,,,37,48,8,11,0.9,0.8
2025-01-02T0600,3468A,115.7901,32.8613,阜阳市,市规划展馆,细颗粒物(PM2.5),226,211,146,176,100,37,,,,34,37,8,9,1.2,1
2025-01-02T0600,3469A,115.836,32.9183,阜阳市,枣园社区,细颗粒物(PM2.5),240,209,147,190,108,37,,,,34,59,6,7,0.9,0.9
2025-01-02T0600,2669A,102.9099,34.9841,甘南藏族自治州,州政府,细颗粒物(PM2.5),53,49,63,37,35,35,,,,24,22,8,14,1.1,0.9
2025-01-02T0600,3380A,102.8914,34.9617,甘南藏族自治州,甘肃民族师范学院,颗粒物(PM10),58,66,52,25,26,29,,,,35,27,4,9,0.6,0.5
2025-01-02T0600,2570A,101.9603,30.0475,甘孜藏族自治州,水桥子,,22,20,26,15,13,56,,,,13,34,2,3,0.6,0.6
2025-01-02T0600,3065A,101.9533,29.9972,甘孜藏族自治州,州环保局,,26,26,25,8,8,38,,,,21,23,4,4,0.4,0.4
2025-01-02T0600,3414A,115.8347,28.932,赣江新区,桑海产业园,细颗粒物(PM2.5),73,85,108,53,62,4,,,,70,62,12,16,0.6,0.6
2025-01-02T0600,2362A,114.9017,25.9149,赣州市,通天岩,"颗粒物(PM10),细颗粒物(PM2.5)",52,54,73,36,60,50,,,,5,13,3,4,0.6,0.7
2025-01-02T0600,2363A,114.9367,25.8664,赣州市,地委,"颗粒物(PM10),细颗粒物(PM2.5)",60,69,82,43,52,31,,,,28,37,10,14,1.3,1.4
2025-01-02T0600,2364A,114.9461,25.8481,赣州市,气象台,颗粒物(PM10),64,78,95,41,49,26,,,,40,61,11,13,0.8,1
2025-01-02T0600,2365A,114.9322,25.8333,赣州市,市图书馆,细颗粒物(PM2.5),60,68,84,43,51,21,,,,43,59,4,4,1.1,1.3
2025-01-02T0600,2366A,114.8905,25.8471,赣州市,华坚鞋城,颗粒物(PM10),63,76,87,44,53,22,,,,33,35,8,9,0.6,0.7
2025-01-02T0600,3109A,115.0093,25.8613,赣州市,赣县区卫计委,细颗粒物(PM2.5),64,54,89,46,65,18,,,,31,45,4,6,0.4,0.6
2025-01-02T0600,2684A,106.2792,36.0022,固原市,监测站,,26,25,56,18,42,59,,,,15,24,8,9,1.0,0.8
2025-01-02T0600,2685A,106.2375,36.0211,固原市,新区,,44,44,47,14,19,20,,,,45,33,6,7,1.0,0.6
2025-01-02T0600,3522A,106.2177,35.9959,固原市,原州区十五小,,28,28,45,14,21,54,,,,23,18,9,8,0.8,0.5
2025-01-02T0600,2544A,106.6303,30.4576,广安市,市委,细颗粒物(PM2.5),251,229,161,201,144,13,,,,53,50,2,3,1.3,1.3
2025-01-02T0600,2545A,106.6271,30.4663,广安市,友谊中学,细颗粒物(PM2.5),231,198,156,181,137,6,,,,46,45,2,3,1.3,1.2
2025-01-02T0600,2547A,106.6388,30.4551,广安市,广电花园,细颗粒物(PM2.5),254,213,150,204,137,7,,,,48,46,4,4,1.3,1.3
2025-01-02T0600,2902A,106.6351,30.4865,广安市,北辰小学,细颗粒物(PM2.5),225,181,157,175,142,11,,,,37,41,2,3,1.5,1.4
2025-01-02T0600,2523A,105.8945,32.4535,广元市,黑石坡,细颗粒物(PM2.5),55,57,54,39,53,35,,,,30,18,12,11,0.5,0.6
2025-01-02T0600,2524A,105.821,32.4444,广元市,老城,细颗粒物(PM2.5),80,93,87,59,53,2,,,,58,55,10,7,1.6,1.1
2025-01-02T0600,2526A,105.8628,32.4287,广元市,监测站,细颗粒物(PM2.5),70,66,76,51,58,7,,,,48,40,1,5,0.9,1.1
2025-01-02T0600,3617A,105.8047,32.4166,广元市,经开区,细颗粒物(PM2.5),89,91,98,66,71,3,,,,50,50,9,12,1.0,1.2
2025-01-02T0600,1345A,113.2347,23.1423,广州市,广雅中学,细颗粒物(PM2.5),87,112,104,64,61,4,,,,101,75,8,10,1.0,1.1
2025-01-02T0600,1346A,113.2612,23.105,广州市,市五中,细颗粒物(PM2.5),88,94,94,65,70,27,,,,79,60,5,5,0.8,1
2025-01-02T0600,1348A,113.3478,23.0916,广州市,广东商学院,细颗粒物(PM2.5),87,105,100,64,60,38,,,,57,64,5,6,0.8,0.8
2025-01-02T0600,1349A,113.4332,23.1047,广州市,市八十六中,细颗粒物(PM2.5),90,104,110,67,60,3,,,,93,74,6,8,1.0,0.9
2025-01-02T0600,1350A,113.3505,22.9483,广州市,番禺中学,细颗粒物(PM2.5),83,102,84,61,57,7,,,,101,57,6,7,1.0,0.9
2025-01-02T0600,1351A,113.2146,23.3916,广州市,花都师范,细颗粒物(PM2.5),75,88,97,55,59,57,,,,46,64,12,8,0.8,0.8
2025-01-02T0600,1352A,113.2597,23.1331,广州市,市监测站,细颗粒物(PM2.5),80,95,95,59,59,6,,,,100,71,6,7,1.0,1.1
2025-01-02T0600,1353A,113.5618,23.312,广州市,九龙镇镇龙,细颗粒物(PM2.5),70,78,87,51,52,32,,,,45,58,5,6,0.7,0.8
2025-01-02T0600,1354A,113.2765,23.1544,广州市,麓湖,细颗粒物(PM2.5),75,78,76,55,52,9,,,,80,58,3,5,0.8,0.8
2025-01-02T0600,1355A,113.443,23.3035,广州市,帽峰山森林公园,,45,39,47,31,36,92,,,,14,18,7,8,0.6,0.5
2025-01-02T0600,2846A,113.3221,23.1322,广州市,体育西,细颗粒物(PM2.5),68,78,90,49,56,69,,,,33,52,7,7,0.9,1.1
2025-01-02T0600,3298A,113.5717,23.5491,广州市,从化街口,细颗粒物(PM2.5),72,77,80,52,57,8,,,,60,45,6,7,0.8,0.9
2025-01-02T0600,3299A,113.3472,23.3692,广州市,白云竹料,细颗粒物(PM2.5),80,86,90,59,57,37,,,,41,47,7,9,0.8,0.9
2025-01-02T0600,3300A,113.2981,23.237,广州市,白云嘉禾,细颗粒物(PM2.5),68,82,89,49,52,41,,,,60,62,8,9,1.0,1
2025-01-02T0600,3301A,113.4256,23.1716,广州市,黄埔科学城,细颗粒物(PM2.5),74,75,75,54,49,64,,,,29,36,7,7,0.8,0.9
2025-01-02T0600,3302A,113.3942,23.0483,广州市,番禺大学城,细颗粒物(PM2.5),82,106,87,60,53,3,,,,101,68,9,11,1.1,0.9
2025-01-02T0600,3303A,113.4922,22.8168,广州市,南沙黄阁,细颗粒物(PM2.5),92,106,87,68,58,14,,,,72,46,25,9,1.0,0.8
2025-01-02T0600,3304A,113.5342,22.7896,广州市,南沙街,细颗粒物(PM2.5),72,88,79,52,54,4,,,,82,45,8,7,0.8,0.6
2025-01-02T0600,3443A,113.2902,23.5544,广州市,花都梯面,细颗粒物(PM2.5),63,62,56,45,40,44,,,,41,34,14,10,0.9,0.8
2025-01-02T0600,3445A,113.7858,23.7478,广州市,从化良口,,45,40,42,31,33,32,,,,27,19,5,6,0.7,0.7
2025-01-02T0600,3446A,113.8051,23.2614,广州市,增城荔城,细颗粒物(PM2.5),60,61,66,43,46,70,,,,18,20,7,6,0.8,0.9
2025-01-02T0600,2506A,109.6047,23.0666,贵港市,江南子站,细颗粒物(PM2.5),210,212,163,160,109,8,,,,67,50,11,14,1.2,1.3
2025-01-02T0600,2507A,109.6014,23.0948,贵港市,贵城子站,细颗粒物(PM2.5),159,182,128,121,95,11,,,,68,41,13,13,1.6,1.2
2025-01-02T0600,2508A,109.5669,23.1065,贵港市,荷城子站,细颗粒物(PM2.5),100,117,123,75,85,9,,,,76,52,12,16,1.0,1.1
2025-01-02T0600,3405A,109.5886,23.1172,贵港市,新世纪学校,细颗粒物(PM2.5),85,83,114,63,78,44,,,,40,39,12,14,0.9,1.1
2025-01-02T0600,1439A,106.6899,26.5998,贵阳市,马鞍山,细颗粒物(PM2.5),67,68,66,48,44,19,,,,19,26,4,8,0.7,0.7
2025-01-02T0600,1440A,106.6971,26.5694,贵阳市,市环保站,细颗粒物(PM2.5),100,75,75,75,63,45,,,,21,42,15,22,0.7,0.8
2025-01-02T0600,1441A,106.6243,26.6266,贵阳市,鉴湖路,细颗粒物(PM2.5),79,68,58,58,41,29,,,,23,26,7,11,0.7,0.7
2025-01-02T0600,1442A,106.7487,26.6343,贵阳市,燕子冲,细颗粒物(PM2.5),89,70,63,66,53,45,,,,20,30,13,19,0.8,0.9
2025-01-02T0600,1443A,106.6555,26.4365,贵阳市,碧云窝,细颗粒物(PM2.5),73,88,71,53,46,30,,,,30,31,22,25,0.9,0.9
2025-01-02T0600,1444A,106.694,26.5161,贵阳市,中院村,细颗粒物(PM2.5),94,80,83,70,55,37,,,,29,50,26,29,0.7,0.9
2025-01-02T0600,1445A,106.7109,26.6027,贵阳市,红边门,细颗粒物(PM2.5),92,78,77,68,60,42,,,,23,37,17,32,1.1,1.2
2025-01-02T0600,1446A,106.7164,26.5699,贵阳市,新华路,,,70,70,,45,47,,,,18,31,11,16,0.8,0.9
2025-01-02T0600,1447A,106.674,26.5424,贵阳市,太慈桥,细颗粒物(PM2.5),79,73,64,58,47,36,,,,24,35,12,14,0.8,0.8
2025-01-02T0600,1862A,110.4144,25.3167,桂林市,电子科大尧山校区,细颗粒物(PM2.5),53,52,62,37,45,57,,,,12,13,6,15,0.6,0.6
2025-01-02T0600,1863A,110.2819,25.2697,桂林市,监测站,细颗粒物(PM2.5),108,86,96,81,75,25,,,,43,48,10,13,1.6,1.5
2025-01-02T0600,1864A,110.3089,25.2708,桂林市,龙隐路小学,细颗粒物(PM2.5),98,76,75,73,65,29,,,,45,36,12,16,1.0,0.9
2025-01-02T0600,1865A,110.2869,25.2178,桂林市,八中,细颗粒物(PM2.5),123,,96,93,79,14,,,,49,36,10,13,1.1,1
2025-01-02T0600,3403A,110.1764,25.2381,桂林市,创业大厦,细颗粒物(PM2.5),122,114,102,92,76,4,,,,64,52,55,28,0.9,0.8
2025-01-02T0600,3531A,110.296,25.1253,桂林市,旅游学院,细颗粒物(PM2.5),100,119,106,75,81,21,,,,41,41,11,11,1.0,1
2025-01-02T0600,2674A,100.2561,34.4714,果洛藏族自治州,玛沁县大武镇,,32,32,32,9,12,59,,,,3,4,16,9,0.6,0.5
2025-01-02T0600,1129A,126.5422,45.755,哈尔滨市,岭北,细颗粒物(PM2.5),148,132,120,113,106,9,,,,62,44,18,17,0.8,0.5
2025-01-02T0600,1130A,126.561,45.8167,哈尔滨市,松北商大,细颗粒物(PM2.5),129,108,104,98,92,14,,,,54,46,2,3,1.4,1.1
2025-01-02T0600,1131A,126.979,45.5419,哈尔滨市,阿城会宁,细颗粒物(PM2.5),134,105,124,102,118,11,,,,34,38,7,11,1.3,1.4
2025-01-02T0600,1132A,126.599,45.7222,哈尔滨市,南岗学府路,细颗粒物(PM2.5),143,138,125,109,94,6,,,,60,48,7,8,1.3,1
2025-01-02T0600,1133A,126.689,45.7733,哈尔滨市,太平宏伟公园,细颗粒物(PM2.5),183,177,121,138,101,3,,,,54,45,10,11,1.8,1.1
2025-01-02T0600,1134A,126.635,45.7667,哈尔滨市,道外承德广场,细颗粒物(PM2.5),93,116,125,69,85,7,,,,58,44,8,11,0.9,0.9
2025-01-02T0600,1135A,126.685,45.7319,哈尔滨市,香坊红旗大街,细颗粒物(PM2.5),172,141,111,130,102,9,,,,59,48,18,16,1.8,1.2
2025-01-02T0600,1136A,126.6411,45.7258,哈尔滨市,动力和平路,细颗粒物(PM2.5),124,104,107,94,101,2,,,,55,45,13,13,1.1,0.9
2025-01-02T0600,1137A,126.593,45.7478,哈尔滨市,道里建国路,细颗粒物(PM2.5),107,90,104,80,94,5,,,,64,46,4,9,2.2,0.8
2025-01-02T0600,1138A,126.615,45.61,哈尔滨市,平房东轻厂,细颗粒物(PM2.5),97,90,114,72,97,13,,,,40,49,6,13,0.7,1
2025-01-02T0600,1139A,126.595,45.9855,哈尔滨市,呼兰师专,细颗粒物(PM2.5),207,160,167,157,150,6,,,,58,56,8,9,1.8,1.4
2025-01-02T0600,1140A,126.6206,45.6842,哈尔滨市,省农科院,细颗粒物(PM2.5),183,162,151,138,127,11,,,,62,54,5,9,1.8,1.3
2025-01-02T0600,2688A,93.5128,42.8172,哈密市,地区监测站,颗粒物(PM10),94,138,123,53,47,12,,,,47,34,3,5,1.0,0.8
2025-01-02T0600,2689A,93.4961,42.8328,哈密市,哈密师范学校,颗粒物(PM10),100,150,122,59,50,5,,,,55,42,6,9,1.4,0.9
2025-01-02T0600,2671A,100.9048,36.9639,海北藏族自治州,海晏县西海镇,,33,33,28,11,12,58,,,,5,6,13,10,0.5,0.5
2025-01-02T0600,3867A,102.0738,36.5056,海东市,平安区公安北苑,细颗粒物(PM2.5),60,52,54,43,42,25,,,,42,27,14,20,0.8,0.8
2025-01-02T0600,1409A,110.576,19.9507,海口市,东寨港,,49,44,43,34,37,105,,,,6,7,12,12,0.7,0.7
2025-01-02T0600,1410A,110.3232,20.0574,海口市,海南大学,细颗粒物(PM2.5),54,56,55,38,38,124,,,,17,19,5,7,0.6,0.6
2025-01-02T0600,1411A,110.283,20.0053,海口市,秀英海南医院,细颗粒物(PM2.5),55,41,56,39,39,126,,,,12,16,4,5,0.5,0.5
2025-01-02T0600,1412A,110.338,19.9969,海口市,海南师范大学,细颗粒物(PM2.5),52,41,54,36,36,129,,,,12,14,6,7,0.6,0.6
2025-01-02T0600,1413A,110.33,20.0356,海口市,龙华路环保局宿舍,细颗粒物(PM2.5),55,41,54,39,38,128,,,,11,13,6,7,0.6,0.6
2025-01-02T0600,3539A,110.5111,19.9736,海口市,桂林洋子站,细颗粒物(PM2.5),53,54,47,37,34,122,,,,11,11,5,7,0.5,0.5
2025-01-02T0600,2673A,100.6188,36.2866,海南藏族自治州,共和县恰卜恰镇,,36,36,36,3,18,64,,,,10,13,4,9,0.9,0.6
2025-01-02T0600,2676A,97.3731,37.3753,海西蒙古族藏族自治州,德令哈市,,28,27,41,19,15,84,,,,1,8,16,18,0.4,0.6
2025-01-02T0600,1048A,114.5302,36.6116,邯郸市,东污水处理厂,,,98,133,51,73,12,,,,,54,7,9,1.1,1
2025-01-02T0600,1049A,114.4918,36.5713,邯郸市,矿院,细颗粒物(PM2.5),77,87,145,56,74,10,,,,49,54,6,8,1.0,1
2025-01-02T0600,1050A,114.484,36.6133,邯郸市,丛台公园,,,84,142,47,70,11,,,,,56,7,8,1.0,1
2025-01-02T0600,3458A,114.7895,36.5593,邯郸市,香泉濮院小区,颗粒物(PM10),76,102,193,53,93,7,,,,55,60,8,12,0.9,1.1
2025-01-02T0600,3579A,114.50634,36.77178,邯郸市,永年区实验高中,颗粒物(PM10),87,123,158,52,67,6,,,,60,58,9,11,1.2,1.1
2025-01-02T0600,3580A,114.20016,36.44293,邯郸市,峰峰矿区临水派出所,细颗粒物(PM2.5),110,136,153,83,78,14,,,,52,45,21,17,1.6,1.2
2025-01-02T0600,2634A,106.9893,33.1842,汉中市,汉川机床厂子校,细颗粒物(PM2.5),99,,73,74,75,37,,,,18,14,6,7,1.1,1
2025-01-02T0600,2635A,107.0154,33.0706,汉中市,市监测站,细颗粒物(PM2.5),150,124,134,115,123,12,,,,52,59,6,9,2.1,2.1
2025-01-02T0600,2636A,107.0089,33.1138,汉中市,鑫源开发区,细颗粒物(PM2.5),139,106,132,106,130,10,,,,44,49,8,9,1.7,1.7
2025-01-02T0600,2637A,107.007,33.0323,汉中市,南郑大河坎水厂,细颗粒物(PM2.5),128,101,133,97,111,12,,,,40,40,3,4,1.6,1.7
2025-01-02T0600,1223A,120.2072,30.2111,杭州市,滨江,细颗粒物(PM2.5),99,111,120,74,69,3,,,,67,71,6,7,0.7,0.7
2025-01-02T0600,1224A,120.0633,30.2747,杭州市,西溪,细颗粒物(PM2.5),74,83,99,54,61,7,,,,22,43,6,7,0.6,0.7
2025-01-02T0600,1226A,120.3461,30.3153,杭州市,下沙,细颗粒物(PM2.5),105,140,122,79,63,1,,,,73,72,7,8,0.9,0.7
2025-01-02T0600,1227A,120.1269,30.2456,杭州市,卧龙桥,细颗粒物(PM2.5),69,72,88,50,58,3,,,,29,50,5,6,0.9,0.7
2025-01-02T0600,1228A,120.1903,30.2692,杭州市,浙江农大,细颗粒物(PM2.5),120,139,126,91,77,2,,,,72,72,6,8,0.7,0.7
2025-01-02T0600,1230A,120.1197,30.3119,杭州市,和睦小学,细颗粒物(PM2.5),103,127,117,77,69,3,,,,68,66,8,8,0.9,0.8
2025-01-02T0600,1231A,120.3019,30.4183,杭州市,临平镇,细颗粒物(PM2.5),90,115,113,67,56,8,,,,64,54,6,8,0.8,0.8
2025-01-02T0600,1232A,120.2697,30.1819,杭州市,城厢镇,颗粒物(PM10),86,121,130,62,72,5,,,,71,72,5,6,1.0,0.9
2025-01-02T0600,1233A,120.0883,30.1808,杭州市,云栖,颗粒物(PM10),62,74,92,37,45,3,,,,30,52,5,6,0.4,0.5
2025-01-02T0600,3557A,119.9464,30.0494,杭州市,镇二中,细颗粒物(PM2.5),98,88,100,73,70,3,,,,48,55,7,7,0.8,0.8
2025-01-02T0600,3558A,119.7183,30.2367,杭州市,市府大楼,细颗粒物(PM2.5),97,92,117,72,84,18,,,,46,55,6,7,0.8,1
2025-01-02T0600,3656A,120.1556,30.2864,杭州市,消防大队,细颗粒物(PM2.5),117,137,129,88,80,4,,,,66,67,8,9,1.0,0.9
2025-01-02T0600,1270A,117.1959,31.7848,合肥市,明珠广场,细颗粒物(PM2.5),89,107,98,66,56,1,,,,84,59,12,12,1.1,0.8
2025-01-02T0600,1271A,117.3072,31.8764,合肥市,三里街,细颗粒物(PM2.5),100,112,115,75,67,1,,,,81,76,7,9,1.1,1
2025-01-02T0600,1272A,117.2588,31.8707,合肥市,琥珀山庄,细颗粒物(PM2.5),107,114,106,80,66,4,,,,58,62,6,8,0.9,0.9
2025-01-02T0600,1273A,117.1604,31.9052,合肥市,董铺水库,细颗粒物(PM2.5),107,146,122,80,59,4,,,,61,58,6,7,0.7,0.6
2025-01-02T0600,1274A,117.25,31.8571,合肥市,长江中路,细颗粒物(PM2.5),105,110,112,79,68,1,,,,64,59,8,9,1.3,1
2025-01-02T0600,1275A,117.266,31.9436,合肥市,庐阳区,颗粒物(PM10),84,117,137,61,67,17,,,,56,66,9,9,0.8,0.8
2025-01-02T0600,1276A,117.336,31.8586,合肥市,瑶海区,细颗粒物(PM2.5),89,112,120,66,64,4,,,,90,76,8,9,1.2,1.1
2025-01-02T0600,1277A,117.3027,31.7964,合肥市,包河区,细颗粒物(PM2.5),119,124,116,90,65,3,,,,96,79,11,10,1.0,0.7
2025-01-02T0600,1278A,117.2776,31.7385,合肥市,滨湖新区,细颗粒物(PM2.5),89,112,104,66,52,1,,,,86,44,14,11,0.7,0.6
2025-01-02T0600,1279A,117.1318,31.8403,合肥市,高新区,细颗粒物(PM2.5),109,119,99,82,57,2,,,,102,70,4,4,1.5,1.1
2025-01-02T0600,3464A,117.3803,31.9147,合肥市,高教基地,细颗粒物(PM2.5),83,87,117,61,71,5,,,,61,60,7,11,0.7,0.8
2025-01-02T0600,3614A,79.924,37.0877,和田地区,地区环保局,颗粒物(PM10),78,106,142,34,73,42,,,,19,37,18,24,0.6,1.2
2025-01-02T0600,3615A,79.9131,37.113,和田地区,市环保局,细颗粒物(PM2.5),75,86,112,55,54,32,,,,36,44,15,18,1.4,2.2
2025-01-02T0600,2516A,108.2011,24.715,河池市,东仁乐园,细颗粒物(PM2.5),94,90,104,70,73,16,,,,41,41,12,14,1.2,1.2
2025-01-02T0600,2517A,108.0497,24.6947,河池市,市环保站,细颗粒物(PM2.5),87,73,80,64,63,20,,,,31,31,7,10,0.9,0.9
2025-01-02T0600,2518A,108.0983,24.6989,河池市,市疾控中心,细颗粒物(PM2.5),90,77,91,67,71,19,,,,32,39,6,8,1.1,1.1
2025-01-02T0600,1696A,114.6778,23.7569,河源市,源西,细颗粒物(PM2.5),62,49,59,44,43,46,,,,30,35,7,8,0.5,0.6
2025-01-02T0600,1697A,114.6944,23.7586,河源市,东埔,细颗粒物(PM2.5),68,57,70,49,50,58,,,,28,40,7,7,0.7,0.9
2025-01-02T0600,1698A,114.6892,23.7233,河源市,老城,细颗粒物(PM2.5),57,47,59,40,45,24,,,,30,29,4,6,0.6,0.6
2025-01-02T0600,1718A,115.4208,35.2464,菏泽市,气象局,细颗粒物(PM2.5),144,192,226,110,138,4,,,,73,53,9,10,1.1,1
2025-01-02T0600,1719A,115.4747,35.2375,菏泽市,市政协,细颗粒物(PM2.5),148,196,225,113,138,6,,,,70,53,13,12,1.2,1
2025-01-02T0600,3374A,115.5564,35.0891,菏泽市,定陶老年大学,细颗粒物(PM2.5),160,200,204,122,135,7,,,,77,52,16,14,1.3,1
2025-01-02T0600,3647A,115.4702,35.2706,菏泽市,菏泽医专,细颗粒物(PM2.5),127,191,217,96,126,4,,,,77,55,16,18,1.7,1.5
2025-01-02T0600,2514A,111.5264,24.4172,贺州市,环保小区,细颗粒物(PM2.5),124,101,103,94,79,14,,,,31,33,6,8,1.2,1.2
2025-01-02T0600,2515A,111.5608,24.4078,贺州市,政协大楼,细颗粒物(PM2.5),83,89,101,61,66,2,,,,54,49,6,8,0.8,1
2025-01-02T0600,3534A,111.4744,24.4553,贺州市,西湾,细颗粒物(PM2.5),125,114,101,95,74,14,,,,41,36,4,7,1.4,1
2025-01-02T0600,2385A,114.17,35.9019,鹤壁市,市监测站,细颗粒物(PM2.5),114,147,170,86,91,13,,,,58,50,22,17,1.5,1.3
2025-01-02T0600,2386A,114.2956,35.7511,鹤壁市,市交警支队,颗粒物(PM10),102,154,185,74,99,9,,,,62,55,13,11,1.9,1.4
2025-01-02T0600,2387A,114.2878,35.7306,鹤壁市,迎宾馆,细颗粒物(PM2.5),115,160,196,87,79,6,,,,60,51,16,14,1.7,1.4
2025-01-02T0600,3474A,114.2617,35.6822,鹤壁市,大新区,细颗粒物(PM2.5),105,154,177,79,92,8,,,,72,59,20,17,1.6,1.3
2025-01-02T0600,3596A,114.1572,35.9603,鹤壁市,南山宾馆,细颗粒物(PM2.5),132,164,186,100,100,11,,,,55,47,20,12,1.7,1.5
2025-01-02T0600,2244A,130.2537,47.3416,鹤岗市,哈啤分公司,,32,,38,22,31,50,,,,5,14,13,15,0.3,0.8
2025-01-02T0600,2245A,130.2684,47.3086,鹤岗市,斯达机电,,38,34,52,26,42,49,,,,7,20,12,15,0.7,0.8
2025-01-02T0600,2246A,130.3114,47.3388,鹤岗市,东山纸板厂,细颗粒物(PM2.5),109,,54,82,56,18,,,,36,36,12,16,2.9,1.3
2025-01-02T0600,2247A,130.1097,47.3382,鹤岗市,五号水库,,39,35,30,27,20,58,,,,9,10,6,7,0.4,0.3
2025-01-02T0600,2263A,127.4833,50.2524,黑河市,交通局,细颗粒物(PM2.5),69,84,60,50,38,8,,,,36,26,9,10,1.2,0.8
2025-01-02T0600,2264A,127.5144,50.2341,黑河市,环保局,,45,41,48,31,36,7,,,,40,32,7,10,0.9,0.8
2025-01-02T0600,2265A,127.5291,50.2472,黑河市,大黑河岛,,,54,59,40,50,7,,,,23,21,1,2,,
2025-01-02T0600,1074A,115.6838,37.7541,衡水市,电机北厂,颗粒物(PM10),61,71,169,36,85,8,,,,46,57,7,17,0.5,0.9
2025-01-02T0600,1075A,115.6303,37.7316,衡水市,市监测站,,48,44,141,33,82,7,,,,53,64,6,15,0.5,0.9
2025-01-02T0600,3188A,115.6683,37.7217,衡水市,市城管局,颗粒物(PM10),54,58,147,28,80,23,,,,34,54,8,14,0.5,0.9
2025-01-02T0600,3459A,115.5989,37.5491,衡水市,地表水厂,,42,40,138,29,87,16,,,,31,59,4,11,0.5,0.9
2025-01-02T0600,2456A,112.5003,26.9167,衡阳市,原169医院,细颗粒物(PM2.5),129,106,108,98,95,23,,,,32,44,8,13,0.8,1
2025-01-02T0600,2457A,112.6194,26.9258,衡阳市,衡阳化工总厂,细颗粒物(PM2.5),133,108,138,101,109,37,,,,39,56,11,14,0.9,1.3
2025-01-02T0600,2458A,112.6211,26.8956,衡阳市,珠晖区环保局,细颗粒物(PM2.5),133,109,135,101,115,13,,,,74,65,12,13,1.2,1.5
2025-01-02T0600,2459A,112.6197,26.8733,衡阳市,市委党校,细颗粒物(PM2.5),162,141,145,123,116,3,,,,70,51,9,12,1.9,1.4
2025-01-02T0600,2460A,112.6006,26.8919,衡阳市,市监测站,细颗粒物(PM2.5),165,145,160,125,129,12,,,,57,61,10,11,1.5,1.8
2025-01-02T0600,2461A,112.5664,26.9056,衡阳市,真空机电公司,细颗粒物(PM2.5),148,147,153,113,109,3,,,,62,70,5,9,1.5,1.8
2025-01-02T0600,3399A,112.6703,26.882,衡阳市,师范学院,细颗粒物(PM2.5),172,161,146,130,120,1,,,,67,42,9,11,1.4,1.3
2025-01-02T0600,2608A,103.3772,23.3993,红河哈尼族彝族自治州,污水处理厂,,36,,52,25,35,43,,,,7,10,11,10,0.3,0.4
2025-01-02T0600,2609A,103.3861,23.35,红河哈尼族彝族自治州,监测站,,46,,38,32,34,53,,,,4,11,7,9,0.6,0.7
2025-01-02T0600,3038A,103.3758,23.368,红河哈尼族彝族自治州,州图书馆,,39,,40,27,35,41,,,,5,11,7,11,0.5,0.6
2025-01-02T0600,1090A,111.6507,40.7517,呼和浩特市,呼市一监,,26,22,62,18,43,36,,,,19,18,7,11,0.4,0.5
2025-01-02T0600,1091A,111.6572,40.8033,呼和浩特市,小召,,24,6,43,3,28,74,,,,10,25,6,8,0.3,0.6
2025-01-02T0600,1094A,111.7516,40.8369,呼和浩特市,如意水处理厂,,16,13,44,3,22,50,,,,12,16,7,8,0.2,0.4
2025-01-02T0600,1095A,111.7276,40.8062,呼和浩特市,二十九中,,19,12,45,3,26,59,,,,13,23,7,8,0.2,0.3
2025-01-02T0600,1096A,111.5512,40.7866,呼和浩特市,工大金川校区,,15,13,64,6,38,37,,,,30,29,6,9,0.3,0.5
2025-01-02T0600,1097A,111.717,40.7612,呼和浩特市,化肥厂生活区,,16,14,50,7,26,51,,,,18,24,5,7,0.3,0.5
2025-01-02T0600,3698A,111.5968,40.8178,呼和浩特市,红旗小学,,15,7,53,3,33,47,,,,23,25,3,6,0.2,0.5
2025-01-02T0600,3699A,111.6518,40.8389,呼和浩特市,海东办,,19,,50,3,39,60,,,,20,26,10,9,0.4,0.6
2025-01-02T0600,2192A,119.7594,49.2261,呼伦贝尔市,区环保局,,33,,38,23,31,29,,,,28,31,7,8,0.5,0.6
2025-01-02T0600,3061A,119.7512,49.1577,呼伦贝尔市,国华电力东,,27,27,31,17,23,52,,,,4,8,4,5,0.3,0.3
2025-01-02T0600,1250A,120.0751,30.8669,湖州市,城西水厂,细颗粒物(PM2.5),83,101,113,61,60,8,,,,78,65,8,9,0.5,0.6
2025-01-02T0600,2873A,120.0875,30.8955,湖州市,仁皇山新区,细颗粒物(PM2.5),95,111,101,71,56,6,,,,92,70,7,8,0.7,0.6
2025-01-02T0600,2907A,120.1844,30.8596,湖州市,吴兴区站,,,93,99,,55,3,,,,69,59,7,8,0.5,0.6
2025-01-02T0600,3562A,120.4148,30.8538,湖州市,南浔区站,细颗粒物(PM2.5),69,80,81,50,45,4,,,,63,49,7,8,0.5,0.5
2025-01-02T0600,1607A,120.9092,40.7136,葫芦岛市,龙港区,,,93,42,40,28,61,,,,23,29,,45,1.5,0.8
2025-01-02T0600,1608A,120.8392,40.7514,葫芦岛市,化工街,,28,19,53,12,29,10,,,,56,40,14,43,0.6,0.8
2025-01-02T0600,1609A,120.8341,40.7073,葫芦岛市,新区,,20,20,36,10,22,42,,,,23,35,34,28,1.0,0.9
2025-01-02T0600,1610A,120.8695,40.7677,葫芦岛市,东城区,,23,23,57,14,51,19,,,,45,38,30,36,0.4,0.7
2025-01-02T0600,2482A,109.5981,27.5721,怀化市,林科所,细颗粒物(PM2.5),105,,84,79,72,42,,,,28,44,64,25,0.8,1.3
2025-01-02T0600,2483A,109.9453,27.5444,怀化市,河西地税局,细颗粒物(PM2.5),129,102,106,98,95,2,,,,36,36,7,11,1.1,1.2
2025-01-02T0600,2484A,109.9781,27.5342,怀化市,市四医院,细颗粒物(PM2.5),152,146,151,116,103,5,,,,34,43,20,8,1.6,1.6
2025-01-02T0600,2485A,109.9972,27.5578,怀化市,监测楼,细颗粒物(PM2.5),137,124,145,104,105,10,,,,38,45,5,3,1.0,1.1
2025-01-02T0600,2486A,110.0394,27.583,怀化市,市委党校,细颗粒物(PM2.5),89,111,135,66,81,11,,,,32,42,20,13,1.2,1.2
2025-01-02T0600,1210A,119.036,33.5981,淮安市,钵池山,细颗粒物(PM2.5),78,70,99,57,60,40,,,,36,47,5,9,0.6,0.8
2025-01-02T0600,1211A,119.007,33.575,淮安市,北京南路,细颗粒物(PM2.5),83,85,109,61,64,0,,,,64,65,6,10,0.5,0.6
2025-01-02T0600,1212A,118.989,33.6067,淮安市,市监测站,细颗粒物(PM2.5),85,78,102,63,71,11,,,,52,55,5,9,0.8,0.8
2025-01-02T0600,1213A,119.135,33.5039,淮安市,楚州区监测站,细颗粒物(PM2.5),64,73,113,46,67,46,,,,27,57,6,10,0.8,1
2025-01-02T0600,1214A,119.0186,33.6297,淮安市,淮阴区监测站,细颗粒物(PM2.5),87,90,121,64,73,9,,,,66,65,6,10,0.7,0.8
2025-01-02T0600,3426A,118.8755,33.2894,淮安市,新华书店,细颗粒物(PM2.5),92,94,120,68,69,29,,,,40,57,8,11,0.8,0.8
2025-01-02T0600,2282A,116.8004,33.975,淮北市,监测站,细颗粒物(PM2.5),169,141,132,128,83,5,,,,64,44,7,10,1.1,0.9
2025-01-02T0600,2283A,116.8091,33.9007,淮北市,烈山区政府,细颗粒物(PM2.5),183,214,145,138,86,4,,,,79,52,6,12,1.4,1
2025-01-02T0600,3330A,116.8873,33.9836,淮北市,杜集区检察院,细颗粒物(PM2.5),214,211,140,164,90,1,,,,66,38,3,7,0.9,0.4
2025-01-02T0600,4017A,116.7923,33.9535,淮北市,市博物馆,细颗粒物(PM2.5),220,212,151,170,102,4,,,,75,58,7,11,1.1,1
2025-01-02T0600,2277A,116.8305,32.7727,淮南市,潘集区政府,细颗粒物(PM2.5),165,187,148,125,97,4,,,,76,52,12,15,1.1,1
2025-01-02T0600,2278A,117.0067,32.6524,淮南市,师范学院,细颗粒物(PM2.5),118,134,135,89,80,1,,,,67,47,6,10,1.0,1
2025-01-02T0600,2279A,116.8569,32.5951,淮南市,谢家集区政府,细颗粒物(PM2.5),88,112,118,65,70,44,,,,45,32,13,12,0.8,0.8
2025-01-02T0600,2280A,116.8281,32.633,淮南市,八公山区政府,细颗粒物(PM2.5),74,94,115,54,65,64,,,,26,37,8,10,1.0,0.9
2025-01-02T0600,2281A,116.6325,32.6201,淮南市,焦岗湖风景区管理处,细颗粒物(PM2.5),83,106,103,61,62,5,,,,47,33,4,3,0.8,0.6
2025-01-02T0600,2894A,117.0566,32.6531,淮南市,经济技术开发区消防队,细颗粒物(PM2.5),119,142,127,90,76,25,,,,46,46,11,11,1.2,0.8
2025-01-02T0600,3329A,117.0108,32.5893,淮南市,山南新区,细颗粒物(PM2.5),110,146,127,83,70,46,,,,40,34,13,13,0.8,0.8
2025-01-02T0600,2446A,114.9028,30.4742,黄冈市,职工中心,细颗粒物(PM2.5),129,,111,98,81,40,,,,42,48,8,11,0.8,0.8
2025-01-02T0600,2929A,114.8858,30.4519,黄冈市,红卫路,细颗粒物(PM2.5),95,90,117,71,83,39,,,,36,51,8,11,0.9,1.2
2025-01-02T0600,3398A,114.9136,30.4445,黄冈市,市林业局,细颗粒物(PM2.5),107,88,112,80,82,48,,,,26,43,10,14,0.8,0.9
2025-01-02T0600,2672A,102.0199,35.5102,黄南藏族自治州,同仁县隆务镇,,44,44,44,27,23,59,,,,2,5,9,10,0.6,0.6
2025-01-02T0600,2295A,118.2903,29.6963,黄山市,延安路89号,,50,38,58,35,41,7,,,,26,23,4,5,0.3,0.4
2025-01-02T0600,2296A,118.327,29.7178,黄山市,黄山东路89号,细颗粒物(PM2.5),83,68,95,61,65,8,,,,18,25,5,6,0.5,0.6
2025-01-02T0600,2297A,118.1371,30.2756,黄山市,黄山区政府5号楼,细颗粒物(PM2.5),69,59,79,50,54,15,,,,11,14,7,8,0.5,0.5
2025-01-02T0600,2423A,115.0601,30.2313,黄石市,沈家营,细颗粒物(PM2.5),107,119,133,80,85,6,,,,84,70,15,18,0.8,1.1
2025-01-02T0600,2426A,114.8988,30.2019,黄石市,铁山,细颗粒物(PM2.5),93,99,106,69,83,14,,,,36,33,6,17,1.7,1.7
2025-01-02T0600,2427A,115.0307,30.2092,黄石市,团城山,细颗粒物(PM2.5),120,144,125,91,86,5,,,,88,62,8,13,1.0,1.1
2025-01-02T0600,3149A,115.0235,30.1578,黄石市,笔架山北路,细颗粒物(PM2.5),122,116,109,92,86,27,,,,42,40,13,17,1.2,1.1
2025-01-02T0600,1392A,114.4183,23.0528,惠州市,河南岸金山湖子站,细颗粒物(PM2.5),57,53,71,40,51,69,,,,23,19,10,9,0.6,0.8
2025-01-02T0600,1393A,114.4053,23.0822,惠州市,下埔横江三路子站,细颗粒物(PM2.5),53,52,75,37,51,75,,,,23,22,9,9,0.7,0.8
2025-01-02T0600,1394A,114.4103,23.1142,惠州市,江北云山西路子站,颗粒物(PM10),51,52,75,35,49,71,,,,27,24,10,11,0.7,0.8
2025-01-02T0600,1395A,114.4645,22.7833,惠州市,惠阳区承修路船湖子站,颗粒物(PM10),62,73,78,42,44,61,,,,18,22,9,10,0.6,0.6
2025-01-02T0600,1396A,114.5317,22.7422,惠州市,大亚湾管委会子站,细颗粒物(PM2.5),65,66,68,47,43,60,,,,24,28,11,11,0.7,0.6
2025-01-02T0600,3314A,114.4338,22.8134,惠州市,惠阳秋长,颗粒物(PM10),64,78,69,45,44,59,,,,24,23,12,14,0.8,0.8
2025-01-02T0600,3452A,114.6517,22.775,惠州市,大亚湾霞涌,细颗粒物(PM2.5),70,60,57,51,45,68,,,,15,17,9,8,0.6,0.6
2025-01-02T0600,2240A,130.9762,45.3001,鸡西市,环保局,,40,37,44,28,32,48,,,,11,12,6,8,0.3,0.5
2025-01-02T0600,2243A,130.9429,45.3039,鸡西市,第一中学,,48,43,45,33,31,45,,,,14,11,6,8,0.3,0.3
2025-01-02T0600,3707A,131.0207,45.3073,鸡西市,欧美日汽修厂,细颗粒物(PM2.5),77,58,62,56,49,20,,,,29,19,72,25,1.6,0.8
2025-01-02T0600,3709A,130.9967,45.3106,鸡西市,市政设施管理处,细颗粒物(PM2.5),52,47,61,36,40,19,,,,40,25,7,7,0.8,0.8
2025-01-02T0600,2367A,114.9754,27.0803,吉安市,红声器材厂,细颗粒物(PM2.5),78,104,110,57,70,15,,,,40,54,11,15,0.6,0.8
2025-01-02T0600,2368A,114.9658,27.0999,吉安市,市森林工业局,细颗粒物(PM2.5),80,83,94,59,62,18,,,,54,49,12,16,0.9,0.7
2025-01-02T0600,2369A,114.99,27.1312,吉安市,市环境监测站,细颗粒物(PM2.5),73,75,90,53,66,17,,,,58,54,13,15,0.7,0.7
2025-01-02T0600,2370A,115.0093,27.0968,吉安市,青原区法院,细颗粒物(PM2.5),75,77,103,55,67,7,,,,58,56,11,16,0.8,0.8
2025-01-02T0600,1772A,126.54,43.8622,吉林市,哈达湾,,30,30,31,16,19,46,,,,14,16,9,9,0.5,0.5
2025-01-02T0600,1773A,126.5844,43.8358,吉林市,东局子,,31,31,35,20,20,43,,,,16,17,6,6,0.6,0.6
2025-01-02T0600,1774A,126.5052,43.8245,吉林市,电力学院,,29,25,47,20,29,34,,,,22,21,8,9,0.7,0.8
2025-01-02T0600,1775A,126.6133,43.8972,吉林市,江北,,28,28,36,16,19,40,,,,19,18,10,10,0.6,0.7
2025-01-02T0600,1776A,126.555,43.8306,吉林市,江南公园,,25,25,37,16,23,44,,,,15,19,10,10,0.6,0.6
2025-01-02T0600,2868A,126.4739,43.953,吉林市,九站,,23,23,36,15,25,44,,,,15,22,8,10,0.5,0.6
2025-01-02T0600,1299A,116.9862,36.6114,济南市,科干所,细颗粒物(PM2.5),77,95,154,56,86,14,,,,52,60,7,15,0.9,1
2025-01-02T0600,1300A,116.9376,36.665,济南市,农科所,颗粒物(PM10),59,68,168,27,78,18,,,,50,76,14,17,0.8,1
2025-01-02T0600,1301A,117.1265,36.6734,济南市,开发区,细颗粒物(PM2.5),80,90,154,59,85,8,,,,58,67,6,14,0.9,1
2025-01-02T0600,1303A,117.0624,36.6868,济南市,省种子仓库,"颗粒物(PM10),细颗粒物(PM2.5)",67,83,186,48,97,13,,,,39,67,10,17,0.8,1.2
2025-01-02T0600,1304A,116.9489,36.6447,济南市,机床二厂,颗粒物(PM10),61,71,164,39,87,18,,,,34,58,13,20,1.0,1.3
2025-01-02T0600,1305A,117.0495,36.663,济南市,市监测站,细颗粒物(PM2.5),68,83,169,49,89,16,,,,45,75,6,14,0.8,1.1
2025-01-02T0600,1306A,116.7675,36.5484,济南市,长清党校,颗粒物(PM10),63,76,168,32,90,9,,,,55,60,9,17,1.0,1.2
2025-01-02T0600,1616A,117.6795,36.229,济南市,技术学院,细颗粒物(PM2.5),144,175,180,110,114,20,,,,61,74,17,19,1.4,1.5
2025-01-02T0600,1961A,117.532,36.6868,济南市,东山小学,细颗粒物(PM2.5),138,176,181,105,108,9,,,,65,67,8,13,1.3,1.2
2025-01-02T0600,3059A,117.7161,36.2049,济南市,泰兴公司,细颗粒物(PM2.5),153,193,210,117,145,8,,,,73,71,14,20,1.3,1.3
2025-01-02T0600,3064A,117.6867,36.2171,济南市,莱芜战役纪念馆,细颗粒物(PM2.5),138,180,192,105,114,22,,,,62,79,16,18,1.1,1.4
2025-01-02T0600,3494A,117.1673,36.9782,济南市,济阳区政府,,44,44,135,24,66,20,,,,47,72,6,13,0.6,1
2025-01-02T0600,3495A,117.1171,36.63,济南市,锦屏中学,细颗粒物(PM2.5),85,100,143,63,89,17,,,,52,62,6,9,0.7,0.9
2025-01-02T0600,3682A,116.9814,36.6819,济南市,济南四建,颗粒物(PM10),52,53,161,27,93,15,,,,42,80,12,19,0.9,1.3
2025-01-02T0600,1653A,116.6251,35.4302,济宁市,火炬城,细颗粒物(PM2.5),192,192,161,144,111,8,,,,73,56,14,17,1.4,1.2
2025-01-02T0600,1655A,116.5491,35.4042,济宁市,电化厂,细颗粒物(PM2.5),180,246,199,136,113,4,,,,77,65,12,17,1.4,1.2
2025-01-02T0600,3500A,116.5814,35.3707,济宁市,北湖一中,细颗粒物(PM2.5),208,204,167,158,124,6,,,,77,62,10,14,1.0,0.8
2025-01-02T0600,3501A,116.8249,35.5593,济宁市,服务中心,细颗粒物(PM2.5),185,238,204,139,116,6,,,,80,72,19,20,1.5,1.2
2025-01-02T0600,3678A,116.5907,35.4054,济宁市,市第七中学,细颗粒物(PM2.5),206,209,168,156,114,9,,,,70,59,10,12,1.6,1.4
2025-01-02T0600,2255A,130.2751,46.8028,佳木斯市,佳纺,细颗粒物(PM2.5),77,66,81,56,77,34,,,,26,33,3,6,0.8,0.9
2025-01-02T0600,2256A,130.3995,46.8307,佳木斯市,发电厂,细颗粒物(PM2.5),92,,73,68,74,26,,,,32,34,6,7,0.8,1.1
2025-01-02T0600,2257A,130.3258,46.7975,佳木斯市,环保局,细颗粒物(PM2.5),62,58,78,44,67,38,,,,22,39,8,11,0.7,0.9
2025-01-02T0600,2258A,130.3648,46.8032,佳木斯市,十一中,细颗粒物(PM2.5),67,50,68,48,66,33,,,,30,40,9,10,0.6,0.8
2025-01-02T0600,2259A,130.3794,46.7588,佳木斯市,四丰,颗粒物(PM10),53,55,70,34,50,47,,,,10,16,1,1,0.8,0.9
2025-01-02T0600,1252A,120.7436,30.778,嘉兴市,清河小学,,49,49,68,31,34,0,,,,63,44,9,9,0.3,0.3
2025-01-02T0600,1253A,120.726,30.7478,嘉兴市,嘉兴学院,颗粒物(PM10),60,70,85,30,36,2,,,,63,46,6,7,0.5,0.5
2025-01-02T0600,2872A,120.7846,30.7525,嘉兴市,南湖区残联,颗粒物(PM10),60,70,86,37,38,6,,,,68,45,8,9,0.5,0.5
2025-01-02T0600,3407A,120.6916,30.7739,嘉兴市,秀洲住建,颗粒物(PM10),53,56,72,31,36,2,,,,56,42,5,7,0.5,0.5
2025-01-02T0600,1945A,98.2908,39.7711,嘉峪关市,气象局,,39,39,83,19,34,39,,,,32,38,6,45,0.5,0.7
2025-01-02T0600,2884A,98.2672,39.7978,嘉峪关市,酒钢宾馆,颗粒物(PM10),53,56,82,17,32,43,,,,23,31,10,33,0.5,0.7
2025-01-02T0600,3248A,98.2643,39.7724,嘉峪关市,雄关区,,37,37,60,14,25,42,,,,32,38,8,16,0.3,0.5
2025-01-02T0600,1383A,113.1064,22.6058,江门市,北街,细颗粒物(PM2.5),85,85,79,63,64,5,,,,93,52,4,6,1.0,0.9
2025-01-02T0600,1384A,113.0731,22.5835,江门市,西区,细颗粒物(PM2.5),102,84,94,76,61,9,,,,74,40,8,10,0.9,0.8
2025-01-02T0600,1385A,113.0219,22.5311,江门市,圭峰西,细颗粒物(PM2.5),94,77,76,70,60,41,,,,40,39,6,7,0.7,0.7
2025-01-02T0600,1386A,113.0828,22.5947,江门市,东湖,细颗粒物(PM2.5),78,88,92,57,61,11,,,,65,39,6,8,0.8,0.7
2025-01-02T0600,3311A,113.1075,22.5647,江门市,江海富民,细颗粒物(PM2.5),84,112,97,62,57,15,,,,74,47,7,10,0.7,0.7
2025-01-02T0600,3449A,113.05,22.4667,江门市,新会银湖,细颗粒物(PM2.5),85,,74,63,66,34,,,,25,41,5,8,0.6,0.8
2025-01-02T0600,1828A,113.227,35.2125,焦作市,市环保局,细颗粒物(PM2.5),159,208,188,121,113,5,,,,64,62,17,16,1.6,1.5
2025-01-02T0600,3169A,113.2725,35.2067,焦作市,太极体育中心,细颗粒物(PM2.5),163,187,193,124,111,2,,,,69,70,13,18,1.6,1.4
2025-01-02T0600,3335A,113.3137,35.2641,焦作市,马村街道办,细颗粒物(PM2.5),152,189,178,116,119,8,,,,48,58,11,21,2.2,1.7
2025-01-02T0600,3336A,113.2465,35.2373,焦作市,焦作技师学院,细颗粒物(PM2.5),132,175,187,100,107,24,,,,40,68,12,20,1.6,1.7
2025-01-02T0600,3477A,113.1656,35.2539,焦作市,中站许衡医院,细颗粒物(PM2.5),147,170,154,112,90,29,,,,45,44,24,20,1.4,1.2
2025-01-02T0600,3981A,113.2449,35.1803,焦作市,原李万街道办,细颗粒物(PM2.5),156,181,188,119,109,8,,,,61,58,22,19,1.6,1.5
2025-01-02T0600,1708A,116.3701,23.5345,揭阳市,新兴,细颗粒物(PM2.5),83,102,76,61,48,42,,,,40,32,11,11,0.8,0.8
2025-01-02T0600,1709A,116.3264,23.5443,揭阳市,西马,细颗粒物(PM2.5),114,99,82,86,50,29,,,,48,28,15,13,0.8,0.8
2025-01-02T0600,1710A,116.3611,23.5626,揭阳市,东兴,"颗粒物(PM10),细颗粒物(PM2.5)",77,104,88,56,43,46,,,,36,32,24,14,0.9,0.8
2025-01-02T0600,1711A,116.4151,23.5294,揭阳市,渔湖,颗粒物(PM10),74,97,75,38,40,32,,,,58,34,12,13,0.7,0.6
2025-01-02T0600,3320A,116.403,23.5699,揭阳市,曲溪,细颗粒物(PM2.5),73,87,87,53,47,28,,,,44,36,10,10,0.8,0.8
2025-01-02T0600,1944A,102.1692,38.5167,金昌市,天庆家园,颗粒物(PM10),53,55,66,33,40,37,,,,18,23,23,33,0.6,1
2025-01-02T0600,3170A,102.1864,38.5253,金昌市,市委党校,颗粒物(PM10),60,69,88,27,38,54,,,,17,25,26,28,0.8,0.8
2025-01-02T0600,4022A,102.1647,38.5371,金昌市,金川区人防中心,颗粒物(PM10),57,63,72,34,37,47,,,,14,17,27,22,0.7,0.7
2025-01-02T0600,1262A,119.647,29.077,金华市,十五中,细颗粒物(PM2.5),89,105,130,66,81,20,,,,49,61,3,5,0.6,0.8
2025-01-02T0600,1263A,119.686,29.1029,金华市,监测站,细颗粒物(PM2.5),92,108,131,68,79,1,,,,66,72,4,6,0.7,0.7
2025-01-02T0600,3659A,119.656,29.1131,金华市,气象局,细颗粒物(PM2.5),94,121,140,70,82,0,,,,72,74,6,6,0.8,1
2025-01-02T0600,1767A,121.1115,41.0879,锦州市,南山,,18,13,38,7,34,56,,,,16,32,34,13,0.4,0.7
2025-01-02T0600,1768A,121.0533,40.8434,锦州市,开发区,,23,17,56,16,29,39,,,,32,51,25,27,1.1,0.8
2025-01-02T0600,1769A,121.1836,41.1119,锦州市,百股街道,,17,14,36,7,26,42,,,,34,32,9,13,0.3,0.4
2025-01-02T0600,1770A,121.1178,41.1222,锦州市,天安街道,,21,,42,10,26,65,,,,8,29,32,16,0.4,0.7
2025-01-02T0600,1771A,121.1303,41.1386,锦州市,北湖公园,,18,12,37,8,24,56,,,,9,23,16,13,0.3,0.6
2025-01-02T0600,2160A,112.85,35.5051,晋城市,自来水公司,细颗粒物(PM2.5),134,138,131,102,82,11,,,,61,51,25,21,2.5,2.1
2025-01-02T0600,2161A,112.8318,35.4936,晋城市,白云商贸,细颗粒物(PM2.5),119,152,135,90,82,16,,,,64,54,21,18,2.3,1.9
2025-01-02T0600,2162A,112.8508,35.4887,晋城市,市环保局,细颗粒物(PM2.5),128,148,140,97,81,13,,,,57,53,25,20,2.0,1.8
2025-01-02T0600,2163A,112.8676,35.4897,晋城市,技术学院,细颗粒物(PM2.5),144,169,132,110,83,14,,,,56,53,29,20,2.1,1.8
2025-01-02T0600,3620A,112.8271,35.4828,晋城市,泽州一中,细颗粒物(PM2.5),125,139,131,95,85,16,,,,59,49,21,19,2.4,1.9
2025-01-02T0600,2171A,112.7532,37.6945,晋中市,锦纶小区,颗粒物(PM10),64,78,114,41,60,11,,,,39,57,8,22,0.8,1.1
2025-01-02T0600,2173A,112.7249,37.7067,晋中市,南都小区,细颗粒物(PM2.5),74,94,139,54,76,5,,,,54,64,10,24,0.9,1.4
2025-01-02T0600,2174A,112.6991,37.6982,晋中市,榆次区政府,颗粒物(PM10),65,80,136,44,68,9,,,,45,63,10,23,0.8,1.3
2025-01-02T0600,2865A,112.7195,37.6828,晋中市,榆次三中,颗粒物(PM10),69,88,127,44,67,6,,,,45,60,11,22,0.9,1.3
2025-01-02T0600,2439A,112.2014,31.0481,荆门市,竹园小学,细颗粒物(PM2.5),185,185,164,139,126,80,,,,26,40,14,13,0.8,0.9
2025-01-02T0600,2440A,112.1969,30.9891,荆门市,掇刀,细颗粒物(PM2.5),178,169,166,134,125,102,,,,26,49,13,12,0.8,0.9
2025-01-02T0600,2441A,112.2213,31.0386,荆门市,石化一小,细颗粒物(PM2.5),175,179,176,132,127,81,,,,24,56,10,10,0.7,0.9
2025-01-02T0600,3012A,112.1849,31.0362,荆门市,西山林语,细颗粒物(PM2.5),178,162,145,134,118,102,,,,26,30,10,10,0.7,0.7
2025-01-02T0600,3547A,112.1632,31.0138,荆门市,龙泉中学南校,细颗粒物(PM2.5),173,167,156,131,123,103,,,,28,32,14,14,0.9,0.9
2025-01-02T0600,1844A,112.2494,30.3197,荆州市,市图书馆,细颗粒物(PM2.5),217,167,128,167,123,76,,,,33,53,8,8,0.9,0.9
2025-01-02T0600,1845A,112.2008,30.3544,荆州市,市委党校,细颗粒物(PM2.5),215,173,139,165,124,43,,,,56,55,8,10,1.1,0.9
2025-01-02T0600,3194A,112.2747,30.3122,荆州市,管委会,细颗粒物(PM2.5),224,,141,174,128,62,,,,39,55,6,8,1.1,1
2025-01-02T0600,3548A,112.1655,30.3364,荆州市,学苑路,细颗粒物(PM2.5),216,178,144,166,130,59,,,,56,62,10,12,1.2,1.1
2025-01-02T0600,2343A,117.2117,29.2933,景德镇市,老干部活动中心,"颗粒物(PM10),细颗粒物(PM2.5)",52,54,77,36,51,2,,,,34,38,6,13,0.7,0.9
2025-01-02T0600,2344A,117.1894,29.2789,景德镇市,兽医站,颗粒物(PM10),55,60,82,38,44,9,,,,46,40,4,8,0.2,0.3
2025-01-02T0600,2345A,117.1547,29.2617,景德镇市,台达陶瓷,颗粒物(PM10),52,53,84,31,48,18,,,,36,46,2,18,0.3,0.5
2025-01-02T0600,2346A,117.2461,29.2956,景德镇市,陶研所,细颗粒物(PM2.5),52,47,60,36,35,1,,,,28,29,4,4,0.7,0.7
2025-01-02T0600,1803A,115.9872,29.6815,九江市,十里,细颗粒物(PM2.5),80,78,110,59,78,4,,,,44,51,6,10,1.0,1.2
2025-01-02T0600,1804A,115.9584,29.7046,九江市,茅山头,细颗粒物(PM2.5),85,88,108,63,67,5,,,,69,76,3,9,1.0,1.1
2025-01-02T0600,1805A,115.9877,29.7295,九江市,西园,细颗粒物(PM2.5),95,111,120,71,86,8,,,,84,99,8,13,0.8,1.1
2025-01-02T0600,1806A,116.0172,29.6547,九江市,五七二七厂,细颗粒物(PM2.5),88,105,110,65,68,62,,,,38,39,8,13,0.8,0.8
2025-01-02T0600,1808A,115.9114,29.6038,九江市,综合工业园,细颗粒物(PM2.5),85,73,97,63,76,25,,,,56,73,7,12,0.7,0.8
2025-01-02T0600,1809A,116.0721,29.7535,九江市,石化总厂,细颗粒物(PM2.5),114,114,129,86,88,1,,,,86,76,14,16,1.1,1.3
2025-01-02T0600,1810A,115.9773,29.5698,九江市,庐山气象台,,31,6,26,3,16,99,,,,2,10,7,9,0.7,1.1
2025-01-02T0600,3190A,116.0254,29.6994,九江市,外国语学校,细颗粒物(PM2.5),100,120,140,75,88,10,,,,58,54,9,15,0.6,0.8
2025-01-02T0600,2658A,98.5061,39.7443,酒泉市,仓门街子站,,34,34,118,22,43,40,,,,14,25,7,17,0.4,0.8
2025-01-02T0600,2659A,98.4989,39.7256,酒泉市,油田生活基地,颗粒物(PM10),62,73,117,18,37,26,,,,22,29,6,16,0.5,0.4
2025-01-02T0600,2698A,76.0072,39.4467,喀什地区,巡警大队,细颗粒物(PM2.5),129,183,143,98,81,11,,,,65,58,2,4,2.7,2
2025-01-02T0600,2699A,75.9755,39.4694,喀什地区,吾办,细颗粒物(PM2.5),193,171,144,145,103,15,,,,64,63,3,2,2.8,2.4
2025-01-02T0600,4027A,75.9483,39.4689,喀什地区,老干局,细颗粒物(PM2.5),185,252,186,139,102,5,,,,73,61,3,3,6.7,3.8
2025-01-02T0600,1824A,114.3389,34.7781,开封市,肿瘤医院,细颗粒物(PM2.5),113,157,182,85,110,7,,,,66,55,12,9,1.5,1
2025-01-02T0600,1826A,114.2885,34.7965,开封市,世纪星幼儿园,细颗粒物(PM2.5),119,148,171,90,124,11,,,,63,49,15,9,1.5,0.9
2025-01-02T0600,3147A,114.3438,34.8106,开封市,龙亭公园,细颗粒物(PM2.5),100,142,178,75,115,8,,,,66,54,12,8,1.9,1.2
2025-01-02T0600,3210A,114.3644,34.7964,开封市,汴京公园,细颗粒物(PM2.5),112,169,198,84,121,7,,,,67,55,14,9,1.8,1
2025-01-02T0600,3473A,114.2485,34.8306,开封市,技师学院,颗粒物(PM10),105,160,199,70,92,9,,,,71,57,15,11,1.9,1.3
2025-01-02T0600,3592A,114.4644,34.7556,开封市,祥符区生态环境局,细颗粒物(PM2.5),107,153,201,80,122,,,,,58,52,10,8,1.3,0.9
2025-01-02T0600,1951A,84.895,45.6094,克拉玛依市,长征新村,细颗粒物(PM2.5),104,122,142,78,96,41,,,,35,41,6,7,1.1,1.1
2025-01-02T0600,1952A,84.8988,45.5893,克拉玛依市,南林小区,细颗粒物(PM2.5),137,133,137,104,106,13,,,,47,41,1,3,1.6,1.4
2025-01-02T0600,1954A,84.905,44.3396,克拉玛依市,独山子区,细颗粒物(PM2.5),206,,225,156,201,70,,,,24,56,4,5,0.9,1.4
2025-01-02T0600,1955A,85.6979,46.098,克拉玛依市,乌尔禾区商贸楼,细颗粒物(PM2.5),143,,118,109,107,31,,,,47,43,5,6,1.5,1.2
2025-01-02T0600,3612A,85.1045,45.6899,克拉玛依市,白碱滩区新站,细颗粒物(PM2.5),84,106,135,62,93,43,,,,26,41,8,9,1.1,1.3
2025-01-02T0600,2697A,76.1454,39.7142,克孜勒苏柯尔克孜自治州,市人民政府,细颗粒物(PM2.5),90,101,103,67,76,56,,,,20,28,4,5,1.2,1.5
2025-01-02T0600,3665A,76.1658,39.7157,克孜勒苏柯尔克孜自治州,克州文化中心,细颗粒物(PM2.5),93,86,92,69,71,52,,,,32,33,8,9,1.2,1.4
2025-01-02T0600,1450A,102.8204,24.8886,昆明市,呈贡新区,,50,42,28,35,19,0,,,,42,23,11,9,0.7,0.5
2025-01-02T0600,1452A,102.7252,25.0902,昆明市,龙泉镇,,20,20,32,14,17,10,,,,26,32,7,8,0.5,0.5
2025-01-02T0600,1453A,102.7266,25.0375,昆明市,东风东路,,33,33,29,23,22,0,,,,39,24,6,9,0.7,0.6
2025-01-02T0600,1454A,102.6742,25.0669,昆明市,金鼎山,,38,38,40,26,25,6,,,,44,30,7,10,0.6,0.7
2025-01-02T0600,1455A,102.6644,25.0401,昆明市,碧鸡广场,,40,40,33,26,24,8,,,,39,30,11,11,0.7,0.7
2025-01-02T0600,3179A,102.7494,25.0119,昆明市,官渡区博物馆,颗粒物(PM10),53,56,39,30,23,2,,,,45,27,8,10,1.2,0.8
2025-01-02T0600,3375A,102.8017,24.8336,昆明市,青年创业园,,28,28,27,15,18,7,,,,29,21,6,9,0.6,0.6
2025-01-02T0600,3550A,102.7997,24.9786,昆明市,昆明学院,颗粒物(PM10),53,55,35,30,18,9,,,,35,21,9,11,0.9,0.6
2025-01-02T0600,3551A,102.5967,24.6736,昆明市,晋宁区生态环境分局,,39,32,39,27,22,30,,,,19,14,6,3,0.8,0.6
2025-01-02T0600,3552A,102.6678,24.9856,昆明市,云天化总部,,36,36,24,20,15,12,,,,39,23,10,10,0.6,0.4
2025-01-02T0600,1456A,91.1319,29.6514,拉萨市,八廓街,,21,18,26,6,17,65,,,,10,21,5,7,0.2,0.4
2025-01-02T0600,1457A,91.1221,29.6747,拉萨市,市环保局,,20,19,30,7,18,62,,,,12,24,4,5,0.4,0.7
2025-01-02T0600,1458A,91.0874,29.6475,拉萨市,区监测站,,22,17,26,6,14,69,,,,11,26,5,6,0.3,0.4
2025-01-02T0600,1459A,91.1774,29.6541,拉萨市,西藏大学,,20,19,19,7,9,62,,,,6,12,4,5,0.5,0.6
2025-01-02T0600,1460A,90.9798,29.6588,拉萨市,区辐射站,,25,25,28,11,21,37,,,,32,30,7,9,0.8,0.7
2025-01-02T0600,1461A,91.0834,29.6292,拉萨市,拉萨火车站,,28,28,24,8,16,66,,,,27,31,4,5,0.4,0.8
2025-01-02T0600,2520A,109.2203,23.7256,来宾市,来宾技工学校,细颗粒物(PM2.5),208,173,153,158,129,5,,,,55,51,6,10,1.5,1.4
2025-01-02T0600,3535A,109.1781,23.7297,来宾市,兴宾区政府,细颗粒物(PM2.5),204,183,164,154,131,41,,,,22,31,5,11,1.3,1.3
2025-01-02T0600,4002A,109.2416,23.7461,来宾市,中南小学,细颗粒物(PM2.5),231,218,187,181,148,11,,,,59,53,14,14,1.8,1.7
2025-01-02T0600,1476A,103.631,36.1031,兰州市,兰炼宾馆,细颗粒物(PM2.5),57,62,78,40,49,11,,,,48,57,42,43,0.8,1
2025-01-02T0600,1478A,103.8412,36.0726,兰州市,生物制品所,颗粒物(PM10),51,52,72,31,44,4,,,,64,71,12,20,0.7,1
2025-01-02T0600,1479A,103.831,36.0464,兰州市,铁路设计院,颗粒物(PM10),60,69,87,39,52,4,,,,68,76,16,26,1.3,1.5
2025-01-02T0600,3186A,103.7158,36.1058,兰州市,教育港,细颗粒物(PM2.5),54,55,76,38,47,2,,,,57,62,26,28,0.8,1.1
2025-01-02T0600,3241A,103.7439,36.0842,兰州市,百合公园,颗粒物(PM10),54,57,68,28,40,17,,,,46,62,17,22,1.3,1.3
2025-01-02T0600,3242A,103.9611,35.998,兰州市,和平,颗粒物(PM10),51,52,73,30,42,42,,,,31,44,18,24,1.4,1.2
2025-01-02T0600,3245A,103.6633,36.533,兰州新区,新区管委会,,43,43,47,29,30,51,,,,13,24,8,17,0.2,0.4
2025-01-02T0600,3246A,103.6975,36.4789,兰州新区,舟曲中学,颗粒物(PM10),56,62,57,32,27,32,,,,29,30,8,16,0.6,0.6
2025-01-02T0600,1067A,116.6708,39.5111,廊坊市,药材公司,,15,14,80,8,43,46,,,,30,56,2,7,0.3,0.9
2025-01-02T0600,1068A,116.7214,39.5589,廊坊市,开发区,,24,18,85,10,48,24,,,,48,58,4,9,0.3,0.9
2025-01-02T0600,1070A,116.7244,39.5269,廊坊市,北华航天学院,,22,22,83,8,41,33,,,,40,54,6,11,0.3,0.9
2025-01-02T0600,2919A,116.7022,39.5453,廊坊市,河北工业大学,,21,16,82,9,44,38,,,,41,58,3,9,0.3,0.8
2025-01-02T0600,2535A,103.7723,29.5462,乐山市,花湖湾,细颗粒物(PM2.5),198,160,129,148,119,26,,,,35,32,6,7,0.8,0.7
2025-01-02T0600,2536A,103.7627,29.5844,乐山市,牛耳桥,细颗粒物(PM2.5),169,150,124,128,105,8,,,,41,47,5,6,0.8,0.8
2025-01-02T0600,2537A,103.7508,29.6006,乐山市,市第三水厂,细颗粒物(PM2.5),170,148,128,129,110,15,,,,42,51,4,5,1.1,1.1
2025-01-02T0600,2538A,103.7571,29.5664,乐山市,市监测站,细颗粒物(PM2.5),163,141,127,124,108,20,,,,41,46,4,5,1.2,1.1
2025-01-02T0600,3361A,103.7311,29.5628,乐山市,理工大学,细颗粒物(PM2.5),163,142,126,124,112,9,,,,41,38,7,8,1.0,0.9
2025-01-02T0600,2599A,100.2497,26.8802,丽江市,丽江古城,,28,28,27,16,16,70,,,,10,10,8,9,0.5,0.5
2025-01-02T0600,2600A,100.2203,26.8906,丽江市,市中心,,25,,17,17,15,55,,,,9,13,10,11,0.6,0.6
2025-01-02T0600,1267A,119.914,28.4514,丽水市,监测站大楼,细颗粒物(PM2.5),62,53,87,44,59,18,,,,34,49,13,7,0.6,0.8
2025-01-02T0600,1268A,119.93,28.4586,丽水市,莲都小学,颗粒物(PM10),52,54,78,32,48,6,,,,47,50,5,6,0.4,0.7
2025-01-02T0600,1269A,119.879,28.4231,丽水市,余庄前,细颗粒物(PM2.5),68,60,75,49,55,9,,,,24,39,4,5,0.5,0.6
2025-01-02T0600,1173A,119.176,34.5885,连云港市,市环境监测站,细颗粒物(PM2.5),85,107,118,63,62,20,,,,56,37,8,10,0.9,0.9
2025-01-02T0600,3000A,119.3581,34.6972,连云港市,德源药业,细颗粒物(PM2.5),73,83,105,53,50,25,,,,44,49,5,9,0.5,0.5
2025-01-02T0600,3007A,119.178,34.844,连云港市,新城一中,细颗粒物(PM2.5),137,157,126,104,81,7,,,,81,76,15,13,1.3,0.9
2025-01-02T0600,3008A,119.3608,34.7519,连云港市,胡沟管理处,细颗粒物(PM2.5),92,127,116,68,60,0,,,,83,42,9,9,1.0,0.8
2025-01-02T0600,3009A,119.1478,34.5911,连云港市,矿山设计院,细颗粒物(PM2.5),113,132,115,85,61,10,,,,63,40,6,9,0.8,0.8
2025-01-02T0600,3434A,119.2413,34.6539,连云港市,工贸学校,细颗粒物(PM2.5),94,110,109,70,60,53,,,,20,24,8,11,0.7,0.6
2025-01-02T0600,3664A,119.4172,34.7341,连云港市,连云街道,细颗粒物(PM2.5),93,127,138,69,67,38,,,,41,46,11,12,0.8,0.7
2025-01-02T0600,2571A,102.3431,27.8099,凉山彝族自治州,青龙寺,,26,26,47,9,18,47,,,,8,13,5,8,0.8,1.1
2025-01-02T0600,2572A,102.2721,27.8415,凉山彝族自治州,邛海宾馆,,34,34,53,22,35,43,,,,17,21,12,13,0.8,0.9
2025-01-02T0600,2573A,102.2625,27.898,凉山彝族自治州,西昌市政府,,30,30,47,19,33,43,,,,13,19,9,11,0.8,0.9
2025-01-02T0600,2574A,102.2685,27.8851,凉山彝族自治州,凉山州政府,,35,34,55,24,38,36,,,,19,24,8,9,0.5,0.7
2025-01-02T0600,2575A,102.237,27.8914,凉山彝族自治州,长安,细颗粒物(PM2.5),54,56,69,38,40,18,,,,39,30,12,11,0.7,0.7
2025-01-02T0600,2212A,123.2,41.1953,辽阳市,宏伟区,,22,22,44,12,32,35,,,,14,20,28,13,0.4,0.6
2025-01-02T0600,2213A,123.1683,41.2495,辽阳市,新华园,细颗粒物(PM2.5),62,52,72,44,49,15,,,,47,42,10,23,1.1,1.1
2025-01-02T0600,2214A,123.2354,41.2639,辽阳市,滨河路,,45,,40,31,33,24,,,,34,28,6,15,0.5,0.7
2025-01-02T0600,2215A,123.149,41.2991,辽阳市,铁西工业园,,48,44,64,33,43,19,,,,29,35,12,11,1.1,1
2025-01-02T0600,2227A,125.1358,42.8845,辽源市,环保局,,18,15,29,3,14,55,,,,7,18,7,8,0.5,0.7
2025-01-02T0600,3239A,125.0764,42.9078,辽源市,银鹰制药,,46,43,32,32,23,40,,,,17,25,10,13,0.4,0.5
2025-01-02T0600,1625A,115.9848,36.4372,聊城市,区政府,颗粒物(PM10),62,73,180,39,110,20,,,,37,48,11,18,0.8,1.1
2025-01-02T0600,2878A,116.0072,36.4343,聊城市,聊大东校,细颗粒物(PM2.5),69,78,198,50,121,15,,,,42,50,8,16,0.7,1.1
2025-01-02T0600,3200A,115.9819,36.4978,聊城市,监控中心,细颗粒物(PM2.5),79,89,200,58,133,7,,,,49,59,8,15,1.1,1.4
2025-01-02T0600,3513A,116.0445,36.4361,聊城市,九州社区,颗粒物(PM10),61,72,165,40,110,22,,,,31,40,11,15,0.6,1
2025-01-02T0600,4018A,116.0567,36.4608,聊城市,星美广场,颗粒物(PM10),66,82,189,44,119,17,,,,38,44,11,15,0.9,1.2
2025-01-02T0600,2632A,94.3681,29.6376,林芝市,林芝监测站,,17,7,13,3,6,54,,,,2,6,7,6,0.3,0.3
2025-01-02T0600,2633A,94.3616,29.6616,林芝市,林芝人民医院,,15,9,13,6,7,48,,,,2,5,5,6,0.4,0.4
2025-01-02T0600,2603A,100.0781,23.8982,临沧市,市环保局,,26,,33,18,22,19,,,,13,15,9,11,0.4,0.4
2025-01-02T0600,2604A,100.0894,23.8822,临沧市,市气象局,,26,19,32,18,24,23,,,,10,16,8,9,0.4,0.5
2025-01-02T0600,1733A,111.5531,36.0783,临汾市,临钢医院,颗粒物(PM10),65,79,124,39,65,6,,,,40,47,4,14,0.9,1.6
2025-01-02T0600,1736A,111.5018,36.0855,临汾市,市委,细颗粒物(PM2.5),74,93,132,54,69,5,,,,46,48,3,13,1.2,1.4
2025-01-02T0600,3018A,111.505,36.1014,临汾市,唐尧大酒店,细颗粒物(PM2.5),70,87,108,51,65,4,,,,42,42,7,16,1.0,1.2
2025-01-02T0600,3668A,111.5036,36.0414,临汾市,城南,细颗粒物(PM2.5),70,71,119,51,71,0,,,,49,47,3,13,1.0,1.4
2025-01-02T0600,2667A,103.2069,35.5993,临夏回族自治州,环保局,细颗粒物(PM2.5),64,71,66,46,49,13,,,,30,34,9,17,2.2,1.8
2025-01-02T0600,2668A,103.2417,35.6057,临夏回族自治州,建设大厦,细颗粒物(PM2.5),67,61,53,48,48,42,,,,18,30,10,16,1.4,1.4
2025-01-02T0600,1618A,118.3429,35.0532,临沂市,沂河小区,细颗粒物(PM2.5),180,175,162,136,109,8,,,,82,74,20,23,1.4,1
2025-01-02T0600,1619A,118.295,35.0583,临沂市,鲁南制药厂,细颗粒物(PM2.5),242,254,181,192,106,6,,,,105,86,41,35,3.4,1.9
2025-01-02T0600,1620A,118.2794,34.9976,临沂市,新光毛纺厂,细颗粒物(PM2.5),261,290,160,211,101,8,,,,126,92,37,28,3.2,1.2
2025-01-02T0600,1621A,118.3956,35.0888,临沂市,河东保险公司,细颗粒物(PM2.5),155,175,165,118,103,4,,,,86,75,15,24,1.9,1.3
2025-01-02T0600,3370A,118.3564,35.0215,临沂市,十里堡居委,细颗粒物(PM2.5),153,173,155,117,101,8,,,,69,61,19,21,1.6,1.3
2025-01-02T0600,3496A,118.3604,35.1084,临沂市,南坊新区,细颗粒物(PM2.5),144,161,152,110,94,4,,,,88,77,16,21,1.6,1.2
2025-01-02T0600,1870A,109.4856,24.3895,柳州市,柳东小学,细颗粒物(PM2.5),100,82,102,75,88,78,,,,18,22,16,17,0.5,0.6
2025-01-02T0600,1871A,109.4157,24.3277,柳州市,环保监测站,细颗粒物(PM2.5),122,115,133,92,93,34,,,,37,46,23,19,1.2,1.2
2025-01-02T0600,1872A,109.389,24.341,柳州市,河西水厂,细颗粒物(PM2.5),125,157,161,95,98,12,,,,51,51,24,29,1.6,1.6
2025-01-02T0600,1873A,109.4311,24.2921,柳州市,市四中,细颗粒物(PM2.5),109,90,130,82,96,53,,,,22,49,24,17,1.4,1.6
2025-01-02T0600,1874A,109.4006,24.3631,柳州市,市九中,细颗粒物(PM2.5),114,101,120,86,93,38,,,,30,42,19,16,1.2,1.4
2025-01-02T0600,1875A,109.4958,24.3134,柳州市,古亭山,细颗粒物(PM2.5),89,85,88,66,64,27,,,,38,50,14,20,1.1,1.1
2025-01-02T0600,3402A,109.5422,24.3996,柳州市,市二中,细颗粒物(PM2.5),124,102,98,94,86,16,,,,40,35,10,11,1.0,1
2025-01-02T0600,2307A,116.5079,31.737,六安市,监测大楼,细颗粒物(PM2.5),97,91,96,72,68,18,,,,50,38,5,8,0.8,0.7
2025-01-02T0600,2308A,116.4738,31.7643,六安市,皖西学院,细颗粒物(PM2.5),109,105,110,82,74,7,,,,57,49,4,7,1.0,1
2025-01-02T0600,2309A,116.4996,31.7905,六安市,朝阳厂,细颗粒物(PM2.5),97,95,114,72,86,19,,,,47,46,1,5,1.1,1.1
2025-01-02T0600,2310A,116.5567,31.7886,六安市,开发区,细颗粒物(PM2.5),130,155,127,99,71,8,,,,58,45,4,4,1.0,0.8
2025-01-02T0600,2577A,104.83,26.5917,六盘水市,黄土坡,细颗粒物(PM2.5),65,75,75,47,56,42,,,,14,21,9,13,0.9,1
2025-01-02T0600,2578A,104.89,26.5939,六盘水市,水钢,细颗粒物(PM2.5),52,36,72,36,53,52,,,,12,15,4,7,0.8,1
2025-01-02T0600,2579A,104.8475,26.5894,六盘水市,民中,细颗粒物(PM2.5),58,52,66,41,55,27,,,,28,21,8,11,1.0,1
2025-01-02T0600,2580A,104.9544,26.5506,六盘水市,双水,细颗粒物(PM2.5),62,63,67,44,47,45,,,,16,13,8,9,0.7,0.7
2025-01-02T0600,2336A,117.0217,25.1033,龙岩市,龙岩市监测站,细颗粒物(PM2.5),64,48,59,46,48,34,,,,21,31,5,8,0.6,0.7
2025-01-02T0600,2337A,117.0258,25.0661,龙岩市,闽西职业技术学院,颗粒物(PM10),68,85,71,48,46,11,,,,32,27,17,13,0.9,0.9
2025-01-02T0600,2338A,117.0196,25.0306,龙岩市,龙岩学院,细颗粒物(PM2.5),68,57,58,49,45,20,,,,25,21,14,13,0.5,0.6
2025-01-02T0600,2885A,104.9339,33.3826,陇南市,滨江中学,颗粒物(PM10),58,66,102,37,55,14,,,,45,54,24,25,1.5,2.4
2025-01-02T0600,3247A,104.955,33.371,陇南市,市总工会,,48,48,82,28,49,40,,,,29,42,18,16,0.7,1.1
2025-01-02T0600,2487A,111.9589,27.8901,娄底市,电视发射台,细颗粒物(PM2.5),84,64,69,62,67,96,,,,20,23,8,11,0.8,0.9
2025-01-02T0600,2488A,111.9975,27.725,娄底市,市监测站,细颗粒物(PM2.5),132,121,148,100,112,14,,,,51,59,11,17,1.1,1.6
2025-01-02T0600,2489A,112.0194,27.7314,娄底市,市委党校,细颗粒物(PM2.5),114,112,143,86,109,41,,,,34,45,8,12,1.0,1.2
2025-01-02T0600,2490A,111.9561,27.7569,娄底市,涟钢,细颗粒物(PM2.5),125,119,140,95,103,42,,,,18,33,6,21,0.9,1.6
2025-01-02T0600,2491A,111.9892,27.7044,娄底市,市政府,细颗粒物(PM2.5),138,123,131,105,104,20,,,,24,43,5,9,1.0,1.1
2025-01-02T0600,1894A,105.4427,28.9063,泸州市,小市上码头,细颗粒物(PM2.5),243,233,190,193,160,28,,,,37,48,2,3,1.1,1.1
2025-01-02T0600,1895A,105.4241,28.8573,泸州市,兰田宪桥,细颗粒物(PM2.5),224,190,156,174,152,38,,,,25,36,4,3,1.0,1
2025-01-02T0600,1896A,105.4379,28.8833,泸州市,市环监站,细颗粒物(PM2.5),227,215,182,177,150,45,,,,28,42,7,5,0.9,0.9
2025-01-02T0600,3490A,105.3617,28.7703,泸州市,纳溪区环保局,细颗粒物(PM2.5),201,160,144,151,125,19,,,,37,47,8,6,1.3,1.2
2025-01-02T0600,2183A,111.1406,37.5211,吕梁市,环保局,颗粒物(PM10),67,84,83,34,31,2,,,,42,42,4,7,0.5,0.7
2025-01-02T0600,2185A,111.1297,37.5136,吕梁市,自来水公司,颗粒物(PM10),89,127,94,47,35,4,,,,40,37,11,11,0.7,0.7
2025-01-02T0600,1812A,112.3931,34.6516,洛阳市,市委党校,细颗粒物(PM2.5),162,189,151,123,90,1,,,,69,62,12,12,1.5,1.2
2025-01-02T0600,1814A,112.4657,34.6871,洛阳市,豫西宾馆,细颗粒物(PM2.5),150,210,177,115,101,4,,,,64,57,10,15,1.3,1.1
2025-01-02T0600,1815A,112.494,34.6886,洛阳市,河南林校,细颗粒物(PM2.5),192,177,151,144,125,4,,,,62,54,2,8,1.4,1.2
2025-01-02T0600,1816A,112.3844,34.623,洛阳市,开发区管委会,细颗粒物(PM2.5),192,217,176,144,128,1,,,,61,53,8,12,1.4,1.1
2025-01-02T0600,1817A,112.4267,34.6258,洛阳市,市委新办公区,细颗粒物(PM2.5),183,213,179,138,114,4,,,,59,54,4,9,1.4,1.2
2025-01-02T0600,3340A,112.6005,34.6326,洛阳市,伊滨,细颗粒物(PM2.5),156,210,178,119,91,5,,,,62,56,5,10,0.9,0.6
2025-01-02T0600,3341A,112.4951,34.6332,洛阳市,中移产业园,细颗粒物(PM2.5),175,175,139,132,98,4,,,,63,57,7,12,1.4,1.1
2025-01-02T0600,3593A,112.5736,34.8993,洛阳市,吉利监测站,细颗粒物(PM2.5),158,162,136,120,97,7,,,,54,55,4,10,1.1,1
2025-01-02T0600,3635A,112.3677,34.662,洛阳市,河科大西苑校区,细颗粒物(PM2.5),179,211,171,135,103,4,,,,66,60,23,17,1.5,1.3
2025-01-02T0600,3636A,112.4388,34.6781,洛阳市,英才小学,细颗粒物(PM2.5),158,196,173,120,104,0,,,,68,63,11,13,1.4,1.2
2025-01-02T0600,2399A,114.051,33.5699,漯河市,三五一五工厂,细颗粒物(PM2.5),198,232,192,148,143,15,,,,57,45,13,12,1.1,1
2025-01-02T0600,2400A,114.0055,33.5698,漯河市,漯河大学,细颗粒物(PM2.5),168,216,181,127,123,15,,,,62,47,12,11,1.0,1
2025-01-02T0600,2401A,114.0138,33.5828,漯河市,市水利局,细颗粒物(PM2.5),163,234,191,124,125,15,,,,57,43,13,12,1.0,0.9
2025-01-02T0600,2402A,114.0261,33.5698,漯河市,市广电局,细颗粒物(PM2.5),182,227,187,137,132,15,,,,57,43,14,12,0.9,0.8
2025-01-02T0600,3478A,113.9749,33.5664,漯河市,市图书馆,细颗粒物(PM2.5),173,245,199,131,131,17,,,,60,53,12,11,0.9,1
2025-01-02T0600,3479A,114.0967,33.5906,漯河市,召陵区卫健委,细颗粒物(PM2.5),189,221,193,142,136,10,,,,64,57,11,12,1.1,1
2025-01-02T0600,1798A,118.5092,31.6837,马鞍山市,湖东路四小,细颗粒物(PM2.5),87,99,103,64,45,30,,,,44,51,8,6,0.8,0.8
2025-01-02T0600,1799A,118.5024,31.6449,马鞍山市,开发区,细颗粒物(PM2.5),109,128,114,82,66,11,,,,59,46,6,10,0.9,0.9
2025-01-02T0600,1800A,118.5228,31.7231,马鞍山市,慈湖,细颗粒物(PM2.5),109,125,111,82,70,14,,,,59,50,6,8,0.9,0.9
2025-01-02T0600,1802A,118.6245,31.7241,马鞍山市,濮塘,细颗粒物(PM2.5),84,85,86,62,51,40,,,,37,34,6,9,0.3,0.2
2025-01-02T0600,3633A,118.4918,31.6809,马鞍山市,雨山,细颗粒物(PM2.5),85,104,103,63,56,29,,,,40,47,7,10,0.8,0.8
2025-01-02T0600,1686A,111.0286,21.4688,茂名市,电白南海,细颗粒物(PM2.5),83,83,74,61,43,78,,,,26,24,18,10,0.8,0.8
2025-01-02T0600,1687A,110.9294,21.6533,茂名市,茂石化七小,颗粒物(PM10),73,95,84,51,43,99,,,,13,19,22,16,0.7,0.7
2025-01-02T0600,1688A,110.9107,21.6687,茂名市,健康路,细颗粒物(PM2.5),89,97,80,66,54,90,,,,22,21,16,20,0.9,1
2025-01-02T0600,1689A,110.8592,21.6828,茂名市,高岭,细颗粒物(PM2.5),92,105,85,68,57,74,,,,20,26,25,21,1.1,1
2025-01-02T0600,3450A,111.01,21.5165,茂名市,电白水东,细颗粒物(PM2.5),92,95,76,68,44,93,,,,16,15,30,15,0.8,0.7
2025-01-02T0600,2539A,104.0308,30.0478,眉山市,黑龙滩水库,细颗粒物(PM2.5),120,129,103,91,74,35,,,,26,13,3,3,1.0,0.9
2025-01-02T0600,2540A,103.8416,30.0874,眉山市,气象局,细颗粒物(PM2.5),156,122,121,119,113,4,,,,42,48,4,5,0.9,0.8
2025-01-02T0600,3137A,103.8578,30.0744,眉山市,市委党校,细颗粒物(PM2.5),160,146,135,122,105,5,,,,59,62,5,7,0.7,0.7
2025-01-02T0600,3148A,103.8291,30.0564,眉山市,区人社局,细颗粒物(PM2.5),175,,113,132,107,12,,,,55,62,8,10,0.9,1
2025-01-02T0600,1690A,116.1231,24.3284,梅州市,梅江月梅,细颗粒物(PM2.5),69,62,69,50,52,6,,,,38,38,9,10,0.8,0.7
2025-01-02T0600,1691A,116.0797,24.2719,梅州市,梅县新城,细颗粒物(PM2.5),65,54,72,47,58,28,,,,26,37,4,6,0.8,0.9
2025-01-02T0600,1692A,116.1248,24.2654,梅州市,环境监控中心,细颗粒物(PM2.5),65,52,74,47,55,15,,,,23,38,6,7,0.8,0.9
2025-01-02T0600,3315A,116.1233,24.2991,梅州市,梅龙,细颗粒物(PM2.5),64,48,73,46,53,16,,,,24,38,6,7,0.8,0.9
2025-01-02T0600,1878A,104.7778,31.4741,绵阳市,富乐山,细颗粒物(PM2.5),114,108,103,86,77,6,,,,41,49,2,3,0.9,0.9
2025-01-02T0600,1879A,104.7563,31.4535,绵阳市,市人大,细颗粒物(PM2.5),132,147,125,100,89,2,,,,44,63,3,2,1.1,1.1
2025-01-02T0600,1880A,104.6697,31.4668,绵阳市,高新区自来水公司,细颗粒物(PM2.5),122,124,123,92,90,2,,,,32,43,3,4,0.9,0.9
2025-01-02T0600,1881A,104.7287,31.5075,绵阳市,三水厂,细颗粒物(PM2.5),145,133,129,111,100,2,,,,34,49,6,6,0.9,1
2025-01-02T0600,3491A,104.69,31.5322,绵阳市,西科大附属小学,细颗粒物(PM2.5),114,108,125,86,99,10,,,,37,42,5,6,0.8,0.9
2025-01-02T0600,3492A,104.5648,31.5343,绵阳市,安州区旅游局,细颗粒物(PM2.5),113,85,120,85,100,5,,,,24,40,6,6,0.9,1.1
2025-01-02T0600,1784A,129.61,44.561,牡丹江市,环保大楼,颗粒物(PM10),52,53,58,33,38,14,,,,32,28,8,9,0.8,0.7
2025-01-02T0600,1785A,129.6115,44.5782,牡丹江市,文化广场,细颗粒物(PM2.5),77,58,68,56,46,19,,,,33,33,10,11,1.0,1
2025-01-02T0600,1786A,129.5904,44.5963,牡丹江市,第一医院,细颗粒物(PM2.5),70,58,72,51,54,14,,,,34,31,7,10,0.7,0.7
2025-01-02T0600,1787A,129.6364,44.6075,牡丹江市,机车工厂,,,100,72,49,48,24,,,,47,31,,27,1.0,0.8
2025-01-02T0600,1788A,129.6386,44.5462,牡丹江市,第一中学,,35,25,52,24,40,14,,,,29,31,6,9,0.6,0.7
2025-01-02T0600,2531A,105.0703,29.61,内江市,市监测站,细颗粒物(PM2.5),140,,89,107,101,44,,,,27,32,7,7,0.8,0.9
2025-01-02T0600,2532A,105.0717,29.5947,内江市,东兴区政府,细颗粒物(PM2.5),117,,92,88,89,40,,,,35,39,4,5,0.9,0.9
2025-01-02T0600,2533A,105.0653,29.5817,内江市,内江二中,细颗粒物(PM2.5),138,110,101,105,96,51,,,,31,39,9,9,0.9,1
2025-01-02T0600,2534A,105.0406,29.5822,内江市,内江日报社,细颗粒物(PM2.5),137,,98,104,97,18,,,,58,36,10,10,0.9,0.9
2025-01-02T0600,2628A,92.0657,31.4846,那曲市,那曲监测站,,27,27,39,16,27,28,,,,18,18,7,8,1.5,1
2025-01-02T0600,3128A,92.0506,31.4797,那曲市,那曲会议中心,,26,26,41,8,20,39,,,,10,12,3,4,0.7,0.8
2025-01-02T0600,1290A,115.8931,28.6843,南昌市,省外办,细颗粒物(PM2.5),122,107,142,92,93,32,,,,60,75,7,11,0.8,1
2025-01-02T0600,1291A,115.8886,28.7003,南昌市,省林业公司,细颗粒物(PM2.5),100,124,136,75,81,2,,,,101,75,12,12,0.7,0.8
2025-01-02T0600,1292A,115.8126,28.7442,南昌市,林科所,细颗粒物(PM2.5),85,85,102,63,64,56,,,,68,54,18,19,0.8,0.9
2025-01-02T0600,1294A,115.8518,28.687,南昌市,建工学校,细颗粒物(PM2.5),93,122,134,69,81,2,,,,97,73,11,14,1.0,1.1
2025-01-02T0600,1295A,115.8921,28.6424,南昌市,象湖,细颗粒物(PM2.5),117,124,142,88,93,2,,,,73,67,8,13,1.2,1.2
2025-01-02T0600,1296A,115.7423,28.7996,南昌市,武术学校,细颗粒物(PM2.5),67,,52,48,41,14,,,,13,23,1,3,0.7,0.8
2025-01-02T0600,1298A,115.9314,28.6842,南昌市,省站,细颗粒物(PM2.5),104,108,144,78,88,42,,,,43,54,12,14,0.7,0.9
2025-01-02T0600,3046A,115.9084,28.6062,南昌市,机电学校,细颗粒物(PM2.5),110,135,159,83,93,6,,,,89,73,14,17,0.8,0.8
2025-01-02T0600,3690A,115.9721,28.7031,南昌市,外国语学校,细颗粒物(PM2.5),98,104,122,73,78,8,,,,86,65,10,10,1.0,0.7
2025-01-02T0600,1905A,106.056,30.8064,南充市,西山风景区,细颗粒物(PM2.5),97,75,85,72,78,65,,,,12,14,1,2,0.8,0.8
2025-01-02T0600,1906A,106.0789,30.8023,南充市,南充市委,细颗粒物(PM2.5),108,95,116,81,99,27,,,,26,39,4,4,0.6,0.8
2025-01-02T0600,1907A,106.1031,30.8217,南充市,南充炼油厂,细颗粒物(PM2.5),145,131,122,111,103,1,,,,45,50,3,4,0.9,1
2025-01-02T0600,1908A,106.1064,30.7856,南充市,高坪区监测站,细颗粒物(PM2.5),135,136,137,103,105,0,,,,57,53,3,3,0.9,1
2025-01-02T0600,1909A,106.0642,30.7636,南充市,嘉陵区环保局,细颗粒物(PM2.5),125,117,122,95,98,2,,,,64,61,4,4,0.9,1
2025-01-02T0600,1910A,106.1087,30.8388,南充市,市环境监测站,细颗粒物(PM2.5),122,127,123,92,89,11,,,,44,41,5,5,0.6,0.7
2025-01-02T0600,1151A,118.8086,32.1065,南京市,迈皋桥,"颗粒物(PM10),细颗粒物(PM2.5)",73,95,83,53,45,6,,,,96,64,10,9,1.0,0.5
2025-01-02T0600,1152A,118.7538,32.0551,南京市,草场门,颗粒物(PM10),80,110,96,56,48,4,,,,93,64,10,9,0.7,0.6
2025-01-02T0600,1153A,118.7794,32.0745,南京市,山西路,细颗粒物(PM2.5),83,107,99,61,48,1,,,,94,51,6,4,1.0,0.7
2025-01-02T0600,1154A,118.7752,32.0023,南京市,中华门,细颗粒物(PM2.5),77,97,92,56,48,2,,,,68,41,10,9,1.0,0.8
2025-01-02T0600,1155A,118.8109,32.0309,南京市,瑞金路,颗粒物(PM10),76,102,91,53,47,2,,,,73,61,9,6,1.2,1.2
2025-01-02T0600,1156A,118.7997,32.0754,南京市,玄武湖,颗粒物(PM10),79,107,94,46,45,0,,,,29,22,8,9,0.9,0.8
2025-01-02T0600,1157A,118.6414,32.0931,南京市,浦口,颗粒物(PM10),92,134,101,62,46,1,,,,74,34,12,10,1.1,0.8
2025-01-02T0600,1158A,118.7356,31.9996,南京市,奥体中心,颗粒物(PM10),78,105,95,53,49,4,,,,92,60,11,11,0.8,0.7
2025-01-02T0600,1159A,118.9125,32.1028,南京市,仙林大学城,细颗粒物(PM2.5),85,100,98,63,52,0,,,,82,47,9,9,0.8,0.6
2025-01-02T0600,3422A,118.8436,31.9198,南京市,江宁彩虹桥,颗粒物(PM10),77,104,108,51,52,4,,,,70,49,8,10,0.6,0.5
2025-01-02T0600,3423A,119.0138,31.6494,南京市,溧水永阳,细颗粒物(PM2.5),92,97,92,68,56,2,,,,65,51,4,5,0.5,0.4
2025-01-02T0600,3424A,118.879,31.3302,南京市,高淳老职中,细颗粒物(PM2.5),104,112,97,78,69,24,,,,47,44,5,8,0.5,0.5
2025-01-02T0600,3427A,118.8554,32.3578,南京市,六合雄州,细颗粒物(PM2.5),93,115,105,69,60,2,,,,46,41,4,6,1.0,0.8
2025-01-02T0600,1401A,108.3103,22.7881,南宁市,二十一中,细颗粒物(PM2.5),137,132,140,104,109,,,,,73,70,4,9,1.4,1.5
2025-01-02T0600,1402A,108.3141,22.8528,南宁市,北湖,细颗粒物(PM2.5),118,116,136,89,108,9,,,,70,75,16,18,1.4,1.5
2025-01-02T0600,1403A,108.3206,22.8225,南宁市,市监测站,细颗粒物(PM2.5),122,120,135,92,105,35,,,,51,71,22,18,1.3,1.5
2025-01-02T0600,1404A,108.3829,22.8037,南宁市,大自然花园,细颗粒物(PM2.5),122,107,107,92,89,78,,,,28,50,9,9,0.9,1
2025-01-02T0600,1405A,108.4394,22.7904,南宁市,仙葫,细颗粒物(PM2.5),138,,122,105,105,5,,,,63,63,5,7,1.1,1.1
2025-01-02T0600,1406A,108.2397,22.8467,南宁市,区农职院,细颗粒物(PM2.5),98,84,106,73,81,29,,,,36,45,17,20,0.9,1
2025-01-02T0600,1407A,108.3275,22.735,南宁市,英华嘉园,细颗粒物(PM2.5),153,124,141,117,104,3,,,,81,78,8,11,1.2,1.3
2025-01-02T0600,1408A,108.2257,22.7757,南宁市,沙井镇街道办,细颗粒物(PM2.5),129,124,142,98,97,3,,,,70,69,4,8,1.3,1.2
2025-01-02T0600,3401A,108.4834,22.7618,南宁市,红星社区,细颗粒物(PM2.5),107,97,97,80,82,8,,,,65,43,7,11,1.1,1.1
2025-01-02T0600,2332A,118.1681,26.6369,南平市,南平市监测站,细颗粒物(PM2.5),58,57,61,41,47,9,,,,39,32,4,5,0.6,0.7
2025-01-02T0600,2333A,118.1825,26.6489,南平市,南平铝业有限公司,细颗粒物(PM2.5),57,44,58,40,43,6,,,,39,36,4,6,0.9,0.9
2025-01-02T0600,2334A,118.1756,26.6272,南平市,南平七中,细颗粒物(PM2.5),57,,54,40,45,5,,,,26,22,2,4,0.6,0.7
2025-01-02T0600,1168A,120.9098,31.9663,南通市,狼山街道,,48,43,65,33,38,13,,,,28,34,4,6,0.5,0.8
2025-01-02T0600,1169A,120.86,32.0005,南通市,虹桥,,50,43,61,35,36,19,,,,38,41,4,6,0.5,0.6
2025-01-02T0600,1170A,120.87,32.02,南通市,城中,颗粒物(PM10),53,56,74,34,34,11,,,,49,45,6,8,0.6,0.6
2025-01-02T0600,1171A,120.94,31.93,南通市,星湖花园,,34,34,57,22,30,29,,,,29,32,4,5,0.5,0.7
2025-01-02T0600,1172A,120.81,32.0417,南通市,紫琅学院,,45,45,66,23,32,11,,,,45,52,3,4,0.5,0.7
2025-01-02T0600,3291A,121.067,32.062,南通市,通州监测站,,35,34,56,24,25,44,,,,31,21,2,3,0.5,0.6
2025-01-02T0600,3432A,120.9348,31.9883,南通市,环境教育馆,,44,44,64,29,32,6,,,,42,37,4,5,0.5,0.6
2025-01-02T0600,2404A,112.5224,33.0122,南阳市,瓦房庄,细颗粒物(PM2.5),145,181,173,111,127,58,,,,31,45,11,11,1.1,1.1
2025-01-02T0600,2405A,112.5003,32.9735,南阳市,汉画馆,细颗粒物(PM2.5),139,172,155,106,108,49,,,,39,49,10,9,1.0,0.9
2025-01-02T0600,2406A,112.5573,33.027,南阳市,气象站,细颗粒物(PM2.5),134,208,178,102,115,63,,,,32,36,12,11,1.0,1
2025-01-02T0600,2407A,112.5481,32.9689,南阳市,理工学院,细颗粒物(PM2.5),138,168,152,105,113,54,,,,38,46,10,11,0.9,0.9
2025-01-02T0600,4008A,112.5234,32.9922,南阳市,卧龙区政府,细颗粒物(PM2.5),134,175,167,102,114,55,,,,33,49,9,8,1.0,1.1
2025-01-02T0600,1234A,121.8358,29.911,宁波市,区环保大楼,,24,24,58,3,22,6,,,,39,55,6,8,0.5,0.7
2025-01-02T0600,1235A,121.56,29.82,宁波市,万里学院,颗粒物(PM10),52,53,62,28,34,4,,,,47,44,4,6,0.6,0.5
2025-01-02T0600,1236A,121.713,29.9572,宁波市,龙赛医院,颗粒物(PM10),63,75,82,34,38,2,,,,52,52,8,9,0.6,0.7
2025-01-02T0600,1239A,121.633,29.7733,宁波市,钱湖水厂,,50,50,54,28,30,21,,,,19,20,9,6,0.7,0.6
2025-01-02T0600,1240A,121.5856,29.8635,宁波市,太古小学,颗粒物(PM10),58,65,69,33,33,2,,,,58,51,8,10,0.9,0.9
2025-01-02T0600,1241A,121.524,29.8674,宁波市,市环境监测中心,颗粒物(PM10),61,71,75,26,29,0,,,,48,45,7,9,0.8,0.9
2025-01-02T0600,2871A,121.6147,29.9017,宁波市,万里国际学校,颗粒物(PM10),63,75,72,43,33,1,,,,45,49,6,8,0.9,0.7
2025-01-02T0600,3710A,121.5594,29.8975,宁波市,白沙活动中心,颗粒物(PM10),61,72,77,33,35,4,,,,51,49,7,9,0.6,0.6
2025-01-02T0600,2341A,119.5388,26.6612,宁德市,宁德市监测站,,35,26,64,24,52,55,,,,9,22,2,4,0.5,0.7
2025-01-02T0600,3209A,119.5231,26.6562,宁德市,宁德一中,,38,32,62,26,47,49,,,,10,17,2,4,0.5,0.7
2025-01-02T0600,2619A,98.8546,25.8417,怒江傈僳族自治州,泸水一中,,20,18,30,14,19,24,,,,12,21,7,7,0.6,0.7
2025-01-02T0600,1888A,101.6891,26.571,攀枝花市,弄弄坪,,47,47,55,27,32,17,,,,32,34,19,22,1.6,1.2
2025-01-02T0600,1889A,101.5769,26.5928,攀枝花市,河门口,,40,40,46,22,29,25,,,,27,28,10,19,1.0,1.2
2025-01-02T0600,1890A,101.7169,26.585,攀枝花市,炳草岗,"颗粒物(PM10),细颗粒物(PM2.5)",54,57,63,38,36,11,,,,44,45,14,21,0.8,0.8
2025-01-02T0600,1891A,101.7369,26.5008,攀枝花市,仁和,,29,29,38,19,24,24,,,,20,24,6,14,0.7,0.7
2025-01-02T0600,2835A,101.7227,26.567,攀枝花市,四十中小,颗粒物(PM10),58,65,67,38,41,14,,,,46,49,11,17,0.8,0.9
2025-01-02T0600,1604A,122.0303,41.1489,盘锦市,开发区,,29,28,57,20,51,43,,,,17,31,8,12,0.5,0.7
2025-01-02T0600,1605A,122.0485,41.0883,盘锦市,兴隆台,,35,32,62,24,44,11,,,,44,35,13,17,1.2,0.8
2025-01-02T0600,1606A,121.8297,41.1028,盘锦市,新生街道,,30,30,31,18,19,12,,,,51,44,12,14,0.9,0.7
2025-01-02T0600,1832A,113.3257,33.742,平顶山市,新华旅馆,细颗粒物(PM2.5),160,206,195,122,118,38,,,,41,46,15,14,0.7,0.7
2025-01-02T0600,1833A,113.2919,33.737,平顶山市,规划设计院,细颗粒物(PM2.5),140,209,195,107,115,52,,,,23,28,12,12,0.7,0.8
2025-01-02T0600,1834A,113.182,33.774,平顶山市,平顶山工学院,颗粒物(PM10),135,219,201,95,106,44,,,,34,30,4,6,1.0,1.1
2025-01-02T0600,3204A,113.3025,33.73,平顶山市,规划局,细颗粒物(PM2.5),153,210,184,117,123,42,,,,36,39,14,14,1.0,0.9
2025-01-02T0600,3594A,112.8867,33.9116,平顶山市,石龙区,细颗粒物(PM2.5),179,208,181,135,124,3,,,,65,53,17,16,1.4,1.1
2025-01-02T0600,2656A,106.6692,35.5461,平凉市,聚贤嘉苑,,31,31,47,11,21,25,,,,56,39,12,13,0.5,0.6
2025-01-02T0600,2657A,106.7021,35.5307,平凉市,博物馆,,43,43,55,21,27,36,,,,21,21,10,15,0.7,0.6
2025-01-02T0600,2347A,114.0997,27.5002,萍乡市,武功山,,44,44,63,27,53,52,,,,12,17,8,10,0.2,0.3
2025-01-02T0600,2348A,113.8385,27.6434,萍乡市,中医院,细颗粒物(PM2.5),109,125,152,82,94,11,,,,31,50,7,15,1.3,1.8
2025-01-02T0600,2349A,113.8493,27.6253,萍乡市,市政府车库,细颗粒物(PM2.5),128,97,124,97,106,28,,,,29,42,9,17,1.6,2.1
2025-01-02T0600,2350A,113.8676,27.6435,萍乡市,市环保局,细颗粒物(PM2.5),128,129,129,97,92,16,,,,57,57,17,22,1.4,1.5
2025-01-02T0600,2351A,113.866,27.6198,萍乡市,安源区政府,细颗粒物(PM2.5),125,126,130,95,93,14,,,,36,41,12,16,1.5,1.7
2025-01-02T0600,2319A,119.0141,25.4325,莆田市,荔城区仓后路,颗粒物(PM10),55,60,66,37,32,30,,,,31,20,1,2,0.7,0.7
2025-01-02T0600,2320A,119.0015,25.4553,莆田市,莆田市监测站,细颗粒物(PM2.5),57,40,57,40,27,65,,,,8,13,2,4,0.5,0.5
2025-01-02T0600,2321A,119.1119,25.4561,莆田市,涵江区六中,,45,45,61,22,26,56,,,,17,14,3,2,0.3,0.3
2025-01-02T0600,2322A,119.1013,25.3215,莆田市,秀屿区政府,,40,40,58,24,28,66,,,,19,18,2,3,0.5,0.6
2025-01-02T0600,2392A,115.0312,35.7636,濮阳市,环保局,细颗粒物(PM2.5),82,101,165,60,107,8,,,,56,57,5,8,1.5,1.4
2025-01-02T0600,2394A,115.0574,35.7609,濮阳市,油田运输公司,细颗粒物(PM2.5),89,106,176,66,105,2,,,,54,56,4,7,1.1,1.1
2025-01-02T0600,2395A,115.0866,35.7754,濮阳市,油田物探公司,细颗粒物(PM2.5),97,108,176,72,116,2,,,,57,58,5,8,1.2,1.1
2025-01-02T0600,3021A,115,35.7668,濮阳市,濮水河管理处,细颗粒物(PM2.5),87,122,194,64,108,2,,,,52,52,8,10,1.1,1.1
2025-01-02T0600,2601A,100.98,22.7633,普洱市,市环保局,,30,30,36,3,10,19,,,,6,9,5,5,0.5,0.5
2025-01-02T0600,2602A,100.9817,22.8322,普洱市,普洱第二中学,,20,20,30,11,16,12,,,,16,15,10,10,0.5,0.5
2025-01-02T0600,2262A,131.0518,45.8751,七台河市,新一中,细颗粒物(PM2.5),105,,70,79,56,44,,,,28,23,11,10,2.0,2
2025-01-02T0600,3345A,131.0577,45.7879,七台河市,中波台,细颗粒物(PM2.5),109,91,89,82,69,20,,,,45,41,11,14,1.3,1.3
2025-01-02T0600,3637A,131.0176,45.7761,七台河市,人民广场,细颗粒物(PM2.5),97,107,114,72,75,26,,,,40,46,6,8,1.0,1
2025-01-02T0600,3684A,130.8781,45.8222,七台河市,新建矿广场,细颗粒物(PM2.5),119,97,111,90,80,8,,,,51,51,67,11,0.7,0.9
2025-01-02T0600,1779A,123.9305,47.3636,齐齐哈尔市,安居小区,,22,22,50,12,41,51,,,,10,25,10,12,0.3,0.6
2025-01-02T0600,1780A,123.9488,47.3386,齐齐哈尔市,中心广场,,16,16,51,7,39,45,,,,12,24,4,6,0.3,0.6
2025-01-02T0600,1781A,123.9483,47.3227,齐齐哈尔市,农牧车辆厂,,28,24,46,19,42,31,,,,28,26,6,8,0.5,0.5
2025-01-02T0600,1783A,123.945,47.2988,齐齐哈尔市,市环境监测站,,37,37,66,21,53,34,,,,26,34,4,6,0.4,0.6
2025-01-02T0600,3662A,123.6333,47.2075,齐齐哈尔市,富区青少年活动中心,,32,23,60,22,48,41,,,,19,21,9,14,0.7,0.7
2025-01-02T0600,2591A,107.9783,26.5747,黔东南苗族侗族自治州,市环境监测站,细颗粒物(PM2.5),80,70,79,59,65,26,,,,20,28,6,9,0.8,1
2025-01-02T0600,2881A,107.8908,26.5311,黔东南苗族侗族自治州,凯里学院,细颗粒物(PM2.5),79,63,65,58,54,29,,,,15,20,4,6,0.9,1
2025-01-02T0600,2593A,107.5228,26.2403,黔南布依族苗族自治州,小围寨,细颗粒物(PM2.5),89,70,62,66,55,23,,,,22,22,7,9,1.0,0.9
2025-01-02T0600,3538A,107.5175,26.2978,黔南布依族苗族自治州,沙坝,细颗粒物(PM2.5),85,73,72,63,58,12,,,,22,26,6,8,0.8,0.8
2025-01-02T0600,2589A,104.9022,25.0925,黔西南布依族苗族自治州,场坝街,细颗粒物(PM2.5),84,71,78,62,65,6,,,,26,25,5,4,0.9,0.9
2025-01-02T0600,2590A,104.8811,25.0992,黔西南布依族苗族自治州,坪东大道,细颗粒物(PM2.5),78,65,74,57,66,2,,,,22,23,4,4,0.8,0.9
2025-01-02T0600,2502A,108.6236,21.9667,钦州市,市环保站,细颗粒物(PM2.5),138,149,147,105,82,59,,,,38,45,10,14,1.2,1.5
2025-01-02T0600,2503A,108.6549,21.9481,钦州市,沙埠小学,细颗粒物(PM2.5),133,127,127,101,83,36,,,,50,51,9,12,1.0,1.1
2025-01-02T0600,2504A,108.5989,21.7431,钦州市,港区一小,细颗粒物(PM2.5),123,111,125,93,78,66,,,,41,48,8,12,1.2,1.3
2025-01-02T0600,3404A,108.5959,21.9633,钦州市,北职校,颗粒物(PM10),88,125,138,3,42,32,,,,62,51,11,12,1.3,1.3
2025-01-02T0600,1042A,119.5134,39.8207,秦皇岛市,北戴河环保局,,24,24,30,15,16,54,,,,13,32,4,3,0.1,0.4
2025-01-02T0600,1043A,119.7493,40.0116,秦皇岛市,第一关,,25,25,27,17,23,17,,,,50,41,10,7,0.4,0.4
2025-01-02T0600,1044A,119.5897,39.9499,秦皇岛市,监测站,,41,41,45,19,25,30,,,,26,43,8,8,0.4,0.5
2025-01-02T0600,1046A,119.5251,39.9041,秦皇岛市,建设大厦,,49,49,51,29,30,8,,,,56,45,4,5,0.7,0.7
2025-01-02T0600,3132A,119.610547,39.943889,秦皇岛市,文明里,,42,35,49,29,29,42,,,,26,41,11,8,0.3,0.4
2025-01-02T0600,1310A,120.4134,36.0658,青岛市,市南区东部子站,颗粒物(PM10),103,156,137,73,61,5,,,,89,54,21,15,1.3,1
2025-01-02T0600,1312A,120.2994,36.054,青岛市,市南区西部子站,细颗粒物(PM2.5),135,166,126,103,63,6,,,,69,57,10,15,1.7,1.4
2025-01-02T0600,1314A,120.1983,35.9608,青岛市,黄岛区子站,细颗粒物(PM2.5),140,178,132,107,71,4,,,,93,53,13,14,1.6,1.3
2025-01-02T0600,1315A,120.3999,36.3083,青岛市,城阳区子站,颗粒物(PM10),81,112,168,59,75,26,,,,40,72,8,13,1.4,1.5
2025-01-02T0600,1966A,120.0405,35.8735,青岛市,黄岛区4号,细颗粒物(PM2.5),92,132,126,68,63,30,,,,64,54,9,16,1.3,1.3
2025-01-02T0600,3362A,120.5014,36.4034,青岛市,即墨2号,细颗粒物(PM2.5),88,101,147,65,82,26,,,,31,45,7,14,1.2,1.2
2025-01-02T0600,3642A,120.3503,36.0736,青岛市,市北区南部,细颗粒物(PM2.5),119,140,129,90,64,6,,,,76,54,7,12,1.6,1.2
2025-01-02T0600,3643A,120.3948,36.1805,青岛市,李沧区北部,细颗粒物(PM2.5),104,119,142,78,77,13,,,,72,58,10,17,1.6,1.4
2025-01-02T0600,1702A,113.0426,23.691,清远市,环保大楼,细颗粒物(PM2.5),72,70,74,52,55,71,,,,18,26,10,8,1.0,1
2025-01-02T0600,1703A,113.0208,23.7106,清远市,凤城街办,细颗粒物(PM2.5),79,79,74,58,53,12,,,,64,39,7,9,1.0,1
2025-01-02T0600,3025A,113.0477,23.6344,清远市,技师学院,细颗粒物(PM2.5),73,82,84,53,52,12,,,,56,48,10,11,0.7,0.7
2025-01-02T0600,3318A,112.9903,23.7403,清远市,清新太和,细颗粒物(PM2.5),62,67,68,44,43,70,,,,26,31,10,12,1.1,1.1
2025-01-02T0600,3455A,113.076,23.7198,清远市,清城东城,细颗粒物(PM2.5),64,61,66,46,43,66,,,,22,26,15,13,0.9,0.8
2025-01-02T0600,2661A,107.6325,35.7357,庆阳市,庆阳五中,颗粒物(PM10),53,55,55,24,25,65,,,,10,14,6,9,0.6,0.6
2025-01-02T0600,2662A,107.6364,35.7067,庆阳市,市环保局,颗粒物(PM10),56,62,54,24,21,62,,,,16,16,11,10,0.6,0.5
2025-01-02T0600,1916A,103.7897,25.5035,曲靖市,环境监测站,,46,46,36,32,20,28,,,,21,19,14,9,0.8,0.6
2025-01-02T0600,1917A,103.8,25.5364,曲靖市,烟厂办公区,,47,47,38,31,21,18,,,,25,17,5,5,0.4,0.2
2025-01-02T0600,3376A,103.7947,25.462,曲靖市,南苑二区,,42,42,30,26,19,35,,,,13,13,10,6,0.6,0.5
2025-01-02T0600,3377A,103.7444,25.5261,曲靖市,曲靖师范学院,细颗粒物(PM2.5),53,53,43,37,26,16,,,,34,25,20,15,0.7,0.6
2025-01-02T0600,1264A,118.8692,28.9398,衢州市,环保大楼,细颗粒物(PM2.5),80,95,125,59,78,4,,,,67,71,5,6,0.5,0.8
2025-01-02T0600,1265A,118.8709,28.9666,衢州市,实验学校,细颗粒物(PM2.5),73,70,97,53,70,6,,,,56,62,1,2,0.7,0.7
2025-01-02T0600,1266A,118.8621,28.9808,衢州市,衢州学院,,,83,101,58,67,5,,,,58,63,10,10,,0.7
2025-01-02T0600,1611A,118.5819,24.9117,泉州市,涂山街,颗粒物(PM10),60,70,68,42,31,62,,,,20,19,2,2,0.5,0.5
2025-01-02T0600,1612A,118.5972,24.8978,泉州市,津头埔,颗粒物(PM10),59,67,67,39,33,58,,,,23,23,2,3,0.4,0.4
2025-01-02T0600,1613A,118.6663,24.9424,泉州市,万安,颗粒物(PM10),58,65,66,36,28,36,,,,38,21,2,2,0.5,0.4
2025-01-02T0600,3529A,118.6333,24.9264,泉州市,城华南路,颗粒物(PM10),65,79,66,35,25,61,,,,16,22,3,4,0.4,0.5
2025-01-02T0600,2626A,88.8876,29.2718,日喀则市,日喀则监测站,,35,35,41,18,28,5,,,,44,37,5,8,1.2,1.2
2025-01-02T0600,3726A,88.8781,29.2426,日喀则市,林业技术推广中心,,13,13,28,7,16,34,,,,6,16,7,9,0.5,0.7
2025-01-02T0600,1659A,119.471,35.4209,日照市,监测站,细颗粒物(PM2.5),104,129,151,78,75,2,,,,61,70,11,19,2.0,1.7
2025-01-02T0600,1660A,119.523,35.4216,日照市,市政府广场,细颗粒物(PM2.5),110,129,131,83,69,4,,,,71,66,7,12,1.8,1.4
2025-01-02T0600,1661A,119.5587,35.4044,日照市,港务局,细颗粒物(PM2.5),114,144,139,86,70,4,,,,69,71,6,11,1.6,1.2
2025-01-02T0600,3507A,119.5328,35.4625,日照市,职业技术学院,细颗粒物(PM2.5),98,119,122,73,64,31,,,,44,55,6,13,1.6,1
2025-01-02T0600,3604A,119.3266,35.1044,日照市,岚山环保分局,细颗粒物(PM2.5),109,146,123,82,62,55,,,,43,48,21,17,1.5,1.1
2025-01-02T0600,1835A,111.1922,34.7752,三门峡市,市政府,细颗粒物(PM2.5),74,64,102,54,74,1,,,,60,66,14,19,1.0,1.1
2025-01-02T0600,1836A,111.1587,34.7942,三门峡市,开发区,细颗粒物(PM2.5),102,116,126,76,80,1,,,,56,50,4,8,1.0,0.9
2025-01-02T0600,1838A,111.143,34.7955,三门峡市,风景区,细颗粒物(PM2.5),94,99,110,70,74,0,,,,54,50,7,14,0.9,0.9
2025-01-02T0600,3039A,111.1911,34.7829,三门峡市,三门峡市第一小学,细颗粒物(PM2.5),69,80,109,50,80,1,,,,59,63,14,18,1.0,1.1
2025-01-02T0600,3598A,111.1,34.7167,三门峡市,富达温泉假日酒店,细颗粒物(PM2.5),114,122,139,86,86,2,,,,64,62,17,19,1.3,1.2
2025-01-02T0600,2324A,117.6211,26.2625,三明市,三钢,细颗粒物(PM2.5),69,,60,50,53,23,,,,19,26,2,5,0.7,0.8
2025-01-02T0600,2325A,117.635,26.2714,三明市,三明二中,细颗粒物(PM2.5),60,,57,43,46,14,,,,27,27,1,4,0.6,0.7
2025-01-02T0600,2326A,117.6028,26.2378,三明市,三元区政府,细颗粒物(PM2.5),57,55,67,40,46,10,,,,24,30,2,4,1.0,1
2025-01-02T0600,1876A,109.5078,18.2489,三亚市,河东子站,"颗粒物(PM10),细颗粒物(PM2.5)",52,53,50,36,33,99,,,,11,12,4,4,0.4,0.4
2025-01-02T0600,1877A,109.4964,18.2681,三亚市,河西子站,细颗粒物(PM2.5),59,50,45,42,36,90,,,,12,14,4,4,0.6,0.6
2025-01-02T0600,3540A,109.7348,18.3443,三亚市,君悦子站,颗粒物(PM10),57,63,62,38,35,90,,,,18,14,3,3,0.7,0.6
2025-01-02T0600,2624A,91.7608,29.2313,山南市,山南监测站,,15,10,19,10,13,48,,,,4,11,3,3,0.3,0.5
2025-01-02T0600,2625A,91.7706,29.2436,山南市,山南人民医院,,15,11,20,3,12,46,,,,14,12,2,2,0.3,0.4
2025-01-02T0600,1674A,116.6794,23.3667,汕头市,金平子站,细颗粒物(PM2.5),72,71,59,52,34,64,,,,31,24,7,6,0.9,0.8
2025-01-02T0600,1675A,116.7244,23.3633,汕头市,龙湖子站,颗粒物(PM10),60,70,59,30,28,71,,,,23,20,4,4,0.6,0.6
2025-01-02T0600,1676A,116.7258,23.2775,汕头市,濠江子站,细颗粒物(PM2.5),58,62,52,41,35,80,,,,14,14,5,4,0.8,0.8
2025-01-02T0600,1677A,116.7519,23.4714,汕头市,澄海子站,细颗粒物(PM2.5),83,72,58,61,38,64,,,,26,24,22,11,0.9,0.8
2025-01-02T0600,1678A,116.6092,23.2539,汕头市,潮阳子站,颗粒物(PM10),55,60,63,25,27,80,,,,17,18,7,7,0.6,0.5
2025-01-02T0600,3444A,116.454,23.2684,汕头市,潮南峡山,颗粒物(PM10),64,78,67,35,35,75,,,,19,22,9,10,0.9,0.8
2025-01-02T0600,3624A,116.4069,23.2533,汕头市,潮南子站,颗粒物(PM10),68,86,74,39,41,73,,,,23,23,10,10,1.0,0.7
2025-01-02T0600,1693A,115.3653,22.775,汕尾市,市环保局,细颗粒物(PM2.5),89,,49,66,49,56,,,,19,17,9,8,0.9,0.8
2025-01-02T0600,1694A,115.3706,22.7898,汕尾市,市政府,细颗粒物(PM2.5),88,,50,65,47,55,,,,15,13,9,9,0.8,0.8
2025-01-02T0600,1695A,115.3622,22.7925,汕尾市,新城中学,细颗粒物(PM2.5),92,,52,68,48,54,,,,17,14,8,8,0.9,0.8
2025-01-02T0600,2645A,109.9154,33.8715,商洛市,监测站,颗粒物(PM10),53,56,57,35,35,47,,,,25,28,2,4,0.6,0.6
2025-01-02T0600,3045A,109.9643,33.8471,商洛市,商州区中学,颗粒物(PM10),64,78,74,34,37,23,,,,44,40,7,7,0.7,0.7
2025-01-02T0600,2408A,115.6702,34.4285,商丘市,环境监测站,细颗粒物(PM2.5),220,240,175,170,141,13,,,,71,45,11,10,1.4,1.2
2025-01-02T0600,2409A,115.6458,34.4045,商丘市,粮食局,细颗粒物(PM2.5),204,215,167,154,126,9,,,,61,36,6,7,1.6,1.3
2025-01-02T0600,2410A,115.6293,34.3948,商丘市,睢阳区环保局,细颗粒物(PM2.5),214,222,167,164,138,10,,,,71,44,7,8,1.2,1
2025-01-02T0600,3171A,115.6071,34.4465,商丘市,梁园区档案局,细颗粒物(PM2.5),216,210,167,166,142,7,,,,69,43,6,7,1.3,1.1
