timepoint,stationcode,longitude,latitude,area,positionname,primarypollutant,aqi,pm10,pm10_24h,pm2_5,pm2_5_24h,o3,o3_24h,o3_8h,o3_8h_24h,no2,no2_24h,so2,so2_24h,co,co_24h
2025-04-11T0500,2566A,102.1879,31.914,阿坝藏族羌族自治州,州农科所,,20,12,21,6,8,63,,,,3,9,12,12,0.4,0.4
2025-04-11T0500,2568A,102.2502,31.8896,阿坝藏族羌族自治州,马师校,,22,20,20,13,14,70,,,,8,13,6,5,0.4,0.4
2025-04-11T0500,3994A,102.2165,31.9024,阿坝藏族羌族自治州,马尔康中学西区,,25,11,19,11,12,80,,,,4,10,3,3,0.3,0.6
2025-04-11T0500,2695A,80.292,41.1694,阿克苏地区,电视台,颗粒物(PM10),64,78,622,27,88,104,,,,2,8,6,7,0.6,0.5
2025-04-11T0500,2696A,80.2613,41.1551,阿克苏地区,艺术中心,颗粒物(PM10),64,78,657,33,99,103,,,,2,12,4,4,0.5,0.6
2025-04-11T0500,2204A,105.6467,38.8363,阿拉善盟,西城区西花园,颗粒物(PM10),97,143,119,38,34,108,,,,6,9,18,19,0.7,0.7
2025-04-11T0500,2205A,105.6985,38.8411,阿拉善盟,蒙二幼,颗粒物(PM10),106,162,137,45,39,99,,,,5,7,6,6,0.4,0.4
2025-04-11T0500,2206A,105.724,38.8516,阿拉善盟,环保局新楼,颗粒物(PM10),97,143,131,45,40,101,,,,3,4,9,9,0.5,0.4
2025-04-11T0500,2708A,88.1264,47.8517,阿勒泰地区,市站,,31,,11,7,5,98,,,,2,7,2,4,0.5,0.6
2025-04-11T0500,2630A,80.1161,32.5,阿里地区,阿里监测站,,38,8,9,6,6,121,,,,2,4,7,8,0.5,0.5
2025-04-11T0500,3192A,80.0903,32.5028,阿里地区,阿里藏医院,,34,15,13,6,5,108,,,,1,2,7,8,0.4,0.4
2025-04-11T0500,2642A,109.0318,32.6537,安康市,香溪洞,,44,44,51,22,22,73,,,,6,7,8,9,0.5,0.5
2025-04-11T0500,2644A,109.0072,32.6975,安康市,汉滨区检察院,,45,45,51,24,23,48,,,,10,12,9,14,0.3,0.3
2025-04-11T0500,4054A,109.0325,32.6913,安康市,市邮政管理局,颗粒物(PM10),52,53,54,23,23,37,,,,15,14,18,16,0.4,0.4
2025-04-11T0500,2291A,117.0809,30.5177,安庆市,环科院,细颗粒物(PM2.5),55,45,67,39,40,5,,,,95,47,9,8,0.7,0.7
2025-04-11T0500,2292A,117.0331,30.5119,安庆市,马山宾馆,,41,41,52,28,40,72,,,,20,35,4,5,0.7,0.7
2025-04-11T0500,2294A,116.9896,30.6145,安庆市,安庆大学,细颗粒物(PM2.5),58,59,67,41,40,20,,,,40,26,3,4,0.6,0.5
2025-04-11T0500,3173A,117.0598,30.5351,安庆市,市人大,,45,45,63,28,38,68,,,,19,23,6,7,0.6,0.6
2025-04-11T0500,3122A,105.9606,26.2611,安顺市,伍家关,,,,72,51,54,82,,,,2,4,2,3,0.7,0.8
2025-04-11T0500,3123A,105.9408,26.2431,安顺市,凤凰山,细颗粒物(PM2.5),57,48,46,40,37,88,,,,4,8,5,5,0.6,0.6
2025-04-11T0500,3124A,105.9439,26.2564,安顺市,金钟山,细颗粒物(PM2.5),60,48,47,43,39,90,,,,5,8,5,5,0.8,0.8
2025-04-11T0500,3125A,105.8983,26.2481,安顺市,娄家坡,细颗粒物(PM2.5),57,44,45,40,39,90,,,,4,7,5,5,0.7,0.8
2025-04-11T0500,1818A,114.4839,36.0621,安阳市,棉研所,,,,,,,,,,,,,,,,
2025-04-11T0500,1819A,114.3551,36.1017,安阳市,红庙街,颗粒物(PM10),82,113,101,57,58,78,,,,11,11,6,7,0.7,0.8
2025-04-11T0500,1820A,114.361,36.0681,安阳市,银杏小区,细颗粒物(PM2.5),102,120,107,76,66,77,,,,17,14,6,7,0.4,0.5
2025-04-11T0500,3141A,114.3922,36.0878,安阳市,信访局,"颗粒物(PM10),细颗粒物(PM2.5)",88,125,112,65,57,85,,,,17,15,4,4,0.5,0.6
2025-04-11T0500,3669A,114.4705,36.0637,安阳市,左辅环卫站,细颗粒物(PM2.5),108,141,127,81,66,81,,,,20,24,6,6,0.6,0.5
2025-04-11T0500,3703A,114.2917,36.0949,安阳市,安钢职工学校,颗粒物(PM10),80,109,118,57,62,76,,,,14,19,6,6,0.7,0.8
2025-04-11T0500,1748A,123.044,41.1196,鞍山市,深沟寺,颗粒物(PM10),52,54,64,30,39,109,,,,13,19,9,14,0.4,0.7
2025-04-11T0500,1749A,123.011,41.0931,鞍山市,太阳城,,48,48,65,27,41,131,,,,7,17,3,8,0.6,0.9
2025-04-11T0500,1750A,123.0485,41.1442,鞍山市,太平,颗粒物(PM10),52,54,70,31,40,107,,,,8,19,8,12,0.6,0.8
2025-04-11T0500,1751A,122.9642,41.0971,鞍山市,铁西三道街,颗粒物(PM10),55,59,76,30,47,131,,,,15,27,4,10,0.7,1
2025-04-11T0500,1753A,123.022,41.0821,鞍山市,明达新区,,44,44,63,26,41,133,,,,8,16,6,11,0.3,0.6
2025-04-11T0500,1754A,123.1289,41.0228,鞍山市,千山,,,,36,,23,,,94,,,13,,6,,0.9
2025-04-11T0500,4201A,122.9446,41.0826,鞍山市,兴盛南路290号,颗粒物(PM10),54,57,81,30,52,114,,,,26,25,12,13,1.3,0.9
2025-04-11T0500,2195A,107.4212,40.761,巴彦淖尔市,附二中,颗粒物(PM10),259,391,166,120,45,80,,,,4,7,7,6,0.3,0.3
2025-04-11T0500,2196A,107.37,40.7372,巴彦淖尔市,市环保大楼,颗粒物(PM10),275,402,171,121,53,76,,,,4,9,5,6,0.2,0.2
2025-04-11T0500,1956A,86.1472,41.7538,巴音郭楞蒙古自治州,孔雀公园,,35,28,267,9,45,111,,,,1,9,4,7,0.2,0.2
2025-04-11T0500,1957A,86.1972,41.7166,巴音郭楞蒙古自治州,棉纺厂,,,,447,,57,,,97,,,8,,3,,0.2
2025-04-11T0500,1958A,86.2357,41.7173,巴音郭楞蒙古自治州,经济开发区,颗粒物(PM10),67,84,207,3,25,106,,,,5,7,6,7,0.4,0.3
2025-04-11T0500,2914A,106.7677,31.8794,巴中市,苏山坪,,50,50,50,32,27,98,,,,6,7,4,4,0.4,0.3
2025-04-11T0500,3181A,106.7768,31.8526,巴中市,市五中,颗粒物(PM10),60,70,60,38,28,68,,,,6,19,6,6,0.6,0.6
2025-04-11T0500,3183A,106.7418,31.8654,巴中市,圣泉水务公司,颗粒物(PM10),52,54,54,29,28,76,,,,11,26,4,4,0.6,0.6
2025-04-11T0500,3616A,106.7616,31.8344,巴中市,市中心医院,颗粒物(PM10),53,56,58,24,30,81,,,,7,21,7,7,0.7,0.7
2025-04-11T0500,2235A,122.7911,45.6077,白城市,洮北区环保局,细颗粒物(PM2.5),134,143,85,102,56,48,,,,21,20,4,7,0.6,0.4
2025-04-11T0500,2236A,122.8738,45.5725,白城市,市环保局,细颗粒物(PM2.5),83,100,84,61,57,56,,,,20,18,6,7,0.7,0.5
2025-04-11T0500,2231A,126.4219,41.9171,白山市,喜丰,颗粒物(PM10),84,117,85,39,34,17,,,,40,31,17,15,1.0,1.1
2025-04-11T0500,2232A,126.4077,41.9419,白山市,环保局,颗粒物(PM10),53,56,66,34,33,32,,,,22,25,4,7,0.8,1
2025-04-11T0500,2647A,104.1724,36.5446,白银市,第三小学,颗粒物(PM10),73,95,144,21,36,111,,,,3,11,9,31,0.5,0.6
2025-04-11T0500,2648A,104.1465,36.5482,白银市,动力公司,颗粒物(PM10),68,86,125,26,38,111,,,,5,12,5,16,0.3,0.4
2025-04-11T0500,2512A,106.6103,23.9011,百色市,市监测站,细颗粒物(PM2.5),57,51,51,40,35,56,,,,13,14,20,14,0.8,0.7
2025-04-11T0500,2513A,106.6538,23.8859,百色市,市中心血站,细颗粒物(PM2.5),67,54,57,48,40,59,,,,12,15,13,11,0.9,0.8
2025-04-11T0500,3406A,106.6085,23.8798,百色市,祈福高中,细颗粒物(PM2.5),64,63,61,46,35,49,,,,16,16,16,11,1.0,0.8
2025-04-11T0500,2270A,117.396,32.939,蚌埠市,工人疗养院,细颗粒物(PM2.5),93,133,141,69,72,63,,,,34,26,8,7,0.8,0.8
2025-04-11T0500,2271A,117.3605,32.9427,蚌埠市,百货大楼,细颗粒物(PM2.5),94,125,139,70,77,56,,,,33,29,8,8,0.8,0.7
2025-04-11T0500,2273A,117.4185,32.8911,蚌埠市,蚌埠学院,细颗粒物(PM2.5),94,110,119,70,75,67,,,,17,23,5,8,0.8,0.8
2025-04-11T0500,2274A,117.3533,32.9673,蚌埠市,淮上区政府,,,119,128,74,75,47,,,,41,24,,7,0.7,0.7
2025-04-11T0500,2275A,117.3145,32.8977,蚌埠市,高新区,细颗粒物(PM2.5),98,102,119,73,74,71,,,,17,20,6,8,0.9,0.9
2025-04-11T0500,3715A,117.3092,32.9314,蚌埠市,蚌埠田家炳中学,细颗粒物(PM2.5),94,130,145,70,74,78,,,,20,26,7,8,0.7,0.6
2025-04-11T0500,1585A,109.8756,40.6532,包头市,市环境监测站,颗粒物(PM10),66,82,68,26,19,29,,,,50,32,23,18,1.0,0.6
2025-04-11T0500,1587A,109.9991,40.5842,包头市,包头八中,颗粒物(PM10),70,90,82,33,29,35,,,,44,33,12,20,0.5,0.6
2025-04-11T0500,1588A,109.8538,40.6821,包头市,青山宾馆,颗粒物(PM10),61,72,65,36,26,15,,,,60,31,17,16,1.2,0.7
2025-04-11T0500,1589A,109.8642,40.6288,包头市,惠龙物流,颗粒物(PM10),71,91,65,27,21,44,,,,32,25,20,18,0.8,0.7
2025-04-11T0500,1590A,110.0377,40.5546,包头市,东河鸿龙湾,颗粒物(PM10),68,85,71,20,17,40,,,,31,26,9,15,0.3,0.3
2025-04-11T0500,3283A,109.9154,40.5685,包头市,滨河大厦,颗粒物(PM10),61,72,60,18,18,25,,,,49,32,11,15,0.5,0.6
2025-04-11T0500,3419A,109.9447,40.6261,包头市,包头市委党校,颗粒物(PM10),72,93,66,20,21,38,,,,38,27,13,15,0.8,0.6
2025-04-11T0500,3683A,109.8331,40.6576,包头市,昆区政府,颗粒物(PM10),66,82,66,34,27,46,,,,33,31,19,12,1.0,0.8
2025-04-11T0500,1930A,107.185,34.3063,宝鸡市,庙沟村,颗粒物(PM10),83,116,110,48,40,95,,,,6,16,7,8,0.5,0.5
2025-04-11T0500,1931A,107.0708,34.3017,宝鸡市,竹园沟,颗粒物(PM10),101,152,118,44,44,55,,,,19,18,7,8,0.5,0.4
2025-04-11T0500,1932A,107.1906,34.3672,宝鸡市,三陆医院,颗粒物(PM10),73,96,110,44,45,54,,,,24,25,6,8,0.6,0.5
2025-04-11T0500,1933A,107.1431,34.3547,宝鸡市,监测站,颗粒物(PM10),72,93,126,40,59,50,,,,18,19,8,10,0.4,0.4
2025-04-11T0500,1934A,107.1186,34.3739,宝鸡市,技工学校,颗粒物(PM10),76,101,115,46,53,61,,,,15,15,8,9,0.6,0.5
2025-04-11T0500,1935A,107.3906,34.3528,宝鸡市,陈仓区环保局家属楼,颗粒物(PM10),77,103,116,42,42,67,,,,20,26,14,34,0.4,0.5
2025-04-11T0500,1936A,107.2058,34.3497,宝鸡市,文理学院,颗粒物(PM10),76,102,120,53,59,62,,,,19,23,6,8,0.5,0.5
2025-04-11T0500,1937A,107.2386,34.3622,宝鸡市,三迪小学,颗粒物(PM10),81,112,121,48,48,65,,,,20,26,7,8,0.5,0.5
2025-04-11T0500,1051A,115.493,38.8632,保定市,游泳馆,细颗粒物(PM2.5),123,141,93,93,50,4,,,,,33,8,7,0.3,0.3
2025-04-11T0500,1052A,115.5213,38.8959,保定市,华电二区,细颗粒物(PM2.5),84,113,80,62,52,43,,,,44,23,1,2,0.5,0.7
2025-04-11T0500,1053A,115.4713,38.9108,保定市,接待中心,细颗粒物(PM2.5),77,99,80,56,33,61,,,,30,17,5,4,0.5,0.5
2025-04-11T0500,1054A,115.4612,38.8416,保定市,地表水厂,细颗粒物(PM2.5),109,129,96,82,48,26,,,,69,32,6,6,0.7,0.6
2025-04-11T0500,3581A,115.31981,38.95208,保定市,满城区生态环境分局,细颗粒物(PM2.5),94,114,85,70,49,46,,,,38,22,6,6,0.4,0.4
2025-04-11T0500,3582A,115.47694,38.76408,保定市,清苑区第二中学,细颗粒物(PM2.5),94,124,110,70,52,34,,,,53,32,6,7,0.5,0.5
2025-04-11T0500,3583A,115.62909,39.02311,保定市,徐水物探局,细颗粒物(PM2.5),85,110,110,63,50,73,,,,25,26,12,11,0.3,0.4
2025-04-11T0500,4004A,115.4202,38.8656,保定市,双鹰农机,颗粒物(PM10),75,100,84,48,43,54,,,,56,26,8,7,0.4,0.4
2025-04-11T0500,4034A,115.5150,38.8590,保定市,植保所站,,,110,90,72,50,24,,,,,34,3,3,0.8,0.9
2025-04-11T0500,2594A,99.1678,25.1081,保山市,市环境监测站,颗粒物(PM10),55,60,73,35,47,98,,,,8,14,8,6,0.6,0.7
2025-04-11T0500,2595A,99.1711,25.1328,保山市,市环保局,细颗粒物(PM2.5),67,58,75,48,45,113,,,,6,11,6,6,0.7,0.7
2025-04-11T0500,1866A,109.2262,21.588,北海市,牛尾岭水库,,,32,31,22,22,38,,,,,17,6,6,0.6,0.7
2025-04-11T0500,1867A,109.1436,21.4086,北海市,海滩公园,颗粒物(PM10),53,56,41,24,22,47,,,,14,15,6,6,0.9,0.6
2025-04-11T0500,1868A,109.0981,21.4661,北海市,新市环保局,,47,47,42,31,24,53,,,,11,15,3,4,0.6,0.6
2025-04-11T0500,1869A,109.1778,21.5233,北海市,北海工业园,,49,49,48,29,29,52,,,,10,18,6,8,0.6,0.6
2025-04-11T0500,3400A,109.1911,21.4415,北海市,龙潭自来水厂,细颗粒物(PM2.5),63,48,39,45,30,51,,,,11,13,6,7,0.6,0.5
2025-04-11T0500,1001A,116.3621,39.8784,北京市,万寿西宫,细颗粒物(PM2.5),93,134,112,69,56,72,,,,35,37,8,8,0.8,0.8
2025-04-11T0500,1002A,116.2202,40.2915,北京市,定陵,,,,,,,,,,,,,,,,
2025-04-11T0500,1003A,116.4174,39.9289,北京市,东四,细颗粒物(PM2.5),95,136,122,71,60,64,,,,35,32,8,8,0.7,0.7
2025-04-11T0500,1004A,116.4072,39.8863,北京市,天坛,细颗粒物(PM2.5),90,118,105,67,54,41,,,,38,34,2,3,0.7,0.7
2025-04-11T0500,1005A,116.462,39.9365,北京市,农展馆,颗粒物(PM10),87,124,111,61,54,60,,,,38,30,8,9,0.8,0.9
2025-04-11T0500,1006A,116.3392,39.9295,北京市,官园,颗粒物(PM10),95,140,113,68,52,61,,,,22,31,7,9,0.6,0.6
2025-04-11T0500,1007A,116.2878,39.9611,北京市,海淀万柳,颗粒物(PM10),99,147,114,71,50,41,,,,45,36,5,6,0.7,0.7
2025-04-11T0500,1008A,116.6636,40.135,北京市,顺义新城,颗粒物(PM10),90,130,115,64,56,53,,,,40,31,7,9,0.6,0.6
2025-04-11T0500,1009A,116.6275,40.3275,北京市,怀柔镇,颗粒物(PM10),81,111,89,57,44,48,,,,27,29,5,5,0.6,0.6
2025-04-11T0500,1010A,116.2296,40.217,北京市,昌平镇,颗粒物(PM10),76,102,96,52,40,82,,,,16,30,2,3,0.5,0.6
2025-04-11T0500,1011A,116.3966,39.9821,北京市,奥体中心,细颗粒物(PM2.5),94,135,108,70,58,74,,,,33,37,4,4,0.9,0.9
2025-04-11T0500,3281A,115.9718,40.4529,北京市,延庆夏都,颗粒物(PM10),73,95,67,46,31,80,,,,19,17,6,7,0.5,0.5
2025-04-11T0500,3418A,116.8336,40.4095,北京市,密云新城,颗粒物(PM10),79,107,86,53,39,63,,,,19,21,5,6,0.5,0.5
2025-04-11T0500,3671A,116.088,39.9726,北京市,门头沟三家店,颗粒物(PM10),89,127,136,52,49,5,,,,70,41,5,5,0.6,0.5
2025-04-11T0500,3672A,116.1541,39.8204,北京市,丰台云岗,颗粒物(PM10),99,148,120,66,52,42,,,,47,46,8,9,0.7,0.6
2025-04-11T0500,3673A,116.6804,39.9081,北京市,通州东关,细颗粒物(PM2.5),105,152,122,79,63,44,,,,58,40,8,9,0.7,0.8
2025-04-11T0500,3674A,115.9577,39.7603,北京市,房山燕山,细颗粒物(PM2.5),78,88,97,57,65,67,,,,16,28,6,6,0.6,0.5
2025-04-11T0500,3675A,116.4672,39.7733,北京市,大兴旧宫,细颗粒物(PM2.5),90,125,107,67,52,56,,,,28,32,3,6,0.5,0.6
2025-04-11T0500,3694A,115.986,40.4563,北京市,延庆石河营,颗粒物(PM10),72,93,65,45,30,79,,,,16,17,5,5,0.5,0.4
2025-04-11T0500,3695A,116.6151,40.3053,北京市,怀柔新城,颗粒物(PM10),78,106,85,54,44,55,,,,16,19,2,4,0.8,0.7
2025-04-11T0500,3696A,116.2545,39.8768,北京市,丰台小屯,颗粒物(PM10),100,150,114,72,49,34,,,,49,45,2,3,0.5,0.5
2025-04-11T0500,3697A,116.84,40.3844,北京市,密云镇,颗粒物(PM10),85,119,86,53,39,58,,,,29,21,7,7,0.6,0.5
2025-04-11T0500,4182A,116.1942,39.9158,北京市,八角北路9号,颗粒物(PM10),103,156,122,71,61,27,,,,65,40,5,5,0.8,0.7
2025-04-11T0500,4194A,117.0790,40.1518,北京市,洳河巡河路,细颗粒物(PM2.5),83,102,87,61,50,96,,,,15,23,4,5,0.5,0.5
2025-04-11T0500,1761A,123.8275,41.3064,本溪市,大峪,,,,,,,,,,,,,,,,
2025-04-11T0500,1762A,123.7567,41.3325,本溪市,溪湖,颗粒物(PM10),57,64,71,39,43,122,,,,18,25,11,13,0.7,0.9
2025-04-11T0500,1763A,123.7169,41.3094,本溪市,彩屯,颗粒物(PM10),66,81,61,47,50,111,,,,25,30,17,17,1.9,2.1
2025-04-11T0500,1764A,123.7669,41.2864,本溪市,东明,,46,46,60,23,26,134,,,,9,23,8,11,0.6,1
2025-04-11T0500,1765A,123.7992,41.2664,本溪市,新立屯,,48,46,52,33,36,135,,,,11,23,8,8,0.5,0.6
2025-04-11T0500,1766A,123.8142,41.3472,本溪市,威宁,细颗粒物(PM2.5),78,99,79,57,35,92,,,,12,15,5,7,0.9,1
2025-04-11T0500,2587A,105.2864,27.3125,毕节市,八中,细颗粒物(PM2.5),62,55,72,44,57,57,,,,11,13,2,10,0.8,0.8
2025-04-11T0500,2588A,105.31,27.2944,毕节市,师专,细颗粒物(PM2.5),63,58,75,45,56,82,,,,11,16,8,12,0.7,0.7
2025-04-11T0500,4263A,105.3688,27.3598,毕节市,工业大道,细颗粒物(PM2.5),62,62,82,44,57,66,,,,17,16,9,11,0.8,0.9
2025-04-11T0500,1629A,118.0018,37.3617,滨州市,第二水厂,颗粒物(PM10),75,100,92,48,45,72,,,,34,32,13,12,0.9,0.8
2025-04-11T0500,1630A,117.9776,37.393,滨州市,北中新校,颗粒物(PM10),67,83,84,39,45,94,,,,24,34,16,14,0.7,0.7
2025-04-11T0500,3514A,117.9378,37.3956,滨州市,中海酒店,细颗粒物(PM2.5),70,70,71,51,48,107,,,,14,22,12,11,0.8,0.7
2025-04-11T0500,3515A,117.9378,37.3553,滨州市,开发区一中,颗粒物(PM10),68,85,89,39,52,92,,,,23,36,16,16,0.5,0.4
2025-04-11T0500,3516A,118.0917,37.694,滨州市,金海六路,"颗粒物(PM10),细颗粒物(PM2.5)",70,90,73,51,39,64,,,,30,30,10,10,0.7,0.5
2025-04-11T0500,4028A,117.9956,37.3753,滨州市,滨州市西街道办事处,细颗粒物(PM2.5),79,97,73,58,41,80,,,,34,26,10,9,0.7,0.5
2025-04-11T0500,2311A,115.8072,33.8399,亳州市,污水处理厂,颗粒物(PM10),67,83,129,47,73,82,,,,12,15,4,7,0.6,0.7
2025-04-11T0500,2312A,115.7789,33.8518,亳州市,三国揽胜宫,细颗粒物(PM2.5),84,64,107,62,73,86,,,,15,19,4,6,0.5,0.7
2025-04-11T0500,3332A,115.7633,33.8034,亳州市,亳州学院,细颗粒物(PM2.5),85,111,143,63,66,91,,,,12,13,6,8,0.6,0.7
2025-04-11T0500,2693A,82.0485,44.8556,博尔塔拉蒙古自治州,市党校,,47,47,51,18,13,61,,,,19,24,3,2,0.4,0.3
2025-04-11T0500,2694A,82.0806,44.8969,博尔塔拉蒙古自治州,市环保局,,43,43,61,10,13,53,,,,13,14,3,2,0.4,0.3
2025-04-11T0500,1071A,116.8842,38.2991,沧州市,沧县城建局,细颗粒物(PM2.5),82,107,86,60,50,76,,,,24,21,8,6,0.5,0.3
2025-04-11T0500,1072A,116.8584,38.3254,沧州市,电视转播站,细颗粒物(PM2.5),94,109,90,70,57,75,,,,25,19,11,5,0.5,0.3
2025-04-11T0500,1073A,116.8709,38.3228,沧州市,市环保局,细颗粒物(PM2.5),94,110,84,70,55,90,,,,19,18,7,6,0.6,0.4
2025-04-11T0500,3324A,116.8136,38.3004,沧州市,河北水利电力学院,细颗粒物(PM2.5),92,114,90,68,57,84,,,,23,22,10,9,0.7,0.4
2025-04-11T0500,2622A,97.1806,31.1273,昌都市,昌都监测站,,25,12,12,3,7,79,,,,3,5,2,2,0.3,0.3
2025-04-11T0500,3719A,97.1714,31.1406,昌都市,昌都会议中心,,27,7,11,6,11,85,,,,4,5,3,4,0.3,0.3
2025-04-11T0500,2690A,88.1236,43.8886,昌吉回族自治州,天山天池,,14,7,11,3,5,42,,,,5,5,3,4,0.5,0.5
2025-04-11T0500,2692A,87.2717,44.0297,昌吉回族自治州,新区政务中心,,22,22,17,11,8,54,,,,12,7,3,5,0.3,0.3
2025-04-11T0500,3613A,87.3095,44.0142,昌吉回族自治州,亚心广场,,36,36,22,7,5,54,,,,12,10,7,7,0.4,0.4
2025-04-11T0500,1119A,125.3325,43.9166,长春市,食品厂,细颗粒物(PM2.5),69,74,96,50,64,105,,,,21,25,10,10,0.5,0.7
2025-04-11T0500,1120A,125.2863,43.9027,长春市,客车厂,颗粒物(PM10),56,61,91,39,65,111,,,,16,26,8,8,0.5,0.7
2025-04-11T0500,1121A,125.2841,43.8463,长春市,邮电学院,细颗粒物(PM2.5),68,69,96,49,65,110,,,,18,23,8,9,0.5,0.6
2025-04-11T0500,1122A,125.3716,43.8772,长春市,劳动公园,细颗粒物(PM2.5),77,66,86,56,62,101,,,,16,19,9,9,0.7,0.8
2025-04-11T0500,1123A,125.3297,43.8805,长春市,园林处,细颗粒物(PM2.5),64,66,87,46,61,106,,,,17,19,9,10,0.5,0.7
2025-04-11T0500,1124A,125.4605,43.79,长春市,净月潭,细颗粒物(PM2.5),70,76,93,51,66,102,,,,12,19,8,9,0.4,0.6
2025-04-11T0500,1125A,125.7194,43.515,长春市,甩湾子,,,,,,,,,,,,,,,,
2025-04-11T0500,1126A,125.3863,43.8447,长春市,经开区环卫处,细颗粒物(PM2.5),74,67,99,54,63,88,,,,16,23,8,8,0.6,0.7
2025-04-11T0500,1127A,125.245,43.7783,长春市,高新区管委会,细颗粒物(PM2.5),59,58,86,42,67,108,,,,14,23,9,10,0.5,0.7
2025-04-11T0500,1128A,125.1761,43.8325,长春市,岱山公园,细颗粒物(PM2.5),62,49,97,44,73,108,,,,26,35,7,8,0.5,0.7
2025-04-11T0500,1335A,113.0833,28.2325,长沙市,经开区环保局,细颗粒物(PM2.5),58,50,56,41,37,74,,,,13,20,6,7,0.7,0.7
2025-04-11T0500,1336A,112.8872,28.2189,长沙市,高开区环保局,,49,49,67,33,45,91,,,,6,20,5,5,1.0,1
2025-04-11T0500,1337A,113.0792,28.2053,长沙市,马坡岭,细颗粒物(PM2.5),54,51,61,38,39,74,,,,13,25,4,4,0.7,0.6
2025-04-11T0500,1338A,112.9394,28.19,长沙市,湖南师范大学,,46,42,58,32,39,67,,,,10,17,6,5,0.7,0.8
2025-04-11T0500,1339A,113.0178,28.1322,长沙市,雨花区环保局,,48,47,56,33,38,87,,,,9,18,5,5,0.7,0.6
2025-04-11T0500,1340A,112.9792,28.2597,长沙市,伍家岭,"颗粒物(PM10),细颗粒物(PM2.5)",53,56,71,37,42,58,,,,23,31,3,3,1.0,1
2025-04-11T0500,1341A,113.0014,28.1944,长沙市,火车新站,,47,47,66,29,39,85,,,,10,26,7,7,0.8,0.8
2025-04-11T0500,1342A,112.9844,28.1178,长沙市,天心区环保局,细颗粒物(PM2.5),57,46,60,40,42,88,,,,10,23,4,4,0.7,0.7
2025-04-11T0500,1343A,112.8908,28.1308,长沙市,湖南中医药大学,细颗粒物(PM2.5),58,59,74,41,49,49,,,,28,38,3,3,0.8,0.9
2025-04-11T0500,1344A,112.9581,28.3611,长沙市,沙坪,颗粒物(PM10),55,59,100,35,33,68,,,,8,12,6,6,0.9,0.8
2025-04-11T0500,1727A,113.1147,36.1547,长治市,清华站,颗粒物(PM10),60,70,56,31,19,110,,,,13,17,7,7,0.9,0.8
2025-04-11T0500,1730A,113.0886,36.2125,长治市,审计局,颗粒物(PM10),59,67,49,29,23,108,,,,17,25,11,11,0.5,0.3
2025-04-11T0500,1731A,113.0844,36.1856,长治市,长治八中,颗粒物(PM10),67,83,63,37,42,91,,,,19,23,11,12,0.6,0.5
2025-04-11T0500,2845A,113.1569,36.1911,长治市,德盛苑,颗粒物(PM10),59,67,45,34,19,130,,,,9,12,7,7,0.5,0.4
2025-04-11T0500,3568A,113.06,36.0464,长治市,向阳小学,颗粒物(PM10),69,87,66,30,25,128,,,,14,17,14,12,0.6,0.4
2025-04-11T0500,3569A,112.8792,36.3144,长治市,屯留一中,,46,46,43,3,15,4,,,,76,28,9,9,0.4,0.3
2025-04-11T0500,4189A,113.1131,36.19948,长治市,英华南巷50号,颗粒物(PM10),62,74,56,29,21,114,,,,16,23,7,8,0.6,0.6
2025-04-11T0500,4190A,113.2367,36.3344,长治市,学府街1号,颗粒物(PM10),72,93,82,46,27,47,,,,55,39,19,9,1.9,0.9
2025-04-11T0500,1854A,111.6975,28.9703,常德市,市二中,细颗粒物(PM2.5),83,,49,61,45,39,,,,19,17,11,10,1.0,1
2025-04-11T0500,1857A,111.7158,29.1456,常德市,白鹤山,,,,,,,,,,,,,,,,
2025-04-11T0500,3138A,111.7153,29.0289,常德市,武陵区永安,细颗粒物(PM2.5),78,70,62,57,44,59,,,,15,14,13,5,0.9,0.9
2025-04-11T0500,3139A,111.6892,28.9881,常德市,鼎城区玉霞,细颗粒物(PM2.5),73,73,60,53,44,44,,,,17,18,9,7,1.0,1
2025-04-11T0500,3140A,111.6625,29.0531,常德市,武陵区长庚,细颗粒物(PM2.5),74,65,60,54,46,56,,,,16,16,13,9,1.0,1
2025-04-11T0500,1196A,119.9633,31.762,常州市,市监测站,颗粒物(PM10),91,132,163,63,82,71,,,,40,60,11,15,1.0,1.4
2025-04-11T0500,1200A,119.9468,31.7069,常州市,武进监测站,颗粒物(PM10),89,128,154,38,60,93,,,,23,56,10,17,0.3,0.8
2025-04-11T0500,1201A,119.9255,31.9087,常州市,安家,细颗粒物(PM2.5),97,139,157,72,75,21,,,,51,47,10,14,0.4,0.8
2025-04-11T0500,3002A,119.9805,31.8174,常州市,行政中心,细颗粒物(PM2.5),93,107,130,69,79,20,,,,69,52,18,24,0.8,1.2
2025-04-11T0500,3003A,120.0522,31.7748,常州市,经开区,颗粒物(PM10),89,127,126,64,73,11,,,,77,56,12,16,0.8,1.2
2025-04-11T0500,3010A,119.9025,31.7964,常州市,钟楼,颗粒物(PM10),84,117,153,50,78,80,,,,25,50,8,13,1.0,1.2
2025-04-11T0500,3429A,119.8598,31.7066,常州市,武进经发区,颗粒物(PM10),84,117,136,61,69,88,,,,26,53,10,14,0.8,1.2
2025-04-11T0500,3430A,119.5826,31.7245,常州市,金坛城区,细颗粒物(PM2.5),59,,48,42,45,86,,,,17,29,9,11,0.7,1
2025-04-11T0500,2220A,120.4318,41.5881,朝阳市,西梁,,45,44,52,31,28,112,,,,13,16,18,16,0.5,0.8
2025-04-11T0500,2221A,120.4521,41.5646,朝阳市,河畔小区,,41,38,47,27,25,130,,,,11,14,14,10,0.6,0.6
2025-04-11T0500,2222A,120.4176,41.5648,朝阳市,八里堡,,43,39,53,30,30,111,,,,14,17,13,16,0.7,1
2025-04-11T0500,2223A,120.3806,41.5969,朝阳市,农业园区,细颗粒物(PM2.5),54,41,58,38,34,100,,,,19,15,14,12,0.8,0.7
2025-04-11T0500,1705A,116.6367,23.6719,潮州市,西园路,,,,,,,,,,,,,,,,
2025-04-11T0500,3026A,116.6183,23.6608,潮州市,市政府,细颗粒物(PM2.5),54,,51,38,30,40,,,,14,21,5,8,0.8,0.9
2025-04-11T0500,4036A,116.6461,23.6761,潮州市,金山,细颗粒物(PM2.5),54,,47,38,34,38,,,,14,22,8,11,0.6,0.7
2025-04-11T0500,2472A,113.0073,25.9061,郴州市,马头岭,,46,46,33,20,12,73,,,,11,15,9,8,0.9,0.9
2025-04-11T0500,2473A,113.0116,25.8226,郴州市,市职中,,49,42,38,34,26,17,,,,17,17,3,4,0.8,0.7
2025-04-11T0500,2475A,113.0383,25.8071,郴州市,市审计局,,49,47,29,34,20,78,,,,11,12,3,2,0.7,0.6
2025-04-11T0500,2476A,113.0348,25.7759,郴州市,市环保局,细颗粒物(PM2.5),59,50,30,42,22,75,,,,8,12,5,4,0.7,0.6
2025-04-11T0500,4252A,113.0138,25.8011,郴州市,好美居路49号,颗粒物(PM10),51,51,34,33,22,70,,,,11,18,5,3,0.9,0.9
2025-04-11T0500,1431A,103.9728,30.7236,成都市,金泉两河,细颗粒物(PM2.5),70,86,83,51,34,94,,,,18,21,5,4,1.0,0.9
2025-04-11T0500,1432A,104.176,30.6872,成都市,十里店,颗粒物(PM10),75,100,105,44,39,82,,,,27,27,7,5,0.8,0.8
2025-04-11T0500,1433A,104.079,30.5706,成都市,三瓦窑,细颗粒物(PM2.5),88,105,90,65,42,59,,,,48,39,8,6,0.7,0.7
2025-04-11T0500,1434A,104.1114,30.63,成都市,沙河铺,细颗粒物(PM2.5),103,106,86,77,44,67,,,,32,30,8,6,0.9,0.9
2025-04-11T0500,1437A,104.0786,30.6531,成都市,君平街,细颗粒物(PM2.5),83,78,81,61,44,102,,,,21,29,10,8,0.8,0.8
2025-04-11T0500,1438A,103.613,31.0283,成都市,灵岩寺,,,,,,,,,,,,,,,,
2025-04-11T0500,2880A,104.0239,30.65639,成都市,大石西路,细颗粒物(PM2.5),78,80,86,57,43,105,,,,19,29,7,6,0.7,0.7
2025-04-11T0500,3136A,104.2725,30.5589,成都市,龙泉驿区区政府,颗粒物(PM10),56,61,72,39,32,61,,,,23,22,5,5,0.7,0.7
2025-04-11T0500,3357A,104.0106,30.6931,成都市,金博路,颗粒物(PM10),60,70,75,39,34,96,,,,21,32,10,9,0.5,0.6
2025-04-11T0500,3359A,104.0578,30.5225,成都市,华阳,细颗粒物(PM2.5),83,85,79,61,49,56,,,,41,35,6,6,1.2,1.2
2025-04-11T0500,3488A,104.3853,30.7453,成都市,青白江技师分院,颗粒物(PM10),59,67,74,41,34,42,,,,45,41,8,8,0.6,0.6
2025-04-11T0500,3489A,104.0789,30.4072,成都市,科学城,细颗粒物(PM2.5),73,90,80,53,47,88,,,,24,28,6,6,0.8,0.8
2025-04-11T0500,4011A,103.8506,30.6947,成都市,光华大道三段,颗粒物(PM10),63,76,74,43,35,95,,,,22,22,4,3,0.8,0.8
2025-04-11T0500,4224A,104.2433,30.5353,成都市,鲸龙路1057号,细颗粒物(PM2.5),80,97,86,59,44,76,,,,31,33,6,5,1.4,1
2025-04-11T0500,1062A,117.9531,40.9081,承德市,铁路,颗粒物(PM10),67,84,58,46,24,113,,,,19,22,10,9,0.5,0.4
2025-04-11T0500,1063A,117.9392,40.9763,承德市,中国银行,颗粒物(PM10),57,63,58,30,22,72,,,,18,14,4,5,0.4,0.4
2025-04-11T0500,1064A,117.9503,40.928,承德市,开发区,颗粒物(PM10),55,60,53,36,24,97,,,,13,17,9,10,0.5,0.4
2025-04-11T0500,1065A,117.8051,40.9655,承德市,文化中心,颗粒物(PM10),73,95,66,36,30,81,,,,22,22,5,10,0.4,0.5
2025-04-11T0500,1066A,117.9268,41.0026,承德市,离宫,细颗粒物(PM2.5),67,68,50,48,30,65,,,,11,12,27,28,0.4,0.4
2025-04-11T0500,2314A,117.47,30.6618,池州市,池州学院,颗粒物(PM10),51,52,68,28,34,61,,,,15,17,5,7,1.0,0.7
2025-04-11T0500,3237A,117.4918,30.6617,池州市,展览馆,颗粒物(PM10),52,54,68,27,31,24,,,,25,20,4,6,1.1,0.8
2025-04-11T0500,3333A,117.5627,30.695,池州市,第八中学,颗粒物(PM10),56,62,72,34,34,58,,,,16,19,5,8,0.6,0.6
2025-04-11T0500,3334A,117.5038,30.6243,池州市,第十二中学,颗粒物(PM10),53,55,69,32,35,50,,,,22,19,5,6,1.3,0.8
2025-04-11T0500,1744A,118.9233,42.2816,赤峰市,松山一中,颗粒物(PM10),64,78,47,26,16,129,,,,21,23,11,9,0.6,0.5
2025-04-11T0500,1745A,118.9576,42.2728,赤峰市,哈达街,颗粒物(PM10),59,68,41,32,19,122,,,,17,19,10,10,0.6,0.5
2025-04-11T0500,1746A,118.8788,42.2554,赤峰市,天义路,细颗粒物(PM2.5),58,64,32,41,20,126,,,,16,17,8,7,0.4,0.4
2025-04-11T0500,3058A,119.2658,42.0353,赤峰市,银河街,颗粒物(PM10),73,96,71,45,34,93,,,,17,20,19,22,0.6,0.5
2025-04-11T0500,3286A,118.9359,42.3147,赤峰市,桥北物流园区,"颗粒物(PM10),细颗粒物(PM2.5)",64,77,40,46,26,120,,,,12,22,8,8,0.7,0.5
2025-04-11T0500,2521A,107.3476,22.4136,崇左市,市环保局江州分局,,40,40,42,26,29,21,,,,28,9,5,6,0.7,0.7
2025-04-11T0500,4256A,107.3750,22.3736,崇左市,石景林东路7号,,24,24,37,15,28,50,,,,11,9,4,5,0.7,0.7
2025-04-11T0500,2298A,118.3093,32.3153,滁州市,老年大学,细颗粒物(PM2.5),108,100,101,81,67,36,,,,28,24,6,7,0.5,0.5
2025-04-11T0500,2299A,118.3244,32.2786,滁州市,人大宾馆,细颗粒物(PM2.5),99,101,112,74,66,18,,,,72,44,9,11,0.5,0.6
2025-04-11T0500,3207A,118.3118,32.3038,滁州市,市政府原办公楼,细颗粒物(PM2.5),93,93,103,69,68,33,,,,39,24,5,5,0.5,0.6
2025-04-11T0500,3331A,118.3267,32.2634,滁州市,图书馆,细颗粒物(PM2.5),108,113,115,81,67,32,,,,41,27,8,10,0.6,0.7
2025-04-11T0500,2605A,101.5482,25.0441,楚雄彝族自治州,州环境监测站,,49,38,49,34,39,132,,,,6,12,8,8,0.6,0.6
2025-04-11T0500,2606A,101.538,25.0492,楚雄彝族自治州,市经济开发区,,50,37,51,35,40,128,,,,6,13,7,7,0.6,0.7
2025-04-11T0500,2548A,107.5277,31.2827,达州市,达州职业技术学院,,30,30,55,21,22,57,,,,10,27,7,8,0.4,0.4
2025-04-11T0500,2549A,107.5086,31.2186,达州市,市环境监测站,,41,41,58,14,22,74,,,,13,34,6,6,0.5,0.7
2025-04-11T0500,2550A,107.4988,31.2132,达州市,凤凰小区,,34,34,53,19,23,79,,,,12,32,8,9,0.4,0.5
2025-04-11T0500,2551A,107.5082,31.1986,达州市,达县机关宾馆,,34,34,56,18,21,68,,,,11,41,6,7,0.4,0.5
2025-04-11T0500,2552A,107.4644,31.2124,达州市,市政中心,,36,36,60,14,21,70,,,,12,38,4,4,0.4,0.6
2025-04-11T0500,2614A,100.1542,25.7054,大理白族自治州,大理市环境监测站,,,40,42,31,24,,,,,8,9,7,7,0.0,0.2
2025-04-11T0500,2615A,100.2171,25.5811,大理白族自治州,大理古城,,46,,40,32,29,116,,,,6,9,7,7,0.6,0.6
2025-04-11T0500,1109A,121.612,38.9741,大连市,甘井子,,49,49,52,30,34,115,,,,21,32,7,6,0.4,0.5
2025-04-11T0500,1110A,121.565,38.9511,大连市,周水子,,45,42,51,31,37,107,,,,19,31,15,11,0.3,0.4
2025-04-11T0500,1111A,121.5637,38.8845,大连市,星海三站,细颗粒物(PM2.5),53,48,52,37,41,100,,,,9,22,7,8,0.3,0.5
2025-04-11T0500,1112A,121.6302,38.9117,大连市,青泥洼桥,,43,43,39,28,28,112,,,,18,19,10,9,0.4,0.4
2025-04-11T0500,1113A,121.6251,38.8638,大连市,傅家庄,,49,45,46,34,35,91,,,,29,33,8,8,0.3,0.3
2025-04-11T0500,1114A,121.5213,38.8661,大连市,七贤岭,细颗粒物(PM2.5),53,53,46,37,32,89,,,,20,27,6,6,0.3,0.4
2025-04-11T0500,1115A,121.2529,38.8061,大连市,旅顺,,45,36,43,31,37,97,,,,21,29,7,7,0.5,0.5
2025-04-11T0500,1116A,121.7485,39.1311,大连市,金州,,40,33,43,26,34,125,,,,19,27,10,9,0.4,0.5
2025-04-11T0500,1117A,121.7811,39.0496,大连市,开发区,,46,46,49,31,32,87,,,,30,28,10,10,0.8,0.8
2025-04-11T0500,1118A,121.9762,39.0631,大连市,双D港,细颗粒物(PM2.5),58,51,46,41,36,70,,,,31,33,15,18,0.4,0.6
2025-04-11T0500,1789A,124.81117,46.03138,大庆市,大同区,细颗粒物(PM2.5),304,303,148,254,114,41,,,,31,25,8,9,1.3,0.8
2025-04-11T0500,1790A,125.129,46.533,大庆市,龙凤区,"颗粒物(PM10),细颗粒物(PM2.5)",62,73,140,44,99,54,,,,20,30,7,9,0.6,0.9
2025-04-11T0500,1791A,124.902,46.408,大庆市,红岗区,细颗粒物(PM2.5),104,99,112,78,97,50,,,,20,21,9,10,0.6,0.7
2025-04-11T0500,1792A,125.153,46.586,大庆市,萨尔图区,细颗粒物(PM2.5),68,66,156,49,131,62,,,,16,31,10,12,0.5,0.8
2025-04-11T0500,1793A,124.9042,46.6215,大庆市,让胡路区,细颗粒物(PM2.5),64,53,155,46,135,58,,,,15,29,7,10,0.4,0.7
2025-04-11T0500,3481A,125.141,46.634,大庆市,萨区政府监测点,颗粒物(PM10),55,59,171,31,122,60,,,,12,28,7,11,0.5,0.8
2025-04-11T0500,1721A,113.3819,40.1097,大同市,果树场,颗粒物(PM10),51,52,53,13,24,8,,,,34,31,8,13,0.5,0.6
2025-04-11T0500,1723A,113.2994,40.0758,大同市,云冈宾馆,颗粒物(PM10),61,71,51,16,22,62,,,,31,29,15,14,0.3,0.4
2025-04-11T0500,1724A,113.3444,40.0917,大同市,大同大学,颗粒物(PM10),66,82,54,19,23,40,,,,43,24,18,18,0.4,0.6
2025-04-11T0500,1725A,113.2661,40.1269,大同市,安家小村,颗粒物(PM10),63,76,64,23,24,77,,,,12,23,22,17,0.4,0.8
2025-04-11T0500,1726A,113.2711,40.0844,大同市,教育学院,颗粒物(PM10),59,68,62,13,24,64,,,,24,29,15,13,0.4,0.7
2025-04-11T0500,3282A,113.3397,40.0597,大同市,大同市卫生学校,颗粒物(PM10),73,96,61,38,26,41,,,,47,33,19,13,0.7,0.7
2025-04-11T0500,3565A,113.1367,40.1122,大同市,云冈站,颗粒物(PM10),52,54,48,14,19,42,,,,19,19,14,14,0.4,0.4
2025-04-11T0500,3566A,113.1186,40.2556,大同市,图书馆,,50,50,37,17,18,38,,,,7,13,9,12,0.3,0.5
2025-04-11T0500,3567A,113.5931,40.0461,大同市,区一中,颗粒物(PM10),62,73,61,26,21,44,,,,24,23,32,23,0.6,0.5
2025-04-11T0500,4199A,113.2798,40.0997,大同市,魏都大道141号,颗粒物(PM10),62,73,72,22,24,42,,,,53,33,21,18,0.4,0.7
2025-04-11T0500,2269A,124.1069,50.4097,大兴安岭地区,科技局,,22,18,21,14,17,68,,,,4,4,2,3,0.2,0.3
2025-04-11T0500,3663A,124.1164,50.4278,大兴安岭地区,红旗社区,,22,,9,3,6,69,,,,2,5,4,4,0.2,0.3
2025-04-11T0500,1600A,124.3303,40.0625,丹东市,江湾东路,细颗粒物(PM2.5),83,68,53,61,43,33,,,,25,21,8,9,0.9,0.6
2025-04-11T0500,1601A,124.4256,40.1503,丹东市,临江后街,细颗粒物(PM2.5),78,84,49,57,36,20,,,,34,17,5,6,1.1,0.9
2025-04-11T0500,1602A,124.3933,40.1461,丹东市,元宝山,细颗粒物(PM2.5),64,57,40,46,32,45,,,,25,16,6,7,0.7,0.6
2025-04-11T0500,1603A,124.3633,40.1092,丹东市,民主桥,细颗粒物(PM2.5),59,51,43,42,33,14,,,,54,18,8,8,1.0,0.9
2025-04-11T0500,3541A,109.5726,19.5167,儋州市,第一中学子站,,49,45,35,34,23,41,,,,11,7,5,5,0.7,0.6
2025-04-11T0500,3542A,109.5567,19.5187,儋州市,东坡学校子站,,44,44,38,25,20,36,,,,11,7,7,5,0.7,0.5
2025-04-11T0500,2616A,98.5842,24.428,德宏傣族景颇族自治州,德宏州监测站,细颗粒物(PM2.5),93,85,95,69,71,22,,,,38,26,12,10,0.9,0.9
2025-04-11T0500,3677A,98.5881,24.4368,德宏傣族景颇族自治州,芒市人民政府综合楼,细颗粒物(PM2.5),107,124,115,80,73,30,,,,33,21,22,9,1.0,0.9
2025-04-11T0500,1901A,104.4239,31.1208,德阳市,东山公园,颗粒物(PM10),61,71,77,37,34,85,,,,16,17,5,5,0.6,0.5
2025-04-11T0500,1902A,104.3826,31.1317,德阳市,西小区,颗粒物(PM10),67,83,87,45,39,90,,,,17,28,6,6,0.7,0.7
2025-04-11T0500,1904A,104.3553,31.1091,德阳市,耐火材料厂,颗粒物(PM10),63,76,91,42,39,96,,,,18,27,9,8,0.6,0.6
2025-04-11T0500,3639A,104.4019,31.1244,德阳市,市教育局,细颗粒物(PM2.5),64,70,76,46,38,90,,,,17,24,6,7,0.8,0.7
2025-04-11T0500,1622A,116.3032,37.4674,德州市,儿童乐园,细颗粒物(PM2.5),92,129,114,68,57,95,,,,18,19,12,9,0.8,0.6
2025-04-11T0500,1624A,116.2991,37.4451,德州市,监理站,细颗粒物(PM2.5),100,117,113,75,57,92,,,,18,21,17,13,0.7,0.5
2025-04-11T0500,3066A,116.2721,37.4379,德州市,九衢泉纯净水厂,颗粒物(PM10),85,119,108,58,49,82,,,,29,30,12,11,1.0,0.8
2025-04-11T0500,3371A,116.3728,37.4403,德州市,开发区人民医院,颗粒物(PM10),84,117,114,56,49,112,,,,15,22,10,10,0.8,0.7
2025-04-11T0500,3372A,116.3572,37.4094,德州市,太阳城中学,细颗粒物(PM2.5),83,112,113,61,57,92,,,,15,23,8,8,0.4,0.6
2025-04-11T0500,3511A,116.5652,37.3319,德州市,陵城艺术中心,细颗粒物(PM2.5),79,100,106,58,60,91,,,,19,25,2,8,0.8,0.8
2025-04-11T0500,2621A,99.7056,27.8317,迪庆藏族自治州,迪庆州站,,40,26,43,17,24,125,,,,7,11,8,9,0.5,0.5
2025-04-11T0500,3180A,99.7136,27.8094,迪庆藏族自治州,质量技术监督局,,40,19,34,17,21,126,,,,6,11,9,9,0.5,0.6
2025-04-11T0500,4257A,104.6092,35.5962,定西市,将台街,颗粒物(PM10),104,158,98,44,25,112,,,,5,13,6,6,0.3,0.4
2025-04-11T0500,4309A,104.6159,35.5701,定西市,正龙路62号,颗粒物(PM10),110,169,99,36,29,109,,,,2,8,9,11,0.2,0.3
2025-04-11T0500,1389A,113.7547,23.0494,东莞市,莞城梨川,,50,50,41,30,26,16,,,,32,21,5,5,0.6,0.6
2025-04-11T0500,1390A,113.7944,23.0128,东莞市,东城石井,,39,39,34,19,20,21,,,,19,20,5,6,0.6,0.6
2025-04-11T0500,1391A,113.7383,22.9658,东莞市,南城西平,,37,37,33,19,18,37,,,,19,17,6,6,0.6,0.6
2025-04-11T0500,3319A,113.7338,23.0381,东莞市,万江金泰,,40,40,38,21,21,29,,,,12,16,6,6,0.9,0.9
2025-04-11T0500,3626A,113.7533,23.0202,东莞市,南城元岭,,36,36,34,23,20,22,,,,24,18,5,6,0.8,0.7
2025-04-11T0500,3627A,113.7875,23.0457,东莞市,东城主山,,,,39,,18,,,88,,,25,,3,,0.7
2025-04-11T0500,1666A,118.6614,37.4309,东营市,市环保局,颗粒物(PM10),56,61,58,29,27,88,,,,18,24,10,9,0.8,0.6
2025-04-11T0500,3036A,118.6904,37.4338,东营市,开发区管委会,颗粒物(PM10),61,72,67,34,32,90,,,,32,32,10,8,1.0,0.7
2025-04-11T0500,3365A,118.5719,37.565,东营市,垦利区民丰路,颗粒物(PM10),52,53,57,24,27,91,,,,25,28,9,8,1.1,0.9
2025-04-11T0500,3498A,118.5055,37.8612,东营市,河口城区,颗粒物(PM10),60,70,71,27,28,92,,,,24,25,8,8,1.1,0.9
2025-04-11T0500,3646A,118.4978,37.4623,东营市,胜利站,颗粒物(PM10),57,63,72,29,28,89,,,,22,28,10,10,1.0,0.8
2025-04-11T0500,3734A,118.35,37.26,东营市,理想之城,颗粒物(PM10),56,61,64,34,30,68,,,,32,29,9,10,1.0,0.6
2025-04-11T0500,1591A,110.0023,39.8129,鄂尔多斯市,综合楼,颗粒物(PM10),137,224,121,56,27,70,,,,18,19,6,7,0.1,0.2
2025-04-11T0500,1592A,109.9486,39.8261,鄂尔多斯市,巴音孟克林场办事处,颗粒物(PM10),189,327,111,80,29,84,,,,7,15,7,7,0.1,0.2
2025-04-11T0500,1593A,109.7736,39.5986,鄂尔多斯市,康泽苑,颗粒物(PM10),168,285,104,78,26,69,,,,9,15,4,5,0.2,0.3
2025-04-11T0500,1594A,109.8119,39.5989,鄂尔多斯市,华泰汽车城,颗粒物(PM10),163,276,106,75,28,63,,,,13,21,4,4,0.3,0.3
2025-04-11T0500,1595A,109.9734,39.7884,鄂尔多斯市,奥林花园,颗粒物(PM10),92,134,106,39,23,55,,,,23,33,5,8,0.3,0.3
2025-04-11T0500,2436A,114.8938,30.3994,鄂州市,市政府,,48,48,79,32,38,88,,,,11,23,8,11,0.6,0.7
2025-04-11T0500,2437A,114.8989,30.3714,鄂州市,赵家坝,颗粒物(PM10),55,59,76,31,31,66,,,,15,23,6,8,1.1,1.1
2025-04-11T0500,3654A,114.8094,30.4089,鄂州市,精准医疗中心,细颗粒物(PM2.5),62,61,73,44,35,85,,,,31,25,57,15,3.3,1.3
2025-04-11T0500,2454A,109.4978,30.2981,恩施土家族苗族自治州,湖北民院,,49,43,42,34,30,40,,,,17,23,6,6,0.4,0.4
2025-04-11T0500,2455A,109.4707,30.2798,恩施土家族苗族自治州,州电力总公司,,,,40,,27,,,84,,,18,,5,,0.0
2025-04-11T0500,3549A,109.5061,30.3772,恩施土家族苗族自治州,龙凤新区,,42,38,36,29,23,29,,,,10,11,6,6,0.5,0.5
2025-04-11T0500,2499A,108.3411,21.6158,防城港市,沙万,细颗粒物(PM2.5),67,70,59,48,29,35,,,,12,34,5,4,0.7,0.7
2025-04-11T0500,2500A,108.3514,21.7731,防城港市,防城档案局,,42,42,44,25,27,4,,,,22,18,1,4,0.7,0.7
2025-04-11T0500,2501A,108.3506,21.6414,防城港市,大海花园,细颗粒物(PM2.5),63,56,52,45,26,36,,,,20,30,2,5,0.7,0.8
2025-04-11T0500,1371A,113.1294,23.0067,佛山市,湾梁,,39,39,40,23,20,21,,,,38,22,8,7,0.6,0.6
2025-04-11T0500,1372A,113.1083,23.0478,佛山市,华材职中,,35,31,38,24,22,28,,,,28,23,6,6,0.5,0.6
2025-04-11T0500,1373A,113.144,23.0453,佛山市,南海气象局,,35,33,50,24,27,6,,,,43,23,7,6,0.7,0.7
2025-04-11T0500,1374A,113.2881,22.8094,佛山市,顺德苏岗,,41,41,48,24,22,13,,,,29,21,6,6,0.8,0.7
2025-04-11T0500,1376A,112.8383,22.8678,佛山市,高明孔堂,,35,34,34,24,21,37,,,,11,10,5,5,0.6,0.6
2025-04-11T0500,1377A,112.8836,23.1588,佛山市,三水监测站,,29,29,46,13,29,14,,,,40,37,5,4,0.4,0.6
2025-04-11T0500,1378A,112.867,23.185,佛山市,三水云东海,,46,36,46,32,31,23,,,,32,34,3,3,0.7,0.6
2025-04-11T0500,3625A,113.2544,22.7642,佛山市,容桂街道办,,35,31,36,24,25,23,,,,28,26,6,7,0.8,0.7
2025-04-11T0500,1280A,119.3903,26.0543,福州市,鼓山,,,,26,,18,,,100,,,7,,3,,0.5
2025-04-11T0500,1282A,119.2681,26.0504,福州市,师大,,48,38,34,33,26,29,,,,19,15,3,4,0.5,0.5
2025-04-11T0500,1283A,119.2984,26.1028,福州市,五四北路,,46,38,29,32,23,37,,,,20,23,3,4,0.8,0.7
2025-04-11T0500,1284A,119.2648,26.0768,福州市,杨桥西路,,49,39,37,34,22,27,,,,23,18,3,4,0.7,0.7
2025-04-11T0500,1285A,119.317,26.0746,福州市,紫阳,细颗粒物(PM2.5),52,39,35,36,26,34,,,,20,30,5,5,0.6,0.5
2025-04-11T0500,3048A,119.5799,26.0936,福州市,九龙,,35,35,29,24,19,23,,,,18,13,3,4,0.5,0.5
2025-04-11T0500,3526A,119.5189,25.9664,福州市,吴航,颗粒物(PM10),51,51,27,34,21,20,,,,33,16,3,4,0.8,0.7
2025-04-11T0500,1755A,123.7977,41.8491,抚顺市,望花区,颗粒物(PM10),52,54,114,35,70,119,,,,17,34,14,22,0.8,1.1
2025-04-11T0500,1756A,123.9161,41.8822,抚顺市,顺城区,,,423,175,,100,20,,,,89,52,12,15,2.2,1.5
2025-04-11T0500,1757A,124.0436,41.8611,抚顺市,东洲区,颗粒物(PM10),52,53,142,33,90,110,,,,14,32,8,13,0.8,1.1
2025-04-11T0500,1758A,123.9247,41.8642,抚顺市,新抚区,细颗粒物(PM2.5),216,224,133,166,86,21,,,,66,45,6,11,1.5,1.3
2025-04-11T0500,1759A,124.0972,41.8961,抚顺市,大伙房水库,细颗粒物(PM2.5),87,81,105,64,85,87,,,,15,21,8,13,0.7,1
2025-04-11T0500,1760A,123.7086,41.8391,抚顺市,沈抚新城,颗粒物(PM10),55,59,109,32,57,106,,,,21,32,10,15,0.8,1.1
2025-04-11T0500,2376A,116.2127,28.0814,抚州市,桐源党溪,,28,28,35,16,20,8,,,,3,4,4,6,0.6,0.6
2025-04-11T0500,2377A,116.3544,27.9831,抚州市,市站,,33,33,35,18,19,43,,,,14,13,14,8,0.9,1.1
2025-04-11T0500,2378A,116.3565,27.963,抚州市,血防站,,37,37,36,20,19,32,,,,17,10,8,8,1.1,1.3
2025-04-11T0500,2379A,116.3564,28.0007,抚州市,采茶剧团,,34,34,33,19,20,35,,,,10,8,7,3,1.3,1.2
2025-04-11T0500,2380A,116.385,27.9647,抚州市,医学分院,,28,28,30,16,16,35,,,,16,11,16,6,1.0,0.6
2025-04-11T0500,2207A,121.6094,41.998,阜新市,工业园区,,49,49,84,30,38,108,,,,18,21,18,18,0.6,0.8
2025-04-11T0500,2208A,121.6697,42.0279,阜新市,长青街,"颗粒物(PM10),细颗粒物(PM2.5)",59,67,88,42,49,115,,,,19,21,15,18,0.7,0.8
2025-04-11T0500,2209A,121.6673,42.0705,阜新市,农业园区,细颗粒物(PM2.5),55,53,82,39,50,115,,,,13,14,16,16,0.7,0.7
2025-04-11T0500,2210A,121.6717,42.0224,阜新市,东苑,细颗粒物(PM2.5),62,51,78,44,51,114,,,,19,25,17,21,0.6,0.7
2025-04-11T0500,2211A,121.6506,42.0498,阜新市,玉龙新城,细颗粒物(PM2.5),58,59,83,41,54,104,,,,18,22,17,17,0.6,0.8
2025-04-11T0500,2301A,115.8277,32.8929,阜阳市,市监测站,细颗粒物(PM2.5),104,129,128,78,63,48,,,,30,23,8,10,0.6,0.5
2025-04-11T0500,2303A,115.8554,32.8605,阜阳市,开发区,"颗粒物(PM10),细颗粒物(PM2.5)",99,147,159,74,51,42,,,,32,26,7,8,0.7,0.6
2025-04-11T0500,2875A,115.784,32.8892,阜阳市,阜阳职业技术学院,颗粒物(PM10),93,135,138,67,56,58,,,,23,25,10,9,0.6,0.5
2025-04-11T0500,3468A,115.7901,32.8613,阜阳市,市规划展馆,细颗粒物(PM2.5),117,135,143,88,62,61,,,,21,21,10,12,0.8,0.6
2025-04-11T0500,3469A,115.836,32.9183,阜阳市,枣园社区,细颗粒物(PM2.5),127,170,149,96,64,62,,,,26,26,10,9,0.8,0.7
2025-04-11T0500,2669A,102.9099,34.9841,甘南藏族自治州,州政府,颗粒物(PM10),58,66,73,21,27,59,,,,9,9,9,9,0.3,0.3
2025-04-11T0500,3380A,102.8914,34.9617,甘南藏族自治州,甘肃民族师范学院,颗粒物(PM10),65,80,85,28,25,33,,,,34,20,8,9,0.5,0.5
2025-04-11T0500,2570A,101.9603,30.0475,甘孜藏族自治州,水桥子,,40,30,38,28,19,29,,,,29,17,4,4,0.1,0.2
2025-04-11T0500,3065A,101.9533,29.9972,甘孜藏族自治州,州环保局,,40,40,44,14,14,53,,,,13,18,4,4,0.4,0.4
2025-04-11T0500,3414A,115.8347,28.932,赣江新区,桑海产业园,颗粒物(PM10),51,51,46,18,24,29,,,,30,33,4,5,0.4,0.5
2025-04-11T0500,2362A,114.9017,25.9149,赣州市,通天岩,,28,28,39,8,10,38,,,,3,3,11,8,1.1,1.1
2025-04-11T0500,2363A,114.9367,25.8664,赣州市,地委,细颗粒物(PM2.5),54,54,53,38,37,17,,,,18,17,2,2,1.3,1.3
2025-04-11T0500,2364A,114.9461,25.8481,赣州市,气象台,颗粒物(PM10),53,56,57,34,32,40,,,,16,20,16,12,0.9,0.9
2025-04-11T0500,2365A,114.9322,25.8333,赣州市,市图书馆,,49,45,51,34,37,40,,,,14,19,9,6,0.9,0.9
2025-04-11T0500,2366A,114.8905,25.8471,赣州市,华坚鞋城,颗粒物(PM10),54,58,54,36,34,31,,,,23,23,19,13,0.6,0.6
2025-04-11T0500,3109A,115.0093,25.8613,赣州市,赣县区卫计委,,43,32,45,30,33,38,,,,7,11,5,6,0.4,0.5
2025-04-11T0500,2683A,106.2319,36.1417,固原市,马园,颗粒物(PM10),100,149,110,38,27,5,,,,61,35,6,5,0.8,0.6
2025-04-11T0500,2684A,106.2792,36.0022,固原市,监测站,颗粒物(PM10),86,122,95,35,28,37,,,,39,20,5,5,0.5,0.4
2025-04-11T0500,2685A,106.2375,36.0211,固原市,新区,颗粒物(PM10),98,146,99,37,26,81,,,,14,27,8,6,0.3,0.4
2025-04-11T0500,3522A,106.2177,35.9959,固原市,原州区十五小,颗粒物(PM10),96,141,111,45,34,81,,,,15,16,10,8,0.3,0.3
2025-04-11T0500,2543A,106.6308,30.5278,广安市,小平旧居,,,,,,,,,,,,,,,,
2025-04-11T0500,2544A,106.6303,30.4576,广安市,市委,,46,44,78,32,39,86,,,,6,19,7,9,0.4,0.6
2025-04-11T0500,2545A,106.6271,30.4663,广安市,友谊中学,,44,44,67,29,36,89,,,,8,20,2,4,0.1,0.3
2025-04-11T0500,2547A,106.6388,30.4551,广安市,广电花园,,45,37,78,31,39,83,,,,6,24,10,11,0.5,0.6
2025-04-11T0500,2902A,106.6351,30.4865,广安市,北辰小学,,42,37,76,29,38,88,,,,8,17,10,10,0.3,0.5
2025-04-11T0500,2523A,105.8945,32.4535,广元市,黑石坡,颗粒物(PM10),69,88,68,32,22,70,,,,18,13,3,2,0.5,0.4
2025-04-11T0500,2524A,105.821,32.4444,广元市,老城,颗粒物(PM10),55,60,54,27,22,40,,,,38,35,3,3,0.6,0.5
2025-04-11T0500,2526A,105.8628,32.4287,广元市,监测站,细颗粒物(PM2.5),53,47,44,37,25,63,,,,13,12,10,9,0.5,0.5
2025-04-11T0500,3617A,105.8047,32.4166,广元市,经开区,颗粒物(PM10),67,83,74,47,40,30,,,,36,35,11,9,1.0,0.8
2025-04-11T0500,1345A,113.2347,23.1423,广州市,广雅中学,,48,48,48,24,24,4,,,,42,30,4,4,0.8,0.8
2025-04-11T0500,1346A,113.2612,23.105,广州市,市五中,,40,40,43,24,22,5,,,,46,30,2,2,0.7,0.7
2025-04-11T0500,1348A,113.3478,23.0916,广州市,广东商学院,,43,43,45,19,29,2,,,,46,43,5,5,0.6,0.6
2025-04-11T0500,1349A,113.4332,23.1047,广州市,市八十六中,,49,49,47,21,19,3,,,,52,51,4,4,0.8,0.8
2025-04-11T0500,1350A,113.3505,22.9483,广州市,番禺中学,,39,39,43,21,23,6,,,,42,32,4,5,0.6,0.6
2025-04-11T0500,1351A,113.2146,23.3916,广州市,花都师范,,50,50,61,19,29,5,,,,49,41,4,4,0.7,0.7
2025-04-11T0500,1352A,113.2597,23.1331,广州市,市监测站,,49,49,44,24,22,3,,,,51,37,5,5,0.5,0.5
2025-04-11T0500,1353A,113.5618,23.312,广州市,九龙镇镇龙,颗粒物(PM10),51,52,56,27,30,0,,,,45,43,6,6,0.7,0.7
2025-04-11T0500,1354A,113.2765,23.1544,广州市,麓湖,,49,49,42,27,24,6,,,,43,37,3,4,0.6,0.6
2025-04-11T0500,1355A,113.443,23.3035,广州市,帽峰山森林公园,,47,47,44,22,20,7,,,,46,33,4,4,0.8,0.7
2025-04-11T0500,2846A,113.3221,23.1322,广州市,体育西,颗粒物(PM10),51,51,50,28,28,3,,,,37,31,4,4,0.8,0.9
2025-04-11T0500,3298A,113.5717,23.5491,广州市,从化街口,颗粒物(PM10),54,58,59,34,35,5,,,,36,27,9,9,0.9,0.9
2025-04-11T0500,3299A,113.3472,23.3692,广州市,白云竹料,颗粒物(PM10),58,66,58,32,30,14,,,,45,36,7,7,0.7,0.7
2025-04-11T0500,3300A,113.2981,23.237,广州市,白云嘉禾,颗粒物(PM10),57,64,55,37,31,2,,,,51,47,4,5,0.8,0.7
2025-04-11T0500,3301A,113.4256,23.1716,广州市,黄埔科学城,颗粒物(PM10),52,54,50,28,27,1,,,,43,38,7,7,0.4,0.4
2025-04-11T0500,3302A,113.3942,23.0483,广州市,番禺大学城,,50,50,48,24,23,0,,,,49,39,11,10,0.5,0.5
2025-04-11T0500,3303A,113.4922,22.8168,广州市,南沙黄阁,,38,32,39,26,22,29,,,,22,21,4,5,0.7,0.8
2025-04-11T0500,3304A,113.5342,22.7896,广州市,南沙街,,33,28,34,23,20,28,,,,19,20,4,4,0.6,0.6
2025-04-11T0500,3443A,113.2902,23.5544,广州市,花都梯面,颗粒物(PM10),52,53,53,30,29,11,,,,40,35,5,5,0.9,0.9
2025-04-11T0500,3445A,113.7858,23.7478,广州市,从化良口,,46,43,47,32,33,28,,,,13,13,6,6,0.7,0.7
2025-04-11T0500,3446A,113.8051,23.2614,广州市,增城荔城,,49,49,54,28,32,1,,,,33,24,6,7,0.4,0.4
2025-04-11T0500,2505A,109.568,23.1478,贵港市,德智高中,,,,,,,,,,,,,,,,
2025-04-11T0500,2506A,109.6047,23.0666,贵港市,江南子站,,49,48,57,34,35,44,,,,16,18,3,6,0.7,0.8
2025-04-11T0500,2508A,109.5669,23.1065,贵港市,荷城子站,颗粒物(PM10),57,64,57,27,30,42,,,,20,20,5,6,0.4,0.4
2025-04-11T0500,3405A,109.5886,23.1172,贵港市,新世纪学校,细颗粒物(PM2.5),69,78,55,50,36,25,,,,47,23,10,8,0.9,0.8
2025-04-11T0500,4260A,109.5933,23.0951,贵港市,中山路155-3号,颗粒物(PM10),58,65,59,39,36,52,,,,12,18,6,8,0.8,0.9
2025-04-11T0500,1439A,106.6899,26.5998,贵阳市,马鞍山,,39,39,49,27,30,84,,,,6,12,3,4,0.5,0.6
2025-04-11T0500,1441A,106.6243,26.6266,贵阳市,鉴湖路,颗粒物(PM10),54,58,60,36,34,83,,,,4,11,12,12,0.5,0.6
2025-04-11T0500,1442A,106.7487,26.6343,贵阳市,燕子冲,细颗粒物(PM2.5),62,53,54,44,40,89,,,,9,14,4,3,0.5,0.4
2025-04-11T0500,1443A,106.6555,26.4365,贵阳市,碧云窝,颗粒物(PM10),54,58,60,31,32,89,,,,6,13,6,6,0.5,0.6
2025-04-11T0500,1445A,106.7109,26.6027,贵阳市,红边门,细颗粒物(PM2.5),58,58,56,41,41,83,,,,10,20,4,4,0.4,0.5
2025-04-11T0500,1446A,106.7164,26.5699,贵阳市,新华路,细颗粒物(PM2.5),62,51,53,44,39,85,,,,6,15,5,12,0.6,0.6
2025-04-11T0500,1447A,106.674,26.5424,贵阳市,太慈桥,细颗粒物(PM2.5),52,46,54,36,33,86,,,,8,18,6,7,0.5,0.6
2025-04-11T0500,1552A,106.805,26.3003,贵阳市,桐木岭,细颗粒物(PM2.5),62,61,62,44,41,99,,,,1,3,2,4,0.9,0.9
2025-04-11T0500,4230A,106.6882,26.5695,贵阳市,花果园大街66号,细颗粒物(PM2.5),58,44,47,41,39,87,,,,6,18,6,5,0.2,0.3
2025-04-11T0500,4231A,106.6873,26.5169,贵阳市,漓江路57号,细颗粒物(PM2.5),52,44,53,36,36,90,,,,6,15,9,10,0.5,0.6
2025-04-11T0500,1862A,110.4144,25.3167,桂林市,电子科大尧山校区,,,,,,,,,,,,,,,,
2025-04-11T0500,1864A,110.3089,25.2708,桂林市,龙隐路小学,细颗粒物(PM2.5),64,46,76,46,55,22,,,,16,22,8,9,0.9,1.1
2025-04-11T0500,1865A,110.2869,25.2178,桂林市,八中,细颗粒物(PM2.5),62,68,76,44,56,36,,,,19,27,8,9,0.7,0.8
2025-04-11T0500,3531A,110.296,25.1253,桂林市,旅游学院,,49,46,51,34,44,38,,,,24,23,8,8,0.6,0.7
2025-04-11T0500,4222A,110.1835,25.2444,桂林市,环湖路276号,细颗粒物(PM2.5),52,48,73,36,59,52,,,,13,26,6,8,0.5,0.7
2025-04-11T0500,4301A,110.2803,25.2773,桂林市,信义路13号,细颗粒物(PM2.5),62,48,74,44,49,46,,,,16,28,8,9,0.8,0.9
2025-04-11T0500,2674A,100.2561,34.4714,果洛藏族自治州,玛沁县大武镇,,41,41,54,15,17,92,,,,1,3,14,13,0.4,0.4
2025-04-11T0500,1129A,126.5422,45.755,哈尔滨市,岭北,细颗粒物(PM2.5),460,460,280,439,217,50,,,,74,54,34,27,2.3,1.6
2025-04-11T0500,1130A,126.561,45.8167,哈尔滨市,松北商大,细颗粒物(PM2.5),493,,270,489,245,34,,,,65,58,19,17,2.1,1.4
2025-04-11T0500,1131A,126.979,45.5419,哈尔滨市,阿城会宁,细颗粒物(PM2.5),385,404,296,335,222,29,,,,46,51,11,12,1.6,1.4
2025-04-11T0500,1132A,126.599,45.7222,哈尔滨市,南岗学府路,颗粒物(PM10),459,559,314,400,210,27,,,,76,60,21,16,2.2,1.5
2025-04-11T0500,1133A,126.689,45.7733,哈尔滨市,太平宏伟公园,细颗粒物(PM2.5),478,501,291,466,229,27,,,,73,56,16,13,2.1,1.5
2025-04-11T0500,1134A,126.635,45.7667,哈尔滨市,道外承德广场,细颗粒物(PM2.5),447,506,279,420,224,32,,,,69,58,19,15,2.0,1.3
2025-04-11T0500,1135A,126.685,45.7319,哈尔滨市,香坊红旗大街,细颗粒物(PM2.5),444,473,326,415,219,36,,,,72,61,29,19,1.9,1.3
2025-04-11T0500,1136A,126.6411,45.7258,哈尔滨市,动力和平路,细颗粒物(PM2.5),498,500,318,497,270,44,,,,69,58,26,17,2.0,1.3
2025-04-11T0500,1137A,126.593,45.7478,哈尔滨市,道里建国路,细颗粒物(PM2.5),500,,286,499,251,24,,,,81,66,40,21,2.9,1.6
2025-04-11T0500,1138A,126.615,45.61,哈尔滨市,平房东轻厂,细颗粒物(PM2.5),435,448,284,402,229,34,,,,49,52,19,16,1.8,1.3
2025-04-11T0500,1139A,126.595,45.9855,哈尔滨市,呼兰师专,细颗粒物(PM2.5),479,489,308,468,302,28,,,,73,65,16,16,2.2,1.5
2025-04-11T0500,1140A,126.6206,45.6842,哈尔滨市,省农科院,细颗粒物(PM2.5),499,574,338,498,252,18,,,,80,71,25,18,2.1,1.3
2025-04-11T0500,2688A,93.5128,42.8172,哈密市,地区监测站,颗粒物(PM10),88,125,126,33,20,72,,,,11,10,9,7,0.1,0.3
2025-04-11T0500,2689A,93.4961,42.8328,哈密市,哈密师范学校,颗粒物(PM10),57,64,121,27,20,84,,,,6,12,4,6,0.6,0.7
2025-04-11T0500,2671A,100.9048,36.9639,海北藏族自治州,海晏县西海镇,颗粒物(PM10),53,55,33,16,15,56,,,,4,4,13,7,0.4,0.3
2025-04-11T0500,3867A,102.0738,36.5056,海东市,平安区公安北苑,颗粒物(PM10),91,131,82,38,24,76,,,,4,10,10,11,0.6,0.6
2025-04-11T0500,1409A,110.576,19.9507,海口市,东寨港,,16,14,23,11,20,6,,,,4,7,11,10,0.5,0.6
2025-04-11T0500,1410A,110.3232,20.0574,海口市,海南大学,,20,20,37,11,21,29,,,,6,18,2,2,0.4,0.5
2025-04-11T0500,1411A,110.283,20.0053,海口市,秀英海南医院,,,26,40,11,27,,,,,19,24,4,4,0.3,0.4
2025-04-11T0500,1412A,110.338,19.9969,海口市,海南师范大学,,25,25,46,14,25,25,,,,5,13,3,3,0.4,0.5
2025-04-11T0500,1413A,110.33,20.0356,海口市,龙华路环保局宿舍,,23,23,38,12,22,31,,,,3,13,4,4,0.3,0.4
2025-04-11T0500,3539A,110.5111,19.9736,海口市,桂林洋子站,,20,20,33,11,20,35,,,,6,11,4,4,0.2,0.4
2025-04-11T0500,2673A,100.6188,36.2866,海南藏族自治州,共和县恰卜恰镇,,45,45,58,18,23,92,,,,2,12,13,13,0.4,0.5
2025-04-11T0500,2676A,97.3731,37.3753,海西蒙古族藏族自治州,德令哈市,颗粒物(PM10),51,52,51,12,17,83,,,,4,2,10,12,0.5,0.4
2025-04-11T0500,1048A,114.5302,36.6116,邯郸市,东污水处理厂,颗粒物(PM10),78,105,88,56,36,68,,,,23,29,3,5,0.5,0.6
2025-04-11T0500,1049A,114.4918,36.5713,邯郸市,矿院,颗粒物(PM10),71,92,80,51,42,48,,,,17,18,3,5,0.5,0.6
2025-04-11T0500,1050A,114.484,36.6133,邯郸市,丛台公园,颗粒物(PM10),80,109,88,47,44,67,,,,18,21,9,11,0.5,0.7
2025-04-11T0500,3458A,114.7895,36.5593,邯郸市,香泉濮院小区,颗粒物(PM10),91,131,108,51,44,99,,,,10,16,5,8,0.5,0.6
2025-04-11T0500,3579A,114.50634,36.77178,邯郸市,永年区实验高中,颗粒物(PM10),83,115,107,53,48,60,,,,29,25,10,11,0.7,1.1
2025-04-11T0500,3580A,114.20016,36.44293,邯郸市,峰峰矿区临水派出所,细颗粒物(PM2.5),88,118,92,65,49,92,,,,83,16,13,12,2.0,1
2025-04-11T0500,2634A,106.9893,33.1842,汉中市,汉川机床厂子校,细颗粒物(PM2.5),60,56,68,43,40,66,,,,9,6,8,7,0.6,0.6
2025-04-11T0500,2635A,107.0154,33.0706,汉中市,市监测站,颗粒物(PM10),65,79,87,34,35,36,,,,33,21,11,11,0.8,0.7
2025-04-11T0500,2636A,107.0089,33.1138,汉中市,鑫源开发区,颗粒物(PM10),60,70,81,34,38,43,,,,31,23,9,8,0.6,0.5
2025-04-11T0500,2637A,107.007,33.0323,汉中市,南郑大河坎水厂,颗粒物(PM10),62,73,79,38,39,39,,,,32,22,10,6,0.7,0.6
2025-04-11T0500,1223A,120.2072,30.2111,杭州市,滨江,颗粒物(PM10),51,51,85,21,42,21,,,,45,30,7,7,0.7,0.5
2025-04-11T0500,1224A,120.0633,30.2747,杭州市,西溪,颗粒物(PM10),70,90,77,46,38,14,,,,26,23,5,6,0.5,0.4
2025-04-11T0500,1226A,120.3417,30.3150,杭州市,下沙,细颗粒物(PM2.5),170,193,105,129,59,8,,,,,32,8,7,0.6,0.5
2025-04-11T0500,1227A,120.1269,30.2456,杭州市,卧龙桥,颗粒物(PM10),88,125,67,61,37,8,,,,26,25,5,6,0.5,0.4
2025-04-11T0500,1228A,120.1903,30.2692,杭州市,浙江农大,颗粒物(PM10),83,115,88,53,48,17,,,,46,24,2,2,0.6,0.5
2025-04-11T0500,1230A,120.1197,30.3119,杭州市,和睦小学,颗粒物(PM10),76,102,84,47,40,22,,,,40,23,7,7,0.8,0.7
2025-04-11T0500,1231A,120.3019,30.4183,杭州市,临平镇,细颗粒物(PM2.5),142,128,93,108,53,28,,,,42,28,6,6,0.6,0.6
2025-04-11T0500,1232A,120.2753,30.1839,杭州市,城厢镇,细颗粒物(PM2.5),88,94,91,65,46,11,,,,64,40,9,9,0.8,0.7
2025-04-11T0500,1233A,120.0883,30.1808,杭州市,云栖,细颗粒物(PM2.5),87,106,67,64,33,0,,,,33,39,8,9,0.7,0.6
2025-04-11T0500,3557A,119.9464,30.0494,杭州市,镇二中,,48,48,46,29,26,15,,,,44,33,2,1,0.5,0.5
2025-04-11T0500,3558A,119.7183,30.2367,杭州市,市府大楼,颗粒物(PM10),59,67,62,33,32,30,,,,27,21,8,7,0.7,0.7
2025-04-11T0500,3656A,120.1556,30.2864,杭州市,消防大队,细颗粒物(PM2.5),95,115,88,71,47,23,,,,48,30,5,4,0.7,0.7
2025-04-11T0500,1270A,117.1959,31.7848,合肥市,明珠广场,颗粒物(PM10),67,83,93,36,37,54,,,,41,28,3,3,0.5,0.4
2025-04-11T0500,1271A,117.3072,31.8764,合肥市,三里街,颗粒物(PM10),73,95,106,36,33,54,,,,36,39,6,5,0.9,0.8
2025-04-11T0500,1272A,117.2588,31.8707,合肥市,琥珀山庄,颗粒物(PM10),69,88,102,42,38,65,,,,27,25,4,3,0.6,0.5
2025-04-11T0500,1273A,117.1604,31.9052,合肥市,董铺水库,颗粒物(PM10),65,80,104,29,37,74,,,,15,12,2,1,0.4,0.3
2025-04-11T0500,1274A,117.25,31.8571,合肥市,长江中路,颗粒物(PM10),71,92,102,38,38,71,,,,27,24,8,7,0.6,0.5
2025-04-11T0500,1275A,117.266,31.9436,合肥市,庐阳区,颗粒物(PM10),74,97,106,34,35,66,,,,30,26,6,6,0.5,0.4
2025-04-11T0500,1276A,117.3453,31.8616,合肥市,瑶海区,颗粒物(PM10),79,107,117,39,36,58,,,,36,40,8,7,0.7,0.6
2025-04-11T0500,1277A,117.3027,31.7964,合肥市,包河区,颗粒物(PM10),70,90,98,39,40,28,,,,67,39,7,6,0.5,0.5
2025-04-11T0500,1278A,117.2776,31.7385,合肥市,滨湖新区,颗粒物(PM10),65,80,94,46,41,80,,,,19,20,6,6,0.6,0.5
2025-04-11T0500,1279A,117.1318,31.8403,合肥市,高新区,颗粒物(PM10),65,80,99,38,38,78,,,,24,20,2,2,0.6,0.5
2025-04-11T0500,3464A,117.3803,31.9147,合肥市,高教基地,颗粒物(PM10),81,112,112,46,35,61,,,,37,33,7,5,0.6,0.3
2025-04-11T0500,3614A,79.924,37.0877,和田地区,地区环保局,颗粒物(PM10),500,1533,1017,358,172,72,,,,4,10,1,2,0.5,0.5
2025-04-11T0500,3615A,79.9131,37.113,和田地区,市环保局,颗粒物(PM10),500,1269,798,273,165,82,,,,2,7,1,2,0.6,0.6
2025-04-11T0500,2516A,108.2011,24.715,河池市,东仁乐园,细颗粒物(PM2.5),80,83,124,59,80,4,,,,32,24,9,11,1.4,1.4
2025-04-11T0500,2517A,108.0497,24.6947,河池市,市环保站,细颗粒物(PM2.5),77,83,99,56,66,6,,,,28,21,6,8,0.8,0.8
2025-04-11T0500,2518A,108.0983,24.6989,河池市,市疾控中心,细颗粒物(PM2.5),74,75,97,54,68,16,,,,34,28,11,10,0.9,1
2025-04-11T0500,1696A,114.6778,23.7569,河源市,源西,颗粒物(PM10),65,80,46,40,33,6,,,,41,26,4,4,0.6,0.6
2025-04-11T0500,1697A,114.6944,23.7586,河源市,东埔,细颗粒物(PM2.5),64,,44,46,40,40,,,,24,21,5,4,0.7,0.7
2025-04-11T0500,1698A,114.6892,23.7233,河源市,老城,细颗粒物(PM2.5),59,48,48,42,39,29,,,,25,21,5,4,0.6,0.6
2025-04-11T0500,1718A,115.4208,35.2464,菏泽市,气象局,细颗粒物(PM2.5),103,128,136,77,75,115,,,,14,17,6,6,0.6,0.6
2025-04-11T0500,3374A,115.5564,35.0891,菏泽市,定陶老年大学,细颗粒物(PM2.5),89,112,128,66,65,102,,,,17,20,5,6,0.7,0.6
2025-04-11T0500,4184A,115.4797,35.24401,菏泽市,永昌路1号,细颗粒物(PM2.5),107,150,161,80,71,100,,,,14,18,7,8,0.5,0.4
2025-04-11T0500,4193A,115.4715,35.2800,菏泽市,长城路999号,细颗粒物(PM2.5),104,122,136,78,68,110,,,,18,20,9,5,0.5,0.5
2025-04-11T0500,2514A,111.5264,24.4172,贺州市,环保小区,细颗粒物(PM2.5),58,60,69,41,46,20,,,,35,26,6,7,0.8,0.9
2025-04-11T0500,2515A,111.5608,24.4078,贺州市,政协大楼,细颗粒物(PM2.5),55,53,58,39,47,14,,,,39,25,9,9,0.7,0.8
2025-04-11T0500,3534A,111.4744,24.4553,贺州市,西湾,细颗粒物(PM2.5),65,56,68,47,54,20,,,,28,26,6,7,0.9,0.9
2025-04-11T0500,2385A,114.17,35.9019,鹤壁市,市监测站,颗粒物(PM10),86,121,110,60,57,50,,,,29,18,4,7,0.9,1
2025-04-11T0500,2386A,114.2956,35.7511,鹤壁市,市交警支队,"颗粒物(PM10),细颗粒物(PM2.5)",89,128,125,66,55,79,,,,24,26,4,9,0.8,0.9
2025-04-11T0500,2387A,114.2878,35.7306,鹤壁市,迎宾馆,颗粒物(PM10),90,129,130,51,50,69,,,,22,21,3,7,0.7,0.8
2025-04-11T0500,3474A,114.2617,35.6822,鹤壁市,大新区,细颗粒物(PM2.5),88,118,135,65,63,55,,,,30,30,7,9,0.7,0.9
2025-04-11T0500,3596A,114.1572,35.9603,鹤壁市,南山宾馆,颗粒物(PM10),97,143,124,60,61,82,,,,22,18,7,8,0.5,0.6
2025-04-11T0500,2244A,130.2537,47.3416,鹤岗市,哈啤分公司,,22,,48,15,28,63,,,,6,12,14,16,0.2,0.2
2025-04-11T0500,2245A,130.2684,47.3086,鹤岗市,斯达机电,,25,25,65,17,39,70,,,,7,13,10,12,0.3,0.4
2025-04-11T0500,2246A,130.3114,47.3388,鹤岗市,东山纸板厂,颗粒物(PM10),88,125,90,32,42,31,,,,22,15,18,15,2.1,0.6
2025-04-11T0500,2247A,130.1097,47.3382,鹤岗市,五号水库,,,,,,,,,,,,,,,,
2025-04-11T0500,2263A,127.4833,50.2524,黑河市,交通局,,30,27,27,21,18,52,,,,5,9,7,7,0.4,0.4
2025-04-11T0500,2264A,127.5144,50.2341,黑河市,环保局,,23,18,26,16,18,59,,,,6,11,4,4,0.2,0.4
2025-04-11T0500,2265A,127.5291,50.2472,黑河市,大黑河岛,,,,,,,,,,,,,,,,
2025-04-11T0500,1074A,115.6838,37.7541,衡水市,电机北厂,细颗粒物(PM2.5),97,128,103,72,51,113,,,,13,15,8,4,0.6,0.5
2025-04-11T0500,1075A,115.6303,37.7316,衡水市,市监测站,细颗粒物(PM2.5),97,118,96,72,50,109,,,,16,21,6,7,0.6,0.5
2025-04-11T0500,3188A,115.6683,37.7217,衡水市,市城管局,细颗粒物(PM2.5),90,114,93,67,53,102,,,,16,19,10,8,0.6,0.6
2025-04-11T0500,3459A,115.5989,37.5491,衡水市,地表水厂,细颗粒物(PM2.5),85,113,103,63,52,97,,,,16,26,12,13,0.6,0.5
2025-04-11T0500,2456A,112.5003,26.9167,衡阳市,原169医院,细颗粒物(PM2.5),57,59,63,40,43,24,,,,23,22,10,8,1.0,0.8
2025-04-11T0500,2457A,112.6194,26.9258,衡阳市,衡阳化工总厂,细颗粒物(PM2.5),62,55,57,44,41,41,,,,10,11,9,9,0.8,0.9
2025-04-11T0500,2458A,112.6211,26.8956,衡阳市,珠晖区环保局,,,53,53,,,18,,,,24,14,12,9,0.9,0.9
2025-04-11T0500,2459A,112.6197,26.8733,衡阳市,市委党校,,,49,50,,,51,,,,10,10,8,3,0.7,0.7
2025-04-11T0500,2460A,112.6006,26.8919,衡阳市,市监测站,"颗粒物(PM10),细颗粒物(PM2.5)",58,65,58,41,38,41,,,,17,17,14,10,0.8,0.9
2025-04-11T0500,2461A,112.5664,26.9056,衡阳市,真空机电公司,细颗粒物(PM2.5),59,55,59,42,41,49,,,,11,18,13,9,0.8,1
2025-04-11T0500,3399A,112.6703,26.882,衡阳市,师范学院,细颗粒物(PM2.5),60,62,53,43,38,29,,,,17,13,17,11,0.8,0.8
2025-04-11T0500,2608A,103.3772,23.3993,红河哈尼族彝族自治州,污水处理厂,细颗粒物(PM2.5),55,55,66,39,56,93,,,,6,8,10,10,0.5,0.5
2025-04-11T0500,2609A,103.3861,23.35,红河哈尼族彝族自治州,监测站,颗粒物(PM10),60,69,71,41,49,88,,,,5,8,6,8,0.5,0.5
2025-04-11T0500,3038A,103.3758,23.368,红河哈尼族彝族自治州,州图书馆,细颗粒物(PM2.5),60,55,62,43,51,98,,,,7,9,6,8,0.4,0.4
2025-04-11T0500,1090A,111.6507,40.7517,呼和浩特市,呼市一监,颗粒物(PM10),79,107,83,33,24,39,,,,25,18,11,12,0.6,0.6
2025-04-11T0500,1091A,111.6572,40.8033,呼和浩特市,小召,颗粒物(PM10),68,85,77,29,26,44,,,,29,28,17,12,0.4,0.5
2025-04-11T0500,1094A,111.7516,40.8369,呼和浩特市,如意水处理厂,颗粒物(PM10),69,88,67,24,24,26,,,,41,32,7,9,0.4,0.5
2025-04-11T0500,1095A,111.7276,40.8062,呼和浩特市,二十九中,颗粒物(PM10),79,107,76,33,26,39,,,,27,21,9,7,0.4,0.4
2025-04-11T0500,1096A,111.5512,40.7866,呼和浩特市,工大金川校区,颗粒物(PM10),66,82,67,26,22,34,,,,39,28,9,14,0.5,0.4
2025-04-11T0500,1097A,111.717,40.7612,呼和浩特市,化肥厂生活区,颗粒物(PM10),80,109,82,30,24,50,,,,22,25,10,12,0.4,0.5
2025-04-11T0500,3698A,111.5968,40.8178,呼和浩特市,红旗小学,颗粒物(PM10),73,95,78,24,21,30,,,,47,39,5,9,0.5,0.5
2025-04-11T0500,3699A,111.6518,40.8389,呼和浩特市,海东办,颗粒物(PM10),75,100,68,28,21,32,,,,35,25,8,10,0.7,0.6
2025-04-11T0500,2192A,119.7594,49.2261,呼伦贝尔市,区环保局,,40,29,41,28,28,78,,,,6,13,5,6,0.2,0.3
2025-04-11T0500,3061A,119.7512,49.1577,呼伦贝尔市,国华电力东,,27,27,30,13,19,84,,,,4,6,5,4,0.2,0.3
2025-04-11T0500,1250A,120.0751,30.8669,湖州市,城西水厂,细颗粒物(PM2.5),114,142,104,86,50,57,,,,31,38,8,9,0.6,0.6
2025-04-11T0500,2873A,120.0830,30.8929,湖州市,仁皇山新区,细颗粒物(PM2.5),118,140,107,89,54,59,,,,32,40,5,7,0.8,0.9
2025-04-11T0500,2907A,120.1844,30.8596,湖州市,吴兴区站,细颗粒物(PM2.5),120,160,102,91,51,54,,,,30,26,10,9,0.6,0.6
2025-04-11T0500,3562A,120.4148,30.8538,湖州市,南浔区站,颗粒物(PM10),107,164,103,65,49,64,,,,25,25,6,6,0.6,0.6
2025-04-11T0500,1607A,120.9049,40.7211,葫芦岛市,龙港区,细颗粒物(PM2.5),68,66,61,49,48,105,,,,15,17,9,10,0.6,0.5
2025-04-11T0500,1608A,120.8392,40.7514,葫芦岛市,化工街,细颗粒物(PM2.5),62,68,76,44,48,94,,,,19,27,7,12,0.5,0.7
2025-04-11T0500,1609A,120.8341,40.7073,葫芦岛市,新区,细颗粒物(PM2.5),67,69,59,48,50,104,,,,16,22,9,10,0.6,0.7
2025-04-11T0500,1610A,120.8695,40.7677,葫芦岛市,东城区,细颗粒物(PM2.5),67,,54,48,57,107,,,,18,28,7,7,0.6,0.7
2025-04-11T0500,2482A,109.5981,27.5721,怀化市,林科所,颗粒物(PM10),58,65,55,40,36,8,,,,33,20,8,6,0.6,0.6
2025-04-11T0500,2483A,109.9453,27.5444,怀化市,河西地税局,细颗粒物(PM2.5),57,46,47,40,41,3,,,,17,14,9,10,0.7,0.7
2025-04-11T0500,2484A,109.9781,27.5342,怀化市,市四医院,细颗粒物(PM2.5),67,78,70,48,46,1,,,,36,25,7,8,1.0,0.9
2025-04-11T0500,2485A,109.9972,27.5578,怀化市,监测楼,细颗粒物(PM2.5),57,61,60,40,42,8,,,,23,18,7,8,0.7,0.8
2025-04-11T0500,2486A,110.0394,27.583,怀化市,市委党校,细颗粒物(PM2.5),62,56,56,44,42,3,,,,21,18,4,6,0.9,1
2025-04-11T0500,1210A,119.036,33.5981,淮安市,钵池山,颗粒物(PM10),58,66,57,39,36,86,,,,19,18,13,11,0.7,0.5
2025-04-11T0500,1211A,119.007,33.575,淮安市,北京南路,颗粒物(PM10),57,63,56,38,34,86,,,,17,15,11,9,0.7,0.5
2025-04-11T0500,1212A,118.989,33.6067,淮安市,市监测站,细颗粒物(PM2.5),70,61,51,51,31,79,,,,21,16,12,9,0.9,0.5
2025-04-11T0500,1213A,119.135,33.5039,淮安市,楚州区监测站,细颗粒物(PM2.5),57,56,58,40,42,73,,,,16,13,9,9,0.6,0.5
2025-04-11T0500,3426A,118.8755,33.2894,淮安市,新华书店,细颗粒物(PM2.5),77,61,67,56,41,76,,,,16,15,9,9,0.7,0.6
2025-04-11T0500,4206A,119.0288,33.6319,淮安市,承德北路606号,颗粒物(PM10),62,73,65,39,38,79,,,,17,15,10,8,0.8,0.6
2025-04-11T0500,2282A,116.8004,33.975,淮北市,监测站,颗粒物(PM10),56,62,99,33,45,92,,,,12,15,6,8,0.4,0.6
2025-04-11T0500,2283A,116.8091,33.9007,淮北市,烈山区政府,颗粒物(PM10),70,90,101,49,59,91,,,,16,16,6,7,0.5,0.6
2025-04-11T0500,3330A,116.8873,33.9836,淮北市,杜集区检察院,颗粒物(PM10),52,53,90,33,53,94,,,,16,16,7,8,0.8,0.9
2025-04-11T0500,4017A,116.7923,33.9535,淮北市,市博物馆,颗粒物(PM10),55,60,92,31,53,87,,,,15,15,6,7,0.8,1
2025-04-11T0500,2277A,116.8305,32.7727,淮南市,潘集区政府,细颗粒物(PM2.5),107,129,134,80,75,54,,,,28,26,8,8,0.8,0.8
2025-04-11T0500,2279A,116.8569,32.5951,淮南市,谢家集区政府,颗粒物(PM10),83,115,140,55,59,68,,,,22,21,8,11,0.5,0.5
2025-04-11T0500,2280A,116.8281,32.633,淮南市,八公山区政府,颗粒物(PM10),91,131,143,54,62,63,,,,20,17,5,10,0.4,0.5
2025-04-11T0500,2281A,116.6325,32.6201,淮南市,焦岗湖风景区管理处,,,,,,,,,,,,,,,,
2025-04-11T0500,2894A,117.0566,32.6531,淮南市,经济技术开发区消防队,颗粒物(PM10),95,140,132,67,73,63,,,,27,26,9,10,0.7,0.7
2025-04-11T0500,3329A,117.0108,32.5893,淮南市,山南新区,颗粒物(PM10),97,143,155,71,66,76,,,,17,16,9,10,0.8,0.7
2025-04-11T0500,4209A,117.0031,32.6445,淮南市,国庆中路369号,颗粒物(PM10),108,165,157,58,72,71,,,,18,23,10,14,0.4,0.4
2025-04-11T0500,2446A,114.9028,30.4742,黄冈市,职工中心,细颗粒物(PM2.5),64,60,66,46,41,92,,,,22,26,14,14,0.7,0.9
2025-04-11T0500,2929A,114.8858,30.4519,黄冈市,红卫路,细颗粒物(PM2.5),59,60,75,42,39,92,,,,14,21,10,11,1.0,1.1
2025-04-11T0500,3398A,114.9136,30.4445,黄冈市,市林业局,细颗粒物(PM2.5),55,57,76,39,37,87,,,,20,26,11,15,0.9,1.1
2025-04-11T0500,2672A,102.0199,35.5102,黄南藏族自治州,同仁县隆务镇,,,108,81,21,24,81,,,,1,3,,18,0.2,0.2
2025-04-11T0500,2295A,118.2903,29.6963,黄山市,延安路89号,,39,39,47,15,30,8,,,,12,9,4,4,0.3,0.3
2025-04-11T0500,2297A,118.1371,30.2756,黄山市,黄山区政府5号楼,颗粒物(PM10),51,51,68,23,27,24,,,,8,5,4,4,0.6,0.6
2025-04-11T0500,4210A,118.3354,29.7203,黄山市,滨江东路7-2号,,49,49,57,25,25,6,,,,9,7,4,4,0.5,0.5
2025-04-11T0500,2423A,115.0601,30.2313,黄石市,沈家营,颗粒物(PM10),63,76,94,35,35,53,,,,31,32,7,8,1.0,0.9
2025-04-11T0500,2426A,114.8988,30.2019,黄石市,铁山,"颗粒物(PM10),细颗粒物(PM2.5)",55,59,81,39,36,83,,,,19,20,14,15,0.2,0.4
2025-04-11T0500,2427A,115.0307,30.2092,黄石市,团城山,颗粒物(PM10),64,77,68,32,29,60,,,,31,21,12,11,1.0,0.8
2025-04-11T0500,3149A,115.0235,30.1578,黄石市,笔架山北路,颗粒物(PM10),53,56,53,30,26,76,,,,22,13,13,11,1.1,1
2025-04-11T0500,4185A,115.0780,30.21118,黄石市,磁湖东路29号,"颗粒物(PM10),细颗粒物(PM2.5)",54,57,75,38,39,72,,,,36,27,14,10,0.8,0.9
2025-04-11T0500,1392A,114.4183,23.0528,惠州市,河南岸金山湖子站,,50,50,43,31,26,15,,,,33,29,8,9,0.7,0.6
2025-04-11T0500,1393A,114.4053,23.0822,惠州市,下埔横江三路子站,"颗粒物(PM10),细颗粒物(PM2.5)",54,57,48,38,28,20,,,,27,26,9,9,0.7,0.7
2025-04-11T0500,1394A,114.4103,23.1142,惠州市,江北云山西路子站,颗粒物(PM10),54,57,48,33,25,21,,,,31,27,12,10,0.6,0.6
2025-04-11T0500,1395A,114.4645,22.7833,惠州市,惠阳区承修路船湖子站,,41,41,38,26,22,22,,,,26,30,9,9,0.6,0.7
2025-04-11T0500,1396A,114.5317,22.7422,惠州市,大亚湾管委会子站,,42,42,36,21,19,24,,,,27,27,7,7,0.5,0.5
2025-04-11T0500,3314A,114.4338,22.8134,惠州市,惠阳秋长,,28,27,43,19,21,21,,,,27,29,13,10,0.5,0.7
2025-04-11T0500,3452A,114.6517,22.775,惠州市,大亚湾霞涌,,28,20,24,19,14,47,,,,14,18,6,6,0.4,0.4
2025-04-11T0500,2240A,130.9762,45.3001,鸡西市,环保局,细颗粒物(PM2.5),195,185,83,146,59,48,,,,33,26,10,9,1.2,0.8
2025-04-11T0500,2243A,130.9429,45.3039,鸡西市,第一中学,细颗粒物(PM2.5),208,200,99,158,76,64,,,,25,20,10,10,1.5,1.1
2025-04-11T0500,3707A,131.0207,45.3073,鸡西市,欧美日汽修厂,细颗粒物(PM2.5),246,318,118,196,82,18,,,,46,28,17,10,1.5,0.9
2025-04-11T0500,3709A,130.9967,45.3106,鸡西市,市政设施管理处,细颗粒物(PM2.5),238,248,111,188,78,17,,,,53,34,8,9,1.3,0.8
2025-04-11T0500,2367A,114.9754,27.0803,吉安市,红声器材厂,颗粒物(PM10),53,55,63,36,42,6,,,,30,20,10,10,0.7,0.7
2025-04-11T0500,2368A,114.9658,27.0999,吉安市,市森林工业局,细颗粒物(PM2.5),60,59,62,43,45,10,,,,28,22,9,10,0.7,0.8
2025-04-11T0500,2369A,114.99,27.1312,吉安市,市环境监测站,细颗粒物(PM2.5),57,54,52,40,36,16,,,,22,18,16,16,0.6,0.7
2025-04-11T0500,2370A,115.0093,27.0968,吉安市,青原区法院,细颗粒物(PM2.5),55,47,56,39,44,3,,,,29,20,14,13,0.7,0.6
2025-04-11T0500,1772A,126.54,43.8622,吉林市,哈达湾,颗粒物(PM10),55,59,97,37,65,104,,,,13,26,8,11,0.5,0.9
2025-04-11T0500,1773A,126.5844,43.8358,吉林市,东局子,颗粒物(PM10),64,78,85,36,64,105,,,,11,36,7,9,0.6,0.9
2025-04-11T0500,1774A,126.5052,43.8245,吉林市,电力学院,细颗粒物(PM2.5),84,78,132,62,106,70,,,,27,37,7,9,0.8,1
2025-04-11T0500,1775A,126.6133,43.8972,吉林市,江北,颗粒物(PM10),55,60,106,32,69,111,,,,10,30,7,7,0.7,1
2025-04-11T0500,1776A,126.555,43.8306,吉林市,江南公园,细颗粒物(PM2.5),59,58,90,42,70,99,,,,13,31,7,9,0.5,0.8
2025-04-11T0500,1778A,126.7061,43.7133,吉林市,丰满,细颗粒物(PM2.5),60,57,55,43,45,85,,,,10,12,6,7,0.8,1
2025-04-11T0500,2868A,126.4739,43.953,吉林市,九站,细颗粒物(PM2.5),77,71,186,56,147,73,,,,30,49,15,27,0.8,1.2
2025-04-11T0500,1299A,116.9862,36.6114,济南市,科干所,颗粒物(PM10),69,88,81,39,34,142,,,,10,16,8,8,0.6,0.6
2025-04-11T0500,1300A,116.9376,36.665,济南市,农科所,颗粒物(PM10),70,90,95,37,35,117,,,,16,24,8,8,0.4,0.5
2025-04-11T0500,1301A,117.1265,36.6734,济南市,开发区,颗粒物(PM10),63,76,71,29,31,128,,,,13,18,9,8,0.6,0.6
2025-04-11T0500,1303A,117.0624,36.6868,济南市,省种子仓库,颗粒物(PM10),74,97,96,39,39,131,,,,5,18,6,6,0.7,0.8
2025-04-11T0500,1304A,116.9489,36.6447,济南市,机床二厂,颗粒物(PM10),68,85,100,44,46,133,,,,13,23,10,10,0.4,0.5
2025-04-11T0500,1305A,117.0495,36.663,济南市,市监测站,颗粒物(PM10),68,85,84,37,36,131,,,,12,23,9,9,0.5,0.6
2025-04-11T0500,1306A,116.7675,36.5484,济南市,长清党校,颗粒物(PM10),68,85,93,37,41,132,,,,14,22,9,8,0.7,0.7
2025-04-11T0500,1616A,117.6795,36.229,济南市,技术学院,颗粒物(PM10),54,58,84,34,42,80,,,,36,28,10,12,0.7,0.8
2025-04-11T0500,1961A,117.532,36.6868,济南市,东山小学,颗粒物(PM10),68,85,79,37,30,119,,,,14,20,11,9,0.7,0.4
2025-04-11T0500,3059A,117.7161,36.2049,济南市,泰兴公司,颗粒物(PM10),53,56,79,34,43,85,,,,28,33,9,12,0.7,0.8
2025-04-11T0500,3064A,117.6867,36.2171,济南市,莱芜战役纪念馆,颗粒物(PM10),57,63,85,24,38,95,,,,26,31,6,8,0.6,0.7
2025-04-11T0500,3494A,117.1673,36.9782,济南市,济阳区政府,颗粒物(PM10),68,85,105,42,45,98,,,,17,37,9,9,0.6,0.6
2025-04-11T0500,3495A,117.1171,36.63,济南市,锦屏中学,颗粒物(PM10),62,73,66,27,26,124,,,,12,13,10,9,0.4,0.4
2025-04-11T0500,3682A,116.9814,36.6819,济南市,济南四建,颗粒物(PM10),65,80,87,34,39,129,,,,11,22,6,6,0.5,0.5
2025-04-11T0500,1653A,116.6251,35.4302,济宁市,火炬城,,49,47,84,34,55,78,,,,13,13,8,7,0.5,0.6
2025-04-11T0500,1655A,116.5491,35.4042,济宁市,电化厂,颗粒物(PM10),60,69,109,31,55,77,,,,18,20,5,7,0.5,0.6
2025-04-11T0500,3500A,116.5814,35.3707,济宁市,北湖一中,,47,47,85,22,47,75,,,,19,21,5,9,0.3,0.6
2025-04-11T0500,3501A,116.8249,35.5593,济宁市,服务中心,颗粒物(PM10),53,55,91,32,45,59,,,,27,27,3,4,0.5,0.7
2025-04-11T0500,3678A,116.5907,35.4054,济宁市,市第七中学,颗粒物(PM10),52,54,91,27,50,78,,,,19,18,8,7,0.5,0.6
2025-04-11T0500,2255A,130.2751,46.8028,佳木斯市,佳纺,,,58,79,46,52,20,,,,,9,7,8,0.6,0.7
2025-04-11T0500,2256A,130.3995,46.8307,佳木斯市,发电厂,细颗粒物(PM2.5),65,53,78,47,58,44,,,,14,18,3,6,0.7,0.9
2025-04-11T0500,2257A,130.3258,46.7975,佳木斯市,环保局,细颗粒物(PM2.5),60,58,80,43,55,3,,,,60,24,4,5,0.6,0.6
2025-04-11T0500,2258A,130.3648,46.8032,佳木斯市,十一中,,,40,71,33,46,57,,,,,,7,8,0.5,0.7
2025-04-11T0500,2259A,130.3794,46.7588,佳木斯市,四丰,,37,37,73,20,42,46,,,,15,12,1,1,1.0,1.1
2025-04-11T0500,1252A,120.7436,30.778,嘉兴市,清河小学,颗粒物(PM10),82,113,99,58,45,43,,,,30,24,8,8,0.9,0.8
2025-04-11T0500,1253A,120.726,30.7478,嘉兴市,嘉兴学院,细颗粒物(PM2.5),92,110,86,68,45,36,,,,37,25,10,10,0.6,0.7
2025-04-11T0500,2872A,120.7846,30.7525,嘉兴市,南湖区残联,细颗粒物(PM2.5),92,83,87,68,45,45,,,,34,23,11,10,0.8,0.8
2025-04-11T0500,3407A,120.6916,30.7739,嘉兴市,秀洲住建,颗粒物(PM10),88,125,101,42,44,40,,,,35,22,8,9,0.6,0.5
2025-04-11T0500,1945A,98.2908,39.7711,嘉峪关市,气象局,,28,17,89,9,20,87,,,,7,12,46,24,0.8,0.7
2025-04-11T0500,2884A,98.2672,39.7978,嘉峪关市,酒钢宾馆,,28,22,120,14,25,88,,,,4,11,44,32,0.3,0.5
2025-04-11T0500,3248A,98.2643,39.7724,嘉峪关市,雄关区,,30,30,74,19,21,76,,,,19,16,8,11,0.1,0.7
2025-04-11T0500,1383A,113.1064,22.6058,江门市,北街,,42,37,36,29,24,28,,,,14,10,2,2,0.6,0.5
2025-04-11T0500,1384A,113.0731,22.5835,江门市,西区,,32,30,37,22,19,33,,,,21,21,8,7,0.6,0.5
2025-04-11T0500,1385A,113.0219,22.5311,江门市,圭峰西,,30,30,37,17,21,38,,,,18,19,4,5,0.4,0.4
2025-04-11T0500,1386A,113.0828,22.5947,江门市,东湖,颗粒物(PM10),53,56,58,23,22,37,,,,14,14,6,6,0.6,0.5
2025-04-11T0500,3311A,113.1075,22.5647,江门市,江海富民,颗粒物(PM10),58,65,50,39,28,27,,,,18,16,7,6,0.6,0.5
2025-04-11T0500,3449A,113.05,22.4667,江门市,新会银湖,,42,36,33,29,21,16,,,,20,14,3,2,0.6,0.4
2025-04-11T0500,1830A,113.1992,35.2590,焦作市,影视城,,,,51,,36,,,,,,9,,3,,0.8
2025-04-11T0500,3169A,113.2725,35.2067,焦作市,太极体育中心,颗粒物(PM10),87,124,118,48,55,91,,,,32,24,12,13,0.4,0.5
2025-04-11T0500,3335A,113.3137,35.2641,焦作市,马村街道办,颗粒物(PM10),97,144,112,47,49,79,,,,34,27,10,12,1.3,0.9
2025-04-11T0500,3336A,113.2465,35.2373,焦作市,焦作技师学院,颗粒物(PM10),91,132,113,61,43,86,,,,20,20,12,10,1.0,0.9
2025-04-11T0500,3477A,113.1656,35.2539,焦作市,中站许衡医院,颗粒物(PM10),66,81,85,42,40,104,,,,20,20,10,12,0.8,0.8
2025-04-11T0500,3981A,113.2449,35.1803,焦作市,原李万街道办,颗粒物(PM10),86,121,122,41,48,94,,,,24,23,16,17,0.5,0.6
2025-04-11T0500,4264A,113.2340,35.2190,焦作市,新安路1731号,颗粒物(PM10),90,129,112,55,51,95,,,,18,18,13,14,1.0,0.9
2025-04-11T0500,1708A,116.3701,23.5345,揭阳市,新兴,细颗粒物(PM2.5),65,,48,47,30,53,,,,11,20,5,6,0.6,0.7
2025-04-11T0500,1709A,116.3264,23.5443,揭阳市,西马,细颗粒物(PM2.5),63,,51,45,28,55,,,,5,14,8,9,0.6,0.7
2025-04-11T0500,1710A,116.3611,23.5626,揭阳市,东兴,细颗粒物(PM2.5),65,50,52,47,31,56,,,,7,14,6,9,0.7,0.8
2025-04-11T0500,1711A,116.4151,23.5294,揭阳市,渔湖,颗粒物(PM10),52,53,47,22,22,52,,,,8,15,4,5,0.8,0.8
2025-04-11T0500,3320A,116.403,23.5699,揭阳市,曲溪,,32,32,40,20,23,55,,,,10,17,2,2,0.5,0.6
2025-04-11T0500,1944A,102.1692,38.5167,金昌市,天庆家园,颗粒物(PM10),72,94,88,16,22,100,,,,2,3,8,8,0.7,0.7
2025-04-11T0500,4022A,102.1647,38.5371,金昌市,金川区人防中心,颗粒物(PM10),91,132,133,14,24,100,,,,4,5,14,15,0.5,0.4
2025-04-11T0500,4239A,102.1930,38.5319,金昌市,长春路96号,颗粒物(PM10),72,94,122,15,23,94,,,,2,2,8,12,0.6,0.6
2025-04-11T0500,1262A,119.647,29.077,金华市,十五中,颗粒物(PM10),60,70,58,39,29,27,,,,40,30,7,7,0.6,0.6
2025-04-11T0500,1263A,119.686,29.1029,金华市,监测站,颗粒物(PM10),57,64,50,32,28,9,,,,59,31,4,4,0.4,0.4
2025-04-11T0500,3659A,119.656,29.1131,金华市,气象局,颗粒物(PM10),57,63,54,31,34,1,,,,68,37,2,2,0.5,0.5
2025-04-11T0500,1767A,121.1115,41.0879,锦州市,南山,细颗粒物(PM2.5),68,53,69,49,64,95,,,,21,30,14,13,0.7,0.8
2025-04-11T0500,1768A,121.0604,40.8428,锦州市,开发区,细颗粒物(PM2.5),68,56,77,49,54,89,,,,27,27,6,12,0.6,0.6
2025-04-11T0500,1769A,121.1836,41.1119,锦州市,百股街道,细颗粒物(PM2.5),52,52,66,36,41,98,,,,20,26,8,11,0.5,0.6
2025-04-11T0500,1770A,121.1178,41.1222,锦州市,天安街道,细颗粒物(PM2.5),70,53,74,51,65,105,,,,20,31,14,13,0.6,0.8
2025-04-11T0500,1771A,121.1303,41.1386,锦州市,北湖公园,细颗粒物(PM2.5),68,56,74,49,60,99,,,,22,32,13,12,0.7,0.8
2025-04-11T0500,2160A,112.85,35.5051,晋城市,自来水公司,颗粒物(PM10),86,122,73,53,29,52,,,,34,24,9,10,0.7,0.7
2025-04-11T0500,2161A,112.8318,35.4936,晋城市,白云商贸,颗粒物(PM10),69,88,72,24,17,68,,,,25,24,6,8,0.7,0.7
2025-04-11T0500,2162A,112.8508,35.4887,晋城市,市环保局,颗粒物(PM10),78,106,73,36,23,42,,,,40,23,4,6,0.4,0.6
2025-04-11T0500,2163A,112.8676,35.4897,晋城市,技术学院,颗粒物(PM10),81,112,79,29,29,34,,,,53,28,8,10,0.6,0.5
2025-04-11T0500,2165A,112.8453,35.546,晋城市,白马寺,颗粒物(PM10),67,83,66,40,33,138,,,,8,11,9,8,0.8,0.8
2025-04-11T0500,3620A,112.8271,35.4828,晋城市,泽州一中,颗粒物(PM10),69,88,71,36,23,76,,,,21,18,8,6,0.7,0.7
2025-04-11T0500,2173A,112.7249,37.7067,晋中市,南都小区,颗粒物(PM10),61,72,61,23,22,31,,,,39,27,10,12,0.4,0.4
2025-04-11T0500,2174A,112.6991,37.6982,晋中市,榆次区政府,,48,48,61,12,16,39,,,,31,28,11,13,0.3,0.3
2025-04-11T0500,2865A,112.7195,37.6828,晋中市,榆次三中,颗粒物(PM10),62,73,66,9,20,32,,,,39,30,10,10,0.3,0.4
2025-04-11T0500,4200A,112.7478,37.6954,晋中市,迎宾街26号,颗粒物(PM10),58,66,62,14,21,36,,,,27,24,9,10,0.3,0.3
2025-04-11T0500,2439A,112.2014,31.0481,荆门市,竹园小学,细颗粒物(PM2.5),112,,61,84,40,73,,,,24,16,10,7,0.5,0.3
2025-04-11T0500,2440A,112.1969,30.9891,荆门市,掇刀,细颗粒物(PM2.5),104,79,62,78,47,112,,,,16,12,14,11,0.5,0.3
2025-04-11T0500,2441A,112.2213,31.0386,荆门市,石化一小,细颗粒物(PM2.5),202,,67,152,47,45,,,,35,20,12,10,0.3,0.1
2025-04-11T0500,3012A,112.1849,31.0362,荆门市,西山林语,细颗粒物(PM2.5),98,,50,73,35,64,,,,9,9,6,7,0.3,0.3
2025-04-11T0500,3547A,112.1632,31.0138,荆门市,龙泉中学南校,细颗粒物(PM2.5),62,60,53,44,31,88,,,,7,10,11,9,0.9,0.6
2025-04-11T0500,1844A,112.2494,30.3197,荆州市,市图书馆,细颗粒物(PM2.5),65,56,49,47,35,102,,,,11,17,10,7,0.8,0.6
2025-04-11T0500,1845A,112.2008,30.3544,荆州市,市委党校,细颗粒物(PM2.5),72,64,53,52,37,99,,,,14,15,14,9,0.8,0.6
2025-04-11T0500,3194A,112.2747,30.3122,荆州市,管委会,细颗粒物(PM2.5),62,63,51,44,34,93,,,,9,14,7,8,0.8,0.7
2025-04-11T0500,4268A,112.1722,30.3366,荆州市,学苑路85号,细颗粒物(PM2.5),74,57,44,54,38,53,,,,34,22,11,11,0.8,0.6
2025-04-11T0500,2342A,117.3102,29.3867,景德镇市,王港中学,,,,,,,,,,,,,,,,
2025-04-11T0500,2343A,117.2117,29.2933,景德镇市,老干部活动中心,颗粒物(PM10),56,62,48,21,26,22,,,,27,18,6,8,0.5,0.5
2025-04-11T0500,2344A,117.1894,29.2789,景德镇市,兽医站,颗粒物(PM10),53,56,57,32,28,28,,,,29,20,3,6,0.5,0.5
2025-04-11T0500,2345A,117.1547,29.2617,景德镇市,台达陶瓷,,49,47,65,34,33,31,,,,25,26,3,17,0.5,0.6
2025-04-11T0500,2346A,117.2461,29.2956,景德镇市,陶研所,细颗粒物(PM2.5),52,47,46,36,32,17,,,,20,17,4,8,0.7,0.7
2025-04-11T0500,1803A,115.9872,29.6815,九江市,十里,颗粒物(PM10),51,52,65,32,38,62,,,,22,21,3,4,0.7,0.7
2025-04-11T0500,1804A,115.9584,29.7046,九江市,茅山头,颗粒物(PM10),59,68,61,35,35,13,,,,65,38,7,6,0.6,0.5
2025-04-11T0500,1805A,115.9877,29.7295,九江市,西园,颗粒物(PM10),54,58,62,28,31,38,,,,48,46,8,9,1.0,1
2025-04-11T0500,1808A,115.9114,29.6038,九江市,综合工业园,,44,44,54,30,30,76,,,,37,35,10,9,0.7,0.8
2025-04-11T0500,1809A,116.0721,29.7535,九江市,石化总厂,细颗粒物(PM2.5),64,,57,46,46,73,,,,9,20,5,7,0.7,0.8
2025-04-11T0500,1810A,115.9773,29.5698,九江市,庐山气象台,,36,23,61,16,32,114,,,,6,11,7,7,0.6,0.8
2025-04-11T0500,3190A,116.0254,29.6994,九江市,外国语学校,细颗粒物(PM2.5),52,,32,36,35,68,,,,15,19,15,10,0.9,1
2025-04-11T0500,4253A,116.0102,29.6594,九江市,莲花大道8号,细颗粒物(PM2.5),52,43,54,36,43,79,,,,5,9,5,6,0.7,0.7
2025-04-11T0500,4240A,98.4958,39.7339,酒泉市,玉门东路5号,,49,,125,34,29,86,,,,2,7,10,13,0.2,0.3
2025-04-11T0500,4241A,98.5099,39.7506,酒泉市,北大街108号,,36,,145,25,22,90,,,,3,7,9,12,0,0.2
2025-04-11T0500,2698A,76.0072,39.4467,喀什地区,巡警大队,颗粒物(PM10),500,834,155,64,22,96,,,,6,12,3,3,0.3,0.4
2025-04-11T0500,2699A,75.9755,39.4694,喀什地区,吾办,颗粒物(PM10),500,878,145,102,28,100,,,,5,11,3,5,0.3,0.3
2025-04-11T0500,4027A,75.9483,39.4689,喀什地区,老干局,颗粒物(PM10),500,879,140,106,23,102,,,,6,8,2,2,0.1,0.4
2025-04-11T0500,1824A,114.3389,34.7781,开封市,肿瘤医院,细颗粒物(PM2.5),93,123,124,69,64,83,,,,19,20,7,10,1.0,1
2025-04-11T0500,1826A,114.2885,34.7965,开封市,世纪星幼儿园,细颗粒物(PM2.5),117,113,119,88,76,86,,,,22,22,5,8,0.8,0.8
2025-04-11T0500,3147A,114.3438,34.8106,开封市,龙亭公园,细颗粒物(PM2.5),100,128,135,75,73,85,,,,20,20,4,6,0.9,0.9
2025-04-11T0500,3210A,114.3644,34.7964,开封市,汴京公园,细颗粒物(PM2.5),115,141,151,87,88,82,,,,22,23,4,6,0.9,0.9
2025-04-11T0500,3473A,114.2485,34.8306,开封市,技师学院,,,,127,,98,,,122,,,26,,5,,1.1
2025-04-11T0500,3592A,114.4644,34.7556,开封市,祥符区生态环境局,颗粒物(PM10),89,127,143,54,58,77,,,,23,28,6,10,0.8,0.9
2025-04-11T0500,1951A,84.895,45.6094,克拉玛依市,长征新村,,21,12,10,8,7,65,,,,14,7,6,6,0.1,0.2
2025-04-11T0500,1952A,84.8988,45.5893,克拉玛依市,南林小区,,24,12,11,3,6,76,,,,5,2,2,2,0.2,0.2
2025-04-11T0500,1954A,84.905,44.3396,克拉玛依市,独山子区,,28,13,18,3,7,89,,,,1,4,6,7,0.2,0.2
2025-04-11T0500,1955A,85.6979,46.098,克拉玛依市,乌尔禾区商贸楼,,23,23,14,3,8,55,,,,11,4,5,6,0.2,0.1
2025-04-11T0500,3612A,85.1045,45.6899,克拉玛依市,白碱滩区新站,,23,10,22,9,6,71,,,,10,5,9,9,0.2,0.2
2025-04-11T0500,2697A,76.1454,39.7142,克孜勒苏柯尔克孜自治州,市人民政府,颗粒物(PM10),101,152,74,27,24,120,,,,2,7,5,6,0.3,0.3
2025-04-11T0500,3665A,76.1658,39.7157,克孜勒苏柯尔克孜自治州,克州文化中心,颗粒物(PM10),116,182,74,24,20,110,,,,2,5,6,7,0.3,0.3
2025-04-11T0500,1450A,102.8204,24.8886,昆明市,呈贡新区,细颗粒物(PM2.5),59,58,66,42,52,120,,,,11,20,7,7,0.6,0.7
2025-04-11T0500,1451A,102.6251,24.9608,昆明市,西山森林公园,,,,,,,,,,,,,,,,
2025-04-11T0500,1452A,102.7252,25.0902,昆明市,龙泉镇,颗粒物(PM10),51,52,59,32,47,118,,,,12,23,8,9,0.5,0.7
2025-04-11T0500,1453A,102.7266,25.0375,昆明市,东风东路,,49,45,66,34,48,124,,,,12,18,15,10,0.7,0.7
2025-04-11T0500,1454A,102.6742,25.0669,昆明市,金鼎山,,49,34,63,34,44,127,,,,8,24,8,10,0.6,0.8
2025-04-11T0500,1455A,102.6644,25.0401,昆明市,碧鸡广场,,49,47,63,34,44,124,,,,9,22,9,10,0.7,0.8
2025-04-11T0500,3179A,102.7494,25.0119,昆明市,官渡区博物馆,,43,41,64,30,43,123,,,,11,19,10,8,0.5,0.5
2025-04-11T0500,3375A,102.8017,24.8336,昆明市,青年创业园,细颗粒物(PM2.5),63,64,63,45,47,117,,,,9,18,12,11,0.7,0.6
2025-04-11T0500,3550A,102.7997,24.9786,昆明市,昆明学院,,48,48,72,33,49,127,,,,7,20,4,6,0.4,0.6
2025-04-11T0500,3551A,102.5967,24.6736,昆明市,晋宁区生态环境分局,细颗粒物(PM2.5),58,48,50,41,42,122,,,,7,9,8,8,0.9,0.9
2025-04-11T0500,3552A,102.6678,24.9856,昆明市,云天化总部,细颗粒物(PM2.5),54,48,61,38,43,127,,,,9,18,13,10,0.7,0.7
2025-04-11T0500,1456A,91.1319,29.6514,拉萨市,八廓街,,43,9,21,6,9,137,,,,6,11,6,6,0.5,0.5
2025-04-11T0500,1457A,91.1221,29.6747,拉萨市,市环保局,,41,8,23,6,11,130,,,,10,15,4,4,0.3,0.4
2025-04-11T0500,1458A,91.0874,29.6475,拉萨市,区监测站,,43,6,17,3,8,136,,,,5,12,5,6,0.5,0.4
2025-04-11T0500,1459A,91.1774,29.6541,拉萨市,西藏大学,,39,7,21,6,8,124,,,,9,14,5,6,0.5,0.5
2025-04-11T0500,1460A,90.9798,29.6588,拉萨市,区辐射站,,44,8,23,3,11,140,,,,5,19,7,8,0.4,0.4
2025-04-11T0500,1461A,91.0834,29.6292,拉萨市,拉萨火车站,,43,7,17,3,7,135,,,,3,7,4,4,0.2,0.2
2025-04-11T0500,2520A,109.2203,23.7256,来宾市,来宾技工学校,,49,47,46,34,28,53,,,,12,12,5,5,0.8,0.8
2025-04-11T0500,3535A,109.1781,23.7297,来宾市,兴宾区政府,,39,37,43,27,29,58,,,,8,11,7,8,1.0,1
2025-04-11T0500,4002A,109.2416,23.7461,来宾市,中南小学,,46,46,49,30,28,53,,,,13,12,5,5,0.8,0.8
2025-04-11T0500,1477A,104.1373,35.9454,兰州市,榆中兰大校区,,,,,,,,,,,,,,,,
2025-04-11T0500,1479A,103.831,36.0464,兰州市,铁路设计院,颗粒物(PM10),136,222,131,71,37,17,,,,71,39,6,11,0.6,0.6
2025-04-11T0500,3241A,103.7439,36.0842,兰州市,百合公园,颗粒物(PM10),157,264,136,74,39,37,,,,32,21,8,9,0.1,0.5
2025-04-11T0500,3242A,103.9611,35.998,兰州市,和平,颗粒物(PM10),140,229,153,83,50,75,,,,9,16,8,13,0.4,0.6
2025-04-11T0500,4236A,103.6293,36.0938,兰州市,庄浪东路808号,颗粒物(PM10),130,210,152,76,59,79,,,,13,20,10,17,0.2,0.4
2025-04-11T0500,4237A,103.7251,36.1043,兰州市,安宁西路88号,颗粒物(PM10),153,255,178,80,55,65,,,,20,19,12,13,0.3,0.3
2025-04-11T0500,4238A,103.8470,36.0676,兰州市,北滨河东路1号,颗粒物(PM10),136,221,137,72,46,32,,,,53,33,10,13,0.5,0.6
2025-04-11T0500,3245A,103.6633,36.533,兰州新区,新区管委会,颗粒物(PM10),67,84,130,24,48,103,,,,6,11,10,20,0,0.1
2025-04-11T0500,3246A,103.6975,36.4789,兰州新区,舟曲中学,颗粒物(PM10),109,167,165,45,46,91,,,,14,12,18,10,0.1,0.1
2025-04-11T0500,1067A,116.6708,39.5111,廊坊市,药材公司,细颗粒物(PM2.5),137,156,119,104,71,51,,,,38,28,8,6,0.7,0.6
2025-04-11T0500,1068A,116.7214,39.5589,廊坊市,开发区,细颗粒物(PM2.5),120,165,122,91,60,48,,,,32,30,8,5,0.5,0.4
2025-04-11T0500,1070A,116.7244,39.5269,廊坊市,北华航天学院,细颗粒物(PM2.5),135,173,130,103,68,48,,,,38,27,11,8,0.6,0.5
2025-04-11T0500,2919A,116.7022,39.5453,廊坊市,河北工业大学,细颗粒物(PM2.5),114,147,125,86,76,71,,,,31,26,12,9,0.5,0.4
2025-04-11T0500,2535A,103.7723,29.5462,乐山市,花湖湾,颗粒物(PM10),64,78,74,8,7,92,,,,22,24,10,8,0.7,0.7
2025-04-11T0500,2536A,103.7627,29.5844,乐山市,牛耳桥,细颗粒物(PM2.5),65,78,79,47,47,84,,,,28,30,12,9,0.7,0.8
2025-04-11T0500,2537A,103.7508,29.6006,乐山市,市第三水厂,细颗粒物(PM2.5),68,70,76,49,47,100,,,,18,29,8,6,0.7,0.8
2025-04-11T0500,2538A,103.7571,29.5664,乐山市,市监测站,细颗粒物(PM2.5),70,69,75,51,51,80,,,,25,25,10,8,0.7,0.7
2025-04-11T0500,3361A,103.7311,29.5628,乐山市,理工大学,细颗粒物(PM2.5),75,75,78,55,50,64,,,,29,28,7,6,0.8,0.8
2025-04-11T0500,2598A,100.2143,26.8576,丽江市,西南郊,,40,25,39,22,24,126,,,,2,2,5,5,0.6,0.6
2025-04-11T0500,2599A,100.2497,26.8802,丽江市,丽江古城,,37,24,35,20,22,116,,,,6,10,7,7,0.6,0.6
2025-04-11T0500,2600A,100.2203,26.8906,丽江市,市中心,,35,30,29,21,23,112,,,,10,13,9,9,0.6,0.6
2025-04-11T0500,1267A,119.914,28.4514,丽水市,监测站大楼,,38,38,35,21,18,6,,,,48,24,2,2,0.5,0.5
2025-04-11T0500,1268A,119.93,28.4586,丽水市,莲都小学,,42,42,35,17,17,18,,,,42,20,3,3,0.3,0.4
2025-04-11T0500,1269A,119.879,28.4231,丽水市,余庄前,,40,40,31,25,19,4,,,,16,15,3,3,0.5,0.6
2025-04-11T0500,1173A,119.176,34.5885,连云港市,市环境监测站,,42,39,55,29,31,115,,,,9,14,10,11,0.6,0.6
2025-04-11T0500,3000A,119.3581,34.6972,连云港市,德源药业,,39,39,52,27,27,108,,,,13,20,9,9,0.6,0.6
2025-04-11T0500,3007A,119.178,34.844,连云港市,新城一中,颗粒物(PM10),51,51,70,26,41,64,,,,56,37,8,8,0.8,0.7
2025-04-11T0500,3008A,119.3608,34.7519,连云港市,胡沟管理处,,35,34,41,17,22,110,,,,19,30,10,12,0.6,0.5
2025-04-11T0500,3009A,119.1478,34.5911,连云港市,矿山设计院,,44,44,58,24,30,109,,,,14,18,8,10,0.6,0.6
2025-04-11T0500,3434A,119.2413,34.6539,连云港市,工贸学校,,39,34,43,21,26,122,,,,17,20,9,9,0.6,0.6
2025-04-11T0500,3664A,119.4172,34.7341,连云港市,连云街道,颗粒物(PM10),52,54,50,26,26,113,,,,31,26,11,9,0.8,0.6
2025-04-11T0500,2571A,102.3431,27.8099,凉山彝族自治州,青龙寺,,42,42,33,12,13,73,,,,16,12,7,8,0.5,0.6
2025-04-11T0500,2572A,102.2721,27.8415,凉山彝族自治州,邛海宾馆,细颗粒物(PM2.5),54,51,64,38,39,114,,,,8,16,20,12,0.6,0.6
2025-04-11T0500,2573A,102.2625,27.898,凉山彝族自治州,西昌市政府,,48,42,36,33,26,105,,,,13,10,17,11,1.1,0.6
2025-04-11T0500,2574A,102.2685,27.8851,凉山彝族自治州,凉山州政府,颗粒物(PM10),52,53,41,32,26,110,,,,16,14,18,9,1.3,0.9
2025-04-11T0500,4229A,102.2342,27.8859,凉山彝族自治州,凯乐南路30号,,50,50,48,30,31,105,,,,9,18,10,12,0.7,0.9
2025-04-11T0500,2212A,123.2,41.1953,辽阳市,宏伟区,,45,37,53,31,36,125,,,,7,14,10,13,0.6,0.7
2025-04-11T0500,2213A,123.1683,41.2495,辽阳市,新华园,,39,36,73,26,37,122,,,,16,27,7,10,0.4,0.6
2025-04-11T0500,2214A,123.2354,41.2639,辽阳市,滨河路,细颗粒物(PM2.5),55,,57,39,40,107,,,,11,18,30,22,0.6,0.8
2025-04-11T0500,2215A,123.149,41.2991,辽阳市,铁西工业园,,50,45,89,35,48,120,,,,11,24,8,16,0.5,1.1
2025-04-11T0500,2227A,125.1358,42.8845,辽源市,环保局,,40,36,75,16,48,127,,,,14,26,7,9,0.4,0.8
2025-04-11T0500,3239A,125.0764,42.9078,辽源市,银鹰制药,,42,29,59,17,42,133,,,,13,21,8,10,0.6,0.8
2025-04-11T0500,1625A,115.9848,36.4372,聊城市,区政府,颗粒物(PM10),73,96,127,42,52,89,,,,24,29,14,12,0.5,0.5
2025-04-11T0500,2878A,116.0072,36.4343,聊城市,聊大东校,颗粒物(PM10),79,107,143,51,70,90,,,,19,23,12,10,0.9,0.8
2025-04-11T0500,3200A,115.9819,36.4978,聊城市,监控中心,颗粒物(PM10),78,105,123,46,63,93,,,,17,23,10,9,0.6,0.6
2025-04-11T0500,3513A,116.0445,36.4361,聊城市,九州社区,颗粒物(PM10),73,96,120,40,53,94,,,,8,18,3,4,0.5,0.5
2025-04-11T0500,4018A,116.0567,36.4608,聊城市,星美广场,颗粒物(PM10),69,88,126,38,47,97,,,,15,20,11,11,0.8,0.8
2025-04-11T0500,2632A,94.3681,29.6376,林芝市,林芝监测站,,33,6,20,3,8,103,,,,3,7,4,5,0.4,0.3
2025-04-11T0500,2633A,94.3616,29.6616,林芝市,林芝人民医院,,27,7,16,3,9,86,,,,1,4,8,8,0.4,0.4
2025-04-11T0500,2603A,100.0781,23.8982,临沧市,市环保局,细颗粒物(PM2.5),73,74,81,53,59,70,,,,17,18,6,7,0.8,0.8
2025-04-11T0500,2604A,100.0894,23.8822,临沧市,市气象局,细颗粒物(PM2.5),79,71,73,58,61,71,,,,21,23,6,7,0.9,0.9
2025-04-11T0500,1733A,111.5531,36.0783,临汾市,临钢医院,颗粒物(PM10),67,83,93,19,17,34,,,,34,34,6,9,0.8,0.7
2025-04-11T0500,1734A,111.5028,36.0714,临汾市,技工学校,颗粒物(PM10),63,75,72,30,23,30,,,,35,29,4,7,0.9,0.6
2025-04-11T0500,1736A,111.5018,36.0855,临汾市,市委,颗粒物(PM10),70,90,74,25,23,30,,,,42,33,7,10,1.1,0.8
2025-04-11T0500,3018A,111.505,36.1014,临汾市,唐尧大酒店,颗粒物(PM10),72,94,83,20,24,23,,,,40,28,9,10,1.1,0.8
2025-04-11T0500,4244A,111.4879,36.0530,临汾市,启星学校,颗粒物(PM10),58,66,76,25,21,31,,,,31,30,5,8,0.9,0.6
2025-04-11T0500,4271A,103.2464,35.6123,临夏回族自治州,滨河东路1号,颗粒物(PM10),93,135,135,50,48,23,,,,23,18,7,8,0.5,0.4
2025-04-11T0500,4310A,103.2093,35.5995,临夏回族自治州,新华街21号,颗粒物(PM10),146,242,148,86,48,48,,,,15,14,10,12,0.4,0.4
2025-04-11T0500,1618A,118.3429,35.0532,临沂市,沂河小区,细颗粒物(PM2.5),60,58,73,43,48,82,,,,18,18,9,11,0.6,0.7
2025-04-11T0500,1619A,118.295,35.0583,临沂市,鲁南制药厂,细颗粒物(PM2.5),59,48,65,42,44,89,,,,28,25,11,14,0.8,0.8
2025-04-11T0500,1620A,118.2794,34.9976,临沂市,新光毛纺厂,细颗粒物(PM2.5),55,51,69,39,46,81,,,,51,32,8,10,0.4,0.5
2025-04-11T0500,1621A,118.3956,35.0888,临沂市,河东保险公司,颗粒物(PM10),58,66,70,40,44,41,,,,58,35,3,5,0.4,0.4
2025-04-11T0500,3370A,118.3564,35.0215,临沂市,十里堡居委,细颗粒物(PM2.5),55,58,62,39,38,82,,,,31,26,4,6,0.7,0.8
2025-04-11T0500,3496A,118.3604,35.1084,临沂市,南坊新区,颗粒物(PM10),52,53,67,29,41,69,,,,32,23,6,9,0.6,0.7
2025-04-11T0500,3860A,118.3920,35.0300,临沂市,皇山花园小区,,48,46,65,33,41,79,,,,26,24,8,10,0.5,0.6
2025-04-11T0500,1870A,109.4856,24.3895,柳州市,柳东小学,,46,37,57,32,47,54,,,,15,18,18,12,0.8,0.9
2025-04-11T0500,1871A,109.4157,24.3277,柳州市,环保监测站,,45,45,79,31,64,56,,,,10,19,9,14,0.8,1
2025-04-11T0500,1872A,109.389,24.341,柳州市,河西水厂,,46,46,90,27,55,62,,,,8,20,6,14,0.8,1.1
2025-04-11T0500,1873A,109.4311,24.2921,柳州市,市四中,,50,43,90,35,54,48,,,,13,21,8,11,0.7,1
2025-04-11T0500,1874A,109.4006,24.3631,柳州市,市九中,,48,46,81,33,56,64,,,,6,17,8,12,0.7,1
2025-04-11T0500,1875A,109.4958,24.3134,柳州市,古亭山,,40,40,71,28,40,65,,,,8,15,6,8,0.9,1
2025-04-11T0500,3402A,109.5422,24.3996,柳州市,市二中,细颗粒物(PM2.5),54,52,63,38,41,36,,,,22,17,11,17,0.8,0.8
2025-04-11T0500,2307A,116.5079,31.737,六安市,监测大楼,,45,44,79,31,35,98,,,,10,13,6,6,0.5,0.4
2025-04-11T0500,2308A,116.4738,31.7643,六安市,皖西学院,颗粒物(PM10),56,61,86,39,31,92,,,,14,13,5,5,0.6,0.5
2025-04-11T0500,2309A,116.4996,31.7905,六安市,朝阳厂,颗粒物(PM10),53,55,78,34,33,77,,,,19,18,4,4,0.6,0.5
2025-04-11T0500,2310A,116.5567,31.7886,六安市,开发区,颗粒物(PM10),59,68,109,39,39,72,,,,23,22,5,6,0.7,0.6
2025-04-11T0500,2576A,104.8,26.5892,六盘水市,窑上,细颗粒物(PM2.5),72,59,69,52,54,69,,,,6,11,5,6,0.5,0.6
2025-04-11T0500,2577A,104.83,26.5917,六盘水市,黄土坡,细颗粒物(PM2.5),57,44,63,40,42,85,,,,13,19,12,14,0.9,1
2025-04-11T0500,2578A,104.89,26.5939,六盘水市,水钢,细颗粒物(PM2.5),58,57,69,41,45,88,,,,7,14,8,11,0.6,0.8
2025-04-11T0500,2579A,104.8475,26.5894,六盘水市,民中,细颗粒物(PM2.5),62,53,59,44,46,86,,,,8,15,8,10,0.7,0.7
2025-04-11T0500,2580A,104.9544,26.5506,六盘水市,双水,颗粒物(PM10),52,53,69,28,42,93,,,,7,13,9,11,0.3,0.4
2025-04-11T0500,2335A,117.0189,25.1181,龙岩市,龙岩师专,,,,,,,,,,,,,,,,
2025-04-11T0500,2336A,117.0217,25.1033,龙岩市,龙岩市监测站,,39,36,24,27,18,3,,,,33,20,5,6,0.6,0.6
2025-04-11T0500,2337A,117.0258,25.0661,龙岩市,闽西职业技术学院,,48,48,25,26,18,16,,,,23,18,21,12,0.6,0.5
2025-04-11T0500,2338A,117.0196,25.0306,龙岩市,龙岩学院,,30,24,20,21,16,19,,,,12,10,2,3,0.5,0.5
2025-04-11T0500,2665A,105.0822,33.3261,陇南市,汉王镇固水子,,,,,,,,,,,,,,,,
2025-04-11T0500,2885A,104.9339,33.3826,陇南市,滨江中学,,47,47,68,15,24,76,,,,2,5,9,8,0.2,0.3
2025-04-11T0500,3247A,104.955,33.371,陇南市,市总工会,,36,36,63,15,25,82,,,,3,5,12,10,0.6,0.6
2025-04-11T0500,2487A,111.9589,27.8901,娄底市,电视发射台,颗粒物(PM10),64,78,78,35,33,26,,,,4,6,6,6,0.7,0.7
2025-04-11T0500,2488A,111.9975,27.725,娄底市,市监测站,细颗粒物(PM2.5),80,79,80,59,58,16,,,,26,19,10,12,1.1,1
2025-04-11T0500,2489A,112.0194,27.7314,娄底市,市委党校,细颗粒物(PM2.5),83,71,72,61,58,29,,,,20,18,4,5,0.6,0.8
2025-04-11T0500,2490A,111.9561,27.7569,娄底市,涟钢,细颗粒物(PM2.5),77,76,80,56,59,15,,,,18,22,6,11,0.4,0.4
2025-04-11T0500,2491A,111.9892,27.7044,娄底市,市政府,细颗粒物(PM2.5),78,79,78,57,58,14,,,,15,17,4,7,0.5,0.7
2025-04-11T0500,1893A,105.4324,28.9634,泸州市,九狮山,,,,,,,,,,,,,,,,
2025-04-11T0500,1894A,105.4427,28.9063,泸州市,小市上码头,细颗粒物(PM2.5),80,90,99,59,66,74,,,,15,24,6,10,0.9,1
2025-04-11T0500,1895A,105.4241,28.8573,泸州市,兰田宪桥,细颗粒物(PM2.5),89,78,92,66,74,69,,,,15,22,7,11,0.9,1
2025-04-11T0500,1896A,105.4379,28.8833,泸州市,市环监站,,,,,,,,,,,,,,,,
2025-04-11T0500,4272A,105.3689,28.7783,泸州市,纳溪中医医院,细颗粒物(PM2.5),114,,99,86,81,59,,,,17,25,7,9,0.9,1
2025-04-11T0500,2183A,111.1406,37.5211,吕梁市,环保局,颗粒物(PM10),81,111,64,36,20,6,,,,53,28,5,6,0.5,0.3
2025-04-11T0500,2185A,111.1297,37.5136,吕梁市,自来水公司,颗粒物(PM10),133,215,81,39,19,3,,,,54,30,9,5,0.7,0.6
2025-04-11T0500,2867A,111.1283,37.51,吕梁市,马茂庄小学,颗粒物(PM10),106,161,73,38,18,4,,,,60,36,11,3,0.4,0.3
2025-04-11T0500,1812A,112.3931,34.6516,洛阳市,市委党校,颗粒物(PM10),84,117,115,54,53,36,,,,55,24,6,7,1.0,0.8
2025-04-11T0500,1815A,112.494,34.6886,洛阳市,河南林校,颗粒物(PM10),89,127,124,59,61,60,,,,30,26,8,7,0.9,0.9
2025-04-11T0500,1816A,112.3844,34.623,洛阳市,开发区管委会,颗粒物(PM10),77,104,118,54,64,62,,,,29,18,9,11,0.6,0.5
2025-04-11T0500,1817A,112.4267,34.6258,洛阳市,市委新办公区,颗粒物(PM10),86,121,119,50,48,55,,,,30,21,6,7,0.7,0.5
2025-04-11T0500,3340A,112.6005,34.6326,洛阳市,伊滨,颗粒物(PM10),78,105,103,50,53,52,,,,34,29,9,10,0.7,0.6
2025-04-11T0500,3341A,112.4951,34.6332,洛阳市,中移产业园,颗粒物(PM10),92,133,132,49,52,51,,,,34,24,11,9,0.8,0.8
2025-04-11T0500,3593A,112.5736,34.8993,洛阳市,吉利监测站,颗粒物(PM10),92,133,109,59,33,50,,,,32,29,10,10,1.0,0.8
2025-04-11T0500,3635A,112.3677,34.662,洛阳市,河科大西苑校区,颗粒物(PM10),89,128,118,60,54,21,,,,60,28,9,10,0.8,0.7
2025-04-11T0500,3636A,112.4388,34.6781,洛阳市,英才小学,颗粒物(PM10),87,123,113,52,49,64,,,,32,28,11,10,0.9,0.8
2025-04-11T0500,4214A,112.4600,34.6949,洛阳市,春都路1号院,颗粒物(PM10),82,114,111,46,47,68,,,,32,28,11,9,1.0,0.8
2025-04-11T0500,2399A,114.051,33.5699,漯河市,三五一五工厂,颗粒物(PM10),85,120,135,53,69,62,,,,29,17,8,7,0.6,0.7
2025-04-11T0500,2400A,114.0055,33.5698,漯河市,漯河大学,颗粒物(PM10),77,103,132,51,63,84,,,,16,17,7,8,0.5,0.6
2025-04-11T0500,2401A,114.0138,33.5828,漯河市,市水利局,颗粒物(PM10),78,105,134,44,65,80,,,,18,15,6,7,0.4,0.5
2025-04-11T0500,2402A,114.0261,33.5698,漯河市,市广电局,颗粒物(PM10),83,115,136,50,63,68,,,,24,17,6,7,0.5,0.6
2025-04-11T0500,3478A,113.9749,33.5664,漯河市,市图书馆,颗粒物(PM10),83,115,138,50,66,79,,,,21,18,14,7,0.6,0.7
2025-04-11T0500,4250A,114.0892,33.5882,漯河市,韶山路11号,颗粒物(PM10),95,139,139,54,67,68,,,,27,20,4,5,0.4,0.6
2025-04-11T0500,1798A,118.5092,31.6837,马鞍山市,湖东路四小,,,100,106,59,45,82,,,,,27,10,11,0.9,0.8
2025-04-11T0500,1799A,118.5024,31.6449,马鞍山市,开发区,细颗粒物(PM2.5),134,134,111,102,55,72,,,,32,37,8,7,1.2,0.9
2025-04-11T0500,1802A,118.6245,31.7241,马鞍山市,濮塘,细颗粒物(PM2.5),94,102,104,70,47,79,,,,20,17,13,12,0.8,0.7
2025-04-11T0500,3633A,118.4918,31.6809,马鞍山市,雨山,细颗粒物(PM2.5),74,88,100,54,45,71,,,,23,28,8,10,1.1,0.9
2025-04-11T0500,4191A,118.5274,31.72227,马鞍山市,慈湖高新区,"颗粒物(PM10),细颗粒物(PM2.5)",97,143,123,72,56,76,,,,31,33,11,12,0.9,0.9
2025-04-11T0500,1686A,111.0286,21.4688,茂名市,电白南海,,28,19,31,19,24,45,,,,10,14,1,2,0.7,0.7
2025-04-11T0500,1687A,110.9294,21.6533,茂名市,茂石化七小,,31,31,41,19,20,40,,,,8,13,3,4,0.8,0.9
2025-04-11T0500,1688A,110.9107,21.6687,茂名市,健康路,,32,27,37,22,22,44,,,,6,10,3,5,0.7,0.8
2025-04-11T0500,1689A,110.8592,21.6828,茂名市,高岭,,27,27,42,17,18,41,,,,7,12,3,6,0.6,0.7
2025-04-11T0500,3450A,111.01,21.5165,茂名市,电白水东,,17,17,25,9,13,47,,,,10,15,2,2,0.7,0.7
2025-04-11T0500,2539A,104.0308,30.0478,眉山市,黑龙滩水库,颗粒物(PM10),53,56,44,36,22,53,,,,23,10,2,2,0.6,0.5
2025-04-11T0500,2540A,103.8416,30.0874,眉山市,气象局,颗粒物(PM10),71,92,95,48,48,59,,,,33,36,3,5,0.7,0.8
2025-04-11T0500,3137A,103.8578,30.0744,眉山市,市委党校,颗粒物(PM10),67,83,84,41,42,72,,,,21,35,9,11,0.8,0.9
2025-04-11T0500,3148A,103.8291,30.0564,眉山市,区人社局,细颗粒物(PM2.5),58,47,44,41,38,67,,,,30,30,16,10,0.9,0.8
2025-04-11T0500,1690A,116.1231,24.3284,梅州市,梅江月梅,,38,38,24,24,17,7,,,,30,18,5,4,0.6,0.6
2025-04-11T0500,1691A,116.0797,24.2719,梅州市,梅县新城,,33,28,30,23,22,14,,,,27,21,6,5,0.5,0.6
2025-04-11T0500,1692A,116.1248,24.2654,梅州市,环境监控中心,,42,37,27,29,22,23,,,,25,26,10,6,0.7,0.8
2025-04-11T0500,3315A,116.1233,24.2991,梅州市,梅龙,,31,31,25,19,16,24,,,,10,16,6,6,0.7,0.7
2025-04-11T0500,1878A,104.7778,31.4741,绵阳市,富乐山,颗粒物(PM10),60,70,63,38,28,61,,,,15,15,8,7,0.5,0.5
2025-04-11T0500,1880A,104.6697,31.4668,绵阳市,高新区自来水公司,颗粒物(PM10),65,79,75,31,30,74,,,,20,32,4,4,0.6,0.6
2025-04-11T0500,1881A,104.7287,31.5075,绵阳市,三水厂,颗粒物(PM10),76,102,82,52,34,42,,,,28,37,7,7,0.8,0.7
2025-04-11T0500,3491A,104.69,31.5322,绵阳市,西科大附属小学,颗粒物(PM10),77,103,82,50,36,28,,,,46,31,7,7,0.8,0.6
2025-04-11T0500,3492A,104.5648,31.5343,绵阳市,安州区旅游局,颗粒物(PM10),64,78,75,39,32,78,,,,19,23,8,10,0.6,0.5
2025-04-11T0500,4226A,104.7651,31.4531,绵阳市,绵阳市气象局,"颗粒物(PM10),细颗粒物(PM2.5)",53,56,63,37,29,76,,,,11,23,5,6,0.4,0.3
2025-04-11T0500,1784A,129.61,44.561,牡丹江市,环保大楼,细颗粒物(PM2.5),54,49,63,38,41,26,,,,33,28,7,8,0.5,0.5
2025-04-11T0500,1785A,129.6115,44.5782,牡丹江市,文化广场,"颗粒物(PM10),细颗粒物(PM2.5)",74,97,76,54,47,18,,,,40,31,15,13,0.9,0.8
2025-04-11T0500,1786A,129.5904,44.5963,牡丹江市,第一医院,细颗粒物(PM2.5),100,93,70,75,47,35,,,,33,21,21,13,0.7,0.6
2025-04-11T0500,1787A,129.6364,44.6075,牡丹江市,机车工厂,细颗粒物(PM2.5),97,79,76,72,42,17,,,,37,31,17,41,0.9,0.7
2025-04-11T0500,1788A,129.6386,44.5462,牡丹江市,第一中学,,40,40,50,27,33,43,,,,17,23,8,9,0.6,0.7
2025-04-11T0500,2531A,105.0703,29.61,内江市,市监测站,,49,,58,34,52,121,,,,4,23,4,4,0.9,1
2025-04-11T0500,2532A,105.0717,29.5947,内江市,东兴区政府,,43,43,64,30,47,111,,,,6,29,8,9,0.5,0.7
2025-04-11T0500,2533A,105.0653,29.5817,内江市,内江二中,,50,44,65,35,57,108,,,,9,28,8,9,0.6,0.7
2025-04-11T0500,2534A,105.0406,29.5822,内江市,内江日报社,,49,,67,34,57,112,,,,8,25,10,10,0.5,0.6
2025-04-11T0500,2628A,92.0657,31.4846,那曲市,那曲监测站,,28,6,36,3,18,87,,,,4,16,4,6,0.4,0.6
2025-04-11T0500,4243A,92.0515,31.4787,那曲市,那曲市委宣传部,,29,,13,6,11,91,,,,8,9,5,5,0.4,0.4
2025-04-11T0500,1290A,115.8931,28.6843,南昌市,省外办,细颗粒物(PM2.5),58,55,50,41,35,4,,,,72,29,6,7,0.9,0.7
2025-04-11T0500,1291A,115.8886,28.7003,南昌市,省林业公司,颗粒物(PM10),58,66,46,36,30,2,,,,66,24,9,8,0.7,0.6
2025-04-11T0500,1292A,115.8126,28.7442,南昌市,林科所,,32,27,35,22,25,44,,,,37,33,10,9,0.9,0.7
2025-04-11T0500,1294A,115.8518,28.687,南昌市,建工学校,颗粒物(PM10),55,59,50,18,27,2,,,,65,25,3,4,0.9,0.8
2025-04-11T0500,1295A,115.8921,28.6424,南昌市,象湖,细颗粒物(PM2.5),58,62,45,41,28,2,,,,56,27,7,7,0.9,0.7
2025-04-11T0500,1296A,115.7423,28.7996,南昌市,武术学校,,16,16,25,7,11,1,,,,2,5,11,12,0.6,0.8
2025-04-11T0500,3046A,115.9084,28.6062,南昌市,机电学校,颗粒物(PM10),59,68,54,39,33,7,,,,46,28,3,2,0.7,0.7
2025-04-11T0500,3690A,115.9721,28.7031,南昌市,外国语学校,颗粒物(PM10),57,64,51,26,28,14,,,,49,24,5,5,0.3,0.4
2025-04-11T0500,4192A,115.9316,28.68677,南昌市,南京东路235号,颗粒物(PM10),69,88,61,43,31,19,,,,56,32,13,10,0.8,0.8
2025-04-11T0500,1905A,106.056,30.8064,南充市,西山风景区,,,33,52,26,30,92,,,,,9,3,5,0.5,0.5
2025-04-11T0500,1906A,106.0789,30.8023,南充市,南充市委,,50,50,81,27,42,90,,,,8,28,3,5,0.5,0.7
2025-04-11T0500,1907A,106.1031,30.8217,南充市,南充炼油厂,,46,39,82,32,42,84,,,,6,22,4,5,0.5,0.6
2025-04-11T0500,4227A,106.1083,30.7884,南充市,梨树横街98号,,49,49,79,31,36,74,,,,8,28,5,7,0.3,0.5
2025-04-11T0500,4304A,106.1172,30.843,南充市,清泉寺北路188号,,,,81,,43,,,111,,,20,,5,,0.5
2025-04-11T0500,4305A,106.067,30.7616,南充市,同庆路1号,,45,40,75,31,41,77,,,,7,36,3,5,0.4,0.7
2025-04-11T0500,1151A,118.8086,32.1065,南京市,迈皋桥,颗粒物(PM10),69,88,100,48,53,39,,,,76,62,4,7,0.5,0.6
2025-04-11T0500,1152A,118.7538,32.0551,南京市,草场门,颗粒物(PM10),74,97,98,48,43,82,,,,29,35,7,8,0.8,0.9
2025-04-11T0500,1153A,118.7794,32.0745,南京市,山西路,细颗粒物(PM2.5),92,124,120,68,51,91,,,,24,32,8,7,0.4,0.5
2025-04-11T0500,1154A,118.7752,32.0023,南京市,中华门,颗粒物(PM10),80,110,101,51,43,62,,,,31,34,12,13,0.6,0.7
2025-04-11T0500,1155A,118.8109,32.0309,南京市,瑞金路,颗粒物(PM10),85,119,110,46,46,62,,,,29,24,7,6,0.3,0.4
2025-04-11T0500,1156A,118.7997,32.0754,南京市,玄武湖,颗粒物(PM10),75,100,97,53,45,51,,,,26,25,10,11,0.6,0.7
2025-04-11T0500,1157A,118.6414,32.0931,南京市,浦口,"颗粒物(PM10),细颗粒物(PM2.5)",68,86,99,49,42,92,,,,26,31,6,8,0.6,0.6
2025-04-11T0500,1158A,118.7356,31.9996,南京市,奥体中心,颗粒物(PM10),82,114,108,58,47,51,,,,45,39,10,11,0.6,0.7
2025-04-11T0500,1159A,118.9125,32.1028,南京市,仙林大学城,细颗粒物(PM2.5),89,110,111,66,64,47,,,,32,37,11,13,1.0,1.1
2025-04-11T0500,3422A,118.8436,31.9198,南京市,江宁彩虹桥,细颗粒物(PM2.5),70,76,93,51,39,47,,,,22,22,4,5,0.8,0.7
2025-04-11T0500,3427A,118.8554,32.3578,南京市,六合雄州,细颗粒物(PM2.5),78,104,102,57,53,13,,,,31,22,6,7,0.6,0.7
2025-04-11T0500,4249A,118.8708,31.3402,南京市,汶溪路181号,颗粒物(PM10),63,75,80,42,38,70,,,,32,27,6,6,1.0,1
2025-04-11T0500,4312A,119.019,31.6512,南京市,中山西路1号,颗粒物(PM10),71,92,80,35,36,37,,,,42,24,8,8,0.8,0.8
2025-04-11T0500,1401A,108.3103,22.7881,南宁市,二十一中,,39,37,40,27,29,40,,,,18,16,6,6,1.1,0.9
2025-04-11T0500,1402A,108.3141,22.8528,南宁市,北湖,,45,40,40,31,27,51,,,,12,16,7,7,1.1,1
2025-04-11T0500,1403A,108.3206,22.8225,南宁市,市监测站,,43,38,41,30,28,47,,,,10,15,6,6,0.8,0.6
2025-04-11T0500,1404A,108.3829,22.8037,南宁市,大自然花园,,48,48,41,30,27,50,,,,11,10,7,6,0.9,0.7
2025-04-11T0500,1405A,108.4394,22.7904,南宁市,仙葫,细颗粒物(PM2.5),57,,40,40,29,41,,,,12,11,4,4,1.1,0.9
2025-04-11T0500,1406A,108.2397,22.8467,南宁市,区农职院,,35,35,47,23,31,42,,,,17,18,5,5,1.0,0.9
2025-04-11T0500,1407A,108.3275,22.735,南宁市,英华嘉园,,45,44,42,31,30,31,,,,24,19,10,8,0.9,0.8
2025-04-11T0500,3401A,108.4834,22.7618,南宁市,红星社区,细颗粒物(PM2.5),52,,42,36,32,45,,,,13,11,10,9,1.1,1.1
2025-04-11T0500,4221A,108.2177,22.7774,南宁市,乐贤路16号,,42,42,50,29,30,29,,,,29,24,8,8,0.9,0.8
2025-04-11T0500,2331A,118.0966,26.6761,南平市,茫荡山,,,,,,,,,,,,,,,,
2025-04-11T0500,2332A,118.1681,26.6369,南平市,南平市监测站,,44,44,20,29,16,12,,,,16,13,9,4,0.8,0.8
2025-04-11T0500,2333A,118.1825,26.6489,南平市,南平铝业有限公司,,39,30,22,27,16,5,,,,23,17,8,4,0.8,0.8
2025-04-11T0500,2334A,118.1756,26.6272,南平市,南平七中,,32,,20,22,12,5,,,,12,12,4,4,0.7,0.8
2025-04-11T0500,1168A,120.9098,31.9663,南通市,狼山街道,颗粒物(PM10),56,61,71,32,34,68,,,,23,21,6,7,0.7,0.8
2025-04-11T0500,1169A,120.86,32.0005,南通市,虹桥,细颗粒物(PM2.5),69,74,67,50,39,75,,,,27,21,7,7,0.6,0.7
2025-04-11T0500,1170A,120.87,32.02,南通市,城中,细颗粒物(PM2.5),63,73,76,45,38,86,,,,23,21,7,8,0.7,0.8
2025-04-11T0500,1171A,120.94,31.93,南通市,星湖花园,细颗粒物(PM2.5),58,60,61,41,33,70,,,,25,21,8,8,0.5,0.6
2025-04-11T0500,1172A,120.81,32.0417,南通市,紫琅学院,细颗粒物(PM2.5),68,63,68,49,37,72,,,,26,24,5,5,0.6,0.6
2025-04-11T0500,3291A,121.067,32.062,南通市,通州监测站,细颗粒物(PM2.5),62,51,63,44,36,91,,,,12,16,5,6,0.6,0.7
2025-04-11T0500,3432A,120.9348,31.9883,南通市,环境教育馆,细颗粒物(PM2.5),62,51,65,44,41,58,,,,25,20,5,7,0.4,0.5
2025-04-11T0500,2404A,112.5224,33.0122,南阳市,瓦房庄,,,,124,,44,,,111,,,28,,6,,0.6
2025-04-11T0500,2405A,112.5003,32.9735,南阳市,汉画馆,颗粒物(PM10),64,77,100,39,47,19,,,,33,28,4,5,0.6,0.7
2025-04-11T0500,2406A,112.5573,33.027,南阳市,气象站,颗粒物(PM10),89,127,118,46,45,30,,,,36,23,6,7,0.6,0.7
2025-04-11T0500,2407A,112.5481,32.9689,南阳市,理工学院,颗粒物(PM10),76,102,107,39,39,34,,,,35,22,3,4,0.6,0.6
2025-04-11T0500,4008A,112.5234,32.9922,南阳市,卧龙区政府,细颗粒物(PM2.5),79,98,112,58,50,34,,,,28,27,4,5,0.7,0.7
2025-04-11T0500,1234A,121.8358,29.911,宁波市,区环保大楼,颗粒物(PM10),74,98,68,45,33,2,,,,90,55,11,10,0.8,0.7
2025-04-11T0500,1235A,121.56,29.82,宁波市,万里学院,细颗粒物(PM2.5),60,68,42,43,23,52,,,,28,20,6,6,0.9,0.8
2025-04-11T0500,1236A,121.713,29.9572,宁波市,龙赛医院,颗粒物(PM10),76,101,69,36,27,3,,,,97,41,12,10,0.7,0.6
2025-04-11T0500,1239A,121.633,29.7733,宁波市,钱湖水厂,颗粒物(PM10),57,64,44,35,22,69,,,,14,16,8,8,0.6,0.6
2025-04-11T0500,1240A,121.5856,29.8635,宁波市,太古小学,颗粒物(PM10),62,74,49,30,21,54,,,,30,20,10,9,0.6,0.5
2025-04-11T0500,1241A,121.524,29.8674,宁波市,市环境监测中心,颗粒物(PM10),60,69,48,27,22,56,,,,35,28,9,9,0.6,0.5
2025-04-11T0500,2871A,121.6147,29.9017,宁波市,万里国际学校,颗粒物(PM10),56,61,46,31,21,60,,,,29,17,9,8,0.6,0.5
2025-04-11T0500,3710A,121.5594,29.8975,宁波市,白沙活动中心,颗粒物(PM10),56,62,47,30,22,61,,,,31,19,8,8,0.6,0.5
2025-04-11T0500,2339A,119.5001,26.6946,宁德市,金涵水库,,,,,,,,,,,,,,,,
2025-04-11T0500,2341A,119.5388,26.6612,宁德市,宁德市监测站,,29,24,30,20,25,42,,,,8,17,4,5,0.6,0.7
2025-04-11T0500,3209A,119.5231,26.6562,宁德市,宁德一中,,27,27,29,17,23,38,,,,6,8,6,6,0.4,0.5
2025-04-11T0500,2618A,98.8601,25.8567,怒江傈僳族自治州,州监测站,,,,44,,25,,,114,,,7,,7,,0.3
2025-04-11T0500,2619A,98.8546,25.8417,怒江傈僳族自治州,泸水一中,,49,46,48,34,36,58,,,,14,13,8,7,0.5,0.5
2025-04-11T0500,1888A,101.6891,26.571,攀枝花市,弄弄坪,颗粒物(PM10),54,58,67,32,39,91,,,,17,23,8,7,0.7,1
2025-04-11T0500,1889A,101.5769,26.5928,攀枝花市,河门口,,49,49,60,30,39,79,,,,22,15,17,16,0.7,0.8
2025-04-11T0500,1890A,101.7169,26.585,攀枝花市,炳草岗,细颗粒物(PM2.5),64,60,64,46,38,87,,,,19,28,12,15,0.6,0.6
2025-04-11T0500,1891A,101.7369,26.5008,攀枝花市,仁和,细颗粒物(PM2.5),57,56,58,40,40,90,,,,16,16,12,10,0.5,0.6
2025-04-11T0500,2835A,101.7227,26.567,攀枝花市,四十中小,颗粒物(PM10),52,54,58,33,37,94,,,,16,23,6,9,0.6,0.7
2025-04-11T0500,1604A,122.0303,41.1489,盘锦市,开发区,细颗粒物(PM2.5),59,,47,42,37,106,,,,17,16,9,9,0.5,0.5
2025-04-11T0500,1605A,122.0485,41.0883,盘锦市,兴隆台,细颗粒物(PM2.5),59,43,46,42,39,102,,,,20,19,9,9,0.6,0.6
2025-04-11T0500,1606A,121.8297,41.1028,盘锦市,新生街道,细颗粒物(PM2.5),68,,34,49,37,84,,,,25,19,15,13,0.5,0.6
2025-04-11T0500,1832A,113.3257,33.742,平顶山市,新华旅馆,颗粒物(PM10),106,162,150,54,53,31,,,,50,25,6,7,0.7,0.7
2025-04-11T0500,1833A,113.2919,33.737,平顶山市,规划设计院,颗粒物(PM10),98,145,144,61,66,46,,,,33,22,5,7,0.7,0.7
2025-04-11T0500,1834A,113.182,33.774,平顶山市,平顶山工学院,颗粒物(PM10),88,126,135,58,60,66,,,,26,18,7,7,0.7,0.7
2025-04-11T0500,3204A,113.3025,33.73,平顶山市,规划局,颗粒物(PM10),98,146,148,58,64,63,,,,30,21,6,8,0.6,0.9
2025-04-11T0500,3594A,112.8867,33.9116,平顶山市,石龙区,颗粒物(PM10),155,259,192,69,60,3,,,,85,44,6,9,0.5,0.5
2025-04-11T0500,2656A,106.6692,35.5461,平凉市,聚贤嘉苑,颗粒物(PM10),71,91,114,21,25,54,,,,27,23,9,9,0.5,0.5
2025-04-11T0500,2657A,106.7021,35.5307,平凉市,博物馆,颗粒物(PM10),69,87,93,25,25,49,,,,29,23,11,11,0.4,0.5
2025-04-11T0500,2347A,114.0997,27.5002,萍乡市,武功山,,33,23,26,23,25,25,,,,6,6,14,14,0.6,0.7
2025-04-11T0500,2348A,113.8385,27.6434,萍乡市,中医院,细颗粒物(PM2.5),75,67,50,55,37,43,,,,21,10,31,11,1.1,1.1
2025-04-11T0500,2349A,113.8493,27.6253,萍乡市,市政府车库,细颗粒物(PM2.5),67,60,42,48,37,36,,,,28,14,18,7,4.1,1.2
2025-04-11T0500,2350A,113.8676,27.6435,萍乡市,市环保局,细颗粒物(PM2.5),59,59,46,42,37,35,,,,23,9,22,9,0.9,0.8
2025-04-11T0500,2351A,113.866,27.6198,萍乡市,安源区政府,细颗粒物(PM2.5),65,61,53,47,39,51,,,,17,18,21,16,0.7,0.8
2025-04-11T0500,2319A,119.0141,25.4325,莆田市,荔城区仓后路,细颗粒物(PM2.5),57,47,48,40,34,20,,,,22,22,3,3,1.2,1.1
2025-04-11T0500,2320A,119.0015,25.4553,莆田市,莆田市监测站,,40,35,38,28,30,21,,,,6,11,3,4,0.8,0.8
2025-04-11T0500,2321A,119.1119,25.4561,莆田市,涵江区六中,细颗粒物(PM2.5),70,,43,51,40,2,,,,49,30,3,3,1.2,0.9
2025-04-11T0500,2322A,119.1013,25.3215,莆田市,秀屿区政府,细颗粒物(PM2.5),79,,37,58,35,35,,,,20,18,4,4,1.0,1.1
2025-04-11T0500,2323A,118.981,25.4792,莆田市,东圳水库,,,,,,,,,,,,,,,,
2025-04-11T0500,2392A,115.0312,35.7636,濮阳市,环保局,细颗粒物(PM2.5),109,96,93,82,58,99,,,,15,17,8,11,0.9,0.7
2025-04-11T0500,2394A,115.0574,35.7609,濮阳市,油田运输公司,细颗粒物(PM2.5),108,153,119,81,60,106,,,,13,17,7,9,1.0,0.9
2025-04-11T0500,3021A,115,35.7668,濮阳市,濮水河管理处,细颗粒物(PM2.5),113,140,119,85,60,103,,,,14,17,6,8,1.1,0.9
2025-04-11T0500,4216A,115.0924,35.7686,濮阳市,任丘路479号,细颗粒物(PM2.5),122,144,126,92,65,104,,,,13,15,7,9,1.1,1
2025-04-11T0500,2601A,100.98,22.7633,普洱市,市环保局,颗粒物(PM10),63,76,81,29,41,42,,,,12,16,3,3,0.7,0.7
2025-04-11T0500,2602A,100.9817,22.8322,普洱市,普洱第二中学,,49,49,64,30,40,21,,,,36,28,6,7,0.6,0.6
2025-04-11T0500,2262A,131.0518,45.8751,七台河市,新一中,细颗粒物(PM2.5),97,84,143,72,101,65,,,,26,28,13,16,1.2,1.4
2025-04-11T0500,3345A,131.0577,45.7879,七台河市,中波台,细颗粒物(PM2.5),105,89,146,79,97,57,,,,29,33,12,11,0.8,0.8
2025-04-11T0500,3637A,131.0176,45.7761,七台河市,人民广场,细颗粒物(PM2.5),114,104,150,86,103,55,,,,32,31,14,13,1.1,1.1
2025-04-11T0500,3684A,130.8781,45.8222,七台河市,新建矿广场,细颗粒物(PM2.5),112,97,189,84,105,38,,,,48,38,11,14,0.8,1.1
2025-04-11T0500,1779A,123.9305,47.3636,齐齐哈尔市,安居小区,,23,22,107,3,81,72,,,,10,28,4,8,0.2,0.6
2025-04-11T0500,1780A,123.9488,47.3386,齐齐哈尔市,中心广场,,27,27,140,12,93,69,,,,9,27,6,10,0.3,0.7
2025-04-11T0500,1781A,123.9483,47.3227,齐齐哈尔市,农牧车辆厂,,23,22,111,15,87,73,,,,11,24,5,8,0.3,0.5
2025-04-11T0500,1783A,123.945,47.2988,齐齐哈尔市,市环境监测站,,23,23,115,10,93,69,,,,13,24,2,5,0.3,0.7
2025-04-11T0500,3662A,123.6333,47.2075,齐齐哈尔市,富区青少年活动中心,,22,16,168,12,124,68,,,,9,27,2,10,0.3,0.9
2025-04-11T0500,2591A,107.9783,26.5747,黔东南苗族侗族自治州,市环境监测站,细颗粒物(PM2.5),55,45,45,39,37,98,,,,3,10,2,2,0.5,0.7
2025-04-11T0500,2881A,107.8908,26.5311,黔东南苗族侗族自治州,凯里学院,细颗粒物(PM2.5),59,44,41,42,40,99,,,,1,6,2,2,0.6,0.7
2025-04-11T0500,2593A,107.5228,26.2403,黔南布依族苗族自治州,小围寨,,49,39,37,34,31,84,,,,5,8,6,5,0.5,0.5
2025-04-11T0500,3538A,107.5175,26.2978,黔南布依族苗族自治州,沙坝,,49,48,41,34,29,75,,,,6,9,4,4,0.7,0.6
2025-04-11T0500,2589A,104.9022,25.0925,黔西南布依族苗族自治州,场坝街,细颗粒物(PM2.5),57,44,47,40,34,56,,,,9,12,4,15,0.5,0.5
2025-04-11T0500,2590A,104.8811,25.0992,黔西南布依族苗族自治州,坪东大道,细颗粒物(PM2.5),59,49,42,42,32,27,,,,18,17,3,7,0.4,0.4
2025-04-11T0500,2502A,108.6236,21.9667,钦州市,市环保站,细颗粒物(PM2.5),52,48,50,36,27,23,,,,37,32,11,13,0.9,0.9
2025-04-11T0500,2503A,108.6549,21.9481,钦州市,沙埠小学,颗粒物(PM10),59,68,58,40,32,4,,,,46,31,7,9,1.2,1.2
2025-04-11T0500,2504A,108.5989,21.7431,钦州市,港区一小,颗粒物(PM10),61,72,76,43,32,18,,,,51,48,8,11,0.9,1
2025-04-11T0500,3404A,108.5959,21.9633,钦州市,北职校,细颗粒物(PM2.5),88,,53,65,36,11,,,,47,35,14,11,1.1,1
2025-04-11T0500,1043A,119.7493,40.0116,秦皇岛市,第一关,细颗粒物(PM2.5),68,74,86,49,58,91,,,,23,31,6,8,0.4,0.5
2025-04-11T0500,1044A,119.5897,39.9499,秦皇岛市,监测站,颗粒物(PM10),73,96,80,47,46,81,,,,28,28,4,7,0.5,0.6
2025-04-11T0500,1046A,119.5251,39.9041,秦皇岛市,建设大厦,细颗粒物(PM2.5),74,80,85,54,46,44,,,,66,31,2,8,0.6,0.6
2025-04-11T0500,3132A,119.610547,39.943889,秦皇岛市,文明里,"颗粒物(PM10),细颗粒物(PM2.5)",60,70,83,43,48,83,,,,24,24,4,6,0.4,0.4
2025-04-11T0500,4198A,119.5090,39.8253,秦皇岛市,北戴河轮滑馆,细颗粒物(PM2.5),54,52,74,38,52,88,,,,22,24,5,7,0.4,0.4
2025-04-11T0500,1307A,120.6659,36.2403,青岛市,仰口,,42,39,55,29,40,107,,,,12,17,5,6,0.6,0.7
2025-04-11T0500,1310A,120.4134,36.0658,青岛市,市南区东部子站,颗粒物(PM10),54,58,71,29,34,100,,,,13,23,8,8,0.4,0.5
2025-04-11T0500,1311A,120.3664,36.1032,青岛市,四方区子站,细颗粒物(PM2.5),52,51,64,36,37,116,,,,12,25,5,7,0.5,0.6
2025-04-11T0500,1312A,120.2994,36.054,青岛市,市南区西部子站,,46,46,62,27,34,93,,,,23,34,7,7,0.6,0.7
2025-04-11T0500,1313A,120.4581,36.0858,青岛市,崂山区子站,,48,48,64,29,31,112,,,,11,18,8,8,0.4,0.5
2025-04-11T0500,1315A,120.3999,36.3083,青岛市,城阳区子站,,40,34,66,22,32,127,,,,13,27,8,10,0.6,0.7
2025-04-11T0500,1966A,120.0405,35.8735,青岛市,黄岛区4号,,,,54,,29,,,99,,,34,,10,,0.7
2025-04-11T0500,3362A,120.5014,36.4034,青岛市,即墨2号,,45,45,65,23,37,109,,,,14,22,7,10,0.6,0.7
2025-04-11T0500,3642A,120.3503,36.0736,青岛市,市北区南部,,50,50,62,29,34,91,,,,8,11,7,7,0.6,0.6
2025-04-11T0500,3643A,120.3948,36.1805,青岛市,李沧区北部,,49,41,63,34,37,114,,,,19,32,8,9,0.6,0.7
2025-04-11T0500,4290A,120.1969,35.9546,青岛市,珠江路669号,颗粒物(PM10),51,51,66,34,44,108,,,,14,29,6,8,0.5,0.7
2025-04-11T0500,1702A,113.0426,23.691,清远市,环保大楼,颗粒物(PM10),58,65,67,31,34,7,,,,40,23,14,10,0.9,0.9
2025-04-11T0500,1703A,113.0208,23.7106,清远市,凤城街办,颗粒物(PM10),55,60,54,25,30,7,,,,54,31,8,8,0.7,0.7
2025-04-11T0500,3025A,113.0477,23.6344,清远市,技师学院,颗粒物(PM10),58,66,57,27,31,0,,,,58,33,8,8,0.6,0.6
2025-04-11T0500,3318A,112.9903,23.7403,清远市,清新太和,颗粒物(PM10),54,57,56,29,31,11,,,,45,29,8,8,0.8,0.8
2025-04-11T0500,3455A,113.076,23.7198,清远市,清城东城,颗粒物(PM10),68,86,67,46,36,11,,,,42,26,7,7,0.8,0.8
2025-04-11T0500,2661A,107.6325,35.7357,庆阳市,庆阳五中,颗粒物(PM10),75,100,91,30,28,105,,,,5,13,2,5,0.2,0.3
2025-04-11T0500,2662A,107.6364,35.7067,庆阳市,市环保局,颗粒物(PM10),76,102,80,30,24,102,,,,8,11,4,7,0.3,0.4
2025-04-11T0500,1916A,103.7897,25.5035,曲靖市,环境监测站,细颗粒物(PM2.5),55,56,70,39,40,115,,,,10,17,5,7,0.5,0.6
2025-04-11T0500,1917A,103.8,25.5364,曲靖市,烟厂办公区,颗粒物(PM10),56,62,66,35,40,122,,,,7,13,5,4,0.5,0.6
2025-04-11T0500,3376A,103.7947,25.462,曲靖市,南苑二区,细颗粒物(PM2.5),59,61,72,42,39,109,,,,8,13,3,7,0.7,0.8
2025-04-11T0500,3377A,103.7444,25.5261,曲靖市,曲靖师范学院,细颗粒物(PM2.5),69,58,70,50,51,110,,,,14,16,6,21,0.6,0.7
2025-04-11T0500,1264A,118.8692,28.9398,衢州市,环保大楼,颗粒物(PM10),52,54,49,29,29,28,,,,35,23,3,4,0.5,0.5
2025-04-11T0500,1265A,118.8709,28.9666,衢州市,实验学校,,45,45,39,25,24,7,,,,52,31,4,4,0.4,0.4
2025-04-11T0500,1266A,118.8621,28.9808,衢州市,衢州学院,颗粒物(PM10),51,51,44,25,24,12,,,,40,28,4,5,0.4,0.4
2025-04-11T0500,1611A,118.5819,24.9117,泉州市,涂山街,细颗粒物(PM2.5),64,,38,46,32,23,,,,41,27,3,3,1.1,1
2025-04-11T0500,1612A,118.5972,24.8978,泉州市,津头埔,细颗粒物(PM2.5),77,,42,56,37,33,,,,50,33,3,2,0.9,0.8
2025-04-11T0500,1613A,118.6663,24.9424,泉州市,万安,,38,38,38,25,29,2,,,,47,29,3,3,1.0,0.9
2025-04-11T0500,1614A,118.6117,24.9604,泉州市,清源山,,,,,,,,,,,,,,,,
2025-04-11T0500,3529A,118.6333,24.9264,泉州市,城华南路,,35,35,36,24,29,38,,,,12,26,2,3,0.9,0.8
2025-04-11T0500,2626A,88.8876,29.2718,日喀则市,日喀则监测站,,37,7,26,3,11,118,,,,8,8,7,7,0.5,0.5
2025-04-11T0500,3726A,88.8781,29.2426,日喀则市,林业技术推广中心,,35,7,22,3,12,112,,,,3,3,6,6,0.3,0.4
2025-04-11T0500,1659A,119.471,35.4209,日照市,监测站,,48,48,68,33,35,97,,,,22,45,4,7,0.5,0.6
2025-04-11T0500,1660A,119.523,35.4216,日照市,市政府广场,颗粒物(PM10),52,53,55,24,29,96,,,,12,22,4,5,0.7,0.7
2025-04-11T0500,1661A,119.5587,35.4044,日照市,港务局,,48,48,64,32,39,101,,,,11,24,6,7,0.6,0.7
2025-04-11T0500,3507A,119.5328,35.4625,日照市,职业技术学院,,46,46,52,24,24,103,,,,8,15,6,7,0.7,0.7
2025-04-11T0500,3604A,119.3266,35.1044,日照市,岚山环保分局,颗粒物(PM10),52,53,69,29,33,107,,,,21,29,8,9,0.8,0.8
2025-04-11T0500,1835A,111.1922,34.7752,三门峡市,市政府,细颗粒物(PM2.5),68,83,89,49,48,96,,,,16,22,12,7,0.8,0.7
2025-04-11T0500,1836A,111.1587,34.7942,三门峡市,开发区,颗粒物(PM10),80,109,105,47,47,99,,,,16,18,17,10,0.6,0.9
2025-04-11T0500,1838A,111.143,34.7955,三门峡市,风景区,颗粒物(PM10),72,93,93,37,57,88,,,,13,13,17,12,0.5,0.6
2025-04-11T0500,3039A,111.1911,34.7829,三门峡市,三门峡市第一小学,颗粒物(PM10),71,92,103,34,36,96,,,,14,14,14,8,0.8,0.9
2025-04-11T0500,3598A,111.1,34.7167,三门峡市,富达温泉假日酒店,细颗粒物(PM2.5),99,108,103,74,61,87,,,,19,25,7,6,0.7,0.7
2025-04-11T0500,2324A,117.6211,26.2625,三明市,三钢,细颗粒物(PM2.5),60,,22,43,20,3,,,,22,22,3,5,2.1,1.2
2025-04-11T0500,2325A,117.635,26.2714,三明市,三明二中,,33,27,22,23,18,1,,,,21,19,2,3,0.7,0.9
2025-04-11T0500,2326A,117.6028,26.2378,三明市,三元区政府,,30,29,28,21,17,8,,,,18,19,3,5,0.8,1
2025-04-11T0500,2327A,117.7275,26.3108,三明市,洋溪,,,,,,,,,,,,,,,,
2025-04-11T0500,1876A,109.5078,18.2489,三亚市,河东子站,,22,22,25,12,15,36,,,,7,7,3,3,0.5,0.5
2025-04-11T0500,1877A,109.4964,18.2681,三亚市,河西子站,,23,23,25,16,14,23,,,,10,10,2,2,0.3,0.3
2025-04-11T0500,3540A,109.7348,18.3443,三亚市,君悦子站,,22,22,27,11,13,12,,,,13,10,4,4,0.3,0.3
2025-04-11T0500,2624A,91.7608,29.2313,山南市,山南监测站,,43,6,17,3,6,137,,,,3,4,3,4,0.3,0.3
2025-04-11T0500,2625A,91.7706,29.2436,山南市,山南人民医院,,40,6,22,3,10,128,,,,3,5,5,5,0.3,0.3
