timepoint,stationcode,longitude,latitude,area,positionname,primarypollutant,aqi,pm10,pm10_24h,pm2_5,pm2_5_24h,o3,o3_24h,o3_8h,o3_8h_24h,no2,no2_24h,so2,so2_24h,co,co_24h
2025-11-21T1500,2566A,102.1879,31.914,阿坝藏族羌族自治州,州农科所,,,,,,,,,,,,,,,,
2025-11-21T1500,2568A,102.2502,31.8896,阿坝藏族羌族自治州,马师校,,21,,13,7,13,65,65,38,38,8,15,6,6,0.4,0.4
2025-11-21T1500,3994A,102.2165,31.9024,阿坝藏族羌族自治州,马尔康中学西区,,23,12,12,3,9,73,73,45,45,6,12,6,6,0.4,0.4
2025-11-21T1500,2695A,80.292,41.1694,阿克苏地区,电视台,颗粒物(PM10),149,248,288,78,96,75,75,39,39,23,50,,9,,1.6
2025-11-21T1500,2696A,80.2613,41.1551,阿克苏地区,艺术中心,颗粒物(PM10),137,223,240,65,90,74,74,42,42,27,57,17,7,0.7,1.1
2025-11-21T1500,2204A,105.6467,38.8363,阿拉善盟,西城区西花园,,,,,,,,,,,,,,,,
2025-11-21T1500,2205A,105.6985,38.8411,阿拉善盟,蒙二幼,,29,25,28,8,11,90,90,70,70,6,12,6,6,0.7,0.7
2025-11-21T1500,2206A,105.724,38.8516,阿拉善盟,环保局新楼,,27,27,20,12,9,84,84,80,80,4,5,7,8,0.6,0.7
2025-11-21T1500,2708A,88.1264,47.8517,阿勒泰地区,市站,,32,32,26,7,13,56,56,50,40,38,44,16,4,0.3,0.4
2025-11-21T1500,2630A,80.1161,32.5,阿里地区,阿里监测站,,30,6,3,3,3,94,94,78,78,1,6,6,8,0.2,0.3
2025-11-21T1500,3192A,80.0903,32.5028,阿里地区,阿里藏医院,,30,12,15,3,6,94,94,82,68,1,7,7,8,0.2,0.3
2025-11-21T1500,2642A,109.0318,32.6537,安康市,香溪洞,,,,,,,,,,,,,,,,
2025-11-21T1500,2644A,109.0072,32.6975,安康市,汉滨区检察院,,26,26,39,15,23,74,74,31,31,11,19,4,4,0.4,0.5
2025-11-21T1500,4054A,109.0325,32.6913,安康市,市邮政管理局,,29,29,41,15,25,69,69,28,28,13,25,4,5,0.6,0.7
2025-11-21T1500,2291A,117.0809,30.5177,安庆市,环科院,细颗粒物(PM2.5),59,42,59,42,43,114,114,54,54,15,46,8,6,0.4,0.5
2025-11-21T1500,2292A,117.0331,30.5119,安庆市,马山宾馆,细颗粒物(PM2.5),63,55,70,45,51,105,105,51,51,29,49,9,6,0.3,0.3
2025-11-21T1500,2294A,116.9896,30.6145,安庆市,安庆大学,,,,87,54,64,112,112,56,56,35,44,18,10,0.2,0.5
2025-11-21T1500,3173A,117.0598,30.5351,安庆市,市人大,,,,68,,51,112,112,58,58,,46,9,8,0.3,0.4
2025-11-21T1500,3122A,105.9606,26.2611,安顺市,伍家关,,42,22,26,19,19,133,133,101,101,6,9,12,14,0.7,0.8
2025-11-21T1500,3123A,105.9408,26.2431,安顺市,凤凰山,,35,24,28,15,21,109,109,84,84,8,11,10,15,0.3,0.4
2025-11-21T1500,3124A,105.9439,26.2564,安顺市,金钟山,,36,25,30,16,21,115,115,86,86,6,9,13,19,0.4,0.5
2025-11-21T1500,3125A,105.8983,26.2481,安顺市,娄家坡,,33,24,31,19,23,104,104,79,79,8,11,13,18,0.3,0.4
2025-11-21T1500,1818A,114.4839,36.0621,安阳市,棉研所,,,,,,,,,,,,,,,,
2025-11-21T1500,1819A,114.3551,36.1017,安阳市,红庙街,,35,35,77,15,45,73,73,43,43,18,41,8,4,0.5,0.7
2025-11-21T1500,1820A,114.361,36.0681,安阳市,银杏小区,,32,29,76,22,50,76,76,49,49,16,38,7,4,0.5,0.6
2025-11-21T1500,3141A,114.3922,36.0878,安阳市,信访局,细颗粒物(PM2.5),62,,73,44,47,76,76,43,43,19,38,10,5,0.7,0.6
2025-11-21T1500,3669A,114.4705,36.0637,安阳市,左辅环卫站,,48,48,91,18,50,80,80,45,45,15,37,8,5,0.6,0.6
2025-11-21T1500,3703A,114.2917,36.0949,安阳市,安钢职工学校,颗粒物(PM10),59,67,87,24,51,71,71,44,44,18,34,8,4,0.6,0.6
2025-11-21T1500,1748A,123.044,41.1196,鞍山市,深沟寺,,30,30,41,16,26,65,65,52,52,19,29,11,17,0.9,1.2
2025-11-21T1500,1749A,123.011,41.0931,鞍山市,太阳城,,36,36,45,21,27,58,58,49,49,27,28,29,22,2.0,1.2
2025-11-21T1500,1750A,123.0485,41.1442,鞍山市,太平,,47,47,54,22,27,66,66,52,52,24,33,13,20,0.8,1.2
2025-11-21T1500,1751A,122.9642,41.0971,鞍山市,铁西三道街,,49,49,65,26,35,73,73,49,49,28,40,29,21,1.6,1.4
2025-11-21T1500,1753A,123.022,41.0821,鞍山市,明达新区,,34,34,44,18,24,58,58,47,47,26,27,28,21,1.9,1.2
2025-11-21T1500,1754A,123.1289,41.0228,鞍山市,千山,,,,37,,14,,,53,,,15,,7,,0.5
2025-11-21T1500,4201A,122.9446,41.0826,鞍山市,兴盛南路290号,,50,50,62,29,36,67,67,56,56,31,41,15,19,0.8,1.2
2025-11-21T1500,2195A,107.4212,40.761,巴彦淖尔市,附二中,,41,41,35,18,21,66,66,46,46,6,10,3,4,0.3,0.3
2025-11-21T1500,2196A,107.37,40.7372,巴彦淖尔市,市环保大楼,,42,42,37,12,17,70,70,48,48,7,12,7,8,0.3,0.3
2025-11-21T1500,1956A,86.1472,41.7538,巴音郭楞蒙古自治州,孔雀公园,,,,192,,51,69,69,17,17,13,56,11,11,0.4,0.8
2025-11-21T1500,1957A,86.1972,41.7166,巴音郭楞蒙古自治州,棉纺厂,颗粒物(PM10),133,216,232,56,42,71,71,26,26,14,44,11,10,0.5,0.7
2025-11-21T1500,1958A,86.2357,41.7173,巴音郭楞蒙古自治州,经济开发区,颗粒物(PM10),113,175,183,24,31,61,61,24,24,17,35,14,8,0.4,0.4
2025-11-21T1500,2914A,106.7677,31.8794,巴中市,苏山坪,,,,,,,,,,,,,,,,
2025-11-21T1500,3181A,106.7768,31.8526,巴中市,市五中,,49,46,54,34,38,84,84,31,31,12,16,9,8,0.5,0.6
2025-11-21T1500,3183A,106.7418,31.8654,巴中市,圣泉水务公司,细颗粒物(PM2.5),53,50,46,37,34,84,84,37,37,11,22,9,8,0.6,0.7
2025-11-21T1500,3616A,106.7616,31.8344,巴中市,市中心医院,,,45,51,,41,83,83,32,32,9,21,6,5,0.6,0.8
2025-11-21T1500,2235A,122.7911,45.6077,白城市,洮北区环保局,,27,27,27,3,11,70,70,58,58,4,7,5,6,0.3,0.3
2025-11-21T1500,2236A,122.8738,45.5725,白城市,市环保局,,22,19,23,8,15,68,68,57,57,4,9,4,5,0.2,0.2
2025-11-21T1500,2231A,126.4219,41.9171,白山市,喜丰,颗粒物(PM10),66,82,54,14,20,71,71,59,59,15,23,7,13,0.9,0.8
2025-11-21T1500,2232A,126.4077,41.9419,白山市,环保局,,25,21,39,11,27,79,79,66,66,5,16,10,11,0.5,0.7
2025-11-21T1500,2647A,104.1724,36.5446,白银市,第三小学,细颗粒物(PM2.5),83,100,81,61,49,86,86,49,49,52,44,136,45,0.6,0.5
2025-11-21T1500,2648A,104.1465,36.5482,白银市,动力公司,细颗粒物(PM2.5),94,120,65,70,38,102,102,59,59,49,39,146,23,1.0,0.8
2025-11-21T1500,2512A,106.6103,23.9011,百色市,市监测站,,25,19,22,14,13,77,77,49,49,6,12,6,6,0.3,0.5
2025-11-21T1500,2513A,106.6538,23.8859,百色市,市中心血站,,28,28,33,15,20,78,78,49,49,9,21,7,6,0.4,0.5
2025-11-21T1500,3406A,106.6085,23.8798,百色市,祈福高中,,32,32,32,14,15,69,69,46,46,8,15,6,5,0.3,0.4
2025-11-21T1500,2270A,117.396,32.939,蚌埠市,工人疗养院,细颗粒物(PM2.5),95,118,114,71,71,94,94,53,53,32,47,9,8,0.5,0.5
2025-11-21T1500,2271A,117.3605,32.9427,蚌埠市,百货大楼,细颗粒物(PM2.5),93,105,115,69,76,99,99,56,56,31,52,13,13,0.6,0.7
2025-11-21T1500,2273A,117.4185,32.8911,蚌埠市,蚌埠学院,细颗粒物(PM2.5),93,95,118,69,75,98,98,54,54,27,55,10,9,0.5,0.5
2025-11-21T1500,2274A,117.3533,32.9673,蚌埠市,淮上区政府,细颗粒物(PM2.5),89,95,118,66,81,103,103,54,54,21,51,10,10,0.3,0.4
2025-11-21T1500,2275A,117.3145,32.8977,蚌埠市,高新区,细颗粒物(PM2.5),109,119,120,82,77,86,86,49,49,31,56,11,9,0.5,0.5
2025-11-21T1500,3715A,117.3092,32.9314,蚌埠市,蚌埠田家炳中学,细颗粒物(PM2.5),109,131,137,82,81,96,96,53,53,31,60,9,17,0.5,0.6
2025-11-21T1500,1585A,109.8756,40.6532,包头市,市环境监测站,细颗粒物(PM2.5),74,87,57,54,24,82,82,39,39,43,38,68,19,2.1,1
2025-11-21T1500,1587A,109.9991,40.5842,包头市,包头八中,颗粒物(PM10),54,58,78,23,40,70,70,40,40,19,49,12,17,0.7,1.1
2025-11-21T1500,1588A,109.8538,40.6821,包头市,青山宾馆,细颗粒物(PM2.5),89,103,44,66,26,62,62,34,34,68,36,113,22,4.3,1.3
2025-11-21T1500,1589A,109.8642,40.6288,包头市,惠龙物流,,,75,71,,39,80,80,38,38,33,50,48,25,1.5,1.5
2025-11-21T1500,1590A,110.0377,40.5546,包头市,东河鸿龙湾,,35,26,56,24,31,73,73,46,46,12,54,8,18,0.6,1
2025-11-21T1500,3283A,109.9154,40.5685,包头市,滨河大厦,,33,33,63,14,36,72,72,50,50,10,40,9,26,0.4,0.9
2025-11-21T1500,3419A,109.9447,40.6261,包头市,包头市委党校,颗粒物(PM10),62,73,61,35,28,80,80,40,40,30,49,33,16,0.9,0.8
2025-11-21T1500,3683A,109.8331,40.6576,包头市,昆区政府,细颗粒物(PM2.5),80,101,50,59,31,83,83,41,41,55,36,83,27,2.7,1.1
2025-11-21T1500,1930A,107.185,34.3063,宝鸡市,庙沟村,,,,,,,,,,,,,,,,
2025-11-21T1500,1931A,107.0708,34.3017,宝鸡市,竹园沟,,42,42,34,20,18,86,86,53,53,12,13,8,6,0.2,0.2
2025-11-21T1500,1932A,107.1906,34.3672,宝鸡市,三陆医院,颗粒物(PM10),63,75,66,20,35,88,88,45,45,18,39,6,6,0.2,0.4
2025-11-21T1500,1933A,107.1431,34.3547,宝鸡市,监测站,颗粒物(PM10),60,70,50,24,27,84,84,46,46,18,25,5,4,0.5,0.6
2025-11-21T1500,1934A,107.1186,34.3739,宝鸡市,技工学校,颗粒物(PM10),60,69,59,28,31,86,86,47,47,18,24,8,5,0.3,0.5
2025-11-21T1500,1936A,107.2058,34.3497,宝鸡市,文理学院,,,,55,27,31,82,82,49,49,16,30,6,11,0.3,0.4
2025-11-21T1500,1937A,107.2386,34.3622,宝鸡市,三迪小学,颗粒物(PM10),62,74,67,23,36,80,80,40,40,25,45,6,6,0.2,0.4
2025-11-21T1500,4308A,107.3898,34.3601,宝鸡市,陈仓区北开路21号,颗粒物(PM10),58,66,75,22,41,80,80,67,64,22,33,7,52,0.1,0.5
2025-11-21T1500,1051A,115.493,38.8632,保定市,游泳馆,,39,39,66,16,42,78,78,45,45,9,36,5,7,0.3,0.4
2025-11-21T1500,1052A,115.5213,38.8959,保定市,华电二区,,38,27,58,26,48,86,86,47,47,17,44,3,4,0.3,0.5
2025-11-21T1500,1053A,115.4713,38.9108,保定市,接待中心,,39,39,69,17,45,78,78,45,45,8,35,2,5,0.2,0.3
2025-11-21T1500,1054A,115.4612,38.8416,保定市,地表水厂,,45,45,72,15,41,82,82,59,59,15,42,5,8,0.2,0.3
2025-11-21T1500,3581A,115.31981,38.95208,保定市,满城区生态环境分局,,41,41,76,9,43,81,81,51,51,14,38,6,6,0.0,0.4
2025-11-21T1500,3582A,115.47694,38.76408,保定市,清苑区第二中学,,46,46,71,7,35,80,80,48,48,4,31,8,14,0.3,0.4
2025-11-21T1500,3583A,115.62909,39.02311,保定市,徐水物探局,,,43,93,22,51,83,83,43,43,7,36,,9,0.4,0.6
2025-11-21T1500,4004A,115.4202,38.8656,保定市,双鹰农机,,39,39,82,18,44,84,84,51,51,13,41,6,9,0.3,0.4
2025-11-21T1500,4034A,115.5150,38.8590,保定市,植保所站,,42,42,77,14,44,82,82,43,43,12,46,1,7,0.3,0.6
2025-11-21T1500,2594A,99.1678,25.1081,保山市,市环境监测站,,23,16,14,9,11,73,73,30,30,10,9,7,7,0.4,0.4
2025-11-21T1500,2595A,99.1711,25.1328,保山市,市环保局,,25,19,16,17,21,78,78,36,36,7,6,6,6,0.4,0.4
2025-11-21T1500,1866A,109.2262,21.588,北海市,牛尾岭水库,,37,37,31,17,20,94,94,65,65,7,10,5,5,0.0,0.1
2025-11-21T1500,1867A,109.1436,21.4086,北海市,海滩公园,,44,44,38,17,20,112,112,78,78,10,12,8,8,0.3,0.3
2025-11-21T1500,1868A,109.0981,21.4661,北海市,新市环保局,,41,41,34,27,23,118,118,82,82,8,12,5,8,0.6,0.6
2025-11-21T1500,1869A,109.1778,21.5233,北海市,北海工业园,,42,42,41,22,26,113,113,78,78,10,14,8,10,0.2,0.3
2025-11-21T1500,3400A,109.1911,21.4415,北海市,龙潭自来水厂,,38,32,37,26,25,106,106,75,75,8,12,8,7,0.4,0.4
2025-11-21T1500,1001A,116.3621,39.8784,北京市,万寿西宫,,39,39,89,25,63,78,78,48,48,18,55,3,4,0.4,0.6
2025-11-21T1500,1002A,116.2202,40.2915,北京市,定陵,,,,,,,,,,,,,,,,
2025-11-21T1500,1003A,116.4174,39.9289,北京市,东四,,43,43,82,25,51,74,74,51,51,15,40,4,5,0.4,0.5
2025-11-21T1500,1004A,116.4072,39.8863,北京市,天坛,,36,36,75,21,51,72,72,43,43,17,40,3,2,0.2,0.5
2025-11-21T1500,1005A,116.462,39.9365,北京市,农展馆,,44,44,75,24,46,76,76,54,54,14,36,4,5,0.4,0.5
2025-11-21T1500,1006A,116.3392,39.9295,北京市,官园,,46,46,82,29,52,71,71,45,45,17,47,4,5,0.2,0.4
2025-11-21T1500,1007A,116.2878,39.9611,北京市,海淀万柳,颗粒物(PM10),51,52,74,30,47,68,68,42,42,22,48,4,5,0.3,0.6
2025-11-21T1500,1008A,116.6636,40.135,北京市,顺义新城,,35,35,51,14,23,69,69,48,48,9,40,7,6,0.3,0.4
2025-11-21T1500,1009A,116.6275,40.3275,北京市,怀柔镇,,33,33,28,18,15,61,61,41,41,16,30,6,5,0.3,0.4
2025-11-21T1500,1010A,116.2296,40.217,北京市,昌平镇,,32,32,43,16,26,69,69,62,62,8,20,7,8,0.3,0.4
2025-11-21T1500,1011A,116.3966,39.9821,北京市,奥体中心,,45,45,66,30,46,67,67,50,50,22,45,6,6,0.4,0.6
2025-11-21T1500,3281A,115.9718,40.4529,北京市,延庆夏都,,33,33,46,18,28,69,69,57,57,10,18,6,6,0.4,0.5
2025-11-21T1500,3418A,116.8336,40.4095,北京市,密云新城,,32,32,25,13,9,62,62,45,45,6,17,3,2,0.3,0.3
2025-11-21T1500,3671A,116.088,39.9726,北京市,门头沟三家店,,29,29,46,14,20,72,72,54,54,7,28,3,2,0.3,0.4
2025-11-21T1500,3672A,116.1541,39.8204,北京市,丰台云岗,颗粒物(PM10),54,57,84,36,40,69,69,49,49,20,39,2,3,0.3,0.4
2025-11-21T1500,3673A,116.6804,39.9081,北京市,通州东关,,49,49,62,29,37,60,60,53,53,25,35,5,6,0.2,0.3
2025-11-21T1500,3674A,115.9577,39.7603,北京市,房山燕山,颗粒物(PM10),55,60,56,36,37,63,63,54,54,26,25,5,5,0.3,0.4
2025-11-21T1500,3675A,116.4672,39.7733,北京市,大兴旧宫,,38,38,81,20,42,74,74,34,34,14,43,4,4,0.3,0.5
2025-11-21T1500,3694A,115.986,40.4563,北京市,延庆石河营,,29,29,44,15,26,65,65,49,49,6,17,5,5,0.4,0.5
2025-11-21T1500,3695A,116.6151,40.3053,北京市,怀柔新城,,33,33,25,17,16,57,57,40,40,15,19,6,5,0.3,0.4
2025-11-21T1500,3696A,116.2545,39.8768,北京市,丰台小屯,,50,50,106,29,58,62,62,33,33,23,60,5,5,0.3,0.6
2025-11-21T1500,3697A,116.84,40.3844,北京市,密云镇,,31,31,37,14,14,64,64,36,36,12,35,3,2,0.3,0.4
2025-11-21T1500,4182A,116.1942,39.9158,北京市,八角北路9号,颗粒物(PM10),54,58,80,30,42,57,57,42,42,22,44,1,2,0.2,0.3
2025-11-21T1500,4194A,117.0790,40.1518,北京市,洳河巡河路,,29,29,30,16,17,67,67,44,44,9,21,6,4,0.3,0.4
2025-11-21T1500,1761A,123.8275,41.3064,本溪市,大峪,,40,40,62,19,38,71,71,42,42,17,34,14,13,0.8,1.6
2025-11-21T1500,1762A,123.7567,41.3325,本溪市,溪湖,颗粒物(PM10),51,51,55,22,31,77,77,47,47,15,37,13,17,0.2,1.7
2025-11-21T1500,1763A,123.7169,41.3094,本溪市,彩屯,细颗粒物(PM2.5),54,52,85,38,53,73,73,42,42,19,39,12,15,0.8,1.6
2025-11-21T1500,1764A,123.7669,41.2864,本溪市,东明,颗粒物(PM10),61,72,85,34,51,70,70,41,41,28,48,26,21,1.4,1.8
2025-11-21T1500,1765A,123.7992,41.2664,本溪市,新立屯,颗粒物(PM10),59,67,43,35,26,70,70,50,50,36,38,21,12,1.1,0.7
2025-11-21T1500,1766A,123.8142,41.3472,本溪市,威宁,,43,43,68,16,29,70,70,42,42,10,29,10,8,0.7,1
2025-11-21T1500,2587A,105.2864,27.3125,毕节市,八中,,35,34,35,24,25,74,74,51,51,13,9,18,12,0.4,0.5
2025-11-21T1500,2588A,105.31,27.2944,毕节市,师专,,43,40,36,30,24,79,79,48,48,17,12,20,11,0.5,0.6
2025-11-21T1500,4263A,105.3688,27.3598,毕节市,工业大道,,46,46,39,26,25,84,84,50,50,8,11,10,11,0.3,0.4
2025-11-21T1500,1629A,118.0018,37.3617,滨州市,第二水厂,颗粒物(PM10),70,90,65,44,37,57,57,32,32,32,51,18,18,0.4,0.4
2025-11-21T1500,1630A,117.9776,37.393,滨州市,北中新校,"颗粒物(PM10),细颗粒物(PM2.5)",64,78,59,46,36,59,59,33,33,43,61,10,15,0.2,0.4
2025-11-21T1500,3514A,117.9378,37.3956,滨州市,中海酒店,"颗粒物(PM10),细颗粒物(PM2.5)",67,83,63,48,42,72,72,42,42,31,46,13,20,0.6,1
2025-11-21T1500,3515A,117.9378,37.3553,滨州市,开发区一中,颗粒物(PM10),73,95,72,46,41,66,66,37,37,33,48,18,20,0.6,0.6
2025-11-21T1500,3516A,118.0917,37.694,滨州市,金海六路,颗粒物(PM10),58,66,63,29,32,80,80,48,48,23,48,15,13,0.4,0.6
2025-11-21T1500,4028A,117.9956,37.3753,滨州市,滨州市西街道办事处,细颗粒物(PM2.5),70,78,67,51,43,61,61,33,33,22,37,13,14,0.5,0.8
2025-11-21T1500,2311A,115.8072,33.8399,亳州市,污水处理厂,颗粒物(PM10),63,76,126,39,82,68,68,42,42,44,57,10,10,0.7,0.9
2025-11-21T1500,2312A,115.7789,33.8518,亳州市,三国揽胜宫,,,,142,45,93,70,70,46,46,22,55,9,6,0.5,1
2025-11-21T1500,3332A,115.7633,33.8034,亳州市,亳州学院,颗粒物(PM10),56,61,111,37,79,71,71,45,45,40,55,10,9,0.3,0.6
2025-11-21T1500,2693A,82.0485,44.8556,博尔塔拉蒙古自治州,市党校,颗粒物(PM10),85,120,115,26,21,20,20,12,12,30,29,8,4,0.9,0.8
2025-11-21T1500,2694A,82.0806,44.8969,博尔塔拉蒙古自治州,市环保局,颗粒物(PM10),93,135,161,29,31,20,20,10,10,34,34,15,10,0.9,1
2025-11-21T1500,1071A,116.8842,38.2991,沧州市,沧县城建局,细颗粒物(PM2.5),54,53,64,38,41,74,74,35,35,23,52,9,9,0.3,0.4
2025-11-21T1500,1072A,116.8584,38.3254,沧州市,电视转播站,细颗粒物(PM2.5),55,56,65,39,44,70,70,34,34,25,44,6,3,0.5,0.6
2025-11-21T1500,1073A,116.8709,38.3228,沧州市,市环保局,细颗粒物(PM2.5),63,63,68,45,45,71,71,38,38,16,36,4,4,0.4,0.5
2025-11-21T1500,3324A,116.8136,38.3004,沧州市,河北水利电力学院,颗粒物(PM10),56,61,69,32,38,69,69,35,35,19,52,7,6,0.3,0.4
2025-11-21T1500,2622A,97.1806,31.1273,昌都市,昌都监测站,,26,26,34,3,20,82,82,51,51,2,19,4,4,0.1,0.8
2025-11-21T1500,3719A,97.1714,31.1406,昌都市,昌都会议中心,,27,16,28,3,11,85,85,60,60,2,5,3,2,0.2,0.4
2025-11-21T1500,2690A,88.1236,43.8886,昌吉回族自治州,天山天池,,,,,,,,,,,,,,,,
2025-11-21T1500,2692A,87.2717,44.0297,昌吉回族自治州,新区政务中心,颗粒物(PM10),120,190,163,86,74,27,27,10,10,70,54,11,11,1.4,1.5
2025-11-21T1500,3613A,87.3095,44.0142,昌吉回族自治州,亚心广场,颗粒物(PM10),134,217,182,100,67,26,26,13,13,65,52,14,14,1.3,1.1
2025-11-21T1500,1120A,125.2863,43.9027,长春市,客车厂,,28,28,50,17,34,76,76,64,64,11,25,6,9,0.3,0.4
2025-11-21T1500,1121A,125.2841,43.8463,长春市,邮电学院,,25,25,47,12,24,71,71,60,60,8,22,7,10,0.3,0.4
2025-11-21T1500,1122A,125.3716,43.8772,长春市,劳动公园,,,30,46,7,23,75,75,62,62,6,21,9,11,,0.1
2025-11-21T1500,1123A,125.3297,43.8805,长春市,园林处,,25,25,45,12,27,70,70,59,59,7,21,6,9,0.3,0.4
2025-11-21T1500,1124A,125.4605,43.79,长春市,净月潭,,,24,41,3,19,78,78,63,63,,15,5,6,0.2,0.3
2025-11-21T1500,1125A,125.7194,43.515,长春市,甩湾子,,,,49,,32,,,50,,,15,,6,,0.5
2025-11-21T1500,1126A,125.3863,43.8447,长春市,经开区环卫处,,24,24,43,9,21,68,68,57,57,9,22,6,8,0.3,0.4
2025-11-21T1500,1127A,125.245,43.7783,长春市,高新区管委会,,24,18,49,11,32,76,76,63,63,6,21,5,7,0.2,0.4
2025-11-21T1500,1128A,125.1761,43.8325,长春市,岱山公园,,25,25,49,6,30,68,68,57,57,8,25,6,8,0.2,0.4
2025-11-21T1500,4281A,125.3346,43.9164,长春市,北亚泰大街1068号,,28,28,52,14,32,67,67,53,53,14,30,7,8,0.3,0.4
2025-11-21T1500,1335A,113.0833,28.2325,长沙市,经开区环保局,,40,29,62,28,46,107,107,60,60,12,42,6,6,0.4,0.5
2025-11-21T1500,1336A,112.8872,28.2189,长沙市,高开区环保局,细颗粒物(PM2.5),55,46,66,39,56,98,98,58,58,12,44,8,8,0.4,0.6
2025-11-21T1500,1337A,113.0792,28.2053,长沙市,马坡岭,细颗粒物(PM2.5),59,,72,42,48,104,104,58,58,18,40,7,7,0.5,0.8
2025-11-21T1500,1338A,112.9394,28.19,长沙市,湖南师范大学,,49,48,59,34,41,106,106,64,64,15,39,7,6,0.6,0.6
2025-11-21T1500,1339A,113.0178,28.1322,长沙市,雨花区环保局,,50,50,71,27,48,96,96,49,49,16,47,9,9,0.3,0.6
2025-11-21T1500,1340A,112.9792,28.2597,长沙市,伍家岭,颗粒物(PM10),51,52,72,34,39,100,100,51,51,20,45,8,6,0.3,0.4
2025-11-21T1500,1341A,113.0014,28.1944,长沙市,火车新站,,44,44,63,29,44,105,105,60,60,18,54,8,10,0.4,0.5
2025-11-21T1500,1342A,112.9844,28.1178,长沙市,天心区环保局,细颗粒物(PM2.5),53,45,63,37,43,105,105,57,57,20,50,7,7,0.3,0.4
2025-11-21T1500,1343A,112.8908,28.1308,长沙市,湖南中医药大学,,,60,68,38,48,102,102,59,59,14,42,8,7,,0.8
2025-11-21T1500,1344A,112.9581,28.3611,长沙市,沙坪,,,,,,,,,,,,,,,,
2025-11-21T1500,1727A,113.1147,36.1547,长治市,清华站,,26,26,56,12,31,76,76,37,37,15,38,10,10,0.4,0.8
2025-11-21T1500,1730A,113.0886,36.2125,长治市,审计局,,23,18,52,9,33,72,72,38,38,17,34,9,13,0.3,0.7
2025-11-21T1500,1731A,113.0844,36.1856,长治市,长治八中,,31,31,69,19,38,71,71,36,36,13,30,12,14,0.3,0.7
2025-11-21T1500,2845A,113.1569,36.1911,长治市,德盛苑,,27,27,43,17,29,72,72,49,49,20,28,12,15,0.3,0.7
2025-11-21T1500,3568A,113.06,36.0464,长治市,向阳小学,,35,35,67,9,32,88,88,50,50,16,35,19,19,0.4,0.8
2025-11-21T1500,3569A,112.8792,36.3144,长治市,屯留一中,,25,24,44,3,27,78,78,49,49,13,30,9,12,0.9,1.1
2025-11-21T1500,4189A,113.1131,36.19948,长治市,英华南巷50号,,25,24,58,17,35,73,73,41,41,16,31,10,13,0.6,1.1
2025-11-21T1500,4190A,113.2367,36.3344,长治市,学府街1号,,49,49,65,20,38,68,68,39,39,22,34,21,19,0.9,1.4
2025-11-21T1500,1854A,111.6975,28.9703,常德市,市二中,,33,,35,23,28,95,95,50,50,7,18,6,6,0.3,0.5
2025-11-21T1500,1857A,111.7158,29.1456,常德市,白鹤山,,,,,,,,,,,,,,,,
2025-11-21T1500,3138A,111.7153,29.0289,常德市,武陵区永安,,38,28,43,26,32,96,96,55,55,6,22,8,7,0.3,0.4
2025-11-21T1500,3139A,111.6892,28.9881,常德市,鼎城区玉霞,,31,22,40,21,30,97,97,49,49,6,18,7,6,0.4,0.7
2025-11-21T1500,3140A,111.6625,29.0531,常德市,武陵区长庚,,35,30,50,24,32,98,98,51,51,10,23,6,4,0.1,0.3
2025-11-21T1500,1196A,119.9633,31.762,常州市,市监测站,颗粒物(PM10),67,83,83,47,54,113,113,61,61,23,61,6,6,0.5,0.7
2025-11-21T1500,1200A,119.9468,31.7069,常州市,武进监测站,颗粒物(PM10),64,77,87,45,55,105,105,61,61,22,57,9,17,0.6,0.8
2025-11-21T1500,1201A,119.9255,31.9087,常州市,安家,细颗粒物(PM2.5),74,88,106,54,67,96,96,57,57,30,63,15,17,0.6,0.9
2025-11-21T1500,3002A,119.9805,31.8174,常州市,行政中心,细颗粒物(PM2.5),80,86,77,59,54,109,109,63,63,26,47,10,9,0.6,0.7
2025-11-21T1500,3003A,120.0522,31.7748,常州市,经开区,细颗粒物(PM2.5),82,99,94,60,52,118,118,69,69,14,42,12,12,0.7,0.8
2025-11-21T1500,3010A,119.9025,31.7964,常州市,钟楼,细颗粒物(PM2.5),72,89,83,52,53,100,100,59,59,27,53,12,12,0.5,0.6
2025-11-21T1500,3429A,119.8598,31.7066,常州市,武进经发区,细颗粒物(PM2.5),72,76,83,52,58,102,102,58,58,26,53,13,13,1.1,1.3
2025-11-21T1500,3430A,119.5826,31.7245,常州市,金坛城区,细颗粒物(PM2.5),70,66,70,51,56,108,108,61,61,16,32,10,10,0.8,0.8
2025-11-21T1500,2220A,120.4318,41.5881,朝阳市,西梁,,25,19,46,3,22,77,77,49,49,8,28,4,10,0.3,0.7
2025-11-21T1500,2221A,120.4521,41.5646,朝阳市,河畔小区,,,,35,6,17,73,73,52,52,11,23,6,11,,0.7
2025-11-21T1500,2222A,120.4176,41.5648,朝阳市,八里堡,,25,13,44,7,22,77,77,49,49,10,33,6,11,0.2,0.7
2025-11-21T1500,2223A,120.3806,41.5969,朝阳市,农业园区,,25,15,33,6,20,79,79,53,53,6,23,4,10,0.3,0.6
2025-11-21T1500,1705A,116.6367,23.6719,潮州市,西园路,,,,,,,,,,,,,,,,
2025-11-21T1500,3026A,116.6183,23.6608,潮州市,市政府,,42,42,35,12,15,91,91,71,71,3,9,5,6,0.3,0.3
2025-11-21T1500,4036A,116.6461,23.6761,潮州市,金山,,31,31,28,11,19,86,86,68,68,7,11,3,3,0.3,0.4
2025-11-21T1500,2472A,113.0073,25.9061,郴州市,马头岭,,,,,,,,,,,,,,,,
2025-11-21T1500,2473A,113.0116,25.8226,郴州市,市职中,,39,31,45,27,30,101,101,56,56,11,28,7,6,0.4,0.4
2025-11-21T1500,2475A,113.0383,25.8071,郴州市,市审计局,,35,34,40,24,26,105,105,62,62,13,28,10,8,0.5,0.7
2025-11-21T1500,2476A,113.0348,25.7759,郴州市,市环保局,,35,34,49,24,32,104,104,64,64,11,29,14,12,0.4,0.5
2025-11-21T1500,4252A,113.0138,25.8011,郴州市,好美居路49号,,36,36,43,24,30,109,109,66,66,12,31,9,9,0.3,0.4
2025-11-21T1500,1431A,103.9728,30.7236,成都市,金泉两河,细颗粒物(PM2.5),118,116,84,89,56,34,34,15,15,60,52,6,4,0.9,0.8
2025-11-21T1500,1432A,104.176,30.6872,成都市,十里店,细颗粒物(PM2.5),83,95,85,61,55,49,49,21,21,55,56,6,5,0.7,0.8
2025-11-21T1500,1433A,104.079,30.5706,成都市,三瓦窑,颗粒物(PM10),62,73,79,31,44,70,70,31,31,39,55,6,6,0.5,0.8
2025-11-21T1500,1434A,104.1114,30.63,成都市,沙河铺,细颗粒物(PM2.5),89,83,83,66,64,35,35,19,17,62,52,3,6,0.8,0.9
2025-11-21T1500,1437A,104.0786,30.6531,成都市,君平街,细颗粒物(PM2.5),112,106,83,84,58,23,23,22,10,66,49,6,6,0.7,0.7
2025-11-21T1500,1438A,103.613,31.0283,成都市,灵岩寺,,,,,,,,,,,,,,,,
2025-11-21T1500,2880A,104.0239,30.65639,成都市,大石西路,细颗粒物(PM2.5),85,86,64,63,54,24,24,16,12,68,52,4,4,0.9,0.8
2025-11-21T1500,3136A,104.2725,30.5589,成都市,龙泉驿区区政府,,45,44,50,31,33,73,73,58,58,17,23,8,7,0.5,0.5
2025-11-21T1500,3357A,104.0106,30.6931,成都市,金博路,细颗粒物(PM2.5),92,105,74,68,48,28,28,11,11,69,56,7,5,0.9,0.8
2025-11-21T1500,3359A,104.0578,30.5225,成都市,华阳,颗粒物(PM10),58,66,69,36,48,65,65,33,33,33,43,7,6,0.5,0.7
2025-11-21T1500,3488A,104.3880,30.7467,成都市,青石路225号,细颗粒物(PM2.5),52,47,71,36,45,89,89,37,37,19,40,6,6,0.4,0.5
2025-11-21T1500,3489A,104.0789,30.4072,成都市,科学城,细颗粒物(PM2.5),73,66,62,53,47,74,74,43,43,17,27,7,6,0.3,0.5
2025-11-21T1500,4011A,103.8506,30.6947,成都市,光华大道三段,细颗粒物(PM2.5),93,94,85,69,58,40,40,18,18,55,42,3,3,0.7,0.6
2025-11-21T1500,4224A,104.2433,30.5353,成都市,鲸龙路1057号,,,61,58,44,42,79,79,39,39,22,32,,7,0.6,0.6
2025-11-21T1500,1062A,117.9531,40.9081,承德市,铁路,,20,16,31,3,15,63,63,36,36,10,25,18,7,0.5,0.6
2025-11-21T1500,1063A,117.9392,40.9763,承德市,中国银行,,20,9,33,3,12,64,64,37,37,6,28,8,4,0.3,0.4
2025-11-21T1500,1064A,117.9503,40.928,承德市,开发区,,28,28,47,8,23,70,70,38,38,6,32,17,6,0.3,0.5
2025-11-21T1500,1066A,117.9268,41.0026,承德市,离宫,,,,,,,,,,,,,,,,
2025-11-21T1500,4274A,117.7994,40.9605,承德市,滨河大街98号,,22,16,22,3,11,68,68,42,42,5,18,27,7,0.3,0.3
2025-11-21T1500,2314A,117.47,30.6618,池州市,池州学院,细颗粒物(PM2.5),75,81,52,55,34,110,110,68,68,26,29,10,9,0.5,1.1
2025-11-21T1500,3237A,117.4918,30.6617,池州市,展览馆,颗粒物(PM10),65,79,52,45,30,113,113,66,66,25,31,10,9,0.5,0.9
2025-11-21T1500,3333A,117.5627,30.695,池州市,第八中学,细颗粒物(PM2.5),69,78,50,50,31,115,115,72,72,31,35,12,13,0.6,0.9
2025-11-21T1500,3334A,117.5038,30.6243,池州市,第十二中学,细颗粒物(PM2.5),68,77,57,49,34,121,121,65,65,27,41,12,10,0.9,1.4
2025-11-21T1500,1744A,118.9233,42.2816,赤峰市,松山一中,,23,,13,14,6,71,71,63,62,12,13,5,6,0.4,0.4
2025-11-21T1500,1745A,118.9576,42.2728,赤峰市,哈达街,,22,8,14,3,5,68,68,58,58,12,13,7,8,0.3,0.4
2025-11-21T1500,1746A,118.8788,42.2554,赤峰市,天义路,,20,6,11,3,6,61,61,56,56,26,32,5,5,0.4,0.4
2025-11-21T1500,3058A,119.2658,42.0353,赤峰市,银河街,,31,31,46,15,25,71,71,46,46,12,22,7,7,0.5,0.8
2025-11-21T1500,3286A,118.9359,42.3147,赤峰市,桥北物流园区,,,,21,3,8,67,67,57,57,11,14,,8,0.4,0.3
2025-11-21T1500,2521A,107.3476,22.4136,崇左市,市环保局江州分局,,24,24,25,11,10,76,76,50,50,7,13,6,5,0.4,0.5
2025-11-21T1500,4256A,107.3750,22.3736,崇左市,石景林东路7号,,26,26,20,13,11,80,80,53,53,5,12,7,7,0.4,0.5
2025-11-21T1500,2298A,118.3093,32.3153,滁州市,老年大学,细颗粒物(PM2.5),65,59,62,47,47,99,99,58,58,16,29,9,9,0.4,0.5
2025-11-21T1500,2299A,118.3244,32.2786,滁州市,人大宾馆,细颗粒物(PM2.5),69,73,64,50,46,106,106,58,58,15,33,10,6,0.3,0.4
2025-11-21T1500,3207A,118.3118,32.3038,滁州市,市政府原办公楼,,,,63,,41,,,53,,,42,,5,,0.6
2025-11-21T1500,3331A,118.3267,32.2634,滁州市,图书馆,颗粒物(PM10),60,70,56,38,39,105,105,56,56,21,31,12,8,0.4,0.4
2025-11-21T1500,2605A,101.5482,25.0441,楚雄彝族自治州,州环境监测站,,18,16,8,12,9,32,32,30,30,4,5,5,5,0.7,0.7
2025-11-21T1500,2606A,101.538,25.0492,楚雄彝族自治州,市经济开发区,,22,16,15,15,12,45,45,38,38,7,7,6,6,0.6,0.7
2025-11-21T1500,2548A,107.5277,31.2827,达州市,达州职业技术学院,,,,,,,,,,,,,,,,
2025-11-21T1500,2549A,107.5086,31.2186,达州市,市环境监测站,颗粒物(PM10),56,62,71,31,48,71,71,27,27,28,32,6,5,0.6,0.7
2025-11-21T1500,2550A,107.4988,31.2132,达州市,凤凰小区,细颗粒物(PM2.5),64,61,75,46,51,79,79,32,32,24,34,5,5,0.4,0.5
2025-11-21T1500,2551A,107.5082,31.1986,达州市,达县机关宾馆,颗粒物(PM10),56,61,75,35,53,73,73,30,30,36,36,5,4,0.5,0.7
2025-11-21T1500,2552A,107.4644,31.2124,达州市,市政中心,颗粒物(PM10),68,85,91,46,50,62,62,24,24,27,36,6,6,0.5,0.7
2025-11-21T1500,2614A,100.1542,25.7054,大理白族自治州,大理市环境监测站,,16,,7,11,17,48,48,41,41,7,7,6,6,0.6,0.6
2025-11-21T1500,2615A,100.2171,25.5811,大理白族自治州,大理古城,,22,8,13,7,10,68,68,48,48,5,9,7,7,0.5,0.4
2025-11-21T1500,1109A,121.612,38.9741,大连市,甘井子,,24,24,34,9,18,70,70,59,59,20,37,7,9,0.1,0.3
2025-11-21T1500,1110A,121.565,38.9511,大连市,周水子,,,27,34,6,19,71,71,59,59,,36,10,11,0.4,0.4
2025-11-21T1500,1111A,121.5637,38.8845,大连市,星海三站,,23,23,31,6,19,70,70,58,58,15,23,7,8,0.3,0.5
2025-11-21T1500,1112A,121.6302,38.9117,大连市,青泥洼桥,,23,14,30,6,14,72,72,54,54,14,26,10,12,0.3,0.4
2025-11-21T1500,1113A,121.6251,38.8638,大连市,傅家庄,,22,21,25,6,13,69,69,57,57,13,19,9,12,0.6,0.7
2025-11-21T1500,1114A,121.5213,38.8661,大连市,七贤岭,,26,26,35,7,16,71,71,61,61,14,20,8,7,0.4,0.6
2025-11-21T1500,1115A,121.2529,38.8061,大连市,旅顺,,24,24,30,10,17,73,73,63,63,11,19,9,8,0.5,0.4
2025-11-21T1500,1116A,121.7485,39.1311,大连市,金州,,25,18,35,7,17,79,79,59,59,14,28,6,8,0.2,0.3
2025-11-21T1500,1117A,121.7811,39.0496,大连市,开发区,,28,28,34,9,18,67,67,54,54,15,37,14,14,0.3,0.5
2025-11-21T1500,1118A,121.9762,39.0631,大连市,双D港,,25,21,32,6,13,78,78,102,85,14,20,10,11,0.4,0.5
2025-11-21T1500,1789A,124.81117,46.03138,大庆市,大同区,,27,27,33,6,16,68,68,56,56,9,12,4,6,0.4,0.4
2025-11-21T1500,1790A,125.129,46.533,大庆市,龙凤区,,25,25,47,17,34,59,59,47,47,9,21,5,7,0.4,0.6
2025-11-21T1500,1791A,124.902,46.408,大庆市,红岗区,,25,25,38,16,25,60,60,52,52,15,17,4,5,0.6,0.5
2025-11-21T1500,1792A,125.153,46.586,大庆市,萨尔图区,,25,25,45,10,27,53,53,46,46,16,22,7,8,0.4,0.5
2025-11-21T1500,1793A,124.9042,46.6215,大庆市,让胡路区,,22,22,34,14,24,60,60,55,55,10,10,6,7,0.5,0.5
2025-11-21T1500,3481A,125.141,46.634,大庆市,萨区政府监测点,,20,20,33,3,10,63,63,53,53,7,13,8,8,0.3,0.4
2025-11-21T1500,1721A,113.3819,40.1097,大同市,果树场,颗粒物(PM10),53,56,78,23,46,59,59,43,43,29,43,16,18,0.5,1.4
2025-11-21T1500,1723A,113.2994,40.0758,大同市,云冈宾馆,颗粒物(PM10),53,55,83,14,37,52,52,32,32,27,36,10,12,0.6,1
2025-11-21T1500,1724A,113.3444,40.0917,大同市,大同大学,颗粒物(PM10),53,56,71,21,37,60,60,36,36,28,40,7,13,0.5,0.8
2025-11-21T1500,1725A,113.2661,40.1269,大同市,安家小村,,,67,79,19,34,50,50,31,31,,35,18,19,0.3,1.6
2025-11-21T1500,1726A,113.2711,40.0844,大同市,教育学院,颗粒物(PM10),56,62,92,22,44,52,52,31,31,29,41,10,14,0.4,1.3
2025-11-21T1500,3282A,113.3397,40.0597,大同市,大同市卫生学校,颗粒物(PM10),55,59,79,14,40,51,51,33,33,30,43,9,12,0.5,0.9
2025-11-21T1500,3565A,113.1367,40.1122,大同市,云冈站,,23,21,45,3,21,72,72,43,43,6,19,5,9,0.5,0.7
2025-11-21T1500,3566A,113.1186,40.2556,大同市,图书馆,,50,50,54,10,32,70,70,44,44,15,18,4,9,0.3,0.5
2025-11-21T1500,3567A,113.5931,40.0461,大同市,区一中,颗粒物(PM10),55,60,91,15,38,70,70,51,51,22,39,29,33,0.5,0.9
2025-11-21T1500,4199A,113.2798,40.0997,大同市,魏都大道141号,颗粒物(PM10),55,59,99,18,48,52,52,34,34,33,43,11,14,0.7,1.6
2025-11-21T1500,2269A,124.1069,50.4097,大兴安岭地区,科技局,,18,12,20,9,16,57,57,50,50,4,5,4,4,0.2,0.2
2025-11-21T1500,3663A,124.1164,50.4278,大兴安岭地区,红旗社区,,18,6,14,3,10,56,56,48,48,9,17,4,6,0.3,0.4
2025-11-21T1500,1600A,124.3303,40.0625,丹东市,江湾东路,,43,43,80,24,49,67,67,47,47,22,34,13,19,0.7,1.7
2025-11-21T1500,1601A,124.4256,40.1503,丹东市,临江后街,,48,48,65,19,34,62,62,39,39,26,38,17,14,1.0,1.1
2025-11-21T1500,1602A,124.3933,40.1461,丹东市,元宝山,,50,50,56,25,35,57,57,37,37,31,26,22,14,1.2,0.9
2025-11-21T1500,1603A,124.3633,40.1092,丹东市,民主桥,颗粒物(PM10),57,64,74,31,44,56,56,30,30,27,50,15,11,1.4,1.6
2025-11-21T1500,3541A,109.5726,19.5167,儋州市,第一中学子站,,38,38,41,21,23,102,102,67,67,6,10,9,10,0.4,0.5
2025-11-21T1500,3542A,109.5567,19.5187,儋州市,东坡学校子站,,37,34,38,18,23,116,116,71,71,10,13,4,5,0.4,0.5
2025-11-21T1500,2616A,98.5842,24.428,德宏傣族景颇族自治州,德宏州监测站,,24,14,26,12,21,76,76,34,34,7,15,8,8,0.5,0.7
2025-11-21T1500,3677A,98.5881,24.4368,德宏傣族景颇族自治州,芒市人民政府综合楼,,20,16,26,11,14,64,64,30,30,6,12,7,7,0.6,0.8
2025-11-21T1500,1901A,104.4239,31.1208,德阳市,东山公园,细颗粒物(PM2.5),93,,52,69,56,65,65,40,27,30,35,4,3,0.8,0.8
2025-11-21T1500,1902A,104.3826,31.1317,德阳市,西小区,细颗粒物(PM2.5),97,104,99,72,64,53,53,18,18,34,53,7,6,0.5,0.6
2025-11-21T1500,1904A,104.3553,31.1091,德阳市,耐火材料厂,细颗粒物(PM2.5),104,114,109,78,76,41,41,17,17,53,58,6,6,0.9,0.9
2025-11-21T1500,3639A,104.4019,31.1244,德阳市,市教育局,细颗粒物(PM2.5),92,96,80,68,59,44,44,20,20,36,52,3,2,0.7,0.8
2025-11-21T1500,1622A,116.3032,37.4674,德州市,儿童乐园,颗粒物(PM10),53,56,84,19,46,65,65,41,41,29,49,13,14,0.7,0.8
2025-11-21T1500,1624A,116.2991,37.4451,德州市,监理站,,46,46,83,19,53,70,70,47,47,34,54,18,16,0.4,0.5
2025-11-21T1500,3066A,116.2721,37.4379,德州市,九衢泉纯净水厂,,48,48,92,27,58,62,62,37,37,46,67,15,16,0.8,1
2025-11-21T1500,3371A,116.3728,37.4403,德州市,开发区人民医院,颗粒物(PM10),54,58,78,22,43,64,64,44,44,35,51,25,18,0.8,0.8
2025-11-21T1500,3511A,116.5652,37.3319,德州市,陵城艺术中心,颗粒物(PM10),51,51,83,22,50,59,59,33,33,35,52,11,17,0.5,0.8
2025-11-21T1500,4292A,116.3525,37.4209,德州市,新河东路,颗粒物(PM10),53,56,83,19,50,60,60,37,37,43,68,12,14,0.8,0.8
2025-11-21T1500,2621A,99.7056,27.8317,迪庆藏族自治州,迪庆州站,,25,20,22,9,14,80,80,61,61,6,9,6,6,0.6,0.7
2025-11-21T1500,3180A,99.7136,27.8094,迪庆藏族自治州,质量技术监督局,,,,22,,11,,,67,,,11,,8,,0.6
2025-11-21T1500,4257A,104.6092,35.5962,定西市,将台街,,29,17,75,9,45,92,92,49,49,9,29,10,13,0.3,0.8
2025-11-21T1500,4309A,104.6159,35.5701,定西市,正龙路62号,,32,25,79,9,45,102,102,57,57,9,19,6,8,0.4,0.7
2025-11-21T1500,1389A,113.7547,23.0494,东莞市,莞城梨川,,31,18,29,13,16,98,98,79,79,13,26,5,5,0.4,0.4
2025-11-21T1500,1390A,113.7944,23.0128,东莞市,东城石井,,34,22,29,14,17,107,107,81,81,18,28,8,8,0.5,0.5
2025-11-21T1500,1391A,113.7383,22.9658,东莞市,南城西平,,33,21,35,14,18,103,103,75,75,13,52,9,9,0.5,0.6
2025-11-21T1500,3319A,113.7338,23.0381,东莞市,万江金泰,,29,19,25,11,14,92,92,74,74,10,21,6,6,0.5,0.6
2025-11-21T1500,3626A,113.7533,23.0202,东莞市,南城元岭,,34,23,27,13,13,106,106,84,84,7,18,8,8,0.2,0.3
2025-11-21T1500,3627A,113.7875,23.0457,东莞市,东城主山,,35,24,32,12,17,110,110,85,85,11,28,7,7,0.3,0.3
2025-11-21T1500,1666A,118.6614,37.4309,东营市,市环保局,颗粒物(PM10),60,70,57,31,29,69,69,40,40,32,50,14,34,0.7,0.7
2025-11-21T1500,3036A,118.6904,37.4338,东营市,开发区管委会,颗粒物(PM10),70,90,63,39,29,73,73,43,43,30,47,18,35,0.3,0.4
2025-11-21T1500,3365A,118.5719,37.565,东营市,垦利区民丰路,颗粒物(PM10),59,68,60,29,26,78,78,51,51,31,50,8,11,0.7,0.8
2025-11-21T1500,3498A,118.5055,37.8612,东营市,河口城区,颗粒物(PM10),59,68,49,37,24,79,79,49,49,25,40,12,11,0.4,0.5
2025-11-21T1500,3646A,118.4978,37.4623,东营市,胜利站,颗粒物(PM10),56,62,62,24,33,55,55,35,35,44,52,16,22,0.6,0.8
2025-11-21T1500,3734A,118.35,37.26,东营市,理想之城,颗粒物(PM10),60,70,65,31,33,71,71,40,40,47,52,21,21,0.7,0.8
2025-11-21T1500,1591A,110.0023,39.8129,鄂尔多斯市,综合楼,,24,7,18,3,4,75,75,57,50,8,16,7,8,0.2,0.3
2025-11-21T1500,1592A,109.9486,39.8261,鄂尔多斯市,巴音孟克林场办事处,,27,12,19,3,7,84,84,66,66,7,15,5,5,0.3,0.4
2025-11-21T1500,1593A,109.7736,39.5986,鄂尔多斯市,康泽苑,,27,17,25,9,11,86,86,54,54,7,17,5,5,0.3,0.3
2025-11-21T1500,1594A,109.8119,39.5989,鄂尔多斯市,华泰汽车城,,26,19,28,7,12,83,83,46,46,7,27,6,6,0.1,0.2
2025-11-21T1500,1595A,109.9734,39.7884,鄂尔多斯市,奥林花园,,26,22,32,3,7,83,83,47,47,9,26,5,7,0.2,0.3
2025-11-21T1500,2436A,114.8938,30.3994,鄂州市,市政府,细颗粒物(PM2.5),57,43,61,40,41,71,71,41,41,30,43,12,13,0.6,0.8
2025-11-21T1500,2437A,114.8989,30.3714,鄂州市,赵家坝,细颗粒物(PM2.5),52,50,65,36,44,95,95,55,55,12,32,12,11,0.6,0.7
2025-11-21T1500,3654A,114.8094,30.4089,鄂州市,精准医疗中心,细颗粒物(PM2.5),63,,59,45,46,85,85,60,60,38,38,10,7,0.9,0.7
2025-11-21T1500,2454A,109.4978,30.2981,恩施土家族苗族自治州,湖北民院,,29,25,37,14,29,91,91,42,42,8,14,6,7,0.3,0.4
2025-11-21T1500,2455A,109.4707,30.2798,恩施土家族苗族自治州,州电力总公司,,23,20,38,15,30,72,72,29,29,8,18,6,6,0.3,0.4
2025-11-21T1500,3549A,109.5061,30.3772,恩施土家族苗族自治州,龙凤新区,,41,41,31,28,20,77,77,37,37,13,10,6,6,0.1,0.2
2025-11-21T1500,2499A,108.3411,21.6158,防城港市,沙万,,28,24,30,16,17,88,88,66,66,6,9,7,7,0.1,0.1
2025-11-21T1500,2500A,108.3514,21.7731,防城港市,防城档案局,,35,35,38,19,21,82,82,62,62,9,12,9,9,0.3,0.4
2025-11-21T1500,2501A,108.3506,21.6414,防城港市,大海花园,,30,28,26,9,13,95,95,72,72,7,10,6,6,0.3,0.4
2025-11-21T1500,1371A,113.1294,23.0067,佛山市,湾梁,,29,22,27,13,14,90,90,66,66,20,29,8,9,0.3,0.4
2025-11-21T1500,1372A,113.1083,23.0478,佛山市,华材职中,,30,29,34,18,19,94,94,69,69,14,28,7,9,0.6,0.7
2025-11-21T1500,1373A,113.144,23.0453,佛山市,南海气象局,,35,35,29,15,15,99,99,72,72,17,27,8,9,0.4,0.4
2025-11-21T1500,1374A,113.2881,22.8094,佛山市,顺德苏岗,,32,9,22,9,12,102,102,72,72,17,34,8,8,0.3,0.3
2025-11-21T1500,1376A,112.8383,22.8678,佛山市,高明孔堂,,,26,34,22,22,97,97,70,70,,22,8,9,,0.3
2025-11-21T1500,1377A,112.8836,23.1588,佛山市,三水监测站,,27,27,39,13,21,79,79,64,64,15,31,6,8,0.3,0.5
2025-11-21T1500,1378A,112.867,23.185,佛山市,三水云东海,,31,30,33,16,20,98,98,74,74,15,30,6,7,0.4,0.4
2025-11-21T1500,3625A,113.2544,22.7642,佛山市,容桂街道办,,34,34,28,17,15,88,88,64,64,24,35,6,7,0.4,0.4
2025-11-21T1500,1280A,119.3903,26.0543,福州市,鼓山,,,,29,,13,,,82,,,13,,3,,0.5
2025-11-21T1500,1282A,119.2681,26.0504,福州市,师大,,49,49,36,22,16,122,122,72,72,18,19,9,7,0.5,0.5
2025-11-21T1500,1283A,119.2984,26.1028,福州市,五四北路,,34,29,32,12,13,108,108,76,76,12,18,6,5,0.5,0.5
2025-11-21T1500,1284A,119.2648,26.0768,福州市,杨桥西路,,46,46,34,24,16,115,115,74,74,17,18,6,5,0.4,0.4
2025-11-21T1500,1285A,119.317,26.0746,福州市,紫阳,颗粒物(PM10),53,55,38,23,16,101,101,57,57,25,25,9,8,0.5,0.4
2025-11-21T1500,3048A,119.5799,26.0936,福州市,九龙,,37,23,30,11,16,116,116,92,92,10,12,4,6,0.3,0.4
2025-11-21T1500,3526A,119.5189,25.9664,福州市,吴航,,38,24,31,14,18,121,121,86,86,10,17,7,8,0.3,0.4
2025-11-21T1500,1755A,123.7977,41.8491,抚顺市,望花区,细颗粒物(PM2.5),68,72,83,49,49,84,84,54,54,16,42,9,19,0.6,1.1
2025-11-21T1500,1756A,123.9161,41.8822,抚顺市,顺城区,,43,43,80,27,49,87,87,49,49,14,40,8,15,0.5,1.1
2025-11-21T1500,1757A,124.0436,41.8611,抚顺市,东洲区,颗粒物(PM10),51,52,59,30,39,82,82,48,48,14,36,9,17,0.5,0.9
2025-11-21T1500,1758A,123.9247,41.8642,抚顺市,新抚区,,43,40,90,30,50,87,87,46,46,12,37,9,11,0.7,1.2
2025-11-21T1500,1759A,124.0972,41.8961,抚顺市,大伙房水库,细颗粒物(PM2.5),62,69,60,44,39,90,90,54,54,13,31,12,17,0.8,1.1
2025-11-21T1500,1760A,123.7086,41.8391,抚顺市,沈抚新城,颗粒物(PM10),53,55,77,18,47,75,75,60,60,10,42,8,12,0.3,0.8
2025-11-21T1500,2376A,116.2127,28.0814,抚州市,桐源党溪,,,,,,,,,,,,,,,,
2025-11-21T1500,2377A,116.3544,27.9831,抚州市,市站,,42,42,52,26,32,119,119,71,71,10,19,9,13,0.6,0.6
2025-11-21T1500,2378A,116.3565,27.963,抚州市,血防站,,46,46,54,26,30,115,115,68,68,10,25,6,9,0.7,0.6
2025-11-21T1500,2379A,116.3564,28.0007,抚州市,采茶剧团,,43,43,55,16,35,116,116,70,70,4,17,7,8,0.6,0.7
2025-11-21T1500,2380A,116.385,27.9647,抚州市,医学分院,,48,48,62,24,31,120,120,76,76,8,23,6,14,0.6,0.6
2025-11-21T1500,2207A,121.6094,41.998,阜新市,工业园区,,33,33,108,8,58,77,77,51,51,10,37,7,18,0.3,0.7
2025-11-21T1500,2208A,121.6697,42.0279,阜新市,长青街,,23,20,72,3,51,71,71,44,44,8,37,6,20,0.2,0.7
2025-11-21T1500,2209A,121.6673,42.0705,阜新市,农业园区,,27,27,53,3,28,69,69,57,57,7,27,4,31,0.2,0.5
2025-11-21T1500,2210A,121.6717,42.0224,阜新市,东苑,,24,24,73,13,41,68,68,43,43,10,43,6,34,0.3,0.8
2025-11-21T1500,2211A,121.6506,42.0498,阜新市,玉龙新城,,29,29,92,3,43,74,74,47,47,7,37,7,15,0.2,0.8
2025-11-21T1500,2301A,115.8277,32.8929,阜阳市,市监测站,细颗粒物(PM2.5),68,71,101,49,73,92,92,54,54,20,41,10,7,0.5,0.6
2025-11-21T1500,2303A,115.8554,32.8605,阜阳市,开发区,颗粒物(PM10),71,91,124,46,68,96,96,52,52,20,51,9,8,0.5,0.5
2025-11-21T1500,2875A,115.784,32.8892,阜阳市,阜阳职业技术学院,,50,49,86,35,63,99,99,59,59,16,44,12,9,0.5,0.6
2025-11-21T1500,3468A,115.7901,32.8613,阜阳市,市规划展馆,颗粒物(PM10),62,74,109,41,76,101,101,56,56,16,37,10,8,0.4,0.5
2025-11-21T1500,3469A,115.836,32.9183,阜阳市,枣园社区,细颗粒物(PM2.5),67,67,105,48,71,99,99,55,55,19,52,8,7,0.4,0.5
2025-11-21T1500,2669A,102.9099,34.9841,甘南藏族自治州,州政府,,25,21,55,16,33,78,78,45,45,10,35,5,5,0.3,0.7
2025-11-21T1500,3380A,102.8914,34.9617,甘南藏族自治州,甘肃民族师范学院,,23,23,76,6,25,73,73,40,40,8,33,6,8,0.6,0.7
2025-11-21T1500,2570A,101.9603,30.0475,甘孜藏族自治州,水桥子,,23,,8,3,6,71,71,52,52,6,12,8,8,0.2,0.5
2025-11-21T1500,3065A,101.9533,29.9972,甘孜藏族自治州,州环保局,,21,17,11,3,5,67,67,52,51,9,13,6,5,0.5,0.5
2025-11-21T1500,3414A,115.8347,28.932,赣江新区,桑海产业园,,34,34,40,20,18,106,106,64,64,13,35,10,8,0.6,0.7
2025-11-21T1500,2362A,114.9017,25.9149,赣州市,通天岩,,38,35,28,18,16,121,121,86,86,6,6,46,33,0.8,0.9
2025-11-21T1500,2363A,114.9367,25.8664,赣州市,地委,,34,32,39,20,18,108,108,72,72,12,16,8,9,0.6,0.5
2025-11-21T1500,2364A,114.9461,25.8481,赣州市,气象台,,35,29,47,15,16,109,109,73,73,11,19,8,9,0.6,0.6
2025-11-21T1500,2365A,114.9322,25.8333,赣州市,市图书馆,,35,26,34,12,21,112,112,77,77,10,16,6,7,0.6,0.5
2025-11-21T1500,2366A,114.8905,25.8471,赣州市,华坚鞋城,,36,36,43,14,20,96,96,68,68,18,17,6,6,0.4,0.3
2025-11-21T1500,3109A,115.0093,25.8613,赣州市,赣县区卫计委,,,36,36,26,27,109,109,74,74,5,16,8,8,,0.4
2025-11-21T1500,2683A,106.2319,36.1417,固原市,马园,,,,,,,,,,,,,,,,
2025-11-21T1500,2684A,106.2792,36.0022,固原市,监测站,,31,31,81,17,47,98,98,64,64,11,33,7,10,0.3,1.1
2025-11-21T1500,2685A,106.2375,36.0211,固原市,新区,,43,43,82,13,37,92,92,58,58,13,42,8,6,0.1,0.8
2025-11-21T1500,3522A,106.2177,35.9959,固原市,原州区十五小,,38,38,65,17,27,94,94,72,72,13,24,7,8,0.7,0.9
2025-11-21T1500,2543A,106.6308,30.5278,广安市,小平旧居,,,,,,,,,,,,,,,,
2025-11-21T1500,2544A,106.6303,30.4576,广安市,市委,细颗粒物(PM2.5),58,61,67,41,47,99,99,48,48,21,34,5,3,0.5,0.7
2025-11-21T1500,2545A,106.6271,30.4663,广安市,友谊中学,细颗粒物(PM2.5),60,68,63,43,47,102,102,62,62,17,26,8,7,0.5,0.7
2025-11-21T1500,2547A,106.6388,30.4551,广安市,广电花园,细颗粒物(PM2.5),65,65,62,47,48,99,99,46,46,18,29,4,3,0.5,0.7
2025-11-21T1500,2902A,106.6351,30.4865,广安市,北辰小学,细颗粒物(PM2.5),69,65,61,50,43,104,104,48,48,16,18,13,10,0.6,0.8
2025-11-21T1500,2523A,105.8945,32.4535,广元市,黑石坡,,,,,,,,,,,,,,,,
2025-11-21T1500,2524A,105.821,32.4444,广元市,老城,细颗粒物(PM2.5),69,,40,50,30,69,69,34,34,30,40,7,5,0.9,0.8
2025-11-21T1500,2526A,105.8628,32.4287,广元市,监测站,细颗粒物(PM2.5),65,,39,47,32,55,55,28,28,27,27,5,5,0.8,0.8
2025-11-21T1500,3617A,105.8047,32.4166,广元市,经开区,细颗粒物(PM2.5),64,71,54,46,31,47,47,22,22,32,38,5,5,0.6,0.6
2025-11-21T1500,1345A,113.2347,23.1423,广州市,广雅中学,,29,26,38,13,19,92,92,69,69,20,46,8,9,0.5,0.4
2025-11-21T1500,1346A,113.2612,23.105,广州市,市五中,,35,27,33,13,19,110,110,84,84,18,41,11,11,0.4,0.4
2025-11-21T1500,1348A,113.3478,23.0916,广州市,广东商学院,,34,25,26,14,14,106,106,79,79,12,21,7,7,0.1,0.1
2025-11-21T1500,1349A,113.4332,23.1047,广州市,市八十六中,,33,22,25,9,15,103,103,74,74,7,25,6,7,0.0,0.2
2025-11-21T1500,1350A,113.3505,22.9483,广州市,番禺中学,,34,26,24,14,15,107,107,76,76,14,26,5,5,0.1,0.1
2025-11-21T1500,1351A,113.2146,23.3916,广州市,花都师范,,32,23,27,12,14,102,102,82,82,11,19,8,9,0.2,0.3
2025-11-21T1500,1352A,113.2597,23.1331,广州市,市监测站,,,,42,12,19,106,106,79,79,15,38,9,9,0.3,0.4
2025-11-21T1500,1353A,113.5618,23.312,广州市,九龙镇镇龙,,29,25,30,11,16,90,90,68,68,10,23,6,6,0.5,0.5
2025-11-21T1500,1354A,113.2765,23.1544,广州市,麓湖,,31,20,26,12,16,99,99,73,73,11,36,9,8,0.4,0.4
2025-11-21T1500,1355A,113.443,23.3035,广州市,帽峰山森林公园,,,,,,,,,,,,,,,,
2025-11-21T1500,2846A,113.3221,23.1322,广州市,体育西,,32,27,30,14,18,100,100,75,75,15,30,11,10,0.5,0.5
2025-11-21T1500,3298A,113.5717,23.5491,广州市,从化街口,,31,25,23,15,13,99,99,84,84,8,15,7,7,0.4,0.5
2025-11-21T1500,3299A,113.3472,23.3692,广州市,白云竹料,,34,24,30,12,19,108,108,87,87,8,21,7,6,0.4,0.5
2025-11-21T1500,3300A,113.2981,23.237,广州市,白云嘉禾,,34,30,43,13,20,107,107,80,80,14,43,9,8,0.4,0.5
2025-11-21T1500,3301A,113.4256,23.1716,广州市,黄埔科学城,,35,22,25,13,14,111,111,83,83,9,22,8,7,0.4,0.5
2025-11-21T1500,3302A,113.3942,23.0483,广州市,番禺大学城,,37,25,28,12,13,116,116,84,84,8,19,8,8,0.2,0.3
2025-11-21T1500,3303A,113.4922,22.8168,广州市,南沙黄阁,,35,35,39,18,17,103,103,79,79,20,38,8,12,0.4,0.5
2025-11-21T1500,3304A,113.5342,22.7896,广州市,南沙街,,31,30,38,17,18,99,99,74,74,19,31,9,9,0.3,0.5
2025-11-21T1500,3443A,113.2902,23.5544,广州市,花都梯面,,,17,19,10,12,101,101,87,87,,11,7,8,,0.2
2025-11-21T1500,3445A,113.7858,23.7478,广州市,从化良口,,,20,18,17,12,105,105,90,90,8,10,,8,0.4,0.3
2025-11-21T1500,3446A,113.8051,23.2614,广州市,增城荔城,,33,16,21,11,13,103,103,84,84,8,13,10,10,0.4,0.4
2025-11-21T1500,2505A,109.568,23.1478,贵港市,德智高中,,,,,,,,,,,,,,,,
2025-11-21T1500,2506A,109.6047,23.0666,贵港市,江南子站,,34,29,33,21,24,106,106,84,84,6,10,7,7,0.4,0.4
2025-11-21T1500,2508A,109.5669,23.1065,贵港市,荷城子站,,31,24,32,12,16,99,99,80,80,9,12,6,6,0.4,0.4
2025-11-21T1500,3405A,109.5886,23.1172,贵港市,新世纪学校,,34,34,35,19,20,106,106,84,84,4,7,8,7,0.2,0.3
2025-11-21T1500,4260A,109.5933,23.0951,贵港市,中山路155-3号,,35,27,31,20,20,110,110,87,87,6,10,6,7,0.2,0.2
2025-11-21T1500,1439A,106.6899,26.5998,贵阳市,马鞍山,,31,31,33,9,19,92,92,64,64,12,18,7,6,0.4,0.4
2025-11-21T1500,1441A,106.6243,26.6266,贵阳市,鉴湖路,,46,46,43,19,14,99,99,76,76,19,17,6,7,0.4,0.4
2025-11-21T1500,1442A,106.7487,26.6343,贵阳市,燕子冲,,42,,30,29,28,97,97,71,71,8,17,8,9,0.1,0.4
2025-11-21T1500,1443A,106.6555,26.4365,贵阳市,碧云窝,,39,39,50,14,21,83,83,55,55,8,20,7,10,0.6,0.7
2025-11-21T1500,1445A,106.7109,26.6027,贵阳市,红边门,,30,29,39,17,23,96,96,70,70,9,17,9,14,0.4,0.5
2025-11-21T1500,1446A,106.7164,26.5699,贵阳市,新华路,,36,36,46,22,24,111,111,81,81,11,18,65,22,0.2,0.2
2025-11-21T1500,1447A,106.674,26.5424,贵阳市,太慈桥,,32,27,36,19,19,100,100,66,66,12,25,7,6,0.2,0.3
2025-11-21T1500,1552A,106.805,26.3003,贵阳市,桐木岭,颗粒物(PM10),52,53,51,31,31,102,102,83,83,8,7,7,9,0.7,0.9
2025-11-21T1500,4230A,106.6882,26.5695,贵阳市,花果园大街66号,,30,22,36,19,27,96,96,67,67,10,19,5,9,0.0,0.2
2025-11-21T1500,4231A,106.6873,26.5169,贵阳市,漓江路57号,,31,27,32,19,23,97,97,67,67,10,19,12,17,0.3,0.5
2025-11-21T1500,1862A,110.4144,25.3167,桂林市,电子科大尧山校区,,,,,,,,,,,,,,,,
2025-11-21T1500,1864A,110.3089,25.2708,桂林市,龙隐路小学,,,20,32,8,23,92,92,80,80,,17,6,11,0.2,0.4
2025-11-21T1500,1865A,110.2869,25.2178,桂林市,八中,,30,30,31,11,24,88,88,76,76,12,17,8,14,0.1,0.2
2025-11-21T1500,3531A,110.296,25.1253,桂林市,旅游学院,,34,14,27,9,18,106,106,88,88,6,15,6,8,0.1,0.2
2025-11-21T1500,4222A,110.1835,25.2444,桂林市,环湖路276号,,29,22,30,12,22,90,90,81,81,4,13,6,11,0.3,0.4
2025-11-21T1500,4301A,110.2803,25.2773,桂林市,信义路13号,,30,21,31,12,18,94,94,82,82,8,14,7,15,0.2,0.3
2025-11-21T1500,2674A,100.2561,34.4714,果洛藏族自治州,玛沁县大武镇,颗粒物(PM10),54,58,34,3,11,86,86,52,52,1,7,16,16,0.3,0.4
2025-11-21T1500,1129A,126.5422,45.755,哈尔滨市,岭北,,,,,,,,,,,,,,,,
2025-11-21T1500,1130A,126.561,45.8167,哈尔滨市,松北商大,细颗粒物(PM2.5),65,56,62,47,47,66,66,52,52,16,22,6,11,0.4,0.5
2025-11-21T1500,1131A,126.979,45.5419,哈尔滨市,阿城会宁,,40,40,49,27,34,75,75,16,,11,35,5,13,0.6,1.1
2025-11-21T1500,1132A,126.599,45.7222,哈尔滨市,南岗学府路,细颗粒物(PM2.5),59,50,52,42,30,69,69,55,55,12,16,9,9,0.5,0.5
2025-11-21T1500,1133A,126.689,45.7733,哈尔滨市,太平宏伟公园,颗粒物(PM10),55,60,51,38,35,75,75,60,60,8,16,8,11,0.4,0.5
2025-11-21T1500,1134A,126.635,45.7667,哈尔滨市,道外承德广场,颗粒物(PM10),61,72,70,42,37,74,74,56,56,12,23,8,10,0.4,0.6
2025-11-21T1500,1135A,126.685,45.7319,哈尔滨市,香坊红旗大街,细颗粒物(PM2.5),65,70,56,47,34,77,77,60,60,12,21,8,12,0.5,0.6
2025-11-21T1500,1136A,126.6411,45.7258,哈尔滨市,动力和平路,细颗粒物(PM2.5),62,62,49,44,36,69,69,56,56,14,18,4,6,0.4,0.5
2025-11-21T1500,1137A,126.593,45.7478,哈尔滨市,道里建国路,细颗粒物(PM2.5),59,49,51,42,40,69,69,52,52,15,21,10,13,0.7,0.8
2025-11-21T1500,1138A,126.615,45.61,哈尔滨市,平房东轻厂,细颗粒物(PM2.5),58,63,53,41,37,64,64,50,50,16,27,8,9,0.5,0.5
2025-11-21T1500,1139A,126.595,45.9855,哈尔滨市,呼兰师专,,35,31,75,24,62,54,54,44,44,9,20,9,9,0.4,0.6
2025-11-21T1500,1140A,126.6206,45.6842,哈尔滨市,省农科院,细颗粒物(PM2.5),65,70,59,47,37,59,59,48,48,33,31,8,9,0.6,0.6
2025-11-21T1500,2688A,93.5128,42.8172,哈密市,地区监测站,颗粒物(PM10),82,114,127,36,54,58,58,38,38,14,36,13,6,0.0,0.4
2025-11-21T1500,2689A,93.4961,42.8328,哈密市,哈密师范学校,"颗粒物(PM10),细颗粒物(PM2.5)",55,60,69,39,50,56,56,32,32,17,38,23,18,0.3,0.7
2025-11-21T1500,2671A,100.9048,36.9639,海北藏族自治州,海晏县西海镇,,33,,17,23,15,87,87,63,63,6,7,13,11,0.4,0.4
2025-11-21T1500,3867A,102.0738,36.5056,海东市,平安区公安北苑,,,36,49,23,41,,,35,35,13,22,14,14,0.8,0.9
2025-11-21T1500,1409A,110.576,19.9507,海口市,东寨港,,,,,,,,,,,,,,,,
2025-11-21T1500,1410A,110.3232,20.0574,海口市,海南大学,,37,26,33,14,18,116,116,91,91,6,9,8,10,0.2,0.3
2025-11-21T1500,1411A,110.283,20.0053,海口市,秀英海南医院,,36,34,38,13,18,113,113,89,89,8,13,9,11,0.2,0.3
2025-11-21T1500,1412A,110.338,19.9969,海口市,海南师范大学,,38,30,35,14,18,121,121,95,95,8,11,8,9,0.3,0.2
2025-11-21T1500,1413A,110.33,20.0356,海口市,龙华路环保局宿舍,,37,31,36,14,17,118,118,93,93,9,12,9,11,0.4,0.1
2025-11-21T1500,3539A,110.5111,19.9736,海口市,桂林洋子站,,40,29,32,14,16,125,125,96,96,7,10,9,9,0.3,0.3
2025-11-21T1500,2673A,100.6188,36.2866,海南藏族自治州,共和县恰卜恰镇,,35,18,27,16,11,109,109,68,68,3,13,7,9,0.3,0.4
2025-11-21T1500,2676A,97.3731,37.3753,海西蒙古族藏族自治州,德令哈市,,30,30,22,6,11,93,93,74,74,6,8,15,14,0.4,0.5
2025-11-21T1500,1048A,114.5302,36.6116,邯郸市,东污水处理厂,,30,,80,21,64,80,80,37,37,16,51,9,10,0.5,1
2025-11-21T1500,1049A,114.4918,36.5713,邯郸市,矿院,,35,,69,24,63,86,86,42,42,11,44,8,6,0.5,0.7
2025-11-21T1500,1050A,114.484,36.6133,邯郸市,丛台公园,,29,29,65,19,52,87,87,48,48,13,45,6,9,0.5,1
2025-11-21T1500,3458A,114.7895,36.5593,邯郸市,香泉濮院小区,,,40,100,31,77,77,77,46,46,14,48,,19,1.0,0.9
2025-11-21T1500,3579A,114.50634,36.77178,邯郸市,永年区实验高中,,24,21,83,3,41,75,75,38,38,15,51,10,12,0.5,1.2
2025-11-21T1500,3580A,114.20016,36.44293,邯郸市,峰峰矿区临水派出所,,32,27,36,22,33,90,90,74,74,15,22,9,10,0.8,0.6
2025-11-21T1500,2634A,106.9893,33.1842,汉中市,汉川机床厂子校,,,,,,,,,,,,,,,,
2025-11-21T1500,2635A,107.0154,33.0706,汉中市,市监测站,细颗粒物(PM2.5),59,64,71,42,58,80,80,38,38,23,31,9,6,0.7,0.9
2025-11-21T1500,2636A,107.0089,33.1138,汉中市,鑫源开发区,颗粒物(PM10),64,77,75,38,57,81,81,42,42,16,35,8,8,0.7,0.9
2025-11-21T1500,2637A,107.007,33.0323,汉中市,南郑大河坎水厂,,49,49,59,33,42,94,94,38,38,16,24,11,9,0.6,0.8
2025-11-21T1500,1223A,120.2072,30.2111,杭州市,滨江,细颗粒物(PM2.5),62,49,71,44,42,98,98,54,54,25,54,8,8,0.5,0.6
2025-11-21T1500,1224A,120.0633,30.2747,杭州市,西溪,,47,47,48,26,30,106,106,58,58,20,35,10,9,0.3,0.6
2025-11-21T1500,1226A,120.3417,30.3150,杭州市,下沙,"颗粒物(PM10),细颗粒物(PM2.5)",53,56,72,37,47,105,105,58,58,24,65,9,9,0.4,0.7
2025-11-21T1500,1227A,120.1269,30.2456,杭州市,卧龙桥,,46,46,44,30,31,96,96,50,50,18,30,8,7,0.2,0.3
2025-11-21T1500,1228A,120.1903,30.2692,杭州市,浙江农大,,48,48,78,33,49,97,97,52,52,28,53,9,10,0.4,0.7
2025-11-21T1500,1230A,120.1197,30.3119,杭州市,和睦小学,颗粒物(PM10),51,52,73,34,40,96,96,56,56,24,47,10,10,0.7,0.9
2025-11-21T1500,1231A,120.3019,30.4183,杭州市,临平镇,颗粒物(PM10),60,69,84,40,47,108,108,57,57,17,52,9,8,0.5,0.7
2025-11-21T1500,1232A,120.2753,30.1839,杭州市,城厢镇,颗粒物(PM10),55,59,74,34,43,106,106,62,62,29,57,9,9,0.3,0.5
2025-11-21T1500,1233A,120.0883,30.1808,杭州市,云栖,细颗粒物(PM2.5),52,46,50,36,33,89,89,52,52,25,32,5,4,0.4,0.5
2025-11-21T1500,3557A,119.9464,30.0494,杭州市,镇二中,,30,27,58,19,40,94,94,55,55,20,43,6,6,0.6,0.8
2025-11-21T1500,3558A,119.7183,30.2367,杭州市,市府大楼,,35,34,59,19,27,109,109,62,62,17,32,11,10,0.7,0.9
2025-11-21T1500,3656A,120.1556,30.2864,杭州市,消防大队,颗粒物(PM10),51,51,59,30,39,95,95,56,56,23,49,10,10,0.4,0.5
2025-11-21T1500,1270A,117.1959,31.7848,合肥市,明珠广场,细颗粒物(PM2.5),62,70,74,44,40,106,106,56,56,25,69,15,13,0.6,0.7
2025-11-21T1500,1271A,117.3072,31.8764,合肥市,三里街,细颗粒物(PM2.5),67,73,85,48,46,98,98,56,56,26,66,13,11,0.6,0.9
2025-11-21T1500,1272A,117.2588,31.8707,合肥市,琥珀山庄,细颗粒物(PM2.5),67,73,75,48,48,102,102,61,61,22,51,10,7,0.6,0.9
2025-11-21T1500,1273A,117.1604,31.9052,合肥市,董铺水库,,,,,,,,,,,,,,,,
2025-11-21T1500,1274A,117.25,31.8571,合肥市,长江中路,,,68,78,47,52,,,17,,,67,11,9,0.5,0.8
2025-11-21T1500,1275A,117.266,31.9436,合肥市,庐阳区,颗粒物(PM10),60,70,68,34,37,107,107,60,60,22,55,8,5,0.6,0.6
2025-11-21T1500,1276A,117.3453,31.8616,合肥市,瑶海区,颗粒物(PM10),59,68,68,39,38,102,102,61,61,24,65,9,6,0.3,0.4
2025-11-21T1500,1277A,117.3027,31.7964,合肥市,包河区,颗粒物(PM10),57,63,72,39,45,96,96,54,54,23,75,9,9,0.6,0.7
2025-11-21T1500,1278A,117.2776,31.7385,合肥市,滨湖新区,细颗粒物(PM2.5),67,75,75,48,50,102,102,58,58,24,66,8,8,0.6,0.7
2025-11-21T1500,1279A,117.1318,31.8403,合肥市,高新区,颗粒物(PM10),62,73,61,40,36,106,106,72,72,24,50,8,6,0.7,0.7
2025-11-21T1500,3464A,117.3803,31.9147,合肥市,高教基地,细颗粒物(PM2.5),62,68,70,44,49,108,108,59,59,22,45,10,8,0.5,0.6
2025-11-21T1500,3614A,79.924,37.0877,和田地区,地区环保局,颗粒物(PM10),167,283,317,108,126,88,88,46,46,18,40,9,12,1.1,1.6
2025-11-21T1500,3615A,79.9131,37.113,和田地区,市环保局,细颗粒物(PM2.5),180,294,313,136,111,92,92,44,44,20,48,4,7,1.1,1.9
2025-11-21T1500,2516A,108.2011,24.715,河池市,东仁乐园,,,,,,,,,,,,,,,,
2025-11-21T1500,2517A,108.0497,24.6947,河池市,市环保站,,30,30,28,14,15,80,80,52,52,5,20,6,6,0.4,0.5
2025-11-21T1500,2518A,108.0983,24.6989,河池市,市疾控中心,,26,14,33,13,20,81,81,50,50,7,24,5,5,0.3,0.5
2025-11-21T1500,1696A,114.6778,23.7569,河源市,源西,,,,,,,,,,,,,,,,
2025-11-21T1500,1697A,114.6944,23.7586,河源市,东埔,,33,22,26,16,17,103,103,84,84,8,14,7,8,0.2,0.2
2025-11-21T1500,1698A,114.6892,23.7233,河源市,老城,,33,24,28,19,17,104,104,85,85,6,12,7,8,0.4,0.4
2025-11-21T1500,1718A,115.4208,35.2464,菏泽市,气象局,细颗粒物(PM2.5),114,139,183,86,125,103,103,56,56,32,59,9,11,0.6,0.8
2025-11-21T1500,3374A,115.5564,35.0891,菏泽市,定陶老年大学,细颗粒物(PM2.5),117,124,170,88,125,98,98,7,,40,62,10,8,0.3,0.7
2025-11-21T1500,4184A,115.4797,35.24401,菏泽市,永昌路1号,细颗粒物(PM2.5),108,127,167,81,114,78,78,39,39,38,58,12,10,0.6,1
2025-11-21T1500,4193A,115.4715,35.2800,菏泽市,长城路999号,细颗粒物(PM2.5),94,118,169,70,116,81,81,41,41,44,57,10,10,0.9,1
2025-11-21T1500,2514A,111.5264,24.4172,贺州市,环保小区,,35,19,32,13,22,111,111,79,79,9,17,7,7,0.3,0.4
2025-11-21T1500,2515A,111.5608,24.4078,贺州市,政协大楼,,33,25,32,15,20,105,105,79,79,6,16,8,8,0.5,0.5
2025-11-21T1500,3534A,111.4744,24.4553,贺州市,西湾,,31,24,33,15,21,99,99,76,76,9,15,7,7,0.3,0.5
2025-11-21T1500,2385A,114.17,35.9019,鹤壁市,市监测站,,43,43,62,23,38,71,71,50,50,19,27,8,6,0.5,0.5
2025-11-21T1500,2386A,114.2956,35.7511,鹤壁市,市交警支队,,,56,66,28,34,68,68,38,38,25,39,,3,0.7,0.7
2025-11-21T1500,2387A,114.2878,35.7306,鹤壁市,迎宾馆,颗粒物(PM10),56,61,68,37,39,74,74,40,40,20,31,10,6,0.7,0.7
2025-11-21T1500,3474A,114.2617,35.6822,鹤壁市,大新区,颗粒物(PM10),60,69,67,29,42,74,74,45,45,17,22,10,7,0.7,0.7
2025-11-21T1500,3596A,114.1572,35.9603,鹤壁市,南山宾馆,,48,48,61,21,37,72,72,64,64,22,19,8,14,0.4,0.7
2025-11-21T1500,2244A,130.2537,47.3416,鹤岗市,哈啤分公司,,24,11,18,9,12,76,76,71,71,4,6,14,14,0.5,0.5
2025-11-21T1500,2245A,130.2684,47.3086,鹤岗市,斯达机电,,24,22,22,3,12,76,76,73,73,6,6,12,13,0.7,0.7
2025-11-21T1500,2246A,130.3114,47.3388,鹤岗市,东山纸板厂,,25,25,30,8,11,77,77,67,67,6,11,14,14,0.7,1.1
2025-11-21T1500,2247A,130.1097,47.3382,鹤岗市,五号水库,,,,,,,,,,,,,,,,
2025-11-21T1500,2263A,127.4833,50.2524,黑河市,交通局,,18,18,16,7,14,48,48,59,58,20,11,4,4,0.4,0.4
2025-11-21T1500,2264A,127.5144,50.2341,黑河市,环保局,,18,18,16,11,11,50,50,55,54,14,10,4,3,0.3,0.4
2025-11-21T1500,2265A,127.5291,50.2472,黑河市,大黑河岛,,,,,,,,,,,,,,,,
2025-11-21T1500,1074A,115.6838,37.7541,衡水市,电机北厂,,28,28,70,9,40,68,68,36,36,15,35,6,8,0.3,0.5
2025-11-21T1500,1075A,115.6303,37.7316,衡水市,市监测站,,30,30,65,16,39,72,72,38,38,16,46,11,12,0.3,0.5
2025-11-21T1500,3188A,115.6683,37.7217,衡水市,市城管局,,29,26,73,20,40,69,69,36,36,18,52,6,8,0.4,0.5
2025-11-21T1500,3459A,115.5989,37.5491,衡水市,地表水厂,颗粒物(PM10),51,52,85,19,48,72,72,43,43,22,59,9,11,0.4,0.5
2025-11-21T1500,2456A,112.5003,26.9167,衡阳市,原169医院,,,,,,,,,,,,,,,,
2025-11-21T1500,2457A,112.6194,26.9258,衡阳市,衡阳化工总厂,细颗粒物(PM2.5),55,46,44,39,38,108,108,66,66,19,28,16,19,0.8,0.8
2025-11-21T1500,2458A,112.6211,26.8956,衡阳市,珠晖区环保局,,50,44,44,35,34,104,104,67,67,13,31,18,22,0.8,0.9
2025-11-21T1500,2459A,112.6197,26.8733,衡阳市,市委党校,细颗粒物(PM2.5),53,41,42,37,36,107,107,74,74,13,21,20,20,0.7,0.8
2025-11-21T1500,2460A,112.6006,26.8919,衡阳市,市监测站,细颗粒物(PM2.5),52,46,57,36,40,104,104,70,70,17,27,14,21,0.7,0.8
2025-11-21T1500,2461A,112.5664,26.9056,衡阳市,真空机电公司,,45,45,51,28,35,102,102,61,61,12,23,12,22,0.6,0.7
2025-11-21T1500,3399A,112.6703,26.882,衡阳市,师范学院,,45,45,52,24,32,117,117,78,78,15,27,14,18,0.8,0.8
2025-11-21T1500,2608A,103.3772,23.3993,红河哈尼族彝族自治州,污水处理厂,细颗粒物(PM2.5),63,50,43,45,34,78,78,48,48,10,12,8,16,0.4,0.4
2025-11-21T1500,2609A,103.3861,23.35,红河哈尼族彝族自治州,监测站,细颗粒物(PM2.5),88,78,48,65,39,77,77,52,52,12,10,30,15,0.4,0.4
2025-11-21T1500,3038A,103.3758,23.368,红河哈尼族彝族自治州,州图书馆,细颗粒物(PM2.5),65,64,42,47,27,73,73,44,44,9,10,24,15,0.4,0.4
2025-11-21T1500,1090A,111.6507,40.7517,呼和浩特市,呼市一监,,,66,172,41,143,63,63,33,33,,59,,13,0.5,1.2
2025-11-21T1500,1091A,111.6572,40.8033,呼和浩特市,小召,"颗粒物(PM10),细颗粒物(PM2.5)",57,63,129,40,104,55,55,36,36,31,56,11,12,0.5,0.9
2025-11-21T1500,1094A,111.7516,40.8369,呼和浩特市,如意水处理厂,"颗粒物(PM10),细颗粒物(PM2.5)",57,63,113,40,84,60,60,32,32,24,53,12,12,0.5,0.9
2025-11-21T1500,1095A,111.7276,40.8062,呼和浩特市,二十九中,,,54,152,39,117,60,60,34,34,25,54,,15,0.3,0.9
2025-11-21T1500,1096A,111.5512,40.7866,呼和浩特市,工大金川校区,细颗粒物(PM2.5),65,75,104,47,73,55,55,34,34,27,46,28,12,0.4,0.7
2025-11-21T1500,1097A,111.717,40.7612,呼和浩特市,化肥厂生活区,细颗粒物(PM2.5),58,58,159,41,149,62,62,32,32,27,61,10,13,0.4,1.1
2025-11-21T1500,3698A,111.5968,40.8178,呼和浩特市,红旗小学,细颗粒物(PM2.5),59,63,95,42,73,53,53,35,35,35,57,18,13,0.4,0.8
2025-11-21T1500,3699A,111.6518,40.8389,呼和浩特市,海东办,细颗粒物(PM2.5),58,58,104,41,79,62,62,35,35,23,47,12,9,0.4,0.8
2025-11-21T1500,3061A,119.7512,49.1577,呼伦贝尔市,国华电力东,,20,10,20,3,17,61,61,56,56,8,10,8,8,0.4,0.4
2025-11-21T1500,4279A,119.7569,49.2222,呼伦贝尔市,伊敏大街东7号,,30,30,23,20,19,66,66,54,54,2,6,7,6,0.4,0.5
2025-11-21T1500,1250A,120.0751,30.8669,湖州市,城西水厂,细颗粒物(PM2.5),57,55,63,40,41,101,101,66,66,30,52,11,11,0.4,0.5
2025-11-21T1500,2873A,120.0830,30.8929,湖州市,仁皇山新区,细颗粒物(PM2.5),63,61,63,45,43,117,117,84,84,25,48,11,10,0.4,0.5
2025-11-21T1500,2907A,120.1844,30.8596,湖州市,吴兴区站,细颗粒物(PM2.5),63,58,59,45,42,118,118,77,77,21,46,10,9,0.8,0.8
2025-11-21T1500,3562A,120.4148,30.8538,湖州市,南浔区站,细颗粒物(PM2.5),59,59,70,42,48,125,125,75,75,21,50,8,7,0.5,0.6
2025-11-21T1500,1607A,120.9049,40.7211,葫芦岛市,龙港区,,42,42,36,13,18,67,67,49,49,21,38,13,12,0.5,0.5
2025-11-21T1500,1608A,120.8392,40.7514,葫芦岛市,化工街,,29,29,45,9,19,63,63,50,50,19,42,12,17,0.2,0.4
2025-11-21T1500,1609A,120.8341,40.7073,葫芦岛市,新区,,43,43,33,13,17,63,63,51,51,21,43,10,9,0.5,0.6
2025-11-21T1500,1610A,120.8695,40.7677,葫芦岛市,东城区,,41,41,46,13,25,110,110,60,60,28,46,26,20,0.6,0.7
2025-11-21T1500,2482A,109.5981,27.5721,怀化市,林科所,,,,,,,,,,,,,,,,
2025-11-21T1500,2483A,109.9453,27.5444,怀化市,河西地税局,,25,16,28,10,20,80,80,47,47,7,16,5,4,0.4,0.3
2025-11-21T1500,2484A,109.9781,27.5342,怀化市,市四医院,,29,18,37,12,23,90,90,56,56,5,20,10,13,0.3,0.5
2025-11-21T1500,2485A,109.9972,27.5578,怀化市,监测楼,,28,15,36,10,21,88,88,52,52,4,21,2,4,0.0,0.1
2025-11-21T1500,2486A,110.0394,27.583,怀化市,市委党校,,29,16,39,13,26,92,92,58,58,2,19,10,13,0.1,0.2
2025-11-21T1500,1210A,119.036,33.5981,淮安市,钵池山,细颗粒物(PM2.5),132,117,116,100,77,93,93,50,50,30,48,16,14,0.8,1
2025-11-21T1500,1211A,119.007,33.575,淮安市,北京南路,细颗粒物(PM2.5),130,124,118,99,78,84,84,42,42,36,61,17,12,0.8,0.9
2025-11-21T1500,1212A,118.989,33.6067,淮安市,市监测站,细颗粒物(PM2.5),128,134,118,97,83,90,90,46,46,38,51,17,12,1.4,1.2
2025-11-21T1500,1213A,119.135,33.5039,淮安市,楚州区监测站,细颗粒物(PM2.5),123,120,112,93,81,89,89,45,45,34,64,20,12,0.9,0.9
2025-11-21T1500,3426A,118.8755,33.2894,淮安市,新华书店,细颗粒物(PM2.5),134,145,105,102,77,73,73,40,40,40,41,17,12,0.9,0.7
2025-11-21T1500,4206A,119.0288,33.6319,淮安市,承德北路606号,细颗粒物(PM2.5),134,141,130,102,77,86,86,41,41,38,58,15,13,0.9,0.9
2025-11-21T1500,2282A,116.8004,33.975,淮北市,监测站,细颗粒物(PM2.5),163,161,154,124,110,111,111,63,63,44,53,14,11,0.9,1
2025-11-21T1500,2283A,116.8091,33.9007,淮北市,烈山区政府,细颗粒物(PM2.5),147,137,141,112,110,107,107,59,59,43,65,18,15,0.8,0.7
2025-11-21T1500,3330A,116.8873,33.9836,淮北市,杜集区检察院,细颗粒物(PM2.5),144,129,154,110,119,113,113,62,62,32,55,12,11,0.8,0.7
2025-11-21T1500,4017A,116.7923,33.9535,淮北市,市博物馆,细颗粒物(PM2.5),162,149,163,123,120,106,106,61,61,40,55,18,16,0.8,0.6
2025-11-21T1500,2277A,116.8305,32.7727,淮南市,潘集区政府,细颗粒物(PM2.5),100,112,117,75,78,94,94,56,56,23,40,10,9,0.7,0.7
2025-11-21T1500,2279A,116.8569,32.5951,淮南市,谢家集区政府,颗粒物(PM10),73,95,80,42,45,101,101,58,58,26,32,12,10,0.7,0.6
2025-11-21T1500,2280A,116.8281,32.633,淮南市,八公山区政府,细颗粒物(PM2.5),72,80,78,52,51,96,96,69,69,23,22,11,7,0.6,0.6
2025-11-21T1500,2281A,116.6325,32.6201,淮南市,焦岗湖风景区管理处,,,,,,,,,,,,,,,,
2025-11-21T1500,2894A,117.0566,32.6531,淮南市,经济技术开发区消防队,,,113,92,63,50,92,92,54,54,39,40,17,12,,0.5
2025-11-21T1500,3329A,117.0108,32.5893,淮南市,山南新区,颗粒物(PM10),70,90,94,47,62,107,107,59,59,30,49,9,7,0.5,0.5
2025-11-21T1500,4209A,117.0031,32.6445,淮南市,国庆中路369号,颗粒物(PM10),73,95,81,26,51,89,89,47,47,36,40,24,16,0.5,0.5
2025-11-21T1500,2446A,114.9028,30.4742,黄冈市,职工中心,,46,46,53,28,37,104,104,55,55,24,33,9,7,0.5,0.6
2025-11-21T1500,2929A,114.8858,30.4519,黄冈市,红卫路,,50,44,47,35,42,92,92,56,56,27,34,10,8,0.4,0.5
2025-11-21T1500,3398A,114.9136,30.4445,黄冈市,市林业局,颗粒物(PM10),53,55,54,36,39,93,93,58,58,25,29,4,4,0.8,0.7
2025-11-21T1500,2672A,102.0199,35.5102,黄南藏族自治州,同仁县隆务镇,,37,37,35,20,17,66,66,61,61,14,6,11,10,0.5,0.5
2025-11-21T1500,2295A,118.2903,29.6963,黄山市,延安路89号,,45,,31,31,23,119,119,71,71,6,15,4,4,0.3,0.3
2025-11-21T1500,2297A,118.1371,30.2756,黄山市,黄山区政府5号楼,,38,,38,26,29,112,112,65,65,6,9,8,6,0.5,0.5
2025-11-21T1500,4210A,118.3354,29.7203,黄山市,滨江东路7-2号,,42,41,50,29,36,111,111,11,,13,19,6,5,0.4,0.4
2025-11-21T1500,2423A,115.0601,30.2313,黄石市,沈家营,颗粒物(PM10),52,54,57,29,33,105,105,67,67,14,23,9,12,1.0,1.1
2025-11-21T1500,2426A,114.8988,30.2019,黄石市,铁山,,38,34,46,26,28,100,100,64,64,19,40,11,7,0.3,0.4
2025-11-21T1500,2427A,115.0307,30.2092,黄石市,团城山,,,45,53,,36,106,106,72,72,11,25,7,13,0.5,0.7
2025-11-21T1500,3149A,115.0235,30.1578,黄石市,笔架山北路,颗粒物(PM10),59,68,86,30,40,107,107,65,65,6,31,14,14,0.6,0.9
2025-11-21T1500,4185A,115.0780,30.21118,黄石市,磁湖东路29号,细颗粒物(PM2.5),54,54,59,38,39,105,105,67,67,10,26,14,15,0.6,0.7
2025-11-21T1500,1392A,114.4183,23.0528,惠州市,河南岸金山湖子站,,31,31,39,21,23,97,97,78,78,16,26,7,8,0.4,0.5
2025-11-21T1500,1393A,114.4053,23.0822,惠州市,下埔横江三路子站,,34,30,34,16,18,107,107,87,87,10,12,8,8,0.4,0.3
2025-11-21T1500,1394A,114.4103,23.1142,惠州市,江北云山西路子站,,37,28,32,17,19,116,116,90,90,12,16,8,8,0.4,0.4
2025-11-21T1500,1395A,114.4645,22.7833,惠州市,惠阳区承修路船湖子站,,35,35,35,15,13,109,109,82,82,12,17,8,7,0.4,0.4
2025-11-21T1500,1396A,114.5317,22.7422,惠州市,大亚湾管委会子站,,36,36,31,19,17,102,102,80,80,13,17,7,7,0.3,0.3
2025-11-21T1500,3314A,114.4338,22.8134,惠州市,惠阳秋长,,36,36,35,19,22,112,112,88,88,10,15,11,9,0.2,0.3
2025-11-21T1500,3452A,114.6517,22.775,惠州市,大亚湾霞涌,,37,37,32,17,12,100,100,81,81,8,10,8,8,0.5,0.5
2025-11-21T1500,2240A,130.9762,45.3001,鸡西市,环保局,细颗粒物(PM2.5),68,56,81,49,71,65,65,56,56,8,15,6,6,0.7,0.8
2025-11-21T1500,2243A,130.9429,45.3039,鸡西市,第一中学,细颗粒物(PM2.5),67,53,82,48,73,63,63,58,58,9,13,5,6,0.6,0.7
2025-11-21T1500,3707A,131.0207,45.3073,鸡西市,欧美日汽修厂,细颗粒物(PM2.5),64,67,90,46,77,63,63,52,52,10,19,6,7,0.7,0.8
2025-11-21T1500,3709A,130.9967,45.3106,鸡西市,市政设施管理处,细颗粒物(PM2.5),64,65,85,46,74,75,75,65,65,13,22,8,9,0.6,0.7
2025-11-21T1500,2367A,114.9754,27.0803,吉安市,红声器材厂,,40,40,43,18,23,122,122,70,70,16,24,12,10,0.6,0.6
2025-11-21T1500,2368A,114.9658,27.0999,吉安市,市森林工业局,,43,43,42,21,24,111,111,62,62,17,20,10,9,0.4,0.4
2025-11-21T1500,2369A,114.99,27.1312,吉安市,市环境监测站,,39,36,41,27,24,113,113,70,70,15,21,17,15,0.4,0.5
2025-11-21T1500,2370A,115.0093,27.0968,吉安市,青原区法院,,,44,43,,24,110,110,71,71,,34,13,12,0.6,0.6
2025-11-21T1500,1772A,126.54,43.8622,吉林市,哈达湾,,37,37,39,23,22,77,77,63,63,10,12,8,9,0.6,0.6
2025-11-21T1500,1773A,126.5844,43.8358,吉林市,东局子,,32,32,40,16,22,68,68,59,59,7,11,7,8,0.6,0.5
2025-11-21T1500,1774A,126.5052,43.8245,吉林市,电力学院,,30,28,41,21,26,76,76,67,67,8,11,7,8,0.5,0.6
2025-11-21T1500,1775A,126.6133,43.8972,吉林市,江北,,37,37,45,23,27,69,69,60,60,14,14,7,5,0.3,0.4
2025-11-21T1500,1776A,126.555,43.8306,吉林市,江南公园,,30,27,35,21,22,74,74,64,64,7,10,6,6,0.3,0.4
2025-11-21T1500,1778A,126.7061,43.7133,吉林市,丰满,细颗粒物(PM2.5),52,,28,36,24,65,65,56,56,6,6,10,10,0.3,0.4
2025-11-21T1500,2868A,126.4739,43.953,吉林市,九站,,36,36,46,23,27,76,76,64,64,11,18,2,3,0.5,0.5
2025-11-21T1500,1299A,116.9862,36.6114,济南市,科干所,颗粒物(PM10),56,61,57,32,29,77,77,50,50,25,38,16,13,0.7,0.8
2025-11-21T1500,1300A,116.9376,36.665,济南市,农科所,颗粒物(PM10),62,73,87,37,38,65,65,38,38,34,56,15,12,0.7,0.8
2025-11-21T1500,1301A,117.1265,36.6734,济南市,开发区,颗粒物(PM10),55,59,57,37,31,81,81,51,51,22,39,10,7,0.7,0.8
2025-11-21T1500,1303A,117.0624,36.6868,济南市,省种子仓库,颗粒物(PM10),63,75,79,36,35,76,76,44,44,22,45,14,10,0.6,0.8
2025-11-21T1500,1304A,116.9489,36.6447,济南市,机床二厂,颗粒物(PM10),64,78,111,42,55,66,66,41,41,33,58,16,20,0.5,0.8
2025-11-21T1500,1305A,117.0495,36.663,济南市,市监测站,颗粒物(PM10),59,68,63,32,31,76,76,48,48,21,50,9,6,0.5,0.6
2025-11-21T1500,1306A,116.7675,36.5484,济南市,长清党校,细颗粒物(PM2.5),64,76,68,46,34,71,71,44,44,27,52,15,11,0.7,0.8
2025-11-21T1500,1616A,117.6795,36.229,济南市,技术学院,颗粒物(PM10),62,73,90,36,51,72,72,38,38,32,60,21,17,1.3,1.2
2025-11-21T1500,1961A,117.532,36.6868,济南市,东山小学,颗粒物(PM10),63,76,64,32,29,82,82,60,60,22,42,13,10,0.6,0.6
2025-11-21T1500,3059A,117.7161,36.2049,济南市,泰兴公司,颗粒物(PM10),65,80,94,46,60,75,75,43,43,30,48,16,12,0.6,0.7
2025-11-21T1500,3064A,117.6867,36.2171,济南市,莱芜战役纪念馆,细颗粒物(PM2.5),68,75,90,49,58,72,72,39,39,30,50,28,22,1.4,1.4
2025-11-21T1500,3494A,117.1673,36.9782,济南市,济阳区政府,颗粒物(PM10),66,81,76,39,35,70,70,42,42,24,44,15,14,0.6,0.7
2025-11-21T1500,3495A,117.1171,36.63,济南市,锦屏中学,,42,42,45,22,23,86,86,65,65,22,30,9,7,0.6,0.6
2025-11-21T1500,3682A,116.9814,36.6819,济南市,济南四建,颗粒物(PM10),62,73,88,37,47,65,65,41,41,26,48,14,13,0.8,1.1
2025-11-21T1500,1653A,116.6251,35.4302,济宁市,火炬城,细颗粒物(PM2.5),67,62,106,48,78,78,78,38,38,25,55,10,12,0.1,0.4
2025-11-21T1500,1655A,116.5491,35.4042,济宁市,电化厂,细颗粒物(PM2.5),83,102,156,61,86,77,77,39,39,38,69,11,13,0.2,0.5
2025-11-21T1500,3500A,116.5814,35.3707,济宁市,北湖一中,细颗粒物(PM2.5),100,90,113,75,84,63,63,34,34,46,58,12,11,0.6,0.8
2025-11-21T1500,3501A,116.8249,35.5593,济宁市,服务中心,颗粒物(PM10),82,113,143,38,78,61,61,25,25,44,55,8,9,0.4,0.7
2025-11-21T1500,3678A,116.5907,35.4054,济宁市,市第七中学,细颗粒物(PM2.5),62,72,104,44,70,82,82,46,46,34,62,10,14,0.5,0.7
2025-11-21T1500,2255A,130.2751,46.8028,佳木斯市,佳纺,,35,35,42,18,31,61,61,54,54,8,13,4,8,0.3,0.3
2025-11-21T1500,2256A,130.3995,46.8307,佳木斯市,发电厂,,,,30,,24,,,57,57,,9,,7,,0.5
2025-11-21T1500,2257A,130.3258,46.7975,佳木斯市,环保局,,20,20,32,12,28,64,64,54,54,7,12,4,4,0.3,0.4
2025-11-21T1500,2258A,130.3648,46.8032,佳木斯市,十一中,,26,24,34,18,28,64,64,57,57,8,13,5,7,0.4,0.5
2025-11-21T1500,2259A,130.3794,46.7588,佳木斯市,四丰,,,,,,,,,,,,,,,,
2025-11-21T1500,1252A,120.7436,30.778,嘉兴市,清河小学,细颗粒物(PM2.5),55,58,82,39,49,114,114,66,66,18,58,11,11,0.6,1.1
2025-11-21T1500,1253A,120.726,30.7478,嘉兴市,嘉兴学院,颗粒物(PM10),56,61,82,37,49,120,120,66,66,15,58,8,9,0.1,0.4
2025-11-21T1500,2872A,120.7846,30.7525,嘉兴市,南湖区残联,"颗粒物(PM10),细颗粒物(PM2.5)",55,60,80,39,50,127,127,75,75,21,57,9,9,0.2,0.5
2025-11-21T1500,3407A,120.6916,30.7739,嘉兴市,秀洲住建,细颗粒物(PM2.5),55,55,83,39,53,127,127,75,75,12,50,8,8,0.4,0.7
2025-11-21T1500,1945A,98.2908,39.7711,嘉峪关市,气象局,颗粒物(PM10),60,70,84,19,30,85,85,82,82,10,22,15,19,0.4,0.5
2025-11-21T1500,2884A,98.2672,39.7978,嘉峪关市,酒钢宾馆,颗粒物(PM10),84,117,103,29,33,75,75,71,71,11,18,29,27,0.6,0.6
2025-11-21T1500,3248A,98.2643,39.7724,嘉峪关市,雄关区,颗粒物(PM10),65,80,72,21,35,81,81,76,76,12,26,14,23,0.5,0.6
2025-11-21T1500,1383A,113.1064,22.6058,江门市,北街,,,,42,19,22,96,96,68,68,21,45,8,9,,0.4
2025-11-21T1500,1384A,113.0731,22.5835,江门市,西区,,33,33,44,18,21,93,93,66,66,25,45,7,9,0.4,0.5
2025-11-21T1500,1385A,113.0219,22.5311,江门市,圭峰西,,33,33,38,21,20,90,90,67,67,24,36,7,7,0.4,0.5
2025-11-21T1500,1386A,113.0828,22.5947,江门市,东湖,,42,42,38,16,21,95,95,69,69,24,38,9,10,0.3,0.4
2025-11-21T1500,3311A,113.1075,22.5647,江门市,江海富民,,37,37,43,16,15,100,100,69,69,28,43,12,12,0.2,0.3
2025-11-21T1500,3449A,113.05,22.4667,江门市,新会银湖,,38,38,43,19,24,88,88,60,60,24,42,7,7,0.3,0.4
2025-11-21T1500,1830A,113.1992,35.2590,焦作市,影视城,,,,39,,19,,,64,,,23,,15,,0.5
2025-11-21T1500,3335A,113.3137,35.2641,焦作市,马村街道办,,48,48,61,33,34,71,71,56,56,15,19,12,9,0.3,0.4
2025-11-21T1500,3336A,113.2465,35.2373,焦作市,焦作技师学院,,44,44,56,17,29,62,62,53,53,22,28,9,11,0.3,0.6
2025-11-21T1500,3477A,113.1656,35.2539,焦作市,中站许衡医院,,30,30,50,17,31,65,65,57,57,19,21,11,10,0.4,0.6
2025-11-21T1500,3981A,113.2449,35.1803,焦作市,原李万街道办,颗粒物(PM10),54,57,68,9,23,62,62,52,52,14,20,8,11,0.4,0.6
2025-11-21T1500,4264A,113.2340,35.2190,焦作市,新安路1731号,,40,40,64,11,32,64,64,59,59,18,24,9,14,0.6,0.9
2025-11-21T1500,4295A,113.2722,35.2121,焦作市,人民路3066号,,41,41,62,13,24,61,61,53,53,20,28,7,11,0.3,0.6
2025-11-21T1500,1708A,116.3701,23.5345,揭阳市,新兴,,31,23,51,19,34,99,99,68,68,8,26,12,11,0.4,0.5
2025-11-21T1500,1709A,116.3264,23.5443,揭阳市,西马,,34,34,50,15,33,107,107,71,71,13,26,5,7,0.6,0.7
2025-11-21T1500,1710A,116.3611,23.5626,揭阳市,东兴,,35,35,58,20,32,107,107,66,66,12,32,7,9,0.4,0.6
2025-11-21T1500,1711A,116.4151,23.5294,揭阳市,渔湖,,41,41,55,11,34,106,106,70,70,11,28,11,7,0.5,0.6
2025-11-21T1500,3320A,116.403,23.5699,揭阳市,曲溪,,32,22,54,14,33,102,102,69,69,6,30,6,4,0.3,0.5
2025-11-21T1500,1944A,102.1692,38.5167,金昌市,天庆家园,颗粒物(PM10),52,53,131,18,58,74,74,48,48,10,35,4,24,0.4,1
2025-11-21T1500,4022A,102.1647,38.5371,金昌市,金川区人防中心,,42,42,115,19,71,75,75,50,50,8,25,4,24,0.5,0.9
2025-11-21T1500,4239A,102.1930,38.5319,金昌市,长春路96号,,47,47,122,18,51,77,77,51,51,8,32,7,36,0.4,1.1
2025-11-21T1500,1262A,119.647,29.077,金华市,十五中,"颗粒物(PM10),细颗粒物(PM2.5)",57,64,77,40,48,120,120,67,67,27,48,4,4,0.3,0.5
2025-11-21T1500,1263A,119.686,29.1029,金华市,监测站,颗粒物(PM10),63,76,89,44,50,113,113,58,58,34,59,5,4,0.3,0.4
2025-11-21T1500,3659A,119.656,29.1131,金华市,气象局,细颗粒物(PM2.5),67,70,80,48,55,110,110,58,58,34,58,5,6,0.3,0.4
2025-11-21T1500,1767A,121.1115,41.0879,锦州市,南山,,27,,52,16,42,84,84,60,60,9,40,8,13,0.5,1
2025-11-21T1500,1768A,121.0604,40.8428,锦州市,开发区,,39,39,78,22,26,66,66,44,44,20,61,10,36,0.5,0.7
2025-11-21T1500,1769A,121.1836,41.1119,锦州市,百股街道,,36,36,48,9,31,85,85,53,53,9,35,15,15,0.5,0.8
2025-11-21T1500,1770A,121.1178,41.1222,锦州市,天安街道,,27,26,58,12,40,84,84,59,59,8,34,11,15,0.5,1
2025-11-21T1500,1771A,121.1303,41.1386,锦州市,北湖公园,,25,,56,17,37,78,78,54,54,16,35,14,15,0.6,0.9
2025-11-21T1500,2160A,112.85,35.5051,晋城市,自来水公司,,33,33,58,9,28,74,74,52,52,17,31,8,12,0.4,1
2025-11-21T1500,2161A,112.8318,35.4936,晋城市,白云商贸,,23,11,57,3,14,72,72,50,50,15,25,3,6,0.3,0.6
2025-11-21T1500,2162A,112.8508,35.4887,晋城市,市环保局,,30,30,61,7,24,77,77,52,52,9,25,5,9,0.3,0.9
2025-11-21T1500,2163A,112.8676,35.4897,晋城市,技术学院,,29,29,59,7,26,63,63,40,40,14,32,7,11,0.5,1
2025-11-21T1500,2165A,112.8453,35.546,晋城市,白马寺,,25,20,45,8,24,78,78,66,66,10,16,9,12,0.3,0.6
2025-11-21T1500,3620A,112.8271,35.4828,晋城市,泽州一中,,,,49,,21,78,78,57,57,,24,5,7,0.2,0.5
2025-11-21T1500,2173A,112.7249,37.7067,晋中市,南都小区,颗粒物(PM10),51,52,87,28,43,78,78,46,46,23,53,14,22,0.6,1.2
2025-11-21T1500,2174A,112.6991,37.6982,晋中市,榆次区政府,,36,36,93,20,46,77,77,39,39,24,53,15,21,0.8,1.2
2025-11-21T1500,2865A,112.7195,37.6828,晋中市,榆次三中,,46,46,98,17,47,74,74,38,38,23,51,15,22,0.9,1.4
2025-11-21T1500,4200A,112.7478,37.6954,晋中市,迎宾街26号,,48,48,88,24,46,76,76,42,42,23,48,16,23,0.6,0.9
2025-11-21T1500,2439A,112.2014,31.0481,荆门市,竹园小学,,36,35,49,25,33,86,86,51,51,17,35,4,3,0,0.3
2025-11-21T1500,2440A,112.1969,30.9891,荆门市,掇刀,,36,36,48,25,31,106,106,72,72,10,30,1,1,0.1,0.4
2025-11-21T1500,2441A,112.2213,31.0386,荆门市,石化一小,颗粒物(PM10),52,54,52,28,36,92,92,54,54,15,37,12,9,0.1,0.5
2025-11-21T1500,3012A,112.1849,31.0362,荆门市,西山林语,,32,32,35,17,22,90,90,62,62,13,16,6,4,0.5,0.5
2025-11-21T1500,3547A,112.1632,31.0138,荆门市,龙泉中学南校,细颗粒物(PM2.5),65,,47,47,30,88,88,56,56,13,26,8,6,0.2,0.3
2025-11-21T1500,1844A,112.2494,30.3197,荆州市,市图书馆,细颗粒物(PM2.5),55,45,42,39,37,88,88,52,52,19,32,10,8,0.6,0.7
2025-11-21T1500,1845A,112.2008,30.3544,荆州市,市委党校,细颗粒物(PM2.5),53,46,50,37,38,78,78,38,38,22,39,7,8,0.5,0.6
2025-11-21T1500,3194A,112.2747,30.3122,荆州市,管委会,细颗粒物(PM2.5),58,44,46,41,38,87,87,50,50,17,34,11,9,0.5,0.7
2025-11-21T1500,4268A,112.1722,30.3366,荆州市,学苑路85号,,,44,44,30,34,100,100,52,52,,28,86,20,0.5,0.5
2025-11-21T1500,2342A,117.3102,29.3867,景德镇市,王港中学,,,,,,,,,,,,,,,,
2025-11-21T1500,2343A,117.2117,29.2933,景德镇市,老干部活动中心,,31,15,44,14,30,97,97,52,52,1,21,6,9,0.6,0.8
2025-11-21T1500,2344A,117.1894,29.2789,景德镇市,兽医站,,35,31,48,11,22,111,111,66,66,7,28,7,12,0.3,0.5
2025-11-21T1500,2346A,117.2461,29.2956,景德镇市,陶研所,,33,15,40,13,32,105,105,56,56,2,20,3,4,0.3,0.4
2025-11-21T1500,4289A,117.1542,29.2566,景德镇市,青少年活动中心,,33,19,41,16,25,105,105,66,66,10,28,11,13,0.5,0.8
2025-11-21T1500,1803A,115.9872,29.6815,九江市,十里,,49,43,54,34,38,111,111,70,70,22,59,8,8,0.7,1
2025-11-21T1500,1804A,115.9584,29.7046,九江市,茅山头,细颗粒物(PM2.5),64,49,49,46,36,78,78,53,53,26,39,7,5,0.8,0.8
2025-11-21T1500,1805A,115.9877,29.7295,九江市,西园,,48,48,56,20,32,114,114,78,78,30,48,8,12,0.7,0.8
2025-11-21T1500,1808A,115.9114,29.6038,九江市,综合工业园,细颗粒物(PM2.5),69,50,65,50,47,106,106,75,75,25,55,8,4,0.5,0.7
2025-11-21T1500,1809A,116.0721,29.7535,九江市,石化总厂,颗粒物(PM10),55,59,69,22,43,101,101,66,66,23,39,4,9,0.7,0.8
2025-11-21T1500,1810A,115.9773,29.5698,九江市,庐山气象台,,,,,,,,,,,,,,,,
2025-11-21T1500,3190A,116.0254,29.6994,九江市,外国语学校,颗粒物(PM10),53,55,57,25,31,99,99,68,68,25,52,7,8,0.8,0.9
2025-11-21T1500,4253A,116.0102,29.6594,九江市,莲花大道8号,细颗粒物(PM2.5),54,52,62,38,39,100,100,76,76,24,24,9,7,0.4,0.6
2025-11-21T1500,4240A,98.4958,39.7339,酒泉市,玉门东路5号,颗粒物(PM10),64,78,110,21,39,90,90,61,61,8,23,16,16,0.5,0.7
2025-11-21T1500,4241A,98.5099,39.7506,酒泉市,北大街108号,颗粒物(PM10),71,92,121,30,42,85,85,45,45,9,29,11,20,0.3,0.8
2025-11-21T1500,2698A,76.0072,39.4467,喀什地区,巡警大队,颗粒物(PM10),192,333,374,112,120,68,68,20,20,36,63,9,10,0.9,1.9
2025-11-21T1500,2699A,75.9755,39.4694,喀什地区,吾办,颗粒物(PM10),170,289,331,122,126,79,79,20,20,18,63,15,14,0.7,1.8
2025-11-21T1500,4027A,75.9483,39.4689,喀什地区,老干局,颗粒物(PM10),179,308,391,69,124,72,72,20,20,22,64,9,7,0.7,2.9
2025-11-21T1500,1824A,114.3389,34.7781,开封市,肿瘤医院,颗粒物(PM10),54,57,79,18,45,78,78,53,53,21,45,16,15,0.5,0.7
2025-11-21T1500,1826A,114.2885,34.7965,开封市,世纪星幼儿园,,40,40,68,26,50,74,74,50,50,23,46,13,11,0.7,0.8
2025-11-21T1500,3147A,114.3438,34.8106,开封市,龙亭公园,,44,44,80,21,56,76,76,51,51,20,48,14,13,0.8,1
2025-11-21T1500,3210A,114.3644,34.7964,开封市,汴京公园,,39,39,89,25,50,70,70,46,46,25,51,14,12,0.5,0.6
2025-11-21T1500,3473A,114.2485,34.8306,开封市,技师学院,,49,49,65,15,36,75,75,45,45,24,54,12,11,0.7,0.8
2025-11-21T1500,3592A,114.4644,34.7556,开封市,祥符区生态环境局,颗粒物(PM10),53,56,95,31,55,76,76,46,46,31,61,12,11,0.5,0.6
2025-11-21T1500,1951A,84.895,45.6094,克拉玛依市,长征新村,颗粒物(PM10),133,216,223,29,31,38,38,14,14,26,40,11,8,0.5,0.6
2025-11-21T1500,1952A,84.8988,45.5893,克拉玛依市,南林小区,颗粒物(PM10),140,229,217,22,33,39,39,15,15,18,30,7,5,0.3,0.4
2025-11-21T1500,1954A,84.905,44.3396,克拉玛依市,独山子区,颗粒物(PM10),78,106,166,40,51,90,90,41,41,39,41,8,9,0.5,0.7
2025-11-21T1500,1955A,85.6979,46.098,克拉玛依市,乌尔禾区商贸楼,颗粒物(PM10),118,186,191,31,23,46,46,17,17,16,30,9,8,0.4,0.4
2025-11-21T1500,3612A,85.1045,45.6899,克拉玛依市,白碱滩区新站,颗粒物(PM10),124,198,214,57,48,45,45,31,31,19,31,9,7,0.4,0.4
2025-11-21T1500,2697A,76.1454,39.7142,克孜勒苏柯尔克孜自治州,市人民政府,颗粒物(PM10),164,278,284,102,98,,,59,59,10,24,10,10,,0.5
2025-11-21T1500,3665A,76.1658,39.7157,克孜勒苏柯尔克孜自治州,克州文化中心,颗粒物(PM10),155,259,280,106,97,93,93,54,54,10,26,11,10,0.5,0.7
2025-11-21T1500,1450A,102.8204,24.8886,昆明市,呈贡新区,,46,,25,32,40,48,48,37,37,10,12,4,4,0.5,0.5
2025-11-21T1500,1451A,102.6251,24.9608,昆明市,西山森林公园,,,,,,,,,,,,,,,,
2025-11-21T1500,1452A,102.7252,25.0902,昆明市,龙泉镇,,26,24,26,18,19,41,41,18,18,22,20,3,2,0.5,0.6
2025-11-21T1500,1453A,102.7266,25.0375,昆明市,东风东路,,38,38,35,25,28,41,41,24,24,22,24,2,2,0.6,0.6
2025-11-21T1500,1454A,102.6742,25.0669,昆明市,金鼎山,,32,32,35,22,21,42,42,23,23,22,23,1,1,0.5,0.6
2025-11-21T1500,1455A,102.6644,25.0401,昆明市,碧鸡广场,,33,29,33,23,27,36,36,19,19,22,28,2,2,0.5,0.6
2025-11-21T1500,3179A,102.7494,25.0119,昆明市,官渡区博物馆,,40,40,32,24,25,40,40,22,22,23,30,2,2,0.3,0.4
2025-11-21T1500,3375A,102.8017,24.8336,昆明市,青年创业园,,28,21,25,19,23,54,54,37,37,8,11,2,3,0.4,0.5
2025-11-21T1500,3550A,102.7997,24.9786,昆明市,昆明学院,,36,35,41,25,30,46,46,31,31,18,21,1,3,0.4,0.7
2025-11-21T1500,3551A,102.5967,24.6736,昆明市,晋宁区生态环境分局,,25,18,25,17,19,44,44,38,38,8,13,2,2,0.5,0.5
2025-11-21T1500,3552A,102.6678,24.9856,昆明市,云天化总部,,25,24,31,17,25,45,45,26,26,14,26,4,4,0.6,0.7
2025-11-21T1500,1456A,91.1319,29.6514,拉萨市,八廓街,,,28,24,11,13,,,60,60,8,24,6,8,0.2,0.5
2025-11-21T1500,1457A,91.1221,29.6747,拉萨市,市环保局,,29,16,32,7,18,90,90,51,51,8,25,6,8,0.3,0.8
2025-11-21T1500,1458A,91.0874,29.6475,拉萨市,区监测站,,31,16,20,6,11,97,97,61,61,8,40,4,6,0.3,0.7
2025-11-21T1500,1459A,91.1774,29.6541,拉萨市,西藏大学,,27,22,20,8,10,86,86,59,59,13,22,4,6,0.2,0.2
2025-11-21T1500,1460A,90.9798,29.6588,拉萨市,区辐射站,,29,29,31,8,15,87,87,50,50,10,33,4,8,0.3,0.5
2025-11-21T1500,1461A,91.0834,29.6292,拉萨市,拉萨火车站,,29,23,24,6,12,90,90,48,48,9,31,6,6,0.5,0.9
2025-11-21T1500,2520A,109.2203,23.7256,来宾市,来宾技工学校,,30,29,26,21,17,94,94,71,71,7,11,5,6,0.3,0.4
2025-11-21T1500,3535A,109.1781,23.7297,来宾市,兴宾区政府,,31,27,24,19,15,99,99,74,74,7,8,6,10,0.3,0.2
2025-11-21T1500,4002A,109.2416,23.7461,来宾市,中南小学,,31,29,28,14,16,97,97,70,70,5,10,4,6,0.4,0.5
2025-11-21T1500,1477A,104.1373,35.9454,兰州市,榆中兰大校区,,,,,,,,,,,,,,,,
2025-11-21T1500,1479A,103.831,36.0464,兰州市,铁路设计院,,,,,,,,,,,,,,,,
2025-11-21T1500,3241A,103.7439,36.0842,兰州市,百合公园,细颗粒物(PM2.5),77,81,98,56,62,85,85,37,37,44,67,38,23,0.5,0.8
2025-11-21T1500,3242A,103.9611,35.998,兰州市,和平,细颗粒物(PM2.5),85,88,72,63,47,86,86,41,41,31,38,16,9,0.8,0.8
2025-11-21T1500,4236A,103.6293,36.0938,兰州市,庄浪东路808号,细颗粒物(PM2.5),87,107,93,64,61,91,91,46,46,73,71,34,19,1.2,1
2025-11-21T1500,4237A,103.7251,36.1043,兰州市,安宁西路88号,细颗粒物(PM2.5),89,105,116,66,67,100,100,49,49,52,73,36,20,0.9,1
2025-11-21T1500,4238A,103.8470,36.0676,兰州市,北滨河东路1号,颗粒物(PM10),59,67,104,37,58,67,67,28,28,67,76,28,16,1.1,1.3
2025-11-21T1500,3245A,103.6633,36.533,兰州新区,新区管委会,颗粒物(PM10),51,51,72,33,45,108,108,56,56,15,23,28,37,0.6,0.9
2025-11-21T1500,3246A,103.6975,36.4789,兰州新区,舟曲中学,细颗粒物(PM2.5),59,66,71,42,40,110,110,63,63,22,36,18,22,0.5,0.5
2025-11-21T1500,1067A,116.6708,39.5111,廊坊市,药材公司,,46,46,69,21,40,75,75,35,35,20,44,4,6,0.4,0.6
2025-11-21T1500,1068A,116.7214,39.5589,廊坊市,开发区,,47,47,65,22,37,74,74,39,39,22,43,3,3,0.3,0.4
2025-11-21T1500,1070A,116.7244,39.5269,廊坊市,北华航天学院,,44,44,68,27,39,74,74,39,39,22,43,6,8,0.3,0.5
2025-11-21T1500,2919A,116.7022,39.5453,廊坊市,河北工业大学,,44,44,69,24,39,75,75,38,38,17,39,4,6,0.4,0.4
2025-11-21T1500,2535A,103.7723,29.5462,乐山市,花湖湾,,,,,,,,,,,,,,,,
2025-11-21T1500,2536A,103.7627,29.5844,乐山市,牛耳桥,细颗粒物(PM2.5),62,58,57,44,44,56,56,22,22,22,32,8,7,0.6,0.7
2025-11-21T1500,2537A,103.7508,29.6006,乐山市,市第三水厂,细颗粒物(PM2.5),54,56,57,38,43,60,60,24,24,19,33,8,6,0.7,0.7
2025-11-21T1500,2538A,103.7571,29.5664,乐山市,市监测站,细颗粒物(PM2.5),59,51,51,42,40,69,69,31,31,13,25,8,7,0.6,0.6
2025-11-21T1500,3361A,103.7311,29.5628,乐山市,理工大学,细颗粒物(PM2.5),57,52,48,40,36,71,71,31,31,10,21,9,8,0.6,0.6
2025-11-21T1500,2598A,100.2143,26.8576,丽江市,西南郊,,26,15,21,7,10,81,81,53,53,2,9,6,6,0.6,0.8
2025-11-21T1500,2599A,100.2497,26.8802,丽江市,丽江古城,,26,18,26,8,14,81,81,56,56,11,12,9,10,0.5,0.6
2025-11-21T1500,2600A,100.2203,26.8906,丽江市,市中心,,26,12,19,8,13,83,83,52,52,12,15,8,9,0.4,0.5
2025-11-21T1500,1267A,119.914,28.4514,丽水市,监测站大楼,,44,44,46,28,33,119,119,11,,18,27,6,7,0.4,0.4
2025-11-21T1500,1268A,119.93,28.4586,丽水市,莲都小学,,49,49,48,28,25,119,119,65,65,20,31,6,6,0.4,0.4
2025-11-21T1500,1269A,119.879,28.4231,丽水市,余庄前,,48,44,42,33,31,113,113,62,62,21,23,5,4,0.3,0.3
2025-11-21T1500,1173A,119.176,34.5885,连云港市,市环境监测站,细颗粒物(PM2.5),64,73,101,46,65,82,82,39,39,24,58,12,13,1.0,1.2
2025-11-21T1500,3000A,119.3581,34.6972,连云港市,德源药业,颗粒物(PM10),58,66,104,39,55,76,76,39,39,26,55,8,8,0.6,0.7
2025-11-21T1500,3007A,119.178,34.844,连云港市,新城一中,细颗粒物(PM2.5),95,113,118,71,78,90,90,48,48,26,63,13,18,0.8,1.1
2025-11-21T1500,3008A,119.3608,34.7519,连云港市,胡沟管理处,颗粒物(PM10),60,70,80,36,43,74,74,42,42,30,48,15,16,0.8,0.8
2025-11-21T1500,3009A,119.1478,34.5911,连云港市,矿山设计院,颗粒物(PM10),64,78,110,41,64,82,82,40,40,16,29,8,9,0.6,0.8
2025-11-21T1500,3434A,119.2413,34.6539,连云港市,工贸学校,细颗粒物(PM2.5),69,72,97,50,69,94,94,49,49,23,38,15,13,0.8,0.8
2025-11-21T1500,3664A,119.4172,34.7341,连云港市,连云街道,颗粒物(PM10),79,108,77,54,46,56,56,38,38,52,32,11,10,0.9,0.7
2025-11-21T1500,2571A,102.3431,27.8099,凉山彝族自治州,青龙寺,,,,,,,,,,,,,,,,
2025-11-21T1500,2572A,102.2721,27.8415,凉山彝族自治州,邛海宾馆,,24,24,30,14,21,48,48,36,34,8,12,8,7,0.7,0.7
2025-11-21T1500,2573A,102.2625,27.898,凉山彝族自治州,西昌市政府,,42,32,45,29,38,31,31,28,26,24,20,7,7,0.8,0.8
2025-11-21T1500,2574A,102.2685,27.8851,凉山彝族自治州,凉山州政府,,33,33,46,23,31,35,35,32,28,15,16,9,9,0.8,0.8
2025-11-21T1500,4229A,102.2342,27.8859,凉山彝族自治州,凯乐南路30号,,28,28,44,18,27,33,33,34,20,25,26,8,7,0.7,0.8
2025-11-21T1500,2212A,123.2,41.1953,辽阳市,宏伟区,,,42,55,,22,75,75,53,53,14,22,9,13,0.6,0.9
2025-11-21T1500,2213A,123.1683,41.2495,辽阳市,新华园,颗粒物(PM10),69,87,66,31,33,67,67,49,49,15,36,5,13,0.2,1
2025-11-21T1500,2214A,123.2354,41.2639,辽阳市,滨河路,,25,25,53,16,28,67,67,47,47,6,27,6,12,0.3,0.9
2025-11-21T1500,2215A,123.149,41.2991,辽阳市,铁西工业园,,26,25,71,18,36,68,68,52,52,12,34,8,16,0.5,1.4
2025-11-21T1500,2227A,125.1358,42.8845,辽源市,环保局,颗粒物(PM10),70,89,89,30,31,82,82,69,69,8,16,3,4,0.3,0.5
2025-11-21T1500,3239A,125.0764,42.9078,辽源市,银鹰制药,,,35,42,31,24,77,77,66,66,11,16,,6,0.4,0.5
2025-11-21T1500,1625A,115.9848,36.4372,聊城市,区政府,颗粒物(PM10),60,70,82,35,50,72,72,41,41,30,51,14,12,0.7,1
2025-11-21T1500,2878A,116.0072,36.4343,聊城市,聊大东校,细颗粒物(PM2.5),69,80,85,50,55,69,69,38,38,30,51,16,13,0.9,0.9
2025-11-21T1500,3200A,115.9819,36.4978,聊城市,监控中心,颗粒物(PM10),51,52,92,29,61,78,78,49,49,21,54,15,15,0.9,1
2025-11-21T1500,3513A,116.0445,36.4361,聊城市,九州社区,颗粒物(PM10),65,80,87,33,48,81,81,50,50,13,38,8,10,0.7,0.9
2025-11-21T1500,4018A,116.0567,36.4608,聊城市,星美广场,颗粒物(PM10),66,82,87,35,48,73,73,46,46,25,47,7,9,0.6,0.6
2025-11-21T1500,2632A,94.3681,29.6376,林芝市,林芝监测站,,29,7,9,3,5,91,91,84,84,2,2,3,3,0.2,0.2
2025-11-21T1500,2633A,94.3616,29.6616,林芝市,林芝人民医院,,,15,12,3,4,75,75,69,,,2,3,2,,0.4
2025-11-21T1500,2603A,100.0781,23.8982,临沧市,市环保局,,19,,14,13,27,57,57,42,42,2,4,6,5,0.5,0.6
2025-11-21T1500,2604A,100.0894,23.8822,临沧市,市气象局,,20,13,13,3,6,62,62,46,46,4,6,8,9,0.4,0.5
2025-11-21T1500,1733A,111.5531,36.0783,临汾市,临钢医院,颗粒物(PM10),69,87,75,47,39,61,61,28,28,29,35,24,8,2.1,0.9
2025-11-21T1500,1734A,111.5028,36.0714,临汾市,技工学校,"颗粒物(PM10),细颗粒物(PM2.5)",53,55,64,37,42,65,65,26,26,27,39,26,11,1.7,0.9
2025-11-21T1500,1736A,111.5018,36.0855,临汾市,市委,颗粒物(PM10),66,82,78,36,33,68,68,30,30,24,32,30,14,2.0,1.1
2025-11-21T1500,3018A,111.505,36.1014,临汾市,唐尧大酒店,颗粒物(PM10),67,83,82,42,36,70,70,30,30,30,33,23,8,1.7,0.8
2025-11-21T1500,4244A,111.4879,36.0530,临汾市,启星学校,颗粒物(PM10),63,76,76,31,41,68,68,27,27,39,48,30,12,1.5,0.8
2025-11-21T1500,4271A,103.2464,35.6123,临夏回族自治州,滨河东路1号,细颗粒物(PM2.5),79,85,121,58,72,65,65,35,35,8,19,6,6,0.7,1.1
2025-11-21T1500,4310A,103.2093,35.5995,临夏回族自治州,新华街21号,细颗粒物(PM2.5),74,64,122,54,80,76,76,40,40,12,28,10,8,0.7,1.4
2025-11-21T1500,1618A,118.3429,35.0532,临沂市,沂河小区,细颗粒物(PM2.5),84,92,110,62,78,86,86,50,50,34,58,15,15,0.7,0.8
2025-11-21T1500,1619A,118.295,35.0583,临沂市,鲁南制药厂,,,85,124,64,82,88,88,47,47,,65,16,20,0.5,0.8
2025-11-21T1500,1620A,118.2794,34.9976,临沂市,新光毛纺厂,细颗粒物(PM2.5),85,83,126,63,83,88,88,45,45,27,64,16,19,0.7,1
2025-11-21T1500,1621A,118.3956,35.0888,临沂市,河东保险公司,颗粒物(PM10),69,88,110,48,65,95,95,54,54,36,64,15,13,0.5,0.7
2025-11-21T1500,3370A,118.3564,35.0215,临沂市,十里堡居委,颗粒物(PM10),63,75,110,41,58,92,92,53,53,32,60,15,17,0.7,0.9
2025-11-21T1500,3496A,118.3604,35.1084,临沂市,南坊新区,细颗粒物(PM2.5),77,88,110,56,68,91,91,49,49,41,63,18,16,0.8,1
2025-11-21T1500,3860A,118.3920,35.0300,临沂市,皇山花园小区,细颗粒物(PM2.5),67,80,111,48,62,94,94,54,54,29,58,17,17,0.6,0.8
2025-11-21T1500,1870A,109.4856,24.3895,柳州市,柳东小学,,31,20,24,15,16,97,97,72,72,4,7,8,9,0.2,0.3
2025-11-21T1500,1871A,109.4157,24.3277,柳州市,环保监测站,,30,,22,21,17,90,90,71,71,3,9,8,9,0.3,0.4
2025-11-21T1500,1872A,109.389,24.341,柳州市,河西水厂,,31,31,27,12,16,96,96,73,73,5,12,6,9,0.2,0.3
2025-11-21T1500,1873A,109.4311,24.2921,柳州市,市四中,,30,25,24,15,15,93,93,72,72,7,12,9,10,0.3,0.3
2025-11-21T1500,1874A,109.4006,24.3631,柳州市,市九中,,33,29,28,23,21,95,95,72,72,5,13,8,9,0.3,0.3
2025-11-21T1500,1875A,109.4958,24.3134,柳州市,古亭山,,31,31,26,11,17,94,94,74,74,3,6,10,10,0.4,0.5
2025-11-21T1500,3402A,109.5422,24.3996,柳州市,市二中,,39,39,26,11,17,97,97,73,73,7,14,9,9,0.2,0.3
2025-11-21T1500,2307A,116.5079,31.737,六安市,监测大楼,细颗粒物(PM2.5),54,56,43,38,28,111,111,68,68,13,35,7,5,0.4,0.4
2025-11-21T1500,2308A,116.4738,31.7643,六安市,皖西学院,颗粒物(PM10),53,55,48,33,29,116,116,79,79,10,31,6,3,0.4,0.4
2025-11-21T1500,2309A,116.4996,31.7905,六安市,朝阳厂,,50,50,43,32,26,108,108,71,71,15,36,8,5,0.3,0.4
2025-11-21T1500,2310A,116.5567,31.7886,六安市,开发区,颗粒物(PM10),54,57,57,36,36,110,110,67,67,15,47,6,4,0.4,0.4
2025-11-21T1500,2576A,104.8,26.5892,六盘水市,窑上,,48,48,42,30,26,93,93,70,70,15,9,12,9,0.7,0.4
2025-11-21T1500,2577A,104.83,26.5917,六盘水市,黄土坡,,40,40,41,25,26,86,86,68,63,23,18,14,12,0.7,0.5
2025-11-21T1500,2578A,104.89,26.5939,六盘水市,水钢,细颗粒物(PM2.5),55,39,45,39,29,93,93,78,78,9,14,7,13,0.3,0.5
2025-11-21T1500,2579A,104.8475,26.5894,六盘水市,民中,,41,41,39,19,25,91,91,66,66,14,15,9,9,0.5,0.5
2025-11-21T1500,2580A,104.9544,26.5506,六盘水市,双水,,49,34,46,34,27,97,97,74,74,9,12,8,6,0.5,0.5
2025-11-21T1500,2335A,117.0189,25.1181,龙岩市,龙岩师专,,,,,,,,,,,,,,,,
2025-11-21T1500,2336A,117.0217,25.1033,龙岩市,龙岩市监测站,,30,26,22,12,14,94,94,74,74,7,13,8,15,0.2,0.4
2025-11-21T1500,2337A,117.0258,25.0661,龙岩市,闽西职业技术学院,,31,19,25,12,14,97,97,77,77,4,13,6,13,0.2,0.4
2025-11-21T1500,2338A,117.0196,25.0306,龙岩市,龙岩学院,,30,19,25,7,16,95,95,73,73,4,12,5,8,0.3,0.4
2025-11-21T1500,2665A,105.0822,33.3261,陇南市,汉王镇固水子,,,,,,,,,,,,,,,,
2025-11-21T1500,2885A,104.9339,33.3826,陇南市,滨江中学,,48,48,74,19,40,71,71,39,39,17,43,6,14,0.8,1.7
2025-11-21T1500,3247A,104.955,33.371,陇南市,市总工会,细颗粒物(PM2.5),64,46,76,46,38,72,72,36,36,16,37,4,7,0.6,0.9
2025-11-21T1500,2487A,111.9589,27.8901,娄底市,电视发射台,,,,,,,,,,,,,,,,
2025-11-21T1500,2488A,111.9975,27.725,娄底市,市监测站,,35,24,53,13,38,110,110,62,62,8,35,10,19,1.0,1.5
2025-11-21T1500,2489A,112.0194,27.7314,娄底市,市委党校,,30,20,47,14,33,96,96,56,56,9,26,8,9,0.4,0.7
2025-11-21T1500,2490A,111.9561,27.7569,娄底市,涟钢,,30,16,51,7,32,96,96,61,61,10,20,5,8,0.6,0.9
2025-11-21T1500,2491A,111.9892,27.7044,娄底市,市政府,,,14,49,12,34,92,92,56,56,,19,9,9,0.5,0.7
2025-11-21T1500,1893A,105.4324,28.9634,泸州市,九狮山,,,,,,,,,,,,,,,,
2025-11-21T1500,1894A,105.4427,28.9063,泸州市,小市上码头,,38,38,51,24,31,32,32,13,13,8,27,11,11,0.3,0.4
2025-11-21T1500,1895A,105.4241,28.8573,泸州市,兰田宪桥,,40,40,52,25,38,81,81,43,43,11,18,7,7,0.4,0.5
2025-11-21T1500,1896A,105.4379,28.8833,泸州市,市环监站,,33,33,47,22,29,86,86,40,40,14,29,10,8,0.4,0.5
2025-11-21T1500,4272A,105.3689,28.7783,泸州市,纳溪中医医院,,43,43,53,28,33,70,70,31,31,21,26,10,8,0.4,0.5
2025-11-21T1500,2183A,111.1406,37.5211,吕梁市,环保局,颗粒物(PM10),55,59,76,24,26,36,36,21,21,40,41,14,9,0.7,0.6
2025-11-21T1500,2185A,111.1297,37.5136,吕梁市,自来水公司,颗粒物(PM10),55,60,89,28,29,32,32,21,21,41,37,12,11,0.6,0.7
2025-11-21T1500,2867A,111.1283,37.51,吕梁市,马茂庄小学,颗粒物(PM10),58,65,79,24,25,38,38,21,21,34,39,13,8,0.5,0.6
2025-11-21T1500,1812A,112.3931,34.6516,洛阳市,市委党校,,40,40,67,18,41,82,82,49,49,22,38,14,12,0.4,0.6
2025-11-21T1500,1815A,112.494,34.6886,洛阳市,河南林校,颗粒物(PM10),51,52,75,26,43,80,80,45,45,21,40,18,11,0.6,0.8
2025-11-21T1500,1816A,112.3844,34.623,洛阳市,开发区管委会,,37,37,60,20,40,89,89,55,55,16,31,16,13,0.4,0.5
2025-11-21T1500,1817A,112.4267,34.6258,洛阳市,市委新办公区,,36,36,61,14,36,89,89,57,57,16,28,15,13,0.4,0.6
2025-11-21T1500,3340A,112.6005,34.6326,洛阳市,伊滨,颗粒物(PM10),51,51,63,21,34,79,79,53,53,15,23,16,12,0.4,0.4
2025-11-21T1500,3341A,112.4951,34.6332,洛阳市,中移产业园,,38,38,61,22,42,83,83,48,48,15,34,15,12,0.3,0.5
2025-11-21T1500,3593A,112.5736,34.8993,洛阳市,吉利监测站,,29,29,44,14,24,87,87,52,52,14,32,12,9,0.4,0.5
2025-11-21T1500,3635A,112.3677,34.662,洛阳市,河科大西苑校区,,36,36,62,19,38,86,86,54,54,12,28,14,13,0.4,0.6
2025-11-21T1500,3636A,112.4388,34.6781,洛阳市,英才小学,,45,45,78,29,51,75,75,38,38,24,44,16,14,0.6,0.8
2025-11-21T1500,4214A,112.4600,34.6949,洛阳市,春都路1号院,颗粒物(PM10),57,63,89,19,38,68,68,37,37,16,44,17,13,0.5,0.7
2025-11-21T1500,2399A,114.051,33.5699,漯河市,三五一五工厂,颗粒物(PM10),57,63,94,23,55,90,90,62,62,16,39,11,11,0.2,0.6
2025-11-21T1500,2400A,114.0055,33.5698,漯河市,漯河大学,颗粒物(PM10),60,70,88,27,53,100,100,66,66,18,42,10,11,0.4,0.5
2025-11-21T1500,2401A,114.0138,33.5828,漯河市,市水利局,颗粒物(PM10),53,56,81,24,51,90,90,60,60,19,39,12,12,0.2,0.5
2025-11-21T1500,2402A,114.0261,33.5698,漯河市,市广电局,颗粒物(PM10),56,61,87,25,49,95,95,64,64,15,38,11,11,0.4,0.6
2025-11-21T1500,3478A,113.9749,33.5664,漯河市,市图书馆,颗粒物(PM10),59,68,85,20,52,85,85,58,58,18,36,9,10,0.3,0.5
2025-11-21T1500,4250A,114.0892,33.5882,漯河市,韶山路11号,颗粒物(PM10),55,60,87,23,52,87,87,59,59,20,39,12,13,0.4,0.6
2025-11-21T1500,1798A,118.5092,31.6837,马鞍山市,湖东路四小,,,70,89,35,59,99,99,50,50,,59,14,8,1.0,0.8
2025-11-21T1500,1799A,118.5024,31.6449,马鞍山市,开发区,细颗粒物(PM2.5),65,76,93,47,63,103,103,52,52,19,60,6,5,0.6,0.7
2025-11-21T1500,1802A,118.6245,31.7241,马鞍山市,濮塘,,,,,,,,,,,,,,,,
2025-11-21T1500,3633A,118.4918,31.6809,马鞍山市,雨山,颗粒物(PM10),63,75,97,42,68,108,108,55,55,19,57,11,9,0.6,0.6
2025-11-21T1500,4191A,118.5274,31.72227,马鞍山市,慈湖高新区,颗粒物(PM10),73,96,101,49,70,102,102,47,47,22,63,13,9,0.8,0.8
2025-11-21T1500,1686A,111.0286,21.4688,茂名市,电白南海,,44,44,56,12,23,108,108,78,78,12,22,12,16,0.2,0.3
2025-11-21T1500,1687A,110.9294,21.6533,茂名市,茂石化七小,,36,36,48,22,25,113,113,74,74,10,23,13,17,0.4,0.7
2025-11-21T1500,1688A,110.9107,21.6687,茂名市,健康路,,36,31,46,24,27,114,114,77,77,10,21,11,24,0.7,1
2025-11-21T1500,1689A,110.8592,21.6828,茂名市,高岭,,48,48,57,22,24,109,109,74,74,16,21,14,22,0.6,0.8
2025-11-21T1500,3450A,111.01,21.5165,茂名市,电白水东,,31,22,49,9,28,97,97,76,76,10,23,7,15,0.4,0.6
2025-11-21T1500,2539A,104.0308,30.0478,眉山市,黑龙滩水库,,,,,,,,,,,,,,,,
2025-11-21T1500,2540A,103.8416,30.0874,眉山市,气象局,,46,46,78,31,48,72,72,34,34,18,35,11,10,0.5,0.7
2025-11-21T1500,3137A,103.8578,30.0744,眉山市,市委党校,,39,39,56,24,37,67,67,39,39,16,34,8,6,0.5,0.6
2025-11-21T1500,3148A,103.8291,30.0564,眉山市,区人社局,,50,50,69,29,42,76,76,39,39,16,35,8,7,0.7,1.3
2025-11-21T1500,1690A,116.1231,24.3284,梅州市,梅江月梅,,31,21,31,19,20,97,97,60,60,10,27,6,7,0.3,0.4
2025-11-21T1500,1691A,116.0797,24.2719,梅州市,梅县新城,,32,32,44,16,29,97,97,59,59,13,34,8,8,0.3,0.4
2025-11-21T1500,1692A,116.1248,24.2654,梅州市,环境监控中心,,30,26,41,18,24,93,93,54,54,11,34,6,8,0.6,0.7
2025-11-21T1500,3315A,116.1233,24.2991,梅州市,梅龙,,29,29,44,13,22,89,89,54,54,10,29,8,10,0.3,0.5
2025-11-21T1500,1878A,104.7778,31.4741,绵阳市,富乐山,细颗粒物(PM2.5),95,95,81,71,62,48,48,24,24,34,35,11,10,0.5,0.7
2025-11-21T1500,1880A,104.6697,31.4668,绵阳市,高新区自来水公司,细颗粒物(PM2.5),100,114,111,75,68,39,39,16,16,44,41,10,10,0.8,0.9
2025-11-21T1500,1881A,104.7287,31.5075,绵阳市,三水厂,细颗粒物(PM2.5),94,84,93,70,71,56,56,19,19,34,38,14,12,0.6,0.8
2025-11-21T1500,3491A,104.69,31.5322,绵阳市,西科大附属小学,细颗粒物(PM2.5),123,124,107,93,66,46,46,15,15,36,41,9,8,0.3,0.6
2025-11-21T1500,3492A,104.5648,31.5343,绵阳市,安州区旅游局,细颗粒物(PM2.5),85,,79,63,63,60,60,29,29,25,32,9,7,0.5,0.7
2025-11-21T1500,4226A,104.7651,31.4531,绵阳市,绵阳市气象局,细颗粒物(PM2.5),79,93,92,58,60,48,48,20,20,29,38,2,6,0.6,0.8
2025-11-21T1500,1784A,129.61,44.561,牡丹江市,环保大楼,,35,35,70,16,57,70,70,55,55,8,15,5,6,0.3,0.5
2025-11-21T1500,1785A,129.6115,44.5782,牡丹江市,文化广场,,37,37,84,22,68,72,72,56,56,11,20,5,7,0.4,0.5
2025-11-21T1500,1786A,129.5904,44.5963,牡丹江市,第一医院,,,39,90,,91,67,67,53,53,,17,2,3,0.2,0.5
2025-11-21T1500,1787A,129.6364,44.6075,牡丹江市,机车工厂,,,,94,33,74,74,74,56,56,,26,3,5,,0.5
2025-11-21T1500,1788A,129.6386,44.5462,牡丹江市,第一中学,,32,32,65,18,52,67,67,51,51,7,16,2,4,0.4,0.5
2025-11-21T1500,2531A,105.0703,29.61,内江市,市监测站,细颗粒物(PM2.5),59,59,63,42,53,98,98,48,48,16,26,4,3,0.5,0.6
2025-11-21T1500,2532A,105.0717,29.5947,内江市,东兴区政府,,43,41,61,30,51,86,86,41,41,18,31,5,8,0.4,0.5
2025-11-21T1500,2533A,105.0653,29.5817,内江市,内江二中,颗粒物(PM10),53,56,74,33,58,88,88,40,40,17,30,6,5,0.6,0.7
2025-11-21T1500,2534A,105.0406,29.5822,内江市,内江日报社,细颗粒物(PM2.5),52,44,69,36,57,91,91,44,44,27,35,5,4,0.4,0.5
2025-11-21T1500,2628A,92.0657,31.4846,那曲市,那曲监测站,,41,41,54,10,33,114,114,64,64,5,29,8,12,0.5,1.2
2025-11-21T1500,4243A,92.0515,31.4787,那曲市,那曲市委宣传部,,,6,36,3,23,99,99,50,50,,26,,12,0.4,1.4
2025-11-21T1500,1290A,115.8931,28.6843,南昌市,省外办,,42,42,51,27,38,92,92,59,59,18,41,4,6,0.3,0.9
2025-11-21T1500,1291A,115.8886,28.7003,南昌市,省林业公司,,35,31,43,24,30,103,103,66,66,10,40,5,6,0.6,0.7
2025-11-21T1500,1292A,115.8126,28.7442,南昌市,林科所,,39,39,37,22,20,108,108,64,64,13,31,5,5,0.8,0.9
2025-11-21T1500,1294A,115.8518,28.687,南昌市,建工学校,,40,31,50,28,30,103,103,62,62,16,45,11,11,0.4,0.6
2025-11-21T1500,1295A,115.8921,28.6424,南昌市,象湖,,36,32,48,24,31,113,113,64,64,10,42,10,9,0.5,0.7
2025-11-21T1500,1296A,115.7423,28.7996,南昌市,武术学校,,,,,,,,,,,,,,,,
2025-11-21T1500,3046A,115.9084,28.6062,南昌市,机电学校,,40,40,63,27,37,114,114,64,64,13,41,10,9,0.4,0.6
2025-11-21T1500,3690A,115.9721,28.7031,南昌市,外国语学校,,42,42,52,25,33,115,115,74,74,17,39,10,10,0.5,0.5
2025-11-21T1500,4192A,115.9316,28.68677,南昌市,南京东路235号,,37,32,51,23,33,118,118,76,76,20,41,7,8,0.5,0.6
2025-11-21T1500,1905A,106.056,30.8064,南充市,西山风景区,,,,,,,,,,,,,,,,
2025-11-21T1500,1906A,106.0789,30.8023,南充市,南充市委,细颗粒物(PM2.5),69,66,65,50,44,87,87,37,37,16,32,6,5,0.4,0.6
2025-11-21T1500,1907A,106.1031,30.8217,南充市,南充炼油厂,细颗粒物(PM2.5),72,68,80,52,56,77,77,36,36,15,31,8,7,0.4,0.5
2025-11-21T1500,4227A,106.1083,30.7884,南充市,梨树横街98号,细颗粒物(PM2.5),57,62,70,40,49,96,96,38,38,13,32,7,7,0.4,0.6
2025-11-21T1500,4304A,106.1172,30.843,南充市,清泉寺北路188号,细颗粒物(PM2.5),58,51,58,41,38,87,87,40,40,11,20,6,6,0.4,0.5
2025-11-21T1500,4305A,106.067,30.7616,南充市,同庆路1号,细颗粒物(PM2.5),70,79,67,51,41,71,71,32,32,22,30,8,8,0.4,0.6
2025-11-21T1500,1151A,118.8086,32.1065,南京市,迈皋桥,颗粒物(PM10),62,74,59,39,35,94,94,58,58,27,41,4,4,0.4,0.5
2025-11-21T1500,1152A,118.7538,32.0551,南京市,草场门,,44,44,65,27,39,86,86,50,50,24,64,6,6,0.3,0.6
2025-11-21T1500,1153A,118.7794,32.0745,南京市,山西路,颗粒物(PM10),60,70,69,34,35,94,94,58,58,26,56,3,4,0.4,0.6
2025-11-21T1500,1154A,118.7752,32.0023,南京市,中华门,,44,44,66,27,43,86,86,46,46,22,55,4,4,0.4,0.7
2025-11-21T1500,1155A,118.8109,32.0309,南京市,瑞金路,颗粒物(PM10),51,51,66,31,42,86,86,49,49,22,64,4,4,0.6,0.3
2025-11-21T1500,1156A,118.7997,32.0754,南京市,玄武湖,,48,47,55,33,33,89,89,51,51,40,55,4,4,0.5,0.7
2025-11-21T1500,1157A,118.6414,32.0931,南京市,浦口,细颗粒物(PM2.5),58,60,58,41,32,98,98,64,64,20,26,11,8,0.4,0.4
2025-11-21T1500,1158A,118.7356,31.9996,南京市,奥体中心,颗粒物(PM10),54,57,72,31,44,94,94,52,52,32,65,7,8,0.3,0.6
2025-11-21T1500,1159A,118.9125,32.1028,南京市,仙林大学城,颗粒物(PM10),63,75,68,39,36,71,71,41,41,34,60,14,8,1.0,0.9
2025-11-21T1500,3422A,118.8436,31.9198,南京市,江宁彩虹桥,颗粒物(PM10),64,77,70,29,42,99,99,55,55,24,69,5,7,0.5,0.9
2025-11-21T1500,3427A,118.8554,32.3578,南京市,六合雄州,细颗粒物(PM2.5),85,90,82,63,55,104,104,63,63,22,46,12,10,0.5,0.4
2025-11-21T1500,4249A,118.8708,31.3402,南京市,汶溪路181号,,,,48,68,47,94,94,65,65,,35,6,7,0.6,0.6
2025-11-21T1500,4312A,119.019,31.6512,南京市,中山西路1号,细颗粒物(PM2.5),95,85,61,71,52,69,69,43,43,42,38,5,4,0.8,0.7
2025-11-21T1500,1401A,108.3103,22.7881,南宁市,二十一中,,30,30,27,16,18,87,87,60,60,8,17,6,8,0.2,0.3
2025-11-21T1500,1402A,108.3141,22.8528,南宁市,北湖,,30,15,28,12,21,95,95,71,71,11,22,10,10,0.4,0.4
2025-11-21T1500,1403A,108.3206,22.8225,南宁市,市监测站,,25,24,26,14,15,80,80,55,55,13,23,8,9,0.3,0.4
2025-11-21T1500,1404A,108.3829,22.8037,南宁市,大自然花园,,29,20,30,16,18,90,90,64,64,7,21,6,10,0.2,0.3
2025-11-21T1500,1405A,108.4394,22.7904,南宁市,仙葫,,,,,,,,,,,,,,,,
2025-11-21T1500,1406A,108.2397,22.8467,南宁市,区农职院,,32,25,26,22,14,91,91,68,68,8,14,7,6,0.5,0.5
2025-11-21T1500,1407A,108.3275,22.735,南宁市,英华嘉园,,29,,38,18,28,90,90,54,54,7,30,3,5,0.5,0.5
2025-11-21T1500,3401A,108.4834,22.7618,南宁市,红星社区,,30,,25,20,20,95,95,71,71,7,17,6,8,0.3,0.4
2025-11-21T1500,4221A,108.2177,22.7774,南宁市,乐贤路16号,,32,29,35,22,19,90,90,62,62,8,18,5,21,0.2,0.3
2025-11-21T1500,2331A,118.0966,26.6761,南平市,茫荡山,,,,18,,12,,,108,,,,,2,,
2025-11-21T1500,2332A,118.1681,26.6369,南平市,南平市监测站,,31,24,29,18,22,97,97,60,60,9,24,5,4,0.4,0.4
2025-11-21T1500,2333A,118.1825,26.6489,南平市,南平铝业有限公司,,31,23,29,15,21,97,97,65,65,8,27,5,6,0.4,0.4
2025-11-21T1500,2334A,118.1756,26.6272,南平市,南平七中,,35,35,27,15,19,100,100,61,61,8,19,6,5,0.4,0.4
2025-11-21T1500,1168A,120.9098,31.9663,南通市,狼山街道,"颗粒物(PM10),细颗粒物(PM2.5)",73,95,81,53,55,91,91,49,49,45,67,9,7,0.6,0.9
2025-11-21T1500,1169A,120.86,32.0005,南通市,虹桥,细颗粒物(PM2.5),87,87,86,64,60,83,83,58,58,58,77,9,12,1.0,1.2
2025-11-21T1500,1170A,120.87,32.02,南通市,城中,颗粒物(PM10),84,117,106,60,59,86,86,61,61,58,78,12,11,0.8,1.1
2025-11-21T1500,1171A,120.94,31.93,南通市,星湖花园,细颗粒物(PM2.5),78,91,90,57,57,77,77,47,47,70,76,12,11,0.8,1.1
2025-11-21T1500,1172A,120.81,32.0417,南通市,紫琅学院,细颗粒物(PM2.5),84,101,109,62,60,100,100,68,68,39,69,9,10,0.7,0.9
2025-11-21T1500,3291A,121.067,32.062,南通市,通州监测站,,,70,82,53,62,110,110,68,68,34,70,,7,0.5,1
2025-11-21T1500,3432A,120.9348,31.9883,南通市,环境教育馆,细颗粒物(PM2.5),84,92,82,62,57,106,106,58,58,39,63,9,8,0.5,0.8
2025-11-21T1500,2404A,112.5224,33.0122,南阳市,瓦房庄,细颗粒物(PM2.5),69,71,133,50,110,92,92,42,42,18,46,11,8,0.6,0.8
2025-11-21T1500,2405A,112.5003,32.9735,南阳市,汉画馆,颗粒物(PM10),61,72,119,43,91,93,93,44,44,18,44,9,7,0.6,0.8
2025-11-21T1500,2406A,112.5573,33.027,南阳市,气象站,颗粒物(PM10),69,88,145,44,102,93,93,48,48,21,48,13,10,0.8,0.8
2025-11-21T1500,2407A,112.5481,32.9689,南阳市,理工学院,颗粒物(PM10),62,74,126,36,86,90,90,43,43,19,51,8,8,0.6,0.9
2025-11-21T1500,4008A,112.5234,32.9922,南阳市,卧龙区政府,细颗粒物(PM2.5),64,61,139,46,104,83,83,39,39,19,50,10,7,0.6,0.9
2025-11-21T1500,1234A,121.8358,29.911,宁波市,区环保大楼,细颗粒物(PM2.5),68,77,92,49,61,99,99,60,60,43,69,10,9,0.7,0.9
2025-11-21T1500,1235A,121.56,29.82,宁波市,万里学院,细颗粒物(PM2.5),74,81,94,54,63,105,105,59,59,31,58,9,8,0.5,0.6
2025-11-21T1500,1236A,121.713,29.9572,宁波市,龙赛医院,细颗粒物(PM2.5),102,107,118,76,74,100,100,57,57,44,65,8,6,0.9,0.9
2025-11-21T1500,1239A,121.633,29.7733,宁波市,钱湖水厂,细颗粒物(PM2.5),87,80,89,64,63,92,92,56,56,37,46,10,8,0.8,0.9
2025-11-21T1500,1240A,121.5856,29.8635,宁波市,太古小学,细颗粒物(PM2.5),74,73,97,54,68,104,104,71,71,24,56,6,5,0.6,0.9
2025-11-21T1500,1241A,121.524,29.8674,宁波市,市环境监测中心,细颗粒物(PM2.5),77,79,92,56,65,97,97,52,52,25,52,11,9,0.6,0.8
2025-11-21T1500,2871A,121.6147,29.9017,宁波市,万里国际学校,细颗粒物(PM2.5),84,79,94,62,68,123,123,64,64,40,59,10,7,0.8,1
2025-11-21T1500,3710A,121.5594,29.8975,宁波市,白沙活动中心,细颗粒物(PM2.5),68,66,80,49,62,103,103,59,59,33,60,9,7,0.6,0.8
2025-11-21T1500,2339A,119.5001,26.6946,宁德市,金涵水库,,,,36,,20,,,42,,,12,,3,,0.8
2025-11-21T1500,2341A,119.5388,26.6612,宁德市,宁德市监测站,,31,30,29,15,17,97,97,63,63,18,18,18,9,0.7,0.6
2025-11-21T1500,3209A,119.5231,26.6562,宁德市,宁德一中,,43,38,32,30,21,100,100,64,64,13,14,10,9,0.5,0.6
2025-11-21T1500,2618A,98.8601,25.8567,怒江傈僳族自治州,州监测站,,26,26,22,16,17,49,49,38,38,10,11,7,7,0.4,0.3
2025-11-21T1500,2619A,98.8546,25.8417,怒江傈僳族自治州,泸水一中,,17,17,19,3,12,39,39,26,26,13,15,7,7,0.4,0.4
2025-11-21T1500,1888A,101.6891,26.571,攀枝花市,弄弄坪,,31,31,40,16,24,39,39,29,29,17,27,10,18,0.7,0.9
2025-11-21T1500,1889A,101.5769,26.5928,攀枝花市,河门口,,30,30,34,18,21,40,40,26,26,14,21,20,30,1.8,1.5
2025-11-21T1500,1890A,101.7169,26.585,攀枝花市,炳草岗,,13,10,42,9,24,30,30,22,21,20,31,9,20,0.8,1
2025-11-21T1500,1891A,101.7369,26.5008,攀枝花市,仁和,,43,42,48,30,32,46,46,23,23,16,19,31,15,1.2,1
2025-11-21T1500,2835A,101.7227,26.567,攀枝花市,四十中小,,20,20,36,14,22,39,39,33,31,11,21,9,30,0.8,1.1
2025-11-21T1500,1604A,122.0303,41.1489,盘锦市,开发区,,42,42,27,16,17,80,80,55,55,12,29,4,7,0.3,0.4
2025-11-21T1500,1605A,122.0485,41.0883,盘锦市,兴隆台,,24,24,30,12,17,74,74,46,46,14,38,8,10,0.5,0.6
2025-11-21T1500,1606A,121.8297,41.1028,盘锦市,新生街道,,31,31,25,10,15,75,75,54,54,16,37,12,13,0.2,0.2
2025-11-21T1500,1832A,113.3257,33.742,平顶山市,新华旅馆,颗粒物(PM10),52,54,76,21,39,93,93,64,64,14,28,11,12,0.4,0.5
2025-11-21T1500,1833A,113.2919,33.737,平顶山市,规划设计院,颗粒物(PM10),52,53,83,27,48,93,93,63,63,13,33,9,9,0.3,0.6
2025-11-21T1500,1834A,113.182,33.774,平顶山市,平顶山工学院,,39,39,60,17,35,95,95,68,68,16,28,10,10,0.4,0.5
2025-11-21T1500,3204A,113.3025,33.73,平顶山市,规划局,颗粒物(PM10),58,66,78,22,45,93,93,65,65,16,30,10,11,0.4,0.5
2025-11-21T1500,3594A,112.8867,33.9116,平顶山市,石龙区,颗粒物(PM10),52,53,60,17,27,102,102,66,66,15,33,8,8,0.1,0.2
2025-11-21T1500,2656A,106.6692,35.5461,平凉市,聚贤嘉苑,颗粒物(PM10),51,52,53,27,25,105,105,74,74,18,28,14,8,0.6,0.6
2025-11-21T1500,2657A,106.7021,35.5307,平凉市,博物馆,颗粒物(PM10),53,56,52,30,31,73,73,49,49,20,26,6,6,0.5,0.5
2025-11-21T1500,2347A,114.0997,27.5002,萍乡市,武功山,,,,,,,,,,,,,,,,
2025-11-21T1500,2348A,113.8385,27.6434,萍乡市,中医院,,31,9,52,8,28,98,98,57,57,15,39,1,7,0.5,0.9
2025-11-21T1500,2349A,113.8493,27.6253,萍乡市,市政府车库,,40,,43,28,32,100,100,64,64,14,29,9,10,0.5,0.8
2025-11-21T1500,2350A,113.8676,27.6435,萍乡市,市环保局,,32,29,45,14,30,100,100,62,62,8,22,10,12,0.3,0.7
2025-11-21T1500,2351A,113.866,27.6198,萍乡市,安源区政府,,32,,45,22,34,97,97,63,63,12,22,10,10,1.0,0.9
2025-11-21T1500,2319A,119.0141,25.4325,莆田市,荔城区仓后路,,34,32,30,11,14,106,106,90,90,10,13,4,4,0.4,0.4
2025-11-21T1500,2320A,119.0015,25.4553,莆田市,莆田市监测站,,38,38,25,10,11,108,108,94,94,13,12,4,4,0.4,0.4
2025-11-21T1500,2321A,119.1119,25.4561,莆田市,涵江区六中,,36,30,30,19,15,114,114,82,82,12,18,5,4,0.5,0.4
2025-11-21T1500,2322A,119.1013,25.3215,莆田市,秀屿区政府,,45,45,36,19,22,115,115,90,90,15,17,6,6,0.3,0.4
2025-11-21T1500,2323A,118.981,25.4792,莆田市,东圳水库,,,,19,,9,,,100,,,9,,5,,0.6
2025-11-21T1500,2392A,115.0312,35.7636,濮阳市,环保局,颗粒物(PM10),56,61,78,26,50,73,73,59,59,37,57,16,13,0.8,1
2025-11-21T1500,2394A,115.0574,35.7609,濮阳市,油田运输公司,颗粒物(PM10),61,72,90,30,50,76,76,54,54,36,55,16,13,0.5,0.8
2025-11-21T1500,3021A,115,35.7668,濮阳市,濮水河管理处,,,75,89,53,67,83,83,59,59,26,46,17,11,,1.7
2025-11-21T1500,4216A,115.0924,35.7686,濮阳市,任丘路479号,颗粒物(PM10),65,80,106,43,61,80,80,54,54,30,50,14,10,0.5,1
2025-11-21T1500,2601A,100.98,22.7633,普洱市,市环保局,,20,16,26,12,17,63,63,48,48,6,8,4,4,0.3,0.3
2025-11-21T1500,2602A,100.9817,22.8322,普洱市,普洱第二中学,,,24,22,3,15,,,26,26,5,9,5,4,0.2,0.3
2025-11-21T1500,2262A,131.0518,45.8751,七台河市,新一中,,,,,,,,,,,,,,,,
2025-11-21T1500,3345A,131.0577,45.7879,七台河市,中波台,细颗粒物(PM2.5),67,68,54,48,44,64,64,51,51,10,16,7,7,0.4,0.5
2025-11-21T1500,3637A,131.0176,45.7761,七台河市,人民广场,细颗粒物(PM2.5),64,60,61,46,50,63,63,51,51,14,18,7,7,0.4,0.5
2025-11-21T1500,3684A,130.8781,45.8222,七台河市,新建矿广场,细颗粒物(PM2.5),64,61,67,46,47,62,62,47,47,9,14,5,7,0.4,0.4
2025-11-21T1500,1779A,123.9305,47.3636,齐齐哈尔市,安居小区,,25,25,44,8,22,64,64,56,56,8,13,8,8,0.2,0.3
2025-11-21T1500,1780A,123.9488,47.3386,齐齐哈尔市,中心广场,,20,15,25,7,12,64,64,57,57,14,14,6,6,0.3,0.3
2025-11-21T1500,1781A,123.9483,47.3227,齐齐哈尔市,农牧车辆厂,,31,31,35,8,11,55,55,48,48,9,10,5,5,0.4,0.4
2025-11-21T1500,1783A,123.945,47.2988,齐齐哈尔市,市环境监测站,,32,32,33,10,15,64,64,54,54,9,12,8,6,0.5,0.5
2025-11-21T1500,3662A,123.6333,47.2075,齐齐哈尔市,富区青少年活动中心,,34,34,38,12,21,58,58,48,48,14,19,8,7,0.9,0.7
2025-11-21T1500,2591A,107.9783,26.5747,黔东南苗族侗族自治州,市环境监测站,,25,12,30,8,23,78,78,49,49,5,22,4,6,0.4,0.6
2025-11-21T1500,2881A,107.8908,26.5311,黔东南苗族侗族自治州,凯里学院,,26,22,28,11,22,83,83,53,53,8,18,4,4,0.3,0.3
2025-11-21T1500,2593A,107.5228,26.2403,黔南布依族苗族自治州,小围寨,,,,29,,20,,,59,,,7,,9,,0.5
2025-11-21T1500,3538A,107.5175,26.2978,黔南布依族苗族自治州,沙坝,,28,22,32,12,23,87,87,62,62,6,13,4,8,0.4,0.6
2025-11-21T1500,2589A,104.9022,25.0925,黔西南布依族苗族自治州,场坝街,,33,33,48,15,35,85,85,65,65,11,14,10,13,0.3,0.4
2025-11-21T1500,2590A,104.8811,25.0992,黔西南布依族苗族自治州,坪东大道,,36,,41,25,34,83,83,62,62,11,14,9,11,0.4,0.4
2025-11-21T1500,2502A,108.6236,21.9667,钦州市,市环保站,,29,27,36,7,17,90,90,71,71,8,14,4,5,0.6,0.9
2025-11-21T1500,2503A,108.6549,21.9481,钦州市,沙埠小学,,32,32,34,18,17,99,99,77,77,6,12,5,6,0.4,0.7
2025-11-21T1500,2504A,108.5989,21.7431,钦州市,港区一小,,35,35,44,21,27,89,89,65,65,14,26,6,9,0.6,0.6
2025-11-21T1500,3404A,108.5959,21.9633,钦州市,北职校,,29,17,31,12,18,90,90,69,69,4,10,7,8,0.5,0.6
2025-11-21T1500,1043A,119.7493,40.0116,秦皇岛市,第一关,,25,,32,11,19,80,80,62,62,9,43,5,7,0.2,0.4
2025-11-21T1500,1044A,119.5897,39.9499,秦皇岛市,监测站,,38,38,49,7,17,70,70,48,48,20,44,8,10,0.4,0.7
2025-11-21T1500,1046A,119.5251,39.9041,秦皇岛市,建设大厦,,23,23,37,7,19,70,70,50,50,16,36,4,8,0.2,0.5
2025-11-21T1500,3132A,119.610547,39.943889,秦皇岛市,文明里,,32,32,37,9,16,63,63,44,44,11,31,10,11,0.3,0.5
2025-11-21T1500,4198A,119.5090,39.8253,秦皇岛市,北戴河轮滑馆,,22,22,33,3,14,69,69,51,51,5,24,6,12,0.4,0.7
2025-11-21T1500,1307A,120.6659,36.2403,青岛市,仰口,,,,,,,,,,,,,,,,
2025-11-21T1500,1310A,120.4134,36.0658,青岛市,市南区东部子站,,31,31,70,9,33,78,78,51,51,18,43,9,12,0.5,0.6
2025-11-21T1500,1311A,120.3664,36.1032,青岛市,四方区子站,,31,31,82,19,50,80,80,56,56,17,40,16,8,0.3,0.5
2025-11-21T1500,1312A,120.2994,36.054,青岛市,市南区西部子站,,34,34,72,17,34,75,75,42,42,21,42,10,10,0.4,0.6
2025-11-21T1500,1313A,120.4581,36.0858,青岛市,崂山区子站,,27,27,57,7,25,80,80,61,61,18,35,11,12,0.5,0.6
2025-11-21T1500,1315A,120.3999,36.3083,青岛市,城阳区子站,,36,36,112,17,55,88,88,58,58,18,48,7,10,0.5,1
2025-11-21T1500,3362A,120.5014,36.4034,青岛市,即墨2号,,44,44,108,18,71,80,80,51,51,15,44,7,12,0.4,0.8
2025-11-21T1500,3642A,120.3503,36.0736,青岛市,市北区南部,,47,47,85,12,38,71,71,44,44,20,40,4,7,0.2,0.5
2025-11-21T1500,3643A,120.3948,36.1805,青岛市,李沧区北部,,32,31,85,22,52,72,72,52,52,19,49,8,11,0.5,0.8
2025-11-21T1500,4290A,120.1969,35.9546,青岛市,珠江路669号,,26,22,54,10,26,82,82,64,64,15,38,10,12,0.3,0.5
2025-11-21T1500,4291A,120.0424,35.8656,青岛市,黄岛区人民政府广场,,46,46,65,7,29,82,82,59,59,20,43,9,9,0.6,0.7
2025-11-21T1500,1702A,113.0426,23.691,清远市,环保大楼,,,,,,,,,,,,,,,,
2025-11-21T1500,1703A,113.0208,23.7106,清远市,凤城街办,,31,18,25,12,15,97,97,83,83,14,19,8,9,0.4,0.5
2025-11-21T1500,3025A,113.0477,23.6344,清远市,技师学院,,31,22,27,10,13,99,99,77,77,12,17,6,9,0.3,0.4
2025-11-21T1500,3318A,112.9903,23.7403,清远市,清新太和,,34,20,23,14,14,106,106,92,92,4,10,11,11,0.3,0.3
2025-11-21T1500,3455A,113.076,23.7198,清远市,清城东城,,34,20,25,12,14,107,107,88,88,10,14,10,11,0.3,0.4
2025-11-21T1500,2661A,107.6325,35.7357,庆阳市,庆阳五中,细颗粒物(PM2.5),63,68,83,45,41,94,94,60,60,20,29,7,7,0.3,0.7
2025-11-21T1500,2662A,107.6364,35.7067,庆阳市,市环保局,颗粒物(PM10),58,66,74,32,33,98,98,66,66,18,22,10,8,0.4,0.6
2025-11-21T1500,1916A,103.7897,25.5035,曲靖市,环境监测站,细颗粒物(PM2.5),67,76,46,48,29,30,30,40,28,25,20,2,3,0.7,0.6
2025-11-21T1500,1917A,103.8,25.5364,曲靖市,烟厂办公区,颗粒物(PM10),61,72,46,41,29,32,32,37,30,22,18,3,6,0.6,0.6
2025-11-21T1500,3376A,103.7947,25.462,曲靖市,南苑二区,细颗粒物(PM2.5),65,67,46,47,31,44,44,45,34,18,18,4,4,0.8,0.8
2025-11-21T1500,3377A,103.7444,25.5261,曲靖市,曲靖师范学院,细颗粒物(PM2.5),85,79,47,63,37,34,34,32,30,21,20,2,4,0.5,0.5
2025-11-21T1500,1264A,118.8692,28.9398,衢州市,环保大楼,,36,36,56,21,34,95,95,60,60,15,41,6,8,0.3,0.7
2025-11-21T1500,1265A,118.8709,28.9666,衢州市,实验学校,,31,27,48,20,32,99,99,59,59,14,43,5,7,0.4,0.7
2025-11-21T1500,1266A,118.8621,28.9808,衢州市,衢州学院,,30,27,50,17,30,95,95,56,56,9,42,9,10,0.4,0.7
2025-11-21T1500,1611A,118.5819,24.9117,泉州市,涂山街,,40,32,33,16,18,125,125,92,92,8,12,4,4,0.4,0.4
2025-11-21T1500,1612A,118.5972,24.8978,泉州市,津头埔,,37,37,34,18,20,118,118,85,85,15,19,4,4,0.4,0.4
2025-11-21T1500,1613A,118.6663,24.9424,泉州市,万安,,47,47,36,19,17,123,123,91,91,11,15,5,4,0.4,0.4
2025-11-21T1500,1614A,118.6117,24.9604,泉州市,清源山,,,,38,,19,,,88,,,13,,4,,0.3
2025-11-21T1500,3529A,118.6333,24.9264,泉州市,城华南路,,38,38,31,19,16,120,120,90,90,17,18,6,5,0.5,0.5
2025-11-21T1500,2626A,88.8876,29.2718,日喀则市,日喀则监测站,,35,12,29,3,15,112,112,56,56,5,20,12,14,0.2,0.6
2025-11-21T1500,3726A,88.8781,29.2426,日喀则市,林业技术推广中心,,33,14,34,3,14,105,105,58,58,3,10,7,7,0.1,0.3
2025-11-21T1500,1659A,119.471,35.4209,日照市,监测站,颗粒物(PM10),58,66,74,37,40,75,75,47,47,34,54,15,11,1.0,0.9
2025-11-21T1500,1660A,119.523,35.4216,日照市,市政府广场,颗粒物(PM10),63,75,53,33,23,64,64,50,50,42,31,17,11,1.2,0.8
