timepoint,stationcode,longitude,latitude,area,positionname,primarypollutant,aqi,pm10,pm10_24h,pm2_5,pm2_5_24h,o3,o3_24h,o3_8h,o3_8h_24h,no2,no2_24h,so2,so2_24h,co,co_24h
2023-07-18T22:00:00,1001A,116.3621,39.8784,北京市,万寿西宫,细颗粒物(PM2.5),63,65,53,45,31,198,160,190,187,22,26,2,2,0.6,0.7
2023-07-18T22:00:00,1002A,116.2202,40.2915,北京市,定陵,,45,45,43,21,25,291,135,238,194,10,13,3,3,0.4,0.6
2023-07-18T22:00:00,1003A,116.4174,39.9289,北京市,东四,臭氧1小时,82,67,57,38,32,218,185,206,201,17,21,5,5,0.5,0.5
2023-07-18T22:00:00,1004A,116.4072,39.8863,北京市,天坛,细颗粒物(PM2.5),58,55,52,41,30,206,137,196,183,19,28,1,3,0.5,0.5
2023-07-18T22:00:00,1005A,116.462,39.9365,北京市,农展馆,臭氧1小时,70,65,59,36,31,226,176,202,194,19,24,3,2,0.5,0.5
2023-07-18T22:00:00,1006A,116.3392,39.9295,北京市,官园,臭氧1小时,82,64,55,37,34,216,185,201,200,17,21,2,5,0.5,0.4
2023-07-18T22:00:00,1007A,116.2878,39.9611,北京市,海淀万柳,颗粒物(PM10),57,63,61,33,30,210,159,196,184,25,29,1,2,0.5,0.5
2023-07-18T22:00:00,1008A,116.6636,40.135,北京市,顺义新城,,38,12,45,6,23,239,120,202,162,11,20,3,2,0.2,0.4
2023-07-18T22:00:00,1009A,116.6275,40.3275,北京市,怀柔镇,,35,15,42,8,23,296,110,229,174,16,18,3,3,0.5,0.7
2023-07-18T22:00:00,1010A,116.2296,40.217,北京市,昌平镇,,37,23,50,10,27,275,117,225,177,14,21,1,2,0.2,0.5
2023-07-18T22:00:00,1011A,116.3966,39.9821,北京市,奥体中心,,45,45,56,23,29,185,132,172,166,28,29,3,2,0.5,0.5
2023-07-18T22:00:00,1012A,116.184,39.9136,北京市,古城,颗粒物(PM10),57,63,67,34,34,204,132,196,177,26,26,1,1,0.5,0.5
2023-07-18T22:00:00,1015A,117.1444,39.1661,天津市,勤俭道,颗粒物(PM10),51,51,51,30,32,255,154,228,215,22,16,10,9,0.8,0.7
2023-07-18T22:00:00,1017A,117.237,39.1082,天津市,大直沽八号路,颗粒物(PM10),56,61,61,33,33,228,131,208,193,22,22,3,4,0.9,0.6
2023-07-18T22:00:00,1018A,117.202,39.0927,天津市,前进道,颗粒物(PM10),52,53,49,32,31,235,136,210,196,22,21,5,6,1.0,0.8
2023-07-18T22:00:00,1019A,117.1837,39.2133,天津市,淮河道,臭氧1小时,55,50,52,31,32,265,164,229,212,24,21,9,9,0.7,0.7
2023-07-18T22:00:00,1021A,117.307,39.0877,天津市,跃进路,颗粒物(PM10),56,61,58,37,32,248,120,219,197,33,22,8,7,0.9,0.7
2023-07-18T22:00:00,1023A,117.707,39.0343,天津市,第四大街,颗粒物(PM10),56,61,50,31,23,210,113,186,161,30,25,15,9,0.8,0.7
2023-07-18T22:00:00,1024A,117.457,38.8394,天津市,永明路,,50,50,45,29,26,220,131,199,182,25,22,10,9,0.9,0.7
2023-07-18T22:00:00,1026A,117.764,39.1587,天津市,汉北路,颗粒物(PM10),55,60,47,32,24,258,112,217,170,32,20,6,5,0.6,0.6
2023-07-18T22:00:00,1027A,117.157,38.9194,天津市,团泊洼,,47,47,45,25,29,238,112,209,182,25,24,4,4,0.8,0.6
2023-07-18T22:00:00,1029A,114.4422,38.0444,石家庄市,职工医院,细颗粒物(PM2.5),67,65,51,48,24,229,167,206,183,10,21,4,6,0.6,0.5
2023-07-18T22:00:00,1030A,114.6063,38.0266,石家庄市,高新区,细颗粒物(PM2.5),60,55,53,43,29,254,157,219,195,20,20,1,3,0.5,0.5
2023-07-18T22:00:00,1031A,114.4898,38.1328,石家庄市,西北水源,臭氧1小时,78,61,58,44,26,230,182,209,196,14,21,2,3,0.5,0.4
2023-07-18T22:00:00,1032A,114.4586,38.0058,石家庄市,西南高教,颗粒物(PM10),55,60,48,36,23,238,162,204,178,12,22,1,4,0.6,0.6
2023-07-18T22:00:00,1033A,114.5331,38.0178,石家庄市,世纪公园,臭氧1小时,58,59,46,40,26,214,166,191,175,15,20,4,5,0.7,0.6
2023-07-18T22:00:00,1034A,114.509,38.0457,石家庄市,人民会堂,臭氧1小时,77,64,54,41,28,227,181,207,191,10,18,3,5,0.5,0.4
2023-07-18T22:00:00,1035A,114.3524,37.8911,石家庄市,封龙山,臭氧1小时,73,78,47,34,25,208,178,196,185,16,10,6,4,0.8,0.7
2023-07-18T22:00:00,1037A,118.131,39.6363,唐山市,雷达站,,49,49,54,13,19,226,124,190,152,18,24,5,4,0.7,0.6
2023-07-18T22:00:00,1038A,118.1725,39.6334,唐山市,物资局,,50,50,56,26,24,212,94,192,159,26,28,5,5,0.5,0.7
2023-07-18T22:00:00,1040A,118.1705,39.6506,唐山市,十二中,,49,49,55,28,33,217,115,188,162,14,24,5,5,0.6,0.7
2023-07-18T22:00:00,1041A,118.1869,39.622,唐山市,小山,,40,40,57,18,24,211,93,189,155,21,29,5,6,0.5,0.7
2023-07-18T22:00:00,1042A,119.5134,39.8207,秦皇岛市,北戴河环保局,,45,38,28,14,9,211,142,182,178,6,13,3,3,0.6,0.6
2023-07-18T22:00:00,1043A,119.7493,40.0116,秦皇岛市,第一关,颗粒物(PM10),57,64,48,24,19,201,47,186,160,76,39,3,3,0.6,0.7
2023-07-18T22:00:00,1044A,119.5897,39.9499,秦皇岛市,监测站,,48,48,48,21,17,189,105,177,156,24,37,2,4,0.4,0.7
2023-07-18T22:00:00,1046A,119.5251,39.9041,秦皇岛市,建设大厦,,47,47,52,14,15,218,104,202,175,30,26,9,8,0.4,0.8
2023-07-18T22:00:00,1048A,114.5302,36.6116,邯郸市,东污水处理厂,细颗粒物(PM2.5),55,46,51,39,36,236,142,210,180,27,25,4,6,0.6,0.6
2023-07-18T22:00:00,1049A,114.4918,36.5713,邯郸市,矿院,,49,49,48,34,35,227,143,210,186,17,20,4,18,0.5,0.6
2023-07-18T22:00:00,1050A,114.484,36.6133,邯郸市,丛台公园,臭氧1小时,68,45,54,31,32,238,174,216,192,5,18,3,8,0.5,0.7
2023-07-18T22:00:00,1051A,115.493,38.8632,保定市,游泳馆,细颗粒物(PM2.5),60,55,43,43,27,230,144,205,183,16,13,6,7,0.4,0.3
2023-07-18T22:00:00,1052A,115.5213,38.8959,保定市,华电二区,颗粒物(PM10),61,71,44,35,20,225,150,200,182,12,14,5,5,0.4,0.3
2023-07-18T22:00:00,1053A,115.4713,38.9108,保定市,接待中心,颗粒物(PM10),52,53,48,33,23,218,154,192,175,10,12,2,2,0.5,0.4
2023-07-18T22:00:00,1054A,115.4612,38.8416,保定市,地表水厂,颗粒物(PM10),62,73,54,39,24,206,134,190,171,26,23,8,9,0.6,0.5
2023-07-18T22:00:00,1056A,115.5086,38.8639,保定市,监测站,细颗粒物(PM2.5),93,84,54,69,37,230,152,211,191,20,17,6,8,0.5,0.5
2023-07-18T22:00:00,1057A,114.8883,40.8336,张家口市,人民公园,臭氧1小时,78,49,39,26,16,224,182,219,214,15,8,4,4,0.4,0.3
2023-07-18T22:00:00,1059A,114.8687,40.8042,张家口市,五金库,臭氧1小时,80,69,51,38,24,214,184,210,205,17,15,7,8,0.6,0.5
2023-07-18T22:00:00,1060A,114.8902,40.762,张家口市,世纪豪园,臭氧1小时,78,55,52,39,28,220,182,214,209,10,10,8,12,0.3,0.3
2023-07-18T22:00:00,1061A,114.8916,40.8661,张家口市,北泵房,臭氧1小时,60,58,43,31,20,243,168,230,222,18,9,7,8,0.8,0.7
2023-07-18T22:00:00,1062A,117.9531,40.9081,承德市,铁路,,50,50,43,30,23,200,95,189,164,83,25,7,8,0.6,0.6
2023-07-18T22:00:00,1063A,117.9392,40.9763,承德市,中国银行,细颗粒物(PM2.5),60,61,46,43,25,217,142,202,178,29,24,10,11,0.7,0.6
2023-07-18T22:00:00,1064A,117.9503,40.928,承德市,开发区,,47,41,39,25,23,211,150,198,177,18,18,6,6,0.5,0.5
2023-07-18T22:00:00,1065A,117.8051,40.9655,承德市,文化中心,颗粒物(PM10),54,57,51,32,26,212,159,194,182,25,25,9,18,0.6,0.6
2023-07-18T22:00:00,1066A,117.9268,41.0026,承德市,离宫,细颗粒物(PM2.5),64,59,39,46,32,196,106,187,160,19,17,6,8,0.5,0.5
2023-07-18T22:00:00,1067A,116.6708,39.5111,廊坊市,药材公司,细颗粒物(PM2.5),74,96,62,54,35,239,149,212,198,25,18,2,3,0.6,0.5
2023-07-18T22:00:00,1068A,116.7214,39.5589,廊坊市,开发区,细颗粒物(PM2.5),84,90,49,62,35,243,176,215,209,16,11,3,4,0.6,0.5
2023-07-18T22:00:00,1070A,116.7244,39.5269,廊坊市,北华航天学院,细颗粒物(PM2.5),85,86,57,63,39,230,170,215,207,16,15,5,7,0.6,0.5
2023-07-18T22:00:00,1071A,116.8842,38.2991,沧州市,沧县城建局,颗粒物(PM10),54,58,51,32,22,213,152,191,178,20,25,6,7,0.4,0.3
2023-07-18T22:00:00,1072A,116.8584,38.3254,沧州市,电视转播站,,50,46,43,34,28,209,160,200,189,16,19,10,10,0.4,0.4
2023-07-18T22:00:00,1073A,116.8709,38.3228,沧州市,市环保局,颗粒物(PM10),51,52,47,28,28,292,145,198,178,24,28,5,6,0.3,0.3
2023-07-18T22:00:00,1074A,115.6838,37.7541,衡水市,电机北厂,细颗粒物(PM2.5),65,53,59,47,33,234,161,212,194,10,14,4,7,0.5,0.5
2023-07-18T22:00:00,1075A,115.6303,37.7316,衡水市,市监测站,颗粒物(PM10),60,70,60,40,33,230,129,209,183,19,16,13,16,0.7,0.7
2023-07-18T22:00:00,1077A,114.4704,37.0886,邢台市,达活泉,颗粒物(PM10),67,84,67,35,25,229,141,206,190,12,11,21,12,0.7,0.7
2023-07-18T22:00:00,1078A,114.5062,37.0349,邢台市,邢师高专,颗粒物(PM10),64,77,65,38,32,250,113,228,194,36,32,6,7,0.4,0.5
2023-07-18T22:00:00,1079A,114.5237,37.0851,邢台市,路桥公司,细颗粒物(PM2.5),60,64,52,43,31,252,159,230,204,9,12,8,8,0.5,0.6
2023-07-18T22:00:00,1080A,114.4725,37.0719,邢台市,市环保局,颗粒物(PM10),68,86,65,42,30,248,143,221,202,22,17,7,8,0.5,0.5
2023-07-18T22:00:00,1081A,112.522,37.8873,太原市,尖草坪,臭氧1小时,55,42,53,21,24,191,164,185,182,13,24,7,8,0.5,0.6
2023-07-18T22:00:00,1083A,112.434,38.0108,太原市,上兰,,,,,,,,,,,,,,,,
2023-07-18T22:00:00,1084A,112.469,37.7124,太原市,晋源,,40,39,46,27,29,188,128,176,161,34,22,4,6,0.5,0.6
2023-07-18T22:00:00,1085A,112.5583,37.7394,太原市,小店,,48,48,51,27,25,196,148,176,169,25,28,6,7,0.5,0.5
2023-07-18T22:00:00,1086A,112.5369,37.8692,太原市,桃园,臭氧1小时,52,46,48,24,25,189,161,184,179,13,26,6,7,0.5,0.6
2023-07-18T22:00:00,1087A,112.57,37.8195,太原市,坞城,,50,39,49,24,25,196,160,183,176,14,23,6,9,0.5,0.8
2023-07-18T22:00:00,1088A,112.549,37.9854,太原市,南寨,颗粒物(PM10),55,60,57,27,28,221,129,198,173,31,44,6,10,0.5,0.8
2023-07-18T22:00:00,1090A,111.6507,40.7517,呼和浩特市,呼市一监,颗粒物(PM10),71,92,54,40,27,233,134,224,210,33,20,6,7,0.7,0.6
2023-07-18T22:00:00,1091A,111.6572,40.8033,呼和浩特市,小召,颗粒物(PM10),69,88,58,38,28,222,162,215,206,44,29,9,10,0.8,0.7
2023-07-18T22:00:00,1094A,111.7516,40.8369,呼和浩特市,如意水处理厂,颗粒物(PM10),63,76,62,34,25,238,143,232,218,42,28,10,11,0.8,0.6
2023-07-18T22:00:00,1095A,111.7276,40.8062,呼和浩特市,二十九中,颗粒物(PM10),64,77,58,44,29,232,131,224,211,60,31,8,9,0.9,0.7
2023-07-18T22:00:00,1096A,111.5512,40.7866,呼和浩特市,工大金川校区,颗粒物(PM10),67,83,60,37,28,220,116,208,192,54,30,8,9,0.8,0.7
2023-07-18T22:00:00,1097A,111.717,40.7612,呼和浩特市,化肥厂生活区,颗粒物(PM10),81,112,77,38,28,206,100,193,174,56,32,7,8,1.0,0.8
2023-07-18T22:00:00,1098A,123.6836,41.9339,沈阳市,森林路,,,,,,,,,,,,,,,,
2023-07-18T22:00:00,1099A,123.505,41.7406,沈阳市,浑南东路,,37,37,55,24,30,247,90,221,187,33,37,7,15,0.6,1.3
2023-07-18T22:00:00,1100A,123.4231,41.6989,沈阳市,新秀街,,46,46,51,23,22,234,80,198,163,35,36,5,21,0.5,1.1
2023-07-18T22:00:00,1102A,123.5903,41.8411,沈阳市,东陵路,,36,14,52,25,27,231,89,209,181,21,22,8,14,0.6,1.1
2023-07-18T22:00:00,1103A,123.4264,41.8467,沈阳市,陵东街,,35,35,47,19,26,230,102,200,176,14,32,6,9,0.7,1.2
2023-07-18T22:00:00,1104A,123.4114,41.7653,沈阳市,文化路,,38,38,55,24,23,236,82,205,168,31,32,7,20,0.6,1.2
2023-07-18T22:00:00,1105A,123.4678,41.7867,沈阳市,小河沿,,36,36,54,22,29,227,84,203,173,22,35,5,12,0.6,1.3
2023-07-18T22:00:00,1106A,123.4017,41.7972,沈阳市,太原街,颗粒物(PM10),51,52,52,24,33,251,104,216,183,22,32,5,15,0.5,1.1
2023-07-18T22:00:00,1108A,123.3783,41.9228,沈阳市,京沈街,,38,28,60,26,30,241,94,216,184,24,37,8,14,0.5,1.1
2023-07-18T22:00:00,1109A,121.612,38.9741,大连市,甘井子,,50,50,36,29,19,146,74,129,108,41,35,5,5,0.6,0.5
2023-07-18T22:00:00,1110A,121.565,38.9511,大连市,周水子,,36,29,27,25,18,142,90,122,111,28,31,5,5,0.7,0.6
2023-07-18T22:00:00,1111A,121.5637,38.8845,大连市,星海三站,,40,40,35,23,16,117,66,94,88,31,26,4,4,0.5,0.5
2023-07-18T22:00:00,1112A,121.6302,38.9117,大连市,青泥洼桥,,50,50,22,29,14,116,63,110,95,36,21,5,5,0.7,0.6
2023-07-18T22:00:00,1113A,121.6251,38.8638,大连市,傅家庄,颗粒物(PM10),68,86,34,18,12,131,109,104,104,17,17,9,9,0.5,0.5
2023-07-18T22:00:00,1114A,121.5213,38.8661,大连市,七贤岭,,38,28,22,26,15,130,79,122,115,15,14,5,6,0.4,0.3
2023-07-18T22:00:00,1115A,121.2529,38.8061,大连市,旅顺,,42,21,22,28,14,146,27,120,111,83,27,9,6,0.4,0.3
2023-07-18T22:00:00,1116A,121.7485,39.1311,大连市,金州,,41,41,27,23,18,175,96,155,131,17,18,7,8,0.7,0.7
2023-07-18T22:00:00,1117A,121.7811,39.0496,大连市,开发区,,43,31,23,30,16,120,68,109,98,46,33,7,7,0.7,0.5
2023-07-18T22:00:00,1118A,121.9762,39.0631,大连市,双D港,,31,31,22,20,15,136,69,99,89,30,26,7,8,0.6,0.5
2023-07-18T22:00:00,1119A,125.3325,43.9166,长春市,食品厂,,44,44,31,25,12,93,30,81,68,53,29,5,6,0.7,0.4
2023-07-18T22:00:00,1120A,125.2863,43.9027,长春市,客车厂,颗粒物(PM10),59,67,25,30,11,98,16,87,67,60,24,6,5,0.7,0.5
2023-07-18T22:00:00,1121A,125.2841,43.8463,长春市,邮电学院,,34,34,25,17,9,133,36,108,89,29,14,4,5,0.5,0.4
2023-07-18T22:00:00,1122A,125.3716,43.8772,长春市,劳动公园,颗粒物(PM10),64,77,27,18,8,119,30,102,90,52,21,5,6,0.6,0.4
2023-07-18T22:00:00,1123A,125.3297,43.8805,长春市,园林处,,,49,22,,10,128,64,96,92,36,21,4,4,0.5,0.4
2023-07-18T22:00:00,1124A,125.4605,43.79,长春市,净月潭,,24,24,17,11,6,123,36,98,80,6,8,3,3,0.3,0.2
2023-07-18T22:00:00,1125A,125.7194,43.515,长春市,甩湾子,,30,30,19,10,6,121,42,105,94,15,8,5,5,0.7,0.6
2023-07-18T22:00:00,1126A,125.3863,43.8447,长春市,经开区环卫处,颗粒物(PM10),64,78,31,18,8,128,16,109,92,77,25,5,5,0.5,0.4
2023-07-18T22:00:00,1127A,125.245,43.7783,长春市,高新区管委会,,33,33,26,13,8,120,8,102,75,55,21,4,4,0.4,0.3
2023-07-18T22:00:00,1128A,125.1761,43.8325,长春市,岱山公园,"颗粒物(PM10),细颗粒物(PM2.5)",53,55,22,37,19,106,5,93,65,79,26,4,4,0.7,0.4
2023-07-18T22:00:00,1129A,126.5422,45.755,哈尔滨市,岭北,,18,16,15,9,8,108,56,95,88,26,12,11,12,0.4,0.4
2023-07-18T22:00:00,1130A,126.561,45.8167,哈尔滨市,松北商大,,26,26,21,7,6,86,16,74,65,29,19,5,5,0.6,0.6
2023-07-18T22:00:00,1131A,126.979,45.5419,哈尔滨市,阿城会宁,,,,24,39,12,87,5,67,58,51,24,9,12,1.0,0.7
2023-07-18T22:00:00,1132A,126.599,45.7222,哈尔滨市,南岗学府路,颗粒物(PM10),61,72,34,27,15,93,9,81,69,62,20,5,5,1.2,0.8
2023-07-18T22:00:00,1133A,126.689,45.7733,哈尔滨市,太平宏伟公园,颗粒物(PM10),74,97,30,38,10,77,12,71,56,48,19,5,5,0.9,0.5
2023-07-18T22:00:00,1134A,126.635,45.7667,哈尔滨市,道外承德广场,,,,23,,8,87,,80,77,50,21,4,9,0.6,0.7
2023-07-18T22:00:00,1135A,126.685,45.7319,哈尔滨市,香坊红旗大街,颗粒物(PM10),63,75,32,32,15,94,13,82,71,77,28,9,7,1.1,0.6
2023-07-18T22:00:00,1136A,126.6411,45.7258,哈尔滨市,动力和平路,,,58,29,,,100,15,84,74,73,31,7,7,0.9,0.6
2023-07-18T22:00:00,1137A,126.593,45.7478,哈尔滨市,道里建国路,,26,24,22,8,8,91,38,87,80,51,24,4,4,0.8,0.6
2023-07-18T22:00:00,1138A,126.615,45.61,哈尔滨市,平房东轻厂,,44,44,23,10,7,103,11,79,61,65,25,8,8,0.9,0.7
2023-07-18T22:00:00,1139A,126.595,45.9855,哈尔滨市,呼兰师专,,19,19,22,7,6,80,51,73,68,16,12,8,8,0.4,0.4
2023-07-18T22:00:00,1140A,126.6206,45.6842,哈尔滨市,省农科院,,50,50,28,17,10,111,9,92,79,81,31,12,12,0.8,0.5
2023-07-18T22:00:00,1141A,121.4,31.238,上海市,普陀,,10,8,21,0,8,106,29,73,59,14,16,4,4,0.4,0.4
2023-07-18T22:00:00,1142A,121.478,31.2036,上海市,十五厂,,14,14,16,8,10,89,24,67,52,13,8,11,8,0.5,0.4
2023-07-18T22:00:00,1143A,121.467,31.3008,上海市,虹口,,10,8,14,5,7,63,30,52,42,14,14,6,7,0.5,0.6
2023-07-18T22:00:00,1144A,121.412,31.1654,上海市,徐汇上师大,,13,13,18,2,7,102,22,76,61,19,15,4,4,0.8,0.7
2023-07-18T22:00:00,1145A,121.536,31.2659,上海市,杨浦四漂,,10,10,16,5,9,73,30,64,46,12,8,7,7,0.4,0.4
2023-07-18T22:00:00,1147A,121.425,31.2261,上海市,静安监测站,,14,14,15,8,8,85,22,56,43,19,17,3,3,0.3,0.3
2023-07-18T22:00:00,1148A,121.703,31.1907,上海市,浦东川沙,,14,6,18,5,10,62,44,53,46,12,20,6,6,0.3,0.4
2023-07-18T22:00:00,1149A,121.533,31.2284,上海市,浦东新区监测站,,12,9,17,6,8,90,38,66,52,14,15,8,8,0.4,0.6
2023-07-18T22:00:00,1150A,121.577,31.2071,上海市,浦东张江,,11,9,19,7,12,77,34,56,44,16,20,5,6,0.5,0.8
2023-07-18T22:00:00,1151A,118.8086,32.1065,南京市,迈皋桥,,17,17,15,7,6,90,36,78,64,25,14,3,4,0.4,0.4
2023-07-18T22:00:00,1152A,118.7538,32.0551,南京市,草场门,,22,22,15,5,6,99,46,87,75,18,18,5,3,0.5,0.5
2023-07-18T22:00:00,1153A,118.7794,32.0745,南京市,山西路,,17,17,22,9,5,100,44,88,74,17,15,4,4,0.1,0.1
2023-07-18T22:00:00,1154A,118.7752,32.0023,南京市,中华门,,17,17,15,7,6,100,36,88,76,21,14,4,5,0.8,0.7
2023-07-18T22:00:00,1155A,118.8109,32.0309,南京市,瑞金路,,19,19,16,7,7,97,33,86,74,18,11,5,3,0.2,0.2
2023-07-18T22:00:00,1156A,118.7997,32.0754,南京市,玄武湖,,16,16,17,5,6,89,25,75,62,31,19,7,6,0.5,0.4
2023-07-18T22:00:00,1157A,118.6414,32.0931,南京市,浦口,,20,20,17,9,9,96,34,79,64,16,11,3,5,0.5,0.8
2023-07-18T22:00:00,1158A,118.7356,31.9996,南京市,奥体中心,,21,21,20,12,11,111,43,96,86,20,14,7,6,0.4,0.3
2023-07-18T22:00:00,1159A,118.9125,32.1028,南京市,仙林大学城,,12,12,15,7,8,105,37,87,74,16,13,8,7,0.3,0.4
2023-07-18T22:00:00,1160A,120.561,31.2472,苏州市,上方山,,26,9,25,18,14,108,30,94,77,10,10,5,5,0.1,0.4
2023-07-18T22:00:00,1162A,120.591,31.3019,苏州市,彩香,,10,9,21,6,14,126,29,106,83,7,7,6,6,0.4,0.6
2023-07-18T22:00:00,1163A,120.596,31.3264,苏州市,轧钢厂,,9,8,23,4,13,130,28,104,80,10,10,8,8,0.4,0.6
2023-07-18T22:00:00,1164A,120.613,31.2703,苏州市,吴中区,,12,12,24,3,13,140,30,108,87,16,13,7,7,0.4,0.7
2023-07-18T22:00:00,1165A,120.543,31.2994,苏州市,苏州新区,,15,13,21,10,12,132,32,110,86,7,10,7,8,0.5,0.7
2023-07-18T22:00:00,1166A,120.669,31.3097,苏州市,苏州工业园区,,9,8,18,4,12,129,28,100,82,8,7,9,9,0.4,0.7
2023-07-18T22:00:00,1167A,120.641,31.3708,苏州市,相城区,,9,5,20,2,12,116,26,90,71,10,10,9,8,0.6,0.9
2023-07-18T22:00:00,1168A,120.9098,31.9663,南通市,狼山街道,,,8,7,0,0,53,,48,43,15,7,,10,0.3,0.2
2023-07-18T22:00:00,1169A,120.86,32.0005,南通市,虹桥,,12,9,8,5,3,53,36,46,39,2,2,7,7,0.6,0.6
2023-07-18T22:00:00,1170A,120.87,32.02,南通市,城中,,12,7,4,0,1,52,38,45,40,1,2,8,7,0.2,0.3
2023-07-18T22:00:00,1171A,120.94,31.93,南通市,星湖花园,,10,2,4,0,0,53,32,48,40,14,8,4,4,0.4,0.3
2023-07-18T22:00:00,1172A,120.81,32.0417,南通市,紫琅学院,,14,14,7,0,0,50,28,43,36,14,6,4,4,0.4,0.4
2023-07-18T22:00:00,1173A,119.176,34.5885,连云港市,市环境监测站,,23,14,18,5,6,104,72,104,85,11,10,5,4,0.1,0
2023-07-18T22:00:00,1177A,117.179,34.2761,徐州市,黄河新村,,22,22,39,13,24,93,64,85,79,6,8,6,7,0.2,0.3
2023-07-18T22:00:00,1178A,117.1918,34.2384,徐州市,淮塔,,20,18,34,6,21,106,62,93,81,13,9,8,9,0.3,0.5
2023-07-18T22:00:00,1180A,117.256,34.2153,徐州市,新城区,,29,29,45,11,22,104,69,94,81,6,5,6,7,0.2,0.3
2023-07-18T22:00:00,1181A,117.244,34.2911,徐州市,桃园路,,22,22,44,9,19,101,68,98,89,9,8,7,9,0.3,0.4
2023-07-18T22:00:00,1182A,117.2933,34.2778,徐州市,农科院,,19,19,31,12,22,95,52,90,78,24,11,5,6,0.3,0.4
2023-07-18T22:00:00,1186A,119.389,32.3761,扬州市,邗江监测站,,14,14,16,7,7,68,24,56,49,15,9,3,4,0.4,0.5
2023-07-18T22:00:00,1188A,120.269,31.4867,无锡市,雪浪,,14,14,17,7,10,130,30,105,85,21,18,4,3,0.5,0.6
2023-07-18T22:00:00,1189A,120.275,31.6219,无锡市,黄巷,,10,9,18,2,7,126,27,90,71,20,17,6,6,0.7,0.8
2023-07-18T22:00:00,1190A,120.294,31.56,无锡市,曹张,,11,11,19,2,10,115,25,83,66,10,9,4,3,0.6,0.7
2023-07-18T22:00:00,1191A,120.242,31.5031,无锡市,漆塘,,11,9,16,2,8,138,34,107,87,15,14,7,5,0.5,0.7
2023-07-18T22:00:00,1192A,120.3489,31.5863,无锡市,东亭,,10,7,18,2,9,126,27,90,71,20,17,10,10,0.4,0.5
2023-07-18T22:00:00,1193A,120.354,31.5475,无锡市,旺庄,,12,12,13,0,7,138,29,100,79,15,10,6,6,0.4,0.5
2023-07-18T22:00:00,1194A,120.245,31.5631,无锡市,荣巷,,12,12,20,5,10,122,26,90,72,16,13,9,8,0.5,0.6
2023-07-18T22:00:00,1195A,120.299,31.6817,无锡市,堰桥,,10,7,12,7,6,118,28,84,63,13,11,6,6,0.6,0.7
2023-07-18T22:00:00,1196A,119.9633,31.762,常州市,市监测站,,11,11,17,7,12,89,22,72,51,22,17,6,7,0.5,0.6
2023-07-18T22:00:00,1200A,119.9468,31.7069,常州市,武进监测站,,18,18,21,5,9,107,24,85,63,16,12,9,9,0.5,0.5
2023-07-18T22:00:00,1201A,119.9255,31.9087,常州市,安家,,9,9,16,5,8,86,26,71,53,14,8,4,4,0.5,0.5
2023-07-18T22:00:00,1203A,119.6707,32.1875,镇江市,新区办事处,,10,8,15,4,11,77,29,62,53,15,15,2,2,0.3,0.3
2023-07-18T22:00:00,1204A,119.4974,32.1968,镇江市,职教中心,,12,11,15,5,9,91,20,72,55,23,11,2,2,0.4,0.4
2023-07-18T22:00:00,1205A,119.4303,32.1328,镇江市,丹徒区监测站,,12,12,18,7,8,94,36,76,65,12,10,5,5,0.5,0.5
2023-07-18T22:00:00,1206A,119.905,32.4878,泰州市,公园路,,10,2,8,2,8,67,29,57,49,9,8,7,8,0.4,0.4
2023-07-18T22:00:00,1207A,119.9189,32.4625,泰州市,莲花,,10,5,11,7,7,64,29,53,46,7,6,6,7,0.2,0.2
2023-07-18T22:00:00,1209A,119.888,32.4639,泰州市,留学生创业园,,10,10,12,4,6,62,30,53,46,5,4,7,7,0.6,0.6
2023-07-18T22:00:00,1210A,119.036,33.5981,淮安市,钵池山,,13,9,13,9,9,82,26,73,43,17,9,6,5,0.5,0.5
2023-07-18T22:00:00,1211A,119.007,33.575,淮安市,北京南路,,14,14,17,7,7,77,24,71,39,19,10,7,6,0.5,0.5
2023-07-18T22:00:00,1212A,118.989,33.6067,淮安市,市监测站,,12,12,16,0,4,88,32,78,46,10,6,7,7,0.5,0.5
2023-07-18T22:00:00,1213A,119.135,33.5039,淮安市,楚州区监测站,,15,15,13,1,2,76,25,68,38,11,6,6,6,0.6,0.6
2023-07-18T22:00:00,1214A,119.0186,33.6297,淮安市,淮阴区监测站,,22,22,16,8,8,84,24,78,43,20,9,8,7,0.3,0.3
2023-07-18T22:00:00,1215A,120.118,33.4022,盐城市,盐城电厂,,15,9,10,6,6,72,46,59,43,3,3,4,4,0.3,0.3
2023-07-18T22:00:00,1216A,120.156,33.3942,盐城市,市监测站,,14,6,6,2,1,65,42,49,43,5,3,2,2,0.2,0.2
2023-07-18T22:00:00,1218A,120.2144,33.38,盐城市,开发区管委会,,16,16,8,4,2,57,40,44,41,6,5,4,4,0.2,0.1
2023-07-18T22:00:00,1220A,118.293,33.9528,宿迁市,宿迁学院,,13,10,22,6,15,87,41,83,66,12,8,6,6,0.3,0.4
2023-07-18T22:00:00,1221A,118.2442,33.9592,宿迁市,宿迁中学,,15,10,22,5,14,87,45,82,68,8,8,5,5,0.4,0.4
2023-07-18T22:00:00,1223A,120.2072,30.2111,杭州市,滨江,,29,29,27,17,12,181,52,139,115,28,15,5,5,0.8,0.5
2023-07-18T22:00:00,1224A,120.0633,30.2747,杭州市,西溪,,36,36,29,20,13,188,44,144,108,31,24,6,6,0.8,0.7
2023-07-18T22:00:00,1226A,120.3461,30.3153,杭州市,下沙,,36,36,30,18,15,176,59,147,116,27,22,4,4,0.5,0.5
2023-07-18T22:00:00,1227A,120.1269,30.2456,杭州市,卧龙桥,,39,31,23,27,12,181,42,149,110,12,10,5,5,0.6,0.5
2023-07-18T22:00:00,1228A,120.1903,30.2692,杭州市,浙江农大,,32,28,22,22,15,168,81,137,114,18,15,6,6,0.4,0.3
2023-07-18T22:00:00,1230A,120.1197,30.3119,杭州市,和睦小学,,38,38,30,19,14,194,66,151,106,17,16,6,6,0.6,0.3
2023-07-18T22:00:00,1231A,120.3019,30.4183,杭州市,临平镇,,45,45,32,15,11,180,60,144,117,34,11,4,4,0.5,0.4
2023-07-18T22:00:00,1232A,120.2697,30.1819,杭州市,城厢镇,,23,10,29,16,13,178,64,146,121,16,17,6,6,0.6,0.6
2023-07-18T22:00:00,1233A,120.0883,30.1808,杭州市,云栖,,26,26,25,12,12,179,64,145,114,7,10,4,4,0.7,0.7
2023-07-18T22:00:00,1234A,121.8358,29.911,宁波市,区环保大楼,,18,18,21,10,12,178,52,132,88,18,23,2,2,0.4,0.5
2023-07-18T22:00:00,1235A,121.56,29.82,宁波市,万里学院,,,30,34,13,15,199,24,146,105,,21,4,5,0.6,0.5
2023-07-18T22:00:00,1236A,121.713,29.9572,宁波市,龙赛医院,,44,44,31,13,11,176,41,132,99,43,23,6,7,0.6,0.5
2023-07-18T22:00:00,1239A,121.633,29.7733,宁波市,钱湖水厂,,28,28,33,10,14,188,35,147,92,25,14,2,2,0.4,0.4
2023-07-18T22:00:00,1240A,121.5856,29.8635,宁波市,太古小学,,,26,27,13,10,185,52,144,107,36,18,7,7,,0.6
2023-07-18T22:00:00,1241A,121.524,29.8674,宁波市,市环境监测中心,,19,19,25,9,11,161,57,129,97,20,15,4,4,0.6,0.6
2023-07-18T22:00:00,1242A,120.634,28.0089,温州市,瓯海,,33,33,27,17,14,137,71,100,78,15,16,7,7,0.6,0.5
2023-07-18T22:00:00,1243A,120.6748,27.9939,温州市,南浦,,32,32,27,14,11,134,78,104,87,9,12,6,6,0.6,0.5
2023-07-18T22:00:00,1244A,120.76,27.9747,温州市,龙湾,,29,29,29,12,12,118,62,101,86,16,14,6,6,0.6,0.5
2023-07-18T22:00:00,1245A,120.6709,28.0167,温州市,市站,,24,24,33,12,15,113,48,83,62,19,17,5,5,0.6,0.5
2023-07-18T22:00:00,1247A,120.6053,29.9928,绍兴市,城东开发委,,48,47,38,33,24,191,65,148,121,23,18,5,5,0.7,0.6
2023-07-18T22:00:00,1250A,120.0751,30.8669,湖州市,城西水厂,,35,23,29,24,21,145,22,115,84,43,31,2,2,0.6,0.6
2023-07-18T22:00:00,1252A,120.7436,30.778,嘉兴市,清河小学,,32,32,28,13,14,158,80,131,123,15,15,6,6,0.5,0.7
2023-07-18T22:00:00,1253A,120.726,30.7478,嘉兴市,嘉兴学院,,33,28,23,23,16,161,90,134,127,13,14,3,1,0.4,0.5
2023-07-18T22:00:00,1255A,121.273,28.6459,台州市,黄岩环保大楼,,19,16,20,13,12,133,17,88,44,18,11,3,3,0.5,0.4
2023-07-18T22:00:00,1256A,121.419,28.6542,台州市,台州环保大楼,,35,35,26,14,11,129,15,92,44,34,15,2,2,0.6,0.4
2023-07-18T22:00:00,1257A,121.377,28.5773,台州市,路桥田洋王,,38,38,21,16,12,115,12,82,39,39,20,2,2,0.6,0.5
2023-07-18T22:00:00,1258A,122.122,30.0203,舟山市,定海檀枫,,23,23,22,14,10,172,71,118,112,17,15,7,6,0.5,0.5
2023-07-18T22:00:00,1259A,122.3094,29.9558,舟山市,普陀东港,,43,26,23,14,10,160,137,153,145,7,16,4,5,0.4,0.4
2023-07-18T22:00:00,1260A,122.19,29.9944,舟山市,临城新区,,30,30,27,16,12,241,85,170,135,11,17,3,3,0.4,0.3
2023-07-18T22:00:00,1262A,119.647,29.077,金华市,十五中,,20,13,32,6,12,154,61,137,93,6,17,2,3,0.3,0.4
2023-07-18T22:00:00,1263A,119.686,29.1029,金华市,监测站,,20,11,29,5,12,155,61,135,91,6,17,3,4,0.3,0.4
2023-07-18T22:00:00,1264A,118.8692,28.9398,衢州市,环保大楼,,18,9,31,4,16,130,56,111,77,9,12,3,3,0.3,0.5
2023-07-18T22:00:00,1265A,118.8709,28.9666,衢州市,实验学校,,17,11,35,6,15,106,52,93,67,10,13,2,4,0.3,0.4
2023-07-18T22:00:00,1266A,118.8621,28.9808,衢州市,衢州学院,,17,16,29,6,13,117,54,106,75,16,15,3,4,0.4,0.5
2023-07-18T22:00:00,1267A,119.914,28.4514,丽水市,监测站大楼,,12,11,17,5,8,104,37,90,66,17,13,7,6,0.5,0.5
2023-07-18T22:00:00,1268A,119.93,28.4586,丽水市,莲都小学,,14,9,20,2,9,111,44,96,71,13,11,6,5,0.5,0.4
2023-07-18T22:00:00,1269A,119.879,28.4231,丽水市,余庄前,,11,10,17,5,6,105,16,88,59,22,15,5,5,0.4,0.4
2023-07-18T22:00:00,1270A,117.1959,31.7848,合肥市,明珠广场,细颗粒物(PM2.5),52,36,30,36,21,112,19,106,62,54,31,5,5,0.8,0.7
2023-07-18T22:00:00,1271A,117.3072,31.8764,合肥市,三里街,,29,29,25,19,15,91,33,75,65,31,17,4,4,0.4,0.4
2023-07-18T22:00:00,1272A,117.2588,31.8707,合肥市,琥珀山庄,,28,24,26,19,17,98,23,83,69,38,15,4,4,0.6,0.5
2023-07-18T22:00:00,1273A,117.1604,31.9052,合肥市,董铺水库,,32,24,25,22,13,95,46,86,79,15,12,2,3,0.3,0.3
2023-07-18T22:00:00,1274A,117.25,31.8571,合肥市,长江中路,,33,31,30,23,20,105,30,88,77,28,12,8,8,0.5,0.4
2023-07-18T22:00:00,1275A,117.266,31.9436,合肥市,庐阳区,,46,46,32,22,19,92,20,78,63,39,18,5,5,0.6,0.6
2023-07-18T22:00:00,1276A,117.336,31.8586,合肥市,瑶海区,,34,34,31,12,12,94,28,78,66,33,12,7,8,0.6,0.5
2023-07-18T22:00:00,1277A,117.3027,31.7964,合肥市,包河区,,45,36,31,31,19,95,29,74,55,48,30,6,5,0.5,0.5
2023-07-18T22:00:00,1278A,117.2776,31.7385,合肥市,滨湖新区,,28,28,33,19,20,114,68,90,80,10,17,5,4,0.4,0.5
2023-07-18T22:00:00,1279A,117.1318,31.8403,合肥市,高新区,,48,34,38,33,22,109,38,87,76,36,21,6,9,0.5,0.3
2023-07-18T22:00:00,1280A,119.3903,26.0543,福州市,鼓山,,,,,,,,,,,,,,,,
2023-07-18T22:00:00,1282A,119.2681,26.0504,福州市,师大,,34,34,28,12,11,100,49,88,83,17,15,5,5,0.4,0.4
2023-07-18T22:00:00,1283A,119.2984,26.1028,福州市,五四北路,,31,31,27,10,10,104,52,96,85,18,17,4,3,0.4,0.4
2023-07-18T22:00:00,1284A,119.2648,26.0768,福州市,杨桥西路,,31,31,30,6,7,97,50,85,81,14,15,3,3,0.3,0.2
2023-07-18T22:00:00,1285A,119.317,26.0746,福州市,紫阳,,26,26,28,4,8,97,48,90,81,12,16,2,2,0.4,0.4
2023-07-18T22:00:00,1286A,118.1608,24.8169,厦门市,溪东,,,,,,,,,,,,,,,,
2023-07-18T22:00:00,1287A,118.1514,24.4767,厦门市,洪文,,15,15,17,5,5,60,34,53,51,19,12,1,2,0.4,0.3
2023-07-18T22:00:00,1288A,118.0661,24.4444,厦门市,鼓浪屿,,14,14,14,6,7,52,38,43,42,4,7,1,1,0.4,0.4
2023-07-18T22:00:00,1290A,115.8931,28.6843,南昌市,省外办,,27,27,28,17,16,137,42,116,98,23,14,6,7,0.7,0.6
2023-07-18T22:00:00,1291A,115.8886,28.7003,南昌市,省林业公司,,25,19,22,17,14,132,50,118,96,23,12,4,5,0.7,0.6
2023-07-18T22:00:00,1292A,115.8126,28.7442,南昌市,林科所,,15,9,17,9,10,130,34,111,88,29,15,6,7,0.7,0.7
2023-07-18T22:00:00,1294A,115.8518,28.687,南昌市,建工学校,,33,27,24,23,12,143,47,123,101,20,10,4,5,0.7,0.7
2023-07-18T22:00:00,1295A,115.8921,28.6424,南昌市,象湖,,22,22,18,9,15,146,56,122,103,15,11,4,5,0.6,0.7
2023-07-18T22:00:00,1296A,115.7423,28.7996,南昌市,武术学校,,19,19,18,7,16,93,28,78,55,1,3,3,3,0.4,0.5
2023-07-18T22:00:00,1298A,115.9314,28.6842,南昌市,省站,,22,22,24,14,15,137,50,115,101,21,10,7,7,0.6,0.6
2023-07-18T22:00:00,1299A,116.9862,36.6114,济南市,科干所,臭氧1小时,74,61,44,34,23,245,179,220,217,24,22,7,7,0.5,0.5
2023-07-18T22:00:00,1300A,116.9376,36.665,济南市,农科所,颗粒物(PM10),58,66,48,32,18,247,150,217,212,36,22,12,9,0.5,0.3
2023-07-18T22:00:00,1301A,117.1265,36.6734,济南市,开发区,颗粒物(PM10),64,78,48,37,22,240,145,218,207,31,27,15,8,0.7,0.6
2023-07-18T22:00:00,1303A,117.0624,36.6868,济南市,省种子仓库,颗粒物(PM10),60,70,47,31,21,247,149,222,214,30,19,12,8,0.7,0.6
2023-07-18T22:00:00,1304A,116.9489,36.6447,济南市,机床二厂,臭氧1小时,83,63,51,32,21,264,186,234,232,26,22,11,10,0.7,0.6
2023-07-18T22:00:00,1305A,117.0495,36.663,济南市,市监测站,颗粒物(PM10),59,68,46,34,23,255,158,223,216,36,25,12,8,0.6,0.5
2023-07-18T22:00:00,1306A,116.7675,36.5484,济南市,长清党校,"颗粒物(PM10),臭氧1小时",59,68,50,27,25,244,167,215,210,31,23,8,7,0.6,0.5
2023-07-18T22:00:00,1307A,120.6659,36.2403,青岛市,仰口,,42,31,16,29,14,85,71,85,75,7,5,5,9,0.3,0.2
2023-07-18T22:00:00,1310A,120.4134,36.0658,青岛市,市南区东部子站,,31,31,24,12,11,126,72,123,89,19,9,3,4,0.3,0.3
2023-07-18T22:00:00,1311A,120.3664,36.1032,青岛市,四方区子站,,22,22,23,9,8,134,64,128,85,35,21,3,4,0.5,0.5
2023-07-18T22:00:00,1312A,120.2994,36.054,青岛市,市南区西部子站,,19,19,35,7,9,121,53,121,62,35,23,6,6,0.5,0.5
2023-07-18T22:00:00,1313A,120.4581,36.0858,青岛市,崂山区子站,,29,9,23,9,9,129,91,129,101,11,11,5,6,0.3,0.3
2023-07-18T22:00:00,1314A,120.1983,35.9608,青岛市,黄岛区子站,,29,14,26,10,13,114,91,105,95,13,24,4,6,0.6,0.5
2023-07-18T22:00:00,1315A,120.3999,36.3083,青岛市,城阳区子站,,46,46,30,15,11,125,36,114,89,54,15,5,5,0.6,0.4
2023-07-18T22:00:00,1316A,113.69031,34.76122,郑州市,烟厂,臭氧1小时,55,30,45,23,22,194,164,190,183,14,16,2,2,0.5,0.5
2023-07-18T22:00:00,1317A,113.65724,34.77134,郑州市,郑纺机,,,45,43,,18,197,162,193,185,10,10,2,2,0.5,0.6
2023-07-18T22:00:00,1318A,113.67526,34.80246,郑州市,银行学校,臭氧1小时,60,40,38,23,19,197,168,192,186,15,16,2,2,0.5,0.6
2023-07-18T22:00:00,1319A,113.56746,34.81334,郑州市,供水公司,颗粒物(PM10),52,54,45,23,20,191,123,188,174,38,20,6,6,0.7,0.7
2023-07-18T22:00:00,1320A,113.7329,34.7178,郑州市,经开区管委,,44,39,42,24,23,193,138,190,178,13,12,2,2,0.5,0.5
2023-07-18T22:00:00,1321A,113.73961,34.77172,郑州市,四十七中,,50,39,42,24,22,203,159,199,190,12,10,2,3,0.5,0.5
2023-07-18T22:00:00,1322A,113.60532,34.74838,郑州市,市监测站,颗粒物(PM10),54,58,50,23,20,203,156,199,186,19,17,1,2,0.5,0.5
2023-07-18T22:00:00,1323A,113.64164,34.7525,郑州市,河医大,,49,49,44,19,19,182,143,176,170,11,11,4,5,0.5,0.5
2023-07-18T22:00:00,1324A,113.51488,34.91089,郑州市,岗李水库,,40,40,39,20,22,195,110,185,164,21,15,4,3,0.7,0.5
2023-07-18T22:00:00,1325A,114.3677,30.5584,武汉市,东湖梨园,,21,18,30,7,16,195,66,152,104,12,16,7,7,0.4,1
2023-07-18T22:00:00,1326A,114.2529,30.558,武汉市,汉阳月湖,,21,17,30,5,11,162,67,123,94,14,19,6,6,0.4,0.6
2023-07-18T22:00:00,1327A,114.282,30.6189,武汉市,汉口花桥,,20,19,31,12,15,177,61,120,89,16,15,7,8,0.5,0.6
2023-07-18T22:00:00,1328A,114.3025,30.5332,武汉市,武昌紫阳,,21,21,29,9,16,187,62,134,104,16,20,6,7,0.7,0.9
2023-07-18T22:00:00,1329A,114.3646,30.6217,武汉市,青山钢花,,20,17,33,9,19,188,63,130,91,16,18,8,9,0.6,0.8
2023-07-18T22:00:00,1330A,114.1566,30.4825,武汉市,沌口新区,,24,24,32,16,20,198,61,132,105,18,24,7,8,0.5,0.8
2023-07-18T22:00:00,1331A,114.3014,30.5944,武汉市,汉口江滩,,16,16,27,7,13,185,46,132,94,25,14,5,6,0.5,0.6
2023-07-18T22:00:00,1333A,114.135,30.6319,武汉市,吴家山,,18,18,36,12,16,155,54,109,81,16,17,6,6,0.6,0.6
2023-07-18T22:00:00,1334A,113.8454,30.2917,武汉市,沉湖七壕,,30,30,37,14,19,152,70,124,114,13,18,5,5,0.6,0.8
2023-07-18T22:00:00,1335A,113.0833,28.2325,长沙市,经开区环保局,,20,10,11,14,13,77,42,74,62,9,7,4,4,0.4,0.4
2023-07-18T22:00:00,1336A,112.8872,28.2189,长沙市,高开区环保局,,28,28,20,18,20,101,57,92,84,7,7,4,5,0.5,0.6
2023-07-18T22:00:00,1337A,113.0792,28.2053,长沙市,马坡岭,,16,14,14,11,16,86,48,82,71,11,10,4,4,0.6,0.4
2023-07-18T22:00:00,1338A,112.9394,28.19,长沙市,湖南师范大学,,23,23,14,9,14,93,53,85,71,6,5,1,2,0.6,0.7
2023-07-18T22:00:00,1339A,113.0178,28.1322,长沙市,雨花区环保局,,19,19,20,12,11,93,55,86,70,7,8,5,5,0.4,0.4
2023-07-18T22:00:00,1340A,112.9792,28.2597,长沙市,伍家岭,,34,34,22,15,19,85,44,78,63,15,13,2,3,0.4,0.5
2023-07-18T22:00:00,1341A,113.0014,28.1944,长沙市,火车新站,,16,3,10,5,6,81,50,76,63,6,7,4,5,0.7,0.7
2023-07-18T22:00:00,1342A,112.9844,28.1178,长沙市,天心区环保局,,20,14,14,4,9,106,63,96,80,5,7,1,1,0.5,0.5
2023-07-18T22:00:00,1343A,112.8908,28.1308,长沙市,湖南中医药大学,,,,24,,10,110,73,99,89,2,5,3,2,0.6,0.6
2023-07-18T22:00:00,1344A,112.9581,28.3611,长沙市,沙坪,,19,8,23,13,12,78,44,72,60,4,5,4,4,0.5,0.5
2023-07-18T22:00:00,1345A,113.2347,23.1423,广州市,广雅中学,,32,32,19,19,12,71,19,69,57,44,14,3,3,1.0,0.9
2023-07-18T22:00:00,1346A,113.2612,23.105,广州市,市五中,,32,32,19,20,14,78,29,71,58,27,12,7,7,0.6,0.6
2023-07-18T22:00:00,1348A,113.3478,23.0916,广州市,广东商学院,,41,41,22,23,11,68,5,58,41,58,19,5,4,0.8,0.7
2023-07-18T22:00:00,1349A,113.4332,23.1047,广州市,市八十六中,,41,41,23,28,15,71,5,58,40,56,21,4,4,0.8,0.6
2023-07-18T22:00:00,1350A,113.3505,22.9483,广州市,番禺中学,,26,25,15,18,12,81,22,73,58,43,18,8,7,0.7,0.6
2023-07-18T22:00:00,1351A,113.2146,23.3916,广州市,花都师范,,31,31,19,21,13,85,27,60,47,40,22,6,6,0.8,0.7
2023-07-18T22:00:00,1352A,113.2597,23.1331,广州市,市监测站,,30,28,23,18,14,72,12,68,55,60,23,6,6,0.9,0.8
2023-07-18T22:00:00,1353A,113.5618,23.312,广州市,九龙镇镇龙,,21,21,20,11,9,70,17,58,44,27,13,5,5,0.9,0.8
2023-07-18T22:00:00,1354A,113.2765,23.1544,广州市,麓湖,,32,32,18,19,11,68,4,62,45,43,18,5,5,1.1,0.9
2023-07-18T22:00:00,1355A,113.443,23.3035,广州市,帽峰山森林公园,,22,22,13,9,6,79,29,68,56,13,10,5,5,0.3,0.3
2023-07-18T22:00:00,1356A,114.1063,22.5545,深圳市,通心岭子站,,24,24,21,11,9,63,30,59,37,6,6,5,5,0.6,0.6
2023-07-18T22:00:00,1357A,114.117,22.5625,深圳市,洪湖,,34,34,27,11,10,62,31,59,41,8,7,5,5,0.6,0.6
2023-07-18T22:00:00,1358A,113.987,22.5417,深圳市,华侨城,,26,26,20,14,12,55,28,52,37,9,8,8,7,0.7,0.7
2023-07-18T22:00:00,1359A,113.9181,22.5171,深圳市,南海子站,,48,48,45,23,17,55,27,53,37,20,23,4,4,0.6,0.7
2023-07-18T22:00:00,1360A,114.2458,22.5689,深圳市,盐田,,35,35,31,14,12,60,31,54,40,15,8,4,4,0.5,0.7
2023-07-18T22:00:00,1361A,114.2283,22.7244,深圳市,龙岗,,27,27,24,10,10,66,36,62,48,10,4,6,6,0.8,0.7
2023-07-18T22:00:00,1363A,114.494,22.5422,深圳市,南澳,,27,27,29,9,11,55,42,53,44,5,5,5,4,0.6,0.6
2023-07-18T22:00:00,1364A,114.41,22.6342,深圳市,葵涌,,22,22,29,11,11,60,27,51,36,17,8,5,5,0.5,0.5
2023-07-18T22:00:00,1365A,114.297,22.5978,深圳市,梅沙,,33,33,41,10,13,58,35,55,40,6,7,5,5,0.6,0.6
2023-07-18T22:00:00,1366A,114.0678,22.738,深圳市,观澜,,34,34,24,16,11,63,14,56,38,23,14,6,6,0.7,0.7
2023-07-18T22:00:00,1367A,113.5814,22.2618,珠海市,吉大,,26,26,28,16,12,81,32,74,54,17,9,4,3,0.6,0.6
2023-07-18T22:00:00,1368A,113.4881,22.2335,珠海市,前山,,21,21,16,12,9,89,35,77,50,11,7,6,6,0.4,0.4
2023-07-18T22:00:00,1369A,113.628,22.4251,珠海市,唐家,,22,22,23,12,11,117,19,81,53,25,5,4,5,0.2,0.3
2023-07-18T22:00:00,1370A,113.299,22.2281,珠海市,斗门,,24,24,17,8,5,94,35,81,60,8,4,4,4,0.5,0.5
2023-07-18T22:00:00,1371A,113.1294,23.0067,佛山市,湾梁,,27,27,16,11,8,82,14,65,53,43,15,7,7,0.5,0.4
2023-07-18T22:00:00,1372A,113.1083,23.0478,佛山市,华材职中,,19,19,11,10,9,83,31,73,65,19,15,6,6,0.6,0.5
2023-07-18T22:00:00,1373A,113.144,23.0453,佛山市,南海气象局,,26,26,20,12,8,47,12,43,36,20,16,7,7,0.6,0.5
2023-07-18T22:00:00,1374A,113.2881,22.8094,佛山市,顺德苏岗,,24,24,10,12,8,65,1,58,41,43,13,6,5,0.8,0.6
2023-07-18T22:00:00,1376A,112.8383,22.8678,佛山市,高明孔堂,,33,33,19,11,7,102,48,88,81,20,9,4,4,0.8,0.7
2023-07-18T22:00:00,1377A,112.8836,23.1588,佛山市,三水监测站,,25,14,13,17,10,80,34,66,59,24,21,6,6,0.8,0.8
2023-07-18T22:00:00,1378A,112.867,23.185,佛山市,三水云东海,,19,14,20,13,12,66,14,57,40,21,19,2,3,0.5,0.5
2023-07-18T22:00:00,1379A,113.3769,22.5211,中山市,华柏园,,29,29,19,13,11,76,34,71,50,11,7,4,4,0.4,0.5
2023-07-18T22:00:00,1380A,113.3881,22.5497,中山市,张溪,,32,32,23,17,12,83,31,75,56,18,5,5,5,0.4,0.4
2023-07-18T22:00:00,1381A,113.4075,22.5111,中山市,紫马岭,,34,34,18,13,10,81,41,75,57,7,3,5,5,0.3,0.3
2023-07-18T22:00:00,1382A,113.4411,22.4853,中山市,长江旅游区,,21,21,18,8,8,88,41,81,61,6,3,9,9,0.3,0.3
2023-07-18T22:00:00,1383A,113.1064,22.6058,江门市,北街,,36,34,20,25,13,83,23,74,55,29,9,5,5,0.7,0.5
2023-07-18T22:00:00,1384A,113.0731,22.5835,江门市,西区,,35,35,19,15,9,91,31,80,65,23,10,5,4,0.6,0.4
2023-07-18T22:00:00,1385A,113.0219,22.5311,江门市,圭峰西,,27,27,18,18,12,98,31,81,69,18,8,4,3,0.8,0.7
2023-07-18T22:00:00,1386A,113.0828,22.5947,江门市,东湖,,31,31,21,17,14,96,29,84,65,16,8,5,6,0.7,0.5
2023-07-18T22:00:00,1389A,113.7547,23.0494,东莞市,莞城梨川,,37,37,18,24,11,80,13,73,57,50,15,10,9,1.0,0.7
2023-07-18T22:00:00,1390A,113.7944,23.0128,东莞市,东城石井,,36,36,21,14,10,77,9,70,53,31,13,6,6,0.7,0.6
2023-07-18T22:00:00,1391A,113.7383,22.9658,东莞市,南城西平,,31,31,22,15,13,76,14,64,47,37,17,5,6,0.7,0.7
2023-07-18T22:00:00,1392A,114.4183,23.0528,惠州市,河南岸金山湖子站,,29,29,23,10,11,66,32,57,48,9,7,3,3,0.5,0.5
2023-07-18T22:00:00,1393A,114.4053,23.0822,惠州市,下埔横江三路子站,,18,18,19,11,8,62,38,56,50,5,5,4,4,0.6,0.6
2023-07-18T22:00:00,1394A,114.4103,23.1142,惠州市,江北云山西路子站,,16,16,23,8,9,65,32,58,49,8,3,3,4,0.5,0.5
2023-07-18T22:00:00,1395A,114.4645,22.7833,惠州市,惠阳区承修路船湖子站,,26,26,27,13,14,92,43,64,54,10,6,5,5,0.6,0.5
2023-07-18T22:00:00,1396A,114.5317,22.7422,惠州市,大亚湾管委会子站,,19,19,33,12,11,62,36,60,47,17,8,3,2,0.6,0.5
2023-07-18T22:00:00,1397A,112.4267,23.0706,肇庆市,睦岗子站,,28,28,18,18,10,100,54,92,88,22,10,7,6,0.6,0.6
2023-07-18T22:00:00,1398A,112.4645,23.0475,肇庆市,城中子站,,33,33,19,22,14,100,53,89,85,31,15,11,10,0.6,0.5
2023-07-18T22:00:00,1399A,112.5544,23.1522,肇庆市,坑口子站,,42,41,19,29,14,89,31,72,68,46,22,8,5,0.6,0.4
2023-07-18T22:00:00,1400A,112.4753,23.1,肇庆市,七星岩子站,,32,32,13,20,7,76,47,72,60,26,12,9,8,0.5,0.4
2023-07-18T22:00:00,1401A,108.3103,22.7881,南宁市,二十一中,,23,17,19,7,14,94,73,86,76,4,6,4,4,0.7,0.6
2023-07-18T22:00:00,1402A,108.3141,22.8528,南宁市,北湖,,23,11,19,8,12,86,71,81,72,6,7,6,7,0.8,0.8
2023-07-18T22:00:00,1403A,108.3206,22.8225,南宁市,市监测站,,24,15,15,8,13,91,74,84,71,8,11,5,6,0.6,0.6
2023-07-18T22:00:00,1404A,108.3829,22.8037,南宁市,大自然花园,,24,15,15,8,14,87,74,81,72,6,7,5,5,0.7,0.7
2023-07-18T22:00:00,1405A,108.4394,22.7904,南宁市,仙葫,,24,10,31,8,12,86,76,84,74,7,6,4,5,0.7,0.6
2023-07-18T22:00:00,1406A,108.2397,22.8467,南宁市,区农职院,,23,14,20,8,14,91,73,85,72,10,9,5,6,0.5,0.5
2023-07-18T22:00:00,1407A,108.3275,22.735,南宁市,英华嘉园,,19,13,16,6,9,81,60,72,66,7,9,5,5,0.6,0.6
2023-07-18T22:00:00,1408A,108.2257,22.7757,南宁市,沙井镇街道办,,20,10,20,12,14,85,61,78,63,16,12,4,5,0.7,0.9
2023-07-18T22:00:00,1409A,110.576,19.9507,海口市,东寨港,,,,,,,,,,,,,,,,
2023-07-18T22:00:00,1410A,110.3232,20.0574,海口市,海南大学,,26,26,27,11,12,86,50,75,66,9,6,6,5,0.4,0.4
2023-07-18T22:00:00,1411A,110.283,20.0053,海口市,秀英海南医院,,24,24,23,11,12,91,41,79,61,23,10,5,5,0.5,0.4
2023-07-18T22:00:00,1412A,110.338,19.9969,海口市,海南师范大学,,24,24,22,11,11,88,50,74,63,7,5,6,6,0.4,0.4
2023-07-18T22:00:00,1413A,110.33,20.0356,海口市,龙华路环保局宿舍,,24,24,24,11,12,89,50,76,64,9,7,6,6,0.3,0.3
2023-07-18T22:00:00,1414A,106.3787,29.8279,重庆市,缙云山,,35,35,18,21,11,184,106,160,146,24,11,11,10,0.3,0.3
2023-07-18T22:00:00,1416A,106.4213,29.8253,重庆市,天生,颗粒物(PM10),68,85,37,40,22,153,70,143,120,34,30,9,7,0.9,0.9
2023-07-18T22:00:00,1417A,106.6263,29.7228,重庆市,两路,,36,36,32,22,21,162,78,135,117,40,43,7,9,0.8,0.9
2023-07-18T22:00:00,1418A,106.2953,29.5983,重庆市,虎溪,,44,44,34,27,20,197,72,163,128,38,34,10,8,0.5,0.5
2023-07-18T22:00:00,1419A,106.5777,29.5102,重庆市,南坪,,42,42,40,24,20,178,96,149,127,19,22,8,10,0.5,0.5
2023-07-18T22:00:00,1420A,106.6556,29.6277,重庆市,唐家沱,,47,47,37,26,21,201,84,170,125,30,35,6,7,0.6,0.6
2023-07-18T22:00:00,1421A,106.6349,29.4906,重庆市,茶园,,37,37,49,14,17,219,92,180,141,34,51,6,7,0.7,0.9
2023-07-18T22:00:00,1422A,106.3754,29.4572,重庆市,白市驿,,33,26,32,23,16,183,102,148,122,15,30,8,8,0.6,0.6
2023-07-18T22:00:00,1425A,106.6205,29.7166,重庆市,空港,,30,30,35,16,17,177,90,155,131,31,34,8,10,0.6,0.7
2023-07-18T22:00:00,1426A,106.4782,29.4875,重庆市,新山村,,46,46,42,24,19,185,80,157,120,31,47,7,7,0.4,0.5
2023-07-18T22:00:00,1427A,106.5616,29.6453,重庆市,礼嘉,,49,49,45,34,21,187,62,158,120,59,55,7,8,0.8,0.9
2023-07-18T22:00:00,1428A,106.4522,29.7091,重庆市,蔡家,细颗粒物(PM2.5),54,53,53,38,20,172,65,157,130,44,32,6,7,0.7,0.7
2023-07-18T22:00:00,1429A,106.5093,29.3917,重庆市,鱼新街,,45,35,44,31,21,189,70,139,105,26,51,5,6,0.9,1
2023-07-18T22:00:00,1431A,103.9728,30.7236,成都市,金泉两河,,30,26,43,5,25,202,95,171,147,22,19,2,4,0.5,0.6
2023-07-18T22:00:00,1432A,104.176,30.6872,成都市,十里店,,41,41,40,24,23,201,97,180,160,30,17,3,4,0.6,0.5
2023-07-18T22:00:00,1433A,104.079,30.5706,成都市,三瓦窑,,44,44,48,20,27,197,98,176,157,46,37,1,2,0.6,0.5
2023-07-18T22:00:00,1434A,104.1114,30.63,成都市,沙河铺,,37,37,43,23,26,204,107,176,158,24,19,3,3,0.6,0.6
2023-07-18T22:00:00,1437A,104.0786,30.6531,成都市,君平街,,49,42,48,34,32,228,115,202,175,26,23,3,4,0.7,0.6
2023-07-18T22:00:00,1438A,103.613,31.0283,成都市,灵岩寺,,40,27,30,22,22,188,127,165,157,6,6,11,8,0.5,0.6
2023-07-18T22:00:00,1439A,106.6899,26.5998,贵阳市,马鞍山,,21,7,20,2,10,145,66,135,77,14,9,5,5,0.7,0.6
2023-07-18T22:00:00,1440A,106.6971,26.5694,贵阳市,市环保站,,22,0,17,4,17,149,69,145,79,17,13,4,4,0.4,0.3
2023-07-18T22:00:00,1441A,106.6243,26.6266,贵阳市,鉴湖路,,24,12,24,7,14,142,75,137,86,11,10,3,4,0.5,0.5
2023-07-18T22:00:00,1442A,106.7487,26.6343,贵阳市,燕子冲,,21,5,14,7,19,151,65,144,74,13,8,5,5,0.8,0.6
2023-07-18T22:00:00,1443A,106.6555,26.4365,贵阳市,碧云窝,,19,14,28,2,13,140,60,133,72,18,12,4,4,0.7,0.7
2023-07-18T22:00:00,1444A,106.694,26.5161,贵阳市,中院村,,19,19,29,2,13,131,50,127,64,21,12,4,5,0.6,0.5
2023-07-18T22:00:00,1445A,106.7109,26.6027,贵阳市,红边门,,25,7,22,7,14,143,79,137,86,7,8,3,3,0.6,0.5
2023-07-18T22:00:00,1446A,106.7164,26.5699,贵阳市,新华路,,22,9,23,2,13,148,70,144,76,15,10,3,3,0.6,0.6
2023-07-18T22:00:00,1447A,106.674,26.5424,贵阳市,太慈桥,,15,9,24,2,7,141,47,136,58,13,9,4,4,0.5,0.4
2023-07-18T22:00:00,1450A,102.8204,24.8886,昆明市,呈贡新区,,34,29,31,17,16,139,107,125,109,10,17,7,9,0.6,0.6
2023-07-18T22:00:00,1451A,102.6251,24.9608,昆明市,西山森林公园,,43,19,19,13,12,180,135,168,151,11,10,8,8,0.5,0.6
2023-07-18T22:00:00,1452A,102.7252,25.0902,昆明市,龙泉镇,,35,34,24,17,12,146,109,135,121,12,15,9,9,0.4,0.4
2023-07-18T22:00:00,1453A,102.7266,25.0375,昆明市,东风东路,,36,28,27,14,17,150,113,140,125,14,14,4,5,0.4,0.3
2023-07-18T22:00:00,1454A,102.6742,25.0669,昆明市,金鼎山,,37,27,26,11,15,149,116,139,123,9,13,3,15,0.5,0.5
2023-07-18T22:00:00,1455A,102.6644,25.0401,昆明市,碧鸡广场,,36,32,26,21,15,157,115,144,128,13,12,8,11,0.4,0.3
2023-07-18T22:00:00,1456A,91.1319,29.6514,拉萨市,八廓街,,35,10,12,12,9,140,110,132,123,11,10,6,6,0.2,0.2
2023-07-18T22:00:00,1457A,91.1221,29.6747,拉萨市,市环保局,,26,7,10,10,6,131,83,127,113,24,14,5,5,0.3,0.2
2023-07-18T22:00:00,1458A,91.0874,29.6475,拉萨市,区监测站,,30,10,8,7,6,132,96,125,114,25,14,7,7,0.4,0.3
2023-07-18T22:00:00,1459A,91.1774,29.6541,拉萨市,西藏大学,,35,3,8,9,6,134,112,128,121,10,9,9,9,0.1,0.1
2023-07-18T22:00:00,1460A,90.9798,29.6588,拉萨市,区辐射站,,32,11,13,7,8,128,102,120,114,18,12,8,9,0.2,0.2
2023-07-18T22:00:00,1461A,91.0834,29.6292,拉萨市,拉萨火车站,,30,12,12,9,6,129,96,119,111,19,10,9,9,0.4,0.4
2023-07-18T22:00:00,1462A,108.882,34.2749,西安市,高压开关厂,,43,40,44,21,22,190,136,180,169,22,22,8,9,0.5,0.5
2023-07-18T22:00:00,1463A,108.993,34.2629,西安市,兴庆小区,,42,35,41,18,21,192,132,181,170,16,12,7,8,0.6,0.7
2023-07-18T22:00:00,1464A,109.06,34.2572,西安市,纺织城,,39,35,44,22,22,197,122,185,168,25,20,6,6,0.5,0.5
2023-07-18T22:00:00,1465A,108.9356,34.2173,西安市,小寨,,43,43,44,18,20,193,124,184,168,19,13,6,7,0.5,0.5
2023-07-18T22:00:00,1466A,108.954,34.2713,西安市,市人民体育场,,41,32,44,21,24,191,130,180,169,22,17,7,8,0.5,0.5
2023-07-18T22:00:00,1467A,108.8922,34.2322,西安市,高新西区,,44,35,39,25,25,206,140,198,184,23,16,8,8,0.6,0.6
2023-07-18T22:00:00,1468A,108.935,34.3474,西安市,经开区,,,,45,27,23,184,116,173,164,19,13,3,5,0.4,0.4
2023-07-18T22:00:00,1469A,108.906,34.1546,西安市,长安区,,45,45,50,24,23,214,131,199,180,16,21,4,4,0.4,0.4
2023-07-18T22:00:00,1471A,109.2186,34.3731,西安市,临潼区,,43,35,54,21,26,184,135,178,166,12,20,6,9,0.6,0.7
2023-07-18T22:00:00,1472A,108.869,34.378,西安市,草滩,,45,45,45,18,16,191,129,179,166,27,22,8,11,0.5,0.6
2023-07-18T22:00:00,1473A,108.985,34.1978,西安市,曲江文化产业集团,,44,44,43,22,22,202,121,191,173,23,15,5,6,0.5,0.5
2023-07-18T22:00:00,1474A,109.051,34.3213,西安市,广运潭,,38,38,45,24,25,185,99,175,162,37,21,8,10,0.5,0.5
2023-07-18T22:00:00,1476A,103.631,36.1031,兰州市,兰炼宾馆,,48,48,53,27,24,188,114,166,151,29,31,5,7,0.5,0.5
2023-07-18T22:00:00,1477A,104.1373,35.9454,兰州市,榆中兰大校区,,,,,,,,,,,,,,,,
2023-07-18T22:00:00,1478A,103.8412,36.0726,兰州市,生物制品所,,45,45,41,24,21,189,120,165,146,29,34,6,9,0.5,0.8
2023-07-18T22:00:00,1479A,103.831,36.0464,兰州市,铁路设计院,,41,41,36,23,17,181,106,159,144,34,30,5,7,0.3,0.4
2023-07-18T22:00:00,1483A,101.524,36.6867,西宁市,第五水厂,,,,,,,,,,,,,,,,
2023-07-18T22:00:00,1484A,105.9512,38.6016,银川市,贺兰山马莲口,臭氧1小时,105,31,20,30,11,219,209,211,211,11,11,7,6,0.6,0.6
2023-07-18T22:00:00,1488A,106.2328,38.4975,银川市,贺兰山东路,颗粒物(PM10),64,77,42,19,19,239,148,223,213,51,19,8,9,0.6,0.4
2023-07-18T22:00:00,1489A,106.1358,38.5036,银川市,学院路,颗粒物(PM10),63,76,38,14,13,221,127,203,195,55,17,10,10,0.7,0.5
2023-07-18T22:00:00,1490A,87.5801,43.8303,乌鲁木齐市,监测站,,,37,34,,7,154,84,126,119,36,21,5,5,0.5,0.4
2023-07-18T22:00:00,1491A,87.6046,43.768,乌鲁木齐市,收费所,,41,41,30,10,10,165,77,132,124,40,22,8,9,0.3,0.2
2023-07-18T22:00:00,1492A,87.4754,43.9469,乌鲁木齐市,新疆农科院农场,颗粒物(PM10),91,131,66,23,30,143,84,126,114,18,31,14,16,0.3,0.2
2023-07-18T22:00:00,1493A,87.5525,43.8711,乌鲁木齐市,铁路局,,36,36,29,5,12,152,88,131,122,23,20,3,4,0.4,0.5
2023-07-18T22:00:00,1494A,87.6432,43.831,乌鲁木齐市,三十一中学,,33,33,32,4,7,169,88,132,126,46,23,4,4,0.4,0.4
2023-07-18T22:00:00,1496A,87.7216,44.1747,乌鲁木齐市,米东区环保局,,32,31,35,8,12,123,100,118,114,9,13,6,7,0.3,0.3
2023-07-18T22:00:00,1508A,112.9433,27.8614,湘潭市,板塘,,19,12,27,7,14,95,60,88,80,11,14,8,8,0.8,0.7
2023-07-18T22:00:00,1511A,112.9118,27.8403,湘潭市,市监测站,,21,2,20,7,17,113,67,102,90,7,10,3,3,0.6,0.6
2023-07-18T22:00:00,1512A,112.8937,27.8728,湘潭市,江麓,,,,32,9,19,102,67,94,87,8,15,3,3,0.1,0.1
2023-07-18T22:00:00,1513A,112.9227,27.8159,湘潭市,岳塘,,18,14,28,12,19,99,45,94,82,28,15,10,2,0.4,0.7
2023-07-18T22:00:00,1514A,112.9074,27.9119,湘潭市,科大,,23,8,33,0,18,119,73,108,96,6,12,5,7,0.8,1
2023-07-18T22:00:00,1515A,113.135,27.8244,株洲市,天台山庄,,20,4,27,4,20,93,61,89,83,5,7,5,5,0.5,0.6
2023-07-18T22:00:00,1518A,113.095,27.8867,株洲市,株冶医院,,16,8,26,9,17,92,51,88,78,16,11,3,3,0.7,0.5
2023-07-18T22:00:00,1519A,113.167,27.8667,株洲市,市四中,,18,1,26,7,16,87,56,84,78,7,6,5,5,0.6,0.7
2023-07-18T22:00:00,1520A,113.143,27.8381,株洲市,火车站,,21,5,28,0,16,90,66,85,82,7,6,4,5,0.5,0.5
2023-07-18T22:00:00,1524A,113.13,27.8528,株洲市,市监测站,,21,6,30,4,22,95,65,92,87,10,11,6,7,0.5,0.6
2023-07-18T22:00:00,1552A,106.805,26.3003,贵阳市,桐木岭,,35,12,28,9,18,168,110,161,106,5,15,2,2,0.5,0.4
2023-07-18T22:00:00,1559A,113.251,27.8336,株洲市,大京风景区,,22,22,26,9,10,82,46,78,72,4,3,2,3,0.5,0.5
2023-07-18T22:00:00,1562A,113.0048,27.9153,湘潭市,昭山,,19,2,22,13,17,92,60,85,78,11,11,3,3,0.6,0.6
2023-07-18T22:00:00,1564A,112.4876,27.9164,湘潭市,韶山,,28,16,39,19,18,108,56,96,90,5,7,5,6,0.3,0.5
2023-07-18T22:00:00,1585A,109.8756,40.6532,包头市,市环境监测站,,49,49,45,26,17,182,156,177,170,32,26,13,14,0.6,0.6
2023-07-18T22:00:00,1587A,109.9991,40.5842,包头市,包头八中,臭氧1小时,75,76,56,38,25,222,180,207,200,33,25,32,19,0.8,0.7
2023-07-18T22:00:00,1588A,109.8538,40.6821,包头市,青山宾馆,,49,45,36,28,21,183,155,176,171,32,24,12,10,0.7,0.6
2023-07-18T22:00:00,1589A,109.8642,40.6288,包头市,惠龙物流,臭氧1小时,62,45,47,23,20,190,169,184,179,26,22,9,12,0.5,0.5
2023-07-18T22:00:00,1590A,110.0377,40.5546,包头市,东河鸿龙湾,颗粒物(PM10),59,68,51,23,19,214,127,198,178,31,23,9,15,0.6,0.5
2023-07-18T22:00:00,1591A,110.0023,39.8129,鄂尔多斯市,综合楼,颗粒物(PM10),54,58,70,17,22,183,131,174,165,29,22,5,10,0.6,0.7
2023-07-18T22:00:00,1592A,109.9486,39.8261,鄂尔多斯市,巴音孟克林场办事处,,49,44,53,19,23,195,156,187,181,25,16,9,12,0.5,0.6
2023-07-18T22:00:00,1593A,109.7736,39.5986,鄂尔多斯市,康泽苑,,45,39,40,12,13,178,143,172,168,22,15,9,10,0.6,0.6
2023-07-18T22:00:00,1594A,109.8119,39.5989,鄂尔多斯市,华泰汽车城,,42,29,43,17,20,170,133,166,162,25,16,9,10,0.6,0.6
2023-07-18T22:00:00,1595A,109.9734,39.7884,鄂尔多斯市,奥林花园,,,58,66,,25,179,135,172,165,24,18,8,11,0.7,0.8
2023-07-18T22:00:00,1597A,122.2703,40.7094,营口市,大庆路,,40,30,34,15,20,126,126,115,115,12,21,5,8,0.6,0.7
2023-07-18T22:00:00,1598A,122.2150,40.6511,营口市,镜湖西路,,40,19,29,11,18,126,125,121,120,9,16,5,6,0.5,0.6
2023-07-18T22:00:00,1599A,122.1658,40.6789,营口市,西炮台,,41,28,29,16,16,139,131,128,127,11,15,8,8,0.5,0.6
2023-07-18T22:00:00,1600A,124.3303,40.0625,丹东市,江湾东路,,32,30,28,22,18,135,48,118,89,26,13,3,4,0.7,0.7
2023-07-18T22:00:00,1601A,124.4256,40.1503,丹东市,临江后街,,32,32,27,19,15,150,47,126,96,18,9,6,6,0.9,0.7
2023-07-18T22:00:00,1602A,124.3933,40.1461,丹东市,元宝山,,32,32,32,18,16,136,68,116,83,12,12,6,6,0.6,0.5
2023-07-18T22:00:00,1603A,124.3633,40.1092,丹东市,民主桥,,29,29,29,16,17,144,57,117,87,17,13,4,5,0.7,0.7
2023-07-18T22:00:00,1604A,122.0303,41.1489,盘锦市,开发区,,41,26,28,20,15,142,129,136,134,19,17,4,4,0.7,0.8
2023-07-18T22:00:00,1605A,122.0485,41.0883,盘锦市,兴隆台,,39,37,27,15,17,144,124,130,130,25,21,4,5,0.6,0.6
2023-07-18T22:00:00,1606A,121.8297,41.1028,盘锦市,新生街道,,40,16,23,14,12,158,126,150,143,16,13,6,6,0.5,0.6
2023-07-18T22:00:00,1607A,120.9092,40.7136,葫芦岛市,龙港区,臭氧1小时,85,35,31,29,19,193,188,169,169,5,11,2,3,0.5,0.5
2023-07-18T22:00:00,1608A,120.8392,40.7514,葫芦岛市,化工街,,,,53,,26,179,,165,160,16,25,8,8,0.3,0.7
2023-07-18T22:00:00,1609A,120.8341,40.7073,葫芦岛市,新区,,44,44,44,27,26,154,140,145,145,16,23,5,5,0.6,0.7
2023-07-18T22:00:00,1610A,120.8695,40.7677,葫芦岛市,东城区,,47,47,52,21,29,194,147,176,164,23,30,6,7,0.6,0.8
2023-07-18T22:00:00,1611A,118.5819,24.9117,泉州市,涂山街,,25,25,19,8,8,86,35,65,60,14,11,8,8,0.8,0.7
2023-07-18T22:00:00,1612A,118.5972,24.8978,泉州市,津头埔,,18,18,16,9,9,101,45,75,68,13,13,7,7,0.5,0.5
2023-07-18T22:00:00,1613A,118.6663,24.9424,泉州市,万安,,20,20,17,4,6,110,55,82,76,9,8,7,8,0.6,0.5
2023-07-18T22:00:00,1614A,118.6117,24.9604,泉州市,清源山,,,,,,,,,,,,,,,,
2023-07-18T22:00:00,1616A,117.6795,36.229,济南市,技术学院,颗粒物(PM10),51,51,26,12,13,165,70,154,132,47,20,8,6,0.8,0.6
2023-07-18T22:00:00,1618A,118.3429,35.0532,临沂市,沂河小区,,31,31,37,14,21,122,87,110,102,16,12,4,4,0.2,0.3
2023-07-18T22:00:00,1619A,118.295,35.0583,临沂市,鲁南制药厂,,32,27,29,13,16,133,100,127,119,8,5,2,2,0.8,0.9
2023-07-18T22:00:00,1620A,118.2794,34.9976,临沂市,新光毛纺厂,,22,22,30,12,19,126,67,117,106,24,10,8,6,0.2,0.4
2023-07-18T22:00:00,1621A,118.3956,35.0888,临沂市,河东保险公司,,28,24,30,13,20,115,88,110,102,13,10,2,3,0.3,0.5
2023-07-18T22:00:00,1622A,116.3032,37.4674,德州市,儿童乐园,臭氧1小时,69,58,52,39,27,218,175,207,194,17,16,9,10,0.5,0.6
2023-07-18T22:00:00,1624A,116.2991,37.4451,德州市,监理站,颗粒物(PM10),59,67,50,34,26,211,154,199,185,24,19,8,9,0.5,0.5
2023-07-18T22:00:00,1625A,115.9848,36.4372,聊城市,区政府,臭氧1小时,80,66,47,39,25,236,184,221,213,24,19,11,14,0.8,0.7
2023-07-18T22:00:00,1628A,118.0062,37.3803,滨州市,市环保局,,37,29,40,24,27,172,118,159,138,14,23,5,7,0.4,0.5
2023-07-18T22:00:00,1629A,118.0018,37.3617,滨州市,第二水厂,,39,39,48,18,21,170,97,158,122,21,28,4,5,0.5,0.6
2023-07-18T22:00:00,1630A,117.9776,37.393,滨州市,北中新校,,41,41,42,16,22,178,120,162,137,12,19,4,6,0.4,0.5
2023-07-18T22:00:00,1631A,118.0414,36.8103,淄博市,人民公园,颗粒物(PM10),51,51,46,24,19,216,113,202,180,31,27,18,15,0.5,0.6
2023-07-18T22:00:00,1633A,117.8525,36.4847,淄博市,双山,颗粒物(PM10),53,56,34,25,14,205,98,184,170,38,19,11,8,0.4,0.3
2023-07-18T22:00:00,1634A,117.9592,36.6331,淄博市,气象站,颗粒物(PM10),62,74,46,24,19,188,108,174,162,29,20,9,11,0.9,0.3
2023-07-18T22:00:00,1635A,118.3092,36.8194,淄博市,莆田园,颗粒物(PM10),52,53,54,24,23,198,94,188,162,30,27,14,17,0,0.9
2023-07-18T22:00:00,1637A,117.558,34.8438,枣庄市,市中区政府,,29,29,40,9,20,153,82,145,122,19,16,8,8,0.4,0.5
2023-07-18T22:00:00,1638A,117.2852,34.7837,枣庄市,薛城环保局,,46,46,48,22,19,144,64,130,109,29,18,10,10,0.3,0.5
2023-07-18T22:00:00,1639A,117.5852,34.7745,枣庄市,峄城区政府,,36,36,41,12,18,140,63,132,111,24,13,7,8,0.6,0.6
2023-07-18T22:00:00,1640A,117.7276,34.5578,枣庄市,台儿庄区环保局,,22,22,29,9,17,119,41,104,82,34,17,8,8,0.6,0.5
2023-07-18T22:00:00,1641A,117.4518,35.0992,枣庄市,山亭区环保局,,34,31,33,20,23,187,106,150,114,14,10,6,8,0.2,0.3
2023-07-18T22:00:00,1642A,121.2514,37.5639,烟台市,开发区,,48,48,23,17,10,103,45,89,76,38,18,7,7,0.8,0.6
2023-07-18T22:00:00,1643A,121.3719,37.5433,烟台市,轴承厂,,29,29,22,13,11,110,63,99,86,16,12,2,3,0.4,0.3
2023-07-18T22:00:00,1644A,121.3181,37.5436,烟台市,西郊化工站,颗粒物(PM10),53,56,25,30,12,109,44,105,84,41,20,4,5,0.4,0.3
2023-07-18T22:00:00,1645A,121.4478,37.4822,烟台市,莱山环保局,,26,12,9,7,6,103,81,96,93,13,7,4,5,0.4,0.3
2023-07-18T22:00:00,1646A,121.2611,37.4967,烟台市,福山环保局,,34,34,44,7,9,113,68,107,89,26,30,7,8,0.6,0.6
2023-07-18T22:00:00,1650A,119.1437,36.7023,潍坊市,环保局,,46,44,28,29,16,163,146,158,153,12,14,10,9,0.6,0.4
2023-07-18T22:00:00,1653A,116.6251,35.4302,济宁市,火炬城,,,,37,19,16,180,,169,163,10,16,5,8,0.7,0.6
2023-07-18T22:00:00,1655A,116.5491,35.4042,济宁市,电化厂,,50,50,37,24,17,179,87,166,138,15,13,5,6,0.5,0.5
2023-07-18T22:00:00,1656A,117.1437,36.1937,泰安市,监测站,,45,34,34,20,16,195,144,176,173,13,10,8,8,0.4,0.3
2023-07-18T22:00:00,1657A,117.0885,36.2017,泰安市,人口学校,,47,24,24,14,12,180,150,167,167,13,9,7,8,0.5,0.4
2023-07-18T22:00:00,1658A,117.1089,36.1758,泰安市,电力学校,,46,36,36,16,18,193,145,180,176,12,11,8,9,0.3,0.3
2023-07-18T22:00:00,1659A,119.471,35.4209,日照市,监测站,,22,17,21,15,13,107,68,98,87,24,22,5,5,0.6,0.6
2023-07-18T22:00:00,1660A,119.523,35.4216,日照市,市政府广场,,27,27,22,12,11,114,78,103,88,7,5,7,7,0.3,0.2
2023-07-18T22:00:00,1661A,119.5587,35.4044,日照市,港务局,,26,22,22,9,9,128,83,115,94,7,6,8,7,0.5,0.5
2023-07-18T22:00:00,1662A,122.1214,37.4236,威海市,华夏技校,,22,22,15,12,12,102,55,97,84,34,17,5,6,0.4,0.3
2023-07-18T22:00:00,1663A,122.0508,37.5236,威海市,山大分校,,27,27,13,10,10,115,71,109,103,22,8,4,4,0.4,0.3
2023-07-18T22:00:00,1664A,122.1067,37.5072,威海市,市监测站,,25,15,17,15,12,102,77,96,89,22,18,8,8,0.6,0.5
2023-07-18T22:00:00,1666A,118.6614,37.4309,东营市,市环保局,,43,34,27,24,14,167,136,152,140,6,11,10,10,0.2,0.2
2023-07-18T22:00:00,1669A,113.5824,24.7733,韶关市,市八中,,,,18,,7,62,,52,50,11,7,9,14,0.4,0.5
2023-07-18T22:00:00,1671A,113.5917,24.7972,韶关市,园林处,,16,15,14,11,9,68,36,57,47,7,4,21,12,0.6,0.6
2023-07-18T22:00:00,1672A,113.6735,24.7791,韶关市,韶关学院,,21,21,16,6,7,53,18,48,42,14,8,8,8,0.5,0.4
2023-07-18T22:00:00,1673A,113.5971,24.6863,韶关市,曲江监测站,,28,28,20,12,10,62,34,52,48,7,7,6,8,0.6,0.7
2023-07-18T22:00:00,1674A,116.6794,23.3667,汕头市,金平子站,,39,0,16,27,30,49,26,49,30,12,10,4,4,0.7,0.7
2023-07-18T22:00:00,1675A,116.7244,23.3633,汕头市,龙湖子站,,13,13,20,6,8,58,36,58,39,10,9,4,4,0.7,0.7
2023-07-18T22:00:00,1676A,116.7258,23.2775,汕头市,濠江子站,,11,11,23,6,8,53,30,53,34,9,8,8,8,0.5,0.5
2023-07-18T22:00:00,1677A,116.7519,23.4714,汕头市,澄海子站,,39,19,17,27,26,54,34,53,36,11,11,3,4,0.7,0.7
2023-07-18T22:00:00,1678A,116.6092,23.2539,汕头市,潮阳子站,,12,11,22,2,11,60,37,60,40,6,5,8,9,0.4,0.4
2023-07-18T22:00:00,1680A,110.3539,21.2706,湛江市,湛江影剧院,,25,5,24,13,18,109,77,94,74,6,3,6,5,0.5,0.4
2023-07-18T22:00:00,1681A,110.3928,21.2228,湛江市,市环境监测站,,25,9,22,5,12,102,79,88,71,5,5,6,6,0.5,0.5
2023-07-18T22:00:00,1682A,110.4019,21.1997,湛江市,环保局宿舍,,25,9,25,4,12,102,78,90,71,5,4,3,2,0.5,0.6
2023-07-18T22:00:00,1683A,110.4111,21.2028,湛江市,霞山游泳场,,25,12,25,6,10,105,77,93,73,6,6,5,5,0.5,0.5
2023-07-18T22:00:00,1684A,110.3316,21.2679,湛江市,麻章区环保局,,35,5,22,24,11,106,82,92,74,5,5,4,4,0.6,0.6
2023-07-18T22:00:00,1685A,110.4558,21.2567,湛江市,坡头区环保局,,24,12,28,11,10,109,76,91,69,6,5,5,6,0.5,0.6
2023-07-18T22:00:00,1686A,111.0286,21.4688,茂名市,电白南海,,39,39,35,17,18,96,66,92,73,2,4,3,3,0.6,0.7
2023-07-18T22:00:00,1687A,110.9294,21.6533,茂名市,茂石化七小,,36,36,24,17,14,97,56,86,67,4,4,5,5,0.6,0.6
2023-07-18T22:00:00,1688A,110.9107,21.6687,茂名市,健康路,,27,27,34,12,10,94,53,84,66,5,3,4,4,0.5,0.6
2023-07-18T22:00:00,1689A,110.8592,21.6828,茂名市,高岭,,34,34,22,17,19,101,58,88,70,3,4,4,6,0.7,0.7
2023-07-18T22:00:00,1690A,116.1231,24.3284,梅州市,梅江月梅,,,17,11,8,6,46,,42,31,11,5,1,2,0.4,0.5
2023-07-18T22:00:00,1691A,116.0797,24.2719,梅州市,梅县新城,,10,7,10,2,5,52,30,43,36,8,7,5,4,0.5,0.5
2023-07-18T22:00:00,1692A,116.1248,24.2654,梅州市,环境监控中心,,10,10,14,4,6,46,26,39,31,8,8,3,3,0.5,0.5
2023-07-18T22:00:00,1693A,115.3653,22.775,汕尾市,市环保局,,14,14,24,8,8,56,36,52,43,9,4,7,7,0.6,0.5
2023-07-18T22:00:00,1694A,115.3706,22.7898,汕尾市,市政府,,12,8,19,4,9,61,38,57,44,4,4,4,4,0.6,0.6
2023-07-18T22:00:00,1695A,115.3622,22.7925,汕尾市,新城中学,,13,13,23,8,9,54,36,50,40,2,2,6,6,0.4,0.5
2023-07-18T22:00:00,1696A,114.6778,23.7569,河源市,源西,,12,12,12,7,21,55,13,43,36,20,8,4,4,0.7,0.7
2023-07-18T22:00:00,1697A,114.6944,23.7586,河源市,东埔,,19,19,34,7,4,45,24,37,35,10,7,4,5,0.6,0.7
2023-07-18T22:00:00,1698A,114.6892,23.7233,河源市,老城,,14,14,16,7,8,55,24,40,37,4,6,4,4,0.6,0.6
2023-07-18T22:00:00,1699A,111.9797,21.8593,阳江市,鸳鸯湖,,36,36,25,16,11,91,39,86,62,10,3,4,5,0.7,0.6
2023-07-18T22:00:00,1701A,111.9491,21.8658,阳江市,马南垌,,26,26,21,17,12,89,39,86,63,8,3,4,4,0.5,0.4
2023-07-18T22:00:00,1702A,113.0426,23.691,清远市,环保大楼,,17,10,11,9,9,66,53,58,57,6,7,6,6,0.3,0.4
2023-07-18T22:00:00,1703A,113.0208,23.7106,清远市,凤城街办,,16,12,13,8,7,138,50,76,61,7,6,5,5,0.6,0.6
2023-07-18T22:00:00,1705A,116.6367,23.6719,潮州市,西园路,,11,11,15,7,8,48,27,47,30,9,7,5,4,0.3,0.3
2023-07-18T22:00:00,1706A,116.6447,23.6706,潮州市,档案局,,10,10,16,0,5,51,30,48,34,8,6,4,5,0.3,0.4
2023-07-18T22:00:00,1708A,116.3701,23.5345,揭阳市,新兴,,22,22,29,9,8,52,20,42,25,12,8,6,6,0.6,0.6
2023-07-18T22:00:00,1709A,116.3264,23.5443,揭阳市,西马,,16,16,19,7,8,54,23,48,27,7,6,5,6,0.8,0.7
2023-07-18T22:00:00,1710A,116.3611,23.5626,揭阳市,东兴,,23,23,31,6,7,54,22,44,28,14,8,5,3,0.7,0.7
2023-07-18T22:00:00,1711A,116.4151,23.5294,揭阳市,渔湖,,25,25,28,9,8,50,18,39,20,10,6,3,2,0.5,0.5
2023-07-18T22:00:00,1712A,112.0392,22.9169,云浮市,新市府,,30,24,15,21,10,82,33,74,55,7,5,4,4,0.9,0.8
2023-07-18T22:00:00,1714A,112.0539,22.9539,云浮市,牧羊,,36,36,14,16,9,80,57,74,68,16,9,13,9,0.5,0.6
2023-07-18T22:00:00,1715A,102.575,24.3711,玉溪市,东风水库,,36,30,24,12,14,147,114,140,129,7,9,5,5,0.6,0.6
2023-07-18T22:00:00,1718A,115.4208,35.2464,菏泽市,气象局,,48,37,38,17,16,198,152,184,179,11,9,6,5,0.5,0.5
2023-07-18T22:00:00,1719A,115.4747,35.2375,菏泽市,市政协,,45,45,36,19,20,208,140,195,186,18,10,5,6,0.3,0.3
2023-07-18T22:00:00,1721A,113.3819,40.1097,大同市,果树场,颗粒物(PM10),71,92,51,44,30,221,99,202,162,32,24,4,5,0.5,0.5
2023-07-18T22:00:00,1723A,113.2994,40.0758,大同市,云冈宾馆,颗粒物(PM10),61,72,64,33,28,232,141,211,185,31,23,10,11,0.7,0.6
2023-07-18T22:00:00,1724A,113.3444,40.0917,大同市,大同大学,颗粒物(PM10),57,63,49,30,25,218,126,199,178,34,17,13,12,0.7,0.6
2023-07-18T22:00:00,1725A,113.2661,40.1269,大同市,安家小村,颗粒物(PM10),71,91,61,36,26,222,130,203,178,24,16,14,11,0.6,0.4
2023-07-18T22:00:00,1726A,113.2711,40.0844,大同市,教育学院,颗粒物(PM10),63,76,57,22,27,221,131,203,175,35,23,13,11,0.7,0.6
2023-07-18T22:00:00,1727A,113.1147,36.1547,长治市,清华站,"细颗粒物(PM2.5),臭氧1小时",55,57,62,39,33,256,164,230,197,12,22,8,12,0.8,1
2023-07-18T22:00:00,1728A,113.1031,36.1989,长治市,监测站,臭氧1小时,75,44,55,31,32,270,180,239,208,15,26,11,17,0.9,1.5
2023-07-18T22:00:00,1730A,113.0886,36.2125,长治市,审计局,臭氧1小时,63,54,51,44,37,259,170,229,199,12,23,14,16,1.0,1.2
2023-07-18T22:00:00,1731A,113.0844,36.1856,长治市,长治八中,颗粒物(PM10),57,64,62,35,30,258,164,232,200,13,20,11,13,0.8,0.9
2023-07-18T22:00:00,1733A,111.5531,36.0783,临汾市,临钢医院,细颗粒物(PM2.5),64,61,47,46,36,208,144,191,182,20,15,6,7,1.0,1
2023-07-18T22:00:00,1734A,111.5028,36.0714,临汾市,技工学校,颗粒物(PM10),59,68,51,39,27,220,129,207,190,28,16,4,4,0.9,0.8
2023-07-18T22:00:00,1736A,111.5018,36.0855,临汾市,市委,细颗粒物(PM2.5),63,71,54,45,36,191,117,184,168,31,21,6,6,1.1,0.9
2023-07-18T22:00:00,1738A,113.5758,37.8572,阳泉市,市中心,,50,44,48,21,25,197,159,187,182,20,37,10,14,0.9,0.8
2023-07-18T22:00:00,1739A,113.4894,37.8731,阳泉市,赛鱼,颗粒物(PM10),51,52,50,31,20,194,87,185,168,59,41,9,10,0.8,0.7
2023-07-18T22:00:00,1740A,113.5819,37.8486,阳泉市,南庄,颗粒物(PM10),79,108,65,36,28,198,144,191,183,24,30,10,14,0.7,0.7
2023-07-18T22:00:00,1742A,113.5614,37.8703,阳泉市,平坦,臭氧1小时,78,52,47,35,28,193,182,187,186,14,45,12,13,0.7,0.6
2023-07-18T22:00:00,1743A,113.5158,37.8392,阳泉市,大阳泉,臭氧1小时,78,51,47,42,31,199,182,192,191,15,16,13,18,0.7,0.6
2023-07-18T22:00:00,1744A,118.9233,42.2816,赤峰市,松山一中,,38,38,39,11,20,170,95,162,129,42,36,12,20,0.5,0.5
2023-07-18T22:00:00,1745A,118.9576,42.2728,赤峰市,哈达街,,38,38,43,19,27,178,112,170,139,24,28,16,24,0.4,0.5
2023-07-18T22:00:00,1746A,118.8788,42.2554,赤峰市,天义路,,43,18,31,12,16,192,137,183,149,16,21,16,16,0.1,0.2
2023-07-18T22:00:00,1748A,123.044,41.1196,鞍山市,深沟寺,,41,41,40,24,23,181,68,163,129,25,14,7,9,0.6,0.8
2023-07-18T22:00:00,1749A,123.011,41.0931,鞍山市,太阳城,,44,44,40,22,23,186,58,161,129,32,18,7,8,0.8,1
2023-07-18T22:00:00,1750A,123.0485,41.1442,鞍山市,太平,颗粒物(PM10),51,52,45,29,25,189,67,171,136,33,20,6,8,0.8,1
2023-07-18T22:00:00,1751A,122.9642,41.0971,鞍山市,铁西三道街,颗粒物(PM10),52,53,48,27,25,180,57,163,129,42,26,6,7,1.0,1.2
2023-07-18T22:00:00,1752A,122.9341,41.0833,鞍山市,铁西工业园区,颗粒物(PM10),55,60,52,29,24,171,48,150,120,47,30,8,6,1.0,1.1
2023-07-18T22:00:00,1753A,123.022,41.0821,鞍山市,明达新区,,42,42,42,22,24,186,68,167,134,30,21,6,6,0.7,1
2023-07-18T22:00:00,1754A,123.1289,41.0228,鞍山市,千山,,,,,,,,,,,,,,,,
2023-07-18T22:00:00,1755A,123.7977,41.8491,抚顺市,望花区,细颗粒物(PM2.5),55,57,55,39,32,215,88,203,184,44,28,8,9,1.0,1
2023-07-18T22:00:00,1756A,123.9161,41.8822,抚顺市,顺城区,细颗粒物(PM2.5),63,71,53,45,30,227,20,210,162,66,24,2,5,1.2,0.9
2023-07-18T22:00:00,1757A,124.0436,41.8611,抚顺市,东洲区,细颗粒物(PM2.5),60,52,39,43,26,213,62,192,162,21,12,9,7,0.8,0.6
2023-07-18T22:00:00,1758A,123.9247,41.8642,抚顺市,新抚区,颗粒物(PM10),70,90,50,50,32,225,36,203,154,40,20,5,7,1.3,0.9
2023-07-18T22:00:00,1759A,124.0972,41.8961,抚顺市,大伙房水库,,48,44,33,33,24,214,59,193,149,8,9,3,5,0.7,0.7
2023-07-18T22:00:00,1760A,123.7086,41.8391,抚顺市,沈抚新城,颗粒物(PM10),54,57,55,35,33,205,83,197,176,39,26,8,12,0.9,1.1
2023-07-18T22:00:00,1761A,123.8275,41.3064,本溪市,大峪,颗粒物(PM10),76,102,70,33,29,219,119,195,171,18,23,5,10,1.2,1.1
2023-07-18T22:00:00,1762A,123.7567,41.3325,本溪市,溪湖,颗粒物(PM10),62,73,60,33,31,221,75,188,160,28,23,4,7,1.3,1.4
2023-07-18T22:00:00,1763A,123.7169,41.3094,本溪市,彩屯,颗粒物(PM10),54,58,61,35,36,219,61,183,147,28,30,6,8,1.3,1.8
2023-07-18T22:00:00,1764A,123.7669,41.2864,本溪市,东明,颗粒物(PM10),70,89,56,50,29,247,98,203,181,46,29,8,9,1.8,1.3
2023-07-18T22:00:00,1765A,123.7992,41.2664,本溪市,新立屯,颗粒物(PM10),55,59,51,33,24,180,89,147,120,42,28,7,13,1.6,1.6
2023-07-18T22:00:00,1766A,123.8142,41.3472,本溪市,威宁,颗粒物(PM10),83,116,74,53,41,205,44,174,132,43,25,6,9,1.1,1
2023-07-18T22:00:00,1767A,121.1115,41.0879,锦州市,南山,,41,33,42,26,30,221,131,192,167,23,17,11,9,0.8,0.9
2023-07-18T22:00:00,1768A,121.0533,40.8434,锦州市,开发区,臭氧1小时,65,52,65,21,23,174,172,165,165,12,22,6,9,0.8,0.9
2023-07-18T22:00:00,1769A,121.1836,41.1119,锦州市,百股街道,,41,36,47,24,30,202,129,182,157,15,25,6,9,0.6,0.9
2023-07-18T22:00:00,1770A,121.1178,41.1222,锦州市,天安街道,,,48,53,24,22,225,,200,188,22,22,11,9,0.9,1.3
2023-07-18T22:00:00,1771A,121.1303,41.1386,锦州市,北湖公园,,42,41,57,23,21,208,132,186,165,19,19,6,5,0.9,1.3
2023-07-18T22:00:00,1772A,126.54,43.8622,吉林市,哈达湾,,47,47,18,27,11,110,36,102,92,39,12,6,5,0.8,0.5
2023-07-18T22:00:00,1773A,126.5844,43.8358,吉林市,东局子,,46,46,20,23,12,95,35,86,67,35,18,6,7,1.0,0.7
2023-07-18T22:00:00,1774A,126.5052,43.8245,吉林市,电力学院,,37,37,21,18,11,116,26,102,87,23,12,6,6,0.6,0.6
2023-07-18T22:00:00,1775A,126.6133,43.8972,吉林市,江北,,35,35,24,16,11,101,28,92,67,16,16,6,8,0.8,0.7
2023-07-18T22:00:00,1776A,126.555,43.8306,吉林市,江南公园,,36,36,19,23,12,103,38,91,79,26,18,5,5,1.1,0.7
2023-07-18T22:00:00,1778A,126.7061,43.7133,吉林市,丰满,,,,,,,,,,,,,,,,
2023-07-18T22:00:00,1779A,123.9305,47.3636,齐齐哈尔市,安居小区,,34,34,36,12,13,90,54,82,70,19,20,5,5,0.4,0.5
2023-07-18T22:00:00,1780A,123.9488,47.3386,齐齐哈尔市,中心广场,,24,24,27,2,7,89,49,81,69,21,22,5,5,0.3,0.3
2023-07-18T22:00:00,1781A,123.9483,47.3227,齐齐哈尔市,农牧车辆厂,,27,27,40,16,11,85,58,82,75,11,18,6,7,0.3,0.4
2023-07-18T22:00:00,1783A,123.945,47.2988,齐齐哈尔市,市环境监测站,,25,25,27,9,16,87,59,83,76,10,16,7,7,0.2,0.2
2023-07-18T22:00:00,1784A,129.61,44.561,牡丹江市,环保大楼,,23,14,12,16,9,69,18,62,45,15,11,5,5,0.5,0.4
2023-07-18T22:00:00,1785A,129.6115,44.5782,牡丹江市,文化广场,,32,15,9,22,10,64,19,57,42,18,13,5,5,0.5,0.5
2023-07-18T22:00:00,1786A,129.5904,44.5963,牡丹江市,第一医院,,32,32,10,12,12,61,5,57,40,17,10,4,4,0.5,0.4
2023-07-18T22:00:00,1787A,129.6364,44.6075,牡丹江市,机车工厂,,23,23,16,8,8,64,11,58,35,8,11,3,3,0.6,0.5
2023-07-18T22:00:00,1788A,129.6386,44.5462,牡丹江市,第一中学,,15,15,11,4,5,70,12,65,44,6,8,4,4,0.3,0.3
2023-07-18T22:00:00,1789A,124.81117,46.03138,大庆市,大同区,,18,16,13,8,9,74,56,69,65,9,10,3,5,0.3,0.3
2023-07-18T22:00:00,1790A,125.129,46.533,大庆市,龙凤区,,23,23,20,7,10,109,46,95,75,15,17,4,6,0.4,0.3
2023-07-18T22:00:00,1791A,124.902,46.408,大庆市,红岗区,,19,14,12,13,13,93,55,91,76,14,11,2,2,0.4,0.3
2023-07-18T22:00:00,1792A,125.153,46.586,大庆市,萨尔图区,,33,33,24,20,14,114,37,102,72,32,20,3,4,0.1,0
2023-07-18T22:00:00,1793A,124.9042,46.6215,大庆市,让胡路区,,16,15,17,9,9,127,50,110,88,17,16,2,3,0.3,0.3
2023-07-18T22:00:00,1794A,118.3606,31.3519,芜湖市,监测站,,23,15,30,8,15,118,72,100,90,13,22,2,4,0.5,0.7
2023-07-18T22:00:00,1795A,118.3714,31.4134,芜湖市,科创中心,,21,21,31,9,17,127,62,100,86,24,22,4,6,0.3,0.6
2023-07-18T22:00:00,1796A,118.3673,31.3131,芜湖市,四水厂,,22,12,31,6,14,122,68,109,96,14,22,2,3,0.6,0.8
2023-07-18T22:00:00,1798A,118.5092,31.6837,马鞍山市,湖东路四小,,31,31,24,14,16,135,40,113,105,35,13,7,6,1.0,0.8
2023-07-18T22:00:00,1799A,118.5024,31.6449,马鞍山市,开发区,,29,29,32,10,15,131,23,107,92,43,15,8,8,0.8,0.7
2023-07-18T22:00:00,1800A,118.5228,31.7231,马鞍山市,慈湖,,46,46,33,16,15,129,52,106,99,35,20,11,11,0.8,0.8
2023-07-18T22:00:00,1802A,118.6245,31.7241,马鞍山市,濮塘,,22,10,11,14,16,128,70,106,100,6,10,4,4,0.6,0.6
2023-07-18T22:00:00,1803A,115.9872,29.6815,九江市,十里,,46,40,30,32,21,143,70,118,110,16,13,12,11,0.6,0.7
2023-07-18T22:00:00,1804A,115.9584,29.7046,九江市,茅山头,,46,38,25,32,21,138,72,117,110,28,19,10,10,0.9,0.8
2023-07-18T22:00:00,1805A,115.9877,29.7295,九江市,西园,,42,42,29,27,15,126,77,112,103,34,20,9,9,0.6,0.6
2023-07-18T22:00:00,1806A,116.0172,29.6547,九江市,五七二七厂,颗粒物(PM10),70,90,33,17,19,145,82,116,111,6,9,8,9,0.6,0.7
2023-07-18T22:00:00,1808A,115.9114,29.6038,九江市,综合工业园,,41,41,29,19,20,158,52,126,112,22,19,10,11,0.9,0.8
2023-07-18T22:00:00,1809A,116.0721,29.7535,九江市,石化总厂,,32,32,27,14,15,138,60,106,91,30,16,8,8,0.7,0.7
2023-07-18T22:00:00,1810A,115.9773,29.5698,九江市,庐山气象台,,27,13,12,11,10,105,85,87,87,2,3,9,7,1.1,0.8
2023-07-18T22:00:00,1812A,112.3931,34.6516,洛阳市,市委党校,,49,47,56,31,37,220,154,203,193,10,26,6,6,0.8,0.8
2023-07-18T22:00:00,1814A,112.4657,34.6871,洛阳市,豫西宾馆,,49,48,56,29,32,221,156,213,198,8,16,2,4,0.5,0.6
2023-07-18T22:00:00,1815A,112.494,34.6886,洛阳市,河南林校,,,40,51,26,30,215,,209,207,15,23,4,5,0.6,0.6
2023-07-18T22:00:00,1816A,112.3844,34.623,洛阳市,开发区管委会,颗粒物(PM10),52,53,52,28,28,220,150,214,195,20,16,8,5,0.8,0.6
2023-07-18T22:00:00,1817A,112.4267,34.6258,洛阳市,市委新办公区,颗粒物(PM10),51,52,54,31,35,209,146,204,189,17,15,3,3,0.3,0.3
2023-07-18T22:00:00,1818A,114.4839,36.0621,安阳市,棉研所,颗粒物(PM10),54,57,55,28,28,216,153,208,196,17,18,7,8,0.7,0.6
2023-07-18T22:00:00,1819A,114.3551,36.1017,安阳市,红庙街,颗粒物(PM10),53,55,60,31,29,235,152,216,198,10,11,7,9,0.5,0.5
2023-07-18T22:00:00,1820A,114.361,36.0681,安阳市,银杏小区,颗粒物(PM10),53,55,58,36,36,238,155,219,202,14,17,5,9,0.4,0.5
2023-07-18T22:00:00,1824A,114.3389,34.7781,开封市,肿瘤医院,,,62,52,30,21,169,,163,163,24,13,9,9,0.7,0.6
2023-07-18T22:00:00,1826A,114.2885,34.7965,开封市,世纪星幼儿园,,,57,45,,,175,125,174,163,18,15,5,5,0.6,0.7
2023-07-18T22:00:00,1828A,113.227,35.2125,焦作市,市环保局,颗粒物(PM10),55,60,48,31,25,213,155,206,193,14,11,1,3,0.5,0.5
2023-07-18T22:00:00,1830A,113.1992,35.2590,焦作市,影视城,,,,,,,,,,,,,,,,
2023-07-18T22:00:00,1832A,113.3257,33.742,平顶山市,新华旅馆,颗粒物(PM10),53,56,54,36,33,187,110,174,156,26,19,7,4,0.6,0.7
2023-07-18T22:00:00,1833A,113.2919,33.737,平顶山市,规划设计院,颗粒物(PM10),56,61,53,22,26,182,106,173,158,25,15,8,7,0.6,0.6
2023-07-18T22:00:00,1834A,113.182,33.774,平顶山市,平顶山工学院,,45,45,51,12,22,179,125,172,161,17,14,5,6,0.4,0.5
2023-07-18T22:00:00,1835A,111.1922,34.7752,三门峡市,市政府,,,,40,21,22,169,124,162,151,22,18,4,4,0.6,0.6
2023-07-18T22:00:00,1836A,111.1587,34.7942,三门峡市,开发区,,44,44,50,21,24,190,126,167,152,23,17,6,6,0.3,0.3
2023-07-18T22:00:00,1838A,111.143,34.7955,三门峡市,风景区,细颗粒物(PM2.5),52,44,42,36,26,185,120,168,153,17,14,6,6,0.3,0.3
2023-07-18T22:00:00,1840A,111.2992,30.6981,宜昌市,白龙岗,,48,48,34,19,16,151,89,136,130,34,23,6,5,0.4,0.4
2023-07-18T22:00:00,1841A,111.3549,30.6465,宜昌市,伍家岗,,50,50,32,22,18,160,70,159,131,48,28,4,3,0.7,0.6
2023-07-18T22:00:00,1842A,111.2628,30.6961,宜昌市,点军区,,41,41,30,19,16,154,64,142,128,24,15,5,5,0.5,0.5
2023-07-18T22:00:00,1843A,111.3275,30.7819,宜昌市,夷陵区,,36,36,30,19,15,156,75,135,126,16,15,3,2,0.6,0.5
2023-07-18T22:00:00,1844A,112.2494,30.3197,荆州市,市图书馆,,44,44,44,29,23,140,123,123,123,13,11,9,9,0.7,0.7
2023-07-18T22:00:00,1845A,112.2008,30.3544,荆州市,市委党校,细颗粒物(PM2.5),52,47,49,36,26,132,111,125,124,16,11,9,8,0.8,0.8
2023-07-18T22:00:00,1847A,113.1094,29.3578,岳阳市,南湖风景区,,49,37,36,34,24,134,105,128,123,13,10,8,10,0.9,1
2023-07-18T22:00:00,1848A,113.1493,29.4251,岳阳市,城陵矶,,39,39,38,23,23,130,82,117,114,28,17,7,10,0.7,0.9
2023-07-18T22:00:00,1849A,113.1497,29.3575,岳阳市,开发区,,39,39,36,20,18,139,109,128,127,14,10,9,9,0.7,0.8
2023-07-18T22:00:00,1850A,113.2621,29.4758,岳阳市,云溪区,,38,38,32,21,20,134,117,124,124,7,5,7,8,0.7,0.7
2023-07-18T22:00:00,1851A,112.9943,29.4402,岳阳市,君山区,,38,22,35,26,24,127,94,120,115,7,8,6,6,0.7,0.8
2023-07-18T22:00:00,1852A,113.2117,29.355,岳阳市,金凤水库,,39,33,29,27,18,140,113,124,124,6,4,4,4,0.4,0.5
2023-07-18T22:00:00,1854A,111.6975,28.9703,常德市,市二中,,,,38,26,29,131,110,120,115,7,5,6,7,0.4,0.5
2023-07-18T22:00:00,1857A,111.7158,29.1456,常德市,白鹤山,,39,24,26,4,8,135,122,125,118,8,7,4,6,0.5,0.5
2023-07-18T22:00:00,1858A,110.5319,29.1217,张家界市,永定新区,,,30,41,20,27,154,,137,122,16,12,4,5,0.3,0.5
2023-07-18T22:00:00,1859A,110.4697,29.1242,张家界市,电业局,,32,31,41,20,27,147,100,130,113,11,14,6,7,0.4,0.4
2023-07-18T22:00:00,1860A,110.5594,29.3547,张家界市,未央路,,33,33,38,21,23,134,53,122,94,11,10,3,3,0.3,0.3
2023-07-18T22:00:00,1861A,110.4417,29.315,张家界市,袁家界,,29,21,30,15,22,154,91,144,109,3,4,4,6,0.6,0.6
2023-07-18T22:00:00,1862A,110.4144,25.3167,桂林市,电子科大尧山校区,,21,21,22,14,16,116,55,116,61,6,6,6,4,0.7,0.7
2023-07-18T22:00:00,1863A,110.2819,25.2697,桂林市,监测站,,45,45,29,14,18,102,28,102,50,27,11,5,5,0.8,0.8
2023-07-18T22:00:00,1864A,110.3089,25.2708,桂林市,龙隐路小学,,26,26,24,15,17,99,35,99,52,9,7,8,6,0.7,0.7
2023-07-18T22:00:00,1865A,110.2869,25.2178,桂林市,八中,,,34,24,18,15,103,,102,51,26,12,4,4,0.6,0.6
2023-07-18T22:00:00,1866A,109.2262,21.588,北海市,牛尾岭水库,,22,12,13,2,4,138,68,80,74,6,6,4,11,0.5,0.7
2023-07-18T22:00:00,1867A,109.1436,21.4086,北海市,海滩公园,,38,38,32,5,7,108,108,99,99,4,4,4,3,0.7,0.3
2023-07-18T22:00:00,1868A,109.0981,21.4661,北海市,新市环保局,,31,14,19,7,8,97,97,91,91,4,4,3,3,0.6,0.6
2023-07-18T22:00:00,1869A,109.1778,21.5233,北海市,北海工业园,,29,12,17,15,9,92,91,88,88,3,3,4,4,0.5,0.5
2023-07-18T22:00:00,1870A,109.4856,24.3895,柳州市,柳东小学,,,12,18,10,16,81,,76,58,6,5,7,5,0.3,0.4
2023-07-18T22:00:00,1871A,109.4157,24.3277,柳州市,环保监测站,,18,14,23,0,18,80,56,78,60,11,8,5,5,0.4,0.5
2023-07-18T22:00:00,1872A,109.389,24.341,柳州市,河西水厂,,19,11,32,7,20,79,60,68,62,9,30,8,15,0.6,1.6
2023-07-18T22:00:00,1873A,109.4311,24.2921,柳州市,市四中,,20,9,23,10,15,81,62,77,60,8,9,8,7,0.7,0.8
2023-07-18T22:00:00,1874A,109.4006,24.3631,柳州市,市九中,,20,14,29,4,18,78,63,76,62,6,11,7,11,0.5,0.6
2023-07-18T22:00:00,1875A,109.4958,24.3134,柳州市,古亭山,,21,1,19,6,14,74,65,73,62,6,8,7,5,0.6,0.7
2023-07-18T22:00:00,1876A,109.5078,18.2489,三亚市,河东子站,,29,29,26,14,13,101,49,95,70,10,3,2,2,0.6,0.5
2023-07-18T22:00:00,1877A,109.4964,18.2681,三亚市,河西子站,,31,31,26,12,12,102,46,82,66,15,11,1,1,0.5,0.5
2023-07-18T22:00:00,1878A,104.7778,31.4741,绵阳市,富乐山,,39,31,32,17,19,181,123,161,151,7,8,3,3,0.7,0.7
2023-07-18T22:00:00,1879A,104.7563,31.4535,绵阳市,市人大,,37,37,30,24,20,172,60,156,134,60,18,8,10,0.7,0.6
2023-07-18T22:00:00,1880A,104.6697,31.4668,绵阳市,高新区自来水公司,,37,37,37,24,23,183,101,174,161,33,16,6,6,0.6,0.5
2023-07-18T22:00:00,1881A,104.7287,31.5075,绵阳市,三水厂,,44,44,30,26,22,182,77,164,148,49,15,5,5,0.5,0.6
2023-07-18T22:00:00,1882A,104.563,28.793,宜宾市,石马中学,,39,21,39,18,24,199,122,188,166,8,16,5,7,0.4,0.5
2023-07-18T22:00:00,1883A,104.6201,28.7728,宜宾市,市委,,34,32,48,21,28,188,106,180,155,19,26,9,11,0.5,0.6
2023-07-18T22:00:00,1884A,104.6055,28.793,宜宾市,宜宾四中,,34,30,51,19,30,188,107,178,161,14,24,8,15,0.5,0.6
2023-07-18T22:00:00,1885A,104.639,28.7562,宜宾市,市政府,,33,31,55,17,28,198,103,182,153,16,26,8,9,0.6,0.7
2023-07-18T22:00:00,1886A,104.5742,28.7199,宜宾市,黄金嘴,,35,28,42,18,24,188,112,178,154,14,22,7,8,0.6,0.7
2023-07-18T22:00:00,1888A,101.6891,26.571,攀枝花市,弄弄坪,,48,48,32,22,17,166,106,155,145,20,17,10,10,0.8,0.7
2023-07-18T22:00:00,1889A,101.5769,26.5928,攀枝花市,河门口,,39,39,43,20,21,187,124,167,153,14,20,15,16,0.7,1
2023-07-18T22:00:00,1890A,101.7169,26.585,攀枝花市,炳草岗,,39,39,43,15,18,171,123,157,148,16,27,18,18,0.7,0.7
2023-07-18T22:00:00,1891A,101.7369,26.5008,攀枝花市,仁和,,49,49,34,26,19,185,86,175,152,29,15,11,18,1.0,0.6
2023-07-18T22:00:00,1893A,105.4324,28.9634,泸州市,九狮山,,32,32,38,11,12,182,74,156,116,22,24,5,9,0.5,0.4
2023-07-18T22:00:00,1894A,105.4427,28.9063,泸州市,小市上码头,颗粒物(PM10),51,52,71,15,27,204,81,169,126,24,20,26,14,0.7,0.7
2023-07-18T22:00:00,1895A,105.4241,28.8573,泸州市,兰田宪桥,,41,41,52,18,30,207,87,176,120,12,19,9,13,0.5,0.7
2023-07-18T22:00:00,1896A,105.4379,28.8833,泸州市,市环监站,,29,29,45,12,22,184,90,159,123,12,16,4,12,0.6,0.6
2023-07-18T22:00:00,1901A,104.4239,31.1208,德阳市,东山公园,颗粒物(PM10),53,56,34,33,21,180,107,161,145,18,17,3,2,0.6,0.5
2023-07-18T22:00:00,1902A,104.3826,31.1317,德阳市,西小区,,48,48,40,27,21,177,98,154,139,20,15,2,2,0.6,0.6
2023-07-18T22:00:00,1904A,104.3553,31.1091,德阳市,耐火材料厂,,46,46,36,29,22,185,80,163,143,20,13,1,2,0.6,0.6
2023-07-18T22:00:00,1905A,106.056,30.8064,南充市,西山风景区,,44,22,25,19,19,178,139,170,164,6,7,4,18,0.4,0.4
2023-07-18T22:00:00,1906A,106.0789,30.8023,南充市,南充市委,,44,44,45,21,21,177,138,170,162,15,18,13,10,0.4,0.5
2023-07-18T22:00:00,1907A,106.1031,30.8217,南充市,南充炼油厂,颗粒物(PM10),53,56,52,21,22,178,139,173,161,19,20,19,10,0.4,0.4
2023-07-18T22:00:00,1908A,106.1064,30.7856,南充市,高坪区监测站,,49,5,37,34,22,177,126,165,158,24,24,80,12,0.4,0.4
2023-07-18T22:00:00,1909A,106.0642,30.7636,南充市,嘉陵区环保局,,42,42,41,24,22,188,132,173,165,18,23,5,8,0.4,0.4
2023-07-18T22:00:00,1910A,106.1087,30.8388,南充市,市环境监测站,,43,41,46,20,27,182,136,173,159,21,19,13,8,0.4,0.4
2023-07-18T22:00:00,1911A,106.9222,27.6869,遵义市,丁字口,,22,21,24,15,17,125,53,114,79,20,20,6,7,0.5,0.6
2023-07-18T22:00:00,1912A,106.9242,27.7019,遵义市,凤凰山,,45,34,30,31,29,140,64,119,81,12,15,8,10,0.6,0.6
2023-07-18T22:00:00,1913A,106.8906,27.6486,遵义市,忠庄,,30,30,32,17,17,140,61,126,82,11,14,2,4,0.5,0.6
2023-07-18T22:00:00,1914A,106.9231,27.6506,遵义市,舟水桥,,32,20,24,22,15,134,33,124,71,26,20,2,2,0.9,0.7
2023-07-18T22:00:00,1915A,106.9178,27.72,遵义市,干田坝,,18,17,25,12,19,126,47,112,79,14,17,5,8,0.5,0.5
2023-07-18T22:00:00,1916A,103.7897,25.5035,曲靖市,环境监测站,,31,30,35,18,16,131,99,125,115,19,17,10,8,0.7,0.7
2023-07-18T22:00:00,1917A,103.8,25.5364,曲靖市,烟厂办公区,,34,34,34,17,16,125,89,120,109,19,12,12,8,0.7,0.6
2023-07-18T22:00:00,1918A,108.7197,34.3956,咸阳市,气象站,,,,,,,,,,,,,,,,
2023-07-18T22:00:00,1919A,108.673,34.3155,咸阳市,实验中学,,,32,42,22,24,199,,192,188,16,15,5,6,0.5,0.5
2023-07-18T22:00:00,1920A,108.7233,34.3617,咸阳市,师范学院,颗粒物(PM10),57,63,47,24,24,199,131,184,169,24,19,5,6,0.6,0.6
2023-07-18T22:00:00,1922A,109.0656,35.0994,铜川市,党校,颗粒物(PM10),72,93,51,18,20,159,72,150,131,34,18,6,7,0.9,0.8
2023-07-18T22:00:00,1923A,109.0697,35.0697,铜川市,王益区政府,颗粒物(PM10),58,66,38,23,22,167,70,160,140,32,14,5,4,0.7,0.6
2023-07-18T22:00:00,1924A,108.9344,34.9058,铜川市,新区管委会,颗粒物(PM10),55,59,40,25,21,169,121,165,157,27,14,10,8,0.5,0.6
2023-07-18T22:00:00,1926A,109.4131,36.6275,延安市,枣园,颗粒物(PM10),51,51,39,19,21,185,102,172,156,34,26,7,7,0.6,0.6
2023-07-18T22:00:00,1927A,109.4761,36.6028,延安市,延大医附院,,45,45,40,28,21,178,96,169,156,48,29,6,5,0.5,0.3
2023-07-18T22:00:00,1929A,109.5056,36.6106,延安市,百米大道,,44,44,47,20,24,169,105,163,154,46,36,6,6,0.6,0.6
2023-07-18T22:00:00,1930A,107.185,34.3063,宝鸡市,庙沟村,,30,30,33,19,19,167,94,156,134,5,7,8,9,0.4,0.3
2023-07-18T22:00:00,1931A,107.0708,34.3017,宝鸡市,竹园沟,,32,29,28,22,19,207,93,186,151,23,13,6,6,0.5,0.4
2023-07-18T22:00:00,1932A,107.1906,34.3672,宝鸡市,三陆医院,,46,46,49,20,28,206,98,192,177,29,23,6,9,0.5,0.5
2023-07-18T22:00:00,1933A,107.1431,34.3547,宝鸡市,监测站,,46,46,38,28,22,201,75,187,163,39,17,8,9,0.5,0.4
2023-07-18T22:00:00,1934A,107.1186,34.3739,宝鸡市,技工学校,,38,32,42,26,25,204,107,189,173,26,16,5,6,0.5,0.5
2023-07-18T22:00:00,1935A,107.3906,34.3528,宝鸡市,陈仓区环保局家属楼,颗粒物(PM10),60,69,50,32,30,218,132,202,192,62,31,7,7,0.6,0.5
2023-07-18T22:00:00,1936A,107.2058,34.3497,宝鸡市,文理学院,颗粒物(PM10),51,52,45,26,24,210,86,193,171,32,15,10,11,0.5,0.5
2023-07-18T22:00:00,1937A,107.2386,34.3622,宝鸡市,三迪小学,,,,,,,,,,,,,,,,
2023-07-18T22:00:00,1938A,109.5293,34.5101,渭南市,农科所,颗粒物(PM10),51,51,47,24,28,158,96,150,135,22,18,5,5,0.7,0.8
2023-07-18T22:00:00,1939A,109.4974,34.4877,渭南市,日报社,颗粒物(PM10),62,73,52,26,28,183,90,174,157,39,26,6,7,0.5,0.4
2023-07-18T22:00:00,1940A,109.4636,34.493,渭南市,体育馆,,48,48,48,20,23,181,110,172,161,26,33,4,6,0.5,0.5
2023-07-18T22:00:00,1941A,109.4259,34.5023,渭南市,高新一小,,41,37,49,19,23,181,129,173,163,12,13,5,7,0.4,0.4
2023-07-18T22:00:00,1943A,102.1725,38.5339,金昌市,新川苑,,41,37,44,6,8,160,130,158,153,16,21,9,14,0.5,0.6
2023-07-18T22:00:00,1944A,102.1692,38.5167,金昌市,天庆家园,,45,41,31,20,13,167,141,164,160,20,26,9,16,0.7,0.7
2023-07-18T22:00:00,1945A,98.2908,39.7711,嘉峪关市,气象局,颗粒物(PM10),53,56,40,14,12,157,102,152,141,64,37,3,3,0.3,0.2
2023-07-18T22:00:00,1947A,106.3394,38.817,石嘴山市,沙湖旅游区,颗粒物(PM10),55,60,43,33,15,225,146,209,198,14,18,17,17,0.7,0.6
2023-07-18T22:00:00,1948A,106.3668,39.0145,石嘴山市,大武口朝阳西街,臭氧1小时,68,43,46,20,19,213,174,202,201,25,19,11,13,0.4,0.4
2023-07-18T22:00:00,1949A,106.7704,39.2282,石嘴山市,惠农南大街,颗粒物(PM10),52,54,44,16,18,202,120,191,170,23,19,1,5,0.2,0.4
2023-07-18T22:00:00,1950A,106.7099,39.1325,石嘴山市,红果子镇惠新街,颗粒物(PM10),54,58,44,16,16,211,129,199,184,19,19,5,9,0.3,0.4
2023-07-18T22:00:00,1951A,84.895,45.6094,克拉玛依市,长征新村,,31,31,26,10,6,129,96,123,119,25,13,9,9,0.3,0.2
2023-07-18T22:00:00,1952A,84.8988,45.5893,克拉玛依市,南林小区,颗粒物(PM10),52,54,32,13,10,129,17,116,92,83,22,5,5,0.2,0.1
2023-07-18T22:00:00,1954A,84.905,44.3396,克拉玛依市,独山子区,,38,33,35,15,13,150,120,140,137,6,9,7,8,0.3,0.3
2023-07-18T22:00:00,1955A,85.6979,46.098,克拉玛依市,乌尔禾区商贸楼,,24,23,27,6,9,110,74,103,98,11,8,6,6,0.3,0.3
2023-07-18T22:00:00,1956A,86.1472,41.7538,巴音郭楞州,孔雀公园,颗粒物(PM10),83,115,66,35,18,129,84,118,116,36,14,5,5,0.5,0.3
2023-07-18T22:00:00,1957A,86.1972,41.7166,巴音郭楞州,棉纺厂,颗粒物(PM10),74,97,78,30,24,130,104,121,120,16,9,4,4,0.3,0.3
2023-07-18T22:00:00,1958A,86.2357,41.7173,巴音郭楞州,经济开发区,颗粒物(PM10),65,79,69,26,18,134,99,125,123,13,4,4,4,0.3,0.2
2023-07-18T22:00:00,1961A,117.532,36.6868,济南市,东山小学,颗粒物(PM10),62,73,44,32,17,237,152,223,204,30,24,12,6,0.6,0.4
2023-07-18T22:00:00,1966A,120.0405,35.8735,青岛市,黄岛区4号,,,17,27,12,14,119,,107,100,,9,7,7,0.9,0.6
2023-07-18T22:00:00,1982A,122.0693,37.2174,威海市,文登开发区,,30,22,23,7,11,123,94,118,110,16,12,6,6,0.5,0.4
2023-07-18T22:00:00,2031A,113.1817,27.9958,株洲市,云田中学,,18,18,26,9,21,91,57,88,78,10,9,6,7,0.5,0.5
2023-07-18T22:00:00,2054A,114.1099,32.1059,信阳市,平桥分局,,27,27,23,9,8,113,82,105,100,6,6,6,7,0.3,0.4
2023-07-18T22:00:00,2064A,113.9956,32.1271,信阳市,南湾水厂,,34,34,29,13,14,109,85,100,99,7,7,9,8,0.5,0.6
2023-07-18T22:00:00,2065A,114.0775,32.1195,信阳市,市酿酒公司,,32,32,23,19,16,112,85,105,101,8,8,7,7,0.6,0.6
2023-07-18T22:00:00,2066A,114.0609,32.1399,信阳市,审计局,,,20,26,21,17,112,85,107,102,9,7,2,7,,0.4
2023-07-18T22:00:00,2067A,114.6613,33.6128,周口市,市环境监测站,,28,24,59,19,20,163,75,120,101,11,9,3,3,0.5,0.5
2023-07-18T22:00:00,2068A,114.6758,33.6347,周口市,周口师范,,35,35,40,9,19,139,69,115,100,14,9,4,4,0.3,0.4
2023-07-18T22:00:00,2069A,114.6546,33.5979,周口市,市运管处,,29,27,35,19,20,173,92,119,105,6,5,7,8,0.5,0.4
2023-07-18T22:00:00,2070A,114.6369,33.6406,周口市,川汇区环保局,,32,32,37,7,17,130,75,110,100,9,9,2,2,0.4,0.6
2023-07-18T22:00:00,2075A,117.6336,24.4674,漳州市,九湖,,,,,,,,,,,,,,,,
2023-07-18T22:00:00,2160A,112.85,35.5051,晋城市,自来水公司,臭氧1小时,101,61,53,36,28,220,202,212,212,16,16,8,8,1.0,1
2023-07-18T22:00:00,2161A,112.8318,35.4936,晋城市,白云商贸,臭氧1小时,92,39,52,31,26,214,193,205,205,18,19,10,10,0.9,1
2023-07-18T22:00:00,2162A,112.8508,35.4887,晋城市,市环保局,,,54,57,31,30,196,,190,190,19,23,10,9,1.0,1
2023-07-18T22:00:00,2163A,112.8676,35.4897,晋城市,技术学院,臭氧1小时,88,69,59,36,26,207,190,199,199,16,20,9,8,0.9,0.9
2023-07-18T22:00:00,2165A,112.8453,35.546,晋城市,白马寺,,,,,,,,,,,,,,,,
2023-07-18T22:00:00,2166A,112.4397,39.3522,朔州市,平朔,颗粒物(PM10),55,59,42,25,22,186,72,175,150,35,15,10,7,0.8,0.7
2023-07-18T22:00:00,2167A,112.4575,39.3617,朔州市,朔唯,,,,48,35,23,198,94,188,162,29,15,9,8,0.6,0.6
2023-07-18T22:00:00,2168A,112.4258,39.3197,朔州市,区政府,颗粒物(PM10),60,69,44,37,18,186,68,175,148,38,14,4,5,0.6,0.6
2023-07-18T22:00:00,2169A,112.4072,39.3278,朔州市,市环保局,颗粒物(PM10),53,56,43,22,22,198,93,188,162,27,11,5,7,0.4,0.5
2023-07-18T22:00:00,2170A,112.4272,39.3681,朔州市,市二中,颗粒物(PM10),68,85,48,27,22,186,57,177,149,45,16,11,8,0.6,0.5
2023-07-18T22:00:00,2171A,112.7532,37.6945,晋中市,锦纶小区,臭氧1小时,57,41,41,21,19,202,165,184,177,16,17,10,11,0.4,0.4
2023-07-18T22:00:00,2173A,112.7249,37.7067,晋中市,南都小区,臭氧1小时,57,51,40,25,22,200,165,184,177,13,17,10,11,0.5,0.4
2023-07-18T22:00:00,2174A,112.6991,37.6982,晋中市,榆次区政府,臭氧1小时,63,46,41,26,22,193,170,178,174,16,17,10,10,0.6,0.5
2023-07-18T22:00:00,2175A,110.9956,35.0147,运城市,运城中学,臭氧1小时,58,43,42,22,19,175,166,171,162,5,5,5,5,1.0,0.8
2023-07-18T22:00:00,2178A,110.9686,35.0303,运城市,地区技校,,,,,,,,,,,,,,,,
2023-07-18T22:00:00,2179A,111.0414,35.1147,运城市,空港新区,,,,47,,25,179,174,171,171,10,8,4,7,0.7,0.7
2023-07-18T22:00:00,2181A,112.7383,38.4519,忻州市,开发区,颗粒物(PM10),53,56,51,26,30,171,118,164,149,34,26,9,12,0.5,0.6
2023-07-18T22:00:00,2182A,112.7003,38.4928,忻州市,会展中心,颗粒物(PM10),77,104,48,49,31,180,71,171,153,64,25,8,10,0.6,0.6
2023-07-18T22:00:00,2183A,111.1406,37.5211,吕梁市,环保局,颗粒物(PM10),82,113,68,47,31,219,100,186,176,68,37,5,6,0.8,0.6
2023-07-18T22:00:00,2185A,111.1297,37.5136,吕梁市,自来水公司,细颗粒物(PM2.5),64,75,80,46,36,214,133,187,182,45,39,5,6,0.7,0.6
2023-07-18T22:00:00,2187A,106.8174,39.6973,乌海市,市林业局,臭氧1小时,60,42,66,17,18,206,168,191,183,7,17,11,26,0.6,0.8
2023-07-18T22:00:00,2188A,106.7907,39.6667,乌海市,中海勃湾学校,,47,43,55,27,21,196,150,184,175,17,17,12,22,0.4,0.6
2023-07-18T22:00:00,2191A,122.2532,43.6801,通辽市,艺术职业学校,颗粒物(PM10),58,66,31,39,19,139,133,127,127,17,16,6,5,1.1,0.9
2023-07-18T22:00:00,2192A,119.7594,49.2261,呼伦贝尔市,区环保局,,46,38,34,32,22,126,71,117,100,7,11,4,4,0.4,0.4
2023-07-18T22:00:00,2195A,107.4212,40.761,巴彦淖尔市,附二中,颗粒物(PM10),59,68,46,22,15,223,144,203,193,12,11,2,4,0.5,0.6
2023-07-18T22:00:00,2196A,107.37,40.7372,巴彦淖尔市,市环保大楼,,50,50,52,16,20,216,158,198,192,7,9,2,4,0.4,0.5
2023-07-18T22:00:00,2197A,113.1306,40.9923,乌兰察布市,集宁新区,,49,45,41,30,23,198,154,193,183,16,14,19,15,0.7,0.8
2023-07-18T22:00:00,2200A,122.0392,46.0656,兴安盟,胜华新制药厂,,36,35,25,25,18,108,66,102,87,4,5,4,3,0.5,0.4
2023-07-18T22:00:00,2201A,121.9504,46.0741,兴安盟,科右前旗环保局,,32,32,27,16,17,115,74,109,98,4,4,3,3,0.4,0.3
2023-07-18T22:00:00,2202A,116.1042,43.9317,锡林郭勒盟,市环保监测站,,35,19,34,8,11,170,112,163,150,15,6,11,11,0.3,0.3
2023-07-18T22:00:00,2203A,116.0781,43.9311,锡林郭勒盟,市政府,,41,11,29,8,11,181,129,172,162,15,11,9,9,0.2,0.3
2023-07-18T22:00:00,2204A,105.6467,38.8363,阿拉善盟,西城区西花园,臭氧1小时,105,42,32,24,16,216,209,194,194,13,11,12,9,0.6,0.5
2023-07-18T22:00:00,2205A,105.6985,38.8411,阿拉善盟,蒙二幼,臭氧1小时,105,46,38,18,14,221,210,199,199,10,8,11,9,0.6,0.5
2023-07-18T22:00:00,2206A,105.724,38.8516,阿拉善盟,环保局新楼,臭氧1小时,110,36,23,18,14,233,219,204,204,9,6,13,11,0.4,0.4
2023-07-18T22:00:00,2207A,121.6094,41.998,阜新市,工业园区,颗粒物(PM10),54,58,62,30,25,192,90,177,150,35,31,6,7,0.9,1
2023-07-18T22:00:00,2208A,121.6697,42.0279,阜新市,长青街,颗粒物(PM10),51,51,56,22,24,188,124,175,158,16,22,6,9,0.8,0.9
2023-07-18T22:00:00,2209A,121.6673,42.0705,阜新市,农业园区,,45,35,50,31,32,193,111,172,155,13,13,7,9,0.8,0.8
2023-07-18T22:00:00,2210A,121.6717,42.0224,阜新市,东苑,,50,48,59,35,31,181,135,172,159,18,22,12,10,0.8,0.8
2023-07-18T22:00:00,2211A,121.6506,42.0498,阜新市,玉龙新城,颗粒物(PM10),57,63,52,28,22,191,82,177,151,27,21,3,4,0.9,0.8
2023-07-18T22:00:00,2212A,123.2,41.1953,辽阳市,宏伟区,,50,50,43,20,20,192,60,174,140,35,16,7,7,0.7,0.8
2023-07-18T22:00:00,2213A,123.1683,41.2495,辽阳市,新华园,,,38,58,27,27,197,,176,146,42,24,13,12,1.1,0.9
2023-07-18T22:00:00,2214A,123.2354,41.2639,辽阳市,滨河路,颗粒物(PM10),55,60,54,35,30,206,28,185,142,59,25,15,11,1.0,1.2
2023-07-18T22:00:00,2215A,123.149,41.2991,辽阳市,铁西工业园,,46,46,55,26,26,209,72,172,131,28,27,16,16,1.0,1.3
2023-07-18T22:00:00,2216A,123.8139,42.3022,铁岭市,汇工街西,颗粒物(PM10),85,119,62,62,33,214,53,194,160,35,22,23,18,1.2,1.1
2023-07-18T22:00:00,2217A,123.8649,42.2923,铁岭市,水上乐园,细颗粒物(PM2.5),67,62,50,48,31,208,85,192,162,24,19,2,5,1.2,1
2023-07-18T22:00:00,2218A,123.8486,42.2867,铁岭市,银州路东段,细颗粒物(PM2.5),69,80,64,50,35,187,94,176,152,31,21,6,7,1.2,1.1
2023-07-18T22:00:00,2219A,123.7153,42.2217,铁岭市,金沙江路北,颗粒物(PM10),63,75,50,44,28,204,91,175,138,31,25,9,11,1.3,1.2
2023-07-18T22:00:00,2220A,120.4318,41.5881,朝阳市,西梁,臭氧1小时,67,62,54,25,26,208,173,191,189,15,19,13,12,1.1,1
2023-07-18T22:00:00,2221A,120.4521,41.5646,朝阳市,河畔小区,臭氧1小时,92,51,47,22,24,216,193,199,199,10,14,11,8,0.9,0.7
2023-07-18T22:00:00,2222A,120.4176,41.5648,朝阳市,八里堡,臭氧1小时,64,64,54,28,27,212,171,200,195,23,26,10,8,1.0,0.9
2023-07-18T22:00:00,2223A,120.3806,41.5969,朝阳市,农业园区,颗粒物(PM10),51,52,52,25,28,196,117,184,171,35,20,5,6,1.0,0.8
2023-07-18T22:00:00,2225A,124.4002,43.1713,四平市,一商场,颗粒物(PM10),59,67,34,40,21,130,6,121,101,63,17,7,8,0.9,0.6
2023-07-18T22:00:00,2226A,124.388,43.193,四平市,境园,,50,46,27,35,16,115,6,102,83,40,18,5,7,0.3,0.4
2023-07-18T22:00:00,2227A,125.1358,42.8845,辽源市,环保局,细颗粒物(PM2.5),59,52,25,42,18,127,30,118,97,25,11,5,6,1.0,0.7
2023-07-18T22:00:00,2229A,125.9358,41.7173,通化市,光明,颗粒物(PM10),52,54,32,35,20,121,20,113,78,23,14,7,9,0.4,0.5
2023-07-18T22:00:00,2230A,125.9446,41.7325,通化市,铁路,颗粒物(PM10),53,55,28,31,19,117,30,105,73,10,12,6,8,0.4,0.6
2023-07-18T22:00:00,2231A,126.4219,41.9171,白山市,喜丰,颗粒物(PM10),59,67,43,33,21,149,36,132,104,18,13,8,9,0.7,0.7
2023-07-18T22:00:00,2232A,126.4077,41.9419,白山市,环保局,颗粒物(PM10),60,69,44,34,23,142,18,126,91,29,16,6,8,0.5,0.6
2023-07-18T22:00:00,2233A,124.8006,45.1214,松原市,江南,,22,22,13,9,7,93,47,84,78,18,11,5,4,0.5,0.4
2023-07-18T22:00:00,2234A,124.7965,45.1722,松原市,江北,,29,25,10,20,8,95,27,79,67,17,9,4,4,0.4,0.4
2023-07-18T22:00:00,2235A,122.7911,45.6077,白城市,洮北区环保局,,23,23,25,9,6,95,57,88,76,12,15,5,5,0.1,0.1
2023-07-18T22:00:00,2236A,122.8738,45.5725,白城市,市环保局,,26,26,19,14,9,98,50,89,75,17,16,5,5,0.3,0.2
2023-07-18T22:00:00,2237A,129.47,42.8883,延边朝鲜族自治州,妇幼医院,,18,18,17,7,12,75,42,72,58,17,12,7,7,0.6,0.6
2023-07-18T22:00:00,2238A,129.5055,42.9108,延边朝鲜族自治州,延边医院,,21,21,19,8,12,81,47,77,64,10,11,6,6,0.6,0.6
2023-07-18T22:00:00,2239A,129.3964,42.8881,延边朝鲜族自治州,朝阳川镇医院,,16,16,16,5,6,81,33,75,56,9,8,6,6,0.5,0.6
2023-07-18T22:00:00,2240A,130.9762,45.3001,鸡西市,环保局,,30,30,22,14,10,65,7,50,41,33,20,4,5,0.5,0.3
2023-07-18T22:00:00,2243A,130.9429,45.3039,鸡西市,第一中学,,24,24,19,15,8,66,10,55,45,26,14,5,5,0.4,0.3
2023-07-18T22:00:00,2244A,130.2537,47.3416,鹤岗市,哈啤分公司,,16,16,10,6,6,62,14,56,39,12,9,11,10,0.5,0.4
2023-07-18T22:00:00,2245A,130.2684,47.3086,鹤岗市,斯达机电,,20,20,9,8,5,62,17,57,48,28,10,10,9,0.6,0.4
2023-07-18T22:00:00,2246A,130.3114,47.3388,鹤岗市,东山纸板厂,颗粒物(PM10),51,52,12,17,9,63,3,58,40,22,11,10,9,0.6,0.4
2023-07-18T22:00:00,2247A,130.1097,47.3382,鹤岗市,五号水库,,8,8,7,4,6,142,12,79,41,11,6,8,7,0.2,0.1
2023-07-18T22:00:00,2248A,131.1511,46.6937,双鸭山市,双合村,,20,20,17,6,8,75,18,61,52,19,10,10,9,0.2,0.1
2023-07-18T22:00:00,2249A,131.1652,46.6191,双鸭山市,南小市,,22,22,22,7,8,70,20,59,49,12,8,7,6,0.2,0.1
2023-07-18T22:00:00,2250A,131.1524,46.6554,双鸭山市,环保局,,13,13,10,9,6,62,19,49,45,23,13,8,8,0.4,0.3
2023-07-18T22:00:00,2251A,131.12,46.5656,双鸭山市,苗圃,,17,17,12,5,5,76,28,70,57,3,6,2,4,0.4,0.5
2023-07-18T22:00:00,2252A,128.5159,47.4311,伊春市,环保局,,29,29,18,7,2,70,5,55,32,14,10,4,4,0.6,0.4
2023-07-18T22:00:00,2253A,128.9102,47.7412,伊春市,电力嘉园,,19,11,9,13,8,96,11,76,52,14,8,5,6,0.8,0.7
2023-07-18T22:00:00,2254A,129.5029,48.471,伊春市,汤旺河国家公园,,30,30,28,10,13,56,13,49,29,1,2,14,12,0.5,0.5
2023-07-18T22:00:00,2255A,130.2751,46.8028,佳木斯市,佳纺,,36,36,25,9,9,87,6,73,57,41,16,3,2,0.5,0.4
2023-07-18T22:00:00,2256A,130.3995,46.8307,佳木斯市,发电厂,,18,18,13,8,7,101,40,88,82,18,12,3,3,0.6,0.5
2023-07-18T22:00:00,2257A,130.3258,46.7975,佳木斯市,环保局,,31,31,23,18,11,84,22,74,66,38,18,2,3,0.7,0.6
2023-07-18T22:00:00,2258A,130.3648,46.8032,佳木斯市,十一中,,34,34,20,19,14,88,28,77,67,44,19,4,4,0.9,0.5
2023-07-18T22:00:00,2259A,130.3794,46.7588,佳木斯市,四丰,,22,16,16,13,12,159,68,133,126,10,14,1,1,0.4,0.4
2023-07-18T22:00:00,2262A,131.0518,45.8751,七台河市,新一中,,18,15,14,9,7,83,55,77,73,10,7,7,7,0.9,0.9
2023-07-18T22:00:00,2263A,127.4833,50.2524,黑河市,交通局,,49,34,41,34,29,103,48,92,77,18,14,4,3,0.8,0.7
2023-07-18T22:00:00,2264A,127.5144,50.2341,黑河市,环保局,颗粒物(PM10),52,54,62,33,33,98,63,91,81,8,14,2,4,0.6,0.6
2023-07-18T22:00:00,2265A,127.5291,50.2472,黑河市,大黑河岛,细颗粒物(PM2.5),62,32,33,44,42,113,74,104,95,1,1,2,3,0.5,0.5
2023-07-18T22:00:00,2266A,126.9785,46.6365,绥化市,人和东街,,15,12,5,9,6,85,29,75,65,30,17,5,5,0.4,0.3
2023-07-18T22:00:00,2267A,126.964,46.6528,绥化市,党政办公中心,,18,18,12,11,8,83,42,74,68,19,16,6,5,0.5,0.4
2023-07-18T22:00:00,2269A,124.1069,50.4097,大兴安岭地区,科技局,,40,39,32,28,20,91,66,86,82,8,8,5,5,0.4,0.3
2023-07-18T22:00:00,2270A,117.396,32.939,蚌埠市,工人疗养院,,23,23,30,9,11,61,34,54,49,8,6,7,7,0.1,0.1
2023-07-18T22:00:00,2271A,117.3605,32.9427,蚌埠市,百货大楼,,21,21,27,6,9,60,39,56,52,10,5,3,3,0.2,0.2
2023-07-18T22:00:00,2273A,117.4185,32.8911,蚌埠市,蚌埠学院,,31,31,24,13,16,61,20,54,47,30,15,11,10,0.2,0.2
2023-07-18T22:00:00,2274A,117.3533,32.9673,蚌埠市,淮上区政府,,27,27,22,11,13,56,38,54,51,12,7,4,4,0.3,0.1
2023-07-18T22:00:00,2275A,117.3145,32.8977,蚌埠市,高新区,,31,31,26,14,12,73,17,63,56,39,7,9,6,0.2,0.2
2023-07-18T22:00:00,2277A,116.8305,32.7727,淮南市,潘集区政府,,33,33,27,21,17,69,38,61,59,18,13,4,5,0.3,0.3
2023-07-18T22:00:00,2278A,117.0067,32.6524,淮南市,师范学院,,35,29,33,24,14,65,35,55,54,10,9,9,10,0.1,0.2
2023-07-18T22:00:00,2279A,116.8569,32.5951,淮南市,谢家集区政府,,36,36,23,4,6,80,49,67,66,17,15,21,6,0.3,0.2
2023-07-18T22:00:00,2280A,116.8281,32.633,淮南市,八公山区政府,,37,37,32,24,20,75,27,64,59,24,12,8,6,0.5,0.4
2023-07-18T22:00:00,2281A,116.6325,32.6201,淮南市,焦岗湖风景区管理处,,25,25,27,9,9,47,11,37,35,32,18,5,5,0.3,0.2
2023-07-18T22:00:00,2282A,116.8004,33.975,淮北市,监测站,,28,28,37,13,24,97,55,81,73,13,8,3,3,0.3,0.4
2023-07-18T22:00:00,2283A,116.8091,33.9007,淮北市,烈山区政府,,19,13,17,13,19,111,56,87,82,13,5,4,3,0.3,0.4
2023-07-18T22:00:00,2285A,117.8177,30.9412,铜陵市,市第四中学,,14,11,48,6,26,136,44,99,83,13,20,8,9,0.2,0.3
2023-07-18T22:00:00,2286A,117.8059,30.9273,铜陵市,市公路局,,20,11,46,14,26,149,54,107,93,9,21,2,3,0.5,0.6
2023-07-18T22:00:00,2287A,117.7807,30.9413,铜陵市,市新民污水厂,,15,14,53,10,19,144,40,106,90,14,15,2,7,0.3,0.5
2023-07-18T22:00:00,2288A,117.7439,30.8792,铜陵市,市第九中学,,30,30,58,19,25,125,19,85,69,43,28,5,9,1.2,1.2
2023-07-18T22:00:00,2289A,117.846,30.9413,铜陵市,车站新区,,22,22,46,4,17,152,48,109,91,15,15,2,2,0.3,0.4
2023-07-18T22:00:00,2290A,117.8483,30.97,铜陵市,市职教基地,,15,9,35,2,16,129,45,95,82,9,13,4,4,0.5,0.6
2023-07-18T22:00:00,2291A,117.0809,30.5177,安庆市,环科院,,18,12,23,5,15,119,57,101,84,14,10,4,5,0.5,0.6
2023-07-18T22:00:00,2292A,117.0331,30.5119,安庆市,马山宾馆,,20,6,23,4,15,128,62,110,92,13,10,6,6,0.7,0.8
2023-07-18T22:00:00,2294A,116.9896,30.6145,安庆市,安庆大学,,19,16,26,8,17,104,59,94,89,10,8,4,6,0.5,0.5
2023-07-18T22:00:00,2295A,118.2903,29.6963,黄山市,延安路89号,,26,26,25,4,5,99,24,74,46,6,5,5,6,0.3,0.3
2023-07-18T22:00:00,2296A,118.327,29.7178,黄山市,黄山东路89号,,12,9,23,8,7,92,31,72,44,6,6,5,6,0.2,0.2
2023-07-18T22:00:00,2297A,118.1371,30.2756,黄山市,黄山区政府5号楼,,14,14,25,5,8,72,34,64,49,4,6,7,6,0.1,0.2
2023-07-18T22:00:00,2298A,118.3093,32.3153,滁州市,老年大学,,22,22,17,6,5,68,44,64,57,20,9,8,8,0.2,0.2
2023-07-18T22:00:00,2299A,118.3244,32.2786,滁州市,人大宾馆,,16,16,12,8,6,70,45,65,58,17,13,6,6,0.3,0.2
2023-07-18T22:00:00,2301A,115.8277,32.8929,阜阳市,市监测站,,18,18,15,7,8,73,36,63,55,20,13,5,5,0.5,0.5
2023-07-18T22:00:00,2303A,115.8554,32.8605,阜阳市,开发区,,16,13,13,10,10,72,50,64,62,15,16,8,5,0.5,0.5
2023-07-18T22:00:00,2307A,116.5079,31.737,六安市,监测大楼,,21,5,16,11,8,122,66,95,92,5,4,1,2,0.3,0.2
2023-07-18T22:00:00,2308A,116.4738,31.7643,六安市,皖西学院,,21,8,20,7,7,124,66,97,93,16,10,7,6,0.2,0.2
2023-07-18T22:00:00,2309A,116.4996,31.7905,六安市,朝阳厂,,21,7,12,6,9,115,66,95,92,9,6,6,6,0.3,0.3
2023-07-18T22:00:00,2310A,116.5567,31.7886,六安市,开发区,,,,19,,13,107,,90,90,5,6,5,5,0.3,0.3
2023-07-18T22:00:00,2311A,115.8072,33.8399,亳州市,污水处理厂,,31,31,31,10,15,86,56,78,71,13,10,6,4,0.6,0.6
2023-07-18T22:00:00,2312A,115.7789,33.8518,亳州市,三国揽胜宫,,30,30,31,11,15,94,65,82,75,7,7,4,5,0.6,0.6
2023-07-18T22:00:00,2314A,117.47,30.6618,池州市,池州学院,,18,6,34,4,21,163,56,107,86,1,10,4,9,0.6,0.7
2023-07-18T22:00:00,2316A,118.7581,30.9454,宣城市,鳌峰子站,,16,16,32,9,15,106,33,88,64,16,18,5,6,0.5,0.6
2023-07-18T22:00:00,2317A,118.7385,30.9743,宣城市,敬亭山子站,,15,15,34,7,17,120,35,96,70,22,18,6,7,0.4,0.5
2023-07-18T22:00:00,2318A,118.7173,30.9427,宣城市,开发区子站,,,18,31,,15,126,49,102,80,18,20,5,6,0.4,0.6
2023-07-18T22:00:00,2319A,119.0141,25.4325,莆田市,荔城区仓后路,,32,32,23,6,6,83,41,77,67,12,10,6,6,0.5,0.5
2023-07-18T22:00:00,2320A,119.0015,25.4553,莆田市,莆田市监测站,,32,32,19,8,4,86,40,76,69,10,4,9,7,0.7,0.6
2023-07-18T22:00:00,2321A,119.1119,25.4561,莆田市,涵江区六中,,21,21,26,5,7,95,38,82,67,10,13,7,7,0.8,0.6
2023-07-18T22:00:00,2322A,119.1013,25.3215,莆田市,秀屿区政府,,,,20,,7,101,51,78,71,2,5,6,10,,0.7
2023-07-18T22:00:00,2323A,118.981,25.4792,莆田市,东圳水库,,,,,,,,,,,,,,,,
2023-07-18T22:00:00,2324A,117.6211,26.2625,三明市,三钢,,18,14,24,12,13,74,27,64,50,14,14,8,9,0.4,0.4
2023-07-18T22:00:00,2325A,117.635,26.2714,三明市,三明二中,,13,11,22,9,12,76,28,65,49,16,16,7,7,0.6,0.6
2023-07-18T22:00:00,2326A,117.6028,26.2378,三明市,三元区政府,,18,18,19,6,12,72,29,61,47,15,14,9,9,0.8,0.8
2023-07-18T22:00:00,2327A,117.7275,26.3108,三明市,洋溪,,,,,,,,,,,,,,,,
2023-07-18T22:00:00,2331A,118.0966,26.6761,南平市,茫荡山,,,,,,,,,,,,,,,,
2023-07-18T22:00:00,2332A,118.1681,26.6369,南平市,南平市监测站,,,,18,4,8,70,6,61,38,15,9,5,6,0.7,0.6
2023-07-18T22:00:00,2333A,118.1825,26.6489,南平市,南平铝业有限公司,,18,18,20,2,8,68,6,58,34,18,10,11,9,0.6,0.6
2023-07-18T22:00:00,2334A,118.1756,26.6272,南平市,南平七中,,16,16,20,3,9,70,8,61,30,8,8,4,4,0.6,0.6
2023-07-18T22:00:00,2335A,117.0189,25.1181,龙岩市,龙岩师专,,,,,,,,,,,,,,,,
2023-07-18T22:00:00,2336A,117.0217,25.1033,龙岩市,龙岩市监测站,,17,17,15,4,6,63,6,53,37,24,14,2,5,0.6,0.5
2023-07-18T22:00:00,2337A,117.0258,25.0661,龙岩市,闽西职业技术学院,,27,27,19,8,8,60,3,48,33,18,15,4,6,0.4,0.4
2023-07-18T22:00:00,2338A,117.0196,25.0306,龙岩市,龙岩学院,,8,4,14,3,5,57,24,52,39,8,13,5,3,0.2,0.3
2023-07-18T22:00:00,2339A,119.5001,26.6946,宁德市,金涵水库,,,,,,,,,,,,,,,,
2023-07-18T22:00:00,2341A,119.5388,26.6612,宁德市,宁德市监测站,,,41,25,12,12,111,,103,91,13,8,13,9,1.2,0.7
2023-07-18T22:00:00,2342A,117.3102,29.3867,景德镇市,王港中学,,31,31,13,18,9,124,72,93,71,5,5,6,5,0.2,0.3
2023-07-18T22:00:00,2343A,117.2117,29.2933,景德镇市,老干部活动中心,,14,14,21,2,12,109,43,82,64,14,9,5,6,0.2,0.2
2023-07-18T22:00:00,2344A,117.1894,29.2789,景德镇市,兽医站,,35,18,19,24,15,101,38,86,63,32,14,7,8,0.4,0.3
2023-07-18T22:00:00,2345A,117.1547,29.2617,景德镇市,台达陶瓷,,19,19,23,8,15,90,45,78,62,18,13,13,21,0.4,0.4
2023-07-18T22:00:00,2346A,117.2461,29.2956,景德镇市,陶研所,,30,30,34,8,8,100,55,76,62,2,3,5,7,0.2,0.2
2023-07-18T22:00:00,2347A,114.0997,27.5002,萍乡市,武功山,,15,9,11,1,8,72,46,54,54,4,5,17,18,0.3,0.5
2023-07-18T22:00:00,2348A,113.8385,27.6434,萍乡市,中医院,,39,24,35,27,26,91,54,83,81,8,7,7,13,0.5,0.5
2023-07-18T22:00:00,2349A,113.8493,27.6253,萍乡市,市政府车库,,31,31,33,13,20,96,60,85,83,10,10,7,12,0.3,0.7
2023-07-18T22:00:00,2350A,113.8676,27.6435,萍乡市,市环保局,,26,26,28,12,18,88,45,83,79,12,9,10,11,0.8,0.5
2023-07-18T22:00:00,2351A,113.866,27.6198,萍乡市,安源区政府,,,27,31,23,20,91,54,84,80,8,13,7,12,,1.1
2023-07-18T22:00:00,2352A,115.0861,27.9317,新余市,北岗,,26,15,20,18,14,94,29,77,65,14,9,5,8,0.6,0.7
2023-07-18T22:00:00,2353A,114.9886,27.8431,新余市,飞宇,,27,27,36,16,19,95,44,82,72,10,10,6,7,0.7,0.8
2023-07-18T22:00:00,2354A,114.9231,27.8246,新余市,第二水厂,,32,32,41,12,16,102,55,88,78,6,11,6,7,0.4,0.4
2023-07-18T22:00:00,2355A,114.9308,27.8036,新余市,市气象局,,22,22,32,13,20,100,54,87,78,7,9,8,8,0.6,0.8
2023-07-18T22:00:00,2357A,116.9822,28.1136,鹰潭市,龙虎山,,16,10,25,6,10,105,51,72,61,4,4,2,4,0.8,0.9
2023-07-18T22:00:00,2358A,117.0564,28.2642,鹰潭市,新监测站,,17,13,35,8,16,120,52,101,74,5,9,3,11,0.3,0.4
2023-07-18T22:00:00,2359A,117.0311,28.2475,鹰潭市,财苑宾馆,,26,26,34,13,18,120,50,106,72,12,9,6,11,0.6,0.4
2023-07-18T22:00:00,2360A,117.0222,28.2264,鹰潭市,体育馆,,16,11,37,11,17,130,43,107,72,10,12,2,11,0.3,0.4
2023-07-18T22:00:00,2361A,117.0017,28.2131,鹰潭市,三川水表,,26,26,36,11,17,133,43,108,73,14,10,4,9,0.6,0.6
2023-07-18T22:00:00,2362A,114.9017,25.9149,赣州市,通天岩,,,,,,,,,,,,,,,,
2023-07-18T22:00:00,2363A,114.9367,25.8664,赣州市,地委,,25,25,22,11,12,48,13,36,28,12,6,4,2,0.8,0.9
2023-07-18T22:00:00,2364A,114.9461,25.8481,赣州市,气象台,,14,14,17,8,9,61,23,57,42,14,8,4,8,0.6,0.7
2023-07-18T22:00:00,2365A,114.9322,25.8333,赣州市,市图书馆,,18,17,23,12,12,65,24,58,45,16,9,7,7,0.9,0.8
2023-07-18T22:00:00,2366A,114.8905,25.8471,赣州市,华坚鞋城,,21,21,29,14,12,71,22,60,45,18,11,3,5,0.4,0.4
2023-07-18T22:00:00,2367A,114.9754,27.0803,吉安市,红声器材厂,,32,32,29,11,16,82,52,76,67,8,6,1,10,0.8,0.8
2023-07-18T22:00:00,2368A,114.9658,27.0999,吉安市,市森林工业局,,23,20,24,16,16,84,46,65,56,6,6,5,5,0.7,0.7
2023-07-18T22:00:00,2369A,114.99,27.1312,吉安市,市环境监测站,,,22,28,14,14,81,,73,70,8,7,6,8,0.8,0.8
2023-07-18T22:00:00,2370A,115.0093,27.0968,吉安市,青原区法院,,35,21,24,24,16,74,53,68,63,10,10,11,12,0.7,0.9
2023-07-18T22:00:00,2371A,114.3408,27.8064,宜春市,槟榔水业,,49,49,35,24,18,77,46,70,70,3,5,2,2,0,0.3
2023-07-18T22:00:00,2373A,114.3956,27.7844,宜春市,市石油公司,,,,34,,22,108,,97,97,6,9,2,5,0.4,0.8
2023-07-18T22:00:00,2374A,114.3703,27.7914,宜春市,市气象局,颗粒物(PM10),51,52,39,28,23,98,56,89,84,10,15,1,3,0.5,0.8
2023-07-18T22:00:00,2375A,114.4013,27.8074,宜春市,市广电局,颗粒物(PM10),53,56,40,29,26,107,62,101,95,4,9,4,7,0.4,0.7
2023-07-18T22:00:00,2376A,116.2127,28.0814,抚州市,桐源党溪,,21,21,25,11,15,134,35,104,70,8,3,5,5,0.7,0.8
2023-07-18T22:00:00,2377A,116.3544,27.9831,抚州市,市站,,23,23,30,12,17,103,49,84,63,6,6,2,8,1.2,1.3
2023-07-18T22:00:00,2378A,116.3565,27.963,抚州市,血防站,,22,22,31,8,15,103,41,79,56,6,7,3,8,0.7,0.8
2023-07-18T22:00:00,2379A,116.3564,28.0007,抚州市,采茶剧团,,19,16,29,13,17,92,44,74,57,10,10,4,6,0.7,0.7
2023-07-18T22:00:00,2380A,116.385,27.9647,抚州市,医学分院,,20,20,34,9,14,96,47,84,59,8,8,4,9,0.8,0.9
2023-07-18T22:00:00,2381A,118.005,28.4572,上饶市,百草园,,28,20,26,19,14,87,40,82,64,4,8,8,8,0.6,0.6
2023-07-18T22:00:00,2382A,117.9756,28.4436,上饶市,市监测站,,24,24,29,12,13,125,53,93,77,9,12,6,6,0.4,0.4
2023-07-18T22:00:00,2383A,117.9519,28.4628,上饶市,凤凰光学,,30,30,30,13,16,101,53,93,72,2,10,7,12,0.7,0.7
2023-07-18T22:00:00,2385A,114.17,35.9019,鹤壁市,市监测站,臭氧1小时,55,54,53,37,34,226,164,213,196,15,18,6,4,0.9,0.7
2023-07-18T22:00:00,2386A,114.2956,35.7511,鹤壁市,市交警支队,颗粒物(PM10),58,66,58,38,29,202,124,193,180,27,25,12,10,0.6,0.6
2023-07-18T22:00:00,2387A,114.2878,35.7306,鹤壁市,迎宾馆,颗粒物(PM10),62,74,52,37,30,204,130,192,181,22,24,1,6,0.6,0.7
2023-07-18T22:00:00,2389A,113.836,35.311,新乡市,环保西院,,50,45,51,27,29,208,159,195,181,12,18,5,6,1.0,1
2023-07-18T22:00:00,2390A,113.884,35.272,新乡市,开发区,,48,43,44,27,26,224,152,206,186,18,17,2,4,0.8,0.8
2023-07-18T22:00:00,2391A,113.883,35.303,新乡市,环保东院,颗粒物(PM10),51,51,57,25,18,209,157,196,180,11,12,5,7,0.6,0.6
2023-07-18T22:00:00,2392A,115.0312,35.7636,濮阳市,环保局,,42,42,38,29,25,203,132,195,178,18,12,4,4,0.6,0.6
2023-07-18T22:00:00,2394A,115.0574,35.7609,濮阳市,油田运输公司,,47,47,44,30,27,205,139,193,178,21,12,4,5,0.6,0.6
2023-07-18T22:00:00,2395A,115.0866,35.7754,濮阳市,油田物探公司,,50,50,47,30,27,199,149,190,176,15,11,4,5,0.6,0.5
2023-07-18T22:00:00,2396A,113.8276,34.0159,许昌市,监测站,,37,28,39,13,22,159,116,152,141,14,12,4,5,0.3,0.4
2023-07-18T22:00:00,2398A,113.7906,33.9953,许昌市,开发区,,35,35,40,12,22,159,106,154,137,15,11,2,3,0.6,0.7
2023-07-18T22:00:00,2399A,114.051,33.5699,漯河市,三五一五工厂,,,,44,17,24,138,76,135,126,18,11,10,11,0.4,0.4
2023-07-18T22:00:00,2400A,114.0055,33.5698,漯河市,漯河大学,,35,35,38,21,25,159,97,141,132,10,8,12,12,0.3,0.4
2023-07-18T22:00:00,2401A,114.0138,33.5828,漯河市,市水利局,,39,39,44,17,21,155,90,137,127,12,10,9,8,0.5,0.5
2023-07-18T22:00:00,2402A,114.0261,33.5698,漯河市,市广电局,,32,32,41,20,24,150,89,139,127,13,9,9,10,0.5,0.5
2023-07-18T22:00:00,2404A,112.5224,33.0122,南阳市,瓦房庄,,45,45,49,18,20,170,130,158,152,17,13,4,5,0.5,0.5
2023-07-18T22:00:00,2405A,112.5003,32.9735,南阳市,汉画馆,,43,38,43,22,24,170,136,164,157,10,7,9,9,0.4,0.5
2023-07-18T22:00:00,2406A,112.5573,33.027,南阳市,气象站,,40,35,42,24,26,180,128,166,157,18,12,4,5,0.4,0.4
2023-07-18T22:00:00,2407A,112.5481,32.9689,南阳市,理工学院,,39,35,38,22,22,170,124,158,150,14,9,4,5,0.4,0.4
2023-07-18T22:00:00,2408A,115.6702,34.4285,商丘市,环境监测站,,37,37,33,18,20,112,68,105,90,10,11,9,9,0.5,0.5
2023-07-18T22:00:00,2409A,115.6458,34.4045,商丘市,粮食局,,40,40,38,19,18,114,57,104,69,13,10,4,3,0.4,0.4
2023-07-18T22:00:00,2410A,115.6293,34.3948,商丘市,睢阳区环保局,,36,36,31,23,17,125,67,104,82,12,9,4,4,0.5,0.6
2023-07-18T22:00:00,2420A,114.0189,32.9656,驻马店市,市一纸厂,,26,26,28,11,12,141,83,128,120,14,8,7,6,0.7,0.6
2023-07-18T22:00:00,2421A,114.0114,33.015,驻马店市,市彩印厂,,39,39,35,18,14,143,87,129,122,11,7,6,7,0.3,0.3
2023-07-18T22:00:00,2422A,113.9976,32.9771,驻马店市,天方二分厂,,40,33,31,28,20,150,89,127,120,11,8,7,5,0.4,0.5
2023-07-18T22:00:00,2423A,115.0601,30.2313,黄石市,沈家营,颗粒物(PM10),58,66,51,14,15,131,28,108,89,53,21,5,7,0.6,0.4
2023-07-18T22:00:00,2424A,115.0817,30.2006,黄石市,陈家湾,颗粒物(PM10),51,52,55,17,22,131,85,110,101,5,9,5,7,0.5,0.7
2023-07-18T22:00:00,2426A,114.8988,30.2019,黄石市,铁山,,34,34,32,15,16,141,72,114,107,18,15,6,9,0.7,0.7
2023-07-18T22:00:00,2427A,115.0307,30.2092,黄石市,团城山,,36,36,41,15,14,136,84,108,102,8,10,6,10,0.5,0.6
2023-07-18T22:00:00,2428A,111.0419,32.395,十堰市,武当山,,47,30,26,26,19,148,148,140,137,6,6,10,7,0.8,0.8
2023-07-18T22:00:00,2429A,110.78,32.6494,十堰市,滨河新村,,50,50,36,24,20,163,132,144,137,8,8,6,6,0.7,0.7
2023-07-18T22:00:00,2430A,110.7258,32.6389,十堰市,刘家沟,颗粒物(PM10),55,59,37,23,20,180,126,158,147,10,6,5,6,0.5,0.4
2023-07-18T22:00:00,2431A,110.8839,32.5714,十堰市,铁二处,,42,40,32,29,19,190,116,172,159,2,4,5,5,0.6,0.5
2023-07-18T22:00:00,2432A,112.155,32.0197,襄阳市,襄城运动路,颗粒物(PM10),51,51,48,30,28,170,109,164,150,30,20,7,8,0.8,0.8
2023-07-18T22:00:00,2433A,112.1392,32.0564,襄阳市,樊城新华路,颗粒物(PM10),54,57,54,28,30,174,120,170,158,21,19,6,8,0.8,0.7
2023-07-18T22:00:00,2434A,112.1825,32.1142,襄阳市,高新管委会,颗粒物(PM10),53,55,59,34,37,175,155,169,163,12,20,6,7,0.4,0.4
2023-07-18T22:00:00,2435A,112.2106,32.0903,襄阳市,襄州航空路,颗粒物(PM10),53,56,56,26,29,164,124,160,148,17,15,5,6,0.8,0.8
2023-07-18T22:00:00,2436A,114.8938,30.3994,鄂州市,市政府,,22,14,35,6,13,130,68,116,101,7,13,5,5,0.3,0.5
2023-07-18T22:00:00,2437A,114.8989,30.3714,鄂州市,赵家坝,,29,29,42,4,13,139,69,122,109,6,10,4,5,0.4,0.6
2023-07-18T22:00:00,2439A,112.2014,31.0481,荆门市,竹园小学,颗粒物(PM10),58,66,60,31,31,185,151,172,171,13,14,10,11,0.8,0.7
2023-07-18T22:00:00,2440A,112.1969,30.9891,荆门市,掇刀,颗粒物(PM10),56,61,55,34,31,180,158,170,170,14,13,10,11,0.6,0.6
2023-07-18T22:00:00,2441A,112.2213,31.0386,荆门市,石化一小,,,,57,,30,182,,176,176,12,14,9,10,0.5,0.5
2023-07-18T22:00:00,2443A,113.9153,30.9285,孝感市,文化路,,28,28,20,9,14,98,64,95,85,11,9,6,7,0.6,0.7
2023-07-18T22:00:00,2444A,113.942,30.9075,孝感市,东城区,,22,21,21,7,11,94,68,90,84,8,10,7,7,0.6,0.6
2023-07-18T22:00:00,2446A,114.9028,30.4742,黄冈市,职工中心,,23,23,27,13,13,132,63,116,102,2,5,6,6,0.4,0.4
2023-07-18T22:00:00,2447A,114.3175,29.8142,咸宁市,森林公园,,37,37,22,19,11,109,105,97,97,4,4,5,5,1.0,0.8
2023-07-18T22:00:00,2448A,114.3107,29.8454,咸宁市,市发改委,,37,32,20,22,12,134,116,117,117,7,5,4,4,0.7,0.6
2023-07-18T22:00:00,2449A,114.2936,29.8566,咸宁市,咸安区政府,,,86,29,40,20,117,,106,106,13,8,2,2,0.7,0.6
2023-07-18T22:00:00,2451A,113.3583,31.7275,随州市,市委党校,,28,20,30,19,22,135,81,128,91,8,4,6,6,0.5,0.5
2023-07-18T22:00:00,2452A,113.3833,31.6908,随州市,市林业局,,30,23,30,16,19,151,96,134,98,10,7,3,3,0.5,0.6
2023-07-18T22:00:00,2453A,113.3983,31.7308,随州市,市立交桥水厂,,23,23,30,15,21,120,66,120,85,16,8,6,7,0.5,0.6
2023-07-18T22:00:00,2454A,109.4978,30.2981,恩施土家族苗族自治州,湖北民院,,44,44,35,22,19,129,55,116,101,17,13,10,10,0.7,0.7
2023-07-18T22:00:00,2455A,109.4707,30.2798,恩施土家族苗族自治州,州电力总公司,,32,32,31,16,21,122,44,112,100,39,21,10,9,0.7,0.6
2023-07-18T22:00:00,2456A,112.5003,26.9167,衡阳市,原169医院,,15,13,35,10,22,91,26,80,60,14,6,7,7,0.4,0.5
2023-07-18T22:00:00,2457A,112.6194,26.9258,衡阳市,衡阳化工总厂,,14,12,40,7,21,101,44,88,70,8,8,6,19,0.5,0.6
2023-07-18T22:00:00,2458A,112.6211,26.8956,衡阳市,珠晖区环保局,,,9,33,,,99,35,86,65,16,12,6,6,0.5,0.7
2023-07-18T22:00:00,2459A,112.6197,26.8733,衡阳市,市委党校,,16,13,27,9,20,108,50,92,73,10,9,7,8,0.6,0.7
2023-07-18T22:00:00,2460A,112.6006,26.8919,衡阳市,市监测站,,15,12,34,10,23,101,44,88,70,13,9,5,11,0.5,0.6
2023-07-18T22:00:00,2461A,112.5664,26.9056,衡阳市,真空机电公司,,16,16,36,10,22,101,44,88,70,10,8,6,9,0.6,0.8
2023-07-18T22:00:00,2462A,111.5239,27.3033,邵阳市,市水土所,,32,19,37,22,31,124,27,124,62,7,5,5,7,0.5,0.5
