timepoint,stationcode,longitude,latitude,area,positionname,primarypollutant,aqi,pm10,pm10_24h,pm2_5,pm2_5_24h,o3,o3_24h,o3_8h,o3_8h_24h,no2,no2_24h,so2,so2_24h,co,co_24h
2023-07-18T04:00:00,1001A,116.3621,39.8784,北京市,万寿西宫,颗粒物(PM10),58,65,47,39,26,207,60,76,66,41,29,3,2,0.8,0.7
2023-07-18T04:00:00,1002A,116.2202,40.2915,北京市,定陵,,44,44,42,26,22,289,93,111,106,14,12,3,3,0.6,0.5
2023-07-18T04:00:00,1003A,116.4174,39.9289,北京市,东四,颗粒物(PM10),58,65,51,35,26,226,62,98,82,40,24,6,4,0.5,0.5
2023-07-18T04:00:00,1004A,116.4072,39.8863,北京市,天坛,颗粒物(PM10),56,62,48,28,24,219,55,85,72,41,28,4,2,0.6,0.5
2023-07-18T04:00:00,1005A,116.462,39.9365,北京市,农展馆,颗粒物(PM10),63,75,54,37,25,227,53,98,77,47,27,1,2,0.6,0.5
2023-07-18T04:00:00,1006A,116.3392,39.9295,北京市,官园,颗粒物(PM10),56,61,49,32,26,209,76,96,85,25,22,9,6,0.5,0.3
2023-07-18T04:00:00,1007A,116.2878,39.9611,北京市,海淀万柳,颗粒物(PM10),61,71,53,30,24,213,73,98,85,32,29,1,2,0.5,0.4
2023-07-18T04:00:00,1008A,116.6636,40.135,北京市,顺义新城,颗粒物(PM10),61,72,50,28,24,229,57,61,57,27,21,1,2,0.5,0.5
2023-07-18T04:00:00,1009A,116.6275,40.3275,北京市,怀柔镇,,49,49,45,29,24,286,70,94,78,16,18,1,2,0.7,0.7
2023-07-18T04:00:00,1010A,116.2296,40.217,北京市,昌平镇,颗粒物(PM10),52,54,45,28,24,270,91,111,97,20,23,1,2,0.5,0.4
2023-07-18T04:00:00,1011A,116.3966,39.9821,北京市,奥体中心,颗粒物(PM10),52,53,49,32,23,184,68,77,73,34,30,2,3,0.5,0.4
2023-07-18T04:00:00,1012A,116.184,39.9136,北京市,古城,颗粒物(PM10),71,91,54,36,26,201,66,88,80,36,25,1,1,0.5,0.4
2023-07-18T04:00:00,1015A,117.1444,39.1661,天津市,勤俭道,,43,43,38,26,23,192,74,104,91,20,14,10,8,0.6,0.6
2023-07-18T04:00:00,1017A,117.237,39.1082,天津市,大直沽八号路,颗粒物(PM10),55,60,51,30,25,172,61,71,60,25,22,3,3,0.5,0.6
2023-07-18T04:00:00,1018A,117.202,39.0927,天津市,前进道,,43,43,38,29,24,181,60,88,71,29,20,6,6,0.8,0.7
2023-07-18T04:00:00,1019A,117.1837,39.2133,天津市,淮河道,,41,41,42,24,25,187,84,87,85,20,21,9,8,0.7,0.6
2023-07-18T04:00:00,1021A,117.307,39.0877,天津市,跃进路,颗粒物(PM10),55,59,45,29,23,196,45,71,62,37,20,6,8,0.7,0.6
2023-07-18T04:00:00,1023A,117.707,39.0343,天津市,第四大街,,40,40,37,16,18,155,80,78,78,21,26,7,8,0.6,0.7
2023-07-18T04:00:00,1024A,117.457,38.8394,天津市,永明路,,39,39,32,23,18,177,71,93,78,25,20,8,7,1.0,0.6
2023-07-18T04:00:00,1026A,117.764,39.1587,天津市,汉北路,,34,34,35,19,19,172,74,113,90,23,16,5,5,0.5,0.6
2023-07-18T04:00:00,1027A,117.157,38.9194,天津市,团泊洼,,39,39,31,24,20,168,44,53,47,33,23,4,4,0.6,0.5
2023-07-18T04:00:00,1029A,114.4422,38.0444,石家庄市,职工医院,颗粒物(PM10),56,62,45,26,17,224,94,144,116,26,20,10,7,0.5,0.5
2023-07-18T04:00:00,1030A,114.6063,38.0266,石家庄市,高新区,颗粒物(PM10),51,52,46,23,21,234,134,131,131,21,22,2,3,0.4,0.4
2023-07-18T04:00:00,1031A,114.4898,38.1328,石家庄市,西北水源,颗粒物(PM10),61,72,48,32,18,220,71,131,102,42,22,4,3,0.4,0.4
2023-07-18T04:00:00,1032A,114.4586,38.0058,石家庄市,西南高教,颗粒物(PM10),52,54,43,24,17,224,74,129,100,35,20,7,5,0.6,0.5
2023-07-18T04:00:00,1033A,114.5331,38.0178,石家庄市,世纪公园,,50,50,42,19,19,216,101,126,114,29,22,7,5,0.5,0.5
2023-07-18T04:00:00,1034A,114.509,38.0457,石家庄市,人民会堂,,43,43,47,29,19,238,137,144,140,15,19,10,6,0.4,0.4
2023-07-18T04:00:00,1035A,114.3524,37.8911,石家庄市,封龙山,臭氧1小时,100,48,39,24,21,200,200,190,190,7,10,3,3,0.7,0.7
2023-07-18T04:00:00,1037A,118.131,39.6363,唐山市,雷达站,,44,44,50,19,19,193,57,56,52,24,18,6,4,0.5,0.6
2023-07-18T04:00:00,1038A,118.1725,39.6334,唐山市,物资局,颗粒物(PM10),51,52,51,23,23,196,32,46,37,40,26,6,6,0.6,0.7
2023-07-18T04:00:00,1040A,118.1705,39.6506,唐山市,十二中,颗粒物(PM10),57,64,48,29,29,185,19,53,38,48,22,4,5,0.6,0.7
2023-07-18T04:00:00,1041A,118.1869,39.622,唐山市,小山,颗粒物(PM10),52,54,47,20,21,196,10,33,22,52,25,6,7,0.6,0.7
2023-07-18T04:00:00,1042A,119.5134,39.8207,秦皇岛市,北戴河环保局,,23,23,30,9,9,198,68,82,68,22,15,3,3,0.6,1
2023-07-18T04:00:00,1043A,119.7493,40.0116,秦皇岛市,第一关,,49,49,46,23,16,219,5,36,20,79,38,2,2,0.8,0.7
2023-07-18T04:00:00,1044A,119.5897,39.9499,秦皇岛市,监测站,颗粒物(PM10),55,59,41,20,15,212,1,57,27,88,37,3,3,0.7,0.7
2023-07-18T04:00:00,1046A,119.5251,39.9041,秦皇岛市,建设大厦,颗粒物(PM10),51,52,49,27,16,217,54,74,63,30,23,4,4,1.0,0.7
2023-07-18T04:00:00,1048A,114.5302,36.6116,邯郸市,东污水处理厂,,45,42,38,31,23,189,68,104,88,42,31,5,9,0.5,0.7
2023-07-18T04:00:00,1049A,114.4918,36.5713,邯郸市,矿院,细颗粒物(PM2.5),55,41,42,39,23,200,61,79,69,35,24,26,17,0.6,1
2023-07-18T04:00:00,1050A,114.484,36.6133,邯郸市,丛台公园,颗粒物(PM10),52,54,42,28,22,192,38,134,88,47,21,5,16,0.5,1.1
2023-07-18T04:00:00,1051A,115.493,38.8632,保定市,游泳馆,,39,39,37,26,18,202,108,137,124,13,18,6,7,0.3,0.3
2023-07-18T04:00:00,1052A,115.5213,38.8959,保定市,华电二区,,39,39,42,21,16,204,117,141,132,14,17,6,6,0.3,0.2
2023-07-18T04:00:00,1053A,115.4713,38.9108,保定市,接待中心,,50,50,47,18,16,194,90,138,114,18,23,3,3,0.4,0.3
2023-07-18T04:00:00,1054A,115.4612,38.8416,保定市,地表水厂,颗粒物(PM10),55,59,49,28,17,182,73,119,92,36,28,9,9,0.4,0.4
2023-07-18T04:00:00,1056A,115.5086,38.8639,保定市,监测站,,42,40,52,29,27,219,116,136,128,19,20,6,7,0.6,0.4
2023-07-18T04:00:00,1057A,114.8883,40.8336,张家口市,人民公园,,39,39,32,11,7,203,106,155,129,5,7,1,4,0.2,0.2
2023-07-18T04:00:00,1059A,114.8687,40.8042,张家口市,五金库,,43,43,32,18,15,193,114,169,141,14,13,7,8,0.4,0.3
2023-07-18T04:00:00,1060A,114.8902,40.762,张家口市,世纪豪园,"细颗粒物(PM2.5),臭氧1小时",52,44,35,36,20,193,161,170,165,7,10,32,12,0.2,0.2
2023-07-18T04:00:00,1061A,114.8916,40.8661,张家口市,北泵房,,40,40,30,16,13,214,100,132,115,9,8,6,9,0.5,0.6
2023-07-18T04:00:00,1062A,117.9531,40.9081,承德市,铁路,,35,35,37,24,21,177,69,121,93,22,22,6,9,0.5,0.5
2023-07-18T04:00:00,1063A,117.9392,40.9763,承德市,中国银行,,44,44,41,30,22,194,43,46,42,27,22,6,8,0.5,0.5
2023-07-18T04:00:00,1064A,117.9503,40.928,承德市,开发区,,35,35,35,23,22,188,91,124,108,13,18,4,7,0.5,0.4
2023-07-18T04:00:00,1065A,117.8051,40.9655,承德市,文化中心,颗粒物(PM10),53,56,47,22,21,190,79,84,81,28,26,7,15,0.4,0.5
2023-07-18T04:00:00,1066A,117.9268,41.0026,承德市,离宫,细颗粒物(PM2.5),53,51,36,37,30,179,35,52,40,18,17,4,6,0.4,0.4
2023-07-18T04:00:00,1067A,116.6708,39.5111,廊坊市,药材公司,颗粒物(PM10),52,54,48,31,26,215,56,102,77,29,19,4,3,0.5,0.4
2023-07-18T04:00:00,1068A,116.7214,39.5589,廊坊市,开发区,,43,34,43,30,28,224,77,106,89,14,14,3,4,0.5,0.5
2023-07-18T04:00:00,1070A,116.7244,39.5269,廊坊市,北华航天学院,"颗粒物(PM10),细颗粒物(PM2.5)",52,53,52,36,32,224,69,99,82,20,18,7,7,0.5,0.5
2023-07-18T04:00:00,1071A,116.8842,38.2991,沧州市,沧县城建局,,34,34,43,17,18,191,64,85,74,30,28,6,6,0.2,0.2
2023-07-18T04:00:00,1072A,116.8584,38.3254,沧州市,电视转播站,,35,35,38,22,19,202,70,93,81,27,18,11,11,0.3,0.4
2023-07-18T04:00:00,1073A,116.8709,38.3228,沧州市,市环保局,,43,43,43,23,23,195,56,83,68,38,31,5,7,0.2,0.2
2023-07-18T04:00:00,1074A,115.6838,37.7541,衡水市,电机北厂,细颗粒物(PM2.5),57,56,47,40,23,236,74,123,98,26,17,10,7,0.5,0.4
2023-07-18T04:00:00,1075A,115.6303,37.7316,衡水市,市监测站,,48,48,41,20,19,228,92,131,114,20,16,20,16,0.7,0.6
2023-07-18T04:00:00,1077A,114.4704,37.0886,邢台市,达活泉,颗粒物(PM10),56,62,51,19,15,195,77,136,91,20,13,11,9,0.6,0.6
2023-07-18T04:00:00,1078A,114.5062,37.0349,邢台市,邢师高专,颗粒物(PM10),66,82,55,29,20,216,10,93,40,87,32,6,7,0.6,0.4
2023-07-18T04:00:00,1079A,114.5237,37.0851,邢台市,路桥公司,,47,47,43,27,19,209,66,136,103,30,15,7,8,0.6,0.5
2023-07-18T04:00:00,1080A,114.4725,37.0719,邢台市,市环保局,颗粒物(PM10),55,60,51,28,20,219,79,146,116,31,18,8,10,0.5,0.4
2023-07-18T04:00:00,1081A,112.522,37.8873,太原市,尖草坪,颗粒物(PM10),62,73,51,31,21,198,62,111,72,47,23,6,8,0.6,0.6
2023-07-18T04:00:00,1083A,112.434,38.0108,太原市,上兰,,,,,,,,,,,,,,,,
2023-07-18T04:00:00,1084A,112.469,37.7124,太原市,晋源,,48,48,46,32,26,194,103,112,108,25,22,6,7,0.7,0.7
2023-07-18T04:00:00,1085A,112.5583,37.7394,太原市,小店,颗粒物(PM10),58,66,53,31,25,199,86,104,92,34,33,8,10,0.5,0.7
2023-07-18T04:00:00,1086A,112.5369,37.8692,太原市,桃园,颗粒物(PM10),54,58,46,28,21,209,51,146,80,60,27,6,9,0.6,0.7
2023-07-18T04:00:00,1087A,112.57,37.8195,太原市,坞城,颗粒物(PM10),51,51,51,28,24,191,95,138,123,32,25,6,10,0.7,0.8
2023-07-18T04:00:00,1088A,112.549,37.9854,太原市,南寨,颗粒物(PM10),57,63,54,31,24,199,28,15,15,67,42,4,7,0.6,0.6
2023-07-18T04:00:00,1090A,111.6507,40.7517,呼和浩特市,呼市一监,细颗粒物(PM2.5),69,58,42,50,18,212,66,120,85,42,21,7,8,0.5,0.5
2023-07-18T04:00:00,1091A,111.6572,40.8033,呼和浩特市,小召,,46,46,46,23,17,203,81,113,91,37,29,8,12,0.7,0.6
2023-07-18T04:00:00,1094A,111.7516,40.8369,呼和浩特市,如意水处理厂,颗粒物(PM10),61,71,48,28,16,220,76,85,79,35,28,9,11,0.5,0.4
2023-07-18T04:00:00,1095A,111.7276,40.8062,呼和浩特市,二十九中,"颗粒物(PM10),细颗粒物(PM2.5)",55,60,43,39,18,212,65,91,73,43,30,7,9,0.6,0.5
2023-07-18T04:00:00,1096A,111.5512,40.7866,呼和浩特市,工大金川校区,颗粒物(PM10),54,57,51,25,18,189,49,96,68,42,30,7,10,0.6,0.5
2023-07-18T04:00:00,1097A,111.717,40.7612,呼和浩特市,化肥厂生活区,颗粒物(PM10),61,71,60,28,16,188,50,76,59,40,28,6,8,0.7,0.6
2023-07-18T04:00:00,1098A,123.6836,41.9339,沈阳市,森林路,,,,,,,,,,,,,,,,
2023-07-18T04:00:00,1099A,123.505,41.7406,沈阳市,浑南东路,颗粒物(PM10),55,60,35,28,16,135,7,4,4,49,38,12,12,1.2,0.7
2023-07-18T04:00:00,1100A,123.4231,41.6989,沈阳市,新秀街,,48,48,33,20,12,136,7,27,18,58,37,19,16,0.9,0.7
2023-07-18T04:00:00,1102A,123.5903,41.8411,沈阳市,东陵路,,45,45,37,21,11,136,4,11,7,26,22,7,8,0.7,0.6
2023-07-18T04:00:00,1103A,123.4264,41.8467,沈阳市,陵东街,,48,48,22,22,11,103,5,7,6,38,22,4,4,0.8,0.6
2023-07-18T04:00:00,1104A,123.4114,41.7653,沈阳市,文化路,颗粒物(PM10),57,64,35,20,10,148,36,57,47,42,30,50,14,1.4,0.7
2023-07-18T04:00:00,1105A,123.4678,41.7867,沈阳市,小河沿,,45,45,34,20,18,131,4,10,6,37,34,5,5,0.7,0.7
2023-07-18T04:00:00,1106A,123.4017,41.7972,沈阳市,太原街,细颗粒物(PM2.5),57,57,31,40,23,118,42,50,48,35,28,39,9,1.1,0.5
2023-07-18T04:00:00,1108A,123.3783,41.9228,沈阳市,京沈街,颗粒物(PM10),58,65,32,29,14,121,6,8,7,60,27,13,9,0.7,0.5
2023-07-18T04:00:00,1109A,121.612,38.9741,大连市,甘井子,,20,19,31,10,15,130,64,77,66,25,30,5,5,0.5,0.5
2023-07-18T04:00:00,1110A,121.565,38.9511,大连市,周水子,,25,25,24,15,17,122,47,55,53,33,31,5,5,0.6,0.6
2023-07-18T04:00:00,1111A,121.5637,38.8845,大连市,星海三站,,21,21,37,7,16,111,53,72,56,20,26,4,5,0.4,0.4
2023-07-18T04:00:00,1112A,121.6302,38.9117,大连市,青泥洼桥,,19,8,20,7,12,119,60,74,64,18,24,5,5,0.5,0.6
2023-07-18T04:00:00,1113A,121.6251,38.8638,大连市,傅家庄,,,,,,,,,,,,,,,,
2023-07-18T04:00:00,1114A,121.5213,38.8661,大连市,七贤岭,,17,17,19,10,12,134,46,59,53,15,14,5,6,0.2,0.3
2023-07-18T04:00:00,1115A,121.2529,38.8061,大连市,旅顺,,23,23,20,8,12,129,56,71,65,23,28,6,6,0.2,0.2
2023-07-18T04:00:00,1116A,121.7485,39.1311,大连市,金州,,28,27,22,19,12,143,33,55,46,23,15,7,8,0.7,0.6
2023-07-18T04:00:00,1117A,121.7811,39.0496,大连市,开发区,,26,24,18,18,13,120,56,75,66,31,29,6,6,0.5,0.5
2023-07-18T04:00:00,1118A,121.9762,39.0631,大连市,双D港,,15,11,21,7,13,123,48,47,47,27,26,6,8,0.4,0.4
2023-07-18T04:00:00,1119A,125.3325,43.9166,长春市,食品厂,颗粒物(PM10),51,52,20,16,9,60,5,15,8,36,24,6,5,0.8,0.5
2023-07-18T04:00:00,1120A,125.2863,43.9027,长春市,客车厂,,37,37,17,14,8,66,5,11,8,29,20,4,4,0.6,0.5
2023-07-18T04:00:00,1121A,125.2841,43.8463,长春市,邮电学院,,25,25,13,14,4,68,5,9,6,19,11,5,4,0.5,0.3
2023-07-18T04:00:00,1122A,125.3716,43.8772,长春市,劳动公园,,21,21,17,7,5,69,3,6,5,29,18,5,5,0.4,0.4
2023-07-18T04:00:00,1123A,125.3297,43.8805,长春市,园林处,,23,21,18,16,11,57,5,16,8,30,20,4,4,0.5,0.3
2023-07-18T04:00:00,1124A,125.4605,43.79,长春市,净月潭,,14,14,13,4,3,71,4,7,6,5,9,3,3,0.2,0.2
2023-07-18T04:00:00,1125A,125.7194,43.515,长春市,甩湾子,,17,17,13,7,6,72,9,15,12,12,7,4,4,0.5,0.6
2023-07-18T04:00:00,1126A,125.3863,43.8447,长春市,经开区环卫处,,41,41,19,10,5,74,7,14,9,30,20,5,5,0.4,0.4
2023-07-18T04:00:00,1127A,125.245,43.7783,长春市,高新区管委会,,27,27,20,10,4,68,2,3,2,27,18,4,4,0.3,0.3
2023-07-18T04:00:00,1128A,125.1761,43.8325,长春市,岱山公园,,28,22,23,19,16,65,5,6,5,29,20,4,3,0.3,0.3
2023-07-18T04:00:00,1129A,126.5422,45.755,哈尔滨市,岭北,,23,23,12,14,7,41,27,26,26,13,12,12,12,0.3,0.3
2023-07-18T04:00:00,1130A,126.561,45.8167,哈尔滨市,松北商大,,23,23,16,7,5,26,7,8,6,29,19,5,5,0.6,0.6
2023-07-18T04:00:00,1131A,126.979,45.5419,哈尔滨市,阿城会宁,,22,22,27,8,9,35,6,12,10,29,22,13,12,0.5,0.5
2023-07-18T04:00:00,1132A,126.599,45.7222,哈尔滨市,南岗学府路,,35,35,26,16,9,28,15,10,10,12,16,5,4,0.7,0.7
2023-07-18T04:00:00,1133A,126.689,45.7733,哈尔滨市,太平宏伟公园,,18,18,23,6,7,32,17,18,18,17,18,5,4,0.4,0.5
2023-07-18T04:00:00,1134A,126.635,45.7667,哈尔滨市,道外承德广场,,19,19,16,12,5,47,36,26,26,10,18,9,9,0.5,0.6
2023-07-18T04:00:00,1135A,126.685,45.7319,哈尔滨市,香坊红旗大街,,25,20,23,17,12,39,26,19,19,19,22,8,6,0.5,0.5
2023-07-18T04:00:00,1136A,126.6411,45.7258,哈尔滨市,动力和平路,,,30,20,,,40,17,12,12,26,25,7,6,0.5,0.5
2023-07-18T04:00:00,1137A,126.593,45.7478,哈尔滨市,道里建国路,,19,19,16,8,6,46,28,22,22,20,22,4,4,0.5,0.5
2023-07-18T04:00:00,1138A,126.615,45.61,哈尔滨市,平房东轻厂,,15,15,17,5,6,36,12,8,8,20,20,7,7,0.6,0.7
2023-07-18T04:00:00,1139A,126.595,45.9855,哈尔滨市,呼兰师专,,22,22,14,13,4,38,23,15,15,13,12,8,8,0.3,0.3
2023-07-18T04:00:00,1140A,126.6206,45.6842,哈尔滨市,省农科院,,23,23,24,6,7,38,13,10,10,27,24,12,11,0.5,0.5
2023-07-18T04:00:00,1141A,121.4,31.238,上海市,普陀,,14,14,16,0,7,69,20,22,21,15,14,4,4,0.4,0.4
2023-07-18T04:00:00,1142A,121.478,31.2036,上海市,十五厂,,10,10,17,6,8,62,25,22,22,5,5,9,8,0.3,0.4
2023-07-18T04:00:00,1143A,121.467,31.3008,上海市,虹口,,15,15,15,1,5,62,15,18,17,16,11,6,6,0.5,0.5
2023-07-18T04:00:00,1144A,121.412,31.1654,上海市,徐汇上师大,,15,15,17,1,3,72,21,20,20,14,11,4,4,0.7,0.7
2023-07-18T04:00:00,1145A,121.536,31.2659,上海市,杨浦四漂,,,12,18,,7,56,,,,,10,,5,,0.3
2023-07-18T04:00:00,1147A,121.425,31.2261,上海市,静安监测站,,12,10,16,8,7,47,20,21,20,13,16,2,2,0.2,0.3
2023-07-18T04:00:00,1148A,121.703,31.1907,上海市,浦东川沙,,14,14,18,7,6,55,20,18,18,19,14,6,6,0.4,0.3
2023-07-18T04:00:00,1149A,121.533,31.2284,上海市,浦东新区监测站,,10,8,15,4,6,66,32,30,30,9,10,7,7,0.5,0.4
2023-07-18T04:00:00,1150A,121.577,31.2071,上海市,浦东张江,,13,13,17,9,6,55,19,17,17,18,15,6,5,0.8,0.7
2023-07-18T04:00:00,1151A,118.8086,32.1065,南京市,迈皋桥,,13,13,7,2,2,69,8,4,4,21,13,4,4,0.3,0.3
2023-07-18T04:00:00,1152A,118.7538,32.0551,南京市,草场门,,14,12,7,2,3,73,3,7,4,28,18,3,3,0.5,0.5
2023-07-18T04:00:00,1153A,118.7794,32.0745,南京市,山西路,,19,19,10,2,2,80,4,10,5,25,14,5,4,0.1,0.2
2023-07-18T04:00:00,1154A,118.7752,32.0023,南京市,中华门,,14,14,8,9,4,70,5,8,6,18,15,6,4,0.8,0.7
2023-07-18T04:00:00,1155A,118.8109,32.0309,南京市,瑞金路,,12,12,10,5,5,73,7,16,12,12,11,3,3,0.2,0.2
2023-07-18T04:00:00,1156A,118.7997,32.0754,南京市,玄武湖,,14,14,10,3,4,68,2,6,3,27,18,6,5,0.4,0.3
2023-07-18T04:00:00,1157A,118.6414,32.0931,南京市,浦口,,14,14,14,5,7,75,16,20,18,13,14,5,4,0.7,0.6
2023-07-18T04:00:00,1158A,118.7356,31.9996,南京市,奥体中心,,18,18,10,7,7,60,11,16,14,18,13,6,6,0.4,0.3
2023-07-18T04:00:00,1159A,118.9125,32.1028,南京市,仙林大学城,,12,12,7,7,5,86,4,9,8,21,12,7,7,0.4,0.4
2023-07-18T04:00:00,1160A,120.561,31.2472,苏州市,上方山,,14,14,20,7,8,77,6,16,12,8,10,5,5,0.2,0.2
2023-07-18T04:00:00,1162A,120.591,31.3019,苏州市,彩香,,16,16,18,6,8,88,7,21,14,10,9,6,6,0.4,0.5
2023-07-18T04:00:00,1163A,120.596,31.3264,苏州市,轧钢厂,,16,16,19,6,7,93,9,22,15,13,12,8,8,0.4,0.5
2023-07-18T04:00:00,1164A,120.613,31.2703,苏州市,吴中区,,8,0,10,5,6,93,14,21,18,12,14,8,7,0.6,0.6
2023-07-18T04:00:00,1165A,120.543,31.2994,苏州市,苏州新区,,14,14,16,9,10,92,9,18,14,15,13,7,7,0.5,0.6
2023-07-18T04:00:00,1166A,120.669,31.3097,苏州市,苏州工业园区,,15,15,14,6,8,89,9,22,16,10,9,8,9,0.4,0.5
2023-07-18T04:00:00,1167A,120.641,31.3708,苏州市,相城区,,12,12,11,6,5,88,10,17,13,10,11,7,6,0.6,0.7
2023-07-18T04:00:00,1168A,120.9098,31.9663,南通市,狼山街道,,9,0,14,0,3,70,26,24,24,6,10,10,11,0.2,0.3
2023-07-18T04:00:00,1169A,120.86,32.0005,南通市,虹桥,,8,7,16,4,7,61,25,26,26,2,5,7,8,0.5,0.6
2023-07-18T04:00:00,1170A,120.87,32.02,南通市,城中,,8,1,13,0,3,59,25,28,27,2,4,7,8,0.2,0.3
2023-07-18T04:00:00,1171A,120.94,31.93,南通市,星湖花园,,8,4,13,0,2,67,24,24,22,6,11,4,5,0.3,0.3
2023-07-18T04:00:00,1172A,120.81,32.0417,南通市,紫琅学院,,8,8,15,0,2,63,25,26,26,4,11,4,4,0.3,0.4
2023-07-18T04:00:00,1173A,119.176,34.5885,连云港市,市环境监测站,,28,12,26,7,11,121,88,104,97,8,10,3,4,0.0,0.1
2023-07-18T04:00:00,1177A,117.179,34.2761,徐州市,黄河新村,颗粒物(PM10),51,51,44,28,23,162,72,85,78,9,12,10,8,0.3,0.3
2023-07-18T04:00:00,1178A,117.1918,34.2384,徐州市,淮塔,,40,40,41,25,20,176,79,93,86,11,11,11,10,0.5,0.5
2023-07-18T04:00:00,1180A,117.256,34.2153,徐州市,新城区,,46,46,49,26,20,170,80,91,85,6,8,8,8,0.3,0.4
2023-07-18T04:00:00,1181A,117.244,34.2911,徐州市,桃园路,颗粒物(PM10),51,51,47,18,17,171,80,88,83,8,12,11,10,0.4,0.4
2023-07-18T04:00:00,1182A,117.2933,34.2778,徐州市,农科院,,33,31,39,23,22,166,78,83,79,8,14,10,7,0.4,0.4
2023-07-18T04:00:00,1186A,119.389,32.3761,扬州市,邗江监测站,,17,17,10,8,6,72,17,28,24,15,10,4,4,0.6,0.6
2023-07-18T04:00:00,1188A,120.269,31.4867,无锡市,雪浪,,10,9,14,5,6,98,16,27,22,19,15,3,3,0.6,0.6
2023-07-18T04:00:00,1189A,120.275,31.6219,无锡市,黄巷,,15,15,20,2,8,93,20,25,22,17,22,7,6,0.8,0.8
2023-07-18T04:00:00,1190A,120.294,31.56,无锡市,曹张,,16,16,17,2,9,87,11,19,14,10,11,3,3,0.8,0.7
2023-07-18T04:00:00,1191A,120.242,31.5031,无锡市,漆塘,,8,7,12,5,7,101,14,29,22,16,14,5,5,0.7,0.6
2023-07-18T04:00:00,1192A,120.3489,31.5863,无锡市,东亭,,14,14,18,9,8,91,12,21,17,21,19,10,10,0.6,0.5
2023-07-18T04:00:00,1193A,120.354,31.5475,无锡市,旺庄,,7,5,13,2,5,103,14,25,19,14,13,7,6,0.6,0.5
2023-07-18T04:00:00,1194A,120.245,31.5631,无锡市,荣巷,,14,14,18,5,9,97,14,25,18,12,14,8,8,0.7,0.6
2023-07-18T04:00:00,1195A,120.299,31.6817,无锡市,堰桥,,9,7,14,5,6,94,10,20,17,18,13,6,7,0.7,0.7
2023-07-18T04:00:00,1196A,119.9633,31.762,常州市,市监测站,,25,25,22,12,15,104,4,12,8,28,21,8,7,0.7,0.7
2023-07-18T04:00:00,1200A,119.9468,31.7069,常州市,武进监测站,,20,20,23,10,13,118,11,16,14,21,17,11,10,0.7,0.7
2023-07-18T04:00:00,1201A,119.9255,31.9087,常州市,安家,,18,18,18,8,10,91,16,31,24,12,10,4,4,0.5,0.6
2023-07-18T04:00:00,1203A,119.6707,32.1875,镇江市,新区办事处,,13,13,10,6,5,84,21,34,28,13,14,1,2,0.3,0.3
2023-07-18T04:00:00,1204A,119.4974,32.1968,镇江市,职教中心,,19,17,10,13,7,114,10,32,20,28,13,2,2,0.4,0.4
2023-07-18T04:00:00,1205A,119.4303,32.1328,镇江市,丹徒区监测站,,18,18,14,6,7,120,17,24,21,18,15,6,7,0.5,0.5
2023-07-18T04:00:00,1206A,119.905,32.4878,泰州市,公园路,,9,2,4,5,7,87,26,39,32,11,7,7,7,0.4,0.4
2023-07-18T04:00:00,1207A,119.9189,32.4625,泰州市,莲花,,10,7,7,7,6,87,26,36,31,6,5,6,7,0.2,0.3
2023-07-18T04:00:00,1209A,119.888,32.4639,泰州市,留学生创业园,,10,10,8,4,4,81,25,36,30,5,4,6,7,0.6,0.6
2023-07-18T04:00:00,1210A,119.036,33.5981,淮安市,钵池山,,17,9,28,11,18,98,54,73,65,9,9,5,5,0.5,0.6
2023-07-18T04:00:00,1211A,119.007,33.575,淮安市,北京南路,,18,14,30,9,15,99,55,71,64,10,10,6,6,0.5,0.6
2023-07-18T04:00:00,1212A,118.989,33.6067,淮安市,市监测站,,19,19,32,7,14,109,60,78,71,6,6,6,7,0.5,0.5
2023-07-18T04:00:00,1213A,119.135,33.5039,淮安市,楚州区监测站,,22,22,33,3,12,94,52,68,59,8,7,6,6,0.6,0.7
2023-07-18T04:00:00,1214A,119.0186,33.6297,淮安市,淮阴区监测站,,22,22,32,11,19,108,58,78,69,9,8,7,7,0.3,0.4
2023-07-18T04:00:00,1215A,120.118,33.4022,盐城市,盐城电厂,,10,2,15,5,12,101,31,59,42,2,4,3,4,0.3,0.4
2023-07-18T04:00:00,1216A,120.156,33.3942,盐城市,市监测站,,9,4,12,0,2,94,26,49,36,4,5,3,3,0.2,0.2
2023-07-18T04:00:00,1218A,120.2144,33.38,盐城市,开发区管委会,,7,5,15,1,6,86,22,44,31,5,6,4,4,0.1,0.1
2023-07-18T04:00:00,1220A,118.293,33.9528,宿迁市,宿迁学院,,30,30,33,21,25,138,70,83,76,6,9,6,6,0.5,0.5
2023-07-18T04:00:00,1221A,118.2442,33.9592,宿迁市,宿迁中学,,30,27,34,21,23,140,67,82,74,8,9,5,6,0.4,0.5
2023-07-18T04:00:00,1223A,120.2072,30.2111,杭州市,滨江,,20,20,21,8,11,98,18,28,22,16,17,5,6,0.5,0.5
2023-07-18T04:00:00,1224A,120.0633,30.2747,杭州市,西溪,,18,18,23,7,11,103,5,5,5,25,23,6,6,0.7,0.7
2023-07-18T04:00:00,1226A,120.3461,30.3153,杭州市,下沙,,19,19,22,5,10,94,8,24,14,32,16,4,4,0.5,0.4
2023-07-18T04:00:00,1227A,120.1269,30.2456,杭州市,卧龙桥,,17,17,20,2,10,98,3,4,3,10,12,5,5,0.5,0.5
2023-07-18T04:00:00,1228A,120.1903,30.2692,杭州市,浙江农大,,15,15,18,10,12,92,17,43,29,20,16,6,7,0.3,0.3
2023-07-18T04:00:00,1230A,120.1197,30.3119,杭州市,和睦小学,,19,19,23,12,13,128,18,27,19,15,17,6,6,0,0.4
2023-07-18T04:00:00,1231A,120.3019,30.4183,杭州市,临平镇,,16,16,17,3,7,98,27,32,30,9,9,4,4,0.3,0.3
2023-07-18T04:00:00,1232A,120.2697,30.1819,杭州市,城厢镇,,23,23,23,10,14,99,14,30,23,22,19,6,6,0.6,0.6
2023-07-18T04:00:00,1233A,120.0883,30.1808,杭州市,云栖,,20,20,22,6,10,114,2,2,2,8,10,4,4,0.6,0.7
2023-07-18T04:00:00,1234A,121.8358,29.911,宁波市,区环保大楼,,18,17,13,10,6,55,2,29,14,36,19,2,2,0.5,0.5
2023-07-18T04:00:00,1235A,121.56,29.82,宁波市,万里学院,,35,35,21,14,6,75,26,38,28,21,14,4,4,0.5,0.4
2023-07-18T04:00:00,1236A,121.713,29.9572,宁波市,龙赛医院,,20,20,17,8,6,80,12,25,17,23,21,6,8,0.4,0.5
2023-07-18T04:00:00,1239A,121.633,29.7733,宁波市,钱湖水厂,,23,23,19,5,9,56,11,21,17,11,7,2,2,0.4,0.3
2023-07-18T04:00:00,1240A,121.5856,29.8635,宁波市,太古小学,,24,24,17,3,4,85,19,44,32,21,11,7,6,0.5,0.5
2023-07-18T04:00:00,1241A,121.524,29.8674,宁波市,市环境监测中心,,28,28,18,6,5,88,10,36,19,18,9,4,4,0.5,0.5
2023-07-18T04:00:00,1242A,120.634,28.0089,温州市,瓯海,,20,20,19,8,9,89,19,28,23,18,13,6,6,0.4,0.4
2023-07-18T04:00:00,1243A,120.6748,27.9939,温州市,南浦,,12,12,17,4,6,94,30,34,32,9,7,6,6,0.4,0.3
2023-07-18T04:00:00,1244A,120.76,27.9747,温州市,龙湾,,24,24,19,6,6,82,12,29,18,23,9,6,6,0.4,0.4
2023-07-18T04:00:00,1245A,120.6709,28.0167,温州市,市站,,9,9,22,2,7,72,13,21,18,17,12,5,5,0.4,0.4
2023-07-18T04:00:00,1247A,120.6053,29.9928,绍兴市,城东开发委,,21,21,17,8,9,68,3,5,4,21,20,5,5,0.6,0.6
2023-07-18T04:00:00,1250A,120.0751,30.8669,湖州市,城西水厂,,22,19,25,15,8,101,7,31,20,38,20,2,2,0.5,0.5
2023-07-18T04:00:00,1252A,120.7436,30.778,嘉兴市,清河小学,,15,15,13,6,3,86,20,30,27,18,12,6,6,0.6,0.6
2023-07-18T04:00:00,1253A,120.726,30.7478,嘉兴市,嘉兴学院,,15,15,16,7,7,86,21,26,24,14,11,1,1,0.4,0.4
2023-07-18T04:00:00,1255A,121.273,28.6459,台州市,黄岩环保大楼,,13,13,18,7,8,74,23,28,26,6,7,3,3,0.3,0.3
2023-07-18T04:00:00,1256A,121.419,28.6542,台州市,台州环保大楼,,20,20,18,5,7,57,18,36,28,12,6,2,2,0.4,0.3
2023-07-18T04:00:00,1257A,121.377,28.5773,台州市,路桥田洋王,,15,8,15,10,9,51,16,28,21,17,9,2,2,0.5,0.4
2023-07-18T04:00:00,1258A,122.122,30.0203,舟山市,定海檀枫,,22,22,16,4,5,51,4,20,10,18,7,6,6,0.5,0.4
2023-07-18T04:00:00,1259A,122.3094,29.9558,舟山市,普陀东港,,17,17,18,6,5,62,12,15,12,16,8,5,4,0.3,0.3
2023-07-18T04:00:00,1260A,122.19,29.9944,舟山市,临城新区,,20,20,18,6,5,52,6,17,10,23,9,3,2,0.3,0.2
2023-07-18T04:00:00,1262A,119.647,29.077,金华市,十五中,,41,41,26,13,10,135,28,39,34,26,16,3,3,0.4,0.3
2023-07-18T04:00:00,1263A,119.686,29.1029,金华市,监测站,,34,34,26,15,10,134,20,30,26,31,17,4,4,0.4,0.3
2023-07-18T04:00:00,1264A,118.8692,28.9398,衢州市,环保大楼,,29,29,22,17,12,89,52,51,51,11,13,3,3,0.5,0.5
2023-07-18T04:00:00,1265A,118.8709,28.9666,衢州市,实验学校,颗粒物(PM10),52,54,30,18,14,96,40,48,46,16,12,2,5,0.4,0.4
2023-07-18T04:00:00,1266A,118.8621,28.9808,衢州市,衢州学院,,40,40,24,21,11,96,42,56,50,19,14,7,5,0.5,0.5
2023-07-18T04:00:00,1267A,119.914,28.4514,丽水市,监测站大楼,,16,16,16,4,8,95,19,59,36,21,9,9,5,0.5,0.4
2023-07-18T04:00:00,1268A,119.93,28.4586,丽水市,莲都小学,,13,13,22,6,9,99,21,64,42,20,8,5,5,0.4,0.4
2023-07-18T04:00:00,1269A,119.879,28.4231,丽水市,余庄前,,15,15,14,3,3,101,4,33,14,21,10,5,4,0.5,0.4
2023-07-18T04:00:00,1270A,117.1959,31.7848,合肥市,明珠广场,,22,22,19,5,11,91,12,19,18,25,21,6,5,0.5,0.6
2023-07-18T04:00:00,1271A,117.3072,31.8764,合肥市,三里街,,18,12,17,12,10,82,25,26,24,17,17,4,4,0.3,0.4
2023-07-18T04:00:00,1272A,117.2588,31.8707,合肥市,琥珀山庄,,18,17,19,12,13,90,30,38,35,15,14,4,4,0.4,0.5
2023-07-18T04:00:00,1273A,117.1604,31.9052,合肥市,董铺水库,,9,9,17,5,9,88,21,27,19,15,12,3,3,0.2,0.3
2023-07-18T04:00:00,1274A,117.25,31.8571,合肥市,长江中路,,22,22,22,9,14,94,28,33,30,10,11,9,8,0.3,0.4
2023-07-18T04:00:00,1275A,117.266,31.9436,合肥市,庐阳区,,17,17,25,9,16,85,31,32,31,13,18,5,4,0.5,0.6
2023-07-18T04:00:00,1276A,117.336,31.8586,合肥市,瑶海区,,17,17,18,6,9,88,28,36,32,12,10,8,8,0.4,0.5
2023-07-18T04:00:00,1277A,117.3027,31.7964,合肥市,包河区,,13,9,16,9,11,80,26,28,27,19,33,5,5,0.3,0.5
2023-07-18T04:00:00,1278A,117.2776,31.7385,合肥市,滨湖新区,,15,15,15,7,12,93,34,32,32,11,15,4,4,0.3,0.4
2023-07-18T04:00:00,1279A,117.1318,31.8403,合肥市,高新区,,,22,25,7,14,88,21,32,27,,18,65,10,0.0,0.4
2023-07-18T04:00:00,1280A,119.3903,26.0543,福州市,鼓山,,,,,,,,,,,,,,,,
2023-07-18T04:00:00,1282A,119.2681,26.0504,福州市,师大,,38,38,18,18,6,75,4,12,10,27,16,5,4,0.6,0.3
2023-07-18T04:00:00,1283A,119.2984,26.1028,福州市,五四北路,,38,38,20,19,6,103,3,8,6,24,18,3,3,0.4,0.4
2023-07-18T04:00:00,1284A,119.2648,26.0768,福州市,杨桥西路,,35,35,22,5,7,81,3,8,6,22,16,3,3,0.3,0.3
2023-07-18T04:00:00,1285A,119.317,26.0746,福州市,紫阳,,36,36,19,14,5,78,4,16,8,28,18,2,2,0.5,0.4
2023-07-18T04:00:00,1286A,118.1608,24.8169,厦门市,溪东,,,,,,,,,,,,,,,,
2023-07-18T04:00:00,1287A,118.1514,24.4767,厦门市,洪文,,18,18,19,3,6,77,31,24,24,8,11,1,1,0.3,0.3
2023-07-18T04:00:00,1288A,118.0661,24.4444,厦门市,鼓浪屿,,13,13,15,6,7,74,24,32,30,19,6,2,2,0.4,0.4
2023-07-18T04:00:00,1290A,115.8931,28.6843,南昌市,省外办,,29,29,35,12,18,124,30,43,36,18,14,8,7,0.7,0.7
2023-07-18T04:00:00,1291A,115.8886,28.7003,南昌市,省林业公司,,24,24,29,12,17,124,74,75,73,11,12,5,5,0.5,0.6
2023-07-18T04:00:00,1292A,115.8126,28.7442,南昌市,林科所,,14,9,15,7,10,116,42,47,46,12,12,7,7,0.7,0.7
2023-07-18T04:00:00,1294A,115.8518,28.687,南昌市,建工学校,,23,23,28,8,14,128,42,51,46,8,9,5,4,0.7,0.7
2023-07-18T04:00:00,1295A,115.8921,28.6424,南昌市,象湖,,18,18,24,10,19,130,40,46,43,12,10,6,5,0.6,0.7
2023-07-18T04:00:00,1296A,115.7423,28.7996,南昌市,武术学校,,17,17,18,8,14,101,29,28,27,6,3,3,3,0.5,0.5
2023-07-18T04:00:00,1298A,115.9314,28.6842,南昌市,省站,,14,14,29,8,18,124,39,51,43,10,8,10,8,0.5,0.6
2023-07-18T04:00:00,1299A,116.9862,36.6114,济南市,科干所,,34,17,40,10,18,228,108,144,126,9,22,5,6,0.3,0.4
2023-07-18T04:00:00,1300A,116.9376,36.665,济南市,农科所,,29,24,43,5,12,236,92,134,118,15,23,6,8,0.2,0.3
2023-07-18T04:00:00,1301A,117.1265,36.6734,济南市,开发区,,30,29,47,12,18,221,95,124,114,22,29,5,6,0.4,0.6
2023-07-18T04:00:00,1303A,117.0624,36.6868,济南市,省种子仓库,,37,27,45,12,16,237,116,132,128,10,27,5,6,0.4,0.6
2023-07-18T04:00:00,1304A,116.9489,36.6447,济南市,机床二厂,,34,32,46,15,15,243,106,146,128,14,21,8,9,0.5,0.6
2023-07-18T04:00:00,1305A,117.0495,36.663,济南市,市监测站,,36,27,43,10,17,226,113,137,127,15,31,5,6,0.3,0.5
2023-07-18T04:00:00,1306A,116.7675,36.5484,济南市,长清党校,,34,34,40,12,20,233,86,118,107,26,21,6,7,0.5,0.5
2023-07-18T04:00:00,1307A,120.6659,36.2403,青岛市,仰口,,20,19,13,12,11,110,64,85,73,3,5,5,5,0.1,0.5
2023-07-18T04:00:00,1310A,120.4134,36.0658,青岛市,市南区东部子站,,27,22,20,7,10,136,86,123,106,7,12,3,4,0.3,0.4
2023-07-18T04:00:00,1311A,120.3664,36.1032,青岛市,四方区子站,,24,19,22,9,7,129,76,128,105,20,21,2,3,0.5,0.5
2023-07-18T04:00:00,1312A,120.2994,36.054,青岛市,市南区西部子站,,29,24,34,7,8,137,92,121,107,4,24,5,7,0.5,0.5
2023-07-18T04:00:00,1313A,120.4581,36.0858,青岛市,崂山区子站,,29,12,23,9,8,147,92,129,112,10,13,5,6,0.3,0.3
2023-07-18T04:00:00,1314A,120.1983,35.9608,青岛市,黄岛区子站,,26,24,30,12,13,144,81,96,92,12,33,5,7,0.5,0.6
2023-07-18T04:00:00,1315A,120.3999,36.3083,青岛市,城阳区子站,,34,34,29,12,10,126,86,96,90,10,14,5,5,0.4,0.4
2023-07-18T04:00:00,1316A,113.69031,34.76122,郑州市,烟厂,,46,43,42,19,17,196,146,153,151,15,19,3,2,0.6,0.5
2023-07-18T04:00:00,1317A,113.65724,34.77134,郑州市,郑纺机,,47,37,42,18,18,199,150,156,155,9,17,2,2,0.6,0.5
2023-07-18T04:00:00,1318A,113.67526,34.80246,郑州市,银行学校,,48,26,36,17,16,203,153,172,164,17,14,3,3,0.7,0.5
2023-07-18T04:00:00,1319A,113.56746,34.81334,郑州市,供水公司,,49,40,40,16,16,194,156,135,133,12,20,6,6,0.7,0.6
2023-07-18T04:00:00,1320A,113.7329,34.7178,郑州市,经开区管委,,49,49,42,26,20,197,120,125,123,17,18,3,2,0.6,0.5
2023-07-18T04:00:00,1321A,113.73961,34.77172,郑州市,四十七中,,46,36,43,17,18,208,147,152,151,9,8,4,3,0.6,0.5
2023-07-18T04:00:00,1322A,113.60532,34.74838,郑州市,市监测站,臭氧1小时,59,45,51,19,20,208,167,166,166,11,23,2,2,0.6,0.5
2023-07-18T04:00:00,1323A,113.64164,34.7525,郑州市,河医大,,44,44,44,17,16,178,134,145,142,9,17,5,4,0.6,0.5
2023-07-18T04:00:00,1324A,113.51488,34.91089,郑州市,岗李水库,,35,35,36,23,17,197,18,32,24,18,14,2,2,0.5,0.4
2023-07-18T04:00:00,1325A,114.3677,30.5584,武汉市,东湖梨园,,30,30,37,15,21,137,43,74,61,24,17,5,6,1.9,1.2
2023-07-18T04:00:00,1326A,114.2529,30.558,武汉市,汉阳月湖,,25,25,35,12,15,123,59,77,66,14,17,6,6,0.5,0.6
2023-07-18T04:00:00,1327A,114.282,30.6189,武汉市,汉口花桥,,32,32,37,12,21,129,59,75,68,11,12,8,8,0.6,0.5
2023-07-18T04:00:00,1328A,114.3025,30.5332,武汉市,武昌紫阳,,35,35,37,18,20,135,45,74,60,23,21,6,7,1.5,0.9
2023-07-18T04:00:00,1329A,114.3646,30.6217,武汉市,青山钢花,,23,23,37,14,24,125,56,66,59,13,16,8,8,0.7,0.7
2023-07-18T04:00:00,1330A,114.1566,30.4825,武汉市,沌口新区,,30,30,41,21,25,140,59,58,58,15,25,6,7,0.7,0.7
2023-07-18T04:00:00,1331A,114.3014,30.5944,武汉市,汉口江滩,,20,19,31,9,20,124,62,82,70,8,12,5,5,0.5,0.6
2023-07-18T04:00:00,1333A,114.135,30.6319,武汉市,吴家山,,24,24,39,10,21,133,55,67,60,13,14,6,6,0.6,0.6
2023-07-18T04:00:00,1334A,113.8454,30.2917,武汉市,沉湖七壕,,48,48,44,23,22,182,56,59,58,20,14,5,6,0.8,0.8
2023-07-18T04:00:00,1335A,113.0833,28.2325,长沙市,经开区环保局,,18,5,27,12,19,114,45,54,49,10,9,4,4,0.4,0.4
2023-07-18T04:00:00,1336A,112.8872,28.2189,长沙市,高开区环保局,,30,23,41,21,24,135,51,59,50,7,8,6,6,0.6,0.6
2023-07-18T04:00:00,1337A,113.0792,28.2053,长沙市,马坡岭,,22,9,35,15,22,116,47,51,46,11,11,4,5,0.3,0.4
2023-07-18T04:00:00,1338A,112.9394,28.19,长沙市,湖南师范大学,,25,13,31,17,23,122,48,60,52,6,5,3,3,0.7,0.7
2023-07-18T04:00:00,1339A,113.0178,28.1322,长沙市,雨花区环保局,,19,19,34,12,19,122,48,50,46,8,9,5,5,0.4,0.4
2023-07-18T04:00:00,1340A,112.9792,28.2597,长沙市,伍家岭,,32,32,38,17,24,114,32,41,38,20,15,3,3,0.6,0.5
2023-07-18T04:00:00,1341A,113.0014,28.1944,长沙市,火车新站,,14,9,31,9,16,112,44,47,46,10,8,5,5,0.7,0.7
2023-07-18T04:00:00,1342A,112.9844,28.1178,长沙市,天心区环保局,,15,12,27,7,19,127,48,52,48,11,6,1,1,0.5,0.5
2023-07-18T04:00:00,1343A,112.8908,28.1308,长沙市,湖南中医药大学,,25,25,39,12,18,138,49,62,48,8,5,2,2,0.7,0.6
2023-07-18T04:00:00,1344A,112.9581,28.3611,长沙市,沙坪,,35,35,61,16,24,103,33,48,41,9,6,4,5,0.6,0.6
2023-07-18T04:00:00,1345A,113.2347,23.1423,广州市,广雅中学,,12,12,17,8,7,68,38,42,41,11,10,3,3,0.9,0.8
2023-07-18T04:00:00,1346A,113.2612,23.105,广州市,市五中,,14,12,15,8,8,75,43,42,42,8,7,7,6,0.5,0.5
2023-07-18T04:00:00,1348A,113.3478,23.0916,广州市,广东商学院,,13,10,15,7,7,68,39,38,38,12,12,5,4,0.6,0.6
2023-07-18T04:00:00,1349A,113.4332,23.1047,广州市,市八十六中,,13,12,16,7,7,67,39,36,36,10,11,4,4,0.5,0.5
2023-07-18T04:00:00,1350A,113.3505,22.9483,广州市,番禺中学,,13,13,15,9,11,80,40,44,38,17,15,7,7,0.6,0.6
2023-07-18T04:00:00,1351A,113.2146,23.3916,广州市,花都师范,,12,12,13,6,6,60,37,45,42,14,11,6,6,0.6,0.6
2023-07-18T04:00:00,1352A,113.2597,23.1331,广州市,市监测站,,21,21,15,12,8,65,35,41,38,21,15,6,5,0.7,0.7
2023-07-18T04:00:00,1353A,113.5618,23.312,广州市,九龙镇镇龙,,14,14,11,5,4,54,41,41,38,5,7,5,5,0.7,0.7
2023-07-18T04:00:00,1354A,113.2765,23.1544,广州市,麓湖,,15,11,11,10,6,65,35,38,37,15,12,5,5,0.8,0.8
2023-07-18T04:00:00,1355A,113.443,23.3035,广州市,帽峰山森林公园,,16,11,8,4,3,59,50,55,51,5,5,5,5,0.2,0.3
2023-07-18T04:00:00,1356A,114.1063,22.5545,深圳市,通心岭子站,,21,21,21,7,7,68,57,59,59,1,2,5,5,0.5,0.6
2023-07-18T04:00:00,1357A,114.117,22.5625,深圳市,洪湖,,31,31,26,6,7,70,59,59,59,5,5,5,5,0.6,0.7
2023-07-18T04:00:00,1358A,113.987,22.5417,深圳市,华侨城,,17,15,18,8,8,58,52,52,52,2,4,7,7,0.6,0.6
2023-07-18T04:00:00,1359A,113.9181,22.5171,深圳市,南海子站,,30,30,30,9,7,62,54,53,53,8,10,4,4,0.6,0.7
2023-07-18T04:00:00,1360A,114.2458,22.5689,深圳市,盐田,,34,34,28,9,8,69,51,54,54,6,3,4,4,0.7,0.7
2023-07-18T04:00:00,1361A,114.2283,22.7244,深圳市,龙岗,,21,21,20,7,8,74,64,62,62,2,5,6,6,0.7,0.8
2023-07-18T04:00:00,1363A,114.494,22.5422,深圳市,南澳,,34,34,23,12,6,69,49,53,50,5,5,4,5,0.6,0.6
2023-07-18T04:00:00,1364A,114.41,22.6342,深圳市,葵涌,,23,23,21,8,7,66,49,50,49,2,4,5,5,0.5,0.5
2023-07-18T04:00:00,1365A,114.297,22.5978,深圳市,梅沙,,39,39,44,11,11,68,53,55,54,4,3,4,4,0.6,0.6
2023-07-18T04:00:00,1366A,114.0678,22.738,深圳市,观澜,,18,14,18,5,8,75,56,56,56,10,8,6,6,0.6,0.6
2023-07-18T04:00:00,1367A,113.5814,22.2618,珠海市,吉大,,31,31,21,16,9,79,66,65,65,6,6,3,3,0.6,0.5
2023-07-18T04:00:00,1368A,113.4881,22.2335,珠海市,前山,,21,17,16,10,7,77,66,65,65,4,4,6,6,0.4,0.3
2023-07-18T04:00:00,1369A,113.628,22.4251,珠海市,唐家,,23,23,18,14,8,75,70,69,69,3,4,7,7,0.4,0.4
2023-07-18T04:00:00,1370A,113.299,22.2281,珠海市,斗门,,23,17,14,6,6,73,73,69,69,2,3,4,3,0.5,0.4
2023-07-18T04:00:00,1371A,113.1294,23.0067,佛山市,湾梁,,14,14,13,6,6,74,39,45,43,10,8,7,7,0.4,0.4
2023-07-18T04:00:00,1372A,113.1083,23.0478,佛山市,华材职中,,13,7,9,9,8,77,37,45,41,15,11,6,6,0.5,0.4
2023-07-18T04:00:00,1373A,113.144,23.0453,佛山市,南海气象局,,13,13,17,5,7,54,25,31,28,14,13,6,6,0.4,0.4
2023-07-18T04:00:00,1374A,113.2881,22.8094,佛山市,顺德苏岗,,20,20,6,9,6,71,41,44,42,8,9,6,6,0.6,0.6
2023-07-18T04:00:00,1376A,112.8383,22.8678,佛山市,高明孔堂,,20,15,18,3,6,85,63,60,58,7,14,4,4,0.7,0.7
2023-07-18T04:00:00,1377A,112.8836,23.1588,佛山市,三水监测站,,11,5,8,6,7,64,35,37,36,16,14,6,6,0.7,0.7
2023-07-18T04:00:00,1378A,112.867,23.185,佛山市,三水云东海,,13,13,14,6,6,66,39,40,40,12,12,3,3,0.4,0.4
2023-07-18T04:00:00,1379A,113.3769,22.5211,中山市,华柏园,,23,23,17,13,8,72,72,68,68,4,7,4,4,0.4,0.4
2023-07-18T04:00:00,1380A,113.3881,22.5497,中山市,张溪,,27,27,19,5,9,74,70,69,69,2,5,5,5,0.5,0.4
2023-07-18T04:00:00,1381A,113.4075,22.5111,中山市,紫马岭,,23,23,20,12,7,73,71,68,68,1,3,5,5,0.2,0.3
2023-07-18T04:00:00,1382A,113.4411,22.4853,中山市,长江旅游区,,26,23,17,8,7,81,81,72,72,2,4,9,9,0.3,0.3
2023-07-18T04:00:00,1383A,113.1064,22.6058,江门市,北街,,22,21,15,9,8,87,70,66,66,4,9,4,5,0.5,0.5
2023-07-18T04:00:00,1384A,113.0731,22.5835,江门市,西区,,24,24,17,9,6,85,67,63,63,4,9,4,4,0.3,0.4
2023-07-18T04:00:00,1385A,113.0219,22.5311,江门市,圭峰西,,24,13,14,8,9,82,74,68,68,5,9,2,3,0.6,0.6
2023-07-18T04:00:00,1386A,113.0828,22.5947,江门市,东湖,,21,21,18,14,13,87,63,65,63,3,8,6,5,0.4,0.4
2023-07-18T04:00:00,1389A,113.7547,23.0494,东莞市,莞城梨川,,20,6,15,4,8,72,61,52,52,6,10,9,10,0.6,0.7
2023-07-18T04:00:00,1390A,113.7944,23.0128,东莞市,东城石井,,20,8,16,4,7,70,63,49,49,5,11,6,7,0.5,0.5
2023-07-18T04:00:00,1391A,113.7383,22.9658,东莞市,南城西平,,19,8,14,5,6,71,58,58,58,6,11,6,7,0.6,0.5
2023-07-18T04:00:00,1392A,114.4183,23.0528,惠州市,河南岸金山湖子站,,23,23,19,10,7,65,46,48,48,5,6,3,3,0.5,0.5
2023-07-18T04:00:00,1393A,114.4053,23.0822,惠州市,下埔横江三路子站,,14,7,12,5,6,65,44,48,47,3,5,3,4,0.6,0.6
2023-07-18T04:00:00,1394A,114.4103,23.1142,惠州市,江北云山西路子站,,15,3,15,7,10,65,45,50,47,2,2,4,4,0.5,0.5
2023-07-18T04:00:00,1395A,114.4645,22.7833,惠州市,惠阳区承修路船湖子站,,27,27,21,14,11,92,60,64,62,4,6,5,5,0.5,0.5
2023-07-18T04:00:00,1396A,114.5317,22.7422,惠州市,大亚湾管委会子站,颗粒物(PM10),52,53,29,10,9,75,54,60,57,6,8,2,2,0.5,0.5
2023-07-18T04:00:00,1397A,112.4267,23.0706,肇庆市,睦岗子站,,19,15,12,6,4,66,58,63,59,6,8,6,6,0.5,0.5
2023-07-18T04:00:00,1398A,112.4645,23.0475,肇庆市,城中子站,,18,15,12,12,6,64,51,55,52,11,10,10,10,0.5,0.4
2023-07-18T04:00:00,1399A,112.5544,23.1522,肇庆市,坑口子站,,12,10,9,8,6,65,36,36,36,18,15,5,5,0.3,0.3
2023-07-18T04:00:00,1400A,112.4753,23.1,肇庆市,七星岩子站,,15,12,11,5,5,61,45,48,46,12,10,9,9,0.4,0.4
2023-07-18T04:00:00,1401A,108.3103,22.7881,南宁市,二十一中,,32,24,52,22,24,132,94,85,85,5,9,5,6,0.6,0.6
2023-07-18T04:00:00,1402A,108.3141,22.8528,南宁市,北湖,,29,27,53,20,28,122,86,80,80,5,10,8,10,0.8,0.8
2023-07-18T04:00:00,1403A,108.3206,22.8225,南宁市,市监测站,,32,21,50,22,26,119,91,84,84,6,18,6,8,0.6,0.6
2023-07-18T04:00:00,1404A,108.3829,22.8037,南宁市,大自然花园,,29,23,45,20,24,117,84,81,81,6,9,5,6,0.7,0.7
2023-07-18T04:00:00,1405A,108.4394,22.7904,南宁市,仙葫,,,,,,,,,,,,,,,,
2023-07-18T04:00:00,1406A,108.2397,22.8467,南宁市,区农职院,,32,29,52,22,25,130,90,82,82,7,13,6,8,0.6,0.7
2023-07-18T04:00:00,1407A,108.3275,22.735,南宁市,英华嘉园,,26,24,46,16,23,116,81,70,70,8,12,5,6,0.6,0.6
2023-07-18T04:00:00,1408A,108.2257,22.7757,南宁市,沙井镇街道办,,28,25,59,19,24,139,85,74,74,6,19,5,7,0.8,0.8
2023-07-18T04:00:00,1409A,110.576,19.9507,海口市,东寨港,,,,,,,,,,,,,,,,
2023-07-18T04:00:00,1410A,110.3232,20.0574,海口市,海南大学,,22,15,30,5,14,102,68,66,66,4,5,5,5,0.4,0.5
2023-07-18T04:00:00,1411A,110.283,20.0053,海口市,秀英海南医院,,24,13,23,5,14,111,74,72,72,4,6,5,5,0.3,0.4
2023-07-18T04:00:00,1412A,110.338,19.9969,海口市,海南师范大学,,22,8,21,4,12,104,69,69,68,3,5,6,7,0.4,0.4
2023-07-18T04:00:00,1413A,110.33,20.0356,海口市,龙华路环保局宿舍,,23,9,27,6,13,109,72,70,69,4,5,6,6,0.3,0.4
2023-07-18T04:00:00,1414A,106.3787,29.8279,重庆市,缙云山,,44,16,19,5,10,182,140,146,144,5,8,9,8,0.2,0.3
2023-07-18T04:00:00,1416A,106.4213,29.8253,重庆市,天生,,36,36,36,21,19,183,30,29,23,35,28,7,7,0.8,0.9
2023-07-18T04:00:00,1417A,106.6263,29.7228,重庆市,两路,,31,31,30,18,21,160,66,70,69,38,34,10,8,0.8,0.8
2023-07-18T04:00:00,1418A,106.2953,29.5983,重庆市,虎溪,,28,26,35,19,20,198,44,46,44,35,32,5,5,0.4,0.5
2023-07-18T04:00:00,1419A,106.5777,29.5102,重庆市,南坪,,36,36,39,22,22,185,71,103,86,32,20,12,9,0.5,0.5
2023-07-18T04:00:00,1420A,106.6556,29.6277,重庆市,唐家沱,,34,34,39,21,20,199,11,34,19,50,34,5,6,0.6,0.6
2023-07-18T04:00:00,1421A,106.6349,29.4906,重庆市,茶园,颗粒物(PM10),81,112,48,23,16,222,15,19,15,78,50,5,6,1.0,0.9
2023-07-18T04:00:00,1422A,106.3754,29.4572,重庆市,白市驿,,31,31,33,16,26,208,56,79,50,37,28,10,8,0.7,0.6
2023-07-18T04:00:00,1425A,106.6205,29.7166,重庆市,空港,,33,31,33,23,18,181,79,91,88,44,24,11,8,0.7,0.6
2023-07-18T04:00:00,1426A,106.4782,29.4875,重庆市,新山村,,44,31,41,19,17,266,28,157,65,87,41,6,7,0.5,0.6
2023-07-18T04:00:00,1427A,106.5616,29.6453,重庆市,礼嘉,颗粒物(PM10),55,60,39,19,19,192,17,16,10,83,50,8,7,0.8,0.8
2023-07-18T04:00:00,1428A,106.4522,29.7091,重庆市,蔡家,颗粒物(PM10),61,71,49,26,19,168,45,48,46,33,26,8,6,0.7,0.8
2023-07-18T04:00:00,1429A,106.5093,29.3917,重庆市,鱼新街,,46,46,43,25,21,213,14,16,15,70,47,5,7,1.1,1
2023-07-18T04:00:00,1431A,103.9728,30.7236,成都市,金泉两河,,50,50,46,28,24,238,29,24,24,28,18,3,4,0.5,0.5
2023-07-18T04:00:00,1432A,104.176,30.6872,成都市,十里店,,33,30,46,23,26,216,60,77,72,22,21,4,5,0.5,0.6
2023-07-18T04:00:00,1433A,104.079,30.5706,成都市,三瓦窑,颗粒物(PM10),54,58,56,35,28,241,27,52,39,56,45,2,3,0.5,0.6
2023-07-18T04:00:00,1434A,104.1114,30.63,成都市,沙河铺,,41,41,43,22,23,229,71,62,62,14,25,2,4,0.5,0.6
2023-07-18T04:00:00,1437A,104.0786,30.6531,成都市,君平街,,40,40,55,26,33,261,67,82,77,30,25,3,6,0.5,0.5
2023-07-18T04:00:00,1438A,103.613,31.0283,成都市,灵岩寺,臭氧1小时,65,19,33,22,19,201,172,138,138,3,7,2,8,0.8,0.8
2023-07-18T04:00:00,1439A,106.6899,26.5998,贵阳市,马鞍山,,46,19,20,7,9,148,145,134,134,3,8,5,4,0.5,0.5
2023-07-18T04:00:00,1440A,106.6971,26.5694,贵阳市,市环保站,,47,17,22,18,16,152,149,144,144,4,10,4,4,0.2,0.2
2023-07-18T04:00:00,1441A,106.6243,26.6266,贵阳市,鉴湖路,,45,24,28,14,12,149,142,137,137,5,7,4,4,0.4,0.4
2023-07-18T04:00:00,1442A,106.7487,26.6343,贵阳市,燕子冲,,48,17,17,22,18,155,151,144,144,4,8,5,5,0.6,0.5
2023-07-18T04:00:00,1443A,106.6555,26.4365,贵阳市,碧云窝,,44,34,34,9,12,149,140,132,132,4,7,4,5,0.5,0.6
2023-07-18T04:00:00,1444A,106.694,26.5161,贵阳市,中院村,,41,31,33,12,11,139,131,126,126,5,10,5,5,0.3,0.4
2023-07-18T04:00:00,1445A,106.7109,26.6027,贵阳市,红边门,,45,29,28,17,15,151,143,136,136,6,10,4,4,0.4,0.5
2023-07-18T04:00:00,1446A,106.7164,26.5699,贵阳市,新华路,,46,29,26,14,12,154,147,144,144,3,6,4,4,0.5,0.5
2023-07-18T04:00:00,1447A,106.674,26.5424,贵阳市,太慈桥,,45,34,30,9,6,141,141,136,136,3,8,4,4,0.3,0.4
2023-07-18T04:00:00,1450A,102.8204,24.8886,昆明市,呈贡新区,,32,29,26,16,13,140,100,121,116,21,15,9,8,0.7,0.6
2023-07-18T04:00:00,1451A,102.6251,24.9608,昆明市,西山森林公园,,48,21,18,14,10,187,151,155,154,10,10,11,8,0.7,0.6
2023-07-18T04:00:00,1452A,102.7252,25.0902,昆明市,龙泉镇,,34,21,21,12,10,151,108,117,109,13,12,10,9,0.4,0.3
2023-07-18T04:00:00,1453A,102.7266,25.0375,昆明市,东风东路,,38,28,23,25,12,153,120,122,121,14,13,7,5,0.2,0.2
2023-07-18T04:00:00,1454A,102.6742,25.0669,昆明市,金鼎山,,39,21,23,18,15,154,124,126,124,9,11,21,11,0.5,0.4
2023-07-18T04:00:00,1455A,102.6644,25.0401,昆明市,碧鸡广场,,40,30,22,19,11,159,125,132,128,10,12,13,11,0.3,0.3
2023-07-18T04:00:00,1456A,91.1319,29.6514,拉萨市,八廓街,,41,4,17,7,10,158,131,128,128,3,11,5,8,0.1,0.2
2023-07-18T04:00:00,1457A,91.1221,29.6747,拉萨市,市环保局,,36,5,16,8,8,154,113,114,114,9,14,5,8,0.1,0.2
2023-07-18T04:00:00,1458A,91.0874,29.6475,拉萨市,区监测站,,40,6,12,8,8,145,126,124,124,6,16,7,9,0.2,0.3
2023-07-18T04:00:00,1459A,91.1774,29.6541,拉萨市,西藏大学,,40,6,12,7,7,157,127,124,124,3,10,8,12,0.1,0.1
2023-07-18T04:00:00,1460A,90.9798,29.6588,拉萨市,区辐射站,,37,10,22,8,11,142,117,114,114,6,18,9,10,0.1,0.2
2023-07-18T04:00:00,1461A,91.0834,29.6292,拉萨市,拉萨火车站,,38,6,18,5,7,133,121,112,112,3,18,9,10,0.3,0.4
2023-07-18T04:00:00,1462A,108.882,34.2749,西安市,高压开关厂,,45,45,51,21,26,198,80,108,101,32,31,8,10,0.5,0.6
2023-07-18T04:00:00,1463A,108.993,34.2629,西安市,兴庆小区,,40,22,42,16,21,199,128,121,121,5,14,6,7,0.5,0.6
2023-07-18T04:00:00,1464A,109.06,34.2572,西安市,纺织城,,42,24,46,17,23,204,132,130,130,10,22,4,6,0.4,0.5
2023-07-18T04:00:00,1465A,108.9356,34.2173,西安市,小寨,,37,37,47,14,21,205,113,110,110,11,23,6,7,0.4,0.5
2023-07-18T04:00:00,1466A,108.954,34.2713,西安市,市人民体育场,,39,29,46,18,23,198,124,119,119,8,19,6,8,0.4,0.5
2023-07-18T04:00:00,1467A,108.8922,34.2322,西安市,高新西区,,42,27,44,20,23,216,132,127,127,9,22,6,8,0.5,0.6
2023-07-18T04:00:00,1468A,108.935,34.3474,西安市,经开区,,46,46,50,29,25,190,94,111,93,17,18,5,5,0.4,0.4
2023-07-18T04:00:00,1469A,108.906,34.1546,西安市,长安区,,37,37,52,16,21,247,78,98,90,21,25,3,4,0.3,0.3
2023-07-18T04:00:00,1471A,109.2186,34.3731,西安市,临潼区,颗粒物(PM10),60,69,57,27,26,186,80,100,88,23,22,6,8,0.6,0.7
2023-07-18T04:00:00,1472A,108.869,34.378,西安市,草滩,,43,43,50,16,17,196,97,98,98,29,24,12,13,0.7,0.8
2023-07-18T04:00:00,1473A,108.985,34.1978,西安市,曲江文化产业集团,,39,32,47,18,21,218,124,122,122,10,23,5,5,0.4,0.5
2023-07-18T04:00:00,1474A,109.051,34.3213,西安市,广运潭,,50,50,50,26,27,186,81,101,80,28,27,10,10,0.5,0.6
2023-07-18T04:00:00,1476A,103.631,36.1031,兰州市,兰炼宾馆,颗粒物(PM10),54,58,57,28,28,190,49,52,52,40,41,6,19,0.5,0.6
2023-07-18T04:00:00,1477A,104.1373,35.9454,兰州市,榆中兰大校区,,,,,,,,,,,,,,,,
2023-07-18T04:00:00,1478A,103.8412,36.0726,兰州市,生物制品所,,48,48,49,24,23,177,22,87,52,70,41,9,10,1.0,0.8
2023-07-18T04:00:00,1479A,103.831,36.0464,兰州市,铁路设计院,,32,32,46,15,18,173,51,78,68,44,38,9,11,0.6,0.5
2023-07-18T04:00:00,1483A,101.524,36.6867,西宁市,第五水厂,,,,,,,,,,,,,,,,
2023-07-18T04:00:00,1484A,105.9512,38.6016,银川市,贺兰山马莲口,,31,15,19,9,11,224,97,129,110,10,11,5,17,0.5,0.7
2023-07-18T04:00:00,1488A,106.2328,38.4975,银川市,贺兰山东路,,38,26,48,12,21,214,120,120,120,12,27,7,11,0.3,0.5
2023-07-18T04:00:00,1489A,106.1358,38.5036,银川市,学院路,,39,39,47,14,16,202,108,100,100,10,23,8,15,0.4,0.7
2023-07-18T04:00:00,1490A,87.5801,43.8303,乌鲁木齐市,监测站,,28,24,41,0,9,109,89,78,78,17,23,4,6,0.4,0.5
2023-07-18T04:00:00,1491A,87.6046,43.768,乌鲁木齐市,收费所,,26,21,44,5,14,124,82,65,65,14,28,11,9,0.2,0.4
2023-07-18T04:00:00,1492A,87.4754,43.9469,乌鲁木齐市,新疆农科院农场,,35,35,53,18,26,117,42,41,41,47,26,15,14,0.2,0.6
2023-07-18T04:00:00,1493A,87.5525,43.8711,乌鲁木齐市,铁路局,,26,26,42,12,12,118,74,70,70,20,23,4,5,0.5,0.5
2023-07-18T04:00:00,1494A,87.6432,43.831,乌鲁木齐市,三十一中学,,34,34,42,11,10,120,86,77,76,14,24,3,5,0.3,0.4
2023-07-18T04:00:00,1496A,87.7216,44.1747,乌鲁木齐市,米东区环保局,颗粒物(PM10),58,65,40,22,18,102,39,38,28,30,13,5,5,0.3,0.4
2023-07-18T04:00:00,1508A,112.9433,27.8614,湘潭市,板塘,,30,30,43,14,23,138,23,44,34,28,17,8,8,0.7,0.8
2023-07-18T04:00:00,1511A,112.9118,27.8403,湘潭市,市监测站,,39,39,38,23,20,159,33,64,45,22,13,3,4,0.7,0.7
2023-07-18T04:00:00,1512A,112.8937,27.8728,湘潭市,江麓,颗粒物(PM10),57,63,53,32,25,149,36,39,35,21,18,3,3,0.3,0.2
2023-07-18T04:00:00,1513A,112.9227,27.8159,湘潭市,岳塘,,29,29,44,18,24,138,35,56,46,22,15,2,2,0.6,0.8
2023-07-18T04:00:00,1514A,112.9074,27.9119,湘潭市,科大,颗粒物(PM10),53,56,54,35,30,153,39,44,36,18,15,7,7,1.1,1
2023-07-18T04:00:00,1515A,113.135,27.8244,株洲市,天台山庄,,26,26,44,11,19,146,36,46,40,12,9,5,6,0.6,0.6
2023-07-18T04:00:00,1518A,113.095,27.8867,株洲市,株冶医院,,24,24,42,14,21,132,38,45,42,15,13,3,3,0.5,0.4
2023-07-18T04:00:00,1519A,113.167,27.8667,株洲市,市四中,,28,28,42,14,21,132,31,44,36,12,10,6,7,0.7,0.7
2023-07-18T04:00:00,1520A,113.143,27.8381,株洲市,火车站,,26,26,43,10,19,141,40,49,45,9,9,6,7,0.5,0.5
2023-07-18T04:00:00,1524A,113.13,27.8528,株洲市,市监测站,,28,28,46,15,22,147,32,45,38,21,13,8,6,0.6,0.6
2023-07-18T04:00:00,1552A,106.805,26.3003,贵阳市,桐木岭,臭氧1小时,60,34,39,22,19,168,168,160,160,2,8,2,2,0.4,0.4
2023-07-18T04:00:00,1559A,113.251,27.8336,株洲市,大京风景区,,22,22,37,8,8,118,38,38,38,3,4,3,3,0.4,0.4
2023-07-18T04:00:00,1562A,113.0048,27.9153,湘潭市,昭山,,26,24,42,18,22,132,30,44,34,21,15,3,3,0.6,0.6
2023-07-18T04:00:00,1564A,112.4876,27.9164,湘潭市,韶山,,42,42,58,19,24,126,84,91,89,7,8,6,7,0.5,0.5
2023-07-18T04:00:00,1585A,109.8756,40.6532,包头市,市环境监测站,,48,48,46,22,19,216,88,117,100,32,31,11,20,0.6,0.7
2023-07-18T04:00:00,1587A,109.9991,40.5842,包头市,包头八中,颗粒物(PM10),55,59,54,27,19,230,97,127,115,30,27,24,29,0.8,0.7
2023-07-18T04:00:00,1588A,109.8538,40.6821,包头市,青山宾馆,,40,40,40,25,18,209,51,98,78,49,28,9,16,0.7,0.7
2023-07-18T04:00:00,1589A,109.8642,40.6288,包头市,惠龙物流,颗粒物(PM10),54,57,55,21,21,218,109,113,109,25,29,11,24,0.5,0.6
2023-07-18T04:00:00,1590A,110.0377,40.5546,包头市,东河鸿龙湾,颗粒物(PM10),55,59,49,32,16,215,77,104,90,40,25,30,19,0.7,0.5
2023-07-18T04:00:00,1591A,110.0023,39.8129,鄂尔多斯市,综合楼,颗粒物(PM10),59,68,66,22,17,179,115,122,120,18,24,11,12,0.7,0.7
2023-07-18T04:00:00,1592A,109.9486,39.8261,鄂尔多斯市,巴音孟克林场办事处,颗粒物(PM10),53,56,53,27,19,194,130,150,140,15,20,13,12,0.7,0.6
2023-07-18T04:00:00,1593A,109.7736,39.5986,鄂尔多斯市,康泽苑,,36,36,40,12,11,177,115,128,122,14,18,11,9,0.6,0.6
2023-07-18T04:00:00,1594A,109.8119,39.5989,鄂尔多斯市,华泰汽车城,,39,39,41,17,16,169,115,118,117,13,21,11,9,0.6,0.6
2023-07-18T04:00:00,1595A,109.9734,39.7884,鄂尔多斯市,奥林花园,颗粒物(PM10),58,66,63,19,22,176,105,102,102,19,27,12,11,0.8,0.8
2023-07-18T04:00:00,1597A,122.2703,40.7094,营口市,大庆路,细颗粒物(PM2.5),57,54,26,40,12,135,43,66,51,33,19,34,7,1.1,0.7
2023-07-18T04:00:00,1598A,122.2150,40.6511,营口市,镜湖西路,,46,46,23,32,14,131,34,51,44,26,18,8,6,0.7,0.6
2023-07-18T04:00:00,1599A,122.1658,40.6789,营口市,西炮台,细颗粒物(PM2.5),53,46,22,37,13,132,40,90,67,32,16,9,9,0.8,0.5
2023-07-18T04:00:00,1600A,124.3303,40.0625,丹东市,江湾东路,,25,25,22,15,15,112,48,50,50,10,13,3,5,1.0,0.7
2023-07-18T04:00:00,1601A,124.4256,40.1503,丹东市,临江后街,,20,17,19,9,12,116,64,70,63,5,9,5,6,0.6,0.7
2023-07-18T04:00:00,1602A,124.3933,40.1461,丹东市,元宝山,,22,22,30,12,13,96,43,58,50,8,11,6,7,0.5,0.4
2023-07-18T04:00:00,1603A,124.3633,40.1092,丹东市,民主桥,,31,31,21,19,16,108,71,46,46,5,13,5,5,0.8,0.7
2023-07-18T04:00:00,1604A,122.0303,41.1489,盘锦市,开发区,,29,22,22,17,11,160,92,112,104,16,20,5,5,0.9,0.7
2023-07-18T04:00:00,1605A,122.0485,41.0883,盘锦市,兴隆台,,28,27,22,18,11,126,87,91,87,20,26,5,6,0.8,0.6
2023-07-18T04:00:00,1606A,121.8297,41.1028,盘锦市,新生街道,,25,18,16,10,8,141,77,110,99,13,19,6,6,0.6,0.5
2023-07-18T04:00:00,1607A,120.9092,40.7136,葫芦岛市,龙港区,细颗粒物(PM2.5),53,36,27,37,14,172,65,115,88,16,11,3,12,0.4,0.4
2023-07-18T04:00:00,1608A,120.8392,40.7514,葫芦岛市,化工街,颗粒物(PM10),58,66,34,36,18,154,6,59,20,55,23,7,10,1.0,0.6
2023-07-18T04:00:00,1609A,120.8341,40.7073,葫芦岛市,新区,细颗粒物(PM2.5),57,35,33,40,21,158,5,61,26,56,20,5,7,0.8,0.8
2023-07-18T04:00:00,1610A,120.8695,40.7677,葫芦岛市,东城区,细颗粒物(PM2.5),68,74,46,49,25,160,2,39,11,52,27,7,10,1.0,0.4
2023-07-18T04:00:00,1611A,118.5819,24.9117,泉州市,涂山街,,24,24,27,10,8,77,33,63,45,16,11,10,9,0.7,0.7
2023-07-18T04:00:00,1612A,118.5972,24.8978,泉州市,津头埔,,16,10,21,5,11,89,49,75,61,6,11,7,8,0.4,0.5
2023-07-18T04:00:00,1613A,118.6663,24.9424,泉州市,万安,,16,9,27,4,9,99,49,82,62,7,10,8,8,0.5,0.5
2023-07-18T04:00:00,1614A,118.6117,24.9604,泉州市,清源山,,,,,,,,,,,,,,,,
2023-07-18T04:00:00,1616A,117.6795,36.229,济南市,技术学院,,29,29,32,11,16,189,66,106,80,28,19,7,9,0.6,0.7
2023-07-18T04:00:00,1618A,118.3429,35.0532,临沂市,沂河小区,,42,41,38,29,20,153,76,85,82,14,14,5,7,0.3,0.5
2023-07-18T04:00:00,1619A,118.295,35.0583,临沂市,鲁南制药厂,,34,34,29,19,14,182,87,92,89,5,7,3,5,1.0,1
2023-07-18T04:00:00,1620A,118.2794,34.9976,临沂市,新光毛纺厂,,39,36,27,27,14,158,80,84,80,9,12,8,8,0.5,0.5
2023-07-18T04:00:00,1621A,118.3956,35.0888,临沂市,河东保险公司,,42,31,31,29,19,163,53,74,68,18,13,3,6,0.4,0.7
2023-07-18T04:00:00,1622A,116.3032,37.4674,德州市,儿童乐园,颗粒物(PM10),54,58,56,34,25,216,89,123,101,22,22,14,11,0.7,0.5
2023-07-18T04:00:00,1624A,116.2991,37.4451,德州市,监理站,颗粒物(PM10),53,56,47,27,23,208,79,115,94,28,21,14,11,0.6,0.5
2023-07-18T04:00:00,1625A,115.9848,36.4372,聊城市,区政府,,,,,,,,,,,,,,,,
2023-07-18T04:00:00,1628A,118.0062,37.3803,滨州市,市环保局,颗粒物(PM10),52,53,37,27,22,170,38,72,53,49,20,8,10,0.7,0.5
2023-07-18T04:00:00,1629A,118.0018,37.3617,滨州市,第二水厂,颗粒物(PM10),52,53,45,24,20,170,33,64,50,54,21,6,8,0.7,0.6
2023-07-18T04:00:00,1630A,117.9776,37.393,滨州市,北中新校,颗粒物(PM10),51,51,41,23,19,173,36,90,62,44,16,6,9,0.6,0.4
2023-07-18T04:00:00,1631A,118.0414,36.8103,淄博市,人民公园,,39,39,46,19,16,202,66,101,85,39,29,20,14,0.5,0.6
2023-07-18T04:00:00,1633A,117.8525,36.4847,淄博市,双山,,23,17,27,6,12,189,72,86,80,21,17,6,7,0.2,0.3
2023-07-18T04:00:00,1634A,117.9592,36.6331,淄博市,气象站,,31,31,41,12,18,189,72,96,82,22,20,16,10,0.2,0.2
2023-07-18T04:00:00,1635A,118.3092,36.8194,淄博市,莆田园,颗粒物(PM10),62,73,53,24,23,191,35,99,62,56,25,26,17,2.7,1.1
2023-07-18T04:00:00,1637A,117.558,34.8438,枣庄市,市中区政府,,36,36,43,17,18,211,92,97,96,15,18,7,10,0.4,0.5
2023-07-18T04:00:00,1638A,117.2852,34.7837,枣庄市,薛城环保局,,42,42,54,17,16,214,91,106,96,17,22,11,13,0.4,0.5
2023-07-18T04:00:00,1639A,117.5852,34.7745,枣庄市,峄城区政府,,41,41,43,17,14,192,90,109,94,12,15,8,10,0.5,0.6
2023-07-18T04:00:00,1640A,117.7276,34.5578,枣庄市,台儿庄区环保局,,35,29,32,24,16,168,75,87,80,15,16,8,9,0.4,0.5
2023-07-18T04:00:00,1641A,117.4518,35.0992,枣庄市,山亭区环保局,臭氧1小时,84,48,37,32,19,207,187,150,150,10,13,6,8,0.6,0.3
2023-07-18T04:00:00,1642A,121.2514,37.5639,烟台市,开发区,,31,31,31,14,11,119,45,76,66,21,22,6,6,0.6,0.6
2023-07-18T04:00:00,1643A,121.3719,37.5433,烟台市,轴承厂,,20,17,20,8,10,125,63,91,79,8,10,3,3,0.2,0.2
2023-07-18T04:00:00,1644A,121.3181,37.5436,烟台市,西郊化工站,,22,17,24,14,11,125,68,91,76,17,16,4,4,0.3,0.3
2023-07-18T04:00:00,1645A,121.4478,37.4822,烟台市,莱山环保局,,26,9,13,9,6,133,83,90,85,5,8,7,5,0.3,0.3
2023-07-18T04:00:00,1646A,121.2611,37.4967,烟台市,福山环保局,,29,29,46,12,6,125,28,34,31,40,27,7,7,0.4,0.6
2023-07-18T04:00:00,1650A,119.1437,36.7023,潍坊市,环保局,,24,24,27,11,13,176,62,92,74,24,16,9,10,0.4,0.5
2023-07-18T04:00:00,1653A,116.6251,35.4302,济宁市,火炬城,,40,40,43,17,20,196,55,83,75,24,13,7,8,0.5,0.6
2023-07-18T04:00:00,1655A,116.5491,35.4042,济宁市,电化厂,,46,46,44,24,22,201,76,97,87,19,11,11,7,0.6,0.5
2023-07-18T04:00:00,1656A,117.1437,36.1937,泰安市,监测站,,29,27,40,13,21,205,90,98,93,8,12,8,9,0.2,0.4
2023-07-18T04:00:00,1657A,117.0885,36.2017,泰安市,人口学校,,34,14,31,11,15,197,108,119,110,4,10,6,9,0.2,0.5
2023-07-18T04:00:00,1658A,117.1089,36.1758,泰安市,电力学校,,30,22,38,17,18,211,95,104,97,7,10,8,8,0.2,0.2
2023-07-18T04:00:00,1659A,119.471,35.4209,日照市,监测站,,31,31,19,18,11,125,63,95,74,31,98,6,5,0.6,0.6
2023-07-18T04:00:00,1660A,119.523,35.4216,日照市,市政府广场,,26,22,20,12,9,132,83,103,92,6,9,7,7,0.2,0.3
2023-07-18T04:00:00,1661A,119.5587,35.4044,日照市,港务局,,31,31,21,11,6,148,87,115,99,10,9,7,7,0.5,0.5
2023-07-18T04:00:00,1662A,122.1214,37.4236,威海市,华夏技校,,26,12,17,15,12,136,83,78,78,7,19,5,6,0.4,0.3
2023-07-18T04:00:00,1663A,122.0508,37.5236,威海市,山大分校,,19,12,17,10,9,138,58,70,60,10,11,4,4,0.3,0.3
2023-07-18T04:00:00,1664A,122.1067,37.5072,威海市,市监测站,,18,17,18,12,11,131,48,50,49,15,20,7,8,0.5,0.5
2023-07-18T04:00:00,1666A,118.6614,37.4309,东营市,市环保局,,24,24,27,12,16,166,75,94,78,14,10,8,10,0.2,0.2
2023-07-18T04:00:00,1669A,113.5824,24.7733,韶关市,市八中,,19,19,18,8,8,68,30,38,35,9,6,13,9,0.5,0.5
2023-07-18T04:00:00,1671A,113.5917,24.7972,韶关市,园林处,,16,16,14,11,7,84,40,46,43,2,3,16,10,0.6,0.6
2023-07-18T04:00:00,1672A,113.6735,24.7791,韶关市,韶关学院,,13,13,16,7,8,65,22,26,24,9,9,7,6,0.4,0.4
2023-07-18T04:00:00,1673A,113.5971,24.6863,韶关市,曲江监测站,,24,24,18,7,9,64,22,33,30,9,6,8,8,0.8,0.6
2023-07-18T04:00:00,1674A,116.6794,23.3667,汕头市,金平子站,,29,21,17,20,18,69,42,49,46,8,7,4,4,0.6,0.6
2023-07-18T04:00:00,1675A,116.7244,23.3633,汕头市,龙湖子站,,28,28,19,6,8,78,49,58,55,8,7,3,4,0.6,0.6
2023-07-18T04:00:00,1676A,116.7258,23.2775,汕头市,濠江子站,,25,25,20,5,5,65,44,53,48,6,8,8,8,0.5,0.5
2023-07-18T04:00:00,1677A,116.7519,23.4714,汕头市,澄海子站,,25,22,18,17,20,76,47,53,52,10,10,3,4,0.6,0.6
2023-07-18T04:00:00,1678A,116.6092,23.2539,汕头市,潮阳子站,,28,26,25,19,21,65,49,60,54,4,7,9,9,0.4,0.5
2023-07-18T04:00:00,1680A,110.3539,21.2706,湛江市,湛江影剧院,,23,6,18,6,11,72,72,69,69,2,4,5,6,0.3,0.3
2023-07-18T04:00:00,1681A,110.3928,21.2228,湛江市,市环境监测站,,21,9,19,7,9,69,67,65,65,4,6,6,7,0.5,0.5
2023-07-18T04:00:00,1682A,110.4019,21.1997,湛江市,环保局宿舍,,22,8,19,5,8,69,69,68,68,3,4,2,3,0.6,0.6
2023-07-18T04:00:00,1683A,110.4111,21.2028,湛江市,霞山游泳场,,20,19,20,9,9,70,61,65,64,13,8,5,6,0.6,0.5
2023-07-18T04:00:00,1684A,110.3316,21.2679,湛江市,麻章区环保局,,22,8,20,8,10,71,68,67,67,4,6,4,5,0.6,0.6
2023-07-18T04:00:00,1685A,110.4558,21.2567,湛江市,坡头区环保局,,22,10,19,7,11,69,69,68,68,4,5,5,7,0.5,0.5
2023-07-18T04:00:00,1686A,111.0286,21.4688,茂名市,电白南海,,,,,,,,,,,,,,,,
2023-07-18T04:00:00,1687A,110.9294,21.6533,茂名市,茂石化七小,,28,9,14,12,9,90,87,86,86,2,4,5,6,0.6,0.5
2023-07-18T04:00:00,1688A,110.9107,21.6687,茂名市,健康路,,27,7,29,2,5,87,86,84,84,1,3,4,5,0.6,0.6
2023-07-18T04:00:00,1689A,110.8592,21.6828,茂名市,高岭,,28,7,12,12,14,91,88,88,87,1,4,5,8,0.7,0.7
2023-07-18T04:00:00,1690A,116.1231,24.3284,梅州市,梅江月梅,,13,6,11,4,5,53,39,42,41,4,5,2,2,0.5,0.5
2023-07-18T04:00:00,1691A,116.0797,24.2719,梅州市,梅县新城,,12,9,12,3,5,60,36,42,40,8,7,4,4,0.5,0.5
2023-07-18T04:00:00,1692A,116.1248,24.2654,梅州市,环境监控中心,,15,15,14,5,6,57,35,35,35,7,7,3,2,0.5,0.5
2023-07-18T04:00:00,1693A,115.3653,22.775,汕尾市,市环保局,,28,28,31,8,8,66,52,52,50,1,3,7,7,0.5,0.5
2023-07-18T04:00:00,1694A,115.3706,22.7898,汕尾市,市政府,,24,24,26,10,13,71,53,57,54,1,3,4,4,0.5,0.6
2023-07-18T04:00:00,1695A,115.3622,22.7925,汕尾市,新城中学,,18,18,28,12,9,63,49,50,48,2,2,6,6,0.4,0.5
2023-07-18T04:00:00,1696A,114.6778,23.7569,河源市,源西,细颗粒物(PM2.5),65,9,9,47,12,57,33,37,35,5,5,4,4,0.6,0.6
2023-07-18T04:00:00,1697A,114.6944,23.7586,河源市,东埔,颗粒物(PM10),65,80,25,3,4,55,31,35,32,6,6,5,5,0.6,0.6
2023-07-18T04:00:00,1698A,114.6892,23.7233,河源市,老城,,16,16,15,9,6,52,30,34,32,6,5,4,4,0.5,0.5
2023-07-18T04:00:00,1699A,111.9797,21.8593,阳江市,鸳鸯湖,,26,18,10,7,5,83,83,76,76,2,5,5,5,0.6,0.5
2023-07-18T04:00:00,1701A,111.9491,21.8658,阳江市,马南垌,,25,15,10,11,4,80,80,76,76,2,3,4,4,0.3,0.3
2023-07-18T04:00:00,1702A,113.0426,23.691,清远市,环保大楼,,10,9,8,6,8,56,32,42,39,3,3,6,6,0.3,0.4
2023-07-18T04:00:00,1703A,113.0208,23.7106,清远市,凤城街办,,13,8,8,4,5,58,40,42,41,2,3,5,6,0.5,0.5
2023-07-18T04:00:00,1705A,116.6367,23.6719,潮州市,西园路,,15,15,16,9,10,66,46,47,46,5,6,4,5,0.2,0.2
2023-07-18T04:00:00,1706A,116.6447,23.6706,潮州市,档案局,,16,13,15,8,8,63,50,48,48,4,5,4,4,0.4,0.4
2023-07-18T04:00:00,1708A,116.3701,23.5345,揭阳市,新兴,,24,24,25,8,8,64,37,38,38,5,6,6,6,0.5,0.5
2023-07-18T04:00:00,1709A,116.3264,23.5443,揭阳市,西马,,14,14,17,6,8,66,34,39,38,6,4,6,6,0.6,0.7
2023-07-18T04:00:00,1710A,116.3611,23.5626,揭阳市,东兴,,25,25,28,7,7,64,37,40,39,8,7,8,3,0.6,0.7
2023-07-18T04:00:00,1711A,116.4151,23.5294,揭阳市,渔湖,,20,20,24,4,8,60,37,39,38,2,3,2,3,0.4,0.5
2023-07-18T04:00:00,1712A,112.0392,22.9169,云浮市,新市府,,18,9,11,5,9,55,55,51,51,3,8,4,4,0.7,0.7
2023-07-18T04:00:00,1714A,112.0539,22.9539,云浮市,牧羊,,19,3,11,6,5,63,60,58,58,6,7,8,8,0.6,0.5
2023-07-18T04:00:00,1715A,102.575,24.3711,玉溪市,东风水库,,37,20,26,14,14,175,117,137,124,10,9,5,5,0.5,0.6
2023-07-18T04:00:00,1718A,115.4208,35.2464,菏泽市,气象局,,30,30,50,14,21,210,92,119,104,10,18,5,6,0.5,0.5
2023-07-18T04:00:00,1719A,115.4747,35.2375,菏泽市,市政协,,29,28,46,19,24,212,91,120,105,10,20,5,6,0.3,0.3
2023-07-18T04:00:00,1721A,113.3819,40.1097,大同市,果树场,,41,41,40,28,24,188,84,100,92,24,24,4,5,0.5,0.5
2023-07-18T04:00:00,1723A,113.2994,40.0758,大同市,云冈宾馆,颗粒物(PM10),66,82,59,26,18,209,157,162,161,17,22,19,12,0.6,0.6
2023-07-18T04:00:00,1724A,113.3444,40.0917,大同市,大同大学,颗粒物(PM10),52,53,40,28,18,191,118,158,146,25,17,10,13,0.7,0.5
2023-07-18T04:00:00,1725A,113.2661,40.1269,大同市,安家小村,颗粒物(PM10),52,54,55,21,18,204,143,137,135,12,17,12,12,0.4,0.7
2023-07-18T04:00:00,1726A,113.2711,40.0844,大同市,教育学院,,46,44,53,32,20,197,146,147,146,18,24,18,12,0.7,0.7
2023-07-18T04:00:00,1727A,113.1147,36.1547,长治市,清华站,颗粒物(PM10),62,74,48,22,18,232,87,120,95,28,18,10,11,1.0,1.1
2023-07-18T04:00:00,1728A,113.1031,36.1989,长治市,监测站,颗粒物(PM10),57,63,44,27,20,230,86,113,99,38,23,27,17,2.4,1.8
2023-07-18T04:00:00,1730A,113.0886,36.2125,长治市,审计局,颗粒物(PM10),53,56,38,29,23,220,81,114,96,31,18,18,16,2.0,1.6
2023-07-18T04:00:00,1731A,113.0844,36.1856,长治市,长治八中,颗粒物(PM10),61,71,51,26,21,228,80,131,106,26,15,14,12,1.3,1
2023-07-18T04:00:00,1733A,111.5531,36.0783,临汾市,临钢医院,,36,29,47,22,36,197,115,118,114,11,18,7,8,0.9,0.9
2023-07-18T04:00:00,1734A,111.5028,36.0714,临汾市,技工学校,颗粒物(PM10),55,59,58,24,26,213,112,146,121,20,18,4,6,0.8,0.8
2023-07-18T04:00:00,1736A,111.5018,36.0855,临汾市,市委,颗粒物(PM10),53,55,57,31,31,198,106,129,109,21,21,6,7,0.9,1
2023-07-18T04:00:00,1738A,113.5758,37.8572,阳泉市,市中心,颗粒物(PM10),59,67,41,25,18,193,17,31,26,80,39,10,14,0.8,0.8
2023-07-18T04:00:00,1739A,113.4894,37.8731,阳泉市,赛鱼,,44,44,45,21,18,179,14,15,12,69,43,8,11,0.7,0.7
2023-07-18T04:00:00,1740A,113.5819,37.8486,阳泉市,南庄,颗粒物(PM10),55,60,57,27,22,193,34,114,60,65,30,12,15,0.8,0.8
2023-07-18T04:00:00,1742A,113.5614,37.8703,阳泉市,平坦,,49,47,43,33,25,193,17,16,16,98,46,11,14,0.6,0.7
2023-07-18T04:00:00,1743A,113.5158,37.8392,阳泉市,大阳泉,颗粒物(PM10),64,78,47,0,22,188,121,160,136,25,16,34,20,0.7,0.6
2023-07-18T04:00:00,1744A,118.9233,42.2816,赤峰市,松山一中,,44,44,42,27,26,136,22,58,38,40,34,14,22,0.5,0.5
2023-07-18T04:00:00,1745A,118.9576,42.2728,赤峰市,哈达街,,48,38,46,33,29,137,75,63,63,19,30,15,35,0.4,0.5
2023-07-18T04:00:00,1746A,118.8788,42.2554,赤峰市,天义路,,25,25,34,14,19,170,53,71,66,19,24,16,22,0.2,0.3
2023-07-18T04:00:00,1748A,123.044,41.1196,鞍山市,深沟寺,,35,35,45,19,30,124,51,43,43,9,19,6,10,0.7,1.4
2023-07-18T04:00:00,1749A,123.011,41.0931,鞍山市,太阳城,,36,36,42,22,24,126,43,53,50,20,19,6,8,1.0,1.2
2023-07-18T04:00:00,1750A,123.0485,41.1442,鞍山市,太平,,37,37,62,21,34,143,66,62,62,9,28,5,13,0.7,1.7
2023-07-18T04:00:00,1751A,122.9642,41.0971,鞍山市,铁西三道街,,44,44,52,24,28,141,33,60,50,29,27,4,8,1.1,1.5
2023-07-18T04:00:00,1752A,122.9341,41.0833,鞍山市,铁西工业园区,颗粒物(PM10),54,58,52,26,29,129,9,30,25,53,32,5,7,1.1,1.4
2023-07-18T04:00:00,1753A,123.022,41.0821,鞍山市,明达新区,,46,46,41,30,26,151,42,34,34,24,25,4,6,3.2,1.1
2023-07-18T04:00:00,1754A,123.1289,41.0228,鞍山市,千山,,,,,,,,,,,,,,,,
2023-07-18T04:00:00,1755A,123.7977,41.8491,抚顺市,望花区,颗粒物(PM10),51,51,37,23,21,128,6,8,6,33,28,5,9,0.5,0.7
2023-07-18T04:00:00,1756A,123.9161,41.8822,抚顺市,顺城区,,32,32,36,15,21,110,7,5,5,20,26,2,4,0.5,0.7
2023-07-18T04:00:00,1757A,124.0436,41.8611,抚顺市,东洲区,,33,33,27,14,18,118,30,38,32,9,15,3,4,0.3,0.5
2023-07-18T04:00:00,1758A,123.9247,41.8642,抚顺市,新抚区,,36,36,37,17,25,118,3,3,3,17,22,5,7,0.5,0.7
2023-07-18T04:00:00,1759A,124.0972,41.8961,抚顺市,大伙房水库,,24,24,29,13,17,111,17,18,16,12,12,4,5,0.4,0.7
2023-07-18T04:00:00,1760A,123.7086,41.8391,抚顺市,沈抚新城,颗粒物(PM10),53,55,37,28,18,124,1,13,4,35,23,9,10,0.7,0.6
2023-07-18T04:00:00,1761A,123.8275,41.3064,本溪市,大峪,颗粒物(PM10),57,63,46,22,19,139,16,32,23,24,20,4,7,0.8,0.9
2023-07-18T04:00:00,1762A,123.7567,41.3325,本溪市,溪湖,颗粒物(PM10),63,75,39,42,21,142,6,12,8,32,19,5,6,1.7,1.1
2023-07-18T04:00:00,1763A,123.7169,41.3094,本溪市,彩屯,"颗粒物(PM10),细颗粒物(PM2.5)",62,74,39,44,23,137,6,10,7,31,24,6,6,2.0,1.2
2023-07-18T04:00:00,1764A,123.7669,41.2864,本溪市,东明,,46,46,43,26,22,143,22,43,30,35,28,8,9,1.2,1.3
2023-07-18T04:00:00,1765A,123.7992,41.2664,本溪市,新立屯,,37,37,39,20,16,104,22,22,18,34,30,7,12,1.3,1.4
2023-07-18T04:00:00,1766A,123.8142,41.3472,本溪市,威宁,颗粒物(PM10),52,53,51,32,24,120,14,16,15,26,22,6,7,0.8,0.8
2023-07-18T04:00:00,1767A,121.1115,41.0879,锦州市,南山,,46,21,29,32,17,134,47,82,71,15,15,4,8,0.6,0.6
2023-07-18T04:00:00,1768A,121.0533,40.8434,锦州市,开发区,细颗粒物(PM2.5),62,62,38,44,15,152,14,112,81,58,15,13,13,0.9,0.7
2023-07-18T04:00:00,1769A,121.1836,41.1119,锦州市,百股街道,颗粒物(PM10),51,51,36,34,19,164,17,55,25,38,25,8,8,0.9,0.7
2023-07-18T04:00:00,1770A,121.1178,41.1222,锦州市,天安街道,颗粒物(PM10),56,62,39,26,16,147,34,90,52,34,23,5,10,1.5,1
2023-07-18T04:00:00,1771A,121.1303,41.1386,锦州市,北湖公园,颗粒物(PM10),52,54,37,22,12,138,62,58,58,16,18,2,6,1.0,0.8
2023-07-18T04:00:00,1772A,126.54,43.8622,吉林市,哈达湾,,18,18,11,11,7,66,15,26,18,17,12,5,6,0.5,0.5
2023-07-18T04:00:00,1773A,126.5844,43.8358,吉林市,东局子,,16,16,13,9,9,68,11,15,14,16,16,5,5,0.6,0.6
2023-07-18T04:00:00,1774A,126.5052,43.8245,吉林市,电力学院,,17,17,14,8,6,72,10,14,11,19,13,6,6,0.6,0.6
2023-07-18T04:00:00,1775A,126.6133,43.8972,吉林市,江北,,27,27,21,9,8,65,11,9,9,9,17,6,6,0.7,0.6
2023-07-18T04:00:00,1776A,126.555,43.8306,吉林市,江南公园,,19,19,13,11,11,66,11,9,9,17,18,4,4,0.7,0.7
2023-07-18T04:00:00,1778A,126.7061,43.7133,吉林市,丰满,,13,13,11,7,8,63,16,22,20,1,2,6,6,0.6,0.6
2023-07-18T04:00:00,1779A,123.9305,47.3636,齐齐哈尔市,安居小区,,29,29,24,9,14,79,11,20,12,26,15,5,5,0.4,0.4
2023-07-18T04:00:00,1780A,123.9488,47.3386,齐齐哈尔市,中心广场,,40,40,19,12,5,80,11,10,8,33,18,5,6,0.3,0.3
2023-07-18T04:00:00,1781A,123.9483,47.3227,齐齐哈尔市,农牧车辆厂,,48,48,34,17,7,83,8,5,5,36,16,7,6,0.7,0.3
2023-07-18T04:00:00,1783A,123.945,47.2988,齐齐哈尔市,市环境监测站,细颗粒物(PM2.5),75,52,21,55,15,84,6,9,5,32,16,8,7,0.3,0.2
2023-07-18T04:00:00,1784A,129.61,44.561,牡丹江市,环保大楼,,17,17,10,9,7,68,47,38,38,5,9,4,5,0.3,0.4
2023-07-18T04:00:00,1785A,129.6115,44.5782,牡丹江市,文化广场,,14,6,9,8,11,66,43,34,34,5,11,5,5,0.4,0.5
2023-07-18T04:00:00,1786A,129.5904,44.5963,牡丹江市,第一医院,,13,8,11,9,9,64,32,27,27,7,8,4,4,0.3,0.4
2023-07-18T04:00:00,1787A,129.6364,44.6075,牡丹江市,机车工厂,,11,11,13,3,6,68,26,24,24,8,8,2,3,0.4,0.4
2023-07-18T04:00:00,1788A,129.6386,44.5462,牡丹江市,第一中学,,14,11,15,4,5,69,44,35,35,6,8,4,4,0.3,0.3
2023-07-18T04:00:00,1789A,124.81117,46.03138,大庆市,大同区,,20,20,12,8,7,65,15,31,25,13,10,7,7,0.2,0.2
2023-07-18T04:00:00,1790A,125.129,46.533,大庆市,龙凤区,,28,27,14,19,9,57,4,20,9,32,13,8,5,0.6,0.3
2023-07-18T04:00:00,1791A,124.902,46.408,大庆市,红岗区,,26,9,11,18,12,69,15,25,20,21,9,3,2,0.4,0.3
2023-07-18T04:00:00,1792A,125.153,46.586,大庆市,萨尔图区,,34,34,14,17,7,54,11,21,15,23,13,4,3,0.1,0.2
2023-07-18T04:00:00,1793A,124.9042,46.6215,大庆市,让胡路区,,19,15,11,13,7,64,11,12,12,17,12,4,3,0.3,0.3
2023-07-18T04:00:00,1794A,118.3606,31.3519,芜湖市,监测站,,31,31,21,15,10,89,4,17,10,35,27,5,5,0.7,0.8
2023-07-18T04:00:00,1795A,118.3714,31.4134,芜湖市,科创中心,,34,34,21,18,11,87,9,18,11,26,25,6,8,0.8,0.9
2023-07-18T04:00:00,1796A,118.3673,31.3131,芜湖市,四水厂,,32,32,23,12,11,94,1,18,10,38,26,4,4,0.8,0.9
2023-07-18T04:00:00,1798A,118.5092,31.6837,马鞍山市,湖东路四小,,20,19,15,14,9,74,15,15,14,13,16,6,6,0.7,0.8
2023-07-18T04:00:00,1799A,118.5024,31.6449,马鞍山市,开发区,,26,26,17,12,8,81,16,20,17,12,16,8,8,0.7,0.8
2023-07-18T04:00:00,1800A,118.5228,31.7231,马鞍山市,慈湖,,28,28,21,10,9,72,19,18,18,13,20,11,11,0.8,0.9
2023-07-18T04:00:00,1802A,118.6245,31.7241,马鞍山市,濮塘,,20,11,6,14,10,76,26,23,23,10,11,4,4,0.5,0.5
2023-07-18T04:00:00,1803A,115.9872,29.6815,九江市,十里,,15,6,17,3,12,92,48,54,50,12,12,12,10,0.5,0.6
2023-07-18T04:00:00,1804A,115.9584,29.7046,九江市,茅山头,,17,6,16,8,10,85,54,54,54,13,16,10,9,0.7,0.8
2023-07-18T04:00:00,1805A,115.9877,29.7295,九江市,西园,,19,10,21,3,8,92,58,56,56,12,17,10,9,0.4,0.6
2023-07-18T04:00:00,1806A,116.0172,29.6547,九江市,五七二七厂,,15,12,19,10,13,83,44,44,44,7,7,10,8,0.5,0.6
2023-07-18T04:00:00,1808A,115.9114,29.6038,九江市,综合工业园,,22,13,20,15,10,90,53,50,50,9,19,12,10,0.6,0.7
2023-07-18T04:00:00,1809A,116.0721,29.7535,九江市,石化总厂,,15,12,21,4,11,81,45,47,45,15,15,9,8,0.5,0.7
2023-07-18T04:00:00,1810A,115.9773,29.5698,九江市,庐山气象台,,18,7,6,2,5,94,57,56,56,2,3,8,7,0.6,0.6
2023-07-18T04:00:00,1812A,112.3931,34.6516,洛阳市,市委党校,颗粒物(PM10),54,57,48,36,28,205,11,133,94,72,21,6,5,0.8,0.7
2023-07-18T04:00:00,1814A,112.4657,34.6871,洛阳市,豫西宾馆,颗粒物(PM10),55,59,48,31,25,210,52,121,76,42,16,3,4,0.6,0.5
2023-07-18T04:00:00,1815A,112.494,34.6886,洛阳市,河南林校,颗粒物(PM10),52,54,45,26,24,210,46,83,51,42,23,5,5,0.6,0.5
2023-07-18T04:00:00,1816A,112.3844,34.623,洛阳市,开发区管委会,,47,47,45,26,23,206,69,85,77,18,11,1,3,0.5,0.2
2023-07-18T04:00:00,1817A,112.4267,34.6258,洛阳市,市委新办公区,颗粒物(PM10),51,51,46,31,29,199,96,131,114,18,15,3,3,0.4,0.3
2023-07-18T04:00:00,1818A,114.4839,36.0621,安阳市,棉研所,颗粒物(PM10),67,83,50,38,21,218,68,106,92,29,26,8,9,0.6,0.6
2023-07-18T04:00:00,1819A,114.3551,36.1017,安阳市,红庙街,颗粒物(PM10),61,72,57,30,23,208,89,124,105,22,11,17,10,0.6,0.6
2023-07-18T04:00:00,1820A,114.361,36.0681,安阳市,银杏小区,颗粒物(PM10),64,77,51,44,33,216,65,105,86,40,14,20,10,0.5,0.5
2023-07-18T04:00:00,1824A,114.3389,34.7781,开封市,肿瘤医院,颗粒物(PM10),56,62,59,24,21,194,89,103,98,12,20,8,9,0.6,0.6
2023-07-18T04:00:00,1826A,114.2885,34.7965,开封市,世纪星幼儿园,,,44,45,,,209,107,122,115,12,19,5,5,0.7,0.6
2023-07-18T04:00:00,1828A,113.227,35.2125,焦作市,市环保局,,42,38,35,26,18,215,133,130,130,8,11,3,4,0.4,0.4
2023-07-18T04:00:00,1830A,113.1992,35.2590,焦作市,影视城,,44,26,23,21,13,218,138,148,143,5,5,3,4,0.5,0.5
2023-07-18T04:00:00,1832A,113.3257,33.742,平顶山市,新华旅馆,颗粒物(PM10),70,90,49,31,22,192,111,131,122,27,20,6,4,0.8,0.6
2023-07-18T04:00:00,1833A,113.2919,33.737,平顶山市,规划设计院,颗粒物(PM10),60,70,44,30,21,190,117,140,132,21,14,9,7,0.7,0.6
2023-07-18T04:00:00,1834A,113.182,33.774,平顶山市,平顶山工学院,颗粒物(PM10),57,64,46,22,18,195,111,142,129,24,15,6,7,0.6,0.5
2023-07-18T04:00:00,1835A,111.1922,34.7752,三门峡市,市政府,,45,45,46,24,24,201,81,106,88,28,18,4,4,0.5,0.6
2023-07-18T04:00:00,1836A,111.1587,34.7942,三门峡市,开发区,颗粒物(PM10),58,65,57,27,25,202,63,109,84,30,18,5,7,0.3,0.4
2023-07-18T04:00:00,1838A,111.143,34.7955,三门峡市,风景区,细颗粒物(PM2.5),53,54,46,37,29,203,74,110,92,17,15,6,7,0.4,0.4
2023-07-18T04:00:00,1840A,111.2992,30.6981,宜昌市,白龙岗,,31,31,38,12,16,164,63,82,75,21,21,5,5,0.3,0.4
2023-07-18T04:00:00,1841A,111.3549,30.6465,宜昌市,伍家岗,,,,,,,,,,,,,,,,
2023-07-18T04:00:00,1842A,111.2628,30.6961,宜昌市,点军区,,28,27,35,19,14,176,72,78,72,11,15,5,5,0.4,0.4
2023-07-18T04:00:00,1843A,111.3275,30.7819,宜昌市,夷陵区,,28,24,29,17,13,168,88,95,92,11,15,2,2,0.5,0.5
2023-07-18T04:00:00,1844A,112.2494,30.3197,荆州市,市图书馆,,50,50,43,34,26,169,87,116,104,20,11,9,8,0.7,0.7
2023-07-18T04:00:00,1845A,112.2008,30.3544,荆州市,市委党校,颗粒物(PM10),52,54,49,30,30,167,72,119,92,13,11,9,8,0.8,0.8
2023-07-18T04:00:00,1847A,113.1094,29.3578,岳阳市,南湖风景区,,44,44,47,28,28,159,74,74,73,12,12,10,11,1.0,1
2023-07-18T04:00:00,1848A,113.1493,29.4251,岳阳市,城陵矶,颗粒物(PM10),52,53,51,28,26,159,67,68,66,22,18,7,10,1.0,1
2023-07-18T04:00:00,1849A,113.1497,29.3575,岳阳市,开发区,,41,41,44,20,22,150,72,75,71,11,12,8,9,0.8,0.8
2023-07-18T04:00:00,1850A,113.2621,29.4758,岳阳市,云溪区,,38,38,45,24,24,128,61,67,62,6,5,15,8,0.7,0.7
2023-07-18T04:00:00,1851A,112.9943,29.4402,岳阳市,君山区,,45,38,47,31,28,172,69,90,81,8,11,6,7,0.8,0.8
2023-07-18T04:00:00,1852A,113.2117,29.355,岳阳市,金凤水库,,32,31,44,22,22,143,70,68,68,4,5,5,5,0.5,0.6
2023-07-18T04:00:00,1854A,111.6975,28.9703,常德市,市二中,细颗粒物(PM2.5),55,52,39,39,26,175,104,115,112,4,5,8,8,0.5,0.5
2023-07-18T04:00:00,1857A,111.7158,29.1456,常德市,白鹤山,,33,33,27,7,9,182,97,125,111,7,8,7,7,0.5,0.4
2023-07-18T04:00:00,1858A,110.5319,29.1217,张家界市,永定新区,,38,36,36,26,21,173,92,92,89,6,11,4,5,0.3,0.3
2023-07-18T04:00:00,1859A,110.4697,29.1242,张家界市,电业局,,44,44,39,29,22,164,113,123,116,9,16,8,7,0.4,0.3
2023-07-18T04:00:00,1860A,110.5594,29.3547,张家界市,未央路,,35,33,35,24,21,158,53,55,54,8,11,3,3,0.3,0.3
2023-07-18T04:00:00,1861A,110.4417,29.315,张家界市,袁家界,,50,43,31,35,20,165,123,144,134,3,3,6,7,0.7,0.6
2023-07-18T04:00:00,1862A,110.4144,25.3167,桂林市,电子科大尧山校区,,28,25,48,17,24,135,88,116,106,6,6,3,4,0.7,0.7
2023-07-18T04:00:00,1863A,110.2819,25.2697,桂林市,监测站,,30,27,52,20,24,121,93,102,98,6,9,6,7,0.7,0.7
2023-07-18T04:00:00,1864A,110.3089,25.2708,桂林市,龙隐路小学,,30,25,47,19,26,121,96,99,98,5,7,6,7,0.6,0.6
2023-07-18T04:00:00,1865A,110.2869,25.2178,桂林市,八中,,31,22,45,15,26,123,99,102,101,6,10,4,6,0.6,0.6
2023-07-18T04:00:00,1866A,109.2262,21.588,北海市,牛尾岭水库,,16,0,29,0,19,101,49,59,55,5,8,3,4,0.5,0.5
2023-07-18T04:00:00,1867A,109.1436,21.4086,北海市,海滩公园,,,11,49,2,23,128,64,72,69,,8,3,4,0,0.4
2023-07-18T04:00:00,1868A,109.0981,21.4661,北海市,新市环保局,,23,23,48,7,27,132,64,68,67,4,5,3,4,0.6,0.6
2023-07-18T04:00:00,1869A,109.1778,21.5233,北海市,北海工业园,,,8,47,7,28,125,60,70,66,3,6,,6,0.5,0.6
2023-07-18T04:00:00,1870A,109.4856,24.3895,柳州市,柳东小学,,26,24,51,18,30,108,60,76,70,6,6,5,6,0.4,0.4
2023-07-18T04:00:00,1871A,109.4157,24.3277,柳州市,环保监测站,,30,28,53,21,28,104,79,78,78,7,8,8,7,0.4,0.4
2023-07-18T04:00:00,1872A,109.389,24.341,柳州市,河西水厂,细颗粒物(PM2.5),55,48,64,39,30,106,19,68,42,70,28,25,24,3.6,1.3
2023-07-18T04:00:00,1873A,109.4311,24.2921,柳州市,市四中,,26,19,45,18,20,110,72,77,74,7,8,6,8,0.8,0.8
2023-07-18T04:00:00,1874A,109.4006,24.3631,柳州市,市九中,,37,37,65,21,28,106,68,76,72,15,13,13,20,0.6,0.5
2023-07-18T04:00:00,1875A,109.4958,24.3134,柳州市,古亭山,,28,23,46,19,24,111,65,73,70,8,8,4,5,0.6,0.6
2023-07-18T04:00:00,1876A,109.5078,18.2489,三亚市,河东子站,,29,29,26,16,13,101,90,95,94,2,10,2,2,0.5,0.5
2023-07-18T04:00:00,1877A,109.4964,18.2681,三亚市,河西子站,,26,26,24,13,12,102,59,82,74,6,7,1,1,0.6,0.5
2023-07-18T04:00:00,1878A,104.7778,31.4741,绵阳市,富乐山,,25,25,35,12,21,193,77,110,90,6,9,3,4,0.7,0.7
2023-07-18T04:00:00,1879A,104.7563,31.4535,绵阳市,市人大,,32,22,39,10,21,189,101,126,108,8,18,9,10,0.5,0.6
2023-07-18T04:00:00,1880A,104.6697,31.4668,绵阳市,高新区自来水公司,,33,29,39,17,26,196,104,144,121,12,15,6,7,0.5,0.5
2023-07-18T04:00:00,1881A,104.7287,31.5075,绵阳市,三水厂,,34,21,48,14,25,196,107,122,116,7,18,5,6,0.7,0.7
2023-07-18T04:00:00,1882A,104.563,28.793,宜宾市,石马中学,颗粒物(PM10),54,58,42,29,22,269,30,56,38,28,21,6,7,0.6,0.5
2023-07-18T04:00:00,1883A,104.6201,28.7728,宜宾市,市委,颗粒物(PM10),59,67,45,34,23,213,44,73,54,38,27,12,11,0.6,0.5
2023-07-18T04:00:00,1884A,104.6055,28.793,宜宾市,宜宾四中,"颗粒物(PM10),细颗粒物(PM2.5)",64,78,48,46,25,238,36,66,55,36,25,16,16,0.7,0.6
2023-07-18T04:00:00,1885A,104.639,28.7562,宜宾市,市政府,颗粒物(PM10),55,60,56,36,26,202,36,44,38,43,30,8,10,0.7,0.7
2023-07-18T04:00:00,1886A,104.5742,28.7199,宜宾市,黄金嘴,,46,46,39,25,20,201,42,43,41,36,23,8,8,0.7,0.7
2023-07-18T04:00:00,1888A,101.6891,26.571,攀枝花市,弄弄坪,,25,25,40,11,16,155,77,84,80,13,18,6,12,0.6,0.9
2023-07-18T04:00:00,1889A,101.5769,26.5928,攀枝花市,河门口,,36,36,33,20,16,183,68,76,72,21,18,13,13,0.9,0.7
2023-07-18T04:00:00,1890A,101.7169,26.585,攀枝花市,炳草岗,,37,37,39,20,15,154,45,70,56,36,29,18,20,0.7,0.9
2023-07-18T04:00:00,1891A,101.7369,26.5008,攀枝花市,仁和,,23,22,33,12,16,198,71,85,78,14,17,8,21,0.5,0.9
2023-07-18T04:00:00,1893A,105.4324,28.9634,泸州市,九狮山,,31,31,37,7,10,192,42,52,46,27,24,5,6,0.6,0.5
2023-07-18T04:00:00,1894A,105.4427,28.9063,泸州市,小市上码头,颗粒物(PM10),68,85,49,33,20,201,64,165,105,22,18,9,7,0.8,0.7
2023-07-18T04:00:00,1895A,105.4241,28.8573,泸州市,兰田宪桥,"颗粒物(PM10),细颗粒物(PM2.5)",69,88,45,50,24,184,47,40,40,24,20,26,11,0.8,0.6
2023-07-18T04:00:00,1896A,105.4379,28.8833,泸州市,市环监站,颗粒物(PM10),55,60,40,29,17,181,60,112,84,27,19,11,9,0.6,0.6
2023-07-18T04:00:00,1901A,104.4239,31.1208,德阳市,东山公园,,32,31,43,22,24,189,90,114,99,11,14,1,2,0.5,0.5
2023-07-18T04:00:00,1902A,104.3826,31.1317,德阳市,西小区,,42,42,49,23,24,180,76,100,83,19,16,3,2,0.5,0.5
2023-07-18T04:00:00,1904A,104.3553,31.1091,德阳市,耐火材料厂,,42,33,47,29,26,197,67,88,77,13,11,3,3,0.6,0.5
2023-07-18T04:00:00,1905A,106.056,30.8064,南充市,西山风景区,,34,20,39,18,21,174,106,101,101,6,7,8,7,0.4,0.4
2023-07-18T04:00:00,1906A,106.0789,30.8023,南充市,南充市委,,42,42,51,28,23,162,75,70,70,16,21,8,9,0.4,0.5
2023-07-18T04:00:00,1907A,106.1031,30.8217,南充市,南充炼油厂,,49,49,58,20,24,166,71,52,52,19,19,9,9,0.4,0.3
2023-07-18T04:00:00,1908A,106.1064,30.7856,南充市,高坪区监测站,,44,44,48,22,25,159,45,49,46,31,28,8,8,0.5,0.5
2023-07-18T04:00:00,1909A,106.0642,30.7636,南充市,嘉陵区环保局,,33,33,55,19,27,181,88,62,62,15,29,6,8,0.4,0.5
2023-07-18T04:00:00,1910A,106.1087,30.8388,南充市,市环境监测站,,33,33,54,17,29,168,75,57,57,15,20,6,7,0.4,0.4
2023-07-18T04:00:00,1911A,106.9222,27.6869,遵义市,丁字口,,26,19,27,17,14,148,82,76,76,20,19,6,5,0.7,0.6
2023-07-18T04:00:00,1912A,106.9242,27.7019,遵义市,凤凰山,,42,29,30,29,26,158,99,92,92,16,12,12,9,0.7,0.4
2023-07-18T04:00:00,1913A,106.8906,27.6486,遵义市,忠庄,,34,34,32,19,20,160,91,100,94,22,13,5,3,0.8,0.5
2023-07-18T04:00:00,1914A,106.9231,27.6506,遵义市,舟水桥,,31,31,27,14,14,161,55,64,56,19,15,2,2,0.7,0.6
2023-07-18T04:00:00,1915A,106.9178,27.72,遵义市,干田坝,,25,25,26,17,20,158,78,78,78,18,15,8,6,0.5,0.5
2023-07-18T04:00:00,1916A,103.7897,25.5035,曲靖市,环境监测站,,46,46,31,26,14,146,73,109,88,27,15,21,8,1.2,0.7
2023-07-18T04:00:00,1917A,103.8,25.5364,曲靖市,烟厂办公区,,47,47,29,25,13,145,72,96,83,21,11,19,7,0.9,0.5
2023-07-18T04:00:00,1918A,108.7197,34.3956,咸阳市,气象站,,,,,,,,,,,,,,,,
2023-07-18T04:00:00,1919A,108.673,34.3155,咸阳市,实验中学,,42,42,51,24,25,210,114,100,100,14,21,7,6,0.5,0.6
2023-07-18T04:00:00,1920A,108.7233,34.3617,咸阳市,师范学院,,48,48,49,29,26,196,116,108,108,20,23,6,6,0.6,0.7
2023-07-18T04:00:00,1922A,109.0656,35.0994,铜川市,党校,颗粒物(PM10),58,66,48,28,19,170,94,101,87,31,18,7,7,0.8,0.8
2023-07-18T04:00:00,1923A,109.0697,35.0697,铜川市,王益区政府,,42,42,36,24,20,175,79,119,96,24,14,4,4,0.5,0.6
2023-07-18T04:00:00,1924A,108.9344,34.9058,铜川市,新区管委会,,38,36,40,20,21,179,121,116,116,13,14,8,8,0.7,0.7
2023-07-18T04:00:00,1926A,109.4131,36.6275,延安市,枣园,颗粒物(PM10),54,57,38,23,18,165,15,28,19,38,28,6,6,0.6,0.6
2023-07-18T04:00:00,1927A,109.4761,36.6028,延安市,延大医附院,颗粒物(PM10),51,52,38,21,17,182,17,16,16,42,34,4,5,0.3,0.3
2023-07-18T04:00:00,1929A,109.5056,36.6106,延安市,百米大道,颗粒物(PM10),53,56,44,33,20,182,23,33,23,50,39,7,6,0.7,0.6
2023-07-18T04:00:00,1930A,107.185,34.3063,宝鸡市,庙沟村,,33,33,30,18,15,192,99,127,112,14,7,8,9,0.2,0.1
2023-07-18T04:00:00,1931A,107.0708,34.3017,宝鸡市,竹园沟,,23,14,26,14,16,222,71,80,78,10,13,6,7,0.4,0.4
2023-07-18T04:00:00,1932A,107.1906,34.3672,宝鸡市,三陆医院,颗粒物(PM10),51,52,49,33,25,221,79,84,81,22,22,10,8,0.5,0.5
2023-07-18T04:00:00,1933A,107.1431,34.3547,宝鸡市,监测站,,25,22,35,17,20,211,70,85,77,16,16,8,9,0.4,0.4
2023-07-18T04:00:00,1934A,107.1186,34.3739,宝鸡市,技工学校,,38,38,41,26,22,218,70,87,78,18,18,5,6,0.4,0.5
2023-07-18T04:00:00,1935A,107.3906,34.3528,宝鸡市,陈仓区环保局家属楼,,43,39,49,30,29,228,75,85,79,34,27,6,10,0.5,0.5
2023-07-18T04:00:00,1936A,107.2058,34.3497,宝鸡市,文理学院,,35,35,44,21,26,225,77,84,81,15,16,11,12,0.4,0.4
2023-07-18T04:00:00,1937A,107.2386,34.3622,宝鸡市,三迪小学,,,,,,,,,,,,,,,,
2023-07-18T04:00:00,1938A,109.5293,34.5101,渭南市,农科所,颗粒物(PM10),53,56,50,31,26,170,67,69,61,22,21,5,5,0.8,0.8
2023-07-18T04:00:00,1939A,109.4974,34.4877,渭南市,日报社,,50,41,56,35,26,201,46,25,25,30,28,6,7,0.3,0.4
2023-07-18T04:00:00,1940A,109.4636,34.493,渭南市,体育馆,,46,46,51,27,24,198,57,33,33,45,35,6,6,0.5,0.5
2023-07-18T04:00:00,1941A,109.4259,34.5023,渭南市,高新一小,,48,48,56,27,23,193,112,104,103,13,15,8,7,0.4,0.4
2023-07-18T04:00:00,1943A,102.1725,38.5339,金昌市,新川苑,,47,47,37,10,9,150,55,64,50,27,19,18,12,0.7,0.7
2023-07-18T04:00:00,1944A,102.1692,38.5167,金昌市,天庆家园,,29,29,27,15,12,158,58,80,59,35,23,18,16,0.8,0.6
2023-07-18T04:00:00,1945A,98.2908,39.7711,嘉峪关市,气象局,,43,22,25,7,9,150,34,127,83,85,18,1,4,0.3,0.2
2023-07-18T04:00:00,1947A,106.3394,38.817,石嘴山市,沙湖旅游区,颗粒物(PM10),53,55,55,15,16,233,67,96,83,24,25,17,33,0.5,1.3
2023-07-18T04:00:00,1948A,106.3668,39.0145,石嘴山市,大武口朝阳西街,,50,50,52,19,20,252,87,105,98,20,23,14,31,0.3,0.5
2023-07-18T04:00:00,1949A,106.7704,39.2282,石嘴山市,惠农南大街,颗粒物(PM10),52,54,44,19,14,224,83,96,92,20,21,5,7,0.3,0.3
2023-07-18T04:00:00,1950A,106.7099,39.1325,石嘴山市,红果子镇惠新街,颗粒物(PM10),52,53,44,16,14,254,72,106,92,28,20,15,11,0.4,0.4
2023-07-18T04:00:00,1951A,84.895,45.6094,克拉玛依市,长征新村,,31,14,23,9,5,113,97,87,87,6,11,8,8,0.1,0.1
2023-07-18T04:00:00,1952A,84.8988,45.5893,克拉玛依市,南林小区,,20,8,25,3,11,110,63,70,67,18,17,4,4,0.2,0.1
2023-07-18T04:00:00,1954A,84.905,44.3396,克拉玛依市,独山子区,,,,36,,11,99,74,70,70,10,9,6,7,0.3,0.4
2023-07-18T04:00:00,1955A,85.6979,46.098,克拉玛依市,乌尔禾区商贸楼,,31,31,29,10,9,116,66,76,70,7,7,7,6,0.3,0.3
2023-07-18T04:00:00,1956A,86.1472,41.7538,巴音郭楞州,孔雀公园,颗粒物(PM10),51,52,71,12,19,157,120,117,117,2,16,5,6,0.2,0.3
2023-07-18T04:00:00,1957A,86.1972,41.7166,巴音郭楞州,棉纺厂,颗粒物(PM10),66,81,83,24,24,163,114,110,110,3,17,4,5,0.2,0.4
2023-07-18T04:00:00,1958A,86.2357,41.7173,巴音郭楞州,经济开发区,,42,42,74,21,21,152,118,114,114,1,5,4,5,0.2,0.3
2023-07-18T04:00:00,1961A,117.532,36.6868,济南市,东山小学,,29,29,44,10,13,232,68,113,98,31,24,4,6,0.3,0.4
2023-07-18T04:00:00,1966A,120.0405,35.8735,青岛市,黄岛区4号,,30,29,26,14,11,145,93,92,92,1,14,6,7,0.5,0.5
2023-07-18T04:00:00,1982A,122.0693,37.2174,威海市,文登开发区,,25,22,23,17,10,142,54,67,60,11,14,6,6,0.6,0.4
2023-07-18T04:00:00,2031A,113.1817,27.9958,株洲市,云田中学,,25,25,40,14,21,131,34,39,35,13,12,6,7,0.6,0.5
2023-07-18T04:00:00,2054A,114.1099,32.1059,信阳市,平桥分局,,24,24,45,9,23,169,62,80,70,8,8,8,8,0.4,0.5
2023-07-18T04:00:00,2064A,113.9956,32.1271,信阳市,南湾水厂,,23,23,47,10,23,170,58,80,71,8,9,8,9,0.6,0.6
2023-07-18T04:00:00,2065A,114.0775,32.1195,信阳市,市酿酒公司,,22,17,42,12,30,167,69,83,74,7,11,8,8,0.6,0.7
2023-07-18T04:00:00,2066A,114.0609,32.1399,信阳市,审计局,,26,26,49,17,29,171,69,89,78,5,12,8,8,0.5,0.5
2023-07-18T04:00:00,2067A,114.6613,33.6128,周口市,市环境监测站,,,48,52,,22,202,83,107,94,8,12,4,5,0.5,0.5
2023-07-18T04:00:00,2068A,114.6758,33.6347,周口市,周口师范,,42,42,46,27,19,195,76,112,92,12,12,4,5,0.4,0.4
2023-07-18T04:00:00,2069A,114.6546,33.5979,周口市,市运管处,,42,42,43,19,20,204,87,115,103,5,8,10,10,0.4,0.4
2023-07-18T04:00:00,2070A,114.6369,33.6406,周口市,川汇区环保局,,40,40,46,22,18,194,72,107,91,13,13,2,4,0.9,0.7
2023-07-18T04:00:00,2075A,117.6336,24.4674,漳州市,九湖,,,,,,,,,,,,,,,,
2023-07-18T04:00:00,2160A,112.85,35.5051,晋城市,自来水公司,,47,47,45,19,18,234,136,128,128,13,16,8,9,0.8,0.9
2023-07-18T04:00:00,2161A,112.8318,35.4936,晋城市,白云商贸,颗粒物(PM10),59,67,39,29,16,226,97,93,92,21,18,8,9,0.8,0.8
2023-07-18T04:00:00,2162A,112.8508,35.4887,晋城市,市环保局,,38,38,42,22,19,209,109,87,87,21,22,10,10,0.9,0.9
2023-07-18T04:00:00,2163A,112.8676,35.4897,晋城市,技术学院,颗粒物(PM10),52,53,50,22,17,221,89,105,90,25,21,8,9,0.8,0.8
2023-07-18T04:00:00,2165A,112.8453,35.546,晋城市,白马寺,,,,,,,,,,,,,,,,
2023-07-18T04:00:00,2166A,112.4397,39.3522,朔州市,平朔,,40,40,50,25,19,190,124,127,126,11,24,6,8,0.7,0.7
2023-07-18T04:00:00,2167A,112.4575,39.3617,朔州市,朔唯,颗粒物(PM10),52,54,69,32,24,204,96,137,126,28,27,7,12,0.6,0.6
2023-07-18T04:00:00,2168A,112.4258,39.3197,朔州市,区政府,,44,44,45,20,15,187,136,143,138,12,17,6,6,0.6,0.6
2023-07-18T04:00:00,2169A,112.4072,39.3278,朔州市,市环保局,,47,39,48,18,20,199,148,155,152,8,15,7,9,0.5,0.5
2023-07-18T04:00:00,2170A,112.4272,39.3681,朔州市,市二中,颗粒物(PM10),51,52,58,19,22,196,136,149,144,11,26,8,12,0.5,0.5
2023-07-18T04:00:00,2171A,112.7532,37.6945,晋中市,锦纶小区,,34,34,40,12,15,204,90,106,99,21,18,10,12,0.3,0.5
2023-07-18T04:00:00,2173A,112.7249,37.7067,晋中市,南都小区,,46,46,40,15,17,210,104,115,106,22,18,9,12,0.4,0.4
2023-07-18T04:00:00,2174A,112.6991,37.6982,晋中市,榆次区政府,,46,46,44,22,20,200,108,115,113,17,19,8,10,0.4,0.5
2023-07-18T04:00:00,2175A,110.9956,35.0147,运城市,运城中学,,44,38,44,22,21,205,139,171,155,6,6,6,6,0.6,0.6
2023-07-18T04:00:00,2178A,110.9686,35.0303,运城市,地区技校,,49,40,44,19,23,213,156,173,164,6,6,5,5,0.8,0.8
2023-07-18T04:00:00,2179A,111.0414,35.1147,运城市,空港新区,,43,43,57,25,27,214,116,166,146,15,10,10,9,0.8,0.8
2023-07-18T04:00:00,2181A,112.7383,38.4519,忻州市,开发区,,47,47,45,28,23,192,58,101,72,42,23,9,12,0.6,0.6
2023-07-18T04:00:00,2182A,112.7003,38.4928,忻州市,会展中心,,45,38,43,31,27,190,36,117,68,48,25,8,11,0.6,0.5
2023-07-18T04:00:00,2183A,111.1406,37.5211,吕梁市,环保局,颗粒物(PM10),58,66,64,35,28,209,21,43,30,65,38,4,4,0.9,0.7
2023-07-18T04:00:00,2185A,111.1297,37.5136,吕梁市,自来水公司,颗粒物(PM10),94,138,80,45,27,211,10,33,22,70,38,7,8,0.7,0.7
2023-07-18T04:00:00,2187A,106.8174,39.6973,乌海市,市林业局,颗粒物(PM10),64,78,60,25,15,229,103,129,113,18,18,40,25,0.9,0.8
2023-07-18T04:00:00,2188A,106.7907,39.6667,乌海市,中海勃湾学校,颗粒物(PM10),58,65,49,29,20,228,98,140,118,19,18,34,24,0.6,0.7
2023-07-18T04:00:00,2191A,122.2532,43.6801,通辽市,艺术职业学校,,34,34,26,8,8,93,36,48,40,17,16,4,5,0.8,0.8
2023-07-18T04:00:00,2192A,119.7594,49.2261,呼伦贝尔市,区环保局,,48,39,39,33,26,100,42,52,48,9,11,4,4,0.4,0.3
2023-07-18T04:00:00,2195A,107.4212,40.761,巴彦淖尔市,附二中,,32,30,44,12,17,218,101,112,105,11,16,2,10,0.5,0.5
2023-07-18T04:00:00,2196A,107.37,40.7372,巴彦淖尔市,市环保大楼,,38,30,42,21,21,216,119,134,128,7,13,4,10,0.4,0.4
2023-07-18T04:00:00,2197A,113.1306,40.9923,乌兰察布市,集宁新区,,44,44,36,23,18,215,99,114,101,18,16,13,15,0.9,0.7
2023-07-18T04:00:00,2200A,122.0392,46.0656,兴安盟,胜华新制药厂,,23,23,19,16,14,95,22,40,31,9,5,3,2,0.4,0.4
2023-07-18T04:00:00,2201A,121.9504,46.0741,兴安盟,科右前旗环保局,,19,19,22,13,16,97,38,45,42,6,5,3,3,0.3,0.3
2023-07-18T04:00:00,2202A,116.1042,43.9317,锡林郭勒盟,市环保监测站,,28,11,16,13,6,122,89,80,80,3,6,11,11,0.2,0.2
2023-07-18T04:00:00,2203A,116.0781,43.9311,锡林郭勒盟,市政府,,29,12,12,6,7,129,92,87,87,6,8,9,9,0.2,0.2
2023-07-18T04:00:00,2204A,105.6467,38.8363,阿拉善盟,西城区西花园,,40,31,30,19,15,172,127,142,136,10,12,9,10,0.5,0.5
2023-07-18T04:00:00,2205A,105.6985,38.8411,阿拉善盟,蒙二幼,,44,32,32,17,11,187,139,156,148,6,7,8,9,0.5,0.4
2023-07-18T04:00:00,2206A,105.724,38.8516,阿拉善盟,环保局新楼,,,,,,,,,,,,,,,,
2023-07-18T04:00:00,2207A,121.6094,41.998,阜新市,工业园区,颗粒物(PM10),56,62,45,25,20,146,4,8,7,48,28,7,10,0.9,0.9
2023-07-18T04:00:00,2208A,121.6697,42.0279,阜新市,长青街,,46,46,40,22,14,138,0,38,23,44,21,7,12,0.7,0.7
2023-07-18T04:00:00,2209A,121.6673,42.0705,阜新市,农业园区,,48,44,32,33,21,133,48,80,72,17,11,8,7,0.8,0.6
2023-07-18T04:00:00,2210A,121.6717,42.0224,阜新市,东苑,细颗粒物(PM2.5),84,63,50,62,30,133,8,24,13,41,22,11,12,0.8,0.6
2023-07-18T04:00:00,2211A,121.6506,42.0498,阜新市,玉龙新城,,41,41,37,17,16,126,7,7,7,35,20,2,5,0.6,0.6
2023-07-18T04:00:00,2212A,123.2,41.1953,辽阳市,宏伟区,,33,33,32,19,15,129,51,62,56,9,15,4,7,0.7,0.9
2023-07-18T04:00:00,2213A,123.1683,41.2495,辽阳市,新华园,颗粒物(PM10),56,62,47,29,22,133,36,34,34,20,21,11,9,0.8,1.1
2023-07-18T04:00:00,2214A,123.2354,41.2639,辽阳市,滨河路,细颗粒物(PM2.5),53,50,40,37,22,133,48,54,52,24,21,6,8,1.1,1
2023-07-18T04:00:00,2215A,123.149,41.2991,辽阳市,铁西工业园,颗粒物(PM10),56,61,46,28,22,126,31,31,30,25,20,8,10,1.1,1.2
2023-07-18T04:00:00,2216A,123.8139,42.3022,铁岭市,汇工街西,细颗粒物(PM2.5),64,56,29,46,14,105,5,21,13,34,18,89,11,0.9,0.5
2023-07-18T04:00:00,2217A,123.8649,42.2923,铁岭市,水上乐园,颗粒物(PM10),51,52,26,24,12,89,34,28,28,15,16,2,2,0.6,0.5
2023-07-18T04:00:00,2218A,123.8486,42.2867,铁岭市,银州路东段,颗粒物(PM10),55,59,33,30,17,89,28,37,29,21,18,5,5,0.7,0.5
2023-07-18T04:00:00,2219A,123.7153,42.2217,铁岭市,金沙江路北,,43,43,30,23,13,88,30,36,31,22,23,10,6,0.8,0.6
2023-07-18T04:00:00,2220A,120.4318,41.5881,朝阳市,西梁,颗粒物(PM10),70,89,49,31,22,152,16,54,31,32,18,13,10,0.9,0.8
2023-07-18T04:00:00,2221A,120.4521,41.5646,朝阳市,河畔小区,,46,46,39,25,17,162,48,72,60,12,12,6,6,0.7,0.6
2023-07-18T04:00:00,2222A,120.4176,41.5648,朝阳市,八里堡,颗粒物(PM10),56,62,45,36,22,157,39,79,48,38,22,12,8,0.9,0.8
2023-07-18T04:00:00,2223A,120.3806,41.5969,朝阳市,农业园区,,48,48,49,33,24,151,13,28,24,24,21,5,6,0.7,0.8
2023-07-18T04:00:00,2225A,124.4002,43.1713,四平市,一商场,,22,22,16,8,8,78,12,6,6,20,13,7,7,0.4,0.4
2023-07-18T04:00:00,2226A,124.388,43.193,四平市,境园,,17,17,13,6,5,76,2,2,2,12,11,9,10,0.2,0.2
2023-07-18T04:00:00,2227A,125.1358,42.8845,辽源市,环保局,,14,14,10,6,6,82,18,22,21,10,9,5,8,0.5,0.5
2023-07-18T04:00:00,2229A,125.9358,41.7173,通化市,光明,,23,23,14,15,5,73,8,22,16,16,10,9,8,0.4,0.3
2023-07-18T04:00:00,2230A,125.9446,41.7325,通化市,铁路,,28,28,11,15,4,72,6,17,12,13,7,6,5,0.7,0.3
2023-07-18T04:00:00,2231A,126.4219,41.9171,白山市,喜丰,,27,27,22,12,9,75,14,26,22,14,10,7,7,0.7,0.5
2023-07-18T04:00:00,2232A,126.4077,41.9419,白山市,环保局,,44,44,23,22,9,82,15,24,21,18,15,5,6,0.5,0.4
2023-07-18T04:00:00,2233A,124.8006,45.1214,松原市,江南,,17,17,11,5,5,52,24,23,23,16,10,5,4,0.4,0.4
2023-07-18T04:00:00,2234A,124.7965,45.1722,松原市,江北,,11,5,6,7,5,52,35,28,28,9,8,3,3,0.4,0.4
2023-07-18T04:00:00,2235A,122.7911,45.6077,白城市,洮北区环保局,,15,15,14,7,6,81,43,37,37,13,13,5,4,0.2,0.2
2023-07-18T04:00:00,2236A,122.8738,45.5725,白城市,市环保局,,24,24,17,6,5,83,13,22,17,32,17,5,4,0.3,0.2
2023-07-18T04:00:00,2237A,129.47,42.8883,延边朝鲜族自治州,妇幼医院,,38,24,16,26,12,97,15,19,18,14,13,7,8,0.6,0.6
2023-07-18T04:00:00,2238A,129.5055,42.9108,延边朝鲜族自治州,延边医院,,38,17,16,26,12,111,18,28,22,12,13,6,7,0.6,0.7
2023-07-18T04:00:00,2239A,129.3964,42.8881,延边朝鲜族自治州,朝阳川镇医院,,22,22,14,10,6,99,13,17,12,7,10,7,6,0.6,0.6
2023-07-18T04:00:00,2240A,130.9762,45.3001,鸡西市,环保局,,26,26,18,14,9,54,1,16,8,30,15,4,4,0.4,0.3
2023-07-18T04:00:00,2243A,130.9429,45.3039,鸡西市,第一中学,,14,14,14,8,6,60,4,12,10,20,9,5,5,0.3,0.3
2023-07-18T04:00:00,2244A,130.2537,47.3416,鹤岗市,哈啤分公司,,12,10,10,8,9,36,6,10,6,4,6,10,11,0.3,0.3
2023-07-18T04:00:00,2245A,130.2684,47.3086,鹤岗市,斯达机电,,10,10,9,6,6,34,3,4,3,9,9,9,9,0.3,0.3
2023-07-18T04:00:00,2246A,130.3114,47.3388,鹤岗市,东山纸板厂,,13,5,9,9,10,33,1,1,1,8,8,10,9,0.5,0.4
2023-07-18T04:00:00,2247A,130.1097,47.3382,鹤岗市,五号水库,,8,7,6,5,5,37,8,7,7,4,5,7,7,0.1,0.1
2023-07-18T04:00:00,2248A,131.1511,46.6937,双鸭山市,双合村,,21,21,11,7,4,31,3,3,3,9,8,9,9,0.1,0
2023-07-18T04:00:00,2249A,131.1652,46.6191,双鸭山市,南小市,,19,19,11,6,5,39,3,3,3,4,7,6,6,0.1,0.1
2023-07-18T04:00:00,2250A,131.1524,46.6554,双鸭山市,环保局,,16,16,6,7,6,36,7,7,7,14,13,8,8,0.3,0.2
2023-07-18T04:00:00,2251A,131.12,46.5656,双鸭山市,苗圃,,8,6,19,5,6,46,16,16,16,5,6,4,3,0.4,0.4
2023-07-18T04:00:00,2252A,128.5159,47.4311,伊春市,环保局,,18,18,16,0,0,42,2,4,3,3,6,5,5,0.2,0.3
2023-07-18T04:00:00,2253A,128.9102,47.7412,伊春市,电力嘉园,,8,4,8,5,8,48,9,10,9,5,5,9,5,0.6,0.5
2023-07-18T04:00:00,2254A,129.5029,48.471,伊春市,汤旺河国家公园,,27,27,23,11,10,66,11,12,11,1,1,11,12,0.4,0.5
2023-07-18T04:00:00,2255A,130.2751,46.8028,佳木斯市,佳纺,,19,19,14,7,5,40,6,6,6,17,13,2,2,0.4,0.4
2023-07-18T04:00:00,2256A,130.3995,46.8307,佳木斯市,发电厂,,14,14,8,8,6,44,3,7,4,22,9,3,2,0.5,0.5
2023-07-18T04:00:00,2257A,130.3258,46.7975,佳木斯市,环保局,,18,18,16,9,7,33,4,9,6,18,15,4,2,0.5,0.5
2023-07-18T04:00:00,2258A,130.3648,46.8032,佳木斯市,十一中,,20,19,11,14,8,40,19,10,10,16,12,3,3,0.4,0.5
2023-07-18T04:00:00,2259A,130.3794,46.7588,佳木斯市,四丰,,12,12,13,6,7,58,7,6,6,14,11,1,1,0.4,0.4
2023-07-18T04:00:00,2262A,131.0518,45.8751,七台河市,新一中,,18,18,12,6,6,76,16,24,18,8,7,6,7,0.9,0.9
2023-07-18T04:00:00,2263A,127.4833,50.2524,黑河市,交通局,,24,24,31,10,16,94,20,22,22,11,14,1,2,0.5,0.5
2023-07-18T04:00:00,2264A,127.5144,50.2341,黑河市,环保局,,40,40,41,19,17,84,23,25,19,11,13,5,4,0.5,0.5
2023-07-18T04:00:00,2265A,127.5291,50.2472,黑河市,大黑河岛,,33,20,24,23,22,93,21,21,20,1,1,2,2,0.4,0.4
2023-07-18T04:00:00,2266A,126.9785,46.6365,绥化市,人和东街,,14,5,11,5,6,39,7,18,10,27,16,5,5,0.3,0.3
2023-07-18T04:00:00,2267A,126.964,46.6528,绥化市,党政办公中心,,16,10,11,11,7,40,7,10,6,24,15,5,5,0.4,0.4
2023-07-18T04:00:00,2269A,124.1069,50.4097,大兴安岭地区,科技局,,29,29,24,19,15,77,13,43,27,15,7,9,5,0.3,0.3
2023-07-18T04:00:00,2270A,117.396,32.939,蚌埠市,工人疗养院,,30,30,40,8,18,84,30,36,33,8,9,6,7,0.1,0.2
2023-07-18T04:00:00,2271A,117.3605,32.9427,蚌埠市,百货大楼,,25,25,38,9,16,92,37,48,42,4,8,3,4,0.2,0.3
2023-07-18T04:00:00,2273A,117.4185,32.8911,蚌埠市,蚌埠学院,,25,22,28,17,19,84,16,29,22,32,16,12,9,0.2,0.3
2023-07-18T04:00:00,2274A,117.3533,32.9673,蚌埠市,淮上区政府,,15,14,30,10,20,93,31,43,36,10,11,4,4,0.1,0.1
2023-07-18T04:00:00,2275A,117.3145,32.8977,蚌埠市,高新区,,22,22,31,13,16,102,45,54,48,4,8,6,6,0.2,0.2
2023-07-18T04:00:00,2277A,116.8305,32.7727,淮南市,潘集区政府,,20,17,32,14,22,112,14,44,30,36,13,5,5,0.3,0.3
2023-07-18T04:00:00,2278A,117.0067,32.6524,淮南市,师范学院,,30,30,40,8,24,83,19,30,26,15,11,9,10,0.2,0.3
2023-07-18T04:00:00,2279A,116.8569,32.5951,淮南市,谢家集区政府,,17,17,26,4,13,99,35,46,40,17,16,7,7,0.1,0.3
2023-07-18T04:00:00,2280A,116.8281,32.633,淮南市,八公山区政府,,29,27,37,20,25,107,28,38,33,14,13,6,7,0.4,0.5
2023-07-18T04:00:00,2281A,116.6325,32.6201,淮南市,焦岗湖风景区管理处,,26,26,34,2,22,82,21,18,18,16,20,5,5,0.2,0.3
2023-07-18T04:00:00,2282A,116.8004,33.975,淮北市,监测站,,43,43,42,27,20,156,73,81,78,7,11,3,4,0.5,0.5
2023-07-18T04:00:00,2283A,116.8091,33.9007,淮北市,烈山区政府,,35,19,16,24,17,164,84,86,83,5,6,3,4,0.4,0.4
2023-07-18T04:00:00,2285A,117.8177,30.9412,铜陵市,市第四中学,,41,41,34,28,29,76,16,19,14,33,23,11,10,0.3,0.4
2023-07-18T04:00:00,2286A,117.8059,30.9273,铜陵市,市公路局,,42,37,39,29,20,80,8,19,12,40,22,5,4,0.6,0.7
2023-07-18T04:00:00,2287A,117.7807,30.9413,铜陵市,市新民污水厂,,46,46,44,15,15,78,24,37,28,19,20,8,7,0.3,0.6
2023-07-18T04:00:00,2288A,117.7439,30.8792,铜陵市,市第九中学,颗粒物(PM10),55,59,49,24,18,66,17,29,22,31,28,11,11,0.8,1.2
2023-07-18T04:00:00,2289A,117.846,30.9413,铜陵市,车站新区,,36,36,35,14,15,80,23,37,31,26,16,4,3,0.3,0.4
2023-07-18T04:00:00,2290A,117.8483,30.97,铜陵市,市职教基地,,23,23,26,11,11,70,12,26,18,28,16,4,4,0.5,0.7
2023-07-18T04:00:00,2291A,117.0809,30.5177,安庆市,环科院,,16,12,19,7,13,82,49,61,54,6,8,3,3,0.4,0.5
2023-07-18T04:00:00,2292A,117.0331,30.5119,安庆市,马山宾馆,,16,12,21,8,15,87,50,65,56,7,9,5,5,0.6,0.7
2023-07-18T04:00:00,2294A,116.9896,30.6145,安庆市,安庆大学,,19,19,18,12,13,77,48,60,54,8,8,8,8,0.4,0.5
2023-07-18T04:00:00,2295A,118.2903,29.6963,黄山市,延安路89号,,29,29,28,4,5,72,8,38,29,8,5,5,6,0.3,0.3
2023-07-18T04:00:00,2296A,118.327,29.7178,黄山市,黄山东路89号,,15,15,22,1,6,67,37,57,49,8,5,6,6,0.1,0.2
2023-07-18T04:00:00,2297A,118.1371,30.2756,黄山市,黄山区政府5号楼,,32,32,32,15,13,76,7,11,8,6,6,6,7,0.3,0.3
2023-07-18T04:00:00,2298A,118.3093,32.3153,滁州市,老年大学,,16,16,17,2,8,84,33,32,32,10,14,8,8,0.2,0.3
2023-07-18T04:00:00,2299A,118.3244,32.2786,滁州市,人大宾馆,,15,15,11,9,11,74,33,36,36,14,16,6,6,0.2,0.3
2023-07-18T04:00:00,2301A,115.8277,32.8929,阜阳市,市监测站,,15,15,22,3,10,170,43,50,48,16,12,5,6,0.4,0.5
2023-07-18T04:00:00,2303A,115.8554,32.8605,阜阳市,开发区,,12,4,21,8,9,170,29,34,32,23,17,5,6,0.4,0.5
2023-07-18T04:00:00,2307A,116.5079,31.737,六安市,监测大楼,,14,12,19,4,8,92,42,51,45,4,4,2,3,0.1,0.3
2023-07-18T04:00:00,2308A,116.4738,31.7643,六安市,皖西学院,,12,5,26,2,9,92,37,46,41,11,10,6,6,0.1,0.2
2023-07-18T04:00:00,2309A,116.4996,31.7905,六安市,朝阳厂,,16,9,20,11,12,90,48,52,49,5,9,6,7,0.2,0.4
2023-07-18T04:00:00,2310A,116.5567,31.7886,六安市,开发区,,17,17,26,9,15,83,44,38,36,4,8,6,6,0.3,0.4
2023-07-18T04:00:00,2311A,115.8072,33.8399,亳州市,污水处理厂,,44,44,38,21,18,185,41,51,45,21,12,4,5,0.6,0.6
2023-07-18T04:00:00,2312A,115.7789,33.8518,亳州市,三国揽胜宫,,41,41,35,22,17,191,64,82,74,14,10,5,6,0.6,0.6
2023-07-18T04:00:00,2314A,117.47,30.6618,池州市,池州学院,,42,39,27,29,16,79,22,49,36,18,10,18,8,0.6,0.7
2023-07-18T04:00:00,2316A,118.7581,30.9454,宣城市,鳌峰子站,,30,30,27,17,14,93,28,42,36,27,15,5,4,0.8,0.6
2023-07-18T04:00:00,2317A,118.7385,30.9743,宣城市,敬亭山子站,,31,31,27,19,14,100,26,50,36,21,18,7,7,0.5,0.5
2023-07-18T04:00:00,2318A,118.7173,30.9427,宣城市,开发区子站,,25,25,26,17,14,111,38,47,40,28,17,5,6,0.8,0.5
2023-07-18T04:00:00,2319A,119.0141,25.4325,莆田市,荔城区仓后路,,22,22,27,10,12,121,32,57,44,13,10,6,6,0.5,0.7
2023-07-18T04:00:00,2320A,119.0015,25.4553,莆田市,莆田市监测站,,21,21,23,7,10,123,36,53,45,5,5,7,7,0.6,0.6
2023-07-18T04:00:00,2321A,119.1119,25.4561,莆田市,涵江区六中,,22,22,27,10,10,113,32,50,40,18,10,7,7,0.6,0.6
2023-07-18T04:00:00,2322A,119.1013,25.3215,莆田市,秀屿区政府,,20,20,27,11,13,106,44,54,50,4,5,6,7,0.7,0.7
2023-07-18T04:00:00,2323A,118.981,25.4792,莆田市,东圳水库,,,,,,,,,,,,,,,,
2023-07-18T04:00:00,2324A,117.6211,26.2625,三明市,三钢,,19,19,19,12,13,88,12,22,17,18,11,10,9,0.4,0.4
2023-07-18T04:00:00,2325A,117.635,26.2714,三明市,三明二中,,18,18,17,10,11,90,17,26,22,18,13,8,6,0.5,0.5
2023-07-18T04:00:00,2326A,117.6028,26.2378,三明市,三元区政府,,17,17,20,9,10,93,18,29,24,16,12,10,8,0.9,0.8
2023-07-18T04:00:00,2327A,117.7275,26.3108,三明市,洋溪,,,,,,,,,,,,,,,,
2023-07-18T04:00:00,2331A,118.0966,26.6761,南平市,茫荡山,,,,,,,,,,,,,,,,
2023-07-18T04:00:00,2332A,118.1681,26.6369,南平市,南平市监测站,,26,26,16,10,7,68,3,6,4,15,9,6,5,0.7,0.6
2023-07-18T04:00:00,2333A,118.1825,26.6489,南平市,南平铝业有限公司,,13,13,15,5,9,69,2,3,2,12,10,9,8,0.6,0.6
2023-07-18T04:00:00,2334A,118.1756,26.6272,南平市,南平七中,,21,21,16,11,9,68,2,5,3,11,7,4,3,0.6,0.6
2023-07-18T04:00:00,2335A,117.0189,25.1181,龙岩市,龙岩师专,,,,,,,,,,,,,,,,
2023-07-18T04:00:00,2336A,117.0217,25.1033,龙岩市,龙岩市监测站,,21,21,20,9,9,76,19,18,18,12,14,8,9,0.5,0.5
2023-07-18T04:00:00,2337A,117.0258,25.0661,龙岩市,闽西职业技术学院,,24,24,22,10,9,70,9,17,13,20,16,7,6,0.4,0.4
2023-07-18T04:00:00,2338A,117.0196,25.0306,龙岩市,龙岩学院,,9,9,19,6,7,72,11,12,10,18,14,3,4,0.3,0.3
2023-07-18T04:00:00,2339A,119.5001,26.6946,宁德市,金涵水库,,,,,,,,,,,,,,,,
2023-07-18T04:00:00,2341A,119.5388,26.6612,宁德市,宁德市监测站,,13,13,15,6,5,71,10,17,11,7,7,8,7,0.4,0.5
2023-07-18T04:00:00,2342A,117.3102,29.3867,景德镇市,王港中学,,18,11,16,12,13,66,20,20,20,5,4,6,5,0.2,0.3
2023-07-18T04:00:00,2343A,117.2117,29.2933,景德镇市,老干部活动中心,,23,11,21,16,15,73,18,20,16,7,7,9,6,0.1,0.2
2023-07-18T04:00:00,2344A,117.1894,29.2789,景德镇市,兽医站,,17,17,21,8,15,82,17,17,17,4,9,7,7,0.2,0.4
2023-07-18T04:00:00,2345A,117.1547,29.2617,景德镇市,台达陶瓷,,11,11,26,2,14,72,16,14,14,5,11,5,14,0.3,0.4
2023-07-18T04:00:00,2346A,117.2461,29.2956,景德镇市,陶研所,,36,36,27,6,8,60,6,15,12,4,3,10,6,0.2,0.2
2023-07-18T04:00:00,2347A,114.0997,27.5002,萍乡市,武功山,,23,23,15,16,10,98,20,22,21,5,5,20,20,0.6,0.5
2023-07-18T04:00:00,2348A,113.8385,27.6434,萍乡市,中医院,,23,15,29,16,20,108,48,55,51,4,8,10,12,0.4,0.5
2023-07-18T04:00:00,2349A,113.8493,27.6253,萍乡市,市政府车库,,19,16,39,13,22,124,41,50,44,7,10,15,13,0.7,0.6
2023-07-18T04:00:00,2350A,113.8676,27.6435,萍乡市,市环保局,,19,19,36,12,20,108,44,51,46,5,9,12,13,0.4,0.5
2023-07-18T04:00:00,2351A,113.866,27.6198,萍乡市,安源区政府,,24,24,37,14,23,117,39,47,42,15,13,16,12,1.2,0.8
2023-07-18T04:00:00,2352A,115.0861,27.9317,新余市,北岗,,15,15,27,5,18,112,26,36,30,13,8,10,11,0.9,0.7
2023-07-18T04:00:00,2353A,114.9886,27.8431,新余市,飞宇,,29,29,45,15,21,108,37,50,44,13,10,5,10,0.9,0.6
2023-07-18T04:00:00,2354A,114.9231,27.8246,新余市,第二水厂,,34,34,51,19,23,127,47,53,52,11,11,8,8,0.4,0.3
2023-07-18T04:00:00,2355A,114.9308,27.8036,新余市,市气象局,,39,39,41,23,24,113,51,57,52,8,9,9,9,0.8,0.6
2023-07-18T04:00:00,2357A,116.9822,28.1136,鹰潭市,龙虎山,,27,27,24,11,15,84,5,6,6,4,6,4,5,1.2,1
2023-07-18T04:00:00,2358A,117.0564,28.2642,鹰潭市,新监测站,,35,35,40,18,16,115,17,28,20,10,10,12,12,0.4,0.4
2023-07-18T04:00:00,2359A,117.0311,28.2475,鹰潭市,财苑宾馆,,36,36,47,18,19,112,19,28,23,8,10,8,10,0.4,0.5
2023-07-18T04:00:00,2360A,117.0222,28.2264,鹰潭市,体育馆,,34,34,44,13,19,123,12,34,20,22,15,5,15,0.4,0.4
2023-07-18T04:00:00,2361A,117.0017,28.2131,鹰潭市,三川水表,,25,25,46,13,19,121,12,25,16,15,13,8,10,0.6,0.7
2023-07-18T04:00:00,2362A,114.9017,25.9149,赣州市,通天岩,,,,,,,,,,,,,,,,
2023-07-18T04:00:00,2363A,114.9367,25.8664,赣州市,地委,,23,23,22,10,14,65,14,18,15,4,4,2,3,0.9,0.9
2023-07-18T04:00:00,2364A,114.9461,25.8481,赣州市,气象台,,16,16,22,6,12,90,27,34,30,6,7,9,5,0.7,0.8
2023-07-18T04:00:00,2365A,114.9322,25.8333,赣州市,市图书馆,,19,19,21,8,13,99,30,39,34,8,7,7,6,0.8,0.8
2023-07-18T04:00:00,2366A,114.8905,25.8471,赣州市,华坚鞋城,,19,19,25,12,13,97,26,29,27,8,8,5,4,0.4,0.4
2023-07-18T04:00:00,2367A,114.9754,27.0803,吉安市,红声器材厂,,27,27,34,8,17,115,37,49,44,7,8,12,13,0.8,0.8
2023-07-18T04:00:00,2368A,114.9658,27.0999,吉安市,市森林工业局,,18,18,28,11,19,108,38,51,45,8,8,5,5,0.8,0.8
2023-07-18T04:00:00,2369A,114.99,27.1312,吉安市,市环境监测站,,19,19,30,9,17,113,46,59,53,6,8,8,8,0.9,0.8
2023-07-18T04:00:00,2370A,115.0093,27.0968,吉安市,青原区法院,,21,21,29,13,18,112,21,51,39,14,11,12,11,0.9,0.9
2023-07-18T04:00:00,2371A,114.3408,27.8064,宜春市,槟榔水业,,24,24,38,12,22,89,33,34,32,4,5,3,2,0.3,0.2
2023-07-18T04:00:00,2373A,114.3956,27.7844,宜春市,市石油公司,,19,19,40,10,23,125,42,38,38,11,9,5,6,0.9,0.7
2023-07-18T04:00:00,2374A,114.3703,27.7914,宜春市,市气象局,,26,26,44,13,24,114,50,48,48,13,14,3,3,0.9,0.8
2023-07-18T04:00:00,2375A,114.4013,27.8074,宜春市,市广电局,,26,21,42,18,28,115,48,53,50,8,9,8,9,0.7,0.6
2023-07-18T04:00:00,2376A,116.2127,28.0814,抚州市,桐源党溪,,14,14,30,5,17,141,25,28,25,3,2,3,2,0.8,0.9
2023-07-18T04:00:00,2377A,116.3544,27.9831,抚州市,市站,,25,25,39,11,21,104,41,38,38,5,5,2,2,1.3,1.3
2023-07-18T04:00:00,2378A,116.3565,27.963,抚州市,血防站,,29,29,40,10,18,98,34,31,30,6,6,4,3,0.7,0.8
2023-07-18T04:00:00,2379A,116.3564,28.0007,抚州市,采茶剧团,,20,20,35,12,21,93,28,34,30,10,9,6,6,0.8,0.9
2023-07-18T04:00:00,2380A,116.385,27.9647,抚州市,医学分院,,,,,,,,,,,,,,,,
2023-07-18T04:00:00,2381A,118.005,28.4572,上饶市,百草园,,28,22,24,19,11,76,4,7,6,13,9,45,4,0.6,0.6
2023-07-18T04:00:00,2382A,117.9756,28.4436,上饶市,市监测站,,27,27,27,14,12,90,11,16,14,19,13,5,6,0.3,0.4
2023-07-18T04:00:00,2383A,117.9519,28.4628,上饶市,凤凰光学,,27,27,30,10,13,86,6,7,7,19,12,9,12,0.7,0.7
2023-07-18T04:00:00,2385A,114.17,35.9019,鹤壁市,市监测站,颗粒物(PM10),63,75,46,31,24,222,119,130,128,26,18,4,6,0.7,0.7
2023-07-18T04:00:00,2386A,114.2956,35.7511,鹤壁市,市交警支队,"颗粒物(PM10),细颗粒物(PM2.5)",64,77,48,46,21,219,84,89,78,37,29,3,9,0.7,0.6
2023-07-18T04:00:00,2387A,114.2878,35.7306,鹤壁市,迎宾馆,颗粒物(PM10),63,76,42,43,24,226,79,66,66,32,25,8,9,0.7,0.7
2023-07-18T04:00:00,2389A,113.836,35.311,新乡市,环保西院,,48,43,56,33,25,199,117,109,109,19,24,5,9,0.9,1
2023-07-18T04:00:00,2390A,113.884,35.272,新乡市,开发区,颗粒物(PM10),52,53,42,34,20,216,94,130,110,24,24,3,5,0.8,0.8
2023-07-18T04:00:00,2391A,113.883,35.303,新乡市,环保东院,颗粒物(PM10),55,59,54,18,16,202,104,131,119,16,19,6,8,0.6,0.6
2023-07-18T04:00:00,2392A,115.0312,35.7636,濮阳市,环保局,,35,26,38,22,23,210,110,135,121,9,15,5,4,0.5,0.5
2023-07-18T04:00:00,2394A,115.0574,35.7609,濮阳市,油田运输公司,,39,38,47,27,25,207,102,128,114,12,17,5,6,0.6,0.6
2023-07-18T04:00:00,2395A,115.0866,35.7754,濮阳市,油田物探公司,,46,45,48,32,24,213,95,111,105,12,15,5,6,0.5,0.3
2023-07-18T04:00:00,2396A,113.8276,34.0159,许昌市,监测站,,48,47,39,33,21,182,113,143,129,14,14,8,5,0.5,0.4
2023-07-18T04:00:00,2398A,113.7906,33.9953,许昌市,开发区,,46,46,40,28,19,185,114,142,131,11,13,3,3,0.7,0.6
2023-07-18T04:00:00,2399A,114.051,33.5699,漯河市,三五一五工厂,,,46,45,24,23,196,75,121,95,18,13,12,12,,0.5
2023-07-18T04:00:00,2400A,114.0055,33.5698,漯河市,漯河大学,,40,37,39,28,23,204,90,134,104,11,9,12,12,0.4,0.4
2023-07-18T04:00:00,2401A,114.0138,33.5828,漯河市,市水利局,,41,41,44,19,20,201,86,135,108,11,12,8,9,0.5,0.5
2023-07-18T04:00:00,2402A,114.0261,33.5698,漯河市,市广电局,,42,42,44,27,24,200,87,131,104,10,12,9,11,0.5,0.6
2023-07-18T04:00:00,2404A,112.5224,33.0122,南阳市,瓦房庄,颗粒物(PM10),53,56,47,24,18,187,120,130,123,11,14,5,5,0.5,0.5
2023-07-18T04:00:00,2405A,112.5003,32.9735,南阳市,汉画馆,,40,40,39,25,20,194,124,139,130,6,7,10,10,0.5,0.4
2023-07-18T04:00:00,2406A,112.5573,33.027,南阳市,气象站,颗粒物(PM10),51,51,38,28,22,192,103,131,118,17,13,5,5,0.5,0.4
2023-07-18T04:00:00,2407A,112.5481,32.9689,南阳市,理工学院,,42,41,35,17,15,189,134,136,135,7,8,5,5,0.5,0.4
2023-07-18T04:00:00,2408A,115.6702,34.4285,商丘市,环境监测站,颗粒物(PM10),51,51,40,28,20,175,61,94,78,22,18,9,10,0.5,0.6
2023-07-18T04:00:00,2409A,115.6458,34.4045,商丘市,粮食局,,40,40,34,28,17,199,69,104,87,14,12,4,3,0.4,0.4
2023-07-18T04:00:00,2410A,115.6293,34.3948,商丘市,睢阳区环保局,,42,42,34,22,18,198,79,104,92,11,12,5,5,0.6,0.6
2023-07-18T04:00:00,2420A,114.0189,32.9656,驻马店市,市一纸厂,,27,26,38,15,18,186,86,90,89,5,12,4,6,0.6,0.6
2023-07-18T04:00:00,2421A,114.0114,33.015,驻马店市,市彩印厂,,33,33,44,16,19,190,80,104,94,9,11,7,8,0.3,0.3
2023-07-18T04:00:00,2422A,113.9976,32.9771,驻马店市,天方二分厂,,35,32,42,24,20,183,88,99,92,6,14,4,5,0.5,0.5
2023-07-18T04:00:00,2423A,115.0601,30.2313,黄石市,沈家营,颗粒物(PM10),55,59,62,7,23,120,18,27,18,39,17,6,7,0.4,0.2
2023-07-18T04:00:00,2424A,115.0817,30.2006,黄石市,陈家湾,颗粒物(PM10),70,89,67,29,28,116,28,57,34,23,12,10,7,1.0,0.7
2023-07-18T04:00:00,2426A,114.8988,30.2019,黄石市,铁山,颗粒物(PM10),53,55,49,33,28,122,36,55,40,26,17,5,11,0.8,0.8
2023-07-18T04:00:00,2427A,115.0307,30.2092,黄石市,团城山,颗粒物(PM10),55,59,56,14,22,116,22,53,32,36,13,16,10,1.1,0.6
2023-07-18T04:00:00,2428A,111.0419,32.395,十堰市,武当山,,39,25,23,18,16,155,122,132,128,6,6,7,8,0.8,0.7
2023-07-18T04:00:00,2429A,110.78,32.6494,十堰市,滨河新村,,30,30,38,18,19,154,69,69,69,5,8,8,7,0.7,0.7
2023-07-18T04:00:00,2430A,110.7258,32.6389,十堰市,刘家沟,,40,40,36,24,21,175,58,79,68,7,7,8,6,0.4,0.4
2023-07-18T04:00:00,2431A,110.8839,32.5714,十堰市,铁二处,,28,24,29,19,15,183,80,102,90,2,3,5,5,0.5,0.5
2023-07-18T04:00:00,2432A,112.155,32.0197,襄阳市,襄城运动路,,49,49,46,29,23,186,74,88,77,21,21,8,7,0.8,0.8
2023-07-18T04:00:00,2433A,112.1392,32.0564,襄阳市,樊城新华路,颗粒物(PM10),59,67,50,29,26,186,46,73,53,33,21,7,8,0.8,0.7
2023-07-18T04:00:00,2434A,112.1825,32.1142,襄阳市,高新管委会,颗粒物(PM10),62,74,53,33,28,196,83,123,93,28,20,9,8,0.4,0.5
2023-07-18T04:00:00,2435A,112.2106,32.0903,襄阳市,襄州航空路,颗粒物(PM10),55,59,50,34,27,185,97,97,97,17,17,7,6,0.7,0.7
2023-07-18T04:00:00,2436A,114.8938,30.3994,鄂州市,市政府,,13,12,43,9,18,125,34,39,38,15,12,3,3,0.4,0.4
2023-07-18T04:00:00,2437A,114.8989,30.3714,鄂州市,赵家坝,颗粒物(PM10),57,63,54,13,19,129,34,62,40,12,13,4,6,0.6,0.6
2023-07-18T04:00:00,2439A,112.2014,31.0481,荆门市,竹园小学,,47,47,47,26,23,186,105,110,108,16,14,10,10,0.7,0.7
2023-07-18T04:00:00,2440A,112.1969,30.9891,荆门市,掇刀,,43,43,43,24,22,183,125,125,125,14,14,12,13,0.6,0.6
2023-07-18T04:00:00,2441A,112.2213,31.0386,荆门市,石化一小,颗粒物(PM10),54,57,46,27,26,188,102,118,108,15,13,8,8,0.4,0.5
2023-07-18T04:00:00,2443A,113.9153,30.9285,孝感市,文化路,,39,39,44,13,30,126,54,71,60,11,11,7,7,0.7,0.8
2023-07-18T04:00:00,2444A,113.942,30.9075,孝感市,东城区,,33,33,44,22,28,127,48,53,48,11,11,6,7,0.6,0.7
2023-07-18T04:00:00,2446A,114.9028,30.4742,黄冈市,职工中心,,19,13,37,5,19,119,60,53,53,1,5,5,6,0.4,0.4
2023-07-18T04:00:00,2447A,114.3175,29.8142,咸宁市,森林公园,,25,25,37,15,20,104,42,57,53,3,4,5,5,0.8,0.9
2023-07-18T04:00:00,2448A,114.3107,29.8454,咸宁市,市发改委,,25,25,36,11,22,130,53,66,59,6,6,4,5,0.6,0.8
2023-07-18T04:00:00,2449A,114.2936,29.8566,咸宁市,咸安区政府,,32,27,40,22,26,128,48,56,53,7,9,2,3,0.6,0.8
2023-07-18T04:00:00,2451A,113.3583,31.7275,随州市,市委党校,,50,47,42,35,26,164,96,128,117,3,5,6,6,0.6,0.6
2023-07-18T04:00:00,2452A,113.3833,31.6908,随州市,市林业局,,49,49,40,33,25,175,110,134,126,8,9,3,4,0.7,0.6
2023-07-18T04:00:00,2453A,113.3983,31.7308,随州市,市立交桥水厂,,50,47,36,35,24,162,88,120,108,9,10,6,7,0.7,0.6
2023-07-18T04:00:00,2454A,109.4978,30.2981,恩施土家族苗族自治州,湖北民院,,31,31,32,18,17,157,94,98,96,2,9,9,10,0.6,0.6
2023-07-18T04:00:00,2455A,109.4707,30.2798,恩施土家族苗族自治州,州电力总公司,,45,35,28,31,20,146,41,84,60,23,16,9,9,0.5,0.6
2023-07-18T04:00:00,2456A,112.5003,26.9167,衡阳市,原169医院,颗粒物(PM10),53,56,50,31,25,123,58,62,60,7,6,8,8,0.6,0.5
2023-07-18T04:00:00,2457A,112.6194,26.9258,衡阳市,衡阳化工总厂,颗粒物(PM10),52,53,53,23,28,135,57,77,68,12,8,42,20,0.7,0.6
2023-07-18T04:00:00,2458A,112.6211,26.8956,衡阳市,珠晖区环保局,,,46,49,,,138,61,72,66,11,13,6,10,0.7,0.6
2023-07-18T04:00:00,2459A,112.6197,26.8733,衡阳市,市委党校,,43,38,41,30,25,147,67,87,76,11,8,9,9,0.8,0.7
2023-07-18T04:00:00,2460A,112.6006,26.8919,衡阳市,市监测站,,42,37,49,29,30,137,65,76,70,10,9,19,13,0.7,0.6
2023-07-18T04:00:00,2461A,112.5664,26.9056,衡阳市,真空机电公司,颗粒物(PM10),54,57,48,32,27,135,46,74,61,15,7,7,7,0.9,0.7
2023-07-18T04:00:00,2462A,111.5239,27.3033,邵阳市,市水土所,,46,38,47,32,35,128,120,124,122,4,5,7,7,0.5,0.6
2023-07-18T04:00:00,2463A,111.4733,27.2317,邵阳市,市一中,,42,42,50,22,24,134,119,120,120,2,3,5,6,0.6,0.6
2023-07-18T04:00:00,2464A,111.5283,27.2442,邵阳市,市化工厂,,38,38,38,24,24,137,116,121,118,4,6,4,5,0.7,0.6
2023-07-18T04:00:00,2465A,111.4503,27.2537,邵阳市,市罐头厂,,39,34,40,27,27,130,117,123,121,4,6,4,4,0.5,0.5
2023-07-18T04:00:00,2466A,111.4328,27.2272,邵阳市,市环保局,,39,36,40,27,28,135,124,130,128,3,5,4,5,0.6,0.5
2023-07-18T04:00:00,2467A,112.4067,28.6428,益阳市,甘溪港,,42,42,52,9,8,139,93,100,96,3,3,3,4,0.7,0.7
2023-07-18T04:00:00,2468A,112.3458,28.5808,益阳市,市环保局,,45,43,49,31,28,156,106,127,115,6,6,2,2,0.8,0.8
2023-07-18T04:00:00,2469A,112.3437,28.5531,益阳市,市特殊教育学校,细颗粒物(PM2.5),63,66,61,45,33,156,101,116,107,3,4,3,3,0.7,0.7
2023-07-18T04:00:00,2470A,112.3347,28.6047,益阳市,资阳区政务中心,细颗粒物(PM2.5),53,47,46,37,25,143,101,122,107,5,6,2,2,0.8,0.8
2023-07-18T04:00:00,2471A,112.3744,28.5819,益阳市,赫山环保分局,颗粒物(PM10),56,62,59,24,25,151,102,117,109,8,8,4,4,0.8,0.8
2023-07-18T04:00:00,2472A,113.0073,25.9061,郴州市,马头岭,,29,29,37,20,18,108,22,43,36,43,24,3,3,0.1,0.1
2023-07-18T04:00:00,2473A,113.0116,25.8226,郴州市,市职中,,34,34,34,23,25,121,46,66,59,16,12,2,3,0.7,0.6
2023-07-18T04:00:00,2474A,113.0161,25.8001,郴州市,兴隆步行街,,43,43,39,24,22,110,46,60,57,14,12,3,4,0.7,0.7
2023-07-18T04:00:00,2475A,113.0383,25.8071,郴州市,市审计局,,43,35,31,30,24,111,44,54,51,15,10,2,3,0.6,0.6
