timepoint,stationcode,longitude,latitude,area,positionname,primarypollutant,aqi,pm10,pm10_24h,pm2_5,pm2_5_24h,o3,o3_24h,o3_8h,o3_8h_24h,no2,no2_24h,so2,so2_24h,co,co_24h
2024-05-03T0700,2566A,102.1879,31.914,阿坝藏族羌族自治州,州农科所,,14,14,28,6,10,14,,,,6,11,3,3,0,0
2024-05-03T0700,2568A,102.2502,31.8896,阿坝藏族羌族自治州,马师校,,23,20,14,16,14,38,,,,10,8,3,3,0.3,0.3
2024-05-03T0700,3994A,102.2165,31.9024,阿坝藏族羌族自治州,马尔康中学西区,,25,25,19,14,15,46,,,,7,7,5,5,0.3,0.3
2024-05-03T0700,2695A,80.292,41.1694,阿克苏地区,电视台,颗粒物(PM10),59,68,107,33,38,36,,,,19,17,6,4,0.4,0.4
2024-05-03T0700,2696A,80.2613,41.1551,阿克苏地区,艺术中心,颗粒物(PM10),57,64,98,29,40,0,,,,63,34,3,4,0.7,0.4
2024-05-03T0700,2204A,105.6467,38.8363,阿拉善盟,西城区西花园,,22,22,39,7,12,65,,,,12,9,8,9,0.5,0.6
2024-05-03T0700,2205A,105.6985,38.8411,阿拉善盟,蒙二幼,,25,15,39,5,10,77,,,,5,8,8,8,0.4,0.3
2024-05-03T0700,2206A,105.724,38.8516,阿拉善盟,环保局新楼,,25,7,27,3,8,78,,,,7,7,9,9,0.4,0.3
2024-05-03T0700,2708A,88.1264,47.8517,阿勒泰地区,市站,,29,,9,10,6,90,,,,1,7,5,5,0.3,0.4
2024-05-03T0700,2630A,80.1161,32.5,阿里地区,阿里监测站,,35,35,30,17,16,56,,,,31,16,10,6,0.5,0.5
2024-05-03T0700,3192A,80.0903,32.5028,阿里地区,阿里藏医院,,31,25,25,20,16,98,,,,7,7,11,10,0.5,0.5
2024-05-03T0700,2642A,109.0318,32.6537,安康市,香溪洞,,22,22,22,15,11,46,,,,4,6,6,7,0.4,0.4
2024-05-03T0700,2643A,109.0281,32.6939,安康市,安康市监测站,,35,35,29,22,17,42,,,,9,10,9,9,0.4,0.4
2024-05-03T0700,2644A,109.0072,32.6975,安康市,汉滨区检察院,,46,46,32,26,20,32,,,,9,10,9,9,0.5,0.5
2024-05-03T0700,2291A,117.0809,30.5177,安庆市,环科院,,50,43,45,35,28,78,,,,28,21,12,11,0.7,0.6
2024-05-03T0700,2292A,117.0331,30.5119,安庆市,马山宾馆,颗粒物(PM10),52,54,44,35,27,84,,,,30,21,12,10,0.7,0.6
2024-05-03T0700,2294A,116.9896,30.6145,安庆市,安庆大学,,43,38,37,30,24,73,,,,16,15,8,10,0.5,0.5
2024-05-03T0700,3173A,117.0598,30.5351,安庆市,市人大,细颗粒物(PM2.5),52,51,45,36,28,83,,,,26,18,10,9,0.9,0.8
2024-05-03T0700,3123A,105.9408,26.2431,安顺市,凤凰山,,16,11,11,11,9,31,,,,7,7,8,9,0.5,0.5
2024-05-03T0700,3124A,105.9439,26.2564,安顺市,金钟山,,20,,12,14,8,33,,,,6,7,5,6,0.3,0.3
2024-05-03T0700,3125A,105.8983,26.2481,安顺市,娄家坡,,27,27,19,8,9,31,,,,7,7,6,7,0.5,0.4
2024-05-03T0700,1819A,114.3551,36.1017,安阳市,红庙街,细颗粒物(PM2.5),63,72,66,45,29,45,,,,42,16,14,10,0.8,0.6
2024-05-03T0700,1820A,114.361,36.0681,安阳市,银杏小区,细颗粒物(PM2.5),60,56,66,43,33,52,,,,28,15,28,13,0.7,0.6
2024-05-03T0700,3141A,114.3922,36.0878,安阳市,信访局,"颗粒物(PM10),细颗粒物(PM2.5)",55,59,65,39,32,68,,,,30,15,40,7,0.6,0.6
2024-05-03T0700,3669A,114.4705,36.0637,安阳市,左辅环卫站,"颗粒物(PM10),细颗粒物(PM2.5)",64,77,65,46,34,55,,,,35,16,16,10,0.6,0.6
2024-05-03T0700,3703A,114.2917,36.0949,安阳市,安钢职工学校,颗粒物(PM10),108,165,74,67,37,14,,,,66,26,22,14,1.1,0.6
2024-05-03T0700,1748A,123.044,41.1196,鞍山市,深沟寺,颗粒物(PM10),69,87,74,40,24,153,,,,19,15,20,13,1.2,0.8
2024-05-03T0700,1749A,123.011,41.0931,鞍山市,太阳城,颗粒物(PM10),65,79,66,35,22,150,,,,22,17,21,14,1.4,1
2024-05-03T0700,1750A,123.0485,41.1442,鞍山市,太平,颗粒物(PM10),72,93,83,47,29,152,,,,25,19,20,13,1.1,0.9
2024-05-03T0700,1751A,122.9642,41.0971,鞍山市,铁西三道街,颗粒物(PM10),77,104,79,45,29,140,,,,27,20,14,11,1.1,0.7
2024-05-03T0700,1752A,122.9341,41.0833,鞍山市,铁西工业园区,颗粒物(PM10),65,79,66,44,30,149,,,,20,15,19,12,1.1,0.7
2024-05-03T0700,1753A,123.022,41.0821,鞍山市,明达新区,颗粒物(PM10),61,72,68,33,22,150,,,,19,15,22,16,1.2,0.9
2024-05-03T0700,2195A,107.4212,40.761,巴彦淖尔市,附二中,细颗粒物(PM2.5),100,,66,75,33,44,,,,24,12,7,4,0.6,0.4
2024-05-03T0700,2196A,107.37,40.7372,巴彦淖尔市,市环保大楼,颗粒物(PM10),51,52,76,21,18,51,,,,14,7,7,4,0.5,0.4
2024-05-03T0700,1956A,86.1472,41.7538,巴音郭楞蒙古自治州,孔雀公园,,38,37,190,10,58,8,,,,75,44,7,7,0.4,0.4
2024-05-03T0700,1957A,86.1972,41.7166,巴音郭楞蒙古自治州,棉纺厂,,40,40,207,12,63,55,,,,22,22,3,3,0.2,0.3
2024-05-03T0700,1958A,86.2357,41.7173,巴音郭楞蒙古自治州,经济开发区,,27,27,166,9,65,76,,,,6,11,6,7,0.2,0.2
2024-05-03T0700,2914A,106.7677,31.8794,巴中市,苏山坪,,18,7,10,5,7,55,,,,4,5,3,3,0.3,0.4
2024-05-03T0700,3182A,106.7656,31.8545,巴中市,丽阳花园,,14,8,14,5,8,42,,,,8,13,4,4,0.4,0.5
2024-05-03T0700,3183A,106.7418,31.8654,巴中市,圣泉水务公司,,14,9,9,7,7,42,,,,8,11,4,4,0.5,0.5
2024-05-03T0700,3616A,106.7616,31.8344,巴中市,市中心医院,,15,8,15,4,11,45,,,,5,12,4,4,0.4,0.5
2024-05-03T0700,2235A,122.7911,45.6077,白城市,洮北区环保局,,45,45,33,25,12,52,,,,15,10,7,5,0.2,0.1
2024-05-03T0700,2236A,122.8738,45.5725,白城市,市环保局,颗粒物(PM10),52,53,41,22,10,41,,,,33,16,14,6,0.6,0.3
2024-05-03T0700,2231A,126.4219,41.9171,白山市,喜丰,颗粒物(PM10),63,75,57,33,19,37,,,,34,18,13,11,0.9,0.8
2024-05-03T0700,2232A,126.4077,41.9419,白山市,环保局,颗粒物(PM10),70,89,60,32,22,37,,,,35,22,11,11,0.6,0.6
2024-05-03T0700,2647A,104.1724,36.5446,白银市,第三小学,,45,20,13,15,8,36,,,,17,13,134,42,0.7,0.7
2024-05-03T0700,2648A,104.1465,36.5482,白银市,动力公司,,16,12,13,11,8,40,,,,12,11,25,22,0.8,0.7
2024-05-03T0700,2512A,106.6103,23.9011,百色市,市监测站,,18,18,20,11,11,20,,,,14,11,10,8,0.8,0.7
2024-05-03T0700,2513A,106.6538,23.8859,百色市,市中心血站,,25,25,21,16,14,20,,,,16,15,6,6,0.9,0.8
2024-05-03T0700,3406A,106.6085,23.8798,百色市,祈福高中,,40,,21,28,21,21,,,,13,10,8,9,0.9,0.8
2024-05-03T0700,2270A,117.396,32.939,蚌埠市,工人疗养院,,44,44,41,18,17,54,,,,48,22,10,10,0.3,0.3
2024-05-03T0700,2271A,117.3605,32.9427,蚌埠市,百货大楼,颗粒物(PM10),51,52,41,26,16,59,,,,48,23,7,6,0.5,0.4
2024-05-03T0700,2273A,117.4185,32.8911,蚌埠市,蚌埠学院,颗粒物(PM10),53,56,39,29,20,49,,,,38,23,9,9,0.4,0.4
2024-05-03T0700,2274A,117.3533,32.9673,蚌埠市,淮上区政府,细颗粒物(PM2.5),60,61,48,43,24,59,,,,32,22,6,8,0.4,0.3
2024-05-03T0700,2275A,117.3145,32.8977,蚌埠市,高新区,颗粒物(PM10),52,53,36,35,19,29,,,,79,15,27,7,0.4,0.2
2024-05-03T0700,3715A,117.3092,32.9314,蚌埠市,蚌埠田家炳中学,颗粒物(PM10),53,56,40,30,19,65,,,,35,14,12,7,0.4,0.4
2024-05-03T0700,1585A,109.8756,40.6532,包头市,市环境监测站,颗粒物(PM10),67,83,64,45,32,41,,,,55,39,21,18,0.8,0.5
2024-05-03T0700,1587A,109.9991,40.5842,包头市,包头八中,颗粒物(PM10),71,92,73,49,28,46,,,,69,43,18,11,1.2,0.7
2024-05-03T0700,1588A,109.8538,40.6821,包头市,青山宾馆,颗粒物(PM10),59,68,51,38,25,29,,,,60,35,22,17,0.6,0.4
2024-05-03T0700,1589A,109.8642,40.6288,包头市,惠龙物流,颗粒物(PM10),67,84,59,39,28,38,,,,65,32,35,19,0.8,0.5
2024-05-03T0700,1590A,110.0377,40.5546,包头市,东河鸿龙湾,颗粒物(PM10),63,75,70,35,27,50,,,,50,32,32,15,0.8,0.8
2024-05-03T0700,3283A,109.9154,40.5685,包头市,滨河大厦,颗粒物(PM10),57,63,57,34,27,42,,,,54,38,21,16,0.7,0.5
2024-05-03T0700,3419A,109.9447,40.6261,包头市,包头市委党校,颗粒物(PM10),68,86,74,36,25,44,,,,68,41,28,26,0.9,0.7
2024-05-03T0700,3683A,109.8331,40.6576,包头市,昆区政府,颗粒物(PM10),64,77,57,38,28,45,,,,62,34,33,19,1.0,0.7
2024-05-03T0700,1930A,107.185,34.3063,宝鸡市,庙沟村,,21,21,30,10,20,31,,,,10,14,8,9,0.6,0.7
2024-05-03T0700,1931A,107.0708,34.3017,宝鸡市,竹园沟,,22,19,36,15,26,23,,,,15,18,4,4,0.5,0.6
2024-05-03T0700,1932A,107.1906,34.3672,宝鸡市,三陆医院,,48,48,44,15,31,12,,,,26,26,5,7,0.4,0.5
2024-05-03T0700,1933A,107.1431,34.3547,宝鸡市,监测站,,30,22,35,21,33,22,,,,18,25,7,7,0.5,0.5
2024-05-03T0700,1934A,107.1186,34.3739,宝鸡市,技工学校,,21,21,33,12,26,25,,,,11,16,5,6,0.5,0.5
2024-05-03T0700,1935A,107.3906,34.3528,宝鸡市,陈仓区环保局家属楼,,43,,39,30,39,17,,,,22,19,3,5,0.5,0.5
2024-05-03T0700,1936A,107.2058,34.3497,宝鸡市,文理学院,,26,20,38,18,32,20,,,,16,21,5,6,0.4,0.5
2024-05-03T0700,1937A,107.2386,34.3622,宝鸡市,三迪小学,,32,28,42,22,39,14,,,,22,20,6,7,0.5,0.6
2024-05-03T0700,1051A,115.493,38.8632,保定市,游泳馆,颗粒物(PM10),94,137,103,55,38,17,,,,53,16,2,3,0.3,0.3
2024-05-03T0700,1052A,115.5213,38.8959,保定市,华电二区,细颗粒物(PM2.5),69,83,66,50,34,33,,,,61,20,8,7,0.7,0.5
2024-05-03T0700,1053A,115.4713,38.9108,保定市,接待中心,颗粒物(PM10),69,87,68,44,29,48,,,,33,14,6,9,0.6,0.5
2024-05-03T0700,1054A,115.4612,38.8416,保定市,地表水厂,颗粒物(PM10),84,117,89,56,44,27,,,,65,26,6,6,0.5,0.3
2024-05-03T0700,3581A,115.31981,38.95208,保定市,满城区生态环境分局,细颗粒物(PM2.5),77,88,90,56,42,45,,,,29,17,2,4,0.3,0.4
2024-05-03T0700,3582A,115.47694,38.76408,保定市,清苑区第二中学,颗粒物(PM10),77,104,90,46,35,54,,,,47,27,9,8,0.4,0.4
2024-05-03T0700,3583A,115.62909,39.02311,保定市,徐水物探局,颗粒物(PM10),76,102,95,51,35,68,,,,28,19,9,7,0.4,0.2
2024-05-03T0700,4004A,115.4202,38.8656,保定市,双鹰农机,颗粒物(PM10),79,107,77,55,36,36,,,,59,22,7,7,0.4,0.3
2024-05-03T0700,4034A,115.5150,38.8590,保定市,植保所站,颗粒物(PM10),71,92,80,47,45,47,,,,45,21,8,8,0.6,0.5
2024-05-03T0700,2594A,99.1678,25.1081,保山市,市环境监测站,,28,17,28,16,13,89,,,,8,8,8,8,0.9,1
2024-05-03T0700,2595A,99.1711,25.1328,保山市,市环保局,,29,29,35,12,19,69,,,,6,6,6,6,0.7,0.7
2024-05-03T0700,1867A,109.1436,21.4086,北海市,海滩公园,,21,16,20,5,6,67,,,,6,9,6,7,0.6,0.6
2024-05-03T0700,1868A,109.0981,21.4661,北海市,新市环保局,,20,15,22,14,11,56,,,,11,12,6,7,0.7,0.7
2024-05-03T0700,1869A,109.1778,21.5233,北海市,北海工业园,,40,40,28,12,14,44,,,,14,13,10,10,0.6,0.6
2024-05-03T0700,1001A,116.3621,39.8784,北京市,万寿西宫,颗粒物(PM10),72,94,80,45,35,34,,,,54,28,1,2,0.5,0.4
2024-05-03T0700,1003A,116.4174,39.9289,北京市,东四,颗粒物(PM10),79,108,96,47,36,46,,,,37,25,3,4,0.7,0.6
2024-05-03T0700,1004A,116.4072,39.8863,北京市,天坛,颗粒物(PM10),57,64,58,38,30,13,,,,25,28,1,3,0.4,0.4
2024-05-03T0700,1005A,116.462,39.9365,北京市,农展馆,颗粒物(PM10),70,89,79,46,35,32,,,,48,29,3,4,0.5,0.4
2024-05-03T0700,1006A,116.3392,39.9295,北京市,官园,颗粒物(PM10),74,97,87,41,34,34,,,,64,24,3,4,0.5,0.4
2024-05-03T0700,1007A,116.2878,39.9611,北京市,海淀万柳,颗粒物(PM10),68,86,83,39,33,50,,,,52,31,4,6,0.6,0.5
2024-05-03T0700,1008A,116.6636,40.135,北京市,顺义新城,颗粒物(PM10),59,68,72,39,33,37,,,,37,33,2,3,0.4,0.4
2024-05-03T0700,1009A,116.6275,40.3275,北京市,怀柔镇,颗粒物(PM10),56,61,64,35,29,71,,,,14,16,3,5,0.1,0.2
2024-05-03T0700,1010A,116.2296,40.217,北京市,昌平镇,颗粒物(PM10),59,68,80,34,30,80,,,,15,21,1,2,0.4,0.4
2024-05-03T0700,1011A,116.3966,39.9821,北京市,奥体中心,颗粒物(PM10),71,91,74,41,32,19,,,,74,29,3,3,0.5,0.4
2024-05-03T0700,1012A,116.184,39.9136,北京市,古城,颗粒物(PM10),65,79,91,34,30,80,,,,28,30,2,3,0.3,0.3
2024-05-03T0700,3281A,115.9718,40.4529,北京市,延庆夏都,颗粒物(PM10),57,64,66,38,30,68,,,,14,16,1,2,0.4,0.3
2024-05-03T0700,3417A,117.0709,40.1465,北京市,平谷新城,颗粒物(PM10),55,59,73,34,35,42,,,,19,16,3,3,0.3,0.4
2024-05-03T0700,3418A,116.8336,40.4095,北京市,密云新城,颗粒物(PM10),56,61,69,30,30,87,,,,13,18,1,2,0.3,0.4
2024-05-03T0700,3672A,116.1541,39.8204,北京市,丰台云岗,颗粒物(PM10),65,80,82,33,31,44,,,,27,26,3,3,0.4,0.4
2024-05-03T0700,3673A,116.6804,39.9081,北京市,通州东关,颗粒物(PM10),71,91,74,41,32,25,,,,65,28,1,3,0.4,0.4
2024-05-03T0700,3674A,115.9577,39.7603,北京市,房山燕山,颗粒物(PM10),62,74,86,34,32,29,,,,50,24,1,3,0.5,0.4
2024-05-03T0700,3675A,116.4672,39.7733,北京市,大兴旧宫,颗粒物(PM10),60,69,74,36,31,47,,,,29,23,1,2,0.4,0.4
2024-05-03T0700,3694A,115.986,40.4563,北京市,延庆石河营,颗粒物(PM10),56,62,61,38,30,55,,,,14,14,3,2,0.3,0.3
2024-05-03T0700,3695A,116.6151,40.3053,北京市,怀柔新城,颗粒物(PM10),57,63,71,36,32,71,,,,11,15,3,3,0.4,0.4
2024-05-03T0700,3696A,116.2545,39.8768,北京市,丰台小屯,颗粒物(PM10),69,88,81,42,33,8,,,,57,39,3,3,0.4,0.3
2024-05-03T0700,3697A,116.84,40.3844,北京市,密云镇,颗粒物(PM10),58,66,66,33,29,32,,,,36,27,1,3,0.5,0.4
2024-05-03T0700,1761A,123.8275,41.3064,本溪市,大峪,"颗粒物(PM10),细颗粒物(PM2.5)",94,137,66,70,28,69,,,,41,22,11,12,1.1,0.9
2024-05-03T0700,1762A,123.7567,41.3325,本溪市,溪湖,颗粒物(PM10),80,110,84,54,36,39,,,,52,31,19,24,1.9,1.9
2024-05-03T0700,1763A,123.7169,41.3094,本溪市,彩屯,细颗粒物(PM2.5),100,148,62,75,29,44,,,,70,27,41,17,5.8,1.7
2024-05-03T0700,1764A,123.7669,41.2864,本溪市,东明,颗粒物(PM10),84,118,77,61,33,59,,,,53,29,13,16,1.0,1
2024-05-03T0700,1765A,123.7992,41.2664,本溪市,新立屯,细颗粒物(PM2.5),104,111,86,78,28,73,,,,42,28,13,14,0.9,0.7
2024-05-03T0700,1766A,123.8142,41.3472,本溪市,威宁,颗粒物(PM10),61,72,84,41,26,62,,,,36,35,7,9,1.1,0.9
2024-05-03T0700,2587A,105.2864,27.3125,毕节市,八中,,10,6,18,3,16,30,,,,7,12,4,6,0.5,0.5
2024-05-03T0700,2588A,105.31,27.2944,毕节市,师专,,11,5,17,3,14,33,,,,6,13,6,11,0.5,0.5
2024-05-03T0700,3537A,105.3631,27.3533,毕节市,长征村,,10,10,21,7,16,32,,,,6,9,7,9,0.4,0.4
2024-05-03T0700,1629A,118.0018,37.3617,滨州市,第二水厂,颗粒物(PM10),74,97,78,51,42,39,,,,60,32,11,14,1.0,0.8
2024-05-03T0700,1630A,117.9776,37.393,滨州市,北中新校,细颗粒物(PM2.5),85,102,70,63,37,23,,,,60,40,12,13,1.0,0.8
2024-05-03T0700,3514A,117.9378,37.3956,滨州市,中海酒店,细颗粒物(PM2.5),79,70,71,58,42,28,,,,66,48,12,16,0.8,0.8
2024-05-03T0700,3515A,117.9378,37.3553,滨州市,开发区一中,细颗粒物(PM2.5),79,95,79,58,39,28,,,,75,35,13,15,0.9,0.8
2024-05-03T0700,3516A,118.0917,37.694,滨州市,金海六路,颗粒物(PM10),81,112,76,53,30,51,,,,44,44,14,11,0.8,0.6
2024-05-03T0700,4028A,117.9956,37.3753,滨州市,滨州市西街道办事处,细颗粒物(PM2.5),89,107,85,66,49,39,,,,54,37,14,14,1.0,0.9
2024-05-03T0700,2311A,115.8072,33.8399,亳州市,污水处理厂,,46,46,40,23,15,79,,,,23,16,14,12,0.3,0.3
2024-05-03T0700,2312A,115.7789,33.8518,亳州市,三国揽胜宫,颗粒物(PM10),52,54,50,26,18,81,,,,22,13,14,11,0.3,0.3
2024-05-03T0700,3332A,115.7633,33.8034,亳州市,亳州学院,,50,50,39,26,18,87,,,,18,10,12,10,0.4,0.3
2024-05-03T0700,2693A,82.0485,44.8556,博尔塔拉蒙古自治州,市党校,,48,48,39,9,11,37,,,,8,6,6,6,0.2,0.2
2024-05-03T0700,2694A,82.0806,44.8969,博尔塔拉蒙古自治州,市环保局,颗粒物(PM10),53,55,49,11,15,35,,,,14,13,9,9,0.2,0.2
2024-05-03T0700,1071A,116.8842,38.2991,沧州市,沧县城建局,颗粒物(PM10),63,76,65,42,27,105,,,,26,20,8,5,0.6,0.5
2024-05-03T0700,1072A,116.8584,38.3254,沧州市,电视转播站,颗粒物(PM10),68,85,74,46,34,81,,,,22,16,10,5,0.3,0.3
2024-05-03T0700,1073A,116.8709,38.3228,沧州市,市环保局,颗粒物(PM10),68,86,70,34,29,92,,,,39,29,8,4,0.4,0.4
2024-05-03T0700,3324A,116.8136,38.3004,沧州市,河北水利电力学院,颗粒物(PM10),63,75,73,44,36,100,,,,29,23,10,9,0.3,0.3
2024-05-03T0700,2622A,97.1806,31.1273,昌都市,昌都监测站,,39,20,15,14,9,122,,,,11,9,9,8,0.5,0.5
2024-05-03T0700,3719A,97.1714,31.1406,昌都市,昌都会议中心,,40,13,13,13,9,127,,,,6,12,10,10,0.3,0.3
2024-05-03T0700,2690A,88.1236,43.8886,昌吉回族自治州,天山天池,,18,0,13,0,7,55,,,,5,6,3,4,0.4,0.5
2024-05-03T0700,2692A,87.2717,44.0297,昌吉回族自治州,新区政务中心,颗粒物(PM10),54,57,224,16,47,13,,,,34,18,6,7,0.8,0.5
2024-05-03T0700,3613A,87.3095,44.0142,昌吉回族自治州,亚心广场,颗粒物(PM10),58,66,246,14,46,27,,,,30,18,7,6,1.1,0.3
2024-05-03T0700,1119A,125.3325,43.9166,长春市,食品厂,颗粒物(PM10),56,61,87,29,45,94,,,,37,44,10,10,0.6,0.7
2024-05-03T0700,1120A,125.2863,43.9027,长春市,客车厂,颗粒物(PM10),54,57,77,31,37,105,,,,28,36,8,7,0.6,0.6
2024-05-03T0700,1121A,125.2841,43.8463,长春市,邮电学院,颗粒物(PM10),54,58,75,36,35,88,,,,30,26,10,10,0.5,0.5
2024-05-03T0700,1122A,125.3716,43.8772,长春市,劳动公园,颗粒物(PM10),53,55,80,29,39,91,,,,32,31,7,7,0.6,0.6
2024-05-03T0700,1123A,125.3297,43.8805,长春市,园林处,颗粒物(PM10),52,53,65,26,30,99,,,,28,29,11,11,0.5,0.5
2024-05-03T0700,1124A,125.4605,43.79,长春市,净月潭,,36,36,64,25,30,112,,,,9,12,10,10,0.5,0.4
2024-05-03T0700,1126A,125.3863,43.8447,长春市,经开区环卫处,颗粒物(PM10),55,59,79,31,34,84,,,,32,33,8,8,0.6,0.6
2024-05-03T0700,1127A,125.245,43.7783,长春市,高新区管委会,颗粒物(PM10),54,57,77,36,39,71,,,,32,31,9,9,0.5,0.5
2024-05-03T0700,1128A,125.1761,43.8325,长春市,岱山公园,颗粒物(PM10),60,69,77,42,39,80,,,,48,34,10,9,0.7,0.6
2024-05-03T0700,1335A,113.0833,28.2325,长沙市,经开区环保局,,39,31,27,27,22,34,,,,8,9,8,8,0.4,0.5
2024-05-03T0700,1336A,112.8872,28.2189,长沙市,高开区环保局,,38,29,34,26,33,50,,,,11,15,5,5,0.7,0.7
2024-05-03T0700,1337A,113.0792,28.2053,长沙市,马坡岭,,33,27,28,23,25,28,,,,5,4,7,7,0.5,0.5
2024-05-03T0700,1338A,112.9394,28.19,长沙市,湖南师范大学,,33,33,41,22,26,53,,,,8,10,4,3,0.6,0.7
2024-05-03T0700,1339A,113.0178,28.1322,长沙市,雨花区环保局,,34,34,33,19,24,50,,,,12,17,5,5,0.5,0.6
2024-05-03T0700,1340A,112.9792,28.2597,长沙市,伍家岭,细颗粒物(PM2.5),57,44,41,40,35,22,,,,14,13,6,6,1.0,1
2024-05-03T0700,1341A,113.0014,28.1944,长沙市,火车新站,,32,30,33,22,25,38,,,,18,18,3,3,0.7,0.7
2024-05-03T0700,1342A,112.9844,28.1178,长沙市,天心区环保局,,36,36,35,22,22,56,,,,12,20,3,2,0.4,0.5
2024-05-03T0700,1343A,112.8908,28.1308,长沙市,湖南中医药大学,,50,,35,35,40,54,,,,6,15,7,7,0.8,0.9
2024-05-03T0700,1344A,112.9581,28.3611,长沙市,沙坪,,27,27,26,16,18,36,,,,3,3,7,7,0.7,0.7
2024-05-03T0700,1727A,113.1147,36.1547,长治市,清华站,颗粒物(PM10),55,59,45,29,23,107,,,,24,16,16,11,0.5,0.5
2024-05-03T0700,1728A,113.1031,36.1989,长治市,监测站,颗粒物(PM10),56,62,51,27,24,90,,,,33,24,22,15,2.1,0.8
2024-05-03T0700,1730A,113.0886,36.2125,长治市,审计局,颗粒物(PM10),51,52,42,27,23,108,,,,22,15,18,15,1.6,0.4
2024-05-03T0700,1731A,113.0844,36.1856,长治市,长治八中,颗粒物(PM10),60,70,51,22,28,100,,,,34,21,13,10,1.0,0.7
2024-05-03T0700,2845A,113.1569,36.1911,长治市,德盛苑,,39,34,38,27,24,123,,,,17,13,6,7,0.7,0.6
2024-05-03T0700,3568A,113.06,36.0464,长治市,向阳小学,,47,47,66,31,36,118,,,,15,18,12,14,0.6,0.6
2024-05-03T0700,3569A,112.8792,36.3144,长治市,屯留一中,细颗粒物(PM2.5),57,54,47,40,26,50,,,,44,20,8,11,0.9,0.7
2024-05-03T0700,3570A,113.235,36.3489,长治市,潞城四中,颗粒物(PM10),55,59,58,38,32,40,,,,57,33,7,8,1.0,0.6
2024-05-03T0700,1854A,111.6975,28.9703,常德市,市二中,,39,36,44,27,31,93,,,,16,19,8,8,0.5,0.5
2024-05-03T0700,3138A,111.7153,29.0289,常德市,武陵区永安,,32,25,37,18,28,101,,,,5,11,6,8,0.5,0.5
2024-05-03T0700,3139A,111.6892,28.9881,常德市,鼎城区玉霞,,33,24,39,22,31,105,,,,5,11,9,10,0.5,0.5
2024-05-03T0700,3140A,111.6625,29.0531,常德市,武陵区长庚,,27,20,36,18,31,86,,,,6,10,8,9,0.6,0.6
2024-05-03T0700,1196A,119.9633,31.762,常州市,市监测站,颗粒物(PM10),64,78,49,29,25,47,,,,25,22,8,11,0.5,0.6
2024-05-03T0700,1200A,119.9468,31.7069,常州市,武进监测站,颗粒物(PM10),59,68,46,21,20,46,,,,26,25,8,9,0.7,0.8
2024-05-03T0700,1201A,119.9255,31.9087,常州市,安家,颗粒物(PM10),64,77,47,28,21,35,,,,21,19,9,9,0.8,0.6
2024-05-03T0700,3002A,119.9805,31.8174,常州市,行政中心,颗粒物(PM10),58,66,44,27,20,45,,,,33,27,4,7,0.5,0.6
2024-05-03T0700,3003A,120.0522,31.7748,常州市,经开区,颗粒物(PM10),65,79,51,23,21,47,,,,28,28,6,9,0.4,0.6
2024-05-03T0700,3010A,119.9025,31.7964,常州市,钟楼,颗粒物(PM10),58,66,42,20,21,51,,,,23,23,8,10,0.5,0.7
2024-05-03T0700,3429A,119.8598,31.7066,常州市,武进经发区,颗粒物(PM10),54,57,45,26,21,45,,,,25,28,8,10,0.8,0.9
2024-05-03T0700,3430A,119.5826,31.7245,常州市,金坛城区,颗粒物(PM10),51,52,42,26,22,42,,,,22,25,7,8,0.8,0.7
2024-05-03T0700,2220A,120.4318,41.5881,朝阳市,西梁,细颗粒物(PM2.5),53,46,36,37,21,111,,,,21,12,15,14,0.9,0.6
2024-05-03T0700,2221A,120.4521,41.5646,朝阳市,河畔小区,颗粒物(PM10),54,57,55,37,26,127,,,,16,16,9,10,0.7,0.6
2024-05-03T0700,2222A,120.4176,41.5648,朝阳市,八里堡,颗粒物(PM10),56,62,66,38,25,98,,,,28,22,11,17,0.9,0.9
2024-05-03T0700,2223A,120.3806,41.5969,朝阳市,农业园区,细颗粒物(PM2.5),64,,38,46,33,140,,,,18,14,10,9,0.7,0.5
2024-05-03T0700,1705A,116.6367,23.6719,潮州市,西园路,,32,25,25,22,16,76,,,,13,11,9,6,0.2,0.3
2024-05-03T0700,3026A,116.6183,23.6608,潮州市,市政府,,30,30,32,20,16,75,,,,14,13,12,7,0.7,0.7
2024-05-03T0700,4036A,116.6461,23.6761,潮州市,金山,,27,27,26,17,11,76,,,,13,10,9,8,0.5,0.6
2024-05-03T0700,2472A,113.0073,25.9061,郴州市,马头岭,,22,22,24,5,9,31,,,,8,10,8,9,0.9,0.9
2024-05-03T0700,2473A,113.0116,25.8226,郴州市,市职中,,35,33,25,24,22,26,,,,9,12,8,8,0.8,0.8
2024-05-03T0700,2474A,113.0161,25.8001,郴州市,兴隆步行街,,29,25,27,20,21,27,,,,10,11,12,10,0.8,0.7
2024-05-03T0700,2475A,113.0383,25.8071,郴州市,市审计局,,29,29,26,18,16,23,,,,12,11,12,10,0.8,0.7
2024-05-03T0700,2476A,113.0348,25.7759,郴州市,市环保局,,46,,28,32,23,27,,,,10,9,9,9,0.8,0.8
2024-05-03T0700,1431A,103.9728,30.7236,成都市,金泉两河,,21,21,25,13,11,45,,,,4,9,1,2,0.3,0.3
2024-05-03T0700,1432A,104.176,30.6872,成都市,十里店,,27,27,27,12,20,60,,,,13,21,4,4,0.7,0.7
2024-05-03T0700,1433A,104.079,30.5706,成都市,三瓦窑,,15,14,28,9,21,45,,,,9,16,1,2,0.4,0.4
2024-05-03T0700,1434A,104.1114,30.63,成都市,沙河铺,,23,22,30,16,21,46,,,,8,16,3,2,0.4,0.4
2024-05-03T0700,2880A,104.0239,30.65639,成都市,大石西路,,25,25,25,17,14,52,,,,8,17,3,3,0.4,0.5
2024-05-03T0700,3136A,104.2725,30.5589,成都市,龙泉驿区区政府,,17,12,21,7,19,53,,,,4,11,2,2,0.5,0.5
2024-05-03T0700,3357A,104.0106,30.6931,成都市,金博路,,22,22,27,13,16,49,,,,2,5,1,2,0.4,0.5
2024-05-03T0700,3359A,104.0578,30.5225,成都市,华阳,,20,,28,14,25,48,,,,7,16,1,1,0.5,0.5
2024-05-03T0700,3487A,104.2394,30.5319,成都市,车城东七路,,23,20,32,16,27,56,,,,7,16,4,4,0.5,0.6
2024-05-03T0700,3488A,104.3853,30.7453,成都市,青白江技师分院,,16,16,18,3,15,51,,,,9,13,2,2,0.5,0.5
2024-05-03T0700,3489A,104.0789,30.4072,成都市,科学城,,20,17,33,14,28,55,,,,6,16,1,1,0.5,0.6
2024-05-03T0700,4011A,103.8506,30.6947,成都市,光华大道三段,,17,12,31,5,19,53,,,,11,21,3,3,0.4,0.5
2024-05-03T0700,1062A,117.9531,40.9081,承德市,铁路,颗粒物(PM10),56,62,52,36,23,39,,,,32,24,7,10,0.5,0.4
2024-05-03T0700,1063A,117.9392,40.9763,承德市,中国银行,颗粒物(PM10),67,83,55,32,23,32,,,,31,22,8,16,0.5,0.5
2024-05-03T0700,1064A,117.9503,40.928,承德市,开发区,颗粒物(PM10),68,86,61,39,25,27,,,,43,22,5,8,0.6,0.5
2024-05-03T0700,1065A,117.8051,40.9655,承德市,文化中心,颗粒物(PM10),68,86,65,37,24,39,,,,47,27,7,29,0.6,0.5
2024-05-03T0700,1066A,117.9268,41.0026,承德市,离宫,颗粒物(PM10),58,65,48,35,22,49,,,,24,14,2,8,0.3,0.4
2024-05-03T0700,2314A,117.47,30.6618,池州市,池州学院,,49,49,39,30,23,89,,,,18,18,6,7,0.7,0.7
2024-05-03T0700,3237A,117.4918,30.6617,池州市,展览馆,,46,46,37,31,23,85,,,,18,16,6,5,0.8,0.7
2024-05-03T0700,3333A,117.5627,30.695,池州市,第八中学,,45,45,36,27,22,72,,,,17,16,5,5,1.0,0.8
2024-05-03T0700,3334A,117.5038,30.6243,池州市,第十二中学,,45,42,33,31,21,85,,,,14,16,6,6,0.6,0.6
2024-05-03T0700,1744A,118.9233,42.2816,赤峰市,松山一中,,37,36,31,14,14,118,,,,26,18,10,10,0.6,0.5
2024-05-03T0700,1745A,118.9576,42.2728,赤峰市,哈达街,,37,37,35,17,15,113,,,,18,13,15,11,0.5,0.4
2024-05-03T0700,1746A,118.8788,42.2554,赤峰市,天义路,,44,44,30,17,11,102,,,,27,18,8,11,0.5,0.3
2024-05-03T0700,3058A,119.2658,42.0353,赤峰市,银河街,颗粒物(PM10),76,102,66,41,20,63,,,,37,19,27,17,0.8,0.4
2024-05-03T0700,3286A,118.9359,42.3147,赤峰市,桥北物流园区,,37,34,33,22,18,117,,,,28,28,8,8,0.5,0.3
2024-05-03T0700,2521A,107.3476,22.4136,崇左市,市环保局江州分局,,18,17,24,12,14,21,,,,9,9,7,8,0.7,0.7
2024-05-03T0700,2522A,107.3702,22.3707,崇左市,城南新区,,26,,20,18,15,21,,,,11,10,6,6,0.7,0.7
2024-05-03T0700,2298A,118.3093,32.3153,滁州市,老年大学,细颗粒物(PM2.5),52,49,42,36,23,46,,,,27,26,9,7,0.5,0.5
2024-05-03T0700,2299A,118.3244,32.2786,滁州市,人大宾馆,颗粒物(PM10),55,59,43,36,24,40,,,,28,27,8,8,0.6,0.7
2024-05-03T0700,3207A,118.3118,32.3038,滁州市,市政府原办公楼,颗粒物(PM10),51,51,40,35,25,41,,,,36,27,8,7,0.6,0.5
2024-05-03T0700,3331A,118.3267,32.2634,滁州市,图书馆,细颗粒物(PM2.5),53,,38,37,23,38,,,,28,21,10,10,0.7,0.6
2024-05-03T0700,2605A,101.5482,25.0441,楚雄彝族自治州,州环境监测站,,43,,33,30,27,16,,,,29,12,11,7,0.7,0.6
2024-05-03T0700,2606A,101.538,25.0492,楚雄彝族自治州,市经济开发区,,35,28,36,24,26,11,,,,33,13,10,6,0.6,0.5
2024-05-03T0700,2548A,107.5277,31.2827,达州市,达州职业技术学院,,14,12,22,3,5,44,,,,15,22,4,5,0.6,0.7
2024-05-03T0700,2549A,107.5086,31.2186,达州市,市环境监测站,,13,11,24,0,7,41,,,,20,25,4,5,0.4,0.5
2024-05-03T0700,2550A,107.4988,31.2132,达州市,凤凰小区,,16,14,18,2,7,51,,,,14,21,5,6,0.5,0.6
2024-05-03T0700,2551A,107.5082,31.1986,达州市,达县机关宾馆,,20,,23,14,11,44,,,,25,27,3,4,0.4,0.5
2024-05-03T0700,2552A,107.4644,31.2124,达州市,市政中心,,22,22,24,7,9,50,,,,14,21,5,5,0.6,0.7
2024-05-03T0700,2614A,100.1542,25.7054,大理白族自治州,大理市环境监测站,,35,,27,15,18,110,,,,5,9,6,6,0.6,0.5
2024-05-03T0700,2615A,100.2171,25.5811,大理白族自治州,大理古城,,37,13,27,13,14,118,,,,6,10,6,6,0.3,0.3
2024-05-03T0700,1109A,121.612,38.9741,大连市,甘井子,颗粒物(PM10),55,60,62,38,32,79,,,,53,29,8,6,0.8,0.8
2024-05-03T0700,1110A,121.565,38.9511,大连市,周水子,细颗粒物(PM2.5),55,54,58,39,34,69,,,,54,30,10,10,0.9,0.8
2024-05-03T0700,1111A,121.5637,38.8845,大连市,星海三站,细颗粒物(PM2.5),78,76,66,57,44,97,,,,40,31,8,8,0.7,0.7
2024-05-03T0700,1112A,121.6302,38.9117,大连市,青泥洼桥,颗粒物(PM10),55,59,53,35,30,98,,,,35,19,13,13,0.5,0.5
2024-05-03T0700,1113A,121.6251,38.8638,大连市,傅家庄,细颗粒物(PM2.5),75,82,67,55,43,101,,,,36,23,15,12,0.6,0.6
2024-05-03T0700,1114A,121.5213,38.8661,大连市,七贤岭,颗粒物(PM10),51,51,47,34,34,70,,,,39,24,9,10,0.8,0.7
2024-05-03T0700,1115A,121.2529,38.8061,大连市,旅顺,细颗粒物(PM2.5),87,77,61,64,43,97,,,,34,26,11,10,0.8,0.7
2024-05-03T0700,1116A,121.7485,39.1311,大连市,金州,颗粒物(PM10),55,59,69,38,35,124,,,,25,20,13,12,0.6,0.7
2024-05-03T0700,1117A,121.7811,39.0496,大连市,开发区,颗粒物(PM10),68,86,77,43,36,67,,,,44,24,9,11,0.8,0.8
2024-05-03T0700,1118A,121.9762,39.0631,大连市,双D港,细颗粒物(PM2.5),82,64,62,60,35,93,,,,56,43,11,11,0.8,0.8
2024-05-03T0700,1789A,124.81117,46.03138,大庆市,大同区,细颗粒物(PM2.5),72,75,51,52,31,65,,,,14,11,10,7,0.4,0.3
2024-05-03T0700,1790A,125.129,46.533,大庆市,龙凤区,,45,41,47,31,23,72,,,,20,22,15,7,0.4,0.3
2024-05-03T0700,1791A,124.902,46.408,大庆市,红岗区,,46,46,34,31,20,80,,,,15,14,13,8,0.4,0.4
2024-05-03T0700,1792A,125.153,46.586,大庆市,萨尔图区,,39,39,35,24,14,76,,,,12,12,10,7,0.2,0.1
2024-05-03T0700,1793A,124.9042,46.6215,大庆市,让胡路区,,32,32,38,20,15,69,,,,20,26,5,4,0.4,0.3
2024-05-03T0700,3481A,125.141,46.634,大庆市,萨区政府监测点,,36,35,32,25,13,74,,,,12,11,9,7,0.2,0.2
2024-05-03T0700,1723A,113.2994,40.0758,大同市,云冈宾馆,颗粒物(PM10),55,60,55,35,34,52,,,,30,26,7,9,1.0,0.4
2024-05-03T0700,1724A,113.3444,40.0917,大同市,大同大学,颗粒物(PM10),62,73,47,29,21,41,,,,53,29,16,15,0.6,0.2
2024-05-03T0700,1725A,113.2661,40.1269,大同市,安家小村,颗粒物(PM10),57,64,58,34,28,41,,,,38,24,8,11,0.9,1
2024-05-03T0700,1726A,113.2711,40.0844,大同市,教育学院,颗粒物(PM10),79,108,65,47,30,24,,,,75,37,11,10,2.5,0.9
2024-05-03T0700,3282A,113.3397,40.0597,大同市,大同市卫生学校,颗粒物(PM10),61,72,47,30,20,44,,,,44,26,11,10,0.7,0.5
2024-05-03T0700,3565A,113.1367,40.1122,大同市,云冈站,颗粒物(PM10),61,72,61,39,28,26,,,,32,24,13,11,0.6,0.4
2024-05-03T0700,3566A,113.1186,40.2556,大同市,图书馆,,46,42,46,32,28,41,,,,19,22,11,14,0.5,0.5
2024-05-03T0700,3567A,113.5931,40.0461,大同市,区一中,,50,50,41,20,18,105,,,,17,19,9,10,0.5,0.5
2024-05-03T0700,3676A,113.2802,40.0995,大同市,第二人民医院,颗粒物(PM10),74,97,58,37,25,29,,,,56,26,14,12,3.1,0.7
2024-05-03T0700,2269A,124.1069,50.4097,大兴安岭地区,科技局,,20,,15,14,15,52,,,,4,4,5,6,0.3,0.3
2024-05-03T0700,3663A,124.1164,50.4278,大兴安岭地区,红旗社区,,28,27,8,19,8,39,,,,20,11,7,6,0.3,0.2
2024-05-03T0700,1600A,124.3303,40.0625,丹东市,江湾东路,细颗粒物(PM2.5),55,54,61,39,43,80,,,,15,20,10,10,0.7,0.7
2024-05-03T0700,1601A,124.4256,40.1503,丹东市,临江后街,颗粒物(PM10),57,64,65,35,33,63,,,,18,18,6,10,0.6,0.7
2024-05-03T0700,1602A,124.3933,40.1461,丹东市,元宝山,颗粒物(PM10),62,74,58,41,32,46,,,,34,22,9,11,0.7,0.7
2024-05-03T0700,1603A,124.3633,40.1092,丹东市,民主桥,颗粒物(PM10),59,67,61,40,39,54,,,,30,22,13,13,1.0,0.8
2024-05-03T0700,3541A,109.5726,19.5167,儋州市,第一中学子站,,32,,40,22,23,26,,,,12,8,3,3,0.4,0.9
2024-05-03T0700,3542A,109.5567,19.5187,儋州市,东坡学校子站,,42,42,32,24,21,18,,,,16,8,9,5,0.6,0.6
2024-05-03T0700,2616A,98.5842,24.428,德宏傣族景颇族自治州,德宏州监测站,,48,44,50,33,39,26,,,,16,18,4,4,0.6,0.7
2024-05-03T0700,3677A,98.5881,24.4368,德宏傣族景颇族自治州,芒市人民政府综合楼,,33,33,53,20,32,28,,,,11,14,1,4,0.7,0.8
2024-05-03T0700,1901A,104.4239,31.1208,德阳市,东山公园,,20,19,21,8,10,62,,,,4,8,1,1,0.4,0.4
2024-05-03T0700,1902A,104.3826,31.1317,德阳市,西小区,,23,23,24,8,12,59,,,,8,12,3,1,0.4,0.5
2024-05-03T0700,1904A,104.3553,31.1091,德阳市,耐火材料厂,,17,13,19,7,11,52,,,,5,10,2,2,0.4,0.4
2024-05-03T0700,3639A,104.4019,31.1244,德阳市,市教育局,,17,14,17,9,10,53,,,,7,9,1,1,0.4,0.5
2024-05-03T0700,1622A,116.3032,37.4674,德州市,儿童乐园,颗粒物(PM10),62,73,75,36,31,96,,,,34,21,15,10,0.7,0.6
2024-05-03T0700,1624A,116.2991,37.4451,德州市,监理站,颗粒物(PM10),62,73,74,39,31,90,,,,33,20,14,9,0.7,0.5
2024-05-03T0700,3066A,116.2721,37.4379,德州市,九衢泉纯净水厂,颗粒物(PM10),70,90,80,46,35,78,,,,37,27,12,9,0.8,0.7
2024-05-03T0700,3371A,116.3728,37.4403,德州市,开发区人民医院,颗粒物(PM10),67,83,87,39,35,77,,,,35,25,15,12,0.6,0.5
2024-05-03T0700,3372A,116.3572,37.4094,德州市,太阳城中学,细颗粒物(PM2.5),62,56,63,44,43,68,,,,40,30,12,10,0.8,0.6
2024-05-03T0700,3511A,116.5652,37.3319,德州市,陵城艺术中心,"颗粒物(PM10),细颗粒物(PM2.5)",62,73,76,44,42,100,,,,27,22,15,9,0.7,0.6
2024-05-03T0700,2621A,99.7056,27.8317,迪庆藏族自治州,迪庆州站,,44,28,40,17,19,140,,,,8,9,8,7,0.4,0.4
2024-05-03T0700,2663A,104.6241,35.5734,定西市,东关小学,,32,,24,22,17,59,,,,8,8,2,3,0.3,0.4
2024-05-03T0700,2664A,104.6194,35.5934,定西市,供电公司,,18,15,22,12,18,48,,,,10,7,6,6,0.3,0.3
2024-05-03T0700,1389A,113.7547,23.0494,东莞市,莞城梨川,,43,43,36,27,21,29,,,,16,18,8,8,0.9,0.9
2024-05-03T0700,1390A,113.7944,23.0128,东莞市,东城石井,,48,48,39,25,20,14,,,,25,19,7,7,0.8,0.8
2024-05-03T0700,1391A,113.7383,22.9658,东莞市,南城西平,,45,45,41,27,23,14,,,,29,27,9,10,0.9,0.9
2024-05-03T0700,3319A,113.7338,23.0381,东莞市,万江金泰,,48,48,40,27,20,23,,,,14,16,10,11,0.8,0.9
2024-05-03T0700,3626A,113.7533,23.0202,东莞市,南城元岭,,45,45,39,26,22,23,,,,16,17,8,9,0.9,0.9
2024-05-03T0700,3627A,113.7875,23.0457,东莞市,东城主山,,40,40,34,25,21,23,,,,18,15,9,10,0.8,0.8
2024-05-03T0700,1666A,118.6614,37.4309,东营市,市环保局,细颗粒物(PM2.5),85,90,59,63,38,63,,,,45,24,19,17,0.8,0.4
2024-05-03T0700,3036A,118.6904,37.4338,东营市,开发区管委会,细颗粒物(PM2.5),73,91,64,53,30,70,,,,52,28,27,13,1.1,0.6
2024-05-03T0700,3365A,118.5719,37.565,东营市,垦利区民丰路,颗粒物(PM10),71,92,58,46,28,56,,,,57,31,18,15,0.9,0.5
2024-05-03T0700,3498A,118.5055,37.8612,东营市,河口城区,细颗粒物(PM2.5),77,95,65,56,34,42,,,,55,17,8,8,0.6,0.4
2024-05-03T0700,3646A,118.4978,37.4623,东营市,胜利站,细颗粒物(PM2.5),67,79,64,48,30,51,,,,50,27,13,15,1.0,0.7
2024-05-03T0700,3734A,118.35,37.26,东营市,理想之城,颗粒物(PM10),74,97,68,46,31,52,,,,46,23,15,19,1.1,0.8
2024-05-03T0700,1591A,110.0023,39.8129,鄂尔多斯市,综合楼,颗粒物(PM10),74,97,74,36,33,73,,,,48,28,26,11,0.8,0.6
2024-05-03T0700,1592A,109.9486,39.8261,鄂尔多斯市,巴音孟克林场办事处,颗粒物(PM10),75,100,70,41,27,66,,,,51,26,32,14,0.9,0.6
2024-05-03T0700,1593A,109.7736,39.5986,鄂尔多斯市,康泽苑,颗粒物(PM10),64,78,50,29,26,22,,,,43,24,8,7,0.7,0.6
2024-05-03T0700,1594A,109.8119,39.5989,鄂尔多斯市,华泰汽车城,颗粒物(PM10),65,80,52,36,26,17,,,,46,30,6,7,0.6,0.5
2024-05-03T0700,1595A,109.9734,39.7884,鄂尔多斯市,奥林花园,颗粒物(PM10),74,97,76,46,28,52,,,,56,33,15,10,1.0,0.7
2024-05-03T0700,2436A,114.8938,30.3994,鄂州市,市政府,,38,38,30,15,17,82,,,,20,17,21,12,0.1,0.2
2024-05-03T0700,2437A,114.8989,30.3714,鄂州市,赵家坝,,37,37,30,16,16,73,,,,22,13,10,8,0.4,0.4
2024-05-03T0700,3654A,114.8094,30.4089,鄂州市,精准医疗中心,,47,47,44,19,19,74,,,,19,14,4,10,0.3,0.5
2024-05-03T0700,2454A,109.4978,30.2981,恩施土家族苗族自治州,湖北民院,,21,21,25,14,16,34,,,,15,20,7,7,0.5,0.5
2024-05-03T0700,2455A,109.4707,30.2798,恩施土家族苗族自治州,州电力总公司,,15,10,19,10,13,32,,,,20,24,7,7,0.6,0.6
2024-05-03T0700,3549A,109.5061,30.3772,恩施土家族苗族自治州,龙凤新区,,16,16,17,11,12,33,,,,9,11,6,6,0.5,0.5
2024-05-03T0700,2499A,108.3411,21.6158,防城港市,沙万,,37,37,27,14,15,18,,,,38,16,10,5,1.3,0.8
2024-05-03T0700,2500A,108.3514,21.7731,防城港市,防城档案局,,21,21,34,14,17,28,,,,20,18,4,3,0.8,0.5
2024-05-03T0700,2501A,108.3506,21.6414,防城港市,大海花园,,31,31,26,14,14,19,,,,32,16,14,5,1.2,0.7
2024-05-03T0700,1371A,113.1294,23.0067,佛山市,湾梁,,41,41,40,21,15,4,,,,27,34,9,9,0.6,0.6
2024-05-03T0700,1372A,113.1083,23.0478,佛山市,华材职中,,48,48,42,26,18,4,,,,32,39,6,6,0.8,0.7
2024-05-03T0700,1373A,113.144,23.0453,佛山市,南海气象局,,33,33,36,21,15,2,,,,26,33,8,8,0.9,0.8
2024-05-03T0700,1374A,113.2881,22.8094,佛山市,顺德苏岗,,44,44,36,29,21,0,,,,32,34,5,5,0.9,0.9
2024-05-03T0700,1376A,112.8383,22.8678,佛山市,高明孔堂,,43,40,41,30,21,6,,,,32,35,8,12,0.8,0.7
2024-05-03T0700,1377A,112.8836,23.1588,佛山市,三水监测站,颗粒物(PM10),52,53,28,27,21,8,,,,26,23,5,8,0.9,0.8
2024-05-03T0700,3625A,113.2544,22.7642,佛山市,容桂街道办,,39,39,38,27,19,4,,,,34,38,3,4,0.9,0.8
2024-05-03T0700,1282A,119.2681,26.0504,福州市,师大,,27,27,24,10,11,65,,,,14,14,4,4,0.5,0.5
2024-05-03T0700,1283A,119.2984,26.1028,福州市,五四北路,,39,39,23,16,12,65,,,,24,17,4,4,0.8,0.5
2024-05-03T0700,1284A,119.2648,26.0768,福州市,杨桥西路,,28,28,24,10,10,63,,,,16,12,4,4,0.8,0.5
2024-05-03T0700,1285A,119.317,26.0746,福州市,紫阳,,30,30,25,11,10,72,,,,15,13,6,4,0.7,0.4
2024-05-03T0700,3048A,119.5799,26.0936,福州市,九龙,,38,38,21,14,8,71,,,,15,12,7,5,0.6,0.4
2024-05-03T0700,3526A,119.5189,25.9664,福州市,吴航,,27,27,18,16,12,71,,,,26,11,5,4,0.6,0.3
2024-05-03T0700,1755A,123.7977,41.8491,抚顺市,望花区,细颗粒物(PM2.5),78,92,105,57,34,66,,,,50,28,22,13,1.2,0.8
2024-05-03T0700,1756A,123.9161,41.8822,抚顺市,顺城区,细颗粒物(PM2.5),64,57,81,46,25,83,,,,26,23,10,13,0.8,0.7
2024-05-03T0700,1757A,124.0436,41.8611,抚顺市,东洲区,细颗粒物(PM2.5),62,45,81,44,30,67,,,,13,16,4,9,0.5,0.5
2024-05-03T0700,1758A,123.9247,41.8642,抚顺市,新抚区,"颗粒物(PM10),细颗粒物(PM2.5)",58,65,87,41,26,55,,,,28,21,11,10,0.8,0.7
2024-05-03T0700,1759A,124.0972,41.8961,抚顺市,大伙房水库,细颗粒物(PM2.5),64,49,77,46,24,73,,,,20,15,7,10,0.6,0.5
2024-05-03T0700,1760A,123.7086,41.8391,抚顺市,沈抚新城,细颗粒物(PM2.5),62,64,95,44,27,102,,,,31,16,13,11,1.2,0.6
2024-05-03T0700,2377A,116.3544,27.9831,抚州市,市站,,46,41,41,32,26,61,,,,12,13,5,9,1.0,1
2024-05-03T0700,2378A,116.3565,27.963,抚州市,血防站,,48,41,43,33,25,55,,,,11,13,5,10,1.5,1.4
2024-05-03T0700,2379A,116.3564,28.0007,抚州市,采茶剧团,,46,43,38,32,24,53,,,,13,13,5,10,1.1,1
2024-05-03T0700,2380A,116.385,27.9647,抚州市,医学分院,,44,44,41,24,19,55,,,,13,14,6,12,0.8,0.7
2024-05-03T0700,2207A,121.6094,41.998,阜新市,工业园区,细颗粒物(PM2.5),69,82,66,50,22,87,,,,33,20,81,32,1.4,0.7
2024-05-03T0700,2208A,121.6697,42.0279,阜新市,长青街,细颗粒物(PM2.5),113,106,66,85,36,92,,,,32,22,106,36,1.4,0.7
2024-05-03T0700,2209A,121.6673,42.0705,阜新市,农业园区,细颗粒物(PM2.5),89,94,69,66,28,95,,,,33,22,65,26,1.0,0.5
2024-05-03T0700,2210A,121.6717,42.0224,阜新市,东苑,细颗粒物(PM2.5),83,89,68,61,30,83,,,,42,25,97,39,1.4,0.7
2024-05-03T0700,2211A,121.6506,42.0498,阜新市,玉龙新城,颗粒物(PM10),78,105,63,56,23,80,,,,36,23,62,24,1.3,0.7
2024-05-03T0700,2301A,115.8277,32.8929,阜阳市,市监测站,细颗粒物(PM2.5),69,61,58,50,38,75,,,,25,21,13,10,0.4,0.4
2024-05-03T0700,2303A,115.8554,32.8605,阜阳市,开发区,颗粒物(PM10),61,72,63,43,31,65,,,,27,21,13,9,0.5,0.5
2024-05-03T0700,2875A,115.784,32.8892,阜阳市,阜阳职业技术学院,细颗粒物(PM2.5),69,68,48,50,31,79,,,,27,19,13,8,0.5,0.4
2024-05-03T0700,3468A,115.7901,32.8613,阜阳市,市规划展馆,颗粒物(PM10),64,78,50,40,24,86,,,,21,16,14,7,0.5,0.4
2024-05-03T0700,3469A,115.836,32.9183,阜阳市,枣园社区,颗粒物(PM10),57,64,61,33,31,74,,,,30,23,11,9,0.4,0.4
2024-05-03T0700,2669A,102.9099,34.9841,甘南藏族自治州,州政府,,30,29,23,21,17,77,,,,7,6,7,8,0.6,0.6
2024-05-03T0700,3380A,102.8914,34.9617,甘南藏族自治州,甘肃民族师范学院,,38,,21,26,14,71,,,,9,4,8,11,0.6,0.6
2024-05-03T0700,2570A,101.9603,30.0475,甘孜藏族自治州,水桥子,,12,6,5,6,5,18,,,,24,11,2,3,0.3,0.3
2024-05-03T0700,3065A,101.9533,29.9972,甘孜藏族自治州,州环保局,,20,20,13,4,5,19,,,,26,16,2,2,0.3,0.3
2024-05-03T0700,3414A,115.8347,28.932,赣江新区,桑海产业园,,30,29,36,21,19,30,,,,30,25,7,9,0.6,0.6
2024-05-03T0700,2363A,114.9367,25.8664,赣州市,地委,,19,14,21,13,16,38,,,,8,7,7,5,0.8,0.8
2024-05-03T0700,2364A,114.9461,25.8481,赣州市,气象台,,22,15,23,15,17,38,,,,10,8,8,7,0.5,0.5
2024-05-03T0700,2365A,114.9322,25.8333,赣州市,市图书馆,,15,10,22,10,16,40,,,,5,8,5,6,0.8,0.8
2024-05-03T0700,2366A,114.8905,25.8471,赣州市,华坚鞋城,,21,21,25,11,15,29,,,,6,8,6,8,0.6,0.6
2024-05-03T0700,3109A,115.0093,25.8613,赣州市,赣县区卫计委,,26,20,22,18,16,47,,,,8,11,10,9,0.7,0.7
2024-05-03T0700,2683A,106.2319,36.1417,固原市,马园,,27,11,25,6,16,86,,,,26,18,7,5,0.2,0.3
2024-05-03T0700,2684A,106.2792,36.0022,固原市,监测站,,33,12,15,4,15,104,,,,6,9,1,2,0.2,0.3
2024-05-03T0700,2685A,106.2375,36.0211,固原市,新区,,33,7,16,3,13,105,,,,7,9,2,2,0.1,0.2
2024-05-03T0700,3522A,106.2177,35.9959,固原市,原州区十五小,,32,8,21,6,12,100,,,,8,8,4,3,0.1,0.2
2024-05-03T0700,2544A,106.6303,30.4576,广安市,市委,,22,22,26,14,14,52,,,,8,12,5,6,0.6,0.7
2024-05-03T0700,2545A,106.6271,30.4663,广安市,友谊中学,,22,20,26,15,13,50,,,,10,14,4,5,0.6,0.7
2024-05-03T0700,2547A,106.6388,30.4551,广安市,广电花园,,20,19,21,14,14,55,,,,7,11,6,7,0.6,0.7
2024-05-03T0700,2902A,106.6351,30.4865,广安市,北辰小学,,23,19,23,16,15,43,,,,8,9,7,7,0.6,0.6
2024-05-03T0700,2524A,105.821,32.4444,广元市,老城,,18,18,16,8,9,50,,,,9,15,6,7,0.6,0.7
2024-05-03T0700,2526A,105.8628,32.4287,广元市,监测站,,19,12,14,3,8,58,,,,4,12,5,5,0.4,0.5
2024-05-03T0700,3617A,105.8047,32.4166,广元市,经开区,,17,4,8,3,6,53,,,,8,13,5,6,0.4,0.5
2024-05-03T0700,1345A,113.2347,23.1423,广州市,广雅中学,,39,39,38,26,22,3,,,,31,36,5,5,1.0,1
2024-05-03T0700,1346A,113.2612,23.105,广州市,市五中,,42,39,39,29,23,9,,,,32,30,7,7,1.1,1
2024-05-03T0700,1348A,113.3478,23.0916,广州市,广东商学院,,39,39,36,25,21,8,,,,37,34,5,4,0.9,0.8
2024-05-03T0700,1349A,113.4332,23.1047,广州市,市八十六中,,38,38,33,22,17,13,,,,28,27,5,4,0.5,0.4
2024-05-03T0700,1350A,113.3505,22.9483,广州市,番禺中学,,44,44,40,24,21,8,,,,32,38,5,5,0.8,0.8
2024-05-03T0700,1351A,113.2146,23.3916,广州市,花都师范,,33,32,32,23,19,11,,,,19,19,5,6,0.8,0.7
2024-05-03T0700,1352A,113.2597,23.1331,广州市,市监测站,,42,42,38,25,20,3,,,,31,32,6,6,0.7,0.6
2024-05-03T0700,1353A,113.5618,23.312,广州市,九龙镇镇龙,,26,26,27,16,16,21,,,,10,13,6,6,0.6,0.6
2024-05-03T0700,1354A,113.2765,23.1544,广州市,麓湖,,35,35,32,24,19,2,,,,34,24,4,5,0.7,0.7
2024-05-03T0700,1355A,113.443,23.3035,广州市,帽峰山森林公园,,27,27,25,17,14,11,,,,18,18,4,4,0.6,0.6
2024-05-03T0700,2846A,113.3221,23.1322,广州市,体育西,,39,39,34,26,21,14,,,,20,21,5,4,0.8,0.8
2024-05-03T0700,3298A,113.5717,23.5491,广州市,从化街口,,41,41,36,26,22,5,,,,24,23,8,7,0.8,0.8
2024-05-03T0700,3299A,113.3472,23.3692,广州市,白云竹料,,36,36,29,25,19,10,,,,18,18,7,6,0.8,0.7
2024-05-03T0700,3300A,113.2981,23.237,广州市,白云嘉禾,,42,42,39,23,18,4,,,,29,33,5,5,0.9,0.9
2024-05-03T0700,3301A,113.4256,23.1716,广州市,黄埔科学城,,41,41,30,26,16,27,,,,20,23,5,4,0.8,0.8
2024-05-03T0700,3302A,113.3942,23.0483,广州市,番禺大学城,,47,47,35,21,17,9,,,,18,21,10,8,0.5,0.5
2024-05-03T0700,3303A,113.4922,22.8168,广州市,南沙黄阁,,44,44,45,29,27,6,,,,41,40,6,6,0.9,0.9
2024-05-03T0700,3304A,113.5342,22.7896,广州市,南沙街,,33,31,45,23,26,43,,,,20,34,6,7,0.7,0.8
2024-05-03T0700,3443A,113.2902,23.5544,广州市,花都梯面,,30,30,30,21,21,11,,,,14,12,4,6,0.8,0.8
2024-05-03T0700,3445A,113.7858,23.7478,广州市,从化良口,,18,18,18,10,10,26,,,,5,6,4,4,0.7,0.7
2024-05-03T0700,3446A,113.8051,23.2614,广州市,增城荔城,,27,27,25,17,16,28,,,,9,9,7,8,0.7,0.7
2024-05-03T0700,2506A,109.6047,23.0666,贵港市,江南子站,,32,,25,22,21,25,,,,10,15,6,8,0.7,0.8
2024-05-03T0700,2507A,109.6014,23.0948,贵港市,贵城子站,,35,35,31,18,18,22,,,,12,13,7,8,0.7,0.7
2024-05-03T0700,2508A,109.5669,23.1065,贵港市,荷城子站,,25,19,26,17,14,29,,,,7,11,9,9,0.6,0.6
2024-05-03T0700,3405A,109.5886,23.1172,贵港市,新世纪学校,,25,19,24,17,15,28,,,,6,9,8,9,0.9,0.9
2024-05-03T0700,1439A,106.6899,26.5998,贵阳市,马鞍山,,6,5,14,2,6,16,,,,12,14,6,6,0.5,0.5
2024-05-03T0700,1440A,106.6971,26.5694,贵阳市,市环保站,,7,,12,4,13,17,,,,13,17,3,3,0.3,0.3
2024-05-03T0700,1441A,106.6243,26.6266,贵阳市,鉴湖路,,8,,12,5,8,25,,,,9,13,2,2,0.5,0.4
2024-05-03T0700,1442A,106.7487,26.6343,贵阳市,燕子冲,,7,7,16,0,9,16,,,,9,8,6,6,0.3,0.5
2024-05-03T0700,1443A,106.6555,26.4365,贵阳市,碧云窝,,10,7,12,0,4,32,,,,7,9,4,3,0.5,0.5
2024-05-03T0700,1444A,106.694,26.5161,贵阳市,中院村,,9,9,17,2,7,5,,,,14,15,6,6,0.5,0.5
2024-05-03T0700,1445A,106.7109,26.6027,贵阳市,红边门,,7,7,18,2,14,17,,,,14,17,4,4,0.4,0.4
2024-05-03T0700,1446A,106.7164,26.5699,贵阳市,新华路,,8,,13,2,9,23,,,,10,13,4,2,0.5,0.6
2024-05-03T0700,1447A,106.674,26.5424,贵阳市,太慈桥,,8,2,15,0,7,14,,,,16,18,5,6,0.4,0.4
2024-05-03T0700,1862A,110.4144,25.3167,桂林市,电子科大尧山校区,,13,11,18,5,15,41,,,,5,6,3,4,0.7,0.6
2024-05-03T0700,1863A,110.2819,25.2697,桂林市,监测站,,20,,25,14,20,34,,,,11,11,4,8,0.8,0.8
2024-05-03T0700,1864A,110.3089,25.2708,桂林市,龙隐路小学,,22,17,22,15,18,37,,,,7,9,16,13,0.8,0.7
2024-05-03T0700,1865A,110.2869,25.2178,桂林市,八中,,22,17,24,15,17,30,,,,11,12,10,10,0.8,0.7
2024-05-03T0700,3403A,110.1764,25.2381,桂林市,创业大厦,,13,12,23,5,16,39,,,,7,8,6,8,0.7,0.7
2024-05-03T0700,3531A,110.296,25.1253,桂林市,旅游学院,,13,12,17,9,16,29,,,,5,8,6,8,0.7,0.7
2024-05-03T0700,2674A,100.2561,34.4714,果洛藏族自治州,玛沁县大武镇,,37,,12,13,13,116,,,,10,11,8,12,0.4,0.4
2024-05-03T0700,1129A,126.5422,45.755,哈尔滨市,岭北,颗粒物(PM10),62,73,68,43,32,34,,,,60,37,19,10,1.0,0.5
2024-05-03T0700,1130A,126.561,45.8167,哈尔滨市,松北商大,颗粒物(PM10),77,104,75,40,28,25,,,,56,39,9,6,0.7,0.5
2024-05-03T0700,1131A,126.979,45.5419,哈尔滨市,阿城会宁,颗粒物(PM10),72,94,79,45,28,16,,,,47,30,2,6,0.6,0.5
2024-05-03T0700,1132A,126.599,45.7222,哈尔滨市,南岗学府路,颗粒物(PM10),74,98,79,43,31,31,,,,58,37,13,10,0.8,0.8
2024-05-03T0700,1133A,126.689,45.7733,哈尔滨市,太平宏伟公园,颗粒物(PM10),86,121,112,41,36,16,,,,67,41,11,9,0.6,0.6
2024-05-03T0700,1134A,126.635,45.7667,哈尔滨市,道外承德广场,颗粒物(PM10),66,81,67,32,38,27,,,,60,43,9,7,0.8,0.6
2024-05-03T0700,1135A,126.685,45.7319,哈尔滨市,香坊红旗大街,颗粒物(PM10),88,125,96,48,41,20,,,,63,39,13,6,0.6,0.6
2024-05-03T0700,1136A,126.6411,45.7258,哈尔滨市,动力和平路,颗粒物(PM10),77,104,79,30,35,30,,,,61,42,12,7,0.6,0.5
2024-05-03T0700,1137A,126.593,45.7478,哈尔滨市,道里建国路,颗粒物(PM10),75,99,85,33,44,22,,,,72,49,22,8,2.4,1.2
2024-05-03T0700,1138A,126.615,45.61,哈尔滨市,平房东轻厂,颗粒物(PM10),61,72,79,35,33,57,,,,32,38,11,8,0.5,0.5
2024-05-03T0700,1139A,126.595,45.9855,哈尔滨市,呼兰师专,颗粒物(PM10),81,112,115,49,54,34,,,,48,36,8,5,0.7,0.6
2024-05-03T0700,1140A,126.6206,45.6842,哈尔滨市,省农科院,颗粒物(PM10),93,136,81,56,36,28,,,,64,43,27,14,0.9,0.6
2024-05-03T0700,2688A,93.5128,42.8172,哈密市,地区监测站,,46,,89,32,28,91,,,,4,13,3,4,0.2,0.2
2024-05-03T0700,2689A,93.4961,42.8328,哈密市,哈密师范学校,,34,34,72,18,24,91,,,,2,11,4,5,0.4,0.4
2024-05-03T0700,2671A,100.9048,36.9639,海北藏族自治州,海晏县西海镇,,43,43,50,26,23,75,,,,11,17,13,13,0.4,0.5
2024-05-03T0700,3867A,102.0738,36.5056,海东市,平安区公安北苑,,42,42,35,27,19,30,,,,27,15,15,13,0.6,0.5
2024-05-03T0700,1410A,110.3232,20.0574,海口市,海南大学,,17,13,18,5,10,52,,,,6,8,5,5,0.4,0.5
2024-05-03T0700,1411A,110.283,20.0053,海口市,秀英海南医院,,20,20,18,8,10,48,,,,10,12,5,5,0.3,0.4
2024-05-03T0700,1412A,110.338,19.9969,海口市,海南师范大学,,18,18,14,6,10,51,,,,5,7,6,6,0.4,0.5
2024-05-03T0700,1413A,110.33,20.0356,海口市,龙华路环保局宿舍,,15,14,14,7,10,48,,,,8,8,6,6,0.3,0.4
2024-05-03T0700,3539A,110.5111,19.9736,海口市,桂林洋子站,,19,19,17,8,10,42,,,,12,8,5,5,0.4,0.4
2024-05-03T0700,2673A,100.6188,36.2866,海南藏族自治州,共和县恰卜恰镇,,31,27,34,16,18,98,,,,3,8,9,8,0.5,0.4
2024-05-03T0700,2676A,97.3731,37.3753,海西蒙古族藏族自治州,德令哈市,,33,19,37,13,18,104,,,,3,7,7,7,0.5,0.5
2024-05-03T0700,1048A,114.5302,36.6116,邯郸市,东污水处理厂,细颗粒物(PM2.5),67,79,57,48,35,49,,,,41,19,11,9,1.0,0.4
2024-05-03T0700,1049A,114.4918,36.5713,邯郸市,矿院,颗粒物(PM10),73,95,74,51,33,30,,,,55,21,10,10,0.8,0.5
2024-05-03T0700,1050A,114.484,36.6133,邯郸市,丛台公园,细颗粒物(PM2.5),67,59,53,48,30,55,,,,40,16,11,8,0.9,0.4
2024-05-03T0700,3458A,114.7895,36.5593,邯郸市,香泉濮院小区,颗粒物(PM10),62,74,74,39,29,76,,,,26,12,10,9,0.4,0.3
2024-05-03T0700,3579A,114.50634,36.77178,邯郸市,永年区实验高中,颗粒物(PM10),74,98,74,51,39,86,,,,29,21,17,11,1.5,0.5
2024-05-03T0700,3580A,114.20016,36.44293,邯郸市,峰峰矿区临水派出所,,42,42,58,23,25,118,,,,4,13,6,8,0.5,0.5
2024-05-03T0700,2634A,106.9893,33.1842,汉中市,汉川机床厂子校,,18,15,14,12,6,52,,,,4,4,4,4,0.4,0.3
2024-05-03T0700,2635A,107.0154,33.0706,汉中市,市监测站,,20,20,21,11,13,62,,,,7,10,8,8,0.6,0.6
2024-05-03T0700,2636A,107.0089,33.1138,汉中市,鑫源开发区,,21,17,18,6,9,66,,,,4,8,8,8,0.5,0.5
2024-05-03T0700,2637A,107.007,33.0323,汉中市,南郑大河坎水厂,,21,20,23,13,15,65,,,,5,11,6,7,0.5,0.6
2024-05-03T0700,1223A,120.2072,30.2111,杭州市,滨江,,49,49,46,9,20,64,,,,19,22,5,6,0.5,0.4
2024-05-03T0700,1224A,120.0633,30.2747,杭州市,西溪,细颗粒物(PM2.5),52,50,38,36,22,26,,,,30,25,6,7,0.4,0.4
2024-05-03T0700,1226A,120.3461,30.3153,杭州市,下沙,,42,42,43,25,19,62,,,,18,19,5,6,0.4,0.4
2024-05-03T0700,1227A,120.1269,30.2456,杭州市,卧龙桥,,39,39,35,25,23,52,,,,17,22,4,5,0.5,0.6
2024-05-03T0700,1228A,120.1903,30.2692,杭州市,浙江农大,,35,35,39,17,20,53,,,,22,23,6,8,0.5,0.5
2024-05-03T0700,1230A,120.1197,30.3119,杭州市,和睦小学,,37,37,36,24,22,69,,,,13,19,7,8,0.5,0.6
2024-05-03T0700,1231A,120.3019,30.4183,杭州市,临平镇,,37,37,37,23,18,48,,,,21,15,5,6,0.4,0.4
2024-05-03T0700,1232A,120.2697,30.1819,杭州市,城厢镇,细颗粒物(PM2.5),54,55,40,38,25,53,,,,25,23,7,6,0.6,0.5
2024-05-03T0700,1233A,120.0883,30.1808,杭州市,云栖,,42,42,39,23,20,40,,,,21,27,6,7,0.4,0.5
2024-05-03T0700,3557A,119.9464,30.0494,杭州市,镇二中,,39,39,38,26,24,34,,,,27,30,8,8,0.7,0.7
2024-05-03T0700,3558A,119.7183,30.2367,杭州市,市府大楼,,48,48,42,32,28,33,,,,25,26,5,6,0.7,0.6
2024-05-03T0700,3656A,120.1556,30.2864,杭州市,消防大队,,40,40,37,19,21,56,,,,22,23,9,10,0.6,0.6
2024-05-03T0700,1270A,117.1959,31.7848,合肥市,明珠广场,颗粒物(PM10),51,51,47,29,22,55,,,,40,31,10,10,0.8,0.6
2024-05-03T0700,1271A,117.3072,31.8764,合肥市,三里街,颗粒物(PM10),52,53,44,19,22,50,,,,34,35,6,8,0.5,0.4
2024-05-03T0700,1272A,117.2588,31.8707,合肥市,琥珀山庄,,46,46,42,17,14,63,,,,30,26,5,7,0.7,0.6
2024-05-03T0700,1273A,117.1604,31.9052,合肥市,董铺水库,,44,44,46,22,18,66,,,,34,28,4,5,0.4,0.4
2024-05-03T0700,1274A,117.25,31.8571,合肥市,长江中路,颗粒物(PM10),51,51,46,22,22,67,,,,24,27,7,10,0.6,0.5
2024-05-03T0700,1275A,117.266,31.9436,合肥市,庐阳区,颗粒物(PM10),52,53,50,27,24,64,,,,27,34,1,2,0.5,0.4
2024-05-03T0700,1276A,117.336,31.8586,合肥市,瑶海区,颗粒物(PM10),53,56,42,18,18,56,,,,31,28,9,9,0.7,0.6
2024-05-03T0700,1277A,117.3027,31.7964,合肥市,包河区,颗粒物(PM10),57,63,59,24,23,29,,,,63,49,7,8,0.6,0.4
2024-05-03T0700,1278A,117.2776,31.7385,合肥市,滨湖新区,颗粒物(PM10),53,56,38,27,17,65,,,,29,18,9,8,0.7,0.5
2024-05-03T0700,1279A,117.1318,31.8403,合肥市,高新区,颗粒物(PM10),51,51,41,24,18,68,,,,29,26,9,10,0.8,0.6
2024-05-03T0700,3464A,117.3803,31.9147,合肥市,高教基地,,43,43,37,23,17,55,,,,24,22,5,6,0.5,0.4
2024-05-03T0700,3614A,79.924,37.0877,和田地区,地区环保局,颗粒物(PM10),127,203,208,57,71,77,,,,8,10,7,7,0.6,0.6
2024-05-03T0700,3615A,79.9131,37.113,和田地区,市环保局,颗粒物(PM10),108,165,195,40,54,76,,,,10,17,6,6,0.5,0.6
2024-05-03T0700,2516A,108.2011,24.715,河池市,东仁乐园,,10,8,22,7,11,7,,,,5,5,2,2,0.7,0.7
2024-05-03T0700,2517A,108.0497,24.6947,河池市,市环保站,,12,9,17,8,11,26,,,,10,13,7,7,0.6,0.6
2024-05-03T0700,2518A,108.0983,24.6989,河池市,市疾控中心,,13,13,17,6,12,22,,,,12,14,7,8,0.6,0.6
2024-05-03T0700,1697A,114.6944,23.7586,河源市,东埔,,30,28,31,21,21,7,,,,16,13,6,6,0.8,0.7
2024-05-03T0700,1698A,114.6892,23.7233,河源市,老城,,31,31,26,14,15,8,,,,11,8,5,5,0.8,0.7
2024-05-03T0700,1718A,115.4208,35.2464,菏泽市,气象局,颗粒物(PM10),59,68,63,25,23,96,,,,35,22,8,6,0.6,0.4
2024-05-03T0700,1719A,115.4747,35.2375,菏泽市,市政协,颗粒物(PM10),89,128,63,48,27,43,,,,64,17,6,6,0.2,0.1
2024-05-03T0700,3374A,115.5564,35.0891,菏泽市,定陶老年大学,颗粒物(PM10),57,63,50,31,24,83,,,,28,20,12,7,0.5,0.4
2024-05-03T0700,3647A,115.4702,35.2706,菏泽市,菏泽医专,颗粒物(PM10),64,77,62,31,18,63,,,,57,18,13,5,0.4,0.3
2024-05-03T0700,2514A,111.5264,24.4172,贺州市,环保小区,,20,20,20,11,13,15,,,,17,15,6,6,0.7,0.7
2024-05-03T0700,2515A,111.5608,24.4078,贺州市,政协大楼,,28,28,23,11,13,17,,,,12,12,7,6,0.8,0.7
2024-05-03T0700,3534A,111.4744,24.4553,贺州市,西湾,,22,22,19,8,13,21,,,,8,10,6,8,0.6,0.6
2024-05-03T0700,2385A,114.17,35.9019,鹤壁市,市监测站,,43,37,59,30,39,76,,,,23,23,6,9,0.5,0.6
2024-05-03T0700,2386A,114.2956,35.7511,鹤壁市,市交警支队,颗粒物(PM10),63,76,60,28,30,11,,,,64,24,12,14,0.5,0.4
2024-05-03T0700,2387A,114.2878,35.7306,鹤壁市,迎宾馆,细颗粒物(PM2.5),58,56,59,41,33,29,,,,42,25,11,12,0.6,0.5
2024-05-03T0700,3474A,114.2617,35.6822,鹤壁市,大新区,细颗粒物(PM2.5),74,61,61,54,36,16,,,,41,23,9,10,0.4,0.4
2024-05-03T0700,3596A,114.1572,35.9603,鹤壁市,南山宾馆,颗粒物(PM10),55,59,69,17,32,118,,,,14,16,13,10,0.4,0.5
2024-05-03T0700,2244A,130.2537,47.3416,鹤岗市,哈啤分公司,,29,21,35,20,17,64,,,,9,6,11,12,0.4,0.3
2024-05-03T0700,2245A,130.2684,47.3086,鹤岗市,斯达机电,,40,36,42,28,23,53,,,,16,9,10,12,0.5,0.4
2024-05-03T0700,2246A,130.3114,47.3388,鹤岗市,东山纸板厂,,42,42,70,27,22,65,,,,11,11,13,13,0.6,0.5
2024-05-03T0700,2247A,130.1097,47.3382,鹤岗市,五号水库,,21,,40,11,14,67,,,,7,6,10,10,0.4,0.3
2024-05-03T0700,2263A,127.4833,50.2524,黑河市,交通局,,30,30,54,20,19,53,,,,10,14,2,3,0.4,0.4
2024-05-03T0700,2264A,127.5144,50.2341,黑河市,环保局,,40,40,30,23,20,54,,,,13,13,4,5,0.4,0.3
2024-05-03T0700,2265A,127.5291,50.2472,黑河市,大黑河岛,,23,19,44,16,17,53,,,,6,16,4,6,0.4,0.5
2024-05-03T0700,1074A,115.6838,37.7541,衡水市,电机北厂,颗粒物(PM10),56,62,55,30,27,82,,,,26,13,12,6,0.4,0.4
2024-05-03T0700,1075A,115.6303,37.7316,衡水市,市监测站,颗粒物(PM10),57,63,61,24,25,84,,,,28,18,14,7,0.5,0.4
2024-05-03T0700,3188A,115.6683,37.7217,衡水市,市城管局,颗粒物(PM10),58,66,54,36,26,60,,,,39,19,8,5,0.4,0.3
2024-05-03T0700,3459A,115.5989,37.5491,衡水市,地表水厂,细颗粒物(PM2.5),63,73,63,45,27,51,,,,42,23,12,7,0.4,0.4
2024-05-03T0700,2456A,112.5003,26.9167,衡阳市,原169医院,,31,31,28,17,18,23,,,,11,13,5,5,0.8,0.8
2024-05-03T0700,2457A,112.6194,26.9258,衡阳市,衡阳化工总厂,,40,36,33,28,25,44,,,,6,10,10,10,0.7,0.7
2024-05-03T0700,2458A,112.6211,26.8956,衡阳市,珠晖区环保局,,39,39,33,27,24,35,,,,14,17,8,8,1.0,0.9
2024-05-03T0700,2459A,112.6197,26.8733,衡阳市,市委党校,,32,32,33,21,20,44,,,,7,10,13,10,0.8,0.8
2024-05-03T0700,2460A,112.6006,26.8919,衡阳市,市监测站,,38,32,34,26,29,42,,,,11,13,9,9,0.9,0.9
2024-05-03T0700,2461A,112.5664,26.9056,衡阳市,真空机电公司,,29,29,30,20,20,37,,,,12,12,8,9,0.7,0.7
2024-05-03T0700,3399A,112.6703,26.882,衡阳市,师范学院,,40,30,31,28,27,36,,,,11,14,10,8,0.9,0.8
2024-05-03T0700,2608A,103.3772,23.3993,红河哈尼族彝族自治州,污水处理厂,,30,27,49,21,39,74,,,,8,9,8,8,0.6,0.7
2024-05-03T0700,2609A,103.3861,23.35,红河哈尼族彝族自治州,监测站,,26,26,47,14,31,66,,,,10,10,7,10,0.7,0.8
2024-05-03T0700,3038A,103.3758,23.368,红河哈尼族彝族自治州,州图书馆,,40,,47,28,34,76,,,,6,7,5,6,0.6,0.7
2024-05-03T0700,1090A,111.6507,40.7517,呼和浩特市,呼市一监,颗粒物(PM10),51,51,61,34,29,59,,,,35,31,7,6,0.6,0.5
2024-05-03T0700,1091A,111.6572,40.8033,呼和浩特市,小召,颗粒物(PM10),52,53,54,30,25,66,,,,34,41,6,8,0.4,0.5
2024-05-03T0700,1094A,111.7516,40.8369,呼和浩特市,如意水处理厂,颗粒物(PM10),60,70,52,22,10,42,,,,46,32,6,7,0.5,0.4
2024-05-03T0700,1095A,111.7276,40.8062,呼和浩特市,二十九中,颗粒物(PM10),54,57,49,30,21,56,,,,35,31,3,4,0.6,0.5
2024-05-03T0700,1096A,111.5512,40.7866,呼和浩特市,工大金川校区,,46,40,31,32,25,13,,,,76,39,7,8,0.4,0.3
2024-05-03T0700,1097A,111.717,40.7612,呼和浩特市,化肥厂生活区,颗粒物(PM10),61,72,65,32,29,54,,,,34,30,9,8,0.5,0.4
2024-05-03T0700,3698A,111.5968,40.8178,呼和浩特市,红旗小学,颗粒物(PM10),63,75,60,36,28,24,,,,67,39,6,6,0.5,0.4
2024-05-03T0700,3699A,111.6518,40.8389,呼和浩特市,海东办,颗粒物(PM10),57,63,60,33,28,34,,,,45,41,7,8,0.4,0.4
2024-05-03T0700,2192A,119.7594,49.2261,呼伦贝尔市,区环保局,,42,42,30,7,18,68,,,,11,11,4,5,0.2,0.2
2024-05-03T0700,3061A,119.7512,49.1577,呼伦贝尔市,国华电力东,,28,28,24,8,12,66,,,,9,8,2,3,0.2,0.2
2024-05-03T0700,1250A,120.0751,30.8669,湖州市,城西水厂,,50,50,39,23,19,59,,,,21,20,4,5,0.5,0.5
2024-05-03T0700,2873A,120.0875,30.8955,湖州市,仁皇山新区,,47,47,35,29,21,41,,,,36,26,6,6,0.5,0.6
2024-05-03T0700,2907A,120.1844,30.8596,湖州市,吴兴区站,,40,40,36,24,18,55,,,,14,13,5,5,0.3,0.4
2024-05-03T0700,3562A,120.4148,30.8538,湖州市,南浔区站,,40,37,30,28,19,57,,,,16,15,5,6,0.4,0.4
2024-05-03T0700,1607A,120.9092,40.7136,葫芦岛市,龙港区,细颗粒物(PM2.5),79,86,67,58,33,79,,,,28,22,12,9,0.9,0.7
2024-05-03T0700,1608A,120.8392,40.7514,葫芦岛市,化工街,颗粒物(PM10),71,92,80,46,27,72,,,,54,38,10,10,0.7,0.6
2024-05-03T0700,1609A,120.8341,40.7073,葫芦岛市,新区,细颗粒物(PM2.5),87,,65,64,32,58,,,,52,29,9,9,1.1,0.9
2024-05-03T0700,1610A,120.8695,40.7677,葫芦岛市,东城区,细颗粒物(PM2.5),80,83,69,59,30,51,,,,67,39,11,10,1.1,0.9
2024-05-03T0700,2482A,109.5981,27.5721,怀化市,林科所,,16,13,21,7,15,49,,,,3,3,11,16,0.8,0.7
2024-05-03T0700,2483A,109.9453,27.5444,怀化市,河西地税局,,11,11,24,6,18,32,,,,9,8,3,9,0.6,0.6
2024-05-03T0700,2484A,109.9781,27.5342,怀化市,市四医院,,26,,24,18,22,40,,,,5,7,20,11,0.6,0.6
2024-05-03T0700,2485A,109.9972,27.5578,怀化市,监测楼,,26,18,24,18,19,36,,,,6,7,20,9,0.6,0.6
2024-05-03T0700,2486A,110.0394,27.583,怀化市,市委党校,,12,12,18,6,15,34,,,,7,8,2,3,0.8,0.7
2024-05-03T0700,1210A,119.036,33.5981,淮安市,钵池山,细颗粒物(PM2.5),55,,33,39,22,40,,,,34,22,6,8,0.6,0.5
2024-05-03T0700,1211A,119.007,33.575,淮安市,北京南路,,41,41,38,28,20,60,,,,16,20,8,9,0.4,0.3
2024-05-03T0700,1212A,118.989,33.6067,淮安市,市监测站,,41,41,37,22,19,62,,,,21,21,7,8,0.6,0.6
2024-05-03T0700,1213A,119.135,33.5039,淮安市,楚州区监测站,,46,34,40,32,22,45,,,,23,26,7,8,0.6,0.5
2024-05-03T0700,1214A,119.0186,33.6297,淮安市,淮阴区监测站,,46,41,41,32,24,56,,,,26,29,6,6,0.4,0.4
2024-05-03T0700,3426A,118.8755,33.2894,淮安市,新华书店,,47,47,37,30,22,45,,,,26,24,7,7,0.6,0.5
2024-05-03T0700,2282A,116.8004,33.975,淮北市,监测站,颗粒物(PM10),51,52,45,34,21,81,,,,34,17,10,8,0.7,0.5
2024-05-03T0700,2283A,116.8091,33.9007,淮北市,烈山区政府,颗粒物(PM10),59,67,60,21,18,75,,,,21,18,7,8,0.3,0.2
2024-05-03T0700,3330A,116.8873,33.9836,淮北市,杜集区检察院,颗粒物(PM10),72,94,58,35,22,65,,,,30,14,6,5,0.4,0.3
2024-05-03T0700,4017A,116.7923,33.9535,淮北市,市博物馆,颗粒物(PM10),51,52,44,35,22,77,,,,27,16,9,10,0.6,0.5
2024-05-03T0700,2277A,116.8305,32.7727,淮南市,潘集区政府,细颗粒物(PM2.5),62,71,55,44,32,72,,,,24,17,17,13,0.5,0.5
2024-05-03T0700,2278A,117.0067,32.6524,淮南市,师范学院,颗粒物(PM10),58,65,47,38,21,84,,,,21,16,10,10,0.4,0.4
2024-05-03T0700,2279A,116.8569,32.5951,淮南市,谢家集区政府,颗粒物(PM10),52,53,51,23,24,69,,,,26,20,10,18,0.5,0.3
2024-05-03T0700,2280A,116.8281,32.633,淮南市,八公山区政府,,,65,55,33,24,,,,,,15,15,10,0.4,0.4
2024-05-03T0700,2281A,116.6325,32.6201,淮南市,焦岗湖风景区管理处,,44,44,40,22,19,54,,,,40,26,4,5,0.3,0.1
2024-05-03T0700,2894A,117.0566,32.6531,淮南市,经济技术开发区消防队,颗粒物(PM10),54,57,47,25,24,68,,,,31,22,10,8,0.4,0.4
2024-05-03T0700,3329A,117.0108,32.5893,淮南市,山南新区,颗粒物(PM10),59,68,45,34,16,90,,,,18,14,10,7,0.6,0.3
2024-05-03T0700,2446A,114.9028,30.4742,黄冈市,职工中心,,30,28,36,18,21,93,,,,4,6,5,6,0.4,0.4
2024-05-03T0700,2929A,114.8858,30.4519,黄冈市,红卫路,,29,26,30,16,19,92,,,,2,6,5,6,0.4,0.4
2024-05-03T0700,3398A,114.9136,30.4445,黄冈市,市林业局,,31,26,33,14,21,98,,,,2,6,2,3,0.4,0.4
2024-05-03T0700,2672A,102.0199,35.5102,黄南藏族自治州,同仁县隆务镇,,35,35,34,23,19,68,,,,1,4,11,10,0.4,0.4
2024-05-03T0700,2295A,118.2903,29.6963,黄山市,延安路89号,,44,44,40,16,19,94,,,,11,9,8,8,0.4,0.4
2024-05-03T0700,2296A,118.327,29.7178,黄山市,黄山东路89号,,50,50,36,27,14,87,,,,12,9,7,6,0.3,0.3
2024-05-03T0700,2297A,118.1371,30.2756,黄山市,黄山区政府5号楼,,22,22,25,11,16,19,,,,7,8,4,5,0.4,0.4
2024-05-03T0700,2423A,115.0601,30.2313,黄石市,沈家营,,36,36,27,18,15,70,,,,35,16,19,11,1.0,0.8
2024-05-03T0700,2424A,115.0817,30.2006,黄石市,陈家湾,,36,36,33,21,20,113,,,,16,14,15,12,0.9,0.7
2024-05-03T0700,2426A,114.8988,30.2019,黄石市,铁山,,39,39,34,17,14,117,,,,12,10,30,22,0.9,0.6
2024-05-03T0700,2427A,115.0307,30.2092,黄石市,团城山,,38,38,33,14,12,111,,,,19,13,20,13,0.8,0.6
2024-05-03T0700,3149A,115.0235,30.1578,黄石市,笔架山北路,,41,41,29,7,12,97,,,,18,13,13,10,0.9,0.4
2024-05-03T0700,1392A,114.4183,23.0528,惠州市,河南岸金山湖子站,,35,35,30,21,18,60,,,,9,8,5,5,0.6,0.6
2024-05-03T0700,1393A,114.4053,23.0822,惠州市,下埔横江三路子站,,39,39,34,23,20,39,,,,12,11,6,7,0.7,0.7
2024-05-03T0700,1394A,114.4103,23.1142,惠州市,江北云山西路子站,,43,43,31,15,17,22,,,,12,8,9,7,0.8,0.8
2024-05-03T0700,1395A,114.4645,22.7833,惠州市,惠阳区承修路船湖子站,,29,23,28,13,16,91,,,,13,13,4,3,0.3,0.4
2024-05-03T0700,1396A,114.5317,22.7422,惠州市,大亚湾管委会子站,,33,22,29,13,16,105,,,,11,15,6,5,0.7,0.7
2024-05-03T0700,3314A,114.4338,22.8134,惠州市,惠阳秋长,,34,27,30,13,15,107,,,,7,9,4,4,0.7,0.7
2024-05-03T0700,2240A,130.9762,45.3001,鸡西市,环保局,颗粒物(PM10),68,86,69,39,21,50,,,,24,8,7,6,0.5,0.8
2024-05-03T0700,2243A,130.9429,45.3039,鸡西市,第一中学,颗粒物(PM10),65,80,74,30,19,64,,,,16,6,9,8,0.3,0.3
2024-05-03T0700,3707A,131.0207,45.3073,鸡西市,欧美日汽修厂,颗粒物(PM10),77,104,86,33,28,35,,,,39,16,6,5,0.5,0.3
2024-05-03T0700,3709A,130.9967,45.3106,鸡西市,市政设施管理处,颗粒物(PM10),65,80,85,32,21,28,,,,48,18,7,7,0.5,0.3
2024-05-03T0700,2367A,114.9754,27.0803,吉安市,红声器材厂,,31,31,38,17,19,64,,,,13,17,11,12,0.6,0.7
2024-05-03T0700,2368A,114.9658,27.0999,吉安市,市森林工业局,,50,45,38,35,30,59,,,,14,16,35,14,0.6,0.6
2024-05-03T0700,2369A,114.99,27.1312,吉安市,市环境监测站,,40,37,37,28,25,69,,,,13,16,28,16,0.9,0.7
2024-05-03T0700,2370A,115.0093,27.0968,吉安市,青原区法院,,33,33,36,23,28,43,,,,15,17,17,19,0.5,0.6
2024-05-03T0700,1772A,126.54,43.8622,吉林市,哈达湾,颗粒物(PM10),56,61,86,33,41,87,,,,25,22,6,8,0.7,0.7
2024-05-03T0700,1773A,126.5844,43.8358,吉林市,东局子,颗粒物(PM10),63,75,78,32,30,83,,,,24,29,5,7,0.8,0.8
2024-05-03T0700,1774A,126.5052,43.8245,吉林市,电力学院,颗粒物(PM10),70,90,111,50,51,49,,,,43,30,10,11,0.8,0.8
2024-05-03T0700,1775A,126.6133,43.8972,吉林市,江北,颗粒物(PM10),65,79,90,35,49,71,,,,40,32,8,10,0.8,0.8
2024-05-03T0700,1776A,126.555,43.8306,吉林市,江南公园,颗粒物(PM10),62,74,76,40,43,74,,,,26,29,6,7,0.7,0.7
2024-05-03T0700,2868A,126.4739,43.953,吉林市,九站,颗粒物(PM10),68,86,101,43,55,94,,,,28,36,10,17,0.7,0.9
2024-05-03T0700,1299A,116.9862,36.6114,济南市,科干所,颗粒物(PM10),81,112,52,29,19,32,,,,79,21,7,8,0.9,0.6
2024-05-03T0700,1300A,116.9376,36.665,济南市,农科所,颗粒物(PM10),68,85,59,24,19,36,,,,63,35,5,6,0.7,0.6
2024-05-03T0700,1301A,117.1265,36.6734,济南市,开发区,颗粒物(PM10),53,56,53,22,23,97,,,,38,30,8,8,0.6,0.5
2024-05-03T0700,1303A,117.0624,36.6868,济南市,省种子仓库,颗粒物(PM10),58,66,79,22,22,23,,,,92,49,4,4,0.5,0.5
2024-05-03T0700,1304A,116.9489,36.6447,济南市,机床二厂,,,0,81,,28,,,,,64,41,6,6,0.8,0.7
2024-05-03T0700,1305A,117.0495,36.663,济南市,市监测站,,49,49,49,20,21,79,,,,52,32,8,10,0.4,0.3
2024-05-03T0700,1306A,116.7675,36.5484,济南市,长清党校,,42,42,47,29,24,75,,,,52,23,7,8,0.6,0.5
2024-05-03T0700,1616A,117.6795,36.229,济南市,技术学院,颗粒物(PM10),64,78,62,44,30,46,,,,55,32,10,14,0.9,0.7
2024-05-03T0700,1961A,117.532,36.6868,济南市,东山小学,颗粒物(PM10),53,56,59,24,22,82,,,,49,26,6,7,0.4,0.3
2024-05-03T0700,3059A,117.7161,36.2049,济南市,泰兴公司,颗粒物(PM10),71,92,58,51,30,12,,,,80,44,12,14,1.1,0.9
2024-05-03T0700,3064A,117.6867,36.2171,济南市,莱芜战役纪念馆,颗粒物(PM10),74,97,69,46,28,29,,,,52,33,8,12,1.1,1
2024-05-03T0700,3494A,117.1673,36.9782,济南市,济阳区政府,颗粒物(PM10),67,83,74,32,31,52,,,,85,40,9,11,0.8,0.7
2024-05-03T0700,3495A,117.1171,36.63,济南市,锦屏中学,,39,39,44,17,16,114,,,,12,11,7,7,0.4,0.4
2024-05-03T0700,3682A,116.9814,36.6819,济南市,济南四建,颗粒物(PM10),57,63,67,27,29,59,,,,58,41,8,8,0.6,0.5
2024-05-03T0700,1653A,116.6251,35.4302,济宁市,火炬城,颗粒物(PM10),53,56,48,29,14,54,,,,35,13,12,9,0.6,0.5
2024-05-03T0700,1655A,116.5491,35.4042,济宁市,电化厂,颗粒物(PM10),66,81,71,34,25,80,,,,20,18,12,10,0.6,0.5
2024-05-03T0700,3500A,116.5814,35.3707,济宁市,北湖一中,细颗粒物(PM2.5),62,62,51,44,20,45,,,,42,18,12,8,0.5,0.3
2024-05-03T0700,3501A,116.8249,35.5593,济宁市,服务中心,颗粒物(PM10),67,84,72,37,19,15,,,,56,26,4,5,0.7,0.5
2024-05-03T0700,3678A,116.5907,35.4054,济宁市,市第七中学,颗粒物(PM10),57,64,62,27,20,75,,,,24,13,12,7,0.5,0.4
2024-05-03T0700,2255A,130.2751,46.8028,佳木斯市,佳纺,颗粒物(PM10),67,83,100,23,28,70,,,,12,20,3,3,0.6,0.5
2024-05-03T0700,2256A,130.3995,46.8307,佳木斯市,发电厂,,33,24,69,23,29,73,,,,6,7,4,4,0.4,0.4
2024-05-03T0700,2257A,130.3258,46.7975,佳木斯市,环保局,,30,28,58,21,26,68,,,,14,12,4,4,0.4,0.3
2024-05-03T0700,2258A,130.3648,46.8032,佳木斯市,十一中,,35,28,64,24,26,71,,,,11,14,5,4,0.4,0.4
2024-05-03T0700,2259A,130.3794,46.7588,佳木斯市,四丰,,29,29,44,16,18,60,,,,24,10,1,1,0.4,0.4
2024-05-03T0700,1252A,120.7436,30.778,嘉兴市,清河小学,,31,31,32,11,11,70,,,,14,17,8,9,0.6,0.5
2024-05-03T0700,1253A,120.726,30.7478,嘉兴市,嘉兴学院,,35,35,33,18,15,60,,,,12,10,5,6,0.4,0.4
2024-05-03T0700,2872A,120.7846,30.7525,嘉兴市,南湖区残联,,36,36,32,18,16,63,,,,18,16,5,6,0.3,0.4
2024-05-03T0700,3407A,120.6916,30.7739,嘉兴市,秀洲住建,,28,28,30,12,14,70,,,,11,12,4,6,0.3,0.4
2024-05-03T0700,1945A,98.2908,39.7711,嘉峪关市,气象局,颗粒物(PM10),51,51,79,17,21,97,,,,9,17,12,28,0.3,0.6
2024-05-03T0700,2884A,98.2672,39.7978,嘉峪关市,酒钢宾馆,颗粒物(PM10),54,58,74,19,20,99,,,,13,12,31,22,0.5,0.5
2024-05-03T0700,3248A,98.2643,39.7724,嘉峪关市,雄关区,,46,46,48,24,19,81,,,,24,15,11,12,0.5,0.4
2024-05-03T0700,1383A,113.1064,22.6058,江门市,北街,,49,46,42,34,24,4,,,,36,41,4,5,0.9,0.8
2024-05-03T0700,1384A,113.0731,22.5835,江门市,西区,,47,47,46,25,19,2,,,,36,39,8,8,0.8,0.8
2024-05-03T0700,1385A,113.0219,22.5311,江门市,圭峰西,,40,34,43,28,22,14,,,,42,38,3,5,0.8,0.9
2024-05-03T0700,1386A,113.0828,22.5947,江门市,东湖,颗粒物(PM10),58,66,48,30,20,3,,,,34,37,7,7,0.8,0.8
2024-05-03T0700,3311A,113.1075,22.5647,江门市,江海富民,颗粒物(PM10),61,71,50,30,18,3,,,,39,40,7,8,0.8,0.8
2024-05-03T0700,3449A,113.05,22.4667,江门市,新会银湖,,44,44,41,28,16,5,,,,37,39,7,7,0.9,0.9
2024-05-03T0700,1828A,113.227,35.2125,焦作市,市环保局,颗粒物(PM10),55,59,61,38,38,86,,,,18,14,7,7,0.5,0.4
2024-05-03T0700,3169A,113.2725,35.2067,焦作市,太极体育中心,颗粒物(PM10),78,105,81,35,36,82,,,,28,22,11,12,0.3,0.3
2024-05-03T0700,3335A,113.3137,35.2641,焦作市,马村街道办,颗粒物(PM10),61,71,69,38,34,80,,,,19,19,7,6,0.4,0.5
2024-05-03T0700,3336A,113.2465,35.2373,焦作市,焦作技师学院,颗粒物(PM10),58,66,63,39,33,89,,,,20,18,9,9,0.6,0.5
2024-05-03T0700,3477A,113.1656,35.2539,焦作市,中站许衡医院,颗粒物(PM10),57,63,58,38,31,110,,,,11,13,9,9,0.3,0.3
2024-05-03T0700,3981A,113.2449,35.1803,焦作市,原李万街道办,颗粒物(PM10),57,64,77,39,31,73,,,,26,20,11,11,0.4,0.4
2024-05-03T0700,1708A,116.3701,23.5345,揭阳市,新兴,,30,,28,21,20,79,,,,15,13,6,6,0.5,0.6
2024-05-03T0700,1709A,116.3264,23.5443,揭阳市,西马,,27,22,49,14,16,84,,,,9,8,8,7,0.5,0.6
2024-05-03T0700,1710A,116.3611,23.5626,揭阳市,东兴,,28,,28,14,16,87,,,,7,9,8,8,0.7,0.7
2024-05-03T0700,1711A,116.4151,23.5294,揭阳市,渔湖,,24,23,25,8,10,74,,,,14,9,7,6,0.5,0.6
2024-05-03T0700,3320A,116.403,23.5699,揭阳市,曲溪,,28,24,28,19,17,78,,,,16,12,10,7,0.5,0.5
2024-05-03T0700,1944A,102.1692,38.5167,金昌市,天庆家园,颗粒物(PM10),55,59,70,16,16,105,,,,11,11,8,10,0.5,0.5
2024-05-03T0700,3170A,102.1864,38.5253,金昌市,市委党校,,46,46,91,18,32,120,,,,3,6,12,15,0.4,0.4
2024-05-03T0700,4022A,102.1647,38.5371,金昌市,金川区人防中心,,50,50,79,7,22,123,,,,3,7,8,9,0.6,0.6
2024-05-03T0700,1262A,119.647,29.077,金华市,十五中,颗粒物(PM10),54,58,53,31,27,49,,,,35,28,5,5,0.7,0.6
2024-05-03T0700,1263A,119.686,29.1029,金华市,监测站,颗粒物(PM10),56,62,59,30,30,58,,,,29,30,4,4,0.5,0.4
2024-05-03T0700,3659A,119.656,29.1131,金华市,气象局,,50,50,55,27,32,55,,,,39,38,6,6,0.4,0.5
2024-05-03T0700,1767A,121.1115,41.0879,锦州市,南山,细颗粒物(PM2.5),94,,67,70,38,83,,,,45,33,18,18,0.8,0.7
2024-05-03T0700,1768A,121.0533,40.8434,锦州市,开发区,细颗粒物(PM2.5),118,117,118,89,51,68,,,,56,51,52,20,1.1,0.8
2024-05-03T0700,1769A,121.1836,41.1119,锦州市,百股街道,细颗粒物(PM2.5),83,86,71,61,32,48,,,,50,37,14,13,0.9,0.7
2024-05-03T0700,1770A,121.1178,41.1222,锦州市,天安街道,细颗粒物(PM2.5),114,103,81,86,40,55,,,,57,40,19,16,1.0,0.8
2024-05-03T0700,1771A,121.1303,41.1386,锦州市,北湖公园,细颗粒物(PM2.5),103,,49,77,38,70,,,,46,34,17,14,0.8,0.7
2024-05-03T0700,2160A,112.85,35.5051,晋城市,自来水公司,颗粒物(PM10),54,58,63,29,26,92,,,,25,23,9,9,0.9,0.7
2024-05-03T0700,2161A,112.8318,35.4936,晋城市,白云商贸,颗粒物(PM10),56,62,75,24,24,91,,,,23,18,8,9,0.7,0.6
2024-05-03T0700,2162A,112.8508,35.4887,晋城市,市环保局,颗粒物(PM10),63,75,80,27,27,88,,,,23,19,8,9,0.6,0.6
2024-05-03T0700,2163A,112.8676,35.4897,晋城市,技术学院,颗粒物(PM10),51,52,63,29,24,75,,,,33,22,8,9,0.7,0.6
2024-05-03T0700,3620A,112.8271,35.4828,晋城市,泽州一中,颗粒物(PM10),54,58,60,27,23,87,,,,26,20,8,10,0.8,0.7
2024-05-03T0700,2171A,112.7532,37.6945,晋中市,锦纶小区,颗粒物(PM10),60,70,66,36,28,62,,,,30,20,10,12,0.6,0.5
2024-05-03T0700,2173A,112.7249,37.7067,晋中市,南都小区,颗粒物(PM10),59,67,62,29,27,87,,,,27,18,9,10,0.5,0.5
2024-05-03T0700,2174A,112.6991,37.6982,晋中市,榆次区政府,颗粒物(PM10),56,61,60,32,25,88,,,,25,19,8,9,0.5,0.5
2024-05-03T0700,2865A,112.7195,37.6828,晋中市,榆次三中,颗粒物(PM10),60,70,70,29,25,57,,,,38,22,9,11,0.6,0.5
2024-05-03T0700,2439A,112.2014,31.0481,荆门市,竹园小学,细颗粒物(PM2.5),73,70,71,53,53,66,,,,15,22,9,11,0.9,0.7
2024-05-03T0700,2440A,112.1969,30.9891,荆门市,掇刀,细颗粒物(PM2.5),82,86,71,60,51,69,,,,19,22,9,12,0.7,0.6
2024-05-03T0700,2441A,112.2213,31.0386,荆门市,石化一小,细颗粒物(PM2.5),79,70,78,58,54,58,,,,20,22,7,12,0.7,0.6
2024-05-03T0700,3012A,112.1849,31.0362,荆门市,西山林语,细颗粒物(PM2.5),92,71,64,68,48,85,,,,8,15,9,10,0.4,0.5
2024-05-03T0700,3547A,112.1632,31.0138,荆门市,龙泉中学南校,细颗粒物(PM2.5),57,42,44,40,38,81,,,,8,21,10,9,0.7,0.6
2024-05-03T0700,1844A,112.2494,30.3197,荆州市,市图书馆,,45,45,43,31,27,58,,,,19,28,6,8,0.8,0.8
2024-05-03T0700,1845A,112.2008,30.3544,荆州市,市委党校,,50,48,50,35,36,49,,,,16,21,7,9,0.6,0.6
2024-05-03T0700,3194A,112.2747,30.3122,荆州市,管委会,,48,44,41,33,27,63,,,,16,24,6,8,0.6,0.6
2024-05-03T0700,3548A,112.1655,30.3364,荆州市,学苑路,细颗粒物(PM2.5),69,,43,50,43,53,,,,12,16,6,7,0.5,0.5
2024-05-03T0700,2343A,117.2117,29.2933,景德镇市,老干部活动中心,,35,26,28,24,19,54,,,,9,10,10,6,0.2,0.2
2024-05-03T0700,2344A,117.1894,29.2789,景德镇市,兽医站,,30,29,25,21,16,53,,,,7,8,7,8,0.3,0.3
2024-05-03T0700,2345A,117.1547,29.2617,景德镇市,台达陶瓷,,25,,18,14,16,80,,,,6,12,15,20,0.4,0.4
2024-05-03T0700,2346A,117.2461,29.2956,景德镇市,陶研所,,26,26,26,14,13,36,,,,13,12,3,5,0.3,0.3
2024-05-03T0700,1803A,115.9872,29.6815,九江市,十里,,43,41,34,30,22,83,,,,24,19,15,12,0.9,0.7
2024-05-03T0700,1804A,115.9584,29.7046,九江市,茅山头,,50,50,33,34,27,82,,,,27,20,13,12,0.8,0.7
2024-05-03T0700,1805A,115.9877,29.7295,九江市,西园,,41,41,34,26,22,81,,,,23,20,14,12,0.7,0.6
2024-05-03T0700,1806A,116.0172,29.6547,九江市,五七二七厂,,45,45,36,27,21,58,,,,24,16,16,16,0.9,0.8
2024-05-03T0700,1808A,115.9114,29.6038,九江市,综合工业园,,48,38,36,33,26,33,,,,47,23,16,14,1.1,0.9
2024-05-03T0700,1809A,116.0721,29.7535,九江市,石化总厂,,44,44,39,28,22,85,,,,29,23,14,13,0.8,0.7
2024-05-03T0700,1810A,115.9773,29.5698,九江市,庐山气象台,,29,16,22,16,22,91,,,,4,6,6,8,0.7,1.1
2024-05-03T0700,3190A,116.0254,29.6994,九江市,外国语学校,颗粒物(PM10),51,51,37,26,22,78,,,,33,23,11,12,1.0,0.9
2024-05-03T0700,2658A,98.5061,39.7443,酒泉市,仓门街子站,颗粒物(PM10),79,107,75,27,20,88,,,,8,9,12,22,0.3,0.4
2024-05-03T0700,2659A,98.4989,39.7256,酒泉市,油田生活基地,颗粒物(PM10),69,88,67,27,22,86,,,,12,9,16,18,0.4,0.4
2024-05-03T0700,2698A,76.0072,39.4467,喀什地区,巡警大队,颗粒物(PM10),60,70,116,9,22,72,,,,21,35,3,3,0.2,0.4
2024-05-03T0700,2699A,75.9755,39.4694,喀什地区,吾办,颗粒物(PM10),71,91,96,46,35,41,,,,32,33,2,2,0.4,0.5
2024-05-03T0700,4027A,75.9483,39.4689,喀什地区,老干局,颗粒物(PM10),65,79,89,21,19,38,,,,50,41,4,4,0.5,0.4
2024-05-03T0700,1824A,114.3389,34.7781,开封市,肿瘤医院,颗粒物(PM10),54,57,59,28,29,90,,,,24,19,5,7,0.4,0.4
2024-05-03T0700,1826A,114.2885,34.7965,开封市,世纪星幼儿园,,45,45,51,31,26,94,,,,20,12,4,4,0.4,0.4
2024-05-03T0700,3147A,114.3438,34.8106,开封市,龙亭公园,颗粒物(PM10),58,65,57,34,23,80,,,,26,14,6,6,0.8,0.5
2024-05-03T0700,3210A,114.3644,34.7964,开封市,汴京公园,细颗粒物(PM2.5),53,54,65,37,28,84,,,,23,14,7,4,0.4,0.2
2024-05-03T0700,3473A,114.2485,34.8306,开封市,技师学院,,47,47,60,31,25,97,,,,19,13,6,5,0.3,0.3
2024-05-03T0700,3592A,114.4644,34.7556,开封市,祥符区生态环境局,颗粒物(PM10),58,65,58,32,29,59,,,,42,24,6,6,0.3,0.3
2024-05-03T0700,1951A,84.895,45.6094,克拉玛依市,长征新村,,35,35,25,7,6,73,,,,3,4,8,8,0.1,0.1
2024-05-03T0700,1952A,84.8988,45.5893,克拉玛依市,南林小区,,28,21,22,19,12,80,,,,4,5,6,6,0.1,0.2
2024-05-03T0700,1954A,84.905,44.3396,克拉玛依市,独山子区,,34,34,41,7,9,55,,,,18,4,7,8,0.4,0.3
2024-05-03T0700,1955A,85.6979,46.098,克拉玛依市,乌尔禾区商贸楼,,39,39,46,12,8,74,,,,1,2,8,8,0.2,0.2
2024-05-03T0700,3612A,85.1045,45.6899,克拉玛依市,白碱滩区新站,,42,42,17,9,11,83,,,,2,3,7,7,0.2,0.2
2024-05-03T0700,2697A,76.1454,39.7142,克孜勒苏柯尔克孜自治州,市人民政府,细颗粒物(PM2.5),79,83,39,58,18,72,,,,13,15,44,13,0.4,0.3
2024-05-03T0700,3665A,76.1658,39.7157,克孜勒苏柯尔克孜自治州,克州文化中心,颗粒物(PM10),71,91,29,49,16,88,,,,8,9,31,11,0.3,0.3
2024-05-03T0700,1450A,102.8204,24.8886,昆明市,呈贡新区,,28,,36,16,20,89,,,,9,11,8,7,0.7,0.7
2024-05-03T0700,1452A,102.7252,25.0902,昆明市,龙泉镇,,27,27,35,10,19,47,,,,37,17,7,7,1.1,1
2024-05-03T0700,1453A,102.7266,25.0375,昆明市,东风东路,,34,34,39,18,26,79,,,,16,13,15,9,0.8,0.6
2024-05-03T0700,1454A,102.6742,25.0669,昆明市,金鼎山,,39,39,36,21,20,71,,,,23,15,16,12,1.1,0.6
2024-05-03T0700,1455A,102.6644,25.0401,昆明市,碧鸡广场,,46,46,36,27,25,58,,,,27,16,14,10,1.0,0.6
2024-05-03T0700,3179A,102.7494,25.0119,昆明市,官渡区博物馆,,25,20,37,11,20,80,,,,15,10,10,10,0.6,0.5
2024-05-03T0700,3375A,102.8017,24.8336,昆明市,青年创业园,,29,29,33,17,20,48,,,,36,9,9,9,0.6,0.6
2024-05-03T0700,3550A,102.7997,24.9786,昆明市,昆明学院,,28,26,36,18,21,88,,,,17,10,9,9,0.6,0.5
2024-05-03T0700,3551A,102.5967,24.6736,昆明市,晋宁区生态环境分局,,33,33,34,19,20,74,,,,8,6,2,2,0.6,0.5
2024-05-03T0700,3552A,102.6678,24.9856,昆明市,云天化总部,,34,34,34,22,22,53,,,,23,10,10,7,0.7,0.7
2024-05-03T0700,1456A,91.1319,29.6514,拉萨市,八廓街,,46,46,37,30,24,125,,,,3,4,6,7,0.3,0.3
2024-05-03T0700,1457A,91.1221,29.6747,拉萨市,市环保局,颗粒物(PM10),62,74,42,43,25,86,,,,18,12,6,6,0.4,0.3
2024-05-03T0700,1458A,91.0874,29.6475,拉萨市,区监测站,,50,50,32,28,21,112,,,,15,11,5,5,0.2,0.2
2024-05-03T0700,1459A,91.1774,29.6541,拉萨市,西藏大学,,45,45,43,28,24,126,,,,4,4,3,3,0.7,0.5
2024-05-03T0700,1460A,90.9798,29.6588,拉萨市,区辐射站,颗粒物(PM10),54,57,41,33,24,85,,,,24,13,8,6,0.4,0.4
2024-05-03T0700,1461A,91.0834,29.6292,拉萨市,拉萨火车站,,46,46,34,25,22,101,,,,19,8,6,6,0.4,0.3
2024-05-03T0700,2520A,109.2203,23.7256,来宾市,来宾技工学校,,27,27,28,18,16,22,,,,10,11,4,6,0.8,0.7
2024-05-03T0700,3535A,109.1781,23.7297,来宾市,兴宾区政府,,21,21,26,13,19,23,,,,10,11,5,6,0.8,0.8
2024-05-03T0700,4002A,109.2416,23.7461,来宾市,中南小学,,28,27,27,19,15,21,,,,13,12,6,6,0.8,0.8
2024-05-03T0700,1476A,103.631,36.1031,兰州市,兰炼宾馆,,29,23,26,20,21,19,,,,29,19,5,6,0.4,0.4
2024-05-03T0700,1478A,103.8412,36.0726,兰州市,生物制品所,,36,,27,25,27,35,,,,16,20,9,9,0.5,0.5
2024-05-03T0700,1479A,103.831,36.0464,兰州市,铁路设计院,,28,23,28,19,16,15,,,,30,24,9,9,0.6,0.6
2024-05-03T0700,3186A,103.7158,36.1058,兰州市,教育港,,23,,26,16,22,30,,,,16,14,7,7,0.4,0.4
2024-05-03T0700,3241A,103.7439,36.0842,兰州市,百合公园,,23,23,24,9,14,13,,,,26,17,7,5,0.4,0.4
2024-05-03T0700,3242A,103.9611,35.998,兰州市,和平,,15,14,17,10,8,10,,,,25,12,6,7,0.7,0.6
2024-05-03T0700,3245A,103.6633,36.533,兰州新区,新区管委会,,20,,20,14,15,47,,,,8,8,4,8,0.5,0.5
2024-05-03T0700,3246A,103.6975,36.4789,兰州新区,舟曲中学,,15,9,14,4,6,45,,,,8,8,8,12,0.5,0.5
2024-05-03T0700,1067A,116.6708,39.5111,廊坊市,药材公司,细颗粒物(PM2.5),89,96,68,66,37,60,,,,34,17,15,5,0.6,0.4
2024-05-03T0700,1068A,116.7214,39.5589,廊坊市,开发区,细颗粒物(PM2.5),64,76,64,46,32,41,,,,35,20,3,5,0.5,0.4
2024-05-03T0700,1070A,116.7244,39.5269,廊坊市,北华航天学院,颗粒物(PM10),80,110,78,51,30,52,,,,46,20,11,5,0.5,0.4
2024-05-03T0700,2919A,116.7022,39.5453,廊坊市,河北工业大学,细颗粒物(PM2.5),69,86,74,50,32,62,,,,43,20,14,7,0.5,0.4
2024-05-03T0700,2535A,103.7723,29.5462,乐山市,花湖湾,,25,18,22,17,21,30,,,,9,12,2,2,0.5,0.5
2024-05-03T0700,2536A,103.7627,29.5844,乐山市,牛耳桥,,28,22,29,19,23,35,,,,18,21,4,4,0.5,0.5
2024-05-03T0700,2537A,103.7508,29.6006,乐山市,市第三水厂,,23,20,27,16,20,39,,,,17,17,3,3,0.5,0.5
2024-05-03T0700,2538A,103.7571,29.5664,乐山市,市监测站,,23,19,25,16,19,43,,,,11,14,4,5,0.7,0.7
2024-05-03T0700,3361A,103.7311,29.5628,乐山市,理工大学,,25,21,25,17,21,38,,,,12,13,8,7,0.5,0.5
2024-05-03T0700,2599A,100.2497,26.8802,丽江市,丽江古城,,30,21,34,14,17,94,,,,18,10,6,7,0.5,0.5
2024-05-03T0700,2600A,100.2203,26.8906,丽江市,市中心,,28,19,26,13,13,89,,,,9,9,6,7,0.4,0.4
2024-05-03T0700,1267A,119.914,28.4514,丽水市,监测站大楼,,29,29,30,17,18,35,,,,17,18,3,2,0.4,0.5
2024-05-03T0700,1268A,119.93,28.4586,丽水市,莲都小学,,32,32,33,19,17,33,,,,16,18,4,4,0.4,0.4
2024-05-03T0700,1269A,119.879,28.4231,丽水市,余庄前,,30,30,34,18,21,16,,,,16,14,2,2,0.5,0.5
2024-05-03T0700,1173A,119.176,34.5885,连云港市,市环境监测站,,48,48,45,22,21,79,,,,12,15,6,7,0.3,0.4
2024-05-03T0700,3000A,119.3581,34.6972,连云港市,德源药业,颗粒物(PM10),51,51,39,29,17,56,,,,24,15,6,7,0.6,0.4
2024-05-03T0700,3007A,119.178,34.844,连云港市,新城一中,颗粒物(PM10),55,59,48,30,26,70,,,,34,33,8,10,0.7,0.6
2024-05-03T0700,3008A,119.3608,34.7519,连云港市,胡沟管理处,,46,46,38,19,15,93,,,,14,23,6,10,0.8,0.5
2024-05-03T0700,3009A,119.1478,34.5911,连云港市,矿山设计院,,49,48,46,34,20,78,,,,12,15,7,8,0.7,0.6
2024-05-03T0700,3434A,119.2413,34.6539,连云港市,工贸学校,,42,42,37,20,19,104,,,,4,8,8,9,0.5,0.5
2024-05-03T0700,3664A,119.4172,34.7341,连云港市,连云街道,,46,46,36,23,18,118,,,,6,12,4,6,0.6,0.6
2024-05-03T0700,2571A,102.3431,27.8099,凉山彝族自治州,青龙寺,,36,36,37,4,7,90,,,,5,4,6,7,0.6,0.6
2024-05-03T0700,2572A,102.2721,27.8415,凉山彝族自治州,邛海宾馆,,34,29,35,15,16,108,,,,7,7,21,12,0.6,0.6
2024-05-03T0700,2573A,102.2625,27.898,凉山彝族自治州,西昌市政府,,33,33,35,19,19,102,,,,11,8,15,9,1.2,0.7
2024-05-03T0700,2574A,102.2685,27.8851,凉山彝族自治州,凉山州政府,,35,35,37,18,17,101,,,,11,8,18,12,1.1,0.7
2024-05-03T0700,2575A,102.237,27.8914,凉山彝族自治州,长安,,37,30,36,16,15,116,,,,6,9,10,11,0.6,0.7
2024-05-03T0700,2212A,123.2,41.1953,辽阳市,宏伟区,颗粒物(PM10),59,68,72,27,20,144,,,,21,17,19,16,0.9,0.7
2024-05-03T0700,2213A,123.1683,41.2495,辽阳市,新华园,颗粒物(PM10),67,83,84,36,23,136,,,,28,22,24,18,1.0,0.8
2024-05-03T0700,2214A,123.2354,41.2639,辽阳市,滨河路,细颗粒物(PM2.5),55,44,80,39,28,126,,,,25,15,14,12,0.6,0.5
2024-05-03T0700,2215A,123.149,41.2991,辽阳市,铁西工业园,细颗粒物(PM2.5),75,74,102,55,39,138,,,,27,20,27,20,1.1,0.9
2024-05-03T0700,2227A,125.1358,42.8845,辽源市,环保局,,42,42,35,23,16,114,,,,35,16,10,9,0.8,0.7
2024-05-03T0700,3239A,125.0764,42.9078,辽源市,银鹰制药,,45,40,45,26,20,144,,,,20,24,10,11,0.8,0.6
2024-05-03T0700,1625A,115.9848,36.4372,聊城市,区政府,颗粒物(PM10),63,75,67,29,26,72,,,,35,20,35,12,0.8,0.6
2024-05-03T0700,2878A,116.0072,36.4343,聊城市,聊大东校,颗粒物(PM10),57,64,78,33,34,81,,,,26,21,20,13,0.9,0.8
2024-05-03T0700,3200A,115.9819,36.4978,聊城市,监控中心,颗粒物(PM10),67,83,69,31,22,55,,,,47,21,21,12,0.8,0.7
2024-05-03T0700,3513A,116.0445,36.4361,聊城市,九州社区,颗粒物(PM10),62,73,80,30,28,90,,,,24,17,10,11,0.5,0.4
2024-05-03T0700,4018A,116.0567,36.4608,聊城市,星美广场,颗粒物(PM10),63,75,83,25,28,94,,,,23,20,13,13,0.6,0.5
2024-05-03T0700,2632A,94.3681,29.6376,林芝市,林芝监测站,,25,13,14,6,6,78,,,,1,2,6,6,0.5,0.5
2024-05-03T0700,2633A,94.3616,29.6616,林芝市,林芝人民医院,,24,13,17,11,10,75,,,,4,6,6,7,0.4,0.4
2024-05-03T0700,2603A,100.0781,23.8982,临沧市,市环保局,,38,,40,26,36,55,,,,9,10,5,5,0.4,0.4
2024-05-03T0700,2604A,100.0894,23.8822,临沧市,市气象局,,35,,43,24,34,56,,,,10,11,7,7,0.6,0.6
2024-05-03T0700,1733A,111.5531,36.0783,临汾市,临钢医院,,46,46,62,31,24,92,,,,22,18,7,11,0.5,0.5
2024-05-03T0700,1734A,111.5028,36.0714,临汾市,技工学校,,50,49,52,35,30,111,,,,20,18,9,10,0.5,0.5
2024-05-03T0700,1736A,111.5018,36.0855,临汾市,市委,,50,50,54,31,23,115,,,,16,15,7,8,0.6,0.6
2024-05-03T0700,3018A,111.505,36.1014,临汾市,唐尧大酒店,颗粒物(PM10),57,64,65,33,25,106,,,,16,13,8,9,0.6,0.6
2024-05-03T0700,3668A,111.5036,36.0414,临汾市,城南,,39,39,47,22,28,107,,,,8,9,6,7,0.6,0.5
2024-05-03T0700,2667A,103.2069,35.5993,临夏回族自治州,环保局,,40,38,38,28,23,2,,,,31,10,4,4,0.6,0.5
2024-05-03T0700,2668A,103.2417,35.6057,临夏回族自治州,建设大厦,,42,36,34,29,25,13,,,,13,9,8,9,0.5,0.4
2024-05-03T0700,1618A,118.3429,35.0532,临沂市,沂河小区,细颗粒物(PM2.5),63,68,51,45,39,86,,,,25,21,13,11,0.5,0.3
2024-05-03T0700,1619A,118.295,35.0583,临沂市,鲁南制药厂,颗粒物(PM10),58,66,50,33,30,80,,,,23,18,12,12,0.4,0.3
2024-05-03T0700,1620A,118.2794,34.9976,临沂市,新光毛纺厂,细颗粒物(PM2.5),82,97,60,60,35,83,,,,57,22,17,12,0.6,0.6
2024-05-03T0700,1621A,118.3956,35.0888,临沂市,河东保险公司,细颗粒物(PM2.5),72,85,52,52,25,58,,,,37,25,15,9,0.6,0.2
2024-05-03T0700,3370A,118.3564,35.0215,临沂市,十里堡居委,颗粒物(PM10),53,56,45,29,22,67,,,,28,19,15,13,0.7,0.5
2024-05-03T0700,3496A,118.3604,35.1084,临沂市,南坊新区,颗粒物(PM10),60,70,55,39,23,63,,,,37,27,17,12,0.5,0.4
2024-05-03T0700,3860A,118.3920,35.0300,临沂市,皇山花园小区,细颗粒物(PM2.5),65,78,54,47,29,55,,,,35,20,11,13,0.5,0.3
2024-05-03T0700,1870A,109.4856,24.3895,柳州市,柳东小学,,28,,21,19,17,23,,,,13,11,6,6,0.5,0.5
2024-05-03T0700,1871A,109.4157,24.3277,柳州市,环保监测站,,26,24,27,18,17,22,,,,13,10,8,7,0.6,0.5
2024-05-03T0700,1872A,109.389,24.341,柳州市,河西水厂,,33,29,27,23,17,15,,,,15,12,11,7,0.8,0.7
2024-05-03T0700,1873A,109.4311,24.2921,柳州市,市四中,,19,19,24,13,13,31,,,,9,9,6,6,0.8,0.8
2024-05-03T0700,1874A,109.4006,24.3631,柳州市,市九中,,39,39,30,20,18,16,,,,19,15,7,7,0.6,0.5
2024-05-03T0700,1875A,109.4958,24.3134,柳州市,古亭山,,20,16,21,14,14,23,,,,16,7,11,5,0.6,0.5
2024-05-03T0700,3402A,109.5422,24.3996,柳州市,市二中,,25,19,20,17,16,31,,,,12,12,12,8,0.5,0.5
2024-05-03T0700,2307A,116.5079,31.737,六安市,监测大楼,颗粒物(PM10),52,54,38,25,20,49,,,,44,19,8,6,0.7,0.6
2024-05-03T0700,2308A,116.4738,31.7643,六安市,皖西学院,颗粒物(PM10),53,56,45,23,19,58,,,,31,17,6,5,0.5,0.5
2024-05-03T0700,2309A,116.4996,31.7905,六安市,朝阳厂,颗粒物(PM10),51,51,40,26,22,47,,,,37,18,7,7,0.4,0.3
2024-05-03T0700,2310A,116.5567,31.7886,六安市,开发区,,46,46,43,31,24,39,,,,28,23,9,10,0.5,0.5
2024-05-03T0700,2577A,104.83,26.5917,六盘水市,黄土坡,,14,14,13,6,9,36,,,,10,13,5,5,0.6,0.6
2024-05-03T0700,2578A,104.89,26.5939,六盘水市,水钢,,16,9,13,9,9,49,,,,4,6,7,7,0.3,0.4
2024-05-03T0700,2579A,104.8475,26.5894,六盘水市,民中,,13,5,13,5,10,40,,,,9,12,6,6,0.5,0.5
2024-05-03T0700,2580A,104.9544,26.5506,六盘水市,双水,,15,,3,8,6,46,,,,5,6,6,6,0.4,0.4
2024-05-03T0700,2336A,117.0217,25.1033,龙岩市,龙岩市监测站,,29,26,20,20,15,17,,,,19,18,5,4,0.6,0.6
2024-05-03T0700,2337A,117.0258,25.0661,龙岩市,闽西职业技术学院,,23,22,21,16,16,23,,,,13,17,4,7,0.6,0.5
2024-05-03T0700,2338A,117.0196,25.0306,龙岩市,龙岩学院,,33,31,22,23,14,20,,,,12,11,8,4,0.7,0.6
2024-05-03T0700,2885A,104.9339,33.3826,陇南市,滨江中学,,37,37,39,9,12,53,,,,2,4,4,5,0.7,0.7
2024-05-03T0700,3247A,104.955,33.371,陇南市,市总工会,,20,20,22,6,5,53,,,,5,7,5,6,0.7,0.7
2024-05-03T0700,2488A,111.9975,27.725,娄底市,市监测站,,38,30,38,26,24,40,,,,14,13,2,3,0.5,0.5
2024-05-03T0700,2489A,112.0194,27.7314,娄底市,市委党校,,35,25,31,24,24,43,,,,10,13,6,6,0.5,0.6
2024-05-03T0700,2490A,111.9561,27.7569,娄底市,涟钢,,28,28,32,16,25,41,,,,14,20,4,5,0.5,0.7
2024-05-03T0700,2491A,111.9892,27.7044,娄底市,市政府,,,18,28,13,24,51,,,,4,10,5,4,,0.9
2024-05-03T0700,1893A,105.4324,28.9634,泸州市,九狮山,,24,24,27,12,18,38,,,,15,18,5,5,0.4,0.4
2024-05-03T0700,1894A,105.4427,28.9063,泸州市,小市上码头,,24,24,34,13,24,39,,,,9,11,4,4,0.3,0.3
2024-05-03T0700,1895A,105.4241,28.8573,泸州市,兰田宪桥,,23,,33,16,25,43,,,,10,12,7,5,0.4,0.3
2024-05-03T0700,1896A,105.4379,28.8833,泸州市,市环监站,,14,10,33,8,26,44,,,,7,11,5,5,0.4,0.4
2024-05-03T0700,3490A,105.3617,28.7703,泸州市,纳溪区环保局,,18,17,30,12,24,38,,,,19,15,2,2,0.4,0.5
2024-05-03T0700,2183A,111.1406,37.5211,吕梁市,环保局,颗粒物(PM10),62,74,80,36,35,64,,,,47,41,4,5,0.5,0.5
2024-05-03T0700,2185A,111.1297,37.5136,吕梁市,自来水公司,颗粒物(PM10),74,98,69,35,31,15,,,,57,32,6,7,0.5,0.5
2024-05-03T0700,2867A,111.1283,37.51,吕梁市,马茂庄小学,颗粒物(PM10),70,89,75,38,32,38,,,,51,45,4,5,0.5,0.6
2024-05-03T0700,1812A,112.3931,34.6516,洛阳市,市委党校,细颗粒物(PM2.5),60,64,51,43,34,78,,,,29,15,9,7,0.6,0.5
2024-05-03T0700,1814A,112.4657,34.6871,洛阳市,豫西宾馆,颗粒物(PM10),68,85,65,44,32,68,,,,30,20,11,9,0.6,0.4
2024-05-03T0700,1815A,112.494,34.6886,洛阳市,河南林校,细颗粒物(PM2.5),69,69,51,50,33,61,,,,36,25,12,10,0.5,0.4
2024-05-03T0700,1816A,112.3844,34.623,洛阳市,开发区管委会,颗粒物(PM10),60,70,54,41,29,68,,,,26,12,6,6,0.4,0.3
2024-05-03T0700,1817A,112.4267,34.6258,洛阳市,市委新办公区,颗粒物(PM10),61,71,54,43,34,65,,,,36,18,9,8,0.6,0.5
2024-05-03T0700,3340A,112.6005,34.6326,洛阳市,伊滨,细颗粒物(PM2.5),62,65,62,44,35,51,,,,36,26,8,9,0.5,0.4
2024-05-03T0700,3341A,112.4951,34.6332,洛阳市,中移产业园,细颗粒物(PM2.5),67,74,54,48,35,48,,,,40,19,11,8,0.5,0.4
2024-05-03T0700,3593A,112.5736,34.8993,洛阳市,吉利监测站,"颗粒物(PM10),细颗粒物(PM2.5)",57,63,64,40,28,61,,,,35,26,6,4,0.5,0.4
2024-05-03T0700,3635A,112.3677,34.662,洛阳市,河科大西苑校区,颗粒物(PM10),53,56,49,34,28,82,,,,25,14,9,7,0.4,0.3
2024-05-03T0700,3636A,112.4388,34.6781,洛阳市,英才小学,颗粒物(PM10),65,80,60,28,23,70,,,,30,20,12,8,0.6,0.5
2024-05-03T0700,2399A,114.051,33.5699,漯河市,三五一五工厂,颗粒物(PM10),57,63,57,29,28,77,,,,27,16,22,9,0.9,0.7
2024-05-03T0700,2400A,114.0055,33.5698,漯河市,漯河大学,颗粒物(PM10),54,58,55,34,30,92,,,,21,17,19,10,0.5,0.4
2024-05-03T0700,2401A,114.0138,33.5828,漯河市,市水利局,颗粒物(PM10),54,58,52,34,28,88,,,,18,11,23,11,0.8,0.6
2024-05-03T0700,2402A,114.0261,33.5698,漯河市,市广电局,颗粒物(PM10),56,61,51,33,30,87,,,,22,15,19,9,0.7,0.6
2024-05-03T0700,3478A,113.9749,33.5664,漯河市,市图书馆,,46,46,47,24,32,94,,,,18,14,16,8,0.6,0.5
2024-05-03T0700,3479A,114.0967,33.5906,漯河市,召陵区卫健委,颗粒物(PM10),60,70,57,42,34,43,,,,42,19,23,12,0.6,0.4
2024-05-03T0700,1798A,118.5092,31.6837,马鞍山市,湖东路四小,颗粒物(PM10),51,51,54,27,19,43,,,,22,20,6,6,0.6,0.6
2024-05-03T0700,1799A,118.5024,31.6449,马鞍山市,开发区,细颗粒物(PM2.5),58,61,49,41,23,23,,,,38,34,7,8,0.7,0.7
2024-05-03T0700,1800A,118.5228,31.7231,马鞍山市,慈湖,,49,49,37,24,23,45,,,,24,24,5,5,0.7,0.7
2024-05-03T0700,1802A,118.6245,31.7241,马鞍山市,濮塘,,46,46,34,23,17,41,,,,21,16,4,4,0.7,0.7
2024-05-03T0700,3633A,118.4918,31.6809,马鞍山市,雨山,,49,49,34,30,19,47,,,,22,20,8,8,0.6,0.5
2024-05-03T0700,1686A,111.0286,21.4688,茂名市,电白南海,,46,46,38,27,24,40,,,,16,14,10,9,0.7,0.6
2024-05-03T0700,1687A,110.9294,21.6533,茂名市,茂石化七小,,46,46,31,27,24,36,,,,12,14,16,11,0.6,0.7
2024-05-03T0700,1688A,110.9107,21.6687,茂名市,健康路,,31,31,27,19,16,39,,,,10,11,8,8,0.7,0.7
2024-05-03T0700,1689A,110.8592,21.6828,茂名市,高岭,,42,34,28,29,21,42,,,,18,19,7,7,0.8,0.8
2024-05-03T0700,3450A,111.01,21.5165,茂名市,电白水东,,36,36,23,22,17,57,,,,13,13,5,5,0.7,0.8
2024-05-03T0700,2539A,104.0308,30.0478,眉山市,黑龙滩水库,,40,32,34,28,25,28,,,,13,10,4,3,0.1,0.1
2024-05-03T0700,2540A,103.8416,30.0874,眉山市,气象局,,47,47,35,22,17,23,,,,23,22,8,8,0.3,0.3
2024-05-03T0700,3137A,103.8578,30.0744,眉山市,市委党校,,34,34,31,22,19,29,,,,22,19,5,5,0.4,0.3
2024-05-03T0700,3148A,103.8291,30.0564,眉山市,区人社局,,32,30,32,22,20,14,,,,33,27,6,6,0.4,0.4
2024-05-03T0700,1690A,116.1231,24.3284,梅州市,梅江月梅,,29,29,22,15,12,5,,,,13,16,3,4,0.8,0.8
2024-05-03T0700,1691A,116.0797,24.2719,梅州市,梅县新城,,28,28,23,15,13,4,,,,18,16,3,3,0.7,0.7
2024-05-03T0700,1692A,116.1248,24.2654,梅州市,环境监控中心,,36,33,23,25,18,7,,,,14,16,2,3,0.7,0.7
2024-05-03T0700,3315A,116.1233,24.2991,梅州市,梅龙,,34,34,21,20,14,8,,,,11,12,7,7,0.8,0.8
2024-05-03T0700,1878A,104.7778,31.4741,绵阳市,富乐山,,19,,14,9,10,59,,,,5,7,7,7,0.6,0.7
2024-05-03T0700,1879A,104.7563,31.4535,绵阳市,市人大,,19,12,16,5,9,58,,,,8,13,12,12,0.5,0.6
2024-05-03T0700,1880A,104.6697,31.4668,绵阳市,高新区自来水公司,,20,17,20,7,12,61,,,,9,13,8,8,0.4,0.4
2024-05-03T0700,1881A,104.7287,31.5075,绵阳市,三水厂,,19,,14,13,13,59,,,,6,9,6,6,0.4,0.5
2024-05-03T0700,3491A,104.69,31.5322,绵阳市,西科大附属小学,,16,10,16,6,10,51,,,,10,11,5,6,0.3,0.5
2024-05-03T0700,3492A,104.5648,31.5343,绵阳市,安州区旅游局,,20,19,16,14,11,46,,,,8,11,6,8,0.5,0.5
2024-05-03T0700,1784A,129.61,44.561,牡丹江市,环保大楼,颗粒物(PM10),58,65,47,30,28,50,,,,23,17,11,6,0.4,0.4
2024-05-03T0700,1785A,129.6115,44.5782,牡丹江市,文化广场,细颗粒物(PM2.5),55,40,59,39,38,53,,,,20,25,8,9,0.4,0.4
2024-05-03T0700,1786A,129.5904,44.5963,牡丹江市,第一医院,颗粒物(PM10),55,59,50,28,27,48,,,,23,16,16,6,0.4,0.4
2024-05-03T0700,1787A,129.6364,44.6075,牡丹江市,机车工厂,,31,31,53,17,22,56,,,,13,13,6,6,0.3,0.3
2024-05-03T0700,1788A,129.6386,44.5462,牡丹江市,第一中学,颗粒物(PM10),52,53,46,24,22,48,,,,25,18,9,6,0.4,0.3
2024-05-03T0700,2531A,105.0703,29.61,内江市,市监测站,,30,30,38,20,28,36,,,,9,18,6,6,0.5,0.5
2024-05-03T0700,2532A,105.0717,29.5947,内江市,东兴区政府,,30,30,30,16,17,42,,,,9,15,7,8,0.5,0.4
2024-05-03T0700,2533A,105.0653,29.5817,内江市,内江二中,,29,,26,20,22,40,,,,9,16,5,5,0.5,0.4
2024-05-03T0700,2534A,105.0406,29.5822,内江市,内江日报社,,25,20,24,17,23,40,,,,15,19,4,5,0.5,0.4
2024-05-03T0700,2628A,92.0657,31.4846,那曲市,那曲监测站,,31,18,42,11,22,97,,,,5,5,4,4,0.3,0.4
2024-05-03T0700,3128A,92.0506,31.4797,那曲市,那曲会议中心,,32,32,64,19,33,98,,,,4,3,2,2,0.4,0.4
2024-05-03T0700,1290A,115.8931,28.6843,南昌市,省外办,,,41,44,34,27,,,,,,23,,8,,0.4
2024-05-03T0700,1291A,115.8886,28.7003,南昌市,省林业公司,,49,39,35,34,24,40,,,,33,22,6,6,0.5,0.5
2024-05-03T0700,1292A,115.8126,28.7442,南昌市,林科所,,35,,26,24,16,24,,,,42,17,5,7,0.7,0.7
2024-05-03T0700,1294A,115.8518,28.687,南昌市,建工学校,,44,44,35,24,21,42,,,,32,17,6,7,0.6,0.5
2024-05-03T0700,1295A,115.8921,28.6424,南昌市,象湖,,48,43,36,33,24,60,,,,19,16,9,6,0.7,0.6
2024-05-03T0700,1296A,115.7423,28.7996,南昌市,武术学校,,15,13,12,10,20,20,,,,2,4,4,3,0.3,0.3
2024-05-03T0700,1298A,115.9314,28.6842,南昌市,省站,,45,45,46,30,29,62,,,,16,17,10,10,0.7,0.6
2024-05-03T0700,3046A,115.9084,28.6062,南昌市,机电学校,,48,48,45,29,26,61,,,,13,19,11,9,0.6,0.6
2024-05-03T0700,3690A,115.9721,28.7031,南昌市,外国语学校,细颗粒物(PM2.5),53,,35,37,26,64,,,,12,15,3,4,0.5,0.5
2024-05-03T0700,1905A,106.056,30.8064,南充市,西山风景区,,26,26,16,15,15,13,,,,2,3,3,2,0.4,0.5
2024-05-03T0700,1906A,106.0789,30.8023,南充市,南充市委,,26,26,22,0,21,13,,,,13,14,4,5,0.2,0.3
2024-05-03T0700,1907A,106.1031,30.8217,南充市,南充炼油厂,,36,36,36,24,20,26,,,,12,13,6,6,0.2,0.3
2024-05-03T0700,1908A,106.1064,30.7856,南充市,高坪区监测站,,34,34,27,16,15,19,,,,11,14,6,6,0.2,0.3
2024-05-03T0700,1909A,106.0642,30.7636,南充市,嘉陵区环保局,,36,36,30,19,18,9,,,,16,16,4,5,0.4,0.5
2024-05-03T0700,1910A,106.1087,30.8388,南充市,市环境监测站,,38,38,31,24,22,18,,,,10,10,6,6,0.4,0.4
2024-05-03T0700,1151A,118.8086,32.1065,南京市,迈皋桥,,38,38,35,22,20,40,,,,24,23,3,4,0.6,0.6
2024-05-03T0700,1152A,118.7538,32.0551,南京市,草场门,,39,39,35,22,21,49,,,,26,26,3,3,0.4,0.3
2024-05-03T0700,1153A,118.7794,32.0745,南京市,山西路,颗粒物(PM10),56,61,40,14,12,51,,,,16,13,4,4,0.3,0.3
2024-05-03T0700,1154A,118.7752,32.0023,南京市,中华门,,48,48,39,19,18,45,,,,21,22,6,7,0.6,0.5
2024-05-03T0700,1155A,118.8109,32.0309,南京市,瑞金路,颗粒物(PM10),54,57,40,22,22,38,,,,25,23,7,8,0.4,0.4
2024-05-03T0700,1156A,118.7997,32.0754,南京市,玄武湖,,43,43,38,22,16,45,,,,20,19,7,8,0.3,0.3
2024-05-03T0700,1157A,118.6414,32.0931,南京市,浦口,,44,44,39,16,17,28,,,,30,28,5,6,0.6,0.6
2024-05-03T0700,1158A,118.7356,31.9996,南京市,奥体中心,颗粒物(PM10),51,51,39,24,20,46,,,,21,21,7,7,0.5,0.4
2024-05-03T0700,1159A,118.9125,32.1028,南京市,仙林大学城,,39,39,33,22,14,48,,,,19,19,8,9,0.5,0.4
2024-05-03T0700,3422A,118.8436,31.9198,南京市,江宁彩虹桥,,47,47,42,24,23,44,,,,20,17,3,4,0.6,0.6
2024-05-03T0700,3423A,119.0138,31.6494,南京市,溧水永阳,,31,31,34,12,20,46,,,,24,21,4,4,0.4,0.4
2024-05-03T0700,3424A,118.879,31.3302,南京市,高淳老职中,,30,25,33,21,23,62,,,,21,23,5,9,0.3,0.4
2024-05-03T0700,3427A,118.8554,32.3578,南京市,六合雄州,细颗粒物(PM2.5),58,44,41,41,24,27,,,,25,24,3,4,0.6,0.4
2024-05-03T0700,1401A,108.3103,22.7881,南宁市,二十一中,,20,20,30,14,18,18,,,,18,19,4,5,0.9,0.8
2024-05-03T0700,1402A,108.3141,22.8528,南宁市,北湖,,27,27,32,18,19,19,,,,16,16,4,5,0.9,0.9
2024-05-03T0700,1403A,108.3206,22.8225,南宁市,市监测站,,32,,29,22,21,18,,,,16,20,4,6,0.8,0.8
2024-05-03T0700,1404A,108.3829,22.8037,南宁市,大自然花园,,25,23,26,17,20,17,,,,18,17,4,5,0.7,0.7
2024-05-03T0700,1405A,108.4394,22.7904,南宁市,仙葫,,22,21,24,15,17,22,,,,17,16,4,5,1.1,1.1
2024-05-03T0700,1406A,108.2397,22.8467,南宁市,区农职院,,28,25,29,19,20,12,,,,22,18,6,6,0.9,0.9
2024-05-03T0700,1407A,108.3275,22.735,南宁市,英华嘉园,,18,,26,12,17,18,,,,18,19,6,6,0.8,0.8
2024-05-03T0700,1408A,108.2257,22.7757,南宁市,沙井镇街道办,,23,23,33,15,16,12,,,,23,24,3,4,0.7,0.7
2024-05-03T0700,3401A,108.4834,22.7618,南宁市,红星社区,,25,25,25,14,19,19,,,,16,16,7,8,0.7,0.7
2024-05-03T0700,2332A,118.1681,26.6369,南平市,南平市监测站,,31,31,18,14,6,57,,,,10,12,3,4,0.8,0.8
2024-05-03T0700,2333A,118.1825,26.6489,南平市,南平铝业有限公司,,39,,15,27,15,57,,,,9,13,4,7,0.8,0.8
2024-05-03T0700,2334A,118.1756,26.6272,南平市,南平七中,,38,,15,26,13,62,,,,5,9,3,4,0.9,0.8
2024-05-03T0700,1168A,120.9098,31.9663,南通市,狼山街道,,27,27,31,8,12,79,,,,16,14,10,9,0.3,0.3
2024-05-03T0700,1169A,120.86,32.0005,南通市,虹桥,,29,29,34,16,13,90,,,,8,10,5,5,0.3,0.4
2024-05-03T0700,1170A,120.87,32.02,南通市,城中,,45,45,41,20,17,85,,,,10,11,6,5,0.3,0.4
2024-05-03T0700,1171A,120.94,31.93,南通市,星湖花园,,25,25,29,16,13,80,,,,17,14,7,7,0.5,0.5
2024-05-03T0700,1172A,120.81,32.0417,南通市,紫琅学院,,27,27,28,7,10,78,,,,20,16,9,9,0.5,0.5
2024-05-03T0700,3291A,121.067,32.062,南通市,通州监测站,,36,36,40,14,13,89,,,,7,5,8,9,0.6,0.7
2024-05-03T0700,3432A,120.9348,31.9883,南通市,环境教育馆,,31,31,32,14,14,62,,,,20,16,6,7,0.4,0.4
2024-05-03T0700,2404A,112.5224,33.0122,南阳市,瓦房庄,,43,43,38,25,24,98,,,,16,14,6,5,0.5,0.5
2024-05-03T0700,2405A,112.5003,32.9735,南阳市,汉画馆,,40,40,37,24,22,104,,,,18,16,6,4,0.4,0.4
2024-05-03T0700,2406A,112.5573,33.027,南阳市,气象站,,45,45,40,22,20,94,,,,22,16,3,3,0.7,0.6
2024-05-03T0700,2407A,112.5481,32.9689,南阳市,理工学院,,40,40,36,21,17,94,,,,20,12,5,4,0.5,0.5
2024-05-03T0700,4008A,112.5234,32.9922,南阳市,卧龙区政府,,41,41,39,19,21,94,,,,19,12,3,4,0.6,0.5
2024-05-03T0700,1234A,121.8358,29.911,宁波市,区环保大楼,,41,41,37,18,18,31,,,,44,23,6,7,0.5,0.3
2024-05-03T0700,1235A,121.56,29.82,宁波市,万里学院,,31,31,32,19,21,65,,,,24,19,3,4,0.4,0.4
2024-05-03T0700,1236A,121.713,29.9572,宁波市,龙赛医院,,31,31,29,12,13,45,,,,44,20,9,6,0.4,0.4
2024-05-03T0700,1239A,121.633,29.7733,宁波市,钱湖水厂,,39,37,33,27,20,56,,,,10,13,9,4,0.7,0.6
2024-05-03T0700,1240A,121.5856,29.8635,宁波市,太古小学,,27,27,32,12,16,77,,,,18,20,5,6,0.5,0.5
2024-05-03T0700,1241A,121.524,29.8674,宁波市,市环境监测中心,,28,23,30,9,16,89,,,,16,20,7,8,0.4,0.5
2024-05-03T0700,2871A,121.6147,29.9017,宁波市,万里国际学校,,33,33,37,15,11,80,,,,23,21,3,4,0.5,0.5
2024-05-03T0700,3710A,121.5594,29.8975,宁波市,白沙活动中心,,27,24,33,12,14,85,,,,16,17,8,9,0.3,0.4
2024-05-03T0700,2341A,119.5388,26.6612,宁德市,宁德市监测站,,28,28,23,19,17,58,,,,9,10,6,7,0.5,0.5
2024-05-03T0700,3209A,119.5231,26.6562,宁德市,宁德一中,,22,18,24,14,15,68,,,,11,14,7,7,0.5,0.4
2024-05-03T0700,2618A,98.8601,25.8567,怒江傈僳族自治州,州监测站,,25,24,20,13,17,77,,,,3,5,8,8,0.3,0.4
2024-05-03T0700,2619A,98.8546,25.8417,怒江傈僳族自治州,泸水一中,,22,22,19,15,16,57,,,,8,14,6,14,0.3,0.4
2024-05-03T0700,1888A,101.6891,26.571,攀枝花市,弄弄坪,,,,64,19,22,47,,,,49,16,23,16,0.9,0.8
2024-05-03T0700,1889A,101.5769,26.5928,攀枝花市,河门口,,47,47,53,23,23,67,,,,23,17,41,22,0.7,0.7
2024-05-03T0700,1890A,101.7169,26.585,攀枝花市,炳草岗,,42,42,48,23,21,60,,,,35,15,38,23,1.4,0.9
2024-05-03T0700,1891A,101.7369,26.5008,攀枝花市,仁和,,30,30,38,17,22,71,,,,15,9,8,8,0.6,0.5
2024-05-03T0700,2835A,101.7227,26.567,攀枝花市,四十中小,,44,44,39,18,22,83,,,,20,11,40,11,1.6,0.9
2024-05-03T0700,1604A,122.0303,41.1489,盘锦市,开发区,细颗粒物(PM2.5),80,,64,59,46,136,,,,25,20,7,7,0.7,0.7
2024-05-03T0700,1605A,122.0485,41.0883,盘锦市,兴隆台,细颗粒物(PM2.5),78,,59,57,46,129,,,,26,22,12,11,0.6,0.7
2024-05-03T0700,1606A,121.8297,41.1028,盘锦市,新生街道,细颗粒物(PM2.5),72,,52,52,39,158,,,,24,25,9,8,0.6,0.7
2024-05-03T0700,1832A,113.3257,33.742,平顶山市,新华旅馆,"颗粒物(PM10),细颗粒物(PM2.5)",54,57,64,38,36,93,,,,24,18,31,12,0.6,0.4
2024-05-03T0700,1833A,113.2919,33.737,平顶山市,规划设计院,颗粒物(PM10),53,55,53,28,30,83,,,,27,18,22,11,0.8,0.7
2024-05-03T0700,1834A,113.182,33.774,平顶山市,平顶山工学院,颗粒物(PM10),52,54,55,22,23,98,,,,20,16,9,7,0.5,0.5
2024-05-03T0700,3204A,113.3025,33.73,平顶山市,规划局,颗粒物(PM10),62,73,64,30,31,87,,,,32,19,26,10,0.8,0.6
2024-05-03T0700,3594A,112.8867,33.9116,平顶山市,石龙区,颗粒物(PM10),60,70,78,37,30,75,,,,19,25,16,10,0.5,0.5
2024-05-03T0700,2656A,106.6692,35.5461,平凉市,聚贤嘉苑,,36,36,50,19,26,26,,,,38,19,9,9,0.4,0.4
2024-05-03T0700,2657A,106.7021,35.5307,平凉市,博物馆,,37,37,49,20,28,54,,,,18,18,11,10,0.4,0.4
2024-05-03T0700,2347A,114.0997,27.5002,萍乡市,武功山,,11,11,20,4,4,27,,,,4,6,8,8,0.8,0.7
2024-05-03T0700,2348A,113.8385,27.6434,萍乡市,中医院,,40,32,34,28,30,62,,,,5,6,7,9,0.9,0.8
2024-05-03T0700,2349A,113.8493,27.6253,萍乡市,市政府车库,,36,28,30,25,27,55,,,,13,13,14,13,2.2,1
2024-05-03T0700,2350A,113.8676,27.6435,萍乡市,市环保局,,30,27,32,21,27,65,,,,6,11,4,10,0.8,0.8
2024-05-03T0700,2351A,113.866,27.6198,萍乡市,安源区政府,,32,29,35,22,24,52,,,,18,20,7,11,0.9,1.1
2024-05-03T0700,2319A,119.0141,25.4325,莆田市,荔城区仓后路,,28,18,25,6,11,88,,,,4,8,5,5,0.5,0.6
2024-05-03T0700,2320A,119.0015,25.4553,莆田市,莆田市监测站,,25,20,21,8,9,79,,,,11,13,6,7,0.5,0.6
2024-05-03T0700,2321A,119.1119,25.4561,莆田市,涵江区六中,,28,16,22,10,10,88,,,,23,17,7,8,0.6,0.6
2024-05-03T0700,2322A,119.1013,25.3215,莆田市,秀屿区政府,,30,30,25,8,8,77,,,,26,17,10,9,0.5,0.5
2024-05-03T0700,2392A,115.0312,35.7636,濮阳市,环保局,颗粒物(PM10),52,54,49,27,26,71,,,,26,14,11,11,0.5,0.4
2024-05-03T0700,2394A,115.0574,35.7609,濮阳市,油田运输公司,颗粒物(PM10),53,56,51,33,30,74,,,,30,18,15,11,0.4,0.3
2024-05-03T0700,2395A,115.0866,35.7754,濮阳市,油田物探公司,,48,48,49,33,32,73,,,,28,16,12,10,0.3,0.3
2024-05-03T0700,3021A,115,35.7668,濮阳市,濮水河管理处,,38,36,47,26,26,56,,,,27,10,9,10,0.5,0.4
2024-05-03T0700,2601A,100.98,22.7633,普洱市,市环保局,细颗粒物(PM2.5),53,,55,37,40,58,,,,11,12,8,10,0.3,0.3
2024-05-03T0700,2602A,100.9817,22.8322,普洱市,普洱第二中学,,28,28,48,17,25,49,,,,15,15,8,9,0.3,0.3
2024-05-03T0700,2262A,131.0518,45.8751,七台河市,新一中,,46,42,55,32,22,64,,,,18,8,10,9,0.8,0.6
2024-05-03T0700,3345A,131.0577,45.7879,七台河市,中波台,,50,50,124,28,24,79,,,,14,14,8,7,0.2,0.1
2024-05-03T0700,3637A,131.0176,45.7761,七台河市,人民广场,颗粒物(PM10),104,157,171,39,35,79,,,,20,18,12,11,0.5,0.3
2024-05-03T0700,3684A,130.8781,45.8222,七台河市,新建矿广场,颗粒物(PM10),119,188,129,36,30,55,,,,48,22,20,13,0.7,0.6
2024-05-03T0700,1779A,123.9305,47.3636,齐齐哈尔市,安居小区,,43,43,39,14,20,52,,,,21,11,17,9,0.2,0.2
2024-05-03T0700,1780A,123.9488,47.3386,齐齐哈尔市,中心广场,颗粒物(PM10),51,51,36,6,12,62,,,,23,16,11,9,0.5,0.4
2024-05-03T0700,1781A,123.9483,47.3227,齐齐哈尔市,农牧车辆厂,颗粒物(PM10),53,56,38,24,10,68,,,,22,14,8,8,0.5,0.4
2024-05-03T0700,1783A,123.945,47.2988,齐齐哈尔市,市环境监测站,,45,45,36,24,13,67,,,,23,13,5,6,0.3,0.3
2024-05-03T0700,3662A,123.6333,47.2075,齐齐哈尔市,富区青少年活动中心,颗粒物(PM10),51,51,38,24,12,60,,,,17,16,6,6,0.3,0.3
2024-05-03T0700,2591A,107.9783,26.5747,黔东南苗族侗族自治州,市环境监测站,,15,11,20,10,16,38,,,,6,11,2,2,0.4,0.4
2024-05-03T0700,2881A,107.8908,26.5311,黔东南苗族侗族自治州,凯里学院,,11,8,16,7,12,35,,,,1,5,2,2,0.4,0.4
2024-05-03T0700,2593A,107.5228,26.2403,黔南布依族苗族自治州,小围寨,,7,5,5,0,3,20,,,,6,6,5,4,0.5,0.6
2024-05-03T0700,3538A,107.5175,26.2978,黔南布依族苗族自治州,沙坝,,,,8,0,3,19,,,,6,6,3,3,0.5,0.5
2024-05-03T0700,2589A,104.9022,25.0925,黔西南布依族苗族自治州,场坝街,,29,,17,20,10,48,,,,3,4,2,2,0.5,0.5
2024-05-03T0700,2590A,104.8811,25.0992,黔西南布依族苗族自治州,坪东大道,,20,19,16,14,9,52,,,,4,5,2,2,0.6,0.6
2024-05-03T0700,2502A,108.6236,21.9667,钦州市,市环保站,,20,19,29,14,16,20,,,,19,16,6,7,1.0,1.1
2024-05-03T0700,2503A,108.6549,21.9481,钦州市,沙埠小学,,26,19,26,18,19,19,,,,21,14,5,5,0.9,0.9
2024-05-03T0700,2504A,108.5989,21.7431,钦州市,港区一小,,30,27,41,21,20,35,,,,19,27,7,7,0.8,0.9
2024-05-03T0700,3404A,108.5959,21.9633,钦州市,北职校,,32,,30,22,23,18,,,,20,15,8,8,1.0,1.2
2024-05-03T0700,1042A,119.5134,39.8207,秦皇岛市,北戴河环保局,颗粒物(PM10),78,105,85,48,35,92,,,,45,26,19,11,1.0,0.6
2024-05-03T0700,1043A,119.7493,40.0116,秦皇岛市,第一关,细颗粒物(PM2.5),95,123,94,71,40,30,,,,81,40,19,11,1.2,0.6
2024-05-03T0700,1044A,119.5897,39.9499,秦皇岛市,监测站,细颗粒物(PM2.5),72,90,82,52,37,78,,,,40,21,18,9,1.3,0.7
2024-05-03T0700,1046A,119.5251,39.9041,秦皇岛市,建设大厦,颗粒物(PM10),74,97,77,46,32,65,,,,42,21,18,11,1.2,0.6
2024-05-03T0700,3132A,119.610547,39.943889,秦皇岛市,文明里,颗粒物(PM10),77,104,89,37,33,65,,,,51,30,17,10,1.5,0.8
2024-05-03T0700,1307A,120.6659,36.2403,青岛市,仰口,,46,46,51,31,29,82,,,,16,17,5,6,0.4,0.4
2024-05-03T0700,1310A,120.4134,36.0658,青岛市,市南区东部子站,,42,36,58,29,28,104,,,,9,27,5,10,0.6,0.6
2024-05-03T0700,1311A,120.3664,36.1032,青岛市,四方区子站,细颗粒物(PM2.5),55,46,60,39,36,100,,,,20,28,3,9,0.4,0.5
2024-05-03T0700,1312A,120.2994,36.054,青岛市,市南区西部子站,,37,31,49,24,29,118,,,,12,31,6,9,0.7,0.8
2024-05-03T0700,1313A,120.4581,36.0858,青岛市,崂山区子站,,39,29,55,27,26,113,,,,11,28,6,10,0.5,0.6
2024-05-03T0700,1314A,120.1983,35.9608,青岛市,黄岛区子站,,35,27,49,24,33,103,,,,13,23,5,9,0.6,0.7
2024-05-03T0700,1315A,120.3999,36.3083,青岛市,城阳区子站,,46,46,57,17,24,70,,,,42,33,7,11,0.6,0.6
2024-05-03T0700,1966A,120.0405,35.8735,青岛市,黄岛区4号,,37,31,45,22,25,117,,,,10,22,7,11,0.7,0.7
2024-05-03T0700,3362A,120.5014,36.4034,青岛市,即墨2号,细颗粒物(PM2.5),60,68,69,43,46,40,,,,44,27,6,9,0.7,0.7
2024-05-03T0700,3642A,120.3503,36.0736,青岛市,市北区南部,,45,38,58,31,26,109,,,,16,24,4,10,0.7,0.7
2024-05-03T0700,3643A,120.3948,36.1805,青岛市,李沧区北部,颗粒物(PM10),54,58,64,31,35,78,,,,33,30,8,13,0.5,0.6
2024-05-03T0700,1702A,113.0426,23.691,清远市,环保大楼,,25,21,25,17,18,21,,,,5,9,4,5,1.0,0.8
2024-05-03T0700,1703A,113.0208,23.7106,清远市,凤城街办,,29,29,29,17,16,20,,,,17,21,4,5,0.6,0.6
2024-05-03T0700,3025A,113.0477,23.6344,清远市,技师学院,,35,35,33,20,19,13,,,,19,16,4,5,0.5,0.5
2024-05-03T0700,3318A,112.9903,23.7403,清远市,清新太和,,28,28,31,14,17,13,,,,20,27,5,6,0.8,0.7
2024-05-03T0700,3455A,113.076,23.7198,清远市,清城东城,,28,25,32,19,26,21,,,,15,15,4,5,0.6,0.6
2024-05-03T0700,2661A,107.6325,35.7357,庆阳市,庆阳五中,,46,42,34,32,21,90,,,,9,12,5,8,0.4,0.4
2024-05-03T0700,2662A,107.6364,35.7067,庆阳市,市环保局,,45,39,29,31,16,85,,,,10,12,4,5,0.5,0.4
2024-05-03T0700,1916A,103.7897,25.5035,曲靖市,环境监测站,,31,18,38,8,18,97,,,,10,8,2,6,0.8,0.8
2024-05-03T0700,1917A,103.8,25.5364,曲靖市,烟厂办公区,,33,18,37,13,19,104,,,,8,8,4,5,0.4,0.4
2024-05-03T0700,3376A,103.7947,25.462,曲靖市,南苑二区,,31,18,33,10,18,97,,,,11,11,3,4,0.5,0.5
2024-05-03T0700,3377A,103.7444,25.5261,曲靖市,曲靖师范学院,,30,25,41,14,19,94,,,,16,12,14,10,0.5,0.5
2024-05-03T0700,1264A,118.8692,28.9398,衢州市,环保大楼,,42,42,47,26,30,82,,,,23,22,5,5,0.5,0.5
2024-05-03T0700,1265A,118.8709,28.9666,衢州市,实验学校,,43,43,49,27,31,89,,,,18,20,8,7,0.5,0.6
2024-05-03T0700,1266A,118.8621,28.9808,衢州市,衢州学院,,42,42,44,27,30,85,,,,21,21,7,7,0.4,0.4
2024-05-03T0700,1611A,118.5819,24.9117,泉州市,涂山街,,29,29,27,18,13,60,,,,19,16,4,5,0.7,0.6
2024-05-03T0700,1612A,118.5972,24.8978,泉州市,津头埔,,25,21,23,10,16,79,,,,20,22,2,3,0.5,0.5
2024-05-03T0700,1613A,118.6663,24.9424,泉州市,万安,,32,32,28,12,12,64,,,,22,18,1,2,0.7,0.7
2024-05-03T0700,3529A,118.6333,24.9264,泉州市,城华南路,,22,22,21,11,12,66,,,,22,22,4,6,0.4,0.4
2024-05-03T0700,2626A,88.8876,29.2718,日喀则市,日喀则监测站,,37,37,53,22,25,85,,,,16,7,2,4,0.5,0.4
2024-05-03T0700,3726A,88.8781,29.2426,日喀则市,林业技术推广中心,,34,34,47,16,23,83,,,,13,8,6,5,0.4,0.4
2024-05-03T0700,1659A,119.471,35.4209,日照市,监测站,,42,36,49,29,27,120,,,,17,39,7,12,0.6,0.7
2024-05-03T0700,1660A,119.523,35.4216,日照市,市政府广场,,41,34,47,21,19,131,,,,11,29,6,11,0.4,0.5
2024-05-03T0700,1661A,119.5587,35.4044,日照市,港务局,,42,41,66,22,22,134,,,,5,30,7,10,0.5,0.6
2024-05-03T0700,3507A,119.5328,35.4625,日照市,职业技术学院,,42,34,43,29,20,116,,,,10,18,7,10,0.5,0.5
2024-05-03T0700,3604A,119.3266,35.1044,日照市,岚山环保分局,细颗粒物(PM2.5),59,61,58,42,30,95,,,,15,21,7,14,0.9,0.8
2024-05-03T0700,1835A,111.1922,34.7752,三门峡市,市政府,,49,41,47,34,20,86,,,,21,16,11,10,0.8,0.6
2024-05-03T0700,1836A,111.1587,34.7942,三门峡市,开发区,颗粒物(PM10),62,74,57,42,26,104,,,,15,13,15,13,0.7,0.6
2024-05-03T0700,3039A,111.1911,34.7829,三门峡市,三门峡市第一小学,,49,44,43,34,21,100,,,,18,14,10,7,0.5,0.4
2024-05-03T0700,3598A,111.1,34.7167,三门峡市,富达温泉假日酒店,颗粒物(PM10),57,63,53,24,26,95,,,,20,20,7,9,0.5,0.4
2024-05-03T0700,2324A,117.6211,26.2625,三明市,三钢,,19,,18,13,16,30,,,,13,13,6,8,0.6,0.6
2024-05-03T0700,2325A,117.635,26.2714,三明市,三明二中,,22,,15,15,11,32,,,,7,8,7,9,0.8,0.8
2024-05-03T0700,2326A,117.6028,26.2378,三明市,三元区政府,,17,17,19,10,10,28,,,,13,15,7,10,0.8,0.8
2024-05-03T0700,1876A,109.5078,18.2489,三亚市,河东子站,,16,16,18,8,10,27,,,,9,9,3,3,0.3,0.4
2024-05-03T0700,1877A,109.4964,18.2681,三亚市,河西子站,,14,14,17,5,7,22,,,,10,10,2,2,0.3,0.4
2024-05-03T0700,3540A,109.7348,18.3443,三亚市,君悦子站,,13,13,17,6,8,19,,,,8,11,2,2,0.4,0.6
2024-05-03T0700,2624A,91.7608,29.2313,山南市,山南监测站,,36,35,53,18,21,114,,,,6,5,6,6,0.3,0.3
2024-05-03T0700,2625A,91.7706,29.2436,山南市,山南人民医院,细颗粒物(PM2.5),64,,58,46,28,114,,,,13,9,6,7,0.4,0.3
2024-05-03T0700,1674A,116.6794,23.3667,汕头市,金平子站,,32,18,20,8,9,101,,,,3,3,3,3,0.7,0.7
2024-05-03T0700,1675A,116.7244,23.3633,汕头市,龙湖子站,,,11,20,11,12,101,,,,8,7,,5,0.7,0.8
2024-05-03T0700,1676A,116.7258,23.2775,汕头市,濠江子站,,29,14,20,11,13,91,,,,7,7,4,4,0.6,0.6
2024-05-03T0700,1677A,116.7519,23.4714,汕头市,澄海子站,,34,11,20,10,12,106,,,,7,9,5,6,0.6,0.7
2024-05-03T0700,1678A,116.6092,23.2539,汕头市,潮阳子站,,31,15,21,10,10,97,,,,4,5,4,4,0.6,0.6
2024-05-03T0700,3444A,116.454,23.2684,汕头市,潮南峡山,,27,20,22,5,12,85,,,,6,4,4,3,0.6,0.6
2024-05-03T0700,3624A,116.4069,23.2533,汕头市,潮南子站,,28,28,30,13,16,81,,,,10,10,6,6,0.8,0.7
2024-05-03T0700,1693A,115.3653,22.775,汕尾市,市环保局,,33,33,23,12,14,102,,,,5,6,8,8,0.5,0.6
2024-05-03T0700,1694A,115.3706,22.7898,汕尾市,市政府,,33,21,22,11,13,105,,,,5,6,5,4,0.8,0.8
2024-05-03T0700,1695A,115.3622,22.7925,汕尾市,新城中学,,33,26,24,13,15,105,,,,6,7,6,6,1.0,0.9
2024-05-03T0700,2645A,109.9154,33.8715,商洛市,监测站,,36,36,29,17,16,60,,,,11,13,6,9,0.5,0.5
2024-05-03T0700,3045A,109.9643,33.8471,商洛市,商州区中学,,49,34,31,34,16,48,,,,16,14,5,12,0.5,0.5
2024-05-03T0700,2408A,115.6702,34.4285,商丘市,环境监测站,颗粒物(PM10),53,55,44,35,21,47,,,,42,17,7,8,0.3,0.2
2024-05-03T0700,2409A,115.6458,34.4045,商丘市,粮食局,,46,46,39,25,20,89,,,,23,12,9,9,0.3,0.2
2024-05-03T0700,2410A,115.6293,34.3948,商丘市,睢阳区环保局,,48,40,58,33,20,93,,,,24,12,8,7,0.2,0.1
2024-05-03T0700,3171A,115.6071,34.4465,商丘市,梁园区档案局,颗粒物(PM10),55,59,43,30,18,59,,,,44,16,9,9,0.2,0.1
2024-05-03T0700,1141A,121.4,31.238,上海市,普陀,,33,33,36,14,16,75,,,,26,19,5,5,0.4,0.4
2024-05-03T0700,1142A,121.478,31.2036,上海市,十五厂,,32,32,35,14,17,63,,,,43,25,9,8,0.3,0.4
2024-05-03T0700,1143A,121.467,31.3008,上海市,虹口,,32,32,34,16,17,70,,,,31,21,9,9,0.4,0.4
2024-05-03T0700,1144A,121.412,31.1654,上海市,徐汇上师大,,37,37,36,24,20,66,,,,31,22,8,8,0.5,0.5
2024-05-03T0700,1145A,121.536,31.2659,上海市,杨浦四漂,,37,37,37,20,19,63,,,,40,27,8,7,0.5,0.5
2024-05-03T0700,1147A,121.425,31.2261,上海市,静安监测站,,26,26,27,18,16,72,,,,28,19,9,8,0.4,0.5
2024-05-03T0700,1148A,121.703,31.1907,上海市,浦东川沙,,31,31,31,19,16,84,,,,27,21,6,6,0.3,0.3
2024-05-03T0700,1149A,121.533,31.2284,上海市,浦东新区监测站,,33,33,32,18,16,52,,,,34,16,7,7,0.3,0.3
2024-05-03T0700,1150A,121.577,31.2071,上海市,浦东张江,,35,35,35,20,16,60,,,,40,24,5,5,0.5,0.5
2024-05-03T0700,3265A,121.4316,31.3322,上海市,宝山庙行,,32,32,35,18,16,62,,,,32,20,7,7,0.5,0.5
2024-05-03T0700,3266A,121.8791,31.4662,上海市,崇明上实东滩,,32,22,24,12,11,101,,,,8,7,9,9,0.5,0.5
2024-05-03T0700,3268A,121.3162,31.2838,上海市,嘉定南翔,,32,32,30,18,16,57,,,,33,24,9,9,0.4,0.4
2024-05-03T0700,3269A,121.3359,30.7456,上海市,金山新城,,32,24,26,11,14,100,,,,11,13,5,6,0.5,0.5
2024-05-03T0700,3270A,121.4996,31.0739,上海市,闵行浦江,,34,34,33,22,17,67,,,,27,19,6,5,0.5,0.5
2024-05-03T0700,3271A,121.2886,31.1663,上海市,青浦徐泾,,35,35,35,18,17,73,,,,24,21,6,6,0.5,0.5
2024-05-03T0700,3272A,121.2186,31.0378,上海市,松江图书馆,,42,42,36,17,17,68,,,,29,23,7,6,0.5,0.5
2024-05-03T0700,3273A,121.3902,31.2059,上海市,长宁仙霞,,31,31,35,14,14,68,,,,34,21,8,8,0.6,0.6
2024-05-03T0700,3274A,121.7965,31.0507,上海市,浦东惠南,,35,35,34,20,16,58,,,,28,17,7,7,0.5,0.5
2024-05-03T0700,3544A,121.4891,30.925,上海市,奉贤南桥新城,,32,30,31,22,18,69,,,,30,19,10,9,0.5,0.5
2024-05-03T0700,2381A,118.005,28.4572,上饶市,百草园,,47,47,40,16,24,79,,,,13,14,5,6,0.3,0.4
2024-05-03T0700,2382A,117.9756,28.4436,上饶市,市监测站,,43,43,43,28,24,91,,,,11,12,7,7,0.5,0.6
2024-05-03T0700,2383A,117.9519,28.4628,上饶市,凤凰光学,,44,44,44,29,25,92,,,,19,20,12,16,0.7,0.7
2024-05-03T0700,3413A,118.1953,28.4401,上饶市,广丰区教体局,颗粒物(PM10),62,74,57,39,36,74,,,,23,18,50,17,1.0,0.8
2024-05-03T0700,3685A,117.897,28.4315,上饶市,双创科技城,,46,46,45,25,23,82,,,,18,17,8,15,0.5,0.6
2024-05-03T0700,1669A,113.5824,24.7733,韶关市,市八中,,19,19,26,11,16,32,,,,10,6,8,9,0.8,0.7
2024-05-03T0700,1671A,113.5917,24.7972,韶关市,园林处,,16,14,21,11,16,36,,,,4,4,8,9,0.7,0.7
2024-05-03T0700,1672A,113.6735,24.7791,韶关市,韶关学院,,17,17,21,11,16,32,,,,5,6,8,8,0.5,0.5
2024-05-03T0700,1673A,113.5971,24.6863,韶关市,曲江监测站,,16,16,30,11,19,34,,,,8,10,9,11,0.5,0.6
2024-05-03T0700,3622A,113.5556,24.8082,韶关市,碧湖山庄,,19,19,24,13,16,26,,,,3,4,8,9,0.4,0.4
2024-05-03T0700,2462A,111.5239,27.3033,邵阳市,市水土所,,25,23,23,17,21,38,,,,3,4,5,5,0.4,0.5
2024-05-03T0700,2463A,111.4733,27.2317,邵阳市,市一中,,37,37,28,25,21,60,,,,6,8,28,9,0.6,0.7
2024-05-03T0700,2464A,111.5283,27.2442,邵阳市,市化工厂,,39,31,26,27,21,53,,,,8,10,20,10,0.5,0.6
2024-05-03T0700,2465A,111.4503,27.2537,邵阳市,市罐头厂,,35,31,27,24,22,54,,,,10,10,14,7,0.6,0.7
2024-05-03T0700,2466A,111.4328,27.2272,邵阳市,市环保局,,42,29,26,29,24,62,,,,6,11,25,8,0.5,0.6
2024-05-03T0700,1247A,120.6053,29.9928,绍兴市,城东开发委,,46,46,41,28,23,42,,,,18,14,11,10,0.5,0.5
2024-05-03T0700,2921A,120.5483,30.0003,绍兴市,树下王站,,48,34,35,33,24,60,,,,14,15,10,9,0.5,0.5
2024-05-03T0700,3408A,120.5683,29.9361,绍兴市,绍兴中专,,40,40,36,23,24,40,,,,16,17,8,9,0.5,0.5
2024-05-03T0700,3409A,120.4906,30.0861,绍兴市,柯桥区政府,颗粒物(PM10),52,54,51,26,25,43,,,,18,19,8,7,0.7,0.7
2024-05-03T0700,3410A,120.8752,30.0249,绍兴市,重华小学,,48,46,34,33,22,42,,,,16,12,6,6,0.7,0.6
2024-05-03T0700,3411A,120.8369,30.0137,绍兴市,上虞中学,,42,39,32,29,21,46,,,,18,15,7,8,0.5,0.4
2024-05-03T0700,3560A,120.4722,30.0415,绍兴市,柯桥妇保,细颗粒物(PM2.5),57,51,43,40,25,50,,,,17,17,8,8,0.6,0.6
2024-05-03T0700,3658A,120.6153,30.0764,绍兴市,袍江中学,,50,50,39,31,20,27,,,,33,15,6,6,0.7,0.6
2024-05-03T0700,1356A,114.1063,22.5545,深圳市,通心岭子站,,32,23,26,12,14,102,,,,5,11,5,4,0.6,0.7
2024-05-03T0700,1357A,114.117,22.5625,深圳市,洪湖,,34,28,29,15,15,106,,,,9,15,5,5,0.5,0.6
2024-05-03T0700,1358A,113.987,22.5417,深圳市,华侨城,,34,23,25,11,13,107,,,,2,7,4,4,0.5,0.6
2024-05-03T0700,1359A,113.9181,22.5171,深圳市,南海子站,,35,25,29,10,13,109,,,,6,12,8,8,0.6,0.6
2024-05-03T0700,1360A,114.2458,22.5689,深圳市,盐田,,28,28,27,16,14,85,,,,26,38,4,4,0.5,0.5
2024-05-03T0700,1361A,114.2283,22.7244,深圳市,龙岗,,32,23,28,11,13,102,,,,3,7,2,2,0.6,0.7
2024-05-03T0700,1363A,114.494,22.5422,深圳市,南澳,,35,22,18,9,10,112,,,,4,3,4,4,0.5,0.5
2024-05-03T0700,1364A,114.41,22.6342,深圳市,葵涌,,34,21,27,13,14,107,,,,6,8,5,5,0.6,0.7
2024-05-03T0700,1365A,114.297,22.5978,深圳市,梅沙,,34,29,29,13,14,107,,,,2,4,6,6,0.5,0.6
2024-05-03T0700,1366A,114.0678,22.738,深圳市,观澜,,32,26,33,11,13,100,,,,5,9,6,6,0.5,0.6
2024-05-03T0700,3305A,114.0731,22.559,深圳市,莲花,,32,23,26,15,17,100,,,,6,11,3,3,0.5,0.6
2024-05-03T0700,3306A,114.0261,22.6198,深圳市,民治,,30,19,25,12,15,94,,,,9,14,4,4,0.6,0.6
2024-05-03T0700,3307A,114.1871,22.6451,深圳市,横岗,,31,24,28,14,17,98,,,,10,14,4,4,0.5,0.6
2024-05-03T0700,3447A,114.3551,22.7151,深圳市,坪山,,34,23,30,14,15,107,,,,8,12,5,5,0.5,0.6
2024-05-03T0700,3623A,113.8953,22.5861,深圳市,西乡,,34,24,30,10,12,106,,,,6,11,5,5,0.5,0.6
2024-05-03T0700,1099A,123.505,41.7406,沈阳市,浑南东路,颗粒物(PM10),67,84,74,33,24,121,,,,32,19,20,20,0.8,0.7
2024-05-03T0700,1100A,123.4231,41.6989,沈阳市,新秀街,颗粒物(PM10),74,98,83,35,24,119,,,,32,21,96,26,1.0,0.7
2024-05-03T0700,1102A,123.5903,41.8411,沈阳市,东陵路,"颗粒物(PM10),细颗粒物(PM2.5)",64,78,80,46,22,79,,,,49,21,20,15,2.3,0.8
2024-05-03T0700,1103A,123.4264,41.8467,沈阳市,陵东街,颗粒物(PM10),82,113,77,41,27,140,,,,30,23,30,17,1.0,0.7
2024-05-03T0700,1104A,123.4114,41.7653,沈阳市,文化路,颗粒物(PM10),70,90,75,48,31,140,,,,26,17,34,19,1.1,0.7
2024-05-03T0700,1105A,123.4678,41.7867,沈阳市,小河沿,颗粒物(PM10),70,89,79,34,24,127,,,,30,21,39,17,1.1,0.8
2024-05-03T0700,1106A,123.4017,41.7972,沈阳市,太原街,细颗粒物(PM2.5),62,71,61,44,30,136,,,,29,22,40,22,0.9,0.6
2024-05-03T0700,1108A,123.3783,41.9228,沈阳市,京沈街,细颗粒物(PM2.5),67,61,79,48,29,142,,,,24,16,24,18,1.2,0.9
2024-05-03T0700,2897A,123.2444,41.7347,沈阳市,沈辽西路,颗粒物(PM10),88,126,94,59,32,115,,,,33,20,22,15,1.3,0.9
