timepoint,stationcode,longitude,latitude,area,positionname,primarypollutant,aqi,pm10,pm10_24h,pm2_5,pm2_5_24h,o3,o3_24h,o3_8h,o3_8h_24h,no2,no2_24h,so2,so2_24h,co,co_24h
2022-07-24T04:00:00,1001A,116.3621,39.8784,北京市,万寿西宫,,49,47,24,34,13,149,70,90,77,18,14,3,3,0.5,0.5
2022-07-24T04:00:00,1002A,116.2202,40.2915,北京市,定陵(对照点),,20,20,17,9,8,153,46,58,54,6,5,3,3,0.3,0.3
2022-07-24T04:00:00,1003A,116.4174,39.9289,北京市,东四,,48,48,25,26,13,175,87,111,98,20,13,1,1,0.4,0.3
2022-07-24T04:00:00,1004A,116.4072,39.8863,北京市,天坛,,39,39,21,25,11,146,43,71,57,18,14,3,3,0.4,0.3
2022-07-24T04:00:00,1005A,116.462,39.9365,北京市,农展馆,颗粒物(PM10),51,51,24,26,13,164,81,96,91,22,18,3,2,0.4,0.3
2022-07-24T04:00:00,1006A,116.3392,39.9295,北京市,官园,,47,47,21,31,13,166,70,103,90,20,16,2,2,0.4,0.3
2022-07-24T04:00:00,1007A,116.2878,39.9611,北京市,海淀万柳,,32,32,24,16,12,149,44,46,40,32,25,3,3,0.3,0.4
2022-07-24T04:00:00,1008A,116.6636,40.135,北京市,顺义新城,颗粒物(PM10),86,121,33,63,15,159,42,45,42,27,15,3,3,0.7,0.4
2022-07-24T04:00:00,1009A,116.6275,40.3275,北京市,怀柔镇,,32,32,19,21,11,155,47,59,54,10,9,2,2,0.3,0.4
2022-07-24T04:00:00,1010A,116.2296,40.217,北京市,昌平镇,,20,20,17,12,9,146,43,66,47,26,9,3,2,0.3,0.3
2022-07-24T04:00:00,1011A,116.3966,39.9821,北京市,奥体中心,,39,38,25,14,11,158,10,72,56,78,25,3,3,0.2,0.1
2022-07-24T04:00:00,1012A,116.184,39.9136,北京市,古城,颗粒物(PM10),54,58,32,24,13,141,23,68,44,46,20,3,3,0.4,0.3
2022-07-24T04:00:00,1015A,117.1444,39.1661,天津市,勤俭道,,40,40,25,20,13,164,103,114,108,11,11,8,9,0.5,0.4
2022-07-24T04:00:00,1017A,117.237,39.1082,天津市,大直沽八号路,,43,43,26,21,14,162,102,104,102,11,11,8,8,0.6,0.5
2022-07-24T04:00:00,1018A,117.202,39.0927,天津市,前进道,,42,39,27,29,16,163,99,101,100,15,14,6,6,0.6,0.6
2022-07-24T04:00:00,1019A,117.1837,39.2133,天津市,淮河道,,40,40,28,21,13,177,107,118,112,15,14,8,7,0.6,0.5
2022-07-24T04:00:00,1021A,117.307,39.0877,天津市,跃进路,颗粒物(PM10),51,51,29,13,14,166,104,102,102,13,15,6,6,0.4,0.4
2022-07-24T04:00:00,1023A,117.707,39.0343,天津市,第四大街,颗粒物(PM10),61,71,32,31,15,169,81,93,85,24,20,7,6,0.9,0.9
2022-07-24T04:00:00,1024A,117.457,38.8394,天津市,永明路,,41,41,23,27,14,172,94,120,102,12,10,7,6,0.5,0.5
2022-07-24T04:00:00,1026A,117.764,39.1587,天津市,汉北路,颗粒物(PM10),51,52,26,25,13,169,70,79,77,22,13,7,6,1.1,0.6
2022-07-24T04:00:00,1027A,117.157,38.9194,天津市,团泊洼(对照点),,49,49,25,30,15,178,101,110,106,15,12,5,6,0.7,0.7
2022-07-24T04:00:00,1029A,114.4422,38.0444,石家庄市,职工医院,,,,20,,16,52,,70,,,19,,3,,0.6
2022-07-24T04:00:00,1030A,114.6063,38.0266,石家庄市,高新区,,48,48,34,30,20,190,43,88,64,28,20,3,3,0.7,0.5
2022-07-24T04:00:00,1031A,114.4898,38.1328,石家庄市,西北水源,颗粒物(PM10),52,54,27,27,18,175,5,96,48,76,18,4,4,0.6,0.5
2022-07-24T04:00:00,1032A,114.4586,38.0058,石家庄市,西南高教,,47,47,26,28,15,160,20,76,50,48,16,1,2,0.7,0.6
2022-07-24T04:00:00,1033A,114.5331,38.0178,石家庄市,世纪公园,,48,48,38,30,21,169,33,81,55,25,13,7,7,0.5,0.5
2022-07-24T04:00:00,1034A,114.509,38.0457,石家庄市,人民会堂,,36,36,26,25,13,176,55,100,75,20,9,6,6,0.6,0.5
2022-07-24T04:00:00,1035A,114.3524,37.8911,石家庄市,封龙山(对照点),,37,35,20,24,16,133,117,123,122,7,6,10,6,0.4,0.5
2022-07-24T04:00:00,1037A,118.131,39.6363,唐山市,雷达站,,40,40,44,27,19,180,79,93,90,11,14,6,3,1.1,0.7
2022-07-24T04:00:00,1038A,118.1725,39.6334,唐山市,物资局,,41,41,45,28,24,173,76,90,86,10,15,7,5,0.7,0.7
2022-07-24T04:00:00,1040A,118.1705,39.6506,唐山市,十二中,,39,26,36,27,20,177,77,85,83,12,17,5,4,0.7,0.9
2022-07-24T04:00:00,1041A,118.1869,39.622,唐山市,小山,,39,31,38,27,26,176,65,82,76,14,12,5,4,0.6,0.6
2022-07-24T04:00:00,1042A,119.5134,39.8207,秦皇岛市,北戴河环保局,颗粒物(PM10),53,56,39,9,8,125,22,53,30,26,16,2,2,0.4,0.4
2022-07-24T04:00:00,1043A,119.7493,40.0116,秦皇岛市,第一关,,22,22,23,5,8,108,14,45,34,44,29,2,8,0.4,0.4
2022-07-24T04:00:00,1044A,119.5897,39.9499,秦皇岛市,监测站,,25,25,26,7,12,118,44,48,47,12,8,5,6,0.1,0.2
2022-07-24T04:00:00,1046A,119.5251,39.9041,秦皇岛市,建设大厦,,34,34,25,9,7,126,31,25,25,33,22,4,2,0.3,0.4
2022-07-24T04:00:00,1047A,114.5129,36.61763,邯郸市,环保局,,,,,,,,,,,,,,,,
2022-07-24T04:00:00,1048A,114.5302,36.6116,邯郸市,东污水处理厂,细颗粒物(PM2.5),54,48,28,38,16,163,33,76,52,31,10,6,7,1.2,1
2022-07-24T04:00:00,1049A,114.4918,36.5713,邯郸市,矿院,颗粒物(PM10),51,52,29,35,15,166,26,69,45,40,13,4,5,1.0,0.8
2022-07-24T04:00:00,1050A,114.484,36.6133,邯郸市,丛台公园,颗粒物(PM10),62,73,40,37,16,165,52,78,61,25,12,8,5,1.0,0.6
2022-07-24T04:00:00,1051A,115.493,38.8632,保定市,游泳馆,,35,35,17,12,9,164,70,85,78,19,14,6,5,0.3,0.2
2022-07-24T04:00:00,1052A,115.5213,38.8959,保定市,华电二区,,44,44,29,15,10,163,75,91,84,13,9,6,5,0.4,0.4
2022-07-24T04:00:00,1053A,115.4713,38.9108,保定市,接待中心,,37,37,18,13,11,167,83,91,89,15,12,6,5,0.6,0.6
2022-07-24T04:00:00,1054A,115.4612,38.8416,保定市,地表水厂,,48,48,30,22,14,163,58,84,73,19,11,6,5,0.5,0.4
2022-07-24T04:00:00,1055A,115.4323,38.8697,保定市,胶片厂,,39,28,18,27,12,171,72,89,83,15,12,6,5,0.4,0.4
2022-07-24T04:00:00,1056A,115.5086,38.8639,保定市,监测站,,30,30,24,11,12,170,62,88,76,19,12,11,8,0.5,0.3
2022-07-24T04:00:00,1057A,114.8883,40.8336,张家口市,人民公园,,,19,26,3,8,156,41,55,46,10,10,,5,0.0,0.2
2022-07-24T04:00:00,1059A,114.8687,40.8042,张家口市,五金库,,18,17,24,12,14,148,46,61,53,12,14,7,7,0.3,0.3
2022-07-24T04:00:00,1060A,114.8902,40.762,张家口市,世纪豪园,,25,25,33,12,21,157,47,61,53,12,14,5,6,0.2,0.3
2022-07-24T04:00:00,1061A,114.8916,40.8661,张家口市,北泵房(对照点),,23,22,28,16,16,155,36,53,44,11,10,5,5,0.5,0.6
2022-07-24T04:00:00,1062A,117.9531,40.9081,承德市,铁路,,20,17,20,12,12,148,61,75,71,15,16,5,5,0.2,0.3
2022-07-24T04:00:00,1063A,117.9392,40.9763,承德市,中国银行,,17,7,10,2,9,152,52,78,66,12,11,8,6,0.1,0.2
2022-07-24T04:00:00,1064A,117.9503,40.928,承德市,开发区,,23,16,25,10,11,155,72,93,86,12,15,6,5,0.2,0.3
2022-07-24T04:00:00,1065A,117.8051,40.9655,承德市,文化中心,,19,12,14,12,9,140,59,87,74,10,14,7,6,0.3,0.3
2022-07-24T04:00:00,1066A,117.9268,41.0026,承德市,离宫(对照点),,14,14,17,4,10,135,26,50,41,10,10,2,2,0.1,0.2
2022-07-24T04:00:00,1067A,116.6708,39.5111,廊坊市,药材公司,颗粒物(PM10),54,57,24,25,13,161,57,71,62,24,18,7,6,0.5,0.3
2022-07-24T04:00:00,1068A,116.7214,39.5589,廊坊市,开发区,颗粒物(PM10),52,54,26,26,14,171,58,78,72,28,21,9,8,0.5,0.3
2022-07-24T04:00:00,1070A,116.7244,39.5269,廊坊市,北华航天学院,颗粒物(PM10),59,68,35,28,19,167,65,89,75,27,21,7,6,0.4,0.2
2022-07-24T04:00:00,1071A,116.8842,38.2991,沧州市,沧县城建局,,42,42,29,17,10,152,60,75,68,20,15,8,7,0.4,0.3
2022-07-24T04:00:00,1072A,116.8584,38.3254,沧州市,电视转播站,,35,31,24,24,11,160,71,124,110,21,12,9,7,0.5,0.4
2022-07-24T04:00:00,1073A,116.8709,38.3228,沧州市,市环保局,,38,38,24,19,13,163,68,118,100,18,11,6,6,0.3,0.2
2022-07-24T04:00:00,1074A,115.6838,37.7541,衡水市,电机北厂,,30,27,18,13,10,162,96,106,101,12,9,6,5,0.3,0.2
2022-07-24T04:00:00,1075A,115.6303,37.7316,衡水市,市监测站,,48,48,31,16,11,159,79,100,90,12,9,6,5,0.5,0.4
2022-07-24T04:00:00,1077A,114.4704,37.0886,邢台市,达活泉,颗粒物(PM10),63,76,39,34,16,171,49,88,66,22,11,12,8,1.6,0.6
2022-07-24T04:00:00,1078A,114.5062,37.0349,邢台市,邢师高专,颗粒物(PM10),65,80,32,37,14,160,35,73,53,28,14,9,7,1.4,0.4
2022-07-24T04:00:00,1079A,114.5237,37.0851,邢台市,路桥公司,颗粒物(PM10),68,86,32,27,12,161,46,96,70,23,9,16,9,1.8,0.6
2022-07-24T04:00:00,1080A,114.4725,37.0719,邢台市,市环保局,颗粒物(PM10),79,107,40,39,19,173,45,91,67,26,12,12,7,2.3,0.7
2022-07-24T04:00:00,1081A,112.5139,37.8873,太原市,尖草坪,颗粒物(PM10),71,92,63,47,37,253,27,45,28,56,35,17,10,0.8,0.7
2022-07-24T04:00:00,1083A,112.434,38.0108,太原市,上兰(对照点),,,,,,,,,,,,,,,,
2022-07-24T04:00:00,1084A,112.469,37.7124,太原市,晋源,颗粒物(PM10),61,72,67,35,38,217,5,5,5,60,38,12,13,0.8,0.8
2022-07-24T04:00:00,1085A,112.5583,37.7394,太原市,小店,颗粒物(PM10),73,95,64,41,34,231,45,48,42,39,33,25,14,0.7,0.6
2022-07-24T04:00:00,1086A,112.5369,37.8692,太原市,桃园,颗粒物(PM10),69,87,62,45,35,249,34,48,38,50,32,21,11,0.8,0.8
2022-07-24T04:00:00,1087A,112.57,37.8195,太原市,坞城,颗粒物(PM10),67,84,55,44,33,243,32,27,27,50,32,21,11,0.9,0.6
2022-07-24T04:00:00,1088A,112.549,37.9854,太原市,南寨,颗粒物(PM10),60,70,51,38,30,214,2,2,2,41,32,5,10,0.9,1
2022-07-24T04:00:00,1089A,112.4701,37.782,太原市,金胜,,,,,,,,,,,,,,,,
2022-07-24T04:00:00,1090A,111.6507,40.7517,呼和浩特市,呼市一监,,34,34,47,13,16,170,66,112,86,21,19,7,7,0.3,0.4
2022-07-24T04:00:00,1091A,111.6572,40.8033,呼和浩特市,小召,,36,36,43,10,17,163,76,96,88,23,22,8,10,0.3,0.4
2022-07-24T04:00:00,1094A,111.7516,40.8369,呼和浩特市,如意水处理厂,,49,49,38,12,17,170,62,100,88,29,22,9,9,0.4,0.4
2022-07-24T04:00:00,1095A,111.7276,40.8062,呼和浩特市,二十九中,,46,46,39,10,18,157,70,98,86,24,21,11,10,0.3,0.3
2022-07-24T04:00:00,1096A,111.5512,40.7866,呼和浩特市,工大金川校区,,48,48,45,14,18,169,66,93,83,24,20,11,8,0.5,0.4
2022-07-24T04:00:00,1097A,111.717,40.7612,呼和浩特市,化肥厂生活区,,41,41,41,12,18,165,69,105,84,22,19,7,7,0.4,0.4
2022-07-24T04:00:00,1098A,123.6836,41.9339,沈阳市,森林路(对照点),,,,,,,,,,,,,,,,
2022-07-24T04:00:00,1099A,123.505,41.7406,沈阳市,浑南东路,,18,18,27,9,15,92,24,61,49,23,17,6,10,0.6,0.8
2022-07-24T04:00:00,1100A,123.4231,41.6989,沈阳市,新秀街,,13,13,31,3,11,86,38,50,43,18,23,5,9,0.5,0.8
2022-07-24T04:00:00,1102A,123.5903,41.8411,沈阳市,东陵路,,20,20,31,9,13,86,26,29,25,8,14,7,11,0.5,0.8
2022-07-24T04:00:00,1103A,123.4264,41.8467,沈阳市,陵东街,,19,19,29,9,14,86,18,30,26,17,25,4,6,0.5,0.9
2022-07-24T04:00:00,1104A,123.4114,41.7653,沈阳市,文化路,,17,17,34,8,17,104,49,73,63,15,22,6,10,0.6,0.9
2022-07-24T04:00:00,1105A,123.4678,41.7867,沈阳市,小河沿,,28,28,29,15,15,88,29,39,34,13,21,4,8,0.9,1
2022-07-24T04:00:00,1106A,123.4017,41.7972,沈阳市,太原街,,22,22,29,15,18,93,35,68,52,23,27,4,7,0.6,0.8
2022-07-24T04:00:00,1108A,123.3783,41.9228,沈阳市,京沈街,,29,23,30,20,16,92,49,46,46,8,23,10,12,0.5,0.8
2022-07-24T04:00:00,1109A,121.612,38.9741,大连市,甘井子,,35,35,24,24,18,108,34,44,39,28,25,4,4,0.6,0.6
2022-07-24T04:00:00,1110A,121.565,38.9511,大连市,周水子,,43,17,23,30,19,104,18,18,18,20,21,12,10,1.5,0.6
2022-07-24T04:00:00,1111A,121.5637,38.8845,大连市,星海三站,,36,29,21,25,23,142,30,57,41,27,20,5,5,0.4,0.4
2022-07-24T04:00:00,1112A,121.6302,38.9117,大连市,青泥洼桥,,42,39,22,29,19,111,12,31,17,34,19,7,6,0.7,0.6
2022-07-24T04:00:00,1113A,121.6251,38.8638,大连市,傅家庄,,26,21,20,18,14,123,22,42,36,30,10,9,9,0.5,0.5
2022-07-24T04:00:00,1114A,121.5213,38.8661,大连市,七贤岭,,23,21,21,16,14,143,27,50,35,8,8,6,7,1.0,0.8
2022-07-24T04:00:00,1115A,121.2529,38.8061,大连市,旅顺,,18,14,17,12,14,114,56,57,52,5,10,4,4,0.8,0.7
2022-07-24T04:00:00,1116A,121.7485,39.1311,大连市,金州,,24,15,16,10,10,101,75,72,72,5,8,5,6,0.5,0.4
2022-07-24T04:00:00,1117A,121.7811,39.0496,大连市,开发区,,23,21,25,16,15,125,62,102,83,14,19,5,6,0.9,0.9
2022-07-24T04:00:00,1118A,121.9762,39.0631,大连市,双D港,,25,25,16,14,11,121,72,67,64,11,12,6,7,0.5,0.6
2022-07-24T04:00:00,1119A,125.3325,43.9166,长春市,食品厂,,19,14,30,13,10,87,33,63,52,29,18,3,4,0.5,0.5
2022-07-24T04:00:00,1120A,125.2863,43.9027,长春市,客车厂,,17,13,27,8,8,90,52,71,62,21,24,3,4,0.5,0.5
2022-07-24T04:00:00,1121A,125.2841,43.8463,长春市,邮电学院,,21,21,23,10,10,81,42,48,37,12,13,4,5,0.4,0.5
2022-07-24T04:00:00,1122A,125.3716,43.8772,长春市,劳动公园,,15,15,29,8,12,86,40,62,46,14,18,2,3,0.4,0.5
2022-07-24T04:00:00,1123A,125.3297,43.8805,长春市,园林处,,17,17,27,8,9,81,42,56,51,17,19,3,4,0.4,0.5
2022-07-24T04:00:00,1124A,125.4605,43.79,长春市,净月潭,,18,18,15,5,3,67,43,34,34,4,3,6,6,0.3,0.4
2022-07-24T04:00:00,1125A,125.7194,43.515,长春市,甩湾子(对照点),,,,,,,,,,,,,,,,
2022-07-24T04:00:00,1126A,125.3863,43.8447,长春市,经开区环卫处,,17,17,20,7,9,79,36,54,44,11,15,4,4,0.4,0.5
2022-07-24T04:00:00,1127A,125.245,43.7783,长春市,高新区管委会,,14,11,25,9,9,88,42,69,50,12,17,3,4,0.3,0.4
2022-07-24T04:00:00,1128A,125.1761,43.8325,长春市,岱山公园,,19,16,29,7,10,86,20,67,40,37,27,4,5,0.4,0.4
2022-07-24T04:00:00,1129A,126.5422,45.755,哈尔滨市,岭北(对照点),,13,7,16,9,12,96,28,43,36,24,15,11,9,0.5,0.5
2022-07-24T04:00:00,1130A,126.561,45.8167,哈尔滨市,松北商大,,25,25,26,5,9,89,21,41,29,23,14,5,5,0.8,0.7
2022-07-24T04:00:00,1131A,126.979,45.5419,哈尔滨市,阿城会宁,,16,16,30,5,7,66,21,36,27,12,12,9,10,0.3,0.3
2022-07-24T04:00:00,1132A,126.599,45.7222,哈尔滨市,南岗学府路,,12,10,18,4,10,94,17,38,26,23,13,6,8,0.4,0.4
2022-07-24T04:00:00,1133A,126.689,45.7733,哈尔滨市,太平宏伟公园,,29,29,34,8,11,88,18,38,31,27,15,9,10,0.3,0.4
2022-07-24T04:00:00,1134A,126.635,45.7667,哈尔滨市,道外承德广场,,18,18,41,2,10,87,26,39,32,24,21,10,10,0.4,0.5
2022-07-24T04:00:00,1135A,126.685,45.7319,哈尔滨市,香坊红旗大街,,20,20,25,5,8,84,7,38,26,36,16,8,10,0.3,0.4
2022-07-24T04:00:00,1136A,126.6411,45.7258,哈尔滨市,动力和平路,,,30,30,,,85,10,37,24,33,16,5,6,0.5,0.6
2022-07-24T04:00:00,1137A,126.593,45.7478,哈尔滨市,道里建国路,,20,20,28,6,10,95,15,36,30,33,18,13,13,1.7,0.6
2022-07-24T04:00:00,1138A,126.615,45.61,哈尔滨市,平房东轻厂,,34,34,32,10,13,86,29,22,22,11,17,3,6,0.4,0.5
2022-07-24T04:00:00,1139A,126.595,45.9855,哈尔滨市,呼兰师专,,14,14,27,7,9,74,28,35,30,15,14,8,9,0.5,0.5
2022-07-24T04:00:00,1140A,126.6206,45.6842,哈尔滨市,省农科院,,17,17,30,4,8,94,18,34,24,19,13,10,11,0.5,0.3
2022-07-24T04:00:00,1141A,121.4,31.238,上海市,普陀,,32,22,41,22,23,150,81,81,81,13,13,8,4,1.1,0.6
2022-07-24T04:00:00,1142A,121.478,31.2036,上海市,十五厂,,33,24,35,23,26,132,71,73,72,18,18,5,2,0.9,0.6
2022-07-24T04:00:00,1143A,121.467,31.3008,上海市,虹口,,29,24,38,20,20,140,73,78,76,18,18,7,3,0.6,0.4
2022-07-24T04:00:00,1144A,121.412,31.1654,上海市,徐汇上师大,,35,26,38,24,24,136,77,72,72,23,24,10,4,0.8,0.5
2022-07-24T04:00:00,1145A,121.536,31.2659,上海市,杨浦四漂,,29,19,34,20,25,140,80,80,80,14,14,5,4,0.9,0.7
2022-07-24T04:00:00,1146A,120.978,31.0935,上海市,青浦淀山湖(对照点),,,,,,,,,,,,,,,,
2022-07-24T04:00:00,1147A,121.425,31.2261,上海市,静安监测站,,34,34,40,21,21,135,69,70,70,21,21,3,2,1.1,0.6
2022-07-24T04:00:00,1148A,121.703,31.1907,上海市,浦东川沙,,30,10,42,21,27,133,77,58,57,20,22,4,4,0.5,0.2
2022-07-24T04:00:00,1149A,121.533,31.2284,上海市,浦东新区监测站,,29,29,41,0,30,139,69,79,76,24,18,7,8,1.2,0.7
2022-07-24T04:00:00,1150A,121.577,31.2071,上海市,浦东张江,,25,11,33,17,24,205,76,71,71,19,19,4,4,0.9,0.9
2022-07-24T04:00:00,1151A,118.8086,32.1065,南京市,迈皋桥,,33,33,29,17,10,109,69,90,82,12,10,2,2,0.4,0.4
2022-07-24T04:00:00,1152A,118.7538,32.0551,南京市,草场门,,32,27,27,22,14,113,75,85,80,13,12,2,2,0.5,0.6
2022-07-24T04:00:00,1153A,118.7794,32.0745,南京市,山西路,,39,39,31,24,20,123,91,108,95,9,8,4,4,0.2,0.3
2022-07-24T04:00:00,1154A,118.7752,32.0023,南京市,中华门,,41,41,31,14,9,116,75,94,84,12,12,3,4,1.0,1
2022-07-24T04:00:00,1155A,118.8109,32.0309,南京市,瑞金路,,39,39,33,17,15,121,92,102,96,6,9,4,4,0.4,0.3
2022-07-24T04:00:00,1156A,118.7997,32.0754,南京市,玄武湖,,38,37,28,26,18,109,80,96,83,11,7,4,4,0.7,0.7
2022-07-24T04:00:00,1157A,118.6414,32.0931,南京市,浦口,,,,29,17,11,109,61,61,58,8,10,2,2,0.4,0.4
2022-07-24T04:00:00,1158A,118.7356,31.9996,南京市,奥体中心,颗粒物(PM10),51,51,33,22,16,117,70,90,82,18,15,4,4,0.4,0.4
2022-07-24T04:00:00,1159A,118.9125,32.1028,南京市,仙林大学城,,28,24,28,14,15,123,87,84,84,9,13,5,6,0.6,0.8
2022-07-24T04:00:00,1160A,120.561,31.2472,苏州市,上方山(对照点),,36,36,50,20,27,134,76,86,83,17,17,7,6,0.9,0.6
2022-07-24T04:00:00,1161A,120.628,31.2864,苏州市,南门,,,,,,,,,,,,,,,,
2022-07-24T04:00:00,1162A,120.591,31.3019,苏州市,彩香,,35,24,33,24,27,148,82,85,84,15,14,7,6,0.7,0.5
2022-07-24T04:00:00,1163A,120.596,31.3264,苏州市,轧钢厂,,26,26,26,15,19,138,78,81,79,15,15,6,5,0.6,0.5
2022-07-24T04:00:00,1164A,120.613,31.2703,苏州市,吴中区,,28,24,39,13,17,145,87,89,88,15,18,3,5,0.6,0.5
2022-07-24T04:00:00,1165A,120.543,31.2994,苏州市,苏州新区,,27,27,28,15,22,149,83,95,92,10,8,8,7,0.8,0.8
2022-07-24T04:00:00,1166A,120.669,31.3097,苏州市,苏州工业园区,,25,17,36,16,21,130,78,81,78,14,18,10,8,0.9,0.7
2022-07-24T04:00:00,1167A,120.641,31.3708,苏州市,相城区,,30,28,35,13,21,144,93,90,90,8,14,10,8,0.5,0.5
2022-07-24T04:00:00,1168A,120.9098,31.9663,南通市,狼山街道,,33,26,33,5,19,139,104,102,102,8,18,7,8,0.5,0.6
2022-07-24T04:00:00,1169A,120.86,32.0005,南通市,虹桥,,31,23,39,15,23,148,98,97,97,12,20,10,10,0.5,0.6
2022-07-24T04:00:00,1170A,120.87,32.02,南通市,城中,,29,21,38,15,24,147,92,92,92,9,18,8,7,0.6,0.7
2022-07-24T04:00:00,1171A,120.94,31.93,南通市,星湖花园,,31,27,38,9,21,147,97,93,85,13,27,9,7,0.7,0.8
2022-07-24T04:00:00,1172A,120.81,32.0417,南通市,紫琅学院,,30,21,44,12,21,169,95,97,97,3,10,2,4,0.6,0.7
2022-07-24T04:00:00,1173A,119.176,34.5885,连云港市,市环境监测站,,44,44,22,24,12,89,17,32,28,40,18,10,3,0.7,0.6
2022-07-24T04:00:00,1177A,117.179,34.2761,徐州市,黄河新村,,46,46,27,25,16,116,59,68,60,20,16,8,6,0.6,0.6
2022-07-24T04:00:00,1178A,117.1918,34.2384,徐州市,淮塔,,40,40,28,27,17,118,38,71,54,16,9,6,7,0.4,0.4
2022-07-24T04:00:00,1180A,117.256,34.2153,徐州市,新城区,,46,46,31,27,13,110,66,59,59,15,11,6,6,0.6,0.5
2022-07-24T04:00:00,1181A,117.244,34.2911,徐州市,桃园路,颗粒物(PM10),51,51,30,24,10,118,26,55,43,32,14,10,10,0.7,0.6
2022-07-24T04:00:00,1182A,117.2933,34.2778,徐州市,农科院,,44,44,22,17,7,119,41,60,48,28,11,5,4,0.4,0.4
2022-07-24T04:00:00,1186A,119.389,32.3761,扬州市,邗江监测站,,29,27,33,20,18,118,62,76,69,8,8,8,8,0.7,0.6
2022-07-24T04:00:00,1188A,120.269,31.4867,无锡市,雪浪,,30,24,35,17,22,151,95,93,93,2,7,11,12,0.6,0.6
2022-07-24T04:00:00,1189A,120.275,31.6219,无锡市,黄巷,,31,28,39,17,21,146,98,97,95,14,17,9,9,0.7,0.6
2022-07-24T04:00:00,1190A,120.294,31.56,无锡市,曹张,,28,24,38,17,22,144,88,98,92,13,14,7,6,0.8,0.8
2022-07-24T04:00:00,1191A,120.242,31.5031,无锡市,漆塘,,32,27,35,19,20,156,101,99,99,7,9,6,6,0.6,0.7
2022-07-24T04:00:00,1192A,120.3489,31.5863,无锡市,东亭,,30,24,38,17,22,149,93,98,96,10,14,8,9,0.6,0.7
2022-07-24T04:00:00,1193A,120.354,31.5475,无锡市,旺庄,,29,28,37,14,22,157,92,107,99,16,16,11,11,0.8,0.8
2022-07-24T04:00:00,1194A,120.245,31.5631,无锡市,荣巷,,28,24,31,19,23,141,89,90,89,3,6,14,13,0.9,0.8
2022-07-24T04:00:00,1195A,120.299,31.6817,无锡市,堰桥,,32,22,39,22,21,141,94,100,97,5,11,7,7,0.5,0.6
2022-07-24T04:00:00,1196A,119.9633,31.762,常州市,市监测站,,36,36,35,9,14,144,88,94,92,11,13,8,7,0.6,0.6
2022-07-24T04:00:00,1200A,119.9468,31.7069,常州市,武进监测站,颗粒物(PM10),51,52,39,31,24,154,82,98,92,14,11,7,3,0.9,0.8
2022-07-24T04:00:00,1201A,119.9255,31.9087,常州市,安家,细颗粒物(PM2.5),67,53,36,48,31,155,58,80,72,20,11,8,7,0.7,0.7
2022-07-24T04:00:00,1203A,119.6707,32.1875,镇江市,新区办事处,,28,27,29,17,17,156,88,97,94,20,20,6,4,0.6,0.7
2022-07-24T04:00:00,1204A,119.4974,32.1968,镇江市,职教中心,,29,21,28,7,15,150,92,92,92,11,13,6,5,0.6,0.6
2022-07-24T04:00:00,1205A,119.4303,32.1328,镇江市,丹徒区监测站,,39,39,30,25,20,156,82,97,89,19,16,7,3,0.7,0.7
2022-07-24T04:00:00,1206A,119.905,32.4878,泰州市,公园路,,35,22,31,24,22,114,64,74,70,11,10,6,7,0.7,0.8
2022-07-24T04:00:00,1207A,119.9189,32.4625,泰州市,莲花,,35,22,32,24,26,126,74,82,78,11,12,9,9,0.7,0.7
2022-07-24T04:00:00,1209A,119.888,32.4639,泰州市,留学生创业园,,32,32,28,20,17,130,71,78,76,13,13,8,8,0.7,0.7
2022-07-24T04:00:00,1210A,119.036,33.5981,淮安市,钵池山,,32,31,23,22,18,110,62,77,69,12,9,9,8,0.7,0.6
2022-07-24T04:00:00,1211A,119.007,33.575,淮安市,北京南路,,41,41,27,24,18,105,43,64,55,26,14,9,7,0.9,0.7
2022-07-24T04:00:00,1212A,118.989,33.6067,淮安市,市监测站,,44,44,28,22,15,105,49,58,56,22,15,8,6,0.6,0.6
2022-07-24T04:00:00,1213A,119.135,33.5039,淮安市,楚州区监测站,,27,27,24,12,13,104,55,66,59,21,11,7,6,0.5,0.5
2022-07-24T04:00:00,1214A,119.0186,33.6297,淮安市,淮阴区监测站,,40,40,24,26,20,102,51,65,58,17,11,8,7,0.6,0.6
2022-07-24T04:00:00,1215A,120.118,33.4022,盐城市,盐城电厂,,34,34,35,23,23,118,78,93,84,12,12,6,5,0.4,0.5
2022-07-24T04:00:00,1216A,120.156,33.3942,盐城市,市监测站,,27,24,29,17,16,120,85,97,90,8,9,6,6,0.4,0.5
2022-07-24T04:00:00,1218A,120.2144,33.38,盐城市,开发区管委会,,27,18,26,17,22,118,85,96,90,11,11,7,7,0.4,0.5
2022-07-24T04:00:00,1220A,118.293,33.9528,宿迁市,宿迁学院,,43,43,21,23,15,119,48,84,68,17,8,5,4,0.7,0.6
2022-07-24T04:00:00,1221A,118.2442,33.9592,宿迁市,宿迁中学,,37,37,22,22,11,111,47,69,58,15,7,1,2,0.6,0.6
2022-07-24T04:00:00,1223A,120.2072,30.2111,杭州市,滨江,,28,23,36,13,19,135,88,94,86,9,17,6,5,0.5,0.6
2022-07-24T04:00:00,1224A,120.0633,30.2747,杭州市,西溪,,23,22,31,11,18,122,71,87,78,11,12,7,7,0.7,0.6
2022-07-24T04:00:00,1225A,119.026,29.635,杭州市,千岛湖(对照点),,,,,,,,,,,,,,,,
2022-07-24T04:00:00,1226A,120.3461,30.3153,杭州市,下沙,,30,30,41,14,21,126,70,89,77,12,14,7,4,0.7,0.7
2022-07-24T04:00:00,1227A,120.1269,30.2456,杭州市,卧龙桥,,25,22,29,14,19,104,80,86,79,9,10,4,4,0.7,0.6
2022-07-24T04:00:00,1228A,120.1903,30.2692,杭州市,浙江农大,,28,22,29,11,18,129,88,87,86,7,12,5,4,0.6,0.6
2022-07-24T04:00:00,1229A,120.157,30.2897,杭州市,朝晖五区,,,,,,,,,,,,,,,,
2022-07-24T04:00:00,1230A,120.1197,30.3119,杭州市,和睦小学,,29,24,36,14,17,129,91,89,87,13,18,6,6,0.7,0.7
2022-07-24T04:00:00,1231A,120.3019,30.4183,杭州市,临平镇,,32,32,40,14,16,139,81,93,86,10,16,5,4,0.7,0.6
2022-07-24T04:00:00,1232A,120.2697,30.1819,杭州市,城厢镇,,26,26,38,16,25,129,76,104,86,11,16,6,6,0.6,0.6
2022-07-24T04:00:00,1233A,120.0883,30.1808,杭州市,云栖,,32,32,30,15,17,108,33,102,70,15,10,6,6,0.7,0.5
2022-07-24T04:00:00,1234A,121.8358,29.911,宁波市,区环保大楼,,28,22,33,12,22,195,88,80,80,12,17,7,9,0.9,0.8
2022-07-24T04:00:00,1235A,121.56,29.82,宁波市,万里学院,,43,26,37,30,24,167,94,100,99,11,13,11,10,0.9,0.6
2022-07-24T04:00:00,1236A,121.713,29.9572,宁波市,龙赛医院,,29,29,38,19,21,215,81,80,80,9,15,3,5,0.9,0.7
2022-07-24T04:00:00,1239A,121.633,29.7733,宁波市,钱湖水厂,,29,22,28,20,26,156,87,81,81,15,13,6,6,0.8,0.5
2022-07-24T04:00:00,1240A,121.5856,29.8635,宁波市,太古小学,,43,31,31,30,26,170,93,100,95,8,12,6,8,1.0,0.8
2022-07-24T04:00:00,1241A,121.524,29.8674,宁波市,市环境监测中心,,38,38,37,22,28,150,82,86,85,12,14,4,4,0.8,0.6
2022-07-24T04:00:00,1242A,120.634,28.0089,温州市,瓯海,颗粒物(PM10),54,58,58,27,35,172,21,71,38,36,22,7,6,0.6,0.6
2022-07-24T04:00:00,1243A,120.6748,27.9939,温州市,南浦,颗粒物(PM10),58,66,61,32,35,178,27,71,50,42,19,6,6,0.7,0.6
2022-07-24T04:00:00,1244A,120.76,27.9747,温州市,龙湾,,48,48,60,20,28,230,52,64,58,20,21,6,6,0.5,0.6
2022-07-24T04:00:00,1245A,120.6709,28.0167,温州市,市站,细颗粒物(PM2.5),62,54,50,44,34,184,33,69,42,37,23,6,6,0.7,0.6
2022-07-24T04:00:00,1246A,120.598,30.0911,绍兴市,袍江站,,,,,,,,,,,,,,,,
2022-07-24T04:00:00,1247A,120.6053,29.9928,绍兴市,城东开发委,,32,32,37,22,25,143,71,93,82,8,10,6,5,0.6,0.6
2022-07-24T04:00:00,1250A,120.0751,30.8669,湖州市,城西水厂,,24,24,38,14,18,103,55,75,62,31,26,7,5,0.7,0.6
2022-07-24T04:00:00,1252A,120.7436,30.778,嘉兴市,清河小学,,28,26,31,15,18,139,88,96,94,12,18,5,5,0.7,0.5
2022-07-24T04:00:00,1253A,120.726,30.7478,嘉兴市,嘉兴学院,,29,26,35,13,21,134,92,94,93,9,15,3,3,0.5,0.5
2022-07-24T04:00:00,1255A,121.273,28.6459,台州市,黄岩环保大楼,颗粒物(PM10),54,57,53,24,27,179,76,92,86,12,11,4,4,0.5,0.5
2022-07-24T04:00:00,1256A,121.419,28.6542,台州市,台州环保大楼,细颗粒物(PM2.5),82,61,49,60,56,151,55,106,86,26,14,4,4,0.7,0.6
2022-07-24T04:00:00,1257A,121.377,28.5773,台州市,路桥田洋王,颗粒物(PM10),52,53,53,28,30,156,77,123,104,18,16,3,3,0.6,0.6
2022-07-24T04:00:00,1258A,122.122,30.0203,舟山市,定海檀枫,,33,33,36,21,25,188,82,63,63,5,19,1,2,0.5,0.4
2022-07-24T04:00:00,1259A,122.3094,29.9558,舟山市,普陀东港,,40,40,37,26,25,174,66,80,66,22,21,4,4,0.5,0.5
2022-07-24T04:00:00,1260A,122.19,29.9944,舟山市,临城新区,,32,32,39,22,24,199,74,67,64,15,25,3,4,0.5,0.4
2022-07-24T04:00:00,1261A,119.649,29.1131,金华市,四中(停运161031),,,,,,,,,,,,,,,,
2022-07-24T04:00:00,1262A,119.647,29.077,金华市,十五中,,20,16,42,14,22,120,30,36,32,17,15,6,6,0.3,0.4
2022-07-24T04:00:00,1263A,119.686,29.1029,金华市,监测站,,22,19,49,15,23,136,29,38,35,18,13,5,6,0.4,0.5
2022-07-24T04:00:00,1264A,118.8692,28.9398,衢州市,环保大楼,,41,41,49,23,22,116,41,46,42,17,14,12,11,0.4,0.4
2022-07-24T04:00:00,1265A,118.8709,28.9666,衢州市,实验学校,,44,44,45,22,22,109,24,34,27,27,21,8,4,0.5,0.4
2022-07-24T04:00:00,1266A,118.8621,28.9808,衢州市,衢州学院,颗粒物(PM10),58,66,46,36,19,111,26,25,22,31,22,3,8,0.6,0.4
2022-07-24T04:00:00,1267A,119.914,28.4514,丽水市,监测站大楼,,,,32,,21,77,,78,,,8,,6,,0.4
2022-07-24T04:00:00,1268A,119.93,28.4586,丽水市,莲都小学,,20,20,33,6,15,117,31,34,33,12,11,6,6,0.2,0.3
2022-07-24T04:00:00,1269A,119.879,28.4231,丽水市,余庄前,,26,25,26,18,19,104,4,6,5,18,12,6,6,0.3,0.3
2022-07-24T04:00:00,1270A,117.1959,31.7848,合肥市,明珠广场,,29,29,32,17,16,98,46,40,40,25,21,5,5,0.7,0.6
2022-07-24T04:00:00,1271A,117.3072,31.8764,合肥市,三里街,,29,29,26,9,8,101,65,76,70,22,17,8,8,0.6,0.6
2022-07-24T04:00:00,1272A,117.2588,31.8707,合肥市,琥珀山庄,,29,29,25,12,9,102,60,68,64,26,15,6,5,0.7,0.6
2022-07-24T04:00:00,1273A,117.1604,31.9052,合肥市,董铺水库(对照点),,36,36,19,14,9,95,12,42,27,36,11,12,12,0.9,0.8
2022-07-24T04:00:00,1274A,117.25,31.8571,合肥市,长江中路,,32,29,29,22,17,111,74,74,73,11,7,5,4,0.5,0.5
2022-07-24T04:00:00,1275A,117.266,31.9436,合肥市,庐阳区,,25,24,23,17,16,104,58,67,64,16,8,5,5,0.7,0.6
2022-07-24T04:00:00,1276A,117.336,31.8586,合肥市,瑶海区,,36,36,30,16,13,96,65,72,69,20,15,8,8,0.5,0.5
2022-07-24T04:00:00,1277A,117.3027,31.7964,合肥市,包河区,颗粒物(PM10),59,68,27,19,13,98,6,25,18,54,23,7,8,0.6,0.5
2022-07-24T04:00:00,1278A,117.2776,31.7385,合肥市,滨湖新区,颗粒物(PM10),53,56,28,17,11,98,32,40,30,38,20,9,8,0.6,0.5
2022-07-24T04:00:00,1279A,117.1318,31.8403,合肥市,高新区,,46,46,26,27,15,101,48,70,52,27,13,3,3,0.7,0.6
2022-07-24T04:00:00,1280A,119.3903,26.0543,福州市,鼓山(对照点),,,,,,,,,,,,,,,,
2022-07-24T04:00:00,1282A,119.2681,26.0504,福州市,师大,,47,47,49,32,22,157,41,79,66,20,12,4,4,0.4,0.3
2022-07-24T04:00:00,1283A,119.2984,26.1028,福州市,五四北路,颗粒物(PM10),55,59,56,35,27,151,51,98,75,22,15,4,4,0.5,0.4
2022-07-24T04:00:00,1284A,119.2648,26.0768,福州市,杨桥西路,颗粒物(PM10),51,51,54,32,26,151,34,82,60,20,12,4,5,0.4,0.4
2022-07-24T04:00:00,1285A,119.317,26.0746,福州市,紫阳,颗粒物(PM10),57,63,51,30,22,165,69,88,78,15,12,4,5,0.5,0.5
2022-07-24T04:00:00,1286A,118.1608,24.8169,厦门市,溪东(对照点),,,,,,,,,,,,,,,,
2022-07-24T04:00:00,1287A,118.1514,24.4767,厦门市,洪文,,30,30,44,15,24,158,34,72,53,29,20,3,4,0.4,0.4
2022-07-24T04:00:00,1288A,118.0661,24.4444,厦门市,鼓浪屿,,32,32,40,18,25,148,58,66,63,14,20,2,6,0.4,0.5
2022-07-24T04:00:00,1290A,115.8931,28.6843,南昌市,省外办,,41,41,40,9,11,112,73,80,77,13,15,7,12,0.6,0.5
2022-07-24T04:00:00,1291A,115.8886,28.7003,南昌市,省林业公司,,36,36,32,14,8,109,53,65,61,21,16,8,13,0.8,0.6
2022-07-24T04:00:00,1292A,115.8126,28.7442,南昌市,林科所,,18,17,29,12,11,119,40,65,54,14,15,5,10,0.5,0.5
2022-07-24T04:00:00,1294A,115.8518,28.687,南昌市,建工学校,,50,50,37,18,17,107,57,75,59,15,16,4,9,0.7,0.5
2022-07-24T04:00:00,1295A,115.8921,28.6424,南昌市,象湖,颗粒物(PM10),52,53,40,18,11,113,63,71,68,12,15,4,11,0.7,0.5
2022-07-24T04:00:00,1296A,115.7423,28.7996,南昌市,武术学校(对照点),,20,20,16,14,10,68,0,13,6,5,4,13,15,0.7,0.7
2022-07-24T04:00:00,1298A,115.9314,28.6842,南昌市,省站,,38,36,36,26,22,110,64,74,66,10,11,7,13,0.8,0.7
2022-07-24T04:00:00,1299A,116.9862,36.6114,济南市,科干所,,33,14,13,10,6,113,105,100,100,9,12,5,2,0.6,0.4
2022-07-24T04:00:00,1300A,116.9376,36.665,济南市,农科所,,20,20,12,10,3,106,36,34,34,16,15,4,4,0.3,0.2
2022-07-24T04:00:00,1301A,117.1265,36.6734,济南市,开发区,,25,22,13,13,8,113,80,76,76,18,15,4,2,0.6,0.4
2022-07-24T04:00:00,1303A,117.0624,36.6868,济南市,省种子仓库,,23,22,15,14,7,112,73,67,67,12,10,2,1,0.5,0.3
2022-07-24T04:00:00,1304A,116.9489,36.6447,济南市,机床二厂,,18,15,15,10,4,121,56,51,50,14,12,3,3,0.4,0.3
2022-07-24T04:00:00,1305A,117.0495,36.663,济南市,市监测站,,30,15,13,10,5,119,96,96,96,6,10,6,5,0.5,0.4
2022-07-24T04:00:00,1306A,116.7675,36.5484,济南市,长清党校,,34,34,13,15,7,123,75,67,67,22,16,10,5,0.5,0.4
2022-07-24T04:00:00,1307A,120.6659,36.2403,青岛市,仰口(对照点),,21,9,15,9,17,90,67,72,71,2,12,1,4,0.5,0.5
2022-07-24T04:00:00,1308A,120.3905,36.1851,青岛市,李沧区子站,,,,,,,,,,,,,,,,
2022-07-24T04:00:00,1309A,120.3471,36.0699,青岛市,市北区子站,,,,,,,,,,,,,,,,
2022-07-24T04:00:00,1310A,120.4134,36.0658,青岛市,市南区东部子站,,19,19,22,12,15,160,54,76,65,14,9,8,7,0.4,0.4
2022-07-24T04:00:00,1311A,120.3664,36.1032,青岛市,四方区子站,,19,19,19,7,11,154,60,73,63,11,14,7,6,0.5,0.5
2022-07-24T04:00:00,1312A,120.2994,36.054,青岛市,市南区西部子站,,18,17,22,5,11,178,55,71,60,17,13,7,7,0.5,0.5
2022-07-24T04:00:00,1313A,120.4581,36.0858,青岛市,崂山区子站,,19,19,23,9,12,188,50,71,64,27,20,5,5,0.2,0.2
2022-07-24T04:00:00,1314A,120.1983,35.9608,青岛市,黄岛区子站,,30,9,22,7,16,202,93,90,90,12,22,5,5,0.5,0.5
2022-07-24T04:00:00,1315A,120.3999,36.3083,青岛市,城阳区子站,,23,22,23,16,14,155,22,57,38,32,14,5,5,0.6,0.6
2022-07-24T04:00:00,1316A,113.69031,34.76122,郑州市,烟厂,,50,50,41,33,26,174,89,101,98,16,16,6,5,0.7,0.8
2022-07-24T04:00:00,1317A,113.65724,34.77134,郑州市,郑纺机,,,36,44,,25,170,71,96,89,24,16,8,7,0.5,0.5
2022-07-24T04:00:00,1318A,113.67526,34.80246,郑州市,银行学校,,42,42,38,27,21,170,89,110,103,17,14,6,4,0.6,0.6
2022-07-24T04:00:00,1319A,113.56746,34.81334,郑州市,供水公司,颗粒物(PM10),52,53,41,30,23,177,80,102,94,14,11,8,7,0.4,0.4
2022-07-24T04:00:00,1320A,113.7329,34.7178,郑州市,经开区管委,细颗粒物(PM2.5),63,55,38,45,25,179,90,101,98,16,13,1,2,0.7,0.7
2022-07-24T04:00:00,1321A,113.73961,34.77172,郑州市,四十七中,颗粒物(PM10),51,52,40,27,19,177,98,109,106,14,14,6,6,0.7,0.7
2022-07-24T04:00:00,1322A,113.60532,34.74838,郑州市,市监测站,颗粒物(PM10),71,91,46,31,27,177,69,102,91,28,17,5,5,0.7,0.7
2022-07-24T04:00:00,1323A,113.64164,34.7525,郑州市,河医大,颗粒物(PM10),53,55,44,24,17,177,85,100,95,14,14,6,5,0.7,0.7
2022-07-24T04:00:00,1324A,113.51488,34.91089,郑州市,岗李水库(对照点),,,,,,,,,,,,,,,,
2022-07-24T04:00:00,1325A,114.3677,30.5584,武汉市,东湖梨园,,32,22,24,22,10,100,62,52,52,18,18,8,8,0.7,0.8
2022-07-24T04:00:00,1326A,114.2529,30.558,武汉市,汉阳月湖,,32,32,22,12,5,114,30,43,38,44,31,6,6,0.6,0.6
2022-07-24T04:00:00,1327A,114.282,30.6189,武汉市,汉口花桥,,26,26,22,7,10,108,64,65,64,19,18,6,7,0.6,0.6
2022-07-24T04:00:00,1328A,114.3025,30.5332,武汉市,武昌紫阳,,30,30,23,7,7,114,37,42,38,36,23,4,4,0.8,0.7
2022-07-24T04:00:00,1329A,114.3646,30.6217,武汉市,青山钢花,,24,18,20,14,12,98,38,48,45,47,25,4,5,0.7,0.7
2022-07-24T04:00:00,1330A,114.1566,30.4825,武汉市,沌口新区,,30,30,19,14,8,110,62,59,59,38,24,10,6,0.8,0.7
2022-07-24T04:00:00,1331A,114.3014,30.5944,武汉市,汉口江滩,,24,24,21,6,4,98,48,58,50,32,20,6,6,0.6,0.7
2022-07-24T04:00:00,1333A,114.135,30.6319,武汉市,吴家山,,23,23,17,12,6,119,47,65,60,26,16,4,4,0.8,0.8
2022-07-24T04:00:00,1334A,113.8454,30.2917,武汉市,沉湖七壕(对照点),,17,17,12,3,7,87,46,55,50,15,10,6,6,0.7,0.7
2022-07-24T04:00:00,1335A,113.0833,28.2325,长沙市,经开区环保局,,38,31,18,26,16,99,36,49,41,17,9,5,5,0.6,0.5
2022-07-24T04:00:00,1336A,112.8872,28.2189,长沙市,高开区环保局,,25,25,12,11,12,136,38,32,32,21,12,6,9,0.3,0.2
2022-07-24T04:00:00,1337A,113.0792,28.2053,长沙市,马坡岭,颗粒物(PM10),52,53,31,32,21,113,48,70,54,21,10,9,8,0.7,0.6
2022-07-24T04:00:00,1338A,112.9394,28.19,长沙市,湖南师范大学,,30,30,26,9,12,98,35,32,28,12,8,2,3,0.4,0.3
2022-07-24T04:00:00,1339A,113.0178,28.1322,长沙市,雨花区环保局,细颗粒物(PM2.5),55,39,16,39,19,117,27,58,38,31,10,6,6,0.4,0.3
2022-07-24T04:00:00,1340A,112.9792,28.2597,长沙市,伍家岭,,39,31,25,27,18,139,48,44,44,13,12,4,4,0.6,0.6
2022-07-24T04:00:00,1341A,113.0014,28.1944,长沙市,火车新站,,30,30,20,18,16,108,38,59,47,19,8,6,7,0.3,0.2
2022-07-24T04:00:00,1342A,112.9844,28.1178,长沙市,天心区环保局,,47,47,28,17,14,111,7,31,13,41,15,2,3,0.5,0.5
2022-07-24T04:00:00,1343A,112.8908,28.1308,长沙市,湖南中医药大学,,32,32,26,13,15,114,35,34,34,15,11,2,4,0.3,0.2
2022-07-24T04:00:00,1344A,112.9581,28.3611,长沙市,沙坪(对照点),,30,30,28,18,16,115,30,40,35,12,8,4,5,0.6,0.5
2022-07-24T04:00:00,1345A,113.2347,23.1423,广州市,广雅中学,,30,30,42,16,22,181,49,47,47,21,28,5,6,0.7,0.7
2022-07-24T04:00:00,1346A,113.2612,23.105,广州市,市五中,,33,32,41,23,30,197,55,49,49,16,20,6,7,0.7,0.7
2022-07-24T04:00:00,1348A,113.3478,23.0916,广州市,广东商学院,,30,30,42,17,22,200,55,42,42,20,26,6,6,0.6,0.6
2022-07-24T04:00:00,1349A,113.4332,23.1047,广州市,市八十六中,,36,36,46,15,21,232,15,40,25,42,32,7,6,0.6,0.6
2022-07-24T04:00:00,1350A,113.3505,22.9483,广州市,番禺中学,,27,27,37,14,20,228,50,47,47,15,17,9,10,0.7,0.7
2022-07-24T04:00:00,1351A,113.2146,23.3916,广州市,花都师范,,40,40,44,21,26,142,33,27,27,29,26,7,10,0.8,0.7
2022-07-24T04:00:00,1352A,113.2597,23.1331,广州市,市监测站,,29,29,39,18,22,196,57,54,54,14,20,5,7,0.6,0.7
2022-07-24T04:00:00,1353A,113.5618,23.312,广州市,九龙镇镇龙,颗粒物(PM10),53,56,80,33,39,185,26,27,27,30,39,6,7,0.7,0.5
2022-07-24T04:00:00,1354A,113.2765,23.1544,广州市,麓湖,,28,28,36,19,23,174,49,46,46,14,26,4,5,0.7,0.8
2022-07-24T04:00:00,1355A,113.443,23.3035,广州市,帽峰山森林公园(对照点),,,31,39,18,20,192,26,49,38,,22,6,6,0.8,0.8
2022-07-24T04:00:00,1356A,114.1063,22.5545,深圳市,通心岭子站,,18,18,26,12,14,200,51,65,60,12,13,5,4,0.5,0.6
2022-07-24T04:00:00,1357A,114.117,22.5625,深圳市,洪湖,,26,26,30,8,16,209,46,66,59,23,18,9,9,0.5,0.6
2022-07-24T04:00:00,1358A,113.987,22.5417,深圳市,华侨城,,17,13,23,7,9,164,52,53,53,12,17,4,5,0.4,0.5
2022-07-24T04:00:00,1359A,113.9181,22.5171,深圳市,南海子站,,13,9,27,8,13,142,39,46,43,12,18,2,4,0.5,0.6
2022-07-24T04:00:00,1360A,114.2458,22.5689,深圳市,盐田,,21,21,21,14,13,145,57,50,50,13,25,4,4,0.7,0.7
2022-07-24T04:00:00,1361A,114.2283,22.7244,深圳市,龙岗,,33,33,37,17,18,210,44,61,52,26,24,6,6,0.4,0.5
2022-07-24T04:00:00,1362A,113.8953,22.5861,深圳市,西乡,,,,,,,,,,,,,,,,
2022-07-24T04:00:00,1363A,114.494,22.5422,深圳市,南澳,,16,16,14,4,7,132,32,50,42,14,13,8,8,0.7,0.7
2022-07-24T04:00:00,1364A,114.41,22.6342,深圳市,葵涌,,21,21,20,10,11,125,13,38,24,16,14,8,8,0.5,0.5
2022-07-24T04:00:00,1365A,114.297,22.5978,深圳市,梅沙,,24,23,21,9,8,144,7,31,21,48,20,7,6,0.3,0.2
2022-07-24T04:00:00,1366A,114.0678,22.738,深圳市,观澜,,30,30,48,9,18,255,61,63,58,16,19,6,6,0.6,0.6
2022-07-24T04:00:00,1367A,113.5814,22.2618,珠海市,吉大,,12,12,18,4,12,113,34,46,42,7,7,12,8,0.5,0.3
2022-07-24T04:00:00,1368A,113.4881,22.2335,珠海市,前山,,12,12,19,5,10,129,31,41,35,14,12,13,10,0.4,0.3
2022-07-24T04:00:00,1369A,113.628,22.4251,珠海市,唐家,,18,18,23,11,14,147,34,58,45,11,8,12,9,0.6,0.5
2022-07-24T04:00:00,1370A,113.299,22.2281,珠海市,斗门,,14,14,15,9,12,129,37,48,44,6,6,5,6,0.3,0.3
2022-07-24T04:00:00,1371A,113.1294,23.0067,佛山市,湾梁,,27,27,36,18,19,185,52,50,50,11,15,6,7,0.3,0.3
2022-07-24T04:00:00,1372A,113.1083,23.0478,佛山市,华材职中,,32,27,35,22,19,160,52,48,48,10,17,7,8,0.3,0.3
2022-07-24T04:00:00,1373A,113.144,23.0453,佛山市,南海气象局,,25,25,36,16,19,171,50,50,50,14,17,6,7,0.6,0.6
2022-07-24T04:00:00,1374A,113.2881,22.8094,佛山市,顺德苏岗,,14,7,19,9,14,181,43,42,40,16,16,7,7,0.5,0.5
2022-07-24T04:00:00,1375A,113.2544,22.7642,佛山市,容桂街道办,,,,,,,,,,,,,,,,
2022-07-24T04:00:00,1376A,112.8383,22.8678,佛山市,高明孔堂,,22,22,27,14,14,116,60,69,66,10,11,7,7,0.6,0.5
2022-07-24T04:00:00,1377A,112.8836,23.1588,佛山市,三水监测站,,41,41,43,18,22,142,27,20,20,27,30,9,9,0.6,0.5
2022-07-24T04:00:00,1378A,112.867,23.185,佛山市,三水云东海,,43,38,41,30,25,142,38,37,37,25,28,11,9,0.5,0.5
2022-07-24T04:00:00,1379A,113.3769,22.5211,中山市,华柏园,,14,12,27,9,15,173,43,43,43,8,10,1,4,0.5,0.5
2022-07-24T04:00:00,1380A,113.3881,22.5497,中山市,张溪,,18,16,39,12,19,175,48,50,50,8,10,4,5,0.6,0.6
2022-07-24T04:00:00,1381A,113.4075,22.5111,中山市,紫马岭,,,14,27,8,13,135,,40,37,,12,,7,,0.7
2022-07-24T04:00:00,1382A,113.4411,22.4853,中山市,长江旅游区(对照点),,19,14,23,13,16,174,27,57,41,6,8,2,3,0.4,0.4
2022-07-24T04:00:00,1383A,113.1064,22.6058,江门市,北街,,20,16,27,10,11,163,62,56,56,4,9,5,5,0.5,0.5
2022-07-24T04:00:00,1384A,113.0731,22.5835,江门市,西区,,23,23,28,11,14,161,60,62,62,6,13,6,7,0.4,0.4
2022-07-24T04:00:00,1385A,113.0219,22.5311,江门市,圭峰西,,26,26,31,10,16,136,45,60,52,8,10,4,5,0.4,0.4
2022-07-24T04:00:00,1386A,113.0828,22.5947,江门市,东湖,,24,24,29,9,15,161,65,62,62,6,11,6,6,0.4,0.4
2022-07-24T04:00:00,1387A,113.7875,23.0457,东莞市,东城主山,,,,,,,,,,,,,,,,
2022-07-24T04:00:00,1388A,113.7533,23.0202,东莞市,南城元岭,,,,,,,,,,,,,,,,
2022-07-24T04:00:00,1389A,113.7547,23.0494,东莞市,莞城梨川,,16,2,40,9,21,270,51,76,67,21,22,7,9,0.8,0.8
2022-07-24T04:00:00,1390A,113.7944,23.0128,东莞市,东城石井,,27,27,37,12,19,286,78,88,82,14,21,8,8,0.3,0.4
2022-07-24T04:00:00,1391A,113.7383,22.9658,东莞市,南城西平,,23,22,28,16,28,250,52,72,65,22,24,2,4,0.6,0.5
2022-07-24T04:00:00,1392A,114.4183,23.0528,惠州市,河南岸金山湖子站,,,41,54,,19,222,40,65,52,18,21,4,4,0.7,0.6
2022-07-24T04:00:00,1393A,114.4053,23.0822,惠州市,下埔横江三路子站,,,27,48,,23,225,49,69,61,16,20,2,4,0.6,0.6
2022-07-24T04:00:00,1394A,114.4103,23.1142,惠州市,江北云山西路子站,,32,32,42,18,21,238,58,79,70,11,14,6,6,0.3,0.3
2022-07-24T04:00:00,1395A,114.4645,22.7833,惠州市,惠阳区承修路船湖子站,,,22,36,,18,195,50,82,60,15,18,5,5,0.5,0.6
2022-07-24T04:00:00,1396A,114.5317,22.7422,惠州市,大亚湾管委会子站,,25,25,32,15,15,165,30,64,43,29,21,5,5,0.4,0.4
2022-07-24T04:00:00,1397A,112.4267,23.0706,肇庆市,睦岗子站,,40,40,33,18,18,110,19,25,23,35,23,12,10,0.5,0.4
2022-07-24T04:00:00,1398A,112.4645,23.0475,肇庆市,城中子站,,48,48,37,26,19,117,28,24,23,38,30,24,14,0.7,0.5
2022-07-24T04:00:00,1399A,112.5544,23.1522,肇庆市,坑口子站,,32,29,23,22,15,99,39,67,52,14,9,9,9,0.4,0.4
2022-07-24T04:00:00,1400A,112.4753,23.1,肇庆市,七星岩子站(对照点),,,,,,,,,,,,,,,,
2022-07-24T04:00:00,1401A,108.3103,22.7881,南宁市,二十一中,,31,31,25,16,12,100,8,27,18,25,14,5,6,0.6,0.6
2022-07-24T04:00:00,1402A,108.3141,22.8528,南宁市,北湖,,40,40,27,11,13,109,4,31,21,25,10,5,5,0.7,0.5
2022-07-24T04:00:00,1403A,108.3206,22.8225,南宁市,市监测站,,25,25,28,12,12,101,17,30,24,19,20,7,9,0.7,0.7
2022-07-24T04:00:00,1404A,108.3829,22.8037,南宁市,大自然花园,,23,23,24,14,14,111,16,36,25,18,14,7,7,0.6,0.6
2022-07-24T04:00:00,1405A,108.4394,22.7904,南宁市,仙葫(对照点),,21,21,27,9,13,98,23,32,26,10,12,6,6,0.5,0.5
2022-07-24T04:00:00,1406A,108.2397,22.8467,南宁市,区农职院,,34,34,24,14,11,96,5,22,16,31,18,10,8,0.6,0.5
2022-07-24T04:00:00,1407A,108.3275,22.735,南宁市,英华嘉园,,49,49,38,21,15,90,1,12,6,36,24,6,7,0.5,0.5
2022-07-24T04:00:00,1408A,108.2257,22.7757,南宁市,沙井镇街道办,,45,45,27,17,13,91,9,18,13,23,15,5,7,0.5,0.6
2022-07-24T04:00:00,1409A,110.576,19.9507,海口市,东寨港(对照点),,,11,16,4,6,68,2,15,6,,,6,6,0.4,0.4
2022-07-24T04:00:00,1410A,110.3232,20.0574,海口市,海南大学,,16,16,17,7,9,82,27,40,35,15,10,7,6,0.5,0.5
2022-07-24T04:00:00,1411A,110.283,20.0053,海口市,秀英海南医院,,19,19,18,11,10,58,27,36,28,4,7,5,2,0.4,0.4
2022-07-24T04:00:00,1412A,110.338,19.9969,海口市,海南师范大学,,23,23,20,8,8,60,16,22,20,12,9,2,2,0.5,0.5
2022-07-24T04:00:00,1413A,110.33,20.0356,海口市,龙华路环保局宿舍,,12,12,17,8,8,81,16,30,24,15,8,5,4,0.6,0.6
2022-07-24T04:00:00,1414A,106.3787,29.8279,重庆市,缙云山(对照点),,33,6,12,10,8,162,105,105,104,6,14,6,6,0.2,0.2
2022-07-24T04:00:00,1416A,106.4213,29.8253,重庆市,天生,,37,37,38,17,15,157,26,32,28,35,28,9,7,0.6,0.7
2022-07-24T04:00:00,1417A,106.6263,29.7228,重庆市,两路,,26,12,26,18,17,131,40,66,56,40,34,8,8,0.7,0.7
2022-07-24T04:00:00,1418A,106.2953,29.5983,重庆市,虎溪,,32,32,35,16,15,138,18,19,19,62,51,6,8,0.5,0.6
2022-07-24T04:00:00,1419A,106.5777,29.5102,重庆市,南坪,,30,30,37,19,14,125,64,82,74,24,30,8,10,0.6,0.7
2022-07-24T04:00:00,1420A,106.6556,29.6277,重庆市,唐家沱,,23,23,25,9,10,127,37,27,27,42,46,6,8,0.7,0.7
2022-07-24T04:00:00,1421A,106.6349,29.4906,重庆市,茶园,,50,50,47,21,16,96,8,9,9,76,61,7,8,0.8,0.7
2022-07-24T04:00:00,1422A,106.3754,29.4572,重庆市,白市驿,,34,34,36,14,15,123,29,47,38,42,32,5,7,1.1,1
2022-07-24T04:00:00,1425A,106.6205,29.7166,重庆市,空港,,21,21,29,8,15,150,52,75,66,23,26,5,6,0.6,0.6
2022-07-24T04:00:00,1426A,106.4782,29.4875,重庆市,新山村,,,69,43,29,18,109,5,5,5,92,60,9,8,1.2,0.7
2022-07-24T04:00:00,1427A,106.5616,29.6453,重庆市,礼嘉,,34,20,22,7,9,106,17,55,46,68,45,6,6,0.6,0.5
2022-07-24T04:00:00,1428A,106.4522,29.7091,重庆市,蔡家,,26,21,31,18,16,134,34,47,44,21,30,4,4,0.6,0.6
2022-07-24T04:00:00,1429A,106.5093,29.3917,重庆市,鱼新街,颗粒物(PM10),53,56,37,20,20,84,4,11,6,59,46,9,9,1.0,0.9
2022-07-24T04:00:00,1431A,103.9728,30.7236,成都市,金泉两河,,,53,32,38,22,196,,87,67,19,16,4,3,0.6,0.5
2022-07-24T04:00:00,1432A,104.1419,30.6764,成都市,十里店,,22,22,19,11,12,153,40,68,58,34,14,2,2,0.4,0.4
2022-07-24T04:00:00,1433A,104.0594,30.5767,成都市,三瓦窑,,28,18,21,11,14,147,87,94,87,13,16,5,4,0.3,0.3
2022-07-24T04:00:00,1434A,104.1122,30.6306,成都市,沙河铺,,20,18,21,11,12,146,61,67,58,15,17,2,2,0.5,0.5
2022-07-24T04:00:00,1437A,104.0431,30.6556,成都市,君平街,,31,14,38,9,18,162,99,91,91,8,16,6,5,0.5,0.6
2022-07-24T04:00:00,1438A,103.6202,31.0201,成都市,灵岩寺(对照点),,41,41,24,26,15,160,105,102,100,8,3,11,8,0.9,0.6
2022-07-24T04:00:00,1439A,106.6899,26.5998,贵阳市,马鞍山,,14,12,10,5,4,80,43,39,39,7,7,5,4,0.5,0.5
2022-07-24T04:00:00,1440A,106.6971,26.5694,贵阳市,市环保站,,12,12,18,7,8,70,35,35,35,12,14,4,4,0.3,0.3
2022-07-24T04:00:00,1441A,106.6243,26.6266,贵阳市,鉴湖路,,22,22,15,7,5,69,42,40,40,5,7,5,4,0.4,0.5
2022-07-24T04:00:00,1442A,106.7487,26.6343,贵阳市,燕子冲,,25,12,17,17,12,73,29,28,28,9,8,6,7,0.6,0.6
2022-07-24T04:00:00,1443A,106.6555,26.4365,贵阳市,碧云窝,,14,14,23,5,6,75,39,36,36,9,8,4,5,0.3,0.4
2022-07-24T04:00:00,1444A,106.694,26.5161,贵阳市,中院村,,14,14,21,0,5,68,30,29,29,11,10,2,2,0.6,0.5
2022-07-24T04:00:00,1445A,106.7109,26.6027,贵阳市,红边门,,22,22,19,9,11,73,33,29,29,18,18,5,4,0.3,0.3
2022-07-24T04:00:00,1446A,106.7164,26.5699,贵阳市,新华路,,25,19,18,17,9,76,35,32,32,8,9,3,3,0.4,0.4
2022-07-24T04:00:00,1447A,106.674,26.5424,贵阳市,太慈桥,,17,17,19,2,4,71,33,34,34,10,9,5,5,0.3,0.3
2022-07-24T04:00:00,1450A,102.8204,24.8886,昆明市,呈贡新区,,16,16,20,6,8,88,34,30,29,9,12,12,10,0.5,0.4
2022-07-24T04:00:00,1451A,102.6251,24.9608,昆明市,西山森林公园(对照点),,8,7,25,5,7,82,24,43,34,14,8,9,7,0.5,0.5
2022-07-24T04:00:00,1452A,102.7252,25.0902,昆明市,龙泉镇,,13,10,14,9,13,87,30,32,31,11,13,6,7,0.3,0.3
2022-07-24T04:00:00,1453A,102.7266,25.0375,昆明市,东风东路,,10,4,14,7,6,80,29,32,31,10,12,5,5,0.4,0.4
2022-07-24T04:00:00,1454A,102.6742,25.0669,昆明市,金鼎山,,10,10,15,7,10,87,28,35,28,6,8,8,8,0.3,0.3
2022-07-24T04:00:00,1455A,102.6644,25.0401,昆明市,碧鸡广场,,16,16,17,5,7,80,25,23,23,14,15,6,7,0.4,0.4
2022-07-24T04:00:00,1456A,91.1319,29.6514,拉萨市,八廓街,,27,12,24,3,10,143,85,72,72,16,19,6,7,0.1,0.1
2022-07-24T04:00:00,1457A,91.1221,29.6747,拉萨市,市环保局,,26,11,23,2,9,139,81,73,73,9,12,7,7,0.1,0.1
2022-07-24T04:00:00,1458A,91.0874,29.6475,拉萨市,区监测站,,28,12,22,0,3,151,88,84,84,10,11,8,8,0.2,0.1
2022-07-24T04:00:00,1459A,91.1774,29.6541,拉萨市,西藏大学,,31,14,25,6,8,150,98,82,82,8,12,8,9,0.1,0.2
2022-07-24T04:00:00,1460A,90.9798,29.6588,拉萨市,区辐射站,,23,11,16,4,8,129,72,70,70,8,14,9,8,0.2,0.2
2022-07-24T04:00:00,1461A,91.0834,29.6292,拉萨市,拉萨火车站,,25,15,26,3,6,141,79,84,80,8,10,9,9,0.2,0.2
2022-07-24T04:00:00,1462A,108.882,34.2749,西安市,高压开关厂,,42,42,32,28,14,171,56,59,58,25,25,14,7,0.4,0.4
2022-07-24T04:00:00,1463A,108.993,34.2629,西安市,兴庆小区,颗粒物(PM10),51,51,29,23,11,163,40,75,57,32,27,12,5,0.5,0.6
2022-07-24T04:00:00,1464A,109.06,34.2572,西安市,纺织城,颗粒物(PM10),51,51,36,21,12,153,3,3,3,38,34,5,5,0.5,0.4
2022-07-24T04:00:00,1465A,108.9356,34.2173,西安市,小寨,,44,44,26,18,10,174,54,67,62,26,29,6,2,0.4,0.3
2022-07-24T04:00:00,1466A,108.954,34.2713,西安市,市人民体育场,,45,45,30,24,12,172,50,74,61,23,22,7,4,0.2,0.2
2022-07-24T04:00:00,1467A,108.8922,34.2322,西安市,高新西区,,30,30,32,19,12,184,66,94,76,22,23,9,8,0.5,0.5
2022-07-24T04:00:00,1468A,108.935,34.3474,西安市,经开区,颗粒物(PM10),52,53,31,24,13,140,47,56,53,26,22,12,3,0.3,0.2
2022-07-24T04:00:00,1469A,108.906,34.1546,西安市,长安区,,46,46,30,17,12,200,32,39,32,33,23,5,6,0.5,0.4
2022-07-24T04:00:00,1470A,109.2,34.6575,西安市,阎良区,,,,,,,,,,,,,,,,
2022-07-24T04:00:00,1471A,109.2186,34.3731,西安市,临潼区,,45,45,32,17,9,154,46,52,50,26,17,4,3,0.4,0.4
2022-07-24T04:00:00,1472A,108.869,34.378,西安市,草滩(对照点),,48,48,38,22,14,150,15,24,22,33,26,6,6,0.9,0.7
2022-07-24T04:00:00,1473A,108.985,34.1978,西安市,曲江文化产业集团,颗粒物(PM10),57,63,37,20,11,176,2,10,8,70,40,5,5,0.9,0.8
2022-07-24T04:00:00,1474A,109.051,34.3213,西安市,广运潭,颗粒物(PM10),55,60,36,25,13,150,15,39,32,38,27,15,6,0.6,0.5
2022-07-24T04:00:00,1476A,103.631,36.1031,兰州市,兰炼宾馆,,36,36,38,16,18,222,57,75,68,26,23,26,14,0.5,0.3
2022-07-24T04:00:00,1477A,104.1373,35.9454,兰州市,榆中兰大校区(对照点),,,,,,,,,,,,,,,,
2022-07-24T04:00:00,1478A,103.8412,36.0726,兰州市,生物制品所,,43,37,38,30,25,173,3,16,6,64,32,6,10,0.8,0.9
2022-07-24T04:00:00,1479A,103.831,36.0464,兰州市,铁路设计院,,48,48,42,6,15,172,40,48,45,44,31,5,11,0.4,0.6
2022-07-24T04:00:00,1480A,101.748,36.6428,西宁市,市环境监测站,,,,,,,,,,,,,,,,
2022-07-24T04:00:00,1482A,101.834,36.5819,西宁市,四陆医院,,,,,,,,,,,,,,,,
2022-07-24T04:00:00,1483A,101.524,36.6867,西宁市,第五水厂(对照点),,,,,,,,,,,,,,,,
2022-07-24T04:00:00,1484A,105.9512,38.6016,银川市,贺兰山马莲口(对照点),,37,37,27,16,17,186,91,97,94,11,12,15,11,0.4,0.3
2022-07-24T04:00:00,1488A,106.2328,38.4975,银川市,贺兰山东路,,46,46,29,5,12,159,51,49,44,29,30,9,12,0.5,0.4
2022-07-24T04:00:00,1489A,106.1358,38.5036,银川市,学院路,,45,45,44,20,18,171,72,65,63,18,29,15,11,0.5,0.5
2022-07-24T04:00:00,1490A,87.5801,43.8303,乌鲁木齐市,监测站,颗粒物(PM10),67,83,49,14,18,187,37,19,19,44,37,5,7,0.2,0.3
2022-07-24T04:00:00,1491A,87.6046,43.768,乌鲁木齐市,收费所,颗粒物(PM10),52,54,53,12,18,181,25,11,11,42,36,7,8,0.2,0.4
2022-07-24T04:00:00,1492A,87.4754,43.9469,乌鲁木齐市,新疆农科院农场(对照点),颗粒物(PM10),99,147,92,41,20,141,1,7,2,60,28,8,9,0.7,0.7
2022-07-24T04:00:00,1493A,87.5525,43.8711,乌鲁木齐市,铁路局,颗粒物(PM10),74,98,57,30,20,189,26,8,8,49,35,5,7,0.6,0.6
2022-07-24T04:00:00,1494A,87.6432,43.831,乌鲁木齐市,三十一中学,颗粒物(PM10),62,74,58,15,15,194,58,27,27,20,20,5,8,0.3,0.4
2022-07-24T04:00:00,1496A,87.7216,44.1747,乌鲁木齐市,米东区环保局,,26,26,62,13,21,138,49,55,52,5,18,6,6,0.3,0.3
2022-07-24T04:00:00,1508A,112.9433,27.8614,湘潭市,板塘,颗粒物(PM10),52,53,32,18,14,102,25,37,30,31,15,5,7,0.7,0.7
2022-07-24T04:00:00,1511A,112.9118,27.8403,湘潭市,市监测站,,37,37,26,22,17,103,43,68,54,15,16,6,25,0.4,1
2022-07-24T04:00:00,1512A,112.8937,27.8728,湘潭市,江麓,,39,39,34,18,13,110,45,50,45,12,8,3,9,0.4,0.3
2022-07-24T04:00:00,1513A,112.9227,27.8159,湘潭市,岳塘,颗粒物(PM10),53,55,32,21,15,95,30,53,38,22,11,21,7,0.7,0.5
2022-07-24T04:00:00,1514A,112.9074,27.9119,湘潭市,科大,,40,40,30,12,11,112,44,45,43,14,10,4,5,0.4,0.5
2022-07-24T04:00:00,1515A,113.135,27.8244,株洲市,天台山庄,,23,23,18,11,16,96,30,58,45,25,11,8,7,0.5,0.4
2022-07-24T04:00:00,1518A,113.095,27.8867,株洲市,株冶医院,,44,44,29,14,13,125,5,12,10,49,22,7,9,0.7,0.6
2022-07-24T04:00:00,1519A,113.167,27.8667,株洲市,市四中,,41,41,20,16,15,107,18,69,42,36,13,6,3,0.6,0.5
2022-07-24T04:00:00,1520A,113.143,27.8381,株洲市,火车站,,34,34,24,13,14,97,28,58,40,26,14,7,7,0.4,0.3
2022-07-24T04:00:00,1524A,113.13,27.8528,株洲市,市监测站,,39,39,31,24,18,108,22,62,48,41,13,4,4,0.7,0.5
2022-07-24T04:00:00,1552A,106.805,26.3003,贵阳市,桐木岭(对照点),,,,,,,,,,,,,,,,
2022-07-24T04:00:00,1559A,113.251,27.8336,株洲市,大京风景区(对照点),,18,1,10,12,12,87,10,16,13,7,4,4,5,0.4,0.4
2022-07-24T04:00:00,1562A,113.0048,27.9153,湘潭市,昭山,,39,39,20,16,14,106,20,8,8,21,18,5,7,0.5,0.4
2022-07-24T04:00:00,1564A,112.4876,27.9164,湘潭市,韶山(对照点),,27,27,27,11,11,108,32,25,23,11,11,4,7,0.7,0.6
2022-07-24T04:00:00,1585A,109.8756,40.6532,包头市,市环境监测站,颗粒物(PM10),63,76,54,17,18,148,91,67,67,18,25,4,11,0.3,0.6
2022-07-24T04:00:00,1587A,109.9991,40.5842,包头市,包头八中,颗粒物(PM10),73,95,60,18,21,158,74,94,70,27,22,9,10,0.4,0.5
2022-07-24T04:00:00,1588A,109.8538,40.6821,包头市,青山宾馆,颗粒物(PM10),65,80,60,10,19,137,86,64,64,18,30,5,14,0.4,0.8
2022-07-24T04:00:00,1589A,109.8642,40.6288,包头市,惠龙物流,颗粒物(PM10),63,75,64,8,19,156,93,84,84,18,19,5,10,0.2,0.3
2022-07-24T04:00:00,1590A,110.0377,40.5546,包头市,东河鸿龙湾,颗粒物(PM10),88,125,65,25,19,158,44,61,46,34,17,14,6,0.6,0.4
2022-07-24T04:00:00,1591A,110.0023,39.8129,鄂尔多斯市,综合楼,,36,36,31,7,7,135,89,106,96,16,19,8,7,0.4,0.6
2022-07-24T04:00:00,1592A,109.9486,39.8261,鄂尔多斯市,巴音孟克林场办事处,,34,34,29,9,10,132,97,110,102,13,12,7,6,0.7,0.7
2022-07-24T04:00:00,1593A,109.7736,39.5986,鄂尔多斯市,康泽苑,,26,14,26,5,9,154,82,122,101,13,12,4,4,0.4,0.6
2022-07-24T04:00:00,1594A,109.8119,39.5989,鄂尔多斯市,华泰汽车城,,24,24,29,12,13,149,66,120,92,17,12,6,6,0.4,0.5
2022-07-24T04:00:00,1595A,109.9734,39.7884,鄂尔多斯市,奥林花园,颗粒物(PM10),51,51,40,14,14,140,79,111,94,22,20,8,6,0.7,0.6
2022-07-24T04:00:00,1596A,122.2414,40.6592,营口市,学府南路,,,,,,,,,,,,,,,,
2022-07-24T04:00:00,1597A,122.2703,40.7094,营口市,大庆路,,40,40,36,23,19,100,15,18,16,29,24,5,5,1.4,1
2022-07-24T04:00:00,1598A,122.215,40.6511,营口市,镜湖西路,,36,33,28,25,19,96,22,20,18,30,27,3,3,1.3,0.8
2022-07-24T04:00:00,1599A,122.167,40.6655,营口市,西炮台,,44,44,33,17,12,99,13,18,14,33,28,7,17,1.3,0.9
2022-07-24T04:00:00,1600A,124.3303,40.0625,丹东市,江湾东路,,21,13,20,8,14,99,66,82,74,6,8,8,9,0.4,0.5
2022-07-24T04:00:00,1601A,124.4256,40.1503,丹东市,临江后街,,19,12,15,8,10,99,59,78,66,5,3,12,12,0.5,0.6
2022-07-24T04:00:00,1602A,124.3933,40.1461,丹东市,元宝山,,20,20,18,13,12,94,38,61,52,12,7,4,4,0.6,0.7
2022-07-24T04:00:00,1603A,124.3633,40.1092,丹东市,民主桥,,19,16,19,10,12,101,60,81,70,7,6,10,10,0.5,0.7
2022-07-24T04:00:00,1604A,122.0303,41.1489,盘锦市,开发区,,20,15,23,14,18,102,46,39,39,11,17,5,6,0.6,0.7
2022-07-24T04:00:00,1605A,122.0485,41.0883,盘锦市,兴隆台,,29,29,34,15,18,88,42,39,32,20,29,5,4,0.6,0.7
2022-07-24T04:00:00,1606A,121.8297,41.1028,盘锦市,新生街道,细颗粒物(PM2.5),54,16,22,38,22,110,25,26,23,27,24,5,5,0.5,0.5
2022-07-24T04:00:00,1607A,120.9092,40.7136,葫芦岛市,龙港区,,47,47,35,26,29,109,8,12,9,36,24,6,15,0.7,0.7
2022-07-24T04:00:00,1608A,120.8392,40.7514,葫芦岛市,化工街,,40,40,37,27,24,105,11,6,6,34,32,5,6,0.6,0.6
2022-07-24T04:00:00,1609A,120.8341,40.7073,葫芦岛市,新区,,,,36,23,25,118,18,12,12,33,32,6,9,0.7,0.8
2022-07-24T04:00:00,1610A,120.8695,40.7677,葫芦岛市,东城区,细颗粒物(PM2.5),60,41,41,43,33,90,24,11,11,31,34,8,10,0.2,0.3
2022-07-24T04:00:00,1611A,118.5819,24.9117,泉州市,涂山街,,34,34,60,21,27,238,42,70,58,20,17,15,15,0.4,0.5
2022-07-24T04:00:00,1612A,118.5972,24.8978,泉州市,津头埔,,29,28,62,20,28,235,42,64,56,23,25,12,13,0.2,0.3
2022-07-24T04:00:00,1613A,118.6663,24.9424,泉州市,万安,,25,24,54,17,28,224,48,67,57,17,19,8,10,0.4,0.5
2022-07-24T04:00:00,1614A,118.6117,24.9604,泉州市,清源山(对照点),,,,,,,,,,,,,,,,
2022-07-24T04:00:00,1616A,117.6795,36.229,济南市,技术学院,,44,44,19,24,14,128,6,8,6,42,24,4,5,0.9,0.6
2022-07-24T04:00:00,1618A,118.3429,35.0532,临沂市,沂河小区,,34,34,31,16,13,92,65,52,52,30,26,14,7,0.4,0.5
2022-07-24T04:00:00,1619A,118.295,35.0583,临沂市,鲁南制药厂,颗粒物(PM10),51,51,26,22,15,94,28,43,35,45,23,15,7,0.7,0.6
2022-07-24T04:00:00,1620A,118.2794,34.9976,临沂市,新光毛纺厂,颗粒物(PM10),56,61,20,20,14,92,31,52,46,38,21,6,5,0.6,0.5
2022-07-24T04:00:00,1621A,118.3956,35.0888,临沂市,河东保险公司,,27,27,22,13,14,94,54,50,48,24,17,8,5,0.5,0.6
2022-07-24T04:00:00,1622A,116.3032,37.4674,德州市,儿童乐园,,33,29,22,23,14,143,91,90,90,12,10,7,5,0.4,0.4
2022-07-24T04:00:00,1624A,116.2991,37.4451,德州市,监理站,,39,27,20,27,14,149,95,91,91,12,13,12,10,0.4,0.4
2022-07-24T04:00:00,1625A,115.9848,36.4372,聊城市,区政府,,38,38,17,20,10,124,75,76,76,14,10,8,5,0.7,0.6
2022-07-24T04:00:00,1628A,118.0062,37.3803,滨州市,市环保局,,40,39,19,28,16,140,64,69,67,15,9,4,5,0.4,0.3
2022-07-24T04:00:00,1629A,118.0018,37.3617,滨州市,第二水厂,,33,33,20,23,11,131,53,60,57,19,9,5,6,0.8,0.5
2022-07-24T04:00:00,1630A,117.9776,37.393,滨州市,北中新校,细颗粒物(PM2.5),69,65,24,50,16,126,39,56,50,18,9,23,11,1.1,0.3
2022-07-24T04:00:00,1631A,118.0414,36.8103,淄博市,人民公园,,46,36,22,32,19,120,34,37,34,35,19,13,9,0.3,0.3
2022-07-24T04:00:00,1632A,118.0253,36.8406,淄博市,东风化工厂,,,,,,,,,,,,,,,,
2022-07-24T04:00:00,1633A,117.8525,36.4847,淄博市,双山,,28,28,20,13,23,104,31,27,26,24,18,8,8,0.4,0.3
2022-07-24T04:00:00,1634A,117.9592,36.6331,淄博市,气象站,,36,36,23,19,19,120,37,45,40,33,22,14,12,0.8,0.7
2022-07-24T04:00:00,1635A,118.3092,36.8194,淄博市,莆田园,颗粒物(PM10),52,53,19,24,16,121,45,68,59,29,19,12,10,2.0,0.4
2022-07-24T04:00:00,1636A,117.8661,36.805,淄博市,三金集团,,,,,,,,,,,,,,,,
2022-07-24T04:00:00,1637A,117.558,34.8438,枣庄市,市中区政府,,48,48,30,22,13,118,16,38,32,38,22,16,12,0.6,0.5
2022-07-24T04:00:00,1638A,117.2852,34.7837,枣庄市,薛城环保局,,44,44,33,24,17,122,10,17,16,10,13,13,10,0.9,0.3
2022-07-24T04:00:00,1639A,117.5852,34.7745,枣庄市,峄城区政府,颗粒物(PM10),54,58,30,25,19,119,37,48,38,35,18,11,8,0.5,0.5
2022-07-24T04:00:00,1640A,117.7276,34.5578,枣庄市,台儿庄区环保局,,34,34,21,19,12,123,40,56,48,17,13,11,11,0.7,0.6
2022-07-24T04:00:00,1641A,117.4518,35.0992,枣庄市,山亭区环保局,,29,24,19,20,15,121,39,39,36,12,14,8,9,0.5,0.5
2022-07-24T04:00:00,1642A,121.2514,37.5639,烟台市,开发区,,24,19,19,12,14,141,75,85,78,6,7,6,7,0.5,0.5
2022-07-24T04:00:00,1643A,121.3719,37.5433,烟台市,轴承厂,,29,29,20,19,16,136,73,97,90,9,8,17,7,0.3,0.3
2022-07-24T04:00:00,1644A,121.3181,37.5436,烟台市,西郊化工站,,25,22,23,17,14,127,62,86,75,17,11,8,8,0.3,0.3
2022-07-24T04:00:00,1645A,121.4478,37.4822,烟台市,莱山环保局,,23,22,15,16,12,140,70,93,88,6,6,8,7,0.4,0.4
2022-07-24T04:00:00,1646A,121.2611,37.4967,烟台市,福山环保局,,29,29,27,19,17,117,48,62,54,12,15,4,6,0.4,0.4
2022-07-24T04:00:00,1648A,119.12,36.7019,潍坊市,仲裁委,,,,,,,,,,,,,,,,
2022-07-24T04:00:00,1650A,119.1437,36.7023,潍坊市,环保局,颗粒物(PM10),52,53,21,35,15,107,6,21,16,37,15,6,7,0.8,0.6
2022-07-24T04:00:00,1652A,119.1936,36.7729,潍坊市,寒亭监测站,,,,,,,,,,,,,,,,
2022-07-24T04:00:00,1653A,116.6251,35.4302,济宁市,火炬城,,47,47,23,29,13,128,24,38,33,39,17,7,8,0.5,0.4
2022-07-24T04:00:00,1655A,116.5491,35.4042,济宁市,电化厂,,44,44,27,27,13,130,37,38,34,28,18,9,6,0.9,0.7
2022-07-24T04:00:00,1656A,117.1437,36.1937,泰安市,监测站,,27,27,16,13,8,106,24,54,31,19,11,5,5,0.3,0.3
2022-07-24T04:00:00,1657A,117.0885,36.2017,泰安市,人口学校,,19,19,14,10,6,105,46,58,50,13,12,7,6,0.3,0.2
2022-07-24T04:00:00,1658A,117.1089,36.1758,泰安市,电力学校,,46,46,17,24,9,99,1,8,4,39,16,7,6,0.4,0.2
2022-07-24T04:00:00,1659A,119.471,35.4209,日照市,监测站,,25,24,22,17,18,165,7,30,20,28,15,3,3,0.4,0.4
2022-07-24T04:00:00,1660A,119.523,35.4216,日照市,市政府广场,,26,22,21,18,15,175,42,49,44,20,15,6,5,0.5,0.5
2022-07-24T04:00:00,1661A,119.5587,35.4044,日照市,港务局,,22,22,24,13,13,189,42,56,50,28,17,5,4,0.6,0.6
2022-07-24T04:00:00,1662A,122.1214,37.4236,威海市,华夏技校,,34,14,15,17,17,114,106,110,107,2,8,4,4,0.3,0.3
2022-07-24T04:00:00,1663A,122.0508,37.5236,威海市,山大分校,,35,10,17,7,14,121,112,116,114,6,12,4,4,0.3,0.3
2022-07-24T04:00:00,1664A,122.1067,37.5072,威海市,市监测站,,32,10,17,15,22,117,102,106,104,2,10,5,5,0.3,0.4
2022-07-24T04:00:00,1665A,118.5019,37.4658,东营市,西城阳光环保公司,,,,,,,,,,,,,,,,
2022-07-24T04:00:00,1666A,118.6614,37.4309,东营市,市环保局,,45,39,12,31,6,118,39,47,44,20,10,19,8,0.4,0.3
2022-07-24T04:00:00,1669A,113.5824,24.7733,韶关市,市八中,,36,36,35,10,14,130,52,66,59,13,17,8,11,0.6,0.6
2022-07-24T04:00:00,1670A,113.5556,24.8082,韶关市,碧湖山庄,,,,,,,,,,,,,,,,
2022-07-24T04:00:00,1671A,113.5917,24.7972,韶关市,园林处,,46,31,36,32,21,114,42,72,59,19,14,13,13,0.5,0.4
2022-07-24T04:00:00,1672A,113.6735,24.7791,韶关市,韶关学院,颗粒物(PM10),54,58,42,35,23,117,28,63,47,16,15,21,14,0.6,0.6
2022-07-24T04:00:00,1673A,113.5971,24.6863,韶关市,曲江监测站,颗粒物(PM10),51,51,37,19,18,122,29,51,43,30,19,12,12,0.5,0.5
2022-07-24T04:00:00,1674A,116.6794,23.3667,汕头市,金平子站,,22,20,31,15,24,154,54,55,55,8,11,6,7,0.6,0.7
2022-07-24T04:00:00,1675A,116.7244,23.3633,汕头市,龙湖子站,,22,22,37,7,15,168,50,54,53,12,13,8,9,0.5,0.6
2022-07-24T04:00:00,1676A,116.7258,23.2775,汕头市,濠江子站,,18,18,23,10,14,133,46,46,46,7,8,9,10,0.5,0.6
2022-07-24T04:00:00,1677A,116.7519,23.4714,汕头市,澄海子站,,49,49,38,20,25,176,25,51,43,25,14,12,8,0.8,0.7
2022-07-24T04:00:00,1678A,116.6092,23.2539,汕头市,潮阳子站,,32,32,36,17,21,134,55,53,52,5,7,8,8,0.5,0.6
2022-07-24T04:00:00,1679A,116.4069,23.2533,汕头市,潮南子站,,,,,,,,,,,,,,,,
2022-07-24T04:00:00,1680A,110.3539,21.2706,湛江市,湛江影剧院,,13,12,24,9,11,90,23,22,22,14,10,6,14,0.5,0.5
2022-07-24T04:00:00,1681A,110.3928,21.2228,湛江市,市环境监测站,,46,34,30,32,21,116,18,26,19,22,14,130,24,0.6,0.5
2022-07-24T04:00:00,1682A,110.4019,21.1997,湛江市,环保局宿舍,,15,13,24,10,12,108,31,28,28,6,11,5,6,0.4,0.5
2022-07-24T04:00:00,1683A,110.4111,21.2028,湛江市,霞山游泳场,,12,10,22,6,12,116,37,37,37,6,11,5,7,0.4,0.5
2022-07-24T04:00:00,1684A,110.3316,21.2679,湛江市,麻章区环保局,,20,20,26,14,12,84,19,16,16,14,10,12,10,0.4,0.5
2022-07-24T04:00:00,1685A,110.4558,21.2567,湛江市,坡头区环保局,,20,20,26,13,13,104,25,30,27,16,11,49,11,0.5,0.5
2022-07-24T04:00:00,1686A,111.0286,21.4688,茂名市,电白南海,,36,36,31,17,16,110,26,49,36,11,9,9,8,0.5,0.5
2022-07-24T04:00:00,1687A,110.9294,21.6533,茂名市,茂石化七小,,22,22,38,14,23,92,26,41,34,10,9,14,10,0.5,0.5
2022-07-24T04:00:00,1688A,110.9107,21.6687,茂名市,健康路,,22,22,25,8,12,98,27,43,35,8,6,43,12,0.6,0.5
2022-07-24T04:00:00,1689A,110.8592,21.6828,茂名市,高岭,,35,22,29,24,22,93,18,36,27,14,10,20,20,0.7,0.6
2022-07-24T04:00:00,1690A,116.1231,24.3284,梅州市,梅江月梅,,45,45,40,28,21,152,23,50,37,25,14,4,4,0.6,0.6
2022-07-24T04:00:00,1691A,116.0797,24.2719,梅州市,梅县新城,细颗粒物(PM2.5),52,45,44,36,23,147,28,48,28,32,20,12,6,0.6,0.6
2022-07-24T04:00:00,1692A,116.1248,24.2654,梅州市,环境监控中心,,41,41,41,28,22,145,57,58,58,19,19,6,6,0.5,0.5
2022-07-24T04:00:00,1693A,115.3653,22.775,汕尾市,市环保局,,17,14,19,8,10,128,52,55,53,5,6,5,5,0.5,0.5
2022-07-24T04:00:00,1694A,115.3706,22.7898,汕尾市,市政府,,18,9,13,6,9,127,56,56,56,5,6,6,6,0.5,0.5
2022-07-24T04:00:00,1695A,115.3622,22.7925,汕尾市,新城中学,,18,10,18,9,9,143,55,62,58,4,4,5,6,0.4,0.5
2022-07-24T04:00:00,1696A,114.6778,23.7569,河源市,源西(对照点),,40,40,49,20,24,157,81,78,78,14,18,4,4,0.5,0.5
2022-07-24T04:00:00,1697A,114.6944,23.7586,河源市,东埔,,43,43,48,23,24,165,71,82,80,14,17,5,5,0.6,0.6
2022-07-24T04:00:00,1698A,114.6892,23.7233,河源市,老城,,42,42,56,18,21,178,67,92,86,16,19,4,4,0.6,0.6
2022-07-24T04:00:00,1699A,111.9797,21.8593,阳江市,鸳鸯湖(对照点),,,,,,,,,,,,,,,,
2022-07-24T04:00:00,1700A,111.9508,21.8536,阳江市,南恩路,,,,,,,,,,,,,,,,
2022-07-24T04:00:00,1701A,111.9491,21.8658,阳江市,马南垌,,30,19,27,21,14,110,42,47,45,7,9,4,8,0.5,0.6
2022-07-24T04:00:00,1702A,113.0426,23.691,清远市,环保大楼(对照点),,46,46,42,28,25,186,26,36,32,23,17,6,5,0.5,0.6
2022-07-24T04:00:00,1703A,113.0208,23.7106,清远市,凤城街办,细颗粒物(PM2.5),67,49,41,48,28,156,28,26,26,20,19,8,6,0.8,0.7
2022-07-24T04:00:00,1705A,116.6367,23.6719,潮州市,西园路(对照点),,38,36,52,26,26,164,37,37,36,14,15,5,7,0.8,0.9
2022-07-24T04:00:00,1706A,116.6447,23.6706,潮州市,档案局,,38,36,52,26,24,189,28,26,26,14,16,7,9,0.7,0.8
2022-07-24T04:00:00,1708A,116.3701,23.5345,揭阳市,新兴,,22,15,38,15,23,137,57,54,54,2,5,5,6,0.5,0.6
2022-07-24T04:00:00,1709A,116.3264,23.5443,揭阳市,西马,,19,19,38,10,20,124,52,52,52,3,5,6,7,0.4,0.5
2022-07-24T04:00:00,1710A,116.3611,23.5626,揭阳市,东兴,,20,14,41,14,20,130,47,56,54,6,7,4,4,0.6,0.7
2022-07-24T04:00:00,1711A,116.4151,23.5294,揭阳市,渔湖,,26,26,42,9,23,130,59,53,53,4,9,5,5,0.5,0.6
2022-07-24T04:00:00,1712A,112.0392,22.9169,云浮市,新市府(对照点),,,,,,,,,,,,,,,,
2022-07-24T04:00:00,1713A,112.0369,22.9394,云浮市,市监测站,,,,,,,,,,,,,,,,
2022-07-24T04:00:00,1714A,112.0539,22.9539,云浮市,牧羊,,35,35,40,10,13,110,20,40,33,22,17,7,22,0.6,0.5
2022-07-24T04:00:00,1715A,102.575,24.3711,玉溪市,东风水库,,11,11,12,5,5,62,7,17,11,21,12,5,5,1.0,0.7
2022-07-24T04:00:00,1718A,115.4208,35.2464,菏泽市,气象局,,41,41,28,27,19,142,85,81,77,17,12,6,5,0.5,0.4
2022-07-24T04:00:00,1719A,115.4747,35.2375,菏泽市,市政协,,46,46,31,24,15,143,97,88,88,14,12,11,6,0.3,0.1
2022-07-24T04:00:00,1720A,115.455,35.27,菏泽市,菏泽学院,,,,,,,,,,,,,,,,
2022-07-24T04:00:00,1721A,113.3819,40.1097,大同市,果树场(对照点),,,,,,,,,,,,,,,,
2022-07-24T04:00:00,1723A,113.2994,40.0758,大同市,云冈宾馆,颗粒物(PM10),62,73,61,20,29,156,27,44,29,45,29,18,27,0.6,0.6
2022-07-24T04:00:00,1724A,113.3444,40.0917,大同市,大同大学,颗粒物(PM10),55,60,62,19,31,168,44,45,45,31,26,13,18,0.5,0.6
2022-07-24T04:00:00,1725A,113.2661,40.1269,大同市,安家小村,颗粒物(PM10),62,74,67,23,24,166,52,102,68,32,20,22,21,0.6,0.6
2022-07-24T04:00:00,1726A,113.2711,40.0844,大同市,教育学院,颗粒物(PM10),63,75,76,23,25,148,34,24,24,40,31,20,32,0.5,0.5
2022-07-24T04:00:00,1727A,113.1147,36.1547,长治市,清华站,颗粒物(PM10),56,61,39,17,20,156,9,15,13,47,29,10,12,0.3,0.3
2022-07-24T04:00:00,1728A,113.1031,36.1989,长治市,监测站,颗粒物(PM10),52,53,41,24,19,153,43,54,51,23,21,9,9,1.9,0.8
2022-07-24T04:00:00,1730A,113.0886,36.2125,长治市,审计局,,48,48,33,27,21,172,23,67,56,49,20,9,9,1.1,0.5
2022-07-24T04:00:00,1731A,113.0844,36.1856,长治市,长治八中,,50,50,36,21,20,152,29,49,44,38,22,10,11,0.9,0.7
2022-07-24T04:00:00,1733A,111.5531,36.0783,临汾市,临钢医院,,49,49,46,30,36,184,34,49,42,35,21,2,2,0.9,1
2022-07-24T04:00:00,1734A,111.5028,36.0714,临汾市,技工学校,颗粒物(PM10),60,69,55,33,45,189,35,51,41,30,20,3,4,0.9,1
2022-07-24T04:00:00,1735A,111.5169,36.0822,临汾市,工商学校,,,,,,,,,,,,,,,,
2022-07-24T04:00:00,1736A,111.5018,36.0855,临汾市,市委,细颗粒物(PM2.5),65,73,61,47,48,190,34,42,38,26,20,4,4,0.8,0.8
2022-07-24T04:00:00,1738A,113.5758,37.8572,阳泉市,市中心,颗粒物(PM10),74,97,44,31,17,155,27,37,21,64,30,82,15,0.8,0.6
2022-07-24T04:00:00,1739A,113.4894,37.8731,阳泉市,赛鱼,颗粒物(PM10),60,69,30,22,15,152,70,75,67,30,29,15,8,0.7,0.6
2022-07-24T04:00:00,1740A,113.5819,37.8486,阳泉市,南庄,颗粒物(PM10),79,108,38,36,21,156,8,8,8,61,25,79,18,1.2,0.9
2022-07-24T04:00:00,1741A,113.6292,37.8531,阳泉市,白羊墅,,,,,,,,,,,,,,,,
2022-07-24T04:00:00,1742A,113.5614,37.8703,阳泉市,平坦,颗粒物(PM10),51,51,39,21,16,159,82,76,76,30,29,18,9,0.9,0.8
2022-07-24T04:00:00,1743A,113.5158,37.8392,阳泉市,大阳泉,颗粒物(PM10),53,56,20,27,13,140,99,132,116,24,16,16,6,0.8,0.6
2022-07-24T04:00:00,1744A,118.9233,42.2816,赤峰市,松山一中,,15,13,23,2,7,120,47,72,62,18,20,8,13,0.6,0.7
2022-07-24T04:00:00,1745A,118.9576,42.2728,赤峰市,哈达街,,19,4,17,2,7,115,58,68,64,14,22,10,16,0.3,0.4
2022-07-24T04:00:00,1746A,118.8788,42.2554,赤峰市,天义路,,18,5,9,2,5,118,55,74,65,12,17,13,10,0.2,0.3
2022-07-24T04:00:00,1748A,123.044,41.1196,鞍山市,深沟寺,,35,35,29,24,18,66,10,10,10,15,19,6,7,1.0,0.9
2022-07-24T04:00:00,1749A,123.011,41.0931,鞍山市,太阳城,,39,39,31,21,19,73,5,5,5,22,21,5,6,1.3,1.1
2022-07-24T04:00:00,1750A,123.0485,41.1442,鞍山市,太平,颗粒物(PM10),51,52,39,29,22,67,10,22,16,35,32,9,11,1.4,1.4
2022-07-24T04:00:00,1751A,122.9642,41.0971,鞍山市,铁西三道街,颗粒物(PM10),51,51,52,28,26,75,17,10,10,23,37,7,9,1.8,1.3
2022-07-24T04:00:00,1752A,122.9341,41.0833,鞍山市,铁西工业园区,颗粒物(PM10),51,51,46,27,26,76,5,5,5,27,31,6,9,1.7,1.3
2022-07-24T04:00:00,1753A,123.022,41.0821,鞍山市,明达新区,,30,30,37,17,22,67,19,15,15,17,27,4,5,0.8,1.1
2022-07-24T04:00:00,1754A,123.1289,41.0228,鞍山市,千山(对照点),,,,,,,,,,,,,,,,
2022-07-24T04:00:00,1755A,123.7977,41.8491,抚顺市,望花区,,18,12,27,12,15,85,42,53,48,9,17,4,6,0.4,0.7
2022-07-24T04:00:00,1756A,123.9161,41.8822,抚顺市,顺城区,,14,11,19,7,9,98,42,58,52,18,20,6,8,0.4,0.6
2022-07-24T04:00:00,1757A,124.0436,41.8611,抚顺市,东洲区,,14,8,13,7,7,97,42,59,50,12,9,5,5,0.2,0.3
2022-07-24T04:00:00,1758A,123.9247,41.8642,抚顺市,新抚区,,13,11,21,9,9,91,36,54,46,15,16,2,3,0.5,0.6
2022-07-24T04:00:00,1759A,124.0972,41.8961,抚顺市,大伙房水库,,11,5,13,4,7,91,33,59,48,18,5,5,5,0.3,0.3
2022-07-24T04:00:00,1760A,123.7086,41.8391,抚顺市,沈抚新城,,14,10,29,6,15,87,44,45,42,5,18,3,7,0.4,0.9
2022-07-24T04:00:00,1761A,123.8275,41.3064,本溪市,大峪,,12,5,14,3,10,66,20,35,31,23,16,5,5,0.7,0.7
2022-07-24T04:00:00,1762A,123.7567,41.3325,本溪市,溪湖,,16,16,27,9,12,74,37,47,40,20,20,6,7,0.9,0.9
2022-07-24T04:00:00,1763A,123.7169,41.3094,本溪市,彩屯,,18,18,34,10,15,62,31,40,38,15,21,4,5,0.6,1.1
2022-07-24T04:00:00,1764A,123.7669,41.2864,本溪市,东明,,11,6,21,5,11,68,35,46,42,15,19,6,6,0.6,0.6
2022-07-24T04:00:00,1765A,123.7992,41.2664,本溪市,新立屯,,14,9,20,5,9,60,43,39,39,5,13,5,5,0.9,1
2022-07-24T04:00:00,1766A,123.8142,41.3472,本溪市,威宁,,13,13,27,0,7,65,32,37,32,9,17,8,9,0.6,0.6
2022-07-24T04:00:00,1767A,121.1115,41.0879,锦州市,南山,,27,27,21,18,19,97,29,52,44,13,14,14,13,0.7,0.7
2022-07-24T04:00:00,1768A,121.0533,40.8434,锦州市,开发区,,43,14,25,30,27,121,28,42,24,35,21,6,8,0.6,0.7
2022-07-24T04:00:00,1769A,121.1836,41.1119,锦州市,百股街道,,40,28,24,28,16,97,30,39,36,14,14,5,5,0.7,0.8
2022-07-24T04:00:00,1770A,121.1178,41.1222,锦州市,天安街道,,26,20,24,18,19,104,60,55,55,10,17,10,14,0.7,0.8
2022-07-24T04:00:00,1771A,121.1303,41.1386,锦州市,北湖公园,,20,18,22,14,18,96,60,54,54,7,14,5,7,0.6,0.7
2022-07-24T04:00:00,1772A,126.54,43.8622,吉林市,哈达湾,,24,9,14,6,6,98,74,92,79,7,8,5,5,0.6,0.6
2022-07-24T04:00:00,1773A,126.5844,43.8358,吉林市,东局子,,12,11,15,5,7,92,37,86,64,21,10,5,5,0.5,0.5
2022-07-24T04:00:00,1774A,126.5052,43.8245,吉林市,电力学院,,23,11,29,3,11,92,72,88,78,8,10,7,7,0.5,0.5
2022-07-24T04:00:00,1775A,126.6133,43.8972,吉林市,江北,,17,10,15,5,7,84,52,84,68,11,7,6,6,0.6,0.6
2022-07-24T04:00:00,1776A,126.555,43.8306,吉林市,江南公园,,21,8,14,4,8,95,67,85,76,11,12,4,4,0.7,0.7
2022-07-24T04:00:00,1778A,126.7061,43.7133,吉林市,丰满(对照点),,,,,,,,,,,,,,,,
2022-07-24T04:00:00,1779A,123.9305,47.3636,齐齐哈尔市,安居小区,,29,29,23,16,12,68,30,38,34,11,17,5,5,0.5,0.5
2022-07-24T04:00:00,1780A,123.9488,47.3386,齐齐哈尔市,中心广场,,16,16,20,2,5,69,37,49,44,6,15,3,3,0.2,0.4
2022-07-24T04:00:00,1781A,123.9483,47.3227,齐齐哈尔市,农牧车辆厂,,19,19,33,3,8,71,33,48,41,4,9,2,3,0.3,0.4
2022-07-24T04:00:00,1783A,123.945,47.2988,齐齐哈尔市,市环境监测站,,17,17,19,3,7,77,32,49,41,9,16,6,6,0.2,0.3
2022-07-24T04:00:00,1784A,129.61,44.561,牡丹江市,环保大楼,,29,5,11,20,10,74,29,34,32,4,6,3,4,0.4,0.5
2022-07-24T04:00:00,1785A,129.6115,44.5782,牡丹江市,文化广场,,11,11,15,6,6,69,31,35,34,4,9,2,2,0.2,0.3
2022-07-24T04:00:00,1786A,129.5904,44.5963,牡丹江市,第一医院,,10,4,6,4,6,66,29,30,30,4,7,2,4,0.5,0.6
2022-07-24T04:00:00,1787A,129.6364,44.6075,牡丹江市,机车工厂,,22,22,13,6,6,69,9,34,18,11,7,4,5,0.3,0.2
2022-07-24T04:00:00,1788A,129.6386,44.5462,牡丹江市,第一中学,,23,12,13,16,10,70,3,5,5,13,9,3,3,0.4,0.3
2022-07-24T04:00:00,1789A,124.81117,46.03138,大庆市,大同区,,16,11,20,11,8,89,34,46,40,10,8,4,4,0.2,0.2
2022-07-24T04:00:00,1790A,125.129,46.533,大庆市,龙凤区,,12,12,13,6,7,89,35,52,43,7,8,3,4,0.2,0.2
2022-07-24T04:00:00,1791A,124.902,46.408,大庆市,红岗区,,13,13,11,8,6,82,36,51,44,6,6,3,3,0.3,0.3
2022-07-24T04:00:00,1792A,125.153,46.586,大庆市,萨尔图区,,12,11,18,5,9,82,36,48,42,6,8,5,6,0.2,0.2
2022-07-24T04:00:00,1793A,124.9042,46.6215,大庆市,让胡路区,,25,12,15,17,7,90,34,53,43,6,11,3,2,0,0.5
2022-07-24T04:00:00,1794A,118.3606,31.3519,芜湖市,监测站,,35,35,35,24,21,134,88,95,92,26,21,13,11,0.6,0.6
2022-07-24T04:00:00,1795A,118.3714,31.4134,芜湖市,科创中心,,32,28,30,22,19,141,101,96,96,11,16,10,9,0.6,0.7
2022-07-24T04:00:00,1796A,118.3673,31.3131,芜湖市,四水厂,,30,23,26,19,18,136,95,100,97,18,15,10,8,0.6,0.6
2022-07-24T04:00:00,1797A,118.4022,31.3839,芜湖市,济民医院(对照点),,,,,,,,,,,,,,,,
2022-07-24T04:00:00,1798A,118.5092,31.6837,马鞍山市,湖东路四小,,30,28,30,18,19,160,96,103,100,18,18,19,8,1.7,1.1
2022-07-24T04:00:00,1799A,118.5024,31.6449,马鞍山市,开发区,,38,29,31,26,23,146,94,90,90,11,15,9,8,0.7,0.8
2022-07-24T04:00:00,1800A,118.5228,31.7231,马鞍山市,慈湖,,37,37,35,23,22,140,82,105,94,14,12,8,7,0.9,0.9
2022-07-24T04:00:00,1801A,118.48,31.6928,马鞍山市,马钢动力厂,,,,,,,,,,,,,,,,
2022-07-24T04:00:00,1802A,118.6245,31.7241,马鞍山市,濮塘(对照点),,33,31,30,23,18,141,53,69,63,10,10,3,4,0.7,0.7
2022-07-24T04:00:00,1803A,115.9872,29.6815,九江市,十里,,38,28,31,26,19,162,82,80,80,13,14,16,12,1.1,1
2022-07-24T04:00:00,1804A,115.9584,29.7046,九江市,茅山头,,29,29,31,15,18,150,78,81,80,17,12,15,12,0.8,0.7
2022-07-24T04:00:00,1805A,115.9877,29.7295,九江市,西园,,37,37,32,21,14,152,62,84,79,26,16,18,13,0.8,0.8
2022-07-24T04:00:00,1806A,116.0172,29.6547,九江市,五七二七厂,,38,38,29,19,18,151,67,65,64,13,10,9,6,0.8,0.8
2022-07-24T04:00:00,1808A,115.9114,29.6038,九江市,综合工业园,颗粒物(PM10),56,61,35,14,17,163,59,58,58,22,19,13,8,0.8,0.7
2022-07-24T04:00:00,1809A,116.0721,29.7535,九江市,石化总厂,,42,42,37,15,18,151,71,86,81,21,18,13,8,0.8,0.7
2022-07-24T04:00:00,1810A,115.9773,29.5698,九江市,庐山气象台(对照点),,,,8,,13,81,,,,,3,,13,,0.5
2022-07-24T04:00:00,1811A,112.3628,34.6692,洛阳市,中信二小,,,,,,,,,,,,,,,,
2022-07-24T04:00:00,1812A,112.3931,34.6516,洛阳市,市委党校,,34,34,24,18,12,158,70,98,85,12,9,9,6,0.4,0.4
2022-07-24T04:00:00,1814A,112.4657,34.6871,洛阳市,豫西宾馆,颗粒物(PM10),57,63,29,31,16,150,25,56,44,39,18,9,4,0.7,0.4
2022-07-24T04:00:00,1815A,112.494,34.6886,洛阳市,河南林校,,41,41,25,21,11,142,34,31,31,30,13,3,2,0.3,0.2
2022-07-24T04:00:00,1816A,112.3844,34.623,洛阳市,开发区管委会,,35,35,20,23,14,146,31,62,45,22,11,8,6,0.4,0.3
2022-07-24T04:00:00,1817A,112.4267,34.6258,洛阳市,市委新办公区,,39,39,23,19,11,143,32,72,47,19,11,8,5,0.4,0.3
2022-07-24T04:00:00,1818A,114.4839,36.0621,安阳市,棉研所(对照点),,,,,,,,,,,,,,,,
2022-07-24T04:00:00,1819A,114.3551,36.1017,安阳市,红庙街,颗粒物(PM10),59,67,40,29,15,177,34,57,46,38,21,6,7,0.8,0.7
2022-07-24T04:00:00,1820A,114.361,36.0681,安阳市,银杏小区,,,70,37,,33,178,34,51,45,29,14,5,6,0.7,0.7
2022-07-24T04:00:00,1824A,114.3389,34.7781,开封市,肿瘤医院,颗粒物(PM10),54,57,37,30,17,149,70,96,84,16,10,4,3,0.6,0.6
2022-07-24T04:00:00,1826A,114.2885,34.7965,开封市,世纪星幼儿园,颗粒物(PM10),52,53,36,35,21,146,74,101,88,15,10,4,4,0.8,0.8
2022-07-24T04:00:00,1828A,113.227,35.2125,焦作市,市环保局,颗粒物(PM10),51,51,45,31,23,175,65,107,89,16,8,8,4,0.6,0.7
2022-07-24T04:00:00,1829A,113.2464,35.1764,焦作市,高新区政府（停运20220628）,,,,,,,,,,,,,,,,
2022-07-24T04:00:00,1830A,113.1992,35.2590,焦作市,影视城(对照点),,,,,,,,,,,,,,,,
2022-07-24T04:00:00,1832A,113.3257,33.742,平顶山市,新华旅馆,,33,33,26,22,10,165,81,79,79,15,12,4,6,0.3,0.3
2022-07-24T04:00:00,1833A,113.2919,33.737,平顶山市,规划设计院,,33,33,31,12,12,160,59,72,67,20,11,3,3,0.5,0.5
2022-07-24T04:00:00,1834A,113.182,33.774,平顶山市,平顶山工学院,,34,34,33,18,19,160,81,71,69,12,15,4,10,0.4,0.4
2022-07-24T04:00:00,1835A,111.1922,34.7752,三门峡市,市政府,,35,35,32,16,14,146,49,51,50,16,23,12,8,0.4,0.4
2022-07-24T04:00:00,1836A,111.1587,34.7942,三门峡市,开发区,,,,64,,14,78,,72,,,17,,7,,0.6
2022-07-24T04:00:00,1838A,111.143,34.7955,三门峡市,风景区(对照点),,,,,,,,,,,,,,,,
2022-07-24T04:00:00,1839A,111.3009,30.7157,宜昌市,四零三,,,,,,,,,,,,,,,,
2022-07-24T04:00:00,1840A,111.2992,30.6981,宜昌市,白龙岗,,29,29,18,14,8,114,11,16,13,32,19,9,8,0.6,0.5
2022-07-24T04:00:00,1841A,111.3549,30.6465,宜昌市,伍家岗,,21,21,19,12,8,124,8,18,12,24,21,4,6,0.5,0.5
2022-07-24T04:00:00,1842A,111.2628,30.6961,宜昌市,点军区,,30,30,24,12,9,100,16,39,28,11,19,4,4,0.6,0.4
2022-07-24T04:00:00,1843A,111.3275,30.7819,宜昌市,夷陵区,,29,29,20,12,8,128,21,21,20,12,14,4,4,0.6,0.6
2022-07-24T04:00:00,1844A,112.2494,30.3197,荆州市,市图书馆,,23,23,17,10,8,108,73,56,56,11,17,7,8,0.5,0.5
2022-07-24T04:00:00,1845A,112.2008,30.3544,荆州市,市委党校,,32,32,17,9,7,123,52,49,49,12,14,7,7,0.6,0.5
2022-07-24T04:00:00,1847A,113.1094,29.3578,岳阳市,南湖风景区,,22,16,17,15,12,119,55,55,52,11,13,8,10,0.6,0.6
2022-07-24T04:00:00,1848A,113.1493,29.4251,岳阳市,城陵矶,,19,18,17,13,10,93,44,53,46,10,12,7,12,0.7,0.8
2022-07-24T04:00:00,1849A,113.1497,29.3575,岳阳市,开发区,颗粒物(PM10),66,82,28,10,13,112,58,55,52,8,14,4,8,0.6,0.7
2022-07-24T04:00:00,1850A,113.2621,29.4758,岳阳市,云溪区,,21,21,20,14,10,107,42,40,40,11,10,9,11,0.6,0.5
2022-07-24T04:00:00,1851A,112.9943,29.4402,岳阳市,君山区,,15,15,12,9,9,96,44,60,45,10,7,5,5,0.5,0.4
2022-07-24T04:00:00,1852A,113.2117,29.355,岳阳市,金凤水库(对照点),,16,12,19,11,10,112,50,56,50,5,10,2,4,0.6,0.7
2022-07-24T04:00:00,1854A,111.6975,28.9703,常德市,市二中,,19,18,14,6,7,89,59,64,62,12,9,8,5,0.4,0.4
2022-07-24T04:00:00,1857A,111.7158,29.1456,常德市,白鹤山(对照点),,19,11,14,8,9,89,60,51,51,3,3,6,6,0.3,0.4
2022-07-24T04:00:00,1858A,110.5319,29.1217,张家界市,永定新区,,40,23,20,28,18,97,32,45,38,10,10,3,3,0.2,0.2
2022-07-24T04:00:00,1859A,110.4697,29.1242,张家界市,电业局,,13,4,17,9,9,90,40,53,44,4,10,3,3,0.2,0.2
2022-07-24T04:00:00,1860A,110.5594,29.3547,张家界市,未央路,,33,33,22,10,10,80,6,18,14,5,9,2,2,0.2,0.2
2022-07-24T04:00:00,1861A,110.4417,29.315,张家界市,袁家界(对照点),,25,25,14,5,7,98,32,42,36,4,5,8,8,0.4,0.4
2022-07-24T04:00:00,1862A,110.4144,25.3167,桂林市,电子科大尧山校区(对照点),,23,18,27,16,16,89,20,23,20,7,6,8,18,0.6,0.6
2022-07-24T04:00:00,1863A,110.2819,25.2697,桂林市,监测站,,31,31,27,16,11,84,19,27,23,16,11,6,5,0.7,0.6
2022-07-24T04:00:00,1864A,110.3089,25.2708,桂林市,龙隐路小学,,22,15,22,15,12,87,20,30,26,16,10,12,8,0.4,0.3
2022-07-24T04:00:00,1865A,110.2869,25.2178,桂林市,八中,,29,26,22,20,13,76,17,21,18,17,13,13,8,0.5,0.4
2022-07-24T04:00:00,1866A,109.2262,21.588,北海市,牛尾岭水库(对照点),,9,9,11,5,8,72,13,16,13,9,5,4,4,0.4,0.4
2022-07-24T04:00:00,1867A,109.1436,21.4086,北海市,海滩公园,,11,10,17,2,3,90,34,36,35,2,3,4,4,0.4,0.5
2022-07-24T04:00:00,1868A,109.0981,21.4661,北海市,新市环保局,,11,5,11,0,4,81,33,34,34,2,3,3,4,0.4,0.4
2022-07-24T04:00:00,1869A,109.1778,21.5233,北海市,北海工业园,,11,9,13,2,6,87,33,33,33,2,3,4,5,0.4,0.4
2022-07-24T04:00:00,1870A,109.4856,24.3895,柳州市,柳东小学,,49,44,30,34,23,121,21,49,30,22,11,9,7,0.7,0.7
2022-07-24T04:00:00,1871A,109.4157,24.3277,柳州市,环保监测站,,46,46,29,28,17,123,55,71,64,16,12,6,6,0.7,0.6
2022-07-24T04:00:00,1872A,109.389,24.341,柳州市,河西水厂,,45,45,31,26,20,117,49,62,58,17,12,8,7,0.7,0.5
2022-07-24T04:00:00,1873A,109.4311,24.2921,柳州市,市四中,颗粒物(PM10),52,53,34,25,19,120,47,58,51,18,15,7,7,0.8,0.7
2022-07-24T04:00:00,1874A,109.4006,24.3631,柳州市,市九中,颗粒物(PM10),52,54,38,27,21,115,58,66,64,14,11,8,7,0.6,0.6
2022-07-24T04:00:00,1875A,109.4958,24.3134,柳州市,古亭山,,40,40,28,24,14,108,44,39,35,27,15,6,6,0.7,0.6
2022-07-24T04:00:00,1876A,109.5078,18.2489,三亚市,河东子站,,28,28,15,16,8,47,3,16,9,12,7,4,4,0.4,0.4
2022-07-24T04:00:00,1877A,109.4964,18.2681,三亚市,河西子站,,23,23,14,9,9,53,6,12,7,9,6,4,2,0.5,0.5
2022-07-24T04:00:00,1878A,104.7778,31.4741,绵阳市,富乐山,,25,14,22,17,15,149,52,68,64,6,10,11,9,0.4,0.4
2022-07-24T04:00:00,1879A,104.7563,31.4535,绵阳市,市人大,,29,29,31,11,18,138,33,68,54,23,21,1,9,0.4,0.5
2022-07-24T04:00:00,1880A,104.6697,31.4668,绵阳市,高新区自来水公司,,44,44,38,24,23,154,13,55,30,46,25,6,5,0.6,0.5
2022-07-24T04:00:00,1881A,104.7287,31.5075,绵阳市,三水厂,颗粒物(PM10),53,56,38,32,24,160,10,28,13,37,28,4,4,0.7,0.6
2022-07-24T04:00:00,1882A,104.563,28.793,宜宾市,石马中学(对照点),,45,45,24,29,15,130,12,18,15,25,16,4,5,0.7,0.6
2022-07-24T04:00:00,1883A,104.6201,28.7728,宜宾市,市委,,39,39,26,23,14,125,24,43,31,37,22,6,7,0.5,0.4
2022-07-24T04:00:00,1884A,104.6055,28.793,宜宾市,宜宾四中,,47,47,40,30,20,126,18,39,29,39,24,11,10,0.5,0.4
2022-07-24T04:00:00,1885A,104.639,28.7562,宜宾市,市政府,,34,34,33,21,17,134,29,31,30,34,22,8,11,0.6,0.5
2022-07-24T04:00:00,1886A,104.5742,28.7199,宜宾市,黄金嘴,,31,31,26,20,16,143,25,31,30,30,16,8,8,0.3,0.3
2022-07-24T04:00:00,1888A,101.6891,26.571,攀枝花市,弄弄坪,,38,38,24,16,15,93,1,10,6,32,22,7,9,1.2,1.2
2022-07-24T04:00:00,1889A,101.5769,26.5928,攀枝花市,河门口,,26,26,14,12,7,97,8,16,13,16,13,5,5,0.9,0.7
2022-07-24T04:00:00,1890A,101.7169,26.585,攀枝花市,炳草岗,,40,40,27,15,15,94,14,8,8,14,23,21,13,0.7,1.2
2022-07-24T04:00:00,1891A,101.7369,26.5008,攀枝花市,仁和,,21,21,36,10,21,96,15,20,17,15,25,8,25,1.3,2.3
2022-07-24T04:00:00,1893A,105.4324,28.9634,泸州市,九狮山(对照点),,23,12,18,16,13,87,10,24,15,41,30,5,5,0.6,0.5
2022-07-24T04:00:00,1894A,105.4427,28.9063,泸州市,小市上码头,颗粒物(PM10),56,61,30,39,19,130,27,74,44,37,17,21,10,0.6,0.5
2022-07-24T04:00:00,1895A,105.4241,28.8573,泸州市,兰田宪桥,,37,37,26,22,12,122,39,38,38,23,20,12,8,0.6,0.5
2022-07-24T04:00:00,1896A,105.4379,28.8833,泸州市,市环监站,颗粒物(PM10),54,57,30,32,16,122,40,68,54,39,19,71,11,0.4,0.4
2022-07-24T04:00:00,1897A,104.7547,29.3628,自贡市,大塘山(对照点),,,,,,,,,,,,,,,,
2022-07-24T04:00:00,1900A,104.7692,29.3411,自贡市,春华路,,,,,,,,,,,,,,,,
2022-07-24T04:00:00,1901A,104.4239,31.1208,德阳市,东山公园,,30,24,32,15,18,181,93,88,88,8,14,8,8,0.5,0.6
2022-07-24T04:00:00,1902A,104.3826,31.1317,德阳市,西小区,,33,33,45,8,13,179,34,77,65,29,21,2,2,0.7,0.6
2022-07-24T04:00:00,1903A,104.4053,31.1167,德阳市,市检察院,,,,,,,,,,,,,,,,
2022-07-24T04:00:00,1904A,104.3553,31.1091,德阳市,耐火材料厂,,38,38,40,15,16,176,38,67,60,26,25,6,6,0.6,0.5
2022-07-24T04:00:00,1905A,106.056,30.8064,南充市,西山风景区(对照点),,28,14,23,19,14,109,72,109,92,17,15,7,4,0.6,0.6
2022-07-24T04:00:00,1906A,106.0789,30.8023,南充市,南充市委,,25,15,29,17,12,117,65,75,68,15,11,1,2,0.5,0.5
2022-07-24T04:00:00,1907A,106.1031,30.8217,南充市,南充炼油厂,,35,35,28,19,14,114,51,50,50,10,10,5,6,0.3,0.4
2022-07-24T04:00:00,1908A,106.1064,30.7856,南充市,高坪区监测站,,21,21,19,9,14,108,58,48,48,15,14,1,3,0.3,0.4
2022-07-24T04:00:00,1909A,106.0642,30.7636,南充市,嘉陵区环保局,,28,17,22,19,16,119,77,79,78,8,10,7,3,0.3,0.3
2022-07-24T04:00:00,1910A,106.1087,30.8388,南充市,市环境监测站,,32,28,27,22,16,102,53,66,55,19,12,3,5,0.4,0.4
2022-07-24T04:00:00,1911A,106.9222,27.6869,遵义市,丁字口,,22,19,19,15,17,124,15,24,16,18,15,7,9,0.7,0.6
2022-07-24T04:00:00,1912A,106.9242,27.7019,遵义市,凤凰山,,27,27,21,12,14,119,35,44,37,15,10,15,9,0.6,0.6
2022-07-24T04:00:00,1913A,106.8906,27.6486,遵义市,忠庄,,21,21,20,10,9,111,34,33,32,10,13,23,6,0.5,0.5
2022-07-24T04:00:00,1914A,106.9231,27.6506,遵义市,舟水桥,,25,25,28,6,9,106,11,23,15,16,14,1,4,0.5,0.5
2022-07-24T04:00:00,1915A,106.9178,27.72,遵义市,干田坝,,33,23,19,23,13,130,14,16,16,18,16,6,6,0.7,0.6
2022-07-24T04:00:00,1916A,103.7897,25.5035,曲靖市,环境监测站,,35,35,17,23,10,72,33,42,38,17,12,7,4,0.4,0.4
2022-07-24T04:00:00,1917A,103.8,25.5364,曲靖市,烟厂办公区,,30,30,17,19,9,76,38,40,38,11,8,10,6,0.5,0.4
2022-07-24T04:00:00,1918A,108.7197,34.3956,咸阳市,气象站(对照点),,,,36,,10,100,,80,,,14,,5,,1.0
2022-07-24T04:00:00,1919A,108.673,34.3155,咸阳市,实验中学,,46,46,37,23,14,201,45,52,49,35,26,8,4,0.5,0.4
2022-07-24T04:00:00,1920A,108.7233,34.3617,咸阳市,师范学院,,45,45,36,18,13,200,49,43,43,22,24,5,5,0.5,0.6
2022-07-24T04:00:00,1922A,109.0656,35.0994,铜川市,党校(对照点),,18,18,24,7,7,137,41,40,40,21,24,8,8,0.4,0.5
2022-07-24T04:00:00,1923A,109.0697,35.0697,铜川市,王益区政府,,27,27,28,8,10,151,33,32,31,17,20,5,5,0.4,0.5
2022-07-24T04:00:00,1924A,108.9344,34.9058,铜川市,新区管委会,,28,28,26,11,8,140,44,64,54,23,18,18,6,0.4,0.4
2022-07-24T04:00:00,1925A,108.9589,34.8731,铜川市,新区兰芝公司,,,,,,,,,,,,,,,,
2022-07-24T04:00:00,1926A,109.4131,36.6275,延安市,枣园(对照点),,34,34,25,14,8,136,5,6,5,20,17,3,4,0.4,0.5
2022-07-24T04:00:00,1927A,109.4761,36.6028,延安市,延大医附院,,34,34,26,17,9,138,3,5,4,27,20,3,3,0.3,0.3
2022-07-24T04:00:00,1928A,109.4824,36.5767,延安市,市监测站,,,,,,,,,,,,,,,,
2022-07-24T04:00:00,1929A,109.5056,36.6106,延安市,百米大道,颗粒物(PM10),55,59,45,16,12,130,5,5,5,39,30,6,6,0.4,0.4
2022-07-24T04:00:00,1930A,107.185,34.3063,宝鸡市,庙沟村(对照点),,24,19,20,8,8,123,76,90,78,8,13,5,5,0.3,0.3
2022-07-24T04:00:00,1931A,107.0708,34.3017,宝鸡市,竹园沟,,23,23,20,11,12,147,43,52,47,11,13,4,4,0.4,0.4
2022-07-24T04:00:00,1932A,107.1906,34.3672,宝鸡市,三陆医院,,30,30,30,13,10,144,40,57,50,24,18,12,8,0.4,0.3
2022-07-24T04:00:00,1933A,107.1431,34.3547,宝鸡市,监测站,,23,23,23,11,10,142,46,68,60,18,18,5,5,0.4,0.4
2022-07-24T04:00:00,1934A,107.1186,34.3739,宝鸡市,技工学校,,19,17,29,13,11,144,55,67,60,12,16,4,5,0.3,0.3
2022-07-24T04:00:00,1935A,107.3906,34.3528,宝鸡市,陈仓区环保局家属楼,,42,42,37,16,12,148,32,36,35,29,25,6,7,0.4,0.4
2022-07-24T04:00:00,1936A,107.2058,34.3497,宝鸡市,文理学院,,33,33,28,12,8,151,56,64,60,17,19,7,8,0.3,0.3
2022-07-24T04:00:00,1937A,107.2386,34.3622,宝鸡市,三迪小学,,35,35,30,19,12,139,48,60,52,24,25,8,7,0.3,0.4
2022-07-24T04:00:00,1938A,109.5293,34.5101,渭南市,农科所(对照点),,,,,,,,,,,,,,,,
2022-07-24T04:00:00,1939A,109.4974,34.4877,渭南市,日报社,,39,39,30,26,18,157,6,33,14,38,26,5,7,0.4,0.4
2022-07-24T04:00:00,1940A,109.4636,34.493,渭南市,体育馆,,45,44,26,31,15,162,4,13,7,42,31,9,10,0.6,0.5
2022-07-24T04:00:00,1941A,109.4259,34.5023,渭南市,高新一小,颗粒物(PM10),53,56,36,28,15,154,20,35,29,34,24,7,5,0.5,0.5
2022-07-24T04:00:00,1943A,102.1725,38.5339,金昌市,新川苑,,48,48,34,22,8,136,41,73,43,44,23,12,10,0.9,0.6
2022-07-24T04:00:00,1944A,102.1692,38.5167,金昌市,天庆家园,颗粒物(PM10),52,54,35,28,9,139,67,58,52,30,25,14,12,0.9,0.7
2022-07-24T04:00:00,1945A,98.2908,39.7711,嘉峪关市,气象局,颗粒物(PM10),58,66,32,19,11,136,74,99,84,24,13,38,11,0.5,0.4
2022-07-24T04:00:00,1947A,106.3394,38.817,石嘴山市,沙湖旅游区(对照点),颗粒物(PM10),62,74,60,16,17,220,56,95,56,35,24,28,30,0.5,0.5
2022-07-24T04:00:00,1948A,106.3668,39.0145,石嘴山市,大武口朝阳西街,,39,39,63,13,21,197,71,96,82,18,28,13,31,0.6,1.1
2022-07-24T04:00:00,1949A,106.7704,39.2282,石嘴山市,惠农南大街,,37,37,35,9,13,161,54,94,74,13,16,9,12,0.2,0.3
2022-07-24T04:00:00,1950A,106.7099,39.1325,石嘴山市,红果子镇惠新街,颗粒物(PM10),53,55,53,16,15,168,39,93,70,41,17,20,14,0.4,0.4
2022-07-24T04:00:00,1951A,84.895,45.6094,克拉玛依市,长征新村,,29,17,26,2,4,107,92,89,89,2,11,7,8,0.1,0.1
2022-07-24T04:00:00,1952A,84.8988,45.5893,克拉玛依市,南林小区,,31,19,34,10,14,101,99,93,93,5,26,8,9,0.4,0.6
2022-07-24T04:00:00,1953A,85.1186,45.6886,克拉玛依市,白碱滩区,,,,,,,,,,,,,,,,
2022-07-24T04:00:00,1954A,84.905,44.3396,克拉玛依市,独山子区,,32,32,34,22,18,133,43,43,43,28,19,9,12,0.7,0.6
2022-07-24T04:00:00,1955A,85.6979,46.098,克拉玛依市,乌尔禾区商贸楼,,35,35,23,6,6,94,85,91,88,4,8,12,12,0.1,0.2
2022-07-24T04:00:00,1956A,86.1472,41.7538,巴音郭楞州,孔雀公园,颗粒物(PM10),130,210,168,51,41,115,43,12,12,49,38,4,4,0.3,0.5
2022-07-24T04:00:00,1957A,86.1972,41.7166,巴音郭楞州,棉纺厂,颗粒物(PM10),173,296,225,81,56,119,59,22,22,32,31,5,5,0.3,0.4
2022-07-24T04:00:00,1958A,86.2357,41.7173,巴音郭楞州,经济开发区,颗粒物(PM10),491,591,225,100,53,119,86,46,46,5,19,5,5,0.1,0.2
2022-07-24T04:00:00,1959A,118.746,36.881,寿光市,监测站,,,,,,,,,,,,,,,,
2022-07-24T04:00:00,1960A,118.780,36.864,寿光市,世纪学校,,,,,,,,,,,,,,,,
2022-07-24T04:00:00,1961A,117.532,36.6868,济南市,东山小学,,37,37,22,5,8,110,30,63,47,37,16,3,3,0.3,0.4
2022-07-24T04:00:00,1962A,117.541,36.710,章丘市,明水开发区,,,,,,,,,,,,,,,,
2022-07-24T04:00:00,1963A,120.610,36.440,即墨市,环保局子站,,,,,,,,,,,,,,,,
2022-07-24T04:00:00,1964A,120.470,36.390,即墨市,开发区子站,,,,,,,,,,,,,,,,
2022-07-24T04:00:00,1965A,120.005,35.878,胶南市,JN子站,,,,,,,,,,,,,,,,
2022-07-24T04:00:00,1966A,120.0405,35.8735,青岛市,黄岛区4号,,24,24,23,14,15,199,59,75,63,21,17,6,4,0.6,0.6
2022-07-24T04:00:00,1967A,120.008,36.283,胶州市,胶州环保局,,,,,,,,,,,,,,,,
2022-07-24T04:00:00,1968A,120.014,36.253,胶州市,胶州一中,,,,,,,,,,,,,,,,
2022-07-24T04:00:00,1969A,120.537,36.865,莱西市,环保局子站,,,,,,,,,,,,,,,,
2022-07-24T04:00:00,1970A,120.515,36.885,莱西市,人民广场子站,,,,,,,,,,,,,,,,
2022-07-24T04:00:00,1971A,119.952,36.792,平度市,1号,,,,,,,,,,,,,,,,
2022-07-24T04:00:00,1972A,119.976,36.799,平度市,2号,,,,,,,,,,,,,,,,
2022-07-24T04:00:00,1973A,120.747,37.825,蓬莱市,蓬莱环保局,,,,,,,,,,,,,,,,
2022-07-24T04:00:00,1974A,120.773,37.809,蓬莱市,蓬莱博物馆,,,,,,,,,,,,,,,,
2022-07-24T04:00:00,1975A,120.399,37.374,招远市,招远环保局,,,,,,,,,,,,,,,,
2022-07-24T04:00:00,1976A,120.394,37.364,招远市,招远教育局,,,,,,,,,,,,,,,,
2022-07-24T04:00:00,1977A,119.941,37.177,莱州市,莱州环保局,,,,,,,,,,,,,,,,
2022-07-24T04:00:00,1978A,119.959,37.180,莱州市,莱州外经委,,,,,,,,,,,,,,,,
2022-07-24T04:00:00,1979A,122.471,37.154,荣成市,荣成市环保局办公楼,,,,,,,,,,,,,,,,
2022-07-24T04:00:00,1980A,122.410,37.161,荣成市,山东成山轮胎公司,,,,,,,,,,,,,,,,
2022-07-24T04:00:00,1981A,122.038,37.197,文登市,文登市环保局,,,,,,,,,,,,,,,,
2022-07-24T04:00:00,1982A,122.0693,37.2174,威海市,文登开发区,,31,17,19,9,13,116,99,93,93,5,12,4,4,0.5,0.5
2022-07-24T04:00:00,1983A,121.531,36.913,乳山市,乳山市环保局,,,,,,,,,,,,,,,,
2022-07-24T04:00:00,1984A,121.544,36.907,乳山市,乳山市气象局,,,,,,,,,,,,,,,,
2022-07-24T04:00:00,1985A,120.636,31.155,吴江市,吴江市环保局,,,,,,,,,,,,,,,,
2022-07-24T04:00:00,1986A,120.635,31.170,吴江市,教师进修学校,,,,,,,,,,,,,,,,
2022-07-24T04:00:00,1987A,120.658,31.172,吴江市,吴江开发区,,,,,,,,,,,,,,,,
2022-07-24T04:00:00,1988A,120.953,31.388,昆山市,昆山实验小学,,,,,,,,,,,,,,,,
2022-07-24T04:00:00,1989A,120.999,31.381,昆山市,震川中学,,,,,,,,,,,,,,,,
2022-07-24T04:00:00,1990A,120.758,31.670,常熟市,海虞子站,,,,,,,,,,,,,,,,
2022-07-24T04:00:00,1991A,120.721,31.671,常熟市,兴福子站,,,,,,,,,,,,,,,,
2022-07-24T04:00:00,1992A,120.734,31.656,常熟市,菱塘子站,,,,,,,,,,,,,,,,
2022-07-24T04:00:00,1993A,120.526,31.874,张家港市,张家港市监测站,,,,,,,,,,,,,,,,
2022-07-24T04:00:00,1994A,120.550,31.882,张家港市,城北小学,,,,,,,,,,,,,,,,
2022-07-24T04:00:00,1995A,121.115,31.453,太仓市,太仓市监测站,,,,,,,,,,,,,,,,
2022-07-24T04:00:00,1996A,121.140,31.422,太仓市,科教新城实小,,,,,,,,,,,,,,,,
2022-07-24T04:00:00,1997A,119.146,31.955,句容市,消防指挥中心,,,,,,,,,,,,,,,,
2022-07-24T04:00:00,1998A,119.180,31.955,句容市,房家坝,,,,,,,,,,,,,,,,
2022-07-24T04:00:00,1999A,120.268,31.920,江阴市,虹桥邮政,,,,,,,,,,,,,,,,
2022-07-24T04:00:00,2000A,120.237,31.909,江阴市,五星公园,,,,,,,,,,,,,,,,
2022-07-24T04:00:00,2001A,120.302,31.920,江阴市,第二实验小学,,,,,,,,,,,,,,,,
2022-07-24T04:00:00,2002A,119.818,31.354,宜兴市,宜兴市环保局,,,,,,,,,,,,,,,,
2022-07-24T04:00:00,2003A,119.794,31.371,宜兴市,宜园,,,,,,,,,,,,,,,,
2022-07-24T04:00:00,2004A,119.579,31.751,金坛市,金坛市环境监测站,,,,,,,,,,,,,,,,
2022-07-24T04:00:00,2005A,119.579,31.737,金坛市,金坛市自来水公司,,,,,,,,,,,,,,,,
2022-07-24T04:00:00,2006A,119.460,31.400,溧阳市,溧阳市东门子站,,,,,,,,,,,,,,,,
2022-07-24T04:00:00,2007A,119.438,31.317,溧阳市,燕山子站,,,,,,,,,,,,,,,,
2022-07-24T04:00:00,2008A,121.173,31.896,海门市,海门市监测站,,,,,,,,,,,,,,,,
2022-07-24T04:00:00,2009A,121.1518,31.89708,海门市,社会福利院,,,,,,,,,,,,,,,,
2022-07-24T04:00:00,2010A,119.7183,30.2366,临安市,市政府,,,,,,,,,,,,,,,,
2022-07-24T04:00:00,2011A,119.6942,30.2311,临安市,四中,,,,,,,,,,,,,,,,
2022-07-24T04:00:00,2012A,119.954,30.054,富阳市,监测站,,,,,,,,,,,,,,,,
2022-07-24T04:00:00,2013A,119.946,30.049,富阳市,富春二小,,,,,,,,,,,,,,,,
2022-07-24T04:00:00,2014A,120.091,29.305,义乌市,江东,,,,,,,,,,,,,,,,
2022-07-24T04:00:00,2015A,120.040,29.334,义乌市,北苑,,,,,,,,,,,,,,,,
2022-07-24T04:00:00,2016A,120.251,29.719,诸暨市,图书馆,,,,,,,,,,,,,,,,
2022-07-24T04:00:00,2017A,120.209,29.732,诸暨市,富林印务,,,,,,,,,,,,,,,,
2022-07-24T04:00:00,2018A,121.989,39.625,瓦房店市,抱龙山庄,,,,,,,,,,,,,,,,
2022-07-24T04:00:00,2019A,122.011,39.617,瓦房店市,东山公园,,,,,,,,,,,,,,,,
2022-07-24T04:00:00,2031A,113.1817,27.9958,株洲市,云田中学,,41,41,26,14,15,130,14,52,33,20,9,3,6,0.5,0.5
2022-07-24T04:00:00,2054A,114.1099,32.1059,信阳市,平桥分局,,19,19,16,13,10,120,49,47,47,9,7,9,9,0.6,0.6
2022-07-24T04:00:00,2064A,113.9956,32.1271,信阳市,南湾水厂,,26,26,20,8,10,110,59,66,63,4,3,5,5,0.5,0.5
2022-07-24T04:00:00,2065A,114.0775,32.1195,信阳市,市酿酒公司,,17,17,12,8,6,120,48,53,50,7,7,8,8,0.5,0.5
2022-07-24T04:00:00,2066A,114.0609,32.1399,信阳市,审计局,,21,20,20,11,9,123,65,64,64,4,5,7,7,0.8,0.8
2022-07-24T04:00:00,2067A,114.6613,33.6128,周口市,市环境监测站,,28,18,26,16,13,147,88,102,98,13,13,4,5,0.5,0.5
2022-07-24T04:00:00,2068A,114.6758,33.6347,周口市,周口师范,,31,21,23,3,14,137,98,106,104,7,11,1,4,0.6,0.6
2022-07-24T04:00:00,2069A,114.6546,33.5979,周口市,市运管处,,27,27,27,14,13,144,83,93,90,14,13,2,3,0.6,0.6
2022-07-24T04:00:00,2070A,114.6369,33.6406,周口市,川汇区环保局,,30,21,27,16,14,148,94,109,103,6,6,4,5,0.5,0.5
2022-07-24T04:00:00,2075A,117.6336,24.4674,漳州市,九湖(对照点),,,,,,,,,,,,,,,,
2022-07-24T04:00:00,2160A,112.85,35.5051,晋城市,自来水公司,颗粒物(PM10),52,54,37,27,18,142,31,24,24,29,21,5,4,0.6,0.4
2022-07-24T04:00:00,2161A,112.8318,35.4936,晋城市,白云商贸,,44,44,28,17,16,149,35,27,27,24,17,3,3,0.6,0.6
2022-07-24T04:00:00,2162A,112.8508,35.4887,晋城市,市环保局,颗粒物(PM10),52,53,32,19,20,146,31,26,21,37,22,5,3,0.7,0.5
2022-07-24T04:00:00,2163A,112.8676,35.4897,晋城市,技术学院,,44,44,28,19,14,139,17,26,24,44,21,1,2,0.5,0.4
2022-07-24T04:00:00,2164A,112.8271,35.4828,晋城市,泽州一中,,,,,,,,,,,,,,,,
2022-07-24T04:00:00,2165A,112.8453,35.546,晋城市,白马寺 (对照点),,,,,,,,,,,,,,,,
2022-07-24T04:00:00,2166A,112.4397,39.3522,朔州市,平朔,颗粒物(PM10),60,70,41,16,16,144,19,92,50,48,18,5,5,0.5,0.5
2022-07-24T04:00:00,2167A,112.4575,39.3617,朔州市,朔唯,颗粒物(PM10),84,117,48,27,19,143,4,62,26,74,28,8,6,0.6,0.6
2022-07-24T04:00:00,2168A,112.4258,39.3197,朔州市,区政府,,32,29,42,6,14,133,100,99,96,12,16,9,7,0.6,0.6
2022-07-24T04:00:00,2169A,112.4072,39.3278,朔州市,市环保局,,42,42,47,17,14,137,45,95,71,30,18,5,6,0.4,0.4
2022-07-24T04:00:00,2170A,112.4272,39.3681,朔州市,市二中,颗粒物(PM10),61,71,40,19,17,145,7,70,46,70,19,8,7,0.6,0.5
2022-07-24T04:00:00,2171A,112.7532,37.6945,晋中市,锦纶小区,颗粒物(PM10),56,62,58,30,32,192,16,18,16,32,30,7,9,0.4,0.5
2022-07-24T04:00:00,2173A,112.7249,37.7067,晋中市,南都小区,,,72,58,,46,199,53,58,50,35,28,14,10,0.4,0.5
2022-07-24T04:00:00,2174A,112.6991,37.6982,晋中市,榆次区政府,颗粒物(PM10),60,70,56,36,37,193,42,49,40,29,22,12,11,0.6,0.6
2022-07-24T04:00:00,2175A,110.9956,35.0147,运城市,运城中学,,38,38,30,23,21,144,53,64,61,21,12,11,6,1.4,0.7
2022-07-24T04:00:00,2176A,111.0233,35.0611,运城市,禹都开发区,,,,,,,,,,,,,,,,
2022-07-24T04:00:00,2178A,110.9686,35.0303,运城市,地区技校,,43,43,33,22,17,142,42,67,60,29,13,11,7,1.6,0.6
2022-07-24T04:00:00,2179A,111.0414,35.1147,运城市,空港新区,细颗粒物(PM2.5),68,83,46,49,29,150,18,55,31,50,16,20,10,2.0,0.6
2022-07-24T04:00:00,2181A,112.7383,38.4519,忻州市,开发区,细颗粒物(PM2.5),52,40,48,36,38,214,40,116,72,32,20,21,16,0.6,0.6
2022-07-24T04:00:00,2182A,112.7003,38.4928,忻州市,会展中心,细颗粒物(PM2.5),58,52,50,41,31,186,1,119,54,29,19,8,11,0.6,0.6
2022-07-24T04:00:00,2183A,111.1406,37.5211,吕梁市,环保局,颗粒物(PM10),51,51,46,10,13,151,9,12,10,53,37,8,12,0.3,0.3
2022-07-24T04:00:00,2185A,111.1297,37.5136,吕梁市,自来水公司,颗粒物(PM10),73,95,57,21,12,144,17,19,13,41,28,6,7,0.4,0.4
2022-07-24T04:00:00,2186A,106.8288,39.6778,乌海市,聚英学校,,,,,,,,,,,,,,,,
2022-07-24T04:00:00,2187A,106.8174,39.6973,乌海市,市林业局,颗粒物(PM10),60,70,72,15,21,161,81,116,100,20,29,26,29,0.9,0.8
2022-07-24T04:00:00,2188A,106.7907,39.6667,乌海市,中海勃湾学校,,44,44,51,14,16,164,81,114,98,26,27,36,31,0.7,0.5
2022-07-24T04:00:00,2191A,122.2532,43.6801,通辽市,艺术职业学校,,31,31,27,3,6,91,53,65,60,11,13,5,5,0.1,0.1
2022-07-24T04:00:00,2192A,119.7594,49.2261,呼伦贝尔市,区环保局,,21,21,23,12,16,97,30,44,36,6,11,4,5,0.3,0.3
2022-07-24T04:00:00,2194A,107.5936,40.916,巴彦淖尔市,秋林养殖基地(对照点),,,,,,,,,,,,,,,,
2022-07-24T04:00:00,2195A,107.4212,40.761,巴彦淖尔市,附二中,颗粒物(PM10),63,76,72,21,23,187,65,99,87,20,15,3,10,0.5,0.6
2022-07-24T04:00:00,2196A,107.37,40.7372,巴彦淖尔市,市环保大楼,颗粒物(PM10),56,61,65,17,22,184,83,91,89,16,14,3,8,0.6,0.7
2022-07-24T04:00:00,2197A,113.1306,40.9923,乌兰察布市,集宁新区,,39,37,31,19,14,158,122,125,124,7,12,12,9,0.3,0.3
2022-07-24T04:00:00,2200A,122.0392,46.0656,兴安盟,胜华新制药厂,,24,6,19,8,10,97,74,88,80,3,5,2,2,0.1,0.2
2022-07-24T04:00:00,2201A,121.9504,46.0741,兴安盟,科右前旗环保局,,20,7,12,8,11,96,62,80,70,8,8,4,3,0.1,0.2
2022-07-24T04:00:00,2202A,116.1042,43.9317,锡林郭勒盟,市环保监测站,,22,10,13,7,5,136,68,88,78,6,5,11,11,0.2,0.4
2022-07-24T04:00:00,2203A,116.0781,43.9311,锡林郭勒盟,市政府,,21,13,9,2,3,145,66,94,76,8,7,8,8,0.4,0.4
2022-07-24T04:00:00,2204A,105.6467,38.8363,阿拉善盟,西城区西花园(对照点),,40,25,21,8,10,141,127,128,126,5,7,4,4,0.4,0.4
2022-07-24T04:00:00,2205A,105.6985,38.8411,阿拉善盟,蒙二幼,,39,17,22,11,16,142,123,123,122,4,7,7,8,0.2,0.2
2022-07-24T04:00:00,2206A,105.724,38.8516,阿拉善盟,环保局新楼,,41,15,13,11,12,136,130,130,130,5,7,7,8,0.2,0.2
2022-07-24T04:00:00,2207A,121.6094,41.998,阜新市,工业园区,颗粒物(PM10),53,56,44,36,21,114,35,41,37,15,18,28,24,0.6,0.6
2022-07-24T04:00:00,2208A,121.6697,42.0279,阜新市,长青街,细颗粒物(PM2.5),55,42,41,39,22,98,29,27,27,12,17,20,21,0.7,0.6
2022-07-24T04:00:00,2209A,121.6673,42.0705,阜新市,农业园区,,23,16,24,16,12,111,67,71,70,8,9,14,25,0.6,0.6
2022-07-24T04:00:00,2210A,121.6717,42.0224,阜新市,东苑,颗粒物(PM10),54,57,56,32,21,108,38,35,34,15,17,33,37,0.6,0.6
2022-07-24T04:00:00,2211A,121.6506,42.0498,阜新市,玉龙新城,,32,32,35,12,14,100,39,33,33,14,16,22,22,0.4,0.4
2022-07-24T04:00:00,2212A,123.2,41.1953,辽阳市,宏伟区,,31,31,24,14,12,75,7,43,29,19,10,5,7,0.8,0.6
2022-07-24T04:00:00,2213A,123.1683,41.2495,辽阳市,新华园,,48,48,39,28,19,89,6,38,26,41,20,7,8,1.0,0.5
2022-07-24T04:00:00,2214A,123.2354,41.2639,辽阳市,滨河路,,30,29,42,21,22,85,13,40,28,25,17,8,10,0.8,0.6
2022-07-24T04:00:00,2215A,123.149,41.2991,辽阳市,铁西工业园,,35,35,42,21,23,84,6,36,20,26,22,5,5,0.8,0.8
2022-07-24T04:00:00,2216A,123.8139,42.3022,铁岭市,汇工街西,,24,24,24,10,10,97,36,53,40,17,18,7,11,0.5,0.5
2022-07-24T04:00:00,2217A,123.8649,42.2923,铁岭市,水上乐园,,29,29,21,11,11,92,24,45,29,31,22,5,5,0.3,0.3
2022-07-24T04:00:00,2218A,123.8486,42.2867,铁岭市,银州路东段,,17,17,18,9,7,94,20,41,30,27,20,6,6,0.5,0.5
2022-07-24T04:00:00,2219A,123.7153,42.2217,铁岭市,金沙江路北,,17,15,37,8,21,106,22,47,38,34,24,6,7,0.5,0.5
2022-07-24T04:00:00,2220A,120.4318,41.5881,朝阳市,西梁,,48,48,28,17,12,85,16,30,26,20,13,10,8,0.8,0.7
2022-07-24T04:00:00,2221A,120.4521,41.5646,朝阳市,河畔小区,,43,43,31,11,11,91,39,43,42,7,10,10,8,0.5,0.5
2022-07-24T04:00:00,2222A,120.4176,41.5648,朝阳市,八里堡,,,,27,,13,73,,60,,,14,,6,,0.7
2022-07-24T04:00:00,2223A,120.3806,41.5969,朝阳市,农业园区,,23,23,21,12,11,90,6,14,10,15,13,6,7,0.5,0.5
2022-07-24T04:00:00,2225A,124.4002,43.1713,四平市,一商场,,15,15,20,9,10,93,45,44,44,13,14,2,2,0.4,0.4
2022-07-24T04:00:00,2226A,124.388,43.193,四平市,境园,,18,18,21,11,8,86,15,31,24,12,9,6,7,0.4,0.3
2022-07-24T04:00:00,2227A,125.1358,42.8845,辽源市,环保局,,20,19,25,14,16,95,49,55,54,11,9,6,5,0.5,0.5
2022-07-24T04:00:00,2229A,125.9358,41.7173,通化市,光明,,12,11,21,4,12,67,38,37,37,11,13,9,10,0.9,0.7
2022-07-24T04:00:00,2230A,125.9446,41.7325,通化市,铁路,,10,7,19,5,10,78,30,40,38,18,13,9,9,1.0,0.8
2022-07-24T04:00:00,2231A,126.4219,41.9171,白山市,喜丰,,18,18,26,11,11,112,37,24,24,9,12,4,10,0.8,0.8
2022-07-24T04:00:00,2232A,126.4077,41.9419,白山市,环保局,,20,20,30,5,15,118,34,28,28,11,17,7,10,0.6,0.7
2022-07-24T04:00:00,2233A,124.8006,45.1214,松原市,江南,,24,2,13,1,7,75,75,74,74,1,6,2,3,0.3,0.3
2022-07-24T04:00:00,2234A,124.7965,45.1722,松原市,江北,,27,0,11,2,6,88,84,88,86,7,9,3,2,0.3,0.3
2022-07-24T04:00:00,2235A,122.7911,45.6077,白城市,洮北区环保局,,13,6,15,9,11,95,21,49,34,26,10,4,3,0.2,0.2
2022-07-24T04:00:00,2236A,122.8738,45.5725,白城市,市环保局,,25,25,19,11,10,103,38,64,51,9,9,1,4,0.1,0.1
2022-07-24T04:00:00,2237A,129.47,42.8883,延边朝鲜族自治州,妇幼医院,,11,11,11,1,3,44,35,36,36,5,6,7,7,0.3,0.4
2022-07-24T04:00:00,2238A,129.5055,42.9108,延边朝鲜族自治州,延边医院,,,,,,,,,,,,,,,,
2022-07-24T04:00:00,2239A,129.3964,42.8881,延边朝鲜族自治州,朝阳川镇医院,,10,8,10,2,2,46,31,36,34,5,6,7,7,0.3,0.3
2022-07-24T04:00:00,2240A,130.9762,45.3001,鸡西市,环保局,,18,12,28,12,11,74,16,28,22,14,15,2,3,0.2,0.2
2022-07-24T04:00:00,2243A,130.9429,45.3039,鸡西市,第一中学,,15,15,31,6,8,84,19,27,23,7,8,3,3,0.2,0.2
2022-07-24T04:00:00,2244A,130.2537,47.3416,鹤岗市,哈啤分公司,,9,8,9,6,6,37,4,10,7,10,6,5,5,0.3,0.3
2022-07-24T04:00:00,2245A,130.2684,47.3086,鹤岗市,斯达机电,,9,9,11,4,5,41,10,16,13,8,6,5,5,0.1,0.1
2022-07-24T04:00:00,2246A,130.3114,47.3388,鹤岗市,东山纸板厂,,12,11,23,8,10,41,8,12,11,9,7,8,8,0.2,0.2
2022-07-24T04:00:00,2247A,130.1097,47.3382,鹤岗市,五号水库(对照点),,5,5,5,3,5,38,14,15,14,6,6,9,9,0.2,0.1
2022-07-24T04:00:00,2248A,131.1511,46.6937,双鸭山市,双合村,颗粒物(PM10),62,74,22,28,8,28,2,2,2,10,11,10,5,3.2,0.6
2022-07-24T04:00:00,2249A,131.1652,46.6191,双鸭山市,南小市,,14,14,16,8,6,38,12,12,12,6,7,3,4,0.0,0
2022-07-24T04:00:00,2250A,131.1524,46.6554,双鸭山市,环保局,,40,40,28,12,8,29,5,5,5,10,8,5,3,0.3,0.4
2022-07-24T04:00:00,2251A,131.12,46.5656,双鸭山市,苗圃(对照点),,16,15,16,11,11,36,8,10,9,3,5,3,3,0.3,0.3
2022-07-24T04:00:00,2252A,128.5159,47.4311,伊春市,环保局,,15,6,18,10,10,53,5,10,8,7,9,5,5,0.2,0.3
2022-07-24T04:00:00,2253A,128.9102,47.7412,伊春市,电力嘉园,,11,11,15,6,6,56,9,12,10,3,7,5,13,0.4,0.5
2022-07-24T04:00:00,2254A,129.5029,48.471,伊春市,汤旺河国家公园(对照点),,9,8,7,6,4,37,0,0,0,1,1,5,6,0.3,0.3
2022-07-24T04:00:00,2255A,130.2751,46.8028,佳木斯市,佳纺,,14,14,17,9,8,38,6,6,6,12,8,3,2,0.3,0.3
2022-07-24T04:00:00,2256A,130.3995,46.8307,佳木斯市,发电厂,,22,19,14,15,10,33,0,0,0,22,9,3,4,0.3,0.2
2022-07-24T04:00:00,2257A,130.3258,46.7975,佳木斯市,环保局,,26,26,21,14,9,29,2,4,2,16,13,3,2,0.3,0.3
2022-07-24T04:00:00,2258A,130.3648,46.8032,佳木斯市,十一中,,28,26,20,19,11,33,3,4,3,24,13,5,5,0.2,0.2
2022-07-24T04:00:00,2259A,130.3794,46.7588,佳木斯市,四丰(对照点),,19,19,14,12,9,37,6,6,6,16,13,1,1,0.6,0.4
2022-07-24T04:00:00,2262A,131.0518,45.8751,七台河市,新一中(对照点),,16,10,7,11,6,63,10,14,13,20,11,7,6,0.6,0.5
2022-07-24T04:00:00,2263A,127.4833,50.2524,黑河市,交通局,,31,31,29,5,9,74,9,10,9,4,6,4,6,0.3,0.3
2022-07-24T04:00:00,2264A,127.5144,50.2341,黑河市,环保局,,23,18,21,16,10,66,22,28,24,5,7,7,6,0.3,0.4
2022-07-24T04:00:00,2265A,127.5291,50.2472,黑河市,大黑河岛(对照点),,23,17,20,16,12,64,0,2,1,5,5,7,7,0.5,0.6
2022-07-24T04:00:00,2266A,126.9785,46.6365,绥化市,人和东街,,13,10,21,9,11,61,9,15,11,18,10,5,5,0.2,0.2
2022-07-24T04:00:00,2267A,126.964,46.6528,绥化市,党政办公中心,,16,14,20,11,11,66,4,19,10,26,10,5,5,0.2,0.2
2022-07-24T04:00:00,2269A,124.1069,50.4097,大兴安岭地区,科技局,,,9,7,3,5,52,4,10,6,,5,6,5,0,0
2022-07-24T04:00:00,2270A,117.396,32.939,蚌埠市,工人疗养院,,29,29,16,19,11,121,62,84,75,16,6,16,8,0.4,0.3
2022-07-24T04:00:00,2271A,117.3605,32.9427,蚌埠市,百货大楼,,48,44,22,33,9,123,65,86,76,21,8,14,8,0.4,0.3
2022-07-24T04:00:00,2273A,117.4185,32.8911,蚌埠市,蚌埠学院,颗粒物(PM10),60,70,22,27,10,123,49,58,52,23,7,11,5,0.4,0.3
2022-07-24T04:00:00,2274A,117.3533,32.9673,蚌埠市,淮上区政府,,41,41,22,17,9,122,64,84,72,18,7,11,9,0.4,0.3
2022-07-24T04:00:00,2275A,117.3145,32.8977,蚌埠市,高新区,,49,44,20,34,15,125,36,53,43,34,12,10,8,0.6,0.5
2022-07-24T04:00:00,2277A,116.8305,32.7727,淮南市,潘集区政府,,32,32,24,15,13,117,62,81,73,17,11,7,6,0.3,0.2
2022-07-24T04:00:00,2278A,117.0067,32.6524,淮南市,师范学院,颗粒物(PM10),52,54,34,21,12,112,62,71,66,15,9,12,7,0.4,0.2
2022-07-24T04:00:00,2279A,116.8569,32.5951,淮南市,谢家集区政府,,25,25,22,12,8,122,74,100,83,9,9,6,5,0.3,0.2
2022-07-24T04:00:00,2280A,116.8281,32.633,淮南市,八公山区政府,,29,20,20,12,13,119,91,102,97,4,6,5,5,0.3,0.3
2022-07-24T04:00:00,2281A,116.6325,32.6201,淮南市,焦岗湖风景区管理处(对照点),,24,24,22,3,6,120,16,72,56,38,10,6,7,0.3,0.2
2022-07-24T04:00:00,2282A,116.8004,33.975,淮北市,监测站,,30,28,25,18,13,114,96,88,88,7,9,6,6,0.6,0.5
2022-07-24T04:00:00,2283A,116.8091,33.9007,淮北市,烈山区政府,细颗粒物(PM2.5),52,52,20,36,18,116,16,60,44,52,13,5,5,0.8,0.6
2022-07-24T04:00:00,2284A,116.7856,33.9477,淮北市,职业技术学院,,47,47,27,29,17,112,56,66,58,11,6,7,6,0.7,0.6
2022-07-24T04:00:00,2285A,117.8177,30.9412,铜陵市,市第四中学,,30,21,29,21,17,118,62,71,68,14,15,4,12,0.5,0.4
2022-07-24T04:00:00,2286A,117.8059,30.9273,铜陵市,市公路局,,23,23,34,16,8,110,67,66,66,9,11,8,7,0.7,0.7
2022-07-24T04:00:00,2287A,117.7807,30.9413,铜陵市,市新民污水厂,,30,30,29,14,16,106,50,56,55,25,17,9,10,0.5,0.4
2022-07-24T04:00:00,2288A,117.7439,30.8792,铜陵市,市第九中学,,42,42,39,21,17,104,50,59,55,23,17,10,9,0.7,0.7
2022-07-24T04:00:00,2289A,117.846,30.9413,铜陵市,车站新区,,33,27,36,23,16,102,56,53,53,11,18,12,11,0.5,0.6
2022-07-24T04:00:00,2290A,117.8483,30.97,铜陵市,市职教基地,,32,32,29,9,10,101,56,69,59,9,10,5,4,0.8,0.8
2022-07-24T04:00:00,2291A,117.0809,30.5177,安庆市,环科院,,25,24,26,17,15,115,68,92,76,12,10,8,6,0.6,0.5
2022-07-24T04:00:00,2292A,117.0331,30.5119,安庆市,马山宾馆,,25,23,24,17,17,120,69,96,77,11,12,7,5,0.7,0.6
2022-07-24T04:00:00,2294A,116.9896,30.6145,安庆市,安庆大学,,23,18,26,14,16,110,73,62,62,9,11,5,6,0.5,0.5
2022-07-24T04:00:00,2295A,118.2903,29.6963,黄山市,延安路89号,,24,24,26,8,10,91,23,35,24,7,5,6,6,0.2,0.2
2022-07-24T04:00:00,2296A,118.327,29.7178,黄山市,黄山东路89号,,24,24,24,9,7,90,13,24,20,8,5,4,5,0.4,0.3
2022-07-24T04:00:00,2297A,118.1371,30.2756,黄山市,黄山区政府5号楼,,17,17,25,6,9,89,44,47,45,4,3,5,6,0.6,0.4
2022-07-24T04:00:00,2298A,118.3093,32.3153,滁州市,老年大学,,28,23,26,15,14,118,88,99,95,11,9,3,3,0.3,0.2
2022-07-24T04:00:00,2299A,118.3244,32.2786,滁州市,人大宾馆,,25,15,18,14,14,118,77,94,90,11,9,5,6,0.3,0.3
2022-07-24T04:00:00,2301A,115.8277,32.8929,阜阳市,市监测站,,25,25,15,15,7,124,79,90,87,10,9,6,6,0.5,0.5
2022-07-24T04:00:00,2303A,115.8554,32.8605,阜阳市,开发区,,39,39,23,21,11,127,49,51,48,21,12,7,7,0.5,0.5
2022-07-24T04:00:00,2306A,116.989,33.6306,宿州市,火车站,,,,,,,,,,,,,,,,
2022-07-24T04:00:00,2307A,116.5079,31.737,六安市,监测大楼,,32,32,20,16,9,93,41,49,47,11,7,6,6,0.5,0.5
2022-07-24T04:00:00,2308A,116.4738,31.7643,六安市,皖西学院,,23,17,15,16,8,96,38,61,51,13,5,9,10,0.4,0.3
2022-07-24T04:00:00,2309A,116.4996,31.7905,六安市,朝阳厂,,25,23,11,17,8,87,39,62,51,13,5,8,8,0.6,0.5
2022-07-24T04:00:00,2310A,116.5567,31.7886,六安市,开发区,,40,40,18,19,10,94,29,29,29,20,13,6,6,0.6,0.5
2022-07-24T04:00:00,2311A,115.8072,33.8399,亳州市,污水处理厂,,31,31,18,21,14,125,74,87,78,16,11,8,6,0.5,0.4
2022-07-24T04:00:00,2312A,115.7789,33.8518,亳州市,三国揽胜宫,,31,31,24,21,10,127,78,86,83,8,6,9,7,0.6,0.6
2022-07-24T04:00:00,2314A,117.47,30.6618,池州市,池州学院,,24,24,26,14,15,109,66,78,71,10,13,12,7,0.8,0.5
2022-07-24T04:00:00,2315A,117.4974,30.6539,池州市,平天湖(对照点),,,,,,,,,,,,,,,,
2022-07-24T04:00:00,2316A,118.7581,30.9454,宣城市,鳌峰子站,,27,27,28,18,17,128,67,84,70,12,12,5,5,0.5,0.5
2022-07-24T04:00:00,2317A,118.7385,30.9743,宣城市,敬亭山子站,,21,21,26,14,15,127,54,58,56,12,17,6,8,0.4,0.4
2022-07-24T04:00:00,2318A,118.7173,30.9427,宣城市,开发区子站,,32,32,27,13,16,133,60,78,70,14,14,5,6,0.5,0.4
2022-07-24T04:00:00,2319A,119.0141,25.4325,莆田市,荔城区仓后路,,48,48,60,25,30,185,35,49,38,21,20,4,5,0.8,0.9
2022-07-24T04:00:00,2320A,119.0015,25.4553,莆田市,莆田市监测站,,48,46,59,33,33,212,42,30,30,13,18,6,8,0.8,0.8
2022-07-24T04:00:00,2321A,119.1119,25.4561,莆田市,涵江区六中,细颗粒物(PM2.5),57,48,53,40,34,209,32,38,36,27,22,7,8,0.6,0.6
2022-07-24T04:00:00,2322A,119.1013,25.3215,莆田市,秀屿区政府,,34,34,40,17,21,173,46,51,49,14,13,6,8,0.6,0.7
2022-07-24T04:00:00,2323A,118.981,25.4792,莆田市,东圳水库(对照点),,,,,,,,,,,,,,,,
2022-07-24T04:00:00,2324A,117.6211,26.2625,三明市,三钢,,31,31,34,21,21,130,20,20,20,17,18,6,10,0.3,0.7
2022-07-24T04:00:00,2325A,117.635,26.2714,三明市,三明二中,,26,26,28,15,16,128,15,12,12,24,18,11,7,1.3,0.7
2022-07-24T04:00:00,2326A,117.6028,26.2378,三明市,三元区政府,,28,28,34,18,18,132,9,15,14,22,17,7,9,0.6,0.5
2022-07-24T04:00:00,2327A,117.7275,26.3108,三明市,洋溪(对照点),,,,,,,,,,,,,,,,
2022-07-24T04:00:00,2331A,118.0966,26.6761,南平市,茫荡山(对照点),,,,,,,,,,,,,,,,
2022-07-24T04:00:00,2332A,118.1681,26.6369,南平市,南平市监测站,,46,22,27,32,31,126,8,14,10,21,13,4,6,0.3,0.3
2022-07-24T04:00:00,2333A,118.1825,26.6489,南平市,南平铝业有限公司,,26,26,30,13,17,121,9,15,11,17,12,4,6,0.5,0.5
2022-07-24T04:00:00,2334A,118.1756,26.6272,南平市,南平七中,,22,16,26,15,18,121,5,11,8,20,11,5,6,0.4,0.5
2022-07-24T04:00:00,2335A,117.0189,25.1181,龙岩市,龙岩师专(对照点),,,,,,,,,,,,,,,,
2022-07-24T04:00:00,2336A,117.0217,25.1033,龙岩市,龙岩市监测站,,32,29,36,22,21,130,33,41,39,22,17,6,7,0.5,0.5
2022-07-24T04:00:00,2337A,117.0258,25.0661,龙岩市,闽西职业技术学院,颗粒物(PM10),52,54,51,24,24,132,22,34,27,38,22,28,14,0.6,0.5
2022-07-24T04:00:00,2338A,117.0196,25.0306,龙岩市,龙岩学院,,25,18,31,17,20,115,54,79,68,11,9,4,6,0.4,0.4
2022-07-24T04:00:00,2339A,119.5001,26.6946,宁德市,金涵水库(对照点),,17,17,35,7,19,142,32,28,28,5,10,4,4,0.2,0.4
2022-07-24T04:00:00,2341A,119.5388,26.6612,宁德市,宁德市监测站,,19,19,48,13,26,145,25,28,27,16,17,7,7,0.4,0.7
2022-07-24T04:00:00,2342A,117.3102,29.3867,景德镇市,王港中学(对照点),,32,32,38,12,18,143,28,47,36,9,17,5,6,0.3,0.4
2022-07-24T04:00:00,2343A,117.2117,29.2933,景德镇市,老干部活动中心,颗粒物(PM10),54,57,53,22,24,118,30,55,41,21,18,10,13,0.4,0.4
2022-07-24T04:00:00,2344A,117.1894,29.2789,景德镇市,兽医站,,35,34,49,24,22,118,34,41,38,19,21,11,19,0.3,0.4
2022-07-24T04:00:00,2345A,117.1547,29.2617,景德镇市,台达陶瓷,,44,44,50,20,24,110,19,55,36,38,19,48,27,0.5,0.4
2022-07-24T04:00:00,2346A,117.2461,29.2956,景德镇市,陶研所,,36,36,35,17,17,115,29,44,34,12,10,5,10,0.4,0.4
2022-07-24T04:00:00,2347A,114.0997,27.5002,萍乡市,武功山(对照点),,8,3,7,5,5,34,14,17,15,6,6,20,17,0.1,0.2
2022-07-24T04:00:00,2348A,113.8385,27.6434,萍乡市,中医院,,26,25,18,18,13,85,29,42,35,12,10,8,9,0.4,0.4
2022-07-24T04:00:00,2349A,113.8493,27.6253,萍乡市,市政府车库,,27,27,21,16,15,91,30,39,34,15,11,9,9,0.4,0.4
2022-07-24T04:00:00,2350A,113.8676,27.6435,萍乡市,市环保局,,35,21,18,24,15,94,13,22,19,32,11,44,11,0.4,0.4
2022-07-24T04:00:00,2351A,113.866,27.6198,萍乡市,安源区政府,,34,34,21,16,14,94,28,35,31,12,6,10,8,0.3,0.2
2022-07-24T04:00:00,2352A,115.0861,27.9317,新余市,北岗(对照点),,28,28,26,17,17,94,3,5,4,22,12,5,8,0.5,0.5
2022-07-24T04:00:00,2353A,114.9886,27.8431,新余市,飞宇,,44,44,39,19,18,83,19,19,19,25,16,16,11,0.7,0.8
2022-07-24T04:00:00,2354A,114.9231,27.8246,新余市,第二水厂,,30,30,32,13,14,89,36,40,39,17,13,7,8,0.9,0.7
2022-07-24T04:00:00,2355A,114.9308,27.8036,新余市,市气象局,,32,32,36,20,20,84,26,26,26,19,15,5,16,1.0,0.9
2022-07-24T04:00:00,2357A,116.9822,28.1136,鹰潭市,龙虎山(对照点),,30,30,29,14,12,106,26,34,31,6,7,3,3,0.4,0.5
2022-07-24T04:00:00,2358A,117.0564,28.2642,鹰潭市,新监测站,,30,30,32,12,11,111,32,31,28,2,5,2,2,0.2,0.2
2022-07-24T04:00:00,2359A,117.0311,28.2475,鹰潭市,财苑宾馆,,20,19,37,14,9,93,15,27,22,17,9,2,3,0.4,0.3
2022-07-24T04:00:00,2360A,117.0222,28.2264,鹰潭市,体育馆,,25,25,37,14,13,102,16,48,34,23,7,3,2,0.6,0.2
2022-07-24T04:00:00,2361A,117.0017,28.2131,鹰潭市,三川水表,颗粒物(PM10),55,59,47,14,14,93,13,32,25,16,4,1,2,0.8,0.6
2022-07-24T04:00:00,2362A,114.9017,25.9149,赣州市,通天岩(对照点),,38,38,34,23,22,130,43,36,36,17,14,11,10,0.5,0.4
2022-07-24T04:00:00,2363A,114.9367,25.8664,赣州市,地委,,36,29,37,25,19,127,46,68,58,17,15,15,14,0.8,0.8
2022-07-24T04:00:00,2364A,114.9461,25.8481,赣州市,气象台,,28,27,29,19,19,126,88,85,85,7,10,12,9,0.8,0.7
2022-07-24T04:00:00,2365A,114.9322,25.8333,赣州市,市图书馆,,31,26,27,21,18,138,99,94,94,10,14,17,8,0.8,0.8
2022-07-24T04:00:00,2366A,114.8905,25.8471,赣州市,华坚鞋城,,48,48,37,24,18,134,55,62,59,18,12,15,9,0.8,0.7
2022-07-24T04:00:00,2367A,114.9754,27.0803,吉安市,红声器材厂,颗粒物(PM10),52,53,39,22,19,135,13,28,16,20,11,5,7,0.4,0.4
2022-07-24T04:00:00,2368A,114.9658,27.0999,吉安市,市森林工业局,,45,45,35,20,19,139,14,42,28,29,11,7,8,0.5,0.4
2022-07-24T04:00:00,2369A,114.99,27.1312,吉安市,市环境监测站,,31,31,34,21,18,135,18,52,38,19,10,8,9,0.7,0.6
2022-07-24T04:00:00,2370A,115.0093,27.0968,吉安市,青原区法院,,40,40,35,18,17,134,30,26,26,8,9,10,12,0.3,0.2
2022-07-24T04:00:00,2371A,114.3408,27.8064,宜春市,槟榔水业(对照点),,,,,,,,,,,,,,,,
2022-07-24T04:00:00,2373A,114.3956,27.7844,宜春市,市石油公司,,27,27,34,16,16,98,18,20,18,16,17,1,7,0.9,1
2022-07-24T04:00:00,2374A,114.3703,27.7914,宜春市,市气象局,,24,24,34,15,15,103,24,32,30,13,12,4,9,0.6,0.7
2022-07-24T04:00:00,2375A,114.4013,27.8074,宜春市,市广电局,,32,32,34,16,17,105,29,32,30,7,12,6,8,0.5,0.8
2022-07-24T04:00:00,2376A,116.2127,28.0814,抚州市,桐源党溪(对照点),,23,23,25,14,14,79,9,20,15,15,7,1,2,0.8,0.7
2022-07-24T04:00:00,2377A,116.3544,27.9831,抚州市,市站,,37,37,33,23,19,106,31,51,42,12,9,4,5,0.7,0.6
2022-07-24T04:00:00,2378A,116.3565,27.963,抚州市,血防站,,36,36,31,24,20,104,26,46,37,7,5,7,8,0.8,0.7
2022-07-24T04:00:00,2379A,116.3564,28.0007,抚州市,采茶剧团,,36,36,31,23,19,103,29,45,36,8,6,7,8,0.7,0.6
2022-07-24T04:00:00,2380A,116.385,27.9647,抚州市,医学分院,,31,31,32,17,16,101,26,30,28,13,11,5,6,0.5,0.5
2022-07-24T04:00:00,2381A,118.005,28.4572,上饶市,百草园(对照点),,,,,,,,,,,,,,,,
2022-07-24T04:00:00,2382A,117.9756,28.4436,上饶市,市监测站,颗粒物(PM10),52,53,43,28,21,123,22,28,26,16,14,16,15,0.5,0.5
2022-07-24T04:00:00,2383A,117.9519,28.4628,上饶市,凤凰光学,,43,43,40,28,23,113,31,34,34,10,10,33,17,0.5,0.5
