timepoint,stationcode,longitude,latitude,area,positionname,primarypollutant,aqi,pm10,pm10_24h,pm2_5,pm2_5_24h,o3,o3_24h,o3_8h,o3_8h_24h,no2,no2_24h,so2,so2_24h,co,co_24h
2024-10-12T2200,2566A,102.1879,31.914,阿坝藏族羌族自治州,州农科所,,24,24,20,8,8,32,,60,54,12,11,7,8,0,0
2024-10-12T2200,2568A,102.2502,31.8896,阿坝藏族羌族自治州,马师校,,29,29,16,14,15,28,,72,61,13,10,4,4,0.3,0.3
2024-10-12T2200,3994A,102.2165,31.9024,阿坝藏族羌族自治州,马尔康中学西区,,28,25,18,19,15,34,,66,59,9,10,4,5,0.4,0.4
2024-10-12T2200,2695A,80.292,41.1694,阿克苏地区,电视台,颗粒物(PM10),122,194,107,64,36,3,,93,80,96,28,6,5,1.6,0.6
2024-10-12T2200,2696A,80.2613,41.1551,阿克苏地区,艺术中心,颗粒物(PM10),113,175,104,48,37,2,,89,75,101,34,4,4,1.9,0.9
2024-10-12T2200,2204A,105.6467,38.8363,阿拉善盟,西城区西花园,颗粒物(PM10),56,61,33,30,20,38,,100,85,35,12,7,8,1.5,1.2
2024-10-12T2200,2205A,105.6985,38.8411,阿拉善盟,蒙二幼,,30,30,36,15,14,55,,92,79,15,13,8,8,0.8,0.8
2024-10-12T2200,2206A,105.724,38.8516,阿拉善盟,环保局新楼,,22,18,26,10,12,69,,95,87,10,10,8,9,0.9,0.9
2024-10-12T2200,2708A,88.1264,47.8517,阿勒泰地区,市站,,23,18,19,7,7,73,,72,64,14,16,7,7,0.3,0.3
2024-10-12T2200,2630A,80.1161,32.5,阿里地区,阿里监测站,,31,12,15,9,7,97,,117,115,13,14,7,5,0.4,0.5
2024-10-12T2200,3192A,80.0903,32.5028,阿里地区,阿里藏医院,,31,19,15,3,5,99,,113,112,11,10,6,7,0.5,0.6
2024-10-12T2200,2642A,109.0318,32.6537,安康市,香溪洞,,29,23,28,20,20,69,,52,52,6,11,7,8,0.3,0.4
2024-10-12T2200,2643A,109.0281,32.6939,安康市,安康市监测站,,47,47,36,27,23,80,,59,59,11,15,12,12,0.8,0.6
2024-10-12T2200,2644A,109.0072,32.6975,安康市,汉滨区检察院,,43,41,37,30,23,95,,71,71,8,14,7,9,0.4,0.4
2024-10-12T2200,2291A,117.0809,30.5177,安庆市,环科院,细颗粒物(PM2.5),93,82,70,69,47,117,,172,156,21,24,10,11,0.6,0.6
2024-10-12T2200,2292A,117.0331,30.5119,安庆市,马山宾馆,细颗粒物(PM2.5),89,,66,66,46,122,,177,159,24,25,12,12,0.7,0.6
2024-10-12T2200,2294A,116.9896,30.6145,安庆市,安庆大学,细颗粒物(PM2.5),92,87,70,68,48,115,,186,165,16,17,9,10,0.7,0.7
2024-10-12T2200,3173A,117.0598,30.5351,安庆市,市人大,细颗粒物(PM2.5),89,,69,66,47,113,,170,149,23,25,10,12,0.7,0.6
2024-10-12T2200,3123A,105.9408,26.2431,安顺市,凤凰山,细颗粒物(PM2.5),53,42,38,37,32,103,,85,85,7,9,7,8,0.5,0.4
2024-10-12T2200,3124A,105.9439,26.2564,安顺市,金钟山,,50,50,37,35,31,108,,90,90,6,7,11,10,0.6,0.5
2024-10-12T2200,3125A,105.8983,26.2481,安顺市,娄家坡,细颗粒物(PM2.5),52,40,39,36,33,102,,86,81,8,9,7,7,0.6,0.5
2024-10-12T2200,1819A,114.3551,36.1017,安阳市,红庙街,细颗粒物(PM2.5),109,162,136,82,78,49,,161,131,66,53,5,6,0.9,0.9
2024-10-12T2200,3141A,114.3922,36.0878,安阳市,信访局,细颗粒物(PM2.5),137,180,151,104,90,46,,159,135,63,62,3,6,0.6,0.7
2024-10-12T2200,3703A,114.2917,36.0949,安阳市,安钢职工学校,细颗粒物(PM2.5),112,167,132,84,71,39,,163,127,73,48,4,7,0.8,1
2024-10-12T2200,1748A,123.044,41.1196,鞍山市,深沟寺,细颗粒物(PM2.5),95,128,77,71,41,47,,95,74,28,33,6,11,1.6,1.2
2024-10-12T2200,1749A,123.011,41.0931,鞍山市,太阳城,细颗粒物(PM2.5),98,144,83,73,43,50,,106,84,46,33,14,14,1.4,1.2
2024-10-12T2200,1750A,123.0485,41.1442,鞍山市,太平,细颗粒物(PM2.5),103,152,100,77,48,64,,84,66,36,48,14,18,1.7,1.4
2024-10-12T2200,1751A,122.9642,41.0971,鞍山市,铁西三道街,细颗粒物(PM2.5),144,234,145,110,68,11,,85,54,86,62,9,17,2.0,1.9
2024-10-12T2200,1752A,122.9341,41.0833,鞍山市,铁西工业园区,颗粒物(PM10),116,182,126,87,61,22,,92,63,81,61,11,21,1.4,1.7
2024-10-12T2200,1753A,123.022,41.0821,鞍山市,明达新区,"颗粒物(PM10),细颗粒物(PM2.5)",108,165,91,81,48,25,,97,71,59,32,8,11,1.6,1.2
2024-10-12T2200,2195A,107.4212,40.761,巴彦淖尔市,附二中,颗粒物(PM10),53,55,69,24,27,83,,99,89,12,21,3,10,0.6,0.6
2024-10-12T2200,2196A,107.37,40.7372,巴彦淖尔市,市环保大楼,,34,34,59,22,18,88,,103,91,8,17,3,4,0.4,0.5
2024-10-12T2200,1956A,86.1472,41.7538,巴音郭楞蒙古自治州,孔雀公园,,,,144,,31,2,,81,69,84,43,3,3,1.1,0.5
2024-10-12T2200,1957A,86.1972,41.7166,巴音郭楞蒙古自治州,棉纺厂,颗粒物(PM10),118,185,173,38,41,48,,84,77,42,30,2,2,0.4,0.3
2024-10-12T2200,1958A,86.2357,41.7173,巴音郭楞蒙古自治州,经济开发区,颗粒物(PM10),102,154,178,43,42,38,,85,71,35,23,2,2,0.3,0.2
2024-10-12T2200,2914A,106.7677,31.8794,巴中市,苏山坪,,29,19,23,18,17,91,,82,82,6,6,4,3,0.5,0.4
2024-10-12T2200,3182A,106.7656,31.8545,巴中市,丽阳花园,,30,28,25,21,19,70,,67,67,15,14,5,5,0.6,0.6
2024-10-12T2200,3183A,106.7418,31.8654,巴中市,圣泉水务公司,,32,25,20,22,18,73,,67,67,14,14,3,3,0.6,0.5
2024-10-12T2200,3616A,106.7616,31.8344,巴中市,市中心医院,,29,26,24,20,18,73,,66,66,11,14,4,4,0.6,0.5
2024-10-12T2200,2235A,122.7911,45.6077,白城市,洮北区环保局,,34,34,24,16,11,39,,64,52,24,16,3,3,0.6,0.7
2024-10-12T2200,2236A,122.8738,45.5725,白城市,市环保局,,29,29,23,8,8,42,,72,55,37,19,5,4,0.5,0.4
2024-10-12T2200,2231A,126.4219,41.9171,白山市,喜丰,颗粒物(PM10),96,142,92,31,25,15,,119,72,67,35,10,12,0.8,0.7
2024-10-12T2200,2232A,126.4077,41.9419,白山市,环保局,颗粒物(PM10),78,105,68,45,27,7,,92,50,55,36,9,11,1.1,0.8
2024-10-12T2200,2647A,104.1724,36.5446,白银市,第三小学,,47,47,41,28,26,44,,73,70,39,27,15,18,1.2,1.2
2024-10-12T2200,2648A,104.1465,36.5482,白银市,动力公司,,34,34,36,23,21,41,,76,67,26,22,6,7,0.8,1.1
2024-10-12T2200,2512A,106.6103,23.9011,百色市,市监测站,细颗粒物(PM2.5),74,84,66,54,42,94,,151,139,23,22,20,17,1.2,1
2024-10-12T2200,2513A,106.6538,23.8859,百色市,市中心血站,细颗粒物(PM2.5),74,93,81,54,47,111,,144,139,19,22,24,17,1.1,0.9
2024-10-12T2200,3406A,106.6085,23.8798,百色市,祈福高中,颗粒物(PM10),77,103,77,48,44,87,,144,131,28,23,14,13,1.0,0.9
2024-10-12T2200,2270A,117.396,32.939,蚌埠市,工人疗养院,细颗粒物(PM2.5),92,117,92,68,49,115,,166,152,18,20,6,8,0.6,0.7
2024-10-12T2200,2271A,117.3605,32.9427,蚌埠市,百货大楼,细颗粒物(PM2.5),94,107,90,70,47,112,,162,147,22,19,6,7,0.5,0.5
2024-10-12T2200,2273A,117.4185,32.8911,蚌埠市,蚌埠学院,细颗粒物(PM2.5),88,80,80,65,54,118,,165,151,24,20,8,7,0.6,0.6
2024-10-12T2200,2274A,117.3533,32.9673,蚌埠市,淮上区政府,细颗粒物(PM2.5),104,112,94,78,58,116,,164,153,18,23,8,8,0.6,0.8
2024-10-12T2200,2275A,117.3145,32.8977,蚌埠市,高新区,细颗粒物(PM2.5),97,90,82,72,52,99,,160,142,44,24,12,8,0.6,0.7
2024-10-12T2200,3715A,117.3092,32.9314,蚌埠市,蚌埠田家炳中学,细颗粒物(PM2.5),85,102,89,63,50,120,,164,150,18,17,7,7,0.5,0.6
2024-10-12T2200,1585A,109.8756,40.6532,包头市,市环境监测站,颗粒物(PM10),52,54,71,22,27,89,,96,93,28,52,8,16,0.6,1
2024-10-12T2200,1587A,109.9991,40.5842,包头市,包头八中,颗粒物(PM10),57,63,71,28,27,63,,94,88,38,45,6,24,0.7,0.9
2024-10-12T2200,1588A,109.8538,40.6821,包头市,青山宾馆,,40,40,63,23,31,93,,102,101,21,50,8,14,0.7,1
2024-10-12T2200,1589A,109.8642,40.6288,包头市,惠龙物流,颗粒物(PM10),53,56,66,18,24,95,,102,102,19,50,9,19,0.7,1
2024-10-12T2200,1590A,110.0377,40.5546,包头市,东河鸿龙湾,颗粒物(PM10),57,63,67,20,25,63,,101,92,32,40,9,21,0.7,0.6
2024-10-12T2200,3283A,109.9154,40.5685,包头市,滨河大厦,,43,43,55,21,21,70,,101,90,38,51,12,20,0.6,0.6
2024-10-12T2200,3419A,109.9447,40.6261,包头市,包头市委党校,,38,38,68,18,23,82,,103,101,33,54,7,20,0.5,0.8
2024-10-12T2200,3683A,109.8331,40.6576,包头市,昆区政府,,49,49,68,23,30,92,,101,101,21,50,8,22,0.4,0.8
2024-10-12T2200,1930A,107.185,34.3063,宝鸡市,庙沟村,颗粒物(PM10),84,117,57,60,38,74,,75,70,22,22,8,8,0.8,0.6
2024-10-12T2200,1931A,107.0708,34.3017,宝鸡市,竹园沟,细颗粒物(PM2.5),78,80,54,57,42,31,,96,78,29,20,7,8,0.6,0.5
2024-10-12T2200,1932A,107.1906,34.3672,宝鸡市,三陆医院,细颗粒物(PM2.5),89,97,84,66,63,30,,79,66,49,45,6,12,0.8,0.8
2024-10-12T2200,1933A,107.1431,34.3547,宝鸡市,监测站,细颗粒物(PM2.5),92,91,74,68,53,24,,81,63,41,27,7,8,0.8,0.7
2024-10-12T2200,1934A,107.1186,34.3739,宝鸡市,技工学校,细颗粒物(PM2.5),104,94,81,78,64,39,,89,75,32,29,7,8,0.8,0.7
2024-10-12T2200,1935A,107.3906,34.3528,宝鸡市,陈仓区环保局家属楼,细颗粒物(PM2.5),213,190,107,163,92,18,,108,88,86,46,10,12,0.9,0.7
2024-10-12T2200,1936A,107.2058,34.3497,宝鸡市,文理学院,细颗粒物(PM2.5),80,103,80,59,53,30,,78,64,46,32,9,10,0.8,0.7
2024-10-12T2200,1937A,107.2386,34.3622,宝鸡市,三迪小学,细颗粒物(PM2.5),93,113,86,69,66,26,,80,65,65,48,8,11,0.9,0.8
2024-10-12T2200,1051A,115.493,38.8632,保定市,游泳馆,细颗粒物(PM2.5),201,215,134,151,94,70,,153,141,63,50,5,5,0.8,0.6
2024-10-12T2200,1052A,115.5213,38.8959,保定市,华电二区,细颗粒物(PM2.5),225,217,131,175,98,41,,144,125,75,57,7,7,0.9,0.6
2024-10-12T2200,1053A,115.4713,38.9108,保定市,接待中心,细颗粒物(PM2.5),201,197,121,151,84,68,,141,128,54,50,5,4,0.8,0.6
2024-10-12T2200,1054A,115.4612,38.8416,保定市,地表水厂,细颗粒物(PM2.5),193,204,135,145,98,88,,153,146,51,48,6,5,0.7,0.5
2024-10-12T2200,3581A,115.31981,38.95208,保定市,满城区生态环境分局,细颗粒物(PM2.5),153,195,142,117,74,104,,139,129,48,50,5,5,0.9,0.8
2024-10-12T2200,3582A,115.47694,38.76408,保定市,清苑区第二中学,细颗粒物(PM2.5),168,208,161,127,106,84,,155,148,72,69,13,10,0.8,0.7
2024-10-12T2200,3583A,115.62909,39.02311,保定市,徐水物探局,细颗粒物(PM2.5),252,231,119,202,86,14,,136,105,90,56,9,8,0.8,0.5
2024-10-12T2200,4004A,115.4202,38.8656,保定市,双鹰农机,细颗粒物(PM2.5),168,187,124,127,79,99,,169,157,53,54,6,5,0.7,0.6
2024-10-12T2200,4034A,115.5150,38.8590,保定市,植保所站,细颗粒物(PM2.5),202,219,134,152,95,51,,147,132,81,59,13,12,0.8,0.6
2024-10-12T2200,2594A,99.1678,25.1081,保山市,市环境监测站,,36,28,30,25,20,39,,81,67,8,7,3,4,0.5,0.4
2024-10-12T2200,2595A,99.1711,25.1328,保山市,市环保局,,26,26,32,17,18,58,,84,74,3,5,4,4,0.4,0.4
2024-10-12T2200,1867A,109.1436,21.4086,北海市,海滩公园,,43,41,45,27,26,135,,169,160,7,9,6,8,0.9,0.9
2024-10-12T2200,1868A,109.0981,21.4661,北海市,新市环保局,颗粒物(PM10),51,51,43,19,27,130,,153,149,9,11,5,8,0.8,0.8
2024-10-12T2200,1869A,109.1778,21.5233,北海市,北海工业园,颗粒物(PM10),51,52,54,27,34,127,,155,146,9,14,7,12,0.7,0.7
2024-10-12T2200,3400A,109.1911,21.4415,北海市,龙潭自来水厂,,42,42,48,28,36,132,,162,153,6,10,7,10,0.6,0.7
2024-10-12T2200,1001A,116.3621,39.8784,北京市,万寿西宫,细颗粒物(PM2.5),118,150,108,89,61,95,,117,112,28,49,4,5,1.2,0.9
2024-10-12T2200,1002A,116.2202,40.2915,北京市,定陵,细颗粒物(PM2.5),115,123,92,87,58,50,,112,95,14,20,3,2,0.9,0.6
2024-10-12T2200,1003A,116.4174,39.9289,北京市,东四,细颗粒物(PM2.5),114,138,118,86,69,105,,128,128,26,51,5,7,1.1,0.9
2024-10-12T2200,1004A,116.4072,39.8863,北京市,天坛,细颗粒物(PM2.5),119,132,100,90,65,85,,102,86,30,44,1,4,1.0,0.8
2024-10-12T2200,1005A,116.462,39.9365,北京市,农展馆,细颗粒物(PM2.5),110,138,106,83,62,89,,117,115,29,53,2,4,1.0,0.8
2024-10-12T2200,1006A,116.3392,39.9295,北京市,官园,细颗粒物(PM2.5),113,147,112,85,62,106,,123,121,24,47,3,4,1.0,0.7
2024-10-12T2200,1007A,116.2878,39.9611,北京市,海淀万柳,细颗粒物(PM2.5),114,142,101,86,52,8,,108,80,87,52,3,5,1.4,0.8
2024-10-12T2200,1008A,116.6636,40.135,北京市,顺义新城,细颗粒物(PM2.5),144,177,98,110,63,46,,134,113,49,36,4,4,1.5,0.7
2024-10-12T2200,1009A,116.6275,40.3275,北京市,怀柔镇,细颗粒物(PM2.5),112,126,81,84,49,95,,138,127,24,25,2,4,1.1,0.7
2024-10-12T2200,1010A,116.2296,40.217,北京市,昌平镇,细颗粒物(PM2.5),127,182,112,96,56,70,,100,80,26,29,,5,1.0,0.6
2024-10-12T2200,1011A,116.3966,39.9821,北京市,奥体中心,细颗粒物(PM2.5),107,137,101,80,53,103,,108,108,35,56,4,4,1.2,0.8
2024-10-12T2200,1012A,116.184,39.9136,北京市,古城,细颗粒物(PM2.5),133,204,136,101,59,0,,98,62,104,59,4,5,1.4,1
2024-10-12T2200,3281A,115.9718,40.4529,北京市,延庆夏都,细颗粒物(PM2.5),127,154,86,96,50,78,,142,125,28,23,1,3,0.9,0.5
2024-10-12T2200,3417A,117.0709,40.1465,北京市,平谷新城,细颗粒物(PM2.5),118,142,116,89,73,107,,141,137,20,23,4,5,1.2,0.8
2024-10-12T2200,3418A,116.8336,40.4095,北京市,密云新城,颗粒物(PM10),104,158,94,75,47,46,,135,112,20,21,3,3,1.2,0.6
2024-10-12T2200,3671A,116.088,39.9726,北京市,门头沟三家店,细颗粒物(PM2.5),118,126,95,89,50,8,,115,73,59,33,3,4,0.8,0.5
2024-10-12T2200,3672A,116.1541,39.8204,北京市,丰台云岗,细颗粒物(PM2.5),148,181,100,113,57,48,,106,92,71,46,5,5,0.9,0.6
2024-10-12T2200,3673A,116.6804,39.9081,北京市,通州东关,细颗粒物(PM2.5),109,135,117,82,68,62,,68,,52,48,2,5,1.1,0.9
2024-10-12T2200,3674A,115.9577,39.7603,北京市,房山燕山,细颗粒物(PM2.5),117,133,88,88,53,76,,131,121,23,23,3,2,0.7,0.5
2024-10-12T2200,3675A,116.4672,39.7733,北京市,大兴旧宫,细颗粒物(PM2.5),110,132,110,83,65,86,,114,110,21,47,3,3,0.9,0.8
2024-10-12T2200,3694A,115.986,40.4563,北京市,延庆石河营,细颗粒物(PM2.5),119,133,84,90,49,56,,141,119,24,19,3,2,0.8,0.5
2024-10-12T2200,3695A,116.6151,40.3053,北京市,怀柔新城,细颗粒物(PM2.5),108,121,82,81,51,94,,131,122,12,17,3,3,1.1,0.6
2024-10-12T2200,3696A,116.2545,39.8768,北京市,丰台小屯,细颗粒物(PM2.5),115,157,102,87,55,1,,92,55,107,62,2,2,1.6,1
2024-10-12T2200,3697A,116.84,40.3844,北京市,密云镇,细颗粒物(PM2.5),95,133,88,71,52,2,,134,99,94,37,4,5,1.5,0.6
2024-10-12T2200,1761A,123.8275,41.3064,本溪市,大峪,颗粒物(PM10),73,95,71,49,32,51,,111,92,31,37,10,14,1.4,1.4
2024-10-12T2200,1762A,123.7567,41.3325,本溪市,溪湖,颗粒物(PM10),102,154,92,69,40,20,,117,73,54,42,10,12,1.3,1.5
2024-10-12T2200,1763A,123.7169,41.3094,本溪市,彩屯,细颗粒物(PM2.5),95,114,77,71,46,20,,106,65,58,46,10,16,1.4,1.6
2024-10-12T2200,1764A,123.7669,41.2864,本溪市,东明,颗粒物(PM10),72,93,82,50,36,22,,104,65,62,53,6,10,1.8,1.4
2024-10-12T2200,1765A,123.7992,41.2664,本溪市,新立屯,,41,41,43,21,16,20,,102,49,65,47,5,7,1.0,0.9
2024-10-12T2200,1766A,123.8142,41.3472,本溪市,威宁,颗粒物(PM10),86,122,93,49,36,7,,106,55,65,43,8,11,1.2,1.1
2024-10-12T2200,2587A,105.2864,27.3125,毕节市,八中,,15,15,23,6,15,41,,54,45,9,12,6,6,0.5,0.5
2024-10-12T2200,2588A,105.31,27.2944,毕节市,师专,,21,21,22,14,16,38,,55,47,10,9,7,7,0.6,0.5
2024-10-12T2200,3537A,105.3631,27.3533,毕节市,长征村,,14,9,21,6,17,44,,62,52,8,7,8,7,0.6,0.5
2024-10-12T2200,1629A,118.0018,37.3617,滨州市,第二水厂,细颗粒物(PM2.5),104,112,117,78,61,126,,160,147,19,58,17,12,0.4,0.6
2024-10-12T2200,1630A,117.9776,37.393,滨州市,北中新校,细颗粒物(PM2.5),89,107,107,66,53,133,,158,149,23,52,15,14,0.8,1
2024-10-12T2200,3514A,117.9378,37.3956,滨州市,中海酒店,细颗粒物(PM2.5),79,97,96,58,54,150,,168,161,23,51,10,13,0.8,0.9
2024-10-12T2200,3515A,117.9378,37.3553,滨州市,开发区一中,细颗粒物(PM2.5),83,92,113,61,55,139,,169,162,19,59,28,20,0.3,0.5
2024-10-12T2200,3516A,118.0917,37.694,滨州市,金海六路,细颗粒物(PM2.5),92,110,105,68,57,138,,164,146,15,42,7,23,0.6,0.7
2024-10-12T2200,4028A,117.9956,37.3753,滨州市,滨州市西街道办事处,细颗粒物(PM2.5),100,97,110,75,66,137,,169,159,17,53,27,15,0.8,1
2024-10-12T2200,2311A,115.8072,33.8399,亳州市,污水处理厂,颗粒物(PM10),96,141,124,71,68,80,,168,131,32,33,20,18,0.3,0.3
2024-10-12T2200,2312A,115.7789,33.8518,亳州市,三国揽胜宫,细颗粒物(PM2.5),95,137,111,71,72,78,,172,134,25,26,11,12,0.5,0.6
2024-10-12T2200,3332A,115.7633,33.8034,亳州市,亳州学院,,,129,126,46,58,,,179,162,27,27,6,7,0.5,0.6
2024-10-12T2200,2693A,82.0485,44.8556,博尔塔拉蒙古自治州,市党校,,37,37,64,19,20,65,,86,82,10,12,5,8,0.2,0.3
2024-10-12T2200,2694A,82.0806,44.8969,博尔塔拉蒙古自治州,市环保局,,45,45,65,12,19,37,,84,72,29,20,6,6,0.3,0.4
2024-10-12T2200,1071A,116.8842,38.2991,沧州市,沧县城建局,细颗粒物(PM2.5),117,102,112,88,68,96,,168,150,32,58,4,17,0.6,0.5
2024-10-12T2200,1072A,116.8584,38.3254,沧州市,电视转播站,细颗粒物(PM2.5),110,124,106,83,77,85,,176,153,41,56,6,17,0.7,0.6
2024-10-12T2200,1073A,116.8709,38.3228,沧州市,市环保局,细颗粒物(PM2.5),122,125,117,92,75,81,,168,144,31,47,7,18,0.7,0.7
2024-10-12T2200,3324A,116.8136,38.3004,沧州市,河北水利电力学院,细颗粒物(PM2.5),102,100,119,76,78,119,,180,171,24,44,9,22,0.7,0.6
2024-10-12T2200,2622A,97.1806,31.1273,昌都市,昌都监测站,,18,11,10,9,5,56,,93,87,12,9,8,8,0.3,0.3
2024-10-12T2200,3719A,97.1714,31.1406,昌都市,昌都会议中心,,22,12,9,8,5,70,,97,92,8,6,8,8,0.5,0.5
2024-10-12T2200,2690A,88.1236,43.8886,昌吉回族自治州,天山天池,,27,21,29,3,10,85,,112,103,3,4,8,9,0.5,0.5
2024-10-12T2200,2692A,87.2717,44.0297,昌吉回族自治州,新区政务中心,,27,27,93,15,25,73,,102,90,17,23,4,6,0.6,0.7
2024-10-12T2200,3613A,87.3095,44.0142,昌吉回族自治州,亚心广场,,23,22,115,3,21,71,,96,84,26,26,3,5,0.5,0.6
2024-10-12T2200,1119A,125.3325,43.9166,长春市,食品厂,细颗粒物(PM2.5),134,205,62,102,31,8,,45,22,71,47,10,7,1.7,0.6
2024-10-12T2200,1120A,125.2863,43.9027,长春市,客车厂,细颗粒物(PM2.5),123,166,53,93,26,12,,45,25,78,48,9,7,2.2,0.7
2024-10-12T2200,1121A,125.2841,43.8463,长春市,邮电学院,细颗粒物(PM2.5),89,109,42,66,19,8,,47,33,59,39,8,7,1.4,0.4
2024-10-12T2200,1122A,125.3716,43.8772,长春市,劳动公园,细颗粒物(PM2.5),142,184,65,108,31,14,,48,34,64,45,8,7,2.0,0.7
2024-10-12T2200,1123A,125.3297,43.8805,长春市,园林处,细颗粒物(PM2.5),147,221,53,112,25,17,,43,29,69,40,8,6,2.8,0.7
2024-10-12T2200,1124A,125.4605,43.79,长春市,净月潭,,19,18,32,13,14,50,,56,55,13,24,6,6,0.2,0.2
2024-10-12T2200,1125A,125.7194,43.515,长春市,甩湾子,细颗粒物(PM2.5),93,76,37,69,27,14,,55,36,26,17,6,6,0.9,0.6
2024-10-12T2200,1126A,125.3863,43.8447,长春市,经开区环卫处,颗粒物(PM10),86,121,52,40,19,4,,39,25,55,44,10,9,1.1,0.6
2024-10-12T2200,1127A,125.245,43.7783,长春市,高新区管委会,细颗粒物(PM2.5),107,115,49,80,26,12,,54,31,54,36,8,7,1.1,0.5
2024-10-12T2200,1128A,125.1761,43.8325,长春市,岱山公园,颗粒物(PM10),71,92,39,50,22,6,,58,40,84,40,6,6,1.2,0.5
2024-10-12T2200,1335A,113.0833,28.2325,长沙市,经开区环保局,细颗粒物(PM2.5),284,246,94,234,68,97,,163,140,40,30,9,6,1.0,0.5
2024-10-12T2200,1336A,112.8872,28.2189,长沙市,高开区环保局,细颗粒物(PM2.5),298,279,147,248,115,87,,169,145,23,24,10,8,1.3,1
2024-10-12T2200,1337A,113.0792,28.2053,长沙市,马坡岭,细颗粒物(PM2.5),312,,96,262,72,87,,155,141,35,26,11,7,1.3,0.6
2024-10-12T2200,1338A,112.9394,28.19,长沙市,湖南师范大学,细颗粒物(PM2.5),289,295,114,239,79,112,,174,160,24,19,8,6,1.2,0.7
2024-10-12T2200,1339A,113.0178,28.1322,长沙市,雨花区环保局,细颗粒物(PM2.5),254,258,92,204,57,97,,165,145,28,20,12,8,1.4,0.8
2024-10-12T2200,1340A,112.9792,28.2597,长沙市,伍家岭,细颗粒物(PM2.5),315,299,136,265,102,78,,161,134,32,36,8,6,1.4,0.9
2024-10-12T2200,1341A,113.0014,28.1944,长沙市,火车新站,细颗粒物(PM2.5),279,277,110,229,78,89,,161,141,32,30,10,7,1.3,0.8
2024-10-12T2200,1342A,112.9844,28.1178,长沙市,天心区环保局,细颗粒物(PM2.5),200,271,81,150,49,101,,162,149,32,22,10,7,1.4,0.7
2024-10-12T2200,1343A,112.8908,28.1308,长沙市,湖南中医药大学,细颗粒物(PM2.5),487,,124,480,113,79,,181,154,35,32,12,8,1.9,1
2024-10-12T2200,1344A,112.9581,28.3611,长沙市,沙坪,细颗粒物(PM2.5),236,206,107,186,85,107,,161,138,18,15,14,10,1.3,0.9
2024-10-12T2200,1727A,113.1147,36.1547,长治市,清华站,细颗粒物(PM2.5),119,110,89,90,51,135,,140,140,19,31,10,10,1.0,0.9
2024-10-12T2200,1728A,113.1031,36.1989,长治市,监测站,细颗粒物(PM2.5),107,92,79,80,55,141,,146,146,20,32,11,12,1.0,1.1
2024-10-12T2200,1730A,113.0886,36.2125,长治市,审计局,细颗粒物(PM2.5),117,103,79,88,58,147,,143,143,16,26,8,9,0.6,0.6
2024-10-12T2200,1731A,113.0844,36.1856,长治市,长治八中,细颗粒物(PM2.5),120,153,98,91,48,139,,146,146,21,29,9,10,1.0,1
2024-10-12T2200,2845A,113.1569,36.1911,长治市,德盛苑,细颗粒物(PM2.5),122,95,70,92,50,132,,149,149,23,22,11,10,1.0,0.9
2024-10-12T2200,3568A,113.06,36.0464,长治市,向阳小学,细颗粒物(PM2.5),124,117,94,94,59,138,,149,147,28,26,13,11,0.6,0.6
2024-10-12T2200,3569A,112.8792,36.3144,长治市,屯留一中,细颗粒物(PM2.5),134,113,75,102,48,98,,150,139,35,28,14,12,1.1,1
2024-10-12T2200,3570A,113.235,36.3489,长治市,潞城四中,细颗粒物(PM2.5),98,96,101,73,55,50,,150,136,65,36,6,7,0.7,0.9
2024-10-12T2200,1854A,111.6975,28.9703,常德市,市二中,细颗粒物(PM2.5),68,72,124,49,86,87,,103,102,18,20,4,9,0.7,0.8
2024-10-12T2200,3138A,111.7153,29.0289,常德市,武陵区永安,细颗粒物(PM2.5),67,67,106,48,75,94,,104,104,15,20,5,9,0.5,0.6
2024-10-12T2200,3139A,111.6892,28.9881,常德市,鼎城区玉霞,细颗粒物(PM2.5),62,66,127,44,80,94,,108,108,15,22,6,10,0.7,0.8
2024-10-12T2200,3140A,111.6625,29.0531,常德市,武陵区长庚,,,,115,,76,91,,106,106,15,20,5,8,0.6,0.7
2024-10-12T2200,1196A,119.9633,31.762,常州市,市监测站,,,80,97,49,58,,,164,141,31,39,8,9,,0.7
2024-10-12T2200,1200A,119.9468,31.7069,常州市,武进监测站,颗粒物(PM10),57,64,96,29,49,105,,156,128,16,30,12,15,0.5,0.7
2024-10-12T2200,1201A,119.9255,31.9087,常州市,安家,,,104,105,48,58,76,,147,116,38,44,6,7,,0.6
2024-10-12T2200,3002A,119.9805,31.8174,常州市,行政中心,颗粒物(PM10),65,79,89,37,50,110,,156,130,18,28,6,7,0.1,0.1
2024-10-12T2200,3003A,120.0522,31.7748,常州市,经开区,颗粒物(PM10),69,87,104,43,56,101,,160,132,24,33,8,11,0.3,0.4
2024-10-12T2200,3010A,119.9025,31.7964,常州市,钟楼,颗粒物(PM10),61,72,92,43,56,102,,157,131,23,29,10,10,0.7,0.5
2024-10-12T2200,3429A,119.8598,31.7066,常州市,武进经发区,颗粒物(PM10),52,53,76,24,39,106,,160,132,18,37,7,8,0.7,0.8
2024-10-12T2200,3430A,119.5826,31.7245,常州市,金坛城区,,44,44,62,28,38,88,,176,141,28,32,9,9,0.9,0.9
2024-10-12T2200,2220A,120.4318,41.5881,朝阳市,西梁,颗粒物(PM10),70,89,50,49,23,8,,73,53,53,27,8,8,1.1,0.6
2024-10-12T2200,2221A,120.4521,41.5646,朝阳市,河畔小区,颗粒物(PM10),76,101,39,36,17,8,,83,70,67,23,14,13,1.3,0.7
2024-10-12T2200,2222A,120.4176,41.5648,朝阳市,八里堡,颗粒物(PM10),60,69,49,28,20,66,,80,78,28,28,14,12,0.9,0.7
2024-10-12T2200,2223A,120.3806,41.5969,朝阳市,农业园区,"颗粒物(PM10),细颗粒物(PM2.5)",53,55,36,37,18,33,,72,58,46,24,7,8,0.8,0.6
2024-10-12T2200,1705A,116.6367,23.6719,潮州市,西园路,,45,45,52,29,34,105,,130,125,15,14,4,5,0.5,0.4
2024-10-12T2200,3026A,116.6183,23.6608,潮州市,市政府,,41,41,47,23,26,114,,134,132,13,12,6,6,0.6,0.6
2024-10-12T2200,4036A,116.6461,23.6761,潮州市,金山,,49,36,47,34,29,106,,137,132,12,11,8,8,0.6,0.6
2024-10-12T2200,2472A,113.0073,25.9061,郴州市,马头岭,细颗粒物(PM2.5),84,101,61,62,27,51,,136,108,33,25,15,17,0.4,0.3
2024-10-12T2200,2473A,113.0116,25.8226,郴州市,市职中,细颗粒物(PM2.5),72,78,54,52,41,51,,144,108,36,23,6,10,0.6,0.6
2024-10-12T2200,2474A,113.0161,25.8001,郴州市,兴隆步行街,颗粒物(PM10),65,80,62,46,40,62,,152,123,38,28,6,9,0.6,0.6
2024-10-12T2200,2475A,113.0383,25.8071,郴州市,市审计局,细颗粒物(PM2.5),70,65,53,51,40,55,,143,115,26,21,5,6,0.8,0.7
2024-10-12T2200,2476A,113.0348,25.7759,郴州市,市环保局,细颗粒物(PM2.5),77,76,61,56,40,35,,136,108,53,32,8,14,0.7,0.6
2024-10-12T2200,1431A,103.9728,30.7236,成都市,金泉两河,,49,49,38,28,20,30,,75,53,37,22,3,3,0.6,0.5
2024-10-12T2200,1432A,104.176,30.6872,成都市,十里店,,46,40,28,32,20,31,,68,60,36,19,1,1,0.7,0.6
2024-10-12T2200,1433A,104.079,30.5706,成都市,三瓦窑,细颗粒物(PM2.5),52,,32,36,25,51,,71,67,22,18,3,2,0.6,0.6
2024-10-12T2200,1434A,104.1114,30.63,成都市,沙河铺,细颗粒物(PM2.5),53,49,36,37,22,27,,68,58,32,19,2,2,0.6,0.5
2024-10-12T2200,1437A,104.0786,30.6531,成都市,君平街,颗粒物(PM10),55,60,40,29,27,17,,70,58,57,25,2,3,0.7,0.5
2024-10-12T2200,2880A,104.0239,30.65639,成都市,大石西路,颗粒物(PM10),58,65,38,40,25,12,,66,52,45,17,4,4,0.8,0.6
2024-10-12T2200,3136A,104.2725,30.5589,成都市,龙泉驿区区政府,,32,,22,22,21,74,,74,72,13,15,2,2,0.5,0.5
2024-10-12T2200,3357A,104.0106,30.6931,成都市,金博路,,49,49,28,26,17,16,,60,50,40,23,2,1,0.8,0.7
2024-10-12T2200,3359A,104.0578,30.5225,成都市,华阳,,44,44,31,29,23,36,,62,57,28,19,3,3,0.8,0.7
2024-10-12T2200,3487A,104.2394,30.5319,成都市,车城东七路,,39,33,33,27,26,65,,78,75,18,16,1,1,0.6,0.6
2024-10-12T2200,3488A,104.3853,30.7453,成都市,青白江技师分院,,35,32,24,24,20,30,,76,57,34,14,3,3,0.6,0.6
2024-10-12T2200,3489A,104.0789,30.4072,成都市,科学城,,46,37,31,32,28,59,,76,70,14,14,3,3,0.6,0.6
2024-10-12T2200,4011A,103.8506,30.6947,成都市,光华大道三段,颗粒物(PM10),54,57,33,34,20,39,,84,68,27,13,2,2,0.7,0.6
2024-10-12T2200,1062A,117.9531,40.9081,承德市,铁路,细颗粒物(PM2.5),89,96,62,66,32,71,,108,101,32,36,3,5,0.9,0.6
2024-10-12T2200,1063A,117.9392,40.9763,承德市,中国银行,颗粒物(PM10),74,97,60,51,27,12,,104,71,51,31,3,2,1.0,0.7
2024-10-12T2200,1064A,117.9503,40.928,承德市,开发区,颗粒物(PM10),86,121,76,57,33,52,,97,80,46,36,4,6,1.0,0.7
2024-10-12T2200,1065A,117.8051,40.9655,承德市,文化中心,颗粒物(PM10),83,116,80,58,32,11,,99,72,75,41,2,3,0.8,0.7
2024-10-12T2200,1066A,117.9268,41.0026,承德市,离宫,细颗粒物(PM2.5),85,100,60,63,40,41,,95,76,28,21,4,5,0.8,0.6
2024-10-12T2200,2314A,117.47,30.6618,池州市,池州学院,细颗粒物(PM2.5),65,67,64,47,43,110,,155,138,18,16,7,8,0.5,0.6
2024-10-12T2200,3237A,117.4918,30.6617,池州市,展览馆,细颗粒物(PM2.5),67,82,67,48,41,105,,152,134,17,15,6,6,0.5,0.6
2024-10-12T2200,3333A,117.5627,30.695,池州市,第八中学,颗粒物(PM10),61,72,65,41,40,106,,150,130,15,16,5,6,0.6,0.7
2024-10-12T2200,3334A,117.5038,30.6243,池州市,第十二中学,细颗粒物(PM2.5),75,70,68,55,43,104,,151,137,18,21,4,5,0.7,0.8
2024-10-12T2200,1744A,118.9233,42.2816,赤峰市,松山一中,细颗粒物(PM2.5),124,171,63,94,25,10,,66,55,83,40,12,18,2.0,1
2024-10-12T2200,1745A,118.9576,42.2728,赤峰市,哈达街,"颗粒物(PM10),细颗粒物(PM2.5)",70,89,51,51,22,89,,86,86,21,21,11,18,0.9,0.8
2024-10-12T2200,1746A,118.8788,42.2554,赤峰市,天义路,细颗粒物(PM2.5),228,245,66,178,37,16,,73,67,72,34,9,12,1.4,0.6
2024-10-12T2200,3058A,119.2658,42.0353,赤峰市,银河街,细颗粒物(PM2.5),77,102,69,56,28,95,,102,102,28,24,25,19,1.0,0.7
2024-10-12T2200,3286A,118.9359,42.3147,赤峰市,桥北物流园区,细颗粒物(PM2.5),99,137,52,74,26,11,,62,42,96,42,22,22,1.6,1.2
2024-10-12T2200,2521A,107.3476,22.4136,崇左市,市环保局江州分局,颗粒物(PM10),60,69,62,38,34,91,,138,113,14,14,4,4,0.8,0.7
2024-10-12T2200,2522A,107.3702,22.3707,崇左市,城南新区,,45,45,45,31,30,98,,138,118,11,16,4,5,0.8,0.7
2024-10-12T2200,2298A,118.3093,32.3153,滁州市,老年大学,细颗粒物(PM2.5),69,83,82,50,59,103,,169,152,23,36,1,3,0.5,0.7
2024-10-12T2200,2299A,118.3244,32.2786,滁州市,人大宾馆,颗粒物(PM10),62,74,93,40,56,109,,168,153,22,32,7,8,0.4,0.6
2024-10-12T2200,3207A,118.3118,32.3038,滁州市,市政府原办公楼,细颗粒物(PM2.5),73,70,79,53,60,104,,168,149,25,35,6,7,0.4,0.7
2024-10-12T2200,3331A,118.3267,32.2634,滁州市,图书馆,颗粒物(PM10),64,78,89,38,51,104,,164,145,26,34,5,6,0.4,0.6
2024-10-12T2200,2605A,101.5482,25.0441,楚雄彝族自治州,州环境监测站,,22,17,13,15,12,59,,68,65,5,4,8,8,0.5,0.5
2024-10-12T2200,2606A,101.538,25.0492,楚雄彝族自治州,市经济开发区,,,23,16,17,15,,,66,65,6,5,6,6,0.6,0.6
2024-10-12T2200,2548A,107.5277,31.2827,达州市,达州职业技术学院,,30,30,37,18,21,21,,47,40,34,29,4,5,0.7,0.6
2024-10-12T2200,2549A,107.5086,31.2186,达州市,市环境监测站,,35,35,36,22,19,48,,73,69,27,23,5,6,0.6,0.5
2024-10-12T2200,2550A,107.4988,31.2132,达州市,凤凰小区,,23,22,30,12,21,72,,77,77,20,22,7,8,0.6,0.5
2024-10-12T2200,2551A,107.5082,31.1986,达州市,达县机关宾馆,,39,34,36,27,26,48,,60,59,33,30,4,6,0.6,0.5
2024-10-12T2200,2552A,107.4644,31.2124,达州市,市政中心,,35,35,40,24,22,57,,61,61,26,26,4,5,0.6,0.5
2024-10-12T2200,2614A,100.1542,25.7054,大理白族自治州,大理市环境监测站,,35,34,34,24,20,71,,82,81,16,10,6,6,0.6,0.6
2024-10-12T2200,2615A,100.2171,25.5811,大理白族自治州,大理古城,,33,30,28,23,17,67,,73,67,15,12,6,7,0.7,0.6
2024-10-12T2200,1109A,121.612,38.9741,大连市,甘井子,"颗粒物(PM10),细颗粒物(PM2.5)",79,107,57,58,33,157,,164,162,25,28,10,9,1.0,0.9
2024-10-12T2200,1110A,121.565,38.9511,大连市,周水子,细颗粒物(PM2.5),110,135,64,83,39,66,,147,129,79,48,10,11,1.1,0.8
2024-10-12T2200,1111A,121.5637,38.8845,大连市,星海三站,颗粒物(PM10),85,119,61,57,33,38,,169,141,69,24,8,9,0.9,0.5
2024-10-12T2200,1112A,121.6302,38.9117,大连市,青泥洼桥,颗粒物(PM10),88,125,73,60,36,89,,160,136,34,28,7,8,0.9,0.7
2024-10-12T2200,1114A,121.5213,38.8661,大连市,七贤岭,细颗粒物(PM2.5),89,124,76,66,38,54,,183,136,32,29,6,8,0.7,0.7
2024-10-12T2200,1115A,121.2529,38.8061,大连市,旅顺,臭氧1小时,67,72,56,30,32,173,,183,181,14,25,8,9,0.5,0.4
2024-10-12T2200,1116A,121.7485,39.1311,大连市,金州,细颗粒物(PM2.5),65,70,49,47,33,85,,166,138,22,23,6,9,0.9,0.7
2024-10-12T2200,1117A,121.7811,39.0496,大连市,开发区,细颗粒物(PM2.5),98,140,73,73,42,83,,156,139,54,40,7,11,0.7,0.6
2024-10-12T2200,1118A,121.9762,39.0631,大连市,双D港,细颗粒物(PM2.5),54,53,36,38,26,130,,165,161,12,20,7,8,0.8,0.7
2024-10-12T2200,1789A,124.81117,46.03138,大庆市,大同区,,40,33,30,28,19,28,,56,33,29,17,3,3,0.4,0.4
2024-10-12T2200,1790A,125.129,46.533,大庆市,龙凤区,,49,49,37,30,18,20,,56,38,54,37,3,4,0.5,0.4
2024-10-12T2200,1791A,124.902,46.408,大庆市,红岗区,,36,36,25,21,13,26,,60,42,26,23,5,6,0.3,0.3
2024-10-12T2200,1792A,125.153,46.586,大庆市,萨尔图区,颗粒物(PM10),52,53,29,24,10,14,,53,32,47,25,8,7,0.3,0.3
2024-10-12T2200,1793A,124.9042,46.6215,大庆市,让胡路区,,47,47,26,28,20,6,,58,32,58,22,11,5,1.0,0.4
2024-10-12T2200,3481A,125.141,46.634,大庆市,萨区政府监测点,,42,42,23,21,14,23,,54,38,36,24,9,7,0.4,0.3
2024-10-12T2200,1723A,113.2994,40.0758,大同市,云冈宾馆,颗粒物(PM10),68,86,83,37,28,108,,126,124,32,43,9,12,1.1,1.3
2024-10-12T2200,1724A,113.3444,40.0917,大同市,大同大学,颗粒物(PM10),59,67,64,26,25,118,,124,124,20,33,14,17,0.5,0.6
2024-10-12T2200,1725A,113.2661,40.1269,大同市,安家小村,颗粒物(PM10),63,75,76,27,23,117,,125,123,23,36,14,16,0.5,1
2024-10-12T2200,1726A,113.2711,40.0844,大同市,教育学院,颗粒物(PM10),65,80,95,32,30,117,,121,120,25,46,10,16,0.6,1.4
2024-10-12T2200,3282A,113.3397,40.0597,大同市,大同市卫生学校,颗粒物(PM10),61,71,73,32,28,112,,128,126,26,37,9,13,0.6,0.6
2024-10-12T2200,3565A,113.1367,40.1122,大同市,云冈站,颗粒物(PM10),76,102,86,50,30,98,,120,114,27,32,13,16,0.8,0.6
2024-10-12T2200,3566A,113.1186,40.2556,大同市,图书馆,细颗粒物(PM2.5),80,96,57,59,28,110,,122,102,25,23,12,14,0.6,0.5
2024-10-12T2200,3567A,113.5931,40.0461,大同市,区一中,颗粒物(PM10),54,58,51,20,16,138,,125,125,15,21,7,8,0.6,0.5
2024-10-12T2200,3676A,113.2802,40.0995,大同市,第二人民医院,颗粒物(PM10),59,68,92,27,29,119,,132,130,24,41,13,18,0.6,1.5
2024-10-12T2200,2269A,124.1069,50.4097,大兴安岭地区,科技局,,23,,15,16,17,27,,54,39,11,7,9,8,0.4,0.4
2024-10-12T2200,3663A,124.1164,50.4278,大兴安岭地区,红旗社区,,28,27,12,19,8,7,,50,31,22,10,2,2,0.7,0.5
2024-10-12T2200,1600A,124.3303,40.0625,丹东市,江湾东路,细颗粒物(PM2.5),55,56,52,39,27,22,,91,59,35,24,8,11,0.9,0.8
2024-10-12T2200,1601A,124.4256,40.1503,丹东市,临江后街,颗粒物(PM10),80,109,56,50,24,19,,114,72,43,22,7,8,1.3,0.9
2024-10-12T2200,1602A,124.3933,40.1461,丹东市,元宝山,颗粒物(PM10),69,88,42,36,19,21,,98,83,47,19,5,6,1.3,0.7
2024-10-12T2200,1603A,124.3633,40.1092,丹东市,民主桥,颗粒物(PM10),52,54,47,24,19,22,,101,65,33,27,5,7,0.8,0.7
2024-10-12T2200,3541A,109.5726,19.5167,儋州市,第一中学子站,,36,36,29,21,17,100,,111,100,6,6,7,7,0.3,0.3
2024-10-12T2200,3542A,109.5567,19.5187,儋州市,东坡学校子站,,34,34,30,19,16,104,,116,102,3,4,6,5,0.5,0.5
2024-10-12T2200,2616A,98.5842,24.428,德宏傣族景颇族自治州,德宏州监测站,,40,40,32,19,15,40,,66,61,13,12,4,9,0.6,0.5
2024-10-12T2200,3677A,98.5881,24.4368,德宏傣族景颇族自治州,芒市人民政府综合楼,,42,42,35,20,18,35,,71,62,10,12,4,7,0.6,0.6
2024-10-12T2200,1901A,104.4239,31.1208,德阳市,东山公园,,36,35,25,25,15,56,,80,72,11,8,2,2,0.6,0.6
2024-10-12T2200,1902A,104.3826,31.1317,德阳市,西小区,,43,42,32,30,18,45,,77,67,21,11,2,2,0.6,0.5
2024-10-12T2200,1904A,104.3553,31.1091,德阳市,耐火材料厂,,43,41,26,30,20,28,,77,62,34,15,2,2,0.4,0.4
2024-10-12T2200,3639A,104.4019,31.1244,德阳市,市教育局,,34,34,26,22,16,31,,80,66,36,13,1,1,0.5,0.5
2024-10-12T2200,1622A,116.3032,37.4674,德州市,儿童乐园,颗粒物(PM10),78,105,110,56,53,103,,159,131,48,50,27,14,0.6,0.7
2024-10-12T2200,1624A,116.2991,37.4451,德州市,监理站,颗粒物(PM10),79,107,105,53,55,80,,167,142,63,51,28,14,0.6,0.6
2024-10-12T2200,3066A,116.2721,37.4379,德州市,九衢泉纯净水厂,细颗粒物(PM2.5),98,134,115,73,52,54,,157,121,94,66,21,13,0.8,0.7
2024-10-12T2200,3371A,116.3728,37.4403,德州市,开发区人民医院,颗粒物(PM10),82,114,108,53,48,77,,158,134,64,50,24,15,0.8,0.6
2024-10-12T2200,3372A,116.3572,37.4094,德州市,太阳城中学,颗粒物(PM10),87,124,118,58,55,18,,151,109,127,75,28,17,0.8,0.7
2024-10-12T2200,3511A,116.5652,37.3319,德州市,陵城艺术中心,,,124,103,51,48,,,143,133,53,60,22,18,0.6,0.7
2024-10-12T2200,2621A,99.7056,27.8317,迪庆藏族自治州,迪庆州站,,25,24,15,10,10,78,,78,78,10,9,8,8,0.4,0.4
2024-10-12T2200,3180A,99.7136,27.8094,迪庆藏族自治州,质量技术监督局,,,14,18,10,7,,,75,72,14,10,6,6,0.5,0.5
2024-10-12T2200,2663A,104.6241,35.5734,定西市,东关小学,,39,32,25,27,16,34,,67,62,19,11,8,8,0.3,0.3
2024-10-12T2200,2664A,104.6194,35.5934,定西市,供电公司,,40,32,27,28,18,35,,66,62,19,11,6,7,0.4,0.4
2024-10-12T2200,1389A,113.7547,23.0494,东莞市,莞城梨川,颗粒物(PM10),67,84,60,47,34,105,,162,139,39,24,8,8,0.9,0.8
2024-10-12T2200,1390A,113.7944,23.0128,东莞市,东城石井,颗粒物(PM10),59,67,54,39,32,93,,167,132,30,21,7,7,0.8,0.8
2024-10-12T2200,1391A,113.7383,22.9658,东莞市,南城西平,,,55,59,30,35,157,,168,160,,28,9,5,,0.9
2024-10-12T2200,3319A,113.7338,23.0381,东莞市,万江金泰,颗粒物(PM10),67,83,62,45,34,125,,160,138,37,25,6,7,0.8,0.8
2024-10-12T2200,3626A,113.7533,23.0202,东莞市,南城元岭,颗粒物(PM10),70,90,64,49,36,68,,160,125,62,24,9,8,1.0,0.9
2024-10-12T2200,3627A,113.7875,23.0457,东莞市,东城主山,细颗粒物(PM2.5),73,90,60,53,35,103,,166,136,49,25,9,9,0.8,0.7
2024-10-12T2200,1666A,118.6614,37.4309,东营市,市环保局,细颗粒物(PM2.5),73,78,103,53,65,136,,184,168,15,26,6,14,0.5,0.9
2024-10-12T2200,3036A,118.6904,37.4338,东营市,开发区管委会,细颗粒物(PM2.5),73,84,104,53,66,149,,198,185,19,27,7,12,0.2,0.6
2024-10-12T2200,3365A,118.5719,37.565,东营市,垦利区民丰路,细颗粒物(PM2.5),70,83,97,51,57,127,,165,143,27,37,10,12,0.7,0.9
2024-10-12T2200,3498A,118.5055,37.8612,东营市,河口城区,细颗粒物(PM2.5),74,75,99,54,57,140,,163,154,20,30,7,10,0.7,0.8
2024-10-12T2200,3646A,118.4978,37.4623,东营市,胜利站,细颗粒物(PM2.5),73,94,84,53,57,145,,161,156,21,36,11,14,0.8,0.9
2024-10-12T2200,3734A,118.35,37.26,东营市,理想之城,细颗粒物(PM2.5),79,90,111,58,67,149,,172,162,19,33,5,8,0.4,0.6
2024-10-12T2200,1591A,110.0023,39.8129,鄂尔多斯市,综合楼,颗粒物(PM10),51,51,75,19,18,111,,124,121,14,27,7,13,0.5,0.6
2024-10-12T2200,1592A,109.9486,39.8261,鄂尔多斯市,巴音孟克林场办事处,,48,48,73,29,26,83,,107,102,29,28,8,12,0.6,0.7
2024-10-12T2200,1593A,109.7736,39.5986,鄂尔多斯市,康泽苑,,36,36,61,24,21,102,,119,113,12,30,6,9,0.6,0.6
2024-10-12T2200,1594A,109.8119,39.5989,鄂尔多斯市,华泰汽车城,,44,44,59,29,25,94,,112,106,13,35,10,12,0.5,0.6
2024-10-12T2200,1595A,109.9734,39.7884,鄂尔多斯市,奥林花园,颗粒物(PM10),53,56,71,24,25,96,,105,103,14,36,5,8,0.6,0.7
2024-10-12T2200,2436A,114.8938,30.3994,鄂州市,市政府,细颗粒物(PM2.5),112,107,83,84,52,118,,162,138,36,29,20,16,1.6,1
2024-10-12T2200,2437A,114.8989,30.3714,鄂州市,赵家坝,细颗粒物(PM2.5),147,142,91,112,57,109,,163,137,38,29,22,16,1.6,1.1
2024-10-12T2200,3654A,114.8094,30.4089,鄂州市,精准医疗中心,细颗粒物(PM2.5),87,98,83,64,48,125,,161,128,35,32,19,15,1.1,1.2
2024-10-12T2200,2454A,109.4978,30.2981,恩施土家族苗族自治州,湖北民院,细颗粒物(PM2.5),59,60,64,42,49,66,,96,90,19,20,8,8,0.7,0.8
2024-10-12T2200,2455A,109.4707,30.2798,恩施土家族苗族自治州,州电力总公司,细颗粒物(PM2.5),62,48,53,44,46,51,,84,76,25,24,6,6,1.0,1
2024-10-12T2200,3549A,109.5061,30.3772,恩施土家族苗族自治州,龙凤新区,细颗粒物(PM2.5),53,48,48,37,36,44,,82,73,21,17,6,6,0.9,0.9
2024-10-12T2200,2499A,108.3411,21.6158,防城港市,沙万,,49,49,57,30,36,112,,136,127,20,21,29,13,0.8,0.8
2024-10-12T2200,2500A,108.3514,21.7731,防城港市,防城档案局,"颗粒物(PM10),细颗粒物(PM2.5)",65,80,95,47,44,43,,132,108,31,30,8,10,1.0,1
2024-10-12T2200,2501A,108.3506,21.6414,防城港市,大海花园,细颗粒物(PM2.5),55,51,58,39,40,106,,152,139,16,18,10,9,0.8,0.8
2024-10-12T2200,1371A,113.1294,23.0067,佛山市,湾梁,颗粒物(PM10),70,90,75,42,35,136,,208,198,54,46,7,8,1.0,0.9
2024-10-12T2200,1372A,113.1083,23.0478,佛山市,华材职中,细颗粒物(PM2.5),70,75,74,51,48,167,,214,206,31,45,8,9,0.8,0.7
2024-10-12T2200,1373A,113.144,23.0453,佛山市,南海气象局,细颗粒物(PM2.5),68,75,66,49,37,146,,195,186,40,40,8,9,0.9,0.7
2024-10-12T2200,1374A,113.2881,22.8094,佛山市,顺德苏岗,颗粒物(PM10),69,88,58,41,34,117,,204,194,41,28,9,8,1.0,0.8
2024-10-12T2200,1376A,112.8383,22.8678,佛山市,高明孔堂,颗粒物(PM10),57,64,72,39,51,149,,242,226,22,28,5,11,0.7,0.7
2024-10-12T2200,1377A,112.8836,23.1588,佛山市,三水监测站,细颗粒物(PM2.5),114,112,80,86,54,60,,193,172,141,58,6,11,0.9,0.8
2024-10-12T2200,1378A,112.867,23.185,佛山市,三水云东海,细颗粒物(PM2.5),85,64,60,63,46,115,,170,147,51,48,10,13,1.0,0.8
2024-10-12T2200,3625A,113.2544,22.7642,佛山市,容桂街道办,颗粒物(PM10),56,61,53,36,35,124,,208,200,34,28,8,8,0.8,0.8
2024-10-12T2200,1282A,119.2681,26.0504,福州市,师大,,28,28,45,12,27,78,,112,95,11,13,2,2,0.4,0.5
2024-10-12T2200,1283A,119.2984,26.1028,福州市,五四北路,,28,28,35,10,21,73,,109,92,19,18,1,2,0.4,0.4
2024-10-12T2200,1284A,119.2648,26.0768,福州市,杨桥西路,,27,25,40,9,23,84,,114,98,9,11,4,4,0.4,0.4
2024-10-12T2200,1285A,119.317,26.0746,福州市,紫阳,,34,34,42,11,22,65,,103,79,22,22,2,2,0.3,0.4
2024-10-12T2200,3048A,119.5799,26.0936,福州市,九龙,,,24,31,3,16,,,115,98,5,6,1,2,0.1,0.3
2024-10-12T2200,3526A,119.5189,25.9664,福州市,吴航,,27,16,27,8,16,84,,124,88,8,10,1,2,0.3,0.4
2024-10-12T2200,1755A,123.7977,41.8491,抚顺市,望花区,细颗粒物(PM2.5),139,169,92,106,54,11,,120,64,80,51,11,12,2.2,1.2
2024-10-12T2200,1756A,123.9161,41.8822,抚顺市,顺城区,细颗粒物(PM2.5),95,111,83,71,47,6,,122,66,70,50,5,9,1.3,1.1
2024-10-12T2200,1757A,124.0436,41.8611,抚顺市,东洲区,细颗粒物(PM2.5),99,89,68,74,51,54,,129,98,25,24,7,11,1.3,1
2024-10-12T2200,1758A,123.9247,41.8642,抚顺市,新抚区,细颗粒物(PM2.5),92,131,81,68,39,6,,127,68,66,42,5,7,1.4,1.1
2024-10-12T2200,1759A,124.0972,41.8961,抚顺市,大伙房水库,细颗粒物(PM2.5),78,68,59,57,37,65,,146,120,22,20,7,10,1.4,1
2024-10-12T2200,1760A,123.7086,41.8391,抚顺市,沈抚新城,细颗粒物(PM2.5),100,116,76,75,45,20,,124,78,69,44,10,13,1.2,0.9
2024-10-12T2200,2376A,116.2127,28.0814,抚州市,桐源党溪,颗粒物(PM10),58,65,63,40,37,98,,144,129,8,12,6,11,0.8,0.8
2024-10-12T2200,2377A,116.3544,27.9831,抚州市,市站,细颗粒物(PM2.5),59,64,56,42,32,106,,123,118,18,20,13,10,0.9,0.8
2024-10-12T2200,2378A,116.3565,27.963,抚州市,血防站,细颗粒物(PM2.5),62,67,57,44,33,119,,140,135,10,12,7,8,0.9,0.8
2024-10-12T2200,2379A,116.3564,28.0007,抚州市,采茶剧团,细颗粒物(PM2.5),59,54,52,42,32,115,,134,128,12,13,14,8,0.9,0.9
2024-10-12T2200,2380A,116.385,27.9647,抚州市,医学分院,细颗粒物(PM2.5),57,61,56,40,29,105,,128,123,13,15,5,5,0.9,0.9
2024-10-12T2200,2207A,121.6094,41.998,阜新市,工业园区,颗粒物(PM10),92,133,55,50,17,3,,68,45,61,29,10,16,1.1,0.5
2024-10-12T2200,2208A,121.6697,42.0279,阜新市,长青街,颗粒物(PM10),72,93,34,42,14,2,,62,41,41,20,11,26,0.9,0.5
2024-10-12T2200,2209A,121.6673,42.0705,阜新市,农业园区,颗粒物(PM10),55,59,31,31,10,65,,68,67,28,17,21,12,0.5,0.4
2024-10-12T2200,2210A,121.6717,42.0224,阜新市,东苑,"颗粒物(PM10),细颗粒物(PM2.5)",92,134,45,68,17,8,,62,44,65,27,19,27,1.6,0.6
2024-10-12T2200,2211A,121.6506,42.0498,阜新市,玉龙新城,颗粒物(PM10),68,86,45,37,15,8,,67,37,53,31,12,14,1.0,0.6
2024-10-12T2200,2301A,115.8277,32.8929,阜阳市,市监测站,细颗粒物(PM2.5),93,115,101,69,60,95,,162,134,31,29,8,8,0.6,0.6
2024-10-12T2200,2303A,115.8554,32.8605,阜阳市,开发区,细颗粒物(PM2.5),82,108,113,60,52,106,,158,131,27,26,8,9,0.4,0.5
2024-10-12T2200,2875A,115.784,32.8892,阜阳市,阜阳职业技术学院,颗粒物(PM10),69,87,80,48,45,112,,159,139,24,21,8,8,0.6,0.6
2024-10-12T2200,3468A,115.7901,32.8613,阜阳市,市规划展馆,细颗粒物(PM2.5),80,96,78,59,46,120,,164,145,30,27,8,9,0.6,0.6
2024-10-12T2200,3469A,115.836,32.9183,阜阳市,枣园社区,细颗粒物(PM2.5),105,113,86,79,50,104,,164,137,26,24,10,9,0.7,0.6
2024-10-12T2200,2669A,102.9099,34.9841,甘南藏族自治州,州政府,颗粒物(PM10),58,65,25,23,15,8,,81,59,64,21,9,8,0.8,0.5
2024-10-12T2200,3380A,102.8914,34.9617,甘南藏族自治州,甘肃民族师范学院,"颗粒物(PM10),细颗粒物(PM2.5)",53,56,19,37,11,1,,74,50,57,22,7,5,0.8,0.5
2024-10-12T2200,2570A,101.9603,30.0475,甘孜藏族自治州,水桥子,,12,10,10,8,7,20,,28,21,19,22,5,6,0.4,0.4
2024-10-12T2200,3065A,101.9533,29.9972,甘孜藏族自治州,州环保局,,20,20,9,3,3,21,,38,33,27,24,3,3,0.3,0.3
2024-10-12T2200,3414A,115.8347,28.932,赣江新区,桑海产业园,细颗粒物(PM2.5),84,100,66,62,36,66,,161,123,59,48,11,10,0.6,0.5
2024-10-12T2200,2362A,114.9017,25.9149,赣州市,通天岩,,48,,43,33,39,66,,144,106,7,10,28,25,0.1,0.2
2024-10-12T2200,2363A,114.9367,25.8664,赣州市,地委,颗粒物(PM10),59,68,50,35,34,51,,128,93,27,19,12,10,1.1,1
2024-10-12T2200,2364A,114.9461,25.8481,赣州市,气象台,颗粒物(PM10),58,65,49,29,32,43,,137,97,37,22,17,12,1.2,1.1
2024-10-12T2200,2365A,114.9322,25.8333,赣州市,市图书馆,颗粒物(PM10),58,66,49,31,28,54,,144,101,36,22,8,5,0.9,0.8
2024-10-12T2200,2366A,114.8905,25.8471,赣州市,华坚鞋城,颗粒物(PM10),62,74,57,37,35,46,,131,86,40,22,9,6,0.6,0.6
2024-10-12T2200,3109A,115.0093,25.8613,赣州市,赣县区卫计委,"颗粒物(PM10),细颗粒物(PM2.5)",53,56,47,37,31,46,,117,78,30,24,7,6,0.7,0.7
2024-10-12T2200,2683A,106.2319,36.1417,固原市,马园,颗粒物(PM10),53,55,40,31,21,50,,58,54,20,25,6,6,0.5,0.5
2024-10-12T2200,2684A,106.2792,36.0022,固原市,监测站,细颗粒物(PM2.5),53,43,30,37,25,16,,67,57,43,20,5,5,0.6,0.5
2024-10-12T2200,2685A,106.2375,36.0211,固原市,新区,,42,31,30,29,22,28,,60,54,31,20,5,5,0.6,0.5
2024-10-12T2200,3522A,106.2177,35.9959,固原市,原州区十五小,,46,46,34,25,18,44,,66,59,22,16,5,5,0.7,0.6
2024-10-12T2200,2544A,106.6303,30.4576,广安市,市委,,33,33,28,23,21,59,,73,69,12,14,3,3,0.5,0.5
2024-10-12T2200,2545A,106.6271,30.4663,广安市,友谊中学,,32,28,27,22,21,50,,74,65,15,15,2,2,0.5,0.5
2024-10-12T2200,2547A,106.6388,30.4551,广安市,广电花园,,34,34,29,21,21,53,,70,65,15,15,1,1,0.4,0.4
2024-10-12T2200,2902A,106.6351,30.4865,广安市,北辰小学,,35,35,32,24,21,51,,73,65,10,10,3,4,0.6,0.5
2024-10-12T2200,2523A,105.8945,32.4535,广元市,黑石坡,,19,,19,13,16,19,,53,20,11,13,7,7,0.4,0.5
2024-10-12T2200,2524A,105.821,32.4444,广元市,老城,,41,41,31,16,16,12,,57,38,44,24,2,3,0.8,0.7
2024-10-12T2200,2526A,105.8628,32.4287,广元市,监测站,,25,,23,17,19,28,,64,46,28,19,2,2,0.7,0.6
2024-10-12T2200,3617A,105.8047,32.4166,广元市,经开区,,21,21,25,14,18,30,,55,48,24,23,4,6,0.7,0.7
2024-10-12T2200,1345A,113.2347,23.1423,广州市,广雅中学,细颗粒物(PM2.5),73,83,68,53,39,126,,191,175,47,46,8,7,1.1,0.9
2024-10-12T2200,1346A,113.2612,23.105,广州市,市五中,细颗粒物(PM2.5),67,69,63,48,42,135,,198,189,31,32,6,5,0.9,0.8
2024-10-12T2200,1348A,113.3478,23.0916,广州市,广东商学院,细颗粒物(PM2.5),67,80,63,48,41,90,,199,183,61,46,10,7,0.9,0.8
2024-10-12T2200,1349A,113.4332,23.1047,广州市,市八十六中,颗粒物(PM10),67,84,72,47,38,60,,182,156,86,65,6,6,1.1,0.9
2024-10-12T2200,1350A,113.3505,22.9483,广州市,番禺中学,颗粒物(PM10),53,55,60,28,41,154,,201,198,31,32,7,7,0.7,0.7
2024-10-12T2200,1351A,113.2146,23.3916,广州市,花都师范,颗粒物(PM10),66,82,57,44,37,70,,165,142,50,40,5,6,0.9,0.8
2024-10-12T2200,1352A,113.2597,23.1331,广州市,市监测站,细颗粒物(PM2.5),77,87,64,56,40,116,,182,173,44,38,6,5,1.0,0.8
2024-10-12T2200,1353A,113.5618,23.312,广州市,九龙镇镇龙,颗粒物(PM10),51,51,53,35,36,70,,132,106,18,27,7,7,0.7,0.7
2024-10-12T2200,1354A,113.2765,23.1544,广州市,麓湖,细颗粒物(PM2.5),69,72,62,50,39,66,,160,131,58,42,7,7,0.9,0.9
2024-10-12T2200,1355A,113.443,23.3035,广州市,帽峰山森林公园,,33,32,34,23,24,90,,153,132,13,15,6,6,0.6,0.6
2024-10-12T2200,2846A,113.3221,23.1322,广州市,体育西,细颗粒物(PM2.5),63,72,62,45,41,93,,175,162,40,38,6,5,1.0,0.8
2024-10-12T2200,3298A,113.5717,23.5491,广州市,从化街口,,47,47,45,32,32,77,,123,98,15,25,7,7,0.8,0.7
2024-10-12T2200,3299A,113.3472,23.3692,广州市,白云竹料,细颗粒物(PM2.5),67,69,57,48,36,50,,151,123,37,32,6,6,0.9,0.8
2024-10-12T2200,3300A,113.2981,23.237,广州市,白云嘉禾,"颗粒物(PM10),细颗粒物(PM2.5)",68,85,66,49,36,78,,162,134,66,34,6,6,1.0,0.9
2024-10-12T2200,3301A,113.4256,23.1716,广州市,黄埔科学城,细颗粒物(PM2.5),72,79,56,52,35,39,,154,125,57,38,6,7,1.0,0.8
2024-10-12T2200,3302A,113.3942,23.0483,广州市,番禺大学城,颗粒物(PM10),64,77,63,45,34,107,,203,188,47,35,16,15,0.9,0.7
2024-10-12T2200,3303A,113.4922,22.8168,广州市,南沙黄阁,颗粒物(PM10),53,55,60,26,38,142,,215,199,29,31,7,6,0.9,0.9
2024-10-12T2200,3304A,113.5342,22.7896,广州市,南沙街,颗粒物(PM10),52,54,55,25,33,125,,204,186,28,25,5,6,0.8,0.8
2024-10-12T2200,3443A,113.2902,23.5544,广州市,花都梯面,,49,40,37,34,28,21,,128,86,37,26,6,8,0.6,0.6
2024-10-12T2200,3445A,113.7858,23.7478,广州市,从化良口,,36,36,30,24,23,74,,88,74,9,11,7,7,0.8,0.8
2024-10-12T2200,3446A,113.8051,23.2614,广州市,增城荔城,颗粒物(PM10),55,59,48,36,33,73,,143,110,13,15,6,7,0.8,0.7
2024-10-12T2200,2506A,109.6047,23.0666,贵港市,江南子站,细颗粒物(PM2.5),79,88,89,58,51,80,,167,137,40,31,9,13,1.1,1
2024-10-12T2200,2507A,109.6014,23.0948,贵港市,贵城子站,细颗粒物(PM2.5),67,66,69,48,46,133,,169,149,17,23,8,14,0.9,0.9
2024-10-12T2200,2508A,109.5669,23.1065,贵港市,荷城子站,颗粒物(PM10),65,80,69,39,39,105,,168,142,26,25,11,17,0.8,0.7
2024-10-12T2200,3405A,109.5886,23.1172,贵港市,新世纪学校,颗粒物(PM10),63,75,70,43,38,94,,166,137,28,25,8,13,0.7,0.7
2024-10-12T2200,1439A,106.6899,26.5998,贵阳市,马鞍山,颗粒物(PM10),53,56,35,36,21,49,,99,81,21,14,4,5,0.6,0.5
2024-10-12T2200,1440A,106.6971,26.5694,贵阳市,市环保站,,,78,45,63,34,,,108,101,36,23,6,6,0.8,0.6
2024-10-12T2200,1441A,106.6243,26.6266,贵阳市,鉴湖路,颗粒物(PM10),58,66,44,36,28,67,,102,87,23,13,6,6,0.5,0.5
2024-10-12T2200,1442A,106.7487,26.6343,贵阳市,燕子冲,细颗粒物(PM2.5),70,56,36,51,34,67,,109,95,11,14,6,6,0.6,0.5
2024-10-12T2200,1443A,106.6555,26.4365,贵阳市,碧云窝,颗粒物(PM10),51,51,39,27,25,82,,117,105,19,11,5,7,0.7,0.6
2024-10-12T2200,1444A,106.694,26.5161,贵阳市,中院村,,48,48,40,29,26,71,,96,86,32,22,8,9,0.6,0.6
2024-10-12T2200,1445A,106.7109,26.6027,贵阳市,红边门,细颗粒物(PM2.5),79,73,47,58,34,57,,100,85,24,24,6,6,0.8,0.7
2024-10-12T2200,1446A,106.7164,26.5699,贵阳市,新华路,细颗粒物(PM2.5),79,70,39,58,28,53,,111,87,29,19,6,5,0.7,0.5
2024-10-12T2200,1447A,106.674,26.5424,贵阳市,太慈桥,,48,48,48,31,26,60,,102,85,28,18,21,7,0.6,0.5
2024-10-12T2200,1862A,110.4144,25.3167,桂林市,电子科大尧山校区,颗粒物(PM10),63,75,58,36,36,61,,136,109,17,9,5,8,0.6,0.6
2024-10-12T2200,1863A,110.2819,25.2697,桂林市,监测站,,,,60,,40,,,148,116,,15,,19,,0.7
2024-10-12T2200,1864A,110.3089,25.2708,桂林市,龙隐路小学,"颗粒物(PM10),细颗粒物(PM2.5)",62,74,56,44,41,58,,148,112,42,16,17,15,0.7,0.5
2024-10-12T2200,1865A,110.2869,25.2178,桂林市,八中,颗粒物(PM10),66,81,62,45,42,72,,139,104,26,20,10,13,0.7,0.7
2024-10-12T2200,3403A,110.1764,25.2381,桂林市,创业大厦,细颗粒物(PM2.5),77,80,66,56,47,67,,145,123,45,23,118,21,0.4,0.4
2024-10-12T2200,3531A,110.296,25.1253,桂林市,旅游学院,,41,41,49,24,36,80,,138,110,11,20,6,10,0.5,0.5
2024-10-12T2200,2674A,100.2561,34.4714,果洛藏族自治州,玛沁县大武镇,,32,32,17,18,10,79,,119,113,9,2,8,8,0.5,0.4
2024-10-12T2200,1129A,126.5422,45.755,哈尔滨市,岭北,,40,40,22,28,15,55,,104,81,62,28,9,7,1.0,0.5
2024-10-12T2200,1130A,126.561,45.8167,哈尔滨市,松北商大,颗粒物(PM10),53,56,23,23,12,7,,64,30,68,33,13,8,0.9,0.5
2024-10-12T2200,1131A,126.979,45.5419,哈尔滨市,阿城会宁,颗粒物(PM10),60,70,59,29,26,1,,57,30,54,36,10,8,0.7,0.7
2024-10-12T2200,1132A,126.599,45.7222,哈尔滨市,南岗学府路,颗粒物(PM10),56,61,40,27,18,15,,67,34,61,36,9,6,0.7,0.6
2024-10-12T2200,1133A,126.689,45.7733,哈尔滨市,太平宏伟公园,颗粒物(PM10),65,79,37,20,16,6,,62,29,62,35,9,6,0.7,0.5
2024-10-12T2200,1134A,126.635,45.7667,哈尔滨市,道外承德广场,颗粒物(PM10),51,52,36,23,16,19,,69,35,60,42,8,5,0.6,0.5
2024-10-12T2200,1135A,126.685,45.7319,哈尔滨市,香坊红旗大街,,,122,40,52,17,,,66,36,,35,15,10,1.0,0.6
2024-10-12T2200,1136A,126.6411,45.7258,哈尔滨市,动力和平路,颗粒物(PM10),64,78,34,20,13,10,,65,33,64,38,8,4,0.5,0.4
2024-10-12T2200,1137A,126.593,45.7478,哈尔滨市,道里建国路,颗粒物(PM10),65,79,39,37,21,8,,62,30,80,44,22,5,2.5,1
2024-10-12T2200,1138A,126.615,45.61,哈尔滨市,平房东轻厂,细颗粒物(PM2.5),64,68,48,46,21,8,,64,34,71,43,9,9,0.8,0.5
2024-10-12T2200,1139A,126.595,45.9855,哈尔滨市,呼兰师专,,28,26,33,19,19,40,,54,41,34,34,2,2,0.3,0.3
2024-10-12T2200,1140A,126.6206,45.6842,哈尔滨市,省农科院,颗粒物(PM10),74,98,61,34,30,6,,64,26,72,47,9,5,0.6,0.7
2024-10-12T2200,2688A,93.5128,42.8172,哈密市,地区监测站,颗粒物(PM10),128,205,138,68,40,16,,88,66,96,41,10,7,1.3,0.4
2024-10-12T2200,2689A,93.4961,42.8328,哈密市,哈密师范学校,颗粒物(PM10),117,184,127,75,43,12,,79,54,98,50,6,6,1.9,0.7
2024-10-12T2200,2671A,100.9048,36.9639,海北藏族自治州,海晏县西海镇,,22,16,18,13,16,68,,96,87,8,7,6,9,0.3,0.5
2024-10-12T2200,3867A,102.0738,36.5056,海东市,平安区公安北苑,颗粒物(PM10),52,54,40,31,21,62,,89,77,25,20,12,10,0.6,0.5
2024-10-12T2200,1410A,110.3232,20.0574,海口市,海南大学,,41,41,34,19,17,121,,130,128,5,6,4,4,0.5,0.5
2024-10-12T2200,1411A,110.283,20.0053,海口市,秀英海南医院,,43,43,34,20,18,120,,129,127,7,8,6,6,0.4,0.4
2024-10-12T2200,1412A,110.338,19.9969,海口市,海南师范大学,,42,42,36,19,17,115,,128,126,5,4,7,6,0.5,0.5
2024-10-12T2200,1413A,110.33,20.0356,海口市,龙华路环保局宿舍,,41,41,34,18,17,121,,131,129,5,6,5,5,0.4,0.4
2024-10-12T2200,3539A,110.5111,19.9736,海口市,桂林洋子站,,35,30,33,16,19,109,,127,122,4,6,7,7,0.4,0.4
2024-10-12T2200,2673A,100.6188,36.2866,海南藏族自治州,共和县恰卜恰镇,颗粒物(PM10),55,59,32,3,16,48,,98,90,32,17,10,10,0.6,0.6
2024-10-12T2200,2676A,97.3731,37.3753,海西蒙古族藏族自治州,德令哈市,颗粒物(PM10),56,61,25,27,11,58,,104,93,17,6,9,9,0.6,0.5
2024-10-12T2200,1048A,114.5302,36.6116,邯郸市,东污水处理厂,细颗粒物(PM2.5),100,140,139,75,88,41,,143,120,85,61,4,6,0.6,0.9
2024-10-12T2200,1049A,114.4918,36.5713,邯郸市,矿院,细颗粒物(PM2.5),117,140,144,88,87,60,,149,128,62,52,6,8,0.3,0.5
2024-10-12T2200,1050A,114.484,36.6133,邯郸市,丛台公园,细颗粒物(PM2.5),119,136,127,90,86,70,,142,127,60,53,6,8,0.8,0.9
2024-10-12T2200,3458A,114.7895,36.5593,邯郸市,香泉濮院小区,颗粒物(PM10),110,170,188,71,107,56,,172,144,66,46,4,6,0.5,0.6
2024-10-12T2200,3579A,114.50634,36.77178,邯郸市,永年区实验高中,细颗粒物(PM2.5),128,182,148,97,78,16,,166,129,132,59,6,9,0.8,0.9
2024-10-12T2200,3580A,114.20016,36.44293,邯郸市,峰峰矿区临水派出所,细颗粒物(PM2.5),129,129,93,98,57,133,,174,164,26,32,9,17,0.1,1.1
2024-10-12T2200,2634A,106.9893,33.1842,汉中市,汉川机床厂子校,,23,21,22,16,17,36,,64,59,9,9,4,7,0.7,0.7
2024-10-12T2200,2635A,107.0154,33.0706,汉中市,市监测站,,43,43,30,21,21,27,,56,51,22,14,9,10,0.7,0.6
2024-10-12T2200,2636A,107.0089,33.1138,汉中市,鑫源开发区,颗粒物(PM10),54,58,29,22,17,25,,61,56,30,14,11,12,0.4,0.4
2024-10-12T2200,2637A,107.007,33.0323,汉中市,南郑大河坎水厂,,39,39,28,24,19,24,,50,42,26,19,9,9,0.6,0.6
2024-10-12T2200,1223A,120.2072,30.2111,杭州市,滨江,,39,39,78,20,41,85,,136,118,29,40,5,6,0.6,0.8
2024-10-12T2200,1224A,120.0633,30.2747,杭州市,西溪,,41,41,70,16,42,104,,140,125,19,38,6,6,0.6,0.8
2024-10-12T2200,1226A,120.3461,30.3153,杭州市,下沙,,40,40,64,15,34,102,,144,126,33,51,7,7,0.5,0.7
2024-10-12T2200,1227A,120.1269,30.2456,杭州市,卧龙桥,,38,38,59,20,43,94,,152,135,24,24,7,6,0.6,0.7
2024-10-12T2200,1228A,120.1903,30.2692,杭州市,浙江农大,,30,30,67,12,39,92,,137,120,29,38,3,6,0.6,0.8
2024-10-12T2200,1230A,120.1197,30.3119,杭州市,和睦小学,,35,31,65,24,44,97,,143,124,27,45,6,7,0.3,0.5
2024-10-12T2200,1231A,120.3019,30.4183,杭州市,临平镇,,34,27,70,14,49,106,,144,125,16,30,5,5,0.5,0.6
2024-10-12T2200,1232A,120.2697,30.1819,杭州市,城厢镇,,38,38,69,24,53,98,,143,125,22,45,8,8,0.5,0.7
2024-10-12T2200,1233A,120.0883,30.1808,杭州市,云栖,,32,30,58,19,38,102,,146,129,24,30,7,7,0.6,0.7
2024-10-12T2200,3557A,119.9464,30.0494,杭州市,镇二中,,40,37,56,28,44,107,,151,132,18,31,9,9,0.8,0.9
2024-10-12T2200,3558A,119.7183,30.2367,杭州市,市府大楼,颗粒物(PM10),54,58,79,27,47,99,,162,139,22,27,6,6,0.6,0.7
2024-10-12T2200,3656A,120.1556,30.2864,杭州市,消防大队,,32,32,73,19,50,102,,147,130,22,41,9,9,0.3,0.5
2024-10-12T2200,1270A,117.1959,31.7848,合肥市,明珠广场,颗粒物(PM10),60,70,73,39,43,107,,145,129,32,29,8,9,0.6,0.6
2024-10-12T2200,1271A,117.3072,31.8764,合肥市,三里街,颗粒物(PM10),63,75,74,41,43,81,,128,117,48,33,4,5,0.7,0.7
2024-10-12T2200,1272A,117.2588,31.8707,合肥市,琥珀山庄,细颗粒物(PM2.5),64,66,72,46,45,120,,140,135,31,31,8,9,0.8,0.8
2024-10-12T2200,1273A,117.1604,31.9052,合肥市,董铺水库,细颗粒物(PM2.5),62,58,75,44,39,105,,127,125,23,21,4,5,0.6,0.6
2024-10-12T2200,1274A,117.25,31.8571,合肥市,长江中路,细颗粒物(PM2.5),72,83,87,52,53,110,,134,130,31,28,9,10,0.8,0.8
2024-10-12T2200,1275A,117.266,31.9436,合肥市,庐阳区,细颗粒物(PM2.5),77,88,85,56,44,106,,142,134,34,40,4,5,0.8,0.7
2024-10-12T2200,1276A,117.336,31.8586,合肥市,瑶海区,细颗粒物(PM2.5),67,80,80,48,43,94,,131,122,42,36,4,4,0.7,0.7
2024-10-12T2200,1277A,117.3027,31.7964,合肥市,包河区,细颗粒物(PM2.5),64,75,84,46,47,17,,128,84,117,78,7,8,0.6,0.6
2024-10-12T2200,1278A,117.2776,31.7385,合肥市,滨湖新区,颗粒物(PM10),63,75,78,44,45,116,,144,136,24,20,5,6,0.5,0.6
2024-10-12T2200,1279A,117.1318,31.8403,合肥市,高新区,细颗粒物(PM2.5),70,66,69,51,44,115,,136,133,23,23,6,8,0.7,0.8
2024-10-12T2200,3464A,117.3803,31.9147,合肥市,高教基地,细颗粒物(PM2.5),87,86,70,64,41,97,,138,126,25,22,5,5,0.6,0.6
2024-10-12T2200,3614A,79.924,37.0877,和田地区,地区环保局,颗粒物(PM10),106,161,141,53,32,84,,100,98,24,13,9,8,0.7,0.4
2024-10-12T2200,3615A,79.9131,37.113,和田地区,市环保局,颗粒物(PM10),136,221,136,53,38,14,,97,78,86,28,10,7,1.7,0.7
2024-10-12T2200,2516A,108.2011,24.715,河池市,东仁乐园,细颗粒物(PM2.5),57,54,50,40,32,95,,134,108,17,14,5,7,0.7,0.7
2024-10-12T2200,2517A,108.0497,24.6947,河池市,市环保站,细颗粒物(PM2.5),59,45,47,42,36,109,,134,124,13,19,27,15,0.8,0.7
2024-10-12T2200,2518A,108.0983,24.6989,河池市,市疾控中心,细颗粒物(PM2.5),52,47,51,36,36,105,,132,114,21,27,9,10,0.6,0.6
2024-10-12T2200,1696A,114.6778,23.7569,河源市,源西,,49,44,43,34,31,35,,111,79,40,26,5,6,1.0,0.8
2024-10-12T2200,1697A,114.6944,23.7586,河源市,东埔,细颗粒物(PM2.5),63,57,43,45,45,65,,118,98,27,22,3,5,0.8,0.7
2024-10-12T2200,1698A,114.6892,23.7233,河源市,老城,,48,48,42,25,28,56,,112,92,18,16,4,6,0.8,0.8
2024-10-12T2200,1718A,115.4208,35.2464,菏泽市,气象局,颗粒物(PM10),86,122,106,61,53,141,,189,174,39,34,6,7,0.6,0.5
2024-10-12T2200,1719A,115.4747,35.2375,菏泽市,市政协,细颗粒物(PM2.5),100,128,112,75,62,130,,184,165,36,38,6,8,0.7,0.6
2024-10-12T2200,3374A,115.5564,35.0891,菏泽市,定陶老年大学,细颗粒物(PM2.5),110,139,116,83,68,127,,184,165,36,37,9,10,0.6,0.5
2024-10-12T2200,3647A,115.4702,35.2706,菏泽市,菏泽医专,细颗粒物(PM2.5),107,103,94,80,63,140,,189,173,36,34,9,10,0.7,0.6
2024-10-12T2200,2514A,111.5264,24.4172,贺州市,环保小区,颗粒物(PM10),78,105,52,40,36,30,,138,111,58,23,8,7,0.7,0.6
2024-10-12T2200,2515A,111.5608,24.4078,贺州市,政协大楼,细颗粒物(PM2.5),58,61,46,41,27,76,,132,113,26,24,14,10,0.6,0.5
2024-10-12T2200,3534A,111.4744,24.4553,贺州市,西湾,细颗粒物(PM2.5),74,75,60,54,43,51,,134,104,39,25,7,8,0.7,0.7
2024-10-12T2200,2385A,114.17,35.9019,鹤壁市,市监测站,细颗粒物(PM2.5),110,119,122,83,74,48,,159,114,54,47,4,6,0.9,0.8
2024-10-12T2200,2386A,114.2956,35.7511,鹤壁市,市交警支队,细颗粒物(PM2.5),105,137,139,79,77,4,,133,93,123,73,3,3,0.9,0.7
2024-10-12T2200,2387A,114.2878,35.7306,鹤壁市,迎宾馆,细颗粒物(PM2.5),132,170,161,100,83,15,,147,118,109,68,5,7,1.0,0.9
2024-10-12T2200,3474A,114.2617,35.6822,鹤壁市,大新区,细颗粒物(PM2.5),105,138,134,79,89,8,,125,74,104,71,2,3,0.9,0.9
2024-10-12T2200,3596A,114.1572,35.9603,鹤壁市,南山宾馆,细颗粒物(PM2.5),127,150,117,96,75,126,,166,155,15,14,2,4,0.4,0.5
2024-10-12T2200,2244A,130.2537,47.3416,鹤岗市,哈啤分公司,,23,21,22,16,17,61,,65,64,2,5,13,14,0.4,0.4
2024-10-12T2200,2245A,130.2684,47.3086,鹤岗市,斯达机电,,28,25,27,19,18,58,,64,62,10,10,12,14,0.2,0.2
2024-10-12T2200,2246A,130.3114,47.3388,鹤岗市,东山纸板厂,,,46,25,26,21,,,66,56,,12,16,16,0.6,0.2
2024-10-12T2200,2247A,130.1097,47.3382,鹤岗市,五号水库,,19,18,16,13,11,50,,72,66,7,5,7,8,0.2,0.1
2024-10-12T2200,2263A,127.4833,50.2524,黑河市,交通局,,35,27,18,24,16,23,,48,36,18,11,7,7,0.4,0.3
2024-10-12T2200,2264A,127.5144,50.2341,黑河市,环保局,,,23,16,20,14,,,56,41,23,9,5,5,0.6,0.4
2024-10-12T2200,2265A,127.5291,50.2472,黑河市,大黑河岛,,,,,15,11,38,,57,48,12,9,3,2,,
2024-10-12T2200,1074A,115.6838,37.7541,衡水市,电机北厂,细颗粒物(PM2.5),89,123,111,66,62,20,,174,118,127,46,9,11,0.5,0.5
2024-10-12T2200,1075A,115.6303,37.7316,衡水市,市监测站,颗粒物(PM10),95,139,111,66,60,39,,166,119,90,47,8,11,1.0,0.7
2024-10-12T2200,3188A,115.6683,37.7217,衡水市,市城管局,颗粒物(PM10),94,138,112,64,62,34,,174,130,118,53,12,14,0.7,0.6
2024-10-12T2200,3459A,115.5989,37.5491,衡水市,地表水厂,颗粒物(PM10),132,213,115,74,69,3,,156,107,133,68,9,6,0.6,0.6
2024-10-12T2200,2456A,112.5003,26.9167,衡阳市,原169医院,细颗粒物(PM2.5),73,85,68,53,43,69,,163,131,21,21,15,16,0.8,0.7
2024-10-12T2200,2457A,112.6194,26.9258,衡阳市,衡阳化工总厂,细颗粒物(PM2.5),127,113,82,96,59,143,,168,158,18,17,12,10,0.9,0.8
2024-10-12T2200,2458A,112.6211,26.8956,衡阳市,珠晖区环保局,细颗粒物(PM2.5),93,102,76,69,48,138,,168,154,28,27,14,12,0.9,0.8
2024-10-12T2200,2459A,112.6197,26.8733,衡阳市,市委党校,细颗粒物(PM2.5),88,109,76,65,54,149,,174,165,19,19,14,11,1.0,0.9
2024-10-12T2200,2460A,112.6006,26.8919,衡阳市,市监测站,细颗粒物(PM2.5),120,112,77,91,57,154,,176,167,16,18,14,12,0.9,0.8
2024-10-12T2200,2461A,112.5664,26.9056,衡阳市,真空机电公司,细颗粒物(PM2.5),82,92,76,60,49,149,,175,162,18,22,14,10,0.9,0.9
2024-10-12T2200,3399A,112.6703,26.882,衡阳市,师范学院,细颗粒物(PM2.5),103,115,85,77,50,148,,168,162,17,18,14,13,1.0,0.9
2024-10-12T2200,2608A,103.3772,23.3993,红河哈尼族彝族自治州,污水处理厂,,46,35,31,32,31,82,,86,80,7,8,4,4,0.6,0.6
2024-10-12T2200,2609A,103.3861,23.35,红河哈尼族彝族自治州,监测站,,48,43,42,33,34,86,,84,81,7,9,10,10,0.6,0.5
2024-10-12T2200,3038A,103.3758,23.368,红河哈尼族彝族自治州,州图书馆,,40,40,39,26,26,85,,85,80,7,9,6,6,0.5,0.5
2024-10-12T2200,1090A,111.6507,40.7517,呼和浩特市,呼市一监,颗粒物(PM10),80,110,61,41,23,9,,120,84,89,38,8,9,0.8,0.7
2024-10-12T2200,1091A,111.6572,40.8033,呼和浩特市,小召,颗粒物(PM10),67,83,60,33,24,46,,115,93,69,48,11,11,0.9,0.7
2024-10-12T2200,1094A,111.7516,40.8369,呼和浩特市,如意水处理厂,颗粒物(PM10),97,144,65,32,20,4,,117,74,105,54,6,7,0.6,0.5
2024-10-12T2200,1095A,111.7276,40.8062,呼和浩特市,二十九中,颗粒物(PM10),79,107,61,35,24,21,,120,87,90,47,8,9,0.9,0.8
2024-10-12T2200,1096A,111.5512,40.7866,呼和浩特市,工大金川校区,颗粒物(PM10),106,162,72,49,24,5,,114,75,107,60,8,7,1.0,0.7
2024-10-12T2200,1097A,111.717,40.7612,呼和浩特市,化肥厂生活区,颗粒物(PM10),81,112,68,36,23,11,,116,77,103,41,12,10,0.7,0.6
2024-10-12T2200,3698A,111.5968,40.8178,呼和浩特市,红旗小学,颗粒物(PM10),81,112,75,33,25,2,,109,67,116,67,9,8,0.7,0.6
2024-10-12T2200,3699A,111.6518,40.8389,呼和浩特市,海东办,颗粒物(PM10),97,144,74,42,28,4,,117,81,107,56,7,7,1.1,0.8
2024-10-12T2200,2192A,119.7594,49.2261,呼伦贝尔市,区环保局,,38,38,26,21,17,38,,61,48,20,15,8,6,0.3,0.3
2024-10-12T2200,3061A,119.7512,49.1577,呼伦贝尔市,国华电力东,,19,19,18,11,11,38,,66,57,18,7,5,4,0.3,0.3
2024-10-12T2200,1250A,120.0751,30.8669,湖州市,城西水厂,,29,29,69,16,49,76,,147,108,28,49,6,6,0.4,0.5
2024-10-12T2200,2873A,120.0875,30.8955,湖州市,仁皇山新区,,26,26,64,15,50,57,,144,110,42,33,8,7,0.6,0.7
2024-10-12T2200,2907A,120.1844,30.8596,湖州市,吴兴区站,,24,24,59,14,47,70,,137,102,28,24,7,7,0.4,0.5
2024-10-12T2200,3562A,120.4148,30.8538,湖州市,南浔区站,,28,24,63,19,55,68,,128,98,24,26,3,4,0.5,0.6
2024-10-12T2200,1607A,120.9092,40.7136,葫芦岛市,龙港区,细颗粒物(PM2.5),63,50,60,45,33,74,,103,99,19,33,10,23,0.8,0.8
2024-10-12T2200,1608A,120.8392,40.7514,葫芦岛市,化工街,颗粒物(PM10),87,124,78,58,31,5,,90,70,85,41,18,25,1.2,0.8
2024-10-12T2200,1609A,120.8341,40.7073,葫芦岛市,新区,细颗粒物(PM2.5),78,60,56,57,35,14,,98,77,77,39,9,16,1.0,0.8
2024-10-12T2200,1610A,120.8695,40.7677,葫芦岛市,东城区,细颗粒物(PM2.5),115,,60,87,38,5,,88,65,76,34,14,19,1.1,0.7
2024-10-12T2200,2482A,109.5981,27.5721,怀化市,林科所,细颗粒物(PM2.5),67,64,62,48,44,111,,114,114,9,9,8,10,1.1,1.2
2024-10-12T2200,2483A,109.9453,27.5444,怀化市,河西地税局,细颗粒物(PM2.5),78,72,78,57,62,106,,112,106,11,14,10,12,0.5,0.5
2024-10-12T2200,2484A,109.9781,27.5342,怀化市,市四医院,,,,78,47,55,,,106,105,12,10,10,11,0.7,0.8
2024-10-12T2200,2485A,109.9972,27.5578,怀化市,监测楼,细颗粒物(PM2.5),68,72,74,49,55,102,,121,117,13,11,5,6,0.7,0.7
2024-10-12T2200,2486A,110.0394,27.583,怀化市,市委党校,细颗粒物(PM2.5),65,77,84,47,54,100,,122,116,12,13,9,19,0.6,0.7
2024-10-12T2200,1210A,119.036,33.5981,淮安市,钵池山,细颗粒物(PM2.5),83,70,85,61,70,109,,143,125,21,24,5,6,0.5,0.6
2024-10-12T2200,1211A,119.007,33.575,淮安市,北京南路,细颗粒物(PM2.5),77,95,110,56,74,110,,149,135,20,22,7,8,0.5,0.6
2024-10-12T2200,1212A,118.989,33.6067,淮安市,市监测站,细颗粒物(PM2.5),79,73,82,58,69,119,,152,139,25,23,8,9,0.7,0.8
2024-10-12T2200,1213A,119.135,33.5039,淮安市,楚州区监测站,细颗粒物(PM2.5),80,83,94,59,83,93,,143,124,34,31,6,7,0.6,0.7
2024-10-12T2200,1214A,119.0186,33.6297,淮安市,淮阴区监测站,细颗粒物(PM2.5),83,85,97,61,72,113,,150,133,28,30,6,7,0.5,0.7
2024-10-12T2200,3426A,118.8755,33.2894,淮安市,新华书店,颗粒物(PM10),59,68,92,41,52,109,,151,134,22,28,4,7,0.5,0.7
2024-10-12T2200,2282A,116.8004,33.975,淮北市,监测站,细颗粒物(PM2.5),74,87,90,54,52,128,,156,141,17,23,2,3,0.7,0.7
2024-10-12T2200,2283A,116.8091,33.9007,淮北市,烈山区政府,细颗粒物(PM2.5),85,93,107,63,63,131,,156,144,18,25,3,5,0.7,0.7
2024-10-12T2200,3330A,116.8873,33.9836,淮北市,杜集区检察院,细颗粒物(PM2.5),84,98,102,62,66,149,,170,157,16,23,5,4,0.5,0.5
2024-10-12T2200,4017A,116.7923,33.9535,淮北市,市博物馆,细颗粒物(PM2.5),74,80,91,54,55,134,,162,149,16,22,4,4,0.7,0.7
2024-10-12T2200,2277A,116.8305,32.7727,淮南市,潘集区政府,细颗粒物(PM2.5),93,123,104,69,59,113,,153,141,22,26,8,9,0.7,0.7
2024-10-12T2200,2278A,117.0067,32.6524,淮南市,师范学院,细颗粒物(PM2.5),94,110,93,70,53,139,,167,160,26,19,8,9,0.7,0.7
2024-10-12T2200,2279A,116.8569,32.5951,淮南市,谢家集区政府,细颗粒物(PM2.5),90,100,84,67,51,140,,156,152,25,23,9,9,0.7,0.6
2024-10-12T2200,2280A,116.8281,32.633,淮南市,八公山区政府,细颗粒物(PM2.5),92,110,90,68,50,135,,160,154,21,16,10,10,0.5,0.5
2024-10-12T2200,2281A,116.6325,32.6201,淮南市,焦岗湖风景区管理处,颗粒物(PM10),63,76,74,39,35,140,,154,148,18,15,9,8,0.3,0.3
2024-10-12T2200,2894A,117.0566,32.6531,淮南市,经济技术开发区消防队,细颗粒物(PM2.5),72,79,87,52,48,126,,161,149,29,24,5,7,0.5,0.6
2024-10-12T2200,3329A,117.0108,32.5893,淮南市,山南新区,细颗粒物(PM2.5),87,105,95,64,53,145,,168,162,25,21,5,4,0.8,0.7
2024-10-12T2200,2446A,114.9028,30.4742,黄冈市,职工中心,细颗粒物(PM2.5),109,123,88,82,48,103,,163,138,39,27,13,11,0.9,0.8
2024-10-12T2200,2929A,114.8858,30.4519,黄冈市,红卫路,细颗粒物(PM2.5),99,105,76,74,47,117,,158,139,35,31,15,12,0.9,0.7
2024-10-12T2200,3398A,114.9136,30.4445,黄冈市,市林业局,细颗粒物(PM2.5),94,115,78,70,43,110,,157,140,40,32,14,12,0.8,0.6
2024-10-12T2200,2672A,102.0199,35.5102,黄南藏族自治州,同仁县隆务镇,,32,32,33,11,14,80,,99,92,1,3,10,9,0.3,0.4
2024-10-12T2200,2295A,118.2903,29.6963,黄山市,延安路89号,细颗粒物(PM2.5),87,114,60,64,27,59,,149,122,16,11,6,7,0.6,0.4
2024-10-12T2200,2296A,118.327,29.7178,黄山市,黄山东路89号,颗粒物(PM10),59,67,54,40,32,83,,146,120,14,11,7,6,0.5,0.4
2024-10-12T2200,2297A,118.1371,30.2756,黄山市,黄山区政府5号楼,细颗粒物(PM2.5),87,80,55,64,34,39,,134,99,12,11,7,7,0.7,0.5
2024-10-12T2200,2423A,115.0601,30.2313,黄石市,沈家营,细颗粒物(PM2.5),120,,83,91,53,154,,168,161,20,34,11,29,0.9,0.8
2024-10-12T2200,2424A,115.0817,30.2006,黄石市,陈家湾,细颗粒物(PM2.5),166,,70,126,49,163,,185,181,20,13,16,12,0.9,0.6
2024-10-12T2200,2426A,114.8988,30.2019,黄石市,铁山,细颗粒物(PM2.5),103,79,67,77,43,161,,174,168,18,12,14,13,1.1,1.1
2024-10-12T2200,2427A,115.0307,30.2092,黄石市,团城山,细颗粒物(PM2.5),122,,73,92,42,158,,180,177,19,16,13,10,0.8,0.6
2024-10-12T2200,3149A,115.0235,30.1578,黄石市,笔架山北路,细颗粒物(PM2.5),129,,71,98,45,140,,170,162,24,19,12,12,0.7,0.7
2024-10-12T2200,1392A,114.4183,23.0528,惠州市,河南岸金山湖子站,,48,48,50,25,31,116,,138,131,14,11,6,6,0.7,0.7
2024-10-12T2200,1393A,114.4053,23.0822,惠州市,下埔横江三路子站,,50,50,51,28,30,125,,144,138,18,13,7,6,0.8,0.8
2024-10-12T2200,1394A,114.4103,23.1142,惠州市,江北云山西路子站,细颗粒物(PM2.5),53,41,46,37,29,132,,139,135,10,10,7,7,0.6,0.6
2024-10-12T2200,1395A,114.4645,22.7833,惠州市,惠阳区承修路船湖子站,,39,39,51,16,26,115,,174,152,15,17,6,8,0.6,0.7
2024-10-12T2200,1396A,114.5317,22.7422,惠州市,大亚湾管委会子站,,39,34,44,15,27,123,,177,156,12,19,8,9,0.6,0.7
2024-10-12T2200,3314A,114.4338,22.8134,惠州市,惠阳秋长,,43,31,40,16,28,135,,191,175,14,17,6,6,0.7,0.8
2024-10-12T2200,3452A,114.6517,22.775,惠州市,大亚湾霞涌,,35,35,42,13,32,108,,167,147,9,11,6,7,0.5,0.7
2024-10-12T2200,2240A,130.9762,45.3001,鸡西市,环保局,颗粒物(PM10),64,77,44,29,18,19,,67,33,50,21,7,6,0.5,0.3
2024-10-12T2200,2243A,130.9429,45.3039,鸡西市,第一中学,,31,31,27,9,10,58,,71,53,10,12,6,6,0,0
2024-10-12T2200,3707A,131.0207,45.3073,鸡西市,欧美日汽修厂,颗粒物(PM10),103,155,58,76,27,5,,73,39,46,26,10,8,0.8,0.3
2024-10-12T2200,3709A,130.9967,45.3106,鸡西市,市政设施管理处,颗粒物(PM10),92,134,65,55,23,2,,67,29,49,30,9,7,0.7,0.3
2024-10-12T2200,2367A,114.9754,27.0803,吉安市,红声器材厂,细颗粒物(PM2.5),70,80,69,51,40,127,,159,145,26,22,16,15,0.7,0.5
2024-10-12T2200,2368A,114.9658,27.0999,吉安市,市森林工业局,细颗粒物(PM2.5),62,68,61,44,38,125,,151,140,23,21,16,16,0.8,0.7
2024-10-12T2200,2369A,114.99,27.1312,吉安市,市环境监测站,细颗粒物(PM2.5),67,72,57,48,35,132,,156,146,21,20,21,23,0.9,0.6
2024-10-12T2200,2370A,115.0093,27.0968,吉安市,青原区法院,细颗粒物(PM2.5),68,82,67,49,39,119,,157,142,22,21,22,22,0.7,0.7
2024-10-12T2200,1772A,126.54,43.8622,吉林市,哈达湾,颗粒物(PM10),55,59,49,34,27,27,,70,50,45,32,7,10,0.8,0.7
2024-10-12T2200,1773A,126.5844,43.8358,吉林市,东局子,颗粒物(PM10),70,89,66,42,31,5,,62,36,62,46,6,6,1.0,0.8
2024-10-12T2200,1774A,126.5052,43.8245,吉林市,电力学院,细颗粒物(PM2.5),73,89,61,53,34,5,,68,38,49,31,6,6,1.1,0.9
2024-10-12T2200,1775A,126.6133,43.8972,吉林市,江北,颗粒物(PM10),59,68,68,40,36,28,,68,46,33,34,10,12,1.0,0.9
2024-10-12T2200,1776A,126.555,43.8306,吉林市,江南公园,"颗粒物(PM10),细颗粒物(PM2.5)",78,106,66,57,35,7,,64,38,61,42,7,8,1.1,0.8
2024-10-12T2200,1778A,126.7061,43.7133,吉林市,丰满,,18,17,33,10,26,55,,76,66,10,13,6,7,0.2,0.3
2024-10-12T2200,2868A,126.4739,43.953,吉林市,九站,细颗粒物(PM2.5),87,104,63,64,33,8,,76,44,66,35,11,8,1.2,0.8
2024-10-12T2200,1299A,116.9862,36.6114,济南市,科干所,颗粒物(PM10),59,68,62,37,26,114,,169,146,31,26,7,8,0.9,0.7
2024-10-12T2200,1300A,116.9376,36.665,济南市,农科所,颗粒物(PM10),90,129,93,54,31,10,,156,102,130,76,7,7,1.7,1
2024-10-12T2200,1301A,117.1265,36.6734,济南市,开发区,颗粒物(PM10),74,98,63,42,29,54,,156,112,97,46,5,6,0.9,0.7
2024-10-12T2200,1303A,117.0624,36.6868,济南市,省种子仓库,颗粒物(PM10),78,105,80,41,30,33,,159,112,101,69,4,5,0.8,0.7
2024-10-12T2200,1304A,116.9489,36.6447,济南市,机床二厂,颗粒物(PM10),94,137,96,54,36,17,,167,109,110,66,6,6,1.2,1
2024-10-12T2200,1305A,117.0495,36.663,济南市,市监测站,颗粒物(PM10),64,78,71,37,31,91,,163,132,62,67,6,6,0.9,0.8
2024-10-12T2200,1306A,116.7675,36.5484,济南市,长清党校,颗粒物(PM10),66,81,64,44,31,125,,184,162,46,37,7,7,0.7,0.6
2024-10-12T2200,1616A,117.6795,36.229,济南市,技术学院,细颗粒物(PM2.5),83,102,78,61,46,107,,166,137,49,45,10,11,0.9,0.9
2024-10-12T2200,1961A,117.532,36.6868,济南市,东山小学,颗粒物(PM10),64,78,66,42,29,117,,156,112,43,48,5,6,0.6,0.6
2024-10-12T2200,3059A,117.7161,36.2049,济南市,泰兴公司,细颗粒物(PM2.5),85,110,80,63,44,38,,162,104,108,64,9,10,0.8,0.7
2024-10-12T2200,3064A,117.6867,36.2171,济南市,莱芜战役纪念馆,颗粒物(PM10),82,114,87,56,42,82,,158,124,69,57,8,9,0.9,0.8
2024-10-12T2200,3494A,117.1673,36.9782,济南市,济阳区政府,颗粒物(PM10),86,122,83,51,34,90,,168,136,47,44,62,15,0.6,0.5
2024-10-12T2200,3495A,117.1171,36.63,济南市,锦屏中学,颗粒物(PM10),51,51,43,32,20,95,,164,130,39,26,5,6,0.8,0.5
2024-10-12T2200,3682A,116.9814,36.6819,济南市,济南四建,细颗粒物(PM2.5),83,105,88,61,41,18,,152,108,124,81,4,5,1.5,1
2024-10-12T2200,1653A,116.6251,35.4302,济宁市,火炬城,颗粒物(PM10),74,97,80,53,46,131,,165,146,29,46,11,13,0.9,0.9
2024-10-12T2200,1655A,116.5491,35.4042,济宁市,电化厂,颗粒物(PM10),79,107,95,48,44,148,,160,156,23,37,12,12,1.1,1
2024-10-12T2200,3500A,116.5814,35.3707,济宁市,北湖一中,细颗粒物(PM2.5),92,83,77,68,51,148,,184,174,23,43,9,11,0.7,0.6
2024-10-12T2200,3501A,116.8249,35.5593,济宁市,服务中心,细颗粒物(PM2.5),84,109,98,62,52,106,,163,143,39,51,9,10,0.9,0.9
2024-10-12T2200,3678A,116.5907,35.4054,济宁市,市第七中学,细颗粒物(PM2.5),85,85,83,63,48,133,,179,166,28,39,10,13,0.8,0.9
2024-10-12T2200,2255A,130.2751,46.8028,佳木斯市,佳纺,,25,25,31,10,15,32,,64,51,24,19,3,5,0.5,0.5
2024-10-12T2200,2256A,130.3995,46.8307,佳木斯市,发电厂,,18,18,20,8,10,46,,67,57,13,12,5,5,0.3,0.4
2024-10-12T2200,2257A,130.3258,46.7975,佳木斯市,环保局,,26,26,25,11,10,31,,62,48,28,16,13,9,0.4,0.4
2024-10-12T2200,2258A,130.3648,46.8032,佳木斯市,十一中,,28,28,28,13,12,37,,65,51,37,20,10,7,0.5,0.4
2024-10-12T2200,2259A,130.3794,46.7588,佳木斯市,四丰,,,20,15,6,7,39,,65,55,,,1,1,0.1,0.1
2024-10-12T2200,1252A,120.7436,30.778,嘉兴市,清河小学,,25,21,48,13,30,80,,129,104,24,29,4,5,0.4,0.6
2024-10-12T2200,1253A,120.726,30.7478,嘉兴市,嘉兴学院,,29,29,52,18,50,76,,121,98,25,25,4,4,0.5,0.6
2024-10-12T2200,2872A,120.7846,30.7525,嘉兴市,南湖区残联,,26,26,50,16,42,64,,110,89,26,26,6,6,0.5,0.6
2024-10-12T2200,3407A,120.6916,30.7739,嘉兴市,秀洲住建,,,18,39,13,29,,,132,108,20,28,6,7,0.5,0.6
2024-10-12T2200,1945A,98.2908,39.7711,嘉峪关市,气象局,颗粒物(PM10),53,56,52,22,17,69,,108,93,36,25,6,18,0.5,0.5
2024-10-12T2200,2884A,98.2672,39.7978,嘉峪关市,酒钢宾馆,颗粒物(PM10),60,70,57,27,22,50,,102,88,54,24,6,33,0.4,0.7
2024-10-12T2200,3248A,98.2643,39.7724,嘉峪关市,雄关区,颗粒物(PM10),51,52,46,20,19,67,,110,94,37,22,10,14,0.2,0.5
2024-10-12T2200,1383A,113.1064,22.6058,江门市,北街,,46,35,43,24,35,147,,187,178,16,25,6,6,0.6,0.6
2024-10-12T2200,1384A,113.0731,22.5835,江门市,西区,颗粒物(PM10),59,68,61,29,30,142,,189,175,27,32,6,6,0.5,0.6
2024-10-12T2200,1385A,113.0219,22.5311,江门市,圭峰西,颗粒物(PM10),51,52,49,30,33,128,,176,161,27,23,4,4,0.4,0.5
2024-10-12T2200,1386A,113.0828,22.5947,江门市,东湖,颗粒物(PM10),53,55,56,25,25,143,,185,175,21,26,6,6,0.6,0.6
2024-10-12T2200,3311A,113.1075,22.5647,江门市,江海富民,颗粒物(PM10),62,73,64,34,30,147,,184,177,21,24,7,7,0.6,0.6
2024-10-12T2200,3449A,113.05,22.4667,江门市,新会银湖,,45,41,54,31,35,119,,167,153,17,30,7,7,0.6,0.7
2024-10-12T2200,1828A,113.227,35.2125,焦作市,市环保局,细颗粒物(PM2.5),137,149,129,104,80,73,,140,108,48,34,10,9,0.7,0.6
2024-10-12T2200,1830A,113.1992,35.2590,焦作市,影视城,细颗粒物(PM2.5),102,114,90,76,63,153,,172,163,14,12,10,10,0.6,0.6
2024-10-12T2200,3169A,113.2725,35.2067,焦作市,太极体育中心,细颗粒物(PM2.5),125,168,145,95,78,64,,128,98,55,44,8,9,0.8,0.8
2024-10-12T2200,3335A,113.3137,35.2641,焦作市,马村街道办,细颗粒物(PM2.5),113,153,123,85,73,75,,136,99,49,34,6,7,0.7,0.3
2024-10-12T2200,3336A,113.2465,35.2373,焦作市,焦作技师学院,细颗粒物(PM2.5),104,134,123,78,67,78,,130,104,35,27,4,6,0.9,0.9
2024-10-12T2200,3477A,113.1656,35.2539,焦作市,中站许衡医院,细颗粒物(PM2.5),114,145,109,86,62,130,,150,127,28,34,8,7,0.3,0.6
2024-10-12T2200,3981A,113.2449,35.1803,焦作市,原李万街道办,细颗粒物(PM2.5),150,231,155,115,80,22,,129,89,89,48,10,15,1.0,0.8
2024-10-12T2200,1708A,116.3701,23.5345,揭阳市,新兴,,39,38,51,27,33,108,,144,131,19,20,7,11,0.6,0.6
2024-10-12T2200,1709A,116.3264,23.5443,揭阳市,西马,,49,49,56,16,32,116,,153,139,10,14,8,9,0.7,0.7
2024-10-12T2200,1710A,116.3611,23.5626,揭阳市,东兴,,50,50,56,25,32,110,,152,136,16,17,6,10,0.8,0.8
2024-10-12T2200,1711A,116.4151,23.5294,揭阳市,渔湖,,40,39,51,28,28,104,,147,135,19,18,8,11,0.7,0.7
2024-10-12T2200,3320A,116.403,23.5699,揭阳市,曲溪,,48,48,54,28,34,109,,156,137,21,22,8,4,0.5,0.6
2024-10-12T2200,1944A,102.1692,38.5167,金昌市,天庆家园,,47,47,32,31,22,66,,103,88,23,21,12,16,0.5,0.7
2024-10-12T2200,3170A,102.1864,38.5253,金昌市,市委党校,颗粒物(PM10),57,64,52,26,20,60,,105,92,31,19,10,11,0.8,0.7
2024-10-12T2200,4022A,102.1647,38.5371,金昌市,金川区人防中心,颗粒物(PM10),65,79,49,30,20,64,,106,88,39,21,10,12,0.8,0.6
2024-10-12T2200,1262A,119.647,29.077,金华市,十五中,颗粒物(PM10),60,69,80,40,51,73,,172,130,42,37,4,4,0.5,0.6
2024-10-12T2200,1263A,119.686,29.1029,金华市,监测站,颗粒物(PM10),64,78,81,45,51,62,,168,125,47,49,3,4,0.5,0.6
2024-10-12T2200,3659A,119.656,29.1131,金华市,气象局,颗粒物(PM10),58,65,77,32,39,65,,169,125,50,52,5,5,0.4,0.5
2024-10-12T2200,1767A,121.1115,41.0879,锦州市,南山,细颗粒物(PM2.5),109,,49,82,40,15,,85,71,87,30,10,13,0.8,0.8
2024-10-12T2200,1768A,121.0533,40.8434,锦州市,开发区,"颗粒物(PM10),细颗粒物(PM2.5)",107,164,80,80,46,4,,86,60,109,42,14,13,1.0,0.9
2024-10-12T2200,1769A,121.1836,41.1119,锦州市,百股街道,细颗粒物(PM2.5),73,64,49,53,26,44,,84,71,32,27,9,15,1.2,1.2
2024-10-12T2200,1770A,121.1178,41.1222,锦州市,天安街道,细颗粒物(PM2.5),132,111,58,100,35,30,,86,71,76,39,13,13,1.3,1
2024-10-12T2200,1771A,121.1303,41.1386,锦州市,北湖公园,细颗粒物(PM2.5),134,,51,102,35,38,,96,82,54,27,10,12,1.2,0.8
2024-10-12T2200,2160A,112.85,35.5051,晋城市,自来水公司,细颗粒物(PM2.5),117,142,109,88,69,120,,160,149,33,41,14,11,1.2,1.2
2024-10-12T2200,2161A,112.8318,35.4936,晋城市,白云商贸,细颗粒物(PM2.5),122,160,129,92,74,113,,158,146,38,42,11,8,1.2,1.2
2024-10-12T2200,2162A,112.8508,35.4887,晋城市,市环保局,细颗粒物(PM2.5),122,160,120,92,66,110,,157,146,38,47,12,9,1.2,1.1
2024-10-12T2200,2163A,112.8676,35.4897,晋城市,技术学院,细颗粒物(PM2.5),122,132,118,92,68,107,,157,145,42,50,13,10,1.4,1.3
2024-10-12T2200,3620A,112.8271,35.4828,晋城市,泽州一中,细颗粒物(PM2.5),132,145,121,100,77,106,,155,143,34,35,17,12,1.4,1.3
2024-10-12T2200,2171A,112.7532,37.6945,晋中市,锦纶小区,颗粒物(PM10),89,127,66,56,25,110,,132,125,25,28,10,8,0.9,0.5
2024-10-12T2200,2173A,112.7249,37.7067,晋中市,南都小区,颗粒物(PM10),79,108,65,55,33,111,,132,125,23,35,9,7,0.7,0.6
2024-10-12T2200,2174A,112.6991,37.6982,晋中市,榆次区政府,颗粒物(PM10),84,117,71,47,27,112,,132,122,23,33,8,8,0.7,0.4
2024-10-12T2200,2865A,112.7195,37.6828,晋中市,榆次三中,颗粒物(PM10),92,134,70,66,24,104,,128,120,25,32,12,10,1.4,0.6
2024-10-12T2200,2439A,112.2014,31.0481,荆门市,竹园小学,细颗粒物(PM2.5),99,91,92,74,59,76,,88,81,20,32,12,14,0.7,0.8
2024-10-12T2200,2440A,112.1969,30.9891,荆门市,掇刀,细颗粒物(PM2.5),87,77,82,64,53,90,,102,95,21,25,8,13,0.6,0.6
2024-10-12T2200,2441A,112.2213,31.0386,荆门市,石化一小,细颗粒物(PM2.5),105,99,100,79,63,84,,92,84,23,31,22,22,0.5,0.5
2024-10-12T2200,3012A,112.1849,31.0362,荆门市,西山林语,细颗粒物(PM2.5),88,90,85,65,53,118,,98,98,16,24,9,11,0.5,0.6
2024-10-12T2200,3547A,112.1632,31.0138,荆门市,龙泉中学南校,细颗粒物(PM2.5),62,63,76,44,47,85,,110,98,26,32,7,10,0.6,0.7
2024-10-12T2200,1844A,112.2494,30.3197,荆州市,市图书馆,细颗粒物(PM2.5),75,58,83,55,65,94,,116,109,20,26,11,15,0.8,0.9
2024-10-12T2200,1845A,112.2008,30.3544,荆州市,市委党校,细颗粒物(PM2.5),77,68,79,56,63,85,,116,106,19,26,7,11,0.7,0.7
2024-10-12T2200,3194A,112.2747,30.3122,荆州市,管委会,细颗粒物(PM2.5),79,69,84,58,69,101,,122,113,22,26,10,13,0.9,0.9
2024-10-12T2200,3548A,112.1655,30.3364,荆州市,学苑路,细颗粒物(PM2.5),75,85,91,55,61,90,,118,108,18,25,12,22,0.7,0.8
2024-10-12T2200,2343A,117.2117,29.2933,景德镇市,老干部活动中心,细颗粒物(PM2.5),82,84,51,60,35,38,,144,111,30,15,9,9,0.4,0.2
2024-10-12T2200,2344A,117.1894,29.2789,景德镇市,兽医站,细颗粒物(PM2.5),63,69,53,45,31,66,,152,128,26,15,6,7,0.7,0.4
2024-10-12T2200,2345A,117.1547,29.2617,景德镇市,台达陶瓷,细颗粒物(PM2.5),64,64,52,46,30,69,,136,119,22,14,11,8,0.7,0.6
2024-10-12T2200,2346A,117.2461,29.2956,景德镇市,陶研所,细颗粒物(PM2.5),64,70,51,46,32,35,,152,111,40,19,6,6,0.5,0.5
2024-10-12T2200,1803A,115.9872,29.6815,九江市,十里,细颗粒物(PM2.5),89,110,89,66,48,121,,176,162,27,25,14,14,0.8,0.8
2024-10-12T2200,1804A,115.9584,29.7046,九江市,茅山头,细颗粒物(PM2.5),132,121,82,100,52,119,,158,148,31,28,13,11,1.0,0.9
2024-10-12T2200,1805A,115.9877,29.7295,九江市,西园,细颗粒物(PM2.5),132,131,81,100,52,134,,176,164,24,24,18,14,0.8,0.7
2024-10-12T2200,1806A,116.0172,29.6547,九江市,五七二七厂,细颗粒物(PM2.5),79,91,84,58,48,125,,168,160,20,25,13,18,0.8,1.1
2024-10-12T2200,1808A,115.9114,29.6038,九江市,综合工业园,细颗粒物(PM2.5),93,93,87,69,59,100,,163,151,76,54,33,24,1.0,0.9
2024-10-12T2200,1809A,116.0721,29.7535,九江市,石化总厂,细颗粒物(PM2.5),130,132,97,99,59,102,,159,140,39,33,13,12,1.0,0.9
2024-10-12T2200,1810A,115.9773,29.5698,九江市,庐山气象台,臭氧1小时,78,48,58,34,32,182,,181,180,5,6,7,11,0.5,0.7
2024-10-12T2200,3190A,116.0254,29.6994,九江市,外国语学校,细颗粒物(PM2.5),119,121,88,90,54,111,,165,150,32,31,8,11,0.6,0.5
2024-10-12T2200,2658A,98.5061,39.7443,酒泉市,仓门街子站,颗粒物(PM10),78,105,53,39,22,31,,118,88,52,17,14,8,0.8,0.5
2024-10-12T2200,2659A,98.4989,39.7256,酒泉市,油田生活基地,颗粒物(PM10),97,144,62,35,23,35,,112,88,42,15,14,6,0.4,0.4
2024-10-12T2200,2698A,76.0072,39.4467,喀什地区,巡警大队,颗粒物(PM10),106,161,182,62,41,20,,102,95,99,51,6,5,1.6,0.9
2024-10-12T2200,2699A,75.9755,39.4694,喀什地区,吾办,颗粒物(PM10),120,190,156,75,54,7,,100,89,94,45,4,3,2.2,1
2024-10-12T2200,4027A,75.9483,39.4689,喀什地区,老干局,颗粒物(PM10),155,260,168,62,30,14,,108,98,98,42,6,6,1.7,0.9
2024-10-12T2200,1824A,114.3389,34.7781,开封市,肿瘤医院,细颗粒物(PM2.5),110,137,169,83,114,101,,161,136,49,62,5,8,0.7,0.7
2024-10-12T2200,1826A,114.2885,34.7965,开封市,世纪星幼儿园,颗粒物(PM10),79,107,135,54,70,138,,177,156,29,46,2,3,0.7,0.8
2024-10-12T2200,3147A,114.3438,34.8106,开封市,龙亭公园,细颗粒物(PM2.5),103,118,165,77,129,123,,173,154,35,53,8,6,0.6,0.9
2024-10-12T2200,3210A,114.3644,34.7964,开封市,汴京公园,细颗粒物(PM2.5),104,116,162,78,113,106,,153,131,33,48,7,8,0.6,0.7
2024-10-12T2200,3473A,114.2485,34.8306,开封市,技师学院,颗粒物(PM10),81,111,130,50,64,158,,182,170,21,31,3,6,0.7,0.7
2024-10-12T2200,3592A,114.4644,34.7556,开封市,祥符区生态环境局,细颗粒物(PM2.5),113,174,165,85,93,65,,147,104,72,70,3,4,0.7,0.6
2024-10-12T2200,1951A,84.895,45.6094,克拉玛依市,长征新村,,22,22,27,3,5,63,,92,62,14,10,6,7,0.2,0.2
2024-10-12T2200,1952A,84.8988,45.5893,克拉玛依市,南林小区,,23,18,29,12,15,72,,94,66,16,17,4,4,0.1,0.1
2024-10-12T2200,1954A,84.905,44.3396,克拉玛依市,独山子区,,27,8,41,3,15,85,,103,90,11,13,8,9,0.2,0.3
2024-10-12T2200,1955A,85.6979,46.098,克拉玛依市,乌尔禾区商贸楼,,25,13,30,6,7,80,,95,85,2,5,1,2,0.1,0.1
2024-10-12T2200,3612A,85.1045,45.6899,克拉玛依市,白碱滩区新站,,26,26,41,8,9,70,,101,70,17,16,8,8,0.3,0.3
2024-10-12T2200,2697A,76.1454,39.7142,克孜勒苏柯尔克孜自治州,市人民政府,颗粒物(PM10),84,117,94,35,30,98,,122,120,34,13,3,6,0.4,0.3
2024-10-12T2200,3665A,76.1658,39.7157,克孜勒苏柯尔克孜自治州,克州文化中心,颗粒物(PM10),76,102,88,36,32,93,,126,123,44,18,7,12,0.4,0.4
2024-10-12T2200,1450A,102.8204,24.8886,昆明市,呈贡新区,,31,31,23,17,12,44,,75,67,21,11,5,6,0.8,0.7
2024-10-12T2200,1452A,102.7252,25.0902,昆明市,龙泉镇,,34,34,19,14,11,44,,72,65,21,16,7,6,0.7,0.8
2024-10-12T2200,1453A,102.7266,25.0375,昆明市,东风东路,,27,27,19,15,13,39,,69,64,18,12,7,6,0.5,0.5
2024-10-12T2200,1454A,102.6742,25.0669,昆明市,金鼎山,,28,28,18,13,11,45,,72,66,20,14,2,2,0.5,0.5
2024-10-12T2200,1455A,102.6644,25.0401,昆明市,碧鸡广场,,32,29,20,22,12,40,,76,69,25,16,6,7,0.3,0.4
2024-10-12T2200,3179A,102.7494,25.0119,昆明市,官渡区博物馆,,33,33,21,16,11,45,,75,69,14,9,7,6,0.5,0.5
2024-10-12T2200,3375A,102.8017,24.8336,昆明市,青年创业园,,18,18,18,12,13,47,,77,66,15,12,5,6,0.7,0.7
2024-10-12T2200,3550A,102.7997,24.9786,昆明市,昆明学院,,23,22,18,16,13,58,,77,72,10,9,6,6,0.6,0.6
2024-10-12T2200,3551A,102.5967,24.6736,昆明市,晋宁区生态环境分局,,29,29,22,14,15,56,,77,72,9,8,1,1,0.6,0.5
2024-10-12T2200,3552A,102.6678,24.9856,昆明市,云天化总部,,20,18,16,14,13,58,,80,76,8,6,6,6,0.5,0.6
2024-10-12T2200,1456A,91.1319,29.6514,拉萨市,八廓街,,37,17,16,7,7,118,,127,125,8,12,7,11,0.2,0.2
2024-10-12T2200,1457A,91.1221,29.6747,拉萨市,市环保局,,34,18,21,6,9,108,,120,117,12,17,5,9,0.2,0.3
2024-10-12T2200,1458A,91.0874,29.6475,拉萨市,区监测站,,33,12,17,9,10,105,,122,119,14,22,5,10,0.2,0.2
2024-10-12T2200,1459A,91.1774,29.6541,拉萨市,西藏大学,,35,11,14,8,6,111,,123,121,6,7,6,11,0.2,0.2
2024-10-12T2200,1460A,90.9798,29.6588,拉萨市,区辐射站,,32,16,22,8,10,101,,120,119,13,23,8,10,0.2,0.2
2024-10-12T2200,1461A,91.0834,29.6292,拉萨市,拉萨火车站,,34,10,15,7,9,108,,117,115,6,19,5,7,0.1,0.3
2024-10-12T2200,2520A,109.2203,23.7256,来宾市,来宾技工学校,细颗粒物(PM2.5),68,74,66,49,41,95,,143,130,20,21,8,17,0.9,0.8
2024-10-12T2200,3535A,109.1781,23.7297,来宾市,兴宾区政府,细颗粒物(PM2.5),69,79,59,50,39,83,,146,129,17,13,9,11,0.8,0.8
2024-10-12T2200,4002A,109.2416,23.7461,来宾市,中南小学,,,,66,,40,,,151,140,22,23,8,12,0.8,0.8
2024-10-12T2200,1476A,103.631,36.1031,兰州市,兰炼宾馆,细颗粒物(PM2.5),59,61,59,42,34,14,,77,64,73,43,9,9,0.8,0.6
2024-10-12T2200,1478A,103.8412,36.0726,兰州市,生物制品所,细颗粒物(PM2.5),60,48,45,43,28,23,,64,57,59,37,9,10,0.5,0.6
2024-10-12T2200,1479A,103.831,36.0464,兰州市,铁路设计院,细颗粒物(PM2.5),60,63,48,43,32,8,,52,45,82,48,7,7,0.9,0.6
2024-10-12T2200,3186A,103.7158,36.1058,兰州市,教育港,颗粒物(PM10),61,71,56,42,33,14,,69,64,70,39,8,8,0.8,0.6
2024-10-12T2200,3241A,103.7439,36.0842,兰州市,百合公园,"颗粒物(PM10),细颗粒物(PM2.5)",55,59,50,39,26,7,,60,55,69,37,7,8,0.7,0.7
2024-10-12T2200,3242A,103.9611,35.998,兰州市,和平,颗粒物(PM10),55,59,43,29,24,58,,74,73,35,24,10,10,0.6,0.5
2024-10-12T2200,3245A,103.6633,36.533,兰州新区,新区管委会,,36,26,43,25,23,61,,88,85,24,22,6,9,0.4,0.5
2024-10-12T2200,3246A,103.6975,36.4789,兰州新区,舟曲中学,,29,13,48,3,21,90,,96,96,11,22,6,9,0.3,0.5
2024-10-12T2200,1067A,116.6708,39.5111,廊坊市,药材公司,细颗粒物(PM2.5),98,125,161,73,107,65,,128,121,36,70,4,7,0.8,0.9
2024-10-12T2200,1068A,116.7214,39.5589,廊坊市,开发区,颗粒物(PM10),87,123,139,57,79,66,,120,112,29,60,2,5,0.7,0.8
2024-10-12T2200,1070A,116.7244,39.5269,廊坊市,北华航天学院,细颗粒物(PM2.5),95,122,157,71,97,68,,124,116,27,63,3,7,0.7,0.8
2024-10-12T2200,2919A,116.7022,39.5453,廊坊市,河北工业大学,细颗粒物(PM2.5),90,112,139,67,98,69,,124,117,34,70,4,7,0.7,0.8
2024-10-12T2200,2535A,103.7723,29.5462,乐山市,花湖湾,,23,23,22,14,13,45,,60,60,13,15,2,3,0.7,0.7
2024-10-12T2200,2536A,103.7627,29.5844,乐山市,牛耳桥,,25,22,22,17,18,40,,48,47,25,23,4,4,0.6,0.5
2024-10-12T2200,2537A,103.7508,29.6006,乐山市,市第三水厂,,26,22,26,18,20,57,,58,58,16,20,3,4,0.7,0.6
2024-10-12T2200,2538A,103.7571,29.5664,乐山市,市监测站,,29,22,22,20,17,44,,54,54,16,16,4,4,0.6,0.6
2024-10-12T2200,3361A,103.7311,29.5628,乐山市,理工大学,,26,19,25,18,18,39,,54,53,14,16,3,3,0.6,0.5
2024-10-12T2200,2599A,100.2497,26.8802,丽江市,丽江古城,,19,18,14,8,8,58,,71,67,11,10,9,10,0.5,0.4
2024-10-12T2200,2600A,100.2203,26.8906,丽江市,市中心,,19,11,12,3,6,59,,73,67,12,6,5,6,0.5,0.5
2024-10-12T2200,1267A,119.914,28.4514,丽水市,监测站大楼,颗粒物(PM10),55,59,50,37,34,47,,123,80,36,24,2,4,0.7,0.5
2024-10-12T2200,1268A,119.93,28.4586,丽水市,莲都小学,,37,37,48,22,29,64,,125,90,25,24,4,4,0.5,0.6
2024-10-12T2200,1269A,119.879,28.4231,丽水市,余庄前,,29,29,41,20,30,49,,124,82,13,15,3,4,0.4,0.3
2024-10-12T2200,1173A,119.176,34.5885,连云港市,市环境监测站,细颗粒物(PM2.5),83,90,97,61,76,122,,162,147,18,18,7,10,0.4,0.5
2024-10-12T2200,3000A,119.3581,34.6972,连云港市,德源药业,颗粒物(PM10),59,68,99,39,63,124,,157,136,17,28,6,6,0.5,0.5
2024-10-12T2200,3007A,119.178,34.844,连云港市,新城一中,颗粒物(PM10),73,96,125,35,50,89,,164,140,48,32,7,7,0.7,0.8
2024-10-12T2200,3008A,119.3608,34.7519,连云港市,胡沟管理处,"颗粒物(PM10),细颗粒物(PM2.5)",58,66,81,41,60,134,,151,139,10,11,6,6,0.4,0.4
2024-10-12T2200,3009A,119.1478,34.5911,连云港市,矿山设计院,细颗粒物(PM2.5),94,92,102,70,76,115,,156,142,16,17,6,8,0.6,0.6
2024-10-12T2200,3434A,119.2413,34.6539,连云港市,工贸学校,颗粒物(PM10),53,56,75,34,49,152,,164,156,12,15,8,10,0.7,0.8
2024-10-12T2200,3664A,119.4172,34.7341,连云港市,连云街道,,,53,68,36,45,,,171,168,11,17,6,8,0.5,0.6
2024-10-12T2200,2571A,102.3431,27.8099,凉山彝族自治州,青龙寺,,24,24,20,10,7,23,,66,52,3,5,7,8,0.7,0.7
2024-10-12T2200,2572A,102.2721,27.8415,凉山彝族自治州,邛海宾馆,,26,26,25,15,13,42,,61,55,15,16,12,11,0.7,0.8
2024-10-12T2200,2573A,102.2625,27.898,凉山彝族自治州,西昌市政府,细颗粒物(PM2.5),57,52,30,40,19,13,,63,47,29,21,9,11,1.1,0.9
2024-10-12T2200,2574A,102.2685,27.8851,凉山彝族自治州,凉山州政府,,45,45,29,28,16,16,,66,50,36,23,9,10,1.0,0.8
2024-10-12T2200,2575A,102.237,27.8914,凉山彝族自治州,长安,,16,13,30,11,14,34,,62,48,17,30,16,13,0.9,0.8
2024-10-12T2200,2212A,123.2,41.1953,辽阳市,宏伟区,颗粒物(PM10),82,114,61,49,30,66,,93,75,27,27,11,11,1.6,1
2024-10-12T2200,2213A,123.1683,41.2495,辽阳市,新华园,颗粒物(PM10),111,172,81,66,39,24,,90,58,57,42,14,19,1.6,1.2
2024-10-12T2200,2214A,123.2354,41.2639,辽阳市,滨河路,颗粒物(PM10),102,153,74,54,29,39,,98,61,56,35,16,15,1.4,1
2024-10-12T2200,2215A,123.149,41.2991,辽阳市,铁西工业园,颗粒物(PM10),127,203,91,74,33,24,,80,50,51,37,13,18,1.9,1.4
2024-10-12T2200,2227A,125.1358,42.8845,辽源市,环保局,细颗粒物(PM2.5),80,101,43,59,21,9,,73,44,44,24,7,7,1.3,0.7
2024-10-12T2200,3239A,125.0764,42.9078,辽源市,银鹰制药,颗粒物(PM10),74,98,43,51,20,6,,74,37,52,30,23,11,1.1,0.7
2024-10-12T2200,1625A,115.9848,36.4372,聊城市,区政府,颗粒物(PM10),76,101,95,44,43,116,,166,148,35,32,9,12,0.6,0.5
2024-10-12T2200,2878A,116.0072,36.4343,聊城市,聊大东校,颗粒物(PM10),79,107,103,48,48,119,,172,149,35,39,9,11,0.6,0.6
2024-10-12T2200,3200A,115.9819,36.4978,聊城市,监控中心,颗粒物(PM10),76,101,91,48,42,113,,163,140,49,40,9,11,0.7,0.7
2024-10-12T2200,3513A,116.0445,36.4361,聊城市,九州社区,颗粒物(PM10),76,102,91,48,43,96,,170,139,34,32,10,9,0.8,0.7
2024-10-12T2200,4018A,116.0567,36.4608,聊城市,星美广场,颗粒物(PM10),80,110,101,45,45,112,,175,142,35,34,12,12,0.8,0.7
2024-10-12T2200,2632A,94.3681,29.6376,林芝市,林芝监测站,,,,3,3,4,,,84,84,17,6,6,9,0.2,0.2
2024-10-12T2200,2633A,94.3616,29.6616,林芝市,林芝人民医院,,20,10,7,8,5,64,,86,82,9,8,5,5,0.1,0.1
2024-10-12T2200,2603A,100.0781,23.8982,临沧市,市环保局,,46,,22,32,15,18,,53,43,13,10,12,12,0.7,0.6
2024-10-12T2200,2604A,100.0894,23.8822,临沧市,市气象局,,35,34,24,24,19,18,,58,48,13,10,11,11,0.7,0.6
2024-10-12T2200,1733A,111.5531,36.0783,临汾市,临钢医院,细颗粒物(PM2.5),54,53,94,38,38,46,,85,63,37,45,4,7,0.7,0.8
2024-10-12T2200,1734A,111.5028,36.0714,临汾市,技工学校,细颗粒物(PM2.5),74,81,88,54,44,35,,105,85,62,47,4,7,0.9,0.9
2024-10-12T2200,1736A,111.5018,36.0855,临汾市,市委,"颗粒物(PM10),细颗粒物(PM2.5)",75,100,90,55,39,47,,112,92,43,38,5,7,1.0,0.9
2024-10-12T2200,3018A,111.505,36.1014,临汾市,唐尧大酒店,细颗粒物(PM2.5),72,76,90,52,42,47,,106,89,43,42,5,6,0.8,0.8
2024-10-12T2200,3668A,111.5036,36.0414,临汾市,城南,颗粒物(PM10),57,63,100,38,43,29,,98,75,46,43,5,8,0.7,0.8
2024-10-12T2200,2667A,103.2069,35.5993,临夏回族自治州,环保局,颗粒物(PM10),57,64,43,22,17,60,,72,70,30,20,4,4,0.6,0.6
2024-10-12T2200,2668A,103.2417,35.6057,临夏回族自治州,建设大厦,颗粒物(PM10),70,90,37,34,19,5,,69,53,58,20,3,2,1.0,0.6
2024-10-12T2200,1618A,118.3429,35.0532,临沂市,沂河小区,细颗粒物(PM2.5),98,124,152,73,79,115,,173,155,19,34,8,10,0.6,0.7
2024-10-12T2200,1619A,118.295,35.0583,临沂市,鲁南制药厂,颗粒物(PM10),89,127,156,52,73,123,,184,166,25,33,9,10,0.7,0.9
2024-10-12T2200,1620A,118.2794,34.9976,临沂市,新光毛纺厂,颗粒物(PM10),91,132,156,66,83,102,,175,147,29,50,7,12,0.9,1
2024-10-12T2200,1621A,118.3956,35.0888,临沂市,河东保险公司,细颗粒物(PM2.5),110,107,140,83,97,106,,176,156,27,53,4,9,0.7,1.1
2024-10-12T2200,3370A,118.3564,35.0215,临沂市,十里堡居委,细颗粒物(PM2.5),98,112,144,73,104,113,,175,153,24,39,8,9,0.9,1.1
2024-10-12T2200,3496A,118.3604,35.1084,临沂市,南坊新区,细颗粒物(PM2.5),100,112,141,75,97,115,,176,157,24,35,11,11,0.8,0.9
2024-10-12T2200,3860A,118.3920,35.0300,临沂市,皇山花园小区,细颗粒物(PM2.5),99,112,157,74,112,113,,170,151,28,49,10,11,0.9,1.2
2024-10-12T2200,1870A,109.4856,24.3895,柳州市,柳东小学,,47,47,55,31,39,108,,145,140,21,22,11,13,0.7,0.8
2024-10-12T2200,1871A,109.4157,24.3277,柳州市,环保监测站,颗粒物(PM10),63,76,60,42,40,102,,144,128,23,19,9,13,1.0,0.9
2024-10-12T2200,1872A,109.389,24.341,柳州市,河西水厂,颗粒物(PM10),60,70,78,38,46,116,,143,132,16,28,9,14,0.9,0.9
2024-10-12T2200,1873A,109.4311,24.2921,柳州市,市四中,细颗粒物(PM2.5),63,66,62,45,40,76,,153,129,41,28,9,12,1.2,0.9
2024-10-12T2200,1874A,109.4006,24.3631,柳州市,市九中,"颗粒物(PM10),细颗粒物(PM2.5)",62,74,66,44,43,93,,148,128,26,22,6,9,0.9,0.6
2024-10-12T2200,1875A,109.4958,24.3134,柳州市,古亭山,颗粒物(PM10),51,52,49,33,30,66,,147,117,55,36,9,11,0.9,0.8
2024-10-12T2200,3402A,109.5422,24.3996,柳州市,市二中,颗粒物(PM10),67,84,62,40,39,32,,148,123,90,43,9,12,0.9,0.8
2024-10-12T2200,2307A,116.5079,31.737,六安市,监测大楼,细颗粒物(PM2.5),115,,66,87,47,126,,152,144,16,16,6,6,0.6,0.5
2024-10-12T2200,2308A,116.4738,31.7643,六安市,皖西学院,细颗粒物(PM2.5),89,75,73,66,39,130,,154,151,17,15,6,6,0.5,0.5
2024-10-12T2200,2309A,116.4996,31.7905,六安市,朝阳厂,细颗粒物(PM2.5),99,88,62,74,38,94,,145,138,31,16,2,3,0.7,0.7
2024-10-12T2200,2310A,116.5567,31.7886,六安市,开发区,细颗粒物(PM2.5),83,103,81,61,40,94,,153,138,27,26,6,8,0.6,0.6
2024-10-12T2200,2577A,104.83,26.5917,六盘水市,黄土坡,,11,,23,7,20,34,,62,39,13,16,9,7,0.6,0.6
2024-10-12T2200,2578A,104.89,26.5939,六盘水市,水钢,,21,21,23,3,15,17,,69,48,31,11,13,6,1.8,0.5
2024-10-12T2200,2579A,104.8475,26.5894,六盘水市,民中,,11,10,22,3,17,25,,65,44,21,15,7,7,0.7,0.6
2024-10-12T2200,2580A,104.9544,26.5506,六盘水市,双水,,10,9,21,3,14,24,,74,54,19,9,8,6,0.6,0.5
2024-10-12T2200,2336A,117.0217,25.1033,龙岩市,龙岩市监测站,,41,41,33,27,23,42,,130,96,38,20,4,6,0.6,0.6
2024-10-12T2200,2337A,117.0258,25.0661,龙岩市,闽西职业技术学院,颗粒物(PM10),52,54,52,24,26,48,,136,97,41,21,8,5,0.4,0.5
2024-10-12T2200,2338A,117.0196,25.0306,龙岩市,龙岩学院,,25,22,38,17,28,74,,139,111,14,15,2,3,0.4,0.5
2024-10-12T2200,2885A,104.9339,33.3826,陇南市,滨江中学,,38,38,34,19,13,44,,73,66,18,12,5,5,0.7,0.5
2024-10-12T2200,3247A,104.955,33.371,陇南市,市总工会,,31,31,26,7,5,64,,78,76,9,9,4,4,0.5,0.5
2024-10-12T2200,2487A,111.9589,27.8901,娄底市,电视发射台,细颗粒物(PM2.5),132,121,82,100,58,135,,150,144,16,11,11,10,0.8,0.6
2024-10-12T2200,2488A,111.9975,27.725,娄底市,市监测站,,,,101,,76,,,156,153,,18,12,12,0.8,0.7
2024-10-12T2200,2489A,112.0194,27.7314,娄底市,市委党校,细颗粒物(PM2.5),195,190,113,146,79,114,,146,135,17,15,9,8,0.9,0.8
2024-10-12T2200,2490A,111.9561,27.7569,娄底市,涟钢,细颗粒物(PM2.5),175,164,109,132,79,102,,125,116,22,22,12,14,0.5,0.5
2024-10-12T2200,2491A,111.9892,27.7044,娄底市,市政府,细颗粒物(PM2.5),203,170,103,153,77,119,,149,140,21,19,10,8,0.8,0.7
2024-10-12T2200,1893A,105.4324,28.9634,泸州市,九狮山,,39,39,32,16,21,5,,31,20,28,23,5,4,0.6,0.5
2024-10-12T2200,1894A,105.4427,28.9063,泸州市,小市上码头,,31,31,17,12,9,8,,36,30,46,21,4,4,0.6,0.5
2024-10-12T2200,1895A,105.4241,28.8573,泸州市,兰田宪桥,,20,18,10,14,7,13,,44,30,26,11,4,4,0.6,0.5
2024-10-12T2200,1896A,105.4379,28.8833,泸州市,市环监站,,25,23,13,17,12,10,,37,25,38,20,4,4,0.6,0.5
2024-10-12T2200,3490A,105.3617,28.7703,泸州市,纳溪区环保局,,28,28,16,17,11,5,,36,21,32,24,5,6,0.7,0.5
2024-10-12T2200,2183A,111.1406,37.5211,吕梁市,环保局,颗粒物(PM10),58,66,74,33,25,69,,102,82,28,34,3,4,0.7,0.6
2024-10-12T2200,2185A,111.1297,37.5136,吕梁市,自来水公司,颗粒物(PM10),51,51,82,31,24,82,,104,89,25,35,1,5,0.7,0.6
2024-10-12T2200,2867A,111.1283,37.51,吕梁市,马茂庄小学,颗粒物(PM10),54,57,85,33,26,94,,94,84,21,40,1,5,0.5,0.5
2024-10-12T2200,1812A,112.3931,34.6516,洛阳市,市委党校,细颗粒物(PM2.5),160,158,160,122,118,17,,77,64,57,63,4,7,1.0,1
2024-10-12T2200,1814A,112.4657,34.6871,洛阳市,豫西宾馆,细颗粒物(PM2.5),170,167,158,129,107,25,,87,66,60,62,4,8,1.3,1.1
2024-10-12T2200,1815A,112.494,34.6886,洛阳市,河南林校,细颗粒物(PM2.5),199,182,153,149,120,8,,84,63,80,61,4,8,1.2,0.9
2024-10-12T2200,1816A,112.3844,34.623,洛阳市,开发区管委会,细颗粒物(PM2.5),156,152,153,119,116,12,,62,40,51,50,6,6,0.8,0.8
2024-10-12T2200,1817A,112.4267,34.6258,洛阳市,市委新办公区,细颗粒物(PM2.5),143,158,163,109,114,24,,64,46,52,51,4,6,0.8,0.8
2024-10-12T2200,3340A,112.6005,34.6326,洛阳市,伊滨,细颗粒物(PM2.5),210,,138,160,116,11,,70,50,56,55,3,6,1.3,1.1
2024-10-12T2200,3341A,112.4951,34.6332,洛阳市,中移产业园,细颗粒物(PM2.5),188,183,157,141,115,20,,68,47,65,66,7,8,1.2,1.2
2024-10-12T2200,3593A,112.5736,34.8993,洛阳市,吉利监测站,细颗粒物(PM2.5),107,107,123,80,82,27,,75,57,44,57,3,4,0.7,0.9
2024-10-12T2200,3635A,112.3677,34.662,洛阳市,河科大西苑校区,细颗粒物(PM2.5),135,173,173,103,101,5,,81,62,83,64,6,10,1.2,1.1
2024-10-12T2200,3636A,112.4388,34.6781,洛阳市,英才小学,细颗粒物(PM2.5),138,183,181,105,92,11,,78,65,71,70,5,8,1.3,1.1
2024-10-12T2200,2399A,114.051,33.5699,漯河市,三五一五工厂,细颗粒物(PM2.5),140,181,162,107,87,108,,158,135,37,36,13,10,0.8,0.8
2024-10-12T2200,2400A,114.0055,33.5698,漯河市,漯河大学,细颗粒物(PM2.5),128,165,163,97,87,129,,164,147,24,34,7,7,0.6,0.6
2024-10-12T2200,2401A,114.0138,33.5828,漯河市,市水利局,细颗粒物(PM2.5),132,171,159,100,79,125,,161,142,22,26,8,8,0.7,0.7
2024-10-12T2200,2402A,114.0261,33.5698,漯河市,市广电局,细颗粒物(PM2.5),137,168,155,104,88,118,,162,141,28,32,8,8,0.8,0.7
2024-10-12T2200,3478A,113.9749,33.5664,漯河市,市图书馆,细颗粒物(PM2.5),125,173,162,95,84,112,,163,141,28,31,7,8,0.8,0.7
2024-10-12T2200,3479A,114.0967,33.5906,漯河市,召陵区卫健委,细颗粒物(PM2.5),144,201,171,110,93,105,,161,134,32,35,10,12,0.5,0.5
2024-10-12T2200,1798A,118.5092,31.6837,马鞍山市,湖东路四小,颗粒物(PM10),56,62,65,39,41,111,,152,141,29,30,7,9,0.8,0.8
2024-10-12T2200,1799A,118.5024,31.6449,马鞍山市,开发区,细颗粒物(PM2.5),64,71,75,46,51,108,,149,130,29,31,7,9,0.7,0.8
2024-10-12T2200,1800A,118.5228,31.7231,马鞍山市,慈湖,颗粒物(PM10),54,57,62,33,47,111,,158,149,17,19,8,10,0.8,0.8
2024-10-12T2200,1802A,118.6245,31.7241,马鞍山市,濮塘,细颗粒物(PM2.5),58,60,63,41,51,110,,159,150,22,21,6,6,0.7,0.7
2024-10-12T2200,3633A,118.4918,31.6809,马鞍山市,雨山,颗粒物(PM10),56,61,61,32,39,113,,147,138,19,21,4,6,0.9,0.9
2024-10-12T2200,1686A,111.0286,21.4688,茂名市,电白南海,,47,46,51,22,23,148,,148,146,13,14,10,12,0.7,0.8
2024-10-12T2200,1687A,110.9294,21.6533,茂名市,茂石化七小,颗粒物(PM10),52,53,50,27,27,136,,139,136,10,11,8,10,0.8,0.8
2024-10-12T2200,1688A,110.9107,21.6687,茂名市,健康路,,48,48,43,22,22,147,,148,146,8,8,10,12,0.7,0.7
2024-10-12T2200,1689A,110.8592,21.6828,茂名市,高岭,颗粒物(PM10),51,51,62,27,29,140,,138,134,10,13,8,11,0.6,0.7
2024-10-12T2200,3450A,111.01,21.5165,茂名市,电白水东,,44,44,43,24,25,140,,141,140,8,10,9,10,0.7,0.7
2024-10-12T2200,2539A,104.0308,30.0478,眉山市,黑龙滩水库,,35,33,33,24,22,46,,86,74,5,3,5,5,0.6,0.6
2024-10-12T2200,2540A,103.8416,30.0874,眉山市,气象局,,38,38,24,24,20,39,,68,62,26,18,6,5,0.6,0.5
2024-10-12T2200,3137A,103.8578,30.0744,眉山市,市委党校,,34,34,24,19,15,32,,61,59,38,21,6,6,0.7,0.6
2024-10-12T2200,3148A,103.8291,30.0564,眉山市,区人社局,,33,33,34,19,17,36,,55,55,34,26,7,8,0.7,0.7
2024-10-12T2200,1690A,116.1231,24.3284,梅州市,梅江月梅,,46,46,40,24,29,50,,141,93,31,16,7,10,0.7,0.7
2024-10-12T2200,1691A,116.0797,24.2719,梅州市,梅县新城,颗粒物(PM10),64,78,45,25,26,37,,138,90,39,23,5,7,0.8,0.7
2024-10-12T2200,1692A,116.1248,24.2654,梅州市,环境监控中心,颗粒物(PM10),59,68,47,22,24,23,,128,76,56,27,6,11,0.8,0.7
2024-10-12T2200,3315A,116.1233,24.2991,梅州市,梅龙,,35,31,36,24,25,71,,135,100,17,11,11,12,0.7,0.7
2024-10-12T2200,1878A,104.7778,31.4741,绵阳市,富乐山,,35,28,24,24,22,23,,75,48,10,9,2,2,0.5,0.5
2024-10-12T2200,1879A,104.7563,31.4535,绵阳市,市人大,,35,34,30,24,20,31,,72,59,31,19,8,9,0.6,0.6
2024-10-12T2200,1880A,104.6697,31.4668,绵阳市,高新区自来水公司,,40,40,32,17,18,22,,77,60,40,16,3,3,0.7,0.6
2024-10-12T2200,1881A,104.7287,31.5075,绵阳市,三水厂,,45,32,22,31,24,16,,84,64,41,15,6,6,0.7,0.6
2024-10-12T2200,3491A,104.69,31.5322,绵阳市,西科大附属小学,,,38,25,30,20,,,77,70,45,16,2,2,0.5,0.4
2024-10-12T2200,3492A,104.5648,31.5343,绵阳市,安州区旅游局,,39,28,22,27,22,49,,89,72,17,11,10,9,0.6,0.5
2024-10-12T2200,1784A,129.61,44.561,牡丹江市,环保大楼,颗粒物(PM10),54,58,35,35,21,4,,72,35,51,26,8,7,0.7,0.5
2024-10-12T2200,1785A,129.6115,44.5782,牡丹江市,文化广场,颗粒物(PM10),71,92,51,47,27,2,,69,33,54,32,16,10,1.0,0.6
2024-10-12T2200,1786A,129.5904,44.5963,牡丹江市,第一医院,,45,45,40,30,27,23,,74,42,33,23,10,8,0.5,0.4
2024-10-12T2200,1787A,129.6364,44.6075,牡丹江市,机车工厂,颗粒物(PM10),68,86,52,31,27,10,,75,46,37,19,14,30,0.6,0.5
2024-10-12T2200,1788A,129.6386,44.5462,牡丹江市,第一中学,,42,37,37,29,23,10,,78,42,40,23,6,7,0.3,0.3
2024-10-12T2200,2531A,105.0703,29.61,内江市,市监测站,,33,33,30,20,28,38,,51,44,17,20,7,6,0.4,0.4
2024-10-12T2200,2532A,105.0717,29.5947,内江市,东兴区政府,,34,34,31,15,24,45,,56,50,18,16,7,6,0.6,0.6
2024-10-12T2200,2533A,105.0653,29.5817,内江市,内江二中,,30,,37,21,32,49,,56,49,16,18,6,5,0.6,0.6
2024-10-12T2200,2534A,105.0406,29.5822,内江市,内江日报社,,34,34,34,20,31,30,,45,40,18,17,12,14,0.6,0.6
2024-10-12T2200,2628A,92.0657,31.4846,那曲市,那曲监测站,,49,49,36,32,23,57,,103,94,22,12,9,6,0.9,0.6
2024-10-12T2200,3128A,92.0506,31.4797,那曲市,那曲会议中心,,50,50,47,13,17,81,,114,109,11,15,3,3,0.4,0.5
2024-10-12T2200,1290A,115.8931,28.6843,南昌市,省外办,细颗粒物(PM2.5),85,91,61,63,42,107,,162,150,27,25,11,11,0.7,0.7
2024-10-12T2200,1291A,115.8886,28.7003,南昌市,省林业公司,颗粒物(PM10),76,102,74,53,40,76,,169,148,48,32,8,9,0.5,0.8
2024-10-12T2200,1292A,115.8126,28.7442,南昌市,林科所,,48,48,53,31,30,146,,173,155,23,27,8,10,0.6,0.6
2024-10-12T2200,1294A,115.8518,28.687,南昌市,建工学校,颗粒物(PM10),67,83,69,45,37,107,,168,154,41,26,10,11,0.6,0.5
2024-10-12T2200,1295A,115.8921,28.6424,南昌市,象湖,颗粒物(PM10),60,69,65,42,39,138,,184,173,34,33,9,10,0.8,0.7
2024-10-12T2200,1296A,115.7423,28.7996,南昌市,武术学校,,38,26,24,26,26,61,,131,93,20,17,1,2,0.5,0.5
2024-10-12T2200,1298A,115.9314,28.6842,南昌市,省站,细颗粒物(PM2.5),75,67,71,55,44,104,,157,146,32,23,10,11,0.8,0.7
2024-10-12T2200,3046A,115.9084,28.6062,南昌市,机电学校,颗粒物(PM10),72,93,83,46,40,111,,176,155,42,41,11,15,0.6,0.7
2024-10-12T2200,3690A,115.9721,28.7031,南昌市,外国语学校,颗粒物(PM10),66,82,69,42,38,125,,162,152,26,23,8,9,0.7,0.6
2024-10-12T2200,1905A,106.056,30.8064,南充市,西山风景区,,25,18,20,17,18,65,,61,60,11,10,1,1,0.7,0.5
2024-10-12T2200,1906A,106.0789,30.8023,南充市,南充市委,,23,18,27,16,23,69,,67,67,21,17,2,2,0.6,0.6
2024-10-12T2200,1907A,106.1031,30.8217,南充市,南充炼油厂,,31,31,37,10,24,70,,68,68,15,13,2,2,0.6,0.6
2024-10-12T2200,1908A,106.1064,30.7856,南充市,高坪区监测站,,25,24,29,17,23,60,,65,65,23,17,4,5,0.7,0.5
2024-10-12T2200,1909A,106.0642,30.7636,南充市,嘉陵区环保局,,34,34,32,17,23,50,,54,53,32,22,1,2,0.7,0.6
2024-10-12T2200,1910A,106.1087,30.8388,南充市,市环境监测站,,28,28,28,15,26,66,,72,71,14,11,2,2,0.4,0.3
2024-10-12T2200,1151A,118.8086,32.1065,南京市,迈皋桥,颗粒物(PM10),59,68,72,39,47,78,,167,140,42,27,4,4,0.5,0.6
2024-10-12T2200,1152A,118.7538,32.0551,南京市,草场门,颗粒物(PM10),51,51,70,29,46,106,,158,147,26,34,5,6,0.3,0.5
2024-10-12T2200,1153A,118.7794,32.0745,南京市,山西路,颗粒物(PM10),54,58,77,31,53,104,,169,152,15,16,3,4,0.5,0.7
2024-10-12T2200,1154A,118.7752,32.0023,南京市,中华门,颗粒物(PM10),54,58,84,34,50,110,,157,146,18,27,6,7,0.4,0.6
2024-10-12T2200,1155A,118.8109,32.0309,南京市,瑞金路,,,61,84,34,49,99,,157,136,30,41,7,7,,0.2
2024-10-12T2200,1156A,118.7997,32.0754,南京市,玄武湖,颗粒物(PM10),54,58,66,30,47,90,,149,126,40,36,6,6,0.6,0.7
2024-10-12T2200,1157A,118.6414,32.0931,南京市,浦口,细颗粒物(PM2.5),59,65,67,42,47,83,,152,136,32,27,6,6,0.6,0.7
2024-10-12T2200,1158A,118.7356,31.9996,南京市,奥体中心,细颗粒物(PM2.5),58,55,84,41,54,114,,168,156,20,30,6,7,0.4,0.6
2024-10-12T2200,1159A,118.9125,32.1028,南京市,仙林大学城,颗粒物(PM10),54,58,81,36,54,108,,176,152,20,22,5,7,0.6,0.7
2024-10-12T2200,3422A,118.8436,31.9198,南京市,江宁彩虹桥,,50,50,69,31,51,101,,161,140,18,29,4,5,0.5,0.7
2024-10-12T2200,3423A,119.0138,31.6494,南京市,溧水永阳,颗粒物(PM10),58,66,73,38,38,74,,149,129,34,28,4,4,0.6,0.7
2024-10-12T2200,3424A,118.879,31.3302,南京市,高淳老职中,细颗粒物(PM2.5),54,,53,38,40,133,,149,144,20,20,5,6,0.5,0.5
2024-10-12T2200,3427A,118.8554,32.3578,南京市,六合雄州,细颗粒物(PM2.5),67,62,81,48,57,94,,154,127,20,37,5,5,0.5,0.6
2024-10-12T2200,1401A,108.3103,22.7881,南宁市,二十一中,细颗粒物(PM2.5),52,51,60,36,39,147,,149,,17,27,5,5,0.9,1.1
2024-10-12T2200,1403A,108.3206,22.8225,南宁市,市监测站,颗粒物(PM10),57,63,59,37,39,133,,139,132,20,24,12,16,0.9,0.8
2024-10-12T2200,1404A,108.3829,22.8037,南宁市,大自然花园,细颗粒物(PM2.5),57,61,56,40,40,123,,139,131,19,21,6,8,0.8,0.8
2024-10-12T2200,1405A,108.4394,22.7904,南宁市,仙葫,细颗粒物(PM2.5),64,60,63,46,52,127,,127,123,12,34,5,7,0.8,0.8
2024-10-12T2200,1406A,108.2397,22.8467,南宁市,区农职院,颗粒物(PM10),58,65,63,36,37,135,,144,126,18,23,8,15,0.9,0.8
2024-10-12T2200,1407A,108.3275,22.735,南宁市,英华嘉园,细颗粒物(PM2.5),53,54,65,37,41,122,,136,127,31,41,7,7,0.9,0.8
2024-10-12T2200,1408A,108.2257,22.7757,南宁市,沙井镇街道办,颗粒物(PM10),77,103,81,36,42,83,,136,104,52,47,4,7,1.0,0.9
2024-10-12T2200,3401A,108.4834,22.7618,南宁市,红星社区,颗粒物(PM10),51,52,58,34,42,127,,134,121,13,28,5,5,0.7,0.8
2024-10-12T2200,2332A,118.1681,26.6369,南平市,南平市监测站,,32,32,34,19,23,46,,113,79,17,11,3,4,0.7,0.5
2024-10-12T2200,2333A,118.1825,26.6489,南平市,南平铝业有限公司,,38,34,37,26,25,31,,113,77,29,14,6,5,0.6,0.6
2024-10-12T2200,2334A,118.1756,26.6272,南平市,南平七中,,28,22,35,19,22,56,,117,89,11,8,2,4,0.5,0.5
2024-10-12T2200,1168A,120.9098,31.9663,南通市,狼山街道,,50,45,67,35,51,98,,149,134,21,20,6,6,0.5,0.6
2024-10-12T2200,1169A,120.86,32.0005,南通市,虹桥,,39,35,64,27,49,105,,146,132,15,18,7,7,0.5,0.6
2024-10-12T2200,1170A,120.87,32.02,南通市,城中,,50,50,76,28,50,102,,148,137,25,28,9,7,0.8,0.8
2024-10-12T2200,1171A,120.94,31.93,南通市,星湖花园,,48,45,64,33,48,95,,142,126,22,22,6,6,0.7,0.8
2024-10-12T2200,1172A,120.81,32.0417,南通市,紫琅学院,,48,48,66,8,51,85,,138,120,27,34,7,8,0.7,0.8
2024-10-12T2200,3291A,121.067,32.062,南通市,通州监测站,,44,44,60,24,42,112,,154,137,9,13,2,3,0.7,0.8
2024-10-12T2200,3432A,120.9348,31.9883,南通市,环境教育馆,,36,36,72,24,49,94,,151,133,22,32,3,4,0.6,0.7
2024-10-12T2200,2404A,112.5224,33.0122,南阳市,瓦房庄,细颗粒物(PM2.5),73,77,108,53,79,88,,107,95,22,28,5,7,0.6,0.8
2024-10-12T2200,2405A,112.5003,32.9735,南阳市,汉画馆,细颗粒物(PM2.5),87,87,110,64,81,80,,93,75,25,32,8,9,0.7,0.8
2024-10-12T2200,2406A,112.5573,33.027,南阳市,气象站,细颗粒物(PM2.5),79,80,113,58,76,75,,114,98,25,31,6,8,0.7,0.8
2024-10-12T2200,2407A,112.5481,32.9689,南阳市,理工学院,细颗粒物(PM2.5),83,91,111,61,80,78,,107,90,27,31,7,9,0.8,0.9
2024-10-12T2200,4008A,112.5234,32.9922,南阳市,卧龙区政府,细颗粒物(PM2.5),69,80,112,50,73,98,,97,84,22,36,6,7,0.7,0.8
2024-10-12T2200,1234A,121.8358,29.911,宁波市,区环保大楼,,37,23,39,11,26,21,,115,71,74,43,8,7,0.8,0.9
2024-10-12T2200,1235A,121.56,29.82,宁波市,万里学院,,43,43,52,24,36,32,,132,86,64,48,6,7,0.6,0.7
2024-10-12T2200,1236A,121.713,29.9572,宁波市,龙赛医院,,40,35,54,13,27,17,,121,76,80,51,14,10,0.9,0.8
2024-10-12T2200,1239A,121.633,29.7733,宁波市,钱湖水厂,,22,14,53,6,35,68,,135,104,14,27,8,9,0.5,0.7
2024-10-12T2200,1240A,121.5856,29.8635,宁波市,太古小学,,42,42,55,21,32,37,,123,89,54,52,8,8,1.1,1
2024-10-12T2200,1241A,121.524,29.8674,宁波市,市环境监测中心,,30,30,73,18,28,51,,132,100,40,45,7,8,0.7,0.7
2024-10-12T2200,2871A,121.6147,29.9017,宁波市,万里国际学校,,49,49,75,18,34,50,,127,93,48,54,8,9,0.7,0.9
2024-10-12T2200,3710A,121.5594,29.8975,宁波市,白沙活动中心,,44,44,57,16,39,22,,131,90,73,45,9,9,0.5,0.6
2024-10-12T2200,2341A,119.5388,26.6612,宁德市,宁德市监测站,,41,41,41,27,29,57,,120,93,16,17,2,3,0.7,0.7
2024-10-12T2200,3209A,119.5231,26.6562,宁德市,宁德一中,,45,34,40,31,29,54,,122,90,12,11,1,2,0.5,0.5
2024-10-12T2200,2618A,98.8601,25.8567,怒江傈僳族自治州,州监测站,,25,25,31,11,21,37,,66,62,13,11,8,9,0.3,0.4
2024-10-12T2200,2619A,98.8546,25.8417,怒江傈僳族自治州,泸水一中,,18,15,27,12,14,30,,58,54,15,14,6,6,0.4,0.4
2024-10-12T2200,1888A,101.6891,26.571,攀枝花市,弄弄坪,颗粒物(PM10),63,76,55,30,27,22,,84,66,49,29,12,14,1.1,1
2024-10-12T2200,1889A,101.5769,26.5928,攀枝花市,河门口,,32,32,42,20,25,32,,87,60,18,20,6,11,0.8,1.1
2024-10-12T2200,1890A,101.7169,26.585,攀枝花市,炳草岗,颗粒物(PM10),64,77,42,42,23,10,,90,66,64,28,20,14,1.1,0.7
2024-10-12T2200,1891A,101.7369,26.5008,攀枝花市,仁和,,41,41,34,26,18,25,,85,62,23,17,6,7,0.4,0.5
2024-10-12T2200,2835A,101.7227,26.567,攀枝花市,四十中小,,42,42,31,25,20,26,,90,78,24,19,24,9,1.2,0.8
2024-10-12T2200,1604A,122.0303,41.1489,盘锦市,开发区,细颗粒物(PM2.5),120,108,49,91,32,7,,89,66,92,28,5,4,1.2,0.6
2024-10-12T2200,1605A,122.0485,41.0883,盘锦市,兴隆台,细颗粒物(PM2.5),80,60,49,59,32,14,,80,54,91,40,7,10,0.8,0.5
2024-10-12T2200,1606A,121.8297,41.1028,盘锦市,新生街道,细颗粒物(PM2.5),55,,32,39,21,17,,99,74,81,25,9,10,0.6,0.4
2024-10-12T2200,1832A,113.3257,33.742,平顶山市,新华旅馆,颗粒物(PM10),112,174,188,71,84,62,,118,87,64,72,8,9,0.7,0.8
2024-10-12T2200,1833A,113.2919,33.737,平顶山市,规划设计院,细颗粒物(PM2.5),118,156,205,89,112,71,,126,79,51,68,9,9,1.0,1
2024-10-12T2200,1834A,113.182,33.774,平顶山市,平顶山工学院,颗粒物(PM10),125,199,194,92,112,46,,115,88,55,61,8,9,0.9,0.9
2024-10-12T2200,3204A,113.3025,33.73,平顶山市,规划局,细颗粒物(PM2.5),127,178,214,96,120,78,,128,79,42,69,8,8,1.0,1.2
2024-10-12T2200,3594A,112.8867,33.9116,平顶山市,石龙区,颗粒物(PM10),105,159,243,52,109,0,,98,46,105,92,14,21,0.8,1.1
2024-10-12T2200,2656A,106.6692,35.5461,平凉市,聚贤嘉苑,细颗粒物(PM2.5),60,53,58,43,30,50,,82,77,36,35,6,8,0.3,0.4
2024-10-12T2200,2657A,106.7021,35.5307,平凉市,博物馆,细颗粒物(PM2.5),87,97,74,64,40,50,,87,80,58,47,8,10,1.1,0.6
2024-10-12T2200,2347A,114.0997,27.5002,萍乡市,武功山,,46,42,31,32,21,103,,143,135,9,7,8,8,0.5,0.4
2024-10-12T2200,2348A,113.8385,27.6434,萍乡市,中医院,细颗粒物(PM2.5),85,81,70,63,43,130,,155,147,18,19,22,31,0.9,0.8
2024-10-12T2200,2349A,113.8493,27.6253,萍乡市,市政府车库,细颗粒物(PM2.5),83,81,65,61,49,120,,154,144,18,19,26,26,1.1,1.1
2024-10-12T2200,2350A,113.8676,27.6435,萍乡市,市环保局,细颗粒物(PM2.5),79,85,70,58,47,124,,144,136,13,18,26,29,0.6,0.5
2024-10-12T2200,2351A,113.866,27.6198,萍乡市,安源区政府,细颗粒物(PM2.5),83,99,74,61,41,97,,156,141,47,27,77,26,0.8,0.7
2024-10-12T2200,2319A,119.0141,25.4325,莆田市,荔城区仓后路,,26,24,37,10,18,82,,124,96,7,5,3,2,0.5,0.5
2024-10-12T2200,2320A,119.0015,25.4553,莆田市,莆田市监测站,,28,23,29,14,18,87,,130,99,5,4,3,1,0.6,0.5
2024-10-12T2200,2321A,119.1119,25.4561,莆田市,涵江区六中,颗粒物(PM10),54,57,34,14,16,76,,123,102,9,4,1,1,0.4,0.4
2024-10-12T2200,2322A,119.1013,25.3215,莆田市,秀屿区政府,,27,27,36,13,19,85,,116,96,2,4,2,2,0.3,0.4
2024-10-12T2200,2392A,115.0312,35.7636,濮阳市,环保局,细颗粒物(PM2.5),114,129,101,86,73,81,,136,123,48,37,4,6,0.8,0.7
2024-10-12T2200,2394A,115.0574,35.7609,濮阳市,油田运输公司,细颗粒物(PM2.5),100,144,122,75,76,85,,166,129,43,40,4,7,0.7,0.6
2024-10-12T2200,2395A,115.0866,35.7754,濮阳市,油田物探公司,细颗粒物(PM2.5),104,133,125,78,79,92,,158,132,43,33,3,6,0.7,0.6
2024-10-12T2200,3021A,115,35.7668,濮阳市,濮水河管理处,细颗粒物(PM2.5),108,145,121,81,72,60,,143,109,42,31,2,3,0.8,0.7
2024-10-12T2200,2601A,100.98,22.7633,普洱市,市环保局,,28,28,23,18,11,36,,58,51,8,5,3,4,0.6,0.5
2024-10-12T2200,2602A,100.9817,22.8322,普洱市,普洱第二中学,,40,40,27,16,12,33,,64,54,10,7,5,5,0.6,0.5
2024-10-12T2200,2262A,131.0518,45.8751,七台河市,新一中,,22,14,16,6,8,68,,84,78,8,8,9,9,1.0,1.1
2024-10-12T2200,3345A,131.0577,45.7879,七台河市,中波台,,45,45,33,16,11,24,,66,44,45,22,8,8,0.9,0.8
2024-10-12T2200,3637A,131.0176,45.7761,七台河市,人民广场,,39,39,38,22,21,23,,65,37,40,26,6,8,0.9,0.8
2024-10-12T2200,3684A,130.8781,45.8222,七台河市,新建矿广场,颗粒物(PM10),54,58,41,32,25,21,,63,42,38,20,8,7,1.0,0.5
2024-10-12T2200,1779A,123.9305,47.3636,齐齐哈尔市,安居小区,,29,29,23,9,7,40,,57,46,23,14,10,9,0.5,0.4
2024-10-12T2200,1780A,123.9488,47.3386,齐齐哈尔市,中心广场,,33,23,27,23,17,43,,54,48,16,13,6,2,0.2,0.2
2024-10-12T2200,1781A,123.9483,47.3227,齐齐哈尔市,农牧车辆厂,,16,12,25,3,5,49,,36,,10,12,4,5,0.2,0.6
2024-10-12T2200,1783A,123.945,47.2988,齐齐哈尔市,市环境监测站,,17,12,17,6,5,54,,63,61,8,10,8,9,0.2,0.3
2024-10-12T2200,3662A,123.6333,47.2075,齐齐哈尔市,富区青少年活动中心,,27,27,31,3,12,46,,59,53,11,14,4,10,0.3,0.5
2024-10-12T2200,2591A,107.9783,26.5747,黔东南苗族侗族自治州,市环境监测站,细颗粒物(PM2.5),82,73,61,60,48,88,,106,88,12,19,6,7,0.7,0.6
2024-10-12T2200,2881A,107.8908,26.5311,黔东南苗族侗族自治州,凯里学院,细颗粒物(PM2.5),68,61,53,49,40,96,,116,103,13,13,6,7,0.7,0.7
2024-10-12T2200,2593A,107.5228,26.2403,黔南布依族苗族自治州,小围寨,细颗粒物(PM2.5),70,68,42,51,32,65,,123,107,20,13,5,6,0.7,0.6
2024-10-12T2200,3538A,107.5175,26.2978,黔南布依族苗族自治州,沙坝,细颗粒物(PM2.5),79,86,54,58,35,33,,111,90,34,14,5,5,0.7,0.6
2024-10-12T2200,2589A,104.9022,25.0925,黔西南布依族苗族自治州,场坝街,细颗粒物(PM2.5),54,50,38,38,30,81,,78,78,6,7,3,3,0.3,0.3
2024-10-12T2200,2590A,104.8811,25.0992,黔西南布依族苗族自治州,坪东大道,,,73,41,43,35,78,,74,74,,7,2,7,0.4,0.4
2024-10-12T2200,2502A,108.6236,21.9667,钦州市,市环保站,颗粒物(PM10),57,63,74,31,39,82,,154,133,47,25,10,11,0.9,0.9
2024-10-12T2200,2503A,108.6549,21.9481,钦州市,沙埠小学,颗粒物(PM10),75,99,89,43,44,33,,159,124,69,38,8,9,0.9,0.9
2024-10-12T2200,2504A,108.5989,21.7431,钦州市,港区一小,颗粒物(PM10),88,125,81,39,40,63,,149,122,54,28,11,8,1.2,0.9
2024-10-12T2200,3404A,108.5959,21.9633,钦州市,北职校,颗粒物(PM10),54,57,72,34,46,85,,156,130,27,24,7,9,0.8,0.9
2024-10-12T2200,1042A,119.5134,39.8207,秦皇岛市,北戴河环保局,颗粒物(PM10),60,69,74,37,39,34,,79,79,47,25,2,5,0.6,0.8
2024-10-12T2200,1043A,119.7493,40.0116,秦皇岛市,第一关,细颗粒物(PM2.5),74,86,72,54,38,16,,84,56,78,45,4,6,0.7,0.5
2024-10-12T2200,1044A,119.5897,39.9499,秦皇岛市,监测站,细颗粒物(PM2.5),67,79,70,48,39,0,,82,61,88,44,3,12,0.8,0.7
2024-10-12T2200,1046A,119.5251,39.9041,秦皇岛市,建设大厦,颗粒物(PM10),81,111,84,50,34,0,,82,55,72,41,2,7,0.7,0.7
2024-10-12T2200,3132A,119.610547,39.943889,秦皇岛市,文明里,颗粒物(PM10),80,110,83,36,30,2,,90,76,97,33,3,8,0.9,0.7
2024-10-12T2200,1307A,120.6659,36.2403,青岛市,仰口,细颗粒物(PM2.5),54,50,57,38,39,139,,149,149,7,11,7,7,0.8,0.9
2024-10-12T2200,1310A,120.4134,36.0658,青岛市,市南区东部子站,颗粒物(PM10),54,58,59,34,28,146,,153,152,8,9,6,7,0.5,0.5
2024-10-12T2200,1311A,120.3664,36.1032,青岛市,四方区子站,颗粒物(PM10),63,75,66,34,34,150,,159,157,20,31,9,10,0.5,0.6
2024-10-12T2200,1312A,120.2994,36.054,青岛市,市南区西部子站,颗粒物(PM10),53,56,55,27,25,157,,159,159,9,11,9,9,0.7,0.7
2024-10-12T2200,1313A,120.4581,36.0858,青岛市,崂山区子站,臭氧1小时,57,56,54,24,27,165,,173,173,14,18,8,9,0.6,0.6
2024-10-12T2200,1314A,120.1983,35.9608,青岛市,黄岛区子站,颗粒物(PM10),54,58,55,34,35,162,,156,156,10,17,9,9,0.6,0.7
2024-10-12T2200,1315A,120.3999,36.3083,青岛市,城阳区子站,颗粒物(PM10),75,100,73,51,38,102,,161,148,45,35,8,8,0.9,0.8
2024-10-12T2200,1966A,120.0405,35.8735,青岛市,黄岛区4号,臭氧1小时,57,58,72,31,43,165,,167,162,11,23,6,7,0.6,0.7
2024-10-12T2200,3362A,120.5014,36.4034,青岛市,即墨2号,颗粒物(PM10),58,65,71,28,28,153,,161,160,14,16,7,7,0.6,0.6
2024-10-12T2200,3642A,120.3503,36.0736,青岛市,市北区南部,颗粒物(PM10),51,52,52,31,28,145,,147,146,18,19,8,8,0.7,0.7
2024-10-12T2200,3643A,120.3948,36.1805,青岛市,李沧区北部,颗粒物(PM10),69,88,72,36,38,134,,160,153,33,30,9,10,0.8,0.8
2024-10-12T2200,1702A,113.0426,23.691,清远市,环保大楼,细颗粒物(PM2.5),63,57,40,45,37,64,,135,107,30,22,4,6,1.0,0.9
2024-10-12T2200,1703A,113.0208,23.7106,清远市,凤城街办,,41,41,41,24,30,96,,143,126,14,14,10,11,0.7,0.7
2024-10-12T2200,3025A,113.0477,23.6344,清远市,技师学院,颗粒物(PM10),54,58,54,36,29,61,,137,114,29,27,9,13,0.7,0.6
2024-10-12T2200,3318A,112.9903,23.7403,清远市,清新太和,,38,38,44,22,26,116,,153,138,6,14,6,5,0.7,0.7
