timepoint,stationcode,longitude,latitude,area,positionname,primarypollutant,aqi,pm10,pm10_24h,pm2_5,pm2_5_24h,o3,o3_24h,o3_8h,o3_8h_24h,no2,no2_24h,so2,so2_24h,co,co_24h
2024-10-12T2100,2566A,102.1879,31.914,阿坝藏族羌族自治州,州农科所,,23,23,20,6,8,37,,60,57,14,11,7,8,0,0
2024-10-12T2100,2568A,102.2502,31.8896,阿坝藏族羌族自治州,马师校,,24,24,16,14,15,30,,72,67,19,10,4,4,0.3,0.3
2024-10-12T2100,3994A,102.2165,31.9024,阿坝藏族羌族自治州,马尔康中学西区,,28,25,18,19,15,40,,66,63,8,11,4,5,0.4,0.4
2024-10-12T2100,2695A,80.292,41.1694,阿克苏地区,电视台,颗粒物(PM10),114,177,105,62,36,32,,93,90,85,25,5,5,1.1,0.6
2024-10-12T2100,2696A,80.2613,41.1551,阿克苏地区,艺术中心,颗粒物(PM10),105,160,103,42,36,20,,89,84,79,32,5,4,1.4,0.8
2024-10-12T2100,2204A,105.6467,38.8363,阿拉善盟,西城区西花园,,36,33,32,25,20,58,,100,92,27,11,7,8,1.4,1.2
2024-10-12T2100,2205A,105.6985,38.8411,阿拉善盟,蒙二幼,,30,30,37,20,15,62,,92,83,19,13,8,8,0.9,0.8
2024-10-12T2100,2206A,105.724,38.8516,阿拉善盟,环保局新楼,,24,24,28,13,13,76,,95,90,9,10,8,9,0.9,0.9
2024-10-12T2100,2708A,88.1264,47.8517,阿勒泰地区,市站,,21,20,21,3,7,65,,72,63,23,16,7,7,0.4,0.3
2024-10-12T2100,2630A,80.1161,32.5,阿里地区,阿里监测站,,,6,15,3,7,,,117,117,7,14,7,5,0.4,0.5
2024-10-12T2100,3192A,80.0903,32.5028,阿里地区,阿里藏医院,,35,11,15,3,4,112,,113,113,5,9,5,7,0.5,0.6
2024-10-12T2100,2642A,109.0318,32.6537,安康市,香溪洞,,26,22,30,18,20,65,,47,47,5,11,7,8,0.3,0.4
2024-10-12T2100,2643A,109.0281,32.6939,安康市,安康市监测站,,41,41,36,26,23,78,,53,53,8,16,10,12,0.7,0.6
2024-10-12T2100,2644A,109.0072,32.6975,安康市,汉滨区检察院,,35,35,37,24,23,88,,64,64,7,15,7,9,0.4,0.5
2024-10-12T2100,2291A,117.0809,30.5177,安庆市,环科院,细颗粒物(PM2.5),94,,71,70,47,126,,172,164,22,24,10,11,0.6,0.6
2024-10-12T2100,2292A,117.0331,30.5119,安庆市,马山宾馆,细颗粒物(PM2.5),88,,67,65,45,131,,177,168,24,26,12,12,0.6,0.6
2024-10-12T2100,2294A,116.9896,30.6145,安庆市,安庆大学,细颗粒物(PM2.5),84,81,69,62,46,128,,186,175,16,17,9,10,0.7,0.7
2024-10-12T2100,3173A,117.0598,30.5351,安庆市,市人大,细颗粒物(PM2.5),88,,70,65,47,119,,170,158,24,25,11,12,0.7,0.6
2024-10-12T2100,3122A,105.9606,26.2611,安顺市,伍家关,,45,36,36,31,36,95,,75,75,6,8,9,6,0.7,0.8
2024-10-12T2100,3123A,105.9408,26.2431,安顺市,凤凰山,,49,39,38,34,31,103,,83,83,7,9,10,8,0.5,0.4
2024-10-12T2100,3124A,105.9439,26.2564,安顺市,金钟山,,46,42,37,32,31,108,,88,87,6,8,14,10,0.6,0.5
2024-10-12T2100,3125A,105.8983,26.2481,安顺市,娄家坡,,48,38,39,33,33,99,,86,79,6,9,9,8,0.6,0.5
2024-10-12T2100,1818A,114.4839,36.0621,安阳市,棉研所,颗粒物(PM10),146,242,185,80,95,43,,152,132,91,73,7,9,0.7,0.7
2024-10-12T2100,1819A,114.3551,36.1017,安阳市,红庙街,细颗粒物(PM2.5),109,144,134,82,78,67,,161,146,61,52,4,6,0.8,0.9
2024-10-12T2100,1820A,114.361,36.0681,安阳市,银杏小区,细颗粒物(PM2.5),112,148,129,84,85,56,,161,141,76,51,5,7,0.7,0.9
2024-10-12T2100,3141A,114.3922,36.0878,安阳市,信访局,细颗粒物(PM2.5),127,164,149,96,89,67,,159,149,55,62,3,6,0.5,0.7
2024-10-12T2100,3669A,114.4705,36.0637,安阳市,左辅环卫站,,,,212,,113,,,51,,,95,,5,,0.8
2024-10-12T2100,3703A,114.2917,36.0949,安阳市,安钢职工学校,细颗粒物(PM2.5),102,144,131,76,70,56,,163,145,66,46,4,7,0.8,1
2024-10-12T2100,1748A,123.044,41.1196,鞍山市,深沟寺,细颗粒物(PM2.5),98,132,74,73,39,44,,95,82,41,33,7,11,1.7,1.1
2024-10-12T2100,1749A,123.011,41.0931,鞍山市,太阳城,颗粒物(PM10),96,141,80,69,42,61,,106,93,41,32,13,14,1.4,1.2
2024-10-12T2100,1750A,123.0485,41.1442,鞍山市,太平,颗粒物(PM10),106,162,97,79,46,48,,84,67,56,47,14,18,1.9,1.3
2024-10-12T2100,1751A,122.9642,41.0971,鞍山市,铁西三道街,细颗粒物(PM2.5),152,246,141,116,66,8,,85,67,101,60,9,17,2.2,1.9
2024-10-12T2100,1752A,122.9341,41.0833,鞍山市,铁西工业园区,细颗粒物(PM2.5),118,179,123,89,60,19,,92,75,83,59,11,21,1.4,1.7
2024-10-12T2100,1753A,123.022,41.0821,鞍山市,明达新区,细颗粒物(PM2.5),117,172,88,88,46,36,,97,81,56,30,9,11,1.7,1.2
2024-10-12T2100,1754A,123.1289,41.0228,鞍山市,千山,,,,47,,29,,,66,,,24,,11,,0.7
2024-10-12T2100,2195A,107.4212,40.761,巴彦淖尔市,附二中,颗粒物(PM10),57,64,70,25,28,81,,99,94,19,22,3,11,0.6,0.6
2024-10-12T2100,2196A,107.37,40.7372,巴彦淖尔市,市环保大楼,,46,46,60,17,18,81,,103,95,14,19,3,4,0.5,0.5
2024-10-12T2100,1956A,86.1472,41.7538,巴音郭楞蒙古自治州,孔雀公园,颗粒物(PM10),103,156,144,39,31,43,,81,78,59,41,,2,0.6,0.4
2024-10-12T2100,1957A,86.1972,41.7166,巴音郭楞蒙古自治州,棉纺厂,颗粒物(PM10),110,170,174,41,41,54,,84,81,35,30,1,2,0.4,0.3
2024-10-12T2100,1958A,86.2357,41.7173,巴音郭楞蒙古自治州,经济开发区,颗粒物(PM10),108,165,178,40,42,40,,85,77,44,22,2,2,0.4,0.2
2024-10-12T2100,2914A,106.7677,31.8794,巴中市,苏山坪,,29,21,23,20,17,92,,80,80,6,6,4,3,0.5,0.4
2024-10-12T2100,3182A,106.7656,31.8545,巴中市,丽阳花园,,32,28,25,22,19,69,,66,66,16,14,4,5,0.7,0.5
2024-10-12T2100,3183A,106.7418,31.8654,巴中市,圣泉水务公司,,32,25,20,22,18,70,,64,64,16,14,3,3,0.6,0.5
2024-10-12T2100,3616A,106.7616,31.8344,巴中市,市中心医院,,29,26,24,20,18,75,,64,64,11,14,4,4,0.6,0.5
2024-10-12T2100,2235A,122.7911,45.6077,白城市,洮北区环保局,,37,37,23,16,11,49,,64,56,17,16,3,3,0.6,0.7
2024-10-12T2100,2236A,122.8738,45.5725,白城市,市环保局,,29,29,22,11,8,47,,72,60,33,18,4,4,0.5,0.4
2024-10-12T2100,2231A,126.4219,41.9171,白山市,喜丰,颗粒物(PM10),100,150,92,27,25,22,,119,86,69,35,7,12,0.8,0.7
2024-10-12T2100,2232A,126.4077,41.9419,白山市,环保局,颗粒物(PM10),81,111,67,48,27,7,,92,63,60,36,10,11,1.3,0.8
2024-10-12T2100,2647A,104.1724,36.5446,白银市,第三小学,颗粒物(PM10),51,52,41,31,25,60,,73,73,33,27,19,18,1.3,1.2
2024-10-12T2100,2648A,104.1465,36.5482,白银市,动力公司,颗粒物(PM10),51,51,35,25,21,30,,76,71,36,22,5,7,0.9,1.1
2024-10-12T2100,2512A,106.6103,23.9011,百色市,市监测站,细颗粒物(PM2.5),70,78,64,51,42,126,,151,146,16,22,23,16,1.2,1
2024-10-12T2100,2513A,106.6538,23.8859,百色市,市中心血站,"颗粒物(PM10),细颗粒物(PM2.5)",67,84,80,48,46,132,,144,143,17,22,38,17,1.1,0.9
2024-10-12T2100,3406A,106.6085,23.8798,百色市,祈福高中,颗粒物(PM10),73,96,76,45,44,109,,144,139,27,23,22,14,1.1,0.9
2024-10-12T2100,2270A,117.396,32.939,蚌埠市,工人疗养院,细颗粒物(PM2.5),79,103,91,58,48,129,,166,159,18,20,6,8,0.6,0.7
2024-10-12T2100,2271A,117.3605,32.9427,蚌埠市,百货大楼,颗粒物(PM10),76,102,89,55,45,119,,162,154,26,18,6,7,0.5,0.5
2024-10-12T2100,2273A,117.4185,32.8911,蚌埠市,蚌埠学院,细颗粒物(PM2.5),82,88,81,60,53,129,,165,158,22,20,7,7,0.6,0.6
2024-10-12T2100,2274A,117.3533,32.9673,蚌埠市,淮上区政府,细颗粒物(PM2.5),87,95,93,64,56,132,,164,159,15,23,7,8,0.6,0.8
2024-10-12T2100,2275A,117.3145,32.8977,蚌埠市,高新区,细颗粒物(PM2.5),90,95,82,67,51,119,,160,150,37,23,10,8,0.7,0.7
2024-10-12T2100,3715A,117.3092,32.9314,蚌埠市,蚌埠田家炳中学,细颗粒物(PM2.5),95,110,88,71,49,124,,164,157,22,17,8,7,0.6,0.6
2024-10-12T2100,1585A,109.8756,40.6532,包头市,市环境监测站,颗粒物(PM10),57,64,73,22,27,92,,96,93,29,55,8,16,0.6,1
2024-10-12T2100,1587A,109.9991,40.5842,包头市,包头八中,颗粒物(PM10),57,64,74,26,27,71,,94,92,35,47,5,25,0.7,0.9
2024-10-12T2100,1588A,109.8538,40.6821,包头市,青山宾馆,,46,46,64,23,32,90,,102,101,27,53,9,14,0.7,1
2024-10-12T2100,1589A,109.8642,40.6288,包头市,惠龙物流,颗粒物(PM10),60,69,68,18,25,95,,102,102,21,54,8,19,0.7,1
2024-10-12T2100,1590A,110.0377,40.5546,包头市,东河鸿龙湾,颗粒物(PM10),56,62,69,17,26,58,,101,97,36,42,8,23,0.6,0.6
2024-10-12T2100,3283A,109.9154,40.5685,包头市,滨河大厦,,47,47,56,29,22,65,,101,94,50,53,10,21,0.5,0.6
2024-10-12T2100,3419A,109.9447,40.6261,包头市,包头市委党校,颗粒物(PM10),54,57,70,19,23,92,,103,103,30,57,6,21,0.4,0.8
2024-10-12T2100,3683A,109.8331,40.6576,包头市,昆区政府,颗粒物(PM10),56,62,71,24,31,92,,100,100,26,53,8,22,0.5,0.8
2024-10-12T2100,1930A,107.185,34.3063,宝鸡市,庙沟村,细颗粒物(PM2.5),75,87,54,55,37,68,,75,72,26,22,8,8,0.8,0.6
2024-10-12T2100,1931A,107.0708,34.3017,宝鸡市,竹园沟,细颗粒物(PM2.5),84,79,52,62,41,35,,96,88,30,19,7,8,0.6,0.5
2024-10-12T2100,1932A,107.1906,34.3672,宝鸡市,三陆医院,细颗粒物(PM2.5),93,114,84,69,63,27,,79,73,60,46,7,12,0.9,0.8
2024-10-12T2100,1933A,107.1431,34.3547,宝鸡市,监测站,细颗粒物(PM2.5),88,96,73,65,52,24,,81,74,44,27,7,8,0.9,0.7
2024-10-12T2100,1934A,107.1186,34.3739,宝鸡市,技工学校,细颗粒物(PM2.5),109,90,80,82,64,45,,89,84,34,28,8,8,0.8,0.7
2024-10-12T2100,1935A,107.3906,34.3528,宝鸡市,陈仓区环保局家属楼,细颗粒物(PM2.5),239,202,102,189,88,50,,108,101,67,45,11,12,1.0,0.7
2024-10-12T2100,1936A,107.2058,34.3497,宝鸡市,文理学院,颗粒物(PM10),75,100,79,54,52,32,,78,72,50,31,9,10,0.8,0.7
2024-10-12T2100,1937A,107.2386,34.3622,宝鸡市,三迪小学,细颗粒物(PM2.5),105,103,86,79,65,23,,80,74,79,48,9,11,1.0,0.8
2024-10-12T2100,1051A,115.493,38.8632,保定市,游泳馆,细颗粒物(PM2.5),183,185,132,138,92,96,,153,150,60,51,6,5,0.8,0.7
2024-10-12T2100,1052A,115.5213,38.8959,保定市,华电二区,细颗粒物(PM2.5),219,203,129,169,96,56,,144,137,83,58,7,7,0.8,0.6
2024-10-12T2100,1053A,115.4713,38.9108,保定市,接待中心,细颗粒物(PM2.5),188,194,119,141,82,66,,141,136,79,52,5,4,0.8,0.6
2024-10-12T2100,1054A,115.4612,38.8416,保定市,地表水厂,细颗粒物(PM2.5),178,196,133,134,96,104,,153,152,57,49,6,5,0.7,0.5
2024-10-12T2100,3581A,115.31981,38.95208,保定市,满城区生态环境分局,细颗粒物(PM2.5),153,190,139,117,72,128,,139,134,40,51,6,5,0.8,0.8
2024-10-12T2100,3582A,115.47694,38.76408,保定市,清苑区第二中学,细颗粒物(PM2.5),192,212,160,144,105,104,,155,154,71,71,11,10,0.7,0.7
2024-10-12T2100,3583A,115.62909,39.02311,保定市,徐水物探局,细颗粒物(PM2.5),252,237,117,202,83,25,,136,120,102,57,9,8,0.7,0.5
2024-10-12T2100,4004A,115.4202,38.8656,保定市,双鹰农机,细颗粒物(PM2.5),156,196,123,119,77,87,,169,164,66,56,5,5,0.8,0.6
2024-10-12T2100,4034A,115.5150,38.8590,保定市,植保所站,细颗粒物(PM2.5),204,197,132,154,94,77,,147,143,79,60,12,12,0.8,0.6
2024-10-12T2100,2594A,99.1678,25.1081,保山市,市环境监测站,,39,27,31,27,20,47,,81,72,7,7,4,4,0.4,0.4
2024-10-12T2100,2595A,99.1711,25.1328,保山市,市环保局,,29,29,33,19,18,57,,84,78,4,5,4,4,0.4,0.4
2024-10-12T2100,1866A,109.2262,21.588,北海市,牛尾岭水库,,,,37,28,29,97,,141,133,,,16,11,0.8,0.8
2024-10-12T2100,1867A,109.1436,21.4086,北海市,海滩公园,,42,35,45,17,26,133,,169,165,7,9,6,8,0.8,0.9
2024-10-12T2100,1868A,109.0981,21.4661,北海市,新市环保局,,39,32,43,22,28,124,,153,151,8,11,4,8,0.7,0.8
2024-10-12T2100,1869A,109.1778,21.5233,北海市,北海工业园,,40,40,54,22,35,122,,155,149,9,14,6,12,0.7,0.7
2024-10-12T2100,3400A,109.1911,21.4415,北海市,龙潭自来水厂,,42,34,50,23,38,134,,162,156,7,10,7,10,0.6,0.7
2024-10-12T2100,1001A,116.3621,39.8784,北京市,万寿西宫,细颗粒物(PM2.5),124,158,107,94,60,96,,117,116,43,52,6,5,1.3,0.9
2024-10-12T2100,1002A,116.2202,40.2915,北京市,定陵,细颗粒物(PM2.5),115,125,89,87,56,73,,112,107,17,20,1,2,0.9,0.6
2024-10-12T2100,1003A,116.4174,39.9289,北京市,东四,细颗粒物(PM2.5),115,141,118,87,68,120,,128,128,33,54,7,6,1.1,0.9
2024-10-12T2100,1004A,116.4072,39.8863,北京市,天坛,细颗粒物(PM2.5),122,133,98,92,64,64,,102,90,39,45,1,4,1.0,0.8
2024-10-12T2100,1005A,116.462,39.9365,北京市,农展馆,细颗粒物(PM2.5),102,127,106,76,61,110,,117,117,34,56,4,4,1.1,0.8
2024-10-12T2100,1006A,116.3392,39.9295,北京市,官园,细颗粒物(PM2.5),119,153,109,90,60,109,,123,123,34,49,5,4,1.1,0.7
2024-10-12T2100,1007A,116.2878,39.9611,北京市,海淀万柳,细颗粒物(PM2.5),110,142,98,83,50,17,,108,94,90,51,4,5,1.3,0.7
2024-10-12T2100,1008A,116.6636,40.135,北京市,顺义新城,细颗粒物(PM2.5),139,168,94,106,60,55,,134,124,48,37,3,4,1.4,0.7
2024-10-12T2100,1009A,116.6275,40.3275,北京市,怀柔镇,细颗粒物(PM2.5),108,123,78,81,47,108,,138,134,20,25,3,4,1.0,0.6
2024-10-12T2100,1010A,116.2296,40.217,北京市,昌平镇,细颗粒物(PM2.5),124,190,108,94,53,24,,100,88,81,29,,5,1.1,0.6
2024-10-12T2100,1011A,116.3966,39.9821,北京市,奥体中心,细颗粒物(PM2.5),108,140,99,81,52,106,,108,108,50,59,5,4,1.3,0.8
2024-10-12T2100,1012A,116.184,39.9136,北京市,古城,颗粒物(PM10),128,206,132,95,56,0,,98,76,110,58,4,5,1.5,1
2024-10-12T2100,3281A,115.9718,40.4529,北京市,延庆夏都,细颗粒物(PM2.5),120,150,82,91,47,78,,142,134,40,22,1,3,0.9,0.5
2024-10-12T2100,3417A,117.0709,40.1465,北京市,平谷新城,细颗粒物(PM2.5),132,158,115,100,72,117,,141,140,25,24,4,5,1.4,0.8
2024-10-12T2100,3418A,116.8336,40.4095,北京市,密云新城,颗粒物(PM10),110,169,91,78,45,67,,135,124,25,22,1,3,1.2,0.6
2024-10-12T2100,3671A,116.088,39.9726,北京市,门头沟三家店,细颗粒物(PM2.5),120,133,93,91,48,13,,115,90,67,33,3,4,0.8,0.5
2024-10-12T2100,3672A,116.1541,39.8204,北京市,丰台云岗,细颗粒物(PM2.5),129,159,95,98,53,51,,106,101,78,45,5,4,0.9,0.6
2024-10-12T2100,3673A,116.6804,39.9081,北京市,通州东关,细颗粒物(PM2.5),115,142,116,87,67,86,,68,,21,50,4,5,1.2,0.9
2024-10-12T2100,3674A,115.9577,39.7603,北京市,房山燕山,细颗粒物(PM2.5),114,132,86,86,51,83,,131,127,29,23,3,2,0.7,0.5
2024-10-12T2100,3675A,116.4672,39.7733,北京市,大兴旧宫,细颗粒物(PM2.5),112,131,108,84,63,102,,114,114,27,47,3,3,0.9,0.8
2024-10-12T2100,3694A,115.986,40.4563,北京市,延庆石河营,细颗粒物(PM2.5),114,133,81,86,46,49,,141,130,43,19,3,2,0.8,0.5
2024-10-12T2100,3695A,116.6151,40.3053,北京市,怀柔新城,细颗粒物(PM2.5),107,124,79,80,49,107,,131,128,13,18,3,3,1.0,0.6
2024-10-12T2100,3696A,116.2545,39.8768,北京市,丰台小屯,细颗粒物(PM2.5),119,157,99,90,52,2,,92,68,115,61,1,2,1.7,0.9
2024-10-12T2100,3697A,116.84,40.3844,北京市,密云镇,"颗粒物(PM10),细颗粒物(PM2.5)",89,128,86,66,51,21,,134,117,77,36,3,5,1.4,0.6
2024-10-12T2100,1761A,123.8275,41.3064,本溪市,大峪,颗粒物(PM10),74,97,69,48,31,56,,111,102,38,37,10,14,1.5,1.4
2024-10-12T2100,1762A,123.7567,41.3325,本溪市,溪湖,颗粒物(PM10),107,164,88,75,38,20,,117,88,68,42,10,12,1.4,1.5
2024-10-12T2100,1763A,123.7169,41.3094,本溪市,彩屯,细颗粒物(PM2.5),99,115,75,74,44,25,,106,78,60,45,10,16,1.4,1.6
2024-10-12T2100,1764A,123.7669,41.2864,本溪市,东明,颗粒物(PM10),88,126,81,57,36,18,,104,78,75,54,7,10,2.6,1.4
2024-10-12T2100,1765A,123.7992,41.2664,本溪市,新立屯,颗粒物(PM10),56,62,43,23,16,28,,102,64,59,47,6,7,1.3,0.9
2024-10-12T2100,1766A,123.8142,41.3472,本溪市,威宁,颗粒物(PM10),92,133,91,52,35,9,,106,71,71,43,8,11,1.3,1.1
2024-10-12T2100,2587A,105.2864,27.3125,毕节市,八中,,20,20,25,10,17,34,,54,47,16,13,6,6,0.7,0.5
2024-10-12T2100,2588A,105.31,27.2944,毕节市,师专,,18,18,24,8,18,39,,55,50,12,9,8,8,0.6,0.5
2024-10-12T2100,3537A,105.3631,27.3533,毕节市,长征村,,14,10,25,6,20,43,,62,54,9,8,6,7,0.6,0.5
2024-10-12T2100,1629A,118.0018,37.3617,滨州市,第二水厂,颗粒物(PM10),81,112,118,51,60,138,,160,153,19,61,8,12,0.3,0.6
2024-10-12T2100,1630A,117.9776,37.393,滨州市,北中新校,颗粒物(PM10),78,105,108,56,53,150,,158,155,21,54,10,13,0.8,1
2024-10-12T2100,3514A,117.9378,37.3956,滨州市,中海酒店,颗粒物(PM10),70,90,96,48,54,160,,168,166,25,53,7,13,0.8,0.9
2024-10-12T2100,3515A,117.9378,37.3553,滨州市,开发区一中,细颗粒物(PM2.5),73,90,114,53,55,154,,169,167,18,63,27,20,0.2,0.6
2024-10-12T2100,3516A,118.0917,37.694,滨州市,金海六路,细颗粒物(PM2.5),94,117,105,70,56,131,,164,150,21,43,7,23,0.6,0.7
2024-10-12T2100,4028A,117.9956,37.3753,滨州市,滨州市西街道办事处,细颗粒物(PM2.5),94,83,111,70,65,154,,169,164,16,55,10,14,0.7,1.1
2024-10-12T2100,2311A,115.8072,33.8399,亳州市,污水处理厂,颗粒物(PM10),92,134,123,55,67,90,,168,145,32,35,19,18,0.2,0.4
2024-10-12T2100,2312A,115.7789,33.8518,亳州市,三国揽胜宫,颗粒物(PM10),91,132,109,63,72,91,,172,150,24,26,8,12,0.5,0.6
2024-10-12T2100,3332A,115.7633,33.8034,亳州市,亳州学院,,,125,125,37,58,,,179,168,31,27,7,7,0.5,0.6
2024-10-12T2100,2693A,82.0485,44.8556,博尔塔拉蒙古自治州,市党校,,37,37,66,24,20,66,,86,84,16,13,5,8,0.3,0.3
2024-10-12T2100,2694A,82.0806,44.8969,博尔塔拉蒙古自治州,市环保局,,42,42,67,10,20,45,,84,78,27,21,6,6,0.3,0.4
2024-10-12T2100,1071A,116.8842,38.2991,沧州市,沧县城建局,细颗粒物(PM2.5),117,132,114,88,69,108,,168,161,36,60,4,18,0.7,0.5
2024-10-12T2100,1072A,116.8584,38.3254,沧州市,电视转播站,细颗粒物(PM2.5),104,122,107,78,78,96,,176,166,46,58,8,16,0.8,0.6
2024-10-12T2100,1073A,116.8709,38.3228,沧州市,市环保局,细颗粒物(PM2.5),100,123,118,75,76,93,,168,157,34,49,9,18,0.8,0.7
2024-10-12T2100,3324A,116.8136,38.3004,沧州市,河北水利电力学院,细颗粒物(PM2.5),125,117,122,95,79,142,,180,178,23,45,9,22,0.8,0.7
2024-10-12T2100,2622A,97.1806,31.1273,昌都市,昌都监测站,,,11,10,9,5,,,93,93,7,9,8,8,0.3,0.3
2024-10-12T2100,3719A,97.1714,31.1406,昌都市,昌都会议中心,,27,10,9,9,5,84,,97,96,6,6,8,8,0.5,0.5
2024-10-12T2100,2690A,88.1236,43.8886,昌吉回族自治州,天山天池,,35,35,30,3,11,97,,112,107,3,4,8,9,0.5,0.5
2024-10-12T2100,2692A,87.2717,44.0297,昌吉回族自治州,新区政务中心,,35,35,96,11,25,79,,102,96,19,27,5,6,0.7,0.8
2024-10-12T2100,3613A,87.3095,44.0142,昌吉回族自治州,亚心广场,,34,34,119,7,23,73,,96,89,27,30,4,5,0.6,0.7
2024-10-12T2100,1119A,125.3325,43.9166,长春市,食品厂,细颗粒物(PM2.5),144,183,56,110,28,10,,45,29,74,46,10,7,2.1,0.6
2024-10-12T2100,1120A,125.2863,43.9027,长春市,客车厂,细颗粒物(PM2.5),105,152,48,79,24,11,,45,31,81,47,10,7,2.1,0.7
2024-10-12T2100,1121A,125.2841,43.8463,长春市,邮电学院,,,,40,,17,,,47,40,,38,,7,,0.4
2024-10-12T2100,1122A,125.3716,43.8772,长春市,劳动公园,细颗粒物(PM2.5),172,193,60,130,28,16,,48,39,67,44,8,7,2.3,0.7
2024-10-12T2100,1123A,125.3297,43.8805,长春市,园林处,细颗粒物(PM2.5),140,167,46,107,21,15,,43,34,70,39,7,6,2.6,0.6
2024-10-12T2100,1124A,125.4605,43.79,长春市,净月潭,,17,16,34,10,14,52,,56,56,12,25,6,6,0.2,0.3
2024-10-12T2100,1125A,125.7194,43.515,长春市,甩湾子,细颗粒物(PM2.5),100,78,37,75,25,17,,55,43,30,17,6,6,0.9,0.6
2024-10-12T2100,1126A,125.3863,43.8447,长春市,经开区环卫处,颗粒物(PM10),91,131,49,37,18,4,,39,31,57,44,10,9,1.2,0.6
2024-10-12T2100,1127A,125.245,43.7783,长春市,高新区管委会,细颗粒物(PM2.5),108,84,48,81,25,12,,54,38,58,36,8,7,1.0,0.5
2024-10-12T2100,1128A,125.1761,43.8325,长春市,岱山公园,细颗粒物(PM2.5),62,61,38,44,22,5,,58,48,89,40,6,6,1.0,0.5
2024-10-12T2100,1335A,113.0833,28.2325,长沙市,经开区环保局,细颗粒物(PM2.5),262,217,88,212,61,107,,163,150,38,29,8,5,1.0,0.5
2024-10-12T2100,1336A,112.8872,28.2189,长沙市,高开区环保局,细颗粒物(PM2.5),338,300,140,288,107,98,,169,156,25,24,10,8,1.5,0.9
2024-10-12T2100,1337A,113.0792,28.2053,长沙市,马坡岭,细颗粒物(PM2.5),267,,90,217,64,106,,155,148,30,26,10,7,1.1,0.6
2024-10-12T2100,1338A,112.9394,28.19,长沙市,湖南师范大学,细颗粒物(PM2.5),282,294,107,232,72,129,,174,168,24,19,9,6,1.1,0.7
2024-10-12T2100,1339A,113.0178,28.1322,长沙市,雨花区环保局,细颗粒物(PM2.5),230,228,84,180,50,111,,165,154,28,20,12,8,1.3,0.7
2024-10-12T2100,1340A,112.9792,28.2597,长沙市,伍家岭,细颗粒物(PM2.5),323,276,129,273,94,92,,161,148,32,36,8,6,1.4,0.9
2024-10-12T2100,1341A,113.0014,28.1944,长沙市,火车新站,细颗粒物(PM2.5),284,266,104,234,72,106,,161,150,30,30,10,7,1.3,0.8
2024-10-12T2100,1342A,112.9844,28.1178,长沙市,天心区环保局,细颗粒物(PM2.5),175,244,72,132,44,,,162,159,,22,,7,,0.7
2024-10-12T2100,1343A,112.8908,28.1308,长沙市,湖南中医药大学,细颗粒物(PM2.5),418,,114,377,97,107,,181,168,29,34,12,8,1.7,1
2024-10-12T2100,1344A,112.9581,28.3611,长沙市,沙坪,细颗粒物(PM2.5),246,256,102,196,80,106,,161,147,21,15,15,10,1.5,0.9
2024-10-12T2100,1727A,113.1147,36.1547,长治市,清华站,细颗粒物(PM2.5),163,,88,124,51,137,,140,140,25,31,11,10,1.1,1
2024-10-12T2100,1728A,113.1031,36.1989,长治市,监测站,细颗粒物(PM2.5),122,95,80,92,58,150,,145,145,21,32,12,12,1.0,1.1
2024-10-12T2100,1730A,113.0886,36.2125,长治市,审计局,细颗粒物(PM2.5),140,,80,107,59,148,,141,141,19,26,9,9,0.6,0.6
2024-10-12T2100,1731A,113.0844,36.1856,长治市,长治八中,细颗粒物(PM2.5),100,140,96,75,46,139,,146,146,26,30,11,10,1.1,1
2024-10-12T2100,2845A,113.1569,36.1911,长治市,德盛苑,细颗粒物(PM2.5),85,87,72,63,50,146,,149,149,19,22,7,10,0.7,0.9
2024-10-12T2100,3568A,113.06,36.0464,长治市,向阳小学,细颗粒物(PM2.5),118,109,95,89,59,135,,149,148,26,26,12,11,0.6,0.6
2024-10-12T2100,3569A,112.8792,36.3144,长治市,屯留一中,细颗粒物(PM2.5),127,111,74,96,46,116,,150,146,31,28,13,12,1.0,1
2024-10-12T2100,3570A,113.235,36.3489,长治市,潞城四中,细颗粒物(PM2.5),90,93,103,67,56,125,,150,148,22,35,6,7,0.7,0.9
2024-10-12T2100,1854A,111.6975,28.9703,常德市,市二中,细颗粒物(PM2.5),69,84,128,50,88,94,,103,102,15,20,5,9,0.7,0.8
2024-10-12T2100,1857A,111.7158,29.1456,常德市,白鹤山,,,,,,,,,,,,,,,,
2024-10-12T2100,3138A,111.7153,29.0289,常德市,武陵区永安,细颗粒物(PM2.5),64,70,110,46,77,103,,104,104,14,20,5,10,0.5,0.6
2024-10-12T2100,3139A,111.6892,28.9881,常德市,鼎城区玉霞,颗粒物(PM10),63,76,131,42,82,103,,108,108,14,22,6,11,0.7,0.8
2024-10-12T2100,3140A,111.6625,29.0531,常德市,武陵区长庚,,,,116,52,78,103,,106,106,14,20,5,8,0.6,0.7
2024-10-12T2100,1196A,119.9633,31.762,常州市,市监测站,,,70,96,41,59,105,,164,146,,41,,9,0.6,0.7
2024-10-12T2100,1200A,119.9468,31.7069,常州市,武进监测站,颗粒物(PM10),62,73,98,31,50,98,,156,137,22,31,12,15,1.0,0.7
2024-10-12T2100,1201A,119.9255,31.9087,常州市,安家,,,98,104,49,59,82,,147,126,40,45,7,8,,0.6
2024-10-12T2100,3002A,119.9805,31.8174,常州市,行政中心,颗粒物(PM10),58,66,88,33,50,116,,156,138,18,29,6,7,0.1,0.1
2024-10-12T2100,3003A,120.0522,31.7748,常州市,经开区,颗粒物(PM10),62,73,104,39,56,107,,160,142,24,35,8,11,0.3,0.5
2024-10-12T2100,3010A,119.9025,31.7964,常州市,钟楼,"颗粒物(PM10),细颗粒物(PM2.5)",60,70,92,43,56,107,,157,140,24,31,9,10,0.7,0.5
2024-10-12T2100,3429A,119.8598,31.7066,常州市,武进经发区,颗粒物(PM10),55,59,79,28,41,101,,160,141,24,42,8,8,0.9,0.8
2024-10-12T2100,3430A,119.5826,31.7245,常州市,金坛城区,,45,45,64,30,40,86,,176,154,34,32,9,9,0.9,0.9
2024-10-12T2100,2220A,120.4318,41.5881,朝阳市,西梁,细颗粒物(PM2.5),79,84,50,58,23,11,,73,62,62,27,8,8,1.2,0.6
2024-10-12T2100,2221A,120.4521,41.5646,朝阳市,河畔小区,颗粒物(PM10),61,71,39,28,17,32,,83,78,58,23,16,13,1.2,0.7
2024-10-12T2100,2222A,120.4176,41.5648,朝阳市,八里堡,颗粒物(PM10),55,60,51,24,20,75,,80,80,26,30,16,12,1.0,0.8
2024-10-12T2100,2223A,120.3806,41.5969,朝阳市,农业园区,细颗粒物(PM2.5),58,57,36,41,17,56,,72,64,34,24,8,8,0.8,0.6
2024-10-12T2100,1705A,116.6367,23.6719,潮州市,西园路,颗粒物(PM10),51,52,53,27,34,115,,130,127,16,14,5,5,0.4,0.3
2024-10-12T2100,3026A,116.6183,23.6608,潮州市,市政府,,45,45,48,24,26,119,,134,133,13,12,6,6,0.6,0.6
2024-10-12T2100,4036A,116.6461,23.6761,潮州市,金山,,43,42,47,30,29,116,,137,135,12,11,9,8,0.6,0.6
2024-10-12T2100,2472A,113.0073,25.9061,郴州市,马头岭,,,,58,77,25,51,,136,120,97,24,46,17,1.1,0.3
2024-10-12T2100,2473A,113.0116,25.8226,郴州市,市职中,细颗粒物(PM2.5),85,86,53,63,41,61,,144,121,31,23,7,10,0.7,0.6
2024-10-12T2100,2474A,113.0161,25.8001,郴州市,兴隆步行街,细颗粒物(PM2.5),69,84,63,50,41,74,,152,135,38,28,7,9,0.6,0.6
2024-10-12T2100,2475A,113.0383,25.8071,郴州市,市审计局,细颗粒物(PM2.5),72,64,53,52,40,62,,143,127,25,21,4,7,0.8,0.7
2024-10-12T2100,2476A,113.0348,25.7759,郴州市,市环保局,"颗粒物(PM10),细颗粒物(PM2.5)",60,69,61,43,39,72,,136,123,28,32,8,14,0.7,0.6
2024-10-12T2100,1431A,103.9728,30.7236,成都市,金泉两河,,49,41,36,34,18,38,,75,60,32,19,3,3,0.6,0.5
2024-10-12T2100,1432A,104.176,30.6872,成都市,十里店,,45,45,27,25,19,45,,68,64,26,19,2,1,0.6,0.6
2024-10-12T2100,1433A,104.079,30.5706,成都市,三瓦窑,,46,39,31,32,24,56,,71,70,22,18,3,2,0.6,0.6
2024-10-12T2100,1434A,104.1114,30.63,成都市,沙河铺,,46,46,35,22,20,41,,68,64,28,18,3,2,0.5,0.5
2024-10-12T2100,1437A,104.0786,30.6531,成都市,君平街,颗粒物(PM10),51,51,38,22,26,43,,70,66,39,24,2,3,0.6,0.5
2024-10-12T2100,1438A,103.613,31.0283,成都市,灵岩寺,,,,,,,,,,,,,,,,
2024-10-12T2100,2880A,104.0239,30.65639,成都市,大石西路,颗粒物(PM10),53,55,36,34,23,30,,66,60,34,16,3,3,0.7,0.6
2024-10-12T2100,3136A,104.2725,30.5589,成都市,龙泉驿区区政府,,28,27,22,19,21,63,,74,72,14,15,2,2,0.5,0.5
2024-10-12T2100,3357A,104.0106,30.6931,成都市,金博路,颗粒物(PM10),53,55,27,32,16,28,,60,57,35,22,1,1,0.7,0.7
2024-10-12T2100,3359A,104.0578,30.5225,成都市,华阳,,42,41,30,29,23,46,,62,60,25,19,3,3,0.8,0.7
2024-10-12T2100,3487A,104.2394,30.5319,成都市,车城东七路,,39,34,33,27,26,72,,78,76,14,16,2,1,0.6,0.6
2024-10-12T2100,3488A,104.3853,30.7453,成都市,青白江技师分院,,45,45,24,23,19,51,,76,64,22,13,2,3,0.6,0.6
2024-10-12T2100,3489A,104.0789,30.4072,成都市,科学城,,45,35,30,31,27,63,,76,74,13,14,3,3,0.6,0.6
2024-10-12T2100,4011A,103.8506,30.6947,成都市,光华大道三段,,49,42,31,34,20,50,,84,74,26,12,2,2,0.7,0.6
2024-10-12T2100,1062A,117.9531,40.9081,承德市,铁路,细颗粒物(PM2.5),89,106,59,66,30,83,,108,108,29,35,4,5,0.9,0.6
2024-10-12T2100,1063A,117.9392,40.9763,承德市,中国银行,细颗粒物(PM2.5),87,99,58,64,26,16,,104,88,55,30,3,2,1.0,0.7
2024-10-12T2100,1064A,117.9503,40.928,承德市,开发区,颗粒物(PM10),85,119,74,56,31,53,,97,91,48,36,4,6,1.0,0.7
2024-10-12T2100,1065A,117.8051,40.9655,承德市,文化中心,颗粒物(PM10),82,113,77,59,30,10,,99,85,76,40,2,3,0.9,0.7
2024-10-12T2100,1066A,117.9268,41.0026,承德市,离宫,细颗粒物(PM2.5),97,100,58,72,39,59,,95,86,27,22,4,5,0.8,0.6
2024-10-12T2100,2314A,117.47,30.6618,池州市,池州学院,细颗粒物(PM2.5),74,76,64,54,43,108,,155,145,23,16,8,8,0.6,0.6
2024-10-12T2100,3237A,117.4918,30.6617,池州市,展览馆,细颗粒物(PM2.5),72,92,67,52,41,104,,152,142,24,16,6,6,0.6,0.6
2024-10-12T2100,3333A,117.5627,30.695,池州市,第八中学,颗粒物(PM10),67,84,65,47,40,98,,150,138,25,16,6,6,0.6,0.7
2024-10-12T2100,3334A,117.5038,30.6243,池州市,第十二中学,细颗粒物(PM2.5),74,70,68,54,43,113,,151,144,18,21,4,5,0.6,0.8
2024-10-12T2100,1744A,118.9233,42.2816,赤峰市,松山一中,颗粒物(PM10),88,125,59,63,22,10,,66,61,93,39,13,18,1.9,0.9
2024-10-12T2100,1745A,118.9576,42.2728,赤峰市,哈达街,颗粒物(PM10),67,83,49,44,21,98,,84,84,22,21,12,18,0.8,0.8
2024-10-12T2100,1746A,118.8788,42.2554,赤峰市,天义路,细颗粒物(PM2.5),185,198,60,139,30,58,,73,73,50,33,13,12,1.2,0.6
2024-10-12T2100,3058A,119.2658,42.0353,赤峰市,银河街,颗粒物(PM10),79,108,68,57,26,96,,102,102,26,24,21,19,1.0,0.7
2024-10-12T2100,3286A,118.9359,42.3147,赤峰市,桥北物流园区,细颗粒物(PM2.5),92,128,49,68,24,13,,62,50,91,39,24,21,1.6,1.2
2024-10-12T2100,2521A,107.3476,22.4136,崇左市,市环保局江州分局,颗粒物(PM10),63,76,61,40,34,82,,138,120,20,14,3,4,0.7,0.7
2024-10-12T2100,2522A,107.3702,22.3707,崇左市,城南新区,颗粒物(PM10),51,51,45,30,30,87,,138,124,17,16,4,5,0.8,0.7
2024-10-12T2100,2298A,118.3093,32.3153,滁州市,老年大学,细颗粒物(PM2.5),67,72,82,48,60,117,,169,162,24,37,1,3,0.5,0.7
2024-10-12T2100,2299A,118.3244,32.2786,滁州市,人大宾馆,颗粒物(PM10),66,82,93,40,56,118,,168,162,24,33,8,8,0.4,0.6
2024-10-12T2100,3207A,118.3118,32.3038,滁州市,市政府原办公楼,细颗粒物(PM2.5),69,75,80,50,60,112,,168,159,29,35,6,7,0.5,0.7
2024-10-12T2100,3331A,118.3267,32.2634,滁州市,图书馆,颗粒物(PM10),69,87,89,41,51,106,,164,154,30,34,7,6,0.5,0.7
2024-10-12T2100,2605A,101.5482,25.0441,楚雄彝族自治州,州环境监测站,,23,,13,16,12,56,,68,66,6,4,8,8,0.5,0.5
2024-10-12T2100,2606A,101.538,25.0492,楚雄彝族自治州,市经济开发区,,,28,16,20,15,,,66,66,8,5,5,6,0.6,0.6
2024-10-12T2100,2548A,107.5277,31.2827,达州市,达州职业技术学院,,40,40,37,19,21,15,,47,43,42,28,4,5,0.7,0.6
2024-10-12T2100,2549A,107.5086,31.2186,达州市,市环境监测站,,36,36,36,17,19,51,,73,71,30,23,5,6,0.6,0.5
2024-10-12T2100,2550A,107.4988,31.2132,达州市,凤凰小区,,32,27,30,22,21,67,,77,77,23,22,7,8,0.6,0.5
2024-10-12T2100,2551A,107.5082,31.1986,达州市,达县机关宾馆,,34,34,36,23,26,59,,60,60,29,30,4,6,0.6,0.5
2024-10-12T2100,2552A,107.4644,31.2124,达州市,市政中心,,38,38,40,19,22,60,,61,61,28,26,4,5,0.6,0.5
2024-10-12T2100,2614A,100.1542,25.7054,大理白族自治州,大理市环境监测站,,36,32,34,25,19,75,,82,82,15,10,7,6,0.6,0.6
2024-10-12T2100,2615A,100.2171,25.5811,大理白族自治州,大理古城,,35,33,28,24,17,64,,73,69,18,12,7,7,0.7,0.6
2024-10-12T2100,1109A,121.612,38.9741,大连市,甘井子,"颗粒物(PM10),细颗粒物(PM2.5)",80,109,54,59,31,150,,164,163,31,28,10,9,1.1,0.9
2024-10-12T2100,1110A,121.565,38.9511,大连市,周水子,细颗粒物(PM2.5),109,134,60,82,36,81,,147,139,67,46,10,11,1.0,0.8
2024-10-12T2100,1111A,121.5637,38.8845,大连市,星海三站,颗粒物(PM10),80,110,57,54,32,44,,169,157,79,22,8,9,0.9,0.5
2024-10-12T2100,1112A,121.6302,38.9117,大连市,青泥洼桥,颗粒物(PM10),90,129,68,65,33,83,,160,144,45,27,7,9,1.0,0.7
2024-10-12T2100,1113A,121.6251,38.8638,大连市,傅家庄,颗粒物(PM10),69,87,51,49,30,164,,164,164,16,15,13,11,0.8,0.7
2024-10-12T2100,1114A,121.5213,38.8661,大连市,七贤岭,"颗粒物(PM10),细颗粒物(PM2.5)",89,128,72,66,36,70,,183,152,28,29,6,8,0.8,0.7
2024-10-12T2100,1115A,121.2529,38.8061,大连市,旅顺,颗粒物(PM10),70,90,54,44,32,154,,183,183,23,25,8,9,0.6,0.4
2024-10-12T2100,1116A,121.7485,39.1311,大连市,金州,细颗粒物(PM2.5),63,65,47,45,32,100,,166,149,23,23,7,9,0.9,0.7
2024-10-12T2100,1117A,121.7811,39.0496,大连市,开发区,细颗粒物(PM2.5),104,146,68,78,39,83,,156,149,59,39,8,11,0.9,0.6
2024-10-12T2100,1118A,121.9762,39.0631,大连市,双D港,细颗粒物(PM2.5),58,46,34,41,25,140,,165,165,13,20,7,8,0.8,0.7
2024-10-12T2100,1789A,124.81117,46.03138,大庆市,大同区,,50,49,30,35,18,26,,56,38,34,16,4,3,0.5,0.4
2024-10-12T2100,1790A,125.129,46.533,大庆市,龙凤区,,46,46,37,27,18,23,,56,44,56,38,5,4,0.5,0.4
2024-10-12T2100,1791A,124.902,46.408,大庆市,红岗区,,42,42,25,19,13,20,,60,47,36,24,6,6,0.4,0.3
2024-10-12T2100,1792A,125.153,46.586,大庆市,萨尔图区,,43,43,28,23,10,17,,53,37,46,24,8,6,0.3,0.3
2024-10-12T2100,1793A,124.9042,46.6215,大庆市,让胡路区,,40,40,25,24,20,5,,58,39,60,21,10,5,0.9,0.4
2024-10-12T2100,3481A,125.141,46.634,大庆市,萨区政府监测点,,37,37,22,18,13,29,,54,42,34,24,10,6,0.4,0.3
2024-10-12T2100,1721A,113.3819,40.1097,大同市,果树场,颗粒物(PM10),60,70,72,39,33,105,,108,108,22,34,9,10,0.8,0.8
2024-10-12T2100,1723A,113.2994,40.0758,大同市,云冈宾馆,颗粒物(PM10),66,81,84,42,28,122,,126,126,26,45,10,13,1.0,1.3
2024-10-12T2100,1724A,113.3444,40.0917,大同市,大同大学,颗粒物(PM10),62,73,65,35,25,105,,124,124,28,35,14,17,0.6,0.6
2024-10-12T2100,1725A,113.2661,40.1269,大同市,安家小村,颗粒物(PM10),67,83,77,24,22,122,,125,125,21,37,15,16,0.5,1
2024-10-12T2100,1726A,113.2711,40.0844,大同市,教育学院,颗粒物(PM10),72,93,100,32,31,109,,121,121,33,48,11,16,0.7,1.5
2024-10-12T2100,3282A,113.3397,40.0597,大同市,大同市卫生学校,,,74,74,72,28,,,128,128,27,39,9,13,0.5,0.6
2024-10-12T2100,3565A,113.1367,40.1122,大同市,云冈站,细颗粒物(PM2.5),77,98,86,56,29,115,,120,119,26,32,13,16,0.8,0.6
2024-10-12T2100,3566A,113.1186,40.2556,大同市,图书馆,细颗粒物(PM2.5),110,165,55,83,27,87,,122,106,33,23,14,14,0.7,0.5
2024-10-12T2100,3567A,113.5931,40.0461,大同市,区一中,颗粒物(PM10),57,64,51,14,16,135,,124,124,17,21,7,8,0.6,0.5
2024-10-12T2100,3676A,113.2802,40.0995,大同市,第二人民医院,颗粒物(PM10),69,88,94,34,29,129,,132,132,21,43,13,18,0.6,1.6
2024-10-12T2100,2269A,124.1069,50.4097,大兴安岭地区,科技局,,23,16,15,16,17,30,,54,43,9,7,8,7,0.4,0.4
2024-10-12T2100,3663A,124.1164,50.4278,大兴安岭地区,红旗社区,,32,29,12,22,9,11,,50,36,19,10,2,2,0.6,0.5
2024-10-12T2100,1600A,124.3303,40.0625,丹东市,江湾东路,"颗粒物(PM10),细颗粒物(PM2.5)",57,63,53,40,27,30,,91,70,33,24,8,11,0.9,0.8
2024-10-12T2100,1601A,124.4256,40.1503,丹东市,临江后街,颗粒物(PM10),80,110,54,53,23,13,,114,86,55,21,8,8,1.4,0.9
2024-10-12T2100,1602A,124.3933,40.1461,丹东市,元宝山,,43,43,41,23,19,79,,98,94,19,17,5,6,0.7,0.7
2024-10-12T2100,1603A,124.3633,40.1092,丹东市,民主桥,颗粒物(PM10),55,59,47,28,19,20,,101,77,42,28,6,7,0.9,0.7
2024-10-12T2100,3541A,109.5726,19.5167,儋州市,第一中学子站,,35,35,29,19,17,102,,111,100,6,6,8,7,0.3,0.3
2024-10-12T2100,3542A,109.5567,19.5187,儋州市,东坡学校子站,,33,32,31,18,17,104,,116,102,4,4,6,4,0.5,0.5
2024-10-12T2100,2616A,98.5842,24.428,德宏傣族景颇族自治州,德宏州监测站,,36,36,32,21,16,53,,66,64,11,12,4,9,0.6,0.5
2024-10-12T2100,3677A,98.5881,24.4368,德宏傣族景颇族自治州,芒市人民政府综合楼,,37,37,35,19,19,46,,71,68,10,12,4,7,0.6,0.6
2024-10-12T2100,1901A,104.4239,31.1208,德阳市,东山公园,,37,37,24,19,14,63,,80,75,14,8,2,2,0.6,0.6
2024-10-12T2100,1902A,104.3826,31.1317,德阳市,西小区,,44,44,31,29,18,55,,77,71,19,11,2,2,0.6,0.5
2024-10-12T2100,1904A,104.3553,31.1091,德阳市,耐火材料厂,,43,43,25,29,19,36,,77,69,32,14,2,2,0.4,0.4
2024-10-12T2100,3639A,104.4019,31.1244,德阳市,市教育局,,33,33,25,23,15,51,,80,73,24,12,1,1,0.5,0.5
2024-10-12T2100,1622A,116.3032,37.4674,德州市,儿童乐园,颗粒物(PM10),85,119,110,56,53,79,,159,140,86,52,20,13,0.8,0.7
2024-10-12T2100,1624A,116.2991,37.4451,德州市,监理站,颗粒物(PM10),74,97,106,44,56,109,,167,156,50,51,21,14,0.6,0.6
2024-10-12T2100,3066A,116.2721,37.4379,德州市,九衢泉纯净水厂,颗粒物(PM10),89,127,115,53,51,75,,157,137,79,65,14,12,0.8,0.7
2024-10-12T2100,3371A,116.3728,37.4403,德州市,开发区人民医院,颗粒物(PM10),81,112,110,58,48,93,,158,148,54,52,25,14,0.8,0.6
2024-10-12T2100,3372A,116.3572,37.4094,德州市,太阳城中学,颗粒物(PM10),91,132,120,58,57,60,,151,130,84,74,22,16,0.7,0.7
2024-10-12T2100,3511A,116.5652,37.3319,德州市,陵城艺术中心,,,,104,,49,,,143,139,50,61,29,17,0.6,0.7
2024-10-12T2100,2621A,99.7056,27.8317,迪庆藏族自治州,迪庆州站,,25,16,16,12,10,77,,77,77,10,9,8,8,0.5,0.4
2024-10-12T2100,3180A,99.7136,27.8094,迪庆藏族自治州,质量技术监督局,,,14,18,12,7,,,75,72,12,10,6,6,0.4,0.5
2024-10-12T2100,2663A,104.6241,35.5734,定西市,东关小学,,38,30,25,26,15,45,,67,65,13,11,7,8,0.4,0.3
2024-10-12T2100,2664A,104.6194,35.5934,定西市,供电公司,,36,33,27,25,18,43,,66,65,16,11,6,7,0.4,0.4
2024-10-12T2100,1389A,113.7547,23.0494,东莞市,莞城梨川,颗粒物(PM10),55,60,59,33,34,104,,162,147,25,23,9,8,0.8,0.8
2024-10-12T2100,1390A,113.7944,23.0128,东莞市,东城石井,颗粒物(PM10),53,55,54,32,32,82,,167,143,22,21,7,7,0.8,0.7
2024-10-12T2100,1391A,113.7383,22.9658,东莞市,南城西平,,,66,60,39,36,155,,168,162,30,28,,4,0.9,0.9
2024-10-12T2100,3319A,113.7338,23.0381,东莞市,万江金泰,颗粒物(PM10),55,60,61,32,33,95,,160,143,26,24,8,7,0.8,0.8
2024-10-12T2100,3626A,113.7533,23.0202,东莞市,南城元岭,颗粒物(PM10),61,72,63,38,35,74,,160,138,45,22,9,8,1.0,0.9
2024-10-12T2100,3627A,113.7875,23.0457,东莞市,东城主山,颗粒物(PM10),59,68,58,40,34,81,,166,144,46,24,13,9,0.8,0.7
2024-10-12T2100,1666A,118.6614,37.4309,东营市,市环保局,"细颗粒物(PM2.5),臭氧1小时",70,66,103,51,64,176,,184,175,14,26,6,14,0.5,0.9
2024-10-12T2100,3036A,118.6904,37.4338,东营市,开发区管委会,臭氧1小时,83,79,103,51,65,186,,198,192,22,27,7,12,0.2,0.6
2024-10-12T2100,3365A,118.5719,37.565,东营市,垦利区民丰路,颗粒物(PM10),81,112,96,53,57,140,,165,148,24,38,9,13,0.7,0.9
2024-10-12T2100,3498A,118.5055,37.8612,东营市,河口城区,细颗粒物(PM2.5),85,83,99,63,57,150,,163,158,22,30,6,10,0.7,0.8
2024-10-12T2100,3646A,118.4978,37.4623,东营市,胜利站,颗粒物(PM10),75,99,82,51,56,154,,161,157,27,37,14,14,0.8,0.9
2024-10-12T2100,3734A,118.35,37.26,东营市,理想之城,细颗粒物(PM2.5),79,92,111,58,66,165,,172,164,26,34,8,8,0.4,0.6
2024-10-12T2100,1591A,110.0023,39.8129,鄂尔多斯市,综合楼,,48,48,77,19,18,116,,124,124,15,28,7,13,0.5,0.6
2024-10-12T2100,1592A,109.9486,39.8261,鄂尔多斯市,巴音孟克林场办事处,,48,48,75,22,26,84,,107,106,34,29,9,12,0.6,0.6
2024-10-12T2100,1593A,109.7736,39.5986,鄂尔多斯市,康泽苑,,48,48,61,27,21,101,,119,117,15,32,8,9,0.6,0.6
2024-10-12T2100,1594A,109.8119,39.5989,鄂尔多斯市,华泰汽车城,,46,46,61,29,25,95,,112,109,14,37,11,12,0.5,0.6
2024-10-12T2100,1595A,109.9734,39.7884,鄂尔多斯市,奥林花园,颗粒物(PM10),58,66,72,22,25,100,,105,105,14,37,5,8,0.6,0.7
2024-10-12T2100,2436A,114.8938,30.3994,鄂州市,市政府,细颗粒物(PM2.5),122,119,82,92,51,113,,162,143,38,29,19,15,1.3,0.9
2024-10-12T2100,2437A,114.8989,30.3714,鄂州市,赵家坝,细颗粒物(PM2.5),135,117,88,103,55,109,,163,144,39,29,20,16,1.5,1.1
2024-10-12T2100,3654A,114.8094,30.4089,鄂州市,精准医疗中心,颗粒物(PM10),86,122,82,62,47,57,,161,134,81,32,9,16,0.8,1.2
2024-10-12T2100,2454A,109.4978,30.2981,恩施土家族苗族自治州,湖北民院,细颗粒物(PM2.5),65,65,66,47,50,74,,96,94,22,21,8,8,0.8,0.8
2024-10-12T2100,2455A,109.4707,30.2798,恩施土家族苗族自治州,州电力总公司,细颗粒物(PM2.5),63,52,54,45,46,53,,84,80,28,24,6,6,1.0,1
2024-10-12T2100,3549A,109.5061,30.3772,恩施土家族苗族自治州,龙凤新区,细颗粒物(PM2.5),54,49,49,38,37,53,,82,79,21,17,6,6,0.9,0.9
2024-10-12T2100,2499A,108.3411,21.6158,防城港市,沙万,,49,49,58,29,37,122,,136,132,19,21,18,12,0.8,0.8
2024-10-12T2100,2500A,108.3514,21.7731,防城港市,防城档案局,细颗粒物(PM2.5),75,89,96,55,44,55,,132,121,32,29,9,10,1.1,0.9
2024-10-12T2100,2501A,108.3506,21.6414,防城港市,大海花园,,48,48,58,31,40,133,,152,147,13,18,13,9,0.8,0.8
2024-10-12T2100,1371A,113.1294,23.0067,佛山市,湾梁,"颗粒物(PM10),臭氧1小时",67,83,74,39,35,173,,208,208,38,45,8,8,1.0,0.9
2024-10-12T2100,1372A,113.1083,23.0478,佛山市,华材职中,细颗粒物(PM2.5),68,75,72,49,47,165,,214,213,34,45,8,9,0.8,0.7
2024-10-12T2100,1373A,113.144,23.0453,佛山市,南海气象局,细颗粒物(PM2.5),65,70,65,47,36,164,,195,193,33,39,8,9,0.8,0.7
2024-10-12T2100,1374A,113.2881,22.8094,佛山市,顺德苏岗,细颗粒物(PM2.5),73,84,56,53,34,163,,204,203,34,28,8,8,0.9,0.8
2024-10-12T2100,1376A,112.8383,22.8678,佛山市,高明孔堂,颗粒物(PM10),60,69,72,39,50,156,,242,237,22,28,5,11,0.8,0.7
2024-10-12T2100,1377A,112.8836,23.1588,佛山市,三水监测站,细颗粒物(PM2.5),99,107,77,74,52,180,,193,191,43,54,7,11,0.8,0.8
2024-10-12T2100,1378A,112.867,23.185,佛山市,三水云东海,细颗粒物(PM2.5),74,68,59,54,45,113,,170,156,52,48,11,13,0.9,0.8
2024-10-12T2100,3625A,113.2544,22.7642,佛山市,容桂街道办,细颗粒物(PM2.5),67,75,52,48,35,147,,208,206,50,28,7,8,1.0,0.8
2024-10-12T2100,1280A,119.3903,26.0543,福州市,鼓山,,,,29,,17,,,123,,,4,,3,,0.4
2024-10-12T2100,1282A,119.2681,26.0504,福州市,师大,,32,32,46,14,28,83,,112,100,11,13,2,2,0.4,0.5
2024-10-12T2100,1283A,119.2984,26.1028,福州市,五四北路,,33,33,36,15,22,74,,109,97,20,18,1,2,0.3,0.4
2024-10-12T2100,1284A,119.2648,26.0768,福州市,杨桥西路,,38,38,41,13,24,82,,114,102,13,11,4,4,0.3,0.4
2024-10-12T2100,1285A,119.317,26.0746,福州市,紫阳,,33,33,43,12,23,53,,103,84,46,22,2,2,0.3,0.4
2024-10-12T2100,3048A,119.5799,26.0936,福州市,九龙,,25,21,31,3,16,79,,115,101,12,6,2,2,0.1,0.3
2024-10-12T2100,3526A,119.5189,25.9664,福州市,吴航,,17,17,28,9,16,52,,124,93,18,10,1,2,0.3,0.4
2024-10-12T2100,1755A,123.7977,41.8491,抚顺市,望花区,细颗粒物(PM2.5),119,144,87,90,51,8,,120,80,92,49,11,12,1.7,1.2
2024-10-12T2100,1756A,123.9161,41.8822,抚顺市,顺城区,细颗粒物(PM2.5),100,122,82,75,46,8,,122,85,80,50,6,9,1.4,1.1
2024-10-12T2100,1757A,124.0436,41.8611,抚顺市,东洲区,细颗粒物(PM2.5),114,110,66,86,49,58,,129,110,35,24,8,11,1.4,0.9
2024-10-12T2100,1758A,123.9247,41.8642,抚顺市,新抚区,颗粒物(PM10),94,137,78,65,37,6,,127,88,75,40,4,7,1.5,1.1
2024-10-12T2100,1759A,124.0972,41.8961,抚顺市,大伙房水库,细颗粒物(PM2.5),70,84,58,51,36,87,,146,132,17,20,8,10,1.4,1
2024-10-12T2100,1760A,123.7086,41.8391,抚顺市,沈抚新城,细颗粒物(PM2.5),92,88,74,68,43,11,,124,94,80,43,9,13,1.3,0.9
2024-10-12T2100,2376A,116.2127,28.0814,抚州市,桐源党溪,细颗粒物(PM2.5),57,58,64,40,37,104,,144,136,6,13,6,11,0.8,0.8
2024-10-12T2100,2377A,116.3544,27.9831,抚州市,市站,颗粒物(PM10),60,70,56,40,31,110,,123,121,17,20,9,9,0.8,0.8
2024-10-12T2100,2378A,116.3565,27.963,抚州市,血防站,颗粒物(PM10),57,64,57,38,32,126,,140,138,8,12,6,7,0.9,0.8
2024-10-12T2100,2379A,116.3564,28.0007,抚州市,采茶剧团,细颗粒物(PM2.5),59,48,52,42,32,116,,134,131,12,13,16,8,0.9,0.8
2024-10-12T2100,2380A,116.385,27.9647,抚州市,医学分院,颗粒物(PM10),57,64,56,39,29,111,,128,126,11,15,5,5,0.9,0.8
2024-10-12T2100,2207A,121.6094,41.998,阜新市,工业园区,颗粒物(PM10),89,128,52,54,15,4,,68,54,65,27,21,16,1.1,0.5
2024-10-12T2100,2208A,121.6697,42.0279,阜新市,长青街,颗粒物(PM10),67,84,33,34,13,3,,62,49,42,20,11,26,0.9,0.5
2024-10-12T2100,2209A,121.6673,42.0705,阜新市,农业园区,颗粒物(PM10),51,51,30,19,9,63,,68,68,20,17,12,12,0.4,0.4
2024-10-12T2100,2210A,121.6717,42.0224,阜新市,东苑,细颗粒物(PM2.5),93,118,43,69,15,9,,62,52,74,26,21,27,1.2,0.5
2024-10-12T2100,2211A,121.6506,42.0498,阜新市,玉龙新城,颗粒物(PM10),68,86,43,40,15,8,,67,45,63,30,14,14,0.8,0.6
2024-10-12T2100,2301A,115.8277,32.8929,阜阳市,市监测站,细颗粒物(PM2.5),104,120,103,78,61,99,,162,143,29,30,8,8,0.6,0.6
2024-10-12T2100,2303A,115.8554,32.8605,阜阳市,开发区,颗粒物(PM10),89,128,115,59,53,97,,158,138,33,27,8,9,0.5,0.5
2024-10-12T2100,2875A,115.784,32.8892,阜阳市,阜阳职业技术学院,颗粒物(PM10),74,97,82,45,46,114,,159,145,25,22,8,8,0.6,0.6
2024-10-12T2100,3468A,115.7901,32.8613,阜阳市,市规划展馆,细颗粒物(PM2.5),82,91,80,60,46,116,,164,151,33,27,7,9,0.6,0.6
2024-10-12T2100,3469A,115.836,32.9183,阜阳市,枣园社区,颗粒物(PM10),73,95,86,51,50,112,,164,145,25,26,8,9,0.6,0.6
2024-10-12T2100,2669A,102.9099,34.9841,甘南藏族自治州,州政府,颗粒物(PM10),53,55,24,20,15,11,,81,68,66,19,10,8,0.9,0.5
2024-10-12T2100,3380A,102.8914,34.9617,甘南藏族自治州,甘肃民族师范学院,颗粒物(PM10),52,53,17,28,10,2,,74,60,66,20,6,5,0.7,0.5
2024-10-12T2100,2570A,101.9603,30.0475,甘孜藏族自治州,水桥子,,21,21,10,12,7,16,,28,24,30,22,5,6,0.5,0.4
2024-10-12T2100,3065A,101.9533,29.9972,甘孜藏族自治州,州环保局,,,16,8,3,4,,,38,37,33,23,3,3,0.3,0.3
2024-10-12T2100,3414A,115.8347,28.932,赣江新区,桑海产业园,细颗粒物(PM2.5),100,102,66,75,35,95,,161,136,47,49,11,10,0.6,0.5
2024-10-12T2100,2362A,114.9017,25.9149,赣州市,通天岩,细颗粒物(PM2.5),64,,43,46,40,74,,144,118,7,10,28,25,0.1,0.2
2024-10-12T2100,2363A,114.9367,25.8664,赣州市,地委,颗粒物(PM10),63,76,49,29,34,44,,128,104,48,19,11,10,1.1,1
2024-10-12T2100,2364A,114.9461,25.8481,赣州市,气象台,,48,48,48,27,32,35,,137,109,51,21,8,12,1.2,1.1
2024-10-12T2100,2365A,114.9322,25.8333,赣州市,市图书馆,颗粒物(PM10),58,65,48,27,28,46,,144,114,48,21,3,5,1.1,0.8
2024-10-12T2100,2366A,114.8905,25.8471,赣州市,华坚鞋城,颗粒物(PM10),58,66,56,33,35,37,,131,97,48,20,5,6,0.8,0.6
2024-10-12T2100,3109A,115.0093,25.8613,赣州市,赣县区卫计委,"颗粒物(PM10),细颗粒物(PM2.5)",55,60,49,39,31,33,,117,88,43,25,5,6,0.8,0.7
2024-10-12T2100,2683A,106.2319,36.1417,固原市,马园,颗粒物(PM10),51,52,39,30,21,60,,58,55,15,26,6,6,0.6,0.5
2024-10-12T2100,2684A,106.2792,36.0022,固原市,监测站,细颗粒物(PM2.5),52,46,29,36,25,39,,67,63,28,19,5,5,0.6,0.5
2024-10-12T2100,2685A,106.2375,36.0211,固原市,新区,,39,37,30,27,22,44,,60,58,22,20,5,5,0.5,0.5
2024-10-12T2100,3522A,106.2177,35.9959,固原市,原州区十五小,,44,44,33,24,18,49,,66,62,22,16,5,5,0.7,0.6
2024-10-12T2100,2543A,106.6308,30.5278,广安市,小平旧居,,,,,,,,,,,,,,,,
2024-10-12T2100,2544A,106.6303,30.4576,广安市,市委,,33,33,28,23,21,61,,73,72,12,14,3,3,0.5,0.5
2024-10-12T2100,2545A,106.6271,30.4663,广安市,友谊中学,,36,36,28,25,21,50,,74,69,16,15,2,2,0.6,0.5
2024-10-12T2100,2547A,106.6388,30.4551,广安市,广电花园,,34,34,30,21,21,58,,70,68,14,15,1,1,0.4,0.4
2024-10-12T2100,2902A,106.6351,30.4865,广安市,北辰小学,,39,39,32,23,21,53,,73,68,11,10,4,4,0.6,0.5
2024-10-12T2100,2523A,105.8945,32.4535,广元市,黑石坡,,29,,20,20,17,20,,53,22,17,13,7,7,0.4,0.5
2024-10-12T2100,2524A,105.821,32.4444,广元市,老城,,50,50,30,20,16,11,,57,43,50,23,2,3,0.8,0.7
2024-10-12T2100,2526A,105.8628,32.4287,广元市,监测站,,23,19,24,16,19,30,,64,48,26,19,2,2,0.7,0.6
2024-10-12T2100,3617A,105.8047,32.4166,广元市,经开区,,17,17,25,11,18,33,,55,51,22,23,4,6,0.7,0.7
2024-10-12T2100,1345A,113.2347,23.1423,广州市,广雅中学,细颗粒物(PM2.5),73,85,67,53,38,135,,191,184,50,46,7,7,1.1,0.9
2024-10-12T2100,1346A,113.2612,23.105,广州市,市五中,细颗粒物(PM2.5),75,78,62,55,41,161,,198,196,33,31,6,5,1.0,0.8
2024-10-12T2100,1348A,113.3478,23.0916,广州市,广东商学院,细颗粒物(PM2.5),64,74,61,46,40,138,,199,196,39,45,11,7,0.8,0.8
2024-10-12T2100,1349A,113.4332,23.1047,广州市,市八十六中,"颗粒物(PM10),细颗粒物(PM2.5)",72,94,70,52,37,97,,182,172,55,63,7,6,1.1,0.9
2024-10-12T2100,1350A,113.3505,22.9483,广州市,番禺中学,细颗粒物(PM2.5),73,88,60,53,41,170,,201,201,40,33,7,7,0.9,0.7
2024-10-12T2100,1351A,113.2146,23.3916,广州市,花都师范,颗粒物(PM10),60,70,56,38,37,84,,165,154,44,39,6,6,0.8,0.8
2024-10-12T2100,1352A,113.2597,23.1331,广州市,市监测站,细颗粒物(PM2.5),84,95,62,62,38,148,,182,180,41,38,6,5,1.0,0.8
2024-10-12T2100,1353A,113.5618,23.312,广州市,九龙镇镇龙,细颗粒物(PM2.5),59,63,54,42,36,66,,132,113,22,28,8,7,0.8,0.7
2024-10-12T2100,1354A,113.2765,23.1544,广州市,麓湖,细颗粒物(PM2.5),67,71,61,48,38,105,,160,146,42,41,7,7,0.9,0.8
2024-10-12T2100,1355A,113.443,23.3035,广州市,帽峰山森林公园,,39,39,33,25,24,111,,153,143,14,15,6,6,0.7,0.6
2024-10-12T2100,2846A,113.3221,23.1322,广州市,体育西,细颗粒物(PM2.5),69,80,60,50,41,130,,175,172,40,38,7,5,1.0,0.8
2024-10-12T2100,3298A,113.5717,23.5491,广州市,从化街口,细颗粒物(PM2.5),57,58,45,40,33,70,,123,105,15,26,7,7,0.8,0.7
2024-10-12T2100,3299A,113.3472,23.3692,广州市,白云竹料,细颗粒物(PM2.5),65,67,57,47,36,71,,151,136,26,33,6,6,0.9,0.8
2024-10-12T2100,3300A,113.2981,23.237,广州市,白云嘉禾,颗粒物(PM10),69,88,64,49,35,97,,162,146,67,32,6,6,1.0,0.9
2024-10-12T2100,3301A,113.4256,23.1716,广州市,黄埔科学城,细颗粒物(PM2.5),67,74,55,48,34,82,,154,141,40,37,6,7,1.0,0.8
2024-10-12T2100,3302A,113.3942,23.0483,广州市,番禺大学城,颗粒物(PM10),63,76,62,42,33,150,,203,199,33,35,16,15,0.8,0.7
2024-10-12T2100,3303A,113.4922,22.8168,广州市,南沙黄阁,颗粒物(PM10),60,69,59,29,38,162,,215,209,29,32,7,6,0.9,0.9
2024-10-12T2100,3304A,113.5342,22.7896,广州市,南沙街,颗粒物(PM10),58,66,54,27,33,145,,204,195,28,25,5,6,0.8,0.8
2024-10-12T2100,3443A,113.2902,23.5544,广州市,花都梯面,细颗粒物(PM2.5),57,48,38,40,30,29,,128,100,47,26,6,8,0.7,0.6
2024-10-12T2100,3445A,113.7858,23.7478,广州市,从化良口,,37,37,30,25,23,72,,88,77,8,11,7,7,0.8,0.8
2024-10-12T2100,3446A,113.8051,23.2614,广州市,增城荔城,"颗粒物(PM10),细颗粒物(PM2.5)",59,68,47,42,33,64,,143,120,20,15,6,7,0.8,0.7
2024-10-12T2100,2505A,109.568,23.1478,贵港市,德智高中,,,,,,,,,,,,,,,,
2024-10-12T2100,2506A,109.6047,23.0666,贵港市,江南子站,细颗粒物(PM2.5),92,110,88,68,51,84,,167,150,43,31,8,13,1.1,1
2024-10-12T2100,2507A,109.6014,23.0948,贵港市,贵城子站,细颗粒物(PM2.5),75,83,69,55,45,106,,169,156,25,23,8,14,1.0,0.9
2024-10-12T2100,2508A,109.5669,23.1065,贵港市,荷城子站,"颗粒物(PM10),细颗粒物(PM2.5)",64,78,68,46,38,93,,168,152,35,24,11,17,0.8,0.7
2024-10-12T2100,3405A,109.5886,23.1172,贵港市,新世纪学校,"颗粒物(PM10),细颗粒物(PM2.5)",63,75,69,45,37,81,,166,148,35,25,8,13,0.8,0.7
2024-10-12T2100,1439A,106.6899,26.5998,贵阳市,马鞍山,细颗粒物(PM2.5),52,48,34,36,20,56,,99,88,21,13,4,5,0.6,0.5
2024-10-12T2100,1440A,106.6971,26.5694,贵阳市,市环保站,,,61,44,48,33,,,108,103,46,23,6,6,0.8,0.6
2024-10-12T2100,1441A,106.6243,26.6266,贵阳市,鉴湖路,颗粒物(PM10),53,56,43,34,28,70,,102,92,26,13,6,6,0.5,0.5
2024-10-12T2100,1442A,106.7487,26.6343,贵阳市,燕子冲,细颗粒物(PM2.5),70,53,38,51,33,76,,109,101,13,15,6,6,0.6,0.5
2024-10-12T2100,1443A,106.6555,26.4365,贵阳市,碧云窝,,49,46,38,34,25,93,,117,110,13,11,5,7,0.7,0.6
2024-10-12T2100,1444A,106.694,26.5161,贵阳市,中院村,细颗粒物(PM2.5),55,48,41,39,27,68,,96,90,34,23,8,9,0.6,0.6
2024-10-12T2100,1445A,106.7109,26.6027,贵阳市,红边门,细颗粒物(PM2.5),77,75,46,56,33,68,,100,91,26,25,6,6,0.8,0.7
2024-10-12T2100,1446A,106.7164,26.5699,贵阳市,新华路,细颗粒物(PM2.5),58,58,38,41,27,56,,111,95,40,19,6,5,0.7,0.5
2024-10-12T2100,1447A,106.674,26.5424,贵阳市,太慈桥,颗粒物(PM10),56,61,47,29,25,70,,102,91,28,19,13,6,0.6,0.5
2024-10-12T2100,1552A,106.805,26.3003,贵阳市,桐木岭,"颗粒物(PM10),细颗粒物(PM2.5)",52,53,57,36,38,100,,115,108,1,2,7,6,0.5,0.5
2024-10-12T2100,1862A,110.4144,25.3167,桂林市,电子科大尧山校区,颗粒物(PM10),56,62,57,34,36,77,,136,119,15,8,5,8,0.6,0.6
2024-10-12T2100,1863A,110.2819,25.2697,桂林市,监测站,,,,60,,40,34,,148,121,,15,12,19,1.1,0.7
2024-10-12T2100,1864A,110.3089,25.2708,桂林市,龙隐路小学,颗粒物(PM10),59,67,55,39,41,49,,148,124,52,15,8,15,0.7,0.5
2024-10-12T2100,1865A,110.2869,25.2178,桂林市,八中,细颗粒物(PM2.5),73,81,61,53,42,31,,139,114,57,20,8,14,0.9,0.7
2024-10-12T2100,3403A,110.1764,25.2381,桂林市,创业大厦,细颗粒物(PM2.5),73,68,64,53,46,104,,145,133,25,22,37,17,0.4,0.4
2024-10-12T2100,3531A,110.296,25.1253,桂林市,旅游学院,,49,41,49,34,36,82,,138,117,16,19,7,10,0.5,0.5
2024-10-12T2100,2674A,100.2561,34.4714,果洛藏族自治州,玛沁县大武镇,,34,26,17,21,10,106,,119,118,3,2,7,8,0.5,0.4
2024-10-12T2100,1129A,126.5422,45.755,哈尔滨市,岭北,细颗粒物(PM2.5),59,49,22,42,14,46,,104,87,68,27,9,7,1.2,0.5
2024-10-12T2100,1130A,126.561,45.8167,哈尔滨市,松北商大,,41,41,22,20,12,8,,64,38,66,32,8,8,0.7,0.5
2024-10-12T2100,1131A,126.979,45.5419,哈尔滨市,阿城会宁,颗粒物(PM10),71,91,59,27,26,5,,57,38,52,36,8,8,0.7,0.7
2024-10-12T2100,1132A,126.599,45.7222,哈尔滨市,南岗学府路,颗粒物(PM10),62,73,39,21,17,18,,67,42,60,35,9,6,0.8,0.6
2024-10-12T2100,1133A,126.689,45.7733,哈尔滨市,太平宏伟公园,颗粒物(PM10),64,78,35,21,16,6,,62,37,67,34,10,6,0.7,0.5
2024-10-12T2100,1134A,126.635,45.7667,哈尔滨市,道外承德广场,颗粒物(PM10),62,73,35,30,16,22,,69,41,58,41,6,4,0.8,0.5
2024-10-12T2100,1135A,126.685,45.7319,哈尔滨市,香坊红旗大街,,,90,36,37,15,8,,66,40,,35,14,9,0.9,0.6
2024-10-12T2100,1136A,126.6411,45.7258,哈尔滨市,动力和平路,颗粒物(PM10),65,80,32,23,13,5,,65,41,73,37,9,4,0.8,0.4
2024-10-12T2100,1137A,126.593,45.7478,哈尔滨市,道里建国路,颗粒物(PM10),78,105,37,44,20,7,,62,38,86,43,19,4,4.7,0.9
2024-10-12T2100,1138A,126.615,45.61,哈尔滨市,平房东轻厂,颗粒物(PM10),92,134,47,42,20,6,,64,42,75,43,10,9,1.0,0.5
2024-10-12T2100,1139A,126.595,45.9855,哈尔滨市,呼兰师专,,25,20,36,17,19,38,,54,43,36,35,2,2,0.3,0.3
2024-10-12T2100,1140A,126.6206,45.6842,哈尔滨市,省农科院,颗粒物(PM10),82,113,60,44,30,9,,64,34,73,46,9,5,0.7,0.7
2024-10-12T2100,2688A,93.5128,42.8172,哈密市,地区监测站,颗粒物(PM10),136,222,135,66,39,11,,88,76,102,41,10,6,1.2,0.4
2024-10-12T2100,2689A,93.4961,42.8328,哈密市,哈密师范学校,颗粒物(PM10),118,186,125,63,41,11,,79,63,98,50,6,5,1.7,0.7
2024-10-12T2100,2671A,100.9048,36.9639,海北藏族自治州,海晏县西海镇,,24,14,18,13,17,75,,96,91,8,7,7,9,0.3,0.5
2024-10-12T2100,3867A,102.0738,36.5056,海东市,平安区公安北苑,颗粒物(PM10),63,76,40,21,20,38,,89,81,49,21,8,10,0.6,0.5
2024-10-12T2100,1409A,110.576,19.9507,海口市,东寨港,,,,,,,,,,,,,,,,
2024-10-12T2100,1410A,110.3232,20.0574,海口市,海南大学,,41,41,35,20,17,122,,130,129,6,6,4,4,0.5,0.5
2024-10-12T2100,1411A,110.283,20.0053,海口市,秀英海南医院,,44,44,34,20,18,122,,129,128,9,8,6,6,0.4,0.4
2024-10-12T2100,1412A,110.338,19.9969,海口市,海南师范大学,,44,44,36,20,18,119,,128,127,5,5,7,6,0.5,0.5
2024-10-12T2100,1413A,110.33,20.0356,海口市,龙华路环保局宿舍,,42,42,34,19,17,124,,131,130,5,6,5,5,0.4,0.4
2024-10-12T2100,3539A,110.5111,19.9736,海口市,桂林洋子站,"颗粒物(PM10),细颗粒物(PM2.5)",60,69,35,43,20,107,,127,124,8,6,8,7,0.5,0.4
2024-10-12T2100,2673A,100.6188,36.2866,海南藏族自治州,共和县恰卜恰镇,,29,29,32,3,16,75,,98,96,20,18,11,10,0.5,0.6
2024-10-12T2100,2676A,97.3731,37.3753,海西蒙古族藏族自治州,德令哈市,颗粒物(PM10),54,58,23,22,11,67,,104,99,24,6,9,9,0.6,0.5
2024-10-12T2100,1048A,114.5302,36.6116,邯郸市,东污水处理厂,细颗粒物(PM2.5),128,155,139,97,88,78,,143,133,64,60,4,6,0.6,0.9
2024-10-12T2100,1049A,114.4918,36.5713,邯郸市,矿院,细颗粒物(PM2.5),119,148,144,90,87,71,,149,139,64,51,6,8,0.3,0.5
2024-10-12T2100,1050A,114.484,36.6133,邯郸市,丛台公园,细颗粒物(PM2.5),140,147,127,107,86,87,,142,137,58,53,6,8,0.9,0.9
2024-10-12T2100,3458A,114.7895,36.5593,邯郸市,香泉濮院小区,颗粒物(PM10),107,163,191,59,108,71,,172,160,58,45,7,6,0.4,0.7
2024-10-12T2100,3579A,114.50634,36.77178,邯郸市,永年区实验高中,细颗粒物(PM2.5),123,166,146,93,77,62,,166,150,100,56,6,9,0.7,0.9
2024-10-12T2100,3580A,114.20016,36.44293,邯郸市,峰峰矿区临水派出所,细颗粒物(PM2.5),129,125,92,98,55,148,,174,172,28,32,10,17,0.1,1.1
2024-10-12T2100,2634A,106.9893,33.1842,汉中市,汉川机床厂子校,,23,22,22,16,17,44,,64,62,8,9,5,7,0.7,0.7
2024-10-12T2100,2635A,107.0154,33.0706,汉中市,市监测站,,39,39,30,22,21,31,,56,53,24,13,12,10,0.6,0.5
2024-10-12T2100,2636A,107.0089,33.1138,汉中市,鑫源开发区,,37,37,27,19,17,46,,61,60,19,13,14,12,0.4,0.4
2024-10-12T2100,2637A,107.007,33.0323,汉中市,南郑大河坎水厂,,40,40,28,25,19,23,,50,45,31,19,10,9,0.6,0.6
2024-10-12T2100,1223A,120.2072,30.2111,杭州市,滨江,,36,36,82,18,43,98,,136,126,24,41,5,6,0.6,0.8
2024-10-12T2100,1224A,120.0633,30.2747,杭州市,西溪,,43,43,71,16,42,108,,140,131,18,40,6,6,0.6,0.8
2024-10-12T2100,1226A,120.3461,30.3153,杭州市,下沙,,41,41,66,16,36,115,,144,133,30,54,7,7,0.5,0.7
2024-10-12T2100,1227A,120.1269,30.2456,杭州市,卧龙桥,,37,35,60,20,44,117,,152,143,21,24,6,6,0.5,0.7
2024-10-12T2100,1228A,120.1903,30.2692,杭州市,浙江农大,,33,31,70,13,41,104,,137,126,25,39,5,6,0.6,0.8
2024-10-12T2100,1230A,120.1197,30.3119,杭州市,和睦小学,,35,31,68,24,45,105,,143,131,25,46,6,7,0.4,0.5
2024-10-12T2100,1231A,120.3019,30.4183,杭州市,临平镇,,36,31,73,17,52,115,,144,132,15,32,5,5,0.5,0.6
2024-10-12T2100,1232A,120.2697,30.1819,杭州市,城厢镇,,37,37,71,23,55,104,,143,132,22,47,8,8,0.5,0.8
2024-10-12T2100,1233A,120.0883,30.1808,杭州市,云栖,,34,30,59,18,38,106,,146,137,24,31,7,7,0.6,0.7
2024-10-12T2100,3557A,119.9464,30.0494,杭州市,镇二中,,42,39,58,29,45,115,,151,140,17,32,9,9,0.8,0.9
2024-10-12T2100,3558A,119.7183,30.2367,杭州市,市府大楼,颗粒物(PM10),52,54,81,25,48,107,,162,148,21,28,6,7,0.6,0.7
2024-10-12T2100,3656A,120.1556,30.2864,杭州市,消防大队,,36,32,76,19,52,113,,147,136,19,43,9,9,0.3,0.5
2024-10-12T2100,1270A,117.1959,31.7848,合肥市,明珠广场,细颗粒物(PM2.5),58,63,74,41,43,98,,145,134,39,29,8,10,0.6,0.6
2024-10-12T2100,1271A,117.3072,31.8764,合肥市,三里街,颗粒物(PM10),63,75,74,44,43,97,,128,124,35,33,4,5,0.7,0.7
2024-10-12T2100,1272A,117.2588,31.8707,合肥市,琥珀山庄,"颗粒物(PM10),细颗粒物(PM2.5)",59,68,74,42,45,119,,140,138,30,32,8,9,0.8,0.8
2024-10-12T2100,1273A,117.1604,31.9052,合肥市,董铺水库,颗粒物(PM10),59,68,76,41,39,109,,127,127,21,21,4,5,0.6,0.6
2024-10-12T2100,1274A,117.25,31.8571,合肥市,长江中路,细颗粒物(PM2.5),70,85,88,51,53,113,,134,133,28,29,9,10,0.8,0.8
2024-10-12T2100,1275A,117.266,31.9436,合肥市,庐阳区,"颗粒物(PM10),细颗粒物(PM2.5)",67,83,86,48,44,106,,142,138,38,41,4,5,0.7,0.7
2024-10-12T2100,1276A,117.336,31.8586,合肥市,瑶海区,颗粒物(PM10),64,78,81,43,43,101,,131,127,36,36,3,4,0.6,0.8
2024-10-12T2100,1277A,117.3027,31.7964,合肥市,包河区,颗粒物(PM10),70,90,86,48,47,20,,128,99,112,77,7,8,0.6,0.6
2024-10-12T2100,1278A,117.2776,31.7385,合肥市,滨湖新区,颗粒物(PM10),64,78,78,44,45,107,,144,140,28,20,6,7,0.6,0.6
2024-10-12T2100,1279A,117.1318,31.8403,合肥市,高新区,颗粒物(PM10),57,63,69,39,44,117,,136,136,23,23,6,8,0.8,0.8
2024-10-12T2100,3464A,117.3803,31.9147,合肥市,高教基地,细颗粒物(PM2.5),75,79,70,55,40,98,,138,132,26,23,4,5,0.6,0.6
2024-10-12T2100,3614A,79.924,37.0877,和田地区,地区环保局,颗粒物(PM10),141,232,140,69,32,77,,100,99,29,13,8,8,0.7,0.4
2024-10-12T2100,3615A,79.9131,37.113,和田地区,市环保局,颗粒物(PM10),116,181,133,37,37,13,,97,88,90,26,9,7,1.4,0.7
2024-10-12T2100,2516A,108.2011,24.715,河池市,东仁乐园,细颗粒物(PM2.5),53,53,49,37,32,78,,134,114,21,14,5,7,0.7,0.7
2024-10-12T2100,2517A,108.0497,24.6947,河池市,市环保站,细颗粒物(PM2.5),58,44,47,41,36,112,,134,127,13,19,25,14,0.7,0.7
2024-10-12T2100,2518A,108.0983,24.6989,河池市,市疾控中心,细颗粒物(PM2.5),57,59,51,40,36,82,,132,117,32,28,8,10,0.7,0.6
2024-10-12T2100,1696A,114.6778,23.7569,河源市,源西,细颗粒物(PM2.5),63,58,43,45,31,36,,111,89,44,25,5,6,1.2,0.8
2024-10-12T2100,1697A,114.6944,23.7586,河源市,东埔,细颗粒物(PM2.5),68,60,42,49,45,71,,118,106,24,22,3,5,0.8,0.7
2024-10-12T2100,1698A,114.6892,23.7233,河源市,老城,,47,47,41,27,27,61,,112,99,20,16,4,6,0.9,0.8
2024-10-12T2100,1718A,115.4208,35.2464,菏泽市,气象局,颗粒物(PM10),85,120,105,61,53,153,,189,181,36,34,6,7,0.6,0.5
2024-10-12T2100,1719A,115.4747,35.2375,菏泽市,市政协,颗粒物(PM10),92,133,112,67,61,134,,184,174,39,38,5,8,0.7,0.6
2024-10-12T2100,3374A,115.5564,35.0891,菏泽市,定陶老年大学,细颗粒物(PM2.5),104,136,115,78,66,135,,184,173,37,37,8,10,0.6,0.5
2024-10-12T2100,3647A,115.4702,35.2706,菏泽市,菏泽医专,细颗粒物(PM2.5),97,103,93,72,62,143,,189,181,37,34,9,10,0.7,0.6
2024-10-12T2100,2514A,111.5264,24.4172,贺州市,环保小区,颗粒物(PM10),57,63,51,36,36,67,,138,126,37,22,10,7,0.7,0.6
2024-10-12T2100,2515A,111.5608,24.4078,贺州市,政协大楼,细颗粒物(PM2.5),59,65,47,42,27,84,,132,121,29,24,12,10,0.6,0.5
2024-10-12T2100,3534A,111.4744,24.4553,贺州市,西湾,细颗粒物(PM2.5),69,66,61,50,43,44,,134,115,51,25,6,8,0.8,0.7
2024-10-12T2100,2385A,114.17,35.9019,鹤壁市,市监测站,细颗粒物(PM2.5),105,125,121,79,73,54,,159,131,77,47,6,6,0.8,0.8
2024-10-12T2100,2386A,114.2956,35.7511,鹤壁市,市交警支队,细颗粒物(PM2.5),103,139,139,77,76,25,,133,114,107,71,3,4,0.9,0.7
2024-10-12T2100,2387A,114.2878,35.7306,鹤壁市,迎宾馆,细颗粒物(PM2.5),124,163,161,94,82,60,,147,138,81,67,5,7,1.0,0.9
2024-10-12T2100,3474A,114.2617,35.6822,鹤壁市,大新区,细颗粒物(PM2.5),105,141,134,79,89,5,,125,94,120,72,2,3,0.9,0.9
2024-10-12T2100,3596A,114.1572,35.9603,鹤壁市,南山宾馆,细颗粒物(PM2.5),129,147,115,98,74,147,,166,162,13,14,13,4,0.4,0.5
2024-10-12T2100,2244A,130.2537,47.3416,鹤岗市,哈啤分公司,,32,27,22,22,17,53,,65,64,7,5,13,14,0.5,0.4
2024-10-12T2100,2245A,130.2684,47.3086,鹤岗市,斯达机电,,32,28,28,22,19,60,,64,63,12,10,12,14,0.2,0.2
2024-10-12T2100,2246A,130.3114,47.3388,鹤岗市,东山纸板厂,,,,24,,20,16,,66,57,40,12,,17,,0.2
2024-10-12T2100,2247A,130.1097,47.3382,鹤岗市,五号水库,,19,13,16,13,11,57,,72,69,7,5,8,8,0.2,0.1
2024-10-12T2100,2263A,127.4833,50.2524,黑河市,交通局,,33,30,18,23,15,29,,48,39,18,10,6,7,0.5,0.3
2024-10-12T2100,2264A,127.5144,50.2341,黑河市,环保局,,20,20,15,14,14,40,,56,43,14,8,4,5,0.4,0.4
2024-10-12T2100,2265A,127.5291,50.2472,黑河市,大黑河岛,,,,,11,11,38,,57,50,16,8,1,2,,
2024-10-12T2100,1074A,115.6838,37.7541,衡水市,电机北厂,颗粒物(PM10),103,156,112,73,62,10,,174,138,136,42,11,11,0.6,0.5
2024-10-12T2100,1075A,115.6303,37.7316,衡水市,市监测站,细颗粒物(PM2.5),109,155,110,82,60,41,,166,137,82,45,8,11,1.4,0.6
2024-10-12T2100,3188A,115.6683,37.7217,衡水市,市城管局,细颗粒物(PM2.5),105,155,111,79,62,36,,174,149,106,51,12,14,1.0,0.6
2024-10-12T2100,3459A,115.5989,37.5491,衡水市,地表水厂,颗粒物(PM10),84,118,112,54,69,34,,156,130,120,68,3,6,0.6,0.6
2024-10-12T2100,2456A,112.5003,26.9167,衡阳市,原169医院,细颗粒物(PM2.5),74,93,68,54,43,82,,163,145,20,21,16,16,0.8,0.7
2024-10-12T2100,2457A,112.6194,26.9258,衡阳市,衡阳化工总厂,细颗粒物(PM2.5),119,108,81,90,58,151,,168,163,18,18,12,10,0.9,0.8
2024-10-12T2100,2458A,112.6211,26.8956,衡阳市,珠晖区环保局,细颗粒物(PM2.5),92,102,76,68,48,147,,168,159,22,28,13,12,0.9,0.8
2024-10-12T2100,2459A,112.6197,26.8733,衡阳市,市委党校,细颗粒物(PM2.5),87,99,74,64,54,159,,174,169,18,19,14,11,1.0,0.9
2024-10-12T2100,2460A,112.6006,26.8919,衡阳市,市监测站,细颗粒物(PM2.5),125,122,76,95,56,158,,176,170,18,18,14,12,1.0,0.8
2024-10-12T2100,2461A,112.5664,26.9056,衡阳市,真空机电公司,细颗粒物(PM2.5),80,92,74,59,48,152,,175,168,19,22,15,10,1.0,0.9
2024-10-12T2100,3399A,112.6703,26.882,衡阳市,师范学院,细颗粒物(PM2.5),102,116,85,76,50,160,,168,166,18,19,14,13,1.0,0.9
2024-10-12T2100,2608A,103.3772,23.3993,红河哈尼族彝族自治州,污水处理厂,,48,38,31,33,31,78,,86,81,7,8,4,4,0.6,0.6
2024-10-12T2100,2609A,103.3861,23.35,红河哈尼族彝族自治州,监测站,细颗粒物(PM2.5),53,45,42,37,34,78,,84,81,8,9,10,10,0.6,0.5
2024-10-12T2100,3038A,103.3758,23.368,红河哈尼族彝族自治州,州图书馆,,43,35,38,30,26,79,,85,80,9,9,6,6,0.5,0.5
2024-10-12T2100,1090A,111.6507,40.7517,呼和浩特市,呼市一监,颗粒物(PM10),91,132,61,40,23,3,,120,100,94,38,9,9,0.9,0.7
2024-10-12T2100,1091A,111.6572,40.8033,呼和浩特市,小召,颗粒物(PM10),84,117,61,39,24,41,,115,103,80,49,13,10,1.1,0.7
2024-10-12T2100,1094A,111.7516,40.8369,呼和浩特市,如意水处理厂,颗粒物(PM10),97,143,62,35,20,5,,117,90,107,52,6,7,0.8,0.5
2024-10-12T2100,1095A,111.7276,40.8062,呼和浩特市,二十九中,颗粒物(PM10),79,107,61,43,24,26,,120,102,92,46,9,9,1.2,0.8
2024-10-12T2100,1096A,111.5512,40.7866,呼和浩特市,工大金川校区,颗粒物(PM10),93,136,68,42,23,6,,114,92,117,59,8,7,1.1,0.6
2024-10-12T2100,1097A,111.717,40.7612,呼和浩特市,化肥厂生活区,颗粒物(PM10),74,97,67,30,23,23,,116,92,91,40,10,10,0.7,0.6
2024-10-12T2100,3698A,111.5968,40.8178,呼和浩特市,红旗小学,颗粒物(PM10),79,107,74,30,25,2,,109,83,112,66,8,8,0.7,0.6
2024-10-12T2100,3699A,111.6518,40.8389,呼和浩特市,海东办,颗粒物(PM10),97,144,72,46,28,4,,117,97,113,56,7,7,1.2,0.8
2024-10-12T2100,2192A,119.7594,49.2261,呼伦贝尔市,区环保局,,35,35,25,18,17,40,,61,51,20,15,12,6,0.3,0.3
2024-10-12T2100,3061A,119.7512,49.1577,呼伦贝尔市,国华电力东,,19,16,18,13,11,48,,66,61,12,6,4,4,0.3,0.3
2024-10-12T2100,1250A,120.0751,30.8669,湖州市,城西水厂,,25,25,71,14,50,68,,147,119,38,53,7,6,0.4,0.5
2024-10-12T2100,2873A,120.0875,30.8955,湖州市,仁皇山新区,,22,21,65,13,50,69,,144,123,33,35,8,7,0.6,0.7
2024-10-12T2100,2907A,120.1844,30.8596,湖州市,吴兴区站,,22,22,63,14,49,66,,137,113,32,25,8,7,0.4,0.5
2024-10-12T2100,3562A,120.4148,30.8538,湖州市,南浔区站,,25,23,66,17,57,72,,128,107,25,26,3,4,0.5,0.6
2024-10-12T2100,1607A,120.9092,40.7136,葫芦岛市,龙港区,细颗粒物(PM2.5),59,58,60,42,33,99,,103,103,13,33,11,23,0.7,0.8
2024-10-12T2100,1608A,120.8392,40.7514,葫芦岛市,化工街,颗粒物(PM10),92,134,80,61,32,9,,90,80,97,42,20,25,1.2,0.8
2024-10-12T2100,1609A,120.8341,40.7073,葫芦岛市,新区,细颗粒物(PM2.5),78,65,56,57,34,26,,98,88,69,40,8,16,0.9,0.9
2024-10-12T2100,1610A,120.8695,40.7677,葫芦岛市,东城区,细颗粒物(PM2.5),110,101,62,83,38,1,,88,75,94,34,10,20,1.0,0.7
2024-10-12T2100,2482A,109.5981,27.5721,怀化市,林科所,细颗粒物(PM2.5),70,72,62,51,44,113,,114,114,9,10,8,11,1.1,1.2
2024-10-12T2100,2483A,109.9453,27.5444,怀化市,河西地税局,细颗粒物(PM2.5),88,86,78,65,62,100,,112,108,16,14,11,12,0.5,0.5
2024-10-12T2100,2484A,109.9781,27.5342,怀化市,市四医院,,,,78,,55,,,106,106,8,10,9,11,0.7,0.8
2024-10-12T2100,2485A,109.9972,27.5578,怀化市,监测楼,细颗粒物(PM2.5),74,71,74,54,55,105,,121,120,13,11,5,6,0.7,0.7
2024-10-12T2100,2486A,110.0394,27.583,怀化市,市委党校,细颗粒物(PM2.5),72,83,84,52,54,102,,122,119,12,14,9,20,0.7,0.7
2024-10-12T2100,1210A,119.036,33.5981,淮安市,钵池山,细颗粒物(PM2.5),84,78,85,62,69,99,,143,130,28,24,5,6,0.6,0.6
2024-10-12T2100,1211A,119.007,33.575,淮安市,北京南路,细颗粒物(PM2.5),72,88,110,52,73,124,,149,141,18,23,6,8,0.4,0.6
2024-10-12T2100,1212A,118.989,33.6067,淮安市,市监测站,细颗粒物(PM2.5),79,70,82,58,68,123,,152,145,23,23,7,9,0.7,0.8
2024-10-12T2100,1213A,119.135,33.5039,淮安市,楚州区监测站,细颗粒物(PM2.5),77,81,94,56,82,102,,143,131,28,34,6,7,0.6,0.7
2024-10-12T2100,1214A,119.0186,33.6297,淮安市,淮阴区监测站,细颗粒物(PM2.5),84,80,98,62,71,114,,150,139,26,31,6,7,0.6,0.7
2024-10-12T2100,3426A,118.8755,33.2894,淮安市,新华书店,细颗粒物(PM2.5),62,72,93,44,53,120,,151,141,21,29,4,8,0.6,0.7
2024-10-12T2100,2282A,116.8004,33.975,淮北市,监测站,颗粒物(PM10),71,92,91,49,51,126,,156,146,18,24,2,3,0.6,0.7
2024-10-12T2100,2283A,116.8091,33.9007,淮北市,烈山区政府,细颗粒物(PM2.5),77,102,108,56,63,123,,156,147,20,26,3,5,0.6,0.7
2024-10-12T2100,3330A,116.8873,33.9836,淮北市,杜集区检察院,细颗粒物(PM2.5),84,99,103,62,66,138,,170,161,19,24,5,4,0.5,0.5
2024-10-12T2100,4017A,116.7923,33.9535,淮北市,市博物馆,细颗粒物(PM2.5),73,87,92,53,55,126,,162,153,20,23,3,4,0.7,0.7
2024-10-12T2100,2277A,116.8305,32.7727,淮南市,潘集区政府,细颗粒物(PM2.5),97,116,104,72,59,128,,153,147,23,27,8,9,0.7,0.7
2024-10-12T2100,2278A,117.0067,32.6524,淮南市,师范学院,细颗粒物(PM2.5),89,110,93,66,52,152,,167,163,24,19,8,9,0.7,0.7
2024-10-12T2100,2279A,116.8569,32.5951,淮南市,谢家集区政府,细颗粒物(PM2.5),97,106,83,72,50,150,,156,154,26,24,9,9,0.7,0.6
2024-10-12T2100,2280A,116.8281,32.633,淮南市,八公山区政府,细颗粒物(PM2.5),93,112,90,69,49,138,,160,157,25,17,10,10,0.5,0.5
2024-10-12T2100,2281A,116.6325,32.6201,淮南市,焦岗湖风景区管理处,颗粒物(PM10),62,73,74,34,35,148,,154,150,19,16,9,8,0.3,0.3
2024-10-12T2100,2894A,117.0566,32.6531,淮南市,经济技术开发区消防队,细颗粒物(PM2.5),80,93,88,59,48,128,,161,154,32,25,6,7,0.6,0.6
2024-10-12T2100,3329A,117.0108,32.5893,淮南市,山南新区,细颗粒物(PM2.5),109,129,95,82,53,145,,168,164,30,21,6,4,0.9,0.7
2024-10-12T2100,2446A,114.9028,30.4742,黄冈市,职工中心,细颗粒物(PM2.5),112,123,87,84,47,107,,163,147,34,27,12,11,0.9,0.8
2024-10-12T2100,2929A,114.8858,30.4519,黄冈市,红卫路,细颗粒物(PM2.5),89,99,76,66,46,106,,158,145,36,31,12,11,0.9,0.7
2024-10-12T2100,3398A,114.9136,30.4445,黄冈市,市林业局,颗粒物(PM10),84,117,78,54,42,101,,157,146,46,32,13,12,0.9,0.6
2024-10-12T2100,2672A,102.0199,35.5102,黄南藏族自治州,同仁县隆务镇,,42,42,33,16,15,66,,99,94,8,3,11,9,0.5,0.4
2024-10-12T2100,2295A,118.2903,29.6963,黄山市,延安路89号,细颗粒物(PM2.5),79,95,60,58,26,80,,149,134,18,11,7,7,0.6,0.4
2024-10-12T2100,2296A,118.327,29.7178,黄山市,黄山东路89号,细颗粒物(PM2.5),65,68,54,47,32,91,,146,128,15,11,7,6,0.5,0.4
2024-10-12T2100,2297A,118.1371,30.2756,黄山市,黄山区政府5号楼,细颗粒物(PM2.5),82,81,55,60,34,51,,134,112,12,10,7,7,0.7,0.5
2024-10-12T2100,2423A,115.0601,30.2313,黄石市,沈家营,细颗粒物(PM2.5),90,73,83,67,51,160,,168,165,22,35,13,30,0.8,0.8
2024-10-12T2100,2424A,115.0817,30.2006,黄石市,陈家湾,细颗粒物(PM2.5),122,,68,92,46,173,,185,184,15,13,14,12,0.8,0.6
2024-10-12T2100,2426A,114.8988,30.2019,黄石市,铁山,臭氧1小时,68,68,67,48,42,174,,174,170,16,12,12,13,1.0,1.1
2024-10-12T2100,2427A,115.0307,30.2092,黄石市,团城山,细颗粒物(PM2.5),73,68,72,53,40,175,,180,180,15,16,10,10,0.7,0.6
2024-10-12T2100,3149A,115.0235,30.1578,黄石市,笔架山北路,细颗粒物(PM2.5),73,62,70,53,42,152,,170,165,17,19,9,12,0.6,0.7
2024-10-12T2100,1392A,114.4183,23.0528,惠州市,河南岸金山湖子站,颗粒物(PM10),53,55,51,30,32,116,,138,134,20,11,7,6,0.7,0.7
2024-10-12T2100,1393A,114.4053,23.0822,惠州市,下埔横江三路子站,颗粒物(PM10),55,59,51,34,30,123,,144,140,24,13,8,6,0.8,0.8
2024-10-12T2100,1394A,114.4103,23.1142,惠州市,江北云山西路子站,,,59,47,33,29,,,139,136,23,11,9,7,,0.6
2024-10-12T2100,1395A,114.4645,22.7833,惠州市,惠阳区承修路船湖子站,,42,42,52,18,26,122,,174,162,16,17,7,8,0.6,0.7
2024-10-12T2100,1396A,114.5317,22.7422,惠州市,大亚湾管委会子站,,43,35,44,16,27,135,,177,164,12,19,8,9,0.6,0.7
2024-10-12T2100,3314A,114.4338,22.8134,惠州市,惠阳秋长,,46,27,40,17,28,146,,191,182,14,17,6,6,0.7,0.8
2024-10-12T2100,3452A,114.6517,22.775,惠州市,大亚湾霞涌,,40,34,42,12,33,128,,167,156,6,12,5,7,0.5,0.7
2024-10-12T2100,2240A,130.9762,45.3001,鸡西市,环保局,颗粒物(PM10),63,76,46,28,18,9,,67,40,60,22,8,6,0.7,0.4
2024-10-12T2100,2243A,130.9429,45.3039,鸡西市,第一中学,,31,31,27,14,11,50,,71,55,18,12,7,6,0,0
2024-10-12T2100,3707A,131.0207,45.3073,鸡西市,欧美日汽修厂,细颗粒物(PM2.5),107,154,56,80,26,6,,73,48,47,25,15,8,1.0,0.3
2024-10-12T2100,3709A,130.9967,45.3106,鸡西市,市政设施管理处,颗粒物(PM10),85,120,66,62,23,3,,67,38,55,30,11,7,0.8,0.4
2024-10-12T2100,2367A,114.9754,27.0803,吉安市,红声器材厂,颗粒物(PM10),65,79,69,44,40,129,,159,152,27,22,15,15,0.7,0.5
2024-10-12T2100,2368A,114.9658,27.0999,吉安市,市森林工业局,颗粒物(PM10),55,60,61,38,37,133,,151,145,27,21,16,16,0.8,0.7
2024-10-12T2100,2369A,114.99,27.1312,吉安市,市环境监测站,细颗粒物(PM2.5),59,66,56,42,35,136,,156,151,20,20,23,23,0.7,0.6
2024-10-12T2100,2370A,115.0093,27.0968,吉安市,青原区法院,细颗粒物(PM2.5),70,81,67,51,39,127,,157,149,21,21,20,22,0.7,0.7
2024-10-12T2100,1772A,126.54,43.8622,吉林市,哈达湾,细颗粒物(PM2.5),75,83,49,55,27,13,,70,57,70,31,9,10,1.1,0.7
2024-10-12T2100,1773A,126.5844,43.8358,吉林市,东局子,颗粒物(PM10),66,82,65,37,30,4,,62,44,68,46,6,6,0.9,0.8
2024-10-12T2100,1774A,126.5052,43.8245,吉林市,电力学院,细颗粒物(PM2.5),84,112,61,62,34,7,,68,47,58,30,6,6,1.3,0.9
2024-10-12T2100,1775A,126.6133,43.8972,吉林市,江北,细颗粒物(PM2.5),74,93,68,54,35,19,,68,52,49,34,12,12,1.1,0.9
2024-10-12T2100,1776A,126.555,43.8306,吉林市,江南公园,细颗粒物(PM2.5),99,143,64,74,33,9,,64,46,66,41,8,8,1.1,0.8
2024-10-12T2100,1778A,126.7061,43.7133,吉林市,丰满,,18,17,34,9,26,55,,76,70,10,13,6,7,0.2,0.3
2024-10-12T2100,2868A,126.4739,43.953,吉林市,九站,细颗粒物(PM2.5),72,87,62,52,32,8,,76,54,67,34,10,8,1.1,0.7
2024-10-12T2100,1299A,116.9862,36.6114,济南市,科干所,颗粒物(PM10),59,68,62,39,26,121,,169,155,29,27,7,8,0.9,0.7
2024-10-12T2100,1300A,116.9376,36.665,济南市,农科所,颗粒物(PM10),96,142,93,56,31,15,,156,123,129,76,7,7,1.9,1
2024-10-12T2100,1301A,117.1265,36.6734,济南市,开发区,颗粒物(PM10),74,98,61,44,29,44,,156,126,111,45,5,6,1.0,0.7
2024-10-12T2100,1303A,117.0624,36.6868,济南市,省种子仓库,颗粒物(PM10),76,102,79,41,30,42,,159,131,96,69,4,5,0.8,0.7
2024-10-12T2100,1304A,116.9489,36.6447,济南市,机床二厂,颗粒物(PM10),84,117,96,49,37,23,,167,130,117,66,6,6,1.5,1
2024-10-12T2100,1305A,117.0495,36.663,济南市,市监测站,颗粒物(PM10),63,76,71,42,31,102,,163,144,58,69,6,6,0.9,0.8
2024-10-12T2100,1306A,116.7675,36.5484,济南市,长清党校,颗粒物(PM10),63,76,64,34,30,116,,184,170,52,37,7,7,0.7,0.6
2024-10-12T2100,1616A,117.6795,36.229,济南市,技术学院,细颗粒物(PM2.5),98,127,76,73,44,90,,166,146,62,47,12,11,1.2,0.9
2024-10-12T2100,1961A,117.532,36.6868,济南市,东山小学,颗粒物(PM10),68,85,66,44,28,68,,156,118,90,48,6,6,0.7,0.6
2024-10-12T2100,3059A,117.7161,36.2049,济南市,泰兴公司,细颗粒物(PM2.5),83,114,79,61,42,47,,162,121,100,63,12,10,0.8,0.7
2024-10-12T2100,3064A,117.6867,36.2171,济南市,莱芜战役纪念馆,颗粒物(PM10),93,136,86,68,41,65,,158,136,82,58,10,9,1.1,0.8
2024-10-12T2100,3494A,117.1673,36.9782,济南市,济阳区政府,颗粒物(PM10),86,122,81,42,34,88,,168,148,51,44,36,12,0.6,0.5
2024-10-12T2100,3495A,117.1171,36.63,济南市,锦屏中学,颗粒物(PM10),51,51,42,27,20,102,,164,140,42,26,5,6,0.7,0.5
2024-10-12T2100,3682A,116.9814,36.6819,济南市,济南四建,颗粒物(PM10),78,105,89,51,41,45,,152,128,99,81,4,5,1.4,1
2024-10-12T2100,1653A,116.6251,35.4302,济宁市,火炬城,细颗粒物(PM2.5),79,94,78,58,46,129,,165,153,34,46,11,14,0.9,0.9
2024-10-12T2100,1655A,116.5491,35.4042,济宁市,电化厂,颗粒物(PM10),71,91,95,46,44,171,,160,158,19,38,11,12,1.0,1
2024-10-12T2100,3500A,116.5814,35.3707,济宁市,北湖一中,细颗粒物(PM2.5),70,76,76,51,50,167,,184,180,21,44,11,11,0.7,0.6
2024-10-12T2100,3501A,116.8249,35.5593,济宁市,服务中心,细颗粒物(PM2.5),74,96,98,54,51,114,,163,152,38,54,9,10,0.9,0.9
2024-10-12T2100,3678A,116.5907,35.4054,济宁市,市第七中学,细颗粒物(PM2.5),67,80,83,48,47,157,,179,174,24,40,10,14,0.8,0.9
2024-10-12T2100,2255A,130.2751,46.8028,佳木斯市,佳纺,,26,26,31,11,15,34,,64,56,31,20,5,5,0.5,0.5
2024-10-12T2100,2256A,130.3995,46.8307,佳木斯市,发电厂,,19,19,20,8,10,41,,67,60,19,12,5,5,0.3,0.4
2024-10-12T2100,2257A,130.3258,46.7975,佳木斯市,环保局,,31,31,25,11,10,36,,62,53,23,17,10,9,0.4,0.4
2024-10-12T2100,2258A,130.3648,46.8032,佳木斯市,十一中,,29,29,28,13,12,37,,65,55,36,20,11,7,0.5,0.4
2024-10-12T2100,2259A,130.3794,46.7588,佳木斯市,四丰,,,20,15,3,7,41,,65,59,,,1,1,0.1,0.1
2024-10-12T2100,1252A,120.7436,30.778,嘉兴市,清河小学,,,20,50,13,31,,,129,113,24,30,5,5,0.5,0.6
2024-10-12T2100,1253A,120.726,30.7478,嘉兴市,嘉兴学院,,27,27,54,16,51,80,,121,106,26,26,4,4,0.5,0.6
2024-10-12T2100,2872A,120.7846,30.7525,嘉兴市,南湖区残联,,25,25,52,15,43,71,,110,96,24,27,6,6,0.5,0.6
2024-10-12T2100,3407A,120.6916,30.7739,嘉兴市,秀洲住建,,28,20,41,15,30,87,,132,114,23,29,6,7,0.5,0.6
2024-10-12T2100,1945A,98.2908,39.7711,嘉峪关市,气象局,颗粒物(PM10),64,78,53,24,17,56,,108,98,32,24,8,18,0.6,0.5
2024-10-12T2100,2884A,98.2672,39.7978,嘉峪关市,酒钢宾馆,颗粒物(PM10),70,90,57,39,22,46,,102,94,73,24,9,33,0.8,0.7
2024-10-12T2100,3248A,98.2643,39.7724,嘉峪关市,雄关区,颗粒物(PM10),63,75,47,26,20,41,,110,98,67,23,11,14,0.7,0.5
2024-10-12T2100,1383A,113.1064,22.6058,江门市,北街,,49,40,44,24,35,155,,187,181,17,25,5,6,0.6,0.6
2024-10-12T2100,1384A,113.0731,22.5835,江门市,西区,颗粒物(PM10),59,68,60,31,30,136,,189,180,32,32,6,6,0.5,0.6
2024-10-12T2100,1385A,113.0219,22.5311,江门市,圭峰西,,43,43,49,30,33,137,,176,170,24,23,4,4,0.4,0.5
2024-10-12T2100,1386A,113.0828,22.5947,江门市,东湖,颗粒物(PM10),53,56,55,28,25,140,,185,178,24,26,6,6,0.6,0.6
2024-10-12T2100,3311A,113.1075,22.5647,江门市,江海富民,颗粒物(PM10),60,69,63,37,30,161,,184,180,20,24,7,7,0.6,0.6
2024-10-12T2100,3449A,113.05,22.4667,江门市,新会银湖,,45,40,54,31,35,144,,167,160,16,31,7,7,0.6,0.7
2024-10-12T2100,1828A,113.227,35.2125,焦作市,市环保局,细颗粒物(PM2.5),158,202,127,120,78,60,,140,117,59,33,8,9,0.7,0.6
2024-10-12T2100,1830A,113.1992,35.2590,焦作市,影视城,细颗粒物(PM2.5),110,,89,83,62,153,,172,166,14,12,10,10,0.5,0.6
2024-10-12T2100,3169A,113.2725,35.2067,焦作市,太极体育中心,细颗粒物(PM2.5),153,223,144,117,78,39,,128,107,82,44,7,9,0.9,0.8
2024-10-12T2100,3335A,113.3137,35.2641,焦作市,马村街道办,细颗粒物(PM2.5),130,193,122,99,72,62,,136,109,61,33,7,7,0.5,0.3
2024-10-12T2100,3336A,113.2465,35.2373,焦作市,焦作技师学院,细颗粒物(PM2.5),104,153,122,78,66,71,,130,113,47,26,5,6,0.9,0.9
2024-10-12T2100,3477A,113.1656,35.2539,焦作市,中站许衡医院,细颗粒物(PM2.5),110,141,108,83,61,113,,150,130,30,35,8,7,0.3,0.6
2024-10-12T2100,3981A,113.2449,35.1803,焦作市,原李万街道办,细颗粒物(PM2.5),153,241,151,117,78,42,,129,104,76,46,12,15,1.0,0.8
2024-10-12T2100,1708A,116.3701,23.5345,揭阳市,新兴,,40,40,52,28,33,116,,144,136,19,20,8,11,0.6,0.6
2024-10-12T2100,1709A,116.3264,23.5443,揭阳市,西马,,45,45,56,17,32,121,,153,144,12,14,7,9,0.7,0.7
2024-10-12T2100,1710A,116.3611,23.5626,揭阳市,东兴,颗粒物(PM10),54,57,56,26,33,116,,152,142,15,17,6,10,0.8,0.8
2024-10-12T2100,1711A,116.4151,23.5294,揭阳市,渔湖,,43,43,52,29,28,114,,147,140,17,18,10,11,0.7,0.7
2024-10-12T2100,3320A,116.403,23.5699,揭阳市,曲溪,,50,50,54,30,34,112,,156,144,22,22,9,3,0.5,0.6
2024-10-12T2100,1944A,102.1692,38.5167,金昌市,天庆家园,,48,34,33,33,23,55,,103,92,35,21,14,16,0.7,0.7
2024-10-12T2100,3170A,102.1864,38.5253,金昌市,市委党校,颗粒物(PM10),63,76,53,32,21,56,,105,97,39,20,18,11,1.1,0.7
2024-10-12T2100,4022A,102.1647,38.5371,金昌市,金川区人防中心,颗粒物(PM10),70,90,50,36,20,50,,106,94,56,20,16,12,0.8,0.6
2024-10-12T2100,1262A,119.647,29.077,金华市,十五中,颗粒物(PM10),57,63,82,38,52,82,,172,144,38,38,4,4,0.6,0.6
2024-10-12T2100,1263A,119.686,29.1029,金华市,监测站,颗粒物(PM10),60,70,82,41,52,70,,168,140,48,49,3,4,0.6,0.6
2024-10-12T2100,3659A,119.656,29.1131,金华市,气象局,颗粒物(PM10),60,70,79,35,39,66,,169,140,48,54,5,5,0.4,0.5
2024-10-12T2100,1767A,121.1115,41.0879,锦州市,南山,细颗粒物(PM2.5),117,,49,88,40,51,,85,80,48,30,9,13,0.9,0.8
2024-10-12T2100,1768A,121.0533,40.8434,锦州市,开发区,细颗粒物(PM2.5),97,140,79,72,46,6,,86,70,108,42,12,13,0.9,0.9
2024-10-12T2100,1769A,121.1836,41.1119,锦州市,百股街道,细颗粒物(PM2.5),73,66,51,53,27,28,,84,77,56,28,8,15,1.4,1.2
2024-10-12T2100,1770A,121.1178,41.1222,锦州市,天安街道,细颗粒物(PM2.5),135,104,58,103,34,27,,86,78,87,39,11,13,1.4,1
2024-10-12T2100,1771A,121.1303,41.1386,锦州市,北湖公园,细颗粒物(PM2.5),140,,51,107,33,50,,96,90,52,26,10,12,1.1,0.8
2024-10-12T2100,2160A,112.85,35.5051,晋城市,自来水公司,细颗粒物(PM2.5),110,116,107,83,68,119,,160,156,36,42,15,11,1.2,1.2
2024-10-12T2100,2161A,112.8318,35.4936,晋城市,白云商贸,细颗粒物(PM2.5),125,164,126,95,72,115,,158,152,39,43,12,8,1.2,1.2
2024-10-12T2100,2162A,112.8508,35.4887,晋城市,市环保局,细颗粒物(PM2.5),122,167,118,92,64,129,,157,154,33,48,15,9,1.3,1.1
2024-10-12T2100,2163A,112.8676,35.4897,晋城市,技术学院,细颗粒物(PM2.5),117,135,118,88,67,128,,157,153,37,51,16,9,1.4,1.3
2024-10-12T2100,2165A,112.8453,35.546,晋城市,白马寺,,,,,,,,,,,,,,,,
2024-10-12T2100,3620A,112.8271,35.4828,晋城市,泽州一中,细颗粒物(PM2.5),132,150,120,100,76,129,,155,150,31,35,21,12,1.4,1.3
2024-10-12T2100,2171A,112.7532,37.6945,晋中市,锦纶小区,颗粒物(PM10),84,117,65,56,24,110,,132,130,32,29,12,8,0.8,0.5
2024-10-12T2100,2173A,112.7249,37.7067,晋中市,南都小区,颗粒物(PM10),77,103,65,51,33,111,,132,130,30,37,10,7,0.7,0.6
2024-10-12T2100,2174A,112.6991,37.6982,晋中市,榆次区政府,颗粒物(PM10),75,100,69,37,26,104,,132,127,32,34,10,8,0.6,0.4
2024-10-12T2100,2865A,112.7195,37.6828,晋中市,榆次三中,颗粒物(PM10),82,114,68,58,22,107,,128,125,30,33,14,10,1.0,0.5
2024-10-12T2100,2439A,112.2014,31.0481,荆门市,竹园小学,细颗粒物(PM2.5),89,74,92,66,58,72,,88,85,23,32,12,14,0.8,0.8
2024-10-12T2100,2440A,112.1969,30.9891,荆门市,掇刀,细颗粒物(PM2.5),75,75,82,55,52,90,,102,97,18,25,8,13,0.6,0.6
2024-10-12T2100,2441A,112.2213,31.0386,荆门市,石化一小,细颗粒物(PM2.5),95,84,100,71,62,77,,92,88,25,31,21,22,0.6,0.6
2024-10-12T2100,3012A,112.1849,31.0362,荆门市,西山林语,细颗粒物(PM2.5),95,90,84,71,51,92,,98,97,18,24,9,11,0.5,0.6
2024-10-12T2100,3547A,112.1632,31.0138,荆门市,龙泉中学南校,细颗粒物(PM2.5),68,65,76,49,47,87,,110,101,25,32,7,11,0.5,0.7
2024-10-12T2100,1844A,112.2494,30.3197,荆州市,市图书馆,细颗粒物(PM2.5),85,73,88,63,66,91,,116,113,27,26,14,15,0.9,0.9
2024-10-12T2100,1845A,112.2008,30.3544,荆州市,市委党校,细颗粒物(PM2.5),78,71,81,57,64,82,,116,111,28,26,9,11,0.7,0.7
2024-10-12T2100,3194A,112.2747,30.3122,荆州市,管委会,细颗粒物(PM2.5),87,80,86,64,70,95,,122,116,26,27,12,13,0.9,0.9
2024-10-12T2100,3548A,112.1655,30.3364,荆州市,学苑路,细颗粒物(PM2.5),79,87,93,58,63,84,,118,111,25,25,8,22,0.8,0.8
2024-10-12T2100,2342A,117.3102,29.3867,景德镇市,王港中学,,,,,,,,,,,,,,,,
2024-10-12T2100,2343A,117.2117,29.2933,景德镇市,老干部活动中心,细颗粒物(PM2.5),87,79,51,64,35,73,,144,126,17,16,10,9,0.4,0.2
2024-10-12T2100,2344A,117.1894,29.2789,景德镇市,兽医站,细颗粒物(PM2.5),63,74,53,45,30,103,,152,140,15,15,7,7,0.5,0.4
2024-10-12T2100,2345A,117.1547,29.2617,景德镇市,台达陶瓷,细颗粒物(PM2.5),64,65,53,46,30,102,,136,129,16,14,7,8,0.7,0.6
2024-10-12T2100,2346A,117.2461,29.2956,景德镇市,陶研所,细颗粒物(PM2.5),68,71,53,49,33,45,,152,128,42,18,7,6,0.5,0.5
2024-10-12T2100,1803A,115.9872,29.6815,九江市,十里,细颗粒物(PM2.5),83,102,89,61,48,134,,176,170,29,26,20,14,0.8,0.8
2024-10-12T2100,1804A,115.9584,29.7046,九江市,茅山头,细颗粒物(PM2.5),132,135,81,100,50,130,,158,155,29,29,10,11,0.9,0.9
2024-10-12T2100,1805A,115.9877,29.7295,九江市,西园,细颗粒物(PM2.5),114,118,79,86,50,142,,176,171,26,24,16,14,0.8,0.7
2024-10-12T2100,1806A,116.0172,29.6547,九江市,五七二七厂,"颗粒物(PM10),细颗粒物(PM2.5)",68,86,84,49,47,152,,168,166,17,25,12,18,0.7,1.1
2024-10-12T2100,1808A,115.9114,29.6038,九江市,综合工业园,细颗粒物(PM2.5),83,85,86,61,58,152,,163,162,30,54,17,23,0.8,0.9
2024-10-12T2100,1809A,116.0721,29.7535,九江市,石化总厂,细颗粒物(PM2.5),122,128,96,92,58,104,,159,148,47,33,12,12,0.9,0.9
2024-10-12T2100,1810A,115.9773,29.5698,九江市,庐山气象台,臭氧1小时,74,55,58,36,31,179,,181,181,5,6,8,12,0.7,0.7
2024-10-12T2100,3190A,116.0254,29.6994,九江市,外国语学校,细颗粒物(PM2.5),103,115,87,77,53,126,,165,158,33,31,17,11,0.5,0.5
2024-10-12T2100,2658A,98.5061,39.7443,酒泉市,仓门街子站,颗粒物(PM10),70,90,52,37,22,26,,118,98,63,16,7,8,1.3,0.5
2024-10-12T2100,2659A,98.4989,39.7256,酒泉市,油田生活基地,颗粒物(PM10),91,132,59,32,23,17,,112,98,70,15,13,6,0.7,0.4
2024-10-12T2100,2698A,76.0072,39.4467,喀什地区,巡警大队,颗粒物(PM10),79,107,181,33,41,78,,102,102,36,49,4,5,0.7,0.9
2024-10-12T2100,2699A,75.9755,39.4694,喀什地区,吾办,颗粒物(PM10),79,107,155,30,54,42,,100,98,61,45,4,3,0.9,1
2024-10-12T2100,4027A,75.9483,39.4689,喀什地区,老干局,颗粒物(PM10),79,108,164,17,29,70,,108,108,39,41,5,6,0.8,0.8
2024-10-12T2100,1824A,114.3389,34.7781,开封市,肿瘤医院,细颗粒物(PM2.5),118,144,170,89,115,112,,161,146,46,64,7,9,0.8,0.8
2024-10-12T2100,1826A,114.2885,34.7965,开封市,世纪星幼儿园,颗粒物(PM10),85,120,136,51,70,136,,177,163,30,47,3,3,0.7,0.8
2024-10-12T2100,3147A,114.3438,34.8106,开封市,龙亭公园,,,,169,,133,,,173,164,41,55,5,6,,0.9
2024-10-12T2100,3210A,114.3644,34.7964,开封市,汴京公园,细颗粒物(PM2.5),93,126,164,69,114,101,,153,139,39,49,4,8,0.6,0.7
2024-10-12T2100,3473A,114.2485,34.8306,开封市,技师学院,颗粒物(PM10),80,110,130,56,64,152,,182,173,23,32,4,6,0.8,0.7
2024-10-12T2100,3592A,114.4644,34.7556,开封市,祥符区生态环境局,颗粒物(PM10),114,178,165,80,93,51,,147,118,85,73,3,4,0.7,0.6
2024-10-12T2100,1951A,84.895,45.6094,克拉玛依市,长征新村,,24,24,32,12,7,60,,92,64,18,12,6,7,0.3,0.3
2024-10-12T2100,1952A,84.8988,45.5893,克拉玛依市,南林小区,,22,16,31,15,17,65,,94,67,22,20,4,4,0.2,0.1
2024-10-12T2100,1954A,84.905,44.3396,克拉玛依市,独山子区,,31,6,44,3,17,98,,103,92,7,15,7,9,0.2,0.3
2024-10-12T2100,1955A,85.6979,46.098,克拉玛依市,乌尔禾区商贸楼,,27,19,34,3,9,86,,95,86,2,7,1,2,0.1,0.2
2024-10-12T2100,3612A,85.1045,45.6899,克拉玛依市,白碱滩区新站,,30,30,43,3,10,69,,101,71,19,17,8,8,0.3,0.3
2024-10-12T2100,2697A,76.1454,39.7142,克孜勒苏柯尔克孜自治州,市人民政府,颗粒物(PM10),95,140,94,39,30,94,,122,122,40,13,3,6,0.4,0.3
2024-10-12T2100,3665A,76.1658,39.7157,克孜勒苏柯尔克孜自治州,克州文化中心,颗粒物(PM10),83,115,88,34,32,113,,126,126,27,17,7,12,0.5,0.4
2024-10-12T2100,1450A,102.8204,24.8886,昆明市,呈贡新区,,34,34,23,14,12,50,,75,71,15,11,4,6,0.6,0.7
2024-10-12T2100,1451A,102.6251,24.9608,昆明市,西山森林公园,,,,,,,,,,,,,,,,
2024-10-12T2100,1452A,102.7252,25.0902,昆明市,龙泉镇,,33,33,19,11,11,52,,72,68,16,16,7,6,0.7,0.8
2024-10-12T2100,1453A,102.7266,25.0375,昆明市,东风东路,,20,20,18,14,13,53,,69,68,14,12,7,6,0.4,0.6
2024-10-12T2100,1454A,102.6742,25.0669,昆明市,金鼎山,,25,25,18,9,11,51,,72,69,17,14,3,2,0.5,0.5
2024-10-12T2100,1455A,102.6644,25.0401,昆明市,碧鸡广场,,28,23,19,19,12,56,,76,73,15,16,7,7,0.3,0.4
2024-10-12T2100,3179A,102.7494,25.0119,昆明市,官渡区博物馆,,20,20,20,12,11,56,,75,72,13,9,6,6,0.5,0.5
2024-10-12T2100,3375A,102.8017,24.8336,昆明市,青年创业园,,22,22,18,14,13,35,,77,70,26,12,6,6,0.7,0.7
2024-10-12T2100,3550A,102.7997,24.9786,昆明市,昆明学院,,25,24,18,17,13,58,,77,75,12,9,6,6,0.5,0.6
2024-10-12T2100,3551A,102.5967,24.6736,昆明市,晋宁区生态环境分局,,35,35,22,19,15,56,,77,75,12,8,1,2,0.4,0.5
2024-10-12T2100,3552A,102.6678,24.9856,昆明市,云天化总部,,21,18,16,14,13,65,,80,78,7,6,6,5,0.4,0.6
2024-10-12T2100,1456A,91.1319,29.6514,拉萨市,八廓街,,37,19,17,7,7,117,,127,126,9,15,8,11,0.2,0.2
2024-10-12T2100,1457A,91.1221,29.6747,拉萨市,市环保局,,35,17,22,12,10,110,,120,118,13,18,6,9,0.2,0.3
2024-10-12T2100,1458A,91.0874,29.6475,拉萨市,区监测站,,35,14,18,9,10,111,,122,121,10,25,6,10,0.2,0.2
2024-10-12T2100,1459A,91.1774,29.6541,拉萨市,西藏大学,,36,19,15,7,6,113,,123,122,6,8,5,11,0.2,0.2
2024-10-12T2100,1460A,90.9798,29.6588,拉萨市,区辐射站,,37,21,22,7,10,116,,120,120,3,24,8,10,0.2,0.2
2024-10-12T2100,1461A,91.0834,29.6292,拉萨市,拉萨火车站,,34,13,16,11,10,107,,117,116,7,22,5,7,0.1,0.4
2024-10-12T2100,2520A,109.2203,23.7256,来宾市,来宾技工学校,细颗粒物(PM2.5),85,68,66,63,41,114,,143,136,14,21,9,17,0.9,0.8
2024-10-12T2100,3535A,109.1781,23.7297,来宾市,兴宾区政府,细颗粒物(PM2.5),64,71,58,46,38,103,,146,138,16,13,10,11,0.8,0.8
2024-10-12T2100,4002A,109.2416,23.7461,来宾市,中南小学,,,,66,,40,,,151,143,27,22,8,12,0.9,0.8
2024-10-12T2100,1476A,103.631,36.1031,兰州市,兰炼宾馆,细颗粒物(PM2.5),63,64,59,45,34,38,,77,74,53,42,8,9,0.6,0.6
2024-10-12T2100,1477A,104.1373,35.9454,兰州市,榆中兰大校区,,,,,,,,,,,,,,,,
2024-10-12T2100,1478A,103.8412,36.0726,兰州市,生物制品所,颗粒物(PM10),83,116,45,40,28,12,,64,61,73,36,10,10,0.7,0.6
2024-10-12T2100,1479A,103.831,36.0464,兰州市,铁路设计院,"颗粒物(PM10),细颗粒物(PM2.5)",60,69,48,43,31,17,,52,50,77,47,8,7,0.9,0.6
2024-10-12T2100,3186A,103.7158,36.1058,兰州市,教育港,颗粒物(PM10),68,86,56,44,33,23,,69,69,68,38,9,8,0.8,0.6
2024-10-12T2100,3241A,103.7439,36.0842,兰州市,百合公园,颗粒物(PM10),62,73,50,36,26,12,,60,59,71,36,8,7,0.6,0.7
2024-10-12T2100,3242A,103.9611,35.998,兰州市,和平,颗粒物(PM10),58,66,43,32,24,51,,74,74,34,25,11,10,0.6,0.5
2024-10-12T2100,3245A,103.6633,36.533,兰州新区,新区管委会,,38,38,44,26,23,73,,88,88,20,22,11,9,0.4,0.5
2024-10-12T2100,3246A,103.6975,36.4789,兰州新区,舟曲中学,,36,36,50,13,21,85,,96,96,20,22,10,9,0.4,0.5
2024-10-12T2100,1067A,116.6708,39.5111,廊坊市,药材公司,细颗粒物(PM2.5),107,148,162,80,107,90,,128,128,38,73,5,7,0.9,1
2024-10-12T2100,1068A,116.7214,39.5589,廊坊市,开发区,细颗粒物(PM2.5),94,133,139,70,79,85,,120,120,32,61,3,5,0.8,0.8
2024-10-12T2100,1070A,116.7244,39.5269,廊坊市,北华航天学院,细颗粒物(PM2.5),100,139,158,75,97,83,,124,123,31,65,4,7,0.8,0.9
2024-10-12T2100,2919A,116.7022,39.5453,廊坊市,河北工业大学,细颗粒物(PM2.5),94,119,140,70,98,86,,124,124,36,73,5,7,0.8,0.8
2024-10-12T2100,2535A,103.7723,29.5462,乐山市,花湖湾,,23,23,22,13,13,44,,58,58,13,15,2,3,0.7,0.7
2024-10-12T2100,2536A,103.7627,29.5844,乐山市,牛耳桥,,25,22,22,17,18,33,,48,48,28,22,4,4,0.6,0.5
2024-10-12T2100,2537A,103.7508,29.6006,乐山市,市第三水厂,,26,26,25,18,19,49,,57,57,19,21,3,4,0.6,0.6
2024-10-12T2100,2538A,103.7571,29.5664,乐山市,市监测站,,30,21,22,21,17,48,,54,54,13,15,4,4,0.6,0.6
2024-10-12T2100,3361A,103.7311,29.5628,乐山市,理工大学,,25,21,24,17,18,32,,54,54,16,16,3,3,0.6,0.5
2024-10-12T2100,2598A,100.2143,26.8576,丽江市,西南郊,,27,12,10,3,7,84,,84,84,4,3,7,7,0.6,0.7
2024-10-12T2100,2599A,100.2497,26.8802,丽江市,丽江古城,,22,22,15,8,9,58,,71,68,14,10,10,10,0.5,0.4
2024-10-12T2100,2600A,100.2203,26.8906,丽江市,市中心,,19,12,12,3,6,58,,73,68,14,6,6,6,0.5,0.5
2024-10-12T2100,1267A,119.914,28.4514,丽水市,监测站大楼,细颗粒物(PM2.5),70,64,52,51,35,38,,123,92,47,24,2,4,0.7,0.5
2024-10-12T2100,1268A,119.93,28.4586,丽水市,莲都小学,,38,38,48,24,29,66,,125,99,25,24,4,4,0.6,0.6
2024-10-12T2100,1269A,119.879,28.4231,丽水市,余庄前,,30,30,41,21,30,52,,124,94,13,15,3,4,0.4,0.3
2024-10-12T2100,1173A,119.176,34.5885,连云港市,市环境监测站,细颗粒物(PM2.5),73,80,98,53,78,118,,162,154,19,18,8,10,0.4,0.5
2024-10-12T2100,3000A,119.3581,34.6972,连云港市,德源药业,颗粒物(PM10),67,83,102,44,66,111,,157,142,24,29,6,6,0.4,0.5
2024-10-12T2100,3007A,119.178,34.844,连云港市,新城一中,颗粒物(PM10),74,97,127,37,51,94,,164,153,44,33,6,7,0.6,0.8
2024-10-12T2100,3008A,119.3608,34.7519,连云港市,胡沟管理处,细颗粒物(PM2.5),55,58,83,39,61,125,,151,143,10,12,6,6,0.4,0.4
2024-10-12T2100,3009A,119.1478,34.5911,连云港市,矿山设计院,细颗粒物(PM2.5),77,85,105,56,78,114,,156,149,18,17,6,8,0.6,0.6
2024-10-12T2100,3434A,119.2413,34.6539,连云港市,工贸学校,颗粒物(PM10),54,58,76,34,50,140,,164,159,14,15,8,10,0.7,0.8
2024-10-12T2100,3664A,119.4172,34.7341,连云港市,连云街道,,,50,69,33,45,,,171,169,12,17,7,8,0.6,0.6
2024-10-12T2100,2571A,102.3431,27.8099,凉山彝族自治州,青龙寺,,26,26,20,10,7,29,,66,60,3,6,7,8,0.7,0.7
2024-10-12T2100,2572A,102.2721,27.8415,凉山彝族自治州,邛海宾馆,,30,30,25,16,13,34,,61,59,19,17,12,11,0.9,0.8
2024-10-12T2100,2573A,102.2625,27.898,凉山彝族自治州,西昌市政府,细颗粒物(PM2.5),52,49,30,36,18,22,,63,55,26,21,9,11,1.1,0.9
2024-10-12T2100,2574A,102.2685,27.8851,凉山彝族自治州,凉山州政府,颗粒物(PM10),53,56,29,34,16,14,,66,58,43,23,13,10,1.2,0.8
2024-10-12T2100,2575A,102.237,27.8914,凉山彝族自治州,长安,,23,23,32,16,14,17,,62,53,37,31,14,13,1.2,0.8
2024-10-12T2100,2212A,123.2,41.1953,辽阳市,宏伟区,颗粒物(PM10),76,101,59,47,29,61,,93,80,35,26,10,11,1.6,1
2024-10-12T2100,2213A,123.1683,41.2495,辽阳市,新华园,颗粒物(PM10),123,196,77,83,37,10,,90,68,92,41,15,19,2.1,1.1
2024-10-12T2100,2214A,123.2354,41.2639,辽阳市,滨河路,颗粒物(PM10),99,147,70,61,27,18,,98,70,71,34,14,15,1.5,1
2024-10-12T2100,2215A,123.149,41.2991,辽阳市,铁西工业园,颗粒物(PM10),141,231,86,74,31,12,,80,59,71,36,14,18,2.1,1.3
2024-10-12T2100,2227A,125.1358,42.8845,辽源市,环保局,颗粒物(PM10),73,95,42,51,21,12,,73,53,52,24,8,7,1.3,0.7
2024-10-12T2100,3239A,125.0764,42.9078,辽源市,银鹰制药,颗粒物(PM10),67,83,42,38,20,5,,74,47,53,30,39,10,1.1,0.7
2024-10-12T2100,1625A,115.9848,36.4372,聊城市,区政府,颗粒物(PM10),73,96,96,40,42,132,,166,156,32,33,10,12,0.5,0.5
2024-10-12T2100,2878A,116.0072,36.4343,聊城市,聊大东校,颗粒物(PM10),75,100,104,40,48,125,,172,158,38,40,9,11,0.6,0.6
2024-10-12T2100,3200A,115.9819,36.4978,聊城市,监控中心,颗粒物(PM10),67,84,91,44,42,123,,163,149,47,40,9,11,0.7,0.7
2024-10-12T2100,3513A,116.0445,36.4361,聊城市,九州社区,颗粒物(PM10),77,104,91,45,42,98,,170,150,44,33,11,9,0.8,0.7
2024-10-12T2100,4018A,116.0567,36.4608,聊城市,星美广场,颗粒物(PM10),81,111,102,47,45,107,,175,152,51,34,11,12,0.7,0.7
2024-10-12T2100,2632A,94.3681,29.6376,林芝市,林芝监测站,,,,3,7,4,,,84,84,11,5,6,10,,0.2
2024-10-12T2100,2633A,94.3616,29.6616,林芝市,林芝人民医院,,21,7,6,7,5,67,,86,85,10,8,6,5,0.1,0.1
2024-10-12T2100,2603A,100.0781,23.8982,临沧市,市环保局,细颗粒物(PM2.5),54,,22,38,14,23,,53,48,13,10,12,12,0.7,0.6
2024-10-12T2100,2604A,100.0894,23.8822,临沧市,市气象局,,36,36,23,21,19,22,,58,54,15,10,11,11,0.7,0.6
2024-10-12T2100,1733A,111.5531,36.0783,临汾市,临钢医院,颗粒物(PM10),69,87,96,40,38,26,,85,72,62,46,3,7,0.8,0.9
2024-10-12T2100,1734A,111.5028,36.0714,临汾市,技工学校,细颗粒物(PM2.5),73,94,90,53,44,50,,105,96,59,46,5,7,1.0,0.9
2024-10-12T2100,1736A,111.5018,36.0855,临汾市,市委,颗粒物(PM10),80,110,91,56,38,47,,112,102,50,39,6,8,1.1,0.9
2024-10-12T2100,3018A,111.505,36.1014,临汾市,唐尧大酒店,细颗粒物(PM2.5),84,89,91,62,42,61,,106,98,44,43,5,7,0.9,0.8
2024-10-12T2100,3668A,111.5036,36.0414,临汾市,城南,细颗粒物(PM2.5),58,62,103,41,44,24,,98,86,56,45,5,8,0.7,0.8
2024-10-12T2100,2667A,103.2069,35.5993,临夏回族自治州,环保局,,46,46,41,16,17,73,,72,72,18,19,4,4,0.5,0.6
2024-10-12T2100,2668A,103.2417,35.6057,临夏回族自治州,建设大厦,颗粒物(PM10),60,70,34,35,19,10,,69,62,63,18,3,2,0.9,0.5
2024-10-12T2100,1618A,118.3429,35.0532,临沂市,沂河小区,细颗粒物(PM2.5),114,146,155,86,80,124,,173,163,25,37,9,10,0.7,0.8
2024-10-12T2100,1619A,118.295,35.0583,临沂市,鲁南制药厂,颗粒物(PM10),98,146,160,59,74,134,,184,174,23,36,9,10,0.8,0.9
2024-10-12T2100,1620A,118.2794,34.9976,临沂市,新光毛纺厂,颗粒物(PM10),101,151,159,74,86,111,,175,159,36,52,7,13,1.0,1
2024-10-12T2100,1621A,118.3956,35.0888,临沂市,河东保险公司,细颗粒物(PM2.5),118,139,145,89,100,,,176,168,33,55,5,9,0.4,1.1
2024-10-12T2100,3370A,118.3564,35.0215,临沂市,十里堡居委,细颗粒物(PM2.5),125,136,148,95,108,118,,175,162,27,42,9,9,1.0,1.1
2024-10-12T2100,3496A,118.3604,35.1084,临沂市,南坊新区,细颗粒物(PM2.5),107,124,146,80,100,129,,176,166,26,37,9,11,0.9,1
2024-10-12T2100,3860A,118.3920,35.0300,临沂市,皇山花园小区,细颗粒物(PM2.5),114,141,162,86,117,117,,170,160,38,52,12,11,1.1,1.2
2024-10-12T2100,1870A,109.4856,24.3895,柳州市,柳东小学,,45,39,54,30,39,143,,145,144,5,22,9,13,0.7,0.8
2024-10-12T2100,1871A,109.4157,24.3277,柳州市,环保监测站,颗粒物(PM10),65,79,60,40,39,100,,144,133,25,20,9,13,1.0,0.9
2024-10-12T2100,1872A,109.389,24.341,柳州市,河西水厂,颗粒物(PM10),58,66,80,37,46,116,,143,136,18,30,9,15,0.9,0.9
2024-10-12T2100,1873A,109.4311,24.2921,柳州市,市四中,细颗粒物(PM2.5),62,66,64,44,40,100,,153,139,27,29,8,12,0.9,0.9
2024-10-12T2100,1874A,109.4006,24.3631,柳州市,市九中,颗粒物(PM10),62,74,65,41,43,105,,148,135,22,22,6,9,0.9,0.6
2024-10-12T2100,1875A,109.4958,24.3134,柳州市,古亭山,颗粒物(PM10),51,51,48,34,30,76,,147,128,47,37,9,11,0.9,0.8
2024-10-12T2100,3402A,109.5422,24.3996,柳州市,市二中,,48,37,61,33,39,78,,148,138,50,41,9,12,0.8,0.8
2024-10-12T2100,2307A,116.5079,31.737,六安市,监测大楼,细颗粒物(PM2.5),80,71,66,59,45,133,,152,148,16,16,6,6,0.5,0.5
2024-10-12T2100,2308A,116.4738,31.7643,六安市,皖西学院,细颗粒物(PM2.5),79,80,73,58,38,146,,154,154,14,15,6,6,0.5,0.5
2024-10-12T2100,2309A,116.4996,31.7905,六安市,朝阳厂,细颗粒物(PM2.5),80,70,61,59,37,119,,145,143,26,15,3,3,0.7,0.7
2024-10-12T2100,2310A,116.5567,31.7886,六安市,开发区,细颗粒物(PM2.5),79,106,80,58,39,101,,153,144,33,26,7,8,0.6,0.6
2024-10-12T2100,2576A,104.8,26.5892,六盘水市,窑上,,35,27,38,24,25,38,,49,45,7,9,5,5,0.6,0.6
2024-10-12T2100,2577A,104.83,26.5917,六盘水市,黄土坡,,25,,25,17,20,32,,62,42,15,16,10,7,0.7,0.6
2024-10-12T2100,2578A,104.89,26.5939,六盘水市,水钢,,23,,23,16,15,19,,69,54,27,10,10,5,1.7,0.4
2024-10-12T2100,2579A,104.8475,26.5894,六盘水市,民中,,19,19,22,9,18,28,,65,48,19,14,7,7,0.7,0.6
2024-10-12T2100,2580A,104.9544,26.5506,六盘水市,双水,,20,,22,14,15,28,,74,59,20,8,6,6,0.6,0.5
2024-10-12T2100,2335A,117.0189,25.1181,龙岩市,龙岩师专,,,,,,,,,,,,,,,,
2024-10-12T2100,2336A,117.0217,25.1033,龙岩市,龙岩市监测站,,35,34,33,24,22,64,,130,108,36,20,1,6,0.7,0.6
2024-10-12T2100,2337A,117.0258,25.0661,龙岩市,闽西职业技术学院,,42,42,52,23,26,64,,136,110,30,22,4,5,0.4,0.5
2024-10-12T2100,2338A,117.0196,25.0306,龙岩市,龙岩学院,,27,27,39,18,28,77,,139,121,16,15,2,3,0.4,0.5
2024-10-12T2100,2665A,105.0822,33.3261,陇南市,汉王镇固水子,,,,,,,,,,,,,,,,
2024-10-12T2100,2885A,104.9339,33.3826,陇南市,滨江中学,,41,41,34,18,13,50,,73,70,18,12,5,5,0.6,0.5
2024-10-12T2100,3247A,104.955,33.371,陇南市,市总工会,,28,28,26,7,5,72,,78,78,8,10,4,4,0.5,0.5
2024-10-12T2100,2487A,111.9589,27.8901,娄底市,电视发射台,细颗粒物(PM2.5),122,107,79,92,56,114,,150,144,17,11,12,10,0.8,0.6
2024-10-12T2100,2488A,111.9975,27.725,娄底市,市监测站,,,,102,,76,,,156,153,,18,13,12,0.8,0.7
2024-10-12T2100,2489A,112.0194,27.7314,娄底市,市委党校,细颗粒物(PM2.5),163,165,111,124,77,110,,146,139,18,15,10,8,0.9,0.8
2024-10-12T2100,2490A,111.9561,27.7569,娄底市,涟钢,细颗粒物(PM2.5),149,138,108,114,78,107,,125,119,25,22,13,14,0.7,0.4
2024-10-12T2100,2491A,111.9892,27.7044,娄底市,市政府,细颗粒物(PM2.5),176,140,102,133,76,117,,149,143,22,20,11,8,0.8,0.7
2024-10-12T2100,1893A,105.4324,28.9634,泸州市,九狮山,,32,32,31,19,21,10,,31,24,30,23,4,4,0.6,0.5
2024-10-12T2100,1894A,105.4427,28.9063,泸州市,小市上码头,,24,24,16,14,9,22,,36,34,30,20,4,4,0.6,0.5
2024-10-12T2100,1895A,105.4241,28.8573,泸州市,兰田宪桥,,19,18,9,13,7,16,,44,34,22,10,3,4,0.6,0.5
2024-10-12T2100,1896A,105.4379,28.8833,泸州市,市环监站,,25,24,12,17,12,8,,37,29,41,19,4,4,0.7,0.5
2024-10-12T2100,3490A,105.3617,28.7703,泸州市,纳溪区环保局,,34,34,16,18,10,7,,36,25,36,23,6,6,0.7,0.5
2024-10-12T2100,2183A,111.1406,37.5211,吕梁市,环保局,颗粒物(PM10),64,78,75,40,24,15,,102,88,57,35,3,4,0.8,0.6
2024-10-12T2100,2185A,111.1297,37.5136,吕梁市,自来水公司,细颗粒物(PM2.5),58,63,83,41,24,25,,104,93,60,36,2,5,0.8,0.6
2024-10-12T2100,2867A,111.1283,37.51,吕梁市,马茂庄小学,颗粒物(PM10),64,77,86,40,25,50,,94,87,46,41,3,5,0.6,0.5
2024-10-12T2100,1812A,112.3931,34.6516,洛阳市,市委党校,细颗粒物(PM2.5),160,161,160,122,118,24,,77,72,63,64,4,7,1.1,1
2024-10-12T2100,1814A,112.4657,34.6871,洛阳市,豫西宾馆,细颗粒物(PM2.5),162,162,158,123,106,36,,87,74,55,63,5,8,1.3,1.1
2024-10-12T2100,1815A,112.494,34.6886,洛阳市,河南林校,细颗粒物(PM2.5),182,169,152,137,118,26,,84,73,61,61,5,8,1.1,0.9
2024-10-12T2100,1816A,112.3844,34.623,洛阳市,开发区管委会,细颗粒物(PM2.5),153,155,152,117,115,8,,62,47,61,50,4,6,0.9,0.8
2024-10-12T2100,1817A,112.4267,34.6258,洛阳市,市委新办公区,细颗粒物(PM2.5),153,162,163,117,114,28,,64,53,56,51,3,6,0.8,0.8
2024-10-12T2100,3340A,112.6005,34.6326,洛阳市,伊滨,细颗粒物(PM2.5),178,141,138,134,114,15,,70,59,59,56,4,6,1.3,1.1
2024-10-12T2100,3341A,112.4951,34.6332,洛阳市,中移产业园,细颗粒物(PM2.5),176,176,156,133,114,17,,68,56,78,66,7,8,1.2,1.2
2024-10-12T2100,3593A,112.5736,34.8993,洛阳市,吉利监测站,细颗粒物(PM2.5),88,73,123,65,81,56,,75,64,39,59,3,4,0.6,0.9
2024-10-12T2100,3635A,112.3677,34.662,洛阳市,河科大西苑校区,细颗粒物(PM2.5),124,161,173,94,100,16,,81,74,84,63,10,10,1.2,1.1
2024-10-12T2100,3636A,112.4388,34.6781,洛阳市,英才小学,细颗粒物(PM2.5),125,160,181,95,91,32,,78,74,61,72,5,9,1.2,1.1
2024-10-12T2100,2399A,114.051,33.5699,漯河市,三五一五工厂,细颗粒物(PM2.5),125,190,161,95,85,117,,158,142,29,37,9,9,0.9,0.8
2024-10-12T2100,2400A,114.0055,33.5698,漯河市,漯河大学,"颗粒物(PM10),细颗粒物(PM2.5)",110,169,162,83,87,139,,164,153,22,35,7,8,0.5,0.6
2024-10-12T2100,2401A,114.0138,33.5828,漯河市,市水利局,"颗粒物(PM10),细颗粒物(PM2.5)",122,193,158,92,78,132,,161,148,20,26,8,9,0.7,0.6
2024-10-12T2100,2402A,114.0261,33.5698,漯河市,市广电局,细颗粒物(PM2.5),122,171,154,92,87,125,,162,148,24,33,7,8,0.7,0.7
2024-10-12T2100,3478A,113.9749,33.5664,漯河市,市图书馆,颗粒物(PM10),115,179,161,74,83,121,,163,149,24,32,6,8,0.7,0.7
2024-10-12T2100,3479A,114.0967,33.5906,漯河市,召陵区卫健委,颗粒物(PM10),122,194,170,80,92,117,,161,143,24,36,9,12,0.5,0.5
2024-10-12T2100,1798A,118.5092,31.6837,马鞍山市,湖东路四小,细颗粒物(PM2.5),57,62,67,40,42,123,,152,148,35,30,7,9,0.8,0.8
2024-10-12T2100,1799A,118.5024,31.6449,马鞍山市,开发区,颗粒物(PM10),66,81,76,45,51,92,,149,136,49,32,7,9,0.7,0.8
2024-10-12T2100,1800A,118.5228,31.7231,马鞍山市,慈湖,细颗粒物(PM2.5),60,61,62,43,48,138,,158,156,21,20,9,10,0.8,0.8
2024-10-12T2100,1802A,118.6245,31.7241,马鞍山市,濮塘,细颗粒物(PM2.5),73,68,64,53,51,128,,159,156,22,21,6,6,0.7,0.7
2024-10-12T2100,3633A,118.4918,31.6809,马鞍山市,雨山,颗粒物(PM10),55,59,62,32,39,126,,147,144,25,22,4,6,0.9,0.9
2024-10-12T2100,1686A,111.0286,21.4688,茂名市,电白南海,,48,48,51,19,23,153,,148,148,14,14,10,12,0.8,0.8
2024-10-12T2100,1687A,110.9294,21.6533,茂名市,茂石化七小,颗粒物(PM10),53,56,50,36,28,132,,139,136,10,11,8,10,0.8,0.8
2024-10-12T2100,1688A,110.9107,21.6687,茂名市,健康路,颗粒物(PM10),52,53,43,27,22,141,,148,146,8,8,9,12,0.7,0.7
2024-10-12T2100,1689A,110.8592,21.6828,茂名市,高岭,颗粒物(PM10),58,66,62,27,29,133,,138,134,12,13,6,11,0.6,0.7
2024-10-12T2100,3450A,111.01,21.5165,茂名市,电白水东,,46,44,43,24,25,145,,141,141,9,10,8,10,0.7,0.7
2024-10-12T2100,2539A,104.0308,30.0478,眉山市,黑龙滩水库,,36,30,33,25,22,63,,86,79,6,3,5,5,0.6,0.6
2024-10-12T2100,2540A,103.8416,30.0874,眉山市,气象局,,39,33,24,27,20,42,,68,66,27,18,5,5,0.5,0.5
2024-10-12T2100,3137A,103.8578,30.0744,眉山市,市委党校,,32,29,23,22,15,56,,61,61,20,20,6,6,0.6,0.6
2024-10-12T2100,3148A,103.8291,30.0564,眉山市,区人社局,,42,42,35,19,17,44,,55,55,30,25,7,8,0.7,0.7
2024-10-12T2100,1690A,116.1231,24.3284,梅州市,梅江月梅,颗粒物(PM10),54,58,39,37,29,27,,141,106,46,15,7,10,0.7,0.7
2024-10-12T2100,1691A,116.0797,24.2719,梅州市,梅县新城,颗粒物(PM10),74,98,44,32,26,12,,138,103,66,22,5,7,0.8,0.7
2024-10-12T2100,1692A,116.1248,24.2654,梅州市,环境监控中心,颗粒物(PM10),69,87,46,26,24,13,,128,89,71,27,7,11,0.8,0.7
2024-10-12T2100,3315A,116.1233,24.2991,梅州市,梅龙,颗粒物(PM10),52,53,37,34,25,64,,135,108,21,11,10,12,0.8,0.7
2024-10-12T2100,1878A,104.7778,31.4741,绵阳市,富乐山,,33,30,23,23,22,19,,75,57,10,9,2,2,0.5,0.5
2024-10-12T2100,1879A,104.7563,31.4535,绵阳市,市人大,,35,35,30,24,20,32,,72,65,36,18,8,9,0.7,0.6
2024-10-12T2100,1880A,104.6697,31.4668,绵阳市,高新区自来水公司,,39,39,31,24,18,38,,77,68,37,15,3,3,0.7,0.6
2024-10-12T2100,1881A,104.7287,31.5075,绵阳市,三水厂,,45,,21,31,24,37,,84,73,29,14,5,6,0.7,0.6
2024-10-12T2100,3491A,104.69,31.5322,绵阳市,西科大附属小学,,,,24,,19,,,77,72,37,14,2,2,0.5,0.4
2024-10-12T2100,3492A,104.5648,31.5343,绵阳市,安州区旅游局,,35,32,21,24,21,60,,89,77,16,11,9,9,0.6,0.5
2024-10-12T2100,1784A,129.61,44.561,牡丹江市,环保大楼,颗粒物(PM10),55,59,34,28,20,11,,72,45,48,24,7,7,0.6,0.5
2024-10-12T2100,1785A,129.6115,44.5782,牡丹江市,文化广场,颗粒物(PM10),83,116,49,47,26,3,,69,42,57,31,17,9,1.1,0.6
2024-10-12T2100,1786A,129.5904,44.5963,牡丹江市,第一医院,细颗粒物(PM2.5),54,56,40,38,28,21,,74,49,38,23,11,8,0.7,0.4
2024-10-12T2100,1787A,129.6364,44.6075,牡丹江市,机车工厂,颗粒物(PM10),55,60,52,26,28,16,,75,56,32,19,15,30,0.6,0.5
2024-10-12T2100,1788A,129.6386,44.5462,牡丹江市,第一中学,,42,42,37,29,23,11,,78,51,43,23,7,7,0.3,0.3
2024-10-12T2100,2531A,105.0703,29.61,内江市,市监测站,,32,23,30,22,29,44,,51,45,17,19,6,6,0.4,0.4
2024-10-12T2100,2532A,105.0717,29.5947,内江市,东兴区政府,,31,31,32,10,25,50,,56,50,18,16,6,5,0.6,0.6
2024-10-12T2100,2533A,105.0653,29.5817,内江市,内江二中,,32,32,39,19,33,53,,56,48,18,18,5,5,0.6,0.6
2024-10-12T2100,2534A,105.0406,29.5822,内江市,内江日报社,,31,31,35,18,32,45,,45,41,16,17,12,13,0.6,0.6
2024-10-12T2100,2628A,92.0657,31.4846,那曲市,那曲监测站,,43,37,35,30,23,79,,103,101,14,12,8,6,0.6,0.5
2024-10-12T2100,3128A,92.0506,31.4797,那曲市,那曲会议中心,,34,18,46,8,17,106,,114,114,3,15,2,3,0.4,0.5
2024-10-12T2100,1290A,115.8931,28.6843,南昌市,省外办,细颗粒物(PM2.5),67,68,60,48,41,134,,162,158,24,26,11,11,0.7,0.7
2024-10-12T2100,1291A,115.8886,28.7003,南昌市,省林业公司,细颗粒物(PM2.5),100,119,73,75,39,115,,169,160,29,33,8,9,0.5,0.8
2024-10-12T2100,1292A,115.8126,28.7442,南昌市,林科所,,46,46,53,27,29,134,,173,160,30,27,10,10,0.6,0.6
2024-10-12T2100,1294A,115.8518,28.687,南昌市,建工学校,颗粒物(PM10),72,94,68,44,37,130,,168,162,34,26,10,11,0.7,0.5
2024-10-12T2100,1295A,115.8921,28.6424,南昌市,象湖,细颗粒物(PM2.5),63,63,65,45,38,168,,184,180,23,33,9,10,0.7,0.7
2024-10-12T2100,1296A,115.7423,28.7996,南昌市,武术学校,,48,,24,33,26,75,,131,104,20,17,1,2,0.5,0.5
2024-10-12T2100,1298A,115.9314,28.6842,南昌市,省站,颗粒物(PM10),69,87,72,47,43,134,,157,154,22,23,10,11,0.8,0.7
2024-10-12T2100,3046A,115.9084,28.6062,南昌市,机电学校,颗粒物(PM10),69,87,83,46,39,102,,176,164,53,42,13,15,0.7,0.7
2024-10-12T2100,3690A,115.9721,28.7031,南昌市,外国语学校,颗粒物(PM10),62,73,69,41,38,136,,162,157,23,24,8,9,0.6,0.6
2024-10-12T2100,1905A,106.056,30.8064,南充市,西山风景区,,21,14,21,13,19,65,,61,61,14,10,1,1,0.6,0.5
2024-10-12T2100,1906A,106.0789,30.8023,南充市,南充市委,,25,15,28,12,23,77,,67,67,18,17,2,2,0.6,0.5
2024-10-12T2100,1907A,106.1031,30.8217,南充市,南充炼油厂,,26,26,39,18,24,69,,68,68,17,13,2,2,0.5,0.6
2024-10-12T2100,1908A,106.1064,30.7856,南充市,高坪区监测站,,22,18,30,14,24,69,,65,65,17,16,4,5,0.6,0.5
2024-10-12T2100,1909A,106.0642,30.7636,南充市,嘉陵区环保局,,21,21,32,14,23,57,,54,54,29,21,1,2,0.7,0.6
2024-10-12T2100,1910A,106.1087,30.8388,南充市,市环境监测站,,36,,29,25,27,68,,72,72,18,11,2,2,0.4,0.3
2024-10-12T2100,1151A,118.8086,32.1065,南京市,迈皋桥,"颗粒物(PM10),细颗粒物(PM2.5)",62,74,72,44,47,80,,167,152,44,27,4,4,0.5,0.6
2024-10-12T2100,1152A,118.7538,32.0551,南京市,草场门,,48,48,72,31,48,118,,158,154,26,35,5,6,0.3,0.5
2024-10-12T2100,1153A,118.7794,32.0745,南京市,山西路,颗粒物(PM10),52,53,79,31,55,115,,169,161,19,16,3,4,0.6,0.7
2024-10-12T2100,1154A,118.7752,32.0023,南京市,中华门,颗粒物(PM10),57,63,86,31,51,109,,157,152,29,28,6,7,0.5,0.6
2024-10-12T2100,1155A,118.8109,32.0309,南京市,瑞金路,,,63,86,31,50,106,,157,144,38,44,6,7,,0.2
2024-10-12T2100,1156A,118.7997,32.0754,南京市,玄武湖,颗粒物(PM10),56,61,67,32,48,95,,149,135,54,36,6,6,0.7,0.8
2024-10-12T2100,1157A,118.6414,32.0931,南京市,浦口,细颗粒物(PM2.5),62,63,66,44,47,94,,152,145,36,26,6,6,0.7,0.7
2024-10-12T2100,1158A,118.7356,31.9996,南京市,奥体中心,细颗粒物(PM2.5),62,70,86,44,55,119,,168,162,30,32,6,7,0.5,0.6
2024-10-12T2100,1159A,118.9125,32.1028,南京市,仙林大学城,颗粒物(PM10),62,73,82,36,55,95,,176,161,35,23,6,7,0.7,0.7
2024-10-12T2100,3422A,118.8436,31.9198,南京市,江宁彩虹桥,细颗粒物(PM2.5),64,57,71,46,53,105,,161,149,26,32,4,5,0.5,0.7
2024-10-12T2100,3423A,119.0138,31.6494,南京市,溧水永阳,颗粒物(PM10),64,78,75,43,38,94,,149,139,35,28,4,4,0.7,0.7
2024-10-12T2100,3424A,118.879,31.3302,南京市,高淳老职中,细颗粒物(PM2.5),55,,54,39,41,136,,149,147,21,21,6,6,0.5,0.6
2024-10-12T2100,3427A,118.8554,32.3578,南京市,六合雄州,细颗粒物(PM2.5),65,57,83,47,57,88,,154,136,21,39,4,5,0.5,0.7
2024-10-12T2100,1401A,108.3103,22.7881,南宁市,二十一中,,,,60,,39,,,149,,,27,,5,,1.1
2024-10-12T2100,1402A,108.3141,22.8528,南宁市,北湖,,,,80,,49,,,110,,,71,,17,,0.8
2024-10-12T2100,1403A,108.3206,22.8225,南宁市,市监测站,细颗粒物(PM2.5),54,51,59,38,39,131,,139,134,24,25,11,16,0.8,0.8
2024-10-12T2100,1404A,108.3829,22.8037,南宁市,大自然花园,颗粒物(PM10),59,68,55,40,39,136,,139,133,18,22,8,8,0.8,0.8
2024-10-12T2100,1405A,108.4394,22.7904,南宁市,仙葫,细颗粒物(PM2.5),69,72,63,50,52,117,,127,123,17,35,5,7,0.9,0.8
2024-10-12T2100,1406A,108.2397,22.8467,南宁市,区农职院,细颗粒物(PM2.5),75,91,64,55,37,78,,144,127,38,24,10,16,0.9,0.8
2024-10-12T2100,1407A,108.3275,22.735,南宁市,英华嘉园,颗粒物(PM10),63,75,65,38,42,122,,136,130,33,42,6,7,0.8,0.8
2024-10-12T2100,1408A,108.2257,22.7757,南宁市,沙井镇街道办,颗粒物(PM10),96,142,83,41,42,78,,136,111,60,48,4,7,0.9,0.9
2024-10-12T2100,3401A,108.4834,22.7618,南宁市,红星社区,细颗粒物(PM2.5),67,63,58,48,43,115,,134,123,21,28,5,5,0.8,0.8
2024-10-12T2100,2331A,118.0966,26.6761,南平市,茫荡山,,,,,,,,,,,,,,,,
2024-10-12T2100,2332A,118.1681,26.6369,南平市,南平市监测站,,32,32,34,20,24,57,,113,88,16,11,3,4,0.6,0.6
2024-10-12T2100,2333A,118.1825,26.6489,南平市,南平铝业有限公司,,47,47,37,30,25,39,,113,87,28,14,6,5,0.7,0.6
2024-10-12T2100,2334A,118.1756,26.6272,南平市,南平七中,,24,18,35,16,22,75,,117,97,6,8,2,4,0.4,0.5
2024-10-12T2100,1168A,120.9098,31.9663,南通市,狼山街道,细颗粒物(PM2.5),64,61,68,46,53,107,,149,140,17,20,6,6,0.6,0.6
2024-10-12T2100,1169A,120.86,32.0005,南通市,虹桥,,50,47,66,35,51,110,,146,137,15,19,7,7,0.5,0.6
2024-10-12T2100,1170A,120.87,32.02,南通市,城中,,,53,79,33,52,,,148,143,23,28,7,7,0.6,0.8
2024-10-12T2100,1171A,120.94,31.93,南通市,星湖花园,细颗粒物(PM2.5),67,63,66,48,49,98,,142,132,24,22,6,6,0.8,0.8
2024-10-12T2100,1172A,120.81,32.0417,南通市,紫琅学院,,,47,68,,54,101,,138,127,22,35,9,8,0.8,0.8
2024-10-12T2100,3291A,121.067,32.062,南通市,通州监测站,,45,36,62,31,44,117,,154,143,10,13,3,3,0.7,0.9
2024-10-12T2100,3432A,120.9348,31.9883,南通市,环境教育馆,颗粒物(PM10),56,61,75,38,51,100,,151,140,24,34,4,4,0.6,0.7
2024-10-12T2100,2404A,112.5224,33.0122,南阳市,瓦房庄,细颗粒物(PM2.5),94,93,108,70,80,90,,107,100,26,28,6,7,0.7,0.8
2024-10-12T2100,2405A,112.5003,32.9735,南阳市,汉画馆,细颗粒物(PM2.5),93,95,111,69,82,69,,93,80,34,32,7,9,0.8,0.8
2024-10-12T2100,2406A,112.5573,33.027,南阳市,气象站,细颗粒物(PM2.5),98,98,113,73,76,83,,114,105,28,31,7,9,0.7,0.8
2024-10-12T2100,2407A,112.5481,32.9689,南阳市,理工学院,细颗粒物(PM2.5),79,92,112,58,80,71,,107,96,38,31,7,9,0.9,0.9
2024-10-12T2100,4008A,112.5234,32.9922,南阳市,卧龙区政府,细颗粒物(PM2.5),90,90,112,67,73,92,,97,87,29,36,6,7,0.8,0.9
2024-10-12T2100,1234A,121.8358,29.911,宁波市,区环保大楼,,42,25,42,12,28,13,,115,84,83,43,7,7,0.8,0.9
2024-10-12T2100,1235A,121.56,29.82,宁波市,万里学院,,44,44,53,26,37,36,,132,102,63,48,6,7,0.6,0.7
2024-10-12T2100,1236A,121.713,29.9572,宁波市,龙赛医院,,35,34,54,13,28,26,,121,91,69,49,16,10,0.8,0.8
2024-10-12T2100,1239A,121.633,29.7733,宁波市,钱湖水厂,,,9,54,3,36,,,135,118,10,27,8,9,0.5,0.7
2024-10-12T2100,1240A,121.5856,29.8635,宁波市,太古小学,,31,31,57,16,33,62,,123,103,39,52,8,8,0.9,1
2024-10-12T2100,1241A,121.524,29.8674,宁波市,市环境监测中心,,24,24,75,15,29,70,,132,113,33,46,7,8,0.6,0.7
2024-10-12T2100,2871A,121.6147,29.9017,宁波市,万里国际学校,颗粒物(PM10),54,58,77,20,36,55,,127,105,47,56,8,9,0.7,0.9
2024-10-12T2100,3710A,121.5594,29.8975,宁波市,白沙活动中心,,40,40,60,14,44,40,,131,106,63,44,9,9,0.5,0.6
2024-10-12T2100,2339A,119.5001,26.6946,宁德市,金涵水库,,,,,,,,,,,,,,,,
2024-10-12T2100,2341A,119.5388,26.6612,宁德市,宁德市监测站,,46,41,41,32,30,65,,120,102,17,17,2,3,0.8,0.7
2024-10-12T2100,3209A,119.5231,26.6562,宁德市,宁德一中,,40,32,40,28,29,62,,122,100,10,11,1,2,0.4,0.5
2024-10-12T2100,2618A,98.8601,25.8567,怒江傈僳族自治州,州监测站,,23,23,32,8,21,47,,66,65,10,12,6,9,0.3,0.4
2024-10-12T2100,2619A,98.8546,25.8417,怒江傈僳族自治州,泸水一中,,16,16,28,3,14,39,,58,58,14,14,6,6,0.4,0.4
2024-10-12T2100,1888A,101.6891,26.571,攀枝花市,弄弄坪,颗粒物(PM10),52,53,55,26,27,30,,84,75,46,29,12,14,1.0,1
2024-10-12T2100,1889A,101.5769,26.5928,攀枝花市,河门口,,35,35,42,21,25,16,,87,70,30,20,6,12,0.8,1.2
2024-10-12T2100,1890A,101.7169,26.585,攀枝花市,炳草岗,颗粒物(PM10),56,62,42,32,23,18,,90,78,60,27,15,13,1.0,0.7
2024-10-12T2100,1891A,101.7369,26.5008,攀枝花市,仁和,,45,45,34,28,18,26,,85,72,30,17,7,7,0.5,0.5
2024-10-12T2100,2835A,101.7227,26.567,攀枝花市,四十中小,,36,36,31,21,19,55,,90,87,16,19,10,9,0.8,0.7
2024-10-12T2100,1604A,122.0303,41.1489,盘锦市,开发区,细颗粒物(PM2.5),125,129,46,95,29,11,,89,77,86,25,6,4,1.4,0.5
2024-10-12T2100,1605A,122.0485,41.0883,盘锦市,兴隆台,细颗粒物(PM2.5),95,91,48,71,31,7,,80,64,106,37,9,10,1.0,0.5
2024-10-12T2100,1606A,121.8297,41.1028,盘锦市,新生街道,细颗粒物(PM2.5),58,,31,41,20,21,,99,87,77,23,9,10,0.6,0.4
2024-10-12T2100,1832A,113.3257,33.742,平顶山市,新华旅馆,细颗粒物(PM2.5),149,221,189,114,85,45,,118,99,77,73,8,9,0.8,0.8
2024-10-12T2100,1833A,113.2919,33.737,平顶山市,规划设计院,细颗粒物(PM2.5),148,218,207,113,113,22,,126,89,98,69,8,9,1.7,1
2024-10-12T2100,1834A,113.182,33.774,平顶山市,平顶山工学院,细颗粒物(PM2.5),138,176,194,105,113,34,,115,99,82,60,8,9,1.0,0.9
2024-10-12T2100,3204A,113.3025,33.73,平顶山市,规划局,细颗粒物(PM2.5),153,239,216,117,120,36,,128,88,82,71,7,8,1.4,1.2
2024-10-12T2100,3594A,112.8867,33.9116,平顶山市,石龙区,颗粒物(PM10),128,205,247,50,111,0,,98,61,111,93,17,21,0.9,1.1
2024-10-12T2100,2656A,106.6692,35.5461,平凉市,聚贤嘉苑,细颗粒物(PM2.5),67,76,58,48,29,71,,82,82,31,35,7,8,0.3,0.4
2024-10-12T2100,2657A,106.7021,35.5307,平凉市,博物馆,"颗粒物(PM10),细颗粒物(PM2.5)",73,96,75,53,38,59,,87,85,57,48,8,10,0.8,0.6
2024-10-12T2100,2347A,114.0997,27.5002,萍乡市,武功山,,42,42,31,29,21,106,,143,139,9,7,9,8,0.5,0.4
2024-10-12T2100,2348A,113.8385,27.6434,萍乡市,中医院,细颗粒物(PM2.5),73,84,70,53,42,138,,155,152,17,19,13,31,0.8,0.8
2024-10-12T2100,2349A,113.8493,27.6253,萍乡市,市政府车库,细颗粒物(PM2.5),73,79,65,53,49,128,,154,150,20,19,23,26,1.6,1.1
2024-10-12T2100,2350A,113.8676,27.6435,萍乡市,市环保局,细颗粒物(PM2.5),75,76,70,55,46,129,,144,140,14,18,13,29,0.6,0.5
2024-10-12T2100,2351A,113.866,27.6198,萍乡市,安源区政府,颗粒物(PM10),73,95,74,50,40,133,,156,150,25,27,85,24,0.6,0.8
2024-10-12T2100,2319A,119.0141,25.4325,莆田市,荔城区仓后路,,35,35,39,12,19,89,,124,100,6,5,1,2,0.5,0.4
2024-10-12T2100,2320A,119.0015,25.4553,莆田市,莆田市监测站,,30,20,30,16,18,93,,130,102,5,4,1,1,0.6,0.5
2024-10-12T2100,2321A,119.1119,25.4561,莆田市,涵江区六中,,,,33,,16,,,123,109,4,4,,1,,0.4
2024-10-12T2100,2322A,119.1013,25.3215,莆田市,秀屿区政府,,42,42,38,13,20,84,,116,101,3,5,1,2,0.3,0.4
2024-10-12T2100,2323A,118.981,25.4792,莆田市,东圳水库,,,,,,,,,,,,,,,,
2024-10-12T2100,2392A,115.0312,35.7636,濮阳市,环保局,细颗粒物(PM2.5),102,121,100,76,73,85,,136,129,51,36,4,6,0.8,0.7
2024-10-12T2100,2394A,115.0574,35.7609,濮阳市,油田运输公司,颗粒物(PM10),97,144,121,66,76,79,,166,142,52,40,5,7,0.7,0.6
2024-10-12T2100,2395A,115.0866,35.7754,濮阳市,油田物探公司,细颗粒物(PM2.5),110,149,125,83,79,95,,158,142,43,33,3,6,0.7,0.6
2024-10-12T2100,3021A,115,35.7668,濮阳市,濮水河管理处,颗粒物(PM10),74,98,122,52,73,71,,143,123,32,31,1,3,0.7,0.7
2024-10-12T2100,2601A,100.98,22.7633,普洱市,市环保局,,31,31,23,14,11,37,,58,54,8,5,4,4,0.6,0.5
2024-10-12T2100,2602A,100.9817,22.8322,普洱市,普洱第二中学,,33,33,27,19,12,38,,64,58,9,7,5,5,0.5,0.5
2024-10-12T2100,2262A,131.0518,45.8751,七台河市,新一中,,23,19,17,8,8,72,,84,81,8,8,9,9,1.0,1.1
2024-10-12T2100,3345A,131.0577,45.7879,七台河市,中波台,,48,48,32,14,11,22,,66,50,48,21,7,8,0.9,0.8
2024-10-12T2100,3637A,131.0176,45.7761,七台河市,人民广场,,46,46,37,26,20,11,,65,42,56,25,7,8,1.0,0.8
2024-10-12T2100,3684A,130.8781,45.8222,七台河市,新建矿广场,颗粒物(PM10),76,102,41,31,25,19,,63,48,39,19,7,7,1.0,0.5
2024-10-12T2100,1779A,123.9305,47.3636,齐齐哈尔市,安居小区,,41,41,23,12,7,39,,57,49,25,14,10,9,0.5,0.4
2024-10-12T2100,1780A,123.9488,47.3386,齐齐哈尔市,中心广场,,36,25,27,25,17,43,,54,49,17,13,5,2,0.2,0.2
2024-10-12T2100,1781A,123.9483,47.3227,齐齐哈尔市,农牧车辆厂,,,19,27,3,5,47,,36,,13,13,5,5,,0.6
2024-10-12T2100,1783A,123.945,47.2988,齐齐哈尔市,市环境监测站,,17,13,18,7,5,53,,63,62,10,10,8,9,0.3,0.3
2024-10-12T2100,3662A,123.6333,47.2075,齐齐哈尔市,富区青少年活动中心,,21,21,32,9,13,46,,59,56,11,15,4,11,0.4,0.5
2024-10-12T2100,2591A,107.9783,26.5747,黔东南苗族侗族自治州,市环境监测站,细颗粒物(PM2.5),80,72,60,59,47,82,,106,91,19,19,6,7,0.7,0.6
2024-10-12T2100,2881A,107.8908,26.5311,黔东南苗族侗族自治州,凯里学院,细颗粒物(PM2.5),67,68,53,48,40,96,,116,107,15,13,6,7,0.8,0.7
2024-10-12T2100,2593A,107.5228,26.2403,黔南布依族苗族自治州,小围寨,细颗粒物(PM2.5),62,51,41,44,31,79,,123,115,17,13,5,6,0.7,0.6
2024-10-12T2100,3538A,107.5175,26.2978,黔南布依族苗族自治州,沙坝,"颗粒物(PM10),细颗粒物(PM2.5)",70,90,53,51,34,58,,111,101,26,14,5,5,0.7,0.6
2024-10-12T2100,2589A,104.9022,25.0925,黔西南布依族苗族自治州,场坝街,细颗粒物(PM2.5),57,52,38,40,30,81,,76,76,8,7,2,3,0.4,0.3
2024-10-12T2100,2590A,104.8811,25.0992,黔西南布依族苗族自治州,坪东大道,,,55,40,48,35,79,,72,72,7,7,,7,0.4,0.4
2024-10-12T2100,2502A,108.6236,21.9667,钦州市,市环保站,颗粒物(PM10),51,51,74,27,39,103,,154,144,25,24,7,11,0.8,0.9
2024-10-12T2100,2503A,108.6549,21.9481,钦州市,沙埠小学,细颗粒物(PM2.5),62,66,89,44,44,66,,159,140,48,36,6,9,0.9,0.9
2024-10-12T2100,2504A,108.5989,21.7431,钦州市,港区一小,颗粒物(PM10),67,83,80,36,40,95,,149,133,31,26,9,8,1.4,0.9
