timepoint,stationcode,longitude,latitude,area,positionname,primarypollutant,aqi,pm10,pm10_24h,pm2_5,pm2_5_24h,o3,o3_24h,o3_8h,o3_8h_24h,no2,no2_24h,so2,so2_24h,co,co_24h
2022-06-12T09:00:00,1001A,116.3621,39.8784,北京市,万寿西宫,,38,38,41,15,18,158,59,62,51,13,13,3,3,0.7,0.7
2022-06-12T09:00:00,1002A,116.2202,40.2915,北京市,定陵(对照点),,32,29,46,22,27,146,58,68,61,17,16,3,3,0.6,0.6
2022-06-12T09:00:00,1003A,116.4174,39.9289,北京市,东四,,36,36,40,20,20,163,69,80,62,17,15,3,3,0.7,0.6
2022-06-12T09:00:00,1004A,116.4072,39.8863,北京市,天坛,,37,37,45,17,17,140,49,63,42,16,15,3,3,0.6,0.6
2022-06-12T09:00:00,1005A,116.462,39.9365,北京市,农展馆,,42,42,48,22,19,160,65,55,52,17,17,3,3,0.7,0.6
2022-06-12T09:00:00,1006A,116.3392,39.9295,北京市,官园,,38,38,42,19,18,161,63,71,54,12,13,1,3,0.7,0.6
2022-06-12T09:00:00,1007A,116.2878,39.9611,北京市,海淀万柳,,35,35,41,20,20,155,52,72,54,18,17,3,3,0.6,0.6
2022-06-12T09:00:00,1008A,116.6636,40.135,北京市,顺义新城,,33,33,46,18,22,135,62,61,51,11,10,3,3,0.5,0.6
2022-06-12T09:00:00,1009A,116.6275,40.3275,北京市,怀柔镇,,32,32,44,14,21,163,64,73,60,13,10,3,3,0.8,0.6
2022-06-12T09:00:00,1010A,116.2296,40.217,北京市,昌平镇,,36,36,50,21,25,125,39,59,42,15,15,3,3,0.6,0.6
2022-06-12T09:00:00,1011A,116.3966,39.9821,北京市,奥体中心,,40,35,50,28,22,154,59,61,54,8,18,2,2,0.8,0.5
2022-06-12T09:00:00,1012A,116.184,39.9136,北京市,古城,,37,37,43,19,18,174,50,100,62,21,17,3,2,0.6,0.6
2022-06-12T09:00:00,1015A,117.1444,39.1661,天津市,勤俭道,,38,38,39,26,21,160,105,85,85,18,15,5,8,0.7,0.7
2022-06-12T09:00:00,1017A,117.237,39.1082,天津市,大直沽八号路,,35,5,41,24,19,137,84,66,66,23,16,8,11,0.6,0.6
2022-06-12T09:00:00,1018A,117.202,39.0927,天津市,前进道,,33,33,34,22,17,126,76,62,61,20,17,5,7,1.0,0.9
2022-06-12T09:00:00,1019A,117.1837,39.2133,天津市,淮河道,,46,46,48,32,25,164,105,77,77,20,18,6,9,1.1,1
2022-06-12T09:00:00,1021A,117.307,39.0877,天津市,跃进路,,50,50,46,19,19,132,67,56,56,23,19,6,10,0.8,0.7
2022-06-12T09:00:00,1023A,117.707,39.0343,天津市,第四大街,,38,38,38,24,20,87,24,52,30,40,25,5,6,1.1,0.7
2022-06-12T09:00:00,1024A,117.457,38.8394,天津市,永明路,,49,44,33,34,23,121,45,78,52,26,11,8,9,1.2,0.6
2022-06-12T09:00:00,1026A,117.764,39.1587,天津市,汉北路,,26,25,31,18,18,106,71,79,56,16,13,5,5,0.9,0.8
2022-06-12T09:00:00,1027A,117.157,38.9194,天津市,团泊洼(对照点),颗粒物(PM10),52,53,30,23,15,169,76,129,90,20,15,7,9,1.2,0.8
2022-06-12T09:00:00,1029A,114.4422,38.0444,石家庄市,职工医院,,30,25,59,19,26,225,94,124,92,13,10,2,4,0.5,0.4
2022-06-12T09:00:00,1030A,114.6063,38.0266,石家庄市,高新区,细颗粒物(PM2.5),67,42,66,48,33,215,72,124,98,20,15,4,5,0.6,0.5
2022-06-12T09:00:00,1031A,114.4898,38.1328,石家庄市,西北水源,,45,28,57,31,33,223,54,111,76,37,17,4,5,0.9,0.7
2022-06-12T09:00:00,1032A,114.4586,38.0058,石家庄市,西南高教,,45,36,63,31,37,217,79,119,87,18,13,4,6,0.9,0.9
2022-06-12T09:00:00,1033A,114.5331,38.0178,石家庄市,世纪公园,,50,50,63,28,35,212,68,119,76,26,14,4,6,0.6,0.5
2022-06-12T09:00:00,1034A,114.509,38.0457,石家庄市,人民会堂,,45,35,55,31,30,221,70,143,103,28,14,8,10,0.7,0.6
2022-06-12T09:00:00,1035A,114.3524,37.8911,石家庄市,封龙山(对照点),,42,26,55,22,30,219,133,178,160,5,9,13,13,0.8,0.9
2022-06-12T09:00:00,1037A,118.131,39.6363,唐山市,雷达站,,38,38,42,22,17,102,56,59,49,21,13,4,6,1.1,0.8
2022-06-12T09:00:00,1038A,118.1725,39.6334,唐山市,物资局,,38,38,41,20,20,102,55,64,46,22,12,5,6,0.8,0.7
2022-06-12T09:00:00,1040A,118.1705,39.6506,唐山市,十二中,,36,21,33,25,30,98,58,57,46,22,16,4,16,0.9,0.8
2022-06-12T09:00:00,1041A,118.1869,39.622,唐山市,小山,,32,26,40,22,22,97,51,60,43,22,12,2,3,0.8,0.7
2022-06-12T09:00:00,1042A,119.5134,39.8207,秦皇岛市,北戴河环保局,颗粒物(PM10),51,51,35,10,15,96,62,90,76,8,10,6,6,0.3,0.2
2022-06-12T09:00:00,1043A,119.7493,40.0116,秦皇岛市,第一关,,29,29,29,19,16,102,71,45,44,5,25,11,11,0.2,0.1
2022-06-12T09:00:00,1044A,119.5897,39.9499,秦皇岛市,监测站,,35,35,36,17,11,96,63,85,61,18,17,6,8,0.1,0.1
2022-06-12T09:00:00,1046A,119.5251,39.9041,秦皇岛市,建设大厦,,31,31,28,18,13,92,66,87,58,5,9,5,5,0.3,0.2
2022-06-12T09:00:00,1048A,114.5302,36.6116,邯郸市,东污水处理厂,,46,46,59,29,29,206,104,127,117,17,11,6,6,1.4,0.9
2022-06-12T09:00:00,1049A,114.4918,36.5713,邯郸市,矿院,,38,38,56,24,29,210,101,126,120,19,14,6,11,1.1,0.7
2022-06-12T09:00:00,1050A,114.484,36.6133,邯郸市,丛台公园,,38,30,58,26,29,208,88,128,117,26,13,10,6,1.3,0.6
2022-06-12T09:00:00,1051A,115.493,38.8632,保定市,游泳馆,细颗粒物(PM2.5),57,42,50,40,38,207,85,117,83,13,13,11,9,0.3,0.3
2022-06-12T09:00:00,1052A,115.5213,38.8959,保定市,华电二区,颗粒物(PM10),112,174,138,38,34,205,93,110,80,11,13,7,9,0.5,0.6
2022-06-12T09:00:00,1053A,115.4713,38.9108,保定市,接待中心,细颗粒物(PM2.5),69,49,57,50,41,216,97,131,97,16,16,6,8,0.7,0.7
2022-06-12T09:00:00,1054A,115.4612,38.8416,保定市,地表水厂,细颗粒物(PM2.5),52,50,65,36,37,205,78,109,70,18,14,11,12,0.6,0.6
2022-06-12T09:00:00,1055A,115.4323,38.8697,保定市,胶片厂,,47,47,54,28,31,225,93,102,83,10,12,4,5,0.6,0.7
2022-06-12T09:00:00,1056A,115.5086,38.8639,保定市,监测站,细颗粒物(PM2.5),63,49,61,45,38,220,90,124,89,16,14,6,9,0.5,0.6
2022-06-12T09:00:00,1057A,114.8883,40.8336,张家口市,人民公园,,35,35,42,13,24,166,102,84,69,20,16,6,5,0.6,0.6
2022-06-12T09:00:00,1059A,114.8687,40.8042,张家口市,五金库,,,,43,,23,167,103,134,82,22,20,,5,0.5,0.3
2022-06-12T09:00:00,1060A,114.8902,40.762,张家口市,世纪豪园,,45,42,49,31,30,163,111,130,95,24,20,8,6,0.4,0.4
2022-06-12T09:00:00,1061A,114.8916,40.8661,张家口市,北泵房(对照点),,31,26,39,19,31,177,99,72,61,13,11,7,6,0.6,0.7
2022-06-12T09:00:00,1062A,117.9531,40.9081,承德市,铁路,,29,27,44,14,29,124,91,71,71,14,23,2,2,0.4,0.6
2022-06-12T09:00:00,1063A,117.9392,40.9763,承德市,中国银行,,29,9,31,13,28,140,90,77,64,17,16,3,3,0.4,0.5
2022-06-12T09:00:00,1064A,117.9503,40.928,承德市,开发区,,31,19,45,12,28,143,98,84,84,17,18,4,5,0.5,0.7
2022-06-12T09:00:00,1065A,117.8051,40.9655,承德市,文化中心,,26,14,28,16,24,150,82,85,81,12,8,4,4,0.5,0.6
2022-06-12T09:00:00,1066A,117.9268,41.0026,承德市,离宫(对照点),,22,17,36,10,23,136,70,45,30,14,9,6,6,0.5,0.6
2022-06-12T09:00:00,1067A,116.6708,39.5111,廊坊市,药材公司,,35,29,41,24,25,170,101,64,63,21,22,6,7,0.4,0.5
2022-06-12T09:00:00,1068A,116.7214,39.5589,廊坊市,开发区,,48,33,42,33,27,165,107,57,57,22,22,6,7,0.4,0.5
2022-06-12T09:00:00,1070A,116.7244,39.5269,廊坊市,北华航天学院,颗粒物(PM10),51,52,55,22,23,158,108,59,59,22,23,7,9,0.4,0.4
2022-06-12T09:00:00,1071A,116.8842,38.2991,沧州市,沧县城建局,,33,28,46,23,26,202,74,141,106,34,26,7,9,0.6,0.6
2022-06-12T09:00:00,1072A,116.8584,38.3254,沧州市,电视转播站,,35,35,50,24,25,220,93,157,122,25,18,8,7,0.4,0.4
2022-06-12T09:00:00,1073A,116.8709,38.3228,沧州市,市环保局,颗粒物(PM10),60,69,65,23,23,214,84,150,114,30,20,6,9,0.6,0.6
2022-06-12T09:00:00,1074A,115.6838,37.7541,衡水市,电机北厂,,46,39,66,32,28,216,79,138,108,17,11,7,9,0.5,0.5
2022-06-12T09:00:00,1075A,115.6303,37.7316,衡水市,市监测站,颗粒物(PM10),51,52,81,26,27,203,95,134,107,14,11,11,14,0.4,0.4
2022-06-12T09:00:00,1077A,114.4704,37.0886,邢台市,达活泉,,43,43,75,19,24,219,96,145,117,18,12,8,10,0.8,0.7
2022-06-12T09:00:00,1078A,114.5062,37.0349,邢台市,邢师高专,,35,35,75,21,25,231,96,158,126,20,12,5,8,0.8,0.6
2022-06-12T09:00:00,1079A,114.5237,37.0851,邢台市,路桥公司,颗粒物(PM10),56,61,81,19,24,216,96,148,113,20,15,4,6,0.5,0.5
2022-06-12T09:00:00,1081A,112.5139,37.8873,太原市,尖草坪,细颗粒物(PM2.5),93,113,61,69,31,240,75,110,93,25,19,6,8,0.8,0.6
2022-06-12T09:00:00,1083A,112.434,38.0108,太原市,上兰(对照点),细颗粒物(PM2.5),57,61,44,40,22,218,65,84,62,10,9,6,8,0.6,0.6
2022-06-12T09:00:00,1084A,112.469,37.7124,太原市,晋源,细颗粒物(PM2.5),84,115,55,62,32,236,58,83,57,27,24,11,8,0.9,0.6
2022-06-12T09:00:00,1085A,112.5583,37.7394,太原市,小店,细颗粒物(PM2.5),84,93,55,62,27,257,72,103,88,25,19,8,7,0.8,0.6
2022-06-12T09:00:00,1086A,112.5369,37.8692,太原市,桃园,细颗粒物(PM2.5),103,106,58,77,31,240,73,112,98,26,18,6,6,0.8,0.6
2022-06-12T09:00:00,1087A,112.57,37.8195,太原市,坞城,细颗粒物(PM2.5),118,103,56,89,30,245,58,107,85,32,18,3,5,1.3,0.7
2022-06-12T09:00:00,1088A,112.549,37.9854,太原市,南寨,颗粒物(PM10),52,53,46,30,22,223,55,69,28,24,31,7,9,0.5,0.7
2022-06-12T09:00:00,1090A,111.6507,40.7517,呼和浩特市,呼市一监,颗粒物(PM10),53,56,77,15,22,127,88,42,42,11,17,8,8,0.3,0.4
2022-06-12T09:00:00,1091A,111.6572,40.8033,呼和浩特市,小召,,34,34,66,8,18,114,91,60,46,19,24,7,8,0.4,0.4
2022-06-12T09:00:00,1094A,111.7516,40.8369,呼和浩特市,如意水处理厂,颗粒物(PM10),67,84,80,28,20,126,61,47,28,28,25,10,9,0.4,0.4
2022-06-12T09:00:00,1095A,111.7276,40.8062,呼和浩特市,二十九中,颗粒物(PM10),66,81,71,14,13,124,81,50,36,22,22,12,9,0.5,0.5
2022-06-12T09:00:00,1096A,111.5512,40.7866,呼和浩特市,工大金川校区,,35,35,79,10,20,124,100,52,46,9,18,7,10,0.3,0.4
2022-06-12T09:00:00,1097A,111.717,40.7612,呼和浩特市,化肥厂生活区,颗粒物(PM10),61,72,89,20,24,120,64,42,37,19,21,13,12,0.4,0.4
2022-06-12T09:00:00,1098A,123.6836,41.9339,沈阳市,森林路(对照点),,29,29,39,20,29,146,79,42,42,20,19,12,8,0.9,0.9
2022-06-12T09:00:00,1099A,123.505,41.7406,沈阳市,浑南东路,,30,22,60,14,35,157,94,32,32,20,36,21,11,1.2,1.1
2022-06-12T09:00:00,1100A,123.4231,41.6989,沈阳市,新秀街,,29,22,43,11,28,145,92,41,41,23,41,35,14,1.1,1.3
2022-06-12T09:00:00,1102A,123.5903,41.8411,沈阳市,东陵路,,30,30,53,19,29,140,70,39,39,26,24,14,10,1.4,1
2022-06-12T09:00:00,1103A,123.4264,41.8467,沈阳市,陵东街,,21,21,48,13,29,134,48,34,34,29,31,10,7,1.3,1.2
2022-06-12T09:00:00,1104A,123.4114,41.7653,沈阳市,文化路,,27,27,50,13,38,147,81,50,50,25,27,26,13,1.1,1
2022-06-12T09:00:00,1105A,123.4678,41.7867,沈阳市,小河沿,,27,27,51,11,34,142,85,30,30,25,32,13,7,1.1,1
2022-06-12T09:00:00,1106A,123.4017,41.7972,沈阳市,太原街,颗粒物(PM10),52,53,74,16,37,154,76,52,48,37,34,23,12,1.1,1
2022-06-12T09:00:00,1108A,123.3783,41.9228,沈阳市,京沈街,,32,32,62,9,38,151,88,32,32,24,34,19,13,1.1,1.2
2022-06-12T09:00:00,1109A,121.612,38.9741,大连市,甘井子,,34,34,27,20,15,108,57,73,58,16,17,7,7,0.5,0.5
2022-06-12T09:00:00,1110A,121.565,38.9511,大连市,周水子,细颗粒物(PM2.5),55,37,29,39,22,96,51,83,54,14,11,3,5,0.8,0.8
2022-06-12T09:00:00,1111A,121.5637,38.8845,大连市,星海三站,颗粒物(PM10),51,52,34,33,21,133,60,112,69,19,13,6,6,0.4,0.4
2022-06-12T09:00:00,1112A,121.6302,38.9117,大连市,青泥洼桥,,32,32,26,17,11,107,56,85,59,17,14,6,6,0.4,0.4
2022-06-12T09:00:00,1113A,121.6251,38.8638,大连市,傅家庄,,30,26,19,21,14,110,55,98,61,11,7,5,6,0.5,0.5
2022-06-12T09:00:00,1115A,121.2529,38.8061,大连市,旅顺,,38,24,17,26,17,115,59,99,62,14,9,4,5,0.6,0.6
2022-06-12T09:00:00,1116A,121.7485,39.1311,大连市,金州,,45,45,25,27,19,115,62,104,66,8,10,5,5,0.4,0.4
2022-06-12T09:00:00,1117A,121.7811,39.0496,大连市,开发区,,40,28,24,28,20,115,61,86,61,13,15,5,5,0.6,0.7
2022-06-12T09:00:00,1118A,121.9762,39.0631,大连市,双D港,,21,21,20,14,13,107,60,73,65,20,8,6,6,0.6,0.6
2022-06-12T09:00:00,1119A,125.3325,43.9166,长春市,食品厂,颗粒物(PM10),59,67,72,24,26,134,62,29,29,36,55,6,6,0.8,0.8
2022-06-12T09:00:00,1120A,125.2863,43.9027,长春市,客车厂,颗粒物(PM10),65,79,69,24,20,127,58,38,38,40,63,5,5,0.6,0.7
2022-06-12T09:00:00,1121A,125.2841,43.8463,长春市,邮电学院,颗粒物(PM10),54,58,57,24,18,137,45,22,22,36,44,5,5,1.0,0.9
2022-06-12T09:00:00,1122A,125.3716,43.8772,长春市,劳动公园,颗粒物(PM10),56,62,64,25,23,133,51,21,21,43,46,2,2,0.6,0.6
2022-06-12T09:00:00,1123A,125.3297,43.8805,长春市,园林处,颗粒物(PM10),54,58,52,23,22,142,56,33,33,34,46,5,5,0.7,0.7
2022-06-12T09:00:00,1124A,125.4605,43.79,长春市,净月潭,,32,32,25,14,10,118,47,39,20,16,15,4,4,0.6,0.5
2022-06-12T09:00:00,1125A,125.7194,43.515,长春市,甩湾子(对照点),,24,20,30,9,9,138,75,32,32,10,27,7,6,0.4,0.4
2022-06-12T09:00:00,1126A,125.3863,43.8447,长春市,经开区环卫处,颗粒物(PM10),54,58,40,22,15,137,51,28,28,30,40,6,5,0.6,0.6
2022-06-12T09:00:00,1127A,125.245,43.7783,长春市,高新区管委会,颗粒物(PM10),53,55,49,24,17,140,42,22,22,33,42,6,5,0.6,0.6
2022-06-12T09:00:00,1128A,125.1761,43.8325,长春市,岱山公园,颗粒物(PM10),57,63,48,23,19,122,50,35,28,28,38,6,5,0.5,0.5
2022-06-12T09:00:00,1129A,126.5422,45.755,哈尔滨市,岭北(对照点),,21,17,22,11,12,135,65,52,48,16,23,13,14,0.5,0.5
2022-06-12T09:00:00,1130A,126.561,45.8167,哈尔滨市,松北商大,,26,26,33,6,9,146,74,46,46,14,24,4,5,0.6,0.6
2022-06-12T09:00:00,1131A,126.979,45.5419,哈尔滨市,阿城会宁,,24,15,22,7,7,130,76,44,44,8,20,11,11,0.5,0.6
2022-06-12T09:00:00,1132A,126.599,45.7222,哈尔滨市,南岗学府路,,22,14,28,8,9,131,68,36,36,17,35,17,20,0.6,0.6
2022-06-12T09:00:00,1133A,126.689,45.7733,哈尔滨市,太平宏伟公园,,32,32,38,10,11,128,65,47,42,20,33,15,14,0.5,0.5
2022-06-12T09:00:00,1134A,126.635,45.7667,哈尔滨市,道外承德广场,,33,33,34,12,12,145,73,60,60,22,30,18,18,0.3,0.3
2022-06-12T09:00:00,1135A,126.685,45.7319,哈尔滨市,香坊红旗大街,,33,31,37,23,21,123,64,41,41,21,34,11,11,0.5,0.5
2022-06-12T09:00:00,1136A,126.6411,45.7258,哈尔滨市,动力和平路,,49,49,39,19,10,130,68,50,50,16,26,8,10,0.5,0.5
2022-06-12T09:00:00,1137A,126.593,45.7478,哈尔滨市,道里建国路,颗粒物(PM10),60,70,40,11,14,120,67,46,46,24,35,15,16,1.0,1.3
2022-06-12T09:00:00,1138A,126.615,45.61,哈尔滨市,平房东轻厂,,28,28,20,9,8,124,59,45,45,12,20,4,5,0.5,0.5
2022-06-12T09:00:00,1139A,126.595,45.9855,哈尔滨市,呼兰师专,,35,35,44,12,15,135,58,37,37,22,31,14,13,0.5,0.5
2022-06-12T09:00:00,1140A,126.6206,45.6842,哈尔滨市,省农科院,,29,29,36,8,9,131,71,37,37,14,34,12,14,0.5,0.5
2022-06-12T09:00:00,1141A,121.4,31.238,上海市,普陀,,45,41,28,31,16,127,98,86,86,17,12,3,2,0.6,0.5
2022-06-12T09:00:00,1142A,121.478,31.2036,上海市,十五厂,,43,37,25,30,19,130,87,81,80,23,8,5,5,0.3,0.2
2022-06-12T09:00:00,1143A,121.467,31.3008,上海市,虹口,,39,39,27,18,16,117,93,79,79,22,16,2,3,0.3,0.2
2022-06-12T09:00:00,1144A,121.412,31.1654,上海市,徐汇上师大,细颗粒物(PM2.5),53,52,28,37,17,128,73,85,72,22,11,3,3,0.9,0.8
2022-06-12T09:00:00,1145A,121.536,31.2659,上海市,杨浦四漂,,46,36,24,32,19,125,91,83,83,20,12,5,4,0.3,0.2
2022-06-12T09:00:00,1147A,121.425,31.2261,上海市,静安监测站,,44,44,26,29,16,126,89,82,82,19,10,4,4,0.3,0.2
2022-06-12T09:00:00,1148A,121.703,31.1907,上海市,浦东川沙,,35,35,28,24,18,129,87,86,86,24,12,5,5,0.4,0.3
2022-06-12T09:00:00,1149A,121.533,31.2284,上海市,浦东新区监测站,,43,42,28,30,18,128,87,83,83,25,12,6,6,0.5,0.4
2022-06-12T09:00:00,1150A,121.577,31.2071,上海市,浦东张江,,42,38,24,29,18,112,74,74,71,28,16,4,3,0.7,0.6
2022-06-12T09:00:00,1151A,118.8086,32.1065,南京市,迈皋桥,,46,46,34,17,14,162,66,88,73,18,17,4,4,0.2,0.3
2022-06-12T09:00:00,1152A,118.7538,32.0551,南京市,草场门,,31,31,31,12,13,186,78,99,85,14,14,3,3,0.3,0.3
2022-06-12T09:00:00,1153A,118.7794,32.0745,南京市,山西路,,35,34,37,24,22,178,73,99,81,7,4,3,4,0.3,0.3
2022-06-12T09:00:00,1154A,118.7752,32.0023,南京市,中华门,,34,34,36,12,9,190,79,104,83,4,3,4,4,0.5,0.4
2022-06-12T09:00:00,1155A,118.8109,32.0309,南京市,瑞金路,,32,32,32,22,18,186,74,95,79,10,10,3,4,0.3,0.4
2022-06-12T09:00:00,1156A,118.7997,32.0754,南京市,玄武湖,,25,25,29,16,17,170,72,92,79,12,9,4,4,0.7,0.7
2022-06-12T09:00:00,1157A,118.6414,32.0931,南京市,浦口,,31,31,33,14,15,176,76,102,83,17,17,3,3,0.2,0.2
2022-06-12T09:00:00,1158A,118.7356,31.9996,南京市,奥体中心,,41,41,36,17,16,186,79,98,82,12,14,2,3,0.6,0.6
2022-06-12T09:00:00,1159A,118.9125,32.1028,南京市,仙林大学城,,29,29,33,17,17,182,76,98,83,5,4,6,6,0.6,0.7
2022-06-12T09:00:00,1160A,120.561,31.2472,苏州市,上方山(对照点),,46,46,38,24,18,141,74,79,69,14,14,5,5,0.5,0.5
2022-06-12T09:00:00,1162A,120.591,31.3019,苏州市,彩香,,39,39,28,23,18,143,92,81,77,8,10,6,6,0.5,0.4
2022-06-12T09:00:00,1163A,120.596,31.3264,苏州市,轧钢厂,,40,40,35,24,18,130,86,76,71,9,9,8,7,0.5,0.5
2022-06-12T09:00:00,1164A,120.613,31.2703,苏州市,吴中区,,38,38,30,25,22,140,83,78,70,6,7,4,4,0.4,0.5
2022-06-12T09:00:00,1165A,120.543,31.2994,苏州市,苏州新区,,33,29,30,23,22,144,80,76,73,8,9,6,6,0.5,0.5
2022-06-12T09:00:00,1166A,120.669,31.3097,苏州市,苏州工业园区,,34,34,27,23,19,126,74,74,66,12,10,10,7,0.5,0.5
2022-06-12T09:00:00,1167A,120.641,31.3708,苏州市,相城区,,44,44,31,11,26,132,69,74,63,13,12,8,8,0.5,0.4
2022-06-12T09:00:00,1168A,120.9098,31.9663,南通市,狼山街道,,38,38,31,14,13,145,119,89,89,6,8,11,11,0.4,0.4
2022-06-12T09:00:00,1169A,120.86,32.0005,南通市,虹桥,,42,35,34,29,21,139,107,94,93,8,8,7,7,0.4,0.3
2022-06-12T09:00:00,1170A,120.87,32.02,南通市,城中,,45,36,32,31,18,127,95,90,86,13,11,10,10,0.5,0.4
2022-06-12T09:00:00,1171A,120.94,31.93,南通市,星湖花园,,38,35,31,22,14,138,119,89,86,8,11,6,7,0.6,0.5
2022-06-12T09:00:00,1172A,120.81,32.0417,南通市,紫琅学院,,39,39,31,14,13,132,95,97,93,12,10,8,8,0.4,0.4
2022-06-12T09:00:00,1173A,119.176,34.5885,连云港市,市环境监测站,,,53,61,14,17,177,80,73,73,12,12,3,3,,0.2
2022-06-12T09:00:00,1177A,117.179,34.2761,徐州市,黄河新村,颗粒物(PM10),58,66,81,30,20,198,89,118,88,14,12,4,4,0.5,0.4
2022-06-12T09:00:00,1178A,117.1918,34.2384,徐州市,淮塔,颗粒物(PM10),67,84,91,29,24,196,88,118,88,17,14,11,10,0.4,0.4
2022-06-12T09:00:00,1180A,117.256,34.2153,徐州市,新城区,颗粒物(PM10),66,81,97,33,24,193,85,116,84,15,15,8,8,0.6,0.5
2022-06-12T09:00:00,1181A,117.244,34.2911,徐州市,桃园路,颗粒物(PM10),65,80,101,24,17,210,88,114,85,13,13,12,11,0.6,0.5
2022-06-12T09:00:00,1182A,117.2933,34.2778,徐州市,农科院,颗粒物(PM10),65,80,96,24,19,212,83,122,87,18,17,10,10,0.6,0.5
2022-06-12T09:00:00,1186A,119.389,32.3761,扬州市,邗江监测站,,48,48,43,25,21,152,61,56,52,14,12,12,9,0.8,0.6
2022-06-12T09:00:00,1188A,120.269,31.4867,无锡市,雪浪,,48,48,33,19,14,138,69,74,68,12,10,12,10,0.4,0.3
2022-06-12T09:00:00,1189A,120.275,31.6219,无锡市,黄巷,,44,44,36,24,17,146,67,64,64,13,16,6,7,0.5,0.5
2022-06-12T09:00:00,1190A,120.294,31.56,无锡市,曹张,,29,29,28,12,11,141,72,72,68,15,15,6,6,0.6,0.6
2022-06-12T09:00:00,1191A,120.242,31.5031,无锡市,漆塘,,39,39,28,24,18,146,71,80,73,13,11,7,5,0.5,0.5
2022-06-12T09:00:00,1192A,120.3489,31.5863,无锡市,东亭,,46,46,33,22,18,137,69,61,61,12,15,7,7,0.7,0.7
2022-06-12T09:00:00,1193A,120.354,31.5475,无锡市,旺庄,,39,39,29,19,16,150,78,68,64,8,15,8,8,0.3,0.3
2022-06-12T09:00:00,1194A,120.245,31.5631,无锡市,荣巷,,41,41,32,24,17,140,72,71,68,6,10,10,10,0.2,0.2
2022-06-12T09:00:00,1195A,120.299,31.6817,无锡市,堰桥,,48,48,36,24,16,131,57,71,56,12,8,6,6,0.8,0.7
2022-06-12T09:00:00,1196A,119.9633,31.762,常州市,市监测站,,50,50,47,22,15,154,58,60,58,18,20,8,7,0.5,0.5
2022-06-12T09:00:00,1200A,119.9468,31.7069,常州市,武进监测站,,42,42,42,26,26,170,75,68,68,3,9,5,5,0.5,0.6
2022-06-12T09:00:00,1201A,119.9255,31.9087,常州市,安家,颗粒物(PM10),51,52,44,29,27,181,73,75,72,10,12,4,5,0.7,0.7
2022-06-12T09:00:00,1203A,119.6707,32.1875,镇江市,新区办事处,,36,36,42,19,20,162,72,72,66,21,17,11,10,0.6,0.6
2022-06-12T09:00:00,1204A,119.4974,32.1968,镇江市,职教中心,,38,38,38,20,20,157,67,71,58,17,17,9,7,0.6,0.6
2022-06-12T09:00:00,1205A,119.4303,32.1328,镇江市,丹徒区监测站,,50,40,40,35,31,170,70,78,66,13,11,10,8,0.3,0.3
2022-06-12T09:00:00,1206A,119.905,32.4878,泰州市,公园路,,39,39,34,24,17,120,62,66,64,24,18,6,3,1.0,0.5
2022-06-12T09:00:00,1207A,119.9189,32.4625,泰州市,莲花,,39,37,31,27,21,128,68,74,70,20,13,9,6,0.9,0.5
2022-06-12T09:00:00,1209A,119.888,32.4639,泰州市,留学生创业园,,46,46,36,26,16,143,77,81,77,14,7,11,7,0.9,0.4
2022-06-12T09:00:00,1210A,119.036,33.5981,淮安市,钵池山,,39,39,36,20,15,169,94,91,90,13,11,9,7,0.7,0.5
2022-06-12T09:00:00,1211A,119.007,33.575,淮安市,北京南路,,48,48,42,24,18,164,88,86,84,16,12,10,6,0.8,0.5
2022-06-12T09:00:00,1212A,118.989,33.6067,淮安市,市监测站,颗粒物(PM10),51,51,46,21,12,164,86,90,85,22,15,10,7,0.9,0.6
2022-06-12T09:00:00,1213A,119.135,33.5039,淮安市,楚州区监测站,颗粒物(PM10),51,51,45,27,17,148,86,78,78,12,13,12,10,0.8,0.5
2022-06-12T09:00:00,1214A,119.0186,33.6297,淮安市,淮阴区监测站,,45,45,35,21,16,164,92,87,85,12,11,11,9,0.9,0.6
2022-06-12T09:00:00,1215A,120.118,33.4022,盐城市,盐城电厂,,36,36,31,18,12,152,106,115,112,10,8,4,3,0.3,0.3
2022-06-12T09:00:00,1216A,120.156,33.3942,盐城市,市监测站,,39,39,28,11,7,146,110,105,104,9,8,10,9,0.2,0.2
2022-06-12T09:00:00,1218A,120.2144,33.38,盐城市,开发区管委会,,35,31,30,20,12,133,110,94,94,9,9,6,5,0.2,0.2
2022-06-12T09:00:00,1220A,118.293,33.9528,宿迁市,宿迁学院,颗粒物(PM10),56,61,51,24,23,202,73,84,70,18,15,11,8,0.6,0.4
2022-06-12T09:00:00,1221A,118.2442,33.9592,宿迁市,宿迁中学,颗粒物(PM10),52,54,53,27,22,200,76,83,69,12,13,9,7,0.5,0.4
2022-06-12T09:00:00,1223A,120.2072,30.2111,杭州市,滨江,,45,45,31,23,16,120,43,75,43,39,26,4,3,0.6,0.5
2022-06-12T09:00:00,1224A,120.0633,30.2747,杭州市,西溪,,43,43,26,26,14,111,39,61,40,30,18,10,8,0.6,0.5
2022-06-12T09:00:00,1226A,120.3461,30.3153,杭州市,下沙,,43,43,27,25,15,140,61,74,56,32,24,8,6,0.6,0.4
2022-06-12T09:00:00,1227A,120.1269,30.2456,杭州市,卧龙桥,,45,45,26,28,16,121,47,29,29,32,21,8,6,0.5,0.5
2022-06-12T09:00:00,1228A,120.1903,30.2692,杭州市,浙江农大,,50,50,29,33,18,128,40,65,45,38,23,10,6,0.6,0.5
2022-06-12T09:00:00,1230A,120.1197,30.3119,杭州市,和睦小学,,49,49,32,28,16,133,44,71,49,37,25,5,4,0.7,0.6
2022-06-12T09:00:00,1231A,120.3019,30.4183,杭州市,临平镇,,41,41,30,22,12,142,65,84,69,24,18,4,4,0.6,0.5
2022-06-12T09:00:00,1232A,120.2697,30.1819,杭州市,城厢镇,,36,36,30,20,17,116,45,67,39,32,26,6,6,0.6,0.4
2022-06-12T09:00:00,1233A,120.0883,30.1808,杭州市,云栖,颗粒物(PM10),52,54,30,23,12,113,48,20,20,33,23,10,8,0.6,0.5
2022-06-12T09:00:00,1234A,121.8358,29.911,宁波市,区环保大楼,,34,34,28,20,17,103,48,24,24,26,35,8,7,0.5,0.5
2022-06-12T09:00:00,1235A,121.56,29.82,宁波市,万里学院,,36,31,23,25,18,141,62,56,42,19,21,8,8,0.6,0.5
2022-06-12T09:00:00,1236A,121.713,29.9572,宁波市,龙赛医院,,28,26,23,19,14,135,50,69,52,31,25,7,5,0.6,0.5
2022-06-12T09:00:00,1239A,121.633,29.7733,宁波市,钱湖水厂,,29,21,17,20,12,101,71,44,40,12,14,7,8,0.6,0.6
2022-06-12T09:00:00,1240A,121.5856,29.8635,宁波市,太古小学,,32,32,25,18,18,124,54,41,37,20,21,7,8,0.5,0.6
2022-06-12T09:00:00,1241A,121.524,29.8674,宁波市,市环境监测中心,,26,26,25,13,12,123,57,62,49,24,24,7,7,0.4,0.3
2022-06-12T09:00:00,1242A,120.634,28.0089,温州市,瓯海,,23,9,22,6,12,89,71,59,57,17,28,5,5,0.5,0.5
2022-06-12T09:00:00,1243A,120.6748,27.9939,温州市,南浦,,23,11,21,5,8,86,73,76,72,12,16,5,6,0.3,0.4
2022-06-12T09:00:00,1244A,120.76,27.9747,温州市,龙湾,,33,33,30,14,16,80,68,72,66,14,16,4,4,0.6,0.6
2022-06-12T09:00:00,1245A,120.6709,28.0167,温州市,市站,,22,14,25,8,12,87,69,65,59,18,24,5,5,0.4,0.4
2022-06-12T09:00:00,1247A,120.6053,29.9928,绍兴市,城东开发委,,25,25,23,16,14,111,35,63,34,18,13,7,7,0.6,0.5
2022-06-12T09:00:00,1250A,120.0751,30.8669,湖州市,城西水厂,,27,27,27,17,14,152,51,83,65,24,13,4,4,0.4,0.3
2022-06-12T09:00:00,1252A,120.7436,30.778,嘉兴市,清河小学,,34,34,20,19,12,136,41,81,58,27,15,6,6,0.7,0.5
2022-06-12T09:00:00,1253A,120.726,30.7478,嘉兴市,嘉兴学院,,30,30,22,18,11,120,50,82,61,21,15,3,3,0.4,0.3
2022-06-12T09:00:00,1255A,121.273,28.6459,台州市,黄岩环保大楼,,33,33,17,14,8,101,59,50,50,20,17,5,5,0.4,0.4
2022-06-12T09:00:00,1256A,121.419,28.6542,台州市,台州环保大楼,,26,26,18,14,8,102,73,78,67,12,11,5,4,0.4,0.4
2022-06-12T09:00:00,1257A,121.377,28.5773,台州市,路桥田洋王,,36,32,20,25,15,103,54,87,70,27,15,5,5,0.4,0.3
2022-06-12T09:00:00,1258A,122.122,30.0203,舟山市,定海檀枫,,29,28,18,20,11,105,42,41,31,12,3,2,1,0.3,0.3
2022-06-12T09:00:00,1259A,122.3094,29.9558,舟山市,普陀东港,,26,25,19,16,10,125,83,82,62,9,5,3,3,0.4,0.3
2022-06-12T09:00:00,1260A,122.19,29.9944,舟山市,临城新区,,36,36,21,13,7,112,48,42,34,17,7,4,3,0.4,0.3
2022-06-12T09:00:00,1262A,119.647,29.077,金华市,十五中,,29,26,28,20,18,109,28,36,27,31,30,4,5,0.5,0.4
2022-06-12T09:00:00,1263A,119.686,29.1029,金华市,监测站,,26,10,24,18,16,128,33,28,28,29,29,3,5,0.5,0.4
2022-06-12T09:00:00,1264A,118.8692,28.9398,衢州市,环保大楼,,17,17,22,8,9,121,40,70,55,18,14,4,6,0.8,0.6
2022-06-12T09:00:00,1265A,118.8709,28.9666,衢州市,实验学校,,16,13,15,5,9,125,49,78,63,15,11,4,4,0.5,0.5
2022-06-12T09:00:00,1266A,118.8621,28.9808,衢州市,衢州学院,,15,15,16,6,8,111,45,68,57,16,12,4,5,0.5,0.5
2022-06-12T09:00:00,1267A,119.914,28.4514,丽水市,监测站大楼,,18,11,18,6,7,86,55,38,38,12,13,5,5,0.4,0.4
2022-06-12T09:00:00,1268A,119.93,28.4586,丽水市,莲都小学,,20,20,23,4,12,92,51,31,31,17,13,5,5,0.3,0.4
2022-06-12T09:00:00,1269A,119.879,28.4231,丽水市,余庄前,,,11,14,4,4,81,,,,,9,,5,,0.4
2022-06-12T09:00:00,1270A,117.1959,31.7848,合肥市,明珠广场,,31,31,35,5,12,159,74,126,93,25,16,7,7,0.3,0.3
2022-06-12T09:00:00,1271A,117.3072,31.8764,合肥市,三里街,,34,34,32,12,12,149,72,109,86,20,14,11,12,0.5,0.4
2022-06-12T09:00:00,1272A,117.2588,31.8707,合肥市,琥珀山庄,,27,27,32,2,11,158,82,119,92,18,15,10,11,0.5,0.5
2022-06-12T09:00:00,1273A,117.1604,31.9052,合肥市,董铺水库(对照点),,25,22,34,14,17,154,79,122,90,16,11,10,11,0.4,0.4
2022-06-12T09:00:00,1274A,117.25,31.8571,合肥市,长江中路,,31,31,34,17,19,168,86,128,96,21,20,9,9,0.4,0.5
2022-06-12T09:00:00,1275A,117.266,31.9436,合肥市,庐阳区,,34,34,40,14,17,162,78,127,94,23,17,11,11,0.5,0.4
2022-06-12T09:00:00,1276A,117.336,31.8586,合肥市,瑶海区,,27,27,31,12,16,164,82,120,95,15,10,9,9,0.6,0.5
2022-06-12T09:00:00,1277A,117.3027,31.7964,合肥市,包河区,,29,29,35,14,14,162,86,123,96,17,14,7,7,0.4,0.4
2022-06-12T09:00:00,1278A,117.2776,31.7385,合肥市,滨湖新区,颗粒物(PM10),51,52,33,14,12,167,91,131,101,13,8,11,11,0.2,0.2
2022-06-12T09:00:00,1279A,117.1318,31.8403,合肥市,高新区,,29,29,37,9,13,156,76,128,96,20,14,10,10,0.6,0.6
2022-06-12T09:00:00,1282A,119.2681,26.0504,福州市,师大,,20,10,10,4,5,78,62,63,59,11,16,2,3,0.3,0.3
2022-06-12T09:00:00,1283A,119.2984,26.1028,福州市,五四北路,,20,18,9,14,6,82,50,52,47,21,20,15,4,0.4,0.3
2022-06-12T09:00:00,1284A,119.2648,26.0768,福州市,杨桥西路,,20,12,10,9,8,70,62,49,49,14,19,8,3,0.3,0.3
2022-06-12T09:00:00,1285A,119.317,26.0746,福州市,紫阳,,18,4,11,3,7,64,56,48,48,16,24,4,4,0.5,0.5
2022-06-12T09:00:00,1286A,118.1608,24.8169,厦门市,溪东(对照点),,17,10,10,11,22,81,52,62,53,3,3,2,2,0.5,0.5
2022-06-12T09:00:00,1287A,118.1514,24.4767,厦门市,洪文,,19,13,10,5,6,76,58,75,64,25,19,5,4,0.6,0.6
2022-06-12T09:00:00,1288A,118.0661,24.4444,厦门市,鼓浪屿,,17,13,10,10,6,79,52,77,62,30,22,3,2,0.4,0.4
2022-06-12T09:00:00,1290A,115.8931,28.6843,南昌市,省外办,,15,5,18,6,8,110,46,78,61,15,16,2,4,0.6,0.6
2022-06-12T09:00:00,1291A,115.8886,28.7003,南昌市,省林业公司,,17,5,15,0,2,114,54,86,66,7,4,2,4,0.5,0.5
2022-06-12T09:00:00,1292A,115.8126,28.7442,南昌市,林科所,,18,0,11,0,4,111,56,48,48,6,9,3,4,0.5,0.5
2022-06-12T09:00:00,1294A,115.8518,28.687,南昌市,建工学校,,17,6,12,9,11,113,53,79,68,10,9,4,5,0.5,0.5
2022-06-12T09:00:00,1295A,115.8921,28.6424,南昌市,象湖,,16,2,11,0,6,105,49,73,60,6,6,3,5,0.6,0.5
2022-06-12T09:00:00,1296A,115.7423,28.7996,南昌市,武术学校(对照点),,18,9,20,8,8,110,55,31,31,2,3,3,4,0.4,0.4
2022-06-12T09:00:00,1298A,115.9314,28.6842,南昌市,省站,,18,15,18,4,7,110,55,84,66,11,9,5,8,0.5,0.5
2022-06-12T09:00:00,1299A,116.9862,36.6114,济南市,科干所,,48,48,50,20,20,188,141,162,142,13,13,10,9,0.5,0.5
2022-06-12T09:00:00,1300A,116.9376,36.665,济南市,农科所,颗粒物(PM10),59,68,54,15,16,179,127,147,126,16,15,10,8,0.2,0.2
2022-06-12T09:00:00,1301A,117.1265,36.6734,济南市,开发区,,45,44,51,25,22,231,144,166,145,8,12,12,10,0.3,0.4
2022-06-12T09:00:00,1303A,117.0624,36.6868,济南市,省种子仓库,,45,41,54,29,26,239,141,166,143,9,14,11,10,0.4,0.5
2022-06-12T09:00:00,1304A,116.9489,36.6447,济南市,机床二厂,颗粒物(PM10),56,61,58,20,18,184,130,152,130,11,11,8,6,0.3,0.4
2022-06-12T09:00:00,1305A,117.0495,36.663,济南市,市监测站,,49,49,54,19,19,223,135,159,139,11,12,9,8,0.5,0.5
2022-06-12T09:00:00,1306A,116.7675,36.5484,济南市,长清党校,颗粒物(PM10),57,63,56,27,19,201,122,149,129,13,9,16,12,0.4,0.3
2022-06-12T09:00:00,1307A,120.6659,36.2403,青岛市,仰口(对照点),,32,31,23,22,18,72,58,47,47,4,4,3,4,0.4,0.3
2022-06-12T09:00:00,1310A,120.4134,36.0658,青岛市,市南区东部子站,,25,22,24,12,12,84,77,67,67,3,5,5,5,0.2,0.2
2022-06-12T09:00:00,1311A,120.3664,36.1032,青岛市,四方区子站,,29,29,22,17,15,80,80,71,71,9,6,6,5,0.6,0.5
2022-06-12T09:00:00,1312A,120.2994,36.054,青岛市,市南区西部子站,,24,24,21,10,10,93,75,72,69,13,13,7,6,0.4,0.4
2022-06-12T09:00:00,1313A,120.4581,36.0858,青岛市,崂山区子站,,26,22,21,9,10,85,83,72,72,9,9,7,7,0.3,0.3
2022-06-12T09:00:00,1314A,120.1983,35.9608,青岛市,黄岛区子站,,29,22,17,15,14,91,91,77,77,11,9,5,4,0.2,0.2
2022-06-12T09:00:00,1315A,120.3999,36.3083,青岛市,城阳区子站,,31,31,26,7,12,96,80,72,70,12,8,3,4,0.4,0.4
2022-06-12T09:00:00,1316A,113.69031,34.76122,郑州市,烟厂,,,48,51,,,223,104,124,116,23,15,14,9,0.6,0.4
2022-06-12T09:00:00,1317A,113.65724,34.77134,郑州市,郑纺机,,,44,52,,14,205,98,122,110,20,12,10,10,0.6,0.5
2022-06-12T09:00:00,1318A,113.67526,34.80246,郑州市,银行学校,,43,43,46,19,14,238,112,136,126,23,17,11,9,0.6,0.6
2022-06-12T09:00:00,1319A,113.56746,34.81334,郑州市,供水公司,颗粒物(PM10),51,52,56,17,12,210,99,133,122,26,18,7,7,0.5,0.5
2022-06-12T09:00:00,1320A,113.7329,34.7178,郑州市,经开区管委,,42,42,49,29,16,211,106,115,108,21,19,13,7,0.9,0.5
2022-06-12T09:00:00,1321A,113.73961,34.77172,郑州市,四十七中,,41,41,49,20,14,221,109,125,119,23,16,13,9,0.7,0.5
2022-06-12T09:00:00,1322A,113.60532,34.74838,郑州市,市监测站,,47,47,53,16,11,209,90,127,115,25,15,8,8,0.5,0.4
2022-06-12T09:00:00,1323A,113.64164,34.7525,郑州市,河医大,,48,48,53,19,14,208,97,126,115,21,13,7,6,0.5,0.5
2022-06-12T09:00:00,1324A,113.51488,34.91089,郑州市,岗李水库(对照点),,33,33,57,13,18,213,79,135,111,18,17,5,6,0.4,0.4
2022-06-12T09:00:00,1325A,114.3677,30.5584,武汉市,东湖梨园,,25,12,26,7,14,173,80,102,78,11,10,8,10,0.7,0.8
2022-06-12T09:00:00,1326A,114.2529,30.558,武汉市,汉阳月湖,,26,12,27,2,10,177,83,80,73,20,21,7,9,0.8,0.8
2022-06-12T09:00:00,1327A,114.282,30.6189,武汉市,汉口花桥,,24,14,33,7,14,158,75,85,71,23,18,9,11,0.6,0.7
2022-06-12T09:00:00,1328A,114.3025,30.5332,武汉市,武昌紫阳,,18,18,28,6,11,158,55,88,66,33,19,8,10,1.0,0.9
2022-06-12T09:00:00,1329A,114.3646,30.6217,武汉市,青山钢花,,26,19,30,17,18,172,81,86,78,24,16,11,10,0.7,0.7
2022-06-12T09:00:00,1330A,114.1566,30.4825,武汉市,沌口新区,,24,22,35,11,18,168,76,99,74,24,23,10,11,0.8,0.9
2022-06-12T09:00:00,1331A,114.3014,30.5944,武汉市,汉口江滩,,28,22,33,4,10,178,88,74,74,16,21,6,8,0.7,0.7
2022-06-12T09:00:00,1333A,114.135,30.6319,武汉市,吴家山,,24,21,34,10,16,177,76,80,70,19,20,8,10,0.8,0.9
2022-06-12T09:00:00,1335A,113.0833,28.2325,长沙市,经开区环保局,,22,9,15,15,20,100,68,85,76,14,10,4,5,0.5,0.5
2022-06-12T09:00:00,1336A,112.8872,28.2189,长沙市,高开区环保局,,33,11,14,23,32,113,78,90,80,10,10,6,7,0,0.1
2022-06-12T09:00:00,1337A,113.0792,28.2053,长沙市,马坡岭,,24,17,21,2,11,106,74,95,81,13,11,5,5,0.7,0.7
2022-06-12T09:00:00,1338A,112.9394,28.19,长沙市,湖南师范大学,,25,23,23,14,12,110,79,95,80,12,10,5,6,0.7,0.7
2022-06-12T09:00:00,1339A,113.0178,28.1322,长沙市,雨花区环保局,,22,11,19,15,17,98,61,84,75,15,10,4,5,0.6,0.4
2022-06-12T09:00:00,1340A,112.9792,28.2597,长沙市,伍家岭,,25,18,29,12,16,105,77,77,69,4,10,1,2,0.5,0.5
2022-06-12T09:00:00,1341A,113.0014,28.1944,长沙市,火车新站,,30,23,27,21,15,101,72,80,73,12,11,5,6,0.2,0.2
2022-06-12T09:00:00,1342A,112.9844,28.1178,长沙市,天心区环保局,,21,15,26,10,14,98,66,85,76,9,6,3,4,0.4,0.4
2022-06-12T09:00:00,1343A,112.8908,28.1308,长沙市,湖南中医药大学,,24,22,22,10,15,102,75,85,77,6,8,2,4,0.7,0.7
2022-06-12T09:00:00,1344A,112.9581,28.3611,长沙市,沙坪(对照点),,30,27,25,21,18,99,74,79,66,7,6,6,6,0.5,0.5
2022-06-12T09:00:00,1345A,113.2347,23.1423,广州市,广雅中学,,19,19,20,12,13,65,19,15,15,28,34,4,4,0.7,0.7
2022-06-12T09:00:00,1346A,113.2612,23.105,广州市,市五中,,22,22,21,12,13,66,19,12,12,25,32,5,4,0.7,0.7
2022-06-12T09:00:00,1348A,113.3478,23.0916,广州市,广东商学院,,14,14,20,8,12,43,18,8,8,26,35,3,4,0.7,0.8
2022-06-12T09:00:00,1349A,113.4332,23.1047,广州市,市八十六中,,19,14,20,8,10,41,23,5,5,37,44,7,7,0.5,0.6
2022-06-12T09:00:00,1350A,113.3505,22.9483,广州市,番禺中学,,11,11,16,7,9,51,27,12,12,17,30,5,5,0.6,0.6
2022-06-12T09:00:00,1351A,113.2146,23.3916,广州市,花都师范,,27,27,26,16,16,83,15,7,7,32,35,5,5,0.7,0.7
2022-06-12T09:00:00,1352A,113.2597,23.1331,广州市,市监测站,,17,17,21,9,13,75,28,17,17,19,31,6,6,0.7,0.7
2022-06-12T09:00:00,1353A,113.5618,23.312,广州市,九龙镇镇龙,,20,20,22,12,13,75,10,4,4,32,36,6,6,0.6,0.6
2022-06-12T09:00:00,1354A,113.2765,23.1544,广州市,麓湖,,19,19,19,12,12,62,26,14,14,19,26,4,4,0.7,0.7
2022-06-12T09:00:00,1355A,113.443,23.3035,广州市,帽峰山森林公园(对照点),,24,24,17,15,9,60,23,18,18,19,27,4,4,0.6,0.6
2022-06-12T09:00:00,1356A,114.1063,22.5545,深圳市,通心岭子站,,11,6,15,0,5,56,33,26,26,11,17,2,3,0.5,0.4
2022-06-12T09:00:00,1357A,114.117,22.5625,深圳市,洪湖,,18,18,18,2,7,52,32,19,19,16,24,6,6,0.6,0.6
2022-06-12T09:00:00,1358A,113.987,22.5417,深圳市,华侨城,,15,15,17,4,5,54,20,25,24,11,18,4,4,0.5,0.5
2022-06-12T09:00:00,1359A,113.9181,22.5171,深圳市,南海子站,,22,22,15,7,6,59,35,29,29,25,29,3,3,0.8,0.8
2022-06-12T09:00:00,1360A,114.2458,22.5689,深圳市,盐田,,24,15,16,9,7,54,4,3,3,47,38,5,4,0.8,0.8
2022-06-12T09:00:00,1361A,114.2283,22.7244,深圳市,龙岗,,22,22,21,12,10,45,17,19,11,35,42,3,3,0.7,0.7
2022-06-12T09:00:00,1363A,114.494,22.5422,深圳市,南澳,,24,24,17,9,4,72,58,46,46,6,10,5,5,0.7,0.7
2022-06-12T09:00:00,1364A,114.41,22.6342,深圳市,葵涌,,18,18,15,4,4,67,24,34,27,19,14,6,6,0.5,0.5
2022-06-12T09:00:00,1365A,114.297,22.5978,深圳市,梅沙,,13,13,14,3,4,62,36,28,27,14,22,5,5,0.5,0.5
2022-06-12T09:00:00,1366A,114.0678,22.738,深圳市,观澜,,16,14,21,6,11,33,6,4,4,32,36,4,4,0.6,0.6
2022-06-12T09:00:00,1367A,113.5814,22.2618,珠海市,吉大,,17,13,12,8,6,57,53,46,45,6,8,7,7,0.5,0.4
2022-06-12T09:00:00,1368A,113.4881,22.2335,珠海市,前山,,17,12,10,10,7,58,54,52,52,9,14,8,8,0.4,0.4
2022-06-12T09:00:00,1369A,113.628,22.4251,珠海市,唐家,,18,12,8,10,4,68,56,49,49,4,9,8,8,0.4,0.4
2022-06-12T09:00:00,1370A,113.299,22.2281,珠海市,斗门,,21,21,11,13,6,56,49,40,40,9,10,10,8,0.8,0.6
2022-06-12T09:00:00,1371A,113.1294,23.0067,佛山市,湾梁,,17,17,18,10,9,59,15,4,4,27,32,6,5,0.6,0.5
2022-06-12T09:00:00,1372A,113.1083,23.0478,佛山市,华材职中,,19,17,16,13,12,74,17,6,6,22,27,6,5,0.4,0.5
2022-06-12T09:00:00,1373A,113.144,23.0453,佛山市,南海气象局,,19,16,21,13,13,65,16,7,7,32,36,5,5,0.7,0.7
2022-06-12T09:00:00,1374A,113.2881,22.8094,佛山市,顺德苏岗,,10,10,8,7,7,47,24,12,12,19,30,5,5,0.8,0.8
2022-06-12T09:00:00,1376A,112.8383,22.8678,佛山市,高明孔堂,,26,26,18,12,6,55,25,18,13,14,10,5,5,0.6,0.6
2022-06-12T09:00:00,1377A,112.8836,23.1588,佛山市,三水监测站,,28,24,18,19,14,59,13,4,4,33,37,5,5,0.7,0.7
2022-06-12T09:00:00,1378A,112.867,23.185,佛山市,三水云东海,,33,33,24,7,7,71,17,7,7,28,33,5,5,0.6,0.6
2022-06-12T09:00:00,1379A,113.3769,22.5211,中山市,华柏园,,20,20,15,7,7,57,45,37,33,6,12,2,2,0.6,0.7
2022-06-12T09:00:00,1380A,113.3881,22.5497,中山市,张溪,,28,28,18,10,6,61,42,47,42,12,14,4,3,0.6,0.6
2022-06-12T09:00:00,1381A,113.4075,22.5111,中山市,紫马岭,,20,20,12,5,5,63,52,38,38,5,11,2,2,0.8,0.8
2022-06-12T09:00:00,1382A,113.4411,22.4853,中山市,长江旅游区(对照点),,22,22,11,4,4,72,57,45,44,4,6,3,3,0.5,0.4
2022-06-12T09:00:00,1383A,113.1064,22.6058,江门市,北街,,22,22,16,9,6,47,33,20,20,18,21,4,4,0.5,0.5
2022-06-12T09:00:00,1384A,113.0731,22.5835,江门市,西区,,20,20,18,12,9,45,32,22,22,19,23,5,5,0.8,0.6
2022-06-12T09:00:00,1385A,113.0219,22.5311,江门市,圭峰西,,16,16,17,10,7,48,32,16,16,13,15,4,4,0.5,0.5
2022-06-12T09:00:00,1386A,113.0828,22.5947,江门市,东湖,,23,23,19,8,10,51,32,21,21,17,18,6,6,0.8,0.6
2022-06-12T09:00:00,1389A,113.7547,23.0494,东莞市,莞城梨川,,12,11,20,6,12,62,38,24,24,17,29,7,7,0.7,0.7
2022-06-12T09:00:00,1390A,113.7944,23.0128,东莞市,东城石井,,14,11,19,6,10,68,42,21,21,18,29,2,2,0.5,0.5
2022-06-12T09:00:00,1391A,113.7383,22.9658,东莞市,南城西平,,15,13,18,5,7,62,46,39,39,21,34,3,3,0.6,0.6
2022-06-12T09:00:00,1392A,114.4183,23.0528,惠州市,河南岸金山湖子站,,19,18,18,13,8,83,18,17,12,15,16,4,3,0.5,0.6
2022-06-12T09:00:00,1393A,114.4053,23.0822,惠州市,下埔横江三路子站,,,17,17,,7,94,20,22,15,21,20,4,3,0.4,0.4
2022-06-12T09:00:00,1394A,114.4103,23.1142,惠州市,江北云山西路子站,,22,22,18,12,8,105,19,18,17,19,17,8,6,0.6,0.6
2022-06-12T09:00:00,1395A,114.4645,22.7833,惠州市,惠阳区承修路船湖子站,,,15,16,,8,64,24,31,24,19,18,3,3,0.9,0.8
2022-06-12T09:00:00,1396A,114.5317,22.7422,惠州市,大亚湾管委会子站,,20,20,16,6,6,70,31,32,27,23,24,4,4,0.3,0.3
2022-06-12T09:00:00,1397A,112.4267,23.0706,肇庆市,睦岗子站,,40,40,23,27,15,56,27,20,20,21,22,19,13,0.6,0.5
2022-06-12T09:00:00,1398A,112.4645,23.0475,肇庆市,城中子站,,44,44,22,23,12,47,28,19,19,18,25,22,14,0.6,0.5
2022-06-12T09:00:00,1399A,112.5544,23.1522,肇庆市,坑口子站,,42,42,21,26,13,60,28,21,21,16,16,16,9,0.6,0.6
2022-06-12T09:00:00,1401A,108.3103,22.7881,南宁市,二十一中,,39,39,22,19,13,41,17,34,23,15,17,5,5,0.8,0.8
2022-06-12T09:00:00,1402A,108.3141,22.8528,南宁市,北湖,,42,42,26,21,14,46,18,32,25,15,17,5,4,0.9,0.9
2022-06-12T09:00:00,1403A,108.3206,22.8225,南宁市,市监测站,,35,31,22,24,15,42,16,30,23,18,23,7,7,0.7,0.7
2022-06-12T09:00:00,1404A,108.3829,22.8037,南宁市,大自然花园,,26,26,17,17,8,50,24,32,27,11,13,6,6,0.8,0.8
2022-06-12T09:00:00,1405A,108.4394,22.7904,南宁市,仙葫(对照点),,34,34,17,23,10,52,27,34,29,12,15,5,3,0.7,0.6
2022-06-12T09:00:00,1406A,108.2397,22.8467,南宁市,区农职院,,39,31,18,27,12,47,15,22,18,25,26,6,6,0.9,0.8
2022-06-12T09:00:00,1407A,108.3275,22.735,南宁市,英华嘉园,,44,44,22,20,11,46,18,23,21,17,18,5,5,0.8,0.7
2022-06-12T09:00:00,1408A,108.2257,22.7757,南宁市,沙井镇街道办,,39,39,20,27,12,48,16,23,16,18,21,5,6,0.9,0.8
2022-06-12T09:00:00,1410A,110.3232,20.0574,海口市,海南大学,,25,25,21,9,10,68,35,38,37,3,5,5,4,0.5,0.5
2022-06-12T09:00:00,1411A,110.283,20.0053,海口市,秀英海南医院,,23,23,23,10,10,64,32,21,21,14,18,4,3,0.4,0.3
2022-06-12T09:00:00,1412A,110.338,19.9969,海口市,海南师范大学,,23,1,26,16,11,60,28,30,24,13,10,2,2,0.4,0.4
2022-06-12T09:00:00,1413A,110.33,20.0356,海口市,龙华路环保局宿舍,,30,30,24,10,10,71,36,37,33,11,9,5,4,0.5,0.5
2022-06-12T09:00:00,1414A,106.3787,29.8279,重庆市,缙云山(对照点),,27,6,15,4,10,107,84,75,75,9,11,5,5,0.4,0.5
2022-06-12T09:00:00,1416A,106.4213,29.8253,重庆市,天生,,15,15,37,5,19,73,41,47,42,25,22,4,5,0.7,0.7
2022-06-12T09:00:00,1417A,106.6263,29.7228,重庆市,两路,,14,11,29,8,21,63,40,53,45,28,29,6,7,0.4,0.5
2022-06-12T09:00:00,1418A,106.2953,29.5983,重庆市,虎溪,,30,22,49,21,36,69,41,42,42,27,28,5,5,1.0,1.1
2022-06-12T09:00:00,1419A,106.5777,29.5102,重庆市,南坪,,19,16,38,10,23,74,27,45,45,38,38,10,6,0.6,0.7
2022-06-12T09:00:00,1420A,106.6556,29.6277,重庆市,唐家沱,,16,16,35,5,22,74,42,47,47,21,35,6,6,0.2,0.4
2022-06-12T09:00:00,1421A,106.6349,29.4906,重庆市,茶园,,26,14,33,18,25,68,52,58,58,14,26,5,6,0.4,0.6
2022-06-12T09:00:00,1422A,106.3754,29.4572,重庆市,白市驿,,14,10,33,8,29,76,42,32,32,19,26,4,4,0.8,0.8
2022-06-12T09:00:00,1425A,106.6205,29.7166,重庆市,空港,,26,10,27,6,21,70,48,55,52,16,20,5,5,2.6,1.7
2022-06-12T09:00:00,1426A,106.4782,29.4875,重庆市,新山村,,21,21,42,12,26,51,41,33,33,36,50,5,7,0.7,0.9
2022-06-12T09:00:00,1427A,106.5616,29.6453,重庆市,礼嘉,,17,7,32,8,20,72,40,46,46,34,38,9,9,0.8,0.8
2022-06-12T09:00:00,1428A,106.4522,29.7091,重庆市,蔡家,,16,13,28,5,18,58,31,33,33,31,28,5,5,0.5,0.5
2022-06-12T09:00:00,1429A,106.5093,29.3917,重庆市,鱼新街,,27,27,40,13,26,69,39,24,24,26,46,4,6,0.9,1.1
2022-06-12T09:00:00,1431A,103.9728,30.7236,成都市,金泉两河,,45,35,35,31,26,149,59,74,64,15,14,4,3,0.6,0.5
2022-06-12T09:00:00,1432A,104.1419,30.6764,成都市,十里店,,40,39,33,28,21,139,63,73,63,16,11,4,4,0.6,0.5
2022-06-12T09:00:00,1433A,104.0594,30.5767,成都市,三瓦窑,,36,32,30,25,21,128,30,59,55,39,16,2,2,0.7,0.6
2022-06-12T09:00:00,1434A,104.1122,30.6306,成都市,沙河铺,,38,38,34,19,17,143,41,60,53,19,18,2,2,0.6,0.6
2022-06-12T09:00:00,1437A,104.0431,30.6556,成都市,君平街,,39,33,37,27,33,149,56,83,63,29,21,3,4,0.5,0.5
2022-06-12T09:00:00,1438A,103.6202,31.0201,成都市,灵岩寺(对照点),,26,12,36,18,37,132,51,98,76,4,7,9,5,0.8,0.7
2022-06-12T09:00:00,1439A,106.6899,26.5998,贵阳市,马鞍山,,14,14,11,5,6,70,18,41,23,11,7,5,5,0.5,0.4
2022-06-12T09:00:00,1440A,106.6971,26.5694,贵阳市,市环保站,,26,22,13,18,10,81,12,46,25,28,15,7,5,0.5,0.4
2022-06-12T09:00:00,1441A,106.6243,26.6266,贵阳市,鉴湖路,,25,19,22,17,11,77,27,42,31,18,10,3,3,0.7,0.6
2022-06-12T09:00:00,1442A,106.7487,26.6343,贵阳市,燕子冲,,48,48,17,24,14,70,16,37,17,11,7,5,5,0.6,0.5
2022-06-12T09:00:00,1443A,106.6555,26.4365,贵阳市,碧云窝,,39,39,33,17,12,90,36,39,24,15,17,3,3,0.8,0.6
2022-06-12T09:00:00,1444A,106.694,26.5161,贵阳市,中院村,,27,27,23,12,9,77,17,42,22,28,18,3,1,0.5,0.5
2022-06-12T09:00:00,1445A,106.7109,26.6027,贵阳市,红边门,,27,27,17,17,13,84,11,46,31,21,9,6,4,0.7,0.6
2022-06-12T09:00:00,1446A,106.7164,26.5699,贵阳市,新华路,,25,19,11,17,11,80,16,41,28,17,9,6,3,0.5,0.4
2022-06-12T09:00:00,1447A,106.674,26.5424,贵阳市,太慈桥,,34,34,23,12,7,63,7,31,4,21,17,9,7,0.5,0.4
2022-06-12T09:00:00,1450A,102.8204,24.8886,昆明市,呈贡新区,,27,27,18,11,7,77,40,35,35,14,14,9,11,0.9,0.7
2022-06-12T09:00:00,1451A,102.6251,24.9608,昆明市,西山森林公园(对照点),,16,3,4,4,4,64,49,50,48,8,7,7,7,0.4,0.5
2022-06-12T09:00:00,1452A,102.7252,25.0902,昆明市,龙泉镇,,25,16,14,17,8,76,29,32,32,19,17,11,9,0.5,0.5
2022-06-12T09:00:00,1453A,102.7266,25.0375,昆明市,东风东路,,24,24,13,9,7,77,37,38,38,12,13,6,5,0.5,0.5
2022-06-12T09:00:00,1454A,102.6742,25.0669,昆明市,金鼎山,,22,21,13,15,9,78,28,30,28,19,16,16,15,0.4,0.5
2022-06-12T09:00:00,1455A,102.6644,25.0401,昆明市,碧鸡广场,,27,27,11,4,6,76,26,32,29,23,19,11,10,0.7,0.7
2022-06-12T09:00:00,1456A,91.1319,29.6514,拉萨市,八廓街,,29,18,15,5,5,154,91,106,102,13,8,5,5,0.3,0.2
2022-06-12T09:00:00,1457A,91.1221,29.6747,拉萨市,市环保局,,29,18,15,6,5,149,91,103,99,11,11,7,7,0.3,0.3
2022-06-12T09:00:00,1458A,91.0874,29.6475,拉萨市,区监测站,,32,19,13,2,4,157,100,115,110,12,10,7,7,0.2,0.2
2022-06-12T09:00:00,1459A,91.1774,29.6541,拉萨市,西藏大学,,27,20,14,5,5,145,86,97,94,13,6,8,8,0.3,0.3
2022-06-12T09:00:00,1460A,90.9798,29.6588,拉萨市,区辐射站,,28,11,10,4,4,137,89,112,105,17,9,7,7,0.2,0.2
2022-06-12T09:00:00,1461A,91.0834,29.6292,拉萨市,拉萨火车站,,34,18,13,5,5,147,106,112,109,5,8,7,8,0.2,0.3
2022-06-12T09:00:00,1462A,108.882,34.2749,西安市,高压开关厂,,25,19,52,11,18,211,78,108,96,20,19,6,8,0.3,0.4
2022-06-12T09:00:00,1463A,108.993,34.2629,西安市,兴庆小区,,25,14,49,13,25,208,79,120,84,17,19,4,5,0.6,0.5
2022-06-12T09:00:00,1464A,109.06,34.2572,西安市,纺织城,,24,24,56,13,24,211,76,108,77,18,27,5,6,0.5,0.5
2022-06-12T09:00:00,1465A,108.9356,34.2173,西安市,小寨,,25,24,46,9,19,206,79,93,87,15,19,3,2,0.2,0.2
2022-06-12T09:00:00,1466A,108.954,34.2713,西安市,市人民体育场,,27,14,49,11,21,213,84,96,84,17,20,4,5,0.3,0.3
2022-06-12T09:00:00,1467A,108.8922,34.2322,西安市,高新西区,,25,18,50,14,24,211,80,106,92,14,19,5,5,0.4,0.5
2022-06-12T09:00:00,1468A,108.935,34.3474,西安市,经开区,,25,13,48,8,19,206,79,120,86,10,14,2,4,0.3,0.4
2022-06-12T09:00:00,1469A,108.906,34.1546,西安市,长安区,,32,9,44,13,22,222,100,108,103,10,17,6,7,0.5,0.6
2022-06-12T09:00:00,1471A,109.2186,34.3731,西安市,临潼区,,31,31,52,17,22,205,73,130,103,16,13,2,4,0.5,0.6
2022-06-12T09:00:00,1472A,108.869,34.378,西安市,草滩(对照点),,17,12,44,9,20,195,54,91,61,16,19,2,4,0.9,0.9
2022-06-12T09:00:00,1473A,108.985,34.1978,西安市,曲江文化产业集团,,31,10,43,9,21,216,99,108,102,16,20,3,4,0.0,0.1
2022-06-12T09:00:00,1474A,109.051,34.3213,西安市,广运潭,,21,17,50,12,19,198,65,114,84,18,15,6,7,0.3,0.4
2022-06-12T09:00:00,1476A,103.631,36.1031,兰州市,兰炼宾馆,,50,50,64,31,32,127,71,68,68,33,22,43,14,0.7,0.4
2022-06-12T09:00:00,1478A,103.8412,36.0726,兰州市,生物制品所,颗粒物(PM10),74,98,61,33,25,121,30,11,11,46,37,30,13,2.0,0.8
2022-06-12T09:00:00,1479A,103.831,36.0464,兰州市,铁路设计院,颗粒物(PM10),67,83,61,26,24,114,36,36,23,48,42,36,15,1.8,0.7
2022-06-12T09:00:00,1483A,101.524,36.6867,西宁市,第五水厂(对照点),,20,16,21,7,10,125,61,52,42,11,14,9,10,0.7,0.7
2022-06-12T09:00:00,1484A,105.9512,38.6016,银川市,贺兰山马莲口(对照点),,49,49,97,22,32,120,72,94,87,35,12,43,16,1.7,0.6
2022-06-12T09:00:00,1488A,106.2328,38.4975,银川市,贺兰山东路,颗粒物(PM10),65,80,78,17,21,104,52,30,18,40,41,12,13,0.8,0.8
2022-06-12T09:00:00,1489A,106.1358,38.5036,银川市,学院路,颗粒物(PM10),79,108,87,24,23,110,44,24,24,46,43,14,17,0.7,0.7
2022-06-12T09:00:00,1490A,87.5801,43.8303,乌鲁木齐市,监测站,颗粒物(PM10),57,64,47,26,19,154,74,63,63,26,26,8,9,0.6,0.6
2022-06-12T09:00:00,1491A,87.6046,43.768,乌鲁木齐市,收费所,颗粒物(PM10),54,58,58,16,21,145,69,50,50,28,35,6,8,0.2,0.4
2022-06-12T09:00:00,1492A,87.4754,43.9469,乌鲁木齐市,新疆农科院农场(对照点),颗粒物(PM10),83,115,87,35,31,175,39,24,24,39,28,7,8,0.3,0.3
2022-06-12T09:00:00,1493A,87.5525,43.8711,乌鲁木齐市,铁路局,颗粒物(PM10),67,83,55,21,19,164,84,69,69,24,27,6,7,0.4,0.5
2022-06-12T09:00:00,1494A,87.6432,43.831,乌鲁木齐市,三十一中学,颗粒物(PM10),56,61,53,15,15,152,84,73,73,19,19,14,15,0.2,0.3
2022-06-12T09:00:00,1496A,87.7216,44.1747,乌鲁木齐市,米东区环保局,颗粒物(PM10),89,127,59,44,18,143,14,50,15,40,26,16,12,0.5,0.3
2022-06-12T09:00:00,1508A,112.9433,27.8614,湘潭市,板塘,,28,28,30,7,15,102,56,81,65,20,13,8,8,0.6,0.5
2022-06-12T09:00:00,1511A,112.9118,27.8403,湘潭市,市监测站,,17,15,21,11,16,100,54,83,65,20,14,10,10,0.4,0.5
2022-06-12T09:00:00,1512A,112.8937,27.8728,湘潭市,江麓,,32,32,28,9,12,109,65,91,73,14,10,6,7,0.4,0.3
2022-06-12T09:00:00,1513A,112.9227,27.8159,湘潭市,岳塘,,29,29,31,8,15,108,63,85,73,19,16,3,5,0.4,0.4
2022-06-12T09:00:00,1514A,112.9074,27.9119,湘潭市,科大,,24,24,27,9,11,99,60,88,69,15,14,5,5,0.6,0.6
2022-06-12T09:00:00,1515A,113.135,27.8244,株洲市,天台山庄,,20,2,14,6,13,95,62,84,70,10,11,4,5,0.4,0.4
2022-06-12T09:00:00,1518A,113.095,27.8867,株洲市,株冶医院,,18,14,18,9,14,96,55,77,58,12,14,7,8,0.5,0.5
2022-06-12T09:00:00,1519A,113.167,27.8667,株洲市,市四中,,21,7,17,10,16,102,66,88,72,4,6,5,6,0.5,0.5
2022-06-12T09:00:00,1520A,113.143,27.8381,株洲市,火车站,,17,17,25,6,14,93,53,84,67,8,8,4,5,0.4,0.3
2022-06-12T09:00:00,1524A,113.13,27.8528,株洲市,市监测站,,23,12,24,16,21,98,69,91,75,8,9,5,4,0.3,0.2
2022-06-12T09:00:00,1559A,113.251,27.8336,株洲市,大京风景区(对照点),,16,6,15,8,12,89,50,80,54,6,7,5,7,0.3,0.2
2022-06-12T09:00:00,1562A,113.0048,27.9153,湘潭市,昭山,,20,14,16,14,17,95,51,78,61,10,9,5,5,0.3,0.3
2022-06-12T09:00:00,1564A,112.4876,27.9164,湘潭市,韶山(对照点),,32,32,26,6,11,98,81,63,63,9,9,5,4,0.5,0.6
2022-06-12T09:00:00,1585A,109.8756,40.6532,包头市,市环境监测站,,48,28,61,33,15,104,90,89,89,16,17,18,13,0.9,0.7
2022-06-12T09:00:00,1587A,109.9991,40.5842,包头市,包头八中,,32,32,58,14,13,109,87,83,83,18,17,20,11,0.7,0.4
2022-06-12T09:00:00,1588A,109.8538,40.6821,包头市,青山宾馆,,31,22,52,12,14,105,98,88,88,11,15,12,12,0.6,0.5
2022-06-12T09:00:00,1589A,109.8642,40.6288,包头市,惠龙物流,,35,26,55,24,23,110,73,91,88,34,19,33,16,1.0,0.5
2022-06-12T09:00:00,1590A,110.0377,40.5546,包头市,东河鸿龙湾,,47,47,60,10,16,100,83,64,64,11,14,16,12,0.5,0.4
2022-06-12T09:00:00,1591A,110.0023,39.8129,鄂尔多斯市,综合楼,,31,31,37,6,8,106,98,86,86,12,17,5,8,0.4,0.4
2022-06-12T09:00:00,1592A,109.9486,39.8261,鄂尔多斯市,巴音孟克林场办事处,,39,39,45,12,13,107,103,88,88,4,9,5,7,0.4,0.4
2022-06-12T09:00:00,1593A,109.7736,39.5986,鄂尔多斯市,康泽苑,颗粒物(PM10),52,53,37,7,8,118,102,74,68,5,8,4,4,0.3,0.3
2022-06-12T09:00:00,1594A,109.8119,39.5989,鄂尔多斯市,华泰汽车城,,41,41,41,9,10,119,99,50,48,7,16,7,6,0.5,0.4
2022-06-12T09:00:00,1595A,109.9734,39.7884,鄂尔多斯市,奥林花园,颗粒物(PM10),52,53,48,7,9,107,101,69,57,7,19,5,7,0.6,0.5
2022-06-12T09:00:00,1597A,122.2703,40.7094,营口市,大庆路,,39,20,18,2,10,146,123,109,109,11,10,4,6,0.6,0.5
2022-06-12T09:00:00,1598A,122.215,40.6511,营口市,镜湖西路,,40,18,22,5,9,128,128,108,108,9,9,3,5,0.5,0.5
2022-06-12T09:00:00,1599A,122.167,40.6655,营口市,西炮台,,34,18,20,6,11,133,106,88,88,32,18,6,5,0.4,0.4
2022-06-12T09:00:00,1600A,124.3303,40.0625,丹东市,江湾东路,,26,26,20,18,16,112,63,48,41,13,13,9,6,0.7,0.5
2022-06-12T09:00:00,1601A,124.4256,40.1503,丹东市,临江后街,,,,,8,9,134,74,56,41,4,8,12,11,1.2,1.2
2022-06-12T09:00:00,1602A,124.3933,40.1461,丹东市,元宝山,,23,16,18,11,13,126,72,60,47,6,8,10,9,0.6,0.6
2022-06-12T09:00:00,1603A,124.3633,40.1092,丹东市,民主桥,,24,21,18,14,12,128,74,46,38,5,9,14,11,1.1,0.9
2022-06-12T09:00:00,1604A,122.0303,41.1489,盘锦市,开发区,,26,17,23,7,13,122,81,82,82,26,16,5,4,1.0,0.6
2022-06-12T09:00:00,1605A,122.0485,41.0883,盘锦市,兴隆台,,31,31,25,14,15,126,66,76,76,36,16,5,4,1.0,0.5
2022-06-12T09:00:00,1606A,121.8297,41.1028,盘锦市,新生街道,,34,9,16,6,10,106,106,91,91,12,11,3,3,0.5,0.5
2022-06-12T09:00:00,1607A,120.9092,40.7136,葫芦岛市,龙港区,,28,28,22,19,15,107,83,103,84,12,9,2,2,0.5,0.5
2022-06-12T09:00:00,1608A,120.8392,40.7514,葫芦岛市,化工街,,37,37,35,25,24,110,71,98,80,13,10,5,5,0.2,0.2
2022-06-12T09:00:00,1609A,120.8341,40.7073,葫芦岛市,新区,,33,23,28,23,22,108,77,100,80,12,11,6,7,0.4,0.3
2022-06-12T09:00:00,1610A,120.8695,40.7677,葫芦岛市,东城区,,38,24,27,26,25,110,68,87,70,12,13,6,6,0.2,0.2
2022-06-12T09:00:00,1611A,118.5819,24.9117,泉州市,涂山街,,20,11,9,5,4,100,63,71,64,14,12,5,4,0.3,0.3
2022-06-12T09:00:00,1612A,118.5972,24.8978,泉州市,津头埔,,26,26,14,6,6,89,56,83,61,16,14,3,3,0.4,0.4
2022-06-12T09:00:00,1613A,118.6663,24.9424,泉州市,万安,,18,18,11,6,5,92,43,81,53,27,15,4,4,0.6,0.5
2022-06-12T09:00:00,1616A,117.6795,36.229,济南市,技术学院,颗粒物(PM10),64,78,63,28,24,194,88,122,88,21,14,12,11,0.9,0.8
2022-06-12T09:00:00,1618A,118.3429,35.0532,临沂市,沂河小区,颗粒物(PM10),64,78,79,44,32,176,66,74,56,12,14,24,13,0.4,0.3
2022-06-12T09:00:00,1619A,118.295,35.0583,临沂市,鲁南制药厂,颗粒物(PM10),60,70,73,35,26,199,76,88,72,24,23,25,15,0.2,0.2
2022-06-12T09:00:00,1620A,118.2794,34.9976,临沂市,新光毛纺厂,细颗粒物(PM2.5),74,73,83,54,32,182,71,76,57,22,22,17,13,0.6,0.5
2022-06-12T09:00:00,1621A,118.3956,35.0888,临沂市,河东保险公司,细颗粒物(PM2.5),58,63,66,41,30,176,72,71,57,14,14,14,6,0.3,0.2
2022-06-12T09:00:00,1622A,116.3032,37.4674,德州市,儿童乐园,颗粒物(PM10),63,75,78,27,28,205,96,147,126,22,12,7,7,0.6,0.5
2022-06-12T09:00:00,1624A,116.2991,37.4451,德州市,监理站,颗粒物(PM10),60,70,70,14,30,196,96,142,125,17,12,9,7,0.6,0.5
2022-06-12T09:00:00,1625A,115.9848,36.4372,聊城市,区政府,颗粒物(PM10),68,86,91,25,26,212,124,140,117,10,12,11,13,0.7,0.7
2022-06-12T09:00:00,1628A,118.0062,37.3803,滨州市,市环保局,颗粒物(PM10),70,89,71,33,35,230,110,87,87,20,17,11,11,0.4,0.4
2022-06-12T09:00:00,1629A,118.0018,37.3617,滨州市,第二水厂,颗粒物(PM10),59,68,58,36,26,202,104,80,80,22,19,13,13,0.6,0.5
2022-06-12T09:00:00,1630A,117.9776,37.393,滨州市,北中新校,颗粒物(PM10),57,64,56,28,29,219,103,82,79,18,20,14,14,0.7,0.6
2022-06-12T09:00:00,1631A,118.0414,36.8103,淄博市,人民公园,颗粒物(PM10),57,63,72,27,36,276,104,122,111,17,20,12,11,0.3,0.4
2022-06-12T09:00:00,1633A,117.8525,36.4847,淄博市,双山,颗粒物(PM10),53,55,47,31,25,201,104,143,106,20,16,17,11,1.0,0.5
2022-06-12T09:00:00,1634A,117.9592,36.6331,淄博市,气象站,颗粒物(PM10),59,68,59,22,23,203,105,140,112,20,18,17,13,1.1,1
2022-06-12T09:00:00,1635A,118.3092,36.8194,淄博市,莆田园,颗粒物(PM10),57,63,54,22,28,218,118,152,109,16,16,13,10,0.4,0.4
2022-06-12T09:00:00,1637A,117.558,34.8438,枣庄市,市中区政府,颗粒物(PM10),59,68,72,22,22,217,72,126,75,23,17,13,13,0.4,0.3
2022-06-12T09:00:00,1638A,117.2852,34.7837,枣庄市,薛城环保局,颗粒物(PM10),58,66,72,29,24,198,71,119,79,26,21,14,13,0.6,0.6
2022-06-12T09:00:00,1639A,117.5852,34.7745,枣庄市,峄城区政府,颗粒物(PM10),62,73,75,29,26,207,68,113,75,27,20,11,8,0.5,0.4
2022-06-12T09:00:00,1640A,117.7276,34.5578,枣庄市,台儿庄区环保局,颗粒物(PM10),57,63,70,19,18,204,76,91,59,18,21,13,12,0.6,0.6
2022-06-12T09:00:00,1641A,117.4518,35.0992,枣庄市,山亭区环保局,,48,48,50,29,22,201,90,138,98,18,16,13,12,0.5,0.4
2022-06-12T09:00:00,1642A,121.2514,37.5639,烟台市,开发区,颗粒物(PM10),56,61,37,19,16,102,81,81,80,10,8,6,7,0.3,0.4
2022-06-12T09:00:00,1643A,121.3719,37.5433,烟台市,轴承厂,,41,41,34,26,20,114,71,66,66,8,7,5,4,0.3,0.3
2022-06-12T09:00:00,1644A,121.3181,37.5436,烟台市,西郊化工站,,46,46,34,19,20,108,70,71,70,5,4,5,4,0.2,0.2
2022-06-12T09:00:00,1645A,121.4478,37.4822,烟台市,莱山环保局,,39,39,28,19,17,115,60,65,57,10,5,7,6,0.3,0.2
2022-06-12T09:00:00,1646A,121.2611,37.4967,烟台市,福山环保局,,39,39,38,22,18,90,67,60,59,9,10,2,2,0.3,0.3
2022-06-12T09:00:00,1650A,119.1437,36.7023,潍坊市,环保局,颗粒物(PM10),54,58,44,24,20,163,67,72,58,19,10,9,7,0.8,0.6
2022-06-12T09:00:00,1653A,116.6251,35.4302,济宁市,火炬城,,,,57,19,19,188,86,132,101,16,10,10,8,0.5,0.4
2022-06-12T09:00:00,1655A,116.5491,35.4042,济宁市,电化厂,颗粒物(PM10),51,51,62,22,20,187,95,134,105,17,14,13,10,0.7,0.6
2022-06-12T09:00:00,1656A,117.1437,36.1937,泰安市,监测站,颗粒物(PM10),57,63,61,27,23,180,100,124,102,18,18,15,11,0.4,0.4
2022-06-12T09:00:00,1657A,117.0885,36.2017,泰安市,人口学校,颗粒物(PM10),58,66,60,27,24,204,109,137,118,18,15,13,9,0.2,0.2
2022-06-12T09:00:00,1658A,117.1089,36.1758,泰安市,电力学校,颗粒物(PM10),58,66,60,29,23,188,98,120,101,15,15,9,7,0.6,0.5
2022-06-12T09:00:00,1659A,119.471,35.4209,日照市,监测站,,30,27,24,17,17,106,95,68,68,8,9,7,6,0.4,0.2
2022-06-12T09:00:00,1660A,119.523,35.4216,日照市,市政府广场,,31,31,24,15,12,98,84,79,79,17,4,8,5,0.5,0.4
2022-06-12T09:00:00,1661A,119.5587,35.4044,日照市,港务局,,34,34,21,18,11,101,94,87,87,15,4,4,2,0.4,0.3
2022-06-12T09:00:00,1662A,122.1214,37.4236,威海市,华夏技校,颗粒物(PM10),52,53,42,31,28,101,57,61,61,9,11,5,4,0.4,0.4
2022-06-12T09:00:00,1663A,122.0508,37.5236,威海市,山大分校,,42,29,32,29,21,116,75,72,72,6,8,6,5,0.3,0.3
2022-06-12T09:00:00,1664A,122.1067,37.5072,威海市,市监测站,细颗粒物(PM2.5),52,42,35,36,28,110,71,64,64,15,14,6,7,0.3,0.3
2022-06-12T09:00:00,1666A,118.6614,37.4309,东营市,市环保局,颗粒物(PM10),58,66,47,22,23,154,72,100,63,21,12,11,12,0.7,0.5
2022-06-12T09:00:00,1669A,113.5824,24.7733,韶关市,市八中,,47,47,28,17,9,68,21,38,20,16,13,34,10,0.8,0.6
2022-06-12T09:00:00,1671A,113.5917,24.7972,韶关市,园林处,,35,34,23,24,12,59,18,36,22,12,8,19,8,0.7,0.6
2022-06-12T09:00:00,1672A,113.6735,24.7791,韶关市,韶关学院,,25,25,24,17,6,64,14,35,18,15,12,10,8,0.5,0.4
2022-06-12T09:00:00,1673A,113.5971,24.6863,韶关市,曲江监测站,,45,45,26,12,6,176,24,176,36,22,17,14,10,1.3,0.7
2022-06-12T09:00:00,1674A,116.6794,23.3667,汕头市,金平子站,,23,17,16,3,6,77,71,67,67,7,6,7,7,0.5,0.5
2022-06-12T09:00:00,1675A,116.7244,23.3633,汕头市,龙湖子站,,26,13,14,3,4,87,82,78,78,9,9,7,7,0.5,0.4
2022-06-12T09:00:00,1676A,116.7258,23.2775,汕头市,濠江子站,,24,14,16,3,6,84,74,71,71,9,7,9,9,0.5,0.5
2022-06-12T09:00:00,1677A,116.7519,23.4714,汕头市,澄海子站,,22,14,16,5,6,100,69,73,73,13,13,5,4,0.6,0.6
2022-06-12T09:00:00,1678A,116.6092,23.2539,汕头市,潮阳子站,,21,13,15,2,7,73,67,60,60,8,6,7,7,0.5,0.5
2022-06-12T09:00:00,1680A,110.3539,21.2706,湛江市,湛江影剧院,,24,24,15,14,8,51,22,45,24,29,17,6,8,0.6,0.5
2022-06-12T09:00:00,1681A,110.3928,21.2228,湛江市,市环境监测站,,21,21,16,13,6,61,34,61,39,17,15,5,6,0.6,0.6
2022-06-12T09:00:00,1682A,110.4019,21.1997,湛江市,环保局宿舍,,16,15,15,11,7,59,39,59,34,16,16,5,5,0.5,0.5
2022-06-12T09:00:00,1683A,110.4111,21.2028,湛江市,霞山游泳场,,23,23,14,15,7,52,34,37,32,16,16,6,6,0.6,0.6
2022-06-12T09:00:00,1684A,110.3316,21.2679,湛江市,麻章区环保局,,31,31,16,14,8,51,31,51,28,24,16,6,6,0.6,0.5
2022-06-12T09:00:00,1685A,110.4558,21.2567,湛江市,坡头区环保局,,15,14,14,8,7,56,45,54,41,9,12,5,6,0.5,0.5
2022-06-12T09:00:00,1686A,111.0286,21.4688,茂名市,电白南海,,31,31,24,12,8,57,37,36,27,22,15,4,4,0.9,0.6
2022-06-12T09:00:00,1687A,110.9294,21.6533,茂名市,茂石化七小,,31,31,18,17,12,52,34,29,29,11,12,4,5,1.0,0.8
2022-06-12T09:00:00,1688A,110.9107,21.6687,茂名市,健康路,,27,27,14,8,4,54,43,37,37,6,6,6,7,0.7,0.6
2022-06-12T09:00:00,1689A,110.8592,21.6828,茂名市,高岭,,15,14,4,5,2,49,47,36,36,11,17,7,8,0.5,0.6
2022-06-12T09:00:00,1690A,116.1231,24.3284,梅州市,梅江月梅,,9,9,13,4,4,87,19,24,22,15,10,2,2,0.7,0.5
2022-06-12T09:00:00,1691A,116.0797,24.2719,梅州市,梅县新城,,8,3,13,4,5,74,22,32,27,15,12,5,5,0.7,0.5
2022-06-12T09:00:00,1692A,116.1248,24.2654,梅州市,环境监控中心,,9,1,15,6,6,76,19,17,8,15,18,4,5,0.6,0.5
2022-06-12T09:00:00,1693A,115.3653,22.775,汕尾市,市环保局,,20,20,15,5,5,70,44,41,41,5,6,4,4,0.4,0.4
2022-06-12T09:00:00,1694A,115.3706,22.7898,汕尾市,市政府,,15,11,12,6,5,73,47,44,44,4,5,5,5,0.4,0.5
2022-06-12T09:00:00,1695A,115.3622,22.7925,汕尾市,新城中学,,19,19,15,6,4,79,50,46,46,2,4,5,5,0.4,0.5
2022-06-12T09:00:00,1696A,114.6778,23.7569,河源市,源西(对照点),,9,9,12,5,5,69,22,31,25,9,8,4,8,0.4,0.5
2022-06-12T09:00:00,1697A,114.6944,23.7586,河源市,东埔,,9,2,10,4,4,70,20,28,27,14,11,3,3,0.9,0.7
2022-06-12T09:00:00,1698A,114.6892,23.7233,河源市,老城,,10,10,10,6,4,76,24,30,27,9,8,2,2,0.8,0.6
2022-06-12T09:00:00,1701A,111.9491,21.8658,阳江市,马南垌,,38,38,18,14,11,68,24,47,28,22,10,3,3,1.3,0.7
2022-06-12T09:00:00,1702A,113.0426,23.691,清远市,环保大楼(对照点),,34,34,20,22,15,121,14,6,4,27,26,4,4,0.6,0.5
2022-06-12T09:00:00,1703A,113.0208,23.7106,清远市,凤城街办,,38,38,25,22,15,94,11,2,2,34,30,5,5,0.7,0.6
2022-06-12T09:00:00,1705A,116.6367,23.6719,潮州市,西园路(对照点),,18,12,13,12,8,92,45,46,46,13,10,10,5,0.6,0.6
2022-06-12T09:00:00,1706A,116.6447,23.6706,潮州市,档案局,,15,15,13,6,5,94,45,48,48,15,11,12,8,0.6,0.6
2022-06-12T09:00:00,1708A,116.3701,23.5345,揭阳市,新兴,,19,8,19,13,10,78,48,42,42,16,12,5,4,0.5,0.4
2022-06-12T09:00:00,1709A,116.3264,23.5443,揭阳市,西马,,21,21,20,7,9,74,55,42,42,13,11,8,8,0.9,0.7
2022-06-12T09:00:00,1710A,116.3611,23.5626,揭阳市,东兴,,18,18,19,7,9,81,47,43,43,16,14,3,4,0.6,0.6
2022-06-12T09:00:00,1711A,116.4151,23.5294,揭阳市,渔湖,,26,26,18,2,8,73,46,40,40,10,8,5,4,0.6,0.5
2022-06-12T09:00:00,1714A,112.0539,22.9539,云浮市,牧羊,,26,26,25,11,9,38,28,10,10,14,19,5,5,0.6,0.6
2022-06-12T09:00:00,1715A,102.575,24.3711,玉溪市,东风水库,,27,27,13,6,6,69,39,32,32,7,9,7,6,0.7,0.8
2022-06-12T09:00:00,1718A,115.4208,35.2464,菏泽市,气象局,,,79,77,30,25,199,,120,112,18,15,14,12,0.6,0.4
2022-06-12T09:00:00,1719A,115.4747,35.2375,菏泽市,市政协,颗粒物(PM10),61,72,79,23,21,197,114,125,111,21,17,9,8,0.3,0.2
2022-06-12T09:00:00,1721A,113.3819,40.1097,大同市,果树场(对照点),,45,45,35,29,23,161,78,59,51,38,30,108,25,0.6,0.5
2022-06-12T09:00:00,1723A,113.2994,40.0758,大同市,云冈宾馆,颗粒物(PM10),62,74,71,27,30,161,62,41,41,36,39,92,26,0.7,0.6
2022-06-12T09:00:00,1724A,113.3444,40.0917,大同市,大同大学,,,75,50,28,22,168,,65,55,32,24,109,36,0.6,0.6
2022-06-12T09:00:00,1725A,113.2661,40.1269,大同市,安家小村,颗粒物(PM10),57,64,64,16,22,175,86,61,53,15,25,18,20,0.5,0.6
2022-06-12T09:00:00,1726A,113.2711,40.0844,大同市,教育学院,颗粒物(PM10),62,74,65,22,21,169,64,64,31,30,32,21,21,0.5,0.5
2022-06-12T09:00:00,1727A,113.1147,36.1547,长治市,清华站,,49,37,48,34,24,208,96,140,106,23,17,9,9,1.6,0.5
2022-06-12T09:00:00,1728A,113.1031,36.1989,长治市,监测站,,39,33,49,27,25,213,92,152,116,24,9,9,9,1.3,0.5
2022-06-12T09:00:00,1730A,113.0886,36.2125,长治市,审计局,,49,25,47,34,27,204,82,135,108,24,15,16,12,1.3,0.6
2022-06-12T09:00:00,1731A,113.0844,36.1856,长治市,长治八中,,44,44,54,25,26,214,94,151,115,22,15,4,4,1.7,0.6
2022-06-12T09:00:00,1733A,111.5531,36.0783,临汾市,临钢医院,,33,28,55,12,20,220,104,133,110,18,17,2,3,1.2,0.9
2022-06-12T09:00:00,1734A,111.5028,36.0714,临汾市,技工学校,,33,15,34,23,25,209,93,137,103,14,15,2,3,1.3,0.9
2022-06-12T09:00:00,1736A,111.5018,36.0855,临汾市,市委,,32,15,45,20,19,220,101,148,109,17,14,4,3,0.7,0.5
2022-06-12T09:00:00,1738A,113.5758,37.8572,阳泉市,市中心,,30,28,60,20,32,217,94,116,85,19,16,8,18,0.7,0.9
2022-06-12T09:00:00,1739A,113.4894,37.8731,阳泉市,赛鱼,,41,41,59,27,36,222,100,107,72,21,23,8,12,0.7,0.9
2022-06-12T09:00:00,1740A,113.5819,37.8486,阳泉市,南庄,,36,23,58,20,39,218,113,121,84,12,18,6,15,0.7,1
2022-06-12T09:00:00,1742A,113.5614,37.8703,阳泉市,平坦,,33,33,65,22,34,232,105,142,103,27,28,8,14,0.9,1
2022-06-12T09:00:00,1743A,113.5158,37.8392,阳泉市,大阳泉,,39,20,50,27,42,221,109,142,95,14,19,7,13,0.6,0.8
2022-06-12T09:00:00,1744A,118.9233,42.2816,赤峰市,松山一中,,32,24,26,22,19,149,96,99,84,14,13,12,11,0.8,0.7
2022-06-12T09:00:00,1745A,118.9576,42.2728,赤峰市,哈达街,,29,26,30,10,15,149,92,90,82,16,17,17,16,0.7,0.7
2022-06-12T09:00:00,1746A,118.8788,42.2554,赤峰市,天义路,,34,20,23,7,13,156,106,98,93,7,7,10,9,0.6,0.6
2022-06-12T09:00:00,1748A,123.044,41.1196,鞍山市,深沟寺,,31,9,46,7,31,119,97,81,81,6,15,7,7,0.5,1
2022-06-12T09:00:00,1749A,123.011,41.0931,鞍山市,太阳城,,32,9,51,6,31,128,102,76,76,12,19,7,8,0.6,1
2022-06-12T09:00:00,1750A,123.0485,41.1442,鞍山市,太平,,34,11,62,6,36,135,107,98,98,13,24,8,12,0.7,1.2
2022-06-12T09:00:00,1751A,122.9642,41.0971,鞍山市,铁西三道街,,32,22,67,6,41,136,101,75,75,20,24,5,8,0.6,1
2022-06-12T09:00:00,1752A,122.9341,41.0833,鞍山市,铁西工业园区,,33,21,75,7,49,133,103,54,54,14,28,9,10,0.4,0.8
2022-06-12T09:00:00,1753A,123.022,41.0821,鞍山市,明达新区,,35,17,47,8,29,138,111,102,102,12,18,4,5,0.4,0.8
2022-06-12T09:00:00,1754A,123.1289,41.0228,鞍山市,千山(对照点),,23,20,27,11,14,101,72,36,36,7,6,3,4,0.8,1
2022-06-12T09:00:00,1755A,123.7977,41.8491,抚顺市,望花区,颗粒物(PM10),53,56,61,22,41,145,78,34,34,25,25,8,5,0.8,0.9
2022-06-12T09:00:00,1756A,123.9161,41.8822,抚顺市,顺城区,颗粒物(PM10),58,65,58,16,34,128,62,23,23,29,35,10,9,0.5,0.7
2022-06-12T09:00:00,1757A,124.0436,41.8611,抚顺市,东洲区,,30,30,37,10,23,152,92,66,56,6,10,5,6,0.2,0.5
2022-06-12T09:00:00,1758A,123.9247,41.8642,抚顺市,新抚区,,36,36,54,16,31,141,72,23,23,21,26,7,5,0.7,0.8
2022-06-12T09:00:00,1759A,124.0972,41.8961,抚顺市,大伙房水库,,25,10,32,11,27,153,79,43,43,5,11,5,6,0.3,0.5
2022-06-12T09:00:00,1760A,123.7086,41.8391,抚顺市,沈抚新城,,43,43,54,11,33,149,93,51,48,14,23,10,7,0.3,0.6
2022-06-12T09:00:00,1761A,123.8275,41.3064,本溪市,大峪,,33,19,49,6,24,130,104,32,32,9,22,5,7,0.4,0.9
2022-06-12T09:00:00,1762A,123.7567,41.3325,本溪市,溪湖,,30,20,41,8,26,152,93,32,32,15,23,7,7,0.7,1.4
2022-06-12T09:00:00,1763A,123.7169,41.3094,本溪市,彩屯,,43,43,44,23,35,145,64,29,29,38,25,12,9,2.5,1.5
2022-06-12T09:00:00,1764A,123.7669,41.2864,本溪市,东明,,34,12,51,12,24,110,107,42,42,9,37,9,9,0.5,1.2
2022-06-12T09:00:00,1765A,123.7992,41.2664,本溪市,新立屯,,34,11,31,8,17,126,108,77,77,1,13,4,5,0.7,1
2022-06-12T09:00:00,1766A,123.8142,41.3472,本溪市,威宁,,31,22,48,17,26,164,98,26,26,8,19,9,9,0.4,0.9
2022-06-12T09:00:00,1767A,121.1115,41.0879,锦州市,南山,细颗粒物(PM2.5),52,40,32,36,32,93,43,67,56,22,12,6,7,0.8,0.7
2022-06-12T09:00:00,1768A,121.0533,40.8434,锦州市,开发区,,45,45,47,27,28,96,69,79,60,12,19,6,9,0.7,0.7
2022-06-12T09:00:00,1769A,121.1836,41.1119,锦州市,百股街道,,29,22,22,20,21,114,69,83,72,18,14,5,7,0.8,0.7
2022-06-12T09:00:00,1770A,121.1178,41.1222,锦州市,天安街道,细颗粒物(PM2.5),54,25,30,38,34,109,57,82,69,25,15,9,9,0.8,0.7
2022-06-12T09:00:00,1771A,121.1303,41.1386,锦州市,北湖公园,,50,21,23,35,31,108,59,80,69,25,16,6,6,0.6,0.4
2022-06-12T09:00:00,1772A,126.54,43.8622,吉林市,哈达湾,,25,13,24,4,12,124,78,61,61,9,20,3,4,0.5,0.5
2022-06-12T09:00:00,1773A,126.5844,43.8358,吉林市,东局子,,25,17,19,5,9,122,79,62,62,9,17,5,5,0.7,0.7
2022-06-12T09:00:00,1774A,126.5052,43.8245,吉林市,电力学院,,24,14,31,4,19,134,75,27,27,9,26,3,4,0.6,0.7
2022-06-12T09:00:00,1775A,126.6133,43.8972,吉林市,江北,,27,13,19,3,11,118,86,51,51,4,13,7,8,0.6,0.6
2022-06-12T09:00:00,1776A,126.555,43.8306,吉林市,江南公园,,24,12,18,7,9,118,75,57,57,9,17,4,4,0.5,0.6
2022-06-12T09:00:00,1778A,126.7061,43.7133,吉林市,丰满(对照点),,25,14,19,7,7,120,78,56,56,5,6,4,4,0.5,0.6
2022-06-12T09:00:00,1779A,123.9305,47.3636,齐齐哈尔市,安居小区,颗粒物(PM10),54,57,40,26,13,106,100,88,82,29,21,8,6,0.7,0.5
2022-06-12T09:00:00,1780A,123.9488,47.3386,齐齐哈尔市,中心广场,颗粒物(PM10),53,55,24,25,12,113,105,90,83,18,14,5,4,0.5,0.4
2022-06-12T09:00:00,1781A,123.9483,47.3227,齐齐哈尔市,农牧车辆厂,颗粒物(PM10),62,73,39,17,6,119,112,81,81,15,12,5,4,0.3,0.2
2022-06-12T09:00:00,1783A,123.945,47.2988,齐齐哈尔市,市环境监测站,颗粒物(PM10),51,52,28,31,13,116,113,84,84,15,13,7,6,0.5,0.4
2022-06-12T09:00:00,1784A,129.61,44.561,牡丹江市,环保大楼,,21,13,24,11,7,108,67,43,43,13,13,5,4,0.4,0.4
2022-06-12T09:00:00,1785A,129.6115,44.5782,牡丹江市,文化广场,,21,10,18,10,11,104,66,39,33,16,18,3,4,0.4,0.4
2022-06-12T09:00:00,1786A,129.5904,44.5963,牡丹江市,第一医院,,20,12,16,8,12,96,62,30,30,15,18,5,4,0.6,0.6
2022-06-12T09:00:00,1787A,129.6364,44.6075,牡丹江市,机车工厂,,24,15,23,11,9,110,74,36,36,13,15,13,7,0.3,0.3
2022-06-12T09:00:00,1788A,129.6386,44.5462,牡丹江市,第一中学,,24,17,24,5,8,104,75,36,36,10,16,3,2,0.3,0.3
2022-06-12T09:00:00,1789A,124.81117,46.03138,大庆市,大同区,细颗粒物(PM2.5),54,36,28,38,21,126,85,84,75,20,16,7,5,0.6,0.5
2022-06-12T09:00:00,1790A,125.129,46.533,大庆市,龙凤区,,32,26,28,22,17,118,76,68,68,20,21,12,11,0.3,0.3
2022-06-12T09:00:00,1791A,124.902,46.408,大庆市,红岗区,,25,25,20,12,9,118,76,75,75,17,8,5,4,0.5,0.4
2022-06-12T09:00:00,1792A,125.153,46.586,大庆市,萨尔图区,,44,44,36,24,14,123,75,66,66,22,16,9,7,0.3,0.2
2022-06-12T09:00:00,1793A,124.9042,46.6215,大庆市,让胡路区,,49,49,32,30,20,116,86,69,69,16,21,7,7,0.5,0.4
2022-06-12T09:00:00,1794A,118.3606,31.3519,芜湖市,监测站,,39,29,26,27,16,156,72,99,84,20,15,9,8,0.4,0.4
2022-06-12T09:00:00,1795A,118.3714,31.4134,芜湖市,科创中心,,44,44,27,24,16,168,82,106,89,14,13,6,6,0.5,0.5
2022-06-12T09:00:00,1796A,118.3673,31.3131,芜湖市,四水厂,,33,32,27,23,15,163,80,104,90,16,15,8,7,0.5,0.5
2022-06-12T09:00:00,1798A,118.5092,31.6837,马鞍山市,湖东路四小,,32,26,29,22,17,195,92,114,96,12,10,6,6,0.5,0.5
2022-06-12T09:00:00,1799A,118.5024,31.6449,马鞍山市,开发区,,30,30,33,20,14,182,86,109,88,12,10,8,7,0.6,0.6
2022-06-12T09:00:00,1800A,118.5228,31.7231,马鞍山市,慈湖,,32,32,33,18,19,185,82,106,89,16,13,4,6,0.4,0.4
2022-06-12T09:00:00,1802A,118.6245,31.7241,马鞍山市,濮塘(对照点),,31,31,29,14,15,186,90,100,92,5,6,9,9,0.5,0.5
2022-06-12T09:00:00,1803A,115.9872,29.6815,九江市,十里,,25,9,17,9,12,154,78,88,76,12,9,8,11,0.4,0.5
2022-06-12T09:00:00,1804A,115.9584,29.7046,九江市,茅山头,,26,10,17,10,10,138,82,85,75,9,9,4,6,0.4,0.5
2022-06-12T09:00:00,1805A,115.9877,29.7295,九江市,西园,,24,13,23,7,10,130,75,79,70,18,17,6,9,0.6,0.7
2022-06-12T09:00:00,1806A,116.0172,29.6547,九江市,五七二七厂,,24,8,15,5,9,155,74,98,83,6,6,5,7,0.7,0.6
2022-06-12T09:00:00,1808A,115.9114,29.6038,九江市,综合工业园,,20,15,20,2,10,137,61,51,39,16,20,6,8,0.6,0.5
2022-06-12T09:00:00,1809A,116.0721,29.7535,九江市,石化总厂,,26,17,19,7,8,137,81,68,68,8,15,4,8,0.2,0.3
2022-06-12T09:00:00,1810A,115.9773,29.5698,九江市,庐山气象台(对照点),,27,4,7,1,5,111,84,90,80,4,4,5,7,0.6,0.7
2022-06-12T09:00:00,1812A,112.3931,34.6516,洛阳市,市委党校,,36,36,63,21,23,232,89,124,108,12,9,5,10,0.5,0.5
2022-06-12T09:00:00,1814A,112.4657,34.6871,洛阳市,豫西宾馆,颗粒物(PM10),54,57,66,20,24,236,76,126,101,16,10,1,3,0.5,0.4
2022-06-12T09:00:00,1815A,112.494,34.6886,洛阳市,河南林校,,34,34,57,17,22,238,84,126,102,15,12,4,6,0.3,0.3
2022-06-12T09:00:00,1816A,112.3844,34.623,洛阳市,开发区管委会,,35,32,60,24,26,238,81,119,99,12,10,3,8,0.3,0.3
2022-06-12T09:00:00,1817A,112.4267,34.6258,洛阳市,市委新办公区,,39,39,59,20,24,238,83,121,104,18,12,6,8,0.4,0.4
2022-06-12T09:00:00,1818A,114.4839,36.0621,安阳市,棉研所(对照点),,,55,79,,19,202,101,101,90,23,16,9,7,1.1,0.3
2022-06-12T09:00:00,1819A,114.3551,36.1017,安阳市,红庙街,,47,47,69,19,20,214,103,111,105,28,22,11,10,1.1,0.5
2022-06-12T09:00:00,1820A,114.361,36.0681,安阳市,银杏小区,,,56,76,,23,209,88,109,98,34,19,11,9,1.2,0.5
2022-06-12T09:00:00,1824A,114.3389,34.7781,开封市,肿瘤医院,颗粒物(PM10),54,57,56,23,17,196,100,105,89,15,13,9,7,0.4,0.4
2022-06-12T09:00:00,1826A,114.2885,34.7965,开封市,世纪星幼儿园,,47,47,52,26,16,201,105,109,96,22,15,9,5,0.5,0.4
2022-06-12T09:00:00,1828A,113.2269,35.2127,焦作市,市环保局,,35,35,50,7,16,239,100,111,107,12,16,3,5,0.3,0.4
2022-06-12T09:00:00,1829A,113.2467,35.176,焦作市,高新区政府,,47,47,68,12,20,222,101,105,104,12,18,3,5,0.3,0.3
2022-06-12T09:00:00,1830A,113.1987,35.2703,焦作市,影视城(对照点),,28,28,45,15,24,226,87,112,96,6,13,5,9,0.4,0.5
2022-06-12T09:00:00,1832A,113.3257,33.742,平顶山市,新华旅馆,颗粒物(PM10),71,91,55,25,16,169,92,108,87,26,15,8,6,0.5,0.3
2022-06-12T09:00:00,1833A,113.2919,33.737,平顶山市,规划设计院,,46,46,43,15,13,172,88,109,92,22,17,8,6,0.4,0.3
2022-06-12T09:00:00,1834A,113.182,33.774,平顶山市,平顶山工学院,颗粒物(PM10),52,53,56,20,20,173,85,108,96,19,13,8,5,0.5,0.3
2022-06-12T09:00:00,1835A,111.1922,34.7752,三门峡市,市政府,,30,28,60,18,24,213,94,92,92,17,25,5,8,0.5,0.6
2022-06-12T09:00:00,1836A,111.1587,34.7942,三门峡市,开发区,,39,16,67,27,28,206,85,96,96,14,15,2,5,0.4,0.4
2022-06-12T09:00:00,1838A,111.143,34.7955,三门峡市,风景区(对照点),,33,15,62,23,23,217,90,106,106,18,13,2,4,0.5,0.5
2022-06-12T09:00:00,1840A,111.2992,30.6981,宜昌市,白龙岗,,29,29,36,14,18,125,34,64,48,25,22,4,6,0.5,0.5
2022-06-12T09:00:00,1841A,111.3549,30.6465,宜昌市,伍家岗,,33,33,40,12,17,129,23,75,52,34,25,5,6,0.4,0.4
2022-06-12T09:00:00,1842A,111.2628,30.6961,宜昌市,点军区,,33,33,39,12,20,150,25,59,42,33,14,6,6,0.3,0.3
2022-06-12T09:00:00,1843A,111.3275,30.7819,宜昌市,夷陵区,,33,33,40,9,17,160,35,55,44,16,16,5,6,0.3,0.4
2022-06-12T09:00:00,1844A,112.2494,30.3197,荆州市,市图书馆,,33,18,39,20,19,152,104,95,95,17,20,8,10,0.5,0.5
2022-06-12T09:00:00,1845A,112.2008,30.3544,荆州市,市委党校,,45,25,37,31,24,151,83,81,80,19,15,8,10,0.6,0.6
2022-06-12T09:00:00,1847A,113.1094,29.3578,岳阳市,南湖风景区,,23,23,33,15,22,137,64,100,85,17,14,12,10,0.5,0.6
2022-06-12T09:00:00,1848A,113.1493,29.4251,岳阳市,城陵矶,,24,20,32,11,18,136,74,89,85,14,19,17,10,0.5,0.6
2022-06-12T09:00:00,1849A,113.1497,29.3575,岳阳市,开发区,,25,25,30,5,14,162,58,102,82,21,14,10,10,0.6,0.6
2022-06-12T09:00:00,1850A,113.2621,29.4758,岳阳市,云溪区,,23,16,27,12,17,130,73,70,70,9,11,9,11,0.5,0.6
2022-06-12T09:00:00,1851A,112.9943,29.4402,岳阳市,君山区,,27,17,27,8,17,147,84,98,96,6,8,6,6,0.4,0.5
2022-06-12T09:00:00,1852A,113.2117,29.355,岳阳市,金凤水库(对照点),,26,23,28,18,19,149,40,58,56,8,11,5,8,0.6,0.6
2022-06-12T09:00:00,1854A,111.6975,28.9703,常德市,市二中,,27,27,34,10,21,114,85,92,78,10,11,5,8,0.4,0.5
2022-06-12T09:00:00,1857A,111.7158,29.1456,常德市,白鹤山(对照点),,30,15,30,8,18,111,94,105,72,2,2,7,7,0.2,0.3
2022-06-12T09:00:00,1858A,110.5319,29.1217,张家界市,永定新区,,30,30,29,20,21,103,34,54,38,19,10,2,1,0.4,0.4
2022-06-12T09:00:00,1859A,110.4697,29.1242,张家界市,电业局,,24,24,24,9,19,107,28,64,44,17,9,3,3,0.2,0.1
2022-06-12T09:00:00,1860A,110.5594,29.3547,张家界市,未央路,,28,28,25,6,12,107,27,40,35,15,6,2,2,0.3,0.3
2022-06-12T09:00:00,1861A,110.4417,29.315,张家界市,袁家界(对照点),,33,25,24,7,13,133,103,92,92,5,5,1,1,0.3,0.3
2022-06-12T09:00:00,1862A,110.4144,25.3167,桂林市,电子科大尧山校区(对照点),,17,17,24,10,18,110,53,76,58,4,5,6,8,0.6,0.6
2022-06-12T09:00:00,1863A,110.2819,25.2697,桂林市,监测站,,29,25,30,20,20,94,34,52,47,14,10,25,10,0.7,0.7
2022-06-12T09:00:00,1864A,110.3089,25.2708,桂林市,龙隐路小学,,31,31,25,20,21,97,38,52,43,13,9,42,10,0.6,0.5
2022-06-12T09:00:00,1865A,110.2869,25.2178,桂林市,八中,,28,28,26,16,17,94,32,46,42,17,14,22,7,0.8,0.7
2022-06-12T09:00:00,1866A,109.2262,21.588,北海市,牛尾岭水库(对照点),,24,24,12,14,7,63,25,26,26,5,8,3,3,0.5,0.5
2022-06-12T09:00:00,1867A,109.1436,21.4086,北海市,海滩公园,,,,21,,5,75,,,,,4,,3,,0.5
2022-06-12T09:00:00,1868A,109.0981,21.4661,北海市,新市环保局,,27,27,17,12,8,70,47,50,48,7,8,3,3,0.6,0.6
2022-06-12T09:00:00,1869A,109.1778,21.5233,北海市,北海工业园,,38,38,34,12,7,68,36,48,47,12,6,4,4,0.6,0.6
2022-06-12T09:00:00,1870A,109.4856,24.3895,柳州市,柳东小学,,22,20,17,15,15,69,45,54,52,4,4,4,6,0.6,0.6
2022-06-12T09:00:00,1871A,109.4157,24.3277,柳州市,环保监测站,,33,21,19,23,13,45,34,34,34,12,14,6,8,1.0,1
2022-06-12T09:00:00,1872A,109.389,24.341,柳州市,河西水厂,,39,37,20,27,14,43,24,27,23,13,15,7,7,1.2,1.1
2022-06-12T09:00:00,1873A,109.4311,24.2921,柳州市,市四中,,30,30,26,20,14,57,39,36,35,10,12,5,5,0.9,0.9
2022-06-12T09:00:00,1874A,109.4006,24.3631,柳州市,市九中,,42,35,23,29,14,46,37,35,35,6,14,7,11,0.9,1
2022-06-12T09:00:00,1875A,109.4958,24.3134,柳州市,古亭山,,23,23,22,14,12,70,37,41,39,8,7,3,3,0.7,0.7
2022-06-12T09:00:00,1876A,109.5078,18.2489,三亚市,河东子站,,25,24,22,12,11,77,77,70,57,4,8,2,2,0.4,0.4
2022-06-12T09:00:00,1877A,109.4964,18.2681,三亚市,河西子站,,27,27,23,12,12,76,74,54,44,4,9,1,1,0.4,0.4
2022-06-12T09:00:00,1878A,104.7778,31.4741,绵阳市,富乐山,,30,25,42,21,30,113,66,74,58,9,14,4,4,0.5,0.5
2022-06-12T09:00:00,1879A,104.7563,31.4535,绵阳市,市人大,,36,36,58,20,35,106,61,75,60,18,17,5,7,0.4,0.4
2022-06-12T09:00:00,1880A,104.6697,31.4668,绵阳市,高新区自来水公司,,43,35,59,30,45,112,42,81,55,28,18,5,5,0.7,0.7
2022-06-12T09:00:00,1881A,104.7287,31.5075,绵阳市,三水厂,"颗粒物(PM10),细颗粒物(PM2.5)",52,54,74,36,46,110,38,64,42,27,19,6,6,0.7,0.6
2022-06-12T09:00:00,1882A,104.563,28.793,宜宾市,石马中学(对照点),,20,12,31,10,23,99,62,55,55,5,11,3,6,0.6,0.5
2022-06-12T09:00:00,1883A,104.6201,28.7728,宜宾市,市委,,20,19,41,14,28,106,49,54,54,18,18,6,7,0.7,0.6
2022-06-12T09:00:00,1884A,104.6055,28.793,宜宾市,宜宾四中,,22,19,41,15,30,103,55,53,53,19,20,5,8,0.6,0.6
2022-06-12T09:00:00,1885A,104.639,28.7562,宜宾市,市政府,,23,18,37,16,31,105,51,66,65,24,18,5,6,0.8,0.7
2022-06-12T09:00:00,1886A,104.5742,28.7199,宜宾市,黄金嘴,,19,13,34,9,24,97,59,61,61,20,19,6,7,0.6,0.6
2022-06-12T09:00:00,1888A,101.6891,26.571,攀枝花市,弄弄坪,,47,47,23,26,14,84,25,46,24,26,21,20,8,1.3,0.9
2022-06-12T09:00:00,1889A,101.5769,26.5928,攀枝花市,河门口,,,101,36,37,18,72,,24,8,44,30,3,2,6.6,2.3
2022-06-12T09:00:00,1890A,101.7169,26.585,攀枝花市,炳草岗,,44,44,22,26,14,79,25,44,30,26,21,50,28,1.2,0.9
2022-06-12T09:00:00,1891A,101.7369,26.5008,攀枝花市,仁和,,46,44,34,32,26,109,31,22,14,18,16,24,17,0.7,0.7
2022-06-12T09:00:00,1893A,105.4324,28.9634,泸州市,九狮山(对照点),,19,14,24,7,14,94,60,51,51,11,11,6,5,0.4,0.4
2022-06-12T09:00:00,1894A,105.4427,28.9063,泸州市,小市上码头,,15,7,38,9,22,86,47,48,45,15,14,4,5,0.8,0.8
2022-06-12T09:00:00,1895A,105.4241,28.8573,泸州市,兰田宪桥,,22,6,40,15,20,91,51,36,36,14,18,6,12,0.5,0.5
2022-06-12T09:00:00,1896A,105.4379,28.8833,泸州市,市环监站,,14,7,40,7,15,87,44,48,44,20,18,3,8,0.6,0.5
2022-06-12T09:00:00,1901A,104.4239,31.1208,德阳市,东山公园,,38,38,40,18,22,120,45,75,62,25,16,6,6,0.5,0.5
2022-06-12T09:00:00,1902A,104.3826,31.1317,德阳市,西小区,,46,46,53,21,19,126,54,78,66,17,19,9,9,0.6,0.5
2022-06-12T09:00:00,1904A,104.3553,31.1091,德阳市,耐火材料厂,,44,44,46,19,21,133,53,77,67,25,24,9,7,0.4,0.4
2022-06-12T09:00:00,1905A,106.056,30.8064,南充市,西山风景区(对照点),,24,11,39,9,30,90,76,56,56,6,9,4,4,0.5,0.5
2022-06-12T09:00:00,1906A,106.0789,30.8023,南充市,南充市委,,23,23,48,11,28,86,62,63,58,6,11,2,3,0.5,0.6
2022-06-12T09:00:00,1907A,106.1031,30.8217,南充市,南充炼油厂,,19,14,48,5,28,100,60,58,54,7,11,6,4,0.4,0.5
2022-06-12T09:00:00,1908A,106.1064,30.7856,南充市,高坪区监测站,,18,14,37,4,28,89,56,71,61,14,12,6,4,0.5,0.5
2022-06-12T09:00:00,1909A,106.0642,30.7636,南充市,嘉陵区环保局,,21,20,40,5,31,80,66,68,65,13,12,3,4,0.5,0.5
2022-06-12T09:00:00,1910A,106.1087,30.8388,南充市,市环境监测站,,22,16,46,13,32,94,68,54,54,6,14,6,3,0.4,0.5
2022-06-12T09:00:00,1911A,106.9222,27.6869,遵义市,丁字口,,20,20,22,11,16,89,60,67,65,13,16,8,6,0.6,0.6
2022-06-12T09:00:00,1912A,106.9242,27.7019,遵义市,凤凰山,,16,6,16,11,15,72,51,54,50,7,12,5,5,0.5,0.7
2022-06-12T09:00:00,1913A,106.8906,27.6486,遵义市,忠庄,,18,12,25,12,11,81,41,54,51,11,12,3,2,0.5,0.5
2022-06-12T09:00:00,1914A,106.9231,27.6506,遵义市,舟水桥,,13,12,20,6,8,78,40,51,48,9,9,1,1,0.4,0.5
2022-06-12T09:00:00,1915A,106.9178,27.72,遵义市,干田坝,,16,13,20,11,12,75,34,52,48,15,13,5,5,0.5,0.6
2022-06-12T09:00:00,1916A,103.7897,25.5035,曲靖市,环境监测站,,26,15,22,18,13,76,36,22,22,13,15,7,7,0.7,0.7
2022-06-12T09:00:00,1917A,103.8,25.5364,曲靖市,烟厂办公区,,12,8,18,6,11,79,37,26,26,7,12,3,5,0.6,0.7
2022-06-12T09:00:00,1918A,108.7197,34.3956,咸阳市,气象站(对照点),,,,67,6,18,193,87,104,73,8,16,5,7,0.9,0.9
2022-06-12T09:00:00,1919A,108.673,34.3155,咸阳市,实验中学,,22,12,46,11,19,208,69,117,84,14,14,2,3,0.3,0.3
2022-06-12T09:00:00,1920A,108.7233,34.3617,咸阳市,师范学院,,28,11,50,8,19,198,87,120,90,10,14,5,13,0.4,0.4
2022-06-12T09:00:00,1922A,109.0656,35.0994,铜川市,党校(对照点),,30,11,36,15,44,173,96,104,76,15,14,7,7,0.7,0.8
2022-06-12T09:00:00,1923A,109.0697,35.0697,铜川市,王益区政府,,34,16,40,11,15,181,108,115,99,9,13,4,5,0.5,0.5
2022-06-12T09:00:00,1924A,108.9344,34.9058,铜川市,新区管委会,,32,26,41,17,18,179,102,120,105,13,12,6,7,0.5,0.5
2022-06-12T09:00:00,1926A,109.4131,36.6275,延安市,枣园(对照点),,28,28,33,12,13,156,50,74,44,12,9,4,4,0.3,0.3
2022-06-12T09:00:00,1927A,109.4761,36.6028,延安市,延大医附院,,36,36,50,12,14,157,56,80,50,13,9,4,4,0.3,0.3
2022-06-12T09:00:00,1929A,109.5056,36.6106,延安市,百米大道,,32,32,38,13,15,144,64,70,54,16,14,4,4,0.5,0.5
2022-06-12T09:00:00,1930A,107.185,34.3063,宝鸡市,庙沟村(对照点),,23,20,31,12,16,144,72,80,64,6,11,4,4,0.3,0.3
2022-06-12T09:00:00,1931A,107.0708,34.3017,宝鸡市,竹园沟,,22,22,32,14,18,170,62,51,49,5,8,4,5,0.5,0.5
2022-06-12T09:00:00,1932A,107.1906,34.3672,宝鸡市,三陆医院,,30,18,40,21,21,170,78,88,71,11,14,10,9,0.4,0.4
2022-06-12T09:00:00,1933A,107.1431,34.3547,宝鸡市,监测站,,42,25,39,29,20,172,67,87,74,17,20,6,5,0.5,0.5
2022-06-12T09:00:00,1934A,107.1186,34.3739,宝鸡市,技工学校,,25,25,39,16,19,178,77,106,79,10,12,5,5,0.4,0.5
2022-06-12T09:00:00,1935A,107.3906,34.3528,宝鸡市,陈仓区环保局家属楼,,30,28,40,21,19,165,64,95,70,22,17,10,7,0.6,0.5
2022-06-12T09:00:00,1936A,107.2058,34.3497,宝鸡市,文理学院,,29,22,37,15,19,173,90,100,90,14,18,15,8,0.3,0.4
2022-06-12T09:00:00,1937A,107.2386,34.3622,宝鸡市,三迪小学,,38,38,40,24,21,173,81,111,87,16,18,17,9,0.3,0.4
2022-06-12T09:00:00,1938A,109.5293,34.5101,渭南市,农科所(对照点),,28,27,61,17,30,175,87,106,86,8,22,8,9,0.4,0.5
2022-06-12T09:00:00,1939A,109.4974,34.4877,渭南市,日报社,,34,19,61,14,28,197,107,108,95,7,24,5,6,0.4,0.5
2022-06-12T09:00:00,1940A,109.4636,34.493,渭南市,体育馆,,37,12,58,10,22,219,118,118,102,10,21,6,7,0.5,0.6
2022-06-12T09:00:00,1941A,109.4259,34.5023,渭南市,高新一小,,36,36,66,9,24,211,108,112,100,10,17,3,4,0.5,0.6
2022-06-12T09:00:00,1943A,102.1725,38.5339,金昌市,新川苑,颗粒物(PM10),56,62,157,10,33,104,83,71,71,14,14,10,6,0.4,0.4
2022-06-12T09:00:00,1944A,102.1692,38.5167,金昌市,天庆家园,,38,38,133,12,31,105,94,75,75,8,12,9,11,0.5,0.5
2022-06-12T09:00:00,1945A,98.2908,39.7711,嘉峪关市,气象局,颗粒物(PM10),58,66,70,17,19,125,64,71,52,24,17,5,6,0.6,0.5
2022-06-12T09:00:00,1947A,106.3394,38.817,石嘴山市,沙湖旅游区(对照点),颗粒物(PM10),67,84,100,30,30,108,54,54,30,30,31,49,30,1.7,0.7
2022-06-12T09:00:00,1948A,106.3668,39.0145,石嘴山市,大武口朝阳西街,颗粒物(PM10),55,59,72,14,22,99,82,78,46,12,25,13,24,0.4,0.8
2022-06-12T09:00:00,1949A,106.7704,39.2282,石嘴山市,惠农南大街,颗粒物(PM10),62,73,70,22,46,103,67,34,34,12,29,6,21,0.3,0.6
2022-06-12T09:00:00,1950A,106.7099,39.1325,石嘴山市,红果子镇惠新街,颗粒物(PM10),63,75,76,13,18,103,66,30,30,16,31,8,22,0.3,0.7
2022-06-12T09:00:00,1951A,84.895,45.6094,克拉玛依市,长征新村,,29,29,37,2,5,135,85,94,93,10,11,6,6,0.2,0.2
2022-06-12T09:00:00,1952A,84.8988,45.5893,克拉玛依市,南林小区,,38,38,33,12,13,136,59,82,82,28,23,8,8,0.5,0.4
2022-06-12T09:00:00,1954A,84.905,44.3396,克拉玛依市,独山子区,,34,28,25,12,13,154,106,116,106,5,8,6,9,0.3,0.3
2022-06-12T09:00:00,1955A,85.6979,46.098,克拉玛依市,乌尔禾区商贸楼,,46,46,35,8,8,118,64,65,65,6,9,9,10,0.3,0.2
2022-06-12T09:00:00,1956A,86.1472,41.7538,巴音郭楞州,孔雀公园,,49,49,55,8,13,120,93,110,108,16,10,3,3,0.5,0.5
2022-06-12T09:00:00,1957A,86.1972,41.7166,巴音郭楞州,棉纺厂,,37,37,42,13,23,111,82,99,94,21,13,5,5,0.5,0.4
2022-06-12T09:00:00,1958A,86.2357,41.7173,巴音郭楞州,经济开发区,,33,24,59,9,19,122,103,113,106,12,9,3,3,0.4,0.4
2022-06-12T09:00:00,1961A,117.532,36.6868,济南市,东山小学,颗粒物(PM10),58,66,71,24,25,221,108,149,133,22,21,19,12,0.6,0.4
2022-06-12T09:00:00,1966A,120.0405,35.8735,青岛市,黄岛区4号,,31,31,20,7,10,89,89,78,78,8,5,6,6,0.3,0.3
2022-06-12T09:00:00,1982A,122.0693,37.2174,威海市,文登开发区,,46,46,39,27,23,110,65,72,70,12,12,4,4,0.3,0.3
2022-06-12T09:00:00,2031A,113.1817,27.9958,株洲市,云田中学,,20,17,22,7,13,105,63,93,73,6,5,6,6,0.6,0.5
2022-06-12T09:00:00,2054A,114.1099,32.1059,信阳市,平桥分局,,25,25,28,15,13,147,80,84,84,10,10,7,8,0.5,0.3
2022-06-12T09:00:00,2064A,113.9956,32.1271,信阳市,南湾水厂,,30,27,31,9,13,161,96,106,105,4,7,5,6,0.3,0.3
2022-06-12T09:00:00,2065A,114.0775,32.1195,信阳市,市酿酒公司,,28,27,32,16,13,153,87,97,93,7,9,7,9,0.4,0.3
2022-06-12T09:00:00,2066A,114.0609,32.1399,信阳市,审计局,,33,33,42,14,19,160,95,108,100,7,8,5,5,0.6,0.4
2022-06-12T09:00:00,2067A,114.6613,33.6128,周口市,市环境监测站,颗粒物(PM10),52,54,40,22,14,173,106,123,116,16,12,7,6,0.6,0.5
2022-06-12T09:00:00,2068A,114.6758,33.6347,周口市,周口师范,细颗粒物(PM2.5),63,49,44,45,16,177,110,123,118,18,16,9,6,0.5,0.4
2022-06-12T09:00:00,2069A,114.6546,33.5979,周口市,市运管处,颗粒物(PM10),51,52,41,26,15,169,105,117,111,16,15,5,5,0.6,0.4
2022-06-12T09:00:00,2070A,114.6369,33.6406,周口市,川汇区环保局,颗粒物(PM10),53,55,42,21,15,181,110,129,122,16,12,5,4,0.5,0.3
2022-06-12T09:00:00,2075A,117.6336,24.4674,漳州市,九湖(对照点),,,,,,,76,66,69,65,4,8,10,7,0.5,0.5
2022-06-12T09:00:00,2160A,112.85,35.5051,晋城市,自来水公司,,35,35,47,19,22,248,83,137,106,30,17,5,5,0.5,0.5
2022-06-12T09:00:00,2161A,112.8318,35.4936,晋城市,白云商贸,颗粒物(PM10),51,52,60,22,20,240,89,125,101,23,16,5,6,0.5,0.4
2022-06-12T09:00:00,2162A,112.8508,35.4887,晋城市,市环保局,,39,39,52,14,26,246,85,135,106,28,15,5,6,0.5,0.4
2022-06-12T09:00:00,2163A,112.8676,35.4897,晋城市,技术学院,,31,31,56,19,20,244,76,136,103,36,16,2,4,0.3,0.3
2022-06-12T09:00:00,2165A,112.8453,35.546,晋城市,白马寺 (对照点),颗粒物(PM10),57,63,64,14,18,276,111,161,126,15,15,6,7,0.5,0.5
2022-06-12T09:00:00,2166A,112.4397,39.3522,朔州市,平朔,,,,37,18,21,158,100,60,60,15,20,11,9,0.5,0.6
2022-06-12T09:00:00,2167A,112.4575,39.3617,朔州市,朔唯,,34,34,48,21,24,164,97,63,39,20,28,5,5,0.6,0.6
2022-06-12T09:00:00,2168A,112.4258,39.3197,朔州市,区政府,颗粒物(PM10),56,61,44,17,17,162,102,86,86,17,19,8,6,0.6,0.5
2022-06-12T09:00:00,2169A,112.4072,39.3278,朔州市,市环保局,颗粒物(PM10),57,64,44,24,15,156,97,88,85,19,19,7,5,0.6,0.5
2022-06-12T09:00:00,2170A,112.4272,39.3681,朔州市,市二中,,37,37,44,24,23,149,97,50,50,15,23,12,9,0.6,0.6
2022-06-12T09:00:00,2171A,112.7532,37.6945,晋中市,锦纶小区,细颗粒物(PM2.5),78,73,48,57,30,244,95,106,102,20,14,9,7,1.0,0.4
2022-06-12T09:00:00,2173A,112.7249,37.7067,晋中市,南都小区,细颗粒物(PM2.5),77,71,46,56,28,231,88,101,93,17,13,8,6,0.7,0.5
2022-06-12T09:00:00,2174A,112.6991,37.6982,晋中市,榆次区政府,细颗粒物(PM2.5),75,85,50,55,33,238,88,97,82,15,11,7,6,0.9,0.7
2022-06-12T09:00:00,2175A,110.9956,35.0147,运城市,运城中学,细颗粒物(PM2.5),53,28,60,37,37,214,102,149,111,7,8,5,7,0.7,0.6
2022-06-12T09:00:00,2178A,110.9686,35.0303,运城市,地区技校,,43,36,56,30,27,201,98,146,104,10,10,4,5,0.7,0.6
2022-06-12T09:00:00,2179A,111.0414,35.1147,运城市,空港新区,,42,39,71,29,31,209,100,140,108,7,10,6,8,0.9,0.7
2022-06-12T09:00:00,2181A,112.7383,38.4519,忻州市,开发区,细颗粒物(PM2.5),62,66,48,44,30,192,77,117,65,17,16,14,11,0.7,0.6
2022-06-12T09:00:00,2182A,112.7003,38.4928,忻州市,会展中心,细颗粒物(PM2.5),52,52,51,36,26,180,84,64,58,12,17,13,9,0.6,0.6
2022-06-12T09:00:00,2183A,111.1406,37.5211,吕梁市,环保局,,47,47,54,17,15,158,43,32,21,45,29,14,10,0.7,0.4
2022-06-12T09:00:00,2185A,111.1297,37.5136,吕梁市,自来水公司,颗粒物(PM10),54,57,56,2,14,156,50,45,22,37,24,12,9,0.6,0.3
2022-06-12T09:00:00,2187A,106.8174,39.6973,乌海市,市林业局,颗粒物(PM10),88,125,47,27,16,104,36,39,38,50,19,67,11,1.6,0.5
2022-06-12T09:00:00,2188A,106.7907,39.6667,乌海市,中海勃湾学校,颗粒物(PM10),66,81,38,24,16,109,50,66,49,44,16,71,14,2.0,0.5
2022-06-12T09:00:00,2191A,122.2532,43.6801,通辽市,艺术职业学校,,,0,10,,10,128,,,,,13,,5,,0.6
2022-06-12T09:00:00,2192A,119.7594,49.2261,呼伦贝尔市,区环保局,,39,28,29,27,23,127,89,98,92,9,7,5,4,0.6,0.5
2022-06-12T09:00:00,2195A,107.4212,40.761,巴彦淖尔市,附二中,颗粒物(PM10),53,55,52,17,16,93,79,70,66,12,10,4,5,0.4,0.4
2022-06-12T09:00:00,2196A,107.37,40.7372,巴彦淖尔市,市环保大楼,颗粒物(PM10),59,67,49,24,22,94,70,85,67,10,8,5,8,0.5,0.5
2022-06-12T09:00:00,2197A,113.1306,40.9923,乌兰察布市,集宁新区,,49,49,53,16,20,158,91,65,65,10,14,10,9,0.3,0.3
2022-06-12T09:00:00,2200A,122.0392,46.0656,兴安盟,胜华新制药厂,,36,16,37,23,24,137,114,100,100,4,10,2,4,0.2,0.7
2022-06-12T09:00:00,2201A,121.9504,46.0741,兴安盟,科右前旗环保局,,37,21,31,18,22,153,117,114,108,4,8,4,4,0.2,0.3
2022-06-12T09:00:00,2202A,116.1042,43.9317,锡林郭勒盟,市环保监测站,,41,41,26,7,12,117,84,97,80,3,4,11,11,0.4,0.5
2022-06-12T09:00:00,2203A,116.0781,43.9311,锡林郭勒盟,市政府,,46,46,33,4,8,124,89,103,84,6,8,8,7,0,0.1
2022-06-12T09:00:00,2204A,105.6467,38.8363,阿拉善盟,西城区西花园(对照点),,31,30,40,12,12,113,99,84,84,8,8,3,5,0.3,0.3
2022-06-12T09:00:00,2205A,105.6985,38.8411,阿拉善盟,蒙二幼,,33,18,36,12,17,116,104,88,88,6,6,6,7,0.2,0.2
2022-06-12T09:00:00,2206A,105.724,38.8516,阿拉善盟,环保局新楼,,33,12,26,8,15,113,104,93,92,6,6,7,7,0.4,0.4
2022-06-12T09:00:00,2207A,121.6094,41.998,阜新市,工业园区,,30,27,31,21,23,122,65,103,76,26,14,12,13,0.8,0.7
2022-06-12T09:00:00,2208A,121.6697,42.0279,阜新市,长青街,,30,30,35,18,21,111,62,97,75,19,14,11,13,0.7,0.6
2022-06-12T09:00:00,2209A,121.6673,42.0705,阜新市,农业园区,,29,25,35,20,23,124,69,116,81,14,11,8,10,0.7,0.6
2022-06-12T09:00:00,2210A,121.6717,42.0224,阜新市,东苑,,29,28,42,20,25,123,64,110,79,24,17,9,10,0.7,0.7
2022-06-12T09:00:00,2211A,121.6506,42.0498,阜新市,玉龙新城,,25,25,36,16,18,114,62,101,71,16,11,11,11,0.6,0.5
2022-06-12T09:00:00,2212A,123.2,41.1953,辽阳市,宏伟区,,36,13,40,4,25,124,115,112,112,5,16,7,9,0.4,0.8
2022-06-12T09:00:00,2213A,123.1683,41.2495,辽阳市,新华园,,36,18,60,3,37,131,115,105,105,9,25,4,12,0.2,0.8
2022-06-12T09:00:00,2214A,123.2354,41.2639,辽阳市,滨河路,,34,16,54,6,30,135,108,96,96,10,18,17,11,0.4,1
2022-06-12T09:00:00,2215A,123.149,41.2991,辽阳市,铁西工业园,,35,25,62,8,38,144,109,88,88,15,27,7,10,0.5,1.1
2022-06-12T09:00:00,2216A,123.8139,42.3022,铁岭市,汇工街西,,36,36,61,9,28,173,107,71,71,18,31,8,9,0.4,0.5
2022-06-12T09:00:00,2217A,123.8649,42.2923,铁岭市,水上乐园,,37,37,47,14,43,152,98,53,53,19,29,6,6,0.4,0.5
2022-06-12T09:00:00,2218A,123.8486,42.2867,铁岭市,银州路东段,,41,41,54,5,28,146,97,51,51,17,30,6,6,0.4,0.5
2022-06-12T09:00:00,2219A,123.7153,42.2217,铁岭市,金沙江路北,,40,40,43,12,25,158,95,69,69,27,36,9,7,0.6,0.6
2022-06-12T09:00:00,2220A,120.4318,41.5881,朝阳市,西梁,,45,45,28,24,16,118,60,74,65,11,8,7,8,0.7,0.6
2022-06-12T09:00:00,2221A,120.4521,41.5646,朝阳市,河畔小区,,35,32,28,24,19,125,77,81,75,6,7,12,12,0.5,0.5
2022-06-12T09:00:00,2222A,120.4176,41.5648,朝阳市,八里堡,,39,30,30,27,20,120,66,71,66,12,10,9,8,0.6,0.6
2022-06-12T09:00:00,2223A,120.3806,41.5969,朝阳市,农业园区,,40,38,27,28,19,119,56,72,50,13,9,10,9,0.7,0.6
2022-06-12T09:00:00,2225A,124.4002,43.1713,四平市,一商场,颗粒物(PM10),51,52,45,27,24,133,93,82,82,25,37,10,10,0.4,0.5
2022-06-12T09:00:00,2226A,124.388,43.193,四平市,境园,,45,45,40,22,18,118,83,42,42,16,29,8,6,0.5,0.4
2022-06-12T09:00:00,2227A,125.1358,42.8845,辽源市,环保局,,50,50,39,24,25,142,83,26,26,17,19,80,26,0.6,0.5
2022-06-12T09:00:00,2229A,125.9358,41.7173,通化市,光明,,22,17,18,15,8,114,36,22,20,10,10,14,9,1.0,0.7
2022-06-12T09:00:00,2230A,125.9446,41.7325,通化市,铁路,,18,18,15,11,7,111,34,24,24,15,12,7,7,0.8,0.7
2022-06-12T09:00:00,2231A,126.4219,41.9171,白山市,喜丰,颗粒物(PM10),54,57,35,12,12,106,29,19,17,22,18,18,11,0.6,0.6
2022-06-12T09:00:00,2232A,126.4077,41.9419,白山市,环保局,,31,31,25,17,10,111,35,22,19,20,15,13,9,0.6,0.6
2022-06-12T09:00:00,2233A,124.8006,45.1214,松原市,江南,,42,36,21,29,22,134,55,91,68,40,26,11,8,0.6,0.5
2022-06-12T09:00:00,2234A,124.7965,45.1722,松原市,江北,,40,36,26,28,20,138,66,88,70,27,20,3,3,0.7,0.6
2022-06-12T09:00:00,2235A,122.7911,45.6077,白城市,洮北区环保局,,38,38,30,22,21,140,85,93,90,12,12,5,5,0.1,0.2
2022-06-12T09:00:00,2236A,122.8738,45.5725,白城市,市环保局,,42,42,35,22,20,133,81,83,83,12,13,5,5,0.2,0.2
2022-06-12T09:00:00,2237A,129.47,42.8883,延边朝鲜族自治州,妇幼医院,,32,26,19,22,12,74,42,46,38,14,9,6,6,0.5,0.5
2022-06-12T09:00:00,2238A,129.5055,42.9108,延边朝鲜族自治州,延边医院,,32,32,24,18,17,78,51,55,44,10,8,6,6,0.5,0.5
2022-06-12T09:00:00,2239A,129.3964,42.8881,延边朝鲜族自治州,朝阳川镇医院,,23,16,25,16,12,77,42,28,28,13,11,5,4,0.4,0.4
2022-06-12T09:00:00,2240A,130.9762,45.3001,鸡西市,环保局,,37,37,32,14,11,94,71,31,31,23,33,4,5,0.2,0.3
2022-06-12T09:00:00,2243A,130.9429,45.3039,鸡西市,第一中学,,,36,29,,9,110,74,40,40,19,24,5,7,0.2,0.2
2022-06-12T09:00:00,2244A,130.2537,47.3416,鹤岗市,哈啤分公司,,33,33,30,5,9,111,81,62,62,23,14,5,7,0.3,0.3
2022-06-12T09:00:00,2245A,130.2684,47.3086,鹤岗市,斯达机电,,28,28,36,6,11,106,81,76,63,12,12,9,11,0.3,0.3
2022-06-12T09:00:00,2246A,130.3114,47.3388,鹤岗市,东山纸板厂,,,,73,,17,104,76,45,45,13,18,13,11,0.2,0.4
2022-06-12T09:00:00,2247A,130.1097,47.3382,鹤岗市,五号水库(对照点),,,26,11,,7,103,81,60,60,19,8,14,6,0.3,0.2
2022-06-12T09:00:00,2248A,131.1511,46.6937,双鸭山市,双合村,,34,34,48,17,26,101,89,48,48,23,24,14,29,0.5,1.3
2022-06-12T09:00:00,2249A,131.1652,46.6191,双鸭山市,南小市,颗粒物(PM10),60,70,24,14,9,89,89,56,56,15,10,7,4,0.2,0.1
2022-06-12T09:00:00,2250A,131.1524,46.6554,双鸭山市,环保局,,24,19,25,7,14,93,76,52,47,25,20,6,13,0.4,0.8
2022-06-12T09:00:00,2251A,131.12,46.5656,双鸭山市,苗圃(对照点),,32,6,11,7,14,102,102,62,62,5,4,2,1,0.3,0.3
2022-06-12T09:00:00,2252A,128.5159,47.4311,伊春市,环保局,,22,15,11,15,9,89,54,38,33,14,6,17,6,0.4,0.3
2022-06-12T09:00:00,2253A,128.9102,47.7412,伊春市,电力嘉园,,21,15,20,4,13,98,65,31,31,15,8,26,7,1.2,0.6
2022-06-12T09:00:00,2254A,129.5029,48.471,伊春市,汤旺河国家公园(对照点),,19,9,5,5,4,77,60,17,17,5,4,6,5,0.3,0.3
2022-06-12T09:00:00,2255A,130.2751,46.8028,佳木斯市,佳纺,颗粒物(PM10),56,61,43,21,18,109,61,22,22,32,27,3,3,0.3,0.3
2022-06-12T09:00:00,2256A,130.3995,46.8307,佳木斯市,发电厂,,26,12,28,9,14,123,82,39,39,18,27,7,9,0.4,0.4
2022-06-12T09:00:00,2257A,130.3258,46.7975,佳木斯市,环保局,,38,37,37,26,13,110,78,25,25,26,30,2,2,0.4,0.4
2022-06-12T09:00:00,2258A,130.3648,46.8032,佳木斯市,十一中,颗粒物(PM10),54,57,45,30,18,99,44,21,21,51,42,8,8,0.6,0.5
2022-06-12T09:00:00,2259A,130.3794,46.7588,佳木斯市,四丰(对照点),,,30,18,16,15,111,,47,39,32,22,10,7,0.5,0.4
2022-06-12T09:00:00,2262A,131.0518,45.8751,七台河市,新一中(对照点),,26,15,15,18,9,102,74,29,29,28,24,13,7,0.7,0.6
2022-06-12T09:00:00,2263A,127.4833,50.2524,黑河市,交通局,,25,22,22,10,10,131,77,43,43,18,15,8,6,0.4,0.6
2022-06-12T09:00:00,2264A,127.5144,50.2341,黑河市,环保局,,25,22,23,10,10,125,79,52,48,14,14,3,4,0.4,0.4
2022-06-12T09:00:00,2265A,127.5291,50.2472,黑河市,大黑河岛(对照点),,27,24,24,3,10,137,86,51,51,5,9,7,7,0.4,0.5
2022-06-12T09:00:00,2266A,126.9785,46.6365,绥化市,人和东街,,29,29,24,12,11,125,79,60,60,16,18,12,9,0.4,0.3
2022-06-12T09:00:00,2267A,126.964,46.6528,绥化市,党政办公中心,,28,28,24,13,11,114,74,68,68,16,16,14,8,0.4,0.3
2022-06-12T09:00:00,2269A,124.1069,50.4097,大兴安岭地区,科技局,,20,20,18,11,10,111,50,38,23,12,11,4,4,0.3,0.2
2022-06-12T09:00:00,2270A,117.396,32.939,蚌埠市,工人疗养院,,39,39,38,11,17,168,83,138,98,12,12,9,8,0.3,0.3
2022-06-12T09:00:00,2271A,117.3605,32.9427,蚌埠市,百货大楼,,48,48,43,11,10,166,84,140,102,14,13,7,7,0.4,0.4
2022-06-12T09:00:00,2273A,117.4185,32.8911,蚌埠市,蚌埠学院,,36,36,38,14,15,165,82,116,90,10,12,9,8,0.3,0.3
2022-06-12T09:00:00,2274A,117.3533,32.9673,蚌埠市,淮上区政府,颗粒物(PM10),52,53,46,17,16,162,75,140,91,21,15,11,10,0.3,0.3
2022-06-12T09:00:00,2275A,117.3145,32.8977,蚌埠市,高新区,,48,48,46,19,18,168,90,136,104,14,14,8,7,0.3,0.3
2022-06-12T09:00:00,2277A,116.8305,32.7727,淮南市,潘集区政府,,41,41,45,18,21,170,83,131,96,17,14,9,8,0.4,0.4
2022-06-12T09:00:00,2278A,117.0067,32.6524,淮南市,师范学院,,40,40,39,9,17,184,86,127,98,10,11,6,7,0.2,0.3
2022-06-12T09:00:00,2279A,116.8569,32.5951,淮南市,谢家集区政府,,27,27,32,12,16,164,75,112,89,11,10,6,6,0.2,0.2
2022-06-12T09:00:00,2280A,116.8281,32.633,淮南市,八公山区政府,,40,40,38,17,17,164,77,116,91,12,10,13,10,0.3,0.3
2022-06-12T09:00:00,2281A,116.6325,32.6201,淮南市,焦岗湖风景区管理处(对照点),,26,26,30,12,14,167,83,124,95,13,12,12,11,0.2,0.2
2022-06-12T09:00:00,2282A,116.8004,33.975,淮北市,监测站,颗粒物(PM10),56,61,48,33,27,173,91,114,98,14,9,8,6,0.5,0.4
2022-06-12T09:00:00,2283A,116.8091,33.9007,淮北市,烈山区政府,颗粒物(PM10),53,56,50,30,23,185,94,118,96,16,10,8,7,0.5,0.4
2022-06-12T09:00:00,2284A,116.7856,33.9477,淮北市,职业技术学院,颗粒物(PM10),53,56,48,31,21,174,97,117,99,13,9,7,7,0.7,0.6
2022-06-12T09:00:00,2285A,117.8177,30.9412,铜陵市,市第四中学,,23,21,16,11,8,149,72,103,82,10,7,7,7,0.2,0.2
2022-06-12T09:00:00,2286A,117.8059,30.9273,铜陵市,市公路局,,19,16,26,9,10,134,60,96,72,14,8,8,5,0.3,0.3
2022-06-12T09:00:00,2287A,117.7807,30.9413,铜陵市,市新民污水厂,,37,37,35,22,16,142,53,101,73,16,9,5,5,0.3,0.3
2022-06-12T09:00:00,2288A,117.7439,30.8792,铜陵市,市第九中学,,30,30,22,13,9,129,49,87,67,27,16,3,5,0.5,0.3
2022-06-12T09:00:00,2289A,117.846,30.9413,铜陵市,车站新区,,40,40,33,21,13,145,72,91,76,11,11,7,6,0.4,0.4
2022-06-12T09:00:00,2290A,117.8483,30.97,铜陵市,市职教基地,,30,30,23,13,11,142,57,90,75,12,10,5,5,0.2,0.2
2022-06-12T09:00:00,2291A,117.0809,30.5177,安庆市,环科院,,22,22,18,12,9,145,65,70,58,15,12,7,7,0.6,0.6
2022-06-12T09:00:00,2292A,117.0331,30.5119,安庆市,马山宾馆,,20,20,16,12,10,142,54,64,61,22,10,5,4,0.7,0.5
2022-06-12T09:00:00,2294A,116.9896,30.6145,安庆市,安庆大学,,22,12,17,12,11,133,68,60,45,23,16,4,5,0.5,0.5
2022-06-12T09:00:00,2295A,118.2903,29.6963,黄山市,延安路89号,,15,15,18,3,4,104,34,76,32,9,4,7,6,0.4,0.3
2022-06-12T09:00:00,2296A,118.327,29.7178,黄山市,黄山东路89号,,14,11,6,1,5,104,44,94,60,7,3,6,6,0.4,0.3
2022-06-12T09:00:00,2297A,118.1371,30.2756,黄山市,黄山区政府5号楼,,28,28,12,6,5,103,39,56,48,10,4,6,6,0.4,0.3
2022-06-12T09:00:00,2298A,118.3093,32.3153,滁州市,老年大学,,36,36,43,14,18,202,85,114,91,16,16,10,11,0.3,0.3
2022-06-12T09:00:00,2299A,118.3244,32.2786,滁州市,人大宾馆,,27,21,39,9,19,195,84,116,89,12,15,5,7,0.3,0.4
2022-06-12T09:00:00,2301A,115.8277,32.8929,阜阳市,市监测站,,33,33,33,22,17,162,99,128,100,14,12,8,6,0.4,0.3
2022-06-12T09:00:00,2303A,115.8554,32.8605,阜阳市,开发区,,39,39,33,20,14,162,95,133,103,18,14,9,7,0.4,0.4
2022-06-12T09:00:00,2307A,116.5079,31.737,六安市,监测大楼,,26,26,24,9,7,149,78,113,96,8,5,6,6,0.3,0.3
2022-06-12T09:00:00,2308A,116.4738,31.7643,六安市,皖西学院,,38,38,29,12,12,150,84,120,100,10,8,9,9,0.3,0.3
2022-06-12T09:00:00,2309A,116.4996,31.7905,六安市,朝阳厂,,23,23,25,7,10,142,73,115,94,12,6,8,8,0.3,0.3
2022-06-12T09:00:00,2310A,116.5567,31.7886,六安市,开发区,,23,22,26,15,13,157,73,124,98,17,7,12,10,0.4,0.4
2022-06-12T09:00:00,2311A,115.8072,33.8399,亳州市,污水处理厂,颗粒物(PM10),51,51,41,33,20,190,112,139,112,9,9,9,8,0.4,0.3
2022-06-12T09:00:00,2312A,115.7789,33.8518,亳州市,三国揽胜宫,颗粒物(PM10),51,52,47,27,18,175,102,136,107,12,9,6,6,0.5,0.5
2022-06-12T09:00:00,2314A,117.47,30.6618,池州市,池州学院,,20,10,21,6,10,141,63,72,59,7,8,4,5,0.5,0.5
2022-06-12T09:00:00,2316A,118.7581,30.9454,宣城市,鳌峰子站,,33,32,23,23,13,122,51,79,62,19,14,4,4,0.4,0.4
2022-06-12T09:00:00,2317A,118.7385,30.9743,宣城市,敬亭山子站,,30,30,26,19,14,123,42,72,56,14,14,5,5,0.3,0.3
2022-06-12T09:00:00,2318A,118.7173,30.9427,宣城市,开发区子站,,28,25,21,19,12,114,59,87,67,18,11,5,6,0.3,0.3
2022-06-12T09:00:00,2319A,119.0141,25.4325,莆田市,荔城区仓后路,,28,28,14,5,6,79,38,73,49,21,16,6,5,0.7,0.6
2022-06-12T09:00:00,2320A,119.0015,25.4553,莆田市,莆田市监测站,,20,20,11,8,9,80,47,65,53,12,12,5,4,0.8,0.7
2022-06-12T09:00:00,2321A,119.1119,25.4561,莆田市,涵江区六中,,15,3,12,9,6,84,48,63,49,15,15,6,5,0.6,0.6
2022-06-12T09:00:00,2322A,119.1013,25.3215,莆田市,秀屿区政府,,17,17,13,10,5,93,37,62,55,24,10,6,6,0.7,0.7
2022-06-12T09:00:00,2324A,117.6211,26.2625,三明市,三钢,,47,47,17,8,10,60,47,55,51,15,14,3,3,0.4,0.5
2022-06-12T09:00:00,2325A,117.635,26.2714,三明市,三明二中,,16,5,12,2,6,66,49,54,53,12,12,2,2,0.5,0.5
2022-06-12T09:00:00,2326A,117.6028,26.2378,三明市,三元区政府,,18,9,12,12,9,62,52,55,54,12,12,4,3,0.7,0.7
2022-06-12T09:00:00,2327A,117.7275,26.3108,三明市,洋溪(对照点),,17,13,12,5,7,69,53,69,53,8,7,6,5,0.6,0.6
2022-06-12T09:00:00,2331A,118.0966,26.6761,南平市,茫荡山(对照点),,23,0,3,2,4,89,72,88,82,1,2,4,4,0.6,0.7
2022-06-12T09:00:00,2332A,118.1681,26.6369,南平市,南平市监测站,,20,14,8,4,6,82,63,76,72,9,6,5,5,0.6,0.5
2022-06-12T09:00:00,2333A,118.1825,26.6489,南平市,南平铝业有限公司,,16,12,12,4,5,81,51,74,65,14,7,5,5,0.7,0.6
2022-06-12T09:00:00,2334A,118.1756,26.6272,南平市,南平七中,,19,6,9,6,6,85,60,70,62,7,5,2,2,0.5,0.5
2022-06-12T09:00:00,2335A,117.0189,25.1181,龙岩市,龙岩师专(对照点),,10,6,10,7,6,66,31,32,32,16,12,9,6,0.7,0.6
2022-06-12T09:00:00,2336A,117.0217,25.1033,龙岩市,龙岩市监测站,,12,12,13,4,6,63,29,34,34,24,15,5,5,0.7,0.5
2022-06-12T09:00:00,2337A,117.0258,25.0661,龙岩市,闽西职业技术学院,,13,7,12,4,5,63,40,35,35,12,10,5,6,0.5,0.4
2022-06-12T09:00:00,2338A,117.0196,25.0306,龙岩市,龙岩学院,,11,9,13,2,4,58,35,29,29,14,8,2,3,0.4,0.3
2022-06-12T09:00:00,2339A,119.5001,26.6946,宁德市,金涵水库(对照点),,,4,5,,17,88,58,88,71,10,8,7,6,0.5,0.4
2022-06-12T09:00:00,2341A,119.5388,26.6612,宁德市,宁德市监测站,,20,3,6,5,3,89,63,89,70,11,9,6,5,0.5,0.4
2022-06-12T09:00:00,2342A,117.3102,29.3867,景德镇市,王港中学(对照点),,39,15,15,4,6,122,122,40,40,9,6,4,3,0.7,0.6
2022-06-12T09:00:00,2343A,117.2117,29.2933,景德镇市,老干部活动中心,,38,38,28,14,10,93,62,78,58,10,9,4,4,0.3,0.3
2022-06-12T09:00:00,2344A,117.1894,29.2789,景德镇市,兽医站,,19,10,10,12,10,88,59,81,58,11,9,4,4,0.5,0.5
2022-06-12T09:00:00,2345A,117.1547,29.2617,景德镇市,台达陶瓷,,20,12,14,10,6,92,62,84,62,8,8,2,2,0.5,0.5
2022-06-12T09:00:00,2346A,117.2461,29.2956,景德镇市,陶研所,,21,18,15,14,7,96,67,84,68,5,5,4,4,0.3,0.3
2022-06-12T09:00:00,2347A,114.0997,27.5002,萍乡市,武功山(对照点),,12,2,3,4,4,79,36,31,31,3,3,17,16,0.3,0.2
2022-06-12T09:00:00,2348A,113.8385,27.6434,萍乡市,中医院,,28,12,17,19,17,114,51,72,58,14,11,8,10,0.7,0.6
2022-06-12T09:00:00,2349A,113.8493,27.6253,萍乡市,市政府车库,,25,22,30,17,8,107,53,70,52,15,15,11,14,0.9,1.5
2022-06-12T09:00:00,2350A,113.8676,27.6435,萍乡市,市环保局,,32,17,22,22,17,108,52,69,56,12,9,10,11,0.4,0.3
2022-06-12T09:00:00,2351A,113.866,27.6198,萍乡市,安源区政府,,40,40,29,20,15,101,29,62,38,31,18,18,15,1.9,1
2022-06-12T09:00:00,2352A,115.0861,27.9317,新余市,北岗(对照点),,39,35,22,27,16,96,35,42,34,29,12,20,11,0.7,0.5
2022-06-12T09:00:00,2353A,114.9886,27.8431,新余市,飞宇,,49,49,32,32,16,100,37,48,39,21,12,17,12,0.6,0.4
2022-06-12T09:00:00,2354A,114.9231,27.8246,新余市,第二水厂,,37,37,25,25,15,101,41,62,46,26,17,12,8,0.9,0.7
2022-06-12T09:00:00,2355A,114.9308,27.8036,新余市,市气象局,颗粒物(PM10),65,80,27,33,18,99,35,57,44,30,15,18,10,1.0,0.6
2022-06-12T09:00:00,2357A,116.9822,28.1136,鹰潭市,龙虎山(对照点),,28,26,28,19,10,96,39,62,50,4,3,3,5,0.5,0.4
2022-06-12T09:00:00,2358A,117.0564,28.2642,鹰潭市,新监测站,,23,23,29,12,12,113,47,74,44,8,8,5,23,0.7,0.6
2022-06-12T09:00:00,2359A,117.0311,28.2475,鹰潭市,财苑宾馆,,20,20,26,14,11,112,46,67,48,9,6,2,9,0.5,0.4
2022-06-12T09:00:00,2360A,117.0222,28.2264,鹰潭市,体育馆,,28,23,28,19,14,105,40,67,40,12,5,17,28,0.7,0.5
2022-06-12T09:00:00,2361A,117.0017,28.2131,鹰潭市,三川水表,,32,32,32,12,15,105,36,66,40,17,10,11,27,1.0,0.8
2022-06-12T09:00:00,2363A,114.9367,25.8664,赣州市,地委,,25,25,22,7,12,64,29,46,30,11,9,7,8,0.7,0.6
2022-06-12T09:00:00,2364A,114.9461,25.8481,赣州市,气象台,,26,25,25,18,14,74,31,54,41,16,11,6,6,0.8,0.6
2022-06-12T09:00:00,2365A,114.9322,25.8333,赣州市,市图书馆,,29,29,22,18,14,69,26,49,35,16,13,4,13,0.6,0.7
2022-06-12T09:00:00,2366A,114.8905,25.8471,赣州市,华坚鞋城,,21,21,17,13,12,73,48,56,41,12,11,8,3,0.8,0.8
2022-06-12T09:00:00,2367A,114.9754,27.0803,吉安市,红声器材厂,,29,29,30,18,12,101,56,68,61,10,7,27,11,0.4,0.4
2022-06-12T09:00:00,2368A,114.9658,27.0999,吉安市,市森林工业局,,33,26,24,23,17,108,57,78,64,8,6,36,16,0.5,0.4
2022-06-12T09:00:00,2369A,114.99,27.1312,吉安市,市环境监测站,,30,30,26,12,16,105,58,86,61,11,8,6,25,0.4,0.4
2022-06-12T09:00:00,2370A,115.0093,27.0968,吉安市,青原区法院,,35,32,24,24,14,97,49,67,58,9,6,59,19,0.5,0.4
2022-06-12T09:00:00,2371A,114.3408,27.8064,宜春市,槟榔水业(对照点),,32,29,30,22,16,110,37,56,49,14,11,13,13,0.7,0.6
2022-06-12T09:00:00,2373A,114.3956,27.7844,宜春市,市石油公司,,37,37,30,22,17,108,29,68,46,27,16,17,12,0.8,0.7
2022-06-12T09:00:00,2374A,114.3703,27.7914,宜春市,市气象局,,39,39,34,25,18,113,36,65,49,21,13,19,12,0.8,0.7
2022-06-12T09:00:00,2375A,114.4013,27.8074,宜春市,市广电局,,33,33,31,23,20,114,36,55,45,18,13,16,11,0.6,0.5
2022-06-12T09:00:00,2376A,116.2127,28.0814,抚州市,桐源党溪(对照点),,33,30,25,23,15,103,41,50,47,14,8,5,10,0.9,0.8
2022-06-12T09:00:00,2377A,116.3544,27.9831,抚州市,市站,,35,32,27,24,16,104,47,76,59,12,8,6,6,0.8,0.6
2022-06-12T09:00:00,2378A,116.3565,27.963,抚州市,血防站,,34,34,27,18,13,105,42,73,56,13,9,4,6,0.7,0.6
2022-06-12T09:00:00,2379A,116.3564,28.0007,抚州市,采茶剧团,,31,31,27,21,16,107,46,72,56,11,9,6,7,0.9,0.7
2022-06-12T09:00:00,2380A,116.385,27.9647,抚州市,医学分院,,38,38,26,20,15,108,44,71,56,13,9,5,6,0.7,0.5
2022-06-12T09:00:00,2381A,118.005,28.4572,上饶市,百草园(对照点),,22,22,21,11,12,100,42,64,48,13,10,5,7,0.5,0.5
2022-06-12T09:00:00,2382A,117.9756,28.4436,上饶市,市监测站,,34,34,24,14,13,103,49,70,54,13,10,8,8,0.5,0.5
2022-06-12T09:00:00,2383A,117.9519,28.4628,上饶市,凤凰光学,,29,29,25,17,13,101,35,56,47,25,15,13,11,1.0,0.9
2022-06-12T09:00:00,2385A,114.17,35.9019,鹤壁市,市监测站,,49,49,64,23,26,216,114,129,109,16,18,2,9,0.5,0.7
2022-06-12T09:00:00,2386A,114.2956,35.7511,鹤壁市,市交警支队,,,72,71,24,24,205,90,105,97,,15,14,9,2.1,0.7
2022-06-12T09:00:00,2387A,114.2878,35.7306,鹤壁市,迎宾馆,颗粒物(PM10),57,64,62,29,23,206,95,103,98,23,22,4,6,1.5,0.6
2022-06-12T09:00:00,2389A,113.836,35.311,新乡市,环保西院,颗粒物(PM10),53,55,51,19,17,214,119,116,111,12,11,8,7,0.4,0.3
2022-06-12T09:00:00,2390A,113.884,35.272,新乡市,开发区,,40,40,47,17,16,209,104,121,114,23,16,7,6,0.5,0.4
2022-06-12T09:00:00,2391A,113.883,35.303,新乡市,环保东院,,37,37,50,15,19,211,116,125,119,19,16,6,5,0.5,0.4
2022-06-12T09:00:00,2392A,115.0312,35.7636,濮阳市,环保局,细颗粒物(PM2.5),74,61,62,54,22,188,116,117,103,18,17,11,9,0.4,0.4
2022-06-12T09:00:00,2394A,115.0574,35.7609,濮阳市,油田运输公司,颗粒物(PM10),60,70,73,34,22,200,120,122,106,24,22,14,9,0.5,0.4
2022-06-12T09:00:00,2395A,115.0866,35.7754,濮阳市,油田物探公司,颗粒物(PM10),58,66,76,32,28,199,118,116,100,20,20,16,12,0.5,0.4
2022-06-12T09:00:00,2396A,113.8276,34.0159,许昌市,监测站,颗粒物(PM10),58,65,48,30,17,172,99,119,101,20,14,13,6,0.4,0.3
2022-06-12T09:00:00,2398A,113.7906,33.9953,许昌市,开发区,颗粒物(PM10),55,60,50,27,13,168,86,108,85,22,15,12,6,0.6,0.4
2022-06-12T09:00:00,2399A,114.051,33.5699,漯河市,三五一五工厂,颗粒物(PM10),57,63,43,27,17,165,84,116,88,22,15,9,7,0.5,0.4
2022-06-12T09:00:00,2400A,114.0055,33.5698,漯河市,漯河大学,颗粒物(PM10),51,52,41,23,16,167,87,126,104,22,10,3,3,0.3,0.3
2022-06-12T09:00:00,2401A,114.0138,33.5828,漯河市,市水利局,颗粒物(PM10),52,53,43,22,15,167,95,129,109,17,10,11,9,0.3,0.2
2022-06-12T09:00:00,2402A,114.0261,33.5698,漯河市,市广电局,颗粒物(PM10),53,56,44,21,15,166,91,120,105,15,7,7,6,0.4,0.4
2022-06-12T09:00:00,2403A,112.5192,32.9917,南阳市,环保局,,40,40,48,20,21,171,105,111,101,12,9,5,3,0.2,0.3
2022-06-12T09:00:00,2404A,112.5339,33.0086,南阳市,瓦房庄,,48,30,49,33,26,173,108,119,102,17,14,5,4,0.4,0.5
2022-06-12T09:00:00,2405A,112.5003,32.9735,南阳市,汉画馆,,33,33,45,13,27,168,101,108,98,14,9,7,5,0.3,0.3
2022-06-12T09:00:00,2406A,112.5779,33.0144,南阳市,气象站,,36,36,47,10,20,176,114,106,100,15,12,8,6,0.2,0.3
2022-06-12T09:00:00,2407A,112.548,32.9692,南阳市,理工学院,,38,37,42,26,26,173,106,101,87,14,15,6,4,0.5,0.6
2022-06-12T09:00:00,2408A,115.6702,34.4285,商丘市,环境监测站,颗粒物(PM10),55,59,56,25,21,176,111,131,110,17,15,10,8,0.5,0.4
2022-06-12T09:00:00,2409A,115.6458,34.4045,商丘市,粮食局,颗粒物(PM10),58,65,54,30,21,180,116,132,113,16,13,9,8,0.6,0.5
2022-06-12T09:00:00,2410A,115.6293,34.3948,商丘市,睢阳区环保局,颗粒物(PM10),56,62,52,30,19,175,113,131,112,16,15,8,9,0.6,0.5
2022-06-12T09:00:00,2420A,114.0189,32.9656,驻马店市,市一纸厂,,47,47,34,12,19,147,65,104,79,36,14,9,7,0.4,0.2
2022-06-12T09:00:00,2421A,114.0114,33.015,驻马店市,市彩印厂,颗粒物(PM10),54,57,40,22,12,158,72,121,91,30,11,13,8,0.6,0.2
2022-06-12T09:00:00,2423A,115.0601,30.2313,黄石市,沈家营,,27,20,33,5,8,142,86,80,70,11,12,8,10,0.6,0.6
2022-06-12T09:00:00,2424A,115.0817,30.2006,黄石市,陈家湾,,28,15,25,10,9,145,88,96,76,9,4,5,4,0.4,0.4
2022-06-12T09:00:00,2426A,114.8988,30.2019,黄石市,铁山,,34,16,32,2,9,147,108,85,85,8,13,4,9,0.2,0.4
2022-06-12T09:00:00,2427A,115.0307,30.2092,黄石市,团城山,,33,18,28,0,5,150,104,108,86,6,7,4,6,0.5,0.5
2022-06-12T09:00:00,2428A,111.0419,32.395,十堰市,武当山(对照点),,31,16,31,16,22,171,97,128,97,7,6,9,10,0.6,0.6
2022-06-12T09:00:00,2429A,110.78,32.6494,十堰市,滨河新村,颗粒物(PM10),52,53,63,28,30,178,37,72,42,15,15,7,8,1.0,0.7
2022-06-12T09:00:00,2430A,110.7258,32.6389,十堰市,刘家沟,,41,41,50,25,29,201,26,73,40,14,8,7,8,1.1,0.8
2022-06-12T09:00:00,2431A,110.8839,32.5714,十堰市,铁二处,,26,24,44,18,26,211,36,73,42,16,10,9,8,0.7,0.6
2022-06-12T09:00:00,2432A,112.155,32.0197,襄阳市,襄城运动路,,42,42,44,26,25,177,102,140,112,12,9,14,11,0.6,0.6
2022-06-12T09:00:00,2433A,112.1392,32.0564,襄阳市,樊城新华路,颗粒物(PM10),53,56,52,22,25,174,100,127,109,13,7,9,7,0.6,0.7
2022-06-12T09:00:00,2434A,112.1825,32.1142,襄阳市,高新管委会,,38,38,39,11,24,167,100,115,100,11,10,6,5,0.5,0.6
2022-06-12T09:00:00,2435A,112.2106,32.0903,襄阳市,襄州航空路,,37,37,44,13,20,184,100,117,108,11,9,7,6,0.8,0.8
2022-06-12T09:00:00,2436A,114.8938,30.3994,鄂州市,市政府,,29,20,33,7,10,156,91,94,82,12,12,17,10,0.4,0.5
2022-06-12T09:00:00,2437A,114.8989,30.3714,鄂州市,赵家坝,,23,14,27,3,7,146,73,71,66,14,12,4,6,0.7,0.7
2022-06-12T09:00:00,2439A,112.2014,31.0481,荆门市,竹园小学,,39,39,40,26,17,158,58,128,87,22,12,13,13,0.5,0.4
2022-06-12T09:00:00,2440A,112.1969,30.9891,荆门市,掇刀,,40,40,39,20,18,156,64,95,73,17,12,13,8,0.4,0.4
2022-06-12T09:00:00,2441A,112.2213,31.0386,荆门市,石化一小,颗粒物(PM10),52,53,39,17,17,157,64,118,78,23,13,17,14,0.6,0.7
2022-06-12T09:00:00,2443A,113.9153,30.9285,孝感市,文化路,,30,30,45,19,16,148,53,80,65,17,15,5,5,0.7,0.6
2022-06-12T09:00:00,2444A,113.942,30.9075,孝感市,东城区,,24,24,50,13,15,142,53,76,63,18,16,6,6,0.7,0.5
2022-06-12T09:00:00,2446A,114.9028,30.4742,黄冈市,职工中心,,33,13,27,6,12,154,104,98,91,11,12,5,9,0.4,0.6
2022-06-12T09:00:00,2447A,114.3175,29.8142,咸宁市,森林公园(对照点),,31,31,27,10,9,122,65,70,70,2,2,5,5,0.8,0.5
2022-06-12T09:00:00,2448A,114.3107,29.8454,咸宁市,市发改委,,28,19,30,14,12,135,88,86,86,5,5,7,8,0.7,0.4
2022-06-12T09:00:00,2449A,114.2936,29.8566,咸宁市,咸安区政府,,26,18,31,10,15,132,81,82,82,11,9,5,6,1.0,0.5
2022-06-12T09:00:00,2451A,113.3583,31.7275,随州市,市委党校,,34,19,36,4,13,167,107,144,114,5,7,7,7,0.5,0.6
2022-06-12T09:00:00,2452A,113.3833,31.6908,随州市,市林业局,,35,11,30,5,13,157,109,143,114,2,4,5,5,0.4,0.6
2022-06-12T09:00:00,2453A,113.3983,31.7308,随州市,市立交桥水厂,,35,15,30,4,14,173,111,164,115,10,10,11,9,0.5,0.6
2022-06-12T09:00:00,2454A,109.4978,30.2981,恩施土家族苗族自治州,湖北民院,,32,32,47,17,29,85,56,72,65,6,9,8,8,0.6,0.7
2022-06-12T09:00:00,2455A,109.4707,30.2798,恩施土家族苗族自治州,州电力总公司,,33,33,48,11,21,96,41,78,66,10,11,6,7,0.5,0.6
2022-06-12T09:00:00,2456A,112.5003,26.9167,衡阳市,原169医院(对照点),,26,26,27,15,15,78,41,61,51,12,12,3,4,0.7,0.7
2022-06-12T09:00:00,2457A,112.6194,26.9258,衡阳市,衡阳化工总厂,,26,23,30,18,18,91,56,73,63,8,8,6,9,0.6,0.6
2022-06-12T09:00:00,2458A,112.6211,26.8956,衡阳市,珠晖区环保局,,,28,24,,,92,49,70,60,17,14,4,3,0.7,0.6
2022-06-12T09:00:00,2459A,112.6197,26.8733,衡阳市,市委党校,,20,20,23,13,13,95,61,75,64,5,7,4,6,0.5,0.5
2022-06-12T09:00:00,2460A,112.6006,26.8919,衡阳市,市监测站,,25,20,27,17,17,98,63,80,68,8,8,10,10,0.6,0.6
2022-06-12T09:00:00,2461A,112.5664,26.9056,衡阳市,真空机电公司,,25,25,26,15,13,101,60,83,69,10,8,8,9,0.7,0.6
2022-06-12T09:00:00,2462A,111.5239,27.3033,邵阳市,市水土所(对照点),,32,10,12,22,25,82,60,45,36,6,6,6,5,0.4,0.4
2022-06-12T09:00:00,2463A,111.4733,27.2317,邵阳市,市一中,,32,32,32,20,20,86,64,61,53,6,7,7,6,0.4,0.5
2022-06-12T09:00:00,2464A,111.5283,27.2442,邵阳市,市化工厂,,32,30,31,22,22,92,65,66,58,9,7,12,6,0.5,0.5
2022-06-12T09:00:00,2465A,111.4503,27.2537,邵阳市,市罐头厂,,37,37,30,23,18,87,55,54,48,11,7,8,6,0.5,0.5
2022-06-12T09:00:00,2466A,111.4328,27.2272,邵阳市,市环保局,,35,35,32,24,23,88,60,58,54,9,7,6,5,0.6,0.6
2022-06-12T09:00:00,2467A,112.4067,28.6428,益阳市,甘溪港(对照点),,37,37,29,9,6,116,61,112,84,12,9,7,10,0.4,0.4
2022-06-12T09:00:00,2468A,112.3458,28.5808,益阳市,市环保局,,30,30,21,20,17,126,67,120,88,9,8,2,3,0.5,0.5
2022-06-12T09:00:00,2469A,112.3437,28.5531,益阳市,市特殊教育学校,,35,32,29,24,20,125,69,121,88,9,8,2,2,0.5,0.5
2022-06-12T09:00:00,2470A,112.3347,28.6047,益阳市,资阳区政务中心,,28,24,25,19,16,125,74,117,89,6,7,4,3,0.6,0.6
