timepoint,stationcode,longitude,latitude,area,positionname,primarypollutant,aqi,pm10,pm10_24h,pm2_5,pm2_5_24h,o3,o3_24h,o3_8h,o3_8h_24h,no2,no2_24h,so2,so2_24h,co,co_24h
2022-06-12T20:00:00,1001A,116.3621,39.8784,北京市,万寿西宫,,49,48,32,30,14,161,155,153,153,13,11,3,3,0.7,0.7
2022-06-12T20:00:00,1002A,116.2202,40.2915,北京市,定陵(对照点),,45,34,29,18,19,169,141,154,154,16,16,3,3,0.5,0.5
2022-06-12T20:00:00,1003A,116.4174,39.9289,北京市,东四,,50,48,31,30,18,168,159,160,160,16,14,3,3,0.6,0.6
2022-06-12T20:00:00,1004A,116.4072,39.8863,北京市,天坛,,46,46,32,27,15,144,133,134,134,17,13,3,3,0.6,0.5
2022-06-12T20:00:00,1005A,116.462,39.9365,北京市,农展馆,,50,50,36,30,17,166,152,156,156,20,16,3,3,0.5,0.6
2022-06-12T20:00:00,1006A,116.3392,39.9295,北京市,官园,,49,41,31,27,16,164,155,155,155,11,10,3,2,0.6,0.6
2022-06-12T20:00:00,1007A,116.2878,39.9611,北京市,海淀万柳,,45,37,29,23,15,156,144,142,142,19,16,3,3,0.5,0.5
2022-06-12T20:00:00,1008A,116.6636,40.135,北京市,顺义新城,颗粒物(PM10),56,61,36,33,19,147,130,132,132,14,10,3,3,0.4,0.5
2022-06-12T20:00:00,1009A,116.6275,40.3275,北京市,怀柔镇,,42,11,32,11,15,167,132,148,148,10,10,3,3,0.3,0.5
2022-06-12T20:00:00,1010A,116.2296,40.217,北京市,昌平镇,,42,33,33,24,18,153,132,139,139,13,12,3,3,0.6,0.5
2022-06-12T20:00:00,1012A,116.184,39.9136,北京市,古城,,47,39,32,26,16,165,150,151,151,19,15,3,3,0.6,0.5
2022-06-12T20:00:00,1015A,117.1444,39.1661,天津市,勤俭道,,47,47,39,29,24,168,141,150,150,18,15,6,6,0.6,0.6
2022-06-12T20:00:00,1017A,117.237,39.1082,天津市,大直沽八号路,颗粒物(PM10),56,61,40,27,20,158,114,138,138,21,18,8,9,0.4,0.5
2022-06-12T20:00:00,1018A,117.202,39.0927,天津市,前进道,,47,47,32,24,16,143,108,123,123,22,18,5,6,0.8,0.9
2022-06-12T20:00:00,1019A,117.1837,39.2133,天津市,淮河道,颗粒物(PM10),52,54,46,35,29,173,132,151,151,20,17,8,7,0.9,1
2022-06-12T20:00:00,1021A,117.307,39.0877,天津市,跃进路,,47,47,43,21,19,154,118,134,134,20,19,8,7,0.5,0.6
2022-06-12T20:00:00,1023A,117.707,39.0343,天津市,第四大街,,35,26,39,12,23,116,110,106,106,33,30,6,6,0.6,0.9
2022-06-12T20:00:00,1024A,117.457,38.8394,天津市,永明路,,41,27,33,18,23,140,131,124,124,14,14,9,8,0.6,0.7
2022-06-12T20:00:00,1026A,117.764,39.1587,天津市,汉北路,,45,20,35,12,22,143,143,126,126,13,16,5,5,0.6,0.8
2022-06-12T20:00:00,1027A,117.157,38.9194,天津市,团泊洼(对照点),,40,40,32,24,17,159,123,142,142,22,16,8,7,0.8,0.9
2022-06-12T20:00:00,1029A,114.4422,38.0444,石家庄市,职工医院,,49,49,32,28,22,213,153,183,183,12,10,6,4,0.6,0.6
2022-06-12T20:00:00,1030A,114.6063,38.0266,石家庄市,高新区,颗粒物(PM10),52,53,37,31,28,202,144,177,177,18,13,6,5,0.5,0.6
2022-06-12T20:00:00,1031A,114.4898,38.1328,石家庄市,西北水源,颗粒物(PM10),52,53,31,32,25,206,156,181,181,23,18,9,5,1.0,0.8
2022-06-12T20:00:00,1032A,114.4586,38.0058,石家庄市,西南高教,颗粒物(PM10),52,54,36,33,32,205,146,177,177,18,11,7,6,0.9,1
2022-06-12T20:00:00,1033A,114.5331,38.0178,石家庄市,世纪公园,颗粒物(PM10),55,59,43,26,30,204,144,176,176,22,14,6,5,0.5,0.6
2022-06-12T20:00:00,1034A,114.509,38.0457,石家庄市,人民会堂,,48,44,32,33,22,218,153,188,188,25,15,14,10,0.7,0.7
2022-06-12T20:00:00,1035A,114.3524,37.8911,石家庄市,封龙山(对照点),,50,39,28,35,23,197,154,178,169,10,6,12,12,0.9,1
2022-06-12T20:00:00,1037A,118.131,39.6363,唐山市,雷达站,,45,45,42,31,20,140,115,118,118,19,17,5,6,0.8,0.9
2022-06-12T20:00:00,1038A,118.1725,39.6334,唐山市,物资局,,47,47,42,22,21,136,111,115,115,20,18,6,7,0.5,0.8
2022-06-12T20:00:00,1040A,118.1705,39.6506,唐山市,十二中,,46,38,35,32,32,130,104,110,110,23,20,4,17,0.4,0.9
2022-06-12T20:00:00,1041A,118.1869,39.622,唐山市,小山,颗粒物(PM10),52,53,40,25,25,136,109,116,116,20,17,2,4,0.5,0.9
2022-06-12T20:00:00,1042A,119.5134,39.8207,秦皇岛市,北戴河环保局,,38,38,49,23,13,124,117,101,101,8,8,6,6,0.3,0.3
2022-06-12T20:00:00,1043A,119.7493,40.0116,秦皇岛市,第一关,,42,42,35,29,21,110,92,90,90,22,29,12,12,0.4,0.2
2022-06-12T20:00:00,1044A,119.5897,39.9499,秦皇岛市,监测站,,35,35,38,23,16,109,106,90,90,25,20,7,7,0.4,0.2
2022-06-12T20:00:00,1046A,119.5251,39.9041,秦皇岛市,建设大厦,,35,34,31,23,17,113,109,88,88,13,11,5,5,0.5,0.3
2022-06-12T20:00:00,1048A,114.5302,36.6116,邯郸市,东污水处理厂,,45,31,40,17,22,170,142,142,142,20,13,4,6,0.9,1
2022-06-12T20:00:00,1049A,114.4918,36.5713,邯郸市,矿院,,46,33,41,21,24,167,145,141,141,22,16,7,10,0.7,0.9
2022-06-12T20:00:00,1050A,114.484,36.6133,邯郸市,丛台公园,,47,38,35,17,22,166,149,139,139,17,15,4,5,0.6,0.7
2022-06-12T20:00:00,1051A,115.493,38.8632,保定市,游泳馆,,47,44,36,23,30,170,148,158,158,14,10,8,9,0.2,0.3
2022-06-12T20:00:00,1052A,115.5213,38.8959,保定市,华电二区,,,,151,22,25,171,148,161,161,12,9,7,8,0.5,0.6
2022-06-12T20:00:00,1053A,115.4713,38.9108,保定市,接待中心,,50,36,39,12,34,181,158,170,170,20,13,8,7,0.6,0.7
2022-06-12T20:00:00,1054A,115.4612,38.8416,保定市,地表水厂,,44,44,46,24,30,170,140,159,159,18,11,11,11,0.5,0.6
2022-06-12T20:00:00,1055A,115.4323,38.8697,保定市,胶片厂,,49,38,39,10,22,182,156,169,169,16,8,5,4,0.6,0.6
2022-06-12T20:00:00,1056A,115.5086,38.8639,保定市,监测站,,49,42,40,16,29,178,154,167,167,16,11,8,7,0.5,0.5
2022-06-12T20:00:00,1057A,114.8883,40.8336,张家口市,人民公园,,30,27,30,4,11,133,95,126,118,9,14,4,5,0.3,0.5
2022-06-12T20:00:00,1059A,114.8687,40.8042,张家口市,五金库,,28,24,30,7,14,137,89,134,117,16,16,5,6,0.3,0.3
2022-06-12T20:00:00,1060A,114.8902,40.762,张家口市,世纪豪园,,30,27,34,14,18,134,93,130,119,13,17,5,6,0.3,0.3
2022-06-12T20:00:00,1061A,114.8916,40.8661,张家口市,北泵房(对照点),,30,22,26,11,18,146,94,130,120,7,9,6,7,0.5,0.6
2022-06-12T20:00:00,1062A,117.9531,40.9081,承德市,铁路,,46,46,34,24,22,133,99,118,118,28,20,2,2,0.3,0.5
2022-06-12T20:00:00,1063A,117.9392,40.9763,承德市,中国银行,细颗粒物(PM2.5),54,36,23,38,20,139,113,128,128,14,14,2,3,0.4,0.5
2022-06-12T20:00:00,1064A,117.9503,40.928,承德市,开发区,,45,45,31,25,20,146,127,135,135,10,15,5,5,0.4,0.6
2022-06-12T20:00:00,1065A,117.8051,40.9655,承德市,文化中心,,43,29,21,30,18,150,128,139,139,11,8,4,4,0.4,0.5
2022-06-12T20:00:00,1066A,117.9268,41.0026,承德市,离宫(对照点),,39,36,29,27,17,136,69,123,119,14,9,5,6,0.5,0.5
2022-06-12T20:00:00,1067A,116.6708,39.5111,廊坊市,药材公司,细颗粒物(PM2.5),55,58,35,39,27,161,149,152,152,25,20,6,6,0.5,0.5
2022-06-12T20:00:00,1068A,116.7214,39.5589,廊坊市,开发区,细颗粒物(PM2.5),60,66,37,43,28,168,149,156,156,25,21,7,6,0.4,0.5
2022-06-12T20:00:00,1070A,116.7244,39.5269,廊坊市,北华航天学院,细颗粒物(PM2.5),72,82,50,52,26,162,143,150,150,26,22,8,7,0.3,0.4
2022-06-12T20:00:00,1071A,116.8842,38.2991,沧州市,沧县城建局,颗粒物(PM10),60,69,35,31,21,150,115,141,126,37,26,9,8,0.6,0.6
2022-06-12T20:00:00,1072A,116.8584,38.3254,沧州市,电视转播站,细颗粒物(PM2.5),54,53,40,38,21,170,137,157,142,30,18,4,7,0.5,0.4
2022-06-12T20:00:00,1073A,116.8709,38.3228,沧州市,市环保局,颗粒物(PM10),69,88,60,29,19,161,125,150,136,32,22,7,7,0.7,0.6
2022-06-12T20:00:00,1074A,115.6838,37.7541,衡水市,电机北厂,颗粒物(PM10),67,83,49,23,26,182,169,152,152,20,13,8,8,0.5,0.5
2022-06-12T20:00:00,1075A,115.6303,37.7316,衡水市,市监测站,颗粒物(PM10),67,83,65,23,23,174,163,146,146,17,12,17,13,0.4,0.4
2022-06-12T20:00:00,1077A,114.4704,37.0886,邢台市,达活泉,,48,48,46,11,17,168,145,149,149,20,14,19,12,1.8,1
2022-06-12T20:00:00,1078A,114.5062,37.0349,邢台市,邢师高专,,48,35,40,17,19,177,152,158,156,16,14,9,8,0.7,0.8
2022-06-12T20:00:00,1079A,114.5237,37.0851,邢台市,路桥公司,,48,46,51,14,18,166,152,149,149,18,17,7,6,0.8,0.7
2022-06-12T20:00:00,1081A,112.5139,37.8873,太原市,尖草坪,,40,17,61,6,34,192,126,146,143,20,18,5,6,0.3,0.6
2022-06-12T20:00:00,1083A,112.434,38.0108,太原市,上兰(对照点),,36,13,39,2,20,141,115,128,126,6,8,6,6,0.4,0.5
2022-06-12T20:00:00,1084A,112.469,37.7124,太原市,晋源,,28,22,59,14,36,208,87,167,157,44,25,5,8,0.3,0.6
2022-06-12T20:00:00,1085A,112.5583,37.7394,太原市,小店,,37,13,56,4,34,227,116,184,178,31,20,4,7,0.3,0.6
2022-06-12T20:00:00,1086A,112.5369,37.8692,太原市,桃园,,42,13,53,5,35,201,132,149,146,12,17,4,5,0.3,0.6
2022-06-12T20:00:00,1087A,112.57,37.8195,太原市,坞城,,41,23,55,7,36,215,130,173,165,14,18,5,4,0.3,0.7
2022-06-12T20:00:00,1088A,112.549,37.9854,太原市,南寨,,36,14,46,4,24,162,113,132,131,33,31,7,8,0.3,0.6
2022-06-12T20:00:00,1090A,111.6507,40.7517,呼和浩特市,呼市一监,,34,34,56,10,14,118,105,113,111,7,14,5,6,0.3,0.3
2022-06-12T20:00:00,1091A,111.6572,40.8033,呼和浩特市,小召,,29,22,48,7,11,104,92,100,98,21,22,6,6,0.3,0.3
2022-06-12T20:00:00,1094A,111.7516,40.8369,呼和浩特市,如意水处理厂,,32,31,59,9,15,113,100,110,108,11,22,8,8,0.3,0.3
2022-06-12T20:00:00,1095A,111.7276,40.8062,呼和浩特市,二十九中,,44,44,54,9,10,114,103,109,108,8,18,8,8,0.4,0.4
2022-06-12T20:00:00,1096A,111.5512,40.7866,呼和浩特市,工大金川校区,,36,36,53,8,13,116,106,112,110,9,15,5,8,0.3,0.3
2022-06-12T20:00:00,1097A,111.717,40.7612,呼和浩特市,化肥厂生活区,,34,34,66,14,20,112,100,107,106,10,18,8,10,0.4,0.4
2022-06-12T20:00:00,1098A,123.6836,41.9339,沈阳市,森林路(对照点),,29,22,37,12,27,110,90,88,81,13,19,6,8,0.5,0.8
2022-06-12T20:00:00,1099A,123.505,41.7406,沈阳市,浑南东路,,32,17,43,14,26,113,100,95,90,10,35,7,11,0.8,1
2022-06-12T20:00:00,1100A,123.4231,41.6989,沈阳市,新秀街,,30,24,35,12,21,113,94,94,87,14,39,7,16,0.9,1.1
2022-06-12T20:00:00,1102A,123.5903,41.8411,沈阳市,东陵路,,29,29,48,16,26,109,76,86,76,19,25,8,9,1.1,1
2022-06-12T20:00:00,1103A,123.4264,41.8467,沈阳市,陵东街,,31,17,39,10,22,107,98,84,83,15,32,6,8,0.8,1.1
2022-06-12T20:00:00,1104A,123.4114,41.7653,沈阳市,文化路,,30,22,40,13,26,115,96,96,90,9,26,10,15,0.6,0.9
2022-06-12T20:00:00,1105A,123.4678,41.7867,沈阳市,小河沿,,29,24,40,12,24,110,92,86,80,15,33,6,8,0.7,1
2022-06-12T20:00:00,1106A,123.4017,41.7972,沈阳市,太原街,,32,31,66,12,26,119,100,99,93,15,34,10,14,0.6,0.9
2022-06-12T20:00:00,1108A,123.3783,41.9228,沈阳市,京沈街,,32,26,52,10,27,111,102,95,93,9,33,11,14,0.7,1
2022-06-12T20:00:00,1109A,121.612,38.9741,大连市,甘井子,,49,49,37,29,20,88,61,73,64,30,20,9,7,0.5,0.5
2022-06-12T20:00:00,1110A,121.565,38.9511,大连市,周水子,,49,49,39,20,29,94,68,83,63,20,14,6,4,0.8,0.8
2022-06-12T20:00:00,1111A,121.5637,38.8845,大连市,星海三站,细颗粒物(PM2.5),72,65,43,52,30,129,53,112,79,47,18,6,6,0.6,0.4
2022-06-12T20:00:00,1112A,121.6302,38.9117,大连市,青泥洼桥,颗粒物(PM10),51,51,34,25,16,98,42,85,65,42,19,6,6,0.5,0.4
2022-06-12T20:00:00,1113A,121.6251,38.8638,大连市,傅家庄,,36,36,25,23,19,110,65,98,68,14,10,5,5,0.6,0.5
2022-06-12T20:00:00,1115A,121.2529,38.8061,大连市,旅顺,,42,36,23,29,24,110,76,99,79,21,14,7,5,0.7,0.6
2022-06-12T20:00:00,1116A,121.7485,39.1311,大连市,金州,颗粒物(PM10),62,74,37,25,24,115,70,104,79,17,12,5,5,0.5,0.5
2022-06-12T20:00:00,1117A,121.7811,39.0496,大连市,开发区,细颗粒物(PM2.5),55,43,30,39,27,108,77,86,71,28,22,8,6,0.7,0.7
2022-06-12T20:00:00,1118A,121.9762,39.0631,大连市,双D港,,45,28,23,31,19,100,32,79,74,14,11,5,6,0.5,0.6
2022-06-12T20:00:00,1119A,125.3325,43.9166,长春市,食品厂,,36,36,67,18,23,120,84,104,100,26,51,5,5,0.7,0.8
2022-06-12T20:00:00,1120A,125.2863,43.9027,长春市,客车厂,,32,32,62,19,20,124,86,107,103,28,51,4,5,0.6,0.7
2022-06-12T20:00:00,1121A,125.2841,43.8463,长春市,邮电学院,颗粒物(PM10),68,86,60,12,18,123,63,108,101,36,41,5,5,1.1,0.9
2022-06-12T20:00:00,1122A,125.3716,43.8772,长春市,劳动公园,,46,38,58,32,22,128,72,103,99,24,45,2,2,0.5,0.6
2022-06-12T20:00:00,1123A,125.3297,43.8805,长春市,园林处,,32,32,53,19,22,116,78,100,96,26,44,4,5,0.6,0.7
2022-06-12T20:00:00,1124A,125.4605,43.79,长春市,净月潭,,30,30,28,16,12,104,58,87,78,8,15,4,4,0.5,0.5
2022-06-12T20:00:00,1125A,125.7194,43.515,长春市,甩湾子(对照点),,27,27,29,15,11,134,65,113,104,12,27,6,6,0.3,0.4
2022-06-12T20:00:00,1126A,125.3863,43.8447,长春市,经开区环卫处,,29,29,44,19,16,119,73,101,94,24,37,4,5,0.5,0.5
2022-06-12T20:00:00,1127A,125.245,43.7783,长春市,高新区管委会,,42,42,48,21,17,116,82,106,102,20,40,5,5,0.5,0.6
2022-06-12T20:00:00,1128A,125.1761,43.8325,长春市,岱山公园,,33,33,49,18,18,99,73,87,79,32,47,5,5,0.4,0.4
2022-06-12T20:00:00,1129A,126.5422,45.755,哈尔滨市,岭北(对照点),,43,24,18,30,12,125,110,113,113,16,22,12,14,0.5,0.5
2022-06-12T20:00:00,1130A,126.561,45.8167,哈尔滨市,松北商大,,39,39,29,16,8,132,114,117,117,20,23,4,5,0.8,0.6
2022-06-12T20:00:00,1131A,126.979,45.5419,哈尔滨市,阿城会宁,颗粒物(PM10),54,57,31,4,8,105,68,98,93,26,21,11,11,0.8,0.6
2022-06-12T20:00:00,1132A,126.599,45.7222,哈尔滨市,南岗学府路,,33,30,27,16,9,121,104,110,110,23,36,14,20,0.6,0.6
2022-06-12T20:00:00,1133A,126.689,45.7733,哈尔滨市,太平宏伟公园,,41,41,34,12,10,112,81,100,100,34,32,13,14,0.5,0.5
2022-06-12T20:00:00,1134A,126.635,45.7667,哈尔滨市,道外承德广场,,38,38,28,12,9,130,121,121,121,26,28,17,18,0.4,0.3
2022-06-12T20:00:00,1135A,126.685,45.7319,哈尔滨市,香坊红旗大街,,50,50,38,21,21,108,63,98,95,46,35,10,11,0.5,0.5
2022-06-12T20:00:00,1136A,126.6411,45.7258,哈尔滨市,动力和平路,,44,44,38,18,13,117,86,107,106,34,26,8,10,0.7,0.5
2022-06-12T20:00:00,1137A,126.593,45.7478,哈尔滨市,道里建国路,,40,40,44,14,13,113,101,105,105,20,34,14,16,0.8,1.4
2022-06-12T20:00:00,1138A,126.615,45.61,哈尔滨市,平房东轻厂,,30,22,22,9,9,124,95,111,111,20,20,6,5,0.6,0.5
2022-06-12T20:00:00,1139A,126.595,45.9855,哈尔滨市,呼兰师专,颗粒物(PM10),53,56,43,13,14,99,92,94,94,21,31,13,13,0.6,0.5
2022-06-12T20:00:00,1140A,126.6206,45.6842,哈尔滨市,省农科院,,39,39,32,11,8,127,98,115,114,31,35,13,14,0.6,0.6
2022-06-12T20:00:00,1141A,121.4,31.238,上海市,普陀,,29,29,30,17,19,108,91,103,103,20,15,2,2,0.6,0.6
2022-06-12T20:00:00,1142A,121.478,31.2036,上海市,十五厂,,35,20,27,24,23,108,84,100,99,24,17,4,5,0.3,0.2
2022-06-12T20:00:00,1143A,121.467,31.3008,上海市,虹口,,29,22,27,20,19,105,87,97,97,25,19,2,3,0.2,0.2
2022-06-12T20:00:00,1144A,121.412,31.1654,上海市,徐汇上师大,,28,23,32,17,22,111,88,104,103,19,14,2,3,0.8,0.8
2022-06-12T20:00:00,1145A,121.536,31.2659,上海市,杨浦四漂,,,27,26,14,21,109,,100,100,,15,4,4,0.4,0.2
2022-06-12T20:00:00,1147A,121.425,31.2261,上海市,静安监测站,,29,24,30,17,20,106,90,100,99,19,14,3,4,0.3,0.2
2022-06-12T20:00:00,1148A,121.703,31.1907,上海市,浦东川沙,,30,22,29,18,20,115,93,112,107,17,15,4,5,0.3,0.3
2022-06-12T20:00:00,1149A,121.533,31.2284,上海市,浦东新区监测站,,28,23,31,18,22,111,87,104,102,26,17,6,6,0.5,0.4
2022-06-12T20:00:00,1150A,121.577,31.2071,上海市,浦东张江,,25,18,24,16,21,97,78,91,88,27,21,3,4,0.6,0.6
2022-06-12T20:00:00,1151A,118.8086,32.1065,南京市,迈皋桥,,28,24,29,9,13,127,88,100,99,23,17,3,4,0.2,0.2
2022-06-12T20:00:00,1152A,118.7538,32.0551,南京市,草场门,,33,22,26,9,11,140,103,109,109,15,15,1,2,0.3,0.3
2022-06-12T20:00:00,1153A,118.7794,32.0745,南京市,山西路,,32,29,30,19,20,136,102,108,108,3,3,4,4,0.2,0.2
2022-06-12T20:00:00,1154A,118.7752,32.0023,南京市,中华门,,32,24,28,5,6,146,102,113,113,1,3,4,4,0.5,0.5
2022-06-12T20:00:00,1155A,118.8109,32.0309,南京市,瑞金路,,31,24,29,17,15,132,99,106,106,10,9,4,4,0.3,0.3
2022-06-12T20:00:00,1156A,118.7997,32.0754,南京市,玄武湖,,32,24,25,16,15,131,100,105,105,9,8,3,4,0.8,0.6
2022-06-12T20:00:00,1157A,118.6414,32.0931,南京市,浦口,,31,27,28,16,12,140,99,106,106,18,18,3,3,0.2,0.2
2022-06-12T20:00:00,1158A,118.7356,31.9996,南京市,奥体中心,,31,27,29,17,13,140,99,108,108,14,14,2,2,0.1,0.5
2022-06-12T20:00:00,1159A,118.9125,32.1028,南京市,仙林大学城,,35,17,27,14,15,143,112,118,118,4,3,4,5,0.6,0.6
2022-06-12T20:00:00,1160A,120.561,31.2472,苏州市,上方山(对照点),,35,30,38,24,23,98,92,91,91,18,16,5,5,0.5,0.5
2022-06-12T20:00:00,1162A,120.591,31.3019,苏州市,彩香,,31,24,28,16,20,101,97,96,96,13,10,5,5,0.5,0.4
2022-06-12T20:00:00,1163A,120.596,31.3264,苏州市,轧钢厂,,29,26,36,16,20,92,90,87,87,12,9,6,7,0.5,0.5
2022-06-12T20:00:00,1164A,120.613,31.2703,苏州市,吴中区,,30,30,30,20,27,93,93,88,88,11,9,4,4,0.4,0.4
2022-06-12T20:00:00,1165A,120.543,31.2994,苏州市,苏州新区,,38,23,30,26,29,99,99,93,93,11,11,5,6,0.5,0.5
2022-06-12T20:00:00,1166A,120.669,31.3097,苏州市,苏州工业园区,,26,23,26,15,18,92,82,86,86,16,10,5,7,0.6,0.5
2022-06-12T20:00:00,1167A,120.641,31.3708,苏州市,相城区,,27,22,33,12,24,85,85,81,81,18,15,7,8,0.4,0.4
2022-06-12T20:00:00,1168A,120.9098,31.9663,南通市,狼山街道,,32,22,31,12,14,128,100,117,105,12,12,11,11,0.4,0.4
2022-06-12T20:00:00,1169A,120.86,32.0005,南通市,虹桥,,31,24,32,19,23,124,97,113,100,13,12,8,8,0.4,0.3
2022-06-12T20:00:00,1170A,120.87,32.02,南通市,城中,,29,28,32,20,22,118,91,104,95,17,16,10,10,0.5,0.5
2022-06-12T20:00:00,1171A,120.94,31.93,南通市,星湖花园,,30,22,29,12,15,123,94,111,98,16,15,6,7,0.6,0.6
2022-06-12T20:00:00,1172A,120.81,32.0417,南通市,紫琅学院,,30,29,34,12,13,121,93,107,93,20,17,8,8,0.5,0.4
2022-06-12T20:00:00,1173A,119.176,34.5885,连云港市,市环境监测站,颗粒物(PM10),84,117,58,19,18,142,100,132,129,10,11,3,3,0.4,0.3
2022-06-12T20:00:00,1177A,117.179,34.2761,徐州市,黄河新村,颗粒物(PM10),91,132,83,32,23,149,132,133,133,12,11,6,4,0.5,0.4
2022-06-12T20:00:00,1178A,117.1918,34.2384,徐州市,淮塔,颗粒物(PM10),95,139,94,31,23,146,129,133,133,16,14,8,10,0.5,0.4
2022-06-12T20:00:00,1180A,117.256,34.2153,徐州市,新城区,颗粒物(PM10),86,122,99,34,25,147,127,131,131,16,13,6,7,0.6,0.6
2022-06-12T20:00:00,1181A,117.244,34.2911,徐州市,桃园路,颗粒物(PM10),90,129,99,22,17,157,132,136,136,13,12,10,11,0.6,0.5
2022-06-12T20:00:00,1182A,117.2933,34.2778,徐州市,农科院,颗粒物(PM10),85,119,91,22,20,151,136,137,137,15,16,7,9,0.5,0.5
2022-06-12T20:00:00,1186A,119.389,32.3761,扬州市,邗江监测站,,39,39,44,18,22,118,99,110,110,16,13,9,10,0.5,0.7
2022-06-12T20:00:00,1188A,120.269,31.4867,无锡市,雪浪,,30,22,31,17,16,100,93,94,94,13,11,8,10,0.3,0.4
2022-06-12T20:00:00,1189A,120.275,31.6219,无锡市,黄巷,,29,25,36,14,20,102,90,93,93,21,19,6,7,0.5,0.5
2022-06-12T20:00:00,1190A,120.294,31.56,无锡市,曹张,,30,26,29,7,13,100,93,91,91,18,19,4,6,0.7,0.6
2022-06-12T20:00:00,1191A,120.242,31.5031,无锡市,漆塘,,31,12,26,14,18,103,97,99,99,16,12,4,6,0.5,0.5
2022-06-12T20:00:00,1192A,120.3489,31.5863,无锡市,东亭,,30,17,33,9,19,96,93,90,90,14,17,6,7,0.7,0.7
2022-06-12T20:00:00,1193A,120.354,31.5475,无锡市,旺庄,,32,24,30,17,18,105,100,98,98,10,14,6,8,0.3,0.3
2022-06-12T20:00:00,1194A,120.245,31.5631,无锡市,荣巷,,28,24,31,19,19,106,86,96,96,16,11,10,10,0.2,0.2
2022-06-12T20:00:00,1195A,120.299,31.6817,无锡市,堰桥,,26,24,35,9,18,92,83,86,86,12,11,5,6,0.8,0.8
2022-06-12T20:00:00,1196A,119.9633,31.762,常州市,市监测站,,31,31,45,9,15,114,93,106,106,18,19,5,7,0.3,0.4
2022-06-12T20:00:00,1200A,119.9468,31.7069,常州市,武进监测站,,34,30,41,20,25,126,106,117,117,4,7,4,5,0.6,0.6
2022-06-12T20:00:00,1201A,119.9255,31.9087,常州市,安家,,44,44,40,28,26,123,98,115,115,18,12,4,5,0.7,0.7
2022-06-12T20:00:00,1203A,119.6707,32.1875,镇江市,新区办事处,,34,32,41,14,20,134,108,124,124,21,19,9,10,0.7,0.6
2022-06-12T20:00:00,1204A,119.4974,32.1968,镇江市,职教中心,,36,28,39,25,21,119,103,113,112,17,17,10,8,0.3,0.5
2022-06-12T20:00:00,1205A,119.4303,32.1328,镇江市,丹徒区监测站,,46,33,38,32,31,127,106,119,119,12,11,3,7,0.2,0.2
2022-06-12T20:00:00,1206A,119.905,32.4878,泰州市,公园路,,29,29,35,19,20,133,88,111,109,27,20,4,4,0.6,0.6
2022-06-12T20:00:00,1207A,119.9189,32.4625,泰州市,莲花,,,0,34,,25,137,83,118,116,20,15,,6,0.6,0.6
2022-06-12T20:00:00,1209A,119.888,32.4639,泰州市,留学生创业园,,42,42,41,21,20,154,104,130,128,16,9,8,8,0.5,0.5
2022-06-12T20:00:00,1210A,119.036,33.5981,淮安市,钵池山,,46,44,39,27,20,149,147,140,140,15,12,8,7,0.7,0.5
2022-06-12T20:00:00,1211A,119.007,33.575,淮安市,北京南路,颗粒物(PM10),52,53,43,27,21,144,144,136,136,15,13,6,7,0.7,0.5
2022-06-12T20:00:00,1212A,118.989,33.6067,淮安市,市监测站,颗粒物(PM10),57,63,50,24,17,146,146,135,135,18,16,7,8,0.7,0.6
2022-06-12T20:00:00,1213A,119.135,33.5039,淮安市,楚州区监测站,,49,49,49,24,20,136,129,129,129,20,13,10,10,0.8,0.6
2022-06-12T20:00:00,1214A,119.0186,33.6297,淮安市,淮阴区监测站,,47,47,40,31,20,146,144,133,133,14,13,10,10,0.7,0.6
2022-06-12T20:00:00,1215A,120.118,33.4022,盐城市,盐城电厂,,34,34,34,15,15,150,108,134,125,8,9,3,4,0.3,0.3
2022-06-12T20:00:00,1216A,120.156,33.3942,盐城市,市监测站,,33,31,30,5,6,147,103,131,120,8,9,11,10,0.2,0.2
2022-06-12T20:00:00,1218A,120.2144,33.38,盐城市,开发区管委会,,36,36,36,15,15,130,97,119,111,6,10,4,5,0.3,0.2
2022-06-12T20:00:00,1220A,118.293,33.9528,宿迁市,宿迁学院,颗粒物(PM10),51,51,49,31,24,150,137,138,138,18,14,8,9,0.5,0.4
2022-06-12T20:00:00,1221A,118.2442,33.9592,宿迁市,宿迁中学,颗粒物(PM10),55,60,54,32,22,150,145,137,137,12,12,5,7,0.5,0.4
2022-06-12T20:00:00,1223A,120.2072,30.2111,杭州市,滨江,,30,30,37,20,20,93,61,75,63,28,32,2,3,0.5,0.5
2022-06-12T20:00:00,1224A,120.0633,30.2747,杭州市,西溪,,27,27,34,14,18,101,57,61,58,24,24,8,8,0.6,0.6
2022-06-12T20:00:00,1226A,120.3461,30.3153,杭州市,下沙,,32,32,34,19,20,109,72,80,79,31,30,4,6,0.5,0.5
2022-06-12T20:00:00,1227A,120.1269,30.2456,杭州市,卧龙桥,,25,22,32,17,21,100,64,64,64,23,26,5,6,0.5,0.5
2022-06-12T20:00:00,1228A,120.1903,30.2692,杭州市,浙江农大,,26,23,35,18,23,100,63,66,66,23,28,4,6,0.5,0.5
2022-06-12T20:00:00,1230A,120.1197,30.3119,杭州市,和睦小学,,27,27,36,18,20,96,59,71,64,28,30,2,4,0.7,0.6
2022-06-12T20:00:00,1231A,120.3019,30.4183,杭州市,临平镇,,39,39,38,21,18,110,82,88,88,20,21,3,4,0.6,0.6
2022-06-12T20:00:00,1232A,120.2697,30.1819,杭州市,城厢镇,,33,32,35,23,22,88,51,67,55,34,32,4,5,0.5,0.5
2022-06-12T20:00:00,1233A,120.0883,30.1808,杭州市,云栖,,32,32,36,15,16,82,58,59,59,28,29,8,8,0.6,0.6
2022-06-12T20:00:00,1234A,121.8358,29.911,宁波市,区环保大楼,,27,27,35,16,21,82,49,62,57,41,37,7,8,0.5,0.5
2022-06-12T20:00:00,1235A,121.56,29.82,宁波市,万里学院,,26,24,26,18,19,109,68,102,96,26,18,9,8,0.6,0.5
2022-06-12T20:00:00,1236A,121.713,29.9572,宁波市,龙赛医院,,28,27,26,19,18,87,46,69,58,49,36,5,7,0.7,0.6
2022-06-12T20:00:00,1239A,121.633,29.7733,宁波市,钱湖水厂,,28,14,20,11,17,103,88,94,93,7,10,6,7,0.6,0.6
2022-06-12T20:00:00,1240A,121.5856,29.8635,宁波市,太古小学,,28,26,29,19,19,90,63,84,81,20,20,6,8,0.5,0.6
2022-06-12T20:00:00,1241A,121.524,29.8674,宁波市,市环境监测中心,,29,29,28,15,15,90,61,80,77,27,23,7,7,0.4,0.3
2022-06-12T20:00:00,1242A,120.634,28.0089,温州市,瓯海,,23,12,14,12,9,89,73,82,82,16,21,5,5,0.5,0.5
2022-06-12T20:00:00,1243A,120.6748,27.9939,温州市,南浦,,23,14,15,8,8,89,73,84,83,13,13,5,5,0.4,0.4
2022-06-12T20:00:00,1244A,120.76,27.9747,温州市,龙湾,,24,7,21,5,12,89,76,82,81,10,12,3,4,0.6,0.6
2022-06-12T20:00:00,1245A,120.6709,28.0167,温州市,市站,,26,8,17,4,9,96,83,87,87,12,19,4,4,0.4,0.4
2022-06-12T20:00:00,1247A,120.6053,29.9928,绍兴市,城东开发委,,36,24,25,25,18,91,50,63,58,23,16,6,6,0.6,0.5
2022-06-12T20:00:00,1250A,120.0751,30.8669,湖州市,城西水厂,,30,28,26,21,17,95,70,83,79,20,16,4,4,0.3,0.3
2022-06-12T20:00:00,1252A,120.7436,30.778,嘉兴市,清河小学,,28,26,27,19,16,97,80,84,84,23,18,7,6,0.7,0.6
2022-06-12T20:00:00,1253A,120.726,30.7478,嘉兴市,嘉兴学院,,32,26,28,22,18,99,92,90,90,21,17,3,3,0.4,0.3
2022-06-12T20:00:00,1256A,121.419,28.6542,台州市,台州环保大楼,,25,20,23,13,11,96,78,89,88,15,11,4,4,0.4,0.4
2022-06-12T20:00:00,1257A,121.377,28.5773,台州市,路桥田洋王,,25,16,20,11,15,95,80,89,88,14,14,5,5,0.4,0.3
2022-06-12T20:00:00,1258A,122.122,30.0203,舟山市,定海檀枫,,22,22,24,15,15,89,62,80,77,8,6,1,1,0.3,0.3
2022-06-12T20:00:00,1259A,122.3094,29.9558,舟山市,普陀东港,,26,20,23,13,14,114,82,98,94,11,7,3,3,0.4,0.4
2022-06-12T20:00:00,1260A,122.19,29.9944,舟山市,临城新区,,22,22,26,13,11,98,66,85,80,12,12,2,3,0.4,0.3
2022-06-12T20:00:00,1262A,119.647,29.077,金华市,十五中,,19,11,23,13,18,71,52,60,58,20,29,6,5,0.4,0.4
2022-06-12T20:00:00,1263A,119.686,29.1029,金华市,监测站,,18,14,20,7,14,76,56,64,64,18,29,6,5,0.4,0.4
2022-06-12T20:00:00,1264A,118.8692,28.9398,衢州市,环保大楼,,20,2,15,5,8,72,62,70,62,13,16,4,5,0.7,0.7
2022-06-12T20:00:00,1265A,118.8709,28.9666,衢州市,实验学校,,20,7,12,2,5,82,63,78,66,14,14,4,4,0.5,0.5
2022-06-12T20:00:00,1266A,118.8621,28.9808,衢州市,衢州学院,,17,5,13,3,6,75,53,68,59,18,15,4,4,0.5,0.5
2022-06-12T20:00:00,1267A,119.914,28.4514,丽水市,监测站大楼,,16,16,14,8,7,67,46,62,60,19,14,5,5,0.5,0.4
2022-06-12T20:00:00,1268A,119.93,28.4586,丽水市,莲都小学,,20,9,19,4,7,77,64,69,69,13,14,5,5,0.4,0.3
2022-06-12T20:00:00,1269A,119.879,28.4231,丽水市,余庄前,,12,12,11,5,5,60,35,56,51,5,6,4,5,0.4,0.4
2022-06-12T20:00:00,1270A,117.1959,31.7848,合肥市,明珠广场,,34,34,37,12,14,140,88,126,110,30,19,5,7,0.5,0.3
2022-06-12T20:00:00,1271A,117.3072,31.8764,合肥市,三里街,,39,39,35,22,15,136,88,109,106,24,16,10,11,0.5,0.4
2022-06-12T20:00:00,1272A,117.2588,31.8707,合肥市,琥珀山庄,,32,29,32,9,12,138,100,119,113,17,16,9,10,0.6,0.5
2022-06-12T20:00:00,1273A,117.1604,31.9052,合肥市,董铺水库(对照点),,32,24,33,22,19,142,96,122,107,13,13,10,11,0.5,0.4
2022-06-12T20:00:00,1274A,117.25,31.8571,合肥市,长江中路,,34,34,37,17,20,145,106,128,118,24,20,7,9,0.5,0.4
2022-06-12T20:00:00,1275A,117.266,31.9436,合肥市,庐阳区,,46,46,38,27,18,146,70,127,108,45,20,11,11,0.5,0.4
2022-06-12T20:00:00,1276A,117.336,31.8586,合肥市,瑶海区,,36,36,33,22,18,142,86,120,115,25,12,8,9,0.7,0.5
2022-06-12T20:00:00,1277A,117.3027,31.7964,合肥市,包河区,,42,29,34,29,17,143,110,123,121,15,15,6,7,0.6,0.4
2022-06-12T20:00:00,1278A,117.2776,31.7385,合肥市,滨湖新区,,35,22,35,17,15,145,110,131,126,12,9,10,10,0.6,0.3
2022-06-12T20:00:00,1279A,117.1318,31.8403,合肥市,高新区,,30,24,32,14,15,144,96,128,114,21,15,9,10,0.7,0.6
2022-06-12T20:00:00,1282A,119.2681,26.0504,福州市,师大,,20,19,13,9,7,76,61,63,59,20,17,2,3,0.3,0.3
2022-06-12T20:00:00,1283A,119.2984,26.1028,福州市,五四北路,,23,23,14,12,10,59,36,52,44,35,23,2,4,0.5,0.4
2022-06-12T20:00:00,1284A,119.2648,26.0768,福州市,杨桥西路,,19,18,15,13,9,68,57,60,56,24,20,2,3,0.4,0.4
2022-06-12T20:00:00,1285A,119.317,26.0746,福州市,紫阳,,21,21,15,12,8,65,40,56,54,36,22,4,4,0.5,0.5
2022-06-12T20:00:00,1286A,118.1608,24.8169,厦门市,溪东(对照点),,35,17,11,24,16,81,43,64,56,4,2,2,2,0.5,0.5
2022-06-12T20:00:00,1287A,118.1514,24.4767,厦门市,洪文,颗粒物(PM10),55,59,26,29,13,78,67,75,72,36,25,4,4,0.7,0.7
2022-06-12T20:00:00,1288A,118.0661,24.4444,厦门市,鼓浪屿,细颗粒物(PM2.5),55,35,19,39,16,93,64,80,80,59,25,5,3,0.4,0.4
2022-06-12T20:00:00,1290A,115.8931,28.6843,南昌市,省外办,,21,14,14,9,8,90,66,81,75,18,16,3,3,0.5,0.6
2022-06-12T20:00:00,1291A,115.8886,28.7003,南昌市,省林业公司,,21,7,13,0,2,95,65,86,79,10,4,3,4,0.5,0.5
2022-06-12T20:00:00,1292A,115.8126,28.7442,南昌市,林科所,,23,0,7,0,3,92,72,84,80,9,9,3,3,0.5,0.5
2022-06-12T20:00:00,1294A,115.8518,28.687,南昌市,建工学校,,21,11,11,6,11,97,67,85,76,14,10,4,5,0.5,0.5
2022-06-12T20:00:00,1295A,115.8921,28.6424,南昌市,象湖,,22,8,10,1,6,91,70,81,76,5,6,3,4,0.5,0.5
2022-06-12T20:00:00,1296A,115.7423,28.7996,南昌市,武术学校(对照点),,20,11,13,7,8,87,61,76,70,3,2,2,3,0.4,0.4
2022-06-12T20:00:00,1298A,115.9314,28.6842,南昌市,省站,,23,11,19,4,6,93,71,84,77,10,9,6,7,0.5,0.5
2022-06-12T20:00:00,1299A,116.9862,36.6114,济南市,科干所,,47,46,53,20,22,177,150,163,158,14,15,9,10,0.4,0.5
2022-06-12T20:00:00,1300A,116.9376,36.665,济南市,农科所,颗粒物(PM10),51,51,56,20,18,166,119,147,117,17,17,8,9,0.2,0.2
2022-06-12T20:00:00,1301A,117.1265,36.6734,济南市,开发区,,50,44,49,20,21,185,160,172,167,9,12,10,11,0.3,0.3
2022-06-12T20:00:00,1303A,117.0624,36.6868,济南市,省种子仓库,,48,48,54,24,28,174,150,166,160,11,12,9,10,0.4,0.4
2022-06-12T20:00:00,1304A,116.9489,36.6447,济南市,机床二厂,颗粒物(PM10),56,61,61,22,20,166,140,152,149,13,12,6,7,0.3,0.4
2022-06-12T20:00:00,1305A,117.0495,36.663,济南市,市监测站,,46,46,55,19,20,172,144,161,156,9,10,8,9,0.4,0.5
2022-06-12T20:00:00,1306A,116.7675,36.5484,济南市,长清党校,颗粒物(PM10),55,59,62,20,21,173,151,166,163,13,11,12,13,0.3,0.4
2022-06-12T20:00:00,1307A,120.6659,36.2403,青岛市,仰口(对照点),,27,22,29,17,19,116,85,91,91,2,4,3,5,0.3,0.3
2022-06-12T20:00:00,1310A,120.4134,36.0658,青岛市,市南区东部子站,,29,29,23,14,13,90,82,84,82,6,5,5,5,0.2,0.2
2022-06-12T20:00:00,1311A,120.3664,36.1032,青岛市,四方区子站,,28,19,22,19,15,93,84,89,85,10,7,4,5,0.7,0.6
2022-06-12T20:00:00,1312A,120.2994,36.054,青岛市,市南区西部子站,,31,22,20,15,10,99,99,87,87,8,12,6,6,0.5,0.4
2022-06-12T20:00:00,1313A,120.4581,36.0858,青岛市,崂山区子站,,29,29,20,14,10,102,82,94,93,20,9,7,7,0.4,0.3
2022-06-12T20:00:00,1314A,120.1983,35.9608,青岛市,黄岛区子站,,30,22,19,17,14,110,95,99,94,14,10,4,4,0.2,0.2
2022-06-12T20:00:00,1315A,120.3999,36.3083,青岛市,城阳区子站,,29,29,32,10,13,108,87,94,94,10,9,4,4,0.4,0.4
2022-06-12T20:00:00,1316A,113.69031,34.76122,郑州市,烟厂,,,36,43,,,162,129,143,141,28,18,6,8,0.4,0.5
2022-06-12T20:00:00,1317A,113.65724,34.77134,郑州市,郑纺机,,41,36,45,14,11,147,129,133,132,19,14,8,9,0.5,0.6
2022-06-12T20:00:00,1318A,113.67526,34.80246,郑州市,银行学校,,47,27,40,14,16,171,150,150,150,17,18,6,8,0.5,0.6
2022-06-12T20:00:00,1319A,113.56746,34.81334,郑州市,供水公司,,43,24,45,9,14,154,136,133,132,19,20,6,7,0.4,0.5
2022-06-12T20:00:00,1320A,113.7329,34.7178,郑州市,经开区管委,,40,36,42,16,18,164,126,145,143,32,20,5,7,0.5,0.5
2022-06-12T20:00:00,1321A,113.73961,34.77172,郑州市,四十七中,,43,32,42,12,15,164,137,146,146,22,18,6,9,0.5,0.6
2022-06-12T20:00:00,1322A,113.60532,34.74838,郑州市,市监测站,颗粒物(PM10),51,51,46,15,14,152,132,133,133,22,16,6,7,0.4,0.4
2022-06-12T20:00:00,1323A,113.64164,34.7525,郑州市,河医大,颗粒物(PM10),53,56,46,14,15,153,130,135,135,22,16,5,6,0.5,0.5
2022-06-12T20:00:00,1324A,113.51488,34.91089,郑州市,岗李水库(对照点),,35,35,41,16,15,153,96,135,117,31,19,5,5,0.4,0.4
2022-06-12T20:00:00,1325A,114.3677,30.5584,武汉市,东湖梨园,,25,19,21,10,13,122,80,110,104,15,12,8,8,0.7,0.8
2022-06-12T20:00:00,1326A,114.2529,30.558,武汉市,汉阳月湖,,25,22,23,7,7,132,54,104,94,50,25,6,7,1.0,0.9
2022-06-12T20:00:00,1327A,114.282,30.6189,武汉市,汉口花桥,,29,26,25,20,13,123,68,105,97,34,20,8,9,0.7,0.7
2022-06-12T20:00:00,1328A,114.3025,30.5332,武汉市,武昌紫阳,,26,26,24,17,11,116,55,99,91,42,20,8,8,1.6,1
2022-06-12T20:00:00,1329A,114.3646,30.6217,武汉市,青山钢花,,35,26,25,24,18,126,30,112,94,70,19,10,8,1.7,0.8
2022-06-12T20:00:00,1330A,114.1566,30.4825,武汉市,沌口新区,,28,22,29,10,17,127,88,110,108,26,23,7,10,0.7,0.9
2022-06-12T20:00:00,1331A,114.3014,30.5944,武汉市,汉口江滩,,30,30,29,11,11,135,73,113,104,22,18,6,7,0.8,0.8
2022-06-12T20:00:00,1333A,114.135,30.6319,武汉市,吴家山,,27,27,27,15,13,119,46,101,91,46,21,7,8,0.9,0.9
2022-06-12T20:00:00,1334A,113.8454,30.2917,武汉市,沉湖七壕(对照点),,35,12,16,11,6,125,111,116,116,7,8,5,6,0.5,0.6
2022-06-12T20:00:00,1335A,113.0833,28.2325,长沙市,经开区环保局,,22,7,14,15,18,91,70,85,68,9,11,3,4,0.5,0.5
2022-06-12T20:00:00,1336A,112.8872,28.2189,长沙市,高开区环保局,,25,7,12,12,30,96,77,90,69,7,11,6,6,0,0
2022-06-12T20:00:00,1337A,113.0792,28.2053,长沙市,马坡岭,,24,3,20,0,9,95,75,95,76,8,12,4,5,0.6,0.7
2022-06-12T20:00:00,1338A,112.9394,28.19,长沙市,湖南师范大学,,25,5,19,2,10,105,78,95,76,9,11,5,6,0.7,0.7
2022-06-12T20:00:00,1339A,113.0178,28.1322,长沙市,雨花区环保局,,17,4,17,11,16,89,53,84,64,14,13,4,5,0.5,0.5
2022-06-12T20:00:00,1340A,112.9792,28.2597,长沙市,伍家岭,,20,12,23,9,12,88,64,77,69,7,10,1,2,0.5,0.5
2022-06-12T20:00:00,1341A,113.0014,28.1944,长沙市,火车新站,,,7,25,8,15,90,,80,71,7,12,5,6,0.3,0.2
2022-06-12T20:00:00,1342A,112.9844,28.1178,长沙市,天心区环保局,,21,8,23,7,13,91,66,85,63,9,10,3,4,0.4,0.4
2022-06-12T20:00:00,1343A,112.8908,28.1308,长沙市,湖南中医药大学,,23,7,19,12,12,95,72,85,68,10,8,2,3,0.7,0.7
2022-06-12T20:00:00,1344A,112.9581,28.3611,长沙市,沙坪(对照点),,26,10,18,8,15,82,81,79,75,4,7,5,6,0.5,0.5
2022-06-12T20:00:00,1345A,113.2347,23.1423,广州市,广雅中学,,29,26,22,20,15,85,25,64,56,35,32,4,4,0.9,0.7
2022-06-12T20:00:00,1346A,113.2612,23.105,广州市,市五中,,31,31,24,21,14,77,21,64,57,35,30,4,4,0.9,0.7
2022-06-12T20:00:00,1348A,113.3478,23.0916,广州市,广东商学院,,22,21,21,15,13,90,22,66,56,32,32,3,4,0.8,0.7
2022-06-12T20:00:00,1349A,113.4332,23.1047,广州市,市八十六中,,34,34,23,15,11,61,8,50,45,50,40,7,7,0.7,0.6
2022-06-12T20:00:00,1350A,113.3505,22.9483,广州市,番禺中学,,28,28,17,17,9,77,14,59,52,33,26,4,5,0.8,0.6
2022-06-12T20:00:00,1351A,113.2146,23.3916,广州市,花都师范,,21,21,29,11,17,115,26,70,64,30,35,5,5,0.7,0.7
2022-06-12T20:00:00,1352A,113.2597,23.1331,广州市,市监测站,,25,25,23,12,13,86,31,71,64,24,24,5,6,0.8,0.7
2022-06-12T20:00:00,1353A,113.5618,23.312,广州市,九龙镇镇龙,,18,18,25,6,14,72,30,56,54,23,33,5,5,0.5,0.6
2022-06-12T20:00:00,1354A,113.2765,23.1544,广州市,麓湖,,25,25,22,15,14,89,11,67,56,42,26,3,4,0.9,0.8
2022-06-12T20:00:00,1355A,113.443,23.3035,广州市,帽峰山森林公园(对照点),,15,8,18,2,9,96,48,72,70,4,23,4,4,0.6,0.6
2022-06-12T20:00:00,1356A,114.1063,22.5545,深圳市,通心岭子站,,26,26,19,13,8,65,39,56,53,13,13,3,3,0.4,0.4
2022-06-12T20:00:00,1357A,114.117,22.5625,深圳市,洪湖,,28,28,22,12,9,69,41,59,56,17,20,6,6,0.5,0.5
2022-06-12T20:00:00,1358A,113.987,22.5417,深圳市,华侨城,,31,31,23,11,10,54,41,50,48,13,14,4,4,0.5,0.5
2022-06-12T20:00:00,1359A,113.9181,22.5171,深圳市,南海子站,,43,43,24,22,9,59,29,51,45,31,26,2,3,0.8,0.8
2022-06-12T20:00:00,1360A,114.2458,22.5689,深圳市,盐田,,25,25,20,11,10,63,37,54,52,9,30,2,3,0.8,0.8
2022-06-12T20:00:00,1361A,114.2283,22.7244,深圳市,龙岗,,30,30,24,13,12,72,36,56,52,32,36,4,4,0.6,0.6
2022-06-12T20:00:00,1363A,114.494,22.5422,深圳市,南澳,,24,24,21,8,7,73,55,69,67,8,8,1,5,0.7,0.7
2022-06-12T20:00:00,1364A,114.41,22.6342,深圳市,葵涌,,22,22,19,11,7,67,41,57,55,9,12,6,6,0.5,0.5
2022-06-12T20:00:00,1365A,114.297,22.5978,深圳市,梅沙,,26,26,19,10,8,55,34,48,46,14,18,5,5,0.5,0.5
2022-06-12T20:00:00,1366A,114.0678,22.738,深圳市,观澜,,32,32,26,13,12,40,26,37,36,20,29,3,4,0.5,0.6
2022-06-12T20:00:00,1367A,113.5814,22.2618,珠海市,吉大,,18,18,15,11,8,64,50,60,56,5,5,7,7,0.5,0.5
2022-06-12T20:00:00,1368A,113.4881,22.2335,珠海市,前山,,20,20,15,12,10,66,50,59,55,11,11,8,8,0.4,0.4
2022-06-12T20:00:00,1369A,113.628,22.4251,珠海市,唐家,,22,22,14,10,8,72,50,63,58,13,8,8,8,0.4,0.4
2022-06-12T20:00:00,1370A,113.299,22.2281,珠海市,斗门,,22,22,15,15,10,64,45,62,58,7,7,8,8,0.6,0.6
2022-06-12T20:00:00,1371A,113.1294,23.0067,佛山市,湾梁,,25,9,21,9,10,76,3,52,39,50,31,5,5,0.7,0.6
2022-06-12T20:00:00,1372A,113.1083,23.0478,佛山市,华材职中,,20,17,19,14,14,87,6,56,43,35,26,5,5,0.6,0.5
2022-06-12T20:00:00,1373A,113.144,23.0453,佛山市,南海气象局,,21,21,26,11,13,81,10,57,46,38,34,4,5,0.8,0.7
2022-06-12T20:00:00,1374A,113.2881,22.8094,佛山市,顺德苏岗,,19,2,10,0,9,57,10,47,40,37,26,5,5,0.9,0.8
2022-06-12T20:00:00,1376A,112.8383,22.8678,佛山市,高明孔堂,,15,15,23,4,8,67,28,55,49,13,10,5,5,0.6,0.6
2022-06-12T20:00:00,1377A,112.8836,23.1588,佛山市,三水监测站,,43,29,23,30,20,88,2,48,34,56,39,9,5,0.8,0.7
2022-06-12T20:00:00,1378A,112.867,23.185,佛山市,三水云东海,,37,37,29,17,9,101,5,56,42,51,35,5,5,0.7,0.6
2022-06-12T20:00:00,1379A,113.3769,22.5211,中山市,华柏园,,26,26,21,15,10,58,38,53,47,10,10,2,2,0.7,0.6
2022-06-12T20:00:00,1380A,113.3881,22.5497,中山市,张溪,,20,16,21,14,10,70,52,63,58,5,10,3,3,0.6,0.6
2022-06-12T20:00:00,1381A,113.4075,22.5111,中山市,紫马岭,,20,20,20,13,8,65,46,61,56,7,8,2,2,0.9,0.8
2022-06-12T20:00:00,1382A,113.4411,22.4853,中山市,长江旅游区(对照点),,25,25,18,10,7,74,48,68,63,4,5,3,3,0.4,0.4
2022-06-12T20:00:00,1383A,113.1064,22.6058,江门市,北街,,30,30,24,11,9,50,31,43,41,13,18,4,4,0.4,0.5
2022-06-12T20:00:00,1384A,113.0731,22.5835,江门市,西区,,40,40,24,13,11,65,31,51,48,18,21,5,5,0.7,0.6
2022-06-12T20:00:00,1385A,113.0219,22.5311,江门市,圭峰西,,38,38,24,14,9,58,33,47,46,12,15,4,4,0.5,0.4
2022-06-12T20:00:00,1386A,113.0828,22.5947,江门市,东湖,,25,25,25,3,10,64,36,51,49,15,18,6,6,0.6,0.7
2022-06-12T20:00:00,1389A,113.7547,23.0494,东莞市,莞城梨川,,26,26,19,10,12,75,40,65,59,24,25,6,7,0.7,0.7
2022-06-12T20:00:00,1390A,113.7944,23.0128,东莞市,东城石井,,15,11,20,5,11,79,45,70,64,13,24,2,2,0.5,0.5
2022-06-12T20:00:00,1391A,113.7383,22.9658,东莞市,南城西平,,23,23,21,10,8,82,33,68,60,36,30,3,3,0.7,0.6
2022-06-12T20:00:00,1392A,114.4183,23.0528,惠州市,河南岸金山湖子站,颗粒物(PM10),54,57,25,24,11,63,12,40,35,42,20,2,3,0.8,0.6
2022-06-12T20:00:00,1393A,114.4053,23.0822,惠州市,下埔横江三路子站,,,40,22,,7,70,29,44,42,29,23,2,3,0.5,0.4
2022-06-12T20:00:00,1394A,114.4103,23.1142,惠州市,江北云山西路子站,,14,14,21,8,10,73,42,45,43,19,20,8,7,0.6,0.6
2022-06-12T20:00:00,1395A,114.4645,22.7833,惠州市,惠阳区承修路船湖子站,,29,29,20,12,10,70,42,62,58,15,15,3,3,0.7,0.7
2022-06-12T20:00:00,1396A,114.5317,22.7422,惠州市,大亚湾管委会子站,,25,25,21,10,8,69,50,64,62,11,18,5,4,0.3,0.3
2022-06-12T20:00:00,1397A,112.4267,23.0706,肇庆市,睦岗子站,,14,13,27,8,17,91,27,62,54,28,21,8,13,0.6,0.5
2022-06-12T20:00:00,1398A,112.4645,23.0475,肇庆市,城中子站,,15,15,26,8,14,78,24,58,46,30,23,9,13,0.7,0.5
2022-06-12T20:00:00,1399A,112.5544,23.1522,肇庆市,坑口子站,,15,15,27,10,15,99,30,67,58,17,15,6,10,0.7,0.6
2022-06-12T20:00:00,1401A,108.3103,22.7881,南宁市,二十一中,,38,38,34,17,18,93,65,77,77,8,12,5,4,0.6,0.8
2022-06-12T20:00:00,1402A,108.3141,22.8528,南宁市,北湖,,49,49,38,19,20,105,61,84,84,10,15,4,4,0.7,0.9
2022-06-12T20:00:00,1403A,108.3206,22.8225,南宁市,市监测站,,34,34,30,16,21,91,57,74,74,12,18,6,7,0.6,0.7
2022-06-12T20:00:00,1404A,108.3829,22.8037,南宁市,大自然花园,,28,28,27,17,15,97,70,80,80,6,11,6,6,0.7,0.8
2022-06-12T20:00:00,1405A,108.4394,22.7904,南宁市,仙葫(对照点),,34,34,30,15,16,90,72,76,76,9,12,3,4,0.7,0.6
2022-06-12T20:00:00,1406A,108.2397,22.8467,南宁市,区农职院,,48,48,31,18,20,117,62,90,90,17,23,6,6,0.7,0.8
2022-06-12T20:00:00,1407A,108.3275,22.735,南宁市,英华嘉园,,40,40,33,14,16,72,53,62,62,16,16,5,5,0.7,0.8
2022-06-12T20:00:00,1408A,108.2257,22.7757,南宁市,沙井镇街道办,,40,40,32,15,18,85,53,73,73,14,20,5,6,0.7,0.9
2022-06-12T20:00:00,1410A,110.3232,20.0574,海口市,海南大学,,18,18,19,12,9,97,38,83,74,7,4,4,5,0.6,0.5
2022-06-12T20:00:00,1411A,110.283,20.0053,海口市,秀英海南医院,,28,28,22,12,10,60,31,52,40,27,18,3,3,0.4,0.3
2022-06-12T20:00:00,1412A,110.338,19.9969,海口市,海南师范大学,颗粒物(PM10),53,56,28,28,11,54,37,50,46,14,9,3,2,0.3,0.4
2022-06-12T20:00:00,1413A,110.33,20.0356,海口市,龙华路环保局宿舍,,30,30,23,20,10,64,36,60,53,18,9,3,4,0.6,0.5
2022-06-12T20:00:00,1414A,106.3787,29.8279,重庆市,缙云山(对照点),,23,8,7,8,6,93,73,76,71,8,10,6,5,0.5,0.5
2022-06-12T20:00:00,1416A,106.4213,29.8253,重庆市,天生,,18,15,18,10,10,63,55,56,56,18,17,4,4,0.7,0.7
2022-06-12T20:00:00,1417A,106.6263,29.7228,重庆市,两路,,29,15,12,9,9,56,26,53,42,58,30,6,7,0.6,0.5
2022-06-12T20:00:00,1418A,106.2953,29.5983,重庆市,虎溪,,32,21,29,22,22,58,48,55,55,17,22,5,5,1.0,1
2022-06-12T20:00:00,1419A,106.5777,29.5102,重庆市,南坪,,24,21,22,14,12,74,29,56,52,48,31,9,9,0.8,0.6
2022-06-12T20:00:00,1420A,106.6556,29.6277,重庆市,唐家沱,,32,18,18,8,9,86,19,64,58,64,28,6,6,0.5,0.3
2022-06-12T20:00:00,1421A,106.6349,29.4906,重庆市,茶园,,26,26,20,14,15,73,56,64,64,29,17,7,6,0.7,0.5
2022-06-12T20:00:00,1422A,106.3754,29.4572,重庆市,白市驿,,19,8,17,13,15,75,51,60,60,9,22,4,4,0.7,0.7
2022-06-12T20:00:00,1425A,106.6205,29.7166,重庆市,空港,一氧化碳,77,12,13,6,9,65,36,58,53,52,21,5,5,7.7,3.8
2022-06-12T20:00:00,1426A,106.4782,29.4875,重庆市,新山村,,29,29,26,15,14,51,36,43,38,56,46,5,5,1.0,0.8
2022-06-12T20:00:00,1427A,106.5616,29.6453,重庆市,礼嘉,,22,19,16,8,11,60,41,48,41,44,36,8,9,0.9,0.8
2022-06-12T20:00:00,1428A,106.4522,29.7091,重庆市,蔡家,,15,8,13,6,8,70,46,62,62,19,23,4,4,0.5,0.5
2022-06-12T20:00:00,1429A,106.5093,29.3917,重庆市,鱼新街,,23,23,25,14,16,68,49,52,52,46,42,6,5,1.0,1
2022-06-12T20:00:00,1431A,103.9728,30.7236,成都市,金泉两河,,30,22,35,16,28,135,96,122,122,8,10,3,3,0.5,0.5
2022-06-12T20:00:00,1432A,104.1419,30.6764,成都市,十里店,,35,30,38,21,27,167,110,138,138,16,11,4,4,0.6,0.5
2022-06-12T20:00:00,1433A,104.0594,30.5767,成都市,三瓦窑,,30,27,35,20,26,154,95,126,126,20,19,2,2,0.7,0.7
2022-06-12T20:00:00,1434A,104.1122,30.6306,成都市,沙河铺,,39,39,41,22,22,163,104,135,135,22,17,2,2,0.6,0.6
2022-06-12T20:00:00,1437A,104.0431,30.6556,成都市,君平街,,36,35,41,25,34,160,104,137,133,26,21,4,4,0.5,0.5
2022-06-12T20:00:00,1438A,103.6202,31.0201,成都市,灵岩寺(对照点),,30,18,25,18,31,132,94,98,78,4,5,2,5,0.6,0.7
2022-06-12T20:00:00,1439A,106.6899,26.5998,贵阳市,马鞍山,,14,7,15,2,8,49,42,41,40,13,12,5,5,0.6,0.5
2022-06-12T20:00:00,1440A,106.6971,26.5694,贵阳市,市环保站,,14,10,19,7,12,59,44,46,32,27,22,10,9,0.7,0.5
2022-06-12T20:00:00,1441A,106.6243,26.6266,贵阳市,鉴湖路,,15,9,21,2,10,52,47,42,39,9,12,3,3,0.7,0.7
2022-06-12T20:00:00,1442A,106.7487,26.6343,贵阳市,燕子冲,,20,17,25,14,17,41,39,37,28,12,11,5,5,0.6,0.6
2022-06-12T20:00:00,1443A,106.6555,26.4365,贵阳市,碧云窝,,19,19,29,5,11,61,48,52,52,21,17,3,3,0.8,0.7
2022-06-12T20:00:00,1445A,106.7109,26.6027,贵阳市,红边门,,18,12,23,9,17,68,55,46,38,16,15,5,5,0.7,0.7
2022-06-12T20:00:00,1446A,106.7164,26.5699,贵阳市,新华路,,18,7,17,12,14,59,53,41,36,15,15,4,4,0.7,0.5
2022-06-12T20:00:00,1447A,106.674,26.5424,贵阳市,太慈桥,,12,12,24,2,8,43,26,31,29,20,19,6,8,0.6,0.5
2022-06-12T20:00:00,1450A,102.8204,24.8886,昆明市,呈贡新区,,29,29,21,10,8,76,62,71,71,7,12,10,11,0.6,0.7
2022-06-12T20:00:00,1451A,102.6251,24.9608,昆明市,西山森林公园(对照点),,21,11,6,6,5,68,66,64,64,5,7,7,7,0.3,0.4
2022-06-12T20:00:00,1452A,102.7252,25.0902,昆明市,龙泉镇,,19,11,19,7,9,69,58,62,62,9,14,9,10,0.4,0.5
2022-06-12T20:00:00,1453A,102.7266,25.0375,昆明市,东风东路,,33,33,16,11,8,65,59,61,61,9,11,5,5,0.4,0.5
2022-06-12T20:00:00,1454A,102.6742,25.0669,昆明市,金鼎山,,18,13,15,7,10,71,55,64,64,10,14,14,16,0.3,0.4
2022-06-12T20:00:00,1455A,102.6644,25.0401,昆明市,碧鸡广场,,19,11,14,11,7,69,59,63,63,11,18,8,11,0.5,0.6
2022-06-12T20:00:00,1456A,91.1319,29.6514,拉萨市,八廓街,,38,10,16,6,6,133,119,127,127,10,8,6,5,0.2,0.2
2022-06-12T20:00:00,1457A,91.1221,29.6747,拉萨市,市环保局,,34,15,15,7,5,129,108,124,123,12,10,7,7,0.4,0.3
2022-06-12T20:00:00,1458A,91.0874,29.6475,拉萨市,区监测站,,39,12,13,3,3,132,122,128,128,13,9,7,7,0.2,0.2
2022-06-12T20:00:00,1459A,91.1774,29.6541,拉萨市,西藏大学,,40,16,14,2,5,135,126,128,128,5,7,9,8,0.3,0.3
2022-06-12T20:00:00,1460A,90.9798,29.6588,拉萨市,区辐射站,,35,14,11,6,5,122,112,118,118,15,9,7,7,0.2,0.2
2022-06-12T20:00:00,1461A,91.0834,29.6292,拉萨市,拉萨火车站,,38,20,15,2,5,124,119,122,122,13,7,8,8,0.2,0.2
2022-06-12T20:00:00,1462A,108.882,34.2749,西安市,高压开关厂,臭氧1小时,69,38,31,14,12,190,175,180,180,17,14,6,6,0.2,0.3
2022-06-12T20:00:00,1463A,108.993,34.2629,西安市,兴庆小区,臭氧1小时,60,36,28,18,18,183,168,170,170,22,15,3,4,0.4,0.5
2022-06-12T20:00:00,1464A,109.06,34.2572,西安市,纺织城,,46,44,36,12,15,194,147,175,175,24,21,6,5,0.5,0.5
2022-06-12T20:00:00,1465A,108.9356,34.2173,西安市,小寨,臭氧1小时,65,27,30,13,12,183,172,169,169,12,12,1,2,0.1,0.1
2022-06-12T20:00:00,1466A,108.954,34.2713,西安市,市人民体育场,臭氧1小时,62,38,28,16,14,183,169,171,171,16,15,4,4,0.3,0.3
2022-06-12T20:00:00,1467A,108.8922,34.2322,西安市,高新西区,臭氧1小时,69,27,26,15,17,181,175,170,170,10,11,5,5,0.4,0.4
2022-06-12T20:00:00,1468A,108.935,34.3474,西安市,经开区,臭氧1小时,77,36,30,14,13,189,181,177,177,9,10,2,3,0.3,0.3
2022-06-12T20:00:00,1469A,108.906,34.1546,西安市,长安区,,47,27,25,15,15,176,148,164,164,17,11,6,6,0.5,0.5
2022-06-12T20:00:00,1471A,109.2186,34.3731,西安市,临潼区,臭氧1小时,70,30,32,14,16,194,176,179,179,16,9,2,3,0.5,0.5
2022-06-12T20:00:00,1472A,108.869,34.378,西安市,草滩(对照点),,42,33,29,14,14,180,132,165,165,25,17,4,3,0.8,0.9
2022-06-12T20:00:00,1473A,108.985,34.1978,西安市,曲江文化产业集团,臭氧1小时,60,30,26,13,13,189,168,174,174,16,15,4,4,0.4,0.1
2022-06-12T20:00:00,1474A,109.051,34.3213,西安市,广运潭,臭氧1小时,79,32,29,14,13,184,183,171,171,13,12,5,5,0.3,0.3
2022-06-12T20:00:00,1476A,103.631,36.1031,兰州市,兰炼宾馆,,50,50,55,33,29,142,118,133,132,12,22,6,14,0.3,0.4
2022-06-12T20:00:00,1478A,103.8412,36.0726,兰州市,生物制品所,,47,47,58,23,25,146,117,136,135,20,37,7,12,0.5,0.9
2022-06-12T20:00:00,1479A,103.831,36.0464,兰州市,铁路设计院,颗粒物(PM10),54,58,60,27,23,136,106,126,124,30,43,6,14,0.4,0.7
2022-06-12T20:00:00,1483A,101.524,36.6867,西宁市,第五水厂(对照点),,39,25,18,11,8,140,122,131,131,12,13,14,13,0.6,0.6
2022-06-12T20:00:00,1484A,105.9512,38.6016,银川市,贺兰山马莲口(对照点),,37,23,49,12,18,153,116,126,125,4,10,7,14,0.3,0.5
2022-06-12T20:00:00,1488A,106.2328,38.4975,银川市,贺兰山东路,,49,37,56,13,18,156,155,148,148,17,38,8,11,0.6,0.7
2022-06-12T20:00:00,1489A,106.1358,38.5036,银川市,学院路,颗粒物(PM10),58,66,67,4,19,154,110,132,131,12,41,6,15,0.5,0.6
2022-06-12T20:00:00,1490A,87.5801,43.8303,乌鲁木齐市,监测站,臭氧1小时,53,43,55,32,19,178,162,162,162,16,29,10,10,0.4,0.6
2022-06-12T20:00:00,1491A,87.6046,43.768,乌鲁木齐市,收费所,颗粒物(PM10),51,52,60,27,21,163,158,147,147,33,36,8,8,0.4,0.3
2022-06-12T20:00:00,1492A,87.4754,43.9469,乌鲁木齐市,新疆农科院农场(对照点),颗粒物(PM10),70,90,99,16,31,194,161,175,175,16,30,8,9,0.2,0.3
2022-06-12T20:00:00,1493A,87.5525,43.8711,乌鲁木齐市,铁路局,颗粒物(PM10),54,57,64,24,20,181,154,168,168,16,30,7,9,0.4,0.5
2022-06-12T20:00:00,1494A,87.6432,43.831,乌鲁木齐市,三十一中学,颗粒物(PM10),52,54,62,14,19,169,160,161,161,19,24,5,15,2.0,0.5
2022-06-12T20:00:00,1496A,87.7216,44.1747,乌鲁木齐市,米东区环保局,,46,28,66,8,21,158,145,149,149,3,26,10,13,0.2,0.3
2022-06-12T20:00:00,1508A,112.9433,27.8614,湘潭市,板塘,,23,12,27,2,13,89,72,81,76,11,15,6,8,0.5,0.6
2022-06-12T20:00:00,1511A,112.9118,27.8403,湘潭市,市监测站,,20,5,19,9,15,86,63,83,64,12,16,7,9,0.4,0.4
2022-06-12T20:00:00,1512A,112.8937,27.8728,湘潭市,江麓,,22,13,28,10,11,96,68,91,75,12,11,10,7,0.4,0.5
2022-06-12T20:00:00,1513A,112.9227,27.8159,湘潭市,岳塘,,20,13,28,7,13,87,61,85,67,18,17,4,4,0.4,0.4
2022-06-12T20:00:00,1514A,112.9074,27.9119,湘潭市,科大,,20,16,26,7,11,90,64,88,69,17,15,4,5,0.6,0.6
2022-06-12T20:00:00,1515A,113.135,27.8244,株洲市,天台山庄,,17,0,10,7,11,85,52,84,63,14,13,3,4,0.5,0.4
2022-06-12T20:00:00,1518A,113.095,27.8867,株洲市,株冶医院,,18,7,14,8,12,81,55,77,60,8,16,5,7,0.5,0.5
2022-06-12T20:00:00,1519A,113.167,27.8667,株洲市,市四中,,18,2,14,9,14,88,56,88,68,5,7,4,5,0.5,0.5
2022-06-12T20:00:00,1520A,113.143,27.8381,株洲市,火车站,,15,9,21,8,11,85,48,84,58,13,11,3,4,0.4,0.4
2022-06-12T20:00:00,1524A,113.13,27.8528,株洲市,市监测站,,18,9,21,7,18,91,56,91,66,14,12,9,6,0.3,0.3
2022-06-12T20:00:00,1559A,113.251,27.8336,株洲市,大京风景区(对照点),,16,8,10,8,10,84,50,80,53,7,7,5,7,0.2,0.2
2022-06-12T20:00:00,1562A,113.0048,27.9153,湘潭市,昭山,,20,0,13,10,16,88,61,78,65,8,8,4,5,0.2,0.2
2022-06-12T20:00:00,1564A,112.4876,27.9164,湘潭市,韶山(对照点),,27,12,22,11,10,85,85,76,76,9,9,3,4,0.5,0.5
2022-06-12T20:00:00,1585A,109.8756,40.6532,包头市,市环境监测站,,43,43,45,6,16,118,102,112,111,10,13,5,9,0.4,0.5
2022-06-12T20:00:00,1587A,109.9991,40.5842,包头市,包头八中,,46,46,46,9,12,120,101,116,114,16,17,9,11,0.3,0.4
2022-06-12T20:00:00,1588A,109.8538,40.6821,包头市,青山宾馆,,46,46,42,13,11,117,102,112,111,10,12,8,9,0.3,0.3
2022-06-12T20:00:00,1589A,109.8642,40.6288,包头市,惠龙物流,,50,50,43,14,20,121,103,115,114,14,17,11,16,0.3,0.4
2022-06-12T20:00:00,1590A,110.0377,40.5546,包头市,东河鸿龙湾,颗粒物(PM10),53,55,48,16,12,116,103,111,110,6,14,10,12,0.4,0.4
2022-06-12T20:00:00,1591A,110.0023,39.8129,鄂尔多斯市,综合楼,,43,43,33,7,7,121,121,110,110,19,15,5,8,0.4,0.4
2022-06-12T20:00:00,1592A,109.9486,39.8261,鄂尔多斯市,巴音孟克林场办事处,颗粒物(PM10),52,53,41,9,10,124,124,114,114,9,9,10,6,0.5,0.4
2022-06-12T20:00:00,1593A,109.7736,39.5986,鄂尔多斯市,康泽苑,,40,39,33,9,6,126,126,116,116,5,8,5,4,0.3,0.3
2022-06-12T20:00:00,1594A,109.8119,39.5989,鄂尔多斯市,华泰汽车城,,44,44,34,12,9,124,124,117,117,7,15,7,6,0.4,0.4
2022-06-12T20:00:00,1595A,109.9734,39.7884,鄂尔多斯市,奥林花园,,48,48,43,9,9,124,124,112,112,13,18,5,7,0.5,0.5
2022-06-12T20:00:00,1597A,122.2703,40.7094,营口市,大庆路,,35,14,18,20,13,123,111,118,90,10,11,4,4,0.6,0.5
2022-06-12T20:00:00,1598A,122.215,40.6511,营口市,镜湖西路,,37,24,23,15,11,128,116,119,93,10,10,3,3,0.7,0.5
2022-06-12T20:00:00,1599A,122.167,40.6655,营口市,西炮台,,,,22,,11,117,,100,,,22,,5,,0.4
2022-06-12T20:00:00,1600A,124.3303,40.0625,丹东市,江湾东路,,32,25,24,17,18,100,100,85,85,9,12,10,8,0.5,0.6
2022-06-12T20:00:00,1601A,124.4256,40.1503,丹东市,临江后街,,,,,11,10,124,122,118,118,5,8,13,12,1.2,1.2
2022-06-12T20:00:00,1602A,124.3933,40.1461,丹东市,元宝山,,35,26,21,17,15,115,111,109,109,7,8,9,9,0.6,0.6
2022-06-12T20:00:00,1603A,124.3633,40.1092,丹东市,民主桥,,37,28,21,17,14,118,117,111,111,4,9,12,11,0.9,0.9
2022-06-12T20:00:00,1604A,122.0303,41.1489,盘锦市,开发区,,28,18,22,19,15,106,83,94,91,16,18,4,4,0.7,0.7
2022-06-12T20:00:00,1605A,122.0485,41.0883,盘锦市,兴隆台,,27,20,27,16,16,104,86,92,90,16,19,4,4,0.6,0.6
2022-06-12T20:00:00,1606A,121.8297,41.1028,盘锦市,新生街道,,31,19,17,16,12,107,98,102,96,16,13,2,3,0.5,0.5
2022-06-12T20:00:00,1607A,120.9092,40.7136,葫芦岛市,龙港区,,39,28,27,27,21,106,106,103,85,15,13,2,2,0.6,0.5
2022-06-12T20:00:00,1608A,120.8392,40.7514,葫芦岛市,化工街,"颗粒物(PM10),细颗粒物(PM2.5)",52,53,38,36,27,104,104,98,84,14,12,5,5,0.2,0.2
2022-06-12T20:00:00,1609A,120.8341,40.7073,葫芦岛市,新区,细颗粒物(PM2.5),57,29,32,40,31,102,102,100,86,16,13,6,6,0.5,0.4
2022-06-12T20:00:00,1610A,120.8695,40.7677,葫芦岛市,东城区,细颗粒物(PM2.5),54,31,29,38,31,92,92,87,76,17,16,5,5,0.3,0.2
2022-06-12T20:00:00,1611A,118.5819,24.9117,泉州市,涂山街,,41,41,17,24,10,100,86,83,83,17,14,4,4,0.4,0.3
2022-06-12T20:00:00,1612A,118.5972,24.8978,泉州市,津头埔,,43,43,28,25,11,89,79,83,77,19,17,3,3,0.6,0.4
2022-06-12T20:00:00,1613A,118.6663,24.9424,泉州市,万安,颗粒物(PM10),63,75,23,29,12,92,50,81,75,24,18,4,4,0.7,0.5
2022-06-12T20:00:00,1616A,117.6795,36.229,济南市,技术学院,,46,46,66,22,24,169,146,162,160,10,12,9,10,0.6,0.6
2022-06-12T20:00:00,1618A,118.3429,35.0532,临沂市,沂河小区,颗粒物(PM10),57,63,76,28,34,131,119,125,125,8,12,14,16,0.2,0.3
2022-06-12T20:00:00,1619A,118.295,35.0583,临沂市,鲁南制药厂,颗粒物(PM10),58,66,72,28,29,147,131,143,141,19,22,10,17,0.4,0.2
2022-06-12T20:00:00,1620A,118.2794,34.9976,临沂市,新光毛纺厂,颗粒物(PM10),59,68,81,25,35,136,124,131,130,16,22,5,14,0.5,0.5
2022-06-12T20:00:00,1621A,118.3956,35.0888,临沂市,河东保险公司,颗粒物(PM10),53,56,67,18,32,138,121,130,130,13,14,13,11,0.2,0.2
2022-06-12T20:00:00,1622A,116.3032,37.4674,德州市,儿童乐园,颗粒物(PM10),76,102,80,30,28,201,177,169,169,15,15,6,7,0.4,0.5
2022-06-12T20:00:00,1624A,116.2991,37.4451,德州市,监理站,颗粒物(PM10),76,102,74,35,29,191,167,163,163,17,14,7,8,0.4,0.5
2022-06-12T20:00:00,1625A,115.9848,36.4372,聊城市,区政府,颗粒物(PM10),79,108,89,29,26,189,172,185,184,15,12,9,12,0.7,0.7
2022-06-12T20:00:00,1628A,118.0062,37.3803,滨州市,市环保局,颗粒物(PM10),53,56,74,30,33,203,133,169,158,20,19,10,14,0.4,0.4
2022-06-12T20:00:00,1629A,118.0018,37.3617,滨州市,第二水厂,颗粒物(PM10),54,58,66,25,26,180,116,151,139,25,22,13,16,0.6,0.5
2022-06-12T20:00:00,1630A,117.9776,37.393,滨州市,北中新校,,50,50,60,27,30,184,122,142,132,22,18,14,14,0.6,0.6
2022-06-12T20:00:00,1631A,118.0414,36.8103,淄博市,人民公园,颗粒物(PM10),65,80,65,36,30,182,124,169,161,35,19,16,12,0.3,0.3
2022-06-12T20:00:00,1633A,117.8525,36.4847,淄博市,双山,,47,44,54,27,27,178,150,168,166,15,17,12,12,0.4,0.5
2022-06-12T20:00:00,1634A,117.9592,36.6331,淄博市,气象站,,,64,63,27,24,181,157,170,168,19,17,9,13,,1
2022-06-12T20:00:00,1635A,118.3092,36.8194,淄博市,莆田园,颗粒物(PM10),71,92,62,39,27,174,116,162,156,42,18,12,11,0.3,0.4
2022-06-12T20:00:00,1637A,117.558,34.8438,枣庄市,市中区政府,颗粒物(PM10),57,63,70,22,18,181,138,141,141,19,17,9,12,0.4,0.3
2022-06-12T20:00:00,1638A,117.2852,34.7837,枣庄市,薛城环保局,颗粒物(PM10),72,93,85,29,22,154,124,132,132,21,21,11,13,0.6,0.5
2022-06-12T20:00:00,1639A,117.5852,34.7745,枣庄市,峄城区政府,颗粒物(PM10),65,80,74,23,23,164,129,136,136,20,19,7,8,0.5,0.4
2022-06-12T20:00:00,1640A,117.7276,34.5578,枣庄市,台儿庄区环保局,颗粒物(PM10),57,63,68,22,18,146,128,128,128,18,20,9,12,0.6,0.6
2022-06-12T20:00:00,1641A,117.4518,35.0992,枣庄市,山亭区环保局,,44,36,50,20,21,180,138,144,144,13,15,7,12,0.4,0.4
2022-06-12T20:00:00,1642A,121.2514,37.5639,烟台市,开发区,,39,29,41,12,18,134,122,119,119,10,6,4,5,0.3,0.3
2022-06-12T20:00:00,1643A,121.3719,37.5433,烟台市,轴承厂,,39,29,38,23,24,134,122,118,118,5,6,4,4,0.2,0.2
2022-06-12T20:00:00,1644A,121.3181,37.5436,烟台市,西郊化工站,,37,34,37,7,18,125,116,116,116,5,3,5,4,0.2,0.2
2022-06-12T20:00:00,1645A,121.4478,37.4822,烟台市,莱山环保局,,38,24,33,14,18,135,120,124,124,9,5,6,6,0.3,0.2
2022-06-12T20:00:00,1646A,121.2611,37.4967,烟台市,福山环保局,,,,51,,20,122,107,107,107,13,9,1,1,0.4,0.3
2022-06-12T20:00:00,1650A,119.1437,36.7023,潍坊市,环保局,颗粒物(PM10),57,63,48,22,20,153,130,140,140,11,11,7,7,0.5,0.6
2022-06-12T20:00:00,1653A,116.6251,35.4302,济宁市,火炬城,颗粒物(PM10),56,61,70,19,20,170,131,149,147,7,10,6,8,0.4,0.4
2022-06-12T20:00:00,1655A,116.5491,35.4042,济宁市,电化厂,颗粒物(PM10),59,68,70,19,20,176,128,148,147,12,13,10,11,0.5,0.6
2022-06-12T20:00:00,1656A,117.1437,36.1937,泰安市,监测站,颗粒物(PM10),52,54,66,16,26,174,134,155,150,14,18,9,12,0.3,0.4
2022-06-12T20:00:00,1657A,117.0885,36.2017,泰安市,人口学校,,,63,61,25,27,177,144,162,158,17,15,10,10,,0.1
2022-06-12T20:00:00,1658A,117.1089,36.1758,泰安市,电力学校,颗粒物(PM10),57,63,63,26,26,164,135,151,148,12,15,7,7,0.4,0.5
2022-06-12T20:00:00,1659A,119.471,35.4209,日照市,监测站,,31,31,28,17,16,98,85,93,89,13,13,5,6,0.2,0.2
2022-06-12T20:00:00,1660A,119.523,35.4216,日照市,市政府广场,,36,36,26,18,12,109,96,98,97,4,5,6,6,0.4,0.4
2022-06-12T20:00:00,1661A,119.5587,35.4044,日照市,港务局,,34,24,22,16,10,113,108,103,102,5,5,3,2,0.4,0.3
2022-06-12T20:00:00,1662A,122.1214,37.4236,威海市,华夏技校,,31,19,38,17,27,144,98,126,123,6,8,5,4,0.3,0.4
2022-06-12T20:00:00,1663A,122.0508,37.5236,威海市,山大分校,,37,20,33,10,21,145,118,132,130,8,6,6,6,0.4,0.3
2022-06-12T20:00:00,1664A,122.1067,37.5072,威海市,市监测站,,41,12,35,17,28,152,130,136,135,5,9,7,7,0.2,0.3
2022-06-12T20:00:00,1666A,118.6614,37.4309,东营市,市环保局,颗粒物(PM10),52,53,53,31,24,202,118,162,152,18,15,6,10,0.6,0.6
2022-06-12T20:00:00,1669A,113.5824,24.7733,韶关市,市八中,,25,11,33,12,13,97,78,82,82,11,17,9,13,0.5,0.6
2022-06-12T20:00:00,1671A,113.5917,24.7972,韶关市,园林处,,30,12,31,21,16,82,54,68,68,8,12,7,10,0.5,0.6
2022-06-12T20:00:00,1672A,113.6735,24.7791,韶关市,韶关学院,,24,24,30,8,13,88,57,70,70,8,15,8,11,0.5,0.6
2022-06-12T20:00:00,1673A,113.5971,24.6863,韶关市,曲江监测站,,15,13,30,9,10,176,48,176,70,6,18,7,9,0.5,0.7
2022-06-12T20:00:00,1674A,116.6794,23.3667,汕头市,金平子站,细颗粒物(PM2.5),68,70,29,49,13,78,10,73,39,46,15,10,8,1.4,0.7
2022-06-12T20:00:00,1675A,116.7244,23.3633,汕头市,龙湖子站,,20,20,17,5,4,90,30,84,58,14,11,7,7,0.5,0.5
2022-06-12T20:00:00,1676A,116.7258,23.2775,汕头市,濠江子站,,25,25,20,10,6,84,23,77,47,18,9,9,9,0.5,0.5
2022-06-12T20:00:00,1677A,116.7519,23.4714,汕头市,澄海子站,颗粒物(PM10),55,59,23,17,7,81,23,75,51,40,17,5,5,1.3,0.7
2022-06-12T20:00:00,1678A,116.6092,23.2539,汕头市,潮阳子站,,19,19,16,10,5,73,25,68,37,6,7,6,7,0.5,0.5
2022-06-12T20:00:00,1680A,110.3539,21.2706,湛江市,湛江影剧院,,40,40,23,20,11,91,53,76,70,19,16,6,9,0.6,0.5
2022-06-12T20:00:00,1681A,110.3928,21.2228,湛江市,市环境监测站,,31,31,22,11,10,98,64,87,80,13,13,5,6,0.6,0.5
2022-06-12T20:00:00,1682A,110.4019,21.1997,湛江市,环保局宿舍,,31,31,21,12,11,92,64,81,77,11,14,4,4,0.5,0.5
2022-06-12T20:00:00,1683A,110.4111,21.2028,湛江市,霞山游泳场,,28,28,22,10,11,104,64,85,77,8,16,5,6,0.6,0.6
2022-06-12T20:00:00,1684A,110.3316,21.2679,湛江市,麻章区环保局,颗粒物(PM10),55,59,26,16,12,95,53,74,68,25,16,4,6,0.6,0.5
2022-06-12T20:00:00,1685A,110.4558,21.2567,湛江市,坡头区环保局,,37,37,22,14,10,108,62,92,84,10,9,5,5,0.5,0.5
2022-06-12T20:00:00,1686A,111.0286,21.4688,茂名市,电白南海,,31,31,32,12,11,65,50,57,56,12,14,3,3,0.6,0.6
2022-06-12T20:00:00,1687A,110.9294,21.6533,茂名市,茂石化七小,,34,34,28,22,17,89,42,71,62,13,12,4,5,0.9,0.8
2022-06-12T20:00:00,1688A,110.9107,21.6687,茂名市,健康路,,29,29,23,13,9,91,46,70,62,8,6,5,6,0.7,0.6
2022-06-12T20:00:00,1689A,110.8592,21.6828,茂名市,高岭,,24,24,11,9,5,82,46,61,52,10,15,5,6,0.5,0.6
2022-06-12T20:00:00,1690A,116.1231,24.3284,梅州市,梅江月梅,,21,21,12,9,5,56,21,48,41,15,13,2,2,0.6,0.6
2022-06-12T20:00:00,1691A,116.0797,24.2719,梅州市,梅县新城,,21,21,12,12,6,58,18,47,43,35,15,5,5,1.0,0.6
2022-06-12T20:00:00,1692A,116.1248,24.2654,梅州市,环境监控中心,,23,20,13,16,8,58,12,46,42,28,21,4,5,0.7,0.6
2022-06-12T20:00:00,1693A,115.3653,22.775,汕尾市,市环保局,,20,20,18,6,5,56,43,51,50,5,5,5,4,0.4,0.4
2022-06-12T20:00:00,1694A,115.3706,22.7898,汕尾市,市政府,,19,19,16,2,6,59,47,54,53,5,5,5,5,0.5,0.5
2022-06-12T20:00:00,1695A,115.3622,22.7925,汕尾市,新城中学,,20,20,18,3,5,61,48,57,55,4,3,5,5,0.5,0.4
2022-06-12T20:00:00,1696A,114.6778,23.7569,河源市,源西(对照点),,24,24,11,11,6,58,25,46,45,28,10,4,3,0.5,0.4
2022-06-12T20:00:00,1697A,114.6944,23.7586,河源市,东埔,,17,17,10,10,5,65,40,46,46,18,13,4,3,1.0,0.8
2022-06-12T20:00:00,1698A,114.6892,23.7233,河源市,老城,,17,17,10,8,5,61,49,50,50,11,10,2,2,0.7,0.7
2022-06-12T20:00:00,1701A,111.9491,21.8658,阳江市,马南垌,,30,30,26,15,14,76,50,66,64,5,9,2,2,0.7,0.7
2022-06-12T20:00:00,1702A,113.0426,23.691,清远市,环保大楼(对照点),,18,15,26,12,18,148,36,89,87,18,26,4,4,0.6,0.5
2022-06-12T20:00:00,1703A,113.0208,23.7106,清远市,凤城街办,,18,18,29,11,17,119,29,76,72,23,29,4,5,0.7,0.7
2022-06-12T20:00:00,1705A,116.6367,23.6719,潮州市,西园路(对照点),,26,17,12,18,9,59,40,55,52,22,12,5,5,0.9,0.6
2022-06-12T20:00:00,1706A,116.6447,23.6706,潮州市,档案局,,40,30,14,28,8,62,30,56,52,30,14,9,8,1.1,0.6
2022-06-12T20:00:00,1708A,116.3701,23.5345,揭阳市,新兴,,42,42,21,27,13,59,26,52,43,44,20,10,5,1.0,0.5
2022-06-12T20:00:00,1709A,116.3264,23.5443,揭阳市,西马,,39,36,18,27,11,60,24,54,44,34,16,10,8,1.3,0.8
2022-06-12T20:00:00,1710A,116.3611,23.5626,揭阳市,东兴,,49,49,21,20,9,62,15,53,42,53,20,9,4,1.1,0.6
2022-06-12T20:00:00,1711A,116.4151,23.5294,揭阳市,渔湖,,48,48,20,26,10,58,24,50,42,36,15,10,5,1.0,0.6
2022-06-12T20:00:00,1714A,112.0539,22.9539,云浮市,牧羊,,16,16,30,10,11,56,25,52,46,13,18,4,9,0.6,0.6
2022-06-12T20:00:00,1715A,102.575,24.3711,玉溪市,东风水库,,31,31,17,7,7,64,61,63,63,9,9,6,7,0.6,0.7
2022-06-12T20:00:00,1718A,115.4208,35.2464,菏泽市,气象局,颗粒物(PM10),65,79,70,25,24,170,153,168,165,14,15,10,12,0.4,0.4
2022-06-12T20:00:00,1719A,115.4747,35.2375,菏泽市,市政协,颗粒物(PM10),70,89,75,20,20,173,151,168,166,17,16,5,7,0.2,0.2
2022-06-12T20:00:00,1721A,113.3819,40.1097,大同市,果树场(对照点),,40,40,33,3,17,128,119,123,123,11,25,12,25,0.4,0.5
2022-06-12T20:00:00,1723A,113.2994,40.0758,大同市,云冈宾馆,,38,38,58,8,21,128,113,122,122,11,31,8,18,0.3,0.5
2022-06-12T20:00:00,1724A,113.3444,40.0917,大同市,大同大学,颗粒物(PM10),70,89,49,5,15,128,113,122,122,19,21,4,34,0.3,0.5
2022-06-12T20:00:00,1725A,113.2661,40.1269,大同市,安家小村,颗粒物(PM10),52,53,52,3,15,136,122,129,129,12,22,8,16,0.3,0.5
2022-06-12T20:00:00,1726A,113.2711,40.0844,大同市,教育学院,颗粒物(PM10),56,62,59,16,16,122,110,117,117,17,30,9,16,0.2,0.4
2022-06-12T20:00:00,1727A,113.1147,36.1547,长治市,清华站,,31,26,34,7,19,193,97,140,127,23,18,9,9,0.3,0.4
2022-06-12T20:00:00,1728A,113.1031,36.1989,长治市,监测站,,31,29,36,12,19,204,97,152,132,23,11,9,9,0.3,0.5
2022-06-12T20:00:00,1730A,113.0886,36.2125,长治市,审计局,,26,26,34,9,19,186,82,135,121,30,16,10,15,0.5,0.6
2022-06-12T20:00:00,1731A,113.0844,36.1856,长治市,长治八中,,31,30,38,11,17,194,98,151,133,26,15,17,8,0.4,0.6
2022-06-12T20:00:00,1733A,111.5531,36.0783,临汾市,临钢医院,,42,42,41,16,17,196,128,173,169,18,16,2,2,1.2,1
2022-06-12T20:00:00,1734A,111.5028,36.0714,临汾市,技工学校,,39,15,22,23,21,186,123,167,163,13,11,3,3,1.3,1.2
2022-06-12T20:00:00,1736A,111.5018,36.0855,临汾市,市委,,41,28,32,11,18,202,129,177,173,17,13,4,3,0.6,0.7
2022-06-12T20:00:00,1738A,113.5758,37.8572,阳泉市,市中心,,46,41,39,24,27,164,146,152,152,20,15,9,11,0.7,0.7
2022-06-12T20:00:00,1739A,113.4894,37.8731,阳泉市,赛鱼,,44,44,38,28,26,178,107,155,151,32,21,7,7,0.7,0.7
2022-06-12T20:00:00,1740A,113.5819,37.8486,阳泉市,南庄,,46,35,37,32,27,173,145,156,156,26,16,6,10,0.8,0.8
2022-06-12T20:00:00,1742A,113.5614,37.8703,阳泉市,平坦,颗粒物(PM10),57,64,43,24,22,185,113,166,162,63,24,9,9,0.7,0.8
2022-06-12T20:00:00,1743A,113.5158,37.8392,阳泉市,大阳泉,,45,20,30,30,28,161,141,144,144,23,18,9,8,0.5,0.6
2022-06-12T20:00:00,1744A,118.9233,42.2816,赤峰市,松山一中,,35,10,17,6,14,132,112,117,115,11,13,9,11,0.6,0.7
2022-06-12T20:00:00,1745A,118.9576,42.2728,赤峰市,哈达街,,31,16,20,8,7,124,98,116,112,15,16,15,15,0.5,0.6
2022-06-12T20:00:00,1746A,118.8788,42.2554,赤峰市,天义路,,36,5,17,3,6,146,114,122,120,6,7,10,9,0.5,0.5
2022-06-12T20:00:00,1748A,123.044,41.1196,鞍山市,深沟寺,,26,12,29,8,19,101,82,92,78,5,10,6,6,0.5,0.6
2022-06-12T20:00:00,1749A,123.011,41.0931,鞍山市,太阳城,,31,7,34,6,22,102,97,90,81,8,16,7,7,0.6,0.8
2022-06-12T20:00:00,1750A,123.0485,41.1442,鞍山市,太平,,27,12,35,7,20,107,85,102,81,9,16,8,9,0.7,0.9
2022-06-12T20:00:00,1751A,122.9642,41.0971,鞍山市,铁西三道街,,31,16,48,5,26,108,97,91,80,11,23,5,6,0.6,0.8
2022-06-12T20:00:00,1752A,122.9341,41.0833,鞍山市,铁西工业园区,,30,17,56,7,33,103,94,87,80,10,26,6,9,0.6,0.7
2022-06-12T20:00:00,1753A,123.022,41.0821,鞍山市,明达新区,,33,11,34,6,20,119,104,109,89,5,14,4,4,0.4,0.5
2022-06-12T20:00:00,1754A,123.1289,41.0228,鞍山市,千山(对照点),,20,18,27,12,14,79,61,59,54,4,5,3,4,0.9,0.9
2022-06-12T20:00:00,1755A,123.7977,41.8491,抚顺市,望花区,,31,24,56,14,33,110,99,90,86,8,27,4,5,0.4,0.8
2022-06-12T20:00:00,1756A,123.9161,41.8822,抚顺市,顺城区,,30,22,51,11,27,103,95,84,81,12,34,7,8,0.4,0.6
2022-06-12T20:00:00,1757A,124.0436,41.8611,抚顺市,东洲区,,35,15,36,11,18,116,112,103,101,4,10,7,5,0.2,0.4
2022-06-12T20:00:00,1758A,123.9247,41.8642,抚顺市,新抚区,,30,26,50,11,26,112,96,90,85,6,26,4,4,0.4,0.7
2022-06-12T20:00:00,1759A,124.0972,41.8961,抚顺市,大伙房水库,,38,28,32,11,23,125,119,109,108,2,10,6,6,0.2,0.4
2022-06-12T20:00:00,1760A,123.7086,41.8391,抚顺市,沈抚新城,,31,8,47,12,25,118,98,95,90,8,24,6,7,0.3,0.6
2022-06-12T20:00:00,1761A,123.8275,41.3064,本溪市,大峪,,24,20,36,12,14,112,76,102,90,16,17,5,5,0.5,0.5
2022-06-12T20:00:00,1762A,123.7567,41.3325,本溪市,溪湖,,27,27,36,13,19,98,74,84,69,19,23,7,7,0.8,1.1
2022-06-12T20:00:00,1763A,123.7169,41.3094,本溪市,彩屯,,44,44,48,29,35,72,52,62,55,42,34,15,12,2.5,2
2022-06-12T20:00:00,1764A,123.7669,41.2864,本溪市,东明,,31,15,37,15,19,107,99,98,91,6,24,8,9,0.5,0.7
2022-06-12T20:00:00,1765A,123.7992,41.2664,本溪市,新立屯,,31,21,23,16,13,110,99,100,92,2,9,3,4,0.7,0.7
2022-06-12T20:00:00,1766A,123.8142,41.3472,本溪市,威宁,,29,29,42,14,19,105,62,96,78,15,17,8,8,0.4,0.5
2022-06-12T20:00:00,1767A,121.1115,41.0879,锦州市,南山,细颗粒物(PM2.5),77,61,38,56,41,73,73,67,63,12,13,5,7,0.8,0.7
2022-06-12T20:00:00,1768A,121.0533,40.8434,锦州市,开发区,,45,41,47,31,31,83,83,79,67,26,21,6,8,0.8,0.7
2022-06-12T20:00:00,1769A,121.1836,41.1119,锦州市,百股街道,细颗粒物(PM2.5),53,36,26,37,24,94,94,83,81,13,14,5,7,0.8,0.7
2022-06-12T20:00:00,1770A,121.1178,41.1222,锦州市,天安街道,细颗粒物(PM2.5),94,57,36,70,44,90,90,82,75,14,16,8,9,0.8,0.7
2022-06-12T20:00:00,1771A,121.1303,41.1386,锦州市,北湖公园,细颗粒物(PM2.5),89,42,27,66,40,89,89,80,73,15,17,6,6,0.5,0.5
2022-06-12T20:00:00,1772A,126.54,43.8622,吉林市,哈达湾,,34,26,25,16,13,120,108,113,113,16,19,2,3,0.6,0.6
2022-06-12T20:00:00,1773A,126.5844,43.8358,吉林市,东局子,,35,28,21,17,10,113,110,109,109,12,14,5,5,0.8,0.7
2022-06-12T20:00:00,1774A,126.5052,43.8245,吉林市,电力学院,,34,29,28,20,16,120,106,112,112,13,24,3,4,0.6,0.7
2022-06-12T20:00:00,1775A,126.6133,43.8972,吉林市,江北,,33,20,20,17,11,111,104,107,107,8,11,8,8,0.7,0.6
2022-06-12T20:00:00,1776A,126.555,43.8306,吉林市,江南公园,,34,27,19,14,11,116,107,107,107,12,15,4,4,0.6,0.6
2022-06-12T20:00:00,1778A,126.7061,43.7133,吉林市,丰满(对照点),,36,26,22,17,9,114,114,109,109,5,6,4,4,0.6,0.5
2022-06-12T20:00:00,1779A,123.9305,47.3636,齐齐哈尔市,安居小区,颗粒物(PM10),64,78,46,39,23,103,87,94,93,20,22,7,7,0.9,0.7
2022-06-12T20:00:00,1780A,123.9488,47.3386,齐齐哈尔市,中心广场,颗粒物(PM10),58,66,42,39,21,106,87,96,92,18,18,4,5,0.7,0.5
2022-06-12T20:00:00,1781A,123.9483,47.3227,齐齐哈尔市,农牧车辆厂,颗粒物(PM10),58,66,50,28,14,115,95,104,103,14,15,5,5,0.4,0.3
2022-06-12T20:00:00,1783A,123.945,47.2988,齐齐哈尔市,市环境监测站,颗粒物(PM10),56,61,39,34,18,116,98,108,107,12,14,8,7,0.5,0.4
2022-06-12T20:00:00,1784A,129.61,44.561,牡丹江市,环保大楼,,22,14,18,8,8,109,68,98,89,16,13,3,4,0.4,0.4
2022-06-12T20:00:00,1785A,129.6115,44.5782,牡丹江市,文化广场,,28,28,17,13,10,100,61,90,82,19,17,2,4,0.3,0.3
2022-06-12T20:00:00,1786A,129.5904,44.5963,牡丹江市,第一医院,,19,6,15,6,12,95,60,88,82,16,18,2,3,0.6,0.6
2022-06-12T20:00:00,1787A,129.6364,44.6075,牡丹江市,机车工厂,,21,16,21,11,9,106,66,97,88,16,16,4,8,0.2,0.3
2022-06-12T20:00:00,1788A,129.6386,44.5462,牡丹江市,第一中学,,16,16,20,9,8,109,50,97,87,21,15,2,2,0.3,0.3
2022-06-12T20:00:00,1789A,124.81117,46.03138,大庆市,大同区,,49,33,38,34,34,120,92,107,100,14,18,7,6,0.7,0.6
2022-06-12T20:00:00,1790A,125.129,46.533,大庆市,龙凤区,,38,38,33,17,21,126,95,113,106,10,22,9,11,0.3,0.4
2022-06-12T20:00:00,1791A,124.902,46.408,大庆市,红岗区,,46,45,34,32,18,114,82,106,99,7,11,6,5,0.6,0.5
2022-06-12T20:00:00,1792A,125.153,46.586,大庆市,萨尔图区,,48,42,50,33,25,131,102,115,108,5,19,6,8,0.4,0.4
2022-06-12T20:00:00,1793A,124.9042,46.6215,大庆市,让胡路区,细颗粒物(PM2.5),53,40,41,37,30,116,86,104,100,13,24,3,6,0.5,0.6
2022-06-12T20:00:00,1794A,118.3606,31.3519,芜湖市,监测站,,36,28,24,25,18,136,82,99,86,20,16,8,8,0.5,0.4
2022-06-12T20:00:00,1795A,118.3714,31.4134,芜湖市,科创中心,,32,22,25,22,17,134,84,106,93,18,14,5,6,0.5,0.5
2022-06-12T20:00:00,1796A,118.3673,31.3131,芜湖市,四水厂,,29,26,23,20,16,143,86,104,92,20,15,6,7,0.5,0.5
2022-06-12T20:00:00,1798A,118.5092,31.6837,马鞍山市,湖东路四小,,36,30,24,25,19,150,102,115,114,12,9,5,6,0.5,0.5
2022-06-12T20:00:00,1799A,118.5024,31.6449,马鞍山市,开发区,,32,29,27,22,16,138,89,110,107,17,10,6,7,0.6,0.6
2022-06-12T20:00:00,1800A,118.5228,31.7231,马鞍山市,慈湖,,31,26,27,20,17,143,97,108,107,15,11,3,5,0.4,0.4
2022-06-12T20:00:00,1802A,118.6245,31.7241,马鞍山市,濮塘(对照点),,30,21,25,17,12,151,95,108,107,7,5,9,9,0.5,0.5
2022-06-12T20:00:00,1803A,115.9872,29.6815,九江市,十里,,24,11,10,7,8,90,74,88,75,15,12,8,9,0.5,0.4
2022-06-12T20:00:00,1804A,115.9584,29.7046,九江市,茅山头,,24,7,10,7,7,87,74,85,74,13,10,2,4,0.4,0.5
2022-06-12T20:00:00,1805A,115.9877,29.7295,九江市,西园,,24,21,15,10,7,83,76,79,78,16,15,5,6,0.7,0.6
2022-06-12T20:00:00,1806A,116.0172,29.6547,九江市,五七二七厂,,24,13,10,7,7,98,74,98,76,5,6,5,5,0.4,0.5
2022-06-12T20:00:00,1808A,115.9114,29.6038,九江市,综合工业园,,20,19,15,2,6,74,38,61,54,39,27,6,7,0.5,0.5
2022-06-12T20:00:00,1809A,116.0721,29.7535,九江市,石化总厂,,,15,13,8,6,85,74,80,80,,14,,6,0.4,0.3
2022-06-12T20:00:00,1810A,115.9773,29.5698,九江市,庐山气象台(对照点),,28,7,5,6,4,92,88,90,82,5,4,7,6,0.6,0.6
2022-06-12T20:00:00,1812A,112.3931,34.6516,洛阳市,市委党校,,46,22,41,12,17,163,147,150,150,3,8,4,9,0.5,0.5
2022-06-12T20:00:00,1814A,112.4657,34.6871,洛阳市,豫西宾馆,,47,23,45,21,20,179,149,156,156,6,9,3,2,0.4,0.4
2022-06-12T20:00:00,1815A,112.494,34.6886,洛阳市,河南林校,,47,22,36,14,17,176,148,154,154,10,11,4,5,0.3,0.2
2022-06-12T20:00:00,1816A,112.3844,34.623,洛阳市,开发区管委会,,39,23,43,13,20,162,124,140,140,5,10,2,6,0.3,0.3
2022-06-12T20:00:00,1817A,112.4267,34.6258,洛阳市,市委新办公区,,42,18,38,10,18,163,134,148,148,13,11,4,7,0.3,0.4
2022-06-12T20:00:00,1818A,114.4839,36.0621,安阳市,棉研所(对照点),颗粒物(PM10),85,119,62,20,18,177,142,158,158,26,16,6,7,0.2,0.3
2022-06-12T20:00:00,1819A,114.3551,36.1017,安阳市,红庙街,臭氧1小时,60,66,50,19,15,183,168,156,156,19,23,9,10,0.4,0.6
2022-06-12T20:00:00,1820A,114.361,36.0681,安阳市,银杏小区,颗粒物(PM10),58,66,60,17,21,175,145,148,148,36,23,8,9,0.3,0.5
2022-06-12T20:00:00,1824A,114.3389,34.7781,开封市,肿瘤医院,颗粒物(PM10),51,52,55,20,19,186,136,167,163,10,13,5,7,0.4,0.4
2022-06-12T20:00:00,1826A,114.2885,34.7965,开封市,世纪星幼儿园,,46,46,51,17,20,176,132,161,156,15,15,4,5,0.5,0.5
2022-06-12T20:00:00,1828A,113.2269,35.2127,焦作市,市环保局,,45,44,40,29,14,155,143,127,127,25,18,8,5,0.8,0.4
2022-06-12T20:00:00,1829A,113.2467,35.176,焦作市,高新区政府,颗粒物(PM10),64,77,62,27,18,144,132,121,121,22,18,3,5,0.5,0.4
2022-06-12T20:00:00,1830A,113.1987,35.2703,焦作市,影视城(对照点),细颗粒物(PM2.5),52,40,35,36,25,162,96,112,109,10,12,8,8,0.6,0.6
2022-06-12T20:00:00,1832A,113.3257,33.742,平顶山市,新华旅馆,颗粒物(PM10),57,64,58,24,19,162,162,155,155,14,15,8,7,0.5,0.4
2022-06-12T20:00:00,1833A,113.2919,33.737,平顶山市,规划设计院,臭氧1小时,55,51,46,25,15,168,164,154,154,16,17,11,8,0.5,0.4
2022-06-12T20:00:00,1834A,113.182,33.774,平顶山市,平顶山工学院,颗粒物(PM10),57,63,54,29,23,162,154,145,145,14,14,8,8,0.5,0.4
2022-06-12T20:00:00,1835A,111.1922,34.7752,三门峡市,市政府,,45,23,38,14,19,155,141,148,148,13,21,6,6,0.4,0.5
2022-06-12T20:00:00,1836A,111.1587,34.7942,三门峡市,开发区,,42,38,44,13,21,143,132,135,135,4,10,2,3,0.4,0.4
2022-06-12T20:00:00,1838A,111.143,34.7955,三门峡市,风景区(对照点),,43,16,38,13,17,151,136,143,143,5,10,1,3,0.3,0.4
2022-06-12T20:00:00,1840A,111.2992,30.6981,宜昌市,白龙岗,,31,31,31,14,14,71,65,64,52,22,24,4,4,0.7,0.5
2022-06-12T20:00:00,1841A,111.3549,30.6465,宜昌市,伍家岗,,30,30,29,12,12,80,45,75,56,36,25,5,5,0.4,0.4
2022-06-12T20:00:00,1842A,111.2628,30.6961,宜昌市,点军区,,25,25,30,14,13,85,72,68,68,11,17,6,6,0.3,0.3
2022-06-12T20:00:00,1843A,111.3275,30.7819,宜昌市,夷陵区,,26,26,32,9,12,82,57,68,68,19,16,5,5,0.4,0.3
2022-06-12T20:00:00,1844A,112.2494,30.3197,荆州市,市图书馆,,29,13,27,12,16,113,90,106,100,16,17,7,8,0.5,0.5
2022-06-12T20:00:00,1845A,112.2008,30.3544,荆州市,市委党校,,30,24,28,15,23,116,94,104,97,10,11,7,8,0.6,0.6
2022-06-12T20:00:00,1847A,113.1094,29.3578,岳阳市,南湖风景区,,27,22,26,14,14,102,85,100,80,12,12,8,10,0.5,0.5
2022-06-12T20:00:00,1848A,113.1493,29.4251,岳阳市,城陵矶,,30,16,24,11,14,97,96,89,77,11,14,7,11,0.5,0.6
2022-06-12T20:00:00,1849A,113.1497,29.3575,岳阳市,开发区,,28,24,26,7,8,102,88,102,81,14,13,6,9,0.6,0.6
2022-06-12T20:00:00,1850A,113.2621,29.4758,岳阳市,云溪区,,28,11,21,10,12,95,88,78,69,14,12,8,10,0.6,0.6
2022-06-12T20:00:00,1851A,112.9943,29.4402,岳阳市,君山区,,27,17,22,15,13,104,86,98,90,8,7,5,6,0.4,0.5
2022-06-12T20:00:00,1852A,113.2117,29.355,岳阳市,金凤水库(对照点),,24,8,20,9,15,78,75,66,65,6,10,5,6,0.6,0.6
2022-06-12T20:00:00,1854A,111.6975,28.9703,常德市,市二中,,27,15,26,6,12,114,84,93,89,7,8,4,6,0.4,0.4
2022-06-12T20:00:00,1857A,111.7158,29.1456,常德市,白鹤山(对照点),,16,11,19,4,9,111,51,105,76,3,3,5,6,0.3,0.3
2022-06-12T20:00:00,1858A,110.5319,29.1217,张家界市,永定新区,,26,16,26,11,18,97,82,86,86,10,10,1,1,0.3,0.4
2022-06-12T20:00:00,1859A,110.4697,29.1242,张家界市,电业局,,24,12,19,13,12,102,76,81,81,10,9,2,3,0.1,0.1
2022-06-12T20:00:00,1860A,110.5594,29.3547,张家界市,未央路,,16,12,19,1,6,95,49,77,75,11,7,2,2,0.3,0.3
2022-06-12T20:00:00,1861A,110.4417,29.315,张家界市,袁家界(对照点),,30,15,18,8,8,124,96,106,100,4,5,1,1,0.3,0.3
2022-06-12T20:00:00,1862A,110.4144,25.3167,桂林市,电子科大尧山校区(对照点),,20,16,19,14,15,97,60,86,85,5,5,6,9,0.7,0.6
2022-06-12T20:00:00,1863A,110.2819,25.2697,桂林市,监测站,,29,27,27,20,18,98,51,78,77,8,8,6,11,0.8,0.7
2022-06-12T20:00:00,1864A,110.3089,25.2708,桂林市,龙隐路小学,,26,25,24,18,19,96,45,79,77,12,10,7,11,0.6,0.6
2022-06-12T20:00:00,1865A,110.2869,25.2178,桂林市,八中,,25,18,26,17,16,86,40,71,69,18,12,8,9,0.7,0.7
2022-06-12T20:00:00,1866A,109.2262,21.588,北海市,牛尾岭水库(对照点),,30,30,24,14,12,68,59,65,65,6,7,3,3,0.4,0.5
2022-06-12T20:00:00,1867A,109.1436,21.4086,北海市,海滩公园,颗粒物(PM10),55,59,41,10,8,87,83,82,82,3,3,2,3,1.1,0.5
2022-06-12T20:00:00,1868A,109.0981,21.4661,北海市,新市环保局,,30,30,22,14,11,82,82,77,77,2,4,3,3,0.5,0.6
2022-06-12T20:00:00,1869A,109.1778,21.5233,北海市,北海工业园,,33,33,39,12,10,82,82,77,77,4,5,4,4,0.3,0.5
2022-06-12T20:00:00,1870A,109.4856,24.3895,柳州市,柳东小学,,23,19,23,16,20,87,47,67,66,6,5,3,6,0.8,0.7
2022-06-12T20:00:00,1871A,109.4157,24.3277,柳州市,环保监测站,,15,10,28,9,21,80,46,64,63,11,12,5,8,0.9,1
2022-06-12T20:00:00,1872A,109.389,24.341,柳州市,河西水厂,,23,23,27,10,20,79,44,64,62,16,14,7,7,1.0,1.1
2022-06-12T20:00:00,1873A,109.4311,24.2921,柳州市,市四中,,,46,37,19,22,96,,89,89,15,11,5,5,0.9,0.9
2022-06-12T20:00:00,1874A,109.4006,24.3631,柳州市,市九中,,28,25,32,19,21,78,37,58,57,14,12,5,9,1.1,1
2022-06-12T20:00:00,1875A,109.4958,24.3134,柳州市,古亭山,,19,19,29,9,17,72,35,55,54,12,8,3,3,0.7,0.7
2022-06-12T20:00:00,1876A,109.5078,18.2489,三亚市,河东子站,,24,23,22,13,12,84,74,80,77,5,6,2,2,0.4,0.4
2022-06-12T20:00:00,1877A,109.4964,18.2681,三亚市,河西子站,,25,25,22,14,12,81,72,77,74,5,8,1,1,0.4,0.4
2022-06-12T20:00:00,1878A,104.7778,31.4741,绵阳市,富乐山,,33,33,28,19,21,124,99,112,112,14,9,5,4,0.5,0.5
2022-06-12T20:00:00,1879A,104.7563,31.4535,绵阳市,市人大,,33,24,37,23,23,118,94,108,108,16,12,6,5,0.4,0.4
2022-06-12T20:00:00,1880A,104.6697,31.4668,绵阳市,高新区自来水公司,,50,50,40,17,29,145,135,128,128,14,12,5,5,0.6,0.6
2022-06-12T20:00:00,1881A,104.7287,31.5075,绵阳市,三水厂,,42,31,48,19,33,138,134,121,121,17,14,6,5,0.5,0.5
2022-06-12T20:00:00,1882A,104.563,28.793,宜宾市,石马中学(对照点),,26,22,25,18,19,90,66,78,78,16,7,3,4,0.6,0.5
2022-06-12T20:00:00,1883A,104.6201,28.7728,宜宾市,市委,,29,27,31,20,22,96,53,74,73,20,16,5,6,0.7,0.6
2022-06-12T20:00:00,1884A,104.6055,28.793,宜宾市,宜宾四中,,35,32,33,24,26,93,72,79,79,30,18,5,6,0.8,0.6
2022-06-12T20:00:00,1885A,104.639,28.7562,宜宾市,市政府,,33,33,30,23,25,102,84,81,81,21,18,6,6,0.8,0.8
2022-06-12T20:00:00,1886A,104.5742,28.7199,宜宾市,黄金嘴,,24,19,27,15,20,103,75,84,84,19,17,7,7,0.6,0.6
2022-06-12T20:00:00,1888A,101.6891,26.571,攀枝花市,弄弄坪,,45,43,31,31,20,118,56,84,80,31,23,9,12,1.1,1.1
2022-06-12T20:00:00,1889A,101.5769,26.5928,攀枝花市,河门口,,30,30,44,16,22,110,66,82,82,19,28,3,5,1.0,2.2
2022-06-12T20:00:00,1890A,101.7169,26.585,攀枝花市,炳草岗,,46,46,32,23,18,120,59,89,85,27,22,22,33,1.0,0.9
2022-06-12T20:00:00,1891A,101.7369,26.5008,攀枝花市,仁和,,41,41,37,28,26,97,91,81,81,12,16,15,20,0.5,0.6
2022-06-12T20:00:00,1893A,105.4324,28.9634,泸州市,九狮山(对照点),,28,27,21,19,13,83,57,69,67,9,10,5,5,0.4,0.4
2022-06-12T20:00:00,1894A,105.4427,28.9063,泸州市,小市上码头,,27,27,28,14,17,77,65,66,66,17,12,9,5,0.8,0.8
2022-06-12T20:00:00,1895A,105.4241,28.8573,泸州市,兰田宪桥,,28,28,29,17,17,86,71,71,71,9,15,8,16,0.5,0.5
2022-06-12T20:00:00,1896A,105.4379,28.8833,泸州市,市环监站,,26,26,29,10,11,90,72,71,71,18,16,7,4,0.6,0.5
2022-06-12T20:00:00,1901A,104.4239,31.1208,德阳市,东山公园,,39,39,35,17,18,133,112,118,117,19,12,7,5,0.5,0.4
2022-06-12T20:00:00,1902A,104.3826,31.1317,德阳市,西小区,,44,44,41,12,13,130,112,121,121,15,12,7,7,0.5,0.5
2022-06-12T20:00:00,1904A,104.3553,31.1091,德阳市,耐火材料厂,颗粒物(PM10),53,55,35,14,16,141,116,129,129,15,16,6,6,0.4,0.4
2022-06-12T20:00:00,1905A,106.056,30.8064,南充市,西山风景区(对照点),,26,15,23,9,17,92,83,80,80,11,10,4,4,0.5,0.5
2022-06-12T20:00:00,1906A,106.0789,30.8023,南充市,南充市委,,21,18,29,2,14,74,65,69,69,10,8,3,3,0.5,0.5
2022-06-12T20:00:00,1907A,106.1031,30.8217,南充市,南充炼油厂,,27,20,29,10,14,94,84,85,85,6,7,2,4,0.4,0.4
2022-06-12T20:00:00,1908A,106.1064,30.7856,南充市,高坪区监测站,,24,16,19,6,14,96,76,88,88,5,10,2,3,0.5,0.4
2022-06-12T20:00:00,1909A,106.0642,30.7636,南充市,嘉陵区环保局,,25,13,23,9,16,92,77,82,82,7,8,5,4,0.4,0.4
2022-06-12T20:00:00,1910A,106.1087,30.8388,南充市,市环境监测站,,,10,28,9,20,91,,82,82,,9,,3,0.4,0.4
2022-06-12T20:00:00,1911A,106.9222,27.6869,遵义市,丁字口,,19,18,16,13,13,70,40,67,44,19,16,6,6,0.7,0.6
2022-06-12T20:00:00,1912A,106.9242,27.7019,遵义市,凤凰山,,19,9,9,13,10,60,30,54,41,18,11,6,5,0.7,0.6
2022-06-12T20:00:00,1913A,106.8906,27.6486,遵义市,忠庄,,23,23,18,9,10,60,18,54,33,22,13,1,2,0.6,0.5
2022-06-12T20:00:00,1914A,106.9231,27.6506,遵义市,舟水桥,,10,10,12,4,6,55,31,51,43,8,8,1,1,0.5,0.5
2022-06-12T20:00:00,1915A,106.9178,27.72,遵义市,干田坝,,18,17,13,12,8,60,24,52,42,25,13,5,5,0.8,0.6
2022-06-12T20:00:00,1916A,103.7897,25.5035,曲靖市,环境监测站,,22,22,20,14,12,84,41,72,68,18,13,6,7,0.7,0.6
2022-06-12T20:00:00,1917A,103.8,25.5364,曲靖市,烟厂办公区,,17,17,19,3,11,90,48,76,73,19,10,4,5,0.7,0.7
2022-06-12T20:00:00,1918A,108.7197,34.3956,咸阳市,气象站(对照点),颗粒物(PM10),62,73,41,17,12,181,165,168,168,18,12,6,5,0.8,0.8
2022-06-12T20:00:00,1919A,108.673,34.3155,咸阳市,实验中学,,48,30,24,15,13,175,153,161,161,16,10,3,3,0.3,0.3
2022-06-12T20:00:00,1920A,108.7233,34.3617,咸阳市,师范学院,臭氧1小时,60,43,30,15,13,186,168,175,175,16,10,10,7,0.4,0.4
2022-06-12T20:00:00,1922A,109.0656,35.0994,铜川市,党校(对照点),,34,25,30,17,34,170,108,147,144,18,15,7,7,0.7,0.7
2022-06-12T20:00:00,1923A,109.0697,35.0697,铜川市,王益区政府,,37,37,32,13,14,177,113,154,150,23,14,4,4,0.5,0.5
2022-06-12T20:00:00,1924A,108.9344,34.9058,铜川市,新区管委会,,32,32,30,12,15,164,89,149,139,20,12,4,6,0.4,0.4
2022-06-12T20:00:00,1926A,109.4131,36.6275,延安市,枣园(对照点),,29,28,28,6,10,136,92,131,127,13,9,4,4,0.3,0.3
2022-06-12T20:00:00,1927A,109.4761,36.6028,延安市,延大医附院,,40,40,31,10,10,139,95,134,129,22,11,4,4,0.3,0.3
2022-06-12T20:00:00,1929A,109.5056,36.6106,延安市,百米大道,,,,32,16,13,131,84,125,120,32,13,4,4,0.5,0.4
2022-06-12T20:00:00,1930A,107.185,34.3063,宝鸡市,庙沟村(对照点),,30,30,28,14,13,135,95,123,121,11,9,4,4,0.3,0.3
2022-06-12T20:00:00,1931A,107.0708,34.3017,宝鸡市,竹园沟,,30,30,24,9,13,147,88,123,120,10,6,4,4,0.5,0.5
2022-06-12T20:00:00,1932A,107.1906,34.3672,宝鸡市,三陆医院,,39,26,27,8,14,156,124,142,142,16,12,6,8,0.4,0.4
2022-06-12T20:00:00,1933A,107.1431,34.3547,宝鸡市,监测站,,40,40,27,16,16,154,97,141,138,24,15,5,5,0.4,0.5
2022-06-12T20:00:00,1934A,107.1186,34.3739,宝鸡市,技工学校,,34,25,25,13,13,155,108,142,141,18,9,5,4,0.5,0.4
2022-06-12T20:00:00,1935A,107.3906,34.3528,宝鸡市,陈仓区环保局家属楼,,32,32,27,9,13,143,93,135,130,46,14,7,6,0.5,0.5
2022-06-12T20:00:00,1936A,107.2058,34.3497,宝鸡市,文理学院,,42,29,26,6,14,156,134,146,146,20,14,8,7,0.3,0.3
2022-06-12T20:00:00,1937A,107.2386,34.3622,宝鸡市,三迪小学,,36,31,26,6,14,152,115,142,140,27,14,8,8,0.3,0.3
2022-06-12T20:00:00,1938A,109.5293,34.5101,渭南市,农科所(对照点),,39,24,39,14,21,147,122,139,139,28,19,8,8,0.4,0.4
2022-06-12T20:00:00,1939A,109.4974,34.4877,渭南市,日报社,,36,24,40,9,20,169,114,154,151,53,25,5,5,0.5,0.5
2022-06-12T20:00:00,1940A,109.4636,34.493,渭南市,体育馆,,42,19,37,10,15,183,134,170,168,46,22,5,7,0.5,0.5
2022-06-12T20:00:00,1941A,109.4259,34.5023,渭南市,高新一小,,43,32,46,12,17,180,137,173,168,23,16,3,5,0.5,0.6
2022-06-12T20:00:00,1943A,102.1725,38.5339,金昌市,新川苑,,37,13,90,8,18,118,118,113,113,10,13,4,6,0.4,0.4
2022-06-12T20:00:00,1944A,102.1692,38.5167,金昌市,天庆家园,,40,10,70,5,20,126,126,122,122,4,11,5,9,0.4,0.5
2022-06-12T20:00:00,1945A,98.2908,39.7711,嘉峪关市,气象局,,42,24,42,9,12,140,133,133,133,5,17,2,4,0.5,0.5
2022-06-12T20:00:00,1947A,106.3394,38.817,石嘴山市,沙湖旅游区(对照点),颗粒物(PM10),55,59,79,7,26,154,103,146,142,12,28,26,29,0.2,0.6
2022-06-12T20:00:00,1948A,106.3668,39.0145,石嘴山市,大武口朝阳西街,,47,47,52,14,18,147,110,126,126,9,21,8,20,0.3,0.7
2022-06-12T20:00:00,1949A,106.7704,39.2282,石嘴山市,惠农南大街,颗粒物(PM10),70,89,64,16,26,115,104,112,112,14,26,7,18,0.4,0.5
2022-06-12T20:00:00,1950A,106.7099,39.1325,石嘴山市,红果子镇惠新街,颗粒物(PM10),64,77,73,13,16,119,107,112,112,11,30,10,20,0.4,0.6
2022-06-12T20:00:00,1951A,84.895,45.6094,克拉玛依市,长征新村,,42,35,37,10,5,141,134,136,136,10,10,6,6,0.2,0.2
2022-06-12T20:00:00,1952A,84.8988,45.5893,克拉玛依市,南林小区,,36,36,35,3,9,143,96,129,129,34,26,9,8,0.4,0.4
2022-06-12T20:00:00,1954A,84.905,44.3396,克拉玛依市,独山子区,,47,39,31,18,13,173,150,152,152,13,8,43,9,0.5,0.3
2022-06-12T20:00:00,1955A,85.6979,46.098,克拉玛依市,乌尔禾区商贸楼,,26,14,26,12,10,127,83,119,118,25,8,11,11,0.4,0.2
2022-06-12T20:00:00,1956A,86.1472,41.7538,巴音郭楞州,孔雀公园,颗粒物(PM10),51,52,53,18,12,130,125,122,122,5,10,3,3,0.5,0.5
2022-06-12T20:00:00,1957A,86.1972,41.7166,巴音郭楞州,棉纺厂,,40,4,43,7,22,126,126,116,116,10,12,5,5,0.5,0.5
2022-06-12T20:00:00,1958A,86.2357,41.7173,巴音郭楞州,经济开发区,,44,39,45,16,17,138,138,125,125,10,8,3,3,0.5,0.5
2022-06-12T20:00:00,1961A,117.532,36.6868,济南市,东山小学,,44,44,69,20,24,181,138,172,166,19,21,10,12,0.3,0.3
2022-06-12T20:00:00,1966A,120.0405,35.8735,青岛市,黄岛区4号,,31,22,22,9,8,104,97,94,90,5,5,6,6,0.4,0.3
2022-06-12T20:00:00,1982A,122.0693,37.2174,威海市,文登开发区,,33,27,38,17,22,137,103,120,118,14,14,5,4,0.4,0.3
2022-06-12T20:00:00,2031A,113.1817,27.9958,株洲市,云田中学,,18,7,15,4,7,99,56,93,65,6,5,4,5,0.5,0.5
2022-06-12T20:00:00,2054A,114.1099,32.1059,信阳市,平桥分局,,31,26,26,17,14,129,98,116,113,8,10,7,7,0.4,0.4
2022-06-12T20:00:00,2064A,113.9956,32.1271,信阳市,南湾水厂,,31,20,22,8,10,133,98,111,105,3,5,4,4,0.3,0.3
2022-06-12T20:00:00,2065A,114.0775,32.1195,信阳市,市酿酒公司,,31,22,24,13,14,133,97,118,113,9,8,6,7,0.3,0.3
2022-06-12T20:00:00,2066A,114.0609,32.1399,信阳市,审计局,,32,30,30,12,13,131,101,118,112,6,6,4,5,0.6,0.5
2022-06-12T20:00:00,2067A,114.6613,33.6128,周口市,市环境监测站,颗粒物(PM10),57,63,45,22,18,177,123,161,157,14,13,4,6,0.8,0.6
2022-06-12T20:00:00,2068A,114.6758,33.6347,周口市,周口师范,颗粒物(PM10),55,59,48,35,28,174,125,164,161,15,15,4,6,0.5,0.5
2022-06-12T20:00:00,2069A,114.6546,33.5979,周口市,市运管处,,44,44,46,19,24,174,121,158,154,15,16,4,5,0.6,0.5
2022-06-12T20:00:00,2070A,114.6369,33.6406,周口市,川汇区环保局,颗粒物(PM10),59,68,49,30,21,181,128,162,159,13,13,2,4,0.5,0.4
2022-06-12T20:00:00,2075A,117.6336,24.4674,漳州市,九湖(对照点),,,,,,,72,37,69,51,26,12,6,7,0.6,0.5
2022-06-12T20:00:00,2160A,112.85,35.5051,晋城市,自来水公司,,42,31,37,14,18,190,132,144,144,16,18,4,5,0.5,0.5
2022-06-12T20:00:00,2161A,112.8318,35.4936,晋城市,白云商贸,,45,45,42,22,16,152,131,139,139,14,17,4,5,0.5,0.5
2022-06-12T20:00:00,2162A,112.8508,35.4887,晋城市,市环保局,,43,43,36,22,20,185,133,142,142,14,16,5,5,0.5,0.4
2022-06-12T20:00:00,2163A,112.8676,35.4897,晋城市,技术学院,,45,45,40,12,16,183,130,142,142,15,17,2,3,0.3,0.3
2022-06-12T20:00:00,2165A,112.8453,35.546,晋城市,白马寺 (对照点),,46,39,49,5,12,219,146,165,165,16,15,5,6,0.5,0.5
2022-06-12T20:00:00,2166A,112.4397,39.3522,朔州市,平朔,颗粒物(PM10),53,56,35,8,14,130,114,122,122,9,16,7,8,0.3,0.5
2022-06-12T20:00:00,2167A,112.4575,39.3617,朔州市,朔唯,颗粒物(PM10),54,58,47,12,18,132,117,122,122,10,26,2,4,0.4,0.6
2022-06-12T20:00:00,2168A,112.4258,39.3197,朔州市,区政府,颗粒物(PM10),56,61,45,9,12,137,120,128,128,13,16,3,5,0.4,0.4
2022-06-12T20:00:00,2169A,112.4072,39.3278,朔州市,市环保局,,49,49,43,5,10,127,114,121,120,11,16,4,5,0.3,0.4
2022-06-12T20:00:00,2170A,112.4272,39.3681,朔州市,市二中,,50,50,39,12,19,127,111,119,118,13,20,8,9,0.4,0.5
2022-06-12T20:00:00,2171A,112.7532,37.6945,晋中市,锦纶小区,,44,18,49,7,33,207,138,188,184,15,14,5,8,0.2,0.5
2022-06-12T20:00:00,2173A,112.7249,37.7067,晋中市,南都小区,,40,21,48,8,33,204,128,180,176,19,14,4,7,0.1,0.5
2022-06-12T20:00:00,2174A,112.6991,37.6982,晋中市,榆次区政府,,42,14,52,15,35,205,132,181,177,10,11,4,7,0.4,0.7
2022-06-12T20:00:00,2175A,110.9956,35.0147,运城市,运城中学,,44,21,42,18,30,177,138,149,145,8,7,5,6,0.7,0.6
2022-06-12T20:00:00,2178A,110.9686,35.0303,运城市,地区技校,,41,24,38,14,23,165,129,146,136,9,9,4,4,0.5,0.6
2022-06-12T20:00:00,2179A,111.0414,35.1147,运城市,空港新区,,43,18,45,14,25,178,137,151,151,7,8,6,7,0.7,0.7
2022-06-12T20:00:00,2181A,112.7383,38.4519,忻州市,开发区,,40,40,46,23,33,160,127,148,148,29,17,11,12,0.4,0.6
2022-06-12T20:00:00,2182A,112.7003,38.4928,忻州市,会展中心,,39,39,48,7,29,150,96,134,132,37,19,8,10,0.5,0.6
2022-06-12T20:00:00,2183A,111.1406,37.5211,吕梁市,环保局,,46,46,43,13,12,132,92,125,121,36,29,8,10,0.2,0.3
2022-06-12T20:00:00,2185A,111.1297,37.5136,吕梁市,自来水公司,,38,38,44,8,11,128,92,119,116,33,25,8,9,0.2,0.3
2022-06-12T20:00:00,2187A,106.8174,39.6973,乌海市,市林业局,颗粒物(PM10),57,63,54,12,17,114,108,110,110,4,19,5,14,0.3,0.6
2022-06-12T20:00:00,2188A,106.7907,39.6667,乌海市,中海勃湾学校,,43,43,43,18,16,118,114,115,115,5,17,7,17,0.3,0.5
2022-06-12T20:00:00,2191A,122.2532,43.6801,通辽市,艺术职业学校,,,33,7,,0,115,94,74,74,15,15,3,4,2.4,2.2
2022-06-12T20:00:00,2192A,119.7594,49.2261,呼伦贝尔市,区环保局,,33,23,26,23,24,122,87,113,109,12,9,5,5,0.4,0.5
2022-06-12T20:00:00,2195A,107.4212,40.761,巴彦淖尔市,附二中,颗粒物(PM10),90,129,59,15,16,115,112,111,111,8,11,5,5,0.4,0.4
2022-06-12T20:00:00,2196A,107.37,40.7372,巴彦淖尔市,市环保大楼,颗粒物(PM10),80,110,53,17,22,116,114,112,112,8,9,5,8,0.3,0.4
2022-06-12T20:00:00,2197A,113.1306,40.9923,乌兰察布市,集宁新区,,32,18,45,10,16,117,100,113,110,8,12,8,8,0.4,0.3
2022-06-12T20:00:00,2200A,122.0392,46.0656,兴安盟,胜华新制药厂,,39,26,28,27,23,115,105,103,103,4,6,2,3,0.2,0.3
2022-06-12T20:00:00,2201A,121.9504,46.0741,兴安盟,科右前旗环保局,,35,20,28,23,21,127,109,114,112,5,6,3,4,0.3,0.2
2022-06-12T20:00:00,2202A,116.1042,43.9317,锡林郭勒盟,市环保监测站,,27,13,24,4,7,108,86,97,93,6,4,12,11,0.5,0.5
2022-06-12T20:00:00,2203A,116.0781,43.9311,锡林郭勒盟,市政府,,29,16,24,3,6,112,90,103,97,7,7,9,7,0.3,0.2
2022-06-12T20:00:00,2204A,105.6467,38.8363,阿拉善盟,西城区西花园(对照点),,35,32,23,14,9,119,111,116,116,6,8,7,6,0.3,0.3
2022-06-12T20:00:00,2205A,105.6985,38.8411,阿拉善盟,蒙二幼,,35,31,17,8,13,122,112,117,117,6,6,6,7,0.2,0.2
2022-06-12T20:00:00,2206A,105.724,38.8516,阿拉善盟,环保局新楼,,40,30,17,28,16,115,111,111,111,6,6,7,7,0.2,0.3
2022-06-12T20:00:00,2207A,121.6094,41.998,阜新市,工业园区,细颗粒物(PM2.5),52,52,30,36,19,109,92,103,86,12,15,10,14,0.7,0.7
2022-06-12T20:00:00,2208A,121.6697,42.0279,阜新市,长青街,,38,38,28,24,16,109,86,97,80,11,14,10,13,0.6,0.6
2022-06-12T20:00:00,2209A,121.6673,42.0705,阜新市,农业园区,,39,25,29,27,18,124,95,116,90,9,10,8,9,0.6,0.6
2022-06-12T20:00:00,2210A,121.6717,42.0224,阜新市,东苑,,40,33,33,28,18,123,86,110,85,18,18,7,10,0.6,0.6
2022-06-12T20:00:00,2211A,121.6506,42.0498,阜新市,玉龙新城,,35,31,30,24,15,114,86,101,81,10,11,8,11,0.4,0.4
2022-06-12T20:00:00,2212A,123.2,41.1953,辽阳市,宏伟区,,27,9,26,6,11,124,86,114,83,4,9,7,7,0.4,0.5
2022-06-12T20:00:00,2213A,123.1683,41.2495,辽阳市,新华园,,27,10,44,7,17,120,86,108,85,7,16,4,9,0.2,0.4
2022-06-12T20:00:00,2214A,123.2354,41.2639,辽阳市,滨河路,,27,16,32,11,15,108,85,100,80,5,12,6,11,0.4,0.6
2022-06-12T20:00:00,2215A,123.149,41.2991,辽阳市,铁西工业园,,27,10,42,11,22,110,84,96,79,8,21,5,7,0.5,0.7
2022-06-12T20:00:00,2216A,123.8139,42.3022,铁岭市,汇工街西,,36,32,60,10,25,133,115,113,106,15,32,7,10,0.3,0.5
2022-06-12T20:00:00,2217A,123.8649,42.2923,铁岭市,水上乐园,,32,29,47,17,42,125,102,103,95,23,32,5,6,0.3,0.5
2022-06-12T20:00:00,2218A,123.8486,42.2867,铁岭市,银州路东段,,34,31,55,10,24,116,106,100,95,15,32,6,6,0.4,0.5
2022-06-12T20:00:00,2219A,123.7153,42.2217,铁岭市,金沙江路北,,34,22,44,10,21,121,106,100,94,18,38,7,7,0.4,0.6
2022-06-12T20:00:00,2220A,120.4318,41.5881,朝阳市,西梁,,28,22,23,9,13,96,87,86,84,10,8,7,7,0.7,0.6
2022-06-12T20:00:00,2221A,120.4521,41.5646,朝阳市,河畔小区,,30,25,22,15,16,106,95,96,95,7,7,10,11,0.6,0.5
2022-06-12T20:00:00,2222A,120.4176,41.5648,朝阳市,八里堡,,34,34,24,12,17,101,81,90,87,12,10,6,6,0.7,0.6
2022-06-12T20:00:00,2223A,120.3806,41.5969,朝阳市,农业园区,,28,24,22,16,16,98,89,88,87,10,10,7,8,0.7,0.6
2022-06-12T20:00:00,2225A,124.4002,43.1713,四平市,一商场,,26,26,49,14,24,124,82,110,99,22,40,9,11,0.5,0.5
2022-06-12T20:00:00,2226A,124.388,43.193,四平市,境园,,24,20,40,9,19,107,75,95,86,18,33,5,6,0.3,0.5
2022-06-12T20:00:00,2227A,125.1358,42.8845,辽源市,环保局,,32,30,36,22,24,126,101,117,103,7,18,16,17,0.5,0.5
2022-06-12T20:00:00,2229A,125.9358,41.7173,通化市,光明,,33,27,22,15,11,123,104,115,115,8,9,10,9,0.7,0.7
2022-06-12T20:00:00,2230A,125.9446,41.7325,通化市,铁路,,35,32,20,24,12,117,102,111,110,7,12,7,7,0.7,0.7
2022-06-12T20:00:00,2231A,126.4219,41.9171,白山市,喜丰,,46,46,39,13,12,105,103,95,95,11,19,11,11,0.7,0.6
2022-06-12T20:00:00,2232A,126.4077,41.9419,白山市,环保局,,34,30,26,16,12,117,107,110,110,11,14,9,9,0.8,0.6
2022-06-12T20:00:00,2233A,124.8006,45.1214,松原市,江南,,31,22,29,18,26,116,97,97,96,25,31,6,8,0.7,0.6
2022-06-12T20:00:00,2234A,124.7965,45.1722,松原市,江北,,35,22,39,24,28,103,94,96,95,16,20,3,3,0.7,0.7
2022-06-12T20:00:00,2235A,122.7911,45.6077,白城市,洮北区环保局,,34,27,33,12,17,113,106,102,102,12,12,5,6,0.3,0.2
2022-06-12T20:00:00,2236A,122.8738,45.5725,白城市,市环保局,,32,24,35,16,23,100,100,93,93,12,12,5,5,0.3,0.2
2022-06-12T20:00:00,2237A,129.47,42.8883,延边朝鲜族自治州,妇幼医院,,28,28,21,8,12,88,62,79,77,13,11,6,6,0.5,0.5
2022-06-12T20:00:00,2238A,129.5055,42.9108,延边朝鲜族自治州,延边医院,,29,29,26,10,16,94,70,84,82,8,9,6,6,0.5,0.5
2022-06-12T20:00:00,2239A,129.3964,42.8881,延边朝鲜族自治州,朝阳川镇医院,,26,26,26,8,11,90,61,80,78,13,12,4,4,0.4,0.4
2022-06-12T20:00:00,2240A,130.9762,45.3001,鸡西市,环保局,,22,22,33,10,12,103,59,87,75,16,31,2,4,0.2,0.3
2022-06-12T20:00:00,2243A,130.9429,45.3039,鸡西市,第一中学,,26,26,29,10,9,109,63,93,80,16,24,5,6,0.2,0.2
2022-06-12T20:00:00,2244A,130.2537,47.3416,鹤岗市,哈啤分公司,,30,30,34,15,9,149,94,140,135,15,14,5,6,0.3,0.3
2022-06-12T20:00:00,2245A,130.2684,47.3086,鹤岗市,斯达机电,,27,27,37,16,11,138,85,128,123,9,11,9,11,0.2,0.3
2022-06-12T20:00:00,2246A,130.3114,47.3388,鹤岗市,东山纸板厂,,38,38,66,9,21,134,71,123,116,21,18,9,10,0.3,0.4
2022-06-12T20:00:00,2247A,130.1097,47.3382,鹤岗市,五号水库(对照点),,36,36,19,22,11,141,87,129,124,15,11,7,8,0.3,0.2
2022-06-12T20:00:00,2248A,131.1511,46.6937,双鸭山市,双合村,颗粒物(PM10),56,61,52,9,27,136,89,124,116,24,25,8,28,0.2,1.3
2022-06-12T20:00:00,2249A,131.1652,46.6191,双鸭山市,南小市,,46,46,26,22,12,126,69,113,103,25,10,5,5,0.2,0.1
2022-06-12T20:00:00,2250A,131.1524,46.6554,双鸭山市,环保局,,31,31,26,16,15,133,90,121,115,22,20,13,11,0.8,0.7
2022-06-12T20:00:00,2251A,131.12,46.5656,双鸭山市,苗圃(对照点),,46,29,13,32,15,128,74,121,109,8,4,1,2,0.4,0.3
2022-06-12T20:00:00,2252A,128.5159,47.4311,伊春市,环保局,,30,22,12,21,11,114,86,103,101,12,6,5,6,0.3,0.3
2022-06-12T20:00:00,2253A,128.9102,47.7412,伊春市,电力嘉园,,32,24,20,16,9,115,101,111,110,11,8,6,8,0.5,0.5
2022-06-12T20:00:00,2254A,129.5029,48.471,伊春市,汤旺河国家公园(对照点),,20,12,7,10,5,120,62,99,93,4,4,6,6,0.3,0.3
2022-06-12T20:00:00,2255A,130.2751,46.8028,佳木斯市,佳纺,颗粒物(PM10),54,58,52,22,21,128,43,119,107,44,31,3,3,0.5,0.3
2022-06-12T20:00:00,2256A,130.3995,46.8307,佳木斯市,发电厂,,50,50,35,17,15,147,62,137,125,34,28,8,8,0.4,0.4
2022-06-12T20:00:00,2257A,130.3258,46.7975,佳木斯市,环保局,,35,35,44,13,17,125,59,109,101,48,39,3,3,0.6,0.5
2022-06-12T20:00:00,2258A,130.3648,46.8032,佳木斯市,十一中,,43,43,53,20,22,125,69,117,108,36,44,8,8,0.6,0.6
2022-06-12T20:00:00,2259A,130.3794,46.7588,佳木斯市,四丰(对照点),,28,19,25,14,13,124,87,120,114,18,25,5,7,0.3,0.4
2022-06-12T20:00:00,2262A,131.0518,45.8751,七台河市,新一中(对照点),,38,24,18,26,14,119,70,111,102,17,24,6,7,0.6,0.6
2022-06-12T20:00:00,2263A,127.4833,50.2524,黑河市,交通局,,25,21,22,15,12,123,79,116,110,16,15,4,5,0.4,0.6
2022-06-12T20:00:00,2264A,127.5144,50.2341,黑河市,环保局,,28,16,23,9,10,128,87,121,114,11,14,2,3,0.4,0.5
2022-06-12T20:00:00,2265A,127.5291,50.2472,黑河市,大黑河岛(对照点),,39,39,23,18,10,137,79,130,118,11,9,5,6,0.5,0.5
2022-06-12T20:00:00,2266A,126.9785,46.6365,绥化市,人和东街,,50,50,29,12,12,121,87,110,107,17,19,14,10,0.2,0.4
2022-06-12T20:00:00,2267A,126.964,46.6528,绥化市,党政办公中心,,33,33,26,13,12,116,80,106,104,21,17,26,9,0.4,0.3
2022-06-12T20:00:00,2269A,124.1069,50.4097,大兴安岭地区,科技局,,35,9,19,9,11,133,110,121,120,5,13,4,5,0.3,0.3
2022-06-12T20:00:00,2270A,117.396,32.939,蚌埠市,工人疗养院,,36,33,38,25,18,152,111,138,118,8,11,6,7,0.3,0.3
2022-06-12T20:00:00,2271A,117.3605,32.9427,蚌埠市,百货大楼,颗粒物(PM10),53,55,42,11,11,152,111,140,118,11,12,6,7,0.4,0.4
2022-06-12T20:00:00,2273A,117.4185,32.8911,蚌埠市,蚌埠学院,,34,34,39,17,17,139,101,116,114,11,12,8,8,0.3,0.3
2022-06-12T20:00:00,2274A,117.3533,32.9673,蚌埠市,淮上区政府,,35,31,45,17,18,148,110,140,116,8,14,8,10,0.4,0.3
2022-06-12T20:00:00,2275A,117.3145,32.8977,蚌埠市,高新区,,44,44,47,22,20,146,108,136,121,17,14,7,7,0.4,0.4
2022-06-12T20:00:00,2277A,116.8305,32.7727,淮南市,潘集区政府,,36,34,42,25,21,155,110,131,121,14,14,5,8,0.1,0.3
2022-06-12T20:00:00,2278A,117.0067,32.6524,淮南市,师范学院,,42,17,37,29,20,154,97,127,115,15,11,6,7,0.2,0.2
2022-06-12T20:00:00,2279A,116.8569,32.5951,淮南市,谢家集区政府,,33,33,35,17,18,140,97,112,111,14,11,5,6,0.2,0.2
2022-06-12T20:00:00,2280A,116.8281,32.633,淮南市,八公山区政府,,41,41,42,24,20,143,97,116,110,15,11,8,11,0.3,0.3
2022-06-12T20:00:00,2281A,116.6325,32.6201,淮南市,焦岗湖风景区管理处(对照点),,38,36,33,24,17,138,121,126,126,13,13,11,11,0.2,0.2
2022-06-12T20:00:00,2282A,116.8004,33.975,淮北市,监测站,,45,45,48,22,23,146,125,130,130,8,9,5,6,0.4,0.4
2022-06-12T20:00:00,2283A,116.8091,33.9007,淮北市,烈山区政府,,41,36,44,18,23,150,130,138,138,12,11,6,7,0.4,0.4
2022-06-12T20:00:00,2284A,116.7856,33.9477,淮北市,职业技术学院,,42,36,46,21,22,148,133,136,136,9,9,5,6,0.5,0.6
2022-06-12T20:00:00,2285A,117.8177,30.9412,铜陵市,市第四中学,,23,15,15,15,8,117,72,103,83,8,8,6,7,0.2,0.2
2022-06-12T20:00:00,2286A,117.8059,30.9273,铜陵市,市公路局,,33,33,22,9,12,107,57,96,72,12,9,5,6,0.4,0.3
2022-06-12T20:00:00,2287A,117.7807,30.9413,铜陵市,市新民污水厂,,37,37,37,15,17,109,62,101,74,10,12,4,6,0.3,0.3
2022-06-12T20:00:00,2288A,117.7439,30.8792,铜陵市,市第九中学,,20,20,22,1,9,111,57,87,66,12,15,3,3,0.4,0.4
2022-06-12T20:00:00,2289A,117.846,30.9413,铜陵市,车站新区,,30,30,30,7,13,108,68,91,78,12,11,5,6,0.5,0.4
2022-06-12T20:00:00,2290A,117.8483,30.97,铜陵市,市职教基地,,24,11,22,5,10,108,75,90,80,8,10,4,5,0.2,0.2
2022-06-12T20:00:00,2291A,117.0809,30.5177,安庆市,环科院,,29,14,16,11,10,110,91,105,103,11,13,6,8,0.6,0.6
2022-06-12T20:00:00,2292A,117.0331,30.5119,安庆市,马山宾馆,,26,19,14,12,10,109,81,99,98,9,11,2,4,0.5,0.5
2022-06-12T20:00:00,2294A,116.9896,30.6145,安庆市,安庆大学,,25,25,16,10,11,112,57,94,87,16,20,4,4,0.5,0.6
2022-06-12T20:00:00,2295A,118.2903,29.6963,黄山市,延安路89号,,18,16,18,3,5,104,55,76,62,5,5,6,7,0.4,0.4
2022-06-12T20:00:00,2296A,118.327,29.7178,黄山市,黄山东路89号,,16,8,7,1,4,101,51,94,58,5,4,6,6,0.4,0.4
2022-06-12T20:00:00,2297A,118.1371,30.2756,黄山市,黄山区政府5号楼,,15,8,15,6,5,103,48,63,60,5,5,6,6,0.3,0.3
2022-06-12T20:00:00,2298A,118.3093,32.3153,滁州市,老年大学,,41,41,37,21,17,157,97,114,107,26,16,10,10,0.3,0.2
2022-06-12T20:00:00,2299A,118.3244,32.2786,滁州市,人大宾馆,,32,24,30,12,14,152,100,116,105,18,14,5,6,0.3,0.3
2022-06-12T20:00:00,2301A,115.8277,32.8929,阜阳市,市监测站,,40,40,35,14,17,143,122,133,133,10,13,5,6,0.4,0.4
2022-06-12T20:00:00,2303A,115.8554,32.8605,阜阳市,开发区,,39,39,34,16,17,137,117,133,128,12,15,6,8,0.4,0.4
2022-06-12T20:00:00,2307A,116.5079,31.737,六安市,监测大楼,,30,17,26,3,9,145,94,113,110,7,6,5,6,0.3,0.3
2022-06-12T20:00:00,2308A,116.4738,31.7643,六安市,皖西学院,,33,22,29,13,14,148,104,120,116,13,10,7,9,0.3,0.3
2022-06-12T20:00:00,2309A,116.4996,31.7905,六安市,朝阳厂,,30,20,27,11,10,139,93,115,106,11,8,6,8,0.3,0.3
2022-06-12T20:00:00,2310A,116.5567,31.7886,六安市,开发区,,34,34,31,20,16,146,98,124,107,7,8,6,8,0.4,0.5
2022-06-12T20:00:00,2311A,115.8072,33.8399,亳州市,污水处理厂,,47,37,39,16,20,170,148,151,151,6,8,6,8,0.3,0.3
2022-06-12T20:00:00,2312A,115.7789,33.8518,亳州市,三国揽胜宫,,45,43,45,11,18,159,141,139,139,8,9,4,6,0.4,0.5
2022-06-12T20:00:00,2314A,117.47,30.6618,池州市,池州学院,,21,12,16,7,9,106,66,85,82,5,8,4,5,0.3,0.6
2022-06-12T20:00:00,2316A,118.7581,30.9454,宣城市,鳌峰子站,,32,23,26,22,17,106,67,79,66,24,19,5,5,0.4,0.4
2022-06-12T20:00:00,2317A,118.7385,30.9743,宣城市,敬亭山子站,,26,19,24,18,15,112,59,72,57,22,17,4,5,0.3,0.3
2022-06-12T20:00:00,2318A,118.7173,30.9427,宣城市,开发区子站,,30,20,21,21,15,99,72,87,70,24,16,5,5,0.4,0.3
2022-06-12T20:00:00,2319A,119.0141,25.4325,莆田市,荔城区仓后路,,34,34,20,16,7,75,70,73,66,18,15,5,5,0.7,0.6
2022-06-12T20:00:00,2320A,119.0015,25.4553,莆田市,莆田市监测站,,30,30,18,18,9,76,68,68,68,16,11,4,4,0.9,0.7
2022-06-12T20:00:00,2321A,119.1119,25.4561,莆田市,涵江区六中,,28,21,14,19,10,84,66,73,73,17,14,5,5,0.6,0.6
2022-06-12T20:00:00,2322A,119.1013,25.3215,莆田市,秀屿区政府,,40,33,20,28,14,85,56,68,67,14,14,5,6,0.9,0.7
2022-06-12T20:00:00,2324A,117.6211,26.2625,三明市,三钢,,23,23,14,10,8,61,18,55,45,42,16,2,2,1.4,0.5
2022-06-12T20:00:00,2325A,117.635,26.2714,三明市,三明二中,,23,22,11,16,5,61,20,54,44,38,15,2,2,1.4,0.6
2022-06-12T20:00:00,2326A,117.6028,26.2378,三明市,三元区政府,,23,23,11,11,8,59,16,55,44,46,17,3,3,1.6,0.8
2022-06-12T20:00:00,2327A,117.7275,26.3108,三明市,洋溪(对照点),,19,19,12,8,5,69,31,69,51,16,9,4,5,0.7,0.6
2022-06-12T20:00:00,2331A,118.0966,26.6761,南平市,茫荡山(对照点),,18,4,1,3,2,89,55,88,58,2,1,4,4,0.7,0.7
2022-06-12T20:00:00,2332A,118.1681,26.6369,南平市,南平市监测站,,13,13,7,5,4,82,38,76,58,11,6,4,5,0.6,0.5
2022-06-12T20:00:00,2333A,118.1825,26.6489,南平市,南平铝业有限公司,,14,6,11,4,4,81,43,74,58,12,9,4,5,0.7,0.6
2022-06-12T20:00:00,2334A,118.1756,26.6272,南平市,南平七中,,18,5,8,0,4,85,55,70,58,5,5,2,2,0.4,0.5
2022-06-12T20:00:00,2335A,117.0189,25.1181,龙岩市,龙岩师专(对照点),,13,7,10,6,6,52,41,40,40,12,14,6,7,0.7,0.7
2022-06-12T20:00:00,2336A,117.0217,25.1033,龙岩市,龙岩市监测站,,15,12,12,10,7,48,39,40,40,14,17,5,5,0.6,0.6
2022-06-12T20:00:00,2337A,117.0258,25.0661,龙岩市,闽西职业技术学院,颗粒物(PM10),52,54,13,3,5,43,25,40,38,17,13,4,6,0.5,0.5
2022-06-12T20:00:00,2338A,117.0196,25.0306,龙岩市,龙岩学院,,13,13,12,4,2,46,34,40,40,7,9,2,2,0.3,0.4
2022-06-12T20:00:00,2339A,119.5001,26.6946,宁德市,金涵水库(对照点),,25,15,9,17,18,88,73,88,64,7,11,7,7,0.5,0.5
2022-06-12T20:00:00,2341A,119.5388,26.6612,宁德市,宁德市监测站,,21,11,9,6,6,89,66,89,59,13,13,5,6,0.7,0.5
2022-06-12T20:00:00,2342A,117.3102,29.3867,景德镇市,王港中学(对照点),,,14,15,13,7,151,,78,78,5,7,4,4,0.6,0.6
2022-06-12T20:00:00,2343A,117.2117,29.2933,景德镇市,老干部活动中心,,28,28,31,10,10,80,48,78,55,10,10,4,4,0.3,0.3
2022-06-12T20:00:00,2344A,117.1894,29.2789,景德镇市,兽医站,,15,10,11,7,10,82,47,81,50,8,9,4,4,0.5,0.5
2022-06-12T20:00:00,2345A,117.1547,29.2617,景德镇市,台达陶瓷,,15,15,14,6,5,84,48,84,54,15,10,6,2,0.6,0.5
2022-06-12T20:00:00,2346A,117.2461,29.2956,景德镇市,陶研所,,16,12,16,2,8,86,51,84,61,7,5,7,4,0.4,0.3
2022-06-12T20:00:00,2347A,114.0997,27.5002,萍乡市,武功山(对照点),,19,3,3,2,4,58,58,50,50,6,4,18,17,0.2,0.3
2022-06-12T20:00:00,2348A,113.8385,27.6434,萍乡市,中医院,,21,1,13,8,15,102,65,72,65,11,12,5,9,0.6,0.6
2022-06-12T20:00:00,2349A,113.8493,27.6253,萍乡市,市政府车库,,19,10,24,0,8,84,58,70,59,14,16,6,12,0.6,1.4
2022-06-12T20:00:00,2350A,113.8676,27.6435,萍乡市,市环保局,,22,8,18,11,16,94,68,69,67,7,10,7,12,0.3,0.4
2022-06-12T20:00:00,2351A,113.866,27.6198,萍乡市,安源区政府,,21,21,30,11,13,78,60,62,55,9,21,8,16,0.3,1.2
2022-06-12T20:00:00,2352A,115.0861,27.9317,新余市,北岗(对照点),,20,8,22,6,16,73,62,63,63,7,15,8,11,0.3,0.5
2022-06-12T20:00:00,2353A,114.9886,27.8431,新余市,飞宇,,20,20,35,10,19,75,51,60,60,20,15,23,14,0.3,0.5
2022-06-12T20:00:00,2354A,114.9231,27.8246,新余市,第二水厂,,21,21,27,10,16,77,66,64,64,15,19,8,9,0.7,0.8
2022-06-12T20:00:00,2355A,114.9308,27.8036,新余市,市气象局,,21,19,32,13,18,75,66,60,60,13,19,9,11,0.7,0.7
2022-06-12T20:00:00,2357A,116.9822,28.1136,鹰潭市,龙虎山(对照点),,22,16,26,15,12,86,49,62,50,14,6,2,4,0.7,0.5
2022-06-12T20:00:00,2358A,117.0564,28.2642,鹰潭市,新监测站,,20,20,24,9,11,89,53,74,57,9,9,20,30,0.8,0.8
2022-06-12T20:00:00,2359A,117.0311,28.2475,鹰潭市,财苑宾馆,,18,18,21,2,10,78,55,67,58,9,7,2,11,0.6,0.5
2022-06-12T20:00:00,2360A,117.0222,28.2264,鹰潭市,体育馆,,23,23,24,9,13,75,55,67,54,12,9,32,29,0.7,0.6
2022-06-12T20:00:00,2361A,117.0017,28.2131,鹰潭市,三川水表,,19,19,27,7,14,75,47,66,51,20,15,19,29,1.1,0.9
2022-06-12T20:00:00,2363A,114.9367,25.8664,赣州市,地委,,19,19,23,10,14,82,36,52,51,14,11,7,7,0.7,0.7
2022-06-12T20:00:00,2364A,114.9461,25.8481,赣州市,气象台,,22,21,23,15,15,72,53,57,56,6,11,7,7,0.7,0.7
2022-06-12T20:00:00,2365A,114.9322,25.8333,赣州市,市图书馆,,12,12,21,7,14,62,36,49,44,15,13,4,6,0.7,0.6
2022-06-12T20:00:00,2366A,114.8905,25.8471,赣州市,华坚鞋城,,26,26,19,7,15,109,45,69,59,12,11,2,4,0.9,0.8
2022-06-12T20:00:00,2367A,114.9754,27.0803,吉安市,红声器材厂,,30,30,36,12,18,79,58,68,60,9,9,5,13,0.6,0.4
2022-06-12T20:00:00,2368A,114.9658,27.0999,吉安市,市森林工业局,,22,22,29,13,22,90,64,78,65,10,8,4,15,0.5,0.5
2022-06-12T20:00:00,2369A,114.99,27.1312,吉安市,市环境监测站,,20,19,31,10,20,91,64,86,58,10,11,5,24,0.6,0.5
2022-06-12T20:00:00,2370A,115.0093,27.0968,吉安市,青原区法院,,24,24,32,16,19,80,49,67,60,21,8,12,23,0.5,0.5
2022-06-12T20:00:00,2371A,114.3408,27.8064,宜春市,槟榔水业(对照点),,20,10,28,6,16,88,62,60,60,8,12,8,12,0.6,0.6
2022-06-12T20:00:00,2373A,114.3956,27.7844,宜春市,市石油公司,,20,14,31,5,19,87,64,68,59,14,20,6,12,0.6,0.7
2022-06-12T20:00:00,2374A,114.3703,27.7914,宜春市,市气象局,,22,17,35,9,20,84,70,65,63,10,16,4,12,0.6,0.7
2022-06-12T20:00:00,2375A,114.4013,27.8074,宜春市,市广电局,,20,15,31,11,21,88,62,61,61,10,14,4,12,0.4,0.5
2022-06-12T20:00:00,2376A,116.2127,28.0814,抚州市,桐源党溪(对照点),,22,14,24,6,15,78,69,63,63,4,8,1,4,0.8,0.8
2022-06-12T20:00:00,2377A,116.3544,27.9831,抚州市,市站,,20,15,26,7,17,88,64,76,61,6,10,6,6,0.6,0.7
2022-06-12T20:00:00,2378A,116.3565,27.963,抚州市,血防站,,19,18,26,6,14,92,60,73,57,10,12,2,4,0.6,0.7
2022-06-12T20:00:00,2379A,116.3564,28.0007,抚州市,采茶剧团,,20,14,25,10,16,95,64,72,60,6,10,5,6,0.7,0.8
2022-06-12T20:00:00,2380A,116.385,27.9647,抚州市,医学分院,,20,14,25,8,15,91,62,71,60,10,11,6,5,0.5,0.6
2022-06-12T20:00:00,2381A,118.005,28.4572,上饶市,百草园(对照点),,18,18,20,9,8,85,49,64,47,17,13,10,8,0.5,0.5
2022-06-12T20:00:00,2382A,117.9756,28.4436,上饶市,市监测站,,18,16,23,9,12,85,57,70,57,16,13,10,10,0.5,0.5
2022-06-12T20:00:00,2383A,117.9519,28.4628,上饶市,凤凰光学,,17,12,22,6,12,70,54,56,54,16,18,3,10,0.6,0.9
2022-06-12T20:00:00,2385A,114.17,35.9019,鹤壁市,市监测站,,50,46,48,22,18,173,157,149,149,14,18,2,6,0.6,0.6
2022-06-12T20:00:00,2386A,114.2956,35.7511,鹤壁市,市交警支队,颗粒物(PM10),51,52,57,13,20,179,157,157,157,15,15,9,9,0.7,0.7
2022-06-12T20:00:00,2387A,114.2878,35.7306,鹤壁市,迎宾馆,颗粒物(PM10),54,58,55,25,20,180,159,157,157,19,20,1,4,0.5,0.6
2022-06-12T20:00:00,2389A,113.836,35.311,新乡市,环保西院,颗粒物(PM10),57,63,50,19,16,151,133,133,133,15,13,10,7,0.5,0.4
2022-06-12T20:00:00,2390A,113.884,35.272,新乡市,开发区,,41,36,37,12,15,149,130,136,135,22,20,13,7,0.5,0.5
2022-06-12T20:00:00,2391A,113.883,35.303,新乡市,环保东院,,43,40,43,21,17,152,136,140,140,25,19,8,6,0.6,0.5
2022-06-12T20:00:00,2392A,115.0312,35.7636,濮阳市,环保局,颗粒物(PM10),55,60,56,33,31,159,137,153,152,20,17,7,9,0.4,0.4
2022-06-12T20:00:00,2394A,115.0574,35.7609,濮阳市,油田运输公司,颗粒物(PM10),53,55,66,29,27,172,148,164,164,25,22,6,9,0.4,0.4
2022-06-12T20:00:00,2395A,115.0866,35.7754,濮阳市,油田物探公司,颗粒物(PM10),57,63,66,30,29,173,144,165,163,21,19,9,12,0.4,0.4
2022-06-12T20:00:00,2396A,113.8276,34.0159,许昌市,监测站,臭氧1小时,80,75,52,52,21,200,184,188,188,14,16,5,7,0.5,0.4
2022-06-12T20:00:00,2398A,113.7906,33.9953,许昌市,开发区,臭氧1小时,53,49,50,22,18,188,162,176,176,18,16,6,7,0.6,0.6
2022-06-12T20:00:00,2399A,114.051,33.5699,漯河市,三五一五工厂,臭氧1小时,88,59,51,29,23,196,190,186,186,5,15,6,8,0.5,0.5
2022-06-12T20:00:00,2400A,114.0055,33.5698,漯河市,漯河大学,臭氧1小时,80,60,50,22,21,194,184,184,184,15,13,3,3,0.4,0.3
2022-06-12T20:00:00,2402A,114.0261,33.5698,漯河市,市广电局,臭氧1小时,83,56,51,26,21,195,186,184,184,8,8,6,7,0.4,0.4
2022-06-12T20:00:00,2403A,112.5192,32.9917,南阳市,环保局,,43,34,40,12,18,175,137,154,154,11,9,2,3,0.2,0.2
2022-06-12T20:00:00,2404A,112.5339,33.0086,南阳市,瓦房庄,,44,34,42,17,23,177,140,157,157,14,14,4,5,0.4,0.4
2022-06-12T20:00:00,2405A,112.5003,32.9735,南阳市,汉画馆,,45,32,40,19,20,171,141,153,153,6,7,5,6,0.3,0.3
2022-06-12T20:00:00,2406A,112.5779,33.0144,南阳市,气象站,,45,36,39,16,18,184,144,164,164,13,14,6,7,0.3,0.3
2022-06-12T20:00:00,2407A,112.548,32.9692,南阳市,理工学院,,45,41,38,19,24,171,142,154,154,11,16,2,3,0.6,0.6
2022-06-12T20:00:00,2408A,115.6702,34.4285,商丘市,环境监测站,颗粒物(PM10),52,54,53,18,21,163,144,152,152,15,14,7,8,0.4,0.4
2022-06-12T20:00:00,2409A,115.6458,34.4045,商丘市,粮食局,颗粒物(PM10),53,55,53,19,21,165,145,152,152,14,13,6,8,0.5,0.5
2022-06-12T20:00:00,2410A,115.6293,34.3948,商丘市,睢阳区环保局,颗粒物(PM10),53,55,50,17,21,162,143,149,149,15,14,5,8,0.5,0.5
2022-06-12T20:00:00,2420A,114.0189,32.9656,驻马店市,市一纸厂,,39,39,35,26,20,146,114,134,128,20,16,6,7,0.3,0.2
2022-06-12T20:00:00,2421A,114.0114,33.015,驻马店市,市彩印厂,颗粒物(PM10),51,51,40,27,15,154,130,141,138,16,13,5,7,0.2,0.2
2022-06-12T20:00:00,2422A,113.9976,32.9771,驻马店市,天方二分厂,,50,50,40,33,23,143,102,143,124,23,18,2,2,0.4,0.3
2022-06-12T20:00:00,2423A,115.0601,30.2313,黄石市,沈家营,,25,15,24,5,7,128,78,86,85,8,11,7,10,0.7,0.7
2022-06-12T20:00:00,2424A,115.0817,30.2006,黄石市,陈家湾,,24,21,18,6,7,138,76,96,87,18,6,3,4,0.4,0.4
2022-06-12T20:00:00,2426A,114.8988,30.2019,黄石市,铁山,,29,21,27,11,8,129,90,100,97,10,13,5,8,0.4,0.3
2022-06-12T20:00:00,2427A,115.0307,30.2092,黄石市,团城山,,26,21,22,2,3,138,83,108,95,10,6,5,5,0.5,0.5
2022-06-12T20:00:00,2428A,111.0419,32.395,十堰市,武当山(对照点),,31,22,19,10,16,137,99,128,113,6,6,9,9,0.6,0.6
2022-06-12T20:00:00,2429A,110.78,32.6494,十堰市,滨河新村,,46,46,50,24,27,129,89,110,110,30,16,8,7,0.7,0.7
2022-06-12T20:00:00,2430A,110.7258,32.6389,十堰市,刘家沟,,35,35,37,20,25,136,101,119,119,10,8,8,8,0.6,0.8
2022-06-12T20:00:00,2431A,110.8839,32.5714,十堰市,铁二处,,35,33,34,16,20,147,111,133,133,12,9,8,7,0.5,0.6
2022-06-12T20:00:00,2432A,112.155,32.0197,襄阳市,襄城运动路,,46,46,39,24,20,142,84,140,115,23,10,18,13,0.6,0.6
2022-06-12T20:00:00,2433A,112.1392,32.0564,襄阳市,樊城新华路,,30,26,39,17,19,134,96,127,114,9,8,6,8,0.6,0.6
2022-06-12T20:00:00,2434A,112.1825,32.1142,襄阳市,高新管委会,,48,48,34,22,16,132,85,116,108,15,11,8,6,0.6,0.5
2022-06-12T20:00:00,2435A,112.2106,32.0903,襄阳市,襄州航空路,,37,37,33,18,15,140,98,129,122,9,8,7,7,0.6,0.7
2022-06-12T20:00:00,2436A,114.8938,30.3994,鄂州市,市政府,,30,14,25,2,8,119,94,98,96,10,12,6,10,0.5,0.5
2022-06-12T20:00:00,2437A,114.8989,30.3714,鄂州市,赵家坝,,28,20,21,3,5,114,88,87,87,11,12,4,6,0.6,0.7
2022-06-12T20:00:00,2439A,112.2014,31.0481,荆门市,竹园小学,,30,30,33,15,18,128,71,128,87,12,11,10,11,0.5,0.4
2022-06-12T20:00:00,2440A,112.1969,30.9891,荆门市,掇刀,,35,35,30,23,16,108,80,95,91,17,12,9,8,0.4,0.4
2022-06-12T20:00:00,2441A,112.2213,31.0386,荆门市,石化一小,,27,26,32,13,14,118,85,118,94,13,13,8,13,0.6,0.6
2022-06-12T20:00:00,2443A,113.9153,30.9285,孝感市,文化路,,44,44,37,22,16,136,127,121,121,14,14,4,5,0.8,0.7
2022-06-12T20:00:00,2444A,113.942,30.9075,孝感市,东城区,,37,33,40,24,14,128,118,112,112,15,15,4,6,0.7,0.6
2022-06-12T20:00:00,2446A,114.9028,30.4742,黄冈市,职工中心,,32,18,19,3,8,112,100,104,104,5,11,4,8,0.5,0.5
2022-06-12T20:00:00,2447A,114.3175,29.8142,咸宁市,森林公园(对照点),,21,18,23,5,9,107,67,82,81,2,2,5,5,0.4,0.5
2022-06-12T20:00:00,2448A,114.3107,29.8454,咸宁市,市发改委,,,,24,6,11,126,95,89,89,6,6,7,7,0.3,0.4
2022-06-12T20:00:00,2449A,114.2936,29.8566,咸宁市,咸安区政府,,,,26,9,14,112,91,86,86,8,7,5,5,0.5,0.5
2022-06-12T20:00:00,2451A,113.3583,31.7275,随州市,市委党校,,26,20,29,9,12,167,81,144,110,9,6,7,7,0.6,0.6
2022-06-12T20:00:00,2452A,113.3833,31.6908,随州市,市林业局,,22,22,24,9,10,157,68,143,109,7,3,3,4,0.6,0.5
2022-06-12T20:00:00,2453A,113.3983,31.7308,随州市,市立交桥水厂,,29,22,25,7,12,173,90,164,112,10,10,8,10,0.6,0.6
2022-06-12T20:00:00,2454A,109.4978,30.2981,恩施土家族苗族自治州,湖北民院,,38,34,37,26,22,82,67,77,77,11,6,8,7,0.8,0.7
2022-06-12T20:00:00,2455A,109.4707,30.2798,恩施土家族苗族自治州,州电力总公司,,28,28,31,8,13,91,62,85,83,10,5,6,6,0.5,0.5
2022-06-12T20:00:00,2456A,112.5003,26.9167,衡阳市,原169医院(对照点),,18,17,26,12,15,61,56,61,55,11,12,2,3,0.6,0.7
2022-06-12T20:00:00,2457A,112.6194,26.9258,衡阳市,衡阳化工总厂,,23,20,27,16,17,76,52,73,61,12,9,6,8,0.6,0.6
2022-06-12T20:00:00,2458A,112.6211,26.8956,衡阳市,珠晖区环保局,,,12,22,,,71,53,70,60,14,14,2,3,0.7,0.7
2022-06-12T20:00:00,2459A,112.6197,26.8733,衡阳市,市委党校,,20,12,22,8,12,77,62,75,64,7,7,4,5,0.5,0.5
2022-06-12T20:00:00,2460A,112.6006,26.8919,衡阳市,市监测站,,30,29,26,21,17,80,58,80,65,14,9,9,9,0.7,0.6
2022-06-12T20:00:00,2461A,112.5664,26.9056,衡阳市,真空机电公司,,21,17,25,11,14,85,67,83,66,8,9,4,8,0.5,0.6
2022-06-12T20:00:00,2462A,111.5239,27.3033,邵阳市,市水土所(对照点),,32,12,11,22,23,86,68,79,79,7,6,8,6,0.4,0.4
2022-06-12T20:00:00,2463A,111.4733,27.2317,邵阳市,市一中,,42,27,31,29,21,84,68,77,76,6,8,7,6,0.4,0.5
2022-06-12T20:00:00,2464A,111.5283,27.2442,邵阳市,市化工厂,,34,34,32,21,22,86,68,80,78,8,7,12,7,0.5,0.5
2022-06-12T20:00:00,2465A,111.4503,27.2537,邵阳市,市罐头厂,,29,29,32,20,20,83,62,76,74,10,9,7,7,0.5,0.5
2022-06-12T20:00:00,2466A,111.4328,27.2272,邵阳市,市环保局,,40,30,32,28,24,86,70,76,76,6,8,6,5,0.5,0.6
2022-06-12T20:00:00,2467A,112.4067,28.6428,益阳市,甘溪港(对照点),,27,21,28,5,6,116,85,112,84,13,10,5,7,0.4,0.4
